timestamp,A_x,A_y,A_z,P,Q,R,Phi,Theta,Psi,poseX,poseY,poseZ,state_X,state_Y,state_Z,state_VzB,state_Bx,state_By,state_Bz,p1_x,p1_y,p2_x,p2_y,p3_x,p3_y,p4_x,p4_y,roll,pitch,yaw,alt,targetHeading,highLevelState,lowLevelState,gateNumber,filtered_x,filtered_y
10,0,0,0,0,0,0,0,0,0,0,0,0,0,0,0,0,0,0,0,0,0,0,0,0,0,0,0,0,-0.261799,0.0141372,-1.5,nan,0,0,0,0,0
20,0,0,0,0,0,0,0,0,0,0,0,0,0,0,0,0,0,0,0,0,0,0,0,0,0,0,0,0,-0.261799,0.0361283,-1.5,nan,0,0,0,0,0
30,-3.11382e-12,5.20103e-38,-1.50103e-06,-3.18057e-12,5.20055e-38,-3.59554e-12,-1.06589e-13,0,0,0,0,0,0,0,0,0,0,0,0,0,0,0,0,0,0,0,0,0,-0.261799,0.606327,-1.5,nan,0,0,0,0,0
40,-3.11382e-12,5.20103e-38,-1.50103e-06,-3.18057e-12,5.20055e-38,0,-1.0659e-13,0,0,0,0,0,0,0,0,0,0,0,0,0,0,0,0,0,0,0,0,0,-0.261799,0.629889,-1.5,nan,0,0,0,0,0
50,-3.11382e-12,5.20103e-38,-1.50103e-06,-3.18057e-12,5.20055e-38,-3.59554e-12,-1.0659e-13,0,0,0,0,0,0,0,0,0,0,0,0,0,0,0,0,0,0,0,0,0,-0.261799,0.659734,-1.5,nan,0,0,0,0,0
60,-3.11382e-12,5.20103e-38,-1.50103e-06,-3.18057e-12,5.20055e-38,0,-1.0659e-13,0,0,0,0,0,0,0,0,0,0,0,0,0,0,0,0,0,0,0,0,0,-0.261799,0.69115,-1.5,nan,0,0,0,0,0
70,-3.11382e-12,5.20103e-38,-1.50103e-06,-3.18057e-12,5.20055e-38,-3.59554e-12,-1.0659e-13,0,0,0,0,0,0,0,0,0,0,0,0,0,0,0,0,0,0,0,0,0,-0.261799,0.725707,-1.5,nan,0,0,0,0,0
80,-3.11382e-12,5.20103e-38,-1.50103e-06,-3.18057e-12,5.20055e-38,0,-1.06591e-13,0,0,0,0,0,0,0,0,0,0,0,0,0,0,0,0,0,0,0,0,0,-0.261799,0.757123,-1.5,nan,0,0,0,0,0
90,-3.11382e-12,5.20103e-38,-1.50103e-06,-3.18057e-12,5.20055e-38,-3.59554e-12,-1.06591e-13,0,0,0,0,0,0,0,0,0,0,0,0,0,0,0,0,0,0,0,0,0,-0.261799,0.804247,-1.5,nan,0,0,0,0,0
100,-3.11382e-12,5.20103e-38,-1.50103e-06,-3.18057e-12,5.20055e-38,0,-1.06591e-13,0,0,0,0,0,0,0,0,0,0,0,0,0,0,0,0,0,0,0,0,0,-0.261799,0.843517,-1.5,nan,0,0,0,0,0
110,-3.11382e-12,5.20103e-38,-1.50103e-06,-3.18057e-12,5.20055e-38,-3.59554e-12,-1.06591e-13,0,0,0,0,0,0,0,0,0,0,0,0,0,0,0,0,0,0,0,0,0,-0.261799,0.878074,-1.5,nan,0,0,0,0,0
120,-3.11382e-12,5.20103e-38,-1.50103e-06,-3.18057e-12,5.20055e-38,0,-1.06592e-13,0,0,0,0,0,0,0,0,0,0,0,0,0,0,0,0,0,0,0,0,0,-0.261799,0.911061,-1.5,nan,0,0,0,0,0
130,-3.11382e-12,5.20103e-38,-1.50103e-06,-3.18057e-12,5.20055e-38,-3.59554e-12,-1.06592e-13,0,0,0,0,0,0,0,0,0,0,0,0,0,0,0,0,0,0,0,0,0,-0.261799,0.947189,-1.5,nan,0,0,0,0,0
140,-3.11382e-12,5.20103e-38,-1.50103e-06,-3.18057e-12,5.20055e-38,0,-1.06592e-13,0,0,0,0,0,0,0,0,0,0,0,0,0,0,0,0,0,0,0,0,0,-0.261799,0.978605,-1.5,nan,0,0,0,0,0
150,-3.11382e-12,5.20103e-38,-1.50103e-06,-3.18057e-12,5.20055e-38,-3.59554e-12,-1.06593e-13,0,0,0,0,0,0,0,0,0,0,0,0,0,0,0,0,0,0,0,0,0,-0.261799,1.01473,-1.5,nan,0,0,0,0,0
160,-3.11382e-12,5.20103e-38,-1.50103e-06,-3.18057e-12,5.20055e-38,0,-1.06593e-13,0,0,0,0,0,0,0,0,0,0,0,0,0,0,0,0,0,0,0,0,0,-0.261799,1.04615,-1.5,nan,0,0,0,0,0
170,-3.11382e-12,5.20103e-38,-1.50103e-06,-3.18057e-12,5.20055e-38,-3.59554e-12,-1.06593e-13,0,0,0,0,0,0,0,0,0,0,0,0,0,0,0,0,0,0,0,0,0,-0.261799,1.08228,-1.5,nan,0,0,0,0,0
180,-3.11382e-12,5.20103e-38,-1.50103e-06,-3.18057e-12,5.20055e-38,0,-1.06593e-13,0,0,0,0,0,0,0,0,0,0,0,0,0,0,0,0,0,0,0,0,0,-0.261799,1.11369,-1.5,nan,0,0,0,0,0
190,-3.11382e-12,5.20103e-38,-1.50103e-06,-3.18057e-12,5.20055e-38,-3.59554e-12,-1.06594e-13,0,0,0,0,0,0,0,0,0,0,0,0,0,0,0,0,0,0,0,0,0,-0.261799,1.14982,-1.5,nan,0,0,0,0,0
200,-3.11382e-12,5.20103e-38,-1.50103e-06,-3.18057e-12,5.20055e-38,0,-1.06594e-13,0,0,0,0,0,0,0,0,0,0,0,0,0,0,0,0,0,0,0,0,0,-0.261799,1.18281,-1.5,nan,0,0,0,0,0
210,-3.11382e-12,5.20103e-38,-1.50103e-06,-3.18057e-12,5.20055e-38,-3.59554e-12,-1.06594e-13,0,0,0,0,0,0,0,0,0,0,0,0,0,0,0,0,0,0,0,0,0,-0.261799,1.21737,-1.5,nan,0,0,0,0,0
220,-3.11382e-12,5.20103e-38,-1.50103e-06,-3.18057e-12,5.20055e-38,0,-1.06594e-13,0,0,0,0,0,0,0,0,0,0,0,0,0,0,0,0,0,0,0,0,0,-0.261799,1.24878,-1.5,nan,0,0,0,0,0
230,-3.11382e-12,5.20103e-38,-1.50103e-06,-3.18057e-12,5.20055e-38,-3.59554e-12,-1.06595e-13,0,0,0,0,0,0,0,0,0,0,0,0,0,0,0,0,0,0,0,0,0,-0.261799,1.28491,-1.5,nan,0,0,0,0,0
240,-3.11382e-12,5.20103e-38,-1.50103e-06,-3.18057e-12,5.20055e-38,0,-1.06595e-13,0,0,0,0,0,0,0,0,0,0,0,0,0,0,0,0,0,0,0,0,0,-0.261799,1.31633,-1.5,nan,0,0,0,0,0
250,-3.11382e-12,5.20103e-38,-1.50103e-06,-3.18057e-12,5.20055e-38,-3.59554e-12,-1.06595e-13,0,0,0,0,0,0,0,0,0,0,0,0,0,0,0,0,0,0,0,0,0,-0.261799,1.34774,-1.5,nan,0,0,0,0,0
260,-3.11382e-12,5.20103e-38,-1.50103e-06,-3.18057e-12,5.20055e-38,0,-1.06596e-13,0,0,0,0,0,0,0,0,0,0,0,0,0,0,0,0,0,0,0,0,0,-0.261799,1.36973,-1.5,nan,0,0,0,0,0
270,-3.11382e-12,5.20103e-38,-1.50103e-06,-3.18057e-12,5.20055e-38,-3.59554e-12,-1.06596e-13,0,0,0,0,0,0,0,0,0,0,0,0,0,0,0,0,0,0,0,0,0,-0.261799,1.39016,-1.5,nan,0,0,0,0,0
280,-3.11382e-12,5.20103e-38,-1.50103e-06,-3.18057e-12,5.20055e-38,0,-1.06596e-13,0,0,0,0,0,0,0,0,0,0,0,0,0,0,0,0,0,0,0,0,0,-0.261799,1.41686,-1.5,nan,0,0,0,0,0
290,-3.11382e-12,5.20103e-38,-1.50103e-06,-3.18057e-12,5.20055e-38,-3.59554e-12,-1.06596e-13,0,0,0,0,0,0,0,0,0,0,0,0,0,0,0,0,0,0,0,0,0,-0.261799,1.44827,-1.5,nan,0,0,0,0,0
300,-3.11382e-12,5.20103e-38,-1.50103e-06,-3.18057e-12,5.20055e-38,0,-1.06597e-13,0,0,0,0,0,0,0,0,0,0,0,0,0,0,0,0,0,0,0,0,0,-0.261799,1.4844,-1.5,nan,0,0,0,0,0
310,-3.11382e-12,5.20103e-38,-1.50103e-06,-3.18057e-12,5.20055e-38,-3.59554e-12,-1.06597e-13,0,0,0,0,0,0,0,0,0,0,0,0,0,0,0,0,0,0,0,0,0,-0.261799,1.51582,-1.5,nan,0,0,0,0,0
320,-3.11382e-12,5.20103e-38,-1.50103e-06,-3.18057e-12,5.20055e-38,0,-1.06597e-13,0,0,0,0,0,0,0,0,0,0,0,0,0,0,0,0,0,0,0,0,0,-0.261799,1.55195,-1.5,nan,0,0,0,0,0
330,-3.11382e-12,5.20103e-38,-1.50103e-06,-3.18057e-12,5.20055e-38,-3.59554e-12,-1.06597e-13,0,0,0,0,0,0,0,0,0,0,0,0,0,0,0,0,0,0,0,0,0,-0.261799,1.58336,-1.5,nan,0,0,0,0,0
340,-3.11382e-12,5.20103e-38,-1.50103e-06,-3.18057e-12,5.20055e-38,0,-1.06598e-13,0,0,0,0,0,0,0,0,0,0,0,0,0,0,0,0,0,0,0,0,0,-0.261799,1.61949,-1.5,nan,0,0,0,0,0
350,-3.11382e-12,5.20103e-38,-1.50103e-06,-3.18057e-12,5.20055e-38,-3.59554e-12,-1.06598e-13,0,0,0,0,0,0,0,0,0,0,0,0,0,0,0,0,0,0,0,0,0,-0.261799,1.65248,-1.5,nan,0,0,0,0,0
360,-3.11382e-12,5.20103e-38,-1.50103e-06,-3.18057e-12,5.20055e-38,0,-1.06598e-13,0,0,0,0,0,0,0,0,0,0,0,0,0,0,0,0,0,0,0,0,0,-0.261799,1.68704,-1.5,nan,0,0,0,0,0
370,-3.11382e-12,5.20103e-38,-1.50103e-06,-3.18057e-12,5.20055e-38,-3.59554e-12,-1.06599e-13,0,0,0,0,0,0,0,0,0,0,0,0,0,0,0,0,0,0,0,0,0,-0.261799,1.71845,-1.5,nan,0,0,0,0,0
380,-3.11382e-12,5.20103e-38,-1.50103e-06,-3.18057e-12,5.20055e-38,0,-1.06599e-13,0,0,0,0,0,0,0,0,0,0,0,0,0,0,0,0,0,0,0,0,0,-0.261799,1.75458,-1.5,nan,0,0,0,0,0
390,-3.11382e-12,5.20103e-38,-1.50103e-06,-3.18057e-12,5.20055e-38,-3.59554e-12,-1.06599e-13,0,0,0,0,0,0,0,0,0,0,0,0,0,0,0,0,0,0,0,0,0,-0.261799,1.786,-1.5,nan,0,0,0,0,0
400,-3.11382e-12,5.20103e-38,-1.50103e-06,-3.18057e-12,5.20055e-38,0,-1.06599e-13,0,0,0,0,0,0,0,0,0,0,0,0,0,0,0,0,0,0,0,0,0,-0.261799,1.82055,-1.5,nan,0,0,0,0,0
410,-3.11382e-12,5.20103e-38,-1.50103e-06,-3.18057e-12,5.20055e-38,-3.59554e-12,-1.066e-13,0,0,0,0,0,0,0,0,0,0,0,0,0,0,0,0,0,0,0,0,0,-0.261799,1.85197,-1.5,nan,0,0,0,0,0
420,-3.11382e-12,5.20103e-38,-1.50103e-06,-3.18057e-12,5.20055e-38,0,-1.066e-13,0,0,0,0,0,0,0,0,0,0,0,0,0,0,0,0,0,0,0,0,0,-0.261799,1.8881,-1.5,nan,0,0,0,0,0
430,-3.11382e-12,5.20103e-38,-1.50103e-06,-3.18057e-12,5.20055e-38,-3.59554e-12,-1.066e-13,0,0,0,0,0,0,0,0,0,0,0,0,0,0,0,0,0,0,0,0,0,-0.261799,1.92109,-1.5,nan,0,0,0,0,0
440,-3.11382e-12,5.20103e-38,-1.50103e-06,-3.18057e-12,5.20055e-38,0,-1.066e-13,0,0,0,0,0,0,0,0,0,0,0,0,0,0,0,0,0,0,0,0,0,-0.261799,1.95564,-1.5,nan,0,0,0,0,0
450,-3.11382e-12,5.20103e-38,-1.50103e-06,-3.18057e-12,5.20055e-38,-3.59554e-12,-1.06601e-13,0,0,0,0,0,0,0,0,0,0,0,0,0,0,0,0,0,0,0,0,0,-0.261799,1.98706,-1.5,nan,0,0,0,0,0
460,-3.11382e-12,5.20103e-38,-1.50103e-06,-3.18057e-12,5.20055e-38,0,-1.06601e-13,0,0,0,0,0,0,0,0,0,0,0,0,0,0,0,0,0,0,0,0,0,-0.261799,2.02319,-1.5,nan,0,0,0,0,0
470,-3.11382e-12,5.20103e-38,-1.50103e-06,-3.18057e-12,5.20055e-38,-3.59554e-12,-1.06601e-13,0,0,0,0,0,0,0,0,0,0,0,0,0,0,0,0,0,0,0,0,0,-0.261799,2.0546,-1.5,nan,0,0,0,0,0
480,-3.11382e-12,5.20103e-38,-1.50103e-06,-3.18057e-12,5.20055e-38,0,-1.06602e-13,0,0,0,0,0,0,0,0,0,0,0,0,0,0,0,0,0,0,0,0,0,-0.261799,2.09073,-1.5,nan,0,0,0,0,0
490,-3.11382e-12,5.20103e-38,-1.50103e-06,-3.18057e-12,5.20055e-38,-3.59554e-12,-1.06602e-13,0,0,0,0,0,0,0,0,0,0,0,0,0,0,0,0,0,0,0,0,0,-0.261799,2.12215,-1.5,nan,0,0,0,0,0
500,-3.11382e-12,5.20103e-38,-1.50103e-06,-3.18057e-12,5.20055e-38,0,-1.06602e-13,0,0,0,0,0,0,0,0,0,0,0,0,0,0,0,0,0,0,0,0,0,-0.261799,2.15671,-1.5,nan,0,0,0,0,0
510,-3.11382e-12,5.20103e-38,-1.50103e-06,-3.18057e-12,5.20055e-38,-3.59554e-12,-1.06602e-13,0,0,0,0,0,0,0,0,0,0,0,0,0,0,0,0,0,0,0,0,0,-0.261799,2.18498,-1.5,nan,0,0,0,0,0
520,-3.11382e-12,5.20103e-38,-1.50103e-06,-3.18057e-12,5.20055e-38,0,-1.06603e-13,0,0,0,0,0,0,0,0,0,0,0,0,0,0,0,0,0,0,0,0,0,-0.261799,2.20854,-1.5,nan,0,0,0,0,0
530,-3.11382e-12,5.20103e-38,-1.50103e-06,-3.18057e-12,5.20055e-38,-3.59554e-12,-1.06603e-13,0,0,0,0,0,0,0,0,0,0,0,0,0,0,0,0,0,0,0,0,0,-0.261799,2.23682,-1.5,nan,0,0,0,0,0
540,-3.11382e-12,5.20103e-38,-1.50103e-06,-3.18057e-12,5.20055e-38,0,-1.06603e-13,0,0,0,0,0,0,0,0,0,0,0,0,0,0,0,0,0,0,0,0,0,-0.261799,2.26823,-1.5,nan,0,0,0,0,0
550,-3.11382e-12,5.20103e-38,-1.50103e-06,-3.18057e-12,5.20055e-38,-3.59554e-12,-1.06603e-13,0,0,0,0,0,0,0,0,0,0,0,0,0,0,0,0,0,0,0,0,0,-0.261799,2.30279,-1.5,nan,0,0,0,0,0
560,-3.11382e-12,5.20103e-38,-1.50103e-06,-3.18057e-12,5.20055e-38,0,-1.06604e-13,0,0,0,0,0,0,0,0,0,0,0,0,0,0,0,0,0,0,0,0,0,-0.261799,2.33578,-1.5,nan,0,0,0,0,0
570,-3.11382e-12,5.20103e-38,-1.50103e-06,-3.18057e-12,5.20055e-38,-3.59554e-12,-1.06604e-13,0,0,0,0,0,0,0,0,0,0,0,0,0,0,0,0,0,0,0,0,0,-0.261799,2.37024,-1.5,nan,0,0,0,0,0
580,-3.11382e-12,5.20103e-38,-1.50103e-06,-3.18057e-12,5.20055e-38,0,-1.06604e-13,0,0,0,0,0,0,0,0,0,0,0,0,0,0,0,0,0,0,0,0,0,-0.261799,2.40073,-1.5,nan,0,0,0,0,0
590,-3.11382e-12,5.20103e-38,-1.50103e-06,-3.18057e-12,5.20055e-38,-3.59554e-12,-1.06605e-13,0,0,0,0,0,0,0,0,0,0,0,0,0,0,0,0,0,0,0,0,0,-0.261799,2.43292,-1.5,nan,0,0,0,0,0
600,-3.11382e-12,5.20103e-38,-1.50103e-06,-3.18057e-12,5.20055e-38,0,-1.06605e-13,0,0,0,0,0,0,0,0,0,0,0,0,0,0,0,0,0,0,0,0,0,-0.261799,2.51115,-1.5,nan,0,0,0,0,0
610,-3.11382e-12,5.20103e-38,-1.50103e-06,-3.18057e-12,5.20055e-38,-3.59554e-12,-1.06605e-13,0,0,0,0,0,0,0,0,0,0,0,0,0,0,0,0,0,0,0,0,0,-0.261799,2.55219,-1.5,nan,0,0,0,0,0
620,-3.11382e-12,5.20103e-38,-1.50103e-06,-3.18057e-12,5.20055e-38,0,-1.06605e-13,0,0,0,0,0,0,0,0,0,0,0,0,0,0,0,0,0,0,0,0,0,-0.261799,2.57665,-1.5,nan,0,0,0,0,0
630,-3.11382e-12,5.20103e-38,-1.50103e-06,-3.18057e-12,5.20055e-38,-3.59554e-12,-1.06606e-13,0,0,0,0,0,0,0,0,0,0,0,0,0,0,0,0,0,0,0,0,0,-0.261799,2.6012,-1.5,nan,0,0,0,0,0
640,-3.11382e-12,5.20103e-38,-1.50103e-06,-3.18057e-12,5.20055e-38,0,-1.06606e-13,0,0,0,0,0,0,0,0,0,0,0,0,0,0,0,0,0,0,0,0,0,-0.261799,2.62256,-1.5,nan,0,0,0,0,0
650,-3.11382e-12,5.20103e-38,-1.50103e-06,-3.18057e-12,5.20055e-38,-3.59554e-12,-1.06606e-13,0,0,0,0,0,0,0,0,0,0,0,0,0,0,0,0,0,0,0,0,0,-0.261799,2.64614,-1.5,nan,0,0,0,0,0
660,-3.11382e-12,5.20103e-38,-1.50103e-06,-3.18057e-12,5.20055e-38,0,-1.06606e-13,0,0,0,0,0,0,0,0,0,0,0,0,0,0,0,0,0,0,0,0,0,-0.261799,2.66572,-1.5,nan,0,0,0,0,0
670,-3.11382e-12,5.20103e-38,-1.50103e-06,-3.18057e-12,5.20055e-38,-3.59554e-12,-1.06607e-13,0,0,0,0,0,0,0,0,0,0,0,0,0,0,0,0,0,0,0,0,0,-0.261799,2.6864,-1.5,nan,0,0,0,0,0
680,-3.11382e-12,5.20103e-38,-1.50103e-06,-3.18057e-12,5.20055e-38,0,-1.06607e-13,0,0,0,0,0,0,0,0,0,0,0,0,0,0,0,0,0,0,0,0,0,-0.261799,2.70527,-1.5,nan,0,0,0,0,0
690,-3.11382e-12,5.20103e-38,-1.50103e-06,-3.18057e-12,5.20055e-38,-3.59554e-12,-1.06607e-13,0,0,0,0,0,0,0,0,0,0,0,0,0,0,0,0,0,0,0,0,0,-0.261799,2.72423,-1.5,nan,0,0,0,0,0
700,-3.11382e-12,5.20103e-38,-1.50103e-06,-3.18057e-12,5.20055e-38,0,-1.06607e-13,0,0,0,0,0,0,0,0,0,0,0,0,0,0,0,0,0,0,0,0,0,-0.261799,2.74153,-1.5,nan,0,0,0,0,0
710,-3.11382e-12,5.20103e-38,-1.50103e-06,-3.18057e-12,5.20055e-38,-3.59554e-12,-1.06608e-13,0,0,0,0,0,0,0,0,0,0,0,0,0,0,0,0,0,0,0,0,0,-0.261799,2.75891,-1.5,nan,0,0,0,0,0
720,-3.11382e-12,5.20103e-38,-1.50103e-06,-3.18057e-12,5.20055e-38,0,-1.06608e-13,0,0,0,0,0,0,0,0,0,0,0,0,0,0,0,0,0,0,0,0,0,-0.261799,2.77404,-1.5,nan,0,0,0,0,0
730,-3.11382e-12,5.20103e-38,-1.50103e-06,-3.18057e-12,5.20055e-38,-3.59554e-12,-1.06608e-13,0,0,0,0,0,0,0,0,0,0,0,0,0,0,0,0,0,0,0,0,0,-0.261799,2.79074,-1.5,nan,0,0,0,0,0
740,-3.11382e-12,5.20103e-38,-1.50103e-06,-3.18057e-12,5.20055e-38,0,-1.06609e-13,0,0,0,0,0,0,0,0,0,0,0,0,0,0,0,0,0,0,0,0,0,-0.261799,2.80528,-1.5,nan,0,0,0,0,0
750,-3.11382e-12,5.20103e-38,-1.50103e-06,-3.18057e-12,5.20055e-38,-3.59554e-12,-1.06609e-13,0,0,0,0,0,0,0,0,0,0,0,0,0,0,0,0,0,0,0,0,0,-0.261799,2.82056,-1.5,nan,0,0,0,0,0
760,-3.11382e-12,5.20103e-38,-1.50103e-06,-3.18057e-12,5.20055e-38,0,-1.06609e-13,0,0,0,0,0,0,0,0,0,0,0,0,0,0,0,0,0,0,0,0,0,-0.261799,2.83135,-1.5,nan,0,0,0,0,0
770,-3.11382e-12,5.20103e-38,-1.50103e-06,-3.18057e-12,5.20055e-38,-3.59554e-12,-1.06609e-13,0,0,0,0,0,0,0,0,0,0,0,0,0,0,0,0,0,0,0,0,0,-0.261799,2.84116,-1.5,nan,0,0,0,0,0
780,-3.11382e-12,5.20103e-38,-1.50103e-06,-3.18057e-12,5.20055e-38,0,-1.0661e-13,0,0,0,0,0,0,0,0,0,0,0,0,0,0,0,0,0,0,0,0,0,-0.261799,2.85126,-1.5,nan,0,0,0,0,0
790,-3.11382e-12,5.20103e-38,-1.50103e-06,-3.18057e-12,5.20055e-38,-3.59554e-12,-1.0661e-13,0,0,0,0,0,0,0,0,0,0,0,0,0,0,0,0,0,0,0,0,0,-0.261799,2.86331,-1.5,nan,0,0,0,0,0
800,-3.11382e-12,5.20103e-38,-1.50103e-06,-3.18057e-12,5.20055e-38,0,-1.0661e-13,0,0,0,0,0,0,0,0,0,0,0,0,0,0,0,0,0,0,0,0,0,-0.261799,2.87539,-1.5,nan,0,0,0,0,0
810,-3.11382e-12,5.20103e-38,-1.50103e-06,-3.18057e-12,5.20055e-38,-3.59554e-12,-1.0661e-13,0,0,0,0,0,0,0,0,0,0,0,0,0,0,0,0,0,0,0,0,0,-0.261799,2.88643,-1.5,nan,0,0,0,0,0
820,-3.11382e-12,5.20103e-38,-1.50103e-06,-3.18057e-12,5.20055e-38,0,-1.06611e-13,0,0,0,0,0,0,0,0,0,0,0,0,0,0,0,0,0,0,0,0,0,-0.261799,2.89702,-1.5,nan,0,0,0,0,0
830,-3.11382e-12,5.20103e-38,-1.50103e-06,-3.18057e-12,5.20055e-38,-3.59554e-12,-1.06611e-13,0,0,0,0,0,0,0,0,0,0,0,0,0,0,0,0,0,0,0,0,0,-0.261799,2.90765,-1.5,nan,0,0,0,0,0
840,-3.11382e-12,5.20103e-38,-1.50103e-06,-3.18057e-12,5.20055e-38,0,-1.06611e-13,0,0,0,0,0,0,0,0,0,0,0,0,0,0,0,0,0,0,0,0,0,-0.261799,2.91782,-1.5,nan,0,0,0,0,0
850,-3.11382e-12,5.20103e-38,-1.50103e-06,-3.18057e-12,5.20055e-38,-3.59554e-12,-1.06612e-13,0,0,0,0,0,0,0,0,0,0,0,0,0,0,0,0,0,0,0,0,0,-0.261799,2.9271,-1.5,nan,0,0,0,0,0
860,-3.11382e-12,5.20103e-38,-1.50103e-06,-3.18057e-12,5.20055e-38,0,-1.06612e-13,0,0,0,0,0,0,0,0,0,0,0,0,0,0,0,0,0,0,0,0,0,-0.261799,2.93641,-1.5,nan,0,0,0,0,0
870,-3.11382e-12,5.20103e-38,-1.50103e-06,-3.18057e-12,5.20055e-38,-3.59554e-12,-1.06612e-13,0,0,0,0,0,0,0,0,0,0,0,0,0,0,0,0,0,0,0,0,0,-0.261799,2.95139,-1.5,nan,0,0,0,0,0
880,-3.11382e-12,5.20103e-38,-1.50103e-06,-3.18057e-12,5.20055e-38,0,-1.06612e-13,0,0,0,0,0,0,0,0,0,0,0,0,0,0,0,0,0,0,0,0,0,-0.261799,2.95965,-1.5,nan,0,0,0,0,0
890,-3.11382e-12,5.20103e-38,-1.50103e-06,-3.18057e-12,5.20055e-38,-3.59554e-12,-1.06613e-13,0,0,0,0,0,0,0,0,0,0,0,0,0,0,0,0,0,0,0,0,0,-0.261799,2.9672,-1.5,nan,0,0,0,0,0
900,-3.11382e-12,5.20103e-38,-1.50103e-06,-3.18057e-12,5.20055e-38,0,-1.06613e-13,0,0,0,0,0,0,0,0,0,0,0,0,0,0,0,0,0,0,0,0,0,-0.261799,2.97477,-1.5,nan,0,0,0,0,0
910,-3.11382e-12,5.20103e-38,-1.50103e-06,-3.18057e-12,5.20055e-38,-3.59554e-12,-1.06613e-13,0,0,0,0,0,0,0,0,0,0,0,0,0,0,0,0,0,0,0,0,0,-0.261799,2.98169,-1.5,nan,0,0,0,0,0
920,-3.11382e-12,5.20103e-38,-1.50103e-06,-3.18057e-12,5.20055e-38,0,-1.06613e-13,0,0,0,0,0,0,0,0,0,0,0,0,0,0,0,0,0,0,0,0,0,-0.261799,2.98833,-1.5,nan,0,0,0,0,0
930,-3.11382e-12,5.20103e-38,-1.50103e-06,-3.18057e-12,5.20055e-38,-3.59554e-12,-1.06614e-13,0,0,0,0,0,0,0,0,0,0,0,0,0,0,0,0,0,0,0,0,0,-0.261799,2.99499,-1.5,nan,0,0,0,0,0
940,-3.11382e-12,5.20103e-38,-1.50103e-06,-3.18057e-12,5.20055e-38,0,-1.06614e-13,0,0,0,0,0,0,0,0,0,0,0,0,0,0,0,0,0,0,0,0,0,-0.261799,3.00107,-1.5,nan,0,0,0,0,0
950,-3.11382e-12,5.20103e-38,-1.50103e-06,-3.18057e-12,5.20055e-38,-3.59554e-12,-1.06614e-13,0,0,0,0,0,0,0,0,0,0,0,0,0,0,0,0,0,0,0,0,0,-0.261799,3.0069,-1.5,nan,0,0,0,0,0
960,-3.11382e-12,5.20103e-38,-1.50103e-06,-3.18057e-12,5.20055e-38,0,-1.06615e-13,0,0,0,0,0,0,0,0,0,0,0,0,0,0,0,0,0,0,0,0,0,-0.261799,3.01275,-1.5,nan,0,0,0,0,0
970,-3.11382e-12,5.20103e-38,-1.50103e-06,-3.18057e-12,5.20055e-38,-3.59554e-12,-1.06615e-13,0,0,0,0,0,0,0,0,0,0,0,0,0,0,0,0,0,0,0,0,0,-0.261799,3.0181,-1.5,nan,0,0,0,0,0
980,-3.11382e-12,5.20103e-38,-1.50103e-06,-3.18057e-12,5.20055e-38,0,-1.06615e-13,0,0,0,0,0,0,0,0,0,0,0,0,0,0,0,0,0,0,0,0,0,-0.261799,3.02322,-1.5,nan,0,0,0,0,0
990,-3.11382e-12,5.20103e-38,-1.50103e-06,-3.18057e-12,5.20055e-38,-3.59554e-12,-1.06615e-13,0,0,0,0,0,0,0,0,0,0,0,0,0,0,0,0,0,0,0,0,0,-0.261799,3.02837,-1.5,nan,0,0,0,0,0
1000,-3.11382e-12,5.20103e-38,-1.50103e-06,-3.18057e-12,5.20055e-38,0,-1.06616e-13,0,0,0,0,0,0,0,0,0,0,0,0,0,0,0,0,0,0,0,0,0,-0.261799,3.03217,-1.5,nan,0,0,0,0,0
1010,-3.11382e-12,5.20103e-38,-1.50103e-06,-3.18057e-12,5.20055e-38,-3.59554e-12,-1.06616e-13,0,0,0,0,0,0,0,0,0,0,0,0,0,0,0,0,0,0,0,0,0,-0.261799,3.03563,-1.5,nan,0,0,0,0,0
1020,-3.11382e-12,5.20103e-38,-1.50103e-06,-3.18057e-12,5.20055e-38,0,-1.06616e-13,0,0,0,0,0,0,0,0,0,0,0,0,0,0,0,0,0,0,0,0,0,-0.261799,3.0392,-1.5,nan,0,0,0,0,0
1030,-3.11382e-12,5.20103e-38,-1.50103e-06,-3.18057e-12,5.20055e-38,-3.59554e-12,-1.06616e-13,0,0,0,0,0,0,0,0,0,0,0,0,0,0,0,0,0,0,0,0,0,-0.261799,3.04364,-1.5,nan,0,0,0,0,0
1040,-3.11382e-12,5.20103e-38,-1.50103e-06,-3.18057e-12,5.20055e-38,0,-1.06617e-13,0,0,0,0,0,0,0,0,0,0,0,0,0,0,0,0,0,0,0,0,0,-0.261799,3.04751,-1.5,nan,0,0,0,0,0
1050,-3.11382e-12,5.20103e-38,-1.50103e-06,-3.18057e-12,5.20055e-38,-3.59554e-12,-1.06617e-13,0,0,0,0,0,0,0,0,0,0,0,0,0,0,0,0,0,0,0,0,0,-0.261799,3.05141,-1.5,nan,0,0,0,0,0
1060,-3.11382e-12,5.20103e-38,-1.50103e-06,-3.18057e-12,5.20055e-38,0,-1.06617e-13,0,0,0,0,0,0,0,0,0,0,0,0,0,0,0,0,0,0,0,0,0,-0.261799,3.05516,-1.5,nan,0,0,0,0,0
1070,-3.11382e-12,5.20103e-38,-1.50103e-06,-3.18057e-12,5.20055e-38,-3.59554e-12,-1.06618e-13,0,0,0,0,0,0,0,0,0,0,0,0,0,0,0,0,0,0,0,0,0,-0.261799,3.05891,-1.5,nan,0,0,0,0,0
1080,-3.11382e-12,5.20103e-38,-1.50103e-06,-3.18057e-12,5.20055e-38,0,-1.06618e-13,0,0,0,0,0,0,0,0,0,0,0,0,0,0,0,0,0,0,0,0,0,-0.261799,3.06234,-1.5,nan,0,0,0,0,0
1090,-3.11382e-12,5.20103e-38,-1.50103e-06,-3.18057e-12,5.20055e-38,-3.59554e-12,-1.06618e-13,0,0,0,0,0,0,0,0,0,0,0,0,0,0,0,0,0,0,0,0,0,-0.261799,3.06562,-1.5,nan,0,0,0,0,0
1100,-3.11382e-12,5.20103e-38,-1.50103e-06,-3.18057e-12,5.20055e-38,0,-1.06618e-13,0,0,0,0,0,0,0,0,0,0,0,0,0,0,0,0,0,0,0,0,0,-0.261799,3.06878,-1.5,nan,0,0,0,0,0
1110,-3.11382e-12,5.20103e-38,-1.50103e-06,-3.18057e-12,5.20055e-38,-3.59554e-12,-1.06619e-13,0,0,0,0,0,0,0,0,0,0,0,0,0,0,0,0,0,0,0,0,0,-0.261799,3.07237,-1.5,nan,0,0,0,0,0
1120,-3.11382e-12,5.20103e-38,-1.50103e-06,-3.18057e-12,5.20055e-38,0,-1.06619e-13,0,0,0,0,0,0,0,0,0,0,0,0,0,0,0,0,0,0,0,0,0,-0.261799,3.07537,-1.5,nan,0,0,0,0,0
1130,-3.11382e-12,5.20103e-38,-1.50103e-06,-3.18057e-12,5.20055e-38,-3.59554e-12,-1.06619e-13,0,0,0,0,0,0,0,0,0,0,0,0,0,0,0,0,0,0,0,0,0,-0.261799,3.07812,-1.5,nan,0,0,0,0,0
1140,-3.11382e-12,5.20103e-38,-1.50103e-06,-3.18057e-12,5.20055e-38,0,-1.06619e-13,0,0,0,0,0,0,0,0,0,0,0,0,0,0,0,0,0,0,0,0,0,-0.261799,3.08075,-1.5,nan,0,0,0,0,0
1150,-3.11382e-12,5.20103e-38,-1.50103e-06,-3.18057e-12,5.20055e-38,-3.59554e-12,-1.0662e-13,0,0,0,0,0,0,0,0,0,0,0,0,0,0,0,0,0,0,0,0,0,-0.261799,3.0834,-1.5,nan,0,0,0,0,0
1160,-3.11382e-12,5.20103e-38,-1.50103e-06,-3.18057e-12,5.20055e-38,0,-1.0662e-13,0,0,0,0,0,0,0,0,0,0,0,0,0,0,0,0,0,0,0,0,0,-0.261799,3.08856,-1.5,nan,0,0,0,0,0
1170,-3.11382e-12,5.20103e-38,-1.50103e-06,-3.18057e-12,5.20055e-38,-3.59554e-12,-1.0662e-13,0,0,0,0,0,0,0,0,0,0,0,0,0,0,0,0,0,0,0,0,0,-0.261799,3.09201,-1.5,nan,0,0,0,0,0
1180,-3.11382e-12,5.20103e-38,-1.50103e-06,-3.18057e-12,5.20055e-38,0,-1.0662e-13,0,0,0,0,0,0,0,0,0,0,0,0,0,0,0,0,0,0,0,0,0,-0.261799,3.09407,-1.5,nan,0,0,0,0,0
1190,-3.11382e-12,5.20103e-38,-1.50103e-06,-3.18057e-12,5.20055e-38,-3.59554e-12,-1.06621e-13,0,0,0,0,0,0,0,0,0,0,0,0,0,0,0,0,0,0,0,0,0,-0.261799,3.09613,-1.5,nan,0,0,0,0,0
1200,-3.11382e-12,5.20103e-38,-1.50103e-06,-3.18057e-12,5.20055e-38,0,-1.06621e-13,0,0,0,0,0,0,0,0,0,0,0,0,0,0,0,0,0,0,0,0,0,-0.261799,3.09802,-1.5,nan,0,0,0,0,0
1210,-3.11382e-12,5.20103e-38,-1.50103e-06,-3.18057e-12,5.20055e-38,-3.59554e-12,-1.06621e-13,0,0,0,0,0,0,0,0,0,0,0,0,0,0,0,0,0,0,0,0,0,-0.261799,3.09991,-1.5,nan,0,0,0,0,0
1220,-3.11382e-12,5.20103e-38,-1.50103e-06,-3.18057e-12,5.20055e-38,0,-1.06622e-13,0,0,0,0,0,0,0,0,0,0,0,0,0,0,0,0,0,0,0,0,0,-0.261799,3.10164,-1.5,nan,0,0,0,0,0
1230,-3.11382e-12,5.20103e-38,-1.50103e-06,-3.18057e-12,5.20055e-38,-3.59554e-12,-1.06622e-13,0,0,0,0,0,0,0,0,0,0,0,0,0,0,0,0,0,0,0,0,0,-0.261799,3.10337,-1.5,nan,0,0,0,0,0
1240,-3.11382e-12,5.20103e-38,-1.50103e-06,-3.18057e-12,5.20055e-38,0,-1.06622e-13,0,0,0,0,0,0,0,0,0,0,0,0,0,0,0,0,0,0,0,0,0,-0.261799,3.10503,-1.5,nan,0,0,0,0,0
1250,-3.11382e-12,5.20103e-38,-1.50103e-06,-3.18057e-12,5.20055e-38,-3.59554e-12,-1.06622e-13,0,0,0,0,0,0,0,0,0,0,0,0,0,0,0,0,0,0,0,0,0,-0.261799,3.10619,-1.5,nan,0,0,0,0,0
1260,-3.11382e-12,5.20103e-38,-1.50103e-06,-3.18057e-12,5.20055e-38,0,-1.06623e-13,0,0,0,0,0,0,0,0,0,0,0,0,0,0,0,0,0,0,0,0,0,-0.261799,3.10731,-1.5,nan,0,0,0,0,0
1270,-3.11382e-12,5.20103e-38,-1.50103e-06,-3.18057e-12,5.20055e-38,-3.59554e-12,-1.06623e-13,0,0,0,0,0,0,0,0,0,0,0,0,0,0,0,0,0,0,0,0,0,-0.261799,3.10846,-1.5,nan,0,0,0,0,0
1280,-3.11382e-12,5.20103e-38,-1.50103e-06,-3.18057e-12,5.20055e-38,0,-1.06623e-13,0,0,0,0,0,0,0,0,0,0,0,0,0,0,0,0,0,0,0,0,0,-0.261799,3.1099,-1.5,nan,0,0,0,0,0
1290,-3.11382e-12,5.20103e-38,-1.50103e-06,-3.18057e-12,5.20055e-38,-3.59554e-12,-1.06623e-13,0,0,0,0,0,0,0,0,0,0,0,0,0,0,0,0,0,0,0,0,0,-0.261799,3.11122,-1.5,nan,0,0,0,0,0
1300,-3.11382e-12,5.20103e-38,-1.50103e-06,-3.18057e-12,5.20055e-38,0,-1.06624e-13,0,0,0,0,0,0,0,0,0,0,0,0,0,0,0,0,0,0,0,0,0,-0.261799,3.11254,-1.5,nan,0,0,0,0,0
1310,-3.11382e-12,5.20103e-38,-1.50103e-06,-3.18057e-12,5.20055e-38,-3.59554e-12,-1.06624e-13,0,0,0,0,0,0,0,0,0,0,0,0,0,0,0,0,0,0,0,0,0,-0.261799,3.1138,-1.5,nan,0,0,0,0,0
1320,-3.11382e-12,5.20103e-38,-1.50103e-06,-3.18057e-12,5.20055e-38,0,-1.06624e-13,0,0,0,0,0,0,0,0,0,0,0,0,0,0,0,0,0,0,0,0,0,-0.261799,3.1149,-1.5,nan,0,0,0,0,0
1330,-3.11382e-12,5.20103e-38,-1.50103e-06,-3.18057e-12,5.20055e-38,-3.59554e-12,-1.06625e-13,0,0,0,0,0,0,0,0,0,0,0,0,0,0,0,0,0,0,0,0,0,-0.261799,3.11606,-1.5,nan,0,0,0,0,0
1340,-3.11382e-12,5.20103e-38,-1.50103e-06,-3.18057e-12,5.20055e-38,0,-1.06625e-13,0,0,0,0,0,0,0,0,0,0,0,0,0,0,0,0,0,0,0,0,0,-0.261799,3.11711,-1.5,nan,0,0,0,0,0
1350,-3.11382e-12,5.20103e-38,-1.50103e-06,-3.18057e-12,5.20055e-38,-3.59554e-12,-1.06625e-13,0,0,0,0,0,0,0,0,0,0,0,0,0,0,0,0,0,0,0,0,0,-0.261799,3.11813,-1.5,nan,0,0,0,0,0
1360,-3.11382e-12,5.20103e-38,-1.50103e-06,-3.18057e-12,5.20055e-38,0,-1.06625e-13,0,0,0,0,0,0,0,0,0,0,0,0,0,0,0,0,0,0,0,0,0,-0.261799,3.11915,-1.5,nan,0,0,0,0,0
1370,-3.11382e-12,5.20103e-38,-1.50103e-06,-3.18057e-12,5.20055e-38,-3.59554e-12,-1.06626e-13,0,0,0,0,0,0,0,0,0,0,0,0,0,0,0,0,0,0,0,0,0,-0.261799,3.12008,-1.5,nan,0,0,0,0,0
1380,-3.11382e-12,5.20103e-38,-1.50103e-06,-3.18057e-12,5.20055e-38,0,-1.06626e-13,0,0,0,0,0,0,0,0,0,0,0,0,0,0,0,0,0,0,0,0,0,-0.261799,3.12097,-1.5,nan,0,0,0,0,0
1390,-3.11382e-12,5.20103e-38,-1.50103e-06,-3.18057e-12,5.20055e-38,-3.59554e-12,-1.06626e-13,0,0,0,0,0,0,0,0,0,0,0,0,0,0,0,0,0,0,0,0,0,-0.261799,3.12182,-1.5,nan,0,0,0,0,0
1400,-3.11382e-12,5.20103e-38,-1.50103e-06,-3.18057e-12,5.20055e-38,0,-1.06626e-13,0,0,0,0,0,0,0,0,0,0,0,0,0,0,0,0,0,0,0,0,0,-0.261799,3.12268,-1.5,nan,0,0,0,0,0
1410,-3.11382e-12,5.20103e-38,-1.50103e-06,-3.18057e-12,5.20055e-38,-3.59554e-12,-1.06627e-13,0,0,0,0,0,0,0,0,0,0,0,0,0,0,0,0,0,0,0,0,0,-0.261799,3.12347,-1.5,nan,0,0,0,0,0
1420,-3.11382e-12,5.20103e-38,-1.50103e-06,-3.18057e-12,5.20055e-38,0,-1.06627e-13,0,0,0,0,0,0,0,0,0,0,0,0,0,0,0,0,0,0,0,0,0,-0.261799,3.12425,-1.5,nan,0,0,0,0,0
1430,-3.11382e-12,5.20103e-38,-1.50103e-06,-3.18057e-12,5.20055e-38,-3.59554e-12,-1.06627e-13,0,0,0,0,0,0,0,0,0,0,0,0,0,0,0,0,0,0,0,0,0,-0.261799,3.12497,-1.5,nan,0,0,0,0,0
1440,-3.11382e-12,5.20103e-38,-1.50103e-06,-3.18057e-12,5.20055e-38,0,-1.06628e-13,0,0,0,0,0,0,0,0,0,0,0,0,0,0,0,0,0,0,0,0,0,-0.261799,3.1257,-1.5,nan,0,0,0,0,0
1450,-3.11382e-12,5.20103e-38,-1.50103e-06,-3.18057e-12,5.20055e-38,-3.59554e-12,-1.06631e-13,0,0,0,0,0,0,0,0,0,0,0,0,0,0,0,0,0,0,0,0,0,-0.261799,3.12639,-1.5,nan,0,0,0,0,0
1460,-3.11382e-12,5.20103e-38,-1.50103e-06,-3.18057e-12,5.20055e-38,0,-1.06632e-13,0,0,0,0,0,0,0,0,0,0,0,0,0,0,0,0,0,0,0,0,0,-0.261799,3.12702,-1.5,nan,0,0,0,0,0
1470,-3.11382e-12,5.20103e-38,-1.50103e-06,-3.18057e-12,5.20055e-38,-3.59554e-12,-1.06632e-13,0,0,0,0,0,0,0,0,0,0,0,0,0,0,0,0,0,0,0,0,0,-0.261799,3.12762,-1.5,nan,0,0,0,0,0
1480,-3.11382e-12,5.20103e-38,-1.50103e-06,-3.18057e-12,5.20055e-38,0,-1.06632e-13,0,0,0,0,0,0,0,0,0,0,0,0,0,0,0,0,0,0,0,0,0,-0.261799,3.12823,-1.5,nan,0,0,0,0,0
1490,-3.11382e-12,5.20103e-38,-1.50103e-06,-3.18057e-12,5.20055e-38,-3.59554e-12,-1.06633e-13,0,0,0,0,0,0,0,0,0,0,0,0,0,0,0,0,0,0,0,0,0,-0.261799,3.12862,-1.5,nan,0,0,0,0,0
1500,-3.11382e-12,5.20103e-38,-1.50103e-06,-3.18057e-12,5.20055e-38,0,-1.06633e-13,0,0,0,0,0,0,0,0,0,0,0,0,0,0,0,0,0,0,0,0,0,-0.261799,3.12908,-1.5,nan,0,0,0,0,0
1510,-3.11382e-12,5.20103e-38,-1.50103e-06,-3.18057e-12,5.20055e-38,-3.59554e-12,-1.06633e-13,0,0,0,0,0,0,0,0,0,0,0,0,0,0,0,0,0,0,0,0,0,-0.261799,3.12946,-1.5,nan,0,0,0,0,0
1520,-3.11382e-12,5.20103e-38,-1.50103e-06,-3.18057e-12,5.20055e-38,0,-1.06633e-13,0,0,0,0,0,0,0,0,0,0,0,0,0,0,0,0,0,0,0,0,0,-0.261799,3.12998,-1.5,nan,0,0,0,0,0
1530,-3.11382e-12,5.20103e-38,-1.50103e-06,-3.18057e-12,5.20055e-38,-3.59554e-12,-1.06634e-13,0,0,0,0,0,0,0,0,0,0,0,0,0,0,0,0,0,0,0,0,0,-0.261799,3.13046,-1.5,nan,0,0,0,0,0
1540,-3.11382e-12,5.20103e-38,-1.50103e-06,-3.18057e-12,5.20055e-38,0,-1.06634e-13,0,0,0,0,0,0,0,0,0,0,0,0,0,0,0,0,0,0,0,0,0,-0.261799,3.13095,-1.5,nan,0,0,0,0,0
1550,-3.11382e-12,5.20103e-38,-1.50103e-06,-3.18057e-12,5.20055e-38,-3.59554e-12,-1.06634e-13,0,0,0,0,0,0,0,0,0,0,0,0,0,0,0,0,0,0,0,0,0,-0.261799,3.13139,-1.5,nan,0,0,0,0,0
1560,-3.11382e-12,5.20103e-38,-1.50103e-06,-3.18057e-12,5.20055e-38,0,-1.06634e-13,0,0,0,0,0,0,0,0,0,0,0,0,0,0,0,0,0,0,0,0,0,-0.261799,3.13181,-1.5,nan,0,0,0,0,0
1570,-3.11382e-12,5.20103e-38,-1.50103e-06,-3.18057e-12,5.20055e-38,-3.59554e-12,-1.06635e-13,0,0,0,0,0,0,0,0,0,0,0,0,0,0,0,0,0,0,0,0,0,-0.261799,3.13224,-1.5,nan,0,0,0,0,0
1580,-3.11382e-12,5.20103e-38,-1.50103e-06,-3.18057e-12,5.20055e-38,0,-1.06635e-13,0,0,0,0,0,0,0,0,0,0,0,0,0,0,0,0,0,0,0,0,0,-0.261799,3.13263,-1.5,nan,0,0,0,0,0
1590,-3.11382e-12,5.20103e-38,-1.50103e-06,-3.18057e-12,5.20055e-38,-3.59554e-12,-1.06635e-13,0,0,0,0,0,0,0,0,0,0,0,0,0,0,0,0,0,0,0,0,0,-0.261799,3.133,-1.5,nan,0,0,0,0,0
1600,-3.11382e-12,5.20103e-38,-1.50103e-06,-3.18057e-12,5.20055e-38,0,-1.06636e-13,0,0,0,0,0,0,0,0,0,0,0,0,0,0,0,0,0,0,0,0,0,-0.261799,3.13337,-1.5,nan,0,0,0,0,0
1610,-3.11382e-12,5.20103e-38,-1.50103e-06,-3.18057e-12,5.20055e-38,-3.59554e-12,-1.06636e-13,0,0,0,0,0,0,0,0,0,0,0,0,0,0,0,0,0,0,0,0,0,-0.261799,3.13371,-1.5,nan,0,0,0,0,0
1620,-3.11382e-12,5.20103e-38,-1.50103e-06,-3.18057e-12,5.20055e-38,0,-1.06636e-13,0,0,0,0,0,0,0,0,0,0,0,0,0,0,0,0,0,0,0,0,0,-0.261799,3.13404,-1.5,nan,0,0,0,0,0
1630,-3.11382e-12,5.20103e-38,-1.50103e-06,-3.18057e-12,5.20055e-38,-3.59554e-12,-1.06636e-13,0,0,0,0,0,0,0,0,0,0,0,0,0,0,0,0,0,0,0,0,0,-0.261799,3.13437,-1.5,nan,0,0,0,0,0
1640,-3.11382e-12,5.20103e-38,-1.50103e-06,-3.18057e-12,5.20055e-38,0,-1.06637e-13,0,0,0,0,0,0,0,0,0,0,0,0,0,0,0,0,0,0,0,0,0,-0.261799,3.13467,-1.5,nan,0,0,0,0,0
1650,-3.11382e-12,5.20103e-38,-1.50103e-06,-3.18057e-12,5.20055e-38,-3.59554e-12,-1.06637e-13,0,0,0,0,0,0,0,0,0,0,0,0,0,0,0,0,0,0,0,0,0,-0.261799,3.13497,-1.5,nan,0,0,0,0,0
1660,-3.11382e-12,5.20103e-38,-1.50103e-06,-3.18057e-12,5.20055e-38,0,-1.06637e-13,0,0,0,0,0,0,0,0,0,0,0,0,0,0,0,0,0,0,0,0,0,-0.261799,3.13524,-1.5,nan,0,0,0,0,0
1670,-3.11382e-12,5.20103e-38,-1.50103e-06,-3.18057e-12,5.20055e-38,-3.59554e-12,-1.06637e-13,0,0,0,0,0,0,0,0,0,0,0,0,0,0,0,0,0,0,0,0,0,-0.261799,3.13552,-1.5,nan,0,0,0,0,0
1680,-3.11382e-12,5.20103e-38,-1.50103e-06,-3.18057e-12,5.20055e-38,0,-1.06638e-13,0,0,0,0,0,0,0,0,0,0,0,0,0,0,0,0,0,0,0,0,0,-0.261799,3.13577,-1.5,nan,0,0,0,0,0
1690,-3.11382e-12,5.20103e-38,-1.50103e-06,-3.18057e-12,5.20055e-38,-3.59554e-12,-1.06638e-13,0,0,0,0,0,0,0,0,0,0,0,0,0,0,0,0,0,0,0,0,0,-0.261799,3.13601,-1.5,nan,0,0,0,0,0
1700,-3.11382e-12,5.20103e-38,-1.50103e-06,-3.18057e-12,5.20055e-38,0,-1.06638e-13,0,0,0,0,0,0,0,0,0,0,0,0,0,0,0,0,0,0,0,0,0,-0.261799,3.13624,-1.5,nan,0,0,0,0,0
1710,-3.11382e-12,5.20103e-38,-1.50103e-06,-3.18057e-12,5.20055e-38,-3.59554e-12,-1.06638e-13,0,0,0,0,0,0,0,0,0,0,0,0,0,0,0,0,0,0,0,0,0,-0.261799,3.13647,-1.5,nan,0,0,0,0,0
1720,-3.11382e-12,5.20103e-38,-1.50103e-06,-3.18057e-12,5.20055e-38,0,-1.06639e-13,0,0,0,0,0,0,0,0,0,0,0,0,0,0,0,0,0,0,0,0,0,-0.261799,3.13669,-1.5,nan,0,0,0,0,0
1730,-3.11382e-12,5.20103e-38,-1.50103e-06,-3.18057e-12,5.20055e-38,-3.59554e-12,-1.06639e-13,0,0,0,0,0,0,0,0,0,0,0,0,0,0,0,0,0,0,0,0,0,-0.261799,3.13692,-1.5,nan,0,0,0,0,0
1740,-3.11382e-12,5.20103e-38,-1.50103e-06,-3.18057e-12,5.20055e-38,0,-1.06639e-13,0,0,0,0,0,0,0,0,0,0,0,0,0,0,0,0,0,0,0,0,0,-0.261799,3.13708,-1.5,nan,0,0,0,0,0
1750,-3.11382e-12,5.20103e-38,-1.50103e-06,-3.18057e-12,5.20055e-38,-3.59554e-12,-1.0664e-13,0,0,0,0,0,0,0,0,0,0,0,0,0,0,0,0,0,0,0,0,0,-0.261799,3.13721,-1.5,nan,0,0,0,0,0
1760,-3.11382e-12,5.20103e-38,-1.50103e-06,-3.18057e-12,5.20055e-38,0,-1.0664e-13,0,0,0,0,0,0,0,0,0,0,0,0,0,0,0,0,0,0,0,0,0,-0.261799,3.13752,-1.5,nan,0,0,0,0,0
1770,-3.11382e-12,5.20103e-38,-1.50103e-06,-3.18057e-12,5.20055e-38,-3.59554e-12,-1.0664e-13,0,0,0,0,0,0,0,0,0,0,0,0,0,0,0,0,0,0,0,0,0,-0.261799,3.13768,-1.5,nan,0,0,0,0,0
1780,-3.11382e-12,5.20103e-38,-1.50103e-06,-3.18057e-12,5.20055e-38,0,-1.0664e-13,0,0,0,0,0,0,0,0,0,0,0,0,0,0,0,0,0,0,0,0,0,-0.261799,3.13786,-1.5,nan,0,0,0,0,0
1790,-3.11382e-12,5.20103e-38,-1.50103e-06,-3.18057e-12,5.20055e-38,-3.59554e-12,-1.06641e-13,0,0,0,0,0,0,0,0,0,0,0,0,0,0,0,0,0,0,0,0,0,-0.261799,3.13801,-1.5,nan,0,0,0,0,0
1800,-3.11382e-12,5.20103e-38,-1.50103e-06,-3.18057e-12,5.20055e-38,0,-1.06641e-13,0,0,0,0,0,0,0,0,0,0,0,0,0,0,0,0,0,0,0,0,0,-0.261799,3.13816,-1.5,nan,0,0,0,0,0
1810,-3.11382e-12,5.20103e-38,-1.50103e-06,-3.18057e-12,5.20055e-38,-3.59554e-12,-1.06641e-13,0,0,0,0,0,0,0,0,0,0,0,0,0,0,0,0,0,0,0,0,0,-0.261799,3.1383,-1.5,nan,0,0,0,0,0
1820,-3.11382e-12,5.20103e-38,-1.50103e-06,-3.18057e-12,5.20055e-38,0,-1.06641e-13,0,0,0,0,0,0,0,0,0,0,0,0,0,0,0,0,0,0,0,0,0,-0.261799,3.13845,-1.5,nan,0,0,0,0,0
1830,-3.11382e-12,5.20103e-38,-1.50103e-06,-3.18057e-12,5.20055e-38,-3.59554e-12,-1.06642e-13,0,0,0,0,0,0,0,0,0,0,0,0,0,0,0,0,0,0,0,0,0,-0.261799,3.13858,-1.5,nan,0,0,0,0,0
1840,-3.11382e-12,5.20103e-38,-1.50103e-06,-3.18057e-12,5.20055e-38,0,-1.06642e-13,0,0,0,0,0,0,0,0,0,0,0,0,0,0,0,0,0,0,0,0,0,-0.261799,3.13871,-1.5,nan,0,0,0,0,0
1850,-3.11382e-12,5.20103e-38,-1.50103e-06,-3.18057e-12,5.20055e-38,-3.59554e-12,-1.06642e-13,0,0,0,0,0,0,0,0,0,0,0,0,0,0,0,0,0,0,0,0,0,-0.261799,3.13883,-1.5,nan,0,0,0,0,0
1860,-3.11382e-12,5.20103e-38,-1.50103e-06,-3.18057e-12,5.20055e-38,0,-1.06643e-13,0,0,0,0,0,0,0,0,0,0,0,0,0,0,0,0,0,0,0,0,0,-0.261799,3.13895,-1.5,nan,0,0,0,0,0
1870,-3.11382e-12,5.20103e-38,-1.50103e-06,-3.18057e-12,5.20055e-38,-3.59554e-12,-1.06643e-13,0,0,0,0,0,0,0,0,0,0,0,0,0,0,0,0,0,0,0,0,0,-0.261799,3.13905,-1.5,nan,0,0,0,0,0
1880,-3.11382e-12,5.20103e-38,-1.50103e-06,-3.18057e-12,5.20055e-38,0,-1.06643e-13,0,0,0,0,0,0,0,0,0,0,0,0,0,0,0,0,0,0,0,0,0,-0.261799,3.13917,-1.5,nan,0,0,0,0,0
1890,-3.11382e-12,5.20103e-38,-1.50103e-06,-3.18057e-12,5.20055e-38,-3.59554e-12,-1.06643e-13,0,0,0,0,0,0,0,0,0,0,0,0,0,0,0,0,0,0,0,0,0,-0.261799,3.13926,-1.5,nan,0,0,0,0,0
1900,-3.11382e-12,5.20103e-38,-1.50103e-06,-3.18057e-12,5.20055e-38,0,-1.06644e-13,0,0,0,0,0,0,0,0,0,0,0,0,0,0,0,0,0,0,0,0,0,-0.261799,3.13936,-1.5,nan,0,0,0,0,0
1910,-3.11382e-12,5.20103e-38,-1.50103e-06,-3.18057e-12,5.20055e-38,-3.59554e-12,-1.06644e-13,0,0,0,0,0,0,0,0,0,0,0,0,0,0,0,0,0,0,0,0,0,-0.261799,3.13946,-1.5,nan,0,0,0,0,0
1920,-3.11382e-12,5.20103e-38,-1.50103e-06,-3.18057e-12,5.20055e-38,0,-1.06644e-13,0,0,0,0,0,0,0,0,0,0,0,0,0,0,0,0,0,0,0,0,0,-0.261799,3.13955,-1.5,nan,0,0,0,0,0
1930,-3.11382e-12,5.20103e-38,-1.50103e-06,-3.18057e-12,5.20055e-38,-3.59554e-12,-1.06644e-13,0,0,0,0,0,0,0,0,0,0,0,0,0,0,0,0,0,0,0,0,0,-0.261799,3.13963,-1.5,nan,0,0,0,0,0
1940,-3.11382e-12,5.20103e-38,-1.50103e-06,-3.18057e-12,5.20055e-38,0,-1.06645e-13,0,0,0,0,0,0,0,0,0,0,0,0,0,0,0,0,0,0,0,0,0,-0.261799,3.13972,-1.5,nan,0,0,0,0,0
1950,-3.11382e-12,5.20103e-38,-1.50103e-06,-3.18057e-12,5.20055e-38,-3.59554e-12,-1.06645e-13,0,0,0,0,0,0,0,0,0,0,0,0,0,0,0,0,0,0,0,0,0,-0.261799,3.13979,-1.5,nan,0,0,0,0,0
1960,-3.11382e-12,5.20103e-38,-1.50103e-06,-3.18057e-12,5.20055e-38,0,-1.06645e-13,0,0,0,0,0,0,0,0,0,0,0,0,0,0,0,0,0,0,0,0,0,-0.261799,3.13987,-1.5,nan,0,0,0,0,0
1970,-3.11382e-12,5.20103e-38,-1.50103e-06,-3.18057e-12,5.20055e-38,-3.59554e-12,-1.06646e-13,0,0,0,0,0,0,0,0,0,0,0,0,0,0,0,0,0,0,0,0,0,-0.261799,3.13994,-1.5,nan,0,0,0,0,0
1980,-3.11382e-12,5.20103e-38,-1.50103e-06,-3.18057e-12,5.20055e-38,0,-1.06646e-13,0,0,0,0,0,0,0,0,0,0,0,0,0,0,0,0,0,0,0,0,0,-0.261799,3.13999,-1.5,nan,0,0,0,0,0
1990,-3.11382e-12,5.20103e-38,-1.50103e-06,-3.18057e-12,5.20055e-38,-3.59554e-12,-1.06646e-13,0,0,0,0,0,0,0,0,0,0,0,0,0,0,0,0,0,0,0,0,0,-0.261799,3.14005,-1.5,nan,0,0,0,0,0
2000,-3.11382e-12,5.20103e-38,-1.50103e-06,-3.18057e-12,5.20055e-38,0,-1.06646e-13,0,0,0,0,0,0,0,0,0,0,0,0,0,0,0,0,0,0,0,0,0,-0.261799,3.1401,-1.5,nan,0,0,0,0,0
2010,-3.11382e-12,5.20103e-38,-1.50103e-06,-3.18057e-12,5.20055e-38,-3.59554e-12,-1.06647e-13,0,0,0,0,0,0,0,0,0,0,0,0,0,0,0,0,0,0,0,0,0,-0.261799,3.14016,-1.5,nan,0,0,0,0,0
2020,-3.11382e-12,5.20103e-38,-1.50103e-06,-3.18057e-12,5.20055e-38,0,-1.06647e-13,0,0,0,0,0,0,0,0,0,0,0,0,0,0,0,0,0,0,0,0,0,-0.261799,3.14022,-1.5,nan,0,0,0,0,0
2030,-3.11382e-12,5.20103e-38,-1.50103e-06,-3.18057e-12,5.20055e-38,-3.59554e-12,-1.06647e-13,0,0,0,0,0,0,0,0,0,0,0,0,0,0,0,0,0,0,0,0,0,-0.261799,3.14028,-1.5,nan,0,0,0,0,0
2040,-3.11382e-12,5.20103e-38,-1.50103e-06,-3.18057e-12,5.20055e-38,0,-1.06647e-13,0,0,0,0,0,0,0,0,0,0,0,0,0,0,0,0,0,0,0,0,0,-0.261799,3.14033,-1.5,nan,0,0,0,0,0
2050,-3.11382e-12,5.20103e-38,-1.50103e-06,-3.18057e-12,5.20055e-38,-3.59554e-12,-1.06648e-13,0,0,0,0,0,0,0,0,0,0,0,0,0,0,0,0,0,0,0,0,0,-0.261799,3.14039,-1.5,nan,0,0,0,0,0
2060,-3.11382e-12,5.20103e-38,-1.50103e-06,-3.18057e-12,5.20055e-38,0,-1.06648e-13,0,0,0,0,0,0,0,0,0,0,0,0,0,0,0,0,0,0,0,0,0,-0.261799,3.14044,-1.5,nan,0,0,0,0,0
2070,-3.11382e-12,5.20103e-38,-1.50103e-06,-3.18057e-12,5.20055e-38,-3.59554e-12,-1.06648e-13,0,0,0,0,0,0,0,0,0,0,0,0,0,0,0,0,0,0,0,0,0,-0.261799,3.14064,-1.5,nan,0,0,0,0,0
2080,-3.11382e-12,5.20103e-38,-1.50103e-06,-3.18057e-12,5.20055e-38,0,-1.06649e-13,0,0,0,0,0,0,0,0,0,0,0,0,0,0,0,0,0,0,0,0,0,-0.261799,3.14067,-1.5,nan,0,0,0,0,0
2090,-3.11382e-12,5.20103e-38,-1.50103e-06,-3.18057e-12,5.20055e-38,-3.59554e-12,-1.06649e-13,0,0,0,0,0,0,0,0,0,0,0,0,0,0,0,0,0,0,0,0,0,-0.261799,3.14082,-1.5,nan,0,0,0,0,0
2100,-3.11382e-12,5.20103e-38,-1.50103e-06,-3.18057e-12,5.20055e-38,0,-1.06649e-13,0,0,0,0,0,0,0,0,0,0,0,0,0,0,0,0,0,0,0,0,0,-0.261799,3.14085,-1.5,nan,0,0,0,0,0
2110,-3.11382e-12,5.20103e-38,-1.50103e-06,-3.18057e-12,5.20055e-38,-3.59554e-12,-1.06649e-13,0,0,0,0,0,0,0,0,0,0,0,0,0,0,0,0,0,0,0,0,0,-0.261799,3.14089,-1.5,nan,0,0,0,0,0
2120,-3.11382e-12,5.20103e-38,-1.50103e-06,-3.18057e-12,5.20055e-38,0,-1.0665e-13,0,0,0,0,0,0,0,0,0,0,0,0,0,0,0,0,0,0,0,0,0,-0.261799,3.14091,-1.5,nan,0,0,0,0,0
2130,-3.11382e-12,5.20103e-38,-1.50103e-06,-3.18057e-12,5.20055e-38,-3.59554e-12,-1.0665e-13,0,0,0,0,0,0,0,0,0,0,0,0,0,0,0,0,0,0,0,0,0,-0.261799,3.14102,-1.5,nan,0,0,0,0,0
2140,-3.11382e-12,5.20103e-38,-1.50103e-06,-3.18057e-12,5.20055e-38,0,-1.0665e-13,0,0,0,0,0,0,0,0,0,0,0,0,0,0,0,0,0,0,0,0,0,-0.261799,3.14105,-1.5,nan,0,0,0,0,0
2150,-3.11382e-12,5.20103e-38,-1.50103e-06,-3.18057e-12,5.20055e-38,-3.59554e-12,-1.0665e-13,0,0,0,0,0,0,0,0,0,0,0,0,0,0,0,0,0,0,0,0,0,-0.261799,3.14107,-1.5,nan,0,0,0,0,0
2160,-3.11382e-12,5.20103e-38,-1.50103e-06,-3.18057e-12,5.20055e-38,0,-1.06651e-13,0,0,0,0,0,0,0,0,0,0,0,0,0,0,0,0,0,0,0,0,0,-0.261799,3.14115,-1.5,nan,0,0,0,0,0
2170,-3.11382e-12,5.20103e-38,-1.50103e-06,-3.18057e-12,5.20055e-38,-3.59554e-12,-1.06651e-13,0,0,0,0,0,0,0,0,0,0,0,0,0,0,0,0,0,0,0,0,0,-0.261799,3.14117,-1.5,nan,0,0,0,0,0
2180,-3.11382e-12,5.20103e-38,-1.50103e-06,-3.18057e-12,5.20055e-38,0,-1.06651e-13,0,0,0,0,0,0,0,0,0,0,0,0,0,0,0,0,0,0,0,0,0,-0.261799,3.14119,-1.5,nan,0,0,0,0,0
2190,-3.11382e-12,5.20103e-38,-1.50103e-06,-3.18057e-12,5.20055e-38,-3.59554e-12,-1.06652e-13,0,0,0,0,0,0,0,0,0,0,0,0,0,0,0,0,0,0,0,0,0,-0.261799,3.14125,-1.5,nan,0,0,0,0,0
2200,-3.11382e-12,5.20103e-38,-1.50103e-06,-3.18057e-12,5.20055e-38,0,-1.06652e-13,0,0,0,0,0,0,0,0,0,0,0,0,0,0,0,0,0,0,0,0,0,-0.261799,3.14127,-1.5,nan,0,0,0,0,0
2210,-3.11382e-12,5.20103e-38,-1.50103e-06,-3.18057e-12,5.20055e-38,-3.59554e-12,-1.06652e-13,0,0,0,0,0,0,0,0,0,0,0,0,0,0,0,0,0,0,0,0,0,-0.261799,3.14128,-1.5,nan,0,0,0,0,0
2220,-3.11382e-12,5.20103e-38,-1.50103e-06,-3.18057e-12,5.20055e-38,0,-1.06652e-13,0,0,0,0,0,0,0,0,0,0,0,0,0,0,0,0,0,0,0,0,0,-0.261799,3.14133,-1.5,nan,0,0,0,0,0
2230,-3.11382e-12,5.20103e-38,-1.50103e-06,-3.18057e-12,5.20055e-38,-3.59554e-12,-1.06653e-13,0,0,0,0,0,0,0,0,0,0,0,0,0,0,0,0,0,0,0,0,0,-0.261799,3.14134,-1.5,nan,0,0,0,0,0
2240,-3.11382e-12,5.20103e-38,-1.50103e-06,-3.18057e-12,5.20055e-38,0,-1.06653e-13,0,0,0,0,0,0,0,0,0,0,0,0,0,0,0,0,0,0,0,0,0,-0.261799,3.14135,-1.5,nan,0,0,0,0,0
2250,-3.11382e-12,5.20103e-38,-1.50103e-06,-3.18057e-12,5.20055e-38,-3.59554e-12,-1.06653e-13,0,0,0,0,0,0,0,0,0,0,0,0,0,0,0,0,0,0,0,0,0,-0.261799,3.14138,-1.5,nan,0,0,0,0,0
2260,-3.11382e-12,5.20103e-38,-1.50103e-06,-3.18057e-12,5.20055e-38,0,-1.06653e-13,0,0,0,0,0,0,0,0,0,0,0,0,0,0,0,0,0,0,0,0,0,-0.261799,3.14139,-1.5,nan,0,0,0,0,0
2270,-3.11382e-12,5.20103e-38,-1.50103e-06,-3.18057e-12,5.20055e-38,-3.59554e-12,-1.06654e-13,0,0,0,0,0,0,0,0,0,0,0,0,0,0,0,0,0,0,0,0,0,-0.261799,3.1414,-1.5,nan,0,0,0,0,0
2280,-3.11382e-12,5.20103e-38,-1.50103e-06,-3.18057e-12,5.20055e-38,0,-1.06654e-13,0,0,0,0,0,0,0,0,0,0,0,0,0,0,0,0,0,0,0,0,0,-0.261799,3.14143,-1.5,nan,0,0,0,0,0
2290,-3.11382e-12,5.20103e-38,-1.50103e-06,-3.18057e-12,5.20055e-38,-3.59554e-12,-1.06654e-13,0,0,0,0,0,0,0,0,0,0,0,0,0,0,0,0,0,0,0,0,0,-0.261799,3.14144,-1.5,nan,0,0,0,0,0
2300,-3.11382e-12,5.20103e-38,-1.50103e-06,-3.18057e-12,5.20055e-38,0,-1.06654e-13,0,0,0,0,0,0,0,0,0,0,0,0,0,0,0,0,0,0,0,0,0,-0.261799,3.14144,-1.5,nan,0,0,0,0,0
2310,-3.11382e-12,5.20103e-38,-1.50103e-06,-3.18057e-12,5.20055e-38,-3.59554e-12,-1.06655e-13,0,0,0,0,0,0,0,0,0,0,0,0,0,0,0,0,0,0,0,0,0,-0.261799,3.14147,-1.5,nan,0,0,0,0,0
2320,-3.11382e-12,5.20103e-38,-1.50103e-06,-3.18057e-12,5.20055e-38,0,-1.06655e-13,0,0,0,0,0,0,0,0,0,0,0,0,0,0,0,0,0,0,0,0,0,-0.261799,3.14147,-1.5,nan,0,0,0,0,0
2330,-3.11382e-12,5.20103e-38,-1.50103e-06,-3.18057e-12,5.20055e-38,-3.59554e-12,-1.06655e-13,0,0,0,0,0,0,0,0,0,0,0,0,0,0,0,0,0,0,0,0,0,-0.261799,3.14148,-1.5,nan,0,0,0,0,0
2340,-3.11382e-12,5.20103e-38,-1.50103e-06,-3.18057e-12,5.20055e-38,0,-1.06656e-13,0,0,0,0,0,0,0,0,0,0,0,0,0,0,0,0,0,0,0,0,0,-0.261799,3.1415,-1.5,nan,0,0,0,0,0
2350,-3.11382e-12,5.20103e-38,-1.50103e-06,-3.18057e-12,5.20055e-38,-3.59554e-12,-1.06656e-13,0,0,0,0,0,0,0,0,0,0,0,0,0,0,0,0,0,0,0,0,0,-0.261799,3.1415,-1.5,nan,0,0,0,0,0
2360,-3.11382e-12,5.20103e-38,-1.50103e-06,-3.18057e-12,5.20055e-38,0,-1.06656e-13,0,0,0,0,0,0,0,0,0,0,0,0,0,0,0,0,0,0,0,0,0,-0.261799,3.14151,-1.5,nan,0,0,0,0,0
2370,-3.11382e-12,5.20103e-38,-1.50103e-06,-3.18057e-12,5.20055e-38,-3.59554e-12,-1.06656e-13,0,0,0,0,0,0,0,0,0,0,0,0,0,0,0,0,0,0,0,0,0,-0.261799,3.14152,-1.5,nan,0,0,0,0,0
2380,-3.11382e-12,5.20103e-38,-1.50103e-06,-3.18057e-12,5.20055e-38,0,-1.06657e-13,0,0,0,0,0,0,0,0,0,0,0,0,0,0,0,0,0,0,0,0,0,-0.261799,3.14152,-1.5,nan,0,0,0,0,0
2390,-3.11382e-12,5.20103e-38,-1.50103e-06,-3.18057e-12,5.20055e-38,-3.59554e-12,-1.06657e-13,0,0,0,0,0,0,0,0,0,0,0,0,0,0,0,0,0,0,0,0,0,-0.261799,3.14152,-1.5,nan,0,0,0,0,0
2400,-3.11382e-12,5.20103e-38,-1.50103e-06,-3.18057e-12,5.20055e-38,0,-1.06657e-13,0,0,0,0,0,0,0,0,0,0,0,0,0,0,0,0,0,0,0,0,0,-0.261799,3.14154,-1.5,nan,0,0,0,0,0
2410,-3.11382e-12,5.20103e-38,-1.50103e-06,-3.18057e-12,5.20055e-38,-3.59554e-12,-1.06657e-13,0,0,0,0,0,0,0,0,0,0,0,0,0,0,0,0,0,0,0,0,0,-0.261799,3.14154,-1.5,nan,0,0,0,0,0
2420,-3.11382e-12,5.20103e-38,-1.50103e-06,-3.18057e-12,5.20055e-38,0,-1.06658e-13,0,0,0,0,0,0,0,0,0,0,0,0,0,0,0,0,0,0,0,0,0,-0.261799,3.14154,-1.5,nan,0,0,0,0,0
2430,-3.11382e-12,5.20103e-38,-1.50103e-06,-3.18057e-12,5.20055e-38,-3.59554e-12,-1.06658e-13,0,0,0,0,0,0,0,0,0,0,0,0,0,0,0,0,0,0,0,0,0,-0.261799,3.14155,-1.5,nan,0,0,0,0,0
2440,-3.11382e-12,5.20103e-38,-1.50103e-06,-3.18057e-12,5.20055e-38,0,-1.06658e-13,0,0,0,0,0,0,0,0,0,0,0,0,0,0,0,0,0,0,0,0,0,-0.261799,3.14155,-1.5,nan,0,0,0,0,0
2450,-3.11382e-12,5.20103e-38,-1.50103e-06,-3.18057e-12,5.20055e-38,-3.59554e-12,-1.06659e-13,0,0,0,0,0,0,0,0,0,0,0,0,0,0,0,0,0,0,0,0,0,-0.261799,3.14155,-1.5,nan,0,0,0,0,0
2460,-3.11382e-12,5.20103e-38,-1.50103e-06,-3.18057e-12,5.20055e-38,0,-1.06659e-13,0,0,0,0,0,0,0,0,0,0,0,0,0,0,0,0,0,0,0,0,0,-0.261799,3.14156,-1.5,nan,0,0,0,0,0
2470,-3.11382e-12,5.20103e-38,-1.50103e-06,-3.18057e-12,5.20055e-38,-3.59554e-12,-1.06659e-13,0,0,0,0,0,0,0,0,0,0,0,0,0,0,0,0,0,0,0,0,0,-0.261799,3.14156,-1.5,nan,0,0,0,0,0
2480,-3.11382e-12,5.20103e-38,-1.50103e-06,-3.18057e-12,5.20055e-38,0,-1.06659e-13,0,0,0,0,0,0,0,0,0,0,0,0,0,0,0,0,0,0,0,0,0,-0.261799,3.14156,-1.5,nan,0,0,0,0,0
2490,-3.11382e-12,5.20103e-38,-1.50103e-06,-3.18057e-12,5.20055e-38,-3.59554e-12,-1.0666e-13,0,0,0,0,0,0,0,0,0,0,0,0,0,0,0,0,0,0,0,0,0,-0.261799,3.14157,-1.5,nan,0,0,0,0,0
2500,-3.11382e-12,5.20103e-38,-1.50103e-06,-3.18057e-12,5.20055e-38,0,-1.0666e-13,0,0,0,0,0,0,0,0,0,0,0,0,0,0,0,0,0,0,0,0,0,-0.261799,3.14157,-1.5,nan,0,0,0,0,0
2510,-3.11382e-12,5.20103e-38,-1.50103e-06,-3.18057e-12,5.20055e-38,-3.59554e-12,-1.0666e-13,0,0,0,0,0,0,0,0,0,0,0,0,0,0,0,0,0,0,0,0,0,-0.261799,3.14157,-1.5,nan,0,0,0,0,0
2520,-3.11382e-12,5.20103e-38,-1.50103e-06,-3.18057e-12,5.20055e-38,0,-1.0666e-13,0,0,0,0,0,0,0,0,0,0,0,0,0,0,0,0,0,0,0,0,0,-0.261799,3.14157,-1.5,nan,0,0,0,0,0
2530,-3.11382e-12,5.20103e-38,-1.50103e-06,-3.18057e-12,5.20055e-38,-3.59554e-12,-1.06661e-13,0,0,0,0,0,0,0,0,0,0,0,0,0,0,0,0,0,0,0,0,0,-0.261799,3.14157,-1.5,nan,0,0,0,0,0
2540,-3.11382e-12,5.20103e-38,-1.50103e-06,-3.18057e-12,5.20055e-38,0,-1.06661e-13,0,0,0,0,0,0,0,0,0,0,0,0,0,0,0,0,0,0,0,0,0,-0.261799,3.14157,-1.5,nan,0,0,0,0,0
2550,-3.11382e-12,5.20103e-38,-1.50103e-06,-3.18057e-12,5.20055e-38,-3.59554e-12,-1.06661e-13,0,0,0,0,0,0,0,0,0,0,0,0,0,0,0,0,0,0,0,0,0,-0.261799,3.14157,-1.5,nan,0,0,0,0,0
2560,-3.11382e-12,5.20103e-38,-1.50103e-06,-3.18057e-12,5.20055e-38,0,-1.06662e-13,0,0,0,0,0,0,0,0,0,0,0,0,0,0,0,0,0,0,0,0,0,-0.261799,3.14157,-1.5,nan,0,0,0,0,0
2570,-3.11382e-12,5.20103e-38,-1.50103e-06,-3.18057e-12,5.20055e-38,-3.59554e-12,-1.06662e-13,0,0,0,0,0,0,0,0,0,0,0,0,0,0,0,0,0,0,0,0,0,-0.261799,3.14157,-1.5,nan,0,0,0,0,0
2580,-3.11382e-12,5.20103e-38,-1.50103e-06,-3.18057e-12,5.20055e-38,0,-1.06662e-13,0,0,0,0,0,0,0,0,0,0,0,0,0,0,0,0,0,0,0,0,0,-0.261799,3.14158,-1.5,nan,0,0,0,0,0
2590,-3.11382e-12,5.20103e-38,-1.50103e-06,-3.18057e-12,5.20055e-38,-3.59554e-12,-1.06662e-13,0,0,0,0,0,0,0,0,0,0,0,0,0,0,0,0,0,0,0,0,0,-0.261799,3.14158,-1.5,nan,0,0,0,0,0
2600,-3.11382e-12,5.20103e-38,-1.50103e-06,-3.18057e-12,5.20055e-38,0,-1.06663e-13,0,0,0,0,0,0,0,0,0,0,0,0,0,0,0,0,0,0,0,0,0,-0.261799,3.14158,-1.5,nan,0,0,0,0,0
2610,-3.11382e-12,5.20103e-38,-1.50103e-06,-3.18057e-12,5.20055e-38,-3.59554e-12,-1.06663e-13,0,0,0,0,0,0,0,0,0,0,0,0,0,0,0,0,0,0,0,0,0,-0.261799,3.14158,-1.5,nan,0,0,0,0,0
2620,-3.11382e-12,5.20103e-38,-1.50103e-06,-3.18057e-12,5.20055e-38,0,-1.06663e-13,0,0,0,0,0,0,0,0,0,0,0,0,0,0,0,0,0,0,0,0,0,-0.261799,3.14158,-1.5,nan,0,0,0,0,0
2630,-3.11382e-12,5.20103e-38,-1.50103e-06,-3.18057e-12,5.20055e-38,-3.59554e-12,-1.06663e-13,0,0,0,0,0,0,0,0,0,0,0,0,0,0,0,0,0,0,0,0,0,-0.261799,3.14158,-1.5,nan,0,0,0,0,0
2640,-3.11382e-12,5.20103e-38,-1.50103e-06,-3.18057e-12,5.20055e-38,0,-1.06664e-13,0,0,0,0,0,0,0,0,0,0,0,0,0,0,0,0,0,0,0,0,0,-0.261799,3.14158,-1.5,nan,0,0,0,0,0
2650,-3.11382e-12,5.20103e-38,-1.50103e-06,-3.18057e-12,5.20055e-38,-3.59554e-12,-1.06664e-13,0,0,0,0,0,0,0,0,0,0,0,0,0,0,0,0,0,0,0,0,0,-0.261799,3.14158,-1.5,nan,0,0,0,0,0
2660,-3.11382e-12,5.20103e-38,-1.50103e-06,-3.18057e-12,5.20055e-38,0,-1.06664e-13,0,0,0,0,0,0,0,0,0,0,0,0,0,0,0,0,0,0,0,0,0,-0.261799,3.14158,-1.5,nan,0,0,0,0,0
2670,-3.11382e-12,5.20103e-38,-1.50103e-06,-3.18057e-12,5.20055e-38,-3.59554e-12,-1.06665e-13,0,0,0,0,0,0,0,0,0,0,0,0,0,0,0,0,0,0,0,0,0,-0.261799,3.14158,-1.5,nan,0,0,0,0,0
2680,-3.11382e-12,5.20103e-38,-1.50103e-06,-3.18057e-12,5.20055e-38,0,-1.06665e-13,0,0,0,0,0,0,0,0,0,0,0,0,0,0,0,0,0,0,0,0,0,-0.261799,3.14158,-1.5,nan,0,0,0,0,0
2690,-3.11382e-12,5.20103e-38,-1.50103e-06,-3.18057e-12,5.20055e-38,-3.59554e-12,-1.06665e-13,0,0,0,0,0,0,0,0,0,0,0,0,0,0,0,0,0,0,0,0,0,-0.261799,3.14158,-1.5,nan,0,0,0,0,0
2700,-3.11382e-12,5.20103e-38,-1.50103e-06,-3.18057e-12,5.20055e-38,0,-1.06665e-13,0,0,0,0,0,0,0,0,0,0,0,0,0,0,0,0,0,0,0,0,0,-0.261799,3.14158,-1.5,nan,0,0,0,0,0
2710,-3.11382e-12,5.20103e-38,-1.50103e-06,-3.18057e-12,5.20055e-38,-3.59554e-12,-1.06666e-13,0,0,0,0,0,0,0,0,0,0,0,0,0,0,0,0,0,0,0,0,0,-0.261799,3.14158,-1.5,nan,0,0,0,0,0
2720,-3.11382e-12,5.20103e-38,-1.50103e-06,-3.18057e-12,5.20055e-38,0,-1.06666e-13,0,0,0,0,0,0,0,0,0,0,0,0,0,0,0,0,0,0,0,0,0,-0.261799,3.14158,-1.5,nan,0,0,0,0,0
2730,-3.11382e-12,5.20103e-38,-1.50103e-06,-3.18057e-12,5.20055e-38,-3.59554e-12,-1.06666e-13,0,0,0,0,0,0,0,0,0,0,0,0,0,0,0,0,0,0,0,0,0,-0.261799,3.14158,-1.5,nan,0,0,0,0,0
2740,-3.11382e-12,5.20103e-38,-1.50103e-06,-3.18057e-12,5.20055e-38,0,-1.06666e-13,0,0,0,0,0,0,0,0,0,0,0,0,0,0,0,0,0,0,0,0,0,-0.261799,3.14158,-1.5,nan,0,0,0,0,0
2750,-3.11382e-12,5.20103e-38,-1.50103e-06,-3.18057e-12,5.20055e-38,-3.59554e-12,-1.06667e-13,0,0,0,0,0,0,0,0,0,0,0,0,0,0,0,0,0,0,0,0,0,-0.261799,3.14158,-1.5,nan,0,0,0,0,0
2760,-3.11382e-12,5.20103e-38,-1.50103e-06,-3.18057e-12,5.20055e-38,0,-1.06667e-13,0,0,0,0,0,0,0,0,0,0,0,0,0,0,0,0,0,0,0,0,0,-0.261799,3.14158,-1.5,nan,0,0,0,0,0
2770,-3.11382e-12,5.20103e-38,-1.50103e-06,-3.18057e-12,5.20055e-38,-3.59554e-12,-1.06667e-13,0,0,0,0,0,0,0,0,0,0,0,0,0,0,0,0,0,0,0,0,0,-0.261799,3.14158,-1.5,nan,0,0,0,0,0
2780,-3.11382e-12,5.20103e-38,-1.50103e-06,-3.18057e-12,5.20055e-38,0,-1.06667e-13,0,0,0,0,0,0,0,0,0,0,0,0,0,0,0,0,0,0,0,0,0,-0.261799,3.14158,-1.5,nan,0,0,0,0,0
2790,-3.11382e-12,5.20103e-38,-1.50103e-06,-3.18057e-12,5.20055e-38,-3.59554e-12,-1.06668e-13,0,0,0,0,0,0,0,0,0,0,0,0,0,0,0,0,0,0,0,0,0,-0.261799,3.14158,-1.5,nan,0,0,0,0,0
2800,-3.11382e-12,5.20103e-38,-1.50103e-06,-3.18057e-12,5.20055e-38,0,-1.06668e-13,0,0,0,0,0,0,0,0,0,0,0,0,0,0,0,0,0,0,0,0,0,-0.261799,3.14158,-1.5,nan,0,0,0,0,0
2810,-3.11382e-12,5.20103e-38,-1.50103e-06,-3.18057e-12,5.20055e-38,-3.59554e-12,-1.06668e-13,0,0,0,0,0,0,0,0,0,0,0,0,0,0,0,0,0,0,0,0,0,-0.261799,3.14158,-1.5,nan,0,0,0,0,0
2820,-3.11382e-12,5.20103e-38,-1.50103e-06,-3.18057e-12,5.20055e-38,0,-1.06669e-13,0,0,0,0,0,0,0,0,0,0,0,0,0,0,0,0,0,0,0,0,0,-0.261799,3.14158,-1.5,nan,0,0,0,0,0
2830,-3.11382e-12,5.20103e-38,-1.50103e-06,-3.18057e-12,5.20055e-38,-3.59554e-12,-1.06669e-13,0,0,0,0,0,0,0,0,0,0,0,0,0,0,0,0,0,0,0,0,0,-0.261799,3.14158,-1.5,nan,0,0,0,0,0
2840,-3.11382e-12,5.20103e-38,-1.50103e-06,-3.18057e-12,5.20055e-38,0,-1.06669e-13,0,0,0,0,0,0,0,0,0,0,0,0,0,0,0,0,0,0,0,0,0,-0.261799,3.14158,-1.5,nan,0,0,0,0,0
2850,-3.11382e-12,5.20103e-38,-1.50103e-06,-3.18057e-12,5.20055e-38,-3.59554e-12,-1.06669e-13,0,0,0,0,0,0,0,0,0,0,0,0,0,0,0,0,0,0,0,0,0,-0.261799,3.14158,-1.5,nan,0,0,0,0,0
2860,-3.11382e-12,5.20103e-38,-1.50103e-06,-3.18057e-12,5.20055e-38,0,-1.0667e-13,0,0,0,0,0,0,0,0,0,0,0,0,0,0,0,0,0,0,0,0,0,-0.261799,3.14158,-1.5,nan,0,0,0,0,0
2870,-3.11382e-12,5.20103e-38,-1.50103e-06,-3.18057e-12,5.20055e-38,-3.59554e-12,-1.0667e-13,0,0,0,0,0,0,0,0,0,0,0,0,0,0,0,0,0,0,0,0,0,-0.261799,3.14158,-1.5,nan,0,0,0,0,0
2880,-3.11382e-12,5.20103e-38,-1.50103e-06,-3.18057e-12,5.20055e-38,0,-1.0667e-13,0,0,0,0,0,0,0,0,0,0,0,0,0,0,0,0,0,0,0,0,0,-0.261799,3.14158,-1.5,nan,0,0,0,0,0
2890,-3.11382e-12,5.20103e-38,-1.50103e-06,-3.18057e-12,5.20055e-38,-3.59554e-12,-1.0667e-13,0,0,0,0,0,0,0,0,0,0,0,0,0,0,0,0,0,0,0,0,0,-0.261799,3.14158,-1.5,nan,0,0,0,0,0
2900,-3.11382e-12,5.20103e-38,-1.50103e-06,-3.18057e-12,5.20055e-38,0,-1.06671e-13,0,0,0,0,0,0,0,0,0,0,0,0,0,0,0,0,0,0,0,0,0,-0.261799,3.14158,-1.5,nan,0,0,0,0,0
2910,-3.11382e-12,5.20103e-38,-1.50103e-06,-3.18057e-12,5.20055e-38,-3.59554e-12,-1.06671e-13,0,0,0,0,0,0,0,0,0,0,0,0,0,0,0,0,0,0,0,0,0,-0.261799,3.14158,-1.5,nan,0,0,0,0,0
2920,-3.11382e-12,5.20103e-38,-1.50103e-06,-3.18057e-12,5.20055e-38,0,-1.06671e-13,0,0,0,0,0,0,0,0,0,0,0,0,0,0,0,0,0,0,0,0,0,-0.261799,3.14158,-1.5,nan,0,0,0,0,0
2930,-3.11382e-12,5.20103e-38,-1.50103e-06,-3.18057e-12,5.20055e-38,-3.59554e-12,-1.06672e-13,0,0,0,0,0,0,0,0,0,0,0,0,0,0,0,0,0,0,0,0,0,-0.261799,3.14158,-1.5,nan,0,0,0,0,0
2940,-3.11382e-12,5.20103e-38,-1.50103e-06,-3.18057e-12,5.20055e-38,0,-1.06672e-13,0,0,0,0,0,0,0,0,0,0,0,0,0,0,0,0,0,0,0,0,0,-0.261799,3.14159,-1.5,nan,0,0,0,0,0
2950,-3.11382e-12,5.20103e-38,-1.50103e-06,-3.18057e-12,5.20055e-38,-3.59554e-12,-1.06672e-13,0,0,0,0,0,0,0,0,0,0,0,0,0,0,0,0,0,0,0,0,0,-0.261799,3.14159,-1.5,nan,0,0,0,0,0
2960,-3.11382e-12,5.20103e-38,-1.50103e-06,-3.18057e-12,5.20055e-38,0,-1.06672e-13,0,0,0,0,0,0,0,0,0,0,0,0,0,0,0,0,0,0,0,0,0,-0.261799,3.14159,-1.5,nan,0,0,0,0,0
2970,-3.11382e-12,5.20103e-38,-1.50103e-06,-3.18057e-12,5.20055e-38,-3.59554e-12,-1.06673e-13,0,0,0,0,0,0,0,0,0,0,0,0,0,0,0,0,0,0,0,0,0,-0.261799,3.14159,-1.5,nan,0,0,0,0,0
2980,-3.11382e-12,5.20103e-38,-1.50103e-06,-3.18057e-12,5.20055e-38,0,-1.06673e-13,0,0,0,0,0,0,0,0,0,0,0,0,0,0,0,0,0,0,0,0,0,-0.261799,3.14159,-1.5,nan,0,0,0,0,0
2990,-3.11382e-12,5.20103e-38,-1.50103e-06,-3.18057e-12,5.20055e-38,-3.59554e-12,-1.06673e-13,0,0,0,0,0,0,0,0,0,0,0,0,0,0,0,0,0,0,0,0,0,-0.261799,3.14159,-1.5,nan,0,0,0,0,0
3000,-3.11382e-12,5.20103e-38,-1.50103e-06,-3.18057e-12,5.20055e-38,0,-1.06673e-13,0,0,0,0,0,0,0,0,0,0,0,0,0,0,0,0,0,0,0,0,0,-0.261799,3.14159,-1.5,nan,0,0,0,0,0
3010,-3.11382e-12,5.20103e-38,-1.50103e-06,-3.18057e-12,5.20055e-38,-3.59554e-12,-1.06674e-13,0,0,0,0,0,0,0,0,0,0,0,0,0,0,0,0,0,0,0,0,0,-0.261799,3.14159,-1.5,nan,0,0,0,0,0
3020,-3.11382e-12,5.20103e-38,-1.50103e-06,-3.18057e-12,5.20055e-38,0,-1.06674e-13,0,0,0,0,0,0,0,0,0,0,0,0,0,0,0,0,0,0,0,0,0,-0.261799,3.14159,-1.5,nan,0,0,0,0,0
3030,-3.11382e-12,5.20103e-38,-1.50103e-06,-3.18057e-12,5.20055e-38,-3.59554e-12,-1.06674e-13,0,0,0,0,0,0,0,0,0,0,0,0,0,0,0,0,0,0,0,0,0,-0.261799,3.14159,-1.5,nan,0,0,0,0,0
3040,-3.11382e-12,5.20103e-38,-1.50103e-06,-3.18057e-12,5.20055e-38,0,-1.06675e-13,0,0,0,0,0,0,0,0,0,0,0,0,0,0,0,0,0,0,0,0,0,-0.261799,3.14159,-1.5,nan,0,0,0,0,0
3050,-3.11382e-12,5.20103e-38,-1.50103e-06,-3.18057e-12,5.20055e-38,-3.59554e-12,-1.06675e-13,0,0,0,0,0,0,0,0,0,0,0,0,0,0,0,0,0,0,0,0,0,-0.261799,3.14159,-1.5,nan,0,0,0,0,0
3060,-3.11382e-12,5.20103e-38,-1.50103e-06,-3.18057e-12,5.20055e-38,0,-1.06675e-13,0,0,0,0,0,0,0,0,0,0,0,0,0,0,0,0,0,0,0,0,0,-0.261799,3.14159,-1.5,nan,0,0,0,0,0
3070,-3.11382e-12,5.20103e-38,-1.50103e-06,-3.18057e-12,5.20055e-38,-3.59554e-12,-1.06675e-13,0,0,0,0,0,0,0,0,0,0,0,0,0,0,0,0,0,0,0,0,0,-0.261799,3.14159,-1.5,nan,0,0,0,0,0
3080,-3.11382e-12,5.20103e-38,-1.50103e-06,-3.18057e-12,5.20055e-38,0,-1.06676e-13,0,0,0,0,0,0,0,0,0,0,0,0,0,0,0,0,0,0,0,0,0,-0.261799,3.14159,-1.5,nan,0,0,0,0,0
3090,-3.11382e-12,5.20103e-38,-1.50103e-06,-3.18057e-12,5.20055e-38,-3.59554e-12,-1.06676e-13,0,0,0,0,0,0,0,0,0,0,0,0,0,0,0,0,0,0,0,0,0,-0.261799,3.14159,-1.5,nan,0,0,0,0,0
3100,-3.11382e-12,5.20103e-38,-1.50103e-06,-3.18057e-12,5.20055e-38,0,-1.06676e-13,0,0,0,0,0,0,0,0,0,0,0,0,0,0,0,0,0,0,0,0,0,-0.261799,3.14159,-1.5,nan,0,0,0,0,0
3110,-3.11382e-12,5.20103e-38,-1.50103e-06,-3.18057e-12,5.20055e-38,-3.59554e-12,-1.06676e-13,0,0,0,0,0,0,0,0,0,0,0,0,0,0,0,0,0,0,0,0,0,-0.261799,3.14159,-1.5,nan,0,0,0,0,0
3120,-3.11382e-12,5.20103e-38,-1.50103e-06,-3.18057e-12,5.20055e-38,0,-1.06677e-13,0,0,0,0,0,0,0,0,0,0,0,0,0,0,0,0,0,0,0,0,0,-0.261799,3.14159,-1.5,nan,0,0,0,0,0
3130,-3.11382e-12,5.20103e-38,-1.50103e-06,-3.18057e-12,5.20055e-38,-3.59554e-12,-1.06628e-13,0,0,0,0,0,0,0,0,0,0,0,0,0,0,0,0,0,0,0,0,0,-0.261799,3.14159,-1.5,nan,0,0,0,0,0
3140,-3.11382e-12,5.20103e-38,-1.50103e-06,-3.18057e-12,5.20055e-38,0,-1.06628e-13,0,0,0,0,0,0,0,0,0,0,0,0,0,0,0,0,0,0,0,0,0,-0.261799,3.14159,-1.5,nan,0,0,0,0,0
3150,-3.11382e-12,5.20103e-38,-1.50103e-06,-3.18057e-12,5.20055e-38,-3.59554e-12,-1.06628e-13,0,0,0,0,0,0,0,0,0,0,0,0,0,0,0,0,0,0,0,0,0,-0.261799,3.14159,-1.5,nan,0,0,0,0,0
3160,-3.11382e-12,5.20103e-38,-1.50103e-06,-3.18057e-12,5.20055e-38,0,-1.06629e-13,0,0,0,0,0,0,0,0,0,0,0,0,0,0,0,0,0,0,0,0,0,-0.261799,3.14159,-1.5,nan,0,0,0,0,0
3170,-3.11382e-12,5.20103e-38,-1.50103e-06,-3.18057e-12,5.20055e-38,-3.59554e-12,-1.06629e-13,0,0,0,0,0,0,0,0,0,0,0,0,0,0,0,0,0,0,0,0,0,-0.261799,3.14159,-1.5,nan,0,0,0,0,0
3180,-3.11382e-12,5.20103e-38,-1.50103e-06,-3.18057e-12,5.20055e-38,0,-1.06629e-13,0,0,0,0,0,0,0,0,0,0,0,0,0,0,0,0,0,0,0,0,0,-0.261799,3.14159,-1.5,nan,0,0,0,0,0
3190,-3.11382e-12,5.20103e-38,-1.50103e-06,-3.18057e-12,5.20055e-38,-3.59554e-12,-1.06629e-13,0,0,0,0,0,0,0,0,0,0,0,0,0,0,0,0,0,0,0,0,0,-0.261799,3.14159,-1.5,nan,0,0,0,0,0
3200,-3.11382e-12,5.20103e-38,-1.50103e-06,-3.18057e-12,5.20055e-38,0,-1.0663e-13,0,0,0,0,0,0,0,0,0,0,0,0,0,0,0,0,0,0,0,0,0,-0.261799,3.14159,-1.5,nan,0,0,0,0,0
3210,-3.11382e-12,5.20103e-38,-1.50103e-06,-3.18057e-12,5.20055e-38,-3.59554e-12,-1.0663e-13,0,0,0,0,0,0,0,0,0,0,0,0,0,0,0,0,0,0,0,0,0,-0.261799,3.14159,-1.5,nan,0,0,0,0,0
3220,-3.11382e-12,5.20103e-38,-1.50103e-06,-3.18057e-12,5.20055e-38,0,-1.0663e-13,0,0,0,0,0,0,0,0,0,0,0,0,0,0,0,0,0,0,0,0,0,-0.261799,3.14159,-1.5,nan,0,0,0,0,0
3230,-3.11382e-12,5.20103e-38,-1.50103e-06,-3.18057e-12,5.20055e-38,-3.59554e-12,-1.06631e-13,0,0,0,0,0,0,0,0,0,0,0,0,0,0,0,0,0,0,0,0,0,-0.261799,3.14159,-1.5,nan,0,0,0,0,0
3240,-3.11382e-12,5.20103e-38,-1.50103e-06,-3.18057e-12,5.20055e-38,0,-1.06631e-13,0,0,0,0,0,0,0,0,0,0,0,0,0,0,0,0,0,0,0,0,0,-0.261799,3.14159,-1.5,nan,0,0,0,0,0
3250,-3.11382e-12,5.20103e-38,-1.50103e-06,-3.18057e-12,5.20055e-38,-3.59554e-12,-1.06631e-13,0,0,0,0,0,0,0,0,0,0,0,0,0,0,0,0,0,0,0,0,0,-0.261799,3.14159,-1.5,nan,0,0,0,0,0
3260,-3.11382e-12,5.20103e-38,-1.50103e-06,-3.18057e-12,5.20055e-38,0,-1.06677e-13,0,0,0,0,0,0,0,0,0,0,0,0,0,0,0,0,0,0,0,0,0,-0.261799,3.14159,-1.5,nan,0,0,0,0,0
3270,-3.11382e-12,5.20103e-38,-1.50103e-06,-3.18057e-12,5.20055e-38,-3.59554e-12,-1.06677e-13,0,0,0,0,0,0,0,0,0,0,0,0,0,0,0,0,0,0,0,0,0,-0.261799,3.14159,-1.5,nan,0,0,0,0,0
3280,-3.11382e-12,5.20103e-38,-1.50103e-06,-3.18057e-12,5.20055e-38,0,-1.06678e-13,0,0,0,0,0,0,0,0,0,0,0,0,0,0,0,0,0,0,0,0,0,-0.261799,3.14159,-1.5,nan,0,0,0,0,0
3290,-3.11382e-12,5.20103e-38,-1.50103e-06,-3.18057e-12,5.20055e-38,-3.59554e-12,-1.06678e-13,0,0,0,0,0,0,0,0,0,0,0,0,0,0,0,0,0,0,0,0,0,-0.261799,3.14159,-1.5,nan,0,0,0,0,0
3300,-3.11382e-12,5.20103e-38,-1.50103e-06,-3.18057e-12,5.20055e-38,0,-1.06678e-13,0,0,0,0,0,0,0,0,0,0,0,0,0,0,0,0,0,0,0,0,0,-0.261799,3.14159,-1.5,nan,0,0,0,0,0
3310,-3.11382e-12,5.20103e-38,-1.50103e-06,-3.18057e-12,5.20055e-38,-3.59554e-12,-1.06678e-13,0,0,0,0,0,0,0,0,0,0,0,0,0,0,0,0,0,0,0,0,0,-0.261799,3.14159,-1.5,nan,0,0,0,0,0
3320,-3.11382e-12,5.20103e-38,-1.50103e-06,-3.18057e-12,5.20055e-38,0,-1.06679e-13,0,0,0,0,0,0,0,0,0,0,0,0,0,0,0,0,0,0,0,0,0,-0.261799,3.14159,-1.5,nan,0,0,0,0,0
3330,-3.11382e-12,5.20103e-38,-1.50103e-06,-3.18057e-12,5.20055e-38,-3.59554e-12,-1.06679e-13,0,0,0,0,0,0,0,0,0,0,0,0,0,0,0,0,0,0,0,0,0,-0.261799,3.14159,-1.5,nan,0,0,0,0,0
3340,-3.11382e-12,5.20103e-38,-1.50103e-06,-3.18057e-12,5.20055e-38,0,-1.06679e-13,0,0,0,0,0,0,0,0,0,0,0,0,0,0,0,0,0,0,0,0,0,-0.261799,3.14159,-1.5,nan,0,0,0,0,0
3350,-3.11382e-12,5.20103e-38,-1.50103e-06,-3.18057e-12,5.20055e-38,-3.59554e-12,-1.06679e-13,0,0,0,0,0,0,0,0,0,0,0,0,0,0,0,0,0,0,0,0,0,-0.261799,3.14159,-1.5,nan,0,0,0,0,0
3360,-3.11382e-12,5.20103e-38,-1.50103e-06,-3.18057e-12,5.20055e-38,0,-1.0668e-13,0,0,0,0,0,0,0,0,0,0,0,0,0,0,0,0,0,0,0,0,0,-0.261799,3.14159,-1.5,nan,0,0,0,0,0
3370,-3.11382e-12,5.20103e-38,-1.50103e-06,-3.18057e-12,5.20055e-38,-3.59554e-12,-1.0668e-13,0,0,0,0,0,0,0,0,0,0,0,0,0,0,0,0,0,0,0,0,0,-0.261799,3.14159,-1.5,nan,0,0,0,0,0
3380,-3.11382e-12,5.20103e-38,-1.50103e-06,-3.18057e-12,5.20055e-38,0,-1.0668e-13,0,0,0,0,0,0,0,0,0,0,0,0,0,0,0,0,0,0,0,0,0,-0.261799,3.14159,-1.5,nan,0,0,0,0,0
3390,-3.11382e-12,5.20103e-38,-1.50103e-06,-3.18057e-12,5.20055e-38,-3.59554e-12,-1.06681e-13,0,0,0,0,0,0,0,0,0,0,0,0,0,0,0,0,0,0,0,0,0,-0.261799,3.14159,-1.5,nan,0,0,0,0,0
3400,-3.11382e-12,5.20103e-38,-1.50103e-06,-3.18057e-12,5.20055e-38,0,-1.06681e-13,0,0,0,0,0,0,0,0,0,0,0,0,0,0,0,0,0,0,0,0,0,-0.261799,3.14159,-1.5,nan,0,0,0,0,0
3410,-3.11382e-12,5.20103e-38,-1.50103e-06,-3.18057e-12,5.20055e-38,-3.59554e-12,-1.06681e-13,0,0,0,0,0,0,0,0,0,0,0,0,0,0,0,0,0,0,0,0,0,-0.261799,3.14159,-1.5,nan,0,0,0,0,0
3420,-3.11382e-12,5.20103e-38,-1.50103e-06,-3.18057e-12,5.20055e-38,0,-1.06681e-13,0,0,0,0,0,0,0,0,0,0,0,0,0,0,0,0,0,0,0,0,0,-0.261799,3.14159,-1.5,nan,0,0,0,0,0
3430,-3.11382e-12,5.20103e-38,-1.50103e-06,-3.18057e-12,5.20055e-38,-3.59554e-12,-1.06682e-13,0,0,0,0,0,0,0,0,0,0,0,0,0,0,0,0,0,0,0,0,0,-0.261799,3.14159,-1.5,nan,0,0,0,0,0
3440,-3.11382e-12,5.20103e-38,-1.50103e-06,-3.18057e-12,5.20055e-38,0,-1.06682e-13,0,0,0,0,0,0,0,0,0,0,0,0,0,0,0,0,0,0,0,0,0,-0.261799,3.14159,-1.5,nan,0,0,0,0,0
3450,-3.11382e-12,5.20103e-38,-1.50103e-06,-3.18057e-12,5.20055e-38,-3.59554e-12,-1.06682e-13,0,0,0,0,0,0,0,0,0,0,0,0,0,0,0,0,0,0,0,0,0,-0.261799,3.14159,-1.5,nan,0,0,0,0,0
3460,-3.11382e-12,5.20103e-38,-1.50103e-06,-3.18057e-12,5.20055e-38,0,-1.06682e-13,0,0,0,0,0,0,0,0,0,0,0,0,0,0,0,0,0,0,0,0,0,-0.261799,3.14159,-1.5,nan,0,0,0,0,0
3470,-3.11382e-12,5.20103e-38,-1.50103e-06,-3.18057e-12,5.20055e-38,-3.59554e-12,-1.06683e-13,0,0,0,0,0,0,0,0,0,0,0,0,0,0,0,0,0,0,0,0,0,-0.261799,3.14159,-1.5,nan,0,0,0,0,0
3480,-3.11382e-12,5.20103e-38,-1.50103e-06,-3.18057e-12,5.20055e-38,0,-1.06683e-13,0,0,0,0,0,0,0,0,0,0,0,0,0,0,0,0,0,0,0,0,0,-0.261799,3.14159,-1.5,nan,0,0,0,0,0
3490,-3.11382e-12,5.20103e-38,-1.50103e-06,-3.18057e-12,5.20055e-38,-3.59554e-12,-1.06683e-13,0,0,0,0,0,0,0,0,0,0,0,0,0,0,0,0,0,0,0,0,0,-0.261799,3.14159,-1.5,nan,0,0,0,0,0
3500,-3.11382e-12,5.20103e-38,-1.50103e-06,-3.18057e-12,5.20055e-38,0,-1.06683e-13,0,0,0,0,0,0,0,0,0,0,0,0,0,0,0,0,0,0,0,0,0,-0.261799,3.14159,-1.5,nan,0,0,0,0,0
3510,-3.11382e-12,5.20103e-38,-1.50103e-06,-3.18057e-12,5.20055e-38,-3.59554e-12,-1.06684e-13,0,0,0,0,0,0,0,0,0,0,0,0,0,0,0,0,0,0,0,0,0,-0.261799,3.14159,-1.5,nan,0,0,0,0,0
3520,-3.11382e-12,5.20103e-38,-1.50103e-06,-3.18057e-12,5.20055e-38,0,-1.06684e-13,0,0,0,0,0,0,0,0,0,0,0,0,0,0,0,0,0,0,0,0,0,-0.261799,3.14159,-1.5,nan,0,0,0,0,0
3530,-3.11382e-12,5.20103e-38,-1.50103e-06,-3.18057e-12,5.20055e-38,-3.59554e-12,-1.06684e-13,0,0,0,0,0,0,0,0,0,0,0,0,0,0,0,0,0,0,0,0,0,-0.261799,3.14159,-1.5,nan,0,0,0,0,0
3540,-3.11382e-12,5.20103e-38,-1.50103e-06,-3.18057e-12,5.20055e-38,0,-1.06685e-13,0,0,0,0,0,0,0,0,0,0,0,0,0,0,0,0,0,0,0,0,0,-0.261799,3.14159,-1.5,nan,0,0,0,0,0
3550,-3.11382e-12,5.20103e-38,-1.50103e-06,-3.18057e-12,5.20055e-38,-3.59554e-12,-1.06685e-13,0,0,0,0,0,0,0,0,0,0,0,0,0,0,0,0,0,0,0,0,0,-0.261799,3.14159,-1.5,nan,0,0,0,0,0
3560,-3.11382e-12,5.20103e-38,-1.50103e-06,-3.18057e-12,5.20055e-38,0,-1.06685e-13,0,0,0,0,0,0,0,0,0,0,0,0,0,0,0,0,0,0,0,0,0,-0.261799,3.14159,-1.5,nan,0,0,0,0,0
3570,-3.11382e-12,5.20103e-38,-1.50103e-06,-3.18057e-12,5.20055e-38,-3.59554e-12,-1.06685e-13,0,0,0,0,0,0,0,0,0,0,0,0,0,0,0,0,0,0,0,0,0,-0.261799,3.14159,-1.5,nan,0,0,0,0,0
3580,-3.11382e-12,5.20103e-38,-1.50103e-06,-3.18057e-12,5.20055e-38,0,-1.06686e-13,0,0,0,0,0,0,0,0,0,0,0,0,0,0,0,0,0,0,0,0,0,-0.261799,3.14159,-1.5,nan,0,0,0,0,0
