timestamp,A_x,A_y,A_z,P,Q,R,Phi,Theta,Psi,poseX,poseY,poseZ,state_X,state_Y,state_Z,state_VzB,state_Bx,state_By,state_Bz,p1_x,p1_y,p2_x,p2_y,p3_x,p3_y,p4_x,p4_y,roll,pitch,yaw,alt,targetHeading,highLevelState,lowLevelState,gateNumber,filtered_x,filtered_y,x_OT,y_OT,vx_OT,vy_OT,filtered_vx,filtered_vygateArearansac_corr_x,ransac_corr_y,ransac_corr_vx,ransac_corr_vy,detectionTimeStamppTermX,dTermX,pTermY,dTermY,vxcmd,vycmd
5606,0,0,0,0,0,0,0,0,0,0,0,0,0,0,0,0,0,0,0,0,0,0,0,0,0,0,0,0,-0.15,0.0549778,-1.5,3.94113e+12,0,0,2,0,0,0,0,0,0,0,0,1.9603e-19,0,0,0,0,0,0,0,0,0,1,0
8112,-3.3423e-12,6.20212e-38,-1.59835e-06,-3.40794e-12,6.20164e-38,0,-1.13703e-13,0,0,0,0,0,0,0,0,0,0,0,0,0,0,0,0,0,0,0,0,0,-0.15,3.96469,-1.5,3.94113e+12,0,0,2,0,0,0,0,0,0,0,0,1.9603e-19,0,0,0,0,0,0,0,0,0,1,0
8156,-3.3423e-12,6.20212e-38,-1.59835e-06,-3.40794e-12,6.20164e-38,0,-1.13703e-13,0,0,0,0,0,0,0,0,0,0,0,0,0,0,0,0,0,0,0,0,0,-0.15,3.89597,-1.5,3.94113e+12,0,0,2,0,0,0,0,0,0,0,0,1.9603e-19,0,0,0,0,0,0,0,0,0,1,0
8390,-3.3423e-12,6.20212e-38,-1.59835e-06,-3.40794e-12,6.20164e-38,0,-1.13704e-13,0,0,0,0,0,0,0,0,0,0,0,0,0,0,0,0,0,0,0,0,0,-0.15,3.54842,-1.5,3.94113e+12,0,0,2,0,0,0,0,0,0,0,0,1.9603e-19,0,0,0,0,0,0,0,0,0,1,0
8451,-3.3423e-12,6.20212e-38,-1.59835e-06,-3.40794e-12,6.20164e-38,0,-1.13704e-13,0,0,0,0,0,0,0,0,0,0,0,0,0,0,0,0,0,0,0,0,0,-0.15,3.49959,-1.5,3.94113e+12,0,0,2,0,0,0,0,0,0,0,0,1.9603e-19,0,0,0,0,0,0,0,0,0,1,0
8700,-3.3423e-12,6.20212e-38,-1.59835e-06,-3.40794e-12,6.20164e-38,0,-1.13705e-13,0,0,-3.90063,-0.238683,0.507352,0,0,0,0,0,0,0,287,-44,287,-44,408,-43,286,67,0,-0.15,3.32408,-1.5,3.94113e+12,0,0,2,0,0,0,0,0,0,0,0,14274,0,0,0,0,0,0,0,0,0,1,0
8850,-3.3423e-12,6.20212e-38,-1.59835e-06,-3.40794e-12,6.20164e-38,0,-1.13705e-13,0,0,-3.88435,-0.22081,0.496247,0,0,0,0,0,0,0,287,-44,287,-44,405,-43,282,69,0,-0.15,3.27018,-1.5,3.94113e+12,0,0,2,0,0,0,0,0,0,0,0,14268,0,0,0,0,0,0,0,0,0,1,0
9130,-3.3423e-12,6.20212e-38,-1.59835e-06,-3.40794e-12,6.20164e-38,0,-1.13706e-13,0,0,-3.90868,-0.239056,0.514268,0,0,0,0,0,0,0,287,-44,287,-44,408,-43,286,67,0,-0.15,3.19929,-1.5,3.94113e+12,0,0,2,0,0,0,0,0,0,0,0,14152,0,0,0,0,0,0,0,0,0,1,0
9430,-3.3423e-12,6.20212e-38,-1.59835e-06,-3.40794e-12,6.20164e-38,0,-1.13706e-13,0,0,-3.94383,-0.248283,0.531242,0,0,0,0,0,0,0,290,-43,290,-43,408,-43,286,67,0,-0.15,3.16521,-1.5,3.94113e+12,0,0,2,0,0,0,0,0,0,0,0,14030,0,0,0,0,0,0,0,0,0,1,0
9590,-3.3423e-12,6.20212e-38,-1.59835e-06,-3.40794e-12,6.20164e-38,0,-1.13707e-13,0,0,-3.83596,-0.229752,0.469846,0,0,0,0,0,0,0,287,-44,287,-44,408,-43,282,69,0,-0.15,3.15777,-1.5,3.94113e+12,0,0,2,0,0,0,0,0,0,0,0,14616,0,0,0,0,0,0,0,0,0,1,0
9750,-3.3423e-12,6.20212e-38,-1.59835e-06,-3.40794e-12,6.20164e-38,0,-1.13708e-13,0,0,-3.83596,-0.229752,0.469846,0,0,0,0,0,0,0,287,-44,287,-44,408,-43,282,69,0,-0.15,3.15267,-1.5,3.94113e+12,0,0,2,0,0,0,0,0,0,0,0,14616,0,0,0,0,0,0,0,0,0,1,0
10040,-3.3423e-12,6.20212e-38,-1.59835e-06,-3.40794e-12,6.20164e-38,0,-1.13708e-13,0,0,-3.88842,-0.237705,0.495701,0,0,0,0,0,0,0,287,-44,287,-44,408,-43,286,69,0,-0.15,3.14635,-1.5,3.94113e+12,0,0,2,0,0,0,0,0,0,0,0,14274,0,0,0,0,0,0,0,0,0,1,0
10116,-3.3423e-12,6.20212e-38,-1.59835e-06,-3.40794e-12,6.20164e-38,0,-1.13709e-13,0,0,-3.87164,-0.236866,0.476831,0,0,0,0,0,0,0,287,-43,287,-43,408,-43,286,69,0,-0.15,3.14563,-1.5,3.94113e+12,0,0,2,0,0,0,0,0,0,0,0,14518,0,0,0,0,0,0,0,0,0,1,0
10142,-3.3423e-12,6.20212e-38,-1.59835e-06,-3.40794e-12,6.20164e-38,0,-1.13709e-13,0,0,-3.87164,-0.236866,0.476831,0,0,0,0,0,0,0,287,-43,287,-43,408,-43,286,69,0,-0.15,3.14543,-1.5,3.94113e+12,0,0,2,0,0,0,0,0,0,0,0,14518,0,0,0,0,0,0,0,0,0,1,0
10158,-3.3423e-12,6.20212e-38,-1.59835e-06,-3.40794e-12,6.20164e-38,0,-1.1371e-13,0,0,-3.8308,-0.22508,0.454821,0,0,0,0,0,0,0,287,-43,287,-43,408,-43,282,69,0,-0.15,3.1453,-1.5,3.94113e+12,0,0,2,0,0,0,0,0,0,0,0,14994,0,0,0,0,0,0,0,0,0,1,0
10173,-3.3423e-12,6.20212e-38,-1.59835e-06,-3.40794e-12,6.20164e-38,0,-1.1371e-13,0,0,-3.8308,-0.22508,0.454821,0,0,0,0,0,0,0,287,-43,287,-43,408,-43,282,69,0,-0.15,3.14519,-1.5,3.94113e+12,0,0,2,0,0,0,0,0,0,0,0,14994,0,0,0,0,0,0,0,0,0,1,0
10189,-3.3423e-12,6.20212e-38,-1.59835e-06,-3.40794e-12,6.20164e-38,0,-1.13711e-13,0,0,-3.90063,-0.238683,0.507352,0,0,0,0,0,0,0,287,-44,287,-44,408,-43,286,67,0,-0.15,3.14508,-1.5,3.94113e+12,0,0,2,0,0,0,0,0,0,0,0,14274,0,0,0,0,0,0,0,0,0,1,0
10204,-3.3423e-12,6.20212e-38,-1.59835e-06,-3.40794e-12,6.20164e-38,0,-1.13711e-13,0,0,-3.90063,-0.238683,0.507352,0,0,0,0,0,0,0,287,-44,287,-44,408,-43,286,67,0,-0.15,3.14498,-1.5,3.94113e+12,0,0,2,0,0,0,0,0,0,0,0,14274,0,0,0,0,0,0,0,0,0,1,0
10218,-3.3423e-12,6.20212e-38,-1.59835e-06,-3.40794e-12,6.20164e-38,0,-1.13712e-13,0,0,-3.96044,-0.227875,0.540267,0,0,0,0,0,0,0,287,-44,287,-44,402,-43,286,67,0,-0.15,3.14488,-1.5,3.94113e+12,0,0,2,0,0,0,0,0,0,0,0,13572,0,0,0,0,0,0,0,0,0,1,0
10231,-3.3423e-12,6.20212e-38,-1.59835e-06,-3.40794e-12,6.20164e-38,0,-1.13712e-13,0,0,-3.96044,-0.227875,0.540267,0,0,0,0,0,0,0,287,-44,287,-44,402,-43,286,67,0,-0.15,3.1448,-1.5,3.94113e+12,0,0,2,0,0,0,0,0,0,0,0,13572,0,0,0,0,0,0,0,0,0,1,0
10247,-3.3423e-12,6.20212e-38,-1.59835e-06,-3.40794e-12,6.20164e-38,0,-1.13713e-13,0,0,-3.84681,-0.225826,0.473166,0,0,0,0,0,0,0,287,-44,287,-44,408,-43,282,69,0,-0.15,3.1447,-1.5,3.94113e+12,0,0,2,0,0,0,0,0,0,0,0,14742,0,0,0,0,0,0,0,0,0,1,0
10262,-3.3423e-12,6.20212e-38,-1.59835e-06,-3.40794e-12,6.20164e-38,0,-1.13714e-13,0,0,-3.84681,-0.225826,0.473166,0,0,0,0,0,0,0,287,-44,287,-44,408,-43,282,69,0,-0.15,3.14461,-1.5,3.94113e+12,0,0,2,0,0,0,0,0,0,0,0,14742,0,0,0,0,0,0,0,0,0,1,0
10277,-3.3423e-12,6.20212e-38,-1.59835e-06,-3.40794e-12,6.20164e-38,0,-1.13714e-13,0,0,-3.84681,-0.225826,0.473166,0,0,0,0,0,0,0,287,-44,287,-44,408,-43,282,69,0,-0.15,3.14452,-1.5,3.94113e+12,0,0,2,0,0,0,0,0,0,0,0,14742,0,0,0,0,0,0,0,0,0,1,0
10293,-3.3423e-12,6.20212e-38,-1.59835e-06,-3.40794e-12,6.20164e-38,0,-1.13715e-13,0,0,-3.89619,-0.238062,0.502444,0,0,0,0,0,0,0,287,-44,287,-44,408,-43,286,69,0,-0.15,3.14443,-1.5,3.94113e+12,0,0,2,0,0,0,0,0,0,0,0,14152,0,0,0,0,0,0,0,0,0,1,0
10306,-3.3423e-12,6.20212e-38,-1.59835e-06,-3.40794e-12,6.20164e-38,0,-1.13715e-13,0,0,-3.89619,-0.238062,0.502444,0,0,0,0,0,0,0,287,-44,287,-44,408,-43,286,69,0,-0.15,3.14436,-1.5,3.94113e+12,0,0,2,0,0,0,0,0,0,0,0,14152,0,0,0,0,0,0,0,0,0,1,0
10330,-3.3423e-12,6.20212e-38,-1.59835e-06,-3.40794e-12,6.20164e-38,0,-1.13716e-13,0,0,-3.90063,-0.238683,0.507352,0,0,0,0,0,0,0,287,-44,287,-44,408,-43,286,67,0,-0.15,3.14422,-1.5,3.94113e+12,0,0,2,0,0,0,0,0,0,0,0,14274,0,0,0,0,0,0,0,0,0,1,0
10355,-3.3423e-12,6.20212e-38,-1.59835e-06,-3.40794e-12,6.20164e-38,0,-1.13716e-13,0,0,-3.87081,-0.213526,0.471768,0,0,0,0,0,0,0,287,-43,287,-43,402,-43,282,69,0,-0.15,3.14409,-1.5,3.94113e+12,0,0,2,0,0,0,0,0,0,0,0,14520,0,0,0,0,0,0,0,0,0,1,0
10367,-3.3423e-12,6.20212e-38,-1.59835e-06,-3.40794e-12,6.20164e-38,0,-1.13717e-13,0,0,-3.87081,-0.213526,0.471768,0,0,0,0,0,0,0,287,-43,287,-43,402,-43,282,69,0,-0.15,3.14403,-1.5,3.94113e+12,0,0,2,0,0,0,0,0,0,0,0,14520,0,0,0,0,0,0,0,0,0,1,0
10415,-3.3423e-12,6.20212e-38,-1.59835e-06,-3.40794e-12,6.20164e-38,0,-1.13717e-13,0,0,-3.90366,-0.238351,0.504269,0,0,0,0,0,0,0,287,-43,287,-43,408,-43,286,69,0,-0.15,3.1438,-1.5,3.94113e+12,0,0,2,0,0,0,0,0,0,0,0,14030,0,0,0,0,0,0,0,0,0,1,0
10430,-3.3423e-12,6.20212e-38,-1.59835e-06,-3.40794e-12,6.20164e-38,0,-1.13718e-13,0,0,-3.90366,-0.238351,0.504269,0,0,0,0,0,0,0,287,-43,287,-43,408,-43,286,69,0,-0.15,3.14374,-1.5,3.94113e+12,0,0,2,0,0,0,0,0,0,0,0,14030,0,0,0,0,0,0,0,0,0,1,0
10446,-3.3423e-12,6.20212e-38,-1.59835e-06,-3.40794e-12,6.20164e-38,0,-1.13718e-13,0,0,-3.90366,-0.238351,0.504269,0,0,0,0,0,0,0,287,-43,287,-43,408,-43,286,69,0,-0.15,3.14367,-1.5,3.94113e+12,0,0,2,0,0,0,0,0,0,0,0,14030,0,0,0,0,0,0,0,0,0,1,0
10461,-3.3423e-12,6.20212e-38,-1.59835e-06,-3.40794e-12,6.20164e-38,0,-1.13719e-13,0,0,-3.84681,-0.225826,0.473166,0,0,0,0,0,0,0,287,-44,287,-44,408,-43,282,69,0,-0.15,3.14361,-1.5,3.94113e+12,0,0,2,0,0,0,0,0,0,0,0,14742,0,0,0,0,0,0,0,0,0,1,0
10476,-3.3423e-12,6.20212e-38,-1.59835e-06,-3.40794e-12,6.20164e-38,0,-1.13719e-13,0,0,-3.84681,-0.225826,0.473166,0,0,0,0,0,0,0,287,-44,287,-44,408,-43,282,69,0,-0.15,3.14355,-1.5,3.94113e+12,0,0,2,0,0,0,0,0,0,0,0,14742,0,0,0,0,0,0,0,0,0,1,0
10491,-3.3423e-12,6.20212e-38,-1.59835e-06,-3.40794e-12,6.20164e-38,0,-1.1372e-13,0,0,-3.84681,-0.225826,0.473166,0,0,0,0,0,0,0,287,-44,287,-44,408,-43,282,69,0,-0.15,3.14349,-1.5,3.94113e+12,0,0,2,0,0,0,0,0,0,0,0,14742,0,0,0,0,0,0,0,0,0,1,0
10504,-3.3423e-12,6.20212e-38,-1.59835e-06,-3.40794e-12,6.20164e-38,0,-1.13721e-13,0,0,-3.84681,-0.225826,0.473166,0,0,0,0,0,0,0,287,-44,287,-44,408,-43,282,69,0,-0.15,3.14344,-1.5,3.94113e+12,0,0,2,0,0,0,0,0,0,0,0,14742,0,0,0,0,0,0,0,0,0,1,0
10518,-3.3423e-12,6.20212e-38,-1.59835e-06,-3.40794e-12,6.20164e-38,0,-1.13721e-13,0,0,-3.91495,-0.232688,0.495926,0,0,0,0,0,0,0,287,-43,287,-43,405,-41,286,69,0,-0.15,3.14339,-1.5,3.94113e+12,0,0,2,0,0,0,0,0,0,0,0,14161,0,0,0,0,0,0,0,0,0,1,0
10532,-3.3423e-12,6.20212e-38,-1.59835e-06,-3.40794e-12,6.20164e-38,0,-1.13722e-13,0,0,-3.91495,-0.232688,0.495926,0,0,0,0,0,0,0,287,-43,287,-43,405,-41,286,69,0,-0.15,3.14334,-1.5,3.94113e+12,0,0,2,0,0,0,0,0,0,0,0,14161,0,0,0,0,0,0,0,0,0,1,0
10548,-3.3423e-12,6.20212e-38,-1.59835e-06,-3.40794e-12,6.20164e-38,0,-1.13722e-13,0,0,-3.85424,-0.226142,0.479696,0,0,0,0,0,0,0,287,-44,287,-44,408,-43,282,69,0,-0.15,3.14328,-1.5,3.94113e+12,0,0,2,0,0,0,0,0,0,0,0,14616,0,0,0,0,0,0,0,0,0,1,0
10563,-3.3423e-12,6.20212e-38,-1.59835e-06,-3.40794e-12,6.20164e-38,0,-1.13723e-13,0,0,-3.85424,-0.226142,0.479696,0,0,0,0,0,0,0,287,-44,287,-44,408,-43,282,69,0,-0.15,3.14323,-1.5,3.94113e+12,0,0,2,0,0,0,0,0,0,0,0,14616,0,0,0,0,0,0,0,0,0,1,0
10579,-3.3423e-12,6.20212e-38,-1.59835e-06,-3.40794e-12,6.20164e-38,0,-1.13723e-13,0,0,-3.85424,-0.226142,0.479696,0,0,0,0,0,0,0,287,-44,287,-44,408,-43,282,69,0,-0.15,3.14318,-1.5,3.94113e+12,0,0,2,0,0,0,0,0,0,0,0,14616,0,0,0,0,0,0,0,0,0,1,0
10594,-3.3423e-12,6.20212e-38,-1.59835e-06,-3.40794e-12,6.20164e-38,0,-1.13724e-13,0,0,-3.90868,-0.239056,0.514268,0,0,0,0,0,0,0,287,-44,287,-44,408,-43,286,67,0,-0.15,3.14314,-1.5,3.94113e+12,0,0,2,0,0,0,0,0,0,0,0,14152,0,0,0,0,0,0,0,0,0,1,0
10609,-3.3423e-12,6.20212e-38,-1.59835e-06,-3.40794e-12,6.20164e-38,0,-1.13724e-13,0,0,-3.90868,-0.239056,0.514268,0,0,0,0,0,0,0,287,-44,287,-44,408,-43,286,67,0,-0.15,3.14309,-1.5,3.94113e+12,0,0,2,0,0,0,0,0,0,0,0,14152,0,0,0,0,0,0,0,0,0,1,0
10625,-3.3423e-12,6.20212e-38,-1.59835e-06,-3.40794e-12,6.20164e-38,0,-1.13725e-13,0,0,-3.9415,-0.226985,0.520017,0,0,0,0,0,0,0,287,-43,287,-43,402,-43,286,67,0,-0.15,3.14304,-1.5,3.94113e+12,0,0,2,0,0,0,0,0,0,0,0,13804,0,0,0,0,0,0,0,0,0,1,0
10640,-3.3423e-12,6.20212e-38,-1.59835e-06,-3.40794e-12,6.20164e-38,0,-1.13725e-13,0,0,-3.9415,-0.226985,0.520017,0,0,0,0,0,0,0,287,-43,287,-43,402,-43,286,67,0,-0.15,3.143,-1.5,3.94113e+12,0,0,2,0,0,0,0,0,0,0,0,13804,0,0,0,0,0,0,0,0,0,1,0
10655,-3.3423e-12,6.20212e-38,-1.59835e-06,-3.40794e-12,6.20164e-38,0,-1.13726e-13,0,0,-3.98789,-0.228768,0.543336,0,0,0,0,0,0,0,289,-41,289,-41,401,-43,285,69,0,-0.15,3.14296,-1.5,3.94113e+12,0,0,2,0,0,0,0,0,0,0,0,13456,0,0,0,0,0,0,0,0,0,1,0
10670,-3.3423e-12,6.20212e-38,-1.59835e-06,-3.40794e-12,6.20164e-38,0,-1.13727e-13,0,0,-3.98789,-0.228768,0.543336,0,0,0,0,0,0,0,289,-41,289,-41,401,-43,285,69,0,-0.15,3.14292,-1.5,3.94113e+12,0,0,2,0,0,0,0,0,0,0,0,13456,0,0,0,0,0,0,0,0,0,1,0
10686,-3.3423e-12,6.20212e-38,-1.59835e-06,-3.40794e-12,6.20164e-38,0,-1.13727e-13,0,0,-3.88842,-0.237705,0.495701,0,0,0,0,0,0,0,287,-44,287,-44,408,-43,286,69,0,-0.15,3.14287,-1.5,3.94113e+12,0,0,2,0,0,0,0,0,0,0,0,14274,0,0,0,0,0,0,0,0,0,1,0
10701,-3.3423e-12,6.20212e-38,-1.59835e-06,-3.40794e-12,6.20164e-38,0,-1.13728e-13,0,0,-3.88842,-0.237705,0.495701,0,0,0,0,0,0,0,287,-44,287,-44,408,-43,286,69,0,-0.15,3.14284,-1.5,3.94113e+12,0,0,2,0,0,0,0,0,0,0,0,14274,0,0,0,0,0,0,0,0,0,1,0
10717,-3.3423e-12,6.20212e-38,-1.59835e-06,-3.40794e-12,6.20164e-38,0,-1.13728e-13,0,0,-3.88842,-0.237705,0.495701,0,0,0,0,0,0,0,287,-44,287,-44,408,-43,286,69,0,-0.15,3.1428,-1.5,3.94113e+12,0,0,2,0,0,0,0,0,0,0,0,14274,0,0,0,0,0,0,0,0,0,1,0
10732,-3.3423e-12,6.20212e-38,-1.59835e-06,-3.40794e-12,6.20164e-38,0,-1.13729e-13,0,0,-3.88842,-0.237705,0.495701,0,0,0,0,0,0,0,287,-44,287,-44,408,-43,286,69,0,-0.15,3.14276,-1.5,3.94113e+12,0,0,2,0,0,0,0,0,0,0,0,14274,0,0,0,0,0,0,0,0,0,1,0
10748,-3.3423e-12,6.20212e-38,-1.59835e-06,-3.40794e-12,6.20164e-38,0,-1.13729e-13,0,0,-3.90063,-0.238683,0.507352,0,0,0,0,0,0,0,287,-44,287,-44,408,-43,286,67,0,-0.15,3.14272,-1.5,3.94113e+12,0,0,2,0,0,0,0,0,0,0,0,14274,0,0,0,0,0,0,0,0,0,1,0
10761,-3.3423e-12,6.20212e-38,-1.59835e-06,-3.40794e-12,6.20164e-38,0,-1.1373e-13,0,0,-3.90063,-0.238683,0.507352,0,0,0,0,0,0,0,287,-44,287,-44,408,-43,286,67,0,-0.15,3.14269,-1.5,3.94113e+12,0,0,2,0,0,0,0,0,0,0,0,14274,0,0,0,0,0,0,0,0,0,1,0
10774,-3.3423e-12,6.20212e-38,-1.59835e-06,-3.40794e-12,6.20164e-38,0,-1.1373e-13,0,0,-3.90063,-0.238683,0.507352,0,0,0,0,0,0,0,287,-44,287,-44,408,-43,286,67,0,-0.15,3.14267,-1.5,3.94113e+12,0,0,2,0,0,0,0,0,0,0,0,14274,0,0,0,0,0,0,0,0,0,1,0
10789,-3.3423e-12,6.20212e-38,-1.59835e-06,-3.40794e-12,6.20164e-38,0,-1.13731e-13,0,0,-3.8866,-0.235029,0.495139,0,0,0,0,0,0,0,290,-43,290,-43,408,-43,282,69,0,-0.15,3.14263,-1.5,3.94113e+12,0,0,2,0,0,0,0,0,0,0,0,14490,0,0,0,0,0,0,0,0,0,1,0
10805,-3.3423e-12,6.20212e-38,-1.59835e-06,-3.40794e-12,6.20164e-38,0,-1.13731e-13,0,0,-3.8866,-0.235029,0.495139,0,0,0,0,0,0,0,290,-43,290,-43,408,-43,282,69,0,-0.15,3.1426,-1.5,3.94113e+12,0,0,2,0,0,0,0,0,0,0,0,14490,0,0,0,0,0,0,0,0,0,1,0
10822,-3.3423e-12,6.20212e-38,-1.59835e-06,-3.40794e-12,6.20164e-38,0,-1.13732e-13,0,0,-3.91409,-0.243899,0.507451,0,0,0,0,0,0,0,289,-43,289,-43,408,-43,286,69,0,-0.15,3.14257,-1.5,3.94113e+12,0,0,2,0,0,0,0,0,0,0,0,14152,0,0,0,0,0,0,0,0,0,1,0
10837,-3.3423e-12,6.20212e-38,-1.59835e-06,-3.40794e-12,6.20164e-38,0,-1.13732e-13,0,0,-3.91409,-0.243899,0.507451,0,0,0,0,0,0,0,289,-43,289,-43,408,-43,286,69,0,-0.15,3.14254,-1.5,3.94113e+12,0,0,2,0,0,0,0,0,0,0,0,14152,0,0,0,0,0,0,0,0,0,1,0
10852,-3.3423e-12,6.20212e-38,-1.59835e-06,-3.40794e-12,6.20164e-38,0,-1.13733e-13,0,0,-3.85424,-0.226142,0.479696,0,0,0,0,0,0,0,287,-44,287,-44,408,-43,282,69,0,-0.15,3.14251,-1.5,3.94113e+12,0,0,2,0,0,0,0,0,0,0,0,14616,0,0,0,0,0,0,0,0,0,1,0
10867,-3.3423e-12,6.20212e-38,-1.59835e-06,-3.40794e-12,6.20164e-38,0,-1.13734e-13,0,0,-3.85424,-0.226142,0.479696,0,0,0,0,0,0,0,287,-44,287,-44,408,-43,282,69,0,-0.15,3.14248,-1.5,3.94113e+12,0,0,2,0,0,0,0,0,0,0,0,14616,0,0,0,0,0,0,0,0,0,1,0
10883,-3.3423e-12,6.20212e-38,-1.59835e-06,-3.40794e-12,6.20164e-38,0,-1.13734e-13,0,0,-3.91853,-0.232395,0.512229,0,0,0,0,0,0,0,287,-44,287,-44,405,-43,286,69,0,-0.15,3.14245,-1.5,3.94113e+12,0,0,2,0,0,0,0,0,0,0,0,13923,0,0,0,0,0,0,0,0,0,1,0
10898,-3.3423e-12,6.20212e-38,-1.59835e-06,-3.40794e-12,6.20164e-38,0,-1.13735e-13,0,0,-3.91853,-0.232395,0.512229,0,0,0,0,0,0,0,287,-44,287,-44,405,-43,286,69,0,-0.15,3.14243,-1.5,3.94113e+12,0,0,2,0,0,0,0,0,0,0,0,13923,0,0,0,0,0,0,0,0,0,1,0
10914,-3.3423e-12,6.20212e-38,-1.59835e-06,-3.40794e-12,6.20164e-38,0,-1.13735e-13,0,0,-3.85424,-0.226142,0.479696,0,0,0,0,0,0,0,287,-44,287,-44,408,-43,282,69,0,-0.15,3.1424,-1.5,3.94113e+12,0,0,2,0,0,0,0,0,0,0,0,14616,0,0,0,0,0,0,0,0,0,1,0
10929,-3.3423e-12,6.20212e-38,-1.59835e-06,-3.40794e-12,6.20164e-38,0,-1.13736e-13,0,0,-3.85424,-0.226142,0.479696,0,0,0,0,0,0,0,287,-44,287,-44,408,-43,282,69,0,-0.15,3.14238,-1.5,3.94113e+12,0,0,2,0,0,0,0,0,0,0,0,14616,0,0,0,0,0,0,0,0,0,1,0
10945,-3.3423e-12,6.20212e-38,-1.59835e-06,-3.40794e-12,6.20164e-38,0,-1.13736e-13,0,0,-3.85424,-0.226142,0.479696,0,0,0,0,0,0,0,287,-44,287,-44,408,-43,282,69,0,-0.15,3.14235,-1.5,3.94113e+12,0,0,2,0,0,0,0,0,0,0,0,14616,0,0,0,0,0,0,0,0,0,1,0
10960,-3.3423e-12,6.20212e-38,-1.59835e-06,-3.40794e-12,6.20164e-38,0,-1.13737e-13,0,0,-3.90533,-0.214982,0.505294,0,0,0,0,0,0,0,287,-44,287,-44,402,-43,282,69,0,-0.15,3.14233,-1.5,3.94113e+12,0,0,2,0,0,0,0,0,0,0,0,14040,0,0,0,0,0,0,0,0,0,1,0
11008,-3.3423e-12,6.20212e-38,-1.59835e-06,-3.40794e-12,6.20164e-38,0,-1.13737e-13,0,0,-3.84681,-0.225826,0.473166,0,0,0,0,0,0,0,287,-44,287,-44,408,-43,282,69,0,-0.15,3.14226,-1.5,3.94113e+12,0,0,2,0,0,0,0,0,0,0,0,14742,0,0,0,0,0,0,0,0,0,1,0
11024,-3.3423e-12,6.20212e-38,-1.59835e-06,-3.40794e-12,6.20164e-38,0,-1.13738e-13,0,0,-3.90533,-0.214982,0.505294,0,0,0,0,0,0,0,287,-44,287,-44,402,-43,282,69,0,-0.15,3.14224,-1.5,3.94113e+12,0,0,2,0,0,0,0,0,0,0,0,14040,0,0,0,0,0,0,0,0,0,1,0
11042,-3.3423e-12,6.20212e-38,-1.59835e-06,-3.40794e-12,6.20164e-38,0,-1.13738e-13,0,0,-3.90533,-0.214982,0.505294,0,0,0,0,0,0,0,287,-44,287,-44,402,-43,282,69,0,-0.15,3.14222,-1.5,3.94113e+12,0,0,2,0,0,0,0,0,0,0,0,14040,0,0,0,0,0,0,0,0,0,1,0
11056,-3.3423e-12,6.20212e-38,-1.59835e-06,-3.40794e-12,6.20164e-38,0,-1.13739e-13,0,0,-3.84681,-0.225826,0.473166,0,0,0,0,0,0,0,287,-44,287,-44,408,-43,282,69,0,-0.15,3.1422,-1.5,3.94113e+12,0,0,2,0,0,0,0,0,0,0,0,14742,0,0,0,0,0,0,0,0,0,1,0
11068,-3.3423e-12,6.20212e-38,-1.59835e-06,-3.40794e-12,6.20164e-38,0,-1.1374e-13,0,0,-3.84681,-0.225826,0.473166,0,0,0,0,0,0,0,287,-44,287,-44,408,-43,282,69,0,-0.15,3.14218,-1.5,3.94113e+12,0,0,2,0,0,0,0,0,0,0,0,14742,0,0,0,0,0,0,0,0,0,1,0
11084,-3.3423e-12,6.20212e-38,-1.59835e-06,-3.40794e-12,6.20164e-38,0,-1.1374e-13,0,0,-3.85424,-0.226142,0.479696,0,0,0,0,0,0,0,287,-44,287,-44,408,-43,282,69,0,-0.15,3.14217,-1.5,3.94113e+12,0,0,2,0,0,0,0,0,0,0,0,14616,0,0,0,0,0,0,0,0,0,1,0
11099,-3.3423e-12,6.20212e-38,-1.59835e-06,-3.40794e-12,6.20164e-38,0,-1.13741e-13,0,0,-3.85424,-0.226142,0.479696,0,0,0,0,0,0,0,287,-44,287,-44,408,-43,282,69,0,-0.15,3.14215,-1.5,3.94113e+12,0,0,2,0,0,0,0,0,0,0,0,14616,0,0,0,0,0,0,0,0,0,1,0
11114,-3.3423e-12,6.20212e-38,-1.59835e-06,-3.40794e-12,6.20164e-38,0,-1.13741e-13,0,0,-3.85424,-0.226142,0.479696,0,0,0,0,0,0,0,287,-44,287,-44,408,-43,282,69,0,-0.15,3.14213,-1.5,3.94113e+12,0,0,2,0,0,0,0,0,0,0,0,14616,0,0,0,0,0,0,0,0,0,1,0
11129,-3.3423e-12,6.20212e-38,-1.59835e-06,-3.40794e-12,6.20164e-38,0,-1.13742e-13,0,0,-3.85424,-0.226142,0.479696,0,0,0,0,0,0,0,287,-44,287,-44,408,-43,282,69,0,-0.15,3.14212,-1.5,3.94113e+12,0,0,2,0,0,0,0,0,0,0,0,14616,0,0,0,0,0,0,0,0,0,1,0
11146,-3.3423e-12,6.20212e-38,-1.59835e-06,-3.40794e-12,6.20164e-38,0,-1.13742e-13,0,0,-3.84681,-0.225826,0.473166,0,0,0,0,0,0,0,287,-44,287,-44,408,-43,282,69,0,-0.15,3.1421,-1.5,3.94113e+12,0,0,2,0,0,0,0,0,0,0,0,14742,0,0,0,0,0,0,0,0,0,1,0
11161,-3.3423e-12,6.20212e-38,-1.59835e-06,-3.40794e-12,6.20164e-38,0,-1.13743e-13,0,0,-3.84681,-0.225826,0.473166,0,0,0,0,0,0,0,287,-44,287,-44,408,-43,282,69,0,-0.15,3.14208,-1.5,3.94113e+12,0,0,2,0,0,0,0,0,0,0,0,14742,0,0,0,0,0,0,0,0,0,1,0
11176,-3.3423e-12,6.20212e-38,-1.59835e-06,-3.40794e-12,6.20164e-38,0,-1.13743e-13,0,0,-3.84681,-0.225826,0.473166,0,0,0,0,0,0,0,287,-44,287,-44,408,-43,282,69,0,-0.15,3.14207,-1.5,3.94113e+12,0,0,2,0,0,0,0,0,0,0,0,14742,0,0,0,0,0,0,0,0,0,1,0
11191,-3.3423e-12,6.20212e-38,-1.59835e-06,-3.40794e-12,6.20164e-38,0,-1.13744e-13,0,0,-3.89678,-0.219651,0.493113,0,0,0,0,0,0,0,289,-44,289,-44,402,-43,282,69,0,-0.15,3.14205,-1.5,3.94113e+12,0,0,2,0,0,0,0,0,0,0,0,14400,0,0,0,0,0,0,0,0,0,1,0
11206,-3.3423e-12,6.20212e-38,-1.59835e-06,-3.40794e-12,6.20164e-38,0,-1.13744e-13,0,0,-3.89678,-0.219651,0.493113,0,0,0,0,0,0,0,289,-44,289,-44,402,-43,282,69,0,-0.15,3.14204,-1.5,3.94113e+12,0,0,2,0,0,0,0,0,0,0,0,14400,0,0,0,0,0,0,0,0,0,1,0
11221,-3.3423e-12,6.20212e-38,-1.59835e-06,-3.40794e-12,6.20164e-38,0,-1.13745e-13,0,0,-3.84681,-0.225826,0.473166,0,0,0,0,0,0,0,287,-44,287,-44,408,-43,282,69,0,-0.15,3.14203,-1.5,3.94113e+12,0,0,2,0,0,0,0,0,0,0,0,14742,0,0,0,0,0,0,0,0,0,1,0
11236,-3.3423e-12,6.20212e-38,-1.59835e-06,-3.40794e-12,6.20164e-38,0,-1.13745e-13,0,0,-3.84681,-0.225826,0.473166,0,0,0,0,0,0,0,287,-44,287,-44,408,-43,282,69,0,-0.15,3.14201,-1.5,3.94113e+12,0,0,2,0,0,0,0,0,0,0,0,14742,0,0,0,0,0,0,0,0,0,1,0
11252,-3.3423e-12,6.20212e-38,-1.59835e-06,-3.40794e-12,6.20164e-38,0,-1.13746e-13,0,0,-3.84681,-0.225826,0.473166,0,0,0,0,0,0,0,287,-44,287,-44,408,-43,282,69,0,-0.15,3.142,-1.5,3.94113e+12,0,0,2,0,0,0,0,0,0,0,0,14742,0,0,0,0,0,0,0,0,0,1,0
11267,-3.3423e-12,6.20212e-38,-1.59835e-06,-3.40794e-12,6.20164e-38,0,-1.13747e-13,0,0,-3.84681,-0.225826,0.473166,0,0,0,0,0,0,0,287,-44,287,-44,408,-43,282,69,0,-0.15,3.14199,-1.5,3.94113e+12,0,0,2,0,0,0,0,0,0,0,0,14742,0,0,0,0,0,0,0,0,0,1,0
11282,-3.3423e-12,6.20212e-38,-1.59835e-06,-3.40794e-12,6.20164e-38,0,-1.13747e-13,0,0,-3.84681,-0.225826,0.473166,0,0,0,0,0,0,0,287,-44,287,-44,408,-43,282,69,0,-0.15,3.14198,-1.5,3.94113e+12,0,0,2,0,0,0,0,0,0,0,0,14742,0,0,0,0,0,0,0,0,0,1,0
11297,-3.3423e-12,6.20212e-38,-1.59835e-06,-3.40794e-12,6.20164e-38,0,-1.13748e-13,0,0,-3.84681,-0.225826,0.473166,0,0,0,0,0,0,0,287,-44,287,-44,408,-43,282,69,0,-0.15,3.14197,-1.5,3.94113e+12,0,0,2,0,0,0,0,0,0,0,0,14742,0,0,0,0,0,0,0,0,0,1,0
11311,-3.3423e-12,6.20212e-38,-1.59835e-06,-3.40794e-12,6.20164e-38,0,-1.13748e-13,0,0,-3.84681,-0.225826,0.473166,0,0,0,0,0,0,0,287,-44,287,-44,408,-43,282,69,0,-0.15,3.14195,-1.5,3.94113e+12,0,0,2,0,0,0,0,0,0,0,0,14742,0,0,0,0,0,0,0,0,0,1,0
11323,-3.3423e-12,6.20212e-38,-1.59835e-06,-3.40794e-12,6.20164e-38,0,-1.13749e-13,0,0,-3.90533,-0.214982,0.505294,0,0,0,0,0,0,0,287,-44,287,-44,402,-43,282,69,0,-0.15,3.14195,-1.5,3.94113e+12,0,0,2,0,0,0,0,0,0,0,0,14040,0,0,0,0,0,0,0,0,0,1,0
11338,-3.3423e-12,6.20212e-38,-1.59835e-06,-3.40794e-12,6.20164e-38,0,-1.13749e-13,0,0,-3.90533,-0.214982,0.505294,0,0,0,0,0,0,0,287,-44,287,-44,402,-43,282,69,0,-0.15,3.14194,-1.5,3.94113e+12,0,0,2,0,0,0,0,0,0,0,0,14040,0,0,0,0,0,0,0,0,0,1,0
11354,-3.3423e-12,6.20212e-38,-1.59835e-06,-3.40794e-12,6.20164e-38,0,-1.1375e-13,0,0,-3.83982,-0.230479,0.461946,0,0,0,0,0,0,0,289,-44,289,-44,408,-43,282,69,0,-0.15,3.14192,-1.5,3.94113e+12,0,0,2,0,0,0,0,0,0,0,0,15120,0,0,0,0,0,0,0,0,0,1,0
11369,-3.3423e-12,6.20212e-38,-1.59835e-06,-3.40794e-12,6.20164e-38,0,-1.1375e-13,0,0,-3.83982,-0.230479,0.461946,0,0,0,0,0,0,0,289,-44,289,-44,408,-43,282,69,0,-0.15,3.14191,-1.5,3.94113e+12,0,0,2,0,0,0,0,0,0,0,0,15120,0,0,0,0,0,0,0,0,0,1,0
11384,-3.3423e-12,6.20212e-38,-1.59835e-06,-3.40794e-12,6.20164e-38,0,-1.13751e-13,0,0,-3.88842,-0.237705,0.495701,0,0,0,0,0,0,0,287,-44,287,-44,408,-43,286,69,0,-0.15,3.14191,-1.5,3.94113e+12,0,0,2,0,0,0,0,0,0,0,0,14274,0,0,0,0,0,0,0,0,0,1,0
11399,-3.3423e-12,6.20212e-38,-1.59835e-06,-3.40794e-12,6.20164e-38,0,-1.13751e-13,0,0,-3.88842,-0.237705,0.495701,0,0,0,0,0,0,0,287,-44,287,-44,408,-43,286,69,0,-0.15,3.1419,-1.5,3.94113e+12,0,0,2,0,0,0,0,0,0,0,0,14274,0,0,0,0,0,0,0,0,0,1,0
11415,-3.3423e-12,6.20212e-38,-1.59835e-06,-3.40794e-12,6.20164e-38,0,-1.13752e-13,0,0,-3.85424,-0.226142,0.479696,0,0,0,0,0,0,0,287,-44,287,-44,408,-43,282,69,0,-0.15,3.14189,-1.5,3.94113e+12,0,0,2,0,0,0,0,0,0,0,0,14616,0,0,0,0,0,0,0,0,0,1,0
11431,-3.3423e-12,6.20212e-38,-1.59835e-06,-3.40794e-12,6.20164e-38,0,-1.13753e-13,0,0,-3.85424,-0.226142,0.479696,0,0,0,0,0,0,0,287,-44,287,-44,408,-43,282,69,0,-0.15,3.14188,-1.5,3.94113e+12,0,0,2,0,0,0,0,0,0,0,0,14616,0,0,0,0,0,0,0,0,0,1,0
11446,-3.3423e-12,6.20212e-38,-1.59835e-06,-3.40794e-12,6.20164e-38,0,-1.13753e-13,0,0,-3.85424,-0.226142,0.479696,0,0,0,0,0,0,0,287,-44,287,-44,408,-43,282,69,0,-0.15,3.14187,-1.5,3.94113e+12,0,0,2,0,0,0,0,0,0,0,0,14616,0,0,0,0,0,0,0,0,0,1,0
11461,-3.3423e-12,6.20212e-38,-1.59835e-06,-3.40794e-12,6.20164e-38,0,-1.13754e-13,0,0,-3.84681,-0.225826,0.473166,0,0,0,0,0,0,0,287,-44,287,-44,408,-43,282,69,0,-0.15,3.14186,-1.5,3.94113e+12,0,0,2,0,0,0,0,0,0,0,0,14742,0,0,0,0,0,0,0,0,0,1,0
11476,-3.3423e-12,6.20212e-38,-1.59835e-06,-3.40794e-12,6.20164e-38,0,-1.13754e-13,0,0,-3.84681,-0.225826,0.473166,0,0,0,0,0,0,0,287,-44,287,-44,408,-43,282,69,0,-0.15,3.14185,-1.5,3.94113e+12,0,0,2,0,0,0,0,0,0,0,0,14742,0,0,0,0,0,0,0,0,0,1,0
11491,-3.3423e-12,6.20212e-38,-1.59835e-06,-3.40794e-12,6.20164e-38,0,-1.13755e-13,0,0,-3.89619,-0.238062,0.502444,0,0,0,0,0,0,0,287,-44,287,-44,408,-43,286,69,0,-0.15,3.14184,-1.5,3.94113e+12,0,0,2,0,0,0,0,0,0,0,0,14152,0,0,0,0,0,0,0,0,0,1,0
11506,-3.3423e-12,6.20212e-38,-1.59835e-06,-3.40794e-12,6.20164e-38,0,-1.13755e-13,0,0,-3.89619,-0.238062,0.502444,0,0,0,0,0,0,0,287,-44,287,-44,408,-43,286,69,0,-0.15,3.14184,-1.5,3.94113e+12,0,0,2,0,0,0,0,0,0,0,0,14152,0,0,0,0,0,0,0,0,0,1,0
11522,-3.3423e-12,6.20212e-38,-1.59835e-06,-3.40794e-12,6.20164e-38,0,-1.13756e-13,0,0,-3.96044,-0.227875,0.540267,0,0,0,0,0,0,0,287,-44,287,-44,402,-43,286,67,0,-0.15,3.14183,-1.5,3.94113e+12,0,0,2,0,0,0,0,0,0,0,0,13572,0,0,0,0,0,0,0,0,0,1,0
11537,-3.3423e-12,6.20212e-38,-1.59835e-06,-3.40794e-12,6.20164e-38,0,-1.13756e-13,0,0,-3.96044,-0.227875,0.540267,0,0,0,0,0,0,0,287,-44,287,-44,402,-43,286,67,0,-0.15,3.14182,-1.5,3.94113e+12,0,0,2,0,0,0,0,0,0,0,0,13572,0,0,0,0,0,0,0,0,0,1,0
11552,-3.3423e-12,6.20212e-38,-1.59835e-06,-3.40794e-12,6.20164e-38,0,-1.13757e-13,0,0,-3.84681,-0.225826,0.473166,0,0,0,0,0,0,0,287,-44,287,-44,408,-43,282,69,0,-0.15,3.14181,-1.5,3.94113e+12,0,0,2,0,0,0,0,0,0,0,0,14742,0,0,0,0,0,0,0,0,0,1,0
11565,-3.3423e-12,6.20212e-38,-1.59835e-06,-3.40794e-12,6.20164e-38,0,-1.13757e-13,0,0,-3.84681,-0.225826,0.473166,0,0,0,0,0,0,0,287,-44,287,-44,408,-43,282,69,0,-0.15,3.14181,-1.5,3.94113e+12,0,0,2,0,0,0,0,0,0,0,0,14742,0,0,0,0,0,0,0,0,0,1,0
11579,-3.3423e-12,6.20212e-38,-1.59835e-06,-3.40794e-12,6.20164e-38,0,-1.13758e-13,0,0,-3.84681,-0.225826,0.473166,0,0,0,0,0,0,0,287,-44,287,-44,408,-43,282,69,0,-0.15,3.1418,-1.5,3.94113e+12,0,0,2,0,0,0,0,0,0,0,0,14742,0,0,0,0,0,0,0,0,0,1,0
11594,-3.3423e-12,6.20212e-38,-1.59835e-06,-3.40794e-12,6.20164e-38,0,-1.13759e-13,0,0,-3.90063,-0.238683,0.507352,0,0,0,0,0,0,0,287,-44,287,-44,408,-43,286,67,0,-0.15,3.1418,-1.5,3.94113e+12,0,0,2,0,0,0,0,0,0,0,0,14274,0,0,0,0,0,0,0,0,0,1,0
11609,-3.3423e-12,6.20212e-38,-1.59835e-06,-3.40794e-12,6.20164e-38,0,-1.13759e-13,0,0,-3.90063,-0.238683,0.507352,0,0,0,0,0,0,0,287,-44,287,-44,408,-43,286,67,0,-0.15,3.14179,-1.5,3.94113e+12,0,0,2,0,0,0,0,0,0,0,0,14274,0,0,0,0,0,0,0,0,0,1,0
11624,-3.3423e-12,6.20212e-38,-1.59835e-06,-3.40794e-12,6.20164e-38,0,-1.1376e-13,0,0,-3.91327,-0.215297,0.512145,0,0,0,0,0,0,0,287,-44,287,-44,402,-43,282,69,0,-0.15,3.14178,-1.5,3.94113e+12,0,0,2,0,0,0,0,0,0,0,0,13920,0,0,0,0,0,0,0,0,0,1,0
11639,-3.3423e-12,6.20212e-38,-1.59835e-06,-3.40794e-12,6.20164e-38,0,-1.1376e-13,0,0,-3.91327,-0.215297,0.512145,0,0,0,0,0,0,0,287,-44,287,-44,402,-43,282,69,0,-0.15,3.14178,-1.5,3.94113e+12,0,0,2,0,0,0,0,0,0,0,0,13920,0,0,0,0,0,0,0,0,0,1,0
11654,-3.3423e-12,6.20212e-38,-1.59835e-06,-3.40794e-12,6.20164e-38,0,-1.13761e-13,0,0,-3.85402,-0.226086,0.47487,0,0,0,0,0,0,0,287,-43,287,-43,408,-43,282,69,0,-0.15,3.14177,-1.5,3.94113e+12,0,0,2,0,0,0,0,0,0,0,0,14616,0,0,0,0,0,0,0,0,0,1,0
11669,-3.3423e-12,6.20212e-38,-1.59835e-06,-3.40794e-12,6.20164e-38,0,-1.13761e-13,0,0,-3.85402,-0.226086,0.47487,0,0,0,0,0,0,0,287,-43,287,-43,408,-43,282,69,0,-0.15,3.14177,-1.5,3.94113e+12,0,0,2,0,0,0,0,0,0,0,0,14616,0,0,0,0,0,0,0,0,0,1,0
11684,-3.3423e-12,6.20212e-38,-1.59835e-06,-3.40794e-12,6.20164e-38,0,-1.13762e-13,0,0,-3.84681,-0.225826,0.473166,0,0,0,0,0,0,0,287,-44,287,-44,408,-43,282,69,0,-0.15,3.14176,-1.5,3.94113e+12,0,0,2,0,0,0,0,0,0,0,0,14742,0,0,0,0,0,0,0,0,0,1,0
11699,-3.3423e-12,6.20212e-38,-1.59835e-06,-3.40794e-12,6.20164e-38,0,-1.13762e-13,0,0,-3.84681,-0.225826,0.473166,0,0,0,0,0,0,0,287,-44,287,-44,408,-43,282,69,0,-0.15,3.14176,-1.5,3.94113e+12,0,0,2,0,0,0,0,0,0,0,0,14742,0,0,0,0,0,0,0,0,0,1,0
11715,-3.3423e-12,6.20212e-38,-1.59835e-06,-3.40794e-12,6.20164e-38,0,-1.13763e-13,0,0,-3.90868,-0.239056,0.514268,0,0,0,0,0,0,0,287,-44,287,-44,408,-43,286,67,0,-0.15,3.14175,-1.5,3.94113e+12,0,0,2,0,0,0,0,0,0,0,0,14152,0,0,0,0,0,0,0,0,0,1,0
11730,-3.3423e-12,6.20212e-38,-1.59835e-06,-3.40794e-12,6.20164e-38,0,-1.13763e-13,0,0,-3.90868,-0.239056,0.514268,0,0,0,0,0,0,0,287,-44,287,-44,408,-43,286,67,0,-0.15,3.14175,-1.5,3.94113e+12,0,0,2,0,0,0,0,0,0,0,0,14152,0,0,0,0,0,0,0,0,0,1,0
11745,-3.3423e-12,6.20212e-38,-1.59835e-06,-3.40794e-12,6.20164e-38,0,-1.13764e-13,0,0,-3.90868,-0.239056,0.514268,0,0,0,0,0,0,0,287,-44,287,-44,408,-43,286,67,0,-0.15,3.14174,-1.5,3.94113e+12,0,0,2,0,0,0,0,0,0,0,0,14152,0,0,0,0,0,0,0,0,0,1,0
11760,-3.3423e-12,6.20212e-38,-1.59835e-06,-3.40794e-12,6.20164e-38,0,-1.13764e-13,0,0,-3.84681,-0.225826,0.473166,0,0,0,0,0,0,0,287,-44,287,-44,408,-43,282,69,0,-0.15,3.14174,-1.5,3.94113e+12,0,0,2,0,0,0,0,0,0,0,0,14742,0,0,0,0,0,0,0,0,0,1,0
11775,-3.3423e-12,6.20212e-38,-1.59835e-06,-3.40794e-12,6.20164e-38,0,-1.13765e-13,0,0,-3.84681,-0.225826,0.473166,0,0,0,0,0,0,0,287,-44,287,-44,408,-43,282,69,0,-0.15,3.14173,-1.5,3.94113e+12,0,0,2,0,0,0,0,0,0,0,0,14742,0,0,0,0,0,0,0,0,0,1,0
11790,-3.3423e-12,6.20212e-38,-1.59835e-06,-3.40794e-12,6.20164e-38,0,-1.13766e-13,0,0,-3.84681,-0.225826,0.473166,0,0,0,0,0,0,0,287,-44,287,-44,408,-43,282,69,0,-0.15,3.14173,-1.5,3.94113e+12,0,0,2,0,0,0,0,0,0,0,0,14742,0,0,0,0,0,0,0,0,0,1,0
11805,-3.3423e-12,6.20212e-38,-1.59835e-06,-3.40794e-12,6.20164e-38,0,-1.13766e-13,0,0,-3.84681,-0.225826,0.473166,0,0,0,0,0,0,0,287,-44,287,-44,408,-43,282,69,0,-0.15,3.14173,-1.5,3.94113e+12,0,0,2,0,0,0,0,0,0,0,0,14742,0,0,0,0,0,0,0,0,0,1,0
11818,-3.3423e-12,6.20212e-38,-1.59835e-06,-3.40794e-12,6.20164e-38,0,-1.13767e-13,0,0,-3.84681,-0.225826,0.473166,0,0,0,0,0,0,0,287,-44,287,-44,408,-43,282,69,0,-0.15,3.14172,-1.5,3.94113e+12,0,0,2,0,0,0,0,0,0,0,0,14742,0,0,0,0,0,0,0,0,0,1,0
11831,-3.3423e-12,6.20212e-38,-1.59835e-06,-3.40794e-12,6.20164e-38,0,-1.13767e-13,0,0,-3.84681,-0.225826,0.473166,0,0,0,0,0,0,0,287,-44,287,-44,408,-43,282,69,0,-0.15,3.14172,-1.5,3.94113e+12,0,0,2,0,0,0,0,0,0,0,0,14742,0,0,0,0,0,0,0,0,0,1,0
11847,-3.3423e-12,6.20212e-38,-1.59835e-06,-3.40794e-12,6.20164e-38,0,-1.13768e-13,0,0,-3.84681,-0.225826,0.473166,0,0,0,0,0,0,0,287,-44,287,-44,408,-43,282,69,0,-0.15,3.14171,-1.5,3.94113e+12,0,0,2,0,0,0,0,0,0,0,0,14742,0,0,0,0,0,0,0,0,0,1,0
11862,-3.3423e-12,6.20212e-38,-1.59835e-06,-3.40794e-12,6.20164e-38,0,-1.13768e-13,0,0,-3.84681,-0.225826,0.473166,0,0,0,0,0,0,0,287,-44,287,-44,408,-43,282,69,0,-0.15,3.14171,-1.5,3.94113e+12,0,0,2,0,0,0,0,0,0,0,0,14742,0,0,0,0,0,0,0,0,0,1,0
11877,-3.3423e-12,6.20212e-38,-1.59835e-06,-3.40794e-12,6.20164e-38,0,-1.13769e-13,0,0,-3.84681,-0.225826,0.473166,0,0,0,0,0,0,0,287,-44,287,-44,408,-43,282,69,0,-0.15,3.14171,-1.5,3.94113e+12,0,0,2,0,0,0,0,0,0,0,0,14742,0,0,0,0,0,0,0,0,0,1,0
11892,-3.3423e-12,6.20212e-38,-1.59835e-06,-3.40794e-12,6.20164e-38,0,-1.13769e-13,0,0,-3.90808,-0.238972,0.509166,0,0,0,0,0,0,0,287,-43,287,-43,408,-43,286,67,0,-0.15,3.1417,-1.5,3.94113e+12,0,0,2,0,0,0,0,0,0,0,0,14152,0,0,0,0,0,0,0,0,0,1,0
11907,-3.3423e-12,6.20212e-38,-1.59835e-06,-3.40794e-12,6.20164e-38,0,-1.1377e-13,0,0,-3.90808,-0.238972,0.509166,0,0,0,0,0,0,0,287,-43,287,-43,408,-43,286,67,0,-0.15,3.1417,-1.5,3.94113e+12,0,0,2,0,0,0,0,0,0,0,0,14152,0,0,0,0,0,0,0,0,0,1,0
11923,-3.3423e-12,6.20212e-38,-1.59835e-06,-3.40794e-12,6.20164e-38,0,-1.1377e-13,0,0,-3.86549,-0.236954,0.473442,0,0,0,0,0,0,0,287,-43,287,-43,408,-43,286,67,0,-0.15,3.1417,-1.5,3.94113e+12,0,0,2,0,0,0,0,0,0,0,0,14762,0,0,0,0,0,0,0,0,0,1,0
11938,-3.3423e-12,6.20212e-38,-1.59835e-06,-3.40794e-12,6.20164e-38,0,-1.13771e-13,0,0,-3.86549,-0.236954,0.473442,0,0,0,0,0,0,0,287,-43,287,-43,408,-43,286,67,0,-0.15,3.14169,-1.5,3.94113e+12,0,0,2,0,0,0,0,0,0,0,0,14762,0,0,0,0,0,0,0,0,0,1,0
11953,-3.3423e-12,6.20212e-38,-1.59835e-06,-3.40794e-12,6.20164e-38,0,-1.13772e-13,0,0,-3.85424,-0.226142,0.479696,0,0,0,0,0,0,0,287,-44,287,-44,408,-43,282,69,0,-0.15,3.14169,-1.5,3.94113e+12,0,0,2,0,0,0,0,0,0,0,0,14616,0,0,0,0,0,0,0,0,0,1,0
11968,-3.3423e-12,6.20212e-38,-1.59835e-06,-3.40794e-12,6.20164e-38,0,-1.13772e-13,0,0,-3.85424,-0.226142,0.479696,0,0,0,0,0,0,0,287,-44,287,-44,408,-43,282,69,0,-0.15,3.14169,-1.5,3.94113e+12,0,0,2,0,0,0,0,0,0,0,0,14616,0,0,0,0,0,0,0,0,0,1,0
11984,-3.3423e-12,6.20212e-38,-1.59835e-06,-3.40794e-12,6.20164e-38,0,-1.13773e-13,0,0,-3.90063,-0.238683,0.507352,0,0,0,0,0,0,0,287,-44,287,-44,408,-43,286,67,0,-0.15,3.14168,-1.5,3.94113e+12,0,0,2,0,0,0,0,0,0,0,0,14274,0,0,0,0,0,0,0,0,0,1,0
12000,-3.3423e-12,6.20212e-38,-1.59835e-06,-3.40794e-12,6.20164e-38,0,-1.13773e-13,0,0,-3.90063,-0.238683,0.507352,0,0,0,0,0,0,0,287,-44,287,-44,408,-43,286,67,0,-0.15,3.14168,-1.5,3.94113e+12,0,0,2,0,0,0,0,0,0,0,0,14274,0,0,0,0,0,0,0,0,0,1,0
12016,-3.3423e-12,6.20212e-38,-1.59835e-06,-3.40794e-12,6.20164e-38,0,-1.13774e-13,0,0,-3.84681,-0.225826,0.473166,0,0,0,0,0,0,0,287,-44,287,-44,408,-43,282,69,0,-0.15,3.14168,-1.5,3.94113e+12,0,0,2,0,0,0,0,0,0,0,0,14742,0,0,0,0,0,0,0,0,0,1,0
12030,-3.3423e-12,6.20212e-38,-1.59835e-06,-3.40794e-12,6.20164e-38,0,-1.13774e-13,0,0,-3.84681,-0.225826,0.473166,0,0,0,0,0,0,0,287,-44,287,-44,408,-43,282,69,0,-0.15,3.14168,-1.5,3.94113e+12,0,0,2,0,0,0,0,0,0,0,0,14742,0,0,0,0,0,0,0,0,0,1,0
12046,-3.3423e-12,6.20212e-38,-1.59835e-06,-3.40794e-12,6.20164e-38,0,-1.13775e-13,0,0,-3.84681,-0.225826,0.473166,0,0,0,0,0,0,0,287,-44,287,-44,408,-43,282,69,0,-0.15,3.14167,-1.5,3.94113e+12,0,0,2,0,0,0,0,0,0,0,0,14742,0,0,0,0,0,0,0,0,0,1,0
12063,-3.3423e-12,6.20212e-38,-1.59835e-06,-3.40794e-12,6.20164e-38,0,-1.13775e-13,0,0,-3.84681,-0.225826,0.473166,0,0,0,0,0,0,0,287,-44,287,-44,408,-43,282,69,0,-0.15,3.14167,-1.5,3.94113e+12,0,0,2,0,0,0,0,0,0,0,0,14742,0,0,0,0,0,0,0,0,0,1,0
12078,-3.3423e-12,6.20212e-38,-1.59835e-06,-3.40794e-12,6.20164e-38,0,-1.13776e-13,0,0,-3.84681,-0.225826,0.473166,0,0,0,0,0,0,0,287,-44,287,-44,408,-43,282,69,0,-0.15,3.14167,-1.5,3.94113e+12,0,0,2,0,0,0,0,0,0,0,0,14742,0,0,0,0,0,0,0,0,0,1,0
12091,-3.3423e-12,6.20212e-38,-1.59835e-06,-3.40794e-12,6.20164e-38,0,-1.13776e-13,0,0,-3.88842,-0.237705,0.495701,0,0,0,0,0,0,0,287,-44,287,-44,408,-43,286,69,0,-0.15,3.14167,-1.5,3.94113e+12,0,0,2,0,0,0,0,0,0,0,0,14274,0,0,0,0,0,0,0,0,0,1,0
12105,-3.3423e-12,6.20212e-38,-1.59835e-06,-3.40794e-12,6.20164e-38,0,-1.13777e-13,0,0,-3.88842,-0.237705,0.495701,0,0,0,0,0,0,0,287,-44,287,-44,408,-43,286,69,0,-0.15,3.14166,-1.5,3.94113e+12,0,0,2,0,0,0,0,0,0,0,0,14274,0,0,0,0,0,0,0,0,0,1,0
12121,-3.3423e-12,6.20212e-38,-1.59835e-06,-3.40794e-12,6.20164e-38,0,-1.13777e-13,0,0,-3.83848,-0.232828,0.454051,0,0,0,0,0,0,0,290,-43,290,-43,408,-43,282,69,0,-0.15,3.14166,-1.5,3.94113e+12,0,0,2,0,0,0,0,0,0,0,0,15246,0,0,0,0,0,0,0,0,0,1,0
12136,-3.3423e-12,6.20212e-38,-1.59835e-06,-3.40794e-12,6.20164e-38,0,-1.13778e-13,0,0,-3.83848,-0.232828,0.454051,0,0,0,0,0,0,0,290,-43,290,-43,408,-43,282,69,0,-0.15,3.14166,-1.5,3.94113e+12,0,0,2,0,0,0,0,0,0,0,0,15246,0,0,0,0,0,0,0,0,0,1,0
12151,-3.3423e-12,6.20212e-38,-1.59835e-06,-3.40794e-12,6.20164e-38,0,-1.13779e-13,0,0,-3.85402,-0.226086,0.47487,0,0,0,0,0,0,0,287,-43,287,-43,408,-43,282,69,0,-0.15,3.14166,-1.5,3.94113e+12,0,0,2,0,0,0,0,0,0,0,0,14616,0,0,0,0,0,0,0,0,0,1,0
12166,-3.3423e-12,6.20212e-38,-1.59835e-06,-3.40794e-12,6.20164e-38,0,-1.13779e-13,0,0,-3.85402,-0.226086,0.47487,0,0,0,0,0,0,0,287,-43,287,-43,408,-43,282,69,0,-0.15,3.14166,-1.5,3.94113e+12,0,0,2,0,0,0,0,0,0,0,0,14616,0,0,0,0,0,0,0,0,0,1,0
12182,-3.3423e-12,6.20212e-38,-1.59835e-06,-3.40794e-12,6.20164e-38,0,-1.1378e-13,0,0,-3.90808,-0.238972,0.509166,0,0,0,0,0,0,0,287,-43,287,-43,408,-43,286,67,0,-0.15,3.14165,-1.5,3.94113e+12,0,0,2,0,0,0,0,0,0,0,0,14152,0,0,0,0,0,0,0,0,0,1,0
12197,-3.3423e-12,6.20212e-38,-1.59835e-06,-3.40794e-12,6.20164e-38,0,-1.1378e-13,0,0,-3.90808,-0.238972,0.509166,0,0,0,0,0,0,0,287,-43,287,-43,408,-43,286,67,0,-0.15,3.14165,-1.5,3.94113e+12,0,0,2,0,0,0,0,0,0,0,0,14152,0,0,0,0,0,0,0,0,0,1,0
12212,-3.3423e-12,6.20212e-38,-1.59835e-06,-3.40794e-12,6.20164e-38,0,-1.13781e-13,0,0,-3.90808,-0.238972,0.509166,0,0,0,0,0,0,0,287,-43,287,-43,408,-43,286,67,0,-0.15,3.14165,-1.5,3.94113e+12,0,0,2,0,0,0,0,0,0,0,0,14152,0,0,0,0,0,0,0,0,0,1,0
12227,-3.3423e-12,6.20212e-38,-1.59835e-06,-3.40794e-12,6.20164e-38,0,-1.13781e-13,0,0,-3.84681,-0.225826,0.473166,0,0,0,0,0,0,0,287,-44,287,-44,408,-43,282,69,0,-0.15,3.14165,-1.5,3.94113e+12,0,0,2,0,0,0,0,0,0,0,0,14742,0,0,0,0,0,0,0,0,0,1,0
12242,-3.3423e-12,6.20212e-38,-1.59835e-06,-3.40794e-12,6.20164e-38,0,-1.13782e-13,0,0,-3.84681,-0.225826,0.473166,0,0,0,0,0,0,0,287,-44,287,-44,408,-43,282,69,0,-0.15,3.14165,-1.5,3.94113e+12,0,0,2,0,0,0,0,0,0,0,0,14742,0,0,0,0,0,0,0,0,0,1,0
12257,-3.3423e-12,6.20212e-38,-1.59835e-06,-3.40794e-12,6.20164e-38,0,-1.13782e-13,0,0,-3.8308,-0.22508,0.454821,0,0,0,0,0,0,0,287,-43,287,-43,408,-43,282,69,0,-0.15,3.14165,-1.5,3.94113e+12,0,0,2,0,0,0,0,0,0,0,0,14994,0,0,0,0,0,0,0,0,0,1,0
12272,-3.3423e-12,6.20212e-38,-1.59835e-06,-3.40794e-12,6.20164e-38,0,-1.13783e-13,0,0,-3.8308,-0.22508,0.454821,0,0,0,0,0,0,0,287,-43,287,-43,408,-43,282,69,0,-0.15,3.14164,-1.5,3.94113e+12,0,0,2,0,0,0,0,0,0,0,0,14994,0,0,0,0,0,0,0,0,0,1,0
12289,-3.3423e-12,6.20212e-38,-1.59835e-06,-3.40794e-12,6.20164e-38,0,-1.13783e-13,0,0,-3.84681,-0.225826,0.473166,0,0,0,0,0,0,0,287,-44,287,-44,408,-43,282,69,0,-0.15,3.14164,-1.5,3.94113e+12,0,0,2,0,0,0,0,0,0,0,0,14742,0,0,0,0,0,0,0,0,0,1,0
12304,-3.3423e-12,6.20212e-38,-1.59835e-06,-3.40794e-12,6.20164e-38,0,-1.13784e-13,0,0,-3.84681,-0.225826,0.473166,0,0,0,0,0,0,0,287,-44,287,-44,408,-43,282,69,0,-0.15,3.14164,-1.5,3.94113e+12,0,0,2,0,0,0,0,0,0,0,0,14742,0,0,0,0,0,0,0,0,0,1,0
12319,-3.3423e-12,6.20212e-38,-1.59835e-06,-3.40794e-12,6.20164e-38,0,-1.13785e-13,0,0,-3.8959,-0.237996,0.497528,0,0,0,0,0,0,0,287,-43,287,-43,408,-43,286,69,0,-0.15,3.14164,-1.5,3.94113e+12,0,0,2,0,0,0,0,0,0,0,0,14152,0,0,0,0,0,0,0,0,0,1,0
12332,-3.3423e-12,6.20212e-38,-1.59835e-06,-3.40794e-12,6.20164e-38,0,-1.13785e-13,0,0,-3.8959,-0.237996,0.497528,0,0,0,0,0,0,0,287,-43,287,-43,408,-43,286,69,0,-0.15,3.14164,-1.5,3.94113e+12,0,0,2,0,0,0,0,0,0,0,0,14152,0,0,0,0,0,0,0,0,0,1,0
12346,-3.3423e-12,6.20212e-38,-1.59835e-06,-3.40794e-12,6.20164e-38,0,-1.13786e-13,0,0,-3.8959,-0.237996,0.497528,0,0,0,0,0,0,0,287,-43,287,-43,408,-43,286,69,0,-0.15,3.14164,-1.5,3.94113e+12,0,0,2,0,0,0,0,0,0,0,0,14152,0,0,0,0,0,0,0,0,0,1,0
12361,-3.3423e-12,6.20212e-38,-1.59835e-06,-3.40794e-12,6.20164e-38,0,-1.13786e-13,0,0,-3.84681,-0.225826,0.473166,0,0,0,0,0,0,0,287,-44,287,-44,408,-43,282,69,0,-0.15,3.14163,-1.5,3.94113e+12,0,0,2,0,0,0,0,0,0,0,0,14742,0,0,0,0,0,0,0,0,0,1,0
12376,-3.3423e-12,6.20212e-38,-1.59835e-06,-3.40794e-12,6.20164e-38,0,-1.13787e-13,0,0,-3.84681,-0.225826,0.473166,0,0,0,0,0,0,0,287,-44,287,-44,408,-43,282,69,0,-0.15,3.14163,-1.5,3.94113e+12,0,0,2,0,0,0,0,0,0,0,0,14742,0,0,0,0,0,0,0,0,0,1,0
12391,-3.3423e-12,6.20212e-38,-1.59835e-06,-3.40794e-12,6.20164e-38,0,-1.13787e-13,0,0,-3.94468,-0.234492,0.52697,0,0,0,0,0,0,0,287,-44,287,-44,405,-41,286,67,0,-0.15,3.14163,-1.5,3.94113e+12,0,0,2,0,0,0,0,0,0,0,0,13923,0,0,0,0,0,0,0,0,0,1,0
12406,-3.3423e-12,6.20212e-38,-1.59835e-06,-3.40794e-12,6.20164e-38,0,-1.13788e-13,0,0,-3.94468,-0.234492,0.52697,0,0,0,0,0,0,0,287,-44,287,-44,405,-41,286,67,0,-0.15,3.14163,-1.5,3.94113e+12,0,0,2,0,0,0,0,0,0,0,0,13923,0,0,0,0,0,0,0,0,0,1,0
12421,-3.3423e-12,6.20212e-38,-1.59835e-06,-3.40794e-12,6.20164e-38,0,-1.13788e-13,0,0,-3.93116,-0.233374,0.524153,0,0,0,0,0,0,0,287,-44,287,-44,405,-43,286,67,0,-0.15,3.14163,-1.5,3.94113e+12,0,0,2,0,0,0,0,0,0,0,0,13923,0,0,0,0,0,0,0,0,0,1,0
12436,-3.3423e-12,6.20212e-38,-1.59835e-06,-3.40794e-12,6.20164e-38,0,-1.13789e-13,0,0,-3.93116,-0.233374,0.524153,0,0,0,0,0,0,0,287,-44,287,-44,405,-43,286,67,0,-0.15,3.14163,-1.5,3.94113e+12,0,0,2,0,0,0,0,0,0,0,0,13923,0,0,0,0,0,0,0,0,0,1,0
12451,-3.3423e-12,6.20212e-38,-1.59835e-06,-3.40794e-12,6.20164e-38,0,-1.13789e-13,0,0,-3.84681,-0.225826,0.473166,0,0,0,0,0,0,0,287,-44,287,-44,408,-43,282,69,0,-0.15,3.14163,-1.5,3.94113e+12,0,0,2,0,0,0,0,0,0,0,0,14742,0,0,0,0,0,0,0,0,0,1,0
12466,-3.3423e-12,6.20212e-38,-1.59835e-06,-3.40794e-12,6.20164e-38,0,-1.1379e-13,0,0,-3.84681,-0.225826,0.473166,0,0,0,0,0,0,0,287,-44,287,-44,408,-43,282,69,0,-0.15,3.14162,-1.5,3.94113e+12,0,0,2,0,0,0,0,0,0,0,0,14742,0,0,0,0,0,0,0,0,0,1,0
12481,-3.3423e-12,6.20212e-38,-1.59835e-06,-3.40794e-12,6.20164e-38,0,-1.1379e-13,0,0,-3.93345,-0.225549,0.516279,0,0,0,0,0,0,0,289,-41,289,-41,404,-43,282,69,0,-0.15,3.14162,-1.5,3.94113e+12,0,0,2,0,0,0,0,0,0,0,0,14030,0,0,0,0,0,0,0,0,0,1,0
12496,-3.3423e-12,6.20212e-38,-1.59835e-06,-3.40794e-12,6.20164e-38,0,-1.13791e-13,0,0,-3.93345,-0.225549,0.516279,0,0,0,0,0,0,0,289,-41,289,-41,404,-43,282,69,0,-0.15,3.14162,-1.5,3.94113e+12,0,0,2,0,0,0,0,0,0,0,0,14030,0,0,0,0,0,0,0,0,0,1,0
12511,-3.3423e-12,6.20212e-38,-1.59835e-06,-3.40794e-12,6.20164e-38,0,-1.13792e-13,0,0,-3.93345,-0.225549,0.516279,0,0,0,0,0,0,0,289,-41,289,-41,404,-43,282,69,0,-0.15,3.14162,-1.5,3.94113e+12,0,0,2,0,0,0,0,0,0,0,0,14030,0,0,0,0,0,0,0,0,0,1,0
12526,-3.3423e-12,6.20212e-38,-1.59835e-06,-3.40794e-12,6.20164e-38,0,-1.13792e-13,0,0,-3.90366,-0.238351,0.504269,0,0,0,0,0,0,0,287,-43,287,-43,408,-43,286,69,0,-0.15,3.14162,-1.5,3.94113e+12,0,0,2,0,0,0,0,0,0,0,0,14030,0,0,0,0,0,0,0,0,0,1,0
12541,-3.3423e-12,6.20212e-38,-1.59835e-06,-3.40794e-12,6.20164e-38,0,-1.13793e-13,0,0,-3.90366,-0.238351,0.504269,0,0,0,0,0,0,0,287,-43,287,-43,408,-43,286,69,0,-0.15,3.14162,-1.5,3.94113e+12,0,0,2,0,0,0,0,0,0,0,0,14030,0,0,0,0,0,0,0,0,0,1,0
12556,-3.3423e-12,6.20212e-38,-1.59835e-06,-3.40794e-12,6.20164e-38,0,-1.13793e-13,0,0,-3.88842,-0.237705,0.495701,0,0,0,0,0,0,0,287,-44,287,-44,408,-43,286,69,0,-0.15,3.14162,-1.5,3.94113e+12,0,0,2,0,0,0,0,0,0,0,0,14274,0,0,0,0,0,0,0,0,0,1,0
12572,-3.3423e-12,6.20212e-38,-1.59835e-06,-3.40794e-12,6.20164e-38,0,-1.13794e-13,0,0,-3.88842,-0.237705,0.495701,0,0,0,0,0,0,0,287,-44,287,-44,408,-43,286,69,0,-0.15,3.14162,-1.5,3.94113e+12,0,0,2,0,0,0,0,0,0,0,0,14274,0,0,0,0,0,0,0,0,0,1,0
12585,-3.3423e-12,6.20212e-38,-1.59835e-06,-3.40794e-12,6.20164e-38,0,-1.13794e-13,0,0,-3.88299,-0.237792,0.487956,0,0,0,0,0,0,0,287,-43,287,-43,408,-43,286,67,0,-0.15,3.14162,-1.5,3.94113e+12,0,0,2,0,0,0,0,0,0,0,0,14518,0,0,0,0,0,0,0,0,0,1,0
12598,-3.3423e-12,6.20212e-38,-1.59835e-06,-3.40794e-12,6.20164e-38,0,-1.13795e-13,0,0,-3.88299,-0.237792,0.487956,0,0,0,0,0,0,0,287,-43,287,-43,408,-43,286,67,0,-0.15,3.14162,-1.5,3.94113e+12,0,0,2,0,0,0,0,0,0,0,0,14518,0,0,0,0,0,0,0,0,0,1,0
12614,-3.3423e-12,6.20212e-38,-1.59835e-06,-3.40794e-12,6.20164e-38,0,-1.13795e-13,0,0,-3.90063,-0.238683,0.507352,0,0,0,0,0,0,0,287,-44,287,-44,408,-43,286,67,0,-0.15,3.14162,-1.5,3.94113e+12,0,0,2,0,0,0,0,0,0,0,0,14274,0,0,0,0,0,0,0,0,0,1,0
12629,-3.3423e-12,6.20212e-38,-1.59835e-06,-3.40794e-12,6.20164e-38,0,-1.13796e-13,0,0,-3.90063,-0.238683,0.507352,0,0,0,0,0,0,0,287,-44,287,-44,408,-43,286,67,0,-0.15,3.14162,-1.5,3.94113e+12,0,0,2,0,0,0,0,0,0,0,0,14274,0,0,0,0,0,0,0,0,0,1,0
12644,-3.3423e-12,6.20212e-38,-1.59835e-06,-3.40794e-12,6.20164e-38,0,-1.13796e-13,0,0,-3.90063,-0.238683,0.507352,0,0,0,0,0,0,0,287,-44,287,-44,408,-43,286,67,0,-0.15,3.14162,-1.5,3.94113e+12,0,0,2,0,0,0,0,0,0,0,0,14274,0,0,0,0,0,0,0,0,0,1,0
12659,-3.3423e-12,6.20212e-38,-1.59835e-06,-3.40794e-12,6.20164e-38,0,-1.13797e-13,0,0,-3.89472,-0.222006,0.484725,0,0,0,0,0,0,0,290,-43,290,-43,402,-43,282,69,0,-0.15,3.14162,-1.5,3.94113e+12,0,0,2,0,0,0,0,0,0,0,0,14520,0,0,0,0,0,0,0,0,0,1,0
12674,-3.3423e-12,6.20212e-38,-1.59835e-06,-3.40794e-12,6.20164e-38,0,-1.13798e-13,0,0,-3.89472,-0.222006,0.484725,0,0,0,0,0,0,0,290,-43,290,-43,402,-43,282,69,0,-0.15,3.14162,-1.5,3.94113e+12,0,0,2,0,0,0,0,0,0,0,0,14520,0,0,0,0,0,0,0,0,0,1,0
12690,-3.3423e-12,6.20212e-38,-1.59835e-06,-3.40794e-12,6.20164e-38,0,-1.13798e-13,0,0,-3.87898,-0.234688,0.488484,0,0,0,0,0,0,0,290,-43,290,-43,408,-43,282,69,0,-0.15,3.14161,-1.5,3.94113e+12,0,0,2,0,0,0,0,0,0,0,0,14616,0,0,0,0,0,0,0,0,0,1,0
12705,-3.3423e-12,6.20212e-38,-1.59835e-06,-3.40794e-12,6.20164e-38,0,-1.13799e-13,0,0,-3.87898,-0.234688,0.488484,0,0,0,0,0,0,0,290,-43,290,-43,408,-43,282,69,0,-0.15,3.14161,-1.5,3.94113e+12,0,0,2,0,0,0,0,0,0,0,0,14616,0,0,0,0,0,0,0,0,0,1,0
12720,-3.3423e-12,6.20212e-38,-1.59835e-06,-3.40794e-12,6.20164e-38,0,-1.13799e-13,0,0,-3.85424,-0.226142,0.479696,0,0,0,0,0,0,0,287,-44,287,-44,408,-43,282,69,0,-0.15,3.14161,-1.5,3.94113e+12,0,0,2,0,0,0,0,0,0,0,0,14616,0,0,0,0,0,0,0,0,0,1,0
12735,-3.3423e-12,6.20212e-38,-1.59835e-06,-3.40794e-12,6.20164e-38,0,-1.138e-13,0,0,-3.85424,-0.226142,0.479696,0,0,0,0,0,0,0,287,-44,287,-44,408,-43,282,69,0,-0.15,3.14161,-1.5,3.94113e+12,0,0,2,0,0,0,0,0,0,0,0,14616,0,0,0,0,0,0,0,0,0,1,0
12751,-3.3423e-12,6.20212e-38,-1.59835e-06,-3.40794e-12,6.20164e-38,0,-1.138e-13,0,0,-3.84681,-0.225826,0.473166,0,0,0,0,0,0,0,287,-44,287,-44,408,-43,282,69,0,-0.15,3.14161,-1.5,3.94113e+12,0,0,2,0,0,0,0,0,0,0,0,14742,0,0,0,0,0,0,0,0,0,1,0
12766,-3.3423e-12,6.20212e-38,-1.59835e-06,-3.40794e-12,6.20164e-38,0,-1.13801e-13,0,0,-3.84681,-0.225826,0.473166,0,0,0,0,0,0,0,287,-44,287,-44,408,-43,282,69,0,-0.15,3.14161,-1.5,3.94113e+12,0,0,2,0,0,0,0,0,0,0,0,14742,0,0,0,0,0,0,0,0,0,1,0
12781,-3.3423e-12,6.20212e-38,-1.59835e-06,-3.40794e-12,6.20164e-38,0,-1.13801e-13,0,0,-3.91327,-0.215297,0.512145,0,0,0,0,0,0,0,287,-44,287,-44,402,-43,282,69,0,-0.15,3.14161,-1.5,3.94113e+12,0,0,2,0,0,0,0,0,0,0,0,13920,0,0,0,0,0,0,0,0,0,1,0
12796,-3.3423e-12,6.20212e-38,-1.59835e-06,-3.40794e-12,6.20164e-38,0,-1.13802e-13,0,0,-3.91327,-0.215297,0.512145,0,0,0,0,0,0,0,287,-44,287,-44,402,-43,282,69,0,-0.15,3.14161,-1.5,3.94113e+12,0,0,2,0,0,0,0,0,0,0,0,13920,0,0,0,0,0,0,0,0,0,1,0
12812,-3.3423e-12,6.20212e-38,-1.59835e-06,-3.40794e-12,6.20164e-38,0,-1.13802e-13,0,0,-3.91327,-0.215297,0.512145,0,0,0,0,0,0,0,287,-44,287,-44,402,-43,282,69,0,-0.15,3.14161,-1.5,3.94113e+12,0,0,2,0,0,0,0,0,0,0,0,13920,0,0,0,0,0,0,0,0,0,1,0
12825,-3.3423e-12,6.20212e-38,-1.59835e-06,-3.40794e-12,6.20164e-38,0,-1.13803e-13,0,0,-3.91327,-0.215297,0.512145,0,0,0,0,0,0,0,287,-44,287,-44,402,-43,282,69,0,-0.15,3.14161,-1.5,3.94113e+12,0,0,2,0,0,0,0,0,0,0,0,13920,0,0,0,0,0,0,0,0,0,1,0
12838,-3.3423e-12,6.20212e-38,-1.59835e-06,-3.40794e-12,6.20164e-38,0,-1.13803e-13,0,0,-3.91327,-0.215297,0.512145,0,0,0,0,0,0,0,287,-44,287,-44,402,-43,282,69,0,-0.15,3.14161,-1.5,3.94113e+12,0,0,2,0,0,0,0,0,0,0,0,13920,0,0,0,0,0,0,0,0,0,1,0
12853,-3.3423e-12,6.20212e-38,-1.59835e-06,-3.40794e-12,6.20164e-38,0,-1.13804e-13,0,0,-3.96044,-0.227875,0.540267,0,0,0,0,0,0,0,287,-44,287,-44,402,-43,286,67,0,-0.15,3.14161,-1.5,3.94113e+12,0,0,2,0,0,0,0,0,0,0,0,13572,0,0,0,0,0,0,0,0,0,1,0
12869,-3.3423e-12,6.20212e-38,-1.59835e-06,-3.40794e-12,6.20164e-38,0,-1.13805e-13,0,0,-3.96044,-0.227875,0.540267,0,0,0,0,0,0,0,287,-44,287,-44,402,-43,286,67,0,-0.15,3.14161,-1.5,3.94113e+12,0,0,2,0,0,0,0,0,0,0,0,13572,0,0,0,0,0,0,0,0,0,1,0
12885,-3.3423e-12,6.20212e-38,-1.59835e-06,-3.40794e-12,6.20164e-38,0,-1.13805e-13,0,0,-3.85402,-0.226086,0.47487,0,0,0,0,0,0,0,287,-43,287,-43,408,-43,282,69,0,-0.15,3.14161,-1.5,3.94113e+12,0,0,2,0,0,0,0,0,0,0,0,14616,0,0,0,0,0,0,0,0,0,1,0
12900,-3.3423e-12,6.20212e-38,-1.59835e-06,-3.40794e-12,6.20164e-38,0,-1.13806e-13,0,0,-3.85402,-0.226086,0.47487,0,0,0,0,0,0,0,287,-43,287,-43,408,-43,282,69,0,-0.15,3.14161,-1.5,3.94113e+12,0,0,2,0,0,0,0,0,0,0,0,14616,0,0,0,0,0,0,0,0,0,1,0
12916,-3.3423e-12,6.20212e-38,-1.59835e-06,-3.40794e-12,6.20164e-38,0,-1.13806e-13,0,0,-3.84681,-0.225826,0.473166,0,0,0,0,0,0,0,287,-44,287,-44,408,-43,282,69,0,-0.15,3.14161,-1.5,3.94113e+12,0,0,2,0,0,0,0,0,0,0,0,14742,0,0,0,0,0,0,0,0,0,1,0
12931,-3.3423e-12,6.20212e-38,-1.59835e-06,-3.40794e-12,6.20164e-38,0,-1.13807e-13,0,0,-3.84681,-0.225826,0.473166,0,0,0,0,0,0,0,287,-44,287,-44,408,-43,282,69,0,-0.15,3.14161,-1.5,3.94113e+12,0,0,2,0,0,0,0,0,0,0,0,14742,0,0,0,0,0,0,0,0,0,1,0
12946,-3.3423e-12,6.20212e-38,-1.59835e-06,-3.40794e-12,6.20164e-38,0,-1.13807e-13,0,0,-3.90533,-0.214982,0.505294,0,0,0,0,0,0,0,287,-44,287,-44,402,-43,282,69,0,-0.15,3.14161,-1.5,3.94113e+12,0,0,2,0,0,0,0,0,0,0,0,14040,0,0,0,0,0,0,0,0,0,1,0
12961,-3.3423e-12,6.20212e-38,-1.59835e-06,-3.40794e-12,6.20164e-38,0,-1.13808e-13,0,0,-3.90533,-0.214982,0.505294,0,0,0,0,0,0,0,287,-44,287,-44,402,-43,282,69,0,-0.15,3.14161,-1.5,3.94113e+12,0,0,2,0,0,0,0,0,0,0,0,14040,0,0,0,0,0,0,0,0,0,1,0
12977,-3.3423e-12,6.20212e-38,-1.59835e-06,-3.40794e-12,6.20164e-38,0,-1.13808e-13,0,0,-3.90533,-0.214982,0.505294,0,0,0,0,0,0,0,287,-44,287,-44,402,-43,282,69,0,-0.15,3.14161,-1.5,3.94113e+12,0,0,2,0,0,0,0,0,0,0,0,14040,0,0,0,0,0,0,0,0,0,1,0
12991,-3.3423e-12,6.20212e-38,-1.59835e-06,-3.40794e-12,6.20164e-38,0,-1.13809e-13,0,0,-3.90533,-0.214982,0.505294,0,0,0,0,0,0,0,287,-44,287,-44,402,-43,282,69,0,-0.15,3.14161,-1.5,3.94113e+12,0,0,2,0,0,0,0,0,0,0,0,14040,0,0,0,0,0,0,0,0,0,1,0
13006,-3.3423e-12,6.20212e-38,-1.59835e-06,-3.40794e-12,6.20164e-38,0,-1.13809e-13,0,0,-3.90533,-0.214982,0.505294,0,0,0,0,0,0,0,287,-44,287,-44,402,-43,282,69,0,-0.15,3.14161,-1.5,3.94113e+12,0,0,2,0,0,0,0,0,0,0,0,14040,0,0,0,0,0,0,0,0,0,1,0
13022,-3.3423e-12,6.20212e-38,-1.59835e-06,-3.40794e-12,6.20164e-38,0,-1.1381e-13,0,0,-3.84681,-0.225826,0.473166,0,0,0,0,0,0,0,287,-44,287,-44,408,-43,282,69,0,-0.15,3.14161,-1.5,3.94113e+12,0,0,2,0,0,0,0,0,0,0,0,14742,0,0,0,0,0,0,0,0,0,1,0
13036,-3.3423e-12,6.20212e-38,-1.59835e-06,-3.40794e-12,6.20164e-38,0,-1.13811e-13,0,0,-3.84681,-0.225826,0.473166,0,0,0,0,0,0,0,287,-44,287,-44,408,-43,282,69,0,-0.15,3.14161,-1.5,3.94113e+12,0,0,2,0,0,0,0,0,0,0,0,14742,0,0,0,0,0,0,0,0,0,1,0
13052,-3.3423e-12,6.20212e-38,-1.59835e-06,-3.40794e-12,6.20164e-38,0,-1.13811e-13,0,0,-3.89261,-0.218863,0.496242,0,0,0,0,0,0,0,287,-43,287,-43,402,-43,282,69,0,-0.15,3.14161,-1.5,3.94113e+12,0,0,2,0,0,0,0,0,0,0,0,13920,0,0,0,0,0,0,0,0,0,1,0
13070,-3.3423e-12,6.20212e-38,-1.59835e-06,-3.40794e-12,6.20164e-38,0,-1.13812e-13,0,0,-3.89261,-0.218863,0.496242,0,0,0,0,0,0,0,287,-43,287,-43,402,-43,282,69,0,-0.15,3.14161,-1.5,3.94113e+12,0,0,2,0,0,0,0,0,0,0,0,13920,0,0,0,0,0,0,0,0,0,1,0
13084,-3.3423e-12,6.20212e-38,-1.59835e-06,-3.40794e-12,6.20164e-38,0,-1.13812e-13,0,0,-3.98778,-0.236767,0.555222,0,0,0,0,0,0,0,290,-44,290,-44,402,-43,286,67,0,-0.15,3.14161,-1.5,3.94113e+12,0,0,2,0,0,0,0,0,0,0,0,13572,0,0,0,0,0,0,0,0,0,1,0
13097,-3.3423e-12,6.20212e-38,-1.59835e-06,-3.40794e-12,6.20164e-38,0,-1.13813e-13,0,0,-3.98778,-0.236767,0.555222,0,0,0,0,0,0,0,290,-44,290,-44,402,-43,286,67,0,-0.15,3.14161,-1.5,3.94113e+12,0,0,2,0,0,0,0,0,0,0,0,13572,0,0,0,0,0,0,0,0,0,1,0
13112,-3.3423e-12,6.20212e-38,-1.59835e-06,-3.40794e-12,6.20164e-38,0,-1.13813e-13,0,0,-3.98778,-0.236767,0.555222,0,0,0,0,0,0,0,290,-44,290,-44,402,-43,286,67,0,-0.15,3.14161,-1.5,3.94113e+12,0,0,2,0,0,0,0,0,0,0,0,13572,0,0,0,0,0,0,0,0,0,1,0
13127,-3.3423e-12,6.20212e-38,-1.59835e-06,-3.40794e-12,6.20164e-38,0,-1.13814e-13,0,0,-3.84681,-0.225826,0.473166,0,0,0,0,0,0,0,287,-44,287,-44,408,-43,282,69,0,-0.15,3.14161,-1.5,3.94113e+12,0,0,2,0,0,0,0,0,0,0,0,14742,0,0,0,0,0,0,0,0,0,1,0
13142,-3.3423e-12,6.20212e-38,-1.59835e-06,-3.40794e-12,6.20164e-38,0,-1.13814e-13,0,0,-3.84681,-0.225826,0.473166,0,0,0,0,0,0,0,287,-44,287,-44,408,-43,282,69,0,-0.15,3.14161,-1.5,3.94113e+12,0,0,2,0,0,0,0,0,0,0,0,14742,0,0,0,0,0,0,0,0,0,1,0
13158,-3.3423e-12,6.20212e-38,-1.59835e-06,-3.40794e-12,6.20164e-38,0,-1.13815e-13,0,0,-3.90533,-0.214982,0.505294,0,0,0,0,0,0,0,287,-44,287,-44,402,-43,282,69,0,-0.15,3.14161,-1.5,3.94113e+12,0,0,2,0,0,0,0,0,0,0,0,14040,0,0,0,0,0,0,0,0,0,1,0
13174,-3.3423e-12,6.20212e-38,-1.59835e-06,-3.40794e-12,6.20164e-38,0,-1.13815e-13,0,0,-3.90533,-0.214982,0.505294,0,0,0,0,0,0,0,287,-44,287,-44,402,-43,282,69,0,-0.15,3.14161,-1.5,3.94113e+12,0,0,2,0,0,0,0,0,0,0,0,14040,0,0,0,0,0,0,0,0,0,1,0
13189,-3.3423e-12,6.20212e-38,-1.59835e-06,-3.40794e-12,6.20164e-38,0,-1.13816e-13,0,0,-3.81456,-0.224361,0.441084,0,0,0,0,0,0,0,287,-43,287,-43,408,-43,282,69,0,-0.15,3.14161,-1.5,3.94113e+12,0,0,2,0,0,0,0,0,0,0,0,15246,0,0,0,0,0,0,0,0,0,1,0
13204,-3.3423e-12,6.20212e-38,-1.59835e-06,-3.40794e-12,6.20164e-38,0,-1.13817e-13,0,0,-3.81456,-0.224361,0.441084,0,0,0,0,0,0,0,287,-43,287,-43,408,-43,282,69,0,-0.15,3.14161,-1.5,3.94113e+12,0,0,2,0,0,0,0,0,0,0,0,15246,0,0,0,0,0,0,0,0,0,1,0
13219,-3.3423e-12,6.20212e-38,-1.59835e-06,-3.40794e-12,6.20164e-38,0,-1.13817e-13,0,0,-3.90533,-0.214982,0.505294,0,0,0,0,0,0,0,287,-44,287,-44,402,-43,282,69,0,-0.15,3.1416,-1.5,3.94113e+12,0,0,2,0,0,0,0,0,0,0,0,14040,0,0,0,0,0,0,0,0,0,1,0
13234,-3.3423e-12,6.20212e-38,-1.59835e-06,-3.40794e-12,6.20164e-38,0,-1.13818e-13,0,0,-3.90533,-0.214982,0.505294,0,0,0,0,0,0,0,287,-44,287,-44,402,-43,282,69,0,-0.15,3.1416,-1.5,3.94113e+12,0,0,2,0,0,0,0,0,0,0,0,14040,0,0,0,0,0,0,0,0,0,1,0
13250,-3.3423e-12,6.20212e-38,-1.59835e-06,-3.40794e-12,6.20164e-38,0,-1.13818e-13,0,0,-3.90533,-0.214982,0.505294,0,0,0,0,0,0,0,287,-44,287,-44,402,-43,282,69,0,-0.15,3.1416,-1.5,3.94113e+12,0,0,2,0,0,0,0,0,0,0,0,14040,0,0,0,0,0,0,0,0,0,1,0
13265,-3.3423e-12,6.20212e-38,-1.59835e-06,-3.40794e-12,6.20164e-38,0,-1.13819e-13,0,0,-3.90533,-0.214982,0.505294,0,0,0,0,0,0,0,287,-44,287,-44,402,-43,282,69,0,-0.15,3.1416,-1.5,3.94113e+12,0,0,2,0,0,0,0,0,0,0,0,14040,0,0,0,0,0,0,0,0,0,1,0
13280,-3.3423e-12,6.20212e-38,-1.59835e-06,-3.40794e-12,6.20164e-38,0,-1.13819e-13,0,0,-3.90533,-0.214982,0.505294,0,0,0,0,0,0,0,287,-44,287,-44,402,-43,282,69,0,-0.15,3.1416,-1.5,3.94113e+12,0,0,2,0,0,0,0,0,0,0,0,14040,0,0,0,0,0,0,0,0,0,1,0
13295,-3.3423e-12,6.20212e-38,-1.59835e-06,-3.40794e-12,6.20164e-38,0,-1.1382e-13,0,0,-3.87081,-0.213526,0.471768,0,0,0,0,0,0,0,287,-43,287,-43,402,-43,282,69,0,-0.15,3.1416,-1.5,3.94113e+12,0,0,2,0,0,0,0,0,0,0,0,14520,0,0,0,0,0,0,0,0,0,1,0
13310,-3.3423e-12,6.20212e-38,-1.59835e-06,-3.40794e-12,6.20164e-38,0,-1.1382e-13,0,0,-3.87081,-0.213526,0.471768,0,0,0,0,0,0,0,287,-43,287,-43,402,-43,282,69,0,-0.15,3.1416,-1.5,3.94113e+12,0,0,2,0,0,0,0,0,0,0,0,14520,0,0,0,0,0,0,0,0,0,1,0
13325,-3.3423e-12,6.20212e-38,-1.59835e-06,-3.40794e-12,6.20164e-38,0,-1.13821e-13,0,0,-3.85424,-0.226142,0.479696,0,0,0,0,0,0,0,287,-44,287,-44,408,-43,282,69,0,-0.15,3.1416,-1.5,3.94113e+12,0,0,2,0,0,0,0,0,0,0,0,14616,0,0,0,0,0,0,0,0,0,1,0
13338,-3.3423e-12,6.20212e-38,-1.59835e-06,-3.40794e-12,6.20164e-38,0,-1.13821e-13,0,0,-3.85424,-0.226142,0.479696,0,0,0,0,0,0,0,287,-44,287,-44,408,-43,282,69,0,-0.15,3.1416,-1.5,3.94113e+12,0,0,2,0,0,0,0,0,0,0,0,14616,0,0,0,0,0,0,0,0,0,1,0
13352,-3.3423e-12,6.20212e-38,-1.59835e-06,-3.40794e-12,6.20164e-38,0,-1.13822e-13,0,0,-3.84681,-0.225826,0.473166,0,0,0,0,0,0,0,287,-44,287,-44,408,-43,282,69,0,-0.15,3.1416,-1.5,3.94113e+12,0,0,2,0,0,0,0,0,0,0,0,14742,0,0,0,0,0,0,0,0,0,1,0
13367,-3.3423e-12,6.20212e-38,-1.59835e-06,-3.40794e-12,6.20164e-38,0,-1.13822e-13,0,0,-3.84681,-0.225826,0.473166,0,0,0,0,0,0,0,287,-44,287,-44,408,-43,282,69,0,-0.15,3.1416,-1.5,3.94113e+12,0,0,2,0,0,0,0,0,0,0,0,14742,0,0,0,0,0,0,0,0,0,1,0
13382,-3.3423e-12,6.20212e-38,-1.59835e-06,-3.40794e-12,6.20164e-38,0,-1.13823e-13,0,0,-3.90533,-0.214982,0.505294,0,0,0,0,0,0,0,287,-44,287,-44,402,-43,282,69,0,-0.15,3.1416,-1.5,3.94113e+12,0,0,2,0,0,0,0,0,0,0,0,14040,0,0,0,0,0,0,0,0,0,1,0
13397,-3.3423e-12,6.20212e-38,-1.59835e-06,-3.40794e-12,6.20164e-38,0,-1.13824e-13,0,0,-3.90533,-0.214982,0.505294,0,0,0,0,0,0,0,287,-44,287,-44,402,-43,282,69,0,-0.15,3.1416,-1.5,3.94113e+12,0,0,2,0,0,0,0,0,0,0,0,14040,0,0,0,0,0,0,0,0,0,1,0
13413,-3.3423e-12,6.20212e-38,-1.59835e-06,-3.40794e-12,6.20164e-38,0,-1.13824e-13,0,0,-3.84681,-0.225826,0.473166,0,0,0,0,0,0,0,287,-44,287,-44,408,-43,282,69,0,-0.15,3.1416,-1.5,3.94113e+12,0,0,2,0,0,0,0,0,0,0,0,14742,0,0,0,0,0,0,0,0,0,1,0
13427,-3.3423e-12,6.20212e-38,-1.59835e-06,-3.40794e-12,6.20164e-38,0,-1.13825e-13,0,0,-3.84681,-0.225826,0.473166,0,0,0,0,0,0,0,287,-44,287,-44,408,-43,282,69,0,-0.15,3.1416,-1.5,3.94113e+12,0,0,2,0,0,0,0,0,0,0,0,14742,0,0,0,0,0,0,0,0,0,1,0
13443,-3.3423e-12,6.20212e-38,-1.59835e-06,-3.40794e-12,6.20164e-38,0,-1.13825e-13,0,0,-3.84681,-0.225826,0.473166,0,0,0,0,0,0,0,287,-44,287,-44,408,-43,282,69,0,-0.15,3.1416,-1.5,3.94113e+12,0,0,2,0,0,0,0,0,0,0,0,14742,0,0,0,0,0,0,0,0,0,1,0
13459,-3.3423e-12,6.20212e-38,-1.59835e-06,-3.40794e-12,6.20164e-38,0,-1.13826e-13,0,0,-3.88812,-0.21424,0.486154,0,0,0,0,0,0,0,287,-43,287,-43,402,-43,282,69,0,-0.15,3.1416,-1.5,3.94113e+12,0,0,2,0,0,0,0,0,0,0,0,14280,0,0,0,0,0,0,0,0,0,1,0
13474,-3.3423e-12,6.20212e-38,-1.59835e-06,-3.40794e-12,6.20164e-38,0,-1.13826e-13,0,0,-3.88812,-0.21424,0.486154,0,0,0,0,0,0,0,287,-43,287,-43,402,-43,282,69,0,-0.15,3.1416,-1.5,3.94113e+12,0,0,2,0,0,0,0,0,0,0,0,14280,0,0,0,0,0,0,0,0,0,1,0
13489,-3.3423e-12,6.20212e-38,-1.59835e-06,-3.40794e-12,6.20164e-38,0,-1.13827e-13,0,0,-3.94739,-0.226896,0.528075,0,0,0,0,0,0,0,287,-44,287,-44,402,-43,286,69,0,-0.15,3.1416,-1.5,3.94113e+12,0,0,2,0,0,0,0,0,0,0,0,13572,0,0,0,0,0,0,0,0,0,1,0
13504,-3.3423e-12,6.20212e-38,-1.59835e-06,-3.40794e-12,6.20164e-38,0,-1.13827e-13,0,0,-3.94739,-0.226896,0.528075,0,0,0,0,0,0,0,287,-44,287,-44,402,-43,286,69,0,-0.15,3.1416,-1.5,3.94113e+12,0,0,2,0,0,0,0,0,0,0,0,13572,0,0,0,0,0,0,0,0,0,1,0
13519,-3.3423e-12,6.20212e-38,-1.59835e-06,-3.40794e-12,6.20164e-38,0,-1.13828e-13,0,0,-3.88842,-0.237705,0.495701,0,0,0,0,0,0,0,287,-44,287,-44,408,-43,286,69,0,-0.15,3.1416,-1.5,3.94113e+12,0,0,2,0,0,0,0,0,0,0,0,14274,0,0,0,0,0,0,0,0,0,1,0
13534,-3.3423e-12,6.20212e-38,-1.59835e-06,-3.40794e-12,6.20164e-38,0,-1.13828e-13,0,0,-3.88842,-0.237705,0.495701,0,0,0,0,0,0,0,287,-44,287,-44,408,-43,286,69,0,-0.15,3.1416,-1.5,3.94113e+12,0,0,2,0,0,0,0,0,0,0,0,14274,0,0,0,0,0,0,0,0,0,1,0
13550,-3.3423e-12,6.20212e-38,-1.59835e-06,-3.40794e-12,6.20164e-38,0,-1.13829e-13,0,0,-3.90063,-0.238683,0.507352,0,0,0,0,0,0,0,287,-44,287,-44,408,-43,286,67,0,-0.15,3.1416,-1.5,3.94113e+12,0,0,2,0,0,0,0,0,0,0,0,14274,0,0,0,0,0,0,0,0,0,1,0
13565,-3.3423e-12,6.20212e-38,-1.59835e-06,-3.40794e-12,6.20164e-38,0,-1.1383e-13,0,0,-3.90063,-0.238683,0.507352,0,0,0,0,0,0,0,287,-44,287,-44,408,-43,286,67,0,-0.15,3.1416,-1.5,3.94113e+12,0,0,2,0,0,0,0,0,0,0,0,14274,0,0,0,0,0,0,0,0,0,1,0
13580,-3.3423e-12,6.20212e-38,-1.59835e-06,-3.40794e-12,6.20164e-38,0,-1.1383e-13,0,0,-3.90063,-0.238683,0.507352,0,0,0,0,0,0,0,287,-44,287,-44,408,-43,286,67,0,-0.15,3.1416,-1.5,3.94113e+12,0,0,2,0,0,0,0,0,0,0,0,14274,0,0,0,0,0,0,0,0,0,1,0
13593,-3.3423e-12,6.20212e-38,-1.59835e-06,-3.40794e-12,6.20164e-38,0,-1.13831e-13,0,0,-3.84681,-0.225826,0.473166,0,0,0,0,0,0,0,287,-44,287,-44,408,-43,282,69,0,-0.15,3.1416,-1.5,3.94113e+12,0,0,2,0,0,0,0,0,0,0,0,14742,0,0,0,0,0,0,0,0,0,1,0
13606,-3.3423e-12,6.20212e-38,-1.59835e-06,-3.40794e-12,6.20164e-38,0,-1.13831e-13,0,0,-3.84681,-0.225826,0.473166,0,0,0,0,0,0,0,287,-44,287,-44,408,-43,282,69,0,-0.15,3.1416,-1.5,3.94113e+12,0,0,2,0,0,0,0,0,0,0,0,14742,0,0,0,0,0,0,0,0,0,1,0
13622,-3.3423e-12,6.20212e-38,-1.59835e-06,-3.40794e-12,6.20164e-38,0,-1.13832e-13,0,0,-3.84681,-0.225826,0.473166,0,0,0,0,0,0,0,287,-44,287,-44,408,-43,282,69,0,-0.15,3.1416,-1.5,3.94113e+12,0,0,2,0,0,0,0,0,0,0,0,14742,0,0,0,0,0,0,0,0,0,1,0
13637,-3.3423e-12,6.20212e-38,-1.59835e-06,-3.40794e-12,6.20164e-38,0,-1.13832e-13,0,0,-3.84681,-0.225826,0.473166,0,0,0,0,0,0,0,287,-44,287,-44,408,-43,282,69,0,-0.15,3.1416,-1.5,3.94113e+12,0,0,2,0,0,0,0,0,0,0,0,14742,0,0,0,0,0,0,0,0,0,1,0
13652,-3.3423e-12,6.20212e-38,-1.59835e-06,-3.40794e-12,6.20164e-38,0,-1.13833e-13,0,0,-3.87155,-0.234398,0.486677,0,0,0,0,0,0,0,290,-44,290,-44,408,-43,282,69,0,-0.15,3.1416,-1.5,3.94113e+12,0,0,2,0,0,0,0,0,0,0,0,14742,0,0,0,0,0,0,0,0,0,1,0
13667,-3.3423e-12,6.20212e-38,-1.59835e-06,-3.40794e-12,6.20164e-38,0,-1.13833e-13,0,0,-3.87155,-0.234398,0.486677,0,0,0,0,0,0,0,290,-44,290,-44,408,-43,282,69,0,-0.15,3.1416,-1.5,3.94113e+12,0,0,2,0,0,0,0,0,0,0,0,14742,0,0,0,0,0,0,0,0,0,1,0
13683,-3.3423e-12,6.20212e-38,-1.59835e-06,-3.40794e-12,6.20164e-38,0,-1.13834e-13,0,0,-3.94739,-0.226896,0.528075,0,0,0,0,0,0,0,287,-44,287,-44,402,-43,286,69,0,-0.15,3.1416,-1.5,3.94113e+12,0,0,2,0,0,0,0,0,0,0,0,13572,0,0,0,0,0,0,0,0,0,1,0
13698,-3.3423e-12,6.20212e-38,-1.59835e-06,-3.40794e-12,6.20164e-38,0,-1.13834e-13,0,0,-3.94739,-0.226896,0.528075,0,0,0,0,0,0,0,287,-44,287,-44,402,-43,286,69,0,-0.15,3.1416,-1.5,3.94113e+12,0,0,2,0,0,0,0,0,0,0,0,13572,0,0,0,0,0,0,0,0,0,1,0
13715,-3.3423e-12,6.20212e-38,-1.59835e-06,-3.40794e-12,6.20164e-38,0,-1.13835e-13,0,0,-3.84681,-0.225826,0.473166,0,0,0,0,0,0,0,287,-44,287,-44,408,-43,282,69,0,-0.15,3.1416,-1.5,3.94113e+12,0,0,2,0,0,0,0,0,0,0,0,14742,0,0,0,0,0,0,0,0,0,1,0
