timestamp,A_x,A_y,A_z,P,Q,R,Phi,Theta,Psi,poseX,poseY,poseZ,state_X,state_Y,state_Z,state_VzB,state_Bx,state_By,state_Bz,p1_x,p1_y,p2_x,p2_y,p3_x,p3_y,p4_x,p4_y,roll,pitch,yaw,alt,targetHeading,highLevelState,lowLevelState,gateNumber,filtered_x,filtered_y,x_OT,y_OT,vx_OT,vy_OTfiltered_vx,filtered_vy
10,0,0,0,0,0,0,0,0,0,0,0,0,0,0,0,0,0,0,0,0,0,0,0,0,0,0,0,0,-0.261799,0.00779127,-1.5,-nan,0,0,3,0,0,0,0,0,0,0,0
20,0,0,0,0,0,0,0,0,0,0,0,0,0,0,0,0,0,0,0,0,0,0,0,0,0,0,0,0,-0.261799,0.00757544,-1.5,-nan,0,0,3,0,0,0,0,0,0,0,0
30,-3.72118e-12,1.06296e-37,-1.58066e-06,-3.85292e-12,1.06286e-37,-3.40903e-12,-1.13703e-13,0,0,0,0,0,0,0,0,0,0,0,0,0,0,0,0,0,0,0,0,0,-0.261799,0.00228231,-1.5,-nan,0,0,3,0,0,0,0,0,0,0,0
40,-3.72118e-12,1.06296e-37,-1.58066e-06,-3.85292e-12,1.06286e-37,0,-1.13703e-13,0,0,0,0,0,0,0,0,0,0,0,0,0,0,0,0,0,0,0,0,0,-0.261799,0.00222357,-1.5,-nan,0,0,3,0,0,0,0,0,0,0,0
50,-3.72118e-12,1.06296e-37,-1.58066e-06,-3.85292e-12,1.06286e-37,-3.40903e-12,-1.13704e-13,0,0,0,0,0,0,0,0,0,0,0,0,0,0,0,0,0,0,0,0,0,-0.261799,0.00216634,-1.5,-nan,0,0,3,0,0,0,0,0,0,0,0
60,-3.72118e-12,1.06296e-37,-1.58066e-06,-3.85292e-12,1.06286e-37,0,-1.13704e-13,0,0,0,0,0,0,0,0,0,0,0,0,0,0,0,0,0,0,0,0,0,-0.261799,0.00210208,-1.5,-nan,0,0,3,0,0,0,0,0,0,0,0
70,-3.72118e-12,1.06296e-37,-1.58066e-06,-3.85292e-12,1.06286e-37,-3.40903e-12,-1.13705e-13,0,0,0,0,0,0,0,0,0,0,0,0,0,0,0,0,0,0,0,0,0,-0.261799,0.00203972,-1.5,-nan,0,0,3,0,0,0,0,0,0,0,0
80,-3.72118e-12,1.06296e-37,-1.58066e-06,-3.85292e-12,1.06286e-37,0,-1.13705e-13,0,0,0,0,0,0,0,0,0,0,0,0,0,0,0,0,0,0,0,0,0,-0.261799,0.00198319,-1.5,-nan,0,0,3,0,0,0,0,0,0,0,0
90,-3.72118e-12,1.06296e-37,-1.58066e-06,-3.85292e-12,1.06286e-37,-3.40903e-12,-1.13706e-13,0,0,0,0,0,0,0,0,0,0,0,0,0,0,0,0,0,0,0,0,0,-0.261799,0.00192433,-1.5,-nan,0,0,3,0,0,0,0,0,0,0,0
100,-3.72118e-12,1.06296e-37,-1.58066e-06,-3.85292e-12,1.06286e-37,0,-1.13706e-13,0,0,0,0,0,0,0,0,0,0,0,0,0,0,0,0,0,0,0,0,0,-0.261799,0.00186721,-1.5,-nan,0,0,3,0,0,0,0,0,0,0,0
110,-3.72118e-12,1.06296e-37,-1.58066e-06,-3.85292e-12,1.06286e-37,-3.40903e-12,-1.13707e-13,0,0,0,0,0,0,0,0,0,0,0,0,0,0,0,0,0,0,0,0,0,-0.261799,0.00178981,-1.5,-nan,0,0,3,0,0,0,0,0,0,0,0
120,-3.72118e-12,1.06296e-37,-1.58066e-06,-3.85292e-12,1.06286e-37,0,-1.13708e-13,0,0,0,0,0,0,0,0,0,0,0,0,0,0,0,0,0,0,0,0,0,-0.261799,0.00174375,-1.5,-nan,0,0,3,0,0,0,0,0,0,0,0
130,-3.72118e-12,1.06296e-37,-1.58066e-06,-3.85292e-12,1.06286e-37,-3.40903e-12,-1.13708e-13,0,0,0,0,0,0,0,0,0,0,0,0,0,0,0,0,0,0,0,0,0,-0.261799,0.00169887,-1.5,-nan,0,0,3,0,0,0,0,0,0,0,0
140,-3.72118e-12,1.06296e-37,-1.58066e-06,-3.85292e-12,1.06286e-37,0,-1.13709e-13,0,0,0,0,0,0,0,0,0,0,0,0,-1666130499,-1368598944,-1666130499,-1368598944,-1368598904,-1368598904,-1368598864,1455021719,0,-0.261799,0.00164847,-1.5,-nan,0,0,3,0,0,0,0,0,0,0,0
150,-3.72118e-12,1.06296e-37,-1.58066e-06,-3.85292e-12,1.06286e-37,-3.40903e-12,-1.13709e-13,0,0,0,0,0,0,0,0,0,0,0,0,-1666130499,-1368598944,-1666130499,-1368598944,-1368598904,-1368598904,-1368598864,1455021719,0,-0.261799,0.00159309,-1.5,-nan,0,0,3,0,0,0,0,0,0,0,0
160,-3.72118e-12,1.06296e-37,-1.58066e-06,-3.85292e-12,1.06286e-37,0,-1.1371e-13,0,0,0,0,0,0,0,0,0,0,0,0,-1666130499,-1368598944,-1666130499,-1368598944,-1368598904,-1368598904,-1368598864,1455021719,0,-0.261799,0.00154583,-1.5,-nan,0,0,3,0,0,0,0,0,0,0,0
170,-3.72118e-12,1.06296e-37,-1.58066e-06,-3.85292e-12,1.06286e-37,-3.40903e-12,-1.1371e-13,0,0,0,0,0,0,0,0,0,0,0,0,-1666130499,-1368598944,-1666130499,-1368598944,-1368598904,-1368598904,-1368598864,1455021719,0,-0.261799,0.00149995,-1.5,-nan,0,0,3,0,0,0,0,0,0,0,0
180,-3.72118e-12,1.06296e-37,-1.58066e-06,-3.85292e-12,1.06286e-37,0,-1.13711e-13,0,0,0,0,0,0,0,0,0,0,0,0,-1666130499,-1368598944,-1666130499,-1368598944,-1368598904,-1368598904,-1368598864,1455021719,0,-0.261799,0.00145543,-1.5,-nan,0,0,3,0,0,0,0,0,0,0,0
190,-3.72118e-12,1.06296e-37,-1.58066e-06,-3.85292e-12,1.06286e-37,-3.40903e-12,-1.13711e-13,0,0,-3.04348,0.164968,-0.0501399,0,0,0,0,0,0.956517,0.164968,-1666130499,-1368598944,-1666130499,-1368598944,-1368598904,-1368598904,-1368598864,1455021719,0,-0.261799,0.00140939,-1.5,-nan,0,0,3,0,0,0,0,0,0,0,0
200,-3.72118e-12,1.06296e-37,-1.58066e-06,-3.85292e-12,1.06286e-37,0,-1.13712e-13,0,0,-3.04348,0.164968,-0.0501399,0,0,0,0,0,0.956517,0.164968,-1666130499,-1368598944,-1666130499,-1368598944,-1368598904,-1368598904,-1368598864,1455021719,0,-0.261799,0.00136758,-1.5,-nan,0,0,3,0,0,0,0,0,0,0,0
210,-3.72118e-12,1.06296e-37,-1.58066e-06,-3.85292e-12,1.06286e-37,-3.40903e-12,-1.13712e-13,0,0,-3.04348,0.164968,-0.0501399,0,0,0,0,0,0.956517,0.164968,-1666130499,-1368598944,-1666130499,-1368598944,-1368598904,-1368598904,-1368598864,1455021719,0,-0.261799,0.00133506,-1.5,-nan,0,0,3,0,0,0,0,0,0,0,0
220,-3.72118e-12,1.06296e-37,-1.58066e-06,-3.85292e-12,1.06286e-37,0,-1.13713e-13,0,0,-3.03182,0.172078,-0.0456647,0,0,0,0,0,0.968184,0.172078,-1666130499,-1368598944,-1666130499,-1368598944,-1368598904,-1368598904,-1368598864,1455021719,0,-0.261799,0.00129806,-1.5,-nan,0,0,3,0,0,0,0,0,0,0,0
230,-3.72118e-12,1.06296e-37,-1.58066e-06,-3.85292e-12,1.06286e-37,-3.40903e-12,-1.13714e-13,0,0,-3.03182,0.172078,-0.0456647,0,0,0,0,0,0.968184,0.172078,-1666130499,-1368598944,-1666130499,-1368598944,-1368598904,-1368598904,-1368598864,1455021719,0,-0.261799,0.00125954,-1.5,-nan,0,0,3,0,0,0,0,0,0,0,0
240,-3.72118e-12,1.06296e-37,-1.58066e-06,-3.85292e-12,1.06286e-37,0,-1.13714e-13,0,0,-3.03182,0.172078,-0.0456647,0,0,0,0,0,0.968184,0.172078,-1666130499,-1368598944,-1666130499,-1368598944,-1368598904,-1368598904,-1368598864,1455021719,0,-0.261799,0.00122215,-1.5,-nan,0,0,3,0,0,0,0,0,0,0,0
250,-3.72118e-12,1.06296e-37,-1.58066e-06,-3.85292e-12,1.06286e-37,-3.40903e-12,-1.13715e-13,0,0,-3.03182,0.172078,-0.0456647,0,0,0,0,0,0.968184,0.172078,-1666130499,-1368598944,-1666130499,-1368598944,-1368598904,-1368598904,-1368598864,1455021719,0,-0.261799,0.00118349,-1.5,-nan,0,0,3,0,0,0,0,0,0,0,0
260,-3.72118e-12,1.06296e-37,-1.58066e-06,-3.85292e-12,1.06286e-37,0,-1.13715e-13,0,0,-3.01762,0.177923,-0.0552162,0,0,0,0,0,0.982381,0.177923,-1666130499,-1368598944,-1666130499,-1368598944,-1368598904,-1368598904,-1368598864,1455021719,0,-0.261799,0.00114838,-1.5,-nan,0,0,3,0,0,0,0,0,0,0,0
270,-3.72118e-12,1.06296e-37,-1.58066e-06,-3.85292e-12,1.06286e-37,-3.40903e-12,-1.13716e-13,0,0,-3.01762,0.177923,-0.0552162,0,0,0,0,0,0.982381,0.177923,-1666130499,-1368598944,-1666130499,-1368598944,-1368598904,-1368598904,-1368598864,1455021719,0,-0.261799,0.00111432,-1.5,-nan,0,0,3,0,0,0,0,0,0,0,0
280,-3.72118e-12,1.06296e-37,-1.58066e-06,-3.85292e-12,1.06286e-37,0,-1.13716e-13,0,0,-3.02619,0.160945,-0.0488201,0,0,0,0,0,0.973805,0.160945,-1666130499,-1368598944,-1666130499,-1368598944,-1368598904,-1368598904,-1368598864,1455021719,-0.0718876,-0.261799,0.00106603,-1.5,-nan,0,0,3,0.974608,0.159355,0,0,0,0,0.057363,-0.113601
290,-3.72118e-12,1.06296e-37,-1.58066e-06,-3.85292e-12,1.06286e-37,-3.40903e-12,-1.13717e-13,0,0,-3.02619,0.160945,-0.0488201,0,0,0,0,0,0.973805,0.160945,-1666130499,-1368598944,-1666130499,-1368598944,-1368598904,-1368598904,-1368598864,1455021719,-0.0700363,-0.261799,0.00103649,-1.5,-nan,0,0,3,0.975411,0.157764,0,0,0,0,0.057363,-0.113601
300,-3.72118e-12,1.06296e-37,-1.58066e-06,-3.85292e-12,1.06286e-37,0,-1.13717e-13,0,0,-2.99902,0.170149,-0.0563354,0,0,0,0,0,1.00098,0.170149,-1666130499,-1368598944,-1666130499,-1368598944,-1368598904,-1368598904,-1368598864,1455021719,-0.182347,-0.261799,0.000991442,-1.5,-nan,0,0,3,1.00609,0.169812,0,0,0,0,0.269411,-0.0153128
310,-3.72118e-12,1.06296e-37,-1.58066e-06,-3.85292e-12,1.06286e-37,-3.40903e-12,-1.13718e-13,0,0,-2.99902,0.170149,-0.0563354,0,0,0,0,0,1.00098,0.170149,-1666130499,-1368598944,-1666130499,-1368598944,-1368598904,-1368598904,-1368598864,1455021719,-0.18208,-0.261799,0.000962015,-1.5,-nan,0,0,3,1.01013,0.169582,0,0,0,0,0.269411,-0.0153128
320,-3.72118e-12,1.06296e-37,-1.58066e-06,-3.85292e-12,1.06286e-37,0,-1.13718e-13,0,0,-3.02378,0.167471,-0.0518975,0,0,0,0,0,0.976216,0.167471,-1666130499,-1368598944,-1666130499,-1368598944,-1368598904,-1368598904,-1368598864,1455021719,-0.166082,-0.261799,0.000927807,-1.5,-nan,0,0,3,0.978566,0.166963,0,0,0,0,0.057363,-0.028262
330,-3.72118e-12,1.06296e-37,-1.58066e-06,-3.85292e-12,1.06286e-37,-3.40903e-12,-1.13719e-13,0,0,-3.02378,0.167471,-0.0518975,0,0,0,0,0,0.976216,0.167471,-1666130499,-1368598944,-1666130499,-1368598944,-1368598904,-1368598904,-1368598864,1455021719,-0.165556,-0.261799,0.00089846,-1.5,-nan,0,0,3,0.979484,0.166511,0,0,0,0,0.057363,-0.028262
340,-3.72118e-12,1.06296e-37,-1.58066e-06,-3.85292e-12,1.06286e-37,0,-1.13719e-13,0,0,-2.99902,0.170149,-0.0563354,0,0,0,0,0,1.00098,0.170149,-1666130499,-1368598944,-1666130499,-1368598944,-1368598904,-1368598904,-1368598864,1455021719,-0.198052,-0.261799,0.000870024,-1.5,-nan,0,0,3,1.00364,0.170149,0,0,0,0,0.166464,-2.19815e-07
350,-3.72118e-12,1.06296e-37,-1.58066e-06,-3.85292e-12,1.06286e-37,-3.40903e-12,-1.1372e-13,0,0,-2.99902,0.170149,-0.0563354,0,0,0,0,0,1.00098,0.170149,-1666130499,-1368598944,-1666130499,-1368598944,-1368598904,-1368598904,-1368598864,1455021719,-0.198052,-0.261799,0.000845913,-1.5,-nan,0,0,3,1.00597,0.170149,0,0,0,0,0.166464,-2.19815e-07
360,-3.72118e-12,1.06296e-37,-1.58066e-06,-3.85292e-12,1.06286e-37,0,-1.13726e-13,0,0,-3.04579,0.168528,-0.0385963,0,0,0,0,0,0.954211,0.168528,-1666130499,-1368598944,-1666130499,-1368598944,-1368598904,-1368598904,-1368598864,1455021719,-0.180212,-0.261799,0.000814172,-1.5,-nan,0,0,3,0.980673,0.168246,0,0,0,0,0.0499247,-0.0156256
370,-3.72118e-12,1.06296e-37,-1.58066e-06,-3.85292e-12,1.06286e-37,-3.40903e-12,-1.13721e-13,0,0,-3.04579,0.168528,-0.0385963,0,0,0,0,0,0.954211,0.168528,-1666130499,-1368598944,-1666130499,-1368598944,-1368598904,-1368598904,-1368598864,1455021719,-0.17994,-0.261799,0.000790006,-1.5,-nan,0,0,3,0.981422,0.168012,0,0,0,0,0.0499247,-0.0156256
380,-3.72118e-12,1.06296e-37,-1.58066e-06,-3.85292e-12,1.06286e-37,0,-1.13727e-13,0,0,-3.01762,0.177923,-0.0552162,0,0,0,0,0,0.982381,0.177923,-1666130499,-1368598944,-1666130499,-1368598944,-1368598904,-1368598904,-1368598864,1455021719,-0.211274,-0.261799,0.000761893,-1.5,-nan,0,0,3,0.983428,0.17165,0,0,0,0,0.0542142,0.0114737
390,-3.72118e-12,1.06296e-37,-1.58066e-06,-3.85292e-12,1.06286e-37,-3.40903e-12,-1.13726e-13,0,0,-3.01762,0.177923,-0.0552162,0,0,0,0,0,0.982381,0.177923,-1666130499,-1368598944,-1666130499,-1368598944,-1368598904,-1368598904,-1368598864,1455021719,-0.211474,-0.261799,0.000739279,-1.5,-nan,0,0,3,0.984241,0.171822,0,0,0,0,0.0542142,0.0114737
400,-3.72118e-12,1.06296e-37,-1.58066e-06,-3.85292e-12,1.06286e-37,0,-1.13722e-13,0,0,-3.02848,0.166897,-0.0472122,0,0,0,0,0,0.971522,0.166897,-1666130499,-1368598944,-1666130499,-1368598944,-1368598904,-1368598904,-1368598864,1455021719,-0.179645,-0.261799,0.000711516,-1.5,-nan,0,0,3,0.984889,0.167089,0,0,0,0,0.0533846,-0.014845
410,-3.72118e-12,1.06296e-37,-1.58066e-06,-3.85292e-12,1.06286e-37,-3.40903e-12,-1.13721e-13,0,0,-3.02848,0.166897,-0.0472122,0,0,0,0,0,0.971522,0.166897,-1666130499,-1368598944,-1666130499,-1368598944,-1368598904,-1368598904,-1368598864,1455021719,-0.179386,-0.261799,0.000690397,-1.5,-nan,0,0,3,0.98569,0.166866,0,0,0,0,0.0533846,-0.014845
420,-3.72118e-12,1.06296e-37,-1.58066e-06,-3.85292e-12,1.06286e-37,0,-1.13722e-13,0,0,-3.02848,0.166897,-0.0472122,0,0,0,0,0,0.971522,0.166897,-1666130499,-1368598944,-1666130499,-1368598944,-1368598904,-1368598904,-1368598864,1455021719,-0.179127,-0.261799,0.000669905,-1.5,-nan,0,0,3,0.986491,0.166643,0,0,0,0,0.0533846,-0.014845
430,-3.72118e-12,1.06296e-37,-1.58066e-06,-3.85292e-12,1.06286e-37,-3.40903e-12,-1.13723e-13,0,0,-3.02848,0.166897,-0.0472122,0,0,0,0,0,0.971522,0.166897,-1666130499,-1368598944,-1666130499,-1368598944,-1368598904,-1368598904,-1368598864,1455021719,-0.178868,-0.261799,0.000650021,-1.5,-nan,0,0,3,0.987291,0.166421,0,0,0,0,0.0533846,-0.014845
440,-3.72118e-12,1.06296e-37,-1.58066e-06,-3.85292e-12,1.06286e-37,0,-1.13724e-13,0,0,-2.99698,0.168078,-0.0593567,0,0,0,0,0,1.00302,0.168078,-1666130499,-1368598944,-1666130499,-1368598944,-1368598904,-1368598904,-1368598864,1455021719,-0.181319,-0.261799,0.000625661,-1.5,-nan,0,0,3,0.989323,0.166884,0,0,0,0,0.0578795,-0.0129336
450,-3.72118e-12,1.06296e-37,-1.58066e-06,-3.85292e-12,1.06286e-37,-3.40903e-12,-1.13723e-13,0,0,-2.99698,0.168078,-0.0593567,0,0,0,0,0,1.00302,0.168078,-1666130499,-1368598944,-1666130499,-1368598944,-1368598904,-1368598904,-1368598864,1455021719,-0.181093,-0.261799,0.0006071,-1.5,-nan,0,0,3,0.990191,0.16669,0,0,0,0,0.0578795,-0.0129336
460,-3.72118e-12,1.06296e-37,-1.58066e-06,-3.85292e-12,1.06286e-37,0,-1.13727e-13,0,0,-3.0128,0.177455,-0.0556917,0,0,0,0,0,0.987195,0.177455,-1666130499,-1368598944,-1666130499,-1368598944,-1368598904,-1368598904,-1368598864,1455021719,-0.190455,-0.261799,0.000584356,-1.5,-nan,0,0,3,0.990121,0.168135,0,0,0,0,0.0533847,-0.00525403
470,-3.72118e-12,1.06296e-37,-1.58066e-06,-3.85292e-12,1.06286e-37,-3.40903e-12,-1.13725e-13,0,0,-3.0128,0.177455,-0.0556917,0,0,0,0,0,0.987195,0.177455,-1666130499,-1368598944,-1666130499,-1368598944,-1368598904,-1368598904,-1368598864,1455021719,-0.190369,-0.261799,0.000568169,-1.5,-nan,0,0,3,0.990868,0.168062,0,0,0,0,0.0533847,-0.00525403
480,-3.72118e-12,1.06296e-37,-1.58066e-06,-3.85292e-12,1.06286e-37,0,-1.13729e-13,0,0,-3.01762,0.177923,-0.0552162,0,0,0,0,0,0.982381,0.177923,-1666130499,-1368598944,-1666130499,-1368598944,-1368598904,-1368598904,-1368598864,1455021719,-0.226187,-0.261799,0.000546883,-1.5,-nan,0,0,3,0.989816,0.175467,0,0,0,0,0.0450137,0.0219441
490,-3.72118e-12,1.06296e-37,-1.58066e-06,-3.85292e-12,1.06286e-37,-3.40903e-12,-1.13728e-13,0,0,-3.01762,0.177923,-0.0552162,0,0,0,0,0,0.982381,0.177923,-1666130499,-1368598944,-1666130499,-1368598944,-1368598904,-1368598904,-1368598864,1455021719,-0.22657,-0.261799,0.000530659,-1.5,-nan,0,0,3,0.990491,0.175796,0,0,0,0,0.0450137,0.0219441
500,-3.72118e-12,1.06296e-37,-1.58066e-06,-3.85292e-12,1.06286e-37,0,-1.1373e-13,0,0,-3.0128,0.177455,-0.0556917,0,0,0,0,0,0.987195,0.177455,-1666130499,-1368598944,-1666130499,-1368598944,-1368598904,-1368598904,-1368598864,1455021719,-0.231949,-0.261799,0.000510773,-1.5,-nan,0,0,3,0.989641,0.177878,0,0,0,0,0.0427173,0.0248995
510,-3.72118e-12,1.06296e-37,-1.58066e-06,-3.85292e-12,1.06286e-37,-3.40903e-12,-1.13729e-13,0,0,-3.0128,0.177455,-0.0556917,0,0,0,0,0,0.987195,0.177455,-1666130499,-1368598944,-1666130499,-1368598944,-1368598904,-1368598904,-1368598864,1455021719,-0.232384,-0.261799,0.00049562,-1.5,-nan,0,0,3,0.990281,0.178252,0,0,0,0,0.0427173,0.0248995
520,-3.72118e-12,1.06296e-37,-1.58066e-06,-3.85292e-12,1.06286e-37,0,-1.13736e-13,0,0,-3.0014,0.170692,-0.0511871,0,0,0,0,0,0.998597,0.170692,-1666130499,-1368598944,-1666130499,-1368598944,-1368598904,-1368598904,-1368598864,1455021719,-0.230674,-0.261799,0.000476089,-1.5,-nan,0,0,3,0.992184,0.177952,0,0,0,0,0.0449799,0.0235382
530,-3.72118e-12,1.06296e-37,-1.58066e-06,-3.85292e-12,1.06286e-37,-3.40903e-12,-1.13731e-13,0,0,-3.0014,0.170692,-0.0511871,0,0,0,0,0,0.998597,0.170692,-1666130499,-1368598944,-1666130499,-1368598944,-1368598904,-1368598904,-1368598864,1455021719,-0.231085,-0.261799,0.000461958,-1.5,-nan,0,0,3,0.992858,0.178306,0,0,0,0,0.0449799,0.0235382
540,-3.72118e-12,1.06296e-37,-1.58066e-06,-3.85292e-12,1.06286e-37,0,-1.13737e-13,0,0,-3.00567,0.175264,-0.0594316,0,0,0,0,0,0.994326,0.175264,-1666130499,-1368598944,-1666130499,-1368598944,-1368598904,-1368598904,-1368598864,1455021719,-0.218464,-0.261799,0.000444624,-1.5,-nan,0,0,3,0.995105,0.175402,0,0,0,0,0.0492253,0.0142965
550,-3.72118e-12,1.06296e-37,-1.58066e-06,-3.85292e-12,1.06286e-37,-3.40903e-12,-1.13737e-13,0,0,-3.00567,0.175264,-0.0594316,0,0,0,0,0,0.994326,0.175264,-1666130499,-1368598944,-1666130499,-1368598944,-1368598904,-1368598904,-1368598864,1455021719,-0.218714,-0.261799,0.000431427,-1.5,-nan,0,0,3,0.995844,0.175617,0,0,0,0,0.0492253,0.0142965
560,-3.72118e-12,1.06296e-37,-1.58066e-06,-3.85292e-12,1.06286e-37,0,-1.13739e-13,0,0,-3.01222,0.17521,-0.0494179,0,0,0,0,0,0.987778,0.17521,-1666130499,-1368598944,-1666130499,-1368598944,-1368598904,-1368598904,-1368598864,1455021719,-0.217937,-0.261799,0.000415265,-1.5,-nan,0,0,3,0.995935,0.175381,0,0,0,0,0.0463111,0.0137948
570,-3.72118e-12,1.06296e-37,-1.58066e-06,-3.85292e-12,1.06286e-37,-3.40903e-12,-1.13738e-13,0,0,-3.01222,0.17521,-0.0494179,0,0,0,0,0,0.987778,0.17521,-1666130499,-1368598944,-1666130499,-1368598944,-1368598904,-1368598904,-1368598864,1455021719,-0.218162,-0.261799,0.000403757,-1.5,-nan,0,0,3,0.996584,0.175574,0,0,0,0,0.0463111,0.0137948
580,-3.72118e-12,1.06296e-37,-1.58066e-06,-3.85292e-12,1.06286e-37,0,-1.13736e-13,0,0,-3.00567,0.172677,-0.0528534,0,0,0,0,0,0.994333,0.172677,-1666130499,-1368598944,-1666130499,-1368598944,-1368598904,-1368598904,-1368598864,1455021719,-0.218339,-0.261799,0.0003878,-1.5,-nan,0,0,3,0.995048,0.175896,0,0,0,0,0.0414699,0.0135958
590,-3.72118e-12,1.06296e-37,-1.58066e-06,-3.85292e-12,1.06286e-37,-3.40903e-12,-1.13731e-13,0,0,-3.00567,0.172677,-0.0528534,0,0,0,0,0,0.994333,0.172677,-1666130499,-1368598944,-1666130499,-1368598944,-1368598904,-1368598904,-1368598864,1455021719,-0.218576,-0.261799,0.000376295,-1.5,-nan,0,0,3,0.99567,0.1761,0,0,0,0,0.0414699,0.0135958
600,-3.72118e-12,1.06296e-37,-1.58066e-06,-3.85292e-12,1.06286e-37,0,-1.13742e-13,0,0,-3.00567,0.172677,-0.0528534,0,0,0,0,0,0.994333,0.172677,-1666130499,-1368598944,-1666130499,-1368598944,-1368598904,-1368598904,-1368598864,1455021719,-0.215766,-0.261799,0.000362175,-1.5,-nan,0,0,3,0.996224,0.175398,0,0,0,0,0.040617,0.0116036
610,-3.72118e-12,1.06296e-37,-1.58066e-06,-3.85292e-12,1.06286e-37,-3.40903e-12,-1.13739e-13,0,0,-3.00567,0.172677,-0.0528534,0,0,0,0,0,0.994333,0.172677,-1666130499,-1368598944,-1666130499,-1368598944,-1368598904,-1368598904,-1368598864,1455021719,-0.215969,-0.261799,0.000351431,-1.5,-nan,0,0,3,0.996833,0.175572,0,0,0,0,0.040617,0.0116036
620,-3.72118e-12,1.06296e-37,-1.58066e-06,-3.85292e-12,1.06286e-37,0,-1.1374e-13,0,0,-3.01034,0.173131,-0.0524402,0,0,0,0,0,0.98966,0.173131,-1666130499,-1368598944,-1666130499,-1368598944,-1368598904,-1368598904,-1368598864,1455021719,-0.207866,-0.261799,0.000338233,-1.5,-nan,0,0,3,0.99626,0.173174,0,0,0,0,0.0381134,0.00629196
630,-3.72118e-12,1.06296e-37,-1.58066e-06,-3.85292e-12,1.06286e-37,-3.40903e-12,-1.13741e-13,0,0,-3.01034,0.173131,-0.0524402,0,0,0,0,0,0.98966,0.173131,-1666130499,-1368598944,-1666130499,-1368598944,-1368598904,-1368598904,-1368598864,1455021719,-0.207976,-0.261799,0.000328194,-1.5,-nan,0,0,3,0.996831,0.173268,0,0,0,0,0.0381134,0.00629196
640,-3.72118e-12,1.06296e-37,-1.58066e-06,-3.85292e-12,1.06286e-37,0,-1.13741e-13,0,0,-3.01034,0.173131,-0.0524402,0,0,0,0,0,0.98966,0.173131,-1666130499,-1368598944,-1666130499,-1368598944,-1368598904,-1368598904,-1368598864,1455021719,-0.209423,-0.261799,0.000315235,-1.5,-nan,0,0,3,0.997558,0.173781,0,0,0,0,0.0383218,0.00714256
650,-3.72118e-12,1.06296e-37,-1.58066e-06,-3.85292e-12,1.06286e-37,-3.40903e-12,-1.13742e-13,0,0,-3.01034,0.173131,-0.0524402,0,0,0,0,0,0.98966,0.173131,-1666130499,-1368598944,-1666130499,-1368598944,-1368598904,-1368598904,-1368598864,1455021719,-0.209547,-0.261799,0.000305883,-1.5,-nan,0,0,3,0.998133,0.173888,0,0,0,0,0.0383218,0.00714256
660,-3.72118e-12,1.06296e-37,-1.58066e-06,-3.85292e-12,1.06286e-37,0,-1.13732e-13,0,0,-2.99449,0.172284,-0.0632416,0,0,0,0,0,1.00551,0.172284,-1666130499,-1368598944,-1666130499,-1368598944,-1368598904,-1368598904,-1368598864,1455021719,-0.208951,-0.261799,0.000294405,-1.5,-nan,0,0,3,0.999473,0.173812,0,0,0,0,0.0393642,0.00663489
670,-3.72118e-12,1.06296e-37,-1.58066e-06,-3.85292e-12,1.06286e-37,-3.40903e-12,-1.13735e-13,0,0,-3.00422,0.174605,-0.0512306,0,0,0,0,0,0.995782,0.174605,-1666130499,-1368598944,-1666130499,-1368598944,-1368598904,-1368598904,-1368598864,1455021719,-0.20903,-0.261799,0.000282799,-1.5,-nan,0,0,3,0.999209,0.173834,0,0,0,0,0.0370142,0.00668821
680,-3.72118e-12,1.06296e-37,-1.58066e-06,-3.85292e-12,1.06286e-37,0,-1.13732e-13,0,0,-3.00422,0.174605,-0.0512306,0,0,0,0,0,0.995782,0.174605,-1666130499,-1368598944,-1666130499,-1368598944,-1368598904,-1368598904,-1368598864,1455021719,-0.209146,-0.261799,0.000274409,-1.5,-nan,0,0,3,0.999765,0.173934,0,0,0,0,0.0370142,0.00668821
690,-3.72118e-12,1.06296e-37,-1.58066e-06,-3.85292e-12,1.06286e-37,-3.40903e-12,-1.13733e-13,0,0,-2.99988,0.1769,-0.0494952,0,0,0,0,0,1.00011,0.1769,-1666130499,-1368598944,-1666130499,-1368598944,-1368598904,-1368598904,-1368598864,1455021719,-0.208613,-0.261799,0.000264126,-1.5,-nan,0,0,3,1.00116,0.173985,0,0,0,0,0.0388796,0.0060948
700,-3.72118e-12,1.06296e-37,-1.58066e-06,-3.85292e-12,1.06286e-37,0,-1.13734e-13,0,0,-2.99988,0.1769,-0.0494952,0,0,0,0,0,1.00011,0.1769,-1666130499,-1368598944,-1666130499,-1368598944,-1368598904,-1368598904,-1368598864,1455021719,-0.208719,-0.261799,0.000256286,-1.5,-nan,0,0,3,1.00175,0.174077,0,0,0,0,0.0388796,0.0060948
710,-3.72118e-12,1.06296e-37,-1.58066e-06,-3.85292e-12,1.06286e-37,-3.40903e-12,-1.13743e-13,0,0,-2.96271,0.164529,-0.0755717,0,0,0,0,0,1.03729,0.164529,-1666130499,-1368598944,-1666130499,-1368598944,-1368598904,-1368598904,-1368598864,1455021719,-0.209433,-0.261799,0.000246682,-1.5,-nan,0,0,3,1.00173,0.174223,0,0,0,0,0.0383158,0.00663888
720,-3.72118e-12,1.06296e-37,-1.58066e-06,-3.85292e-12,1.06286e-37,0,-1.13734e-13,0,0,-2.96271,0.164529,-0.0755717,0,0,0,0,0,1.03729,0.164529,-1666130499,-1368598944,-1666130499,-1368598944,-1368598904,-1368598904,-1368598864,1455021719,-0.209541,-0.261799,0.000239845,-1.5,-nan,0,0,3,1.00226,0.174316,0,0,0,0,0.0383158,0.00663888
730,-3.72118e-12,1.06296e-37,-1.58066e-06,-3.85292e-12,1.06286e-37,-3.40903e-12,-1.13743e-13,0,0,-3.00567,0.172677,-0.0528534,0,0,0,0,0,0.994333,0.172677,-1666130499,-1368598944,-1666130499,-1368598944,-1368598904,-1368598904,-1368598864,1455021719,-0.208764,-0.261799,0.000229922,-1.5,-nan,0,0,3,1.00261,0.17429,0,0,0,0,0.0368349,0.00589201
740,-3.72118e-12,1.06296e-37,-1.58066e-06,-3.85292e-12,1.06286e-37,0,-1.13744e-13,0,0,-3.00567,0.172677,-0.0528534,0,0,0,0,0,0.994333,0.172677,-1666130499,-1368598944,-1666130499,-1368598944,-1368598904,-1368598904,-1368598864,1455021719,-0.20886,-0.261799,0.000223551,-1.5,-nan,0,0,3,1.00313,0.174372,0,0,0,0,0.0368349,0.00589201
750,-3.72118e-12,1.06296e-37,-1.58066e-06,-3.85292e-12,1.06286e-37,-3.40903e-12,-1.13744e-13,0,0,-3.03748,0.165634,-0.038226,0,0,0,0,0,0.962524,0.165634,-1666130499,-1368598944,-1666130499,-1368598944,-1368598904,-1368598904,-1368598864,1455021719,-0.207213,-0.261799,0.000214284,-1.5,-nan,0,0,3,1.00364,0.174035,0,0,0,0,0.036533,0.00463648
760,-3.72118e-12,1.06296e-37,-1.58066e-06,-3.85292e-12,1.06286e-37,0,-1.13745e-13,0,0,-3.03748,0.165634,-0.038226,0,0,0,0,0,0.962524,0.165634,-1666130499,-1368598944,-1666130499,-1368598944,-1368598904,-1368598904,-1368598864,1455021719,-0.207294,-0.261799,0.000207927,-1.5,-nan,0,0,3,1.00419,0.174105,0,0,0,0,0.036533,0.00463648
770,-3.72118e-12,1.06296e-37,-1.58066e-06,-3.85292e-12,1.06286e-37,-3.40903e-12,-1.13745e-13,0,0,-3.00095,0.174804,-0.0598681,0,0,0,0,0,0.999049,0.174804,-1666130499,-1368598944,-1666130499,-1368598944,-1368598904,-1368598904,-1368598864,1455021719,-0.209377,-0.261799,0.00019973,-1.5,-nan,0,0,3,1.00206,0.174836,0,0,0,0,0.031483,0.00586826
780,-3.72118e-12,1.06296e-37,-1.58066e-06,-3.85292e-12,1.06286e-37,0,-1.13746e-13,0,0,-3.00095,0.174804,-0.0598681,0,0,0,0,0,0.999049,0.174804,-1666130499,-1368598944,-1666130499,-1368598944,-1368598904,-1368598904,-1368598864,1455021719,-0.209479,-0.261799,0.000193802,-1.5,-nan,0,0,3,1.00254,0.174924,0,0,0,0,0.031483,0.00586826
790,-3.72118e-12,1.06296e-37,-1.58066e-06,-3.85292e-12,1.06286e-37,-3.40903e-12,-1.13747e-13,0,0,-2.99475,0.172449,-0.0545728,0,0,0,0,0,1.00525,0.172449,-1666130499,-1368598944,-1666130499,-1368598944,-1368598904,-1368598904,-1368598864,1455021719,-0.208639,-0.261799,0.000186142,-1.5,-nan,0,0,3,1.00636,0.174676,0,0,0,0,0.0367456,0.00531776
800,-3.72118e-12,1.06296e-37,-1.58066e-06,-3.85292e-12,1.06286e-37,0,-1.13747e-13,0,0,-2.99475,0.172449,-0.0545728,0,0,0,0,0,1.00525,0.172449,-1666130499,-1368598944,-1666130499,-1368598944,-1368598904,-1368598904,-1368598864,1455021719,-0.208732,-0.261799,0.000180617,-1.5,-nan,0,0,3,1.00691,0.174755,0,0,0,0,0.0367456,0.00531776
810,-3.72118e-12,1.06296e-37,-1.58066e-06,-3.85292e-12,1.06286e-37,-3.40903e-12,-1.13748e-13,0,0,-3.09455,0.158525,-0.0118016,0,0,0,0,0,0.905448,0.158525,-1666130499,-1368598944,-1666130499,-1368598944,-1368598904,-1368598904,-1368598864,1455021719,-0.206636,-0.261799,0.000173123,-1.5,-nan,0,0,3,1.00322,0.173888,0,0,0,0,0.0292532,0.00423095
820,-3.72118e-12,1.06296e-37,-1.58066e-06,-3.85292e-12,1.06286e-37,0,-1.13748e-13,0,0,-3.09455,0.158525,-0.0118016,0,0,0,0,0,0.905448,0.158525,-1666130499,-1368598944,-1666130499,-1368598944,-1368598904,-1368598904,-1368598864,1455021719,-0.206715,-0.261799,0.000167644,-1.5,-nan,0,0,3,1.00369,0.173956,0,0,0,0,0.0292532,0.00423095
830,-3.72118e-12,1.06296e-37,-1.58066e-06,-3.85292e-12,1.06286e-37,-3.40903e-12,-1.13749e-13,0,0,-3.06319,0.168099,-0.0327955,0,0,0,0,0,0.936806,0.168099,-1666130499,-1368598944,-1666130499,-1368598944,-1368598904,-1368598904,-1368598864,1455021719,-0.202375,-0.261799,0.000161348,-1.5,-nan,0,0,3,1.00275,0.172905,0,0,0,0,0.0268531,0.00111382
840,-3.72118e-12,1.06296e-37,-1.58066e-06,-3.85292e-12,1.06286e-37,0,-1.13749e-13,0,0,-3.08303,0.162595,-0.0223622,0,0,0,0,0,0.916974,0.162595,-1666130499,-1368598944,-1666130499,-1368598944,-1368598904,-1368598904,-1368598864,1455021719,-0.204546,-0.261799,0.000154987,-1.5,-nan,0,0,3,0.997659,0.173269,0,0,0,0,0.0172342,0.0028625
850,-3.72118e-12,1.06296e-37,-1.58066e-06,-3.85292e-12,1.06286e-37,-3.40903e-12,-1.1375e-13,0,0,-3.08303,0.162595,-0.0223622,0,0,0,0,0,0.916974,0.162595,-1666130499,-1368598944,-1666130499,-1368598944,-1368598904,-1368598904,-1368598864,1455021719,-0.2046,-0.261799,0.000150085,-1.5,-nan,0,0,3,0.997935,0.173314,0,0,0,0,0.0172342,0.0028625
860,-3.72118e-12,1.06296e-37,-1.58066e-06,-3.85292e-12,1.06286e-37,0,-1.1375e-13,0,0,-3.00095,0.174804,-0.0598681,0,0,0,0,0,0.999049,0.174804,-1666130499,-1368598944,-1666130499,-1368598944,-1368598904,-1368598904,-1368598864,1455021719,-0.206559,-0.261799,0.000144168,-1.5,-nan,0,0,3,1.00333,0.174032,0,0,0,0,0.0232969,0.00398643
870,-3.72118e-12,1.06296e-37,-1.58066e-06,-3.85292e-12,1.06286e-37,-3.40903e-12,-1.13751e-13,0,0,-3.00095,0.174804,-0.0598681,0,0,0,0,0,0.999049,0.174804,-1666130499,-1368598944,-1666130499,-1368598944,-1368598904,-1368598904,-1368598864,1455021719,-0.206628,-0.261799,0.000139889,-1.5,-nan,0,0,3,1.00367,0.174092,0,0,0,0,0.0232969,0.00398643
880,-3.72118e-12,1.06296e-37,-1.58066e-06,-3.85292e-12,1.06286e-37,0,-1.13751e-13,0,0,-2.95921,0.166046,-0.0704656,0,0,0,0,0,1.04079,0.166046,-1666130499,-1368598944,-1666130499,-1368598944,-1368598904,-1368598904,-1368598864,1455021719,-0.204396,-0.261799,0.000134101,-1.5,-nan,0,0,3,1.00102,0.173441,0,0,0,0,0.0180205,0.00251201
890,-3.72118e-12,1.06296e-37,-1.58066e-06,-3.85292e-12,1.06286e-37,-3.40903e-12,-1.13752e-13,0,0,-2.95921,0.166046,-0.0704656,0,0,0,0,0,1.04079,0.166046,-1666130499,-1368598944,-1666130499,-1368598944,-1368598904,-1368598904,-1368598864,1455021719,-0.20444,-0.261799,0.000130121,-1.5,-nan,0,0,3,1.00129,0.173479,0,0,0,0,0.0180205,0.00251201
900,-3.72118e-12,1.06296e-37,-1.58066e-06,-3.85292e-12,1.06286e-37,0,-1.13753e-13,0,0,-3.01147,0.170342,-0.0322863,0,0,0,0,0,0.988533,0.170342,-1666130499,-1368598944,-1666130499,-1368598944,-1368598904,-1368598904,-1368598864,1455021719,-0.194195,-0.261799,0.000124738,-1.5,-nan,0,0,3,1.00041,0.170404,0,0,0,0,0.0182915,-0.0041548
910,-3.72118e-12,1.06296e-37,-1.58066e-06,-3.85292e-12,1.06286e-37,-3.40903e-12,-1.13753e-13,0,0,-3.01147,0.170342,-0.0322863,0,0,0,0,0,0.988533,0.170342,-1666130499,-1368598944,-1666130499,-1368598944,-1368598904,-1368598904,-1368598864,1455021719,-0.194123,-0.261799,0.000121035,-1.5,-nan,0,0,3,1.00068,0.170342,0,0,0,0,0.0182915,-0.0041548
920,-3.72118e-12,1.06296e-37,-1.58066e-06,-3.85292e-12,1.06286e-37,0,-1.13754e-13,0,0,-3.0283,0.159484,-0.04159,0,0,0,0,0,0.971699,0.159484,-1666130499,-1368598944,-1666130499,-1368598944,-1368598904,-1368598904,-1368598864,1455021719,-0.182409,-0.261799,0.000116018,-1.5,-nan,0,0,3,1.00085,0.16668,0,0,0,0,0.0172798,-0.0116059
930,-3.72118e-12,1.06296e-37,-1.58066e-06,-3.85292e-12,1.06286e-37,-3.40903e-12,-1.13754e-13,0,0,-3.0283,0.159484,-0.04159,0,0,0,0,0,0.971699,0.159484,-1666130499,-1368598944,-1666130499,-1368598944,-1368598904,-1368598904,-1368598864,1455021719,-0.182206,-0.261799,0.000112575,-1.5,-nan,0,0,3,1.00111,0.166506,0,0,0,0,0.0172798,-0.0116059
940,-3.72118e-12,1.06296e-37,-1.58066e-06,-3.85292e-12,1.06286e-37,0,-1.13755e-13,0,0,-3.00203,0.159304,-0.0543974,0,0,0,0,0,0.997973,0.159304,-1666130499,-1368598944,-1666130499,-1368598944,-1368598904,-1368598904,-1368598864,1455021719,-0.176989,-0.261799,0.000107908,-1.5,-nan,0,0,3,0.998413,0.164556,0,0,0,0,0.0137904,-0.0145537
950,-3.72118e-12,1.06296e-37,-1.58066e-06,-3.85292e-12,1.06286e-37,-3.40903e-12,-1.13755e-13,0,0,-3.00203,0.159304,-0.0543974,0,0,0,0,0,0.997973,0.159304,-1666130499,-1368598944,-1666130499,-1368598944,-1368598904,-1368598904,-1368598864,1455021719,-0.176752,-0.261799,0.000104918,-1.5,-nan,0,0,3,0.998606,0.164352,0,0,0,0,0.0137904,-0.0145537
960,-3.72118e-12,1.06296e-37,-1.58066e-06,-3.85292e-12,1.06286e-37,0,-1.13756e-13,0,0,-3.04211,0.178802,-0.0333121,0,0,0,0,0,0.957889,0.178802,-1666130499,-1368598944,-1666130499,-1368598944,-1368598904,-1368598904,-1368598864,1455021719,-0.178437,-0.261799,0.000100978,-1.5,-nan,0,0,3,0.9984,0.164887,0,0,0,0,0.00985433,-0.0134909
970,-3.72118e-12,1.06296e-37,-1.58066e-06,-3.85292e-12,1.06286e-37,-3.40903e-12,-1.13756e-13,0,0,-3.04211,0.178802,-0.0333121,0,0,0,0,0,0.957889,0.178802,-1666130499,-1368598944,-1666130499,-1368598944,-1368598904,-1368598904,-1368598864,1455021719,-0.178044,-0.261799,9.59985e-05,-1.5,-nan,0,0,3,0.998647,0.16455,0,0,0,0,0.00985433,-0.0134909
980,-3.72118e-12,1.06296e-37,-1.58066e-06,-3.85292e-12,1.06286e-37,0,-1.13757e-13,0,0,-2.97427,0.171696,-0.0717701,0,0,0,0,0,1.02573,0.171696,-1666130499,-1368598944,-1666130499,-1368598944,-1368598904,-1368598904,-1368598864,1455021719,-0.187917,-0.261799,9.22044e-05,-1.5,-nan,0,0,3,0.999094,0.168176,0,0,0,0,0.0110274,-0.00783859
990,-3.72118e-12,1.06296e-37,-1.58066e-06,-3.85292e-12,1.06286e-37,-3.40903e-12,-1.13757e-13,0,0,-2.9927,0.166328,-0.0620278,0,0,0,0,0,1.0073,0.166328,-1666130499,-1368598944,-1666130499,-1368598944,-1368598904,-1368598904,-1368598864,1455021719,-0.182971,-0.261799,8.83897e-05,-1.5,-nan,0,0,3,0.998912,0.166223,0,0,0,0,0.00672864,-0.0105127
1000,-3.72118e-12,1.06296e-37,-1.58066e-06,-3.85292e-12,1.06286e-37,0,-1.13758e-13,0,0,-2.9927,0.166328,-0.0620278,0,0,0,0,0,1.0073,0.166328,-1666130499,-1368598944,-1666130499,-1368598944,-1368598904,-1368598904,-1368598864,1455021719,-0.182775,-0.261799,8.55939e-05,-1.5,-nan,0,0,3,0.99902,0.166055,0,0,0,0,0.00672864,-0.0105127
1010,-3.72118e-12,1.06296e-37,-1.58066e-06,-3.85292e-12,1.06286e-37,-3.40903e-12,-1.13759e-13,0,0,-2.95814,0.172813,-0.0803024,0,0,0,0,0,1.04186,0.172813,-1666130499,-1368598944,-1666130499,-1368598944,-1368598904,-1368598904,-1368598864,1455021719,-0.182425,-0.261799,8.2211e-05,-1.5,-nan,0,0,3,1.00234,0.165995,0,0,0,0,0.0149812,-0.0107925
1020,-3.72118e-12,1.06296e-37,-1.58066e-06,-3.85292e-12,1.06286e-37,0,-1.13759e-13,0,0,-2.95814,0.172813,-0.0803024,0,0,0,0,0,1.04186,0.172813,-1666130499,-1368598944,-1666130499,-1368598944,-1368598904,-1368598904,-1368598864,1455021719,-0.189805,-0.261799,7.88098e-05,-1.5,-nan,0,0,3,1.00855,0.168678,0,0,0,0,0.021513,-0.00653512
1030,-3.72118e-12,1.06296e-37,-1.58066e-06,-3.85292e-12,1.06286e-37,-3.40903e-12,-1.1376e-13,0,0,-2.95814,0.172813,-0.0803024,0,0,0,0,0,1.04186,0.172813,-1666130499,-1368598944,-1666130499,-1368598944,-1368598904,-1368598904,-1368598864,1455021719,-0.189691,-0.261799,7.64706e-05,-1.5,-nan,0,0,3,1.00887,0.16858,0,0,0,0,0.021513,-0.00653512
1040,-3.72118e-12,1.06296e-37,-1.58066e-06,-3.85292e-12,1.06286e-37,0,-1.1376e-13,0,0,-2.99867,0.18525,-0.0584532,0,0,0,0,0,1.00133,0.18525,-1666130499,-1368598944,-1666130499,-1368598944,-1368598904,-1368598904,-1368598864,1455021719,-0.198382,-0.261799,7.34558e-05,-1.5,-nan,0,0,3,1.0042,0.171697,0,0,0,0,0.0116204,-0.00147269
1050,-3.72118e-12,1.06296e-37,-1.58066e-06,-3.85292e-12,1.06286e-37,-3.40903e-12,-1.13761e-13,0,0,-2.99867,0.18525,-0.0584532,0,0,0,0,0,1.00133,0.18525,-1666130499,-1368598944,-1666130499,-1368598944,-1368598904,-1368598904,-1368598864,1455021719,-0.198356,-0.261799,7.12755e-05,-1.5,-nan,0,0,3,1.00438,0.171675,0,0,0,0,0.0116204,-0.00147269
1060,-3.72118e-12,1.06296e-37,-1.58066e-06,-3.85292e-12,1.06286e-37,0,-1.13761e-13,0,0,-3.02071,0.195276,-0.0408344,0,0,0,0,0,0.979285,0.195276,-1666130499,-1368598944,-1666130499,-1368598944,-1368598904,-1368598904,-1368598864,1455021719,-0.200734,-0.261799,6.81895e-05,-1.5,-nan,0,0,3,0.999724,0.172583,0,0,0,0,0.00654593,-0.000152055
1070,-3.72118e-12,1.06296e-37,-1.58066e-06,-3.85292e-12,1.06286e-37,-3.40903e-12,-1.13762e-13,0,0,-3.02071,0.195276,-0.0408344,0,0,0,0,0,0.979285,0.195276,-1666130499,-1368598944,-1666130499,-1368598944,-1368598904,-1368598904,-1368598864,1455021719,-0.200732,-0.261799,6.63006e-05,-1.5,-nan,0,0,3,0.999815,0.172581,0,0,0,0,0.00654593,-0.000152055
1080,-3.72118e-12,1.06296e-37,-1.58066e-06,-3.85292e-12,1.06286e-37,0,-1.13762e-13,0,0,-2.99663,0.195571,-0.0444469,0,0,0,0,0,1.00337,0.195571,-1666130499,-1368598944,-1666130499,-1368598944,-1368598904,-1368598904,-1368598864,1455021719,-0.199479,-0.261799,6.38159e-05,-1.5,-nan,0,0,3,1.00188,0.17202,0,0,0,0,0.00946307,-0.000751191
1090,-3.72118e-12,1.06296e-37,-1.58066e-06,-3.85292e-12,1.06286e-37,-3.40903e-12,-1.13763e-13,0,0,-2.99663,0.195571,-0.0444469,0,0,0,0,0,1.00337,0.195571,-1666130499,-1368598944,-1666130499,-1368598944,-1368598904,-1368598904,-1368598864,1455021719,-0.199465,-0.261799,6.17974e-05,-1.5,-nan,0,0,3,1.00203,0.172008,0,0,0,0,0.00946307,-0.000751191
1100,-3.72118e-12,1.06296e-37,-1.58066e-06,-3.85292e-12,1.06286e-37,0,-1.13763e-13,0,0,-3.00275,0.210885,-0.0524619,0,0,0,0,0,0.997247,0.210885,-1666130499,-1368598944,-1666130499,-1368598944,-1368598904,-1368598904,-1368598864,1455021719,-0.201698,-0.261799,5.92419e-05,-1.5,-nan,0,0,3,1.00187,0.172947,0,0,0,0,0.0105959,0.000388351
1110,-3.72118e-12,1.06296e-37,-1.58066e-06,-3.85292e-12,1.06286e-37,-3.40903e-12,-1.13764e-13,0,0,-3.00275,0.210885,-0.0524619,0,0,0,0,0,0.997247,0.210885,-1666130499,-1368598944,-1666130499,-1368598944,-1368598904,-1368598904,-1368598864,1455021719,-0.201705,-0.261799,5.74835e-05,-1.5,-nan,0,0,3,1.00202,0.172953,0,0,0,0,0.0105959,0.000388351
1120,-3.72118e-12,1.06296e-37,-1.58066e-06,-3.85292e-12,1.06286e-37,0,-1.13764e-13,0,0,-3.01841,0.216349,-0.0330744,0,0,0,0,0,0.98159,0.216349,-1666130499,-1368598944,-1666130499,-1368598944,-1368598904,-1368598904,-1368598864,1455021719,-0.208124,-0.261799,5.52137e-05,-1.5,-nan,0,0,3,1.00151,0.175258,0,0,0,0,0.0071517,0.00412471
1130,-3.72118e-12,1.06296e-37,-1.58066e-06,-3.85292e-12,1.06286e-37,-3.40903e-12,-1.13765e-13,0,0,-3.01841,0.216349,-0.0330744,0,0,0,0,0,0.98159,0.216349,-1666130499,-1368598944,-1666130499,-1368598944,-1368598904,-1368598904,-1368598864,1455021719,-0.208196,-0.261799,5.35757e-05,-1.5,-nan,0,0,3,1.00161,0.17532,0,0,0,0,0.0071517,0.00412471
1140,-3.72118e-12,1.06296e-37,-1.58066e-06,-3.85292e-12,1.06286e-37,0,-1.13766e-13,0,0,-3.02407,0.216418,-0.0407268,0,0,0,0,0,0.97593,0.216418,-1666130499,-1368598944,-1666130499,-1368598944,-1368598904,-1368598904,-1368598864,1455021719,-0.203545,-0.261799,5.1355e-05,-1.5,-nan,0,0,3,0.998773,0.173543,0,0,0,0,0.00362415,0.00154154
1150,-3.72118e-12,1.06296e-37,-1.58066e-06,-3.85292e-12,1.06286e-37,-3.40903e-12,-1.13766e-13,0,0,-3.02407,0.216418,-0.0407268,0,0,0,0,0,0.97593,0.216418,-1666130499,-1368598944,-1666130499,-1368598944,-1368598904,-1368598904,-1368598864,1455021719,-0.240834,-0.261799,4.93303e-05,-1.5,-nan,0,0,3,0.997175,0.1873,0,0,0,0,0.00132083,0.0228169
1160,-3.72118e-12,1.06296e-37,-1.58066e-06,-3.85292e-12,1.06286e-37,0,-1.13767e-13,0,0,-3.02407,0.216418,-0.0407268,0,0,0,0,0,0.97593,0.216418,-1666130499,-1368598944,-1666130499,-1368598944,-1368598904,-1368598904,-1368598864,1455021719,-0.241259,-0.261799,4.777e-05,-1.5,-nan,0,0,3,0.997196,0.187665,0,0,0,0,0.00132083,0.0228169
1170,-3.72118e-12,1.06296e-37,-1.58066e-06,-3.85292e-12,1.06286e-37,-3.40903e-12,-1.13767e-13,0,0,-3.04346,0.19878,-0.0220527,0,0,0,0,0,0.956539,0.19878,-1666130499,-1368598944,-1666130499,-1368598944,-1368598904,-1368598904,-1368598864,1455021719,-0.261799,-0.261799,4.58868e-05,-1.5,-nan,0,0,3,0.980145,0.196454,0,0,0,0,-0.0221227,0.0377312
1180,-3.72118e-12,1.06296e-37,-1.58066e-06,-3.85292e-12,1.06286e-37,0,-1.13768e-13,0,0,-3.04346,0.19878,-0.0220527,0,0,0,0,0,0.956539,0.19878,-1666130499,-1368598944,-1666130499,-1368598944,-1368598904,-1368598904,-1368598864,1455021719,-0.261799,-0.261799,4.45248e-05,-1.5,-nan,0,0,3,0.979813,0.19702,0,0,0,0,-0.0221227,0.0377312
1190,-3.72118e-12,1.06296e-37,-1.58066e-06,-3.85292e-12,1.06286e-37,-3.40903e-12,-1.13768e-13,0,0,-2.95485,0.193002,-0.0603147,0,0,0,0,0,1.04515,0.193002,-1666130499,-1368598944,-1666130499,-1368598944,-1368598904,-1368598904,-1368598864,1455021719,-0.261159,-0.261799,4.26827e-05,-1.5,-nan,0,0,3,0.995626,0.194886,0,0,0,0,-0.00338169,0.034312
1200,-3.72118e-12,1.06296e-37,-1.58066e-06,-3.85292e-12,1.06286e-37,0,-1.13769e-13,0,0,-2.95485,0.193002,-0.0603147,0,0,0,0,0,1.04515,0.193002,-1666130499,-1368598944,-1666130499,-1368598944,-1368598904,-1368598904,-1368598864,1455021719,-0.261758,-0.261799,4.14165e-05,-1.5,-nan,0,0,3,0.995576,0.195401,0,0,0,0,-0.00338169,0.034312
1210,-3.72118e-12,1.06296e-37,-1.58066e-06,-3.85292e-12,1.06286e-37,-3.40903e-12,-1.13769e-13,0,0,-2.98322,0.186094,-0.025626,0,0,0,0,0,1.01678,0.186094,-1666130499,-1368598944,-1666130499,-1368598944,-1368598904,-1368598904,-1368598864,1455021719,-0.261799,-0.261799,3.97835e-05,-1.5,-nan,0,0,3,0.998602,0.195771,0,0,0,0,0.00293692,0.0345579
1220,-3.72118e-12,1.06296e-37,-1.58066e-06,-3.85292e-12,1.06286e-37,0,-1.1377e-13,0,0,-2.98322,0.186094,-0.025626,0,0,0,0,0,1.01678,0.186094,-1666130499,-1368598944,-1666130499,-1368598944,-1368598904,-1368598904,-1368598864,1455021719,-0.261799,-0.261799,3.86027e-05,-1.5,-nan,0,0,3,0.998646,0.19629,0,0,0,0,0.00293692,0.0345579
1230,-3.72118e-12,1.06296e-37,-1.58066e-06,-3.85292e-12,1.06286e-37,-3.40903e-12,-1.1377e-13,0,0,-2.95856,0.186791,-0.0480478,0,0,0,0,0,1.04144,0.186791,-1666130499,-1368598944,-1666130499,-1368598944,-1368598904,-1368598904,-1368598864,1455021719,-0.261799,-0.261799,3.67047e-05,-1.5,-nan,0,0,3,1.00599,0.1966,0,0,0,0,0.0121144,0.034439
1240,-3.72118e-12,1.06296e-37,-1.58066e-06,-3.85292e-12,1.06286e-37,0,-1.13779e-13,0,0,-3.00782,0.21157,-0.0174729,0,0,0,0,0,0.992176,0.21157,-1666130499,-1368598944,-1666130499,-1368598944,-1368598904,-1368598904,-1368598864,1455021719,-0.261799,-0.261799,3.54007e-05,-1.5,-nan,0,0,3,1.00393,0.199874,0,0,0,0,0.0107022,0.0392987
1250,-3.72118e-12,1.06296e-37,-1.58066e-06,-3.85292e-12,1.06286e-37,-3.40903e-12,-1.13779e-13,0,0,-3.00782,0.21157,-0.0174729,0,0,0,0,0,0.992176,0.21157,-1666130499,-1368598944,-1666130499,-1368598944,-1368598904,-1368598904,-1368598864,1455021719,-0.261799,-0.261799,3.435e-05,-1.5,-nan,0,0,3,1.00409,0.200464,0,0,0,0,0.0107022,0.0392987
1260,-3.72118e-12,1.06296e-37,-1.58066e-06,-3.85292e-12,1.06286e-37,0,-1.13771e-13,0,0,-3.03816,0.21695,-0.0203471,0,0,0,0,0,0.961844,0.21695,-1666130499,-1368598944,-1666130499,-1368598944,-1368598904,-1368598904,-1368598864,1455021719,-0.261799,-0.261799,3.29295e-05,-1.5,-nan,0,0,3,0.997016,0.207737,0,0,0,0,0.0016333,0.0495214
1270,-3.72118e-12,1.06296e-37,-1.58066e-06,-3.85292e-12,1.06286e-37,-3.40903e-12,-1.13772e-13,0,0,-3.03816,0.21695,-0.0203471,0,0,0,0,0,0.961844,0.21695,-1666130499,-1368598944,-1666130499,-1368598944,-1368598904,-1368598904,-1368598864,1455021719,-0.261799,-0.261799,3.19521e-05,-1.5,-nan,0,0,3,0.997041,0.20848,0,0,0,0,0.0016333,0.0495214
1280,-3.72118e-12,1.06296e-37,-1.58066e-06,-3.85292e-12,1.06286e-37,0,-1.13777e-13,0,0,-2.96593,0.212992,-0.0566087,0,0,0,0,0,1.03407,0.212992,-1666130499,-1368598944,-1666130499,-1368598944,-1368598904,-1368598904,-1368598864,1455021719,-0.261799,-0.261799,3.06302e-05,-1.5,-nan,0,0,3,1.01567,0.213375,0,0,0,0,0.0353197,0.06
1290,-3.72118e-12,1.06296e-37,-1.58066e-06,-3.85292e-12,1.06286e-37,-3.40903e-12,-1.13778e-13,0,0,-2.96593,0.212992,-0.0566087,0,0,0,0,0,1.03407,0.212992,-1666130499,-1368598944,-1666130499,-1368598944,-1368598904,-1368598904,-1368598864,1455021719,-0.261799,-0.261799,2.97813e-05,-1.5,-nan,0,0,3,1.01616,0.214215,0,0,0,0,0.0353197,0.06
1300,-3.72118e-12,1.06296e-37,-1.58066e-06,-3.85292e-12,1.06286e-37,0,-1.13776e-13,0,0,-2.98609,0.218199,-0.0508581,0,0,0,0,0,1.01391,0.218199,-1666130499,-1368598944,-1666130499,-1368598944,-1368598904,-1368598904,-1368598864,1455021719,-0.261799,-0.261799,2.85469e-05,-1.5,-nan,0,0,3,1.01126,0.218747,0,0,0,0,0.0207927,0.0655423
1310,-3.72118e-12,1.06296e-37,-1.58066e-06,-3.85292e-12,1.06286e-37,-3.40903e-12,-1.13776e-13,0,0,-2.98609,0.218199,-0.0508581,0,0,0,0,0,1.01391,0.218199,-1666130499,-1368598944,-1666130499,-1368598944,-1368598904,-1368598904,-1368598864,1455021719,-0.261799,-0.261799,2.77557e-05,-1.5,-nan,0,0,3,1.01157,0.219731,0,0,0,0,0.0207927,0.0655423
1320,-3.72118e-12,1.06296e-37,-1.58066e-06,-3.85292e-12,1.06286e-37,0,-1.13772e-13,0,0,-3.06153,0.216415,-0.0274518,0,0,0,0,0,0.938467,0.216415,-1666130499,-1368598944,-1666130499,-1368598944,-1368598904,-1368598904,-1368598864,1455021719,-0.261799,-0.261799,2.68237e-05,-1.5,-nan,0,0,3,1.00267,0.217462,0,0,0,0,0.00694301,0.0619442
1330,-3.72118e-12,1.06296e-37,-1.58066e-06,-3.85292e-12,1.06286e-37,-3.40903e-12,-1.1378e-13,0,0,-3.06153,0.216415,-0.0274518,0,0,0,0,0,0.938467,0.216415,-1666130499,-1368598944,-1666130499,-1368598944,-1368598904,-1368598904,-1368598864,1455021719,-0.261799,-0.261799,2.60276e-05,-1.5,-nan,0,0,3,1.00278,0.218391,0,0,0,0,0.00694301,0.0619442
1340,-3.72118e-12,1.06296e-37,-1.58066e-06,-3.85292e-12,1.06286e-37,0,-1.1378e-13,0,0,-3.06153,0.216415,-0.0274518,0,0,0,0,0,0.938467,0.216415,-1666130499,-1368598944,-1666130499,-1368598944,-1368598904,-1368598904,-1368598864,1455021719,-0.261799,-0.261799,2.5255e-05,-1.5,-nan,0,0,3,1.00289,0.219382,0,0,0,0,0.00694301,0.0619442
1350,-3.72118e-12,1.06296e-37,-1.58066e-06,-3.85292e-12,1.06286e-37,-3.40903e-12,-1.13781e-13,0,0,-3.06153,0.216415,-0.0274518,0,0,0,0,0,0.938467,0.216415,-1666130499,-1368598944,-1666130499,-1368598944,-1368598904,-1368598904,-1368598864,1455021719,-0.261799,-0.261799,2.45054e-05,-1.5,-nan,0,0,3,1.00299,0.220311,0,0,0,0,0.00694301,0.0619442
1360,-3.72118e-12,1.06296e-37,-1.58066e-06,-3.85292e-12,1.06286e-37,0,-1.1379e-13,0,0,-3.02313,0.207407,-0.0483559,0,0,0,0,0,0.976875,0.207407,-1666130499,-1368598944,-1666130499,-1368598944,-1368598904,-1368598904,-1368598864,1455021719,-0.261799,-0.261799,2.3492e-05,-1.5,-nan,0,0,3,1.00423,0.221867,0,0,0,0,0.0176683,0.0628541
1370,-3.72118e-12,1.06296e-37,-1.58066e-06,-3.85292e-12,1.06286e-37,-3.40903e-12,-1.13781e-13,0,0,-3.02313,0.207407,-0.0483559,0,0,0,0,0,0.976875,0.207407,-1666130499,-1368598944,-1666130499,-1368598944,-1368598904,-1368598904,-1368598864,1455021719,-0.261799,-0.261799,2.27948e-05,-1.5,-nan,0,0,3,1.0045,0.22281,0,0,0,0,0.0176683,0.0628541
1380,-3.72118e-12,1.06296e-37,-1.58066e-06,-3.85292e-12,1.06286e-37,0,-1.1379e-13,0,0,-3.02716,0.196821,-0.0473487,0,0,0,0,0,0.972838,0.196821,-1666130499,-1368598944,-1666130499,-1368598944,-1368598904,-1368598904,-1368598864,1455021719,-0.261799,-0.261799,2.18517e-05,-1.5,-nan,0,0,3,0.991654,0.223701,0,0,0,0,-0.00781958,0.0617244
1390,-3.72118e-12,1.06296e-37,-1.58066e-06,-3.85292e-12,1.06286e-37,-3.40903e-12,-1.13782e-13,0,0,-3.02716,0.196821,-0.0473487,0,0,0,0,0,0.972838,0.196821,-1666130499,-1368598944,-1666130499,-1368598944,-1368598904,-1368598904,-1368598864,1455021719,-0.261799,-0.261799,2.12031e-05,-1.5,-nan,0,0,3,0.991537,0.224627,0,0,0,0,-0.00781958,0.0617244
1400,-3.72118e-12,1.06296e-37,-1.58066e-06,-3.85292e-12,1.06286e-37,0,-1.13791e-13,0,0,-3.01178,0.185576,-0.048676,0,0,0,0,0,0.98822,0.185576,-1666130499,-1368598944,-1666130499,-1368598944,-1368598904,-1368598904,-1368598864,1455021719,-0.261799,-0.261799,2.03234e-05,-1.5,-nan,0,0,3,0.987112,0.22473,0,0,0,0,-0.0139809,0.0610212
1410,-3.72118e-12,1.06296e-37,-1.58066e-06,-3.85292e-12,1.06286e-37,-3.40903e-12,-1.13773e-13,0,0,-3.01178,0.185576,-0.048676,0,0,0,0,0,0.98822,0.185576,-1666130499,-1368598944,-1666130499,-1368598944,-1368598904,-1368598904,-1368598864,1455021719,-0.261799,-0.261799,1.97201e-05,-1.5,-nan,0,0,3,0.986902,0.225646,0,0,0,0,-0.0139809,0.0610212
1420,-3.72118e-12,1.06296e-37,-1.58066e-06,-3.85292e-12,1.06286e-37,0,-1.13791e-13,0,0,-3.0142,0.185773,-0.0477081,0,0,0,0,0,0.985799,0.185773,-1666130499,-1368598944,-1666130499,-1368598944,-1368598904,-1368598904,-1368598864,1455021719,-0.261799,-0.261799,1.89027e-05,-1.5,-nan,0,0,3,0.98656,0.225461,0,0,0,0,-0.0138303,0.0587495
1430,-3.72118e-12,1.06296e-37,-1.58066e-06,-3.85292e-12,1.06286e-37,-3.40903e-12,-1.13792e-13,0,0,-3.07637,0.188788,-0.023596,0,0,0,0,0,0.923635,0.188789,-1666130499,-1368598944,-1666130499,-1368598944,-1368598904,-1368598904,-1368598864,1455021719,-0.261799,-0.261799,1.81207e-05,-1.5,-nan,0,0,3,0.984806,0.21384,0,0,0,0,-0.0216597,0.0443217
1440,-3.72118e-12,1.06296e-37,-1.58066e-06,-3.85292e-12,1.06286e-37,0,-1.13773e-13,0,0,-3.07637,0.188788,-0.023596,0,0,0,0,0,0.923635,0.188789,-1666130499,-1368598944,-1666130499,-1368598944,-1368598904,-1368598904,-1368598864,1455021719,-0.261799,-0.261799,1.76185e-05,-1.5,-nan,0,0,3,0.984503,0.21446,0,0,0,0,-0.0216597,0.0443217
1450,-3.72118e-12,1.06296e-37,-1.58066e-06,-3.85292e-12,1.06286e-37,-3.40903e-12,-1.13774e-13,0,0,-3.0554,0.187669,-0.0175793,0,0,0,0,0,0.944602,0.187669,-1666130499,-1368598944,-1666130499,-1368598944,-1368598904,-1368598904,-1368598864,1455021719,-0.261799,-0.261799,1.68896e-05,-1.5,-nan,0,0,3,0.971966,0.212711,0,0,0,0,-0.0373155,0.0408785
1460,-3.72118e-12,1.06296e-37,-1.58066e-06,-3.85292e-12,1.06286e-37,0,-1.13774e-13,0,0,-3.0554,0.187669,-0.0175793,0,0,0,0,0,0.944602,0.187669,-1666130499,-1368598944,-1666130499,-1368598944,-1368598904,-1368598904,-1368598864,1455021719,-0.261799,-0.261799,1.63885e-05,-1.5,-nan,0,0,3,0.971406,0.213324,0,0,0,0,-0.0373155,0.0408785
1470,-3.72118e-12,1.06296e-37,-1.58066e-06,-3.85292e-12,1.06286e-37,-3.40903e-12,-1.13775e-13,0,0,-3.03033,0.193443,-0.0375317,0,0,0,0,0,0.969669,0.193443,-1666130499,-1368598944,-1666130499,-1368598944,-1368598904,-1368598904,-1368598864,1455021719,-0.261799,-0.261799,1.57105e-05,-1.5,-nan,0,0,3,0.968813,0.209103,0,0,0,0,-0.0412231,0.0313742
1480,-3.72118e-12,1.06296e-37,-1.58066e-06,-3.85292e-12,1.06286e-37,0,-1.13775e-13,0,0,-3.03033,0.193443,-0.0375317,0,0,0,0,0,0.969669,0.193443,-1666130499,-1368598944,-1666130499,-1368598944,-1368598904,-1368598904,-1368598864,1455021719,-0.261799,-0.261799,1.52444e-05,-1.5,-nan,0,0,3,0.968195,0.209574,0,0,0,0,-0.0412231,0.0313742
1490,-3.72118e-12,1.06296e-37,-1.58066e-06,-3.85292e-12,1.06286e-37,-3.40903e-12,-1.13792e-13,0,0,-3.00423,0.185379,-0.0577798,0,0,0,0,0,0.995774,0.185379,-1666130499,-1368598944,-1666130499,-1368598944,-1368598904,-1368598904,-1368598864,1455021719,-0.250759,-0.261799,1.4614e-05,-1.5,-nan,0,0,3,0.969352,0.200174,0,0,0,0,-0.0410241,0.0177577
1500,-3.72118e-12,1.06296e-37,-1.58066e-06,-3.85292e-12,1.06286e-37,0,-1.13793e-13,0,0,-3.06331,0.190438,-0.00919033,0,0,0,0,0,0.936688,0.190438,-1666130499,-1368598944,-1666130499,-1368598944,-1368598904,-1368598904,-1368598864,1455021719,-0.223583,-0.261799,1.40379e-05,-1.5,-nan,0,0,3,0.96711,0.192664,0,0,0,0,-0.042522,-0.000677732
1510,-3.72118e-12,1.06296e-37,-1.58066e-06,-3.85292e-12,1.06286e-37,-3.40903e-12,-1.13793e-13,0,0,-3.06331,0.190438,-0.00919033,0,0,0,0,0,0.936688,0.190438,-1666130499,-1368598944,-1666130499,-1368598944,-1368598904,-1368598904,-1368598864,1455021719,-0.223571,-0.261799,1.36212e-05,-1.5,-nan,0,0,3,0.966472,0.192654,0,0,0,0,-0.042522,-0.000677732
1520,-3.72118e-12,1.06296e-37,-1.58066e-06,-3.85292e-12,1.06286e-37,0,-1.13794e-13,0,0,-3.06331,0.190438,-0.00919033,0,0,0,0,0,0.936688,0.190438,-1666130499,-1368598944,-1666130499,-1368598944,-1368598904,-1368598904,-1368598864,1455021719,-0.223558,-0.261799,1.32169e-05,-1.5,-nan,0,0,3,0.965792,0.192643,0,0,0,0,-0.042522,-0.000677732
1530,-3.72118e-12,1.06296e-37,-1.58066e-06,-3.85292e-12,1.06286e-37,-3.40903e-12,-1.13794e-13,0,0,-3.03092,0.213898,-0.0283206,0,0,0,0,0,0.969084,0.213898,-1666130499,-1368598944,-1666130499,-1368598944,-1368598904,-1368598904,-1368598864,1455021719,-0.228413,-0.261799,1.26946e-05,-1.5,-nan,0,0,3,0.964064,0.195356,0,0,0,0,-0.0437528,0.00101932
1540,-3.72118e-12,1.06296e-37,-1.58066e-06,-3.85292e-12,1.06286e-37,0,-1.13795e-13,0,0,-3.03092,0.213898,-0.0283206,0,0,0,0,0,0.969084,0.213898,-1666130499,-1368598944,-1666130499,-1368598944,-1368598904,-1368598904,-1368598864,1455021719,-0.228431,-0.261799,1.23178e-05,-1.5,-nan,0,0,3,0.963407,0.195372,0,0,0,0,-0.0437528,0.00101932
1550,-3.72118e-12,1.06296e-37,-1.58066e-06,-3.85292e-12,1.06286e-37,-3.40903e-12,-1.13796e-13,0,0,-2.96723,0.212905,-0.043197,0,0,0,0,0,1.03277,0.212905,-1666130499,-1368598944,-1666130499,-1368598944,-1368598904,-1368598904,-1368598864,1455021719,-0.231574,-0.261799,1.18067e-05,-1.5,-nan,0,0,3,0.962105,0.197172,0,0,0,0,-0.0438417,0.00206665
1560,-3.72118e-12,1.06296e-37,-1.58066e-06,-3.85292e-12,1.06286e-37,0,-1.13796e-13,0,0,-2.98161,0.226959,-0.0161029,0,0,0,0,0,1.01839,0.226959,-1666130499,-1368598944,-1666130499,-1368598944,-1368598904,-1368598904,-1368598864,1455021719,-0.233558,-0.261799,1.13412e-05,-1.5,-nan,0,0,3,0.966917,0.198051,0,0,0,0,-0.0376616,0.00302729
1570,-3.72118e-12,1.06296e-37,-1.58066e-06,-3.85292e-12,1.06286e-37,-3.40903e-12,-1.13797e-13,0,0,-2.98161,0.226959,-0.0161029,0,0,0,0,0,1.01839,0.226959,-1666130499,-1368598944,-1666130499,-1368598944,-1368598904,-1368598904,-1368598864,1455021719,-0.233611,-0.261799,1.10047e-05,-1.5,-nan,0,0,3,0.966352,0.198097,0,0,0,0,-0.0376616,0.00302729
1580,-3.72118e-12,1.06296e-37,-1.58066e-06,-3.85292e-12,1.06286e-37,0,-1.13797e-13,0,0,-3.05693,0.246621,0.0666976,0,0,0,0,0,0.943067,0.246621,-1666130499,-1368598944,-1666130499,-1368598944,-1368598904,-1368598904,-1368598864,1455021719,-0.261799,-0.261799,1.05709e-05,-1.5,-nan,0,0,3,0.963665,0.211954,0,0,0,0,-0.0383032,0.0176698
1590,-3.72118e-12,1.06296e-37,-1.58066e-06,-3.85292e-12,1.06286e-37,-3.40903e-12,-1.13798e-13,0,0,-3.05693,0.246621,0.0666976,0,0,0,0,0,0.943067,0.246621,-1666130499,-1368598944,-1666130499,-1368598944,-1368598904,-1368598904,-1368598864,1455021719,-0.261799,-0.261799,1.02571e-05,-1.5,-nan,0,0,3,0.96309,0.212219,0,0,0,0,-0.0383032,0.0176698
1600,-3.72118e-12,1.06296e-37,-1.58066e-06,-3.85292e-12,1.06286e-37,0,-1.13798e-13,0,0,-2.93868,0.262156,0.0618038,0,0,0,0,0,1.06132,0.262156,-1666130499,-1368598944,-1666130499,-1368598944,-1368598904,-1368598904,-1368598864,1455021719,-0.261799,-0.261799,9.83277e-06,-1.5,-nan,0,0,3,0.965333,0.215958,0,0,0,0,-0.0337206,0.0210546
1610,-3.72118e-12,1.06296e-37,-1.58066e-06,-3.85292e-12,1.06286e-37,-3.40903e-12,-1.13799e-13,0,0,-2.93868,0.262156,0.0618038,0,0,0,0,0,1.06132,0.262156,-1666130499,-1368598944,-1666130499,-1368598944,-1368598904,-1368598904,-1368598864,1455021719,-0.261799,-0.261799,9.54092e-06,-1.5,-nan,0,0,3,0.964827,0.216274,0,0,0,0,-0.0337206,0.0210546
1620,-3.72118e-12,1.06296e-37,-1.58066e-06,-3.85292e-12,1.06286e-37,0,-1.13799e-13,0,0,-3.01461,0.259263,0.200417,0,0,0,0,0,0.985389,0.259263,-1666130499,-1368598944,-1666130499,-1368598944,-1368598904,-1368598904,-1368598864,1455021719,-0.261799,-0.261799,9.14506e-06,-1.5,-nan,0,0,3,0.984464,0.216932,0,0,0,0,0.000976442,0.0210481
1630,-3.72118e-12,1.06296e-37,-1.58066e-06,-3.85292e-12,1.06286e-37,-3.40903e-12,-1.138e-13,0,0,-3.01461,0.259263,0.200417,0,0,0,0,0,0.985389,0.259263,-1666130499,-1368598944,-1666130499,-1368598944,-1368598904,-1368598904,-1368598864,1455021719,-0.261799,-0.261799,8.87362e-06,-1.5,-nan,0,0,3,0.984479,0.217248,0,0,0,0,0.000976442,0.0210481
1640,-3.72118e-12,1.06296e-37,-1.58066e-06,-3.85292e-12,1.06286e-37,0,-1.138e-13,0,0,-2.8646,0.237164,0.225289,0,0,0,0,0,1.1354,0.237164,-1666130499,-1368598944,-1666130499,-1368598944,-1368598904,-1368598904,-1368598864,1455021719,-0.261799,-0.261799,8.5058e-06,-1.5,-nan,0,0,3,0.98488,0.2176,0,0,0,0,-0.00301453,0.0185923
1650,-3.72118e-12,1.06296e-37,-1.58066e-06,-3.85292e-12,1.06286e-37,-3.40903e-12,-1.13801e-13,0,0,-2.8646,0.237164,0.225289,0,0,0,0,0,1.1354,0.237164,-1666130499,-1368598944,-1666130499,-1368598944,-1368598904,-1368598904,-1368598864,1455021719,-0.261799,-0.261799,8.23659e-06,-1.5,-nan,0,0,3,0.984832,0.217897,0,0,0,0,-0.00301453,0.0185923
1660,-3.72118e-12,1.06296e-37,-1.58066e-06,-3.85292e-12,1.06286e-37,0,-1.13802e-13,0,0,-2.81874,0.224435,0.291053,0,0,0,0,0,1.18126,0.224435,-1666130499,-1368598944,-1666130499,-1368598944,-1368598904,-1368598904,-1368598864,1455021719,-0.261323,-0.261799,7.91106e-06,-1.5,-nan,0,0,3,0.986534,0.216505,0,0,0,0,0.00681083,0.00931221
1670,-3.72118e-12,1.06296e-37,-1.58066e-06,-3.85292e-12,1.06286e-37,-3.40903e-12,-1.13802e-13,0,0,-2.80169,0.206657,0.396965,0,0,0,0,0,1.19831,0.206657,-1666130499,-1368598944,-1666130499,-1368598944,-1368598904,-1368598904,-1368598864,1455021719,-0.261799,-0.261799,7.56838e-06,-1.5,-nan,0,0,3,1.00421,0.219395,0,0,0,0,0.0278208,0.0205404
1680,-3.72118e-12,1.06296e-37,-1.58066e-06,-3.85292e-12,1.06286e-37,0,-1.13803e-13,0,0,-2.80169,0.206657,0.396965,0,0,0,0,0,1.19831,0.206657,-1666130499,-1368598944,-1666130499,-1368598944,-1368598904,-1368598904,-1368598864,1455021719,-0.261799,-0.261799,7.35872e-06,-1.5,-nan,0,0,3,1.0046,0.219682,0,0,0,0,0.0278208,0.0205404
1690,-3.72118e-12,1.06296e-37,-1.58066e-06,-3.85292e-12,1.06286e-37,-3.40903e-12,-1.13803e-13,0,0,-2.78642,0.190978,0.456293,0,0,0,0,0,1.21358,0.190978,-1666130499,-1368598944,-1666130499,-1368598944,-1368598904,-1368598904,-1368598864,1455021719,-0.261799,-0.261799,7.08295e-06,-1.5,-nan,0,0,3,1.00985,0.220017,0,0,0,0,0.0353127,0.0216663
1700,-3.72118e-12,1.06296e-37,-1.58066e-06,-3.85292e-12,1.06286e-37,0,-1.13804e-13,0,0,-2.78642,0.190978,0.456293,0,0,0,0,0,1.21358,0.190978,-1666130499,-1368598944,-1666130499,-1368598944,-1368598904,-1368598904,-1368598864,1455021719,-0.261799,-0.261799,6.85892e-06,-1.5,-nan,0,0,3,1.01042,0.220363,0,0,0,0,0.0353127,0.0216663
1710,-3.72118e-12,1.06296e-37,-1.58066e-06,-3.85292e-12,1.06286e-37,-3.40903e-12,-1.13804e-13,0,0,-2.78642,0.190978,0.456293,0,0,0,0,0,1.21358,0.190978,-1666130499,-1368598944,-1666130499,-1368598944,-1368598904,-1368598904,-1368598864,1455021719,-0.261799,-0.261799,6.65533e-06,-1.5,-nan,0,0,3,1.01095,0.220688,0,0,0,0,0.0353127,0.0216663
1720,-3.72118e-12,1.06296e-37,-1.58066e-06,-3.85292e-12,1.06286e-37,0,-1.13805e-13,0,0,-2.78642,0.190978,0.456293,0,0,0,0,0,1.21358,0.190978,-1666130499,-1368598944,-1666130499,-1368598944,-1368598904,-1368598904,-1368598864,1455021719,-0.261799,-0.261799,6.45779e-06,-1.5,-nan,0,0,3,1.01148,0.221013,0,0,0,0,0.0353127,0.0216663
1730,-3.72118e-12,1.06296e-37,-1.58066e-06,-3.85292e-12,1.06286e-37,-3.40903e-12,-1.13805e-13,0,0,-3.00039,0.172195,0.647575,0,0,0,0,0,0.999609,0.172195,-1666130499,-1368598944,-1666130499,-1368598944,-1368598904,-1368598904,-1368598864,1455021719,-0.261799,-0.261799,6.19062e-06,-1.5,-nan,0,0,3,1.00937,0.219671,0,0,0,0,0.0305564,0.0200122
1740,-3.72118e-12,1.06296e-37,-1.58066e-06,-3.85292e-12,1.06286e-37,0,-1.13806e-13,0,0,-3.00039,0.172195,0.647575,0,0,0,0,0,0.999609,0.172195,-1666130499,-1368598944,-1666130499,-1368598944,-1368598904,-1368598904,-1368598864,1455021719,-0.261799,-0.261799,6.00687e-06,-1.5,-nan,0,0,3,1.00983,0.219971,0,0,0,0,0.0305564,0.0200122
1750,-3.72118e-12,1.06296e-37,-1.58066e-06,-3.85292e-12,1.06286e-37,-3.40903e-12,-1.13806e-13,0,0,-3.00039,0.172195,0.647575,0,0,0,0,0,0.999609,0.172195,-1666130499,-1368598944,-1666130499,-1368598944,-1368598904,-1368598904,-1368598864,1455021719,-0.261799,-0.261799,5.81688e-06,-1.5,-nan,0,0,3,1.01032,0.220291,0,0,0,0,0.0305564,0.0200122
1760,-3.72118e-12,1.06296e-37,-1.58066e-06,-3.85292e-12,1.06286e-37,0,-1.13807e-13,0,0,-3.00039,0.172195,0.647575,0,0,0,0,0,0.999609,0.172195,-1666130499,-1368598944,-1666130499,-1368598944,-1368598904,-1368598904,-1368598864,1455021719,-0.261799,-0.261799,5.64422e-06,-1.5,-nan,0,0,3,1.01078,0.220591,0,0,0,0,0.0305564,0.0200122
1770,-3.72118e-12,1.06296e-37,-1.58066e-06,-3.85292e-12,1.06286e-37,-3.40903e-12,-1.13808e-13,0,0,-3.00039,0.172195,0.647575,0,0,0,0,0,0.999609,0.172195,-1666130499,-1368598944,-1666130499,-1368598944,-1368598904,-1368598904,-1368598864,1455021719,-0.261799,-0.261799,5.47669e-06,-1.5,-nan,0,0,3,1.01123,0.220891,0,0,0,0,0.0305564,0.0200122
1780,-3.72118e-12,1.06296e-37,-1.58066e-06,-3.85292e-12,1.06286e-37,0,-1.13808e-13,0,0,-3.00039,0.172195,0.647575,0,0,0,0,0,0.999609,0.172195,-1666130499,-1368598944,-1666130499,-1368598944,-1368598904,-1368598904,-1368598864,1455021719,-0.261799,-0.261799,5.30346e-06,-1.5,-nan,0,0,3,1.01172,0.221212,0,0,0,0,0.0305564,0.0200122
1790,-3.72118e-12,1.06296e-37,-1.58066e-06,-3.85292e-12,1.06286e-37,-3.40903e-12,-1.13809e-13,0,0,-3.00039,0.172195,0.647575,0,0,0,0,0,0.999609,0.172195,-1666130499,-1368598944,-1666130499,-1368598944,-1368598904,-1368598904,-1368598864,1455021719,-0.261799,-0.261799,5.13572e-06,-1.5,-nan,0,0,3,1.01221,0.221532,0,0,0,0,0.0305564,0.0200122
1800,-3.72118e-12,1.06296e-37,-1.58066e-06,-3.85292e-12,1.06286e-37,0,-1.13809e-13,0,0,-3.00039,0.172195,0.647575,0,0,0,0,0,0.999609,0.172195,-1666130499,-1368598944,-1666130499,-1368598944,-1368598904,-1368598904,-1368598864,1455021719,-0.261799,-0.261799,4.99345e-06,-1.5,-nan,0,0,3,1.01261,0.221792,0,0,0,0,0.0305564,0.0200122
1810,-3.72118e-12,1.06296e-37,-1.58066e-06,-3.85292e-12,1.06286e-37,-3.40903e-12,-1.1381e-13,0,0,-3.00039,0.172195,0.647575,0,0,0,0,0,0.999609,0.172195,-1666130499,-1368598944,-1666130499,-1368598944,-1368598904,-1368598904,-1368598864,1455021719,-0.261799,-0.261799,4.85512e-06,-1.5,-nan,0,0,3,1.01307,0.222092,0,0,0,0,0.0305564,0.0200122
1820,-3.72118e-12,1.06296e-37,-1.58066e-06,-3.85292e-12,1.06286e-37,0,-1.1381e-13,0,0,-3.00039,0.172195,0.647575,0,0,0,0,0,0.999609,0.172195,-1666130499,-1368598944,-1666130499,-1368598944,-1368598904,-1368598904,-1368598864,1455021719,-0.261799,-0.261799,4.71101e-06,-1.5,-nan,0,0,3,1.01353,0.222392,0,0,0,0,0.0305564,0.0200122
1830,-3.72118e-12,1.06296e-37,-1.58066e-06,-3.85292e-12,1.06286e-37,-3.40903e-12,-1.13811e-13,0,0,-3.00039,0.172195,0.647575,0,0,0,0,0,0.999609,0.172195,-1666130499,-1368598944,-1666130499,-1368598944,-1368598904,-1368598904,-1368598864,1455021719,-0.261799,-0.261799,4.57118e-06,-1.5,-nan,0,0,3,1.01398,0.222692,0,0,0,0,0.0305564,0.0200122
1840,-3.72118e-12,1.06296e-37,-1.58066e-06,-3.85292e-12,1.06286e-37,0,-1.13811e-13,0,0,-3.00039,0.172195,0.647575,0,0,0,0,0,0.999609,0.172195,-1666130499,-1368598944,-1666130499,-1368598944,-1368598904,-1368598904,-1368598864,1455021719,-0.261799,-0.261799,4.4355e-06,-1.5,-nan,0,0,3,1.01444,0.222993,0,0,0,0,0.0305564,0.0200122
1850,-3.72118e-12,1.06296e-37,-1.58066e-06,-3.85292e-12,1.06286e-37,-3.40903e-12,-1.13812e-13,0,0,-3.00039,0.172195,0.647575,0,0,0,0,0,0.999609,0.172195,-1666130499,-1368598944,-1666130499,-1368598944,-1368598904,-1368598904,-1368598864,1455021719,-0.261799,-0.261799,4.30385e-06,-1.5,-nan,0,0,3,1.0149,0.223293,0,0,0,0,0.0305564,0.0200122
