timestamp,A_x,A_y,A_z,P,Q,R,Phi,Theta,Psi,poseX,poseY,poseZ,state_X,state_Y,state_Z,state_VzB,state_Bx,state_By,state_Bz,p1_x,p1_y,p2_x,p2_y,p3_x,p3_y,p4_x,p4_y,roll,pitch,yaw,alt,targetHeading,highLevelState,lowLevelState,gateNumber,filtered_x,filtered_y,x_OT,y_OT,vx_OT,vy_OTfiltered_vx,filtered_vy
10,0,0,0,0,0,0,0,0,0,0,0,0,0,0,0,0,0,0,0,0,0,0,0,0,0,0,0,0,-0.261799,0.00779127,-1.5,-nan,0,0,3,0,0,0,0,0,0,0,0
20,-3.34207e-12,2.36722e-38,-1.59277e-06,-3.40794e-12,2.36698e-38,0,-1.13703e-13,0,0,0,0,0,0,0,0,0,0,0,0,0,0,0,0,0,0,0,0,0,-0.261799,0.00144146,-1.5,-nan,0,0,3,0,0,0,0,0,0,0,0
30,-3.34207e-12,2.36722e-38,-1.59277e-06,-3.40794e-12,2.36698e-38,-3.90305e-12,-1.13703e-13,0,0,0,0,0,0,0,0,0,0,0,0,0,0,0,0,0,0,0,0,0,-0.261799,0.00138733,-1.5,-nan,0,0,3,0,0,0,0,0,0,0,0
40,-3.34207e-12,2.36722e-38,-1.59277e-06,-3.40794e-12,2.36698e-38,0,-1.13704e-13,0,0,0,0,0,0,0,0,0,0,0,0,0,0,0,0,0,0,0,0,0,-0.261799,0.00132158,-1.5,-nan,0,0,3,0,0,0,0,0,0,0,0
50,-3.34207e-12,2.36722e-38,-1.59277e-06,-3.40794e-12,2.36698e-38,-3.90305e-12,-1.13704e-13,0,0,0,0,0,0,0,0,0,0,0,0,0,0,0,0,0,0,0,0,0,-0.261799,0.00126154,-1.5,-nan,0,0,3,0,0,0,0,0,0,0,0
60,-3.34207e-12,2.36722e-38,-1.59277e-06,-3.40794e-12,2.36698e-38,0,-1.13705e-13,0,0,0,0,0,0,0,0,0,0,0,0,0,0,0,0,0,0,0,0,0,-0.261799,0.00120677,-1.5,-nan,0,0,3,0,0,0,0,0,0,0,0
70,-3.34207e-12,2.36722e-38,-1.59277e-06,-3.40794e-12,2.36698e-38,-3.90305e-12,-1.13705e-13,0,0,0,0,0,0,0,0,0,0,0,0,0,0,0,0,0,0,0,0,0,-0.261799,0.00115675,-1.5,-nan,0,0,3,0,0,0,0,0,0,0,0
80,-3.34207e-12,2.36722e-38,-1.59277e-06,-3.40794e-12,2.36698e-38,0,-1.13706e-13,0,0,0,0,0,0,0,0,0,0,0,0,0,0,0,0,0,0,0,0,0,-0.261799,0.00110653,-1.5,-nan,0,0,3,0,0,0,0,0,0,0,0
90,-3.34207e-12,2.36722e-38,-1.59277e-06,-3.40794e-12,2.36698e-38,-3.90305e-12,-1.13706e-13,0,0,0,0,0,0,0,0,0,0,0,0,0,0,0,0,0,0,0,0,0,-0.261799,0.00102371,-1.5,-nan,0,0,3,0,0,0,0,0,0,0,0
100,-3.34207e-12,2.36722e-38,-1.59277e-06,-3.40794e-12,2.36698e-38,0,-1.13707e-13,0,0,-3.01739,-0.063166,-0.0510516,0,0,0,0,0,0.982612,-0.063166,-1368637120,197172516,-1368637120,197172516,1494518647,-1368637120,-1367083392,-1367083392,0,-0.261799,0.000979222,-1.5,-nan,0,0,3,0,0,0,0,0,0,0,0
110,-3.34207e-12,2.36722e-38,-1.59277e-06,-3.40794e-12,2.36698e-38,-3.90305e-12,-1.13708e-13,0,0,-3.04133,-0.0489501,-0.0548311,0,0,0,0,0,0.95867,-0.0489501,-1368637120,197172516,-1368637120,197172516,1494518647,-1368637120,-1367083392,-1367083392,0,-0.261799,0.000915466,-1.5,-nan,0,0,3,0,0,0,0,0,0,0,0
120,-3.34207e-12,2.36722e-38,-1.59277e-06,-3.40794e-12,2.36698e-38,0,-1.13708e-13,0,0,-3.04133,-0.0489501,-0.0548311,0,0,0,0,0,0.95867,-0.0489501,-1368637120,197172516,-1368637120,197172516,1494518647,-1368637120,-1367083392,-1367083392,0,-0.261799,0.000877483,-1.5,-nan,0,0,3,0,0,0,0,0,0,0,0
130,-3.34207e-12,2.36722e-38,-1.59277e-06,-3.40794e-12,2.36698e-38,-3.90305e-12,-1.13709e-13,0,0,-3.03453,-0.0589189,-0.0412935,0,0,0,0,0,0.965468,-0.0589189,-1368637120,197172516,-1368637120,197172516,1494518647,-1368637120,-1367083392,-1367083392,0,-0.261799,0.000837663,-1.5,-nan,0,0,3,0,0,0,0,0,0,0,0
140,-3.34207e-12,2.36722e-38,-1.59277e-06,-3.40794e-12,2.36698e-38,0,-1.13709e-13,0,0,-3.04087,-0.0548825,-0.0575956,0,0,0,0,0,0.959135,-0.0548825,-1368637120,197172516,-1368637120,197172516,1494518647,-1368637120,-1367083392,-1367083392,0,-0.261799,0.000798005,-1.5,-nan,0,0,3,0,0,0,0,0,0,0,0
150,-3.34207e-12,2.36722e-38,-1.59277e-06,-3.40794e-12,2.36698e-38,-3.90305e-12,-1.1371e-13,0,0,-3.08419,-0.0518797,-0.0237432,0,0,0,0,0,0.915809,-0.0518797,-1368637120,197172516,-1368637120,197172516,1494518647,-1368637120,-1367083392,-1367083392,0.0869708,-0.261799,0.000741553,-1.5,-nan,0,0,3,0.925651,-0.0516067,0,0,0,0,-0.479725,0.0545968
160,-3.34207e-12,2.36722e-38,-1.59277e-06,-3.40794e-12,2.36698e-38,0,-1.1371e-13,0,0,-3.08419,-0.0518797,-0.0237432,0,0,0,0,0,0.915809,-0.0518797,-1368637120,197172516,-1368637120,197172516,1494518647,-1368637120,-1367083392,-1367083392,0.0830405,-0.261799,0.000709326,-1.5,-nan,0,0,3,0.915097,-0.0504056,0,0,0,0,-0.479725,0.0545968
170,-3.34207e-12,2.36722e-38,-1.59277e-06,-3.40794e-12,2.36698e-38,-3.90305e-12,-1.13711e-13,0,0,-3.07033,-0.0472494,-0.0307876,0,0,0,0,0,0.929674,-0.0472494,-1368637120,197172516,-1368637120,197172516,1494518647,-1368637120,-1367083392,-1367083392,0.0724999,-0.261799,0.000626844,-1.5,-nan,0,0,3,0.916198,-0.0471843,0,0,0,0,-0.2284,0.0545969
180,-3.34207e-12,2.36722e-38,-1.59277e-06,-3.40794e-12,2.36698e-38,0,-1.13711e-13,0,0,-3.04373,-0.052618,-0.0542947,0,0,0,0,0,0.956273,-0.052618,-1368637120,197172516,-1368637120,197172516,1494518647,-1368637120,-1367083392,-1367083392,0.14959,-0.261799,0.000597216,-1.5,-nan,0,0,3,0.912502,-0.0524563,0,0,0,0,-0.215736,0.0147043
190,-3.34207e-12,2.36722e-38,-1.59277e-06,-3.40794e-12,2.36698e-38,-3.90305e-12,-1.13712e-13,0,0,-3.04373,-0.052618,-0.0542947,0,0,0,0,0,0.956273,-0.052618,-1368637120,197172516,-1368637120,197172516,1494518647,-1368637120,-1367083392,-1367083392,0.14882,-0.261799,0.000578314,-1.5,-nan,0,0,3,0.909051,-0.052221,0,0,0,0,-0.215736,0.0147043
200,-3.34207e-12,2.36722e-38,-1.59277e-06,-3.40794e-12,2.36698e-38,0,-1.13718e-13,0,0,-3.06104,-0.058603,-0.0293743,0,0,0,0,0,0.938958,-0.058603,-1368637120,197172516,-1368637120,197172516,1494518647,-1368637120,-1367083392,-1367083392,0.171878,-0.261799,0.000550935,-1.5,-nan,0,0,3,0.937331,-0.0532252,0,0,0,0,-0.0926938,0.00152258
210,-3.34207e-12,2.36722e-38,-1.59277e-06,-3.40794e-12,2.36698e-38,-3.90305e-12,-1.13718e-13,0,0,-3.04312,-0.0554047,-0.0564015,0,0,0,0,0,0.956879,-0.0554047,-1368637120,197172516,-1368637120,197172516,1494518647,-1368637120,-1367083392,-1367083392,0.178339,-0.261799,0.000520614,-1.5,-nan,0,0,3,0.947572,-0.0548957,0,0,0,0,-0.0412694,0.000859761
220,-3.34207e-12,2.36722e-38,-1.59277e-06,-3.40794e-12,2.36698e-38,0,-1.13712e-13,0,0,-3.04312,-0.0554047,-0.0564015,0,0,0,0,0,0.956879,-0.0554047,-1368637120,197172516,-1368637120,197172516,1494518647,-1368637120,-1367083392,-1367083392,0.17828,-0.261799,0.000499013,-1.5,-nan,0,0,3,0.946705,-0.0548777,0,0,0,0,-0.0412694,0.000859761
230,-3.34207e-12,2.36722e-38,-1.59277e-06,-3.40794e-12,2.36698e-38,-3.90305e-12,-1.13714e-13,0,0,-3.06147,-0.0552935,-0.0288223,0,0,0,0,0,0.938527,-0.0552935,-1368637120,197172516,-1368637120,197172516,1494518647,-1368637120,-1367083392,-1367083392,0.192964,-0.261799,0.00047438,-1.5,-nan,0,0,3,0.938536,-0.0558539,0,0,0,0,-0.0634336,-0.00680002
240,-3.34207e-12,2.36722e-38,-1.59277e-06,-3.40794e-12,2.36698e-38,0,-1.13714e-13,0,0,-3.07113,-0.0490167,-0.0343162,0,0,0,0,0,0.928873,-0.0490167,-1368637120,197172516,-1368637120,197172516,1494518647,-1368637120,-1367083392,-1367083392,0.18092,-0.261799,0.000448162,-1.5,-nan,0,0,3,0.929869,-0.0551372,0,0,0,0,-0.0809082,-0.000334229
250,-3.34207e-12,2.36722e-38,-1.59277e-06,-3.40794e-12,2.36698e-38,-3.90305e-12,-1.13715e-13,0,0,-3.05166,-0.0480645,-0.0394033,0,0,0,0,0,0.948341,-0.0480645,-1368637120,197172516,-1368637120,197172516,1494518647,-1368637120,-1367083392,-1367083392,0.141136,-0.261799,0.000423393,-1.5,-nan,0,0,3,0.932587,-0.0498708,0,0,0,0,-0.0682641,0.0146997
260,-3.34207e-12,2.36722e-38,-1.59277e-06,-3.40794e-12,2.36698e-38,0,-1.13716e-13,0,0,-3.06669,-0.0533948,-0.0287573,0,0,0,0,0,0.933313,-0.0533948,-1368637120,197172516,-1368637120,197172516,1494518647,-1368637120,-1367083392,-1367083392,0.166512,-0.261799,0.00040174,-1.5,-nan,0,0,3,0.933172,-0.0531256,0,0,0,0,-0.062663,0.00488267
270,-3.34207e-12,2.36722e-38,-1.59277e-06,-3.40794e-12,2.36698e-38,-3.90305e-12,-1.13713e-13,0,0,-3.06669,-0.0533948,-0.0287573,0,0,0,0,0,0.933313,-0.0533948,-1368637120,197172516,-1368637120,197172516,1494518647,-1368637120,-1367083392,-1367083392,0.166177,-0.261799,0.000385071,-1.5,-nan,0,0,3,0.931856,-0.0530231,0,0,0,0,-0.062663,0.00488267
280,-3.34207e-12,2.36722e-38,-1.59277e-06,-3.40794e-12,2.36698e-38,0,-1.13717e-13,0,0,-3.0275,-0.0670302,-0.0272158,0,0,0,0,0,0.972499,-0.0670302,-1368637120,197172516,-1368637120,197172516,1494518647,-1368637120,-1367083392,-1367083392,0.174871,-0.261799,0.000363059,-1.5,-nan,0,0,3,0.93093,-0.0541201,0,0,0,0,-0.0583852,0.00147984
290,-3.34207e-12,2.36722e-38,-1.59277e-06,-3.40794e-12,2.36698e-38,-3.90305e-12,-1.13723e-13,0,0,-3.07063,-0.0504177,0.0156401,0,0,0,0,0,0.929368,-0.0504177,-1368637120,197172516,-1368637120,197172516,1494518647,-1368637120,-1367083392,-1367083392,0.159689,-0.261799,0.000340878,-1.5,-nan,0,0,3,0.927284,-0.0519501,0,0,0,0,-0.0633323,0.0068669
300,-3.34207e-12,2.36722e-38,-1.59277e-06,-3.40794e-12,2.36698e-38,0,-1.13724e-13,0,0,-3.07458,-0.0616294,0.0281472,0,0,0,0,0,0.925422,-0.0616294,-1368637120,197172516,-1368637120,197172516,1494518647,-1368637120,-1367083392,-1367083392,0.176738,-0.261799,0.000322039,-1.5,-nan,0,0,3,0.925368,-0.0539159,0,0,0,0,-0.0675707,-0.000210338
310,-3.34207e-12,2.36722e-38,-1.59277e-06,-3.40794e-12,2.36698e-38,-3.90305e-12,-1.13724e-13,0,0,-3.02335,-0.0674624,-0.0288898,0,0,0,0,0,0.976649,-0.0674624,-1368637120,197172516,-1368637120,197172516,1494518647,-1368637120,-1367083392,-1367083392,0.216407,-0.261799,0.000307455,-1.5,-nan,0,0,3,0.925357,-0.0590622,0,0,0,0,-0.0571003,-0.01543
320,-3.34207e-12,2.36722e-38,-1.59277e-06,-3.40794e-12,2.36698e-38,0,-1.13715e-13,0,0,-3.02335,-0.0674624,-0.0288898,0,0,0,0,0,0.976649,-0.0674624,-1368637120,197172516,-1368637120,197172516,1494518647,-1368637120,-1367083392,-1367083392,0.217517,-0.261799,0.000294107,-1.5,-nan,0,0,3,0.924101,-0.0594017,0,0,0,0,-0.0571003,-0.01543
330,-3.34207e-12,2.36722e-38,-1.59277e-06,-3.40794e-12,2.36698e-38,-3.90305e-12,-1.13726e-13,0,0,-3.06065,-0.0705601,0.00536271,0,0,0,0,0,0.939345,-0.0705601,-1368637120,197172516,-1368637120,197172516,1494518647,-1368637120,-1367083392,-1367083392,0.248799,-0.261799,0.000277852,-1.5,-nan,0,0,3,0.924053,-0.0642684,0,0,0,0,-0.0555611,-0.025668
340,-3.34207e-12,2.36722e-38,-1.59277e-06,-3.40794e-12,2.36698e-38,0,-1.13727e-13,0,0,-3.03376,-0.0695893,-0.00313591,0,0,0,0,0,0.966243,-0.0695893,-1368637120,197172516,-1368637120,197172516,1494518647,-1368637120,-1367083392,-1367083392,0.253315,-0.261799,0.000261969,-1.5,-nan,0,0,3,0.937925,-0.0651089,0,0,0,0,-0.021258,-0.0268453
350,-3.34207e-12,2.36722e-38,-1.59277e-06,-3.40794e-12,2.36698e-38,-3.90305e-12,-1.13719e-13,0,0,-3.06857,-0.0809699,0.0220547,0,0,0,0,0,0.93143,-0.0809699,-1368637120,197172516,-1368637120,197172516,1494518647,-1368637120,-1367083392,-1367083392,0.261799,-0.261799,0.000247548,-1.5,-nan,0,0,3,0.931367,-0.0714287,0,0,0,0,-0.0360267,-0.0358154
360,-3.34207e-12,2.36722e-38,-1.59277e-06,-3.40794e-12,2.36698e-38,0,-1.13719e-13,0,0,-3.06857,-0.0809699,0.0220547,0,0,0,0,0,0.93143,-0.0809699,-1368637120,197172516,-1368637120,197172516,1494518647,-1368637120,-1367083392,-1367083392,0.261799,-0.261799,0.00023679,-1.5,-nan,0,0,3,0.930574,-0.0722166,0,0,0,0,-0.0360267,-0.0358154
370,-3.34207e-12,2.36722e-38,-1.59277e-06,-3.40794e-12,2.36698e-38,-3.90305e-12,-1.13721e-13,0,0,-3.06687,-0.0989227,0.0261302,0,0,0,0,0,0.933127,-0.0989227,-1368637120,197172516,-1368637120,197172516,1494518647,-1368637120,-1367083392,-1367083392,0.261799,-0.261799,0.000224184,-1.5,-nan,0,0,3,0.93316,-0.0733834,0,0,0,0,-0.0325561,-0.0352395
380,-3.34207e-12,2.36722e-38,-1.59277e-06,-3.40794e-12,2.36698e-38,0,-1.13721e-13,0,0,-3.05177,-0.0985845,0.0110698,0,0,0,0,0,0.948232,-0.0985845,-1368637120,197172516,-1368637120,197172516,1494518647,-1368637120,-1367083392,-1367083392,0.261799,-0.261799,0.000211794,-1.5,-nan,0,0,3,0.932188,-0.0754531,0,0,0,0,-0.0349415,-0.0376002
390,-3.34207e-12,2.36722e-38,-1.59277e-06,-3.40794e-12,2.36698e-38,-3.90305e-12,-1.13722e-13,0,0,-3.02714,-0.101714,0.00196132,0,0,0,0,0,0.972855,-0.101714,-1368637120,197172516,-1368637120,197172516,1494518647,-1368637120,-1367083392,-1367083392,0.261799,-0.261799,0.000199671,-1.5,-nan,0,0,3,0.93828,-0.0776877,0,0,0,0,-0.00709122,-0.0399902
400,-3.34207e-12,2.36722e-38,-1.59277e-06,-3.40794e-12,2.36698e-38,0,-1.13727e-13,0,0,-3.02714,-0.101714,0.00196132,0,0,0,0,0,0.972855,-0.101714,-1368637120,197172516,-1368637120,197172516,1494518647,-1368637120,-1367083392,-1367083392,0.261799,-0.261799,0.000188298,-1.5,-nan,0,0,3,0.94833,-0.0810127,0,0,0,0,0.00803891,-0.043222
410,-3.34207e-12,2.36722e-38,-1.59277e-06,-3.40794e-12,2.36698e-38,-3.90305e-12,-1.13728e-13,0,0,-3.05177,-0.0985845,0.0110698,0,0,0,0,0,0.948232,-0.0985845,-1368637120,197172516,-1368637120,197172516,1494518647,-1368637120,-1367083392,-1367083392,0.261799,-0.261799,0.000178315,-1.5,-nan,0,0,3,0.948529,-0.0908226,0,0,0,0,0.00585284,-0.0624876
420,-3.34207e-12,2.36722e-38,-1.59277e-06,-3.40794e-12,2.36698e-38,0,-1.1372e-13,0,0,-3.05177,-0.0985845,0.0110698,0,0,0,0,0,0.948232,-0.0985845,-1368637120,197172516,-1368637120,197172516,1494518647,-1368637120,-1367083392,-1367083392,0.261799,-0.261799,0.000170573,-1.5,-nan,0,0,3,0.948658,-0.0921974,0,0,0,0,0.00585284,-0.0624876
430,-3.34207e-12,2.36722e-38,-1.59277e-06,-3.40794e-12,2.36698e-38,-3.90305e-12,-1.13728e-13,0,0,-3.0502,-0.0979078,0.00145984,0,0,0,0,0,0.949801,-0.0979078,-1368637120,197172516,-1368637120,197172516,1494518647,-1368637120,-1367083392,-1367083392,0.261799,-0.261799,0.000160193,-1.5,-nan,0,0,3,0.94975,-0.0963784,0,0,0,0,0.00820925,-0.0666158
440,-3.34207e-12,2.36722e-38,-1.59277e-06,-3.40794e-12,2.36698e-38,0,-1.13729e-13,0,0,-3.01214,-0.0898442,-0.025665,0,0,0,0,0,0.987865,-0.0898442,-1368637120,197172516,-1368637120,197172516,1494518647,-1368637120,-1367083392,-1367083392,0.261799,-0.261799,0.000151024,-1.5,-nan,0,0,3,0.949916,-0.096519,0,0,0,0,0.00843133,-0.0632857
450,-3.34207e-12,2.36722e-38,-1.59277e-06,-3.40794e-12,2.36698e-38,-3.90305e-12,-1.1373e-13,0,0,-3.02184,-0.0838188,-0.0165941,0,0,0,0,0,0.978158,-0.0838188,-1368637120,197172516,-1368637120,197172516,1494518647,-1368637120,-1367083392,-1367083392,0.261799,-0.261799,0.000142094,-1.5,-nan,0,0,3,0.950678,-0.0929856,0,0,0,0,0.00868193,-0.053363
460,-3.34207e-12,2.36722e-38,-1.59277e-06,-3.40794e-12,2.36698e-38,0,-1.1373e-13,0,0,-2.99986,-0.0960304,-0.0345383,0,0,0,0,0,1.00014,-0.0960304,-1368637120,197172516,-1368637120,197172516,1494518647,-1368637120,-1367083392,-1367083392,0.261799,-0.261799,0.000133692,-1.5,-nan,0,0,3,0.953987,-0.09782,0,0,0,0,0.0126804,-0.0589146
470,-3.34207e-12,2.36722e-38,-1.59277e-06,-3.40794e-12,2.36698e-38,-3.90305e-12,-1.13726e-13,0,0,-3.02764,-0.0819752,-0.0220996,0,0,0,0,0,0.972364,-0.0819752,-1368637120,197172516,-1368637120,197172516,1494518647,-1368637120,-1367083392,-1367083392,0.261799,-0.261799,0.000126601,-1.5,-nan,0,0,3,0.972266,-0.0958735,0,0,0,0,0.0378557,-0.0526593
480,-3.34207e-12,2.36722e-38,-1.59277e-06,-3.40794e-12,2.36698e-38,0,-1.13722e-13,0,0,-3.02764,-0.0819752,-0.0220996,0,0,0,0,0,0.972364,-0.0819752,-1368637120,197172516,-1368637120,197172516,1494518647,-1368637120,-1367083392,-1367083392,0.261799,-0.261799,0.000121099,-1.5,-nan,0,0,3,0.973099,-0.097032,0,0,0,0,0.0378557,-0.0526593
490,-3.34207e-12,2.36722e-38,-1.59277e-06,-3.40794e-12,2.36698e-38,-3.90305e-12,-1.13725e-13,0,0,-3.02334,-0.0824502,-0.0120349,0,0,0,0,0,0.976655,-0.0824502,-1368637120,197172516,-1368637120,197172516,1494518647,-1368637120,-1367083392,-1367083392,0.261799,-0.261799,0.000114414,-1.5,-nan,0,0,3,0.977282,-0.0986198,0,0,0,0,0.0468849,-0.055378
500,-3.34207e-12,2.36722e-38,-1.59277e-06,-3.40794e-12,2.36698e-38,0,-1.13731e-13,0,0,-3.02774,-0.0712814,-0.0123861,0,0,0,0,0,0.972258,-0.0712814,-1368637120,197172516,-1368637120,197172516,1494518647,-1368637120,-1367083392,-1367083392,0.261799,-0.261799,0.000107649,-1.5,-nan,0,0,3,0.976205,-0.0949245,0,0,0,0,0.0446799,-0.0490705
510,-3.34207e-12,2.36722e-38,-1.59277e-06,-3.40794e-12,2.36698e-38,-3.90305e-12,-1.13731e-13,0,0,-3.02774,-0.0712814,-0.0123861,0,0,0,0,0,0.972258,-0.0712814,-1368637120,197172516,-1368637120,197172516,1494518647,-1368637120,-1367083392,-1367083392,0.261799,-0.261799,0.000102547,-1.5,-nan,0,0,3,0.977277,-0.0961022,0,0,0,0,0.0446799,-0.0490705
520,-3.34207e-12,2.36722e-38,-1.59277e-06,-3.40794e-12,2.36698e-38,0,-1.13732e-13,0,0,-3.04701,-0.0785489,0.00659922,0,0,0,0,0,0.952986,-0.0785489,-1368637120,197172516,-1368637120,197172516,1494518647,-1368637120,-1367083392,-1367083392,0.261799,-0.261799,9.69086e-05,-1.5,-nan,0,0,3,0.977712,-0.094441,0,0,0,0,0.0483339,-0.0464103
530,-3.34207e-12,2.36722e-38,-1.59277e-06,-3.40794e-12,2.36698e-38,-3.90305e-12,-1.13732e-13,0,0,-3.04701,-0.0785489,0.00659922,0,0,0,0,0,0.952986,-0.0785489,-1368637120,197172516,-1368637120,197172516,1494518647,-1368637120,-1367083392,-1367083392,0.261799,-0.261799,9.28878e-05,-1.5,-nan,0,0,3,0.978727,-0.0954157,0,0,0,0,0.0483339,-0.0464103
540,-3.34207e-12,2.36722e-38,-1.59277e-06,-3.40794e-12,2.36698e-38,0,-1.13733e-13,0,0,-3.02792,-0.0710286,-0.0196301,0,0,0,0,0,0.972076,-0.0710286,-1368637120,197172516,-1368637120,197172516,1494518647,-1368637120,-1367083392,-1367083392,0.261799,-0.261799,8.7213e-05,-1.5,-nan,0,0,3,0.979249,-0.0953936,0,0,0,0,0.0472334,-0.0446
550,-3.34207e-12,2.36722e-38,-1.59277e-06,-3.40794e-12,2.36698e-38,-3.90305e-12,-1.13733e-13,0,0,-3.00887,-0.0749609,-0.0318087,0,0,0,0,0,0.991127,-0.0749609,-1368637120,197172516,-1368637120,197172516,1494518647,-1368637120,-1367083392,-1367083392,0.261799,-0.261799,8.18779e-05,-1.5,-nan,0,0,3,0.981531,-0.095664,0,0,0,0,0.048456,-0.0430064
560,-3.34207e-12,2.36722e-38,-1.59277e-06,-3.40794e-12,2.36698e-38,0,-1.13734e-13,0,0,-3.04615,-0.0721223,-0.0160448,0,0,0,0,0,0.953849,-0.0721223,-1368637120,197172516,-1368637120,197172516,1494518647,-1368637120,-1367083392,-1367083392,0.261799,-0.261799,6.78234e-05,-1.5,-nan,0,0,3,0.978315,-0.0913385,0,0,0,0,0.0377081,-0.0310909
570,-3.34207e-12,2.36722e-38,-1.59277e-06,-3.40794e-12,2.36698e-38,-3.90305e-12,-1.13734e-13,0,0,-3.06052,-0.0876227,-0.0127201,0,0,0,0,0,0.939477,-0.0876227,-1368637120,197172516,-1368637120,197172516,1494518647,-1368637120,-1367083392,-1367083392,0.261799,-0.261799,6.40942e-05,-1.5,-nan,0,0,3,0.977956,-0.0910596,0,0,0,0,0.0398715,-0.0298376
580,-3.34207e-12,2.36722e-38,-1.59277e-06,-3.40794e-12,2.36698e-38,0,-1.13735e-13,0,0,-3.06052,-0.0876227,-0.0127201,0,0,0,0,0,0.939477,-0.0876227,-1368637120,197172516,-1368637120,197172516,1494518647,-1368637120,-1367083392,-1367083392,0.261799,-0.261799,6.13115e-05,-1.5,-nan,0,0,3,0.978833,-0.091716,0,0,0,0,0.0398715,-0.0298376
590,-3.34207e-12,2.36722e-38,-1.59277e-06,-3.40794e-12,2.36698e-38,-3.90305e-12,-1.13736e-13,0,0,-3.03062,-0.0783967,-0.043424,0,0,0,0,0,0.969378,-0.0783967,-1368637120,197172516,-1368637120,197172516,1494518647,-1368637120,-1367083392,-1367083392,0.261799,-0.261799,5.78023e-05,-1.5,-nan,0,0,3,0.970863,-0.088043,0,0,0,0,0.0321741,-0.0237016
600,-3.34207e-12,2.36722e-38,-1.59277e-06,-3.40794e-12,2.36698e-38,0,-1.13736e-13,0,0,-3.00044,-0.0793838,-0.0536693,0,0,0,0,0,0.999559,-0.0793838,-1368637120,197172516,-1368637120,197172516,1494518647,-1368637120,-1367083392,-1367083392,0.261799,-0.261799,5.43801e-05,-1.5,-nan,0,0,3,0.986866,-0.0847549,0,0,0,0,0.0543563,-0.0188107
610,-3.34207e-12,2.36722e-38,-1.59277e-06,-3.40794e-12,2.36698e-38,-3.90305e-12,-1.13737e-13,0,0,-3.00312,-0.0769057,-0.0563497,0,0,0,0,0,0.996875,-0.0769057,-1368637120,197172516,-1368637120,197172516,1494518647,-1368637120,-1367083392,-1367083392,0.261799,-0.261799,5.11606e-05,-1.5,-nan,0,0,3,0.995475,-0.080157,0,0,0,0,0.0607367,-0.0119347
620,-3.34207e-12,2.36722e-38,-1.59277e-06,-3.40794e-12,2.36698e-38,0,-1.13737e-13,0,0,-3.07558,-0.0836997,-0.00498514,0,0,0,0,0,0.924424,-0.0836997,-1368637120,197172516,-1368637120,197172516,1494518647,-1368637120,-1367083392,-1367083392,0.261799,-0.261799,4.81317e-05,-1.5,-nan,0,0,3,0.992288,-0.0834261,0,0,0,0,0.055143,-0.0136116
630,-3.34207e-12,2.36722e-38,-1.59277e-06,-3.40794e-12,2.36698e-38,-3.90305e-12,-1.13738e-13,0,0,-3.03903,-0.077893,-0.0214754,0,0,0,0,0,0.960971,-0.077893,-1368637120,197172516,-1368637120,197172516,1494518647,-1368637120,-1367083392,-1367083392,0.249653,-0.261799,4.54852e-05,-1.5,-nan,0,0,3,0.97098,-0.077945,0,0,0,0,0.0059428,0.00359741
640,-3.34207e-12,2.36722e-38,-1.59277e-06,-3.40794e-12,2.36698e-38,0,-1.13738e-13,0,0,-3.03903,-0.077893,-0.0214754,0,0,0,0,0,0.960971,-0.077893,-1368637120,197172516,-1368637120,197172516,1494518647,-1368637120,-1367083392,-1367083392,0.249406,-0.261799,4.3598e-05,-1.5,-nan,0,0,3,0.971105,-0.0778694,0,0,0,0,0.0059428,0.00359741
650,-3.34207e-12,2.36722e-38,-1.59277e-06,-3.40794e-12,2.36698e-38,-3.90305e-12,-1.13739e-13,0,0,-3.07009,-0.0834386,-0.0102073,0,0,0,0,0,0.929911,-0.0834386,-1368637120,197172516,-1368637120,197172516,1494518647,-1368637120,-1367083392,-1367083392,0.255839,-0.261799,4.09344e-05,-1.5,-nan,0,0,3,0.974185,-0.0791391,0,0,0,0,0.0295818,0.00207882
660,-3.34207e-12,2.36722e-38,-1.59277e-06,-3.40794e-12,2.36698e-38,0,-1.13739e-13,0,0,-2.9986,-0.0787505,-0.0562214,0,0,0,0,0,1.0014,-0.0787506,-1368637120,197172516,-1368637120,197172516,1494518647,-1368637120,-1367083392,-1367083392,0.246037,-0.261799,3.85109e-05,-1.5,-nan,0,0,3,0.97139,-0.0781533,0,0,0,0,0.00716574,0.00646254
670,-3.34207e-12,2.36722e-38,-1.59277e-06,-3.40794e-12,2.36698e-38,-3.90305e-12,-1.1374e-13,0,0,-2.9986,-0.0787505,-0.0562214,0,0,0,0,0,1.0014,-0.0787506,-1368637120,197172516,-1368637120,197172516,1494518647,-1368637120,-1367083392,-1367083392,0.243262,-0.261799,3.67633e-05,-1.5,-nan,0,0,3,0.975928,-0.0779713,0,0,0,0,0.00926068,0.00791583
680,-3.34207e-12,2.36722e-38,-1.59277e-06,-3.40794e-12,2.36698e-38,0,-1.1374e-13,0,0,-2.9986,-0.0787505,-0.0562214,0,0,0,0,0,1.0014,-0.0787506,-1368637120,197172516,-1368637120,197172516,1494518647,-1368637120,-1367083392,-1367083392,0.242873,-0.261799,3.56727e-05,-1.5,-nan,0,0,3,0.976067,-0.0778525,0,0,0,0,0.00926068,0.00791583
690,-3.34207e-12,2.36722e-38,-1.59277e-06,-3.40794e-12,2.36698e-38,-3.90305e-12,-1.13741e-13,0,0,-3.04697,-0.0823759,-0.0316361,0,0,0,0,0,0.95303,-0.0823759,-1368637120,197172516,-1368637120,197172516,1494518647,-1368637120,-1367083392,-1367083392,0.239596,-0.261799,3.37714e-05,-1.5,-nan,0,0,3,0.970028,-0.0771767,0,0,0,0,0.00376422,0.00862632
700,-3.34207e-12,2.36722e-38,-1.59277e-06,-3.40794e-12,2.36698e-38,0,-1.13741e-13,0,0,-3.07558,-0.0836997,-0.00498514,0,0,0,0,0,0.924424,-0.0836997,-1368637120,197172516,-1368637120,197172516,1494518647,-1368637120,-1367083392,-1367083392,0.242085,-0.261799,3.17745e-05,-1.5,-nan,0,0,3,0.96031,-0.0777027,0,0,0,0,-0.0128448,0.00811456
710,-3.34207e-12,2.36722e-38,-1.59277e-06,-3.40794e-12,2.36698e-38,-3.90305e-12,-1.13742e-13,0,0,-3.02206,-0.0798532,-0.0348912,0,0,0,0,0,0.977938,-0.0798532,-1368637120,197172516,-1368637120,197172516,1494518647,-1368637120,-1367083392,-1367083392,0.22733,-0.261799,2.99045e-05,-1.5,-nan,0,0,3,0.968559,-0.0765913,0,0,0,0,-0.00301716,0.0155267
720,-3.34207e-12,2.36722e-38,-1.59277e-06,-3.40794e-12,2.36698e-38,0,-1.13743e-13,0,0,-3.01953,-0.0820335,-0.0338295,0,0,0,0,0,0.980467,-0.0820335,-1368637120,197172516,-1368637120,197172516,1494518647,-1368637120,-1367083392,-1367083392,0.224705,-0.261799,2.83189e-05,-1.5,-nan,0,0,3,0.969266,-0.0762216,0,0,0,0,-0.00417917,0.0164698
730,-3.34207e-12,2.36722e-38,-1.59277e-06,-3.40794e-12,2.36698e-38,-3.90305e-12,-1.13743e-13,0,0,-3.01953,-0.0820335,-0.0338295,0,0,0,0,0,0.980467,-0.0820335,-1368637120,197172516,-1368637120,197172516,1494518647,-1368637120,-1367083392,-1367083392,0.22352,-0.261799,2.70882e-05,-1.5,-nan,0,0,3,0.969174,-0.0758592,0,0,0,0,-0.00417917,0.0164698
740,-3.34207e-12,2.36722e-38,-1.59277e-06,-3.40794e-12,2.36698e-38,0,-1.13744e-13,0,0,-3.01745,-0.073004,-0.0490623,0,0,0,0,0,0.982551,-0.073004,-1368637120,197172516,-1368637120,197172516,1494518647,-1368637120,-1367083392,-1367083392,0.219591,-0.261799,2.54865e-05,-1.5,-nan,0,0,3,0.978103,-0.0747524,0,0,0,0,0.00792799,0.0166744
750,-3.34207e-12,2.36722e-38,-1.59277e-06,-3.40794e-12,2.36698e-38,-3.90305e-12,-1.13744e-13,0,0,-2.99291,-0.0807355,-0.0592294,0,0,0,0,0,1.00709,-0.0807355,-1368637120,197172516,-1368637120,197172516,1494518647,-1368637120,-1367083392,-1367083392,0.240708,-0.261799,2.39776e-05,-1.5,-nan,0,0,3,0.978076,-0.0769232,0,0,0,0,0.007522,0.00733175
760,-3.34207e-12,2.36722e-38,-1.59277e-06,-3.40794e-12,2.36698e-38,0,-1.13745e-13,0,0,-3.04446,-0.0739868,-0.0233998,0,0,0,0,0,0.955538,-0.0739868,-1368637120,197172516,-1368637120,197172516,1494518647,-1368637120,-1367083392,-1367083392,0.240141,-0.261799,2.23221e-05,-1.5,-nan,0,0,3,0.970478,-0.076766,0,0,0,0,-0.00247712,0.0073668
770,-3.34207e-12,2.36722e-38,-1.59277e-06,-3.40794e-12,2.36698e-38,-3.90305e-12,-1.13745e-13,0,0,-2.99291,-0.0807355,-0.0592294,0,0,0,0,0,1.00709,-0.0807355,-1368637120,197172516,-1368637120,197172516,1494518647,-1368637120,-1367083392,-1367083392,0.242131,-0.261799,2.06075e-05,-1.5,-nan,0,0,3,0.979697,-0.0768038,0,0,0,0,0.0095931,0.00612296
780,-3.34207e-12,2.36722e-38,-1.59277e-06,-3.40794e-12,2.36698e-38,0,-1.13746e-13,0,0,-3.02181,-0.0839135,-0.0468128,0,0,0,0,0,0.97819,-0.0839135,-1368637120,197172516,-1368637120,197172516,1494518647,-1368637120,-1367083392,-1367083392,0.255469,-0.261799,1.94686e-05,-1.5,-nan,0,0,3,0.97953,-0.0793112,0,0,0,0,0.00815143,0.00270037
790,-3.34207e-12,2.36722e-38,-1.59277e-06,-3.40794e-12,2.36698e-38,-3.90305e-12,-1.13746e-13,0,0,-3.03636,-0.0762389,-0.0317475,0,0,0,0,0,0.963644,-0.0762389,-1368637120,197172516,-1368637120,197172516,1494518647,-1368637120,-1367083392,-1367083392,0.246217,-0.261799,1.84693e-05,-1.5,-nan,0,0,3,0.977794,-0.0773882,0,0,0,0,0.00545936,0.00467363
800,-3.34207e-12,2.36722e-38,-1.59277e-06,-3.40794e-12,2.36698e-38,0,-1.13747e-13,0,0,-3.06052,-0.0876227,-0.0127201,0,0,0,0,0,0.939477,-0.0876227,-1368637120,197172516,-1368637120,197172516,1494518647,-1368637120,-1367083392,-1367083392,0.261799,-0.261799,1.74897e-05,-1.5,-nan,0,0,3,0.969686,-0.0806277,0,0,0,0,-0.00286847,-0.00217419
810,-3.34207e-12,2.36722e-38,-1.59277e-06,-3.40794e-12,2.36698e-38,-3.90305e-12,-1.13747e-13,0,0,-3.06803,-0.0862169,-0.00711204,0,0,0,0,0,0.931975,-0.0862169,-1368637120,197172516,-1368637120,197172516,1494518647,-1368637120,-1367083392,-1367083392,0.261799,-0.261799,1.65624e-05,-1.5,-nan,0,0,3,0.962632,-0.0814327,0,0,0,0,-0.00974355,-0.00445269
820,-3.34207e-12,2.36722e-38,-1.59277e-06,-3.40794e-12,2.36698e-38,0,-1.13748e-13,0,0,-3.06803,-0.0862169,-0.00711204,0,0,0,0,0,0.931975,-0.0862169,-1368637120,197172516,-1368637120,197172516,1494518647,-1368637120,-1367083392,-1367083392,0.261799,-0.261799,1.58426e-05,-1.5,-nan,0,0,3,0.962417,-0.0815307,0,0,0,0,-0.00974355,-0.00445269
830,-3.34207e-12,2.36722e-38,-1.59277e-06,-3.40794e-12,2.36698e-38,-3.90305e-12,-1.13749e-13,0,0,-3.00411,-0.079078,-0.0553307,0,0,0,0,0,0.995888,-0.079078,-1368637120,197172516,-1368637120,197172516,1494518647,-1368637120,-1367083392,-1367083392,0.261799,-0.261799,1.49982e-05,-1.5,-nan,0,0,3,0.977246,-0.0816939,0,0,0,0,0.00556937,-0.00497528
840,-3.34207e-12,2.36722e-38,-1.59277e-06,-3.40794e-12,2.36698e-38,0,-1.13749e-13,0,0,-3.07512,-0.0834484,-0.00523715,0,0,0,0,0,0.92488,-0.0834484,-1368637120,197172516,-1368637120,197172516,1494518647,-1368637120,-1367083392,-1367083392,0.261799,-0.261799,1.41693e-05,-1.5,-nan,0,0,3,0.962392,-0.0835737,0,0,0,0,-0.00982055,-0.00927583
850,-3.34207e-12,2.36722e-38,-1.59277e-06,-3.40794e-12,2.36698e-38,-3.90305e-12,-1.1375e-13,0,0,-3.06561,-0.0902557,-0.00381279,0,0,0,0,0,0.934394,-0.0902557,-1368637120,197172516,-1368637120,197172516,1494518647,-1368637120,-1367083392,-1367083392,0.261799,-0.261799,1.3414e-05,-1.5,-nan,0,0,3,0.960244,-0.0844318,0,0,0,0,-0.0115801,-0.0106146
860,-3.34207e-12,2.36722e-38,-1.59277e-06,-3.40794e-12,2.36698e-38,0,-1.1375e-13,0,0,-4.55331,-4.76863,0.0221957,0,0,0,0,0,-0.553311,-4.76863,-1368637120,197172516,-1368637120,197172516,1494518647,-1368637120,-1367083392,-1367083392,0.261799,-0.261799,1.26765e-05,-1.5,-nan,0,0,3,0.961869,-0.0845931,0,0,0,0,-0.00984429,-0.0101205
870,-3.34207e-12,2.36722e-38,-1.59277e-06,-3.40794e-12,2.36698e-38,-3.90305e-12,-1.13751e-13,0,0,-4.55331,-4.76863,0.0221957,0,0,0,0,0,-0.553311,-4.76863,-1368637120,197172516,-1368637120,197172516,1494518647,-1368637120,-1367083392,-1367083392,0.261799,-0.261799,1.21505e-05,-1.5,-nan,0,0,3,0.961662,-0.0848056,0,0,0,0,-0.00984429,-0.0101205
880,-3.34207e-12,2.36722e-38,-1.59277e-06,-3.40794e-12,2.36698e-38,0,-1.13751e-13,0,0,-3.08521,-0.0974013,-0.00638407,0,0,0,0,0,0.914786,-0.0974013,-1368637120,197172516,-1368637120,197172516,1494518647,-1368637120,-1367083392,-1367083392,0.261799,-0.261799,1.14312e-05,-1.5,-nan,0,0,3,0.945823,-0.0877955,0,0,0,0,-0.0268995,-0.0135973
890,-3.34207e-12,2.36722e-38,-1.59277e-06,-3.40794e-12,2.36698e-38,-3.90305e-12,-1.13752e-13,0,0,-3.03107,-0.0846503,-0.0487395,0,0,0,0,0,0.968935,-0.0846503,-1368637120,197172516,-1368637120,197172516,1494518647,-1368637120,-1367083392,-1367083392,0.261799,-0.261799,1.07544e-05,-1.5,-nan,0,0,3,0.95948,-0.085219,0,0,0,0,-0.00946776,-0.00980574
900,-3.34207e-12,2.36722e-38,-1.59277e-06,-3.40794e-12,2.36698e-38,0,-1.13752e-13,0,0,-3.01592,-0.0754517,-0.0359589,0,0,0,0,0,0.984077,-0.0754517,-1368637120,197172516,-1368637120,197172516,1494518647,-1368637120,-1367083392,-1367083392,0.261799,-0.261799,1.00974e-05,-1.5,-nan,0,0,3,0.966328,-0.0851081,0,0,0,0,0.00711538,-0.00906949
910,-3.34207e-12,2.36722e-38,-1.59277e-06,-3.40794e-12,2.36698e-38,-3.90305e-12,-1.13753e-13,0,0,-3.00725,-0.077032,-0.0361618,0,0,0,0,0,0.992754,-0.077032,-1368637120,197172516,-1368637120,197172516,1494518647,-1368637120,-1367083392,-1367083392,0.261799,-0.261799,9.58144e-06,-1.5,-nan,0,0,3,0.972128,-0.0842041,0,0,0,0,0.0146101,-0.00645603
920,-3.34207e-12,2.36722e-38,-1.59277e-06,-3.40794e-12,2.36698e-38,0,-1.13753e-13,0,0,-3.00725,-0.077032,-0.0361618,0,0,0,0,0,0.992754,-0.077032,-1368637120,197172516,-1368637120,197172516,1494518647,-1368637120,-1367083392,-1367083392,0.261799,-0.261799,9.24047e-06,-1.5,-nan,0,0,3,0.972391,-0.0843203,0,0,0,0,0.0146101,-0.00645603
930,-3.34207e-12,2.36722e-38,-1.59277e-06,-3.40794e-12,2.36698e-38,-3.90305e-12,-1.13754e-13,0,0,-3.04008,-0.0653021,-0.0280716,0,0,0,0,0,0.959923,-0.0653021,-1368637120,197172516,-1368637120,197172516,1494518647,-1368637120,-1367083392,-1367083392,0.261799,-0.261799,8.72977e-06,-1.5,-nan,0,0,3,0.968825,-0.0820434,0,0,0,0,-0.000562923,-0.00286413
940,-3.34207e-12,2.36722e-38,-1.59277e-06,-3.40794e-12,2.36698e-38,0,-1.13754e-13,0,0,-3.02805,-0.0720229,-0.0407997,0,0,0,0,0,0.971948,-0.0720229,-1368637120,197172516,-1368637120,197172516,1494518647,-1368637120,-1367083392,-1367083392,0.261799,-0.261799,8.21359e-06,-1.5,-nan,0,0,3,0.967866,-0.0822728,0,0,0,0,-0.00293345,-0.00309433
950,-3.34207e-12,2.36722e-38,-1.59277e-06,-3.40794e-12,2.36698e-38,-3.90305e-12,-1.13755e-13,0,0,-3.01372,-0.0718017,-0.0350729,0,0,0,0,0,0.986284,-0.0718017,-1368637120,197172516,-1368637120,197172516,1494518647,-1368637120,-1367083392,-1367083392,0.240645,-0.261799,7.72792e-06,-1.5,-nan,0,0,3,0.96772,-0.0766864,0,0,0,0,-0.015227,0.00685748
960,-3.34207e-12,2.36722e-38,-1.59277e-06,-3.40794e-12,2.36698e-38,0,-1.13756e-13,0,0,-3.06751,-0.0780993,0.010585,0,0,0,0,0,0.932487,-0.0780993,-1368637120,197172516,-1368637120,197172516,1494518647,-1368637120,-1367083392,-1367083392,0.241902,-0.261799,7.27097e-06,-1.5,-nan,0,0,3,0.969554,-0.076857,0,0,0,0,0.00588085,0.00639135
970,-3.34207e-12,2.36722e-38,-1.59277e-06,-3.40794e-12,2.36698e-38,-3.90305e-12,-1.13756e-13,0,0,-3.03249,-0.0787293,-0.032606,0,0,0,0,0,0.967513,-0.0787293,-1368637120,197172516,-1368637120,197172516,1494518647,-1368637120,-1367083392,-1367083392,0.242751,-0.261799,6.88533e-06,-1.5,-nan,0,0,3,0.968233,-0.0770998,0,0,0,0,0.00820955,0.00635523
980,-3.34207e-12,2.36722e-38,-1.59277e-06,-3.40794e-12,2.36698e-38,0,-1.13757e-13,0,0,-3.03249,-0.0787293,-0.032606,0,0,0,0,0,0.967513,-0.0787293,-1368637120,197172516,-1368637120,197172516,1494518647,-1368637120,-1367083392,-1367083392,0.242293,-0.261799,6.5864e-06,-1.5,-nan,0,0,3,0.968414,-0.0769599,0,0,0,0,0.00820955,0.00635523
990,-3.34207e-12,2.36722e-38,-1.59277e-06,-3.40794e-12,2.36698e-38,-3.90305e-12,-1.13757e-13,0,0,-3.05736,-0.0786852,-0.00514353,0,0,0,0,0,0.942639,-0.0786852,-1368637120,197172516,-1368637120,197172516,1494518647,-1368637120,-1367083392,-1367083392,0.248603,-0.261799,6.19695e-06,-1.5,-nan,0,0,3,0.963528,-0.0778601,0,0,0,0,-0.0168271,0.00411275
1000,-3.34207e-12,2.36722e-38,-1.59277e-06,-3.40794e-12,2.36698e-38,0,-1.13758e-13,0,0,-3.08318,-0.0701623,0.00408071,0,0,0,0,0,0.916824,-0.0701623,-1368637120,197172516,-1368637120,197172516,1494518647,-1368637120,-1367083392,-1367083392,0.244607,-0.261799,5.84226e-06,-1.5,-nan,0,0,3,0.95305,-0.0772181,0,0,0,0,-0.0305282,0.00537592
1010,-3.34207e-12,2.36722e-38,-1.59277e-06,-3.40794e-12,2.36698e-38,-3.90305e-12,-1.13758e-13,0,0,-3.06885,-0.0769615,0.0206797,0,0,0,0,0,0.931152,-0.0769615,-1368637120,197172516,-1368637120,197172516,1494518647,-1368637120,-1367083392,-1367083392,0.242466,-0.261799,5.48533e-06,-1.5,-nan,0,0,3,0.940625,-0.0767597,0,0,0,0,-0.0491943,0.00580316
1020,-3.34207e-12,2.36722e-38,-1.59277e-06,-3.40794e-12,2.36698e-38,0,-1.13759e-13,0,0,-3.03988,-0.0740152,0.00907011,0,0,0,0,0,0.960124,-0.0740152,-1368637120,197172516,-1368637120,197172516,1494518647,-1368637120,-1367083392,-1367083392,0.235937,-0.261799,5.16099e-06,-1.5,-nan,0,0,3,0.951473,-0.0754282,0,0,0,0,-0.0325414,0.00725122
1030,-3.34207e-12,2.36722e-38,-1.59277e-06,-3.40794e-12,2.36698e-38,-3.90305e-12,-1.13759e-13,0,0,-3.00246,-0.0840468,-0.00500704,0,0,0,0,0,0.997539,-0.0840468,-1368637120,197172516,-1368637120,197172516,1494518647,-1368637120,-1367083392,-1367083392,0.2404,-0.261799,4.9275e-06,-1.5,-nan,0,0,3,0.958585,-0.0762814,0,0,0,0,-0.0160583,0.00613746
1040,-3.34207e-12,2.36722e-38,-1.59277e-06,-3.40794e-12,2.36698e-38,0,-1.1376e-13,0,0,-3.00246,-0.0840468,-0.00500704,0,0,0,0,0,0.997539,-0.0840468,-1368637120,197172516,-1368637120,197172516,1494518647,-1368637120,-1367083392,-1367083392,0.240018,-0.261799,4.75215e-06,-1.5,-nan,0,0,3,0.958279,-0.0761648,0,0,0,0,-0.0160583,0.00613746
1050,-3.34207e-12,2.36722e-38,-1.59277e-06,-3.40794e-12,2.36698e-38,-3.90305e-12,-1.1376e-13,0,0,-3.0392,-0.0766415,0.00204136,0,0,0,0,0,0.960798,-0.0766415,-1368637120,197172516,-1368637120,197172516,1494518647,-1368637120,-1367083392,-1367083392,0.24098,-0.261799,4.48015e-06,-1.5,-nan,0,0,3,0.958195,-0.0762897,0,0,0,0,-0.0206543,0.00576857
1060,-3.34207e-12,2.36722e-38,-1.59277e-06,-3.40794e-12,2.36698e-38,0,-1.13761e-13,0,0,-3.09162,-0.0788447,0.0241101,0,0,0,0,0,0.908377,-0.0788447,-1368637120,197172516,-1368637120,197172516,1494518647,-1368637120,-1367083392,-1367083392,0.242535,-0.261799,4.19727e-06,-1.5,-nan,0,0,3,0.956006,-0.0764428,0,0,0,0,-0.0251003,0.00506628
1070,-3.34207e-12,2.36722e-38,-1.59277e-06,-3.40794e-12,2.36698e-38,-3.90305e-12,-1.13762e-13,0,0,-3.06957,-0.0764885,0.01823,0,0,0,0,0,0.930429,-0.0764885,-1368637120,197172516,-1368637120,197172516,1494518647,-1368637120,-1367083392,-1367083392,0.240993,-0.261799,3.95002e-06,-1.5,-nan,0,0,3,0.942646,-0.0761367,0,0,0,0,-0.0406467,0.0054265
1080,-3.34207e-12,2.36722e-38,-1.59277e-06,-3.40794e-12,2.36698e-38,0,-1.13762e-13,0,0,-3.02103,-0.0532128,-0.0168022,0,0,0,0,0,0.978972,-0.0532128,-1368637120,197172516,-1368637120,197172516,1494518647,-1368637120,-1367083392,-1367083392,0.240029,-0.261799,3.73283e-06,-1.5,-nan,0,0,3,0.948471,-0.0758996,0,0,0,0,-0.0345709,0.0055519
1090,-3.34207e-12,2.36722e-38,-1.59277e-06,-3.40794e-12,2.36698e-38,-3.90305e-12,-1.13763e-13,0,0,-3.02103,-0.0532128,-0.0168022,0,0,0,0,0,0.978972,-0.0532128,-1368637120,197172516,-1368637120,197172516,1494518647,-1368637120,-1367083392,-1367083392,0.239647,-0.261799,3.57795e-06,-1.5,-nan,0,0,3,0.947745,-0.0757831,0,0,0,0,-0.0345709,0.0055519
1100,-3.34207e-12,2.36722e-38,-1.59277e-06,-3.40794e-12,2.36698e-38,0,-1.13763e-13,0,0,-3.02103,-0.0532128,-0.0168022,0,0,0,0,0,0.978972,-0.0532128,-1368637120,197172516,-1368637120,197172516,1494518647,-1368637120,-1367083392,-1367083392,0.239248,-0.261799,3.42246e-06,-1.5,-nan,0,0,3,0.946984,-0.0756609,0,0,0,0,-0.0345709,0.0055519
1110,-3.34207e-12,2.36722e-38,-1.59277e-06,-3.40794e-12,2.36698e-38,-3.90305e-12,-1.13764e-13,0,0,-3.01611,-0.0648063,0.000181356,0,0,0,0,0,0.983887,-0.0648063,-1368637120,197172516,-1368637120,197172516,1494518647,-1368637120,-1367083392,-1367083392,0.232893,-0.261799,3.22009e-06,-1.5,-nan,0,0,3,0.958186,-0.0743993,0,0,0,0,-0.00814516,0.00703601
1120,-3.34207e-12,2.36722e-38,-1.59277e-06,-3.40794e-12,2.36698e-38,0,-1.13764e-13,0,0,-2.98347,-0.0672387,-0.0350086,0,0,0,0,0,1.01653,-0.0672387,-1368637120,197172516,-1368637120,197172516,1494518647,-1368637120,-1367083392,-1367083392,0.216181,-0.261799,3.03668e-06,-1.5,-nan,0,0,3,0.964081,-0.0718956,0,0,0,0,0.00677971,0.0127162
1130,-3.34207e-12,2.36722e-38,-1.59277e-06,-3.40794e-12,2.36698e-38,-3.90305e-12,-1.13765e-13,0,0,-2.98347,-0.0672387,-0.0350086,0,0,0,0,0,1.01653,-0.0672387,-1368637120,197172516,-1368637120,197172516,1494518647,-1368637120,-1367083392,-1367083392,0.215265,-0.261799,2.90471e-06,-1.5,-nan,0,0,3,0.96423,-0.0716158,0,0,0,0,0.00677971,0.0127162
1140,-3.34207e-12,2.36722e-38,-1.59277e-06,-3.40794e-12,2.36698e-38,0,-1.13765e-13,0,0,-2.99003,-0.0613982,-0.0342512,0,0,0,0,0,1.00997,-0.0613982,-1368637120,197172516,-1368637120,197172516,1494518647,-1368637120,-1367083392,-1367083392,0.194725,-0.261799,2.74989e-06,-1.5,-nan,0,0,3,0.971826,-0.0677692,0,0,0,0,0.0107928,0.0180185
1150,-3.34207e-12,2.36722e-38,-1.59277e-06,-3.40794e-12,2.36698e-38,-3.90305e-12,-1.13766e-13,0,0,-3.0188,-0.0591215,-0.0242435,0,0,0,0,0,0.981201,-0.0591215,-1368637120,197172516,-1368637120,197172516,1494518647,-1368637120,-1367083392,-1367083392,0.182934,-0.261799,2.60873e-06,-1.5,-nan,0,0,3,0.982616,-0.0654469,0,0,0,0,0.0355675,0.0208135
1160,-3.34207e-12,2.36722e-38,-1.59277e-06,-3.40794e-12,2.36698e-38,0,-1.13766e-13,0,0,-3.03505,-0.0604991,-0.00435626,0,0,0,0,0,0.964948,-0.0604991,-1368637120,197172516,-1368637120,197172516,1494518647,-1368637120,-1367083392,-1367083392,0.161251,-0.261799,2.46985e-06,-1.5,-nan,0,0,3,0.983435,-0.0613119,0,0,0,0,0.0448772,0.0262484
1170,-3.34207e-12,2.36722e-38,-1.59277e-06,-3.40794e-12,2.36698e-38,-3.90305e-12,-1.13767e-13,0,0,-3.0518,-0.0633996,0.000507696,0,0,0,0,0,0.948196,-0.0633996,-1368637120,197172516,-1368637120,197172516,1494518647,-1368637120,-1367083392,-1367083392,0.167852,-0.261799,2.33885e-06,-1.5,-nan,0,0,3,0.984183,-0.0626698,0,0,0,0,0.0438784,0.0248094
1180,-3.34207e-12,2.36722e-38,-1.59277e-06,-3.40794e-12,2.36698e-38,0,-1.13768e-13,0,0,-3.0518,-0.0633996,0.000507696,0,0,0,0,0,0.948196,-0.0633996,-1368637120,197172516,-1368637120,197172516,1494518647,-1368637120,-1367083392,-1367083392,0.166066,-0.261799,2.23731e-06,-1.5,-nan,0,0,3,0.985149,-0.062124,0,0,0,0,0.0438784,0.0248094
1190,-3.34207e-12,2.36722e-38,-1.59277e-06,-3.40794e-12,2.36698e-38,-3.90305e-12,-1.13768e-13,0,0,-3.03947,-0.058811,-0.000398777,0,0,0,0,0,0.960525,-0.058811,-1368637120,197172516,-1368637120,197172516,1494518647,-1368637120,-1367083392,-1367083392,0.151602,-0.261799,2.11806e-06,-1.5,-nan,0,0,3,0.966361,-0.0587022,0,0,0,0,0.00904312,0.0269876
1200,-3.34207e-12,2.36722e-38,-1.59277e-06,-3.40794e-12,2.36698e-38,0,-1.13769e-13,0,0,-3.00198,-0.0482268,-0.014854,0,0,0,0,0,0.998021,-0.0482268,-1368637120,197172516,-1368637120,197172516,1494518647,-1368637120,-1367083392,-1367083392,0.140402,-0.261799,2.00517e-06,-1.5,-nan,0,0,3,0.98,-0.0572026,0,0,0,0,0.0266477,0.0311834
1210,-3.34207e-12,2.36722e-38,-1.59277e-06,-3.40794e-12,2.36698e-38,-3.90305e-12,-1.13769e-13,0,0,-2.98051,-0.0683272,-0.0316104,0,0,0,0,0,1.01949,-0.0683272,-1368637120,197172516,-1368637120,197172516,1494518647,-1368637120,-1367083392,-1367083392,0.136498,-0.261799,1.89877e-06,-1.5,-nan,0,0,3,0.992303,-0.0562293,0,0,0,0,0.0568415,0.0316627
1220,-3.34207e-12,2.36722e-38,-1.59277e-06,-3.40794e-12,2.36698e-38,0,-1.1377e-13,0,0,-2.98051,-0.0683272,-0.0316104,0,0,0,0,0,1.01949,-0.0683272,-1368637120,197172516,-1368637120,197172516,1494518647,-1368637120,-1367083392,-1367083392,0.134219,-0.261799,1.81625e-06,-1.5,-nan,0,0,3,0.993554,-0.0555327,0,0,0,0,0.0568415,0.0316627
1230,-3.34207e-12,2.36722e-38,-1.59277e-06,-3.40794e-12,2.36698e-38,-3.90305e-12,-1.1377e-13,0,0,-3.02326,-0.0623686,-1.26566e-05,0,0,0,0,0,0.976737,-0.0623686,-1368637120,197172516,-1368637120,197172516,1494518647,-1368637120,-1367083392,-1367083392,0.143864,-0.261799,1.71587e-06,-1.5,-nan,0,0,3,0.985689,-0.0573174,0,0,0,0,0.0312131,0.029126
1240,-3.34207e-12,2.36722e-38,-1.59277e-06,-3.40794e-12,2.36698e-38,0,-1.13771e-13,0,0,-3.03737,-0.0558893,0.0140255,0,0,0,0,0,0.962628,-0.0558893,-1368637120,197172516,-1368637120,197172516,1494518647,-1368637120,-1367083392,-1367083392,0.13541,-0.261799,1.62452e-06,-1.5,-nan,0,0,3,0.977351,-0.0552265,0,0,0,0,0.0143902,0.0302007
1250,-3.34207e-12,2.36722e-38,-1.59277e-06,-3.40794e-12,2.36698e-38,-3.90305e-12,-1.13779e-13,0,0,-3.04101,-0.0512571,0.0198563,0,0,0,0,0,0.958987,-0.0512571,-1368637120,197172516,-1368637120,197172516,1494518647,-1368637120,-1367083392,-1367083392,0.130741,-0.261799,1.53794e-06,-1.5,-nan,0,0,3,0.963788,-0.0538658,0,0,0,0,-0.00495087,0.0303445
1260,-3.34207e-12,2.36722e-38,-1.59277e-06,-3.40794e-12,2.36698e-38,0,-1.13771e-13,0,0,-3.03489,-0.0509785,0.0169743,0,0,0,0,0,0.965107,-0.0509785,-1368637120,197172516,-1368637120,197172516,1494518647,-1368637120,-1367083392,-1367083392,0.122834,-0.261799,1.45633e-06,-1.5,-nan,0,0,3,0.964616,-0.0519901,0,0,0,0,-0.00403982,0.0315245
1270,-3.34207e-12,2.36722e-38,-1.59277e-06,-3.40794e-12,2.36698e-38,-3.90305e-12,-1.13779e-13,0,0,-3.03489,-0.0509785,0.0169743,0,0,0,0,0,0.965107,-0.0509785,-1368637120,197172516,-1368637120,197172516,1494518647,-1368637120,-1367083392,-1367083392,0.120977,-0.261799,1.40454e-06,-1.5,-nan,0,0,3,0.964543,-0.0514227,0,0,0,0,-0.00403982,0.0315245
1280,-3.34207e-12,2.36722e-38,-1.59277e-06,-3.40794e-12,2.36698e-38,0,-1.13772e-13,0,0,-3.06358,-0.053939,0.0387708,0,0,0,0,0,0.936415,-0.053939,-1368637120,197172516,-1368637120,197172516,1494518647,-1368637120,-1367083392,-1367083392,0.1379,-0.261799,1.33253e-06,-1.5,-nan,0,0,3,0.962787,-0.053249,0,0,0,0,-0.00494387,0.0242266
1290,-3.34207e-12,2.36722e-38,-1.59277e-06,-3.40794e-12,2.36698e-38,-3.90305e-12,-1.13777e-13,0,0,-3.06131,-0.0515446,0.0358388,0,0,0,0,0,0.93869,-0.0515446,-1368637120,197172516,-1368637120,197172516,1494518647,-1368637120,-1367083392,-1367083392,0.120783,-0.261799,1.21709e-06,-1.5,-nan,0,0,3,0.962175,-0.0506763,0,0,0,0,-0.00531043,0.0300257
1300,-3.34207e-12,2.36722e-38,-1.59277e-06,-3.40794e-12,2.36698e-38,0,-1.13778e-13,0,0,-3.05367,-0.0468796,0.0263406,0,0,0,0,0,0.946328,-0.0468796,-1368637120,197172516,-1368637120,197172516,1494518647,-1368637120,-1367083392,-1367083392,0.113352,-0.261799,1.13066e-06,-1.5,-nan,0,0,3,0.963424,-0.0488304,0,0,0,0,0.00285751,0.0309528
1310,-3.34207e-12,2.36722e-38,-1.59277e-06,-3.40794e-12,2.36698e-38,-3.90305e-12,-1.13776e-13,0,0,-2.97661,-0.0473641,-0.0214568,0,0,0,0,0,1.02339,-0.0473641,-1368637120,197172516,-1368637120,197172516,1494518647,-1368637120,-1367083392,-1367083392,0.0948627,-0.261799,9.37217e-07,-1.5,-nan,0,0,3,0.965687,-0.0444355,0,0,0,0,0.00530026,0.033692
1320,-3.34207e-12,2.36722e-38,-1.59277e-06,-3.40794e-12,2.36698e-38,0,-1.13776e-13,0,0,-3.02623,-0.0443671,0.014107,0,0,0,0,0,0.973773,-0.0443671,-1368637120,197172516,-1368637120,197172516,1494518647,-1368637120,-1367083392,-1367083392,0.0876154,-0.261799,7.1438e-07,-1.5,-nan,0,0,3,0.974569,-0.0419774,0,0,0,0,0.0157536,0.0331612
1330,-3.34207e-12,2.36722e-38,-1.59277e-06,-3.40794e-12,2.36698e-38,-3.90305e-12,-1.13772e-13,0,0,-3.00271,-0.0482117,-0.0346006,0,0,0,0,0,0.997291,-0.0482117,-1368637120,197172516,-1368637120,197172516,1494518647,-1368637120,-1367083392,-1367083392,0.0718735,-0.261799,5.12173e-07,-1.5,-nan,0,0,3,0.975206,-0.0371978,0,0,0,0,0.0137411,0.0332295
1340,-3.34207e-12,2.36722e-38,-1.59277e-06,-3.40794e-12,2.36698e-38,0,-1.13773e-13,0,0,-3.04084,-0.0358679,0.0810832,0,0,0,0,0,0.959157,-0.0358679,-1368637120,197172516,-1368637120,197172516,1494518647,-1368637120,-1367083392,-1367083392,0.0677103,-0.261799,3.56535e-07,-1.5,-nan,0,0,3,0.983571,-0.0346026,0,0,0,0,0.0197594,0.0303435
1350,-3.34207e-12,2.36722e-38,-1.59277e-06,-3.40794e-12,2.36698e-38,-3.90305e-12,-1.13773e-13,0,0,-2.9638,-0.0485498,0.0762888,0,0,0,0,0,1.0362,-0.0485498,-1368637120,197172516,-1368637120,197172516,1494518647,-1368637120,-1367083392,-1367083392,0.052404,-0.261799,2.47009e-07,-1.5,-nan,0,0,3,0.985977,-0.0300217,0,0,0,0,0.0181002,0.0305547
1360,-3.34207e-12,2.36722e-38,-1.59277e-06,-3.40794e-12,2.36698e-38,0,-1.13774e-13,0,0,-2.9638,-0.0485498,0.0762888,0,0,0,0,0,1.0362,-0.0485498,-1368637120,197172516,-1368637120,197172516,1494518647,-1368637120,-1367083392,-1367083392,0.0469051,-0.261799,2.20231e-07,-1.5,-nan,0,0,3,0.986972,-0.0283412,0,0,0,0,0.0181002,0.0305547
1370,-3.34207e-12,2.36722e-38,-1.59277e-06,-3.40794e-12,2.36698e-38,-3.90305e-12,-1.13775e-13,0,0,-2.9638,-0.0485498,0.0762888,0,0,0,0,0,1.0362,-0.0485498,-1368637120,197172516,-1368637120,197172516,1494518647,-1368637120,-1367083392,-1367083392,0.0439058,-0.261799,2.07192e-07,-1.5,-nan,0,0,3,0.987515,-0.0274246,0,0,0,0,0.0181002,0.0305547
1380,-3.34207e-12,2.36722e-38,-1.59277e-06,-3.40794e-12,2.36698e-38,0,-1.13775e-13,0,0,-2.9638,-0.0485498,0.0762888,0,0,0,0,0,1.0362,-0.0485498,-1368637120,197172516,-1368637120,197172516,1494518647,-1368637120,-1367083392,-1367083392,0.0416063,-0.261799,1.9778e-07,-1.5,-nan,0,0,3,0.987931,-0.0267218,0,0,0,0,0.0181002,0.0305547
1390,-3.34207e-12,2.36722e-38,-1.59277e-06,-3.40794e-12,2.36698e-38,-3.90305e-12,-1.1378e-13,0,0,-2.9638,-0.0485498,0.0762888,0,0,0,0,0,1.0362,-0.0485498,-1368637120,197172516,-1368637120,197172516,1494518647,-1368637120,-1367083392,-1367083392,0.0403066,-0.261799,1.92688e-07,-1.5,-nan,0,0,3,0.988167,-0.0263246,0,0,0,0,0.0181002,0.0305547
1400,-3.34207e-12,2.36722e-38,-1.59277e-06,-3.40794e-12,2.36698e-38,0,-1.1378e-13,0,0,-2.9638,-0.0485498,0.0762888,0,0,0,0,0,1.0362,-0.0485498,-1368637120,197172516,-1368637120,197172516,1494518647,-1368637120,-1367083392,-1367083392,0.038607,-0.261799,1.8659e-07,-1.5,-nan,0,0,3,0.988474,-0.0258052,0,0,0,0,0.0181002,0.0305547
1410,-3.34207e-12,2.36722e-38,-1.59277e-06,-3.40794e-12,2.36698e-38,-3.90305e-12,-1.13781e-13,0,0,-2.9638,-0.0485498,0.0762888,0,0,0,0,0,1.0362,-0.0485498,-1368637120,197172516,-1368637120,197172516,1494518647,-1368637120,-1367083392,-1367083392,0.0365075,-0.261799,1.78848e-07,-1.5,-nan,0,0,3,0.988854,-0.0251636,0,0,0,0,0.0181002,0.0305547
1420,-3.34207e-12,2.36722e-38,-1.59277e-06,-3.40794e-12,2.36698e-38,0,-1.13781e-13,0,0,-2.9638,-0.0485498,0.0762888,0,0,0,0,0,1.0362,-0.0485498,-1368637120,197172516,-1368637120,197172516,1494518647,-1368637120,-1367083392,-1367083392,0.0340081,-0.261799,1.70029e-07,-1.5,-nan,0,0,3,0.989307,-0.0243997,0,0,0,0,0.0181002,0.0305547
1430,-3.34207e-12,2.36722e-38,-1.59277e-06,-3.40794e-12,2.36698e-38,-3.90305e-12,-1.13782e-13,0,0,-2.9638,-0.0485498,0.0762888,0,0,0,0,0,1.0362,-0.0485498,-1368637120,197172516,-1368637120,197172516,1494518647,-1368637120,-1367083392,-1367083392,0.0318086,-0.261799,1.6264e-07,-1.5,-nan,0,0,3,0.989705,-0.0237276,0,0,0,0,0.0181002,0.0305547
1440,-3.34207e-12,2.36722e-38,-1.59277e-06,-3.40794e-12,2.36698e-38,0,-1.13789e-13,0,0,-2.9638,-0.0485498,0.0762888,0,0,0,0,0,1.0362,-0.0485498,-1368637120,197172516,-1368637120,197172516,1494518647,-1368637120,-1367083392,-1367083392,0.0296091,-0.261799,1.55579e-07,-1.5,-nan,0,0,3,0.990103,-0.0230554,0,0,0,0,0.0181002,0.0305547
1450,-3.34207e-12,2.36722e-38,-1.59277e-06,-3.40794e-12,2.36698e-38,-3.90305e-12,-1.1379e-13,0,0,-2.9638,-0.0485498,0.0762888,0,0,0,0,0,1.0362,-0.0485498,-1368637120,197172516,-1368637120,197172516,1494518647,-1368637120,-1367083392,-1367083392,0.0269097,-0.261799,1.47287e-07,-1.5,-nan,0,0,3,0.990592,-0.0222304,0,0,0,0,0.0181002,0.0305547
1460,-3.34207e-12,2.36722e-38,-1.59277e-06,-3.40794e-12,2.36698e-38,0,-1.1379e-13,0,0,-2.9638,-0.0485498,0.0762888,0,0,0,0,0,1.0362,-0.0485498,-1368637120,197172516,-1368637120,197172516,1494518647,-1368637120,-1367083392,-1367083392,0.0244102,-0.261799,1.40024e-07,-1.5,-nan,0,0,3,0.991045,-0.0214666,0,0,0,0,0.0181002,0.0305547
1470,-3.34207e-12,2.36722e-38,-1.59277e-06,-3.40794e-12,2.36698e-38,-3.90305e-12,-1.13791e-13,0,0,-2.9638,-0.0485498,0.0762888,0,0,0,0,0,1.0362,-0.0485498,-1368637120,197172516,-1368637120,197172516,1494518647,-1368637120,-1367083392,-1367083392,0.0223107,-0.261799,1.34214e-07,-1.5,-nan,0,0,3,0.991425,-0.0208249,0,0,0,0,0.0181002,0.0305547
1480,-3.34207e-12,2.36722e-38,-1.59277e-06,-3.40794e-12,2.36698e-38,0,-1.13792e-13,0,0,-2.9638,-0.0485498,0.0762888,0,0,0,0,0,1.0362,-0.0485498,-1368637120,197172516,-1368637120,197172516,1494518647,-1368637120,-1367083392,-1367083392,0.0198112,-0.261799,1.27589e-07,-1.5,-nan,0,0,3,0.991877,-0.0200611,0,0,0,0,0.0181002,0.0305547
1490,-3.34207e-12,2.36722e-38,-1.59277e-06,-3.40794e-12,2.36698e-38,-3.90305e-12,-1.13792e-13,0,0,-2.9638,-0.0485498,0.0762888,0.992329,-0.0192975,0.018055,0.0304784,0,1.0362,-0.0485498,-1368637120,197172516,-1368637120,197172516,1494518647,-1368637120,-1367083392,-1367083392,0.0174272,-0.261799,1.21298e-07,-1.5,-nan,0,0,3,0.992329,-0.0192975,0,0,0,0,0.018055,0.0304784
1500,-3.34207e-12,2.36722e-38,-1.59277e-06,-3.40794e-12,2.36698e-38,0,-1.13793e-13,0,0,-2.9638,-0.0485498,0.0762888,0.992706,-0.0186622,0.017866,0.0301593,0,1.0362,-0.0485498,-1368637120,197172516,-1368637120,197172516,1494518647,-1368637120,-1367083392,-1367083392,0.0158271,-0.261799,1.16265e-07,-1.5,-nan,0,0,3,0.992706,-0.0186622,0,0,0,0,0.017866,0.0301593
1510,-3.34207e-12,2.36722e-38,-1.59277e-06,-3.40794e-12,2.36698e-38,-3.90305e-12,-1.13793e-13,0,0,-2.9638,-0.0485498,0.0762888,0.993096,-0.018004,0.0176701,0.0298286,0,1.0362,-0.0485498,-1368637120,197172516,-1368637120,197172516,1494518647,-1368637120,-1367083392,-1367083392,0.0141692,-0.261799,1.11212e-07,-1.5,-nan,0,0,3,0.993096,-0.018004,0,0,0,0,0.0176701,0.0298286
1520,-3.34207e-12,2.36722e-38,-1.59277e-06,-3.40794e-12,2.36698e-38,0,-1.13794e-13,0,0,-2.9638,-0.0485498,0.0762888,0.993412,-0.0174703,0.0175115,0.0295609,0,1.0362,-0.0485498,-1368637120,197172516,-1368637120,197172516,1494518647,-1368637120,-1367083392,-1367083392,0.0128246,-0.261799,1.07255e-07,-1.5,-nan,0,0,3,0.993412,-0.0174703,0,0,0,0,0.0175115,0.0295609
1530,-3.34207e-12,2.36722e-38,-1.59277e-06,-3.40794e-12,2.36698e-38,-3.90305e-12,-1.13794e-13,0,0,-2.9638,-0.0485498,0.0762888,0.993794,-0.016825,0.0173195,0.0292368,0,1.0362,-0.0485498,-1368637120,197172516,-1368637120,197172516,1494518647,-1368637120,-1367083392,-1367083392,0.011199,-0.261799,1.02805e-07,-1.5,-nan,0,0,3,0.993794,-0.016825,0,0,0,0,0.0173195,0.0292368
1540,-3.34207e-12,2.36722e-38,-1.59277e-06,-3.40794e-12,2.36698e-38,0,-1.13795e-13,0,0,-2.9638,-0.0485498,0.0762888,0.994206,-0.0161295,0.0171123,0.0288871,0,1.0362,-0.0485498,-1368637120,197172516,-1368637120,197172516,1494518647,-1368637120,-1367083392,-1367083392,0.00944781,-0.261799,9.79323e-08,-1.5,-nan,0,0,3,0.994206,-0.0161295,0,0,0,0,0.0171123,0.0288871
1550,-3.34207e-12,2.36722e-38,-1.59277e-06,-3.40794e-12,2.36698e-38,-3.90305e-12,-1.13795e-13,0,0,-2.9638,-0.0485498,0.0762888,0.99463,-0.0154138,0.0168992,0.0285273,0,1.0362,-0.0485498,-1368637120,197172516,-1368637120,197172516,1494518647,-1368637120,-1367083392,-1367083392,0.00764577,-0.261799,9.31034e-08,-1.5,-nan,0,0,3,0.99463,-0.0154138,0,0,0,0,0.0168992,0.0285273
1560,-3.34207e-12,2.36722e-38,-1.59277e-06,-3.40794e-12,2.36698e-38,0,-1.13796e-13,0,0,-2.9638,-0.0485498,0.0762888,0.994999,-0.014791,0.0167139,0.0282145,0,1.0362,-0.0485498,-1368637120,197172516,-1368637120,197172516,1494518647,-1368637120,-1367083392,-1367083392,0.00607699,-0.261799,8.90613e-08,-1.5,-nan,0,0,3,0.994999,-0.014791,0,0,0,0,0.0167139,0.0282145
1570,-3.34207e-12,2.36722e-38,-1.59277e-06,-3.40794e-12,2.36698e-38,-3.90305e-12,-1.13796e-13,0,0,-2.9638,-0.0485498,0.0762888,0.995347,-0.0142029,0.0165389,0.0279192,0,1.0362,-0.0485498,-1368637120,197172516,-1368637120,197172516,1494518647,-1368637120,-1367083392,-1367083392,0.00459568,-0.261799,8.53661e-08,-1.5,-nan,0,0,3,0.995347,-0.0142029,0,0,0,0,0.0165389,0.0279192
1580,-3.34207e-12,2.36722e-38,-1.59277e-06,-3.40794e-12,2.36698e-38,0,-1.13797e-13,0,0,-2.9638,-0.0485498,0.0762888,0.995757,-0.0135112,0.0163329,0.0275714,0,1.0362,-0.0485498,-1368637120,197172516,-1368637120,197172516,1494518647,-1368637120,-1367083392,-1367083392,0.00285402,-0.261799,8.11568e-08,-1.5,-nan,0,0,3,0.995757,-0.0135112,0,0,0,0,0.0163329,0.0275714
1590,-3.34207e-12,2.36722e-38,-1.59277e-06,-3.40794e-12,2.36698e-38,-3.90305e-12,-1.13798e-13,0,0,-2.9638,-0.0485498,0.0762888,0.996114,-0.0129095,0.0161538,0.027269,0,1.0362,-0.0485498,-1368637120,197172516,-1368637120,197172516,1494518647,-1368637120,-1367083392,-1367083392,0.00133842,-0.261799,7.76298e-08,-1.5,-nan,0,0,3,0.996114,-0.0129095,0,0,0,0,0.0161538,0.027269
1600,-3.34207e-12,2.36722e-38,-1.59277e-06,-3.40794e-12,2.36698e-38,0,-1.13798e-13,0,0,-2.9638,-0.0485498,0.0762888,0.99645,-0.0123411,0.0159847,0.0269836,0,1.0362,-0.0485498,-1368637120,197172516,-1368637120,197172516,1494518647,-1368637120,-1367083392,-1367083392,-9.32576e-05,-0.261799,7.44089e-08,-1.5,-nan,0,0,3,0.99645,-0.0123411,0,0,0,0,0.0159847,0.0269836
1610,-3.34207e-12,2.36722e-38,-1.59277e-06,-3.40794e-12,2.36698e-38,-3.90305e-12,-1.13799e-13,0,0,-2.9638,-0.0485498,0.0762888,0.996831,-0.0116992,0.0157935,0.0266608,0,1.0362,-0.0485498,-1368637120,197172516,-1368637120,197172516,1494518647,-1368637120,-1367083392,-1367083392,-0.00170947,-0.261799,7.08823e-08,-1.5,-nan,0,0,3,0.996831,-0.0116992,0,0,0,0,0.0157935,0.0266608
1620,-3.34207e-12,2.36722e-38,-1.59277e-06,-3.40794e-12,2.36698e-38,0,-1.13799e-13,0,0,-2.9638,-0.0485498,0.0762888,0.997253,-0.0109867,0.015581,0.0263021,0,1.0362,-0.0485498,-1368637120,197172516,-1368637120,197172516,1494518647,-1368637120,-1367083392,-1367083392,-0.00350268,-0.261799,6.71043e-08,-1.5,-nan,0,0,3,0.997253,-0.0109867,0,0,0,0,0.015581,0.0263021
1630,-3.34207e-12,2.36722e-38,-1.59277e-06,-3.40794e-12,2.36698e-38,-3.90305e-12,-1.138e-13,0,0,-2.9638,-0.0485498,0.0762888,0.997532,-0.0105162,0.0154412,0.026066,0,1.0362,-0.0485498,-1368637120,197172516,-1368637120,197172516,1494518647,-1368637120,-1367083392,-1367083392,-0.00468834,-0.261799,6.47163e-08,-1.5,-nan,0,0,3,0.997532,-0.0105162,0,0,0,0,0.0154412,0.026066
1640,-3.34207e-12,2.36722e-38,-1.59277e-06,-3.40794e-12,2.36698e-38,0,-1.138e-13,0,0,-2.9638,-0.0485498,0.0762888,0.997868,-0.00994724,0.0152718,0.0257802,0,1.0362,-0.0485498,-1368637120,197172516,-1368637120,197172516,1494518647,-1368637120,-1367083392,-1367083392,-0.00612119,-0.261799,6.19038e-08,-1.5,-nan,0,0,3,0.997868,-0.00994724,0,0,0,0,0.0152718,0.0257802
1650,-3.34207e-12,2.36722e-38,-1.59277e-06,-3.40794e-12,2.36698e-38,-3.90305e-12,-1.13801e-13,0,0,-2.9638,-0.0485498,0.0762888,0.998247,-0.00930872,0.0150815,0.025459,0,1.0362,-0.0485498,-1368637120,197172516,-1368637120,197172516,1494518647,-1368637120,-1367083392,-1367083392,-0.00772869,-0.261799,5.8848e-08,-1.5,-nan,0,0,3,0.998247,-0.00930872,0,0,0,0,0.0150815,0.025459
1660,-3.34207e-12,2.36722e-38,-1.59277e-06,-3.40794e-12,2.36698e-38,0,-1.13801e-13,0,0,-2.9638,-0.0485498,0.0762888,0.998576,-0.00875291,0.0149162,0.0251798,0,1.0362,-0.0485498,-1368637120,197172516,-1368637120,197172516,1494518647,-1368637120,-1367083392,-1367083392,-0.00912873,-0.261799,5.62931e-08,-1.5,-nan,0,0,3,0.998576,-0.00875291,0,0,0,0,0.0149162,0.0251798
1670,-3.34207e-12,2.36722e-38,-1.59277e-06,-3.40794e-12,2.36698e-38,-3.90305e-12,-1.13802e-13,0,0,-2.9638,-0.0485498,0.0762888,0.998931,-0.00815393,0.0147378,0.0248786,0,1.0362,-0.0485498,-1368637120,197172516,-1368637120,197172516,1494518647,-1368637120,-1367083392,-1367083392,-0.0106369,-0.261799,5.36251e-08,-1.5,-nan,0,0,3,0.998931,-0.00815393,0,0,0,0,0.0147378,0.0248786
1680,-3.34207e-12,2.36722e-38,-1.59277e-06,-3.40794e-12,2.36698e-38,0,-1.13802e-13,0,0,-2.9638,-0.0485498,0.0762888,0.999282,-0.00756211,0.0145615,0.024581,0,1.0362,-0.0485498,-1368637120,197172516,-1368637120,197172516,1494518647,-1368637120,-1367083392,-1367083392,-0.012127,-0.261799,5.10835e-08,-1.5,-nan,0,0,3,0.999282,-0.00756211,0,0,0,0,0.0145615,0.024581
1690,-3.34207e-12,2.36722e-38,-1.59277e-06,-3.40794e-12,2.36698e-38,-3.90305e-12,-1.13803e-13,0,0,-2.9638,-0.0485498,0.0762888,0.999599,-0.0070256,0.0144018,0.0243115,0,1.0362,-0.0485498,-1368637120,197172516,-1368637120,197172516,1494518647,-1368637120,-1367083392,-1367083392,-0.0134782,-0.261799,4.87653e-08,-1.5,-nan,0,0,3,0.999599,-0.0070256,0,0,0,0,0.0144018,0.0243115
1700,-3.34207e-12,2.36722e-38,-1.59277e-06,-3.40794e-12,2.36698e-38,0,-1.13803e-13,0,0,-2.9638,-0.0485498,0.0762888,0.999928,-0.00647096,0.0142367,0.0240328,0,1.0362,-0.0485498,-1368637120,197172516,-1368637120,197172516,1494518647,-1368637120,-1367083392,-1367083392,-0.0148752,-0.261799,4.66482e-08,-1.5,-nan,0,0,3,0.999928,-0.00647096,0,0,0,0,0.0142367,0.0240328
1710,-3.34207e-12,2.36722e-38,-1.59277e-06,-3.40794e-12,2.36698e-38,-3.90305e-12,-1.13804e-13,0,0,-2.9638,-0.0485498,0.0762888,1.00027,-0.00589927,0.0140664,0.0237454,0,1.0362,-0.0485498,-1368637120,197172516,-1368637120,197172516,1494518647,-1368637120,-1367083392,-1367083392,-0.0163146,-0.261799,4.44373e-08,-1.5,-nan,0,0,3,1.00027,-0.00589927,0,0,0,0,0.0140664,0.0237454
1720,-3.34207e-12,2.36722e-38,-1.59277e-06,-3.40794e-12,2.36698e-38,0,-1.13805e-13,0,0,-2.9638,-0.0485498,0.0762888,1.00057,-0.00538087,0.0139122,0.023485,0,1.0362,-0.0485498,-1368637120,197172516,-1368637120,197172516,1494518647,-1368637120,-1367083392,-1367083392,-0.0176204,-0.261799,4.2508e-08,-1.5,-nan,0,0,3,1.00057,-0.00538087,0,0,0,0,0.0139122,0.023485
1730,-3.34207e-12,2.36722e-38,-1.59277e-06,-3.40794e-12,2.36698e-38,-3.90305e-12,-1.13805e-13,0,0,-2.9638,-0.0485498,0.0762888,1.00088,-0.00486815,0.0137597,0.0232276,0,1.0362,-0.0485498,-1368637120,197172516,-1368637120,197172516,1494518647,-1368637120,-1367083392,-1367083392,-0.0189119,-0.261799,4.06625e-08,-1.5,-nan,0,0,3,1.00088,-0.00486815,0,0,0,0,0.0137597,0.0232276
1740,-3.34207e-12,2.36722e-38,-1.59277e-06,-3.40794e-12,2.36698e-38,0,-1.13806e-13,0,0,-2.9638,-0.0485498,0.0762888,1.00116,-0.004384,0.0136157,0.0229844,0,1.0362,-0.0485498,-1368637120,197172516,-1368637120,197172516,1494518647,-1368637120,-1367083392,-1367083392,-0.0201314,-0.261799,3.89754e-08,-1.5,-nan,0,0,3,1.00116,-0.004384,0,0,0,0,0.0136157,0.0229844
1750,-3.34207e-12,2.36722e-38,-1.59277e-06,-3.40794e-12,2.36698e-38,-3.90305e-12,-1.13806e-13,0,0,-2.9638,-0.0485498,0.0762888,1.00145,-0.00390492,0.0134731,0.0227438,0,1.0362,-0.0485498,-1368637120,197172516,-1368637120,197172516,1494518647,-1368637120,-1367083392,-1367083392,-0.0213381,-0.261799,3.73583e-08,-1.5,-nan,0,0,3,1.00145,-0.00390492,0,0,0,0,0.0134731,0.0227438
1760,-3.34207e-12,2.36722e-38,-1.59277e-06,-3.40794e-12,2.36698e-38,0,-1.13807e-13,0,0,-2.9638,-0.0485498,0.0762888,1.00174,-0.00340851,0.0133254,0.0224944,0,1.0362,-0.0485498,-1368637120,197172516,-1368637120,197172516,1494518647,-1368637120,-1367083392,-1367083392,-0.0225884,-0.261799,3.57347e-08,-1.5,-nan,0,0,3,1.00174,-0.00340851,0,0,0,0,0.0133254,0.0224944
1770,-3.34207e-12,2.36722e-38,-1.59277e-06,-3.40794e-12,2.36698e-38,-3.90305e-12,-1.13807e-13,0,0,-2.9638,-0.0485498,0.0762888,1.00203,-0.00291754,0.0131793,0.0222477,0,1.0362,-0.0485498,-1368637120,197172516,-1368637120,197172516,1494518647,-1368637120,-1367083392,-1367083392,-0.0238249,-0.261799,3.41817e-08,-1.5,-nan,0,0,3,1.00203,-0.00291754,0,0,0,0,0.0131793,0.0222477
1780,-3.34207e-12,2.36722e-38,-1.59277e-06,-3.40794e-12,2.36698e-38,0,-1.13808e-13,0,0,-2.9638,-0.0485498,0.0762888,1.00232,-0.00243196,0.0130347,0.0220038,0,1.0362,-0.0485498,-1368637120,197172516,-1368637120,197172516,1494518647,-1368637120,-1367083392,-1367083392,-0.0250478,-0.261799,3.26962e-08,-1.5,-nan,0,0,3,1.00232,-0.00243196,0,0,0,0,0.0130347,0.0220038
