timestamp,A_x,A_y,A_z,P,Q,R,Phi,Theta,Psi,poseX,poseY,poseZ,state_X,state_Y,state_Z,state_VzB,state_Bx,state_By,state_Bz,p1_x,p1_y,p2_x,p2_y,p3_x,p3_y,p4_x,p4_y,roll,pitch,yaw,alt,targetHeading,highLevelState,lowLevelState,gateNumber,filtered_x,filtered_y,x_OT,y_OT,vx_OT,vy_OTfiltered_vx,filtered_vy
10,0,0,0,0,0,0,0,0,0,0,0,0,0,0,0,0,0,0,0,0,0,0,0,0,0,0,0,0,-0.261799,0.00779127,-1.5,3.94113e+12,0,0,3,0,0,0,0,0,0,0,0
20,0,0,0,0,0,0,0,0,0,0,0,0,0,0,0,0,0,0,0,0,0,0,0,0,0,0,0,0,-0.261799,0.00759074,-1.5,3.94113e+12,0,0,3,0,0,0,0,0,0,0,0
30,-3.2124e-12,2.52135e-38,-1.56902e-06,-3.27827e-12,2.52111e-38,-3.40903e-12,-1.13703e-13,0,0,0,0,0,0,0,0,0,0,0,0,0,0,0,0,0,0,0,0,0,-0.261799,0.00218737,-1.5,3.94113e+12,0,0,3,0,0,0,0,0,0,0,0
40,-3.2124e-12,2.52135e-38,-1.56902e-06,-3.27827e-12,2.52111e-38,0,-1.13703e-13,0,0,0,0,0,0,0,0,0,0,0,0,0,0,0,0,0,0,0,0,0,-0.261799,0.00212677,-1.5,3.94113e+12,0,0,3,0,0,0,0,0,0,0,0
50,-3.2124e-12,2.52135e-38,-1.56902e-06,-3.27827e-12,2.52111e-38,-3.40903e-12,-1.13704e-13,0,0,0,0,0,0,0,0,0,0,0,0,0,0,0,0,0,0,0,0,0,-0.261799,0.00207202,-1.5,3.94113e+12,0,0,3,0,0,0,0,0,0,0,0
60,-3.2124e-12,2.52135e-38,-1.56902e-06,-3.27827e-12,2.52111e-38,0,-1.13704e-13,0,0,0,0,0,0,0,0,0,0,0,0,0,0,0,0,0,0,0,0,0,-0.261799,0.00200648,-1.5,3.94113e+12,0,0,3,0,0,0,0,0,0,0,0
70,-3.2124e-12,2.52135e-38,-1.56902e-06,-3.27827e-12,2.52111e-38,-3.40903e-12,-1.13705e-13,0,0,0,0,0,0,0,0,0,0,0,0,0,0,0,0,0,0,0,0,0,-0.261799,0.00194692,-1.5,3.94113e+12,0,0,3,0,0,0,0,0,0,0,0
80,-3.2124e-12,2.52135e-38,-1.56902e-06,-3.27827e-12,2.52111e-38,0,-1.13705e-13,0,0,0,0,0,0,0,0,0,0,0,0,0,0,0,0,0,0,0,0,0,-0.261799,0.00188914,-1.5,3.94113e+12,0,0,3,0,0,0,0,0,0,0,0
90,-3.2124e-12,2.52135e-38,-1.56902e-06,-3.27827e-12,2.52111e-38,-3.40903e-12,-1.13706e-13,0,0,0,0,0,0,0,0,0,0,0,0,0,0,0,0,0,0,0,0,0,-0.261799,0.00182938,-1.5,3.94113e+12,0,0,3,0,0,0,0,0,0,0,0
100,-3.2124e-12,2.52135e-38,-1.56902e-06,-3.27827e-12,2.52111e-38,0,-1.13706e-13,0,0,0,0,0,0,0,0,0,0,0,0,0,0,0,0,0,0,0,0,0,-0.261799,0.00175715,-1.5,3.94113e+12,0,0,3,0,0,0,0,0,0,0,0
110,-3.2124e-12,2.52135e-38,-1.56902e-06,-3.27827e-12,2.52111e-38,-3.40903e-12,-1.13707e-13,0,0,0,0,0,0,0,0,0,0,0,0,0,0,0,0,0,0,0,0,0,-0.261799,0.00170847,-1.5,3.94113e+12,0,0,3,0,0,0,0,0,0,0,0
120,-3.2124e-12,2.52135e-38,-1.56902e-06,-3.27827e-12,2.52111e-38,0,-1.13708e-13,0,0,0,0,0,0,0,0,0,0,0,0,0,0,0,0,0,0,0,0,0,-0.261799,0.00165104,-1.5,3.94113e+12,0,0,3,0,0,0,0,0,0,0,0
130,-3.2124e-12,2.52135e-38,-1.56902e-06,-3.27827e-12,2.52111e-38,-3.40903e-12,-1.13708e-13,0,0,0,0,0,0,0,0,0,0,0,0,0,0,0,0,0,0,0,0,0,-0.261799,0.00159881,-1.5,3.94113e+12,0,0,3,0,0,0,0,0,0,0,0
140,-3.2124e-12,2.52135e-38,-1.56902e-06,-3.27827e-12,2.52111e-38,0,-1.13709e-13,0,0,0,0,0,0,0,0,0,0,0,0,-1368616704,537183607,-1368616704,537183607,49215342,-1368616704,-1368604256,-1368604256,0,-0.261799,0.00155138,-1.5,3.94113e+12,0,0,3,0,0,0,0,0,0,0,0
150,-3.2124e-12,2.52135e-38,-1.56902e-06,-3.27827e-12,2.52111e-38,-3.40903e-12,-1.13709e-13,0,0,0,0,0,0,0,0,0,0,0,0,-1368616704,537183607,-1368616704,537183607,49215342,-1368616704,-1368604256,-1368604256,0,-0.261799,0.00150534,-1.5,3.94113e+12,0,0,3,0,0,0,0,0,0,0,0
160,-3.2124e-12,2.52135e-38,-1.56902e-06,-3.27827e-12,2.52111e-38,0,-1.1371e-13,0,0,0,0,0,0,0,0,0,0,0,0,-1368616704,537183607,-1368616704,537183607,49215342,-1368616704,-1368604256,-1368604256,0,-0.261799,0.00145769,-1.5,3.94113e+12,0,0,3,0,0,0,0,0,0,0,0
170,-3.2124e-12,2.52135e-38,-1.56902e-06,-3.27827e-12,2.52111e-38,-3.40903e-12,-1.1371e-13,0,0,0,0,0,0,0,0,0,0,0,0,-1368616704,537183607,-1368616704,537183607,49215342,-1368616704,-1368604256,-1368604256,0,-0.261799,0.00141443,-1.5,3.94113e+12,0,0,3,0,0,0,0,0,0,0,0
180,-3.2124e-12,2.52135e-38,-1.56902e-06,-3.27827e-12,2.52111e-38,0,-1.13711e-13,0,0,0,0,0,0,0,0,0,0,0,0,-1368616704,537183607,-1368616704,537183607,49215342,-1368616704,-1368604256,-1368604256,0,-0.261799,0.00136969,-1.5,3.94113e+12,0,0,3,0,0,0,0,0,0,0,0
190,-3.2124e-12,2.52135e-38,-1.56902e-06,-3.27827e-12,2.52111e-38,-3.40903e-12,-1.13711e-13,0,0,0,0,0,0,0,0,0,0,0,0,-1368616704,537183607,-1368616704,537183607,49215342,-1368616704,-1368604256,-1368604256,0,-0.261799,0.00132905,-1.5,3.94113e+12,0,0,3,0,0,0,0,0,0,0,0
200,-3.2124e-12,2.52135e-38,-1.56902e-06,-3.27827e-12,2.52111e-38,0,-1.13712e-13,0,0,0,0,0,0,0,0,0,0,0,0,-1368616704,537183607,-1368616704,537183607,49215342,-1368616704,-1368604256,-1368604256,0,-0.261799,0.00128961,-1.5,3.94113e+12,0,0,3,0,0,0,0,0,0,0,0
210,-3.2124e-12,2.52135e-38,-1.56902e-06,-3.27827e-12,2.52111e-38,-3.40903e-12,-1.13712e-13,0,0,0,0,0,0,0,0,0,0,0,0,-1368616704,537183607,-1368616704,537183607,49215342,-1368616704,-1368604256,-1368604256,0,-0.261799,0.00125388,-1.5,3.94113e+12,0,0,3,0,0,0,0,0,0,0,0
220,-3.2124e-12,2.52135e-38,-1.56902e-06,-3.27827e-12,2.52111e-38,0,-1.13713e-13,0,0,0,0,0,0,0,0,0,0,0,0,-1368616704,537183607,-1368616704,537183607,49215342,-1368616704,-1368604256,-1368604256,0,-0.261799,0.0012142,-1.5,3.94113e+12,0,0,3,0,0,0,0,0,0,0,0
230,-3.2124e-12,2.52135e-38,-1.56902e-06,-3.27827e-12,2.52111e-38,-3.40903e-12,-1.13714e-13,0,0,0,0,0,0,0,0,0,0,0,0,-1368616704,537183607,-1368616704,537183607,49215342,-1368616704,-1368604256,-1368604256,0,-0.261799,0.00117816,-1.5,3.94113e+12,0,0,3,0,0,0,0,0,0,0,0
240,-3.2124e-12,2.52135e-38,-1.56902e-06,-3.27827e-12,2.52111e-38,0,-1.13714e-13,0,0,0,0,0,0,0,0,0,0,0,0,-1368616704,537183607,-1368616704,537183607,49215342,-1368616704,-1368604256,-1368604256,0,-0.261799,0.00114087,-1.5,3.94113e+12,0,0,3,0,0,0,0,0,0,0,0
250,-3.2124e-12,2.52135e-38,-1.56902e-06,-3.27827e-12,2.52111e-38,-3.40903e-12,-1.13715e-13,0,0,0,0,0,0,0,0,0,0,0,0,-1368616704,537183607,-1368616704,537183607,49215342,-1368616704,-1368604256,-1368604256,0,-0.261799,0.00110701,-1.5,3.94113e+12,0,0,3,0,0,0,0,0,0,0,0
260,-3.2124e-12,2.52135e-38,-1.56902e-06,-3.27827e-12,2.52111e-38,0,-1.13715e-13,0,0,0,0,0,0,0,0,0,0,0,0,-1368616704,537183607,-1368616704,537183607,49215342,-1368616704,-1368604256,-1368604256,0,-0.261799,0.001048,-1.5,3.94113e+12,0,0,3,0,0,0,0,0,0,0,0
270,-3.2124e-12,2.52135e-38,-1.56902e-06,-3.27827e-12,2.52111e-38,-3.40903e-12,-1.13716e-13,0,0,0,0,0,0,0,0,0,0,0,0,-1368616704,537183607,-1368616704,537183607,49215342,-1368616704,-1368604256,-1368604256,0,-0.261799,0.0010169,-1.5,3.94113e+12,0,0,3,0,0,0,0,0,0,0,0
280,-3.2124e-12,2.52135e-38,-1.56902e-06,-3.27827e-12,2.52111e-38,0,-1.13716e-13,0,0,0,0,0,0,0,0,0,0,0,0,-1368616704,537183607,-1368616704,537183607,49215342,-1368616704,-1368604256,-1368604256,0,-0.261799,0.000984732,-1.5,3.94113e+12,0,0,3,0,0,0,0,0,0,0,0
290,-3.2124e-12,2.52135e-38,-1.56902e-06,-3.27827e-12,2.52111e-38,-3.40903e-12,-1.13717e-13,0,0,0,0,0,0,0,0,0,0,0,0,-1368616704,537183607,-1368616704,537183607,49215342,-1368616704,-1368604256,-1368604256,0,-0.261799,0.000955519,-1.5,3.94113e+12,0,0,3,0,0,0,0,0,0,0,0
300,-3.2124e-12,2.52135e-38,-1.56902e-06,-3.27827e-12,2.52111e-38,0,-1.13717e-13,0,0,0,0,0,0,0,0,0,0,0,0,-1368616704,537183607,-1368616704,537183607,49215342,-1368616704,-1368604256,-1368604256,0,-0.261799,0.000927158,-1.5,3.94113e+12,0,0,3,0,0,0,0,0,0,0,0
310,-3.2124e-12,2.52135e-38,-1.56902e-06,-3.27827e-12,2.52111e-38,-3.40903e-12,-1.13718e-13,0,0,0,0,0,0,0,0,0,0,0,0,-1368616704,537183607,-1368616704,537183607,49215342,-1368616704,-1368604256,-1368604256,0,-0.261799,0.000899638,-1.5,3.94113e+12,0,0,3,0,0,0,0,0,0,0,0
320,-3.2124e-12,2.52135e-38,-1.56902e-06,-3.27827e-12,2.52111e-38,0,-1.13718e-13,0,0,0,0,0,0,0,0,0,0,0,0,-1368616704,537183607,-1368616704,537183607,49215342,-1368616704,-1368604256,-1368604256,0,-0.261799,0.000864114,-1.5,3.94113e+12,0,0,3,0,0,0,0,0,0,0,0
330,-3.2124e-12,2.52135e-38,-1.56902e-06,-3.27827e-12,2.52111e-38,-3.40903e-12,-1.13719e-13,0,0,0,0,0,0,0,0,0,0,0,0,-1368616704,537183607,-1368616704,537183607,49215342,-1368616704,-1368604256,-1368604256,0,-0.261799,0.000838466,-1.5,3.94113e+12,0,0,3,0,0,0,0,0,0,0,0
340,-3.2124e-12,2.52135e-38,-1.56902e-06,-3.27827e-12,2.52111e-38,0,-1.13719e-13,0,0,0,0,0,0,0,0,0,0,0,0,-1368616704,537183607,-1368616704,537183607,49215342,-1368616704,-1368604256,-1368604256,0,-0.261799,0.000813579,-1.5,3.94113e+12,0,0,3,0,0,0,0,0,0,0,0
350,-3.2124e-12,2.52135e-38,-1.56902e-06,-3.27827e-12,2.52111e-38,-3.40903e-12,-1.1372e-13,0,0,0,0,0,0,0,0,0,0,0,0,-1368616704,537183607,-1368616704,537183607,49215342,-1368616704,-1368604256,-1368604256,0,-0.261799,0.000789431,-1.5,3.94113e+12,0,0,3,0,0,0,0,0,0,0,0
360,-3.2124e-12,2.52135e-38,-1.56902e-06,-3.27827e-12,2.52111e-38,0,-1.13721e-13,0,0,0,0,0,0,0,0,0,0,0,0,-1368616704,537183607,-1368616704,537183607,49215342,-1368616704,-1368604256,-1368604256,0,-0.261799,0.000764445,-1.5,3.94113e+12,0,0,3,0,0,0,0,0,0,0,0
370,-3.2124e-12,2.52135e-38,-1.56902e-06,-3.27827e-12,2.52111e-38,-3.40903e-12,-1.13721e-13,0,0,0,0,0,0,0,0,0,0,0,0,-1368616704,537183607,-1368616704,537183607,49215342,-1368616704,-1368604256,-1368604256,0,-0.261799,0.00074326,-1.5,3.94113e+12,0,0,3,0,0,0,0,0,0,0,0
380,-3.2124e-12,2.52135e-38,-1.56902e-06,-3.27827e-12,2.52111e-38,0,-1.13722e-13,0,0,0,0,0,0,0,0,0,0,0,0,-1368616704,537183607,-1368616704,537183607,49215342,-1368616704,-1368604256,-1368604256,0,-0.261799,0.00072413,-1.5,3.94113e+12,0,0,3,0,0,0,0,0,0,0,0
390,-3.2124e-12,2.52135e-38,-1.56902e-06,-3.27827e-12,2.52111e-38,-3.40903e-12,-1.13722e-13,0,0,0,0,0,0,0,0,0,0,0,0,-1368616704,537183607,-1368616704,537183607,49215342,-1368616704,-1368604256,-1368604256,0,-0.261799,0.000702637,-1.5,3.94113e+12,0,0,3,0,0,0,0,0,0,0,0
400,-3.2124e-12,2.52135e-38,-1.56902e-06,-3.27827e-12,2.52111e-38,0,-1.13723e-13,0,0,0,0,0,0,0,0,0,0,0,0,-1368616704,537183607,-1368616704,537183607,49215342,-1368616704,-1368604256,-1368604256,0,-0.261799,0.000680413,-1.5,3.94113e+12,0,0,3,0,0,0,0,0,0,0,0
410,-3.2124e-12,2.52135e-38,-1.56902e-06,-3.27827e-12,2.52111e-38,-3.40903e-12,-1.13723e-13,0,0,0,0,0,0,0,0,0,0,0,0,-1368616704,537183607,-1368616704,537183607,49215342,-1368616704,-1368604256,-1368604256,0,-0.261799,0.000660217,-1.5,3.94113e+12,0,0,3,0,0,0,0,0,0,0,0
420,-3.2124e-12,2.52135e-38,-1.56902e-06,-3.27827e-12,2.52111e-38,0,-1.13724e-13,0,0,0,0,0,0,0,0,0,0,0,0,-1368616704,537183607,-1368616704,537183607,49215342,-1368616704,-1368604256,-1368604256,0,-0.261799,0.000640621,-1.5,3.94113e+12,0,0,3,0,0,0,0,0,0,0,0
430,-3.2124e-12,2.52135e-38,-1.56902e-06,-3.27827e-12,2.52111e-38,-3.40903e-12,-1.13724e-13,0,0,0,0,0,0,0,0,0,0,0,0,-1368616704,537183607,-1368616704,537183607,49215342,-1368616704,-1368604256,-1368604256,0,-0.261799,0.000620345,-1.5,3.94113e+12,0,0,3,0,0,0,0,0,0,0,0
440,-3.2124e-12,2.52135e-38,-1.56902e-06,-3.27827e-12,2.52111e-38,0,-1.13725e-13,0,0,0,0,0,0,0,0,0,0,0,0,-1368616704,537183607,-1368616704,537183607,49215342,-1368616704,-1368604256,-1368604256,0,-0.261799,0.000601932,-1.5,3.94113e+12,0,0,3,0,0,0,0,0,0,0,0
450,-3.2124e-12,2.52135e-38,-1.56902e-06,-3.27827e-12,2.52111e-38,-3.40903e-12,-1.13725e-13,0,0,0,0,0,0,0,0,0,0,0,0,-1368616704,537183607,-1368616704,537183607,49215342,-1368616704,-1368604256,-1368604256,0,-0.261799,0.000584066,-1.5,3.94113e+12,0,0,3,0,0,0,0,0,0,0,0
460,-3.2124e-12,2.52135e-38,-1.56902e-06,-3.27827e-12,2.52111e-38,0,-1.13726e-13,0,0,0,0,0,0,0,0,0,0,0,0,-1368616704,537183607,-1368616704,537183607,49215342,-1368616704,-1368604256,-1368604256,0,-0.261799,0.00056673,-1.5,3.94113e+12,0,0,3,0,0,0,0,0,0,0,0
470,-3.2124e-12,2.52135e-38,-1.56902e-06,-3.27827e-12,2.52111e-38,-3.40903e-12,-1.13727e-13,0,0,0,0,0,0,0,0,0,0,0,0,-1368616704,537183607,-1368616704,537183607,49215342,-1368616704,-1368604256,-1368604256,0,-0.261799,0.000549908,-1.5,3.94113e+12,0,0,3,0,0,0,0,0,0,0,0
480,-3.2124e-12,2.52135e-38,-1.56902e-06,-3.27827e-12,2.52111e-38,0,-1.13727e-13,0,0,-3.15374,-0.0641868,-0.135621,0,0,0,0,0,0.846265,-0.0641868,-1368616704,537183607,-1368616704,537183607,49215342,-1368616704,-1368604256,-1368604256,0,-0.261799,0.000532504,-1.5,3.94113e+12,0,0,3,0,0,0,0,0,0,0,0
490,-3.2124e-12,2.52135e-38,-1.56902e-06,-3.27827e-12,2.52111e-38,-3.40903e-12,-1.13728e-13,0,0,-3.15374,-0.0641868,-0.135621,0,0,0,0,0,0.846265,-0.0641868,-1368616704,537183607,-1368616704,537183607,49215342,-1368616704,-1368604256,-1368604256,0,-0.261799,0.00051565,-1.5,3.94113e+12,0,0,3,0,0,0,0,0,0,0,0
500,-3.2124e-12,2.52135e-38,-1.56902e-06,-3.27827e-12,2.52111e-38,0,-1.13728e-13,0,0,-3.15374,-0.0641868,-0.135621,0,0,0,0,0,0.846265,-0.0641868,-1368616704,537183607,-1368616704,537183607,49215342,-1368616704,-1368604256,-1368604256,0,-0.261799,0.000500345,-1.5,3.94113e+12,0,0,3,0,0,0,0,0,0,0,0
510,-3.2124e-12,2.52135e-38,-1.56902e-06,-3.27827e-12,2.52111e-38,-3.40903e-12,-1.13729e-13,0,0,-3.15374,-0.0641868,-0.135621,0,0,0,0,0,0.846265,-0.0641868,-1368616704,537183607,-1368616704,537183607,49215342,-1368616704,-1368604256,-1368604256,0,-0.261799,0.000484509,-1.5,3.94113e+12,0,0,3,0,0,0,0,0,0,0,0
520,-3.2124e-12,2.52135e-38,-1.56902e-06,-3.27827e-12,2.52111e-38,0,-1.13729e-13,0,0,-3.15374,-0.0641868,-0.135621,0,0,0,0,0,0.846265,-0.0641868,-1368616704,537183607,-1368616704,537183607,49215342,-1368616704,-1368604256,-1368604256,0,-0.261799,0.000471082,-1.5,3.94113e+12,0,0,3,0,0,0,0,0,0,0,0
530,-3.2124e-12,2.52135e-38,-1.56902e-06,-3.27827e-12,2.52111e-38,-3.40903e-12,-1.1373e-13,0,0,-3.15374,-0.0641868,-0.135621,0,0,0,0,0,0.846265,-0.0641868,-1368616704,537183607,-1368616704,537183607,49215342,-1368616704,-1368604256,-1368604256,0,-0.261799,0.000458027,-1.5,3.94113e+12,0,0,3,0,0,0,0,0,0,0,0
540,-3.2124e-12,2.52135e-38,-1.56902e-06,-3.27827e-12,2.52111e-38,0,-1.1373e-13,0,0,-3.15374,-0.0641868,-0.135621,0,0,0,0,0,0.846265,-0.0641868,-1368616704,537183607,-1368616704,537183607,49215342,-1368616704,-1368604256,-1368604256,0,-0.261799,0.00044353,-1.5,3.94113e+12,0,0,3,0,0,0,0,0,0,0,0
550,-3.2124e-12,2.52135e-38,-1.56902e-06,-3.27827e-12,2.52111e-38,-3.40903e-12,-1.13731e-13,0,0,-3.15374,-0.0641868,-0.135621,0,0,0,0,0,0.846265,-0.0641868,-1368616704,537183607,-1368616704,537183607,49215342,-1368616704,-1368604256,-1368604256,0,-0.261799,0.000429501,-1.5,3.94113e+12,0,0,3,0,0,0,0,0,0,0,0
560,-3.2124e-12,2.52135e-38,-1.56902e-06,-3.27827e-12,2.52111e-38,0,-1.13731e-13,0,0,-3.15374,-0.0641868,-0.135621,0,0,0,0,0,0.846265,-0.0641868,-1368616704,537183607,-1368616704,537183607,49215342,-1368616704,-1368604256,-1368604256,0,-0.261799,0.000415916,-1.5,3.94113e+12,0,0,3,0,0,0,0,0,0,0,0
570,-3.2124e-12,2.52135e-38,-1.56902e-06,-3.27827e-12,2.52111e-38,-3.40903e-12,-1.13732e-13,0,0,-3.15374,-0.0641868,-0.135621,0,0,0,0,0,0.846265,-0.0641868,-1368616704,537183607,-1368616704,537183607,49215342,-1368616704,-1368604256,-1368604256,0,-0.261799,0.000403578,-1.5,3.94113e+12,0,0,3,0,0,0,0,0,0,0,0
580,-3.2124e-12,2.52135e-38,-1.56902e-06,-3.27827e-12,2.52111e-38,0,-1.13732e-13,0,0,-3.15374,-0.0641868,-0.135621,0,0,0,0,0,0.846265,-0.0641868,-1368616704,537183607,-1368616704,537183607,49215342,-1368616704,-1368604256,-1368604256,0,-0.261799,0.000390812,-1.5,3.94113e+12,0,0,3,0,0,0,0,0,0,0,0
590,-3.2124e-12,2.52135e-38,-1.56902e-06,-3.27827e-12,2.52111e-38,-3.40903e-12,-1.13733e-13,0,0,-3.15374,-0.0641868,-0.135621,0,0,0,0,0,0.846265,-0.0641868,-1368616704,537183607,-1368616704,537183607,49215342,-1368616704,-1368604256,-1368604256,0,-0.261799,0.000379219,-1.5,3.94113e+12,0,0,3,0,0,0,0,0,0,0,0
600,-3.2124e-12,2.52135e-38,-1.56902e-06,-3.27827e-12,2.52111e-38,0,-1.13734e-13,0,0,-3.15374,-0.0641868,-0.135621,0,0,0,0,0,0.846265,-0.0641868,-1368616704,537183607,-1368616704,537183607,49215342,-1368616704,-1368604256,-1368604256,0,-0.261799,0.000367963,-1.5,3.94113e+12,0,0,3,0,0,0,0,0,0,0,0
610,-3.2124e-12,2.52135e-38,-1.56902e-06,-3.27827e-12,2.52111e-38,-3.40903e-12,-1.13734e-13,0,0,-3.15374,-0.0641868,-0.135621,0,0,0,0,0,0.846265,-0.0641868,-1368616704,537183607,-1368616704,537183607,49215342,-1368616704,-1368604256,-1368604256,0,-0.261799,0.000356317,-1.5,3.94113e+12,0,0,3,0,0,0,0,0,0,0,0
620,-3.2124e-12,2.52135e-38,-1.56902e-06,-3.27827e-12,2.52111e-38,0,-1.13735e-13,0,0,-3.15374,-0.0641868,-0.135621,0,0,0,0,0,0.846265,-0.0641868,-1368616704,537183607,-1368616704,537183607,49215342,-1368616704,-1368604256,-1368604256,0,-0.261799,0.000345047,-1.5,3.94113e+12,0,0,3,0,0,0,0,0,0,0,0
630,-3.2124e-12,2.52135e-38,-1.56902e-06,-3.27827e-12,2.52111e-38,-3.40903e-12,-1.13735e-13,0,0,-3.15374,-0.0641868,-0.135621,0,0,0,0,0,0.846265,-0.0641868,-1368616704,537183607,-1368616704,537183607,49215342,-1368616704,-1368604256,-1368604256,0,-0.261799,0.000334805,-1.5,3.94113e+12,0,0,3,0,0,0,0,0,0,0,0
640,-3.2124e-12,2.52135e-38,-1.56902e-06,-3.27827e-12,2.52111e-38,0,-1.13736e-13,0,0,-3.15374,-0.0641868,-0.135621,0,0,0,0,0,0.846265,-0.0641868,-1368616704,537183607,-1368616704,537183607,49215342,-1368616704,-1368604256,-1368604256,0,-0.261799,0.000324868,-1.5,3.94113e+12,0,0,3,0,0,0,0,0,0,0,0
650,-3.2124e-12,2.52135e-38,-1.56902e-06,-3.27827e-12,2.52111e-38,-3.40903e-12,-1.13736e-13,0,0,-3.15374,-0.0641868,-0.135621,0,0,0,0,0,0.846265,-0.0641868,-1368616704,537183607,-1368616704,537183607,49215342,-1368616704,-1368604256,-1368604256,0,-0.261799,0.000314586,-1.5,3.94113e+12,0,0,3,0,0,0,0,0,0,0,0
660,-3.2124e-12,2.52135e-38,-1.56902e-06,-3.27827e-12,2.52111e-38,0,-1.13737e-13,0,0,-3.15374,-0.0641868,-0.135621,0,0,0,0,0,0.846265,-0.0641868,-1368616704,537183607,-1368616704,537183607,49215342,-1368616704,-1368604256,-1368604256,0,-0.261799,0.000305253,-1.5,3.94113e+12,0,0,3,0,0,0,0,0,0,0,0
670,-3.2124e-12,2.52135e-38,-1.56902e-06,-3.27827e-12,2.52111e-38,-3.40903e-12,-1.13737e-13,0,0,-3.15374,-0.0641868,-0.135621,0,0,0,0,0,0.846265,-0.0641868,-1368616704,537183607,-1368616704,537183607,49215342,-1368616704,-1368604256,-1368604256,0,-0.261799,0.000295592,-1.5,3.94113e+12,0,0,3,0,0,0,0,0,0,0,0
680,-3.2124e-12,2.52135e-38,-1.56902e-06,-3.27827e-12,2.52111e-38,0,-1.13738e-13,0,0,-3.15374,-0.0641868,-0.135621,0,0,0,0,0,0.846265,-0.0641868,-1368616704,537183607,-1368616704,537183607,49215342,-1368616704,-1368604256,-1368604256,0,-0.261799,0.000286818,-1.5,3.94113e+12,0,0,3,0,0,0,0,0,0,0,0
690,-3.2124e-12,2.52135e-38,-1.56902e-06,-3.27827e-12,2.52111e-38,-3.40903e-12,-1.13738e-13,0,0,-3.15374,-0.0641868,-0.135621,0,0,0,0,0,0.846265,-0.0641868,-1368616704,537183607,-1368616704,537183607,49215342,-1368616704,-1368604256,-1368604256,0,-0.261799,0.000277741,-1.5,3.94113e+12,0,0,3,0,0,0,0,0,0,0,0
700,-3.2124e-12,2.52135e-38,-1.56902e-06,-3.27827e-12,2.52111e-38,0,-1.13739e-13,0,0,-3.15374,-0.0641868,-0.135621,0,0,0,0,0,0.846265,-0.0641868,-1368616704,537183607,-1368616704,537183607,49215342,-1368616704,-1368604256,-1368604256,0,-0.261799,0.000268404,-1.5,3.94113e+12,0,0,3,0,0,0,0,0,0,0,0
710,-3.2124e-12,2.52135e-38,-1.56902e-06,-3.27827e-12,2.52111e-38,-3.40903e-12,-1.1374e-13,0,0,-3.15374,-0.0641868,-0.135621,0,0,0,0,0,0.846265,-0.0641868,-1368616704,537183607,-1368616704,537183607,49215342,-1368616704,-1368604256,-1368604256,0,-0.261799,0.000256739,-1.5,3.94113e+12,0,0,3,0,0,0,0,0,0,0,0
720,-3.2124e-12,2.52135e-38,-1.56902e-06,-3.27827e-12,2.52111e-38,0,-1.1374e-13,0,0,-3.15374,-0.0641868,-0.135621,0,0,0,0,0,0.846265,-0.0641868,-1368616704,537183607,-1368616704,537183607,49215342,-1368616704,-1368604256,-1368604256,0,-0.261799,0.000249119,-1.5,3.94113e+12,0,0,3,0,0,0,0,0,0,0,0
730,-3.2124e-12,2.52135e-38,-1.56902e-06,-3.27827e-12,2.52111e-38,-3.40903e-12,-1.13741e-13,0,0,-3.15374,-0.0641868,-0.135621,0,0,0,0,0,0.846265,-0.0641868,-1368616704,537183607,-1368616704,537183607,49215342,-1368616704,-1368604256,-1368604256,0,-0.261799,0.000241234,-1.5,3.94113e+12,0,0,3,0,0,0,0,0,0,0,0
740,-3.2124e-12,2.52135e-38,-1.56902e-06,-3.27827e-12,2.52111e-38,0,-1.13741e-13,0,0,-3.15374,-0.0641868,-0.135621,0,0,0,0,0,0.846265,-0.0641868,-1368616704,537183607,-1368616704,537183607,49215342,-1368616704,-1368604256,-1368604256,0,-0.261799,0.000234074,-1.5,3.94113e+12,0,0,3,0,0,0,0,0,0,0,0
750,-3.2124e-12,2.52135e-38,-1.56902e-06,-3.27827e-12,2.52111e-38,-3.40903e-12,-1.13742e-13,0,0,-3.10457,-0.00591949,-0.23094,0,0,0,0,0,0.895433,-0.00591949,-1368616704,537183607,-1368616704,537183607,49215342,-1368616704,-1368604256,-1368604256,0,-0.261799,0.00022621,-1.5,3.94113e+12,0,0,3,0,0,0,0,0,0,0,0
760,-3.2124e-12,2.52135e-38,-1.56902e-06,-3.27827e-12,2.52111e-38,0,-1.13742e-13,0,0,-3.10457,-0.00591949,-0.23094,0,0,0,0,0,0.895433,-0.00591949,-1368616704,537183607,-1368616704,537183607,49215342,-1368616704,-1368604256,-1368604256,0,-0.261799,0.000219496,-1.5,3.94113e+12,0,0,3,0,0,0,0,0,0,0,0
770,-3.2124e-12,2.52135e-38,-1.56902e-06,-3.27827e-12,2.52111e-38,-3.40903e-12,-1.13743e-13,0,0,-3.10457,-0.00591949,-0.23094,0,0,0,0,0,0.895433,-0.00591949,-1368616704,537183607,-1368616704,537183607,49215342,-1368616704,-1368604256,-1368604256,0,-0.261799,0.000212553,-1.5,3.94113e+12,0,0,3,0,0,0,0,0,0,0,0
780,-3.2124e-12,2.52135e-38,-1.56902e-06,-3.27827e-12,2.52111e-38,0,-1.13743e-13,0,0,-3.10457,-0.00591949,-0.23094,0,0,0,0,0,0.895433,-0.00591949,-1368616704,537183607,-1368616704,537183607,49215342,-1368616704,-1368604256,-1368604256,0,-0.261799,0.000206244,-1.5,3.94113e+12,0,0,3,0,0,0,0,0,0,0,0
790,-3.2124e-12,2.52135e-38,-1.56902e-06,-3.27827e-12,2.52111e-38,-3.40903e-12,-1.13744e-13,0,0,-3.10457,-0.00591949,-0.23094,0,0,0,0,0,0.895433,-0.00591949,-1368616704,537183607,-1368616704,537183607,49215342,-1368616704,-1368604256,-1368604256,0,-0.261799,0.000200126,-1.5,3.94113e+12,0,0,3,0,0,0,0,0,0,0,0
800,-3.2124e-12,2.52135e-38,-1.56902e-06,-3.27827e-12,2.52111e-38,0,-1.13744e-13,0,0,-3.10457,-0.00591949,-0.23094,0,0,0,0,0,0.895433,-0.00591949,-1368616704,537183607,-1368616704,537183607,49215342,-1368616704,-1368604256,-1368604256,0,-0.261799,0.000194974,-1.5,3.94113e+12,0,0,3,0,0,0,0,0,0,0,0
810,-3.2124e-12,2.52135e-38,-1.56902e-06,-3.27827e-12,2.52111e-38,-3.40903e-12,-1.13745e-13,0,0,-3.10457,-0.00591949,-0.23094,0,0,0,0,0,0.895433,-0.00591949,-1368616704,537183607,-1368616704,537183607,49215342,-1368616704,-1368604256,-1368604256,0,-0.261799,0.000189187,-1.5,3.94113e+12,0,0,3,0,0,0,0,0,0,0,0
820,-3.2124e-12,2.52135e-38,-1.56902e-06,-3.27827e-12,2.52111e-38,0,-1.13745e-13,0,0,-3.10457,-0.00591949,-0.23094,0,0,0,0,0,0.895433,-0.00591949,-1368616704,537183607,-1368616704,537183607,49215342,-1368616704,-1368604256,-1368604256,0,-0.261799,0.000183199,-1.5,3.94113e+12,0,0,3,0,0,0,0,0,0,0,0
830,-3.2124e-12,2.52135e-38,-1.56902e-06,-3.27827e-12,2.52111e-38,-3.40903e-12,-1.13746e-13,0,0,-3.10457,-0.00591949,-0.23094,0,0,0,0,0,0.895433,-0.00591949,-1368616704,537183607,-1368616704,537183607,49215342,-1368616704,-1368604256,-1368604256,0,-0.261799,0.000177404,-1.5,3.94113e+12,0,0,3,0,0,0,0,0,0,0,0
840,-3.2124e-12,2.52135e-38,-1.56902e-06,-3.27827e-12,2.52111e-38,0,-1.13747e-13,0,0,-3.10457,-0.00591949,-0.23094,0,0,0,0,0,0.895433,-0.00591949,-1368616704,537183607,-1368616704,537183607,49215342,-1368616704,-1368604256,-1368604256,0,-0.261799,0.000172139,-1.5,3.94113e+12,0,0,3,0,0,0,0,0,0,0,0
850,-3.2124e-12,2.52135e-38,-1.56902e-06,-3.27827e-12,2.52111e-38,-3.40903e-12,-1.13747e-13,0,0,-3.10457,-0.00591949,-0.23094,0,0,0,0,0,0.895433,-0.00591949,-1368616704,537183607,-1368616704,537183607,49215342,-1368616704,-1368604256,-1368604256,0,-0.261799,0.00016669,-1.5,3.94113e+12,0,0,3,0,0,0,0,0,0,0,0
860,-3.2124e-12,2.52135e-38,-1.56902e-06,-3.27827e-12,2.52111e-38,0,-1.13748e-13,0,0,-3.12519,0.016779,-0.243755,0,0,0,0,0,0.874813,0.016779,-1368616704,537183607,-1368616704,537183607,49215342,-1368616704,-1368604256,-1368604256,0,-0.261799,0.000161418,-1.5,3.94113e+12,0,0,3,0,0,0,0,0,0,0,0
870,-3.2124e-12,2.52135e-38,-1.56902e-06,-3.27827e-12,2.52111e-38,-3.40903e-12,-1.13748e-13,0,0,-3.12519,0.016779,-0.243755,0,0,0,0,0,0.874813,0.016779,-1368616704,537183607,-1368616704,537183607,49215342,-1368616704,-1368604256,-1368604256,0,-0.261799,0.000156627,-1.5,3.94113e+12,0,0,3,0,0,0,0,0,0,0,0
880,-3.2124e-12,2.52135e-38,-1.56902e-06,-3.27827e-12,2.52111e-38,0,-1.13749e-13,0,0,-3.12519,0.016779,-0.243755,0,0,0,0,0,0.874813,0.016779,-1368616704,537183607,-1368616704,537183607,49215342,-1368616704,-1368604256,-1368604256,0,-0.261799,0.00015167,-1.5,3.94113e+12,0,0,3,0,0,0,0,0,0,0,0
890,-3.2124e-12,2.52135e-38,-1.56902e-06,-3.27827e-12,2.52111e-38,-3.40903e-12,-1.13749e-13,0,0,-3.12519,0.016779,-0.243755,0,0,0,0,0,0.874813,0.016779,-1368616704,537183607,-1368616704,537183607,49215342,-1368616704,-1368604256,-1368604256,0,-0.261799,0.000147168,-1.5,3.94113e+12,0,0,3,0,0,0,0,0,0,0,0
900,-3.2124e-12,2.52135e-38,-1.56902e-06,-3.27827e-12,2.52111e-38,0,-1.1375e-13,0,0,-3.12519,0.016779,-0.243755,0,0,0,0,0,0.874813,0.016779,-1368616704,537183607,-1368616704,537183607,49215342,-1368616704,-1368604256,-1368604256,0,-0.261799,0.000142513,-1.5,3.94113e+12,0,0,3,0,0,0,0,0,0,0,0
910,-3.2124e-12,2.52135e-38,-1.56902e-06,-3.27827e-12,2.52111e-38,-3.40903e-12,-1.1375e-13,0,0,-3.12519,0.016779,-0.243755,0,0,0,0,0,0.874813,0.016779,-1368616704,537183607,-1368616704,537183607,49215342,-1368616704,-1368604256,-1368604256,0,-0.261799,0.000138285,-1.5,3.94113e+12,0,0,3,0,0,0,0,0,0,0,0
920,-3.2124e-12,2.52135e-38,-1.56902e-06,-3.27827e-12,2.52111e-38,0,-1.13751e-13,0,0,-3.12519,0.016779,-0.243755,0,0,0,0,0,0.874813,0.016779,-1368616704,537183607,-1368616704,537183607,49215342,-1368616704,-1368604256,-1368604256,0,-0.261799,0.000133911,-1.5,3.94113e+12,0,0,3,0,0,0,0,0,0,0,0
930,-3.2124e-12,2.52135e-38,-1.56902e-06,-3.27827e-12,2.52111e-38,-3.40903e-12,-1.13751e-13,0,0,-3.12519,0.016779,-0.243755,0,0,0,0,0,0.874813,0.016779,-1368616704,537183607,-1368616704,537183607,49215342,-1368616704,-1368604256,-1368604256,0,-0.261799,0.000130202,-1.5,3.94113e+12,0,0,3,0,0,0,0,0,0,0,0
940,-3.2124e-12,2.52135e-38,-1.56902e-06,-3.27827e-12,2.52111e-38,0,-1.13752e-13,0,0,-3.12519,0.016779,-0.243755,0,0,0,0,0,0.874813,0.016779,-1368616704,537183607,-1368616704,537183607,49215342,-1368616704,-1368604256,-1368604256,0,-0.261799,0.000126339,-1.5,3.94113e+12,0,0,3,0,0,0,0,0,0,0,0
950,-3.2124e-12,2.52135e-38,-1.56902e-06,-3.27827e-12,2.52111e-38,-3.40903e-12,-1.13753e-13,0,0,-3.12519,0.016779,-0.243755,0,0,0,0,0,0.874813,0.016779,-1368616704,537183607,-1368616704,537183607,49215342,-1368616704,-1368604256,-1368604256,0,-0.261799,0.000122343,-1.5,3.94113e+12,0,0,3,0,0,0,0,0,0,0,0
960,-3.2124e-12,2.52135e-38,-1.56902e-06,-3.27827e-12,2.52111e-38,0,-1.13753e-13,0,0,-3.12519,0.016779,-0.243755,0,0,0,0,0,0.874813,0.016779,-1368616704,537183607,-1368616704,537183607,49215342,-1368616704,-1368604256,-1368604256,0,-0.261799,0.000118473,-1.5,3.94113e+12,0,0,3,0,0,0,0,0,0,0,0
970,-3.2124e-12,2.52135e-38,-1.56902e-06,-3.27827e-12,2.52111e-38,-3.40903e-12,-1.13754e-13,0,0,-3.12519,0.016779,-0.243755,0,0,0,0,0,0.874813,0.016779,-1368616704,537183607,-1368616704,537183607,49215342,-1368616704,-1368604256,-1368604256,0,-0.261799,0.000114957,-1.5,3.94113e+12,0,0,3,0,0,0,0,0,0,0,0
980,-3.2124e-12,2.52135e-38,-1.56902e-06,-3.27827e-12,2.52111e-38,0,-1.13754e-13,0,0,-3.12519,0.016779,-0.243755,0,0,0,0,0,0.874813,0.016779,-1368616704,537183607,-1368616704,537183607,49215342,-1368616704,-1368604256,-1368604256,0,-0.261799,0.000111545,-1.5,3.94113e+12,0,0,3,0,0,0,0,0,0,0,0
990,-3.2124e-12,2.52135e-38,-1.56902e-06,-3.27827e-12,2.52111e-38,-3.40903e-12,-1.13755e-13,0,0,-3.12519,0.016779,-0.243755,0,0,0,0,0,0.874813,0.016779,-1368616704,537183607,-1368616704,537183607,49215342,-1368616704,-1368604256,-1368604256,0,-0.261799,0.000108014,-1.5,3.94113e+12,0,0,3,0,0,0,0,0,0,0,0
1000,-3.2124e-12,2.52135e-38,-1.56902e-06,-3.27827e-12,2.52111e-38,0,-1.13755e-13,0,0,-3.12519,0.016779,-0.243755,0,0,0,0,0,0.874813,0.016779,-1368616704,537183607,-1368616704,537183607,49215342,-1368616704,-1368604256,-1368604256,0,-0.261799,0.000104598,-1.5,3.94113e+12,0,0,3,0,0,0,0,0,0,0,0
1010,-3.2124e-12,2.52135e-38,-1.56902e-06,-3.27827e-12,2.52111e-38,-3.40903e-12,-1.13756e-13,0,0,-3.12519,0.016779,-0.243755,0,0,0,0,0,0.874813,0.016779,-1368616704,537183607,-1368616704,537183607,49215342,-1368616704,-1368604256,-1368604256,0,-0.261799,0.000101493,-1.5,3.94113e+12,0,0,3,0,0,0,0,0,0,0,0
1020,-3.2124e-12,2.52135e-38,-1.56902e-06,-3.27827e-12,2.52111e-38,0,-1.13756e-13,0,0,-3.12519,0.016779,-0.243755,0,0,0,0,0,0.874813,0.016779,-1368616704,537183607,-1368616704,537183607,49215342,-1368616704,-1368604256,-1368604256,0,-0.261799,9.78815e-05,-1.5,3.94113e+12,0,0,3,0,0,0,0,0,0,0,0
1030,-3.2124e-12,2.52135e-38,-1.56902e-06,-3.27827e-12,2.52111e-38,-3.40903e-12,-1.13757e-13,0,0,-3.12519,0.016779,-0.243755,0,0,0,0,0,0.874813,0.016779,-1368616704,537183607,-1368616704,537183607,49215342,-1368616704,-1368604256,-1368604256,0,-0.261799,8.84262e-05,-1.5,3.94113e+12,0,0,3,0,0,0,0,0,0,0,0
1040,-3.2124e-12,2.52135e-38,-1.56902e-06,-3.27827e-12,2.52111e-38,0,-1.13757e-13,0,0,-3.12519,0.016779,-0.243755,0,0,0,0,0,0.874813,0.016779,-1368616704,537183607,-1368616704,537183607,49215342,-1368616704,-1368604256,-1368604256,0,-0.261799,8.56292e-05,-1.5,3.94113e+12,0,0,3,0,0,0,0,0,0,0,0
1050,-3.2124e-12,2.52135e-38,-1.56902e-06,-3.27827e-12,2.52111e-38,-3.40903e-12,-1.13758e-13,0,0,-3.12519,0.016779,-0.243755,0,0,0,0,0,0.874813,0.016779,-1368616704,537183607,-1368616704,537183607,49215342,-1368616704,-1368604256,-1368604256,0,-0.261799,8.30876e-05,-1.5,3.94113e+12,0,0,3,0,0,0,0,0,0,0,0
1060,-3.2124e-12,2.52135e-38,-1.56902e-06,-3.27827e-12,2.52111e-38,0,-1.13759e-13,0,0,-3.12519,0.016779,-0.243755,0,0,0,0,0,0.874813,0.016779,-1368616704,537183607,-1368616704,537183607,49215342,-1368616704,-1368604256,-1368604256,0,-0.261799,8.0785e-05,-1.5,3.94113e+12,0,0,3,0,0,0,0,0,0,0,0
1070,-3.2124e-12,2.52135e-38,-1.56902e-06,-3.27827e-12,2.52111e-38,-3.40903e-12,-1.13759e-13,0,0,-3.12519,0.016779,-0.243755,0,0,0,0,0,0.874813,0.016779,-1368616704,537183607,-1368616704,537183607,49215342,-1368616704,-1368604256,-1368604256,0,-0.261799,7.85462e-05,-1.5,3.94113e+12,0,0,3,0,0,0,0,0,0,0,0
1080,-3.2124e-12,2.52135e-38,-1.56902e-06,-3.27827e-12,2.52111e-38,0,-1.1376e-13,0,0,-3.10366,0.0435392,-0.214121,0,0,0,0,0,0.896342,0.0435392,-1368616704,537183607,-1368616704,537183607,49215342,-1368616704,-1368604256,-1368604256,0,-0.261799,7.62148e-05,-1.5,3.94113e+12,0,0,3,0,0,0,0,0,0,0,0
1090,-3.2124e-12,2.52135e-38,-1.56902e-06,-3.27827e-12,2.52111e-38,-3.40903e-12,-1.1376e-13,0,0,-3.10366,0.0435392,-0.214121,0,0,0,0,0,0.896342,0.0435392,-1368616704,537183607,-1368616704,537183607,49215342,-1368616704,-1368604256,-1368604256,0,-0.261799,7.38041e-05,-1.5,3.94113e+12,0,0,3,0,0,0,0,0,0,0,0
1100,-3.2124e-12,2.52135e-38,-1.56902e-06,-3.27827e-12,2.52111e-38,0,-1.13761e-13,0,0,-3.10366,0.0435392,-0.214121,0,0,0,0,0,0.896342,0.0435392,-1368616704,537183607,-1368616704,537183607,49215342,-1368616704,-1368604256,-1368604256,0,-0.261799,7.17587e-05,-1.5,3.94113e+12,0,0,3,0,0,0,0,0,0,0,0
1110,-3.2124e-12,2.52135e-38,-1.56902e-06,-3.27827e-12,2.52111e-38,-3.40903e-12,-1.13761e-13,0,0,-3.10366,0.0435392,-0.214121,0,0,0,0,0,0.896342,0.0435392,-1368616704,537183607,-1368616704,537183607,49215342,-1368616704,-1368604256,-1368604256,0,-0.261799,6.963e-05,-1.5,3.94113e+12,0,0,3,0,0,0,0,0,0,0,0
1120,-3.2124e-12,2.52135e-38,-1.56902e-06,-3.27827e-12,2.52111e-38,0,-1.13762e-13,0,0,-3.11776,0.0341773,-0.200595,0,0,0,0,0,0.882244,0.0341773,-1368616704,537183607,-1368616704,537183607,49215342,-1368616704,-1368604256,-1368604256,-0.153316,-0.261799,6.64779e-05,-1.5,3.94113e+12,0,0,3,0.881981,0.051393,0,0,0,0,-0.021946,0.093495
1130,-3.2124e-12,2.52135e-38,-1.56902e-06,-3.27827e-12,2.52111e-38,-3.40903e-12,-1.13762e-13,0,0,-3.11776,0.0341773,-0.200595,0,0,0,0,0,0.882244,0.0341773,-1368616704,537183607,-1368616704,537183607,49215342,-1368616704,-1368604256,-1368604256,-0.154731,-0.261799,6.47664e-05,-1.5,3.94113e+12,0,0,3,0.881695,0.0526084,0,0,0,0,-0.021946,0.093495
1140,-3.2124e-12,2.52135e-38,-1.56902e-06,-3.27827e-12,2.52111e-38,0,-1.13763e-13,0,0,-3.12607,0.0212838,-0.203346,0,0,0,0,0,0.873928,0.0212838,-1368616704,537183607,-1368616704,537183607,49215342,-1368616704,-1368604256,-1368604256,-0.109916,-0.261799,6.23387e-05,-1.5,3.94113e+12,0,0,3,0.881278,0.0371129,0,0,0,0,-0.021946,0.0667167
1150,-3.2124e-12,2.52135e-38,-1.56902e-06,-3.27827e-12,2.52111e-38,-3.40903e-12,-1.13763e-13,0,0,-3.12607,0.0212838,-0.203346,0,0,0,0,0,0.873928,0.0212838,-1368616704,537183607,-1368616704,537183607,49215342,-1368616704,-1368604256,-1368604256,-0.111081,-0.261799,6.04884e-05,-1.5,3.94113e+12,0,0,3,0.880949,0.0381136,0,0,0,0,-0.021946,0.0667167
1160,-3.2124e-12,2.52135e-38,-1.56902e-06,-3.27827e-12,2.52111e-38,0,-1.13764e-13,0,0,-3.12607,0.0212838,-0.203346,0,0,0,0,0,0.873928,0.0212838,-1368616704,537183607,-1368616704,537183607,49215342,-1368616704,-1368604256,-1368604256,-0.112246,-0.261799,5.8693e-05,-1.5,3.94113e+12,0,0,3,0.88062,0.0391144,0,0,0,0,-0.021946,0.0667167
1170,-3.2124e-12,2.52135e-38,-1.56902e-06,-3.27827e-12,2.52111e-38,-3.40903e-12,-1.13764e-13,0,0,-3.12607,0.0212838,-0.203346,0,0,0,0,0,0.873928,0.0212838,-1368616704,537183607,-1368616704,537183607,49215342,-1368616704,-1368604256,-1368604256,-0.113411,-0.261799,5.69509e-05,-1.5,3.94113e+12,0,0,3,0.880291,0.0401152,0,0,0,0,-0.021946,0.0667167
1180,-3.2124e-12,2.52135e-38,-1.56902e-06,-3.27827e-12,2.52111e-38,0,-1.13765e-13,0,0,-3.11067,0.00172094,-0.155188,0,0,0,0,0,0.889333,0.00172094,-1368616704,537183607,-1368616704,537183607,49215342,-1368616704,-1368604256,-1368604256,-0.0352851,-0.261799,5.48162e-05,-1.5,3.94113e+12,0,0,3,0.879874,0.0220088,0,0,0,0,-0.0219462,0.00966692
1190,-3.2124e-12,2.52135e-38,-1.56902e-06,-3.27827e-12,2.52111e-38,-3.40903e-12,-1.13766e-13,0,0,-3.11067,0.00172094,-0.155188,0,0,0,0,0,0.889333,0.00172094,-1368616704,537183607,-1368616704,537183607,49215342,-1368616704,-1368604256,-1368604256,-0.0354426,-0.261799,5.32977e-05,-1.5,3.94113e+12,0,0,3,0.879566,0.0221441,0,0,0,0,-0.0219462,0.00966692
1200,-3.2124e-12,2.52135e-38,-1.56902e-06,-3.27827e-12,2.52111e-38,0,-1.13766e-13,0,0,-3.11067,0.00172094,-0.155188,0,0,0,0,0,0.889333,0.00172094,-1368616704,537183607,-1368616704,537183607,49215342,-1368616704,-1368604256,-1368604256,-0.0356001,-0.261799,5.18207e-05,-1.5,3.94113e+12,0,0,3,0.879259,0.0222795,0,0,0,0,-0.0219462,0.00966692
1210,-3.2124e-12,2.52135e-38,-1.56902e-06,-3.27827e-12,2.52111e-38,-3.40903e-12,-1.13767e-13,0,0,-3.11067,0.00172094,-0.155188,0,0,0,0,0,0.889333,0.00172094,-1368616704,537183607,-1368616704,537183607,49215342,-1368616704,-1368604256,-1368604256,-0.0357802,-0.261799,5.01816e-05,-1.5,3.94113e+12,0,0,3,0.878908,0.0224342,0,0,0,0,-0.0219462,0.00966692
1220,-3.2124e-12,2.52135e-38,-1.56902e-06,-3.27827e-12,2.52111e-38,0,-1.13767e-13,0,0,-3.09101,0.0102149,-0.144418,0,0,0,0,0,0.908991,0.0102149,-1368616704,537183607,-1368616704,537183607,49215342,-1368616704,-1368604256,-1368604256,-0.0359827,-0.261799,4.83988e-05,-1.5,3.94113e+12,0,0,3,0.888715,0.0226082,0,0,0,0,-0.0087141,0.00966692
1230,-3.2124e-12,2.52135e-38,-1.56902e-06,-3.27827e-12,2.52111e-38,-3.40903e-12,-1.13768e-13,0,0,-3.09101,0.0102149,-0.144418,0,0,0,0,0,0.908991,0.0102149,-1368616704,537183607,-1368616704,537183607,49215342,-1368616704,-1368604256,-1368604256,-0.0361515,-0.261799,4.69622e-05,-1.5,3.94113e+12,0,0,3,0.888584,0.0227532,0,0,0,0,-0.0087141,0.00966692
1240,-3.2124e-12,2.52135e-38,-1.56902e-06,-3.27827e-12,2.52111e-38,0,-1.13768e-13,0,0,-3.09101,0.0102149,-0.144418,0,0,0,0,0,0.908991,0.0102149,-1368616704,537183607,-1368616704,537183607,49215342,-1368616704,-1368604256,-1368604256,-0.0363316,-0.261799,4.54759e-05,-1.5,3.94113e+12,0,0,3,0.888445,0.0229079,0,0,0,0,-0.0087141,0.00966692
1250,-3.2124e-12,2.52135e-38,-1.56902e-06,-3.27827e-12,2.52111e-38,-3.40903e-12,-1.13769e-13,0,0,-3.09101,0.0102149,-0.144418,0,0,0,0,0,0.908991,0.0102149,-1368616704,537183607,-1368616704,537183607,49215342,-1368616704,-1368604256,-1368604256,-0.0365116,-0.261799,4.40375e-05,-1.5,3.94113e+12,0,0,3,0.888305,0.0230625,0,0,0,0,-0.0087141,0.00966692
1260,-3.2124e-12,2.52135e-38,-1.56902e-06,-3.27827e-12,2.52111e-38,0,-1.13769e-13,0,0,-3.09101,0.0102149,-0.144418,0,0,0,0,0,0.908991,0.0102149,-1368616704,537183607,-1368616704,537183607,49215342,-1368616704,-1368604256,-1368604256,-0.0366804,-0.261799,4.27304e-05,-1.5,3.94113e+12,0,0,3,0.888175,0.0232075,0,0,0,0,-0.0087141,0.00966692
1270,-3.2124e-12,2.52135e-38,-1.56902e-06,-3.27827e-12,2.52111e-38,-3.40903e-12,-1.1377e-13,0,0,-3.09101,0.0102149,-0.144418,0,0,0,0,0,0.908991,0.0102149,-1368616704,537183607,-1368616704,537183607,49215342,-1368616704,-1368604256,-1368604256,-0.0368604,-0.261799,4.13788e-05,-1.5,3.94113e+12,0,0,3,0.888035,0.0233622,0,0,0,0,-0.0087141,0.00966692
1280,-3.2124e-12,2.52135e-38,-1.56902e-06,-3.27827e-12,2.52111e-38,0,-1.1377e-13,0,0,-3.09101,0.0102149,-0.144418,0,0,0,0,0,0.908991,0.0102149,-1368616704,537183607,-1368616704,537183607,49215342,-1368616704,-1368604256,-1368604256,-0.0370292,-0.261799,4.01513e-05,-1.5,3.94113e+12,0,0,3,0.887904,0.0235072,0,0,0,0,-0.0087141,0.00966692
1290,-3.2124e-12,2.52135e-38,-1.56902e-06,-3.27827e-12,2.52111e-38,-3.40903e-12,-1.13771e-13,0,0,-3.09101,0.0102149,-0.144418,0,0,0,0,0,0.908991,0.0102149,-1368616704,537183607,-1368616704,537183607,49215342,-1368616704,-1368604256,-1368604256,-0.037198,-0.261799,3.89595e-05,-1.5,3.94113e+12,0,0,3,0.887774,0.0236522,0,0,0,0,-0.0087141,0.00966692
1300,-3.2124e-12,2.52135e-38,-1.56902e-06,-3.27827e-12,2.52111e-38,0,-1.13772e-13,0,0,-3.09101,0.0102149,-0.144418,0,0,0,0,0,0.908991,0.0102149,-1368616704,537183607,-1368616704,537183607,49215342,-1368616704,-1368604256,-1368604256,-0.0373668,-0.261799,3.78031e-05,-1.5,3.94113e+12,0,0,3,0.887643,0.0237972,0,0,0,0,-0.0087141,0.00966692
1310,-3.2124e-12,2.52135e-38,-1.56902e-06,-3.27827e-12,2.52111e-38,-3.40903e-12,-1.13772e-13,0,0,-3.09101,0.0102149,-0.144418,0,0,0,0,0,0.908991,0.0102149,-1368616704,537183607,-1368616704,537183607,49215342,-1368616704,-1368604256,-1368604256,-0.0375356,-0.261799,3.66817e-05,-1.5,3.94113e+12,0,0,3,0.887512,0.0239422,0,0,0,0,-0.0087141,0.00966692
1320,-3.2124e-12,2.52135e-38,-1.56902e-06,-3.27827e-12,2.52111e-38,0,-1.13773e-13,0,0,-3.09101,0.0102149,-0.144418,0,0,0,0,0,0.908991,0.0102149,-1368616704,537183607,-1368616704,537183607,49215342,-1368616704,-1368604256,-1368604256,-0.0376931,-0.261799,3.57373e-05,-1.5,3.94113e+12,0,0,3,0.88739,0.0240776,0,0,0,0,-0.0087141,0.00966692
1330,-3.2124e-12,2.52135e-38,-1.56902e-06,-3.27827e-12,2.52111e-38,-3.40903e-12,-1.13773e-13,0,0,-3.09101,0.0102149,-0.144418,0,0,0,0,0,0.908991,0.0102149,-1368616704,537183607,-1368616704,537183607,49215342,-1368616704,-1368604256,-1368604256,-0.0378731,-0.261799,3.46069e-05,-1.5,3.94113e+12,0,0,3,0.887251,0.0242322,0,0,0,0,-0.0087141,0.00966692
1340,-3.2124e-12,2.52135e-38,-1.56902e-06,-3.27827e-12,2.52111e-38,0,-1.13774e-13,0,0,-3.09101,0.0102149,-0.144418,0,0,0,0,0,0.908991,0.0102149,-1368616704,537183607,-1368616704,537183607,49215342,-1368616704,-1368604256,-1368604256,-0.0380419,-0.261799,3.35803e-05,-1.5,3.94113e+12,0,0,3,0.88712,0.0243773,0,0,0,0,-0.0087141,0.00966692
1350,-3.2124e-12,2.52135e-38,-1.56902e-06,-3.27827e-12,2.52111e-38,-3.40903e-12,-1.13779e-13,0,0,-3.04027,-0.0805444,-0.0106158,0,0,0,0,0,0.959731,-0.0805444,-1368616704,537183607,-1368616704,537183607,49215342,-1368616704,-1368604256,-1368604256,0.00668904,-0.261799,3.23219e-05,-1.5,3.94113e+12,0,0,3,0.92122,0.00651807,0,0,0,0,0.0573566,-0.014276
1360,-3.2124e-12,2.52135e-38,-1.56902e-06,-3.27827e-12,2.52111e-38,0,-1.13774e-13,0,0,-3.04027,-0.0805444,-0.0106158,0,0,0,0,0,0.959731,-0.0805444,-1368616704,537183607,-1368616704,537183607,49215342,-1368616704,-1368604256,-1368604256,0.00693831,-0.261799,3.13625e-05,-1.5,3.94113e+12,0,0,3,0.92208,0.00630393,0,0,0,0,0.0573566,-0.014276
1370,-3.2124e-12,2.52135e-38,-1.56902e-06,-3.27827e-12,2.52111e-38,-3.40903e-12,-1.13788e-13,0,0,-3.03337,-0.0823122,-0.0160128,0,0,0,0,0,0.966635,-0.0823122,-1368616704,537183607,-1368616704,537183607,49215342,-1368616704,-1368604256,-1368604256,0.0159871,-0.261799,3.01872e-05,-1.5,3.94113e+12,0,0,3,0.912163,0.00141734,0,0,0,0,0.0456756,-0.0176369
1380,-3.2124e-12,2.52135e-38,-1.56902e-06,-3.27827e-12,2.52111e-38,0,-1.13787e-13,0,0,-3.03337,-0.0823122,-0.0160128,0,0,0,0,0,0.966635,-0.0823122,-1368616704,537183607,-1368616704,537183607,49215342,-1368616704,-1368604256,-1368604256,0.0162951,-0.261799,2.92912e-05,-1.5,3.94113e+12,0,0,3,0.912849,0.00115278,0,0,0,0,0.0456756,-0.0176369
1390,-3.2124e-12,2.52135e-38,-1.56902e-06,-3.27827e-12,2.52111e-38,-3.40903e-12,-1.13776e-13,0,0,-3.05583,-0.0807022,-0.00411838,0,0,0,0,0,0.944174,-0.0807022,-1368616704,537183607,-1368616704,537183607,49215342,-1368616704,-1368604256,-1368604256,0.102402,-0.261799,2.81932e-05,-1.5,3.94113e+12,0,0,3,0.938183,-0.0344076,0,0,0,0,0.0770297,-0.0623519
1400,-3.2124e-12,2.52135e-38,-1.56902e-06,-3.27827e-12,2.52111e-38,0,-1.13775e-13,0,0,-3.05583,-0.0807022,-0.00411838,0,0,0,0,0,0.944174,-0.0807022,-1368616704,537183607,-1368616704,537183607,49215342,-1368616704,-1368604256,-1368604256,0.103491,-0.261799,2.73564e-05,-1.5,3.94113e+12,0,0,3,0.939338,-0.0353429,0,0,0,0,0.0770297,-0.0623519
1410,-3.2124e-12,2.52135e-38,-1.56902e-06,-3.27827e-12,2.52111e-38,-3.40903e-12,-1.13777e-13,0,0,-3.0213,-0.0888156,-0.0103386,0,0,0,0,0,0.978699,-0.0888156,-1368616704,537183607,-1368616704,537183607,49215342,-1368616704,-1368604256,-1368604256,0.235384,-0.261799,2.6331e-05,-1.5,3.94113e+12,0,0,3,0.949968,-0.08208,0,0,0,0,0.0961542,-0.139844
1420,-3.2124e-12,2.52135e-38,-1.56902e-06,-3.27827e-12,2.52111e-38,0,-1.13776e-13,0,0,-3.0213,-0.0888156,-0.0103386,0,0,0,0,0,0.978699,-0.0888156,-1368616704,537183607,-1368616704,537183607,49215342,-1368616704,-1368604256,-1368604256,0.237989,-0.261799,2.54976e-05,-1.5,3.94113e+12,0,0,3,0.951506,-0.0843175,0,0,0,0,0.0961542,-0.139844
1430,-3.2124e-12,2.52135e-38,-1.56902e-06,-3.27827e-12,2.52111e-38,-3.40903e-12,-1.13778e-13,0,0,-3.0553,-0.0958324,-0.00683826,0,0,0,0,0,0.944701,-0.0958324,-1368616704,537183607,-1368616704,537183607,49215342,-1368616704,-1368604256,-1368604256,0.261799,-0.261799,2.45919e-05,-1.5,3.94113e+12,0,0,3,0.946727,-0.0985313,0,0,0,0,0.0790998,-0.244828
1440,-3.2124e-12,2.52135e-38,-1.56902e-06,-3.27827e-12,2.52111e-38,0,-1.13779e-13,0,0,-3.0553,-0.0958324,-0.00683826,0,0,0,0,0,0.944701,-0.0958324,-1368616704,537183607,-1368616704,537183607,49215342,-1368616704,-1368604256,-1368604256,0.261799,-0.261799,2.39107e-05,-1.5,3.94113e+12,0,0,3,0.947835,-0.101959,0,0,0,0,0.0790998,-0.244828
1450,-3.2124e-12,2.52135e-38,-1.56902e-06,-3.27827e-12,2.52111e-38,-3.40903e-12,-1.13777e-13,0,0,-3.0553,-0.0958324,-0.00683826,0,0,0,0,0,0.944701,-0.0958324,-1368616704,537183607,-1368616704,537183607,49215342,-1368616704,-1368604256,-1368604256,0.261799,-0.261799,2.31544e-05,-1.5,3.94113e+12,0,0,3,0.9491,-0.105876,0,0,0,0,0.0790998,-0.244828
1460,-3.2124e-12,2.52135e-38,-1.56902e-06,-3.27827e-12,2.52111e-38,0,-1.13788e-13,0,0,-3.0553,-0.0958324,-0.00683826,0,0,0,0,0,0.944701,-0.0958324,-1368616704,537183607,-1368616704,537183607,49215342,-1368616704,-1368604256,-1368604256,0.261799,-0.261799,2.24675e-05,-1.5,3.94113e+12,0,0,3,0.950287,-0.109549,0,0,0,0,0.0790998,-0.244828
1470,-3.2124e-12,2.52135e-38,-1.56902e-06,-3.27827e-12,2.52111e-38,-3.40903e-12,-1.13789e-13,0,0,-3.0553,-0.0958324,-0.00683826,0,0,0,0,0,0.944701,-0.0958324,-1368616704,537183607,-1368616704,537183607,49215342,-1368616704,-1368604256,-1368604256,0.261799,-0.261799,2.18006e-05,-1.5,3.94113e+12,0,0,3,0.951473,-0.113221,0,0,0,0,0.0790998,-0.244828
1480,-3.2124e-12,2.52135e-38,-1.56902e-06,-3.27827e-12,2.52111e-38,0,-1.13789e-13,0,0,-3.0553,-0.0958324,-0.00683826,0,0,0,0,0,0.944701,-0.0958324,-1368616704,537183607,-1368616704,537183607,49215342,-1368616704,-1368604256,-1368604256,0.261799,-0.261799,2.1111e-05,-1.5,3.94113e+12,0,0,3,0.952739,-0.117139,0,0,0,0,0.0790998,-0.244828
1490,-3.2124e-12,2.52135e-38,-1.56902e-06,-3.27827e-12,2.52111e-38,-3.40903e-12,-1.1379e-13,0,0,-3.0553,-0.0958324,-0.00683826,0,0,0,0,0,0.944701,-0.0958324,-1368616704,537183607,-1368616704,537183607,49215342,-1368616704,-1368604256,-1368604256,0.261799,-0.261799,2.04844e-05,-1.5,3.94113e+12,0,0,3,0.953925,-0.120811,0,0,0,0,0.0790998,-0.244828
1500,-3.2124e-12,2.52135e-38,-1.56902e-06,-3.27827e-12,2.52111e-38,0,-1.1379e-13,0,0,-3.0553,-0.0958324,-0.00683826,0,0,0,0,0,0.944701,-0.0958324,-1368616704,537183607,-1368616704,537183607,49215342,-1368616704,-1368604256,-1368604256,0.261799,-0.261799,1.98365e-05,-1.5,3.94113e+12,0,0,3,0.955191,-0.124728,0,0,0,0,0.0790998,-0.244828
1510,-3.2124e-12,2.52135e-38,-1.56902e-06,-3.27827e-12,2.52111e-38,-3.40903e-12,-1.13791e-13,0,0,-3.0553,-0.0958324,-0.00683826,0,0,0,0,0,0.944701,-0.0958324,-1368616704,537183607,-1368616704,537183607,49215342,-1368616704,-1368604256,-1368604256,0.261799,-0.261799,1.92477e-05,-1.5,3.94113e+12,0,0,3,0.956378,-0.128401,0,0,0,0,0.0790998,-0.244828
1520,-3.2124e-12,2.52135e-38,-1.56902e-06,-3.27827e-12,2.52111e-38,0,-1.13792e-13,0,0,-3.06024,-0.0795527,0.00703475,0,0,0,0,0,0.93976,-0.0795527,-1368616704,537183607,-1368616704,537183607,49215342,-1368616704,-1368604256,-1368604256,0.261799,-0.261799,1.85249e-05,-1.5,3.94113e+12,0,0,3,0.956604,-0.110174,0,0,0,0,0.0768979,-0.144449
1530,-3.2124e-12,2.52135e-38,-1.56902e-06,-3.27827e-12,2.52111e-38,-3.40903e-12,-1.13791e-13,0,0,-3.06024,-0.0795527,0.00703475,0,0,0,0,0,0.93976,-0.0795527,-1368616704,537183607,-1368616704,537183607,49215342,-1368616704,-1368604256,-1368604256,0.261799,-0.261799,1.79386e-05,-1.5,3.94113e+12,0,0,3,0.957834,-0.112485,0,0,0,0,0.0768979,-0.144449
1540,-3.2124e-12,2.52135e-38,-1.56902e-06,-3.27827e-12,2.52111e-38,0,-1.13793e-13,0,0,-3.06024,-0.0795527,0.00703475,0,0,0,0,0,0.93976,-0.0795527,-1368616704,537183607,-1368616704,537183607,49215342,-1368616704,-1368604256,-1368604256,0.261799,-0.261799,1.73708e-05,-1.5,3.94113e+12,0,0,3,0.959064,-0.114796,0,0,0,0,0.0768979,-0.144449
1550,-3.2124e-12,2.52135e-38,-1.56902e-06,-3.27827e-12,2.52111e-38,-3.40903e-12,-1.13793e-13,0,0,-3.06024,-0.0795527,0.00703475,0,0,0,0,0,0.93976,-0.0795527,-1368616704,537183607,-1368616704,537183607,49215342,-1368616704,-1368604256,-1368604256,0.261799,-0.261799,1.68894e-05,-1.5,3.94113e+12,0,0,3,0.960141,-0.116819,0,0,0,0,0.0768979,-0.144449
1560,-3.2124e-12,2.52135e-38,-1.56902e-06,-3.27827e-12,2.52111e-38,0,-1.13794e-13,0,0,-3.06024,-0.0795527,0.00703475,0,0,0,0,0,0.93976,-0.0795527,-1368616704,537183607,-1368616704,537183607,49215342,-1368616704,-1368604256,-1368604256,0.261799,-0.261799,1.64214e-05,-1.5,3.94113e+12,0,0,3,0.961218,-0.118841,0,0,0,0,0.0768979,-0.144449
1570,-3.2124e-12,2.52135e-38,-1.56902e-06,-3.27827e-12,2.52111e-38,-3.40903e-12,-1.13794e-13,0,0,-3.06024,-0.0795527,0.00703475,0,0,0,0,0,0.93976,-0.0795527,-1368616704,537183607,-1368616704,537183607,49215342,-1368616704,-1368604256,-1368604256,0.261799,-0.261799,1.59016e-05,-1.5,3.94113e+12,0,0,3,0.962448,-0.121152,0,0,0,0,0.0768979,-0.144449
1580,-3.2124e-12,2.52135e-38,-1.56902e-06,-3.27827e-12,2.52111e-38,0,-1.13796e-13,0,0,-3.04436,-0.0215204,-0.0340526,0,0,0,0,0,0.955635,-0.0215204,-1368616704,537183607,-1368616704,537183607,49215342,-1368616704,-1368604256,-1368604256,0.200955,-0.261799,1.53057e-05,-1.5,3.94113e+12,0,0,3,0.955619,-0.0903955,0,0,0,0,0.0688755,-0.0957352
1590,-3.2124e-12,2.52135e-38,-1.56902e-06,-3.27827e-12,2.52111e-38,-3.40903e-12,-1.13795e-13,0,0,-3.04436,-0.0215204,-0.0340526,0,0,0,0,0,0.955635,-0.0215204,-1368616704,537183607,-1368616704,537183607,49215342,-1368616704,-1368604256,-1368604256,0.202627,-0.261799,1.48514e-05,-1.5,3.94113e+12,0,0,3,0.956652,-0.0918316,0,0,0,0,0.0688755,-0.0957352
1600,-3.2124e-12,2.52135e-38,-1.56902e-06,-3.27827e-12,2.52111e-38,0,-1.13796e-13,0,0,-3.04436,-0.0215204,-0.0340526,0,0,0,0,0,0.955635,-0.0215204,-1368616704,537183607,-1368616704,537183607,49215342,-1368616704,-1368604256,-1368604256,0.20441,-0.261799,1.43814e-05,-1.5,3.94113e+12,0,0,3,0.957754,-0.0933634,0,0,0,0,0.0688755,-0.0957352
1610,-3.2124e-12,2.52135e-38,-1.56902e-06,-3.27827e-12,2.52111e-38,-3.40903e-12,-1.13797e-13,0,0,-3.04436,-0.0215204,-0.0340526,0,0,0,0,0,0.955635,-0.0215204,-1368616704,537183607,-1368616704,537183607,49215342,-1368616704,-1368604256,-1368604256,0.206081,-0.261799,1.39545e-05,-1.5,3.94113e+12,0,0,3,0.958787,-0.0947995,0,0,0,0,0.0688755,-0.0957352
1620,-3.2124e-12,2.52135e-38,-1.56902e-06,-3.27827e-12,2.52111e-38,0,-1.13798e-13,0,0,-3.04436,-0.0215204,-0.0340526,0,0,0,0,0,0.955635,-0.0215204,-1368616704,537183607,-1368616704,537183607,49215342,-1368616704,-1368604256,-1368604256,0.207864,-0.261799,1.35129e-05,-1.5,3.94113e+12,0,0,3,0.959889,-0.0963312,0,0,0,0,0.0688755,-0.0957352
1630,-3.2124e-12,2.52135e-38,-1.56902e-06,-3.27827e-12,2.52111e-38,-3.40903e-12,-1.13798e-13,0,0,-3.04436,-0.0215204,-0.0340526,0,0,0,0,0,0.955635,-0.0215204,-1368616704,537183607,-1368616704,537183607,49215342,-1368616704,-1368604256,-1368604256,0.209536,-0.261799,1.31118e-05,-1.5,3.94113e+12,0,0,3,0.960923,-0.0977673,0,0,0,0,0.0688755,-0.0957352
1640,-3.2124e-12,2.52135e-38,-1.56902e-06,-3.27827e-12,2.52111e-38,0,-1.13799e-13,0,0,-3.04436,-0.0215204,-0.0340526,0,0,0,0,0,0.955635,-0.0215204,-1368616704,537183607,-1368616704,537183607,49215342,-1368616704,-1368604256,-1368604256,0.211319,-0.261799,1.26968e-05,-1.5,3.94113e+12,0,0,3,0.962025,-0.0992991,0,0,0,0,0.0688755,-0.0957352
1650,-3.2124e-12,2.52135e-38,-1.56902e-06,-3.27827e-12,2.52111e-38,-3.40903e-12,-1.13799e-13,0,0,-3.04436,-0.0215204,-0.0340526,0,0,0,0,0,0.955635,-0.0215204,-1368616704,537183607,-1368616704,537183607,49215342,-1368616704,-1368604256,-1368604256,0.21299,-0.261799,1.23199e-05,-1.5,3.94113e+12,0,0,3,0.963058,-0.100735,0,0,0,0,0.0688755,-0.0957352
1660,-3.2124e-12,2.52135e-38,-1.56902e-06,-3.27827e-12,2.52111e-38,0,-1.138e-13,0,0,-3.04436,-0.0215204,-0.0340526,0,0,0,0,0,0.955635,-0.0215204,-1368616704,537183607,-1368616704,537183607,49215342,-1368616704,-1368604256,-1368604256,0.214773,-0.261799,1.193e-05,-1.5,3.94113e+12,0,0,3,0.96416,-0.102267,0,0,0,0,0.0688755,-0.0957352
1670,-3.2124e-12,2.52135e-38,-1.56902e-06,-3.27827e-12,2.52111e-38,-3.40903e-12,-1.138e-13,0,0,-3.04436,-0.0215204,-0.0340526,0,0,0,0,0,0.955635,-0.0215204,-1368616704,537183607,-1368616704,537183607,49215342,-1368616704,-1368604256,-1368604256,0.216334,-0.261799,1.15994e-05,-1.5,3.94113e+12,0,0,3,0.965124,-0.103607,0,0,0,0,0.0688755,-0.0957352
1680,-3.2124e-12,2.52135e-38,-1.56902e-06,-3.27827e-12,2.52111e-38,0,-1.13801e-13,0,0,-3.04436,-0.0215204,-0.0340526,0,0,0,0,0,0.955635,-0.0215204,-1368616704,537183607,-1368616704,537183607,49215342,-1368616704,-1368604256,-1368604256,0.217894,-0.261799,1.12779e-05,-1.5,3.94113e+12,0,0,3,0.966088,-0.104948,0,0,0,0,0.0688755,-0.0957352
1690,-3.2124e-12,2.52135e-38,-1.56902e-06,-3.27827e-12,2.52111e-38,-3.40903e-12,-1.13801e-13,0,0,-3.04436,-0.0215204,-0.0340526,0,0,0,0,0,0.955635,-0.0215204,-1368616704,537183607,-1368616704,537183607,49215342,-1368616704,-1368604256,-1368604256,0.2199,-0.261799,1.08766e-05,-1.5,3.94113e+12,0,0,3,0.967328,-0.106671,0,0,0,0,0.0688755,-0.0957352
1700,-3.2124e-12,2.52135e-38,-1.56902e-06,-3.27827e-12,2.52111e-38,0,-1.13802e-13,0,0,-3.04436,-0.0215204,-0.0340526,0,0,0,0,0,0.955635,-0.0215204,-1368616704,537183607,-1368616704,537183607,49215342,-1368616704,-1368604256,-1368604256,0.221683,-0.261799,1.05326e-05,-1.5,3.94113e+12,0,0,3,0.96843,-0.108203,0,0,0,0,0.0688755,-0.0957352
1710,-3.2124e-12,2.52135e-38,-1.56902e-06,-3.27827e-12,2.52111e-38,-3.40903e-12,-1.13802e-13,0,0,-3.04436,-0.0215204,-0.0340526,0,0,0,0,0,0.955635,-0.0215204,-1368616704,537183607,-1368616704,537183607,49215342,-1368616704,-1368604256,-1368604256,0.223354,-0.261799,1.02199e-05,-1.5,3.94113e+12,0,0,3,0.969463,-0.109639,0,0,0,0,0.0688755,-0.0957352
1720,-3.2124e-12,2.52135e-38,-1.56902e-06,-3.27827e-12,2.52111e-38,0,-1.13803e-13,0,0,-3.04436,-0.0215204,-0.0340526,0,0,0,0,0,0.955635,-0.0215204,-1368616704,537183607,-1368616704,537183607,49215342,-1368616704,-1368604256,-1368604256,0.225137,-0.261799,9.89668e-06,-1.5,3.94113e+12,0,0,3,0.970565,-0.111171,0,0,0,0,0.0688755,-0.0957352
1730,-3.2124e-12,2.52135e-38,-1.56902e-06,-3.27827e-12,2.52111e-38,-3.40903e-12,-1.13803e-13,0,0,-3.04436,-0.0215204,-0.0340526,0,0,0,0,0,0.955635,-0.0215204,-1368616704,537183607,-1368616704,537183607,49215342,-1368616704,-1368604256,-1368604256,0.226809,-0.261799,9.60309e-06,-1.5,3.94113e+12,0,0,3,0.971599,-0.112607,0,0,0,0,0.0688755,-0.0957352
1740,-3.2124e-12,2.52135e-38,-1.56902e-06,-3.27827e-12,2.52111e-38,0,-1.13804e-13,0,0,-3.04436,-0.0215204,-0.0340526,0,0,0,0,0,0.955635,-0.0215204,-1368616704,537183607,-1368616704,537183607,49215342,-1368616704,-1368604256,-1368604256,0.22848,-0.261799,9.31805e-06,-1.5,3.94113e+12,0,0,3,0.972632,-0.114043,0,0,0,0,0.0688755,-0.0957352
1750,-3.2124e-12,2.52135e-38,-1.56902e-06,-3.27827e-12,2.52111e-38,-3.40903e-12,-1.13805e-13,0,0,-3.04436,-0.0215204,-0.0340526,0,0,0,0,0,0.955635,-0.0215204,-1368616704,537183607,-1368616704,537183607,49215342,-1368616704,-1368604256,-1368604256,0.230263,-0.261799,9.02332e-06,-1.5,3.94113e+12,0,0,3,0.973734,-0.115574,0,0,0,0,0.0688755,-0.0957352
1760,-3.2124e-12,2.52135e-38,-1.56902e-06,-3.27827e-12,2.52111e-38,0,-1.13805e-13,0,0,-3.04436,-0.0215204,-0.0340526,0,0,0,0,0,0.955635,-0.0215204,-1368616704,537183607,-1368616704,537183607,49215342,-1368616704,-1368604256,-1368604256,0.231935,-0.261799,8.75564e-06,-1.5,3.94113e+12,0,0,3,0.974767,-0.11701,0,0,0,0,0.0688755,-0.0957352
1770,-3.2124e-12,2.52135e-38,-1.56902e-06,-3.27827e-12,2.52111e-38,-3.40903e-12,-1.13807e-13,0,0,-3.04273,-0.0123649,-0.0278244,0,0,0,0,0,0.957272,-0.0123649,-1368616704,537183607,-1368616704,537183607,49215342,-1368616704,-1368604256,-1368604256,0.261799,-0.261799,8.42752e-06,-1.5,3.94113e+12,0,0,3,0.976987,-0.123171,0,0,0,0,0.07202,-0.126753
1780,-3.2124e-12,2.52135e-38,-1.56902e-06,-3.27827e-12,2.52111e-38,0,-1.13806e-13,0,0,-3.04273,-0.0123649,-0.0278244,0,0,0,0,0,0.957272,-0.0123649,-1368616704,537183607,-1368616704,537183607,49215342,-1368616704,-1368604256,-1368604256,0.261799,-0.261799,8.16095e-06,-1.5,3.94113e+12,0,0,3,0.978139,-0.1252,0,0,0,0,0.07202,-0.126753
1790,-3.2124e-12,2.52135e-38,-1.56902e-06,-3.27827e-12,2.52111e-38,-3.40903e-12,-1.13807e-13,0,0,-3.04273,-0.0123649,-0.0278244,0,0,0,0,0,0.957272,-0.0123649,-1368616704,537183607,-1368616704,537183607,49215342,-1368616704,-1368604256,-1368604256,0.261799,-0.261799,7.93479e-06,-1.5,3.94113e+12,0,0,3,0.979147,-0.126974,0,0,0,0,0.07202,-0.126753
1800,-3.2124e-12,2.52135e-38,-1.56902e-06,-3.27827e-12,2.52111e-38,0,-1.13808e-13,0,0,-3.04273,-0.0123649,-0.0278244,0,0,0,0,0,0.957272,-0.0123649,-1368616704,537183607,-1368616704,537183607,49215342,-1368616704,-1368604256,-1368604256,0.261799,-0.261799,7.71488e-06,-1.5,3.94113e+12,0,0,3,0.980156,-0.128749,0,0,0,0,0.07202,-0.126753
1810,-3.2124e-12,2.52135e-38,-1.56902e-06,-3.27827e-12,2.52111e-38,-3.40903e-12,-1.13808e-13,0,0,-3.04273,-0.0123649,-0.0278244,0,0,0,0,0,0.957272,-0.0123649,-1368616704,537183607,-1368616704,537183607,49215342,-1368616704,-1368604256,-1368604256,0.261799,-0.261799,7.47071e-06,-1.5,3.94113e+12,0,0,3,0.981308,-0.130777,0,0,0,0,0.07202,-0.126753
1820,-3.2124e-12,2.52135e-38,-1.56902e-06,-3.27827e-12,2.52111e-38,0,-1.13809e-13,0,0,-3.04273,-0.0123649,-0.0278244,0,0,0,0,0,0.957272,-0.0123649,-1368616704,537183607,-1368616704,537183607,49215342,-1368616704,-1368604256,-1368604256,0.261799,-0.261799,7.23441e-06,-1.5,3.94113e+12,0,0,3,0.98246,-0.132805,0,0,0,0,0.07202,-0.126753
1830,-3.2124e-12,2.52135e-38,-1.56902e-06,-3.27827e-12,2.52111e-38,-3.40903e-12,-1.13809e-13,0,0,-3.04273,-0.0123649,-0.0278244,0,0,0,0,0,0.957272,-0.0123649,-1368616704,537183607,-1368616704,537183607,49215342,-1368616704,-1368604256,-1368604256,0.261799,-0.261799,7.00559e-06,-1.5,3.94113e+12,0,0,3,0.983613,-0.134833,0,0,0,0,0.07202,-0.126753
1840,-3.2124e-12,2.52135e-38,-1.56902e-06,-3.27827e-12,2.52111e-38,0,-1.1381e-13,0,0,-3.04273,-0.0123649,-0.0278244,0,0,0,0,0,0.957272,-0.0123649,-1368616704,537183607,-1368616704,537183607,49215342,-1368616704,-1368604256,-1368604256,0.261799,-0.261799,6.79765e-06,-1.5,3.94113e+12,0,0,3,0.984693,-0.136734,0,0,0,0,0.07202,-0.126753
1850,-3.2124e-12,2.52135e-38,-1.56902e-06,-3.27827e-12,2.52111e-38,-3.40903e-12,-1.1381e-13,0,0,-3.04273,-0.0123649,-0.0278244,0,0,0,0,0,0.957272,-0.0123649,-1368616704,537183607,-1368616704,537183607,49215342,-1368616704,-1368604256,-1368604256,0.261799,-0.261799,6.59588e-06,-1.5,3.94113e+12,0,0,3,0.985773,-0.138636,0,0,0,0,0.07202,-0.126753
1860,-3.2124e-12,2.52135e-38,-1.56902e-06,-3.27827e-12,2.52111e-38,0,-1.13811e-13,0,0,-3.04273,-0.0123649,-0.0278244,0,0,0,0,0,0.957272,-0.0123649,-1368616704,537183607,-1368616704,537183607,49215342,-1368616704,-1368604256,-1368604256,0.261799,-0.261799,6.38726e-06,-1.5,3.94113e+12,0,0,3,0.986926,-0.140664,0,0,0,0,0.07202,-0.126753
1870,-3.2124e-12,2.52135e-38,-1.56902e-06,-3.27827e-12,2.52111e-38,-3.40903e-12,-1.13811e-13,0,0,-3.04273,-0.0123649,-0.0278244,0,0,0,0,0,0.957272,-0.0123649,-1368616704,537183607,-1368616704,537183607,49215342,-1368616704,-1368604256,-1368604256,0.261799,-0.261799,6.19767e-06,-1.5,3.94113e+12,0,0,3,0.988006,-0.142565,0,0,0,0,0.07202,-0.126753
1880,-3.2124e-12,2.52135e-38,-1.56902e-06,-3.27827e-12,2.52111e-38,0,-1.13812e-13,0,0,-3.04273,-0.0123649,-0.0278244,0,0,0,0,0,0.957272,-0.0123649,-1368616704,537183607,-1368616704,537183607,49215342,-1368616704,-1368604256,-1368604256,0.261799,-0.261799,6.00164e-06,-1.5,3.94113e+12,0,0,3,0.989158,-0.144593,0,0,0,0,0.07202,-0.126753
1890,-3.2124e-12,2.52135e-38,-1.56902e-06,-3.27827e-12,2.52111e-38,-3.40903e-12,-1.13812e-13,0,0,-3.04273,-0.0123649,-0.0278244,0,0,0,0,0,0.957272,-0.0123649,-1368616704,537183607,-1368616704,537183607,49215342,-1368616704,-1368604256,-1368604256,0.261799,-0.261799,5.8235e-06,-1.5,3.94113e+12,0,0,3,0.990239,-0.146495,0,0,0,0,0.07202,-0.126753
1900,-3.2124e-12,2.52135e-38,-1.56902e-06,-3.27827e-12,2.52111e-38,0,-1.13813e-13,0,0,-3.04273,-0.0123649,-0.0278244,0,0,0,0,0,0.957272,-0.0123649,-1368616704,537183607,-1368616704,537183607,49215342,-1368616704,-1368604256,-1368604256,0.261799,-0.261799,5.63919e-06,-1.5,3.94113e+12,0,0,3,0.991391,-0.148523,0,0,0,0,0.07202,-0.126753
1910,-3.2124e-12,2.52135e-38,-1.56902e-06,-3.27827e-12,2.52111e-38,-3.40903e-12,-1.13814e-13,0,0,-3.04273,-0.0123649,-0.0278244,0,0,0,0,0,0.957272,-0.0123649,-1368616704,537183607,-1368616704,537183607,49215342,-1368616704,-1368604256,-1368604256,0.261799,-0.261799,5.48291e-06,-1.5,3.94113e+12,0,0,3,0.992399,-0.150297,0,0,0,0,0.07202,-0.126753
1920,-3.2124e-12,2.52135e-38,-1.56902e-06,-3.27827e-12,2.52111e-38,0,-1.13814e-13,0,0,-3.04273,-0.0123649,-0.0278244,0,0,0,0,0,0.957272,-0.0123649,-1368616704,537183607,-1368616704,537183607,49215342,-1368616704,-1368604256,-1368604256,0.261799,-0.261799,5.32025e-06,-1.5,3.94113e+12,0,0,3,0.993479,-0.152199,0,0,0,0,0.07202,-0.126753
1930,-3.2124e-12,2.52135e-38,-1.56902e-06,-3.27827e-12,2.52111e-38,-3.40903e-12,-1.13815e-13,0,0,-3.04273,-0.0123649,-0.0278244,0,0,0,0,0,0.957272,-0.0123649,-1368616704,537183607,-1368616704,537183607,49215342,-1368616704,-1368604256,-1368604256,0.261799,-0.261799,5.16234e-06,-1.5,3.94113e+12,0,0,3,0.99456,-0.1541,0,0,0,0,0.07202,-0.126753
1940,-3.2124e-12,2.52135e-38,-1.56902e-06,-3.27827e-12,2.52111e-38,0,-1.13815e-13,0,0,-3.04273,-0.0123649,-0.0278244,0,0,0,0,0,0.957272,-0.0123649,-1368616704,537183607,-1368616704,537183607,49215342,-1368616704,-1368604256,-1368604256,0.261799,-0.261799,4.99905e-06,-1.5,3.94113e+12,0,0,3,0.995712,-0.156128,0,0,0,0,0.07202,-0.126753
1950,-3.2124e-12,2.52135e-38,-1.56902e-06,-3.27827e-12,2.52111e-38,-3.40903e-12,-1.13816e-13,0,0,-3.04273,-0.0123649,-0.0278244,0,0,0,0,0,0.957272,-0.0123649,-1368616704,537183607,-1368616704,537183607,49215342,-1368616704,-1368604256,-1368604256,0.261799,-0.261799,4.85067e-06,-1.5,3.94113e+12,0,0,3,0.996792,-0.158029,0,0,0,0,0.07202,-0.126753
1960,-3.2124e-12,2.52135e-38,-1.56902e-06,-3.27827e-12,2.52111e-38,0,-1.13816e-13,0,0,-3.04273,-0.0123649,-0.0278244,0,0,0,0,0,0.957272,-0.0123649,-1368616704,537183607,-1368616704,537183607,49215342,-1368616704,-1368604256,-1368604256,0.261799,-0.261799,4.69715e-06,-1.5,3.94113e+12,0,0,3,0.997945,-0.160057,0,0,0,0,0.07202,-0.126753
