timestamp,A_x,A_y,A_z,P,Q,R,Phi,Theta,Psi,poseX,poseY,poseZ,state_X,state_Y,state_Z,state_VzB,state_Bx,state_By,state_Bz,p1_x,p1_y,p2_x,p2_y,p3_x,p3_y,p4_x,p4_y,roll,pitch,yaw,alt,targetHeading,highLevelState,lowLevelState,gateNumber,filtered_x,filtered_y,x_OT,y_OT,vx_OT,vy_OT
10,0,0,0,0,0,0,0,0,0,0,0,0,0,0,0,0,0,0,0,0,0,0,0,0,0,0,0,0,-0.261799,0.00779127,-1.5,nan,0,0,3,0,0,0,0,0,0
20,-3.34124e-12,1.79961e-38,-1.60394e-06,-3.40794e-12,1.79949e-38,0,-1.13703e-13,0,0,0,0,0,0,0,0,0,0,0,0,0,0,0,0,0,0,0,0,0,-0.261799,0.00230381,-1.5,nan,0,0,3,0,0,0,0,0,0
30,-3.34124e-12,1.79961e-38,-1.60394e-06,-3.40794e-12,1.79949e-38,-3.92437e-12,-1.13703e-13,0,0,0,0,0,0,0,0,0,0,0,0,0,0,0,0,0,0,0,0,0,-0.261799,0.00224452,-1.5,nan,0,0,3,0,0,0,0,0,0
40,-3.34124e-12,1.79961e-38,-1.60394e-06,-3.40794e-12,1.79949e-38,0,-1.13704e-13,0,0,0,0,0,0,0,0,0,0,0,0,0,0,0,0,0,0,0,0,0,-0.261799,0.00217789,-1.5,nan,0,0,3,0,0,0,0,0,0
50,-3.34124e-12,1.79961e-38,-1.60394e-06,-3.40794e-12,1.79949e-38,-3.92437e-12,-1.13704e-13,0,0,0,0,0,0,0,0,0,0,0,0,0,0,0,0,0,0,0,0,0,-0.261799,0.00211325,-1.5,nan,0,0,3,0,0,0,0,0,0
60,-3.34124e-12,1.79961e-38,-1.60394e-06,-3.40794e-12,1.79949e-38,0,-1.13705e-13,0,0,0,0,0,0,0,0,0,0,0,0,0,0,0,0,0,0,0,0,0,-0.261799,0.00204637,-1.5,nan,0,0,3,0,0,0,0,0,0
70,-3.34124e-12,1.79961e-38,-1.60394e-06,-3.40794e-12,1.79949e-38,-3.92437e-12,-1.13705e-13,0,0,0,0,0,0,0,0,0,0,0,0,0,0,0,0,0,0,0,0,0,-0.261799,0.00198566,-1.5,nan,0,0,3,0,0,0,0,0,0
80,-3.34124e-12,1.79961e-38,-1.60394e-06,-3.40794e-12,1.79949e-38,0,-1.13706e-13,0,0,0,0,0,0,0,0,0,0,0,0,0,0,0,0,0,0,0,0,0,-0.261799,0.00192675,-1.5,nan,0,0,3,0,0,0,0,0,0
90,-3.34124e-12,1.79961e-38,-1.60394e-06,-3.40794e-12,1.79949e-38,-3.92437e-12,-1.13706e-13,0,0,0,0,0,0,0,0,0,0,0,0,0,0,0,0,0,0,0,0,0,-0.261799,0.00186956,-1.5,nan,0,0,3,0,0,0,0,0,0
100,-3.34124e-12,1.79961e-38,-1.60394e-06,-3.40794e-12,1.79949e-38,0,-1.13707e-13,0,0,0,0,0,0,0,0,0,0,0,0,0,0,0,0,0,0,0,0,0,-0.261799,0.00178464,-1.5,nan,0,0,3,0,0,0,0,0,0
110,-3.34124e-12,1.79961e-38,-1.60394e-06,-3.40794e-12,1.79949e-38,-3.92437e-12,-1.13708e-13,0,0,0,0,0,0,0,0,0,0,0,0,0,0,0,0,0,0,0,0,0,-0.261799,0.00173869,-1.5,nan,0,0,3,0,0,0,0,0,0
120,-3.34124e-12,1.79961e-38,-1.60394e-06,-3.40794e-12,1.79949e-38,0,-1.13708e-13,0,0,0,0,0,0,0,0,0,0,0,0,0,0,0,0,0,0,0,0,0,-0.261799,0.00169053,-1.5,nan,0,0,3,0,0,0,0,0,0
130,-3.34124e-12,1.79961e-38,-1.60394e-06,-3.40794e-12,1.79949e-38,-3.92437e-12,-1.13709e-13,0,0,0,0,0,0,0,0,0,0,0,0,0,0,0,0,0,0,0,0,0,-0.261799,0.00164037,-1.5,nan,0,0,3,0,0,0,0,0,0
140,-3.34124e-12,1.79961e-38,-1.60394e-06,-3.40794e-12,1.79949e-38,0,-1.13709e-13,0,0,0,0,0,0,0,0,0,0,0,0,0,0,0,0,0,0,0,0,0,-0.261799,0.00159169,-1.5,nan,0,0,3,0,0,0,0,0,0
150,-3.34124e-12,1.79961e-38,-1.60394e-06,-3.40794e-12,1.79949e-38,-3.92437e-12,-1.1371e-13,0,0,0,0,0,0,0,0,0,0,0,0,0,0,0,0,0,0,0,0,0,-0.261799,0.00154134,-1.5,nan,0,0,3,0,0,0,0,0,0
160,-3.34124e-12,1.79961e-38,-1.60394e-06,-3.40794e-12,1.79949e-38,0,-1.1371e-13,0,0,0,0,0,0,0,0,0,0,0,0,0,0,0,0,0,0,0,0,0,-0.261799,0.00149559,-1.5,nan,0,0,3,0,0,0,0,0,0
170,-3.34124e-12,1.79961e-38,-1.60394e-06,-3.40794e-12,1.79949e-38,-3.92437e-12,-1.13711e-13,0,0,0,0,0,0,0,0,0,0,0,0,0,0,0,0,0,0,0,0,0,-0.261799,0.0014512,-1.5,nan,0,0,3,0,0,0,0,0,0
180,-3.34124e-12,1.79961e-38,-1.60394e-06,-3.40794e-12,1.79949e-38,0,-1.13711e-13,0,0,0,0,0,0,0,0,0,0,0,0,0,0,0,0,0,0,0,0,0,-0.261799,0.00140527,-1.5,nan,0,0,3,0,0,0,0,0,0
190,-3.34124e-12,1.79961e-38,-1.60394e-06,-3.40794e-12,1.79949e-38,-3.92437e-12,-1.13712e-13,0,0,0,0,0,0,0,0,0,0,0,0,0,0,0,0,0,0,0,0,0,-0.261799,0.00136356,-1.5,nan,0,0,3,0,0,0,0,0,0
200,-3.34124e-12,1.79961e-38,-1.60394e-06,-3.40794e-12,1.79949e-38,0,-1.13712e-13,0,0,0,0,0,0,0,0,0,0,0,0,0,0,0,0,0,0,0,0,0,-0.261799,0.00132309,-1.5,nan,0,0,3,0,0,0,0,0,0
210,-3.34124e-12,1.79961e-38,-1.60394e-06,-3.40794e-12,1.79949e-38,-3.92437e-12,-1.13713e-13,0,0,0,0,0,0,0,0,0,0,0,0,0,0,0,0,0,0,0,0,0,-0.261799,0.00128381,-1.5,nan,0,0,3,0,0,0,0,0,0
220,-3.34124e-12,1.79961e-38,-1.60394e-06,-3.40794e-12,1.79949e-38,0,-1.13714e-13,0,0,0,0,0,0,0,0,0,0,0,0,0,0,0,0,0,0,0,0,0,-0.261799,0.00124321,-1.5,nan,0,0,3,0,0,0,0,0,0
230,-3.34124e-12,1.79961e-38,-1.60394e-06,-3.40794e-12,1.79949e-38,-3.92437e-12,-1.13714e-13,0,0,-2.4667,-0.0265307,-0.12749,0,0,0,0,0,1.5333,-0.0265307,-1367297176,-1367297176,-1367297176,-1367297176,-1367297136,328653909,-1499737267,-1367297136,0,-0.261799,0.00119407,-1.5,nan,0,0,3,0,0,0,0,0,0
240,-3.34124e-12,1.79961e-38,-1.60394e-06,-3.40794e-12,1.79949e-38,0,-1.13715e-13,0,0,-2.4667,-0.0265307,-0.12749,0,0,0,0,0,1.5333,-0.0265307,-1367297176,-1367297176,-1367297176,-1367297176,-1367297136,328653909,-1499737267,-1367297136,0,-0.261799,0.00116098,-1.5,nan,0,0,3,0,0,0,0,0,0
250,-3.34124e-12,1.79961e-38,-1.60394e-06,-3.40794e-12,1.79949e-38,-3.92437e-12,-1.13715e-13,0,0,-2.4667,-0.0265307,-0.12749,0,0,0,0,0,1.5333,-0.0265307,-1367297176,-1367297176,-1367297176,-1367297176,-1367297136,328653909,-1499737267,-1367297136,0,-0.261799,0.00113338,-1.5,nan,0,0,3,0,0,0,0,0,0
260,-3.34124e-12,1.79961e-38,-1.60394e-06,-3.40794e-12,1.79949e-38,0,-1.13716e-13,0,0,-2.4667,-0.0265307,-0.12749,0,0,0,0,0,1.5333,-0.0265307,-1367297176,-1367297176,-1367297176,-1367297176,-1367297136,328653909,-1499737267,-1367297136,0,-0.261799,0.00109527,-1.5,nan,0,0,3,0,0,0,0,0,0
270,-3.34124e-12,1.79961e-38,-1.60394e-06,-3.40794e-12,1.79949e-38,-3.92437e-12,-1.13716e-13,0,0,-2.4667,-0.0265307,-0.12749,0,0,0,0,0,1.5333,-0.0265307,-1367297176,-1367297176,-1367297176,-1367297176,-1367297136,328653909,-1499737267,-1367297136,0,-0.261799,0.00106061,-1.5,nan,0,0,3,0,0,0,0,0,0
280,-3.34124e-12,1.79961e-38,-1.60394e-06,-3.40794e-12,1.79949e-38,0,-1.13717e-13,0,0,-2.4667,-0.0265307,-0.12749,0,0,0,0,0,1.5333,-0.0265307,-1367297176,-1367297176,-1367297176,-1367297176,-1367297136,328653909,-1499737267,-1367297136,0,-0.261799,0.00102913,-1.5,nan,0,0,3,0,0,0,0,0,0
290,-3.34124e-12,1.79961e-38,-1.60394e-06,-3.40794e-12,1.79949e-38,-3.92437e-12,-1.13717e-13,0,0,-2.49604,-0.0409666,-0.111576,0,0,0,0,0,1.50396,-0.0409666,-1367297176,-1367297176,-1367297176,-1367297176,-1367297136,328653909,-1499737267,-1367297136,0,-0.261799,0.000996557,-1.5,nan,0,0,3,0,0,0,0,0,0
300,-3.34124e-12,1.79961e-38,-1.60394e-06,-3.40794e-12,1.79949e-38,0,-1.13718e-13,0,0,-2.49604,-0.0409666,-0.111576,0,0,0,0,0,1.50396,-0.0409666,-1367297176,-1367297176,-1367297176,-1367297176,-1367297136,328653909,-1499737267,-1367297136,0,-0.261799,0.000966978,-1.5,nan,0,0,3,0,0,0,0,0,0
310,-3.34124e-12,1.79961e-38,-1.60394e-06,-3.40794e-12,1.79949e-38,-3.92437e-12,-1.13718e-13,0,0,-2.49604,-0.0409666,-0.111576,0,0,0,0,0,1.50396,-0.0409666,-1367297176,-1367297176,-1367297176,-1367297176,-1367297136,328653909,-1499737267,-1367297136,0,-0.261799,0.000936392,-1.5,nan,0,0,3,0,0,0,0,0,0
320,-3.34124e-12,1.79961e-38,-1.60394e-06,-3.40794e-12,1.79949e-38,0,-1.13719e-13,0,0,-2.49604,-0.0409666,-0.111576,0,0,0,0,0,1.50396,-0.0409666,-1367297176,-1367297176,-1367297176,-1367297176,-1367297136,328653909,-1499737267,-1367297136,0,-0.261799,0.000908599,-1.5,nan,0,0,3,0,0,0,0,0,0
330,-3.34124e-12,1.79961e-38,-1.60394e-06,-3.40794e-12,1.79949e-38,-3.92437e-12,-1.13719e-13,0,0,-2.49604,-0.0409666,-0.111576,0,0,0,0,0,1.50396,-0.0409666,-1367297176,-1367297176,-1367297176,-1367297176,-1367297136,328653909,-1499737267,-1367297136,0,-0.261799,0.00087986,-1.5,nan,0,0,3,0,0,0,0,0,0
340,-3.34124e-12,1.79961e-38,-1.60394e-06,-3.40794e-12,1.79949e-38,0,-1.1372e-13,0,0,-2.49604,-0.0409666,-0.111576,0,0,0,0,0,1.50396,-0.0409666,-1367297176,-1367297176,-1367297176,-1367297176,-1367297136,328653909,-1499737267,-1367297136,0,-0.261799,0.000853744,-1.5,nan,0,0,3,0,0,0,0,0,0
350,-3.34124e-12,1.79961e-38,-1.60394e-06,-3.40794e-12,1.79949e-38,-3.92437e-12,-1.13721e-13,0,0,-2.49604,-0.0409666,-0.111576,0,0,0,0,0,1.50396,-0.0409666,-1367297176,-1367297176,-1367297176,-1367297176,-1367297136,328653909,-1499737267,-1367297136,0,-0.261799,0.000828404,-1.5,nan,0,0,3,0,0,0,0,0,0
360,-3.34124e-12,1.79961e-38,-1.60394e-06,-3.40794e-12,1.79949e-38,0,-1.13721e-13,0,0,-2.49604,-0.0409666,-0.111576,0,0,0,0,0,1.50396,-0.0409666,-1367297176,-1367297176,-1367297176,-1367297176,-1367297136,328653909,-1499737267,-1367297136,0,-0.261799,0.000803815,-1.5,nan,0,0,3,0,0,0,0,0,0
370,-3.34124e-12,1.79961e-38,-1.60394e-06,-3.40794e-12,1.79949e-38,-3.92437e-12,-1.13722e-13,0,0,-2.49604,-0.0409666,-0.111576,0,0,0,0,0,1.50396,-0.0409666,-1367297176,-1367297176,-1367297176,-1367297176,-1367297136,328653909,-1499737267,-1367297136,0,-0.261799,0.000778375,-1.5,nan,0,0,3,0,0,0,0,0,0
380,-3.34124e-12,1.79961e-38,-1.60394e-06,-3.40794e-12,1.79949e-38,0,-1.13722e-13,0,0,-2.49604,-0.0409666,-0.111576,0,0,0,0,0,1.50396,-0.0409666,-1367297176,-1367297176,-1367297176,-1367297176,-1367297136,328653909,-1499737267,-1367297136,0,-0.261799,0.000756812,-1.5,nan,0,0,3,0,0,0,0,0,0
390,-3.34124e-12,1.79961e-38,-1.60394e-06,-3.40794e-12,1.79949e-38,-3.92437e-12,-1.13723e-13,0,0,-2.49604,-0.0409666,-0.111576,0,0,0,0,0,1.50396,-0.0409666,-1367297176,-1367297176,-1367297176,-1367297176,-1367297136,328653909,-1499737267,-1367297136,0,-0.261799,0.000735839,-1.5,nan,0,0,3,0,0,0,0,0,0
400,-3.34124e-12,1.79961e-38,-1.60394e-06,-3.40794e-12,1.79949e-38,0,-1.13723e-13,0,0,-2.49604,-0.0409666,-0.111576,0,0,0,0,0,1.50396,-0.0409666,-1367297176,-1367297176,-1367297176,-1367297176,-1367297136,328653909,-1499737267,-1367297136,0,-0.261799,0.000713998,-1.5,nan,0,0,3,0,0,0,0,0,0
410,-3.34124e-12,1.79961e-38,-1.60394e-06,-3.40794e-12,1.79949e-38,-3.92437e-12,-1.13724e-13,0,0,-2.49604,-0.0409666,-0.111576,0,0,0,0,0,1.50396,-0.0409666,-1367297176,-1367297176,-1367297176,-1367297176,-1367297136,328653909,-1499737267,-1367297136,0,-0.261799,0.0006914,-1.5,nan,0,0,3,0,0,0,0,0,0
420,-3.34124e-12,1.79961e-38,-1.60394e-06,-3.40794e-12,1.79949e-38,0,-1.13724e-13,0,0,-2.49604,-0.0409666,-0.111576,0,0,0,0,0,1.50396,-0.0409666,-1367297176,-1367297176,-1367297176,-1367297176,-1367297136,328653909,-1499737267,-1367297136,0,-0.261799,0.000670878,-1.5,nan,0,0,3,0,0,0,0,0,0
430,-3.34124e-12,1.79961e-38,-1.60394e-06,-3.40794e-12,1.79949e-38,-3.92437e-12,-1.13725e-13,0,0,-2.49604,-0.0409666,-0.111576,0,0,0,0,0,1.50396,-0.0409666,-1367297176,-1367297176,-1367297176,-1367297176,-1367297136,328653909,-1499737267,-1367297136,0,-0.261799,0.000650965,-1.5,nan,0,0,3,0,0,0,0,0,0
440,-3.34124e-12,1.79961e-38,-1.60394e-06,-3.40794e-12,1.79949e-38,0,-1.13725e-13,0,0,-2.49604,-0.0409666,-0.111576,0,0,0,0,0,1.50396,-0.0409666,-1367297176,-1367297176,-1367297176,-1367297176,-1367297136,328653909,-1499737267,-1367297136,0,-0.261799,0.000630375,-1.5,nan,0,0,3,0,0,0,0,0,0
450,-3.34124e-12,1.79961e-38,-1.60394e-06,-3.40794e-12,1.79949e-38,-3.92437e-12,-1.13726e-13,0,0,-2.49604,-0.0409666,-0.111576,0,0,0,0,0,1.50396,-0.0409666,-1367297176,-1367297176,-1367297176,-1367297176,-1367297136,328653909,-1499737267,-1367297136,0,-0.261799,0.000611675,-1.5,nan,0,0,3,0,0,0,0,0,0
460,-3.34124e-12,1.79961e-38,-1.60394e-06,-3.40794e-12,1.79949e-38,0,-1.13727e-13,0,0,-2.49604,-0.0409666,-0.111576,0,0,0,0,0,1.50396,-0.0409666,-1367297176,-1367297176,-1367297176,-1367297176,-1367297136,328653909,-1499737267,-1367297136,0,-0.261799,0.000593519,-1.5,nan,0,0,3,0,0,0,0,0,0
470,-3.34124e-12,1.79961e-38,-1.60394e-06,-3.40794e-12,1.79949e-38,-3.92437e-12,-1.13727e-13,0,0,-2.49604,-0.0409666,-0.111576,0,0,0,0,0,1.50396,-0.0409666,-1367297176,-1367297176,-1367297176,-1367297176,-1367297136,328653909,-1499737267,-1367297136,0,-0.261799,0.000574746,-1.5,nan,0,0,3,0,0,0,0,0,0
480,-3.34124e-12,1.79961e-38,-1.60394e-06,-3.40794e-12,1.79949e-38,0,-1.13728e-13,0,0,-2.49604,-0.0409666,-0.111576,0,0,0,0,0,1.50396,-0.0409666,-1367297176,-1367297176,-1367297176,-1367297176,-1367297136,328653909,-1499737267,-1367297136,0,-0.261799,0.000557687,-1.5,nan,0,0,3,0,0,0,0,0,0
490,-3.34124e-12,1.79961e-38,-1.60394e-06,-3.40794e-12,1.79949e-38,-3.92437e-12,-1.13728e-13,0,0,-2.49604,-0.0409666,-0.111576,0,0,0,0,0,1.50396,-0.0409666,-1367297176,-1367297176,-1367297176,-1367297176,-1367297136,328653909,-1499737267,-1367297136,0,-0.261799,0.000541134,-1.5,nan,0,0,3,0,0,0,0,0,0
500,-3.34124e-12,1.79961e-38,-1.60394e-06,-3.40794e-12,1.79949e-38,0,-1.13729e-13,0,0,-2.49604,-0.0409666,-0.111576,0,0,0,0,0,1.50396,-0.0409666,-1367297176,-1367297176,-1367297176,-1367297176,-1367297136,328653909,-1499737267,-1367297136,0,-0.261799,0.000522955,-1.5,nan,0,0,3,0,0,0,0,0,0
510,-3.34124e-12,1.79961e-38,-1.60394e-06,-3.40794e-12,1.79949e-38,-3.92437e-12,-1.13729e-13,0,0,-2.49604,-0.0409666,-0.111576,0,0,0,0,0,1.50396,-0.0409666,-1367297176,-1367297176,-1367297176,-1367297176,-1367297136,328653909,-1499737267,-1367297136,0,-0.261799,0.000507433,-1.5,nan,0,0,3,0,0,0,0,0,0
520,-3.34124e-12,1.79961e-38,-1.60394e-06,-3.40794e-12,1.79949e-38,0,-1.1373e-13,0,0,-2.49604,-0.0409666,-0.111576,0,0,0,0,0,1.50396,-0.0409666,-1367297176,-1367297176,-1367297176,-1367297176,-1367297136,328653909,-1499737267,-1367297136,0,-0.261799,0.00049337,-1.5,nan,0,0,3,0,0,0,0,0,0
530,-3.34124e-12,1.79961e-38,-1.60394e-06,-3.40794e-12,1.79949e-38,-3.92437e-12,-1.1373e-13,0,0,-2.49604,-0.0409666,-0.111576,0,0,0,0,0,1.50396,-0.0409666,-1367297176,-1367297176,-1367297176,-1367297176,-1367297136,328653909,-1499737267,-1367297136,0,-0.261799,0.000478734,-1.5,nan,0,0,3,0,0,0,0,0,0
540,-3.34124e-12,1.79961e-38,-1.60394e-06,-3.40794e-12,1.79949e-38,0,-1.13731e-13,0,0,-2.49604,-0.0409666,-0.111576,0,0,0,0,0,1.50396,-0.0409666,-1367297176,-1367297176,-1367297176,-1367297176,-1367297136,328653909,-1499737267,-1367297136,0,-0.261799,0.000464532,-1.5,nan,0,0,3,0,0,0,0,0,0
550,-3.34124e-12,1.79961e-38,-1.60394e-06,-3.40794e-12,1.79949e-38,-3.92437e-12,-1.13731e-13,0,0,-2.49604,-0.0409666,-0.111576,0,0,0,0,0,1.50396,-0.0409666,-1367297176,-1367297176,-1367297176,-1367297176,-1367297136,328653909,-1499737267,-1367297136,0,-0.261799,0.000450744,-1.5,nan,0,0,3,0,0,0,0,0,0
560,-3.34124e-12,1.79961e-38,-1.60394e-06,-3.40794e-12,1.79949e-38,0,-1.13732e-13,0,0,-2.49604,-0.0409666,-0.111576,0,0,0,0,0,1.50396,-0.0409666,-1367297176,-1367297176,-1367297176,-1367297176,-1367297136,328653909,-1499737267,-1367297136,0,-0.261799,0.00040904,-1.5,nan,0,0,3,0,0,0,0,0,0
570,-3.34124e-12,1.79961e-38,-1.60394e-06,-3.40794e-12,1.79949e-38,-3.92437e-12,-1.13732e-13,0,0,-2.49604,-0.0409666,-0.111576,0,0,0,0,0,1.50396,-0.0409666,-1367297176,-1367297176,-1367297176,-1367297176,-1367297136,328653909,-1499737267,-1367297136,0,-0.261799,0.000320418,-1.5,nan,0,0,3,0,0,0,0,0,0
580,-3.34124e-12,1.79961e-38,-1.60394e-06,-3.40794e-12,1.79949e-38,0,-1.13733e-13,0,0,-2.49604,-0.0409666,-0.111576,0,0,0,0,0,1.50396,-0.0409666,-1367297176,-1367297176,-1367297176,-1367297176,-1367297136,328653909,-1499737267,-1367297136,0,-0.261799,0.000293919,-1.5,nan,0,0,3,0,0,0,0,0,0
590,-3.34124e-12,1.79961e-38,-1.60394e-06,-3.40794e-12,1.79949e-38,-3.92437e-12,-1.13734e-13,0,0,-2.49604,-0.0409666,-0.111576,0,0,0,0,0,1.50396,-0.0409666,-1367297176,-1367297176,-1367297176,-1367297176,-1367297136,328653909,-1499737267,-1367297136,0,-0.261799,0.0002852,-1.5,nan,0,0,3,0,0,0,0,0,0
600,-3.34124e-12,1.79961e-38,-1.60394e-06,-3.40794e-12,1.79949e-38,0,-1.13734e-13,0,0,-2.47535,-0.0318864,-0.122237,0,0,0,0,0,1.52465,-0.0318864,-1367297176,-1367297176,-1367297176,-1367297176,-1367297136,328653909,-1499737267,-1367297136,0,-0.261799,0.000276179,-1.5,nan,0,0,3,0,0,0,0,0,0
610,-3.34124e-12,1.79961e-38,-1.60394e-06,-3.40794e-12,1.79949e-38,-3.92437e-12,-1.13735e-13,0,0,-2.47535,-0.0318864,-0.122237,0,0,0,0,0,1.52465,-0.0318864,-1367297176,-1367297176,-1367297176,-1367297176,-1367297136,328653909,-1499737267,-1367297136,0,-0.261799,0.000267986,-1.5,nan,0,0,3,0,0,0,0,0,0
620,-3.34124e-12,1.79961e-38,-1.60394e-06,-3.40794e-12,1.79949e-38,0,-1.13735e-13,0,0,-2.47535,-0.0318864,-0.122237,0,0,0,0,0,1.52465,-0.0318864,-1367297176,-1367297176,-1367297176,-1367297176,-1367297136,328653909,-1499737267,-1367297136,0,-0.261799,0.000260032,-1.5,nan,0,0,3,0,0,0,0,0,0
630,-3.34124e-12,1.79961e-38,-1.60394e-06,-3.40794e-12,1.79949e-38,-3.92437e-12,-1.13736e-13,0,0,-2.47535,-0.0318864,-0.122237,0,0,0,0,0,1.52465,-0.0318864,-1367297176,-1367297176,-1367297176,-1367297176,-1367297136,328653909,-1499737267,-1367297136,0,-0.261799,0.000252313,-1.5,nan,0,0,3,0,0,0,0,0,0
640,-3.34124e-12,1.79961e-38,-1.60394e-06,-3.40794e-12,1.79949e-38,0,-1.13736e-13,0,0,-2.47535,-0.0318864,-0.122237,0,0,0,0,0,1.52465,-0.0318864,-1367297176,-1367297176,-1367297176,-1367297176,-1367297136,328653909,-1499737267,-1367297136,0,-0.261799,0.000244824,-1.5,nan,0,0,3,0,0,0,0,0,0
650,-3.34124e-12,1.79961e-38,-1.60394e-06,-3.40794e-12,1.79949e-38,-3.92437e-12,-1.13737e-13,0,0,-2.47535,-0.0318864,-0.122237,0,0,0,0,0,1.52465,-0.0318864,-1367297176,-1367297176,-1367297176,-1367297176,-1367297136,328653909,-1499737267,-1367297136,0,-0.261799,0.000237558,-1.5,nan,0,0,3,0,0,0,0,0,0
660,-3.34124e-12,1.79961e-38,-1.60394e-06,-3.40794e-12,1.79949e-38,0,-1.13737e-13,0,0,-2.47535,-0.0318864,-0.122237,0,0,0,0,0,1.52465,-0.0318864,-1367297176,-1367297176,-1367297176,-1367297176,-1367297136,328653909,-1499737267,-1367297136,0,-0.261799,0.000230977,-1.5,nan,0,0,3,0,0,0,0,0,0
670,-3.34124e-12,1.79961e-38,-1.60394e-06,-3.40794e-12,1.79949e-38,-3.92437e-12,-1.13738e-13,0,0,-2.47535,-0.0318864,-0.122237,0,0,0,0,0,1.52465,-0.0318864,-1367297176,-1367297176,-1367297176,-1367297176,-1367297136,328653909,-1499737267,-1367297136,0,-0.261799,0.000224578,-1.5,nan,0,0,3,0,0,0,0,0,0
680,-3.34124e-12,1.79961e-38,-1.60394e-06,-3.40794e-12,1.79949e-38,0,-1.13738e-13,0,0,-2.47535,-0.0318864,-0.122237,0,0,0,0,0,1.52465,-0.0318864,-1367297176,-1367297176,-1367297176,-1367297176,-1367297136,328653909,-1499737267,-1367297136,0,-0.261799,0.000217916,-1.5,nan,0,0,3,0,0,0,0,0,0
690,-3.34124e-12,1.79961e-38,-1.60394e-06,-3.40794e-12,1.79949e-38,-3.92437e-12,-1.13739e-13,0,0,-2.47535,-0.0318864,-0.122237,0,0,0,0,0,1.52465,-0.0318864,-1367297176,-1367297176,-1367297176,-1367297176,-1367297136,328653909,-1499737267,-1367297136,0,-0.261799,0.000211448,-1.5,nan,0,0,3,0,0,0,0,0,0
700,-3.34124e-12,1.79961e-38,-1.60394e-06,-3.40794e-12,1.79949e-38,0,-1.1374e-13,0,0,-2.47535,-0.0318864,-0.122237,0,0,0,0,0,1.52465,-0.0318864,-1367297176,-1367297176,-1367297176,-1367297176,-1367297136,328653909,-1499737267,-1367297136,0,-0.261799,0.000205172,-1.5,nan,0,0,3,0,0,0,0,0,0
710,-3.34124e-12,1.79961e-38,-1.60394e-06,-3.40794e-12,1.79949e-38,-3.92437e-12,-1.1374e-13,0,0,-2.47535,-0.0318864,-0.122237,0,0,0,0,0,1.52465,-0.0318864,-1367297176,-1367297176,-1367297176,-1367297176,-1367297136,328653909,-1499737267,-1367297136,0,-0.261799,0.000198682,-1.5,nan,0,0,3,0,0,0,0,0,0
720,-3.34124e-12,1.79961e-38,-1.60394e-06,-3.40794e-12,1.79949e-38,0,-1.13741e-13,0,0,-2.47535,-0.0318864,-0.122237,0,0,0,0,0,1.52465,-0.0318864,-1367297176,-1367297176,-1367297176,-1367297176,-1367297136,328653909,-1499737267,-1367297136,0,-0.261799,0.000192788,-1.5,nan,0,0,3,0,0,0,0,0,0
730,-3.34124e-12,1.79961e-38,-1.60394e-06,-3.40794e-12,1.79949e-38,-3.92437e-12,-1.13741e-13,0,0,-2.47535,-0.0318864,-0.122237,0,0,0,0,0,1.52465,-0.0318864,-1367297176,-1367297176,-1367297176,-1367297176,-1367297136,328653909,-1499737267,-1367297136,0,-0.261799,0.000187066,-1.5,nan,0,0,3,0,0,0,0,0,0
740,-3.34124e-12,1.79961e-38,-1.60394e-06,-3.40794e-12,1.79949e-38,0,-1.13742e-13,0,0,-2.47535,-0.0318864,-0.122237,0,0,0,0,0,1.52465,-0.0318864,-1367297176,-1367297176,-1367297176,-1367297176,-1367297136,328653909,-1499737267,-1367297136,0,-0.261799,0.000181514,-1.5,nan,0,0,3,0,0,0,0,0,0
750,-3.34124e-12,1.79961e-38,-1.60394e-06,-3.40794e-12,1.79949e-38,-3.92437e-12,-1.13742e-13,0,0,-2.47535,-0.0318864,-0.122237,0,0,0,0,0,1.52465,-0.0318864,-1367297176,-1367297176,-1367297176,-1367297176,-1367297136,328653909,-1499737267,-1367297136,0,-0.261799,0.000176126,-1.5,nan,0,0,3,0,0,0,0,0,0
760,-3.34124e-12,1.79961e-38,-1.60394e-06,-3.40794e-12,1.79949e-38,0,-1.13743e-13,0,0,-2.47535,-0.0318864,-0.122237,0,0,0,0,0,1.52465,-0.0318864,-1367297176,-1367297176,-1367297176,-1367297176,-1367297136,328653909,-1499737267,-1367297136,0,-0.261799,0.000170555,-1.5,nan,0,0,3,0,0,0,0,0,0
770,-3.34124e-12,1.79961e-38,-1.60394e-06,-3.40794e-12,1.79949e-38,-3.92437e-12,-1.13743e-13,0,0,-2.47535,-0.0318864,-0.122237,0,0,0,0,0,1.52465,-0.0318864,-1367297176,-1367297176,-1367297176,-1367297176,-1367297136,328653909,-1499737267,-1367297136,0,-0.261799,0.000165495,-1.5,nan,0,0,3,0,0,0,0,0,0
780,-3.34124e-12,1.79961e-38,-1.60394e-06,-3.40794e-12,1.79949e-38,0,-1.13744e-13,0,0,-2.69278,-0.0357524,-0.0962473,0,0,0,0,0,1.30722,-0.0357524,-1367297176,-1367297176,-1367297176,-1367297176,-1367297136,328653909,-1499737267,-1367297136,0,-0.261799,0.000160586,-1.5,nan,0,0,3,0,0,0,0,0,0
790,-3.34124e-12,1.79961e-38,-1.60394e-06,-3.40794e-12,1.79949e-38,-3.92437e-12,-1.13744e-13,0,0,-2.69278,-0.0357524,-0.0962473,0,0,0,0,0,1.30722,-0.0357524,-1367297176,-1367297176,-1367297176,-1367297176,-1367297136,328653909,-1499737267,-1367297136,0,-0.261799,0.00015582,-1.5,nan,0,0,3,0,0,0,0,0,0
800,-3.34124e-12,1.79961e-38,-1.60394e-06,-3.40794e-12,1.79949e-38,0,-1.13745e-13,0,0,-2.69278,-0.0357524,-0.0962473,0,0,0,0,0,1.30722,-0.0357524,-1367297176,-1367297176,-1367297176,-1367297176,-1367297136,328653909,-1499737267,-1367297136,0,-0.261799,0.000151501,-1.5,nan,0,0,3,0,0,0,0,0,0
810,-3.34124e-12,1.79961e-38,-1.60394e-06,-3.40794e-12,1.79949e-38,-3.92437e-12,-1.13745e-13,0,0,-2.69278,-0.0357524,-0.0962473,0,0,0,0,0,1.30722,-0.0357524,-1367297176,-1367297176,-1367297176,-1367297176,-1367297136,328653909,-1499737267,-1367297136,0,-0.261799,0.000147303,-1.5,nan,0,0,3,0,0,0,0,0,0
820,-3.34124e-12,1.79961e-38,-1.60394e-06,-3.40794e-12,1.79949e-38,0,-1.13746e-13,0,0,-2.69278,-0.0357524,-0.0962473,0,0,0,0,0,1.30722,-0.0357524,-1367297176,-1367297176,-1367297176,-1367297176,-1367297136,328653909,-1499737267,-1367297136,0,-0.261799,0.000142643,-1.5,nan,0,0,3,0,0,0,0,0,0
830,-3.34124e-12,1.79961e-38,-1.60394e-06,-3.40794e-12,1.79949e-38,-3.92437e-12,-1.13747e-13,0,0,-2.69278,-0.0357524,-0.0962473,0,0,0,0,0,1.30722,-0.0357524,-1367297176,-1367297176,-1367297176,-1367297176,-1367297136,328653909,-1499737267,-1367297136,0,-0.261799,0.000138412,-1.5,nan,0,0,3,0,0,0,0,0,0
840,-3.34124e-12,1.79961e-38,-1.60394e-06,-3.40794e-12,1.79949e-38,0,-1.13747e-13,0,0,-2.69278,-0.0357524,-0.0962473,0,0,0,0,0,1.30722,-0.0357524,-1367297176,-1367297176,-1367297176,-1367297176,-1367297136,328653909,-1499737267,-1367297136,0,-0.261799,0.000134303,-1.5,nan,0,0,3,0,0,0,0,0,0
850,-3.34124e-12,1.79961e-38,-1.60394e-06,-3.40794e-12,1.79949e-38,-3.92437e-12,-1.13748e-13,0,0,-2.69278,-0.0357524,-0.0962473,0,0,0,0,0,1.30722,-0.0357524,-1367297176,-1367297176,-1367297176,-1367297176,-1367297136,328653909,-1499737267,-1367297136,0,-0.261799,0.000130317,-1.5,nan,0,0,3,0,0,0,0,0,0
860,-3.34124e-12,1.79961e-38,-1.60394e-06,-3.40794e-12,1.79949e-38,0,-1.13748e-13,0,0,-2.69278,-0.0357524,-0.0962473,0,0,0,0,0,1.30722,-0.0357524,-1367297176,-1367297176,-1367297176,-1367297176,-1367297136,328653909,-1499737267,-1367297136,0,-0.261799,0.000126449,-1.5,nan,0,0,3,0,0,0,0,0,0
870,-3.34124e-12,1.79961e-38,-1.60394e-06,-3.40794e-12,1.79949e-38,-3.92437e-12,-1.13749e-13,0,0,-2.69278,-0.0357524,-0.0962473,0,0,0,0,0,1.30722,-0.0357524,-1367297176,-1367297176,-1367297176,-1367297176,-1367297136,328653909,-1499737267,-1367297136,0,-0.261799,0.000122696,-1.5,nan,0,0,3,0,0,0,0,0,0
880,-3.34124e-12,1.79961e-38,-1.60394e-06,-3.40794e-12,1.79949e-38,0,-1.13749e-13,0,0,-2.69278,-0.0357524,-0.0962473,0,0,0,0,0,1.30722,-0.0357524,-1367297176,-1367297176,-1367297176,-1367297176,-1367297136,328653909,-1499737267,-1367297136,0,-0.261799,0.000119054,-1.5,nan,0,0,3,0,0,0,0,0,0
890,-3.34124e-12,1.79961e-38,-1.60394e-06,-3.40794e-12,1.79949e-38,-3.92437e-12,-1.1375e-13,0,0,-2.69278,-0.0357524,-0.0962473,0,0,0,0,0,1.30722,-0.0357524,-1367297176,-1367297176,-1367297176,-1367297176,-1367297136,328653909,-1499737267,-1367297136,0,-0.261799,0.000115286,-1.5,nan,0,0,3,0,0,0,0,0,0
900,-3.34124e-12,1.79961e-38,-1.60394e-06,-3.40794e-12,1.79949e-38,0,-1.1375e-13,0,0,-2.69278,-0.0357524,-0.0962473,0,0,0,0,0,1.30722,-0.0357524,-1367297176,-1367297176,-1367297176,-1367297176,-1367297136,328653909,-1499737267,-1367297136,0,-0.261799,0.000111866,-1.5,nan,0,0,3,0,0,0,0,0,0
910,-3.34124e-12,1.79961e-38,-1.60394e-06,-3.40794e-12,1.79949e-38,-3.92437e-12,-1.13751e-13,0,0,-2.69278,-0.0357524,-0.0962473,0,0,0,0,0,1.30722,-0.0357524,-1367297176,-1367297176,-1367297176,-1367297176,-1367297136,328653909,-1499737267,-1367297136,0,-0.261799,0.000108546,-1.5,nan,0,0,3,0,0,0,0,0,0
920,-3.34124e-12,1.79961e-38,-1.60394e-06,-3.40794e-12,1.79949e-38,0,-1.13751e-13,0,0,-2.69278,-0.0357524,-0.0962473,0,0,0,0,0,1.30722,-0.0357524,-1367297176,-1367297176,-1367297176,-1367297176,-1367297136,328653909,-1499737267,-1367297136,0,-0.261799,0.000105324,-1.5,nan,0,0,3,0,0,0,0,0,0
930,-3.34124e-12,1.79961e-38,-1.60394e-06,-3.40794e-12,1.79949e-38,-3.92437e-12,-1.13752e-13,0,0,-2.69278,-0.0357524,-0.0962473,0,0,0,0,0,1.30722,-0.0357524,-1367297176,-1367297176,-1367297176,-1367297176,-1367297136,328653909,-1499737267,-1367297136,0,-0.261799,0.000101992,-1.5,nan,0,0,3,0,0,0,0,0,0
940,-3.34124e-12,1.79961e-38,-1.60394e-06,-3.40794e-12,1.79949e-38,0,-1.13753e-13,0,0,-2.69278,-0.0357524,-0.0962473,0,0,0,0,0,1.30722,-0.0357524,-1367297176,-1367297176,-1367297176,-1367297176,-1367297136,328653909,-1499737267,-1367297136,0,-0.261799,9.91671e-05,-1.5,nan,0,0,3,0,0,0,0,0,0
950,-3.34124e-12,1.79961e-38,-1.60394e-06,-3.40794e-12,1.79949e-38,-3.92437e-12,-1.13753e-13,0,0,-2.69278,-0.0357524,-0.0962473,0,0,0,0,0,1.30722,-0.0357524,-1367297176,-1367297176,-1367297176,-1367297176,-1367297136,328653909,-1499737267,-1367297136,0,-0.261799,9.64189e-05,-1.5,nan,0,0,3,0,0,0,0,0,0
960,-3.34124e-12,1.79961e-38,-1.60394e-06,-3.40794e-12,1.79949e-38,0,-1.13754e-13,0,0,-2.69278,-0.0357524,-0.0962473,0,0,0,0,0,1.30722,-0.0357524,-1367297176,-1367297176,-1367297176,-1367297176,-1367297136,328653909,-1499737267,-1367297136,0,-0.261799,9.3557e-05,-1.5,nan,0,0,3,0,0,0,0,0,0
970,-3.34124e-12,1.79961e-38,-1.60394e-06,-3.40794e-12,1.79949e-38,-3.92437e-12,-1.13754e-13,0,0,-2.69278,-0.0357524,-0.0962473,0,0,0,0,0,1.30722,-0.0357524,-1367297176,-1367297176,-1367297176,-1367297176,-1367297136,328653909,-1499737267,-1367297136,0,-0.261799,9.07801e-05,-1.5,nan,0,0,3,0,0,0,0,0,0
980,-3.34124e-12,1.79961e-38,-1.60394e-06,-3.40794e-12,1.79949e-38,0,-1.13755e-13,0,0,-2.69278,-0.0357524,-0.0962473,0,0,0,0,0,1.30722,-0.0357524,-1367297176,-1367297176,-1367297176,-1367297176,-1367297136,328653909,-1499737267,-1367297136,0,-0.261799,8.79087e-05,-1.5,nan,0,0,3,0,0,0,0,0,0
990,-3.34124e-12,1.79961e-38,-1.60394e-06,-3.40794e-12,1.79949e-38,-3.92437e-12,-1.13755e-13,0,0,-2.69278,-0.0357524,-0.0962473,0,0,0,0,0,1.30722,-0.0357524,-1367297176,-1367297176,-1367297176,-1367297176,-1367297136,328653909,-1499737267,-1367297136,0,-0.261799,8.53008e-05,-1.5,nan,0,0,3,0,0,0,0,0,0
1000,-3.34124e-12,1.79961e-38,-1.60394e-06,-3.40794e-12,1.79949e-38,0,-1.13756e-13,0,0,-2.69278,-0.0357524,-0.0962473,0,0,0,0,0,1.30722,-0.0357524,-1367297176,-1367297176,-1367297176,-1367297176,-1367297136,328653909,-1499737267,-1367297136,0,-0.261799,8.2769e-05,-1.5,nan,0,0,3,0,0,0,0,0,0
1010,-3.34124e-12,1.79961e-38,-1.60394e-06,-3.40794e-12,1.79949e-38,-3.92437e-12,-1.13756e-13,0,0,-2.69278,-0.0357524,-0.0962473,0,0,0,0,0,1.30722,-0.0357524,-1367297176,-1367297176,-1367297176,-1367297176,-1367297136,328653909,-1499737267,-1367297136,0,-0.261799,8.03122e-05,-1.5,nan,0,0,3,0,0,0,0,0,0
1020,-3.34124e-12,1.79961e-38,-1.60394e-06,-3.40794e-12,1.79949e-38,0,-1.13757e-13,0,0,-2.69278,-0.0357524,-0.0962473,0,0,0,0,0,1.30722,-0.0357524,-1367297176,-1367297176,-1367297176,-1367297176,-1367297136,328653909,-1499737267,-1367297136,0,-0.261799,7.77704e-05,-1.5,nan,0,0,3,0,0,0,0,0,0
1030,-3.34124e-12,1.79961e-38,-1.60394e-06,-3.40794e-12,1.79949e-38,-3.92437e-12,-1.13757e-13,0,0,-2.69278,-0.0357524,-0.0962473,0,0,0,0,0,1.30722,-0.0357524,-1367297176,-1367297176,-1367297176,-1367297176,-1367297136,328653909,-1499737267,-1367297136,0,-0.261799,7.5462e-05,-1.5,nan,0,0,3,0,0,0,0,0,0
1040,-3.34124e-12,1.79961e-38,-1.60394e-06,-3.40794e-12,1.79949e-38,0,-1.13758e-13,0,0,-3.00997,-0.0366396,-0.03155,0,0,0,0,0,0.990026,-0.0366396,-1367297176,-1367297176,-1367297176,-1367297176,-1367297136,328653909,-1499737267,-1367297136,0,-0.261799,7.32222e-05,-1.5,nan,0,0,3,0,0,0,0,0,0
1050,-3.34124e-12,1.79961e-38,-1.60394e-06,-3.40794e-12,1.79949e-38,-3.92437e-12,-1.13759e-13,0,0,-3.00997,-0.0366396,-0.03155,0,0,0,0,0,0.990026,-0.0366396,-1367297176,-1367297176,-1367297176,-1367297176,-1367297136,328653909,-1499737267,-1367297136,0,-0.261799,7.09062e-05,-1.5,nan,0,0,3,0,0,0,0,0,0
1060,-3.34124e-12,1.79961e-38,-1.60394e-06,-3.40794e-12,1.79949e-38,0,-1.13759e-13,0,0,-3.00997,-0.0366396,-0.03155,0,0,0,0,0,0.990026,-0.0366396,-1367297176,-1367297176,-1367297176,-1367297176,-1367297136,328653909,-1499737267,-1367297136,0,-0.261799,6.88016e-05,-1.5,nan,0,0,3,0,0,0,0,0,0
1070,-3.34124e-12,1.79961e-38,-1.60394e-06,-3.40794e-12,1.79949e-38,-3.92437e-12,-1.1376e-13,0,0,-3.00997,-0.0366396,-0.03155,0,0,0,0,0,0.990026,-0.0366396,-1367297176,-1367297176,-1367297176,-1367297176,-1367297136,328653909,-1499737267,-1367297136,0,-0.261799,6.67594e-05,-1.5,nan,0,0,3,0,0,0,0,0,0
1080,-3.34124e-12,1.79961e-38,-1.60394e-06,-3.40794e-12,1.79949e-38,0,-1.1376e-13,0,0,-3.00997,-0.0366396,-0.03155,0,0,0,0,0,0.990026,-0.0366396,-1367297176,-1367297176,-1367297176,-1367297176,-1367297136,328653909,-1499737267,-1367297136,0,-0.261799,6.47789e-05,-1.5,nan,0,0,3,0,0,0,0,0,0
1090,-3.34124e-12,1.79961e-38,-1.60394e-06,-3.40794e-12,1.79949e-38,-3.92437e-12,-1.13761e-13,0,0,-2.99474,-0.035894,-0.0335868,0,0,0,0,0,1.00526,-0.035894,-1367297176,-1367297176,-1367297176,-1367297176,-1367297136,328653909,-1499737267,-1367297136,0,-0.261799,6.28572e-05,-1.5,nan,0,0,3,0,0,0,0,0,0
1100,-3.34124e-12,1.79961e-38,-1.60394e-06,-3.40794e-12,1.79949e-38,0,-1.13761e-13,0,0,-2.99474,-0.035894,-0.0335868,0,0,0,0,0,1.00526,-0.035894,-1367297176,-1367297176,-1367297176,-1367297176,-1367297136,328653909,-1499737267,-1367297136,0,-0.261799,6.09925e-05,-1.5,nan,0,0,3,0,0,0,0,0,0
1110,-3.34124e-12,1.79961e-38,-1.60394e-06,-3.40794e-12,1.79949e-38,-3.92437e-12,-1.13762e-13,0,0,-2.99474,-0.035894,-0.0335868,0,0,0,0,0,1.00526,-0.035894,-1367297176,-1367297176,-1367297176,-1367297176,-1367297136,328653909,-1499737267,-1367297136,0,-0.261799,5.91831e-05,-1.5,nan,0,0,3,0,0,0,0,0,0
1120,-3.34124e-12,1.79961e-38,-1.60394e-06,-3.40794e-12,1.79949e-38,0,-1.13762e-13,0,0,-2.99474,-0.035894,-0.0335868,0,0,0,0,0,1.00526,-0.035894,-1367297176,-1367297176,-1367297176,-1367297176,-1367297136,328653909,-1499737267,-1367297136,0,-0.261799,5.74265e-05,-1.5,nan,0,0,3,0,0,0,0,0,0
1130,-3.34124e-12,1.79961e-38,-1.60394e-06,-3.40794e-12,1.79949e-38,-3.92437e-12,-1.13763e-13,0,0,-2.99474,-0.035894,-0.0335868,0,0,0,0,0,1.00526,-0.035894,-1367297176,-1367297176,-1367297176,-1367297176,-1367297136,328653909,-1499737267,-1367297136,0.0421159,-0.261799,5.50438e-05,-1.5,nan,0,0,3,0.952319,-0.0359189,0,0,0,0
1140,-3.34124e-12,1.79961e-38,-1.60394e-06,-3.40794e-12,1.79949e-38,0,-1.13763e-13,0,0,-2.99474,-0.035894,-0.0335868,0,0,0,0,0,1.00526,-0.035894,-1367297176,-1367297176,-1367297176,-1367297176,-1367297136,328653909,-1499737267,-1367297136,0.0421216,-0.261799,5.33028e-05,-1.5,nan,0,0,3,0.941861,-0.0359238,0,0,0,0
1150,-3.34124e-12,1.79961e-38,-1.60394e-06,-3.40794e-12,1.79949e-38,-3.92437e-12,-1.13764e-13,0,0,-2.99474,-0.035894,-0.0335868,0,0,0,0,0,1.00526,-0.035894,-1367297176,-1367297176,-1367297176,-1367297176,-1367297136,328653909,-1499737267,-1367297136,0.0421269,-0.261799,5.17207e-05,-1.5,nan,0,0,3,0.932057,-0.0359284,0,0,0,0
1160,-3.34124e-12,1.79961e-38,-1.60394e-06,-3.40794e-12,1.79949e-38,0,-1.13764e-13,0,0,-2.99474,-0.035894,-0.0335868,0,0,0,0,0,1.00526,-0.035894,-1367297176,-1367297176,-1367297176,-1367297176,-1367297136,328653909,-1499737267,-1367297136,0.0421323,-0.261799,5.01855e-05,-1.5,nan,0,0,3,0.922253,-0.035933,0,0,0,0
1170,-3.34124e-12,1.79961e-38,-1.60394e-06,-3.40794e-12,1.79949e-38,-3.92437e-12,-1.13765e-13,0,0,-2.99474,-0.035894,-0.0335868,0,0,0,0,0,1.00526,-0.035894,-1367297176,-1367297176,-1367297176,-1367297176,-1367297136,328653909,-1499737267,-1367297136,0.042138,-0.261799,4.85981e-05,-1.5,nan,0,0,3,0.911796,-0.0359379,0,0,0,0
1180,-3.34124e-12,1.79961e-38,-1.60394e-06,-3.40794e-12,1.79949e-38,0,-1.13766e-13,0,0,-2.99474,-0.035894,-0.0335868,0,0,0,0,0,1.00526,-0.035894,-1367297176,-1367297176,-1367297176,-1367297176,-1367297136,328653909,-1499737267,-1367297136,0.0421433,-0.261799,4.71564e-05,-1.5,nan,0,0,3,0.901992,-0.0359425,0,0,0,0
1190,-3.34124e-12,1.79961e-38,-1.60394e-06,-3.40794e-12,1.79949e-38,-3.92437e-12,-1.13766e-13,0,0,-2.99474,-0.035894,-0.0335868,0,0,0,0,0,1.00526,-0.035894,-1367297176,-1367297176,-1367297176,-1367297176,-1367297136,328653909,-1499737267,-1367297136,0.0421487,-0.261799,4.57568e-05,-1.5,nan,0,0,3,0.892188,-0.0359471,0,0,0,0
1200,-3.34124e-12,1.79961e-38,-1.60394e-06,-3.40794e-12,1.79949e-38,0,-1.13767e-13,0,0,-2.99474,-0.035894,-0.0335868,0,0,0,0,0,1.00526,-0.035894,-1367297176,-1367297176,-1367297176,-1367297176,-1367297136,328653909,-1499737267,-1367297136,0.0421541,-0.261799,4.43986e-05,-1.5,nan,0,0,3,0.882384,-0.0359517,0,0,0,0
1210,-3.34124e-12,1.79961e-38,-1.60394e-06,-3.40794e-12,1.79949e-38,-3.92437e-12,-1.13767e-13,0,0,-2.99474,-0.035894,-0.0335868,0,0,0,0,0,1.00526,-0.035894,-1367297176,-1367297176,-1367297176,-1367297176,-1367297136,328653909,-1499737267,-1367297136,0.0421594,-0.261799,4.31687e-05,-1.5,nan,0,0,3,0.87258,-0.0359563,0,0,0,0
1220,-3.34124e-12,1.79961e-38,-1.60394e-06,-3.40794e-12,1.79949e-38,0,-1.13768e-13,0,0,-2.96884,-0.0443048,-0.0468468,0,0,0,0,0,1.03116,-0.0443048,-1367297176,-1367297176,-1367297176,-1367297176,-1367297136,328653909,-1499737267,-1367297136,0.0456043,-0.261799,4.17185e-05,-1.5,nan,0,0,3,0.912705,-0.0372689,0,0,0,0
1230,-3.34124e-12,1.79961e-38,-1.60394e-06,-3.40794e-12,1.79949e-38,-3.92437e-12,-1.13768e-13,0,0,-2.96884,-0.0443048,-0.0468468,0,0,0,0,0,1.03116,-0.0443048,-1367297176,-1367297176,-1367297176,-1367297176,-1367297136,328653909,-1499737267,-1367297136,0.0456509,-0.261799,4.02364e-05,-1.5,nan,0,0,3,0.902293,-0.0373089,0,0,0,0
1240,-3.34124e-12,1.79961e-38,-1.60394e-06,-3.40794e-12,1.79949e-38,0,-1.13769e-13,0,0,-2.96884,-0.0443048,-0.0468468,0,0,0,0,0,1.03116,-0.0443048,-1367297176,-1367297176,-1367297176,-1367297176,-1367297136,328653909,-1499737267,-1367297136,0.0456898,-0.261799,3.90421e-05,-1.5,nan,0,0,3,0.893616,-0.0373423,0,0,0,0
1250,-3.34124e-12,1.79961e-38,-1.60394e-06,-3.40794e-12,1.79949e-38,-3.92437e-12,-1.13769e-13,0,0,-2.96234,-0.0485464,-0.0481053,0,0,0,0,0,1.03766,-0.0485464,-1367297176,-1367297176,-1367297176,-1367297176,-1367297136,328653909,-1499737267,-1367297136,0.0786116,-0.261799,3.7655e-05,-1.5,nan,0,0,3,1.03539,-0.0452889,0,0,0,0
1260,-3.34124e-12,1.79961e-38,-1.60394e-06,-3.40794e-12,1.79949e-38,0,-1.1377e-13,0,0,-2.96234,-0.0485464,-0.0481053,0,0,0,0,0,1.03766,-0.0485464,-1367297176,-1367297176,-1367297176,-1367297176,-1367297136,328653909,-1499737267,-1367297136,0.0790637,-0.261799,3.65374e-05,-1.5,nan,0,0,3,1.03706,-0.0456773,0,0,0,0
1270,-3.34124e-12,1.79961e-38,-1.60394e-06,-3.40794e-12,1.79949e-38,-3.92437e-12,-1.1377e-13,0,0,-2.96234,-0.0485464,-0.0481053,0,0,0,0,0,1.03766,-0.0485464,-1367297176,-1367297176,-1367297176,-1367297176,-1367297136,328653909,-1499737267,-1367297136,0.079546,-0.261799,3.53817e-05,-1.5,nan,0,0,3,1.03883,-0.0460917,0,0,0,0
1280,-3.34124e-12,1.79961e-38,-1.60394e-06,-3.40794e-12,1.79949e-38,0,-1.13771e-13,0,0,-2.96234,-0.0485464,-0.0481053,0,0,0,0,0,1.03766,-0.0485464,-1367297176,-1367297176,-1367297176,-1367297176,-1367297136,328653909,-1499737267,-1367297136,0.0800584,-0.261799,3.41922e-05,-1.5,nan,0,0,3,1.04072,-0.0465319,0,0,0,0
1290,-3.34124e-12,1.79961e-38,-1.60394e-06,-3.40794e-12,1.79949e-38,-3.92437e-12,-1.13772e-13,0,0,-2.96234,-0.0485464,-0.0481053,0,0,0,0,0,1.03766,-0.0485464,-1367297176,-1367297176,-1367297176,-1367297176,-1367297136,328653909,-1499737267,-1367297136,0.0805106,-0.261799,3.31774e-05,-1.5,nan,0,0,3,1.04239,-0.0469204,0,0,0,0
1300,-3.34124e-12,1.79961e-38,-1.60394e-06,-3.40794e-12,1.79949e-38,0,-1.13772e-13,0,0,-2.96234,-0.0485464,-0.0481053,0,0,0,0,0,1.03766,-0.0485464,-1367297176,-1367297176,-1367297176,-1367297176,-1367297136,328653909,-1499737267,-1367297136,0.0809929,-0.261799,3.2128e-05,-1.5,nan,0,0,3,1.04417,-0.0473347,0,0,0,0
1310,-3.34124e-12,1.79961e-38,-1.60394e-06,-3.40794e-12,1.79949e-38,-3.92437e-12,-1.13773e-13,0,0,-2.96234,-0.0485464,-0.0481053,0,0,0,0,0,1.03766,-0.0485464,-1367297176,-1367297176,-1367297176,-1367297176,-1367297136,328653909,-1499737267,-1367297136,0.081445,-0.261799,3.11749e-05,-1.5,nan,0,0,3,1.04584,-0.0477231,0,0,0,0
1320,-3.34124e-12,1.79961e-38,-1.60394e-06,-3.40794e-12,1.79949e-38,0,-1.13773e-13,0,0,-2.96234,-0.0485464,-0.0481053,0,0,0,0,0,1.03766,-0.0485464,-1367297176,-1367297176,-1367297176,-1367297176,-1367297136,328653909,-1499737267,-1367297136,0.081867,-0.261799,3.03109e-05,-1.5,nan,0,0,3,1.04739,-0.0480857,0,0,0,0
1330,-3.34124e-12,1.79961e-38,-1.60394e-06,-3.40794e-12,1.79949e-38,-3.92437e-12,-1.13774e-13,0,0,-2.96234,-0.0485464,-0.0481053,0,0,0,0,0,1.03766,-0.0485464,-1367297176,-1367297176,-1367297176,-1367297176,-1367297136,328653909,-1499737267,-1367297136,0.0823493,-0.261799,2.94112e-05,-1.5,nan,0,0,3,1.04917,-0.0485,0,0,0,0
1340,-3.34124e-12,1.79961e-38,-1.60394e-06,-3.40794e-12,1.79949e-38,0,-1.13774e-13,0,0,-2.96234,-0.0485464,-0.0481053,0,0,0,0,0,1.03766,-0.0485464,-1367297176,-1367297176,-1367297176,-1367297176,-1367297136,328653909,-1499737267,-1367297136,0.0828014,-0.261799,2.85387e-05,-1.5,nan,0,0,3,1.05084,-0.0488885,0,0,0,0
1350,-3.34124e-12,1.79961e-38,-1.60394e-06,-3.40794e-12,1.79949e-38,-3.92437e-12,-1.13775e-13,0,0,-2.96234,-0.0485464,-0.0481053,0,0,0,0,0,1.03766,-0.0485464,-1367297176,-1367297176,-1367297176,-1367297176,-1367297136,328653909,-1499737267,-1367297136,0.0832234,-0.261799,2.77478e-05,-1.5,nan,0,0,3,1.0524,-0.049251,0,0,0,0
1360,-3.34124e-12,1.79961e-38,-1.60394e-06,-3.40794e-12,1.79949e-38,0,-1.13775e-13,0,0,-2.96234,-0.0485464,-0.0481053,0,0,0,0,0,1.03766,-0.0485464,-1367297176,-1367297176,-1367297176,-1367297176,-1367297136,328653909,-1499737267,-1367297136,0.0837057,-0.261799,2.68696e-05,-1.5,nan,0,0,3,1.05418,-0.0496653,0,0,0,0
1370,-3.34124e-12,1.79961e-38,-1.60394e-06,-3.40794e-12,1.79949e-38,-3.92437e-12,-1.13776e-13,0,0,-2.96234,-0.0485464,-0.0481053,0,0,0,0,0,1.03766,-0.0485464,-1367297176,-1367297176,-1367297176,-1367297176,-1367297136,328653909,-1499737267,-1367297136,0.0841579,-0.261799,2.60721e-05,-1.5,nan,0,0,3,1.05584,-0.0500538,0,0,0,0
1380,-3.34124e-12,1.79961e-38,-1.60394e-06,-3.40794e-12,1.79949e-38,0,-1.13776e-13,0,0,-2.96234,-0.0485464,-0.0481053,0,0,0,0,0,1.03766,-0.0485464,-1367297176,-1367297176,-1367297176,-1367297176,-1367297136,328653909,-1499737267,-1367297136,0.0846402,-0.261799,2.52474e-05,-1.5,nan,0,0,3,1.05762,-0.0504681,0,0,0,0
1390,-3.34124e-12,1.79961e-38,-1.60394e-06,-3.40794e-12,1.79949e-38,-3.92437e-12,-1.13777e-13,0,0,-2.96234,-0.0485464,-0.0481053,0,0,0,0,0,1.03766,-0.0485464,-1367297176,-1367297176,-1367297176,-1367297176,-1367297136,328653909,-1499737267,-1367297136,0.0850923,-0.261799,2.44984e-05,-1.5,nan,0,0,3,1.05929,-0.0508566,0,0,0,0
1400,-3.34124e-12,1.79961e-38,-1.60394e-06,-3.40794e-12,1.79949e-38,0,-1.13777e-13,0,0,-2.96234,-0.0485464,-0.0481053,0,0,0,0,0,1.03766,-0.0485464,-1367297176,-1367297176,-1367297176,-1367297176,-1367297136,328653909,-1499737267,-1367297136,0.0855444,-0.261799,2.37713e-05,-1.5,nan,0,0,3,1.06096,-0.051245,0,0,0,0
1410,-3.34124e-12,1.79961e-38,-1.60394e-06,-3.40794e-12,1.79949e-38,-3.92437e-12,-1.13783e-13,0,0,-2.77584,-0.0336116,-0.0471109,0,0,0,0,0,1.22416,-0.0336116,-1367297176,-1367297176,-1367297176,-1367297176,-1367297136,328653909,-1499737267,-1367297136,0.0438037,-0.261799,2.28793e-05,-1.5,nan,0,0,3,1.06951,-0.0367826,0,0,0,0
1420,-3.34124e-12,1.79961e-38,-1.60394e-06,-3.40794e-12,1.79949e-38,0,-1.13778e-13,0,0,-2.77584,-0.0336116,-0.0471109,0,0,0,0,0,1.22416,-0.0336116,-1367297176,-1367297176,-1367297176,-1367297176,-1367297136,328653909,-1499737267,-1367297136,0.043821,-0.261799,2.22002e-05,-1.5,nan,0,0,3,1.07136,-0.0367975,0,0,0,0
1430,-3.34124e-12,1.79961e-38,-1.60394e-06,-3.40794e-12,1.79949e-38,-3.92437e-12,-1.13779e-13,0,0,-2.77584,-0.0336116,-0.0471109,0,0,0,0,0,1.22416,-0.0336116,-1367297176,-1367297176,-1367297176,-1367297176,-1367297136,328653909,-1499737267,-1367297136,0.0438382,-0.261799,2.15413e-05,-1.5,nan,0,0,3,1.07321,-0.0368123,0,0,0,0
1440,-3.34124e-12,1.79961e-38,-1.60394e-06,-3.40794e-12,1.79949e-38,0,-1.13779e-13,0,0,-2.77584,-0.0336116,-0.0471109,0,0,0,0,0,1.22416,-0.0336116,-1367297176,-1367297176,-1367297176,-1367297176,-1367297136,328653909,-1499737267,-1367297136,0.0438555,-0.261799,2.09019e-05,-1.5,nan,0,0,3,1.07506,-0.0368271,0,0,0,0
1450,-3.34124e-12,1.79961e-38,-1.60394e-06,-3.40794e-12,1.79949e-38,-3.92437e-12,-1.1378e-13,0,0,-2.77584,-0.0336116,-0.0471109,0,0,0,0,0,1.22416,-0.0336116,-1367297176,-1367297176,-1367297176,-1367297176,-1367297136,328653909,-1499737267,-1367297136,0.0438739,-0.261799,2.02404e-05,-1.5,nan,0,0,3,1.07703,-0.036843,0,0,0,0
1460,-3.34124e-12,1.79961e-38,-1.60394e-06,-3.40794e-12,1.79949e-38,0,-1.1378e-13,0,0,-2.77584,-0.0336116,-0.0471109,0,0,0,0,0,1.22416,-0.0336116,-1367297176,-1367297176,-1367297176,-1367297176,-1367297136,328653909,-1499737267,-1367297136,0.0438923,-0.261799,1.96002e-05,-1.5,nan,0,0,3,1.079,-0.0368588,0,0,0,0
1470,-3.34124e-12,1.79961e-38,-1.60394e-06,-3.40794e-12,1.79949e-38,-3.92437e-12,-1.13781e-13,0,0,-2.77584,-0.0336116,-0.0471109,0,0,0,0,0,1.22416,-0.0336116,-1367297176,-1367297176,-1367297176,-1367297176,-1367297136,328653909,-1499737267,-1367297136,0.0439085,-0.261799,1.9057e-05,-1.5,nan,0,0,3,1.08073,-0.0368726,0,0,0,0
1480,-3.34124e-12,1.79961e-38,-1.60394e-06,-3.40794e-12,1.79949e-38,0,-1.13781e-13,0,0,-2.77584,-0.0336116,-0.0471109,0,0,0,0,0,1.22416,-0.0336116,-1367297176,-1367297176,-1367297176,-1367297176,-1367297136,328653909,-1499737267,-1367297136,0.0439257,-0.261799,1.84913e-05,-1.5,nan,0,0,3,1.08258,-0.0368875,0,0,0,0
1490,-3.34124e-12,1.79961e-38,-1.60394e-06,-3.40794e-12,1.79949e-38,-3.92437e-12,-1.13782e-13,0,0,-2.77584,-0.0336116,-0.0471109,0,0,0,0,0,1.22416,-0.0336116,-1367297176,-1367297176,-1367297176,-1367297176,-1367297136,328653909,-1499737267,-1367297136,0.0439441,-0.261799,1.79425e-05,-1.5,nan,0,0,3,1.08455,-0.0369033,0,0,0,0
1500,-3.34124e-12,1.79961e-38,-1.60394e-06,-3.40794e-12,1.79949e-38,0,-1.13782e-13,0,0,-2.77584,-0.0336116,-0.0471109,0,0,0,0,0,1.22416,-0.0336116,-1367297176,-1367297176,-1367297176,-1367297176,-1367297136,328653909,-1499737267,-1367297136,0.0439614,-0.261799,1.74099e-05,-1.5,nan,0,0,3,1.0864,-0.0369181,0,0,0,0
1510,-3.34124e-12,1.79961e-38,-1.60394e-06,-3.40794e-12,1.79949e-38,-3.92437e-12,-1.13784e-13,0,0,-2.77584,-0.0336116,-0.0471109,0,0,0,0,0,1.22416,-0.0336116,-1367297176,-1367297176,-1367297176,-1367297176,-1367297136,328653909,-1499737267,-1367297136,0.0439787,-0.261799,1.68932e-05,-1.5,nan,0,0,3,1.08825,-0.036933,0,0,0,0
1520,-3.34124e-12,1.79961e-38,-1.60394e-06,-3.40794e-12,1.79949e-38,0,-1.13784e-13,0,0,-2.77584,-0.0336116,-0.0471109,0,0,0,0,0,1.22416,-0.0336116,-1367297176,-1367297176,-1367297176,-1367297176,-1367297136,328653909,-1499737267,-1367297136,0.0439971,-0.261799,1.63588e-05,-1.5,nan,0,0,3,1.09022,-0.0369488,0,0,0,0
1530,-3.34124e-12,1.79961e-38,-1.60394e-06,-3.40794e-12,1.79949e-38,-3.92437e-12,-1.13785e-13,0,0,-2.77584,-0.0336116,-0.0471109,0,0,0,0,0,1.22416,-0.0336116,-1367297176,-1367297176,-1367297176,-1367297176,-1367297136,328653909,-1499737267,-1367297136,0.0440144,-0.261799,1.58733e-05,-1.5,nan,0,0,3,1.09207,-0.0369636,0,0,0,0
1540,-3.34124e-12,1.79961e-38,-1.60394e-06,-3.40794e-12,1.79949e-38,0,-1.13785e-13,0,0,-2.77584,-0.0336116,-0.0471109,0,0,0,0,0,1.22416,-0.0336116,-1367297176,-1367297176,-1367297176,-1367297176,-1367297136,328653909,-1499737267,-1367297136,0.0440316,-0.261799,1.54021e-05,-1.5,nan,0,0,3,1.09392,-0.0369784,0,0,0,0
1550,-3.34124e-12,1.79961e-38,-1.60394e-06,-3.40794e-12,1.79949e-38,-3.92437e-12,-1.13786e-13,0,0,-2.77584,-0.0336116,-0.0471109,0,0,0,0,0,1.22416,-0.0336116,-1367297176,-1367297176,-1367297176,-1367297176,-1367297136,328653909,-1499737267,-1367297136,0.04405,-0.261799,1.49146e-05,-1.5,nan,0,0,3,1.09589,-0.0369943,0,0,0,0
1560,-3.34124e-12,1.79961e-38,-1.60394e-06,-3.40794e-12,1.79949e-38,0,-1.13786e-13,0,0,-2.77584,-0.0336116,-0.0471109,0,0,0,0,0,1.22416,-0.0336116,-1367297176,-1367297176,-1367297176,-1367297176,-1367297136,328653909,-1499737267,-1367297136,0.0440673,-0.261799,1.4472e-05,-1.5,nan,0,0,3,1.09774,-0.0370091,0,0,0,0
1570,-3.34124e-12,1.79961e-38,-1.60394e-06,-3.40794e-12,1.79949e-38,-3.92437e-12,-1.13787e-13,0,0,-2.77584,-0.0336116,-0.0471109,0,0,0,0,0,1.22416,-0.0336116,-1367297176,-1367297176,-1367297176,-1367297176,-1367297136,328653909,-1499737267,-1367297136,0.0440846,-0.261799,1.40424e-05,-1.5,nan,0,0,3,1.09958,-0.0370239,0,0,0,0
1580,-3.34124e-12,1.79961e-38,-1.60394e-06,-3.40794e-12,1.79949e-38,0,-1.13787e-13,0,0,-2.77584,-0.0336116,-0.0471109,0,0,0,0,0,1.22416,-0.0336116,-1367297176,-1367297176,-1367297176,-1367297176,-1367297136,328653909,-1499737267,-1367297136,0.044103,-0.261799,1.3598e-05,-1.5,nan,0,0,3,1.10156,-0.0370398,0,0,0,0
1590,-3.34124e-12,1.79961e-38,-1.60394e-06,-3.40794e-12,1.79949e-38,-3.92437e-12,-1.13788e-13,0,0,-2.77584,-0.0336116,-0.0471109,0,0,0,0,0,1.22416,-0.0336116,-1367297176,-1367297176,-1367297176,-1367297176,-1367297136,328653909,-1499737267,-1367297136,0.0441191,-0.261799,1.32211e-05,-1.5,nan,0,0,3,1.10328,-0.0370536,0,0,0,0
1600,-3.34124e-12,1.79961e-38,-1.60394e-06,-3.40794e-12,1.79949e-38,0,-1.13789e-13,0,0,-2.77584,-0.0336116,-0.0471109,0,0,0,0,0,1.22416,-0.0336116,-1367297176,-1367297176,-1367297176,-1367297176,-1367297136,328653909,-1499737267,-1367297136,0.0441341,-0.261799,1.28808e-05,-1.5,nan,0,0,3,1.10488,-0.0370665,0,0,0,0
1610,-3.34124e-12,1.79961e-38,-1.60394e-06,-3.40794e-12,1.79949e-38,-3.92437e-12,-1.13789e-13,0,0,-2.77584,-0.0336116,-0.0471109,0,0,0,0,0,1.22416,-0.0336116,-1367297176,-1367297176,-1367297176,-1367297176,-1367297136,328653909,-1499737267,-1367297136,0.0441502,-0.261799,1.24987e-05,-1.5,nan,0,0,3,1.10661,-0.0370803,0,0,0,0
1620,-3.34124e-12,1.79961e-38,-1.60394e-06,-3.40794e-12,1.79949e-38,0,-1.1379e-13,0,0,-2.77584,-0.0336116,-0.0471109,0,0,0,0,0,1.22416,-0.0336116,-1367297176,-1367297176,-1367297176,-1367297176,-1367297136,328653909,-1499737267,-1367297136,0.0441686,-0.261799,1.21277e-05,-1.5,nan,0,0,3,1.10858,-0.0370961,0,0,0,0
1630,-3.34124e-12,1.79961e-38,-1.60394e-06,-3.40794e-12,1.79949e-38,-3.92437e-12,-1.1379e-13,0,0,-2.77584,-0.0336116,-0.0471109,0,0,0,0,0,1.22416,-0.0336116,-1367297176,-1367297176,-1367297176,-1367297176,-1367297136,328653909,-1499737267,-1367297136,0.044187,-0.261799,1.17441e-05,-1.5,nan,0,0,3,1.11055,-0.037112,0,0,0,0
1640,-3.34124e-12,1.79961e-38,-1.60394e-06,-3.40794e-12,1.79949e-38,0,-1.13791e-13,0,0,-2.77584,-0.0336116,-0.0471109,0,0,0,0,0,1.22416,-0.0336116,-1367297176,-1367297176,-1367297176,-1367297176,-1367297136,328653909,-1499737267,-1367297136,0.0442043,-0.261799,1.13957e-05,-1.5,nan,0,0,3,1.1124,-0.0371268,0,0,0,0
1650,-3.34124e-12,1.79961e-38,-1.60394e-06,-3.40794e-12,1.79949e-38,-3.92437e-12,-1.13791e-13,0,0,-2.77584,-0.0336116,-0.0471109,0,0,0,0,0,1.22416,-0.0336116,-1367297176,-1367297176,-1367297176,-1367297176,-1367297136,328653909,-1499737267,-1367297136,0.0442216,-0.261799,1.10575e-05,-1.5,nan,0,0,3,1.11425,-0.0371416,0,0,0,0
1660,-3.34124e-12,1.79961e-38,-1.60394e-06,-3.40794e-12,1.79949e-38,0,-1.13792e-13,0,0,-2.77584,-0.0336116,-0.0471109,0,0,0,0,0,1.22416,-0.0336116,-1367297176,-1367297176,-1367297176,-1367297176,-1367297136,328653909,-1499737267,-1367297136,0.04424,-0.261799,1.07077e-05,-1.5,nan,0,0,3,1.11622,-0.0371574,0,0,0,0
1670,-3.34124e-12,1.79961e-38,-1.60394e-06,-3.40794e-12,1.79949e-38,-3.92437e-12,-1.13792e-13,0,0,-2.77584,-0.0336116,-0.0471109,0,0,0,0,0,1.22416,-0.0336116,-1367297176,-1367297176,-1367297176,-1367297176,-1367297136,328653909,-1499737267,-1367297136,0.0442572,-0.261799,1.03899e-05,-1.5,nan,0,0,3,1.11807,-0.0371723,0,0,0,0
1680,-3.34124e-12,1.79961e-38,-1.60394e-06,-3.40794e-12,1.79949e-38,0,-1.13793e-13,0,0,-2.77584,-0.0336116,-0.0471109,0,0,0,0,0,1.22416,-0.0336116,-1367297176,-1367297176,-1367297176,-1367297176,-1367297136,328653909,-1499737267,-1367297136,0.0442745,-0.261799,1.00815e-05,-1.5,nan,0,0,3,1.11992,-0.0371871,0,0,0,0
1690,-3.34124e-12,1.79961e-38,-1.60394e-06,-3.40794e-12,1.79949e-38,-3.92437e-12,-1.13793e-13,0,0,-2.77584,-0.0336116,-0.0471109,0,0,0,0,0,1.22416,-0.0336116,-1367297176,-1367297176,-1367297176,-1367297176,-1367297136,328653909,-1499737267,-1367297136,0.0442929,-0.261799,9.76266e-06,-1.5,nan,0,0,3,1.12189,-0.0372029,0,0,0,0
1700,-3.34124e-12,1.79961e-38,-1.60394e-06,-3.40794e-12,1.79949e-38,0,-1.13794e-13,0,0,-2.77584,-0.0336116,-0.0471109,0,0,0,0,0,1.22416,-0.0336116,-1367297176,-1367297176,-1367297176,-1367297176,-1367297136,328653909,-1499737267,-1367297136,0.0443102,-0.261799,9.47288e-06,-1.5,nan,0,0,3,1.12374,-0.0372178,0,0,0,0
1710,-3.34124e-12,1.79961e-38,-1.60394e-06,-3.40794e-12,1.79949e-38,-3.92437e-12,-1.13794e-13,0,0,-2.77584,-0.0336116,-0.0471109,0,0,0,0,0,1.22416,-0.0336116,-1367297176,-1367297176,-1367297176,-1367297176,-1367297136,328653909,-1499737267,-1367297136,0.0443286,-0.261799,9.17307e-06,-1.5,nan,0,0,3,1.12571,-0.0372336,0,0,0,0
1720,-3.34124e-12,1.79961e-38,-1.60394e-06,-3.40794e-12,1.79949e-38,0,-1.13795e-13,0,0,-2.77584,-0.0336116,-0.0471109,0,0,0,0,0,1.22416,-0.0336116,-1367297176,-1367297176,-1367297176,-1367297176,-1367297136,328653909,-1499737267,-1367297136,0.044347,-0.261799,8.88292e-06,-1.5,nan,0,0,3,1.12768,-0.0372494,0,0,0,0
1730,-3.34124e-12,1.79961e-38,-1.60394e-06,-3.40794e-12,1.79949e-38,-3.92437e-12,-1.13796e-13,0,0,-2.77584,-0.0336116,-0.0471109,1.12941,-0.0372632,0.12299,-0.000986904,0,1.22416,-0.0336116,-1367297176,-1367297176,-1367297176,-1367297176,-1367297136,328653909,-1499737267,-1367297136,0.0443612,-0.261799,8.63675e-06,-1.5,nan,0,0,3,1.12941,-0.0372632,0,0,0,0
1740,-3.34124e-12,1.79961e-38,-1.60394e-06,-3.40794e-12,1.79949e-38,0,-1.13796e-13,0,0,-2.77584,-0.0336116,-0.0471109,1.13124,-0.037278,0.12207,-0.000979522,0,1.22416,-0.0336116,-1367297176,-1367297176,-1367297176,-1367297176,-1367297136,328653909,-1499737267,-1367297136,0.0443709,-0.261799,8.38039e-06,-1.5,nan,0,0,3,1.13124,-0.037278,0,0,0,0
1750,-3.34124e-12,1.79961e-38,-1.60394e-06,-3.40794e-12,1.79949e-38,-3.92437e-12,-1.13797e-13,0,0,-2.77584,-0.0336116,-0.0471109,1.13319,-0.0372936,0.121097,-0.000971709,0,1.22416,-0.0336116,-1367297176,-1367297176,-1367297176,-1367297176,-1367297136,328653909,-1499737267,-1367297136,0.0443813,-0.261799,8.11532e-06,-1.5,nan,0,0,3,1.13319,-0.0372936,0,0,0,0
1760,-3.34124e-12,1.79961e-38,-1.60394e-06,-3.40794e-12,1.79949e-38,0,-1.13797e-13,0,0,-2.77584,-0.0336116,-0.0471109,1.13499,-0.0373081,0.120191,-0.000964441,0,1.22416,-0.0336116,-1367297176,-1367297176,-1367297176,-1367297176,-1367297136,328653909,-1499737267,-1367297136,0.0443909,-0.261799,7.87445e-06,-1.5,nan,0,0,3,1.13499,-0.0373081,0,0,0,0
1770,-3.34124e-12,1.79961e-38,-1.60394e-06,-3.40794e-12,1.79949e-38,-3.92437e-12,-1.13798e-13,0,0,-2.77584,-0.0336116,-0.0471109,1.13679,-0.0373225,0.119292,-0.000957227,0,1.22416,-0.0336116,-1367297176,-1367297176,-1367297176,-1367297176,-1367297136,328653909,-1499737267,-1367297136,0.0444004,-0.261799,7.64072e-06,-1.5,nan,0,0,3,1.13679,-0.0373225,0,0,0,0
1780,-3.34124e-12,1.79961e-38,-1.60394e-06,-3.40794e-12,1.79949e-38,0,-1.13798e-13,0,0,-2.77584,-0.0336116,-0.0471109,1.13857,-0.0373368,0.118399,-0.000950066,0,1.22416,-0.0336116,-1367297176,-1367297176,-1367297176,-1367297176,-1367297136,328653909,-1499737267,-1367297136,0.0444099,-0.261799,7.41393e-06,-1.5,nan,0,0,3,1.13857,-0.0373368,0,0,0,0
1790,-3.34124e-12,1.79961e-38,-1.60394e-06,-3.40794e-12,1.79949e-38,-3.92437e-12,-1.13799e-13,0,0,-2.77584,-0.0336116,-0.0471109,1.14034,-0.0373509,0.117514,-0.00094296,0,1.22416,-0.0336116,-1367297176,-1367297176,-1367297176,-1367297176,-1367297136,328653909,-1499737267,-1367297136,0.0444193,-0.261799,7.19387e-06,-1.5,nan,0,0,3,1.14034,-0.0373509,0,0,0,0
1800,-3.34124e-12,1.79961e-38,-1.60394e-06,-3.40794e-12,1.79949e-38,0,-1.13799e-13,0,0,-2.77584,-0.0336116,-0.0471109,1.14221,-0.037366,0.116576,-0.000935437,0,1.22416,-0.0336116,-1367297176,-1367297176,-1367297176,-1367297176,-1367297136,328653909,-1499737267,-1367297136,0.0444292,-0.261799,6.96619e-06,-1.5,nan,0,0,3,1.14221,-0.037366,0,0,0,0
1810,-3.34124e-12,1.79961e-38,-1.60394e-06,-3.40794e-12,1.79949e-38,-3.92437e-12,-1.138e-13,0,0,-2.77584,-0.0336116,-0.0471109,1.14395,-0.0373799,0.115704,-0.00092844,0,1.22416,-0.0336116,-1367297176,-1367297176,-1367297176,-1367297176,-1367297136,328653909,-1499737267,-1367297136,0.0444385,-0.261799,6.75942e-06,-1.5,nan,0,0,3,1.14395,-0.0373799,0,0,0,0
1820,-3.34124e-12,1.79961e-38,-1.60394e-06,-3.40794e-12,1.79949e-38,0,-1.138e-13,0,0,-2.77584,-0.0336116,-0.0471109,1.14567,-0.0373938,0.114839,-0.000921495,0,1.22416,-0.0336116,-1367297176,-1367297176,-1367297176,-1367297176,-1367297136,328653909,-1499737267,-1367297136,0.0444477,-0.261799,6.55879e-06,-1.5,nan,0,0,3,1.14567,-0.0373938,0,0,0,0
1830,-3.34124e-12,1.79961e-38,-1.60394e-06,-3.40794e-12,1.79949e-38,-3.92437e-12,-1.13801e-13,0,0,-2.77584,-0.0336116,-0.0471109,1.1475,-0.0374084,0.113923,-0.000914143,0,1.22416,-0.0336116,-1367297176,-1367297176,-1367297176,-1367297176,-1367297136,328653909,-1499737267,-1367297136,0.0444574,-0.261799,6.35121e-06,-1.5,nan,0,0,3,1.1475,-0.0374084,0,0,0,0
1840,-3.34124e-12,1.79961e-38,-1.60394e-06,-3.40794e-12,1.79949e-38,0,-1.13802e-13,0,0,-2.77584,-0.0336116,-0.0471109,1.14909,-0.0374212,0.113127,-0.000907761,0,1.22416,-0.0336116,-1367297176,-1367297176,-1367297176,-1367297176,-1367297136,328653909,-1499737267,-1367297136,0.0444658,-0.261799,6.17519e-06,-1.5,nan,0,0,3,1.14909,-0.0374212,0,0,0,0
1850,-3.34124e-12,1.79961e-38,-1.60394e-06,-3.40794e-12,1.79949e-38,-3.92437e-12,-1.13802e-13,0,0,-2.77584,-0.0336116,-0.0471109,1.15067,-0.0374338,0.112337,-0.000901423,0,1.22416,-0.0336116,-1367297176,-1367297176,-1367297176,-1367297176,-1367297136,328653909,-1499737267,-1367297136,0.0444742,-0.261799,6.00406e-06,-1.5,nan,0,0,3,1.15067,-0.0374338,0,0,0,0
1860,-3.34124e-12,1.79961e-38,-1.60394e-06,-3.40794e-12,1.79949e-38,0,-1.13803e-13,0,0,-2.77584,-0.0336116,-0.0471109,1.15245,-0.0374482,0.111441,-0.000894231,0,1.22416,-0.0336116,-1367297176,-1367297176,-1367297176,-1367297176,-1367297136,328653909,-1499737267,-1367297136,0.0444837,-0.261799,5.81403e-06,-1.5,nan,0,0,3,1.15245,-0.0374482,0,0,0,0
1870,-3.34124e-12,1.79961e-38,-1.60394e-06,-3.40794e-12,1.79949e-38,-3.92437e-12,-1.13803e-13,0,0,-2.77584,-0.0336116,-0.0471109,1.15412,-0.0374615,0.110608,-0.000887542,0,1.22416,-0.0336116,-1367297176,-1367297176,-1367297176,-1367297176,-1367297136,328653909,-1499737267,-1367297136,0.0444926,-0.261799,5.64146e-06,-1.5,nan,0,0,3,1.15412,-0.0374615,0,0,0,0
1880,-3.34124e-12,1.79961e-38,-1.60394e-06,-3.40794e-12,1.79949e-38,0,-1.13804e-13,0,0,-2.77584,-0.0336116,-0.0471109,1.15577,-0.0374748,0.10978,-0.000880904,0,1.22416,-0.0336116,-1367297176,-1367297176,-1367297176,-1367297176,-1367297136,328653909,-1499737267,-1367297136,0.0445014,-0.261799,5.47402e-06,-1.5,nan,0,0,3,1.15577,-0.0374748,0,0,0,0
1890,-3.34124e-12,1.79961e-38,-1.60394e-06,-3.40794e-12,1.79949e-38,-3.92437e-12,-1.13804e-13,0,0,-2.77584,-0.0336116,-0.0471109,1.15752,-0.0374888,0.108904,-0.000873876,0,1.22416,-0.0336116,-1367297176,-1367297176,-1367297176,-1367297176,-1367297136,328653909,-1499737267,-1367297136,0.0445107,-0.261799,5.30076e-06,-1.5,nan,0,0,3,1.15752,-0.0374888,0,0,0,0
1900,-3.34124e-12,1.79961e-38,-1.60394e-06,-3.40794e-12,1.79949e-38,0,-1.13805e-13,0,0,-2.77584,-0.0336116,-0.0471109,1.15914,-0.0375018,0.10809,-0.000867339,0,1.22416,-0.0336116,-1367297176,-1367297176,-1367297176,-1367297176,-1367297136,328653909,-1499737267,-1367297136,0.0445193,-0.261799,5.14343e-06,-1.5,nan,0,0,3,1.15914,-0.0375018,0,0,0,0
1910,-3.34124e-12,1.79961e-38,-1.60394e-06,-3.40794e-12,1.79949e-38,-3.92437e-12,-1.13805e-13,0,0,-2.77584,-0.0336116,-0.0471109,1.16076,-0.0375148,0.107281,-0.000860851,0,1.22416,-0.0336116,-1367297176,-1367297176,-1367297176,-1367297176,-1367297136,328653909,-1499737267,-1367297136,0.0445279,-0.261799,4.99076e-06,-1.5,nan,0,0,3,1.16076,-0.0375148,0,0,0,0
1920,-3.34124e-12,1.79961e-38,-1.60394e-06,-3.40794e-12,1.79949e-38,0,-1.13806e-13,0,0,-2.77584,-0.0336116,-0.0471109,1.16246,-0.0375285,0.106425,-0.000853984,0,1.22416,-0.0336116,-1367297176,-1367297176,-1367297176,-1367297176,-1367297136,328653909,-1499737267,-1367297136,0.044537,-0.261799,4.83291e-06,-1.5,nan,0,0,3,1.16246,-0.0375285,0,0,0,0
1930,-3.34124e-12,1.79961e-38,-1.60394e-06,-3.40794e-12,1.79949e-38,-3.92437e-12,-1.13806e-13,0,0,-2.77584,-0.0336116,-0.0471109,1.16405,-0.0375412,0.105629,-0.000847597,0,1.22416,-0.0336116,-1367297176,-1367297176,-1367297176,-1367297176,-1367297136,328653909,-1499737267,-1367297136,0.0445454,-0.261799,4.68946e-06,-1.5,nan,0,0,3,1.16405,-0.0375412,0,0,0,0
1940,-3.34124e-12,1.79961e-38,-1.60394e-06,-3.40794e-12,1.79949e-38,0,-1.13807e-13,0,0,-2.77584,-0.0336116,-0.0471109,1.16563,-0.0375539,0.104839,-0.000841257,0,1.22416,-0.0336116,-1367297176,-1367297176,-1367297176,-1367297176,-1367297136,328653909,-1499737267,-1367297136,0.0445538,-0.261799,4.55034e-06,-1.5,nan,0,0,3,1.16563,-0.0375539,0,0,0,0
1950,-3.34124e-12,1.79961e-38,-1.60394e-06,-3.40794e-12,1.79949e-38,-3.92437e-12,-1.13808e-13,0,0,-2.77584,-0.0336116,-0.0471109,1.1673,-0.0375673,0.104003,-0.000834547,0,1.22416,-0.0336116,-1367297176,-1367297176,-1367297176,-1367297176,-1367297136,328653909,-1499737267,-1367297136,0.0445627,-0.261799,4.40641e-06,-1.5,nan,0,0,3,1.1673,-0.0375673,0,0,0,0
1960,-3.34124e-12,1.79961e-38,-1.60394e-06,-3.40794e-12,1.79949e-38,0,-1.13808e-13,0,0,-2.77584,-0.0336116,-0.0471109,1.16895,-0.0375806,0.103173,-0.000827889,0,1.22416,-0.0336116,-1367297176,-1367297176,-1367297176,-1367297176,-1367297136,328653909,-1499737267,-1367297136,0.0445715,-0.261799,4.26695e-06,-1.5,nan,0,0,3,1.16895,-0.0375806,0,0,0,0
1970,-3.34124e-12,1.79961e-38,-1.60394e-06,-3.40794e-12,1.79949e-38,-3.92437e-12,-1.13809e-13,0,0,-2.77584,-0.0336116,-0.0471109,1.17049,-0.0375929,0.102402,-0.000821696,0,1.22416,-0.0336116,-1367297176,-1367297176,-1367297176,-1367297176,-1367297136,328653909,-1499737267,-1367297136,0.0445797,-0.261799,4.1403e-06,-1.5,nan,0,0,3,1.17049,-0.0375929,0,0,0,0
1980,-3.34124e-12,1.79961e-38,-1.60394e-06,-3.40794e-12,1.79949e-38,0,-1.13809e-13,0,0,-2.77584,-0.0336116,-0.0471109,1.17212,-0.037606,0.101585,-0.000815142,0,1.22416,-0.0336116,-1367297176,-1367297176,-1367297176,-1367297176,-1367297136,328653909,-1499737267,-1367297136,0.0445884,-0.261799,4.00934e-06,-1.5,nan,0,0,3,1.17212,-0.037606,0,0,0,0
1990,-3.34124e-12,1.79961e-38,-1.60394e-06,-3.40794e-12,1.79949e-38,-3.92437e-12,-1.1381e-13,0,0,-2.77584,-0.0336116,-0.0471109,1.17364,-0.0376182,0.100825,-0.000809044,0,1.22416,-0.0336116,-1367297176,-1367297176,-1367297176,-1367297176,-1367297136,328653909,-1499737267,-1367297136,0.0445964,-0.261799,3.89034e-06,-1.5,nan,0,0,3,1.17364,-0.0376182,0,0,0,0
2000,-3.34124e-12,1.79961e-38,-1.60394e-06,-3.40794e-12,1.79949e-38,0,-1.1381e-13,0,0,-2.77584,-0.0336116,-0.0471109,1.17525,-0.037631,0.100021,-0.000802591,0,1.22416,-0.0336116,-1367297176,-1367297176,-1367297176,-1367297176,-1367297136,328653909,-1499737267,-1367297136,0.044605,-0.261799,3.76729e-06,-1.5,nan,0,0,3,1.17525,-0.037631,0,0,0,0
