timestamp,A_x,A_y,A_z,P,Q,R,Phi,Theta,Psi,poseX,poseY,poseZ,state_X,state_Y,state_Z,state_VzB,state_Bx,state_By,state_Bz,p1_x,p1_y,p2_x,p2_y,p3_x,p3_y,p4_x,p4_y,roll,pitch,yaw,alt,targetHeading,highLevelState,lowLevelState,gateNumber,filtered_x,filtered_y,x_OT,y_OT,vx_OT,vy_OT,filtered_vx,filtered_vygateArearansac_corr_x,ransac_corr_y,ransac_corr_vx,ransac_corr_vy,detectionTimeStamppTermX,dTermX,pTermY,dTermY,vxcmd,vycmd
5277,0,0,0,0,0,0,0,0,0,0,0,0,0,0,0,0,0,0,0,0,0,0,0,0,0,0,0,0.4,-0.08,0,-1.5,3.94113e+12,0,0,0,0,0,0,0,0,0,0,0,1.9603e-19,0,0,0,0,0,0,0,0,0,0.2,1
5290,0,0,0,0,0,0,0,0,0,0,0,0,0,0,0,0,0,0,0,0,0,0,0,0,0,0,0,0.4,-0.08,0,-1.5,3.94113e+12,0,0,0,0,0,0,0,0,0,0,0,1.9603e-19,0,0,0,0,0,0,0,0,0,0.2,1
5816,-3.18842e-12,1.95919e-38,-1.57041e-06,-3.26583e-12,1.95907e-38,0,0,0,0,0,0,0,0,0,0,0,0,0,0,0,0,0,0,0,0,0,0,0.4,-0.08,0,-1.5,3.94113e+12,0,0,0,0,0,0,0,0,0,0,0,1.9603e-19,0,0,0,0,0,0,0,0,0,0.2,1
5829,-3.18842e-12,1.95919e-38,-1.57041e-06,-3.26583e-12,1.95907e-38,0,0,0,0,0,0,0,0,0,0,0,0,0,0,0,0,0,0,0,0,0,0,0.4,-0.08,0,-1.5,3.94113e+12,0,0,0,0,0,0,0,0,0,0,0,1.9603e-19,0,0,0,0,0,0,0,0,0,0.2,1
5845,-3.18842e-12,1.95919e-38,-1.57041e-06,-3.26583e-12,1.95907e-38,0,0,0,0,0,0,0,0,0,0,0,0,0,0,0,0,0,0,0,0,0,0,0.4,-0.08,0,-1.5,3.94113e+12,0,0,0,0,0,0,0,0,0,0,0,1.9603e-19,0,0,0,0,0,0,0,0,0,0.2,1
5861,-3.18842e-12,1.95919e-38,-1.57041e-06,-3.26583e-12,1.95907e-38,0,0,0,0,0,0,0,0,0,0,0,0,0,0,0,0,0,0,0,0,0,0,0.4,-0.08,0,-1.5,3.94113e+12,0,0,0,0,0,0,0,0,0,0,0,1.9603e-19,0,0,0,0,0,0,0,0,0,0.2,1
5877,-3.18842e-12,1.95919e-38,-1.57041e-06,-3.26583e-12,1.95907e-38,0,0,0,0,0,0,0,0,0,0,0,0,0,0,0,0,0,0,0,0,0,0,0.4,-0.08,0,-1.5,3.94113e+12,0,0,0,0,0,0,0,0,0,0,0,1.9603e-19,0,0,0,0,0,0,0,0,0,0.2,1
5892,-3.18842e-12,1.95919e-38,-1.57041e-06,-3.26583e-12,1.95907e-38,0,0,0,0,0,0,0,0,0,0,0,0,0,0,0,0,0,0,0,0,0,0,0.4,-0.08,0,-1.5,3.94113e+12,0,0,0,0,0,0,0,0,0,0,0,1.9603e-19,0,0,0,0,0,0,0,0,0,0.2,1
5908,-3.18842e-12,1.95919e-38,-1.57041e-06,-3.26583e-12,1.95907e-38,0,0,0,0,0,0,0,0,0,0,0,0,0,0,0,0,0,0,0,0,0,0,0.4,-0.08,0,-1.5,3.94113e+12,0,0,0,0,0,0,0,0,0,0,0,1.9603e-19,0,0,0,0,0,0,0,0,0,0.2,1
5924,-3.18842e-12,1.95919e-38,-1.57041e-06,-3.26583e-12,1.95907e-38,0,0,0,0,0,0,0,0,0,0,0,0,0,0,0,0,0,0,0,0,0,0,0.4,-0.08,0,-1.5,3.94113e+12,0,0,0,0,0,0,0,0,0,0,0,1.9603e-19,0,0,0,0,0,0,0,0,0,0.2,1
5947,-3.18842e-12,1.95919e-38,-1.57041e-06,-3.26583e-12,1.95907e-38,0,0,0,0,0,0,0,0,0,0,0,0,0,0,0,0,0,0,0,0,0,0,0.4,-0.08,0,-1.5,3.94113e+12,0,0,0,0,0,0,0,0,0,0,0,1.9603e-19,0,0,0,0,0,0,0,0,0,0.2,1
5963,-3.18842e-12,1.95919e-38,-1.57041e-06,-3.26583e-12,1.95907e-38,0,0,0,0,0,0,0,0,0,0,0,0,4.4,0,-1368604352,105346578,-1368604352,105346578,270437890,-1368604352,-1368607576,-1368607576,0.4,-0.08,0,-1.5,3.94113e+12,0,0,0,0,0,0,0,0,0,0,0,0,0,0,0,0,5960,0,0,0,0,0.2,1
5990,-3.18842e-12,1.95919e-38,-1.57041e-06,-3.26583e-12,1.95907e-38,0,0,0,0,0,0,0,0,0,0,0,0,4.4,0,-1368604352,105346578,-1368604352,105346578,270437890,-1368604352,-1368607576,-1368607576,0.4,-0.08,0,-1.5,3.94113e+12,0,0,0,0,0,0,0,0,0,0,0,0,0,0,0,0,5960,0,0,0,0,0.2,1
6011,-3.18842e-12,1.95919e-38,-1.57041e-06,-3.26583e-12,1.95907e-38,0,0,0,0,-3.51514,0.0999736,0.491026,0,0,0,0,0,-0.415736,0.0999736,241,-66,241,-66,368,-81,249,58,0.4,-0.08,0,-1.5,3.94113e+12,0,0,0,0,0,0,0,0,0,0,0,18904,0,0,0,0,6003,0,0,0,0,0.2,1
6070,-3.18842e-12,1.95919e-38,-1.57041e-06,-3.26583e-12,1.95907e-38,0,0,0,0,-3.51517,0.0981623,0.501211,0,0,0,0,0,-0.415781,0.0981623,241,-68,241,-68,367,-83,251,59,0.4,-0.08,0,-1.5,3.94113e+12,0,0,0,0,0,0,0,0,0,0,0,19312,0,0,0,0,6061,0,0,0,0,0.2,1
6093,-3.18842e-12,1.95919e-38,-1.57041e-06,-3.26583e-12,1.95907e-38,0,0,0,0,-3.58983,0.0780193,0.529394,0,0,0,0,0,-0.518071,0.0780193,244,-68,244,-68,371,-70,250,55,0.436332,-0.0872664,0,-1.5,3.94113e+12,0,0,0,-0.532852,0.0748481,0,0,0,0,-1.13705,-0.243937,17000,-0.518071,0.0780193,-1.13705,-0.243937,6082,0,0,0,0,0.2,1
6106,-3.18842e-12,1.95919e-38,-1.57041e-06,-3.26583e-12,1.95907e-38,0,0,0,0,-3.58983,0.0780193,0.529394,0,0,0,0,0,-0.518071,0.0780193,244,-68,244,-68,371,-70,250,55,0.436332,-0.0872664,0,-1.5,3.94113e+12,0,0,0,-0.547634,0.0716769,0,0,0,0,-1.13705,-0.243937,17000,-0.518071,0.0780193,-1.13705,-0.243937,6082,0,0,0,0,0.2,1
6125,-3.18842e-12,1.95919e-38,-1.57041e-06,-3.26583e-12,1.95907e-38,0,0,0,0,-3.48804,0.0864147,0.494115,0,0,0,0,0,-0.378609,0.0864147,241,-68,241,-68,370,-83,250,55,0.436332,0.0657718,0,-1.5,3.94113e+12,0,0,0,-0.374236,0.0850919,0,0,0,0,0.36443,-0.110235,19182,-0.378609,0.0864147,0.36443,-0.110235,6116,0,0,0,0,0.2,1
6139,-3.18842e-12,1.95919e-38,-1.57041e-06,-3.26583e-12,1.95907e-38,0,0,0,0,-3.48804,0.0864147,0.494115,0,0,0,0,0,-0.378609,0.0864147,241,-68,241,-68,370,-83,250,55,0.436332,0.0657718,0,-1.5,3.94113e+12,0,0,0,-0.369134,0.0835486,0,0,0,0,0.36443,-0.110235,19182,-0.378609,0.0864147,0.36443,-0.110235,6116,0,0,0,0,0.2,1
6157,-3.18842e-12,1.95919e-38,-1.57041e-06,-3.26583e-12,1.95907e-38,0,0,0,0,-3.48747,0.0967539,0.52581,0,0,0,0,0,-0.377837,0.0967539,242,-82,242,-82,370,-84,250,54,0.436332,0.0324263,0,-1.5,3.94113e+12,0,0,0,-0.374745,0.0815644,0,0,0,0,0.281066,-0.110235,18078,-0.377837,0.082777,0.281066,-0.110235,6148,0,0,0,0,0.2,1
6173,-3.18842e-12,1.95919e-38,-1.57041e-06,-3.26583e-12,1.95907e-38,0,0,0,0,-3.48747,0.0967539,0.52581,0,0,0,0,0,-0.377837,0.0967539,242,-82,242,-82,370,-84,250,54,0.436332,0.0324263,0,-1.5,3.94113e+12,0,0,0,-0.370248,0.0798007,0,0,0,0,0.281066,-0.110235,18078,-0.377837,0.082777,0.281066,-0.110235,6148,0,0,0,0,0.2,1
6189,-3.18842e-12,1.95919e-38,-1.57041e-06,-3.26583e-12,1.95907e-38,0,0,0,0,-3.48747,0.0967539,0.52581,0,0,0,0,0,-0.377837,0.0967539,242,-82,242,-82,370,-84,250,54,0.436332,0.0324263,0,-1.5,3.94113e+12,0,0,0,-0.365751,0.0780369,0,0,0,0,0.281066,-0.110235,18078,-0.377837,0.082777,0.281066,-0.110235,6148,0,0,0,0,0.2,1
6205,-3.18842e-12,1.95919e-38,-1.57041e-06,-3.26583e-12,1.95907e-38,0,0,0,0,-3.48747,0.0967539,0.52581,0,0,0,0,0,-0.377837,0.0967539,242,-82,242,-82,370,-84,250,54,0.436332,0.0324263,0,-1.5,3.94113e+12,0,0,0,-0.361254,0.0762732,0,0,0,0,0.281066,-0.110235,18078,-0.377837,0.082777,0.281066,-0.110235,6148,0,0,0,0,0.2,1
6224,-3.18842e-12,1.95919e-38,-1.57041e-06,-3.26583e-12,1.95907e-38,0,0,0,0,-3.46729,0.0921238,0.536086,0,0,0,0,0,-0.350189,0.0921238,241,-97,241,-97,371,-74,250,51,0.412017,0.0505303,0,-1.5,3.94113e+12,0,0,0,-0.346273,0.0917633,0,0,0,0,0.326326,-0.0300424,19536,-0.350189,0.0921238,0.326326,-0.0300424,6214,0,0,0,0,0.2,1
6240,-3.18842e-12,1.95919e-38,-1.57041e-06,-3.26583e-12,1.95907e-38,0,0,0,0,-3.46729,0.0921238,0.536086,0,0,0,0,0,-0.350189,0.0921238,241,-97,241,-97,371,-74,250,51,0.412017,0.0505303,0,-1.5,3.94113e+12,0,0,0,-0.341379,0.0913127,0,0,0,0,0.326326,-0.0300424,19536,-0.350189,0.0921238,0.326326,-0.0300424,6214,0,0,0,0,0.2,1
6259,-3.18842e-12,1.95919e-38,-1.57041e-06,-3.26583e-12,1.95907e-38,0,0,0,0,-3.55028,0.0964853,0.565846,0,0,0,0,0,-0.463881,0.0964853,243,-72,243,-72,371,-88,250,51,0.412017,0.0171784,0,-1.5,3.94113e+12,0,0,0,-0.350384,0.0907118,0,0,0,0,0.242946,-0.0300423,18070,-0.355243,0.0913127,0.242946,-0.0300423,6247,0,0,0,0,0.2,1
6274,-3.18842e-12,1.95919e-38,-1.57041e-06,-3.26583e-12,1.95907e-38,0,0,0,0,-3.55028,0.0964853,0.565846,0,0,0,0,0,-0.463881,0.0964853,243,-72,243,-72,371,-88,250,51,0.412017,0.0171784,0,-1.5,3.94113e+12,0,0,0,-0.34674,0.0902612,0,0,0,0,0.242946,-0.0300423,18070,-0.355243,0.0913127,0.242946,-0.0300423,6247,0,0,0,0,0.2,1
6290,-3.18842e-12,1.95919e-38,-1.57041e-06,-3.26583e-12,1.95907e-38,0,0,0,0,-3.55028,0.0964853,0.565846,0,0,0,0,0,-0.463881,0.0964853,243,-72,243,-72,371,-88,250,51,0.412017,0.0171784,0,-1.5,3.94113e+12,0,0,0,-0.342853,0.0897805,0,0,0,0,0.242946,-0.0300423,18070,-0.355243,0.0913127,0.242946,-0.0300423,6247,0,0,0,0,0.2,1
6306,-3.18842e-12,1.95919e-38,-1.57041e-06,-3.26583e-12,1.95907e-38,0,0,0,0,-3.55028,0.0964853,0.565846,0,0,0,0,0,-0.463881,0.0964853,243,-72,243,-72,371,-88,250,51,0.412017,0.0171784,0,-1.5,3.94113e+12,0,0,0,-0.338966,0.0892999,0,0,0,0,0.242946,-0.0300423,18070,-0.355243,0.0913127,0.242946,-0.0300423,6247,0,0,0,0,0.2,1
6322,-3.18842e-12,1.95919e-38,-1.57041e-06,-3.26583e-12,1.95907e-38,0,0,0,0,-3.55028,0.0964853,0.565846,0,0,0,0,0,-0.463881,0.0964853,243,-72,243,-72,371,-88,250,51,0.412017,0.0171784,0,-1.5,3.94113e+12,0,0,0,-0.335078,0.0888192,0,0,0,0,0.242946,-0.0300423,18070,-0.355243,0.0913127,0.242946,-0.0300423,6247,0,0,0,0,0.2,1
6338,-3.18842e-12,1.95919e-38,-1.57041e-06,-3.26583e-12,1.95907e-38,0,0,0,0,-3.55028,0.0964853,0.565846,0,0,0,0,0,-0.463881,0.0964853,243,-72,243,-72,371,-88,250,51,0.412017,0.0171784,0,-1.5,3.94113e+12,0,0,0,-0.331191,0.0883385,0,0,0,0,0.242946,-0.0300423,18070,-0.355243,0.0913127,0.242946,-0.0300423,6247,0,0,0,0,0.2,1
6357,-3.18842e-12,1.95919e-38,-1.57041e-06,-3.26583e-12,1.95907e-38,0,0,0,0,-3.55028,0.0964853,0.565846,0,0,0,0,0,-0.463881,0.0964853,243,-72,243,-72,371,-88,250,51,0.40052,-0.0872664,0,-1.5,3.94113e+12,0,0,0,-0.465179,0.0964278,0,0,0,0,-0.138505,-0.00130089,18070,-0.463794,0.0964408,-0.138505,-0.00130089,6349,0,0,0,0,0.2,1
6372,-3.18842e-12,1.95919e-38,-1.57041e-06,-3.26583e-12,1.95907e-38,0,0,0,0,-3.55028,0.0964853,0.565846,0,0,0,0,0,-0.463881,0.0964853,243,-72,243,-72,371,-88,250,51,0.40052,-0.0872664,0,-1.5,3.94113e+12,0,0,0,-0.467118,0.0964096,0,0,0,0,-0.138505,-0.00130089,18070,-0.463794,0.0964408,-0.138505,-0.00130089,6349,0,0,0,0,0.2,1
6391,-3.18842e-12,1.95919e-38,-1.57041e-06,-3.26583e-12,1.95907e-38,0,0,0,0,-3.57618,0.105559,0.577723,0,0,0,0,0,-0.499373,0.105559,241,-72,241,-72,368,-86,251,51,0.40052,-0.0872664,0,-1.5,3.94113e+12,0,0,0,-0.469888,0.0963836,0,0,0,0,-0.138505,-0.00130089,18084,-0.468226,0.0963992,-0.138505,-0.00130089,6381,0,0,0,0,0.2,1
6407,-3.18842e-12,1.95919e-38,-1.57041e-06,-3.26583e-12,1.95907e-38,0,0,0,0,-3.57618,0.105559,0.577723,0,0,0,0,0,-0.499373,0.105559,241,-72,241,-72,368,-86,251,51,0.40052,-0.0872664,0,-1.5,3.94113e+12,0,0,0,-0.472104,0.0963628,0,0,0,0,-0.138505,-0.00130089,18084,-0.468226,0.0963992,-0.138505,-0.00130089,6381,0,0,0,0,0.2,1
6427,-3.18842e-12,1.95919e-38,-1.57041e-06,-3.26583e-12,1.95907e-38,0,0,0,0,-3.54056,0.0989586,0.568972,0,0,0,0,0,-0.45057,0.0989586,240,-72,240,-72,370,-88,251,51,0.399197,-0.0872664,0,-1.5,3.94113e+12,0,0,0,-0.477099,0.0968479,0,0,0,0,-0.142478,0.00200653,18765,-0.475389,0.0968238,-0.142478,0.00200653,6417,0,0,0,0,0.2,1
6442,-3.18842e-12,1.95919e-38,-1.57041e-06,-3.26583e-12,1.95907e-38,0,0,0,0,-3.54056,0.0989586,0.568972,0,0,0,0,0,-0.45057,0.0989586,240,-72,240,-72,370,-88,251,51,0.399197,-0.0872664,0,-1.5,3.94113e+12,0,0,0,-0.479378,0.09688,0,0,0,0,-0.142478,0.00200653,18765,-0.475389,0.0968238,-0.142478,0.00200653,6417,0,0,0,0,0.2,1
6462,-3.18842e-12,1.95919e-38,-1.57041e-06,-3.26583e-12,1.95907e-38,0,0,0,0,-3.50106,0.104555,0.560329,0,0,0,0,0,-0.396448,0.104555,239,-75,239,-75,370,-93,251,51,0.395046,-0.0872664,0,-1.5,3.94113e+12,0,0,0,-0.463348,0.100408,0,0,0,0,-0.101084,0.0123859,19296,-0.461427,0.100172,-0.101084,0.0123859,6449,0,0,0,0,0.2,1
6478,-3.18842e-12,1.95919e-38,-1.57041e-06,-3.26583e-12,1.95907e-38,0,0,0,0,-3.50106,0.104555,0.560329,0,0,0,0,0,-0.396448,0.104555,239,-75,239,-75,370,-93,251,51,0.395046,-0.0872664,0,-1.5,3.94113e+12,0,0,0,-0.464965,0.100606,0,0,0,0,-0.101084,0.0123859,19296,-0.461427,0.100172,-0.101084,0.0123859,6449,0,0,0,0,0.2,1
6494,-3.18842e-12,1.95919e-38,-1.57041e-06,-3.26583e-12,1.95907e-38,0,0,0,0,-3.50106,0.104555,0.560329,0,0,0,0,0,-0.396448,0.104555,239,-75,239,-75,370,-93,251,51,0.395046,-0.0872664,0,-1.5,3.94113e+12,0,0,0,-0.466684,0.100816,0,0,0,0,-0.101084,0.0123859,19296,-0.461427,0.100172,-0.101084,0.0123859,6449,0,0,0,0,0.2,1
6510,-3.18842e-12,1.95919e-38,-1.57041e-06,-3.26583e-12,1.95907e-38,0,0,0,0,-3.50106,0.104555,0.560329,0,0,0,0,0,-0.396448,0.104555,239,-75,239,-75,370,-93,251,51,0.395046,-0.0872664,0,-1.5,3.94113e+12,0,0,0,-0.468301,0.101015,0,0,0,0,-0.101084,0.0123859,19296,-0.461427,0.100172,-0.101084,0.0123859,6449,0,0,0,0,0.2,1
6530,-3.18842e-12,1.95919e-38,-1.57041e-06,-3.26583e-12,1.95907e-38,0,0,0,0,-3.47707,0.1165,0.64687,0,0,0,0,0,-0.363581,0.1165,239,-90,239,-90,367,-104,248,42,0.386368,-0.0872664,0,-1.5,3.94113e+12,0,0,0,-0.431176,0.107464,0,0,0,0,-0.0272932,0.0340808,19564,-0.430658,0.106816,-0.0272932,0.0340808,6517,0,0,0,0,0.2,1
6545,-3.18842e-12,1.95919e-38,-1.57041e-06,-3.26583e-12,1.95907e-38,0,0,0,0,-3.47707,0.1165,0.64687,0,0,0,0,0,-0.363581,0.1165,239,-90,239,-90,367,-104,248,42,0.386368,-0.0872664,0,-1.5,3.94113e+12,0,0,0,-0.431613,0.108009,0,0,0,0,-0.0272932,0.0340808,19564,-0.430658,0.106816,-0.0272932,0.0340808,6517,0,0,0,0,0.2,1
6562,-3.18842e-12,1.95919e-38,-1.57041e-06,-3.26583e-12,1.95907e-38,0,0,0,0,-3.47707,0.1165,0.64687,0,0,0,0,0,-0.363581,0.1165,239,-90,239,-90,367,-104,248,42,0.386368,-0.0872664,0,-1.5,3.94113e+12,0,0,0,-0.43205,0.108554,0,0,0,0,-0.0272932,0.0340808,19564,-0.430658,0.106816,-0.0272932,0.0340808,6517,0,0,0,0,0.2,1
6577,-3.18842e-12,1.95919e-38,-1.57041e-06,-3.26583e-12,1.95907e-38,0,0,0,0,-3.47707,0.1165,0.64687,0,0,0,0,0,-0.363581,0.1165,239,-90,239,-90,367,-104,248,42,0.386368,-0.0872664,0,-1.5,3.94113e+12,0,0,0,-0.432459,0.109066,0,0,0,0,-0.0272932,0.0340808,19564,-0.430658,0.106816,-0.0272932,0.0340808,6517,0,0,0,0,0.2,1
6592,-3.18842e-12,1.95919e-38,-1.57041e-06,-3.26583e-12,1.95907e-38,0,0,0,0,-3.47707,0.1165,0.64687,0,0,0,0,0,-0.363581,0.1165,239,-90,239,-90,367,-104,248,42,0.386368,-0.0872664,0,-1.5,3.94113e+12,0,0,0,-0.432896,0.109611,0,0,0,0,-0.0272932,0.0340808,19564,-0.430658,0.106816,-0.0272932,0.0340808,6517,0,0,0,0,0.2,1
6608,-3.18842e-12,1.95919e-38,-1.57041e-06,-3.26583e-12,1.95907e-38,0,0,0,0,-3.47707,0.1165,0.64687,0,0,0,0,0,-0.363581,0.1165,239,-90,239,-90,367,-104,248,42,0.386368,-0.0872664,0,-1.5,3.94113e+12,0,0,0,-0.433332,0.110156,0,0,0,0,-0.0272932,0.0340808,19564,-0.430658,0.106816,-0.0272932,0.0340808,6517,0,0,0,0,0.2,1
6623,-3.18842e-12,1.95919e-38,-1.57041e-06,-3.26583e-12,1.95907e-38,0,0,0,0,-3.47707,0.1165,0.64687,0,0,0,0,0,-0.363581,0.1165,239,-90,239,-90,367,-104,248,42,0.386368,-0.0872664,0,-1.5,3.94113e+12,0,0,0,-0.433742,0.110667,0,0,0,0,-0.0272932,0.0340808,19564,-0.430658,0.106816,-0.0272932,0.0340808,6517,0,0,0,0,0.2,1
6639,-3.18842e-12,1.95919e-38,-1.57041e-06,-3.26583e-12,1.95907e-38,0,0,0,0,-3.47707,0.1165,0.64687,0,0,0,0,0,-0.363581,0.1165,239,-90,239,-90,367,-104,248,42,0.386368,-0.0872664,0,-1.5,3.94113e+12,0,0,0,-0.434178,0.111213,0,0,0,0,-0.0272932,0.0340808,19564,-0.430658,0.106816,-0.0272932,0.0340808,6517,0,0,0,0,0.2,1
6655,-3.18842e-12,1.95919e-38,-1.57041e-06,-3.26583e-12,1.95907e-38,0,0,0,0,-3.47707,0.1165,0.64687,0,0,0,0,0,-0.363581,0.1165,239,-90,239,-90,367,-104,248,42,0.386368,-0.0872664,0,-1.5,3.94113e+12,0,0,0,-0.434615,0.111758,0,0,0,0,-0.0272932,0.0340808,19564,-0.430658,0.106816,-0.0272932,0.0340808,6517,0,0,0,0,0.2,1
6671,-3.18842e-12,1.95919e-38,-1.57041e-06,-3.26583e-12,1.95907e-38,0,0,0,0,-3.47707,0.1165,0.64687,0,0,0,0,0,-0.363581,0.1165,239,-90,239,-90,367,-104,248,42,0.386368,-0.0872664,0,-1.5,3.94113e+12,0,0,0,-0.435052,0.112303,0,0,0,0,-0.0272932,0.0340808,19564,-0.430658,0.106816,-0.0272932,0.0340808,6517,0,0,0,0,0.2,1
6687,-3.18842e-12,1.95919e-38,-1.57041e-06,-3.26583e-12,1.95907e-38,0,0,0,0,-3.47707,0.1165,0.64687,0,0,0,0,0,-0.363581,0.1165,239,-90,239,-90,367,-104,248,42,0.386368,-0.0872664,0,-1.5,3.94113e+12,0,0,0,-0.435461,0.112814,0,0,0,0,-0.0272932,0.0340808,19564,-0.430658,0.106816,-0.0272932,0.0340808,6517,0,0,0,0,0.2,1
6702,-3.18842e-12,1.95919e-38,-1.57041e-06,-3.26583e-12,1.95907e-38,0,0,0,0,-3.47707,0.1165,0.64687,0,0,0,0,0,-0.363581,0.1165,239,-90,239,-90,367,-104,248,42,0.386368,-0.0872664,0,-1.5,3.94113e+12,0,0,0,-0.435898,0.11336,0,0,0,0,-0.0272932,0.0340808,19564,-0.430658,0.106816,-0.0272932,0.0340808,6517,0,0,0,0,0.2,1
6718,-3.18842e-12,1.95919e-38,-1.57041e-06,-3.26583e-12,1.95907e-38,0,0,0,0,-3.47707,0.1165,0.64687,0,0,0,0,0,-0.363581,0.1165,239,-90,239,-90,367,-104,248,42,0.386368,-0.0872664,0,-1.5,3.94113e+12,0,0,0,-0.436335,0.113905,0,0,0,0,-0.0272932,0.0340808,19564,-0.430658,0.106816,-0.0272932,0.0340808,6517,0,0,0,0,0.2,1
6733,-3.18842e-12,1.95919e-38,-1.57041e-06,-3.26583e-12,1.95907e-38,0,0,0,0,-3.47707,0.1165,0.64687,0,0,0,0,0,-0.363581,0.1165,239,-90,239,-90,367,-104,248,42,0.386368,-0.0872664,0,-1.5,3.94113e+12,0,0,0,-0.436744,0.114416,0,0,0,0,-0.0272932,0.0340808,19564,-0.430658,0.106816,-0.0272932,0.0340808,6517,0,0,0,0,0.2,1
6749,-3.18842e-12,1.95919e-38,-1.57041e-06,-3.26583e-12,1.95907e-38,0,0,0,0,-3.47707,0.1165,0.64687,0,0,0,0,0,-0.363581,0.1165,239,-90,239,-90,367,-104,248,42,0.386368,-0.0872664,0,-1.5,3.94113e+12,0,0,0,-0.437181,0.114961,0,0,0,0,-0.0272932,0.0340808,19564,-0.430658,0.106816,-0.0272932,0.0340808,6517,0,0,0,0,0.2,1
6765,-3.18842e-12,1.95919e-38,-1.57041e-06,-3.26583e-12,1.95907e-38,0,0,0,0,-3.47707,0.1165,0.64687,0,0,0,0,0,-0.363581,0.1165,239,-90,239,-90,367,-104,248,42,0.386368,-0.0872664,0,-1.5,3.94113e+12,0,0,0,-0.437617,0.115507,0,0,0,0,-0.0272932,0.0340808,19564,-0.430658,0.106816,-0.0272932,0.0340808,6517,0,0,0,0,0.2,1
6781,-3.18842e-12,1.95919e-38,-1.57041e-06,-3.26583e-12,1.95907e-38,0,0,0,0,-3.47707,0.1165,0.64687,0,0,0,0,0,-0.363581,0.1165,239,-90,239,-90,367,-104,248,42,0.386368,-0.0872664,0,-1.5,3.94113e+12,0,0,0,-0.438054,0.116052,0,0,0,0,-0.0272932,0.0340808,19564,-0.430658,0.106816,-0.0272932,0.0340808,6517,0,0,0,0,0.2,1
6796,-3.18842e-12,1.95919e-38,-1.57041e-06,-3.26583e-12,1.95907e-38,0,0,0,0,-3.47707,0.1165,0.64687,0,0,0,0,0,-0.363581,0.1165,239,-90,239,-90,367,-104,248,42,0.386368,-0.0872664,0,-1.5,3.94113e+12,0,0,0,-0.438463,0.116563,0,0,0,0,-0.0272932,0.0340808,19564,-0.430658,0.106816,-0.0272932,0.0340808,6517,0,0,0,0,0.2,1
6812,-3.18842e-12,1.95919e-38,-1.57041e-06,-3.26583e-12,1.95907e-38,0,0,0,0,-3.47707,0.1165,0.64687,0,0,0,0,0,-0.363581,0.1165,239,-90,239,-90,367,-104,248,42,0.386368,-0.0872664,0,-1.5,3.94113e+12,0,0,0,-0.4389,0.117109,0,0,0,0,-0.0272932,0.0340808,19564,-0.430658,0.106816,-0.0272932,0.0340808,6517,0,0,0,0,0.2,1
6828,-3.18842e-12,1.95919e-38,-1.57041e-06,-3.26583e-12,1.95907e-38,0,0,0,0,-3.47707,0.1165,0.64687,0,0,0,0,0,-0.363581,0.1165,239,-90,239,-90,367,-104,248,42,0.386368,-0.0872664,0,-1.5,3.94113e+12,0,0,0,-0.439337,0.117654,0,0,0,0,-0.0272932,0.0340808,19564,-0.430658,0.106816,-0.0272932,0.0340808,6517,0,0,0,0,0.2,1
6844,-3.18842e-12,1.95919e-38,-1.57041e-06,-3.26583e-12,1.95907e-38,0,0,0,0,-3.47707,0.1165,0.64687,0,0,0,0,0,-0.363581,0.1165,239,-90,239,-90,367,-104,248,42,0.386368,-0.0872664,0,-1.5,3.94113e+12,0,0,0,-0.439746,0.118165,0,0,0,0,-0.0272932,0.0340808,19564,-0.430658,0.106816,-0.0272932,0.0340808,6517,0,0,0,0,0.2,1
6859,-3.18842e-12,1.95919e-38,-1.57041e-06,-3.26583e-12,1.95907e-38,0,0,0,0,-3.47707,0.1165,0.64687,0,0,0,0,0,-0.363581,0.1165,239,-90,239,-90,367,-104,248,42,0.386368,-0.0872664,0,-1.5,3.94113e+12,0,0,0,-0.440183,0.11871,0,0,0,0,-0.0272932,0.0340808,19564,-0.430658,0.106816,-0.0272932,0.0340808,6517,0,0,0,0,0.2,1
6875,-3.18842e-12,1.95919e-38,-1.57041e-06,-3.26583e-12,1.95907e-38,0,0,0,0,-3.47707,0.1165,0.64687,0,0,0,0,0,-0.363581,0.1165,239,-90,239,-90,367,-104,248,42,0.386368,-0.0872664,0,-1.5,3.94113e+12,0,0,0,-0.44062,0.119256,0,0,0,0,-0.0272932,0.0340808,19564,-0.430658,0.106816,-0.0272932,0.0340808,6517,0,0,0,0,0.2,1
6891,-3.18842e-12,1.95919e-38,-1.57041e-06,-3.26583e-12,1.95907e-38,0,0,0,0,-3.47707,0.1165,0.64687,0,0,0,0,0,-0.363581,0.1165,239,-90,239,-90,367,-104,248,42,0.386368,-0.0872664,0,-1.5,3.94113e+12,0,0,0,-0.441056,0.119801,0,0,0,0,-0.0272932,0.0340808,19564,-0.430658,0.106816,-0.0272932,0.0340808,6517,0,0,0,0,0.2,1
6907,-3.18842e-12,1.95919e-38,-1.57041e-06,-3.26583e-12,1.95907e-38,0,0,0,0,-3.47707,0.1165,0.64687,0,0,0,0,0,-0.363581,0.1165,239,-90,239,-90,367,-104,248,42,0.386368,-0.0872664,0,-1.5,3.94113e+12,0,0,0,-0.441493,0.120346,0,0,0,0,-0.0272932,0.0340808,19564,-0.430658,0.106816,-0.0272932,0.0340808,6517,0,0,0,0,0.2,1
6922,-3.18842e-12,1.95919e-38,-1.57041e-06,-3.26583e-12,1.95907e-38,0,0,0,0,-3.47707,0.1165,0.64687,0,0,0,0,0,-0.363581,0.1165,239,-90,239,-90,367,-104,248,42,0.386368,-0.0872664,0,-1.5,3.94113e+12,0,0,0,-0.441902,0.120857,0,0,0,0,-0.0272932,0.0340808,19564,-0.430658,0.106816,-0.0272932,0.0340808,6517,0,0,0,0,0.2,1
6938,-3.18842e-12,1.95919e-38,-1.57041e-06,-3.26583e-12,1.95907e-38,0,0,0,0,-3.47707,0.1165,0.64687,0,0,0,0,0,-0.363581,0.1165,239,-90,239,-90,367,-104,248,42,0.386368,-0.0872664,0,-1.5,3.94113e+12,0,0,0,-0.442312,0.121369,0,0,0,0,-0.0272932,0.0340808,19564,-0.430658,0.106816,-0.0272932,0.0340808,6517,0,0,0,0,0.2,1
6954,-3.18842e-12,1.95919e-38,-1.57041e-06,-3.26583e-12,1.95907e-38,0,0,0,0,-3.47707,0.1165,0.64687,0,0,0,0,0,-0.363581,0.1165,239,-90,239,-90,367,-104,248,42,0.386368,-0.0872664,0,-1.5,3.94113e+12,0,0,0,-0.442776,0.121948,0,0,0,0,-0.0272932,0.0340808,19564,-0.430658,0.106816,-0.0272932,0.0340808,6517,0,0,0,0,0.2,1
6971,-3.18842e-12,1.95919e-38,-1.57041e-06,-3.26583e-12,1.95907e-38,0,0,0,0,-3.47707,0.1165,0.64687,0,0,0,0,0,-0.363581,0.1165,239,-90,239,-90,367,-104,248,42,0.386368,-0.0872664,0,-1.5,3.94113e+12,0,0,0,-0.443212,0.122493,0,0,0,0,-0.0272932,0.0340808,19564,-0.430658,0.106816,-0.0272932,0.0340808,6517,0,0,0,0,0.2,1
6986,-3.18842e-12,1.95919e-38,-1.57041e-06,-3.26583e-12,1.95907e-38,0,0,0,0,-3.47707,0.1165,0.64687,0,0,0,0,0,-0.363581,0.1165,239,-90,239,-90,367,-104,248,42,0.386368,-0.0872664,0,-1.5,3.94113e+12,0,0,0,-0.443649,0.123039,0,0,0,0,-0.0272932,0.0340808,19564,-0.430658,0.106816,-0.0272932,0.0340808,6517,0,0,0,0,0.2,1
7001,-3.18842e-12,1.95919e-38,-1.57041e-06,-3.26583e-12,1.95907e-38,0,0,0,0,-3.47707,0.1165,0.64687,0,0,0,0,0,-0.363581,0.1165,239,-90,239,-90,367,-104,248,42,0.386368,-0.0872664,0,-1.5,3.94113e+12,0,0,0,-0.444059,0.12355,0,0,0,0,-0.0272932,0.0340808,19564,-0.430658,0.106816,-0.0272932,0.0340808,6517,0,0,0,0,0.2,1
7017,-3.18842e-12,1.95919e-38,-1.57041e-06,-3.26583e-12,1.95907e-38,0,0,0,0,-3.47707,0.1165,0.64687,-0.444495,0.124095,-0.0272114,0.0339786,0,-0.363581,0.1165,239,-90,239,-90,367,-104,248,42,0.386409,-0.0872664,0,-1.5,3.94113e+12,0,0,0,-0.444495,0.124095,0,0,0,0,-0.0272114,0.0339786,19564,0,0,0,0,6517,0,0,0,0,0.2,1
7033,-3.18842e-12,1.95919e-38,-1.57041e-06,-3.26583e-12,1.95907e-38,0,0,0,0,-3.47707,0.1165,0.64687,-0.444928,0.124636,-0.0269943,0.0337076,0,-0.363581,0.1165,239,-90,239,-90,367,-104,248,42,0.386517,-0.0872664,0,-1.5,3.94113e+12,0,0,0,-0.444928,0.124636,0,0,0,0,-0.0269943,0.0337076,19564,0,0,0,0,6517,0,0,0,0,0.2,1
7049,-3.18842e-12,1.95919e-38,-1.57041e-06,-3.26583e-12,1.95907e-38,0,0,0,0,-3.47707,0.1165,0.64687,-0.445358,0.125172,-0.0267789,0.0334387,0,-0.363581,0.1165,239,-90,239,-90,367,-104,248,42,0.386625,-0.0872664,0,-1.5,3.94113e+12,0,0,0,-0.445358,0.125172,0,0,0,0,-0.0267789,0.0334387,19564,0,0,0,0,6517,0,0,0,0,0.2,1
7065,-3.18842e-12,1.95919e-38,-1.57041e-06,-3.26583e-12,1.95907e-38,0,0,0,0,-3.47707,0.1165,0.64687,-0.445784,0.125704,-0.0265653,0.0331719,0,-0.363581,0.1165,239,-90,239,-90,367,-104,248,42,0.386731,-0.0872664,0,-1.5,3.94113e+12,0,0,0,-0.445784,0.125704,0,0,0,0,-0.0265653,0.0331719,19564,0,0,0,0,6517,0,0,0,0,0.2,1
7081,-3.18842e-12,1.95919e-38,-1.57041e-06,-3.26583e-12,1.95907e-38,0,0,0,0,-3.47707,0.1165,0.64687,-0.446207,0.126232,-0.0263534,0.0329073,0,-0.363581,0.1165,239,-90,239,-90,367,-104,248,42,0.386837,-0.0872664,0,-1.5,3.94113e+12,0,0,0,-0.446207,0.126232,0,0,0,0,-0.0263534,0.0329073,19564,0,0,0,0,6517,0,0,0,0,0.2,1
7097,-3.18842e-12,1.95919e-38,-1.57041e-06,-3.26583e-12,1.95907e-38,0,0,0,0,-3.47707,0.1165,0.64687,-0.446626,0.126756,-0.0261432,0.0326448,0,-0.363581,0.1165,239,-90,239,-90,367,-104,248,42,0.386942,-0.0872664,0,-1.5,3.94113e+12,0,0,0,-0.446626,0.126756,0,0,0,0,-0.0261432,0.0326448,19564,0,0,0,0,6517,0,0,0,0,0.2,1
7113,-3.18842e-12,1.95919e-38,-1.57041e-06,-3.26583e-12,1.95907e-38,0,0,0,0,-3.47707,0.1165,0.64687,-0.447043,0.127276,-0.0259347,0.0323844,0,-0.363581,0.1165,239,-90,239,-90,367,-104,248,42,0.387046,-0.0872664,0,-1.5,3.94113e+12,0,0,0,-0.447043,0.127276,0,0,0,0,-0.0259347,0.0323844,19564,0,0,0,0,6517,0,0,0,0,0.2,1
7128,-3.18842e-12,1.95919e-38,-1.57041e-06,-3.26583e-12,1.95907e-38,0,0,0,0,-3.47707,0.1165,0.64687,-0.44743,0.127759,-0.0257407,0.0321422,0,-0.363581,0.1165,239,-90,239,-90,367,-104,248,42,0.387143,-0.0872664,0,-1.5,3.94113e+12,0,0,0,-0.44743,0.127759,0,0,0,0,-0.0257407,0.0321422,19564,0,0,0,0,6517,0,0,0,0,0.2,1
7144,-3.18842e-12,1.95919e-38,-1.57041e-06,-3.26583e-12,1.95907e-38,0,0,0,0,-3.47707,0.1165,0.64687,-0.447839,0.128271,-0.0255354,0.0318858,0,-0.363581,0.1165,239,-90,239,-90,367,-104,248,42,0.387246,-0.0872664,0,-1.5,3.94113e+12,0,0,0,-0.447839,0.128271,0,0,0,0,-0.0255354,0.0318858,19564,0,0,0,0,6517,0,0,0,0,0.2,1
7159,-3.18842e-12,1.95919e-38,-1.57041e-06,-3.26583e-12,1.95907e-38,0,0,0,0,-3.47707,0.1165,0.64687,-0.448221,0.128747,-0.0253444,0.0316473,0,-0.363581,0.1165,239,-90,239,-90,367,-104,248,42,0.387341,-0.0872664,0,-1.5,3.94113e+12,0,0,0,-0.448221,0.128747,0,0,0,0,-0.0253444,0.0316473,19564,0,0,0,0,6517,0,0,0,0,0.2,1
7175,-3.18842e-12,1.95919e-38,-1.57041e-06,-3.26583e-12,1.95907e-38,0,0,0,0,-3.47707,0.1165,0.64687,-0.448624,0.129251,-0.0251422,0.0313948,0,-0.363581,0.1165,239,-90,239,-90,367,-104,248,42,0.387442,-0.0872664,0,-1.5,3.94113e+12,0,0,0,-0.448624,0.129251,0,0,0,0,-0.0251422,0.0313948,19564,0,0,0,0,6517,0,0,0,0,0.2,1
7190,-3.18842e-12,1.95919e-38,-1.57041e-06,-3.26583e-12,1.95907e-38,0,0,0,0,-3.47707,0.1165,0.64687,-0.448999,0.129719,-0.0249541,0.03116,0,-0.363581,0.1165,239,-90,239,-90,367,-104,248,42,0.387536,-0.0872664,0,-1.5,3.94113e+12,0,0,0,-0.448999,0.129719,0,0,0,0,-0.0249541,0.03116,19564,0,0,0,0,6517,0,0,0,0,0.2,1
7206,-3.18842e-12,1.95919e-38,-1.57041e-06,-3.26583e-12,1.95907e-38,0,0,0,0,-3.47707,0.1165,0.64687,-0.449397,0.130215,-0.024755,0.0309114,0,-0.363581,0.1165,239,-90,239,-90,367,-104,248,42,0.387635,-0.0872664,0,-1.5,3.94113e+12,0,0,0,-0.449397,0.130215,0,0,0,0,-0.024755,0.0309114,19564,0,0,0,0,6517,0,0,0,0,0.2,1
7222,-3.18842e-12,1.95919e-38,-1.57041e-06,-3.26583e-12,1.95907e-38,0,0,0,0,-3.47707,0.1165,0.64687,-0.449791,0.130707,-0.0245575,0.0306648,0,-0.363581,0.1165,239,-90,239,-90,367,-104,248,42,0.387734,-0.0872664,0,-1.5,3.94113e+12,0,0,0,-0.449791,0.130707,0,0,0,0,-0.0245575,0.0306648,19564,0,0,0,0,6517,0,0,0,0,0.2,1
7238,-3.18842e-12,1.95919e-38,-1.57041e-06,-3.26583e-12,1.95907e-38,0,0,0,0,-3.47707,0.1165,0.64687,-0.450182,0.131195,-0.0243616,0.0304202,0,-0.363581,0.1165,239,-90,239,-90,367,-104,248,42,0.387832,-0.0872664,0,-1.5,3.94113e+12,0,0,0,-0.450182,0.131195,0,0,0,0,-0.0243616,0.0304202,19564,0,0,0,0,6517,0,0,0,0,0.2,1
7254,-3.18842e-12,1.95919e-38,-1.57041e-06,-3.26583e-12,1.95907e-38,0,0,0,0,-3.47707,0.1165,0.64687,-0.450569,0.13168,-0.0241673,0.0301776,0,-0.363581,0.1165,239,-90,239,-90,367,-104,248,42,0.387929,-0.0872664,0,-1.5,3.94113e+12,0,0,0,-0.450569,0.13168,0,0,0,0,-0.0241673,0.0301776,19564,0,0,0,0,6517,0,0,0,0,0.2,1
7270,-3.18842e-12,1.95919e-38,-1.57041e-06,-3.26583e-12,1.95907e-38,0,0,0,0,-3.47707,0.1165,0.64687,-0.45093,0.13213,-0.0239866,0.0299518,0,-0.363581,0.1165,239,-90,239,-90,367,-104,248,42,0.388019,-0.0872664,0,-1.5,3.94113e+12,0,0,0,-0.45093,0.13213,0,0,0,0,-0.0239866,0.0299518,19564,0,0,0,0,6517,0,0,0,0,0.2,1
7285,-3.18842e-12,1.95919e-38,-1.57041e-06,-3.26583e-12,1.95907e-38,0,0,0,0,-3.47707,0.1165,0.64687,-0.451312,0.132607,-0.0237952,0.0297129,0,-0.363581,0.1165,239,-90,239,-90,367,-104,248,42,0.388115,-0.0872664,0,-1.5,3.94113e+12,0,0,0,-0.451312,0.132607,0,0,0,0,-0.0237952,0.0297129,19564,0,0,0,0,6517,0,0,0,0,0.2,1
7301,-3.18842e-12,1.95919e-38,-1.57041e-06,-3.26583e-12,1.95907e-38,0,0,0,0,-3.47707,0.1165,0.64687,-0.451691,0.13308,-0.0236053,0.0294758,0,-0.363581,0.1165,239,-90,239,-90,367,-104,248,42,0.38821,-0.0872664,0,-1.5,3.94113e+12,0,0,0,-0.451691,0.13308,0,0,0,0,-0.0236053,0.0294758,19564,0,0,0,0,6517,0,0,0,0,0.2,1
7318,-3.18842e-12,1.95919e-38,-1.57041e-06,-3.26583e-12,1.95907e-38,0,0,0,0,-3.47707,0.1165,0.64687,-0.452066,0.133549,-0.023417,0.0292407,0,-0.363581,0.1165,239,-90,239,-90,367,-104,248,42,0.388304,-0.0872664,0,-1.5,3.94113e+12,0,0,0,-0.452066,0.133549,0,0,0,0,-0.023417,0.0292407,19564,0,0,0,0,6517,0,0,0,0,0.2,1
7333,-3.18842e-12,1.95919e-38,-1.57041e-06,-3.26583e-12,1.95907e-38,0,0,0,0,-3.47707,0.1165,0.64687,-0.452439,0.134014,-0.0232302,0.0290074,0,-0.363581,0.1165,239,-90,239,-90,367,-104,248,42,0.388397,-0.0872664,0,-1.5,3.94113e+12,0,0,0,-0.452439,0.134014,0,0,0,0,-0.0232302,0.0290074,19564,0,0,0,0,6517,0,0,0,0,0.2,1
7349,-3.18842e-12,1.95919e-38,-1.57041e-06,-3.26583e-12,1.95907e-38,0,0,0,0,-3.47707,0.1165,0.64687,-0.452809,0.134476,-0.0230449,0.028776,0,-0.363581,0.1165,239,-90,239,-90,367,-104,248,42,0.38849,-0.0872664,0,-1.5,3.94113e+12,0,0,0,-0.452809,0.134476,0,0,0,0,-0.0230449,0.028776,19564,0,0,0,0,6517,0,0,0,0,0.2,1
7364,-3.18842e-12,1.95919e-38,-1.57041e-06,-3.26583e-12,1.95907e-38,0,0,0,0,-3.47707,0.1165,0.64687,-0.453153,0.134906,-0.0228725,0.0285608,0,-0.363581,0.1165,239,-90,239,-90,367,-104,248,42,0.388576,-0.0872664,0,-1.5,3.94113e+12,0,0,0,-0.453153,0.134906,0,0,0,0,-0.0228725,0.0285608,19564,0,0,0,0,6517,0,0,0,0,0.2,1
7381,-3.18842e-12,1.95919e-38,-1.57041e-06,-3.26583e-12,1.95907e-38,0,0,0,0,-3.47707,0.1165,0.64687,-0.45354,0.135388,-0.0226787,0.0283187,0,-0.363581,0.1165,239,-90,239,-90,367,-104,248,42,0.388673,-0.0872664,0,-1.5,3.94113e+12,0,0,0,-0.45354,0.135388,0,0,0,0,-0.0226787,0.0283187,19564,0,0,0,0,6517,0,0,0,0,0.2,1
7397,-3.18842e-12,1.95919e-38,-1.57041e-06,-3.26583e-12,1.95907e-38,0,0,0,0,-3.47707,0.1165,0.64687,-0.453901,0.135839,-0.0224977,0.0280928,0,-0.363581,0.1165,239,-90,239,-90,367,-104,248,42,0.388763,-0.0872664,0,-1.5,3.94113e+12,0,0,0,-0.453901,0.135839,0,0,0,0,-0.0224977,0.0280928,19564,0,0,0,0,6517,0,0,0,0,0.2,1
7413,-3.18842e-12,1.95919e-38,-1.57041e-06,-3.26583e-12,1.95907e-38,0,0,0,0,-3.47707,0.1165,0.64687,-0.454259,0.136286,-0.0223183,0.0278686,0,-0.363581,0.1165,239,-90,239,-90,367,-104,248,42,0.388853,-0.0872664,0,-1.5,3.94113e+12,0,0,0,-0.454259,0.136286,0,0,0,0,-0.0223183,0.0278686,19564,0,0,0,0,6517,0,0,0,0,0.2,1
7426,-3.18842e-12,1.95919e-38,-1.57041e-06,-3.26583e-12,1.95907e-38,0,0,0,0,-3.47707,0.1165,0.64687,-0.454548,0.136647,-0.0221735,0.0276879,0,-0.363581,0.1165,239,-90,239,-90,367,-104,248,42,0.388925,-0.0872664,0,-1.5,3.94113e+12,0,0,0,-0.454548,0.136647,0,0,0,0,-0.0221735,0.0276879,19564,0,0,0,0,6517,0,0,0,0,0.2,1
7442,-3.18842e-12,1.95919e-38,-1.57041e-06,-3.26583e-12,1.95907e-38,0,0,0,0,-3.47707,0.1165,0.64687,-0.454901,0.137088,-0.0219967,0.0274671,0,-0.363581,0.1165,239,-90,239,-90,367,-104,248,42,0.389013,-0.0872664,0,-1.5,3.94113e+12,0,0,0,-0.454901,0.137088,0,0,0,0,-0.0219967,0.0274671,19564,0,0,0,0,6517,0,0,0,0,0.2,1
7458,-3.18842e-12,1.95919e-38,-1.57041e-06,-3.26583e-12,1.95907e-38,0,0,0,0,-3.47707,0.1165,0.64687,-0.455251,0.137525,-0.0218212,0.027248,0,-0.363581,0.1165,239,-90,239,-90,367,-104,248,42,0.389101,-0.0872664,0,-1.5,3.94113e+12,0,0,0,-0.455251,0.137525,0,0,0,0,-0.0218212,0.027248,19564,0,0,0,0,6517,0,0,0,0,0.2,1
7474,-3.18842e-12,1.95919e-38,-1.57041e-06,-3.26583e-12,1.95907e-38,0,0,0,0,-3.47707,0.1165,0.64687,-0.455598,0.137959,-0.0216471,0.0270306,0,-0.363581,0.1165,239,-90,239,-90,367,-104,248,42,0.389188,-0.0872664,0,-1.5,3.94113e+12,0,0,0,-0.455598,0.137959,0,0,0,0,-0.0216471,0.0270306,19564,0,0,0,0,6517,0,0,0,0,0.2,1
7490,-3.18842e-12,1.95919e-38,-1.57041e-06,-3.26583e-12,1.95907e-38,0,0,0,0,-3.47707,0.1165,0.64687,-0.455921,0.138362,-0.0214852,0.0268284,0,-0.363581,0.1165,239,-90,239,-90,367,-104,248,42,0.389269,-0.0872664,0,-1.5,3.94113e+12,0,0,0,-0.455921,0.138362,0,0,0,0,-0.0214852,0.0268284,19564,0,0,0,0,6517,0,0,0,0,0.2,1
7505,-3.18842e-12,1.95919e-38,-1.57041e-06,-3.26583e-12,1.95907e-38,0,0,0,0,-3.47707,0.1165,0.64687,-0.456263,0.138789,-0.0213138,0.0266144,0,-0.363581,0.1165,239,-90,239,-90,367,-104,248,42,0.389354,-0.0872664,0,-1.5,3.94113e+12,0,0,0,-0.456263,0.138789,0,0,0,0,-0.0213138,0.0266144,19564,0,0,0,0,6517,0,0,0,0,0.2,1
7522,-3.18842e-12,1.95919e-38,-1.57041e-06,-3.26583e-12,1.95907e-38,0,0,0,0,-3.47707,0.1165,0.64687,-0.456623,0.139239,-0.0211332,0.0263888,0,-0.363581,0.1165,239,-90,239,-90,367,-104,248,42,0.389444,-0.0872664,0,-1.5,3.94113e+12,0,0,0,-0.456623,0.139239,0,0,0,0,-0.0211332,0.0263888,19564,0,0,0,0,6517,0,0,0,0,0.2,1
7537,-3.18842e-12,1.95919e-38,-1.57041e-06,-3.26583e-12,1.95907e-38,0,0,0,0,-3.47707,0.1165,0.64687,-0.456939,0.139633,-0.0209751,0.0261914,0,-0.363581,0.1165,239,-90,239,-90,367,-104,248,42,0.389523,-0.0872664,0,-1.5,3.94113e+12,0,0,0,-0.456939,0.139633,0,0,0,0,-0.0209751,0.0261914,19564,0,0,0,0,6517,0,0,0,0,0.2,1
7553,-3.18842e-12,1.95919e-38,-1.57041e-06,-3.26583e-12,1.95907e-38,0,0,0,0,-3.47707,0.1165,0.64687,-0.457273,0.14005,-0.0208078,0.0259825,0,-0.363581,0.1165,239,-90,239,-90,367,-104,248,42,0.389607,-0.0872664,0,-1.5,3.94113e+12,0,0,0,-0.457273,0.14005,0,0,0,0,-0.0208078,0.0259825,19564,0,0,0,0,6517,0,0,0,0,0.2,1
7568,-3.18842e-12,1.95919e-38,-1.57041e-06,-3.26583e-12,1.95907e-38,0,0,0,0,-3.47707,0.1165,0.64687,-0.457583,0.140438,-0.0206521,0.0257882,0,-0.363581,0.1165,239,-90,239,-90,367,-104,248,42,0.389685,-0.0872664,0,-1.5,3.94113e+12,0,0,0,-0.457583,0.140438,0,0,0,0,-0.0206521,0.0257882,19564,0,0,0,0,6517,0,0,0,0,0.2,1
7585,-3.18842e-12,1.95919e-38,-1.57041e-06,-3.26583e-12,1.95907e-38,0,0,0,0,-3.47707,0.1165,0.64687,-0.457932,0.140874,-0.0204771,0.0255696,0,-0.363581,0.1165,239,-90,239,-90,367,-104,248,42,0.389772,-0.0872664,0,-1.5,3.94113e+12,0,0,0,-0.457932,0.140874,0,0,0,0,-0.0204771,0.0255696,19564,0,0,0,0,6517,0,0,0,0,0.2,1
7600,-3.18842e-12,1.95919e-38,-1.57041e-06,-3.26583e-12,1.95907e-38,0,0,0,0,-3.47707,0.1165,0.64687,-0.458238,0.141256,-0.0203239,0.0253784,0,-0.363581,0.1165,239,-90,239,-90,367,-104,248,42,0.389849,-0.0872664,0,-1.5,3.94113e+12,0,0,0,-0.458238,0.141256,0,0,0,0,-0.0203239,0.0253784,19564,0,0,0,0,6517,0,0,0,0,0.2,1
7616,-3.18842e-12,1.95919e-38,-1.57041e-06,-3.26583e-12,1.95907e-38,0,0,0,0,-3.47707,0.1165,0.64687,-0.458562,0.14166,-0.0201618,0.0251759,0,-0.363581,0.1165,239,-90,239,-90,367,-104,248,42,0.38993,-0.0872664,0,-1.5,3.94113e+12,0,0,0,-0.458562,0.14166,0,0,0,0,-0.0201618,0.0251759,19564,0,0,0,0,6517,0,0,0,0,0.2,1
7632,-3.18842e-12,1.95919e-38,-1.57041e-06,-3.26583e-12,1.95907e-38,0,0,0,0,-3.47707,0.1165,0.64687,-0.458863,0.142035,-0.020011,0.0249876,0,-0.363581,0.1165,239,-90,239,-90,367,-104,248,42,0.390005,-0.0872664,0,-1.5,3.94113e+12,0,0,0,-0.458863,0.142035,0,0,0,0,-0.020011,0.0249876,19564,0,0,0,0,6517,0,0,0,0,0.2,1
7648,-3.18842e-12,1.95919e-38,-1.57041e-06,-3.26583e-12,1.95907e-38,0,0,0,0,-3.47707,0.1165,0.64687,-0.459201,0.142458,-0.0198414,0.0247758,0,-0.363581,0.1165,239,-90,239,-90,367,-104,248,42,0.39009,-0.0872664,0,-1.5,3.94113e+12,0,0,0,-0.459201,0.142458,0,0,0,0,-0.0198414,0.0247758,19564,0,0,0,0,6517,0,0,0,0,0.2,1
7660,-3.18842e-12,1.95919e-38,-1.57041e-06,-3.26583e-12,1.95907e-38,0,0,0,0,-3.47707,0.1165,0.64687,-0.459438,0.142754,-0.0197227,0.0246275,0,-0.363581,0.1165,239,-90,239,-90,367,-104,248,42,0.390149,-0.0872664,0,-1.5,3.94113e+12,0,0,0,-0.459438,0.142754,0,0,0,0,-0.0197227,0.0246275,19564,0,0,0,0,6517,0,0,0,0,0.2,1
7676,-3.18842e-12,1.95919e-38,-1.57041e-06,-3.26583e-12,1.95907e-38,0,0,0,0,-3.47707,0.1165,0.64687,-0.459752,0.143146,-0.0195653,0.024431,0,-0.363581,0.1165,239,-90,239,-90,367,-104,248,42,0.390228,-0.0872664,0,-1.5,3.94113e+12,0,0,0,-0.459752,0.143146,0,0,0,0,-0.0195653,0.024431,19564,0,0,0,0,6517,0,0,0,0,0.2,1
7692,-3.18842e-12,1.95919e-38,-1.57041e-06,-3.26583e-12,1.95907e-38,0,0,0,0,-3.47707,0.1165,0.64687,-0.460064,0.143535,-0.0194092,0.0242362,0,-0.363581,0.1165,239,-90,239,-90,367,-104,248,42,0.390306,-0.0872664,0,-1.5,3.94113e+12,0,0,0,-0.460064,0.143535,0,0,0,0,-0.0194092,0.0242362,19564,0,0,0,0,6517,0,0,0,0,0.2,1
7707,-3.18842e-12,1.95919e-38,-1.57041e-06,-3.26583e-12,1.95907e-38,0,0,0,0,-3.47707,0.1165,0.64687,-0.460353,0.143897,-0.0192641,0.0240549,0,-0.363581,0.1165,239,-90,239,-90,367,-104,248,42,0.390378,-0.0872664,0,-1.5,3.94113e+12,0,0,0,-0.460353,0.143897,0,0,0,0,-0.0192641,0.0240549,19564,0,0,0,0,6517,0,0,0,0,0.2,1
7724,-3.18842e-12,1.95919e-38,-1.57041e-06,-3.26583e-12,1.95907e-38,0,0,0,0,-3.47707,0.1165,0.64687,-0.46066,0.14428,-0.0191104,0.023863,0,-0.363581,0.1165,239,-90,239,-90,367,-104,248,42,0.390455,-0.0872664,0,-1.5,3.94113e+12,0,0,0,-0.46066,0.14428,0,0,0,0,-0.0191104,0.023863,19564,0,0,0,0,6517,0,0,0,0,0.2,1
7739,-3.18842e-12,1.95919e-38,-1.57041e-06,-3.26583e-12,1.95907e-38,0,0,0,0,-3.47707,0.1165,0.64687,-0.460964,0.144659,-0.0189579,0.0236726,0,-0.363581,0.1165,239,-90,239,-90,367,-104,248,42,0.390531,-0.0872664,0,-1.5,3.94113e+12,0,0,0,-0.460964,0.144659,0,0,0,0,-0.0189579,0.0236726,19564,0,0,0,0,6517,0,0,0,0,0.2,1
7755,-3.18842e-12,1.95919e-38,-1.57041e-06,-3.26583e-12,1.95907e-38,0,0,0,0,-3.47707,0.1165,0.64687,-0.461266,0.145036,-0.0188067,0.0234838,0,-0.363581,0.1165,239,-90,239,-90,367,-104,248,42,0.390606,-0.0872664,0,-1.5,3.94113e+12,0,0,0,-0.461266,0.145036,0,0,0,0,-0.0188067,0.0234838,19564,0,0,0,0,6517,0,0,0,0,0.2,1
7771,-3.18842e-12,1.95919e-38,-1.57041e-06,-3.26583e-12,1.95907e-38,0,0,0,0,-3.47707,0.1165,0.64687,-0.461565,0.14541,-0.0186566,0.0232964,0,-0.363581,0.1165,239,-90,239,-90,367,-104,248,42,0.390681,-0.0872664,0,-1.5,3.94113e+12,0,0,0,-0.461565,0.14541,0,0,0,0,-0.0186566,0.0232964,19564,0,0,0,0,6517,0,0,0,0,0.2,1
7786,-3.18842e-12,1.95919e-38,-1.57041e-06,-3.26583e-12,1.95907e-38,0,0,0,0,-3.47707,0.1165,0.64687,-0.461844,0.145758,-0.0185171,0.0231222,0,-0.363581,0.1165,239,-90,239,-90,367,-104,248,42,0.390751,-0.0872664,0,-1.5,3.94113e+12,0,0,0,-0.461844,0.145758,0,0,0,0,-0.0185171,0.0231222,19564,0,0,0,0,6517,0,0,0,0,0.2,1
7801,-3.18842e-12,1.95919e-38,-1.57041e-06,-3.26583e-12,1.95907e-38,0,0,0,0,-3.47707,0.1165,0.64687,-0.46212,0.146103,-0.0183786,0.0229492,0,-0.363581,0.1165,239,-90,239,-90,367,-104,248,42,0.39082,-0.0872664,0,-1.5,3.94113e+12,0,0,0,-0.46212,0.146103,0,0,0,0,-0.0183786,0.0229492,19564,0,0,0,0,6517,0,0,0,0,0.2,1
7817,-3.18842e-12,1.95919e-38,-1.57041e-06,-3.26583e-12,1.95907e-38,0,0,0,0,-3.47707,0.1165,0.64687,-0.462413,0.146468,-0.018232,0.0227661,0,-0.363581,0.1165,239,-90,239,-90,367,-104,248,42,0.390894,-0.0872664,0,-1.5,3.94113e+12,0,0,0,-0.462413,0.146468,0,0,0,0,-0.018232,0.0227661,19564,0,0,0,0,6517,0,0,0,0,0.2,1
7833,-3.18842e-12,1.95919e-38,-1.57041e-06,-3.26583e-12,1.95907e-38,0,0,0,0,-3.47707,0.1165,0.64687,-0.462703,0.146831,-0.0180865,0.0225845,0,-0.363581,0.1165,239,-90,239,-90,367,-104,248,42,0.390966,-0.0872346,0,-1.5,3.94113e+12,0,0,0,-0.462703,0.146831,0,0,0,0,-0.0180865,0.0225845,19564,0,0,0,0,6517,0,0,0,0,0.2,1
7850,-3.18842e-12,1.95919e-38,-1.57041e-06,-3.26583e-12,1.95907e-38,0,0,0,0,-3.47707,0.1165,0.64687,-0.463009,0.147212,-0.0179332,0.0223931,0,-0.363581,0.1165,239,-90,239,-90,367,-104,248,42,0.391043,-0.0871733,0,-1.5,3.94113e+12,0,0,0,-0.463009,0.147212,0,0,0,0,-0.0179332,0.0223931,19564,0,0,0,0,6517,0,0,0,0,0.2,1
7865,-3.18842e-12,1.95919e-38,-1.57041e-06,-3.26583e-12,1.95907e-38,0,0,0,0,-3.47707,0.1165,0.64687,-0.463276,0.147547,-0.0177991,0.0222256,0,-0.363581,0.1165,239,-90,239,-90,367,-104,248,42,0.39111,-0.0871196,0,-1.5,3.94113e+12,0,0,0,-0.463276,0.147547,0,0,0,0,-0.0177991,0.0222256,19564,0,0,0,0,6517,0,0,0,0,0.2,1
7881,-3.18842e-12,1.95919e-38,-1.57041e-06,-3.26583e-12,1.95907e-38,0,0,0,0,-3.47707,0.1165,0.64687,-0.46356,0.1479,-0.0176571,0.0220483,0,-0.363581,0.1165,239,-90,239,-90,367,-104,248,42,0.391181,-0.0870628,0,-1.5,3.94113e+12,0,0,0,-0.46356,0.1479,0,0,0,0,-0.0176571,0.0220483,19564,0,0,0,0,6517,0,0,0,0,0.2,1
7897,-3.18842e-12,1.95919e-38,-1.57041e-06,-3.26583e-12,1.95907e-38,0,0,0,0,-3.47707,0.1165,0.64687,-0.463841,0.148251,-0.0175163,0.0218724,0,-0.363581,0.1165,239,-90,239,-90,367,-104,248,42,0.391251,-0.0870065,0,-1.5,3.94113e+12,0,0,0,-0.463841,0.148251,0,0,0,0,-0.0175163,0.0218724,19564,0,0,0,0,6517,0,0,0,0,0.2,1
7913,-3.18842e-12,1.95919e-38,-1.57041e-06,-3.26583e-12,1.95907e-38,0,0,0,0,-3.47707,0.1165,0.64687,-0.46412,0.1486,-0.0173765,0.021698,0,-0.363581,0.1165,239,-90,239,-90,367,-104,248,42,0.391321,-0.0869506,0,-1.5,3.94113e+12,0,0,0,-0.46412,0.1486,0,0,0,0,-0.0173765,0.021698,19564,0,0,0,0,6517,0,0,0,0,0.2,1
7929,-3.18842e-12,1.95919e-38,-1.57041e-06,-3.26583e-12,1.95907e-38,0,0,0,0,-3.47707,0.1165,0.64687,-0.464396,0.148945,-0.0172379,0.0215249,0,-0.363581,0.1165,239,-90,239,-90,367,-104,248,42,0.39139,-0.0868952,0,-1.5,3.94113e+12,0,0,0,-0.464396,0.148945,0,0,0,0,-0.0172379,0.0215249,19564,0,0,0,0,6517,0,0,0,0,0.2,1
7944,-3.18842e-12,1.95919e-38,-1.57041e-06,-3.26583e-12,1.95907e-38,0,0,0,0,-3.47707,0.1165,0.64687,-0.464653,0.149266,-0.017109,0.0213639,0,-0.363581,0.1165,239,-90,239,-90,367,-104,248,42,0.391454,-0.0868436,0,-1.5,3.94113e+12,0,0,0,-0.464653,0.149266,0,0,0,0,-0.017109,0.0213639,19564,0,0,0,0,6517,0,0,0,0,0.2,1
7960,-3.18842e-12,1.95919e-38,-1.57041e-06,-3.26583e-12,1.95907e-38,0,0,0,0,-3.47707,0.1165,0.64687,-0.464909,0.149585,-0.016981,0.0212041,0,-0.363581,0.1165,239,-90,239,-90,367,-104,248,42,0.391518,-0.0867924,0,-1.5,3.94113e+12,0,0,0,-0.464909,0.149585,0,0,0,0,-0.016981,0.0212041,19564,0,0,0,0,6517,0,0,0,0,0.2,1
7976,-3.18842e-12,1.95919e-38,-1.57041e-06,-3.26583e-12,1.95907e-38,0,0,0,0,-3.47707,0.1165,0.64687,-0.465196,0.149944,-0.0168371,0.0210244,0,-0.363581,0.1165,239,-90,239,-90,367,-104,248,42,0.39159,-0.0867348,0,-1.5,3.94113e+12,0,0,0,-0.465196,0.149944,0,0,0,0,-0.0168371,0.0210244,19564,0,0,0,0,6517,0,0,0,0,0.2,1
7991,-3.18842e-12,1.95919e-38,-1.57041e-06,-3.26583e-12,1.95907e-38,0,0,0,0,-3.47707,0.1165,0.64687,-0.465431,0.150237,-0.0167195,0.0208776,0,-0.363581,0.1165,239,-90,239,-90,367,-104,248,42,0.391649,-0.0866878,0,-1.5,3.94113e+12,0,0,0,-0.465431,0.150237,0,0,0,0,-0.0167195,0.0208776,19564,0,0,0,0,6517,0,0,0,0,0.2,1
8005,-3.18842e-12,1.95919e-38,-1.57041e-06,-3.26583e-12,1.95907e-38,0,0,0,0,-3.47707,0.1165,0.64687,-0.46568,0.150548,-0.0165945,0.0207214,0,-0.363581,0.1165,239,-90,239,-90,367,-104,248,42,0.391711,-0.0866378,0,-1.5,3.94113e+12,0,0,0,-0.46568,0.150548,0,0,0,0,-0.0165945,0.0207214,19564,0,0,0,0,6517,0,0,0,0,0.2,1
8021,-3.18842e-12,1.95919e-38,-1.57041e-06,-3.26583e-12,1.95907e-38,0,0,0,0,-3.47707,0.1165,0.64687,-0.465944,0.150878,-0.0164621,0.0205561,0,-0.363581,0.1165,239,-90,239,-90,367,-104,248,42,0.391778,-0.0865848,0,-1.5,3.94113e+12,0,0,0,-0.465944,0.150878,0,0,0,0,-0.0164621,0.0205561,19564,0,0,0,0,6517,0,0,0,0,0.2,1
8037,-3.18842e-12,1.95919e-38,-1.57041e-06,-3.26583e-12,1.95907e-38,0,0,0,0,-3.47707,0.1165,0.64687,-0.466206,0.151205,-0.0163308,0.0203921,0,-0.363581,0.1165,239,-90,239,-90,367,-104,248,42,0.391843,-0.0865323,0,-1.5,3.94113e+12,0,0,0,-0.466206,0.151205,0,0,0,0,-0.0163308,0.0203921,19564,0,0,0,0,6517,0,0,0,0,0.2,1
8053,-3.18842e-12,1.95919e-38,-1.57041e-06,-3.26583e-12,1.95907e-38,0,0,0,0,-3.47707,0.1165,0.64687,-0.466466,0.15153,-0.0162005,0.0202294,0,-0.363581,0.1165,239,-90,239,-90,367,-104,248,42,0.391908,-0.0864802,0,-1.5,3.94113e+12,0,0,0,-0.466466,0.15153,0,0,0,0,-0.0162005,0.0202294,19564,0,0,0,0,6517,0,0,0,0,0.2,1
8069,-3.18842e-12,1.95919e-38,-1.57041e-06,-3.26583e-12,1.95907e-38,0,0,0,0,-3.47707,0.1165,0.64687,-0.466708,0.151832,-0.0160793,0.0200781,0,-0.363581,0.1165,239,-90,239,-90,367,-104,248,42,0.391969,-0.0864317,0,-1.5,3.94113e+12,0,0,0,-0.466708,0.151832,0,0,0,0,-0.0160793,0.0200781,19564,0,0,0,0,6517,0,0,0,0,0.2,1
8085,-3.18842e-12,1.95919e-38,-1.57041e-06,-3.26583e-12,1.95907e-38,0,0,0,0,-3.47707,0.1165,0.64687,-0.46698,0.152171,-0.015943,0.019908,0,-0.363581,0.1165,239,-90,239,-90,367,-104,248,42,0.392037,-0.0863772,0,-1.5,3.94113e+12,0,0,0,-0.46698,0.152171,0,0,0,0,-0.015943,0.019908,19564,0,0,0,0,6517,0,0,0,0,0.2,1
8100,-3.18842e-12,1.95919e-38,-1.57041e-06,-3.26583e-12,1.95907e-38,0,0,0,0,-3.47707,0.1165,0.64687,-0.467218,0.152469,-0.0158238,0.0197591,0,-0.363581,0.1165,239,-90,239,-90,367,-104,248,42,0.392096,-0.0863295,0,-1.5,3.94113e+12,0,0,0,-0.467218,0.152469,0,0,0,0,-0.0158238,0.0197591,19564,0,0,0,0,6517,0,0,0,0,0.2,1
8117,-3.18842e-12,1.95919e-38,-1.57041e-06,-3.26583e-12,1.95907e-38,0,0,0,0,-3.47707,0.1165,0.64687,-0.467486,0.152803,-0.0156897,0.0195916,0,-0.363581,0.1165,239,-90,239,-90,367,-104,248,42,0.392163,-0.0862759,0,-1.5,3.94113e+12,0,0,0,-0.467486,0.152803,0,0,0,0,-0.0156897,0.0195916,19564,0,0,0,0,6517,0,0,0,0,0.2,1
8133,-3.18842e-12,1.95919e-38,-1.57041e-06,-3.26583e-12,1.95907e-38,0,0,0,0,-3.47707,0.1165,0.64687,-0.46772,0.153095,-0.0155723,0.0194451,0,-0.363581,0.1165,239,-90,239,-90,367,-104,248,42,0.392222,-0.0862289,0,-1.5,3.94113e+12,0,0,0,-0.46772,0.153095,0,0,0,0,-0.0155723,0.0194451,19564,0,0,0,0,6517,0,0,0,0,0.2,1
8149,-3.18842e-12,1.95919e-38,-1.57041e-06,-3.26583e-12,1.95907e-38,0,0,0,0,-3.47707,0.1165,0.64687,-0.467968,0.153405,-0.0154481,0.0192899,0,-0.363581,0.1165,239,-90,239,-90,367,-104,248,42,0.392284,-0.0861792,0,-1.5,3.94113e+12,0,0,0,-0.467968,0.153405,0,0,0,0,-0.0154481,0.0192899,19564,0,0,0,0,6517,0,0,0,0,0.2,1
8164,-3.18842e-12,1.95919e-38,-1.57041e-06,-3.26583e-12,1.95907e-38,0,0,0,0,-3.47707,0.1165,0.64687,-0.468213,0.153712,-0.0153249,0.0191361,0,-0.363581,0.1165,239,-90,239,-90,367,-104,248,42,0.392346,-0.08613,0,-1.5,3.94113e+12,0,0,0,-0.468213,0.153712,0,0,0,0,-0.0153249,0.0191361,19564,0,0,0,0,6517,0,0,0,0,0.2,1
8181,-3.18842e-12,1.95919e-38,-1.57041e-06,-3.26583e-12,1.95907e-38,0,0,0,0,-3.47707,0.1165,0.64687,-0.468473,0.154035,-0.015195,0.0189739,0,-0.363581,0.1165,239,-90,239,-90,367,-104,248,42,0.39241,-0.086078,0,-1.5,3.94113e+12,0,0,0,-0.468473,0.154035,0,0,0,0,-0.015195,0.0189739,19564,0,0,0,0,6517,0,0,0,0,0.2,1
8196,-3.18842e-12,1.95919e-38,-1.57041e-06,-3.26583e-12,1.95907e-38,0,0,0,0,-3.47707,0.1165,0.64687,-0.468699,0.154318,-0.0150813,0.0188319,0,-0.363581,0.1165,239,-90,239,-90,367,-104,248,42,0.392467,-0.0860325,0,-1.5,3.94113e+12,0,0,0,-0.468699,0.154318,0,0,0,0,-0.0150813,0.0188319,19564,0,0,0,0,6517,0,0,0,0,0.2,1
8211,-3.18842e-12,1.95919e-38,-1.57041e-06,-3.26583e-12,1.95907e-38,0,0,0,0,-3.47707,0.1165,0.64687,-0.468925,0.1546,-0.0149685,0.0186911,0,-0.363581,0.1165,239,-90,239,-90,367,-104,248,42,0.392524,-0.0859874,0,-1.5,3.94113e+12,0,0,0,-0.468925,0.1546,0,0,0,0,-0.0149685,0.0186911,19564,0,0,0,0,6517,0,0,0,0,0.2,1
8226,-3.18842e-12,1.95919e-38,-1.57041e-06,-3.26583e-12,1.95907e-38,0,0,0,0,-3.47707,0.1165,0.64687,-0.469148,0.154879,-0.0148566,0.0185513,0,-0.363581,0.1165,239,-90,239,-90,367,-104,248,42,0.392579,-0.0859426,0,-1.5,3.94113e+12,0,0,0,-0.469148,0.154879,0,0,0,0,-0.0148566,0.0185513,19564,0,0,0,0,6517,0,0,0,0,0.2,1
8242,-3.18842e-12,1.95919e-38,-1.57041e-06,-3.26583e-12,1.95907e-38,0,0,0,0,-3.47707,0.1165,0.64687,-0.469385,0.155174,-0.0147381,0.0184033,0,-0.363581,0.1165,239,-90,239,-90,367,-104,248,42,0.392639,-0.0858952,0,-1.5,3.94113e+12,0,0,0,-0.469385,0.155174,0,0,0,0,-0.0147381,0.0184033,19564,0,0,0,0,6517,0,0,0,0,0.2,1
8258,-3.18842e-12,1.95919e-38,-1.57041e-06,-3.26583e-12,1.95907e-38,0,0,0,0,-3.47707,0.1165,0.64687,-0.469619,0.155467,-0.0146205,0.0182565,0,-0.363581,0.1165,239,-90,239,-90,367,-104,248,42,0.392697,-0.0858482,0,-1.5,3.94113e+12,0,0,0,-0.469619,0.155467,0,0,0,0,-0.0146205,0.0182565,19564,0,0,0,0,6517,0,0,0,0,0.2,1
8274,-3.18842e-12,1.95919e-38,-1.57041e-06,-3.26583e-12,1.95907e-38,0,0,0,0,-3.47707,0.1165,0.64687,-0.469837,0.155739,-0.0145111,0.0181199,0,-0.363581,0.1165,239,-90,239,-90,367,-104,248,42,0.392752,-0.0858044,0,-1.5,3.94113e+12,0,0,0,-0.469837,0.155739,0,0,0,0,-0.0145111,0.0181199,19564,0,0,0,0,6517,0,0,0,0,0.2,1
8289,-3.18842e-12,1.95919e-38,-1.57041e-06,-3.26583e-12,1.95907e-38,0,0,0,0,-3.47707,0.1165,0.64687,-0.470068,0.156028,-0.0143953,0.0179753,0,-0.363581,0.1165,239,-90,239,-90,367,-104,248,42,0.39281,-0.0857581,0,-1.5,3.94113e+12,0,0,0,-0.470068,0.156028,0,0,0,0,-0.0143953,0.0179753,19564,0,0,0,0,6517,0,0,0,0,0.2,1
8306,-3.18842e-12,1.95919e-38,-1.57041e-06,-3.26583e-12,1.95907e-38,0,0,0,0,-3.47707,0.1165,0.64687,-0.470312,0.156331,-0.0142733,0.017823,0,-0.363581,0.1165,239,-90,239,-90,367,-104,248,42,0.392871,-0.0857093,0,-1.5,3.94113e+12,0,0,0,-0.470312,0.156331,0,0,0,0,-0.0142733,0.017823,19564,0,0,0,0,6517,0,0,0,0,0.2,1
8322,-3.18842e-12,1.95919e-38,-1.57041e-06,-3.26583e-12,1.95907e-38,0,0,0,0,-3.47707,0.1165,0.64687,-0.470539,0.156615,-0.0141595,0.0176808,0,-0.363581,0.1165,239,-90,239,-90,367,-104,248,42,0.392928,-0.0856638,0,-1.5,3.94113e+12,0,0,0,-0.470539,0.156615,0,0,0,0,-0.0141595,0.0176808,19564,0,0,0,0,6517,0,0,0,0,0.2,1
8338,-3.18842e-12,1.95919e-38,-1.57041e-06,-3.26583e-12,1.95907e-38,0,0,0,0,-3.47707,0.1165,0.64687,-0.470764,0.156897,-0.0140465,0.0175397,0,-0.363581,0.1165,239,-90,239,-90,367,-104,248,42,0.392984,-0.0856186,0,-1.5,3.94113e+12,0,0,0,-0.470764,0.156897,0,0,0,0,-0.0140465,0.0175397,19564,0,0,0,0,6517,0,0,0,0,0.2,1
8354,-3.18842e-12,1.95919e-38,-1.57041e-06,-3.26583e-12,1.95907e-38,0,0,0,0,-3.47707,0.1165,0.64687,-0.470988,0.157176,-0.0139344,0.0173998,0,-0.363581,0.1165,239,-90,239,-90,367,-104,248,42,0.39304,-0.0855738,0,-1.5,3.94113e+12,0,0,0,-0.470988,0.157176,0,0,0,0,-0.0139344,0.0173998,19564,0,0,0,0,6517,0,0,0,0,0.2,1
8370,-3.18842e-12,1.95919e-38,-1.57041e-06,-3.26583e-12,1.95907e-38,0,0,0,0,-3.47707,0.1165,0.64687,-0.471196,0.157435,-0.0138302,0.0172697,0,-0.363581,0.1165,239,-90,239,-90,367,-104,248,42,0.393092,-0.0855321,0,-1.5,3.94113e+12,0,0,0,-0.471196,0.157435,0,0,0,0,-0.0138302,0.0172697,19564,0,0,0,0,6517,0,0,0,0,0.2,1
8386,-3.18842e-12,1.95919e-38,-1.57041e-06,-3.26583e-12,1.95907e-38,0,0,0,0,-3.47707,0.1165,0.64687,-0.47143,0.157727,-0.013713,0.0171233,0,-0.363581,0.1165,239,-90,239,-90,367,-104,248,42,0.393151,-0.0854852,0,-1.5,3.94113e+12,0,0,0,-0.47143,0.157727,0,0,0,0,-0.013713,0.0171233,19564,0,0,0,0,6517,0,0,0,0,0.2,1
8401,-3.18842e-12,1.95919e-38,-1.57041e-06,-3.26583e-12,1.95907e-38,0,0,0,0,-3.47707,0.1165,0.64687,-0.471634,0.157983,-0.0136104,0.0169952,0,-0.363581,0.1165,239,-90,239,-90,367,-104,248,42,0.393202,-0.0854442,0,-1.5,3.94113e+12,0,0,0,-0.471634,0.157983,0,0,0,0,-0.0136104,0.0169952,19564,0,0,0,0,6517,0,0,0,0,0.2,1
8416,-3.18842e-12,1.95919e-38,-1.57041e-06,-3.26583e-12,1.95907e-38,0,0,0,0,-3.47707,0.1165,0.64687,-0.471837,0.158237,-0.0135086,0.0168681,0,-0.363581,0.1165,239,-90,239,-90,367,-104,248,42,0.393253,-0.0854034,0,-1.5,3.94113e+12,0,0,0,-0.471837,0.158237,0,0,0,0,-0.0135086,0.0168681,19564,0,0,0,0,6517,0,0,0,0,0.2,1
8432,-3.18842e-12,1.95919e-38,-1.57041e-06,-3.26583e-12,1.95907e-38,0,0,0,0,-3.47707,0.1165,0.64687,-0.472052,0.158505,-0.0134008,0.0167335,0,-0.363581,0.1165,239,-90,239,-90,367,-104,248,42,0.393307,-0.0853603,0,-1.5,3.94113e+12,0,0,0,-0.472052,0.158505,0,0,0,0,-0.0134008,0.0167335,19564,0,0,0,0,6517,0,0,0,0,0.2,1
8448,-3.18842e-12,1.95919e-38,-1.57041e-06,-3.26583e-12,1.95907e-38,0,0,0,0,-3.47707,0.1165,0.64687,-0.472266,0.158772,-0.0132939,0.0166,0,-0.363581,0.1165,239,-90,239,-90,367,-104,248,42,0.39336,-0.0853176,0,-1.5,3.94113e+12,0,0,0,-0.472266,0.158772,0,0,0,0,-0.0132939,0.0166,19564,0,0,0,0,6517,0,0,0,0,0.2,1
8464,-3.18842e-12,1.95919e-38,-1.57041e-06,-3.26583e-12,1.95907e-38,0,0,0,0,-3.47707,0.1165,0.64687,-0.472477,0.159036,-0.0131879,0.0164676,0,-0.363581,0.1165,239,-90,239,-90,367,-104,248,42,0.393413,-0.0852752,0,-1.5,3.94113e+12,0,0,0,-0.472477,0.159036,0,0,0,0,-0.0131879,0.0164676,19564,0,0,0,0,6517,0,0,0,0,0.2,1
8480,-3.18842e-12,1.95919e-38,-1.57041e-06,-3.26583e-12,1.95907e-38,0,0,0,0,-3.47707,0.1165,0.64687,-0.472687,0.159298,-0.0130827,0.0163362,0,-0.363581,0.1165,239,-90,239,-90,367,-104,248,42,0.393466,-0.0852331,0,-1.5,3.94113e+12,0,0,0,-0.472687,0.159298,0,0,0,0,-0.0130827,0.0163362,19564,0,0,0,0,6517,0,0,0,0,0.2,1
8496,-3.18842e-12,1.95919e-38,-1.57041e-06,-3.26583e-12,1.95907e-38,0,0,0,0,-3.47707,0.1165,0.64687,-0.472896,0.159558,-0.0129783,0.0162059,0,-0.363581,0.1165,239,-90,239,-90,367,-104,248,42,0.393518,-0.0851913,0,-1.5,3.94113e+12,0,0,0,-0.472896,0.159558,0,0,0,0,-0.0129783,0.0162059,19564,0,0,0,0,6517,0,0,0,0,0.2,1
8512,-3.18842e-12,1.95919e-38,-1.57041e-06,-3.26583e-12,1.95907e-38,0,0,0,0,-3.47707,0.1165,0.64687,-0.473089,0.1598,-0.0128812,0.0160847,0,-0.363581,0.1165,239,-90,239,-90,367,-104,248,42,0.393566,-0.0851525,0,-1.5,3.94113e+12,0,0,0,-0.473089,0.1598,0,0,0,0,-0.0128812,0.0160847,19564,0,0,0,0,6517,0,0,0,0,0.2,1
8527,-3.18842e-12,1.95919e-38,-1.57041e-06,-3.26583e-12,1.95907e-38,0,0,0,0,-3.47707,0.1165,0.64687,-0.473294,0.160056,-0.0127785,0.0159564,0,-0.363581,0.1165,239,-90,239,-90,367,-104,248,42,0.393617,-0.0851114,0,-1.5,3.94113e+12,0,0,0,-0.473294,0.160056,0,0,0,0,-0.0127785,0.0159564,19564,0,0,0,0,6517,0,0,0,0,0.2,1
8543,-3.18842e-12,1.95919e-38,-1.57041e-06,-3.26583e-12,1.95907e-38,0,0,0,0,-3.47707,0.1165,0.64687,-0.473498,0.16031,-0.0126765,0.0158291,0,-0.363581,0.1165,239,-90,239,-90,367,-104,248,42,0.393668,-0.0850706,0,-1.5,3.94113e+12,0,0,0,-0.473498,0.16031,0,0,0,0,-0.0126765,0.0158291,19564,0,0,0,0,6517,0,0,0,0,0.2,1
8559,-3.18842e-12,1.95919e-38,-1.57041e-06,-3.26583e-12,1.95907e-38,0,0,0,0,-3.47707,0.1165,0.64687,-0.473699,0.160562,-0.0125754,0.0157028,0,-0.363581,0.1165,239,-90,239,-90,367,-104,248,42,0.393719,-0.0850302,0,-1.5,3.94113e+12,0,0,0,-0.473699,0.160562,0,0,0,0,-0.0125754,0.0157028,19564,0,0,0,0,6517,0,0,0,0,0.2,1
8574,-3.18842e-12,1.95919e-38,-1.57041e-06,-3.26583e-12,1.95907e-38,0,0,0,0,-3.47707,0.1165,0.64687,-0.473887,0.160796,-0.0124813,0.0155853,0,-0.363581,0.1165,239,-90,239,-90,367,-104,248,42,0.393766,-0.0849925,0,-1.5,3.94113e+12,0,0,0,-0.473887,0.160796,0,0,0,0,-0.0124813,0.0155853,19564,0,0,0,0,6517,0,0,0,0,0.2,1
8591,-3.18842e-12,1.95919e-38,-1.57041e-06,-3.26583e-12,1.95907e-38,0,0,0,0,-3.47707,0.1165,0.64687,-0.474098,0.16106,-0.0123755,0.0154532,0,-0.363581,0.1165,239,-90,239,-90,367,-104,248,42,0.393819,-0.0849502,0,-1.5,3.94113e+12,0,0,0,-0.474098,0.16106,0,0,0,0,-0.0123755,0.0154532,19564,0,0,0,0,6517,0,0,0,0,0.2,1
8606,-3.18842e-12,1.95919e-38,-1.57041e-06,-3.26583e-12,1.95907e-38,0,0,0,0,-3.47707,0.1165,0.64687,-0.474283,0.16129,-0.012283,0.0153377,0,-0.363581,0.1165,239,-90,239,-90,367,-104,248,42,0.393865,-0.0849132,0,-1.5,3.94113e+12,0,0,0,-0.474283,0.16129,0,0,0,0,-0.012283,0.0153377,19564,0,0,0,0,6517,0,0,0,0,0.2,1
8621,-3.18842e-12,1.95919e-38,-1.57041e-06,-3.26583e-12,1.95907e-38,0,0,0,0,-3.47707,0.1165,0.64687,-0.474466,0.161519,-0.0121911,0.0152229,0,-0.363581,0.1165,239,-90,239,-90,367,-104,248,42,0.393911,-0.0848764,0,-1.5,3.94113e+12,0,0,0,-0.474466,0.161519,0,0,0,0,-0.0121911,0.0152229,19564,0,0,0,0,6517,0,0,0,0,0.2,1
8637,-3.18842e-12,1.95919e-38,-1.57041e-06,-3.26583e-12,1.95907e-38,0,0,0,0,-3.47707,0.1165,0.64687,-0.474648,0.161747,-0.0120999,0.0151091,0,-0.363581,0.1165,239,-90,239,-90,367,-104,248,42,0.393956,-0.08484,0,-1.5,3.94113e+12,0,0,0,-0.474648,0.161747,0,0,0,0,-0.0120999,0.0151091,19564,0,0,0,0,6517,0,0,0,0,0.2,1
8653,-3.18842e-12,1.95919e-38,-1.57041e-06,-3.26583e-12,1.95907e-38,0,0,0,0,-3.47707,0.1165,0.64687,-0.474853,0.162002,-0.0119974,0.014981,0,-0.363581,0.1165,239,-90,239,-90,367,-104,248,42,0.394008,-0.084799,0,-1.5,3.94113e+12,0,0,0,-0.474853,0.162002,0,0,0,0,-0.0119974,0.014981,19564,0,0,0,0,6517,0,0,0,0,0.2,1
8669,-3.18842e-12,1.95919e-38,-1.57041e-06,-3.26583e-12,1.95907e-38,0,0,0,0,-3.47707,0.1165,0.64687,-0.475044,0.162241,-0.0119017,0.0148615,0,-0.363581,0.1165,239,-90,239,-90,367,-104,248,42,0.394055,-0.0847607,0,-1.5,3.94113e+12,0,0,0,-0.475044,0.162241,0,0,0,0,-0.0119017,0.0148615,19564,0,0,0,0,6517,0,0,0,0,0.2,1
8685,-3.18842e-12,1.95919e-38,-1.57041e-06,-3.26583e-12,1.95907e-38,0,0,0,0,-3.47707,0.1165,0.64687,-0.475233,0.162477,-0.0118067,0.014743,0,-0.363581,0.1165,239,-90,239,-90,367,-104,248,42,0.394103,-0.0847227,0,-1.5,3.94113e+12,0,0,0,-0.475233,0.162477,0,0,0,0,-0.0118067,0.014743,19564,0,0,0,0,6517,0,0,0,0,0.2,1
8701,-3.18842e-12,1.95919e-38,-1.57041e-06,-3.26583e-12,1.95907e-38,0,0,0,0,-3.47707,0.1165,0.64687,-0.475409,0.162697,-0.0117184,0.0146327,0,-0.363581,0.1165,239,-90,239,-90,367,-104,248,42,0.394147,-0.0846874,0,-1.5,3.94113e+12,0,0,0,-0.475409,0.162697,0,0,0,0,-0.0117184,0.0146327,19564,0,0,0,0,6517,0,0,0,0,0.2,1
8716,-3.18842e-12,1.95919e-38,-1.57041e-06,-3.26583e-12,1.95907e-38,0,0,0,0,-3.47707,0.1165,0.64687,-0.475596,0.16293,-0.0116249,0.014516,0,-0.363581,0.1165,239,-90,239,-90,367,-104,248,42,0.394194,-0.08465,0,-1.5,3.94113e+12,0,0,0,-0.475596,0.16293,0,0,0,0,-0.0116249,0.014516,19564,0,0,0,0,6517,0,0,0,0,0.2,1
8732,-3.18842e-12,1.95919e-38,-1.57041e-06,-3.26583e-12,1.95907e-38,0,0,0,0,-3.47707,0.1165,0.64687,-0.475781,0.163161,-0.0115322,0.0144002,0,-0.363581,0.1165,239,-90,239,-90,367,-104,248,42,0.39424,-0.0846129,0,-1.5,3.94113e+12,0,0,0,-0.475781,0.163161,0,0,0,0,-0.0115322,0.0144002,19564,0,0,0,0,6517,0,0,0,0,0.2,1
8748,-3.18842e-12,1.95919e-38,-1.57041e-06,-3.26583e-12,1.95907e-38,0,0,0,0,-3.47707,0.1165,0.64687,-0.475965,0.16339,-0.0114402,0.0142853,0,-0.363581,0.1165,239,-90,239,-90,367,-104,248,42,0.394286,-0.0845761,0,-1.5,3.94113e+12,0,0,0,-0.475965,0.16339,0,0,0,0,-0.0114402,0.0142853,19564,0,0,0,0,6517,0,0,0,0,0.2,1
8765,-3.18842e-12,1.95919e-38,-1.57041e-06,-3.26583e-12,1.95907e-38,0,0,0,0,-3.47707,0.1165,0.64687,-0.476147,0.163618,-0.0113489,0.0141713,0,-0.363581,0.1165,239,-90,239,-90,367,-104,248,42,0.394331,-0.0845396,0,-1.5,3.94113e+12,0,0,0,-0.476147,0.163618,0,0,0,0,-0.0113489,0.0141713,19564,0,0,0,0,6517,0,0,0,0,0.2,1
8781,-3.18842e-12,1.95919e-38,-1.57041e-06,-3.26583e-12,1.95907e-38,0,0,0,0,-3.47707,0.1165,0.64687,-0.476327,0.163843,-0.0112584,0.0140583,0,-0.363581,0.1165,239,-90,239,-90,367,-104,248,42,0.394377,-0.0845034,0,-1.5,3.94113e+12,0,0,0,-0.476327,0.163843,0,0,0,0,-0.0112584,0.0140583,19564,0,0,0,0,6517,0,0,0,0,0.2,1
8797,-3.18842e-12,1.95919e-38,-1.57041e-06,-3.26583e-12,1.95907e-38,0,0,0,0,-3.47707,0.1165,0.64687,-0.476518,0.164081,-0.011163,0.0139391,0,-0.363581,0.1165,239,-90,239,-90,367,-104,248,42,0.394424,-0.0844652,0,-1.5,3.94113e+12,0,0,0,-0.476518,0.164081,0,0,0,0,-0.011163,0.0139391,19564,0,0,0,0,6517,0,0,0,0,0.2,1
8812,-3.18842e-12,1.95919e-38,-1.57041e-06,-3.26583e-12,1.95907e-38,0,0,0,0,-3.47707,0.1165,0.64687,-0.476684,0.164289,-0.0110795,0.0138349,0,-0.363581,0.1165,239,-90,239,-90,367,-104,248,42,0.394466,-0.0844318,0,-1.5,3.94113e+12,0,0,0,-0.476684,0.164289,0,0,0,0,-0.0110795,0.0138349,19564,0,0,0,0,6517,0,0,0,0,0.2,1
8827,-3.18842e-12,1.95919e-38,-1.57041e-06,-3.26583e-12,1.95907e-38,0,0,0,0,-3.47707,0.1165,0.64687,-0.47685,0.164496,-0.0109966,0.0137314,0,-0.363581,0.1165,239,-90,239,-90,367,-104,248,42,0.394507,-0.0843986,0,-1.5,3.94113e+12,0,0,0,-0.47685,0.164496,0,0,0,0,-0.0109966,0.0137314,19564,0,0,0,0,6517,0,0,0,0,0.2,1
8842,-3.18842e-12,1.95919e-38,-1.57041e-06,-3.26583e-12,1.95907e-38,0,0,0,0,-3.47707,0.1165,0.64687,-0.477014,0.164701,-0.0109144,0.0136287,0,-0.363581,0.1165,239,-90,239,-90,367,-104,248,42,0.394549,-0.0843657,0,-1.5,3.94113e+12,0,0,0,-0.477014,0.164701,0,0,0,0,-0.0109144,0.0136287,19564,0,0,0,0,6517,0,0,0,0,0.2,1
8858,-3.18842e-12,1.95919e-38,-1.57041e-06,-3.26583e-12,1.95907e-38,0,0,0,0,-3.47707,0.1165,0.64687,-0.477188,0.164918,-0.0108273,0.01352,0,-0.363581,0.1165,239,-90,239,-90,367,-104,248,42,0.394592,-0.0843309,0,-1.5,3.94113e+12,0,0,0,-0.477188,0.164918,0,0,0,0,-0.0108273,0.01352,19564,0,0,0,0,6517,0,0,0,0,0.2,1
8874,-3.18842e-12,1.95919e-38,-1.57041e-06,-3.26583e-12,1.95907e-38,0,0,0,0,-3.47707,0.1165,0.64687,-0.47736,0.165133,-0.0107409,0.0134121,0,-0.363581,0.1165,239,-90,239,-90,367,-104,248,42,0.394635,-0.0842964,0,-1.5,3.94113e+12,0,0,0,-0.47736,0.165133,0,0,0,0,-0.0107409,0.0134121,19564,0,0,0,0,6517,0,0,0,0,0.2,1
8890,-3.18842e-12,1.95919e-38,-1.57041e-06,-3.26583e-12,1.95907e-38,0,0,0,0,-3.47707,0.1165,0.64687,-0.477531,0.165346,-0.0106552,0.0133051,0,-0.363581,0.1165,239,-90,239,-90,367,-104,248,42,0.394678,-0.0842621,0,-1.5,3.94113e+12,0,0,0,-0.477531,0.165346,0,0,0,0,-0.0106552,0.0133051,19564,0,0,0,0,6517,0,0,0,0,0.2,1
8906,-3.18842e-12,1.95919e-38,-1.57041e-06,-3.26583e-12,1.95907e-38,0,0,0,0,-3.47707,0.1165,0.64687,-0.477701,0.165558,-0.0105702,0.013199,0,-0.363581,0.1165,239,-90,239,-90,367,-104,248,42,0.39472,-0.0842281,0,-1.5,3.94113e+12,0,0,0,-0.477701,0.165558,0,0,0,0,-0.0105702,0.013199,19564,0,0,0,0,6517,0,0,0,0,0.2,1
