timestamp,A_x,A_y,A_z,P,Q,R,Phi,Theta,Psi,poseX,poseY,poseZ,state_X,state_Y,state_Z,state_VzB,state_Bx,state_By,state_Bz,p1_x,p1_y,p2_x,p2_y,p3_x,p3_y,p4_x,p4_y,roll,pitch,yaw,alt,targetHeading,highLevelState,lowLevelState,gateNumber,filtered_x,filtered_y,x_OT,y_OT,vx_OT,vy_OT,filtered_vx,filtered_vygateArea
10,0,0,0,0,0,0,0,0,0,0,0,0,0,0,0,0,0,0,0,0,0,0,0,0,0,0,0,0,-0.261799,0.0062205,-1.5,0,0,0,3,0,0,0,0,0,0,0,0,1.9603e-19
20,0,0,0,0,0,0,0,0,0,0,0,0,0,0,0,0,0,0,0,0,0,0,0,0,0,0,0,0,-0.261799,0.0060604,-1.5,0,0,0,3,0,0,0,0,0,0,0,0,1.9603e-19
30,-3.1147e-12,1.48299e-38,-1.51966e-06,-3.18057e-12,1.48287e-38,-3.62841e-12,-1.06589e-13,0,0,0,0,0,0,0,0,0,0,0,0,0,0,0,0,0,0,0,0,0,-0.261799,-0.000237603,-1.5,0,0,0,3,0,0,0,0,0,0,0,0,1.9603e-19
40,-3.1147e-12,1.48299e-38,-1.51966e-06,-3.18057e-12,1.48287e-38,0,-1.0659e-13,0,0,0,0,0,0,0,0,0,0,0,0,0,0,0,0,0,0,0,0,0,-0.261799,-0.000231486,-1.5,0,0,0,3,0,0,0,0,0,0,0,0,1.9603e-19
50,-3.1147e-12,1.48299e-38,-1.51966e-06,-3.18057e-12,1.48287e-38,-3.62841e-12,-1.0659e-13,0,0,0,0,0,0,0,0,0,0,0,0,0,0,0,0,0,0,0,0,0,-0.261799,-0.000225526,-1.5,0,0,0,3,0,0,0,0,0,0,0,0,1.9603e-19
60,-3.1147e-12,1.48299e-38,-1.51966e-06,-3.18057e-12,1.48287e-38,0,-1.0659e-13,0,0,0,0,0,0,0,0,0,0,0,0,0,0,0,0,0,0,0,0,0,-0.261799,-0.000218393,-1.5,0,0,0,3,0,0,0,0,0,0,0,0,1.9603e-19
70,-3.1147e-12,1.48299e-38,-1.51966e-06,-3.18057e-12,1.48287e-38,-3.62841e-12,-1.0659e-13,0,0,0,0,0,0,0,0,0,0,0,0,0,0,0,0,0,0,0,0,0,-0.261799,-0.000211485,-1.5,0,0,0,3,0,0,0,0,0,0,0,0,1.9603e-19
80,-3.1147e-12,1.48299e-38,-1.51966e-06,-3.18057e-12,1.48287e-38,0,-1.06591e-13,0,0,0,0,0,0,0,0,0,0,0,0,0,0,0,0,0,0,0,0,0,-0.261799,-0.000205208,-1.5,0,0,0,3,0,0,0,0,0,0,0,0,1.9603e-19
90,-3.1147e-12,1.48299e-38,-1.51966e-06,-3.18057e-12,1.48287e-38,-3.62841e-12,-1.06591e-13,0,0,0,0,0,0,0,0,0,0,0,0,0,0,0,0,0,0,0,0,0,-0.261799,-0.000198713,-1.5,0,0,0,3,0,0,0,0,0,0,0,0,1.9603e-19
100,-3.1147e-12,1.48299e-38,-1.51966e-06,-3.18057e-12,1.48287e-38,0,-1.06591e-13,0,0,0,0,0,0,0,0,0,0,0,0,0,0,0,0,0,0,0,0,0,-0.261799,-0.000190476,-1.5,0,0,0,3,0,0,0,0,0,0,0,0,1.9603e-19
110,-3.1147e-12,1.48299e-38,-1.51966e-06,-3.18057e-12,1.48287e-38,-3.62841e-12,-1.06591e-13,0,0,0,0,0,0,0,0,0,0,0,0,0,0,0,0,0,0,0,0,0,-0.261799,-0.000184077,-1.5,0,0,0,3,0,0,0,0,0,0,0,0,1.9603e-19
120,-3.1147e-12,1.48299e-38,-1.51966e-06,-3.18057e-12,1.48287e-38,0,-1.06592e-13,0,0,0,0,0,0,0,0,0,0,0,0,0,0,0,0,0,0,0,0,0,-0.261799,-0.000166658,-1.5,0,0,0,3,0,0,0,0,0,0,0,0,1.9603e-19
130,-3.1147e-12,1.48299e-38,-1.51966e-06,-3.18057e-12,1.48287e-38,-3.62841e-12,-1.06592e-13,0,0,0,0,0,0,0,0,0,0,0,0,0,0,0,0,0,0,0,0,0,-0.261799,-0.000161383,-1.5,0,0,0,3,0,0,0,0,0,0,0,0,1.9603e-19
140,-3.1147e-12,1.48299e-38,-1.51966e-06,-3.18057e-12,1.48287e-38,0,-1.06592e-13,0,0,0,0,0,0,0,0,0,0,0,0,0,0,0,0,0,0,0,0,0,-0.261799,-0.000141347,-1.5,0,0,0,3,0,0,0,0,0,0,0,0,1.9603e-19
150,-3.1147e-12,1.48299e-38,-1.51966e-06,-3.18057e-12,1.48287e-38,-3.62841e-12,-1.06593e-13,0,0,0,0,0,0,0,0,0,0,0,0,0,0,0,0,0,0,0,0,0,-0.261799,-0.000137151,-1.5,0,0,0,3,0,0,0,0,0,0,0,0,1.9603e-19
160,-3.1147e-12,1.48299e-38,-1.51966e-06,-3.18057e-12,1.48287e-38,0,-1.06593e-13,0,0,0,0,0,0,0,0,0,0,0,0,0,0,0,0,0,0,0,0,0,-0.261799,-0.000132278,-1.5,0,0,0,3,0,0,0,0,0,0,0,0,1.9603e-19
170,-3.1147e-12,1.48299e-38,-1.51966e-06,-3.18057e-12,1.48287e-38,-3.62841e-12,-1.06593e-13,0,0,0,0,0,0,0,0,0,0,0,0,0,0,0,0,0,0,0,0,0,-0.261799,-0.000127314,-1.5,0,0,0,3,0,0,0,0,0,0,0,0,1.9603e-19
180,-3.1147e-12,1.48299e-38,-1.51966e-06,-3.18057e-12,1.48287e-38,0,-1.06593e-13,0,0,0,0,0,0,0,0,0,0,0,0,0,0,0,0,0,0,0,0,0,-0.261799,-0.000123786,-1.5,0,0,0,3,0,0,0,0,0,0,0,0,1.9603e-19
190,-3.1147e-12,1.48299e-38,-1.51966e-06,-3.18057e-12,1.48287e-38,-3.62841e-12,-1.06594e-13,0,0,0,0,0,0,0,0,0,0,0,0,0,0,0,0,0,0,0,0,0,-0.261799,-0.00011987,-1.5,0,0,0,3,0,0,0,0,0,0,0,0,1.9603e-19
200,-3.1147e-12,1.48299e-38,-1.51966e-06,-3.18057e-12,1.48287e-38,0,-1.06594e-13,0,0,0,0,0,0,0,0,0,0,0,0,0,0,0,0,0,0,0,0,0,-0.261799,-0.000116784,-1.5,0,0,0,3,0,0,0,0,0,0,0,0,1.9603e-19
210,-3.1147e-12,1.48299e-38,-1.51966e-06,-3.18057e-12,1.48287e-38,-3.62841e-12,-1.06594e-13,0,0,0,0,0,0,0,0,0,0,0,0,0,0,0,0,0,0,0,0,0,-0.261799,-0.000112173,-1.5,0,0,0,3,0,0,0,0,0,0,0,0,1.9603e-19
220,-3.1147e-12,1.48299e-38,-1.51966e-06,-3.18057e-12,1.48287e-38,0,-1.06594e-13,0,0,0,0,0,0,0,0,0,0,0,0,0,0,0,0,0,0,0,0,0,-0.261799,-0.000108405,-1.5,0,0,0,3,0,0,0,0,0,0,0,0,1.9603e-19
230,-3.1147e-12,1.48299e-38,-1.51966e-06,-3.18057e-12,1.48287e-38,-3.62841e-12,-1.06595e-13,0,0,0,0,0,0,0,0,0,0,0,0,0,0,0,0,0,0,0,0,0,-0.261799,-0.000105187,-1.5,0,0,0,3,0,0,0,0,0,0,0,0,1.9603e-19
240,-3.1147e-12,1.48299e-38,-1.51966e-06,-3.18057e-12,1.48287e-38,0,-1.06595e-13,0,0,0,0,0,0,0,0,0,0,0,0,0,0,0,0,0,0,0,0,0,-0.261799,-0.000102065,-1.5,0,0,0,3,0,0,0,0,0,0,0,0,1.9603e-19
250,-3.1147e-12,1.48299e-38,-1.51966e-06,-3.18057e-12,1.48287e-38,-3.62841e-12,-1.06595e-13,0,0,0,0,0,0,0,0,0,0,0,0,0,0,0,0,0,0,0,0,0,-0.261799,-9.88365e-05,-1.5,0,0,0,3,0,0,0,0,0,0,0,0,1.9603e-19
260,-3.11471e-12,1.48076e-38,1.48307e-38,-3.18057e-12,1.48287e-38,0,-1.06596e-13,0,0,0,0,0,0,0,0,0,0,0,0,0,0,0,0,0,0,0,0,0,-0.261799,-9.55162e-05,-1.5,0,0,0,3,0,0,0,0,0,0,0,0,1.9603e-19
270,-3.1147e-12,1.48299e-38,-1.51966e-06,-3.18057e-12,1.48287e-38,-3.62841e-12,-1.06596e-13,0,0,0,0,0,0,0,0,0,0,0,0,0,0,0,0,0,0,0,0,0,-0.261799,-9.24931e-05,-1.5,0,0,0,3,0,0,0,0,0,0,0,0,1.9603e-19
280,-3.1147e-12,1.48299e-38,-1.51966e-06,-3.18057e-12,1.48287e-38,0,-1.06596e-13,0,0,0,0,0,0,0,0,0,0,0,0,0,0,0,0,0,0,0,0,0,-0.261799,-8.93859e-05,-1.5,0,0,0,3,0,0,0,0,0,0,0,0,1.9603e-19
290,-3.1147e-12,1.48299e-38,-1.51966e-06,-3.18057e-12,1.48287e-38,-3.62841e-12,-1.06596e-13,0,0,0,0,0,0,0,0,0,0,0,0,0,0,0,0,0,0,0,0,0,-0.261799,-8.65586e-05,-1.5,0,0,0,3,0,0,0,0,0,0,0,0,1.9603e-19
300,-3.1147e-12,1.48299e-38,-1.51966e-06,-3.18057e-12,1.48287e-38,0,-1.06597e-13,0,0,0,0,0,0,0,0,0,0,0,0,0,0,0,0,0,0,0,0,0,-0.261799,-8.33107e-05,-1.5,0,0,0,3,0,0,0,0,0,0,0,0,1.9603e-19
310,-3.1147e-12,1.48299e-38,-1.51966e-06,-3.18057e-12,1.48287e-38,-3.62841e-12,-1.06597e-13,0,0,0,0,0,0,0,0,0,0,0,0,0,0,0,0,0,0,0,0,0,-0.261799,-8.05119e-05,-1.5,0,0,0,3,0,0,0,0,0,0,0,0,1.9603e-19
320,-3.1147e-12,1.48299e-38,-1.51966e-06,-3.18057e-12,1.48287e-38,0,-1.06597e-13,0,0,0,0,0,0,0,0,0,0,0,0,0,0,0,0,0,0,0,0,0,-0.261799,-7.79653e-05,-1.5,0,0,0,3,0,0,0,0,0,0,0,0,1.9603e-19
330,-3.1147e-12,1.48299e-38,-1.51966e-06,-3.18057e-12,1.48287e-38,-3.62841e-12,-1.06597e-13,0,0,0,0,0,0,0,0,0,0,0,0,0,0,0,0,0,0,0,0,0,-0.261799,-7.54993e-05,-1.5,0,0,0,3,0,0,0,0,0,0,0,0,1.9603e-19
340,-3.1147e-12,1.48299e-38,-1.51966e-06,-3.18057e-12,1.48287e-38,0,-1.06598e-13,0,0,0,0,0,0,0,0,0,0,0,0,0,0,0,0,0,0,0,0,0,-0.261799,-7.29611e-05,-1.5,0,0,0,3,0,0,0,0,0,0,0,0,1.9603e-19
350,-3.1147e-12,1.48299e-38,-1.51966e-06,-3.18057e-12,1.48287e-38,-3.62841e-12,-1.06598e-13,0,0,0,0,0,0,0,0,0,0,0,0,0,0,0,0,0,0,0,0,0,-0.261799,-7.05083e-05,-1.5,0,0,0,3,0,0,0,0,0,0,0,0,1.9603e-19
360,-3.1147e-12,1.48299e-38,-1.51966e-06,-3.18057e-12,1.48287e-38,0,-1.06598e-13,0,0,0,0,0,0,0,0,0,0,0,0,0,0,0,0,0,0,0,0,0,-0.261799,-6.82767e-05,-1.5,0,0,0,3,0,0,0,0,0,0,0,0,1.9603e-19
370,-3.1147e-12,1.48299e-38,-1.51966e-06,-3.18057e-12,1.48287e-38,-3.62841e-12,-1.06599e-13,0,0,0,0,0,0,0,0,0,0,0,0,0,0,0,0,0,0,0,0,0,-0.261799,-6.61158e-05,-1.5,0,0,0,3,0,0,0,0,0,0,0,0,1.9603e-19
380,-3.1147e-12,1.48299e-38,-1.51966e-06,-3.18057e-12,1.48287e-38,0,-1.06599e-13,0,0,0,0,0,0,0,0,0,0,0,0,0,0,0,0,0,0,0,0,0,-0.261799,-6.38931e-05,-1.5,0,0,0,3,0,0,0,0,0,0,0,0,1.9603e-19
390,-3.1147e-12,1.48299e-38,-1.51966e-06,-3.18057e-12,1.48287e-38,-3.62841e-12,-1.06599e-13,0,0,0,0,0,0,0,0,0,0,0,0,0,0,0,0,0,0,0,0,0,-0.261799,-6.17467e-05,-1.5,0,0,0,3,0,0,0,0,0,0,0,0,1.9603e-19
400,-3.1147e-12,1.48299e-38,-1.51966e-06,-3.18057e-12,1.48287e-38,0,-1.06599e-13,0,0,0,0,0,0,0,0,0,0,0,0,0,0,0,0,0,0,0,0,0,-0.261799,-5.97936e-05,-1.5,0,0,0,3,0,0,0,0,0,0,0,0,1.9603e-19
410,-3.1147e-12,1.48299e-38,-1.51966e-06,-3.18057e-12,1.48287e-38,-3.62841e-12,-1.066e-13,0,0,0,0,0,0,0,0,0,0,0,0,0,0,0,0,0,0,0,0,0,-0.261799,-5.79024e-05,-1.5,0,0,0,3,0,0,0,0,0,0,0,0,1.9603e-19
420,-3.1147e-12,1.48299e-38,-1.51966e-06,-3.18057e-12,1.48287e-38,0,-1.066e-13,0,0,0,0,0,0,0,0,0,0,0,0,0,0,0,0,0,0,0,0,0,-0.261799,-5.60709e-05,-1.5,0,0,0,3,0,0,0,0,0,0,0,0,1.9603e-19
430,-3.1147e-12,1.48299e-38,-1.51966e-06,-3.18057e-12,1.48287e-38,-3.62841e-12,-1.066e-13,0,0,0,0,0,0,0,0,0,0,0,0,0,0,0,0,0,0,0,0,0,-0.261799,-5.42963e-05,-1.5,0,0,0,3,0,0,0,0,0,0,0,0,1.9603e-19
440,-3.1147e-12,1.48299e-38,-1.51966e-06,-3.18057e-12,1.48287e-38,0,-1.066e-13,0,0,0,0,0,0,0,0,0,0,0,0,0,0,0,0,0,0,0,0,0,-0.261799,-5.25789e-05,-1.5,0,0,0,3,0,0,0,0,0,0,0,0,1.9603e-19
450,-3.1147e-12,1.48299e-38,-1.51966e-06,-3.18057e-12,1.48287e-38,-3.62841e-12,-1.06601e-13,0,0,0,0,0,0,0,0,0,0,0,0,0,0,0,0,0,0,0,0,0,-0.261799,-5.10191e-05,-1.5,0,0,0,3,0,0,0,0,0,0,0,0,1.9603e-19
460,-3.1147e-12,1.48299e-38,-1.51966e-06,-3.18057e-12,1.48287e-38,0,-1.06601e-13,0,0,0,0,0,0,0,0,0,0,0,0,0,0,0,0,0,0,0,0,0,-0.261799,-4.94053e-05,-1.5,0,0,0,3,0,0,0,0,0,0,0,0,1.9603e-19
470,-3.1147e-12,1.48299e-38,-1.51966e-06,-3.18057e-12,1.48287e-38,-3.62841e-12,-1.06601e-13,0,0,0,0,0,0,0,0,0,0,0,0,0,0,0,0,0,0,0,0,0,-0.261799,-4.78417e-05,-1.5,0,0,0,3,0,0,0,0,0,0,0,0,1.9603e-19
480,-3.1147e-12,1.48299e-38,-1.51966e-06,-3.18057e-12,1.48287e-38,0,-1.06602e-13,0,0,0,0,0,0,0,0,0,0,0,0,0,0,0,0,0,0,0,0,0,-0.261799,-4.63275e-05,-1.5,0,0,0,3,0,0,0,0,0,0,0,0,1.9603e-19
490,-3.1147e-12,1.48299e-38,-1.51966e-06,-3.18057e-12,1.48287e-38,-3.62841e-12,-1.06602e-13,0,0,0,0,0,0,0,0,0,0,0,0,0,0,0,0,0,0,0,0,0,-0.261799,-4.47712e-05,-1.5,0,0,0,3,0,0,0,0,0,0,0,0,1.9603e-19
500,-3.1147e-12,1.48299e-38,-1.51966e-06,-3.18057e-12,1.48287e-38,0,-1.06602e-13,0,0,0,0,0,0,0,0,0,0,0,0,0,0,0,0,0,0,0,0,0,-0.261799,-4.32671e-05,-1.5,0,0,0,3,0,0,0,0,0,0,0,0,1.9603e-19
510,-3.1147e-12,1.48299e-38,-1.51966e-06,-3.18057e-12,1.48287e-38,-3.62841e-12,-1.06602e-13,0,0,0,0,0,0,0,0,0,0,0,0,0,0,0,0,0,0,0,0,0,-0.261799,-4.18977e-05,-1.5,0,0,0,3,0,0,0,0,0,0,0,0,1.9603e-19
520,-3.1147e-12,1.48299e-38,-1.51966e-06,-3.18057e-12,1.48287e-38,0,-1.06603e-13,0,0,0,0,0,0,0,0,0,0,0,0,0,0,0,0,0,0,0,0,0,-0.261799,-4.05725e-05,-1.5,0,0,0,3,0,0,0,0,0,0,0,0,1.9603e-19
530,-3.1147e-12,1.48299e-38,-1.51966e-06,-3.18057e-12,1.48287e-38,-3.62841e-12,-1.06603e-13,0,0,0,0,0,0,0,0,0,0,0,0,0,0,0,0,0,0,0,0,0,-0.261799,-3.92892e-05,-1.5,0,0,0,3,0,0,0,0,0,0,0,0,1.9603e-19
540,-3.1147e-12,1.48299e-38,-1.51966e-06,-3.18057e-12,1.48287e-38,0,-1.06603e-13,0,0,0,0,0,0,0,0,0,0,0,0,0,0,0,0,0,0,0,0,0,-0.261799,-3.78921e-05,-1.5,0,0,0,3,0,0,0,0,0,0,0,0,1.9603e-19
550,-3.1147e-12,1.48299e-38,-1.51966e-06,-3.18057e-12,1.48287e-38,-3.62841e-12,-1.06603e-13,0,0,0,0,0,0,0,0,0,0,0,0,0,0,0,0,0,0,0,0,0,-0.261799,-3.66191e-05,-1.5,0,0,0,3,0,0,0,0,0,0,0,0,1.9603e-19
560,-3.1147e-12,1.48299e-38,-1.51966e-06,-3.18057e-12,1.48287e-38,0,-1.06604e-13,0,0,0,0,0,0,0,0,0,0,0,0,0,0,0,0,0,0,0,0,0,-0.261799,-3.54609e-05,-1.5,0,0,0,3,0,0,0,0,0,0,0,0,1.9603e-19
570,-3.1147e-12,1.48299e-38,-1.51966e-06,-3.18057e-12,1.48287e-38,-3.62841e-12,-1.06604e-13,0,0,0,0,0,0,0,0,0,0,0,0,0,0,0,0,0,0,0,0,0,-0.261799,-3.3991e-05,-1.5,0,0,0,3,0,0,0,0,0,0,0,0,1.9603e-19
580,-3.1147e-12,1.48299e-38,-1.51966e-06,-3.18057e-12,1.48287e-38,0,-1.06604e-13,0,0,0,0,0,0,0,0,0,0,0,0,0,0,0,0,0,0,0,0,0,-0.261799,-3.28491e-05,-1.5,0,0,0,3,0,0,0,0,0,0,0,0,1.9603e-19
590,-3.1147e-12,1.48299e-38,-1.51966e-06,-3.18057e-12,1.48287e-38,-3.62841e-12,-1.06605e-13,0,0,0,0,0,0,0,0,0,0,0,0,0,0,0,0,0,0,0,0,0,-0.261799,-3.17455e-05,-1.5,0,0,0,3,0,0,0,0,0,0,0,0,1.9603e-19
600,-3.1147e-12,1.48299e-38,-1.51966e-06,-3.18057e-12,1.48287e-38,0,-1.06605e-13,0,0,0,0,0,0,0,0,0,0,0,0,0,0,0,0,0,0,0,0,0,-0.261799,-3.07414e-05,-1.5,0,0,0,3,0,0,0,0,0,0,0,0,1.9603e-19
610,-3.1147e-12,1.48299e-38,-1.51966e-06,-3.18057e-12,1.48287e-38,-3.62841e-12,-1.06605e-13,0,0,0,0,0,0,0,0,0,0,0,0,0,0,0,0,0,0,0,0,0,-0.261799,-2.97685e-05,-1.5,0,0,0,3,0,0,0,0,0,0,0,0,1.9603e-19
620,-3.1147e-12,1.48299e-38,-1.51966e-06,-3.18057e-12,1.48287e-38,0,-1.06605e-13,0,0,0,0,0,0,0,0,0,0,0,0,0,0,0,0,0,0,0,0,0,-0.261799,-2.86515e-05,-1.5,0,0,0,3,0,0,0,0,0,0,0,0,1.9603e-19
630,-3.1147e-12,1.48299e-38,-1.51966e-06,-3.18057e-12,1.48287e-38,-3.62841e-12,-1.06606e-13,0,0,0,0,0,0,0,0,0,0,0,0,0,0,0,0,0,0,0,0,0,-0.261799,-2.77447e-05,-1.5,0,0,0,3,0,0,0,0,0,0,0,0,1.9603e-19
640,-3.1147e-12,1.48299e-38,-1.51966e-06,-3.18057e-12,1.48287e-38,0,-1.06606e-13,0,0,0,0,0,0,0,0,0,0,0,0,0,0,0,0,0,0,0,0,0,-0.261799,-2.68665e-05,-1.5,0,0,0,3,0,0,0,0,0,0,0,0,1.9603e-19
650,-3.1147e-12,1.48299e-38,-1.51966e-06,-3.18057e-12,1.48287e-38,-3.62841e-12,-1.06606e-13,0,0,0,0,0,0,0,0,0,0,0,0,0,0,0,0,0,0,0,0,0,-0.261799,-2.59633e-05,-1.5,0,0,0,3,0,0,0,0,0,0,0,0,1.9603e-19
660,-3.1147e-12,1.48299e-38,-1.51966e-06,-3.18057e-12,1.48287e-38,0,-1.06606e-13,0,0,0,0,0,0,0,0,0,0,0,0,0,0,0,0,0,0,0,0,0,-0.261799,-2.51416e-05,-1.5,0,0,0,3,0,0,0,0,0,0,0,0,1.9603e-19
670,-3.1147e-12,1.48299e-38,-1.51966e-06,-3.18057e-12,1.48287e-38,-3.62841e-12,-1.06607e-13,0,0,0,0,0,0,0,0,0,0,0,0,0,0,0,0,0,0,0,0,0,-0.261799,-2.43464e-05,-1.5,0,0,0,3,0,0,0,0,0,0,0,0,1.9603e-19
680,-3.1147e-12,1.48299e-38,-1.51966e-06,-3.18057e-12,1.48287e-38,0,-1.06607e-13,0,0,0,0,0,0,0,0,0,0,0,0,0,0,0,0,0,0,0,0,0,-0.261799,-2.36241e-05,-1.5,0,0,0,3,0,0,0,0,0,0,0,0,1.9603e-19
690,-3.1147e-12,1.48299e-38,-1.51966e-06,-3.18057e-12,1.48287e-38,-3.62841e-12,-1.06607e-13,0,0,0,0,0,0,0,0,0,0,0,0,0,0,0,0,0,0,0,0,0,-0.261799,-2.28769e-05,-1.5,0,0,0,3,0,0,0,0,0,0,0,0,1.9603e-19
700,-3.1147e-12,1.48299e-38,-1.51966e-06,-3.18057e-12,1.48287e-38,0,-1.06607e-13,0,0,0,0,0,0,0,0,0,0,0,0,0,0,0,0,0,0,0,0,0,-0.261799,-2.20634e-05,-1.5,0,0,0,3,0,0,0,0,0,0,0,0,1.9603e-19
710,-3.1147e-12,1.48299e-38,-1.51966e-06,-3.18057e-12,1.48287e-38,-3.62841e-12,-1.06608e-13,0,0,0,0,0,0,0,0,0,0,0,0,0,0,0,0,0,0,0,0,0,-0.261799,-2.13656e-05,-1.5,0,0,0,3,0,0,0,0,0,0,0,0,1.9603e-19
720,-3.1147e-12,1.48299e-38,-1.51966e-06,-3.18057e-12,1.48287e-38,0,-1.06608e-13,0,0,0,0,0,0,0,0,0,0,0,0,0,0,0,0,0,0,0,0,0,-0.261799,-2.06898e-05,-1.5,0,0,0,3,0,0,0,0,0,0,0,0,1.9603e-19
730,-3.1147e-12,1.48299e-38,-1.51966e-06,-3.18057e-12,1.48287e-38,-3.62841e-12,-1.06608e-13,0,0,0,0,0,0,0,0,0,0,0,0,0,0,0,0,0,0,0,0,0,-0.261799,-1.99942e-05,-1.5,0,0,0,3,0,0,0,0,0,0,0,0,1.9603e-19
740,-3.1147e-12,1.48299e-38,-1.51966e-06,-3.18057e-12,1.48287e-38,0,-1.06609e-13,0,0,0,0,0,0,0,0,0,0,0,0,0,0,0,0,0,0,0,0,0,-0.261799,-1.92833e-05,-1.5,0,0,0,3,0,0,0,0,0,0,0,0,1.9603e-19
750,-3.1147e-12,1.48299e-38,-1.51966e-06,-3.18057e-12,1.48287e-38,-3.62841e-12,-1.06609e-13,0,0,0,0,0,0,0,0,0,0,0,0,0,0,0,0,0,0,0,0,0,-0.261799,-1.87109e-05,-1.5,0,0,0,3,0,0,0,0,0,0,0,0,1.9603e-19
760,-3.1147e-12,1.48299e-38,-1.51966e-06,-3.18057e-12,1.48287e-38,0,-1.06609e-13,0,0,0,0,0,0,0,0,0,0,0,0,0,0,0,0,0,0,0,0,0,-0.261799,-1.81187e-05,-1.5,0,0,0,3,0,0,0,0,0,0,0,0,1.9603e-19
770,-3.1147e-12,1.48299e-38,-1.51966e-06,-3.18057e-12,1.48287e-38,-3.62841e-12,-1.06609e-13,0,0,0,0,0,0,0,0,0,0,0,0,0,0,0,0,0,0,0,0,0,-0.261799,-1.75452e-05,-1.5,0,0,0,3,0,0,0,0,0,0,0,0,1.9603e-19
780,-3.1147e-12,1.48299e-38,-1.51966e-06,-3.18057e-12,1.48287e-38,0,-1.0661e-13,0,0,0,0,0,0,0,0,0,0,0,0,0,0,0,0,0,0,0,0,0,-0.261799,-1.69214e-05,-1.5,0,0,0,3,0,0,0,0,0,0,0,0,1.9603e-19
790,-3.1147e-12,1.48299e-38,-1.51966e-06,-3.18057e-12,1.48287e-38,-3.62841e-12,-1.0661e-13,0,0,0,0,0,0,0,0,0,0,0,0,0,0,0,0,0,0,0,0,0,-0.261799,-1.63858e-05,-1.5,0,0,0,3,0,0,0,0,0,0,0,0,1.9603e-19
800,-3.1147e-12,1.48299e-38,-1.51966e-06,-3.18057e-12,1.48287e-38,0,-1.0661e-13,0,0,0,0,0,0,0,0,0,0,0,0,0,0,0,0,0,0,0,0,0,-0.261799,-1.58672e-05,-1.5,0,0,0,3,0,0,0,0,0,0,0,0,1.9603e-19
810,-3.1147e-12,1.48299e-38,-1.51966e-06,-3.18057e-12,1.48287e-38,-3.62841e-12,-1.0661e-13,0,0,0,0,0,0,0,0,0,0,0,0,0,0,0,0,0,0,0,0,0,-0.261799,-1.53342e-05,-1.5,0,0,0,3,0,0,0,0,0,0,0,0,1.9603e-19
820,-3.1147e-12,1.48299e-38,-1.51966e-06,-3.18057e-12,1.48287e-38,0,-1.06611e-13,0,0,0,0,0,0,0,0,0,0,0,0,0,0,0,0,0,0,0,0,0,-0.261799,-1.4819e-05,-1.5,0,0,0,3,0,0,0,0,0,0,0,0,1.9603e-19
830,-3.1147e-12,1.48299e-38,-1.51966e-06,-3.18057e-12,1.48287e-38,-3.62841e-12,-1.06611e-13,0,0,0,0,0,0,0,0,0,0,0,0,0,0,0,0,0,0,0,0,0,-0.261799,-1.435e-05,-1.5,0,0,0,3,0,0,0,0,0,0,0,0,1.9603e-19
840,-3.1147e-12,1.48299e-38,-1.51966e-06,-3.18057e-12,1.48287e-38,0,-1.06611e-13,0,0,0,0,0,0,0,0,0,0,0,0,0,0,0,0,0,0,0,0,0,-0.261799,-1.38958e-05,-1.5,0,0,0,3,0,0,0,0,0,0,0,0,1.9603e-19
850,-3.1147e-12,1.48299e-38,-1.51966e-06,-3.18057e-12,1.48287e-38,-3.62841e-12,-1.06612e-13,0,0,0,0,0,0,0,0,0,0,0,0,0,0,0,0,0,0,0,0,0,-0.261799,-1.3456e-05,-1.5,0,0,0,3,0,0,0,0,0,0,0,0,1.9603e-19
860,-3.1147e-12,1.48299e-38,-1.51966e-06,-3.18057e-12,1.48287e-38,0,-1.06612e-13,0,0,0,0,0,0,0,0,0,0,0,0,0,0,0,0,0,0,0,0,0,-0.261799,-1.29247e-05,-1.5,0,0,0,3,0,0,0,0,0,0,0,0,1.9603e-19
870,-3.1147e-12,1.48299e-38,-1.51966e-06,-3.18057e-12,1.48287e-38,-3.62841e-12,-1.06612e-13,0,0,0,0,0,0,0,0,0,0,0,0,0,0,0,0,0,0,0,0,0,-0.261799,-1.25411e-05,-1.5,0,0,0,3,0,0,0,0,0,0,0,0,1.9603e-19
880,-3.1147e-12,1.48299e-38,-1.51966e-06,-3.18057e-12,1.48287e-38,0,-1.06612e-13,0,0,0,0,0,0,0,0,0,0,0,0,0,0,0,0,0,0,0,0,0,-0.261799,-1.21688e-05,-1.5,0,0,0,3,0,0,0,0,0,0,0,0,1.9603e-19
890,-3.1147e-12,1.48299e-38,-1.51966e-06,-3.18057e-12,1.48287e-38,-3.62841e-12,-1.06613e-13,0,0,0,0,0,0,0,0,0,0,0,0,0,0,0,0,0,0,0,0,0,-0.261799,-1.17839e-05,-1.5,0,0,0,3,0,0,0,0,0,0,0,0,1.9603e-19
900,-3.1147e-12,1.48299e-38,-1.51966e-06,-3.18057e-12,1.48287e-38,0,-1.06613e-13,0,0,0,0,0,0,0,0,0,0,0,0,0,0,0,0,0,0,0,0,0,-0.261799,-1.1388e-05,-1.5,0,0,0,3,0,0,0,0,0,0,0,0,1.9603e-19
910,-3.1147e-12,1.48299e-38,-1.51966e-06,-3.18057e-12,1.48287e-38,-3.62841e-12,-1.06613e-13,0,0,0,0,0,0,0,0,0,0,0,0,0,0,0,0,0,0,0,0,0,-0.261799,-1.10278e-05,-1.5,0,0,0,3,0,0,0,0,0,0,0,0,1.9603e-19
920,-3.1147e-12,1.48299e-38,-1.51966e-06,-3.18057e-12,1.48287e-38,0,-1.06613e-13,0,0,0,0,0,0,0,0,0,0,0,0,0,0,0,0,0,0,0,0,0,-0.261799,-1.06574e-05,-1.5,0,0,0,3,0,0,0,0,0,0,0,0,1.9603e-19
930,-3.1147e-12,1.48299e-38,-1.51966e-06,-3.18057e-12,1.48287e-38,-3.62841e-12,-1.06614e-13,0,0,0,0,0,0,0,0,0,0,0,0,0,0,0,0,0,0,0,0,0,-0.261799,-1.0341e-05,-1.5,0,0,0,3,0,0,0,0,0,0,0,0,1.9603e-19
940,-3.1147e-12,1.48299e-38,-1.51966e-06,-3.18057e-12,1.48287e-38,0,-1.06614e-13,0,0,0,0,0,0,0,0,0,0,0,0,0,0,0,0,0,0,0,0,0,-0.261799,-9.99364e-06,-1.5,0,0,0,3,0,0,0,0,0,0,0,0,1.9603e-19
950,-3.1147e-12,1.48299e-38,-1.51966e-06,-3.18057e-12,1.48287e-38,-3.62841e-12,-1.06614e-13,0,0,0,0,0,0,0,0,0,0,0,0,0,0,0,0,0,0,0,0,0,-0.261799,-9.67735e-06,-1.5,0,0,0,3,0,0,0,0,0,0,0,0,1.9603e-19
960,-3.1147e-12,1.48299e-38,-1.51966e-06,-3.18057e-12,1.48287e-38,0,-1.06615e-13,0,0,0,0,0,0,0,0,0,0,0,0,0,0,0,0,0,0,0,0,0,-0.261799,-9.37106e-06,-1.5,0,0,0,3,0,0,0,0,0,0,0,0,1.9603e-19
970,-3.1147e-12,1.48299e-38,-1.51966e-06,-3.18057e-12,1.48287e-38,-3.62841e-12,-1.06615e-13,0,0,0,0,0,0,0,0,0,0,0,0,0,0,0,0,0,0,0,0,0,-0.261799,-9.05625e-06,-1.5,0,0,0,3,0,0,0,0,0,0,0,0,1.9603e-19
980,-3.1147e-12,1.48299e-38,-1.51966e-06,-3.18057e-12,1.48287e-38,0,-1.06615e-13,0,0,0,0,0,0,0,0,0,0,0,0,0,0,0,0,0,0,0,0,0,-0.261799,-8.7698e-06,-1.5,0,0,0,3,0,0,0,0,0,0,0,0,1.9603e-19
990,-3.1147e-12,1.48299e-38,-1.51966e-06,-3.18057e-12,1.48287e-38,-3.62841e-12,-1.06615e-13,0,0,0,0,0,0,0,0,0,0,0,0,0,0,0,0,0,0,0,0,0,-0.261799,-8.47518e-06,-1.5,0,0,0,3,0,0,0,0,0,0,0,0,1.9603e-19
1000,-3.1147e-12,1.48299e-38,-1.51966e-06,-3.18057e-12,1.48287e-38,0,-1.06616e-13,0,0,0,0,0,0,0,0,0,0,0,0,0,0,0,0,0,0,0,0,0,-0.261799,-8.20694e-06,-1.5,0,0,0,3,0,0,0,0,0,0,0,0,1.9603e-19
1010,-3.1147e-12,1.48299e-38,-1.51966e-06,-3.18057e-12,1.48287e-38,-3.62841e-12,-1.06616e-13,0,0,0,0,0,0,0,0,0,0,0,0,0,0,0,0,0,0,0,0,0,-0.261799,-7.93124e-06,-1.5,0,0,0,3,0,0,0,0,0,0,0,0,1.9603e-19
1020,-3.1147e-12,1.48299e-38,-1.51966e-06,-3.18057e-12,1.48287e-38,0,-1.06616e-13,0,0,0,0,0,0,0,0,0,0,0,0,0,0,0,0,0,0,0,0,0,-0.261799,-7.66479e-06,-1.5,0,0,0,3,0,0,0,0,0,0,0,0,1.9603e-19
1030,-3.1147e-12,1.48299e-38,-1.51966e-06,-3.18057e-12,1.48287e-38,-3.62841e-12,-1.06616e-13,0,0,0,0,0,0,0,0,0,0,0,0,0,0,0,0,0,0,0,0,0,-0.261799,-7.39225e-06,-1.5,0,0,0,3,0,0,0,0,0,0,0,0,1.9603e-19
1040,-3.1147e-12,1.48299e-38,-1.51966e-06,-3.18057e-12,1.48287e-38,0,-1.06617e-13,0,0,0,0,0,0,0,0,0,0,0,0,0,0,0,0,0,0,0,0,0,-0.261799,-7.15843e-06,-1.5,0,0,0,3,0,0,0,0,0,0,0,0,1.9603e-19
1050,-3.1147e-12,1.48299e-38,-1.51966e-06,-3.18057e-12,1.48287e-38,-3.62841e-12,-1.06617e-13,0,0,0,0,0,0,0,0,0,0,0,0,0,0,0,0,0,0,0,0,0,-0.261799,-6.93201e-06,-1.5,0,0,0,3,0,0,0,0,0,0,0,0,1.9603e-19
1060,-3.1147e-12,1.48299e-38,-1.51966e-06,-3.18057e-12,1.48287e-38,0,-1.06617e-13,0,0,0,0,0,0,0,0,0,0,0,0,0,0,0,0,0,0,0,0,0,-0.261799,-6.71261e-06,-1.5,0,0,0,3,0,0,0,0,0,0,0,0,1.9603e-19
1070,-3.1147e-12,1.48299e-38,-1.51966e-06,-3.18057e-12,1.48287e-38,-3.62841e-12,-1.06618e-13,0,0,0,0,0,0,0,0,0,0,0,0,0,0,0,0,0,0,0,0,0,-0.261799,-6.48711e-06,-1.5,0,0,0,3,0,0,0,0,0,0,0,0,1.9603e-19
1080,-3.1147e-12,1.48299e-38,-1.51966e-06,-3.18057e-12,1.48287e-38,0,-1.06618e-13,0,0,0,0,0,0,0,0,0,0,0,0,0,0,0,0,0,0,0,0,0,-0.261799,-6.26918e-06,-1.5,0,0,0,3,0,0,0,0,0,0,0,0,1.9603e-19
1090,-3.1147e-12,1.48299e-38,-1.51966e-06,-3.18057e-12,1.48287e-38,-3.62841e-12,-1.06618e-13,0,0,0,0,0,0,0,0,0,0,0,0,0,0,0,0,0,0,0,0,0,-0.261799,-6.08319e-06,-1.5,0,0,0,3,0,0,0,0,0,0,0,0,1.9603e-19
1100,-3.1147e-12,1.48299e-38,-1.51966e-06,-3.18057e-12,1.48287e-38,0,-1.06618e-13,0,0,0,0,0,0,0,0,0,0,0,0,0,0,0,0,0,0,0,0,0,-0.261799,-5.90273e-06,-1.5,0,0,0,3,0,0,0,0,0,0,0,0,1.9603e-19
1110,-3.1147e-12,1.48299e-38,-1.51966e-06,-3.18057e-12,1.48287e-38,-3.62841e-12,-1.06619e-13,0,0,0,0,0,0,0,0,0,0,0,0,0,0,0,0,0,0,0,0,0,-0.261799,-5.70443e-06,-1.5,0,0,0,3,0,0,0,0,0,0,0,0,1.9603e-19
1120,-3.1147e-12,1.48299e-38,-1.51966e-06,-3.18057e-12,1.48287e-38,0,-1.06619e-13,0,0,0,0,0,0,0,0,0,0,0,0,0,0,0,0,0,0,0,0,0,-0.261799,-5.524e-06,-1.5,0,0,0,3,0,0,0,0,0,0,0,0,1.9603e-19
1130,-3.1147e-12,1.48299e-38,-1.51966e-06,-3.18057e-12,1.48287e-38,-3.62841e-12,-1.06619e-13,0,0,0,0,0,0,0,0,0,0,0,0,0,0,0,0,0,0,0,0,0,-0.261799,-5.34917e-06,-1.5,0,0,0,3,0,0,0,0,0,0,0,0,1.9603e-19
1140,-3.1147e-12,1.48299e-38,-1.51966e-06,-3.18057e-12,1.48287e-38,0,-1.06619e-13,0,0,0,0,0,0,0,0,0,0,0,0,0,0,0,0,0,0,0,0,0,-0.261799,-5.17987e-06,-1.5,0,0,0,3,0,0,0,0,0,0,0,0,1.9603e-19
1150,-3.1147e-12,1.48299e-38,-1.51966e-06,-3.18057e-12,1.48287e-38,-3.62841e-12,-1.0662e-13,0,0,0,0,0,0,0,0,0,0,0,0,0,0,0,0,0,0,0,0,0,-0.261799,-4.98551e-06,-1.5,0,0,0,3,0,0,0,0,0,0,0,0,1.9603e-19
1160,-3.1147e-12,1.48299e-38,-1.51966e-06,-3.18057e-12,1.48287e-38,0,-1.0662e-13,0,0,0,0,0,0,0,0,0,0,0,0,0,0,0,0,0,0,0,0,0,-0.261799,-4.82772e-06,-1.5,0,0,0,3,0,0,0,0,0,0,0,0,1.9603e-19
1170,-3.1147e-12,1.48299e-38,-1.51966e-06,-3.18057e-12,1.48287e-38,-3.62841e-12,-1.0662e-13,0,0,0,0,0,0,0,0,0,0,0,0,0,0,0,0,0,0,0,0,0,-0.261799,-4.67492e-06,-1.5,0,0,0,3,0,0,0,0,0,0,0,0,1.9603e-19
1180,-3.1147e-12,1.48299e-38,-1.51966e-06,-3.18057e-12,1.48287e-38,0,-1.0662e-13,0,0,0,0,0,0,0,0,0,0,0,0,0,0,0,0,0,0,0,0,0,-0.261799,-4.51787e-06,-1.5,0,0,0,3,0,0,0,0,0,0,0,0,1.9603e-19
1190,-3.1147e-12,1.48299e-38,-1.51966e-06,-3.18057e-12,1.48287e-38,-3.62841e-12,-1.06621e-13,0,0,0,0,0,0,0,0,0,0,0,0,0,0,0,0,0,0,0,0,0,-0.261799,-4.37488e-06,-1.5,0,0,0,3,0,0,0,0,0,0,0,0,1.9603e-19
1200,-3.1147e-12,1.48299e-38,-1.51966e-06,-3.18057e-12,1.48287e-38,0,-1.06621e-13,0,0,0,0,0,0,0,0,0,0,0,0,0,0,0,0,0,0,0,0,0,-0.261799,-4.22791e-06,-1.5,0,0,0,3,0,0,0,0,0,0,0,0,1.9603e-19
1210,-3.1147e-12,1.48299e-38,-1.51966e-06,-3.18057e-12,1.48287e-38,-3.62841e-12,-1.06621e-13,0,0,0,0,0,0,0,0,0,0,0,0,0,0,0,0,0,0,0,0,0,-0.261799,-4.09418e-06,-1.5,0,0,0,3,0,0,0,0,0,0,0,0,1.9603e-19
1220,-3.1147e-12,1.48299e-38,-1.51966e-06,-3.18057e-12,1.48287e-38,0,-1.06622e-13,0,0,0,0,0,0,0,0,0,0,0,0,0,0,0,0,0,0,0,0,0,-0.261799,-3.9646e-06,-1.5,0,0,0,3,0,0,0,0,0,0,0,0,1.9603e-19
1230,-3.1147e-12,1.48299e-38,-1.51966e-06,-3.18057e-12,1.48287e-38,-3.62841e-12,-1.06622e-13,0,0,0,0,0,0,0,0,0,0,0,0,0,0,0,0,0,0,0,0,0,-0.261799,-3.83141e-06,-1.5,0,0,0,3,0,0,0,0,0,0,0,0,1.9603e-19
1240,-3.1147e-12,1.48299e-38,-1.51966e-06,-3.18057e-12,1.48287e-38,0,-1.06622e-13,0,0,0,0,0,0,0,0,0,0,0,0,0,0,0,0,0,0,0,0,0,-0.261799,-3.71015e-06,-1.5,0,0,0,3,0,0,0,0,0,0,0,0,1.9603e-19
1250,-3.1147e-12,1.48299e-38,-1.51966e-06,-3.18057e-12,1.48287e-38,-3.62841e-12,-1.06622e-13,0,0,0,0,0,0,0,0,0,0,0,0,0,0,0,0,0,0,0,0,0,-0.261799,-3.54891e-06,-1.5,0,0,0,3,0,0,0,0,0,0,0,0,1.9603e-19
1260,-3.1147e-12,1.48299e-38,-1.51966e-06,-3.18057e-12,1.48287e-38,0,-1.06623e-13,0,0,0,0,0,0,0,0,0,0,0,0,0,0,0,0,0,0,0,0,0,-0.261799,-3.43659e-06,-1.5,0,0,0,3,0,0,0,0,0,0,0,0,1.9603e-19
1270,-3.1147e-12,1.48299e-38,-1.51966e-06,-3.18057e-12,1.48287e-38,-3.62841e-12,-1.06623e-13,0,0,0,0,0,0,0,0,0,0,0,0,0,0,0,0,0,0,0,0,0,-0.261799,-3.32106e-06,-1.5,0,0,0,3,0,0,0,0,0,0,0,0,1.9603e-19
1280,-3.1147e-12,1.48299e-38,-1.51966e-06,-3.18057e-12,1.48287e-38,0,-1.06623e-13,0,0,0,0,0,0,0,0,0,0,0,0,0,0,0,0,0,0,0,0,0,-0.261799,-3.20949e-06,-1.5,0,0,0,3,0,0,0,0,0,0,0,0,1.9603e-19
1290,-3.1147e-12,1.48299e-38,-1.51966e-06,-3.18057e-12,1.48287e-38,-3.62841e-12,-1.06623e-13,0,0,0,0,0,0,0,0,0,0,0,0,0,0,0,0,0,0,0,0,0,-0.261799,-3.10167e-06,-1.5,0,0,0,3,0,0,0,0,0,0,0,0,1.9603e-19
1300,-3.1147e-12,1.48299e-38,-1.51966e-06,-3.18057e-12,1.48287e-38,0,-1.06624e-13,0,0,0,0,0,0,0,0,0,0,0,0,0,0,0,0,0,0,0,0,0,-0.261799,-3.00965e-06,-1.5,0,0,0,3,0,0,0,0,0,0,0,0,1.9603e-19
1310,-3.1147e-12,1.48299e-38,-1.51966e-06,-3.18057e-12,1.48287e-38,-3.62841e-12,-1.06624e-13,0,0,0,0,0,0,0,0,0,0,0,0,0,0,0,0,0,0,0,0,0,-0.261799,-2.91446e-06,-1.5,0,0,0,3,0,0,0,0,0,0,0,0,1.9603e-19
1320,-3.1147e-12,1.48299e-38,-1.51966e-06,-3.18057e-12,1.48287e-38,0,-1.06624e-13,0,0,0,0,0,0,0,0,0,0,0,0,0,0,0,0,0,0,0,0,0,-0.261799,-2.82795e-06,-1.5,0,0,0,3,0,0,0,0,0,0,0,0,1.9603e-19
1330,-3.1147e-12,1.48299e-38,-1.51966e-06,-3.18057e-12,1.48287e-38,-3.62841e-12,-1.06625e-13,0,0,0,0,0,0,0,0,0,0,0,0,0,0,0,0,0,0,0,0,0,-0.261799,-2.73295e-06,-1.5,0,0,0,3,0,0,0,0,0,0,0,0,1.9603e-19
1340,-3.1147e-12,1.48299e-38,-1.51966e-06,-3.18057e-12,1.48287e-38,0,-1.06625e-13,0,0,0,0,0,0,0,0,0,0,0,0,0,0,0,0,0,0,0,0,0,-0.261799,-2.64651e-06,-1.5,0,0,0,3,0,0,0,0,0,0,0,0,1.9603e-19
1350,-3.1147e-12,1.48299e-38,-1.51966e-06,-3.18057e-12,1.48287e-38,-3.62841e-12,-1.06625e-13,0,0,0,0,0,0,0,0,0,0,0,0,0,0,0,0,0,0,0,0,0,-0.261799,-2.5576e-06,-1.5,0,0,0,3,0,0,0,0,0,0,0,0,1.9603e-19
1360,-3.1147e-12,1.48299e-38,-1.51966e-06,-3.18057e-12,1.48287e-38,0,-1.06625e-13,0,0,0,0,0,0,0,0,0,0,0,0,0,0,0,0,0,0,0,0,0,-0.261799,-2.47168e-06,-1.5,0,0,0,3,0,0,0,0,0,0,0,0,1.9603e-19
1370,-3.1147e-12,1.48299e-38,-1.51966e-06,-3.18057e-12,1.48287e-38,-3.62841e-12,-1.06626e-13,0,0,0,0,0,0,0,0,0,0,0,0,0,0,0,0,0,0,0,0,0,-0.261799,-2.39832e-06,-1.5,0,0,0,3,0,0,0,0,0,0,0,0,1.9603e-19
1380,-3.1147e-12,1.48299e-38,-1.51966e-06,-3.18057e-12,1.48287e-38,0,-1.06626e-13,0,0,0,0,0,0,0,0,0,0,0,0,0,0,0,0,0,0,0,0,0,-0.261799,-2.32246e-06,-1.5,0,0,0,3,0,0,0,0,0,0,0,0,1.9603e-19
1390,-3.1147e-12,1.48299e-38,-1.51966e-06,-3.18057e-12,1.48287e-38,-3.62841e-12,-1.06626e-13,0,0,0,0,0,0,0,0,0,0,0,0,0,0,0,0,0,0,0,0,0,-0.261799,-2.24444e-06,-1.5,0,0,0,3,0,0,0,0,0,0,0,0,1.9603e-19
1400,-3.1147e-12,1.48299e-38,-1.51966e-06,-3.18057e-12,1.48287e-38,0,-1.06626e-13,0,0,0,0,0,0,0,0,0,0,0,0,0,0,0,0,0,0,0,0,0,-0.261799,-2.16904e-06,-1.5,0,0,0,3,0,0,0,0,0,0,0,0,1.9603e-19
1410,-3.1147e-12,1.48299e-38,-1.51966e-06,-3.18057e-12,1.48287e-38,-3.62841e-12,-1.06627e-13,0,0,0,0,0,0,0,0,0,0,0,0,0,0,0,0,0,0,0,0,0,-0.261799,-2.10043e-06,-1.5,0,0,0,3,0,0,0,0,0,0,0,0,1.9603e-19
1420,-3.1147e-12,1.48299e-38,-1.51966e-06,-3.18057e-12,1.48287e-38,0,-1.06627e-13,0,0,0,0,0,0,0,0,0,0,0,0,0,0,0,0,0,0,0,0,0,-0.261799,-2.03808e-06,-1.5,0,0,0,3,0,0,0,0,0,0,0,0,1.9603e-19
1430,-3.1147e-12,1.48299e-38,-1.51966e-06,-3.18057e-12,1.48287e-38,-3.62841e-12,-1.06627e-13,0,0,0,0,0,0,0,0,0,0,0,0,0,0,0,0,0,0,0,0,0,-0.261799,-1.96962e-06,-1.5,0,0,0,3,0,0,0,0,0,0,0,0,1.9603e-19
1440,-3.1147e-12,1.48299e-38,-1.51966e-06,-3.18057e-12,1.48287e-38,0,-1.06628e-13,0,0,0,0,0,0,0,0,0,0,0,0,0,0,0,0,0,0,0,0,0,-0.261799,-1.90345e-06,-1.5,0,0,0,3,0,0,0,0,0,0,0,0,1.9603e-19
1450,-3.1147e-12,1.48299e-38,-1.51966e-06,-3.18057e-12,1.48287e-38,-3.62841e-12,-1.06628e-13,0,0,0,0,0,0,0,0,0,0,0,0,0,0,0,0,0,0,0,0,0,-0.261799,-1.84321e-06,-1.5,0,0,0,3,0,0,0,0,0,0,0,0,1.9603e-19
1460,-3.1147e-12,1.48299e-38,-1.51966e-06,-3.18057e-12,1.48287e-38,0,-1.06628e-13,0,0,0,0,0,0,0,0,0,0,0,0,0,0,0,0,0,0,0,0,0,-0.261799,-1.78487e-06,-1.5,0,0,0,3,0,0,0,0,0,0,0,0,1.9603e-19
1470,-3.1147e-12,1.48299e-38,-1.51966e-06,-3.18057e-12,1.48287e-38,-3.62841e-12,-1.06628e-13,0,0,0,0,0,0,0,0,0,0,0,0,0,0,0,0,0,0,0,0,0,-0.261799,-1.72486e-06,-1.5,0,0,0,3,0,0,0,0,0,0,0,0,1.9603e-19
1480,-3.1147e-12,1.48299e-38,-1.51966e-06,-3.18057e-12,1.48287e-38,0,-1.06629e-13,0,0,0,0,0,0,0,0,0,0,0,0,0,0,0,0,0,0,0,0,0,-0.261799,-1.66692e-06,-1.5,0,0,0,3,0,0,0,0,0,0,0,0,1.9603e-19
1490,-3.1147e-12,1.48299e-38,-1.51966e-06,-3.18057e-12,1.48287e-38,-3.62841e-12,-1.06629e-13,0,0,0,0,0,0,0,0,0,0,0,0,0,0,0,0,0,0,0,0,0,-0.261799,-1.61419e-06,-1.5,0,0,0,3,0,0,0,0,0,0,0,0,1.9603e-19
1500,-3.1147e-12,1.48299e-38,-1.51966e-06,-3.18057e-12,1.48287e-38,0,-1.06629e-13,0,0,0,0,0,0,0,0,0,0,0,0,0,0,0,0,0,0,0,0,0,-0.261799,-1.55997e-06,-1.5,0,0,0,3,0,0,0,0,0,0,0,0,1.9603e-19
1510,-3.1147e-12,1.48299e-38,-1.51966e-06,-3.18057e-12,1.48287e-38,-3.62841e-12,-1.06629e-13,0,0,0,0,0,0,0,0,0,0,0,0,0,0,0,0,0,0,0,0,0,-0.261799,-1.51366e-06,-1.5,0,0,0,3,0,0,0,0,0,0,0,0,1.9603e-19
1520,-3.1147e-12,1.48299e-38,-1.51966e-06,-3.18057e-12,1.48287e-38,0,-1.0663e-13,0,0,0,0,0,0,0,0,0,0,0,0,0,0,0,0,0,0,0,0,0,-0.261799,-1.46874e-06,-1.5,0,0,0,3,0,0,0,0,0,0,0,0,1.9603e-19
1530,-3.1147e-12,1.48299e-38,-1.51966e-06,-3.18057e-12,1.48287e-38,-3.62841e-12,-1.0663e-13,0,0,0,0,0,0,0,0,0,0,0,0,0,0,0,0,0,0,0,0,0,-0.261799,-1.42228e-06,-1.5,0,0,0,3,0,0,0,0,0,0,0,0,1.9603e-19
1540,-3.1147e-12,1.48299e-38,-1.51966e-06,-3.18057e-12,1.48287e-38,0,-1.0663e-13,0,0,0,0,0,0,0,0,0,0,0,0,0,0,0,0,0,0,0,0,0,-0.261799,-1.37729e-06,-1.5,0,0,0,3,0,0,0,0,0,0,0,0,1.9603e-19
1550,-3.1147e-12,1.48299e-38,-1.51966e-06,-3.18057e-12,1.48287e-38,-3.62841e-12,-1.06631e-13,0,0,0,0,0,0,0,0,0,0,0,0,0,0,0,0,0,0,0,0,0,-0.261799,-1.33102e-06,-1.5,0,0,0,3,0,0,0,0,0,0,0,0,1.9603e-19
1560,-3.1147e-12,1.48299e-38,-1.51966e-06,-3.18057e-12,1.48287e-38,0,-1.06631e-13,0,0,0,0,0,0,0,0,0,0,0,0,0,0,0,0,0,0,0,0,0,-0.261799,-1.29152e-06,-1.5,0,0,0,3,0,0,0,0,0,0,0,0,1.9603e-19
1570,-3.1147e-12,1.48299e-38,-1.51966e-06,-3.18057e-12,1.48287e-38,-3.62841e-12,-1.06631e-13,0,0,0,0,0,0,0,0,0,0,0,0,0,0,0,0,0,0,0,0,0,-0.261799,-1.25064e-06,-1.5,0,0,0,3,0,0,0,0,0,0,0,0,1.9603e-19
1580,-3.1147e-12,1.48299e-38,-1.51966e-06,-3.18057e-12,1.48287e-38,0,-1.06631e-13,0,0,0,0,0,0,0,0,0,0,0,0,0,0,0,0,0,0,0,0,0,-0.261799,-1.20863e-06,-1.5,0,0,0,3,0,0,0,0,0,0,0,0,1.9603e-19
1590,-3.1147e-12,1.48299e-38,-1.51966e-06,-3.18057e-12,1.48287e-38,-3.62841e-12,-1.06632e-13,0,0,0,0,0,0,0,0,0,0,0,0,0,0,0,0,0,0,0,0,0,-0.261799,-1.16802e-06,-1.5,0,0,0,3,0,0,0,0,0,0,0,0,1.9603e-19
1600,-3.1147e-12,1.48299e-38,-1.51966e-06,-3.18057e-12,1.48287e-38,0,-1.06632e-13,0,0,0,0,0,0,0,0,0,0,0,0,0,0,0,0,0,0,0,0,0,-0.261799,-1.13106e-06,-1.5,0,0,0,3,0,0,0,0,0,0,0,0,1.9603e-19
1610,-3.1147e-12,1.48299e-38,-1.51966e-06,-3.18057e-12,1.48287e-38,-3.62841e-12,-1.06632e-13,0,0,0,0,0,0,0,0,0,0,0,0,0,0,0,0,0,0,0,0,0,-0.261799,-1.09526e-06,-1.5,0,0,0,3,0,0,0,0,0,0,0,0,1.9603e-19
1620,-3.1147e-12,1.48299e-38,-1.51966e-06,-3.18057e-12,1.48287e-38,0,-1.06632e-13,0,0,0,0,0,0,0,0,0,0,0,0,0,0,0,0,0,0,0,0,0,-0.261799,-1.06059e-06,-1.5,0,0,0,3,0,0,0,0,0,0,0,0,1.9603e-19
1630,-3.1147e-12,1.48299e-38,-1.51966e-06,-3.18057e-12,1.48287e-38,-3.62841e-12,-1.06633e-13,0,0,0,0,0,0,0,0,0,0,0,0,0,0,0,0,0,0,0,0,0,-0.261799,-1.02288e-06,-1.5,0,0,0,3,0,0,0,0,0,0,0,0,1.9603e-19
1640,-3.1147e-12,1.48299e-38,-1.51966e-06,-3.18057e-12,1.48287e-38,0,-1.06633e-13,0,0,0,0,0,0,0,0,0,0,0,0,0,0,0,0,0,0,0,0,0,-0.261799,-9.88493e-07,-1.5,0,0,0,3,0,0,0,0,0,0,0,0,1.9603e-19
1650,-3.1147e-12,1.48299e-38,-1.51966e-06,-3.18057e-12,1.48287e-38,-3.62841e-12,-1.06633e-13,0,0,0,0,0,0,0,0,0,0,0,0,0,0,0,0,0,0,0,0,0,-0.261799,-9.57208e-07,-1.5,0,0,0,3,0,0,0,0,0,0,0,0,1.9603e-19
1660,-3.1147e-12,1.48299e-38,-1.51966e-06,-3.18057e-12,1.48287e-38,0,-1.06634e-13,0,0,0,0,0,0,0,0,0,0,0,0,0,0,0,0,0,0,0,0,0,-0.261799,-9.25051e-07,-1.5,0,0,0,3,0,0,0,0,0,0,0,0,1.9603e-19
1670,-3.1147e-12,1.48299e-38,-1.51966e-06,-3.18057e-12,1.48287e-38,-3.62841e-12,-1.06634e-13,0,0,0,0,0,0,0,0,0,0,0,0,0,0,0,0,0,0,0,0,0,-0.261799,-8.93975e-07,-1.5,0,0,0,3,0,0,0,0,0,0,0,0,1.9603e-19
1680,-3.1147e-12,1.48299e-38,-1.51966e-06,-3.18057e-12,1.48287e-38,0,-1.06634e-13,0,0,0,0,0,0,0,0,0,0,0,0,0,0,0,0,0,0,0,0,0,-0.261799,-8.6568e-07,-1.5,0,0,0,3,0,0,0,0,0,0,0,0,1.9603e-19
1690,-3.1147e-12,1.48299e-38,-1.51966e-06,-3.18057e-12,1.48287e-38,-3.62841e-12,-1.06634e-13,0,0,0,0,0,0,0,0,0,0,0,0,0,0,0,0,0,0,0,0,0,-0.261799,-8.38282e-07,-1.5,0,0,0,3,0,0,0,0,0,0,0,0,1.9603e-19
1700,-3.1147e-12,1.48299e-38,-1.51966e-06,-3.18057e-12,1.48287e-38,0,-1.06635e-13,0,0,0,0,0,0,0,0,0,0,0,0,0,0,0,0,0,0,0,0,0,-0.261799,-8.1175e-07,-1.5,0,0,0,3,0,0,0,0,0,0,0,0,1.9603e-19
1710,-3.1147e-12,1.48299e-38,-1.51966e-06,-3.18057e-12,1.48287e-38,-3.62841e-12,-1.06635e-13,0,0,0,0,0,0,0,0,0,0,0,0,0,0,0,0,0,0,0,0,0,-0.261799,-7.82902e-07,-1.5,0,0,0,3,0,0,0,0,0,0,0,0,1.9603e-19
1720,-3.1147e-12,1.48299e-38,-1.51966e-06,-3.18057e-12,1.48287e-38,0,-1.06635e-13,0,0,0,0,0,0,0,0,0,0,0,0,0,0,0,0,0,0,0,0,0,-0.261799,-7.55063e-07,-1.5,0,0,0,3,0,0,0,0,0,0,0,0,1.9603e-19
1730,-3.1147e-12,1.48299e-38,-1.51966e-06,-3.18057e-12,1.48287e-38,-3.62841e-12,-1.06635e-13,0,0,0,0,0,0,0,0,0,0,0,0,0,0,0,0,0,0,0,0,0,-0.261799,-7.32664e-07,-1.5,0,0,0,3,0,0,0,0,0,0,0,0,1.9603e-19
1740,-3.1147e-12,1.48299e-38,-1.51966e-06,-3.18057e-12,1.48287e-38,0,-1.06636e-13,0,0,0,0,0,0,0,0,0,0,0,0,0,0,0,0,0,0,0,0,0,-0.261799,-7.10917e-07,-1.5,0,0,0,3,0,0,0,0,0,0,0,0,1.9603e-19
1750,-3.1147e-12,1.48299e-38,-1.51966e-06,-3.18057e-12,1.48287e-38,-3.62841e-12,-1.06636e-13,0,0,0,0,0,0,0,0,0,0,0,0,0,0,0,0,0,0,0,0,0,-0.261799,-6.84275e-07,-1.5,0,0,0,3,0,0,0,0,0,0,0,0,1.9603e-19
1760,-3.1147e-12,1.48299e-38,-1.51966e-06,-3.18057e-12,1.48287e-38,0,-1.06636e-13,0,0,0,0,0,0,0,0,0,0,0,0,0,0,0,0,0,0,0,0,0,-0.261799,-6.61287e-07,-1.5,0,0,0,3,0,0,0,0,0,0,0,0,1.9603e-19
1770,-3.1147e-12,1.48299e-38,-1.51966e-06,-3.18057e-12,1.48287e-38,-3.62841e-12,-1.06636e-13,0,0,0,0,0,0,0,0,0,0,0,0,0,0,0,0,0,0,0,0,0,-0.261799,-6.40358e-07,-1.5,0,0,0,3,0,0,0,0,0,0,0,0,1.9603e-19
1780,-3.1147e-12,1.48299e-38,-1.51966e-06,-3.18057e-12,1.48287e-38,0,-1.06637e-13,0,0,0,0,0,0,0,0,0,0,0,0,0,0,0,0,0,0,0,0,0,-0.261799,-6.20091e-07,-1.5,0,0,0,3,0,0,0,0,0,0,0,0,1.9603e-19
1790,-3.1147e-12,1.48299e-38,-1.51966e-06,-3.18057e-12,1.48287e-38,-3.62841e-12,-1.06637e-13,0,0,0,0,0,0,0,0,0,0,0,0,0,0,0,0,0,0,0,0,0,-0.261799,-6.00465e-07,-1.5,0,0,0,3,0,0,0,0,0,0,0,0,1.9603e-19
1800,-3.1147e-12,1.48299e-38,-1.51966e-06,-3.18057e-12,1.48287e-38,0,-1.06637e-13,0,0,0,0,0,0,0,0,0,0,0,0,0,0,0,0,0,0,0,0,0,-0.261799,-5.80293e-07,-1.5,0,0,0,3,0,0,0,0,0,0,0,0,1.9603e-19
1810,-3.1147e-12,1.48299e-38,-1.51966e-06,-3.18057e-12,1.48287e-38,-3.62841e-12,-1.06638e-13,0,0,0,0,0,0,0,0,0,0,0,0,0,0,0,0,0,0,0,0,0,-0.261799,-5.61927e-07,-1.5,0,0,0,3,0,0,0,0,0,0,0,0,1.9603e-19
1820,-3.1147e-12,1.48299e-38,-1.51966e-06,-3.18057e-12,1.48287e-38,0,-1.06638e-13,0,0,0,0,0,0,0,0,0,0,0,0,0,0,0,0,0,0,0,0,0,-0.261799,-5.43049e-07,-1.5,0,0,0,3,0,0,0,0,0,0,0,0,1.9603e-19
1830,-3.1147e-12,1.48299e-38,-1.51966e-06,-3.18057e-12,1.48287e-38,-3.62841e-12,-1.06638e-13,0,0,0,0,0,0,0,0,0,0,0,0,0,0,0,0,0,0,0,0,0,-0.261799,-5.25862e-07,-1.5,0,0,0,3,0,0,0,0,0,0,0,0,1.9603e-19
1840,-3.1147e-12,1.48299e-38,-1.51966e-06,-3.18057e-12,1.48287e-38,0,-1.06638e-13,0,0,0,0,0,0,0,0,0,0,0,0,0,0,0,0,0,0,0,0,0,-0.261799,-5.08196e-07,-1.5,0,0,0,3,0,0,0,0,0,0,0,0,1.9603e-19
1850,-3.1147e-12,1.48299e-38,-1.51966e-06,-3.18057e-12,1.48287e-38,-3.62841e-12,-1.06639e-13,0,0,0,0,0,0,0,0,0,0,0,0,0,0,0,0,0,0,0,0,0,-0.261799,-4.92111e-07,-1.5,0,0,0,3,0,0,0,0,0,0,0,0,1.9603e-19
1860,-3.1147e-12,1.48299e-38,-1.51966e-06,-3.18057e-12,1.48287e-38,0,-1.06639e-13,0,0,0,0,0,0,0,0,0,0,0,0,0,0,0,0,0,0,0,0,0,-0.261799,-4.76536e-07,-1.5,0,0,0,3,0,0,0,0,0,0,0,0,1.9603e-19
1870,-3.1147e-12,1.48299e-38,-1.51966e-06,-3.18057e-12,1.48287e-38,-3.62841e-12,-1.06639e-13,0,0,0,0,0,0,0,0,0,0,0,0,0,0,0,0,0,0,0,0,0,-0.261799,-4.61454e-07,-1.5,0,0,0,3,0,0,0,0,0,0,0,0,1.9603e-19
1880,-3.1147e-12,1.48299e-38,-1.51966e-06,-3.18057e-12,1.48287e-38,0,-1.06639e-13,0,0,0,0,0,0,0,0,0,0,0,0,0,0,0,0,0,0,0,0,0,-0.261799,-4.45941e-07,-1.5,0,0,0,3,0,0,0,0,0,0,0,0,1.9603e-19
1890,-3.1147e-12,1.48299e-38,-1.51966e-06,-3.18057e-12,1.48287e-38,-3.62841e-12,-1.0664e-13,0,0,0,0,0,0,0,0,0,0,0,0,0,0,0,0,0,0,0,0,0,-0.261799,-4.31827e-07,-1.5,0,0,0,3,0,0,0,0,0,0,0,0,1.9603e-19
1900,-3.1147e-12,1.48299e-38,-1.51966e-06,-3.18057e-12,1.48287e-38,0,-1.0664e-13,0,0,0,0,0,0,0,0,0,0,0,0,0,0,0,0,0,0,0,0,0,-0.261799,-4.1816e-07,-1.5,0,0,0,3,0,0,0,0,0,0,0,0,1.9603e-19
1910,-3.1147e-12,1.48299e-38,-1.51966e-06,-3.18057e-12,1.48287e-38,-3.62841e-12,-1.0664e-13,0,0,0,0,0,0,0,0,0,0,0,0,0,0,0,0,0,0,0,0,0,-0.261799,-4.04112e-07,-1.5,0,0,0,3,0,0,0,0,0,0,0,0,1.9603e-19
1920,-3.1147e-12,1.48299e-38,-1.51966e-06,-3.18057e-12,1.48287e-38,0,-1.06641e-13,0,0,0,0,0,0,0,0,0,0,0,0,0,0,0,0,0,0,0,0,0,-0.261799,-3.90527e-07,-1.5,0,0,0,3,0,0,0,0,0,0,0,0,1.9603e-19
1930,-3.1147e-12,1.48299e-38,-1.51966e-06,-3.18057e-12,1.48287e-38,-3.62841e-12,-1.06641e-13,0,0,0,0,0,0,0,0,0,0,0,0,0,0,0,0,0,0,0,0,0,-0.261799,-3.77398e-07,-1.5,0,0,0,3,0,0,0,0,0,0,0,0,1.9603e-19
1940,-3.1147e-12,1.48299e-38,-1.51966e-06,-3.18057e-12,1.48287e-38,0,-1.06641e-13,0,0,0,0,0,0,0,0,0,0,0,0,0,0,0,0,0,0,0,0,0,-0.261799,-3.65461e-07,-1.5,0,0,0,3,0,0,0,0,0,0,0,0,1.9603e-19
1950,-3.1147e-12,1.48299e-38,-1.51966e-06,-3.18057e-12,1.48287e-38,-3.62841e-12,-1.06641e-13,0,0,0,0,0,0,0,0,0,0,0,0,0,0,0,0,0,0,0,0,0,-0.261799,-3.54613e-07,-1.5,0,0,0,3,0,0,0,0,0,0,0,0,1.9603e-19
1960,-3.1147e-12,1.48299e-38,-1.51966e-06,-3.18057e-12,1.48287e-38,0,-1.06642e-13,0,0,0,0,0,0,0,0,0,0,0,0,0,0,0,0,0,0,0,0,0,-0.261799,-3.44088e-07,-1.5,0,0,0,3,0,0,0,0,0,0,0,0,1.9603e-19
1970,-3.1147e-12,1.48299e-38,-1.51966e-06,-3.18057e-12,1.48287e-38,-3.62841e-12,-1.06642e-13,0,0,0,0,0,0,0,0,0,0,0,0,0,0,0,0,0,0,0,0,0,-0.261799,-3.33197e-07,-1.5,0,0,0,3,0,0,0,0,0,0,0,0,1.9603e-19
1980,-3.1147e-12,1.48299e-38,-1.51966e-06,-3.18057e-12,1.48287e-38,0,-1.06642e-13,0,0,0,0,0,0,0,0,0,0,0,0,0,0,0,0,0,0,0,0,0,-0.261799,-3.22004e-07,-1.5,0,0,0,3,0,0,0,0,0,0,0,0,1.9603e-19
1990,-3.1147e-12,1.48299e-38,-1.51966e-06,-3.18057e-12,1.48287e-38,-3.62841e-12,-1.06642e-13,0,0,0,0,0,0,0,0,0,0,0,0,0,0,0,0,0,0,0,0,0,-0.261799,-3.11813e-07,-1.5,0,0,0,3,0,0,0,0,0,0,0,0,1.9603e-19
2000,-3.1147e-12,1.48299e-38,-1.51966e-06,-3.18057e-12,1.48287e-38,0,-1.06643e-13,0,0,0,0,0,0,0,0,0,0,0,0,0,0,0,0,0,0,0,0,0,-0.261799,-3.01337e-07,-1.5,0,0,0,3,0,0,0,0,0,0,0,0,1.9603e-19
2010,-3.1147e-12,1.48299e-38,-1.51966e-06,-3.18057e-12,1.48287e-38,-3.62841e-12,-1.06643e-13,0,0,0,0,0,0,0,0,0,0,0,0,0,0,0,0,0,0,0,0,0,-0.261799,-2.91214e-07,-1.5,0,0,0,3,0,0,0,0,0,0,0,0,1.9603e-19
2020,-3.1147e-12,1.48299e-38,-1.51966e-06,-3.18057e-12,1.48287e-38,0,-1.06643e-13,0,0,0,0,0,0,0,0,0,0,0,0,0,0,0,0,0,0,0,0,0,-0.261799,-2.82003e-07,-1.5,0,0,0,3,0,0,0,0,0,0,0,0,1.9603e-19
2030,-3.1147e-12,1.48299e-38,-1.51966e-06,-3.18057e-12,1.48287e-38,-3.62841e-12,-1.06644e-13,0,0,0,0,0,0,0,0,0,0,0,0,0,0,0,0,0,0,0,0,0,-0.261799,-2.72529e-07,-1.5,0,0,0,3,0,0,0,0,0,0,0,0,1.9603e-19
2040,-3.1147e-12,1.48299e-38,-1.51966e-06,-3.18057e-12,1.48287e-38,0,-1.06644e-13,0,0,0,0,0,0,0,0,0,0,0,0,0,0,0,0,0,0,0,0,0,-0.261799,-2.63374e-07,-1.5,0,0,0,3,0,0,0,0,0,0,0,0,1.9603e-19
2050,-3.1147e-12,1.48299e-38,-1.51966e-06,-3.18057e-12,1.48287e-38,-3.62841e-12,-1.06644e-13,0,0,0,0,0,0,0,0,0,0,0,0,0,0,0,0,0,0,0,0,0,-0.261799,-2.55043e-07,-1.5,0,0,0,3,0,0,0,0,0,0,0,0,1.9603e-19
2060,-3.1147e-12,1.48299e-38,-1.51966e-06,-3.18057e-12,1.48287e-38,0,-1.06644e-13,0,0,0,0,0,0,0,0,0,0,0,0,0,0,0,0,0,0,0,0,0,-0.261799,-2.46971e-07,-1.5,0,0,0,3,0,0,0,0,0,0,0,0,1.9603e-19
2070,-3.1147e-12,1.48299e-38,-1.51966e-06,-3.18057e-12,1.48287e-38,-3.62841e-12,-1.06645e-13,0,0,0,0,0,0,0,0,0,0,0,0,0,0,0,0,0,0,0,0,0,-0.261799,-2.39155e-07,-1.5,0,0,0,3,0,0,0,0,0,0,0,0,1.9603e-19
2080,-3.1147e-12,1.48299e-38,-1.51966e-06,-3.18057e-12,1.48287e-38,0,-1.06645e-13,0,0,0,0,0,0,0,0,0,0,0,0,0,0,0,0,0,0,0,0,0,-0.261799,-2.31121e-07,-1.5,0,0,0,3,0,0,0,0,0,0,0,0,1.9603e-19
2090,-3.1147e-12,1.48299e-38,-1.51966e-06,-3.18057e-12,1.48287e-38,-3.62841e-12,-1.06645e-13,0,0,0,0,0,0,0,0,0,0,0,0,0,0,0,0,0,0,0,0,0,-0.261799,-2.23806e-07,-1.5,0,0,0,3,0,0,0,0,0,0,0,0,1.9603e-19
2100,-3.1147e-12,1.48299e-38,-1.51966e-06,-3.18057e-12,1.48287e-38,0,-1.06645e-13,0,0,0,0,0,0,0,0,0,0,0,0,0,0,0,0,0,0,0,0,0,-0.261799,-2.16722e-07,-1.5,0,0,0,3,0,0,0,0,0,0,0,0,1.9603e-19
2110,-3.1147e-12,1.48299e-38,-1.51966e-06,-3.18057e-12,1.48287e-38,-3.62841e-12,-1.06646e-13,0,0,0,0,0,0,0,0,0,0,0,0,0,0,0,0,0,0,0,0,0,-0.261799,-2.09863e-07,-1.5,0,0,0,3,0,0,0,0,0,0,0,0,1.9603e-19
2120,-3.1147e-12,1.48299e-38,-1.51966e-06,-3.18057e-12,1.48287e-38,0,-1.06646e-13,0,0,0,0,0,0,0,0,0,0,0,0,0,0,0,0,0,0,0,0,0,-0.261799,-2.02813e-07,-1.5,0,0,0,3,0,0,0,0,0,0,0,0,1.9603e-19
2130,-3.1147e-12,1.48299e-38,-1.51966e-06,-3.18057e-12,1.48287e-38,-3.62841e-12,-1.06646e-13,0,0,0,0,0,0,0,0,0,0,0,0,0,0,0,0,0,0,0,0,0,-0.261799,-1.96394e-07,-1.5,0,0,0,3,0,0,0,0,0,0,0,0,1.9603e-19
2140,-3.1147e-12,1.48299e-38,-1.51966e-06,-3.18057e-12,1.48287e-38,0,-1.06647e-13,0,0,0,0,0,0,0,0,0,0,0,0,0,0,0,0,0,0,0,0,0,-0.261799,-1.89796e-07,-1.5,0,0,0,3,0,0,0,0,0,0,0,0,1.9603e-19
2150,-3.1147e-12,1.48299e-38,-1.51966e-06,-3.18057e-12,1.48287e-38,-3.62841e-12,-1.06647e-13,0,0,0,0,0,0,0,0,0,0,0,0,0,0,0,0,0,0,0,0,0,-0.261799,-1.84166e-07,-1.5,0,0,0,3,0,0,0,0,0,0,0,0,1.9603e-19
2160,-3.1147e-12,1.48299e-38,-1.51966e-06,-3.18057e-12,1.48287e-38,0,-1.06647e-13,0,0,0,0,0,0,0,0,0,0,0,0,0,0,0,0,0,0,0,0,0,-0.261799,-1.7834e-07,-1.5,0,0,0,3,0,0,0,0,0,0,0,0,1.9603e-19
2170,-3.1147e-12,1.48299e-38,-1.51966e-06,-3.18057e-12,1.48287e-38,-3.62841e-12,-1.06647e-13,0,0,0,0,0,0,0,0,0,0,0,0,0,0,0,0,0,0,0,0,0,-0.261799,-1.73047e-07,-1.5,0,0,0,3,0,0,0,0,0,0,0,0,1.9603e-19
2180,-3.1147e-12,1.48299e-38,-1.51966e-06,-3.18057e-12,1.48287e-38,0,-1.06648e-13,0,0,0,0,0,0,0,0,0,0,0,0,0,0,0,0,0,0,0,0,0,-0.261799,-1.67234e-07,-1.5,0,0,0,3,0,0,0,0,0,0,0,0,1.9603e-19
2190,-3.1147e-12,1.48299e-38,-1.51966e-06,-3.18057e-12,1.48287e-38,-3.62841e-12,-1.06648e-13,0,0,0,0,0,0,0,0,0,0,0,0,0,0,0,0,0,0,0,0,0,-0.261799,-1.61944e-07,-1.5,0,0,0,3,0,0,0,0,0,0,0,0,1.9603e-19
2200,-3.1147e-12,1.48299e-38,-1.51966e-06,-3.18057e-12,1.48287e-38,0,-1.06648e-13,0,0,0,0,0,0,0,0,0,0,0,0,0,0,0,0,0,0,0,0,0,-0.261799,-1.55231e-07,-1.5,0,0,0,3,0,0,0,0,0,0,0,0,1.9603e-19
2210,-3.1147e-12,1.48299e-38,-1.51966e-06,-3.18057e-12,1.48287e-38,-3.62841e-12,-1.06648e-13,0,0,0,0,0,0,0,0,0,0,0,0,0,0,0,0,0,0,0,0,0,-0.261799,-1.50318e-07,-1.5,0,0,0,3,0,0,0,0,0,0,0,0,1.9603e-19
2220,-3.1147e-12,1.48299e-38,-1.51966e-06,-3.18057e-12,1.48287e-38,0,-1.06649e-13,0,0,0,0,0,0,0,0,0,0,0,0,0,0,0,0,0,0,0,0,0,-0.261799,-1.45561e-07,-1.5,0,0,0,3,0,0,0,0,0,0,0,0,1.9603e-19
2230,-3.1147e-12,1.48299e-38,-1.51966e-06,-3.18057e-12,1.48287e-38,-3.62841e-12,-1.06649e-13,0,0,0,0,0,0,0,0,0,0,0,0,0,0,0,0,0,0,0,0,0,-0.261799,-1.40957e-07,-1.5,0,0,0,3,0,0,0,0,0,0,0,0,1.9603e-19
2240,-3.1147e-12,1.48299e-38,-1.51966e-06,-3.18057e-12,1.48287e-38,0,-1.06649e-13,0,0,0,0,0,0,0,0,0,0,0,0,0,0,0,0,0,0,0,0,0,-0.261799,-1.36221e-07,-1.5,0,0,0,3,0,0,0,0,0,0,0,0,1.9603e-19
2250,-3.1147e-12,1.48299e-38,-1.51966e-06,-3.18057e-12,1.48287e-38,-3.62841e-12,-1.06649e-13,0,0,0,0,0,0,0,0,0,0,0,0,0,0,0,0,0,0,0,0,0,-0.261799,-1.3191e-07,-1.5,0,0,0,3,0,0,0,0,0,0,0,0,1.9603e-19
2260,-3.1147e-12,1.48299e-38,-1.51966e-06,-3.18057e-12,1.48287e-38,0,-1.0665e-13,0,0,0,0,0,0,0,0,0,0,0,0,0,0,0,0,0,0,0,0,0,-0.261799,-1.27738e-07,-1.5,0,0,0,3,0,0,0,0,0,0,0,0,1.9603e-19
2270,-3.1147e-12,1.48299e-38,-1.51966e-06,-3.18057e-12,1.48287e-38,-3.62841e-12,-1.0665e-13,0,0,0,0,0,0,0,0,0,0,0,0,0,0,0,0,0,0,0,0,0,-0.261799,-1.23697e-07,-1.5,0,0,0,3,0,0,0,0,0,0,0,0,1.9603e-19
2280,-3.1147e-12,1.48299e-38,-1.51966e-06,-3.18057e-12,1.48287e-38,0,-1.0665e-13,0,0,0,0,0,0,0,0,0,0,0,0,0,0,0,0,0,0,0,0,0,-0.261799,-1.19542e-07,-1.5,0,0,0,3,0,0,0,0,0,0,0,0,1.9603e-19
2290,-3.1147e-12,1.48299e-38,-1.51966e-06,-3.18057e-12,1.48287e-38,-3.62841e-12,-1.06651e-13,0,0,0,0,0,0,0,0,0,0,0,0,0,0,0,0,0,0,0,0,0,-0.261799,-1.15526e-07,-1.5,0,0,0,3,0,0,0,0,0,0,0,0,1.9603e-19
2300,-3.1147e-12,1.48299e-38,-1.51966e-06,-3.18057e-12,1.48287e-38,0,-1.06651e-13,0,0,0,0,0,0,0,0,0,0,0,0,0,0,0,0,0,0,0,0,0,-0.261799,-1.11872e-07,-1.5,0,0,0,3,0,0,0,0,0,0,0,0,1.9603e-19
2310,-3.1147e-12,1.48299e-38,-1.51966e-06,-3.18057e-12,1.48287e-38,-3.62841e-12,-1.06651e-13,0,0,0,0,0,0,0,0,0,0,0,0,0,0,0,0,0,0,0,0,0,-0.261799,-1.08333e-07,-1.5,0,0,0,3,0,0,0,0,0,0,0,0,1.9603e-19
2320,-3.1147e-12,1.48299e-38,-1.51966e-06,-3.18057e-12,1.48287e-38,0,-1.06651e-13,0,0,0,0,0,0,0,0,0,0,0,0,0,0,0,0,0,0,0,0,0,-0.261799,-1.04694e-07,-1.5,0,0,0,3,0,0,0,0,0,0,0,0,1.9603e-19
2330,-3.1147e-12,1.48299e-38,-1.51966e-06,-3.18057e-12,1.48287e-38,-3.62841e-12,-1.06652e-13,0,0,0,0,0,0,0,0,0,0,0,0,0,0,0,0,0,0,0,0,0,-0.261799,-1.01177e-07,-1.5,0,0,0,3,0,0,0,0,0,0,0,0,1.9603e-19
2340,-3.1147e-12,1.48299e-38,-1.51966e-06,-3.18057e-12,1.48287e-38,0,-1.06652e-13,0,0,0,0,0,0,0,0,0,0,0,0,0,0,0,0,0,0,0,0,0,-0.261799,-9.79766e-08,-1.5,0,0,0,3,0,0,0,0,0,0,0,0,1.9603e-19
2350,-3.1147e-12,1.48299e-38,-1.51966e-06,-3.18057e-12,1.48287e-38,-3.62841e-12,-1.06652e-13,0,0,0,0,0,0,0,0,0,0,0,0,0,0,0,0,0,0,0,0,0,-0.261799,-9.46851e-08,-1.5,0,0,0,3,0,0,0,0,0,0,0,0,1.9603e-19
2360,-3.1147e-12,1.48299e-38,-1.51966e-06,-3.18057e-12,1.48287e-38,0,-1.06652e-13,0,0,0,0,0,0,0,0,0,0,0,0,0,0,0,0,0,0,0,0,0,-0.261799,-9.16902e-08,-1.5,0,0,0,3,0,0,0,0,0,0,0,0,1.9603e-19
2370,-3.1147e-12,1.48299e-38,-1.51966e-06,-3.18057e-12,1.48287e-38,-3.62841e-12,-1.06653e-13,0,0,0,0,0,0,0,0,0,0,0,0,0,0,0,0,0,0,0,0,0,-0.261799,-8.89687e-08,-1.5,0,0,0,3,0,0,0,0,0,0,0,0,1.9603e-19
2380,-3.1147e-12,1.48299e-38,-1.51966e-06,-3.18057e-12,1.48287e-38,0,-1.06653e-13,0,0,0,0,0,0,0,0,0,0,0,0,0,0,0,0,0,0,0,0,0,-0.261799,-8.6328e-08,-1.5,0,0,0,3,0,0,0,0,0,0,0,0,1.9603e-19
2390,-3.1147e-12,1.48299e-38,-1.51966e-06,-3.18057e-12,1.48287e-38,-3.62841e-12,-1.06653e-13,0,0,0,0,0,0,0,0,0,0,0,0,0,0,0,0,0,0,0,0,0,-0.261799,-8.34278e-08,-1.5,0,0,0,3,0,0,0,0,0,0,0,0,1.9603e-19
2400,-3.1147e-12,1.48299e-38,-1.51966e-06,-3.18057e-12,1.48287e-38,0,-1.06654e-13,0,0,0,0,0,0,0,0,0,0,0,0,0,0,0,0,0,0,0,0,0,-0.261799,-8.02974e-08,-1.5,0,0,0,3,0,0,0,0,0,0,0,0,1.9603e-19
2410,-3.1147e-12,1.48299e-38,-1.51966e-06,-3.18057e-12,1.48287e-38,-3.62841e-12,-1.06654e-13,0,0,0,0,0,0,0,0,0,0,0,0,0,0,0,0,0,0,0,0,0,-0.261799,-7.75999e-08,-1.5,0,0,0,3,0,0,0,0,0,0,0,0,1.9603e-19
2420,-3.1147e-12,1.48299e-38,-1.51966e-06,-3.18057e-12,1.48287e-38,0,-1.06654e-13,0,0,0,0,0,0,0,0,0,0,0,0,0,0,0,0,0,0,0,0,0,-0.261799,-7.51454e-08,-1.5,0,0,0,3,0,0,0,0,0,0,0,0,1.9603e-19
2430,-3.1147e-12,1.48299e-38,-1.51966e-06,-3.18057e-12,1.48287e-38,-3.62841e-12,-1.06654e-13,0,0,0,0,0,0,0,0,0,0,0,0,0,0,0,0,0,0,0,0,0,-0.261799,-7.27671e-08,-1.5,0,0,0,3,0,0,0,0,0,0,0,0,1.9603e-19
2440,-3.1147e-12,1.48299e-38,-1.51966e-06,-3.18057e-12,1.48287e-38,0,-1.06655e-13,0,0,0,0,0,0,0,0,0,0,0,0,0,0,0,0,0,0,0,0,0,-0.261799,-7.03208e-08,-1.5,0,0,0,3,0,0,0,0,0,0,0,0,1.9603e-19
2450,-3.1147e-12,1.48299e-38,-1.51966e-06,-3.18057e-12,1.48287e-38,-3.62841e-12,-1.06655e-13,0,0,0,0,0,0,0,0,0,0,0,0,0,0,0,0,0,0,0,0,0,-0.261799,-6.79584e-08,-1.5,0,0,0,3,0,0,0,0,0,0,0,0,1.9603e-19
2460,-3.1147e-12,1.48299e-38,-1.51966e-06,-3.18057e-12,1.48287e-38,0,-1.06655e-13,0,0,0,0,0,0,0,0,0,0,0,0,0,0,0,0,0,0,0,0,0,-0.261799,-6.58089e-08,-1.5,0,0,0,3,0,0,0,0,0,0,0,0,1.9603e-19
2470,-3.1147e-12,1.48299e-38,-1.51966e-06,-3.18057e-12,1.48287e-38,-3.62841e-12,-1.06655e-13,0,0,0,0,0,0,0,0,0,0,0,0,0,0,0,0,0,0,0,0,0,-0.261799,-6.3726e-08,-1.5,0,0,0,3,0,0,0,0,0,0,0,0,1.9603e-19
2480,-3.1147e-12,1.48299e-38,-1.51966e-06,-3.18057e-12,1.48287e-38,0,-1.06656e-13,0,0,0,0,0,0,0,0,0,0,0,0,0,0,0,0,0,0,0,0,0,-0.261799,-6.146e-08,-1.5,0,0,0,3,0,0,0,0,0,0,0,0,1.9603e-19
2490,-3.1147e-12,1.48299e-38,-1.51966e-06,-3.18057e-12,1.48287e-38,-3.62841e-12,-1.06656e-13,0,0,0,0,0,0,0,0,0,0,0,0,0,0,0,0,0,0,0,0,0,-0.261799,-5.95148e-08,-1.5,0,0,0,3,0,0,0,0,0,0,0,0,1.9603e-19
2500,-3.1147e-12,1.48299e-38,-1.51966e-06,-3.18057e-12,1.48287e-38,0,-1.06656e-13,0,0,0,0,0,0,0,0,0,0,0,0,0,0,0,0,0,0,0,0,0,-0.261799,-5.76312e-08,-1.5,0,0,0,3,0,0,0,0,0,0,0,0,1.9603e-19
2510,-3.1147e-12,1.48299e-38,-1.51966e-06,-3.18057e-12,1.48287e-38,-3.62841e-12,-1.06657e-13,0,0,0,0,0,0,0,0,0,0,0,0,0,0,0,0,0,0,0,0,0,-0.261799,-5.55819e-08,-1.5,0,0,0,3,0,0,0,0,0,0,0,0,1.9603e-19
2520,-3.1147e-12,1.48299e-38,-1.51966e-06,-3.18057e-12,1.48287e-38,0,-1.06657e-13,0,0,0,0,0,0,0,0,0,0,0,0,0,0,0,0,0,0,0,0,0,-0.261799,-5.37147e-08,-1.5,0,0,0,3,0,0,0,0,0,0,0,0,1.9603e-19
2530,-3.1147e-12,1.48299e-38,-1.51966e-06,-3.18057e-12,1.48287e-38,-3.62841e-12,-1.06657e-13,0,0,0,0,0,0,0,0,0,0,0,0,0,0,0,0,0,0,0,0,0,-0.261799,-5.20146e-08,-1.5,0,0,0,3,0,0,0,0,0,0,0,0,1.9603e-19
2540,-3.1147e-12,1.48299e-38,-1.51966e-06,-3.18057e-12,1.48287e-38,0,-1.06657e-13,0,0,0,0,0,0,0,0,0,0,0,0,0,0,0,0,0,0,0,0,0,-0.261799,-5.03684e-08,-1.5,0,0,0,3,0,0,0,0,0,0,0,0,1.9603e-19
2550,-3.1147e-12,1.48299e-38,-1.51966e-06,-3.18057e-12,1.48287e-38,-3.62841e-12,-1.06658e-13,0,0,0,0,0,0,0,0,0,0,0,0,0,0,0,0,0,0,0,0,0,-0.261799,-4.87742e-08,-1.5,0,0,0,3,0,0,0,0,0,0,0,0,1.9603e-19
2560,-3.1147e-12,1.48299e-38,-1.51966e-06,-3.18057e-12,1.48287e-38,0,-1.06658e-13,0,0,0,0,0,0,0,0,0,0,0,0,0,0,0,0,0,0,0,0,0,-0.261799,-4.68483e-08,-1.5,0,0,0,3,0,0,0,0,0,0,0,0,1.9603e-19
2570,-3.1147e-12,1.48299e-38,-1.51966e-06,-3.18057e-12,1.48287e-38,-3.62841e-12,-1.06658e-13,0,0,0,0,0,0,0,0,0,0,0,0,0,0,0,0,0,0,0,0,0,-0.261799,-4.52733e-08,-1.5,0,0,0,3,0,0,0,0,0,0,0,0,1.9603e-19
2580,-3.1147e-12,1.48299e-38,-1.51966e-06,-3.18057e-12,1.48287e-38,0,-1.06658e-13,0,0,0,0,0,0,0,0,0,0,0,0,0,0,0,0,0,0,0,0,0,-0.261799,-4.39296e-08,-1.5,0,0,0,3,0,0,0,0,0,0,0,0,1.9603e-19
2590,-3.1147e-12,1.48299e-38,-1.51966e-06,-3.18057e-12,1.48287e-38,-3.62841e-12,-1.06659e-13,0,0,0,0,0,0,0,0,0,0,0,0,0,0,0,0,0,0,0,0,0,-0.261799,-4.26257e-08,-1.5,0,0,0,3,0,0,0,0,0,0,0,0,1.9603e-19
2600,-3.1147e-12,1.48299e-38,-1.51966e-06,-3.18057e-12,1.48287e-38,0,-1.06659e-13,0,0,0,0,0,0,0,0,0,0,0,0,0,0,0,0,0,0,0,0,0,-0.261799,-4.11927e-08,-1.5,0,0,0,3,0,0,0,0,0,0,0,0,1.9603e-19
2610,-3.1147e-12,1.48299e-38,-1.51966e-06,-3.18057e-12,1.48287e-38,-3.62841e-12,-1.06659e-13,0,0,0,0,0,0,0,0,0,0,0,0,0,0,0,0,0,0,0,0,0,-0.261799,-3.98088e-08,-1.5,0,0,0,3,0,0,0,0,0,0,0,0,1.9603e-19
2620,-3.1147e-12,1.48299e-38,-1.51966e-06,-3.18057e-12,1.48287e-38,0,-1.0666e-13,0,0,0,0,0,0,0,0,0,0,0,0,0,0,0,0,0,0,0,0,0,-0.261799,-3.85489e-08,-1.5,0,0,0,3,0,0,0,0,0,0,0,0,1.9603e-19
2630,-3.1147e-12,1.48299e-38,-1.51966e-06,-3.18057e-12,1.48287e-38,-3.62841e-12,-1.0666e-13,0,0,0,0,0,0,0,0,0,0,0,0,0,0,0,0,0,0,0,0,0,-0.261799,-3.73288e-08,-1.5,0,0,0,3,0,0,0,0,0,0,0,0,1.9603e-19
2640,-3.1147e-12,1.48299e-38,-1.51966e-06,-3.18057e-12,1.48287e-38,0,-1.0666e-13,0,0,0,0,0,0,0,0,0,0,0,0,0,0,0,0,0,0,0,0,0,-0.261799,-3.60015e-08,-1.5,0,0,0,3,0,0,0,0,0,0,0,0,1.9603e-19
2650,-3.1147e-12,1.48299e-38,-1.51966e-06,-3.18057e-12,1.48287e-38,-3.62841e-12,-1.0666e-13,0,0,0,0,0,0,0,0,0,0,0,0,0,0,0,0,0,0,0,0,0,-0.261799,-3.4862e-08,-1.5,0,0,0,3,0,0,0,0,0,0,0,0,1.9603e-19
2660,-3.1147e-12,1.48299e-38,-1.51966e-06,-3.18057e-12,1.48287e-38,0,-1.06661e-13,0,0,0,0,0,0,0,0,0,0,0,0,0,0,0,0,0,0,0,0,0,-0.261799,-3.37586e-08,-1.5,0,0,0,3,0,0,0,0,0,0,0,0,1.9603e-19
2670,-3.1147e-12,1.48299e-38,-1.51966e-06,-3.18057e-12,1.48287e-38,-3.62841e-12,-1.06661e-13,0,0,0,0,0,0,0,0,0,0,0,0,0,0,0,0,0,0,0,0,0,-0.261799,-3.26245e-08,-1.5,0,0,0,3,0,0,0,0,0,0,0,0,1.9603e-19
2680,-3.1147e-12,1.48299e-38,-1.51966e-06,-3.18057e-12,1.48287e-38,0,-1.06661e-13,0,0,0,0,0,0,0,0,0,0,0,0,0,0,0,0,0,0,0,0,0,-0.261799,-3.15286e-08,-1.5,0,0,0,3,0,0,0,0,0,0,0,0,1.9603e-19
2690,-3.11471e-12,1.48076e-38,1.48307e-38,-3.18057e-12,1.48287e-38,-3.62841e-12,-1.06661e-13,0,0,0,0,0,0,0,0,0,0,0,0,0,0,0,0,0,0,0,0,0,-0.261799,-3.05313e-08,-1.5,0,0,0,3,0,0,0,0,0,0,0,0,1.9603e-19
2700,-3.1147e-12,1.48299e-38,-1.51966e-06,-3.18057e-12,1.48287e-38,0,-1.06662e-13,0,0,0,0,0,0,0,0,0,0,0,0,0,0,0,0,0,0,0,0,0,-0.261799,-2.9565e-08,-1.5,0,0,0,3,0,0,0,0,0,0,0,0,1.9603e-19
2710,-3.1147e-12,1.48299e-38,-1.51966e-06,-3.18057e-12,1.48287e-38,-3.62841e-12,-1.06662e-13,0,0,0,0,0,0,0,0,0,0,0,0,0,0,0,0,0,0,0,0,0,-0.261799,-2.85718e-08,-1.5,0,0,0,3,0,0,0,0,0,0,0,0,1.9603e-19
2720,-3.1147e-12,1.48299e-38,-1.51966e-06,-3.18057e-12,1.48287e-38,0,-1.06662e-13,0,0,0,0,0,0,0,0,0,0,0,0,0,0,0,0,0,0,0,0,0,-0.261799,-2.75558e-08,-1.5,0,0,0,3,0,0,0,0,0,0,0,0,1.9603e-19
2730,-3.1147e-12,1.48299e-38,-1.51966e-06,-3.18057e-12,1.48287e-38,-3.62841e-12,-1.06663e-13,0,0,0,0,0,0,0,0,0,0,0,0,0,0,0,0,0,0,0,0,0,-0.261799,-2.66301e-08,-1.5,0,0,0,3,0,0,0,0,0,0,0,0,1.9603e-19
2740,-3.1147e-12,1.48299e-38,-1.51966e-06,-3.18057e-12,1.48287e-38,0,-1.06663e-13,0,0,0,0,0,0,0,0,0,0,0,0,0,0,0,0,0,0,0,0,0,-0.261799,-2.57878e-08,-1.5,0,0,0,3,0,0,0,0,0,0,0,0,1.9603e-19
2750,-3.1147e-12,1.48299e-38,-1.51966e-06,-3.18057e-12,1.48287e-38,-3.62841e-12,-1.06663e-13,0,0,0,0,0,0,0,0,0,0,0,0,0,0,0,0,0,0,0,0,0,-0.261799,-2.50224e-08,-1.5,0,0,0,3,0,0,0,0,0,0,0,0,1.9603e-19
2760,-3.1147e-12,1.48299e-38,-1.51966e-06,-3.18057e-12,1.48287e-38,0,-1.06663e-13,0,0,0,0,0,0,0,0,0,0,0,0,0,0,0,0,0,0,0,0,0,-0.261799,-2.41817e-08,-1.5,0,0,0,3,0,0,0,0,0,0,0,0,1.9603e-19
2770,-3.1147e-12,1.48299e-38,-1.51966e-06,-3.18057e-12,1.48287e-38,-3.62841e-12,-1.06664e-13,0,0,0,0,0,0,0,0,0,0,0,0,0,0,0,0,0,0,0,0,0,-0.261799,-2.34164e-08,-1.5,0,0,0,3,0,0,0,0,0,0,0,0,1.9603e-19
2780,-3.1147e-12,1.48299e-38,-1.51966e-06,-3.18057e-12,1.48287e-38,0,-1.06664e-13,0,0,0,0,0,0,0,0,0,0,0,0,0,0,0,0,0,0,0,0,0,-0.261799,-2.26292e-08,-1.5,0,0,0,3,0,0,0,0,0,0,0,0,1.9603e-19
2790,-3.1147e-12,1.48299e-38,-1.51966e-06,-3.18057e-12,1.48287e-38,-3.62841e-12,-1.06664e-13,0,0,0,0,0,0,0,0,0,0,0,0,0,0,0,0,0,0,0,0,0,-0.261799,-2.19575e-08,-1.5,0,0,0,3,0,0,0,0,0,0,0,0,1.9603e-19
2800,-3.1147e-12,1.48299e-38,-1.51966e-06,-3.18057e-12,1.48287e-38,0,-1.06664e-13,0,0,0,0,0,0,0,0,0,0,0,0,0,0,0,0,0,0,0,0,0,-0.261799,-2.12199e-08,-1.5,0,0,0,3,0,0,0,0,0,0,0,0,1.9603e-19
2810,-3.1147e-12,1.48299e-38,-1.51966e-06,-3.18057e-12,1.48287e-38,-3.62841e-12,-1.06665e-13,0,0,0,0,0,0,0,0,0,0,0,0,0,0,0,0,0,0,0,0,0,-0.261799,-2.059e-08,-1.5,0,0,0,3,0,0,0,0,0,0,0,0,1.9603e-19
2820,-3.1147e-12,1.48299e-38,-1.51966e-06,-3.18057e-12,1.48287e-38,0,-1.06665e-13,0,0,0,0,0,0,0,0,0,0,0,0,0,0,0,0,0,0,0,0,0,-0.261799,-1.99384e-08,-1.5,0,0,0,3,0,0,0,0,0,0,0,0,1.9603e-19
2830,-3.1147e-12,1.48299e-38,-1.51966e-06,-3.18057e-12,1.48287e-38,-3.62841e-12,-1.06665e-13,0,0,0,0,0,0,0,0,0,0,0,0,0,0,0,0,0,0,0,0,0,-0.261799,-1.92685e-08,-1.5,0,0,0,3,0,0,0,0,0,0,0,0,1.9603e-19
2840,-3.1147e-12,1.48299e-38,-1.51966e-06,-3.18057e-12,1.48287e-38,0,-1.06665e-13,0,0,0,0,0,0,0,0,0,0,0,0,0,0,0,0,0,0,0,0,0,-0.261799,-1.86208e-08,-1.5,0,0,0,3,0,0,0,0,0,0,0,0,1.9603e-19
2850,-3.1147e-12,1.48299e-38,-1.51966e-06,-3.18057e-12,1.48287e-38,-3.62841e-12,-1.06666e-13,0,0,0,0,0,0,0,0,0,0,0,0,0,0,0,0,0,0,0,0,0,-0.261799,-1.80314e-08,-1.5,0,0,0,3,0,0,0,0,0,0,0,0,1.9603e-19
2860,-3.1147e-12,1.48299e-38,-1.51966e-06,-3.18057e-12,1.48287e-38,0,-1.06666e-13,0,0,0,0,0,0,0,0,0,0,0,0,0,0,0,0,0,0,0,0,0,-0.261799,-1.74257e-08,-1.5,0,0,0,3,0,0,0,0,0,0,0,0,1.9603e-19
2870,-3.1147e-12,1.48299e-38,-1.51966e-06,-3.18057e-12,1.48287e-38,-3.62841e-12,-1.06666e-13,0,0,0,0,0,0,0,0,0,0,0,0,0,0,0,0,0,0,0,0,0,-0.261799,-1.68745e-08,-1.5,0,0,0,3,0,0,0,0,0,0,0,0,1.9603e-19
2880,-3.1147e-12,1.48299e-38,-1.51966e-06,-3.18057e-12,1.48287e-38,0,-1.06667e-13,0,0,0,0,0,0,0,0,0,0,0,0,0,0,0,0,0,0,0,0,0,-0.261799,-1.6274e-08,-1.5,0,0,0,3,0,0,0,0,0,0,0,0,1.9603e-19
2890,-3.1147e-12,1.48299e-38,-1.51966e-06,-3.18057e-12,1.48287e-38,-3.62841e-12,-1.06667e-13,0,0,0,0,0,0,0,0,0,0,0,0,0,0,0,0,0,0,0,0,0,-0.261799,-1.57589e-08,-1.5,0,0,0,3,0,0,0,0,0,0,0,0,1.9603e-19
2900,-3.1147e-12,1.48299e-38,-1.51966e-06,-3.18057e-12,1.48287e-38,0,-1.06667e-13,0,0,0,0,0,0,0,0,0,0,0,0,0,0,0,0,0,0,0,0,0,-0.261799,-1.52602e-08,-1.5,0,0,0,3,0,0,0,0,0,0,0,0,1.9603e-19
2910,-3.1147e-12,1.48299e-38,-1.51966e-06,-3.18057e-12,1.48287e-38,-3.62841e-12,-1.06667e-13,0,0,0,0,0,0,0,0,0,0,0,0,0,0,0,0,0,0,0,0,0,-0.261799,-1.47475e-08,-1.5,0,0,0,3,0,0,0,0,0,0,0,0,1.9603e-19
2920,-3.1147e-12,1.48299e-38,-1.51966e-06,-3.18057e-12,1.48287e-38,0,-1.06668e-13,0,0,0,0,0,0,0,0,0,0,0,0,0,0,0,0,0,0,0,0,0,-0.261799,-1.42521e-08,-1.5,0,0,0,3,0,0,0,0,0,0,0,0,1.9603e-19
2930,-3.1147e-12,1.48299e-38,-1.51966e-06,-3.18057e-12,1.48287e-38,-3.62841e-12,-1.06668e-13,0,0,0,0,0,0,0,0,0,0,0,0,0,0,0,0,0,0,0,0,0,-0.261799,-1.3801e-08,-1.5,0,0,0,3,0,0,0,0,0,0,0,0,1.9603e-19
2940,-3.1147e-12,1.48299e-38,-1.51966e-06,-3.18057e-12,1.48287e-38,0,-1.06668e-13,0,0,0,0,0,0,0,0,0,0,0,0,0,0,0,0,0,0,0,0,0,-0.261799,-1.33374e-08,-1.5,0,0,0,3,0,0,0,0,0,0,0,0,1.9603e-19
2950,-3.1147e-12,1.48299e-38,-1.51966e-06,-3.18057e-12,1.48287e-38,-3.62841e-12,-1.06668e-13,0,0,0,0,0,0,0,0,0,0,0,0,0,0,0,0,0,0,0,0,0,-0.261799,-1.29155e-08,-1.5,0,0,0,3,0,0,0,0,0,0,0,0,1.9603e-19
2960,-3.1147e-12,1.48299e-38,-1.51966e-06,-3.18057e-12,1.48287e-38,0,-1.06669e-13,0,0,0,0,0,0,0,0,0,0,0,0,0,0,0,0,0,0,0,0,0,-0.261799,-1.24563e-08,-1.5,0,0,0,3,0,0,0,0,0,0,0,0,1.9603e-19
2970,-3.1147e-12,1.48299e-38,-1.51966e-06,-3.18057e-12,1.48287e-38,-3.62841e-12,-1.06669e-13,0,0,0,0,0,0,0,0,0,0,0,0,0,0,0,0,0,0,0,0,0,-0.261799,-1.20623e-08,-1.5,0,0,0,3,0,0,0,0,0,0,0,0,1.9603e-19
2980,-3.1147e-12,1.48299e-38,-1.51966e-06,-3.18057e-12,1.48287e-38,0,-1.06669e-13,0,0,0,0,0,0,0,0,0,0,0,0,0,0,0,0,0,0,0,0,0,-0.261799,-1.16807e-08,-1.5,0,0,0,3,0,0,0,0,0,0,0,0,1.9603e-19
2990,-3.1147e-12,1.48299e-38,-1.51966e-06,-3.18057e-12,1.48287e-38,-3.62841e-12,-1.0667e-13,0,0,0,0,0,0,0,0,0,0,0,0,0,0,0,0,0,0,0,0,0,-0.261799,-1.12883e-08,-1.5,0,0,0,3,0,0,0,0,0,0,0,0,1.9603e-19
3000,-3.1147e-12,1.48299e-38,-1.51966e-06,-3.18057e-12,1.48287e-38,0,-1.0667e-13,0,0,0,0,0,0,0,0,0,0,0,0,0,0,0,0,0,0,0,0,0,-0.261799,-1.09313e-08,-1.5,0,0,0,3,0,0,0,0,0,0,0,0,1.9603e-19
3010,-3.1147e-12,1.48299e-38,-1.51966e-06,-3.18057e-12,1.48287e-38,-3.62841e-12,-1.0667e-13,0,0,0,0,0,0,0,0,0,0,0,0,0,0,0,0,0,0,0,0,0,-0.261799,-1.05855e-08,-1.5,0,0,0,3,0,0,0,0,0,0,0,0,1.9603e-19
3020,-3.1147e-12,1.48299e-38,-1.51966e-06,-3.18057e-12,1.48287e-38,0,-1.0667e-13,0,0,0,0,0,0,0,0,0,0,0,0,0,0,0,0,0,0,0,0,0,-0.261799,-1.02715e-08,-1.5,0,0,0,3,0,0,0,0,0,0,0,0,1.9603e-19
3030,-3.1147e-12,1.48299e-38,-1.51966e-06,-3.18057e-12,1.48287e-38,-3.62841e-12,-1.06671e-13,0,0,0,0,0,0,0,0,0,0,0,0,0,0,0,0,0,0,0,0,0,-0.261799,-9.94661e-09,-1.5,0,0,0,3,0,0,0,0,0,0,0,0,1.9603e-19
3040,-3.1147e-12,1.48299e-38,-1.51966e-06,-3.18057e-12,1.48287e-38,0,-1.06671e-13,0,0,0,0,0,0,0,0,0,0,0,0,0,0,0,0,0,0,0,0,0,-0.261799,-9.57339e-09,-1.5,0,0,0,3,0,0,0,0,0,0,0,0,1.9603e-19
3050,-3.1147e-12,1.48299e-38,-1.51966e-06,-3.18057e-12,1.48287e-38,-3.62841e-12,-1.06671e-13,0,0,0,0,0,0,0,0,0,0,0,0,0,0,0,0,0,0,0,0,0,-0.261799,-9.27039e-09,-1.5,0,0,0,3,0,0,0,0,0,0,0,0,1.9603e-19
3060,-3.1147e-12,1.48299e-38,-1.51966e-06,-3.18057e-12,1.48287e-38,0,-1.06671e-13,0,0,0,0,0,0,0,0,0,0,0,0,0,0,0,0,0,0,0,0,0,-0.261799,-8.97698e-09,-1.5,0,0,0,3,0,0,0,0,0,0,0,0,1.9603e-19
3070,-3.1147e-12,1.48299e-38,-1.51966e-06,-3.18057e-12,1.48287e-38,-3.62841e-12,-1.06672e-13,0,0,0,0,0,0,0,0,0,0,0,0,0,0,0,0,0,0,0,0,0,-0.261799,-8.67541e-09,-1.5,0,0,0,3,0,0,0,0,0,0,0,0,1.9603e-19
3080,-3.1147e-12,1.48299e-38,-1.51966e-06,-3.18057e-12,1.48287e-38,0,-1.06672e-13,0,0,0,0,0,0,0,0,0,0,0,0,0,0,0,0,0,0,0,0,0,-0.261799,-8.40083e-09,-1.5,0,0,0,3,0,0,0,0,0,0,0,0,1.9603e-19
3090,-3.1147e-12,1.48299e-38,-1.51966e-06,-3.18057e-12,1.48287e-38,-3.62841e-12,-1.06672e-13,0,0,0,0,0,0,0,0,0,0,0,0,0,0,0,0,0,0,0,0,0,-0.261799,-8.13495e-09,-1.5,0,0,0,3,0,0,0,0,0,0,0,0,1.9603e-19
3100,-3.1147e-12,1.48299e-38,-1.51966e-06,-3.18057e-12,1.48287e-38,0,-1.06673e-13,0,0,0,0,0,0,0,0,0,0,0,0,0,0,0,0,0,0,0,0,0,-0.261799,-7.86147e-09,-1.5,0,0,0,3,0,0,0,0,0,0,0,0,1.9603e-19
3110,-3.1147e-12,1.48299e-38,-1.51966e-06,-3.18057e-12,1.48287e-38,-3.62841e-12,-1.06673e-13,0,0,0,0,0,0,0,0,0,0,0,0,0,0,0,0,0,0,0,0,0,-0.261799,-7.61266e-09,-1.5,0,0,0,3,0,0,0,0,0,0,0,0,1.9603e-19
