timestamp,A_x,A_y,A_z,P,Q,R,Phi,Theta,Psi,poseX,poseY,poseZ,state_X,state_Y,state_Z,state_VzB,state_Bx,state_By,state_Bz,p1_x,p1_y,p2_x,p2_y,p3_x,p3_y,p4_x,p4_y,roll,pitch,yaw,alt,targetHeading,highLevelState,lowLevelState,gateNumber,filtered_x,filtered_y,x_OT,y_OT,vx_OT,vy_OTfiltered_vx,filtered_vy
10,0,0,0,0,0,0,0,0,0,0,0,0,0,0,0,0,0,0,0,0,0,0,0,0,0,0,0,0,-0.261799,0.00779127,-1.5,0,0,0,3,0,0,0,0,0,0,0,0
20,0,0,0,0,0,0,0,0,0,0,0,0,0,0,0,0,0,0,0,0,0,0,0,0,0,0,0,0,-0.261799,0.00752934,-1.5,0,0,0,3,0,0,0,0,0,0,0,0
30,-3.1147e-12,1.68751e-38,-1.50476e-06,-3.18057e-12,1.6874e-38,-3.59999e-12,-1.06589e-13,0,0,0,0,0,0,0,0,0,0,0,0,0,0,0,0,0,0,0,0,0,-0.261799,0.00174515,-1.5,0,0,0,3,0,0,0,0,0,0,0,0
40,-3.1147e-12,1.68751e-38,-1.50476e-06,-3.18057e-12,1.6874e-38,0,-1.0659e-13,0,0,0,0,0,0,0,0,0,0,0,0,0,0,0,0,0,0,0,0,0,-0.261799,0.00169679,-1.5,0,0,0,3,0,0,0,0,0,0,0,0
50,-3.1147e-12,1.68751e-38,-1.50476e-06,-3.18057e-12,1.6874e-38,-3.59999e-12,-1.0659e-13,0,0,0,0,0,0,0,0,0,0,0,0,0,0,0,0,0,0,0,0,0,-0.261799,0.00162639,-1.5,0,0,0,3,0,0,0,0,0,0,0,0
60,-3.1147e-12,1.68751e-38,-1.50476e-06,-3.18057e-12,1.6874e-38,0,-1.0659e-13,0,0,0,0,0,0,0,0,0,0,0,0,0,0,0,0,0,0,0,0,0,-0.261799,0.00155891,-1.5,0,0,0,3,0,0,0,0,0,0,0,0
70,-3.1147e-12,1.68751e-38,-1.50476e-06,-3.18057e-12,1.6874e-38,-3.59999e-12,-1.0659e-13,0,0,0,0,0,0,0,0,0,0,0,0,0,0,0,0,0,0,0,0,0,-0.261799,0.0014973,-1.5,0,0,0,3,0,0,0,0,0,0,0,0
80,-3.1147e-12,1.68751e-38,-1.50476e-06,-3.18057e-12,1.6874e-38,0,-1.06591e-13,0,0,0,0,0,0,0,0,0,0,0,0,0,0,0,0,0,0,0,0,0,-0.261799,0.00144111,-1.5,0,0,0,3,0,0,0,0,0,0,0,0
90,-3.1147e-12,1.68751e-38,-1.50476e-06,-3.18057e-12,1.6874e-38,-3.59999e-12,-1.06591e-13,0,0,0,0,0,0,0,0,0,0,0,0,0,0,0,0,0,0,0,0,0,-0.261799,0.00129646,-1.5,0,0,0,3,0,0,0,0,0,0,0,0
100,-3.1147e-12,1.68751e-38,-1.50476e-06,-3.18057e-12,1.6874e-38,0,-1.06591e-13,0,0,-3.15897,0.133627,-0.0851452,0,0,0,0,0,0.288228,0.133627,-1367900288,468368684,-1367900288,468368684,788184133,-1367900288,-1367900256,-1367900256,0,-0.261799,0.00119674,-1.5,0,0,0,3,0,0,0,0,0,0,0,0
110,-3.1147e-12,1.68751e-38,-1.50476e-06,-3.18057e-12,1.6874e-38,-3.59999e-12,-1.06591e-13,0,0,-3.17753,0.156851,-0.0599022,0,0,0,0,0,0.27067,0.156851,-1367900288,468368684,-1367900288,468368684,788184133,-1367900288,-1367900256,-1367900256,0,-0.261799,0.00114944,-1.5,0,0,0,3,0,0,0,0,0,0,0,0
120,-3.1147e-12,1.68751e-38,-1.50476e-06,-3.18057e-12,1.6874e-38,0,-1.06592e-13,0,0,-3.15835,0.151092,-0.0715685,0,0,0,0,0,0.292099,0.151092,-1367900288,468368684,-1367900288,468368684,788184133,-1367900288,-1367900256,-1367900256,0,-0.261799,0.00109722,-1.5,0,0,0,3,0,0,0,0,0,0,0,0
130,-3.1147e-12,1.68751e-38,-1.50476e-06,-3.18057e-12,1.6874e-38,-3.59999e-12,-1.06592e-13,0,0,-3.12619,0.149567,-0.0717191,0,0,0,0,0,0.329493,0.149567,-1367900288,468368684,-1367900288,468368684,788184133,-1367900288,-1367900256,-1367900256,0,-0.261799,0.000984751,-1.5,0,0,0,3,0,0,0,0,0,0,0,0
140,-3.1147e-12,1.68751e-38,-1.50476e-06,-3.18057e-12,1.6874e-38,0,-1.06592e-13,0,0,-3.1544,0.151371,-0.0645392,0,0,0,0,0,0.296778,0.151371,-1367900288,468368684,-1367900288,468368684,788184133,-1367900288,-1367900256,-1367900256,-0.230134,-0.261799,0.00092873,-1.5,0,0,0,3,0.297388,0.151407,0,0,0,0,0.0508588,0.00302529
150,-3.1147e-12,1.68751e-38,-1.50476e-06,-3.18057e-12,1.6874e-38,-3.59999e-12,-1.06593e-13,0,0,-3.1544,0.151371,-0.0645392,0,0,0,0,0,0.296778,0.151371,-1367900288,468368684,-1367900288,468368684,788184133,-1367900288,-1367900256,-1367900256,-0.230229,-0.261799,0.000890197,-1.5,0,0,0,3,0.298456,0.15147,0,0,0,0,0.0508588,0.00302529
160,-3.1147e-12,1.68751e-38,-1.50476e-06,-3.18057e-12,1.6874e-38,0,-1.06593e-13,0,0,-3.12826,0.140993,-0.0773287,0,0,0,0,0,0.325519,0.140993,-1367900288,468368684,-1367900288,468368684,788184133,-1367900288,-1367900256,-1367900256,-0.0982174,-0.261799,0.000846303,-1.5,0,0,0,3,0.332202,0.138891,0,0,0,0,0.267357,-0.0840656
170,-3.1147e-12,1.68751e-38,-1.50476e-06,-3.18057e-12,1.6874e-38,-3.59999e-12,-1.06593e-13,0,0,-3.12207,0.129428,-0.0824127,0,0,0,0,0,0.330662,0.129428,-1367900288,468368684,-1367900288,468368684,788184133,-1367900288,-1367900256,-1367900256,-0.095203,-0.261799,0.000806192,-1.5,0,0,0,3,0.336832,0.136874,0,0,0,0,0.257088,-0.0840657
180,-3.1147e-12,1.68751e-38,-1.50476e-06,-3.18057e-12,1.6874e-38,0,-1.06593e-13,0,0,-3.16042,0.10644,-0.0680089,0,0,0,0,0,0.281621,0.10644,-1367900288,468368684,-1367900288,468368684,788184133,-1367900288,-1367900256,-1367900256,0.0276678,-0.261799,0.000769665,-1.5,0,0,0,3,0.342745,0.121846,0,0,0,0,0.257087,-0.161312
190,-3.1147e-12,1.68751e-38,-1.50476e-06,-3.18057e-12,1.6874e-38,-3.59999e-12,-1.06594e-13,0,0,-3.16042,0.10644,-0.0680089,0,0,0,0,0,0.281621,0.10644,-1367900288,468368684,-1367900288,468368684,788184133,-1367900288,-1367900256,-1367900256,0.0317648,-0.261799,0.000745305,-1.5,0,0,0,3,0.347116,0.119104,0,0,0,0,0.257087,-0.161312
200,-3.1147e-12,1.68751e-38,-1.50476e-06,-3.18057e-12,1.6874e-38,0,-1.06596e-13,0,0,-3.13924,0.0565345,-0.0780121,0,0,0,0,0,0.297369,0.0565345,-1367900288,468368684,-1367900288,468368684,788184133,-1367900288,-1367900256,-1367900256,0.175608,-0.261799,0.000714452,-1.5,0,0,0,3,0.298294,0.0957794,0,0,0,0,0.0222025,-0.245156
210,-3.1147e-12,1.68751e-38,-1.50476e-06,-3.18057e-12,1.6874e-38,-3.59999e-12,-1.06594e-13,0,0,-3.13924,0.0565345,-0.0780121,0,0,0,0,0,0.297369,0.0565345,-1367900288,468368684,-1367900288,468368684,788184133,-1367900288,-1367900256,-1367900256,0.182567,-0.261799,0.000687621,-1.5,0,0,0,3,0.298716,0.0911215,0,0,0,0,0.0222025,-0.245156
220,-3.1147e-12,1.68751e-38,-1.50476e-06,-3.18057e-12,1.6874e-38,0,-1.06597e-13,0,0,-3.15372,0.0547771,-0.0670197,0,0,0,0,0,0.280135,0.0547771,-1367900288,468368684,-1367900288,468368684,788184133,-1367900288,-1367900256,-1367900256,0.190492,-0.261799,0.000651015,-1.5,0,0,0,3,0.299315,0.0845283,0,0,0,0,0.0222023,-0.243675
230,-3.1147e-12,1.68751e-38,-1.50476e-06,-3.18057e-12,1.6874e-38,-3.59999e-12,-1.06594e-13,0,0,-4.16554,-4.45453,-0.00969401,0,0,0,0,0,-1.57957,-4.45453,-1367900288,468368684,-1367900288,468368684,788184133,-1367900288,-1367900256,-1367900256,0.14777,-0.261799,0.000616357,-1.5,0,0,0,3,0.296881,0.087573,0,0,0,0,-0.0102924,-0.21431
240,-3.1147e-12,1.68751e-38,-1.50476e-06,-3.18057e-12,1.6874e-38,0,-1.06594e-13,0,0,-3.12799,0.0447537,-0.0792984,0,0,0,0,0,0.308374,0.0447537,-1367900288,468368684,-1367900288,468368684,788184133,-1367900288,-1367900256,-1367900256,0.261799,-0.261799,0.000586039,-1.5,0,0,0,3,0.302301,0.042195,0,0,0,0,0.0234514,-0.349485
250,-3.1147e-12,1.68751e-38,-1.50476e-06,-3.18057e-12,1.6874e-38,-3.59999e-12,-1.06597e-13,0,0,-3.12799,0.0447537,-0.0792984,0,0,0,0,0,0.308374,0.0447537,-1367900288,468368684,-1367900288,468368684,788184133,-1367900288,-1367900256,-1367900256,0.261799,-0.261799,0.000562898,-1.5,0,0,0,3,0.30277,0.0352053,0,0,0,0,0.0234514,-0.349485
260,-3.11472e-12,1.68528e-38,1.68611e-38,-3.18057e-12,1.6874e-38,0,-1.06595e-13,0,0,-3.12395,0.0566764,-0.0776045,0,0,0,0,0,0.315263,0.0566764,-1367900288,468368684,-1367900288,468368684,788184133,-1367900288,-1367900256,-1367900256,0.261799,-0.261799,0.000534037,-1.5,0,0,0,3,0.310681,0.0516912,0,0,0,0,0.0619988,-0.270539
270,-3.1147e-12,1.68751e-38,-1.50476e-06,-3.18057e-12,1.6874e-38,-3.59999e-12,-1.06596e-13,0,0,-3.14645,0.0726125,-0.0550136,0,0,0,0,0,0.291846,0.0726125,-1367900288,468368684,-1367900288,468368684,788184133,-1367900288,-1367900256,-1367900256,0.261799,-0.261799,0.000507704,-1.5,0,0,0,3,0.30586,0.0461787,0,0,0,0,0.0330364,-0.271376
280,-3.1147e-12,1.68751e-38,-1.50476e-06,-3.18057e-12,1.6874e-38,0,-1.06595e-13,0,0,-3.14645,0.0726125,-0.0550136,0,0,0,0,0,0.291846,0.0726125,-1367900288,468368684,-1367900288,468368684,788184133,-1367900288,-1367900256,-1367900256,0.261799,-0.261799,0.000487639,-1.5,0,0,0,3,0.30652,0.0407512,0,0,0,0,0.0330364,-0.271376
290,-3.1147e-12,1.68751e-38,-1.50476e-06,-3.18057e-12,1.6874e-38,-3.59999e-12,-1.06596e-13,0,0,-3.15253,0.0704711,-0.0520584,0,0,0,0,0,0.284353,0.0704711,-1367900288,468368684,-1367900288,468368684,788184133,-1367900288,-1367900256,-1367900256,0.239463,-0.261799,0.000463594,-1.5,0,0,0,3,0.295205,0.0458839,0,0,0,0,-0.00250317,-0.236933
300,-3.1147e-12,1.68751e-38,-1.50476e-06,-3.18057e-12,1.6874e-38,0,-1.066e-13,0,0,-3.14744,0.0769619,-0.0495809,0,0,0,0,0,0.291486,0.0769619,-1367900288,468368684,-1367900288,468368684,788184133,-1367900288,-1367900256,-1367900256,0.196773,-0.261799,0.000432539,-1.5,0,0,0,3,0.292399,0.0506856,0,0,0,0,-0.0158497,-0.209613
310,-3.1147e-12,1.68751e-38,-1.50476e-06,-3.18057e-12,1.6874e-38,-3.59999e-12,-1.066e-13,0,0,-3.1184,0.0722294,-0.0598183,0,0,0,0,0,0.324575,0.0722294,-1367900288,468368684,-1367900288,468368684,788184133,-1367900288,-1367900256,-1367900256,0.177301,-0.261799,0.000406964,-1.5,0,0,0,3,0.296823,0.0518245,0,0,0,0,0.00124722,-0.195943
320,-3.1147e-12,1.68751e-38,-1.50476e-06,-3.18057e-12,1.6874e-38,0,-1.066e-13,0,0,-3.11057,0.0742797,-0.0637814,0,0,0,0,0,0.334101,0.0742797,-1367900288,468368684,-1367900288,468368684,788184133,-1367900288,-1367900256,-1367900256,0.184128,-0.261799,0.000389329,-1.5,0,0,0,3,0.319335,0.0475113,0,0,0,0,0.0506387,-0.196238
330,-3.1147e-12,1.68751e-38,-1.50476e-06,-3.18057e-12,1.6874e-38,-3.59999e-12,-1.06595e-13,0,0,-3.11057,0.0742797,-0.0637814,0,0,0,0,0,0.334101,0.0742797,-1367900288,468368684,-1367900288,468368684,788184133,-1367900288,-1367900256,-1367900256,0.189698,-0.261799,0.000375474,-1.5,0,0,0,3,0.320297,0.0437828,0,0,0,0,0.0506387,-0.196238
340,-3.1147e-12,1.68751e-38,-1.50476e-06,-3.18057e-12,1.6874e-38,0,-1.06601e-13,0,0,-3.13134,0.0809475,-0.0467365,0,0,0,0,0,0.311027,0.0809475,-1367900288,468368684,-1367900288,468368684,788184133,-1367900288,-1367900256,-1367900256,0.133378,-0.261799,0.000355462,-1.5,0,0,0,3,0.311911,0.0549751,0,0,0,0,0.0318696,-0.165777
350,-3.1147e-12,1.68751e-38,-1.50476e-06,-3.18057e-12,1.6874e-38,-3.59999e-12,-1.06602e-13,0,0,-3.14839,0.0789805,-0.0424336,0,0,0,0,0,0.290731,0.0789805,-1367900288,468368684,-1367900288,468368684,788184133,-1367900288,-1367900256,-1367900256,0.144788,-0.261799,0.000335816,-1.5,0,0,0,3,0.311381,0.0496018,0,0,0,0,0.0317335,-0.168379
360,-3.1147e-12,1.68751e-38,-1.50476e-06,-3.18057e-12,1.6874e-38,0,-1.06598e-13,0,0,-3.10005,0.0804803,-0.0565561,0,0,0,0,0,0.347521,0.0804803,-1367900288,468368684,-1367900288,468368684,788184133,-1367900288,-1367900256,-1367900256,0.142429,-0.261799,0.000318651,-1.5,0,0,0,3,0.31397,0.047426,0,0,0,0,0.0321457,-0.164064
370,-3.1147e-12,1.68751e-38,-1.50476e-06,-3.18057e-12,1.6874e-38,-3.59999e-12,-1.06597e-13,0,0,-3.10005,0.0804803,-0.0565561,0,0,0,0,0,0.347521,0.0804803,-1367900288,468368684,-1367900288,468368684,788184133,-1367900288,-1367900256,-1367900256,0.147331,-0.261799,0.000306057,-1.5,0,0,0,3,0.314613,0.0441447,0,0,0,0,0.0321457,-0.164064
380,-3.1147e-12,1.68751e-38,-1.50476e-06,-3.18057e-12,1.6874e-38,0,-1.06598e-13,0,0,-3.10632,0.0833689,-0.0553084,0,0,0,0,0,0.340719,0.0833689,-1367900288,468368684,-1367900288,468368684,788184133,-1367900288,-1367900256,-1367900256,0.118892,-0.261799,0.000290347,-1.5,0,0,0,3,0.327549,0.0501069,0,0,0,0,0.0547455,-0.149039
390,-3.1147e-12,1.68751e-38,-1.50476e-06,-3.18057e-12,1.6874e-38,-3.59999e-12,-1.06599e-13,0,0,-3.14042,0.0814519,-0.0194833,0,0,0,0,0,0.3005,0.0814519,-1367900288,468368684,-1367900288,468368684,788184133,-1367900288,-1367900256,-1367900256,0.123974,-0.261799,0.000275443,-1.5,0,0,0,3,0.319264,0.0463726,0,0,0,0,0.0379825,-0.148658
400,-3.1147e-12,1.68751e-38,-1.50476e-06,-3.18057e-12,1.6874e-38,0,-1.06599e-13,0,0,-3.10738,0.0780931,-0.0435992,0,0,0,0,0,0.338522,0.0780931,-1367900288,468368684,-1367900288,468368684,788184133,-1367900288,-1367900256,-1367900256,0.0876677,-0.261799,0.0002619,-1.5,0,0,0,3,0.328498,0.0545475,0,0,0,0,0.0500823,-0.130124
410,-3.1147e-12,1.68751e-38,-1.50476e-06,-3.18057e-12,1.6874e-38,-3.59999e-12,-1.06598e-13,0,0,-3.10738,0.0780931,-0.0435992,0,0,0,0,0,0.338522,0.0780931,-1367900288,468368684,-1367900288,468368684,788184133,-1367900288,-1367900256,-1367900256,0.0917502,-0.261799,0.000251034,-1.5,0,0,0,3,0.32955,0.0518149,0,0,0,0,0.0500823,-0.130124
420,-3.1147e-12,1.68751e-38,-1.50476e-06,-3.18057e-12,1.6874e-38,0,-1.06602e-13,0,0,-3.11531,0.075317,-0.0436748,0,0,0,0,0,0.328745,0.075317,-1367900288,468368684,-1367900288,468368684,788184133,-1367900288,-1367900256,-1367900256,0.0736594,-0.261799,0.000238642,-1.5,0,0,0,3,0.331663,0.0545047,0,0,0,0,0.0520108,-0.119299
430,-3.1147e-12,1.68751e-38,-1.50476e-06,-3.18057e-12,1.6874e-38,-3.59999e-12,-1.06602e-13,0,0,-3.1185,0.0761833,-0.0311976,0,0,0,0,0,0.325171,0.0761833,-1367900288,468368684,-1367900288,468368684,788184133,-1367900288,-1367900256,-1367900256,0.059798,-0.261799,0.000225453,-1.5,0,0,0,3,0.331073,0.055528,0,0,0,0,0.0479795,-0.109813
440,-3.1147e-12,1.68751e-38,-1.50476e-06,-3.18057e-12,1.6874e-38,0,-1.06599e-13,0,0,-3.1185,0.0761833,-0.0311976,0,0,0,0,0,0.325171,0.0761833,-1367900288,468368684,-1367900288,468368684,788184133,-1367900288,-1367900256,-1367900256,0.0622589,-0.261799,0.000218761,-1.5,0,0,0,3,0.331793,0.0538808,0,0,0,0,0.0479795,-0.109813
450,-3.1147e-12,1.68751e-38,-1.50476e-06,-3.18057e-12,1.6874e-38,-3.59999e-12,-1.06603e-13,0,0,-3.1185,0.0761833,-0.0311976,0,0,0,0,0,0.325171,0.0761833,-1367900288,468368684,-1367900288,468368684,788184133,-1367900288,-1367900256,-1367900256,0.0138033,-0.261799,0.000209254,-1.5,0,0,0,3,0.328664,0.0615039,0,0,0,0,0.042799,-0.0812998
460,-3.1147e-12,1.68751e-38,-1.50476e-06,-3.18057e-12,1.6874e-38,0,-1.06603e-13,0,0,-3.12101,0.0759247,-0.0315266,0,0,0,0,0,0.322193,0.0759247,-1367900288,468368684,-1367900288,468368684,788184133,-1367900288,-1367900256,-1367900256,0.00414724,-0.261799,0.000197345,-1.5,0,0,0,3,0.330963,0.0636055,0,0,0,0,0.044811,-0.0762874
470,-3.1147e-12,1.68751e-38,-1.50476e-06,-3.18057e-12,1.6874e-38,-3.59999e-12,-1.06602e-13,0,0,-3.12101,0.0759247,-0.0315266,0,0,0,0,0,0.322193,0.0759247,-1367900288,468368684,-1367900288,468368684,788184133,-1367900288,-1367900256,-1367900256,0.00631272,-0.261799,0.00018994,-1.5,0,0,0,3,0.331814,0.062156,0,0,0,0,0.044811,-0.0762874
480,-3.1147e-12,1.68751e-38,-1.50476e-06,-3.18057e-12,1.6874e-38,0,-1.066e-13,0,0,-3.11954,0.080532,-0.0217309,0,0,0,0,0,0.324752,0.080532,-1367900288,468368684,-1367900288,468368684,788184133,-1367900288,-1367900256,-1367900256,-0.0264148,-0.261799,0.000180564,-1.5,0,0,0,3,0.330742,0.066687,0,0,0,0,0.0422203,-0.0563194
490,-3.1147e-12,1.68751e-38,-1.50476e-06,-3.18057e-12,1.6874e-38,-3.59999e-12,-1.06601e-13,0,0,-3.13824,0.075943,-0.0184948,0,0,0,0,0,0.302048,0.075943,-1367900288,468368684,-1367900288,468368684,788184133,-1367900288,-1367900256,-1367900256,-0.0210798,-0.261799,0.000170229,-1.5,0,0,0,3,0.328623,0.0650424,0,0,0,0,0.0387118,-0.0585332
500,-3.1147e-12,1.68751e-38,-1.50476e-06,-3.18057e-12,1.6874e-38,0,-1.06603e-13,0,0,-3.12654,0.0785855,-0.0271703,0,0,0,0,0,0.316207,0.0785855,-1367900288,468368684,-1367900288,468368684,788184133,-1367900288,-1367900256,-1367900256,-0.0406875,-0.261799,0.000161201,-1.5,0,0,0,3,0.32745,0.0665695,0,0,0,0,0.036758,-0.0452054
510,-3.1147e-12,1.68751e-38,-1.50476e-06,-3.18057e-12,1.6874e-38,-3.59999e-12,-1.06604e-13,0,0,-3.12113,0.0717921,-0.0297233,0,0,0,0,0,0.321297,0.0717921,-1367900288,468368684,-1367900288,468368684,788184133,-1367900288,-1367900256,-1367900256,-0.0773966,-0.261799,0.000152964,-1.5,0,0,0,3,0.327367,0.0722475,0,0,0,0,0.0337987,-0.023493
520,-3.1147e-12,1.68751e-38,-1.50476e-06,-3.18057e-12,1.6874e-38,0,-1.06604e-13,0,0,-3.12113,0.0717921,-0.0297233,0,0,0,0,0,0.321297,0.0717921,-1367900288,468368684,-1367900288,468368684,788184133,-1367900288,-1367900256,-1367900256,-0.0766595,-0.261799,0.000146618,-1.5,0,0,0,3,0.328077,0.0717541,0,0,0,0,0.0337987,-0.023493
530,-3.1147e-12,1.68751e-38,-1.50476e-06,-3.18057e-12,1.6874e-38,-3.59999e-12,-1.06604e-13,0,0,-3.13123,0.0736949,-0.0309565,0,0,0,0,0,0.309837,0.0736949,-1367900288,468368684,-1367900288,468368684,788184133,-1367900288,-1367900256,-1367900256,-0.0876766,-0.261799,0.000138812,-1.5,0,0,0,3,0.326828,0.0722921,0,0,0,0,0.0255334,-0.0156365
540,-3.1147e-12,1.68751e-38,-1.50476e-06,-3.18057e-12,1.6874e-38,0,-1.06604e-13,0,0,-3.11327,0.0784951,-0.0209027,0,0,0,0,0,0.331709,0.0784951,-1367900288,468368684,-1367900288,468368684,788184133,-1367900288,-1367900256,-1367900256,-0.113138,-0.261799,0.00013114,-1.5,0,0,0,3,0.330533,0.0758988,0,0,0,0,0.0340997,-0.000195476
550,-3.1147e-12,1.68751e-38,-1.50476e-06,-3.18057e-12,1.6874e-38,-3.59999e-12,-1.06605e-13,0,0,-3.13141,0.0746034,-0.0222139,0,0,0,0,0,0.309795,0.0746034,-1367900288,468368684,-1367900288,468368684,788184133,-1367900288,-1367900256,-1367900256,-0.109657,-0.261799,0.00012342,-1.5,0,0,0,3,0.325734,0.075464,0,0,0,0,0.0218502,-0.00237359
560,-3.1147e-12,1.68751e-38,-1.50476e-06,-3.18057e-12,1.6874e-38,0,-1.06605e-13,0,0,-3.13141,0.0746034,-0.0222139,0,0,0,0,0,0.309795,0.0746034,-1367900288,468368684,-1367900288,468368684,788184133,-1367900288,-1367900256,-1367900256,-0.109597,-0.261799,0.000119273,-1.5,0,0,0,3,0.326106,0.0754237,0,0,0,0,0.0218502,-0.00237359
570,-3.1147e-12,1.68751e-38,-1.50476e-06,-3.18057e-12,1.6874e-38,-3.59999e-12,-1.06605e-13,0,0,-3.12693,0.0720197,-0.029208,0,0,0,0,0,0.314566,0.0720197,-1367900288,468368684,-1367900288,468368684,788184133,-1367900288,-1367900256,-1367900256,-0.122502,-0.261799,0.000114325,-1.5,0,0,0,3,0.324822,0.0774983,0,0,0,0,0.0226033,0.005169
580,-3.1147e-12,1.68751e-38,-1.50476e-06,-3.18057e-12,1.6874e-38,0,-1.06605e-13,0,0,-3.1421,0.0790394,-0.016572,0,0,0,0,0,0.298101,0.0790394,-1367900288,468368684,-1367900288,468368684,788184133,-1367900288,-1367900256,-1367900256,-0.125358,-0.261799,0.000106881,-1.5,0,0,0,3,0.326817,0.0780718,0,0,0,0,0.0292132,0.00670697
590,-3.1147e-12,1.68751e-38,-1.50476e-06,-3.18057e-12,1.6874e-38,-3.59999e-12,-1.06606e-13,0,0,-3.12249,0.0810992,-0.0268264,0,0,0,0,0,0.321397,0.0810992,-1367900288,468368684,-1367900288,468368684,788184133,-1367900288,-1367900256,-1367900256,-0.134257,-0.261799,0.000101004,-1.5,0,0,0,3,0.322157,0.0803176,0,0,0,0,0.0156994,0.0109717
600,-3.1147e-12,1.68751e-38,-1.50476e-06,-3.18057e-12,1.6874e-38,0,-1.06606e-13,0,0,-3.09978,0.0758603,-0.0430561,0,0,0,0,0,0.346998,0.0758603,-1367900288,468368684,-1367900288,468368684,788184133,-1367900288,-1367900256,-1367900256,-0.129356,-0.261799,9.56492e-05,-1.5,0,0,0,3,0.324892,0.0796437,0,0,0,0,0.0182984,0.00797599
610,-3.1147e-12,1.68751e-38,-1.50476e-06,-3.18057e-12,1.6874e-38,-3.59999e-12,-1.06606e-13,0,0,-3.09978,0.0758603,-0.0430561,0,0,0,0,0,0.346998,0.0758603,-1367900288,468368684,-1367900288,468368684,788184133,-1367900288,-1367900256,-1367900256,-0.129583,-0.261799,9.20602e-05,-1.5,0,0,0,3,0.32524,0.0797953,0,0,0,0,0.0182984,0.00797599
620,-3.1147e-12,1.68751e-38,-1.50476e-06,-3.18057e-12,1.6874e-38,0,-1.06607e-13,0,0,-3.11886,0.0737771,-0.0330998,0,0,0,0,0,0.32431,0.0737771,-1367900288,468368684,-1367900288,468368684,788184133,-1367900288,-1367900256,-1367900256,-0.121953,-0.261799,8.69722e-05,-1.5,0,0,0,3,0.325187,0.077787,0,0,0,0,0.0140058,0.00441502
630,-3.1147e-12,1.68751e-38,-1.50476e-06,-3.18057e-12,1.6874e-38,-3.59999e-12,-1.06607e-13,0,0,-3.13596,0.0855176,-0.0224345,0,0,0,0,0,0.306453,0.0855176,-1367900288,468368684,-1367900288,468368684,788184133,-1367900288,-1367900256,-1367900256,-0.129973,-0.261799,8.18296e-05,-1.5,0,0,0,3,0.322676,0.0800877,0,0,0,0,0.00872355,0.0079405
640,-3.1147e-12,1.68751e-38,-1.50476e-06,-3.18057e-12,1.6874e-38,0,-1.06607e-13,0,0,-3.11215,0.0782728,-0.0343581,0,0,0,0,0,0.332971,0.0782728,-1367900288,468368684,-1367900288,468368684,788184133,-1367900288,-1367900256,-1367900256,-0.122761,-0.261799,7.74895e-05,-1.5,0,0,0,3,0.322456,0.0784872,0,0,0,0,0.00686224,0.00423224
650,-3.1147e-12,1.68751e-38,-1.50476e-06,-3.18057e-12,1.6874e-38,-3.59999e-12,-1.06607e-13,0,0,-3.11215,0.0782728,-0.0343581,0,0,0,0,0,0.332971,0.0782728,-1367900288,468368684,-1367900288,468368684,788184133,-1367900288,-1367900256,-1367900256,-0.122888,-0.261799,7.44269e-05,-1.5,0,0,0,3,0.322593,0.0785718,0,0,0,0,0.00686224,0.00423224
660,-3.1147e-12,1.68751e-38,-1.50476e-06,-3.18057e-12,1.6874e-38,0,-1.06608e-13,0,0,-3.11215,0.0782728,-0.0343581,0,0,0,0,0,0.332971,0.0782728,-1367900288,468368684,-1367900288,468368684,788184133,-1367900288,-1367900256,-1367900256,-0.121758,-0.261799,7.0167e-05,-1.5,0,0,0,3,0.328222,0.0784112,0,0,0,0,0.0206267,0.00354756
670,-3.1147e-12,1.68751e-38,-1.50476e-06,-3.18057e-12,1.6874e-38,-3.59999e-12,-1.06608e-13,0,0,-3.12052,0.0762069,-0.030264,0,0,0,0,0,0.322816,0.0762069,-1367900288,468368684,-1367900288,468368684,788184133,-1367900288,-1367900256,-1367900256,-0.113069,-0.261799,6.64271e-05,-1.5,0,0,0,3,0.323135,0.0761901,0,0,0,0,0.00149824,-0.000583403
680,-3.1147e-12,1.68751e-38,-1.50476e-06,-3.18057e-12,1.6874e-38,0,-1.06608e-13,0,0,-3.11836,0.0828072,-0.0361669,0,0,0,0,0,0.326539,0.0828072,-1367900288,468368684,-1367900288,468368684,788184133,-1367900288,-1367900256,-1367900256,-0.118121,-0.261799,6.2625e-05,-1.5,0,0,0,3,0.322527,0.0781805,0,0,0,0,-0.00137517,0.00101476
690,-3.1147e-12,1.68751e-38,-1.50476e-06,-3.18057e-12,1.6874e-38,-3.59999e-12,-1.06608e-13,0,0,-3.12175,0.0783426,-0.0319745,0,0,0,0,0,0.321768,0.0783426,-1367900288,468368684,-1367900288,468368684,788184133,-1367900288,-1367900256,-1367900256,-0.118312,-0.261799,5.90599e-05,-1.5,0,0,0,3,0.3225,0.0783359,0,0,0,0,-0.00290796,0.000983132
700,-3.1147e-12,1.68751e-38,-1.50476e-06,-3.18057e-12,1.6874e-38,0,-1.06609e-13,0,0,-3.12175,0.0783426,-0.0319745,0,0,0,0,0,0.321768,0.0783426,-1367900288,468368684,-1367900288,468368684,788184133,-1367900288,-1367900256,-1367900256,-0.118339,-0.261799,5.68419e-05,-1.5,0,0,0,3,0.322445,0.0783546,0,0,0,0,-0.00290796,0.000983132
710,-3.1147e-12,1.68751e-38,-1.50476e-06,-3.18057e-12,1.6874e-38,-3.59999e-12,-1.06609e-13,0,0,-3.10479,0.0780767,-0.031591,0,0,0,0,0,0.341545,0.0780767,-1367900288,468368684,-1367900288,468368684,788184133,-1367900288,-1367900256,-1367900256,-0.116906,-0.261799,5.37042e-05,-1.5,0,0,0,3,0.321794,0.0781172,0,0,0,0,-0.00437321,0.000153064
720,-3.1147e-12,1.68751e-38,-1.50476e-06,-3.18057e-12,1.6874e-38,0,-1.06609e-13,0,0,-3.10609,0.0737738,-0.039922,0,0,0,0,0,0.339247,0.0737738,-1367900288,468368684,-1367900288,468368684,788184133,-1367900288,-1367900256,-1367900256,-0.114675,-0.261799,5.07361e-05,-1.5,0,0,0,3,0.327391,0.0778298,0,0,0,0,0.00960125,-0.00123295
730,-3.1147e-12,1.68751e-38,-1.50476e-06,-3.18057e-12,1.6874e-38,-3.59999e-12,-1.0661e-13,0,0,-3.14233,0.0834253,-0.0192595,0,0,0,0,0,0.298619,0.0834253,-1367900288,468368684,-1367900288,468368684,788184133,-1367900288,-1367900256,-1367900256,-0.116968,-0.261799,4.78321e-05,-1.5,0,0,0,3,0.322289,0.0782234,0,0,0,0,-0.00300264,7.91455e-05
740,-3.1147e-12,1.68751e-38,-1.50476e-06,-3.18057e-12,1.6874e-38,0,-1.0661e-13,0,0,-3.1244,0.0836143,-0.0194132,0,0,0,0,0,0.31962,0.0836143,-1367900288,468368684,-1367900288,468368684,788184133,-1367900288,-1367900256,-1367900256,-0.117279,-0.261799,4.54821e-05,-1.5,0,0,0,3,0.322209,0.0783338,0,0,0,0,-0.00369309,0.00019092
750,-3.1147e-12,1.68751e-38,-1.50476e-06,-3.18057e-12,1.6874e-38,-3.59999e-12,-1.0661e-13,0,0,-3.1244,0.0836143,-0.0194132,0,0,0,0,0,0.31962,0.0836143,-1367900288,468368684,-1367900288,468368684,788184133,-1367900288,-1367900256,-1367900256,-0.117284,-0.261799,4.36845e-05,-1.5,0,0,0,3,0.322135,0.0783377,0,0,0,0,-0.00369309,0.00019092
760,-3.1147e-12,1.68751e-38,-1.50476e-06,-3.18057e-12,1.6874e-38,0,-1.0661e-13,0,0,-3.15622,0.0835214,-0.0135403,0,0,0,0,0,0.282396,0.0835214,-1367900288,468368684,-1367900288,468368684,788184133,-1367900288,-1367900256,-1367900256,-0.122343,-0.261799,4.11015e-05,-1.5,0,0,0,3,0.319317,0.0792045,0,0,0,0,-0.00715451,0.00308594
770,-3.1147e-12,1.68751e-38,-1.50476e-06,-3.18057e-12,1.6874e-38,-3.59999e-12,-1.06611e-13,0,0,-3.13107,0.0811824,-0.0201506,0,0,0,0,0,0.311386,0.0811824,-1367900288,468368684,-1367900288,468368684,788184133,-1367900288,-1367900256,-1367900256,-0.125389,-0.261799,3.89215e-05,-1.5,0,0,0,3,0.320619,0.0799989,0,0,0,0,-0.00293786,0.00451648
780,-3.1147e-12,1.68751e-38,-1.50476e-06,-3.18057e-12,1.6874e-38,0,-1.06611e-13,0,0,-3.1472,0.0812729,-0.0181888,0,0,0,0,0,0.292542,0.0812729,-1367900288,468368684,-1367900288,468368684,788184133,-1367900288,-1367900256,-1367900256,-0.129401,-0.261799,3.67815e-05,-1.5,0,0,0,3,0.319048,0.0813456,0,0,0,0,-0.00604672,0.00605474
790,-3.1147e-12,1.68751e-38,-1.50476e-06,-3.18057e-12,1.6874e-38,-3.59999e-12,-1.06611e-13,0,0,-3.1472,0.0812729,-0.0181888,0,0,0,0,0,0.292542,0.0812729,-1367900288,468368684,-1367900288,468368684,788184133,-1367900288,-1367900256,-1367900256,-0.129591,-0.261799,3.52554e-05,-1.5,0,0,0,3,0.318921,0.0814728,0,0,0,0,-0.00604672,0.00605474
800,-3.1147e-12,1.68751e-38,-1.50476e-06,-3.18057e-12,1.6874e-38,0,-1.06611e-13,0,0,-3.09522,0.0756253,-0.0477153,0,0,0,0,0,0.352283,0.0756253,-1367900288,468368684,-1367900288,468368684,788184133,-1367900288,-1367900256,-1367900256,-0.127805,-0.261799,3.28906e-05,-1.5,0,0,0,3,0.319031,0.080807,0,0,0,0,-0.00513789,0.00544584
810,-3.1147e-12,1.68751e-38,-1.50476e-06,-3.18057e-12,1.6874e-38,-3.59999e-12,-1.06612e-13,0,0,-3.10844,0.0777748,-0.0447718,0,0,0,0,0,0.337217,0.0777748,-1367900288,468368684,-1367900288,468368684,788184133,-1367900288,-1367900256,-1367900256,-0.124644,-0.261799,3.1008e-05,-1.5,0,0,0,3,0.321681,0.0799803,0,0,0,0,9.10712e-06,0.00396471
820,-3.1147e-12,1.68751e-38,-1.50476e-06,-3.18057e-12,1.6874e-38,0,-1.06612e-13,0,0,-3.11259,0.0870936,-0.0345696,0,0,0,0,0,0.334065,0.0870936,-1367900288,468368684,-1367900288,468368684,788184133,-1367900288,-1367900256,-1367900256,-0.128017,-0.261799,2.95384e-05,-1.5,0,0,0,3,0.324799,0.0809749,0,0,0,0,0.00412479,0.00541567
830,-3.1147e-12,1.68751e-38,-1.50476e-06,-3.18057e-12,1.6874e-38,-3.59999e-12,-1.06612e-13,0,0,-3.12973,0.0922278,-0.027909,0,0,0,0,0,0.314955,0.0922278,-1367900288,468368684,-1367900288,468368684,788184133,-1367900288,-1367900256,-1367900256,-0.130661,-0.261799,2.78477e-05,-1.5,0,0,0,3,0.322627,0.0819871,0,0,0,0,0.00151816,0.00628706
840,-3.1147e-12,1.68751e-38,-1.50476e-06,-3.18057e-12,1.6874e-38,0,-1.06613e-13,0,0,-3.12924,0.085447,-0.0282473,0,0,0,0,0,0.314296,0.085447,-1367900288,468368684,-1367900288,468368684,788184133,-1367900288,-1367900256,-1367900256,-0.134796,-0.261799,2.18251e-05,-1.5,0,0,0,3,0.322894,0.0834043,0,0,0,0,0.0016648,0.00783883
850,-3.1147e-12,1.68751e-38,-1.50476e-06,-3.18057e-12,1.6874e-38,-3.59999e-12,-1.06613e-13,0,0,-3.13951,0.0820031,-0.00700692,0,0,0,0,0,0.301668,0.0820031,-1367900288,468368684,-1367900288,468368684,788184133,-1367900288,-1367900256,-1367900256,-0.138831,-0.261799,1.62476e-05,-1.5,0,0,0,3,0.31879,0.0849575,0,0,0,0,-0.00177665,0.0091579
860,-3.1147e-12,1.68751e-38,-1.50476e-06,-3.18057e-12,1.6874e-38,0,-1.06613e-13,0,0,-3.14082,0.0816158,-0.00136471,0,0,0,0,0,0.300064,0.0816158,-1367900288,468368684,-1367900288,468368684,788184133,-1367900288,-1367900256,-1367900256,-0.142252,-0.261799,1.22898e-05,-1.5,0,0,0,3,0.316733,0.086225,0,0,0,0,-0.00470086,0.0103326
870,-3.1147e-12,1.68751e-38,-1.50476e-06,-3.18057e-12,1.6874e-38,-3.59999e-12,-1.06613e-13,0,0,-3.15194,0.0797606,0.00667383,0,0,0,0,0,0.286729,0.0797606,-1367900288,468368684,-1367900288,468368684,788184133,-1367900288,-1367900256,-1367900256,-0.133767,-0.261799,9.1767e-06,-1.5,0,0,0,3,0.305457,0.0842992,0,0,0,0,-0.0183857,0.00601856
880,-3.1147e-12,1.68751e-38,-1.50476e-06,-3.18057e-12,1.6874e-38,0,-1.06614e-13,0,0,-3.1288,0.083857,-0.0147946,0,0,0,0,0,0.314518,0.083857,-1367900288,468368684,-1367900288,468368684,788184133,-1367900288,-1367900256,-1367900256,-0.133315,-0.261799,6.95368e-06,-1.5,0,0,0,3,0.307557,0.0844801,0,0,0,0,-0.0138359,0.00546278
890,-3.1147e-12,1.68751e-38,-1.50476e-06,-3.18057e-12,1.6874e-38,-3.59999e-12,-1.06614e-13,0,0,-3.1288,0.083857,-0.0147946,0,0,0,0,0,0.314518,0.083857,-1367900288,468368684,-1367900288,468368684,788184133,-1367900288,-1367900256,-1367900256,-0.133264,-0.261799,6.58305e-06,-1.5,0,0,0,3,0.308169,0.0846043,0,0,0,0,-0.0130952,0.00528142
900,-3.1147e-12,1.68751e-38,-1.50476e-06,-3.18057e-12,1.6874e-38,0,-1.06614e-13,0,0,-3.16484,0.0797095,0.00915726,0,0,0,0,0,0.271628,0.0797095,-1367900288,468368684,-1367900288,468368684,788184133,-1367900288,-1367900256,-1367900256,-0.130903,-0.261799,6.20673e-06,-1.5,0,0,0,3,0.302619,0.0840476,0,0,0,0,-0.0174165,0.00410468
910,-3.1147e-12,1.68751e-38,-1.50476e-06,-3.18057e-12,1.6874e-38,-3.59999e-12,-1.06614e-13,0,0,-3.12294,0.0855391,-0.0249562,0,0,0,0,0,0.321682,0.0855391,-1367900288,468368684,-1367900288,468368684,788184133,-1367900288,-1367900256,-1367900256,-0.133865,-0.261799,5.87591e-06,-1.5,0,0,0,3,0.305882,0.0849664,0,0,0,0,-0.0147218,0.00532769
920,-3.1147e-12,1.68751e-38,-1.50476e-06,-3.18057e-12,1.6874e-38,0,-1.06615e-13,0,0,-3.12921,0.0834534,-0.0218267,0,0,0,0,0,0.313972,0.0834534,-1367900288,468368684,-1367900288,468368684,788184133,-1367900288,-1367900256,-1367900256,-0.132468,-0.261799,5.54152e-06,-1.5,0,0,0,3,0.305601,0.0843984,0,0,0,0,-0.014577,0.00490529
930,-3.1147e-12,1.68751e-38,-1.50476e-06,-3.18057e-12,1.6874e-38,-3.59999e-12,-1.06615e-13,0,0,-3.12921,0.0834534,-0.0218267,0,0,0,0,0,0.313972,0.0834534,-1367900288,468368684,-1367900288,468368684,788184133,-1367900288,-1367900256,-1367900256,-0.132607,-0.261799,5.33341e-06,-1.5,0,0,0,3,0.305324,0.0844916,0,0,0,0,-0.014577,0.00490529
940,-3.1147e-12,1.68751e-38,-1.50476e-06,-3.18057e-12,1.6874e-38,0,-1.06615e-13,0,0,-3.1128,0.0790408,-0.0228683,0,0,0,0,0,0.33235,0.0790408,-1367900288,468368684,-1367900288,468368684,788184133,-1367900288,-1367900256,-1367900256,-0.129213,-0.261799,5.13328e-06,-1.5,0,0,0,3,0.312276,0.0836931,0,0,0,0,-0.0082936,0.00321263
950,-3.1147e-12,1.68751e-38,-1.50476e-06,-3.18057e-12,1.6874e-38,-3.59999e-12,-1.06616e-13,0,0,-3.12294,0.0855391,-0.0249562,0,0,0,0,0,0.321682,0.0855391,-1367900288,468368684,-1367900288,468368684,788184133,-1367900288,-1367900256,-1367900256,-0.128534,-0.261799,4.8609e-06,-1.5,0,0,0,3,0.312756,0.0837269,0,0,0,0,-0.00792729,0.00265131
960,-3.1147e-12,1.68751e-38,-1.50476e-06,-3.18057e-12,1.6874e-38,0,-1.06616e-13,0,0,-3.12294,0.0855391,-0.0249562,0,0,0,0,0,0.321682,0.0855391,-1367900288,468368684,-1367900288,468368684,788184133,-1367900288,-1367900256,-1367900256,-0.128614,-0.261799,4.66896e-06,-1.5,0,0,0,3,0.312598,0.0837799,0,0,0,0,-0.00792729,0.00265131
970,-3.1147e-12,1.68751e-38,-1.50476e-06,-3.18057e-12,1.6874e-38,-3.59999e-12,-1.06616e-13,0,0,-3.12016,0.080821,-0.0214714,0,0,0,0,0,0.324071,0.080821,-1367900288,468368684,-1367900288,468368684,788184133,-1367900288,-1367900256,-1367900256,-0.128948,-0.261799,4.41091e-06,-1.5,0,0,0,3,0.312294,0.0838936,0,0,0,0,-0.00816248,0.00277813
980,-3.1147e-12,1.68751e-38,-1.50476e-06,-3.18057e-12,1.6874e-38,0,-1.06616e-13,0,0,-3.12508,0.0816809,-0.01428,0,0,0,0,0,0.318479,0.0816809,-1367900288,468368684,-1367900288,468368684,788184133,-1367900288,-1367900256,-1367900256,-0.128462,-0.261799,4.1501e-06,-1.5,0,0,0,3,0.312662,0.0838032,0,0,0,0,-0.00770625,0.002508
990,-3.1147e-12,1.68751e-38,-1.50476e-06,-3.18057e-12,1.6874e-38,-3.59999e-12,-1.06617e-13,0,0,-3.1128,0.0790408,-0.0228683,0,0,0,0,0,0.33235,0.0790408,-1367900288,468368684,-1367900288,468368684,788184133,-1367900288,-1367900256,-1367900256,-0.123004,-0.261799,3.9289e-06,-1.5,0,0,0,3,0.316068,0.0818561,0,0,0,0,-0.00307863,0.000547192
1000,-3.1147e-12,1.68751e-38,-1.50476e-06,-3.18057e-12,1.6874e-38,0,-1.06617e-13,0,0,-3.1128,0.0790408,-0.0228683,0,0,0,0,0,0.33235,0.0790408,-1367900288,468368684,-1367900288,468368684,788184133,-1367900288,-1367900256,-1367900256,-0.119545,-0.261799,3.72815e-06,-1.5,0,0,0,3,0.319369,0.0809251,0,0,0,0,0.000718182,-0.0010434
1010,-3.1147e-12,1.68751e-38,-1.50476e-06,-3.18057e-12,1.6874e-38,-3.59999e-12,-1.06617e-13,0,0,-3.1128,0.0790408,-0.0228683,0,0,0,0,0,0.33235,0.0790408,-1367900288,468368684,-1367900288,468368684,788184133,-1367900288,-1367900256,-1367900256,-0.119513,-0.261799,3.57347e-06,-1.5,0,0,0,3,0.319384,0.0809031,0,0,0,0,0.000718182,-0.0010434
1020,-3.1147e-12,1.68751e-38,-1.50476e-06,-3.18057e-12,1.6874e-38,0,-1.06617e-13,0,0,-3.13072,0.0773226,-0.00877783,0,0,0,0,0,0.31109,0.0773226,-1367900288,468368684,-1367900288,468368684,788184133,-1367900288,-1367900256,-1367900256,-0.118579,-0.261799,3.37621e-06,-1.5,0,0,0,3,0.31871,0.0806659,0,0,0,0,0.00358696,-0.00148908
1030,-3.1147e-12,1.68751e-38,-1.50476e-06,-3.18057e-12,1.6874e-38,-3.59999e-12,-1.06618e-13,0,0,-3.13072,0.0773226,-0.00877783,0,0,0,0,0,0.31109,0.0773226,-1367900288,468368684,-1367900288,468368684,788184133,-1367900288,-1367900256,-1367900256,-0.116627,-0.261799,3.18961e-06,-1.5,0,0,0,3,0.316304,0.0800838,0,0,0,0,0.0015163,-0.00232119
1040,-3.1147e-12,1.68751e-38,-1.50476e-06,-3.18057e-12,1.6874e-38,0,-1.06618e-13,0,0,-3.13072,0.0773226,-0.00877783,0,0,0,0,0,0.31109,0.0773226,-1367900288,468368684,-1367900288,468368684,788184133,-1367900288,-1367900256,-1367900256,-0.116548,-0.261799,3.04472e-06,-1.5,0,0,0,3,0.316339,0.0800305,0,0,0,0,0.0015163,-0.00232119
1050,-3.1147e-12,1.68751e-38,-1.50476e-06,-3.18057e-12,1.6874e-38,-3.59999e-12,-1.06618e-13,0,0,-3.12673,0.0723949,-0.0131739,0,0,0,0,0,0.314867,0.0723949,-1367900288,468368684,-1367900288,468368684,788184133,-1367900288,-1367900256,-1367900256,-0.112512,-0.261799,2.84771e-06,-1.5,0,0,0,3,0.315725,0.0785569,0,0,0,0,0.0013723,-0.0037317
1060,-3.1147e-12,1.68751e-38,-1.50476e-06,-3.18057e-12,1.6874e-38,0,-1.06618e-13,0,0,-3.12673,0.0723949,-0.0131739,0,0,0,0,0,0.314867,0.0723949,-1367900288,468368684,-1367900288,468368684,788184133,-1367900288,-1367900256,-1367900256,-0.112429,-0.261799,2.76318e-06,-1.5,0,0,0,3,0.315746,0.0785009,0,0,0,0,0.0013723,-0.0037317
1070,-3.1147e-12,1.68751e-38,-1.50476e-06,-3.18057e-12,1.6874e-38,-3.59999e-12,-1.06619e-13,0,0,-3.13341,0.0818048,-0.0169091,0,0,0,0,0,0.308759,0.0818048,-1367900288,468368684,-1367900288,468368684,788184133,-1367900288,-1367900256,-1367900256,-0.112834,-0.261799,2.61608e-06,-1.5,0,0,0,3,0.31488,0.0786633,0,0,0,0,0.00064413,-0.00360683
1080,-3.1147e-12,1.68751e-38,-1.50476e-06,-3.18057e-12,1.6874e-38,0,-1.06619e-13,0,0,-3.10307,0.0891337,-0.0214309,0,0,0,0,0,0.345574,0.0891337,-1367900288,468368684,-1367900288,468368684,788184133,-1367900288,-1367900256,-1367900256,-0.115245,-0.261799,2.47217e-06,-1.5,0,0,0,3,0.315076,0.0795915,0,0,0,0,0.000677545,-0.00281882
1090,-3.1147e-12,1.68751e-38,-1.50476e-06,-3.18057e-12,1.6874e-38,-3.59999e-12,-1.06619e-13,0,0,-3.10307,0.0891337,-0.0214309,0,0,0,0,0,0.345574,0.0891337,-1367900288,468368684,-1367900288,468368684,788184133,-1367900288,-1367900256,-1367900256,-0.115156,-0.261799,2.36959e-06,-1.5,0,0,0,3,0.31509,0.0795323,0,0,0,0,0.000677545,-0.00281882
1100,-3.1147e-12,1.68751e-38,-1.50476e-06,-3.18057e-12,1.6874e-38,0,-1.0662e-13,0,0,-3.10534,0.0849797,-0.0249228,0,0,0,0,0,0.342164,0.0849797,-1367900288,468368684,-1367900288,468368684,788184133,-1367900288,-1367900256,-1367900256,-0.119395,-0.261799,2.24329e-06,-1.5,0,0,0,3,0.319735,0.0808321,0,0,0,0,0.00600435,-0.00105193
1110,-3.1147e-12,1.68751e-38,-1.50476e-06,-3.18057e-12,1.6874e-38,-3.59999e-12,-1.0662e-13,0,0,-3.10531,0.0875616,-0.0293046,0,0,0,0,0,0.34266,0.0875616,-1367900288,468368684,-1367900288,468368684,788184133,-1367900288,-1367900256,-1367900256,-0.123062,-0.261799,2.11931e-06,-1.5,0,0,0,3,0.320434,0.0818933,0,0,0,0,0.00586547,0.000549131
1120,-3.1147e-12,1.68751e-38,-1.50476e-06,-3.18057e-12,1.6874e-38,0,-1.0662e-13,0,0,-3.11562,0.0918167,-0.0126758,0,0,0,0,0,0.331379,0.0918167,-1367900288,468368684,-1367900288,468368684,788184133,-1367900288,-1367900256,-1367900256,-0.123343,-0.261799,2.01103e-06,-1.5,0,0,0,3,0.327058,0.0821503,0,0,0,0,0.0106266,0.000469604
1130,-3.1147e-12,1.68751e-38,-1.50476e-06,-3.18057e-12,1.6874e-38,-3.59999e-12,-1.0662e-13,0,0,-3.11543,0.0871235,-0.0127509,0,0,0,0,0,0.330746,0.0871235,-1367900288,468368684,-1367900288,468368684,788184133,-1367900288,-1367900256,-1367900256,-0.121772,-0.261799,1.91218e-06,-1.5,0,0,0,3,0.327305,0.0817047,0,0,0,0,0.0100651,-0.000226753
1140,-3.1147e-12,1.68751e-38,-1.50476e-06,-3.18057e-12,1.6874e-38,0,-1.06621e-13,0,0,-3.11543,0.0871235,-0.0127509,0,0,0,0,0,0.330746,0.0871235,-1367900288,468368684,-1367900288,468368684,788184133,-1367900288,-1367900256,-1367900256,-0.121765,-0.261799,1.83661e-06,-1.5,0,0,0,3,0.327507,0.0817002,0,0,0,0,0.0100651,-0.000226753
1150,-3.1147e-12,1.68751e-38,-1.50476e-06,-3.18057e-12,1.6874e-38,-3.59999e-12,-1.06621e-13,0,0,-3.09113,0.0820539,-0.0252968,0,0,0,0,0,0.358246,0.0820539,-1367900288,468368684,-1367900288,468368684,788184133,-1367900288,-1367900256,-1367900256,-0.122107,-0.261799,1.73149e-06,-1.5,0,0,0,3,0.331531,0.0819468,0,0,0,0,0.0160731,-0.000247043
1160,-3.1147e-12,1.68751e-38,-1.50476e-06,-3.18057e-12,1.6874e-38,0,-1.06621e-13,0,0,-3.09113,0.0820539,-0.0252968,0,0,0,0,0,0.358246,0.0820539,-1367900288,468368684,-1367900288,468368684,788184133,-1367900288,-1367900256,-1367900256,-0.120755,-0.261799,1.64261e-06,-1.5,0,0,0,3,0.335022,0.0819005,0,0,0,0,0.0235315,-0.00123412
1170,-3.1147e-12,1.68751e-38,-1.50476e-06,-3.18057e-12,1.6874e-38,-3.59999e-12,-1.06621e-13,0,0,-3.07848,0.08617,-0.0436713,0,0,0,0,0,0.373784,0.08617,-1367900288,468368684,-1367900288,468368684,788184133,-1367900288,-1367900256,-1367900256,-0.122932,-0.261799,1.54905e-06,-1.5,0,0,0,3,0.341544,0.0822249,0,0,0,0,0.0311705,6.76701e-05
1180,-3.1147e-12,1.68751e-38,-1.50476e-06,-3.18057e-12,1.6874e-38,0,-1.06622e-13,0,0,-3.07848,0.08617,-0.0436713,0,0,0,0,0,0.373784,0.08617,-1367900288,468368684,-1367900288,468368684,788184133,-1367900288,-1367900256,-1367900256,-0.122933,-0.261799,1.50005e-06,-1.5,0,0,0,3,0.342043,0.082226,0,0,0,0,0.0311705,6.76701e-05
1190,-3.1147e-12,1.68751e-38,-1.50476e-06,-3.18057e-12,1.6874e-38,-3.59999e-12,-1.06622e-13,0,0,-3.09606,0.0869187,-0.0298491,0,0,0,0,0,0.353366,0.0869187,-1367900288,468368684,-1367900288,468368684,788184133,-1367900288,-1367900256,-1367900256,-0.123306,-0.261799,1.43198e-06,-1.5,0,0,0,3,0.349835,0.0823578,0,0,0,0,0.038699,0.000202826
1200,-3.1147e-12,1.68751e-38,-1.50476e-06,-3.18057e-12,1.6874e-38,0,-1.06622e-13,0,0,-3.10307,0.0891337,-0.0214309,0,0,0,0,0,0.345574,0.0891337,-1367900288,468368684,-1367900288,468368684,788184133,-1367900288,-1367900256,-1367900256,-0.135218,-0.261799,1.35881e-06,-1.5,0,0,0,3,0.346121,0.0864868,0,0,0,0,0.0345006,0.00462084
1210,-3.1147e-12,1.68751e-38,-1.50476e-06,-3.18057e-12,1.6874e-38,-3.59999e-12,-1.06623e-13,0,0,-3.10307,0.0891337,-0.0214309,0,0,0,0,0,0.345574,0.0891337,-1367900288,468368684,-1367900288,468368684,788184133,-1367900288,-1367900256,-1367900256,-0.135356,-0.261799,1.30511e-06,-1.5,0,0,0,3,0.346811,0.0865792,0,0,0,0,0.0345006,0.00462084
1220,-3.1147e-12,1.68751e-38,-1.50476e-06,-3.18057e-12,1.6874e-38,0,-1.06623e-13,0,0,-3.09533,0.0844041,-0.0230051,0,0,0,0,0,0.353755,0.0844041,-1367900288,468368684,-1367900288,468368684,788184133,-1367900288,-1367900256,-1367900256,-0.137914,-0.261799,1.24068e-06,-1.5,0,0,0,3,0.354811,0.0867409,0,0,0,0,0.0465442,0.00640292
1230,-3.1147e-12,1.68751e-38,-1.50476e-06,-3.18057e-12,1.6874e-38,-3.59999e-12,-1.06623e-13,0,0,-3.11562,0.0918167,-0.0126758,0,0,0,0,0,0.331379,0.0918167,-1367900288,468368684,-1367900288,468368684,788184133,-1367900288,-1367900256,-1367900256,-0.139041,-0.261799,1.17729e-06,-1.5,0,0,0,3,0.35657,0.0872187,0,0,0,0,0.0482365,0.00672053
1240,-3.1147e-12,1.68751e-38,-1.50476e-06,-3.18057e-12,1.6874e-38,0,-1.06623e-13,0,0,-3.11562,0.0918167,-0.0126758,0,0,0,0,0,0.331379,0.0918167,-1367900288,468368684,-1367900288,468368684,788184133,-1367900288,-1367900256,-1367900256,-0.139252,-0.261799,1.12849e-06,-1.5,0,0,0,3,0.357583,0.0873598,0,0,0,0,0.0482365,0.00672053
1250,-3.1147e-12,1.68751e-38,-1.50476e-06,-3.18057e-12,1.6874e-38,-3.59999e-12,-1.06627e-13,0,0,-3.0972,0.0888722,-0.0220385,0,0,0,0,0,0.352387,0.0888722,-1367900288,468368684,-1367900288,468368684,788184133,-1367900288,-1367900256,-1367900256,-0.141384,-0.261799,1.07285e-06,-1.5,0,0,0,3,0.356305,0.0879597,0,0,0,0,0.0443307,0.00767139
1260,-3.1147e-12,1.68751e-38,-1.50476e-06,-3.18057e-12,1.6874e-38,0,-1.06624e-13,0,0,-3.10592,0.0872512,-0.0152917,0,0,0,0,0,0.341894,0.0872512,-1367900288,468368684,-1367900288,468368684,788184133,-1367900288,-1367900256,-1367900256,-0.141844,-0.261799,1.01989e-06,-1.5,0,0,0,3,0.355365,0.0881346,0,0,0,0,0.0422816,0.0078242
1270,-3.1147e-12,1.68751e-38,-1.50476e-06,-3.18057e-12,1.6874e-38,-3.59999e-12,-1.06624e-13,0,0,-3.09496,0.0867217,-0.0255379,0,0,0,0,0,0.354615,0.0867217,-1367900288,468368684,-1367900288,468368684,788184133,-1367900288,-1367900256,-1367900256,-0.143085,-0.261799,9.67757e-07,-1.5,0,0,0,3,0.355832,0.0882098,0,0,0,0,0.0408838,0.00869198
1280,-3.1147e-12,1.68751e-38,-1.50476e-06,-3.18057e-12,1.6874e-38,0,-1.06628e-13,0,0,-3.09496,0.0867217,-0.0255379,0,0,0,0,0,0.354615,0.0867217,-1367900288,468368684,-1367900288,468368684,788184133,-1367900288,-1367900256,-1367900256,-0.143331,-0.261799,9.31444e-07,-1.5,0,0,0,3,0.356609,0.0883749,0,0,0,0,0.0408838,0.00869198
1290,-3.1147e-12,1.68751e-38,-1.50476e-06,-3.18057e-12,1.6874e-38,-3.59999e-12,-1.06627e-13,0,0,-3.09496,0.0867217,-0.0255379,0,0,0,0,0,0.354615,0.0867217,-1367900288,468368684,-1367900288,468368684,788184133,-1367900288,-1367900256,-1367900256,-0.143198,-0.261799,8.83687e-07,-1.5,0,0,0,3,0.357144,0.0884765,0,0,0,0,0.0410023,0.00847251
1300,-3.1147e-12,1.68751e-38,-1.50476e-06,-3.18057e-12,1.6874e-38,0,-1.06627e-13,0,0,-3.10402,0.0807711,-0.0202972,0,0,0,0,0,0.342936,0.0807711,-1367900288,468368684,-1367900288,468368684,788184133,-1367900288,-1367900256,-1367900256,-0.142921,-0.261799,8.45405e-07,-1.5,0,0,0,3,0.357656,0.0882924,0,0,0,0,0.0402855,0.00847096
1310,-3.1147e-12,1.68751e-38,-1.50476e-06,-3.18057e-12,1.6874e-38,-3.59999e-12,-1.06628e-13,0,0,-3.10402,0.0807711,-0.0202972,0,0,0,0,0,0.342936,0.0807711,-1367900288,468368684,-1367900288,468368684,788184133,-1367900288,-1367900256,-1367900256,-0.143136,-0.261799,8.16984e-07,-1.5,0,0,0,3,0.358341,0.0884364,0,0,0,0,0.0402855,0.00847096
1320,-3.1147e-12,1.68751e-38,-1.50476e-06,-3.18057e-12,1.6874e-38,0,-1.06628e-13,0,0,-3.11543,0.0871235,-0.0127509,0,0,0,0,0,0.330746,0.0871235,-1367900288,468368684,-1367900288,468368684,788184133,-1367900288,-1367900256,-1367900256,-0.14045,-0.261799,7.63791e-07,-1.5,0,0,0,3,0.35919,0.0877631,0,0,0,0,0.0389455,0.00717847
1330,-3.1147e-12,1.68751e-38,-1.50476e-06,-3.18057e-12,1.6874e-38,-3.59999e-12,-1.06628e-13,0,0,-3.09942,0.0869748,-0.0208994,0,0,0,0,0,0.349448,0.0869748,-1367900288,468368684,-1367900288,468368684,788184133,-1367900288,-1367900256,-1367900256,-0.141586,-0.261799,7.21629e-07,-1.5,0,0,0,3,0.357759,0.0880411,0,0,0,0,0.0365353,0.00773307
1340,-3.1147e-12,1.68751e-38,-1.50476e-06,-3.18057e-12,1.6874e-38,0,-1.06624e-13,0,0,-3.11567,0.0935345,-0.0174089,0,0,0,0,0,0.331629,0.0935345,-1367900288,468368684,-1367900288,468368684,788184133,-1367900288,-1367900256,-1367900256,-0.142531,-0.261799,6.80377e-07,-1.5,0,0,0,3,0.357388,0.0883812,0,0,0,0,0.034456,0.00806941
1350,-3.1147e-12,1.68751e-38,-1.50476e-06,-3.18057e-12,1.6874e-38,-3.59999e-12,-1.06629e-13,0,0,-3.09514,0.0801559,-0.020672,0,0,0,0,0,0.353207,0.0801559,-1367900288,468368684,-1367900288,468368684,788184133,-1367900288,-1367900256,-1367900256,-0.141813,-0.261799,6.41645e-07,-1.5,0,0,0,3,0.353644,0.088301,0,0,0,0,0.0301765,0.00760894
1360,-3.1147e-12,1.68751e-38,-1.50476e-06,-3.18057e-12,1.6874e-38,0,-1.06629e-13,0,0,-3.09514,0.0801559,-0.020672,0,0,0,0,0,0.353207,0.0801559,-1367900288,468368684,-1367900288,468368684,788184133,-1367900288,-1367900256,-1367900256,-0.14204,-0.261799,6.16308e-07,-1.5,0,0,0,3,0.354248,0.0884532,0,0,0,0,0.0301765,0.00760894
1370,-3.1147e-12,1.68751e-38,-1.50476e-06,-3.18057e-12,1.6874e-38,-3.59999e-12,-1.06633e-13,0,0,-3.10307,0.0891337,-0.0214309,0,0,0,0,0,0.345574,0.0891337,-1367900288,468368684,-1367900288,468368684,788184133,-1367900288,-1367900256,-1367900256,-0.144234,-0.261799,5.84672e-07,-1.5,0,0,0,3,0.354464,0.0892822,0,0,0,0,0.0289006,0.00834351
1380,-3.1147e-12,1.68751e-38,-1.50476e-06,-3.18057e-12,1.6874e-38,0,-1.06633e-13,0,0,-3.11304,0.075935,-0.0139761,0,0,0,0,0,0.331511,0.075935,-1367900288,468368684,-1367900288,468368684,788184133,-1367900288,-1367900256,-1367900256,-0.147191,-0.261799,5.51207e-07,-1.5,0,0,0,3,0.352587,0.0896863,0,0,0,0,0.0214746,0.0101536
1390,-3.1147e-12,1.68751e-38,-1.50476e-06,-3.18057e-12,1.6874e-38,-3.59999e-12,-1.06633e-13,0,0,-3.15928,0.0838659,0.000617007,0,0,0,0,0,0.278879,0.0838659,-1367900288,468368684,-1367900288,468368684,788184133,-1367900288,-1367900256,-1367900256,-0.147909,-0.261799,5.20911e-07,-1.5,0,0,0,3,0.348046,0.089957,0,0,0,0,0.0154431,0.0103954
1400,-3.1147e-12,1.68751e-38,-1.50476e-06,-3.18057e-12,1.6874e-38,0,-1.06624e-13,0,0,-3.15928,0.0838659,0.000617007,0,0,0,0,0,0.278879,0.0838659,-1367900288,468368684,-1367900288,468368684,788184133,-1367900288,-1367900256,-1367900256,-0.148236,-0.261799,5.00323e-07,-1.5,0,0,0,3,0.348371,0.0901753,0,0,0,0,0.0154431,0.0103954
1410,-3.1147e-12,1.68751e-38,-1.50476e-06,-3.18057e-12,1.6874e-38,-3.59999e-12,-1.06625e-13,0,0,-3.15928,0.0838659,0.000617007,0,0,0,0,0,0.278879,0.0838659,-1367900288,468368684,-1367900288,468368684,788184133,-1367900288,-1367900256,-1367900256,-0.148562,-0.261799,4.79564e-07,-1.5,0,0,0,3,0.348695,0.0903936,0,0,0,0,0.0154431,0.0103954
1420,-3.1147e-12,1.68751e-38,-1.50476e-06,-3.18057e-12,1.6874e-38,0,-1.06634e-13,0,0,-3.08287,0.0821815,-0.0292989,0,0,0,0,0,0.367928,0.0821815,-1367900288,468368684,-1367900288,468368684,788184133,-1367900288,-1367900256,-1367900256,-0.13857,-0.261799,4.53092e-07,-1.5,0,0,0,3,0.355952,0.0885243,0,0,0,0,0.0222362,0.00485758
1430,-3.1147e-12,1.68751e-38,-1.50476e-06,-3.18057e-12,1.6874e-38,-3.59999e-12,-1.06625e-13,0,0,-3.11855,0.085113,-0.0133664,0,0,0,0,0,0.326735,0.085113,-1367900288,468368684,-1367900288,468368684,788184133,-1367900288,-1367900256,-1367900256,-0.136129,-0.261799,4.17401e-07,-1.5,0,0,0,3,0.350523,0.0880401,0,0,0,0,0.0100696,0.00353632
1440,-3.1147e-12,1.68751e-38,-1.50476e-06,-3.18057e-12,1.6874e-38,0,-1.06625e-13,0,0,-3.13128,0.0830857,-0.00448666,0,0,0,0,0,0.311478,0.0830857,-1367900288,468368684,-1367900288,468368684,788184133,-1367900288,-1367900256,-1367900256,-0.123665,-0.261799,3.90261e-07,-1.5,0,0,0,3,0.343251,0.0849008,0,0,0,0,-0.00018579,-0.00244357
1450,-3.1147e-12,1.68751e-38,-1.50476e-06,-3.18057e-12,1.6874e-38,-3.59999e-12,-1.06626e-13,0,0,-3.07234,0.0818961,-0.0420305,0,0,0,0,0,0.380179,0.0818961,-1367900288,468368684,-1367900288,468368684,788184133,-1367900288,-1367900256,-1367900256,-0.118311,-0.261799,3.6946e-07,-1.5,0,0,0,3,0.347063,0.0832786,0,0,0,0,0.00501663,-0.00469758
1460,-3.1147e-12,1.68751e-38,-1.50476e-06,-3.18057e-12,1.6874e-38,0,-1.06626e-13,0,0,-3.14035,0.0840223,-0.00848788,0,0,0,0,0,0.301047,0.0840223,-1367900288,468368684,-1367900288,468368684,788184133,-1367900288,-1367900256,-1367900256,-0.119151,-0.261799,3.48427e-07,-1.5,0,0,0,3,0.341843,0.083636,0,0,0,0,-0.00320532,-0.00446196
1470,-3.1147e-12,1.68751e-38,-1.50476e-06,-3.18057e-12,1.6874e-38,-3.59999e-12,-1.06634e-13,0,0,-3.13951,0.0820031,-0.00700692,0,0,0,0,0,0.301668,0.0820031,-1367900288,468368684,-1367900288,468368684,788184133,-1367900288,-1367900256,-1367900256,-0.115743,-0.261799,3.29947e-07,-1.5,0,0,0,3,0.32217,0.0825413,0,0,0,0,-0.0333792,-0.00582548
1480,-3.1147e-12,1.68751e-38,-1.50476e-06,-3.18057e-12,1.6874e-38,0,-1.06626e-13,0,0,-3.13951,0.0820031,-0.00700692,0,0,0,0,0,0.301668,0.0820031,-1367900288,468368684,-1367900288,468368684,788184133,-1367900288,-1367900256,-1367900256,-0.115578,-0.261799,3.17566e-07,-1.5,0,0,0,3,0.321536,0.0824306,0,0,0,0,-0.0333792,-0.00582548
1490,-3.1147e-12,1.68751e-38,-1.50476e-06,-3.18057e-12,1.6874e-38,-3.59999e-12,-1.06634e-13,0,0,-3.08693,0.0753958,-0.0409144,0,0,0,0,0,0.361933,0.0753958,-1367900288,468368684,-1367900288,468368684,788184133,-1367900288,-1367900256,-1367900256,-0.116089,-0.261799,3.00015e-07,-1.5,0,0,0,3,0.321104,0.0822425,0,0,0,0,-0.039584,-0.00521569
1500,-3.1147e-12,1.68751e-38,-1.50476e-06,-3.18057e-12,1.6874e-38,0,-1.06634e-13,0,0,-3.15018,0.0814645,-0.0125156,0,0,0,0,0,0.289094,0.0814645,-1367900288,468368684,-1367900288,468368684,788184133,-1367900288,-1367900256,-1367900256,-0.11495,-0.261799,2.82275e-07,-1.5,0,0,0,3,0.315936,0.0819876,0,0,0,0,-0.0453227,-0.00579967
1510,-3.1147e-12,1.68751e-38,-1.50476e-06,-3.18057e-12,1.6874e-38,-3.59999e-12,-1.06635e-13,0,0,-3.15018,0.0814645,-0.0125156,0,0,0,0,0,0.289094,0.0814645,-1367900288,468368684,-1367900288,468368684,788184133,-1367900288,-1367900256,-1367900256,-0.110989,-0.261799,2.67304e-07,-1.5,0,0,0,3,0.312814,0.0812672,0,0,0,0,-0.048349,-0.0080181
1520,-3.1147e-12,1.68751e-38,-1.50476e-06,-3.18057e-12,1.6874e-38,0,-1.06635e-13,0,0,-3.15018,0.0814645,-0.0125156,0,0,0,0,0,0.289094,0.0814645,-1367900288,468368684,-1367900288,468368684,788184133,-1367900288,-1367900256,-1367900256,-0.11075,-0.261799,2.56739e-07,-1.5,0,0,0,3,0.311847,0.0811068,0,0,0,0,-0.048349,-0.0080181
1530,-3.1147e-12,1.68751e-38,-1.50476e-06,-3.18057e-12,1.6874e-38,-3.59999e-12,-1.06635e-13,0,0,-3.12724,0.0793516,-0.0156057,0,0,0,0,0,0.315535,0.0793516,-1367900288,468368684,-1367900288,468368684,788184133,-1367900288,-1367900256,-1367900256,-0.112082,-0.261799,2.43071e-07,-1.5,0,0,0,3,0.313225,0.0808895,0,0,0,0,-0.0461165,-0.00674361
1540,-3.1147e-12,1.68751e-38,-1.50476e-06,-3.18057e-12,1.6874e-38,0,-1.06635e-13,0,0,-3.14074,0.0859865,-0.0131996,0,0,0,0,0,0.300944,0.0859865,-1367900288,468368684,-1367900288,468368684,788184133,-1367900288,-1367900256,-1367900256,-0.110648,-0.261799,2.31072e-07,-1.5,0,0,0,3,0.306482,0.0807309,0,0,0,0,-0.0524429,-0.00766419
1550,-3.1147e-12,1.68751e-38,-1.50476e-06,-3.18057e-12,1.6874e-38,-3.59999e-12,-1.06636e-13,0,0,-3.12328,0.0780279,-0.00437952,0,0,0,0,0,0.319924,0.0780279,-1367900288,468368684,-1367900288,468368684,788184133,-1367900288,-1367900256,-1367900256,-0.108018,-0.261799,2.1972e-07,-1.5,0,0,0,3,0.30717,0.0801002,0,0,0,0,-0.0525367,-0.00896227
1560,-3.1147e-12,1.68751e-38,-1.50476e-06,-3.18057e-12,1.6874e-38,0,-1.06636e-13,0,0,-3.12328,0.0780279,-0.00437952,0,0,0,0,0,0.319924,0.0780279,-1367900288,468368684,-1367900288,468368684,788184133,-1367900288,-1367900256,-1367900256,-0.107804,-0.261799,2.12766e-07,-1.5,0,0,0,3,0.306329,0.0799568,0,0,0,0,-0.0525367,-0.00896227
1570,-3.1147e-12,1.68751e-38,-1.50476e-06,-3.18057e-12,1.6874e-38,-3.59999e-12,-1.06636e-13,0,0,-3.11542,0.0783297,-0.0019714,0,0,0,0,0,0.329164,0.0783297,-1367900288,468368684,-1367900288,468368684,788184133,-1367900288,-1367900256,-1367900256,-0.107118,-0.261799,2.01021e-07,-1.5,0,0,0,3,0.306147,0.0796295,0,0,0,0,-0.0509845,-0.00911413
1580,-3.1147e-12,1.68751e-38,-1.50476e-06,-3.18057e-12,1.6874e-38,0,-1.06637e-13,0,0,-3.1283,0.0827246,0.000475316,0,0,0,0,0,0.314903,0.0827246,-1367900288,468368684,-1367900288,468368684,788184133,-1367900288,-1367900256,-1367900256,-0.106567,-0.261799,1.89972e-07,-1.5,0,0,0,3,0.309129,0.0793881,0,0,0,0,-0.0440066,-0.00926046
1590,-3.1147e-12,1.68751e-38,-1.50476e-06,-3.18057e-12,1.6874e-38,-3.59999e-12,-1.06637e-13,0,0,-3.11568,0.0762195,0.000402625,0,0,0,0,0,0.32848,0.0762195,-1367900288,468368684,-1367900288,468368684,788184133,-1367900288,-1367900256,-1367900256,-0.10186,-0.261799,1.79896e-07,-1.5,0,0,0,3,0.312569,0.0778706,0,0,0,0,-0.0333355,-0.0111375
1600,-3.1147e-12,1.68751e-38,-1.50476e-06,-3.18057e-12,1.6874e-38,0,-1.06637e-13,0,0,-3.11568,0.0762195,0.000402625,0,0,0,0,0,0.32848,0.0762195,-1367900288,468368684,-1367900288,468368684,788184133,-1367900288,-1367900256,-1367900256,-0.101543,-0.261799,1.73146e-07,-1.5,0,0,0,3,0.311935,0.077659,0,0,0,0,-0.0333355,-0.0111375
1610,-3.1147e-12,1.68751e-38,-1.50476e-06,-3.18057e-12,1.6874e-38,-3.59999e-12,-1.06637e-13,0,0,-3.10319,0.0691786,-0.00826016,0,0,0,0,0,0.341793,0.0691786,-1367900288,468368684,-1367900288,468368684,788184133,-1367900288,-1367900256,-1367900256,-0.100265,-0.261799,1.63576e-07,-1.5,0,0,0,3,0.311548,0.0770286,0,0,0,0,-0.0382539,-0.0113965
1620,-3.1147e-12,1.68751e-38,-1.50476e-06,-3.18057e-12,1.6874e-38,0,-1.06638e-13,0,0,-3.10137,0.0628897,-0.0134529,0,0,0,0,0,0.342779,0.0628897,-1367900288,468368684,-1367900288,468368684,788184133,-1367900288,-1367900256,-1367900256,-0.0969828,-0.261799,1.53904e-07,-1.5,0,0,0,3,0.314062,0.0762698,0,0,0,0,-0.0291519,-0.0130492
1630,-3.1147e-12,1.68751e-38,-1.50476e-06,-3.18057e-12,1.6874e-38,-3.59999e-12,-1.06638e-13,0,0,-3.11308,0.0716988,-0.0112986,0,0,0,0,0,0.330695,0.0716988,-1367900288,468368684,-1367900288,468368684,788184133,-1367900288,-1367900256,-1367900256,-0.0982794,-0.261799,1.45741e-07,-1.5,0,0,0,3,0.313506,0.0761427,0,0,0,0,-0.0320455,-0.0119057
1640,-3.1147e-12,1.68751e-38,-1.50476e-06,-3.18057e-12,1.6874e-38,0,-1.06638e-13,0,0,-3.11308,0.0716988,-0.0112986,0,0,0,0,0,0.330695,0.0716988,-1367900288,468368684,-1367900288,468368684,788184133,-1367900288,-1367900256,-1367900256,-0.0979237,-0.261799,1.39981e-07,-1.5,0,0,0,3,0.312865,0.0759046,0,0,0,0,-0.0320455,-0.0119057
1650,-3.1147e-12,1.68751e-38,-1.50476e-06,-3.18057e-12,1.6874e-38,-3.59999e-12,-1.06638e-13,0,0,-3.10343,0.0754554,-0.023633,0,0,0,0,0,0.342657,0.0754554,-1367900288,468368684,-1367900288,468368684,788184133,-1367900288,-1367900256,-1367900256,-0.0967943,-0.261799,1.3252e-07,-1.5,0,0,0,3,0.325245,0.0754343,0,0,0,0,-0.0157374,-0.012234
1660,-3.1147e-12,1.68751e-38,-1.50476e-06,-3.18057e-12,1.6874e-38,0,-1.06639e-13,0,0,-3.10745,0.0759363,-0.00603986,0,0,0,0,0,0.338045,0.0759363,-1367900288,468368684,-1367900288,468368684,788184133,-1367900288,-1367900256,-1367900256,-0.0950752,-0.261799,1.25196e-07,-1.5,0,0,0,3,0.324747,0.0747521,0,0,0,0,-0.0168778,-0.0127724
1670,-3.1147e-12,1.68751e-38,-1.50476e-06,-3.18057e-12,1.6874e-38,-3.59999e-12,-1.06639e-13,0,0,-3.10306,0.0893755,0.0050464,0,0,0,0,0,0.345629,0.0893755,-1367900288,468368684,-1367900288,468368684,788184133,-1367900288,-1367900256,-1367900256,-0.0949588,-0.261799,1.19286e-07,-1.5,0,0,0,3,0.327998,0.0746809,0,0,0,0,-0.00402733,-0.0127801
1680,-3.1147e-12,1.68751e-38,-1.50476e-06,-3.18057e-12,1.6874e-38,0,-1.06639e-13,0,0,-3.10306,0.0893755,0.0050464,0,0,0,0,0,0.345629,0.0893755,-1367900288,468368684,-1367900288,468368684,788184133,-1367900288,-1367900256,-1367900256,-0.0946724,-0.261799,1.15747e-07,-1.5,0,0,0,3,0.327938,0.0744892,0,0,0,0,-0.00402733,-0.0127801
1690,-3.1147e-12,1.68751e-38,-1.50476e-06,-3.18057e-12,1.6874e-38,-3.59999e-12,-1.0664e-13,0,0,-3.0988,0.0936836,0.0404014,0,0,0,0,0,0.351391,0.0936836,-1367900288,468368684,-1367900288,468368684,788184133,-1367900288,-1367900256,-1367900256,-0.0933978,-0.261799,1.09131e-07,-1.5,0,0,0,3,0.330565,0.0740936,0,0,0,0,-0.000760828,-0.0133059
1700,-3.1147e-12,1.68751e-38,-1.50476e-06,-3.18057e-12,1.6874e-38,0,-1.0664e-13,0,0,-3.0988,0.0936836,0.0404014,0,0,0,0,0,0.351391,0.0936836,-1367900288,468368684,-1367900288,468368684,788184133,-1367900288,-1367900256,-1367900256,-0.0929406,-0.261799,1.04173e-07,-1.5,0,0,0,3,0.330548,0.0737876,0,0,0,0,-0.000760828,-0.0133059
1710,-3.1147e-12,1.68751e-38,-1.50476e-06,-3.18057e-12,1.6874e-38,-3.59999e-12,-1.0664e-13,0,0,-3.0988,0.0936836,0.0404014,0,0,0,0,0,0.351391,0.0936836,-1367900288,468368684,-1367900288,468368684,788184133,-1367900288,-1367900256,-1367900256,-0.0925629,-0.261799,1.00261e-07,-1.5,0,0,0,3,0.330533,0.0735348,0,0,0,0,-0.000760828,-0.0133059
1720,-3.1147e-12,1.68751e-38,-1.50476e-06,-3.18057e-12,1.6874e-38,0,-1.0664e-13,0,0,-3.0988,0.0936836,0.0404014,0,0,0,0,0,0.351391,0.0936836,-1367900288,468368684,-1367900288,468368684,788184133,-1367900288,-1367900256,-1367900256,-0.0921057,-0.261799,9.57064e-08,-1.5,0,0,0,3,0.330516,0.0732288,0,0,0,0,-0.000760828,-0.0133059
1730,-3.1147e-12,1.68751e-38,-1.50476e-06,-3.18057e-12,1.6874e-38,-3.59999e-12,-1.06641e-13,0,0,-3.0988,0.0936836,0.0404014,0,0,0,0,0,0.351391,0.0936836,-1367900288,468368684,-1367900288,468368684,788184133,-1367900288,-1367900256,-1367900256,-0.0916287,-0.261799,9.11704e-08,-1.5,0,0,0,3,0.330498,0.0729094,0,0,0,0,-0.000760828,-0.0133059
1740,-3.1147e-12,1.68751e-38,-1.50476e-06,-3.18057e-12,1.6874e-38,0,-1.06641e-13,0,0,-3.0988,0.0936836,0.0404014,0,0,0,0,0,0.351391,0.0936836,-1367900288,468368684,-1367900288,468368684,788184133,-1367900288,-1367900256,-1367900256,-0.091251,-0.261799,8.77465e-08,-1.5,0,0,0,3,0.330483,0.0726566,0,0,0,0,-0.000760828,-0.0133059
1750,-3.1147e-12,1.68751e-38,-1.50476e-06,-3.18057e-12,1.6874e-38,-3.59999e-12,-1.06641e-13,0,0,-3.0988,0.0936836,0.0404014,0,0,0,0,0,0.351391,0.0936836,-1367900288,468368684,-1367900288,468368684,788184133,-1367900288,-1367900256,-1367900256,-0.0907938,-0.261799,8.37646e-08,-1.5,0,0,0,3,0.330466,0.0723506,0,0,0,0,-0.000760828,-0.0133059
1760,-3.1147e-12,1.68751e-38,-1.50476e-06,-3.18057e-12,1.6874e-38,0,-1.06641e-13,0,0,-3.0988,0.0936836,0.0404014,0,0,0,0,0,0.351391,0.0936836,-1367900288,468368684,-1367900288,468368684,788184133,-1367900288,-1367900256,-1367900256,-0.0903167,-0.261799,7.97989e-08,-1.5,0,0,0,3,0.330447,0.0720313,0,0,0,0,-0.000760828,-0.0133059
1770,-3.1147e-12,1.68751e-38,-1.50476e-06,-3.18057e-12,1.6874e-38,-3.59999e-12,-1.06642e-13,0,0,-3.0988,0.0936836,0.0404014,0,0,0,0,0,0.351391,0.0936836,-1367900288,468368684,-1367900288,468368684,788184133,-1367900288,-1367900256,-1367900256,-0.089939,-0.261799,7.68021e-08,-1.5,0,0,0,3,0.330433,0.0717785,0,0,0,0,-0.000760828,-0.0133059
1780,-3.1147e-12,1.68751e-38,-1.50476e-06,-3.18057e-12,1.6874e-38,0,-1.06642e-13,0,0,-3.0988,0.0936836,0.0404014,0,0,0,0,0,0.351391,0.0936836,-1367900288,468368684,-1367900288,468368684,788184133,-1367900288,-1367900256,-1367900256,-0.0894818,-0.261799,7.33168e-08,-1.5,0,0,0,3,0.330415,0.0714724,0,0,0,0,-0.000760828,-0.0133059
1790,-3.1147e-12,1.68751e-38,-1.50476e-06,-3.18057e-12,1.6874e-38,-3.59999e-12,-1.06642e-13,0,0,-3.0988,0.0936836,0.0404014,0,0,0,0,0,0.351391,0.0936836,-1367900288,468368684,-1367900288,468368684,788184133,-1367900288,-1367900256,-1367900256,-0.0890047,-0.261799,6.9842e-08,-1.5,0,0,0,3,0.330397,0.0711531,0,0,0,0,-0.000760828,-0.0133059
1800,-3.1147e-12,1.68751e-38,-1.50476e-06,-3.18057e-12,1.6874e-38,0,-1.06643e-13,0,0,-3.0988,0.0936836,0.0404014,0,0,0,0,0,0.351391,0.0936836,-1367900288,468368684,-1367900288,468368684,788184133,-1367900288,-1367900256,-1367900256,-0.0886668,-0.261799,6.7494e-08,-1.5,0,0,0,3,0.330384,0.0709269,0,0,0,0,-0.000760828,-0.0133059
1810,-3.1147e-12,1.68751e-38,-1.50476e-06,-3.18057e-12,1.6874e-38,-3.59999e-12,-1.06643e-13,0,0,-3.0988,0.0936836,0.0404014,0,0,0,0,0,0.351391,0.0936836,-1367900288,468368684,-1367900288,468368684,788184133,-1367900288,-1367900256,-1367900256,-0.0880506,-0.261799,6.33652e-08,-1.5,0,0,0,3,0.330361,0.0705144,0,0,0,0,-0.000760828,-0.0133059
1820,-3.1147e-12,1.68751e-38,-1.50476e-06,-3.18057e-12,1.6874e-38,0,-1.06643e-13,0,0,-3.0988,0.0936836,0.0404014,0,0,0,0,0,0.351391,0.0936836,-1367900288,468368684,-1367900288,468368684,788184133,-1367900288,-1367900256,-1367900256,-0.0876132,-0.261799,6.06114e-08,-1.5,0,0,0,3,0.330344,0.0702217,0,0,0,0,-0.000760828,-0.0133059
1830,-3.1147e-12,1.68751e-38,-1.50476e-06,-3.18057e-12,1.6874e-38,-3.59999e-12,-1.06643e-13,0,0,-3.0988,0.0936836,0.0404014,0,0,0,0,0,0.351391,0.0936836,-1367900288,468368684,-1367900288,468368684,788184133,-1367900288,-1367900256,-1367900256,-0.0871958,-0.261799,5.80966e-08,-1.5,0,0,0,3,0.330328,0.0699423,0,0,0,0,-0.000760828,-0.0133059
1840,-3.1147e-12,1.68751e-38,-1.50476e-06,-3.18057e-12,1.6874e-38,0,-1.06644e-13,0,0,-3.0988,0.0936836,0.0404014,0,0,0,0,0,0.351391,0.0936836,-1367900288,468368684,-1367900288,468368684,788184133,-1367900288,-1367900256,-1367900256,-0.0867783,-0.261799,5.56884e-08,-1.5,0,0,0,3,0.330312,0.0696629,0,0,0,0,-0.000760828,-0.0133059
1850,-3.1147e-12,1.68751e-38,-1.50476e-06,-3.18057e-12,1.6874e-38,-3.59999e-12,-1.06644e-13,0,0,-3.0988,0.0936836,0.0404014,0,0,0,0,0,0.351391,0.0936836,-1367900288,468368684,-1367900288,468368684,788184133,-1367900288,-1367900256,-1367900256,-0.086341,-0.261799,5.32707e-08,-1.5,0,0,0,3,0.330295,0.0693702,0,0,0,0,-0.000760828,-0.0133059
