timestamp,A_x,A_y,A_z,P,Q,R,Phi,Theta,Psi,poseX,poseY,poseZ,state_X,state_Y,state_Z,state_VzB,state_Bx,state_By,state_Bz,p1_x,p1_y,p2_x,p2_y,p3_x,p3_y,p4_x,p4_y,roll,pitch,yaw,alt,targetHeading,highLevelState,lowLevelState,gateNumber,filtered_x,filtered_y,x_OT,y_OT,vx_OT,vy_OT,filtered_vx,filtered_vygateArea
10,0,0,0,0,0,0,0,0,0,0,0,0,0,0,0,0,0,0,0,0,0,0,0,0,0,0,0,0,-0.261799,0.00779127,-1.5,-nan,0,0,3,0,0,0,0,0,0,0,0,1.9603e-19
20,0,0,0,0,0,0,0,0,0,0,0,0,0,0,0,0,0,0,0,0,0,0,0,0,0,0,0,0,-0.261799,0.00759068,-1.5,-nan,0,0,3,0,0,0,0,0,0,0,0,1.9603e-19
30,-3.34207e-12,1.22136e-38,-1.61326e-06,-3.40794e-12,1.22125e-38,-3.96878e-12,-1.13703e-13,0,0,0,0,0,0,0,0,0,0,0,0,0,0,0,0,0,0,0,0,0,-0.261799,-8.94592e-05,-1.5,-nan,0,0,3,0,0,0,0,0,0,0,0,1.9603e-19
40,-3.34207e-12,1.22136e-38,-1.61326e-06,-3.40794e-12,1.22125e-38,0,-1.13703e-13,0,0,0,0,0,0,0,0,0,0,0,0,0,0,0,0,0,0,0,0,0,-0.261799,-8.66296e-05,-1.5,-nan,0,0,3,0,0,0,0,0,0,0,0,1.9603e-19
50,-3.34207e-12,1.22136e-38,-1.61326e-06,-3.40794e-12,1.22125e-38,-3.96878e-12,-1.13704e-13,0,0,0,0,0,0,0,0,0,0,0,0,0,0,0,0,0,0,0,0,0,-0.261799,-8.40583e-05,-1.5,-nan,0,0,3,0,0,0,0,0,0,0,0,1.9603e-19
60,-3.34207e-12,1.22136e-38,-1.61326e-06,-3.40794e-12,1.22125e-38,0,-1.13704e-13,0,0,0,0,0,0,0,0,0,0,0,0,0,0,0,0,0,0,0,0,0,-0.261799,-8.04052e-05,-1.5,-nan,0,0,3,0,0,0,0,0,0,0,0,1.9603e-19
70,-3.34207e-12,1.22136e-38,-1.61326e-06,-3.40794e-12,1.22125e-38,-3.96878e-12,-1.13705e-13,0,0,0,0,0,0,0,0,0,0,0,0,0,0,0,0,0,0,0,0,0,-0.261799,-7.7862e-05,-1.5,-nan,0,0,3,0,0,0,0,0,0,0,0,1.9603e-19
80,-3.34207e-12,1.22136e-38,-1.61326e-06,-3.40794e-12,1.22125e-38,0,-1.13705e-13,0,0,0,0,0,0,0,0,0,0,0,0,0,0,0,0,0,0,0,0,0,-0.261799,-7.5551e-05,-1.5,-nan,0,0,3,0,0,0,0,0,0,0,0,1.9603e-19
90,-3.34207e-12,1.22136e-38,-1.61326e-06,-3.40794e-12,1.22125e-38,-3.96878e-12,-1.13706e-13,0,0,0,0,0,0,0,0,0,0,0,0,0,0,0,0,0,0,0,0,0,-0.261799,-7.24163e-05,-1.5,-nan,0,0,3,0,0,0,0,0,0,0,0,1.9603e-19
100,-3.34207e-12,1.22136e-38,-1.61326e-06,-3.40794e-12,1.22125e-38,0,-1.13706e-13,0,0,0,0,0,0,0,0,0,0,0,0,0,0,0,0,0,0,0,0,0,-0.261799,-6.94117e-05,-1.5,-nan,0,0,3,0,0,0,0,0,0,0,0,1.9603e-19
110,-3.34207e-12,1.22136e-38,-1.61326e-06,-3.40794e-12,1.22125e-38,-3.96878e-12,-1.13707e-13,0,0,0,0,0,0,0,0,0,0,0,0,0,0,0,0,0,0,0,0,0,-0.261799,-6.13403e-05,-1.5,-nan,0,0,3,0,0,0,0,0,0,0,0,1.9603e-19
120,-3.34207e-12,1.22136e-38,-1.61326e-06,-3.40794e-12,1.22125e-38,0,-1.13708e-13,0,0,0,0,0,0,0,0,0,0,0,0,0,0,0,0,0,0,0,0,0,-0.261799,-5.27734e-05,-1.5,-nan,0,0,3,0,0,0,0,0,0,0,0,1.9603e-19
130,-3.34207e-12,1.22136e-38,-1.61326e-06,-3.40794e-12,1.22125e-38,-3.96878e-12,-1.13708e-13,0,0,0,0,0,0,0,0,0,0,0,0,0,0,0,0,0,0,0,0,0,-0.261799,-4.90309e-05,-1.5,-nan,0,0,3,0,0,0,0,0,0,0,0,1.9603e-19
140,-3.34207e-12,1.22136e-38,-1.61326e-06,-3.40794e-12,1.22125e-38,0,-1.13709e-13,0,0,0,0,0,0,0,0,0,0,0,0,0,0,0,0,0,0,0,0,0,-0.261799,-4.64176e-05,-1.5,-nan,0,0,3,0,0,0,0,0,0,0,0,1.9603e-19
150,-3.34207e-12,1.22136e-38,-1.61326e-06,-3.40794e-12,1.22125e-38,-3.96878e-12,-1.13709e-13,0,0,0,0,0,0,0,0,0,0,0,0,0,0,0,0,0,0,0,0,0,-0.261799,-4.44917e-05,-1.5,-nan,0,0,3,0,0,0,0,0,0,0,0,1.9603e-19
160,-3.34207e-12,1.22136e-38,-1.61326e-06,-3.40794e-12,1.22125e-38,0,-1.1371e-13,0,0,0,0,0,0,0,0,0,0,0,0,0,0,0,0,0,0,0,0,0,-0.261799,-4.27349e-05,-1.5,-nan,0,0,3,0,0,0,0,0,0,0,0,1.9603e-19
170,-3.34207e-12,1.22136e-38,-1.61326e-06,-3.40794e-12,1.22125e-38,-3.96878e-12,-1.1371e-13,0,0,0,0,0,0,0,0,0,0,0,0,0,0,0,0,0,0,0,0,0,-0.261799,-4.1551e-05,-1.5,-nan,0,0,3,0,0,0,0,0,0,0,0,1.9603e-19
180,-3.34207e-12,1.22136e-38,-1.61326e-06,-3.40794e-12,1.22125e-38,0,-1.13711e-13,0,0,0,0,0,0,0,0,0,0,0,0,0,0,0,0,0,0,0,0,0,-0.261799,-4.02368e-05,-1.5,-nan,0,0,3,0,0,0,0,0,0,0,0,1.9603e-19
190,-3.34207e-12,1.22136e-38,-1.61326e-06,-3.40794e-12,1.22125e-38,-3.96878e-12,-1.13711e-13,0,0,0,0,0,0,0,0,0,0,-1.4,0,-1470583649,-1367288264,-1470583649,-1367288264,-1367288224,-1367288224,-1367288184,1579333274,0,-0.261799,-3.73297e-05,-1.5,-nan,0,0,3,0,0,0,0,0,0,0,0,0
200,-3.34207e-12,1.22136e-38,-1.61326e-06,-3.40794e-12,1.22125e-38,0,-1.13712e-13,0,0,0,0,0,0,0,0,0,0,-1.4,0,-1470583649,-1367288264,-1470583649,-1367288264,-1367288224,-1367288224,-1367288184,1579333274,0,-0.261799,-3.6369e-05,-1.5,-nan,0,0,3,0,0,0,0,0,0,0,0,0
210,-3.34207e-12,1.22136e-38,-1.61326e-06,-3.40794e-12,1.22125e-38,-3.96878e-12,-1.13712e-13,0,0,0,0,0,0,0,0,0,0,-1.4,0,-1470583649,-1367288264,-1470583649,-1367288264,-1367288224,-1367288224,-1367288184,1579333274,0,-0.261799,-3.52179e-05,-1.5,-nan,0,0,3,0,0,0,0,0,0,0,0,0
220,-3.34207e-12,1.22136e-38,-1.61326e-06,-3.40794e-12,1.22125e-38,0,-1.13713e-13,0,0,0,0,0,0,0,0,0,0,-1.4,0,-1470583649,-1367288264,-1470583649,-1367288264,-1367288224,-1367288224,-1367288184,1579333274,0,-0.261799,-3.41731e-05,-1.5,-nan,0,0,3,0,0,0,0,0,0,0,0,0
230,-3.34207e-12,1.22136e-38,-1.61326e-06,-3.40794e-12,1.22125e-38,-3.96878e-12,-1.13714e-13,0,0,-9.7452,-1.28075,-0.327385,0,0,0,0,0,-1.29808,-1.28075,189,63,189,63,229,63,189,102,0,-0.261799,-3.27566e-05,-1.5,-nan,0,0,3,0,0,0,0,0,0,0,0,1560
240,-3.34207e-12,1.22136e-38,-1.61326e-06,-3.40794e-12,1.22125e-38,0,-1.13714e-13,0,0,-9.7452,-1.28075,-0.327385,0,0,0,0,0,-1.29808,-1.28075,189,63,189,63,229,63,189,102,0,-0.261799,-3.17205e-05,-1.5,-nan,0,0,3,0,0,0,0,0,0,0,0,1560
250,-3.34207e-12,1.22136e-38,-1.61326e-06,-3.40794e-12,1.22125e-38,-3.96878e-12,-1.13715e-13,0,0,-9.7452,-1.28075,-0.327385,0,0,0,0,0,-1.29808,-1.28075,189,63,189,63,229,63,189,102,0,-0.261799,-3.02188e-05,-1.5,-nan,0,0,3,0,0,0,0,0,0,0,0,1560
260,-3.34207e-12,1.22136e-38,-1.61326e-06,-3.40794e-12,1.22125e-38,0,-1.13715e-13,0,0,-9.7452,-1.28075,-0.327385,0,0,0,0,0,-1.29808,-1.28075,189,63,189,63,229,63,189,102,0,-0.261799,-2.92629e-05,-1.5,-nan,0,0,3,0,0,0,0,0,0,0,0,1560
270,-3.34207e-12,1.22136e-38,-1.61326e-06,-3.40794e-12,1.22125e-38,-3.96878e-12,-1.13716e-13,0,0,-9.99824,-1.32829,-0.278761,0,0,0,0,0,-1.3993,-1.32829,190,63,190,63,229,63,190,101,0,-0.261799,-2.79925e-05,-1.5,-nan,0,0,3,0,0,0,0,0,0,0,0,1482
280,-3.34207e-12,1.22136e-38,-1.61326e-06,-3.40794e-12,1.22125e-38,0,-1.13716e-13,0,0,-9.99824,-1.32829,-0.278761,0,0,0,0,0,-1.3993,-1.32829,190,63,190,63,229,63,190,101,0,-0.261799,-2.70514e-05,-1.5,-nan,0,0,3,0,0,0,0,0,0,0,0,1482
290,-3.34207e-12,1.22136e-38,-1.61326e-06,-3.40794e-12,1.22125e-38,-3.96878e-12,-1.13717e-13,0,0,-9.99824,-1.32829,-0.278761,0,0,0,0,0,-1.3993,-1.32829,190,63,190,63,229,63,190,101,0,-0.261799,-2.5877e-05,-1.5,-nan,0,0,3,0,0,0,0,0,0,0,0,1482
300,-3.34207e-12,1.22136e-38,-1.61326e-06,-3.40794e-12,1.22125e-38,0,-1.13717e-13,0,0,-9.87179,-1.31154,-0.310256,0,0,0,0,0,-1.34872,-1.31154,190,63,190,63,229,63,190,102,0,-0.261799,-2.5058e-05,-1.5,-nan,0,0,3,0,0,0,0,0,0,0,0,1521
310,-3.34207e-12,1.22136e-38,-1.61326e-06,-3.40794e-12,1.22125e-38,-3.96878e-12,-1.13718e-13,0,0,-9.87179,-1.31154,-0.310256,0,0,0,0,0,-1.34872,-1.31154,190,63,190,63,229,63,190,102,0,-0.261799,-2.42649e-05,-1.5,-nan,0,0,3,0,0,0,0,0,0,0,0,1521
320,-3.34207e-12,1.22136e-38,-1.61326e-06,-3.40794e-12,1.22125e-38,0,-1.13718e-13,0,0,-9.87179,-1.31154,-0.310256,0,0,0,0,0,-1.34872,-1.31154,190,63,190,63,229,63,190,102,0,-0.261799,-2.30684e-05,-1.5,-nan,0,0,3,0,0,0,0,0,0,0,0,1521
330,-3.34207e-12,1.22136e-38,-1.61326e-06,-3.40794e-12,1.22125e-38,-3.96878e-12,-1.13719e-13,0,0,-9.87179,-1.31154,-0.310256,0,0,0,0,0,-1.34872,-1.31154,190,63,190,63,229,63,190,102,0,-0.261799,-2.23383e-05,-1.5,-nan,0,0,3,0,0,0,0,0,0,0,0,1521
340,-3.34207e-12,1.22136e-38,-1.61326e-06,-3.40794e-12,1.22125e-38,0,-1.13719e-13,0,0,-9.87179,-1.31154,-0.310256,0,0,0,0,0,-1.34872,-1.31154,190,63,190,63,229,63,190,102,0.261799,-0.261799,-2.11052e-05,-1.5,-nan,0,0,3,-1.38135,-1.33138,0,0,0,0,-0.375081,-0.228074,1521
350,-3.34207e-12,1.22136e-38,-1.61326e-06,-3.40794e-12,1.22125e-38,-3.96878e-12,-1.1372e-13,0,0,-9.87179,-1.31154,-0.310256,0,0,0,0,0,-1.34872,-1.31154,190,63,190,63,229,63,190,102,0.261799,-0.261799,-2.03957e-05,-1.5,-nan,0,0,3,-1.38773,-1.33526,0,0,0,0,-0.375081,-0.228074,1521
360,-3.34207e-12,1.22136e-38,-1.61326e-06,-3.40794e-12,1.22125e-38,0,-1.13721e-13,0,0,-9.87179,-1.31154,-0.310256,0,0,0,0,0,-1.34872,-1.31154,190,63,190,63,229,63,190,102,0.261799,-0.261799,-1.95102e-05,-1.5,-nan,0,0,3,-1.39598,-1.34028,0,0,0,0,-0.375081,-0.228074,1521
370,-3.34207e-12,1.22136e-38,-1.61326e-06,-3.40794e-12,1.22125e-38,-3.96878e-12,-1.13721e-13,0,0,-9.7453,-1.29478,-0.341397,0,0,0,0,0,-1.29812,-1.29478,190,63,190,63,229,63,190,103,0.261799,-0.261799,-1.87789e-05,-1.5,-nan,0,0,3,-1.29555,-1.29393,0,0,0,0,0.36666,0.12142,1560
380,-3.34207e-12,1.22136e-38,-1.61326e-06,-3.40794e-12,1.22125e-38,0,-1.13722e-13,0,0,-9.7453,-1.29478,-0.341397,0,0,0,0,0,-1.29812,-1.29478,190,63,190,63,229,63,190,103,0.261799,-0.261799,-1.79258e-05,-1.5,-nan,0,0,3,-1.28712,-1.29114,0,0,0,0,0.36666,0.12142,1560
390,-3.34207e-12,1.22136e-38,-1.61326e-06,-3.40794e-12,1.22125e-38,-3.96878e-12,-1.13722e-13,0,0,-9.7453,-1.29478,-0.341397,0,0,0,0,0,-1.29812,-1.29478,190,63,190,63,229,63,190,103,0.261799,-0.261799,-1.73589e-05,-1.5,-nan,0,0,3,-1.28125,-1.2892,0,0,0,0,0.36666,0.12142,1560
400,-3.34207e-12,1.22136e-38,-1.61326e-06,-3.40794e-12,1.22125e-38,0,-1.13723e-13,0,0,-9.7453,-1.29478,-0.341397,0,0,0,0,0,-1.29812,-1.29478,190,63,190,63,229,63,190,103,0.261799,-0.261799,-1.68094e-05,-1.5,-nan,0,0,3,-1.27539,-1.28725,0,0,0,0,0.36666,0.12142,1560
410,-3.34207e-12,1.22136e-38,-1.61326e-06,-3.40794e-12,1.22125e-38,-3.96878e-12,-1.13723e-13,0,0,-9.61899,-1.30533,-0.344463,0,0,0,0,0,-1.2476,-1.30533,190,63,190,63,231,63,190,102,0.261799,-0.261799,-1.59476e-05,-1.5,-nan,0,0,3,-1.26585,-1.30452,0,0,0,0,0.36666,0.0310337,1599
420,-3.34207e-12,1.22136e-38,-1.61326e-06,-3.40794e-12,1.22125e-38,0,-1.13724e-13,0,0,-9.61899,-1.30533,-0.344463,0,0,0,0,0,-1.2476,-1.30533,190,63,190,63,231,63,190,102,0.261799,-0.261799,-1.54428e-05,-1.5,-nan,0,0,3,-1.25999,-1.30403,0,0,0,0,0.36666,0.0310337,1599
430,-3.34207e-12,1.22136e-38,-1.61326e-06,-3.40794e-12,1.22125e-38,-3.96878e-12,-1.13724e-13,0,0,-9.61899,-1.30533,-0.344463,0,0,0,0,0,-1.2476,-1.30533,190,63,190,63,231,63,190,102,0.261799,-0.261799,-1.47717e-05,-1.5,-nan,0,0,3,-1.25192,-1.30335,0,0,0,0,0.36666,0.0310337,1599
440,-3.34207e-12,1.22136e-38,-1.61326e-06,-3.40794e-12,1.22125e-38,0,-1.13725e-13,0,0,-9.5047,-1.26272,-0.373603,0,0,0,0,0,-1.20188,-1.26272,189,63,189,63,230,63,189,103,0.261799,-0.261799,-1.4218e-05,-1.5,-nan,0,0,3,-1.20181,-1.27718,0,0,0,0,0.551641,0.12142,1640
450,-3.34207e-12,1.22136e-38,-1.61326e-06,-3.40794e-12,1.22125e-38,-3.96878e-12,-1.13725e-13,0,0,-9.5047,-1.26272,-0.373603,0,0,0,0,0,-1.20188,-1.26272,189,63,189,63,230,63,189,103,0.261799,-0.261799,-1.35728e-05,-1.5,-nan,0,0,3,-1.18912,-1.27438,0,0,0,0,0.551641,0.12142,1640
460,-3.34207e-12,1.22136e-38,-1.61326e-06,-3.40794e-12,1.22125e-38,0,-1.13726e-13,0,0,-9.5047,-1.26272,-0.373603,0,0,0,0,0,-1.20188,-1.26272,189,63,189,63,230,63,189,103,0.261799,-0.261799,-1.31432e-05,-1.5,-nan,0,0,3,-1.1803,-1.27244,0,0,0,0,0.551641,0.12142,1640
470,-3.34207e-12,1.22136e-38,-1.61326e-06,-3.40794e-12,1.22125e-38,-3.96878e-12,-1.13732e-13,0,0,-9.61881,-1.27783,-0.317004,0,0,0,0,0,-1.24752,-1.27783,189,62,189,62,230,62,189,101,0.261799,-0.261799,-1.24712e-05,-1.5,-nan,0,0,3,-1.22704,-1.27604,0,0,0,0,0.363992,0.0986679,1599
480,-3.34207e-12,1.22136e-38,-1.61326e-06,-3.40794e-12,1.22125e-38,0,-1.13727e-13,0,0,-9.61881,-1.27783,-0.317004,0,0,0,0,0,-1.24752,-1.27783,189,62,189,62,230,62,189,101,0.261799,-0.261799,-1.20281e-05,-1.5,-nan,0,0,3,-1.22049,-1.27426,0,0,0,0,0.363992,0.0986679,1599
490,-3.34207e-12,1.22136e-38,-1.61326e-06,-3.40794e-12,1.22125e-38,-3.96878e-12,-1.13727e-13,0,0,-9.61881,-1.27783,-0.317004,0,0,0,0,0,-1.24752,-1.27783,189,62,189,62,230,62,189,101,0.261799,-0.261799,-1.15059e-05,-1.5,-nan,0,0,3,-1.21248,-1.27209,0,0,0,0,0.363992,0.0986679,1599
500,-3.34207e-12,1.22136e-38,-1.61326e-06,-3.40794e-12,1.22125e-38,0,-1.13728e-13,0,0,-9.61881,-1.27783,-0.317004,0,0,0,0,0,-1.24752,-1.27783,189,62,189,62,230,62,189,101,0.261799,-0.261799,-1.11419e-05,-1.5,-nan,0,0,3,-1.20666,-1.27051,0,0,0,0,0.363992,0.0986679,1599
510,-3.34207e-12,1.22136e-38,-1.61326e-06,-3.40794e-12,1.22125e-38,-3.96878e-12,-1.13728e-13,0,0,-9.61881,-1.27783,-0.317004,0,0,0,0,0,-1.24752,-1.27783,189,62,189,62,230,62,189,101,0.261799,-0.261799,-1.05706e-05,-1.5,-nan,0,0,3,-1.1972,-1.26794,0,0,0,0,0.363992,0.0986679,1599
520,-3.34207e-12,1.22136e-38,-1.61326e-06,-3.40794e-12,1.22125e-38,0,-1.13729e-13,0,0,-9.61881,-1.27783,-0.317004,0,0,0,0,0,-1.24752,-1.27783,189,62,189,62,230,62,189,101,0.261799,-0.261799,-1.01948e-05,-1.5,-nan,0,0,3,-1.19064,-1.26617,0,0,0,0,0.363992,0.0986679,1599
530,-3.34207e-12,1.22136e-38,-1.61326e-06,-3.40794e-12,1.22125e-38,-3.96878e-12,-1.13729e-13,0,0,-9.61881,-1.27783,-0.317004,0,0,0,0,0,-1.24752,-1.27783,189,62,189,62,230,62,189,101,0.261799,-0.261799,-9.75172e-06,-1.5,-nan,0,0,3,-1.18264,-1.264,0,0,0,0,0.363992,0.0986679,1599
540,-3.34207e-12,1.22136e-38,-1.61326e-06,-3.40794e-12,1.22125e-38,0,-1.1373e-13,0,0,-9.61881,-1.27783,-0.317004,0,0,0,0,0,-1.24752,-1.27783,189,62,189,62,230,62,189,101,0.261799,-0.261799,-9.44308e-06,-1.5,-nan,0,0,3,-1.17645,-1.26232,0,0,0,0,0.363992,0.0986679,1599
550,-3.34207e-12,1.22136e-38,-1.61326e-06,-3.40794e-12,1.22125e-38,-3.96878e-12,-1.1373e-13,0,0,-9.61881,-1.27783,-0.317004,0,0,0,0,0,-1.24752,-1.27783,189,62,189,62,230,62,189,101,0.261799,-0.261799,-9.19996e-06,-1.5,-nan,0,0,3,-1.17135,-1.26094,0,0,0,0,0.363992,0.0986679,1599
560,-3.34207e-12,1.22136e-38,-1.61326e-06,-3.40794e-12,1.22125e-38,0,-1.13731e-13,0,0,-9.61881,-1.27783,-0.317004,0,0,0,0,0,-1.24752,-1.27783,189,62,189,62,230,62,189,101,0.261799,-0.261799,-8.80054e-06,-1.5,-nan,0,0,3,-1.16335,-1.25877,0,0,0,0,0.363992,0.0986679,1599
570,-3.34207e-12,1.22136e-38,-1.61326e-06,-3.40794e-12,1.22125e-38,-3.96878e-12,-1.13732e-13,0,0,-9.61881,-1.27783,-0.317004,0,0,0,0,0,-1.24752,-1.27783,189,62,189,62,230,62,189,101,0.261799,-0.261799,-8.52201e-06,-1.5,-nan,0,0,3,-1.15752,-1.25719,0,0,0,0,0.363992,0.0986679,1599
580,-3.34207e-12,1.22136e-38,-1.61326e-06,-3.40794e-12,1.22125e-38,0,-1.13738e-13,0,0,-10.3701,-1.85207,-0.450206,0,0,0,0,0,-1.54803,-1.85207,208,70,208,70,243,70,208,109,0.261799,-0.261799,-8.08506e-06,-1.5,-nan,0,0,3,-1.17782,-1.29348,0,0,0,0,0.296075,0.0334029,1365
590,-3.34207e-12,1.22136e-38,-1.61326e-06,-3.40794e-12,1.22125e-38,-3.96878e-12,-1.13733e-13,0,0,-10.3701,-1.85207,-0.450206,0,0,0,0,0,-1.54803,-1.85207,208,70,208,70,243,70,208,109,0.261799,-0.261799,-7.78169e-06,-1.5,-nan,0,0,3,-1.17219,-1.29285,0,0,0,0,0.296075,0.0334029,1365
600,-3.34207e-12,1.22136e-38,-1.61326e-06,-3.40794e-12,1.22125e-38,0,-1.13733e-13,0,0,-10.3701,-1.85207,-0.450206,0,0,0,0,0,-1.54803,-1.85207,208,70,208,70,243,70,208,109,0.261799,-0.261799,-7.44384e-06,-1.5,-nan,0,0,3,-1.16568,-1.29211,0,0,0,0,0.296075,0.0334029,1365
610,-3.34207e-12,1.22136e-38,-1.61326e-06,-3.40794e-12,1.22125e-38,-3.96878e-12,-1.13735e-13,0,0,-8.74539,-1.61227,-0.900675,0,0,0,0,0,-0.898155,-1.61227,208,76,208,76,247,76,208,124,0.261799,-0.261799,-7.15058e-06,-1.5,-nan,0,0,3,-1.09195,-1.52529,0,0,0,0,0.421334,-0.34207,1872
620,-3.34207e-12,1.22136e-38,-1.61326e-06,-3.40794e-12,1.22125e-38,0,-1.13734e-13,0,0,-8.74539,-1.61227,-0.900675,0,0,0,0,0,-0.898155,-1.61227,208,76,208,76,247,76,208,124,0.261799,-0.261799,-6.83982e-06,-1.5,-nan,0,0,3,-1.08268,-1.53282,0,0,0,0,0.421334,-0.34207,1872
630,-3.34207e-12,1.22136e-38,-1.61326e-06,-3.40794e-12,1.22125e-38,-3.96878e-12,-1.13735e-13,0,0,-8.74539,-1.61227,-0.900675,0,0,0,0,0,-0.898155,-1.61227,208,76,208,76,247,76,208,124,0.261799,-0.261799,-6.62348e-06,-1.5,-nan,0,0,3,-1.07552,-1.53863,0,0,0,0,0.421334,-0.34207,1872
640,-3.34207e-12,1.22136e-38,-1.61326e-06,-3.40794e-12,1.22125e-38,0,-1.13736e-13,0,0,-8.74539,-1.61227,-0.900675,0,0,0,0,0,-0.898155,-1.61227,208,76,208,76,247,76,208,124,0.261799,-0.261799,-6.29767e-06,-1.5,-nan,0,0,3,-0.972056,-1.61923,0,0,0,0,0.563256,-0.449187,1872
650,-3.34207e-12,1.22136e-38,-1.61326e-06,-3.40794e-12,1.22125e-38,-3.96878e-12,-1.13736e-13,0,0,-8.74539,-1.61227,-0.900675,0,0,0,0,0,-0.898155,-1.61227,208,76,208,76,247,76,208,124,0.261799,-0.261799,-6.06169e-06,-1.5,-nan,0,0,3,-0.961354,-1.62776,0,0,0,0,0.563256,-0.449187,1872
660,-3.34207e-12,1.22136e-38,-1.61326e-06,-3.40794e-12,1.22125e-38,0,-1.13737e-13,0,0,-8.74539,-1.61227,-0.900675,0,0,0,0,0,-0.898155,-1.61227,208,76,208,76,247,76,208,124,0.261799,-0.261799,-5.79852e-06,-1.5,-nan,0,0,3,-0.948962,-1.63764,0,0,0,0,0.563256,-0.449187,1872
670,-3.34207e-12,1.22136e-38,-1.61326e-06,-3.40794e-12,1.22125e-38,-3.96878e-12,-1.13739e-13,0,0,-9.35984,-1.8589,-1.15534,0,0,0,0,0,-1.14393,-1.8589,213,90,213,90,252,90,213,133,0.261799,-0.261799,-5.50222e-06,-1.5,-nan,0,0,3,-1.01856,-1.6524,0,0,0,0,0.437164,-0.460883,1677
680,-3.34207e-12,1.22136e-38,-1.61326e-06,-3.40794e-12,1.22125e-38,0,-1.13738e-13,0,0,-9.35984,-1.8589,-1.15534,0,0,0,0,0,-1.14393,-1.8589,213,90,213,90,252,90,213,133,0.261799,-0.261799,-5.32819e-06,-1.5,-nan,0,0,3,-1.01157,-1.65977,0,0,0,0,0.437164,-0.460883,1677
690,-3.34207e-12,1.22136e-38,-1.61326e-06,-3.40794e-12,1.22125e-38,-3.96878e-12,-1.1374e-13,0,0,-9.35984,-1.8589,-1.15534,0,0,0,0,0,-1.14393,-1.8589,213,90,213,90,252,90,213,133,0.261799,-0.261799,-5.10733e-06,-1.5,-nan,0,0,3,-1.00239,-1.66945,0,0,0,0,0.437164,-0.460883,1677
700,-3.34207e-12,1.22136e-38,-1.61326e-06,-3.40794e-12,1.22125e-38,0,-1.1374e-13,0,0,-9.35984,-1.8589,-1.15534,0,0,0,0,0,-1.14393,-1.8589,213,90,213,90,252,90,213,133,0.261799,-0.261799,-4.94578e-06,-1.5,-nan,0,0,3,-0.995394,-1.67683,0,0,0,0,0.437164,-0.460883,1677
710,-3.34207e-12,1.22136e-38,-1.61326e-06,-3.40794e-12,1.22125e-38,-3.96878e-12,-1.13742e-13,0,0,-11.2165,-2.32389,-1.18541,0,0,0,0,0,-1.8866,-2.32389,220,97,220,97,251,97,220,134,0.261799,-0.261799,-4.70164e-06,-1.5,-nan,0,0,3,-1.12084,-1.75369,0,0,0,0,0.256135,-0.578498,1147
720,-3.34207e-12,1.22136e-38,-1.61326e-06,-3.40794e-12,1.22125e-38,0,-1.13741e-13,0,0,-11.2165,-2.32389,-1.18541,0,0,0,0,0,-1.8866,-2.32389,220,97,220,97,251,97,220,134,0.261799,-0.261799,-4.53446e-06,-1.5,-nan,0,0,3,-1.11597,-1.76468,0,0,0,0,0.256135,-0.578498,1147
730,-3.34207e-12,1.22136e-38,-1.61326e-06,-3.40794e-12,1.22125e-38,-3.96878e-12,-1.13742e-13,0,0,-11.2165,-2.32389,-1.18541,0,0,0,0,0,-1.8866,-2.32389,220,97,220,97,251,97,220,134,0.261799,-0.261799,-4.33759e-06,-1.5,-nan,0,0,3,-1.11034,-1.77741,0,0,0,0,0.256135,-0.578498,1147
740,-3.34207e-12,1.22136e-38,-1.61326e-06,-3.40794e-12,1.22125e-38,0,-1.13744e-13,0,0,-9.45518,-1.87826,-1.44747,0,0,0,0,0,-1.18207,-1.87826,215,100,215,100,250,100,215,145,0.261799,-0.261799,-4.16666e-06,-1.5,-nan,0,0,3,-1.11691,-1.87759,0,0,0,0,0.240823,-0.658546,1575
750,-3.34207e-12,1.22136e-38,-1.61326e-06,-3.40794e-12,1.22125e-38,-3.96878e-12,-1.13743e-13,0,0,-9.45518,-1.87826,-1.44747,0,0,0,0,0,-1.18207,-1.87826,215,100,215,100,250,100,215,145,0.261799,-0.261799,-3.97758e-06,-1.5,-nan,0,0,3,-1.11137,-1.89274,0,0,0,0,0.240823,-0.658546,1575
760,-3.34207e-12,1.22136e-38,-1.61326e-06,-3.40794e-12,1.22125e-38,0,-1.13744e-13,0,0,-9.45518,-1.87826,-1.44747,0,0,0,0,0,-1.18207,-1.87826,215,100,215,100,250,100,215,145,0.261799,-0.261799,-3.85176e-06,-1.5,-nan,0,0,3,-1.10752,-1.90327,0,0,0,0,0.240823,-0.658546,1575
770,-3.34207e-12,1.22136e-38,-1.61326e-06,-3.40794e-12,1.22125e-38,-3.96878e-12,-1.13745e-13,0,0,-9.45518,-1.87826,-1.44747,0,0,0,0,0,-1.18207,-1.87826,215,100,215,100,250,100,215,145,0.261799,-0.261799,-3.68454e-06,-1.5,-nan,0,0,3,-1.10222,-1.91776,0,0,0,0,0.240823,-0.658546,1575
780,-3.34207e-12,1.22136e-38,-1.61326e-06,-3.40794e-12,1.22125e-38,0,-1.13745e-13,0,0,-9.45518,-1.87826,-1.44747,0,0,0,0,0,-1.18207,-1.87826,215,100,215,100,250,100,215,145,0.261799,-0.261799,-3.56076e-06,-1.5,-nan,0,0,3,-1.09813,-1.92896,0,0,0,0,0.240823,-0.658546,1575
790,-3.34207e-12,1.22136e-38,-1.61326e-06,-3.40794e-12,1.22125e-38,-3.96878e-12,-1.13746e-13,0,0,-9.45518,-1.87826,-1.44747,0,0,0,0,0,-1.18207,-1.87826,215,100,215,100,250,100,215,145,0.261799,-0.261799,-3.40617e-06,-1.5,-nan,0,0,3,-1.09283,-1.94345,0,0,0,0,0.240823,-0.658546,1575
800,-3.34207e-12,1.22136e-38,-1.61326e-06,-3.40794e-12,1.22125e-38,0,-1.13746e-13,0,0,-9.45518,-1.87826,-1.44747,0,0,0,0,0,-1.18207,-1.87826,215,100,215,100,250,100,215,145,0.261799,-0.261799,-3.29836e-06,-1.5,-nan,0,0,3,-1.08898,-1.95398,0,0,0,0,0.240823,-0.658546,1575
810,-3.34207e-12,1.22136e-38,-1.61326e-06,-3.40794e-12,1.22125e-38,-3.96878e-12,-1.13747e-13,0,0,-9.45518,-1.87826,-1.44747,0,0,0,0,0,-1.18207,-1.87826,215,100,215,100,250,100,215,145,0.261799,-0.261799,-3.15516e-06,-1.5,-nan,0,0,3,-1.08368,-1.96847,0,0,0,0,0.240823,-0.658546,1575
820,-3.34207e-12,1.22136e-38,-1.61326e-06,-3.40794e-12,1.22125e-38,0,-1.13747e-13,0,0,-9.45518,-1.87826,-1.44747,0,0,0,0,0,-1.18207,-1.87826,215,100,215,100,250,100,215,145,0.261799,-0.261799,-3.00578e-06,-1.5,-nan,0,0,3,-1.0779,-1.98428,0,0,0,0,0.240823,-0.658546,1575
830,-3.34207e-12,1.22136e-38,-1.61326e-06,-3.40794e-12,1.22125e-38,-3.96878e-12,-1.13748e-13,0,0,-9.45518,-1.87826,-1.44747,0,0,0,0,0,-1.18207,-1.87826,215,100,215,100,250,100,215,145,0.261799,-0.261799,-2.91065e-06,-1.5,-nan,0,0,3,-1.07404,-1.99481,0,0,0,0,0.240823,-0.658546,1575
840,-3.34207e-12,1.22136e-38,-1.61326e-06,-3.40794e-12,1.22125e-38,0,-1.13748e-13,0,0,-9.45518,-1.87826,-1.44747,0,0,0,0,0,-1.18207,-1.87826,215,100,215,100,250,100,215,145,0.261799,-0.261799,-2.79e-06,-1.5,-nan,0,0,3,-1.06899,-2.00864,0,0,0,0,0.240823,-0.658546,1575
850,-3.34207e-12,1.22136e-38,-1.61326e-06,-3.40794e-12,1.22125e-38,-3.96878e-12,-1.13749e-13,0,0,-9.45518,-1.87826,-1.44747,0,0,0,0,0,-1.18207,-1.87826,215,100,215,100,250,100,215,145,0.261799,-0.261799,-2.70719e-06,-1.5,-nan,0,0,3,-1.06537,-2.01852,0,0,0,0,0.240823,-0.658546,1575
860,-3.34207e-12,1.22136e-38,-1.61326e-06,-3.40794e-12,1.22125e-38,0,-1.1375e-13,0,0,-9.45518,-1.87826,-1.44747,0,0,0,0,0,-1.18207,-1.87826,215,100,215,100,250,100,215,145,0.261799,-0.261799,-2.59487e-06,-1.5,-nan,0,0,3,-1.06032,-2.03235,0,0,0,0,0.240823,-0.658546,1575
870,-3.34207e-12,1.22136e-38,-1.61326e-06,-3.40794e-12,1.22125e-38,-3.96878e-12,-1.1375e-13,0,0,-9.45518,-1.87826,-1.44747,0,0,0,0,0,-1.18207,-1.87826,215,100,215,100,250,100,215,145,0.261799,-0.261799,-2.51279e-06,-1.5,-nan,0,0,3,-1.0567,-2.04223,0,0,0,0,0.240823,-0.658546,1575
880,-3.34207e-12,1.22136e-38,-1.61326e-06,-3.40794e-12,1.22125e-38,0,-1.13751e-13,0,0,-9.45518,-1.87826,-1.44747,0,0,0,0,0,-1.18207,-1.87826,215,100,215,100,250,100,215,145,0.261799,-0.261799,-2.41348e-06,-1.5,-nan,0,0,3,-1.05165,-2.05606,0,0,0,0,0.240823,-0.658546,1575
890,-3.34207e-12,1.22136e-38,-1.61326e-06,-3.40794e-12,1.22125e-38,-3.96878e-12,-1.13751e-13,0,0,-9.45518,-1.87826,-1.44747,0,0,0,0,0,-1.18207,-1.87826,215,100,215,100,250,100,215,145,0.261799,-0.261799,-2.33714e-06,-1.5,-nan,0,0,3,-1.04779,-2.0666,0,0,0,0,0.240823,-0.658546,1575
900,-3.34207e-12,1.22136e-38,-1.61326e-06,-3.40794e-12,1.22125e-38,0,-1.13752e-13,0,0,-9.45518,-1.87826,-1.44747,0,0,0,0,0,-1.18207,-1.87826,215,100,215,100,250,100,215,145,0.261799,-0.261799,-2.24477e-06,-1.5,-nan,0,0,3,-1.04298,-2.07977,0,0,0,0,0.240823,-0.658546,1575
910,-3.34207e-12,1.22136e-38,-1.61326e-06,-3.40794e-12,1.22125e-38,-3.96878e-12,-1.13752e-13,0,0,-9.45518,-1.87826,-1.44747,0,0,0,0,0,-1.18207,-1.87826,215,100,215,100,250,100,215,145,0.261799,-0.261799,-2.17377e-06,-1.5,-nan,0,0,3,-1.03912,-2.0903,0,0,0,0,0.240823,-0.658546,1575
920,-3.34207e-12,1.22136e-38,-1.61326e-06,-3.40794e-12,1.22125e-38,0,-1.13753e-13,0,0,-9.45518,-1.87826,-1.44747,0,0,0,0,0,-1.18207,-1.87826,215,100,215,100,250,100,215,145,0.261799,-0.261799,-2.08366e-06,-1.5,-nan,0,0,3,-1.03407,-2.10413,0,0,0,0,0.240823,-0.658546,1575
930,-3.34207e-12,1.22136e-38,-1.61326e-06,-3.40794e-12,1.22125e-38,-3.96878e-12,-1.13753e-13,0,0,-9.45518,-1.87826,-1.44747,0,0,0,0,0,-1.18207,-1.87826,215,100,215,100,250,100,215,145,0.261799,-0.261799,-2.02185e-06,-1.5,-nan,0,0,3,-1.03045,-2.11401,0,0,0,0,0.240823,-0.658546,1575
940,-3.34207e-12,1.22136e-38,-1.61326e-06,-3.40794e-12,1.22125e-38,0,-1.13754e-13,0,0,-9.45518,-1.87826,-1.44747,0,0,0,0,0,-1.18207,-1.87826,215,100,215,100,250,100,215,145,0.261799,-0.261799,-1.94194e-06,-1.5,-nan,0,0,3,-1.02564,-2.12718,0,0,0,0,0.240823,-0.658546,1575
950,-3.34207e-12,1.22136e-38,-1.61326e-06,-3.40794e-12,1.22125e-38,-3.96878e-12,-1.13754e-13,0,0,-9.45518,-1.87826,-1.44747,0,0,0,0,0,-1.18207,-1.87826,215,100,215,100,250,100,215,145,0.261799,-0.261799,-1.86137e-06,-1.5,-nan,0,0,3,-1.02058,-2.14101,0,0,0,0,0.240823,-0.658546,1575
960,-3.34207e-12,1.22136e-38,-1.61326e-06,-3.40794e-12,1.22125e-38,0,-1.13755e-13,0,0,-9.45518,-1.87826,-1.44747,0,0,0,0,0,-1.18207,-1.87826,215,100,215,100,250,100,215,145,0.261799,-0.261799,-1.80612e-06,-1.5,-nan,0,0,3,-1.01697,-2.15089,0,0,0,0,0.240823,-0.658546,1575
970,-3.34207e-12,1.22136e-38,-1.61326e-06,-3.40794e-12,1.22125e-38,-3.96878e-12,-1.13755e-13,0,0,-9.45518,-1.87826,-1.44747,0,0,0,0,0,-1.18207,-1.87826,215,100,215,100,250,100,215,145,0.261799,-0.261799,-1.73118e-06,-1.5,-nan,0,0,3,-1.01191,-2.16472,0,0,0,0,0.240823,-0.658546,1575
980,-3.34207e-12,1.22136e-38,-1.61326e-06,-3.40794e-12,1.22125e-38,0,-1.13756e-13,0,0,-9.45518,-1.87826,-1.44747,0,0,0,0,0,-1.18207,-1.87826,215,100,215,100,250,100,215,145,0.261799,-0.261799,-1.68321e-06,-1.5,-nan,0,0,3,-1.00854,-2.17394,0,0,0,0,0.240823,-0.658546,1575
990,-3.34207e-12,1.22136e-38,-1.61326e-06,-3.40794e-12,1.22125e-38,-3.96878e-12,-1.13757e-13,0,0,-9.45518,-1.87826,-1.44747,0,0,0,0,0,-1.18207,-1.87826,215,100,215,100,250,100,215,145,0.261799,-0.261799,-1.61668e-06,-1.5,-nan,0,0,3,-1.00372,-2.18711,0,0,0,0,0.240823,-0.658546,1575
1000,-3.34207e-12,1.22136e-38,-1.61326e-06,-3.40794e-12,1.22125e-38,0,-1.13757e-13,0,0,-9.45518,-1.87826,-1.44747,0,0,0,0,0,-1.18207,-1.87826,215,100,215,100,250,100,215,145,0.261799,-0.261799,-1.56555e-06,-1.5,-nan,0,0,3,-0.99987,-2.19765,0,0,0,0,0.240823,-0.658546,1575
1010,-3.34207e-12,1.22136e-38,-1.61326e-06,-3.40794e-12,1.22125e-38,-3.96878e-12,-1.13776e-13,0,0,-9.45518,-1.87826,-1.44747,-0.994818,-2.21146,0.239741,-0.655587,0,-1.18207,-1.87826,215,100,215,100,250,100,215,145,0.261799,-0.261799,-1.50065e-06,-1.5,-nan,0,0,3,-0.994818,-2.21146,0,0,0,0,0.239741,-0.655587,1575
1020,-3.34207e-12,1.22136e-38,-1.61326e-06,-3.40794e-12,1.22125e-38,0,-1.13775e-13,0,0,-9.45518,-1.87826,-1.44747,-0.99124,-2.22125,0.237948,-0.650683,0,-1.18207,-1.87826,215,100,215,100,250,100,215,145,0.261799,-0.261799,-1.45611e-06,-1.5,-nan,0,0,3,-0.99124,-2.22125,0,0,0,0,0.237948,-0.650683,1575
1030,-3.34207e-12,1.22136e-38,-1.61326e-06,-3.40794e-12,1.22125e-38,-3.96878e-12,-1.13778e-13,0,0,-9.45518,-1.87826,-1.44747,-0.986279,-2.23481,0.235458,-0.643874,0,-1.18207,-1.87826,215,100,215,100,250,100,215,145,0.261799,-0.261799,-1.39575e-06,-1.5,-nan,0,0,3,-0.986279,-2.23481,0,0,0,0,0.235458,-0.643874,1575
1040,-3.34207e-12,1.22136e-38,-1.61326e-06,-3.40794e-12,1.22125e-38,0,-1.13779e-13,0,0,-9.45518,-1.87826,-1.44747,-0.981602,-2.2476,0.23311,-0.637454,0,-1.18207,-1.87826,215,100,215,100,250,100,215,145,0.261799,-0.261799,-1.34059e-06,-1.5,-nan,0,0,3,-0.981602,-2.2476,0,0,0,0,0.23311,-0.637454,1575
1050,-3.34207e-12,1.22136e-38,-1.61326e-06,-3.40794e-12,1.22125e-38,-3.96878e-12,-1.13779e-13,0,0,-9.45518,-1.87826,-1.44747,-0.977892,-2.25775,0.231251,-0.632369,0,-1.18207,-1.87826,215,100,215,100,250,100,215,145,0.261799,-0.261799,-1.29819e-06,-1.5,-nan,0,0,3,-0.977892,-2.25775,0,0,0,0,0.231251,-0.632369,1575
1060,-3.34207e-12,1.22136e-38,-1.61326e-06,-3.40794e-12,1.22125e-38,0,-1.1378e-13,0,0,-9.45518,-1.87826,-1.44747,-0.97307,-2.27093,0.22883,-0.625751,0,-1.18207,-1.87826,215,100,215,100,250,100,215,145,0.261799,-0.261799,-1.24437e-06,-1.5,-nan,0,0,3,-0.97307,-2.27093,0,0,0,0,0.22883,-0.625751,1575
1070,-3.34207e-12,1.22136e-38,-1.61326e-06,-3.40794e-12,1.22125e-38,-3.96878e-12,-1.13781e-13,0,0,-9.45518,-1.87826,-1.44747,-0.969655,-2.28027,0.227119,-0.621071,0,-1.18207,-1.87826,215,100,215,100,250,100,215,145,0.261799,-0.261799,-1.20744e-06,-1.5,-nan,0,0,3,-0.969655,-2.28027,0,0,0,0,0.227119,-0.621071,1575
1080,-3.34207e-12,1.22136e-38,-1.61326e-06,-3.40794e-12,1.22125e-38,0,-1.13781e-13,0,0,-9.45518,-1.87826,-1.44747,-0.964919,-2.29322,0.224742,-0.614571,0,-1.18207,-1.87826,215,100,215,100,250,100,215,145,0.261799,-0.261799,-1.15739e-06,-1.5,-nan,0,0,3,-0.964919,-2.29322,0,0,0,0,0.224742,-0.614571,1575
1090,-3.34207e-12,1.22136e-38,-1.61326e-06,-3.40794e-12,1.22125e-38,-3.96878e-12,-1.13782e-13,0,0,-9.45518,-1.87826,-1.44747,-0.960456,-2.30543,0.222501,-0.608444,0,-1.18207,-1.87826,215,100,215,100,250,100,215,145,0.261799,-0.261799,-1.11165e-06,-1.5,-nan,0,0,3,-0.960456,-2.30543,0,0,0,0,0.222501,-0.608444,1575
1100,-3.34207e-12,1.22136e-38,-1.61326e-06,-3.40794e-12,1.22125e-38,0,-1.13782e-13,0,0,-9.45518,-1.87826,-1.44747,-0.957135,-2.31451,0.220837,-0.603892,0,-1.18207,-1.87826,215,100,215,100,250,100,215,145,0.261799,-0.261799,-1.07865e-06,-1.5,-nan,0,0,3,-0.957135,-2.31451,0,0,0,0,0.220837,-0.603892,1575
1110,-3.34207e-12,1.22136e-38,-1.61326e-06,-3.40794e-12,1.22125e-38,-3.96878e-12,-1.13783e-13,0,0,-9.45518,-1.87826,-1.44747,-0.952532,-2.3271,0.218525,-0.597571,0,-1.18207,-1.87826,215,100,215,100,250,100,215,145,0.261799,-0.261799,-1.0339e-06,-1.5,-nan,0,0,3,-0.952532,-2.3271,0,0,0,0,0.218525,-0.597571,1575
1120,-3.34207e-12,1.22136e-38,-1.61326e-06,-3.40794e-12,1.22125e-38,0,-1.13783e-13,0,0,-9.45518,-1.87826,-1.44747,-0.949053,-2.33661,0.216782,-0.592804,0,-1.18207,-1.87826,215,100,215,100,250,100,215,145,0.261799,-0.261799,-1.00119e-06,-1.5,-nan,0,0,3,-0.949053,-2.33661,0,0,0,0,0.216782,-0.592804,1575
1130,-3.34207e-12,1.22136e-38,-1.61326e-06,-3.40794e-12,1.22125e-38,-3.96878e-12,-1.13784e-13,0,0,-9.45518,-1.87826,-1.44747,-0.944747,-2.34839,0.214621,-0.586895,0,-1.18207,-1.87826,215,100,215,100,250,100,215,145,0.261799,-0.261799,-9.61661e-07,-1.5,-nan,0,0,3,-0.944747,-2.34839,0,0,0,0,0.214621,-0.586895,1575
1140,-3.34207e-12,1.22136e-38,-1.61326e-06,-3.40794e-12,1.22125e-38,0,-1.13784e-13,0,0,-9.45518,-1.87826,-1.44747,-0.940484,-2.36004,0.212481,-0.581044,0,-1.18207,-1.87826,215,100,215,100,250,100,215,145,0.261799,-0.261799,-9.23653e-07,-1.5,-nan,0,0,3,-0.940484,-2.36004,0,0,0,0,0.212481,-0.581044,1575
1150,-3.34207e-12,1.22136e-38,-1.61326e-06,-3.40794e-12,1.22125e-38,-3.96878e-12,-1.13785e-13,0,0,-9.45518,-1.87826,-1.44747,-0.937102,-2.36929,0.210786,-0.576409,0,-1.18207,-1.87826,215,100,215,100,250,100,215,145,0.261799,-0.261799,-8.94438e-07,-1.5,-nan,0,0,3,-0.937102,-2.36929,0,0,0,0,0.210786,-0.576409,1575
1160,-3.34207e-12,1.22136e-38,-1.61326e-06,-3.40794e-12,1.22125e-38,0,-1.13758e-13,0,0,-9.45518,-1.87826,-1.44747,-0.932916,-2.38074,0.208685,-0.570662,0,-1.18207,-1.87826,215,100,215,100,250,100,215,145,0.261799,-0.261799,-8.59088e-07,-1.5,-nan,0,0,3,-0.932916,-2.38074,0,0,0,0,0.208685,-0.570662,1575
1170,-3.34207e-12,1.22136e-38,-1.61326e-06,-3.40794e-12,1.22125e-38,-3.96878e-12,-1.13758e-13,0,0,-9.45518,-1.87826,-1.44747,-0.929594,-2.38982,0.20702,-0.56611,0,-1.18207,-1.87826,215,100,215,100,250,100,215,145,0.261799,-0.261799,-8.31915e-07,-1.5,-nan,0,0,3,-0.929594,-2.38982,0,0,0,0,0.20702,-0.56611,1575
1180,-3.34207e-12,1.22136e-38,-1.61326e-06,-3.40794e-12,1.22125e-38,0,-1.13759e-13,0,0,-9.45518,-1.87826,-1.44747,-0.925482,-2.40107,0.204956,-0.560466,0,-1.18207,-1.87826,215,100,215,100,250,100,215,145,0.261799,-0.261799,-7.99035e-07,-1.5,-nan,0,0,3,-0.925482,-2.40107,0,0,0,0,0.204956,-0.560466,1575
1190,-3.34207e-12,1.22136e-38,-1.61326e-06,-3.40794e-12,1.22125e-38,-3.96878e-12,-1.13759e-13,0,0,-9.45518,-1.87826,-1.44747,-0.92121,-2.41275,0.202811,-0.554599,0,-1.18207,-1.87826,215,100,215,100,250,100,215,145,0.261799,-0.261799,-7.65883e-07,-1.5,-nan,0,0,3,-0.92121,-2.41275,0,0,0,0,0.202811,-0.554599,1575
1200,-3.34207e-12,1.22136e-38,-1.61326e-06,-3.40794e-12,1.22125e-38,0,-1.1376e-13,0,0,-9.45518,-1.87826,-1.44747,-0.917982,-2.42158,0.201193,-0.550175,0,-1.18207,-1.87826,215,100,215,100,250,100,215,145,0.261799,-0.261799,-7.41658e-07,-1.5,-nan,0,0,3,-0.917982,-2.42158,0,0,0,0,0.201193,-0.550175,1575
1210,-3.34207e-12,1.22136e-38,-1.61326e-06,-3.40794e-12,1.22125e-38,-3.96878e-12,-1.1376e-13,0,0,-9.45518,-1.87826,-1.44747,-0.913986,-2.4325,0.199187,-0.54469,0,-1.18207,-1.87826,215,100,215,100,250,100,215,145,0.261799,-0.261799,-7.12346e-07,-1.5,-nan,0,0,3,-0.913986,-2.4325,0,0,0,0,0.199187,-0.54469,1575
1220,-3.34207e-12,1.22136e-38,-1.61326e-06,-3.40794e-12,1.22125e-38,0,-1.13761e-13,0,0,-9.45518,-1.87826,-1.44747,-0.910815,-2.44117,0.197598,-0.540345,0,-1.18207,-1.87826,215,100,215,100,250,100,215,145,0.261799,-0.261799,-6.89814e-07,-1.5,-nan,0,0,3,-0.910815,-2.44117,0,0,0,0,0.197598,-0.540345,1575
1230,-3.34207e-12,1.22136e-38,-1.61326e-06,-3.40794e-12,1.22125e-38,-3.96878e-12,-1.13761e-13,0,0,-9.45518,-1.87826,-1.44747,-0.906891,-2.45191,0.195628,-0.534958,0,-1.18207,-1.87826,215,100,215,100,250,100,215,145,0.261799,-0.261799,-6.62551e-07,-1.5,-nan,0,0,3,-0.906891,-2.45191,0,0,0,0,0.195628,-0.534958,1575
1240,-3.34207e-12,1.22136e-38,-1.61326e-06,-3.40794e-12,1.22125e-38,0,-1.13762e-13,0,0,-9.45518,-1.87826,-1.44747,-0.902813,-2.46306,0.19358,-0.529358,0,-1.18207,-1.87826,215,100,215,100,250,100,215,145,0.261799,-0.261799,-6.35061e-07,-1.5,-nan,0,0,3,-0.902813,-2.46306,0,0,0,0,0.19358,-0.529358,1575
1250,-3.34207e-12,1.22136e-38,-1.61326e-06,-3.40794e-12,1.22125e-38,-3.96878e-12,-1.13763e-13,0,0,-9.45518,-1.87826,-1.44747,-0.900115,-2.47043,0.192229,-0.525662,0,-1.18207,-1.87826,215,100,215,100,250,100,215,145,0.261799,-0.261799,-6.17462e-07,-1.5,-nan,0,0,3,-0.900115,-2.47043,0,0,0,0,0.192229,-0.525662,1575
1260,-3.34207e-12,1.22136e-38,-1.61326e-06,-3.40794e-12,1.22125e-38,0,-1.13763e-13,0,0,-9.45518,-1.87826,-1.44747,-0.896297,-2.48087,0.190312,-0.520421,0,-1.18207,-1.87826,215,100,215,100,250,100,215,145,0.261799,-0.261799,-5.93058e-07,-1.5,-nan,0,0,3,-0.896297,-2.48087,0,0,0,0,0.190312,-0.520421,1575
1270,-3.34207e-12,1.22136e-38,-1.61326e-06,-3.40794e-12,1.22125e-38,-3.96878e-12,-1.13764e-13,0,0,-9.45518,-1.87826,-1.44747,-0.893268,-2.48916,0.188794,-0.516269,0,-1.18207,-1.87826,215,100,215,100,250,100,215,145,0.261799,-0.261799,-5.743e-07,-1.5,-nan,0,0,3,-0.893268,-2.48916,0,0,0,0,0.188794,-0.516269,1575
1280,-3.34207e-12,1.22136e-38,-1.61326e-06,-3.40794e-12,1.22125e-38,0,-1.13764e-13,0,0,-9.45518,-1.87826,-1.44747,-0.889518,-2.49941,0.186912,-0.511122,0,-1.18207,-1.87826,215,100,215,100,250,100,215,145,0.261799,-0.261799,-5.51602e-07,-1.5,-nan,0,0,3,-0.889518,-2.49941,0,0,0,0,0.186912,-0.511122,1575
1290,-3.34207e-12,1.22136e-38,-1.61326e-06,-3.40794e-12,1.22125e-38,-3.96878e-12,-1.13765e-13,0,0,-9.45518,-1.87826,-1.44747,-0.885622,-2.51007,0.184955,-0.505772,0,-1.18207,-1.87826,215,100,215,100,250,100,215,145,0.261799,-0.261799,-5.28715e-07,-1.5,-nan,0,0,3,-0.885622,-2.51007,0,0,0,0,0.184955,-0.505772,1575
1300,-3.34207e-12,1.22136e-38,-1.61326e-06,-3.40794e-12,1.22125e-38,0,-1.13765e-13,0,0,-9.45518,-1.87826,-1.44747,-0.882861,-2.51762,0.183572,-0.501989,0,-1.18207,-1.87826,215,100,215,100,250,100,215,145,0.261799,-0.261799,-5.13022e-07,-1.5,-nan,0,0,3,-0.882861,-2.51762,0,0,0,0,0.183572,-0.501989,1575
1310,-3.34207e-12,1.22136e-38,-1.61326e-06,-3.40794e-12,1.22125e-38,-3.96878e-12,-1.13766e-13,0,0,-9.45518,-1.87826,-1.44747,-0.879035,-2.52808,0.18165,-0.496734,0,-1.18207,-1.87826,215,100,215,100,250,100,215,145,0.261799,-0.261799,-4.91737e-07,-1.5,-nan,0,0,3,-0.879035,-2.52808,0,0,0,0,0.18165,-0.496734,1575
1320,-3.34207e-12,1.22136e-38,-1.61326e-06,-3.40794e-12,1.22125e-38,0,-1.13766e-13,0,0,-9.45518,-1.87826,-1.44747,-0.876324,-2.53549,0.180291,-0.493018,0,-1.18207,-1.87826,215,100,215,100,250,100,215,145,0.261799,-0.261799,-4.77141e-07,-1.5,-nan,0,0,3,-0.876324,-2.53549,0,0,0,0,0.180291,-0.493018,1575
1330,-3.34207e-12,1.22136e-38,-1.61326e-06,-3.40794e-12,1.22125e-38,-3.96878e-12,-1.13767e-13,0,0,-9.45518,-1.87826,-1.44747,-0.872566,-2.54577,0.178404,-0.487857,0,-1.18207,-1.87826,215,100,215,100,250,100,215,145,0.261799,-0.261799,-4.57344e-07,-1.5,-nan,0,0,3,-0.872566,-2.54577,0,0,0,0,0.178404,-0.487857,1575
1340,-3.34207e-12,1.22136e-38,-1.61326e-06,-3.40794e-12,1.22125e-38,0,-1.13767e-13,0,0,-9.45518,-1.87826,-1.44747,-0.868846,-2.55594,0.176537,-0.482751,0,-1.18207,-1.87826,215,100,215,100,250,100,215,145,0.261799,-0.261799,-4.38387e-07,-1.5,-nan,0,0,3,-0.868846,-2.55594,0,0,0,0,0.176537,-0.482751,1575
1350,-3.34207e-12,1.22136e-38,-1.61326e-06,-3.40794e-12,1.22125e-38,-3.96878e-12,-1.13768e-13,0,0,-9.45518,-1.87826,-1.44747,-0.866211,-2.56315,0.175216,-0.47914,0,-1.18207,-1.87826,215,100,215,100,250,100,215,145,0.261799,-0.261799,-4.25375e-07,-1.5,-nan,0,0,3,-0.866211,-2.56315,0,0,0,0,0.175216,-0.47914,1575
1360,-3.34207e-12,1.22136e-38,-1.61326e-06,-3.40794e-12,1.22125e-38,0,-1.13768e-13,0,0,-9.45518,-1.87826,-1.44747,-0.862731,-2.57266,0.17347,-0.474363,0,-1.18207,-1.87826,215,100,215,100,250,100,215,145,0.261799,-0.261799,-4.08563e-07,-1.5,-nan,0,0,3,-0.862731,-2.57266,0,0,0,0,0.17347,-0.474363,1575
1370,-3.34207e-12,1.22136e-38,-1.61326e-06,-3.40794e-12,1.22125e-38,-3.96878e-12,-1.13769e-13,0,0,-9.45518,-1.87826,-1.44747,-0.860142,-2.57974,0.172172,-0.470815,0,-1.18207,-1.87826,215,100,215,100,250,100,215,145,0.261799,-0.261799,-3.96436e-07,-1.5,-nan,0,0,3,-0.860142,-2.57974,0,0,0,0,0.172172,-0.470815,1575
1380,-3.34207e-12,1.22136e-38,-1.61326e-06,-3.40794e-12,1.22125e-38,0,-1.1377e-13,0,0,-9.45518,-1.87826,-1.44747,-0.856553,-2.58956,0.17037,-0.465887,0,-1.18207,-1.87826,215,100,215,100,250,100,215,145,0.261799,-0.261799,-3.79988e-07,-1.5,-nan,0,0,3,-0.856553,-2.58956,0,0,0,0,0.17037,-0.465887,1575
1390,-3.34207e-12,1.22136e-38,-1.61326e-06,-3.40794e-12,1.22125e-38,-3.96878e-12,-1.1377e-13,0,0,-9.45518,-1.87826,-1.44747,-0.85317,-2.59881,0.168671,-0.461242,0,-1.18207,-1.87826,215,100,215,100,250,100,215,145,0.261799,-0.261799,-3.6497e-07,-1.5,-nan,0,0,3,-0.85317,-2.59881,0,0,0,0,0.168671,-0.461242,1575
1400,-3.34207e-12,1.22136e-38,-1.61326e-06,-3.40794e-12,1.22125e-38,0,-1.13771e-13,0,0,-9.45518,-1.87826,-1.44747,-0.850985,-2.60478,0.167577,-0.458251,0,-1.18207,-1.87826,215,100,215,100,250,100,215,145,0.261799,-0.261799,-3.55576e-07,-1.5,-nan,0,0,3,-0.850985,-2.60478,0,0,0,0,0.167577,-0.458251,1575
1410,-3.34207e-12,1.22136e-38,-1.61326e-06,-3.40794e-12,1.22125e-38,-3.96878e-12,-1.13771e-13,0,0,-9.45518,-1.87826,-1.44747,-0.847327,-2.61479,0.16574,-0.453227,0,-1.18207,-1.87826,215,100,215,100,250,100,215,145,0.261799,-0.261799,-3.40139e-07,-1.5,-nan,0,0,3,-0.847327,-2.61479,0,0,0,0,0.16574,-0.453227,1575
1420,-3.34207e-12,1.22136e-38,-1.61326e-06,-3.40794e-12,1.22125e-38,0,-1.13772e-13,0,0,-9.45518,-1.87826,-1.44747,-0.844198,-2.62334,0.16417,-0.448934,0,-1.18207,-1.87826,215,100,215,100,250,100,215,145,0.261799,-0.261799,-3.27365e-07,-1.5,-nan,0,0,3,-0.844198,-2.62334,0,0,0,0,0.16417,-0.448934,1575
1430,-3.34207e-12,1.22136e-38,-1.61326e-06,-3.40794e-12,1.22125e-38,-3.96878e-12,-1.13772e-13,0,0,-9.45518,-1.87826,-1.44747,-0.840777,-2.6327,0.162452,-0.444235,0,-1.18207,-1.87826,215,100,215,100,250,100,215,145,0.261799,-0.261799,-3.13782e-07,-1.5,-nan,0,0,3,-0.840777,-2.6327,0,0,0,0,0.162452,-0.444235,1575
1440,-3.34207e-12,1.22136e-38,-1.61326e-06,-3.40794e-12,1.22125e-38,0,-1.13773e-13,0,0,-9.45518,-1.87826,-1.44747,-0.83739,-2.64196,0.160752,-0.439586,0,-1.18207,-1.87826,215,100,215,100,250,100,215,145,0.261799,-0.261799,-3.00776e-07,-1.5,-nan,0,0,3,-0.83739,-2.64196,0,0,0,0,0.160752,-0.439586,1575
1450,-3.34207e-12,1.22136e-38,-1.61326e-06,-3.40794e-12,1.22125e-38,-3.96878e-12,-1.13786e-13,0,0,-9.45518,-1.87826,-1.44747,-0.83499,-2.64852,0.159549,-0.436298,0,-1.18207,-1.87826,215,100,215,100,250,100,215,145,0.261799,-0.261799,-2.91848e-07,-1.5,-nan,0,0,3,-0.83499,-2.64852,0,0,0,0,0.159549,-0.436298,1575
1460,-3.34207e-12,1.22136e-38,-1.61326e-06,-3.40794e-12,1.22125e-38,0,-1.13787e-13,0,0,-9.45518,-1.87826,-1.44747,-0.832608,-2.65504,0.158356,-0.433034,0,-1.18207,-1.87826,215,100,215,100,250,100,215,145,0.261799,-0.261799,-2.83186e-07,-1.5,-nan,0,0,3,-0.832608,-2.65504,0,0,0,0,0.158356,-0.433034,1575
1470,-3.34207e-12,1.22136e-38,-1.61326e-06,-3.40794e-12,1.22125e-38,-3.96878e-12,-1.13788e-13,0,0,-9.45518,-1.87826,-1.44747,-0.830087,-2.66193,0.157093,-0.42958,0,-1.18207,-1.87826,215,100,215,100,250,100,215,145,0.261799,-0.261799,-2.74229e-07,-1.5,-nan,0,0,3,-0.830087,-2.66193,0,0,0,0,0.157093,-0.42958,1575
1480,-3.34207e-12,1.22136e-38,-1.61326e-06,-3.40794e-12,1.22125e-38,0,-1.13788e-13,0,0,-9.45518,-1.87826,-1.44747,-0.827743,-2.66834,0.155918,-0.426367,0,-1.18207,-1.87826,215,100,215,100,250,100,215,145,0.261799,-0.261799,-2.66089e-07,-1.5,-nan,0,0,3,-0.827743,-2.66834,0,0,0,0,0.155918,-0.426367,1575
1490,-3.34207e-12,1.22136e-38,-1.61326e-06,-3.40794e-12,1.22125e-38,-3.96878e-12,-1.13789e-13,0,0,-9.45518,-1.87826,-1.44747,-0.825415,-2.67471,0.154751,-0.423177,0,-1.18207,-1.87826,215,100,215,100,250,100,215,145,0.261799,-0.261799,-2.58191e-07,-1.5,-nan,0,0,3,-0.825415,-2.67471,0,0,0,0,0.154751,-0.423177,1575
1500,-3.34207e-12,1.22136e-38,-1.61326e-06,-3.40794e-12,1.22125e-38,0,-1.13789e-13,0,0,-9.45518,-1.87826,-1.44747,-0.822952,-2.68144,0.153517,-0.419802,0,-1.18207,-1.87826,215,100,215,100,250,100,215,145,0.261799,-0.261799,-2.50024e-07,-1.5,-nan,0,0,3,-0.822952,-2.68144,0,0,0,0,0.153517,-0.419802,1575
1510,-3.34207e-12,1.22136e-38,-1.61326e-06,-3.40794e-12,1.22125e-38,-3.96878e-12,-1.1379e-13,0,0,-9.45518,-1.87826,-1.44747,-0.820508,-2.68812,0.152292,-0.416453,0,-1.18207,-1.87826,215,100,215,100,250,100,215,145,0.261799,-0.261799,-2.42116e-07,-1.5,-nan,0,0,3,-0.820508,-2.68812,0,0,0,0,0.152292,-0.416453,1575
1520,-3.34207e-12,1.22136e-38,-1.61326e-06,-3.40794e-12,1.22125e-38,0,-1.1379e-13,0,0,-9.45518,-1.87826,-1.44747,-0.818385,-2.69393,0.151229,-0.413545,0,-1.18207,-1.87826,215,100,215,100,250,100,215,145,0.261799,-0.261799,-2.35406e-07,-1.5,-nan,0,0,3,-0.818385,-2.69393,0,0,0,0,0.151229,-0.413545,1575
1530,-3.34207e-12,1.22136e-38,-1.61326e-06,-3.40794e-12,1.22125e-38,-3.96878e-12,-1.13791e-13,0,0,-9.45518,-1.87826,-1.44747,-0.816127,-2.7001,0.150098,-0.410452,0,-1.18207,-1.87826,215,100,215,100,250,100,215,145,0.261799,-0.261799,-2.28423e-07,-1.5,-nan,0,0,3,-0.816127,-2.7001,0,0,0,0,0.150098,-0.410452,1575
1540,-3.34207e-12,1.22136e-38,-1.61326e-06,-3.40794e-12,1.22125e-38,0,-1.13791e-13,0,0,-9.45518,-1.87826,-1.44747,-0.813887,-2.70623,0.148975,-0.407382,0,-1.18207,-1.87826,215,100,215,100,250,100,215,145,0.261799,-0.261799,-2.21643e-07,-1.5,-nan,0,0,3,-0.813887,-2.70623,0,0,0,0,0.148975,-0.407382,1575
1550,-3.34207e-12,1.22136e-38,-1.61326e-06,-3.40794e-12,1.22125e-38,-3.96878e-12,-1.13792e-13,0,0,-9.45518,-1.87826,-1.44747,-0.811515,-2.71272,0.147787,-0.404133,0,-1.18207,-1.87826,215,100,215,100,250,100,215,145,0.261799,-0.261799,-2.14632e-07,-1.5,-nan,0,0,3,-0.811515,-2.71272,0,0,0,0,0.147787,-0.404133,1575
1560,-3.34207e-12,1.22136e-38,-1.61326e-06,-3.40794e-12,1.22125e-38,0,-1.13792e-13,0,0,-9.45518,-1.87826,-1.44747,-0.809309,-2.71875,0.146681,-0.40111,0,-1.18207,-1.87826,215,100,215,100,250,100,215,145,0.261799,-0.261799,-2.08262e-07,-1.5,-nan,0,0,3,-0.809309,-2.71875,0,0,0,0,0.146681,-0.40111,1575
1570,-3.34207e-12,1.22136e-38,-1.61326e-06,-3.40794e-12,1.22125e-38,-3.96878e-12,-1.13793e-13,0,0,-9.45518,-1.87826,-1.44747,-0.80712,-2.72474,0.145584,-0.398109,0,-1.18207,-1.87826,215,100,215,100,250,100,215,145,0.261799,-0.261799,-2.0208e-07,-1.5,-nan,0,0,3,-0.80712,-2.72474,0,0,0,0,0.145584,-0.398109,1575
1580,-3.34207e-12,1.22136e-38,-1.61326e-06,-3.40794e-12,1.22125e-38,0,-1.13794e-13,0,0,-9.45518,-1.87826,-1.44747,-0.804802,-2.73107,0.144423,-0.394933,0,-1.18207,-1.87826,215,100,215,100,250,100,215,145,0.261799,-0.261799,-1.95684e-07,-1.5,-nan,0,0,3,-0.804802,-2.73107,0,0,0,0,0.144423,-0.394933,1575
1590,-3.34207e-12,1.22136e-38,-1.61326e-06,-3.40794e-12,1.22125e-38,-3.96878e-12,-1.13794e-13,0,0,-9.45518,-1.87826,-1.44747,-0.802647,-2.73697,0.143343,-0.391979,0,-1.18207,-1.87826,215,100,215,100,250,100,215,145,0.261799,-0.261799,-1.89876e-07,-1.5,-nan,0,0,3,-0.802647,-2.73697,0,0,0,0,0.143343,-0.391979,1575
1600,-3.34207e-12,1.22136e-38,-1.61326e-06,-3.40794e-12,1.22125e-38,0,-1.13795e-13,0,0,-9.45518,-1.87826,-1.44747,-0.800365,-2.74321,0.142199,-0.388853,0,-1.18207,-1.87826,215,100,215,100,250,100,215,145,0.261799,-0.261799,-1.8387e-07,-1.5,-nan,0,0,3,-0.800365,-2.74321,0,0,0,0,0.142199,-0.388853,1575
1610,-3.34207e-12,1.22136e-38,-1.61326e-06,-3.40794e-12,1.22125e-38,-3.96878e-12,-1.13795e-13,0,0,-9.45518,-1.87826,-1.44747,-0.798242,-2.74901,0.141135,-0.385944,0,-1.18207,-1.87826,215,100,215,100,250,100,215,145,0.261799,-0.261799,-1.78413e-07,-1.5,-nan,0,0,3,-0.798242,-2.74901,0,0,0,0,0.141135,-0.385944,1575
1620,-3.34207e-12,1.22136e-38,-1.61326e-06,-3.40794e-12,1.22125e-38,0,-1.13796e-13,0,0,-9.45518,-1.87826,-1.44747,-0.796135,-2.75477,0.14008,-0.383057,0,-1.18207,-1.87826,215,100,215,100,250,100,215,145,0.261799,-0.261799,-1.73117e-07,-1.5,-nan,0,0,3,-0.796135,-2.75477,0,0,0,0,0.14008,-0.383057,1575
1630,-3.34207e-12,1.22136e-38,-1.61326e-06,-3.40794e-12,1.22125e-38,-3.96878e-12,-1.13796e-13,0,0,-9.45518,-1.87826,-1.44747,-0.793906,-2.76087,0.138962,-0.380001,0,-1.18207,-1.87826,215,100,215,100,250,100,215,145,0.261799,-0.261799,-1.67641e-07,-1.5,-nan,0,0,3,-0.793906,-2.76087,0,0,0,0,0.138962,-0.380001,1575
1640,-3.34207e-12,1.22136e-38,-1.61326e-06,-3.40794e-12,1.22125e-38,0,-1.13797e-13,0,0,-9.45518,-1.87826,-1.44747,-0.791693,-2.76692,0.137854,-0.37697,0,-1.18207,-1.87826,215,100,215,100,250,100,215,145,0.261799,-0.261799,-1.62339e-07,-1.5,-nan,0,0,3,-0.791693,-2.76692,0,0,0,0,0.137854,-0.37697,1575
1650,-3.34207e-12,1.22136e-38,-1.61326e-06,-3.40794e-12,1.22125e-38,-3.96878e-12,-1.13797e-13,0,0,-9.45518,-1.87826,-1.44747,-0.789772,-2.77217,0.136891,-0.374338,0,-1.18207,-1.87826,215,100,215,100,250,100,215,145,0.261799,-0.261799,-1.5784e-07,-1.5,-nan,0,0,3,-0.789772,-2.77217,0,0,0,0,0.136891,-0.374338,1575
1660,-3.34207e-12,1.22136e-38,-1.61326e-06,-3.40794e-12,1.22125e-38,0,-1.13798e-13,0,0,-9.45518,-1.87826,-1.44747,-0.787864,-2.77739,0.135936,-0.371725,0,-1.18207,-1.87826,215,100,215,100,250,100,215,145,0.261799,-0.261799,-1.53466e-07,-1.5,-nan,0,0,3,-0.787864,-2.77739,0,0,0,0,0.135936,-0.371725,1575
1670,-3.34207e-12,1.22136e-38,-1.61326e-06,-3.40794e-12,1.22125e-38,-3.96878e-12,-1.13798e-13,0,0,-9.45518,-1.87826,-1.44747,-0.7857,-2.78331,0.134851,-0.368759,0,-1.18207,-1.87826,215,100,215,100,250,100,215,145,0.261799,-0.261799,-1.48612e-07,-1.5,-nan,0,0,3,-0.7857,-2.78331,0,0,0,0,0.134851,-0.368759,1575
1680,-3.34207e-12,1.22136e-38,-1.61326e-06,-3.40794e-12,1.22125e-38,0,-1.13799e-13,0,0,-9.45518,-1.87826,-1.44747,-0.783687,-2.78881,0.133843,-0.366001,0,-1.18207,-1.87826,215,100,215,100,250,100,215,145,0.261799,-0.261799,-1.44201e-07,-1.5,-nan,0,0,3,-0.783687,-2.78881,0,0,0,0,0.133843,-0.366001,1575
1690,-3.34207e-12,1.22136e-38,-1.61326e-06,-3.40794e-12,1.22125e-38,-3.96878e-12,-1.13799e-13,0,0,-9.45518,-1.87826,-1.44747,-0.781557,-2.79464,0.132775,-0.363081,0,-1.18207,-1.87826,215,100,215,100,250,100,215,145,0.261799,-0.261799,-1.39637e-07,-1.5,-nan,0,0,3,-0.781557,-2.79464,0,0,0,0,0.132775,-0.363081,1575
1700,-3.34207e-12,1.22136e-38,-1.61326e-06,-3.40794e-12,1.22125e-38,0,-1.138e-13,0,0,-9.45518,-1.87826,-1.44747,-0.779444,-2.80042,0.131716,-0.360185,0,-1.18207,-1.87826,215,100,215,100,250,100,215,145,0.261799,-0.261799,-1.35217e-07,-1.5,-nan,0,0,3,-0.779444,-2.80042,0,0,0,0,0.131716,-0.360185,1575
1710,-3.34207e-12,1.22136e-38,-1.61326e-06,-3.40794e-12,1.22125e-38,-3.96878e-12,-1.13801e-13,0,0,-9.45518,-1.87826,-1.44747,-0.777347,-2.80615,0.130665,-0.357311,0,-1.18207,-1.87826,215,100,215,100,250,100,215,145,0.261799,-0.261799,-1.3094e-07,-1.5,-nan,0,0,3,-0.777347,-2.80615,0,0,0,0,0.130665,-0.357311,1575
1720,-3.34207e-12,1.22136e-38,-1.61326e-06,-3.40794e-12,1.22125e-38,0,-1.13801e-13,0,0,-9.45518,-1.87826,-1.44747,-0.775396,-2.81148,0.129688,-0.354639,0,-1.18207,-1.87826,215,100,215,100,250,100,215,145,0.261799,-0.261799,-1.27054e-07,-1.5,-nan,0,0,3,-0.775396,-2.81148,0,0,0,0,0.129688,-0.354639,1575
1730,-3.34207e-12,1.22136e-38,-1.61326e-06,-3.40794e-12,1.22125e-38,-3.96878e-12,-1.13802e-13,0,0,-9.45518,-1.87826,-1.44747,-0.77346,-2.81678,0.128717,-0.351986,0,-1.18207,-1.87826,215,100,215,100,250,100,215,145,0.261799,-0.261799,-1.23283e-07,-1.5,-nan,0,0,3,-0.77346,-2.81678,0,0,0,0,0.128717,-0.351986,1575
1740,-3.34207e-12,1.22136e-38,-1.61326e-06,-3.40794e-12,1.22125e-38,0,-1.13802e-13,0,0,-9.45518,-1.87826,-1.44747,-0.771412,-2.82238,0.127691,-0.349178,0,-1.18207,-1.87826,215,100,215,100,250,100,215,145,0.261799,-0.261799,-1.19381e-07,-1.5,-nan,0,0,3,-0.771412,-2.82238,0,0,0,0,0.127691,-0.349178,1575
1750,-3.34207e-12,1.22136e-38,-1.61326e-06,-3.40794e-12,1.22125e-38,-3.96878e-12,-1.13803e-13,0,0,-9.45518,-1.87826,-1.44747,-0.769506,-2.82759,0.126735,-0.346566,0,-1.18207,-1.87826,215,100,215,100,250,100,215,145,0.261799,-0.261799,-1.15837e-07,-1.5,-nan,0,0,3,-0.769506,-2.82759,0,0,0,0,0.126735,-0.346566,1575
1760,-3.34207e-12,1.22136e-38,-1.61326e-06,-3.40794e-12,1.22125e-38,0,-1.13803e-13,0,0,-9.45518,-1.87826,-1.44747,-0.767614,-2.83277,0.125787,-0.343974,0,-1.18207,-1.87826,215,100,215,100,250,100,215,145,0.261799,-0.261799,-1.12399e-07,-1.5,-nan,0,0,3,-0.767614,-2.83277,0,0,0,0,0.125787,-0.343974,1575
1770,-3.34207e-12,1.22136e-38,-1.61326e-06,-3.40794e-12,1.22125e-38,-3.96878e-12,-1.13804e-13,0,0,-9.45518,-1.87826,-1.44747,-0.765611,-2.83824,0.124784,-0.34123,0,-1.18207,-1.87826,215,100,215,100,250,100,215,145,0.261799,-0.261799,-1.08844e-07,-1.5,-nan,0,0,3,-0.765611,-2.83824,0,0,0,0,0.124784,-0.34123,1575
1780,-3.34207e-12,1.22136e-38,-1.61326e-06,-3.40794e-12,1.22125e-38,0,-1.13804e-13,0,0,-9.45518,-1.87826,-1.44747,-0.763625,-2.84367,0.123789,-0.338508,0,-1.18207,-1.87826,215,100,215,100,250,100,215,145,0.261799,-0.261799,-1.05401e-07,-1.5,-nan,0,0,3,-0.763625,-2.84367,0,0,0,0,0.123789,-0.338508,1575
1790,-3.34207e-12,1.22136e-38,-1.61326e-06,-3.40794e-12,1.22125e-38,-3.96878e-12,-1.13805e-13,0,0,-9.45518,-1.87826,-1.44747,-0.7619,-2.84839,0.122924,-0.336145,0,-1.18207,-1.87826,215,100,215,100,250,100,215,145,0.261799,-0.261799,-1.0248e-07,-1.5,-nan,0,0,3,-0.7619,-2.84839,0,0,0,0,0.122924,-0.336145,1575
1800,-3.34207e-12,1.22136e-38,-1.61326e-06,-3.40794e-12,1.22125e-38,0,-1.13805e-13,0,0,-9.45518,-1.87826,-1.44747,-0.760065,-2.85341,0.122005,-0.33363,0,-1.18207,-1.87826,215,100,215,100,250,100,215,145,0.261799,-0.261799,-9.94383e-08,-1.5,-nan,0,0,3,-0.760065,-2.85341,0,0,0,0,0.122005,-0.33363,1575
1810,-3.34207e-12,1.22136e-38,-1.61326e-06,-3.40794e-12,1.22125e-38,-3.96878e-12,-1.13806e-13,0,0,-9.45518,-1.87826,-1.44747,-0.758123,-2.85872,0.121032,-0.330969,0,-1.18207,-1.87826,215,100,215,100,250,100,215,145,0.261799,-0.261799,-9.62911e-08,-1.5,-nan,0,0,3,-0.758123,-2.85872,0,0,0,0,0.121032,-0.330969,1575
1820,-3.34207e-12,1.22136e-38,-1.61326e-06,-3.40794e-12,1.22125e-38,0,-1.13807e-13,0,0,-9.45518,-1.87826,-1.44747,-0.756316,-2.86366,0.120126,-0.328493,0,-1.18207,-1.87826,215,100,215,100,250,100,215,145,0.261799,-0.261799,-9.34331e-08,-1.5,-nan,0,0,3,-0.756316,-2.86366,0,0,0,0,0.120126,-0.328493,1575
1830,-3.34207e-12,1.22136e-38,-1.61326e-06,-3.40794e-12,1.22125e-38,-3.96878e-12,-1.13807e-13,0,0,-9.45518,-1.87826,-1.44747,-0.754404,-2.86889,0.119168,-0.325873,0,-1.18207,-1.87826,215,100,215,100,250,100,215,145,0.261799,-0.261799,-9.04778e-08,-1.5,-nan,0,0,3,-0.754404,-2.86889,0,0,0,0,0.119168,-0.325873,1575
1840,-3.34207e-12,1.22136e-38,-1.61326e-06,-3.40794e-12,1.22125e-38,0,-1.13808e-13,0,0,-9.45518,-1.87826,-1.44747,-0.752625,-2.87375,0.118277,-0.323435,0,-1.18207,-1.87826,215,100,215,100,250,100,215,145,0.261799,-0.261799,-8.77923e-08,-1.5,-nan,0,0,3,-0.752625,-2.87375,0,0,0,0,0.118277,-0.323435,1575
1850,-3.34207e-12,1.22136e-38,-1.61326e-06,-3.40794e-12,1.22125e-38,-3.96878e-12,-1.13808e-13,0,0,-9.45518,-1.87826,-1.44747,-0.750742,-2.8789,0.117333,-0.320855,0,-1.18207,-1.87826,215,100,215,100,250,100,215,145,0.261799,-0.261799,-8.50154e-08,-1.5,-nan,0,0,3,-0.750742,-2.8789,0,0,0,0,0.117333,-0.320855,1575
1860,-3.34207e-12,1.22136e-38,-1.61326e-06,-3.40794e-12,1.22125e-38,0,-1.13809e-13,0,0,-9.45518,-1.87826,-1.44747,-0.74899,-2.88369,0.116455,-0.318455,0,-1.18207,-1.87826,215,100,215,100,250,100,215,145,0.261799,-0.261799,-8.2492e-08,-1.5,-nan,0,0,3,-0.74899,-2.88369,0,0,0,0,0.116455,-0.318455,1575
1870,-3.34207e-12,1.22136e-38,-1.61326e-06,-3.40794e-12,1.22125e-38,-3.96878e-12,-1.13809e-13,0,0,-9.45518,-1.87826,-1.44747,-0.747252,-2.88845,0.115584,-0.316073,0,-1.18207,-1.87826,215,100,215,100,250,100,215,145,0.261799,-0.261799,-8.00435e-08,-1.5,-nan,0,0,3,-0.747252,-2.88845,0,0,0,0,0.115584,-0.316073,1575
1880,-3.34207e-12,1.22136e-38,-1.61326e-06,-3.40794e-12,1.22125e-38,0,-1.1381e-13,0,0,-9.45518,-1.87826,-1.44747,-0.745412,-2.89348,0.114662,-0.313551,0,-1.18207,-1.87826,215,100,215,100,250,100,215,145,0.261799,-0.261799,-7.75101e-08,-1.5,-nan,0,0,3,-0.745412,-2.89348,0,0,0,0,0.114662,-0.313551,1575
1890,-3.34207e-12,1.22136e-38,-1.61326e-06,-3.40794e-12,1.22125e-38,-3.96878e-12,-1.1381e-13,0,0,-9.45518,-1.87826,-1.44747,-0.743701,-2.89816,0.113805,-0.311206,0,-1.18207,-1.87826,215,100,215,100,250,100,215,145,0.261799,-0.261799,-7.52095e-08,-1.5,-nan,0,0,3,-0.743701,-2.89816,0,0,0,0,0.113805,-0.311206,1575
1900,-3.34207e-12,1.22136e-38,-1.61326e-06,-3.40794e-12,1.22125e-38,0,-1.13811e-13,0,0,-9.45518,-1.87826,-1.44747,-0.742002,-2.9028,0.112953,-0.308878,0,-1.18207,-1.87826,215,100,215,100,250,100,215,145,0.261799,-0.261799,-7.29772e-08,-1.5,-nan,0,0,3,-0.742002,-2.9028,0,0,0,0,0.112953,-0.308878,1575
1910,-3.34207e-12,1.22136e-38,-1.61326e-06,-3.40794e-12,1.22125e-38,-3.96878e-12,-1.13811e-13,0,0,-9.45518,-1.87826,-1.44747,-0.740204,-2.90772,0.112052,-0.306414,0,-1.18207,-1.87826,215,100,215,100,250,100,215,145,0.261799,-0.261799,-7.06675e-08,-1.5,-nan,0,0,3,-0.740204,-2.90772,0,0,0,0,0.112052,-0.306414,1575
1920,-3.34207e-12,1.22136e-38,-1.61326e-06,-3.40794e-12,1.22125e-38,0,-1.13812e-13,0,0,-9.45518,-1.87826,-1.44747,-0.738531,-2.91229,0.111214,-0.304122,0,-1.18207,-1.87826,215,100,215,100,250,100,215,145,0.261799,-0.261799,-6.85711e-08,-1.5,-nan,0,0,3,-0.738531,-2.91229,0,0,0,0,0.111214,-0.304122,1575
1930,-3.34207e-12,1.22136e-38,-1.61326e-06,-3.40794e-12,1.22125e-38,-3.96878e-12,-1.13812e-13,0,0,-9.45518,-1.87826,-1.44747,-0.736981,-2.91653,0.110438,-0.301999,0,-1.18207,-1.87826,215,100,215,100,250,100,215,145,0.261799,-0.261799,-6.66707e-08,-1.5,-nan,0,0,3,-0.736981,-2.91653,0,0,0,0,0.110438,-0.301999,1575
1940,-3.34207e-12,1.22136e-38,-1.61326e-06,-3.40794e-12,1.22125e-38,0,-1.13813e-13,0,0,-9.45518,-1.87826,-1.44747,-0.735223,-2.92134,0.109557,-0.29959,0,-1.18207,-1.87826,215,100,215,100,250,100,215,145,0.261799,-0.261799,-6.45619e-08,-1.5,-nan,0,0,3,-0.735223,-2.92134,0,0,0,0,0.109557,-0.29959,1575
1950,-3.34207e-12,1.22136e-38,-1.61326e-06,-3.40794e-12,1.22125e-38,-3.96878e-12,-1.13814e-13,0,0,-9.45518,-1.87826,-1.44747,-0.733588,-2.92581,0.108737,-0.297349,0,-1.18207,-1.87826,215,100,215,100,250,100,215,145,0.261799,-0.261799,-6.26467e-08,-1.5,-nan,0,0,3,-0.733588,-2.92581,0,0,0,0,0.108737,-0.297349,1575
1960,-3.34207e-12,1.22136e-38,-1.61326e-06,-3.40794e-12,1.22125e-38,0,-1.13814e-13,0,0,-9.45518,-1.87826,-1.44747,-0.731964,-2.93025,0.107924,-0.295125,0,-1.18207,-1.87826,215,100,215,100,250,100,215,145,0.261799,-0.261799,-6.07872e-08,-1.5,-nan,0,0,3,-0.731964,-2.93025,0,0,0,0,0.107924,-0.295125,1575
1970,-3.34207e-12,1.22136e-38,-1.61326e-06,-3.40794e-12,1.22125e-38,-3.96878e-12,-1.13815e-13,0,0,-9.45518,-1.87826,-1.44747,-0.730246,-2.93495,0.107063,-0.292771,0,-1.18207,-1.87826,215,100,215,100,250,100,215,145,0.261799,-0.261799,-5.88645e-08,-1.5,-nan,0,0,3,-0.730246,-2.93495,0,0,0,0,0.107063,-0.292771,1575
1980,-3.34207e-12,1.22136e-38,-1.61326e-06,-3.40794e-12,1.22125e-38,0,-1.13815e-13,0,0,-9.45518,-1.87826,-1.44747,-0.728648,-2.93932,0.106262,-0.290581,0,-1.18207,-1.87826,215,100,215,100,250,100,215,145,0.261799,-0.261799,-5.71173e-08,-1.5,-nan,0,0,3,-0.728648,-2.93932,0,0,0,0,0.106262,-0.290581,1575
1990,-3.34207e-12,1.22136e-38,-1.61326e-06,-3.40794e-12,1.22125e-38,-3.96878e-12,-1.13816e-13,0,0,-9.45518,-1.87826,-1.44747,-0.726852,-2.94423,0.105362,-0.288118,0,-1.18207,-1.87826,215,100,215,100,250,100,215,145,0.261799,-0.261799,-5.51985e-08,-1.5,-nan,0,0,3,-0.726852,-2.94423,0,0,0,0,0.105362,-0.288118,1575
2000,-3.34207e-12,1.22136e-38,-1.61326e-06,-3.40794e-12,1.22125e-38,0,-1.13816e-13,0,0,-9.45518,-1.87826,-1.44747,-0.725279,-2.94853,0.104574,-0.285963,0,-1.18207,-1.87826,215,100,215,100,250,100,215,145,0.261799,-0.261799,-5.35601e-08,-1.5,-nan,0,0,3,-0.725279,-2.94853,0,0,0,0,0.104574,-0.285963,1575
2010,-3.34207e-12,1.22136e-38,-1.61326e-06,-3.40794e-12,1.22125e-38,-3.96878e-12,-1.13835e-13,0,0,-9.45518,-1.87826,-1.44747,-0.723614,-2.95309,0.103739,-0.283682,0,-1.18207,-1.87826,215,100,215,100,250,100,215,145,0.261799,-0.261799,-5.1866e-08,-1.5,-nan,0,0,3,-0.723614,-2.95309,0,0,0,0,0.103739,-0.283682,1575
2020,-3.34207e-12,1.22136e-38,-1.61326e-06,-3.40794e-12,1.22125e-38,0,-1.13834e-13,0,0,-9.45518,-1.87826,-1.44747,-0.722066,-2.95732,0.102963,-0.28156,0,-1.18207,-1.87826,215,100,215,100,250,100,215,145,0.261799,-0.261799,-5.03265e-08,-1.5,-nan,0,0,3,-0.722066,-2.95732,0,0,0,0,0.102963,-0.28156,1575
2030,-3.34207e-12,1.22136e-38,-1.61326e-06,-3.40794e-12,1.22125e-38,-3.96878e-12,-1.13838e-13,0,0,-9.45518,-1.87826,-1.44747,-0.720529,-2.96152,0.102193,-0.279454,0,-1.18207,-1.87826,215,100,215,100,250,100,215,145,0.261799,-0.261799,-4.88328e-08,-1.5,-nan,0,0,3,-0.720529,-2.96152,0,0,0,0,0.102193,-0.279454,1575
2040,-3.34207e-12,1.22136e-38,-1.61326e-06,-3.40794e-12,1.22125e-38,0,-1.13838e-13,0,0,-9.45518,-1.87826,-1.44747,-0.718902,-2.96597,0.101378,-0.277225,0,-1.18207,-1.87826,215,100,215,100,250,100,215,145,0.261799,-0.261799,-4.72872e-08,-1.5,-nan,0,0,3,-0.718902,-2.96597,0,0,0,0,0.101378,-0.277225,1575
2050,-3.34207e-12,1.22136e-38,-1.61326e-06,-3.40794e-12,1.22125e-38,-3.96878e-12,-1.13839e-13,0,0,-9.45518,-1.87826,-1.44747,-0.717489,-2.96984,0.10067,-0.275289,0,-1.18207,-1.87826,215,100,215,100,250,100,215,145,0.261799,-0.261799,-4.59767e-08,-1.5,-nan,0,0,3,-0.717489,-2.96984,0,0,0,0,0.10067,-0.275289,1575
2060,-3.34207e-12,1.22136e-38,-1.61326e-06,-3.40794e-12,1.22125e-38,0,-1.13839e-13,0,0,-9.45518,-1.87826,-1.44747,-0.715987,-2.97395,0.0999172,-0.27323,0,-1.18207,-1.87826,215,100,215,100,250,100,215,145,0.261799,-0.261799,-4.46121e-08,-1.5,-nan,0,0,3,-0.715987,-2.97395,0,0,0,0,0.0999172,-0.27323,1575
2070,-3.34207e-12,1.22136e-38,-1.61326e-06,-3.40794e-12,1.22125e-38,-3.96878e-12,-1.1384e-13,0,0,-9.45518,-1.87826,-1.44747,-0.714495,-2.97802,0.0991698,-0.271186,0,-1.18207,-1.87826,215,100,215,100,250,100,215,145,0.261799,-0.261799,-4.32879e-08,-1.5,-nan,0,0,3,-0.714495,-2.97802,0,0,0,0,0.0991698,-0.271186,1575
2080,-3.34207e-12,1.22136e-38,-1.61326e-06,-3.40794e-12,1.22125e-38,0,-1.1384e-13,0,0,-9.45518,-1.87826,-1.44747,-0.712916,-2.98234,0.0983787,-0.269023,0,-1.18207,-1.87826,215,100,215,100,250,100,215,145,0.261799,-0.261799,-4.19187e-08,-1.5,-nan,0,0,3,-0.712916,-2.98234,0,0,0,0,0.0983787,-0.269023,1575
2090,-3.34207e-12,1.22136e-38,-1.61326e-06,-3.40794e-12,1.22125e-38,-3.96878e-12,-1.13841e-13,0,0,-9.45518,-1.87826,-1.44747,-0.711448,-2.98636,0.0976428,-0.267011,0,-1.18207,-1.87826,215,100,215,100,250,100,215,145,0.261799,-0.261799,-4.06745e-08,-1.5,-nan,0,0,3,-0.711448,-2.98636,0,0,0,0,0.0976428,-0.267011,1575
2100,-3.34207e-12,1.22136e-38,-1.61326e-06,-3.40794e-12,1.22125e-38,0,-1.13841e-13,0,0,-9.45518,-1.87826,-1.44747,-0.70999,-2.99034,0.0969125,-0.265013,0,-1.18207,-1.87826,215,100,215,100,250,100,215,145,0.261799,-0.261799,-3.94672e-08,-1.5,-nan,0,0,3,-0.70999,-2.99034,0,0,0,0,0.0969125,-0.265013,1575
2110,-3.34207e-12,1.22136e-38,-1.61326e-06,-3.40794e-12,1.22125e-38,-3.96878e-12,-1.13842e-13,0,0,-9.45518,-1.87826,-1.44747,-0.708448,-2.99456,0.0961393,-0.262899,0,-1.18207,-1.87826,215,100,215,100,250,100,215,145,0.261799,-0.261799,-3.82181e-08,-1.5,-nan,0,0,3,-0.708448,-2.99456,0,0,0,0,0.0961393,-0.262899,1575
