timestamp,A_x,A_y,A_z,P,Q,R,Phi,Theta,Psi,poseX,poseY,poseZ,state_X,state_Y,state_Z,state_VzB,state_Bx,state_By,state_Bz,p1_x,p1_y,p2_x,p2_y,p3_x,p3_y,p4_x,p4_y,roll,pitch,yaw,alt,targetHeading,highLevelState,lowLevelState,gateNumber,filtered_x,filtered_y,x_OT,y_OT,vx_OT,vy_OT,filtered_vx,filtered_vygateArearansac_corr_x,ransac_corr_y,ransac_corr_vx,ransac_corr_vy,detectionTimeStamppTermX,dTermX,pTermY,dTermY,vxcmd,vycmd
5369,0,0,0,0,0,0,0,0,0,0,0,0,0,0,0,0,0,0,0,0,0,0,0,0,0,0,0,0.005102,-0.0348889,0,-1.5,0,0,0,0,0,0,0,0,0,0,0,0,1.9603e-19,0,0,0,0,0,0,0,0,0,0,0
5909,-3.10578e-12,8.80096e-38,-1.5001e-06,-3.18057e-12,8.80049e-38,0,0,0,0,0,0,0,0,0,0,0,0,0,0,0,0,0,0,0,0,0,0,0.005102,-0.0348889,0,-1.5,0,0,0,0,0,0,0,0,0,0,0,0,1.9603e-19,0,0,0,0,0,0,0,0,0,0,0
5929,-3.10578e-12,8.80096e-38,-1.5001e-06,-3.18057e-12,8.80049e-38,0,0,0,0,0,0,0,0,0,0,0,0,0,0,0,0,0,0,0,0,0,0,0.005102,-0.0348889,0,-1.5,0,0,0,0,0,0,0,0,0,0,0,0,1.9603e-19,0,0,0,0,0,0,0,0,0,0,0
5948,-3.10578e-12,8.80096e-38,-1.5001e-06,-3.18057e-12,8.80049e-38,0,0,0,0,0,0,0,0,0,0,0,0,0,0,0,0,0,0,0,0,0,0,0.005102,-0.0348889,0,-1.5,0,0,0,0,0,0,0,0,0,0,0,0,1.9603e-19,0,0,0,0,0,0,0,0,0,0,0
5968,-3.10578e-12,8.80096e-38,-1.5001e-06,-3.18057e-12,8.80049e-38,0,0,0,0,0,0,0,0,0,0,0,0,0,0,0,0,0,0,0,0,0,0,0.005102,-0.0348889,0,-1.5,0,0,0,0,0,0,0,0,0,0,0,0,1.9603e-19,0,0,0,0,0,0,0,0,0,0,0
5994,-3.10578e-12,8.80096e-38,-1.5001e-06,-3.18057e-12,8.80049e-38,0,0,0,0,0,0,0,0,0,0,0,0,0,0,0,0,0,0,0,0,0,0,0.005102,-0.0348889,0,-1.5,0,0,0,0,0,0,0,0,0,0,0,0,1.9603e-19,0,0,0,0,0,0,0,0,0,0,0
6013,-3.10578e-12,8.80096e-38,-1.5001e-06,-3.18057e-12,8.80049e-38,0,0,0,0,0,0,0,0,0,0,0,0,0,0,0,0,0,0,0,0,0,0,0.005102,-0.0348889,0,-1.5,0,0,0,0,0,0,0,0,0,0,0,0,1.9603e-19,0,0,0,0,0,0,0,0,0,0,0
6033,-3.10578e-12,8.80096e-38,-1.5001e-06,-3.18057e-12,8.80049e-38,0,0,0,0,0,0,0,0,0,0,0,0,0,0,0,0,0,0,0,0,0,0,0.005102,-0.0348889,0,-1.5,0,0,0,0,0,0,0,0,0,0,0,0,1.9603e-19,0,0,0,0,0,0,0,0,0,0,0
6057,-3.10578e-12,8.80096e-38,-1.5001e-06,-3.18057e-12,8.80049e-38,0,0,0,0,0,0,0,0,0,0,0,0,0,0,0,0,0,0,0,0,0,0,0.005102,-0.0348889,0,-1.5,0,0,0,0,0,0,0,0,0,0,0,0,1.9603e-19,0,0,0,0,0,0,0,0,0,0,0
6074,-3.10578e-12,8.80096e-38,-1.5001e-06,-3.18057e-12,8.80049e-38,0,0,0,0,0,0,0,0,0,0,0,0,0,0,0,0,0,0,0,0,0,0,0.005102,-0.0348889,0,-1.5,0,0,0,0,0,0,0,0,0,0,0,0,1.9603e-19,0,0,0,0,0,0,0,0,0,0,0
6115,-3.10578e-12,8.80096e-38,-1.5001e-06,-3.18057e-12,8.80049e-38,0,0,0,0,-3.54592,-0.00330762,0.499388,0,0,0,0,0,-0.457909,-0.00330762,254,-64,254,-64,378,-79,261,57,0.005102,-0.0348889,0,-1.5,0,0,0,0,0,0,0,0,0,0,0,0,18496,0,0,0,0,6106,0,0,0,0,0,0
6169,-3.10578e-12,8.80096e-38,-1.5001e-06,-3.18057e-12,8.80049e-38,0,0,0,0,-3.52687,-0.00742523,0.489939,0,0,0,0,0,-0.431809,-0.00742523,254,-64,254,-64,380,-80,261,57,0.00135057,-0.0348889,0,-1.5,0,0,0,0,-0.427614,-0.00808699,0,0,0,0,0.466066,-0.0735288,18632,-0.431809,-0.00742524,0.466066,-0.0735288,6162,0,0,0,0,0,0
6188,-3.10578e-12,8.80096e-38,-1.5001e-06,-3.18057e-12,8.80049e-38,0,0,0,0,-3.52687,-0.00742523,0.489939,0,0,0,0,0,-0.431809,-0.00742523,254,-64,254,-64,380,-80,261,57,0.00135057,-0.0348889,0,-1.5,0,0,0,0,-0.418759,-0.00948405,0,0,0,0,0.466066,-0.0735288,18632,-0.431809,-0.00742524,0.466066,-0.0735288,6162,0,0,0,0,0,0
6211,-3.10578e-12,8.80096e-38,-1.5001e-06,-3.18057e-12,8.80049e-38,0,0,0,0,-3.52687,-0.00742523,0.489939,0,0,0,0,0,-0.431809,-0.00742523,254,-64,254,-64,380,-80,261,57,0.005102,-0.0348889,0,-1.5,0,0,0,0,-0.431809,-0.00742524,0,0,0,0,5.53748e-07,-9.71793e-09,18632,-0.431809,-0.00742524,5.53748e-07,-9.71793e-09,6196,0,0,0,0,0,0
6233,-3.10578e-12,8.80096e-38,-1.5001e-06,-3.18057e-12,8.80049e-38,0,0,0,0,-3.51637,-0.00747749,0.487733,0,0,0,0,0,-0.417428,-0.00747749,254,-66,254,-66,380,-80,261,58,0.00506279,-0.0348889,0,-1.5,0,0,0,0,-0.416371,-0.00748133,0,0,0,0,0.211484,-0.000768439,18768,-0.417428,-0.00747749,0.211484,-0.000768439,6229,0,0,0,0,0,0
6252,-3.10578e-12,8.80096e-38,-1.5001e-06,-3.18057e-12,8.80049e-38,0,0,0,0,-3.51637,-0.00747749,0.487733,0,0,0,0,0,-0.417428,-0.00747749,254,-66,254,-66,380,-80,261,58,0.00506279,-0.0348889,0,-1.5,0,0,0,0,-0.412141,-0.0074967,0,0,0,0,0.211484,-0.000768439,18768,-0.417428,-0.00747749,0.211484,-0.000768439,6229,0,0,0,0,0,0
6275,-3.10578e-12,8.80096e-38,-1.5001e-06,-3.18057e-12,8.80049e-38,0,0,0,0,-3.58201,0.00761727,0.542254,0,0,0,0,0,-0.507358,0.00761727,254,-68,254,-68,378,-81,261,57,0.005102,-0.0348889,0,-1.5,0,0,0,0,-0.431809,-0.00742523,0,0,0,0,5.53748e-07,5.9905e-09,18078,-0.431809,-0.00742523,5.53748e-07,5.9905e-09,6266,0,0,0,0,0,0
6293,-3.10578e-12,8.80096e-38,-1.5001e-06,-3.18057e-12,8.80049e-38,0,0,0,0,-3.58201,0.00761727,0.542254,0,0,0,0,0,-0.507358,0.00761727,254,-68,254,-68,378,-81,261,57,0.005102,-0.0348889,0,-1.5,0,0,0,0,-0.431809,-0.00742523,0,0,0,0,5.53748e-07,5.9905e-09,18078,-0.431809,-0.00742523,5.53748e-07,5.9905e-09,6266,0,0,0,0,0,0
6320,-3.10578e-12,8.80096e-38,-1.5001e-06,-3.18057e-12,8.80049e-38,0,0,0,0,-3.55429,0.0144677,0.570607,0,0,0,0,0,-0.469373,0.0144677,254,-74,254,-74,378,-87,259,54,0.00515078,-0.0348889,0,-1.5,0,0,0,0,-0.475071,0.0132708,0,0,0,0,-0.211035,0.100956,18330,-0.469373,0.010545,-0.211035,0.100956,6300,0,0,0,0,0,0
6340,-3.10578e-12,8.80096e-38,-1.5001e-06,-3.18057e-12,8.80049e-38,0,0,0,0,-3.50555,0.020353,0.63764,0,0,0,0,0,-0.4026,0.020353,248,-84,248,-84,377,-97,259,39,0.00708554,-0.0348889,0,-1.5,0,0,0,0,-0.431809,0.0197959,0,0,0,0,5.57462e-07,0.138879,19040,-0.431809,0.0182682,5.57462e-07,0.138879,6330,0,0,0,0,0,0
6361,-3.10578e-12,8.80096e-38,-1.5001e-06,-3.18057e-12,8.80049e-38,0,0,0,0,-3.50555,0.020353,0.63764,0,0,0,0,0,-0.4026,0.020353,248,-84,248,-84,377,-97,259,39,0.00708554,-0.0348889,0,-1.5,0,0,0,0,-0.431809,0.0227123,0,0,0,0,5.57462e-07,0.138879,19040,-0.431809,0.0182682,5.57462e-07,0.138879,6330,0,0,0,0,0,0
6381,-3.10578e-12,8.80096e-38,-1.5001e-06,-3.18057e-12,8.80049e-38,0,0,0,0,-3.50555,0.020353,0.63764,0,0,0,0,0,-0.4026,0.020353,248,-84,248,-84,377,-97,259,39,0.00708554,-0.0348889,0,-1.5,0,0,0,0,-0.431809,0.0254899,0,0,0,0,5.57462e-07,0.138879,19040,-0.431809,0.0182682,5.57462e-07,0.138879,6330,0,0,0,0,0,0
6400,-3.10578e-12,8.80096e-38,-1.5001e-06,-3.18057e-12,8.80049e-38,0,0,0,0,-3.50555,0.020353,0.63764,0,0,0,0,0,-0.4026,0.020353,248,-84,248,-84,377,-97,259,39,0.00708554,-0.0348889,0,-1.5,0,0,0,0,-0.431809,0.0282675,0,0,0,0,5.57462e-07,0.138879,19040,-0.431809,0.0182682,5.57462e-07,0.138879,6330,0,0,0,0,0,0
6420,-3.10578e-12,8.80096e-38,-1.5001e-06,-3.18057e-12,8.80049e-38,0,0,0,0,-3.50555,0.020353,0.63764,0,0,0,0,0,-0.4026,0.020353,248,-84,248,-84,377,-97,259,39,0.00708554,-0.0348889,0,-1.5,0,0,0,0,-0.431809,0.0309062,0,0,0,0,5.57462e-07,0.138879,19040,-0.431809,0.0182682,5.57462e-07,0.138879,6330,0,0,0,0,0,0
6440,-3.10578e-12,8.80096e-38,-1.5001e-06,-3.18057e-12,8.80049e-38,0,0,0,0,-3.50555,0.020353,0.63764,0,0,0,0,0,-0.4026,0.020353,248,-84,248,-84,377,-97,259,39,0.00708554,-0.0348889,0,-1.5,0,0,0,0,-0.431809,0.0336838,0,0,0,0,5.57462e-07,0.138879,19040,-0.431809,0.0182682,5.57462e-07,0.138879,6330,0,0,0,0,0,0
6460,-3.10578e-12,8.80096e-38,-1.5001e-06,-3.18057e-12,8.80049e-38,0,0,0,0,-3.50555,0.020353,0.63764,0,0,0,0,0,-0.4026,0.020353,248,-84,248,-84,377,-97,259,39,0.00708554,-0.0348889,0,-1.5,0,0,0,0,-0.431809,0.0364614,0,0,0,0,5.57462e-07,0.138879,19040,-0.431809,0.0182682,5.57462e-07,0.138879,6330,0,0,0,0,0,0
6484,-3.10578e-12,8.80096e-38,-1.5001e-06,-3.18057e-12,8.80049e-38,0,0,0,0,-3.50555,0.020353,0.63764,0,0,0,0,0,-0.4026,0.020353,248,-84,248,-84,377,-97,259,39,0.00708554,-0.0348889,0,-1.5,0,0,0,0,-0.431809,0.0399333,0,0,0,0,5.57462e-07,0.138879,19040,-0.431809,0.0182682,5.57462e-07,0.138879,6330,0,0,0,0,0,0
6501,-3.10578e-12,8.80096e-38,-1.5001e-06,-3.18057e-12,8.80049e-38,0,0,0,0,-3.50555,0.020353,0.63764,0,0,0,0,0,-0.4026,0.020353,248,-84,248,-84,377,-97,259,39,0.00708554,-0.0348889,0,-1.5,0,0,0,0,-0.431809,0.0421554,0,0,0,0,5.57462e-07,0.138879,19040,-0.431809,0.0182682,5.57462e-07,0.138879,6330,0,0,0,0,0,0
6524,-3.10578e-12,8.80096e-38,-1.5001e-06,-3.18057e-12,8.80049e-38,0,0,0,0,-3.50555,0.020353,0.63764,0,0,0,0,0,-0.4026,0.020353,248,-84,248,-84,377,-97,259,39,0.00708554,-0.0348889,0,-1.5,0,0,0,0,-0.431809,0.0447941,0,0,0,0,5.57462e-07,0.138879,19040,-0.431809,0.0182682,5.57462e-07,0.138879,6330,0,0,0,0,0,0
6542,-3.10578e-12,8.80096e-38,-1.5001e-06,-3.18057e-12,8.80049e-38,0,0,0,0,-3.50555,0.020353,0.63764,0,0,0,0,0,-0.4026,0.020353,248,-84,248,-84,377,-97,259,39,0.00708554,-0.0348889,0,-1.5,0,0,0,0,-0.431809,0.0478494,0,0,0,0,5.57462e-07,0.138879,19040,-0.431809,0.0182682,5.57462e-07,0.138879,6330,0,0,0,0,0,0
6560,-3.10578e-12,8.80096e-38,-1.5001e-06,-3.18057e-12,8.80049e-38,0,0,0,0,-3.50555,0.020353,0.63764,0,0,0,0,0,-0.4026,0.020353,248,-84,248,-84,377,-97,259,39,0.00708554,-0.0348889,0,-1.5,0,0,0,0,-0.431809,0.0503493,0,0,0,0,5.57462e-07,0.138879,19040,-0.431809,0.0182682,5.57462e-07,0.138879,6330,0,0,0,0,0,0
6579,-3.10578e-12,8.80096e-38,-1.5001e-06,-3.18057e-12,8.80049e-38,0,0,0,0,-3.50555,0.020353,0.63764,0,0,0,0,0,-0.4026,0.020353,248,-84,248,-84,377,-97,259,39,0.00708554,-0.0348889,0,-1.5,0,0,0,0,-0.431809,0.052988,0,0,0,0,5.57462e-07,0.138879,19040,-0.431809,0.0182682,5.57462e-07,0.138879,6330,0,0,0,0,0,0
6598,-3.10578e-12,8.80096e-38,-1.5001e-06,-3.18057e-12,8.80049e-38,0,0,0,0,-3.50555,0.020353,0.63764,0,0,0,0,0,-0.4026,0.020353,248,-84,248,-84,377,-97,259,39,0.00708554,-0.0348889,0,-1.5,0,0,0,0,-0.431809,0.0557656,0,0,0,0,5.57462e-07,0.138879,19040,-0.431809,0.0182682,5.57462e-07,0.138879,6330,0,0,0,0,0,0
6618,-3.10578e-12,8.80096e-38,-1.5001e-06,-3.18057e-12,8.80049e-38,0,0,0,0,-3.50555,0.020353,0.63764,0,0,0,0,0,-0.4026,0.020353,248,-84,248,-84,377,-97,259,39,0.00708554,-0.0348889,0,-1.5,0,0,0,0,-0.431809,0.0584043,0,0,0,0,5.57462e-07,0.138879,19040,-0.431809,0.0182682,5.57462e-07,0.138879,6330,0,0,0,0,0,0
6638,-3.10578e-12,8.80096e-38,-1.5001e-06,-3.18057e-12,8.80049e-38,0,0,0,0,-3.50555,0.020353,0.63764,0,0,0,0,0,-0.4026,0.020353,248,-84,248,-84,377,-97,259,39,0.00708554,-0.0348889,0,-1.5,0,0,0,0,-0.431809,0.0611818,0,0,0,0,5.57462e-07,0.138879,19040,-0.431809,0.0182682,5.57462e-07,0.138879,6330,0,0,0,0,0,0
6657,-3.10578e-12,8.80096e-38,-1.5001e-06,-3.18057e-12,8.80049e-38,0,0,0,0,-3.50555,0.020353,0.63764,0,0,0,0,0,-0.4026,0.020353,248,-84,248,-84,377,-97,259,39,0.00708554,-0.0348889,0,-1.5,0,0,0,0,-0.431809,0.0638205,0,0,0,0,5.57462e-07,0.138879,19040,-0.431809,0.0182682,5.57462e-07,0.138879,6330,0,0,0,0,0,0
6677,-3.10578e-12,8.80096e-38,-1.5001e-06,-3.18057e-12,8.80049e-38,0,0,0,0,-3.50555,0.020353,0.63764,0,0,0,0,0,-0.4026,0.020353,248,-84,248,-84,377,-97,259,39,0.00708554,-0.0348889,0,-1.5,0,0,0,0,-0.431809,0.0665981,0,0,0,0,5.57462e-07,0.138879,19040,-0.431809,0.0182682,5.57462e-07,0.138879,6330,0,0,0,0,0,0
6696,-3.10578e-12,8.80096e-38,-1.5001e-06,-3.18057e-12,8.80049e-38,0,0,0,0,-3.50555,0.020353,0.63764,0,0,0,0,0,-0.4026,0.020353,248,-84,248,-84,377,-97,259,39,0.00708554,-0.0348889,0,-1.5,0,0,0,0,-0.431809,0.0692368,0,0,0,0,5.57462e-07,0.138879,19040,-0.431809,0.0182682,5.57462e-07,0.138879,6330,0,0,0,0,0,0
6716,-3.10578e-12,8.80096e-38,-1.5001e-06,-3.18057e-12,8.80049e-38,0,0,0,0,-3.50555,0.020353,0.63764,0,0,0,0,0,-0.4026,0.020353,248,-84,248,-84,377,-97,259,39,0.00708554,-0.0348889,0,-1.5,0,0,0,0,-0.431809,0.0720144,0,0,0,0,5.57462e-07,0.138879,19040,-0.431809,0.0182682,5.57462e-07,0.138879,6330,0,0,0,0,0,0
6735,-3.10578e-12,8.80096e-38,-1.5001e-06,-3.18057e-12,8.80049e-38,0,0,0,0,-3.50555,0.020353,0.63764,0,0,0,0,0,-0.4026,0.020353,248,-84,248,-84,377,-97,259,39,0.00708554,-0.0348889,0,-1.5,0,0,0,0,-0.431809,0.074792,0,0,0,0,5.57462e-07,0.138879,19040,-0.431809,0.0182682,5.57462e-07,0.138879,6330,0,0,0,0,0,0
6756,-3.10578e-12,8.80096e-38,-1.5001e-06,-3.18057e-12,8.80049e-38,0,0,0,0,-3.50555,0.020353,0.63764,0,0,0,0,0,-0.4026,0.020353,248,-84,248,-84,377,-97,259,39,0.00708554,-0.0348889,0,-1.5,0,0,0,0,-0.431809,0.0777085,0,0,0,0,5.57462e-07,0.138879,19040,-0.431809,0.0182682,5.57462e-07,0.138879,6330,0,0,0,0,0,0
6776,-3.10578e-12,8.80096e-38,-1.5001e-06,-3.18057e-12,8.80049e-38,0,0,0,0,-3.50555,0.020353,0.63764,0,0,0,0,0,-0.4026,0.020353,248,-84,248,-84,377,-97,259,39,0.00708554,-0.0348889,0,-1.5,0,0,0,0,-0.431809,0.0803472,0,0,0,0,5.57462e-07,0.138879,19040,-0.431809,0.0182682,5.57462e-07,0.138879,6330,0,0,0,0,0,0
6795,-3.10578e-12,8.80096e-38,-1.5001e-06,-3.18057e-12,8.80049e-38,0,0,0,0,-3.50555,0.020353,0.63764,0,0,0,0,0,-0.4026,0.020353,248,-84,248,-84,377,-97,259,39,0.00708554,-0.0348889,0,-1.5,0,0,0,0,-0.431809,0.0829859,0,0,0,0,5.57462e-07,0.138879,19040,-0.431809,0.0182682,5.57462e-07,0.138879,6330,0,0,0,0,0,0
6814,-3.10578e-12,8.80096e-38,-1.5001e-06,-3.18057e-12,8.80049e-38,0,0,0,0,-3.50555,0.020353,0.63764,0,0,0,0,0,-0.4026,0.020353,248,-84,248,-84,377,-97,259,39,0.00708554,-0.0348889,0,-1.5,0,0,0,0,-0.431809,0.0856246,0,0,0,0,5.57462e-07,0.138879,19040,-0.431809,0.0182682,5.57462e-07,0.138879,6330,0,0,0,0,0,0
6833,-3.10578e-12,8.80096e-38,-1.5001e-06,-3.18057e-12,8.80049e-38,0,0,0,0,-3.50555,0.020353,0.63764,-0.431809,0.0882627,5.56626e-07,0.138671,0,-0.4026,0.020353,248,-84,248,-84,377,-97,259,39,0.00707491,-0.0348889,0,-1.5,0,0,0,0,-0.431809,0.0882627,0,0,0,0,5.56626e-07,0.138671,19040,0,0,0,0,6330,0,0,0,0,0,0
6852,-3.10578e-12,8.80096e-38,-1.5001e-06,-3.18057e-12,8.80049e-38,0,0,0,0,-3.50555,0.020353,0.63764,-0.431809,0.0908816,5.51356e-07,0.137358,0,-0.4026,0.020353,248,-84,248,-84,377,-97,259,39,0.00700794,-0.0348889,0,-1.5,0,0,0,0,-0.431809,0.0908816,0,0,0,0,5.51356e-07,0.137358,19040,0,0,0,0,6330,0,0,0,0,0,0
6871,-3.10578e-12,8.80096e-38,-1.5001e-06,-3.18057e-12,8.80049e-38,0,0,0,0,-3.50555,0.020353,0.63764,-0.431809,0.0936112,5.45863e-07,0.135989,0,-0.4026,0.020353,248,-84,248,-84,377,-97,259,39,0.00693811,-0.0348889,0,-1.5,0,0,0,0,-0.431809,0.0936112,0,0,0,0,5.45863e-07,0.135989,19040,0,0,0,0,6330,0,0,0,0,0,0
6890,-3.10578e-12,8.80096e-38,-1.5001e-06,-3.18057e-12,8.80049e-38,0,0,0,0,-3.50555,0.020353,0.63764,-0.431809,0.0961799,5.40696e-07,0.134702,0,-0.4026,0.020353,248,-84,248,-84,377,-97,259,39,0.00687244,-0.0348889,0,-1.5,0,0,0,0,-0.431809,0.0961799,0,0,0,0,5.40696e-07,0.134702,19040,0,0,0,0,6330,0,0,0,0,0,0
6910,-3.10578e-12,8.80096e-38,-1.5001e-06,-3.18057e-12,8.80049e-38,0,0,0,0,-3.50555,0.020353,0.63764,-0.431809,0.0987239,5.35577e-07,0.133427,0,-0.4026,0.020353,248,-84,248,-84,377,-97,259,39,0.00680738,-0.0348889,0,-1.5,0,0,0,0,-0.431809,0.0987239,0,0,0,0,5.35577e-07,0.133427,19040,0,0,0,0,6330,0,0,0,0,0,0
6929,-3.10578e-12,8.80096e-38,-1.5001e-06,-3.18057e-12,8.80049e-38,0,0,0,0,-3.50555,0.020353,0.63764,-0.431809,0.101375,5.30241e-07,0.132097,0,-0.4026,0.020353,248,-84,248,-84,377,-97,259,39,0.00673956,-0.0348889,0,-1.5,0,0,0,0,-0.431809,0.101375,0,0,0,0,5.30241e-07,0.132097,19040,0,0,0,0,6330,0,0,0,0,0,0
6949,-3.10578e-12,8.80096e-38,-1.5001e-06,-3.18057e-12,8.80049e-38,0,0,0,0,-3.50555,0.020353,0.63764,-0.431809,0.10387,5.25221e-07,0.130847,0,-0.4026,0.020353,248,-84,248,-84,377,-97,259,39,0.00667576,-0.0348889,0,-1.5,0,0,0,0,-0.431809,0.10387,0,0,0,0,5.25221e-07,0.130847,19040,0,0,0,0,6330,0,0,0,0,0,0
6969,-3.10578e-12,8.80096e-38,-1.5001e-06,-3.18057e-12,8.80049e-38,0,0,0,0,-3.50555,0.020353,0.63764,-0.431809,0.106599,5.19726e-07,0.129478,0,-0.4026,0.020353,248,-84,248,-84,377,-97,259,39,0.00660592,-0.0348889,0,-1.5,0,0,0,0,-0.431809,0.106599,0,0,0,0,5.19726e-07,0.129478,19040,0,0,0,0,6330,0,0,0,0,0,0
6988,-3.10578e-12,8.80096e-38,-1.5001e-06,-3.18057e-12,8.80049e-38,0,0,0,0,-3.50555,0.020353,0.63764,-0.431809,0.109045,5.14807e-07,0.128252,0,-0.4026,0.020353,248,-84,248,-84,377,-97,259,39,0.00654339,-0.0348889,0,-1.5,0,0,0,0,-0.431809,0.109045,0,0,0,0,5.14807e-07,0.128252,19040,0,0,0,0,6330,0,0,0,0,0,0
7008,-3.10578e-12,8.80096e-38,-1.5001e-06,-3.18057e-12,8.80049e-38,0,0,0,0,-3.50555,0.020353,0.63764,-0.431809,0.111467,5.09933e-07,0.127038,0,-0.4026,0.020353,248,-84,248,-84,377,-97,259,39,0.00648145,-0.0348889,0,-1.5,0,0,0,0,-0.431809,0.111467,0,0,0,0,5.09933e-07,0.127038,19040,0,0,0,0,6330,0,0,0,0,0,0
7027,-3.10578e-12,8.80096e-38,-1.5001e-06,-3.18057e-12,8.80049e-38,0,0,0,0,-3.50555,0.020353,0.63764,-0.431809,0.113866,5.05106e-07,0.125836,0,-0.4026,0.020353,248,-84,248,-84,377,-97,259,39,0.00642009,-0.0348889,0,-1.5,0,0,0,0,-0.431809,0.113866,0,0,0,0,5.05106e-07,0.125836,19040,0,0,0,0,6330,0,0,0,0,0,0
7046,-3.10578e-12,8.80096e-38,-1.5001e-06,-3.18057e-12,8.80049e-38,0,0,0,0,-3.50555,0.020353,0.63764,-0.431809,0.116243,5.00324e-07,0.124644,0,-0.4026,0.020353,248,-84,248,-84,377,-97,259,39,0.00635932,-0.0348889,0,-1.5,0,0,0,0,-0.431809,0.116243,0,0,0,0,5.00324e-07,0.124644,19040,0,0,0,0,6330,0,0,0,0,0,0
7067,-3.10578e-12,8.80096e-38,-1.5001e-06,-3.18057e-12,8.80049e-38,0,0,0,0,-3.50555,0.020353,0.63764,-0.431809,0.118843,4.9509e-07,0.12334,0,-0.4026,0.020353,248,-84,248,-84,377,-97,259,39,0.00629279,-0.0348889,0,-1.5,0,0,0,0,-0.431809,0.118843,0,0,0,0,4.9509e-07,0.12334,19040,0,0,0,0,6330,0,0,0,0,0,0
7085,-3.10578e-12,8.80096e-38,-1.5001e-06,-3.18057e-12,8.80049e-38,0,0,0,0,-3.50555,0.020353,0.63764,-0.431809,0.12105,4.90649e-07,0.122234,0,-0.4026,0.020353,248,-84,248,-84,377,-97,259,39,0.00623635,-0.0348889,0,-1.5,0,0,0,0,-0.431809,0.12105,0,0,0,0,4.90649e-07,0.122234,19040,0,0,0,0,6330,0,0,0,0,0,0
7103,-3.10578e-12,8.80096e-38,-1.5001e-06,-3.18057e-12,8.80049e-38,0,0,0,0,-3.50555,0.020353,0.63764,-0.431809,0.123359,4.86004e-07,0.121077,0,-0.4026,0.020353,248,-84,248,-84,377,-97,259,39,0.00617731,-0.0348889,0,-1.5,0,0,0,0,-0.431809,0.123359,0,0,0,0,4.86004e-07,0.121077,19040,0,0,0,0,6330,0,0,0,0,0,0
7123,-3.10578e-12,8.80096e-38,-1.5001e-06,-3.18057e-12,8.80049e-38,0,0,0,0,-3.50555,0.020353,0.63764,-0.431809,0.125646,4.81404e-07,0.119931,0,-0.4026,0.020353,248,-84,248,-84,377,-97,259,39,0.00611883,-0.0348889,0,-1.5,0,0,0,0,-0.431809,0.125646,0,0,0,0,4.81404e-07,0.119931,19040,0,0,0,0,6330,0,0,0,0,0,0
7144,-3.10578e-12,8.80096e-38,-1.5001e-06,-3.18057e-12,8.80049e-38,0,0,0,0,-3.50555,0.020353,0.63764,-0.431809,0.128148,4.76369e-07,0.118676,0,-0.4026,0.020353,248,-84,248,-84,377,-97,259,39,0.00605484,-0.0348889,0,-1.5,0,0,0,0,-0.431809,0.128148,0,0,0,0,4.76369e-07,0.118676,19040,0,0,0,0,6330,0,0,0,0,0,0
7163,-3.10578e-12,8.80096e-38,-1.5001e-06,-3.18057e-12,8.80049e-38,0,0,0,0,-3.50555,0.020353,0.63764,-0.431809,0.130389,4.71859e-07,0.117553,0,-0.4026,0.020353,248,-84,248,-84,377,-97,259,39,0.00599752,-0.0348889,0,-1.5,0,0,0,0,-0.431809,0.130389,0,0,0,0,4.71859e-07,0.117553,19040,0,0,0,0,6330,0,0,0,0,0,0
7182,-3.10578e-12,8.80096e-38,-1.5001e-06,-3.18057e-12,8.80049e-38,0,0,0,0,-3.50555,0.020353,0.63764,-0.431809,0.132609,4.67392e-07,0.11644,0,-0.4026,0.020353,248,-84,248,-84,377,-97,259,39,0.00594075,-0.0348889,0,-1.5,0,0,0,0,-0.431809,0.132609,0,0,0,0,4.67392e-07,0.11644,19040,0,0,0,0,6330,0,0,0,0,0,0
7202,-3.10578e-12,8.80096e-38,-1.5001e-06,-3.18057e-12,8.80049e-38,0,0,0,0,-3.50555,0.020353,0.63764,-0.431809,0.134923,4.62735e-07,0.11528,0,-0.4026,0.020353,248,-84,248,-84,377,-97,259,39,0.00588155,-0.0348889,0,-1.5,0,0,0,0,-0.431809,0.134923,0,0,0,0,4.62735e-07,0.11528,19040,0,0,0,0,6330,0,0,0,0,0,0
7221,-3.10578e-12,8.80096e-38,-1.5001e-06,-3.18057e-12,8.80049e-38,0,0,0,0,-3.50555,0.020353,0.63764,-0.431809,0.137214,4.58125e-07,0.114131,0,-0.4026,0.020353,248,-84,248,-84,377,-97,259,39,0.00582296,-0.0348889,0,-1.5,0,0,0,0,-0.431809,0.137214,0,0,0,0,4.58125e-07,0.114131,19040,0,0,0,0,6330,0,0,0,0,0,0
7238,-3.10578e-12,8.80096e-38,-1.5001e-06,-3.18057e-12,8.80049e-38,0,0,0,0,-3.50555,0.020353,0.63764,-0.431809,0.139031,4.54471e-07,0.113221,0,-0.4026,0.020353,248,-84,248,-84,377,-97,259,39,0.00577652,-0.0348889,0,-1.5,0,0,0,0,-0.431809,0.139031,0,0,0,0,4.54471e-07,0.113221,19040,0,0,0,0,6330,0,0,0,0,0,0
7258,-3.10578e-12,8.80096e-38,-1.5001e-06,-3.18057e-12,8.80049e-38,0,0,0,0,-3.50555,0.020353,0.63764,-0.431809,0.141281,4.49943e-07,0.112093,0,-0.4026,0.020353,248,-84,248,-84,377,-97,259,39,0.00571897,-0.0348889,0,-1.5,0,0,0,0,-0.431809,0.141281,0,0,0,0,4.49943e-07,0.112093,19040,0,0,0,0,6330,0,0,0,0,0,0
7277,-3.10578e-12,8.80096e-38,-1.5001e-06,-3.18057e-12,8.80049e-38,0,0,0,0,-3.50555,0.020353,0.63764,-0.431809,0.143398,4.45683e-07,0.111032,0,-0.4026,0.020353,248,-84,248,-84,377,-97,259,39,0.00566483,-0.0348889,0,-1.5,0,0,0,0,-0.431809,0.143398,0,0,0,0,4.45683e-07,0.111032,19040,0,0,0,0,6330,0,0,0,0,0,0
7296,-3.10578e-12,8.80096e-38,-1.5001e-06,-3.18057e-12,8.80049e-38,0,0,0,0,-3.50555,0.020353,0.63764,-0.431809,0.145495,4.41464e-07,0.109981,0,-0.4026,0.020353,248,-84,248,-84,377,-97,259,39,0.0056112,-0.0348889,0,-1.5,0,0,0,0,-0.431809,0.145495,0,0,0,0,4.41464e-07,0.109981,19040,0,0,0,0,6330,0,0,0,0,0,0
7315,-3.10578e-12,8.80096e-38,-1.5001e-06,-3.18057e-12,8.80049e-38,0,0,0,0,-3.50555,0.020353,0.63764,-0.431809,0.147573,4.37285e-07,0.10894,0,-0.4026,0.020353,248,-84,248,-84,377,-97,259,39,0.00555808,-0.0348889,0,-1.5,0,0,0,0,-0.431809,0.147573,0,0,0,0,4.37285e-07,0.10894,19040,0,0,0,0,6330,0,0,0,0,0,0
7334,-3.10578e-12,8.80096e-38,-1.5001e-06,-3.18057e-12,8.80049e-38,0,0,0,0,-3.50555,0.020353,0.63764,-0.431809,0.14963,4.33145e-07,0.107908,0,-0.4026,0.020353,248,-84,248,-84,377,-97,259,39,0.00550547,-0.0348889,0,-1.5,0,0,0,0,-0.431809,0.14963,0,0,0,0,4.33145e-07,0.107908,19040,0,0,0,0,6330,0,0,0,0,0,0
7352,-3.10578e-12,8.80096e-38,-1.5001e-06,-3.18057e-12,8.80049e-38,0,0,0,0,-3.50555,0.020353,0.63764,-0.431809,0.151561,4.2926e-07,0.10694,0,-0.4026,0.020353,248,-84,248,-84,377,-97,259,39,0.00545609,-0.0348889,0,-1.5,0,0,0,0,-0.431809,0.151561,0,0,0,0,4.2926e-07,0.10694,19040,0,0,0,0,6330,0,0,0,0,0,0
7371,-3.10578e-12,8.80096e-38,-1.5001e-06,-3.18057e-12,8.80049e-38,0,0,0,0,-3.50555,0.020353,0.63764,-0.431809,0.153687,4.24984e-07,0.105875,0,-0.4026,0.020353,248,-84,248,-84,377,-97,259,39,0.00540173,-0.0348889,0,-1.5,0,0,0,0,-0.431809,0.153687,0,0,0,0,4.24984e-07,0.105875,19040,0,0,0,0,6330,0,0,0,0,0,0
7391,-3.10578e-12,8.80096e-38,-1.5001e-06,-3.18057e-12,8.80049e-38,0,0,0,0,-3.50555,0.020353,0.63764,-0.431809,0.155686,4.2096e-07,0.104873,0,-0.4026,0.020353,248,-84,248,-84,377,-97,259,39,0.00535059,-0.0348889,0,-1.5,0,0,0,0,-0.431809,0.155686,0,0,0,0,4.2096e-07,0.104873,19040,0,0,0,0,6330,0,0,0,0,0,0
7410,-3.10578e-12,8.80096e-38,-1.5001e-06,-3.18057e-12,8.80049e-38,0,0,0,0,-3.50555,0.020353,0.63764,-0.431809,0.157667,4.16975e-07,0.10388,0,-0.4026,0.020353,248,-84,248,-84,377,-97,259,39,0.00529994,-0.0348889,0,-1.5,0,0,0,0,-0.431809,0.157667,0,0,0,0,4.16975e-07,0.10388,19040,0,0,0,0,6330,0,0,0,0,0,0
7429,-3.10578e-12,8.80096e-38,-1.5001e-06,-3.18057e-12,8.80049e-38,0,0,0,0,-3.50555,0.020353,0.63764,-0.431809,0.159731,4.1282e-07,0.102845,0,-0.4026,0.020353,248,-84,248,-84,377,-97,259,39,0.00524714,-0.0348889,0,-1.5,0,0,0,0,-0.431809,0.159731,0,0,0,0,4.1282e-07,0.102845,19040,0,0,0,0,6330,0,0,0,0,0,0
7449,-3.10578e-12,8.80096e-38,-1.5001e-06,-3.18057e-12,8.80049e-38,0,0,0,0,-3.50555,0.020353,0.63764,-0.431809,0.161674,4.08912e-07,0.101871,0,-0.4026,0.020353,248,-84,248,-84,377,-97,259,39,0.00519746,-0.0348889,0,-1.5,0,0,0,0,-0.431809,0.161674,0,0,0,0,4.08912e-07,0.101871,19040,0,0,0,0,6330,0,0,0,0,0,0
7469,-3.10578e-12,8.80096e-38,-1.5001e-06,-3.18057e-12,8.80049e-38,0,0,0,0,-3.50555,0.020353,0.63764,-0.431809,0.163799,4.04635e-07,0.100806,0,-0.4026,0.020353,248,-84,248,-84,377,-97,259,39,0.0051431,-0.0348889,0,-1.5,0,0,0,0,-0.431809,0.163799,0,0,0,0,4.04635e-07,0.100806,19040,0,0,0,0,6330,0,0,0,0,0,0
7489,-3.10578e-12,8.80096e-38,-1.5001e-06,-3.18057e-12,8.80049e-38,0,0,0,0,-3.50555,0.020353,0.63764,-0.431809,0.165703,4.00805e-07,0.0998513,0,-0.4026,0.020353,248,-84,248,-84,377,-97,259,39,0.00509441,-0.0348889,0,-1.5,0,0,0,0,-0.431809,0.165703,0,0,0,0,4.00805e-07,0.0998513,19040,0,0,0,0,6330,0,0,0,0,0,0
7508,-3.10578e-12,8.80096e-38,-1.5001e-06,-3.18057e-12,8.80049e-38,0,0,0,0,-3.50555,0.020353,0.63764,-0.431809,0.167589,3.9701e-07,0.0989061,0,-0.4026,0.020353,248,-84,248,-84,377,-97,259,39,0.00504619,-0.0348889,0,-1.5,0,0,0,0,-0.431809,0.167589,0,0,0,0,3.9701e-07,0.0989061,19040,0,0,0,0,6330,0,0,0,0,0,0
7529,-3.10578e-12,8.80096e-38,-1.5001e-06,-3.18057e-12,8.80049e-38,0,0,0,0,-3.50555,0.020353,0.63764,-0.431809,0.169652,3.92858e-07,0.0978716,0,-0.4026,0.020353,248,-84,248,-84,377,-97,259,39,0.00499341,-0.0348889,0,-1.5,0,0,0,0,-0.431809,0.169652,0,0,0,0,3.92858e-07,0.0978716,19040,0,0,0,0,6330,0,0,0,0,0,0
7548,-3.10578e-12,8.80096e-38,-1.5001e-06,-3.18057e-12,8.80049e-38,0,0,0,0,-3.50555,0.020353,0.63764,-0.431809,0.1715,3.89139e-07,0.0969451,0,-0.4026,0.020353,248,-84,248,-84,377,-97,259,39,0.00494614,-0.0348889,0,-1.5,0,0,0,0,-0.431809,0.1715,0,0,0,0,3.89139e-07,0.0969451,19040,0,0,0,0,6330,0,0,0,0,0,0
7567,-3.10578e-12,8.80096e-38,-1.5001e-06,-3.18057e-12,8.80049e-38,0,0,0,0,-3.50555,0.020353,0.63764,-0.431809,0.173331,3.85455e-07,0.0960274,0,-0.4026,0.020353,248,-84,248,-84,377,-97,259,39,0.00489932,-0.0348889,0,-1.5,0,0,0,0,-0.431809,0.173331,0,0,0,0,3.85455e-07,0.0960274,19040,0,0,0,0,6330,0,0,0,0,0,0
7586,-3.10578e-12,8.80096e-38,-1.5001e-06,-3.18057e-12,8.80049e-38,0,0,0,0,-3.50555,0.020353,0.63764,-0.431809,0.175145,3.81806e-07,0.0951183,0,-0.4026,0.020353,248,-84,248,-84,377,-97,259,39,0.00485294,-0.0348889,0,-1.5,0,0,0,0,-0.431809,0.175145,0,0,0,0,3.81806e-07,0.0951183,19040,0,0,0,0,6330,0,0,0,0,0,0
7605,-3.10578e-12,8.80096e-38,-1.5001e-06,-3.18057e-12,8.80049e-38,0,0,0,0,-3.50555,0.020353,0.63764,-0.431809,0.176941,3.78191e-07,0.0942178,0,-0.4026,0.020353,248,-84,248,-84,377,-97,259,39,0.00480699,-0.0348889,0,-1.5,0,0,0,0,-0.431809,0.176941,0,0,0,0,3.78191e-07,0.0942178,19040,0,0,0,0,6330,0,0,0,0,0,0
7624,-3.10578e-12,8.80096e-38,-1.5001e-06,-3.18057e-12,8.80049e-38,0,0,0,0,-3.50555,0.020353,0.63764,-0.431809,0.178721,3.74611e-07,0.0933259,0,-0.4026,0.020353,248,-84,248,-84,377,-97,259,39,0.00476149,-0.0348889,0,-1.5,0,0,0,0,-0.431809,0.178721,0,0,0,0,3.74611e-07,0.0933259,19040,0,0,0,0,6330,0,0,0,0,0,0
7643,-3.10578e-12,8.80096e-38,-1.5001e-06,-3.18057e-12,8.80049e-38,0,0,0,0,-3.50555,0.020353,0.63764,-0.431809,0.180575,3.70879e-07,0.092396,0,-0.4026,0.020353,248,-84,248,-84,377,-97,259,39,0.00471404,-0.0348889,0,-1.5,0,0,0,0,-0.431809,0.180575,0,0,0,0,3.70879e-07,0.092396,19040,0,0,0,0,6330,0,0,0,0,0,0
7663,-3.10578e-12,8.80096e-38,-1.5001e-06,-3.18057e-12,8.80049e-38,0,0,0,0,-3.50555,0.020353,0.63764,-0.431809,0.18232,3.67367e-07,0.0915213,0,-0.4026,0.020353,248,-84,248,-84,377,-97,259,39,0.00466942,-0.0348889,0,-1.5,0,0,0,0,-0.431809,0.18232,0,0,0,0,3.67367e-07,0.0915213,19040,0,0,0,0,6330,0,0,0,0,0,0
7682,-3.10578e-12,8.80096e-38,-1.5001e-06,-3.18057e-12,8.80049e-38,0,0,0,0,-3.50555,0.020353,0.63764,-0.431809,0.184049,3.6389e-07,0.0906549,0,-0.4026,0.020353,248,-84,248,-84,377,-97,259,39,0.00462521,-0.0348889,0,-1.5,0,0,0,0,-0.431809,0.184049,0,0,0,0,3.6389e-07,0.0906549,19040,0,0,0,0,6330,0,0,0,0,0,0
7702,-3.10578e-12,8.80096e-38,-1.5001e-06,-3.18057e-12,8.80049e-38,0,0,0,0,-3.50555,0.020353,0.63764,-0.431809,0.18585,3.60264e-07,0.0897516,0,-0.4026,0.020353,248,-84,248,-84,377,-97,259,39,0.00457913,-0.0348889,0,-1.5,0,0,0,0,-0.431809,0.18585,0,0,0,0,3.60264e-07,0.0897516,19040,0,0,0,0,6330,0,0,0,0,0,0
7721,-3.10578e-12,8.80096e-38,-1.5001e-06,-3.18057e-12,8.80049e-38,0,0,0,0,-3.50555,0.020353,0.63764,-0.431809,0.187545,3.56853e-07,0.0889019,0,-0.4026,0.020353,248,-84,248,-84,377,-97,259,39,0.00453578,-0.0348889,0,-1.5,0,0,0,0,-0.431809,0.187545,0,0,0,0,3.56853e-07,0.0889019,19040,0,0,0,0,6330,0,0,0,0,0,0
7740,-3.10578e-12,8.80096e-38,-1.5001e-06,-3.18057e-12,8.80049e-38,0,0,0,0,-3.50555,0.020353,0.63764,-0.431809,0.189224,3.53475e-07,0.0880603,0,-0.4026,0.020353,248,-84,248,-84,377,-97,259,39,0.00449284,-0.0348889,0,-1.5,0,0,0,0,-0.431809,0.189224,0,0,0,0,3.53475e-07,0.0880603,19040,0,0,0,0,6330,0,0,0,0,0,0
7759,-3.10578e-12,8.80096e-38,-1.5001e-06,-3.18057e-12,8.80049e-38,0,0,0,0,-3.50555,0.020353,0.63764,-0.431809,0.190888,3.50129e-07,0.0872266,0,-0.4026,0.020353,248,-84,248,-84,377,-97,259,39,0.00445031,-0.0348889,0,-1.5,0,0,0,0,-0.431809,0.190888,0,0,0,0,3.50129e-07,0.0872266,19040,0,0,0,0,6330,0,0,0,0,0,0
7779,-3.10578e-12,8.80096e-38,-1.5001e-06,-3.18057e-12,8.80049e-38,0,0,0,0,-3.50555,0.020353,0.63764,-0.431809,0.192621,3.4664e-07,0.0863575,0,-0.4026,0.020353,248,-84,248,-84,377,-97,259,39,0.00440597,-0.0348889,0,-1.5,0,0,0,0,-0.431809,0.192621,0,0,0,0,3.4664e-07,0.0863575,19040,0,0,0,0,6330,0,0,0,0,0,0
7798,-3.10578e-12,8.80096e-38,-1.5001e-06,-3.18057e-12,8.80049e-38,0,0,0,0,-3.50555,0.020353,0.63764,-0.431809,0.194252,3.43359e-07,0.08554,0,-0.4026,0.020353,248,-84,248,-84,377,-97,259,39,0.00436426,-0.0348889,0,-1.5,0,0,0,0,-0.431809,0.194252,0,0,0,0,3.43359e-07,0.08554,19040,0,0,0,0,6330,0,0,0,0,0,0
7817,-3.10578e-12,8.80096e-38,-1.5001e-06,-3.18057e-12,8.80049e-38,0,0,0,0,-3.50555,0.020353,0.63764,-0.431809,0.195867,3.40108e-07,0.0847302,0,-0.4026,0.020353,248,-84,248,-84,377,-97,259,39,0.00432294,-0.0348889,0,-1.5,0,0,0,0,-0.431809,0.195867,0,0,0,0,3.40108e-07,0.0847302,19040,0,0,0,0,6330,0,0,0,0,0,0
7837,-3.10578e-12,8.80096e-38,-1.5001e-06,-3.18057e-12,8.80049e-38,0,0,0,0,-3.50555,0.020353,0.63764,-0.431809,0.197551,3.36719e-07,0.0838859,0,-0.4026,0.020353,248,-84,248,-84,377,-97,259,39,0.00427987,-0.0348889,0,-1.5,0,0,0,0,-0.431809,0.197551,0,0,0,0,3.36719e-07,0.0838859,19040,0,0,0,0,6330,0,0,0,0,0,0
7855,-3.10578e-12,8.80096e-38,-1.5001e-06,-3.18057e-12,8.80049e-38,0,0,0,0,-3.50555,0.020353,0.63764,-0.431809,0.199136,3.33532e-07,0.0830919,0,-0.4026,0.020353,248,-84,248,-84,377,-97,259,39,0.00423936,-0.0348889,0,-1.5,0,0,0,0,-0.431809,0.199136,0,0,0,0,3.33532e-07,0.0830919,19040,0,0,0,0,6330,0,0,0,0,0,0
7874,-3.10578e-12,8.80096e-38,-1.5001e-06,-3.18057e-12,8.80049e-38,0,0,0,0,-3.50555,0.020353,0.63764,-0.431809,0.200623,3.3054e-07,0.0823466,0,-0.4026,0.020353,248,-84,248,-84,377,-97,259,39,0.00420133,-0.0348889,0,-1.5,0,0,0,0,-0.431809,0.200623,0,0,0,0,3.3054e-07,0.0823466,19040,0,0,0,0,6330,0,0,0,0,0,0
7893,-3.10578e-12,8.80096e-38,-1.5001e-06,-3.18057e-12,8.80049e-38,0,0,0,0,-3.50555,0.020353,0.63764,-0.431809,0.202178,3.27411e-07,0.0815671,0,-0.4026,0.020353,248,-84,248,-84,377,-97,259,39,0.00416156,-0.0348889,0,-1.5,0,0,0,0,-0.431809,0.202178,0,0,0,0,3.27411e-07,0.0815671,19040,0,0,0,0,6330,0,0,0,0,0,0
7914,-3.10578e-12,8.80096e-38,-1.5001e-06,-3.18057e-12,8.80049e-38,0,0,0,0,-3.50555,0.020353,0.63764,-0.431809,0.20388,3.23986e-07,0.0807139,0,-0.4026,0.020353,248,-84,248,-84,377,-97,259,39,0.00411803,-0.0348889,0,-1.5,0,0,0,0,-0.431809,0.20388,0,0,0,0,3.23986e-07,0.0807139,19040,0,0,0,0,6330,0,0,0,0,0,0
7934,-3.10578e-12,8.80096e-38,-1.5001e-06,-3.18057e-12,8.80049e-38,0,0,0,0,-3.50555,0.020353,0.63764,-0.431809,0.205484,3.20758e-07,0.0799096,0,-0.4026,0.020353,248,-84,248,-84,377,-97,259,39,0.004077,-0.0348889,0,-1.5,0,0,0,0,-0.431809,0.205484,0,0,0,0,3.20758e-07,0.0799096,19040,0,0,0,0,6330,0,0,0,0,0,0
7954,-3.10578e-12,8.80096e-38,-1.5001e-06,-3.18057e-12,8.80049e-38,0,0,0,0,-3.50555,0.020353,0.63764,-0.431809,0.207072,3.17562e-07,0.0791134,0,-0.4026,0.020353,248,-84,248,-84,377,-97,259,39,0.00403638,-0.0348889,0,-1.5,0,0,0,0,-0.431809,0.207072,0,0,0,0,3.17562e-07,0.0791134,19040,0,0,0,0,6330,0,0,0,0,0,0
7973,-3.10578e-12,8.80096e-38,-1.5001e-06,-3.18057e-12,8.80049e-38,0,0,0,0,-3.50555,0.020353,0.63764,-0.431809,0.208644,3.14398e-07,0.0783251,0,-0.4026,0.020353,248,-84,248,-84,377,-97,259,39,0.00399616,-0.0348889,0,-1.5,0,0,0,0,-0.431809,0.208644,0,0,0,0,3.14398e-07,0.0783251,19040,0,0,0,0,6330,0,0,0,0,0,0
7993,-3.10578e-12,8.80096e-38,-1.5001e-06,-3.18057e-12,8.80049e-38,0,0,0,0,-3.50555,0.020353,0.63764,-0.431809,0.210123,3.11422e-07,0.0775836,0,-0.4026,0.020353,248,-84,248,-84,377,-97,259,39,0.00395833,-0.0348889,0,-1.5,0,0,0,0,-0.431809,0.210123,0,0,0,0,3.11422e-07,0.0775836,19040,0,0,0,0,6330,0,0,0,0,0,0
8012,-3.10578e-12,8.80096e-38,-1.5001e-06,-3.18057e-12,8.80049e-38,0,0,0,0,-3.50555,0.020353,0.63764,-0.431809,0.211588,3.08473e-07,0.0768492,0,-0.4026,0.020353,248,-84,248,-84,377,-97,259,39,0.00392086,-0.0348889,0,-1.5,0,0,0,0,-0.431809,0.211588,0,0,0,0,3.08473e-07,0.0768492,19040,0,0,0,0,6330,0,0,0,0,0,0
8031,-3.10578e-12,8.80096e-38,-1.5001e-06,-3.18057e-12,8.80049e-38,0,0,0,0,-3.50555,0.020353,0.63764,-0.431809,0.213116,3.054e-07,0.0760834,0,-0.4026,0.020353,248,-84,248,-84,377,-97,259,39,0.00388179,-0.0348889,0,-1.5,0,0,0,0,-0.431809,0.213116,0,0,0,0,3.054e-07,0.0760834,19040,0,0,0,0,6330,0,0,0,0,0,0
8050,-3.10578e-12,8.80096e-38,-1.5001e-06,-3.18057e-12,8.80049e-38,0,0,0,0,-3.50555,0.020353,0.63764,-0.431809,0.214553,3.02509e-07,0.0753633,0,-0.4026,0.020353,248,-84,248,-84,377,-97,259,39,0.00384505,-0.0348889,0,-1.5,0,0,0,0,-0.431809,0.214553,0,0,0,0,3.02509e-07,0.0753633,19040,0,0,0,0,6330,0,0,0,0,0,0
8069,-3.10578e-12,8.80096e-38,-1.5001e-06,-3.18057e-12,8.80049e-38,0,0,0,0,-3.50555,0.020353,0.63764,-0.431809,0.215976,2.99645e-07,0.0746498,0,-0.4026,0.020353,248,-84,248,-84,377,-97,259,39,0.00380865,-0.0348889,0,-1.5,0,0,0,0,-0.431809,0.215976,0,0,0,0,2.99645e-07,0.0746498,19040,0,0,0,0,6330,0,0,0,0,0,0
8089,-3.10578e-12,8.80096e-38,-1.5001e-06,-3.18057e-12,8.80049e-38,0,0,0,0,-3.50555,0.020353,0.63764,-0.431809,0.217386,2.96809e-07,0.0739431,0,-0.4026,0.020353,248,-84,248,-84,377,-97,259,39,0.00377259,-0.0348889,0,-1.5,0,0,0,0,-0.431809,0.217386,0,0,0,0,2.96809e-07,0.0739431,19040,0,0,0,0,6330,0,0,0,0,0,0
8107,-3.10578e-12,8.80096e-38,-1.5001e-06,-3.18057e-12,8.80049e-38,0,0,0,0,-3.50555,0.020353,0.63764,-0.431809,0.218709,2.94146e-07,0.0732799,0,-0.4026,0.020353,248,-84,248,-84,377,-97,259,39,0.00373875,-0.0348889,0,-1.5,0,0,0,0,-0.431809,0.218709,0,0,0,0,2.94146e-07,0.0732799,19040,0,0,0,0,6330,0,0,0,0,0,0
8125,-3.10578e-12,8.80096e-38,-1.5001e-06,-3.18057e-12,8.80049e-38,0,0,0,0,-3.50555,0.020353,0.63764,-0.431809,0.220021,2.91508e-07,0.0726226,0,-0.4026,0.020353,248,-84,248,-84,377,-97,259,39,0.00370522,-0.0348889,0,-1.5,0,0,0,0,-0.431809,0.220021,0,0,0,0,2.91508e-07,0.0726226,19040,0,0,0,0,6330,0,0,0,0,0,0
8147,-3.10578e-12,8.80096e-38,-1.5001e-06,-3.18057e-12,8.80049e-38,0,0,0,0,-3.50555,0.020353,0.63764,-0.431809,0.221607,2.88313e-07,0.0718268,0,-0.4026,0.020353,248,-84,248,-84,377,-97,259,39,0.00366461,-0.0348889,0,-1.5,0,0,0,0,-0.431809,0.221607,0,0,0,0,2.88313e-07,0.0718268,19040,0,0,0,0,6330,0,0,0,0,0,0
8166,-3.10578e-12,8.80096e-38,-1.5001e-06,-3.18057e-12,8.80049e-38,0,0,0,0,-3.50555,0.020353,0.63764,-0.431809,0.223035,2.85441e-07,0.0711111,0,-0.4026,0.020353,248,-84,248,-84,377,-97,259,39,0.0036281,-0.0348889,0,-1.5,0,0,0,0,-0.431809,0.223035,0,0,0,0,2.85441e-07,0.0711111,19040,0,0,0,0,6330,0,0,0,0,0,0
8186,-3.10578e-12,8.80096e-38,-1.5001e-06,-3.18057e-12,8.80049e-38,0,0,0,0,-3.50555,0.020353,0.63764,-0.431809,0.224378,2.82738e-07,0.0704379,0,-0.4026,0.020353,248,-84,248,-84,377,-97,259,39,0.00359375,-0.0348889,0,-1.5,0,0,0,0,-0.431809,0.224378,0,0,0,0,2.82738e-07,0.0704379,19040,0,0,0,0,6330,0,0,0,0,0,0
8205,-3.10578e-12,8.80096e-38,-1.5001e-06,-3.18057e-12,8.80049e-38,0,0,0,0,-3.50555,0.020353,0.63764,-0.431809,0.225708,2.80062e-07,0.0697711,0,-0.4026,0.020353,248,-84,248,-84,377,-97,259,39,0.00355973,-0.0348889,0,-1.5,0,0,0,0,-0.431809,0.225708,0,0,0,0,2.80062e-07,0.0697711,19040,0,0,0,0,6330,0,0,0,0,0,0
8224,-3.10578e-12,8.80096e-38,-1.5001e-06,-3.18057e-12,8.80049e-38,0,0,0,0,-3.50555,0.020353,0.63764,-0.431809,0.227095,2.77272e-07,0.069076,0,-0.4026,0.020353,248,-84,248,-84,377,-97,259,39,0.00352427,-0.0348889,0,-1.5,0,0,0,0,-0.431809,0.227095,0,0,0,0,2.77272e-07,0.069076,19040,0,0,0,0,6330,0,0,0,0,0,0
8244,-3.10578e-12,8.80096e-38,-1.5001e-06,-3.18057e-12,8.80049e-38,0,0,0,0,-3.50555,0.020353,0.63764,-0.431809,0.228399,2.74647e-07,0.068422,0,-0.4026,0.020353,248,-84,248,-84,377,-97,259,39,0.00349091,-0.0348889,0,-1.5,0,0,0,0,-0.431809,0.228399,0,0,0,0,2.74647e-07,0.068422,19040,0,0,0,0,6330,0,0,0,0,0,0
8263,-3.10578e-12,8.80096e-38,-1.5001e-06,-3.18057e-12,8.80049e-38,0,0,0,0,-3.50555,0.020353,0.63764,-0.431809,0.229691,2.72047e-07,0.0677743,0,-0.4026,0.020353,248,-84,248,-84,377,-97,259,39,0.00345786,-0.0348889,0,-1.5,0,0,0,0,-0.431809,0.229691,0,0,0,0,2.72047e-07,0.0677743,19040,0,0,0,0,6330,0,0,0,0,0,0
8283,-3.10578e-12,8.80096e-38,-1.5001e-06,-3.18057e-12,8.80049e-38,0,0,0,0,-3.50555,0.020353,0.63764,-0.431809,0.231038,2.69337e-07,0.0670991,0,-0.4026,0.020353,248,-84,248,-84,377,-97,259,39,0.00342341,-0.0348889,0,-1.5,0,0,0,0,-0.431809,0.231038,0,0,0,0,2.69337e-07,0.0670991,19040,0,0,0,0,6330,0,0,0,0,0,0
8303,-3.10578e-12,8.80096e-38,-1.5001e-06,-3.18057e-12,8.80049e-38,0,0,0,0,-3.50555,0.020353,0.63764,-0.431809,0.232438,2.6652e-07,0.0663973,0,-0.4026,0.020353,248,-84,248,-84,377,-97,259,39,0.00338761,-0.0348889,0,-1.5,0,0,0,0,-0.431809,0.232438,0,0,0,0,2.6652e-07,0.0663973,19040,0,0,0,0,6330,0,0,0,0,0,0
8322,-3.10578e-12,8.80096e-38,-1.5001e-06,-3.18057e-12,8.80049e-38,0,0,0,0,-3.50555,0.020353,0.63764,-0.431809,0.233693,2.63997e-07,0.0657688,0,-0.4026,0.020353,248,-84,248,-84,377,-97,259,39,0.00335554,-0.0348889,0,-1.5,0,0,0,0,-0.431809,0.233693,0,0,0,0,2.63997e-07,0.0657688,19040,0,0,0,0,6330,0,0,0,0,0,0
8341,-3.10578e-12,8.80096e-38,-1.5001e-06,-3.18057e-12,8.80049e-38,0,0,0,0,-3.50555,0.020353,0.63764,-0.431809,0.234935,2.61498e-07,0.0651462,0,-0.4026,0.020353,248,-84,248,-84,377,-97,259,39,0.00332377,-0.0348889,0,-1.5,0,0,0,0,-0.431809,0.234935,0,0,0,0,2.61498e-07,0.0651462,19040,0,0,0,0,6330,0,0,0,0,0,0
8360,-3.10578e-12,8.80096e-38,-1.5001e-06,-3.18057e-12,8.80049e-38,0,0,0,0,-3.50555,0.020353,0.63764,-0.431809,0.236165,2.59023e-07,0.0645296,0,-0.4026,0.020353,248,-84,248,-84,377,-97,259,39,0.00329231,-0.0348889,0,-1.5,0,0,0,0,-0.431809,0.236165,0,0,0,0,2.59023e-07,0.0645296,19040,0,0,0,0,6330,0,0,0,0,0,0
8379,-3.10578e-12,8.80096e-38,-1.5001e-06,-3.18057e-12,8.80049e-38,0,0,0,0,-3.50555,0.020353,0.63764,-0.431809,0.23732,2.56699e-07,0.0639508,0,-0.4026,0.020353,248,-84,248,-84,377,-97,259,39,0.00326278,-0.0348889,0,-1.5,0,0,0,0,-0.431809,0.23732,0,0,0,0,2.56699e-07,0.0639508,19040,0,0,0,0,6330,0,0,0,0,0,0
8398,-3.10578e-12,8.80096e-38,-1.5001e-06,-3.18057e-12,8.80049e-38,0,0,0,0,-3.50555,0.020353,0.63764,-0.431809,0.238528,2.54269e-07,0.0633454,0,-0.4026,0.020353,248,-84,248,-84,377,-97,259,39,0.0032319,-0.0348889,0,-1.5,0,0,0,0,-0.431809,0.238528,0,0,0,0,2.54269e-07,0.0633454,19040,0,0,0,0,6330,0,0,0,0,0,0
8417,-3.10578e-12,8.80096e-38,-1.5001e-06,-3.18057e-12,8.80049e-38,0,0,0,0,-3.50555,0.020353,0.63764,-0.431809,0.239724,2.51862e-07,0.0627457,0,-0.4026,0.020353,248,-84,248,-84,377,-97,259,39,0.0032013,-0.0348889,0,-1.5,0,0,0,0,-0.431809,0.239724,0,0,0,0,2.51862e-07,0.0627457,19040,0,0,0,0,6330,0,0,0,0,0,0
8436,-3.10578e-12,8.80096e-38,-1.5001e-06,-3.18057e-12,8.80049e-38,0,0,0,0,-3.50555,0.020353,0.63764,-0.431809,0.240909,2.49478e-07,0.0621517,0,-0.4026,0.020353,248,-84,248,-84,377,-97,259,39,0.00317099,-0.0348889,0,-1.5,0,0,0,0,-0.431809,0.240909,0,0,0,0,2.49478e-07,0.0621517,19040,0,0,0,0,6330,0,0,0,0,0,0
8456,-3.10578e-12,8.80096e-38,-1.5001e-06,-3.18057e-12,8.80049e-38,0,0,0,0,-3.50555,0.020353,0.63764,-0.431809,0.242206,2.46868e-07,0.0615016,0,-0.4026,0.020353,248,-84,248,-84,377,-97,259,39,0.00313783,-0.0348889,0,-1.5,0,0,0,0,-0.431809,0.242206,0,0,0,0,2.46868e-07,0.0615016,19040,0,0,0,0,6330,0,0,0,0,0,0
8476,-3.10578e-12,8.80096e-38,-1.5001e-06,-3.18057e-12,8.80049e-38,0,0,0,0,-3.50555,0.020353,0.63764,-0.431809,0.243367,2.44531e-07,0.0609194,0,-0.4026,0.020353,248,-84,248,-84,377,-97,259,39,0.00310812,-0.0348889,0,-1.5,0,0,0,0,-0.431809,0.243367,0,0,0,0,2.44531e-07,0.0609194,19040,0,0,0,0,6330,0,0,0,0,0,0
8495,-3.10578e-12,8.80096e-38,-1.5001e-06,-3.18057e-12,8.80049e-38,0,0,0,0,-3.50555,0.020353,0.63764,-0.431809,0.244518,2.42216e-07,0.0603427,0,-0.4026,0.020353,248,-84,248,-84,377,-97,259,39,0.0030787,-0.0348889,0,-1.5,0,0,0,0,-0.431809,0.244518,0,0,0,0,2.42216e-07,0.0603427,19040,0,0,0,0,6330,0,0,0,0,0,0
8514,-3.10578e-12,8.80096e-38,-1.5001e-06,-3.18057e-12,8.80049e-38,0,0,0,0,-3.50555,0.020353,0.63764,-0.431809,0.245658,2.39923e-07,0.0597714,0,-0.4026,0.020353,248,-84,248,-84,377,-97,259,39,0.00304955,-0.0348889,0,-1.5,0,0,0,0,-0.431809,0.245658,0,0,0,0,2.39923e-07,0.0597714,19040,0,0,0,0,6330,0,0,0,0,0,0
8533,-3.10578e-12,8.80096e-38,-1.5001e-06,-3.18057e-12,8.80049e-38,0,0,0,0,-3.50555,0.020353,0.63764,-0.431809,0.246786,2.37652e-07,0.0592056,0,-0.4026,0.020353,248,-84,248,-84,377,-97,259,39,0.00302068,-0.0348889,0,-1.5,0,0,0,0,-0.431809,0.246786,0,0,0,0,2.37652e-07,0.0592056,19040,0,0,0,0,6330,0,0,0,0,0,0
8553,-3.10578e-12,8.80096e-38,-1.5001e-06,-3.18057e-12,8.80049e-38,0,0,0,0,-3.50555,0.020353,0.63764,-0.431809,0.247963,2.35284e-07,0.0586157,0,-0.4026,0.020353,248,-84,248,-84,377,-97,259,39,0.00299059,-0.0348889,0,-1.5,0,0,0,0,-0.431809,0.247963,0,0,0,0,2.35284e-07,0.0586157,19040,0,0,0,0,6330,0,0,0,0,0,0
8571,-3.10578e-12,8.80096e-38,-1.5001e-06,-3.18057e-12,8.80049e-38,0,0,0,0,-3.50555,0.020353,0.63764,-0.431809,0.249012,2.33174e-07,0.0580899,0,-0.4026,0.020353,248,-84,248,-84,377,-97,259,39,0.00296376,-0.0348889,0,-1.5,0,0,0,0,-0.431809,0.249012,0,0,0,0,2.33174e-07,0.0580899,19040,0,0,0,0,6330,0,0,0,0,0,0
8590,-3.10578e-12,8.80096e-38,-1.5001e-06,-3.18057e-12,8.80049e-38,0,0,0,0,-3.50555,0.020353,0.63764,-0.431809,0.250109,2.30966e-07,0.05754,0,-0.4026,0.020353,248,-84,248,-84,377,-97,259,39,0.0029357,-0.0348889,0,-1.5,0,0,0,0,-0.431809,0.250109,0,0,0,0,2.30966e-07,0.05754,19040,0,0,0,0,6330,0,0,0,0,0,0
8611,-3.10578e-12,8.80096e-38,-1.5001e-06,-3.18057e-12,8.80049e-38,0,0,0,0,-3.50555,0.020353,0.63764,-0.431809,0.25131,2.2855e-07,0.0569381,0,-0.4026,0.020353,248,-84,248,-84,377,-97,259,39,0.002905,-0.0348889,0,-1.5,0,0,0,0,-0.431809,0.25131,0,0,0,0,2.2855e-07,0.0569381,19040,0,0,0,0,6330,0,0,0,0,0,0
8626,-3.10578e-12,8.80096e-38,-1.5001e-06,-3.18057e-12,8.80049e-38,0,0,0,0,-3.50555,0.020353,0.63764,-0.431809,0.252216,2.26728e-07,0.056484,0,-0.4026,0.020353,248,-84,248,-84,377,-97,259,39,0.00288183,-0.0348889,0,-1.5,0,0,0,0,-0.431809,0.252216,0,0,0,0,2.26728e-07,0.056484,19040,0,0,0,0,6330,0,0,0,0,0,0
8645,-3.10578e-12,8.80096e-38,-1.5001e-06,-3.18057e-12,8.80049e-38,0,0,0,0,-3.50555,0.020353,0.63764,-0.431809,0.253227,2.24694e-07,0.0559774,0,-0.4026,0.020353,248,-84,248,-84,377,-97,259,39,0.00285598,-0.0348889,0,-1.5,0,0,0,0,-0.431809,0.253227,0,0,0,0,2.24694e-07,0.0559774,19040,0,0,0,0,6330,0,0,0,0,0,0
8664,-3.10578e-12,8.80096e-38,-1.5001e-06,-3.18057e-12,8.80049e-38,0,0,0,0,-3.50555,0.020353,0.63764,-0.431809,0.25434,2.22455e-07,0.0554196,0,-0.4026,0.020353,248,-84,248,-84,377,-97,259,39,0.00282753,-0.0348889,0,-1.5,0,0,0,0,-0.431809,0.25434,0,0,0,0,2.22455e-07,0.0554196,19040,0,0,0,0,6330,0,0,0,0,0,0
8685,-3.10578e-12,8.80096e-38,-1.5001e-06,-3.18057e-12,8.80049e-38,0,0,0,0,-3.50555,0.020353,0.63764,-0.431809,0.255441,2.20239e-07,0.0548676,0,-0.4026,0.020353,248,-84,248,-84,377,-97,259,39,0.00279936,-0.0348889,0,-1.5,0,0,0,0,-0.431809,0.255441,0,0,0,0,2.20239e-07,0.0548676,19040,0,0,0,0,6330,0,0,0,0,0,0
8704,-3.10578e-12,8.80096e-38,-1.5001e-06,-3.18057e-12,8.80049e-38,0,0,0,0,-3.50555,0.020353,0.63764,-0.431809,0.256477,2.18154e-07,0.0543481,0,-0.4026,0.020353,248,-84,248,-84,377,-97,259,39,0.00277286,-0.0348889,0,-1.5,0,0,0,0,-0.431809,0.256477,0,0,0,0,2.18154e-07,0.0543481,19040,0,0,0,0,6330,0,0,0,0,0,0
8723,-3.10578e-12,8.80096e-38,-1.5001e-06,-3.18057e-12,8.80049e-38,0,0,0,0,-3.50555,0.020353,0.63764,-0.431809,0.257504,2.16089e-07,0.0538336,0,-0.4026,0.020353,248,-84,248,-84,377,-97,259,39,0.00274661,-0.0348889,0,-1.5,0,0,0,0,-0.431809,0.257504,0,0,0,0,2.16089e-07,0.0538336,19040,0,0,0,0,6330,0,0,0,0,0,0
8742,-3.10578e-12,8.80096e-38,-1.5001e-06,-3.18057e-12,8.80049e-38,0,0,0,0,-3.50555,0.020353,0.63764,-0.431809,0.258521,2.14043e-07,0.053324,0,-0.4026,0.020353,248,-84,248,-84,377,-97,259,39,0.00272061,-0.0348889,0,-1.5,0,0,0,0,-0.431809,0.258521,0,0,0,0,2.14043e-07,0.053324,19040,0,0,0,0,6330,0,0,0,0,0,0
8761,-3.10578e-12,8.80096e-38,-1.5001e-06,-3.18057e-12,8.80049e-38,0,0,0,0,-3.50555,0.020353,0.63764,-0.431809,0.259528,2.12017e-07,0.0528192,0,-0.4026,0.020353,248,-84,248,-84,377,-97,259,39,0.00269485,-0.0348889,0,-1.5,0,0,0,0,-0.431809,0.259528,0,0,0,0,2.12017e-07,0.0528192,19040,0,0,0,0,6330,0,0,0,0,0,0
8780,-3.10578e-12,8.80096e-38,-1.5001e-06,-3.18057e-12,8.80049e-38,0,0,0,0,-3.50555,0.020353,0.63764,-0.431809,0.260525,2.1001e-07,0.0523192,0,-0.4026,0.020353,248,-84,248,-84,377,-97,259,39,0.00266934,-0.0348889,0,-1.5,0,0,0,0,-0.431809,0.260525,0,0,0,0,2.1001e-07,0.0523192,19040,0,0,0,0,6330,0,0,0,0,0,0
8799,-3.10578e-12,8.80096e-38,-1.5001e-06,-3.18057e-12,8.80049e-38,0,0,0,0,-3.50555,0.020353,0.63764,-0.431809,0.261565,2.07917e-07,0.0517979,0,-0.4026,0.020353,248,-84,248,-84,377,-97,259,39,0.00264274,-0.0348889,0,-1.5,0,0,0,0,-0.431809,0.261565,0,0,0,0,2.07917e-07,0.0517979,19040,0,0,0,0,6330,0,0,0,0,0,0
8818,-3.10578e-12,8.80096e-38,-1.5001e-06,-3.18057e-12,8.80049e-38,0,0,0,0,-3.50555,0.020353,0.63764,-0.431809,0.262543,2.05949e-07,0.0513076,0,-0.4026,0.020353,248,-84,248,-84,377,-97,259,39,0.00261773,-0.0348889,0,-1.5,0,0,0,0,-0.431809,0.262543,0,0,0,0,2.05949e-07,0.0513076,19040,0,0,0,0,6330,0,0,0,0,0,0
8837,-3.10578e-12,8.80096e-38,-1.5001e-06,-3.18057e-12,8.80049e-38,0,0,0,0,-3.50555,0.020353,0.63764,-0.431809,0.263462,2.04102e-07,0.0508473,0,-0.4026,0.020353,248,-84,248,-84,377,-97,259,39,0.00259424,-0.0348889,0,-1.5,0,0,0,0,-0.431809,0.263462,0,0,0,0,2.04102e-07,0.0508473,19040,0,0,0,0,6330,0,0,0,0,0,0
8856,-3.10578e-12,8.80096e-38,-1.5001e-06,-3.18057e-12,8.80049e-38,0,0,0,0,-3.50555,0.020353,0.63764,-0.431809,0.264422,2.02169e-07,0.0503659,0,-0.4026,0.020353,248,-84,248,-84,377,-97,259,39,0.00256968,-0.0348889,0,-1.5,0,0,0,0,-0.431809,0.264422,0,0,0,0,2.02169e-07,0.0503659,19040,0,0,0,0,6330,0,0,0,0,0,0
8874,-3.10578e-12,8.80096e-38,-1.5001e-06,-3.18057e-12,8.80049e-38,0,0,0,0,-3.50555,0.020353,0.63764,-0.431809,0.265373,2.00256e-07,0.0498891,0,-0.4026,0.020353,248,-84,248,-84,377,-97,259,39,0.00254536,-0.0348889,0,-1.5,0,0,0,0,-0.431809,0.265373,0,0,0,0,2.00256e-07,0.0498891,19040,0,0,0,0,6330,0,0,0,0,0,0
8892,-3.10578e-12,8.80096e-38,-1.5001e-06,-3.18057e-12,8.80049e-38,0,0,0,0,-3.50555,0.020353,0.63764,-0.431809,0.266266,1.98459e-07,0.0494416,0,-0.4026,0.020353,248,-84,248,-84,377,-97,259,39,0.00252253,-0.0348889,0,-1.5,0,0,0,0,-0.431809,0.266266,0,0,0,0,1.98459e-07,0.0494416,19040,0,0,0,0,6330,0,0,0,0,0,0
8912,-3.10578e-12,8.80096e-38,-1.5001e-06,-3.18057e-12,8.80049e-38,0,0,0,0,-3.50555,0.020353,0.63764,-0.431809,0.2672,1.96581e-07,0.0489736,0,-0.4026,0.020353,248,-84,248,-84,377,-97,259,39,0.00249865,-0.0348889,0,-1.5,0,0,0,0,-0.431809,0.2672,0,0,0,0,1.96581e-07,0.0489736,19040,0,0,0,0,6330,0,0,0,0,0,0
8931,-3.10578e-12,8.80096e-38,-1.5001e-06,-3.18057e-12,8.80049e-38,0,0,0,0,-3.50555,0.020353,0.63764,-0.431809,0.268125,1.9472e-07,0.04851,0,-0.4026,0.020353,248,-84,248,-84,377,-97,259,39,0.00247499,-0.0348889,0,-1.5,0,0,0,0,-0.431809,0.268125,0,0,0,0,1.9472e-07,0.04851,19040,0,0,0,0,6330,0,0,0,0,0,0
8951,-3.10578e-12,8.80096e-38,-1.5001e-06,-3.18057e-12,8.80049e-38,0,0,0,0,-3.50555,0.020353,0.63764,-0.431809,0.269137,1.92683e-07,0.0480026,0,-0.4026,0.020353,248,-84,248,-84,377,-97,259,39,0.00244911,-0.0348889,0,-1.5,0,0,0,0,-0.431809,0.269137,0,0,0,0,1.92683e-07,0.0480026,19040,0,0,0,0,6330,0,0,0,0,0,0
8970,-3.10578e-12,8.80096e-38,-1.5001e-06,-3.18057e-12,8.80049e-38,0,0,0,0,-3.50555,0.020353,0.63764,-0.431809,0.270043,1.90859e-07,0.0475481,0,-0.4026,0.020353,248,-84,248,-84,377,-97,259,39,0.00242592,-0.0348889,0,-1.5,0,0,0,0,-0.431809,0.270043,0,0,0,0,1.90859e-07,0.0475481,19040,0,0,0,0,6330,0,0,0,0,0,0
8990,-3.10578e-12,8.80096e-38,-1.5001e-06,-3.18057e-12,8.80049e-38,0,0,0,0,-3.50555,0.020353,0.63764,-0.431809,0.270941,1.89052e-07,0.047098,0,-0.4026,0.020353,248,-84,248,-84,377,-97,259,39,0.00240296,-0.0348889,0,-1.5,0,0,0,0,-0.431809,0.270941,0,0,0,0,1.89052e-07,0.047098,19040,0,0,0,0,6330,0,0,0,0,0,0
9009,-3.10578e-12,8.80096e-38,-1.5001e-06,-3.18057e-12,8.80049e-38,0,0,0,0,-3.50555,0.020353,0.63764,-0.431809,0.271831,1.87262e-07,0.0466521,0,-0.4026,0.020353,248,-84,248,-84,377,-97,259,39,0.00238021,-0.0348889,0,-1.5,0,0,0,0,-0.431809,0.271831,0,0,0,0,1.87262e-07,0.0466521,19040,0,0,0,0,6330,0,0,0,0,0,0
9028,-3.10578e-12,8.80096e-38,-1.5001e-06,-3.18057e-12,8.80049e-38,0,0,0,0,-3.50555,0.020353,0.63764,-0.431809,0.272712,1.85489e-07,0.0462105,0,-0.4026,0.020353,248,-84,248,-84,377,-97,259,39,0.00235767,-0.0348889,0,-1.5,0,0,0,0,-0.431809,0.272712,0,0,0,0,1.85489e-07,0.0462105,19040,0,0,0,0,6330,0,0,0,0,0,0
9047,-3.10578e-12,8.80096e-38,-1.5001e-06,-3.18057e-12,8.80049e-38,0,0,0,0,-3.50555,0.020353,0.63764,-0.431809,0.273585,1.83733e-07,0.045773,0,-0.4026,0.020353,248,-84,248,-84,377,-97,259,39,0.00233536,-0.0348889,0,-1.5,0,0,0,0,-0.431809,0.273585,0,0,0,0,1.83733e-07,0.045773,19040,0,0,0,0,6330,0,0,0,0,0,0
9068,-3.10578e-12,8.80096e-38,-1.5001e-06,-3.18057e-12,8.80049e-38,0,0,0,0,-3.50555,0.020353,0.63764,-0.431809,0.27454,1.81812e-07,0.0452943,0,-0.4026,0.020353,248,-84,248,-84,377,-97,259,39,0.00231093,-0.0348889,0,-1.5,0,0,0,0,-0.431809,0.27454,0,0,0,0,1.81812e-07,0.0452943,19040,0,0,0,0,6330,0,0,0,0,0,0
9087,-3.10578e-12,8.80096e-38,-1.5001e-06,-3.18057e-12,8.80049e-38,0,0,0,0,-3.50555,0.020353,0.63764,-0.431809,0.275395,1.8009e-07,0.0448655,0,-0.4026,0.020353,248,-84,248,-84,377,-97,259,39,0.00228905,-0.0348889,0,-1.5,0,0,0,0,-0.431809,0.275395,0,0,0,0,1.8009e-07,0.0448655,19040,0,0,0,0,6330,0,0,0,0,0,0
9106,-3.10578e-12,8.80096e-38,-1.5001e-06,-3.18057e-12,8.80049e-38,0,0,0,0,-3.50555,0.020353,0.63764,-0.431809,0.276242,1.78385e-07,0.0444407,0,-0.4026,0.020353,248,-84,248,-84,377,-97,259,39,0.00226738,-0.0348889,0,-1.5,0,0,0,0,-0.431809,0.276242,0,0,0,0,1.78385e-07,0.0444407,19040,0,0,0,0,6330,0,0,0,0,0,0
9124,-3.10578e-12,8.80096e-38,-1.5001e-06,-3.18057e-12,8.80049e-38,0,0,0,0,-3.50555,0.020353,0.63764,-0.431809,0.277038,1.76785e-07,0.0440421,0,-0.4026,0.020353,248,-84,248,-84,377,-97,259,39,0.00224704,-0.0348889,0,-1.5,0,0,0,0,-0.431809,0.277038,0,0,0,0,1.76785e-07,0.0440421,19040,0,0,0,0,6330,0,0,0,0,0,0
9143,-3.10578e-12,8.80096e-38,-1.5001e-06,-3.18057e-12,8.80049e-38,0,0,0,0,-3.50555,0.020353,0.63764,-0.431809,0.277869,1.75112e-07,0.0436251,0,-0.4026,0.020353,248,-84,248,-84,377,-97,259,39,0.00222577,-0.0348889,0,-1.5,0,0,0,0,-0.431809,0.277869,0,0,0,0,1.75112e-07,0.0436251,19040,0,0,0,0,6330,0,0,0,0,0,0
9162,-3.10578e-12,8.80096e-38,-1.5001e-06,-3.18057e-12,8.80049e-38,0,0,0,0,-3.50555,0.020353,0.63764,-0.431809,0.278693,1.73454e-07,0.0432121,0,-0.4026,0.020353,248,-84,248,-84,377,-97,259,39,0.0022047,-0.0348889,0,-1.5,0,0,0,0,-0.431809,0.278693,0,0,0,0,1.73454e-07,0.0432121,19040,0,0,0,0,6330,0,0,0,0,0,0
9181,-3.10578e-12,8.80096e-38,-1.5001e-06,-3.18057e-12,8.80049e-38,0,0,0,0,-3.50555,0.020353,0.63764,-0.431809,0.279509,1.71812e-07,0.042803,0,-0.4026,0.020353,248,-84,248,-84,377,-97,259,39,0.00218383,-0.0348889,0,-1.5,0,0,0,0,-0.431809,0.279509,0,0,0,0,1.71812e-07,0.042803,19040,0,0,0,0,6330,0,0,0,0,0,0
9200,-3.10578e-12,8.80096e-38,-1.5001e-06,-3.18057e-12,8.80049e-38,0,0,0,0,-3.50555,0.020353,0.63764,-0.431809,0.280318,1.70185e-07,0.0423978,0,-0.4026,0.020353,248,-84,248,-84,377,-97,259,39,0.00216315,-0.0348889,0,-1.5,0,0,0,0,-0.431809,0.280318,0,0,0,0,1.70185e-07,0.0423978,19040,0,0,0,0,6330,0,0,0,0,0,0
9219,-3.10578e-12,8.80096e-38,-1.5001e-06,-3.18057e-12,8.80049e-38,0,0,0,0,-3.50555,0.020353,0.63764,-0.431809,0.281118,1.68574e-07,0.0419965,0,-0.4026,0.020353,248,-84,248,-84,377,-97,259,39,0.00214267,-0.0348889,0,-1.5,0,0,0,0,-0.431809,0.281118,0,0,0,0,1.68574e-07,0.0419965,19040,0,0,0,0,6330,0,0,0,0,0,0
9238,-3.10578e-12,8.80096e-38,-1.5001e-06,-3.18057e-12,8.80049e-38,0,0,0,0,-3.50555,0.020353,0.63764,-0.431809,0.281912,1.66978e-07,0.0415988,0,-0.4026,0.020353,248,-84,248,-84,377,-97,259,39,0.00212239,-0.0348889,0,-1.5,0,0,0,0,-0.431809,0.281912,0,0,0,0,1.66978e-07,0.0415988,19040,0,0,0,0,6330,0,0,0,0,0,0
9257,-3.10578e-12,8.80096e-38,-1.5001e-06,-3.18057e-12,8.80049e-38,0,0,0,0,-3.50555,0.020353,0.63764,-0.431809,0.282697,1.65397e-07,0.041205,0,-0.4026,0.020353,248,-84,248,-84,377,-97,259,39,0.00210229,-0.0348889,0,-1.5,0,0,0,0,-0.431809,0.282697,0,0,0,0,1.65397e-07,0.041205,19040,0,0,0,0,6330,0,0,0,0,0,0
9276,-3.10578e-12,8.80096e-38,-1.5001e-06,-3.18057e-12,8.80049e-38,0,0,0,0,-3.50555,0.020353,0.63764,-0.431809,0.283475,1.63831e-07,0.0408149,0,-0.4026,0.020353,248,-84,248,-84,377,-97,259,39,0.00208239,-0.0348889,0,-1.5,0,0,0,0,-0.431809,0.283475,0,0,0,0,1.63831e-07,0.0408149,19040,0,0,0,0,6330,0,0,0,0,0,0
9296,-3.10578e-12,8.80096e-38,-1.5001e-06,-3.18057e-12,8.80049e-38,0,0,0,0,-3.50555,0.020353,0.63764,-0.431809,0.284286,1.62199e-07,0.0404082,0,-0.4026,0.020353,248,-84,248,-84,377,-97,259,39,0.00206164,-0.0348889,0,-1.5,0,0,0,0,-0.431809,0.284286,0,0,0,0,1.62199e-07,0.0404082,19040,0,0,0,0,6330,0,0,0,0,0,0
9315,-3.10578e-12,8.80096e-38,-1.5001e-06,-3.18057e-12,8.80049e-38,0,0,0,0,-3.50555,0.020353,0.63764,-0.431809,0.285049,1.60663e-07,0.0400257,0,-0.4026,0.020353,248,-84,248,-84,377,-97,259,39,0.00204212,-0.0348889,0,-1.5,0,0,0,0,-0.431809,0.285049,0,0,0,0,1.60663e-07,0.0400257,19040,0,0,0,0,6330,0,0,0,0,0,0
9333,-3.10578e-12,8.80096e-38,-1.5001e-06,-3.18057e-12,8.80049e-38,0,0,0,0,-3.50555,0.020353,0.63764,-0.431809,0.285805,1.59142e-07,0.0396467,0,-0.4026,0.020353,248,-84,248,-84,377,-97,259,39,0.00202279,-0.0348889,0,-1.5,0,0,0,0,-0.431809,0.285805,0,0,0,0,1.59142e-07,0.0396467,19040,0,0,0,0,6330,0,0,0,0,0,0
9352,-3.10578e-12,8.80096e-38,-1.5001e-06,-3.18057e-12,8.80049e-38,0,0,0,0,-3.50555,0.020353,0.63764,-0.431809,0.286515,1.57715e-07,0.0392911,0,-0.4026,0.020353,248,-84,248,-84,377,-97,259,39,0.00200465,-0.0348889,0,-1.5,0,0,0,0,-0.431809,0.286515,0,0,0,0,1.57715e-07,0.0392911,19040,0,0,0,0,6330,0,0,0,0,0,0
9372,-3.10578e-12,8.80096e-38,-1.5001e-06,-3.18057e-12,8.80049e-38,0,0,0,0,-3.50555,0.020353,0.63764,-0.431809,0.287296,1.56144e-07,0.0388996,0,-0.4026,0.020353,248,-84,248,-84,377,-97,259,39,0.00198467,-0.0348889,0,-1.5,0,0,0,0,-0.431809,0.287296,0,0,0,0,1.56144e-07,0.0388996,19040,0,0,0,0,6330,0,0,0,0,0,0
9390,-3.10578e-12,8.80096e-38,-1.5001e-06,-3.18057e-12,8.80049e-38,0,0,0,0,-3.50555,0.020353,0.63764,-0.431809,0.287992,1.54743e-07,0.0385507,0,-0.4026,0.020353,248,-84,248,-84,377,-97,259,39,0.00196687,-0.0348889,0,-1.5,0,0,0,0,-0.431809,0.287992,0,0,0,0,1.54743e-07,0.0385507,19040,0,0,0,0,6330,0,0,0,0,0,0
9409,-3.10578e-12,8.80096e-38,-1.5001e-06,-3.18057e-12,8.80049e-38,0,0,0,0,-3.50555,0.020353,0.63764,-0.431809,0.288758,1.53201e-07,0.0381666,0,-0.4026,0.020353,248,-84,248,-84,377,-97,259,39,0.00194727,-0.0348889,0,-1.5,0,0,0,0,-0.431809,0.288758,0,0,0,0,1.53201e-07,0.0381666,19040,0,0,0,0,6330,0,0,0,0,0,0
9429,-3.10578e-12,8.80096e-38,-1.5001e-06,-3.18057e-12,8.80049e-38,0,0,0,0,-3.50555,0.020353,0.63764,-0.431809,0.289479,1.51751e-07,0.0378053,0,-0.4026,0.020353,248,-84,248,-84,377,-97,259,39,0.00192884,-0.0348889,0,-1.5,0,0,0,0,-0.431809,0.289479,0,0,0,0,1.51751e-07,0.0378053,19040,0,0,0,0,6330,0,0,0,0,0,0
9450,-3.10578e-12,8.80096e-38,-1.5001e-06,-3.18057e-12,8.80049e-38,0,0,0,0,-3.50555,0.020353,0.63764,-0.431809,0.290268,1.50164e-07,0.0374099,0,-0.4026,0.020353,248,-84,248,-84,377,-97,259,39,0.00190867,-0.0348889,0,-1.5,0,0,0,0,-0.431809,0.290268,0,0,0,0,1.50164e-07,0.0374099,19040,0,0,0,0,6330,0,0,0,0,0,0
9470,-3.10578e-12,8.80096e-38,-1.5001e-06,-3.18057e-12,8.80049e-38,0,0,0,0,-3.50555,0.020353,0.63764,-0.431809,0.291011,1.48667e-07,0.0370371,0,-0.4026,0.020353,248,-84,248,-84,377,-97,259,39,0.00188965,-0.0348889,0,-1.5,0,0,0,0,-0.431809,0.291011,0,0,0,0,1.48667e-07,0.0370371,19040,0,0,0,0,6330,0,0,0,0,0,0
9489,-3.10578e-12,8.80096e-38,-1.5001e-06,-3.18057e-12,8.80049e-38,0,0,0,0,-3.50555,0.020353,0.63764,-0.431809,0.291711,1.4726e-07,0.0366865,0,-0.4026,0.020353,248,-84,248,-84,377,-97,259,39,0.00187176,-0.0348889,0,-1.5,0,0,0,0,-0.431809,0.291711,0,0,0,0,1.4726e-07,0.0366865,19040,0,0,0,0,6330,0,0,0,0,0,0
9508,-3.10578e-12,8.80096e-38,-1.5001e-06,-3.18057e-12,8.80049e-38,0,0,0,0,-3.50555,0.020353,0.63764,-0.431809,0.292404,1.45866e-07,0.0363392,0,-0.4026,0.020353,248,-84,248,-84,377,-97,259,39,0.00185404,-0.0348889,0,-1.5,0,0,0,0,-0.431809,0.292404,0,0,0,0,1.45866e-07,0.0363392,19040,0,0,0,0,6330,0,0,0,0,0,0
9527,-3.10578e-12,8.80096e-38,-1.5001e-06,-3.18057e-12,8.80049e-38,0,0,0,0,-3.50555,0.020353,0.63764,-0.431809,0.29309,1.44485e-07,0.0359952,0,-0.4026,0.020353,248,-84,248,-84,377,-97,259,39,0.00183649,-0.0348889,0,-1.5,0,0,0,0,-0.431809,0.29309,0,0,0,0,1.44485e-07,0.0359952,19040,0,0,0,0,6330,0,0,0,0,0,0
9546,-3.10578e-12,8.80096e-38,-1.5001e-06,-3.18057e-12,8.80049e-38,0,0,0,0,-3.50555,0.020353,0.63764,-0.431809,0.293805,1.43045e-07,0.0356365,0,-0.4026,0.020353,248,-84,248,-84,377,-97,259,39,0.00181819,-0.0348889,0,-1.5,0,0,0,0,-0.431809,0.293805,0,0,0,0,1.43045e-07,0.0356365,19040,0,0,0,0,6330,0,0,0,0,0,0
9566,-3.10578e-12,8.80096e-38,-1.5001e-06,-3.18057e-12,8.80049e-38,0,0,0,0,-3.50555,0.020353,0.63764,-0.431809,0.294478,1.41691e-07,0.0352992,0,-0.4026,0.020353,248,-84,248,-84,377,-97,259,39,0.00180098,-0.0348889,0,-1.5,0,0,0,0,-0.431809,0.294478,0,0,0,0,1.41691e-07,0.0352992,19040,0,0,0,0,6330,0,0,0,0,0,0
9585,-3.10578e-12,8.80096e-38,-1.5001e-06,-3.18057e-12,8.80049e-38,0,0,0,0,-3.50555,0.020353,0.63764,-0.431809,0.295145,1.4035e-07,0.034965,0,-0.4026,0.020353,248,-84,248,-84,377,-97,259,39,0.00178393,-0.0348889,0,-1.5,0,0,0,0,-0.431809,0.295145,0,0,0,0,1.4035e-07,0.034965,19040,0,0,0,0,6330,0,0,0,0,0,0
9604,-3.10578e-12,8.80096e-38,-1.5001e-06,-3.18057e-12,8.80049e-38,0,0,0,0,-3.50555,0.020353,0.63764,-0.431809,0.295805,1.39021e-07,0.034634,0,-0.4026,0.020353,248,-84,248,-84,377,-97,259,39,0.00176704,-0.0348889,0,-1.5,0,0,0,0,-0.431809,0.295805,0,0,0,0,1.39021e-07,0.034634,19040,0,0,0,0,6330,0,0,0,0,0,0
9623,-3.10578e-12,8.80096e-38,-1.5001e-06,-3.18057e-12,8.80049e-38,0,0,0,0,-3.50555,0.020353,0.63764,-0.431809,0.296459,1.37705e-07,0.0343061,0,-0.4026,0.020353,248,-84,248,-84,377,-97,259,39,0.00175031,-0.0348889,0,-1.5,0,0,0,0,-0.431809,0.296459,0,0,0,0,1.37705e-07,0.0343061,19040,0,0,0,0,6330,0,0,0,0,0,0
9641,-3.10578e-12,8.80096e-38,-1.5001e-06,-3.18057e-12,8.80049e-38,0,0,0,0,-3.50555,0.020353,0.63764,-0.431809,0.297074,1.3647e-07,0.0339984,0,-0.4026,0.020353,248,-84,248,-84,377,-97,259,39,0.00173461,-0.0348889,0,-1.5,0,0,0,0,-0.431809,0.297074,0,0,0,0,1.3647e-07,0.0339984,19040,0,0,0,0,6330,0,0,0,0,0,0
9659,-3.10578e-12,8.80096e-38,-1.5001e-06,-3.18057e-12,8.80049e-38,0,0,0,0,-3.50555,0.020353,0.63764,-0.431809,0.297682,1.35246e-07,0.0336935,0,-0.4026,0.020353,248,-84,248,-84,377,-97,259,39,0.00171905,-0.0348889,0,-1.5,0,0,0,0,-0.431809,0.297682,0,0,0,0,1.35246e-07,0.0336935,19040,0,0,0,0,6330,0,0,0,0,0,0
9679,-3.10578e-12,8.80096e-38,-1.5001e-06,-3.18057e-12,8.80049e-38,0,0,0,0,-3.50555,0.020353,0.63764,-0.431809,0.298352,1.33898e-07,0.0333577,0,-0.4026,0.020353,248,-84,248,-84,377,-97,259,39,0.00170192,-0.0348889,0,-1.5,0,0,0,0,-0.431809,0.298352,0,0,0,0,1.33898e-07,0.0333577,19040,0,0,0,0,6330,0,0,0,0,0,0
9698,-3.10578e-12,8.80096e-38,-1.5001e-06,-3.18057e-12,8.80049e-38,0,0,0,0,-3.50555,0.020353,0.63764,-0.431809,0.298982,1.32631e-07,0.033042,0,-0.4026,0.020353,248,-84,248,-84,377,-97,259,39,0.00168581,-0.0348889,0,-1.5,0,0,0,0,-0.431809,0.298982,0,0,0,0,1.32631e-07,0.033042,19040,0,0,0,0,6330,0,0,0,0,0,0
9717,-3.10578e-12,8.80096e-38,-1.5001e-06,-3.18057e-12,8.80049e-38,0,0,0,0,-3.50555,0.020353,0.63764,-0.431809,0.299606,1.31375e-07,0.0327292,0,-0.4026,0.020353,248,-84,248,-84,377,-97,259,39,0.00166985,-0.0348889,0,-1.5,0,0,0,0,-0.431809,0.299606,0,0,0,0,1.31375e-07,0.0327292,19040,0,0,0,0,6330,0,0,0,0,0,0
9736,-3.10578e-12,8.80096e-38,-1.5001e-06,-3.18057e-12,8.80049e-38,0,0,0,0,-3.50555,0.020353,0.63764,-0.431809,0.300224,1.30131e-07,0.0324193,0,-0.4026,0.020353,248,-84,248,-84,377,-97,259,39,0.00165405,-0.0348889,0,-1.5,0,0,0,0,-0.431809,0.300224,0,0,0,0,1.30131e-07,0.0324193,19040,0,0,0,0,6330,0,0,0,0,0,0
9755,-3.10578e-12,8.80096e-38,-1.5001e-06,-3.18057e-12,8.80049e-38,0,0,0,0,-3.50555,0.020353,0.63764,-0.431809,0.300868,1.28835e-07,0.0320963,0,-0.4026,0.020353,248,-84,248,-84,377,-97,259,39,0.00163757,-0.0348889,0,-1.5,0,0,0,0,-0.431809,0.300868,0,0,0,0,1.28835e-07,0.0320963,19040,0,0,0,0,6330,0,0,0,0,0,0
