timestamp,A_x,A_y,A_z,P,Q,R,Phi,Theta,Psi,poseX,poseY,poseZ,state_X,state_Y,state_Z,state_VzB,state_Bx,state_By,state_Bz,p1_x,p1_y,p2_x,p2_y,p3_x,p3_y,p4_x,p4_y,roll,pitch,yaw,alt,targetHeading,highLevelState,lowLevelState,gateNumber,filtered_x,filtered_y,x_OT,y_OT,vx_OT,vy_OTfiltered_vx,filtered_vy
10,0,0,0,0,0,0,0,0,0,0,0,0,0,0,0,0,0,0,0,0,0,0,0,0,0,0,0,0,-0.261799,0.00779127,-1.5,3.94113e+12,0,0,3,0,0,0,0,0,0,0,0
20,0,0,0,0,0,0,0,0,0,0,0,0,0,0,0,0,0,0,0,0,0,0,0,0,0,0,0,0,-0.261799,0.00756001,-1.5,3.94113e+12,0,0,3,0,0,0,0,0,0,0,0
30,-3.2124e-12,0,-1.5611e-06,-3.27827e-12,0,-3.40903e-12,-1.06589e-13,0,0,0,0,0,0,0,0,0,0,0,0,0,0,0,0,0,0,0,0,0,-0.261799,0.00210865,-1.5,3.94113e+12,0,0,3,0,0,0,0,0,0,0,0
40,-3.2124e-12,0,-1.5611e-06,-3.27827e-12,0,0,-1.0659e-13,0,0,0,0,0,0,0,0,0,0,0,0,0,0,0,0,0,0,0,0,0,-0.261799,0.00203776,-1.5,3.94113e+12,0,0,3,0,0,0,0,0,0,0,0
50,-3.2124e-12,0,-1.5611e-06,-3.27827e-12,0,-3.40903e-12,-1.0659e-13,0,0,0,0,0,0,0,0,0,0,0,0,0,0,0,0,0,0,0,0,0,-0.261799,0.00196926,-1.5,3.94113e+12,0,0,3,0,0,0,0,0,0,0,0
60,-3.2124e-12,0,-1.5611e-06,-3.27827e-12,0,0,-1.0659e-13,0,0,0,0,0,0,0,0,0,0,0,0,0,0,0,0,0,0,0,0,0,-0.261799,0.00190306,-1.5,3.94113e+12,0,0,3,0,0,0,0,0,0,0,0
70,-3.2124e-12,0,-1.5611e-06,-3.27827e-12,0,-3.40903e-12,-1.0659e-13,0,0,0,0,0,0,0,0,0,0,0,0,0,0,0,0,0,0,0,0,0,-0.261799,0.00183539,-1.5,3.94113e+12,0,0,3,0,0,0,0,0,0,0,0
80,-3.2124e-12,0,-1.5611e-06,-3.27827e-12,0,0,-1.06591e-13,0,0,0,0,0,0,0,0,0,0,0,0,0,0,0,0,0,0,0,0,0,-0.261799,0.0017773,-1.5,3.94113e+12,0,0,3,0,0,0,0,0,0,0,0
90,-3.2124e-12,0,-1.5611e-06,-3.27827e-12,0,-3.40903e-12,-1.06591e-13,0,0,0,0,0,0,0,0,0,0,0,0,0,0,0,0,0,0,0,0,0,-0.261799,0.00171755,-1.5,3.94113e+12,0,0,3,0,0,0,0,0,0,0,0
100,-3.2124e-12,0,-1.5611e-06,-3.27827e-12,0,0,-1.06591e-13,0,0,0,0,0,0,0,0,0,0,0,0,0,0,0,0,0,0,0,0,0,-0.261799,0.00165647,-1.5,3.94113e+12,0,0,3,0,0,0,0,0,0,0,0
110,-3.2124e-12,0,-1.5611e-06,-3.27827e-12,0,-3.40903e-12,-1.06591e-13,0,0,0,0,0,0,0,0,0,0,0,0,0,0,0,0,0,0,0,0,0,-0.261799,0.00151602,-1.5,3.94113e+12,0,0,3,0,0,0,0,0,0,0,0
120,-3.2124e-12,0,-1.5611e-06,-3.27827e-12,0,0,-1.06592e-13,0,0,-3.0423,-0.203501,-0.0651166,0,0,0,0,0,0.957695,-0.203501,-1367817872,-353988274,-1367817872,-353988274,-723738912,-1367817872,-1367817824,-1367817824,0,-0.261799,0.00144118,-1.5,3.94113e+12,0,0,3,0,0,0,0,0,0,0,0
130,-3.2124e-12,0,-1.5611e-06,-3.27827e-12,0,-3.40903e-12,-1.06592e-13,0,0,-3.0695,-0.194412,-0.0640651,0,0,0,0,0,0.930501,-0.194412,-1367817872,-353988274,-1367817872,-353988274,-723738912,-1367817872,-1367817824,-1367817824,0,-0.261799,0.001336,-1.5,3.94113e+12,0,0,3,0,0,0,0,0,0,0,0
140,-3.2124e-12,0,-1.5611e-06,-3.27827e-12,0,0,-1.06592e-13,0,0,-3.09529,-0.181087,-0.0618959,0,0,0,0,0,0.904712,-0.181087,-1367817872,-353988274,-1367817872,-353988274,-723738912,-1367817872,-1367817824,-1367817824,0,-0.261799,0.00128846,-1.5,3.94113e+12,0,0,3,0,0,0,0,0,0,0,0
150,-3.2124e-12,0,-1.5611e-06,-3.27827e-12,0,-3.40903e-12,-1.06593e-13,0,0,-3.12051,-0.173341,-0.0642472,0,0,0,0,0,0.879494,-0.173341,-1367817872,-353988274,-1367817872,-353988274,-723738912,-1367817872,-1367817824,-1367817824,0,-0.261799,0.00124261,-1.5,3.94113e+12,0,0,3,0,0,0,0,0,0,0,0
160,-3.2124e-12,0,-1.5611e-06,-3.27827e-12,0,0,-1.06593e-13,0,0,-3.12051,-0.173341,-0.0642472,0,0,0,0,0,0.879494,-0.173341,-1367817872,-353988274,-1367817872,-353988274,-723738912,-1367817872,-1367817824,-1367817824,0,-0.261799,0.00119842,-1.5,3.94113e+12,0,0,3,0,0,0,0,0,0,0,0
170,-3.2124e-12,0,-1.5611e-06,-3.27827e-12,0,-3.40903e-12,-1.06593e-13,0,0,-3.14395,-0.159572,-0.0638796,0,0,0,0,0,0.856055,-0.159572,-1367817872,-353988274,-1367817872,-353988274,-723738912,-1367817872,-1367817824,-1367817824,-0.0201533,-0.261799,0.00114169,-1.5,3.94113e+12,0,0,3,0.842951,-0.152997,0,0,0,0,-0.761306,0.360138
180,-3.2124e-12,0,-1.5611e-06,-3.27827e-12,0,0,-1.06593e-13,0,0,-3.14395,-0.159572,-0.0638796,0,0,0,0,0,0.856055,-0.159572,-1367817872,-353988274,-1367817872,-353988274,-723738912,-1367817872,-1367817824,-1367817824,-0.0329579,-0.261799,0.00110555,-1.5,3.94113e+12,0,0,3,0.83077,-0.147234,0,0,0,0,-0.761306,0.360138
190,-3.2124e-12,0,-1.5611e-06,-3.27827e-12,0,-3.40903e-12,-1.06594e-13,0,0,-3.09859,-0.151991,-0.0950397,0,0,0,0,0,0.901412,-0.151991,-1367817872,-353988274,-1367817872,-353988274,-723738912,-1367817872,-1367817824,-1367817824,-0.000471988,-0.261799,0.00106186,-1.5,3.94113e+12,0,0,3,0.825253,-0.145514,0,0,0,0,-0.697008,0.32383
200,-3.2124e-12,0,-1.5611e-06,-3.27827e-12,0,0,-1.06594e-13,0,0,-3.09859,-0.151991,-0.0950397,0,0,0,0,0,0.901412,-0.151991,-1367817872,-353988274,-1367817872,-353988274,-723738912,-1367817872,-1367817824,-1367817824,-0.0127052,-0.261799,0.00102616,-1.5,3.94113e+12,0,0,3,0.813404,-0.140009,0,0,0,0,-0.697008,0.32383
210,-3.2124e-12,0,-1.5611e-06,-3.27827e-12,0,-3.40903e-12,-1.06594e-13,0,0,-3.12761,-0.144642,-0.0834894,0,0,0,0,0,0.872393,-0.144642,-1367817872,-353988274,-1367817872,-353988274,-723738912,-1367817872,-1367817824,-1367817824,-0.0249385,-0.261799,0.000991663,-1.5,3.94113e+12,0,0,3,0.868199,-0.134504,0,0,0,0,-0.246708,0.32383
220,-3.2124e-12,0,-1.5611e-06,-3.27827e-12,0,0,-1.06594e-13,0,0,-3.09055,-0.136027,-0.110611,0,0,0,0,0,0.909451,-0.136027,-1367817872,-353988274,-1367817872,-353988274,-723738912,-1367817872,-1367817824,-1367817824,0.0197201,-0.261799,0.000950612,-1.5,3.94113e+12,0,0,3,0.89878,-0.13407,0,0,0,0,-0.0351009,0.278208
230,-3.2124e-12,0,-1.5611e-06,-3.27827e-12,0,-3.40903e-12,-1.06597e-13,0,0,-3.09969,-0.139074,-0.0993861,0,0,0,0,0,0.900305,-0.139074,-1367817872,-353988274,-1367817872,-353988274,-723738912,-1367817872,-1367817824,-1367817824,-0.00310019,-0.261799,0.000881591,-1.5,3.94113e+12,0,0,3,0.904057,-0.123784,0,0,0,0,0.00610511,0.278169
240,-3.2124e-12,0,-1.5611e-06,-3.27827e-12,0,0,-1.06595e-13,0,0,-3.09969,-0.139074,-0.0993861,0,0,0,0,0,0.900305,-0.139074,-1367817872,-353988274,-1367817872,-353988274,-723738912,-1367817872,-1367817824,-1367817824,-0.0136085,-0.261799,0.000851954,-1.5,3.94113e+12,0,0,3,0.90416,-0.119055,0,0,0,0,0.00610511,0.278169
250,-3.2124e-12,0,-1.5611e-06,-3.27827e-12,0,-3.40903e-12,-1.06598e-13,0,0,-3.07434,-0.142507,-0.104795,0,0,0,0,0,0.925658,-0.142507,-1367817872,-353988274,-1367817872,-353988274,-723738912,-1367817872,-1367817824,-1367817824,-0.0265894,-0.261799,0.000816605,-1.5,3.94113e+12,0,0,3,0.898909,-0.113214,0,0,0,0,-0.0220522,0.278169
260,-3.2124e-12,0,-1.5611e-06,-3.27827e-12,0,0,-1.06598e-13,0,0,-3.07434,-0.142507,-0.104795,0,0,0,0,0,0.925658,-0.142507,-1367817872,-353988274,-1367817872,-353988274,-723738912,-1367817872,-1367817824,-1367817824,-0.0377158,-0.261799,0.000787546,-1.5,3.94113e+12,0,0,3,0.898512,-0.108206,0,0,0,0,-0.0220522,0.278169
270,-3.2124e-12,0,-1.5611e-06,-3.27827e-12,0,-3.40903e-12,-1.06595e-13,0,0,-3.11152,-0.154228,-0.0888212,0,0,0,0,0,0.888479,-0.154228,-1367817872,-353988274,-1367817872,-353988274,-723738912,-1367817872,-1367817824,-1367817824,0.0596636,-0.261799,0.000754901,-1.5,3.94113e+12,0,0,3,0.897836,-0.120769,0,0,0,0,-0.0148383,0.208706
280,-3.2124e-12,0,-1.5611e-06,-3.27827e-12,0,0,-1.06596e-13,0,0,-3.17014,-0.18002,-0.0595091,0,0,0,0,0,0.82986,-0.18002,-1367817872,-353988274,-1367817872,-353988274,-723738912,-1367817872,-1367817824,-1367817824,0.124244,-0.261799,0.000723672,-1.5,3.94113e+12,0,0,3,0.884743,-0.127816,0,0,0,0,-0.0741866,0.159785
290,-3.2124e-12,0,-1.5611e-06,-3.27827e-12,0,-3.40903e-12,-1.06595e-13,0,0,-3.17014,-0.18002,-0.0595091,0,0,0,0,0,0.82986,-0.18002,-1367817872,-353988274,-1367817872,-353988274,-723738912,-1367817872,-1367817824,-1367817824,0.117853,-0.261799,0.000697939,-1.5,3.94113e+12,0,0,3,0.883407,-0.12494,0,0,0,0,-0.0741866,0.159785
300,-3.2124e-12,0,-1.5611e-06,-3.27827e-12,0,0,-1.06596e-13,0,0,-3.17014,-0.18002,-0.0595091,0,0,0,0,0,0.82986,-0.18002,-1367817872,-353988274,-1367817872,-353988274,-723738912,-1367817872,-1367817824,-1367817824,0.111462,-0.261799,0.000673121,-1.5,3.94113e+12,0,0,3,0.882072,-0.122064,0,0,0,0,-0.0741866,0.159785
310,-3.2124e-12,0,-1.5611e-06,-3.27827e-12,0,-3.40903e-12,-1.06596e-13,0,0,-3.17014,-0.18002,-0.0595091,0,0,0,0,0,0.82986,-0.18002,-1367817872,-353988274,-1367817872,-353988274,-723738912,-1367817872,-1367817824,-1367817824,0.105426,-0.261799,0.000650492,-1.5,3.94113e+12,0,0,3,0.880811,-0.119347,0,0,0,0,-0.0741866,0.159785
320,-3.2124e-12,0,-1.5611e-06,-3.27827e-12,0,0,-1.06596e-13,0,0,-3.17014,-0.18002,-0.0595091,0,0,0,0,0,0.82986,-0.18002,-1367817872,-353988274,-1367817872,-353988274,-723738912,-1367817872,-1367817824,-1367817824,0.0990345,-0.261799,0.000627344,-1.5,3.94113e+12,0,0,3,0.879475,-0.116471,0,0,0,0,-0.0741866,0.159785
330,-3.2124e-12,0,-1.5611e-06,-3.27827e-12,0,-3.40903e-12,-1.06597e-13,0,0,-3.17014,-0.18002,-0.0595091,0,0,0,0,0,0.82986,-0.18002,-1367817872,-353988274,-1367817872,-353988274,-723738912,-1367817872,-1367817824,-1367817824,0.0940636,-0.261799,0.000609958,-1.5,3.94113e+12,0,0,3,0.878437,-0.114234,0,0,0,0,-0.0741866,0.159785
340,-3.2124e-12,0,-1.5611e-06,-3.27827e-12,0,0,-1.06597e-13,0,0,-3.11064,-0.207253,-0.0912777,0,0,0,0,0,0.889361,-0.207253,-1367817872,-353988274,-1367817872,-353988274,-723738912,-1367817872,-1367817824,-1367817824,0.20949,-0.261799,0.000588288,-1.5,3.94113e+12,0,0,3,0.887418,-0.132196,0,0,0,0,-0.0429867,0.0842717
350,-3.2124e-12,0,-1.5611e-06,-3.27827e-12,0,-3.40903e-12,-1.06598e-13,0,0,-3.11064,-0.207253,-0.0912777,0,0,0,0,0,0.889361,-0.207253,-1367817872,-353988274,-1367817872,-353988274,-723738912,-1367817872,-1367817824,-1367817824,0.20612,-0.261799,0.00056737,-1.5,3.94113e+12,0,0,3,0.886644,-0.130679,0,0,0,0,-0.0429867,0.0842717
360,-3.2124e-12,0,-1.5611e-06,-3.27827e-12,0,0,-1.06599e-13,0,0,-3.10409,-0.231114,-0.0929703,0,0,0,0,0,0.895909,-0.231114,-1367817872,-353988274,-1367817872,-353988274,-723738912,-1367817872,-1367817824,-1367817824,0.261799,-0.261799,0.000543829,-1.5,3.94113e+12,0,0,3,0.887315,-0.18134,0,0,0,0,-0.0406742,-0.0568121
370,-3.2124e-12,0,-1.5611e-06,-3.27827e-12,0,-3.40903e-12,-1.06598e-13,0,0,-3.10409,-0.231114,-0.0929703,0,0,0,0,0,0.895909,-0.231114,-1367817872,-353988274,-1367817872,-353988274,-723738912,-1367817872,-1367817824,-1367817824,0.261799,-0.261799,0.000524476,-1.5,3.94113e+12,0,0,3,0.886583,-0.182363,0,0,0,0,-0.0406742,-0.0568121
380,-3.2124e-12,0,-1.5611e-06,-3.27827e-12,0,0,-1.06599e-13,0,0,-3.10409,-0.231114,-0.0929703,0,0,0,0,0,0.895909,-0.231114,-1367817872,-353988274,-1367817872,-353988274,-723738912,-1367817872,-1367817824,-1367817824,0.261799,-0.261799,0.000505827,-1.5,3.94113e+12,0,0,3,0.885851,-0.183385,0,0,0,0,-0.0406742,-0.0568121
390,-3.2124e-12,0,-1.5611e-06,-3.27827e-12,0,-3.40903e-12,-1.066e-13,0,0,-3.10934,-0.32882,-0.0595197,0,0,0,0,0,0.890664,-0.32882,-1367817872,-353988274,-1367817872,-353988274,-723738912,-1367817872,-1367817824,-1367817824,0.261799,-0.261799,0.000483928,-1.5,3.94113e+12,0,0,3,0.887781,-0.205328,0,0,0,0,-0.0344611,-0.105865
400,-3.2124e-12,0,-1.5611e-06,-3.27827e-12,0,0,-1.06599e-13,0,0,-3.10934,-0.32882,-0.0595197,0,0,0,0,0,0.890664,-0.32882,-1367817872,-353988274,-1367817872,-353988274,-723738912,-1367817872,-1367817824,-1367817824,0.261799,-0.261799,0.00046767,-1.5,3.94113e+12,0,0,3,0.887161,-0.207234,0,0,0,0,-0.0344611,-0.105865
410,-3.2124e-12,0,-1.5611e-06,-3.27827e-12,0,-3.40903e-12,-1.06603e-13,0,0,-3.08443,-0.339494,-0.0696963,0,0,0,0,0,0.915572,-0.339494,-1367817872,-353988274,-1367817872,-353988274,-723738912,-1367817872,-1367817824,-1367817824,0.261799,-0.261799,0.000447411,-1.5,3.94113e+12,0,0,3,0.89055,-0.237039,0,0,0,0,-0.0239304,-0.187062
420,-3.2124e-12,0,-1.5611e-06,-3.27827e-12,0,0,-1.066e-13,0,0,-3.08443,-0.339494,-0.0696963,0,0,0,0,0,0.915572,-0.339494,-1367817872,-353988274,-1367817872,-353988274,-723738912,-1367817872,-1367817824,-1367817824,0.261799,-0.261799,0.00043237,-1.5,3.94113e+12,0,0,3,0.890144,-0.240219,0,0,0,0,-0.0239304,-0.187062
430,-3.2124e-12,0,-1.5611e-06,-3.27827e-12,0,-3.40903e-12,-1.06603e-13,0,0,-3.10735,-0.335359,-0.0580059,0,0,0,0,0,0.892647,-0.335359,-1367817872,-353988274,-1367817872,-353988274,-723738912,-1367817872,-1367817824,-1367817824,0.261799,-0.261799,0.000413598,-1.5,3.94113e+12,0,0,3,0.889346,-0.272827,0,0,0,0,-0.0226233,-0.242525
440,-3.2124e-12,0,-1.5611e-06,-3.27827e-12,0,0,-1.06604e-13,0,0,-3.11363,-0.360529,-0.0549287,0,0,0,0,0,0.886367,-0.360529,-1367817872,-353988274,-1367817872,-353988274,-723738912,-1367817872,-1367817824,-1367817824,0.261799,-0.261799,0.000395687,-1.5,3.94113e+12,0,0,3,0.887566,-0.348041,0,0,0,0,-0.0277557,-0.386979
450,-3.2124e-12,0,-1.5611e-06,-3.27827e-12,0,-3.40903e-12,-1.06603e-13,0,0,-3.11363,-0.360529,-0.0549287,0,0,0,0,0,0.886367,-0.360529,-1367817872,-353988274,-1367817872,-353988274,-723738912,-1367817872,-1367817824,-1367817824,0.261799,-0.261799,0.000382385,-1.5,3.94113e+12,0,0,3,0.887094,-0.354619,0,0,0,0,-0.0277557,-0.386979
460,-3.2124e-12,0,-1.5611e-06,-3.27827e-12,0,0,-1.066e-13,0,0,-3.11363,-0.360529,-0.0549287,0,0,0,0,0,0.886367,-0.360529,-1367817872,-353988274,-1367817872,-353988274,-723738912,-1367817872,-1367817824,-1367817824,0.261799,-0.261799,0.000371035,-1.5,3.94113e+12,0,0,3,0.886678,-0.360424,0,0,0,0,-0.0277557,-0.386979
470,-3.2124e-12,0,-1.5611e-06,-3.27827e-12,0,-3.40903e-12,-1.06601e-13,0,0,-3.11363,-0.360529,-0.0549287,0,0,0,0,0,0.886367,-0.360529,-1367817872,-353988274,-1367817872,-353988274,-723738912,-1367817872,-1367817824,-1367817824,0.261799,-0.261799,0.000360753,-1.5,3.94113e+12,0,0,3,0.88629,-0.365842,0,0,0,0,-0.0277557,-0.386979
480,-3.2124e-12,0,-1.5611e-06,-3.27827e-12,0,0,-1.06605e-13,0,0,-3.08758,-0.372797,-0.0704177,0,0,0,0,0,0.912417,-0.372797,-1367817872,-353988274,-1367817872,-353988274,-723738912,-1367817872,-1367817824,-1367817824,0.261799,-0.261799,0.00034512,-1.5,3.94113e+12,0,0,3,0.890376,-0.376528,0,0,0,0,-0.0199991,-0.379719
490,-3.2124e-12,0,-1.5611e-06,-3.27827e-12,0,-3.40903e-12,-1.06604e-13,0,0,-3.08758,-0.372797,-0.0704177,0,0,0,0,0,0.912417,-0.372797,-1367817872,-353988274,-1367817872,-353988274,-723738912,-1367817872,-1367817824,-1367817824,0.261799,-0.261799,0.000332848,-1.5,3.94113e+12,0,0,3,0.890016,-0.383363,0,0,0,0,-0.0199991,-0.379719
500,-3.2124e-12,0,-1.5611e-06,-3.27827e-12,0,0,-1.06605e-13,0,0,-3.09986,-0.354154,-0.0690042,0,0,0,0,0,0.900139,-0.354154,-1367817872,-353988274,-1367817872,-353988274,-723738912,-1367817872,-1367817824,-1367817824,0.261799,-0.261799,0.000318398,-1.5,3.94113e+12,0,0,3,0.89308,-0.387778,0,0,0,0,-0.0133242,-0.381132
510,-3.2124e-12,0,-1.5611e-06,-3.27827e-12,0,-3.40903e-12,-1.06604e-13,0,0,-3.09986,-0.354154,-0.0690042,0,0,0,0,0,0.900139,-0.354154,-1367817872,-353988274,-1367817872,-353988274,-723738912,-1367817872,-1367817824,-1367817824,0.261799,-0.261799,0.000307694,-1.5,3.94113e+12,0,0,3,0.892853,-0.394257,0,0,0,0,-0.0133242,-0.381132
520,-3.2124e-12,0,-1.5611e-06,-3.27827e-12,0,0,-1.06605e-13,0,0,-3.16167,-0.324593,-0.0488919,0,0,0,0,0,0.838334,-0.324593,-1367817872,-353988274,-1367817872,-353988274,-723738912,-1367817872,-1367817824,-1367817824,0.261799,-0.261799,0.000294322,-1.5,3.94113e+12,0,0,3,0.888835,-0.376413,0,0,0,0,-0.0186498,-0.342372
530,-3.2124e-12,0,-1.5611e-06,-3.27827e-12,0,-3.40903e-12,-1.06601e-13,0,0,-3.18283,-0.294219,-0.0543997,0,0,0,0,0,0.81717,-0.294219,-1367817872,-353988274,-1367817872,-353988274,-723738912,-1367817872,-1367817824,-1367817824,0.261799,-0.261799,0.000281568,-1.5,3.94113e+12,0,0,3,0.883083,-0.355959,0,0,0,0,-0.0248082,-0.30029
540,-3.2124e-12,0,-1.5611e-06,-3.27827e-12,0,0,-1.06605e-13,0,0,-3.18283,-0.294219,-0.0543997,0,0,0,0,0,0.81717,-0.294219,-1367817872,-353988274,-1367817872,-353988274,-723738912,-1367817872,-1367817824,-1367817824,0.261799,-0.261799,0.000271556,-1.5,3.94113e+12,0,0,3,0.882636,-0.361365,0,0,0,0,-0.0248082,-0.30029
550,-3.2124e-12,0,-1.5611e-06,-3.27827e-12,0,-3.40903e-12,-1.06601e-13,0,0,-3.14422,-0.240876,-0.114524,0,0,0,0,0,0.855782,-0.240876,-1367817872,-353988274,-1367817872,-353988274,-723738912,-1367817872,-1367817824,-1367817824,0.261799,-0.261799,0.000259766,-1.5,3.94113e+12,0,0,3,0.883204,-0.349307,0,0,0,0,-0.0259059,-0.273287
560,-3.2124e-12,0,-1.5611e-06,-3.27827e-12,0,0,-1.06602e-13,0,0,-3.14382,-0.218272,-0.126709,0,0,0,0,0,0.856184,-0.218272,-1367817872,-353988274,-1367817872,-353988274,-723738912,-1367817872,-1367817824,-1367817824,0.261799,-0.261799,0.000248513,-1.5,3.94113e+12,0,0,3,0.875227,-0.332778,0,0,0,0,-0.0367266,-0.242438
570,-3.2124e-12,0,-1.5611e-06,-3.27827e-12,0,-3.40903e-12,-1.06602e-13,0,0,-3.14382,-0.218272,-0.126709,0,0,0,0,0,0.856184,-0.218272,-1367817872,-353988274,-1367817872,-353988274,-723738912,-1367817872,-1367817824,-1367817824,0.261799,-0.261799,0.000240158,-1.5,3.94113e+12,0,0,3,0.874602,-0.3369,0,0,0,0,-0.0367266,-0.242438
580,-3.2124e-12,0,-1.5611e-06,-3.27827e-12,0,0,-1.06606e-13,0,0,-3.13352,-0.203678,-0.149809,0,0,0,0,0,0.866482,-0.203678,-1367817872,-353988274,-1367817872,-353988274,-723738912,-1367817872,-1367817824,-1367817824,0.261799,-0.261799,0.000229287,-1.5,3.94113e+12,0,0,3,0.866617,-0.320778,0,0,0,0,-0.0460387,-0.204561
590,-3.2124e-12,0,-1.5611e-06,-3.27827e-12,0,-3.40903e-12,-1.06606e-13,0,0,-3.13352,-0.203678,-0.149809,0,0,0,0,0,0.866482,-0.203678,-1367817872,-353988274,-1367817872,-353988274,-723738912,-1367817872,-1367817824,-1367817824,0.261799,-0.261799,0.000222485,-1.5,3.94113e+12,0,0,3,0.865927,-0.323846,0,0,0,0,-0.0460387,-0.204561
600,-3.2124e-12,0,-1.5611e-06,-3.27827e-12,0,0,-1.06602e-13,0,0,-3.11546,-0.209518,-0.14952,0,0,0,0,0,0.884535,-0.209518,-1367817872,-353988274,-1367817872,-353988274,-723738912,-1367817872,-1367817824,-1367817824,0.261799,-0.261799,0.000202443,-1.5,3.94113e+12,0,0,3,0.865732,-0.278522,0,0,0,0,-0.0433348,-0.135466
610,-3.2124e-12,0,-1.5611e-06,-3.27827e-12,0,-3.40903e-12,-1.06602e-13,0,0,-3.11546,-0.209518,-0.14952,0,0,0,0,0,0.884535,-0.209518,-1367817872,-353988274,-1367817872,-353988274,-723738912,-1367817872,-1367817824,-1367817824,0.261799,-0.261799,0.000194051,-1.5,3.94113e+12,0,0,3,0.864821,-0.281366,0,0,0,0,-0.0433348,-0.135466
620,-3.2124e-12,0,-1.5611e-06,-3.27827e-12,0,0,-1.06606e-13,0,0,-3.11401,-0.222738,-0.138478,0,0,0,0,0,0.885986,-0.222738,-1367817872,-353988274,-1367817872,-353988274,-723738912,-1367817872,-1367817824,-1367817824,0.261799,-0.261799,0.000182958,-1.5,3.94113e+12,0,0,3,0.873146,-0.258991,0,0,0,0,-0.0313586,-0.0904926
630,-3.2124e-12,0,-1.5611e-06,-3.27827e-12,0,-3.40903e-12,-1.06607e-13,0,0,-3.12068,-0.220993,-0.135241,0,0,0,0,0,0.879317,-0.220993,-1367817872,-353988274,-1367817872,-353988274,-723738912,-1367817872,-1367817824,-1367817824,0.261799,-0.261799,0.000172126,-1.5,3.94113e+12,0,0,3,0.875477,-0.240124,0,0,0,0,-0.0287063,-0.0681568
640,-3.2124e-12,0,-1.5611e-06,-3.27827e-12,0,0,-1.06607e-13,0,0,-3.13,-0.221329,-0.133433,0,0,0,0,0,0.869997,-0.221329,-1367817872,-353988274,-1367817872,-353988274,-723738912,-1367817872,-1367817824,-1367817824,0.261799,-0.261799,0.000164334,-1.5,3.94113e+12,0,0,3,0.87171,-0.234109,0,0,0,0,-0.0314668,-0.0605407
650,-3.2124e-12,0,-1.5611e-06,-3.27827e-12,0,-3.40903e-12,-1.06607e-13,0,0,-3.13,-0.221329,-0.133433,0,0,0,0,0,0.869997,-0.221329,-1367817872,-353988274,-1367817872,-353988274,-723738912,-1367817872,-1367817824,-1367817824,0.261799,-0.261799,0.000158486,-1.5,3.94113e+12,0,0,3,0.871143,-0.235198,0,0,0,0,-0.0314668,-0.0605407
660,-3.2124e-12,0,-1.5611e-06,-3.27827e-12,0,0,-1.06607e-13,0,0,-3.1546,-0.220904,-0.103742,0,0,0,0,0,0.8454,-0.220904,-1367817872,-353988274,-1367817872,-353988274,-723738912,-1367817872,-1367817824,-1367817824,0.261799,-0.261799,0.000151287,-1.5,3.94113e+12,0,0,3,0.870337,-0.228497,0,0,0,0,-0.0308746,-0.0511349
670,-3.2124e-12,0,-1.5611e-06,-3.27827e-12,0,-3.40903e-12,-1.06608e-13,0,0,-3.15991,-0.228461,-0.0782613,0,0,0,0,0,0.840089,-0.228461,-1367817872,-353988274,-1367817872,-353988274,-723738912,-1367817872,-1367817824,-1367817824,0.261799,-0.261799,0.000144145,-1.5,3.94113e+12,0,0,3,0.862584,-0.234532,0,0,0,0,-0.0375532,-0.0640724
680,-3.2124e-12,0,-1.5611e-06,-3.27827e-12,0,0,-1.06608e-13,0,0,-3.15991,-0.228461,-0.0782613,0,0,0,0,0,0.840089,-0.228461,-1367817872,-353988274,-1367817872,-353988274,-723738912,-1367817872,-1367817824,-1367817824,0.261799,-0.261799,0.000139019,-1.5,3.94113e+12,0,0,3,0.861908,-0.235686,0,0,0,0,-0.0375532,-0.0640724
690,-3.2124e-12,0,-1.5611e-06,-3.27827e-12,0,-3.40903e-12,-1.06608e-13,0,0,-3.17847,-0.194585,-0.0423725,0,0,0,0,0,0.821531,-0.194585,-1367817872,-353988274,-1367817872,-353988274,-723738912,-1367817872,-1367817824,-1367817824,0.261799,-0.261799,0.000132704,-1.5,3.94113e+12,0,0,3,0.854117,-0.234836,0,0,0,0,-0.0461342,-0.0676272
700,-3.2124e-12,0,-1.5611e-06,-3.27827e-12,0,0,-1.06609e-13,0,0,-3.18284,-0.169513,-0.0127178,0,0,0,0,0,0.817159,-0.169513,-1367817872,-353988274,-1367817872,-353988274,-723738912,-1367817872,-1367817824,-1367817824,0.261799,-0.261799,0.0001267,-1.5,3.94113e+12,0,0,3,0.850144,-0.229621,0,0,0,0,-0.0513364,-0.0632832
710,-3.2124e-12,0,-1.5611e-06,-3.27827e-12,0,-3.40903e-12,-1.06609e-13,0,0,-3.18284,-0.169513,-0.0127178,0,0,0,0,0,0.817159,-0.169513,-1367817872,-353988274,-1367817872,-353988274,-723738912,-1367817872,-1367817824,-1367817824,0.261799,-0.261799,0.000122942,-1.5,3.94113e+12,0,0,3,0.849374,-0.23057,0,0,0,0,-0.0513364,-0.0632832
720,-3.2124e-12,0,-1.5611e-06,-3.27827e-12,0,0,-1.06609e-13,0,0,-3.18284,-0.169513,-0.0127178,0,0,0,0,0,0.817159,-0.169513,-1367817872,-353988274,-1367817872,-353988274,-723738912,-1367817872,-1367817824,-1367817824,0.261799,-0.261799,0.000119535,-1.5,3.94113e+12,0,0,3,0.848655,-0.231456,0,0,0,0,-0.0513364,-0.0632832
730,-3.2124e-12,0,-1.5611e-06,-3.27827e-12,0,-3.40903e-12,-1.06609e-13,0,0,-3.18284,-0.169513,-0.0127178,0,0,0,0,0,0.817159,-0.169513,-1367817872,-353988274,-1367817872,-353988274,-723738912,-1367817872,-1367817824,-1367817824,0.261799,-0.261799,0.000115284,-1.5,3.94113e+12,0,0,3,0.847731,-0.232595,0,0,0,0,-0.0513364,-0.0632832
740,-3.2124e-12,0,-1.5611e-06,-3.27827e-12,0,0,-1.0661e-13,0,0,-3.08499,-0.140835,-0.036092,0,0,0,0,0,0.91501,-0.140835,-1367817872,-353988274,-1367817872,-353988274,-723738912,-1367817872,-1367817824,-1367817824,0.261799,-0.261799,0.000110069,-1.5,3.94113e+12,0,0,3,0.848548,-0.234509,0,0,0,0,-0.0493171,-0.0578075
750,-3.2124e-12,0,-1.5611e-06,-3.27827e-12,0,-3.40903e-12,-1.0661e-13,0,0,-3.08499,-0.140835,-0.036092,0,0,0,0,0,0.91501,-0.140835,-1367817872,-353988274,-1367817872,-353988274,-723738912,-1367817872,-1367817824,-1367817824,0.261799,-0.261799,0.000106155,-1.5,3.94113e+12,0,0,3,0.84766,-0.235549,0,0,0,0,-0.0493171,-0.0578075
760,-3.2124e-12,0,-1.5611e-06,-3.27827e-12,0,0,-1.0661e-13,0,0,-3.08493,-0.146554,-0.0325466,0,0,0,0,0,0.915075,-0.146554,-1367817872,-353988274,-1367817872,-353988274,-723738912,-1367817872,-1367817824,-1367817824,0.261799,-0.261799,0.000101332,-1.5,3.94113e+12,0,0,3,0.858481,-0.228711,0,0,0,0,-0.0388603,-0.0328215
770,-3.2124e-12,0,-1.5611e-06,-3.27827e-12,0,-3.40903e-12,-1.0661e-13,0,0,-3.10543,-0.141591,0.0015378,0,0,0,0,0,0.894573,-0.141591,-1367817872,-353988274,-1367817872,-353988274,-723738912,-1367817872,-1367817824,-1367817824,0.261799,-0.261799,9.65489e-05,-1.5,3.94113e+12,0,0,3,0.860317,-0.222982,0,0,0,0,-0.0366456,-0.0105795
780,-3.2124e-12,0,-1.5611e-06,-3.27827e-12,0,0,-1.06611e-13,0,0,-3.10543,-0.141591,0.0015378,0,0,0,0,0,0.894573,-0.141591,-1367817872,-353988274,-1367817872,-353988274,-723738912,-1367817872,-1367817824,-1367817824,0.261799,-0.261799,9.33031e-05,-1.5,3.94113e+12,0,0,3,0.859694,-0.223162,0,0,0,0,-0.0366456,-0.0105795
790,-3.2124e-12,0,-1.5611e-06,-3.27827e-12,0,-3.40903e-12,-1.06611e-13,0,0,-3.1086,-0.130856,0.00513156,0,0,0,0,0,0.8914,-0.130856,-1367817872,-353988274,-1367817872,-353988274,-723738912,-1367817872,-1367817824,-1367817824,0.261799,-0.261799,8.88987e-05,-1.5,3.94113e+12,0,0,3,0.863839,-0.17624,0,0,0,0,-0.0307639,0.0802869
800,-3.2124e-12,0,-1.5611e-06,-3.27827e-12,0,0,-1.06611e-13,0,0,-3.1086,-0.130856,0.00513156,0,0,0,0,0,0.8914,-0.130856,-1367817872,-353988274,-1367817872,-353988274,-723738912,-1367817872,-1367817824,-1367817824,0.261799,-0.261799,8.59101e-05,-1.5,3.94113e+12,0,0,3,0.863316,-0.174875,0,0,0,0,-0.0307639,0.0802869
810,-3.2124e-12,0,-1.5611e-06,-3.27827e-12,0,-3.40903e-12,-1.06611e-13,0,0,-3.09506,-0.123345,0.00177322,0,0,0,0,0,0.904941,-0.123345,-1367817872,-353988274,-1367817872,-353988274,-723738912,-1367817872,-1367817824,-1367817824,0.106235,-0.261799,8.20074e-05,-1.5,3.94113e+12,0,0,3,0.874005,-0.129026,0,0,0,0,-0.0156609,0.180484
820,-3.2124e-12,0,-1.5611e-06,-3.27827e-12,0,0,-1.06612e-13,0,0,-3.10174,-0.11301,0.0215804,0,0,0,0,0,0.898255,-0.11301,-1367817872,-353988274,-1367817872,-353988274,-723738912,-1367817872,-1367817824,-1367817824,0.038731,-0.261799,7.81362e-05,-1.5,3.94113e+12,0,0,3,0.88038,-0.116844,0,0,0,0,-0.00618617,0.220917
830,-3.2124e-12,0,-1.5611e-06,-3.27827e-12,0,-3.40903e-12,-1.06612e-13,0,0,-3.10174,-0.11301,0.0215804,0,0,0,0,0,0.898255,-0.11301,-1367817872,-353988274,-1367817872,-353988274,-723738912,-1367817872,-1367817824,-1367817824,0.0303852,-0.261799,7.55094e-05,-1.5,3.94113e+12,0,0,3,0.880275,-0.113088,0,0,0,0,-0.00618617,0.220917
840,-3.2124e-12,0,-1.5611e-06,-3.27827e-12,0,0,-1.06612e-13,0,0,-3.05724,-0.111016,-0.0074736,0,0,0,0,0,0.942761,-0.111016,-1367817872,-353988274,-1367817872,-353988274,-723738912,-1367817872,-1367817824,-1367817824,-0.00805256,-0.261799,7.23795e-05,-1.5,3.94113e+12,0,0,3,0.892297,-0.103046,0,0,0,0,0.0125405,0.237038
850,-3.2124e-12,0,-1.5611e-06,-3.27827e-12,0,-3.40903e-12,-1.06613e-13,0,0,-3.05724,-0.111016,-0.0074736,0,0,0,0,0,0.942761,-0.111016,-1367817872,-353988274,-1367817872,-353988274,-723738912,-1367817872,-1367817824,-1367817824,-0.0154271,-0.261799,7.03736e-05,-1.5,3.94113e+12,0,0,3,0.892472,-0.0997269,0,0,0,0,0.0125405,0.237038
860,-3.2124e-12,0,-1.5611e-06,-3.27827e-12,0,0,-1.06613e-13,0,0,-3.10546,-0.10433,0.0231934,0,0,0,0,0,0.89454,-0.10433,-1367817872,-353988274,-1367817872,-353988274,-723738912,-1367817872,-1367817824,-1367817824,-0.0567681,-0.261799,6.71767e-05,-1.5,3.94113e+12,0,0,3,0.892085,-0.0915128,0,0,0,0,0.00545584,0.260125
870,-3.2124e-12,0,-1.5611e-06,-3.27827e-12,0,-3.40903e-12,-1.06613e-13,0,0,-3.11047,-0.109371,0.0300996,0,0,0,0,0,0.88953,-0.109371,-1367817872,-353988274,-1367817872,-353988274,-723738912,-1367817872,-1367817824,-1367817824,-0.0665639,-0.261799,6.40056e-05,-1.5,3.94113e+12,0,0,3,0.891468,-0.0862771,0,0,0,0,0.00936709,0.258287
880,-3.2124e-12,0,-1.5611e-06,-3.27827e-12,0,0,-1.06613e-13,0,0,-3.11047,-0.109371,0.0300996,0,0,0,0,0,0.88953,-0.109371,-1367817872,-353988274,-1367817872,-353988274,-723738912,-1367817872,-1367817824,-1367817824,-0.0763214,-0.261799,6.18539e-05,-1.5,3.94113e+12,0,0,3,0.891627,-0.0818861,0,0,0,0,0.00936709,0.258287
890,-3.2124e-12,0,-1.5611e-06,-3.27827e-12,0,-3.40903e-12,-1.06614e-13,0,0,-3.1068,-0.115349,0.028462,0,0,0,0,0,0.893197,-0.115349,-1367817872,-353988274,-1367817872,-353988274,-723738912,-1367817872,-1367817824,-1367817824,-0.0929992,-0.261799,5.89255e-05,-1.5,3.94113e+12,0,0,3,0.89443,-0.075493,0,0,0,0,0.0153844,0.260758
900,-3.2124e-12,0,-1.5611e-06,-3.27827e-12,0,0,-1.06614e-13,0,0,-3.1068,-0.115349,0.028462,0,0,0,0,0,0.893197,-0.115349,-1367817872,-353988274,-1367817872,-353988274,-723738912,-1367817872,-1367817824,-1367817824,-0.10343,-0.261799,5.68302e-05,-1.5,3.94113e+12,0,0,3,0.894707,-0.0707993,0,0,0,0,0.0153844,0.260758
910,-3.2124e-12,0,-1.5611e-06,-3.27827e-12,0,-3.40903e-12,-1.06614e-13,0,0,-3.10546,-0.10433,0.0231934,0,0,0,0,0,0.89454,-0.10433,-1367817872,-353988274,-1367817872,-353988274,-723738912,-1367817872,-1367817824,-1367817824,-0.100657,-0.261799,5.42512e-05,-1.5,3.94113e+12,0,0,3,0.894539,-0.0695148,0,0,0,0,0.0186096,0.25513
920,-3.2124e-12,0,-1.5611e-06,-3.27827e-12,0,0,-1.06614e-13,0,0,-3.11843,-0.107449,0.0342393,0,0,0,0,0,0.881566,-0.107449,-1367817872,-353988274,-1367817872,-353988274,-723738912,-1367817872,-1367817824,-1367817824,-0.11391,-0.261799,5.17867e-05,-1.5,3.94113e+12,0,0,3,0.896793,-0.0642053,0,0,0,0,0.0278557,0.256585
930,-3.2124e-12,0,-1.5611e-06,-3.27827e-12,0,-3.40903e-12,-1.06615e-13,0,0,-3.11082,-0.114253,0.028683,0,0,0,0,0,0.889183,-0.114253,-1367817872,-353988274,-1367817872,-353988274,-723738912,-1367817872,-1367817824,-1367817824,-0.113982,-0.261799,4.93421e-05,-1.5,3.94113e+12,0,0,3,0.897786,-0.0599437,0,0,0,0,0.0409617,0.247187
940,-3.2124e-12,0,-1.5611e-06,-3.27827e-12,0,0,-1.06615e-13,0,0,-3.11082,-0.114253,0.028683,0,0,0,0,0,0.889183,-0.114253,-1367817872,-353988274,-1367817872,-353988274,-723738912,-1367817872,-1367817824,-1367817824,-0.12332,-0.261799,4.76833e-05,-1.5,3.94113e+12,0,0,3,0.898482,-0.0557415,0,0,0,0,0.0409617,0.247187
950,-3.2124e-12,0,-1.5611e-06,-3.27827e-12,0,-3.40903e-12,-1.06615e-13,0,0,-3.10667,-0.113356,0.0208566,0,0,0,0,0,0.893326,-0.113356,-1367817872,-353988274,-1367817872,-353988274,-723738912,-1367817872,-1367817824,-1367817824,-0.0603745,-0.261799,4.54333e-05,-1.5,3.94113e+12,0,0,3,0.899821,-0.0690181,0,0,0,0,0.0425555,0.213745
960,-3.2124e-12,0,-1.5611e-06,-3.27827e-12,0,0,-1.06616e-13,0,0,-3.10667,-0.113356,0.0208566,0,0,0,0,0,0.893326,-0.113356,-1367817872,-353988274,-1367817872,-353988274,-723738912,-1367817872,-1367817824,-1367817824,-0.0684493,-0.261799,4.3906e-05,-1.5,3.94113e+12,0,0,3,0.900545,-0.0653843,0,0,0,0,0.0425555,0.213745
970,-3.2124e-12,0,-1.5611e-06,-3.27827e-12,0,-3.40903e-12,-1.06616e-13,0,0,-3.08584,-0.115148,0.00847907,0,0,0,0,0,0.914164,-0.115148,-1367817872,-353988274,-1367817872,-353988274,-723738912,-1367817872,-1367817824,-1367817824,0.000656065,-0.261799,4.21707e-05,-1.5,3.94113e+12,0,0,3,0.901963,-0.0789926,0,0,0,0,0.0435173,0.174879
980,-3.2124e-12,0,-1.5611e-06,-3.27827e-12,0,0,-1.06616e-13,0,0,-3.10534,-0.113931,0.0234154,0,0,0,0,0,0.894662,-0.113931,-1367817872,-353988274,-1367817872,-353988274,-723738912,-1367817872,-1367817824,-1367817824,-0.00444379,-0.261799,4.02617e-05,-1.5,3.94113e+12,0,0,3,0.903506,-0.0752255,0,0,0,0,0.0481406,0.171608
990,-3.2124e-12,0,-1.5611e-06,-3.27827e-12,0,-3.40903e-12,-1.06616e-13,0,0,-3.10534,-0.113931,0.0234154,0,0,0,0,0,0.894662,-0.113931,-1367817872,-353988274,-1367817872,-353988274,-723738912,-1367817872,-1367817824,-1367817824,-0.0113081,-0.261799,3.88289e-05,-1.5,3.94113e+12,0,0,3,0.904372,-0.0721365,0,0,0,0,0.0481406,0.171608
1000,-3.2124e-12,0,-1.5611e-06,-3.27827e-12,0,0,-1.06617e-13,0,0,-3.09857,-0.117842,0.0263471,0,0,0,0,0,0.901432,-0.117842,-1367817872,-353988274,-1367817872,-353988274,-723738912,-1367817872,-1367817824,-1367817824,0.0225509,-0.261799,3.7065e-05,-1.5,3.94113e+12,0,0,3,0.902277,-0.0775972,0,0,0,0,0.0393311,0.149884
1010,-3.2124e-12,0,-1.5611e-06,-3.27827e-12,0,-3.40903e-12,-1.06617e-13,0,0,-3.09857,-0.117842,0.0263471,0,0,0,0,0,0.901432,-0.117842,-1367817872,-353988274,-1367817872,-353988274,-723738912,-1367817872,-1367817824,-1367817824,0.0165556,-0.261799,3.5746e-05,-1.5,3.94113e+12,0,0,3,0.902985,-0.0748992,0,0,0,0,0.0393311,0.149884
1020,-3.2124e-12,0,-1.5611e-06,-3.27827e-12,0,0,-1.06617e-13,0,0,-3.05834,-0.110967,-0.00416127,0,0,0,0,0,0.941661,-0.110967,-1367817872,-353988274,-1367817872,-353988274,-723738912,-1367817872,-1367817824,-1367817824,0.0154348,-0.261799,3.41222e-05,-1.5,3.94113e+12,0,0,3,0.904617,-0.0729502,0,0,0,0,0.0402864,0.146673
1030,-3.2124e-12,0,-1.5611e-06,-3.27827e-12,0,-3.40903e-12,-1.06617e-13,0,0,-3.07423,-0.118679,0.00907143,0,0,0,0,0,0.92577,-0.118679,-1367817872,-353988274,-1367817872,-353988274,-723738912,-1367817872,-1367817824,-1367817824,0.0698703,-0.261799,3.18334e-05,-1.5,3.94113e+12,0,0,3,0.90636,-0.0867258,0,0,0,0,0.0411945,0.122849
1040,-3.2124e-12,0,-1.5611e-06,-3.27827e-12,0,0,-1.06618e-13,0,0,-3.0571,-0.11517,-0.00329397,0,0,0,0,0,0.942903,-0.11517,-1367817872,-353988274,-1367817872,-353988274,-723738912,-1367817872,-1367817824,-1367817824,0.0687434,-0.261799,3.01454e-05,-1.5,3.94113e+12,0,0,3,0.913433,-0.0844971,0,0,0,0,0.046168,0.119024
1050,-3.2124e-12,0,-1.5611e-06,-3.27827e-12,0,-3.40903e-12,-1.06618e-13,0,0,-3.06392,-0.124927,0.0116904,0,0,0,0,0,0.936083,-0.124927,-1367817872,-353988274,-1367817872,-353988274,-723738912,-1367817872,-1367817824,-1367817824,0.0703609,-0.261799,2.86052e-05,-1.5,3.94113e+12,0,0,3,0.923369,-0.0842684,0,0,0,0,0.0562628,0.116898
1060,-3.2124e-12,0,-1.5611e-06,-3.27827e-12,0,0,-1.06618e-13,0,0,-3.06392,-0.124927,0.0116904,0,0,0,0,0,0.936083,-0.124927,-1367817872,-353988274,-1367817872,-353988274,-723738912,-1367817872,-1367817824,-1367817824,0.0659447,-0.261799,2.76435e-05,-1.5,3.94113e+12,0,0,3,0.924326,-0.0822811,0,0,0,0,0.0562628,0.116898
1070,-3.2124e-12,0,-1.5611e-06,-3.27827e-12,0,-3.40903e-12,-1.06619e-13,0,0,-3.04028,-0.127599,-0.00744463,0,0,0,0,0,0.959721,-0.127598,-1367817872,-353988274,-1367817872,-353988274,-723738912,-1367817872,-1367817824,-1367817824,0.0912879,-0.261799,2.63878e-05,-1.5,3.94113e+12,0,0,3,0.930309,-0.0876857,0,0,0,0,0.063577,0.103565
1080,-3.2124e-12,0,-1.5611e-06,-3.27827e-12,0,0,-1.06619e-13,0,0,-3.04028,-0.127599,-0.00744463,0,0,0,0,0,0.959721,-0.127598,-1367817872,-353988274,-1367817872,-353988274,-723738912,-1367817872,-1367817824,-1367817824,0.0873755,-0.261799,2.55007e-05,-1.5,3.94113e+12,0,0,3,0.931389,-0.0859251,0,0,0,0,0.063577,0.103565
1090,-3.2124e-12,0,-1.5611e-06,-3.27827e-12,0,-3.40903e-12,-1.06619e-13,0,0,-3.06735,-0.120255,0.00423548,0,0,0,0,0,0.932654,-0.120255,-1367817872,-353988274,-1367817872,-353988274,-723738912,-1367817872,-1367817824,-1367817824,0.133805,-0.261799,2.44937e-05,-1.5,3.94113e+12,0,0,3,0.934298,-0.0939573,0,0,0,0,0.0691374,0.0749847
1100,-3.2124e-12,0,-1.5611e-06,-3.27827e-12,0,0,-1.06619e-13,0,0,-3.05864,-0.119981,0.00211044,0,0,0,0,0,0.941357,-0.119981,-1367817872,-353988274,-1367817872,-353988274,-723738912,-1367817872,-1367817824,-1367817824,0.143524,-0.261799,2.35285e-05,-1.5,3.94113e+12,0,0,3,0.941244,-0.0951777,0,0,0,0,0.085725,0.067977
1110,-3.2124e-12,0,-1.5611e-06,-3.27827e-12,0,-3.40903e-12,-1.0662e-13,0,0,-3.05864,-0.119981,0.00211044,0,0,0,0,0,0.941357,-0.119981,-1367817872,-353988274,-1367817872,-353988274,-723738912,-1367817872,-1367817824,-1367817824,0.140805,-0.261799,2.26918e-05,-1.5,3.94113e+12,0,0,3,0.942787,-0.0939541,0,0,0,0,0.085725,0.067977
1120,-3.2124e-12,0,-1.5611e-06,-3.27827e-12,0,0,-1.0662e-13,0,0,-3.08147,-0.118411,0.0387213,0,0,0,0,0,0.91853,-0.118411,-1367817872,-353988274,-1367817872,-353988274,-723738912,-1367817872,-1367817824,-1367817824,0.192293,-0.261799,2.1661e-05,-1.5,3.94113e+12,0,0,3,0.945159,-0.105284,0,0,0,0,0.0875482,0.0416665
1130,-3.2124e-12,0,-1.5611e-06,-3.27827e-12,0,-3.40903e-12,-1.0662e-13,0,0,-3.08147,-0.118411,0.0387213,0,0,0,0,0,0.91853,-0.118411,-1367817872,-353988274,-1367817872,-353988274,-723738912,-1367817872,-1367817824,-1367817824,0.190719,-0.261799,2.09328e-05,-1.5,3.94113e+12,0,0,3,0.946647,-0.104576,0,0,0,0,0.0875482,0.0416665
1140,-3.2124e-12,0,-1.5611e-06,-3.27827e-12,0,0,-1.0662e-13,0,0,-3.06475,-0.111254,0.0556863,0,0,0,0,0,0.935253,-0.111254,-1367817872,-353988274,-1367817872,-353988274,-723738912,-1367817872,-1367817824,-1367817824,0.214157,-0.261799,1.99407e-05,-1.5,3.94113e+12,0,0,3,0.94913,-0.109321,0,0,0,0,0.0994862,0.0287737
1150,-3.2124e-12,0,-1.5611e-06,-3.27827e-12,0,-3.40903e-12,-1.06621e-13,0,0,-3.04765,-0.110596,0.0683195,0,0,0,0,0,0.952352,-0.110596,-1367817872,-353988274,-1367817872,-353988274,-723738912,-1367817872,-1367817824,-1367817824,0.223823,-0.261799,1.9038e-05,-1.5,3.94113e+12,0,0,3,0.950243,-0.110374,0,0,0,0,0.0856859,0.0214478
1160,-3.2124e-12,0,-1.5611e-06,-3.27827e-12,0,0,-1.06621e-13,0,0,-3.04765,-0.110596,0.0683195,0,0,0,0,0,0.952352,-0.110596,-1367817872,-353988274,-1367817872,-353988274,-723738912,-1367817872,-1367817824,-1367817824,0.222965,-0.261799,1.83605e-05,-1.5,3.94113e+12,0,0,3,0.951785,-0.109988,0,0,0,0,0.0856859,0.0214478
1170,-3.2124e-12,0,-1.5611e-06,-3.27827e-12,0,-3.40903e-12,-1.06621e-13,0,0,-3.07635,-0.109629,0.155731,0,0,0,0,0,0.923646,-0.109629,-1367817872,-353988274,-1367817872,-353988274,-723738912,-1367817872,-1367817824,-1367817824,0.224455,-0.261799,1.75264e-05,-1.5,3.94113e+12,0,0,3,0.94418,-0.109568,0,0,0,0,0.0656707,0.0190234
1180,-3.2124e-12,0,-1.5611e-06,-3.27827e-12,0,0,-1.06622e-13,0,0,-3.07635,-0.109629,0.155731,0,0,0,0,0,0.923646,-0.109629,-1367817872,-353988274,-1367817872,-353988274,-723738912,-1367817872,-1367817824,-1367817824,0.223694,-0.261799,1.69027e-05,-1.5,3.94113e+12,0,0,3,0.945362,-0.109225,0,0,0,0,0.0656707,0.0190234
1190,-3.2124e-12,0,-1.5611e-06,-3.27827e-12,0,-3.40903e-12,-1.06622e-13,0,0,-3.07635,-0.109629,0.155731,0,0,0,0,0,0.923646,-0.109629,-1367817872,-353988274,-1367817872,-353988274,-723738912,-1367817872,-1367817824,-1367817824,0.222933,-0.261799,1.63017e-05,-1.5,3.94113e+12,0,0,3,0.946544,-0.108883,0,0,0,0,0.0656707,0.0190234
1200,-3.2124e-12,0,-1.5611e-06,-3.27827e-12,0,0,-1.06622e-13,0,0,-3.07635,-0.109629,0.155731,0,0,0,0,0,0.923646,-0.109629,-1367817872,-353988274,-1367817872,-353988274,-723738912,-1367817872,-1367817824,-1367817824,0.222172,-0.261799,1.5722e-05,-1.5,3.94113e+12,0,0,3,0.947726,-0.10854,0,0,0,0,0.0656707,0.0190234
1210,-3.2124e-12,0,-1.5611e-06,-3.27827e-12,0,-3.40903e-12,-1.06622e-13,0,0,-3.07635,-0.109629,0.155731,0,0,0,0,0,0.923646,-0.109629,-1367817872,-353988274,-1367817872,-353988274,-723738912,-1367817872,-1367817824,-1367817824,0.221453,-0.261799,1.51935e-05,-1.5,3.94113e+12,0,0,3,0.948843,-0.108217,0,0,0,0,0.0656707,0.0190234
1220,-3.2124e-12,0,-1.5611e-06,-3.27827e-12,0,0,-1.06623e-13,0,0,-3.07635,-0.109629,0.155731,0,0,0,0,0,0.923646,-0.109629,-1367817872,-353988274,-1367817872,-353988274,-723738912,-1367817872,-1367817824,-1367817824,0.220819,-0.261799,1.47425e-05,-1.5,3.94113e+12,0,0,3,0.949828,-0.107932,0,0,0,0,0.0656707,0.0190234
1230,-3.2124e-12,0,-1.5611e-06,-3.27827e-12,0,-3.40903e-12,-1.06623e-13,0,0,-3.07635,-0.109629,0.155731,0,0,0,0,0,0.923646,-0.109629,-1367817872,-353988274,-1367817872,-353988274,-723738912,-1367817872,-1367817824,-1367817824,0.220227,-0.261799,1.4334e-05,-1.5,3.94113e+12,0,0,3,0.950747,-0.107665,0,0,0,0,0.0656707,0.0190234
1240,-3.2124e-12,0,-1.5611e-06,-3.27827e-12,0,0,-1.06623e-13,0,0,-3.07635,-0.109629,0.155731,0,0,0,0,0,0.923646,-0.109629,-1367817872,-353988274,-1367817872,-353988274,-723738912,-1367817872,-1367817824,-1367817824,0.219466,-0.261799,1.38239e-05,-1.5,3.94113e+12,0,0,3,0.951929,-0.107323,0,0,0,0,0.0656707,0.0190234
1250,-3.2124e-12,0,-1.5611e-06,-3.27827e-12,0,-3.40903e-12,-1.06623e-13,0,0,-3.07635,-0.109629,0.155731,0,0,0,0,0,0.923646,-0.109629,-1367817872,-353988274,-1367817872,-353988274,-723738912,-1367817872,-1367817824,-1367817824,0.218705,-0.261799,1.33591e-05,-1.5,3.94113e+12,0,0,3,0.953112,-0.10698,0,0,0,0,0.0656707,0.0190234
1260,-3.2124e-12,0,-1.5611e-06,-3.27827e-12,0,0,-1.06624e-13,0,0,-3.07635,-0.109629,0.155731,0,0,0,0,0,0.923646,-0.109629,-1367817872,-353988274,-1367817872,-353988274,-723738912,-1367817872,-1367817824,-1367817824,0.217944,-0.261799,1.28837e-05,-1.5,3.94113e+12,0,0,3,0.954294,-0.106638,0,0,0,0,0.0656707,0.0190234
1270,-3.2124e-12,0,-1.5611e-06,-3.27827e-12,0,-3.40903e-12,-1.06624e-13,0,0,-3.07635,-0.109629,0.155731,0,0,0,0,0,0.923646,-0.109629,-1367817872,-353988274,-1367817872,-353988274,-723738912,-1367817872,-1367817824,-1367817824,0.217226,-0.261799,1.24506e-05,-1.5,3.94113e+12,0,0,3,0.95541,-0.106315,0,0,0,0,0.0656707,0.0190234
1280,-3.2124e-12,0,-1.5611e-06,-3.27827e-12,0,0,-1.06624e-13,0,0,-3.07635,-0.109629,0.155731,0,0,0,0,0,0.923646,-0.109629,-1367817872,-353988274,-1367817872,-353988274,-723738912,-1367817872,-1367817824,-1367817824,0.216465,-0.261799,1.20075e-05,-1.5,3.94113e+12,0,0,3,0.956592,-0.105972,0,0,0,0,0.0656707,0.0190234
1290,-3.2124e-12,0,-1.5611e-06,-3.27827e-12,0,-3.40903e-12,-1.06625e-13,0,0,-3.07635,-0.109629,0.155731,0,0,0,0,0,0.923646,-0.109629,-1367817872,-353988274,-1367817872,-353988274,-723738912,-1367817872,-1367817824,-1367817824,0.215704,-0.261799,1.16039e-05,-1.5,3.94113e+12,0,0,3,0.957774,-0.10563,0,0,0,0,0.0656707,0.0190234
1300,-3.2124e-12,0,-1.5611e-06,-3.27827e-12,0,0,-1.06625e-13,0,0,-3.07635,-0.109629,0.155731,0,0,0,0,0,0.923646,-0.109629,-1367817872,-353988274,-1367817872,-353988274,-723738912,-1367817872,-1367817824,-1367817824,0.214943,-0.261799,1.11913e-05,-1.5,3.94113e+12,0,0,3,0.958956,-0.105287,0,0,0,0,0.0656707,0.0190234
1310,-3.2124e-12,0,-1.5611e-06,-3.27827e-12,0,-3.40903e-12,-1.06625e-13,0,0,-3.07635,-0.109629,0.155731,0,0,0,0,0,0.923646,-0.109629,-1367817872,-353988274,-1367817872,-353988274,-723738912,-1367817872,-1367817824,-1367817824,0.214224,-0.261799,1.0815e-05,-1.5,3.94113e+12,0,0,3,0.960073,-0.104964,0,0,0,0,0.0656707,0.0190234
1320,-3.2124e-12,0,-1.5611e-06,-3.27827e-12,0,0,-1.06625e-13,0,0,-3.07635,-0.109629,0.155731,0,0,0,0,0,0.923646,-0.109629,-1367817872,-353988274,-1367817872,-353988274,-723738912,-1367817872,-1367817824,-1367817824,0.213463,-0.261799,1.04302e-05,-1.5,3.94113e+12,0,0,3,0.961255,-0.104621,0,0,0,0,0.0656707,0.0190234
1330,-3.2124e-12,0,-1.5611e-06,-3.27827e-12,0,-3.40903e-12,-1.06626e-13,0,0,-3.07635,-0.109629,0.155731,0,0,0,0,0,0.923646,-0.109629,-1367817872,-353988274,-1367817872,-353988274,-723738912,-1367817872,-1367817824,-1367817824,0.212702,-0.261799,1.00593e-05,-1.5,3.94113e+12,0,0,3,0.962437,-0.104279,0,0,0,0,0.0656707,0.0190234
1340,-3.2124e-12,0,-1.5611e-06,-3.27827e-12,0,0,-1.06626e-13,0,0,-3.07635,-0.109629,0.155731,0,0,0,0,0,0.923646,-0.109629,-1367817872,-353988274,-1367817872,-353988274,-723738912,-1367817872,-1367817824,-1367817824,0.211138,-0.261799,9.32514e-06,-1.5,3.94113e+12,0,0,3,0.964867,-0.103575,0,0,0,0,0.0656707,0.0190234
1350,-3.2124e-12,0,-1.5611e-06,-3.27827e-12,0,-3.40903e-12,-1.06626e-13,0,0,-3.07635,-0.109629,0.155731,0,0,0,0,0,0.923646,-0.109629,-1367817872,-353988274,-1367817872,-353988274,-723738912,-1367817872,-1367817824,-1367817824,0.210251,-0.261799,8.93823e-06,-1.5,3.94113e+12,0,0,3,0.966246,-0.103176,0,0,0,0,0.0656707,0.0190234
1360,-3.2124e-12,0,-1.5611e-06,-3.27827e-12,0,0,-1.06626e-13,0,0,-3.07635,-0.109629,0.155731,0,0,0,0,0,0.923646,-0.109629,-1367817872,-353988274,-1367817872,-353988274,-723738912,-1367817872,-1367817824,-1367817824,0.209616,-0.261799,8.67293e-06,-1.5,3.94113e+12,0,0,3,0.967231,-0.10289,0,0,0,0,0.0656707,0.0190234
1370,-3.2124e-12,0,-1.5611e-06,-3.27827e-12,0,-3.40903e-12,-1.06627e-13,0,0,-3.07635,-0.109629,0.155731,0,0,0,0,0,0.923646,-0.109629,-1367817872,-353988274,-1367817872,-353988274,-723738912,-1367817872,-1367817824,-1367817824,0.208856,-0.261799,8.36454e-06,-1.5,3.94113e+12,0,0,3,0.968413,-0.102548,0,0,0,0,0.0656707,0.0190234
1380,-3.2124e-12,0,-1.5611e-06,-3.27827e-12,0,0,-1.06627e-13,0,0,-3.07635,-0.109629,0.155731,0,0,0,0,0,0.923646,-0.109629,-1367817872,-353988274,-1367817872,-353988274,-723738912,-1367817872,-1367817824,-1367817824,0.208095,-0.261799,8.06711e-06,-1.5,3.94113e+12,0,0,3,0.969595,-0.102205,0,0,0,0,0.0656707,0.0190234
1390,-3.2124e-12,0,-1.5611e-06,-3.27827e-12,0,-3.40903e-12,-1.06627e-13,0,0,-3.07635,-0.109629,0.155731,0,0,0,0,0,0.923646,-0.109629,-1367817872,-353988274,-1367817872,-353988274,-723738912,-1367817872,-1367817824,-1367817824,0.207376,-0.261799,7.79591e-06,-1.5,3.94113e+12,0,0,3,0.970712,-0.101882,0,0,0,0,0.0656707,0.0190234
1400,-3.2124e-12,0,-1.5611e-06,-3.27827e-12,0,0,-1.06627e-13,0,0,-3.07635,-0.109629,0.155731,0,0,0,0,0,0.923646,-0.109629,-1367817872,-353988274,-1367817872,-353988274,-723738912,-1367817872,-1367817824,-1367817824,0.205981,-0.261799,7.28832e-06,-1.5,3.94113e+12,0,0,3,0.972879,-0.101254,0,0,0,0,0.0656707,0.0190234
1410,-3.2124e-12,0,-1.5611e-06,-3.27827e-12,0,-3.40903e-12,-1.06628e-13,0,0,-3.07635,-0.109629,0.155731,0,0,0,0,0,0.923646,-0.109629,-1367817872,-353988274,-1367817872,-353988274,-723738912,-1367817872,-1367817824,-1367817824,0.20522,-0.261799,7.02896e-06,-1.5,3.94113e+12,0,0,3,0.974061,-0.100912,0,0,0,0,0.0656707,0.0190234
1420,-3.2124e-12,0,-1.5611e-06,-3.27827e-12,0,0,-1.06628e-13,0,0,-3.07635,-0.109629,0.155731,0,0,0,0,0,0.923646,-0.109629,-1367817872,-353988274,-1367817872,-353988274,-723738912,-1367817872,-1367817824,-1367817824,0.204459,-0.261799,6.79266e-06,-1.5,3.94113e+12,0,0,3,0.975243,-0.100569,0,0,0,0,0.0656707,0.0190234
1430,-3.2124e-12,0,-1.5611e-06,-3.27827e-12,0,-3.40903e-12,-1.06628e-13,0,0,-3.07635,-0.109629,0.155731,0.976423,-0.100227,0.0653757,0.018938,0,0.923646,-0.109629,-1367817872,-353988274,-1367817872,-353988274,-723738912,-1367817872,-1367817824,-1367817824,0.203785,-0.261799,6.55112e-06,-1.5,3.94113e+12,0,0,3,0.976423,-0.100227,0,0,0,0,0.0653757,0.018938
1440,-3.2124e-12,0,-1.5611e-06,-3.27827e-12,0,0,-1.06629e-13,0,0,-3.07635,-0.109629,0.155731,0.977528,-0.0999073,0.0648216,0.0187774,0,0.923646,-0.109629,-1367817872,-353988274,-1367817872,-353988274,-723738912,-1367817872,-1367817824,-1367817824,0.203234,-0.261799,6.33089e-06,-1.5,3.94113e+12,0,0,3,0.977528,-0.0999073,0,0,0,0,0.0648216,0.0187774
1450,-3.2124e-12,0,-1.5611e-06,-3.27827e-12,0,-3.40903e-12,-1.06633e-13,0,0,-3.07635,-0.109629,0.155731,0.978688,-0.0995713,0.0642399,0.0186089,0,0.923646,-0.109629,-1367817872,-353988274,-1367817872,-353988274,-723738912,-1367817872,-1367817824,-1367817824,0.202656,-0.261799,6.1056e-06,-1.5,3.94113e+12,0,0,3,0.978688,-0.0995713,0,0,0,0,0.0642399,0.0186089
1460,-3.2124e-12,0,-1.5611e-06,-3.27827e-12,0,0,-1.06633e-13,0,0,-3.07635,-0.109629,0.155731,0.979838,-0.0992384,0.0636635,0.018442,0,0.923646,-0.109629,-1367817872,-353988274,-1367817872,-353988274,-723738912,-1367817872,-1367817824,-1367817824,0.202083,-0.261799,5.88849e-06,-1.5,3.94113e+12,0,0,3,0.979838,-0.0992384,0,0,0,0,0.0636635,0.018442
1470,-3.2124e-12,0,-1.5611e-06,-3.27827e-12,0,-3.40903e-12,-1.06633e-13,0,0,-3.07635,-0.109629,0.155731,0.980725,-0.0989813,0.063219,0.0183132,0,0.923646,-0.109629,-1367817872,-353988274,-1367817872,-353988274,-723738912,-1367817872,-1367817824,-1367817824,0.20164,-0.261799,5.7253e-06,-1.5,3.94113e+12,0,0,3,0.980725,-0.0989813,0,0,0,0,0.063219,0.0183132
1480,-3.2124e-12,0,-1.5611e-06,-3.27827e-12,0,0,-1.06633e-13,0,0,-3.07635,-0.109629,0.155731,0.981669,-0.0987079,0.0627462,0.0181762,0,0.923646,-0.109629,-1367817872,-353988274,-1367817872,-353988274,-723738912,-1367817872,-1367817824,-1367817824,0.20117,-0.261799,5.55545e-06,-1.5,3.94113e+12,0,0,3,0.981669,-0.0987079,0,0,0,0,0.0627462,0.0181762
1490,-3.2124e-12,0,-1.5611e-06,-3.27827e-12,0,-3.40903e-12,-1.06634e-13,0,0,-3.07635,-0.109629,0.155731,0.982792,-0.0983827,0.0621832,0.0180132,0,0.923646,-0.109629,-1367817872,-353988274,-1367817872,-353988274,-723738912,-1367817872,-1367817824,-1367817824,0.20061,-0.261799,5.35791e-06,-1.5,3.94113e+12,0,0,3,0.982792,-0.0983827,0,0,0,0,0.0621832,0.0180132
1500,-3.2124e-12,0,-1.5611e-06,-3.27827e-12,0,0,-1.06634e-13,0,0,-3.07635,-0.109629,0.155731,0.983843,-0.0980782,0.0616561,0.0178605,0,0.923646,-0.109629,-1367817872,-353988274,-1367817872,-353988274,-723738912,-1367817872,-1367817824,-1367817824,0.200086,-0.261799,5.17779e-06,-1.5,3.94113e+12,0,0,3,0.983843,-0.0980782,0,0,0,0,0.0616561,0.0178605
1510,-3.2124e-12,0,-1.5611e-06,-3.27827e-12,0,-3.40903e-12,-1.06634e-13,0,0,-3.07635,-0.109629,0.155731,0.984946,-0.0977587,0.0611028,0.0177002,0,0.923646,-0.109629,-1367817872,-353988274,-1367817872,-353988274,-723738912,-1367817872,-1367817824,-1367817824,0.199536,-0.261799,4.99353e-06,-1.5,3.94113e+12,0,0,3,0.984946,-0.0977587,0,0,0,0,0.0611028,0.0177002
1520,-3.2124e-12,0,-1.5611e-06,-3.27827e-12,0,0,-1.06634e-13,0,0,-3.07635,-0.109629,0.155731,0.986039,-0.0974419,0.0605546,0.0175414,0,0.923646,-0.109629,-1367817872,-353988274,-1367817872,-353988274,-723738912,-1367817872,-1367817824,-1367817824,0.198991,-0.261799,4.81597e-06,-1.5,3.94113e+12,0,0,3,0.986039,-0.0974419,0,0,0,0,0.0605546,0.0175414
1530,-3.2124e-12,0,-1.5611e-06,-3.27827e-12,0,-3.40903e-12,-1.06635e-13,0,0,-3.07635,-0.109629,0.155731,0.987123,-0.0971281,0.0600113,0.017384,0,0.923646,-0.109629,-1367817872,-353988274,-1367817872,-353988274,-723738912,-1367817872,-1367817824,-1367817824,0.198451,-0.261799,4.64472e-06,-1.5,3.94113e+12,0,0,3,0.987123,-0.0971281,0,0,0,0,0.0600113,0.017384
1540,-3.2124e-12,0,-1.5611e-06,-3.27827e-12,0,0,-1.06635e-13,0,0,-3.07635,-0.109629,0.155731,0.988137,-0.0968342,0.0595026,0.0172367,0,0.923646,-0.109629,-1367817872,-353988274,-1367817872,-353988274,-723738912,-1367817872,-1367817824,-1367817824,0.197946,-0.261799,4.48857e-06,-1.5,3.94113e+12,0,0,3,0.988137,-0.0968342,0,0,0,0,0.0595026,0.0172367
1550,-3.2124e-12,0,-1.5611e-06,-3.27827e-12,0,-3.40903e-12,-1.06635e-13,0,0,-3.07635,-0.109629,0.155731,0.989202,-0.0965258,0.0589687,0.017082,0,0.923646,-0.109629,-1367817872,-353988274,-1367817872,-353988274,-723738912,-1367817872,-1367817824,-1367817824,0.197415,-0.261799,4.32897e-06,-1.5,3.94113e+12,0,0,3,0.989202,-0.0965258,0,0,0,0,0.0589687,0.017082
1560,-3.2124e-12,0,-1.5611e-06,-3.27827e-12,0,0,-1.06636e-13,0,0,-3.07635,-0.109629,0.155731,0.990257,-0.0962202,0.0584395,0.0169287,0,0.923646,-0.109629,-1367817872,-353988274,-1367817872,-353988274,-723738912,-1367817872,-1367817824,-1367817824,0.196889,-0.261799,4.17492e-06,-1.5,3.94113e+12,0,0,3,0.990257,-0.0962202,0,0,0,0,0.0584395,0.0169287
1570,-3.2124e-12,0,-1.5611e-06,-3.27827e-12,0,-3.40903e-12,-1.06636e-13,0,0,-3.07635,-0.109629,0.155731,0.991245,-0.095934,0.0579442,0.0167852,0,0.923646,-0.109629,-1367817872,-353988274,-1367817872,-353988274,-723738912,-1367817872,-1367817824,-1367817824,0.196397,-0.261799,4.03456e-06,-1.5,3.94113e+12,0,0,3,0.991245,-0.095934,0,0,0,0,0.0579442,0.0167852
1580,-3.2124e-12,0,-1.5611e-06,-3.27827e-12,0,0,-1.06636e-13,0,0,-3.07635,-0.109629,0.155731,0.992339,-0.0956171,0.0573955,0.0166263,0,0.923646,-0.109629,-1367817872,-353988274,-1367817872,-353988274,-723738912,-1367817872,-1367817824,-1367817824,0.195852,-0.261799,3.88317e-06,-1.5,3.94113e+12,0,0,3,0.992339,-0.0956171,0,0,0,0,0.0573955,0.0166263
1590,-3.2124e-12,0,-1.5611e-06,-3.27827e-12,0,-3.40903e-12,-1.06636e-13,0,0,-3.07635,-0.109629,0.155731,0.993139,-0.0953854,0.0569947,0.0165102,0,0.923646,-0.109629,-1367817872,-353988274,-1367817872,-353988274,-723738912,-1367817872,-1367817824,-1367817824,0.195453,-0.261799,3.77556e-06,-1.5,3.94113e+12,0,0,3,0.993139,-0.0953854,0,0,0,0,0.0569947,0.0165102
1600,-3.2124e-12,0,-1.5611e-06,-3.27827e-12,0,0,-1.06637e-13,0,0,-3.07635,-0.109629,0.155731,0.994158,-0.09509,0.0564833,0.016362,0,0.923646,-0.109629,-1367817872,-353988274,-1367817872,-353988274,-723738912,-1367817872,-1367817824,-1367817824,0.194944,-0.261799,3.6412e-06,-1.5,3.94113e+12,0,0,3,0.994158,-0.09509,0,0,0,0,0.0564833,0.016362
1610,-3.2124e-12,0,-1.5611e-06,-3.27827e-12,0,-3.40903e-12,-1.06637e-13,0,0,-3.07635,-0.109629,0.155731,0.995169,-0.0947972,0.0559765,0.0162152,0,0.923646,-0.109629,-1367817872,-353988274,-1367817872,-353988274,-723738912,-1367817872,-1367817824,-1367817824,0.194441,-0.261799,3.51173e-06,-1.5,3.94113e+12,0,0,3,0.995169,-0.0947972,0,0,0,0,0.0559765,0.0162152
1620,-3.2124e-12,0,-1.5611e-06,-3.27827e-12,0,0,-1.06637e-13,0,0,-3.07635,-0.109629,0.155731,0.996171,-0.0945071,0.0554742,0.0160697,0,0.923646,-0.109629,-1367817872,-353988274,-1367817872,-353988274,-723738912,-1367817872,-1367817824,-1367817824,0.193941,-0.261799,3.38685e-06,-1.5,3.94113e+12,0,0,3,0.996171,-0.0945071,0,0,0,0,0.0554742,0.0160697
1630,-3.2124e-12,0,-1.5611e-06,-3.27827e-12,0,-3.40903e-12,-1.06637e-13,0,0,-3.07635,-0.109629,0.155731,0.997108,-0.0942355,0.055004,0.0159335,0,0.923646,-0.109629,-1367817872,-353988274,-1367817872,-353988274,-723738912,-1367817872,-1367817824,-1367817824,0.193474,-0.261799,3.27299e-06,-1.5,3.94113e+12,0,0,3,0.997108,-0.0942355,0,0,0,0,0.055004,0.0159335
1640,-3.2124e-12,0,-1.5611e-06,-3.27827e-12,0,0,-1.06638e-13,0,0,-3.07635,-0.109629,0.155731,0.998092,-0.0939504,0.0545104,0.0157905,0,0.923646,-0.109629,-1367817872,-353988274,-1367817872,-353988274,-723738912,-1367817872,-1367817824,-1367817824,0.192984,-0.261799,3.15652e-06,-1.5,3.94113e+12,0,0,3,0.998092,-0.0939504,0,0,0,0,0.0545104,0.0157905
1650,-3.2124e-12,0,-1.5611e-06,-3.27827e-12,0,-3.40903e-12,-1.06638e-13,0,0,-3.07635,-0.109629,0.155731,0.999068,-0.0936679,0.0540214,0.0156488,0,0.923646,-0.109629,-1367817872,-353988274,-1367817872,-353988274,-723738912,-1367817872,-1367817824,-1367817824,0.192497,-0.261799,3.04428e-06,-1.5,3.94113e+12,0,0,3,0.999068,-0.0936679,0,0,0,0,0.0540214,0.0156488
1660,-3.2124e-12,0,-1.5611e-06,-3.27827e-12,0,0,-1.06638e-13,0,0,-3.07635,-0.109629,0.155731,1.00003,-0.0933879,0.0535367,0.0155084,0,0.923646,-0.109629,-1367817872,-353988274,-1367817872,-353988274,-723738912,-1367817872,-1367817824,-1367817824,0.192016,-0.261799,2.93595e-06,-1.5,3.94113e+12,0,0,3,1.00003,-0.0933879,0,0,0,0,0.0535367,0.0155084
1670,-3.2124e-12,0,-1.5611e-06,-3.27827e-12,0,-3.40903e-12,-1.06638e-13,0,0,-3.07635,-0.109629,0.155731,1.00094,-0.0931257,0.0530829,0.015377,0,0.923646,-0.109629,-1367817872,-353988274,-1367817872,-353988274,-723738912,-1367817872,-1367817824,-1367817824,0.191564,-0.261799,2.83725e-06,-1.5,3.94113e+12,0,0,3,1.00094,-0.0931257,0,0,0,0,0.0530829,0.015377
1680,-3.2124e-12,0,-1.5611e-06,-3.27827e-12,0,0,-1.06639e-13,0,0,-3.07635,-0.109629,0.155731,1.00189,-0.0928506,0.0526065,0.015239,0,0.923646,-0.109629,-1367817872,-353988274,-1367817872,-353988274,-723738912,-1367817872,-1367817824,-1367817824,0.191091,-0.261799,2.73628e-06,-1.5,3.94113e+12,0,0,3,1.00189,-0.0928506,0,0,0,0,0.0526065,0.015239
1690,-3.2124e-12,0,-1.5611e-06,-3.27827e-12,0,-3.40903e-12,-1.06639e-13,0,0,-3.07635,-0.109629,0.155731,1.00283,-0.0925779,0.0521345,0.0151023,0,0.923646,-0.109629,-1367817872,-353988274,-1367817872,-353988274,-723738912,-1367817872,-1367817824,-1367817824,0.190622,-0.261799,2.63898e-06,-1.5,3.94113e+12,0,0,3,1.00283,-0.0925779,0,0,0,0,0.0521345,0.0151023
1700,-3.2124e-12,0,-1.5611e-06,-3.27827e-12,0,0,-1.06639e-13,0,0,-3.07635,-0.109629,0.155731,1.00376,-0.0923077,0.0516666,0.0149667,0,0.923646,-0.109629,-1367817872,-353988274,-1367817872,-353988274,-723738912,-1367817872,-1367817824,-1367817824,0.190157,-0.261799,2.54507e-06,-1.5,3.94113e+12,0,0,3,1.00376,-0.0923077,0,0,0,0,0.0516666,0.0149667
1710,-3.2124e-12,0,-1.5611e-06,-3.27827e-12,0,-3.40903e-12,-1.0664e-13,0,0,-3.07635,-0.109629,0.155731,1.00448,-0.0920991,0.0513059,0.0148622,0,0.923646,-0.109629,-1367817872,-353988274,-1367817872,-353988274,-723738912,-1367817872,-1367817824,-1367817824,0.189798,-0.261799,2.47454e-06,-1.5,3.94113e+12,0,0,3,1.00448,-0.0920991,0,0,0,0,0.0513059,0.0148622
1720,-3.2124e-12,0,-1.5611e-06,-3.27827e-12,0,0,-1.0664e-13,0,0,-3.07635,-0.109629,0.155731,1.0054,-0.0918332,0.0508456,0.0147289,0,0.923646,-0.109629,-1367817872,-353988274,-1367817872,-353988274,-723738912,-1367817872,-1367817824,-1367817824,0.18934,-0.261799,2.38655e-06,-1.5,3.94113e+12,0,0,3,1.0054,-0.0918332,0,0,0,0,0.0508456,0.0147289
1730,-3.2124e-12,0,-1.5611e-06,-3.27827e-12,0,-3.40903e-12,-1.0664e-13,0,0,-3.07635,-0.109629,0.155731,1.00626,-0.0915842,0.0504146,0.0146041,0,0.923646,-0.109629,-1367817872,-353988274,-1367817872,-353988274,-723738912,-1367817872,-1367817824,-1367817824,0.188912,-0.261799,2.30632e-06,-1.5,3.94113e+12,0,0,3,1.00626,-0.0915842,0,0,0,0,0.0504146,0.0146041
1740,-3.2124e-12,0,-1.5611e-06,-3.27827e-12,0,0,-1.0664e-13,0,0,-3.07635,-0.109629,0.155731,1.00716,-0.0913229,0.0499623,0.014473,0,0.923646,-0.109629,-1367817872,-353988274,-1367817872,-353988274,-723738912,-1367817872,-1367817824,-1367817824,0.188462,-0.261799,2.22431e-06,-1.5,3.94113e+12,0,0,3,1.00716,-0.0913229,0,0,0,0,0.0499623,0.014473
1750,-3.2124e-12,0,-1.5611e-06,-3.27827e-12,0,-3.40903e-12,-1.06641e-13,0,0,-3.07635,-0.109629,0.155731,1.00801,-0.0910782,0.0495388,0.0143503,0,0.923646,-0.109629,-1367817872,-353988274,-1367817872,-353988274,-723738912,-1367817872,-1367817824,-1367817824,0.188041,-0.261799,2.14953e-06,-1.5,3.94113e+12,0,0,3,1.00801,-0.0910782,0,0,0,0,0.0495388,0.0143503
1760,-3.2124e-12,0,-1.5611e-06,-3.27827e-12,0,0,-1.06641e-13,0,0,-3.07635,-0.109629,0.155731,1.00889,-0.0908215,0.0490942,0.0142216,0,0.923646,-0.109629,-1367817872,-353988274,-1367817872,-353988274,-723738912,-1367817872,-1367817824,-1367817824,0.1876,-0.261799,2.07304e-06,-1.5,3.94113e+12,0,0,3,1.00889,-0.0908215,0,0,0,0,0.0490942,0.0142216
1770,-3.2124e-12,0,-1.5611e-06,-3.27827e-12,0,-3.40903e-12,-1.06641e-13,0,0,-3.07635,-0.109629,0.155731,1.00977,-0.090567,0.0486537,0.014094,0,0.923646,-0.109629,-1367817872,-353988274,-1367817872,-353988274,-723738912,-1367817872,-1367817824,-1367817824,0.187162,-0.261799,1.99932e-06,-1.5,3.94113e+12,0,0,3,1.00977,-0.090567,0,0,0,0,0.0486537,0.014094
1780,-3.2124e-12,0,-1.5611e-06,-3.27827e-12,0,0,-1.06641e-13,0,0,-3.07635,-0.109629,0.155731,1.01059,-0.0903288,0.0482413,0.0139745,0,0.923646,-0.109629,-1367817872,-353988274,-1367817872,-353988274,-723738912,-1367817872,-1367817824,-1367817824,0.186752,-0.261799,1.93211e-06,-1.5,3.94113e+12,0,0,3,1.01059,-0.0903288,0,0,0,0,0.0482413,0.0139745
1790,-3.2124e-12,0,-1.5611e-06,-3.27827e-12,0,-3.40903e-12,-1.06642e-13,0,0,-3.07635,-0.109629,0.155731,1.01146,-0.0900787,0.0478085,0.0138491,0,0.923646,-0.109629,-1367817872,-353988274,-1367817872,-353988274,-723738912,-1367817872,-1367817824,-1367817824,0.186321,-0.261799,1.86341e-06,-1.5,3.94113e+12,0,0,3,1.01146,-0.0900787,0,0,0,0,0.0478085,0.0138491
1800,-3.2124e-12,0,-1.5611e-06,-3.27827e-12,0,0,-1.06642e-13,0,0,-3.07635,-0.109629,0.155731,1.01264,-0.0897356,0.047213,0.0136766,0,0.923646,-0.109629,-1367817872,-353988274,-1367817872,-353988274,-723738912,-1367817872,-1367817824,-1367817824,0.185731,-0.261799,1.77152e-06,-1.5,3.94113e+12,0,0,3,1.01264,-0.0897356,0,0,0,0,0.047213,0.0136766
1810,-3.2124e-12,0,-1.5611e-06,-3.27827e-12,0,-3.40903e-12,-1.06642e-13,0,0,-3.07635,-0.109629,0.155731,1.01567,-0.088859,0.0456614,0.0132271,0,0.923646,-0.109629,-1367817872,-353988274,-1367817872,-353988274,-723738912,-1367817872,-1367817824,-1367817824,0.184233,-0.261799,1.54151e-06,-1.5,3.94113e+12,0,0,3,1.01567,-0.088859,0,0,0,0,0.0456614,0.0132271
1820,-3.2124e-12,0,-1.5611e-06,-3.27827e-12,0,0,-1.06643e-13,0,0,-3.07635,-0.109629,0.155731,1.0163,-0.0886747,0.0453425,0.0131348,0,0.923646,-0.109629,-1367817872,-353988274,-1367817872,-353988274,-723738912,-1367817872,-1367817824,-1367817824,0.183916,-0.261799,1.49879e-06,-1.5,3.94113e+12,0,0,3,1.0163,-0.0886747,0,0,0,0,0.0453425,0.0131348
1830,-3.2124e-12,0,-1.5611e-06,-3.27827e-12,0,-3.40903e-12,-1.06643e-13,0,0,-3.07635,-0.109629,0.155731,1.01698,-0.0884786,0.0450034,0.0130365,0,0.923646,-0.109629,-1367817872,-353988274,-1367817872,-353988274,-723738912,-1367817872,-1367817824,-1367817824,0.183578,-0.261799,1.45432e-06,-1.5,3.94113e+12,0,0,3,1.01698,-0.0884786,0,0,0,0,0.0450034,0.0130365
1840,-3.21242e-12,0,0,-3.27827e-12,0,0,-1.06643e-13,0,0,-3.07635,-0.109629,0.155731,1.01779,-0.0882453,0.0445996,0.0129196,0,0.923646,-0.109629,-1367817872,-353988274,-1367817872,-353988274,-723738912,-1367817872,-1367817824,-1367817824,0.183177,-0.261799,1.40261e-06,-1.5,3.94113e+12,0,0,3,1.01779,-0.0882453,0,0,0,0,0.0445996,0.0129196
1850,-3.2124e-12,0,-1.5611e-06,-3.27827e-12,0,-3.40903e-12,-1.06643e-13,0,0,-3.07635,-0.109629,0.155731,1.01854,-0.0880269,0.0442216,0.0128101,0,0.923646,-0.109629,-1367817872,-353988274,-1367817872,-353988274,-723738912,-1367817872,-1367817824,-1367817824,0.182801,-0.261799,1.35546e-06,-1.5,3.94113e+12,0,0,3,1.01854,-0.0880269,0,0,0,0,0.0442216,0.0128101
1860,-3.2124e-12,0,-1.5611e-06,-3.27827e-12,0,0,-1.06644e-13,0,0,-3.07635,-0.109629,0.155731,1.01933,-0.0877977,0.0438248,0.0126951,0,0.923646,-0.109629,-1367817872,-353988274,-1367817872,-353988274,-723738912,-1367817872,-1367817824,-1367817824,0.182407,-0.261799,1.30722e-06,-1.5,3.94113e+12,0,0,3,1.01933,-0.0877977,0,0,0,0,0.0438248,0.0126951
1870,-3.2124e-12,0,-1.5611e-06,-3.27827e-12,0,-3.40903e-12,-1.06644e-13,0,0,-3.07635,-0.109629,0.155731,1.02012,-0.0875706,0.0434316,0.0125812,0,0.923646,-0.109629,-1367817872,-353988274,-1367817872,-353988274,-723738912,-1367817872,-1367817824,-1367817824,0.182016,-0.261799,1.26074e-06,-1.5,3.94113e+12,0,0,3,1.02012,-0.0875706,0,0,0,0,0.0434316,0.0125812
