timestamp,A_x,A_y,A_z,P,Q,R,Phi,Theta,Psi,poseX,poseY,poseZ,state_X,state_Y,state_Z,state_VzB,state_Bx,state_By,state_Bz,p1_x,p1_y,p2_x,p2_y,p3_x,p3_y,p4_x,p4_y,roll,pitch,yaw,alt,targetHeading,highLevelState,lowLevelState,gateNumber,filtered_x,filtered_y,x_OT,y_OT,vx_OT,vy_OTfiltered_vx,filtered_vy
10,0,0,0,0,0,0,0,0,0,0,0,0,0,0,0,0,0,0,0,0,0,0,0,0,0,0,0,0,-0.261799,0.00779127,-1.5,3.94113e+12,0,0,3,0,0,0,0,0,0,0,0
20,0,0,0,0,0,0,0,0,0,0,0,0,0,0,0,0,0,0,0,0,0,0,0,0,0,0,0,0,-0.261799,0.00752934,-1.5,3.94113e+12,0,0,3,0,0,0,0,0,0,0,0
30,-3.72118e-12,1.75659e-38,-1.58485e-06,-3.85292e-12,1.75647e-38,-3.40903e-12,-1.13703e-13,0,0,0,0,0,0,0,0,0,0,0,0,0,0,0,0,0,0,0,0,0,-0.261799,0.00171557,-1.5,3.94113e+12,0,0,3,0,0,0,0,0,0,0,0
40,-3.72118e-12,1.75659e-38,-1.58485e-06,-3.85292e-12,1.75647e-38,0,-1.13703e-13,0,0,0,0,0,0,0,0,0,0,0,0,0,0,0,0,0,0,0,0,0,-0.261799,0.00166805,-1.5,3.94113e+12,0,0,3,0,0,0,0,0,0,0,0
50,-3.72118e-12,1.75659e-38,-1.58485e-06,-3.85292e-12,1.75647e-38,-3.40903e-12,-1.13704e-13,0,0,0,0,0,0,0,0,0,0,0,0,0,0,0,0,0,0,0,0,0,-0.261799,0.00159884,-1.5,3.94113e+12,0,0,3,0,0,0,0,0,0,0,0
60,-3.72118e-12,1.75659e-38,-1.58485e-06,-3.85292e-12,1.75647e-38,0,-1.13704e-13,0,0,0,0,0,0,0,0,0,0,0,0,0,0,0,0,0,0,0,0,0,-0.261799,0.0015325,-1.5,3.94113e+12,0,0,3,0,0,0,0,0,0,0,0
70,-3.72118e-12,1.75659e-38,-1.58485e-06,-3.85292e-12,1.75647e-38,-3.40903e-12,-1.13705e-13,0,0,0,0,0,0,0,0,0,0,0,0,0,0,0,0,0,0,0,0,0,-0.261799,0.00146898,-1.5,3.94113e+12,0,0,3,0,0,0,0,0,0,0,0
80,-3.72118e-12,1.75659e-38,-1.58485e-06,-3.85292e-12,1.75647e-38,0,-1.13705e-13,0,0,0,0,0,0,0,0,0,0,0,0,0,0,0,0,0,0,0,0,0,-0.261799,0.00141386,-1.5,3.94113e+12,0,0,3,0,0,0,0,0,0,0,0
90,-3.72118e-12,1.75659e-38,-1.58485e-06,-3.85292e-12,1.75647e-38,-3.40903e-12,-1.13706e-13,0,0,0,0,0,0,0,0,0,0,0,0,0,0,0,0,0,0,0,0,0,-0.261799,0.00129971,-1.5,3.94113e+12,0,0,3,0,0,0,0,0,0,0,0
100,-3.72118e-12,1.75659e-38,-1.58485e-06,-3.85292e-12,1.75647e-38,0,-1.13706e-13,0,0,-3.31998,-0.277655,-0.278621,0,0,0,0,0,0.0274875,-0.277654,-1368604256,1235384750,-1368604256,1235384750,-2030979040,-1368604256,-1368604208,-1368604208,0,-0.261799,0.00114627,-1.5,3.94113e+12,0,0,3,0,0,0,0,0,0,0,0
110,-3.72118e-12,1.75659e-38,-1.58485e-06,-3.85292e-12,1.75647e-38,-3.40903e-12,-1.13707e-13,0,0,-3.35091,-0.227498,-0.309777,0,0,0,0,0,0.000416517,-0.227498,-1368604256,1235384750,-1368604256,1235384750,-2030979040,-1368604256,-1368604208,-1368604208,0,-0.261799,0.00109425,-1.5,3.94113e+12,0,0,3,0,0,0,0,0,0,0,0
120,-3.72118e-12,1.75659e-38,-1.58485e-06,-3.85292e-12,1.75647e-38,0,-1.13708e-13,0,0,-3.34985,-0.220116,-0.33388,0,0,0,0,0,0.00293946,-0.220116,-1368604256,1235384750,-1368604256,1235384750,-2030979040,-1368604256,-1368604208,-1368604208,0,-0.261799,0.0010489,-1.5,3.94113e+12,0,0,3,0,0,0,0,0,0,0,0
130,-3.72118e-12,1.75659e-38,-1.58485e-06,-3.85292e-12,1.75647e-38,-3.40903e-12,-1.13708e-13,0,0,-3.35213,-0.227005,-0.326025,0,0,0,0,0,-0.00090456,-0.227005,-1368604256,1235384750,-1368604256,1235384750,-2030979040,-1368604256,-1368604208,-1368604208,0,-0.261799,0.000978634,-1.5,3.94113e+12,0,0,3,0,0,0,0,0,0,0,0
140,-3.72118e-12,1.75659e-38,-1.58485e-06,-3.85292e-12,1.75647e-38,0,-1.13709e-13,0,0,-3.35213,-0.227005,-0.326025,0,0,0,0,0,-0.00090456,-0.227005,-1368604256,1235384750,-1368604256,1235384750,-2030979040,-1368604256,-1368604208,-1368604208,0,-0.261799,0.000939956,-1.5,3.94113e+12,0,0,3,0,0,0,0,0,0,0,0
150,-3.72118e-12,1.75659e-38,-1.58485e-06,-3.85292e-12,1.75647e-38,-3.40903e-12,-1.13709e-13,0,0,-3.35213,-0.227005,-0.326025,0,0,0,0,0,-0.00090456,-0.227005,-1368604256,1235384750,-1368604256,1235384750,-2030979040,-1368604256,-1368604208,-1368604208,0,-0.261799,0.000900993,-1.5,3.94113e+12,0,0,3,0,0,0,0,0,0,0,0
160,-3.72118e-12,1.75659e-38,-1.58485e-06,-3.85292e-12,1.75647e-38,0,-1.1371e-13,0,0,-3.35213,-0.227005,-0.326025,0,0,0,0,0,-0.00090456,-0.227005,-1368604256,1235384750,-1368604256,1235384750,-2030979040,-1368604256,-1368604208,-1368604208,0,-0.261799,0.000868955,-1.5,3.94113e+12,0,0,3,0,0,0,0,0,0,0,0
170,-3.72118e-12,1.75659e-38,-1.58485e-06,-3.85292e-12,1.75647e-38,-3.40903e-12,-1.1371e-13,0,0,-3.35213,-0.227005,-0.326025,0,0,0,0,0,-0.00090456,-0.227005,-1368604256,1235384750,-1368604256,1235384750,-2030979040,-1368604256,-1368604208,-1368604208,0,-0.261799,0.000836322,-1.5,3.94113e+12,0,0,3,0,0,0,0,0,0,0,0
180,-3.72118e-12,1.75659e-38,-1.58485e-06,-3.85292e-12,1.75647e-38,0,-1.13711e-13,0,0,-3.33991,-0.234001,-0.337644,0,0,0,0,0,0.0120373,-0.234001,-1368604256,1235384750,-1368604256,1235384750,-2030979040,-1368604256,-1368604208,-1368604208,0.261799,-0.261799,0.000776932,-1.5,3.94113e+12,0,0,3,0.014719,-0.237072,0,0,0,0,0.0744923,-0.0853164
190,-3.72118e-12,1.75659e-38,-1.58485e-06,-3.85292e-12,1.75647e-38,-3.40903e-12,-1.13711e-13,0,0,-3.35905,-0.252295,-0.375474,0,0,0,0,0,-0.0133424,-0.252295,-1368604256,1235384750,-1368604256,1235384750,-2030979040,-1368604256,-1368604208,-1368604208,0.261799,-0.261799,0.000744727,-1.5,3.94113e+12,0,0,3,-0.0113814,-0.245779,0,0,0,0,-0.0753731,-0.135069
200,-3.72118e-12,1.75659e-38,-1.58485e-06,-3.85292e-12,1.75647e-38,0,-1.13712e-13,0,0,-3.36193,-0.261541,-0.355804,0,0,0,0,0,-0.0182924,-0.261541,-1368604256,1235384750,-1368604256,1235384750,-2030979040,-1368604256,-1368604208,-1368604208,0.261799,-0.261799,0.000712442,-1.5,3.94113e+12,0,0,3,-0.0174851,-0.260483,0,0,0,0,-0.0963425,-0.190408
210,-3.72118e-12,1.75659e-38,-1.58485e-06,-3.85292e-12,1.75647e-38,-3.40903e-12,-1.13712e-13,0,0,-3.36193,-0.261541,-0.355804,0,0,0,0,0,-0.0182924,-0.261541,-1368604256,1235384750,-1368604256,1235384750,-2030979040,-1368604256,-1368604208,-1368604208,0.261799,-0.261799,0.000681511,-1.5,3.94113e+12,0,0,3,-0.0196046,-0.264672,0,0,0,0,-0.0963425,-0.190408
220,-3.72118e-12,1.75659e-38,-1.58485e-06,-3.85292e-12,1.75647e-38,0,-1.13713e-13,0,0,-3.3826,-0.298546,-0.333207,0,0,0,0,0,-0.0486875,-0.298546,-1368604256,1235384750,-1368604256,1235384750,-2030979040,-1368604256,-1368604208,-1368604208,0.261799,-0.261799,0.000651922,-1.5,3.94113e+12,0,0,3,-0.0238357,-0.272357,0,0,0,0,-0.104591,-0.204065
230,-3.72118e-12,1.75659e-38,-1.58485e-06,-3.85292e-12,1.75647e-38,-3.40903e-12,-1.13719e-13,0,0,-3.40145,-0.348149,-0.2871,0,0,0,0,0,-0.0790973,-0.348149,-1368604256,1235384750,-1368604256,1235384750,-2030979040,-1368604256,-1368604208,-1368604208,0.261799,-0.261799,0.000622408,-1.5,3.94113e+12,0,0,3,-0.0261817,-0.276909,0,0,0,0,-0.10684,-0.209376
240,-3.72118e-12,1.75659e-38,-1.58485e-06,-3.85292e-12,1.75647e-38,0,-1.13714e-13,0,0,-3.40145,-0.348149,-0.2871,0,0,0,0,0,-0.0790973,-0.348149,-1368604256,1235384750,-1368604256,1235384750,-2030979040,-1368604256,-1368604208,-1368604208,0.261799,-0.261799,0.000596584,-1.5,3.94113e+12,0,0,3,-0.0284253,-0.281306,0,0,0,0,-0.10684,-0.209376
250,-3.72118e-12,1.75659e-38,-1.58485e-06,-3.85292e-12,1.75647e-38,-3.40903e-12,-1.1372e-13,0,0,-3.41046,-0.405838,-0.269067,0,0,0,0,0,-0.0994892,-0.405838,-1368604256,1235384750,-1368604256,1235384750,-2030979040,-1368604256,-1368604208,-1368604208,0.261799,-0.261799,0.000569483,-1.5,3.94113e+12,0,0,3,-0.0683082,-0.328356,0,0,0,0,-0.231392,-0.350001
260,-3.72118e-12,1.75659e-38,-1.58485e-06,-3.85292e-12,1.75647e-38,0,-1.13714e-13,0,0,-3.35182,-0.420485,-0.271166,0,0,0,0,0,-0.0343428,-0.420485,-1368604256,1235384750,-1368604256,1235384750,-2030979040,-1368604256,-1368604208,-1368604208,0.261799,-0.261799,0.00054368,-1.5,3.94113e+12,0,0,3,-0.0341813,-0.38803,0,0,0,0,-0.110662,-0.551139
270,-3.72118e-12,1.75659e-38,-1.58485e-06,-3.85292e-12,1.75647e-38,-3.40903e-12,-1.13719e-13,0,0,-3.35182,-0.420485,-0.271166,0,0,0,0,0,-0.0343428,-0.420485,-1368604256,1235384750,-1368604256,1235384750,-2030979040,-1368604256,-1368604208,-1368604208,0.261799,-0.261799,0.000520076,-1.5,3.94113e+12,0,0,3,-0.0366159,-0.400155,0,0,0,0,-0.110662,-0.551139
280,-3.72118e-12,1.75659e-38,-1.58485e-06,-3.85292e-12,1.75647e-38,0,-1.13715e-13,0,0,-3.30982,-0.417567,-0.267901,0,0,0,0,0,0.0146494,-0.417567,-1368604256,1235384750,-1368604256,1235384750,-2030979040,-1368604256,-1368604208,-1368604208,0.261799,-0.261799,0.000496475,-1.5,3.94113e+12,0,0,3,-0.0390072,-0.41223,0,0,0,0,-0.109273,-0.545021
290,-3.72118e-12,1.75659e-38,-1.58485e-06,-3.85292e-12,1.75647e-38,-3.40903e-12,-1.13716e-13,0,0,-3.42611,-0.392314,-0.235537,0,0,0,0,0,-0.115228,-0.392314,-1368604256,1235384750,-1368604256,1235384750,-2030979040,-1368604256,-1368604208,-1368604208,0.261799,-0.261799,0.000473981,-1.5,3.94113e+12,0,0,3,-0.0420842,-0.423203,0,0,0,0,-0.110968,-0.539125
300,-3.72118e-12,1.75659e-38,-1.58485e-06,-3.85292e-12,1.75647e-38,0,-1.13715e-13,0,0,-3.42611,-0.392314,-0.235537,0,0,0,0,0,-0.115228,-0.392314,-1368604256,1235384750,-1368604256,1235384750,-2030979040,-1368604256,-1368604208,-1368604208,0.261799,-0.261799,0.000453402,-1.5,3.94113e+12,0,0,3,-0.0445255,-0.435064,0,0,0,0,-0.110968,-0.539125
310,-3.72118e-12,1.75659e-38,-1.58485e-06,-3.85292e-12,1.75647e-38,-3.40903e-12,-1.13717e-13,0,0,-3.33013,-0.370479,-0.275615,0,0,0,0,0,-0.000538349,-0.370479,-1368604256,1235384750,-1368604256,1235384750,-2030979040,-1368604256,-1368604208,-1368604208,0.261799,-0.261799,0.000432806,-1.5,3.94113e+12,0,0,3,-0.0466596,-0.416044,0,0,0,0,-0.110618,-0.449626
320,-3.72118e-12,1.75659e-38,-1.58485e-06,-3.85292e-12,1.75647e-38,0,-1.13718e-13,0,0,-3.34848,-0.365451,-0.24458,0,0,0,0,0,-0.0208688,-0.365451,-1368604256,1235384750,-1368604256,1235384750,-2030979040,-1368604256,-1368604208,-1368604208,0.261799,-0.261799,0.000409737,-1.5,3.94113e+12,0,0,3,-0.0463234,-0.398353,0,0,0,0,-0.0988926,-0.377256
330,-3.72118e-12,1.75659e-38,-1.58485e-06,-3.85292e-12,1.75647e-38,-3.40903e-12,-1.13716e-13,0,0,-3.34848,-0.365451,-0.24458,0,0,0,0,0,-0.0208688,-0.365451,-1368604256,1235384750,-1368604256,1235384750,-2030979040,-1368604256,-1368604208,-1368604208,0.261799,-0.261799,0.00039435,-1.5,3.94113e+12,0,0,3,-0.0482024,-0.405521,0,0,0,0,-0.0988926,-0.377256
340,-3.72118e-12,1.75659e-38,-1.58485e-06,-3.85292e-12,1.75647e-38,0,-1.13726e-13,0,0,-3.31735,-0.347229,-0.259618,0,0,0,0,0,0.0183115,-0.347229,-1368604256,1235384750,-1368604256,1235384750,-2030979040,-1368604256,-1368604208,-1368604208,0.261799,-0.261799,0.000373331,-1.5,3.94113e+12,0,0,3,-0.0253764,-0.405371,0,0,0,0,-0.0470643,-0.347382
350,-3.72118e-12,1.75659e-38,-1.58485e-06,-3.85292e-12,1.75647e-38,-3.40903e-12,-1.1372e-13,0,0,-3.31735,-0.347229,-0.259618,0,0,0,0,0,0.0183115,-0.347229,-1368604256,1235384750,-1368604256,1235384750,-2030979040,-1368604256,-1368604208,-1368604208,0.261799,-0.261799,0.000355637,-1.5,3.94113e+12,0,0,3,-0.0265059,-0.413708,0,0,0,0,-0.0470643,-0.347382
360,-3.72118e-12,1.75659e-38,-1.58485e-06,-3.85292e-12,1.75647e-38,0,-1.13727e-13,0,0,-3.37533,-0.314822,-0.239851,0,0,0,0,0,-0.0430913,-0.314822,-1368604256,1235384750,-1368604256,1235384750,-2030979040,-1368604256,-1368604208,-1368604208,0.261799,-0.261799,0.000337449,-1.5,3.94113e+12,0,0,3,-0.0429142,-0.418911,0,0,0,0,-0.0732768,-0.342535
370,-3.72118e-12,1.75659e-38,-1.58485e-06,-3.85292e-12,1.75647e-38,-3.40903e-12,-1.13726e-13,0,0,-3.37533,-0.314822,-0.239851,0,0,0,0,0,-0.0430913,-0.314822,-1368604256,1235384750,-1368604256,1235384750,-2030979040,-1368604256,-1368604208,-1368604208,0.261799,-0.261799,0.000323461,-1.5,3.94113e+12,0,0,3,-0.044453,-0.426104,0,0,0,0,-0.0732768,-0.342535
380,-3.72118e-12,1.75659e-38,-1.58485e-06,-3.85292e-12,1.75647e-38,0,-1.13728e-13,0,0,-3.33162,-0.294185,-0.255724,0,0,0,0,0,0.0111065,-0.294185,-1368604256,1235384750,-1368604256,1235384750,-2030979040,-1368604256,-1368604208,-1368604208,0.261799,-0.261799,0.000305606,-1.5,3.94113e+12,0,0,3,-0.0320346,-0.421906,0,0,0,0,-0.0475206,-0.318966
390,-3.72118e-12,1.75659e-38,-1.58485e-06,-3.85292e-12,1.75647e-38,-3.40903e-12,-1.13725e-13,0,0,-3.39867,-0.287953,-0.217929,0,0,0,0,0,-0.0654511,-0.287953,-1368604256,1235384750,-1368604256,1235384750,-2030979040,-1368604256,-1368604208,-1368604208,0.261799,-0.261799,0.00029052,-1.5,3.94113e+12,0,0,3,-0.0493775,-0.389769,0,0,0,0,-0.0728645,-0.239112
400,-3.72118e-12,1.75659e-38,-1.58485e-06,-3.85292e-12,1.75647e-38,0,-1.1373e-13,0,0,-3.31525,-0.265667,-0.25776,0,0,0,0,0,0.0350757,-0.265667,-1368604256,1235384750,-1368604256,1235384750,-2030979040,-1368604256,-1368604208,-1368604208,0.261799,-0.261799,0.000276236,-1.5,3.94113e+12,0,0,3,-0.0358674,-0.376722,0,0,0,0,-0.0508673,-0.213353
410,-3.72118e-12,1.75659e-38,-1.58485e-06,-3.85292e-12,1.75647e-38,-3.40903e-12,-1.13728e-13,0,0,-3.31525,-0.265667,-0.25776,0,0,0,0,0,0.0350757,-0.265667,-1368604256,1235384750,-1368604256,1235384750,-2030979040,-1368604256,-1368604208,-1368604208,0.261799,-0.261799,0.000264775,-1.5,3.94113e+12,0,0,3,-0.0369356,-0.381202,0,0,0,0,-0.0508673,-0.213353
420,-3.72118e-12,1.75659e-38,-1.58485e-06,-3.85292e-12,1.75647e-38,0,-1.13725e-13,0,0,-3.37349,-0.274178,-0.23797,0,0,0,0,0,-0.0338974,-0.274178,-1368604256,1235384750,-1368604256,1235384750,-2030979040,-1368604256,-1368604208,-1368604208,0.261799,-0.261799,0.000252747,-1.5,3.94113e+12,0,0,3,-0.0328219,-0.346711,0,0,0,0,-0.0419191,-0.155783
430,-3.72118e-12,1.75659e-38,-1.58485e-06,-3.85292e-12,1.75647e-38,-3.40903e-12,-1.13721e-13,0,0,-3.34803,-0.273086,-0.244309,0,0,0,0,0,-0.00420094,-0.273086,-1368604256,1235384750,-1368604256,1235384750,-2030979040,-1368604256,-1368604208,-1368604208,0.261799,-0.261799,0.000241305,-1.5,3.94113e+12,0,0,3,-0.0344499,-0.339062,0,0,0,0,-0.0395392,-0.136103
440,-3.72118e-12,1.75659e-38,-1.58485e-06,-3.85292e-12,1.75647e-38,0,-1.13729e-13,0,0,-3.34803,-0.273086,-0.244309,0,0,0,0,0,-0.00420094,-0.273086,-1368604256,1235384750,-1368604256,1235384750,-2030979040,-1368604256,-1368604208,-1368604208,0.261799,-0.261799,0.000232243,-1.5,3.94113e+12,0,0,3,-0.0352011,-0.341648,0,0,0,0,-0.0395392,-0.136103
450,-3.72118e-12,1.75659e-38,-1.58485e-06,-3.85292e-12,1.75647e-38,-3.40903e-12,-1.1373e-13,0,0,-3.38058,-0.293162,-0.211073,0,0,0,0,0,-0.045413,-0.293162,-1368604256,1235384750,-1368604256,1235384750,-2030979040,-1368604256,-1368604208,-1368604208,0.261799,-0.261799,0.000219865,-1.5,3.94113e+12,0,0,3,-0.0374345,-0.313232,0,0,0,0,-0.0452586,-0.0849627
460,-3.72118e-12,1.75659e-38,-1.58485e-06,-3.85292e-12,1.75647e-38,0,-1.13724e-13,0,0,-3.32548,-0.310262,-0.229496,0,0,0,0,0,0.0154033,-0.310262,-1368604256,1235384750,-1368604256,1235384750,-2030979040,-1368604256,-1368604208,-1368604208,0.261799,-0.261799,0.000207713,-1.5,3.94113e+12,0,0,3,-0.0343858,-0.313165,0,0,0,0,-0.0378689,-0.0766215
470,-3.72118e-12,1.75659e-38,-1.58485e-06,-3.85292e-12,1.75647e-38,-3.40903e-12,-1.13722e-13,0,0,-3.32306,-0.313771,-0.224149,0,0,0,0,0,0.0175872,-0.313771,-1368604256,1235384750,-1368604256,1235384750,-2030979040,-1368604256,-1368604208,-1368604208,0.261799,-0.261799,0.000197909,-1.5,3.94113e+12,0,0,3,-0.00275771,-0.314833,0,0,0,0,0.0140146,-0.0832071
480,-3.72118e-12,1.75659e-38,-1.58485e-06,-3.85292e-12,1.75647e-38,0,-1.13722e-13,0,0,-3.32306,-0.313771,-0.224149,0,0,0,0,0,0.0175872,-0.313771,-1368604256,1235384750,-1368604256,1235384750,-2030979040,-1368604256,-1368604208,-1368604208,0.261799,-0.261799,0.000190087,-1.5,3.94113e+12,0,0,3,-0.00247742,-0.316497,0,0,0,0,0.0140146,-0.0832071
490,-3.72118e-12,1.75659e-38,-1.58485e-06,-3.85292e-12,1.75647e-38,-3.40903e-12,-1.13723e-13,0,0,-3.32212,-0.333081,-0.205207,0,0,0,0,0,0.015286,-0.333081,-1368604256,1235384750,-1368604256,1235384750,-2030979040,-1368604256,-1368604208,-1368604208,0.261799,-0.261799,0.000179221,-1.5,3.94113e+12,0,0,3,-0.00231514,-0.326581,0,0,0,0,0.0118766,-0.0953825
500,-3.72118e-12,1.75659e-38,-1.58485e-06,-3.85292e-12,1.75647e-38,0,-1.13731e-13,0,0,-3.32212,-0.333081,-0.205207,0,0,0,0,0,0.015286,-0.333081,-1368604256,1235384750,-1368604256,1235384750,-2030979040,-1368604256,-1368604208,-1368604208,0.261799,-0.261799,0.000170021,-1.5,3.94113e+12,0,0,3,0.013143,-0.326,0,0,0,0,0.0330046,-0.089542
510,-3.72118e-12,1.75659e-38,-1.58485e-06,-3.85292e-12,1.75647e-38,-3.40903e-12,-1.13731e-13,0,0,-3.29782,-0.379222,-0.189834,0,0,0,0,0,0.0352638,-0.379222,-1368604256,1235384750,-1368604256,1235384750,-2030979040,-1368604256,-1368604208,-1368604208,0.261799,-0.261799,0.000161662,-1.5,3.94113e+12,0,0,3,0.0202772,-0.335828,0,0,0,0,0.0410093,-0.103422
520,-3.72118e-12,1.75659e-38,-1.58485e-06,-3.85292e-12,1.75647e-38,0,-1.13723e-13,0,0,-3.29782,-0.379222,-0.189834,0,0,0,0,0,0.0352638,-0.379222,-1368604256,1235384750,-1368604256,1235384750,-2030979040,-1368604256,-1368604208,-1368604208,0.261799,-0.261799,0.000154954,-1.5,3.94113e+12,0,0,3,0.0211384,-0.338,0,0,0,0,0.0410093,-0.103422
530,-3.72118e-12,1.75659e-38,-1.58485e-06,-3.85292e-12,1.75647e-38,-3.40903e-12,-1.13732e-13,0,0,-3.31514,-0.36435,-0.162609,0,0,0,0,0,0.017863,-0.36435,-1368604256,1235384750,-1368604256,1235384750,-2030979040,-1368604256,-1368604208,-1368604208,0.261799,-0.261799,0.000146705,-1.5,3.94113e+12,0,0,3,0.0195791,-0.343932,0,0,0,0,0.0394292,-0.108649
540,-3.72118e-12,1.75659e-38,-1.58485e-06,-3.85292e-12,1.75647e-38,0,-1.13732e-13,0,0,-3.27554,-0.320311,-0.150312,0,0,0,0,0,0.07143,-0.320311,-1368604256,1235384750,-1368604256,1235384750,-2030979040,-1368604256,-1368604208,-1368604208,0.261799,-0.261799,0.00014007,-1.5,3.94113e+12,0,0,3,0.0219583,-0.347511,0,0,0,0,0.0450528,-0.110466
550,-3.72118e-12,1.75659e-38,-1.58485e-06,-3.85292e-12,1.75647e-38,-3.40903e-12,-1.13733e-13,0,0,-3.27554,-0.320311,-0.150312,0,0,0,0,0,0.07143,-0.320311,-1368604256,1235384750,-1368604256,1235384750,-2030979040,-1368604256,-1368604208,-1368604208,0.261799,-0.261799,0.000135915,-1.5,3.94113e+12,0,0,3,0.0226341,-0.349168,0,0,0,0,0.0450528,-0.110466
560,-3.72118e-12,1.75659e-38,-1.58485e-06,-3.85292e-12,1.75647e-38,0,-1.13733e-13,0,0,-3.3099,-0.31833,-0.122693,0,0,0,0,0,0.0320165,-0.31833,-1368604256,1235384750,-1368604256,1235384750,-2030979040,-1368604256,-1368604208,-1368604208,0.261799,-0.261799,0.000128403,-1.5,3.94113e+12,0,0,3,0.02275,-0.3408,0,0,0,0,0.04121,-0.0910247
570,-3.72118e-12,1.75659e-38,-1.58485e-06,-3.85292e-12,1.75647e-38,-3.40903e-12,-1.13734e-13,0,0,-3.26163,-0.309326,-0.136591,0,0,0,0,0,0.0894766,-0.309326,-1368604256,1235384750,-1368604256,1235384750,-2030979040,-1368604256,-1368604208,-1368604208,0.261799,-0.261799,0.000121054,-1.5,3.94113e+12,0,0,3,0.0285727,-0.325326,0,0,0,0,0.0503516,-0.0441478
580,-3.72118e-12,1.75659e-38,-1.58485e-06,-3.85292e-12,1.75647e-38,0,-1.13734e-13,0,0,-3.25719,-0.310522,-0.140351,0,0,0,0,0,0.0943987,-0.310522,-1368604256,1235384750,-1368604256,1235384750,-2030979040,-1368604256,-1368604208,-1368604208,0.261799,-0.261799,0.000115104,-1.5,3.94113e+12,0,0,3,0.0367448,-0.322036,0,0,0,0,0.0691196,-0.0290617
590,-3.72118e-12,1.75659e-38,-1.58485e-06,-3.85292e-12,1.75647e-38,-3.40903e-12,-1.13735e-13,0,0,-3.25719,-0.310522,-0.140351,0,0,0,0,0,0.0943987,-0.310522,-1368604256,1235384750,-1368604256,1235384750,-2030979040,-1368604256,-1368604208,-1368604208,0.261799,-0.261799,0.000110555,-1.5,3.94113e+12,0,0,3,0.0381271,-0.322618,0,0,0,0,0.0691196,-0.0290617
600,-3.72118e-12,1.75659e-38,-1.58485e-06,-3.85292e-12,1.75647e-38,0,-1.13736e-13,0,0,-3.27792,-0.310583,-0.112022,0,0,0,0,0,0.0703902,-0.310583,-1368604256,1235384750,-1368604256,1235384750,-2030979040,-1368604256,-1368604208,-1368604208,0.261799,-0.261799,0.000104235,-1.5,3.94113e+12,0,0,3,0.0568655,-0.312167,0,0,0,0,0.110613,0.00271368
610,-3.72118e-12,1.75659e-38,-1.58485e-06,-3.85292e-12,1.75647e-38,-3.40903e-12,-1.13736e-13,0,0,-3.31342,-0.315364,-0.106504,0,0,0,0,0,0.0284615,-0.315364,-1368604256,1235384750,-1368604256,1235384750,-2030979040,-1368604256,-1368604208,-1368604208,0.261799,-0.261799,9.86792e-05,-1.5,3.94113e+12,0,0,3,0.049964,-0.308619,0,0,0,0,0.0995882,0.043111
620,-3.72118e-12,1.75659e-38,-1.58485e-06,-3.85292e-12,1.75647e-38,0,-1.13737e-13,0,0,-3.29441,-0.322314,-0.101494,0,0,0,0,0,0.0492408,-0.322314,-1368604256,1235384750,-1368604256,1235384750,-2030979040,-1368604256,-1368604208,-1368604208,0.261799,-0.261799,9.30615e-05,-1.5,3.94113e+12,0,0,3,0.0530873,-0.310058,0,0,0,0,0.0990204,0.0401388
630,-3.72118e-12,1.75659e-38,-1.58485e-06,-3.85292e-12,1.75647e-38,-3.40903e-12,-1.13737e-13,0,0,-3.29441,-0.322314,-0.101494,0,0,0,0,0,0.0492408,-0.322314,-1368604256,1235384750,-1368604256,1235384750,-2030979040,-1368604256,-1368604208,-1368604208,0.261799,-0.261799,8.9204e-05,-1.5,3.94113e+12,0,0,3,0.0551667,-0.309215,0,0,0,0,0.0990204,0.0401388
640,-3.72118e-12,1.75659e-38,-1.58485e-06,-3.85292e-12,1.75647e-38,0,-1.13738e-13,0,0,-3.28092,-0.312001,-0.10319,0,0,0,0,0,0.0666666,-0.312001,-1368604256,1235384750,-1368604256,1235384750,-2030979040,-1368604256,-1368604208,-1368604208,0.261799,-0.261799,8.48055e-05,-1.5,3.94113e+12,0,0,3,0.0649188,-0.308273,0,0,0,0,0.109929,0.0453074
650,-3.72118e-12,1.75659e-38,-1.58485e-06,-3.85292e-12,1.75647e-38,-3.40903e-12,-1.13738e-13,0,0,-3.27953,-0.312222,-0.104658,0,0,0,0,0,0.068234,-0.312222,-1368604256,1235384750,-1368604256,1235384750,-2030979040,-1368604256,-1368604208,-1368604208,0.261799,-0.261799,8.01185e-05,-1.5,3.94113e+12,0,0,3,0.0721708,-0.304247,0,0,0,0,0.121147,0.0562751
660,-3.72118e-12,1.75659e-38,-1.58485e-06,-3.85292e-12,1.75647e-38,0,-1.13739e-13,0,0,-3.26578,-0.315211,-0.110335,0,0,0,0,0,0.0836215,-0.315211,-1368604256,1235384750,-1368604256,1235384750,-2030979040,-1368604256,-1368604208,-1368604208,0.261799,-0.261799,7.64923e-05,-1.5,3.94113e+12,0,0,3,0.0732456,-0.29779,0,0,0,0,0.110686,0.0754328
670,-3.72118e-12,1.75659e-38,-1.58485e-06,-3.85292e-12,1.75647e-38,-3.40903e-12,-1.13739e-13,0,0,-3.26578,-0.315211,-0.110335,0,0,0,0,0,0.0836215,-0.315211,-1368604256,1235384750,-1368604256,1235384750,-2030979040,-1368604256,-1368604208,-1368604208,0.261799,-0.261799,7.39207e-05,-1.5,3.94113e+12,0,0,3,0.0751273,-0.296508,0,0,0,0,0.110686,0.0754328
680,-3.72118e-12,1.75659e-38,-1.58485e-06,-3.85292e-12,1.75647e-38,0,-1.1374e-13,0,0,-3.27632,-0.314467,-0.0985774,0,0,0,0,0,0.0715604,-0.314467,-1368604256,1235384750,-1368604256,1235384750,-2030979040,-1368604256,-1368604208,-1368604208,0.261799,-0.261799,6.65504e-05,-1.5,3.94113e+12,0,0,3,0.0751197,-0.308876,0,0,0,0,0.105032,0.0276855
690,-3.72118e-12,1.75659e-38,-1.58485e-06,-3.85292e-12,1.75647e-38,-3.40903e-12,-1.1374e-13,0,0,-3.27632,-0.314467,-0.0985774,0,0,0,0,0,0.0715604,-0.314467,-1368604256,1235384750,-1368604256,1235384750,-2030979040,-1368604256,-1368604208,-1368604208,0.261799,-0.261799,6.40511e-05,-1.5,3.94113e+12,0,0,3,0.0771154,-0.30835,0,0,0,0,0.105032,0.0276855
700,-3.72118e-12,1.75659e-38,-1.58485e-06,-3.85292e-12,1.75647e-38,0,-1.13741e-13,0,0,-3.27637,-0.327634,-0.101217,0,0,0,0,0,0.0691714,-0.327634,-1368604256,1235384750,-1368604256,1235384750,-2030979040,-1368604256,-1368604208,-1368604208,0.261799,-0.261799,6.05111e-05,-1.5,3.94113e+12,0,0,3,0.0784646,-0.315292,0,0,0,0,0.106751,-0.00137464
710,-3.72118e-12,1.75659e-38,-1.58485e-06,-3.85292e-12,1.75647e-38,-3.40903e-12,-1.13741e-13,0,0,-3.27953,-0.313073,-0.0903274,0,0,0,0,0,0.0680928,-0.313073,-1368604256,1235384750,-1368604256,1235384750,-2030979040,-1368604256,-1368604208,-1368604208,0.261799,-0.261799,5.69286e-05,-1.5,3.94113e+12,0,0,3,0.0754558,-0.314333,0,0,0,0,0.0962231,0.000272754
720,-3.72118e-12,1.75659e-38,-1.58485e-06,-3.85292e-12,1.75647e-38,0,-1.13742e-13,0,0,-3.31831,-0.324531,-0.0692769,0,0,0,0,0,0.0211906,-0.324531,-1368604256,1235384750,-1368604256,1235384750,-2030979040,-1368604256,-1368604208,-1368604208,0.261799,-0.261799,5.38943e-05,-1.5,3.94113e+12,0,0,3,0.0778426,-0.316901,0,0,0,0,0.096302,-0.00484122
730,-3.72118e-12,1.75659e-38,-1.58485e-06,-3.85292e-12,1.75647e-38,-3.40903e-12,-1.13743e-13,0,0,-3.30037,-0.319913,-0.078162,0,0,0,0,0,0.0427656,-0.319913,-1368604256,1235384750,-1368604256,1235384750,-2030979040,-1368604256,-1368604208,-1368604208,0.261799,-0.261799,5.11406e-05,-1.5,3.94113e+12,0,0,3,0.0777482,-0.320066,0,0,0,0,0.0913587,-0.0134904
740,-3.72118e-12,1.75659e-38,-1.58485e-06,-3.85292e-12,1.75647e-38,0,-1.13743e-13,0,0,-3.30037,-0.319913,-0.078162,0,0,0,0,0,0.0427656,-0.319913,-1368604256,1235384750,-1368604256,1235384750,-2030979040,-1368604256,-1368604208,-1368604208,0.261799,-0.261799,4.90187e-05,-1.5,3.94113e+12,0,0,3,0.0796668,-0.32035,0,0,0,0,0.0913587,-0.0134904
750,-3.72118e-12,1.75659e-38,-1.58485e-06,-3.85292e-12,1.75647e-38,-3.40903e-12,-1.13744e-13,0,0,-3.30037,-0.319913,-0.078162,0,0,0,0,0,0.0427656,-0.319913,-1368604256,1235384750,-1368604256,1235384750,-2030979040,-1368604256,-1368604208,-1368604208,0.261799,-0.261799,4.63129e-05,-1.5,3.94113e+12,0,0,3,0.0810423,-0.324054,0,0,0,0,0.0917453,-0.0290554
760,-3.72118e-12,1.75659e-38,-1.58485e-06,-3.85292e-12,1.75647e-38,0,-1.13744e-13,0,0,-3.30214,-0.316588,-0.0908636,0,0,0,0,0,0.0413022,-0.316588,-1368604256,1235384750,-1368604256,1235384750,-2030979040,-1368604256,-1368604208,-1368604208,0.261799,-0.261799,4.35709e-05,-1.5,3.94113e+12,0,0,3,0.0813715,-0.323825,0,0,0,0,0.0841128,-0.0270398
770,-3.72118e-12,1.75659e-38,-1.58485e-06,-3.85292e-12,1.75647e-38,-3.40903e-12,-1.13745e-13,0,0,-3.29578,-0.318314,-0.0940435,0,0,0,0,0,0.0483546,-0.318314,-1368604256,1235384750,-1368604256,1235384750,-2030979040,-1368604256,-1368604208,-1368604208,0.261799,-0.261799,4.10771e-05,-1.5,3.94113e+12,0,0,3,0.0814596,-0.322754,0,0,0,0,0.0829546,-0.0202149
780,-3.72118e-12,1.75659e-38,-1.58485e-06,-3.85292e-12,1.75647e-38,0,-1.13745e-13,0,0,-3.28601,-0.313783,-0.0848131,0,0,0,0,0,0.060468,-0.313783,-1368604256,1235384750,-1368604256,1235384750,-2030979040,-1368604256,-1368604208,-1368604208,0.261799,-0.261799,3.90575e-05,-1.5,3.94113e+12,0,0,3,0.0628877,-0.318969,0,0,0,0,0.0552345,-0.00865526
790,-3.72118e-12,1.75659e-38,-1.58485e-06,-3.85292e-12,1.75647e-38,-3.40903e-12,-1.13746e-13,0,0,-3.28601,-0.313783,-0.0848131,0,0,0,0,0,0.060468,-0.313783,-1368604256,1235384750,-1368604256,1235384750,-2030979040,-1368604256,-1368604208,-1368604208,0.261799,-0.261799,3.75138e-05,-1.5,3.94113e+12,0,0,3,0.0639924,-0.319143,0,0,0,0,0.0552345,-0.00865526
800,-3.72118e-12,1.75659e-38,-1.58485e-06,-3.85292e-12,1.75647e-38,0,-1.13746e-13,0,0,-3.28601,-0.313783,-0.0848131,0,0,0,0,0,0.060468,-0.313783,-1368604256,1235384750,-1368604256,1235384750,-2030979040,-1368604256,-1368604208,-1368604208,0.261799,-0.261799,3.58835e-05,-1.5,3.94113e+12,0,0,3,0.0652076,-0.319333,0,0,0,0,0.0552345,-0.00865526
810,-3.72118e-12,1.75659e-38,-1.58485e-06,-3.85292e-12,1.75647e-38,-3.40903e-12,-1.13747e-13,0,0,-3.28601,-0.313783,-0.0848131,0,0,0,0,0,0.060468,-0.313783,-1368604256,1235384750,-1368604256,1235384750,-2030979040,-1368604256,-1368604208,-1368604208,0.261799,-0.261799,3.42534e-05,-1.5,3.94113e+12,0,0,3,0.066478,-0.319532,0,0,0,0,0.0552345,-0.00865526
820,-3.72118e-12,1.75659e-38,-1.58485e-06,-3.85292e-12,1.75647e-38,0,-1.13747e-13,0,0,-3.28601,-0.313783,-0.0848131,0,0,0,0,0,0.060468,-0.313783,-1368604256,1235384750,-1368604256,1235384750,-2030979040,-1368604256,-1368604208,-1368604208,0.261799,-0.261799,3.28322e-05,-1.5,3.94113e+12,0,0,3,0.067638,-0.319714,0,0,0,0,0.0552345,-0.00865526
830,-3.72118e-12,1.75659e-38,-1.58485e-06,-3.85292e-12,1.75647e-38,-3.40903e-12,-1.13748e-13,0,0,-3.24838,-0.321707,-0.102426,0,0,0,0,0,0.102607,-0.321707,-1368604256,1235384750,-1368604256,1235384750,-2030979040,-1368604256,-1368604208,-1368604208,0.261799,-0.261799,3.10199e-05,-1.5,3.94113e+12,0,0,3,0.0969059,-0.321122,0,0,0,0,0.0883792,-0.0111394
840,-3.72118e-12,1.75659e-38,-1.58485e-06,-3.85292e-12,1.75647e-38,0,-1.13749e-13,0,0,-3.27861,-0.310716,-0.0882359,0,0,0,0,0,0.0695672,-0.310716,-1368604256,1235384750,-1368604256,1235384750,-2030979040,-1368604256,-1368604208,-1368604208,0.261799,-0.261799,2.93055e-05,-1.5,3.94113e+12,0,0,3,0.0711634,-0.318902,0,0,0,0,0.0559299,-0.00523656
850,-3.72118e-12,1.75659e-38,-1.58485e-06,-3.85292e-12,1.75647e-38,-3.40903e-12,-1.13749e-13,0,0,-3.25998,-0.321256,-0.0977235,0,0,0,0,0,0.0892658,-0.321256,-1368604256,1235384750,-1368604256,1235384750,-2030979040,-1368604256,-1368604208,-1368604208,0.261799,-0.261799,2.76372e-05,-1.5,3.94113e+12,0,0,3,0.0895797,-0.319812,0,0,0,0,0.0720862,-0.00646071
860,-3.72118e-12,1.75659e-38,-1.58485e-06,-3.85292e-12,1.75647e-38,0,-1.1375e-13,0,0,-3.25998,-0.321256,-0.0977235,0,0,0,0,0,0.0892658,-0.321256,-1368604256,1235384750,-1368604256,1235384750,-2030979040,-1368604256,-1368604208,-1368604208,0.261799,-0.261799,2.65993e-05,-1.5,3.94113e+12,0,0,3,0.0909494,-0.319935,0,0,0,0,0.0720862,-0.00646071
870,-3.72118e-12,1.75659e-38,-1.58485e-06,-3.85292e-12,1.75647e-38,-3.40903e-12,-1.1375e-13,0,0,-3.28601,-0.313783,-0.0848131,0,0,0,0,0,0.060468,-0.313783,-1368604256,1235384750,-1368604256,1235384750,-2030979040,-1368604256,-1368604208,-1368604208,0.261799,-0.261799,2.52339e-05,-1.5,3.94113e+12,0,0,3,0.0745131,-0.315733,0,0,0,0,0.0519636,0.00278459
880,-3.72118e-12,1.75659e-38,-1.58485e-06,-3.85292e-12,1.75647e-38,0,-1.13751e-13,0,0,-3.29137,-0.322535,-0.0824292,0,0,0,0,0,0.0527132,-0.322535,-1368604256,1235384750,-1368604256,1235384750,-2030979040,-1368604256,-1368604208,-1368604208,0.261799,-0.261799,2.33426e-05,-1.5,3.94113e+12,0,0,3,0.0705452,-0.318264,0,0,0,0,0.0370163,0.000153432
890,-3.72118e-12,1.75659e-38,-1.58485e-06,-3.85292e-12,1.75647e-38,-3.40903e-12,-1.13751e-13,0,0,-3.27155,-0.317044,-0.0917113,0,0,0,0,0,0.0766261,-0.317044,-1368604256,1235384750,-1368604256,1235384750,-2030979040,-1368604256,-1368604208,-1368604208,0.261799,-0.261799,1.79275e-05,-1.5,3.94113e+12,0,0,3,0.0794254,-0.316731,0,0,0,0,0.04119,0.00225117
900,-3.72118e-12,1.75659e-38,-1.58485e-06,-3.85292e-12,1.75647e-38,0,-1.13752e-13,0,0,-3.27953,-0.313073,-0.0903274,0,0,0,0,0,0.0680928,-0.313073,-1368604256,1235384750,-1368604256,1235384750,-2030979040,-1368604256,-1368604208,-1368604208,0.261799,-0.261799,1.46759e-05,-1.5,3.94113e+12,0,0,3,0.0605324,-0.314519,0,0,0,0,-0.00360237,0.00363847
910,-3.72118e-12,1.75659e-38,-1.58485e-06,-3.85292e-12,1.75647e-38,-3.40903e-12,-1.13752e-13,0,0,-3.26638,-0.312268,-0.101392,0,0,0,0,0,0.0834513,-0.312268,-1368604256,1235384750,-1368604256,1235384750,-2030979040,-1368604256,-1368604208,-1368604208,0.261799,-0.261799,5.07959e-06,-1.5,3.94113e+12,0,0,3,0.0695392,-0.312511,0,0,0,0,0.00172784,0.0035867
920,-3.72118e-12,1.75659e-38,-1.58485e-06,-3.85292e-12,1.75647e-38,0,-1.13753e-13,0,0,-3.29778,-0.322885,-0.0863518,0,0,0,0,0,0.0452316,-0.322885,-1368604256,1235384750,-1368604256,1235384750,-2030979040,-1368604256,-1368604208,-1368604208,0.261799,-0.261799,4.55973e-06,-1.5,3.94113e+12,0,0,3,0.0677769,-0.313291,0,0,0,0,0.000904048,0.0015877
930,-3.72118e-12,1.75659e-38,-1.58485e-06,-3.85292e-12,1.75647e-38,-3.40903e-12,-1.13753e-13,0,0,-3.30361,-0.309584,-0.0926721,0,0,0,0,0,0.0408301,-0.309584,-1368604256,1235384750,-1368604256,1235384750,-2030979040,-1368604256,-1368604208,-1368604208,0.261799,-0.261799,2.96736e-06,-1.5,3.94113e+12,0,0,3,0.0518846,-0.313397,0,0,0,0,-0.0119722,0.0013482
940,-3.72118e-12,1.75659e-38,-1.58485e-06,-3.85292e-12,1.75647e-38,0,-1.13754e-13,0,0,-3.30361,-0.309584,-0.0926721,0,0,0,0,0,0.0408301,-0.309584,-1368604256,1235384750,-1368604256,1235384750,-2030979040,-1368604256,-1368604208,-1368604208,0.261799,-0.261799,2.83853e-06,-1.5,3.94113e+12,0,0,3,0.0516212,-0.313368,0,0,0,0,-0.0119722,0.0013482
950,-3.72118e-12,1.75659e-38,-1.58485e-06,-3.85292e-12,1.75647e-38,-3.40903e-12,-1.13754e-13,0,0,-3.29001,-0.307975,-0.0945863,0,0,0,0,0,0.0568557,-0.307975,-1368604256,1235384750,-1368604256,1235384750,-2030979040,-1368604256,-1368604208,-1368604208,0.261799,-0.261799,2.68742e-06,-1.5,3.94113e+12,0,0,3,0.0559418,-0.311113,0,0,0,0,-0.00638529,0.00371303
960,-3.72118e-12,1.75659e-38,-1.58485e-06,-3.85292e-12,1.75647e-38,0,-1.13755e-13,0,0,-3.31702,-0.315763,-0.0815499,0,0,0,0,0,0.0242264,-0.315763,-1368604256,1235384750,-1368604256,1235384750,-2030979040,-1368604256,-1368604208,-1368604208,0.261799,-0.261799,2.54435e-06,-1.5,3.94113e+12,0,0,3,0.0538108,-0.311405,0,0,0,0,-0.00836247,0.00422382
970,-3.72118e-12,1.75659e-38,-1.58485e-06,-3.85292e-12,1.75647e-38,-3.40903e-12,-1.13756e-13,0,0,-3.26351,-0.306853,-0.0978252,0,0,0,0,0,0.0877287,-0.306853,-1368604256,1235384750,-1368604256,1235384750,-2030979040,-1368604256,-1368604208,-1368604208,0.261799,-0.261799,2.40934e-06,-1.5,3.94113e+12,0,0,3,0.0549869,-0.308558,0,0,0,0,-0.00735202,0.00803549
980,-3.72118e-12,1.75659e-38,-1.58485e-06,-3.85292e-12,1.75647e-38,0,-1.13756e-13,0,0,-3.26351,-0.306853,-0.0978252,0,0,0,0,0,0.0877287,-0.306853,-1368604256,1235384750,-1368604256,1235384750,-2030979040,-1368604256,-1368604208,-1368604208,0.261799,-0.261799,2.30474e-06,-1.5,3.94113e+12,0,0,3,0.0548252,-0.308381,0,0,0,0,-0.00735202,0.00803549
990,-3.72118e-12,1.75659e-38,-1.58485e-06,-3.85292e-12,1.75647e-38,-3.40903e-12,-1.13757e-13,0,0,-3.27307,-0.32007,-0.104121,0,0,0,0,0,0.0743313,-0.32007,-1368604256,1235384750,-1368604256,1235384750,-2030979040,-1368604256,-1368604208,-1368604208,0.261799,-0.261799,2.1819e-06,-1.5,3.94113e+12,0,0,3,0.0551458,-0.310446,0,0,0,0,-0.0064992,0.00467371
1000,-3.72118e-12,1.75659e-38,-1.58485e-06,-3.85292e-12,1.75647e-38,0,-1.13757e-13,0,0,-3.37527,-0.32336,-0.000300577,0,0,0,0,0,-0.0445166,-0.32336,-1368604256,1235384750,-1368604256,1235384750,-2030979040,-1368604256,-1368604208,-1368604208,0.261799,-0.261799,2.06145e-06,-1.5,3.94113e+12,0,0,3,0.0545454,-0.315159,0,0,0,0,-0.00874547,0.00111103
1010,-3.72118e-12,1.75659e-38,-1.58485e-06,-3.85292e-12,1.75647e-38,-3.40903e-12,-1.13758e-13,0,0,-3.34624,-0.355418,0.0907081,0,0,0,0,0,-0.0165262,-0.355418,-1368604256,1235384750,-1368604256,1235384750,-2030979040,-1368604256,-1368604208,-1368604208,0.261799,-0.261799,1.97215e-06,-1.5,3.94113e+12,0,0,3,0.0506301,-0.315592,0,0,0,0,-0.0117709,0.00128473
1020,-3.72118e-12,1.75659e-38,-1.58485e-06,-3.85292e-12,1.75647e-38,0,-1.13758e-13,0,0,-3.34624,-0.355418,0.0907081,0,0,0,0,0,-0.0165262,-0.355418,-1368604256,1235384750,-1368604256,1235384750,-2030979040,-1368604256,-1368604208,-1368604208,0.261799,-0.261799,1.91361e-06,-1.5,3.94113e+12,0,0,3,0.0504535,-0.315573,0,0,0,0,-0.0117709,0.00128473
1030,-3.72118e-12,1.75659e-38,-1.58485e-06,-3.85292e-12,1.75647e-38,-3.40903e-12,-1.13759e-13,0,0,-3.25233,-0.397977,0.184247,0,0,0,0,0,0.0844944,-0.397977,-1368604256,1235384750,-1368604256,1235384750,-2030979040,-1368604256,-1368604208,-1368604208,0.261799,-0.261799,1.80032e-06,-1.5,3.94113e+12,0,0,3,0.0551488,-0.315695,0,0,0,0,-0.00490698,0.00151485
1040,-3.72118e-12,1.75659e-38,-1.58485e-06,-3.85292e-12,1.75647e-38,0,-1.13759e-13,0,0,-3.18723,-0.443136,0.288882,0,0,0,0,0,0.151563,-0.443136,-1368604256,1235384750,-1368604256,1235384750,-2030979040,-1368604256,-1368604208,-1368604208,0.261799,-0.261799,1.69727e-06,-1.5,3.94113e+12,0,0,3,0.0581472,-0.317071,0,0,0,0,-0.00223452,0.000418581
1050,-3.72118e-12,1.75659e-38,-1.58485e-06,-3.85292e-12,1.75647e-38,-3.40903e-12,-1.1376e-13,0,0,-3.18723,-0.443136,0.288882,0,0,0,0,0,0.151563,-0.443136,-1368604256,1235384750,-1368604256,1235384750,-2030979040,-1368604256,-1368604208,-1368604208,0.261799,-0.261799,1.61349e-06,-1.5,3.94113e+12,0,0,3,0.0580914,-0.317061,0,0,0,0,-0.00223452,0.000418581
1060,-3.72118e-12,1.75659e-38,-1.58485e-06,-3.85292e-12,1.75647e-38,0,-1.1376e-13,0,0,-3.18723,-0.443136,0.288882,0,0,0,0,0,0.151563,-0.443136,-1368604256,1235384750,-1368604256,1235384750,-2030979040,-1368604256,-1368604208,-1368604208,0.261799,-0.261799,1.54337e-06,-1.5,3.94113e+12,0,0,3,0.0580422,-0.317052,0,0,0,0,-0.00223452,0.000418581
1070,-3.72118e-12,1.75659e-38,-1.58485e-06,-3.85292e-12,1.75647e-38,-3.40903e-12,-1.13761e-13,0,0,-3.18723,-0.443136,0.288882,0,0,0,0,0,0.151563,-0.443136,-1368604256,1235384750,-1368604256,1235384750,-2030979040,-1368604256,-1368604208,-1368604208,0.261799,-0.261799,1.47022e-06,-1.5,3.94113e+12,0,0,3,0.0579886,-0.317042,0,0,0,0,-0.00223452,0.000418581
1080,-3.72118e-12,1.75659e-38,-1.58485e-06,-3.85292e-12,1.75647e-38,0,-1.13762e-13,0,0,-3.18723,-0.443136,0.288882,0,0,0,0,0,0.151563,-0.443136,-1368604256,1235384750,-1368604256,1235384750,-2030979040,-1368604256,-1368604208,-1368604208,0.261799,-0.261799,1.39765e-06,-1.5,3.94113e+12,0,0,3,0.0579327,-0.317031,0,0,0,0,-0.00223452,0.000418581
1090,-3.72118e-12,1.75659e-38,-1.58485e-06,-3.85292e-12,1.75647e-38,-3.40903e-12,-1.13762e-13,0,0,-3.18723,-0.443136,0.288882,0,0,0,0,0,0.151563,-0.443136,-1368604256,1235384750,-1368604256,1235384750,-2030979040,-1368604256,-1368604208,-1368604208,0.261799,-0.261799,1.33691e-06,-1.5,3.94113e+12,0,0,3,0.0578835,-0.317022,0,0,0,0,-0.00223452,0.000418581
1100,-3.72118e-12,1.75659e-38,-1.58485e-06,-3.85292e-12,1.75647e-38,0,-1.13763e-13,0,0,-3.18723,-0.443136,0.288882,0,0,0,0,0,0.151563,-0.443136,-1368604256,1235384750,-1368604256,1235384750,-2030979040,-1368604256,-1368604208,-1368604208,0.261799,-0.261799,1.27886e-06,-1.5,3.94113e+12,0,0,3,0.0578344,-0.317013,0,0,0,0,-0.00223452,0.000418581
1110,-3.72118e-12,1.75659e-38,-1.58485e-06,-3.85292e-12,1.75647e-38,-3.40903e-12,-1.13763e-13,0,0,-3.18723,-0.443136,0.288882,0,0,0,0,0,0.151563,-0.443136,-1368604256,1235384750,-1368604256,1235384750,-2030979040,-1368604256,-1368604208,-1368604208,0.261799,-0.261799,1.21825e-06,-1.5,3.94113e+12,0,0,3,0.0577808,-0.317003,0,0,0,0,-0.00223452,0.000418581
1120,-3.72118e-12,1.75659e-38,-1.58485e-06,-3.85292e-12,1.75647e-38,0,-1.13764e-13,0,0,-3.18723,-0.443136,0.288882,0,0,0,0,0,0.151563,-0.443136,-1368604256,1235384750,-1368604256,1235384750,-2030979040,-1368604256,-1368604208,-1368604208,0.261799,-0.261799,1.16531e-06,-1.5,3.94113e+12,0,0,3,0.0577316,-0.316994,0,0,0,0,-0.00223452,0.000418581
1130,-3.72118e-12,1.75659e-38,-1.58485e-06,-3.85292e-12,1.75647e-38,-3.40903e-12,-1.13764e-13,0,0,-3.18723,-0.443136,0.288882,0,0,0,0,0,0.151563,-0.443136,-1368604256,1235384750,-1368604256,1235384750,-2030979040,-1368604256,-1368604208,-1368604208,0.261799,-0.261799,1.13072e-06,-1.5,3.94113e+12,0,0,3,0.0576981,-0.316987,0,0,0,0,-0.00223452,0.000418581
1140,-3.72118e-12,1.75659e-38,-1.58485e-06,-3.85292e-12,1.75647e-38,0,-1.13765e-13,0,0,-3.18723,-0.443136,0.288882,0,0,0,0,0,0.151563,-0.443136,-1368604256,1235384750,-1368604256,1235384750,-2030979040,-1368604256,-1368604208,-1368604208,0.261799,-0.261799,1.05053e-06,-1.5,3.94113e+12,0,0,3,0.0576176,-0.316972,0,0,0,0,-0.00223452,0.000418581
1150,-3.72118e-12,1.75659e-38,-1.58485e-06,-3.85292e-12,1.75647e-38,-3.40903e-12,-1.13765e-13,0,0,-3.18723,-0.443136,0.288882,0,0,0,0,0,0.151563,-0.443136,-1368604256,1235384750,-1368604256,1235384750,-2030979040,-1368604256,-1368604208,-1368604208,0.261799,-0.261799,1.00074e-06,-1.5,3.94113e+12,0,0,3,0.057564,-0.316962,0,0,0,0,-0.00223452,0.000418581
1160,-3.72118e-12,1.75659e-38,-1.58485e-06,-3.85292e-12,1.75647e-38,0,-1.13766e-13,0,0,-3.18723,-0.443136,0.288882,0,0,0,0,0,0.151563,-0.443136,-1368604256,1235384750,-1368604256,1235384750,-2030979040,-1368604256,-1368604208,-1368604208,0.261799,-0.261799,9.57253e-07,-1.5,3.94113e+12,0,0,3,0.0575148,-0.316953,0,0,0,0,-0.00223452,0.000418581
1170,-3.72118e-12,1.75659e-38,-1.58485e-06,-3.85292e-12,1.75647e-38,-3.40903e-12,-1.13766e-13,0,0,-3.18723,-0.443136,0.288882,0,0,0,0,0,0.151563,-0.443136,-1368604256,1235384750,-1368604256,1235384750,-2030979040,-1368604256,-1368604208,-1368604208,0.261799,-0.261799,9.10053e-07,-1.5,3.94113e+12,0,0,3,0.057459,-0.316943,0,0,0,0,-0.00223452,0.000418581
1180,-3.72118e-12,1.75659e-38,-1.58485e-06,-3.85292e-12,1.75647e-38,0,-1.13767e-13,0,0,-3.18723,-0.443136,0.288882,0,0,0,0,0,0.151563,-0.443136,-1368604256,1235384750,-1368604256,1235384750,-2030979040,-1368604256,-1368604208,-1368604208,0.261799,-0.261799,8.66921e-07,-1.5,3.94113e+12,0,0,3,0.0574054,-0.316932,0,0,0,0,-0.00223452,0.000418581
1190,-3.72118e-12,1.75659e-38,-1.58485e-06,-3.85292e-12,1.75647e-38,-3.40903e-12,-1.13768e-13,0,0,-3.18723,-0.443136,0.288882,0,0,0,0,0,0.151563,-0.443136,-1368604256,1235384750,-1368604256,1235384750,-2030979040,-1368604256,-1368604208,-1368604208,0.261799,-0.261799,8.24126e-07,-1.5,3.94113e+12,0,0,3,0.0573495,-0.316922,0,0,0,0,-0.00223452,0.000418581
1200,-3.72118e-12,1.75659e-38,-1.58485e-06,-3.85292e-12,1.75647e-38,0,-1.13768e-13,0,0,-3.18723,-0.443136,0.288882,0,0,0,0,0,0.151563,-0.443136,-1368604256,1235384750,-1368604256,1235384750,-2030979040,-1368604256,-1368604208,-1368604208,0.261799,-0.261799,7.89933e-07,-1.5,3.94113e+12,0,0,3,0.0573026,-0.316913,0,0,0,0,-0.00223452,0.000418581
1210,-3.72118e-12,1.75659e-38,-1.58485e-06,-3.85292e-12,1.75647e-38,-3.40903e-12,-1.13769e-13,0,0,-3.18723,-0.443136,0.288882,0,0,0,0,0,0.151563,-0.443136,-1368604256,1235384750,-1368604256,1235384750,-2030979040,-1368604256,-1368604208,-1368604208,0.261799,-0.261799,7.50939e-07,-1.5,3.94113e+12,0,0,3,0.0572467,-0.316903,0,0,0,0,-0.00223452,0.000418581
1220,-3.72118e-12,1.75659e-38,-1.58485e-06,-3.85292e-12,1.75647e-38,0,-1.13769e-13,0,0,-3.18723,-0.443136,0.288882,0,0,0,0,0,0.151563,-0.443136,-1368604256,1235384750,-1368604256,1235384750,-2030979040,-1368604256,-1368604208,-1368604208,0.261799,-0.261799,7.13911e-07,-1.5,3.94113e+12,0,0,3,0.0571908,-0.316892,0,0,0,0,-0.00223452,0.000418581
1230,-3.72118e-12,1.75659e-38,-1.58485e-06,-3.85292e-12,1.75647e-38,-3.40903e-12,-1.1377e-13,0,0,-3.18723,-0.443136,0.288882,0,0,0,0,0,0.151563,-0.443136,-1368604256,1235384750,-1368604256,1235384750,-2030979040,-1368604256,-1368604208,-1368604208,0.261799,-0.261799,6.84291e-07,-1.5,3.94113e+12,0,0,3,0.0571439,-0.316884,0,0,0,0,-0.00223452,0.000418581
1240,-3.72118e-12,1.75659e-38,-1.58485e-06,-3.85292e-12,1.75647e-38,0,-1.1377e-13,0,0,-3.18723,-0.443136,0.288882,0.0570881,-0.316873,-0.00223228,0.000418163,0,0.151563,-0.443136,-1368604256,1235384750,-1368604256,1235384750,-2030979040,-1368604256,-1368604208,-1368604208,0.261799,-0.261799,6.5055e-07,-1.5,3.94113e+12,0,0,3,0.0570881,-0.316873,0,0,0,0,-0.00223228,0.000418163
1250,-3.72118e-12,1.75659e-38,-1.58485e-06,-3.85292e-12,1.75647e-38,-3.40903e-12,-1.13771e-13,0,0,-3.18723,-0.443136,0.288882,0.0570503,-0.316866,-0.00221336,0.000414618,0,0.151563,-0.443136,-1368604256,1235384750,-1368604256,1235384750,-2030979040,-1368604256,-1368604208,-1368604208,0.261799,-0.261799,6.28679e-07,-1.5,3.94113e+12,0,0,3,0.0570503,-0.316866,0,0,0,0,-0.00221336,0.000414618
1260,-3.72118e-12,1.75659e-38,-1.58485e-06,-3.85292e-12,1.75647e-38,0,-1.13771e-13,0,0,-3.18723,-0.443136,0.288882,0.057002,-0.316857,-0.0021891,0.000410073,0,0.151563,-0.443136,-1368604256,1235384750,-1368604256,1235384750,-2030979040,-1368604256,-1368604208,-1368604208,0.261799,-0.261799,6.01385e-07,-1.5,3.94113e+12,0,0,3,0.057002,-0.316857,0,0,0,0,-0.0021891,0.000410073
1270,-3.72118e-12,1.75659e-38,-1.58485e-06,-3.85292e-12,1.75647e-38,-3.40903e-12,-1.13772e-13,0,0,-3.18723,-0.443136,0.288882,0.0569499,-0.316847,-0.00216291,0.000405168,0,0.151563,-0.443136,-1368604256,1235384750,-1368604256,1235384750,-2030979040,-1368604256,-1368604208,-1368604208,0.261799,-0.261799,5.72882e-07,-1.5,3.94113e+12,0,0,3,0.0569499,-0.316847,0,0,0,0,-0.00216291,0.000405168
1280,-3.72118e-12,1.75659e-38,-1.58485e-06,-3.85292e-12,1.75647e-38,0,-1.13772e-13,0,0,-3.18723,-0.443136,0.288882,0.0568964,-0.316837,-0.00213596,0.000400119,0,0.151563,-0.443136,-1368604256,1235384750,-1368604256,1235384750,-2030979040,-1368604256,-1368604208,-1368604208,0.261799,-0.261799,5.44603e-07,-1.5,3.94113e+12,0,0,3,0.0568964,-0.316837,0,0,0,0,-0.00213596,0.000400119
1290,-3.72118e-12,1.75659e-38,-1.58485e-06,-3.85292e-12,1.75647e-38,-3.40903e-12,-1.13773e-13,0,0,-3.18723,-0.443136,0.288882,0.0568497,-0.316828,-0.00211254,0.000395731,0,0.151563,-0.443136,-1368604256,1235384750,-1368604256,1235384750,-2030979040,-1368604256,-1368604208,-1368604208,0.261799,-0.261799,5.20935e-07,-1.5,3.94113e+12,0,0,3,0.0568497,-0.316828,0,0,0,0,-0.00211254,0.000395731
1300,-3.72118e-12,1.75659e-38,-1.58485e-06,-3.85292e-12,1.75647e-38,0,-1.13773e-13,0,0,-3.18723,-0.443136,0.288882,0.0568036,-0.31682,-0.00208938,0.000391393,0,0.151563,-0.443136,-1368604256,1235384750,-1368604256,1235384750,-2030979040,-1368604256,-1368604208,-1368604208,0.261799,-0.261799,4.98318e-07,-1.5,3.94113e+12,0,0,3,0.0568036,-0.31682,0,0,0,0,-0.00208938,0.000391393
1310,-3.72118e-12,1.75659e-38,-1.58485e-06,-3.85292e-12,1.75647e-38,-3.40903e-12,-1.13774e-13,0,0,-3.18723,-0.443136,0.288882,0.0567539,-0.31681,-0.00206438,0.000386711,0,0.151563,-0.443136,-1368604256,1235384750,-1368604256,1235384750,-2030979040,-1368604256,-1368604208,-1368604208,0.261799,-0.261799,4.747e-07,-1.5,3.94113e+12,0,0,3,0.0567539,-0.31681,0,0,0,0,-0.00206438,0.000386711
1320,-3.72118e-12,1.75659e-38,-1.58485e-06,-3.85292e-12,1.75647e-38,0,-1.13775e-13,0,0,-3.18723,-0.443136,0.288882,0.0567089,-0.316802,-0.00204174,0.00038247,0,0.151563,-0.443136,-1368604256,1235384750,-1368604256,1235384750,-2030979040,-1368604256,-1368604208,-1368604208,0.261799,-0.261799,4.5407e-07,-1.5,3.94113e+12,0,0,3,0.0567089,-0.316802,0,0,0,0,-0.00204174,0.00038247
1330,-3.72118e-12,1.75659e-38,-1.58485e-06,-3.85292e-12,1.75647e-38,-3.40903e-12,-1.13775e-13,0,0,-3.18723,-0.443136,0.288882,0.0566623,-0.316793,-0.00201834,0.000378087,0,0.151563,-0.443136,-1368604256,1235384750,-1368604256,1235384750,-2030979040,-1368604256,-1368604208,-1368604208,0.261799,-0.261799,4.33465e-07,-1.5,3.94113e+12,0,0,3,0.0566623,-0.316793,0,0,0,0,-0.00201834,0.000378087
1340,-3.72118e-12,1.75659e-38,-1.58485e-06,-3.85292e-12,1.75647e-38,0,-1.13776e-13,0,0,-3.18723,-0.443136,0.288882,0.0566143,-0.316784,-0.00199421,0.000373565,0,0.151563,-0.443136,-1368604256,1235384750,-1368604256,1235384750,-2030979040,-1368604256,-1368604208,-1368604208,0.261799,-0.261799,4.12943e-07,-1.5,3.94113e+12,0,0,3,0.0566143,-0.316784,0,0,0,0,-0.00199421,0.000373565
1350,-3.72118e-12,1.75659e-38,-1.58485e-06,-3.85292e-12,1.75647e-38,-3.40903e-12,-1.13776e-13,0,0,-3.18723,-0.443136,0.288882,0.0565707,-0.316776,-0.00197234,0.00036947,0,0.151563,-0.443136,-1368604256,1235384750,-1368604256,1235384750,-2030979040,-1368604256,-1368604208,-1368604208,0.261799,-0.261799,3.95015e-07,-1.5,3.94113e+12,0,0,3,0.0565707,-0.316776,0,0,0,0,-0.00197234,0.00036947
1360,-3.72118e-12,1.75659e-38,-1.58485e-06,-3.85292e-12,1.75647e-38,0,-1.13777e-13,0,0,-3.18723,-0.443136,0.288882,0.0565413,-0.316771,-0.00195759,0.000366707,0,0.151563,-0.443136,-1368604256,1235384750,-1368604256,1235384750,-2030979040,-1368604256,-1368604208,-1368604208,0.261799,-0.261799,3.83296e-07,-1.5,3.94113e+12,0,0,3,0.0565413,-0.316771,0,0,0,0,-0.00195759,0.000366707
1370,-3.72118e-12,1.75659e-38,-1.58485e-06,-3.85292e-12,1.75647e-38,-3.40903e-12,-1.13777e-13,0,0,-3.18723,-0.443136,0.288882,0.0564947,-0.316762,-0.00193418,0.00036232,0,0.151563,-0.443136,-1368604256,1235384750,-1368604256,1235384750,-2030979040,-1368604256,-1368604208,-1368604208,0.261799,-0.261799,3.6513e-07,-1.5,3.94113e+12,0,0,3,0.0564947,-0.316762,0,0,0,0,-0.00193418,0.00036232
1380,-3.72118e-12,1.75659e-38,-1.58485e-06,-3.85292e-12,1.75647e-38,0,-1.13778e-13,0,0,-3.18723,-0.443136,0.288882,0.0564525,-0.316754,-0.00191297,0.000358348,0,0.151563,-0.443136,-1368604256,1235384750,-1368604256,1235384750,-2030979040,-1368604256,-1368604208,-1368604208,0.261799,-0.261799,3.4998e-07,-1.5,3.94113e+12,0,0,3,0.0564525,-0.316754,0,0,0,0,-0.00191297,0.000358348
1390,-3.72118e-12,1.75659e-38,-1.58485e-06,-3.85292e-12,1.75647e-38,-3.40903e-12,-1.13778e-13,0,0,-3.18723,-0.443136,0.288882,0.0564051,-0.316745,-0.00188914,0.000353884,0,0.151563,-0.443136,-1368604256,1235384750,-1368604256,1235384750,-2030979040,-1368604256,-1368604208,-1368604208,0.261799,-0.261799,3.32723e-07,-1.5,3.94113e+12,0,0,3,0.0564051,-0.316745,0,0,0,0,-0.00188914,0.000353884
1400,-3.72118e-12,1.75659e-38,-1.58485e-06,-3.85292e-12,1.75647e-38,0,-1.13779e-13,0,0,-3.18723,-0.443136,0.288882,0.0563583,-0.316736,-0.00186561,0.000349476,0,0.151563,-0.443136,-1368604256,1235384750,-1368604256,1235384750,-2030979040,-1368604256,-1368604208,-1368604208,0.261799,-0.261799,3.16317e-07,-1.5,3.94113e+12,0,0,3,0.0563583,-0.316736,0,0,0,0,-0.00186561,0.000349476
1410,-3.72118e-12,1.75659e-38,-1.58485e-06,-3.85292e-12,1.75647e-38,-3.40903e-12,-1.13779e-13,0,0,-3.18723,-0.443136,0.288882,0.0563176,-0.316729,-0.00184516,0.000345644,0,0.151563,-0.443136,-1368604256,1235384750,-1368604256,1235384750,-2030979040,-1368604256,-1368604208,-1368604208,0.261799,-0.261799,3.02584e-07,-1.5,3.94113e+12,0,0,3,0.0563176,-0.316729,0,0,0,0,-0.00184516,0.000345644
1420,-3.72118e-12,1.75659e-38,-1.58485e-06,-3.85292e-12,1.75647e-38,0,-1.1378e-13,0,0,-3.18723,-0.443136,0.288882,0.056245,-0.316715,-0.00180838,0.000338756,0,0.151563,-0.443136,-1368604256,1235384750,-1368604256,1235384750,-2030979040,-1368604256,-1368604208,-1368604208,0.261799,-0.261799,2.78715e-07,-1.5,3.94113e+12,0,0,3,0.056245,-0.316715,0,0,0,0,-0.00180838,0.000338756
1430,-3.72118e-12,1.75659e-38,-1.58485e-06,-3.85292e-12,1.75647e-38,-3.40903e-12,-1.13781e-13,0,0,-3.18723,-0.443136,0.288882,0.0561949,-0.316706,-0.00178315,0.000334029,0,0.151563,-0.443136,-1368604256,1235384750,-1368604256,1235384750,-2030979040,-1368604256,-1368604208,-1368604208,0.261799,-0.261799,2.63311e-07,-1.5,3.94113e+12,0,0,3,0.0561949,-0.316706,0,0,0,0,-0.00178315,0.000334029
1440,-3.72118e-12,1.75659e-38,-1.58485e-06,-3.85292e-12,1.75647e-38,0,-1.13781e-13,0,0,-3.18723,-0.443136,0.288882,0.056156,-0.316699,-0.00176359,0.000330366,0,0.151563,-0.443136,-1368604256,1235384750,-1368604256,1235384750,-2030979040,-1368604256,-1368604208,-1368604208,0.261799,-0.261799,2.51867e-07,-1.5,3.94113e+12,0,0,3,0.056156,-0.316699,0,0,0,0,-0.00176359,0.000330366
1450,-3.72118e-12,1.75659e-38,-1.58485e-06,-3.85292e-12,1.75647e-38,-3.40903e-12,-1.13789e-13,0,0,-3.18723,-0.443136,0.288882,0.0561123,-0.31669,-0.00174162,0.000326249,0,0.151563,-0.443136,-1368604256,1235384750,-1368604256,1235384750,-2030979040,-1368604256,-1368604208,-1368604208,0.261799,-0.261799,2.39434e-07,-1.5,3.94113e+12,0,0,3,0.0561123,-0.31669,0,0,0,0,-0.00174162,0.000326249
1460,-3.72118e-12,1.75659e-38,-1.58485e-06,-3.85292e-12,1.75647e-38,0,-1.13789e-13,0,0,-3.18723,-0.443136,0.288882,0.0560811,-0.316684,-0.00172599,0.000323322,0,0.151563,-0.443136,-1368604256,1235384750,-1368604256,1235384750,-2030979040,-1368604256,-1368604208,-1368604208,0.261799,-0.261799,2.31385e-07,-1.5,3.94113e+12,0,0,3,0.0560811,-0.316684,0,0,0,0,-0.00172599,0.000323322
1470,-3.72118e-12,1.75659e-38,-1.58485e-06,-3.85292e-12,1.75647e-38,-3.40903e-12,-1.1379e-13,0,0,-3.18723,-0.443136,0.288882,0.0560553,-0.31668,-0.00171308,0.000320904,0,0.151563,-0.443136,-1368604256,1235384750,-1368604256,1235384750,-2030979040,-1368604256,-1368604208,-1368604208,0.261799,-0.261799,2.24521e-07,-1.5,3.94113e+12,0,0,3,0.0560553,-0.31668,0,0,0,0,-0.00171308,0.000320904
1480,-3.72118e-12,1.75659e-38,-1.58485e-06,-3.85292e-12,1.75647e-38,0,-1.1379e-13,0,0,-3.18723,-0.443136,0.288882,0.0560146,-0.316672,-0.00169259,0.000317065,0,0.151563,-0.443136,-1368604256,1235384750,-1368604256,1235384750,-2030979040,-1368604256,-1368604208,-1368604208,0.261799,-0.261799,2.1388e-07,-1.5,3.94113e+12,0,0,3,0.0560146,-0.316672,0,0,0,0,-0.00169259,0.000317065
1490,-3.72118e-12,1.75659e-38,-1.58485e-06,-3.85292e-12,1.75647e-38,-3.40903e-12,-1.13791e-13,0,0,-3.18723,-0.443136,0.288882,0.0559776,-0.316665,-0.00167403,0.000313588,0,0.151563,-0.443136,-1368604256,1235384750,-1368604256,1235384750,-2030979040,-1368604256,-1368604208,-1368604208,0.261799,-0.261799,2.04585e-07,-1.5,3.94113e+12,0,0,3,0.0559776,-0.316665,0,0,0,0,-0.00167403,0.000313588
1500,-3.72118e-12,1.75659e-38,-1.58485e-06,-3.85292e-12,1.75647e-38,0,-1.13792e-13,0,0,-3.18723,-0.443136,0.288882,0.0559362,-0.316657,-0.00165318,0.000309682,0,0.151563,-0.443136,-1368604256,1235384750,-1368604256,1235384750,-2030979040,-1368604256,-1368604208,-1368604208,0.261799,-0.261799,1.94497e-07,-1.5,3.94113e+12,0,0,3,0.0559362,-0.316657,0,0,0,0,-0.00165318,0.000309682
1510,-3.72118e-12,1.75659e-38,-1.58485e-06,-3.85292e-12,1.75647e-38,-3.40903e-12,-1.13792e-13,0,0,-3.18723,-0.443136,0.288882,0.0559017,-0.316651,-0.00163587,0.00030644,0,0.151563,-0.443136,-1368604256,1235384750,-1368604256,1235384750,-2030979040,-1368604256,-1368604208,-1368604208,0.261799,-0.261799,1.86427e-07,-1.5,3.94113e+12,0,0,3,0.0559017,-0.316651,0,0,0,0,-0.00163587,0.00030644
1520,-3.72118e-12,1.75659e-38,-1.58485e-06,-3.85292e-12,1.75647e-38,0,-1.13793e-13,0,0,-3.18723,-0.443136,0.288882,0.0558644,-0.316644,-0.00161712,0.000302928,0,0.151563,-0.443136,-1368604256,1235384750,-1368604256,1235384750,-2030979040,-1368604256,-1368604208,-1368604208,0.261799,-0.261799,1.77967e-07,-1.5,3.94113e+12,0,0,3,0.0558644,-0.316644,0,0,0,0,-0.00161712,0.000302928
1530,-3.72118e-12,1.75659e-38,-1.58485e-06,-3.85292e-12,1.75647e-38,-3.40903e-12,-1.13793e-13,0,0,-3.18723,-0.443136,0.288882,0.0558212,-0.316636,-0.00159536,0.000298852,0,0.151563,-0.443136,-1368604256,1235384750,-1368604256,1235384750,-2030979040,-1368604256,-1368604208,-1368604208,0.261799,-0.261799,1.68481e-07,-1.5,3.94113e+12,0,0,3,0.0558212,-0.316636,0,0,0,0,-0.00159536,0.000298852
1540,-3.72118e-12,1.75659e-38,-1.58485e-06,-3.85292e-12,1.75647e-38,0,-1.13794e-13,0,0,-3.18723,-0.443136,0.288882,0.0557817,-0.316628,-0.00157549,0.000295129,0,0.151563,-0.443136,-1368604256,1235384750,-1368604256,1235384750,-2030979040,-1368604256,-1368604208,-1368604208,0.261799,-0.261799,1.60174e-07,-1.5,3.94113e+12,0,0,3,0.0557817,-0.316628,0,0,0,0,-0.00157549,0.000295129
1550,-3.72118e-12,1.75659e-38,-1.58485e-06,-3.85292e-12,1.75647e-38,-3.40903e-12,-1.13794e-13,0,0,-3.18723,-0.443136,0.288882,0.0557442,-0.316621,-0.00155665,0.000291599,0,0.151563,-0.443136,-1368604256,1235384750,-1368604256,1235384750,-2030979040,-1368604256,-1368604208,-1368604208,0.261799,-0.261799,1.52582e-07,-1.5,3.94113e+12,0,0,3,0.0557442,-0.316621,0,0,0,0,-0.00155665,0.000291599
1560,-3.72118e-12,1.75659e-38,-1.58485e-06,-3.85292e-12,1.75647e-38,0,-1.13795e-13,0,0,-3.18723,-0.443136,0.288882,0.0557102,-0.316615,-0.00153958,0.000288401,0,0.151563,-0.443136,-1368604256,1235384750,-1368604256,1235384750,-2030979040,-1368604256,-1368604208,-1368604208,0.261799,-0.261799,1.45951e-07,-1.5,3.94113e+12,0,0,3,0.0557102,-0.316615,0,0,0,0,-0.00153958,0.000288401
1570,-3.72118e-12,1.75659e-38,-1.58485e-06,-3.85292e-12,1.75647e-38,-3.40903e-12,-1.13795e-13,0,0,-3.18723,-0.443136,0.288882,0.0556827,-0.31661,-0.00152576,0.000285814,0,0.151563,-0.443136,-1368604256,1235384750,-1368604256,1235384750,-2030979040,-1368604256,-1368604208,-1368604208,0.261799,-0.261799,1.40762e-07,-1.5,3.94113e+12,0,0,3,0.0556827,-0.31661,0,0,0,0,-0.00152576,0.000285814
1580,-3.72118e-12,1.75659e-38,-1.58485e-06,-3.85292e-12,1.75647e-38,0,-1.13796e-13,0,0,-3.18723,-0.443136,0.288882,0.0556449,-0.316603,-0.00150676,0.000282253,0,0.151563,-0.443136,-1368604256,1235384750,-1368604256,1235384750,-2030979040,-1368604256,-1368604208,-1368604208,0.261799,-0.261799,1.33821e-07,-1.5,3.94113e+12,0,0,3,0.0556449,-0.316603,0,0,0,0,-0.00150676,0.000282253
1590,-3.72118e-12,1.75659e-38,-1.58485e-06,-3.85292e-12,1.75647e-38,-3.40903e-12,-1.13796e-13,0,0,-3.18723,-0.443136,0.288882,0.0556135,-0.316597,-0.00149098,0.000279299,0,0.151563,-0.443136,-1368604256,1235384750,-1368604256,1235384750,-2030979040,-1368604256,-1368604208,-1368604208,0.261799,-0.261799,1.28268e-07,-1.5,3.94113e+12,0,0,3,0.0556135,-0.316597,0,0,0,0,-0.00149098,0.000279299
1600,-3.72118e-12,1.75659e-38,-1.58485e-06,-3.85292e-12,1.75647e-38,0,-1.13797e-13,0,0,-3.18723,-0.443136,0.288882,0.0555765,-0.31659,-0.00147241,0.00027582,0,0.151563,-0.443136,-1368604256,1235384750,-1368604256,1235384750,-2030979040,-1368604256,-1368604208,-1368604208,0.261799,-0.261799,1.21944e-07,-1.5,3.94113e+12,0,0,3,0.0555765,-0.31659,0,0,0,0,-0.00147241,0.00027582
1610,-3.72118e-12,1.75659e-38,-1.58485e-06,-3.85292e-12,1.75647e-38,-3.40903e-12,-1.13798e-13,0,0,-3.18723,-0.443136,0.288882,0.05554,-0.316583,-0.00145407,0.000272384,0,0.151563,-0.443136,-1368604256,1235384750,-1368604256,1235384750,-2030979040,-1368604256,-1368604208,-1368604208,0.261799,-0.261799,1.15931e-07,-1.5,3.94113e+12,0,0,3,0.05554,-0.316583,0,0,0,0,-0.00145407,0.000272384
1620,-3.72118e-12,1.75659e-38,-1.58485e-06,-3.85292e-12,1.75647e-38,0,-1.13798e-13,0,0,-3.18723,-0.443136,0.288882,0.0555083,-0.316577,-0.00143813,0.000269398,0,0.151563,-0.443136,-1368604256,1235384750,-1368604256,1235384750,-2030979040,-1368604256,-1368604208,-1368604208,0.261799,-0.261799,1.10898e-07,-1.5,3.94113e+12,0,0,3,0.0555083,-0.316577,0,0,0,0,-0.00143813,0.000269398
1630,-3.72118e-12,1.75659e-38,-1.58485e-06,-3.85292e-12,1.75647e-38,-3.40903e-12,-1.13799e-13,0,0,-3.18723,-0.443136,0.288882,0.0554783,-0.316572,-0.00142307,0.000266578,0,0.151563,-0.443136,-1368604256,1235384750,-1368604256,1235384750,-2030979040,-1368604256,-1368604208,-1368604208,0.261799,-0.261799,1.06297e-07,-1.5,3.94113e+12,0,0,3,0.0554783,-0.316572,0,0,0,0,-0.00142307,0.000266578
1640,-3.72118e-12,1.75659e-38,-1.58485e-06,-3.85292e-12,1.75647e-38,0,-1.13799e-13,0,0,-3.18723,-0.443136,0.288882,0.0554431,-0.316565,-0.00140534,0.000263256,0,0.151563,-0.443136,-1368604256,1235384750,-1368604256,1235384750,-2030979040,-1368604256,-1368604208,-1368604208,0.261799,-0.261799,1.01049e-07,-1.5,3.94113e+12,0,0,3,0.0554431,-0.316565,0,0,0,0,-0.00140534,0.000263256
1650,-3.72118e-12,1.75659e-38,-1.58485e-06,-3.85292e-12,1.75647e-38,-3.40903e-12,-1.138e-13,0,0,-3.18723,-0.443136,0.288882,0.0554124,-0.316559,-0.00138993,0.000260369,0,0.151563,-0.443136,-1368604256,1235384750,-1368604256,1235384750,-2030979040,-1368604256,-1368604208,-1368604208,0.261799,-0.261799,9.66579e-08,-1.5,3.94113e+12,0,0,3,0.0554124,-0.316559,0,0,0,0,-0.00138993,0.000260369
1660,-3.72118e-12,1.75659e-38,-1.58485e-06,-3.85292e-12,1.75647e-38,0,-1.138e-13,0,0,-3.18723,-0.443136,0.288882,0.0553807,-0.316553,-0.001374,0.000257385,0,0.151563,-0.443136,-1368604256,1235384750,-1368604256,1235384750,-2030979040,-1368604256,-1368604208,-1368604208,0.261799,-0.261799,9.22716e-08,-1.5,3.94113e+12,0,0,3,0.0553807,-0.316553,0,0,0,0,-0.001374,0.000257385
1670,-3.72118e-12,1.75659e-38,-1.58485e-06,-3.85292e-12,1.75647e-38,-3.40903e-12,-1.13801e-13,0,0,-3.18723,-0.443136,0.288882,0.0553575,-0.316549,-0.00136236,0.000255204,0,0.151563,-0.443136,-1368604256,1235384750,-1368604256,1235384750,-2030979040,-1368604256,-1368604208,-1368604208,0.261799,-0.261799,8.91718e-08,-1.5,3.94113e+12,0,0,3,0.0553575,-0.316549,0,0,0,0,-0.00136236,0.000255204
1680,-3.72118e-12,1.75659e-38,-1.58485e-06,-3.85292e-12,1.75647e-38,0,-1.13801e-13,0,0,-3.18723,-0.443136,0.288882,0.0553371,-0.316545,-0.00135217,0.000253295,0,0.151563,-0.443136,-1368604256,1235384750,-1368604256,1235384750,-2030979040,-1368604256,-1368604208,-1368604208,0.261799,-0.261799,8.65264e-08,-1.5,3.94113e+12,0,0,3,0.0553371,-0.316545,0,0,0,0,-0.00135217,0.000253295
1690,-3.72118e-12,1.75659e-38,-1.58485e-06,-3.85292e-12,1.75647e-38,-3.40903e-12,-1.13802e-13,0,0,-3.18723,-0.443136,0.288882,0.0553036,-0.316539,-0.00133532,0.00025014,0,0.151563,-0.443136,-1368604256,1235384750,-1368604256,1235384750,-2030979040,-1368604256,-1368604208,-1368604208,0.261799,-0.261799,8.226e-08,-1.5,3.94113e+12,0,0,3,0.0553036,-0.316539,0,0,0,0,-0.00133532,0.00025014
1700,-3.72118e-12,1.75659e-38,-1.58485e-06,-3.85292e-12,1.75647e-38,0,-1.13802e-13,0,0,-3.18723,-0.443136,0.288882,0.0552771,-0.316534,-0.00132201,0.000247646,0,0.151563,-0.443136,-1368604256,1235384750,-1368604256,1235384750,-2030979040,-1368604256,-1368604208,-1368604208,0.261799,-0.261799,7.90088e-08,-1.5,3.94113e+12,0,0,3,0.0552771,-0.316534,0,0,0,0,-0.00132201,0.000247646
1710,-3.72118e-12,1.75659e-38,-1.58485e-06,-3.85292e-12,1.75647e-38,-3.40903e-12,-1.13803e-13,0,0,-3.18723,-0.443136,0.288882,0.0551486,-0.31651,-0.00125484,0.000235064,0,0.151563,-0.443136,-1368604256,1235384750,-1368604256,1235384750,-2030979040,-1368604256,-1368604208,-1368604208,0.261799,-0.261799,6.31348e-08,-1.5,3.94113e+12,0,0,3,0.0551486,-0.31651,0,0,0,0,-0.00125484,0.000235064
