timestamp,A_x,A_y,A_z,P,Q,R,Phi,Theta,Psi,poseX,poseY,poseZ,state_X,state_Y,state_Z,state_VzB,state_Bx,state_By,state_Bz,p1_x,p1_y,p2_x,p2_y,p3_x,p3_y,p4_x,p4_y,roll,pitch,yaw,alt,targetHeading,highLevelState,lowLevelState,gateNumber,filtered_x,filtered_y,x_OT,y_OT,vx_OT,vy_OT,filtered_vx,filtered_vygateArearansac_corr_x,ransac_corr_y,ransac_corr_vx,ransac_corr_vy,detectionTimeStamppTermX,dTermX,pTermY,dTermY,vxcmd,vycmd
5414,0,0,0,0,0,0,0,0,0,0,0,0,0,0,0,0,0,0,0,0,0,0,0,0,0,0,0,-0.0679775,-0.0348889,0,-1.5,0,0,0,0,0,0,0,0,0,0,0,0,1.9603e-19,0,0,0,0,0,0,0,0,0,0,0
5957,-3.19287e-12,9.03514e-38,-1.53782e-06,-3.26761e-12,9.03467e-38,0,0,0,0,0,0,0,0,0,0,0,0,0,0,0,0,0,0,0,0,0,0,0,-0.0348889,0,-1.5,0,0,0,0,0,0,0,0,0,0,0,0,1.9603e-19,0,0,0,0,0,0,0,0,0,0,0
5970,-3.19287e-12,9.03514e-38,-1.53782e-06,-3.26761e-12,9.03467e-38,0,0,0,0,0,0,0,0,0,0,0,0,0,0,0,0,0,0,0,0,0,0,0,-0.0348889,0,-1.5,0,0,0,0,0,0,0,0,0,0,0,0,1.9603e-19,0,0,0,0,0,0,0,0,0,0,0
5987,-3.19287e-12,9.03514e-38,-1.53782e-06,-3.26761e-12,9.03467e-38,0,0,0,0,0,0,0,0,0,0,0,0,0,0,0,0,0,0,0,0,0,0,0,-0.0348889,0,-1.5,0,0,0,0,0,0,0,0,0,0,0,0,1.9603e-19,0,0,0,0,0,0,0,0,0,0,0
6003,-3.19287e-12,9.03514e-38,-1.53782e-06,-3.26761e-12,9.03467e-38,0,0,0,0,0,0,0,0,0,0,0,0,0,0,0,0,0,0,0,0,0,0,0,-0.0348889,0,-1.5,0,0,0,0,0,0,0,0,0,0,0,0,1.9603e-19,0,0,0,0,0,0,0,0,0,0,0
6019,-3.19287e-12,9.03514e-38,-1.53782e-06,-3.26761e-12,9.03467e-38,0,0,0,0,0,0,0,0,0,0,0,0,0,0,0,0,0,0,0,0,0,0,0,-0.0348889,0,-1.5,0,0,0,0,0,0,0,0,0,0,0,0,1.9603e-19,0,0,0,0,0,0,0,0,0,0,0
6034,-3.19287e-12,9.03514e-38,-1.53782e-06,-3.26761e-12,9.03467e-38,0,0,0,0,0,0,0,0,0,0,0,0,0,0,0,0,0,0,0,0,0,0,0,-0.0348889,0,-1.5,0,0,0,0,0,0,0,0,0,0,0,0,1.9603e-19,0,0,0,0,0,0,0,0,0,0,0
6050,-3.19287e-12,9.03514e-38,-1.53782e-06,-3.26761e-12,9.03467e-38,0,0,0,0,0,0,0,0,0,0,0,0,0,0,0,0,0,0,0,0,0,0,0,-0.0348889,0,-1.5,0,0,0,0,0,0,0,0,0,0,0,0,1.9603e-19,0,0,0,0,0,0,0,0,0,0,0
6066,-3.19287e-12,9.03514e-38,-1.53782e-06,-3.26761e-12,9.03467e-38,0,0,0,0,0,0,0,0,0,0,0,0,0,0,0,0,0,0,0,0,0,0,0,-0.0348889,0,-1.5,0,0,0,0,0,0,0,0,0,0,0,0,1.9603e-19,0,0,0,0,0,0,0,0,0,0,0
6082,-3.19287e-12,9.03514e-38,-1.53782e-06,-3.26761e-12,9.03467e-38,0,0,0,0,0,0,0,0,0,0,0,0,0,0,0,0,0,0,0,0,0,0,0,-0.0348889,0,-1.5,0,0,0,0,0,0,0,0,0,0,0,0,1.9603e-19,0,0,0,0,0,0,0,0,0,0,0
6103,-3.19287e-12,9.03514e-38,-1.53782e-06,-3.26761e-12,9.03467e-38,0,0,0,0,0,0,0,0,0,0,0,0,0,0,0,0,0,0,0,0,0,0,0,-0.0348889,0,-1.5,0,0,0,0,0,0,0,0,0,0,0,0,1.9603e-19,0,0,0,0,0,0,0,0,0,0,0
6119,-3.19287e-12,9.03514e-38,-1.53782e-06,-3.26761e-12,9.03467e-38,0,0,0,0,0,0,0,0,0,0,0,0,0,0,0,0,0,0,0,0,0,0,0,-0.0348889,0,-1.5,0,0,0,0,0,0,0,0,0,0,0,0,1.9603e-19,0,0,0,0,0,0,0,0,0,0,0
6137,-3.19287e-12,9.03514e-38,-1.53782e-06,-3.26761e-12,9.03467e-38,0,0,0,0,0,0,0,0,0,0,0,0,0,0,0,0,0,0,0,0,0,0,0,-0.0348889,0,-1.5,0,0,0,0,0,0,0,0,0,0,0,0,1.9603e-19,0,0,0,0,0,0,0,0,0,0,0
6212,-3.19287e-12,9.03514e-38,-1.53782e-06,-3.26761e-12,9.03467e-38,0,0,0,0,0,0,0,0,0,0,0,0,0,0,0,0,0,0,0,0,0,0,0,-0.0348889,0,-1.5,0,0,0,0,0,0,0,0,0,0,0,0,1.9603e-19,0,0,0,0,0,0,0,0,0,0,0
6228,-3.19287e-12,9.03514e-38,-1.53782e-06,-3.26761e-12,9.03467e-38,0,0,0,0,0,0,0,0,0,0,0,0,0,0,0,0,0,0,0,0,0,0,0,-0.0348889,0,-1.5,0,0,0,0,0,0,0,0,0,0,0,0,1.9603e-19,0,0,0,0,0,0,0,0,0,0,0
6245,-3.19287e-12,9.03514e-38,-1.53782e-06,-3.26761e-12,9.03467e-38,0,0,0,0,0,0,0,0,0,0,0,0,0,0,0,0,0,0,0,0,0,0,0,-0.0348889,0,-1.5,0,0,0,0,0,0,0,0,0,0,0,0,1.9603e-19,0,0,0,0,0,0,0,0,0,0,0
6260,-3.19287e-12,9.03514e-38,-1.53782e-06,-3.26761e-12,9.03467e-38,0,0,0,0,0,0,0,0,0,0,0,0,0,0,0,0,0,0,0,0,0,0,0,-0.0348889,0,-1.5,0,0,0,0,0,0,0,0,0,0,0,0,1.9603e-19,0,0,0,0,0,0,0,0,0,0,0
6276,-3.19287e-12,9.03514e-38,-1.53782e-06,-3.26761e-12,9.03467e-38,0,0,0,0,0,0,0,0,0,0,0,0,0,0,0,0,0,0,0,0,0,0,0,-0.0348889,0,-1.5,0,0,0,0,0,0,0,0,0,0,0,0,1.9603e-19,0,0,0,0,0,0,0,0,0,0,0
6292,-3.19287e-12,9.03514e-38,-1.53782e-06,-3.26761e-12,9.03467e-38,0,0,0,0,0,0,0,0,0,0,0,0,0,0,0,0,0,0,0,0,0,0,0,-0.0348889,0,-1.5,0,0,0,0,0,0,0,0,0,0,0,0,1.9603e-19,0,0,0,0,0,0,0,0,0,0,0
6307,-3.19287e-12,9.03514e-38,-1.53782e-06,-3.26761e-12,9.03467e-38,0,0,0,0,0,0,0,0,0,0,0,0,0,0,0,0,0,0,0,0,0,0,0,-0.0348889,0,-1.5,0,0,0,0,0,0,0,0,0,0,0,0,1.9603e-19,0,0,0,0,0,0,0,0,0,0,0
6323,-3.19287e-12,9.03514e-38,-1.53782e-06,-3.26761e-12,9.03467e-38,0,0,0,0,0,0,0,0,0,0,0,0,0,0,0,0,0,0,0,0,0,0,0,-0.0348889,0,-1.5,0,0,0,0,0,0,0,0,0,0,0,0,1.9603e-19,0,0,0,0,0,0,0,0,0,0,0
6338,-3.19287e-12,9.03514e-38,-1.53782e-06,-3.26761e-12,9.03467e-38,0,0,0,0,0,0,0,0,0,0,0,0,0,0,0,0,0,0,0,0,0,0,0,-0.0348889,0,-1.5,0,0,0,0,0,0,0,0,0,0,0,0,1.9603e-19,0,0,0,0,0,0,0,0,0,0,0
6358,-3.19287e-12,9.03514e-38,-1.53782e-06,-3.26761e-12,9.03467e-38,0,0,0,0,0,0,0,0,0,0,0,0,4.4,0,96914573,-1368110944,96914573,-1368110944,-1368083688,-1368083688,-1368083648,96914566,0,-0.0348889,0,-1.5,0,0,0,0,0,0,0,0,0,0,0,0,0,0,0,0,0,6346,0,0,0,0,0,0
6373,-3.19287e-12,9.03514e-38,-1.53782e-06,-3.26761e-12,9.03467e-38,0,0,0,0,0,0,0,0,0,0,0,0,4.4,0,96914573,-1368110944,96914573,-1368110944,-1368083688,-1368083688,-1368083648,96914566,0,-0.0348889,0,-1.5,0,0,0,0,0,0,0,0,0,0,0,0,0,0,0,0,0,6346,0,0,0,0,0,0
6389,-3.19287e-12,9.03514e-38,-1.53782e-06,-3.26761e-12,9.03467e-38,0,0,0,0,0,0,0,0,0,0,0,0,4.4,0,96914573,-1368110944,96914573,-1368110944,-1368083688,-1368083688,-1368083648,96914566,0,-0.0348889,0,-1.5,0,0,0,0,0,0,0,0,0,0,0,0,0,0,0,0,0,6346,0,0,0,0,0,0
6405,-3.19287e-12,9.03514e-38,-1.53782e-06,-3.26761e-12,9.03467e-38,0,0,0,0,0,0,0,0,0,0,0,0,4.4,0,96914573,-1368110944,96914573,-1368110944,-1368083688,-1368083688,-1368083648,96914566,0,-0.0348889,0,-1.5,0,0,0,0,0,0,0,0,0,0,0,0,0,0,0,0,0,6346,0,0,0,0,0,0
6420,-3.19287e-12,9.03514e-38,-1.53782e-06,-3.26761e-12,9.03467e-38,0,0,0,0,-3.62409,0.159253,0.216147,0,0,0,0,0,-0.564997,0.159253,238,-35,238,-35,363,-35,244,93,0,-0.0348889,0,-1.5,0,0,0,0,0,0,0,0,0,0,0,0,16000,0,0,0,0,6412,0,0,0,0,0,0
6436,-3.19287e-12,9.03514e-38,-1.53782e-06,-3.26761e-12,9.03467e-38,0,0,0,0,-3.62409,0.159253,0.216147,0,0,0,0,0,-0.564997,0.159253,238,-35,238,-35,363,-35,244,93,0,-0.0348889,0,-1.5,0,0,0,0,0,0,0,0,0,0,0,0,16000,0,0,0,0,6412,0,0,0,0,0,0
6452,-3.19287e-12,9.03514e-38,-1.53782e-06,-3.26761e-12,9.03467e-38,0,0,0,0,-3.62409,0.159253,0.216147,0,0,0,0,0,-0.564997,0.159253,238,-35,238,-35,363,-35,244,93,0,-0.0348889,0,-1.5,0,0,0,0,0,0,0,0,0,0,0,0,16000,0,0,0,0,6412,0,0,0,0,0,0
6468,-3.19287e-12,9.03514e-38,-1.53782e-06,-3.26761e-12,9.03467e-38,0,0,0,0,-3.62409,0.159253,0.216147,0,0,0,0,0,-0.564997,0.159253,238,-35,238,-35,363,-35,244,93,0,-0.0348889,0,-1.5,0,0,0,0,0,0,0,0,0,0,0,0,16000,0,0,0,0,6412,0,0,0,0,0,0
6483,-3.19287e-12,9.03514e-38,-1.53782e-06,-3.26761e-12,9.03467e-38,0,0,0,0,-3.62409,0.159253,0.216147,0,0,0,0,0,-0.564997,0.159253,238,-35,238,-35,363,-35,244,93,0,-0.0348889,0,-1.5,0,0,0,0,0,0,0,0,0,0,0,0,16000,0,0,0,0,6412,0,0,0,0,0,0
6496,-3.19287e-12,9.03514e-38,-1.53782e-06,-3.26761e-12,9.03467e-38,0,0,0,0,-3.62409,0.159253,0.216147,0,0,0,0,0,-0.564997,0.159253,238,-35,238,-35,363,-35,244,93,0,-0.0348889,0,-1.5,0,0,0,0,0,0,0,0,0,0,0,0,16000,0,0,0,0,6412,0,0,0,0,0,0
6512,-3.19287e-12,9.03514e-38,-1.53782e-06,-3.26761e-12,9.03467e-38,0,0,0,0,-3.62409,0.159253,0.216147,0,0,0,0,0,-0.564997,0.159253,238,-35,238,-35,363,-35,244,93,0,-0.0348889,0,-1.5,0,0,0,0,0,0,0,0,0,0,0,0,16000,0,0,0,0,6412,0,0,0,0,0,0
6528,-3.19287e-12,9.03514e-38,-1.53782e-06,-3.26761e-12,9.03467e-38,0,0,0,0,-3.62409,0.159253,0.216147,0,0,0,0,0,-0.564997,0.159253,238,-35,238,-35,363,-35,244,93,0,-0.0348889,0,-1.5,0,0,0,0,0,0,0,0,0,0,0,0,16000,0,0,0,0,6412,0,0,0,0,0,0
6543,-3.19287e-12,9.03514e-38,-1.53782e-06,-3.26761e-12,9.03467e-38,0,0,0,0,-3.62409,0.159253,0.216147,0,0,0,0,0,-0.564997,0.159253,238,-35,238,-35,363,-35,244,93,0,-0.0348889,0,-1.5,0,0,0,0,0,0,0,0,0,0,0,0,16000,0,0,0,0,6412,0,0,0,0,0,0
6559,-3.19287e-12,9.03514e-38,-1.53782e-06,-3.26761e-12,9.03467e-38,0,0,0,0,-3.62409,0.159253,0.216147,0,0,0,0,0,-0.564997,0.159253,238,-35,238,-35,363,-35,244,93,0,-0.0348889,0,-1.5,0,0,0,0,0,0,0,0,0,0,0,0,16000,0,0,0,0,6412,0,0,0,0,0,0
6574,-3.19287e-12,9.03514e-38,-1.53782e-06,-3.26761e-12,9.03467e-38,0,0,0,0,-3.62409,0.159253,0.216147,0,0,0,0,0,-0.564997,0.159253,238,-35,238,-35,363,-35,244,93,0,-0.0348889,0,-1.5,0,0,0,0,0,0,0,0,0,0,0,0,16000,0,0,0,0,6412,0,0,0,0,0,0
6590,-3.19287e-12,9.03514e-38,-1.53782e-06,-3.26761e-12,9.03467e-38,0,0,0,0,-3.62409,0.159253,0.216147,0,0,0,0,0,-0.564997,0.159253,238,-35,238,-35,363,-35,244,93,0,-0.0348889,0,-1.5,0,0,0,0,0,0,0,0,0,0,0,0,16000,0,0,0,0,6412,0,0,0,0,0,0
6606,-3.19287e-12,9.03514e-38,-1.53782e-06,-3.26761e-12,9.03467e-38,0,0,0,0,-3.62409,0.159253,0.216147,0,0,0,0,0,-0.564997,0.159253,238,-35,238,-35,363,-35,244,93,0,-0.0348889,0,-1.5,0,0,0,0,0,0,0,0,0,0,0,0,16000,0,0,0,0,6412,0,0,0,0,0,0
6621,-3.19287e-12,9.03514e-38,-1.53782e-06,-3.26761e-12,9.03467e-38,0,0,0,0,-3.62409,0.159253,0.216147,0,0,0,0,0,-0.564997,0.159253,238,-35,238,-35,363,-35,244,93,0,-0.0348889,0,-1.5,0,0,0,0,0,0,0,0,0,0,0,0,16000,0,0,0,0,6412,0,0,0,0,0,0
6636,-3.19287e-12,9.03514e-38,-1.53782e-06,-3.26761e-12,9.03467e-38,0,0,0,0,-3.62409,0.159253,0.216147,0,0,0,0,0,-0.564997,0.159253,238,-35,238,-35,363,-35,244,93,0,-0.0348889,0,-1.5,0,0,0,0,0,0,0,0,0,0,0,0,16000,0,0,0,0,6412,0,0,0,0,0,0
6652,-3.19287e-12,9.03514e-38,-1.53782e-06,-3.26761e-12,9.03467e-38,0,0,0,0,-3.62409,0.159253,0.216147,0,0,0,0,0,-0.564997,0.159253,238,-35,238,-35,363,-35,244,93,0,-0.0348889,0,-1.5,0,0,0,0,0,0,0,0,0,0,0,0,16000,0,0,0,0,6412,0,0,0,0,0,0
6667,-3.19287e-12,9.03514e-38,-1.53782e-06,-3.26761e-12,9.03467e-38,0,0,0,0,-3.62409,0.159253,0.216147,0,0,0,0,0,-0.564997,0.159253,238,-35,238,-35,363,-35,244,93,0,-0.0348889,0,-1.5,0,0,0,0,0,0,0,0,0,0,0,0,16000,0,0,0,0,6412,0,0,0,0,0,0
6683,-3.19287e-12,9.03514e-38,-1.53782e-06,-3.26761e-12,9.03467e-38,0,0,0,0,-3.62409,0.159253,0.216147,0,0,0,0,0,-0.564997,0.159253,238,-35,238,-35,363,-35,244,93,0,-0.0348889,0,-1.5,0,0,0,0,0,0,0,0,0,0,0,0,16000,0,0,0,0,6412,0,0,0,0,0,0
6699,-3.19287e-12,9.03514e-38,-1.53782e-06,-3.26761e-12,9.03467e-38,0,0,0,0,-3.62409,0.159253,0.216147,0,0,0,0,0,-0.564997,0.159253,238,-35,238,-35,363,-35,244,93,0,-0.0348889,0,-1.5,0,0,0,0,0,0,0,0,0,0,0,0,16000,0,0,0,0,6412,0,0,0,0,0,0
6715,-3.19287e-12,9.03514e-38,-1.53782e-06,-3.26761e-12,9.03467e-38,0,0,0,0,-3.62409,0.159253,0.216147,0,0,0,0,0,-0.564997,0.159253,238,-35,238,-35,363,-35,244,93,0,-0.0348889,0,-1.5,0,0,0,0,0,0,0,0,0,0,0,0,16000,0,0,0,0,6412,0,0,0,0,0,0
6731,-3.19287e-12,9.03514e-38,-1.53782e-06,-3.26761e-12,9.03467e-38,0,0,0,0,-3.62409,0.159253,0.216147,0,0,0,0,0,-0.564997,0.159253,238,-35,238,-35,363,-35,244,93,0,-0.0348889,0,-1.5,0,0,0,0,0,0,0,0,0,0,0,0,16000,0,0,0,0,6412,0,0,0,0,0,0
6747,-3.19287e-12,9.03514e-38,-1.53782e-06,-3.26761e-12,9.03467e-38,0,0,0,0,-3.62409,0.159253,0.216147,0,0,0,0,0,-0.564997,0.159253,238,-35,238,-35,363,-35,244,93,0,-0.0348889,0,-1.5,0,0,0,0,0,0,0,0,0,0,0,0,16000,0,0,0,0,6412,0,0,0,0,0,0
6763,-3.19287e-12,9.03514e-38,-1.53782e-06,-3.26761e-12,9.03467e-38,0,0,0,0,-3.62409,0.159253,0.216147,0,0,0,0,0,-0.564997,0.159253,238,-35,238,-35,363,-35,244,93,0,-0.0348889,0,-1.5,0,0,0,0,0,0,0,0,0,0,0,0,16000,0,0,0,0,6412,0,0,0,0,0,0
6779,-3.19287e-12,9.03514e-38,-1.53782e-06,-3.26761e-12,9.03467e-38,0,0,0,0,-3.62409,0.159253,0.216147,0,0,0,0,0,-0.564997,0.159253,238,-35,238,-35,363,-35,244,93,0,-0.0348889,0,-1.5,0,0,0,0,0,0,0,0,0,0,0,0,16000,0,0,0,0,6412,0,0,0,0,0,0
6794,-3.19287e-12,9.03514e-38,-1.53782e-06,-3.26761e-12,9.03467e-38,0,0,0,0,-3.62409,0.159253,0.216147,0,0,0,0,0,-0.564997,0.159253,238,-35,238,-35,363,-35,244,93,0,-0.0348889,0,-1.5,0,0,0,0,0,0,0,0,0,0,0,0,16000,0,0,0,0,6412,0,0,0,0,0,0
6810,-3.19287e-12,9.03514e-38,-1.53782e-06,-3.26761e-12,9.03467e-38,0,0,0,0,-3.62409,0.159253,0.216147,0,0,0,0,0,-0.564997,0.159253,238,-35,238,-35,363,-35,244,93,0,-0.0348889,0,-1.5,0,0,0,0,0,0,0,0,0,0,0,0,16000,0,0,0,0,6412,0,0,0,0,0,0
6827,-3.19287e-12,9.03514e-38,-1.53782e-06,-3.26761e-12,9.03467e-38,0,0,0,0,-3.62409,0.159253,0.216147,0,0,0,0,0,-0.564997,0.159253,238,-35,238,-35,363,-35,244,93,0,-0.0348889,0,-1.5,0,0,0,0,0,0,0,0,0,0,0,0,16000,0,0,0,0,6412,0,0,0,0,0,0
6843,-3.19287e-12,9.03514e-38,-1.53782e-06,-3.26761e-12,9.03467e-38,0,0,0,0,-3.62409,0.159253,0.216147,0,0,0,0,0,-0.564997,0.159253,238,-35,238,-35,363,-35,244,93,0,-0.0348889,0,-1.5,0,0,0,0,0,0,0,0,0,0,0,0,16000,0,0,0,0,6412,0,0,0,0,0,0
6858,-3.19287e-12,9.03514e-38,-1.53782e-06,-3.26761e-12,9.03467e-38,0,0,0,0,-3.62409,0.159253,0.216147,0,0,0,0,0,-0.564997,0.159253,238,-35,238,-35,363,-35,244,93,0,-0.0348889,0,-1.5,0,0,0,0,0,0,0,0,0,0,0,0,16000,0,0,0,0,6412,0,0,0,0,0,0
6875,-3.19287e-12,9.03514e-38,-1.53782e-06,-3.26761e-12,9.03467e-38,0,0,0,0,-3.62409,0.159253,0.216147,0,0,0,0,0,-0.564997,0.159253,238,-35,238,-35,363,-35,244,93,0,-0.0348889,0,-1.5,0,0,0,0,0,0,0,0,0,0,0,0,16000,0,0,0,0,6412,0,0,0,0,0,0
6890,-3.19287e-12,9.03514e-38,-1.53782e-06,-3.26761e-12,9.03467e-38,0,0,0,0,-3.62409,0.159253,0.216147,0,0,0,0,0,-0.564997,0.159253,238,-35,238,-35,363,-35,244,93,0,-0.0348889,0,-1.5,0,0,0,0,0,0,0,0,0,0,0,0,16000,0,0,0,0,6412,0,0,0,0,0,0
6905,-3.19287e-12,9.03514e-38,-1.53782e-06,-3.26761e-12,9.03467e-38,0,0,0,0,-3.62409,0.159253,0.216147,0,0,0,0,0,-0.564997,0.159253,238,-35,238,-35,363,-35,244,93,0,-0.0348889,0,-1.5,0,0,0,0,0,0,0,0,0,0,0,0,16000,0,0,0,0,6412,0,0,0,0,0,0
6920,-3.19287e-12,9.03514e-38,-1.53782e-06,-3.26761e-12,9.03467e-38,0,0,0,0,-3.62409,0.159253,0.216147,0,0,0,0,0,-0.564997,0.159253,238,-35,238,-35,363,-35,244,93,0,-0.0348889,0,-1.5,0,0,0,0,0,0,0,0,0,0,0,0,16000,0,0,0,0,6412,0,0,0,0,0,0
6936,-3.19287e-12,9.03514e-38,-1.53782e-06,-3.26761e-12,9.03467e-38,0,0,0,0,-3.62409,0.159253,0.216147,0,0,0,0,0,-0.564997,0.159253,238,-35,238,-35,363,-35,244,93,0,-0.0348889,0,-1.5,0,0,0,0,0,0,0,0,0,0,0,0,16000,0,0,0,0,6412,0,0,0,0,0,0
6952,-3.19287e-12,9.03514e-38,-1.53782e-06,-3.26761e-12,9.03467e-38,0,0,0,0,-3.62409,0.159253,0.216147,0,0,0,0,0,-0.564997,0.159253,238,-35,238,-35,363,-35,244,93,0,-0.0348889,0,-1.5,0,0,0,0,0,0,0,0,0,0,0,0,16000,0,0,0,0,6412,0,0,0,0,0,0
6967,-3.19287e-12,9.03514e-38,-1.53782e-06,-3.26761e-12,9.03467e-38,0,0,0,0,-3.62409,0.159253,0.216147,0,0,0,0,0,-0.564997,0.159253,238,-35,238,-35,363,-35,244,93,0,-0.0348889,0,-1.5,0,0,0,0,0,0,0,0,0,0,0,0,16000,0,0,0,0,6412,0,0,0,0,0,0
6983,-3.19287e-12,9.03514e-38,-1.53782e-06,-3.26761e-12,9.03467e-38,0,0,0,0,-3.62409,0.159253,0.216147,0,0,0,0,0,-0.564997,0.159253,238,-35,238,-35,363,-35,244,93,0,-0.0348889,0,-1.5,0,0,0,0,0,0,0,0,0,0,0,0,16000,0,0,0,0,6412,0,0,0,0,0,0
6999,-3.19287e-12,9.03514e-38,-1.53782e-06,-3.26761e-12,9.03467e-38,0,0,0,0,-3.62409,0.159253,0.216147,0,0,0,0,0,-0.564997,0.159253,238,-35,238,-35,363,-35,244,93,0,-0.0348889,0,-1.5,0,0,0,0,0,0,0,0,0,0,0,0,16000,0,0,0,0,6412,0,0,0,0,0,0
7014,-3.19287e-12,9.03514e-38,-1.53782e-06,-3.26761e-12,9.03467e-38,0,0,0,0,-3.62409,0.159253,0.216147,0,0,0,0,0,-0.564997,0.159253,238,-35,238,-35,363,-35,244,93,0,-0.0348889,0,-1.5,0,0,0,0,0,0,0,0,0,0,0,0,16000,0,0,0,0,6412,0,0,0,0,0,0
7030,-3.19287e-12,9.03514e-38,-1.53782e-06,-3.26761e-12,9.03467e-38,0,0,0,0,-3.62409,0.159253,0.216147,0,0,0,0,0,-0.564997,0.159253,238,-35,238,-35,363,-35,244,93,0,-0.0348889,0,-1.5,0,0,0,0,0,0,0,0,0,0,0,0,16000,0,0,0,0,6412,0,0,0,0,0,0
7046,-3.19287e-12,9.03514e-38,-1.53782e-06,-3.26761e-12,9.03467e-38,0,0,0,0,-3.62409,0.159253,0.216147,0,0,0,0,0,-0.564997,0.159253,238,-35,238,-35,363,-35,244,93,0,-0.0348889,0,-1.5,0,0,0,0,0,0,0,0,0,0,0,0,16000,0,0,0,0,6412,0,0,0,0,0,0
7061,-3.19287e-12,9.03514e-38,-1.53782e-06,-3.26761e-12,9.03467e-38,0,0,0,0,-3.62409,0.159253,0.216147,0,0,0,0,0,-0.564997,0.159253,238,-35,238,-35,363,-35,244,93,0,-0.0348889,0,-1.5,0,0,0,0,0,0,0,0,0,0,0,0,16000,0,0,0,0,6412,0,0,0,0,0,0
7077,-3.19287e-12,9.03514e-38,-1.53782e-06,-3.26761e-12,9.03467e-38,0,0,0,0,-3.62409,0.159253,0.216147,0,0,0,0,0,-0.564997,0.159253,238,-35,238,-35,363,-35,244,93,0,-0.0348889,0,-1.5,0,0,0,0,0,0,0,0,0,0,0,0,16000,0,0,0,0,6412,0,0,0,0,0,0
7093,-3.19287e-12,9.03514e-38,-1.53782e-06,-3.26761e-12,9.03467e-38,0,0,0,0,-3.62409,0.159253,0.216147,0,0,0,0,0,-0.564997,0.159253,238,-35,238,-35,363,-35,244,93,0,-0.0348889,0,-1.5,0,0,0,0,0,0,0,0,0,0,0,0,16000,0,0,0,0,6412,0,0,0,0,0,0
7108,-3.19287e-12,9.03514e-38,-1.53782e-06,-3.26761e-12,9.03467e-38,0,0,0,0,-3.62409,0.159253,0.216147,0,0,0,0,0,-0.564997,0.159253,238,-35,238,-35,363,-35,244,93,0,-0.0348889,0,-1.5,0,0,0,0,0,0,0,0,0,0,0,0,16000,0,0,0,0,6412,0,0,0,0,0,0
7124,-3.19287e-12,9.03514e-38,-1.53782e-06,-3.26761e-12,9.03467e-38,0,0,0,0,-3.62409,0.159253,0.216147,0,0,0,0,0,-0.564997,0.159253,238,-35,238,-35,363,-35,244,93,0,-0.0348889,0,-1.5,0,0,0,0,0,0,0,0,0,0,0,0,16000,0,0,0,0,6412,0,0,0,0,0,0
7140,-3.19287e-12,9.03514e-38,-1.53782e-06,-3.26761e-12,9.03467e-38,0,0,0,0,-3.62409,0.159253,0.216147,0,0,0,0,0,-0.564997,0.159253,238,-35,238,-35,363,-35,244,93,0,-0.0348889,0,-1.5,0,0,0,0,0,0,0,0,0,0,0,0,16000,0,0,0,0,6412,0,0,0,0,0,0
7155,-3.19287e-12,9.03514e-38,-1.53782e-06,-3.26761e-12,9.03467e-38,0,0,0,0,-3.62409,0.159253,0.216147,0,0,0,0,0,-0.564997,0.159253,238,-35,238,-35,363,-35,244,93,0,-0.0348889,0,-1.5,0,0,0,0,0,0,0,0,0,0,0,0,16000,0,0,0,0,6412,0,0,0,0,0,0
7170,-3.19287e-12,9.03514e-38,-1.53782e-06,-3.26761e-12,9.03467e-38,0,0,0,0,-3.62409,0.159253,0.216147,0,0,0,0,0,-0.564997,0.159253,238,-35,238,-35,363,-35,244,93,0,-0.0348889,0,-1.5,0,0,0,0,0,0,0,0,0,0,0,0,16000,0,0,0,0,6412,0,0,0,0,0,0
7186,-3.19287e-12,9.03514e-38,-1.53782e-06,-3.26761e-12,9.03467e-38,0,0,0,0,-3.62409,0.159253,0.216147,0,0,0,0,0,-0.564997,0.159253,238,-35,238,-35,363,-35,244,93,0,-0.0348889,0,-1.5,0,0,0,0,0,0,0,0,0,0,0,0,16000,0,0,0,0,6412,0,0,0,0,0,0
7202,-3.19287e-12,9.03514e-38,-1.53782e-06,-3.26761e-12,9.03467e-38,0,0,0,0,-3.62409,0.159253,0.216147,0,0,0,0,0,-0.564997,0.159253,238,-35,238,-35,363,-35,244,93,0,-0.0348889,0,-1.5,0,0,0,0,0,0,0,0,0,0,0,0,16000,0,0,0,0,6412,0,0,0,0,0,0
7217,-3.19287e-12,9.03514e-38,-1.53782e-06,-3.26761e-12,9.03467e-38,0,0,0,0,-3.62409,0.159253,0.216147,0,0,0,0,0,-0.564997,0.159253,238,-35,238,-35,363,-35,244,93,0,-0.0348889,0,-1.5,0,0,0,0,0,0,0,0,0,0,0,0,16000,0,0,0,0,6412,0,0,0,0,0,0
7233,-3.19287e-12,9.03514e-38,-1.53782e-06,-3.26761e-12,9.03467e-38,0,0,0,0,-3.62409,0.159253,0.216147,0,0,0,0,0,-0.564997,0.159253,238,-35,238,-35,363,-35,244,93,0,-0.0348889,0,-1.5,0,0,0,0,0,0,0,0,0,0,0,0,16000,0,0,0,0,6412,0,0,0,0,0,0
7249,-3.19287e-12,9.03514e-38,-1.53782e-06,-3.26761e-12,9.03467e-38,0,0,0,0,-3.62409,0.159253,0.216147,0,0,0,0,0,-0.564997,0.159253,238,-35,238,-35,363,-35,244,93,0,-0.0348889,0,-1.5,0,0,0,0,0,0,0,0,0,0,0,0,16000,0,0,0,0,6412,0,0,0,0,0,0
7265,-3.19287e-12,9.03514e-38,-1.53782e-06,-3.26761e-12,9.03467e-38,0,0,0,0,-3.62409,0.159253,0.216147,0,0,0,0,0,-0.564997,0.159253,238,-35,238,-35,363,-35,244,93,0,-0.0348889,0,-1.5,0,0,0,0,0,0,0,0,0,0,0,0,16000,0,0,0,0,6412,0,0,0,0,0,0
7282,-3.19287e-12,9.03514e-38,-1.53782e-06,-3.26761e-12,9.03467e-38,0,0,0,0,-3.80415,0.0522451,0.279352,0,0,0,0,0,-0.811679,0.0522451,259,-24,259,-24,372,-33,254,92,0,-0.0348889,0,-1.5,0,0,0,0,0,0,0,0,0,0,0,0,14994,0,0,0,0,7278,0,0,0,0,0,0
7297,-3.19287e-12,9.03514e-38,-1.53782e-06,-3.26761e-12,9.03467e-38,0,0,0,0,-3.80415,0.0522451,0.279352,0,0,0,0,0,-0.811679,0.0522451,259,-24,259,-24,372,-33,254,92,0,-0.0348889,0,-1.5,0,0,0,0,0,0,0,0,0,0,0,0,14994,0,0,0,0,7278,0,0,0,0,0,0
7314,-3.19287e-12,9.03514e-38,-1.53782e-06,-3.26761e-12,9.03467e-38,0,0,0,0,-3.80415,0.0522451,0.279352,0,0,0,0,0,-0.811679,0.0522451,259,-24,259,-24,372,-33,254,92,0,-0.0348889,0,-1.5,0,0,0,0,0,0,0,0,0,0,0,0,14994,0,0,0,0,7278,0,0,0,0,0,0
7329,-3.19287e-12,9.03514e-38,-1.53782e-06,-3.26761e-12,9.03467e-38,0,0,0,0,-3.80415,0.0522451,0.279352,0,0,0,0,0,-0.811679,0.0522451,259,-24,259,-24,372,-33,254,92,0,-0.0348889,0,-1.5,0,0,0,0,0,0,0,0,0,0,0,0,14994,0,0,0,0,7278,0,0,0,0,0,0
7345,-3.19287e-12,9.03514e-38,-1.53782e-06,-3.26761e-12,9.03467e-38,0,0,0,0,-3.80415,0.0522451,0.279352,0,0,0,0,0,-0.811679,0.0522451,259,-24,259,-24,372,-33,254,92,0,-0.0348889,0,-1.5,0,0,0,0,0,0,0,0,0,0,0,0,14994,0,0,0,0,7278,0,0,0,0,0,0
7361,-3.19287e-12,9.03514e-38,-1.53782e-06,-3.26761e-12,9.03467e-38,0,0,0,0,-3.80415,0.0522451,0.279352,0,0,0,0,0,-0.811679,0.0522451,259,-24,259,-24,372,-33,254,92,0,-0.0348889,0,-1.5,0,0,0,0,0,0,0,0,0,0,0,0,14994,0,0,0,0,7278,0,0,0,0,0,0
7377,-3.19287e-12,9.03514e-38,-1.53782e-06,-3.26761e-12,9.03467e-38,0,0,0,0,-3.80415,0.0522451,0.279352,0,0,0,0,0,-0.811679,0.0522451,259,-24,259,-24,372,-33,254,92,0,-0.0348889,0,-1.5,0,0,0,0,0,0,0,0,0,0,0,0,14994,0,0,0,0,7278,0,0,0,0,0,0
7392,-3.19287e-12,9.03514e-38,-1.53782e-06,-3.26761e-12,9.03467e-38,0,0,0,0,-3.80415,0.0522451,0.279352,0,0,0,0,0,-0.811679,0.0522451,259,-24,259,-24,372,-33,254,92,0,-0.0348889,0,-1.5,0,0,0,0,0,0,0,0,0,0,0,0,14994,0,0,0,0,7278,0,0,0,0,0,0
7409,-3.19287e-12,9.03514e-38,-1.53782e-06,-3.26761e-12,9.03467e-38,0,0,0,0,-3.80415,0.0522451,0.279352,0,0,0,0,0,-0.811679,0.0522451,259,-24,259,-24,372,-33,254,92,0,-0.0348889,0,-1.5,0,0,0,0,0,0,0,0,0,0,0,0,14994,0,0,0,0,7278,0,0,0,0,0,0
7423,-3.19287e-12,9.03514e-38,-1.53782e-06,-3.26761e-12,9.03467e-38,0,0,0,0,-3.80415,0.0522451,0.279352,0,0,0,0,0,-0.811679,0.0522451,259,-24,259,-24,372,-33,254,92,0,-0.0348889,0,-1.5,0,0,0,0,0,0,0,0,0,0,0,0,14994,0,0,0,0,7278,0,0,0,0,0,0
7438,-3.19287e-12,9.03514e-38,-1.53782e-06,-3.26761e-12,9.03467e-38,0,0,0,0,-3.80415,0.0522451,0.279352,0,0,0,0,0,-0.811679,0.0522451,259,-24,259,-24,372,-33,254,92,0,-0.0348889,0,-1.5,0,0,0,0,0,0,0,0,0,0,0,0,14994,0,0,0,0,7278,0,0,0,0,0,0
7454,-3.19287e-12,9.03514e-38,-1.53782e-06,-3.26761e-12,9.03467e-38,0,0,0,0,-3.80415,0.0522451,0.279352,0,0,0,0,0,-0.811679,0.0522451,259,-24,259,-24,372,-33,254,92,0,-0.0348889,0,-1.5,0,0,0,0,0,0,0,0,0,0,0,0,14994,0,0,0,0,7278,0,0,0,0,0,0
7474,-3.19287e-12,9.03514e-38,-1.53782e-06,-3.26761e-12,9.03467e-38,0,0,0,0,-3.80415,0.0522451,0.279352,0,0,0,0,0,-0.811679,0.0522451,259,-24,259,-24,372,-33,254,92,0,-0.0348889,0,-1.5,0,0,0,0,0,0,0,0,0,0,0,0,14994,0,0,0,0,7278,0,0,0,0,0,0
7533,-3.19287e-12,9.03514e-38,-1.53782e-06,-3.26761e-12,9.03467e-38,0,0,0,0,-3.80415,0.0522451,0.279352,0,0,0,0,0,-0.811679,0.0522451,259,-24,259,-24,372,-33,254,92,0,-0.0348889,0,-1.5,0,0,0,0,0,0,0,0,0,0,0,0,14994,0,0,0,0,7278,0,0,0,0,0,0
7549,-3.19287e-12,9.03514e-38,-1.53782e-06,-3.26761e-12,9.03467e-38,0,0,0,0,-3.80415,0.0522451,0.279352,0,0,0,0,0,-0.811679,0.0522451,259,-24,259,-24,372,-33,254,92,0,-0.0348889,0,-1.5,0,0,0,0,0,0,0,0,0,0,0,0,14994,0,0,0,0,7278,0,0,0,0,0,0
7572,-3.19287e-12,9.03514e-38,-1.53782e-06,-3.26761e-12,9.03467e-38,0,0,0,0,-3.80415,0.0522451,0.279352,0,0,0,0,0,-0.811679,0.0522451,259,-24,259,-24,372,-33,254,92,0,-0.0348889,0,-1.5,0,0,0,0,0,0,0,0,0,0,0,0,14994,0,0,0,0,7278,0,0,0,0,0,0
7588,-3.19287e-12,9.03514e-38,-1.53782e-06,-3.26761e-12,9.03467e-38,0,0,0,0,-3.76479,0.102409,0.264565,0,0,0,0,0,-0.75776,0.102409,253,-24,253,-24,370,-33,246,92,0,-0.0348889,0,-1.5,0,0,0,0,0,0,0,0,0,0,0,0,15500,0,0,0,0,7580,0,0,0,0,0,0
7611,-3.19287e-12,9.03514e-38,-1.53782e-06,-3.26761e-12,9.03467e-38,0,0,0,0,-3.76479,0.102409,0.264565,0,0,0,0,0,-0.75776,0.102409,253,-24,253,-24,370,-33,246,92,0,-0.0348889,0,-1.5,0,0,0,0,0,0,0,0,0,0,0,0,15500,0,0,0,0,7580,0,0,0,0,0,0
7626,-3.19287e-12,9.03514e-38,-1.53782e-06,-3.26761e-12,9.03467e-38,0,0,0,0,-3.76479,0.102409,0.264565,0,0,0,0,0,-0.75776,0.102409,253,-24,253,-24,370,-33,246,92,0,-0.0348889,0,-1.5,0,0,0,0,0,0,0,0,0,0,0,0,15500,0,0,0,0,7580,0,0,0,0,0,0
7649,-3.19287e-12,9.03514e-38,-1.53782e-06,-3.26761e-12,9.03467e-38,0,0,0,0,-3.76479,0.102409,0.264565,0,0,0,0,0,-0.75776,0.102409,253,-24,253,-24,370,-33,246,92,0,-0.0348889,0,-1.5,0,0,0,0,0,0,0,0,0,0,0,0,15500,0,0,0,0,7580,0,0,0,0,0,0
7664,-3.19287e-12,9.03514e-38,-1.53782e-06,-3.26761e-12,9.03467e-38,0,0,0,0,-3.76479,0.102409,0.264565,0,0,0,0,0,-0.75776,0.102409,253,-24,253,-24,370,-33,246,92,0,-0.0348889,0,-1.5,0,0,0,0,0,0,0,0,0,0,0,0,15500,0,0,0,0,7580,0,0,0,0,0,0
7687,-3.19287e-12,9.03514e-38,-1.53782e-06,-3.26761e-12,9.03467e-38,0,0,0,0,-3.76479,0.102409,0.264565,0,0,0,0,0,-0.75776,0.102409,253,-24,253,-24,370,-33,246,92,0,-0.0348889,0,-1.5,0,0,0,0,0,0,0,0,0,0,0,0,15500,0,0,0,0,7580,0,0,0,0,0,0
7702,-3.19287e-12,9.03514e-38,-1.53782e-06,-3.26761e-12,9.03467e-38,0,0,0,0,-3.76479,0.102409,0.264565,0,0,0,0,0,-0.75776,0.102409,253,-24,253,-24,370,-33,246,92,0,-0.0348889,0,-1.5,0,0,0,0,0,0,0,0,0,0,0,0,15500,0,0,0,0,7580,0,0,0,0,0,0
7724,-3.19287e-12,9.03514e-38,-1.53782e-06,-3.26761e-12,9.03467e-38,0,0,0,0,-3.76479,0.102409,0.264565,0,0,0,0,0,-0.75776,0.102409,253,-24,253,-24,370,-33,246,92,0,-0.0348889,0,-1.5,0,0,0,0,0,0,0,0,0,0,0,0,15500,0,0,0,0,7580,0,0,0,0,0,0
7740,-3.19287e-12,9.03514e-38,-1.53782e-06,-3.26761e-12,9.03467e-38,0,0,0,0,-3.76479,0.102409,0.264565,0,0,0,0,0,-0.75776,0.102409,253,-24,253,-24,370,-33,246,92,0,-0.0348889,0,-1.5,0,0,0,0,0,0,0,0,0,0,0,0,15500,0,0,0,0,7580,0,0,0,0,0,0
7762,-3.19287e-12,9.03514e-38,-1.53782e-06,-3.26761e-12,9.03467e-38,0,0,0,0,-3.76479,0.102409,0.264565,0,0,0,0,0,-0.75776,0.102409,253,-24,253,-24,370,-33,246,92,0,-0.0348889,0,-1.5,0,0,0,0,0,0,0,0,0,0,0,0,15500,0,0,0,0,7580,0,0,0,0,0,0
7778,-3.19287e-12,9.03514e-38,-1.53782e-06,-3.26761e-12,9.03467e-38,0,0,0,0,-3.76479,0.102409,0.264565,0,0,0,0,0,-0.75776,0.102409,253,-24,253,-24,370,-33,246,92,0,-0.0348889,0,-1.5,0,0,0,0,0,0,0,0,0,0,0,0,15500,0,0,0,0,7580,0,0,0,0,0,0
7798,-3.19287e-12,9.03514e-38,-1.53782e-06,-3.26761e-12,9.03467e-38,0,0,0,0,-3.76479,0.102409,0.264565,0,0,0,0,0,-0.75776,0.102409,253,-24,253,-24,370,-33,246,92,0,-0.0348889,0,-1.5,0,0,0,0,0,0,0,0,0,0,0,0,15500,0,0,0,0,7580,0,0,0,0,0,0
7811,-3.19287e-12,9.03514e-38,-1.53782e-06,-3.26761e-12,9.03467e-38,0,0,0,0,-3.57784,0.155027,0.298685,0,0,0,0,0,-0.501635,0.155027,238,-35,238,-35,362,-60,245,83,0,-0.0348889,0,-1.5,0,0,0,0,0,0,0,0,0,0,0,0,18304,0,0,0,0,7810,0,0,0,0,0,0
7826,-3.19287e-12,9.03514e-38,-1.53782e-06,-3.26761e-12,9.03467e-38,0,0,0,0,-3.57784,0.155027,0.298685,0,0,0,0,0,-0.501635,0.155027,238,-35,238,-35,362,-60,245,83,0,-0.0348889,0,-1.5,0,0,0,0,0,0,0,0,0,0,0,0,18304,0,0,0,0,7810,0,0,0,0,0,0
7854,-3.19287e-12,9.03514e-38,-1.53782e-06,-3.26761e-12,9.03467e-38,0,0,0,0,-3.567,0.159062,0.295101,0,0,0,0,0,-0.486785,0.159062,236,-35,236,-35,362,-60,245,83,0,-0.0348889,0,-1.5,0,0,0,0,-0.474742,0.16158,0,0,0,0,1.00359,0.209825,18590,-0.486785,0.159062,1.00359,0.209825,7844,0,0,0,0,0,0
7867,-3.19287e-12,9.03514e-38,-1.53782e-06,-3.26761e-12,9.03467e-38,0,0,0,0,-3.567,0.159062,0.295101,0,0,0,0,0,-0.486785,0.159062,236,-35,236,-35,362,-60,245,83,0,-0.0348889,0,-1.5,0,0,0,0,-0.461695,0.164308,0,0,0,0,1.00359,0.209825,18590,-0.486785,0.159062,1.00359,0.209825,7844,0,0,0,0,0,0
7892,-3.19287e-12,9.03514e-38,-1.53782e-06,-3.26761e-12,9.03467e-38,0,0,0,0,-3.56835,0.158904,0.295845,0,0,0,0,0,-0.488642,0.158904,236,-35,236,-35,362,-60,245,82,0,-0.0348889,0,-1.5,0,0,0,0,-0.436605,0.169554,0,0,0,0,1.00359,0.209824,18460,-0.461695,0.164308,1.00359,0.209824,7881,0,0,0,0,0,0
7917,-3.19287e-12,9.03514e-38,-1.53782e-06,-3.26761e-12,9.03467e-38,0,0,0,0,-3.59065,0.15558,0.310203,0,0,0,0,0,-0.519186,0.15558,238,-35,238,-35,362,-60,245,82,0,-0.0348889,0,-1.5,0,0,0,0,-0.443029,0.168479,0,0,0,0,0.912251,0.191506,18176,-0.449415,0.167139,0.912251,0.191506,7912,0,0,0,0,0,0
7933,-3.19287e-12,9.03514e-38,-1.53782e-06,-3.26761e-12,9.03467e-38,0,0,0,0,-3.59065,0.15558,0.310203,0,0,0,0,0,-0.519186,0.15558,238,-35,238,-35,362,-60,245,82,0,-0.0348889,0,-1.5,0,0,0,0,-0.429345,0.171352,0,0,0,0,0.912251,0.191506,18176,-0.449415,0.167139,0.912251,0.191506,7912,0,0,0,0,0,0
7958,-3.19287e-12,9.03514e-38,-1.53782e-06,-3.26761e-12,9.03467e-38,0,0,0,0,-3.56881,0.154963,0.291505,0,0,0,0,0,-0.489266,0.154963,238,-35,238,-35,362,-60,245,85,0,-0.0348889,0,-1.5,0,0,0,0,-0.406538,0.17614,0,0,0,0,0.91225,0.191505,18560,-0.416573,0.174033,0.91225,0.191505,7948,0,0,0,0,0,0
7973,-3.19287e-12,9.03514e-38,-1.53782e-06,-3.26761e-12,9.03467e-38,0,0,0,0,-3.56881,0.154963,0.291505,0,0,0,0,0,-0.489266,0.154963,238,-35,238,-35,362,-60,245,85,0,-0.0348889,0,-1.5,0,0,0,0,-0.391942,0.179204,0,0,0,0,0.91225,0.191505,18560,-0.416573,0.174033,0.91225,0.191505,7948,0,0,0,0,0,0
7998,-3.19287e-12,9.03514e-38,-1.53782e-06,-3.26761e-12,9.03467e-38,0,0,0,0,-3.56799,0.153835,0.30852,0,0,0,0,0,-0.488144,0.153835,238,-40,238,-40,362,-60,245,82,0,-0.0348889,0,-1.5,0,0,0,0,-0.451935,0.169423,0,0,0,0,0.717888,0.157308,18176,-0.469882,0.16549,0.717888,0.157308,7987,0,0,0,0,0,0
8017,-3.19287e-12,9.03514e-38,-1.53782e-06,-3.26761e-12,9.03467e-38,0,0,0,0,-3.63166,0.157072,0.320175,0,0,0,0,0,-0.575372,0.157072,237,-40,237,-40,362,-50,245,82,0,-0.0348889,0,-1.5,0,0,0,0,-0.483908,0.156981,0,0,0,0,0.0843275,0.0101094,17028,-0.484498,0.156911,0.0843275,0.0101094,8012,0,0,0,0,0,0
8039,-3.19287e-12,9.03514e-38,-1.53782e-06,-3.26761e-12,9.03467e-38,0,0,0,0,-3.63166,0.157072,0.320175,0,0,0,0,0,-0.575372,0.157072,237,-40,237,-40,362,-50,245,82,0,-0.0348889,0,-1.5,0,0,0,0,-0.482052,0.157204,0,0,0,0,0.0843275,0.0101094,17028,-0.484498,0.156911,0.0843275,0.0101094,8012,0,0,0,0,0,0
8062,-3.19287e-12,9.03514e-38,-1.53782e-06,-3.26761e-12,9.03467e-38,0,0,0,0,-3.63166,0.157072,0.320175,0,0,0,0,0,-0.575372,0.157072,237,-40,237,-40,362,-50,245,82,0,-0.0348889,0,-1.5,0,0,0,0,-0.480113,0.157436,0,0,0,0,0.0843275,0.0101094,17028,-0.484498,0.156911,0.0843275,0.0101094,8012,0,0,0,0,0,0
8077,-3.19287e-12,9.03514e-38,-1.53782e-06,-3.26761e-12,9.03467e-38,0,0,0,0,-3.63166,0.157072,0.320175,0,0,0,0,0,-0.575372,0.157072,237,-40,237,-40,362,-50,245,82,0,-0.0348889,0,-1.5,0,0,0,0,-0.478848,0.157588,0,0,0,0,0.0843275,0.0101094,17028,-0.484498,0.156911,0.0843275,0.0101094,8012,0,0,0,0,0,0
8097,-3.19287e-12,9.03514e-38,-1.53782e-06,-3.26761e-12,9.03467e-38,0,0,0,0,-3.63166,0.157072,0.320175,0,0,0,0,0,-0.575372,0.157072,237,-40,237,-40,362,-50,245,82,0,-0.0348889,0,-1.5,0,0,0,0,-0.477161,0.15779,0,0,0,0,0.0843275,0.0101094,17028,-0.484498,0.156911,0.0843275,0.0101094,8012,0,0,0,0,0,0
8110,-3.19287e-12,9.03514e-38,-1.53782e-06,-3.26761e-12,9.03467e-38,0,0,0,0,-3.63166,0.157072,0.320175,0,0,0,0,0,-0.575372,0.157072,237,-40,237,-40,362,-50,245,82,0,-0.0348889,0,-1.5,0,0,0,0,-0.476065,0.157921,0,0,0,0,0.0843275,0.0101094,17028,-0.484498,0.156911,0.0843275,0.0101094,8012,0,0,0,0,0,0
8132,-3.19287e-12,9.03514e-38,-1.53782e-06,-3.26761e-12,9.03467e-38,0,0,0,0,-3.63166,0.157072,0.320175,0,0,0,0,0,-0.575372,0.157072,237,-40,237,-40,362,-50,245,82,0,-0.0348889,0,-1.5,0,0,0,0,-0.47421,0.158144,0,0,0,0,0.0843275,0.0101094,17028,-0.484498,0.156911,0.0843275,0.0101094,8012,0,0,0,0,0,0
8158,-3.19287e-12,9.03514e-38,-1.53782e-06,-3.26761e-12,9.03467e-38,0,0,0,0,-3.74777,0.167664,0.345974,0,0,0,0,0,-0.734448,0.167664,236,-36,236,-36,361,-36,244,83,0,-0.0348889,0,-1.5,0,0,0,0,-0.472101,0.168897,0,0,0,0,0.0843275,0.0589701,15470,-0.47421,0.167422,0.0843275,0.0589701,8146,0,0,0,0,0,0
8173,-3.19287e-12,9.03514e-38,-1.53782e-06,-3.26761e-12,9.03467e-38,0,0,0,0,-3.74777,0.167664,0.345974,0,0,0,0,0,-0.734448,0.167664,236,-36,236,-36,361,-36,244,83,0,-0.0348889,0,-1.5,0,0,0,0,-0.470752,0.16984,0,0,0,0,0.0843275,0.0589701,15470,-0.47421,0.167422,0.0843275,0.0589701,8146,0,0,0,0,0,0
8199,-3.19287e-12,9.03514e-38,-1.53782e-06,-3.26761e-12,9.03467e-38,0,0,0,0,-3.75422,0.163058,0.353779,0,0,0,0,0,-0.743288,0.163058,238,-38,238,-38,361,-36,244,83,0,-0.0348889,0,-1.5,0,0,0,0,-0.650252,0.166923,0,0,0,0,-0.432284,0.0416188,15488,-0.639013,0.165841,-0.432284,0.0416188,8187,0,0,0,0,0,0
8219,-3.19287e-12,9.03514e-38,-1.53782e-06,-3.26761e-12,9.03467e-38,0,0,0,0,-3.73957,0.159804,0.343628,0,0,0,0,0,-0.723211,0.159804,237,-38,237,-38,361,-36,245,82,0,-0.0348889,0,-1.5,0,0,0,0,-0.731004,0.162636,0,0,0,0,-0.67794,0.0228616,15600,-0.724903,0.16243,-0.67794,0.0228616,8211,0,0,0,0,0,0
8240,-3.19287e-12,9.03514e-38,-1.53782e-06,-3.26761e-12,9.03467e-38,0,0,0,0,-3.73957,0.159804,0.343628,0,0,0,0,0,-0.723211,0.159804,237,-38,237,-38,361,-36,245,82,0,-0.0348889,0,-1.5,0,0,0,0,-0.745919,0.163139,0,0,0,0,-0.67794,0.0228616,15600,-0.724903,0.16243,-0.67794,0.0228616,8211,0,0,0,0,0,0
8263,-3.19287e-12,9.03514e-38,-1.53782e-06,-3.26761e-12,9.03467e-38,0,0,0,0,-3.73957,0.159804,0.343628,0,0,0,0,0,-0.723211,0.159804,237,-38,237,-38,361,-36,245,82,0,-0.0348889,0,-1.5,0,0,0,0,-0.760834,0.163642,0,0,0,0,-0.67794,0.0228616,15600,-0.724903,0.16243,-0.67794,0.0228616,8211,0,0,0,0,0,0
8282,-3.19287e-12,9.03514e-38,-1.53782e-06,-3.26761e-12,9.03467e-38,0,0,0,0,-3.74531,0.15349,0.34233,0,0,0,0,0,-0.731068,0.15349,238,-36,238,-36,363,-36,245,82,0,-0.0348889,0,-1.5,0,0,0,0,-0.732937,0.160974,0,0,0,0,-0.568192,0.0156468,15222,-0.729528,0.16088,-0.568192,0.0156468,8278,0,0,0,0,0,0
8304,-3.19287e-12,9.03514e-38,-1.53782e-06,-3.26761e-12,9.03467e-38,0,0,0,0,-3.74531,0.15349,0.34233,0,0,0,0,0,-0.731068,0.15349,238,-36,238,-36,363,-36,245,82,0,-0.0348889,0,-1.5,0,0,0,0,-0.745438,0.161318,0,0,0,0,-0.568192,0.0156468,15222,-0.729528,0.16088,-0.568192,0.0156468,8278,0,0,0,0,0,0
8323,-3.19287e-12,9.03514e-38,-1.53782e-06,-3.26761e-12,9.03467e-38,0,0,0,0,-3.74248,0.151196,0.343225,0,0,0,0,0,-0.727197,0.151196,238,-36,238,-36,364,-36,245,82,0,-0.0348889,0,-1.5,0,0,0,0,-0.751263,0.160582,0,0,0,0,-0.548289,0.0126634,15222,-0.744683,0.16043,-0.548289,0.0126634,8313,0,0,0,0,0,0
8350,-3.19287e-12,9.03514e-38,-1.53782e-06,-3.26761e-12,9.03467e-38,0,0,0,0,-3.74483,0.144587,0.346492,0,0,0,0,0,-0.730411,0.144587,238,-36,238,-36,365,-37,247,82,0,-0.0348889,0,-1.5,0,0,0,0,-0.754142,0.154237,0,0,0,0,-0.52321,-0.0031771,15351,-0.747864,0.154275,-0.52321,-0.0031771,8339,0,0,0,0,0,0
8364,-3.19287e-12,9.03514e-38,-1.53782e-06,-3.26761e-12,9.03467e-38,0,0,0,0,-3.74483,0.144587,0.346492,0,0,0,0,0,-0.730411,0.144587,238,-36,238,-36,365,-37,247,82,0,-0.0348889,0,-1.5,0,0,0,0,-0.761991,0.154189,0,0,0,0,-0.52321,-0.0031771,15351,-0.747864,0.154275,-0.52321,-0.0031771,8339,0,0,0,0,0,0
8385,-3.19287e-12,9.03514e-38,-1.53782e-06,-3.26761e-12,9.03467e-38,0,0,0,0,-3.74483,0.144587,0.346492,0,0,0,0,0,-0.730411,0.144587,238,-36,238,-36,365,-37,247,82,0,-0.0348889,0,-1.5,0,0,0,0,-0.772978,0.154123,0,0,0,0,-0.52321,-0.0031771,15351,-0.747864,0.154275,-0.52321,-0.0031771,8339,0,0,0,0,0,0
8407,-3.19287e-12,9.03514e-38,-1.53782e-06,-3.26761e-12,9.03467e-38,0,0,0,0,-3.74483,0.144587,0.346492,0,0,0,0,0,-0.730411,0.144587,238,-36,238,-36,365,-37,247,82,0,-0.0348889,0,-1.5,0,0,0,0,-0.784489,0.154053,0,0,0,0,-0.52321,-0.0031771,15351,-0.747864,0.154275,-0.52321,-0.0031771,8339,0,0,0,0,0,0
8422,-3.19287e-12,9.03514e-38,-1.53782e-06,-3.26761e-12,9.03467e-38,0,0,0,0,-3.74483,0.144587,0.346492,0,0,0,0,0,-0.730411,0.144587,238,-36,238,-36,365,-37,247,82,0,-0.0348889,0,-1.5,0,0,0,0,-0.792338,0.154005,0,0,0,0,-0.52321,-0.0031771,15351,-0.747864,0.154275,-0.52321,-0.0031771,8339,0,0,0,0,0,0
8449,-3.19287e-12,9.03514e-38,-1.53782e-06,-3.26761e-12,9.03467e-38,0,0,0,0,-3.6253,0.105471,0.37029,0,0,0,0,0,-0.566666,0.105471,244,-46,244,-46,370,-55,248,74,0,-0.0348889,0,-1.5,0,0,0,0,-0.787097,0.150197,0,0,0,0,-0.485536,-0.0101136,16383,-0.784184,0.150257,-0.485536,-0.0101136,8444,0,0,0,0,0,0
8464,-3.19287e-12,9.03514e-38,-1.53782e-06,-3.26761e-12,9.03467e-38,0,0,0,0,-3.6253,0.105471,0.37029,0,0,0,0,0,-0.566666,0.105471,244,-46,244,-46,370,-55,248,74,0,-0.0348889,0,-1.5,0,0,0,0,-0.794865,0.150035,0,0,0,0,-0.485536,-0.0101136,16383,-0.784184,0.150257,-0.485536,-0.0101136,8444,0,0,0,0,0,0
8490,-3.19287e-12,9.03514e-38,-1.53782e-06,-3.26761e-12,9.03467e-38,0,0,0,0,-3.64672,0.0808278,0.446338,0,0,0,0,0,-0.596008,0.0808278,246,-56,246,-56,372,-60,253,67,0,-0.0348889,0,-1.5,0,0,0,0,-0.802441,0.149628,0,0,0,0,-0.491194,-0.0109473,16129,-0.78967,0.149912,-0.491194,-0.0109473,8478,0,0,0,0,0,0
8552,-3.19287e-12,9.03514e-38,-1.53782e-06,-3.26761e-12,9.03467e-38,0,0,0,0,-3.50956,0.0728944,0.609376,0,0,0,0,0,-0.408093,0.0728944,243,-87,243,-87,374,-90,252,39,0,-0.0348889,0,-1.5,0,0,0,0,-0.613863,0.123605,0,0,0,0,-0.135285,-0.050908,17688,-0.612781,0.124012,-0.135285,-0.050908,8546,0,0,0,0,0,0
8568,-3.19287e-12,9.03514e-38,-1.53782e-06,-3.26761e-12,9.03467e-38,0,0,0,0,-3.50956,0.0728944,0.609376,0,0,0,0,0,-0.408093,0.0728944,243,-87,243,-87,374,-90,252,39,0,-0.0348889,0,-1.5,0,0,0,0,-0.616028,0.12279,0,0,0,0,-0.135285,-0.050908,17688,-0.612781,0.124012,-0.135285,-0.050908,8546,0,0,0,0,0,0
8593,-3.19287e-12,9.03514e-38,-1.53782e-06,-3.26761e-12,9.03467e-38,0,0,0,0,-3.50956,0.0728944,0.609376,0,0,0,0,0,-0.408093,0.0728944,243,-87,243,-87,374,-90,252,39,0,-0.0348889,0,-1.5,0,0,0,0,-0.61941,0.121517,0,0,0,0,-0.135285,-0.050908,17688,-0.612781,0.124012,-0.135285,-0.050908,8546,0,0,0,0,0,0
8609,-3.19287e-12,9.03514e-38,-1.53782e-06,-3.26761e-12,9.03467e-38,0,0,0,0,-3.50956,0.0728944,0.609376,0,0,0,0,0,-0.408093,0.0728944,243,-87,243,-87,374,-90,252,39,0,-0.0348889,0,-1.5,0,0,0,0,-0.621575,0.120703,0,0,0,0,-0.135285,-0.050908,17688,-0.612781,0.124012,-0.135285,-0.050908,8546,0,0,0,0,0,0
8631,-3.19287e-12,9.03514e-38,-1.53782e-06,-3.26761e-12,9.03467e-38,0,0,0,0,-3.50956,0.0728944,0.609376,0,0,0,0,0,-0.408093,0.0728944,243,-87,243,-87,374,-90,252,39,0,-0.0348889,0,-1.5,0,0,0,0,-0.624551,0.119583,0,0,0,0,-0.135285,-0.050908,17688,-0.612781,0.124012,-0.135285,-0.050908,8546,0,0,0,0,0,0
8646,-3.19287e-12,9.03514e-38,-1.53782e-06,-3.26761e-12,9.03467e-38,0,0,0,0,-3.50956,0.0728944,0.609376,0,0,0,0,0,-0.408093,0.0728944,243,-87,243,-87,374,-90,252,39,0,-0.0348889,0,-1.5,0,0,0,0,-0.62658,0.118819,0,0,0,0,-0.135285,-0.050908,17688,-0.612781,0.124012,-0.135285,-0.050908,8546,0,0,0,0,0,0
8669,-3.19287e-12,9.03514e-38,-1.53782e-06,-3.26761e-12,9.03467e-38,0,0,0,0,-3.50956,0.0728944,0.609376,0,0,0,0,0,-0.408093,0.0728944,243,-87,243,-87,374,-90,252,39,0,-0.0348889,0,-1.5,0,0,0,0,-0.629692,0.117648,0,0,0,0,-0.135285,-0.050908,17688,-0.612781,0.124012,-0.135285,-0.050908,8546,0,0,0,0,0,0
8690,-3.19287e-12,9.03514e-38,-1.53782e-06,-3.26761e-12,9.03467e-38,0,0,0,0,-3.50956,0.0728944,0.609376,0,0,0,0,0,-0.408093,0.0728944,243,-87,243,-87,374,-90,252,39,0,-0.0348889,0,-1.5,0,0,0,0,-0.632533,0.116579,0,0,0,0,-0.135285,-0.050908,17688,-0.612781,0.124012,-0.135285,-0.050908,8546,0,0,0,0,0,0
8706,-3.19287e-12,9.03514e-38,-1.53782e-06,-3.26761e-12,9.03467e-38,0,0,0,0,-3.50956,0.0728944,0.609376,0,0,0,0,0,-0.408093,0.0728944,243,-87,243,-87,374,-90,252,39,0,-0.0348889,0,-1.5,0,0,0,0,-0.634698,0.115765,0,0,0,0,-0.135285,-0.050908,17688,-0.612781,0.124012,-0.135285,-0.050908,8546,0,0,0,0,0,0
8728,-3.19287e-12,9.03514e-38,-1.53782e-06,-3.26761e-12,9.03467e-38,0,0,0,0,-3.50956,0.0728944,0.609376,0,0,0,0,0,-0.408093,0.0728944,243,-87,243,-87,374,-90,252,39,0,-0.0348889,0,-1.5,0,0,0,0,-0.637674,0.114645,0,0,0,0,-0.135285,-0.050908,17688,-0.612781,0.124012,-0.135285,-0.050908,8546,0,0,0,0,0,0
8744,-3.19287e-12,9.03514e-38,-1.53782e-06,-3.26761e-12,9.03467e-38,0,0,0,0,-3.50956,0.0728944,0.609376,0,0,0,0,0,-0.408093,0.0728944,243,-87,243,-87,374,-90,252,39,0,-0.0348889,0,-1.5,0,0,0,0,-0.639839,0.11383,0,0,0,0,-0.135285,-0.050908,17688,-0.612781,0.124012,-0.135285,-0.050908,8546,0,0,0,0,0,0
8766,-3.19287e-12,9.03514e-38,-1.53782e-06,-3.26761e-12,9.03467e-38,0,0,0,0,-3.50956,0.0728944,0.609376,0,0,0,0,0,-0.408093,0.0728944,243,-87,243,-87,374,-90,252,39,0,-0.0348889,0,-1.5,0,0,0,0,-0.642815,0.11271,0,0,0,0,-0.135285,-0.050908,17688,-0.612781,0.124012,-0.135285,-0.050908,8546,0,0,0,0,0,0
8789,-3.19287e-12,9.03514e-38,-1.53782e-06,-3.26761e-12,9.03467e-38,0,0,0,0,-3.50956,0.0728944,0.609376,0,0,0,0,0,-0.408093,0.0728944,243,-87,243,-87,374,-90,252,39,0,-0.0348889,0,-1.5,0,0,0,0,-0.645791,0.11159,0,0,0,0,-0.135285,-0.050908,17688,-0.612781,0.124012,-0.135285,-0.050908,8546,0,0,0,0,0,0
8804,-3.19287e-12,9.03514e-38,-1.53782e-06,-3.26761e-12,9.03467e-38,0,0,0,0,-3.50956,0.0728944,0.609376,0,0,0,0,0,-0.408093,0.0728944,243,-87,243,-87,374,-90,252,39,0,-0.0348889,0,-1.5,0,0,0,0,-0.647956,0.110776,0,0,0,0,-0.135285,-0.050908,17688,-0.612781,0.124012,-0.135285,-0.050908,8546,0,0,0,0,0,0
8827,-3.19287e-12,9.03514e-38,-1.53782e-06,-3.26761e-12,9.03467e-38,0,0,0,0,-3.50956,0.0728944,0.609376,0,0,0,0,0,-0.408093,0.0728944,243,-87,243,-87,374,-90,252,39,0,-0.0348889,0,-1.5,0,0,0,0,-0.651067,0.109605,0,0,0,0,-0.135285,-0.050908,17688,-0.612781,0.124012,-0.135285,-0.050908,8546,0,0,0,0,0,0
8843,-3.19287e-12,9.03514e-38,-1.53782e-06,-3.26761e-12,9.03467e-38,0,0,0,0,-3.50956,0.0728944,0.609376,0,0,0,0,0,-0.408093,0.0728944,243,-87,243,-87,374,-90,252,39,0,-0.0348889,0,-1.5,0,0,0,0,-0.653232,0.10879,0,0,0,0,-0.135285,-0.050908,17688,-0.612781,0.124012,-0.135285,-0.050908,8546,0,0,0,0,0,0
8865,-3.19287e-12,9.03514e-38,-1.53782e-06,-3.26761e-12,9.03467e-38,0,0,0,0,-3.50956,0.0728944,0.609376,0,0,0,0,0,-0.408093,0.0728944,243,-87,243,-87,374,-90,252,39,0,-0.0348889,0,-1.5,0,0,0,0,-0.656208,0.10767,0,0,0,0,-0.135285,-0.050908,17688,-0.612781,0.124012,-0.135285,-0.050908,8546,0,0,0,0,0,0
8887,-3.19287e-12,9.03514e-38,-1.53782e-06,-3.26761e-12,9.03467e-38,0,0,0,0,-3.50956,0.0728944,0.609376,0,0,0,0,0,-0.408093,0.0728944,243,-87,243,-87,374,-90,252,39,0,-0.0348889,0,-1.5,0,0,0,0,-0.659185,0.10655,0,0,0,0,-0.135285,-0.050908,17688,-0.612781,0.124012,-0.135285,-0.050908,8546,0,0,0,0,0,0
8903,-3.19287e-12,9.03514e-38,-1.53782e-06,-3.26761e-12,9.03467e-38,0,0,0,0,-3.50956,0.0728944,0.609376,0,0,0,0,0,-0.408093,0.0728944,243,-87,243,-87,374,-90,252,39,0,-0.0348889,0,-1.5,0,0,0,0,-0.661349,0.105736,0,0,0,0,-0.135285,-0.050908,17688,-0.612781,0.124012,-0.135285,-0.050908,8546,0,0,0,0,0,0
8926,-3.19287e-12,9.03514e-38,-1.53782e-06,-3.26761e-12,9.03467e-38,0,0,0,0,-3.50956,0.0728944,0.609376,0,0,0,0,0,-0.408093,0.0728944,243,-87,243,-87,374,-90,252,39,0,-0.0348889,0,-1.5,0,0,0,0,-0.664461,0.104565,0,0,0,0,-0.135285,-0.050908,17688,-0.612781,0.124012,-0.135285,-0.050908,8546,0,0,0,0,0,0
8941,-3.19287e-12,9.03514e-38,-1.53782e-06,-3.26761e-12,9.03467e-38,0,0,0,0,-3.50956,0.0728944,0.609376,0,0,0,0,0,-0.408093,0.0728944,243,-87,243,-87,374,-90,252,39,0,-0.0348889,0,-1.5,0,0,0,0,-0.66649,0.103801,0,0,0,0,-0.135285,-0.050908,17688,-0.612781,0.124012,-0.135285,-0.050908,8546,0,0,0,0,0,0
8961,-3.19287e-12,9.03514e-38,-1.53782e-06,-3.26761e-12,9.03467e-38,0,0,0,0,-3.50956,0.0728944,0.609376,0,0,0,0,0,-0.408093,0.0728944,243,-87,243,-87,374,-90,252,39,0,-0.0348889,0,-1.5,0,0,0,0,-0.669196,0.102783,0,0,0,0,-0.135285,-0.050908,17688,-0.612781,0.124012,-0.135285,-0.050908,8546,0,0,0,0,0,0
8977,-3.19287e-12,9.03514e-38,-1.53782e-06,-3.26761e-12,9.03467e-38,0,0,0,0,-3.50956,0.0728944,0.609376,0,0,0,0,0,-0.408093,0.0728944,243,-87,243,-87,374,-90,252,39,0,-0.0348889,0,-1.5,0,0,0,0,-0.671361,0.101968,0,0,0,0,-0.135285,-0.050908,17688,-0.612781,0.124012,-0.135285,-0.050908,8546,0,0,0,0,0,0
8999,-3.19287e-12,9.03514e-38,-1.53782e-06,-3.26761e-12,9.03467e-38,0,0,0,0,-3.50956,0.0728944,0.609376,0,0,0,0,0,-0.408093,0.0728944,243,-87,243,-87,374,-90,252,39,0,-0.0348889,0,-1.5,0,0,0,0,-0.674337,0.100848,0,0,0,0,-0.135285,-0.050908,17688,-0.612781,0.124012,-0.135285,-0.050908,8546,0,0,0,0,0,0
9022,-3.19287e-12,9.03514e-38,-1.53782e-06,-3.26761e-12,9.03467e-38,0,0,0,0,-3.50956,0.0728944,0.609376,0,0,0,0,0,-0.408093,0.0728944,243,-87,243,-87,374,-90,252,39,0,-0.0348889,0,-1.5,0,0,0,0,-0.677449,0.0996775,0,0,0,0,-0.135285,-0.050908,17688,-0.612781,0.124012,-0.135285,-0.050908,8546,0,0,0,0,0,0
9038,-3.19287e-12,9.03514e-38,-1.53782e-06,-3.26761e-12,9.03467e-38,0,0,0,0,-3.50956,0.0728944,0.609376,0,0,0,0,0,-0.408093,0.0728944,243,-87,243,-87,374,-90,252,39,0,-0.0348889,0,-1.5,0,0,0,0,-0.679613,0.098863,0,0,0,0,-0.135285,-0.050908,17688,-0.612781,0.124012,-0.135285,-0.050908,8546,0,0,0,0,0,0
9060,-3.19287e-12,9.03514e-38,-1.53782e-06,-3.26761e-12,9.03467e-38,0,0,0,0,-3.50956,0.0728944,0.609376,-0.682586,0.0977443,-0.134678,-0.0506793,0,-0.408093,0.0728944,243,-87,243,-87,374,-90,252,39,0,-0.0348889,0,-1.5,0,0,0,0,-0.682586,0.0977443,0,0,0,0,-0.134678,-0.0506793,17688,0,0,0,0,8546,0,0,0,0,0,0
9076,-3.19287e-12,9.03514e-38,-1.53782e-06,-3.26761e-12,9.03467e-38,0,0,0,0,-3.50956,0.0728944,0.609376,-0.68473,0.0969377,-0.133603,-0.050275,0,-0.408093,0.0728944,243,-87,243,-87,374,-90,252,39,0,-0.0348889,0,-1.5,0,0,0,0,-0.68473,0.0969377,0,0,0,0,-0.133603,-0.050275,17688,0,0,0,0,8546,0,0,0,0,0,0
9104,-3.19287e-12,9.03514e-38,-1.53782e-06,-3.26761e-12,9.03467e-38,0,0,0,0,-3.50956,0.0728944,0.609376,-0.68843,0.095545,-0.131739,-0.0495735,0,-0.408093,0.0728944,243,-87,243,-87,374,-90,252,39,0,-0.0348889,0,-1.5,0,0,0,0,-0.68843,0.095545,0,0,0,0,-0.131739,-0.0495735,17688,0,0,0,0,8546,0,0,0,0,0,0
9126,-3.19287e-12,9.03514e-38,-1.53782e-06,-3.26761e-12,9.03467e-38,0,0,0,0,-3.50956,0.0728944,0.609376,-0.691176,0.0945117,-0.13036,-0.0490545,0,-0.408093,0.0728944,243,-87,243,-87,374,-90,252,39,0,-0.0348889,0,-1.5,0,0,0,0,-0.691176,0.0945117,0,0,0,0,-0.13036,-0.0490545,17688,0,0,0,0,8546,0,0,0,0,0,0
9141,-3.19287e-12,9.03514e-38,-1.53782e-06,-3.26761e-12,9.03467e-38,0,0,0,0,-3.50956,0.0728944,0.609376,-0.693251,0.093731,-0.12932,-0.0486632,0,-0.408093,0.0728944,243,-87,243,-87,374,-90,252,39,0,-0.0348889,0,-1.5,0,0,0,0,-0.693251,0.093731,0,0,0,0,-0.12932,-0.0486632,17688,0,0,0,0,8546,0,0,0,0,0,0
9162,-3.19287e-12,9.03514e-38,-1.53782e-06,-3.26761e-12,9.03467e-38,0,0,0,0,-3.50956,0.0728944,0.609376,-0.695947,0.0927164,-0.127966,-0.0481539,0,-0.408093,0.0728944,243,-87,243,-87,374,-90,252,39,0,-0.0348889,0,-1.5,0,0,0,0,-0.695947,0.0927164,0,0,0,0,-0.127966,-0.0481539,17688,0,0,0,0,8546,0,0,0,0,0,0
9178,-3.19287e-12,9.03514e-38,-1.53782e-06,-3.26761e-12,9.03467e-38,0,0,0,0,-3.50956,0.0728944,0.609376,-0.697984,0.09195,-0.126945,-0.0477697,0,-0.408093,0.0728944,243,-87,243,-87,374,-90,252,39,0,-0.0348889,0,-1.5,0,0,0,0,-0.697984,0.09195,0,0,0,0,-0.126945,-0.0477697,17688,0,0,0,0,8546,0,0,0,0,0,0
9200,-3.19287e-12,9.03514e-38,-1.53782e-06,-3.26761e-12,9.03467e-38,0,0,0,0,-3.50956,0.0728944,0.609376,-0.700755,0.0909071,-0.125554,-0.047246,0,-0.408093,0.0728944,243,-87,243,-87,374,-90,252,39,0,-0.0348889,0,-1.5,0,0,0,0,-0.700755,0.0909071,0,0,0,0,-0.125554,-0.047246,17688,0,0,0,0,8546,0,0,0,0,0,0
9220,-3.19287e-12,9.03514e-38,-1.53782e-06,-3.26761e-12,9.03467e-38,0,0,0,0,-3.50956,0.0728944,0.609376,-0.703249,0.0899688,-0.124302,-0.0467749,0,-0.408093,0.0728944,243,-87,243,-87,374,-90,252,39,0,-0.0348889,0,-1.5,0,0,0,0,-0.703249,0.0899688,0,0,0,0,-0.124302,-0.0467749,17688,0,0,0,0,8546,0,0,0,0,0,0
9236,-3.19287e-12,9.03514e-38,-1.53782e-06,-3.26761e-12,9.03467e-38,0,0,0,0,-3.50956,0.0728944,0.609376,-0.705228,0.0892242,-0.12331,-0.0464018,0,-0.408093,0.0728944,243,-87,243,-87,374,-90,252,39,0,-0.0348889,0,-1.5,0,0,0,0,-0.705228,0.0892242,0,0,0,0,-0.12331,-0.0464018,17688,0,0,0,0,8546,0,0,0,0,0,0
9257,-3.19287e-12,9.03514e-38,-1.53782e-06,-3.26761e-12,9.03467e-38,0,0,0,0,-3.50956,0.0728944,0.609376,-0.707798,0.088257,-0.12202,-0.0459161,0,-0.408093,0.0728944,243,-87,243,-87,374,-90,252,39,0,-0.0348889,0,-1.5,0,0,0,0,-0.707798,0.088257,0,0,0,0,-0.12202,-0.0459161,17688,0,0,0,0,8546,0,0,0,0,0,0
9273,-3.19287e-12,9.03514e-38,-1.53782e-06,-3.26761e-12,9.03467e-38,0,0,0,0,-3.50956,0.0728944,0.609376,-0.70974,0.0875262,-0.121046,-0.0455498,0,-0.408093,0.0728944,243,-87,243,-87,374,-90,252,39,0,-0.0348889,0,-1.5,0,0,0,0,-0.70974,0.0875262,0,0,0,0,-0.121046,-0.0455498,17688,0,0,0,0,8546,0,0,0,0,0,0
9294,-3.19287e-12,9.03514e-38,-1.53782e-06,-3.26761e-12,9.03467e-38,0,0,0,0,-3.50956,0.0728944,0.609376,-0.712263,0.0865768,-0.119779,-0.045073,0,-0.408093,0.0728944,243,-87,243,-87,374,-90,252,39,0,-0.0348889,0,-1.5,0,0,0,0,-0.712263,0.0865768,0,0,0,0,-0.119779,-0.045073,17688,0,0,0,0,8546,0,0,0,0,0,0
9316,-3.19287e-12,9.03514e-38,-1.53782e-06,-3.26761e-12,9.03467e-38,0,0,0,0,-3.50956,0.0728944,0.609376,-0.714878,0.0855928,-0.118466,-0.0445788,0,-0.408093,0.0728944,243,-87,243,-87,374,-90,252,39,0,-0.0348889,0,-1.5,0,0,0,0,-0.714878,0.0855928,0,0,0,0,-0.118466,-0.0445788,17688,0,0,0,0,8546,0,0,0,0,0,0
9331,-3.19287e-12,9.03514e-38,-1.53782e-06,-3.26761e-12,9.03467e-38,0,0,0,0,-3.50956,0.0728944,0.609376,-0.716646,0.0849273,-0.11758,-0.0442454,0,-0.408093,0.0728944,243,-87,243,-87,374,-90,252,39,0,-0.0348889,0,-1.5,0,0,0,0,-0.716646,0.0849273,0,0,0,0,-0.11758,-0.0442454,17688,0,0,0,0,8546,0,0,0,0,0,0
9353,-3.19287e-12,9.03514e-38,-1.53782e-06,-3.26761e-12,9.03467e-38,0,0,0,0,-3.50956,0.0728944,0.609376,-0.719213,0.0839614,-0.116291,-0.0437603,0,-0.408093,0.0728944,243,-87,243,-87,374,-90,252,39,0,-0.0348889,0,-1.5,0,0,0,0,-0.719213,0.0839614,0,0,0,0,-0.116291,-0.0437603,17688,0,0,0,0,8546,0,0,0,0,0,0
9369,-3.19287e-12,9.03514e-38,-1.53782e-06,-3.26761e-12,9.03467e-38,0,0,0,0,-3.50956,0.0728944,0.609376,-0.720949,0.0833081,-0.115421,-0.0434329,0,-0.408093,0.0728944,243,-87,243,-87,374,-90,252,39,0,-0.0348889,0,-1.5,0,0,0,0,-0.720949,0.0833081,0,0,0,0,-0.115421,-0.0434329,17688,0,0,0,0,8546,0,0,0,0,0,0
9390,-3.19287e-12,9.03514e-38,-1.53782e-06,-3.26761e-12,9.03467e-38,0,0,0,0,-3.50956,0.0728944,0.609376,-0.723468,0.0823601,-0.114155,-0.0429567,0,-0.408093,0.0728944,243,-87,243,-87,374,-90,252,39,0,-0.0348889,0,-1.5,0,0,0,0,-0.723468,0.0823601,0,0,0,0,-0.114155,-0.0429567,17688,0,0,0,0,8546,0,0,0,0,0,0
9411,-3.19287e-12,9.03514e-38,-1.53782e-06,-3.26761e-12,9.03467e-38,0,0,0,0,-3.50956,0.0728944,0.609376,-0.725848,0.0814646,-0.11296,-0.0425071,0,-0.408093,0.0728944,243,-87,243,-87,374,-90,252,39,0,-0.0348889,0,-1.5,0,0,0,0,-0.725848,0.0814646,0,0,0,0,-0.11296,-0.0425071,17688,0,0,0,0,8546,0,0,0,0,0,0
9426,-3.19287e-12,9.03514e-38,-1.53782e-06,-3.26761e-12,9.03467e-38,0,0,0,0,-3.50956,0.0728944,0.609376,-0.727535,0.08083,-0.112115,-0.0421891,0,-0.408093,0.0728944,243,-87,243,-87,374,-90,252,39,0,-0.0348889,0,-1.5,0,0,0,0,-0.727535,0.08083,0,0,0,0,-0.112115,-0.0421891,17688,0,0,0,0,8546,0,0,0,0,0,0
9448,-3.19287e-12,9.03514e-38,-1.53782e-06,-3.26761e-12,9.03467e-38,0,0,0,0,-3.50956,0.0728944,0.609376,-0.729982,0.0799092,-0.110886,-0.0417265,0,-0.408093,0.0728944,243,-87,243,-87,374,-90,252,39,0,-0.0348889,0,-1.5,0,0,0,0,-0.729982,0.0799092,0,0,0,0,-0.110886,-0.0417265,17688,0,0,0,0,8546,0,0,0,0,0,0
9463,-3.19287e-12,9.03514e-38,-1.53782e-06,-3.26761e-12,9.03467e-38,0,0,0,0,-3.50956,0.0728944,0.609376,-0.731637,0.0792862,-0.110057,-0.0414144,0,-0.408093,0.0728944,243,-87,243,-87,374,-90,252,39,0,-0.0348889,0,-1.5,0,0,0,0,-0.731637,0.0792862,0,0,0,0,-0.110057,-0.0414144,17688,0,0,0,0,8546,0,0,0,0,0,0
9484,-3.19287e-12,9.03514e-38,-1.53782e-06,-3.26761e-12,9.03467e-38,0,0,0,0,-3.50956,0.0728944,0.609376,-0.733932,0.0784228,-0.108905,-0.040981,0,-0.408093,0.0728944,243,-87,243,-87,374,-90,252,39,0,-0.0348889,0,-1.5,0,0,0,0,-0.733932,0.0784228,0,0,0,0,-0.108905,-0.040981,17688,0,0,0,0,8546,0,0,0,0,0,0
9505,-3.19287e-12,9.03514e-38,-1.53782e-06,-3.26761e-12,9.03467e-38,0,0,0,0,-3.50956,0.0728944,0.609376,-0.736202,0.0775684,-0.107765,-0.0405521,0,-0.408093,0.0728944,243,-87,243,-87,374,-90,252,39,0,-0.0348889,0,-1.5,0,0,0,0,-0.736202,0.0775684,0,0,0,0,-0.107765,-0.0405521,17688,0,0,0,0,8546,0,0,0,0,0,0
9520,-3.19287e-12,9.03514e-38,-1.53782e-06,-3.26761e-12,9.03467e-38,0,0,0,0,-3.50956,0.0728944,0.609376,-0.737811,0.0769631,-0.106959,-0.0402488,0,-0.408093,0.0728944,243,-87,243,-87,374,-90,252,39,0,-0.0348889,0,-1.5,0,0,0,0,-0.737811,0.0769631,0,0,0,0,-0.106959,-0.0402488,17688,0,0,0,0,8546,0,0,0,0,0,0
9542,-3.19287e-12,9.03514e-38,-1.53782e-06,-3.26761e-12,9.03467e-38,0,0,0,0,-3.50956,0.0728944,0.609376,-0.74004,0.0761241,-0.105839,-0.0398274,0,-0.408093,0.0728944,243,-87,243,-87,374,-90,252,39,0,-0.0348889,0,-1.5,0,0,0,0,-0.74004,0.0761241,0,0,0,0,-0.105839,-0.0398274,17688,0,0,0,0,8546,0,0,0,0,0,0
9557,-3.19287e-12,9.03514e-38,-1.53782e-06,-3.26761e-12,9.03467e-38,0,0,0,0,-3.50956,0.0728944,0.609376,-0.741725,0.0754902,-0.104995,-0.0395097,0,-0.408093,0.0728944,243,-87,243,-87,374,-90,252,39,0,-0.0348889,0,-1.5,0,0,0,0,-0.741725,0.0754902,0,0,0,0,-0.104995,-0.0395097,17688,0,0,0,0,8546,0,0,0,0,0,0
9578,-3.19287e-12,9.03514e-38,-1.53782e-06,-3.26761e-12,9.03467e-38,0,0,0,0,-3.50956,0.0728944,0.609376,-0.743913,0.0746667,-0.103896,-0.0390961,0,-0.408093,0.0728944,243,-87,243,-87,374,-90,252,39,0,-0.0348889,0,-1.5,0,0,0,0,-0.743913,0.0746667,0,0,0,0,-0.103896,-0.0390961,17688,0,0,0,0,8546,0,0,0,0,0,0
9594,-3.19287e-12,9.03514e-38,-1.53782e-06,-3.26761e-12,9.03467e-38,0,0,0,0,-3.50956,0.0728944,0.609376,-0.745567,0.0740444,-0.103067,-0.0387843,0,-0.408093,0.0728944,243,-87,243,-87,374,-90,252,39,0,-0.0348889,0,-1.5,0,0,0,0,-0.745567,0.0740444,0,0,0,0,-0.103067,-0.0387843,17688,0,0,0,0,8546,0,0,0,0,0,0
9615,-3.19287e-12,9.03514e-38,-1.53782e-06,-3.26761e-12,9.03467e-38,0,0,0,0,-3.50956,0.0728944,0.609376,-0.747716,0.073236,-0.101988,-0.0383783,0,-0.408093,0.0728944,243,-87,243,-87,374,-90,252,39,0,-0.0348889,0,-1.5,0,0,0,0,-0.747716,0.073236,0,0,0,0,-0.101988,-0.0383783,17688,0,0,0,0,8546,0,0,0,0,0,0
9636,-3.19287e-12,9.03514e-38,-1.53782e-06,-3.26761e-12,9.03467e-38,0,0,0,0,-3.50956,0.0728944,0.609376,-0.749841,0.072436,-0.100921,-0.0379765,0,-0.408093,0.0728944,243,-87,243,-87,374,-90,252,39,0,-0.0348889,0,-1.5,0,0,0,0,-0.749841,0.072436,0,0,0,0,-0.100921,-0.0379765,17688,0,0,0,0,8546,0,0,0,0,0,0
9653,-3.19287e-12,9.03514e-38,-1.53782e-06,-3.26761e-12,9.03467e-38,0,0,0,0,-3.50956,0.0728944,0.609376,-0.751547,0.0717941,-0.100065,-0.0376546,0,-0.408093,0.0728944,243,-87,243,-87,374,-90,252,39,0,-0.0348889,0,-1.5,0,0,0,0,-0.751547,0.0717941,0,0,0,0,-0.100065,-0.0376546,17688,0,0,0,0,8546,0,0,0,0,0,0
9674,-3.19287e-12,9.03514e-38,-1.53782e-06,-3.26761e-12,9.03467e-38,0,0,0,0,-3.50956,0.0728944,0.609376,-0.753634,0.071009,-0.0990179,-0.0372605,0,-0.408093,0.0728944,243,-87,243,-87,374,-90,252,39,0,-0.0348889,0,-1.5,0,0,0,0,-0.753634,0.071009,0,0,0,0,-0.0990179,-0.0372605,17688,0,0,0,0,8546,0,0,0,0,0,0
9689,-3.19287e-12,9.03514e-38,-1.53782e-06,-3.26761e-12,9.03467e-38,0,0,0,0,-3.50956,0.0728944,0.609376,-0.755112,0.0704528,-0.0982772,-0.0369818,0,-0.408093,0.0728944,243,-87,243,-87,374,-90,252,39,0,-0.0348889,0,-1.5,0,0,0,0,-0.755112,0.0704528,0,0,0,0,-0.0982772,-0.0369818,17688,0,0,0,0,8546,0,0,0,0,0,0
9711,-3.19287e-12,9.03514e-38,-1.53782e-06,-3.26761e-12,9.03467e-38,0,0,0,0,-3.50956,0.0728944,0.609376,-0.757257,0.0696454,-0.0971998,-0.0365764,0,-0.408093,0.0728944,243,-87,243,-87,374,-90,252,39,0,-0.0348889,0,-1.5,0,0,0,0,-0.757257,0.0696454,0,0,0,0,-0.0971998,-0.0365764,17688,0,0,0,0,8546,0,0,0,0,0,0
9731,-3.19287e-12,9.03514e-38,-1.53782e-06,-3.26761e-12,9.03467e-38,0,0,0,0,-3.50956,0.0728944,0.609376,-0.759188,0.068919,-0.0962307,-0.0362117,0,-0.408093,0.0728944,243,-87,243,-87,374,-90,252,39,0,-0.0348889,0,-1.5,0,0,0,0,-0.759188,0.068919,0,0,0,0,-0.0962307,-0.0362117,17688,0,0,0,0,8546,0,0,0,0,0,0
9747,-3.19287e-12,9.03514e-38,-1.53782e-06,-3.26761e-12,9.03467e-38,0,0,0,0,-3.50956,0.0728944,0.609376,-0.760719,0.0683427,-0.095463,-0.0359228,0,-0.408093,0.0728944,243,-87,243,-87,374,-90,252,39,0,-0.0348889,0,-1.5,0,0,0,0,-0.760719,0.0683427,0,0,0,0,-0.095463,-0.0359228,17688,0,0,0,0,8546,0,0,0,0,0,0
9768,-3.19287e-12,9.03514e-38,-1.53782e-06,-3.26761e-12,9.03467e-38,0,0,0,0,-3.50956,0.0728944,0.609376,-0.762709,0.0675939,-0.0944636,-0.0355468,0,-0.408093,0.0728944,243,-87,243,-87,374,-90,252,39,0,-0.0348889,0,-1.5,0,0,0,0,-0.762709,0.0675939,0,0,0,0,-0.0944636,-0.0355468,17688,0,0,0,0,8546,0,0,0,0,0,0
9784,-3.19287e-12,9.03514e-38,-1.53782e-06,-3.26761e-12,9.03467e-38,0,0,0,0,-3.50956,0.0728944,0.609376,-0.764212,0.0670281,-0.09371,-0.0352632,0,-0.408093,0.0728944,243,-87,243,-87,374,-90,252,39,0,-0.0348889,0,-1.5,0,0,0,0,-0.764212,0.0670281,0,0,0,0,-0.09371,-0.0352632,17688,0,0,0,0,8546,0,0,0,0,0,0
9805,-3.19287e-12,9.03514e-38,-1.53782e-06,-3.26761e-12,9.03467e-38,0,0,0,0,-3.50956,0.0728944,0.609376,-0.766166,0.0662931,-0.0927291,-0.0348941,0,-0.408093,0.0728944,243,-87,243,-87,374,-90,252,39,0,-0.0348889,0,-1.5,0,0,0,0,-0.766166,0.0662931,0,0,0,0,-0.0927291,-0.0348941,17688,0,0,0,0,8546,0,0,0,0,0,0
9826,-3.19287e-12,9.03514e-38,-1.53782e-06,-3.26761e-12,9.03467e-38,0,0,0,0,-3.50956,0.0728944,0.609376,-0.768099,0.0655658,-0.0917584,-0.0345288,0,-0.408093,0.0728944,243,-87,243,-87,374,-90,252,39,0,-0.0348889,0,-1.5,0,0,0,0,-0.768099,0.0655658,0,0,0,0,-0.0917584,-0.0345288,17688,0,0,0,0,8546,0,0,0,0,0,0
9842,-3.19287e-12,9.03514e-38,-1.53782e-06,-3.26761e-12,9.03467e-38,0,0,0,0,-3.50956,0.0728944,0.609376,-0.769559,0.0650163,-0.0910263,-0.0342533,0,-0.408093,0.0728944,243,-87,243,-87,374,-90,252,39,0,-0.0348889,0,-1.5,0,0,0,0,-0.769559,0.0650163,0,0,0,0,-0.0910263,-0.0342533,17688,0,0,0,0,8546,0,0,0,0,0,0
9864,-3.19287e-12,9.03514e-38,-1.53782e-06,-3.26761e-12,9.03467e-38,0,0,0,0,-3.50956,0.0728944,0.609376,-0.771456,0.0643023,-0.0900734,-0.0338948,0,-0.408093,0.0728944,243,-87,243,-87,374,-90,252,39,0,-0.0348889,0,-1.5,0,0,0,0,-0.771456,0.0643023,0,0,0,0,-0.0900734,-0.0338948,17688,0,0,0,0,8546,0,0,0,0,0,0
9880,-3.19287e-12,9.03514e-38,-1.53782e-06,-3.26761e-12,9.03467e-38,0,0,0,0,-3.50956,0.0728944,0.609376,-0.772979,0.0637292,-0.0893101,-0.0336075,0,-0.408093,0.0728944,243,-87,243,-87,374,-90,252,39,0,-0.0348889,0,-1.5,0,0,0,0,-0.772979,0.0637292,0,0,0,0,-0.0893101,-0.0336075,17688,0,0,0,0,8546,0,0,0,0,0,0
9901,-3.19287e-12,9.03514e-38,-1.53782e-06,-3.26761e-12,9.03467e-38,0,0,0,0,-3.50956,0.0728944,0.609376,-0.774841,0.0630286,-0.0883754,-0.0332558,0,-0.408093,0.0728944,243,-87,243,-87,374,-90,252,39,0,-0.0348889,0,-1.5,0,0,0,0,-0.774841,0.0630286,0,0,0,0,-0.0883754,-0.0332558,17688,0,0,0,0,8546,0,0,0,0,0,0
9922,-3.19287e-12,9.03514e-38,-1.53782e-06,-3.26761e-12,9.03467e-38,0,0,0,0,-3.50956,0.0728944,0.609376,-0.776684,0.0623352,-0.0874505,-0.0329078,0,-0.408093,0.0728944,243,-87,243,-87,374,-90,252,39,0,-0.0348889,0,-1.5,0,0,0,0,-0.776684,0.0623352,0,0,0,0,-0.0874505,-0.0329078,17688,0,0,0,0,8546,0,0,0,0,0,0
9937,-3.19287e-12,9.03514e-38,-1.53782e-06,-3.26761e-12,9.03467e-38,0,0,0,0,-3.50956,0.0728944,0.609376,-0.777989,0.061844,-0.0867964,-0.0326616,0,-0.408093,0.0728944,243,-87,243,-87,374,-90,252,39,0,-0.0348889,0,-1.5,0,0,0,0,-0.777989,0.061844,0,0,0,0,-0.0867964,-0.0326616,17688,0,0,0,0,8546,0,0,0,0,0,0
9959,-3.19287e-12,9.03514e-38,-1.53782e-06,-3.26761e-12,9.03467e-38,0,0,0,0,-3.50956,0.0728944,0.609376,-0.779883,0.0611311,-0.0858446,-0.0323034,0,-0.408093,0.0728944,243,-87,243,-87,374,-90,252,39,0,-0.0348889,0,-1.5,0,0,0,0,-0.779883,0.0611311,0,0,0,0,-0.0858446,-0.0323034,17688,0,0,0,0,8546,0,0,0,0,0,0
9974,-3.19287e-12,9.03514e-38,-1.53782e-06,-3.26761e-12,9.03467e-38,0,0,0,0,-3.50956,0.0728944,0.609376,-0.781165,0.0606489,-0.0852025,-0.0320618,0,-0.408093,0.0728944,243,-87,243,-87,374,-90,252,39,0,-0.0348889,0,-1.5,0,0,0,0,-0.781165,0.0606489,0,0,0,0,-0.0852025,-0.0320618,17688,0,0,0,0,8546,0,0,0,0,0,0
9994,-3.19287e-12,9.03514e-38,-1.53782e-06,-3.26761e-12,9.03467e-38,0,0,0,0,-3.50956,0.0728944,0.609376,-0.782857,0.0600121,-0.084353,-0.0317421,0,-0.408093,0.0728944,243,-87,243,-87,374,-90,252,39,0,-0.0348889,0,-1.5,0,0,0,0,-0.782857,0.0600121,0,0,0,0,-0.084353,-0.0317421,17688,0,0,0,0,8546,0,0,0,0,0,0
10016,-3.19287e-12,9.03514e-38,-1.53782e-06,-3.26761e-12,9.03467e-38,0,0,0,0,-3.50956,0.0728944,0.609376,-0.784698,0.0593192,-0.0834282,-0.0313942,0,-0.408093,0.0728944,243,-87,243,-87,374,-90,252,39,0,-0.0348889,0,-1.5,0,0,0,0,-0.784698,0.0593192,0,0,0,0,-0.0834282,-0.0313942,17688,0,0,0,0,8546,0,0,0,0,0,0
10032,-3.19287e-12,9.03514e-38,-1.53782e-06,-3.26761e-12,9.03467e-38,0,0,0,0,-3.50956,0.0728944,0.609376,-0.785944,0.0588505,-0.0828042,-0.0311593,0,-0.408093,0.0728944,243,-87,243,-87,374,-90,252,39,0,-0.0348889,0,-1.5,0,0,0,0,-0.785944,0.0588505,0,0,0,0,-0.0828042,-0.0311593,17688,0,0,0,0,8546,0,0,0,0,0,0
10053,-3.19287e-12,9.03514e-38,-1.53782e-06,-3.26761e-12,9.03467e-38,0,0,0,0,-3.50956,0.0728944,0.609376,-0.787751,0.0581703,-0.0818964,-0.0308177,0,-0.408093,0.0728944,243,-87,243,-87,374,-90,252,39,0,-0.0348889,0,-1.5,0,0,0,0,-0.787751,0.0581703,0,0,0,0,-0.0818964,-0.0308177,17688,0,0,0,0,8546,0,0,0,0,0,0
10069,-3.19287e-12,9.03514e-38,-1.53782e-06,-3.26761e-12,9.03467e-38,0,0,0,0,-3.50956,0.0728944,0.609376,-0.789055,0.0576797,-0.0812431,-0.0305719,0,-0.408093,0.0728944,243,-87,243,-87,374,-90,252,39,0,-0.0348889,0,-1.5,0,0,0,0,-0.789055,0.0576797,0,0,0,0,-0.0812431,-0.0305719,17688,0,0,0,0,8546,0,0,0,0,0,0
