timestamp,A_x,A_y,A_z,P,Q,R,Phi,Theta,Psi,poseX,poseY,poseZ,state_X,state_Y,state_Z,state_VzB,state_Bx,state_By,state_Bz,p1_x,p1_y,p2_x,p2_y,p3_x,p3_y,p4_x,p4_y,roll,pitch,yaw,alt,targetHeading,highLevelState,lowLevelState,gateNumber,filtered_x,filtered_y,x_OT,y_OT,vx_OT,vy_OTfiltered_vx,filtered_vy
10,0,0,0,0,0,0,0,0,0,0,0,0,0,0,0,0,0,0,0,0,0,0,0,0,0,0,0,0,-0.261799,0.00779127,-1.5,nan,0,0,3,0,0,0,0,0,0,0,0
20,0,0,0,0,0,0,0,0,0,0,0,0,0,0,0,0,0,0,0,0,0,0,0,0,0,0,0,0,-0.261799,0.00752934,-1.5,nan,0,0,3,0,0,0,0,0,0,0,0
30,-3.1147e-12,0,-1.50289e-06,-3.18057e-12,0,-3.59732e-12,-1.06589e-13,0,0,0,0,0,0,0,0,0,0,0,0,0,0,0,0,0,0,0,0,0,-0.261799,0.00178952,-1.5,nan,0,0,3,0,0,0,0,0,0,0,0
40,-3.1147e-12,0,-1.50289e-06,-3.18057e-12,0,0,-1.0659e-13,0,0,0,0,0,0,0,0,0,0,0,0,0,0,0,0,0,0,0,0,0,-0.261799,0.00174697,-1.5,nan,0,0,3,0,0,0,0,0,0,0,0
50,-3.1147e-12,0,-1.50289e-06,-3.18057e-12,0,-3.59732e-12,-1.0659e-13,0,0,0,0,0,0,0,0,0,0,0,0,0,0,0,0,0,0,0,0,0,-0.261799,0.00167456,-1.5,nan,0,0,3,0,0,0,0,0,0,0,0
60,-3.1147e-12,0,-1.50289e-06,-3.18057e-12,0,0,-1.0659e-13,0,0,0,0,0,0,0,0,0,0,0,0,0,0,0,0,0,0,0,0,0,-0.261799,0.00161172,-1.5,nan,0,0,3,0,0,0,0,0,0,0,0
70,-3.1147e-12,0,-1.50289e-06,-3.18057e-12,0,-3.59732e-12,-1.0659e-13,0,0,0,0,0,0,0,0,0,0,0,0,0,0,0,0,0,0,0,0,0,-0.261799,0.00154802,-1.5,nan,0,0,3,0,0,0,0,0,0,0,0
80,-3.1147e-12,0,-1.50289e-06,-3.18057e-12,0,0,-1.06591e-13,0,0,0,0,0,0,0,0,0,0,0,0,0,0,0,0,0,0,0,0,0,-0.261799,0.00148386,-1.5,nan,0,0,3,0,0,0,0,0,0,0,0
90,-3.1147e-12,0,-1.50289e-06,-3.18057e-12,0,-3.59732e-12,-1.06591e-13,0,0,0,0,0,0,0,0,0,0,0,0,0,0,0,0,0,0,0,0,0,-0.261799,0.00130576,-1.5,nan,0,0,3,0,0,0,0,0,0,0,0
100,-3.1147e-12,0,-1.50289e-06,-3.18057e-12,0,0,-1.06591e-13,0,0,0,0,0,0,0,0,0,0,0,0,0,0,0,0,0,0,0,0,0,-0.261799,0.00125673,-1.5,nan,0,0,3,0,0,0,0,0,0,0,0
110,-3.1147e-12,0,-1.50289e-06,-3.18057e-12,0,-3.59732e-12,-1.06591e-13,0,0,-3.26293,0.135618,-0.0749794,0,0,0,0,0,-0.434592,0.135618,-1368345752,-1368345752,-1368345752,-1368345752,-1368345712,-2005826688,-355506120,-1368345712,0,-0.261799,0.00117985,-1.5,nan,0,0,3,0,0,0,0,0,0,0,0
120,-3.1147e-12,0,-1.50289e-06,-3.18057e-12,0,0,-1.06592e-13,0,0,-3.24719,0.147376,-0.06834,0,0,0,0,0,-0.418054,0.147376,-1368345752,-1368345752,-1368345752,-1368345752,-1368345712,-2005826688,-355506120,-1368345712,0,-0.261799,0.0011309,-1.5,nan,0,0,3,0,0,0,0,0,0,0,0
130,-3.1147e-12,0,-1.50289e-06,-3.18057e-12,0,-3.59732e-12,-1.06592e-13,0,0,-3.24719,0.147376,-0.06834,0,0,0,0,0,-0.418054,0.147376,-1368345752,-1368345752,-1368345752,-1368345752,-1368345712,-2005826688,-355506120,-1368345712,0,-0.261799,0.00108397,-1.5,nan,0,0,3,0,0,0,0,0,0,0,0
140,-3.1147e-12,0,-1.50289e-06,-3.18057e-12,0,0,-1.06592e-13,0,0,-3.24719,0.147376,-0.06834,0,0,0,0,0,-0.418054,0.147376,-1368345752,-1368345752,-1368345752,-1368345752,-1368345712,-2005826688,-355506120,-1368345712,0,-0.261799,0.00104327,-1.5,nan,0,0,3,0,0,0,0,0,0,0,0
150,-3.1147e-12,0,-1.50289e-06,-3.18057e-12,0,-3.59732e-12,-1.06593e-13,0,0,-3.22207,0.152894,-0.0783539,0,0,0,0,0,-0.40725,0.152894,-1368345752,-1368345752,-1368345752,-1368345752,-1368345712,-2005826688,-355506120,-1368345712,0,-0.261799,0.00100203,-1.5,nan,0,0,3,0,0,0,0,0,0,0,0
160,-3.1147e-12,0,-1.50289e-06,-3.18057e-12,0,0,-1.06593e-13,0,0,-3.27108,0.169499,-0.0567655,0,0,0,0,0,-0.396103,0.169499,-1368345752,-1368345752,-1368345752,-1368345752,-1368345712,-2005826688,-355506120,-1368345712,0,-0.261799,0.00095853,-1.5,nan,0,0,3,0,0,0,0,0,0,0,0
170,-3.1147e-12,0,-1.50289e-06,-3.18057e-12,0,-3.59732e-12,-1.06593e-13,0,0,-3.27108,0.169499,-0.0567655,0,0,0,0,0,-0.396103,0.169499,-1368345752,-1368345752,-1368345752,-1368345752,-1368345712,-2005826688,-355506120,-1368345712,0,-0.261799,0.000924419,-1.5,nan,0,0,3,0,0,0,0,0,0,0,0
180,-3.1147e-12,0,-1.50289e-06,-3.18057e-12,0,0,-1.06593e-13,0,0,-3.25619,0.175562,-0.0691693,0,0,0,0,0,-0.386405,0.175562,-1368345752,-1368345752,-1368345752,-1368345752,-1368345712,-2005826688,-355506120,-1368345712,-0.261799,-0.261799,0.000871575,-1.5,nan,0,0,3,-0.383026,0.182318,0,0,0,0,0.233518,0.232944
190,-3.1147e-12,0,-1.50289e-06,-3.18057e-12,0,-3.59732e-12,-1.06594e-13,0,0,-3.26053,0.1801,-0.05979,0,0,0,0,0,-0.38181,0.1801,-1368345752,-1368345752,-1368345752,-1368345752,-1368345712,-2005826688,-355506120,-1368345712,-0.261799,-0.261799,0.000831982,-1.5,nan,0,0,3,-0.376252,0.187675,0,0,0,0,0.241628,0.232944
200,-3.1147e-12,0,-1.50289e-06,-3.18057e-12,0,0,-1.06594e-13,0,0,-3.26053,0.1801,-0.05979,0,0,0,0,0,-0.38181,0.1801,-1368345752,-1368345752,-1368345752,-1368345752,-1368345712,-2005826688,-355506120,-1368345712,-0.261799,-0.261799,0.000802375,-1.5,nan,0,0,3,-0.371903,0.191868,0,0,0,0,0.241628,0.232944
210,-3.1147e-12,0,-1.50289e-06,-3.18057e-12,0,-3.59732e-12,-1.06594e-13,0,0,-3.25241,0.179908,-0.0707994,0,0,0,0,0,-0.380638,0.179908,-1368345752,-1368345752,-1368345752,-1368345752,-1368345712,-2005826688,-355506120,-1368345712,-0.261799,-0.261799,0.000778578,-1.5,nan,0,0,3,-0.369949,0.192317,0,0,0,0,0.233518,0.21816
220,-3.1147e-12,0,-1.50289e-06,-3.18057e-12,0,0,-1.06594e-13,0,0,-3.25241,0.179908,-0.0707994,0,0,0,0,0,-0.380638,0.179908,-1368345752,-1368345752,-1368345752,-1368345752,-1368345712,-2005826688,-355506120,-1368345712,-0.261799,-0.261799,0.000750893,-1.5,nan,0,0,3,-0.365746,0.196244,0,0,0,0,0.233518,0.21816
230,-3.1147e-12,0,-1.50289e-06,-3.18057e-12,0,-3.59732e-12,-1.06595e-13,0,0,-3.21737,0.170831,-0.0600281,0,0,0,0,0,-0.385302,0.170831,-1368345752,-1368345752,-1368345752,-1368345752,-1368345712,-2005826688,-355506120,-1368345712,-0.261799,-0.261799,0.000712393,-1.5,nan,0,0,3,-0.370084,0.189084,0,0,0,0,0.191878,0.166831
240,-3.1147e-12,0,-1.50289e-06,-3.18057e-12,0,0,-1.06598e-13,0,0,-3.24839,0.179449,-0.0333924,0,0,0,0,0,-0.380487,0.179449,-1368345752,-1368345752,-1368345752,-1368345752,-1368345712,-2005826688,-355506120,-1368345712,-0.261799,-0.261799,0.000675824,-1.5,nan,0,0,3,-0.364993,0.186725,0,0,0,0,0.192979,0.138451
250,-3.1147e-12,0,-1.50289e-06,-3.18057e-12,0,-3.59732e-12,-1.06598e-13,0,0,-3.22832,0.185737,-0.0528931,0,0,0,0,0,-0.369622,0.185737,-1368345752,-1368345752,-1368345752,-1368345752,-1368345712,-2005826688,-355506120,-1368345712,-0.261799,-0.261799,0.000646526,-1.5,nan,0,0,3,-0.368766,0.186321,0,0,0,0,0.161238,0.127294
260,-3.1147e-12,0,-1.50289e-06,-3.18057e-12,0,0,-1.06595e-13,0,0,-3.22832,0.185737,-0.0528931,0,0,0,0,0,-0.369622,0.185737,-1368345752,-1368345752,-1368345752,-1368345752,-1368345712,-2005826688,-355506120,-1368345712,-0.261799,-0.261799,0.000619727,-1.5,nan,0,0,3,-0.36538,0.188994,0,0,0,0,0.161238,0.127294
270,-3.1147e-12,0,-1.50289e-06,-3.18057e-12,0,-3.59732e-12,-1.06596e-13,0,0,-3.24033,0.181309,-0.0373899,0,0,0,0,0,-0.376906,0.181309,-1368345752,-1368345752,-1368345752,-1368345752,-1368345712,-2005826688,-355506120,-1368345712,-0.261799,-0.261799,0.000586734,-1.5,nan,0,0,3,-0.369917,0.188175,0,0,0,0,0.103519,0.086529
280,-3.1147e-12,0,-1.50289e-06,-3.18057e-12,0,0,-1.06596e-13,0,0,-3.2491,0.195806,-0.039902,0,0,0,0,0,-0.361343,0.195806,-1368345752,-1368345752,-1368345752,-1368345752,-1368345712,-2005826688,-355506120,-1368345712,-0.261799,-0.261799,0.000557873,-1.5,nan,0,0,3,-0.359636,0.195177,0,0,0,0,0.138448,0.12594
290,-3.1147e-12,0,-1.50289e-06,-3.18057e-12,0,-3.59732e-12,-1.06595e-13,0,0,-3.2491,0.195806,-0.039902,0,0,0,0,0,-0.361343,0.195806,-1368345752,-1368345752,-1368345752,-1368345752,-1368345712,-2005826688,-355506120,-1368345712,-0.261799,-0.261799,0.000534749,-1.5,nan,0,0,3,-0.356729,0.197822,0,0,0,0,0.138448,0.12594
300,-3.1147e-12,0,-1.50289e-06,-3.18057e-12,0,0,-1.06597e-13,0,0,-3.19365,0.204281,-0.0927663,0,0,0,0,0,-0.341773,0.204281,-1368345752,-1368345752,-1368345752,-1368345752,-1368345712,-2005826688,-355506120,-1368345712,-0.261799,-0.261799,0.0005074,-1.5,nan,0,0,3,-0.349455,0.203854,0,0,0,0,0.161131,0.131211
310,-3.1147e-12,0,-1.50289e-06,-3.18057e-12,0,-3.59732e-12,-1.06597e-13,0,0,-3.24225,0.223305,-0.0457154,0,0,0,0,0,-0.327769,0.223305,-1368345752,-1368345752,-1368345752,-1368345752,-1368345712,-2005826688,-355506120,-1368345712,-0.261799,-0.261799,0.000474364,-1.5,nan,0,0,3,-0.344322,0.207935,0,0,0,0,0.15948,0.132154
320,-3.1147e-12,0,-1.50289e-06,-3.18057e-12,0,0,-1.06596e-13,0,0,-3.24922,0.228223,-0.044608,0,0,0,0,0,-0.323187,0.228223,-1368345752,-1368345752,-1368345752,-1368345752,-1368345712,-2005826688,-355506120,-1368345712,-0.261799,-0.261799,0.000449111,-1.5,nan,0,0,3,-0.328473,0.213181,0,0,0,0,0.186407,0.137499
330,-3.1147e-12,0,-1.50289e-06,-3.18057e-12,0,-3.59732e-12,-1.066e-13,0,0,-3.23375,0.231734,-0.0522385,0,0,0,0,0,-0.316362,0.231734,-1368345752,-1368345752,-1368345752,-1368345752,-1368345712,-2005826688,-355506120,-1368345712,-0.261799,-0.261799,0.000424411,-1.5,nan,0,0,3,-0.323201,0.23137,0,0,0,0,0.186535,0.16572
340,-3.1147e-12,0,-1.50289e-06,-3.18057e-12,0,0,-1.06597e-13,0,0,-3.23375,0.231734,-0.0522385,0,0,0,0,0,-0.316362,0.231734,-1368345752,-1368345752,-1368345752,-1368345752,-1368345712,-2005826688,-355506120,-1368345712,-0.261799,-0.261799,0.000410154,-1.5,nan,0,0,3,-0.32003,0.234188,0,0,0,0,0.186535,0.16572
350,-3.1147e-12,0,-1.50289e-06,-3.18057e-12,0,-3.59732e-12,-1.06601e-13,0,0,-3.29721,0.224725,-0.0161717,0,0,0,0,0,-0.335635,0.224725,-1368345752,-1368345752,-1368345752,-1368345752,-1368345712,-2005826688,-355506120,-1368345712,-0.261799,-0.261799,0.00038993,-1.5,nan,0,0,3,-0.315175,0.228544,0,0,0,0,0.188029,0.147854
360,-3.1147e-12,0,-1.50289e-06,-3.18057e-12,0,0,-1.06601e-13,0,0,-3.2581,0.23368,-0.0352201,0,0,0,0,0,-0.318303,0.23368,-1368345752,-1368345752,-1368345752,-1368345752,-1368345712,-2005826688,-355506120,-1368345712,-0.261799,-0.261799,0.000370005,-1.5,nan,0,0,3,-0.314923,0.232464,0,0,0,0,0.178673,0.148038
370,-3.1147e-12,0,-1.50289e-06,-3.18057e-12,0,-3.59732e-12,-1.06601e-13,0,0,-3.2581,0.23368,-0.0352201,0,0,0,0,0,-0.318303,0.23368,-1368345752,-1368345752,-1368345752,-1368345752,-1368345712,-2005826688,-355506120,-1368345712,-0.261799,-0.261799,0.000356109,-1.5,nan,0,0,3,-0.311529,0.235277,0,0,0,0,0.178673,0.148038
380,-3.1147e-12,0,-1.50289e-06,-3.18057e-12,0,0,-1.06602e-13,0,0,-3.23986,0.234328,-0.0396395,0,0,0,0,0,-0.31437,0.234328,-1368345752,-1368345752,-1368345752,-1368345752,-1368345712,-2005826688,-355506120,-1368345712,-0.261799,-0.261799,0.000337851,-1.5,nan,0,0,3,-0.309155,0.238651,0,0,0,0,0.174984,0.147212
390,-3.1147e-12,0,-1.50289e-06,-3.18057e-12,0,-3.59732e-12,-1.06603e-13,0,0,-3.26929,0.241647,-0.0299865,0,0,0,0,0,-0.310869,0.241647,-1368345752,-1368345752,-1368345752,-1368345752,-1368345712,-2005826688,-355506120,-1368345712,-0.261799,-0.261799,0.000320528,-1.5,nan,0,0,3,-0.305287,0.244717,0,0,0,0,0.173174,0.15044
400,-3.1147e-12,0,-1.50289e-06,-3.18057e-12,0,0,-1.06598e-13,0,0,-3.16995,0.260836,-0.0562196,0,0,0,0,0,-0.270934,0.260836,-1368345752,-1368345752,-1368345752,-1368345752,-1368345712,-2005826688,-355506120,-1368345712,-0.261799,-0.261799,0.00030352,-1.5,nan,0,0,3,-0.29912,0.249685,0,0,0,0,0.176565,0.151068
410,-3.1147e-12,0,-1.50289e-06,-3.18057e-12,0,-3.59732e-12,-1.06599e-13,0,0,-3.25091,0.332195,-0.00877579,0,0,0,0,0,-0.201035,0.332195,-1368345752,-1368345752,-1368345752,-1368345752,-1368345712,-2005826688,-355506120,-1368345712,-0.261799,-0.261799,0.000277227,-1.5,nan,0,0,3,-0.288782,0.256906,0,0,0,0,0.180202,0.152999
420,-3.1147e-12,0,-1.50289e-06,-3.18057e-12,0,0,-1.06599e-13,0,0,-3.22483,0.332601,-0.0315784,0,0,0,0,0,-0.195947,0.332601,-1368345752,-1368345752,-1368345752,-1368345752,-1368345712,-2005826688,-355506120,-1368345712,-0.261799,-0.261799,0.000259722,-1.5,nan,0,0,3,-0.276319,0.262382,0,0,0,0,0.189828,0.15318
430,-3.1147e-12,0,-1.50289e-06,-3.18057e-12,0,-3.59732e-12,-1.06599e-13,0,0,-3.18689,0.338279,-0.0596893,0,0,0,0,0,-0.182541,0.338279,-1368345752,-1368345752,-1368345752,-1368345752,-1368345712,-2005826688,-355506120,-1368345712,-0.261799,-0.261799,0.000245879,-1.5,nan,0,0,3,-0.260299,0.27538,0,0,0,0,0.203818,0.168323
440,-3.1147e-12,0,-1.50289e-06,-3.18057e-12,0,0,-1.06602e-13,0,0,-3.18689,0.338279,-0.0596893,0,0,0,0,0,-0.182541,0.338279,-1368345752,-1368345752,-1368345752,-1368345752,-1368345712,-2005826688,-355506120,-1368345712,-0.261799,-0.261799,0.000233311,-1.5,nan,0,0,3,-0.237414,0.297278,0,0,0,0,0.2422,0.196254
450,-3.1147e-12,0,-1.50289e-06,-3.18057e-12,0,-3.59732e-12,-1.06598e-13,0,0,-3.18689,0.338279,-0.0596893,0,0,0,0,0,-0.182541,0.338279,-1368345752,-1368345752,-1368345752,-1368345752,-1368345712,-2005826688,-355506120,-1368345712,-0.261799,-0.261799,0.000224549,-1.5,nan,0,0,3,-0.232813,0.301007,0,0,0,0,0.2422,0.196254
460,-3.1147e-12,0,-1.50289e-06,-3.18057e-12,0,0,-1.06602e-13,0,0,-3.23311,0.339368,-0.0344043,0,0,0,0,0,-0.189437,0.339368,-1368345752,-1368345752,-1368345752,-1368345752,-1368345712,-2005826688,-355506120,-1368345712,-0.261799,-0.261799,0.000212581,-1.5,nan,0,0,3,-0.226354,0.304407,0,0,0,0,0.238411,0.194676
470,-3.1147e-12,0,-1.50289e-06,-3.18057e-12,0,-3.59732e-12,-1.06603e-13,0,0,-3.22005,0.330054,-0.0389053,0,0,0,0,0,-0.198104,0.330054,-1368345752,-1368345752,-1368345752,-1368345752,-1368345712,-2005826688,-355506120,-1368345712,-0.261799,-0.261799,0.000203372,-1.5,nan,0,0,3,-0.219792,0.311262,0,0,0,0,0.243128,0.19771
480,-3.1147e-12,0,-1.50289e-06,-3.18057e-12,0,0,-1.06603e-13,0,0,-3.22005,0.330054,-0.0389053,0,0,0,0,0,-0.198104,0.330054,-1368345752,-1368345752,-1368345752,-1368345752,-1368345712,-2005826688,-355506120,-1368345712,-0.261799,-0.261799,0.000195334,-1.5,nan,0,0,3,-0.214929,0.315216,0,0,0,0,0.243128,0.19771
490,-3.1147e-12,0,-1.50289e-06,-3.18057e-12,0,-3.59732e-12,-1.06604e-13,0,0,-3.21823,0.337795,-0.0415738,0,0,0,0,0,-0.188658,0.337795,-1368345752,-1368345752,-1368345752,-1368345752,-1368345712,-2005826688,-355506120,-1368345712,-0.261799,-0.261799,0.000184168,-1.5,nan,0,0,3,-0.181999,0.344744,0,0,0,0,0.290663,0.241936
500,-3.1147e-12,0,-1.50289e-06,-3.18057e-12,0,0,-1.06604e-13,0,0,-3.3003,0.331985,-0.0255501,0,0,0,0,0,-0.210012,0.331985,-1368345752,-1368345752,-1368345752,-1368345752,-1368345712,-2005826688,-355506120,-1368345712,-0.261799,-0.261799,0.000174725,-1.5,nan,0,0,3,-0.200779,0.337666,0,0,0,0,0.24381,0.21966
510,-3.1147e-12,0,-1.50289e-06,-3.18057e-12,0,-3.59732e-12,-1.06605e-13,0,0,-3.21141,0.306569,-0.0770581,0,0,0,0,0,-0.224261,0.306569,-1368345752,-1368345752,-1368345752,-1368345752,-1368345712,-2005826688,-355506120,-1368345712,-0.261799,-0.261799,0.000165121,-1.5,nan,0,0,3,-0.196788,0.344414,0,0,0,0,0.239816,0.218492
520,-3.1147e-12,0,-1.50289e-06,-3.18057e-12,0,0,-1.06604e-13,0,0,-3.21141,0.306569,-0.0770581,0,0,0,0,0,-0.224261,0.306569,-1368345752,-1368345752,-1368345752,-1368345752,-1368345712,-2005826688,-355506120,-1368345712,-0.261799,-0.261799,0.000158277,-1.5,nan,0,0,3,-0.191752,0.349003,0,0,0,0,0.239816,0.218492
530,-3.1147e-12,0,-1.50289e-06,-3.18057e-12,0,-3.59732e-12,-1.066e-13,0,0,-3.25502,0.303793,-0.0552267,0,0,0,0,0,-0.235207,0.303793,-1368345752,-1368345752,-1368345752,-1368345752,-1368345712,-2005826688,-355506120,-1368345712,-0.261799,-0.261799,0.000150775,-1.5,nan,0,0,3,-0.18678,0.339064,0,0,0,0,0.237725,0.194533
540,-3.1147e-12,0,-1.50289e-06,-3.18057e-12,0,0,-1.066e-13,0,0,-3.24184,0.294863,-0.0481404,0,0,0,0,0,-0.243407,0.294863,-1368345752,-1368345752,-1368345752,-1368345752,-1368345712,-2005826688,-355506120,-1368345712,-0.261799,-0.261799,0.000142156,-1.5,nan,0,0,3,-0.180031,0.333795,0,0,0,0,0.237984,0.184303
550,-3.1147e-12,0,-1.50289e-06,-3.18057e-12,0,-3.59732e-12,-1.066e-13,0,0,-3.2421,0.273545,-0.0270223,0,0,0,0,0,-0.268564,0.273545,-1368345752,-1368345752,-1368345752,-1368345752,-1368345712,-2005826688,-355506120,-1368345712,-0.261799,-0.261799,0.000134299,-1.5,nan,0,0,3,-0.188832,0.329729,0,0,0,0,0.21816,0.170901
560,-3.1147e-12,0,-1.50289e-06,-3.18057e-12,0,0,-1.06605e-13,0,0,-3.2421,0.273545,-0.0270223,0,0,0,0,0,-0.268564,0.273545,-1368345752,-1368345752,-1368345752,-1368345752,-1368345712,-2005826688,-355506120,-1368345712,-0.261799,-0.261799,0.000128996,-1.5,nan,0,0,3,-0.184468,0.333147,0,0,0,0,0.21816,0.170901
570,-3.1147e-12,0,-1.50289e-06,-3.18057e-12,0,-3.59732e-12,-1.06605e-13,0,0,-3.16573,0.270251,-0.074629,0,0,0,0,0,-0.259085,0.270251,-1368345752,-1368345752,-1368345752,-1368345752,-1368345712,-2005826688,-355506120,-1368345712,-0.261799,-0.261799,0.000122382,-1.5,nan,0,0,3,-0.189472,0.334187,0,0,0,0,0.206233,0.167444
580,-3.1147e-12,0,-1.50289e-06,-3.18057e-12,0,0,-1.06605e-13,0,0,-3.23041,0.273457,-0.0351961,0,0,0,0,0,-0.266622,0.273457,-1368345752,-1368345752,-1368345752,-1368345752,-1368345712,-2005826688,-355506120,-1368345712,-0.261799,-0.261799,0.000115386,-1.5,nan,0,0,3,-0.187324,0.339749,0,0,0,0,0.203736,0.171784
590,-3.1147e-12,0,-1.50289e-06,-3.18057e-12,0,-3.59732e-12,-1.06606e-13,0,0,-3.24422,0.274639,-0.0284411,0,0,0,0,0,-0.267646,0.274639,-1368345752,-1368345752,-1368345752,-1368345752,-1368345712,-2005826688,-355506120,-1368345712,-0.261799,-0.261799,0.000109236,-1.5,nan,0,0,3,-0.20064,0.335947,0,0,0,0,0.182432,0.160891
600,-3.1147e-12,0,-1.50289e-06,-3.18057e-12,0,0,-1.06606e-13,0,0,-3.21603,0.270065,-0.0446552,0,0,0,0,0,-0.268103,0.270065,-1368345752,-1368345752,-1368345752,-1368345752,-1368345712,-2005826688,-355506120,-1368345712,-0.261799,-0.261799,0.00010408,-1.5,nan,0,0,3,-0.20113,0.337176,0,0,0,0,0.176839,0.160345
610,-3.1147e-12,0,-1.50289e-06,-3.18057e-12,0,-3.59732e-12,-1.06606e-13,0,0,-3.21603,0.270065,-0.0446552,0,0,0,0,0,-0.268103,0.270065,-1368345752,-1368345752,-1368345752,-1368345752,-1368345712,-2005826688,-355506120,-1368345712,-0.261799,-0.261799,0.000100174,-1.5,nan,0,0,3,-0.19777,0.340223,0,0,0,0,0.176839,0.160345
620,-3.1147e-12,0,-1.50289e-06,-3.18057e-12,0,0,-1.06607e-13,0,0,-3.23259,0.278135,-0.0482306,0,0,0,0,0,-0.261492,0.278135,-1368345752,-1368345752,-1368345752,-1368345752,-1368345712,-2005826688,-355506120,-1368345712,-0.261799,-0.261799,9.4638e-05,-1.5,nan,0,0,3,-0.207437,0.329499,0,0,0,0,0.155826,0.137929
630,-3.1147e-12,0,-1.50289e-06,-3.18057e-12,0,-3.59732e-12,-1.06607e-13,0,0,-3.25376,0.292122,-0.0446223,0,0,0,0,0,-0.248728,0.292122,-1368345752,-1368345752,-1368345752,-1368345752,-1368345712,-2005826688,-355506120,-1368345712,-0.261799,-0.261799,8.90421e-05,-1.5,nan,0,0,3,-0.23621,0.303523,0,0,0,0,0.10533,0.0939393
640,-3.1147e-12,0,-1.50289e-06,-3.18057e-12,0,0,-1.06607e-13,0,0,-3.20258,0.317026,-0.0724011,0,0,0,0,0,-0.210379,0.317026,-1368345752,-1368345752,-1368345752,-1368345752,-1368345712,-2005826688,-355506120,-1368345712,-0.261799,-0.261799,8.43194e-05,-1.5,nan,0,0,3,-0.207702,0.317906,0,0,0,0,0.135683,0.106844
650,-3.1147e-12,0,-1.50289e-06,-3.18057e-12,0,-3.59732e-12,-1.06607e-13,0,0,-3.20258,0.317026,-0.0724011,0,0,0,0,0,-0.210379,0.317026,-1368345752,-1368345752,-1368345752,-1368345752,-1368345712,-2005826688,-355506120,-1368345712,-0.261799,-0.261799,8.08242e-05,-1.5,nan,0,0,3,-0.204853,0.320149,0,0,0,0,0.135683,0.106844
660,-3.1147e-12,0,-1.50289e-06,-3.18057e-12,0,0,-1.06608e-13,0,0,-3.18577,0.311054,-0.0866863,0,0,0,0,0,-0.214459,0.311054,-1368345752,-1368345752,-1368345752,-1368345752,-1368345712,-2005826688,-355506120,-1368345712,-0.261799,-0.261799,7.66754e-05,-1.5,nan,0,0,3,-0.213886,0.315751,0,0,0,0,0.123142,0.100261
670,-3.1147e-12,0,-1.50289e-06,-3.18057e-12,0,-3.59732e-12,-1.06608e-13,0,0,-3.29215,0.336903,-0.042145,0,0,0,0,0,-0.202786,0.336903,-1368345752,-1368345752,-1368345752,-1368345752,-1368345712,-2005826688,-355506120,-1368345712,-0.261799,-0.261799,7.25886e-05,-1.5,nan,0,0,3,-0.206625,0.324508,0,0,0,0,0.120557,0.104005
680,-3.1147e-12,0,-1.50289e-06,-3.18057e-12,0,0,-1.06608e-13,0,0,-3.24855,0.334965,-0.0684402,0,0,0,0,0,-0.197355,0.334965,-1368345752,-1368345752,-1368345752,-1368345752,-1368345712,-2005826688,-355506120,-1368345712,-0.261799,-0.261799,6.84577e-05,-1.5,nan,0,0,3,-0.195819,0.326878,0,0,0,0,0.133861,0.105002
690,-3.1147e-12,0,-1.50289e-06,-3.18057e-12,0,-3.59732e-12,-1.06608e-13,0,0,-3.24146,0.331907,-0.0718346,0,0,0,0,0,-0.199704,0.331907,-1368345752,-1368345752,-1368345752,-1368345752,-1368345712,-2005826688,-355506120,-1368345712,-0.261799,-0.261799,6.49585e-05,-1.5,nan,0,0,3,-0.198075,0.333377,0,0,0,0,0.118328,0.10499
700,-3.1147e-12,0,-1.50289e-06,-3.18057e-12,0,0,-1.06609e-13,0,0,-3.24146,0.331907,-0.0718346,0,0,0,0,0,-0.199704,0.331907,-1368345752,-1368345752,-1368345752,-1368345752,-1368345712,-2005826688,-355506120,-1368345712,-0.261799,-0.261799,6.23935e-05,-1.5,nan,0,0,3,-0.195709,0.335477,0,0,0,0,0.118328,0.10499
710,-3.1147e-12,0,-1.50289e-06,-3.18057e-12,0,-3.59732e-12,-1.06609e-13,0,0,-3.25686,0.331567,-0.0782728,0,0,0,0,0,-0.202827,0.331567,-1368345752,-1368345752,-1368345752,-1368345752,-1368345712,-2005826688,-355506120,-1368345712,-0.261799,-0.261799,5.85816e-05,-1.5,nan,0,0,3,-0.200153,0.336374,0,0,0,0,0.0865689,0.0925917
720,-3.1147e-12,0,-1.50289e-06,-3.18057e-12,0,0,-1.06609e-13,0,0,-3.23737,0.326766,-0.0919363,0,0,0,0,0,-0.205038,0.326766,-1368345752,-1368345752,-1368345752,-1368345752,-1368345712,-2005826688,-355506120,-1368345712,-0.261799,-0.261799,5.52286e-05,-1.5,nan,0,0,3,-0.199211,0.336487,0,0,0,0,0.0847649,0.0883617
730,-3.1147e-12,0,-1.50289e-06,-3.18057e-12,0,-3.59732e-12,-1.06609e-13,0,0,-3.19903,0.304555,-0.117376,0,0,0,0,0,-0.224458,0.304555,-1368345752,-1368345752,-1368345752,-1368345752,-1368345712,-2005826688,-355506120,-1368345712,-0.261799,-0.261799,5.24068e-05,-1.5,nan,0,0,3,-0.201807,0.327559,0,0,0,0,0.0599166,0.0446779
740,-3.1147e-12,0,-1.50289e-06,-3.18057e-12,0,0,-1.0661e-13,0,0,-3.19903,0.304555,-0.117376,0,0,0,0,0,-0.224458,0.304555,-1368345752,-1368345752,-1368345752,-1368345752,-1368345712,-2005826688,-355506120,-1368345712,-0.261799,-0.261799,5.02324e-05,-1.5,nan,0,0,3,-0.200549,0.328497,0,0,0,0,0.0599166,0.0446779
750,-3.1147e-12,0,-1.50289e-06,-3.18057e-12,0,-3.59732e-12,-1.0661e-13,0,0,-3.25765,0.299373,-0.109968,0,0,0,0,0,-0.240873,0.299373,-1368345752,-1368345752,-1368345752,-1368345752,-1368345712,-2005826688,-355506120,-1368345712,-0.261799,-0.261799,4.77555e-05,-1.5,nan,0,0,3,-0.211103,0.314372,0,0,0,0,0.0133715,0.0122444
760,-3.1147e-12,0,-1.50289e-06,-3.18057e-12,0,0,-1.0661e-13,0,0,-3.26035,0.265561,-0.0977162,0,0,0,0,0,-0.281157,0.265561,-1368345752,-1368345752,-1368345752,-1368345752,-1368345712,-2005826688,-355506120,-1368345712,-0.261799,-0.261799,4.53981e-05,-1.5,nan,0,0,3,-0.225005,0.302906,0,0,0,0,-0.0211077,-0.029789
770,-3.1147e-12,0,-1.50289e-06,-3.18057e-12,0,-3.59732e-12,-1.06611e-13,0,0,-3.2681,0.241302,-0.102461,0,0,0,0,0,-0.311069,0.241302,-1368345752,-1368345752,-1368345752,-1368345752,-1368345712,-2005826688,-355506120,-1368345712,-0.261799,-0.261799,4.29902e-05,-1.5,nan,0,0,3,-0.24409,0.301692,0,0,0,0,-0.0447895,-0.0313117
780,-3.1147e-12,0,-1.50289e-06,-3.18057e-12,0,0,-1.06611e-13,0,0,-3.2681,0.241302,-0.102461,0,0,0,0,0,-0.311069,0.241302,-1368345752,-1368345752,-1368345752,-1368345752,-1368345712,-2005826688,-355506120,-1368345712,-0.261799,-0.261799,4.13758e-05,-1.5,nan,0,0,3,-0.244941,0.301097,0,0,0,0,-0.0447895,-0.0313117
790,-3.1147e-12,0,-1.50289e-06,-3.18057e-12,0,-3.59732e-12,-1.06611e-13,0,0,-3.25407,0.196682,-0.111353,0,0,0,0,0,-0.361171,0.196682,-1368345752,-1368345752,-1368345752,-1368345752,-1368345712,-2005826688,-355506120,-1368345712,-0.261799,-0.261799,3.92543e-05,-1.5,nan,0,0,3,-0.252401,0.293951,0,0,0,0,-0.0547689,-0.0397638
800,-3.1147e-12,0,-1.50289e-06,-3.18057e-12,0,0,-1.06611e-13,0,0,-3.26767,0.178125,-0.105026,0,0,0,0,0,-0.385364,0.178125,-1368345752,-1368345752,-1368345752,-1368345752,-1368345712,-2005826688,-355506120,-1368345712,-0.212713,-0.261799,3.71646e-05,-1.5,nan,0,0,3,-0.294311,0.256055,0,0,0,0,-0.106141,-0.0853338
810,-3.1147e-12,0,-1.50289e-06,-3.18057e-12,0,-3.59732e-12,-1.06612e-13,0,0,-3.28009,0.16921,-0.0945381,0,0,0,0,0,-0.397993,0.16921,-1368345752,-1368345752,-1368345752,-1368345752,-1368345712,-2005826688,-355506120,-1368345712,-0.205623,-0.261799,3.54102e-05,-1.5,nan,0,0,3,-0.307943,0.25269,0,0,0,0,-0.125118,-0.0885064
820,-3.1147e-12,0,-1.50289e-06,-3.18057e-12,0,0,-1.06612e-13,0,0,-3.28009,0.16921,-0.0945381,0,0,0,0,0,-0.397993,0.16921,-1368345752,-1368345752,-1368345752,-1368345752,-1368345712,-2005826688,-355506120,-1368345712,-0.203563,-0.261799,3.40107e-05,-1.5,nan,0,0,3,-0.310445,0.250919,0,0,0,0,-0.125118,-0.0885064
830,-3.1147e-12,0,-1.50289e-06,-3.18057e-12,0,-3.59732e-12,-1.06612e-13,0,0,-3.24945,0.162895,-0.118279,0,0,0,0,0,-0.400165,0.162895,-1368345752,-1368345752,-1368345752,-1368345752,-1368345712,-2005826688,-355506120,-1368345712,-0.167159,-0.261799,3.15988e-05,-1.5,nan,0,0,3,-0.331256,0.233134,0,0,0,0,-0.140931,-0.104208
840,-3.1147e-12,0,-1.50289e-06,-3.18057e-12,0,0,-1.06612e-13,0,0,-3.25779,0.143103,-0.120592,0,0,0,0,0,-0.4249,0.143103,-1368345752,-1368345752,-1368345752,-1368345752,-1368345712,-2005826688,-355506120,-1368345712,-0.13373,-0.261799,3.05373e-05,-1.5,nan,0,0,3,-0.336595,0.218231,0,0,0,0,-0.142633,-0.12029
850,-3.1147e-12,0,-1.50289e-06,-3.18057e-12,0,-3.59732e-12,-1.06613e-13,0,0,-3.25779,0.143103,-0.120592,0,0,0,0,0,-0.4249,0.143103,-1368345752,-1368345752,-1368345752,-1368345752,-1368345712,-2005826688,-355506120,-1368345712,-0.131209,-0.261799,2.94514e-05,-1.5,nan,0,0,3,-0.339162,0.216065,0,0,0,0,-0.142633,-0.12029
860,-3.1147e-12,0,-1.50289e-06,-3.18057e-12,0,0,-1.06613e-13,0,0,-3.2677,0.137357,-0.114463,0,0,0,0,0,-0.433359,0.137357,-1368345752,-1368345752,-1368345752,-1368345752,-1368345712,-2005826688,-355506120,-1368345712,-0.0555257,-0.261799,2.35342e-05,-1.5,nan,0,0,3,-0.379537,0.174053,0,0,0,0,-0.167333,-0.147071
870,-3.1147e-12,0,-1.50289e-06,-3.18057e-12,0,-3.59732e-12,-1.06613e-13,0,0,-3.27988,0.290893,-0.103649,0,0,0,0,0,-0.25476,0.290893,-1368345752,-1368345752,-1368345752,-1368345752,-1368345712,-2005826688,-355506120,-1368345712,-0.215392,-0.261799,1.39576e-05,-1.5,nan,0,0,3,-0.320651,0.23481,0,0,0,0,-0.0752959,-0.0579253
880,-3.1147e-12,0,-1.50289e-06,-3.18057e-12,0,0,-1.06614e-13,0,0,-3.19935,0.268801,-0.139601,0,0,0,0,0,-0.266677,0.268801,-1368345752,-1368345752,-1368345752,-1368345752,-1368345712,-2005826688,-355506120,-1368345712,-0.261799,-0.261799,1.08019e-05,-1.5,nan,0,0,3,-0.273172,0.266678,0,0,0,0,-0.0217638,-0.0228521
890,-3.1147e-12,0,-1.50289e-06,-3.18057e-12,0,-3.59732e-12,-1.06614e-13,0,0,-3.19935,0.268801,-0.139601,0,0,0,0,0,-0.266677,0.268801,-1368345752,-1368345752,-1368345752,-1368345752,-1368345712,-2005826688,-355506120,-1368345712,-0.261799,-0.261799,8.4616e-06,-1.5,nan,0,0,3,-0.268693,0.264463,0,0,0,0,-0.0152241,-0.019018
900,-3.1147e-12,0,-1.50289e-06,-3.18057e-12,0,0,-1.06614e-13,0,0,-3.28418,0.284475,-0.101278,0,0,0,0,0,-0.263067,0.284475,-1368345752,-1368345752,-1368345752,-1368345752,-1368345712,-2005826688,-355506120,-1368345712,-0.261799,-0.261799,6.63162e-06,-1.5,nan,0,0,3,-0.272522,0.26545,0,0,0,0,-0.0108933,-0.00778323
910,-3.1147e-12,0,-1.50289e-06,-3.18057e-12,0,-3.59732e-12,-1.06614e-13,0,0,-3.27385,0.285442,-0.0996562,0,0,0,0,0,-0.260118,0.285442,-1368345752,-1368345752,-1368345752,-1368345752,-1368345712,-2005826688,-355506120,-1368345712,-0.261799,-0.261799,5.19741e-06,-1.5,nan,0,0,3,-0.264215,0.276406,0,0,0,0,-0.00545633,-0.000902245
920,-3.1147e-12,0,-1.50289e-06,-3.18057e-12,0,0,-1.06615e-13,0,0,-3.23897,0.276224,-0.116084,0,0,0,0,0,-0.26486,0.276224,-1368345752,-1368345752,-1368345752,-1368345752,-1368345712,-2005826688,-355506120,-1368345712,-0.261799,-0.261799,4.07337e-06,-1.5,nan,0,0,3,-0.274045,0.270289,0,0,0,0,-0.0128576,-0.00597933
930,-3.1147e-12,0,-1.50289e-06,-3.18057e-12,0,-3.59732e-12,-1.06615e-13,0,0,-3.24076,0.269419,-0.131667,0,0,0,0,0,-0.27319,0.269419,-1368345752,-1368345752,-1368345752,-1368345752,-1368345712,-2005826688,-355506120,-1368345712,-0.261799,-0.261799,3.19055e-06,-1.5,nan,0,0,3,-0.273232,0.272426,0,0,0,0,-0.0128146,-0.0124648
940,-3.1147e-12,0,-1.50289e-06,-3.18057e-12,0,0,-1.06615e-13,0,0,-3.21428,0.272162,-0.134793,0,0,0,0,0,-0.265324,0.272162,-1368345752,-1368345752,-1368345752,-1368345752,-1368345712,-2005826688,-355506120,-1368345712,-0.261799,-0.261799,2.488e-06,-1.5,nan,0,0,3,-0.273985,0.271023,0,0,0,0,-0.0148249,-0.0136962
950,-3.1147e-12,0,-1.50289e-06,-3.18057e-12,0,-3.59732e-12,-1.06615e-13,0,0,-3.24943,0.304306,-0.144009,0,0,0,0,0,-0.233619,0.304306,-1368345752,-1368345752,-1368345752,-1368345752,-1368345712,-2005826688,-355506120,-1368345712,-0.261799,-0.261799,1.96364e-06,-1.5,nan,0,0,3,-0.275828,0.266465,0,0,0,0,-0.0177884,-0.0209061
960,-3.1147e-12,0,-1.50289e-06,-3.18057e-12,0,0,-1.06616e-13,0,0,-3.25868,0.330291,-0.153996,0,0,0,0,0,-0.20465,0.330291,-1368345752,-1368345752,-1368345752,-1368345752,-1368345712,-2005826688,-355506120,-1368345712,-0.261799,-0.261799,1.52348e-06,-1.5,nan,0,0,3,-0.273481,0.26984,0,0,0,0,-0.0174352,-0.0181792
970,-3.1147e-12,0,-1.50289e-06,-3.18057e-12,0,-3.59732e-12,-1.06616e-13,0,0,-3.26299,0.285481,-0.174801,0,0,0,0,0,-0.258167,0.285481,-1368345752,-1368345752,-1368345752,-1368345752,-1368345712,-2005826688,-355506120,-1368345712,-0.261799,-0.261799,1.17904e-06,-1.5,nan,0,0,3,-0.260958,0.273053,0,0,0,0,0.00028178,-0.0138847
980,-3.1147e-12,0,-1.50289e-06,-3.18057e-12,0,0,-1.06616e-13,0,0,-3.24425,0.192774,-0.166997,0,0,0,0,0,-0.364078,0.192774,-1368345752,-1368345752,-1368345752,-1368345752,-1368345712,-2005826688,-355506120,-1368345712,-0.261799,-0.261799,9.2359e-07,-1.5,nan,0,0,3,-0.257827,0.272347,0,0,0,0,0.00210794,-0.011121
990,-3.1147e-12,0,-1.50289e-06,-3.18057e-12,0,-3.59732e-12,-1.06617e-13,0,0,-3.26423,0.210661,-0.162536,0,0,0,0,0,-0.346468,0.210661,-1368345752,-1368345752,-1368345752,-1368345752,-1368345712,-2005826688,-355506120,-1368345712,-0.261799,-0.261799,6.63497e-07,-1.5,nan,0,0,3,-0.255779,0.290575,0,0,0,0,0.0059212,0.0156505
1000,-3.1147e-12,0,-1.50289e-06,-3.18057e-12,0,0,-1.06617e-13,0,0,-3.29753,0.210099,-0.159813,0,0,0,0,0,-0.352893,0.210099,-1368345752,-1368345752,-1368345752,-1368345752,-1368345712,-2005826688,-355506120,-1368345712,-0.261799,-0.261799,4.97434e-07,-1.5,nan,0,0,3,-0.24679,0.297088,0,0,0,0,0.0256127,0.0251693
1010,-3.1147e-12,0,-1.50289e-06,-3.18057e-12,0,-3.59732e-12,-1.06617e-13,0,0,-3.29753,0.210099,-0.159813,0,0,0,0,0,-0.352893,0.210099,-1368345752,-1368345752,-1368345752,-1368345752,-1368345712,-2005826688,-355506120,-1368345712,-0.261799,-0.261799,4.79732e-07,-1.5,nan,0,0,3,-0.246303,0.297566,0,0,0,0,0.0256127,0.0251693
1020,-3.1147e-12,0,-1.50289e-06,-3.18057e-12,0,0,-1.06617e-13,0,0,-3.25634,0.231163,-0.187455,0,0,0,0,0,-0.320961,0.231163,-1368345752,-1368345752,-1368345752,-1368345752,-1368345712,-2005826688,-355506120,-1368345712,-0.261799,-0.261799,4.58944e-07,-1.5,nan,0,0,3,-0.316632,0.248077,0,0,0,0,-0.0420518,-0.0254541
1030,-3.1147e-12,0,-1.50289e-06,-3.18057e-12,0,-3.59732e-12,-1.06618e-13,0,0,-3.25634,0.231163,-0.187455,0,0,0,0,0,-0.320961,0.231163,-1368345752,-1368345752,-1368345752,-1368345752,-1368345712,-2005826688,-355506120,-1368345712,-0.261799,-0.261799,4.42625e-07,-1.5,nan,0,0,3,-0.317389,0.247619,0,0,0,0,-0.0420518,-0.0254541
1040,-3.1147e-12,0,-1.50289e-06,-3.18057e-12,0,0,-1.06618e-13,0,0,-3.27636,0.239471,-0.180472,0,0,0,0,0,-0.314662,0.239471,-1368345752,-1368345752,-1368345752,-1368345752,-1368345712,-2005826688,-355506120,-1368345712,-0.247293,-0.261799,4.23389e-07,-1.5,nan,0,0,3,-0.314797,0.238807,0,0,0,0,-0.0350847,-0.0306774
1050,-3.1147e-12,0,-1.50289e-06,-3.18057e-12,0,-3.59732e-12,-1.06618e-13,0,0,-3.25444,0.25458,-0.192612,0,0,0,0,0,-0.293056,0.25458,-1368345752,-1368345752,-1368345752,-1368345752,-1368345712,-2005826688,-355506120,-1368345712,-0.261799,-0.261799,4.04222e-07,-1.5,nan,0,0,3,-0.298327,0.246864,0,0,0,0,-0.0264342,-0.024148
1060,-3.1147e-12,0,-1.50289e-06,-3.18057e-12,0,0,-1.06618e-13,0,0,-3.25444,0.25458,-0.192612,0,0,0,0,0,-0.293056,0.25458,-1368345752,-1368345752,-1368345752,-1368345752,-1368345712,-2005826688,-355506120,-1368345712,-0.261799,-0.261799,3.90633e-07,-1.5,nan,0,0,3,-0.298776,0.246453,0,0,0,0,-0.0264342,-0.024148
1070,-3.1147e-12,0,-1.50289e-06,-3.18057e-12,0,-3.59732e-12,-1.06619e-13,0,0,-3.24748,0.239929,-0.20348,0,0,0,0,0,-0.309098,0.239929,-1368345752,-1368345752,-1368345752,-1368345752,-1368345712,-2005826688,-355506120,-1368345712,-0.249671,-0.261799,3.72906e-07,-1.5,nan,0,0,3,-0.30895,0.239485,0,0,0,0,-0.0331917,-0.029089
1080,-3.1147e-12,0,-1.50289e-06,-3.18057e-12,0,0,-1.06619e-13,0,0,-3.24748,0.239929,-0.20348,0,0,0,0,0,-0.309098,0.239929,-1368345752,-1368345752,-1368345752,-1368345752,-1368345712,-2005826688,-355506120,-1368345712,-0.249095,-0.261799,3.6037e-07,-1.5,nan,0,0,3,-0.309514,0.238991,0,0,0,0,-0.0331917,-0.029089
1090,-3.1147e-12,0,-1.50289e-06,-3.18057e-12,0,-3.59732e-12,-1.06619e-13,0,0,-3.30627,0.237519,-0.169649,0,0,0,0,0,-0.322161,0.237519,-1368345752,-1368345752,-1368345752,-1368345752,-1368345712,-2005826688,-355506120,-1368345712,-0.242751,-0.261799,3.42601e-07,-1.5,nan,0,0,3,-0.315075,0.236065,0,0,0,0,-0.0358856,-0.0320285
1100,-3.1147e-12,0,-1.50289e-06,-3.18057e-12,0,0,-1.0662e-13,0,0,-3.25353,0.237995,-0.195891,0,0,0,0,0,-0.312427,0.237995,-1368345752,-1368345752,-1368345752,-1368345752,-1368345712,-2005826688,-355506120,-1368345712,-0.241062,-0.261799,3.27759e-07,-1.5,nan,0,0,3,-0.313866,0.235475,0,0,0,0,-0.0387056,-0.0330301
1110,-3.1147e-12,0,-1.50289e-06,-3.18057e-12,0,-3.59732e-12,-1.0662e-13,0,0,-3.25353,0.237995,-0.195891,0,0,0,0,0,-0.312427,0.237995,-1368345752,-1368345752,-1368345752,-1368345752,-1368345712,-2005826688,-355506120,-1368345712,-0.24037,-0.261799,3.16105e-07,-1.5,nan,0,0,3,-0.314563,0.234881,0,0,0,0,-0.0387056,-0.0330301
1120,-3.1147e-12,0,-1.50289e-06,-3.18057e-12,0,0,-1.0662e-13,0,0,-3.32249,0.235332,-0.162038,0,0,0,0,0,-0.327552,0.235332,-1368345752,-1368345752,-1368345752,-1368345752,-1368345712,-2005826688,-355506120,-1368345712,-0.240703,-0.261799,3.04243e-07,-1.5,nan,0,0,3,-0.322442,0.2355,0,0,0,0,-0.0437889,-0.0334182
1130,-3.1147e-12,0,-1.50289e-06,-3.18057e-12,0,-3.59732e-12,-1.0662e-13,0,0,-3.32249,0.235332,-0.162038,0,0,0,0,0,-0.327552,0.235332,-1368345752,-1368345752,-1368345752,-1368345752,-1368345712,-2005826688,-355506120,-1368345712,-0.24008,-0.261799,2.94614e-07,-1.5,nan,0,0,3,-0.323142,0.234965,0,0,0,0,-0.0437889,-0.0334182
1140,-3.1147e-12,0,-1.50289e-06,-3.18057e-12,0,0,-1.06621e-13,0,0,-3.27617,0.229947,-0.178352,0,0,0,0,0,-0.325838,0.229947,-1368345752,-1368345752,-1368345752,-1368345752,-1368345712,-2005826688,-355506120,-1368345712,-0.235644,-0.261799,2.81811e-07,-1.5,nan,0,0,3,-0.325588,0.231635,0,0,0,0,-0.0437475,-0.0339782
1150,-3.1147e-12,0,-1.50289e-06,-3.18057e-12,0,-3.59732e-12,-1.06621e-13,0,0,-3.30591,0.202901,-0.157757,0,0,0,0,0,-0.36281,0.202901,-1368345752,-1368345752,-1368345752,-1368345752,-1368345712,-2005826688,-355506120,-1368345712,-0.235771,-0.261799,2.61798e-07,-1.5,nan,0,0,3,-0.327424,0.232148,0,0,0,0,-0.0420266,-0.0344483
1160,-3.1147e-12,0,-1.50289e-06,-3.18057e-12,0,0,-1.06621e-13,0,0,-3.27013,0.199034,-0.168907,0,0,0,0,0,-0.361176,0.199034,-1368345752,-1368345752,-1368345752,-1368345752,-1368345712,-2005826688,-355506120,-1368345712,-0.234351,-0.261799,2.4939e-07,-1.5,nan,0,0,3,-0.329674,0.229952,0,0,0,0,-0.046372,-0.033313
1170,-3.1147e-12,0,-1.50289e-06,-3.18057e-12,0,-3.59732e-12,-1.06621e-13,0,0,-3.26506,0.199196,-0.16425,0,0,0,0,0,-0.360109,0.199196,-1368345752,-1368345752,-1368345752,-1368345752,-1368345712,-2005826688,-355506120,-1368345712,-0.225187,-0.261799,2.35189e-07,-1.5,nan,0,0,3,-0.335862,0.225992,0,0,0,0,-0.0496577,-0.0378672
1180,-3.1147e-12,0,-1.50289e-06,-3.18057e-12,0,0,-1.06622e-13,0,0,-3.26506,0.199196,-0.16425,0,0,0,0,0,-0.360109,0.199196,-1368345752,-1368345752,-1368345752,-1368345752,-1368345712,-2005826688,-355506120,-1368345712,-0.224438,-0.261799,2.27282e-07,-1.5,nan,0,0,3,-0.336706,0.225349,0,0,0,0,-0.0496577,-0.0378672
1190,-3.1147e-12,0,-1.50289e-06,-3.18057e-12,0,-3.59732e-12,-1.06622e-13,0,0,-3.288,0.189922,-0.116348,0,0,0,0,0,-0.374984,0.189922,-1368345752,-1368345752,-1368345752,-1368345752,-1368345712,-2005826688,-355506120,-1368345712,-0.227654,-0.261799,2.16968e-07,-1.5,nan,0,0,3,-0.335753,0.225516,0,0,0,0,-0.0486077,-0.0348457
1200,-3.1147e-12,0,-1.50289e-06,-3.18057e-12,0,0,-1.06622e-13,0,0,-3.2827,0.180961,-0.0490209,0,0,0,0,0,-0.384614,0.180961,-1368345752,-1368345752,-1368345752,-1368345752,-1368345712,-2005826688,-355506120,-1368345712,-0.21561,-0.261799,2.07152e-07,-1.5,nan,0,0,3,-0.337788,0.219203,0,0,0,0,-0.0501213,-0.0395404
1210,-3.1147e-12,0,-1.50289e-06,-3.18057e-12,0,-3.59732e-12,-1.06623e-13,0,0,-3.2827,0.180961,-0.0490209,0,0,0,0,0,-0.384614,0.180961,-1368345752,-1368345752,-1368345752,-1368345752,-1368345712,-2005826688,-355506120,-1368345712,-0.214828,-0.261799,2.00188e-07,-1.5,nan,0,0,3,-0.33864,0.21853,0,0,0,0,-0.0501213,-0.0395404
1220,-3.1147e-12,0,-1.50289e-06,-3.18057e-12,0,0,-1.06623e-13,0,0,-3.23998,0.198665,-0.0229039,0,0,0,0,0,-0.356401,0.198665,-1368345752,-1368345752,-1368345752,-1368345752,-1368345712,-2005826688,-355506120,-1368345712,-0.198923,-0.261799,1.91126e-07,-1.5,nan,0,0,3,-0.342118,0.209968,0,0,0,0,-0.0508403,-0.0454782
1230,-3.1147e-12,0,-1.50289e-06,-3.18057e-12,0,-3.59732e-12,-1.06623e-13,0,0,-3.23998,0.198665,-0.0229039,0,0,0,0,0,-0.356401,0.198665,-1368345752,-1368345752,-1368345752,-1368345752,-1368345712,-2005826688,-355506120,-1368345712,-0.19797,-0.261799,1.8433e-07,-1.5,nan,0,0,3,-0.343033,0.209149,0,0,0,0,-0.0508403,-0.0454782
1240,-3.1147e-12,0,-1.50289e-06,-3.18057e-12,0,0,-1.06623e-13,0,0,-3.20167,0.201867,-0.00840918,0,0,0,0,0,-0.346007,0.201867,-1368345752,-1368345752,-1368345752,-1368345752,-1368345712,-2005826688,-355506120,-1368345712,-0.181919,-0.261799,1.77407e-07,-1.5,nan,0,0,3,-0.349962,0.200227,0,0,0,0,-0.0552063,-0.0511444
1250,-3.1147e-12,0,-1.50289e-06,-3.18057e-12,0,-3.59732e-12,-1.06624e-13,0,0,-3.20167,0.201867,-0.00840918,0,0,0,0,0,-0.346007,0.201867,-1368345752,-1368345752,-1368345752,-1368345752,-1368345712,-2005826688,-355506120,-1368345712,-0.181026,-0.261799,1.72142e-07,-1.5,nan,0,0,3,-0.350791,0.19946,0,0,0,0,-0.0552063,-0.0511444
1260,-3.1147e-12,0,-1.50289e-06,-3.18057e-12,0,0,-1.06627e-13,0,0,-3.20939,0.193329,0.0116008,0,0,0,0,0,-0.357408,0.193329,-1368345752,-1368345752,-1368345752,-1368345752,-1368345712,-2005826688,-355506120,-1368345712,-0.174161,-0.261799,1.6433e-07,-1.5,nan,0,0,3,-0.358833,0.196118,0,0,0,0,-0.0648818,-0.0541193
1270,-3.1147e-12,0,-1.50289e-06,-3.18057e-12,0,-3.59732e-12,-1.06624e-13,0,0,-3.25253,0.189997,0.0313061,0,0,0,0,0,-0.368777,0.189997,-1368345752,-1368345752,-1368345752,-1368345752,-1368345712,-2005826688,-355506120,-1368345712,-0.164931,-0.261799,1.56892e-07,-1.5,nan,0,0,3,-0.361141,0.192002,0,0,0,0,-0.0672623,-0.0585584
1280,-3.1147e-12,0,-1.50289e-06,-3.18057e-12,0,0,-1.06628e-13,0,0,-3.25253,0.189997,0.0313061,0,0,0,0,0,-0.368777,0.189997,-1368345752,-1368345752,-1368345752,-1368345752,-1368345712,-2005826688,-355506120,-1368345712,-0.163773,-0.261799,1.51618e-07,-1.5,nan,0,0,3,-0.362285,0.191007,0,0,0,0,-0.0672623,-0.0585584
1290,-3.1147e-12,0,-1.50289e-06,-3.18057e-12,0,-3.59732e-12,-1.06627e-13,0,0,-3.24335,0.185216,0.0247138,0,0,0,0,0,-0.372825,0.185216,-1368345752,-1368345752,-1368345752,-1368345752,-1368345712,-2005826688,-355506120,-1368345712,-0.15955,-0.261799,1.4473e-07,-1.5,nan,0,0,3,-0.365815,0.187755,0,0,0,0,-0.069432,-0.0589961
1300,-3.1147e-12,0,-1.50289e-06,-3.18057e-12,0,0,-1.06627e-13,0,0,-3.17971,0.17768,0.0100902,0,0,0,0,0,-0.370748,0.17768,-1368345752,-1368345752,-1368345752,-1368345752,-1368345712,-2005826688,-355506120,-1368345712,-0.155978,-0.261799,1.37898e-07,-1.5,nan,0,0,3,-0.370088,0.185996,0,0,0,0,-0.0728482,-0.0605209
1310,-3.1147e-12,0,-1.50289e-06,-3.18057e-12,0,-3.59732e-12,-1.06628e-13,0,0,-3.17971,0.17768,0.0100902,0,0,0,0,0,-0.370748,0.17768,-1368345752,-1368345752,-1368345752,-1368345752,-1368345712,-2005826688,-355506120,-1368345712,-0.15478,-0.261799,1.33262e-07,-1.5,nan,0,0,3,-0.371326,0.184967,0,0,0,0,-0.0728482,-0.0605209
1320,-3.1147e-12,0,-1.50289e-06,-3.18057e-12,0,0,-1.06627e-13,0,0,-3.21444,0.172843,0.0279348,0,0,0,0,0,-0.382426,0.172843,-1368345752,-1368345752,-1368345752,-1368345752,-1368345712,-2005826688,-355506120,-1368345712,-0.119231,-0.261799,1.27209e-07,-1.5,nan,0,0,3,-0.378471,0.178983,0,0,0,0,-0.0999184,-0.0891051
1330,-3.1147e-12,0,-1.50289e-06,-3.18057e-12,0,-3.59732e-12,-1.06628e-13,0,0,-3.21444,0.172843,0.0279348,0,0,0,0,0,-0.382426,0.172843,-1368345752,-1368345752,-1368345752,-1368345752,-1368345712,-2005826688,-355506120,-1368345712,-0.117364,-0.261799,1.22682e-07,-1.5,nan,0,0,3,-0.38027,0.177379,0,0,0,0,-0.0999184,-0.0891051
1340,-3.1147e-12,0,-1.50289e-06,-3.18057e-12,0,0,-1.06624e-13,0,0,-3.18583,0.17813,0.0156513,0,0,0,0,0,-0.37127,0.17813,-1368345752,-1368345752,-1368345752,-1368345752,-1368345712,-2005826688,-355506120,-1368345712,-0.112864,-0.261799,1.17114e-07,-1.5,nan,0,0,3,-0.385809,0.174157,0,0,0,0,-0.103805,-0.0898547
1350,-3.1147e-12,0,-1.50289e-06,-3.18057e-12,0,-3.59732e-12,-1.06624e-13,0,0,-3.16756,0.17664,0.00806399,0,0,0,0,0,-0.369884,0.17664,-1368345752,-1368345752,-1368345752,-1368345752,-1368345712,-2005826688,-355506120,-1368345712,-0.109152,-0.261799,1.11814e-07,-1.5,nan,0,0,3,-0.386473,0.172361,0,0,0,0,-0.105097,-0.0914762
1360,-3.1147e-12,0,-1.50289e-06,-3.18057e-12,0,0,-1.06629e-13,0,0,-3.16756,0.17664,0.00806399,0,0,0,0,0,-0.369884,0.17664,-1368345752,-1368345752,-1368345752,-1368345752,-1368345712,-2005826688,-355506120,-1368345712,-0.107235,-0.261799,1.07838e-07,-1.5,nan,0,0,3,-0.388365,0.170715,0,0,0,0,-0.105097,-0.0914762
1370,-3.1147e-12,0,-1.50289e-06,-3.18057e-12,0,-3.59732e-12,-1.06633e-13,0,0,-3.17368,0.177089,0.0136278,0,0,0,0,0,-0.370408,0.177089,-1368345752,-1368345752,-1368345752,-1368345752,-1368345712,-2005826688,-355506120,-1368345712,-0.106791,-0.261799,1.0358e-07,-1.5,nan,0,0,3,-0.388118,0.169349,0,0,0,0,-0.101821,-0.0903306
1380,-3.1147e-12,0,-1.50289e-06,-3.18057e-12,0,0,-1.06629e-13,0,0,-3.17368,0.177089,0.0136278,0,0,0,0,0,-0.370408,0.177089,-1368345752,-1368345752,-1368345752,-1368345752,-1368345712,-2005826688,-355506120,-1368345712,-0.105319,-0.261799,1.00709e-07,-1.5,nan,0,0,3,-0.389544,0.168084,0,0,0,0,-0.101821,-0.0903306
1390,-3.1147e-12,0,-1.50289e-06,-3.18057e-12,0,-3.59732e-12,-1.06633e-13,0,0,-3.18583,0.17813,0.0156513,0,0,0,0,0,-0.37127,0.17813,-1368345752,-1368345752,-1368345752,-1368345752,-1368345712,-2005826688,-355506120,-1368345712,-0.108653,-0.261799,9.61341e-08,-1.5,nan,0,0,3,-0.381023,0.167624,0,0,0,0,-0.0765864,-0.0864614
1400,-3.1147e-12,0,-1.50289e-06,-3.18057e-12,0,0,-1.06633e-13,0,0,-3.21812,0.173422,0.0280963,0,0,0,0,0,-0.382377,0.173422,-1368345752,-1368345752,-1368345752,-1368345752,-1368345712,-2005826688,-355506120,-1368345712,-0.121605,-0.261799,9.17822e-08,-1.5,nan,0,0,3,-0.382912,0.169311,0,0,0,0,-0.0758284,-0.0754719
1410,-3.1147e-12,0,-1.50289e-06,-3.18057e-12,0,-3.59732e-12,-1.06625e-13,0,0,-3.21812,0.173422,0.0280963,0,0,0,0,0,-0.382377,0.173422,-1368345752,-1368345752,-1368345752,-1368345752,-1368345712,-2005826688,-355506120,-1368345712,-0.120024,-0.261799,8.85186e-08,-1.5,nan,0,0,3,-0.384277,0.167953,0,0,0,0,-0.0758284,-0.0754719
1420,-3.1147e-12,0,-1.50289e-06,-3.18057e-12,0,0,-1.06634e-13,0,0,-3.23749,0.167534,0.0381702,0,0,0,0,0,-0.392646,0.167534,-1368345752,-1368345752,-1368345752,-1368345752,-1368345712,-2005826688,-355506120,-1368345712,-0.141739,-0.261799,8.44974e-08,-1.5,nan,0,0,3,-0.376805,0.170121,0,0,0,0,-0.0313968,-0.056281
1430,-3.1147e-12,0,-1.50289e-06,-3.18057e-12,0,-3.59732e-12,-1.06634e-13,0,0,-3.16997,0.166098,0.00968533,0,0,0,0,0,-0.382738,0.166098,-1368345752,-1368345752,-1368345752,-1368345752,-1368345712,-2005826688,-355506120,-1368345712,-0.11526,-0.261799,8.06723e-08,-1.5,nan,0,0,3,-0.384921,0.164109,0,0,0,0,-0.0646921,-0.0757621
1440,-3.1147e-12,0,-1.50289e-06,-3.18057e-12,0,0,-1.06625e-13,0,0,-3.16997,0.166098,0.00968533,0,0,0,0,0,-0.382738,0.166098,-1368345752,-1368345752,-1368345752,-1368345752,-1368345712,-2005826688,-355506120,-1368345712,-0.113672,-0.261799,7.78015e-08,-1.5,nan,0,0,3,-0.386086,0.162745,0,0,0,0,-0.0646921,-0.0757621
1450,-3.1147e-12,0,-1.50289e-06,-3.18057e-12,0,-3.59732e-12,-1.06634e-13,0,0,-3.18288,0.162239,0.0164264,0,0,0,0,0,-0.389509,0.162239,-1368345752,-1368345752,-1368345752,-1368345752,-1368345712,-2005826688,-355506120,-1368345712,-0.110197,-0.261799,7.42672e-08,-1.5,nan,0,0,3,-0.391021,0.160601,0,0,0,0,-0.0765659,-0.0767425
1460,-3.1147e-12,0,-1.50289e-06,-3.18057e-12,0,0,-1.06625e-13,0,0,-3.18288,0.162239,0.0164264,0,0,0,0,0,-0.389509,0.162239,-1368345752,-1368345752,-1368345752,-1368345752,-1368345712,-2005826688,-355506120,-1368345712,-0.108589,-0.261799,7.16264e-08,-1.5,nan,0,0,3,-0.392399,0.15922,0,0,0,0,-0.0765659,-0.0767425
1470,-3.1147e-12,0,-1.50289e-06,-3.18057e-12,0,-3.59732e-12,-1.06625e-13,0,0,-3.17679,0.17094,0.0106783,0,0,0,0,0,-0.378197,0.17094,-1368345752,-1368345752,-1368345752,-1368345752,-1368345712,-2005826688,-355506120,-1368345712,-0.103754,-0.261799,6.8376e-08,-1.5,nan,0,0,3,-0.394277,0.157301,0,0,0,0,-0.0788801,-0.0793441
1480,-3.1147e-12,0,-1.50289e-06,-3.18057e-12,0,0,-1.06626e-13,0,0,-3.1515,0.167011,0.0043327,0,0,0,0,0,-0.378488,0.167011,-1368345752,-1368345752,-1368345752,-1368345752,-1368345712,-2005826688,-355506120,-1368345712,-0.100145,-0.261799,6.44851e-08,-1.5,nan,0,0,3,-0.397564,0.154806,0,0,0,0,-0.0827629,-0.0800483
1490,-3.1147e-12,0,-1.50289e-06,-3.18057e-12,0,-3.59732e-12,-1.06626e-13,0,0,-3.21229,0.170464,0.0294419,0,0,0,0,0,-0.384862,0.170464,-1368345752,-1368345752,-1368345752,-1368345752,-1368345712,-2005826688,-355506120,-1368345712,-0.0816674,-0.261799,5.49559e-08,-1.5,nan,0,0,3,-0.404831,0.147186,0,0,0,0,-0.0874645,-0.0896564
1500,-3.1147e-12,0,-1.50289e-06,-3.18057e-12,0,0,-1.06634e-13,0,0,-3.18782,0.171277,0.023213,0,0,0,0,0,-0.379696,0.171277,-1368345752,-1368345752,-1368345752,-1368345752,-1368345712,-2005826688,-355506120,-1368345712,-0.100492,-0.261799,5.27894e-08,-1.5,nan,0,0,3,-0.397669,0.150415,0,0,0,0,-0.0695442,-0.07459
1510,-3.1147e-12,0,-1.50289e-06,-3.18057e-12,0,-3.59732e-12,-1.06635e-13,0,0,-3.18782,0.171277,0.023213,0,0,0,0,0,-0.379696,0.171277,-1368345752,-1368345752,-1368345752,-1368345752,-1368345712,-2005826688,-355506120,-1368345712,-0.09919,-0.261799,5.12233e-08,-1.5,nan,0,0,3,-0.398712,0.149296,0,0,0,0,-0.0695442,-0.07459
1520,-3.1147e-12,0,-1.50289e-06,-3.18057e-12,0,0,-1.06635e-13,0,0,-3.18033,0.175201,0.0171015,0,0,0,0,0,-0.373779,0.175201,-1368345752,-1368345752,-1368345752,-1368345752,-1368345712,-2005826688,-355506120,-1368345712,-0.114795,-0.261799,4.88988e-08,-1.5,nan,0,0,3,-0.391392,0.153128,0,0,0,0,-0.0513627,-0.0634457
1530,-3.1147e-12,0,-1.50289e-06,-3.18057e-12,0,-3.59732e-12,-1.06635e-13,0,0,-3.18033,0.175201,0.0171015,0,0,0,0,0,-0.373779,0.175201,-1368345752,-1368345752,-1368345752,-1368345752,-1368345712,-2005826688,-355506120,-1368345712,-0.133827,-0.261799,4.66856e-08,-1.5,nan,0,0,3,-0.386806,0.158487,0,0,0,0,-0.0330078,-0.0506501
1540,-3.1147e-12,0,-1.50289e-06,-3.18057e-12,0,0,-1.06635e-13,0,0,-3.18033,0.175201,0.0171015,0,0,0,0,0,-0.373779,0.175201,-1368345752,-1368345752,-1368345752,-1368345752,-1368345712,-2005826688,-355506120,-1368345712,-0.132825,-0.261799,4.51161e-08,-1.5,nan,0,0,3,-0.387367,0.157626,0,0,0,0,-0.0330078,-0.0506501
1550,-3.1147e-12,0,-1.50289e-06,-3.18057e-12,0,-3.59732e-12,-1.06636e-13,0,0,-3.20389,0.169688,0.0289674,0,0,0,0,0,-0.384331,0.169688,-1368345752,-1368345752,-1368345752,-1368345752,-1368345712,-2005826688,-355506120,-1368345712,-0.136789,-0.261799,4.29802e-08,-1.5,nan,0,0,3,-0.385221,0.158439,0,0,0,0,-0.0291576,-0.0476335
1560,-3.1147e-12,0,-1.50289e-06,-3.18057e-12,0,0,-1.06636e-13,0,0,-3.20389,0.169688,0.0289674,0,0,0,0,0,-0.384331,0.169688,-1368345752,-1368345752,-1368345752,-1368345752,-1368345712,-2005826688,-355506120,-1368345712,-0.135846,-0.261799,4.15353e-08,-1.5,nan,0,0,3,-0.385716,0.157629,0,0,0,0,-0.0291576,-0.0476335
1570,-3.1147e-12,0,-1.50289e-06,-3.18057e-12,0,-3.59732e-12,-1.06636e-13,0,0,-3.1941,0.169342,0.0264978,0,0,0,0,0,-0.383058,0.169342,-1368345752,-1368345752,-1368345752,-1368345752,-1368345712,-2005826688,-355506120,-1368345712,-0.141877,-0.261799,3.96484e-08,-1.5,nan,0,0,3,-0.38586,0.158913,0,0,0,0,-0.0261919,-0.0430978
1580,-3.1147e-12,0,-1.50289e-06,-3.18057e-12,0,0,-1.06636e-13,0,0,-3.19386,0.160574,0.0217119,0,0,0,0,0,-0.393356,0.160574,-1368345752,-1368345752,-1368345752,-1368345752,-1368345712,-2005826688,-355506120,-1368345712,-0.148152,-0.261799,3.78536e-08,-1.5,nan,0,0,3,-0.386826,0.159847,0,0,0,0,-0.0265313,-0.0379088
1590,-3.1147e-12,0,-1.50289e-06,-3.18057e-12,0,-3.59732e-12,-1.06637e-13,0,0,-3.19386,0.160574,0.0217119,0,0,0,0,0,-0.393356,0.160574,-1368345752,-1368345752,-1368345752,-1368345752,-1368345712,-2005826688,-355506120,-1368345712,-0.147358,-0.261799,3.65065e-08,-1.5,nan,0,0,3,-0.387304,0.159164,0,0,0,0,-0.0265313,-0.0379088
1600,-3.1147e-12,0,-1.50289e-06,-3.18057e-12,0,0,-1.06637e-13,0,0,-3.18782,0.171277,0.023213,0,0,0,0,0,-0.379696,0.171277,-1368345752,-1368345752,-1368345752,-1368345752,-1368345712,-2005826688,-355506120,-1368345712,-0.152806,-0.261799,3.48481e-08,-1.5,nan,0,0,3,-0.38559,0.160375,0,0,0,0,-0.0220335,-0.0338694
1610,-3.1147e-12,0,-1.50289e-06,-3.18057e-12,0,-3.59732e-12,-1.06637e-13,0,0,-3.20942,0.169855,0.0342486,0,0,0,0,0,-0.385087,0.169855,-1368345752,-1368345752,-1368345752,-1368345752,-1368345712,-2005826688,-355506120,-1368345712,-0.159226,-0.261799,3.32031e-08,-1.5,nan,0,0,3,-0.385819,0.162093,0,0,0,0,-0.0225353,-0.0294492
1620,-3.1147e-12,0,-1.50289e-06,-3.18057e-12,0,0,-1.06638e-13,0,0,-3.20942,0.169855,0.0342486,0,0,0,0,0,-0.385087,0.169855,-1368345752,-1368345752,-1368345752,-1368345752,-1368345712,-2005826688,-355506120,-1368345712,-0.158644,-0.261799,3.20869e-08,-1.5,nan,0,0,3,-0.386202,0.161592,0,0,0,0,-0.0225353,-0.0294492
1630,-3.1147e-12,0,-1.50289e-06,-3.18057e-12,0,-3.59732e-12,-1.06638e-13,0,0,-3.17368,0.177089,0.0136278,0,0,0,0,0,-0.370408,0.177089,-1368345752,-1368345752,-1368345752,-1368345752,-1368345712,-2005826688,-355506120,-1368345712,-0.172203,-0.261799,3.08187e-08,-1.5,nan,0,0,3,-0.386373,0.165731,0,0,0,0,-0.0214467,-0.0207071
1640,-3.1147e-12,0,-1.50289e-06,-3.18057e-12,0,0,-1.06638e-13,0,0,-3.17368,0.177089,0.0136278,0,0,0,0,0,-0.370408,0.177089,-1368345752,-1368345752,-1368345752,-1368345752,-1368345712,-2005826688,-355506120,-1368345712,-0.171841,-0.261799,2.99045e-08,-1.5,nan,0,0,3,-0.386695,0.16542,0,0,0,0,-0.0214467,-0.0207071
1650,-3.1147e-12,0,-1.50289e-06,-3.18057e-12,0,-3.59732e-12,-1.06638e-13,0,0,-3.19685,0.171652,0.0298783,0,0,0,0,0,-0.380806,0.171652,-1368345752,-1368345752,-1368345752,-1368345752,-1368345712,-2005826688,-355506120,-1368345712,-0.175408,-0.261799,2.85474e-08,-1.5,nan,0,0,3,-0.386667,0.165708,0,0,0,0,-0.0206287,-0.0174749
1660,-3.1147e-12,0,-1.50289e-06,-3.18057e-12,0,0,-1.06639e-13,0,0,-3.20703,0.167895,0.0266527,0,0,0,0,0,-0.386985,0.167895,-1368345752,-1368345752,-1368345752,-1368345752,-1368345712,-2005826688,-355506120,-1368345712,-0.181407,-0.261799,2.72553e-08,-1.5,nan,0,0,3,-0.387324,0.167411,0,0,0,0,-0.0217212,-0.0134594
1670,-3.1147e-12,0,-1.50289e-06,-3.18057e-12,0,-3.59732e-12,-1.06639e-13,0,0,-3.20703,0.167895,0.0266527,0,0,0,0,0,-0.386985,0.167895,-1368345752,-1368345752,-1368345752,-1368345752,-1368345712,-2005826688,-355506120,-1368345712,-0.18114,-0.261799,2.6339e-08,-1.5,nan,0,0,3,-0.387693,0.167183,0,0,0,0,-0.0217212,-0.0134594
1680,-3.1147e-12,0,-1.50289e-06,-3.18057e-12,0,0,-1.06639e-13,0,0,-3.20746,0.149374,0.0265094,0,0,0,0,0,-0.408895,0.149374,-1368345752,-1368345752,-1368345752,-1368345752,-1368345712,-2005826688,-355506120,-1368345712,-0.17607,-0.261799,2.50921e-08,-1.5,nan,0,0,3,-0.387942,0.165445,0,0,0,0,-0.0209278,-0.0165067
1690,-3.1147e-12,0,-1.50289e-06,-3.18057e-12,0,-3.59732e-12,-1.06639e-13,0,0,-3.20746,0.149374,0.0265094,0,0,0,0,0,-0.408895,0.149374,-1368345752,-1368345752,-1368345752,-1368345752,-1368345712,-2005826688,-355506120,-1368345712,-0.175744,-0.261799,2.42485e-08,-1.5,nan,0,0,3,-0.388298,0.165164,0,0,0,0,-0.0209278,-0.0165067
1700,-3.1147e-12,0,-1.50289e-06,-3.18057e-12,0,0,-1.0664e-13,0,0,-3.24166,0.141858,0.0467287,0,0,0,0,0,-0.423606,0.141858,-1368345752,-1368345752,-1368345752,-1368345752,-1368345712,-2005826688,-355506120,-1368345712,-0.172618,-0.261799,2.3147e-08,-1.5,nan,0,0,3,-0.388952,0.163563,0,0,0,0,-0.0202739,-0.0177683
1710,-3.1147e-12,0,-1.50289e-06,-3.18057e-12,0,-3.59732e-12,-1.0664e-13,0,0,-3.19551,0.153101,0.0338197,0,0,0,0,0,-0.402453,0.153101,-1368345752,-1368345752,-1368345752,-1368345752,-1368345712,-2005826688,-355506120,-1368345712,-0.174512,-0.261799,2.20991e-08,-1.5,nan,0,0,3,-0.391737,0.163992,0,0,0,0,-0.0234291,-0.016374
1720,-3.1147e-12,0,-1.50289e-06,-3.18057e-12,0,0,-1.0664e-13,0,0,-3.19551,0.153101,0.0338197,0,0,0,0,0,-0.402453,0.153101,-1368345752,-1368345752,-1368345752,-1368345752,-1368345712,-2005826688,-355506120,-1368345712,-0.174169,-0.261799,2.13127e-08,-1.5,nan,0,0,3,-0.392159,0.163697,0,0,0,0,-0.0234291,-0.016374
1730,-3.1147e-12,0,-1.50289e-06,-3.18057e-12,0,-3.59732e-12,-1.06641e-13,0,0,-3.20839,0.157622,0.038721,0,0,0,0,0,-0.399332,0.157622,-1368345752,-1368345752,-1368345752,-1368345752,-1368345712,-2005826688,-355506120,-1368345712,-0.175815,-0.261799,2.03445e-08,-1.5,nan,0,0,3,-0.390477,0.163867,0,0,0,0,-0.0203919,-0.0149259
1740,-3.1147e-12,0,-1.50289e-06,-3.18057e-12,0,0,-1.06641e-13,0,0,-3.18235,0.154924,0.0292542,0,0,0,0,0,-0.398048,0.154924,-1368345752,-1368345752,-1368345752,-1368345752,-1368345712,-2005826688,-355506120,-1368345712,-0.159434,-0.261799,1.93845e-08,-1.5,nan,0,0,3,-0.395079,0.15675,0,0,0,0,-0.0257037,-0.0230225
1750,-3.1147e-12,0,-1.50289e-06,-3.18057e-12,0,-3.59732e-12,-1.06641e-13,0,0,-3.18235,0.154924,0.0292542,0,0,0,0,0,-0.398048,0.154924,-1368345752,-1368345752,-1368345752,-1368345752,-1368345712,-2005826688,-355506120,-1368345712,-0.158979,-0.261799,1.87329e-08,-1.5,nan,0,0,3,-0.395516,0.156359,0,0,0,0,-0.0257037,-0.0230225
1760,-3.1147e-12,0,-1.50289e-06,-3.18057e-12,0,0,-1.06641e-13,0,0,-3.22329,0.161276,0.044305,0,0,0,0,0,-0.397581,0.161276,-1368345752,-1368345752,-1368345752,-1368345752,-1368345712,-2005826688,-355506120,-1368345712,-0.170859,-0.261799,1.79925e-08,-1.5,nan,0,0,3,-0.397958,0.161005,0,0,0,0,-0.028935,-0.0165502
1770,-3.1147e-12,0,-1.50289e-06,-3.18057e-12,0,-3.59732e-12,-1.06642e-13,0,0,-3.22329,0.161276,0.044305,0,0,0,0,0,-0.397581,0.161276,-1368345752,-1368345752,-1368345752,-1368345752,-1368345712,-2005826688,-355506120,-1368345712,-0.170512,-0.261799,1.73527e-08,-1.5,nan,0,0,3,-0.398479,0.160707,0,0,0,0,-0.028935,-0.0165502
1780,-3.1147e-12,0,-1.50289e-06,-3.18057e-12,0,0,-1.06642e-13,0,0,-3.18528,0.161982,0.0448663,0,0,0,0,0,-0.390225,0.161982,-1368345752,-1368345752,-1368345752,-1368345752,-1368345712,-2005826688,-355506120,-1368345712,-0.169508,-0.261799,1.65653e-08,-1.5,nan,0,0,3,-0.39803,0.160218,0,0,0,0,-0.0276437,-0.0169852
1790,-3.1147e-12,0,-1.50289e-06,-3.18057e-12,0,-3.59732e-12,-1.06642e-13,0,0,-3.23678,0.164559,0.101836,0,0,0,0,0,-0.396028,0.164559,-1368345752,-1368345752,-1368345752,-1368345752,-1368345712,-2005826688,-355506120,-1368345712,-0.171367,-0.261799,1.58158e-08,-1.5,nan,0,0,3,-0.396342,0.160899,0,0,0,0,-0.0246969,-0.0159188
1800,-3.1147e-12,0,-1.50289e-06,-3.18057e-12,0,0,-1.06642e-13,0,0,-3.23678,0.164559,0.101836,0,0,0,0,0,-0.396028,0.164559,-1368345752,-1368345752,-1368345752,-1368345752,-1368345712,-2005826688,-355506120,-1368345712,-0.171052,-0.261799,1.52841e-08,-1.5,nan,0,0,3,-0.396762,0.160629,0,0,0,0,-0.0246969,-0.0159188
1810,-3.1147e-12,0,-1.50289e-06,-3.18057e-12,0,-3.59732e-12,-1.06643e-13,0,0,-3.20054,0.169495,0.12374,0,0,0,0,0,-0.383984,0.169495,-1368345752,-1368345752,-1368345752,-1368345752,-1368345712,-2005826688,-355506120,-1368345712,-0.173356,-0.261799,1.45905e-08,-1.5,nan,0,0,3,-0.397265,0.161211,0,0,0,0,-0.0242289,-0.014293
1820,-3.1147e-12,0,-1.50289e-06,-3.18057e-12,0,0,-1.06643e-13,0,0,-3.19776,0.191397,0.210453,0,0,0,0,0,-0.357679,0.191397,-1368345752,-1368345752,-1368345752,-1368345752,-1368345712,-2005826688,-355506120,-1368345712,-0.180387,-0.261799,1.39301e-08,-1.5,nan,0,0,3,-0.394399,0.163601,0,0,0,0,-0.0199656,-0.0100434
1830,-3.1147e-12,0,-1.50289e-06,-3.18057e-12,0,-3.59732e-12,-1.06643e-13,0,0,-3.19776,0.191397,0.210453,0,0,0,0,0,-0.357679,0.191397,-1368345752,-1368345752,-1368345752,-1368345752,-1368345712,-2005826688,-355506120,-1368345712,-0.180188,-0.261799,1.34618e-08,-1.5,nan,0,0,3,-0.394738,0.16343,0,0,0,0,-0.0199656,-0.0100434
1840,-3.1147e-12,0,-1.50289e-06,-3.18057e-12,0,0,-1.06644e-13,0,0,-3.19776,0.191397,0.210453,0,0,0,0,0,-0.357679,0.191397,-1368345752,-1368345752,-1368345752,-1368345752,-1368345712,-2005826688,-355506120,-1368345712,-0.179861,-0.261799,1.27178e-08,-1.5,nan,0,0,3,-0.395298,0.163149,0,0,0,0,-0.0199656,-0.0100434
1850,-3.1147e-12,0,-1.50289e-06,-3.18057e-12,0,-3.59732e-12,-1.06644e-13,0,0,-3.19776,0.191397,0.210453,0,0,0,0,0,-0.357679,0.191397,-1368345752,-1368345752,-1368345752,-1368345752,-1368345712,-2005826688,-355506120,-1368345712,-0.179651,-0.261799,1.22656e-08,-1.5,nan,0,0,3,-0.395657,0.162968,0,0,0,0,-0.0199656,-0.0100434
1860,-3.1147e-12,0,-1.50289e-06,-3.18057e-12,0,0,-1.06644e-13,0,0,-3.19776,0.191397,0.210453,0,0,0,0,0,-0.357679,0.191397,-1368345752,-1368345752,-1368345752,-1368345752,-1368345712,-2005826688,-355506120,-1368345712,-0.179452,-0.261799,1.18533e-08,-1.5,nan,0,0,3,-0.395996,0.162797,0,0,0,0,-0.0199656,-0.0100434
1870,-3.1147e-12,0,-1.50289e-06,-3.18057e-12,0,-3.59732e-12,-1.06644e-13,0,0,-3.19776,0.191397,0.210453,0,0,0,0,0,-0.357679,0.191397,-1368345752,-1368345752,-1368345752,-1368345752,-1368345712,-2005826688,-355506120,-1368345712,-0.179031,-0.261799,1.10127e-08,-1.5,nan,0,0,3,-0.396715,0.162436,0,0,0,0,-0.0199656,-0.0100434
1880,-3.1147e-12,0,-1.50289e-06,-3.18057e-12,0,0,-1.06645e-13,0,0,-3.19776,0.191397,0.210453,0,0,0,0,0,-0.357679,0.191397,-1368345752,-1368345752,-1368345752,-1368345752,-1368345712,-2005826688,-355506120,-1368345712,-0.178727,-0.261799,1.0448e-08,-1.5,nan,0,0,3,-0.397234,0.162175,0,0,0,0,-0.0199656,-0.0100434
1890,-3.1147e-12,0,-1.50289e-06,-3.18057e-12,0,-3.59732e-12,-1.06645e-13,0,0,-3.19776,0.191397,0.210453,0,0,0,0,0,-0.357679,0.191397,-1368345752,-1368345752,-1368345752,-1368345752,-1368345712,-2005826688,-355506120,-1368345712,-0.178564,-0.261799,1.01585e-08,-1.5,nan,0,0,3,-0.397514,0.162034,0,0,0,0,-0.0199656,-0.0100434
1900,-3.1147e-12,0,-1.50289e-06,-3.18057e-12,0,0,-1.06645e-13,0,0,-3.19776,0.191397,0.210453,0,0,0,0,0,-0.357679,0.191397,-1368345752,-1368345752,-1368345752,-1368345752,-1368345712,-2005826688,-355506120,-1368345712,-0.178353,-0.261799,9.79727e-09,-1.5,nan,0,0,3,-0.397873,0.161853,0,0,0,0,-0.0199656,-0.0100434
1910,-3.1147e-12,0,-1.50289e-06,-3.18057e-12,0,-3.59732e-12,-1.06645e-13,0,0,-3.19776,0.191397,0.210453,0,0,0,0,0,-0.357679,0.191397,-1368345752,-1368345752,-1368345752,-1368345752,-1368345712,-2005826688,-355506120,-1368345712,-0.178154,-0.261799,9.46791e-09,-1.5,nan,0,0,3,-0.398212,0.161683,0,0,0,0,-0.0199656,-0.0100434
1920,-3.1147e-12,0,-1.50289e-06,-3.18057e-12,0,0,-1.06646e-13,0,0,-3.19776,0.191397,0.210453,0,0,0,0,0,-0.357679,0.191397,-1368345752,-1368345752,-1368345752,-1368345752,-1368345712,-2005826688,-355506120,-1368345712,-0.177944,-0.261799,9.13124e-09,-1.5,nan,0,0,3,-0.398572,0.161502,0,0,0,0,-0.0199656,-0.0100434
1930,-3.1147e-12,0,-1.50289e-06,-3.18057e-12,0,-3.59732e-12,-1.06646e-13,0,0,-3.19776,0.191397,0.210453,0,0,0,0,0,-0.357679,0.191397,-1368345752,-1368345752,-1368345752,-1368345752,-1368345712,-2005826688,-355506120,-1368345712,-0.177734,-0.261799,8.80655e-09,-1.5,nan,0,0,3,-0.398931,0.161321,0,0,0,0,-0.0199656,-0.0100434
1940,-3.1147e-12,0,-1.50289e-06,-3.18057e-12,0,0,-1.06646e-13,0,0,-3.19776,0.191397,0.210453,0,0,0,0,0,-0.357679,0.191397,-1368345752,-1368345752,-1368345752,-1368345752,-1368345712,-2005826688,-355506120,-1368345712,-0.177535,-0.261799,8.51049e-09,-1.5,nan,0,0,3,-0.399271,0.16115,0,0,0,0,-0.0199656,-0.0100434
