timestamp,A_x,A_y,A_z,P,Q,R,Phi,Theta,Psi,poseX,poseY,poseZ,state_X,state_Y,state_Z,state_VzB,state_Bx,state_By,state_Bz,p1_x,p1_y,p2_x,p2_y,p3_x,p3_y,p4_x,p4_y,roll,pitch,yaw,alt,targetHeading,highLevelState,lowLevelState,gateNumber,filtered_x,filtered_y,x_OT,y_OT,vx_OT,vy_OTfiltered_vx,filtered_vy
10,0,0,0,0,0,0,0,0,0,0,0,0,0,0,0,0,0,0,0,0,0,0,0,0,0,0,0,0,-0.261799,0.0062205,-1.5,nan,0,0,3,0,0,0,0,0,0,0,0
20,0,0,0,0,0,0,0,0,0,0,0,0,0,0,0,0,0,0,0,0,0,0,0,0,0,0,0,0,-0.261799,0.00601138,-1.5,nan,0,0,3,0,0,0,0,0,0,0,0
30,-3.2124e-12,8.75736e-38,-1.55272e-06,-3.27827e-12,8.75688e-38,-3.40903e-12,-1.06589e-13,0,0,0,0,0,0,0,0,0,0,0,0,0,0,0,0,0,0,0,0,0,-0.261799,0.00146417,-1.5,nan,0,0,3,0,0,0,0,0,0,0,0
40,-3.2124e-12,8.75736e-38,-1.55272e-06,-3.27827e-12,8.75688e-38,0,-1.0659e-13,0,0,0,0,0,0,0,0,0,0,0,0,0,0,0,0,0,0,0,0,0,-0.261799,0.00142359,-1.5,nan,0,0,3,0,0,0,0,0,0,0,0
50,-3.2124e-12,8.75736e-38,-1.55272e-06,-3.27827e-12,8.75688e-38,-3.40903e-12,-1.0659e-13,0,0,0,0,0,0,0,0,0,0,0,0,0,0,0,0,0,0,0,0,0,-0.261799,0.00137017,-1.5,nan,0,0,3,0,0,0,0,0,0,0,0
60,-3.2124e-12,8.75736e-38,-1.55272e-06,-3.27827e-12,8.75688e-38,0,-1.0659e-13,0,0,0,0,0,0,0,0,0,0,0,0,0,0,0,0,0,0,0,0,0,-0.261799,0.00131602,-1.5,nan,0,0,3,0,0,0,0,0,0,0,0
70,-3.2124e-12,8.75736e-38,-1.55272e-06,-3.27827e-12,8.75688e-38,-3.40903e-12,-1.0659e-13,0,0,0,0,0,0,0,0,0,0,0,0,0,0,0,0,0,0,0,0,0,-0.261799,0.00126401,-1.5,nan,0,0,3,0,0,0,0,0,0,0,0
80,-3.2124e-12,8.75736e-38,-1.55272e-06,-3.27827e-12,8.75688e-38,0,-1.06591e-13,0,0,0,0,0,0,0,0,0,0,0,0,0,0,0,0,0,0,0,0,0,-0.261799,0.00121658,-1.5,nan,0,0,3,0,0,0,0,0,0,0,0
90,-3.2124e-12,8.75736e-38,-1.55272e-06,-3.27827e-12,8.75688e-38,-3.40903e-12,-1.06591e-13,0,0,0,0,0,0,0,0,0,0,0,0,0,0,0,0,0,0,0,0,0,-0.261799,0.00104428,-1.5,nan,0,0,3,0,0,0,0,0,0,0,0
100,-3.2124e-12,8.75736e-38,-1.55272e-06,-3.27827e-12,8.75688e-38,0,-1.06591e-13,0,0,-3.43175,0.218462,-0.127786,0,0,0,0,0,0.568254,0.218462,-1367821464,-1367821464,-1367821464,-1367821464,-1367821424,1902061014,659630286,-1367821424,0,-0.261799,0.000963953,-1.5,nan,0,0,3,0,0,0,0,0,0,0,0
110,-3.2124e-12,8.75736e-38,-1.55272e-06,-3.27827e-12,8.75688e-38,-3.40903e-12,-1.06591e-13,0,0,-3.39923,0.213912,-0.137573,0,0,0,0,0,0.600775,0.213912,-1367821464,-1367821464,-1367821464,-1367821464,-1367821424,1902061014,659630286,-1367821424,0,-0.261799,0.000923958,-1.5,nan,0,0,3,0,0,0,0,0,0,0,0
120,-3.2124e-12,8.75736e-38,-1.55272e-06,-3.27827e-12,8.75688e-38,0,-1.06592e-13,0,0,-3.39923,0.213912,-0.137573,0,0,0,0,0,0.600775,0.213912,-1367821464,-1367821464,-1367821464,-1367821464,-1367821424,1902061014,659630286,-1367821424,0,-0.261799,0.000887441,-1.5,nan,0,0,3,0,0,0,0,0,0,0,0
130,-3.2124e-12,8.75736e-38,-1.55272e-06,-3.27827e-12,8.75688e-38,-3.40903e-12,-1.06592e-13,0,0,-3.39923,0.213912,-0.137573,0,0,0,0,0,0.600775,0.213912,-1367821464,-1367821464,-1367821464,-1367821464,-1367821424,1902061014,659630286,-1367821424,0,-0.261799,0.000854113,-1.5,nan,0,0,3,0,0,0,0,0,0,0,0
140,-3.2124e-12,8.75736e-38,-1.55272e-06,-3.27827e-12,8.75688e-38,0,-1.06592e-13,0,0,-3.43236,0.221239,-0.12502,0,0,0,0,0,0.567642,0.221239,-1367821464,-1367821464,-1367821464,-1367821464,-1367821424,1902061014,659630286,-1367821424,0,-0.261799,0.000820357,-1.5,nan,0,0,3,0,0,0,0,0,0,0,0
150,-3.2124e-12,8.75736e-38,-1.55272e-06,-3.27827e-12,8.75688e-38,-3.40903e-12,-1.06593e-13,0,0,-3.34307,0.18191,-0.157176,0,0,0,0,0,0.656925,0.18191,-1367821464,-1367821464,-1367821464,-1367821464,-1367821424,1902061014,659630286,-1367821424,0,-0.261799,0.000784741,-1.5,nan,0,0,3,0,0,0,0,0,0,0,0
160,-3.2124e-12,8.75736e-38,-1.55272e-06,-3.27827e-12,8.75688e-38,0,-1.06593e-13,0,0,-3.34307,0.18191,-0.157176,0,0,0,0,0,0.656925,0.18191,-1367821464,-1367821464,-1367821464,-1367821464,-1367821424,1902061014,659630286,-1367821424,0,-0.261799,0.000756815,-1.5,nan,0,0,3,0,0,0,0,0,0,0,0
170,-3.2124e-12,8.75736e-38,-1.55272e-06,-3.27827e-12,8.75688e-38,-3.40903e-12,-1.06593e-13,0,0,-3.38808,0.196637,-0.132977,0,0,0,0,0,0.61192,0.196637,-1367821464,-1367821464,-1367821464,-1367821464,-1367821424,1902061014,659630286,-1367821424,-0.261799,-0.261799,0.000713497,-1.5,nan,0,0,3,0.614614,0.192463,0,0,0,0,0.092879,-0.143953
180,-3.2124e-12,8.75736e-38,-1.55272e-06,-3.27827e-12,8.75688e-38,0,-1.06593e-13,0,0,-3.4427,0.211667,-0.116053,0,0,0,0,0,0.557303,0.211667,-1367821464,-1367821464,-1367821464,-1367821464,-1367821424,1902061014,659630286,-1367821424,-0.261799,-0.261799,0.00068117,-1.5,nan,0,0,3,0.554903,0.211543,0,0,0,0,-0.266699,-0.0137729
190,-3.2124e-12,8.75736e-38,-1.55272e-06,-3.27827e-12,8.75688e-38,-3.40903e-12,-1.06594e-13,0,0,-3.4427,0.211667,-0.116053,0,0,0,0,0,0.557303,0.211667,-1367821464,-1367821464,-1367821464,-1367821464,-1367821424,1902061014,659630286,-1367821424,-0.261799,-0.261799,0.000662292,-1.5,nan,0,0,3,0.551169,0.21135,0,0,0,0,-0.266699,-0.0137729
200,-3.2124e-12,8.75736e-38,-1.55272e-06,-3.27827e-12,8.75688e-38,0,-1.06594e-13,0,0,-3.42341,0.215256,-0.12924,0,0,0,0,0,0.576594,0.215256,-1367821464,-1367821464,-1367821464,-1367821464,-1367821424,1902061014,659630286,-1367821424,-0.261799,-0.261799,0.000632285,-1.5,nan,0,0,3,0.575251,0.211033,0,0,0,0,-0.122125,-0.0137726
210,-3.2124e-12,8.75736e-38,-1.55272e-06,-3.27827e-12,8.75688e-38,-3.40903e-12,-1.06594e-13,0,0,-3.42341,0.215256,-0.12924,0,0,0,0,0,0.576594,0.215256,-1367821464,-1367821464,-1367821464,-1367821464,-1367821424,1902061014,659630286,-1367821424,-0.261799,-0.261799,0.000606051,-1.5,nan,0,0,3,0.572686,0.210744,0,0,0,0,-0.122125,-0.0137726
220,-3.2124e-12,8.75736e-38,-1.55272e-06,-3.27827e-12,8.75688e-38,0,-1.06594e-13,0,0,-3.43571,0.208892,-0.128822,0,0,0,0,0,0.564286,0.208892,-1367821464,-1367821464,-1367821464,-1367821464,-1367821424,1902061014,659630286,-1367821424,-0.261799,-0.261799,0.000577327,-1.5,nan,0,0,3,0.560478,0.208368,0,0,0,0,-0.158648,-0.0218245
230,-3.2124e-12,8.75736e-38,-1.55272e-06,-3.27827e-12,8.75688e-38,-3.40903e-12,-1.06597e-13,0,0,-3.4529,0.209549,-0.116597,0,0,0,0,0,0.547102,0.209549,-1367821464,-1367821464,-1367821464,-1367821464,-1367821424,1902061014,659630286,-1367821424,-0.261799,-0.261799,0.00052301,-1.5,nan,0,0,3,0.557328,0.209494,0,0,0,0,-0.145758,-0.0147973
240,-3.2124e-12,8.75736e-38,-1.55272e-06,-3.27827e-12,8.75688e-38,0,-1.06595e-13,0,0,-3.4529,0.209549,-0.116597,0,0,0,0,0,0.547102,0.209549,-1367821464,-1367821464,-1367821464,-1367821464,-1367821424,1902061014,659630286,-1367821424,-0.261799,-0.261799,0.000494104,-1.5,nan,0,0,3,0.553246,0.20908,0,0,0,0,-0.145758,-0.0147973
250,-3.2124e-12,8.75736e-38,-1.55272e-06,-3.27827e-12,8.75688e-38,-3.40903e-12,-1.06595e-13,0,0,-3.41652,0.19687,-0.130556,0,0,0,0,0,0.583482,0.19687,-1367821464,-1367821464,-1367821464,-1367821464,-1367821424,1902061014,659630286,-1367821424,-0.261799,-0.261799,0.000469713,-1.5,nan,0,0,3,0.559492,0.208939,0,0,0,0,-0.105599,-0.0136407
260,-3.2124e-12,8.75736e-38,-1.55272e-06,-3.27827e-12,8.75688e-38,0,-1.06596e-13,0,0,-3.4529,0.209549,-0.116597,0,0,0,0,0,0.547102,0.209549,-1367821464,-1367821464,-1367821464,-1367821464,-1367821424,1902061014,659630286,-1367821424,-0.261799,-0.261799,0.000444707,-1.5,nan,0,0,3,0.544875,0.208345,0,0,0,0,-0.144576,-0.0136387
270,-3.2124e-12,8.75736e-38,-1.55272e-06,-3.27827e-12,8.75688e-38,-3.40903e-12,-1.06596e-13,0,0,-3.43243,0.207091,-0.144827,0,0,0,0,0,0.567571,0.207091,-1367821464,-1367821464,-1367821464,-1367821464,-1367821424,1902061014,659630286,-1367821424,-0.261799,-0.261799,0.000423706,-1.5,nan,0,0,3,0.55645,0.20752,0,0,0,0,-0.102435,-0.0161625
280,-3.2124e-12,8.75736e-38,-1.55272e-06,-3.27827e-12,8.75688e-38,0,-1.06595e-13,0,0,-3.43243,0.207091,-0.144827,0,0,0,0,0,0.567571,0.207091,-1367821464,-1367821464,-1367821464,-1367821464,-1367821424,1902061014,659630286,-1367821424,-0.261799,-0.261799,0.000407794,-1.5,nan,0,0,3,0.554504,0.207212,0,0,0,0,-0.102435,-0.0161625
290,-3.2124e-12,8.75736e-38,-1.55272e-06,-3.27827e-12,8.75688e-38,-3.40903e-12,-1.06597e-13,0,0,-3.41143,0.205261,-0.154298,0,0,0,0,0,0.58857,0.205261,-1367821464,-1367821464,-1367821464,-1367821464,-1367821424,1902061014,659630286,-1367821424,-0.261799,-0.261799,0.000386861,-1.5,nan,0,0,3,0.563247,0.205954,0,0,0,0,-0.0693301,-0.0189241
300,-3.2124e-12,8.75736e-38,-1.55272e-06,-3.27827e-12,8.75688e-38,0,-1.06597e-13,0,0,-3.36328,0.185651,-0.174909,0,0,0,0,0,0.636723,0.185651,-1367821464,-1367821464,-1367821464,-1367821464,-1367821424,1902061014,659630286,-1367821424,-0.261799,-0.261799,0.000366241,-1.5,nan,0,0,3,0.564284,0.205769,0,0,0,0,-0.076244,-0.017008
310,-3.2124e-12,8.75736e-38,-1.55272e-06,-3.27827e-12,8.75688e-38,-3.40903e-12,-1.066e-13,0,0,-3.36328,0.185651,-0.174909,0,0,0,0,0,0.636723,0.185651,-1367821464,-1367821464,-1367821464,-1367821464,-1367821424,1902061014,659630286,-1367821424,-0.261799,-0.261799,0.000348954,-1.5,nan,0,0,3,0.59133,0.20353,0,0,0,0,0.042948,-0.0208533
320,-3.2124e-12,8.75736e-38,-1.55272e-06,-3.27827e-12,8.75688e-38,0,-1.06596e-13,0,0,-3.36328,0.185651,-0.174909,0,0,0,0,0,0.636723,0.185651,-1367821464,-1367821464,-1367821464,-1367821464,-1367821424,1902061014,659630286,-1367821424,-0.261799,-0.261799,0.000338597,-1.5,nan,0,0,3,0.591974,0.203217,0,0,0,0,0.042948,-0.0208533
330,-3.2124e-12,8.75736e-38,-1.55272e-06,-3.27827e-12,8.75688e-38,-3.40903e-12,-1.06601e-13,0,0,-3.44013,0.192584,-0.146523,0,0,0,0,0,0.559867,0.192584,-1367821464,-1367821464,-1367821464,-1367821464,-1367821424,1902061014,659630286,-1367821424,-0.261799,-0.261799,0.000321941,-1.5,nan,0,0,3,0.567902,0.193838,0,0,0,0,-0.0582217,-0.0478525
340,-3.2124e-12,8.75736e-38,-1.55272e-06,-3.27827e-12,8.75688e-38,0,-1.06601e-13,0,0,-3.35787,0.185927,-0.170491,0,0,0,0,0,0.642134,0.185927,-1367821464,-1367821464,-1367821464,-1367821464,-1367821424,1902061014,659630286,-1367821424,-0.261799,-0.261799,0.000301705,-1.5,nan,0,0,3,0.596115,0.190316,0,0,0,0,0.0517851,-0.0528767
350,-3.2124e-12,8.75736e-38,-1.55272e-06,-3.27827e-12,8.75688e-38,-3.40903e-12,-1.066e-13,0,0,-3.35787,0.185927,-0.170491,0,0,0,0,0,0.642134,0.185927,-1367821464,-1367821464,-1367821464,-1367821464,-1367821424,1902061014,659630286,-1367821424,-0.261799,-0.261799,0.000289187,-1.5,nan,0,0,3,0.597202,0.189205,0,0,0,0,0.0517851,-0.0528767
360,-3.2124e-12,8.75736e-38,-1.55272e-06,-3.27827e-12,8.75688e-38,0,-1.06602e-13,0,0,-3.43734,0.19476,-0.133225,0,0,0,0,0,0.562655,0.19476,-1367821464,-1367821464,-1367821464,-1367821464,-1367821424,1902061014,659630286,-1367821424,-0.261799,-0.261799,0.00027436,-1.5,nan,0,0,3,0.569107,0.190586,0,0,0,0,-0.0441247,-0.0468633
370,-3.2124e-12,8.75736e-38,-1.55272e-06,-3.27827e-12,8.75688e-38,-3.40903e-12,-1.06602e-13,0,0,-3.4001,0.184562,-0.14205,0,0,0,0,0,0.5999,0.184562,-1367821464,-1367821464,-1367821464,-1367821464,-1367821424,1902061014,659630286,-1367821424,-0.261799,-0.261799,0.000259737,-1.5,nan,0,0,3,0.601247,0.185514,0,0,0,0,0.0568623,-0.053658
380,-3.2124e-12,8.75736e-38,-1.55272e-06,-3.27827e-12,8.75688e-38,0,-1.06598e-13,0,0,-3.36408,0.17597,-0.150436,0,0,0,0,0,0.635925,0.17597,-1367821464,-1367821464,-1367821464,-1367821464,-1367821424,1902061014,659630286,-1367821424,-0.261799,-0.261799,0.000245448,-1.5,nan,0,0,3,0.603767,0.181967,0,0,0,0,0.0581836,-0.0597834
390,-3.2124e-12,8.75736e-38,-1.55272e-06,-3.27827e-12,8.75688e-38,-3.40903e-12,-1.06598e-13,0,0,-3.36408,0.17597,-0.150436,0,0,0,0,0,0.635925,0.17597,-1367821464,-1367821464,-1367821464,-1367821464,-1367821424,1902061014,659630286,-1367821424,-0.261799,-0.261799,0.000236238,-1.5,nan,0,0,3,0.604873,0.180831,0,0,0,0,0.0581836,-0.0597834
400,-3.2124e-12,8.75736e-38,-1.55272e-06,-3.27827e-12,8.75688e-38,0,-1.06599e-13,0,0,-3.35529,0.19002,-0.161559,0,0,0,0,0,0.644708,0.19002,-1367821464,-1367821464,-1367821464,-1367821464,-1367821424,1902061014,659630286,-1367821424,-0.261799,-0.261799,0.000223662,-1.5,nan,0,0,3,0.610661,0.182555,0,0,0,0,0.0651,-0.0521078
410,-3.2124e-12,8.75736e-38,-1.55272e-06,-3.27827e-12,8.75688e-38,-3.40903e-12,-1.06599e-13,0,0,-3.45851,0.209997,-0.111558,0,0,0,0,0,0.541489,0.209997,-1367821464,-1367821464,-1367821464,-1367821464,-1367821424,1902061014,659630286,-1367821424,-0.261799,-0.261799,0.000211741,-1.5,nan,0,0,3,0.609722,0.186215,0,0,0,0,0.0627471,-0.0439442
420,-3.2124e-12,8.75736e-38,-1.55272e-06,-3.27827e-12,8.75688e-38,0,-1.06599e-13,0,0,-3.43015,0.200931,-0.1239,0,0,0,0,0,0.569846,0.200931,-1367821464,-1367821464,-1367821464,-1367821464,-1367821424,1902061014,659630286,-1367821424,-0.261799,-0.261799,0.000200872,-1.5,nan,0,0,3,0.602605,0.186921,0,0,0,0,0.0436846,-0.038694
430,-3.2124e-12,8.75736e-38,-1.55272e-06,-3.27827e-12,8.75688e-38,-3.40903e-12,-1.06602e-13,0,0,-3.37135,0.187945,-0.149309,0,0,0,0,0,0.628647,0.187945,-1367821464,-1367821464,-1367821464,-1367821464,-1367821424,1902061014,659630286,-1367821424,-0.261799,-0.261799,0.000189814,-1.5,nan,0,0,3,0.610862,0.186011,0,0,0,0,0.0568379,-0.0396755
440,-3.2124e-12,8.75736e-38,-1.55272e-06,-3.27827e-12,8.75688e-38,0,-1.06598e-13,0,0,-3.37135,0.187945,-0.149309,0,0,0,0,0,0.628647,0.187945,-1367821464,-1367821464,-1367821464,-1367821464,-1367821424,1902061014,659630286,-1367821424,-0.261799,-0.261799,0.00018381,-1.5,nan,0,0,3,0.611771,0.185376,0,0,0,0,0.0568379,-0.0396755
450,-3.2124e-12,8.75736e-38,-1.55272e-06,-3.27827e-12,8.75688e-38,-3.40903e-12,-1.06603e-13,0,0,-3.42394,0.200757,-0.124285,0,0,0,0,0,0.57606,0.200757,-1367821464,-1367821464,-1367821464,-1367821464,-1367821424,1902061014,659630286,-1367821424,-0.261799,-0.261799,0.000175848,-1.5,nan,0,0,3,0.605493,0.185122,0,0,0,0,0.0444194,-0.0386647
460,-3.2124e-12,8.75736e-38,-1.55272e-06,-3.27827e-12,8.75688e-38,0,-1.06599e-13,0,0,-3.42394,0.200757,-0.124285,0,0,0,0,0,0.57606,0.200757,-1367821464,-1367821464,-1367821464,-1367821464,-1367821424,1902061014,659630286,-1367821424,-0.261799,-0.261799,0.000168898,-1.5,nan,0,0,3,0.606381,0.184349,0,0,0,0,0.0444194,-0.0386647
470,-3.2124e-12,8.75736e-38,-1.55272e-06,-3.27827e-12,8.75688e-38,-3.40903e-12,-1.06603e-13,0,0,-3.43289,0.203752,-0.120339,0,0,0,0,0,0.567113,0.203752,-1367821464,-1367821464,-1367821464,-1367821464,-1367821424,1902061014,659630286,-1367821424,-0.261799,-0.261799,0.000159243,-1.5,nan,0,0,3,0.573289,0.183935,0,0,0,0,-0.0175535,-0.0376832
480,-3.2124e-12,8.75736e-38,-1.55272e-06,-3.27827e-12,8.75688e-38,0,-1.06604e-13,0,0,-3.40641,0.197237,-0.131573,0,0,0,0,0,0.593594,0.197237,-1367821464,-1367821464,-1367821464,-1367821464,-1367821424,1902061014,659630286,-1367821424,-0.261799,-0.261799,0.000151068,-1.5,nan,0,0,3,0.591518,0.19499,0,0,0,0,0.0123437,-0.0206844
490,-3.2124e-12,8.75736e-38,-1.55272e-06,-3.27827e-12,8.75688e-38,-3.40903e-12,-1.06604e-13,0,0,-3.4153,0.210242,-0.137361,0,0,0,0,0,0.584699,0.210242,-1367821464,-1367821464,-1367821464,-1367821464,-1367821424,1902061014,659630286,-1367821424,-0.261799,-0.261799,0.000142758,-1.5,nan,0,0,3,0.584098,0.195884,0,0,0,0,0.00377686,-0.0176199
500,-3.2124e-12,8.75736e-38,-1.55272e-06,-3.27827e-12,8.75688e-38,0,-1.06604e-13,0,0,-3.43456,0.216304,-0.129063,0,0,0,0,0,0.565439,0.216304,-1367821464,-1367821464,-1367821464,-1367821464,-1367821424,1902061014,659630286,-1367821424,-0.261799,-0.261799,0.000135461,-1.5,nan,0,0,3,0.581327,0.195501,0,0,0,0,-0.00357885,-0.0181123
510,-3.2124e-12,8.75736e-38,-1.55272e-06,-3.27827e-12,8.75688e-38,-3.40903e-12,-1.06603e-13,0,0,-3.43456,0.216304,-0.129063,0,0,0,0,0,0.565439,0.216304,-1367821464,-1367821464,-1367821464,-1367821464,-1367821424,1902061014,659630286,-1367821424,-0.261799,-0.261799,0.000130374,-1.5,nan,0,0,3,0.581259,0.195156,0,0,0,0,-0.00357885,-0.0181123
520,-3.2124e-12,8.75736e-38,-1.55272e-06,-3.27827e-12,8.75688e-38,0,-1.06602e-13,0,0,-3.42236,0.215402,-0.131906,0,0,0,0,0,0.57764,0.215402,-1367821464,-1367821464,-1367821464,-1367821464,-1367821424,1902061014,659630286,-1367821424,-0.261799,-0.261799,0.000122912,-1.5,nan,0,0,3,0.579469,0.195768,0,0,0,0,-0.00501085,-0.016708
530,-3.2124e-12,8.75736e-38,-1.55272e-06,-3.27827e-12,8.75688e-38,-3.40903e-12,-1.06601e-13,0,0,-3.42214,0.215957,-0.154311,0,0,0,0,0,0.577858,0.215957,-1367821464,-1367821464,-1367821464,-1367821464,-1367821424,1902061014,659630286,-1367821424,-0.261799,-0.261799,0.000115877,-1.5,nan,0,0,3,0.579087,0.198212,0,0,0,0,0.00335301,-0.0116681
540,-3.2124e-12,8.75736e-38,-1.55272e-06,-3.27827e-12,8.75688e-38,0,-1.06604e-13,0,0,-3.39273,0.219413,-0.167434,0,0,0,0,0,0.607267,0.219413,-1367821464,-1367821464,-1367821464,-1367821464,-1367821424,1902061014,659630286,-1367821424,-0.261799,-0.261799,0.000110181,-1.5,nan,0,0,3,0.579342,0.206256,0,0,0,0,-0.00210043,0.0101408
550,-3.2124e-12,8.75736e-38,-1.55272e-06,-3.27827e-12,8.75688e-38,-3.40903e-12,-1.06605e-13,0,0,-3.39273,0.219413,-0.167434,0,0,0,0,0,0.607267,0.219413,-1367821464,-1367821464,-1367821464,-1367821464,-1367821424,1902061014,659630286,-1367821424,-0.261799,-0.261799,0.000105614,-1.5,nan,0,0,3,0.579298,0.206469,0,0,0,0,-0.00210043,0.0101408
560,-3.2124e-12,8.75736e-38,-1.55272e-06,-3.27827e-12,8.75688e-38,0,-1.06605e-13,0,0,-3.4181,0.211175,-0.154236,0,0,0,0,0,0.581896,0.211175,-1367821464,-1367821464,-1367821464,-1367821464,-1367821424,1902061014,659630286,-1367821424,-0.261799,-0.261799,0.000101024,-1.5,nan,0,0,3,0.582351,0.203862,0,0,0,0,0.00608159,-0.00138818
570,-3.2124e-12,8.75736e-38,-1.55272e-06,-3.27827e-12,8.75688e-38,-3.40903e-12,-1.06605e-13,0,0,-3.50819,0.221536,-0.134347,0,0,0,0,0,0.491811,0.221536,-1367821464,-1367821464,-1367821464,-1367821464,-1367821424,1902061014,659630286,-1367821424,-0.261799,-0.261799,9.58645e-05,-1.5,nan,0,0,3,0.579484,0.211935,0,0,0,0,0.0029595,0.0085371
580,-3.2124e-12,8.75736e-38,-1.55272e-06,-3.27827e-12,8.75688e-38,0,-1.06606e-13,0,0,-3.50819,0.221536,-0.134347,0,0,0,0,0,0.491811,0.221536,-1367821464,-1367821464,-1367821464,-1367821464,-1367821424,1902061014,659630286,-1367821424,-0.261799,-0.261799,9.20757e-05,-1.5,nan,0,0,3,0.579546,0.212115,0,0,0,0,0.0029595,0.0085371
590,-3.2124e-12,8.75736e-38,-1.55272e-06,-3.27827e-12,8.75688e-38,-3.40903e-12,-1.06606e-13,0,0,-3.47027,0.234737,-0.158623,0,0,0,0,0,0.529726,0.234737,-1367821464,-1367821464,-1367821464,-1367821464,-1367821424,1902061014,659630286,-1367821424,-0.261799,-0.261799,8.71921e-05,-1.5,nan,0,0,3,0.578111,0.212503,0,0,0,0,0.00141345,0.0109754
600,-3.2124e-12,8.75736e-38,-1.55272e-06,-3.27827e-12,8.75688e-38,0,-1.06606e-13,0,0,-3.38069,0.226085,-0.199002,0,0,0,0,0,0.61931,0.226085,-1367821464,-1367821464,-1367821464,-1367821464,-1367821424,1902061014,659630286,-1367821424,-0.261799,-0.261799,8.22077e-05,-1.5,nan,0,0,3,0.579262,0.21762,0,0,0,0,-0.0046356,0.0251008
610,-3.2124e-12,8.75736e-38,-1.55272e-06,-3.27827e-12,8.75688e-38,-3.40903e-12,-1.06606e-13,0,0,-3.38387,0.231012,-0.178271,0,0,0,0,0,0.616129,0.231012,-1367821464,-1367821464,-1367821464,-1367821464,-1367821424,1902061014,659630286,-1367821424,-0.261799,-0.261799,7.75025e-05,-1.5,nan,0,0,3,0.580778,0.22722,0,0,0,0,-0.00512923,0.048714
620,-3.2124e-12,8.75736e-38,-1.55272e-06,-3.27827e-12,8.75688e-38,0,-1.06607e-13,0,0,-3.44025,0.239969,-0.161654,0,0,0,0,0,0.559755,0.239969,-1367821464,-1367821464,-1367821464,-1367821464,-1367821424,1902061014,659630286,-1367821424,-0.261799,-0.261799,7.3994e-05,-1.5,nan,0,0,3,0.576335,0.228751,0,0,0,0,-0.00535421,0.0497248
630,-3.2124e-12,8.75736e-38,-1.55272e-06,-3.27827e-12,8.75688e-38,-3.40903e-12,-1.06607e-13,0,0,-3.44025,0.239969,-0.161654,0,0,0,0,0,0.559755,0.239969,-1367821464,-1367821464,-1367821464,-1367821464,-1367821424,1902061014,659630286,-1367821424,-0.261799,-0.261799,7.09269e-05,-1.5,nan,0,0,3,0.576223,0.229795,0,0,0,0,-0.00535421,0.0497248
640,-3.2124e-12,8.75736e-38,-1.55272e-06,-3.27827e-12,8.75688e-38,0,-1.06607e-13,0,0,-3.37962,0.212278,-0.165942,0,0,0,0,0,0.620379,0.212278,-1367821464,-1367821464,-1367821464,-1367821464,-1367821424,1902061014,659630286,-1367821424,-0.261799,-0.261799,6.68673e-05,-1.5,nan,0,0,3,0.578523,0.232485,0,0,0,0,-0.00502574,0.0539038
650,-3.2124e-12,8.75736e-38,-1.55272e-06,-3.27827e-12,8.75688e-38,-3.40903e-12,-1.06607e-13,0,0,-3.41784,0.226784,-0.151202,0,0,0,0,0,0.582161,0.226784,-1367821464,-1367821464,-1367821464,-1367821464,-1367821424,1902061014,659630286,-1367821424,-0.261799,-0.261799,6.33075e-05,-1.5,nan,0,0,3,0.581694,0.233255,0,0,0,0,-0.00384683,0.0526745
660,-3.2124e-12,8.75736e-38,-1.55272e-06,-3.27827e-12,8.75688e-38,0,-1.06608e-13,0,0,-3.45283,0.24099,-0.141273,0,0,0,0,0,0.547172,0.24099,-1367821464,-1367821464,-1367821464,-1367821464,-1367821424,1902061014,659630286,-1367821424,-0.261799,-0.261799,5.98249e-05,-1.5,nan,0,0,3,0.580224,0.236751,0,0,0,0,-0.00896503,0.0580998
670,-3.2124e-12,8.75736e-38,-1.55272e-06,-3.27827e-12,8.75688e-38,-3.40903e-12,-1.06608e-13,0,0,-3.45283,0.24099,-0.141273,0,0,0,0,0,0.547172,0.24099,-1367821464,-1367821464,-1367821464,-1367821464,-1367821424,1902061014,659630286,-1367821424,-0.261799,-0.261799,5.73427e-05,-1.5,nan,0,0,3,0.580036,0.237971,0,0,0,0,-0.00896503,0.0580998
680,-3.2124e-12,8.75736e-38,-1.55272e-06,-3.27827e-12,8.75688e-38,0,-1.06608e-13,0,0,-3.4358,0.23486,-0.148631,0,0,0,0,0,0.564196,0.23486,-1367821464,-1367821464,-1367821464,-1367821464,-1367821424,1902061014,659630286,-1367821424,-0.261799,-0.261799,5.45121e-05,-1.5,nan,0,0,3,0.563252,0.237297,0,0,0,0,-0.0443317,0.0542384
690,-3.2124e-12,8.75736e-38,-1.55272e-06,-3.27827e-12,8.75688e-38,-3.40903e-12,-1.06609e-13,0,0,-3.42616,0.234042,-0.1628,0,0,0,0,0,0.573838,0.234042,-1367821464,-1367821464,-1367821464,-1367821464,-1367821424,1902061014,659630286,-1367821424,-0.261799,-0.261799,5.19312e-05,-1.5,nan,0,0,3,0.561977,0.239992,0,0,0,0,-0.0453062,0.0570372
700,-3.2124e-12,8.75736e-38,-1.55272e-06,-3.27827e-12,8.75688e-38,0,-1.06609e-13,0,0,-3.42616,0.234042,-0.1628,0,0,0,0,0,0.573838,0.234042,-1367821464,-1367821464,-1367821464,-1367821464,-1367821424,1902061014,659630286,-1367821424,-0.261799,-0.261799,4.99826e-05,-1.5,nan,0,0,3,0.561116,0.241075,0,0,0,0,-0.0453062,0.0570372
710,-3.2124e-12,8.75736e-38,-1.55272e-06,-3.27827e-12,8.75688e-38,-3.40903e-12,-1.06609e-13,0,0,-3.39447,0.224997,-0.183951,0,0,0,0,0,0.605528,0.224997,-1367821464,-1367821464,-1367821464,-1367821464,-1367821424,1902061014,659630286,-1367821424,-0.261799,-0.261799,4.74199e-05,-1.5,nan,0,0,3,0.572588,0.242283,0,0,0,0,-0.0229901,0.0568528
720,-3.2124e-12,8.75736e-38,-1.55272e-06,-3.27827e-12,8.75688e-38,0,-1.06609e-13,0,0,-3.47564,0.223464,-0.14404,0,0,0,0,0,0.524362,0.223464,-1367821464,-1367821464,-1367821464,-1367821464,-1367821424,1902061014,659630286,-1367821424,-0.261799,-0.261799,4.49858e-05,-1.5,nan,0,0,3,0.571004,0.241111,0,0,0,0,-0.015072,0.053526
730,-3.2124e-12,8.75736e-38,-1.55272e-06,-3.27827e-12,8.75688e-38,-3.40903e-12,-1.0661e-13,0,0,-3.43503,0.2304,-0.171211,0,0,0,0,0,0.564969,0.2304,-1367821464,-1367821464,-1367821464,-1367821464,-1367821424,1902061014,659630286,-1367821424,-0.261799,-0.261799,4.27756e-05,-1.5,nan,0,0,3,0.561951,0.243237,0,0,0,0,-0.035486,0.057951
740,-3.2124e-12,8.75736e-38,-1.55272e-06,-3.27827e-12,8.75688e-38,0,-1.0661e-13,0,0,-3.39585,0.222999,-0.188072,0,0,0,0,0,0.604155,0.222999,-1367821464,-1367821464,-1367821464,-1367821464,-1367821424,1902061014,659630286,-1367821424,-0.261799,-0.261799,4.00078e-05,-1.5,nan,0,0,3,0.569425,0.241764,0,0,0,0,-0.0156639,0.0495131
750,-3.2124e-12,8.75736e-38,-1.55272e-06,-3.27827e-12,8.75688e-38,-3.40903e-12,-1.0661e-13,0,0,-3.39585,0.222999,-0.188072,0,0,0,0,0,0.604155,0.222999,-1367821464,-1367821464,-1367821464,-1367821464,-1367821424,1902061014,659630286,-1367821424,-0.261799,-0.261799,3.83478e-05,-1.5,nan,0,0,3,0.569096,0.242804,0,0,0,0,-0.0156639,0.0495131
760,-3.2124e-12,8.75736e-38,-1.55272e-06,-3.27827e-12,8.75688e-38,0,-1.0661e-13,0,0,-3.42959,0.23459,-0.178412,0,0,0,0,0,0.57041,0.23459,-1367821464,-1367821464,-1367821464,-1367821464,-1367821424,1902061014,659630286,-1367821424,-0.261799,-0.261799,3.65303e-05,-1.5,nan,0,0,3,0.56877,0.241367,0,0,0,0,-0.0221166,0.047223
770,-3.2124e-12,8.75736e-38,-1.55272e-06,-3.27827e-12,8.75688e-38,-3.40903e-12,-1.06611e-13,0,0,-3.41516,0.241211,-0.196941,0,0,0,0,0,0.584838,0.241211,-1367821464,-1367821464,-1367821464,-1367821464,-1367821424,1902061014,659630286,-1367821424,-0.261799,-0.261799,3.46551e-05,-1.5,nan,0,0,3,0.570167,0.242737,0,0,0,0,-0.0129782,0.0465695
780,-3.2124e-12,8.75736e-38,-1.55272e-06,-3.27827e-12,8.75688e-38,0,-1.06611e-13,0,0,-3.46418,0.24007,-0.18603,0,0,0,0,0,0.53582,0.24007,-1367821464,-1367821464,-1367821464,-1367821464,-1367821424,1902061014,659630286,-1367821424,-0.261799,-0.261799,3.28171e-05,-1.5,nan,0,0,3,0.573545,0.241956,0,0,0,0,-0.00637225,0.0430332
790,-3.2124e-12,8.75736e-38,-1.55272e-06,-3.27827e-12,8.75688e-38,-3.40903e-12,-1.06611e-13,0,0,-3.46418,0.24007,-0.18603,0,0,0,0,0,0.53582,0.24007,-1367821464,-1367821464,-1367821464,-1367821464,-1367821424,1902061014,659630286,-1367821424,-0.261799,-0.261799,3.15857e-05,-1.5,nan,0,0,3,0.573424,0.242774,0,0,0,0,-0.00637225,0.0430332
800,-3.2124e-12,8.75736e-38,-1.55272e-06,-3.27827e-12,8.75688e-38,0,-1.06611e-13,0,0,-3.46005,0.226589,-0.186901,0,0,0,0,0,0.539954,0.226589,-1367821464,-1367821464,-1367821464,-1367821464,-1367821424,1902061014,659630286,-1367821424,-0.261799,-0.261799,2.99662e-05,-1.5,nan,0,0,3,0.569804,0.241483,0,0,0,0,-0.0102012,0.0366231
810,-3.2124e-12,8.75736e-38,-1.55272e-06,-3.27827e-12,8.75688e-38,-3.40903e-12,-1.06612e-13,0,0,-3.47101,0.230089,-0.189629,0,0,0,0,0,0.528988,0.230089,-1367821464,-1367821464,-1367821464,-1367821464,-1367821424,1902061014,659630286,-1367821424,-0.261799,-0.261799,2.86099e-05,-1.5,nan,0,0,3,0.560734,0.243017,0,0,0,0,-0.0225486,0.0401076
820,-3.2124e-12,8.75736e-38,-1.55272e-06,-3.27827e-12,8.75688e-38,0,-1.06612e-13,0,0,-3.47101,0.230089,-0.189629,0,0,0,0,0,0.528988,0.230089,-1367821464,-1367821464,-1367821464,-1367821464,-1367821424,1902061014,659630286,-1367821424,-0.261799,-0.261799,2.74792e-05,-1.5,nan,0,0,3,0.560283,0.243819,0,0,0,0,-0.0225486,0.0401076
830,-3.2124e-12,8.75736e-38,-1.55272e-06,-3.27827e-12,8.75688e-38,-3.40903e-12,-1.06612e-13,0,0,-3.44179,0.235311,-0.20257,0,0,0,0,0,0.558215,0.235311,-1367821464,-1367821464,-1367821464,-1367821464,-1367821424,1902061014,659630286,-1367821424,-0.261799,-0.261799,2.56359e-05,-1.5,nan,0,0,3,0.5573,0.240667,0,0,0,0,-0.026795,0.031736
840,-3.2124e-12,8.75736e-38,-1.55272e-06,-3.27827e-12,8.75688e-38,0,-1.06613e-13,0,0,-3.37634,0.216575,-0.239561,0,0,0,0,0,0.623657,0.216575,-1367821464,-1367821464,-1367821464,-1367821464,-1367821424,1902061014,659630286,-1367821424,-0.261799,-0.261799,2.39668e-05,-1.5,nan,0,0,3,0.557041,0.238984,0,0,0,0,-0.0258696,0.0285538
850,-3.2124e-12,8.75736e-38,-1.55272e-06,-3.27827e-12,8.75688e-38,-3.40903e-12,-1.06613e-13,0,0,-3.37968,0.207569,-0.243028,0,0,0,0,0,0.620322,0.207569,-1367821464,-1367821464,-1367821464,-1367821464,-1367821424,1902061014,659630286,-1367821424,-0.261799,-0.261799,2.26438e-05,-1.5,nan,0,0,3,0.565747,0.237909,0,0,0,0,-0.0175361,0.0247764
860,-3.2124e-12,8.75736e-38,-1.55272e-06,-3.27827e-12,8.75688e-38,0,-1.06613e-13,0,0,-3.42121,0.217508,-0.226024,0,0,0,0,0,0.578794,0.217508,-1367821464,-1367821464,-1367821464,-1367821464,-1367821424,1902061014,659630286,-1367821424,-0.261799,-0.261799,2.13923e-05,-1.5,nan,0,0,3,0.565668,0.237995,0,0,0,0,-0.0175045,0.0233464
870,-3.2124e-12,8.75736e-38,-1.55272e-06,-3.27827e-12,8.75688e-38,-3.40903e-12,-1.06613e-13,0,0,-3.40421,0.209174,-0.225783,0,0,0,0,0,0.595791,0.209174,-1367821464,-1367821464,-1367821464,-1367821464,-1367821424,1902061014,659630286,-1367821424,-0.261799,-0.261799,1.74311e-05,-1.5,nan,0,0,3,0.573475,0.234526,0,0,0,0,-0.0046732,0.0161652
880,-3.2124e-12,8.75736e-38,-1.55272e-06,-3.27827e-12,8.75688e-38,0,-1.06614e-13,0,0,-3.53531,0.155123,-0.170396,0,0,0,0,0,0.464689,0.155123,-1367821464,-1367821464,-1367821464,-1367821464,-1367821424,1902061014,659630286,-1367821424,-0.261799,-0.261799,1.35586e-05,-1.5,nan,0,0,3,0.564273,0.230599,0,0,0,0,-0.0139074,0.0096527
890,-3.2124e-12,8.75736e-38,-1.55272e-06,-3.27827e-12,8.75688e-38,-3.40903e-12,-1.06614e-13,0,0,-3.45818,0.0676179,-0.146012,0,0,0,0,0,0.54182,0.0676179,-1367821464,-1367821464,-1367821464,-1367821464,-1367821424,1902061014,659630286,-1367821424,-0.261799,-0.261799,1.05196e-05,-1.5,nan,0,0,3,0.56112,0.210484,0,0,0,0,-0.0153059,-0.0193566
900,-3.2124e-12,8.75736e-38,-1.55272e-06,-3.27827e-12,8.75688e-38,0,-1.06614e-13,0,0,-3.38907,-0.00116089,-0.144463,0,0,0,0,0,0.610925,-0.00116089,-1367821464,-1367821464,-1367821464,-1367821464,-1367821424,1902061014,659630286,-1367821424,-0.261799,-0.261799,8.14125e-06,-1.5,nan,0,0,3,0.581533,0.190951,0,0,0,0,0.00673568,-0.0386358
910,-3.2124e-12,8.75736e-38,-1.55272e-06,-3.27827e-12,8.75688e-38,-3.40903e-12,-1.06614e-13,0,0,-3.43749,-0.0319217,-0.125472,0,0,0,0,0,0.562512,-0.0319217,-1367821464,-1367821464,-1367821464,-1367821464,-1367821424,1902061014,659630286,-1367821424,-0.261799,-0.261799,6.22064e-06,-1.5,nan,0,0,3,0.561027,0.18524,0,0,0,0,-0.0139505,-0.0422242
920,-3.2124e-12,8.75736e-38,-1.55272e-06,-3.27827e-12,8.75688e-38,0,-1.06615e-13,0,0,-3.44845,-0.0661821,-0.12521,0,0,0,0,0,0.551548,-0.0661821,-1367821464,-1367821464,-1367821464,-1367821464,-1367821424,1902061014,659630286,-1367821424,0.19379,-0.261799,4.59366e-06,-1.5,nan,0,0,3,0.558899,0.00300033,0,0,0,0,-0.012987,-0.200457
930,-3.2124e-12,8.75736e-38,-1.55272e-06,-3.27827e-12,8.75688e-38,-3.40903e-12,-1.06615e-13,0,0,-3.44845,-0.0661821,-0.12521,0,0,0,0,0,0.551548,-0.0661821,-1367821464,-1367821464,-1367821464,-1367821464,-1367821424,1902061014,659630286,-1367821424,0.209826,-0.261799,4.26745e-06,-1.5,nan,0,0,3,0.558432,-0.00421622,0,0,0,0,-0.012987,-0.200457
940,-3.2124e-12,8.75736e-38,-1.55272e-06,-3.27827e-12,8.75688e-38,0,-1.06615e-13,0,0,-3.46248,0.00862911,-0.15139,0,0,0,0,0,0.537515,0.00862911,-1367821464,-1367821464,-1367821464,-1367821464,-1367821424,1902061014,659630286,-1367821424,0.244777,-0.261799,2.34832e-06,-1.5,nan,0,0,3,0.545604,-0.0271867,0,0,0,0,-0.0207783,-0.184364
950,-3.2124e-12,8.75736e-38,-1.55272e-06,-3.27827e-12,8.75688e-38,-3.40903e-12,-1.06616e-13,0,0,-3.41492,-0.0132656,-0.13558,0,0,0,0,0,0.585081,-0.0132656,-1367821464,-1367821464,-1367821464,-1367821464,-1367821424,1902061014,659630286,-1367821424,0.214825,-0.261799,2.15412e-06,-1.5,nan,0,0,3,0.555994,-0.0180308,0,0,0,0,-0.0112118,-0.174757
960,-3.2124e-12,8.75736e-38,-1.55272e-06,-3.27827e-12,8.75688e-38,0,-1.06616e-13,0,0,-3.30603,0.101983,-0.100679,0,0,0,0,0,0.693973,0.101983,-1367821464,-1367821464,-1367821464,-1367821464,-1367821424,1902061014,659630286,-1367821424,0.240299,-0.261799,1.52051e-06,-1.5,nan,0,0,3,0.561987,-0.0304035,0,0,0,0,-0.00597775,-0.172737
970,-3.2124e-12,8.75736e-38,-1.55272e-06,-3.27827e-12,8.75688e-38,-3.40903e-12,-1.06616e-13,0,0,-3.30603,0.101983,-0.100679,0,0,0,0,0,0.693973,0.101983,-1367821464,-1367821464,-1367821464,-1367821464,-1367821424,1902061014,659630286,-1367821424,0.247208,-0.261799,1.46644e-06,-1.5,nan,0,0,3,0.56188,-0.0335128,0,0,0,0,-0.00597775,-0.172737
980,-3.2124e-12,8.75736e-38,-1.55272e-06,-3.27827e-12,8.75688e-38,0,-1.06616e-13,0,0,-3.44329,0.116014,-0.0329765,0,0,0,0,0,0.556714,0.116014,-1367821464,-1367821464,-1367821464,-1367821464,-1367821424,1902061014,659630286,-1367821424,0.239817,-0.261799,1.40291e-06,-1.5,nan,0,0,3,0.561549,-0.0318209,0,0,0,0,-0.00346252,-0.169106
990,-3.2124e-12,8.75736e-38,-1.55272e-06,-3.27827e-12,8.75688e-38,-3.40903e-12,-1.06617e-13,0,0,-3.44329,0.116014,-0.0329765,0,0,0,0,0,0.556714,0.116014,-1367821464,-1367821464,-1367821464,-1367821464,-1367821424,1902061014,659630286,-1367821424,0.246581,-0.261799,1.35303e-06,-1.5,nan,0,0,3,0.561486,-0.0348648,0,0,0,0,-0.00346252,-0.169106
1000,-3.2124e-12,8.75736e-38,-1.55272e-06,-3.27827e-12,8.75688e-38,0,-1.06617e-13,0,0,-3.53836,0.107847,0.00997326,0,0,0,0,0,0.461641,0.107847,-1367821464,-1367821464,-1367821464,-1367821464,-1367821424,1902061014,659630286,-1367821424,0.233588,-0.261799,1.29422e-06,-1.5,nan,0,0,3,0.554719,-0.0309327,0,0,0,0,-0.0102086,-0.16485
1010,-3.2124e-12,8.75736e-38,-1.55272e-06,-3.27827e-12,8.75688e-38,-3.40903e-12,-1.06617e-13,0,0,-3.41468,0.107201,-0.033321,0,0,0,0,0,0.585321,0.107201,-1367821464,-1367821464,-1367821464,-1367821464,-1367821424,1902061014,659630286,-1367821424,-0.0774674,-0.261799,1.23564e-06,-1.5,nan,0,0,3,0.557792,0.0780806,0,0,0,0,-0.00770889,-0.0960411
1020,-3.2124e-12,8.75736e-38,-1.55272e-06,-3.27827e-12,8.75688e-38,0,-1.06617e-13,0,0,-3.41468,0.107201,-0.033321,0,0,0,0,0,0.585321,0.107201,-1367821464,-1367821464,-1367821464,-1367821464,-1367821424,1902061014,659630286,-1367821424,-0.0736258,-0.261799,1.1917e-06,-1.5,nan,0,0,3,0.557653,0.0763518,0,0,0,0,-0.00770889,-0.0960411
1030,-3.2124e-12,8.75736e-38,-1.55272e-06,-3.27827e-12,8.75688e-38,-3.40903e-12,-1.06618e-13,0,0,-3.33689,0.121936,-0.076671,0,0,0,0,0,0.663105,0.121936,-1367821464,-1367821464,-1367821464,-1367821464,-1367821424,1902061014,659630286,-1367821424,-0.120345,-0.261799,1.13991e-06,-1.5,nan,0,0,3,0.561066,0.0911485,0,0,0,0,-0.00506171,-0.0822026
1040,-3.2124e-12,8.75736e-38,-1.55272e-06,-3.27827e-12,8.75688e-38,0,-1.06618e-13,0,0,-3.39118,0.130549,-0.0415914,0,0,0,0,0,0.608817,0.130549,-1367821464,-1367821464,-1367821464,-1367821464,-1367821424,1902061014,659630286,-1367821424,-0.0866864,-0.261799,1.08831e-06,-1.5,nan,0,0,3,0.586707,0.0799095,0,0,0,0,0.0141205,-0.0908864
1050,-3.2124e-12,8.75736e-38,-1.55272e-06,-3.27827e-12,8.75688e-38,-3.40903e-12,-1.06618e-13,0,0,-3.39118,0.130549,-0.0415914,0,0,0,0,0,0.608817,0.130549,-1367821464,-1367821464,-1367821464,-1367821464,-1367821424,1902061014,659630286,-1367821424,-0.0838588,-0.261799,1.05815e-06,-1.5,nan,0,0,3,0.586905,0.0786371,0,0,0,0,0.0141205,-0.0908864
1060,-3.2124e-12,8.75736e-38,-1.55272e-06,-3.27827e-12,8.75688e-38,0,-1.06619e-13,0,0,-3.39118,0.130549,-0.0415914,0,0,0,0,0,0.608817,0.130549,-1367821464,-1367821464,-1367821464,-1367821464,-1367821424,1902061014,659630286,-1367821424,-0.078007,-0.261799,1.01024e-06,-1.5,nan,0,0,3,0.589898,0.075474,0,0,0,0,0.0129155,-0.0897092
1070,-3.2124e-12,8.75736e-38,-1.55272e-06,-3.27827e-12,8.75688e-38,-3.40903e-12,-1.06619e-13,0,0,-3.39118,0.130549,-0.0415914,0,0,0,0,0,0.608817,0.130549,-1367821464,-1367821464,-1367821464,-1367821464,-1367821424,1902061014,659630286,-1367821424,-0.0744187,-0.261799,9.74321e-07,-1.5,nan,0,0,3,0.59013,0.0738592,0,0,0,0,0.0129155,-0.0897092
1080,-3.2124e-12,8.75736e-38,-1.55272e-06,-3.27827e-12,8.75688e-38,0,-1.06619e-13,0,0,-3.34638,0.119428,-0.069562,0,0,0,0,0,0.653621,0.119428,-1367821464,-1367821464,-1367821464,-1367821464,-1367821424,1902061014,659630286,-1367821424,-0.128057,-0.261799,9.31978e-07,-1.5,nan,0,0,3,0.593117,0.0946878,0,0,0,0,0.0141782,-0.0823551
1090,-3.2124e-12,8.75736e-38,-1.55272e-06,-3.27827e-12,8.75688e-38,-3.40903e-12,-1.06619e-13,0,0,-3.29093,0.103388,-0.0932546,0,0,0,0,0,0.709066,0.103388,-1367821464,-1367821464,-1367821464,-1367821464,-1367821424,1902061014,659630286,-1367821424,-0.148019,-0.261799,8.89789e-07,-1.5,nan,0,0,3,0.598658,0.100739,0,0,0,0,0.0262113,-0.0758395
1100,-3.2124e-12,8.75736e-38,-1.55272e-06,-3.27827e-12,8.75688e-38,0,-1.0662e-13,0,0,-3.29093,0.103388,-0.0932546,0,0,0,0,0,0.709066,0.103388,-1367821464,-1367821464,-1367821464,-1367821464,-1367821424,1902061014,659630286,-1367821424,-0.145154,-0.261799,8.59876e-07,-1.5,nan,0,0,3,0.599103,0.0994493,0,0,0,0,0.0262113,-0.0758395
1110,-3.2124e-12,8.75736e-38,-1.55272e-06,-3.27827e-12,8.75688e-38,-3.40903e-12,-1.0662e-13,0,0,-3.32913,0.119248,-0.0802966,0,0,0,0,0,0.670865,0.119248,-1367821464,-1367821464,-1367821464,-1367821464,-1367821424,1902061014,659630286,-1367821424,-0.119341,-0.261799,8.2095e-07,-1.5,nan,0,0,3,0.612832,0.0896505,0,0,0,0,0.0417194,-0.0798776
1120,-3.2124e-12,8.75736e-38,-1.55272e-06,-3.27827e-12,8.75688e-38,0,-1.0662e-13,0,0,-3.32913,0.119248,-0.0802966,0,0,0,0,0,0.670865,0.119248,-1367821464,-1367821464,-1367821464,-1367821464,-1367821424,1902061014,659630286,-1367821424,-0.116324,-0.261799,7.93371e-07,-1.5,nan,0,0,3,0.613541,0.0882925,0,0,0,0,0.0417194,-0.0798776
1130,-3.2124e-12,8.75736e-38,-1.55272e-06,-3.27827e-12,8.75688e-38,-3.40903e-12,-1.0662e-13,0,0,-3.32913,0.119248,-0.0802966,0,0,0,0,0,0.670865,0.119248,-1367821464,-1367821464,-1367821464,-1367821464,-1367821424,1902061014,659630286,-1367821424,-0.140737,-0.261799,7.57368e-07,-1.5,nan,0,0,3,0.619614,0.0956737,0,0,0,0,0.048698,-0.0718666
1140,-3.2124e-12,8.75736e-38,-1.55272e-06,-3.27827e-12,8.75688e-38,0,-1.06621e-13,0,0,-3.32913,0.119248,-0.0802966,0,0,0,0,0,0.670865,0.119248,-1367821464,-1367821464,-1367821464,-1367821464,-1367821424,1902061014,659630286,-1367821424,-0.15931,-0.261799,7.23088e-07,-1.5,nan,0,0,3,0.618542,0.0953584,0,0,0,0,0.0440763,-0.0525928
1150,-3.2124e-12,8.75736e-38,-1.55272e-06,-3.27827e-12,8.75688e-38,-3.40903e-12,-1.06621e-13,0,0,-3.32913,0.119248,-0.0802966,0,0,0,0,0,0.670865,0.119248,-1367821464,-1367821464,-1367821464,-1367821464,-1367821424,1902061014,659630286,-1367821424,-0.157323,-0.261799,6.9878e-07,-1.5,nan,0,0,3,0.619292,0.0944644,0,0,0,0,0.0440763,-0.0525928
1160,-3.2124e-12,8.75736e-38,-1.55272e-06,-3.27827e-12,8.75688e-38,0,-1.06621e-13,0,0,-3.34865,0.11905,-0.0594483,0,0,0,0,0,0.65135,0.11905,-1367821464,-1367821464,-1367821464,-1367821464,-1367821424,1902061014,659630286,-1367821424,-0.191801,-0.261799,6.67036e-07,-1.5,nan,0,0,3,0.621035,0.102996,0,0,0,0,0.0372194,-0.0370736
1170,-3.2124e-12,8.75736e-38,-1.55272e-06,-3.27827e-12,8.75688e-38,-3.40903e-12,-1.06622e-13,0,0,-3.34865,0.11905,-0.0594483,0,0,0,0,0,0.65135,0.11905,-1367821464,-1367821464,-1367821464,-1367821464,-1367821424,1902061014,659630286,-1367821424,-0.190318,-0.261799,6.43317e-07,-1.5,nan,0,0,3,0.621705,0.102328,0,0,0,0,0.0372194,-0.0370736
1180,-3.2124e-12,8.75736e-38,-1.55272e-06,-3.27827e-12,8.75688e-38,0,-1.06622e-13,0,0,-3.31481,0.113809,-0.0873424,0,0,0,0,0,0.685189,0.113809,-1367821464,-1367821464,-1367821464,-1367821464,-1367821424,1902061014,659630286,-1367821424,-0.213847,-0.261799,6.19158e-07,-1.5,nan,0,0,3,0.652973,0.105286,0,0,0,0,0.0551972,-0.0201163
1190,-3.2124e-12,8.75736e-38,-1.55272e-06,-3.27827e-12,8.75688e-38,-3.40903e-12,-1.06622e-13,0,0,-3.37563,0.115738,-0.06588,0,0,0,0,0,0.624373,0.115738,-1367821464,-1367821464,-1367821464,-1367821464,-1367821424,1902061014,659630286,-1367821424,-0.261799,-0.261799,5.91146e-07,-1.5,nan,0,0,3,0.629408,0.118617,0,0,0,0,0.0333169,0.0286833
1200,-3.2124e-12,8.75736e-38,-1.55272e-06,-3.27827e-12,8.75688e-38,0,-1.06622e-13,0,0,-3.37563,0.115738,-0.06588,0,0,0,0,0,0.624373,0.115738,-1367821464,-1367821464,-1367821464,-1367821464,-1367821424,1902061014,659630286,-1367821424,-0.261799,-0.261799,5.71273e-07,-1.5,nan,0,0,3,0.629975,0.119105,0,0,0,0,0.0333169,0.0286833
1210,-3.2124e-12,8.75736e-38,-1.55272e-06,-3.27827e-12,8.75688e-38,-3.40903e-12,-1.06623e-13,0,0,-3.35622,0.124019,-0.0655233,0,0,0,0,0,0.643775,0.124019,-1367821464,-1367821464,-1367821464,-1367821464,-1367821424,1902061014,659630286,-1367821424,-0.261799,-0.261799,5.45322e-07,-1.5,nan,0,0,3,0.643221,0.122709,0,0,0,0,0.0665034,0.0299896
1220,-3.2124e-12,8.75736e-38,-1.55272e-06,-3.27827e-12,8.75688e-38,0,-1.06623e-13,0,0,-3.41028,0.136129,-0.0327913,0,0,0,0,0,0.589722,0.136129,-1367821464,-1367821464,-1367821464,-1367821464,-1367821424,1902061014,659630286,-1367821424,-0.261799,-0.261799,5.20651e-07,-1.5,nan,0,0,3,0.647112,0.123792,0,0,0,0,0.0740006,0.0331548
1230,-3.2124e-12,8.75736e-38,-1.55272e-06,-3.27827e-12,8.75688e-38,-3.40903e-12,-1.06623e-13,0,0,-3.41028,0.136129,-0.0327913,0,0,0,0,0,0.589722,0.136129,-1367821464,-1367821464,-1367821464,-1367821464,-1367821424,1902061014,659630286,-1367821424,-0.261799,-0.261799,5.03147e-07,-1.5,nan,0,0,3,0.648369,0.124355,0,0,0,0,0.0740006,0.0331548
1240,-3.2124e-12,8.75736e-38,-1.55272e-06,-3.27827e-12,8.75688e-38,0,-1.06623e-13,0,0,-3.38634,0.130122,-0.0417177,0,0,0,0,0,0.613665,0.130122,-1367821464,-1367821464,-1367821464,-1367821464,-1367821424,1902061014,659630286,-1367821424,-0.261799,-0.261799,4.80291e-07,-1.5,nan,0,0,3,0.63473,0.133411,0,0,0,0,0.062778,0.0561688
1250,-3.2124e-12,8.75736e-38,-1.55272e-06,-3.27827e-12,8.75688e-38,-3.40903e-12,-1.06624e-13,0,0,-3.38634,0.130122,-0.0417177,0,0,0,0,0,0.613665,0.130122,-1367821464,-1367821464,-1367821464,-1367821464,-1367821424,1902061014,659630286,-1367821424,-0.261799,-0.261799,4.63213e-07,-1.5,nan,0,0,3,0.63586,0.134422,0,0,0,0,0.062778,0.0561688
1260,-3.2124e-12,8.75736e-38,-1.55272e-06,-3.27827e-12,8.75688e-38,0,-1.06628e-13,0,0,-3.3922,0.126162,-0.0488981,0,0,0,0,0,0.607802,0.126162,-1367821464,-1367821464,-1367821464,-1367821464,-1367821424,1902061014,659630286,-1367821424,-0.261799,-0.261799,4.42192e-07,-1.5,nan,0,0,3,0.636365,0.131084,0,0,0,0,0.0641095,0.0469898
1270,-3.2124e-12,8.75736e-38,-1.55272e-06,-3.27827e-12,8.75688e-38,-3.40903e-12,-1.06624e-13,0,0,-3.32607,0.114319,-0.0866622,0,0,0,0,0,0.673933,0.114319,-1367821464,-1367821464,-1367821464,-1367821464,-1367821424,1902061014,659630286,-1367821424,-0.261799,-0.261799,4.23036e-07,-1.5,nan,0,0,3,0.650514,0.144374,0,0,0,0,0.0718775,0.0991784
1280,-3.2124e-12,8.75736e-38,-1.55272e-06,-3.27827e-12,8.75688e-38,0,-1.06628e-13,0,0,-3.32607,0.114319,-0.0866622,0,0,0,0,0,0.673933,0.114319,-1367821464,-1367821464,-1367821464,-1367821464,-1367821424,1902061014,659630286,-1367821424,-0.261799,-0.261799,4.07993e-07,-1.5,nan,0,0,3,0.651808,0.146159,0,0,0,0,0.0718775,0.0991784
1290,-3.2124e-12,8.75736e-38,-1.55272e-06,-3.27827e-12,8.75688e-38,-3.40903e-12,-1.06627e-13,0,0,-3.38752,0.125816,-0.053778,0,0,0,0,0,0.61248,0.125816,-1367821464,-1367821464,-1367821464,-1367821464,-1367821424,1902061014,659630286,-1367821424,-0.261799,-0.261799,3.87876e-07,-1.5,nan,0,0,3,0.646013,0.148197,0,0,0,0,0.0685596,0.0989868
1300,-3.2124e-12,8.75736e-38,-1.55272e-06,-3.27827e-12,8.75688e-38,0,-1.06627e-13,0,0,-3.38752,0.125816,-0.053778,0,0,0,0,0,0.61248,0.125816,-1367821464,-1367821464,-1367821464,-1367821464,-1367821424,1902061014,659630286,-1367821424,-0.261799,-0.261799,3.77127e-07,-1.5,nan,0,0,3,0.646973,0.149583,0,0,0,0,0.0685596,0.0989868
1310,-3.2124e-12,8.75736e-38,-1.55272e-06,-3.27827e-12,8.75688e-38,-3.40903e-12,-1.06627e-13,0,0,-3.38398,0.116204,-0.0570282,0,0,0,0,0,0.616023,0.116204,-1367821464,-1367821464,-1367821464,-1367821464,-1367821424,1902061014,659630286,-1367821424,-0.261799,-0.261799,3.60013e-07,-1.5,nan,0,0,3,0.638823,0.14787,0,0,0,0,0.0569167,0.0986737
1320,-3.2124e-12,8.75736e-38,-1.55272e-06,-3.27827e-12,8.75688e-38,0,-1.06628e-13,0,0,-3.34938,0.120045,-0.0733138,0,0,0,0,0,0.650624,0.120045,-1367821464,-1367821464,-1367821464,-1367821464,-1367821424,1902061014,659630286,-1367821424,-0.261799,-0.261799,3.43725e-07,-1.5,nan,0,0,3,0.64865,0.163108,0,0,0,0,0.0680369,0.132218
1330,-3.2124e-12,8.75736e-38,-1.55272e-06,-3.27827e-12,8.75688e-38,-3.40903e-12,-1.06628e-13,0,0,-3.34938,0.120045,-0.0733138,0,0,0,0,0,0.650624,0.120045,-1367821464,-1367821464,-1367821464,-1367821464,-1367821424,1902061014,659630286,-1367821424,-0.261799,-0.261799,3.31503e-07,-1.5,nan,0,0,3,0.649875,0.165488,0,0,0,0,0.0680369,0.132218
1340,-3.2124e-12,8.75736e-38,-1.55272e-06,-3.27827e-12,8.75688e-38,0,-1.06624e-13,0,0,-3.46889,0.121754,-0.0330089,0,0,0,0,0,0.531113,0.121754,-1367821464,-1367821464,-1367821464,-1367821464,-1367821424,1902061014,659630286,-1367821424,-0.261799,-0.261799,3.16444e-07,-1.5,nan,0,0,3,0.649266,0.143849,0,0,0,0,0.0661485,0.0627551
1350,-3.2124e-12,8.75736e-38,-1.55272e-06,-3.27827e-12,8.75688e-38,-3.40903e-12,-1.06625e-13,0,0,-3.36751,0.111023,-0.0795737,0,0,0,0,0,0.632488,0.111023,-1367821464,-1367821464,-1367821464,-1367821464,-1367821424,1902061014,659630286,-1367821424,-0.261799,-0.261799,3.02119e-07,-1.5,nan,0,0,3,0.647617,0.13055,0,0,0,0,0.0637534,0.0260484
1360,-3.2124e-12,8.75736e-38,-1.55272e-06,-3.27827e-12,8.75688e-38,0,-1.06629e-13,0,0,-3.36751,0.111023,-0.0795737,0,0,0,0,0,0.632488,0.111023,-1367821464,-1367821464,-1367821464,-1367821464,-1367821424,1902061014,659630286,-1367821424,-0.261799,-0.261799,2.91376e-07,-1.5,nan,0,0,3,0.648764,0.131019,0,0,0,0,0.0637534,0.0260484
1370,-3.2124e-12,8.75736e-38,-1.55272e-06,-3.27827e-12,8.75688e-38,-3.40903e-12,-1.06633e-13,0,0,-3.34744,0.11017,-0.0882498,0,0,0,0,0,0.652555,0.11017,-1367821464,-1367821464,-1367821464,-1367821464,-1367821424,1902061014,659630286,-1367821424,-0.261799,-0.261799,2.78139e-07,-1.5,nan,0,0,3,0.651124,0.122329,0,0,0,0,0.0634006,0.00773812
1380,-3.2124e-12,8.75736e-38,-1.55272e-06,-3.27827e-12,8.75688e-38,0,-1.06629e-13,0,0,-3.34744,0.11017,-0.0882498,0,0,0,0,0,0.652555,0.11017,-1367821464,-1367821464,-1367821464,-1367821464,-1367821424,1902061014,659630286,-1367821424,-0.261799,-0.261799,2.68249e-07,-1.5,nan,0,0,3,0.652265,0.122468,0,0,0,0,0.0634006,0.00773812
1390,-3.2124e-12,8.75736e-38,-1.55272e-06,-3.27827e-12,8.75688e-38,-3.40903e-12,-1.06633e-13,0,0,-3.36983,0.109943,-0.0517305,0,0,0,0,0,0.630167,0.109943,-1367821464,-1367821464,-1367821464,-1367821464,-1367821424,1902061014,659630286,-1367821424,-0.261799,-0.261799,2.56591e-07,-1.5,nan,0,0,3,0.648841,0.122013,0,0,0,0,0.0570412,0.0064148
1400,-3.2124e-12,8.75736e-38,-1.55272e-06,-3.27827e-12,8.75688e-38,0,-1.06625e-13,0,0,-3.36983,0.109943,-0.0517305,0,0,0,0,0,0.630167,0.109943,-1367821464,-1367821464,-1367821464,-1367821464,-1367821424,1902061014,659630286,-1367821424,-0.261799,-0.261799,2.4746e-07,-1.5,nan,0,0,3,0.649868,0.122129,0,0,0,0,0.0570412,0.0064148
1410,-3.2124e-12,8.75736e-38,-1.55272e-06,-3.27827e-12,8.75688e-38,-3.40903e-12,-1.06625e-13,0,0,-3.36983,0.109943,-0.0517305,0,0,0,0,0,0.630167,0.109943,-1367821464,-1367821464,-1367821464,-1367821464,-1367821424,1902061014,659630286,-1367821424,-0.261799,-0.261799,2.38661e-07,-1.5,nan,0,0,3,0.650895,0.122244,0,0,0,0,0.0570412,0.0064148
1420,-3.2124e-12,8.75736e-38,-1.55272e-06,-3.27827e-12,8.75688e-38,0,-1.06633e-13,0,0,-3.3904,0.100115,-0.056813,0,0,0,0,0,0.609598,0.100115,-1367821464,-1367821464,-1367821464,-1367821464,-1367821424,1902061014,659630286,-1367821424,-0.261799,-0.261799,2.29251e-07,-1.5,nan,0,0,3,0.639872,0.1218,0,0,0,0,0.0399517,0.00553013
1430,-3.2124e-12,8.75736e-38,-1.55272e-06,-3.27827e-12,8.75688e-38,-3.40903e-12,-1.06625e-13,0,0,-3.3904,0.100115,-0.056813,0,0,0,0,0,0.609598,0.100115,-1367821464,-1367821464,-1367821464,-1367821464,-1367821424,1902061014,659630286,-1367821424,-0.261799,-0.261799,2.22898e-07,-1.5,nan,0,0,3,0.640432,0.121877,0,0,0,0,0.0399517,0.00553013
1440,-3.2124e-12,8.75736e-38,-1.55272e-06,-3.27827e-12,8.75688e-38,0,-1.06626e-13,0,0,-3.37355,0.0855389,-0.040154,0,0,0,0,0,0.626452,0.0855389,-1367821464,-1367821464,-1367821464,-1367821464,-1367821424,1902061014,659630286,-1367821424,-0.250062,-0.261799,2.12772e-07,-1.5,nan,0,0,3,0.631582,0.114938,0,0,0,0,0.0127285,-0.00535083
1450,-3.2124e-12,8.75736e-38,-1.55272e-06,-3.27827e-12,8.75688e-38,-3.40903e-12,-1.06626e-13,0,0,-3.41225,0.105098,-0.00233971,0,0,0,0,0,0.587754,0.105098,-1367821464,-1367821464,-1367821464,-1367821464,-1367821424,1902061014,659630286,-1367821424,-0.225673,-0.261799,2.01905e-07,-1.5,nan,0,0,3,0.624352,0.108183,0,0,0,0,-0.0346825,-0.014728
1460,-3.2124e-12,8.75736e-38,-1.55272e-06,-3.27827e-12,8.75688e-38,0,-1.06626e-13,0,0,-3.41225,0.105098,-0.00233971,0,0,0,0,0,0.587754,0.105098,-1367821464,-1367821464,-1367821464,-1367821464,-1367821424,1902061014,659630286,-1367821424,-0.225084,-0.261799,1.94725e-07,-1.5,nan,0,0,3,0.623728,0.107918,0,0,0,0,-0.0346825,-0.014728
1470,-3.2124e-12,8.75736e-38,-1.55272e-06,-3.27827e-12,8.75688e-38,-3.40903e-12,-1.06634e-13,0,0,-3.40601,0.102402,0.00422531,0,0,0,0,0,0.593991,0.102402,-1367821464,-1367821464,-1367821464,-1367821464,-1367821424,1902061014,659630286,-1367821424,-0.224996,-0.261799,1.85879e-07,-1.5,nan,0,0,3,0.604158,0.107916,0,0,0,0,-0.0594217,-0.0148113
1480,-3.2124e-12,8.75736e-38,-1.55272e-06,-3.27827e-12,8.75688e-38,0,-1.06634e-13,0,0,-3.40601,0.102402,0.00422531,0,0,0,0,0,0.593991,0.102402,-1367821464,-1367821464,-1367821464,-1367821464,-1367821424,1902061014,659630286,-1367821424,-0.224404,-0.261799,1.7927e-07,-1.5,nan,0,0,3,0.603088,0.107649,0,0,0,0,-0.0594217,-0.0148113
1490,-3.2124e-12,8.75736e-38,-1.55272e-06,-3.27827e-12,8.75688e-38,-3.40903e-12,-1.06634e-13,0,0,-3.41926,0.085827,0.0396779,0,0,0,0,0,0.580742,0.085827,-1367821464,-1367821464,-1367821464,-1367821464,-1367821424,1902061014,659630286,-1367821424,-0.216835,-0.261799,1.71479e-07,-1.5,nan,0,0,3,0.597699,0.105749,0,0,0,0,-0.0626031,-0.0181567
1500,-3.2124e-12,8.75736e-38,-1.55272e-06,-3.27827e-12,8.75688e-38,0,-1.06634e-13,0,0,-3.33042,0.0743128,0.0316738,0,0,0,0,0,0.669581,0.0743128,-1367821464,-1367821464,-1367821464,-1367821464,-1367821424,1902061014,659630286,-1367821424,-0.206593,-0.261799,1.63388e-07,-1.5,nan,0,0,3,0.603897,0.102727,0,0,0,0,-0.0578577,-0.0216834
1510,-3.2124e-12,8.75736e-38,-1.55272e-06,-3.27827e-12,8.75688e-38,-3.40903e-12,-1.06635e-13,0,0,-3.36848,0.0829744,0.0581134,0,0,0,0,0,0.631516,0.0829744,-1367821464,-1367821464,-1367821464,-1367821464,-1367821424,1902061014,659630286,-1367821424,-0.201871,-0.261799,1.56309e-07,-1.5,nan,0,0,3,0.613544,0.10174,0,0,0,0,-0.0484111,-0.0242124
1520,-3.2124e-12,8.75736e-38,-1.55272e-06,-3.27827e-12,8.75688e-38,0,-1.06635e-13,0,0,-3.36848,0.0829744,0.0581134,0,0,0,0,0,0.631516,0.0829744,-1367821464,-1367821464,-1367821464,-1367821464,-1367821424,1902061014,659630286,-1367821424,-0.200903,-0.261799,1.50747e-07,-1.5,nan,0,0,3,0.612672,0.101304,0,0,0,0,-0.0484111,-0.0242124
1530,-3.2124e-12,8.75736e-38,-1.55272e-06,-3.27827e-12,8.75688e-38,-3.40903e-12,-1.06635e-13,0,0,-3.3454,0.0938729,0.0533134,0,0,0,0,0,0.6546,0.0938729,-1367821464,-1367821464,-1367821464,-1367821464,-1367821424,1902061014,659630286,-1367821424,-0.184706,-0.261799,1.42463e-07,-1.5,nan,0,0,3,0.6151,0.0974807,0,0,0,0,-0.0414552,-0.0319126
1540,-3.2124e-12,8.75736e-38,-1.55272e-06,-3.27827e-12,8.75688e-38,0,-1.06635e-13,0,0,-3.3454,0.0938729,0.0533134,0,0,0,0,0,0.6546,0.0938729,-1367821464,-1367821464,-1367821464,-1367821464,-1367821424,1902061014,659630286,-1367821424,-0.183926,-0.261799,1.39356e-07,-1.5,nan,0,0,3,0.614644,0.0971297,0,0,0,0,-0.0414552,-0.0319126
1550,-3.2124e-12,8.75736e-38,-1.55272e-06,-3.27827e-12,8.75688e-38,-3.40903e-12,-1.06636e-13,0,0,-3.33203,0.0921042,0.0566018,0,0,0,0,0,0.667969,0.0921042,-1367821464,-1367821464,-1367821464,-1367821464,-1367821424,1902061014,659630286,-1367821424,-0.186607,-0.261799,1.34127e-07,-1.5,nan,0,0,3,0.618518,0.0964685,0,0,0,0,-0.0346294,-0.0277626
1560,-3.2124e-12,8.75736e-38,-1.55272e-06,-3.27827e-12,8.75688e-38,0,-1.06636e-13,0,0,-3.33203,0.0921042,0.0566018,0,0,0,0,0,0.667969,0.0921042,-1367821464,-1367821464,-1367821464,-1367821464,-1367821424,1902061014,659630286,-1367821424,-0.185558,-0.261799,1.29618e-07,-1.5,nan,0,0,3,0.617929,0.0959966,0,0,0,0,-0.0346294,-0.0277626
1570,-3.2124e-12,8.75736e-38,-1.55272e-06,-3.27827e-12,8.75688e-38,-3.40903e-12,-1.06636e-13,0,0,-3.40175,0.0668018,0.108883,0,0,0,0,0,0.598247,0.0668018,-1367821464,-1367821464,-1367821464,-1367821464,-1367821424,1902061014,659630286,-1367821424,-0.170651,-0.261799,1.2373e-07,-1.5,nan,0,0,3,0.610884,0.0912371,0,0,0,0,-0.0464809,-0.0320934
1580,-3.2124e-12,8.75736e-38,-1.55272e-06,-3.27827e-12,8.75688e-38,0,-1.06637e-13,0,0,-3.31786,0.0832889,0.0800104,0,0,0,0,0,0.682138,0.0832889,-1367821464,-1367821464,-1367821464,-1367821464,-1367821424,1902061014,659630286,-1367821424,-0.159528,-0.261799,1.18129e-07,-1.5,nan,0,0,3,0.610688,0.0892782,0,0,0,0,-0.0468615,-0.038863
1590,-3.2124e-12,8.75736e-38,-1.55272e-06,-3.27827e-12,8.75688e-38,-3.40903e-12,-1.06637e-13,0,0,-3.31786,0.0832889,0.0800104,0,0,0,0,0,0.682138,0.0832889,-1367821464,-1367821464,-1367821464,-1367821464,-1367821424,1902061014,659630286,-1367821424,-0.157974,-0.261799,1.13928e-07,-1.5,nan,0,0,3,0.609845,0.0885787,0,0,0,0,-0.0468615,-0.038863
1600,-3.2124e-12,8.75736e-38,-1.55272e-06,-3.27827e-12,8.75688e-38,0,-1.06637e-13,0,0,-3.39653,0.0886907,0.127925,0,0,0,0,0,0.603472,0.0886907,-1367821464,-1367821464,-1367821464,-1367821464,-1367821424,1902061014,659630286,-1367821424,-0.154263,-0.261799,1.08753e-07,-1.5,nan,0,0,3,0.609701,0.0874608,0,0,0,0,-0.0448962,-0.0400897
1610,-3.2124e-12,8.75736e-38,-1.55272e-06,-3.27827e-12,8.75688e-38,-3.40903e-12,-1.06637e-13,0,0,-3.39653,0.0886907,0.127925,0,0,0,0,0,0.603472,0.0886907,-1367821464,-1367821464,-1367821464,-1367821464,-1367821424,1902061014,659630286,-1367821424,-0.15266,-0.261799,1.04886e-07,-1.5,nan,0,0,3,0.608892,0.0867392,0,0,0,0,-0.0448962,-0.0400897
1620,-3.2124e-12,8.75736e-38,-1.55272e-06,-3.27827e-12,8.75688e-38,0,-1.06638e-13,0,0,-3.3029,0.0839235,0.0557358,0,0,0,0,0,0.697096,0.0839235,-1367821464,-1367821464,-1367821464,-1367821464,-1367821424,1902061014,659630286,-1367821424,-0.138569,-0.261799,1.00328e-07,-1.5,nan,0,0,3,0.611193,0.0834915,0,0,0,0,-0.0389385,-0.046964
1630,-3.2124e-12,8.75736e-38,-1.55272e-06,-3.27827e-12,8.75688e-38,-3.40903e-12,-1.06638e-13,0,0,-3.41993,0.0871837,0.115623,0,0,0,0,0,0.580066,0.0871837,-1367821464,-1367821464,-1367821464,-1367821464,-1367821424,1902061014,659630286,-1367821424,-0.138877,-0.261799,9.57858e-08,-1.5,nan,0,0,3,0.609425,0.083707,0,0,0,0,-0.0395292,-0.0471347
1640,-3.2124e-12,8.75736e-38,-1.55272e-06,-3.27827e-12,8.75688e-38,0,-1.06638e-13,0,0,-3.41993,0.0871837,0.115623,0,0,0,0,0,0.580066,0.0871837,-1367821464,-1367821464,-1367821464,-1367821464,-1367821424,1902061014,659630286,-1367821424,-0.136992,-0.261799,9.23798e-08,-1.5,nan,0,0,3,0.608714,0.0828586,0,0,0,0,-0.0395292,-0.0471347
1650,-3.2124e-12,8.75736e-38,-1.55272e-06,-3.27827e-12,8.75688e-38,-3.40903e-12,-1.06638e-13,0,0,-3.33318,0.10145,0.0711754,0,0,0,0,0,0.666823,0.10145,-1367821464,-1367821464,-1367821464,-1367821464,-1367821424,1902061014,659630286,-1367821424,-0.136438,-0.261799,8.83651e-08,-1.5,nan,0,0,3,0.632842,0.0821018,0,0,0,0,0.00882107,-0.046007
1660,-3.2124e-12,8.75736e-38,-1.55272e-06,-3.27827e-12,8.75688e-38,0,-1.06639e-13,0,0,-3.33318,0.10145,0.0711754,0,0,0,0,0,0.666823,0.10145,-1367821464,-1367821464,-1367821464,-1367821464,-1367821424,1902061014,659630286,-1367821424,-0.134904,-0.261799,8.57437e-08,-1.5,nan,0,0,3,0.632974,0.0814118,0,0,0,0,0.00882107,-0.046007
1670,-3.2124e-12,8.75736e-38,-1.55272e-06,-3.27827e-12,8.75688e-38,-3.40903e-12,-1.06639e-13,0,0,-3.2864,0.0882087,0.0472607,0,0,0,0,0,0.713596,0.0882087,-1367821464,-1367821464,-1367821464,-1367821464,-1367821424,1902061014,659630286,-1367821424,-0.132505,-0.261799,8.20211e-08,-1.5,nan,0,0,3,0.659709,0.0805857,0,0,0,0,0.0512541,-0.0465708
1680,-3.2124e-12,8.75736e-38,-1.55272e-06,-3.27827e-12,8.75688e-38,0,-1.06639e-13,0,0,-3.32787,0.101485,0.0707433,0,0,0,0,0,0.672132,0.101485,-1367821464,-1367821464,-1367821464,-1367821464,-1367821424,1902061014,659630286,-1367821424,-0.127803,-0.261799,7.79913e-08,-1.5,nan,0,0,3,0.67187,0.0789577,0,0,0,0,0.0672661,-0.0476551
1690,-3.2124e-12,8.75736e-38,-1.55272e-06,-3.27827e-12,8.75688e-38,-3.40903e-12,-1.0664e-13,0,0,-3.32249,0.101194,0.0655028,0,0,0,0,0,0.677511,0.101194,-1367821464,-1367821464,-1367821464,-1367821464,-1367821424,1902061014,659630286,-1367821424,-0.128484,-0.261799,7.35514e-08,-1.5,nan,0,0,3,0.675259,0.0787059,0,0,0,0,0.0718294,-0.0464141
1700,-3.2124e-12,8.75736e-38,-1.55272e-06,-3.27827e-12,8.75688e-38,0,-1.0664e-13,0,0,-3.32249,0.101194,0.0655028,0,0,0,0,0,0.677511,0.101194,-1367821464,-1367821464,-1367821464,-1367821464,-1367821424,1902061014,659630286,-1367821424,-0.126731,-0.261799,7.10788e-08,-1.5,nan,0,0,3,0.67648,0.0779169,0,0,0,0,0.0718294,-0.0464141
1710,-3.2124e-12,8.75736e-38,-1.55272e-06,-3.27827e-12,8.75688e-38,-3.40903e-12,-1.0664e-13,0,0,-3.30206,0.0896248,0.0434377,0,0,0,0,0,0.697943,0.0896248,-1367821464,-1367821464,-1367821464,-1367821464,-1367821424,1902061014,659630286,-1367821424,-0.118988,-0.261799,6.78499e-08,-1.5,nan,0,0,3,0.681403,0.0758755,0,0,0,0,0.0761014,-0.0496203
1720,-3.2124e-12,8.75736e-38,-1.55272e-06,-3.27827e-12,8.75688e-38,0,-1.0664e-13,0,0,-3.30771,0.0885664,0.0268715,0,0,0,0,0,0.692292,0.0885664,-1367821464,-1367821464,-1367821464,-1367821464,-1367821424,1902061014,659630286,-1367821424,-0.132896,-0.261799,6.47803e-08,-1.5,nan,0,0,3,0.683344,0.0789015,0,0,0,0,0.07669,-0.0424366
1730,-3.2124e-12,8.75736e-38,-1.55272e-06,-3.27827e-12,8.75688e-38,-3.40903e-12,-1.06641e-13,0,0,-3.30771,0.0885664,0.0268715,0,0,0,0,0,0.692292,0.0885664,-1367821464,-1367821464,-1367821464,-1367821464,-1367821424,1902061014,659630286,-1367821424,-0.131199,-0.261799,6.24768e-08,-1.5,nan,0,0,3,0.684724,0.0781377,0,0,0,0,0.07669,-0.0424366
1740,-3.2124e-12,8.75736e-38,-1.55272e-06,-3.27827e-12,8.75688e-38,0,-1.06641e-13,0,0,-3.40675,0.104584,0.0302724,0,0,0,0,0,0.593251,0.104584,-1367821464,-1367821464,-1367821464,-1367821464,-1367821424,1902061014,659630286,-1367821424,-0.141056,-0.261799,5.9649e-08,-1.5,nan,0,0,3,0.687701,0.0804026,0,0,0,0,0.0778024,-0.0376122
1750,-3.2124e-12,8.75736e-38,-1.55272e-06,-3.27827e-12,8.75688e-38,-3.40903e-12,-1.06641e-13,0,0,-3.40675,0.104584,0.0302724,0,0,0,0,0,0.593251,0.104584,-1367821464,-1367821464,-1367821464,-1367821464,-1367821424,1902061014,659630286,-1367821424,-0.139635,-0.261799,5.76437e-08,-1.5,nan,0,0,3,0.689023,0.0797632,0,0,0,0,0.0778024,-0.0376122
1760,-3.2124e-12,8.75736e-38,-1.55272e-06,-3.27827e-12,8.75688e-38,0,-1.06641e-13,0,0,-3.39967,0.0989034,0.0203758,0,0,0,0,0,0.600325,0.0989034,-1367821464,-1367821464,-1367821464,-1367821464,-1367821424,1902061014,659630286,-1367821424,-0.145374,-0.261799,5.49146e-08,-1.5,nan,0,0,3,0.685907,0.0809006,0,0,0,0,0.0771254,-0.0344009
1770,-3.2124e-12,8.75736e-38,-1.55272e-06,-3.27827e-12,8.75688e-38,-3.40903e-12,-1.06642e-13,0,0,-3.33947,0.0959999,-0.0159522,0,0,0,0,0,0.660529,0.0959999,-1367821464,-1367821464,-1367821464,-1367821464,-1367821424,1902061014,659630286,-1367821424,-0.161355,-0.261799,5.24291e-08,-1.5,nan,0,0,3,0.681325,0.0854677,0,0,0,0,0.0679225,-0.0285691
1780,-3.2124e-12,8.75736e-38,-1.55272e-06,-3.27827e-12,8.75688e-38,0,-1.06642e-13,0,0,-3.33947,0.0959999,-0.0159522,0,0,0,0,0,0.660529,0.0959999,-1367821464,-1367821464,-1367821464,-1367821464,-1367821424,1902061014,659630286,-1367821424,-0.160212,-0.261799,5.05648e-08,-1.5,nan,0,0,3,0.682547,0.0849535,0,0,0,0,0.0679225,-0.0285691
1790,-3.2124e-12,8.75736e-38,-1.55272e-06,-3.27827e-12,8.75688e-38,-3.40903e-12,-1.06642e-13,0,0,-3.4103,0.105216,0.00868174,0,0,0,0,0,0.589701,0.105216,-1367821464,-1367821464,-1367821464,-1367821464,-1367821424,1902061014,659630286,-1367821424,-0.164277,-0.261799,4.85722e-08,-1.5,nan,0,0,3,0.684449,0.085064,0,0,0,0,0.0652646,-0.0247495
1800,-3.2124e-12,8.75736e-38,-1.55272e-06,-3.27827e-12,8.75688e-38,0,-1.06643e-13,0,0,-3.4103,0.105216,0.00868174,0,0,0,0,0,0.589701,0.105216,-1367821464,-1367821464,-1367821464,-1367821464,-1367821424,1902061014,659630286,-1367821424,-0.163342,-0.261799,4.69393e-08,-1.5,nan,0,0,3,0.685559,0.0846433,0,0,0,0,0.0652646,-0.0247495
1810,-3.2124e-12,8.75736e-38,-1.55272e-06,-3.27827e-12,8.75688e-38,-3.40903e-12,-1.06643e-13,0,0,-3.29557,0.0872646,-0.0474303,0,0,0,0,0,0.704426,0.0872646,-1367821464,-1367821464,-1367821464,-1367821464,-1367821424,1902061014,659630286,-1367821424,-0.174771,-0.261799,4.4807e-08,-1.5,nan,0,0,3,0.693476,0.0868867,0,0,0,0,0.0747498,-0.0183061
1820,-3.2124e-12,8.75736e-38,-1.55272e-06,-3.27827e-12,8.75688e-38,0,-1.06643e-13,0,0,-3.40999,0.100587,0.00570707,0,0,0,0,0,0.590014,0.100587,-1367821464,-1367821464,-1367821464,-1367821464,-1367821424,1902061014,659630286,-1367821424,-0.175106,-0.261799,4.27789e-08,-1.5,nan,0,0,3,0.687606,0.0861483,0,0,0,0,0.0712358,-0.0163299
1830,-3.2124e-12,8.75736e-38,-1.55272e-06,-3.27827e-12,8.75688e-38,-3.40903e-12,-1.06643e-13,0,0,-3.40999,0.100587,0.00570707,0,0,0,0,0,0.590014,0.100587,-1367821464,-1367821464,-1367821464,-1367821464,-1367821424,1902061014,659630286,-1367821424,-0.17449,-0.261799,4.13408e-08,-1.5,nan,0,0,3,0.688817,0.0858707,0,0,0,0,0.0712358,-0.0163299
1840,-3.2124e-12,8.75736e-38,-1.55272e-06,-3.27827e-12,8.75688e-38,0,-1.06644e-13,0,0,-3.41264,0.0979766,0.0121538,0,0,0,0,0,0.587359,0.0979766,-1367821464,-1367821464,-1367821464,-1367821464,-1367821424,1902061014,659630286,-1367821424,-0.221171,-0.261799,3.92212e-08,-1.5,nan,0,0,3,0.66633,0.0971009,0,0,0,0,0.0383346,0.00539647
