timestamp,A_x,A_y,A_z,P,Q,R,Phi,Theta,Psi,poseX,poseY,poseZ,state_X,state_Y,state_Z,state_VzB,state_Bx,state_By,state_Bz,p1_x,p1_y,p2_x,p2_y,p3_x,p3_y,p4_x,p4_y,roll,pitch,yaw,alt,targetHeading,highLevelState,lowLevelState,gateNumber,filtered_x,filtered_y,x_OT,y_OT,vx_OT,vy_OTfiltered_vx,filtered_vy
10,0,0,0,0,0,0,0,0,0,0,0,0,0,0,0,0,0,0,0,0,0,0,0,0,0,0,0,0,-0.261799,0.00623302,-1.5,0,0,0,3,0,0,0,0,0,0,0,0
20,0,0,0,0,0,0,0,0,0,0,0,0,0,0,0,0,0,0,0,0,0,0,0,0,0,0,0,0,-0.261799,0.00602347,-1.5,0,0,0,3,0,0,0,0,0,0,0,0
30,-3.1147e-12,0,-1.49917e-06,-3.18057e-12,0,-3.5911e-12,-1.06589e-13,0,0,0,0,0,0,0,0,0,0,0,0,0,0,0,0,0,0,0,0,0,-0.261799,0.00138429,-1.5,0,0,0,3,0,0,0,0,0,0,0,0
40,-3.1147e-12,0,-1.49917e-06,-3.18057e-12,0,0,-1.0659e-13,0,0,0,0,0,0,0,0,0,0,0,0,0,0,0,0,0,0,0,0,0,-0.261799,0.00135138,-1.5,0,0,0,3,0,0,0,0,0,0,0,0
50,-3.1147e-12,0,-1.49917e-06,-3.18057e-12,0,-3.5911e-12,-1.0659e-13,0,0,0,0,0,0,0,0,0,0,0,0,0,0,0,0,0,0,0,0,0,-0.261799,0.00129537,-1.5,0,0,0,3,0,0,0,0,0,0,0,0
60,-3.1147e-12,0,-1.49917e-06,-3.18057e-12,0,0,-1.0659e-13,0,0,0,0,0,0,0,0,0,0,0,0,0,0,0,0,0,0,0,0,0,-0.261799,0.00124927,-1.5,0,0,0,3,0,0,0,0,0,0,0,0
70,-3.1147e-12,0,-1.49917e-06,-3.18057e-12,0,-3.5911e-12,-1.0659e-13,0,0,0,0,0,0,0,0,0,0,0,0,0,0,0,0,0,0,0,0,0,-0.261799,0.00119748,-1.5,0,0,0,3,0,0,0,0,0,0,0,0
80,-3.1147e-12,0,-1.49917e-06,-3.18057e-12,0,0,-1.06591e-13,0,0,0,0,0,0,0,0,0,0,0,0,0,0,0,0,0,0,0,0,0,-0.261799,0.00115016,-1.5,0,0,0,3,0,0,0,0,0,0,0,0
90,-3.1147e-12,0,-1.49917e-06,-3.18057e-12,0,-3.5911e-12,-1.06591e-13,0,0,0,0,0,0,0,0,0,0,0,0,0,0,0,0,0,0,0,0,0,-0.261799,0.00100534,-1.5,0,0,0,3,0,0,0,0,0,0,0,0
100,-3.1147e-12,0,-1.49917e-06,-3.18057e-12,0,0,-1.06591e-13,0,0,-3.30499,-0.00114554,0.0303213,0,0,0,0,0,0.0935373,-0.00114554,-1367900288,21203136,-1367900288,21203136,250341897,-1367900288,-1367900256,-1367900256,0,-0.261799,0.000937901,-1.5,0,0,0,3,0,0,0,0,0,0,0,0
110,-3.1147e-12,0,-1.49917e-06,-3.18057e-12,0,-3.5911e-12,-1.06591e-13,0,0,-3.29961,-0.00370815,0.0237744,0,0,0,0,0,0.0993588,-0.00370815,-1367900288,21203136,-1367900288,21203136,250341897,-1367900288,-1367900256,-1367900256,0,-0.261799,0.000898987,-1.5,0,0,0,3,0,0,0,0,0,0,0,0
120,-3.1147e-12,0,-1.49917e-06,-3.18057e-12,0,0,-1.06592e-13,0,0,-3.29961,-0.00370815,0.0237744,0,0,0,0,0,0.0993588,-0.00370815,-1367900288,21203136,-1367900288,21203136,250341897,-1367900288,-1367900256,-1367900256,0,-0.261799,0.000861723,-1.5,0,0,0,3,0,0,0,0,0,0,0,0
130,-3.1147e-12,0,-1.49917e-06,-3.18057e-12,0,-3.5911e-12,-1.06592e-13,0,0,-3.31231,0.0145991,0.0479288,0,0,0,0,0,0.0877676,0.0145991,-1367900288,21203136,-1367900288,21203136,250341897,-1367900288,-1367900256,-1367900256,0,-0.261799,0.000822577,-1.5,0,0,0,3,0,0,0,0,0,0,0,0
140,-3.1147e-12,0,-1.49917e-06,-3.18057e-12,0,0,-1.06592e-13,0,0,-3.26059,0.0223739,0.0218257,0,0,0,0,0,0.149515,0.0223739,-1367900288,21203136,-1367900288,21203136,250341897,-1367900288,-1367900256,-1367900256,0,-0.261799,0.000786829,-1.5,0,0,0,3,0,0,0,0,0,0,0,0
150,-3.1147e-12,0,-1.49917e-06,-3.18057e-12,0,-3.5911e-12,-1.06593e-13,0,0,-3.24906,0.0099287,0.0488318,0,0,0,0,0,0.160765,0.0099287,-1367900288,21203136,-1367900288,21203136,250341897,-1367900288,-1367900256,-1367900256,-0.261799,-0.261799,0.000745109,-1.5,0,0,0,3,0.166029,0.0420357,0,0,0,0,0.584827,0.401264
160,-3.1147e-12,0,-1.49917e-06,-3.18057e-12,0,0,-1.06593e-13,0,0,-3.24906,0.0099287,0.0488318,0,0,0,0,0,0.160765,0.0099287,-1367900288,21203136,-1367900288,21203136,250341897,-1367900288,-1367900256,-1367900256,-0.261799,-0.261799,0.000711296,-1.5,0,0,0,3,0.17948,0.0512648,0,0,0,0,0.584827,0.401264
170,-3.1147e-12,0,-1.49917e-06,-3.18057e-12,0,-3.5911e-12,-1.06593e-13,0,0,-3.24802,0.0104519,0.092059,0,0,0,0,0,0.162071,0.0104519,-1367900288,21203136,-1367900288,21203136,250341897,-1367900288,-1367900256,-1367900256,-0.0289742,-0.261799,0.000677584,-1.5,0,0,0,3,0.173056,0.0108444,0,0,0,0,0.457751,0.0163514
180,-3.1147e-12,0,-1.49917e-06,-3.18057e-12,0,0,-1.06593e-13,0,0,-3.31436,-0.0142606,0.217272,0,0,0,0,0,0.0802934,-0.0142606,-1367900288,21203136,-1367900288,21203136,250341897,-1367900288,-1367900256,-1367900256,0.069653,-0.261799,0.000642843,-1.5,0,0,0,3,0.184958,0.00384973,0,0,0,0,0.457751,-0.074134
190,-3.1147e-12,0,-1.49917e-06,-3.18057e-12,0,-3.5911e-12,-1.06594e-13,0,0,-3.24162,-0.075956,0.303622,0,0,0,0,0,0.154159,-0.075956,-1367900288,21203136,-1367900288,21203136,250341897,-1367900288,-1367900256,-1367900256,0.261799,-0.261799,0.000613739,-1.5,0,0,0,3,0.156049,-0.026144,0,0,0,0,0.269952,-0.242519
200,-3.1147e-12,0,-1.49917e-06,-3.18057e-12,0,0,-1.06594e-13,0,0,-3.24162,-0.075956,0.303622,0,0,0,0,0,0.154159,-0.075956,-1367900288,21203136,-1367900288,21203136,250341897,-1367900288,-1367900256,-1367900256,0.261799,-0.261799,0.00059673,-1.5,0,0,0,3,0.159828,-0.0295393,0,0,0,0,0.269952,-0.242519
210,-3.1147e-12,0,-1.49917e-06,-3.18057e-12,0,-3.5911e-12,-1.06597e-13,0,0,-3.24162,-0.075956,0.303622,0,0,0,0,0,0.154159,-0.075956,-1367900288,21203136,-1367900288,21203136,250341897,-1367900288,-1367900256,-1367900256,0.261799,-0.261799,0.000569714,-1.5,0,0,0,3,0.160284,-0.0799234,0,0,0,0,0.243918,-0.526089
220,-3.1147e-12,0,-1.49917e-06,-3.18057e-12,0,0,-1.06594e-13,0,0,-3.24162,-0.075956,0.303622,0,0,0,0,0,0.154159,-0.075956,-1367900288,21203136,-1367900288,21203136,250341897,-1367900288,-1367900256,-1367900256,0.261799,-0.261799,0.000546076,-1.5,0,0,0,3,0.165406,-0.0909712,0,0,0,0,0.243918,-0.526089
230,-3.1147e-12,0,-1.49917e-06,-3.18057e-12,0,-3.5911e-12,-1.06597e-13,0,0,-3.12168,-0.139796,0.364535,0,0,0,0,0,0.282248,-0.139796,-1367900288,21203136,-1367900288,21203136,250341897,-1367900288,-1367900256,-1367900256,0.261799,-0.261799,0.00051912,-1.5,0,0,0,3,0.180096,-0.104123,0,0,0,0,0.278538,-0.526089
240,-3.1147e-12,0,-1.49917e-06,-3.18057e-12,0,0,-1.06594e-13,0,0,-3.0988,-0.140263,0.366722,0,0,0,0,0,0.308764,-0.140263,-1367900288,21203136,-1367900288,21203136,250341897,-1367900288,-1367900256,-1367900256,0.261799,-0.261799,0.000491484,-1.5,0,0,0,3,0.255613,-0.159569,0,0,0,0,0.509606,-0.710441
250,-3.1147e-12,0,-1.49917e-06,-3.18057e-12,0,-3.5911e-12,-1.06595e-13,0,0,-3.08992,-0.122632,0.345831,0,0,0,0,0,0.322297,-0.122632,-1367900288,21203136,-1367900288,21203136,250341897,-1367900288,-1367900256,-1367900256,0.261799,-0.261799,0.000468268,-1.5,0,0,0,3,0.326098,-0.128129,0,0,0,0,0.693293,-0.493095
260,-3.1147e-12,0,-1.49917e-06,-3.18057e-12,0,0,-1.06597e-13,0,0,-3.08992,-0.122632,0.345831,0,0,0,0,0,0.322297,-0.122632,-1367900288,21203136,-1367900288,21203136,250341897,-1367900288,-1367900256,-1367900256,0.261799,-0.261799,0.000450682,-1.5,0,0,0,3,0.339271,-0.137498,0,0,0,0,0.693293,-0.493095
270,-3.1147e-12,0,-1.49917e-06,-3.18057e-12,0,-3.5911e-12,-1.06595e-13,0,0,-3.10411,-0.102534,0.328884,0,0,0,0,0,0.309453,-0.102534,-1367900288,21203136,-1367900288,21203136,250341897,-1367900288,-1367900256,-1367900256,0.261799,-0.261799,0.000426689,-1.5,0,0,0,3,0.328223,-0.149732,0,0,0,0,0.6017,-0.486754
280,-3.1147e-12,0,-1.49917e-06,-3.18057e-12,0,0,-1.06596e-13,0,0,-3.10248,-0.0848833,0.302975,0,0,0,0,0,0.31457,-0.0848833,-1367900288,21203136,-1367900288,21203136,250341897,-1367900288,-1367900256,-1367900256,0.261799,-0.261799,0.000404035,-1.5,0,0,0,3,0.342832,-0.150459,0,0,0,0,0.596826,-0.44221
290,-3.1147e-12,0,-1.49917e-06,-3.18057e-12,0,-3.5911e-12,-1.06595e-13,0,0,-3.10248,-0.0848833,0.302975,0,0,0,0,0,0.31457,-0.0848833,-1367900288,21203136,-1367900288,21203136,250341897,-1367900288,-1367900256,-1367900256,0.261799,-0.261799,0.00038808,-1.5,0,0,0,3,0.354769,-0.159303,0,0,0,0,0.596826,-0.44221
300,-3.1147e-12,0,-1.49917e-06,-3.18057e-12,0,0,-1.06596e-13,0,0,-3.12738,-0.106698,0.323542,0,0,0,0,0,0.281617,-0.106698,-1367900288,21203136,-1367900288,21203136,250341897,-1367900288,-1367900256,-1367900256,0.261799,-0.261799,0.000353647,-1.5,0,0,0,3,0.358242,-0.14878,0,0,0,0,0.534969,-0.370532
310,-3.1147e-12,0,-1.49917e-06,-3.18057e-12,0,-3.5911e-12,-1.06596e-13,0,0,-3.12738,-0.106698,0.323542,0,0,0,0,0,0.281617,-0.106698,-1367900288,21203136,-1367900288,21203136,250341897,-1367900288,-1367900256,-1367900256,0.261799,-0.261799,0.000338974,-1.5,0,0,0,3,0.369476,-0.156561,0,0,0,0,0.534969,-0.370532
320,-3.1147e-12,0,-1.49917e-06,-3.18057e-12,0,0,-1.066e-13,0,0,-3.12178,-0.131466,0.301748,0,0,0,0,0,0.283639,-0.131466,-1367900288,21203136,-1367900288,21203136,250341897,-1367900288,-1367900256,-1367900256,0.261799,-0.261799,0.000322241,-1.5,0,0,0,3,0.37265,-0.146662,0,0,0,0,0.522714,-0.328298
330,-3.1147e-12,0,-1.49917e-06,-3.18057e-12,0,-3.5911e-12,-1.06601e-13,0,0,-3.14483,-0.13197,0.276187,0,0,0,0,0,0.256744,-0.13197,-1367900288,21203136,-1367900288,21203136,250341897,-1367900288,-1367900256,-1367900256,0.261799,-0.261799,0.000305066,-1.5,0,0,0,3,0.327841,-0.148837,0,0,0,0,0.395273,-0.319075
340,-3.1147e-12,0,-1.49917e-06,-3.18057e-12,0,0,-1.06601e-13,0,0,-3.17997,-0.156281,0.299686,0,0,0,0,0,0.211514,-0.156281,-1367900288,21203136,-1367900288,21203136,250341897,-1367900288,-1367900256,-1367900256,0.261799,-0.261799,0.000291846,-1.5,0,0,0,3,0.33695,-0.155476,0,0,0,0,0.394935,-0.316686
350,-3.1147e-12,0,-1.49917e-06,-3.18057e-12,0,-3.5911e-12,-1.06598e-13,0,0,-3.17997,-0.156281,0.299686,0,0,0,0,0,0.211514,-0.156281,-1367900288,21203136,-1367900288,21203136,250341897,-1367900288,-1367900256,-1367900256,0.261799,-0.261799,0.000279749,-1.5,0,0,0,3,0.345243,-0.162126,0,0,0,0,0.394935,-0.316686
360,-3.1147e-12,0,-1.49917e-06,-3.18057e-12,0,0,-1.066e-13,0,0,-3.12,-0.183327,0.307463,0,0,0,0,0,0.276295,-0.183327,-1367900288,21203136,-1367900288,21203136,250341897,-1367900288,-1367900256,-1367900256,0.261799,-0.261799,0.000253458,-1.5,0,0,0,3,0.286081,-0.178369,0,0,0,0,0.245285,-0.320167
370,-3.1147e-12,0,-1.49917e-06,-3.18057e-12,0,-3.5911e-12,-1.06598e-13,0,0,-3.12,-0.183327,0.307463,0,0,0,0,0,0.276295,-0.183327,-1367900288,21203136,-1367900288,21203136,250341897,-1367900288,-1367900256,-1367900256,0.261799,-0.261799,0.000242942,-1.5,0,0,0,3,0.291232,-0.185093,0,0,0,0,0.245285,-0.320167
380,-3.1147e-12,0,-1.49917e-06,-3.18057e-12,0,0,-1.06598e-13,0,0,-3.1187,-0.183765,0.326071,0,0,0,0,0,0.277719,-0.183765,-1367900288,21203136,-1367900288,21203136,250341897,-1367900288,-1367900256,-1367900256,0.261799,-0.261799,0.000229993,-1.5,0,0,0,3,0.293125,-0.194423,0,0,0,0,0.232971,-0.318108
390,-3.1147e-12,0,-1.49917e-06,-3.18057e-12,0,-3.5911e-12,-1.06598e-13,0,0,-3.11412,-0.200782,0.343368,0,0,0,0,0,0.279951,-0.200782,-1367900288,21203136,-1367900288,21203136,250341897,-1367900288,-1367900256,-1367900256,0.261799,-0.261799,0.000217282,-1.5,0,0,0,3,0.295781,-0.20282,0,0,0,0,0.220571,-0.31903
400,-3.1147e-12,0,-1.49917e-06,-3.18057e-12,0,0,-1.066e-13,0,0,-3.13287,-0.198392,0.378607,0,0,0,0,0,0.25861,-0.198392,-1367900288,21203136,-1367900288,21203136,250341897,-1367900288,-1367900256,-1367900256,0.261799,-0.261799,0.000206179,-1.5,0,0,0,3,0.295944,-0.211161,0,0,0,0,0.218206,-0.319572
410,-3.1147e-12,0,-1.49917e-06,-3.18057e-12,0,-3.5911e-12,-1.06599e-13,0,0,-3.13287,-0.198392,0.378607,0,0,0,0,0,0.25861,-0.198392,-1367900288,21203136,-1367900288,21203136,250341897,-1367900288,-1367900256,-1367900256,0.261799,-0.261799,0.000197633,-1.5,0,0,0,3,0.300526,-0.217872,0,0,0,0,0.218206,-0.319572
420,-3.1147e-12,0,-1.49917e-06,-3.18057e-12,0,0,-1.06601e-13,0,0,-3.09045,-0.21106,0.409764,0,0,0,0,0,0.305547,-0.21106,-1367900288,21203136,-1367900288,21203136,250341897,-1367900288,-1367900256,-1367900256,0.261799,-0.261799,0.000187488,-1.5,0,0,0,3,0.311438,-0.225233,0,0,0,0,0.225345,-0.31879
430,-3.1147e-12,0,-1.49917e-06,-3.18057e-12,0,-3.5911e-12,-1.06602e-13,0,0,-3.08365,-0.223627,0.433819,0,0,0,0,0,0.311139,-0.223627,-1367900288,21203136,-1367900288,21203136,250341897,-1367900288,-1367900256,-1367900256,0.261799,-0.261799,0.000177864,-1.5,0,0,0,3,0.318257,-0.23272,0,0,0,0,0.229272,-0.317766
440,-3.1147e-12,0,-1.49917e-06,-3.18057e-12,0,0,-1.06599e-13,0,0,-3.09582,-0.218189,0.447307,0,0,0,0,0,0.298019,-0.218189,-1367900288,21203136,-1367900288,21203136,250341897,-1367900288,-1367900256,-1367900256,0.261799,-0.261799,0.000168426,-1.5,0,0,0,3,0.319405,-0.240833,0,0,0,0,0.217236,-0.314065
450,-3.1147e-12,0,-1.49917e-06,-3.18057e-12,0,-3.5911e-12,-1.06601e-13,0,0,-3.09582,-0.218189,0.447307,0,0,0,0,0,0.298019,-0.218189,-1367900288,21203136,-1367900288,21203136,250341897,-1367900288,-1367900256,-1367900256,0.261799,-0.261799,0.000161444,-1.5,0,0,0,3,0.323967,-0.247428,0,0,0,0,0.217236,-0.314065
460,-3.1147e-12,0,-1.49917e-06,-3.18057e-12,0,0,-1.06602e-13,0,0,-3.03063,-0.240806,0.445192,0,0,0,0,0,0.369486,-0.240806,-1367900288,21203136,-1367900288,21203136,250341897,-1367900288,-1367900256,-1367900256,0.261799,-0.261799,0.000151581,-1.5,0,0,0,3,0.333471,-0.255616,0,0,0,0,0.225997,-0.309649
470,-3.1147e-12,0,-1.49917e-06,-3.18057e-12,0,-3.5911e-12,-1.06602e-13,0,0,-3.02939,-0.238307,0.472739,0,0,0,0,0,0.371388,-0.238307,-1367900288,21203136,-1367900288,21203136,250341897,-1367900288,-1367900256,-1367900256,0.261799,-0.261799,0.000138517,-1.5,0,0,0,3,0.352582,-0.260437,0,0,0,0,0.235679,-0.277902
480,-3.1147e-12,0,-1.49917e-06,-3.18057e-12,0,0,-1.06599e-13,0,0,-3.02939,-0.238307,0.472739,0,0,0,0,0,0.371388,-0.238307,-1367900288,21203136,-1367900288,21203136,250341897,-1367900288,-1367900256,-1367900256,0.261799,-0.261799,0.000134406,-1.5,0,0,0,3,0.356117,-0.264606,0,0,0,0,0.235679,-0.277902
490,-3.1147e-12,0,-1.49917e-06,-3.18057e-12,0,-3.5911e-12,-1.06603e-13,0,0,-3.01699,-0.240201,0.47275,0,0,0,0,0,0.385414,-0.240201,-1367900288,21203136,-1367900288,21203136,250341897,-1367900288,-1367900256,-1367900256,0.261799,-0.261799,0.000127242,-1.5,0,0,0,3,0.3686,-0.268489,0,0,0,0,0.243327,-0.268939
500,-3.1147e-12,0,-1.49917e-06,-3.18057e-12,0,0,-1.06603e-13,0,0,-3.01699,-0.240201,0.47275,0,0,0,0,0,0.385414,-0.240201,-1367900288,21203136,-1367900288,21203136,250341897,-1367900288,-1367900256,-1367900256,0.261799,-0.261799,0.000120001,-1.5,0,0,0,3,0.387364,-0.272135,0,0,0,0,0.261431,-0.264254
510,-3.1147e-12,0,-1.49917e-06,-3.18057e-12,0,-3.5911e-12,-1.06603e-13,0,0,-3.01699,-0.240201,0.47275,0,0,0,0,0,0.385414,-0.240201,-1367900288,21203136,-1367900288,21203136,250341897,-1367900288,-1367900256,-1367900256,0.261799,-0.261799,0.000115022,-1.5,0,0,0,3,0.392854,-0.277684,0,0,0,0,0.261431,-0.264254
520,-3.1147e-12,0,-1.49917e-06,-3.18057e-12,0,0,-1.06603e-13,0,0,-2.98646,-0.246116,0.506548,0,0,0,0,0,0.419723,-0.246116,-1367900288,21203136,-1367900288,21203136,250341897,-1367900288,-1367900256,-1367900256,0.261799,-0.261799,0.000108898,-1.5,0,0,0,3,0.399777,-0.280201,0,0,0,0,0.258752,-0.254762
530,-3.1147e-12,0,-1.49917e-06,-3.18057e-12,0,-3.5911e-12,-1.06604e-13,0,0,-2.99115,-0.27234,0.576046,0,0,0,0,0,0.409414,-0.27234,-1367900288,21203136,-1367900288,21203136,250341897,-1367900288,-1367900256,-1367900256,0.261799,-0.261799,0.000102673,-1.5,0,0,0,3,0.410888,-0.284843,0,0,0,0,0.256549,-0.247423
540,-3.1147e-12,0,-1.49917e-06,-3.18057e-12,0,0,-1.06604e-13,0,0,-2.94215,-0.265517,0.570395,0,0,0,0,0,0.467464,-0.265517,-1367900288,21203136,-1367900288,21203136,250341897,-1367900288,-1367900256,-1367900256,0.261799,-0.261799,9.68039e-05,-1.5,0,0,0,3,0.418936,-0.285969,0,0,0,0,0.263181,-0.237908
550,-3.1147e-12,0,-1.49917e-06,-3.18057e-12,0,-3.5911e-12,-1.06604e-13,0,0,-2.92873,-0.267339,0.601586,0,0,0,0,0,0.482679,-0.267339,-1367900288,21203136,-1367900288,21203136,250341897,-1367900288,-1367900256,-1367900256,0.261799,-0.261799,9.16672e-05,-1.5,0,0,0,3,0.433861,-0.290097,0,0,0,0,0.286419,-0.230945
560,-3.1147e-12,0,-1.49917e-06,-3.18057e-12,0,0,-1.06604e-13,0,0,-2.92873,-0.267339,0.601586,0,0,0,0,0,0.482679,-0.267339,-1367900288,21203136,-1367900288,21203136,250341897,-1367900288,-1367900256,-1367900256,0.261799,-0.261799,8.78638e-05,-1.5,0,0,0,3,0.439876,-0.294947,0,0,0,0,0.286419,-0.230945
570,-3.1147e-12,0,-1.49917e-06,-3.18057e-12,0,-3.5911e-12,-1.06605e-13,0,0,-2.92873,-0.267339,0.601586,0,0,0,0,0,0.482679,-0.267339,-1367900288,21203136,-1367900288,21203136,250341897,-1367900288,-1367900256,-1367900256,0.261799,-0.261799,8.42183e-05,-1.5,0,0,0,3,0.445891,-0.299797,0,0,0,0,0.286419,-0.230945
580,-3.1147e-12,0,-1.49917e-06,-3.18057e-12,0,0,-1.06605e-13,0,0,-2.92873,-0.267339,0.601586,0,0,0,0,0,0.482679,-0.267339,-1367900288,21203136,-1367900288,21203136,250341897,-1367900288,-1367900256,-1367900256,0.261799,-0.261799,8.05583e-05,-1.5,0,0,0,3,0.452192,-0.304878,0,0,0,0,0.286419,-0.230945
590,-3.1147e-12,0,-1.49917e-06,-3.18057e-12,0,-3.5911e-12,-1.06605e-13,0,0,-2.92873,-0.267339,0.601586,0,0,0,0,0,0.482679,-0.267339,-1367900288,21203136,-1367900288,21203136,250341897,-1367900288,-1367900256,-1367900256,0.261799,-0.261799,7.73744e-05,-1.5,0,0,0,3,0.45792,-0.309496,0,0,0,0,0.286419,-0.230945
600,-3.1147e-12,0,-1.49917e-06,-3.18057e-12,0,0,-1.06606e-13,0,0,-2.92873,-0.267339,0.601586,0,0,0,0,0,0.482679,-0.267339,-1367900288,21203136,-1367900288,21203136,250341897,-1367900288,-1367900256,-1367900256,0.261799,-0.261799,7.37072e-05,-1.5,0,0,0,3,0.464794,-0.315039,0,0,0,0,0.286419,-0.230945
610,-3.1147e-12,0,-1.49917e-06,-3.18057e-12,0,-3.5911e-12,-1.06606e-13,0,0,-2.92873,-0.267339,0.601586,0,0,0,0,0,0.482679,-0.267339,-1367900288,21203136,-1367900288,21203136,250341897,-1367900288,-1367900256,-1367900256,0.261799,-0.261799,7.07941e-05,-1.5,0,0,0,3,0.470523,-0.319658,0,0,0,0,0.286419,-0.230945
620,-3.1147e-12,0,-1.49917e-06,-3.18057e-12,0,0,-1.06606e-13,0,0,-2.92873,-0.267339,0.601586,0,0,0,0,0,0.482679,-0.267339,-1367900288,21203136,-1367900288,21203136,250341897,-1367900288,-1367900256,-1367900256,0.261799,-0.261799,6.77206e-05,-1.5,0,0,0,3,0.476824,-0.324739,0,0,0,0,0.286419,-0.230945
630,-3.1147e-12,0,-1.49917e-06,-3.18057e-12,0,-3.5911e-12,-1.06606e-13,0,0,-2.92873,-0.267339,0.601586,0,0,0,0,0,0.482679,-0.267339,-1367900288,21203136,-1367900288,21203136,250341897,-1367900288,-1367900256,-1367900256,0.261799,-0.261799,6.47804e-05,-1.5,0,0,0,3,0.483125,-0.32982,0,0,0,0,0.286419,-0.230945
640,-3.1147e-12,0,-1.49917e-06,-3.18057e-12,0,0,-1.06607e-13,0,0,-2.92873,-0.267339,0.601586,0,0,0,0,0,0.482679,-0.267339,-1367900288,21203136,-1367900288,21203136,250341897,-1367900288,-1367900256,-1367900256,0.261799,-0.261799,6.18407e-05,-1.5,0,0,0,3,0.489713,-0.335131,0,0,0,0,0.286419,-0.230945
650,-3.1147e-12,0,-1.49917e-06,-3.18057e-12,0,-3.5911e-12,-1.06607e-13,0,0,-2.92873,-0.267339,0.601586,0,0,0,0,0,0.482679,-0.267339,-1367900288,21203136,-1367900288,21203136,250341897,-1367900288,-1367900256,-1367900256,0.261799,-0.261799,5.92773e-05,-1.5,0,0,0,3,0.495728,-0.339981,0,0,0,0,0.286419,-0.230945
660,-3.1147e-12,0,-1.49917e-06,-3.18057e-12,0,0,-1.06607e-13,0,0,-2.92873,-0.267339,0.601586,0,0,0,0,0,0.482679,-0.267339,-1367900288,21203136,-1367900288,21203136,250341897,-1367900288,-1367900256,-1367900256,0.261799,-0.261799,5.67038e-05,-1.5,0,0,0,3,0.502029,-0.345062,0,0,0,0,0.286419,-0.230945
670,-3.1147e-12,0,-1.49917e-06,-3.18057e-12,0,-3.5911e-12,-1.06607e-13,0,0,-2.92873,-0.267339,0.601586,0,0,0,0,0,0.482679,-0.267339,-1367900288,21203136,-1367900288,21203136,250341897,-1367900288,-1367900256,-1367900256,0.261799,-0.261799,5.44627e-05,-1.5,0,0,0,3,0.507757,-0.349681,0,0,0,0,0.286419,-0.230945
680,-3.1147e-12,0,-1.49917e-06,-3.18057e-12,0,0,-1.06608e-13,0,0,-2.92873,-0.267339,0.601586,0,0,0,0,0,0.482679,-0.267339,-1367900288,21203136,-1367900288,21203136,250341897,-1367900288,-1367900256,-1367900256,0.261799,-0.261799,5.20982e-05,-1.5,0,0,0,3,0.514059,-0.354762,0,0,0,0,0.286419,-0.230945
690,-3.1147e-12,0,-1.49917e-06,-3.18057e-12,0,-3.5911e-12,-1.06608e-13,0,0,-2.92873,-0.267339,0.601586,0,0,0,0,0,0.482679,-0.267339,-1367900288,21203136,-1367900288,21203136,250341897,-1367900288,-1367900256,-1367900256,0.261799,-0.261799,4.99366e-05,-1.5,0,0,0,3,0.520074,-0.359612,0,0,0,0,0.286419,-0.230945
700,-3.1147e-12,0,-1.49917e-06,-3.18057e-12,0,0,-1.06608e-13,0,0,-2.92873,-0.267339,0.601586,0,0,0,0,0,0.482679,-0.267339,-1367900288,21203136,-1367900288,21203136,250341897,-1367900288,-1367900256,-1367900256,0.261799,-0.261799,4.71767e-05,-1.5,0,0,0,3,0.528094,-0.366078,0,0,0,0,0.286419,-0.230945
710,-3.1147e-12,0,-1.49917e-06,-3.18057e-12,0,-3.5911e-12,-1.06609e-13,0,0,-2.92873,-0.267339,0.601586,0,0,0,0,0,0.482679,-0.267339,-1367900288,21203136,-1367900288,21203136,250341897,-1367900288,-1367900256,-1367900256,0.261799,-0.261799,4.51285e-05,-1.5,0,0,0,3,0.534395,-0.371159,0,0,0,0,0.286419,-0.230945
720,-3.1147e-12,0,-1.49917e-06,-3.18057e-12,0,0,-1.06609e-13,0,0,-2.92873,-0.267339,0.601586,0,0,0,0,0,0.482679,-0.267339,-1367900288,21203136,-1367900288,21203136,250341897,-1367900288,-1367900256,-1367900256,0.261799,-0.261799,4.32561e-05,-1.5,0,0,0,3,0.54041,-0.376009,0,0,0,0,0.286419,-0.230945
730,-3.1147e-12,0,-1.49917e-06,-3.18057e-12,0,-3.5911e-12,-1.06609e-13,0,0,-2.92873,-0.267339,0.601586,0,0,0,0,0,0.482679,-0.267339,-1367900288,21203136,-1367900288,21203136,250341897,-1367900288,-1367900256,-1367900256,0.261799,-0.261799,4.12082e-05,-1.5,0,0,0,3,0.547284,-0.381552,0,0,0,0,0.286419,-0.230945
740,-3.1147e-12,0,-1.49917e-06,-3.18057e-12,0,0,-1.06609e-13,0,0,-2.92873,-0.267339,0.601586,0,0,0,0,0,0.482679,-0.267339,-1367900288,21203136,-1367900288,21203136,250341897,-1367900288,-1367900256,-1367900256,0.261799,-0.261799,4.00661e-05,-1.5,0,0,0,3,0.551294,-0.384785,0,0,0,0,0.286419,-0.230945
750,-3.1147e-12,0,-1.49917e-06,-3.18057e-12,0,-3.5911e-12,-1.0661e-13,0,0,-2.92873,-0.267339,0.601586,0,0,0,0,0,0.482679,-0.267339,-1367900288,21203136,-1367900288,21203136,250341897,-1367900288,-1367900256,-1367900256,0.261799,-0.261799,3.84826e-05,-1.5,0,0,0,3,0.557022,-0.389404,0,0,0,0,0.286419,-0.230945
760,-3.1147e-12,0,-1.49917e-06,-3.18057e-12,0,0,-1.0661e-13,0,0,-2.92873,-0.267339,0.601586,0,0,0,0,0,0.482679,-0.267339,-1367900288,21203136,-1367900288,21203136,250341897,-1367900288,-1367900256,-1367900256,0.261799,-0.261799,3.68859e-05,-1.5,0,0,0,3,0.563037,-0.394254,0,0,0,0,0.286419,-0.230945
770,-3.1147e-12,0,-1.49917e-06,-3.18057e-12,0,-3.5911e-12,-1.0661e-13,0,0,-2.92873,-0.267339,0.601586,0,0,0,0,0,0.482679,-0.267339,-1367900288,21203136,-1367900288,21203136,250341897,-1367900288,-1367900256,-1367900256,0.261799,-0.261799,3.52845e-05,-1.5,0,0,0,3,0.569339,-0.399335,0,0,0,0,0.286419,-0.230945
780,-3.1147e-12,0,-1.49917e-06,-3.18057e-12,0,0,-1.0661e-13,0,0,-2.92873,-0.267339,0.601586,0.575925,-0.404646,0.285847,-0.230484,0,0.482679,-0.267339,-1367900288,21203136,-1367900288,21203136,250341897,-1367900288,-1367900256,-1367900256,0.261799,-0.261799,3.36817e-05,-1.5,0,0,0,3,0.575925,-0.404646,0,0,0,0,0.285847,-0.230484
790,-3.1147e-12,0,-1.49917e-06,-3.18057e-12,0,-3.5911e-12,-1.06611e-13,0,0,-2.92873,-0.267339,0.601586,0.581883,-0.40945,0.282854,-0.228071,0,0.482679,-0.267339,-1367900288,21203136,-1367900288,21203136,250341897,-1367900288,-1367900256,-1367900256,0.261799,-0.261799,3.22842e-05,-1.5,0,0,0,3,0.581883,-0.40945,0,0,0,0,0.282854,-0.228071
800,-3.1147e-12,0,-1.49917e-06,-3.18057e-12,0,0,-1.06611e-13,0,0,-2.92873,-0.267339,0.601586,0.588056,-0.414428,0.279753,-0.22557,0,0.482679,-0.267339,-1367900288,21203136,-1367900288,21203136,250341897,-1367900288,-1367900256,-1367900256,0.261799,-0.261799,3.08811e-05,-1.5,0,0,0,3,0.588056,-0.414428,0,0,0,0,0.279753,-0.22557
810,-3.1147e-12,0,-1.49917e-06,-3.18057e-12,0,-3.5911e-12,-1.06611e-13,0,0,-2.92873,-0.267339,0.601586,0.594437,-0.419572,0.276546,-0.222984,0,0.482679,-0.267339,-1367900288,21203136,-1367900288,21203136,250341897,-1367900288,-1367900256,-1367900256,0.261799,-0.261799,2.94783e-05,-1.5,0,0,0,3,0.594437,-0.419572,0,0,0,0,0.276546,-0.222984
820,-3.1147e-12,0,-1.49917e-06,-3.18057e-12,0,0,-1.06611e-13,0,0,-2.92873,-0.267339,0.601586,0.600201,-0.42422,0.273651,-0.22065,0,0.482679,-0.267339,-1367900288,21203136,-1367900288,21203136,250341897,-1367900288,-1367900256,-1367900256,0.261799,-0.261799,2.82552e-05,-1.5,0,0,0,3,0.600201,-0.42422,0,0,0,0,0.273651,-0.22065
830,-3.1147e-12,0,-1.49917e-06,-3.18057e-12,0,-3.5911e-12,-1.06612e-13,0,0,-2.92873,-0.267339,0.601586,0.606174,-0.429036,0.27065,-0.21823,0,0.482679,-0.267339,-1367900288,21203136,-1367900288,21203136,250341897,-1367900288,-1367900256,-1367900256,0.261799,-0.261799,2.70273e-05,-1.5,0,0,0,3,0.606174,-0.429036,0,0,0,0,0.27065,-0.21823
840,-3.1147e-12,0,-1.49917e-06,-3.18057e-12,0,0,-1.06612e-13,0,0,-2.92873,-0.267339,0.601586,0.612347,-0.434013,0.267547,-0.215728,0,0.482679,-0.267339,-1367900288,21203136,-1367900288,21203136,250341897,-1367900288,-1367900256,-1367900256,0.261799,-0.261799,2.57995e-05,-1.5,0,0,0,3,0.612347,-0.434013,0,0,0,0,0.267547,-0.215728
850,-3.1147e-12,0,-1.49917e-06,-3.18057e-12,0,-3.5911e-12,-1.06612e-13,0,0,-2.92873,-0.267339,0.601586,0.618186,-0.438722,0.264613,-0.213363,0,0.482679,-0.267339,-1367900288,21203136,-1367900288,21203136,250341897,-1367900288,-1367900256,-1367900256,0.261799,-0.261799,2.46783e-05,-1.5,0,0,0,3,0.618186,-0.438722,0,0,0,0,0.264613,-0.213363
860,-3.1147e-12,0,-1.49917e-06,-3.18057e-12,0,0,-1.06613e-13,0,0,-2.92873,-0.267339,0.601586,0.624222,-0.443588,0.26158,-0.210917,0,0.482679,-0.267339,-1367900288,21203136,-1367900288,21203136,250341897,-1367900288,-1367900256,-1367900256,0.261799,-0.261799,2.35572e-05,-1.5,0,0,0,3,0.624222,-0.443588,0,0,0,0,0.26158,-0.210917
870,-3.1147e-12,0,-1.49917e-06,-3.18057e-12,0,-3.5911e-12,-1.06613e-13,0,0,-2.92873,-0.267339,0.601586,0.678741,-0.487548,0.230979,-0.186243,0,0.482679,-0.267339,-1367900288,21203136,-1367900288,21203136,250341897,-1367900288,-1367900256,-1367900256,0.261799,-0.261799,1.26785e-05,-1.5,0,0,0,3,0.678741,-0.487548,0,0,0,0,0.230979,-0.186243
880,-3.1147e-12,0,-1.49917e-06,-3.18057e-12,0,0,-1.06613e-13,0,0,-2.92873,-0.267339,0.601586,0.713274,-0.515393,0.212342,-0.171215,0,0.482679,-0.267339,-1367900288,21203136,-1367900288,21203136,250341897,-1367900288,-1367900256,-1367900256,0.261799,-0.261799,8.63401e-06,-1.5,0,0,0,3,0.713274,-0.515393,0,0,0,0,0.212342,-0.171215
890,-3.1147e-12,0,-1.49917e-06,-3.18057e-12,0,-3.5911e-12,-1.06613e-13,0,0,-2.92873,-0.267339,0.601586,0.734494,-0.532503,0.201241,-0.162265,0,0.482679,-0.267339,-1367900288,21203136,-1367900288,21203136,250341897,-1367900288,-1367900256,-1367900256,0.261799,-0.261799,6.85154e-06,-1.5,0,0,0,3,0.734494,-0.532503,0,0,0,0,0.201241,-0.162265
900,-3.1147e-12,0,-1.49917e-06,-3.18057e-12,0,0,-1.06614e-13,0,0,-2.92873,-0.267339,0.601586,0.754605,-0.548719,0.190721,-0.153782,0,0.482679,-0.267339,-1367900288,21203136,-1367900288,21203136,250341897,-1367900288,-1367900256,-1367900256,0.261799,-0.261799,5.43706e-06,-1.5,0,0,0,3,0.754605,-0.548719,0,0,0,0,0.190721,-0.153782
910,-3.1147e-12,0,-1.49917e-06,-3.18057e-12,0,-3.5911e-12,-1.06614e-13,0,0,-2.92873,-0.267339,0.601586,0.773656,-0.56408,0.180746,-0.145739,0,0.482679,-0.267339,-1367900288,21203136,-1367900288,21203136,250341897,-1367900288,-1367900256,-1367900256,0.261799,-0.261799,4.31257e-06,-1.5,0,0,0,3,0.773656,-0.56408,0,0,0,0,0.180746,-0.145739
920,-3.1147e-12,0,-1.49917e-06,-3.18057e-12,0,0,-1.06614e-13,0,0,-2.92873,-0.267339,0.601586,0.787263,-0.575052,0.173727,-0.140079,0,0.482679,-0.267339,-1367900288,21203136,-1367900288,21203136,250341897,-1367900288,-1367900256,-1367900256,0.261799,-0.261799,3.65097e-06,-1.5,0,0,0,3,0.787263,-0.575052,0,0,0,0,0.173727,-0.140079
930,-3.1147e-12,0,-1.49917e-06,-3.18057e-12,0,-3.5911e-12,-1.06614e-13,0,0,-2.92873,-0.267339,0.601586,0.804929,-0.589296,0.164468,-0.132613,0,0.482679,-0.267339,-1367900288,21203136,-1367900288,21203136,250341897,-1367900288,-1367900256,-1367900256,0.261799,-0.261799,2.88151e-06,-1.5,0,0,0,3,0.804929,-0.589296,0,0,0,0,0.164468,-0.132613
940,-3.1147e-12,0,-1.49917e-06,-3.18057e-12,0,0,-1.06615e-13,0,0,-2.92873,-0.267339,0.601586,0.807872,-0.591669,0.162992,-0.131423,0,0.482679,-0.267339,-1367900288,21203136,-1367900288,21203136,250341897,-1367900288,-1367900256,-1367900256,0.261799,-0.261799,2.77905e-06,-1.5,0,0,0,3,0.807872,-0.591669,0,0,0,0,0.162992,-0.131423
950,-3.1147e-12,0,-1.49917e-06,-3.18057e-12,0,-3.5911e-12,-1.06615e-13,0,0,-2.92873,-0.267339,0.601586,0.810627,-0.593891,0.16161,-0.13031,0,0.482679,-0.267339,-1367900288,21203136,-1367900288,21203136,250341897,-1367900288,-1367900256,-1367900256,0.261799,-0.261799,2.68562e-06,-1.5,0,0,0,3,0.810627,-0.593891,0,0,0,0,0.16161,-0.13031
960,-3.1147e-12,0,-1.49917e-06,-3.18057e-12,0,0,-1.06615e-13,0,0,-2.92873,-0.267339,0.601586,0.813518,-0.596222,0.16016,-0.12914,0,0.482679,-0.267339,-1367900288,21203136,-1367900288,21203136,250341897,-1367900288,-1367900256,-1367900256,0.261799,-0.261799,2.59005e-06,-1.5,0,0,0,3,0.813518,-0.596222,0,0,0,0,0.16016,-0.12914
970,-3.1147e-12,0,-1.49917e-06,-3.18057e-12,0,-3.5911e-12,-1.06616e-13,0,0,-2.92873,-0.267339,0.601586,0.816225,-0.598405,0.158803,-0.128046,0,0.482679,-0.267339,-1367900288,21203136,-1367900288,21203136,250341897,-1367900288,-1367900256,-1367900256,0.261799,-0.261799,2.50298e-06,-1.5,0,0,0,3,0.816225,-0.598405,0,0,0,0,0.158803,-0.128046
980,-3.1147e-12,0,-1.49917e-06,-3.18057e-12,0,0,-1.06616e-13,0,0,-2.92873,-0.267339,0.601586,0.819224,-0.600822,0.157299,-0.126833,0,0.482679,-0.267339,-1367900288,21203136,-1367900288,21203136,250341897,-1367900288,-1367900256,-1367900256,0.261799,-0.261799,2.40906e-06,-1.5,0,0,0,3,0.819224,-0.600822,0,0,0,0,0.157299,-0.126833
990,-3.1147e-12,0,-1.49917e-06,-3.18057e-12,0,-3.5911e-12,-1.06616e-13,0,0,-2.92873,-0.267339,0.601586,0.821416,-0.60259,0.156201,-0.125947,0,0.482679,-0.267339,-1367900288,21203136,-1367900288,21203136,250341897,-1367900288,-1367900256,-1367900256,0.261799,-0.261799,2.34232e-06,-1.5,0,0,0,3,0.821416,-0.60259,0,0,0,0,0.156201,-0.125947
1000,-3.1147e-12,0,-1.49917e-06,-3.18057e-12,0,0,-1.06616e-13,0,0,-2.92873,-0.267339,0.601586,0.823748,-0.60447,0.155032,-0.125006,0,0.482679,-0.267339,-1367900288,21203136,-1367900288,21203136,250341897,-1367900288,-1367900256,-1367900256,0.261799,-0.261799,2.27284e-06,-1.5,0,0,0,3,0.823748,-0.60447,0,0,0,0,0.155032,-0.125006
1010,-3.1147e-12,0,-1.49917e-06,-3.18057e-12,0,-3.5911e-12,-1.06617e-13,0,0,-2.92873,-0.267339,0.601586,0.826369,-0.606583,0.153718,-0.123946,0,0.482679,-0.267339,-1367900288,21203136,-1367900288,21203136,250341897,-1367900288,-1367900256,-1367900256,0.261799,-0.261799,2.19643e-06,-1.5,0,0,0,3,0.826369,-0.606583,0,0,0,0,0.153718,-0.123946
1020,-3.1147e-12,0,-1.49917e-06,-3.18057e-12,0,0,-1.06617e-13,0,0,-2.92873,-0.267339,0.601586,0.829271,-0.608924,0.152263,-0.122772,0,0.482679,-0.267339,-1367900288,21203136,-1367900288,21203136,250341897,-1367900288,-1367900256,-1367900256,0.261799,-0.261799,2.11401e-06,-1.5,0,0,0,3,0.829271,-0.608924,0,0,0,0,0.152263,-0.122772
1030,-3.1147e-12,0,-1.49917e-06,-3.18057e-12,0,-3.5911e-12,-1.06617e-13,0,0,-2.92873,-0.267339,0.601586,0.831845,-0.610999,0.150972,-0.121732,0,0.482679,-0.267339,-1367900288,21203136,-1367900288,21203136,250341897,-1367900288,-1367900256,-1367900256,0.261799,-0.261799,2.04294e-06,-1.5,0,0,0,3,0.831845,-0.610999,0,0,0,0,0.150972,-0.121732
1040,-3.1147e-12,0,-1.49917e-06,-3.18057e-12,0,0,-1.06617e-13,0,0,-2.92873,-0.267339,0.601586,0.834545,-0.613177,0.149617,-0.120639,0,0.482679,-0.267339,-1367900288,21203136,-1367900288,21203136,250341897,-1367900288,-1367900256,-1367900256,0.261799,-0.261799,1.97024e-06,-1.5,0,0,0,3,0.834545,-0.613177,0,0,0,0,0.149617,-0.120639
1050,-3.1147e-12,0,-1.49917e-06,-3.18057e-12,0,-3.5911e-12,-1.06618e-13,0,0,-2.92873,-0.267339,0.601586,0.84677,-0.623034,0.143282,-0.115531,0,0.482679,-0.267339,-1367900288,21203136,-1367900288,21203136,250341897,-1367900288,-1367900256,-1367900256,0.261799,-0.261799,1.64032e-06,-1.5,0,0,0,3,0.84677,-0.623034,0,0,0,0,0.143282,-0.115531
1060,-3.1147e-12,0,-1.49917e-06,-3.18057e-12,0,0,-1.06618e-13,0,0,-2.92873,-0.267339,0.601586,0.861211,-0.634678,0.135717,-0.109431,0,0.482679,-0.267339,-1367900288,21203136,-1367900288,21203136,250341897,-1367900288,-1367900256,-1367900256,0.261799,-0.261799,1.29784e-06,-1.5,0,0,0,3,0.861211,-0.634678,0,0,0,0,0.135717,-0.109431
1070,-3.1147e-12,0,-1.49917e-06,-3.18057e-12,0,-3.5911e-12,-1.06618e-13,0,0,-2.92873,-0.267339,0.601586,0.876583,-0.647072,0.127605,-0.102891,0,0.482679,-0.267339,-1367900288,21203136,-1367900288,21203136,250341897,-1367900288,-1367900256,-1367900256,0.261799,-0.261799,9.91106e-07,-1.5,0,0,0,3,0.876583,-0.647072,0,0,0,0,0.127605,-0.102891
1080,-3.1147e-12,0,-1.49917e-06,-3.18057e-12,0,0,-1.06619e-13,0,0,-2.92873,-0.267339,0.601586,0.889099,-0.657165,0.121059,-0.0976119,0,0.482679,-0.267339,-1367900288,21203136,-1367900288,21203136,250341897,-1367900288,-1367900256,-1367900256,0.261799,-0.261799,7.90028e-07,-1.5,0,0,0,3,0.889099,-0.657165,0,0,0,0,0.121059,-0.0976119
1090,-3.1147e-12,0,-1.49917e-06,-3.18057e-12,0,-3.5911e-12,-1.06619e-13,0,0,-2.92873,-0.267339,0.601586,0.901415,-0.667095,0.11461,-0.0924119,0,0.482679,-0.267339,-1367900288,21203136,-1367900288,21203136,250341897,-1367900288,-1367900256,-1367900256,0.261799,-0.261799,6.23825e-07,-1.5,0,0,0,3,0.901415,-0.667095,0,0,0,0,0.11461,-0.0924119
1100,-3.1147e-12,0,-1.49917e-06,-3.18057e-12,0,0,-1.06619e-13,0,0,-2.92873,-0.267339,0.601586,0.913377,-0.67674,0.10833,-0.0873486,0,0.482679,-0.267339,-1367900288,21203136,-1367900288,21203136,250341897,-1367900288,-1367900256,-1367900256,0.261799,-0.261799,4.88667e-07,-1.5,0,0,0,3,0.913377,-0.67674,0,0,0,0,0.10833,-0.0873486
1110,-3.1147e-12,0,-1.49917e-06,-3.18057e-12,0,-3.5911e-12,-1.06619e-13,0,0,-2.92873,-0.267339,0.601586,0.937275,-0.69601,0.0947944,-0.0764345,0,0.482679,-0.267339,-1367900288,21203136,-1367900288,21203136,250341897,-1367900288,-1367900256,-1367900256,0.261799,-0.261799,2.47644e-07,-1.5,0,0,0,3,0.937275,-0.69601,0,0,0,0,0.0947944,-0.0764345
1120,-3.1147e-12,0,-1.49917e-06,-3.18057e-12,0,0,-1.0662e-13,0,0,-2.92873,-0.267339,0.601586,0.950967,-0.70705,0.087429,-0.0704957,0,0.482679,-0.267339,-1367900288,21203136,-1367900288,21203136,250341897,-1367900288,-1367900256,-1367900256,0.261799,-0.261799,1.71568e-07,-1.5,0,0,0,3,0.950967,-0.70705,0,0,0,0,0.087429,-0.0704957
1130,-3.1147e-12,0,-1.49917e-06,-3.18057e-12,0,-3.5911e-12,-1.0662e-13,0,0,-2.92873,-0.267339,0.601586,0.953047,-0.708727,0.0863832,-0.0696524,0,0.482679,-0.267339,-1367900288,21203136,-1367900288,21203136,250341897,-1367900288,-1367900256,-1367900256,0.261799,-0.261799,1.63437e-07,-1.5,0,0,0,3,0.953047,-0.708727,0,0,0,0,0.0863832,-0.0696524
1140,-3.1147e-12,0,-1.49917e-06,-3.18057e-12,0,0,-1.0662e-13,0,0,-2.92873,-0.267339,0.601586,0.956696,-0.711669,0.0845332,-0.0681607,0,0.482679,-0.267339,-1367900288,21203136,-1367900288,21203136,250341897,-1367900288,-1367900256,-1367900256,0.261799,-0.261799,1.496e-07,-1.5,0,0,0,3,0.956696,-0.711669,0,0,0,0,0.0845332,-0.0681607
1150,-3.1147e-12,0,-1.49917e-06,-3.18057e-12,0,-3.5911e-12,-1.0662e-13,0,0,-2.92873,-0.267339,0.601586,0.958125,-0.712821,0.0838167,-0.067583,0,0.482679,-0.267339,-1367900288,21203136,-1367900288,21203136,250341897,-1367900288,-1367900256,-1367900256,0.261799,-0.261799,1.4457e-07,-1.5,0,0,0,3,0.958125,-0.712821,0,0,0,0,0.0838167,-0.067583
1160,-3.1147e-12,0,-1.49917e-06,-3.18057e-12,0,0,-1.06621e-13,0,0,-2.92873,-0.267339,0.601586,0.959625,-0.714031,0.0830646,-0.0669766,0,0.482679,-0.267339,-1367900288,21203136,-1367900288,21203136,250341897,-1367900288,-1367900256,-1367900256,0.261799,-0.261799,1.3943e-07,-1.5,0,0,0,3,0.959625,-0.714031,0,0,0,0,0.0830646,-0.0669766
1170,-3.1147e-12,0,-1.49917e-06,-3.18057e-12,0,-3.5911e-12,-1.06621e-13,0,0,-2.92873,-0.267339,0.601586,0.962573,-0.716408,0.0815751,-0.0657756,0,0.482679,-0.267339,-1367900288,21203136,-1367900288,21203136,250341897,-1367900288,-1367900256,-1367900256,0.261799,-0.261799,1.29542e-07,-1.5,0,0,0,3,0.962573,-0.716408,0,0,0,0,0.0815751,-0.0657756
1180,-3.1147e-12,0,-1.49917e-06,-3.18057e-12,0,0,-1.06621e-13,0,0,-2.92873,-0.267339,0.601586,0.964514,-0.717973,0.0805996,-0.064989,0,0.482679,-0.267339,-1367900288,21203136,-1367900288,21203136,250341897,-1367900288,-1367900256,-1367900256,0.261799,-0.261799,1.23409e-07,-1.5,0,0,0,3,0.964514,-0.717973,0,0,0,0,0.0805996,-0.064989
1190,-3.1147e-12,0,-1.49917e-06,-3.18057e-12,0,-3.5911e-12,-1.06622e-13,0,0,-2.92873,-0.267339,0.601586,0.965876,-0.719071,0.0799164,-0.0644381,0,0.482679,-0.267339,-1367900288,21203136,-1367900288,21203136,250341897,-1367900288,-1367900256,-1367900256,0.261799,-0.261799,1.1926e-07,-1.5,0,0,0,3,0.965876,-0.719071,0,0,0,0,0.0799164,-0.0644381
1200,-3.1147e-12,0,-1.49917e-06,-3.18057e-12,0,0,-1.06622e-13,0,0,-2.92873,-0.267339,0.601586,0.967306,-0.720224,0.0791994,-0.06386,0,0.482679,-0.267339,-1367900288,21203136,-1367900288,21203136,250341897,-1367900288,-1367900256,-1367900256,0.261799,-0.261799,1.1502e-07,-1.5,0,0,0,3,0.967306,-0.720224,0,0,0,0,0.0791994,-0.06386
1210,-3.1147e-12,0,-1.49917e-06,-3.18057e-12,0,-3.5911e-12,-1.06622e-13,0,0,-2.92873,-0.267339,0.601586,0.968645,-0.721304,0.0785281,-0.0633187,0,0.482679,-0.267339,-1367900288,21203136,-1367900288,21203136,250341897,-1367900288,-1367900256,-1367900256,0.261799,-0.261799,1.11153e-07,-1.5,0,0,0,3,0.968645,-0.721304,0,0,0,0,0.0785281,-0.0633187
1220,-3.1147e-12,0,-1.49917e-06,-3.18057e-12,0,0,-1.06622e-13,0,0,-2.92873,-0.267339,0.601586,0.97005,-0.722437,0.0778235,-0.0627506,0,0.482679,-0.267339,-1367900288,21203136,-1367900288,21203136,250341897,-1367900288,-1367900256,-1367900256,0.261799,-0.261799,1.072e-07,-1.5,0,0,0,3,0.97005,-0.722437,0,0,0,0,0.0778235,-0.0627506
1230,-3.1147e-12,0,-1.49917e-06,-3.18057e-12,0,-3.5911e-12,-1.06623e-13,0,0,-2.92873,-0.267339,0.601586,0.971135,-0.723312,0.0772802,-0.0623125,0,0.482679,-0.267339,-1367900288,21203136,-1367900288,21203136,250341897,-1367900288,-1367900256,-1367900256,0.261799,-0.261799,1.04231e-07,-1.5,0,0,0,3,0.971135,-0.723312,0,0,0,0,0.0772802,-0.0623125
1240,-3.1147e-12,0,-1.49917e-06,-3.18057e-12,0,0,-1.06623e-13,0,0,-2.92873,-0.267339,0.601586,0.972289,-0.724242,0.0767022,-0.0618465,0,0.482679,-0.267339,-1367900288,21203136,-1367900288,21203136,250341897,-1367900288,-1367900256,-1367900256,0.261799,-0.261799,1.01342e-07,-1.5,0,0,0,3,0.972289,-0.724242,0,0,0,0,0.0767022,-0.0618465
1250,-3.1147e-12,0,-1.49917e-06,-3.18057e-12,0,-3.5911e-12,-1.06623e-13,0,0,-2.92873,-0.267339,0.601586,0.973585,-0.725287,0.0760521,-0.0613222,0,0.482679,-0.267339,-1367900288,21203136,-1367900288,21203136,250341897,-1367900288,-1367900256,-1367900256,0.261799,-0.261799,9.79353e-08,-1.5,0,0,0,3,0.973585,-0.725287,0,0,0,0,0.0760521,-0.0613222
1260,-3.1147e-12,0,-1.49917e-06,-3.18057e-12,0,0,-1.06623e-13,0,0,-2.92873,-0.267339,0.601586,0.974946,-0.726385,0.0753696,-0.0607719,0,0.482679,-0.267339,-1367900288,21203136,-1367900288,21203136,250341897,-1367900288,-1367900256,-1367900256,0.261799,-0.261799,9.44501e-08,-1.5,0,0,0,3,0.974946,-0.726385,0,0,0,0,0.0753696,-0.0607719
1270,-3.1147e-12,0,-1.49917e-06,-3.18057e-12,0,-3.5911e-12,-1.06624e-13,0,0,-2.92873,-0.267339,0.601586,0.976295,-0.727472,0.0746934,-0.0602267,0,0.482679,-0.267339,-1367900288,21203136,-1367900288,21203136,250341897,-1367900288,-1367900256,-1367900256,0.261799,-0.261799,9.10916e-08,-1.5,0,0,0,3,0.976295,-0.727472,0,0,0,0,0.0746934,-0.0602267
1280,-3.1147e-12,0,-1.49917e-06,-3.18057e-12,0,0,-1.06624e-13,0,0,-2.92873,-0.267339,0.601586,0.977631,-0.728549,0.0740231,-0.0596862,0,0.482679,-0.267339,-1367900288,21203136,-1367900288,21203136,250341897,-1367900288,-1367900256,-1367900256,0.261799,-0.261799,8.785e-08,-1.5,0,0,0,3,0.977631,-0.728549,0,0,0,0,0.0740231,-0.0596862
1290,-3.1147e-12,0,-1.49917e-06,-3.18057e-12,0,-3.5911e-12,-1.06624e-13,0,0,-2.92873,-0.267339,0.601586,0.978882,-0.729558,0.0733956,-0.0591803,0,0.482679,-0.267339,-1367900288,21203136,-1367900288,21203136,250341897,-1367900288,-1367900256,-1367900256,0.261799,-0.261799,8.48967e-08,-1.5,0,0,0,3,0.978882,-0.729558,0,0,0,0,0.0733956,-0.0591803
1300,-3.1147e-12,0,-1.49917e-06,-3.18057e-12,0,0,-1.06625e-13,0,0,-2.92873,-0.267339,0.601586,0.980195,-0.730617,0.072737,-0.0586492,0,0.482679,-0.267339,-1367900288,21203136,-1367900288,21203136,250341897,-1367900288,-1367900256,-1367900256,0.261799,-0.261799,8.18755e-08,-1.5,0,0,0,3,0.980195,-0.730617,0,0,0,0,0.072737,-0.0586492
1310,-3.1147e-12,0,-1.49917e-06,-3.18057e-12,0,-3.5911e-12,-1.06625e-13,0,0,-2.92873,-0.267339,0.601586,0.981497,-0.731667,0.0720844,-0.058123,0,0.482679,-0.267339,-1367900288,21203136,-1367900288,21203136,250341897,-1367900288,-1367900256,-1367900256,0.261799,-0.261799,7.89642e-08,-1.5,0,0,0,3,0.981497,-0.731667,0,0,0,0,0.0720844,-0.058123
1320,-3.1147e-12,0,-1.49917e-06,-3.18057e-12,0,0,-1.06625e-13,0,0,-2.92873,-0.267339,0.601586,0.982786,-0.732707,0.0714376,-0.0576015,0,0.482679,-0.267339,-1367900288,21203136,-1367900288,21203136,250341897,-1367900288,-1367900256,-1367900256,0.261799,-0.261799,7.61563e-08,-1.5,0,0,0,3,0.982786,-0.732707,0,0,0,0,0.0714376,-0.0576015
1330,-3.1147e-12,0,-1.49917e-06,-3.18057e-12,0,-3.5911e-12,-1.06625e-13,0,0,-2.92873,-0.267339,0.601586,0.983994,-0.73368,0.0708321,-0.0571133,0,0.482679,-0.267339,-1367900288,21203136,-1367900288,21203136,250341897,-1367900288,-1367900256,-1367900256,0.261799,-0.261799,7.35961e-08,-1.5,0,0,0,3,0.983994,-0.73368,0,0,0,0,0.0708321,-0.0571133
1340,-3.1147e-12,0,-1.49917e-06,-3.18057e-12,0,0,-1.06626e-13,0,0,-2.92873,-0.267339,0.601586,0.985261,-0.734702,0.0701965,-0.0566007,0,0.482679,-0.267339,-1367900288,21203136,-1367900288,21203136,250341897,-1367900288,-1367900256,-1367900256,0.261799,-0.261799,7.09771e-08,-1.5,0,0,0,3,0.985261,-0.734702,0,0,0,0,0.0701965,-0.0566007
1350,-3.1147e-12,0,-1.49917e-06,-3.18057e-12,0,-3.5911e-12,-1.06626e-13,0,0,-2.92873,-0.267339,0.601586,0.986309,-0.735547,0.0696715,-0.0561774,0,0.482679,-0.267339,-1367900288,21203136,-1367900288,21203136,250341897,-1367900288,-1367900256,-1367900256,0.261799,-0.261799,6.88715e-08,-1.5,0,0,0,3,0.986309,-0.735547,0,0,0,0,0.0696715,-0.0561774
1360,-3.1147e-12,0,-1.49917e-06,-3.18057e-12,0,0,-1.06626e-13,0,0,-2.92873,-0.267339,0.601586,0.98728,-0.73633,0.0691851,-0.0557852,0,0.482679,-0.267339,-1367900288,21203136,-1367900288,21203136,250341897,-1367900288,-1367900256,-1367900256,0.261799,-0.261799,6.69637e-08,-1.5,0,0,0,3,0.98728,-0.73633,0,0,0,0,0.0691851,-0.0557852
1370,-3.1147e-12,0,-1.49917e-06,-3.18057e-12,0,-3.5911e-12,-1.06626e-13,0,0,-2.92873,-0.267339,0.601586,0.98845,-0.737273,0.0685986,-0.0553124,0,0.482679,-0.267339,-1367900288,21203136,-1367900288,21203136,250341897,-1367900288,-1367900256,-1367900256,0.261799,-0.261799,6.47125e-08,-1.5,0,0,0,3,0.98845,-0.737273,0,0,0,0,0.0685986,-0.0553124
1380,-3.1147e-12,0,-1.49917e-06,-3.18057e-12,0,0,-1.06627e-13,0,0,-2.92873,-0.267339,0.601586,0.989677,-0.738263,0.067983,-0.054816,0,0.482679,-0.267339,-1367900288,21203136,-1367900288,21203136,250341897,-1367900288,-1367900256,-1367900256,0.261799,-0.261799,6.24096e-08,-1.5,0,0,0,3,0.989677,-0.738263,0,0,0,0,0.067983,-0.054816
1390,-3.1147e-12,0,-1.49917e-06,-3.18057e-12,0,-3.5911e-12,-1.06627e-13,0,0,-2.92873,-0.267339,0.601586,0.990894,-0.739244,0.0673731,-0.0543242,0,0.482679,-0.267339,-1367900288,21203136,-1367900288,21203136,250341897,-1367900288,-1367900256,-1367900256,0.261799,-0.261799,6.01904e-08,-1.5,0,0,0,3,0.990894,-0.739244,0,0,0,0,0.0673731,-0.0543242
1400,-3.1147e-12,0,-1.49917e-06,-3.18057e-12,0,0,-1.06627e-13,0,0,-2.92873,-0.267339,0.601586,0.992032,-0.740162,0.066802,-0.0538637,0,0.482679,-0.267339,-1367900288,21203136,-1367900288,21203136,250341897,-1367900288,-1367900256,-1367900256,0.261799,-0.261799,5.81669e-08,-1.5,0,0,0,3,0.992032,-0.740162,0,0,0,0,0.066802,-0.0538637
1410,-3.1147e-12,0,-1.49917e-06,-3.18057e-12,0,-3.5911e-12,-1.06627e-13,0,0,-2.92873,-0.267339,0.601586,0.993227,-0.741126,0.0662025,-0.0533803,0,0.482679,-0.267339,-1367900288,21203136,-1367900288,21203136,250341897,-1367900288,-1367900256,-1367900256,0.261799,-0.261799,5.6097e-08,-1.5,0,0,0,3,0.993227,-0.741126,0,0,0,0,0.0662025,-0.0533803
1420,-3.1147e-12,0,-1.49917e-06,-3.18057e-12,0,0,-1.06628e-13,0,0,-2.92873,-0.267339,0.601586,0.994412,-0.742081,0.0656086,-0.0529014,0,0.482679,-0.267339,-1367900288,21203136,-1367900288,21203136,250341897,-1367900288,-1367900256,-1367900256,0.261799,-0.261799,5.41023e-08,-1.5,0,0,0,3,0.994412,-0.742081,0,0,0,0,0.0656086,-0.0529014
1430,-3.1147e-12,0,-1.49917e-06,-3.18057e-12,0,-3.5911e-12,-1.06628e-13,0,0,-2.92873,-0.267339,0.601586,0.995521,-0.742975,0.0650525,-0.052453,0,0.482679,-0.267339,-1367900288,21203136,-1367900288,21203136,250341897,-1367900288,-1367900256,-1367900256,0.261799,-0.261799,5.22835e-08,-1.5,0,0,0,3,0.995521,-0.742975,0,0,0,0,0.0650525,-0.052453
1440,-3.1147e-12,0,-1.49917e-06,-3.18057e-12,0,0,-1.06628e-13,0,0,-2.92873,-0.267339,0.601586,0.996685,-0.743914,0.0644688,-0.0519824,0,0.482679,-0.267339,-1367900288,21203136,-1367900288,21203136,250341897,-1367900288,-1367900256,-1367900256,0.261799,-0.261799,5.04243e-08,-1.5,0,0,0,3,0.996685,-0.743914,0,0,0,0,0.0644688,-0.0519824
1450,-3.1147e-12,0,-1.49917e-06,-3.18057e-12,0,-3.5911e-12,-1.06632e-13,0,0,-2.92873,-0.267339,0.601586,0.998282,-0.745201,0.0636655,-0.0513347,0,0.482679,-0.267339,-1367900288,21203136,-1367900288,21203136,250341897,-1367900288,-1367900256,-1367900256,0.261799,-0.261799,4.79352e-08,-1.5,0,0,0,3,0.998282,-0.745201,0,0,0,0,0.0636655,-0.0513347
1460,-3.1147e-12,0,-1.49917e-06,-3.18057e-12,0,0,-1.06632e-13,0,0,-2.92873,-0.267339,0.601586,0.999421,-0.74612,0.0630943,-0.0508741,0,0.482679,-0.267339,-1367900288,21203136,-1367900288,21203136,250341897,-1367900288,-1367900256,-1367900256,0.261799,-0.261799,4.62307e-08,-1.5,0,0,0,3,0.999421,-0.74612,0,0,0,0,0.0630943,-0.0508741
1470,-3.1147e-12,0,-1.49917e-06,-3.18057e-12,0,-3.5911e-12,-1.06633e-13,0,0,-2.92873,-0.267339,0.601586,1.00061,-0.74708,0.0624966,-0.0503922,0,0.482679,-0.267339,-1367900288,21203136,-1367900288,21203136,250341897,-1367900288,-1367900256,-1367900256,0.261799,-0.261799,4.44946e-08,-1.5,0,0,0,3,1.00061,-0.74708,0,0,0,0,0.0624966,-0.0503922
1480,-3.1147e-12,0,-1.49917e-06,-3.18057e-12,0,0,-1.06633e-13,0,0,-2.92873,-0.267339,0.601586,1.00155,-0.747832,0.0620292,-0.0500153,0,0.482679,-0.267339,-1367900288,21203136,-1367900288,21203136,250341897,-1367900288,-1367900256,-1367900256,0.261799,-0.261799,4.31746e-08,-1.5,0,0,0,3,1.00155,-0.747832,0,0,0,0,0.0620292,-0.0500153
1490,-3.1147e-12,0,-1.49917e-06,-3.18057e-12,0,-3.5911e-12,-1.06633e-13,0,0,-2.92873,-0.267339,0.601586,1.00266,-0.748727,0.0614727,-0.0495666,0,0.482679,-0.267339,-1367900288,21203136,-1367900288,21203136,250341897,-1367900288,-1367900256,-1367900256,0.261799,-0.261799,4.16394e-08,-1.5,0,0,0,3,1.00266,-0.748727,0,0,0,0,0.0614727,-0.0495666
1500,-3.1147e-12,0,-1.49917e-06,-3.18057e-12,0,0,-1.06634e-13,0,0,-2.92873,-0.267339,0.601586,1.00369,-0.749565,0.0609516,-0.0491465,0,0.482679,-0.267339,-1367900288,21203136,-1367900288,21203136,250341897,-1367900288,-1367900256,-1367900256,0.261799,-0.261799,4.02395e-08,-1.5,0,0,0,3,1.00369,-0.749565,0,0,0,0,0.0609516,-0.0491465
1510,-3.1147e-12,0,-1.49917e-06,-3.18057e-12,0,-3.5911e-12,-1.06634e-13,0,0,-2.92873,-0.267339,0.601586,1.00478,-0.750444,0.0604047,-0.0487054,0,0.482679,-0.267339,-1367900288,21203136,-1367900288,21203136,250341897,-1367900288,-1367900256,-1367900256,0.261799,-0.261799,3.88076e-08,-1.5,0,0,0,3,1.00478,-0.750444,0,0,0,0,0.0604047,-0.0487054
1520,-3.1147e-12,0,-1.49917e-06,-3.18057e-12,0,0,-1.06634e-13,0,0,-2.92873,-0.267339,0.601586,1.00587,-0.751316,0.0598627,-0.0482684,0,0.482679,-0.267339,-1367900288,21203136,-1367900288,21203136,250341897,-1367900288,-1367900256,-1367900256,0.261799,-0.261799,3.74276e-08,-1.5,0,0,0,3,1.00587,-0.751316,0,0,0,0,0.0598627,-0.0482684
1530,-3.1147e-12,0,-1.49917e-06,-3.18057e-12,0,-3.5911e-12,-1.06634e-13,0,0,-2.92873,-0.267339,0.601586,1.00688,-0.752132,0.0593553,-0.0478593,0,0.482679,-0.267339,-1367900288,21203136,-1367900288,21203136,250341897,-1367900288,-1367900256,-1367900256,0.261799,-0.261799,3.61694e-08,-1.5,0,0,0,3,1.00688,-0.752132,0,0,0,0,0.0593553,-0.0478593
1540,-3.1147e-12,0,-1.49917e-06,-3.18057e-12,0,0,-1.06635e-13,0,0,-2.92873,-0.267339,0.601586,1.00794,-0.752988,0.0588227,-0.0474299,0,0.482679,-0.267339,-1367900288,21203136,-1367900288,21203136,250341897,-1367900288,-1367900256,-1367900256,0.261799,-0.261799,3.48833e-08,-1.5,0,0,0,3,1.00794,-0.752988,0,0,0,0,0.0588227,-0.0474299
1550,-3.1147e-12,0,-1.49917e-06,-3.18057e-12,0,-3.5911e-12,-1.06635e-13,0,0,-2.92873,-0.267339,0.601586,1.00893,-0.75379,0.0583242,-0.0470279,0,0.482679,-0.267339,-1367900288,21203136,-1367900288,21203136,250341897,-1367900288,-1367900256,-1367900256,0.261799,-0.261799,3.37105e-08,-1.5,0,0,0,3,1.00893,-0.75379,0,0,0,0,0.0583242,-0.0470279
1560,-3.1147e-12,0,-1.49917e-06,-3.18057e-12,0,0,-1.06635e-13,0,0,-2.92873,-0.267339,0.601586,1.00998,-0.754631,0.0578008,-0.0466058,0,0.482679,-0.267339,-1367900288,21203136,-1367900288,21203136,250341897,-1367900288,-1367900256,-1367900256,0.261799,-0.261799,3.25109e-08,-1.5,0,0,0,3,1.00998,-0.754631,0,0,0,0,0.0578008,-0.0466058
1570,-3.1147e-12,0,-1.49917e-06,-3.18057e-12,0,-3.5911e-12,-1.06635e-13,0,0,-2.92873,-0.267339,0.601586,1.01101,-0.755465,0.0572821,-0.0461877,0,0.482679,-0.267339,-1367900288,21203136,-1367900288,21203136,250341897,-1367900288,-1367900256,-1367900256,0.261799,-0.261799,3.13549e-08,-1.5,0,0,0,3,1.01101,-0.755465,0,0,0,0,0.0572821,-0.0461877
1580,-3.1147e-12,0,-1.49917e-06,-3.18057e-12,0,0,-1.06636e-13,0,0,-2.92873,-0.267339,0.601586,1.01204,-0.756291,0.0567681,-0.0457732,0,0.482679,-0.267339,-1367900288,21203136,-1367900288,21203136,250341897,-1367900288,-1367900256,-1367900256,0.261799,-0.261799,3.02391e-08,-1.5,0,0,0,3,1.01204,-0.756291,0,0,0,0,0.0567681,-0.0457732
1590,-3.1147e-12,0,-1.49917e-06,-3.18057e-12,0,-3.5911e-12,-1.06636e-13,0,0,-2.92873,-0.267339,0.601586,1.01305,-0.75711,0.0562587,-0.0453625,0,0.482679,-0.267339,-1367900288,21203136,-1367900288,21203136,250341897,-1367900288,-1367900256,-1367900256,0.261799,-0.261799,2.91638e-08,-1.5,0,0,0,3,1.01305,-0.75711,0,0,0,0,0.0562587,-0.0453625
1600,-3.1147e-12,0,-1.49917e-06,-3.18057e-12,0,0,-1.06636e-13,0,0,-2.92873,-0.267339,0.601586,1.01384,-0.757743,0.055866,-0.0450458,0,0.482679,-0.267339,-1367900288,21203136,-1367900288,21203136,250341897,-1367900288,-1367900256,-1367900256,0.261799,-0.261799,2.83556e-08,-1.5,0,0,0,3,1.01384,-0.757743,0,0,0,0,0.055866,-0.0450458
1610,-3.1147e-12,0,-1.49917e-06,-3.18057e-12,0,-3.5911e-12,-1.06637e-13,0,0,-2.92873,-0.267339,0.601586,1.01484,-0.758549,0.0553647,-0.0446416,0,0.482679,-0.267339,-1367900288,21203136,-1367900288,21203136,250341897,-1367900288,-1367900256,-1367900256,0.261799,-0.261799,2.73473e-08,-1.5,0,0,0,3,1.01484,-0.758549,0,0,0,0,0.0553647,-0.0446416
1620,-3.1147e-12,0,-1.49917e-06,-3.18057e-12,0,0,-1.06637e-13,0,0,-2.92873,-0.267339,0.601586,1.01583,-0.759347,0.0548679,-0.044241,0,0.482679,-0.267339,-1367900288,21203136,-1367900288,21203136,250341897,-1367900288,-1367900256,-1367900256,0.261799,-0.261799,2.63741e-08,-1.5,0,0,0,3,1.01583,-0.759347,0,0,0,0,0.0548679,-0.044241
1630,-3.1147e-12,0,-1.49917e-06,-3.18057e-12,0,-3.5911e-12,-1.06637e-13,0,0,-2.92873,-0.267339,0.601586,1.01681,-0.760139,0.0543756,-0.0438441,0,0.482679,-0.267339,-1367900288,21203136,-1367900288,21203136,250341897,-1367900288,-1367900256,-1367900256,0.261799,-0.261799,2.54363e-08,-1.5,0,0,0,3,1.01681,-0.760139,0,0,0,0,0.0543756,-0.0438441
1640,-3.1147e-12,0,-1.49917e-06,-3.18057e-12,0,0,-1.06637e-13,0,0,-2.92873,-0.267339,0.601586,1.01778,-0.760923,0.0538877,-0.0434507,0,0.482679,-0.267339,-1367900288,21203136,-1367900288,21203136,250341897,-1367900288,-1367900256,-1367900256,0.261799,-0.261799,2.45318e-08,-1.5,0,0,0,3,1.01778,-0.760923,0,0,0,0,0.0538877,-0.0434507
1650,-3.1147e-12,0,-1.49917e-06,-3.18057e-12,0,-3.5911e-12,-1.06638e-13,0,0,-2.92873,-0.267339,0.601586,1.01869,-0.761658,0.0534309,-0.0430824,0,0.482679,-0.267339,-1367900288,21203136,-1367900288,21203136,250341897,-1367900288,-1367900256,-1367900256,0.261799,-0.261799,2.37071e-08,-1.5,0,0,0,3,1.01869,-0.761658,0,0,0,0,0.0534309,-0.0430824
1660,-3.1147e-12,0,-1.49917e-06,-3.18057e-12,0,0,-1.06638e-13,0,0,-2.92873,-0.267339,0.601586,1.01965,-0.762429,0.0529515,-0.0426958,0,0.482679,-0.267339,-1367900288,21203136,-1367900288,21203136,250341897,-1367900288,-1367900256,-1367900256,0.261799,-0.261799,2.28635e-08,-1.5,0,0,0,3,1.01965,-0.762429,0,0,0,0,0.0529515,-0.0426958
1670,-3.1147e-12,0,-1.49917e-06,-3.18057e-12,0,-3.5911e-12,-1.06638e-13,0,0,-2.92873,-0.267339,0.601586,1.02059,-0.763193,0.0524764,-0.0423127,0,0.482679,-0.267339,-1367900288,21203136,-1367900288,21203136,250341897,-1367900288,-1367900256,-1367900256,0.261799,-0.261799,2.20505e-08,-1.5,0,0,0,3,1.02059,-0.763193,0,0,0,0,0.0524764,-0.0423127
1680,-3.1147e-12,0,-1.49917e-06,-3.18057e-12,0,0,-1.06638e-13,0,0,-2.92873,-0.267339,0.601586,1.02153,-0.76395,0.0520055,-0.041933,0,0.482679,-0.267339,-1367900288,21203136,-1367900288,21203136,250341897,-1367900288,-1367900256,-1367900256,0.261799,-0.261799,2.12664e-08,-1.5,0,0,0,3,1.02153,-0.76395,0,0,0,0,0.0520055,-0.041933
1690,-3.1147e-12,0,-1.49917e-06,-3.18057e-12,0,-3.5911e-12,-1.06639e-13,0,0,-2.92873,-0.267339,0.601586,1.02241,-0.764658,0.0515647,-0.0415776,0,0.482679,-0.267339,-1367900288,21203136,-1367900288,21203136,250341897,-1367900288,-1367900256,-1367900256,0.261799,-0.261799,2.05515e-08,-1.5,0,0,0,3,1.02241,-0.764658,0,0,0,0,0.0515647,-0.0415776
1700,-3.1147e-12,0,-1.49917e-06,-3.18057e-12,0,0,-1.06639e-13,0,0,-2.92873,-0.267339,0.601586,1.02334,-0.765402,0.051102,-0.0412045,0,0.482679,-0.267339,-1367900288,21203136,-1367900288,21203136,250341897,-1367900288,-1367900256,-1367900256,0.261799,-0.261799,1.98201e-08,-1.5,0,0,0,3,1.02334,-0.765402,0,0,0,0,0.051102,-0.0412045
1710,-3.1147e-12,0,-1.49917e-06,-3.18057e-12,0,-3.5911e-12,-1.06639e-13,0,0,-2.92873,-0.267339,0.601586,1.02425,-0.76614,0.0506435,-0.0408348,0,0.482679,-0.267339,-1367900288,21203136,-1367900288,21203136,250341897,-1367900288,-1367900256,-1367900256,0.261799,-0.261799,1.91153e-08,-1.5,0,0,0,3,1.02425,-0.76614,0,0,0,0,0.0506435,-0.0408348
1720,-3.1147e-12,0,-1.49917e-06,-3.18057e-12,0,0,-1.0664e-13,0,0,-2.92873,-0.267339,0.601586,1.02496,-0.766709,0.0502899,-0.0405497,0,0.482679,-0.267339,-1367900288,21203136,-1367900288,21203136,250341897,-1367900288,-1367900256,-1367900256,0.261799,-0.261799,1.85856e-08,-1.5,0,0,0,3,1.02496,-0.766709,0,0,0,0,0.0502899,-0.0405497
1730,-3.1147e-12,0,-1.49917e-06,-3.18057e-12,0,-3.5911e-12,-1.0664e-13,0,0,-2.92873,-0.267339,0.601586,1.02586,-0.767434,0.0498387,-0.0401859,0,0.482679,-0.267339,-1367900288,21203136,-1367900288,21203136,250341897,-1367900288,-1367900256,-1367900256,0.261799,-0.261799,1.79247e-08,-1.5,0,0,0,3,1.02586,-0.767434,0,0,0,0,0.0498387,-0.0401859
1740,-3.1147e-12,0,-1.49917e-06,-3.18057e-12,0,0,-1.0664e-13,0,0,-2.92873,-0.267339,0.601586,1.0267,-0.768114,0.0494162,-0.0398453,0,0.482679,-0.267339,-1367900288,21203136,-1367900288,21203136,250341897,-1367900288,-1367900256,-1367900256,0.261799,-0.261799,1.73221e-08,-1.5,0,0,0,3,1.0267,-0.768114,0,0,0,0,0.0494162,-0.0398453
1750,-3.1147e-12,0,-1.49917e-06,-3.18057e-12,0,-3.5911e-12,-1.0664e-13,0,0,-2.92873,-0.267339,0.601586,1.02758,-0.768827,0.0489728,-0.0394877,0,0.482679,-0.267339,-1367900288,21203136,-1367900288,21203136,250341897,-1367900288,-1367900256,-1367900256,0.261799,-0.261799,1.67057e-08,-1.5,0,0,0,3,1.02758,-0.768827,0,0,0,0,0.0489728,-0.0394877
1760,-3.1147e-12,0,-1.49917e-06,-3.18057e-12,0,0,-1.06641e-13,0,0,-2.92873,-0.267339,0.601586,1.02841,-0.769494,0.0485577,-0.039153,0,0.482679,-0.267339,-1367900288,21203136,-1367900288,21203136,250341897,-1367900288,-1367900256,-1367900256,0.261799,-0.261799,1.61117e-08,-1.5,0,0,0,3,1.02841,-0.769494,0,0,0,0,0.0485577,-0.039153
1770,-3.1147e-12,0,-1.49917e-06,-3.18057e-12,0,-3.5911e-12,-1.06641e-13,0,0,-2.92873,-0.267339,0.601586,1.02933,-0.770233,0.0480978,-0.0387822,0,0.482679,-0.267339,-1367900288,21203136,-1367900288,21203136,250341897,-1367900288,-1367900256,-1367900256,0.261799,-0.261799,1.55388e-08,-1.5,0,0,0,3,1.02933,-0.770233,0,0,0,0,0.0480978,-0.0387822
1780,-3.1147e-12,0,-1.49917e-06,-3.18057e-12,0,0,-1.06641e-13,0,0,-2.92873,-0.267339,0.601586,1.03014,-0.770889,0.0476901,-0.0384535,0,0.482679,-0.267339,-1367900288,21203136,-1367900288,21203136,250341897,-1367900288,-1367900256,-1367900256,0.261799,-0.261799,1.50164e-08,-1.5,0,0,0,3,1.03014,-0.770889,0,0,0,0,0.0476901,-0.0384535
1790,-3.1147e-12,0,-1.49917e-06,-3.18057e-12,0,-3.5911e-12,-1.06641e-13,0,0,-2.92873,-0.267339,0.601586,1.03099,-0.771577,0.0472622,-0.0381084,0,0.482679,-0.267339,-1367900288,21203136,-1367900288,21203136,250341897,-1367900288,-1367900256,-1367900256,0.261799,-0.261799,1.4482e-08,-1.5,0,0,0,3,1.03099,-0.771577,0,0,0,0,0.0472622,-0.0381084
1800,-3.1147e-12,0,-1.49917e-06,-3.18057e-12,0,0,-1.06642e-13,0,0,-2.92873,-0.267339,0.601586,1.03179,-0.772221,0.0468616,-0.0377854,0,0.482679,-0.267339,-1367900288,21203136,-1367900288,21203136,250341897,-1367900288,-1367900256,-1367900256,0.261799,-0.261799,1.39951e-08,-1.5,0,0,0,3,1.03179,-0.772221,0,0,0,0,0.0468616,-0.0377854
1810,-3.1147e-12,0,-1.49917e-06,-3.18057e-12,0,-3.5911e-12,-1.06642e-13,0,0,-2.92873,-0.267339,0.601586,1.03263,-0.772897,0.046441,-0.0374463,0,0.482679,-0.267339,-1367900288,21203136,-1367900288,21203136,250341897,-1367900288,-1367900256,-1367900256,0.261799,-0.261799,1.34971e-08,-1.5,0,0,0,3,1.03263,-0.772897,0,0,0,0,0.046441,-0.0374463
1820,-3.1147e-12,0,-1.49917e-06,-3.18057e-12,0,0,-1.06642e-13,0,0,-2.92873,-0.267339,0.601586,1.03346,-0.773567,0.0460244,-0.0371103,0,0.482679,-0.267339,-1367900288,21203136,-1367900288,21203136,250341897,-1367900288,-1367900256,-1367900256,0.261799,-0.261799,1.30172e-08,-1.5,0,0,0,3,1.03346,-0.773567,0,0,0,0,0.0460244,-0.0371103
1830,-3.1147e-12,0,-1.49917e-06,-3.18057e-12,0,-3.5911e-12,-1.06643e-13,0,0,-2.92873,-0.267339,0.601586,1.03428,-0.774231,0.0456113,-0.0367773,0,0.482679,-0.267339,-1367900288,21203136,-1367900288,21203136,250341897,-1367900288,-1367900256,-1367900256,0.261799,-0.261799,1.25539e-08,-1.5,0,0,0,3,1.03428,-0.774231,0,0,0,0,0.0456113,-0.0367773
1840,-3.1147e-12,0,-1.49917e-06,-3.18057e-12,0,0,-1.06643e-13,0,0,-2.92873,-0.267339,0.601586,1.03541,-0.775142,0.0450432,-0.0363192,0,0.482679,-0.267339,-1367900288,21203136,-1367900288,21203136,250341897,-1367900288,-1367900256,-1367900256,0.261799,-0.261799,1.19349e-08,-1.5,0,0,0,3,1.03541,-0.775142,0,0,0,0,0.0450432,-0.0363192
1850,-3.1147e-12,0,-1.49917e-06,-3.18057e-12,0,-3.5911e-12,-1.06643e-13,0,0,-2.92873,-0.267339,0.601586,1.03618,-0.775756,0.0446614,-0.0360113,0,0.482679,-0.267339,-1367900288,21203136,-1367900288,21203136,250341897,-1367900288,-1367900256,-1367900256,0.261799,-0.261799,1.15337e-08,-1.5,0,0,0,3,1.03618,-0.775756,0,0,0,0,0.0446614,-0.0360113
1860,-3.1147e-12,0,-1.49917e-06,-3.18057e-12,0,0,-1.06643e-13,0,0,-2.92873,-0.267339,0.601586,1.03697,-0.7764,0.0442606,-0.0356882,0,0.482679,-0.267339,-1367900288,21203136,-1367900288,21203136,250341897,-1367900288,-1367900256,-1367900256,0.261799,-0.261799,1.11233e-08,-1.5,0,0,0,3,1.03697,-0.7764,0,0,0,0,0.0442606,-0.0356882
1870,-3.1147e-12,0,-1.49917e-06,-3.18057e-12,0,-3.5911e-12,-1.06644e-13,0,0,-2.92873,-0.267339,0.601586,1.03777,-0.777039,0.0438635,-0.035368,0,0.482679,-0.267339,-1367900288,21203136,-1367900288,21203136,250341897,-1367900288,-1367900256,-1367900256,0.261799,-0.261799,1.07277e-08,-1.5,0,0,0,3,1.03777,-0.777039,0,0,0,0,0.0438635,-0.035368
1880,-3.1147e-12,0,-1.49917e-06,-3.18057e-12,0,0,-1.06644e-13,0,0,-2.92873,-0.267339,0.601586,1.03855,-0.777672,0.0434699,-0.0350506,0,0.482679,-0.267339,-1367900288,21203136,-1367900288,21203136,250341897,-1367900288,-1367900256,-1367900256,0.261799,-0.261799,1.03463e-08,-1.5,0,0,0,3,1.03855,-0.777672,0,0,0,0,0.0434699,-0.0350506
1890,-3.1147e-12,0,-1.49917e-06,-3.18057e-12,0,-3.5911e-12,-1.06644e-13,0,0,-2.92873,-0.267339,0.601586,1.03929,-0.778264,0.0431015,-0.0347535,0,0.482679,-0.267339,-1367900288,21203136,-1367900288,21203136,250341897,-1367900288,-1367900256,-1367900256,0.261799,-0.261799,9.99845e-09,-1.5,0,0,0,3,1.03929,-0.778264,0,0,0,0,0.0431015,-0.0347535
