timestamp,A_x,A_y,A_z,P,Q,R,Phi,Theta,Psi,poseX,poseY,poseZ,state_X,state_Y,state_Z,state_VzB,state_Bx,state_By,state_Bz,p1_x,p1_y,p2_x,p2_y,p3_x,p3_y,p4_x,p4_y,roll,pitch,yaw,alt,targetHeading,highLevelState,lowLevelState,gateNumber,filtered_x,filtered_y,x_OT,y_OT,vx_OT,vy_OTfiltered_vx,filtered_vy
10,0,0,0,0,0,0,0,0,0,0,0,0,0,0,0,0,0,0,0,0,0,0,0,0,0,0,0,0,-0.261799,0.00623302,-1.5,nan,0,0,3,0,0,0,0,0,0,0,0
20,0,0,0,0,0,0,0,0,0,0,0,0,0,0,0,0,0,0,0,0,0,0,0,0,0,0,0,0,-0.261799,0.00601138,-1.5,nan,0,0,3,0,0,0,0,0,0,0,0
30,-3.2124e-12,4.85894e-38,-1.57181e-06,-3.27827e-12,4.85847e-38,-3.40903e-12,-1.13703e-13,0,0,0,0,0,0,0,0,0,0,0,0,0,0,0,0,0,0,0,0,0,-0.261799,0.00147597,-1.5,nan,0,0,3,0,0,0,0,0,0,0,0
40,-3.2124e-12,4.85894e-38,-1.57181e-06,-3.27827e-12,4.85847e-38,0,-1.13703e-13,0,0,0,0,0,0,0,0,0,0,0,0,0,0,0,0,0,0,0,0,0,-0.261799,0.00144088,-1.5,nan,0,0,3,0,0,0,0,0,0,0,0
50,-3.2124e-12,4.85894e-38,-1.57181e-06,-3.27827e-12,4.85847e-38,-3.40903e-12,-1.13704e-13,0,0,0,0,0,0,0,0,0,0,0,0,0,0,0,0,0,0,0,0,0,-0.261799,0.00138394,-1.5,nan,0,0,3,0,0,0,0,0,0,0,0
60,-3.2124e-12,4.85894e-38,-1.57181e-06,-3.27827e-12,4.85847e-38,0,-1.13704e-13,0,0,0,0,0,0,0,0,0,0,0,0,0,0,0,0,0,0,0,0,0,-0.261799,0.00133196,-1.5,nan,0,0,3,0,0,0,0,0,0,0,0
70,-3.2124e-12,4.85894e-38,-1.57181e-06,-3.27827e-12,4.85847e-38,-3.40903e-12,-1.13705e-13,0,0,0,0,0,0,0,0,0,0,0,0,0,0,0,0,0,0,0,0,0,-0.261799,0.00127932,-1.5,nan,0,0,3,0,0,0,0,0,0,0,0
80,-3.2124e-12,4.85894e-38,-1.57181e-06,-3.27827e-12,4.85847e-38,0,-1.13705e-13,0,0,0,0,0,0,0,0,0,0,0,0,0,0,0,0,0,0,0,0,0,-0.261799,0.00116833,-1.5,nan,0,0,3,0,0,0,0,0,0,0,0
90,-3.2124e-12,4.85894e-38,-1.57181e-06,-3.27827e-12,4.85847e-38,-3.40903e-12,-1.13706e-13,0,0,0,0,0,0,0,0,0,0,0,0,0,0,0,0,0,0,0,0,0,-0.261799,0.00110376,-1.5,nan,0,0,3,0,0,0,0,0,0,0,0
100,-3.2124e-12,4.85894e-38,-1.57181e-06,-3.27827e-12,4.85847e-38,0,-1.13706e-13,0,0,0,0,0,0,0,0,0,0,0,0,0,0,0,0,0,0,0,0,0,-0.261799,0.00104283,-1.5,nan,0,0,3,0,0,0,0,0,0,0,0
110,-3.2124e-12,4.85894e-38,-1.57181e-06,-3.27827e-12,4.85847e-38,-3.40903e-12,-1.13707e-13,0,0,0,0,0,0,0,0,0,0,0,0,0,0,0,0,0,0,0,0,0,-0.261799,0.000999602,-1.5,nan,0,0,3,0,0,0,0,0,0,0,0
120,-3.2124e-12,4.85894e-38,-1.57181e-06,-3.27827e-12,4.85847e-38,0,-1.13708e-13,0,0,0,0,0,0,0,0,0,0,0,0,0,0,0,0,0,0,0,0,0,-0.261799,0.000942389,-1.5,nan,0,0,3,0,0,0,0,0,0,0,0
130,-3.2124e-12,4.85894e-38,-1.57181e-06,-3.27827e-12,4.85847e-38,-3.40903e-12,-1.13708e-13,0,0,0,0,0,0,0,0,0,0,0,0,0,0,0,0,0,0,0,0,0,-0.261799,0.000897772,-1.5,nan,0,0,3,0,0,0,0,0,0,0,0
140,-3.2124e-12,4.85894e-38,-1.57181e-06,-3.27827e-12,4.85847e-38,0,-1.13709e-13,0,0,0,0,0,0,0,0,0,0,0,0,0,0,0,0,0,0,0,0,0,-0.261799,0.000865824,-1.5,nan,0,0,3,0,0,0,0,0,0,0,0
150,-3.2124e-12,4.85894e-38,-1.57181e-06,-3.27827e-12,4.85847e-38,-3.40903e-12,-1.13709e-13,0,0,0,0,0,0,0,0,0,0,0,0,0,0,0,0,0,0,0,0,0,-0.261799,0.000824833,-1.5,nan,0,0,3,0,0,0,0,0,0,0,0
160,-3.2124e-12,4.85894e-38,-1.57181e-06,-3.27827e-12,4.85847e-38,0,-1.1371e-13,0,0,0,0,0,0,0,0,0,0,0,0,0,0,0,0,0,0,0,0,0,-0.261799,0.000787363,-1.5,nan,0,0,3,0,0,0,0,0,0,0,0
170,-3.2124e-12,4.85894e-38,-1.57181e-06,-3.27827e-12,4.85847e-38,-3.40903e-12,-1.1371e-13,0,0,0,0,0,0,0,0,0,0,0,0,0,0,0,0,0,0,0,0,0,-0.261799,0.000757819,-1.5,nan,0,0,3,0,0,0,0,0,0,0,0
180,-3.2124e-12,4.85894e-38,-1.57181e-06,-3.27827e-12,4.85847e-38,0,-1.13711e-13,0,0,0,0,0,0,0,0,0,0,0,0,0,0,0,0,0,0,0,0,0,-0.261799,0.000723393,-1.5,nan,0,0,3,0,0,0,0,0,0,0,0
190,-3.2124e-12,4.85894e-38,-1.57181e-06,-3.27827e-12,4.85847e-38,-3.40903e-12,-1.13711e-13,0,0,0,0,0,0,0,0,0,0,0,0,0,0,0,0,0,0,0,0,0,-0.261799,0.000689145,-1.5,nan,0,0,3,0,0,0,0,0,0,0,0
200,-3.2124e-12,4.85894e-38,-1.57181e-06,-3.27827e-12,4.85847e-38,0,-1.13712e-13,0,0,0,0,0,0,0,0,0,0,0,0,0,0,0,0,0,0,0,0,0,-0.261799,0.000663264,-1.5,nan,0,0,3,0,0,0,0,0,0,0,0
210,-3.2124e-12,4.85894e-38,-1.57181e-06,-3.27827e-12,4.85847e-38,-3.40903e-12,-1.13712e-13,0,0,0,0,0,0,0,0,0,0,0,0,0,0,0,0,0,0,0,0,0,-0.261799,0.000633166,-1.5,nan,0,0,3,0,0,0,0,0,0,0,0
220,-3.2124e-12,4.85894e-38,-1.57181e-06,-3.27827e-12,4.85847e-38,0,-1.13713e-13,0,0,0,0,0,0,0,0,0,0,0,0,0,0,0,0,0,0,0,0,0,-0.261799,0.00060692,-1.5,nan,0,0,3,0,0,0,0,0,0,0,0
230,-3.2124e-12,4.85894e-38,-1.57181e-06,-3.27827e-12,4.85847e-38,-3.40903e-12,-1.13714e-13,0,0,0,0,0,0,0,0,0,0,0,0,0,0,0,0,0,0,0,0,0,-0.261799,0.000586517,-1.5,nan,0,0,3,0,0,0,0,0,0,0,0
240,-3.2124e-12,4.85894e-38,-1.57181e-06,-3.27827e-12,4.85847e-38,0,-1.13714e-13,0,0,0,0,0,0,0,0,0,0,0,0,0,0,0,0,0,0,0,0,0,-0.261799,0.000541403,-1.5,nan,0,0,3,0,0,0,0,0,0,0,0
250,-3.2124e-12,4.85894e-38,-1.57181e-06,-3.27827e-12,4.85847e-38,-3.40903e-12,-1.13715e-13,0,0,0,0,0,0,0,0,0,0,0,0,0,0,0,0,0,0,0,0,0,-0.261799,0.000522136,-1.5,nan,0,0,3,0,0,0,0,0,0,0,0
260,-3.2124e-12,4.85894e-38,-1.57181e-06,-3.27827e-12,4.85847e-38,0,-1.13715e-13,0,0,0,0,0,0,0,0,0,0,0,0,0,0,0,0,0,0,0,0,0,-0.261799,0.000506638,-1.5,nan,0,0,3,0,0,0,0,0,0,0,0
270,-3.2124e-12,4.85894e-38,-1.57181e-06,-3.27827e-12,4.85847e-38,-3.40903e-12,-1.13716e-13,0,0,0,0,0,0,0,0,0,0,0,0,0,0,0,0,0,0,0,0,0,-0.261799,0.00048462,-1.5,nan,0,0,3,0,0,0,0,0,0,0,0
280,-3.2124e-12,4.85894e-38,-1.57181e-06,-3.27827e-12,4.85847e-38,0,-1.13716e-13,0,0,0,0,0,0,0,0,0,0,0,0,0,0,0,0,0,0,0,0,0,-0.261799,0.000464513,-1.5,nan,0,0,3,0,0,0,0,0,0,0,0
290,-3.2124e-12,4.85894e-38,-1.57181e-06,-3.27827e-12,4.85847e-38,-3.40903e-12,-1.13717e-13,0,0,0,0,0,0,0,0,0,0,0,0,0,0,0,0,0,0,0,0,0,-0.261799,0.000446171,-1.5,nan,0,0,3,0,0,0,0,0,0,0,0
300,-3.2124e-12,4.85894e-38,-1.57181e-06,-3.27827e-12,4.85847e-38,0,-1.13717e-13,0,0,0,0,0,0,0,0,0,0,0,0,0,0,0,0,0,0,0,0,0,-0.261799,0.000424146,-1.5,nan,0,0,3,0,0,0,0,0,0,0,0
310,-3.2124e-12,4.85894e-38,-1.57181e-06,-3.27827e-12,4.85847e-38,-3.40903e-12,-1.13718e-13,0,0,0,0,0,0,0,0,0,0,0,0,0,0,0,0,0,0,0,0,0,-0.261799,0.000405732,-1.5,nan,0,0,3,0,0,0,0,0,0,0,0
320,-3.2124e-12,4.85894e-38,-1.57181e-06,-3.27827e-12,4.85847e-38,0,-1.13718e-13,0,0,0,0,0,0,0,0,0,0,0,0,0,0,0,0,0,0,0,0,0,-0.261799,0.000390495,-1.5,nan,0,0,3,0,0,0,0,0,0,0,0
330,-3.2124e-12,4.85894e-38,-1.57181e-06,-3.27827e-12,4.85847e-38,-3.40903e-12,-1.13719e-13,0,0,0,0,0,0,0,0,0,0,0,0,0,0,0,0,0,0,0,0,0,-0.261799,0.000372756,-1.5,nan,0,0,3,0,0,0,0,0,0,0,0
340,-3.2124e-12,4.85894e-38,-1.57181e-06,-3.27827e-12,4.85847e-38,0,-1.13719e-13,0,0,0,0,0,0,0,0,0,0,0,0,0,0,0,0,0,0,0,0,0,-0.261799,0.00035729,-1.5,nan,0,0,3,0,0,0,0,0,0,0,0
350,-3.2124e-12,4.85894e-38,-1.57181e-06,-3.27827e-12,4.85847e-38,-3.40903e-12,-1.1372e-13,0,0,0,0,0,0,0,0,0,0,0,0,0,0,0,0,0,0,0,0,0,-0.261799,0.000343872,-1.5,nan,0,0,3,0,0,0,0,0,0,0,0
360,-3.2124e-12,4.85894e-38,-1.57181e-06,-3.27827e-12,4.85847e-38,0,-1.13721e-13,0,0,0,0,0,0,0,0,0,0,0,0,0,0,0,0,0,0,0,0,0,-0.261799,0.000328251,-1.5,nan,0,0,3,0,0,0,0,0,0,0,0
370,-3.2124e-12,4.85894e-38,-1.57181e-06,-3.27827e-12,4.85847e-38,-3.40903e-12,-1.13721e-13,0,0,0,0,0,0,0,0,0,0,0,0,0,0,0,0,0,0,0,0,0,-0.261799,0.000314632,-1.5,nan,0,0,3,0,0,0,0,0,0,0,0
380,-3.2124e-12,4.85894e-38,-1.57181e-06,-3.27827e-12,4.85847e-38,0,-1.13722e-13,0,0,0,0,0,0,0,0,0,0,0,0,0,0,0,0,0,0,0,0,0,-0.261799,0.000300972,-1.5,nan,0,0,3,0,0,0,0,0,0,0,0
390,-3.2124e-12,4.85894e-38,-1.57181e-06,-3.27827e-12,4.85847e-38,-3.40903e-12,-1.13722e-13,0,0,0,0,0,0,0,0,0,0,0,0,0,0,0,0,0,0,0,0,0,-0.261799,0.000287314,-1.5,nan,0,0,3,0,0,0,0,0,0,0,0
400,-3.2124e-12,4.85894e-38,-1.57181e-06,-3.27827e-12,4.85847e-38,0,-1.13723e-13,0,0,0,0,0,0,0,0,0,0,0,0,0,0,0,0,0,0,0,0,0,-0.261799,0.000275393,-1.5,nan,0,0,3,0,0,0,0,0,0,0,0
410,-3.2124e-12,4.85894e-38,-1.57181e-06,-3.27827e-12,4.85847e-38,-3.40903e-12,-1.13723e-13,0,0,0,0,0,0,0,0,0,0,0,0,0,0,0,0,0,0,0,0,0,-0.261799,0.000263437,-1.5,nan,0,0,3,0,0,0,0,0,0,0,0
420,-3.2124e-12,4.85894e-38,-1.57181e-06,-3.27827e-12,4.85847e-38,0,-1.13724e-13,0,0,0,0,0,0,0,0,0,0,0,0,0,0,0,0,0,0,0,0,0,-0.261799,0.000251988,-1.5,nan,0,0,3,0,0,0,0,0,0,0,0
430,-3.2124e-12,4.85894e-38,-1.57181e-06,-3.27827e-12,4.85847e-38,-3.40903e-12,-1.13724e-13,0,0,0,0,0,0,0,0,0,0,0,0,0,0,0,0,0,0,0,0,0,-0.261799,0.000241048,-1.5,nan,0,0,3,0,0,0,0,0,0,0,0
440,-3.2124e-12,4.85894e-38,-1.57181e-06,-3.27827e-12,4.85847e-38,0,-1.13725e-13,0,0,0,0,0,0,0,0,0,0,0,0,0,0,0,0,0,0,0,0,0,-0.261799,0.000231046,-1.5,nan,0,0,3,0,0,0,0,0,0,0,0
450,-3.2124e-12,4.85894e-38,-1.57181e-06,-3.27827e-12,4.85847e-38,-3.40903e-12,-1.13725e-13,0,0,0,0,0,0,0,0,0,0,0,0,0,0,0,0,0,0,0,0,0,-0.261799,0.000220551,-1.5,nan,0,0,3,0,0,0,0,0,0,0,0
460,-3.2124e-12,4.85894e-38,-1.57181e-06,-3.27827e-12,4.85847e-38,0,-1.13726e-13,0,0,0,0,0,0,0,0,0,0,0,0,0,0,0,0,0,0,0,0,0,-0.261799,0.000210975,-1.5,nan,0,0,3,0,0,0,0,0,0,0,0
470,-3.2124e-12,4.85894e-38,-1.57181e-06,-3.27827e-12,4.85847e-38,-3.40903e-12,-1.13727e-13,0,0,0,0,0,0,0,0,0,0,0,0,0,0,0,0,0,0,0,0,0,-0.261799,0.000203052,-1.5,nan,0,0,3,0,0,0,0,0,0,0,0
480,-3.2124e-12,4.85894e-38,-1.57181e-06,-3.27827e-12,4.85847e-38,0,-1.13727e-13,0,0,0,0,0,0,0,0,0,0,0,0,0,0,0,0,0,0,0,0,0,-0.261799,0.000197025,-1.5,nan,0,0,3,0,0,0,0,0,0,0,0
490,-3.2124e-12,4.85894e-38,-1.57181e-06,-3.27827e-12,4.85847e-38,-3.40903e-12,-1.13728e-13,0,0,0,0,0,0,0,0,0,0,0,0,0,0,0,0,0,0,0,0,0,-0.261799,0.000190793,-1.5,nan,0,0,3,0,0,0,0,0,0,0,0
500,-3.2124e-12,4.85894e-38,-1.57181e-06,-3.27827e-12,4.85847e-38,0,-1.13728e-13,0,0,0,0,0,0,0,0,0,0,0,0,0,0,0,0,0,0,0,0,0,-0.261799,0.00018326,-1.5,nan,0,0,3,0,0,0,0,0,0,0,0
510,-3.2124e-12,4.85894e-38,-1.57181e-06,-3.27827e-12,4.85847e-38,-3.40903e-12,-1.13729e-13,0,0,0,0,0,0,0,0,0,0,0,0,0,0,0,0,0,0,0,0,0,-0.261799,0.000175663,-1.5,nan,0,0,3,0,0,0,0,0,0,0,0
520,-3.2124e-12,4.85894e-38,-1.57181e-06,-3.27827e-12,4.85847e-38,0,-1.13729e-13,0,0,0,0,0,0,0,0,0,0,0,0,0,0,0,0,0,0,0,0,0,-0.261799,0.000169066,-1.5,nan,0,0,3,0,0,0,0,0,0,0,0
530,-3.2124e-12,4.85894e-38,-1.57181e-06,-3.27827e-12,4.85847e-38,-3.40903e-12,-1.1373e-13,0,0,0,0,0,0,0,0,0,0,0,0,0,0,0,0,0,0,0,0,0,-0.261799,0.000162058,-1.5,nan,0,0,3,0,0,0,0,0,0,0,0
540,-3.2124e-12,4.85894e-38,-1.57181e-06,-3.27827e-12,4.85847e-38,0,-1.1373e-13,0,0,0,0,0,0,0,0,0,0,0,0,0,0,0,0,0,0,0,0,0,-0.261799,0.000155341,-1.5,nan,0,0,3,0,0,0,0,0,0,0,0
550,-3.2124e-12,4.85894e-38,-1.57181e-06,-3.27827e-12,4.85847e-38,-3.40903e-12,-1.13731e-13,0,0,0,0,0,0,0,0,0,0,0,0,0,0,0,0,0,0,0,0,0,-0.261799,0.000149512,-1.5,nan,0,0,3,0,0,0,0,0,0,0,0
560,-3.2124e-12,4.85894e-38,-1.57181e-06,-3.27827e-12,4.85847e-38,0,-1.13731e-13,0,0,0,0,0,0,0,0,0,0,0,0,0,0,0,0,0,0,0,0,0,-0.261799,0.000143608,-1.5,nan,0,0,3,0,0,0,0,0,0,0,0
570,-3.2124e-12,4.85894e-38,-1.57181e-06,-3.27827e-12,4.85847e-38,-3.40903e-12,-1.13732e-13,0,0,0,0,0,0,0,0,0,0,0,0,0,0,0,0,0,0,0,0,0,-0.261799,0.00013765,-1.5,nan,0,0,3,0,0,0,0,0,0,0,0
580,-3.2124e-12,4.85894e-38,-1.57181e-06,-3.27827e-12,4.85847e-38,0,-1.13732e-13,0,0,0,0,0,0,0,0,0,0,0,0,0,0,0,0,0,0,0,0,0,-0.261799,0.00013248,-1.5,nan,0,0,3,0,0,0,0,0,0,0,0
590,-3.2124e-12,4.85894e-38,-1.57181e-06,-3.27827e-12,4.85847e-38,-3.40903e-12,-1.13733e-13,0,0,0,0,0,0,0,0,0,0,0,0,0,0,0,0,0,0,0,0,0,-0.261799,0.000127245,-1.5,nan,0,0,3,0,0,0,0,0,0,0,0
600,-3.2124e-12,4.85894e-38,-1.57181e-06,-3.27827e-12,4.85847e-38,0,-1.13734e-13,0,0,0,0,0,0,0,0,0,0,0,0,0,0,0,0,0,0,0,0,0,-0.261799,0.00012172,-1.5,nan,0,0,3,0,0,0,0,0,0,0,0
610,-3.2124e-12,4.85894e-38,-1.57181e-06,-3.27827e-12,4.85847e-38,-3.40903e-12,-1.13734e-13,0,0,0,0,0,0,0,0,0,0,0,0,0,0,0,0,0,0,0,0,0,-0.261799,0.000117389,-1.5,nan,0,0,3,0,0,0,0,0,0,0,0
620,-3.2124e-12,4.85894e-38,-1.57181e-06,-3.27827e-12,4.85847e-38,0,-1.13735e-13,0,0,0,0,0,0,0,0,0,0,0,0,0,0,0,0,0,0,0,0,0,-0.261799,0.000112523,-1.5,nan,0,0,3,0,0,0,0,0,0,0,0
630,-3.2124e-12,4.85894e-38,-1.57181e-06,-3.27827e-12,4.85847e-38,-3.40903e-12,-1.13735e-13,0,0,0,0,0,0,0,0,0,0,0,0,0,0,0,0,0,0,0,0,0,-0.261799,0.000107854,-1.5,nan,0,0,3,0,0,0,0,0,0,0,0
640,-3.2124e-12,4.85894e-38,-1.57181e-06,-3.27827e-12,4.85847e-38,0,-1.13736e-13,0,0,0,0,0,0,0,0,0,0,0,0,0,0,0,0,0,0,0,0,0,-0.261799,0.000103804,-1.5,nan,0,0,3,0,0,0,0,0,0,0,0
650,-3.2124e-12,4.85894e-38,-1.57181e-06,-3.27827e-12,4.85847e-38,-3.40903e-12,-1.13736e-13,0,0,0,0,0,0,0,0,0,0,0,0,0,0,0,0,0,0,0,0,0,-0.261799,9.97011e-05,-1.5,nan,0,0,3,0,0,0,0,0,0,0,0
660,-3.2124e-12,4.85894e-38,-1.57181e-06,-3.27827e-12,4.85847e-38,0,-1.13737e-13,0,0,0,0,0,0,0,0,0,0,0,0,0,0,0,0,0,0,0,0,0,-0.261799,9.53725e-05,-1.5,nan,0,0,3,0,0,0,0,0,0,0,0
670,-3.2124e-12,4.85894e-38,-1.57181e-06,-3.27827e-12,4.85847e-38,-3.40903e-12,-1.13737e-13,0,0,0,0,0,0,0,0,0,0,0,0,0,0,0,0,0,0,0,0,0,-0.261799,9.14154e-05,-1.5,nan,0,0,3,0,0,0,0,0,0,0,0
680,-3.2124e-12,4.85894e-38,-1.57181e-06,-3.27827e-12,4.85847e-38,0,-1.13738e-13,0,0,0,0,0,0,0,0,0,0,0,0,0,0,0,0,0,0,0,0,0,-0.261799,8.76261e-05,-1.5,nan,0,0,3,0,0,0,0,0,0,0,0
690,-3.2124e-12,4.85894e-38,-1.57181e-06,-3.27827e-12,4.85847e-38,-3.40903e-12,-1.13738e-13,0,0,0,0,0,0,0,0,0,0,0,0,0,0,0,0,0,0,0,0,0,-0.261799,8.46803e-05,-1.5,nan,0,0,3,0,0,0,0,0,0,0,0
700,-3.2124e-12,4.85894e-38,-1.57181e-06,-3.27827e-12,4.85847e-38,0,-1.13739e-13,0,0,0,0,0,0,0,0,0,0,0,0,0,0,0,0,0,0,0,0,0,-0.261799,8.18335e-05,-1.5,nan,0,0,3,0,0,0,0,0,0,0,0
710,-3.2124e-12,4.85894e-38,-1.57181e-06,-3.27827e-12,4.85847e-38,-3.40903e-12,-1.1374e-13,0,0,0,0,0,0,0,0,0,0,0,0,0,0,0,0,0,0,0,0,0,-0.261799,7.92451e-05,-1.5,nan,0,0,3,0,0,0,0,0,0,0,0
720,-3.2124e-12,4.85894e-38,-1.57181e-06,-3.27827e-12,4.85847e-38,0,-1.1374e-13,0,0,0,0,0,0,0,0,0,0,0,0,0,0,0,0,0,0,0,0,0,-0.261799,7.72056e-05,-1.5,nan,0,0,3,0,0,0,0,0,0,0,0
730,-3.2124e-12,4.85894e-38,-1.57181e-06,-3.27827e-12,4.85847e-38,-3.40903e-12,-1.13741e-13,0,0,0,0,0,0,0,0,0,0,0,0,0,0,0,0,0,0,0,0,0,-0.261799,7.43062e-05,-1.5,nan,0,0,3,0,0,0,0,0,0,0,0
740,-3.2124e-12,4.85894e-38,-1.57181e-06,-3.27827e-12,4.85847e-38,0,-1.13741e-13,0,0,0,0,0,0,0,0,0,0,0,0,0,0,0,0,0,0,0,0,0,-0.261799,7.13694e-05,-1.5,nan,0,0,3,0,0,0,0,0,0,0,0
750,-3.2124e-12,4.85894e-38,-1.57181e-06,-3.27827e-12,4.85847e-38,-3.40903e-12,-1.13742e-13,0,0,0,0,0,0,0,0,0,0,0,0,0,0,0,0,0,0,0,0,0,-0.261799,6.85487e-05,-1.5,nan,0,0,3,0,0,0,0,0,0,0,0
760,-3.2124e-12,4.85894e-38,-1.57181e-06,-3.27827e-12,4.85847e-38,0,-1.13742e-13,0,0,0,0,0,0,0,0,0,0,0,0,0,0,0,0,0,0,0,0,0,-0.261799,6.57046e-05,-1.5,nan,0,0,3,0,0,0,0,0,0,0,0
770,-3.2124e-12,4.85894e-38,-1.57181e-06,-3.27827e-12,4.85847e-38,-3.40903e-12,-1.13743e-13,0,0,0,0,0,0,0,0,0,0,0,0,0,0,0,0,0,0,0,0,0,-0.261799,6.31101e-05,-1.5,nan,0,0,3,0,0,0,0,0,0,0,0
780,-3.2124e-12,4.85894e-38,-1.57181e-06,-3.27827e-12,4.85847e-38,0,-1.13743e-13,0,0,0,0,0,0,0,0,0,0,0,0,0,0,0,0,0,0,0,0,0,-0.261799,6.06158e-05,-1.5,nan,0,0,3,0,0,0,0,0,0,0,0
790,-3.2124e-12,4.85894e-38,-1.57181e-06,-3.27827e-12,4.85847e-38,-3.40903e-12,-1.13744e-13,0,0,0,0,0,0,0,0,0,0,0,0,0,0,0,0,0,0,0,0,0,-0.261799,5.81008e-05,-1.5,nan,0,0,3,0,0,0,0,0,0,0,0
800,-3.2124e-12,4.85894e-38,-1.57181e-06,-3.27827e-12,4.85847e-38,0,-1.13744e-13,0,0,0,0,0,0,0,0,0,0,0,0,0,0,0,0,0,0,0,0,0,-0.261799,5.58066e-05,-1.5,nan,0,0,3,0,0,0,0,0,0,0,0
810,-3.2124e-12,4.85894e-38,-1.57181e-06,-3.27827e-12,4.85847e-38,-3.40903e-12,-1.13745e-13,0,0,0,0,0,0,0,0,0,0,0,0,0,0,0,0,0,0,0,0,0,-0.261799,5.3601e-05,-1.5,nan,0,0,3,0,0,0,0,0,0,0,0
820,-3.2124e-12,4.85894e-38,-1.57181e-06,-3.27827e-12,4.85847e-38,0,-1.13745e-13,0,0,0,0,0,0,0,0,0,0,0,0,0,0,0,0,0,0,0,0,0,-0.261799,5.13771e-05,-1.5,nan,0,0,3,0,0,0,0,0,0,0,0
830,-3.2124e-12,4.85894e-38,-1.57181e-06,-3.27827e-12,4.85847e-38,-3.40903e-12,-1.13746e-13,0,0,0,0,0,0,0,0,0,0,0,0,0,0,0,0,0,0,0,0,0,-0.261799,4.94476e-05,-1.5,nan,0,0,3,0,0,0,0,0,0,0,0
840,-3.2124e-12,4.85894e-38,-1.57181e-06,-3.27827e-12,4.85847e-38,0,-1.13747e-13,0,0,0,0,0,0,0,0,0,0,0,0,0,0,0,0,0,0,0,0,0,-0.261799,4.7398e-05,-1.5,nan,0,0,3,0,0,0,0,0,0,0,0
850,-3.2124e-12,4.85894e-38,-1.57181e-06,-3.27827e-12,4.85847e-38,-3.40903e-12,-1.13747e-13,0,0,0,0,0,0,0,0,0,0,0,0,0,0,0,0,0,0,0,0,0,-0.261799,4.54314e-05,-1.5,nan,0,0,3,0,0,0,0,0,0,0,0
860,-3.2124e-12,4.85894e-38,-1.57181e-06,-3.27827e-12,4.85847e-38,0,-1.13748e-13,0,0,0,0,0,0,0,0,0,0,0,0,0,0,0,0,0,0,0,0,0,-0.261799,4.37252e-05,-1.5,nan,0,0,3,0,0,0,0,0,0,0,0
870,-3.2124e-12,4.85894e-38,-1.57181e-06,-3.27827e-12,4.85847e-38,-3.40903e-12,-1.13748e-13,0,0,0,0,0,0,0,0,0,0,0,0,0,0,0,0,0,0,0,0,0,-0.261799,4.19971e-05,-1.5,nan,0,0,3,0,0,0,0,0,0,0,0
880,-3.2124e-12,4.85894e-38,-1.57181e-06,-3.27827e-12,4.85847e-38,0,-1.13749e-13,0,0,0,0,0,0,0,0,0,0,0,0,0,0,0,0,0,0,0,0,0,-0.261799,4.0172e-05,-1.5,nan,0,0,3,0,0,0,0,0,0,0,0
890,-3.2124e-12,4.85894e-38,-1.57181e-06,-3.27827e-12,4.85847e-38,-3.40903e-12,-1.13749e-13,0,0,0,0,0,0,0,0,0,0,0,0,0,0,0,0,0,0,0,0,0,-0.261799,3.85068e-05,-1.5,nan,0,0,3,0,0,0,0,0,0,0,0
900,-3.2124e-12,4.85894e-38,-1.57181e-06,-3.27827e-12,4.85847e-38,0,-1.1375e-13,0,0,0,0,0,0,0,0,0,0,0,0,0,0,0,0,0,0,0,0,0,-0.261799,3.08597e-05,-1.5,nan,0,0,3,0,0,0,0,0,0,0,0
910,-3.2124e-12,4.85894e-38,-1.57181e-06,-3.27827e-12,4.85847e-38,-3.40903e-12,-1.1375e-13,0,0,0,0,0,0,0,0,0,0,0,0,0,0,0,0,0,0,0,0,0,-0.261799,2.97624e-05,-1.5,nan,0,0,3,0,0,0,0,0,0,0,0
920,-3.2124e-12,4.85894e-38,-1.57181e-06,-3.27827e-12,4.85847e-38,0,-1.13751e-13,0,0,0,0,0,0,0,0,0,0,0,0,0,0,0,0,0,0,0,0,0,-0.261799,2.82346e-05,-1.5,nan,0,0,3,0,0,0,0,0,0,0,0
930,-3.2124e-12,4.85894e-38,-1.57181e-06,-3.27827e-12,4.85847e-38,-3.40903e-12,-1.13751e-13,0,0,0,0,0,0,0,0,0,0,0,0,0,0,0,0,0,0,0,0,0,-0.261799,2.73966e-05,-1.5,nan,0,0,3,0,0,0,0,0,0,0,0
940,-3.2124e-12,4.85894e-38,-1.57181e-06,-3.27827e-12,4.85847e-38,0,-1.13752e-13,0,0,0,0,0,0,0,0,0,0,0,0,0,0,0,0,0,0,0,0,0,-0.261799,2.66373e-05,-1.5,nan,0,0,3,0,0,0,0,0,0,0,0
950,-3.2124e-12,4.85894e-38,-1.57181e-06,-3.27827e-12,4.85847e-38,-3.40903e-12,-1.13753e-13,0,0,0,0,0,0,0,0,0,0,0,0,0,0,0,0,0,0,0,0,0,-0.261799,2.56901e-05,-1.5,nan,0,0,3,0,0,0,0,0,0,0,0
960,-3.2124e-12,4.85894e-38,-1.57181e-06,-3.27827e-12,4.85847e-38,0,-1.13753e-13,0,0,0,0,0,0,0,0,0,0,0,0,0,0,0,0,0,0,0,0,0,-0.261799,2.48265e-05,-1.5,nan,0,0,3,0,0,0,0,0,0,0,0
970,-3.2124e-12,4.85894e-38,-1.57181e-06,-3.27827e-12,4.85847e-38,-3.40903e-12,-1.13754e-13,0,0,0,0,0,0,0,0,0,0,0,0,0,0,0,0,0,0,0,0,0,-0.261799,2.3943e-05,-1.5,nan,0,0,3,0,0,0,0,0,0,0,0
980,-3.2124e-12,4.85894e-38,-1.57181e-06,-3.27827e-12,4.85847e-38,0,-1.13754e-13,0,0,0,0,0,0,0,0,0,0,0,0,0,0,0,0,0,0,0,0,0,-0.261799,2.31381e-05,-1.5,nan,0,0,3,0,0,0,0,0,0,0,0
990,-3.2124e-12,4.85894e-38,-1.57181e-06,-3.27827e-12,4.85847e-38,-3.40903e-12,-1.13755e-13,0,0,0,0,0,0,0,0,0,0,0,0,0,0,0,0,0,0,0,0,0,-0.261799,2.23147e-05,-1.5,nan,0,0,3,0,0,0,0,0,0,0,0
1000,-3.2124e-12,4.85894e-38,-1.57181e-06,-3.27827e-12,4.85847e-38,0,-1.13755e-13,0,0,0,0,0,0,0,0,0,0,0,0,0,0,0,0,0,0,0,0,0,-0.261799,2.15645e-05,-1.5,nan,0,0,3,0,0,0,0,0,0,0,0
1010,-3.2124e-12,4.85894e-38,-1.57181e-06,-3.27827e-12,4.85847e-38,-3.40903e-12,-1.13756e-13,0,0,0,0,0,0,0,0,0,0,0,0,0,0,0,0,0,0,0,0,0,-0.261799,2.07971e-05,-1.5,nan,0,0,3,0,0,0,0,0,0,0,0
1020,-3.2124e-12,4.85894e-38,-1.57181e-06,-3.27827e-12,4.85847e-38,0,-1.13756e-13,0,0,0,0,0,0,0,0,0,0,0,0,0,0,0,0,0,0,0,0,0,-0.261799,2.00576e-05,-1.5,nan,0,0,3,0,0,0,0,0,0,0,0
1030,-3.2124e-12,4.85894e-38,-1.57181e-06,-3.27827e-12,4.85847e-38,-3.40903e-12,-1.13757e-13,0,0,0,0,0,0,0,0,0,0,0,0,0,0,0,0,0,0,0,0,0,-0.261799,1.93833e-05,-1.5,nan,0,0,3,0,0,0,0,0,0,0,0
1040,-3.2124e-12,4.85894e-38,-1.57181e-06,-3.27827e-12,4.85847e-38,0,-1.13757e-13,0,0,0,0,0,0,0,0,0,0,0,0,0,0,0,0,0,0,0,0,0,-0.261799,1.86941e-05,-1.5,nan,0,0,3,0,0,0,0,0,0,0,0
1050,-3.2124e-12,4.85894e-38,-1.57181e-06,-3.27827e-12,4.85847e-38,-3.40903e-12,-1.13758e-13,0,0,0,0,0,0,0,0,0,0,0,0,0,0,0,0,0,0,0,0,0,-0.261799,1.80656e-05,-1.5,nan,0,0,3,0,0,0,0,0,0,0,0
1060,-3.2124e-12,4.85894e-38,-1.57181e-06,-3.27827e-12,4.85847e-38,0,-1.13759e-13,0,0,0,0,0,0,0,0,0,0,0,0,0,0,0,0,0,0,0,0,0,-0.261799,1.74232e-05,-1.5,nan,0,0,3,0,0,0,0,0,0,0,0
1070,-3.2124e-12,4.85894e-38,-1.57181e-06,-3.27827e-12,4.85847e-38,-3.40903e-12,-1.13759e-13,0,0,0,0,0,0,0,0,0,0,0,0,0,0,0,0,0,0,0,0,0,-0.261799,1.68375e-05,-1.5,nan,0,0,3,0,0,0,0,0,0,0,0
1080,-3.2124e-12,4.85894e-38,-1.57181e-06,-3.27827e-12,4.85847e-38,0,-1.1376e-13,0,0,0,0,0,0,0,0,0,0,0,0,0,0,0,0,0,0,0,0,0,-0.261799,1.62388e-05,-1.5,nan,0,0,3,0,0,0,0,0,0,0,0
1090,-3.2124e-12,4.85894e-38,-1.57181e-06,-3.27827e-12,4.85847e-38,-3.40903e-12,-1.1376e-13,0,0,0,0,0,0,0,0,0,0,0,0,0,0,0,0,0,0,0,0,0,-0.261799,1.56929e-05,-1.5,nan,0,0,3,0,0,0,0,0,0,0,0
1100,-3.2124e-12,4.85894e-38,-1.57181e-06,-3.27827e-12,4.85847e-38,0,-1.13761e-13,0,0,0,0,0,0,0,0,0,0,0,0,0,0,0,0,0,0,0,0,0,-0.261799,1.51349e-05,-1.5,nan,0,0,3,0,0,0,0,0,0,0,0
1110,-3.2124e-12,4.85894e-38,-1.57181e-06,-3.27827e-12,4.85847e-38,-3.40903e-12,-1.13761e-13,0,0,0,0,0,0,0,0,0,0,0,0,0,0,0,0,0,0,0,0,0,-0.261799,1.4626e-05,-1.5,nan,0,0,3,0,0,0,0,0,0,0,0
1120,-3.2124e-12,4.85894e-38,-1.57181e-06,-3.27827e-12,4.85847e-38,0,-1.13762e-13,0,0,0,0,0,0,0,0,0,0,0,0,0,0,0,0,0,0,0,0,0,-0.261799,1.37038e-05,-1.5,nan,0,0,3,0,0,0,0,0,0,0,0
1130,-3.2124e-12,4.85894e-38,-1.57181e-06,-3.27827e-12,4.85847e-38,-3.40903e-12,-1.13762e-13,0,0,0,0,0,0,0,0,0,0,0,0,0,0,0,0,0,0,0,0,0,-0.261799,1.32431e-05,-1.5,nan,0,0,3,0,0,0,0,0,0,0,0
1140,-3.2124e-12,4.85894e-38,-1.57181e-06,-3.27827e-12,4.85847e-38,0,-1.13763e-13,0,0,0,0,0,0,0,0,0,0,0,0,0,0,0,0,0,0,0,0,0,-0.261799,1.27722e-05,-1.5,nan,0,0,3,0,0,0,0,0,0,0,0
1150,-3.2124e-12,4.85894e-38,-1.57181e-06,-3.27827e-12,4.85847e-38,-3.40903e-12,-1.13763e-13,0,0,0,0,0,0,0,0,0,0,0,0,0,0,0,0,0,0,0,0,0,-0.261799,1.24182e-05,-1.5,nan,0,0,3,0,0,0,0,0,0,0,0
1160,-3.2124e-12,4.85894e-38,-1.57181e-06,-3.27827e-12,4.85847e-38,0,-1.13764e-13,0,0,0,0,0,0,0,0,0,0,0,0,0,0,0,0,0,0,0,0,0,-0.261799,1.20498e-05,-1.5,nan,0,0,3,0,0,0,0,0,0,0,0
1170,-3.2124e-12,4.85894e-38,-1.57181e-06,-3.27827e-12,4.85847e-38,-3.40903e-12,-1.13764e-13,0,0,0,0,0,0,0,0,0,0,0,0,0,0,0,0,0,0,0,0,0,-0.261799,1.16447e-05,-1.5,nan,0,0,3,0,0,0,0,0,0,0,0
1180,-3.2124e-12,4.85894e-38,-1.57181e-06,-3.27827e-12,4.85847e-38,0,-1.13765e-13,0,0,0,0,0,0,0,0,0,0,0,0,0,0,0,0,0,0,0,0,0,-0.261799,1.12303e-05,-1.5,nan,0,0,3,0,0,0,0,0,0,0,0
1190,-3.2124e-12,4.85894e-38,-1.57181e-06,-3.27827e-12,4.85847e-38,-3.40903e-12,-1.13766e-13,0,0,0,0,0,0,0,0,0,0,0,0,0,0,0,0,0,0,0,0,0,-0.261799,1.0831e-05,-1.5,nan,0,0,3,0,0,0,0,0,0,0,0
1200,-3.2124e-12,4.85894e-38,-1.57181e-06,-3.27827e-12,4.85847e-38,0,-1.13766e-13,0,0,0,0,0,0,0,0,0,0,0,0,0,0,0,0,0,0,0,0,0,-0.261799,1.04456e-05,-1.5,nan,0,0,3,0,0,0,0,0,0,0,0
1210,-3.2124e-12,4.85894e-38,-1.57181e-06,-3.27827e-12,4.85847e-38,-3.40903e-12,-1.13767e-13,0,0,0,0,0,0,0,0,0,0,0,0,0,0,0,0,0,0,0,0,0,-0.261799,1.00944e-05,-1.5,nan,0,0,3,0,0,0,0,0,0,0,0
1220,-3.2124e-12,4.85894e-38,-1.57181e-06,-3.27827e-12,4.85847e-38,0,-1.13767e-13,0,0,0,0,0,0,0,0,0,0,0,0,0,0,0,0,0,0,0,0,0,-0.261799,9.73518e-06,-1.5,nan,0,0,3,0,0,0,0,0,0,0,0
1230,-3.2124e-12,4.85894e-38,-1.57181e-06,-3.27827e-12,4.85847e-38,-3.40903e-12,-1.13768e-13,0,0,0,0,0,0,0,0,0,0,0,0,0,0,0,0,0,0,0,0,0,-0.261799,9.38874e-06,-1.5,nan,0,0,3,0,0,0,0,0,0,0,0
1240,-3.2124e-12,4.85894e-38,-1.57181e-06,-3.27827e-12,4.85847e-38,0,-1.13768e-13,0,0,0,0,0,0,0,0,0,0,0,0,0,0,0,0,0,0,0,0,0,-0.261799,9.07311e-06,-1.5,nan,0,0,3,0,0,0,0,0,0,0,0
1250,-3.2124e-12,4.85894e-38,-1.57181e-06,-3.27827e-12,4.85847e-38,-3.40903e-12,-1.13769e-13,0,0,0,0,0,0,0,0,0,0,0,0,0,0,0,0,0,0,0,0,0,-0.261799,8.75023e-06,-1.5,nan,0,0,3,0,0,0,0,0,0,0,0
1260,-3.2124e-12,4.85894e-38,-1.57181e-06,-3.27827e-12,4.85847e-38,0,-1.13769e-13,0,0,0,0,0,0,0,0,0,0,0,0,0,0,0,0,0,0,0,0,0,-0.261799,8.43909e-06,-1.5,nan,0,0,3,0,0,0,0,0,0,0,0
1270,-3.2124e-12,4.85894e-38,-1.57181e-06,-3.27827e-12,4.85847e-38,-3.40903e-12,-1.1377e-13,0,0,0,0,0,0,0,0,0,0,0,0,0,0,0,0,0,0,0,0,0,-0.261799,8.13901e-06,-1.5,nan,0,0,3,0,0,0,0,0,0,0,0
1280,-3.2124e-12,4.85894e-38,-1.57181e-06,-3.27827e-12,4.85847e-38,0,-1.1377e-13,0,0,0,0,0,0,0,0,0,0,0,0,0,0,0,0,0,0,0,0,0,-0.261799,7.86539e-06,-1.5,nan,0,0,3,0,0,0,0,0,0,0,0
1290,-3.2124e-12,4.85894e-38,-1.57181e-06,-3.27827e-12,4.85847e-38,-3.40903e-12,-1.13771e-13,0,0,0,0,0,0,0,0,0,0,0,0,0,0,0,0,0,0,0,0,0,-0.261799,7.58549e-06,-1.5,nan,0,0,3,0,0,0,0,0,0,0,0
1300,-3.2124e-12,4.85894e-38,-1.57181e-06,-3.27827e-12,4.85847e-38,0,-1.13772e-13,0,0,0,0,0,0,0,0,0,0,0,0,0,0,0,0,0,0,0,0,0,-0.261799,7.31576e-06,-1.5,nan,0,0,3,0,0,0,0,0,0,0,0
1310,-3.2124e-12,4.85894e-38,-1.57181e-06,-3.27827e-12,4.85847e-38,-3.40903e-12,-1.13772e-13,0,0,0,0,0,0,0,0,0,0,0,0,0,0,0,0,0,0,0,0,0,-0.261799,7.05542e-06,-1.5,nan,0,0,3,0,0,0,0,0,0,0,0
1320,-3.2124e-12,4.85894e-38,-1.57181e-06,-3.27827e-12,4.85847e-38,0,-1.13773e-13,0,0,0,0,0,0,0,0,0,0,0,0,0,0,0,0,0,0,0,0,0,-0.261799,6.81823e-06,-1.5,nan,0,0,3,0,0,0,0,0,0,0,0
1330,-3.2124e-12,4.85894e-38,-1.57181e-06,-3.27827e-12,4.85847e-38,-3.40903e-12,-1.13773e-13,0,0,0,0,0,0,0,0,0,0,0,0,0,0,0,0,0,0,0,0,0,-0.261799,6.5756e-06,-1.5,nan,0,0,3,0,0,0,0,0,0,0,0
1340,-3.2124e-12,4.85894e-38,-1.57181e-06,-3.27827e-12,4.85847e-38,0,-1.13774e-13,0,0,0,0,0,0,0,0,0,0,0,0,0,0,0,0,0,0,0,0,0,-0.261799,6.3416e-06,-1.5,nan,0,0,3,0,0,0,0,0,0,0,0
1350,-3.2124e-12,4.85894e-38,-1.57181e-06,-3.27827e-12,4.85847e-38,-3.40903e-12,-1.13774e-13,0,0,0,0,0,0,0,0,0,0,0,0,0,0,0,0,0,0,0,0,0,-0.261799,6.11592e-06,-1.5,nan,0,0,3,0,0,0,0,0,0,0,0
1360,-3.2124e-12,4.85894e-38,-1.57181e-06,-3.27827e-12,4.85847e-38,0,-1.13775e-13,0,0,0,0,0,0,0,0,0,0,0,0,0,0,0,0,0,0,0,0,0,-0.261799,5.89845e-06,-1.5,nan,0,0,3,0,0,0,0,0,0,0,0
1370,-3.2124e-12,4.85894e-38,-1.57181e-06,-3.27827e-12,4.85847e-38,-3.40903e-12,-1.13775e-13,0,0,0,0,0,0,0,0,0,0,0,0,0,0,0,0,0,0,0,0,0,-0.261799,5.73498e-06,-1.5,nan,0,0,3,0,0,0,0,0,0,0,0
1380,-3.2124e-12,4.85894e-38,-1.57181e-06,-3.27827e-12,4.85847e-38,0,-1.13776e-13,0,0,0,0,0,0,0,0,0,0,0,0,0,0,0,0,0,0,0,0,0,-0.261799,5.56485e-06,-1.5,nan,0,0,3,0,0,0,0,0,0,0,0
1390,-3.2124e-12,4.85894e-38,-1.57181e-06,-3.27827e-12,4.85847e-38,-3.40903e-12,-1.13776e-13,0,0,0,0,0,0,0,0,0,0,0,0,0,0,0,0,0,0,0,0,0,-0.261799,5.39977e-06,-1.5,nan,0,0,3,0,0,0,0,0,0,0,0
1400,-3.2124e-12,4.85894e-38,-1.57181e-06,-3.27827e-12,4.85847e-38,0,-1.13777e-13,0,0,0,0,0,0,0,0,0,0,0,0,0,0,0,0,0,0,0,0,0,-0.261799,5.21824e-06,-1.5,nan,0,0,3,0,0,0,0,0,0,0,0
1410,-3.2124e-12,4.85894e-38,-1.57181e-06,-3.27827e-12,4.85847e-38,-3.40903e-12,-1.13777e-13,0,0,0,0,0,0,0,0,0,0,0,0,0,0,0,0,0,0,0,0,0,-0.261799,5.03254e-06,-1.5,nan,0,0,3,0,0,0,0,0,0,0,0
1420,-3.2124e-12,4.85894e-38,-1.57181e-06,-3.27827e-12,4.85847e-38,0,-1.13778e-13,0,0,0,0,0,0,0,0,0,0,0,0,0,0,0,0,0,0,0,0,0,-0.261799,4.85359e-06,-1.5,nan,0,0,3,0,0,0,0,0,0,0,0
1430,-3.2124e-12,4.85894e-38,-1.57181e-06,-3.27827e-12,4.85847e-38,-3.40903e-12,-1.13779e-13,0,0,0,0,0,0,0,0,0,0,0,0,0,0,0,0,0,0,0,0,0,-0.261799,4.681e-06,-1.5,nan,0,0,3,0,0,0,0,0,0,0,0
1440,-3.2124e-12,4.85894e-38,-1.57181e-06,-3.27827e-12,4.85847e-38,0,-1.13779e-13,0,0,0,0,0,0,0,0,0,0,0,0,0,0,0,0,0,0,0,0,0,-0.261799,4.52364e-06,-1.5,nan,0,0,3,0,0,0,0,0,0,0,0
1450,-3.2124e-12,4.85894e-38,-1.57181e-06,-3.27827e-12,4.85847e-38,-3.40903e-12,-1.13787e-13,0,0,0,0,0,0,0,0,0,0,0,0,0,0,0,0,0,0,0,0,0,-0.261799,4.36266e-06,-1.5,nan,0,0,3,0,0,0,0,0,0,0,0
1460,-3.2124e-12,4.85894e-38,-1.57181e-06,-3.27827e-12,4.85847e-38,0,-1.13788e-13,0,0,0,0,0,0,0,0,0,0,0,0,0,0,0,0,0,0,0,0,0,-0.261799,4.20753e-06,-1.5,nan,0,0,3,0,0,0,0,0,0,0,0
1470,-3.2124e-12,4.85894e-38,-1.57181e-06,-3.27827e-12,4.85847e-38,-3.40903e-12,-1.13788e-13,0,0,0,0,0,0,0,0,0,0,0,0,0,0,0,0,0,0,0,0,0,-0.261799,4.05792e-06,-1.5,nan,0,0,3,0,0,0,0,0,0,0,0
1480,-3.2124e-12,4.85894e-38,-1.57181e-06,-3.27827e-12,4.85847e-38,0,-1.13789e-13,0,0,0,0,0,0,0,0,0,0,0,0,0,0,0,0,0,0,0,0,0,-0.261799,3.9215e-06,-1.5,nan,0,0,3,0,0,0,0,0,0,0,0
1490,-3.2124e-12,4.85894e-38,-1.57181e-06,-3.27827e-12,4.85847e-38,-3.40903e-12,-1.13789e-13,0,0,0,0,0,0,0,0,0,0,0,0,0,0,0,0,0,0,0,0,0,-0.261799,3.78206e-06,-1.5,nan,0,0,3,0,0,0,0,0,0,0,0
1500,-3.2124e-12,4.85894e-38,-1.57181e-06,-3.27827e-12,4.85847e-38,0,-1.1379e-13,0,0,0,0,0,0,0,0,0,0,0,0,0,0,0,0,0,0,0,0,0,-0.261799,3.65491e-06,-1.5,nan,0,0,3,0,0,0,0,0,0,0,0
1510,-3.2124e-12,4.85894e-38,-1.57181e-06,-3.27827e-12,4.85847e-38,-3.40903e-12,-1.1379e-13,0,0,0,0,0,0,0,0,0,0,0,0,0,0,0,0,0,0,0,0,0,-0.261799,3.52495e-06,-1.5,nan,0,0,3,0,0,0,0,0,0,0,0
1520,-3.2124e-12,4.85894e-38,-1.57181e-06,-3.27827e-12,4.85847e-38,0,-1.13791e-13,0,0,0,0,0,0,0,0,0,0,0,0,0,0,0,0,0,0,0,0,0,-0.261799,3.39961e-06,-1.5,nan,0,0,3,0,0,0,0,0,0,0,0
1530,-3.2124e-12,4.85894e-38,-1.57181e-06,-3.27827e-12,4.85847e-38,-3.40903e-12,-1.13791e-13,0,0,0,0,0,0,0,0,0,0,0,0,0,0,0,0,0,0,0,0,0,-0.261799,3.26524e-06,-1.5,nan,0,0,3,0,0,0,0,0,0,0,0
1540,-3.2124e-12,4.85894e-38,-1.57181e-06,-3.27827e-12,4.85847e-38,0,-1.13792e-13,0,0,0,0,0,0,0,0,0,0,0,0,0,0,0,0,0,0,0,0,0,-0.261799,2.58993e-06,-1.5,nan,0,0,3,0,0,0,0,0,0,0,0
1550,-3.2124e-12,4.85894e-38,-1.57181e-06,-3.27827e-12,4.85847e-38,-3.40903e-12,-1.13792e-13,0,0,0,0,0,0,0,0,0,0,0,0,0,0,0,0,0,0,0,0,0,-0.261799,1.92685e-06,-1.5,nan,0,0,3,0,0,0,0,0,0,0,0
1560,-3.2124e-12,4.85894e-38,-1.57181e-06,-3.27827e-12,4.85847e-38,0,-1.13793e-13,0,0,0,0,0,0,0,0,0,0,0,0,0,0,0,0,0,0,0,0,0,-0.261799,1.43353e-06,-1.5,nan,0,0,3,0,0,0,0,0,0,0,0
1570,-3.2124e-12,4.85894e-38,-1.57181e-06,-3.27827e-12,4.85847e-38,-3.40903e-12,-1.13794e-13,0,0,0,0,0,0,0,0,0,0,0,0,0,0,0,0,0,0,0,0,0,-0.261799,1.09473e-06,-1.5,nan,0,0,3,0,0,0,0,0,0,0,0
1580,-3.2124e-12,4.85894e-38,-1.57181e-06,-3.27827e-12,4.85847e-38,0,-1.13794e-13,0,0,0,0,0,0,0,0,0,0,0,0,0,0,0,0,0,0,0,0,0,-0.261799,1.045e-06,-1.5,nan,0,0,3,0,0,0,0,0,0,0,0
1590,-3.2124e-12,4.85894e-38,-1.57181e-06,-3.27827e-12,4.85847e-38,-3.40903e-12,-1.13795e-13,0,0,0,0,0,0,0,0,0,0,0,0,0,0,0,0,0,0,0,0,0,-0.261799,9.95468e-07,-1.5,nan,0,0,3,0,0,0,0,0,0,0,0
1600,-3.2124e-12,4.85894e-38,-1.57181e-06,-3.27827e-12,4.85847e-38,0,-1.13795e-13,0,0,0,0,0,0,0,0,0,0,0,0,0,0,0,0,0,0,0,0,0,-0.261799,9.58084e-07,-1.5,nan,0,0,3,0,0,0,0,0,0,0,0
1610,-3.2124e-12,4.85894e-38,-1.57181e-06,-3.27827e-12,4.85847e-38,-3.40903e-12,-1.13796e-13,0,0,0,0,0,0,0,0,0,0,0,0,0,0,0,0,0,0,0,0,0,-0.261799,9.2778e-07,-1.5,nan,0,0,3,0,0,0,0,0,0,0,0
1620,-3.2124e-12,4.85894e-38,-1.57181e-06,-3.27827e-12,4.85847e-38,0,-1.13796e-13,0,0,0,0,0,0,0,0,0,0,0,0,0,0,0,0,0,0,0,0,0,-0.261799,8.89285e-07,-1.5,nan,0,0,3,0,0,0,0,0,0,0,0
1630,-3.2124e-12,4.85894e-38,-1.57181e-06,-3.27827e-12,4.85847e-38,-3.40903e-12,-1.13797e-13,0,0,0,0,0,0,0,0,0,0,0,0,0,0,0,0,0,0,0,0,0,-0.261799,8.54139e-07,-1.5,nan,0,0,3,0,0,0,0,0,0,0,0
1640,-3.2124e-12,4.85894e-38,-1.57181e-06,-3.27827e-12,4.85847e-38,0,-1.13797e-13,0,0,0,0,0,0,0,0,0,0,0,0,0,0,0,0,0,0,0,0,0,-0.261799,8.17056e-07,-1.5,nan,0,0,3,0,0,0,0,0,0,0,0
1650,-3.2124e-12,4.85894e-38,-1.57181e-06,-3.27827e-12,4.85847e-38,-3.40903e-12,-1.13798e-13,0,0,0,0,0,0,0,0,0,0,0,0,0,0,0,0,0,0,0,0,0,-0.261799,7.83156e-07,-1.5,nan,0,0,3,0,0,0,0,0,0,0,0
1660,-3.2124e-12,4.85894e-38,-1.57181e-06,-3.27827e-12,4.85847e-38,0,-1.13798e-13,0,0,0,0,0,0,0,0,0,0,0,0,0,0,0,0,0,0,0,0,0,-0.261799,7.52203e-07,-1.5,nan,0,0,3,0,0,0,0,0,0,0,0
1670,-3.2124e-12,4.85894e-38,-1.57181e-06,-3.27827e-12,4.85847e-38,-3.40903e-12,-1.13799e-13,0,0,0,0,0,0,0,0,0,0,0,0,0,0,0,0,0,0,0,0,0,-0.261799,7.07669e-07,-1.5,nan,0,0,3,0,0,0,0,0,0,0,0
1680,-3.2124e-12,4.85894e-38,-1.57181e-06,-3.27827e-12,4.85847e-38,0,-1.13799e-13,0,0,0,0,0,0,0,0,0,0,0,0,0,0,0,0,0,0,0,0,0,-0.261799,6.76946e-07,-1.5,nan,0,0,3,0,0,0,0,0,0,0,0
1690,-3.2124e-12,4.85894e-38,-1.57181e-06,-3.27827e-12,4.85847e-38,-3.40903e-12,-1.138e-13,0,0,0,0,0,0,0,0,0,0,0,0,0,0,0,0,0,0,0,0,0,-0.261799,6.50215e-07,-1.5,nan,0,0,3,0,0,0,0,0,0,0,0
1700,-3.2124e-12,4.85894e-38,-1.57181e-06,-3.27827e-12,4.85847e-38,0,-1.13801e-13,0,0,0,0,0,0,0,0,0,0,0,0,0,0,0,0,0,0,0,0,0,-0.261799,6.23237e-07,-1.5,nan,0,0,3,0,0,0,0,0,0,0,0
1710,-3.2124e-12,4.85894e-38,-1.57181e-06,-3.27827e-12,4.85847e-38,-3.40903e-12,-1.13801e-13,0,0,0,0,0,0,0,0,0,0,0,0,0,0,0,0,0,0,0,0,0,-0.261799,5.97379e-07,-1.5,nan,0,0,3,0,0,0,0,0,0,0,0
1720,-3.2124e-12,4.85894e-38,-1.57181e-06,-3.27827e-12,4.85847e-38,0,-1.13802e-13,0,0,0,0,0,0,0,0,0,0,0,0,0,0,0,0,0,0,0,0,0,-0.261799,5.72616e-07,-1.5,nan,0,0,3,0,0,0,0,0,0,0,0
1730,-3.2124e-12,4.85894e-38,-1.57181e-06,-3.27827e-12,4.85847e-38,-3.40903e-12,-1.13802e-13,0,0,0,0,0,0,0,0,0,0,0,0,0,0,0,0,0,0,0,0,0,-0.261799,5.46604e-07,-1.5,nan,0,0,3,0,0,0,0,0,0,0,0
1740,-3.2124e-12,4.85894e-38,-1.57181e-06,-3.27827e-12,4.85847e-38,0,-1.13803e-13,0,0,0,0,0,0,0,0,0,0,0,0,0,0,0,0,0,0,0,0,0,-0.261799,5.22873e-07,-1.5,nan,0,0,3,0,0,0,0,0,0,0,0
1750,-3.2124e-12,4.85894e-38,-1.57181e-06,-3.27827e-12,4.85847e-38,-3.40903e-12,-1.13803e-13,0,0,0,0,0,0,0,0,0,0,0,0,0,0,0,0,0,0,0,0,0,-0.261799,5.02208e-07,-1.5,nan,0,0,3,0,0,0,0,0,0,0,0
1760,-3.2124e-12,4.85894e-38,-1.57181e-06,-3.27827e-12,4.85847e-38,0,-1.13804e-13,0,0,0,0,0,0,0,0,0,0,0,0,0,0,0,0,0,0,0,0,0,-0.261799,4.78431e-07,-1.5,nan,0,0,3,0,0,0,0,0,0,0,0
1770,-3.2124e-12,4.85894e-38,-1.57181e-06,-3.27827e-12,4.85847e-38,-3.40903e-12,-1.13804e-13,0,0,0,0,0,0,0,0,0,0,0,0,0,0,0,0,0,0,0,0,0,-0.261799,4.58581e-07,-1.5,nan,0,0,3,0,0,0,0,0,0,0,0
1780,-3.2124e-12,4.85894e-38,-1.57181e-06,-3.27827e-12,4.85847e-38,0,-1.13805e-13,0,0,0,0,0,0,0,0,0,0,0,0,0,0,0,0,0,0,0,0,0,-0.261799,4.39572e-07,-1.5,nan,0,0,3,0,0,0,0,0,0,0,0
1790,-3.2124e-12,4.85894e-38,-1.57181e-06,-3.27827e-12,4.85847e-38,-3.40903e-12,-1.13805e-13,0,0,0,0,0,0,0,0,0,0,0,0,0,0,0,0,0,0,0,0,0,-0.261799,4.19604e-07,-1.5,nan,0,0,3,0,0,0,0,0,0,0,0
1800,-3.2124e-12,4.85894e-38,-1.57181e-06,-3.27827e-12,4.85847e-38,0,-1.13806e-13,0,0,0,0,0,0,0,0,0,0,0,0,0,0,0,0,0,0,0,0,0,-0.261799,4.03846e-07,-1.5,nan,0,0,3,0,0,0,0,0,0,0,0
1810,-3.2124e-12,4.85894e-38,-1.57181e-06,-3.27827e-12,4.85847e-38,-3.40903e-12,-1.13807e-13,0,0,0,0,0,0,0,0,0,0,0,0,0,0,0,0,0,0,0,0,0,-0.261799,3.87106e-07,-1.5,nan,0,0,3,0,0,0,0,0,0,0,0
1820,-3.2124e-12,4.85894e-38,-1.57181e-06,-3.27827e-12,4.85847e-38,0,-1.13807e-13,0,0,0,0,0,0,0,0,0,0,0,0,0,0,0,0,0,0,0,0,0,-0.261799,3.61935e-07,-1.5,nan,0,0,3,0,0,0,0,0,0,0,0
1830,-3.2124e-12,4.85894e-38,-1.57181e-06,-3.27827e-12,4.85847e-38,-3.40903e-12,-1.13808e-13,0,0,0,0,0,0,0,0,0,0,0,0,0,0,0,0,0,0,0,0,0,-0.261799,3.48343e-07,-1.5,nan,0,0,3,0,0,0,0,0,0,0,0
1840,-3.2124e-12,4.85894e-38,-1.57181e-06,-3.27827e-12,4.85847e-38,0,-1.13808e-13,0,0,0,0,0,0,0,0,0,0,0,0,0,0,0,0,0,0,0,0,0,-0.261799,3.37325e-07,-1.5,nan,0,0,3,0,0,0,0,0,0,0,0
1850,-3.2124e-12,4.85894e-38,-1.57181e-06,-3.27827e-12,4.85847e-38,-3.40903e-12,-1.13809e-13,0,0,0,0,0,0,0,0,0,0,0,0,0,0,0,0,0,0,0,0,0,-0.261799,3.23329e-07,-1.5,nan,0,0,3,0,0,0,0,0,0,0,0
1860,-3.2124e-12,4.85894e-38,-1.57181e-06,-3.27827e-12,4.85847e-38,0,-1.13809e-13,0,0,0,0,0,0,0,0,0,0,0,0,0,0,0,0,0,0,0,0,0,-0.261799,3.1055e-07,-1.5,nan,0,0,3,0,0,0,0,0,0,0,0
1870,-3.2124e-12,4.85894e-38,-1.57181e-06,-3.27827e-12,4.85847e-38,-3.40903e-12,-1.1381e-13,0,0,0,0,0,0,0,0,0,0,0,0,0,0,0,0,0,0,0,0,0,-0.261799,2.97665e-07,-1.5,nan,0,0,3,0,0,0,0,0,0,0,0
1880,-3.2124e-12,4.85894e-38,-1.57181e-06,-3.27827e-12,4.85847e-38,0,-1.1381e-13,0,0,0,0,0,0,0,0,0,0,0,0,0,0,0,0,0,0,0,0,0,-0.261799,2.85315e-07,-1.5,nan,0,0,3,0,0,0,0,0,0,0,0
1890,-3.2124e-12,4.85894e-38,-1.57181e-06,-3.27827e-12,4.85847e-38,-3.40903e-12,-1.13811e-13,0,0,0,0,0,0,0,0,0,0,0,0,0,0,0,0,0,0,0,0,0,-0.261799,2.73477e-07,-1.5,nan,0,0,3,0,0,0,0,0,0,0,0
1900,-3.2124e-12,4.85894e-38,-1.57181e-06,-3.27827e-12,4.85847e-38,0,-1.13811e-13,0,0,0,0,0,0,0,0,0,0,0,0,0,0,0,0,0,0,0,0,0,-0.261799,2.6053e-07,-1.5,nan,0,0,3,0,0,0,0,0,0,0,0
1910,-3.2124e-12,4.85894e-38,-1.57181e-06,-3.27827e-12,4.85847e-38,-3.40903e-12,-1.13812e-13,0,0,0,0,0,0,0,0,0,0,0,0,0,0,0,0,0,0,0,0,0,-0.261799,2.4972e-07,-1.5,nan,0,0,3,0,0,0,0,0,0,0,0
1920,-3.2124e-12,4.85894e-38,-1.57181e-06,-3.27827e-12,4.85847e-38,0,-1.13812e-13,0,0,0,0,0,0,0,0,0,0,0,0,0,0,0,0,0,0,0,0,0,-0.261799,2.3985e-07,-1.5,nan,0,0,3,0,0,0,0,0,0,0,0
1930,-3.2124e-12,4.85894e-38,-1.57181e-06,-3.27827e-12,4.85847e-38,-3.40903e-12,-1.13813e-13,0,0,0,0,0,0,0,0,0,0,0,0,0,0,0,0,0,0,0,0,0,-0.261799,2.28495e-07,-1.5,nan,0,0,3,0,0,0,0,0,0,0,0
1940,-3.2124e-12,4.85894e-38,-1.57181e-06,-3.27827e-12,4.85847e-38,0,-1.13814e-13,0,0,0,0,0,0,0,0,0,0,0,0,0,0,0,0,0,0,0,0,0,-0.261799,2.17665e-07,-1.5,nan,0,0,3,0,0,0,0,0,0,0,0
1950,-3.2124e-12,4.85894e-38,-1.57181e-06,-3.27827e-12,4.85847e-38,-3.40903e-12,-1.13814e-13,0,0,0,0,0,0,0,0,0,0,0,0,0,0,0,0,0,0,0,0,0,-0.261799,2.08643e-07,-1.5,nan,0,0,3,0,0,0,0,0,0,0,0
1960,-3.2124e-12,4.85894e-38,-1.57181e-06,-3.27827e-12,4.85847e-38,0,-1.13815e-13,0,0,0,0,0,0,0,0,0,0,0,0,0,0,0,0,0,0,0,0,0,-0.261799,1.99165e-07,-1.5,nan,0,0,3,0,0,0,0,0,0,0,0
1970,-3.2124e-12,4.85894e-38,-1.57181e-06,-3.27827e-12,4.85847e-38,-3.40903e-12,-1.13815e-13,0,0,0,0,0,0,0,0,0,0,0,0,0,0,0,0,0,0,0,0,0,-0.261799,1.90518e-07,-1.5,nan,0,0,3,0,0,0,0,0,0,0,0
1980,-3.2124e-12,4.85894e-38,-1.57181e-06,-3.27827e-12,4.85847e-38,0,-1.13816e-13,0,0,0,0,0,0,0,0,0,0,0,0,0,0,0,0,0,0,0,0,0,-0.261799,1.82988e-07,-1.5,nan,0,0,3,0,0,0,0,0,0,0,0
1990,-3.2124e-12,4.85894e-38,-1.57181e-06,-3.27827e-12,4.85847e-38,-3.40903e-12,-1.13816e-13,0,0,0,0,0,0,0,0,0,0,0,0,0,0,0,0,0,0,0,0,0,-0.261799,1.74676e-07,-1.5,nan,0,0,3,0,0,0,0,0,0,0,0
2000,-3.2124e-12,4.85894e-38,-1.57181e-06,-3.27827e-12,4.85847e-38,0,-1.13817e-13,0,0,0,0,0,0,0,0,0,0,0,0,0,0,0,0,0,0,0,0,0,-0.261799,1.67084e-07,-1.5,nan,0,0,3,0,0,0,0,0,0,0,0
2010,-3.2124e-12,4.85894e-38,-1.57181e-06,-3.27827e-12,4.85847e-38,-3.40903e-12,-1.13817e-13,0,0,0,0,0,0,0,0,0,0,0,0,0,0,0,0,0,0,0,0,0,-0.261799,1.60481e-07,-1.5,nan,0,0,3,0,0,0,0,0,0,0,0
2020,-3.2124e-12,4.85894e-38,-1.57181e-06,-3.27827e-12,4.85847e-38,0,-1.13818e-13,0,0,0,0,0,0,0,0,0,0,0,0,0,0,0,0,0,0,0,0,0,-0.261799,1.52875e-07,-1.5,nan,0,0,3,0,0,0,0,0,0,0,0
2030,-3.2124e-12,4.85894e-38,-1.57181e-06,-3.27827e-12,4.85847e-38,-3.40903e-12,-1.13818e-13,0,0,0,0,0,0,0,0,0,0,0,0,0,0,0,0,0,0,0,0,0,-0.261799,1.4593e-07,-1.5,nan,0,0,3,0,0,0,0,0,0,0,0
2040,-3.2124e-12,4.85894e-38,-1.57181e-06,-3.27827e-12,4.85847e-38,0,-1.13819e-13,0,0,0,0,0,0,0,0,0,0,0,0,0,0,0,0,0,0,0,0,0,-0.261799,1.41024e-07,-1.5,nan,0,0,3,0,0,0,0,0,0,0,0
2050,-3.2124e-12,4.85894e-38,-1.57181e-06,-3.27827e-12,4.85847e-38,-3.40903e-12,-1.1382e-13,0,0,0,0,0,0,0,0,0,0,0,0,0,0,0,0,0,0,0,0,0,-0.261799,1.36006e-07,-1.5,nan,0,0,3,0,0,0,0,0,0,0,0
2060,-3.2124e-12,4.85894e-38,-1.57181e-06,-3.27827e-12,4.85847e-38,0,-1.1382e-13,0,0,0,0,0,0,0,0,0,0,0,0,0,0,0,0,0,0,0,0,0,-0.261799,1.31971e-07,-1.5,nan,0,0,3,0,0,0,0,0,0,0,0
2070,-3.2124e-12,4.85894e-38,-1.57181e-06,-3.27827e-12,4.85847e-38,-3.40903e-12,-1.13821e-13,0,0,0,0,0,0,0,0,0,0,0,0,0,0,0,0,0,0,0,0,0,-0.261799,1.25982e-07,-1.5,nan,0,0,3,0,0,0,0,0,0,0,0
2080,-3.2124e-12,4.85894e-38,-1.57181e-06,-3.27827e-12,4.85847e-38,0,-1.13821e-13,0,0,0,0,0,0,0,0,0,0,0,0,0,0,0,0,0,0,0,0,0,-0.261799,1.2076e-07,-1.5,nan,0,0,3,0,0,0,0,0,0,0,0
2090,-3.2124e-12,4.85894e-38,-1.57181e-06,-3.27827e-12,4.85847e-38,-3.40903e-12,-1.13822e-13,0,0,0,0,0,0,0,0,0,0,0,0,0,0,0,0,0,0,0,0,0,-0.261799,1.15517e-07,-1.5,nan,0,0,3,0,0,0,0,0,0,0,0
2100,-3.2124e-12,4.85894e-38,-1.57181e-06,-3.27827e-12,4.85847e-38,0,-1.13822e-13,0,0,0,0,0,0,0,0,0,0,0,0,0,0,0,0,0,0,0,0,0,-0.261799,1.10275e-07,-1.5,nan,0,0,3,0,0,0,0,0,0,0,0
2110,-3.2124e-12,4.85894e-38,-1.57181e-06,-3.27827e-12,4.85847e-38,-3.40903e-12,-1.13823e-13,0,0,0,0,0,0,0,0,0,0,0,0,0,0,0,0,0,0,0,0,0,-0.261799,1.05704e-07,-1.5,nan,0,0,3,0,0,0,0,0,0,0,0
2120,-3.2124e-12,4.85894e-38,-1.57181e-06,-3.27827e-12,4.85847e-38,0,-1.13823e-13,0,0,0,0,0,0,0,0,0,0,0,0,0,0,0,0,0,0,0,0,0,-0.261799,1.01115e-07,-1.5,nan,0,0,3,0,0,0,0,0,0,0,0
2130,-3.2124e-12,4.85894e-38,-1.57181e-06,-3.27827e-12,4.85847e-38,-3.40903e-12,-1.13824e-13,0,0,0,0,0,0,0,0,0,0,0,0,0,0,0,0,0,0,0,0,0,-0.261799,9.65263e-08,-1.5,nan,0,0,3,0,0,0,0,0,0,0,0
2140,-3.2124e-12,4.85894e-38,-1.57181e-06,-3.27827e-12,4.85847e-38,0,-1.13824e-13,0,0,0,0,0,0,0,0,0,0,0,0,0,0,0,0,0,0,0,0,0,-0.261799,9.27113e-08,-1.5,nan,0,0,3,0,0,0,0,0,0,0,0
2150,-3.2124e-12,4.85894e-38,-1.57181e-06,-3.27827e-12,4.85847e-38,-3.40903e-12,-1.13825e-13,0,0,0,0,0,0,0,0,0,0,0,0,0,0,0,0,0,0,0,0,0,-0.261799,8.85041e-08,-1.5,nan,0,0,3,0,0,0,0,0,0,0,0
2160,-3.2124e-12,4.85894e-38,-1.57181e-06,-3.27827e-12,4.85847e-38,0,-1.13826e-13,0,0,0,0,0,0,0,0,0,0,0,0,0,0,0,0,0,0,0,0,0,-0.261799,8.46578e-08,-1.5,nan,0,0,3,0,0,0,0,0,0,0,0
2170,-3.2124e-12,4.85894e-38,-1.57181e-06,-3.27827e-12,4.85847e-38,-3.40903e-12,-1.13826e-13,0,0,0,0,0,0,0,0,0,0,0,0,0,0,0,0,0,0,0,0,0,-0.261799,8.11453e-08,-1.5,nan,0,0,3,0,0,0,0,0,0,0,0
2180,-3.2124e-12,4.85894e-38,-1.57181e-06,-3.27827e-12,4.85847e-38,0,-1.13827e-13,0,0,0,0,0,0,0,0,0,0,0,0,0,0,0,0,0,0,0,0,0,-0.261799,7.76188e-08,-1.5,nan,0,0,3,0,0,0,0,0,0,0,0
2190,-3.2124e-12,4.85894e-38,-1.57181e-06,-3.27827e-12,4.85847e-38,-3.40903e-12,-1.13827e-13,0,0,0,0,0,0,0,0,0,0,0,0,0,0,0,0,0,0,0,0,0,-0.261799,7.40928e-08,-1.5,nan,0,0,3,0,0,0,0,0,0,0,0
2200,-3.2124e-12,4.85894e-38,-1.57181e-06,-3.27827e-12,4.85847e-38,0,-1.13828e-13,0,0,0,0,0,0,0,0,0,0,0,0,0,0,0,0,0,0,0,0,0,-0.261799,7.10187e-08,-1.5,nan,0,0,3,0,0,0,0,0,0,0,0
2210,-3.2124e-12,4.85894e-38,-1.57181e-06,-3.27827e-12,4.85847e-38,-3.40903e-12,-1.13828e-13,0,0,0,0,0,0,0,0,0,0,0,0,0,0,0,0,0,0,0,0,0,-0.261799,6.79353e-08,-1.5,nan,0,0,3,0,0,0,0,0,0,0,0
2220,-3.2124e-12,4.85894e-38,-1.57181e-06,-3.27827e-12,4.85847e-38,0,-1.13829e-13,0,0,0,0,0,0,0,0,0,0,0,0,0,0,0,0,0,0,0,0,0,-0.261799,6.48525e-08,-1.5,nan,0,0,3,0,0,0,0,0,0,0,0
2230,-3.2124e-12,4.85894e-38,-1.57181e-06,-3.27827e-12,4.85847e-38,-3.40903e-12,-1.13829e-13,0,0,0,0,0,0,0,0,0,0,0,0,0,0,0,0,0,0,0,0,0,-0.261799,6.21617e-08,-1.5,nan,0,0,3,0,0,0,0,0,0,0,0
2240,-3.2124e-12,4.85894e-38,-1.57181e-06,-3.27827e-12,4.85847e-38,0,-1.1383e-13,0,0,0,0,0,0,0,0,0,0,0,0,0,0,0,0,0,0,0,0,0,-0.261799,5.77474e-08,-1.5,nan,0,0,3,0,0,0,0,0,0,0,0
2250,-3.2124e-12,4.85894e-38,-1.57181e-06,-3.27827e-12,4.85847e-38,-3.40903e-12,-1.1383e-13,0,0,0,0,0,0,0,0,0,0,0,0,0,0,0,0,0,0,0,0,0,-0.261799,5.51241e-08,-1.5,nan,0,0,3,0,0,0,0,0,0,0,0
2260,-3.2124e-12,4.85894e-38,-1.57181e-06,-3.27827e-12,4.85847e-38,0,-1.13831e-13,0,0,0,0,0,0,0,0,0,0,0,0,0,0,0,0,0,0,0,0,0,-0.261799,5.25114e-08,-1.5,nan,0,0,3,0,0,0,0,0,0,0,0
2270,-3.2124e-12,4.85894e-38,-1.57181e-06,-3.27827e-12,4.85847e-38,-3.40903e-12,-1.13831e-13,0,0,0,0,0,0,0,0,0,0,0,0,0,0,0,0,0,0,0,0,0,-0.261799,5.07461e-08,-1.5,nan,0,0,3,0,0,0,0,0,0,0,0
2280,-3.2124e-12,4.85894e-38,-1.57181e-06,-3.27827e-12,4.85847e-38,0,-1.13832e-13,0,0,0,0,0,0,0,0,0,0,0,0,0,0,0,0,0,0,0,0,0,-0.261799,4.92399e-08,-1.5,nan,0,0,3,0,0,0,0,0,0,0,0
2290,-3.2124e-12,4.85894e-38,-1.57181e-06,-3.27827e-12,4.85847e-38,-3.40903e-12,-1.13833e-13,0,0,0,0,0,0,0,0,0,0,0,0,0,0,0,0,0,0,0,0,0,-0.261799,4.77784e-08,-1.5,nan,0,0,3,0,0,0,0,0,0,0,0
2300,-3.2124e-12,4.85894e-38,-1.57181e-06,-3.27827e-12,4.85847e-38,0,-1.13833e-13,0,0,0,0,0,0,0,0,0,0,0,0,0,0,0,0,0,0,0,0,0,-0.261799,4.56079e-08,-1.5,nan,0,0,3,0,0,0,0,0,0,0,0
2310,-3.2124e-12,4.85894e-38,-1.57181e-06,-3.27827e-12,4.85847e-38,-3.40903e-12,-1.13834e-13,0,0,0,0,0,0,0,0,0,0,0,0,0,0,0,0,0,0,0,0,0,-0.261799,4.37156e-08,-1.5,nan,0,0,3,0,0,0,0,0,0,0,0
2320,-3.2124e-12,4.85894e-38,-1.57181e-06,-3.27827e-12,4.85847e-38,0,-1.13834e-13,0,0,0,0,0,0,0,0,0,0,0,0,0,0,0,0,0,0,0,0,0,-0.261799,4.19894e-08,-1.5,nan,0,0,3,0,0,0,0,0,0,0,0
2330,-3.2124e-12,4.85894e-38,-1.57181e-06,-3.27827e-12,4.85847e-38,-3.40903e-12,-1.13835e-13,0,0,0,0,0,0,0,0,0,0,0,0,0,0,0,0,0,0,0,0,0,-0.261799,4.01646e-08,-1.5,nan,0,0,3,0,0,0,0,0,0,0,0
2340,-3.2124e-12,4.85894e-38,-1.57181e-06,-3.27827e-12,4.85847e-38,0,-1.13835e-13,0,0,0,0,0,0,0,0,0,0,0,0,0,0,0,0,0,0,0,0,0,-0.261799,3.84209e-08,-1.5,nan,0,0,3,0,0,0,0,0,0,0,0
2350,-3.2124e-12,4.85894e-38,-1.57181e-06,-3.27827e-12,4.85847e-38,-3.40903e-12,-1.13836e-13,0,0,0,0,0,0,0,0,0,0,0,0,0,0,0,0,0,0,0,0,0,-0.261799,3.62245e-08,-1.5,nan,0,0,3,0,0,0,0,0,0,0,0
2360,-3.2124e-12,4.85894e-38,-1.57181e-06,-3.27827e-12,4.85847e-38,0,-1.13836e-13,0,0,0,0,0,0,0,0,0,0,0,0,0,0,0,0,0,0,0,0,0,-0.261799,3.46502e-08,-1.5,nan,0,0,3,0,0,0,0,0,0,0,0
2370,-3.2124e-12,4.85894e-38,-1.57181e-06,-3.27827e-12,4.85847e-38,-3.40903e-12,-1.13837e-13,0,0,0,0,0,0,0,0,0,0,0,0,0,0,0,0,0,0,0,0,0,-0.261799,3.3008e-08,-1.5,nan,0,0,3,0,0,0,0,0,0,0,0
2380,-3.2124e-12,4.85894e-38,-1.57181e-06,-3.27827e-12,4.85847e-38,0,-1.13837e-13,0,0,0,0,0,0,0,0,0,0,0,0,0,0,0,0,0,0,0,0,0,-0.261799,3.17684e-08,-1.5,nan,0,0,3,0,0,0,0,0,0,0,0
2390,-3.2124e-12,4.85894e-38,-1.57181e-06,-3.27827e-12,4.85847e-38,-3.40903e-12,-1.13838e-13,0,0,0,0,0,0,0,0,0,0,0,0,0,0,0,0,0,0,0,0,0,-0.261799,3.03267e-08,-1.5,nan,0,0,3,0,0,0,0,0,0,0,0
2400,-3.2124e-12,4.85894e-38,-1.57181e-06,-3.27827e-12,4.85847e-38,0,-1.13839e-13,0,0,0,0,0,0,0,0,0,0,0,0,0,0,0,0,0,0,0,0,0,-0.261799,2.8891e-08,-1.5,nan,0,0,3,0,0,0,0,0,0,0,0
2410,-3.2124e-12,4.85894e-38,-1.57181e-06,-3.27827e-12,4.85847e-38,-3.40903e-12,-1.13839e-13,0,0,0,0,0,0,0,0,0,0,0,0,0,0,0,0,0,0,0,0,0,-0.261799,2.78069e-08,-1.5,nan,0,0,3,0,0,0,0,0,0,0,0
2420,-3.2124e-12,4.85894e-38,-1.57181e-06,-3.27827e-12,4.85847e-38,0,-1.1384e-13,0,0,0,0,0,0,0,0,0,0,0,0,0,0,0,0,0,0,0,0,0,-0.261799,2.65984e-08,-1.5,nan,0,0,3,0,0,0,0,0,0,0,0
2430,-3.2124e-12,4.85894e-38,-1.57181e-06,-3.27827e-12,4.85847e-38,-3.40903e-12,-1.1384e-13,0,0,0,0,0,0,0,0,0,0,0,0,0,0,0,0,0,0,0,0,0,-0.261799,2.54436e-08,-1.5,nan,0,0,3,0,0,0,0,0,0,0,0
2440,-3.2124e-12,4.85894e-38,-1.57181e-06,-3.27827e-12,4.85847e-38,0,-1.13841e-13,0,0,0,0,0,0,0,0,0,0,0,0,0,0,0,0,0,0,0,0,0,-0.261799,2.44889e-08,-1.5,nan,0,0,3,0,0,0,0,0,0,0,0
2450,-3.2124e-12,4.85894e-38,-1.57181e-06,-3.27827e-12,4.85847e-38,-3.40903e-12,-1.13841e-13,0,0,0,0,0,0,0,0,0,0,0,0,0,0,0,0,0,0,0,0,0,-0.261799,2.34247e-08,-1.5,nan,0,0,3,0,0,0,0,0,0,0,0
2460,-3.2124e-12,4.85894e-38,-1.57181e-06,-3.27827e-12,4.85847e-38,0,-1.13842e-13,0,0,0,0,0,0,0,0,0,0,0,0,0,0,0,0,0,0,0,0,0,-0.261799,2.24077e-08,-1.5,nan,0,0,3,0,0,0,0,0,0,0,0
2470,-3.2124e-12,4.85894e-38,-1.57181e-06,-3.27827e-12,4.85847e-38,-3.40903e-12,-1.13842e-13,0,0,0,0,0,0,0,0,0,0,0,0,0,0,0,0,0,0,0,0,0,-0.261799,2.13028e-08,-1.5,nan,0,0,3,0,0,0,0,0,0,0,0
2480,-3.2124e-12,4.85894e-38,-1.57181e-06,-3.27827e-12,4.85847e-38,0,-1.13843e-13,0,0,0,0,0,0,0,0,0,0,0,0,0,0,0,0,0,0,0,0,0,-0.261799,2.03351e-08,-1.5,nan,0,0,3,0,0,0,0,0,0,0,0
2490,-3.2124e-12,4.85894e-38,-1.57181e-06,-3.27827e-12,4.85847e-38,-3.40903e-12,-1.13843e-13,0,0,0,0,0,0,0,0,0,0,0,0,0,0,0,0,0,0,0,0,0,-0.261799,1.96915e-08,-1.5,nan,0,0,3,0,0,0,0,0,0,0,0
2500,-3.2124e-12,4.85894e-38,-1.57181e-06,-3.27827e-12,4.85847e-38,0,-1.13844e-13,0,0,0,0,0,0,0,0,0,0,0,0,0,0,0,0,0,0,0,0,0,-0.261799,1.88357e-08,-1.5,nan,0,0,3,0,0,0,0,0,0,0,0
2510,-3.2124e-12,4.85894e-38,-1.57181e-06,-3.27827e-12,4.85847e-38,-3.40903e-12,-1.13844e-13,0,0,0,0,0,0,0,0,0,0,0,0,0,0,0,0,0,0,0,0,0,-0.261799,1.81654e-08,-1.5,nan,0,0,3,0,0,0,0,0,0,0,0
2520,-3.2124e-12,4.85894e-38,-1.57181e-06,-3.27827e-12,4.85847e-38,0,-1.13845e-13,0,0,0,0,0,0,0,0,0,0,0,0,0,0,0,0,0,0,0,0,0,-0.261799,1.74475e-08,-1.5,nan,0,0,3,0,0,0,0,0,0,0,0
2530,-3.2124e-12,4.85894e-38,-1.57181e-06,-3.27827e-12,4.85847e-38,-3.40903e-12,-1.13846e-13,0,0,0,0,0,0,0,0,0,0,0,0,0,0,0,0,0,0,0,0,0,-0.261799,1.66205e-08,-1.5,nan,0,0,3,0,0,0,0,0,0,0,0
2540,-3.2124e-12,4.85894e-38,-1.57181e-06,-3.27827e-12,4.85847e-38,0,-1.13846e-13,0,0,0,0,0,0,0,0,0,0,0,0,0,0,0,0,0,0,0,0,0,-0.261799,1.59642e-08,-1.5,nan,0,0,3,0,0,0,0,0,0,0,0
2550,-3.2124e-12,4.85894e-38,-1.57181e-06,-3.27827e-12,4.85847e-38,-3.40903e-12,-1.13847e-13,0,0,0,0,0,0,0,0,0,0,0,0,0,0,0,0,0,0,0,0,0,-0.261799,1.53339e-08,-1.5,nan,0,0,3,0,0,0,0,0,0,0,0
2560,-3.2124e-12,4.85894e-38,-1.57181e-06,-3.27827e-12,4.85847e-38,0,-1.13847e-13,0,0,0,0,0,0,0,0,0,0,0,0,0,0,0,0,0,0,0,0,0,-0.261799,1.46373e-08,-1.5,nan,0,0,3,0,0,0,0,0,0,0,0
2570,-3.2124e-12,4.85894e-38,-1.57181e-06,-3.27827e-12,4.85847e-38,-3.40903e-12,-1.13848e-13,0,0,0,0,0,0,0,0,0,0,0,0,0,0,0,0,0,0,0,0,0,-0.261799,1.40593e-08,-1.5,nan,0,0,3,0,0,0,0,0,0,0,0
2580,-3.2124e-12,4.85894e-38,-1.57181e-06,-3.27827e-12,4.85847e-38,0,-1.13848e-13,0,0,0,0,0,0,0,0,0,0,0,0,0,0,0,0,0,0,0,0,0,-0.261799,1.34483e-08,-1.5,nan,0,0,3,0,0,0,0,0,0,0,0
2590,-3.2124e-12,4.85894e-38,-1.57181e-06,-3.27827e-12,4.85847e-38,-3.40903e-12,-1.13849e-13,0,0,0,0,0,0,0,0,0,0,0,0,0,0,0,0,0,0,0,0,0,-0.261799,1.28109e-08,-1.5,nan,0,0,3,0,0,0,0,0,0,0,0
2600,-3.2124e-12,4.85894e-38,-1.57181e-06,-3.27827e-12,4.85847e-38,0,-1.13849e-13,0,0,0,0,0,0,0,0,0,0,0,0,0,0,0,0,0,0,0,0,0,-0.261799,1.23051e-08,-1.5,nan,0,0,3,0,0,0,0,0,0,0,0
2610,-3.2124e-12,4.85894e-38,-1.57181e-06,-3.27827e-12,4.85847e-38,-3.40903e-12,-1.1385e-13,0,0,0,0,0,0,0,0,0,0,0,0,0,0,0,0,0,0,0,0,0,-0.261799,1.17703e-08,-1.5,nan,0,0,3,0,0,0,0,0,0,0,0
2620,-3.2124e-12,4.85894e-38,-1.57181e-06,-3.27827e-12,4.85847e-38,0,-1.1385e-13,0,0,0,0,0,0,0,0,0,0,0,0,0,0,0,0,0,0,0,0,0,-0.261799,1.12124e-08,-1.5,nan,0,0,3,0,0,0,0,0,0,0,0
2630,-3.2124e-12,4.85894e-38,-1.57181e-06,-3.27827e-12,4.85847e-38,-3.40903e-12,-1.13851e-13,0,0,0,0,0,0,0,0,0,0,0,0,0,0,0,0,0,0,0,0,0,-0.261799,1.07914e-08,-1.5,nan,0,0,3,0,0,0,0,0,0,0,0
2640,-3.2124e-12,4.85894e-38,-1.57181e-06,-3.27827e-12,4.85847e-38,0,-1.13852e-13,0,0,0,0,0,0,0,0,0,0,0,0,0,0,0,0,0,0,0,0,0,-0.261799,1.03016e-08,-1.5,nan,0,0,3,0,0,0,0,0,0,0,0
2650,-3.2124e-12,4.85894e-38,-1.57181e-06,-3.27827e-12,4.85847e-38,-3.40903e-12,-1.13852e-13,0,0,0,0,0,0,0,0,0,0,0,0,0,0,0,0,0,0,0,0,0,-0.261799,9.81393e-09,-1.5,nan,0,0,3,0,0,0,0,0,0,0,0
2660,-3.2124e-12,4.85894e-38,-1.57181e-06,-3.27827e-12,4.85847e-38,0,-1.13853e-13,0,0,0,0,0,0,0,0,0,0,0,0,0,0,0,0,0,0,0,0,0,-0.261799,9.44568e-09,-1.5,nan,0,0,3,0,0,0,0,0,0,0,0
2670,-3.2124e-12,4.85894e-38,-1.57181e-06,-3.27827e-12,4.85847e-38,-3.40903e-12,-1.13853e-13,0,0,0,0,0,0,0,0,0,0,0,0,0,0,0,0,0,0,0,0,0,-0.261799,9.03518e-09,-1.5,nan,0,0,3,0,0,0,0,0,0,0,0
2680,-3.2124e-12,4.85894e-38,-1.57181e-06,-3.27827e-12,4.85847e-38,0,-1.13854e-13,0,0,0,0,0,0,0,0,0,0,0,0,0,0,0,0,0,0,0,0,0,-0.261799,8.60696e-09,-1.5,nan,0,0,3,0,0,0,0,0,0,0,0
2690,-3.2124e-12,4.85894e-38,-1.57181e-06,-3.27827e-12,4.85847e-38,-3.40903e-12,-1.13854e-13,0,0,0,0,0,0,0,0,0,0,0,0,0,0,0,0,0,0,0,0,0,-0.261799,8.28373e-09,-1.5,nan,0,0,3,0,0,0,0,0,0,0,0
2700,-3.2124e-12,4.85894e-38,-1.57181e-06,-3.27827e-12,4.85847e-38,0,-1.13855e-13,0,0,0,0,0,0,0,0,0,0,0,0,0,0,0,0,0,0,0,0,0,-0.261799,7.90782e-09,-1.5,nan,0,0,3,0,0,0,0,0,0,0,0
2710,-3.2124e-12,4.85894e-38,-1.57181e-06,-3.27827e-12,4.85847e-38,-3.40903e-12,-1.13855e-13,0,0,0,0,0,0,0,0,0,0,0,0,0,0,0,0,0,0,0,0,0,-0.261799,7.56449e-09,-1.5,nan,0,0,3,0,0,0,0,0,0,0,0
2720,-3.2124e-12,4.85894e-38,-1.57181e-06,-3.27827e-12,4.85847e-38,0,-1.13856e-13,0,0,0,0,0,0,0,0,0,0,0,0,0,0,0,0,0,0,0,0,0,-0.261799,7.32508e-09,-1.5,nan,0,0,3,0,0,0,0,0,0,0,0
2730,-3.2124e-12,4.85894e-38,-1.57181e-06,-3.27827e-12,4.85847e-38,-3.40903e-12,-1.13856e-13,0,0,0,0,0,0,0,0,0,0,0,0,0,0,0,0,0,0,0,0,0,-0.261799,7.06441e-09,-1.5,nan,0,0,3,0,0,0,0,0,0,0,0
2740,-3.2124e-12,4.85894e-38,-1.57181e-06,-3.27827e-12,4.85847e-38,0,-1.13857e-13,0,0,0,0,0,0,0,0,0,0,0,0,0,0,0,0,0,0,0,0,0,-0.261799,6.85472e-09,-1.5,nan,0,0,3,0,0,0,0,0,0,0,0
2750,-3.2124e-12,4.85894e-38,-1.57181e-06,-3.27827e-12,4.85847e-38,-3.40903e-12,-1.13857e-13,0,0,0,0,0,0,0,0,0,0,0,0,0,0,0,0,0,0,0,0,0,-0.261799,6.54366e-09,-1.5,nan,0,0,3,0,0,0,0,0,0,0,0
2760,-3.2124e-12,4.85894e-38,-1.57181e-06,-3.27827e-12,4.85847e-38,0,-1.13858e-13,0,0,0,0,0,0,0,0,0,0,0,0,0,0,0,0,0,0,0,0,0,-0.261799,6.23352e-09,-1.5,nan,0,0,3,0,0,0,0,0,0,0,0
2770,-3.2124e-12,4.85894e-38,-1.57181e-06,-3.27827e-12,4.85847e-38,-3.40903e-12,-1.13859e-13,0,0,0,0,0,0,0,0,0,0,0,0,0,0,0,0,0,0,0,0,0,-0.261799,5.95035e-09,-1.5,nan,0,0,3,0,0,0,0,0,0,0,0
2780,-3.2124e-12,4.85894e-38,-1.57181e-06,-3.27827e-12,4.85847e-38,0,-1.13859e-13,0,0,0,0,0,0,0,0,0,0,0,0,0,0,0,0,0,0,0,0,0,-0.261799,4.8388e-09,-1.5,nan,0,0,3,0,0,0,0,0,0,0,0
2790,-3.2124e-12,4.85894e-38,-1.57181e-06,-3.27827e-12,4.85847e-38,-3.40903e-12,-1.1386e-13,0,0,0,0,0,0,0,0,0,0,0,0,0,0,0,0,0,0,0,0,0,-0.261799,4.66673e-09,-1.5,nan,0,0,3,0,0,0,0,0,0,0,0
2800,-3.2124e-12,4.85894e-38,-1.57181e-06,-3.27827e-12,4.85847e-38,0,-1.1386e-13,0,0,0,0,0,0,0,0,0,0,0,0,0,0,0,0,0,0,0,0,0,-0.261799,4.50079e-09,-1.5,nan,0,0,3,0,0,0,0,0,0,0,0
2810,-3.2124e-12,4.85894e-38,-1.57181e-06,-3.27827e-12,4.85847e-38,-3.40903e-12,-1.13861e-13,0,0,0,0,0,0,0,0,0,0,0,0,0,0,0,0,0,0,0,0,0,-0.261799,4.34949e-09,-1.5,nan,0,0,3,0,0,0,0,0,0,0,0
2820,-3.2124e-12,4.85894e-38,-1.57181e-06,-3.27827e-12,4.85847e-38,0,-1.13861e-13,0,0,0,0,0,0,0,0,0,0,0,0,0,0,0,0,0,0,0,0,0,-0.261799,4.19482e-09,-1.5,nan,0,0,3,0,0,0,0,0,0,0,0
2830,-3.2124e-12,4.85894e-38,-1.57181e-06,-3.27827e-12,4.85847e-38,-3.40903e-12,-1.13862e-13,0,0,0,0,0,0,0,0,0,0,0,0,0,0,0,0,0,0,0,0,0,-0.261799,4.04566e-09,-1.5,nan,0,0,3,0,0,0,0,0,0,0,0
2840,-3.2124e-12,4.85894e-38,-1.57181e-06,-3.27827e-12,4.85847e-38,0,-1.13862e-13,0,0,0,0,0,0,0,0,0,0,0,0,0,0,0,0,0,0,0,0,0,-0.261799,3.90966e-09,-1.5,nan,0,0,3,0,0,0,0,0,0,0,0
2850,-3.2124e-12,4.85894e-38,-1.57181e-06,-3.27827e-12,4.85847e-38,-3.40903e-12,-1.13863e-13,0,0,0,0,0,0,0,0,0,0,0,0,0,0,0,0,0,0,0,0,0,-0.261799,3.77053e-09,-1.5,nan,0,0,3,0,0,0,0,0,0,0,0
2860,-3.2124e-12,4.85894e-38,-1.57181e-06,-3.27827e-12,4.85847e-38,0,-1.13863e-13,0,0,0,0,0,0,0,0,0,0,0,0,0,0,0,0,0,0,0,0,0,-0.261799,3.63645e-09,-1.5,nan,0,0,3,0,0,0,0,0,0,0,0
2870,-3.2124e-12,4.85894e-38,-1.57181e-06,-3.27827e-12,4.85847e-38,-3.40903e-12,-1.13864e-13,0,0,0,0,0,0,0,0,0,0,0,0,0,0,0,0,0,0,0,0,0,-0.261799,3.5142e-09,-1.5,nan,0,0,3,0,0,0,0,0,0,0,0
2880,-3.2124e-12,4.85894e-38,-1.57181e-06,-3.27827e-12,4.85847e-38,0,-1.13865e-13,0,0,0,0,0,0,0,0,0,0,0,0,0,0,0,0,0,0,0,0,0,-0.261799,3.38924e-09,-1.5,nan,0,0,3,0,0,0,0,0,0,0,0
2890,-3.2124e-12,4.85894e-38,-1.57181e-06,-3.27827e-12,4.85847e-38,-3.40903e-12,-1.13865e-13,0,0,0,0,0,0,0,0,0,0,0,0,0,0,0,0,0,0,0,0,0,-0.261799,3.26873e-09,-1.5,nan,0,0,3,0,0,0,0,0,0,0,0
2900,-3.2124e-12,4.85894e-38,-1.57181e-06,-3.27827e-12,4.85847e-38,0,-1.13866e-13,0,0,0,0,0,0,0,0,0,0,0,0,0,0,0,0,0,0,0,0,0,-0.261799,3.15884e-09,-1.5,nan,0,0,3,0,0,0,0,0,0,0,0
2910,-3.2124e-12,4.85894e-38,-1.57181e-06,-3.27827e-12,4.85847e-38,-3.40903e-12,-1.13866e-13,0,0,0,0,0,0,0,0,0,0,0,0,0,0,0,0,0,0,0,0,0,-0.261799,3.04652e-09,-1.5,nan,0,0,3,0,0,0,0,0,0,0,0
2920,-3.2124e-12,4.85894e-38,-1.57181e-06,-3.27827e-12,4.85847e-38,0,-1.13867e-13,0,0,0,0,0,0,0,0,0,0,0,0,0,0,0,0,0,0,0,0,0,-0.261799,2.9441e-09,-1.5,nan,0,0,3,0,0,0,0,0,0,0,0
2930,-3.2124e-12,4.85894e-38,-1.57181e-06,-3.27827e-12,4.85847e-38,-3.40903e-12,-1.13867e-13,0,0,0,0,0,0,0,0,0,0,0,0,0,0,0,0,0,0,0,0,0,-0.261799,2.83941e-09,-1.5,nan,0,0,3,0,0,0,0,0,0,0,0
2940,-3.2124e-12,4.85894e-38,-1.57181e-06,-3.27827e-12,4.85847e-38,0,-1.13868e-13,0,0,0,0,0,0,0,0,0,0,0,0,0,0,0,0,0,0,0,0,0,-0.261799,2.75518e-09,-1.5,nan,0,0,3,0,0,0,0,0,0,0,0
2950,-3.2124e-12,4.85894e-38,-1.57181e-06,-3.27827e-12,4.85847e-38,-3.40903e-12,-1.13868e-13,0,0,0,0,0,0,0,0,0,0,0,0,0,0,0,0,0,0,0,0,0,-0.261799,2.67885e-09,-1.5,nan,0,0,3,0,0,0,0,0,0,0,0
2960,-3.2124e-12,4.85894e-38,-1.57181e-06,-3.27827e-12,4.85847e-38,0,-1.13869e-13,0,0,0,0,0,0,0,0,0,0,0,0,0,0,0,0,0,0,0,0,0,-0.261799,2.60461e-09,-1.5,nan,0,0,3,0,0,0,0,0,0,0,0
2970,-3.2124e-12,4.85894e-38,-1.57181e-06,-3.27827e-12,4.85847e-38,-3.40903e-12,-1.13869e-13,0,0,0,0,0,0,0,0,0,0,0,0,0,0,0,0,0,0,0,0,0,-0.261799,2.51193e-09,-1.5,nan,0,0,3,0,0,0,0,0,0,0,0
2980,-3.2124e-12,4.85894e-38,-1.57181e-06,-3.27827e-12,4.85847e-38,0,-1.1387e-13,0,0,0,0,0,0,0,0,0,0,0,0,0,0,0,0,0,0,0,0,0,-0.261799,2.42748e-09,-1.5,nan,0,0,3,0,0,0,0,0,0,0,0
2990,-3.2124e-12,4.85894e-38,-1.57181e-06,-3.27827e-12,4.85847e-38,-3.40903e-12,-1.13871e-13,0,0,0,0,0,0,0,0,0,0,0,0,0,0,0,0,0,0,0,0,0,-0.261799,2.33639e-09,-1.5,nan,0,0,3,0,0,0,0,0,0,0,0
3000,-3.2124e-12,4.85894e-38,-1.57181e-06,-3.27827e-12,4.85847e-38,0,-1.13871e-13,0,0,0,0,0,0,0,0,0,0,0,0,0,0,0,0,0,0,0,0,0,-0.261799,2.25785e-09,-1.5,nan,0,0,3,0,0,0,0,0,0,0,0
3010,-3.2124e-12,4.85894e-38,-1.57181e-06,-3.27827e-12,4.85847e-38,-3.40903e-12,-1.13872e-13,0,0,0,0,0,0,0,0,0,0,0,0,0,0,0,0,0,0,0,0,0,-0.261799,2.17756e-09,-1.5,nan,0,0,3,0,0,0,0,0,0,0,0
3020,-3.2124e-12,4.85894e-38,-1.57181e-06,-3.27827e-12,4.85847e-38,0,-1.13872e-13,0,0,0,0,0,0,0,0,0,0,0,0,0,0,0,0,0,0,0,0,0,-0.261799,2.10436e-09,-1.5,nan,0,0,3,0,0,0,0,0,0,0,0
3030,-3.2124e-12,4.85894e-38,-1.57181e-06,-3.27827e-12,4.85847e-38,-3.40903e-12,-1.13873e-13,0,0,0,0,0,0,0,0,0,0,0,0,0,0,0,0,0,0,0,0,0,-0.261799,2.02953e-09,-1.5,nan,0,0,3,0,0,0,0,0,0,0,0
3040,-3.2124e-12,4.85894e-38,-1.57181e-06,-3.27827e-12,4.85847e-38,0,-1.13873e-13,0,0,0,0,0,0,0,0,0,0,0,0,0,0,0,0,0,0,0,0,0,-0.261799,1.95731e-09,-1.5,nan,0,0,3,0,0,0,0,0,0,0,0
3050,-3.2124e-12,4.85894e-38,-1.57181e-06,-3.27827e-12,4.85847e-38,-3.40903e-12,-1.13874e-13,0,0,0,0,0,0,0,0,0,0,0,0,0,0,0,0,0,0,0,0,0,-0.261799,1.89151e-09,-1.5,nan,0,0,3,0,0,0,0,0,0,0,0
3060,-3.2124e-12,4.85894e-38,-1.57181e-06,-3.27827e-12,4.85847e-38,0,-1.13874e-13,0,0,0,0,0,0,0,0,0,0,0,0,0,0,0,0,0,0,0,0,0,-0.261799,1.82053e-09,-1.5,nan,0,0,3,0,0,0,0,0,0,0,0
3070,-3.2124e-12,4.85894e-38,-1.57181e-06,-3.27827e-12,4.85847e-38,-3.40903e-12,-1.13875e-13,0,0,0,0,0,0,0,0,0,0,0,0,0,0,0,0,0,0,0,0,0,-0.261799,1.75933e-09,-1.5,nan,0,0,3,0,0,0,0,0,0,0,0
3080,-3.2124e-12,4.85894e-38,-1.57181e-06,-3.27827e-12,4.85847e-38,0,-1.13875e-13,0,0,0,0,0,0,0,0,0,0,0,0,0,0,0,0,0,0,0,0,0,-0.261799,1.69672e-09,-1.5,nan,0,0,3,0,0,0,0,0,0,0,0
3090,-3.2124e-12,4.85894e-38,-1.57181e-06,-3.27827e-12,4.85847e-38,-3.40903e-12,-1.13876e-13,0,0,0,0,0,0,0,0,0,0,0,0,0,0,0,0,0,0,0,0,0,-0.261799,1.63639e-09,-1.5,nan,0,0,3,0,0,0,0,0,0,0,0
3100,-3.2124e-12,4.85894e-38,-1.57181e-06,-3.27827e-12,4.85847e-38,0,-1.13876e-13,0,0,0,0,0,0,0,0,0,0,0,0,0,0,0,0,0,0,0,0,0,-0.261799,1.5782e-09,-1.5,nan,0,0,3,0,0,0,0,0,0,0,0
3110,-3.2124e-12,4.85894e-38,-1.57181e-06,-3.27827e-12,4.85847e-38,-3.40903e-12,-1.13877e-13,0,0,0,0,0,0,0,0,0,0,0,0,0,0,0,0,0,0,0,0,0,-0.261799,1.52514e-09,-1.5,nan,0,0,3,0,0,0,0,0,0,0,0
3120,-3.2124e-12,4.85894e-38,-1.57181e-06,-3.27827e-12,4.85847e-38,0,-1.13878e-13,0,0,0,0,0,0,0,0,0,0,0,0,0,0,0,0,0,0,0,0,0,-0.261799,1.47087e-09,-1.5,nan,0,0,3,0,0,0,0,0,0,0,0
3130,-3.2124e-12,4.85894e-38,-1.57181e-06,-3.27827e-12,4.85847e-38,-3.40903e-12,-1.13878e-13,0,0,0,0,0,0,0,0,0,0,0,0,0,0,0,0,0,0,0,0,0,-0.261799,1.41857e-09,-1.5,nan,0,0,3,0,0,0,0,0,0,0,0
3140,-3.2124e-12,4.85894e-38,-1.57181e-06,-3.27827e-12,4.85847e-38,0,-1.1378e-13,0,0,0,0,0,0,0,0,0,0,0,0,0,0,0,0,0,0,0,0,0,-0.261799,1.36813e-09,-1.5,nan,0,0,3,0,0,0,0,0,0,0,0
3150,-3.2124e-12,4.85894e-38,-1.57181e-06,-3.27827e-12,4.85847e-38,-3.40903e-12,-1.1378e-13,0,0,0,0,0,0,0,0,0,0,0,0,0,0,0,0,0,0,0,0,0,-0.261799,1.32213e-09,-1.5,nan,0,0,3,0,0,0,0,0,0,0,0
3160,-3.2124e-12,4.85894e-38,-1.57181e-06,-3.27827e-12,4.85847e-38,0,-1.13781e-13,0,0,0,0,0,0,0,0,0,0,0,0,0,0,0,0,0,0,0,0,0,-0.261799,1.23605e-09,-1.5,nan,0,0,3,0,0,0,0,0,0,0,0
3170,-3.2124e-12,4.85894e-38,-1.57181e-06,-3.27827e-12,4.85847e-38,-3.40903e-12,-1.13781e-13,0,0,0,0,0,0,0,0,0,0,0,0,0,0,0,0,0,0,0,0,0,-0.261799,1.19938e-09,-1.5,nan,0,0,3,0,0,0,0,0,0,0,0
3180,-3.2124e-12,4.85894e-38,-1.57181e-06,-3.27827e-12,4.85847e-38,0,-1.13782e-13,0,0,0,0,0,0,0,0,0,0,0,0,0,0,0,0,0,0,0,0,0,-0.261799,1.16616e-09,-1.5,nan,0,0,3,0,0,0,0,0,0,0,0
3190,-3.2124e-12,4.85894e-38,-1.57181e-06,-3.27827e-12,4.85847e-38,-3.40903e-12,-1.13782e-13,0,0,0,0,0,0,0,0,0,0,0,0,0,0,0,0,0,0,0,0,0,-0.261799,1.13156e-09,-1.5,nan,0,0,3,0,0,0,0,0,0,0,0
3200,-3.2124e-12,4.85894e-38,-1.57181e-06,-3.27827e-12,4.85847e-38,0,-1.13783e-13,0,0,0,0,0,0,0,0,0,0,0,0,0,0,0,0,0,0,0,0,0,-0.261799,1.08016e-09,-1.5,nan,0,0,3,0,0,0,0,0,0,0,0
3210,-3.2124e-12,4.85894e-38,-1.57181e-06,-3.27827e-12,4.85847e-38,-3.40903e-12,-1.13783e-13,0,0,0,0,0,0,0,0,0,0,0,0,0,0,0,0,0,0,0,0,0,-0.261799,1.04172e-09,-1.5,nan,0,0,3,0,0,0,0,0,0,0,0
3220,-3.2124e-12,4.85894e-38,-1.57181e-06,-3.27827e-12,4.85847e-38,0,-1.13784e-13,0,0,0,0,0,0,0,0,0,0,0,0,0,0,0,0,0,0,0,0,0,-0.261799,1.00465e-09,-1.5,nan,0,0,3,0,0,0,0,0,0,0,0
3230,-3.2124e-12,4.85894e-38,-1.57181e-06,-3.27827e-12,4.85847e-38,-3.40903e-12,-1.13785e-13,0,0,0,0,0,0,0,0,0,0,0,0,0,0,0,0,0,0,0,0,0,-0.261799,9.70874e-10,-1.5,nan,0,0,3,0,0,0,0,0,0,0,0
3240,-3.2124e-12,4.85894e-38,-1.57181e-06,-3.27827e-12,4.85847e-38,0,-1.13785e-13,0,0,0,0,0,0,0,0,0,0,0,0,0,0,0,0,0,0,0,0,0,-0.261799,9.34445e-10,-1.5,nan,0,0,3,0,0,0,0,0,0,0,0
3250,-3.2124e-12,4.85894e-38,-1.57181e-06,-3.27827e-12,4.85847e-38,-3.40903e-12,-1.13786e-13,0,0,0,0,0,0,0,0,0,0,0,0,0,0,0,0,0,0,0,0,0,-0.261799,9.03053e-10,-1.5,nan,0,0,3,0,0,0,0,0,0,0,0
3260,-3.2124e-12,4.85894e-38,-1.57181e-06,-3.27827e-12,4.85847e-38,0,-1.13786e-13,0,0,0,0,0,0,0,0,0,0,0,0,0,0,0,0,0,0,0,0,0,-0.261799,8.70916e-10,-1.5,nan,0,0,3,0,0,0,0,0,0,0,0
3270,-3.2124e-12,4.85894e-38,-1.57181e-06,-3.27827e-12,4.85847e-38,-3.40903e-12,-1.13879e-13,0,0,0,0,0,0,0,0,0,0,0,0,0,0,0,0,0,0,0,0,0,-0.261799,8.39948e-10,-1.5,nan,0,0,3,0,0,0,0,0,0,0,0
3280,-3.2124e-12,4.85894e-38,-1.57181e-06,-3.27827e-12,4.85847e-38,0,-1.13879e-13,0,0,0,0,0,0,0,0,0,0,0,0,0,0,0,0,0,0,0,0,0,-0.261799,8.10081e-10,-1.5,nan,0,0,3,0,0,0,0,0,0,0,0
