timestamp,A_x,A_y,A_z,P,Q,R,Phi,Theta,Psi,poseX,poseY,poseZ,state_X,state_Y,state_Z,state_VzB,state_Bx,state_By,state_Bz,p1_x,p1_y,p2_x,p2_y,p3_x,p3_y,p4_x,p4_y,roll,pitch,yaw,alt,targetHeading,highLevelState,lowLevelState,gateNumber,filtered_x,filtered_y,x_OT,y_OT,vx_OT,vy_OTfiltered_vx,filtered_vy
10,0,0,0,0,0,0,0,0,0,0,0,0,0,0,0,0,0,0,0,0,0,0,0,0,0,0,0,0,-0.261799,0.0062205,-1.5,nan,0,0,3,0,0,0,0,0,0,0,0
20,0,0,0,0,0,0,0,0,0,0,0,0,0,0,0,0,0,0,0,0,0,0,0,0,0,0,0,0,-0.261799,0.00601138,-1.5,nan,0,0,3,0,0,0,0,0,0,0,0
30,-3.1147e-12,4.66107e-38,-1.52245e-06,-3.18057e-12,4.66084e-38,-3.62841e-12,-1.06589e-13,0,0,0,0,0,0,0,0,0,0,0,0,0,0,0,0,0,0,0,0,0,-0.261799,0.00141979,-1.5,nan,0,0,3,0,0,0,0,0,0,0,0
40,-3.1147e-12,4.66107e-38,-1.52245e-06,-3.18057e-12,4.66084e-38,0,-1.0659e-13,0,0,0,0,0,0,0,0,0,0,0,0,0,0,0,0,0,0,0,0,0,-0.261799,0.00136093,-1.5,nan,0,0,3,0,0,0,0,0,0,0,0
50,-3.1147e-12,4.66107e-38,-1.52245e-06,-3.18057e-12,4.66084e-38,-3.62841e-12,-1.0659e-13,0,0,0,0,0,0,0,0,0,0,0,0,0,0,0,0,0,0,0,0,0,-0.261799,0.00130452,-1.5,nan,0,0,3,0,0,0,0,0,0,0,0
60,-3.1147e-12,4.66107e-38,-1.52245e-06,-3.18057e-12,4.66084e-38,0,-1.0659e-13,0,0,0,0,0,0,0,0,0,0,0,0,0,0,0,0,0,0,0,0,0,-0.261799,0.00125557,-1.5,nan,0,0,3,0,0,0,0,0,0,0,0
70,-3.1147e-12,4.66107e-38,-1.52245e-06,-3.18057e-12,4.66084e-38,-3.62841e-12,-1.0659e-13,0,0,0,0,0,0,0,0,0,0,0,0,0,0,0,0,0,0,0,0,0,-0.261799,0.00114664,-1.5,nan,0,0,3,0,0,0,0,0,0,0,0
80,-3.1147e-12,4.66107e-38,-1.52245e-06,-3.18057e-12,4.66084e-38,0,-1.06591e-13,0,0,0,0,0,0,0,0,0,0,0,0,0,0,0,0,0,0,0,0,0,-0.261799,0.00106082,-1.5,nan,0,0,3,0,0,0,0,0,0,0,0
90,-3.1147e-12,4.66107e-38,-1.52245e-06,-3.18057e-12,4.66084e-38,-3.62841e-12,-1.06591e-13,0,0,-3.25088,0.245939,-0.0649359,0,0,0,0,0,0.200566,0.0459387,-1368083608,-1368083608,-1368083608,-1368083608,-1368083568,736879574,1459190530,-1368083568,0,-0.261799,0.00101477,-1.5,nan,0,0,3,0,0,0,0,0,0,0,0
100,-3.1147e-12,4.66107e-38,-1.52245e-06,-3.18057e-12,4.66084e-38,0,-1.06591e-13,0,0,-3.25088,0.245939,-0.0649359,0,0,0,0,0,0.200566,0.0459387,-1368083608,-1368083608,-1368083608,-1368083608,-1368083568,736879574,1459190530,-1368083568,0,-0.261799,0.000974659,-1.5,nan,0,0,3,0,0,0,0,0,0,0,0
110,-3.1147e-12,4.66107e-38,-1.52245e-06,-3.18057e-12,4.66084e-38,-3.62841e-12,-1.06591e-13,0,0,-3.19724,0.255945,-0.0979306,0,0,0,0,0,0.265344,0.0559451,-1368083608,-1368083608,-1368083608,-1368083608,-1368083568,736879574,1459190530,-1368083568,0,-0.261799,0.000920792,-1.5,nan,0,0,3,0,0,0,0,0,0,0,0
120,-3.1147e-12,4.66107e-38,-1.52245e-06,-3.18057e-12,4.66084e-38,0,-1.06592e-13,0,0,-3.2203,0.246013,-0.0821666,0,0,0,0,0,0.23649,0.0460129,-1368083608,-1368083608,-1368083608,-1368083608,-1368083568,736879574,1459190530,-1368083568,0,-0.261799,0.000879006,-1.5,nan,0,0,3,0,0,0,0,0,0,0,0
130,-3.1147e-12,4.66107e-38,-1.52245e-06,-3.18057e-12,4.66084e-38,-3.62841e-12,-1.06592e-13,0,0,-3.21226,0.24737,-0.0932681,0,0,0,0,0,0.246174,0.0473699,-1368083608,-1368083608,-1368083608,-1368083608,-1368083568,736879574,1459190530,-1368083568,0,-0.261799,0.000839076,-1.5,nan,0,0,3,0,0,0,0,0,0,0,0
140,-3.1147e-12,4.66107e-38,-1.52245e-06,-3.18057e-12,4.66084e-38,0,-1.06592e-13,0,0,-3.24709,0.243478,-0.0809144,0,0,0,0,0,0.204584,0.0434777,-1368083608,-1368083608,-1368083608,-1368083608,-1368083568,736879574,1459190530,-1368083568,0.0781829,-0.261799,0.000791342,-1.5,nan,0,0,3,0.193409,0.0417478,0,0,0,0,-0.698402,-0.108118
150,-3.1147e-12,4.66107e-38,-1.52245e-06,-3.18057e-12,4.66084e-38,-3.62841e-12,-1.06593e-13,0,0,-3.20144,0.234471,-0.106474,0,0,0,0,0,0.256563,0.034471,-1368083608,-1368083608,-1368083608,-1368083608,-1368083568,736879574,1459190530,-1368083568,0.166653,-0.261799,0.000755394,-1.5,nan,0,0,3,0.217983,0.0347594,0,0,0,0,-0.375889,-0.168141
160,-3.1147e-12,4.66107e-38,-1.52245e-06,-3.18057e-12,4.66084e-38,0,-1.06593e-13,0,0,-3.20144,0.234471,-0.106474,0,0,0,0,0,0.256563,0.034471,-1368083608,-1368083608,-1368083608,-1368083608,-1368083568,736879574,1459190530,-1368083568,0.171928,-0.261799,0.000724052,-1.5,nan,0,0,3,0.210089,0.0312285,0,0,0,0,-0.375889,-0.168141
170,-3.1147e-12,4.66107e-38,-1.52245e-06,-3.18057e-12,4.66084e-38,-3.62841e-12,-1.06593e-13,0,0,-3.25583,0.245336,-0.0810988,0,0,0,0,0,0.194647,0.0453358,-1368083608,-1368083608,-1368083608,-1368083608,-1368083568,736879574,1459190530,-1368083568,0.0888434,-0.261799,0.000692617,-1.5,nan,0,0,3,0.184067,0.034612,0,0,0,0,-0.480934,-0.108118
180,-3.1147e-12,4.66107e-38,-1.52245e-06,-3.18057e-12,4.66084e-38,0,-1.06593e-13,0,0,-3.20205,0.237505,-0.106519,0,0,0,0,0,0.256395,0.0375048,-1368083608,-1368083608,-1368083608,-1368083608,-1368083568,736879574,1459190530,-1368083568,0.0556503,-0.261799,0.00065979,-1.5,nan,0,0,3,0.258473,0.0354983,0,0,0,0,0.0866148,-0.0836035
190,-3.1147e-12,4.66107e-38,-1.52245e-06,-3.18057e-12,4.66084e-38,-3.62841e-12,-1.06594e-13,0,0,-3.20205,0.237505,-0.106519,0,0,0,0,0,0.256395,0.0375048,-1368083608,-1368083608,-1368083608,-1368083608,-1368083568,736879574,1459190530,-1368083568,0.0576487,-0.261799,0.000638921,-1.5,nan,0,0,3,0.259859,0.0341606,0,0,0,0,0.0866148,-0.0836035
200,-3.1147e-12,4.66107e-38,-1.52245e-06,-3.18057e-12,4.66084e-38,0,-1.06596e-13,0,0,-3.24597,0.25232,-0.0856369,0,0,0,0,0,0.207474,0.0523201,-1368083608,-1368083608,-1368083608,-1368083608,-1368083568,736879574,1459190530,-1368083568,-0.0439677,-0.261799,0.000611182,-1.5,nan,0,0,3,0.200794,0.0432365,0,0,0,0,-0.269312,-0.0158673
210,-3.1147e-12,4.66107e-38,-1.52245e-06,-3.18057e-12,4.66084e-38,-3.62841e-12,-1.06597e-13,0,0,-3.23612,0.246694,-0.0943893,0,0,0,0,0,0.218038,0.0466942,-1368083608,-1368083608,-1368083608,-1368083608,-1368083568,736879574,1459190530,-1368083568,-0.0729269,-0.261799,0.000579903,-1.5,nan,0,0,3,0.215213,0.0463436,0,0,0,0,-0.149965,0.0028383
220,-3.1147e-12,4.66107e-38,-1.52245e-06,-3.18057e-12,4.66084e-38,0,-1.06594e-13,0,0,-3.23612,0.246694,-0.0943893,0,0,0,0,0,0.218038,0.0466942,-1368083608,-1368083608,-1368083608,-1368083608,-1368083568,736879574,1459190530,-1368083568,-0.0730202,-0.261799,0.000554726,-1.5,nan,0,0,3,0.211914,0.046406,0,0,0,0,-0.149965,0.0028383
230,-3.1147e-12,4.66107e-38,-1.52245e-06,-3.18057e-12,4.66084e-38,-3.62841e-12,-1.06595e-13,0,0,-3.23668,0.253505,-0.0944862,0,0,0,0,0,0.218588,0.0535045,-1368083608,-1368083608,-1368083608,-1368083608,-1368083568,736879574,1459190530,-1368083568,-0.0715328,-0.261799,0.000528435,-1.5,nan,0,0,3,0.210918,0.0461724,0,0,0,0,-0.136481,0.00196266
240,-3.1147e-12,4.66107e-38,-1.52245e-06,-3.18057e-12,4.66084e-38,0,-1.06594e-13,0,0,-3.23668,0.253505,-0.0944862,0,0,0,0,0,0.218588,0.0535045,-1368083608,-1368083608,-1368083608,-1368083608,-1368083568,736879574,1459190530,-1368083568,-0.0716002,-0.261799,0.000504429,-1.5,nan,0,0,3,0.207779,0.0462175,0,0,0,0,-0.136481,0.00196266
250,-3.1147e-12,4.66107e-38,-1.52245e-06,-3.18057e-12,4.66084e-38,-3.62841e-12,-1.06595e-13,0,0,-3.21364,0.239997,-0.100677,0,0,0,0,0,0.243233,0.0399966,-1368083608,-1368083608,-1368083608,-1368083608,-1368083568,736879574,1459190530,-1368083568,-0.0607987,-0.261799,0.000466676,-1.5,nan,0,0,3,0.209685,0.0443945,0,0,0,0,-0.110945,-0.00425115
260,-3.1147e-12,4.66107e-38,-1.52245e-06,-3.18057e-12,4.66084e-38,0,-1.06596e-13,0,0,-3.17621,0.228425,-0.114193,0,0,0,0,0,0.285098,0.0284253,-1368083608,-1368083608,-1368083608,-1368083608,-1368083568,736879574,1459190530,-1368083568,-0.0282793,-0.261799,0.000438165,-1.5,nan,0,0,3,0.232073,0.0385754,0,0,0,0,-0.0129351,-0.0225785
270,-3.1147e-12,4.66107e-38,-1.52245e-06,-3.18057e-12,4.66084e-38,-3.62841e-12,-1.06596e-13,0,0,-3.22596,0.252306,-0.0951894,0,0,0,0,0,0.230968,0.052306,-1368083608,-1368083608,-1368083608,-1368083608,-1368083568,736879574,1459190530,-1368083568,-0.0604607,-0.261799,0.000417473,-1.5,nan,0,0,3,0.230503,0.0441654,0,0,0,0,-0.0342656,-0.0042478
280,-3.1147e-12,4.66107e-38,-1.52245e-06,-3.18057e-12,4.66084e-38,0,-1.06595e-13,0,0,-3.22596,0.252306,-0.0951894,0,0,0,0,0,0.230968,0.052306,-1368083608,-1368083608,-1368083608,-1368083608,-1368083568,736879574,1459190530,-1368083568,-0.0603211,-0.261799,0.000399348,-1.5,nan,0,0,3,0.229749,0.0440719,0,0,0,0,-0.0342656,-0.0042478
290,-3.1147e-12,4.66107e-38,-1.52245e-06,-3.18057e-12,4.66084e-38,-3.62841e-12,-1.06597e-13,0,0,-3.23668,0.253505,-0.0944862,0,0,0,0,0,0.218588,0.0535045,-1368083608,-1368083608,-1368083608,-1368083608,-1368083568,736879574,1459190530,-1368083568,-0.0836315,-0.261799,0.000379657,-1.5,nan,0,0,3,0.217,0.0493484,0,0,0,0,-0.0669865,0.00761935
300,-3.1147e-12,4.66107e-38,-1.52245e-06,-3.18057e-12,4.66084e-38,0,-1.066e-13,0,0,-3.23945,0.249491,-0.0887316,0,0,0,0,0,0.214622,0.0494906,-1368083608,-1368083608,-1368083608,-1368083608,-1368083568,736879574,1459190530,-1368083568,-0.0869182,-0.261799,0.000357179,-1.5,nan,0,0,3,0.214924,0.0501018,0,0,0,0,-0.0585743,0.00928186
310,-3.1147e-12,4.66107e-38,-1.52245e-06,-3.18057e-12,4.66084e-38,-3.62841e-12,-1.06596e-13,0,0,-3.23945,0.249491,-0.0887316,0,0,0,0,0,0.214622,0.0494906,-1368083608,-1368083608,-1368083608,-1368083608,-1368083568,736879574,1459190530,-1368083568,-0.0871263,-0.261799,0.000346578,-1.5,nan,0,0,3,0.214045,0.050241,0,0,0,0,-0.0585743,0.00928186
320,-3.1147e-12,4.66107e-38,-1.52245e-06,-3.18057e-12,4.66084e-38,0,-1.066e-13,0,0,-3.267,0.246535,-0.0802256,0,0,0,0,0,0.181752,0.0465353,-1368083608,-1368083608,-1368083608,-1368083608,-1368083568,736879574,1459190530,-1368083568,-0.0817269,-0.261799,0.000330152,-1.5,nan,0,0,3,0.210423,0.049191,0,0,0,0,-0.0746566,0.00633525
330,-3.1147e-12,4.66107e-38,-1.52245e-06,-3.18057e-12,4.66084e-38,-3.62841e-12,-1.06601e-13,0,0,-3.22873,0.248312,-0.0894349,0,0,0,0,0,0.227002,0.0483117,-1368083608,-1368083608,-1368083608,-1368083608,-1368083568,736879574,1459190530,-1368083568,-0.0788838,-0.261799,0.000311905,-1.5,nan,0,0,3,0.211493,0.0486083,0,0,0,0,-0.0582728,0.00481784
340,-3.1147e-12,4.66107e-38,-1.52245e-06,-3.18057e-12,4.66084e-38,0,-1.06601e-13,0,0,-3.18867,0.233907,-0.108251,0,0,0,0,0,0.271454,0.0339075,-1368083608,-1368083608,-1368083608,-1368083608,-1368083568,736879574,1459190530,-1368083568,-0.0790237,-0.261799,0.000297177,-1.5,nan,0,0,3,0.225852,0.0485412,0,0,0,0,-0.0232579,0.00500263
350,-3.1147e-12,4.66107e-38,-1.52245e-06,-3.18057e-12,4.66084e-38,-3.62841e-12,-1.06601e-13,0,0,-3.18867,0.233907,-0.108251,0,0,0,0,0,0.271454,0.0339075,-1368083608,-1368083608,-1368083608,-1368083608,-1368083568,736879574,1459190530,-1368083568,-0.0791732,-0.261799,0.000285443,-1.5,nan,0,0,3,0.225387,0.0486412,0,0,0,0,-0.0232579,0.00500263
360,-3.1147e-12,4.66107e-38,-1.52245e-06,-3.18057e-12,4.66084e-38,0,-1.06602e-13,0,0,-3.25973,0.253012,-0.083473,0,0,0,0,0,0.191438,0.053012,-1368083608,-1368083608,-1368083608,-1368083608,-1368083568,736879574,1459190530,-1368083568,-0.0801734,-0.261799,0.000269686,-1.5,nan,0,0,3,0.206605,0.0491343,0,0,0,0,-0.0624337,0.00520545
370,-3.1147e-12,4.66107e-38,-1.52245e-06,-3.18057e-12,4.66084e-38,-3.62841e-12,-1.06599e-13,0,0,-3.25973,0.253012,-0.083473,0,0,0,0,0,0.191438,0.053012,-1368083608,-1368083608,-1368083608,-1368083608,-1368083568,736879574,1459190530,-1368083568,-0.0936389,-0.261799,0.000255859,-1.5,nan,0,0,3,0.199796,0.0519713,0,0,0,0,-0.0750709,0.0123031
380,-3.1147e-12,4.66107e-38,-1.52245e-06,-3.18057e-12,4.66084e-38,0,-1.06597e-13,0,0,-3.25309,0.25016,-0.0866178,0,0,0,0,0,0.198728,0.0501605,-1368083608,-1368083608,-1368083608,-1368083608,-1368083568,736879574,1459190530,-1368083568,-0.0826478,-0.261799,0.000243773,-1.5,nan,0,0,3,0.198014,0.050013,0,0,0,0,-0.0761361,0.00609894
390,-3.1147e-12,4.66107e-38,-1.52245e-06,-3.18057e-12,4.66084e-38,-3.62841e-12,-1.06601e-13,0,0,-3.25309,0.25016,-0.0866178,0,0,0,0,0,0.198728,0.0501605,-1368083608,-1368083608,-1368083608,-1368083608,-1368083568,736879574,1459190530,-1368083568,-0.0828483,-0.261799,0.000233189,-1.5,nan,0,0,3,0.196339,0.0501472,0,0,0,0,-0.0761361,0.00609894
400,-3.1147e-12,4.66107e-38,-1.52245e-06,-3.18057e-12,4.66084e-38,0,-1.06598e-13,0,0,-3.23196,0.234747,-0.096556,0,0,0,0,0,0.220788,0.034747,-1368083608,-1368083608,-1368083608,-1368083608,-1368083568,736879574,1459190530,-1368083568,-0.0830238,-0.261799,0.000221233,-1.5,nan,0,0,3,0.19514,0.0498264,0,0,0,0,-0.0756151,0.0066026
410,-3.1147e-12,4.66107e-38,-1.52245e-06,-3.18057e-12,4.66084e-38,-3.62841e-12,-1.06598e-13,0,0,-3.22127,0.233613,-0.0972527,0,0,0,0,0,0.233139,0.0336132,-1368083608,-1368083608,-1368083608,-1368083608,-1368083568,736879574,1459190530,-1368083568,-0.0817797,-0.261799,0.000209497,-1.5,nan,0,0,3,0.204801,0.0494428,0,0,0,0,-0.0433116,0.0060865
420,-3.1147e-12,4.66107e-38,-1.52245e-06,-3.18057e-12,4.66084e-38,0,-1.066e-13,0,0,-3.22127,0.233613,-0.0972527,0,0,0,0,0,0.233139,0.0336132,-1368083608,-1368083608,-1368083608,-1368083608,-1368083568,736879574,1459190530,-1368083568,-0.0819707,-0.261799,0.000200805,-1.5,nan,0,0,3,0.203891,0.0495706,0,0,0,0,-0.0433116,0.0060865
430,-3.1147e-12,4.66107e-38,-1.52245e-06,-3.18057e-12,4.66084e-38,-3.62841e-12,-1.06598e-13,0,0,-3.24582,0.240058,-0.083353,0,0,0,0,0,0.205465,0.0400582,-1368083608,-1368083608,-1368083608,-1368083608,-1368083568,736879574,1459190530,-1368083568,-0.0705343,-0.261799,0.000192087,-1.5,nan,0,0,3,0.20356,0.0467362,0,0,0,0,-0.0423608,0.000546586
440,-3.1147e-12,4.66107e-38,-1.52245e-06,-3.18057e-12,4.66084e-38,0,-1.06598e-13,0,0,-3.24081,0.239577,-0.0881686,0,0,0,0,0,0.211256,0.0395773,-1368083608,-1368083608,-1368083608,-1368083608,-1368083568,736879574,1459190530,-1368083568,-0.0658471,-0.261799,0.000181471,-1.5,nan,0,0,3,0.204253,0.0456254,0,0,0,0,-0.0400149,-0.00178231
450,-3.1147e-12,4.66107e-38,-1.52245e-06,-3.18057e-12,4.66084e-38,-3.62841e-12,-1.06602e-13,0,0,-3.24242,0.242058,-0.0991097,0,0,0,0,0,0.209809,0.0420584,-1368083608,-1368083608,-1368083608,-1368083608,-1368083568,736879574,1459190530,-1368083568,-0.0543887,-0.261799,0.000171844,-1.5,nan,0,0,3,0.207268,0.042105,0,0,0,0,-0.0352036,-0.00655081
460,-3.1147e-12,4.66107e-38,-1.52245e-06,-3.18057e-12,4.66084e-38,0,-1.06599e-13,0,0,-3.24242,0.242058,-0.0991097,0,0,0,0,0,0.209809,0.0420584,-1368083608,-1368083608,-1368083608,-1368083608,-1368083568,736879574,1459190530,-1368083568,-0.0541929,-0.261799,0.000165052,-1.5,nan,0,0,3,0.206564,0.041974,0,0,0,0,-0.0352036,-0.00655081
470,-3.1147e-12,4.66107e-38,-1.52245e-06,-3.18057e-12,4.66084e-38,-3.62841e-12,-1.06602e-13,0,0,-3.2223,0.238622,-0.104277,0,0,0,0,0,0.232822,0.0386221,-1368083608,-1368083608,-1368083608,-1368083608,-1368083568,736879574,1459190530,-1368083568,-0.0533353,-0.261799,0.00015659,-1.5,nan,0,0,3,0.207845,0.0414397,0,0,0,0,-0.034641,-0.0065965
480,-3.1147e-12,4.66107e-38,-1.52245e-06,-3.18057e-12,4.66084e-38,0,-1.06603e-13,0,0,-3.19408,0.232233,-0.110703,0,0,0,0,0,0.2648,0.032233,-1368083608,-1368083608,-1368083608,-1368083608,-1368083568,736879574,1459190530,-1368083568,-0.0451272,-0.261799,0.000148552,-1.5,nan,0,0,3,0.207734,0.0388056,0,0,0,0,-0.0319949,-0.00988324
490,-3.1147e-12,4.66107e-38,-1.52245e-06,-3.18057e-12,4.66084e-38,-3.62841e-12,-1.06603e-13,0,0,-3.22869,0.241267,-0.092016,0,0,0,0,0,0.225797,0.0412669,-1368083608,-1368083608,-1368083608,-1368083608,-1368083568,736879574,1459190530,-1368083568,-0.0525717,-0.261799,0.00014038,-1.5,nan,0,0,3,0.210861,0.041126,0,0,0,0,-0.0276099,-0.00682329
500,-3.1147e-12,4.66107e-38,-1.52245e-06,-3.18057e-12,4.66084e-38,0,-1.06599e-13,0,0,-3.22869,0.241267,-0.092016,0,0,0,0,0,0.225797,0.0412669,-1368083608,-1368083608,-1368083608,-1368083608,-1368083568,736879574,1459190530,-1368083568,-0.0523577,-0.261799,0.000134555,-1.5,nan,0,0,3,0.210282,0.0409827,0,0,0,0,-0.0276099,-0.00682329
510,-3.1147e-12,4.66107e-38,-1.52245e-06,-3.18057e-12,4.66084e-38,-3.62841e-12,-1.06603e-13,0,0,-3.23121,0.239122,-0.0978235,0,0,0,0,0,0.222451,0.0391224,-1368083608,-1368083608,-1368083608,-1368083608,-1368083568,736879574,1459190530,-1368083568,-0.0463813,-0.261799,0.000127383,-1.5,nan,0,0,3,0.215755,0.038884,0,0,0,0,-0.0205584,-0.00900863
520,-3.1147e-12,4.66107e-38,-1.52245e-06,-3.18057e-12,4.66084e-38,0,-1.06603e-13,0,0,-3.22879,0.236781,-0.101304,0,0,0,0,0,0.224872,0.0367807,-1368083608,-1368083608,-1368083608,-1368083608,-1368083568,736879574,1459190530,-1368083568,-0.0477339,-0.261799,0.000120343,-1.5,nan,0,0,3,0.223449,0.0387073,0,0,0,0,0.00713455,-0.0077651
530,-3.1147e-12,4.66107e-38,-1.52245e-06,-3.18057e-12,4.66084e-38,-3.62841e-12,-1.06604e-13,0,0,-3.19581,0.236551,-0.117226,0,0,0,0,0,0.263543,0.0365513,-1368083608,-1368083608,-1368083608,-1368083608,-1368083568,736879574,1459190530,-1368083568,-0.0419519,-0.261799,0.000113455,-1.5,nan,0,0,3,0.225772,0.0370467,0,0,0,0,0.0103464,-0.0103044
540,-3.1147e-12,4.66107e-38,-1.52245e-06,-3.18057e-12,4.66084e-38,0,-1.06604e-13,0,0,-3.19851,0.230613,-0.112947,0,0,0,0,0,0.259313,0.030613,-1368083608,-1368083608,-1368083608,-1368083608,-1368083568,736879574,1459190530,-1368083568,-0.0372987,-0.261799,0.000107217,-1.5,nan,0,0,3,0.225357,0.0360252,0,0,0,0,0.00835706,-0.0127098
550,-3.1147e-12,4.66107e-38,-1.52245e-06,-3.18057e-12,4.66084e-38,-3.62841e-12,-1.06604e-13,0,0,-3.19851,0.230613,-0.112947,0,0,0,0,0,0.259313,0.030613,-1368083608,-1368083608,-1368083608,-1368083608,-1368083568,736879574,1459190530,-1368083568,-0.0370139,-0.261799,0.000104035,-1.5,nan,0,0,3,0.225483,0.0358346,0,0,0,0,0.00835706,-0.0127098
560,-3.1147e-12,4.66107e-38,-1.52245e-06,-3.18057e-12,4.66084e-38,0,-1.06604e-13,0,0,-3.19408,0.232233,-0.110703,0,0,0,0,0,0.2648,0.032233,-1368083608,-1368083608,-1368083608,-1368083608,-1368083568,736879574,1459190530,-1368083568,-0.0358124,-0.261799,9.93086e-05,-1.5,nan,0,0,3,0.226831,0.0352866,0,0,0,0,0.00934095,-0.0130044
570,-3.1147e-12,4.66107e-38,-1.52245e-06,-3.18057e-12,4.66084e-38,-3.62841e-12,-1.06605e-13,0,0,-3.20452,0.233348,-0.110102,0,0,0,0,0,0.252751,0.0333478,-1368083608,-1368083608,-1368083608,-1368083608,-1368083568,736879574,1459190530,-1368083568,-0.023786,-0.261799,9.42364e-05,-1.5,nan,0,0,3,0.241563,0.0332513,0,0,0,0,0.0318868,-0.0199164
580,-3.1147e-12,4.66107e-38,-1.52245e-06,-3.18057e-12,4.66084e-38,0,-1.06605e-13,0,0,-3.20452,0.233348,-0.110102,0,0,0,0,0,0.252751,0.0333478,-1368083608,-1368083608,-1368083608,-1368083608,-1368083568,736879574,1459190530,-1368083568,-0.0231611,-0.261799,9.03265e-05,-1.5,nan,0,0,3,0.242233,0.0328331,0,0,0,0,0.0318868,-0.0199164
590,-3.1147e-12,4.66107e-38,-1.52245e-06,-3.18057e-12,4.66084e-38,-3.62841e-12,-1.06605e-13,0,0,-3.19408,0.232233,-0.110703,0,0,0,0,0,0.2648,0.032233,-1368083608,-1368083608,-1368083608,-1368083608,-1368083568,736879574,1459190530,-1368083568,-0.0204987,-0.261799,8.58727e-05,-1.5,nan,0,0,3,0.242127,0.0317955,0,0,0,0,0.0276857,-0.020772
600,-3.1147e-12,4.66107e-38,-1.52245e-06,-3.18057e-12,4.66084e-38,0,-1.06606e-13,0,0,-3.21745,0.240061,-0.111388,0,0,0,0,0,0.238772,0.040061,-1368083608,-1368083608,-1368083608,-1368083608,-1368083568,736879574,1459190530,-1368083568,-0.0210257,-0.261799,8.1485e-05,-1.5,nan,0,0,3,0.239347,0.0319116,0,0,0,0,0.0223472,-0.0205001
610,-3.1147e-12,4.66107e-38,-1.52245e-06,-3.18057e-12,4.66084e-38,-3.62841e-12,-1.06606e-13,0,0,-3.20817,0.233032,-0.0991596,0,0,0,0,0,0.248412,0.0330324,-1368083608,-1368083608,-1368083608,-1368083608,-1368083568,736879574,1459190530,-1368083568,-0.0189059,-0.261799,7.732e-05,-1.5,nan,0,0,3,0.24536,0.0311584,0,0,0,0,0.0273125,-0.0212652
620,-3.1147e-12,4.66107e-38,-1.52245e-06,-3.18057e-12,4.66084e-38,0,-1.06606e-13,0,0,-3.20817,0.233032,-0.0991596,0,0,0,0,0,0.248412,0.0330324,-1368083608,-1368083608,-1368083608,-1368083608,-1368083568,736879574,1459190530,-1368083568,-0.0182705,-0.261799,7.42668e-05,-1.5,nan,0,0,3,0.245906,0.0307331,0,0,0,0,0.0273125,-0.0212652
630,-3.1147e-12,4.66107e-38,-1.52245e-06,-3.18057e-12,4.66084e-38,-3.62841e-12,-1.06606e-13,0,0,-3.23387,0.239126,-0.103074,0,0,0,0,0,0.219325,0.0391264,-1368083608,-1368083608,-1368083608,-1368083608,-1368083568,736879574,1459190530,-1368083568,-0.0145069,-0.261799,7.0459e-05,-1.5,nan,0,0,3,0.241056,0.0298087,0,0,0,0,0.0254089,-0.0230978
640,-3.1147e-12,4.66107e-38,-1.52245e-06,-3.18057e-12,4.66084e-38,0,-1.06607e-13,0,0,-3.22748,0.23897,-0.0901606,0,0,0,0,0,0.226797,0.0389696,-1368083608,-1368083608,-1368083608,-1368083608,-1368083568,736879574,1459190530,-1368083568,-0.0201471,-0.261799,6.68589e-05,-1.5,nan,0,0,3,0.240836,0.0306004,0,0,0,0,0.0258016,-0.019669
650,-3.1147e-12,4.66107e-38,-1.52245e-06,-3.18057e-12,4.66084e-38,-3.62841e-12,-1.06607e-13,0,0,-3.22748,0.23897,-0.0901606,0,0,0,0,0,0.226797,0.0389696,-1368083608,-1368083608,-1368083608,-1368083608,-1368083568,736879574,1459190530,-1368083568,-0.0195888,-0.261799,6.43481e-05,-1.5,nan,0,0,3,0.241327,0.0302267,0,0,0,0,0.0258016,-0.019669
660,-3.1147e-12,4.66107e-38,-1.52245e-06,-3.18057e-12,4.66084e-38,0,-1.06607e-13,0,0,-3.20213,0.230291,-0.102037,0,0,0,0,0,0.255009,0.0302911,-1368083608,-1368083608,-1368083608,-1368083608,-1368083568,736879574,1459190530,-1368083568,-0.0172526,-0.261799,6.1045e-05,-1.5,nan,0,0,3,0.251908,0.0297376,0,0,0,0,0.0417067,-0.020904
670,-3.1147e-12,4.66107e-38,-1.52245e-06,-3.18057e-12,4.66084e-38,-3.62841e-12,-1.06607e-13,0,0,-3.20867,0.228452,-0.0990158,0,0,0,0,0,0.246997,0.0284517,-1368083608,-1368083608,-1368083608,-1368083608,-1368083568,736879574,1459190530,-1368083568,-0.0121951,-0.261799,5.8282e-05,-1.5,nan,0,0,3,0.248866,0.0281931,0,0,0,0,0.0374941,-0.0230193
680,-3.1147e-12,4.66107e-38,-1.52245e-06,-3.18057e-12,4.66084e-38,0,-1.06608e-13,0,0,-3.20867,0.228452,-0.0990158,0,0,0,0,0,0.246997,0.0284517,-1368083608,-1368083608,-1368083608,-1368083608,-1368083568,736879574,1459190530,-1368083568,-0.0116105,-0.261799,5.63227e-05,-1.5,nan,0,0,3,0.249504,0.0278017,0,0,0,0,0.0374941,-0.0230193
690,-3.1147e-12,4.66107e-38,-1.52245e-06,-3.18057e-12,4.66084e-38,-3.62841e-12,-1.06608e-13,0,0,-3.22748,0.23897,-0.0901606,0,0,0,0,0,0.226797,0.0389696,-1368083608,-1368083608,-1368083608,-1368083608,-1368083568,736879574,1459190530,-1368083568,-0.0163351,-0.261799,5.25447e-05,-1.5,nan,0,0,3,0.248886,0.0283914,0,0,0,0,0.0377152,-0.0200628
700,-3.1147e-12,4.66107e-38,-1.52245e-06,-3.18057e-12,4.66084e-38,0,-1.06608e-13,0,0,-3.23196,0.234747,-0.096556,0,0,0,0,0,0.220788,0.034747,-1368083608,-1368083608,-1368083608,-1368083608,-1368083568,736879574,1459190530,-1368083568,-0.0170924,-0.261799,4.97441e-05,-1.5,nan,0,0,3,0.249851,0.0281776,0,0,0,0,0.0397262,-0.0192345
710,-3.1147e-12,4.66107e-38,-1.52245e-06,-3.18057e-12,4.66084e-38,-3.62841e-12,-1.06609e-13,0,0,-3.22127,0.233613,-0.0972527,0,0,0,0,0,0.233139,0.0336132,-1368083608,-1368083608,-1368083608,-1368083608,-1368083568,736879574,1459190530,-1368083568,-0.0248549,-0.261799,4.69005e-05,-1.5,nan,0,0,3,0.252059,0.0294713,0,0,0,0,0.0468491,-0.01475
720,-3.1147e-12,4.66107e-38,-1.52245e-06,-3.18057e-12,4.66084e-38,0,-1.06609e-13,0,0,-3.21485,0.240595,-0.112662,0,0,0,0,0,0.241924,0.0405948,-1368083608,-1368083608,-1368083608,-1368083608,-1368083568,736879574,1459190530,-1368083568,-0.0374576,-0.261799,4.42161e-05,-1.5,nan,0,0,3,0.243365,0.0330134,0,0,0,0,0.0276442,-0.00912636
730,-3.1147e-12,4.66107e-38,-1.52245e-06,-3.18057e-12,4.66084e-38,-3.62841e-12,-1.06609e-13,0,0,-3.22543,0.238847,-0.091073,0,0,0,0,0,0.229187,0.0388471,-1368083608,-1368083608,-1368083608,-1368083608,-1368083568,736879574,1459190530,-1368083568,-0.0408347,-0.261799,4.21283e-05,-1.5,nan,0,0,3,0.24306,0.0337881,0,0,0,0,0.0274174,-0.00741895
740,-3.1147e-12,4.66107e-38,-1.52245e-06,-3.18057e-12,4.66084e-38,0,-1.06609e-13,0,0,-3.22543,0.238847,-0.091073,0,0,0,0,0,0.229187,0.0388471,-1368083608,-1368083608,-1368083608,-1368083608,-1368083568,736879574,1459190530,-1368083568,-0.0406019,-0.261799,4.03804e-05,-1.5,nan,0,0,3,0.243636,0.0336323,0,0,0,0,0.0274174,-0.00741895
750,-3.1147e-12,4.66107e-38,-1.52245e-06,-3.18057e-12,4.66084e-38,-3.62841e-12,-1.0661e-13,0,0,-3.22748,0.23897,-0.0901606,0,0,0,0,0,0.226797,0.0389696,-1368083608,-1368083608,-1368083608,-1368083608,-1368083568,736879574,1459190530,-1368083568,-0.0401135,-0.261799,3.80691e-05,-1.5,nan,0,0,3,0.243992,0.033402,0,0,0,0,0.0313026,-0.00752989
760,-3.1147e-12,4.66107e-38,-1.52245e-06,-3.18057e-12,4.66084e-38,0,-1.0661e-13,0,0,-3.23251,0.239451,-0.0853399,0,0,0,0,0,0.220989,0.0394513,-1368083608,-1368083608,-1368083608,-1368083608,-1368083568,736879574,1459190530,-1368083568,-0.0588053,-0.261799,3.60401e-05,-1.5,nan,0,0,3,0.234826,0.0388734,0,0,0,0,0.0151332,0.000560437
770,-3.1147e-12,4.66107e-38,-1.52245e-06,-3.18057e-12,4.66084e-38,-3.62841e-12,-1.0661e-13,0,0,-3.22232,0.238479,-0.0950446,0,0,0,0,0,0.232775,0.0384789,-1368083608,-1368083608,-1368083608,-1368083608,-1368083568,736879574,1459190530,-1368083568,-0.0605251,-0.261799,3.39884e-05,-1.5,nan,0,0,3,0.233357,0.0387133,0,0,0,0,0.00908051,0.00206738
780,-3.1147e-12,4.66107e-38,-1.52245e-06,-3.18057e-12,4.66084e-38,0,-1.0661e-13,0,0,-3.22232,0.238479,-0.0950446,0,0,0,0,0,0.232775,0.0384789,-1368083608,-1368083608,-1368083608,-1368083608,-1368083568,736879574,1459190530,-1368083568,-0.06059,-0.261799,3.25782e-05,-1.5,nan,0,0,3,0.233548,0.0387567,0,0,0,0,0.00908051,0.00206738
790,-3.1147e-12,4.66107e-38,-1.52245e-06,-3.18057e-12,4.66084e-38,-3.62841e-12,-1.06611e-13,0,0,-3.21789,0.23395,-0.10809,0,0,0,0,0,0.237169,0.0339502,-1368083608,-1368083608,-1368083608,-1368083608,-1368083568,736879574,1459190530,-1368083568,-0.0621009,-0.261799,3.11624e-05,-1.5,nan,0,0,3,0.234816,0.0387229,0,0,0,0,0.0109764,0.00326856
800,-3.1147e-12,4.66107e-38,-1.52245e-06,-3.18057e-12,4.66084e-38,0,-1.06611e-13,0,0,-3.25583,0.245336,-0.0810988,0,0,0,0,0,0.194647,0.0453358,-1368083608,-1368083608,-1368083608,-1368083608,-1368083568,736879574,1459190530,-1368083568,-0.0606998,-0.261799,2.96913e-05,-1.5,nan,0,0,3,0.231935,0.038668,0,0,0,0,-0.00106747,0.00225381
810,-3.1147e-12,4.66107e-38,-1.52245e-06,-3.18057e-12,4.66084e-38,-3.62841e-12,-1.06611e-13,0,0,-3.25583,0.245336,-0.0810988,0,0,0,0,0,0.194647,0.0453358,-1368083608,-1368083608,-1368083608,-1368083608,-1368083568,736879574,1459190530,-1368083568,-0.0607637,-0.261799,2.85763e-05,-1.5,nan,0,0,3,0.231915,0.0387108,0,0,0,0,-0.00106747,0.00225381
820,-3.1147e-12,4.66107e-38,-1.52245e-06,-3.18057e-12,4.66084e-38,0,-1.06611e-13,0,0,-3.20144,0.234471,-0.106474,0,0,0,0,0,0.256563,0.034471,-1368083608,-1368083608,-1368083608,-1368083608,-1368083568,736879574,1459190530,-1368083568,-0.0540095,-0.261799,2.66032e-05,-1.5,nan,0,0,3,0.235415,0.0373263,0,0,0,0,0.00917107,-0.00135068
830,-3.1147e-12,4.66107e-38,-1.52245e-06,-3.18057e-12,4.66084e-38,-3.62841e-12,-1.06612e-13,0,0,-3.21512,0.230852,-0.100176,0,0,0,0,0,0.239866,0.0308518,-1368083608,-1368083608,-1368083608,-1368083608,-1368083568,736879574,1459190530,-1368083568,-0.0453789,-0.261799,2.55031e-05,-1.5,nan,0,0,3,0.233567,0.0342774,0,0,0,0,0.0011897,-0.00448568
840,-3.1147e-12,4.66107e-38,-1.52245e-06,-3.18057e-12,4.66084e-38,0,-1.06612e-13,0,0,-3.21512,0.230852,-0.100176,0,0,0,0,0,0.239866,0.0308518,-1368083608,-1368083608,-1368083608,-1368083608,-1368083568,736879574,1459190530,-1368083568,-0.0458296,-0.261799,2.43493e-05,-1.5,nan,0,0,3,0.23766,0.0339195,0,0,0,0,0.00453555,-0.00372765
850,-3.1147e-12,4.66107e-38,-1.52245e-06,-3.18057e-12,4.66084e-38,-3.62841e-12,-1.06612e-13,0,0,-3.21512,0.230852,-0.100176,0,0,0,0,0,0.239866,0.0308518,-1368083608,-1368083608,-1368083608,-1368083608,-1368083568,736879574,1459190530,-1368083568,-0.0457238,-0.261799,2.34349e-05,-1.5,nan,0,0,3,0.237746,0.0338487,0,0,0,0,0.00453555,-0.00372765
860,-3.1147e-12,4.66107e-38,-1.52245e-06,-3.18057e-12,4.66084e-38,0,-1.06613e-13,0,0,-3.19472,0.23665,-0.105368,0,0,0,0,0,0.264844,0.03665,-1368083608,-1368083608,-1368083608,-1368083608,-1368083568,736879574,1459190530,-1368083568,-0.0515574,-0.261799,2.21858e-05,-1.5,nan,0,0,3,0.238606,0.0355681,0,0,0,0,3.43392e-05,-0.0012163
870,-3.1147e-12,4.66107e-38,-1.52245e-06,-3.18057e-12,4.66084e-38,-3.62841e-12,-1.06613e-13,0,0,-3.267,0.246535,-0.0802256,0,0,0,0,0,0.181752,0.0465353,-1368083608,-1368083608,-1368083608,-1368083608,-1368083568,736879574,1459190530,-1368083568,-0.0551454,-0.261799,2.10906e-05,-1.5,nan,0,0,3,0.223075,0.0365774,0,0,0,0,-0.0384786,0.00038376
880,-3.1147e-12,4.66107e-38,-1.52245e-06,-3.18057e-12,4.66084e-38,0,-1.06613e-13,0,0,-3.22573,0.231974,-0.0995108,0,0,0,0,0,0.22761,0.0319736,-1368083608,-1368083608,-1368083608,-1368083608,-1368083568,736879574,1459190530,-1368083568,-0.0513261,-0.261799,2.0013e-05,-1.5,nan,0,0,3,0.229392,0.0354338,0,0,0,0,-0.0153625,-0.00123986
890,-3.1147e-12,4.66107e-38,-1.52245e-06,-3.18057e-12,4.66084e-38,-3.62841e-12,-1.06613e-13,0,0,-3.22543,0.238847,-0.091073,0,0,0,0,0,0.229187,0.0388471,-1368083608,-1368083608,-1368083608,-1368083608,-1368083568,736879574,1459190530,-1368083568,-0.05562,-0.261799,1.66283e-05,-1.5,nan,0,0,3,0.225144,0.0369123,0,0,0,0,-0.0281101,0.000363948
900,-3.1147e-12,4.66107e-38,-1.52245e-06,-3.18057e-12,4.66084e-38,0,-1.06614e-13,0,0,-3.21512,0.230852,-0.100176,0,0,0,0,0,0.239866,0.0308518,-1368083608,-1368083608,-1368083608,-1368083608,-1368083568,736879574,1459190530,-1368083568,-0.0524493,-0.261799,1.27393e-05,-1.5,nan,0,0,3,0.223259,0.0348927,0,0,0,0,-0.029276,0.000245993
910,-3.1147e-12,4.66107e-38,-1.52245e-06,-3.18057e-12,4.66084e-38,-3.62841e-12,-1.06614e-13,0,0,-3.22783,0.24105,-0.101646,0,0,0,0,0,0.226769,0.0410497,-1368083608,-1368083608,-1368083608,-1368083608,-1368083568,736879574,1459190530,-1368083568,-0.0643927,-0.261799,9.1084e-06,-1.5,nan,0,0,3,0.218903,0.038833,0,0,0,0,-0.0297115,0.00490491
920,-3.1147e-12,4.66107e-38,-1.52245e-06,-3.18057e-12,4.66084e-38,0,-1.06614e-13,0,0,-3.2596,0.250961,-0.0911884,0,0,0,0,0,0.191227,0.050961,-1368083608,-1368083608,-1368083608,-1368083608,-1368083568,736879574,1459190530,-1368083568,-0.0728801,-0.261799,6.13106e-06,-1.5,nan,0,0,3,0.215989,0.0423155,0,0,0,0,-0.0252477,0.00743148
930,-3.1147e-12,4.66107e-38,-1.52245e-06,-3.18057e-12,4.66084e-38,-3.62841e-12,-1.06614e-13,0,0,-3.2574,0.245428,-0.0804189,0,0,0,0,0,0.192829,0.0454285,-1368083608,-1368083608,-1368083608,-1368083608,-1368083568,736879574,1459190530,-1368083568,-0.0747974,-0.261799,5.44226e-06,-1.5,nan,0,0,3,0.218036,0.0433539,0,0,0,0,-0.0184676,0.00771297
940,-3.1147e-12,4.66107e-38,-1.52245e-06,-3.18057e-12,4.66084e-38,0,-1.06615e-13,0,0,-3.18765,0.23369,-0.117844,0,0,0,0,0,0.272609,0.0336895,-1368083608,-1368083608,-1368083608,-1368083608,-1368083568,736879574,1459190530,-1368083568,-0.0458921,-0.261799,5.17478e-06,-1.5,nan,0,0,3,0.222531,0.034069,0,0,0,0,-0.0118161,-0.00385138
950,-3.1147e-12,4.66107e-38,-1.52245e-06,-3.18057e-12,4.66084e-38,-3.62841e-12,-1.06615e-13,0,0,-3.18765,0.23369,-0.117844,0,0,0,0,0,0.272609,0.0336895,-1368083608,-1368083608,-1368083608,-1368083608,-1368083568,736879574,1459190530,-1368083568,-0.045777,-0.261799,4.97026e-06,-1.5,nan,0,0,3,0.222294,0.0339919,0,0,0,0,-0.0118161,-0.00385138
960,-3.1147e-12,4.66107e-38,-1.52245e-06,-3.18057e-12,4.66084e-38,0,-1.06615e-13,0,0,-3.26298,0.241392,-0.0798687,0,0,0,0,0,0.185561,0.0413923,-1368083608,-1368083608,-1368083608,-1368083608,-1368083568,736879574,1459190530,-1368083568,-0.0627384,-0.261799,4.70566e-06,-1.5,nan,0,0,3,0.217796,0.0402948,0,0,0,0,-0.0155723,0.00195237
970,-3.1147e-12,4.66107e-38,-1.52245e-06,-3.18057e-12,4.66084e-38,-3.62841e-12,-1.06616e-13,0,0,-3.23992,0.218542,-0.0905401,0,0,0,0,0,0.208563,0.018542,-1368083608,-1368083608,-1368083608,-1368083608,-1368083568,736879574,1459190530,-1368083568,-0.0457691,-0.261799,4.48347e-06,-1.5,nan,0,0,3,0.215429,0.0338545,0,0,0,0,-0.0177641,-0.00369955
980,-3.1147e-12,4.66107e-38,-1.52245e-06,-3.18057e-12,4.66084e-38,0,-1.06616e-13,0,0,-3.23992,0.218542,-0.0905401,0,0,0,0,0,0.208563,0.018542,-1368083608,-1368083608,-1368083608,-1368083608,-1368083568,736879574,1459190530,-1368083568,-0.045653,-0.261799,4.29762e-06,-1.5,nan,0,0,3,0.215056,0.0337768,0,0,0,0,-0.0177641,-0.00369955
990,-3.1147e-12,4.66107e-38,-1.52245e-06,-3.18057e-12,4.66084e-38,-3.62841e-12,-1.06616e-13,0,0,-3.22559,0.220514,-0.0904824,0,0,0,0,0,0.225733,0.0205142,-1368083608,-1368083608,-1368083608,-1368083608,-1368083568,736879574,1459190530,-1368083568,-0.0443308,-0.261799,4.07702e-06,-1.5,nan,0,0,3,0.22166,0.0333163,0,0,0,0,-0.0090177,-0.00418741
1000,-3.1147e-12,4.66107e-38,-1.52245e-06,-3.18057e-12,4.66084e-38,0,-1.06616e-13,0,0,-3.23457,0.241633,-0.0960903,0,0,0,0,0,0.218953,0.0416332,-1368083608,-1368083608,-1368083608,-1368083608,-1368083568,736879574,1459190530,-1368083568,-0.0457784,-0.261799,3.87599e-06,-1.5,nan,0,0,3,0.219131,0.033746,0,0,0,0,-0.0112975,-0.00356769
1010,-3.1147e-12,4.66107e-38,-1.52245e-06,-3.18057e-12,4.66084e-38,-3.62841e-12,-1.06617e-13,0,0,-3.23883,0.253431,-0.0964308,0,0,0,0,0,0.216049,0.0534308,-1368083608,-1368083608,-1368083608,-1368083608,-1368083568,736879574,1459190530,-1368083568,-0.0700506,-0.261799,3.60074e-06,-1.5,nan,0,0,3,0.215594,0.042002,0,0,0,0,-0.0167286,0.0056152
1020,-3.1147e-12,4.66107e-38,-1.52245e-06,-3.18057e-12,4.66084e-38,0,-1.06617e-13,0,0,-3.26739,0.255202,-0.0917286,0,0,0,0,0,0.182822,0.0552019,-1368083608,-1368083608,-1368083608,-1368083608,-1368083568,736879574,1459190530,-1368083568,-0.0691552,-0.261799,3.37339e-06,-1.5,nan,0,0,3,0.214545,0.042012,0,0,0,0,-0.0151761,0.00491503
1030,-3.1147e-12,4.66107e-38,-1.52245e-06,-3.18057e-12,4.66084e-38,-3.62841e-12,-1.06617e-13,0,0,-3.26739,0.255202,-0.0917286,0,0,0,0,0,0.182822,0.0552019,-1368083608,-1368083608,-1368083608,-1368083608,-1368083568,736879574,1459190530,-1368083568,-0.0692947,-0.261799,3.2467e-06,-1.5,nan,0,0,3,0.214257,0.0421054,0,0,0,0,-0.0151761,0.00491503
1040,-3.1147e-12,4.66107e-38,-1.52245e-06,-3.18057e-12,4.66084e-38,0,-1.06617e-13,0,0,-3.26739,0.255202,-0.0917286,0,0,0,0,0,0.182822,0.0552019,-1368083608,-1368083608,-1368083608,-1368083608,-1368083568,736879574,1459190530,-1368083568,-0.0694122,-0.261799,3.14394e-06,-1.5,nan,0,0,3,0.214014,0.042184,0,0,0,0,-0.0151761,0.00491503
1050,-3.1147e-12,4.66107e-38,-1.52245e-06,-3.18057e-12,4.66084e-38,-3.62841e-12,-1.06618e-13,0,0,-3.23672,0.271821,-0.111419,0,0,0,0,0,0.221806,0.0718214,-1368083608,-1368083608,-1368083608,-1368083608,-1368083568,736879574,1459190530,-1368083568,-0.0691096,-0.261799,2.97725e-06,-1.5,nan,0,0,3,0.217981,0.0426352,0,0,0,0,-0.0114183,0.00416367
1060,-3.1147e-12,4.66107e-38,-1.52245e-06,-3.18057e-12,4.66084e-38,0,-1.06618e-13,0,0,-3.23672,0.271821,-0.111419,0,0,0,0,0,0.221806,0.0718214,-1368083608,-1368083608,-1368083608,-1368083608,-1368083568,736879574,1459190530,-1368083568,-0.0811322,-0.261799,2.82513e-06,-1.5,nan,0,0,3,0.217295,0.0466853,0,0,0,0,-0.0115996,0.00875739
1070,-3.1147e-12,4.66107e-38,-1.52245e-06,-3.18057e-12,4.66084e-38,-3.62841e-12,-1.06618e-13,0,0,-3.23672,0.271821,-0.111419,0,0,0,0,0,0.221806,0.0718214,-1368083608,-1368083608,-1368083608,-1368083608,-1368083568,736879574,1459190530,-1368083568,-0.081407,-0.261799,2.70803e-06,-1.5,nan,0,0,3,0.217052,0.0468692,0,0,0,0,-0.0115996,0.00875739
1080,-3.1147e-12,4.66107e-38,-1.52245e-06,-3.18057e-12,4.66084e-38,0,-1.06619e-13,0,0,-3.24324,0.276842,-0.110449,0,0,0,0,0,0.215044,0.0768423,-1368083608,-1368083608,-1368083608,-1368083608,-1368083568,736879574,1459190530,-1368083568,-0.0892066,-0.261799,2.55303e-06,-1.5,nan,0,0,3,0.215077,0.0497136,0,0,0,0,-0.0145024,0.0114882
1090,-3.1147e-12,4.66107e-38,-1.52245e-06,-3.18057e-12,4.66084e-38,-3.62841e-12,-1.06619e-13,0,0,-3.23282,0.285304,-0.11773,0,0,0,0,0,0.228794,0.0853037,-1368083608,-1368083608,-1368083608,-1368083608,-1368083568,736879574,1459190530,-1368083568,-0.0962021,-0.261799,2.40708e-06,-1.5,nan,0,0,3,0.217389,0.0523004,0,0,0,0,-0.0115131,0.0138966
1100,-3.1147e-12,4.66107e-38,-1.52245e-06,-3.18057e-12,4.66084e-38,0,-1.06619e-13,0,0,-3.24974,0.279742,-0.107262,0,0,0,0,0,0.207916,0.0797418,-1368083608,-1368083608,-1368083608,-1368083608,-1368083568,736879574,1459190530,-1368083568,-0.114906,-0.261799,2.26948e-06,-1.5,nan,0,0,3,0.2128,0.0593802,0,0,0,0,-0.0155687,0.0201477
1110,-3.1147e-12,4.66107e-38,-1.52245e-06,-3.18057e-12,4.66084e-38,-3.62841e-12,-1.06619e-13,0,0,-3.2447,0.279461,-0.107643,0,0,0,0,0,0.213789,0.0794605,-1368083608,-1368083608,-1368083608,-1368083608,-1368083568,736879574,1459190530,-1368083568,-0.117043,-0.261799,2.16235e-06,-1.5,nan,0,0,3,0.213699,0.0603053,0,0,0,0,-0.0147862,0.0207288
1120,-3.1147e-12,4.66107e-38,-1.52245e-06,-3.18057e-12,4.66084e-38,0,-1.0662e-13,0,0,-3.2447,0.279461,-0.107643,0,0,0,0,0,0.213789,0.0794605,-1368083608,-1368083608,-1368083608,-1368083608,-1368083568,736879574,1459190530,-1368083568,-0.117756,-0.261799,2.06412e-06,-1.5,nan,0,0,3,0.213359,0.0607821,0,0,0,0,-0.0147862,0.0207288
1130,-3.1147e-12,4.66107e-38,-1.52245e-06,-3.18057e-12,4.66084e-38,-3.62841e-12,-1.0662e-13,0,0,-3.22344,0.263575,-0.119802,0,0,0,0,0,0.235936,0.0635754,-1368083608,-1368083608,-1368083608,-1368083608,-1368083568,736879574,1459190530,-1368083568,-0.12324,-0.261799,1.94598e-06,-1.5,nan,0,0,3,0.213302,0.0627636,0,0,0,0,-0.0140986,0.0226703
1140,-3.1147e-12,4.66107e-38,-1.52245e-06,-3.18057e-12,4.66084e-38,0,-1.0662e-13,0,0,-3.21886,0.25846,-0.115415,0,0,0,0,0,0.240402,0.0584598,-1368083608,-1368083608,-1368083608,-1368083608,-1368083568,736879574,1459190530,-1368083568,-0.120653,-0.261799,1.84238e-06,-1.5,nan,0,0,3,0.2124,0.0620109,0,0,0,0,-0.0153988,0.0215453
1150,-3.1147e-12,4.66107e-38,-1.52245e-06,-3.18057e-12,4.66084e-38,-3.62841e-12,-1.0662e-13,0,0,-3.22576,0.245425,-0.114001,0,0,0,0,0,0.229975,0.0454253,-1368083608,-1368083608,-1368083608,-1368083608,-1368083568,736879574,1459190530,-1368083568,-0.123826,-0.261799,1.74103e-06,-1.5,nan,0,0,3,0.21239,0.0629098,0,0,0,0,-0.0158221,0.0229529
1160,-3.1147e-12,4.66107e-38,-1.52245e-06,-3.18057e-12,4.66084e-38,0,-1.06621e-13,0,0,-3.22576,0.245425,-0.114001,0,0,0,0,0,0.229975,0.0454253,-1368083608,-1368083608,-1368083608,-1368083608,-1368083568,736879574,1459190530,-1368083568,-0.12434,-0.261799,1.68935e-06,-1.5,nan,0,0,3,0.212153,0.0632541,0,0,0,0,-0.0158221,0.0229529
1170,-3.1147e-12,4.66107e-38,-1.52245e-06,-3.18057e-12,4.66084e-38,-3.62841e-12,-1.06621e-13,0,0,-3.23027,0.245611,-0.113934,0,0,0,0,0,0.224715,0.0456113,-1368083608,-1368083608,-1368083608,-1368083608,-1368083568,736879574,1459190530,-1368083568,-0.124822,-0.261799,1.60274e-06,-1.5,nan,0,0,3,0.219922,0.0633733,0,0,0,0,-0.00690197,0.0231864
1180,-3.1147e-12,4.66107e-38,-1.52245e-06,-3.18057e-12,4.66084e-38,0,-1.06621e-13,0,0,-3.2559,0.247129,-0.0907312,0,0,0,0,0,0.194892,0.0471291,-1368083608,-1368083608,-1368083608,-1368083608,-1368083568,736879574,1459190530,-1368083568,-0.128854,-0.261799,1.51111e-06,-1.5,nan,0,0,3,0.213593,0.0646343,0,0,0,0,-0.013125,0.0248393
1190,-3.1147e-12,4.66107e-38,-1.52245e-06,-3.18057e-12,4.66084e-38,-3.62841e-12,-1.06622e-13,0,0,-3.21719,0.244294,-0.115646,0,0,0,0,0,0.239832,0.0442944,-1368083608,-1368083608,-1368083608,-1368083608,-1368083568,736879574,1459190530,-1368083568,-0.122644,-0.261799,1.43976e-06,-1.5,nan,0,0,3,0.219333,0.0620041,0,0,0,0,-0.00775004,0.0230851
1200,-3.1147e-12,4.66107e-38,-1.52245e-06,-3.18057e-12,4.66084e-38,0,-1.06622e-13,0,0,-3.21719,0.244294,-0.115646,0,0,0,0,0,0.239832,0.0442944,-1368083608,-1368083608,-1368083608,-1368083608,-1368083568,736879574,1459190530,-1368083568,-0.123334,-0.261799,1.38286e-06,-1.5,nan,0,0,3,0.219178,0.0624658,0,0,0,0,-0.00775004,0.0230851
1210,-3.1147e-12,4.66107e-38,-1.52245e-06,-3.18057e-12,4.66084e-38,-3.62841e-12,-1.06622e-13,0,0,-3.21719,0.244294,-0.115646,0,0,0,0,0,0.239832,0.0442944,-1368083608,-1368083608,-1368083608,-1368083608,-1368083568,736879574,1459190530,-1368083568,-0.106279,-0.261799,1.30371e-06,-1.5,nan,0,0,3,0.221626,0.0576875,0,0,0,0,-0.00512053,0.015457
1220,-3.1147e-12,4.66107e-38,-1.52245e-06,-3.18057e-12,4.66084e-38,0,-1.06622e-13,0,0,-3.24975,0.255784,-0.0955861,0,0,0,0,0,0.203646,0.0557837,-1368083608,-1368083608,-1368083608,-1368083608,-1368083568,736879574,1459190530,-1368083568,-0.10347,-0.261799,1.23422e-06,-1.5,nan,0,0,3,0.219913,0.0569095,0,0,0,0,-0.00501112,0.0141903
1230,-3.1147e-12,4.66107e-38,-1.52245e-06,-3.18057e-12,4.66084e-38,-3.62841e-12,-1.06623e-13,0,0,-3.20332,0.245652,-0.124485,0,0,0,0,0,0.256368,0.0456517,-1368083608,-1368083608,-1368083608,-1368083608,-1368083568,736879574,1459190530,-1368083568,-0.0983307,-0.261799,1.16873e-06,-1.5,nan,0,0,3,0.219168,0.0551657,0,0,0,0,-0.00526421,0.012241
1240,-3.1147e-12,4.66107e-38,-1.52245e-06,-3.18057e-12,4.66084e-38,0,-1.06623e-13,0,0,-3.20332,0.245652,-0.124485,0,0,0,0,0,0.256368,0.0456517,-1368083608,-1368083608,-1368083608,-1368083608,-1368083568,736879574,1459190530,-1368083568,-0.098733,-0.261799,1.11799e-06,-1.5,nan,0,0,3,0.219052,0.0554351,0,0,0,0,-0.00526421,0.012241
1250,-3.1147e-12,4.66107e-38,-1.52245e-06,-3.18057e-12,4.66084e-38,-3.62841e-12,-1.06627e-13,0,0,-3.24015,0.255717,-0.111834,0,0,0,0,0,0.214915,0.0557173,-1368083608,-1368083608,-1368083608,-1368083608,-1368083568,736879574,1459190530,-1368083568,-0.101106,-0.261799,1.0606e-06,-1.5,nan,0,0,3,0.216905,0.056252,0,0,0,0,-0.00778673,0.0131278
1260,-3.1147e-12,4.66107e-38,-1.52245e-06,-3.18057e-12,4.66084e-38,0,-1.06623e-13,0,0,-3.26339,0.269697,-0.107908,0,0,0,0,0,0.190093,0.0696974,-1368083608,-1368083608,-1368083608,-1368083608,-1368083568,736879574,1459190530,-1368083568,-0.10231,-0.261799,1.00199e-06,-1.5,nan,0,0,3,0.214526,0.0569633,0,0,0,0,-0.00969919,0.0132364
1270,-3.1147e-12,4.66107e-38,-1.52245e-06,-3.18057e-12,4.66084e-38,-3.62841e-12,-1.06628e-13,0,0,-3.24111,0.272093,-0.111129,0,0,0,0,0,0.216701,0.072093,-1368083608,-1368083608,-1368083608,-1368083608,-1368083568,736879574,1459190530,-1368083568,-0.106288,-0.261799,9.44635e-07,-1.5,nan,0,0,3,0.217841,0.0583301,0,0,0,0,-0.00693524,0.0147257
1280,-3.1147e-12,4.66107e-38,-1.52245e-06,-3.18057e-12,4.66084e-38,0,-1.06628e-13,0,0,-3.24287,0.264848,-0.103307,0,0,0,0,0,0.213341,0.0648479,-1368083608,-1368083608,-1368083608,-1368083608,-1368083568,736879574,1459190530,-1368083568,-0.122371,-0.261799,8.98225e-07,-1.5,nan,0,0,3,0.215027,0.0646734,0,0,0,0,-0.00518917,0.0198073
1290,-3.1147e-12,4.66107e-38,-1.52245e-06,-3.18057e-12,4.66084e-38,-3.62841e-12,-1.06627e-13,0,0,-3.24287,0.264848,-0.103307,0,0,0,0,0,0.213341,0.0648479,-1368083608,-1368083608,-1368083608,-1368083608,-1368083568,736879574,1459190530,-1368083568,-0.122845,-0.261799,8.69814e-07,-1.5,nan,0,0,3,0.214944,0.0649903,0,0,0,0,-0.00518917,0.0198073
1300,-3.11472e-12,4.65661e-38,4.65825e-38,-3.18057e-12,4.66084e-38,0,-1.06628e-13,0,0,-3.28547,0.270379,-0.0788148,0,0,0,0,0,0.164277,0.0703793,-1368083608,-1368083608,-1368083608,-1368083608,-1368083568,736879574,1459190530,-1368083568,-0.12498,-0.261799,8.23508e-07,-1.5,nan,0,0,3,0.216653,0.0663783,0,0,0,0,0.000423108,0.0198548
1310,-3.1147e-12,4.66107e-38,-1.52245e-06,-3.18057e-12,4.66084e-38,-3.62841e-12,-1.06627e-13,0,0,-3.28932,0.247573,-0.0740997,0,0,0,0,0,0.155719,0.0475734,-1368083608,-1368083608,-1368083608,-1368083608,-1368083568,736879574,1459190530,-1368083568,-0.121822,-0.261799,7.78228e-07,-1.5,nan,0,0,3,0.214931,0.0650252,0,0,0,0,-0.00153383,0.0189808
1320,-3.1147e-12,4.66107e-38,-1.52245e-06,-3.18057e-12,4.66084e-38,0,-1.06623e-13,0,0,-3.28932,0.247573,-0.0740997,0,0,0,0,0,0.155719,0.0475734,-1368083608,-1368083608,-1368083608,-1368083608,-1368083568,736879574,1459190530,-1368083568,-0.122418,-0.261799,7.45939e-07,-1.5,nan,0,0,3,0.214898,0.0654238,0,0,0,0,-0.00153383,0.0189808
1330,-3.1147e-12,4.66107e-38,-1.52245e-06,-3.18057e-12,4.66084e-38,-3.62841e-12,-1.06624e-13,0,0,-3.29603,0.247889,-0.0731569,0,0,0,0,0,0.1479,0.0478886,-1368083608,-1368083608,-1368083608,-1368083608,-1368083568,736879574,1459190530,-1368083568,-0.109593,-0.261799,7.09158e-07,-1.5,nan,0,0,3,0.213835,0.0607927,0,0,0,0,-0.00356367,0.0144373
1340,-3.1147e-12,4.66107e-38,-1.52245e-06,-3.18057e-12,4.66084e-38,0,-1.06624e-13,0,0,-3.27818,0.246527,-0.084294,0,0,0,0,0,0.168621,0.0465269,-1368083608,-1368083608,-1368083608,-1368083608,-1368083568,736879574,1459190530,-1368083568,-0.100451,-0.261799,6.70012e-07,-1.5,nan,0,0,3,0.209533,0.0587661,0,0,0,0,-0.0120163,0.00973425
1350,-3.1147e-12,4.66107e-38,-1.52245e-06,-3.18057e-12,4.66084e-38,-3.62841e-12,-1.06624e-13,0,0,-3.29875,0.243524,-0.0770424,0,0,0,0,0,0.143938,0.0435245,-1368083608,-1368083608,-1368083608,-1368083608,-1368083568,736879574,1459190530,-1368083568,-0.079711,-0.261799,6.31663e-07,-1.5,nan,0,0,3,0.190804,0.0536564,0,0,0,0,-0.0368063,-0.000347274
1360,-3.1147e-12,4.66107e-38,-1.52245e-06,-3.18057e-12,4.66084e-38,0,-1.06625e-13,0,0,-3.25871,0.250693,-0.112735,0,0,0,0,0,0.192216,0.0506926,-1368083608,-1368083608,-1368083608,-1368083608,-1368083568,736879574,1459190530,-1368083568,-0.065497,-0.261799,6.00617e-07,-1.5,nan,0,0,3,0.191665,0.0495839,0,0,0,0,-0.0347124,-0.00660089
1370,-3.1147e-12,4.66107e-38,-1.52245e-06,-3.18057e-12,4.66084e-38,-3.62841e-12,-1.06625e-13,0,0,-3.25871,0.250693,-0.112735,0,0,0,0,0,0.192216,0.0506926,-1368083608,-1368083608,-1368083608,-1368083608,-1368083568,736879574,1459190530,-1368083568,-0.0652998,-0.261799,5.769e-07,-1.5,nan,0,0,3,0.19097,0.0494519,0,0,0,0,-0.0347124,-0.00660089
1380,-3.1147e-12,4.66107e-38,-1.52245e-06,-3.18057e-12,4.66084e-38,0,-1.06632e-13,0,0,-3.29181,0.257951,-0.0946657,0,0,0,0,0,0.154631,0.0579513,-1368083608,-1368083608,-1368083608,-1368083608,-1368083568,736879574,1459190530,-1368083568,-0.057788,-0.261799,5.43922e-07,-1.5,nan,0,0,3,0.1875,0.0498146,0,0,0,0,-0.0383261,-0.012796
1390,-3.1147e-12,4.66107e-38,-1.52245e-06,-3.18057e-12,4.66084e-38,-3.62841e-12,-1.06632e-13,0,0,-3.30274,0.230377,-0.0869581,0,0,0,0,0,0.136935,0.0303775,-1368083608,-1368083608,-1368083608,-1368083608,-1368083568,736879574,1459190530,-1368083568,-0.0300693,-0.261799,5.14931e-07,-1.5,nan,0,0,3,0.16714,0.0430251,0,0,0,0,-0.0646663,-0.0263154
1400,-3.1147e-12,4.66107e-38,-1.52245e-06,-3.18057e-12,4.66084e-38,0,-1.06625e-13,0,0,-3.30274,0.230377,-0.0869581,0,0,0,0,0,0.136935,0.0303775,-1368083608,-1368083608,-1368083608,-1368083608,-1368083568,736879574,1459190530,-1368083568,-0.0294403,-0.261799,4.98643e-07,-1.5,nan,0,0,3,0.166105,0.0426041,0,0,0,0,-0.0646663,-0.0263154
1410,-3.1147e-12,4.66107e-38,-1.52245e-06,-3.18057e-12,4.66084e-38,-3.62841e-12,-1.06633e-13,0,0,-3.26454,0.22542,-0.100298,0,0,0,0,0,0.180891,0.02542,-1368083608,-1368083608,-1368083608,-1368083608,-1368083568,736879574,1459190530,-1368083568,-0.0145796,-0.261799,4.78936e-07,-1.5,nan,0,0,3,0.168318,0.0395278,0,0,0,0,-0.0603627,-0.0342114
1420,-3.1147e-12,4.66107e-38,-1.52245e-06,-3.18057e-12,4.66084e-38,0,-1.06633e-13,0,0,-3.25455,0.226578,-0.116662,0,0,0,0,0,0.19282,0.0265781,-1368083608,-1368083608,-1368083608,-1368083608,-1368083568,736879574,1459190530,-1368083568,-0.00716198,-0.261799,4.37446e-07,-1.5,nan,0,0,3,0.178334,0.0365718,0,0,0,0,-0.0461362,-0.0365201
1430,-3.1147e-12,4.66107e-38,-1.52245e-06,-3.18057e-12,4.66084e-38,-3.62841e-12,-1.06633e-13,0,0,-3.21794,0.233906,-0.154046,0,0,0,0,0,0.237103,0.0339063,-1368083608,-1368083608,-1368083608,-1368083608,-1368083568,736879574,1459190530,-1368083568,-0.00116554,-0.261799,4.1244e-07,-1.5,nan,0,0,3,0.177336,0.0346864,0,0,0,0,-0.0449995,-0.038966
1440,-3.1147e-12,4.66107e-38,-1.52245e-06,-3.18057e-12,4.66084e-38,0,-1.06634e-13,0,0,-3.28182,0.252562,-0.124928,0,0,0,0,0,0.165416,0.0525624,-1368083608,-1368083608,-1368083608,-1368083608,-1368083568,736879574,1459190530,-1368083568,0.00109421,-0.261799,3.90457e-07,-1.5,nan,0,0,3,0.16424,0.0334298,0,0,0,0,-0.0700344,-0.0392601
1450,-3.1147e-12,4.66107e-38,-1.52245e-06,-3.18057e-12,4.66084e-38,-3.62841e-12,-1.06625e-13,0,0,-3.26373,0.251573,-0.147361,0,0,0,0,0,0.186476,0.0515726,-1368083608,-1368083608,-1368083608,-1368083608,-1368083568,736879574,1459190530,-1368083568,-0.0074297,-0.261799,3.61493e-07,-1.5,nan,0,0,3,0.171206,0.0348105,0,0,0,0,-0.0596226,-0.03429
1460,-3.1147e-12,4.66107e-38,-1.52245e-06,-3.18057e-12,4.66084e-38,0,-1.06626e-13,0,0,-3.2671,0.258691,-0.14846,0,0,0,0,0,0.183783,0.0586906,-1368083608,-1368083608,-1368083608,-1368083608,-1368083568,736879574,1459190530,-1368083568,-0.0172346,-0.261799,3.31553e-07,-1.5,nan,0,0,3,0.167665,0.0364741,0,0,0,0,-0.0671319,-0.0286596
1470,-3.1147e-12,4.66107e-38,-1.52245e-06,-3.18057e-12,4.66084e-38,-3.62841e-12,-1.06626e-13,0,0,-3.2735,0.261541,-0.145563,0,0,0,0,0,0.176772,0.0615413,-1368083608,-1368083608,-1368083608,-1368083608,-1368083568,736879574,1459190530,-1368083568,-0.0508987,-0.261799,3.11948e-07,-1.5,nan,0,0,3,0.172031,0.0459173,0,0,0,0,-0.0629278,-0.0136165
1480,-3.1147e-12,4.66107e-38,-1.52245e-06,-3.18057e-12,4.66084e-38,0,-1.06626e-13,0,0,-3.23777,0.257151,-0.161329,0,0,0,0,0,0.217956,0.0571508,-1368083608,-1368083608,-1368083608,-1368083608,-1368083568,736879574,1459190530,-1368083568,-0.0832297,-0.261799,2.95322e-07,-1.5,nan,0,0,3,0.171815,0.0521474,0,0,0,0,-0.0630765,0.00409362
1490,-3.1147e-12,4.66107e-38,-1.52245e-06,-3.18057e-12,4.66084e-38,-3.62841e-12,-1.06634e-13,0,0,-3.21565,0.266709,-0.169499,0,0,0,0,0,0.245649,0.0667089,-1368083608,-1368083608,-1368083608,-1368083608,-1368083568,736879574,1459190530,-1368083568,-0.0958694,-0.261799,2.78439e-07,-1.5,nan,0,0,3,0.171816,0.0554221,0,0,0,0,-0.0626751,0.0100531
1500,-3.1147e-12,4.66107e-38,-1.52245e-06,-3.18057e-12,4.66084e-38,0,-1.06634e-13,0,0,-3.24512,0.292501,-0.14449,0,0,0,0,0,0.215619,0.092501,-1368083608,-1368083608,-1368083608,-1368083608,-1368083568,736879574,1459190530,-1368083568,-0.102224,-0.261799,2.62588e-07,-1.5,nan,0,0,3,0.170608,0.0572906,0,0,0,0,-0.0589151,0.0127942
1510,-3.1147e-12,4.66107e-38,-1.52245e-06,-3.18057e-12,4.66084e-38,-3.62841e-12,-1.06634e-13,0,0,-3.24512,0.292501,-0.14449,0,0,0,0,0,0.215619,0.092501,-1368083608,-1368083608,-1368083608,-1368083608,-1368083568,736879574,1459190530,-1368083568,-0.102568,-0.261799,2.53251e-07,-1.5,nan,0,0,3,0.169547,0.0575209,0,0,0,0,-0.0589151,0.0127942
1520,-3.1147e-12,4.66107e-38,-1.52245e-06,-3.18057e-12,4.66084e-38,0,-1.06635e-13,0,0,-3.24668,0.288002,-0.134576,0,0,0,0,0,0.212983,0.0880018,-1368083608,-1368083608,-1368083608,-1368083608,-1368083568,736879574,1459190530,-1368083568,-0.107147,-0.261799,2.44246e-07,-1.5,nan,0,0,3,0.176436,0.0593629,0,0,0,0,-0.0454332,0.0141996
1530,-3.1147e-12,4.66107e-38,-1.52245e-06,-3.18057e-12,4.66084e-38,-3.62841e-12,-1.06635e-13,0,0,-3.24668,0.288002,-0.134576,0,0,0,0,0,0.212983,0.0880018,-1368083608,-1368083608,-1368083608,-1368083608,-1368083568,736879574,1459190530,-1368083568,-0.107444,-0.261799,2.3748e-07,-1.5,nan,0,0,3,0.1758,0.0595617,0,0,0,0,-0.0454332,0.0141996
1540,-3.1147e-12,4.66107e-38,-1.52245e-06,-3.18057e-12,4.66084e-38,0,-1.06635e-13,0,0,-3.21779,0.284992,-0.136606,0,0,0,0,0,0.246406,0.0849917,-1368083608,-1368083608,-1368083608,-1368083608,-1368083568,736879574,1459190530,-1368083568,-0.116821,-0.261799,2.25304e-07,-1.5,nan,0,0,3,0.179705,0.0626304,0,0,0,0,-0.0282276,0.017886
1550,-3.1147e-12,4.66107e-38,-1.52245e-06,-3.18057e-12,4.66084e-38,-3.62841e-12,-1.06635e-13,0,0,-3.22042,0.294544,-0.137888,0,0,0,0,0,0.24501,0.0945438,-1368083608,-1368083608,-1368083608,-1368083608,-1368083568,736879574,1459190530,-1368083568,-0.123735,-0.261799,2.12424e-07,-1.5,nan,0,0,3,0.190257,0.0644541,0,0,0,0,-0.00717695,0.0211082
1560,-3.1147e-12,4.66107e-38,-1.52245e-06,-3.18057e-12,4.66084e-38,0,-1.06636e-13,0,0,-3.20782,0.300354,-0.127781,0,0,0,0,0,0.260867,0.100354,-1368083608,-1368083608,-1368083608,-1368083608,-1368083568,736879574,1459190530,-1368083568,-0.130499,-0.261799,2.01162e-07,-1.5,nan,0,0,3,0.216691,0.0668329,0,0,0,0,0.0323898,0.0235779
1570,-3.1147e-12,4.66107e-38,-1.52245e-06,-3.18057e-12,4.66084e-38,-3.62841e-12,-1.06636e-13,0,0,-3.20782,0.300354,-0.127781,0,0,0,0,0,0.260867,0.100354,-1368083608,-1368083608,-1368083608,-1368083608,-1368083568,736879574,1459190530,-1368083568,-0.131204,-0.261799,1.93211e-07,-1.5,nan,0,0,3,0.217339,0.0673045,0,0,0,0,0.0323898,0.0235779
1580,-3.1147e-12,4.66107e-38,-1.52245e-06,-3.18057e-12,4.66084e-38,0,-1.06636e-13,0,0,-3.22147,0.296362,-0.12535,0,0,0,0,0,0.244106,0.0963622,-1368083608,-1368083608,-1368083608,-1368083608,-1368083568,736879574,1459190530,-1368083568,-0.14675,-0.261799,1.83293e-07,-1.5,nan,0,0,3,0.219228,0.0730278,0,0,0,0,0.0338119,0.0289588
1590,-3.1147e-12,4.66107e-38,-1.52245e-06,-3.18057e-12,4.66084e-38,-3.62841e-12,-1.06637e-13,0,0,-3.22068,0.308624,-0.112236,0,0,0,0,0,0.247219,0.108624,-1368083608,-1368083608,-1368083608,-1368083608,-1368083568,736879574,1459190530,-1368083568,-0.152787,-0.261799,1.73175e-07,-1.5,nan,0,0,3,0.246329,0.0748876,0,0,0,0,0.101183,0.0314659
1600,-3.1147e-12,4.66107e-38,-1.52245e-06,-3.18057e-12,4.66084e-38,0,-1.06637e-13,0,0,-3.22604,0.325811,-0.119204,0,0,0,0,0,0.243989,0.125811,-1368083608,-1368083608,-1368083608,-1368083608,-1368083568,736879574,1459190530,-1368083568,-0.225421,-0.261799,1.63654e-07,-1.5,nan,0,0,3,0.248784,0.0964544,0,0,0,0,0.101595,0.062553
1610,-3.1147e-12,4.66107e-38,-1.52245e-06,-3.18057e-12,4.66084e-38,-3.62841e-12,-1.06637e-13,0,0,-3.24111,0.327023,-0.125388,0,0,0,0,0,0.226469,0.127023,-1368083608,-1368083608,-1368083608,-1368083608,-1368083568,736879574,1459190530,-1368083568,-0.248229,-0.261799,1.54974e-07,-1.5,nan,0,0,3,0.248343,0.103585,0,0,0,0,0.101057,0.0719021
1620,-3.1147e-12,4.66107e-38,-1.52245e-06,-3.18057e-12,4.66084e-38,0,-1.06637e-13,0,0,-3.24111,0.327023,-0.125388,0,0,0,0,0,0.226469,0.127023,-1368083608,-1368083608,-1368083608,-1368083608,-1368083568,736879574,1459190530,-1368083568,-0.25027,-0.261799,1.49154e-07,-1.5,nan,0,0,3,0.250263,0.104951,0,0,0,0,0.101057,0.0719021
1630,-3.1147e-12,4.66107e-38,-1.52245e-06,-3.18057e-12,4.66084e-38,-3.62841e-12,-1.06638e-13,0,0,-3.24111,0.327023,-0.125388,0,0,0,0,0,0.226469,0.127023,-1368083608,-1368083608,-1368083608,-1368083608,-1368083568,736879574,1459190530,-1368083568,-0.261799,-0.261799,1.4092e-07,-1.5,nan,0,0,3,0.252682,0.111474,0,0,0,0,0.100477,0.0816081
1640,-3.1147e-12,4.66107e-38,-1.52245e-06,-3.18057e-12,4.66084e-38,0,-1.06638e-13,0,0,-3.2224,0.346031,-0.146144,0,0,0,0,0,0.251884,0.146031,-1368083608,-1368083608,-1368083608,-1368083608,-1368083568,736879574,1459190530,-1368083568,-0.261799,-0.261799,1.32854e-07,-1.5,nan,0,0,3,0.254686,0.11738,0,0,0,0,0.106199,0.0884872
1650,-3.1147e-12,4.66107e-38,-1.52245e-06,-3.18057e-12,4.66084e-38,-3.62841e-12,-1.06638e-13,0,0,-3.23039,0.350842,-0.151203,0,0,0,0,0,0.243332,0.150842,-1368083608,-1368083608,-1368083608,-1368083608,-1368083568,736879574,1459190530,-1368083568,-0.261799,-0.261799,1.26327e-07,-1.5,nan,0,0,3,0.258272,0.123997,0,0,0,0,0.112813,0.0977355
1660,-3.1147e-12,4.66107e-38,-1.52245e-06,-3.18057e-12,4.66084e-38,0,-1.06638e-13,0,0,-3.23039,0.350842,-0.151203,0,0,0,0,0,0.243332,0.150842,-1368083608,-1368083608,-1368083608,-1368083608,-1368083568,736879574,1459190530,-1368083568,-0.261799,-0.261799,1.21086e-07,-1.5,nan,0,0,3,0.260641,0.12605,0,0,0,0,0.112813,0.0977355
1670,-3.1147e-12,4.66107e-38,-1.52245e-06,-3.18057e-12,4.66084e-38,-3.62841e-12,-1.06639e-13,0,0,-3.19111,0.347449,-0.181251,0,0,0,0,0,0.288963,0.147449,-1368083608,-1368083608,-1368083608,-1368083608,-1368083568,736879574,1459190530,-1368083568,-0.261799,-0.261799,1.14632e-07,-1.5,nan,0,0,3,0.264895,0.138134,0,0,0,0,0.114795,0.127611
1680,-3.11472e-12,4.65661e-38,4.65825e-38,-3.18057e-12,4.66084e-38,0,-1.06639e-13,0,0,-3.25089,0.365433,-0.167564,0,0,0,0,0,0.221792,0.165433,-1368083608,-1368083608,-1368083608,-1368083608,-1368083568,736879574,1459190530,-1368083568,-0.261799,-0.261799,1.08079e-07,-1.5,nan,0,0,3,0.26769,0.150949,0,0,0,0,0.115667,0.149155
1690,-3.1147e-12,4.66107e-38,-1.52245e-06,-3.18057e-12,4.66084e-38,-3.62841e-12,-1.06639e-13,0,0,-3.24865,0.372299,-0.170948,0,0,0,0,0,0.225643,0.172299,-1368083608,-1368083608,-1368083608,-1368083608,-1368083568,736879574,1459190530,-1368083568,-0.261799,-0.261799,1.01901e-07,-1.5,nan,0,0,3,0.271135,0.16103,0,0,0,0,0.116382,0.160519
1700,-3.1147e-12,4.66107e-38,-1.52245e-06,-3.18057e-12,4.66084e-38,0,-1.0664e-13,0,0,-3.21818,0.359324,-0.186874,0,0,0,0,0,0.259224,0.159324,-1368083608,-1368083608,-1368083608,-1368083608,-1368083568,736879574,1459190530,-1368083568,-0.261799,-0.261799,9.68922e-08,-1.5,nan,0,0,3,0.259824,0.16572,0,0,0,0,0.0964879,0.164808
1710,-3.1147e-12,4.66107e-38,-1.52245e-06,-3.18057e-12,4.66084e-38,-3.62841e-12,-1.0664e-13,0,0,-3.21818,0.359324,-0.186874,0,0,0,0,0,0.259224,0.159324,-1368083608,-1368083608,-1368083608,-1368083608,-1368083568,736879574,1459190530,-1368083568,-0.261799,-0.261799,9.30628e-08,-1.5,nan,0,0,3,0.261753,0.169016,0,0,0,0,0.0964879,0.164808
1720,-3.1147e-12,4.66107e-38,-1.52245e-06,-3.18057e-12,4.66084e-38,0,-1.0664e-13,0,0,-3.21818,0.359324,-0.186874,0,0,0,0,0,0.259224,0.159324,-1368083608,-1368083608,-1368083608,-1368083608,-1368083568,736879574,1459190530,-1368083568,-0.261799,-0.261799,8.86568e-08,-1.5,nan,0,0,3,0.264069,0.172971,0,0,0,0,0.0964879,0.164808
1730,-3.1147e-12,4.66107e-38,-1.52245e-06,-3.18057e-12,4.66084e-38,-3.62841e-12,-1.0664e-13,0,0,-3.25666,0.373106,-0.164893,0,0,0,0,0,0.216356,0.173106,-1368083608,-1368083608,-1368083608,-1368083608,-1368083568,736879574,1459190530,-1368083568,-0.261799,-0.261799,8.39545e-08,-1.5,nan,0,0,3,0.268139,0.176181,0,0,0,0,0.0985309,0.163539
1740,-3.1147e-12,4.66107e-38,-1.52245e-06,-3.18057e-12,4.66084e-38,0,-1.06641e-13,0,0,-3.25666,0.373106,-0.164893,0,0,0,0,0,0.216356,0.173106,-1368083608,-1368083608,-1368083608,-1368083608,-1368083568,736879574,1459190530,-1368083568,-0.261799,-0.261799,8.06394e-08,-1.5,nan,0,0,3,0.27011,0.179451,0,0,0,0,0.0985309,0.163539
1750,-3.1147e-12,4.66107e-38,-1.52245e-06,-3.18057e-12,4.66084e-38,-3.62841e-12,-1.06641e-13,0,0,-3.21672,0.352018,-0.1759,0,0,0,0,0,0.259637,0.152018,-1368083608,-1368083608,-1368083608,-1368083608,-1368083568,736879574,1459190530,-1368083568,-0.261799,-0.261799,7.65001e-08,-1.5,nan,0,0,3,0.26385,0.184271,0,0,0,0,0.0786386,0.168008
1760,-3.1147e-12,4.66107e-38,-1.52245e-06,-3.18057e-12,4.66084e-38,0,-1.06641e-13,0,0,-3.22662,0.328033,-0.155504,0,0,0,0,0,0.243698,0.128033,-1368083608,-1368083608,-1368083608,-1368083608,-1368083568,736879574,1459190530,-1368083568,-0.261799,-0.261799,7.16761e-08,-1.5,nan,0,0,3,0.270397,0.188514,0,0,0,0,0.0916762,0.16599
1770,-3.1147e-12,4.66107e-38,-1.52245e-06,-3.18057e-12,4.66084e-38,-3.62841e-12,-1.06641e-13,0,0,-3.28373,0.30511,-0.11285,0,0,0,0,0,0.172449,0.10511,-1368083608,-1368083608,-1368083608,-1368083608,-1368083568,736879574,1459190530,-1368083568,-0.261799,-0.261799,6.82918e-08,-1.5,nan,0,0,3,0.265889,0.191189,0,0,0,0,0.0778042,0.164606
1780,-3.1147e-12,4.66107e-38,-1.52245e-06,-3.18057e-12,4.66084e-38,0,-1.06642e-13,0,0,-3.28373,0.30511,-0.11285,0,0,0,0,0,0.172449,0.10511,-1368083608,-1368083608,-1368083608,-1368083608,-1368083568,736879574,1459190530,-1368083568,-0.261799,-0.261799,6.6668e-08,-1.5,nan,0,0,3,0.266823,0.193164,0,0,0,0,0.0778042,0.164606
1790,-3.1147e-12,4.66107e-38,-1.52245e-06,-3.18057e-12,4.66084e-38,-3.62841e-12,-1.06642e-13,0,0,-3.25496,0.288705,-0.123666,0,0,0,0,0,0.203367,0.0887051,-1368083608,-1368083608,-1368083608,-1368083608,-1368083568,736879574,1459190530,-1368083568,-0.261799,-0.261799,6.3377e-08,-1.5,nan,0,0,3,0.248554,0.197001,0,0,0,0,0.0467884,0.165715
1800,-3.1147e-12,4.66107e-38,-1.52245e-06,-3.18057e-12,4.66084e-38,0,-1.06642e-13,0,0,-3.18702,0.24369,-0.154795,0,0,0,0,0,0.275151,0.0436901,-1368083608,-1368083608,-1368083608,-1368083608,-1368083568,736879574,1459190530,-1368083568,-0.261799,-0.261799,5.97691e-08,-1.5,nan,0,0,3,0.267549,0.199502,0,0,0,0,0.070288,0.161799
1810,-3.1147e-12,4.66107e-38,-1.52245e-06,-3.18057e-12,4.66084e-38,-3.62841e-12,-1.06643e-13,0,0,-3.18702,0.24369,-0.154795,0,0,0,0,0,0.275151,0.0436901,-1368083608,-1368083608,-1368083608,-1368083608,-1368083568,736879574,1459190530,-1368083568,-0.261799,-0.261799,5.75245e-08,-1.5,nan,0,0,3,0.268884,0.202576,0,0,0,0,0.070288,0.161799
1820,-3.1147e-12,4.66107e-38,-1.52245e-06,-3.18057e-12,4.66084e-38,0,-1.06643e-13,0,0,-3.23365,0.240255,-0.133243,0,0,0,0,0,0.219784,0.0402546,-1368083608,-1368083608,-1368083608,-1368083608,-1368083568,736879574,1459190530,-1368083568,-0.261799,-0.261799,5.45717e-08,-1.5,nan,0,0,3,0.249729,0.202989,0,0,0,0,0.0365395,0.154471
