timestamp,A_x,A_y,A_z,P,Q,R,Phi,Theta,Psi,poseX,poseY,poseZ,state_X,state_Y,state_Z,state_VzB,state_Bx,state_By,state_Bz,p1_x,p1_y,p2_x,p2_y,p3_x,p3_y,p4_x,p4_y,roll,pitch,yaw,alt,targetHeading,highLevelState,lowLevelState,gateNumber,filtered_x,filtered_y,x_OT,y_OT,vx_OT,vy_OT,filtered_vx,filtered_vygateArearansac_corr_x,ransac_corr_y,ransac_corr_vx,ransac_corr_vy,detectionTimeStamp
5504,0,0,0,0,0,0,0,0,0,0,0,0,0,0,0,0,0,0,0,0,0,0,0,0,0,0,0,0,-0.261799,0,-1.5,nan,0,0,0,0,0,0,0,0,0,0,0,1.9603e-19,0,0,0,0,0
5521,0,0,0,0,0,0,0,0,0,0,0,0,0,0,0,0,0,0,0,0,0,0,0,0,0,0,0,0,-0.261799,0,-1.5,nan,0,0,0,0,0,0,0,0,0,0,0,1.9603e-19,0,0,0,0,0
6110,-3.72299e-12,2.2938e-38,-1.58113e-06,-3.85292e-12,2.29368e-38,-3.40903e-12,-1.13703e-13,0,0,0,0,0,0,0,0,0,0,0,0,0,0,0,0,0,0,0,0,0,-0.261799,0,-1.5,nan,0,0,0,0,0,0,0,0,0,0,0,1.9603e-19,0,0,0,0,0
6220,-3.72299e-12,2.2938e-38,-1.58113e-06,-3.85292e-12,2.29368e-38,0,-1.13703e-13,0,0,0,0,0,0,0,0,0,0,0,0,0,0,0,0,0,0,0,0,0,-0.261799,0,-1.5,nan,0,0,0,0,0,0,0,0,0,0,0,1.9603e-19,0,0,0,0,0
6362,-3.72299e-12,2.2938e-38,-1.58113e-06,-3.85292e-12,2.29368e-38,-3.40903e-12,-1.13704e-13,0,0,0,0,0,0,0,0,0,0,0,0,0,0,0,0,0,0,0,0,0,-0.261799,0,-1.5,nan,0,0,0,0,0,0,0,0,0,0,0,1.9603e-19,0,0,0,0,0
6453,-3.72299e-12,2.2938e-38,-1.58113e-06,-3.85292e-12,2.29368e-38,0,-1.13704e-13,0,0,-3.60968,0.0187768,0.431819,0,0,0,0,0,0.390318,0.0187768,255,-57,255,-57,379,-62,257,68,0,-0.261799,0,-1.5,nan,0,0,0,0,0,0,0,0,0,0,0,16380,0,0,0,0,6445
6560,-3.72299e-12,2.2938e-38,-1.58113e-06,-3.85292e-12,2.29368e-38,-3.40903e-12,-1.13705e-13,0,0,-3.58901,0.0190179,0.413079,0,0,0,0,0,0.410992,0.0190179,255,-57,255,-57,379,-62,257,71,0,-0.261799,0,-1.5,nan,0,0,0,0,0,0,0,0,0,0,0,16758,0,0,0,0,6552
6604,-3.72299e-12,2.2938e-38,-1.58113e-06,-3.85292e-12,2.29368e-38,0,-1.13705e-13,0,0,-3.60576,0.0299343,0.427474,0,0,0,0,0,0.394244,0.0299343,252,-56,252,-56,377,-62,257,68,0,-0.261799,0,-1.5,nan,0,0,0,0,0,0,0,0,0,0,0,16770,0,0,0,0,6596
6621,-3.72299e-12,2.2938e-38,-1.58113e-06,-3.85292e-12,2.29368e-38,-3.40903e-12,-1.13706e-13,0,0,-3.609,0.0236801,0.422371,0,0,0,0,0,0.390996,0.0236801,255,-56,255,-56,377,-62,257,71,0,-0.261799,0,-1.5,nan,0,0,0,0,0,0,0,0,0,0,0,16758,0,0,0,0,6613
6641,-3.72299e-12,2.2938e-38,-1.58113e-06,-3.85292e-12,2.29368e-38,0,-1.13706e-13,0,0,-3.609,0.0236801,0.422371,0,0,0,0,0,0.390996,0.0236801,255,-56,255,-56,377,-62,257,71,0,-0.261799,0,-1.5,nan,0,0,0,0,0,0,0,0,0,0,0,16758,0,0,0,0,6613
6750,-3.72299e-12,2.2938e-38,-1.58113e-06,-3.85292e-12,2.29368e-38,-3.40903e-12,-1.13707e-13,0,0,-3.59044,0.0193281,0.417934,0,0,0,0,0,0.409557,0.0193281,255,-57,255,-57,378,-64,258,71,0,-0.261799,0,-1.5,nan,0,0,0,0,0,0,0,0,0,0,0,17010,0,0,0,0,6744
6821,-3.72299e-12,2.2938e-38,-1.58113e-06,-3.85292e-12,2.29368e-38,0,-1.13708e-13,0,0,-3.6093,0.0131169,0.424576,0,0,0,0,0,0.3907,0.0131169,258,-55,258,-55,379,-64,257,71,-0.0409448,-0.261799,0,-1.5,nan,0,0,0,0.389375,0.0194129,0,0,0,0,-0.0186533,0.00107349,16740,0.3907,0.0193367,-0.0186533,0.00107349,6806
6857,-3.72299e-12,2.2938e-38,-1.58113e-06,-3.85292e-12,2.29368e-38,-3.40903e-12,-1.13708e-13,0,0,-3.59286,0.0296968,0.411133,0,0,0,0,0,0.407138,0.0296968,252,-57,252,-57,377,-60,257,71,-0.0410235,-0.261799,0,-1.5,nan,0,0,0,0.408917,0.0194515,0,0,0,0,0.0494028,0.00107349,16899,0.407138,0.0194129,0.0494028,0.00107349,6846
6881,-3.72299e-12,2.2938e-38,-1.58113e-06,-3.85292e-12,2.29368e-38,0,-1.13714e-13,0,0,-3.58976,0.0173791,0.407568,0,0,0,0,0,0.410243,0.0173791,255,-54,255,-54,376,-62,257,71,-0.0326406,-0.261799,0,-1.5,nan,0,0,0,0.41032,0.0179892,0,0,0,0,0.050351,-0.00308323,17290,0.410068,0.0180046,0.050351,-0.00308323,6877
6932,-3.72299e-12,2.2938e-38,-1.58113e-06,-3.85292e-12,2.29368e-38,-3.40903e-12,-1.13714e-13,0,0,-3.5763,0.0319677,0.408293,0,0,0,0,0,0.4237,0.0319677,252,-57,252,-57,376,-62,256,70,-0.0475602,-0.261799,0,-1.5,nan,0,0,0,0.412938,0.021265,0,0,0,0,0.050351,0.00325975,17160,0.41032,0.0210955,0.050351,0.00325975,6920
7047,-3.72299e-12,2.2938e-38,-1.58113e-06,-3.85292e-12,2.29368e-38,0,-1.13709e-13,0,0,-3.60182,0.0192122,0.429359,0,0,0,0,0,0.398181,0.0192122,255,-56,255,-56,379,-64,257,68,-0.0327342,-0.261799,0,-1.5,nan,0,0,0,0.400148,0.0187256,0,0,0,0,0.0106082,-0.00416525,16632,0.400074,0.0187548,0.0106082,-0.00416525,7042
7090,-3.72299e-12,2.2938e-38,-1.58113e-06,-3.85292e-12,2.29368e-38,-3.40903e-12,-1.1371e-13,0,0,-3.58504,0.0278961,0.419758,0,0,0,0,0,0.414958,0.0278961,252,-56,252,-56,378,-64,257,68,-0.0396768,-0.261799,0,-1.5,nan,0,0,0,0.416999,0.0192825,0,0,0,0,0.0447103,0.000302491,17028,0.415122,0.0192698,0.0447103,0.000302491,7077
7204,-3.72299e-12,2.2938e-38,-1.58113e-06,-3.85292e-12,2.29368e-38,0,-1.13711e-13,0,0,-3.61554,0.0189668,0.433066,0,0,0,0,0,0.384457,0.0189668,255,-56,255,-56,379,-62,257,68,-0.0349454,-0.261799,0,-1.5,nan,0,0,0,0.402165,0.0188973,0,0,0,0,0.011674,-0.00273345,16380,0.400822,0.0192117,0.011674,-0.00273345,7192
7251,-3.72299e-12,2.2938e-38,-1.58113e-06,-3.85292e-12,2.29368e-38,-3.40903e-12,-1.13709e-13,0,0,-3.6334,0.0149241,0.447198,0,0,0,0,0,0.366601,0.0149241,255,-56,255,-56,378,-64,260,68,-0.0385012,-0.261799,0,-1.5,nan,0,0,0,0.389209,0.0191292,0,0,0,0,-0.0279421,-0.000361612,16632,0.389489,0.0191328,-0.0279421,-0.000361612,7243
7304,-3.72299e-12,2.2938e-38,-1.58113e-06,-3.85292e-12,2.29368e-38,0,-1.13718e-13,0,0,-3.61226,0.0162299,0.44852,0,0,0,0,0,0.387743,0.0162299,255,-59,255,-59,379,-64,258,65,-0.0363794,-0.261799,0,-1.5,nan,0,0,0,0.387159,0.018674,0,0,0,0,-0.028061,-0.00128035,16254,0.388646,0.0187418,-0.028061,-0.00128035,7291
7342,-3.72299e-12,2.2938e-38,-1.58113e-06,-3.85292e-12,2.29368e-38,-3.40903e-12,-1.13718e-13,0,0,-3.61192,0.0228769,0.437286,0,0,0,0,0,0.388085,0.0228769,255,-59,255,-59,377,-62,257,68,-0.0402179,-0.261799,0,-1.5,nan,0,0,0,0.38687,0.0194464,0,0,0,0,-0.0255533,0.000461872,16380,0.387816,0.0194293,-0.0255533,0.000461872,7329
7367,-3.72299e-12,2.2938e-38,-1.58113e-06,-3.85292e-12,2.29368e-38,0,-1.1372e-13,0,0,-3.59043,0.0161693,0.424984,0,0,0,0,0,0.409565,0.0161693,255,-59,255,-59,380,-62,257,68,-0.0360475,-0.261799,0,-1.5,nan,0,0,0,0.38633,0.0185606,0,0,0,0,-0.0265409,-0.00135795,16380,0.38702,0.0185959,-0.0265409,-0.00135795,7354
7475,-3.72299e-12,2.2938e-38,-1.58113e-06,-3.85292e-12,2.29368e-38,-3.40903e-12,-1.13717e-13,0,0,-3.60968,0.0187768,0.431819,0,0,0,0,0,0.390318,0.0187768,255,-57,255,-57,379,-62,257,68,-0.038344,-0.261799,0,-1.5,nan,0,0,0,0.387052,0.0190507,0,0,0,0,-0.0201646,-0.000359547,16380,0.389209,0.0190892,-0.0201646,-0.000359547,7462
7519,-3.72299e-12,2.2938e-38,-1.58113e-06,-3.85292e-12,2.29368e-38,0,-1.13716e-13,0,0,-3.60968,0.0187768,0.431819,0,0,0,0,0,0.390318,0.0187768,255,-57,255,-57,379,-62,257,68,-0.0350303,-0.261799,0,-1.5,nan,0,0,0,0.386357,0.0183433,0,0,0,0,-0.0194826,-0.00179992,16380,0.387234,0.0184243,-0.0194826,-0.00179992,7506
7540,-3.72299e-12,2.2938e-38,-1.58113e-06,-3.85292e-12,2.29368e-38,-3.40903e-12,-1.1371e-13,0,0,-3.60968,0.0187768,0.431819,0,0,0,0,0,0.390318,0.0187768,255,-57,255,-57,379,-62,257,68,-0.0349533,-0.261799,0,-1.5,nan,0,0,0,0.385948,0.0183055,0,0,0,0,-0.0194826,-0.00179992,16380,0.387234,0.0184243,-0.0194826,-0.00179992,7506
7561,-3.72299e-12,2.2938e-38,-1.58113e-06,-3.85292e-12,2.29368e-38,0,-1.13715e-13,0,0,-3.62809,0.00115614,0.442109,0,0,0,0,0,0.371909,0.00115614,257,-57,257,-57,382,-62,260,68,-0.0367665,-0.261799,0,-1.5,nan,0,0,0,0.382004,0.0187203,0,0,0,0,-0.0256166,-0.00105528,16250,0.382542,0.0187425,-0.0256166,-0.00105528,7548
7675,-3.72299e-12,2.2938e-38,-1.58113e-06,-3.85292e-12,2.29368e-38,-3.40903e-12,-1.13712e-13,0,0,-3.59603,0.0189392,0.419391,0,0,0,0,0,0.403972,0.0189392,255,-57,255,-57,379,-62,257,70,-0.0385047,-0.261799,0,-1.5,nan,0,0,0,0.38529,0.0189921,0,0,0,0,-0.0163001,-0.000144069,16632,0.387149,0.0190085,-0.0163001,-0.000144069,7662
7787,-3.72299e-12,2.2938e-38,-1.58113e-06,-3.85292e-12,2.29368e-38,0,-1.13712e-13,0,0,-3.59583,0.0194436,0.436472,0,0,0,0,0,0.404167,0.0194436,255,-59,255,-59,378,-65,258,70,-0.0360405,-0.261799,0,-1.5,nan,0,0,0,0.386231,0.0184064,0,0,0,0,-0.0141409,-0.00112175,17010,0.386415,0.018421,-0.0141409,-0.00112175,7777
7804,-3.72299e-12,2.2938e-38,-1.58113e-06,-3.85292e-12,2.29368e-38,-3.40903e-12,-1.13713e-13,0,0,-3.59583,0.0194436,0.436472,0,0,0,0,0,0.404167,0.0194436,255,-59,255,-59,378,-65,258,70,-0.0360017,-0.261799,0,-1.5,nan,0,0,0,0.38599,0.0183874,0,0,0,0,-0.0141409,-0.00112175,17010,0.386415,0.018421,-0.0141409,-0.00112175,7777
7853,-3.72299e-12,2.2938e-38,-1.58113e-06,-3.85292e-12,2.29368e-38,0,-1.1372e-13,0,0,-3.53459,-0.0182409,0.405331,0,0,0,0,0,0.465406,-0.0182409,257,-61,257,-61,383,-66,262,68,-0.0348078,-0.261799,0,-1.5,nan,0,0,0,0.4052,0.0181165,0,0,0,0,0.00869656,-0.00161568,17420,0.405104,0.0181343,0.00869656,-0.00161568,7844
7965,-3.72299e-12,2.2938e-38,-1.58113e-06,-3.85292e-12,2.29368e-38,-3.40903e-12,-1.13721e-13,0,0,-3.57403,-0.0440982,0.432705,0,0,0,0,0,0.425972,-0.0440982,260,-60,260,-60,386,-66,266,68,-0.0335297,-0.261799,0,-1.5,nan,0,0,0,0.404522,0.0175496,0,0,0,0,0.0073196,-0.00171032,17286,0.403702,0.0177411,0.0073196,-0.00171032,7952
8023,-3.72299e-12,2.2938e-38,-1.58113e-06,-3.85292e-12,2.29368e-38,0,-1.13721e-13,0,0,-3.60188,-0.0792416,0.453456,0,0,0,0,0,0.398117,-0.0792416,269,-58,269,-58,391,-68,266,66,0.00339856,-0.261799,0,-1.5,nan,0,0,0,0.405975,0.00646438,0,0,0,0,0.00824085,-0.0127448,16750,0.405868,0.00663006,0.00824085,-0.0127448,8011
8050,-3.72299e-12,2.2938e-38,-1.58113e-06,-3.85292e-12,2.29368e-38,-3.40903e-12,-1.13719e-13,0,0,-3.59839,-0.0768691,0.445045,0,0,0,0,0,0.401609,-0.0768691,266,-58,266,-58,389,-66,268,68,0.0545894,-0.261799,0,-1.5,nan,0,0,0,0.40356,-0.00979867,0,0,0,0,0.00607485,-0.0266361,17018,0.403517,-0.00961221,0.00607485,-0.0266361,8044
8066,-3.72299e-12,2.2938e-38,-1.58113e-06,-3.85292e-12,2.29368e-38,0,-1.13719e-13,0,0,-3.59839,-0.0768691,0.445045,0,0,0,0,0,0.401609,-0.0768691,266,-58,266,-58,389,-66,268,68,0.0555119,-0.261799,0,-1.5,nan,0,0,0,0.403663,-0.0102515,0,0,0,0,0.00607485,-0.0266361,17018,0.403517,-0.00961221,0.00607485,-0.0266361,8044
8182,-3.72299e-12,2.2938e-38,-1.58113e-06,-3.85292e-12,2.29368e-38,-3.40903e-12,-1.13715e-13,0,0,-3.54208,-0.0894372,0.393509,0,0,0,0,0,0.457924,-0.0894372,266,-57,266,-57,390,-63,268,68,0.121863,-0.261799,0,-1.5,nan,0,0,0,0.407233,-0.0311598,0,0,0,0,0.00928271,-0.0449091,17292,0.40714,-0.0307107,0.00928271,-0.0449091,8174
8228,-3.72299e-12,2.2938e-38,-1.58113e-06,-3.85292e-12,2.29368e-38,0,-1.13716e-13,0,0,-3.53721,-0.0957979,0.373379,0,0,0,0,0,0.462794,-0.0957979,266,-55,266,-55,392,-61,269,70,0.158655,-0.261799,0,-1.5,nan,0,0,0,0.407727,-0.0431791,0,0,0,0,0.00840834,-0.0543751,17292,0.407341,-0.0406779,0.00840834,-0.0543751,8214
8249,-3.72299e-12,2.2938e-38,-1.58113e-06,-3.85292e-12,2.29368e-38,-3.40903e-12,-1.13722e-13,0,0,-3.54387,-0.0915407,0.374897,0,0,0,0,0,0.456134,-0.0915407,266,-55,266,-55,390,-61,269,71,0.261799,-0.261799,0,-1.5,nan,0,0,0,0.411294,-0.077692,0,0,0,0,0.0105147,-0.0836236,17424,0.41122,-0.0771066,0.0105147,-0.0836236,8244
8270,-3.72299e-12,2.2938e-38,-1.58113e-06,-3.85292e-12,2.29368e-38,0,-1.13722e-13,0,0,-3.54387,-0.0915407,0.374897,0,0,0,0,0,0.456134,-0.0915407,266,-55,266,-55,390,-61,269,71,0.261799,-0.261799,0,-1.5,nan,0,0,0,0.411515,-0.0794481,0,0,0,0,0.0105147,-0.0836236,17424,0.41122,-0.0771066,0.0105147,-0.0836236,8244
8293,-3.72299e-12,2.2938e-38,-1.58113e-06,-3.85292e-12,2.29368e-38,-3.40903e-12,-1.13723e-13,0,0,-3.60798,-0.0799383,0.406565,0,0,0,0,0,0.392025,-0.0799383,266,-55,266,-55,389,-59,269,73,0.261799,-0.261799,0,-1.5,nan,0,0,0,0.409477,-0.0822666,0,0,0,0,0.00992384,-0.088526,16764,0.409259,-0.080319,0.00992384,-0.088526,8279
8406,-3.72299e-12,2.2938e-38,-1.58113e-06,-3.85292e-12,2.29368e-38,0,-1.13723e-13,0,0,-3.56106,-0.0912015,0.408478,0,0,0,0,0,0.438936,-0.0912015,266,-55,266,-55,389,-66,270,68,0.261799,-0.261799,0,-1.5,nan,0,0,0,0.414246,-0.101639,0,0,0,0,0.0119143,-0.0986367,17688,0.412888,-0.0903946,0.0119143,-0.0986367,8392
8456,-3.72299e-12,2.2938e-38,-1.58113e-06,-3.85292e-12,2.29368e-38,-3.40903e-12,-1.13724e-13,0,0,-3.5946,-0.0971809,0.426243,0,0,0,0,0,0.405397,-0.0971809,269,-55,269,-55,390,-63,268,66,0.261799,-0.261799,0,-1.5,nan,0,0,0,0.411565,-0.100073,0,0,0,0,0.0115779,-0.0946865,16770,0.411403,-0.0987469,0.0115779,-0.0946865,8444
8533,-3.72299e-12,2.2938e-38,-1.58113e-06,-3.85292e-12,2.29368e-38,0,-1.13725e-13,0,0,-3.63332,-0.102943,0.454151,0,0,0,0,0,0.366679,-0.102943,272,-57,272,-57,393,-64,269,66,0.261799,-0.261799,0,-1.5,nan,0,0,0,0.415116,-0.110697,0,0,0,0,0.0203127,-0.099365,16120,0.413552,-0.103046,0.0203127,-0.099365,8519
8558,-3.72299e-12,2.2938e-38,-1.58113e-06,-3.85292e-12,2.29368e-38,-3.40903e-12,-1.13725e-13,0,0,-3.59334,-0.10997,0.42285,0,0,0,0,0,0.406663,-0.10997,272,-55,272,-55,392,-64,269,68,0.261799,-0.261799,0,-1.5,nan,0,0,0,0.413887,-0.113374,0,0,0,0,0.019986,-0.0996819,17028,0.413388,-0.110882,0.019986,-0.0996819,8544
8598,-3.72299e-12,2.2938e-38,-1.58113e-06,-3.85292e-12,2.29368e-38,0,-1.13726e-13,0,0,-3.54231,-0.0980808,0.398085,0,0,0,0,0,0.457686,-0.0980808,266,-57,266,-57,393,-63,269,67,0.261799,-0.261799,0,-1.5,nan,0,0,0,0.414967,-0.117019,0,0,0,0,0.0198122,-0.10023,17160,0.414174,-0.11301,0.0198122,-0.10023,8584
8749,-3.72299e-12,2.2938e-38,-1.58113e-06,-3.85292e-12,2.29368e-38,-3.40903e-12,-1.13726e-13,0,0,-3.55826,-0.104802,0.378875,0,0,0,0,0,0.441736,-0.104802,269,-55,269,-55,393,-59,269,73,0.261799,-0.261799,0,-1.5,nan,0,0,0,0.424416,-0.129995,0,0,0,0,0.024671,-0.103643,17028,0.424243,-0.129269,0.024671,-0.103643,8744
8771,-3.72299e-12,2.2938e-38,-1.58113e-06,-3.85292e-12,2.29368e-38,0,-1.13727e-13,0,0,-3.55826,-0.104802,0.378875,0,0,0,0,0,0.441736,-0.104802,269,-55,269,-55,393,-59,269,73,0.261799,-0.261799,0,-1.5,nan,0,0,0,0.424934,-0.132171,0,0,0,0,0.024671,-0.103643,17028,0.424243,-0.129269,0.024671,-0.103643,8744
8793,-3.72299e-12,2.2938e-38,-1.58113e-06,-3.85292e-12,2.29368e-38,-3.40903e-12,-1.13727e-13,0,0,-3.59921,-0.108787,0.413498,0,0,0,0,0,0.400795,-0.108787,269,-55,269,-55,393,-59,270,68,0.261799,-0.261799,0,-1.5,nan,0,0,0,0.413882,-0.134802,0,0,0,0,0.0158373,-0.105807,16383,0.413518,-0.132368,0.0158373,-0.105807,8779
8906,-3.72299e-12,2.2938e-38,-1.58113e-06,-3.85292e-12,2.29368e-38,0,-1.13728e-13,0,0,-3.5708,-0.105011,0.407927,0,0,0,0,0,0.429202,-0.105011,269,-55,269,-55,393,-63,269,68,0.261799,-0.261799,0,-1.5,nan,0,0,0,0.422368,-0.145419,0,0,0,0,0.0208344,-0.104748,16899,0.420035,-0.133688,0.0208344,-0.104748,8892
8999,-3.72299e-12,2.2938e-38,-1.58113e-06,-3.85292e-12,2.29368e-38,-3.40903e-12,-1.13728e-13,0,0,-3.56493,-0.104965,0.402297,0,0,0,0,0,0.435068,-0.104965,269,-55,269,-55,393,-63,269,68,0.261799,-0.261799,0,-1.5,nan,0,0,0,0.434344,-0.153473,0,0,0,0,0.0261546,-0.104176,16899,0.431885,-0.14368,0.0261546,-0.104176,8985
9021,-3.72299e-12,2.2938e-38,-1.58113e-06,-3.85292e-12,2.29368e-38,0,-1.13729e-13,0,0,-3.55281,-0.10486,0.390835,0,0,0,0,0,0.44719,-0.10486,269,-55,269,-55,393,-63,269,68,0.261799,-0.261799,0,-1.5,nan,0,0,0,0.437505,-0.154875,0,0,0,0,0.0281699,-0.104812,16899,0.437195,-0.153722,0.0281699,-0.104812,9012
9047,-3.72299e-12,2.2938e-38,-1.58113e-06,-3.85292e-12,2.29368e-38,-3.40903e-12,-1.13729e-13,0,0,-3.60544,-0.0933701,0.411579,0,0,0,0,0,0.394562,-0.0933701,269,-55,269,-55,392,-61,269,70,0.261799,-0.261799,0,-1.5,nan,0,0,0,0.435438,-0.147306,0,0,0,0,0.0257617,-0.0981465,16244,0.435258,-0.146619,0.0257617,-0.0981465,9042
9156,-3.72299e-12,2.2938e-38,-1.58113e-06,-3.85292e-12,2.29368e-38,0,-1.1373e-13,0,0,-3.62388,-0.0869284,0.409113,0,0,0,0,0,0.376116,-0.0869284,268,-52,268,-52,393,-59,268,71,0.261799,-0.261799,0,-1.5,nan,0,0,0,0.415035,-0.136429,0,0,0,0,0.00821123,-0.0710368,16250,0.414148,-0.128757,0.00821123,-0.0710368,9142
9265,-3.72299e-12,2.2938e-38,-1.58113e-06,-3.85292e-12,2.29368e-38,-3.40903e-12,-1.13731e-13,0,0,-3.62117,-0.0518867,0.409216,0,0,0,0,0,0.37883,-0.0518867,266,-53,266,-53,387,-61,264,70,0.261799,-0.261799,0,-1.5,nan,0,0,0,0.409417,-0.130031,0,0,0,0,0.00271737,-0.049779,16236,0.409118,-0.124556,0.00271737,-0.049779,9251
9306,-3.72299e-12,2.2938e-38,-1.58113e-06,-3.85292e-12,2.29368e-38,0,-1.13731e-13,0,0,-3.58296,-0.0552656,0.386604,0,0,0,0,0,0.417037,-0.0552656,263,-52,263,-52,386,-59,264,71,0.261799,-0.261799,0,-1.5,nan,0,0,0,0.410984,-0.12851,0,0,0,0,0.00324073,-0.0459097,16900,0.410851,-0.126628,0.00324073,-0.0459097,9292
9329,-3.72299e-12,2.2938e-38,-1.58113e-06,-3.85292e-12,2.29368e-38,-3.40903e-12,-1.13732e-13,0,0,-3.60589,-0.0622705,0.399508,0,0,0,0,0,0.394113,-0.0622705,266,-52,266,-52,386,-59,264,71,0.261799,-0.261799,0,-1.5,nan,0,0,0,0.392507,-0.114659,0,0,0,0,-0.0182215,-0.027151,16770,0.392908,-0.114062,-0.0182215,-0.027151,9315
9356,-3.72299e-12,2.2938e-38,-1.58113e-06,-3.85292e-12,2.29368e-38,0,-1.13732e-13,0,0,-3.69402,-0.0508778,0.457727,0,0,0,0,0,0.305981,-0.0508778,266,-53,266,-53,386,-59,265,68,0.255975,-0.261799,0,-1.5,nan,0,0,0,0.388774,-0.110918,0,0,0,0,-0.0214454,-0.0230816,15367,0.389053,-0.110618,-0.0214454,-0.0230816,9344
9466,-3.72299e-12,2.2938e-38,-1.58113e-06,-3.85292e-12,2.29368e-38,-3.40903e-12,-1.13733e-13,0,0,-3.60837,-0.0234396,0.385082,0,0,0,0,0,0.391635,-0.0234396,260,-52,260,-52,384,-56,261,72,0.187305,-0.261799,0,-1.5,nan,0,0,0,0.386834,-0.0915664,0,0,0,0,-0.0227835,-0.000584457,16128,0.389341,-0.0915021,-0.0227835,-0.000584457,9452
9615,-3.72299e-12,2.2938e-38,-1.58113e-06,-3.85292e-12,2.29368e-38,0,-1.13733e-13,0,0,-3.64151,-0.0337942,0.400737,0,0,0,0,0,0.358488,-0.0337942,263,-50,263,-50,383,-59,264,74,0.15492,-0.261799,0,-1.5,nan,0,0,0,0.377538,-0.0808884,0,0,0,0,-0.0284194,0.00759308,16359,0.381773,-0.0820198,-0.0284194,0.00759308,9489
9789,-3.72299e-12,2.2938e-38,-1.58113e-06,-3.85292e-12,2.29368e-38,-3.40903e-12,-1.13734e-13,0,0,-3.55909,-0.0423598,0.366665,0,0,0,0,0,0.44091,-0.0423598,260,-54,260,-54,384,-56,263,73,0.063784,-0.261799,0,-1.5,nan,0,0,0,0.381528,-0.0487753,0,0,0,0,-0.0212126,0.0273726,17157,0.385219,-0.0535382,-0.0212126,0.0273726,9775
9805,-3.72299e-12,2.2938e-38,-1.58113e-06,-3.85292e-12,2.29368e-38,0,-1.13734e-13,0,0,-3.55909,-0.0423598,0.366665,0,0,0,0,0,0.44091,-0.0423598,260,-54,260,-54,384,-56,263,73,0.062836,-0.261799,0,-1.5,nan,0,0,0,0.381167,-0.04831,0,0,0,0,-0.0212126,0.0273726,17157,0.385219,-0.0535382,-0.0212126,0.0273726,9775
9827,-3.72299e-12,2.2938e-38,-1.58113e-06,-3.85292e-12,2.29368e-38,-3.40903e-12,-1.13735e-13,0,0,-3.55909,-0.0423598,0.366665,0,0,0,0,0,0.44091,-0.0423598,260,-54,260,-54,384,-56,263,73,0.0616092,-0.261799,0,-1.5,nan,0,0,0,0.380701,-0.0477078,0,0,0,0,-0.0212126,0.0273726,17157,0.385219,-0.0535382,-0.0212126,0.0273726,9775
9849,-3.72299e-12,2.2938e-38,-1.58113e-06,-3.85292e-12,2.29368e-38,0,-1.13735e-13,0,0,-3.64623,-0.0432086,0.423911,0,0,0,0,0,0.353768,-0.0432086,266,-53,266,-53,386,-59,262,71,0.0546054,-0.261799,0,-1.5,nan,0,0,0,0.381598,-0.0452222,0,0,0,0,-0.0200896,0.0288648,16120,0.381779,-0.045482,-0.0200896,0.0288648,9842
9966,-3.72299e-12,2.2938e-38,-1.58113e-06,-3.85292e-12,2.29368e-38,-3.40903e-12,-1.13736e-13,0,0,-3.55526,-0.0444275,0.377232,0,0,0,0,0,0.44474,-0.0444275,260,-55,260,-55,384,-59,264,71,0.0420898,-0.261799,0,-1.5,nan,0,0,0,0.383142,-0.0403818,0,0,0,0,-0.0151724,0.0309067,17290,0.384902,-0.043967,-0.0151724,0.0309067,9952
10008,-3.72299e-12,2.2938e-38,-1.58113e-06,-3.85292e-12,2.29368e-38,0,-1.13736e-13,0,0,-3.63419,-0.0320976,0.419029,0,0,0,0,0,0.365813,-0.0320976,260,-54,260,-54,384,-59,265,71,0.0372072,-0.261799,0,-1.5,nan,0,0,0,0.374724,-0.0385772,0,0,0,0,-0.0219342,0.0318345,16380,0.375645,-0.0399142,-0.0219342,0.0318345,9993
10029,-3.72299e-12,2.2938e-38,-1.58113e-06,-3.85292e-12,2.29368e-38,-3.40903e-12,-1.13737e-13,0,0,-3.6719,-0.0523021,0.436003,0,0,0,0,0,0.328104,-0.0523021,266,-52,266,-52,387,-59,265,71,0.0369736,-0.261799,0,-1.5,nan,0,0,0,0.363221,-0.0383982,0,0,0,0,-0.0316876,0.0317337,15860,0.363918,-0.0390964,-0.0316876,0.0317337,10015
10052,-3.72299e-12,2.2938e-38,-1.58113e-06,-3.85292e-12,2.29368e-38,0,-1.13738e-13,0,0,-3.61634,-0.038358,0.402637,0,0,0,0,0,0.383656,-0.038358,263,-52,263,-52,387,-59,262,71,0.0255152,-0.261799,0,-1.5,nan,0,0,0,0.361423,-0.0363026,0,0,0,0,-0.0432004,0.0372638,16250,0.361942,-0.0367498,-0.0432004,0.0372638,10042
10073,-3.72299e-12,2.2938e-38,-1.58113e-06,-3.85292e-12,2.29368e-38,-3.40903e-12,-1.13738e-13,0,0,-3.61634,-0.038358,0.402637,0,0,0,0,0,0.383656,-0.038358,263,-52,263,-52,387,-59,262,71,0.023921,-0.261799,0,-1.5,nan,0,0,0,0.360516,-0.0355201,0,0,0,0,-0.0432004,0.0372638,16250,0.361942,-0.0367498,-0.0432004,0.0372638,10042
10185,-3.72299e-12,2.2938e-38,-1.58113e-06,-3.85292e-12,2.29368e-38,0,-1.13739e-13,0,0,-3.60617,-0.0280349,0.385572,0,0,0,0,0,0.393835,-0.0280349,260,-54,260,-54,384,-56,263,73,0.00964894,-0.261799,0,-1.5,nan,0,0,0,0.37601,-0.0296797,0,0,0,0,-0.0187539,0.0390896,16254,0.37811,-0.0340577,-0.0187539,0.0390896,10172
10230,-3.72299e-12,2.2938e-38,-1.58113e-06,-3.85292e-12,2.29368e-38,-3.40903e-12,-1.13739e-13,0,0,-3.66853,-0.022233,0.419542,0,0,0,0,0,0.331472,-0.022233,260,-52,260,-52,384,-52,261,70,-0.0133012,-0.261799,0,-1.5,nan,0,0,0,0.374761,-0.0223842,0,0,0,0,-0.0182301,0.0453106,15250,0.375581,-0.0244232,-0.0182301,0.0453106,10216
10298,-3.72299e-12,2.2938e-38,-1.58113e-06,-3.85292e-12,2.29368e-38,0,-1.1374e-13,0,0,-3.61987,-0.00634038,0.393459,0,0,0,0,0,0.380133,-0.00634038,258,-54,258,-54,382,-55,260,72,-0.0242928,-0.261799,0,-1.5,nan,0,0,0,0.377646,-0.0174925,0,0,0,0,-0.0162314,0.0460998,15875,0.378749,-0.0206273,-0.0162314,0.0460998,10284
10475,-3.72299e-12,2.2938e-38,-1.58113e-06,-3.85292e-12,2.29368e-38,-3.40903e-12,-1.1374e-13,0,0,-3.59261,-0.0135694,0.354021,0,0,0,0,0,0.407386,-0.0135694,258,-49,258,-49,383,-55,261,78,-0.0560761,-0.261799,0,-1.5,nan,0,0,0,0.373593,-0.00647377,0,0,0,0,-0.0167174,0.0532807,16891,0.376552,-0.0159044,-0.0167174,0.0532807,10462
10533,-3.72299e-12,2.2938e-38,-1.58113e-06,-3.85292e-12,2.29368e-38,0,-1.13741e-13,0,0,-3.58408,-0.0117137,0.342345,0,0,0,0,0,0.415923,-0.0117137,258,-49,258,-49,383,-55,261,78,-0.0705042,-0.261799,0,-1.5,nan,0,0,0,0.374087,-0.00178137,0,0,0,0,-0.0155668,0.0570256,16758,0.37499,-0.00508883,-0.0155668,0.0570256,10520
11485,-3.72299e-12,2.2938e-38,-1.58113e-06,-3.85292e-12,2.29368e-38,-3.40903e-12,-1.13741e-13,0,0,-3.64622,0.0186322,0.372335,0.359921,0.0534465,-0.0157965,0.0573137,0,0.353785,0.0186322,255,-44,255,-44,374,-57,261,80,-0.183393,-0.261799,0,-1.5,nan,0,0,0,0.359921,0.0534465,0,0,0,0,-0.0157965,0.0573137,17536,0,0,0,0,11472
11730,-3.72299e-12,2.2938e-38,-1.58113e-06,-3.85292e-12,2.29368e-38,0,-1.13742e-13,0,0,-3.63912,-0.056266,0.39539,0.35651,0.0658234,-0.013869,0.0503203,0,0.360876,-0.056266,266,-50,266,-50,386,-57,265,74,-0.199516,-0.261799,0,-1.5,nan,0,0,0,0.35651,0.0658234,0,0,0,0,-0.013869,0.0503203,16244,0,0,0,0,11722
12243,-3.72299e-12,2.2938e-38,-1.58113e-06,-3.85292e-12,2.29368e-38,-3.40903e-12,-1.13742e-13,0,0,-3.65088,-0.0539844,0.399884,0.351199,0.0850941,-0.0103326,0.0374892,0,0.349123,-0.0539844,263,-48,263,-48,386,-57,267,73,-0.222095,-0.261799,0,-1.5,nan,0,0,0,0.351199,0.0850941,0,0,0,0,-0.0103326,0.0374892,16380,0,0,0,0,12242
12257,-3.72299e-12,2.2938e-38,-1.58113e-06,-3.85292e-12,2.29368e-38,0,-1.13743e-13,0,0,-3.65088,-0.0539844,0.399884,0.351044,0.0856538,-0.0102553,0.0372088,0,0.349123,-0.0539844,263,-48,263,-48,386,-57,267,73,-0.222871,-0.261799,0,-1.5,nan,0,0,0,0.351044,0.0856538,0,0,0,0,-0.0102553,0.0372088,16380,0,0,0,0,12242
12305,-3.72299e-12,2.2938e-38,-1.58113e-06,-3.85292e-12,2.29368e-38,-3.40903e-12,-1.13744e-13,0,0,-3.65485,-0.0607932,0.393106,0.350562,0.0874034,-0.0100101,0.036319,0,0.345152,-0.0607932,263,-52,263,-52,388,-51,268,71,-0.225279,-0.261799,0,-1.5,nan,0,0,0,0.350562,0.0874034,0,0,0,0,-0.0100101,0.036319,15875,0,0,0,0,12297
12321,-3.72299e-12,2.2938e-38,-1.58113e-06,-3.85292e-12,2.29368e-38,0,-1.13744e-13,0,0,-3.59244,-0.0603739,0.349217,0.350403,0.0879815,-0.00993021,0.0360293,0,0.40756,-0.0603739,263,-50,263,-50,389,-54,267,77,-0.22608,-0.261799,0,-1.5,nan,0,0,0,0.350403,0.0879815,0,0,0,0,-0.00993021,0.0360293,16506,0,0,0,0,12312
12335,-3.72299e-12,2.2938e-38,-1.58113e-06,-3.85292e-12,2.29368e-38,-3.40903e-12,-1.13745e-13,0,0,-3.59244,-0.0603739,0.349217,0.350264,0.0884837,-0.00986088,0.0357778,0,0.40756,-0.0603739,263,-50,263,-50,389,-54,267,77,-0.226776,-0.261799,0,-1.5,nan,0,0,0,0.350264,0.0884837,0,0,0,0,-0.00986088,0.0357778,16506,0,0,0,0,12312
12362,-3.72299e-12,2.2938e-38,-1.58113e-06,-3.85292e-12,2.29368e-38,0,-1.13745e-13,0,0,-3.65064,-0.0684063,0.391156,0.350011,0.0894049,-0.0097331,0.0353141,0,0.349365,-0.0684063,266,-48,266,-48,390,-54,266,71,-0.22805,-0.261799,0,-1.5,nan,0,0,0,0.350011,0.0894049,0,0,0,0,-0.0097331,0.0353141,15872,0,0,0,0,12353
12420,-3.72299e-12,2.2938e-38,-1.58113e-06,-3.85292e-12,2.29368e-38,-3.40903e-12,-1.13746e-13,0,0,-3.59118,-0.0977472,0.344975,0.349451,0.0914354,-0.00944714,0.0342766,0,0.408818,-0.0977471,269,-48,269,-48,393,-53,268,75,-0.230838,-0.261799,0,-1.5,nan,0,0,0,0.349451,0.0914354,0,0,0,0,-0.00944714,0.0342766,16256,0,0,0,0,12411
12459,-3.72299e-12,2.2938e-38,-1.58113e-06,-3.85292e-12,2.29368e-38,0,-1.13746e-13,0,0,-3.70335,-0.0863083,0.422069,0.349088,0.0927513,-0.00926363,0.0336108,0,0.296648,-0.0863083,272,-52,272,-52,390,-52,268,71,-0.232653,-0.261799,0,-1.5,nan,0,0,0,0.349088,0.0927513,0,0,0,0,-0.00926363,0.0336108,15494,0,0,0,0,12450
12479,-3.72299e-12,2.2938e-38,-1.58113e-06,-3.85292e-12,2.29368e-38,-3.40903e-12,-1.13747e-13,0,0,-3.64047,-0.0670673,0.387362,0.348904,0.0934192,-0.00917132,0.0332759,0,0.359532,-0.0670673,266,-52,266,-52,390,-52,266,71,0.261799,-0.261799,0,-1.5,nan,0,0,0,0.360144,-0.0827504,0,0,0,0,0.0680003,-0.100612,15748,0.0105447,-0.174965,0.0771717,-0.133888,12472
12496,-3.72299e-12,2.2938e-38,-1.58113e-06,-3.85292e-12,2.29368e-38,0,-1.13747e-13,0,0,-3.64047,-0.0670673,0.387362,0.348749,0.0939816,-0.00909358,0.0329938,0,0.359532,-0.0670673,266,-52,266,-52,390,-52,266,71,0.261799,-0.261799,0,-1.5,nan,0,0,0,0.3613,-0.0844639,0,0,0,0,0.0680781,-0.100894,15748,0.0105447,-0.174965,0.0771717,-0.133888,12472
12516,-3.72299e-12,2.2938e-38,-1.58113e-06,-3.85292e-12,2.29368e-38,-3.40903e-12,-1.13748e-13,0,0,-3.63419,-0.0657886,0.359216,0.348569,0.0946372,-0.00900296,0.032665,0,0.365812,-0.0657886,269,-48,269,-48,390,-52,264,77,0.18098,-0.261799,0,-1.5,nan,0,0,0,0.362663,-0.0685166,0,0,0,0,0.0681687,-0.0318413,16254,0.0134,-0.162573,0.0771717,-0.0645063,12509
12582,-3.72299e-12,2.2938e-38,-1.58113e-06,-3.85292e-12,2.29368e-38,0,-1.13753e-13,0,0,-3.62088,-0.03928,0.347545,0.347991,0.0967334,-0.00870743,0.0315928,0,0.37912,-0.03928,263,-48,263,-48,386,-51,263,77,0.11837,-0.261799,0,-1.5,nan,0,0,0,0.37012,-0.0652792,0,0,0,0,0.0783493,0.0112472,15744,0.0216066,-0.161891,0.0870567,-0.0203455,12578
12600,-3.72299e-12,2.2938e-38,-1.58113e-06,-3.85292e-12,2.29368e-38,-3.40903e-12,-1.13748e-13,0,0,-3.62088,-0.03928,0.347545,0.347844,0.0972674,-0.00863363,0.031325,0,0.37912,-0.03928,263,-48,263,-48,386,-51,263,77,0.118334,-0.261799,0,-1.5,nan,0,0,0,0.371453,-0.065091,0,0,0,0,0.0784231,0.0109795,15744,0.0216066,-0.161891,0.0870567,-0.0203455,12578
12654,-3.72299e-12,2.2938e-38,-1.58113e-06,-3.85292e-12,2.29368e-38,0,-1.1375e-13,0,0,-3.69483,-0.0688035,0.372381,0.347379,0.0989518,-0.00839742,0.030468,0,0.305173,-0.0688035,269,-45,269,-45,387,-49,267,80,0.130009,-0.261799,0,-1.5,nan,0,0,0,0.354112,-0.0659099,0,0,0,0,-0.0316715,0.00328217,15609,0.00701173,-0.164535,-0.023274,-0.0271858,12645
12712,-3.72299e-12,2.2938e-38,-1.58113e-06,-3.85292e-12,2.29368e-38,-3.40903e-12,-1.1375e-13,0,0,-3.67519,-0.097155,0.328351,0.346904,0.100677,-0.00815516,0.029589,0,0.324808,-0.097155,272,-40,272,-40,391,-46,269,84,0.185546,-0.261799,0,-1.5,nan,0,0,0,0.357695,-0.0728828,0,0,0,0,0.00103332,-0.0285112,15990,0.0107455,-0.173269,0.00918848,-0.0581001,12709
12731,-3.72299e-12,2.2938e-38,-1.58113e-06,-3.85292e-12,2.29368e-38,0,-1.13749e-13,0,0,-3.67519,-0.097155,0.328351,0.34675,0.101236,-0.00807793,0.0293088,0,0.324808,-0.097155,272,-40,272,-40,391,-46,269,84,0.187021,-0.261799,0,-1.5,nan,0,0,0,0.357716,-0.0734281,0,0,0,0,0.00111055,-0.0287914,15990,0.0107455,-0.173269,0.00918848,-0.0581001,12709
12752,-3.72299e-12,2.2938e-38,-1.58113e-06,-3.85292e-12,2.29368e-38,-3.40903e-12,-1.13752e-13,0,0,-3.67519,-0.097155,0.328351,0.346582,0.101847,-0.00799342,0.0290022,0,0.324808,-0.097155,272,-40,272,-40,391,-46,269,84,0.206721,-0.261799,0,-1.5,nan,0,0,0,0.324564,-0.0771603,0,0,0,0,-0.111295,-0.0380957,15990,-0.0207776,-0.178202,-0.103301,-0.0670979,12742
12772,-3.72299e-12,2.2938e-38,-1.58113e-06,-3.85292e-12,2.29368e-38,0,-1.13751e-13,0,0,-3.67519,-0.097155,0.328351,0.346423,0.102423,-0.00791373,0.028713,0,0.324808,-0.097155,272,-40,272,-40,391,-46,269,84,0.208657,-0.261799,0,-1.5,nan,0,0,0,0.32234,-0.0779262,0,0,0,0,-0.111215,-0.0383849,15990,-0.0207776,-0.178202,-0.103301,-0.0670979,12742
12794,-3.72299e-12,2.2938e-38,-1.58113e-06,-3.85292e-12,2.29368e-38,-3.40903e-12,-1.13758e-13,0,0,-3.68194,-0.108752,0.33669,0.34625,0.10305,-0.00782695,0.0283981,0,0.318057,-0.108752,272,-40,272,-40,392,-46,271,82,0.253247,-0.261799,0,-1.5,nan,0,0,0,0.315285,-0.0875079,0,0,0,0,-0.137253,-0.0576694,15744,-0.0281181,-0.188664,-0.129426,-0.0860676,12782
12813,-3.72299e-12,2.2938e-38,-1.58113e-06,-3.85292e-12,2.29368e-38,0,-1.13759e-13,0,0,-3.62147,-0.122,0.311423,0.346102,0.103586,-0.00775285,0.0281293,0,0.378526,-0.122,272,-42,272,-42,391,-46,272,84,0.261799,-0.261799,0,-1.5,nan,0,0,0,0.316862,-0.102539,0,0,0,0,-0.121116,-0.0868076,16770,-0.0285602,-0.205436,-0.113363,-0.114937,12809
12830,-3.72299e-12,2.2938e-38,-1.58113e-06,-3.85292e-12,2.29368e-38,-3.40903e-12,-1.13752e-13,0,0,-3.62147,-0.122,0.311423,0.345971,0.104061,-0.00768713,0.0278909,0,0.378526,-0.122,272,-42,272,-42,391,-46,272,84,0.261799,-0.261799,0,-1.5,nan,0,0,0,0.314804,-0.104018,0,0,0,0,-0.12105,-0.087046,16770,-0.0285602,-0.205436,-0.113363,-0.114937,12809
12852,-3.72299e-12,2.2938e-38,-1.58113e-06,-3.85292e-12,2.29368e-38,0,-1.1376e-13,0,0,-3.68074,-0.130632,0.353941,0.345803,0.104671,-0.0076029,0.0275852,0,0.319257,-0.130632,275,-41,275,-41,395,-49,273,81,0.261799,-0.261799,0,-1.5,nan,0,0,0,0.317998,-0.110642,0,0,0,0,-0.100813,-0.0964751,15990,-0.0266867,-0.213823,-0.0932097,-0.12406,12842
12888,-3.72299e-12,2.2938e-38,-1.58113e-06,-3.85292e-12,2.29368e-38,-3.40903e-12,-1.13757e-13,0,0,-3.66467,-0.145852,0.333948,0.345534,0.105649,-0.00746652,0.0270904,0,0.335325,-0.145852,276,-41,276,-41,394,-48,276,83,0.261799,-0.261799,0,-1.5,nan,0,0,0,0.314441,-0.113688,0,0,0,0,-0.105547,-0.0960007,16244,-0.0275621,-0.214906,-0.0980808,-0.123091,12875
12913,-3.72299e-12,2.2938e-38,-1.58113e-06,-3.85292e-12,2.29368e-38,0,-1.13762e-13,0,0,-3.69014,-0.155733,0.358921,0.345348,0.106321,-0.00737357,0.0267532,0,0.30986,-0.155733,278,-41,278,-41,398,-49,276,81,0.261799,-0.261799,0,-1.5,nan,0,0,0,0.313021,-0.12351,0,0,0,0,-0.102908,-0.109961,15860,-0.0317542,-0.229011,-0.0955343,-0.136714,12909
12930,-3.72299e-12,2.2938e-38,-1.58113e-06,-3.85292e-12,2.29368e-38,-3.40903e-12,-1.13759e-13,0,0,-3.69014,-0.155733,0.358921,0.345224,0.106773,-0.00731107,0.0265264,0,0.30986,-0.155733,278,-41,278,-41,398,-49,276,81,0.261799,-0.261799,0,-1.5,nan,0,0,0,0.311272,-0.125382,0,0,0,0,-0.102845,-0.110188,15860,-0.0317542,-0.229011,-0.0955343,-0.136714,12909
12951,-3.72299e-12,2.2938e-38,-1.58113e-06,-3.85292e-12,2.29368e-38,0,-1.13757e-13,0,0,-3.62365,-0.16245,0.34549,0.345071,0.107326,-0.00723459,0.0262489,0,0.376352,-0.16245,278,-45,278,-45,398,-51,275,77,0.261799,-0.261799,0,-1.5,nan,0,0,0,0.307279,-0.128531,0,0,0,0,-0.105514,-0.110827,16384,-0.0368091,-0.234486,-0.0982795,-0.137076,12943
12994,-3.72299e-12,2.2938e-38,-1.58113e-06,-3.85292e-12,2.29368e-38,-3.40903e-12,-1.13754e-13,0,0,-3.68076,-0.147107,0.375966,0.344766,0.108435,-0.00707959,0.0256865,0,0.31924,-0.147107,276,-45,276,-45,398,-51,276,77,0.261799,-0.261799,0,-1.5,nan,0,0,0,0.316331,-0.146405,0,0,0,0,-0.0735959,-0.130281,15616,-0.0255748,-0.248133,-0.0665163,-0.155967,12981
13011,-3.72299e-12,2.2938e-38,-1.58113e-06,-3.85292e-12,2.29368e-38,0,-1.1376e-13,0,0,-3.68076,-0.147107,0.375966,0.344646,0.108869,-0.00701958,0.0254688,0,0.31924,-0.147107,276,-45,276,-45,398,-51,276,77,0.261799,-0.261799,0,-1.5,nan,0,0,0,0.31508,-0.148622,0,0,0,0,-0.0735358,-0.130499,15616,-0.0255748,-0.248133,-0.0665163,-0.155967,12981
13028,-3.72299e-12,2.2938e-38,-1.58113e-06,-3.85292e-12,2.29368e-38,-3.40903e-12,-1.13761e-13,0,0,-3.68076,-0.147107,0.375966,0.344527,0.109299,-0.00696008,0.0252529,0,0.31924,-0.147107,276,-45,276,-45,398,-51,276,77,0.261799,-0.261799,0,-1.5,nan,0,0,0,0.313831,-0.150843,0,0,0,0,-0.0734764,-0.130714,15616,-0.0255748,-0.248133,-0.0665163,-0.155967,12981
13054,-3.72299e-12,2.2938e-38,-1.58113e-06,-3.85292e-12,2.29368e-38,0,-1.13754e-13,0,0,-3.69778,-0.151165,0.399417,0.344348,0.10995,-0.00686989,0.0249257,0,0.302221,-0.151165,277,-48,277,-48,398,-49,275,73,0.261799,-0.261799,0,-1.5,nan,0,0,0,0.300222,-0.154404,0,0,0,0,-0.100021,-0.132517,15252,-0.0417044,-0.26026,-0.0931512,-0.157443,13041
13071,-3.72299e-12,2.2938e-38,-1.58113e-06,-3.85292e-12,2.29368e-38,-3.40903e-12,-1.13755e-13,0,0,-3.69778,-0.151165,0.399417,0.344232,0.110371,-0.00681168,0.0247145,0,0.302221,-0.151165,277,-48,277,-48,398,-49,275,73,0.261799,-0.261799,0,-1.5,nan,0,0,0,0.298522,-0.156659,0,0,0,0,-0.0999628,-0.132728,15252,-0.0417044,-0.26026,-0.0931512,-0.157443,13041
13090,-3.72299e-12,2.2938e-38,-1.58113e-06,-3.85292e-12,2.29368e-38,0,-1.13763e-13,0,0,-3.66324,-0.157705,0.391142,0.34411,0.110813,-0.00675055,0.0244927,0,0.336756,-0.157705,277,-48,277,-48,401,-53,276,74,0.261799,-0.261799,0,-1.5,nan,0,0,0,0.310273,-0.1601,0,0,0,0,-0.066015,-0.135409,15875,-0.0327705,-0.268035,-0.0592645,-0.159902,13077
13108,-3.72299e-12,2.2938e-38,-1.58113e-06,-3.85292e-12,2.29368e-38,-3.40903e-12,-1.13762e-13,0,0,-3.66324,-0.157705,0.391142,0.343983,0.111276,-0.00668662,0.0242607,0,0.336756,-0.157705,277,-48,277,-48,401,-53,276,74,0.261799,-0.261799,0,-1.5,nan,0,0,0,0.30902,-0.162675,0,0,0,0,-0.0659511,-0.135641,15875,-0.0327705,-0.268035,-0.0592645,-0.159902,13077
13130,-3.72299e-12,2.2938e-38,-1.58113e-06,-3.85292e-12,2.29368e-38,0,-1.13764e-13,0,0,-3.6917,-0.150258,0.40271,0.343837,0.111805,-0.00661331,0.0239948,0,0.308295,-0.150258,277,-48,277,-48,398,-51,275,74,0.261799,-0.261799,0,-1.5,nan,0,0,0,0.305473,-0.164369,0,0,0,0,-0.0774973,-0.133351,15375,-0.036804,-0.272713,-0.070884,-0.157346,13117
13152,-3.72299e-12,2.2938e-38,-1.58113e-06,-3.85292e-12,2.29368e-38,-3.40903e-12,-1.13766e-13,0,0,-3.66686,-0.152976,0.38861,0.343692,0.112329,-0.00654085,0.0237318,0,0.333142,-0.152976,276,-50,276,-50,400,-50,276,70,0.261799,-0.261799,0,-1.5,nan,0,0,0,0.308103,-0.166783,0,0,0,0,-0.0525269,-0.131765,15872,-0.0351752,-0.277713,-0.045986,-0.155497,13145
13173,-3.72299e-12,2.2938e-38,-1.58113e-06,-3.85292e-12,2.29368e-38,0,-1.13763e-13,0,0,-3.66686,-0.152976,0.38861,0.343556,0.112824,-0.0064724,0.0234835,0,0.333142,-0.152976,276,-50,276,-50,400,-50,276,70,0.261799,-0.261799,0,-1.5,nan,0,0,0,0.307001,-0.169554,0,0,0,0,-0.0524584,-0.132014,15872,-0.0351752,-0.277713,-0.045986,-0.155497,13145
13194,-3.72299e-12,2.2938e-38,-1.58113e-06,-3.85292e-12,2.29368e-38,-3.40903e-12,-1.13766e-13,0,0,-3.68044,-0.147308,0.374183,0.343421,0.113314,-0.00640464,0.0232377,0,0.31956,-0.147308,278,-45,278,-45,398,-49,273,77,0.261799,-0.261799,0,-1.5,nan,0,0,0,0.316796,-0.160568,0,0,0,0,-0.0379657,-0.117653,15750,-0.0259622,-0.270923,-0.031561,-0.14089,13181
13216,-3.72299e-12,2.2938e-38,-1.58113e-06,-3.85292e-12,2.29368e-38,0,-1.13767e-13,0,0,-3.67115,-0.157054,0.398222,0.343281,0.113821,-0.00633446,0.022983,0,0.32885,-0.157054,279,-50,279,-50,398,-51,274,71,0.261799,-0.261799,0,-1.5,nan,0,0,0,0.31843,-0.161811,0,0,0,0,-0.0351305,-0.118564,15750,-0.0244771,-0.273793,-0.028796,-0.141547,13205
13233,-3.72299e-12,2.2938e-38,-1.58113e-06,-3.85292e-12,2.29368e-38,-3.40903e-12,-1.13765e-13,0,0,-3.67115,-0.157054,0.398222,0.343174,0.11421,-0.00628077,0.0227882,0,0.32885,-0.157054,279,-50,279,-50,398,-51,274,71,0.261799,-0.261799,0,-1.5,nan,0,0,0,0.317833,-0.163829,0,0,0,0,-0.0350768,-0.118759,15750,-0.0244771,-0.273793,-0.028796,-0.141547,13205
13289,-3.72299e-12,2.2938e-38,-1.58113e-06,-3.85292e-12,2.29368e-38,0,-1.13755e-13,0,0,-3.65541,-0.168325,0.382275,0.342831,0.115455,-0.00610562,0.0221527,0,0.344591,-0.168325,280,-48,280,-48,401,-53,276,76,0.261799,-0.261799,0,-1.5,nan,0,0,0,0.324154,-0.172545,0,0,0,0,-0.0244349,-0.120371,16125,-0.0176504,-0.280019,-0.0183293,-0.142524,13275
13311,-3.72299e-12,2.2938e-38,-1.58113e-06,-3.85292e-12,2.29368e-38,-3.40903e-12,-1.13756e-13,0,0,-3.67781,-0.172639,0.412746,0.342698,0.115939,-0.00603872,0.02191,0,0.322189,-0.172639,280,-51,280,-51,401,-53,277,71,0.261799,-0.261799,0,-1.5,nan,0,0,0,0.322187,-0.174115,0,0,0,0,-0.0292166,-0.119202,15624,-0.0203016,-0.288784,-0.0231779,-0.141112,13304
13328,-3.72299e-12,2.2938e-38,-1.58113e-06,-3.85292e-12,2.29368e-38,0,-1.13767e-13,0,0,-3.67781,-0.172639,0.412746,0.342595,0.11631,-0.00598755,0.0217243,0,0.322189,-0.172639,280,-51,280,-51,401,-53,277,71,0.261799,-0.261799,0,-1.5,nan,0,0,0,0.321691,-0.176144,0,0,0,0,-0.0291655,-0.119388,15624,-0.0203016,-0.288784,-0.0231779,-0.141112,13304
13355,-3.72299e-12,2.2938e-38,-1.58113e-06,-3.85292e-12,2.29368e-38,-3.40903e-12,-1.13768e-13,0,0,-3.67781,-0.172639,0.412746,0.342435,0.11689,-0.00590698,0.021432,0,0.322189,-0.172639,280,-51,280,-51,401,-53,277,71,0.261799,-0.261799,0,-1.5,nan,0,0,0,0.320732,-0.179505,0,0,0,0,-0.0269804,-0.11977,15624,-0.0211348,-0.292583,-0.0210734,-0.141202,13341
13369,-3.72299e-12,2.2938e-38,-1.58113e-06,-3.85292e-12,2.29368e-38,0,-1.13768e-13,0,0,-3.67781,-0.172639,0.412746,0.342353,0.117189,-0.00586573,0.0212824,0,0.322189,-0.172639,280,-51,280,-51,401,-53,277,71,0.261799,-0.261799,0,-1.5,nan,0,0,0,0.320354,-0.181183,0,0,0,0,-0.0269391,-0.119919,15624,-0.0211348,-0.292583,-0.0210734,-0.141202,13341
13392,-3.72299e-12,2.2938e-38,-1.58113e-06,-3.85292e-12,2.29368e-38,-3.40903e-12,-1.13769e-13,0,0,-3.67781,-0.172639,0.412746,0.342219,0.117674,-0.00579851,0.0210384,0,0.322189,-0.172639,280,-51,280,-51,401,-53,277,71,0.261799,-0.261799,0,-1.5,nan,0,0,0,0.320885,-0.183408,0,0,0,0,-0.0264052,-0.123581,15624,-0.0208607,-0.297756,-0.0206067,-0.144619,13378
13436,-3.72299e-12,2.2938e-38,-1.58113e-06,-3.85292e-12,2.29368e-38,0,-1.13769e-13,0,0,-3.63183,-0.184692,0.376333,0.341969,0.118583,-0.00567144,0.0205774,0,0.368169,-0.184692,280,-51,280,-51,405,-50,277,70,0.261799,-0.261799,0,-1.5,nan,0,0,0,0.319175,-0.190742,0,0,0,0,-0.0273971,-0.127362,16256,-0.0218381,-0.302816,-0.0217257,-0.147939,13422
13458,-3.72299e-12,2.2938e-38,-1.58113e-06,-3.85292e-12,2.29368e-38,-3.40903e-12,-1.1377e-13,0,0,-3.60535,-0.18728,0.374748,0.341845,0.119032,-0.00560925,0.0203518,0,0.394648,-0.18728,280,-53,280,-53,406,-52,277,71,0.261799,-0.261799,0,-1.5,nan,0,0,0,0.32078,-0.19387,0,0,0,0,-0.0212777,-0.132285,16254,-0.02072,-0.309545,-0.0156685,-0.152637,13445
13481,-3.72299e-12,2.2938e-38,-1.58113e-06,-3.85292e-12,2.29368e-38,0,-1.1377e-13,0,0,-3.65627,-0.194578,0.400951,0.341717,0.119497,-0.005545,0.0201187,0,0.343733,-0.194578,284,-53,284,-53,404,-51,277,71,0.261799,-0.261799,0,-1.5,nan,0,0,0,0.333157,-0.196137,0,0,0,0,0.0125807,-0.132639,16002,-0.00877753,-0.313801,0.0181257,-0.152757,13471
13502,-3.72299e-12,2.2938e-38,-1.58113e-06,-3.85292e-12,2.29368e-38,-3.40903e-12,-1.13771e-13,0,0,-3.65627,-0.194578,0.400951,0.341601,0.119916,-0.00548695,0.019908,0,0.343733,-0.194578,284,-53,284,-53,404,-51,277,71,0.261799,-0.261799,0,-1.5,nan,0,0,0,0.333422,-0.198925,0,0,0,0,0.0126387,-0.132849,16002,-0.00877753,-0.313801,0.0181257,-0.152757,13471
13525,-3.72299e-12,2.2938e-38,-1.58113e-06,-3.85292e-12,2.29368e-38,0,-1.13772e-13,0,0,-3.60239,-0.19714,0.362362,0.341476,0.120371,-0.00542407,0.0196799,0,0.39761,-0.19714,283,-50,283,-50,404,-53,277,74,0.261799,-0.261799,0,-1.5,nan,0,0,0,0.329692,-0.201871,0,0,0,0,0.000117122,-0.133641,16383,-0.0119114,-0.318715,0.00554119,-0.153321,13511
13547,-3.72299e-12,2.2938e-38,-1.58113e-06,-3.85292e-12,2.29368e-38,-3.40903e-12,-1.13772e-13,0,0,-3.71047,-0.203733,0.428374,0.341358,0.1208,-0.00536463,0.0194642,0,0.289534,-0.203733,284,-51,284,-51,406,-52,281,71,0.261799,-0.261799,0,-1.5,nan,0,0,0,0.331074,-0.205551,0,0,0,0,0.00833066,-0.134716,15625,-0.01038,-0.325272,0.0136953,-0.15418,13542
13569,-3.72299e-12,2.2938e-38,-1.58113e-06,-3.85292e-12,2.29368e-38,0,-1.13773e-13,0,0,-3.71047,-0.203733,0.428374,0.341241,0.121225,-0.00530582,0.0192509,0,0.289534,-0.203733,284,-51,284,-51,406,-52,281,71,0.261799,-0.261799,0,-1.5,nan,0,0,0,0.331258,-0.208518,0,0,0,0,0.00838948,-0.134929,15625,-0.01038,-0.325272,0.0136953,-0.15418,13542
13663,-3.72299e-12,2.2938e-38,-1.58113e-06,-3.85292e-12,2.29368e-38,-3.40903e-12,-1.13773e-13,0,0,-3.64488,-0.171878,0.381038,0.340763,0.122957,-0.00505739,0.0183495,0,0.355119,-0.171878,277,-51,277,-51,403,-50,278,71,0.261799,-0.261799,0,-1.5,nan,0,0,0,0.345994,-0.218816,0,0,0,0,0.0240952,-0.130352,16002,0.00249011,-0.327795,0.0291526,-0.148701,13649
13686,-3.72299e-12,2.2938e-38,-1.58113e-06,-3.85292e-12,2.29368e-38,0,-1.13774e-13,0,0,-3.68058,-0.177893,0.403314,0.340648,0.123376,-0.00499946,0.0181393,0,0.319422,-0.177893,279,-50,279,-50,403,-50,278,70,0.261799,-0.261799,0,-1.5,nan,0,0,0,0.331904,-0.222792,0,0,0,0,0.00666039,-0.132427,15625,-0.0088605,-0.344662,0.0116599,-0.150566,13678
13730,-3.72299e-12,2.2938e-38,-1.58113e-06,-3.85292e-12,2.29368e-38,-3.40903e-12,-1.13774e-13,0,0,-3.67533,-0.17426,0.401943,0.340432,0.124159,-0.00488987,0.0177417,0,0.324672,-0.17426,277,-50,277,-50,401,-53,281,74,0.261799,-0.261799,0,-1.5,nan,0,0,0,0.323558,-0.225972,0,0,0,0,0.000136403,-0.124284,15748,-0.0170954,-0.343882,0.00502627,-0.142026,13716
13750,-3.72299e-12,2.2938e-38,-1.58113e-06,-3.85292e-12,2.29368e-38,0,-1.13775e-13,0,0,-3.58967,-0.196217,0.350717,0.340335,0.124512,-0.00484114,0.0175649,0,0.41033,-0.196217,283,-50,283,-50,404,-53,277,76,0.261799,-0.261799,0,-1.5,nan,0,0,0,0.337928,-0.216,0,0,0,0,0.0172144,-0.104915,16641,-0.00262734,-0.339287,0.0220555,-0.122479,13742
13767,-3.72299e-12,2.2938e-38,-1.58113e-06,-3.85292e-12,2.29368e-38,-3.40903e-12,-1.13775e-13,0,0,-3.58967,-0.196217,0.350717,0.340258,0.124791,-0.00480252,0.0174248,0,0.41033,-0.196217,283,-50,283,-50,404,-53,277,76,0.261799,-0.261799,0,-1.5,nan,0,0,0,0.338204,-0.21768,0,0,0,0,0.017253,-0.105055,16641,-0.00262734,-0.339287,0.0220555,-0.122479,13742
13793,-3.72299e-12,2.2938e-38,-1.58113e-06,-3.85292e-12,2.29368e-38,0,-1.13776e-13,0,0,-3.6841,-0.200008,0.41859,0.340129,0.125257,-0.0047379,0.0171903,0,0.315905,-0.200008,283,-51,283,-51,404,-53,280,70,0.261799,-0.261799,0,-1.5,nan,0,0,0,0.329141,-0.208713,0,0,0,0,0.00358606,-0.0866302,15624,-0.0112132,-0.331167,0.00832396,-0.103821,13779
13816,-3.72299e-12,2.2938e-38,-1.58113e-06,-3.85292e-12,2.29368e-38,-3.40903e-12,-1.13776e-13,0,0,-3.69012,-0.20045,0.424303,0.340021,0.125649,-0.00468363,0.0169934,0,0.309882,-0.20045,283,-51,283,-51,404,-53,280,69,0.261799,-0.261799,0,-1.5,nan,0,0,0,0.331409,-0.203502,0,0,0,0,0.00830239,-0.0707097,15624,-0.00879423,-0.327924,0.012986,-0.0877031,13804
13833,-3.72299e-12,2.2938e-38,-1.58113e-06,-3.85292e-12,2.29368e-38,0,-1.13777e-13,0,0,-3.69012,-0.20045,0.424303,0.339942,0.125937,-0.00464394,0.0168494,0,0.309882,-0.20045,283,-51,283,-51,404,-53,280,69,0.261799,-0.261799,0,-1.5,nan,0,0,0,0.33155,-0.204706,0,0,0,0,0.00834209,-0.0708537,15624,-0.00879423,-0.327924,0.012986,-0.0877031,13804
13986,-3.72299e-12,2.2938e-38,-1.58113e-06,-3.85292e-12,2.29368e-38,-3.40903e-12,-1.13777e-13,0,0,-3.69012,-0.20045,0.424303,0.339283,0.128327,-0.00429005,0.0155654,0,0.309882,-0.20045,283,-51,283,-51,404,-53,280,69,0.261799,-0.261799,0,-1.5,nan,0,0,0,0.321797,-0.213032,0,0,0,0,-0.000331989,-0.0689649,15624,-0.0180919,-0.328427,0.00395806,-0.0845303,13846
14009,-3.72299e-12,2.2938e-38,-1.58113e-06,-3.85292e-12,2.29368e-38,0,-1.13778e-13,0,0,-3.61805,-0.197386,0.387818,0.339185,0.128682,-0.00424087,0.0153869,0,0.381951,-0.197386,280,-55,280,-55,406,-53,281,69,0.261799,-0.261799,0,-1.5,nan,0,0,0,0.325077,-0.214777,0,0,0,0,0.00549969,-0.0689607,16380,-0.0143321,-0.34152,0.00974056,-0.0843476,13995
14032,-3.72299e-12,2.2938e-38,-1.58113e-06,-3.85292e-12,2.29368e-38,-3.40903e-12,-1.13779e-13,0,0,-3.68321,-0.200588,0.418093,0.339089,0.129033,-0.00419225,0.0152105,0,0.316793,-0.200588,283,-53,283,-53,404,-51,280,70,0.261799,-0.261799,0,-1.5,nan,0,0,0,0.322628,-0.21449,0,0,0,0,-0.00691366,-0.063618,15624,-0.0163979,-0.34171,-0.00272141,-0.0788286,14018
14048,-3.72299e-12,2.2938e-38,-1.58113e-06,-3.85292e-12,2.29368e-38,0,-1.13779e-13,0,0,-3.68321,-0.200588,0.418093,0.339022,0.129275,-0.0041588,0.0150892,0,0.316793,-0.200588,283,-53,283,-53,404,-51,280,70,0.261799,-0.261799,0,-1.5,nan,0,0,0,0.322518,-0.215509,0,0,0,0,-0.00688021,-0.0637394,15624,-0.0163979,-0.34171,-0.00272141,-0.0788286,14018
14105,-3.72299e-12,2.2938e-38,-1.58113e-06,-3.85292e-12,2.29368e-38,-3.40903e-12,-1.1378e-13,0,0,-3.62798,-0.183552,0.385266,0.338791,0.130114,-0.00404071,0.0146607,0,0.372022,-0.183552,280,-51,280,-51,404,-53,277,71,0.261799,-0.261799,0,-1.5,nan,0,0,0,0.327092,-0.215927,0,0,0,0,0.00615941,-0.0611136,16002,-0.0122805,-0.341722,0.0102001,-0.0757743,14091
14127,-3.72299e-12,2.2938e-38,-1.58113e-06,-3.85292e-12,2.29368e-38,0,-1.1378e-13,0,0,-3.59108,-0.167347,0.344911,0.338703,0.130434,-0.00399644,0.0145001,0,0.408917,-0.167347,277,-48,277,-48,401,-53,276,77,0.261799,-0.261799,0,-1.5,nan,0,0,0,0.363852,-0.207475,0,0,0,0,0.039184,-0.0500338,16510,0.0245447,-0.337006,0.0431804,-0.0645339,14115
14155,-3.72299e-12,2.2938e-38,-1.58113e-06,-3.85292e-12,2.29368e-38,-3.40903e-12,-1.13781e-13,0,0,-3.62702,-0.153415,0.35503,0.338592,0.130837,-0.00394075,0.014298,0,0.372981,-0.153415,276,-50,276,-50,401,-50,276,73,0.261799,-0.261799,0,-1.5,nan,0,0,0,0.374531,-0.20621,0,0,0,0,0.0496437,-0.0457829,16250,0.0351889,-0.336206,0.0535844,-0.0600809,14143
14178,-3.72299e-12,2.2938e-38,-1.58113e-06,-3.85292e-12,2.29368e-38,0,-1.13781e-13,0,0,-3.69331,-0.148739,0.392148,0.338502,0.131163,-0.00389561,0.0141343,0,0.306688,-0.148739,277,-48,277,-48,398,-49,275,74,0.261799,-0.261799,0,-1.5,nan,0,0,0,0.367421,-0.206998,0,0,0,0,0.0404013,-0.0452183,15375,0.0284763,-0.337567,0.0442969,-0.0593526,14170
14195,-3.72299e-12,2.2938e-38,-1.58113e-06,-3.85292e-12,2.29368e-38,-3.40903e-12,-1.13782e-13,0,0,-3.69331,-0.148739,0.392148,0.338436,0.131402,-0.0038626,0.0140145,0,0.306688,-0.148739,277,-48,277,-48,398,-49,275,74,0.261799,-0.261799,0,-1.5,nan,0,0,0,0.368108,-0.207768,0,0,0,0,0.0404343,-0.0453381,15375,0.0284763,-0.337567,0.0442969,-0.0593526,14170
14217,-3.72299e-12,2.2938e-38,-1.58113e-06,-3.85292e-12,2.29368e-38,0,-1.13782e-13,0,0,-3.72639,-0.157243,0.406252,0.338352,0.131708,-0.00382027,0.0138609,0,0.273606,-0.157243,279,-48,279,-48,398,-46,275,74,0.261799,-0.261799,0,-1.5,nan,0,0,0,0.327579,-0.205397,0,0,0,0,0.00582246,-0.0450077,15129,-0.0108789,-0.336457,0.00964274,-0.0588686,14208
14273,-3.72299e-12,2.2938e-38,-1.58113e-06,-3.85292e-12,2.29368e-38,-3.40903e-12,-1.13783e-13,0,0,-3.65968,-0.152331,0.396038,0.338143,0.132466,-0.00371374,0.0134744,0,0.340315,-0.152331,275,-51,275,-51,400,-51,276,70,0.261799,-0.261799,0,-1.5,nan,0,0,0,0.340945,-0.19056,0,0,0,0,0.0192882,-0.0253971,15750,0.0015144,-0.320849,0.023002,-0.0388714,14259
14296,-3.72299e-12,2.2938e-38,-1.58113e-06,-3.85292e-12,2.29368e-38,0,-1.13783e-13,0,0,-3.71235,-0.163523,0.42779,0.338058,0.132773,-0.00367117,0.0133199,0,0.287653,-0.163523,279,-51,279,-51,400,-50,276,70,0.261799,-0.261799,0,-1.5,nan,0,0,0,0.31358,-0.187863,0,0,0,0,-0.0147408,-0.0194206,15376,-0.0242236,-0.319883,-0.0110696,-0.0327406,14282
14318,-3.72299e-12,2.2938e-38,-1.58113e-06,-3.85292e-12,2.29368e-38,-3.40903e-12,-1.13784e-13,0,0,-3.69092,-0.155281,0.420103,0.337978,0.133064,-0.00363092,0.0131739,0,0.309082,-0.155281,280,-51,280,-51,398,-53,274,71,0.261799,-0.261799,0,-1.5,nan,0,0,0,0.310549,-0.173039,0,0,0,0,-0.016633,-0.0039658,15624,-0.0271432,-0.305726,-0.0130021,-0.0171397,14304
14340,-3.72299e-12,2.2938e-38,-1.58113e-06,-3.85292e-12,2.29368e-38,0,-1.13785e-13,0,0,-3.69092,-0.155281,0.420103,0.337902,0.133338,-0.00359291,0.013036,0,0.309082,-0.155281,280,-51,280,-51,398,-53,274,71,0.261799,-0.261799,0,-1.5,nan,0,0,0,0.3102,-0.173124,0,0,0,0,-0.016595,-0.00410371,15624,-0.0271432,-0.305726,-0.0130021,-0.0171397,14304
14362,-3.72299e-12,2.2938e-38,-1.58113e-06,-3.85292e-12,2.29368e-38,-3.40903e-12,-1.13785e-13,0,0,-3.66377,-0.162557,0.395734,0.33782,0.133636,-0.00355173,0.0128866,0,0.336234,-0.162557,280,-50,280,-50,401,-53,275,74,0.261799,-0.261799,0,-1.5,nan,0,0,0,0.313476,-0.16494,0,0,0,0,-0.0139193,0.00759841,16002,-0.0241055,-0.298454,-0.0103676,-0.00528816,14348
14384,-3.72299e-12,2.2938e-38,-1.58113e-06,-3.85292e-12,2.29368e-38,0,-1.13786e-13,0,0,-3.68719,-0.156869,0.408733,0.337743,0.133917,-0.00351281,0.0127454,0,0.312812,-0.156869,280,-50,280,-50,398,-53,275,74,0.261799,-0.261799,0,-1.5,nan,0,0,0,0.320976,-0.161779,0,0,0,0,-0.00402949,0.0177597,15621,-0.016762,-0.295741,-0.000516677,0.0050143,14377
14411,-3.72299e-12,2.2938e-38,-1.58113e-06,-3.85292e-12,2.29368e-38,-3.40903e-12,-1.13786e-13,0,0,-3.68053,-0.166088,0.414374,0.337649,0.134258,-0.0034656,0.0125741,0,0.319469,-0.166088,282,-51,282,-51,400,-53,274,71,0.261799,-0.261799,0,-1.5,nan,0,0,0,0.312896,-0.160949,0,0,0,0,-0.01352,0.0201382,15876,-0.0246524,-0.295283,-0.0100544,0.00756417,14403
14428,-3.72299e-12,2.2938e-38,-1.58113e-06,-3.85292e-12,2.29368e-38,0,-1.13787e-13,0,0,-3.68053,-0.166088,0.414374,0.33759,0.134471,-0.00343623,0.0124675,0,0.319469,-0.166088,282,-51,282,-51,400,-53,274,71,0.261799,-0.261799,0,-1.5,nan,0,0,0,0.312666,-0.160608,0,0,0,0,-0.0134906,0.0200317,15876,-0.0246524,-0.295283,-0.0100544,0.00756417,14403
14447,-3.72299e-12,2.2938e-38,-1.58113e-06,-3.85292e-12,2.29368e-38,-3.40903e-12,-1.13787e-13,0,0,-3.66887,-0.147605,0.407869,0.337525,0.134706,-0.0034037,0.0123495,0,0.331135,-0.147605,277,-51,277,-51,398,-53,274,71,0.261799,-0.261799,0,-1.5,nan,0,0,0,0.318994,-0.15995,0,0,0,0,-0.00874278,0.0203705,15624,-0.0184721,-0.294745,-0.00533908,0.00802098,14438
14466,-3.72299e-12,2.2938e-38,-1.58113e-06,-3.85292e-12,2.29368e-38,0,-1.13788e-13,0,0,-3.66887,-0.147605,0.407869,0.337464,0.134927,-0.00337316,0.0122387,0,0.331135,-0.147605,277,-51,277,-51,398,-53,274,71,0.261799,-0.261799,0,-1.5,nan,0,0,0,0.318837,-0.159585,0,0,0,0,-0.00871224,0.0202596,15624,-0.0184721,-0.294745,-0.00533908,0.00802098,14438
14488,-3.72299e-12,2.2938e-38,-1.58113e-06,-3.85292e-12,2.29368e-38,-3.40903e-12,-1.13788e-13,0,0,-3.6473,-0.153167,0.391313,0.337387,0.135206,-0.00333449,0.0120984,0,0.352705,-0.153167,277,-51,277,-51,398,-53,275,73,0.261799,-0.261799,0,-1.5,nan,0,0,0,0.326861,-0.15513,0,0,0,0,0.00445349,0.0265278,15624,-0.0107052,-0.290669,0.00778797,0.0144295,14474
14510,-3.72299e-12,2.2938e-38,-1.58113e-06,-3.85292e-12,2.29368e-38,0,-1.13789e-13,0,0,-3.66887,-0.147605,0.407869,0.337314,0.135471,-0.00329795,0.0119658,0,0.331135,-0.147605,277,-51,277,-51,398,-53,274,71,0.261799,-0.261799,0,-1.5,nan,0,0,0,0.328298,-0.152502,0,0,0,0,0.00615177,0.0289475,15624,-0.00908301,-0.288092,0.00944972,0.0169817,14505
14528,-3.72299e-12,2.2938e-38,-1.58113e-06,-3.85292e-12,2.29368e-38,-3.40903e-12,-1.13789e-13,0,0,-3.66887,-0.147605,0.407869,0.337255,0.135685,-0.00326836,0.0118584,0,0.331135,-0.147605,277,-51,277,-51,398,-53,274,71,0.261799,-0.261799,0,-1.5,nan,0,0,0,0.328409,-0.151983,0,0,0,0,0.00618136,0.0288401,15624,-0.00908301,-0.288092,0.00944972,0.0169817,14505
14555,-3.72299e-12,2.2938e-38,-1.58113e-06,-3.85292e-12,2.29368e-38,0,-1.1379e-13,0,0,-3.67519,-0.159096,0.411333,0.337168,0.136002,-0.00322439,0.0116989,0,0.324812,-0.159096,280,-51,280,-51,400,-53,274,71,0.25821,-0.261799,0,-1.5,nan,0,0,0,0.324118,-0.150083,0,0,0,0,-0.0164482,0.0365765,15876,-0.0126935,-0.286757,-0.0132239,0.0248776,14541
14596,-3.72299e-12,2.2938e-38,-1.58113e-06,-3.85292e-12,2.29368e-38,-3.40903e-12,-1.1379e-13,0,0,-3.57076,-0.164733,0.351011,0.337038,0.136473,-0.00315852,0.0114599,0,0.429243,-0.164733,277,-51,277,-51,401,-55,275,74,0.255175,-0.261799,0,-1.5,nan,0,0,0,0.328571,-0.148817,0,0,0,0,-0.0152829,0.036927,16512,-0.00797,-0.286335,-0.0121244,0.0254671,14582
14619,-3.72299e-12,2.2938e-38,-1.58113e-06,-3.85292e-12,2.29368e-38,0,-1.13791e-13,0,0,-3.61192,-0.171186,0.366855,0.336966,0.136735,-0.00312235,0.0113287,0,0.388083,-0.171186,280,-50,280,-50,401,-55,276,74,0.26153,-0.261799,0,-1.5,nan,0,0,0,0.329315,-0.150928,0,0,0,0,-0.0111385,0.0353459,16250,-0.00755436,-0.287951,-0.00801613,0.0240173,14609
14663,-3.72299e-12,2.2938e-38,-1.58113e-06,-3.85292e-12,2.29368e-38,-3.40903e-12,-1.13792e-13,0,0,-3.59135,-0.150219,0.364177,0.336831,0.137224,-0.0030539,0.0110803,0,0.408653,-0.150219,275,-51,275,-51,400,-56,275,74,0.253929,-0.261799,0,-1.5,nan,0,0,0,0.334914,-0.148689,0,0,0,0,0.0127397,0.0376856,16250,-0.00261197,-0.287084,0.0157936,0.0266053,14649
14686,-3.72299e-12,2.2938e-38,-1.58113e-06,-3.85292e-12,2.29368e-38,0,-1.13792e-13,0,0,-3.61734,-0.164518,0.37156,0.336761,0.137477,-0.00301892,0.0109534,0,0.382659,-0.164518,275,-51,275,-51,401,-55,280,76,0.253204,-0.261799,0,-1.5,nan,0,0,0,0.346251,-0.14798,0,0,0,0,0.0271003,0.0371317,16506,0.00912855,-0.285772,0.0301192,0.0261783,14676
14703,-3.72299e-12,2.2938e-38,-1.58113e-06,-3.85292e-12,2.29368e-38,-3.40903e-12,-1.13793e-13,0,0,-3.61734,-0.164518,0.37156,0.33671,0.137662,-0.00299334,0.0108606,0,0.382659,-0.164518,275,-51,275,-51,401,-55,280,76,0.252041,-0.261799,0,-1.5,nan,0,0,0,0.346712,-0.14735,0,0,0,0,0.0271259,0.0370389,16506,0.00912855,-0.285772,0.0301192,0.0261783,14676
14729,-3.72299e-12,2.2938e-38,-1.58113e-06,-3.85292e-12,2.29368e-38,0,-1.13793e-13,0,0,-3.65991,-0.149472,0.402982,0.336636,0.137931,-0.00295604,0.0107253,0,0.340085,-0.149472,277,-51,277,-51,398,-53,274,71,0.245284,-0.261799,0,-1.5,nan,0,0,0,0.346904,-0.146299,0,0,0,0,0.0294595,0.0405893,15624,0.00945744,-0.284977,0.0324155,0.0298641,14715
14748,-3.72299e-12,2.2938e-38,-1.58113e-06,-3.85292e-12,2.29368e-38,-3.40903e-12,-1.13794e-13,0,0,-3.68421,-0.167515,0.405136,0.336577,0.138145,-0.00292659,0.0106184,0,0.315794,-0.167515,280,-48,280,-48,401,-53,276,74,0.261799,-0.261799,0,-1.5,nan,0,0,0,0.34196,-0.152498,0,0,0,0,0.0209566,0.0215908,15875,0.00521483,-0.290719,0.0238832,0.0109724,14743
14801,-3.72299e-12,2.2938e-38,-1.58113e-06,-3.85292e-12,2.29368e-38,0,-1.13794e-13,0,0,-3.64992,-0.164674,0.397446,0.336426,0.138694,-0.00284931,0.010338,0,0.350085,-0.164674,280,-51,280,-51,401,-53,274,71,0.253703,-0.261799,0,-1.5,nan,0,0,0,0.346551,-0.146246,0,0,0,0,0.0263157,0.0340297,16002,0.00857913,-0.286196,0.0291651,0.0236917,14787
14828,-3.72299e-12,2.2938e-38,-1.58113e-06,-3.85292e-12,2.29368e-38,-3.40903e-12,-1.13795e-13,0,0,-3.7098,-0.181622,0.419136,0.33635,0.138971,-0.00281097,0.0101989,0,0.290202,-0.181622,280,-51,280,-51,401,-50,280,71,0.234919,-0.261799,0,-1.5,nan,0,0,0,0.340111,-0.144061,0,0,0,0,0.0230731,0.0450552,15246,0.0030621,-0.283973,0.025884,0.0348563,14814
14851,-3.72299e-12,2.2938e-38,-1.58113e-06,-3.85292e-12,2.29368e-38,0,-1.13795e-13,0,0,-3.67927,-0.166163,0.396088,0.336286,0.139203,-0.00277875,0.010082,0,0.320725,-0.166163,277,-48,277,-48,401,-50,277,71,0.234791,-0.261799,0,-1.5,nan,0,0,0,0.344076,-0.143277,0,0,0,0,0.031473,0.0439256,15500,0.00700239,-0.283259,0.0342517,0.0338436,14837
14868,-3.72299e-12,2.2938e-38,-1.58113e-06,-3.85292e-12,2.29368e-38,-3.40903e-12,-1.13796e-13,0,0,-3.67927,-0.166163,0.396088,0.336241,0.139364,-0.00275658,0.0100016,0,0.320725,-0.166163,277,-48,277,-48,401,-50,277,71,0.233465,-0.261799,0,-1.5,nan,0,0,0,0.34458,-0.142575,0,0,0,0,0.0314951,0.0438452,15500,0.00700239,-0.283259,0.0342517,0.0338436,14837
14919,-3.72299e-12,2.2938e-38,-1.58113e-06,-3.85292e-12,2.29368e-38,0,-1.13796e-13,0,0,-3.64579,-0.149872,0.372342,0.336101,0.139873,-0.00268532,0.00974301,0,0.354207,-0.149872,275,-50,275,-50,400,-50,276,71,0.261799,-0.261799,0,-1.5,nan,0,0,0,0.350906,-0.154023,0,0,0,0,0.0385153,0.0133372,16125,0.0143104,-0.293939,0.0412006,0.00359419,14909
14936,-3.72299e-12,2.2938e-38,-1.58113e-06,-3.85292e-12,2.29368e-38,-3.40903e-12,-1.13797e-13,0,0,-3.64579,-0.149872,0.372342,0.336056,0.140038,-0.00266256,0.00966042,0,0.354207,-0.149872,275,-50,275,-50,400,-50,276,71,0.261799,-0.261799,0,-1.5,nan,0,0,0,0.351561,-0.153797,0,0,0,0,0.038538,0.0132546,16125,0.0143104,-0.293939,0.0412006,0.00359419,14909
14959,-3.72299e-12,2.2938e-38,-1.58113e-06,-3.85292e-12,2.29368e-38,0,-1.13798e-13,0,0,-3.69778,-0.151165,0.399417,0.335995,0.140258,-0.00263204,0.00954971,0,0.302221,-0.151165,277,-48,277,-48,398,-49,275,73,0.261799,-0.261799,0,-1.5,nan,0,0,0,0.346713,-0.154351,0,0,0,0,0.0321655,0.0113896,15252,0.00991768,-0.294652,0.0347976,0.00183992,14945
14986,-3.72299e-12,2.2938e-38,-1.58113e-06,-3.85292e-12,2.29368e-38,-3.40903e-12,-1.13798e-13,0,0,-3.66594,-0.152748,0.397377,0.335925,0.140514,-0.00259667,0.00942136,0,0.334064,-0.152748,275,-51,275,-51,400,-50,276,70,0.261799,-0.261799,0,-1.5,nan,0,0,0,0.334267,-0.154054,0,0,0,0,0.000200965,0.0117597,15750,-0.00169105,-0.294596,0.00279763,0.00233836,14976
15003,-3.72299e-12,2.2938e-38,-1.58113e-06,-3.85292e-12,2.29368e-38,0,-1.13799e-13,0,0,-3.66594,-0.152748,0.397377,0.335881,0.140673,-0.00257466,0.00934152,0,0.334064,-0.152748,275,-51,275,-51,400,-50,276,70,0.261799,-0.261799,0,-1.5,nan,0,0,0,0.334271,-0.153855,0,0,0,0,0.00022297,0.0116799,15750,-0.00169105,-0.294596,0.00279763,0.00233836,14976
15025,-3.72299e-12,2.2938e-38,-1.58113e-06,-3.85292e-12,2.29368e-38,-3.40903e-12,-1.13799e-13,0,0,-3.63159,-0.138399,0.369263,0.335824,0.140877,-0.00254643,0.00923908,0,0.368409,-0.138399,275,-48,275,-48,398,-53,273,76,0.261799,-0.261799,0,-1.5,nan,0,0,0,0.354837,-0.15284,0,0,0,0,0.0371859,0.0105564,16125,0.0181384,-0.293746,0.0397324,0.00131733,15011
15052,-3.72299e-12,2.2938e-38,-1.58113e-06,-3.85292e-12,2.29368e-38,0,-1.138e-13,0,0,-3.63228,-0.136106,0.367326,0.335756,0.141124,-0.0025122,0.0091149,0,0.367716,-0.136106,275,-48,275,-48,397,-53,273,77,0.261799,-0.261799,0,-1.5,nan,0,0,0,0.358624,-0.152652,0,0,0,0,0.0411683,0.00616101,16120,0.0223868,-0.293744,0.0436805,-0.00295389,15043
15066,-3.72299e-12,2.2938e-38,-1.58113e-06,-3.85292e-12,2.29368e-38,-3.40903e-12,-1.138e-13,0,0,-3.63228,-0.136106,0.367326,0.335721,0.141251,-0.00249466,0.00905126,0,0.367716,-0.136106,275,-48,275,-48,397,-53,273,77,0.261799,-0.261799,0,-1.5,nan,0,0,0,0.3592,-0.152566,0,0,0,0,0.0411859,0.00609737,16120,0.0223868,-0.293744,0.0436805,-0.00295389,15043
15089,-3.72299e-12,2.2938e-38,-1.58113e-06,-3.85292e-12,2.29368e-38,0,-1.13801e-13,0,0,-3.67252,-0.142766,0.403513,0.335664,0.141458,-0.00246607,0.00894752,0,0.327478,-0.142766,275,-48,275,-48,398,-53,274,71,0.261799,-0.261799,0,-1.5,nan,0,0,0,0.353417,-0.152317,0,0,0,0,0.0348356,0.0038969,15624,0.0168952,-0.293658,0.0373016,-0.00505062,15075
15111,-3.72299e-12,2.2938e-38,-1.58113e-06,-3.85292e-12,2.29368e-38,-3.40903e-12,-1.13801e-13,0,0,-3.69077,-0.142991,0.407158,0.33561,0.141653,-0.00243905,0.00884949,0,0.309233,-0.142991,275,-45,275,-45,398,-53,274,71,0.261799,-0.261799,0,-1.5,nan,0,0,0,0.357403,-0.151166,0,0,0,0,0.0428047,0.00456581,15624,0.0214763,-0.292789,0.0452438,-0.00428368,15106
15156,-3.72299e-12,2.2938e-38,-1.58113e-06,-3.85292e-12,2.29368e-38,0,-1.13802e-13,0,0,-3.64476,-0.139126,0.381194,0.335505,0.142036,-0.00238567,0.00865581,0,0.355238,-0.139126,275,-48,275,-48,398,-53,273,74,0.261799,-0.261799,0,-1.5,nan,0,0,0,0.357163,-0.147538,0,0,0,0,0.0403314,0.00982644,15875,0.0211025,-0.289589,0.0427171,0.00117063,15144
15173,-3.72299e-12,2.2938e-38,-1.58113e-06,-3.85292e-12,2.29368e-38,-3.40903e-12,-1.13802e-13,0,0,-3.64476,-0.139126,0.381194,0.335462,0.142191,-0.00236426,0.00857813,0,0.355238,-0.139126,275,-48,275,-48,398,-53,273,74,0.261799,-0.261799,0,-1.5,nan,0,0,0,0.357889,-0.147362,0,0,0,0,0.0403529,0.00974876,15875,0.0211025,-0.289589,0.0427171,0.00117063,15144
