timestamp,A_x,A_y,A_z,P,Q,R,Phi,Theta,Psi,poseX,poseY,poseZ,state_X,state_Y,state_Z,state_VzB,state_Bx,state_By,state_Bz,p1_x,p1_y,p2_x,p2_y,p3_x,p3_y,p4_x,p4_y,roll,pitch,yaw,alt,targetHeading,highLevelState,lowLevelState,gateNumber,filtered_x,filtered_y
10,0,0,0,0,0,0,0,0,0,0,0,0,0,0,0,0,0,0,0,0,0,0,0,0,0,0,0,0,-0.261799,0.0141372,-1.5,3.94113e+12,0,0,0,0,0
20,-3.20974e-12,0,-1.54806e-06,-3.27649e-12,0,0,-1.06589e-13,0,0,0,0,0,0,0,0,0,0,0,0,0,0,0,0,0,0,0,0,0,-0.261799,0.626747,-1.5,3.94113e+12,0,0,0,0,0
30,-3.20974e-12,0,-1.54806e-06,-3.27649e-12,0,-3.40902e-12,-1.0659e-13,0,0,0,0,0,0,0,0,0,0,0,0,0,0,0,0,0,0,0,0,0,-0.261799,0.648738,-1.5,3.94113e+12,0,0,0,0,0
40,-3.20974e-12,0,-1.54806e-06,-3.27649e-12,0,0,-1.0659e-13,0,0,0,0,0,0,0,0,0,0,0,0,0,0,0,0,0,0,0,0,0,-0.261799,0.694291,-1.5,3.94113e+12,0,0,0,0,0
50,-3.20974e-12,0,-1.54806e-06,-3.27649e-12,0,-3.40902e-12,-1.0659e-13,0,0,0,0,0,0,0,0,0,0,0,0,0,0,0,0,0,0,0,0,0,-0.261799,0.727278,-1.5,3.94113e+12,0,0,0,0,0
60,-3.20974e-12,0,-1.54806e-06,-3.27649e-12,0,0,-1.0659e-13,0,0,0,0,0,0,0,0,0,0,0,0,0,0,0,0,0,0,0,0,0,-0.261799,0.788539,-1.5,3.94113e+12,0,0,0,0,0
70,-3.20974e-12,0,-1.54806e-06,-3.27649e-12,0,-3.40902e-12,-1.06591e-13,0,0,0,0,0,0,0,0,0,0,0,0,0,0,0,0,0,0,0,0,0,-0.261799,0.821526,-1.5,3.94113e+12,0,0,0,0,0
80,-3.20974e-12,0,-1.54806e-06,-3.27649e-12,0,0,-1.06591e-13,0,0,0,0,0,0,0,0,0,0,0,0,0,0,0,0,0,0,0,0,0,-0.261799,0.856083,-1.5,3.94113e+12,0,0,0,0,0
90,-3.20974e-12,0,-1.54806e-06,-3.27649e-12,0,-3.40902e-12,-1.06591e-13,0,0,0,0,0,0,0,0,0,0,0,0,0,0,0,0,0,0,0,0,0,-0.261799,0.88907,-1.5,3.94113e+12,0,0,0,0,0
100,-3.20974e-12,0,-1.54806e-06,-3.27649e-12,0,0,-1.06591e-13,0,0,0,0,0,0,0,0,0,0,0,0,0,0,0,0,0,0,0,0,0,-0.261799,0.918915,-1.5,3.94113e+12,0,0,0,0,0
110,-3.20974e-12,0,-1.54806e-06,-3.27649e-12,0,-3.40902e-12,-1.06592e-13,0,0,0,0,0,0,0,0,0,0,0,0,0,0,0,0,0,0,0,0,0,-0.261799,0.950331,-1.5,3.94113e+12,0,0,0,0,0
120,-3.20974e-12,0,-1.54806e-06,-3.27649e-12,0,0,-1.06592e-13,0,0,0,0,0,0,0,0,0,0,0,0,0,0,0,0,0,0,0,0,0,-0.261799,0.986459,-1.5,3.94113e+12,0,0,0,0,0
130,-3.20974e-12,0,-1.54806e-06,-3.27649e-12,0,-3.40902e-12,-1.06592e-13,0,0,0,0,0,0,0,0,0,0,0,0,0,0,0,0,0,0,0,0,0,-0.261799,1.01788,-1.5,3.94113e+12,0,0,0,0,0
140,-3.20974e-12,0,-1.54806e-06,-3.27649e-12,0,0,-1.06593e-13,0,0,0,0,0,0,0,0,0,0,0,0,0,0,0,0,0,0,0,0,0,-0.261799,1.054,-1.5,3.94113e+12,0,0,0,0,0
150,-3.20974e-12,0,-1.54806e-06,-3.27649e-12,0,-3.40902e-12,-1.06593e-13,0,0,0,0,0,0,0,0,0,0,0,0,0,0,0,0,0,0,0,0,0,-0.261799,1.08542,-1.5,3.94113e+12,0,0,0,0,0
160,-3.20974e-12,0,-1.54806e-06,-3.27649e-12,0,0,-1.06593e-13,0,0,0,0,0,0,0,0,0,0,0,0,0,0,0,0,0,0,0,0,0,-0.261799,1.11998,-1.5,3.94113e+12,0,0,0,0,0
170,-3.20974e-12,0,-1.54806e-06,-3.27649e-12,0,-3.40902e-12,-1.06593e-13,0,0,0,0,0,0,0,0,0,0,0,0,0,0,0,0,0,0,0,0,0,-0.261799,1.15296,-1.5,3.94113e+12,0,0,0,0,0
180,-3.20974e-12,0,-1.54806e-06,-3.27649e-12,0,0,-1.06594e-13,0,0,0,0,0,0,0,0,0,0,0,0,0,0,0,0,0,0,0,0,0,-0.261799,1.18752,-1.5,3.94113e+12,0,0,0,0,0
190,-3.20974e-12,0,-1.54806e-06,-3.27649e-12,0,-3.40902e-12,-1.06594e-13,0,0,0,0,0,0,0,0,0,0,0,0,0,0,0,0,0,0,0,0,0,-0.261799,1.2535,-1.5,3.94113e+12,0,0,0,0,0
200,-3.20974e-12,0,-1.54806e-06,-3.27649e-12,0,0,-1.06594e-13,0,0,0,0,0,0,0,0,0,0,0,0,0,0,0,0,0,0,0,0,0,-0.261799,1.3069,-1.5,3.94113e+12,0,0,0,0,0
210,-3.20974e-12,0,-1.54806e-06,-3.27649e-12,0,-3.40902e-12,-1.06594e-13,0,0,0,0,0,0,0,0,0,0,0,0,0,0,0,0,0,0,0,0,0,-0.261799,1.33832,-1.5,3.94113e+12,0,0,0,0,0
220,-3.20974e-12,0,-1.54806e-06,-3.27649e-12,0,0,-1.06595e-13,0,0,0,0,0,0,0,0,0,0,0,0,0,0,0,0,0,0,0,0,0,-0.261799,1.37445,-1.5,3.94113e+12,0,0,0,0,0
230,-3.20974e-12,0,-1.54806e-06,-3.27649e-12,0,-3.40902e-12,-1.06595e-13,0,0,0,0,0,0,0,0,0,0,0,0,0,0,0,0,0,0,0,0,0,-0.261799,1.40586,-1.5,3.94113e+12,0,0,0,0,0
240,-3.20974e-12,0,-1.54806e-06,-3.27649e-12,0,0,-1.06595e-13,0,0,0,0,0,0,0,0,0,0,0,0,0,0,0,0,0,0,0,0,0,-0.261799,1.44042,-1.5,3.94113e+12,0,0,0,0,0
250,-3.20974e-12,0,-1.54806e-06,-3.27649e-12,0,-3.40902e-12,-1.06596e-13,0,0,0,0,0,0,0,0,0,0,0,0,0,0,0,0,0,0,0,0,0,-0.261799,1.47184,-1.5,3.94113e+12,0,0,0,0,0
260,-3.20974e-12,0,-1.54806e-06,-3.27649e-12,0,0,-1.06596e-13,0,0,0,0,0,0,0,0,0,0,0,0,0,0,0,0,0,0,0,0,0,-0.261799,1.50797,-1.5,3.94113e+12,0,0,0,0,0
270,-3.20974e-12,0,-1.54806e-06,-3.27649e-12,0,-3.40902e-12,-1.06596e-13,0,0,0,0,0,0,0,0,0,0,0,0,0,0,0,0,0,0,0,0,0,-0.261799,1.53467,-1.5,3.94113e+12,0,0,0,0,0
280,-3.20974e-12,0,-1.54806e-06,-3.27649e-12,0,0,-1.06596e-13,0,0,0,0,0,0,0,0,0,0,0,0,0,0,0,0,0,0,0,0,0,-0.261799,1.55823,-1.5,3.94113e+12,0,0,0,0,0
290,-3.20974e-12,0,-1.54806e-06,-3.27649e-12,0,-3.40902e-12,-1.06597e-13,0,0,0,0,0,0,0,0,0,0,0,0,0,0,0,0,0,0,0,0,0,-0.261799,1.58022,-1.5,3.94113e+12,0,0,0,0,0
300,-3.20974e-12,0,-1.54806e-06,-3.27649e-12,0,0,-1.06597e-13,0,0,0,0,0,0,0,0,0,0,0,0,0,0,0,0,0,0,0,0,0,-0.261799,1.60536,-1.5,3.94113e+12,0,0,0,0,0
310,-3.20974e-12,0,-1.54806e-06,-3.27649e-12,0,-3.40902e-12,-1.06597e-13,0,0,0,0,0,0,0,0,0,0,0,0,0,0,0,0,0,0,0,0,0,-0.261799,1.64148,-1.5,3.94113e+12,0,0,0,0,0
320,-3.20974e-12,0,-1.54806e-06,-3.27649e-12,0,0,-1.06597e-13,0,0,0,0,0,0,0,0,0,0,0,0,0,0,0,0,0,0,0,0,0,-0.261799,1.6729,-1.5,3.94113e+12,0,0,0,0,0
330,-3.20974e-12,0,-1.54806e-06,-3.27649e-12,0,-3.40902e-12,-1.06598e-13,0,0,0,0,0,0,0,0,0,0,0,0,0,0,0,0,0,0,0,0,0,-0.261799,1.70903,-1.5,3.94113e+12,0,0,0,0,0
340,-3.20974e-12,0,-1.54806e-06,-3.27649e-12,0,0,-1.06598e-13,0,0,0,0,0,0,0,0,0,0,0,0,0,0,0,0,0,0,0,0,0,-0.261799,1.74044,-1.5,3.94113e+12,0,0,0,0,0
350,-3.20974e-12,0,-1.54806e-06,-3.27649e-12,0,-3.40902e-12,-1.06598e-13,0,0,0,0,0,0,0,0,0,0,0,0,0,0,0,0,0,0,0,0,0,-0.261799,1.77657,-1.5,3.94113e+12,0,0,0,0,0
360,-3.20974e-12,0,-1.54806e-06,-3.27649e-12,0,0,-1.06599e-13,0,0,0,0,0,0,0,0,0,0,0,0,0,0,0,0,0,0,0,0,0,-0.261799,1.80956,-1.5,3.94113e+12,0,0,0,0,0
370,-3.20974e-12,0,-1.54806e-06,-3.27649e-12,0,-3.40902e-12,-1.06599e-13,0,0,0,0,0,0,0,0,0,0,0,0,0,0,0,0,0,0,0,0,0,-0.261799,1.84412,-1.5,3.94113e+12,0,0,0,0,0
380,-3.20974e-12,0,-1.54806e-06,-3.27649e-12,0,0,-1.06599e-13,0,0,0,0,0,0,0,0,0,0,0,0,0,0,0,0,0,0,0,0,0,-0.261799,1.8771,-1.5,3.94113e+12,0,0,0,0,0
390,-3.20974e-12,0,-1.54806e-06,-3.27649e-12,0,-3.40902e-12,-1.06599e-13,0,0,0,0,0,0,0,0,0,0,0,0,0,0,0,0,0,0,0,0,0,-0.261799,1.91166,-1.5,3.94113e+12,0,0,0,0,0
400,-3.20974e-12,0,-1.54806e-06,-3.27649e-12,0,0,-1.066e-13,0,0,0,0,0,0,0,0,0,0,0,0,0,0,0,0,0,0,0,0,0,-0.261799,1.94308,-1.5,3.94113e+12,0,0,0,0,0
410,-3.20974e-12,0,-1.54806e-06,-3.27649e-12,0,-3.40902e-12,-1.066e-13,0,0,0,0,0,0,0,0,0,0,0,0,0,0,0,0,0,0,0,0,0,-0.261799,1.97921,-1.5,3.94113e+12,0,0,0,0,0
420,-3.20974e-12,0,-1.54806e-06,-3.27649e-12,0,0,-1.066e-13,0,0,0,0,0,0,0,0,0,0,0,0,0,0,0,0,0,0,0,0,0,-0.261799,2.01062,-1.5,3.94113e+12,0,0,0,0,0
430,-3.20974e-12,0,-1.54806e-06,-3.27649e-12,0,-3.40902e-12,-1.066e-13,0,0,0,0,0,0,0,0,0,0,0,0,0,0,0,0,0,0,0,0,0,-0.261799,2.04518,-1.5,3.94113e+12,0,0,0,0,0
440,-3.20974e-12,0,-1.54806e-06,-3.27649e-12,0,0,-1.06601e-13,0,0,0,0,0,0,0,0,0,0,0,0,0,0,0,0,0,0,0,0,0,-0.261799,2.07817,-1.5,3.94113e+12,0,0,0,0,0
450,-3.20974e-12,0,-1.54806e-06,-3.27649e-12,0,-3.40902e-12,-1.06601e-13,0,0,0,0,0,0,0,0,0,0,0,0,0,0,0,0,0,0,0,0,0,-0.261799,2.11272,-1.5,3.94113e+12,0,0,0,0,0
460,-3.20974e-12,0,-1.54806e-06,-3.27649e-12,0,0,-1.06601e-13,0,0,0,0,0,0,0,0,0,0,0,0,0,0,0,0,0,0,0,0,0,-0.261799,2.14414,-1.5,3.94113e+12,0,0,0,0,0
470,-3.20974e-12,0,-1.54806e-06,-3.27649e-12,0,-3.40902e-12,-1.06602e-13,0,0,0,0,0,0,0,0,0,0,0,0,0,0,0,0,0,0,0,0,0,-0.261799,2.18027,-1.5,3.94113e+12,0,0,0,0,0
480,-3.20974e-12,0,-1.54806e-06,-3.27649e-12,0,0,-1.06602e-13,0,0,0,0,0,0,0,0,0,0,0,0,0,0,0,0,0,0,0,0,0,-0.261799,2.21168,-1.5,3.94113e+12,0,0,0,0,0
490,-3.20974e-12,0,-1.54806e-06,-3.27649e-12,0,-3.40902e-12,-1.06602e-13,0,0,0,0,0,0,0,0,0,0,0,0,0,0,0,0,0,0,0,0,0,-0.261799,2.24781,-1.5,3.94113e+12,0,0,0,0,0
500,-3.20974e-12,0,-1.54806e-06,-3.27649e-12,0,0,-1.06602e-13,0,0,0,0,0,0,0,0,0,0,0,0,0,0,0,0,0,0,0,0,0,-0.261799,2.27923,-1.5,3.94113e+12,0,0,0,0,0
510,-3.20974e-12,0,-1.54806e-06,-3.27649e-12,0,-3.40902e-12,-1.06603e-13,0,0,0,0,0,0,0,0,0,0,0,0,0,0,0,0,0,0,0,0,0,-0.261799,2.31536,-1.5,3.94113e+12,0,0,0,0,0
520,-3.20974e-12,0,-1.54806e-06,-3.27649e-12,0,0,-1.06603e-13,0,0,0,0,0,0,0,0,0,0,0,0,0,0,0,0,0,0,0,0,0,-0.261799,2.34677,-1.5,3.94113e+12,0,0,0,0,0
530,-3.20974e-12,0,-1.54806e-06,-3.27649e-12,0,-3.40902e-12,-1.06603e-13,0,0,0,0,0,0,0,0,0,0,0,0,0,0,0,0,0,0,0,0,0,-0.261799,2.38258,-1.5,3.94113e+12,0,0,0,0,0
540,-3.20974e-12,0,-1.54806e-06,-3.27649e-12,0,0,-1.06603e-13,0,0,0,0,0,0,0,0,0,0,0,0,0,0,0,0,0,0,0,0,0,-0.261799,2.40661,-1.5,3.94113e+12,0,0,0,0,0
550,-3.20974e-12,0,-1.54806e-06,-3.27649e-12,0,-3.40902e-12,-1.06604e-13,0,0,0,0,0,0,0,0,0,0,0,0,0,0,0,0,0,0,0,0,0,-0.261799,2.42987,-1.5,3.94113e+12,0,0,0,0,0
560,-3.20974e-12,0,-1.54806e-06,-3.27649e-12,0,0,-1.06604e-13,0,0,0,0,0,0,0,0,0,0,0,0,0,0,0,0,0,0,0,0,0,-0.261799,2.45379,-1.5,3.94113e+12,0,0,0,0,0
570,-3.20974e-12,0,-1.54806e-06,-3.27649e-12,0,-3.40902e-12,-1.06604e-13,0,0,0,0,0,0,0,0,0,0,0,0,0,0,0,0,0,0,0,0,0,-0.261799,2.47556,-1.5,3.94113e+12,0,0,0,0,0
580,-3.20974e-12,0,-1.54806e-06,-3.27649e-12,0,0,-1.06605e-13,0,0,0,0,0,0,0,0,0,0,0,0,0,0,0,0,0,0,0,0,0,-0.261799,2.50579,-1.5,3.94113e+12,0,0,0,0,0
590,-3.20974e-12,0,-1.54806e-06,-3.27649e-12,0,-3.40902e-12,-1.06605e-13,0,0,0,0,0,0,0,0,0,0,0,0,0,0,0,0,0,0,0,0,0,-0.261799,2.53092,-1.5,3.94113e+12,0,0,0,0,0
600,-3.20974e-12,0,-1.54806e-06,-3.27649e-12,0,0,-1.06605e-13,0,0,0,0,0,0,0,0,0,0,0,0,0,0,0,0,0,0,0,0,0,-0.261799,2.55746,-1.5,3.94113e+12,0,0,0,0,0
610,-3.20974e-12,0,-1.54806e-06,-3.27649e-12,0,-3.40902e-12,-1.06605e-13,0,0,0,0,0,0,0,0,0,0,0,0,0,0,0,0,0,0,0,0,0,-0.261799,2.58167,-1.5,3.94113e+12,0,0,0,0,0
620,-3.20974e-12,0,-1.54806e-06,-3.27649e-12,0,0,-1.06606e-13,0,0,0,0,0,0,0,0,0,0,0,0,0,0,0,0,0,0,0,0,0,-0.261799,2.606,-1.5,3.94113e+12,0,0,0,0,0
630,-3.20974e-12,0,-1.54806e-06,-3.27649e-12,0,-3.40902e-12,-1.06606e-13,0,0,0,0,0,0,0,0,0,0,0,0,0,0,0,0,0,0,0,0,0,-0.261799,2.62717,-1.5,3.94113e+12,0,0,0,0,0
640,-3.20974e-12,0,-1.54806e-06,-3.27649e-12,0,0,-1.06606e-13,0,0,0,0,0,0,0,0,0,0,0,0,0,0,0,0,0,0,0,0,0,-0.261799,2.65054,-1.5,3.94113e+12,0,0,0,0,0
650,-3.20974e-12,0,-1.54806e-06,-3.27649e-12,0,-3.40902e-12,-1.06606e-13,0,0,0,0,0,0,0,0,0,0,0,0,0,0,0,0,0,0,0,0,0,-0.261799,2.67089,-1.5,3.94113e+12,0,0,0,0,0
660,-3.20974e-12,0,-1.54806e-06,-3.27649e-12,0,0,-1.06607e-13,0,0,0,0,0,0,0,0,0,0,0,0,0,0,0,0,0,0,0,0,0,-0.261799,2.69135,-1.5,3.94113e+12,0,0,0,0,0
670,-3.20974e-12,0,-1.54806e-06,-3.27649e-12,0,-3.40902e-12,-1.06607e-13,0,0,0,0,0,0,0,0,0,0,0,0,0,0,0,0,0,0,0,0,0,-0.261799,2.70914,-1.5,3.94113e+12,0,0,0,0,0
680,-3.20974e-12,0,-1.54806e-06,-3.27649e-12,0,0,-1.06607e-13,0,0,0,0,0,0,0,0,0,0,0,0,0,0,0,0,0,0,0,0,0,-0.261799,2.72794,-1.5,3.94113e+12,0,0,0,0,0
690,-3.20974e-12,0,-1.54806e-06,-3.27649e-12,0,-3.40902e-12,-1.06607e-13,0,0,0,0,0,0,0,0,0,0,0,0,0,0,0,0,0,0,0,0,0,-0.261799,2.74508,-1.5,3.94113e+12,0,0,0,0,0
700,-3.20974e-12,0,-1.54806e-06,-3.27649e-12,0,0,-1.06608e-13,0,0,0,0,0,0,0,0,0,0,0,0,0,0,0,0,0,0,0,0,0,-0.261799,2.76232,-1.5,3.94113e+12,0,0,0,0,0
710,-3.20974e-12,0,-1.54806e-06,-3.27649e-12,0,-3.40902e-12,-1.06608e-13,0,0,0,0,0,0,0,0,0,0,0,0,0,0,0,0,0,0,0,0,0,-0.261799,2.77804,-1.5,3.94113e+12,0,0,0,0,0
720,-3.20974e-12,0,-1.54806e-06,-3.27649e-12,0,0,-1.06608e-13,0,0,0,0,0,0,0,0,0,0,0,0,0,0,0,0,0,0,0,0,0,-0.261799,2.79384,-1.5,3.94113e+12,0,0,0,0,0
730,-3.20974e-12,0,-1.54806e-06,-3.27649e-12,0,-3.40902e-12,-1.06609e-13,0,0,0,0,0,0,0,0,0,0,0,0,0,0,0,0,0,0,0,0,0,-0.261799,2.80825,-1.5,3.94113e+12,0,0,0,0,0
740,-3.20974e-12,0,-1.54806e-06,-3.27649e-12,0,0,-1.06609e-13,0,0,0,0,0,0,0,0,0,0,0,0,0,0,0,0,0,0,0,0,0,-0.261799,2.82272,-1.5,3.94113e+12,0,0,0,0,0
750,-3.20974e-12,0,-1.54806e-06,-3.27649e-12,0,-3.40902e-12,-1.06609e-13,0,0,0,0,0,0,0,0,0,0,0,0,0,0,0,0,0,0,0,0,0,-0.261799,2.83532,-1.5,3.94113e+12,0,0,0,0,0
760,-3.20974e-12,0,-1.54806e-06,-3.27649e-12,0,0,-1.06609e-13,0,0,0,0,0,0,0,0,0,0,0,0,0,0,0,0,0,0,0,0,0,-0.261799,2.84921,-1.5,3.94113e+12,0,0,0,0,0
770,-3.20974e-12,0,-1.54806e-06,-3.27649e-12,0,-3.40902e-12,-1.0661e-13,0,0,0,0,0,0,0,0,0,0,0,0,0,0,0,0,0,0,0,0,0,-0.261799,2.86076,-1.5,3.94113e+12,0,0,0,0,0
780,-3.20974e-12,0,-1.54806e-06,-3.27649e-12,0,0,-1.0661e-13,0,0,0,0,0,0,0,0,0,0,0,0,0,0,0,0,0,0,0,0,0,-0.261799,2.87296,-1.5,3.94113e+12,0,0,0,0,0
790,-3.20974e-12,0,-1.54806e-06,-3.27649e-12,0,-3.40902e-12,-1.0661e-13,0,0,0,0,0,0,0,0,0,0,0,0,0,0,0,0,0,0,0,0,0,-0.261799,2.88411,-1.5,3.94113e+12,0,0,0,0,0
800,-3.20974e-12,0,-1.54806e-06,-3.27649e-12,0,0,-1.0661e-13,0,0,0,0,0,0,0,0,0,0,0,0,0,0,0,0,0,0,0,0,0,-0.261799,2.8953,-1.5,3.94113e+12,0,0,0,0,0
810,-3.20974e-12,0,-1.54806e-06,-3.27649e-12,0,-3.40902e-12,-1.06611e-13,0,0,0,0,0,0,0,0,0,0,0,0,0,0,0,0,0,0,0,0,0,-0.261799,2.91812,-1.5,3.94113e+12,0,0,0,0,0
820,-3.20974e-12,0,-1.54806e-06,-3.27649e-12,0,0,-1.06611e-13,0,0,0,0,0,0,0,0,0,0,0,0,0,0,0,0,0,0,0,0,0,-0.261799,2.92519,-1.5,3.94113e+12,0,0,0,0,0
830,-3.20974e-12,0,-1.54806e-06,-3.27649e-12,0,-3.40902e-12,-1.06611e-13,0,0,0,0,0,0,0,0,0,0,0,0,0,0,0,0,0,0,0,0,0,-0.261799,2.93247,-1.5,3.94113e+12,0,0,0,0,0
840,-3.20974e-12,0,-1.54806e-06,-3.27649e-12,0,0,-1.06612e-13,0,0,0,0,0,0,0,0,0,0,0,0,0,0,0,0,0,0,0,0,0,-0.261799,2.94073,-1.5,3.94113e+12,0,0,0,0,0
850,-3.20974e-12,0,-1.54806e-06,-3.27649e-12,0,-3.40902e-12,-1.06612e-13,0,0,0,0,0,0,0,0,0,0,0,0,0,0,0,0,0,0,0,0,0,-0.261799,2.94985,-1.5,3.94113e+12,0,0,0,0,0
860,-3.20974e-12,0,-1.54806e-06,-3.27649e-12,0,0,-1.06612e-13,0,0,0,0,0,0,0,0,0,0,0,0,0,0,0,0,0,0,0,0,0,-0.261799,2.95779,-1.5,3.94113e+12,0,0,0,0,0
870,-3.20974e-12,0,-1.54806e-06,-3.27649e-12,0,-3.40902e-12,-1.06612e-13,0,0,0,0,0,0,0,0,0,0,0,0,0,0,0,0,0,0,0,0,0,-0.261799,2.96578,-1.5,3.94113e+12,0,0,0,0,0
880,-3.20974e-12,0,-1.54806e-06,-3.27649e-12,0,0,-1.06613e-13,0,0,0,0,0,0,0,0,0,0,0,0,0,0,0,0,0,0,0,0,0,-0.261799,2.97307,-1.5,3.94113e+12,0,0,0,0,0
890,-3.20974e-12,0,-1.54806e-06,-3.27649e-12,0,-3.40902e-12,-1.06613e-13,0,0,0,0,0,0,0,0,0,0,0,0,0,0,0,0,0,0,0,0,0,-0.261799,2.98038,-1.5,3.94113e+12,0,0,0,0,0
900,-3.20974e-12,0,-1.54806e-06,-3.27649e-12,0,0,-1.06613e-13,0,0,0,0,0,0,0,0,0,0,0,0,0,0,0,0,0,0,0,0,0,-0.261799,2.98676,-1.5,3.94113e+12,0,0,0,0,0
910,-3.20974e-12,0,-1.54806e-06,-3.27649e-12,0,-3.40902e-12,-1.06613e-13,0,0,0,0,0,0,0,0,0,0,0,0,0,0,0,0,0,0,0,0,0,-0.261799,2.99378,-1.5,3.94113e+12,0,0,0,0,0
920,-3.20974e-12,0,-1.54806e-06,-3.27649e-12,0,0,-1.06614e-13,0,0,0,0,0,0,0,0,0,0,0,0,0,0,0,0,0,0,0,0,0,-0.261799,2.99962,-1.5,3.94113e+12,0,0,0,0,0
930,-3.20974e-12,0,-1.54806e-06,-3.27649e-12,0,-3.40902e-12,-1.06614e-13,0,0,0,0,0,0,0,0,0,0,0,0,0,0,0,0,0,0,0,0,0,-0.261799,3.00579,-1.5,3.94113e+12,0,0,0,0,0
940,-3.20974e-12,0,-1.54806e-06,-3.27649e-12,0,0,-1.06614e-13,0,0,0,0,0,0,0,0,0,0,0,0,0,0,0,0,0,0,0,0,0,-0.261799,3.01143,-1.5,3.94113e+12,0,0,0,0,0
950,-3.20974e-12,0,-1.54806e-06,-3.27649e-12,0,-3.40902e-12,-1.06615e-13,0,0,0,0,0,0,0,0,0,0,0,0,0,0,0,0,0,0,0,0,0,-0.261799,3.01708,-1.5,3.94113e+12,0,0,0,0,0
960,-3.20974e-12,0,-1.54806e-06,-3.27649e-12,0,0,-1.06615e-13,0,0,0,0,0,0,0,0,0,0,0,0,0,0,0,0,0,0,0,0,0,-0.261799,3.02225,-1.5,3.94113e+12,0,0,0,0,0
970,-3.20974e-12,0,-1.54806e-06,-3.27649e-12,0,-3.40902e-12,-1.06615e-13,0,0,0,0,0,0,0,0,0,0,0,0,0,0,0,0,0,0,0,0,0,-0.261799,3.02743,-1.5,3.94113e+12,0,0,0,0,0
980,-3.20974e-12,0,-1.54806e-06,-3.27649e-12,0,0,-1.06615e-13,0,0,0,0,0,0,0,0,0,0,0,0,0,0,0,0,0,0,0,0,0,-0.261799,3.03194,-1.5,3.94113e+12,0,0,0,0,0
990,-3.20974e-12,0,-1.54806e-06,-3.27649e-12,0,-3.40902e-12,-1.06616e-13,0,0,0,0,0,0,0,0,0,0,0,0,0,0,0,0,0,0,0,0,0,-0.261799,3.03692,-1.5,3.94113e+12,0,0,0,0,0
1000,-3.20974e-12,0,-1.54806e-06,-3.27649e-12,0,0,-1.06616e-13,0,0,0,0,0,0,0,0,0,0,0,0,0,0,0,0,0,0,0,0,0,-0.261799,3.04126,-1.5,3.94113e+12,0,0,0,0,0
1010,-3.20974e-12,0,-1.54806e-06,-3.27649e-12,0,-3.40902e-12,-1.06616e-13,0,0,0,0,0,0,0,0,0,0,0,0,0,0,0,0,0,0,0,0,0,-0.261799,3.04562,-1.5,3.94113e+12,0,0,0,0,0
1020,-3.20974e-12,0,-1.54806e-06,-3.27649e-12,0,0,-1.06616e-13,0,0,0,0,0,0,0,0,0,0,0,0,0,0,0,0,0,0,0,0,0,-0.261799,3.0496,-1.5,3.94113e+12,0,0,0,0,0
1030,-3.20974e-12,0,-1.54806e-06,-3.27649e-12,0,-3.40902e-12,-1.06617e-13,0,0,0,0,0,0,0,0,0,0,0,0,0,0,0,0,0,0,0,0,0,-0.261799,3.0536,-1.5,3.94113e+12,0,0,0,0,0
1040,-3.20974e-12,0,-1.54806e-06,-3.27649e-12,0,0,-1.06617e-13,0,0,0,0,0,0,0,0,0,0,0,0,0,0,0,0,0,0,0,0,0,-0.261799,3.05708,-1.5,3.94113e+12,0,0,0,0,0
1050,-3.20974e-12,0,-1.54806e-06,-3.27649e-12,0,-3.40902e-12,-1.06617e-13,0,0,0,0,0,0,0,0,0,0,0,0,0,0,0,0,0,0,0,0,0,-0.261799,3.06091,-1.5,3.94113e+12,0,0,0,0,0
1060,-3.20974e-12,0,-1.54806e-06,-3.27649e-12,0,0,-1.06618e-13,0,0,0,0,0,0,0,0,0,0,0,0,0,0,0,0,0,0,0,0,0,-0.261799,3.06442,-1.5,3.94113e+12,0,0,0,0,0
1070,-3.20974e-12,0,-1.54806e-06,-3.27649e-12,0,-3.40902e-12,-1.06618e-13,0,0,0,0,0,0,0,0,0,0,0,0,0,0,0,0,0,0,0,0,0,-0.261799,3.06686,-1.5,3.94113e+12,0,0,0,0,0
1080,-3.20974e-12,0,-1.54806e-06,-3.27649e-12,0,0,-1.06618e-13,0,0,0,0,0,0,0,0,0,0,0,0,0,0,0,0,0,0,0,0,0,-0.261799,3.06937,-1.5,3.94113e+12,0,0,0,0,0
1090,-3.20974e-12,0,-1.54806e-06,-3.27649e-12,0,-3.40902e-12,-1.06618e-13,0,0,0,0,0,0,0,0,0,0,0,0,0,0,0,0,0,0,0,0,0,-0.261799,3.07151,-1.5,3.94113e+12,0,0,0,0,0
1100,-3.20974e-12,0,-1.54806e-06,-3.27649e-12,0,0,-1.06619e-13,0,0,0,0,0,0,0,0,0,0,0,0,0,0,0,0,0,0,0,0,0,-0.261799,3.07387,-1.5,3.94113e+12,0,0,0,0,0
1110,-3.20974e-12,0,-1.54806e-06,-3.27649e-12,0,-3.40902e-12,-1.06619e-13,0,0,0,0,0,0,0,0,0,0,0,0,0,0,0,0,0,0,0,0,0,-0.261799,3.07681,-1.5,3.94113e+12,0,0,0,0,0
1120,-3.20974e-12,0,-1.54806e-06,-3.27649e-12,0,0,-1.06619e-13,0,0,0,0,0,0,0,0,0,0,0,0,0,0,0,0,0,0,0,0,0,-0.261799,3.07962,-1.5,3.94113e+12,0,0,0,0,0
1130,-3.20974e-12,0,-1.54806e-06,-3.27649e-12,0,-3.40902e-12,-1.06619e-13,0,0,0,0,0,0,0,0,0,0,0,0,0,0,0,0,0,0,0,0,0,-0.261799,3.0822,-1.5,3.94113e+12,0,0,0,0,0
1140,-3.20974e-12,0,-1.54806e-06,-3.27649e-12,0,0,-1.0662e-13,0,0,0,0,0,0,0,0,0,0,0,0,0,0,0,0,0,0,0,0,0,-0.261799,3.08466,-1.5,3.94113e+12,0,0,0,0,0
1150,-3.20974e-12,0,-1.54806e-06,-3.27649e-12,0,-3.40902e-12,-1.0662e-13,0,0,0,0,0,0,0,0,0,0,0,0,0,0,0,0,0,0,0,0,0,-0.261799,3.08713,-1.5,3.94113e+12,0,0,0,0,0
1160,-3.20974e-12,0,-1.54806e-06,-3.27649e-12,0,0,-1.0662e-13,0,0,0,0,0,0,0,0,0,0,0,0,0,0,0,0,0,0,0,0,0,-0.261799,3.08939,-1.5,3.94113e+12,0,0,0,0,0
1170,-3.20974e-12,0,-1.54806e-06,-3.27649e-12,0,-3.40902e-12,-1.0662e-13,0,0,0,0,0,0,0,0,0,0,0,0,0,0,0,0,0,0,0,0,0,-0.261799,3.09166,-1.5,3.94113e+12,0,0,0,0,0
1180,-3.20974e-12,0,-1.54806e-06,-3.27649e-12,0,0,-1.06621e-13,0,0,0,0,0,0,0,0,0,0,0,0,0,0,0,0,0,0,0,0,0,-0.261799,3.09373,-1.5,3.94113e+12,0,0,0,0,0
1190,-3.20974e-12,0,-1.54806e-06,-3.27649e-12,0,-3.40902e-12,-1.06621e-13,0,0,0,0,0,0,0,0,0,0,0,0,0,0,0,0,0,0,0,0,0,-0.261799,3.09571,-1.5,3.94113e+12,0,0,0,0,0
1200,-3.20974e-12,0,-1.54806e-06,-3.27649e-12,0,0,-1.06621e-13,0,0,0,0,0,0,0,0,0,0,0,0,0,0,0,0,0,0,0,0,0,-0.261799,3.09771,-1.5,3.94113e+12,0,0,0,0,0
1210,-3.20974e-12,0,-1.54806e-06,-3.27649e-12,0,-3.40902e-12,-1.06622e-13,0,0,0,0,0,0,0,0,0,0,0,0,0,0,0,0,0,0,0,0,0,-0.261799,3.09961,-1.5,3.94113e+12,0,0,0,0,0
1220,-3.20974e-12,0,-1.54806e-06,-3.27649e-12,0,0,-1.06622e-13,0,0,0,0,0,0,0,0,0,0,0,0,0,0,0,0,0,0,0,0,0,-0.261799,3.10135,-1.5,3.94113e+12,0,0,0,0,0
1230,-3.20974e-12,0,-1.54806e-06,-3.27649e-12,0,-3.40902e-12,-1.06622e-13,0,0,0,0,0,0,0,0,0,0,0,0,0,0,0,0,0,0,0,0,0,-0.261799,3.10302,-1.5,3.94113e+12,0,0,0,0,0
1240,-3.20974e-12,0,-1.54806e-06,-3.27649e-12,0,0,-1.06622e-13,0,0,0,0,0,0,0,0,0,0,0,0,0,0,0,0,0,0,0,0,0,-0.261799,3.1047,-1.5,3.94113e+12,0,0,0,0,0
1250,-3.20974e-12,0,-1.54806e-06,-3.27649e-12,0,-3.40902e-12,-1.06623e-13,0,0,0,0,0,0,0,0,0,0,0,0,0,0,0,0,0,0,0,0,0,-0.261799,3.10623,-1.5,3.94113e+12,0,0,0,0,0
1260,-3.20974e-12,0,-1.54806e-06,-3.27649e-12,0,0,-1.06623e-13,0,0,0,0,0,0,0,0,0,0,0,0,0,0,0,0,0,0,0,0,0,-0.261799,3.10776,-1.5,3.94113e+12,0,0,0,0,0
1270,-3.20974e-12,0,-1.54806e-06,-3.27649e-12,0,-3.40902e-12,-1.06623e-13,0,0,0,0,0,0,0,0,0,0,0,0,0,0,0,0,0,0,0,0,0,-0.261799,3.10916,-1.5,3.94113e+12,0,0,0,0,0
1280,-3.20974e-12,0,-1.54806e-06,-3.27649e-12,0,0,-1.06623e-13,0,0,0,0,0,0,0,0,0,0,0,0,0,0,0,0,0,0,0,0,0,-0.261799,3.11051,-1.5,3.94113e+12,0,0,0,0,0
1290,-3.20974e-12,0,-1.54806e-06,-3.27649e-12,0,-3.40902e-12,-1.06624e-13,0,0,0,0,0,0,0,0,0,0,0,0,0,0,0,0,0,0,0,0,0,-0.261799,3.11186,-1.5,3.94113e+12,0,0,0,0,0
1300,-3.20974e-12,0,-1.54806e-06,-3.27649e-12,0,0,-1.06624e-13,0,0,0,0,0,0,0,0,0,0,0,0,0,0,0,0,0,0,0,0,0,-0.261799,3.11309,-1.5,3.94113e+12,0,0,0,0,0
1310,-3.20974e-12,0,-1.54806e-06,-3.27649e-12,0,-3.40902e-12,-1.06624e-13,0,0,0,0,0,0,0,0,0,0,0,0,0,0,0,0,0,0,0,0,0,-0.261799,3.11433,-1.5,3.94113e+12,0,0,0,0,0
1320,-3.20974e-12,0,-1.54806e-06,-3.27649e-12,0,0,-1.06625e-13,0,0,0,0,0,0,0,0,0,0,0,0,0,0,0,0,0,0,0,0,0,-0.261799,3.11546,-1.5,3.94113e+12,0,0,0,0,0
1330,-3.20974e-12,0,-1.54806e-06,-3.27649e-12,0,-3.40902e-12,-1.06625e-13,0,0,0,0,0,0,0,0,0,0,0,0,0,0,0,0,0,0,0,0,0,-0.261799,3.11655,-1.5,3.94113e+12,0,0,0,0,0
1340,-3.20974e-12,0,-1.54806e-06,-3.27649e-12,0,0,-1.06625e-13,0,0,0,0,0,0,0,0,0,0,0,0,0,0,0,0,0,0,0,0,0,-0.261799,3.11734,-1.5,3.94113e+12,0,0,0,0,0
1350,-3.20974e-12,0,-1.54806e-06,-3.27649e-12,0,-3.40902e-12,-1.06625e-13,0,0,0,0,0,0,0,0,0,0,0,0,0,0,0,0,0,0,0,0,0,-0.261799,3.11815,-1.5,3.94113e+12,0,0,0,0,0
1360,-3.20974e-12,0,-1.54806e-06,-3.27649e-12,0,0,-1.06626e-13,0,0,0,0,0,0,0,0,0,0,0,0,0,0,0,0,0,0,0,0,0,-0.261799,3.11889,-1.5,3.94113e+12,0,0,0,0,0
1370,-3.20974e-12,0,-1.54806e-06,-3.27649e-12,0,-3.40902e-12,-1.06626e-13,0,0,0,0,0,0,0,0,0,0,0,0,0,0,0,0,0,0,0,0,0,-0.261799,3.11984,-1.5,3.94113e+12,0,0,0,0,0
1380,-3.20974e-12,0,-1.54806e-06,-3.27649e-12,0,0,-1.06626e-13,0,0,0,0,0,0,0,0,0,0,0,0,0,0,0,0,0,0,0,0,0,-0.261799,3.12074,-1.5,3.94113e+12,0,0,0,0,0
1390,-3.20974e-12,0,-1.54806e-06,-3.27649e-12,0,-3.40902e-12,-1.06626e-13,0,0,0,0,0,0,0,0,0,0,0,0,0,0,0,0,0,0,0,0,0,-0.261799,3.12164,-1.5,3.94113e+12,0,0,0,0,0
1400,-3.20974e-12,0,-1.54806e-06,-3.27649e-12,0,0,-1.06627e-13,0,0,0,0,0,0,0,0,0,0,0,0,0,0,0,0,0,0,0,0,0,-0.261799,3.12247,-1.5,3.94113e+12,0,0,0,0,0
1410,-3.20974e-12,0,-1.54806e-06,-3.27649e-12,0,-3.40902e-12,-1.06627e-13,0,0,0,0,0,0,0,0,0,0,0,0,0,0,0,0,0,0,0,0,0,-0.261799,3.12368,-1.5,3.94113e+12,0,0,0,0,0
1420,-3.20974e-12,0,-1.54806e-06,-3.27649e-12,0,0,-1.06627e-13,0,0,0,0,0,0,0,0,0,0,0,0,0,0,0,0,0,0,0,0,0,-0.261799,3.12446,-1.5,3.94113e+12,0,0,0,0,0
1430,-3.20974e-12,0,-1.54806e-06,-3.27649e-12,0,-3.40902e-12,-1.06628e-13,0,0,0,0,0,0,0,0,0,0,0,0,0,0,0,0,0,0,0,0,0,-0.261799,3.12517,-1.5,3.94113e+12,0,0,0,0,0
1440,-3.20974e-12,0,-1.54806e-06,-3.27649e-12,0,0,-1.06628e-13,0,0,0,0,0,0,0,0,0,0,0,0,0,0,0,0,0,0,0,0,0,-0.261799,3.12585,-1.5,3.94113e+12,0,0,0,0,0
1450,-3.20974e-12,0,-1.54806e-06,-3.27649e-12,0,-3.40902e-12,-1.06632e-13,0,0,0,0,0,0,0,0,0,0,0,0,0,0,0,0,0,0,0,0,0,-0.261799,3.12653,-1.5,3.94113e+12,0,0,0,0,0
1460,-3.20974e-12,0,-1.54806e-06,-3.27649e-12,0,0,-1.06632e-13,0,0,0,0,0,0,0,0,0,0,0,0,0,0,0,0,0,0,0,0,0,-0.261799,3.12716,-1.5,3.94113e+12,0,0,0,0,0
1470,-3.20974e-12,0,-1.54806e-06,-3.27649e-12,0,-3.40902e-12,-1.06632e-13,0,0,0,0,0,0,0,0,0,0,0,0,0,0,0,0,0,0,0,0,0,-0.261799,3.12778,-1.5,3.94113e+12,0,0,0,0,0
1480,-3.20974e-12,0,-1.54806e-06,-3.27649e-12,0,0,-1.06633e-13,0,0,0,0,0,0,0,0,0,0,0,0,0,0,0,0,0,0,0,0,0,-0.261799,3.12836,-1.5,3.94113e+12,0,0,0,0,0
1490,-3.20974e-12,0,-1.54806e-06,-3.27649e-12,0,-3.40902e-12,-1.06633e-13,0,0,0,0,0,0,0,0,0,0,0,0,0,0,0,0,0,0,0,0,0,-0.261799,3.12893,-1.5,3.94113e+12,0,0,0,0,0
1500,-3.20974e-12,0,-1.54806e-06,-3.27649e-12,0,0,-1.06633e-13,0,0,0,0,0,0,0,0,0,0,0,0,0,0,0,0,0,0,0,0,0,-0.261799,3.12946,-1.5,3.94113e+12,0,0,0,0,0
1510,-3.20974e-12,0,-1.54806e-06,-3.27649e-12,0,-3.40902e-12,-1.06633e-13,0,0,0,0,0,0,0,0,0,0,0,0,0,0,0,0,0,0,0,0,0,-0.261799,3.12996,-1.5,3.94113e+12,0,0,0,0,0
1520,-3.20974e-12,0,-1.54806e-06,-3.27649e-12,0,0,-1.06634e-13,0,0,0,0,0,0,0,0,0,0,0,0,0,0,0,0,0,0,0,0,0,-0.261799,3.13046,-1.5,3.94113e+12,0,0,0,0,0
1530,-3.20974e-12,0,-1.54806e-06,-3.27649e-12,0,-3.40902e-12,-1.06634e-13,0,0,0,0,0,0,0,0,0,0,0,0,0,0,0,0,0,0,0,0,0,-0.261799,3.13093,-1.5,3.94113e+12,0,0,0,0,0
1540,-3.20974e-12,0,-1.54806e-06,-3.27649e-12,0,0,-1.06634e-13,0,0,0,0,0,0,0,0,0,0,0,0,0,0,0,0,0,0,0,0,0,-0.261799,3.13139,-1.5,3.94113e+12,0,0,0,0,0
1550,-3.20974e-12,0,-1.54806e-06,-3.27649e-12,0,-3.40902e-12,-1.06634e-13,0,0,0,0,0,0,0,0,0,0,0,0,0,0,0,0,0,0,0,0,0,-0.261799,3.13181,-1.5,3.94113e+12,0,0,0,0,0
1560,-3.20974e-12,0,-1.54806e-06,-3.27649e-12,0,0,-1.06635e-13,0,0,0,0,0,0,0,0,0,0,0,0,0,0,0,0,0,0,0,0,0,-0.261799,3.13224,-1.5,3.94113e+12,0,0,0,0,0
1570,-3.20974e-12,0,-1.54806e-06,-3.27649e-12,0,-3.40902e-12,-1.06635e-13,0,0,0,0,0,0,0,0,0,0,0,0,0,0,0,0,0,0,0,0,0,-0.261799,3.13263,-1.5,3.94113e+12,0,0,0,0,0
1580,-3.20974e-12,0,-1.54806e-06,-3.27649e-12,0,0,-1.06635e-13,0,0,0,0,0,0,0,0,0,0,0,0,0,0,0,0,0,0,0,0,0,-0.261799,3.133,-1.5,3.94113e+12,0,0,0,0,0
1590,-3.20974e-12,0,-1.54806e-06,-3.27649e-12,0,-3.40902e-12,-1.06636e-13,0,0,0,0,0,0,0,0,0,0,0,0,0,0,0,0,0,0,0,0,0,-0.261799,3.13337,-1.5,3.94113e+12,0,0,0,0,0
1600,-3.20974e-12,0,-1.54806e-06,-3.27649e-12,0,0,-1.06636e-13,0,0,0,0,0,0,0,0,0,0,0,0,0,0,0,0,0,0,0,0,0,-0.261799,3.13365,-1.5,3.94113e+12,0,0,0,0,0
1610,-3.20974e-12,0,-1.54806e-06,-3.27649e-12,0,-3.40902e-12,-1.06636e-13,0,0,0,0,0,0,0,0,0,0,0,0,0,0,0,0,0,0,0,0,0,-0.261799,3.13388,-1.5,3.94113e+12,0,0,0,0,0
1620,-3.20974e-12,0,-1.54806e-06,-3.27649e-12,0,0,-1.06636e-13,0,0,0,0,0,0,0,0,0,0,0,0,0,0,0,0,0,0,0,0,0,-0.261799,3.13413,-1.5,3.94113e+12,0,0,0,0,0
1630,-3.20974e-12,0,-1.54806e-06,-3.27649e-12,0,-3.40902e-12,-1.06637e-13,0,0,0,0,0,0,0,0,0,0,0,0,0,0,0,0,0,0,0,0,0,-0.261799,3.13444,-1.5,3.94113e+12,0,0,0,0,0
1640,-3.20974e-12,0,-1.54806e-06,-3.27649e-12,0,0,-1.06637e-13,0,0,0,0,0,0,0,0,0,0,0,0,0,0,0,0,0,0,0,0,0,-0.261799,3.13475,-1.5,3.94113e+12,0,0,0,0,0
1650,-3.20974e-12,0,-1.54806e-06,-3.27649e-12,0,-3.40902e-12,-1.06637e-13,0,0,0,0,0,0,0,0,0,0,0,0,0,0,0,0,0,0,0,0,0,-0.261799,3.13503,-1.5,3.94113e+12,0,0,0,0,0
1660,-3.20974e-12,0,-1.54806e-06,-3.27649e-12,0,0,-1.06637e-13,0,0,0,0,0,0,0,0,0,0,0,0,0,0,0,0,0,0,0,0,0,-0.261799,3.13532,-1.5,3.94113e+12,0,0,0,0,0
1670,-3.20974e-12,0,-1.54806e-06,-3.27649e-12,0,-3.40902e-12,-1.06638e-13,0,0,0,0,0,0,0,0,0,0,0,0,0,0,0,0,0,0,0,0,0,-0.261799,3.13558,-1.5,3.94113e+12,0,0,0,0,0
1680,-3.20974e-12,0,-1.54806e-06,-3.27649e-12,0,0,-1.06638e-13,0,0,0,0,0,0,0,0,0,0,0,0,0,0,0,0,0,0,0,0,0,-0.261799,3.13584,-1.5,3.94113e+12,0,0,0,0,0
1690,-3.20974e-12,0,-1.54806e-06,-3.27649e-12,0,-3.40902e-12,-1.06638e-13,0,0,0,0,0,0,0,0,0,0,0,0,0,0,0,0,0,0,0,0,0,-0.261799,3.13608,-1.5,3.94113e+12,0,0,0,0,0
1700,-3.20974e-12,0,-1.54806e-06,-3.27649e-12,0,0,-1.06639e-13,0,0,0,0,0,0,0,0,0,0,0,0,0,0,0,0,0,0,0,0,0,-0.261799,3.13631,-1.5,3.94113e+12,0,0,0,0,0
1710,-3.20974e-12,0,-1.54806e-06,-3.27649e-12,0,-3.40902e-12,-1.06639e-13,0,0,0,0,0,0,0,0,0,0,0,0,0,0,0,0,0,0,0,0,0,-0.261799,3.13653,-1.5,3.94113e+12,0,0,0,0,0
1720,-3.20974e-12,0,-1.54806e-06,-3.27649e-12,0,0,-1.06639e-13,0,0,0,0,0,0,0,0,0,0,0,0,0,0,0,0,0,0,0,0,0,-0.261799,3.13674,-1.5,3.94113e+12,0,0,0,0,0
1730,-3.20974e-12,0,-1.54806e-06,-3.27649e-12,0,-3.40902e-12,-1.06639e-13,0,0,0,0,0,0,0,0,0,0,0,0,0,0,0,0,0,0,0,0,0,-0.261799,3.13695,-1.5,3.94113e+12,0,0,0,0,0
1740,-3.20974e-12,0,-1.54806e-06,-3.27649e-12,0,0,-1.0664e-13,0,0,0,0,0,0,0,0,0,0,0,0,0,0,0,0,0,0,0,0,0,-0.261799,3.13715,-1.5,3.94113e+12,0,0,0,0,0
1750,-3.20974e-12,0,-1.54806e-06,-3.27649e-12,0,-3.40902e-12,-1.0664e-13,0,0,0,0,0,0,0,0,0,0,0,0,0,0,0,0,0,0,0,0,0,-0.261799,3.13734,-1.5,3.94113e+12,0,0,0,0,0
1760,-3.20974e-12,0,-1.54806e-06,-3.27649e-12,0,0,-1.0664e-13,0,0,0,0,0,0,0,0,0,0,0,0,0,0,0,0,0,0,0,0,0,-0.261799,3.13752,-1.5,3.94113e+12,0,0,0,0,0
1770,-3.20974e-12,0,-1.54806e-06,-3.27649e-12,0,-3.40902e-12,-1.0664e-13,0,0,0,0,0,0,0,0,0,0,0,0,0,0,0,0,0,0,0,0,0,-0.261799,3.13769,-1.5,3.94113e+12,0,0,0,0,0
1780,-3.20974e-12,0,-1.54806e-06,-3.27649e-12,0,0,-1.06641e-13,0,0,0,0,0,0,0,0,0,0,0,0,0,0,0,0,0,0,0,0,0,-0.261799,3.13785,-1.5,3.94113e+12,0,0,0,0,0
1790,-3.20974e-12,0,-1.54806e-06,-3.27649e-12,0,-3.40902e-12,-1.06641e-13,0,0,0,0,0,0,0,0,0,0,0,0,0,0,0,0,0,0,0,0,0,-0.261799,3.13801,-1.5,3.94113e+12,0,0,0,0,0
1800,-3.20974e-12,0,-1.54806e-06,-3.27649e-12,0,0,-1.06641e-13,0,0,0,0,0,0,0,0,0,0,0,0,0,0,0,0,0,0,0,0,0,-0.261799,3.13817,-1.5,3.94113e+12,0,0,0,0,0
1810,-3.20974e-12,0,-1.54806e-06,-3.27649e-12,0,-3.40902e-12,-1.06642e-13,0,0,0,0,0,0,0,0,0,0,0,0,0,0,0,0,0,0,0,0,0,-0.261799,3.13831,-1.5,3.94113e+12,0,0,0,0,0
1820,-3.20974e-12,0,-1.54806e-06,-3.27649e-12,0,0,-1.06642e-13,0,0,0,0,0,0,0,0,0,0,0,0,0,0,0,0,0,0,0,0,0,-0.261799,3.13845,-1.5,3.94113e+12,0,0,0,0,0
1830,-3.20974e-12,0,-1.54806e-06,-3.27649e-12,0,-3.40902e-12,-1.06642e-13,0,0,0,0,0,0,0,0,0,0,0,0,0,0,0,0,0,0,0,0,0,-0.261799,3.13858,-1.5,3.94113e+12,0,0,0,0,0
1840,-3.20974e-12,0,-1.54806e-06,-3.27649e-12,0,0,-1.06642e-13,0,0,0,0,0,0,0,0,0,0,0,0,0,0,0,0,0,0,0,0,0,-0.261799,3.13871,-1.5,3.94113e+12,0,0,0,0,0
1850,-3.20974e-12,0,-1.54806e-06,-3.27649e-12,0,-3.40902e-12,-1.06643e-13,0,0,0,0,0,0,0,0,0,0,0,0,0,0,0,0,0,0,0,0,0,-0.261799,3.13883,-1.5,3.94113e+12,0,0,0,0,0
1860,-3.20974e-12,0,-1.54806e-06,-3.27649e-12,0,0,-1.06643e-13,0,0,0,0,0,0,0,0,0,0,0,0,0,0,0,0,0,0,0,0,0,-0.261799,3.13892,-1.5,3.94113e+12,0,0,0,0,0
1870,-3.20974e-12,0,-1.54806e-06,-3.27649e-12,0,-3.40902e-12,-1.06643e-13,0,0,0,0,0,0,0,0,0,0,0,0,0,0,0,0,0,0,0,0,0,-0.261799,3.139,-1.5,3.94113e+12,0,0,0,0,0
1880,-3.20974e-12,0,-1.54806e-06,-3.27649e-12,0,0,-1.06643e-13,0,0,0,0,0,0,0,0,0,0,0,0,0,0,0,0,0,0,0,0,0,-0.261799,3.13908,-1.5,3.94113e+12,0,0,0,0,0
1890,-3.20974e-12,0,-1.54806e-06,-3.27649e-12,0,-3.40902e-12,-1.06644e-13,0,0,0,0,0,0,0,0,0,0,0,0,0,0,0,0,0,0,0,0,0,-0.261799,3.13917,-1.5,3.94113e+12,0,0,0,0,0
1900,-3.20974e-12,0,-1.54806e-06,-3.27649e-12,0,0,-1.06644e-13,0,0,0,0,0,0,0,0,0,0,0,0,0,0,0,0,0,0,0,0,0,-0.261799,3.13927,-1.5,3.94113e+12,0,0,0,0,0
1910,-3.20974e-12,0,-1.54806e-06,-3.27649e-12,0,-3.40902e-12,-1.06644e-13,0,0,0,0,0,0,0,0,0,0,0,0,0,0,0,0,0,0,0,0,0,-0.261799,3.13937,-1.5,3.94113e+12,0,0,0,0,0
1920,-3.20974e-12,0,-1.54806e-06,-3.27649e-12,0,0,-1.06645e-13,0,0,0,0,0,0,0,0,0,0,0,0,0,0,0,0,0,0,0,0,0,-0.261799,3.13947,-1.5,3.94113e+12,0,0,0,0,0
1930,-3.20974e-12,0,-1.54806e-06,-3.27649e-12,0,-3.40902e-12,-1.06645e-13,0,0,0,0,0,0,0,0,0,0,0,0,0,0,0,0,0,0,0,0,0,-0.261799,3.13955,-1.5,3.94113e+12,0,0,0,0,0
1940,-3.20974e-12,0,-1.54806e-06,-3.27649e-12,0,0,-1.06645e-13,0,0,0,0,0,0,0,0,0,0,0,0,0,0,0,0,0,0,0,0,0,-0.261799,3.13964,-1.5,3.94113e+12,0,0,0,0,0
1950,-3.20974e-12,0,-1.54806e-06,-3.27649e-12,0,-3.40902e-12,-1.06645e-13,0,0,0,0,0,0,0,0,0,0,0,0,0,0,0,0,0,0,0,0,0,-0.261799,3.13972,-1.5,3.94113e+12,0,0,0,0,0
1960,-3.20974e-12,0,-1.54806e-06,-3.27649e-12,0,0,-1.06646e-13,0,0,0,0,0,0,0,0,0,0,0,0,0,0,0,0,0,0,0,0,0,-0.261799,3.1398,-1.5,3.94113e+12,0,0,0,0,0
1970,-3.20974e-12,0,-1.54806e-06,-3.27649e-12,0,-3.40902e-12,-1.06646e-13,0,0,0,0,0,0,0,0,0,0,0,0,0,0,0,0,0,0,0,0,0,-0.261799,3.13988,-1.5,3.94113e+12,0,0,0,0,0
1980,-3.20974e-12,0,-1.54806e-06,-3.27649e-12,0,0,-1.06646e-13,0,0,0,0,0,0,0,0,0,0,0,0,0,0,0,0,0,0,0,0,0,-0.261799,3.13995,-1.5,3.94113e+12,0,0,0,0,0
1990,-3.20974e-12,0,-1.54806e-06,-3.27649e-12,0,-3.40902e-12,-1.06646e-13,0,0,0,0,0,0,0,0,0,0,0,0,0,0,0,0,0,0,0,0,0,-0.261799,3.14002,-1.5,3.94113e+12,0,0,0,0,0
2000,-3.20974e-12,0,-1.54806e-06,-3.27649e-12,0,0,-1.06647e-13,0,0,0,0,0,0,0,0,0,0,0,0,0,0,0,0,0,0,0,0,0,-0.261799,3.14009,-1.5,3.94113e+12,0,0,0,0,0
2010,-3.20974e-12,0,-1.54806e-06,-3.27649e-12,0,-3.40902e-12,-1.06647e-13,0,0,0,0,0,0,0,0,0,0,0,0,0,0,0,0,0,0,0,0,0,-0.261799,3.14015,-1.5,3.94113e+12,0,0,0,0,0
2020,-3.20974e-12,0,-1.54806e-06,-3.27649e-12,0,0,-1.06647e-13,0,0,0,0,0,0,0,0,0,0,0,0,0,0,0,0,0,0,0,0,0,-0.261799,3.14021,-1.5,3.94113e+12,0,0,0,0,0
2030,-3.20974e-12,0,-1.54806e-06,-3.27649e-12,0,-3.40902e-12,-1.06647e-13,0,0,0,0,0,0,0,0,0,0,0,0,0,0,0,0,0,0,0,0,0,-0.261799,3.14034,-1.5,3.94113e+12,0,0,0,0,0
2040,-3.20974e-12,0,-1.54806e-06,-3.27649e-12,0,0,-1.06648e-13,0,0,0,0,0,0,0,0,0,0,0,0,0,0,0,0,0,0,0,0,0,-0.261799,3.14042,-1.5,3.94113e+12,0,0,0,0,0
2050,-3.20974e-12,0,-1.54806e-06,-3.27649e-12,0,-3.40902e-12,-1.06648e-13,0,0,0,0,0,0,0,0,0,0,0,0,0,0,0,0,0,0,0,0,0,-0.261799,3.14047,-1.5,3.94113e+12,0,0,0,0,0
2060,-3.20974e-12,0,-1.54806e-06,-3.27649e-12,0,0,-1.06648e-13,0,0,0,0,0,0,0,0,0,0,0,0,0,0,0,0,0,0,0,0,0,-0.261799,3.14052,-1.5,3.94113e+12,0,0,0,0,0
2070,-3.20974e-12,0,-1.54806e-06,-3.27649e-12,0,-3.40902e-12,-1.06649e-13,0,0,0,0,0,0,0,0,0,0,0,0,0,0,0,0,0,0,0,0,0,-0.261799,3.14056,-1.5,3.94113e+12,0,0,0,0,0
2080,-3.20974e-12,0,-1.54806e-06,-3.27649e-12,0,0,-1.06649e-13,0,0,0,0,0,0,0,0,0,0,0,0,0,0,0,0,0,0,0,0,0,-0.261799,3.1406,-1.5,3.94113e+12,0,0,0,0,0
2090,-3.20974e-12,0,-1.54806e-06,-3.27649e-12,0,-3.40902e-12,-1.06649e-13,0,0,0,0,0,0,0,0,0,0,0,0,0,0,0,0,0,0,0,0,0,-0.261799,3.14065,-1.5,3.94113e+12,0,0,0,0,0
2100,-3.20974e-12,0,-1.54806e-06,-3.27649e-12,0,0,-1.06649e-13,0,0,0,0,0,0,0,0,0,0,0,0,0,0,0,0,0,0,0,0,0,-0.261799,3.14069,-1.5,3.94113e+12,0,0,0,0,0
2110,-3.20974e-12,0,-1.54806e-06,-3.27649e-12,0,-3.40902e-12,-1.0665e-13,0,0,0,0,0,0,0,0,0,0,0,0,0,0,0,0,0,0,0,0,0,-0.261799,3.14073,-1.5,3.94113e+12,0,0,0,0,0
2120,-3.20974e-12,0,-1.54806e-06,-3.27649e-12,0,0,-1.0665e-13,0,0,0,0,0,0,0,0,0,0,0,0,0,0,0,0,0,0,0,0,0,-0.261799,3.14077,-1.5,3.94113e+12,0,0,0,0,0
2130,-3.20974e-12,0,-1.54806e-06,-3.27649e-12,0,-3.40902e-12,-1.0665e-13,0,0,0,0,0,0,0,0,0,0,0,0,0,0,0,0,0,0,0,0,0,-0.261799,3.14079,-1.5,3.94113e+12,0,0,0,0,0
2140,-3.20974e-12,0,-1.54806e-06,-3.27649e-12,0,0,-1.0665e-13,0,0,0,0,0,0,0,0,0,0,0,0,0,0,0,0,0,0,0,0,0,-0.261799,3.14082,-1.5,3.94113e+12,0,0,0,0,0
2150,-3.20974e-12,0,-1.54806e-06,-3.27649e-12,0,-3.40902e-12,-1.06651e-13,0,0,0,0,0,0,0,0,0,0,0,0,0,0,0,0,0,0,0,0,0,-0.261799,3.14084,-1.5,3.94113e+12,0,0,0,0,0
2160,-3.20974e-12,0,-1.54806e-06,-3.27649e-12,0,0,-1.06651e-13,0,0,0,0,0,0,0,0,0,0,0,0,0,0,0,0,0,0,0,0,0,-0.261799,3.14087,-1.5,3.94113e+12,0,0,0,0,0
2170,-3.20974e-12,0,-1.54806e-06,-3.27649e-12,0,-3.40902e-12,-1.06651e-13,0,0,0,0,0,0,0,0,0,0,0,0,0,0,0,0,0,0,0,0,0,-0.261799,3.1409,-1.5,3.94113e+12,0,0,0,0,0
2180,-3.20974e-12,0,-1.54806e-06,-3.27649e-12,0,0,-1.06652e-13,0,0,0,0,0,0,0,0,0,0,0,0,0,0,0,0,0,0,0,0,0,-0.261799,3.14093,-1.5,3.94113e+12,0,0,0,0,0
2190,-3.20974e-12,0,-1.54806e-06,-3.27649e-12,0,-3.40902e-12,-1.06652e-13,0,0,0,0,0,0,0,0,0,0,0,0,0,0,0,0,0,0,0,0,0,-0.261799,3.14096,-1.5,3.94113e+12,0,0,0,0,0
2200,-3.20974e-12,0,-1.54806e-06,-3.27649e-12,0,0,-1.06652e-13,0,0,0,0,0,0,0,0,0,0,0,0,0,0,0,0,0,0,0,0,0,-0.261799,3.14099,-1.5,3.94113e+12,0,0,0,0,0
2210,-3.20974e-12,0,-1.54806e-06,-3.27649e-12,0,-3.40902e-12,-1.06652e-13,0,0,0,0,0,0,0,0,0,0,0,0,0,0,0,0,0,0,0,0,0,-0.261799,3.14101,-1.5,3.94113e+12,0,0,0,0,0
2220,-3.20974e-12,0,-1.54806e-06,-3.27649e-12,0,0,-1.06653e-13,0,0,0,0,0,0,0,0,0,0,0,0,0,0,0,0,0,0,0,0,0,-0.261799,3.14104,-1.5,3.94113e+12,0,0,0,0,0
2230,-3.20974e-12,0,-1.54806e-06,-3.27649e-12,0,-3.40902e-12,-1.06653e-13,0,0,0,0,0,0,0,0,0,0,0,0,0,0,0,0,0,0,0,0,0,-0.261799,3.14106,-1.5,3.94113e+12,0,0,0,0,0
2240,-3.20974e-12,0,-1.54806e-06,-3.27649e-12,0,0,-1.06653e-13,0,0,0,0,0,0,0,0,0,0,0,0,0,0,0,0,0,0,0,0,0,-0.261799,3.14108,-1.5,3.94113e+12,0,0,0,0,0
2250,-3.20974e-12,0,-1.54806e-06,-3.27649e-12,0,-3.40902e-12,-1.06653e-13,0,0,0,0,0,0,0,0,0,0,0,0,0,0,0,0,0,0,0,0,0,-0.261799,3.1411,-1.5,3.94113e+12,0,0,0,0,0
2260,-3.20974e-12,0,-1.54806e-06,-3.27649e-12,0,0,-1.06654e-13,0,0,0,0,0,0,0,0,0,0,0,0,0,0,0,0,0,0,0,0,0,-0.261799,3.14112,-1.5,3.94113e+12,0,0,0,0,0
2270,-3.20974e-12,0,-1.54806e-06,-3.27649e-12,0,-3.40902e-12,-1.06654e-13,0,0,0,0,0,0,0,0,0,0,0,0,0,0,0,0,0,0,0,0,0,-0.261799,3.14115,-1.5,3.94113e+12,0,0,0,0,0
2280,-3.20974e-12,0,-1.54806e-06,-3.27649e-12,0,0,-1.06654e-13,0,0,0,0,0,0,0,0,0,0,0,0,0,0,0,0,0,0,0,0,0,-0.261799,3.14116,-1.5,3.94113e+12,0,0,0,0,0
2290,-3.20974e-12,0,-1.54806e-06,-3.27649e-12,0,-3.40902e-12,-1.06655e-13,0,0,0,0,0,0,0,0,0,0,0,0,0,0,0,0,0,0,0,0,0,-0.261799,3.14118,-1.5,3.94113e+12,0,0,0,0,0
2300,-3.20974e-12,0,-1.54806e-06,-3.27649e-12,0,0,-1.06655e-13,0,0,0,0,0,0,0,0,0,0,0,0,0,0,0,0,0,0,0,0,0,-0.261799,3.1412,-1.5,3.94113e+12,0,0,0,0,0
2310,-3.20974e-12,0,-1.54806e-06,-3.27649e-12,0,-3.40902e-12,-1.06655e-13,0,0,0,0,0,0,0,0,0,0,0,0,0,0,0,0,0,0,0,0,0,-0.261799,3.14122,-1.5,3.94113e+12,0,0,0,0,0
2320,-3.20974e-12,0,-1.54806e-06,-3.27649e-12,0,0,-1.06655e-13,0,0,0,0,0,0,0,0,0,0,0,0,0,0,0,0,0,0,0,0,0,-0.261799,3.14123,-1.5,3.94113e+12,0,0,0,0,0
2330,-3.20974e-12,0,-1.54806e-06,-3.27649e-12,0,-3.40902e-12,-1.06656e-13,0,0,0,0,0,0,0,0,0,0,0,0,0,0,0,0,0,0,0,0,0,-0.261799,3.14125,-1.5,3.94113e+12,0,0,0,0,0
2340,-3.20974e-12,0,-1.54806e-06,-3.27649e-12,0,0,-1.06656e-13,0,0,0,0,0,0,0,0,0,0,0,0,0,0,0,0,0,0,0,0,0,-0.261799,3.14126,-1.5,3.94113e+12,0,0,0,0,0
2350,-3.20974e-12,0,-1.54806e-06,-3.27649e-12,0,-3.40902e-12,-1.06656e-13,0,0,0,0,0,0,0,0,0,0,0,0,0,0,0,0,0,0,0,0,0,-0.261799,3.14128,-1.5,3.94113e+12,0,0,0,0,0
2360,-3.20974e-12,0,-1.54806e-06,-3.27649e-12,0,0,-1.06656e-13,0,0,0,0,0,0,0,0,0,0,0,0,0,0,0,0,0,0,0,0,0,-0.261799,3.14129,-1.5,3.94113e+12,0,0,0,0,0
2370,-3.20974e-12,0,-1.54806e-06,-3.27649e-12,0,-3.40902e-12,-1.06657e-13,0,0,0,0,0,0,0,0,0,0,0,0,0,0,0,0,0,0,0,0,0,-0.261799,3.1413,-1.5,3.94113e+12,0,0,0,0,0
2380,-3.20974e-12,0,-1.54806e-06,-3.27649e-12,0,0,-1.06657e-13,0,0,0,0,0,0,0,0,0,0,0,0,0,0,0,0,0,0,0,0,0,-0.261799,3.14131,-1.5,3.94113e+12,0,0,0,0,0
2390,-3.20974e-12,0,-1.54806e-06,-3.27649e-12,0,-3.40902e-12,-1.06657e-13,0,0,0,0,0,0,0,0,0,0,0,0,0,0,0,0,0,0,0,0,0,-0.261799,3.14132,-1.5,3.94113e+12,0,0,0,0,0
2400,-3.20974e-12,0,-1.54806e-06,-3.27649e-12,0,0,-1.06658e-13,0,0,0,0,0,0,0,0,0,0,0,0,0,0,0,0,0,0,0,0,0,-0.261799,3.14133,-1.5,3.94113e+12,0,0,0,0,0
2410,-3.20974e-12,0,-1.54806e-06,-3.27649e-12,0,-3.40902e-12,-1.06658e-13,0,0,0,0,0,0,0,0,0,0,0,0,0,0,0,0,0,0,0,0,0,-0.261799,3.14134,-1.5,3.94113e+12,0,0,0,0,0
2420,-3.20974e-12,0,-1.54806e-06,-3.27649e-12,0,0,-1.06658e-13,0,0,0,0,0,0,0,0,0,0,0,0,0,0,0,0,0,0,0,0,0,-0.261799,3.14135,-1.5,3.94113e+12,0,0,0,0,0
2430,-3.20974e-12,0,-1.54806e-06,-3.27649e-12,0,-3.40902e-12,-1.06658e-13,0,0,0,0,0,0,0,0,0,0,0,0,0,0,0,0,0,0,0,0,0,-0.261799,3.14136,-1.5,3.94113e+12,0,0,0,0,0
2440,-3.20974e-12,0,-1.54806e-06,-3.27649e-12,0,0,-1.06659e-13,0,0,0,0,0,0,0,0,0,0,0,0,0,0,0,0,0,0,0,0,0,-0.261799,3.14137,-1.5,3.94113e+12,0,0,0,0,0
2450,-3.20974e-12,0,-1.54806e-06,-3.27649e-12,0,-3.40902e-12,-1.06659e-13,0,0,0,0,0,0,0,0,0,0,0,0,0,0,0,0,0,0,0,0,0,-0.261799,3.14138,-1.5,3.94113e+12,0,0,0,0,0
2460,-3.20974e-12,0,-1.54806e-06,-3.27649e-12,0,0,-1.06659e-13,0,0,0,0,0,0,0,0,0,0,0,0,0,0,0,0,0,0,0,0,0,-0.261799,3.14139,-1.5,3.94113e+12,0,0,0,0,0
2470,-3.20974e-12,0,-1.54806e-06,-3.27649e-12,0,-3.40902e-12,-1.06659e-13,0,0,0,0,0,0,0,0,0,0,0,0,0,0,0,0,0,0,0,0,0,-0.261799,3.1414,-1.5,3.94113e+12,0,0,0,0,0
2480,-3.20974e-12,0,-1.54806e-06,-3.27649e-12,0,0,-1.0666e-13,0,0,0,0,0,0,0,0,0,0,0,0,0,0,0,0,0,0,0,0,0,-0.261799,3.1414,-1.5,3.94113e+12,0,0,0,0,0
2490,-3.20974e-12,0,-1.54806e-06,-3.27649e-12,0,-3.40902e-12,-1.0666e-13,0,0,0,0,0,0,0,0,0,0,0,0,0,0,0,0,0,0,0,0,0,-0.261799,3.14141,-1.5,3.94113e+12,0,0,0,0,0
2500,-3.20974e-12,0,-1.54806e-06,-3.27649e-12,0,0,-1.0666e-13,0,0,0,0,0,0,0,0,0,0,0,0,0,0,0,0,0,0,0,0,0,-0.261799,3.14142,-1.5,3.94113e+12,0,0,0,0,0
2510,-3.20974e-12,0,-1.54806e-06,-3.27649e-12,0,-3.40902e-12,-1.06661e-13,0,0,0,0,0,0,0,0,0,0,0,0,0,0,0,0,0,0,0,0,0,-0.261799,3.14143,-1.5,3.94113e+12,0,0,0,0,0
2520,-3.20974e-12,0,-1.54806e-06,-3.27649e-12,0,0,-1.06661e-13,0,0,0,0,0,0,0,0,0,0,0,0,0,0,0,0,0,0,0,0,0,-0.261799,3.14143,-1.5,3.94113e+12,0,0,0,0,0
2530,-3.20974e-12,0,-1.54806e-06,-3.27649e-12,0,-3.40902e-12,-1.06661e-13,0,0,0,0,0,0,0,0,0,0,0,0,0,0,0,0,0,0,0,0,0,-0.261799,3.14144,-1.5,3.94113e+12,0,0,0,0,0
2540,-3.20974e-12,0,-1.54806e-06,-3.27649e-12,0,0,-1.06661e-13,0,0,0,0,0,0,0,0,0,0,0,0,0,0,0,0,0,0,0,0,0,-0.261799,3.14145,-1.5,3.94113e+12,0,0,0,0,0
2550,-3.20974e-12,0,-1.54806e-06,-3.27649e-12,0,-3.40902e-12,-1.06662e-13,0,0,0,0,0,0,0,0,0,0,0,0,0,0,0,0,0,0,0,0,0,-0.261799,3.14145,-1.5,3.94113e+12,0,0,0,0,0
2560,-3.20974e-12,0,-1.54806e-06,-3.27649e-12,0,0,-1.06662e-13,0,0,0,0,0,0,0,0,0,0,0,0,0,0,0,0,0,0,0,0,0,-0.261799,3.14146,-1.5,3.94113e+12,0,0,0,0,0
2570,-3.20974e-12,0,-1.54806e-06,-3.27649e-12,0,-3.40902e-12,-1.06662e-13,0,0,0,0,0,0,0,0,0,0,0,0,0,0,0,0,0,0,0,0,0,-0.261799,3.14146,-1.5,3.94113e+12,0,0,0,0,0
2580,-3.20974e-12,0,-1.54806e-06,-3.27649e-12,0,0,-1.06662e-13,0,0,0,0,0,0,0,0,0,0,0,0,0,0,0,0,0,0,0,0,0,-0.261799,3.14147,-1.5,3.94113e+12,0,0,0,0,0
2590,-3.20974e-12,0,-1.54806e-06,-3.27649e-12,0,-3.40902e-12,-1.06663e-13,0,0,0,0,0,0,0,0,0,0,0,0,0,0,0,0,0,0,0,0,0,-0.261799,3.14147,-1.5,3.94113e+12,0,0,0,0,0
2600,-3.20974e-12,0,-1.54806e-06,-3.27649e-12,0,0,-1.06663e-13,0,0,0,0,0,0,0,0,0,0,0,0,0,0,0,0,0,0,0,0,0,-0.261799,3.14148,-1.5,3.94113e+12,0,0,0,0,0
2610,-3.20974e-12,0,-1.54806e-06,-3.27649e-12,0,-3.40902e-12,-1.06663e-13,0,0,0,0,0,0,0,0,0,0,0,0,0,0,0,0,0,0,0,0,0,-0.261799,3.14149,-1.5,3.94113e+12,0,0,0,0,0
2620,-3.20974e-12,0,-1.54806e-06,-3.27649e-12,0,0,-1.06663e-13,0,0,0,0,0,0,0,0,0,0,0,0,0,0,0,0,0,0,0,0,0,-0.261799,3.14149,-1.5,3.94113e+12,0,0,0,0,0
2630,-3.20974e-12,0,-1.54806e-06,-3.27649e-12,0,-3.40902e-12,-1.06664e-13,0,0,0,0,0,0,0,0,0,0,0,0,0,0,0,0,0,0,0,0,0,-0.261799,3.1415,-1.5,3.94113e+12,0,0,0,0,0
2640,-3.20974e-12,0,-1.54806e-06,-3.27649e-12,0,0,-1.06664e-13,0,0,0,0,0,0,0,0,0,0,0,0,0,0,0,0,0,0,0,0,0,-0.261799,3.1415,-1.5,3.94113e+12,0,0,0,0,0
2650,-3.20974e-12,0,-1.54806e-06,-3.27649e-12,0,-3.40902e-12,-1.06664e-13,0,0,0,0,0,0,0,0,0,0,0,0,0,0,0,0,0,0,0,0,0,-0.261799,3.1415,-1.5,3.94113e+12,0,0,0,0,0
2660,-3.20974e-12,0,-1.54806e-06,-3.27649e-12,0,0,-1.06665e-13,0,0,0,0,0,0,0,0,0,0,0,0,0,0,0,0,0,0,0,0,0,-0.261799,3.14151,-1.5,3.94113e+12,0,0,0,0,0
2670,-3.20974e-12,0,-1.54806e-06,-3.27649e-12,0,-3.40902e-12,-1.06665e-13,0,0,0,0,0,0,0,0,0,0,0,0,0,0,0,0,0,0,0,0,0,-0.261799,3.14151,-1.5,3.94113e+12,0,0,0,0,0
2680,-3.20974e-12,0,-1.54806e-06,-3.27649e-12,0,0,-1.06665e-13,0,0,0,0,0,0,0,0,0,0,0,0,0,0,0,0,0,0,0,0,0,-0.261799,3.14151,-1.5,3.94113e+12,0,0,0,0,0
2690,-3.20974e-12,0,-1.54806e-06,-3.27649e-12,0,-3.40902e-12,-1.06665e-13,0,0,0,0,0,0,0,0,0,0,0,0,0,0,0,0,0,0,0,0,0,-0.261799,3.14151,-1.5,3.94113e+12,0,0,0,0,0
2700,-3.20974e-12,0,-1.54806e-06,-3.27649e-12,0,0,-1.06666e-13,0,0,0,0,0,0,0,0,0,0,0,0,0,0,0,0,0,0,0,0,0,-0.261799,3.14152,-1.5,3.94113e+12,0,0,0,0,0
2710,-3.20974e-12,0,-1.54806e-06,-3.27649e-12,0,-3.40902e-12,-1.06666e-13,0,0,0,0,0,0,0,0,0,0,0,0,0,0,0,0,0,0,0,0,0,-0.261799,3.14152,-1.5,3.94113e+12,0,0,0,0,0
2720,-3.20974e-12,0,-1.54806e-06,-3.27649e-12,0,0,-1.06666e-13,0,0,0,0,0,0,0,0,0,0,0,0,0,0,0,0,0,0,0,0,0,-0.261799,3.14152,-1.5,3.94113e+12,0,0,0,0,0
2730,-3.20974e-12,0,-1.54806e-06,-3.27649e-12,0,-3.40902e-12,-1.06666e-13,0,0,0,0,0,0,0,0,0,0,0,0,0,0,0,0,0,0,0,0,0,-0.261799,3.14153,-1.5,3.94113e+12,0,0,0,0,0
2740,-3.20974e-12,0,-1.54806e-06,-3.27649e-12,0,0,-1.06667e-13,0,0,0,0,0,0,0,0,0,0,0,0,0,0,0,0,0,0,0,0,0,-0.261799,3.14153,-1.5,3.94113e+12,0,0,0,0,0
2750,-3.20974e-12,0,-1.54806e-06,-3.27649e-12,0,-3.40902e-12,-1.06667e-13,0,0,0,0,0,0,0,0,0,0,0,0,0,0,0,0,0,0,0,0,0,-0.261799,3.14153,-1.5,3.94113e+12,0,0,0,0,0
2760,-3.20974e-12,0,-1.54806e-06,-3.27649e-12,0,0,-1.06667e-13,0,0,0,0,0,0,0,0,0,0,0,0,0,0,0,0,0,0,0,0,0,-0.261799,3.14153,-1.5,3.94113e+12,0,0,0,0,0
2770,-3.20974e-12,0,-1.54806e-06,-3.27649e-12,0,-3.40902e-12,-1.06668e-13,0,0,0,0,0,0,0,0,0,0,0,0,0,0,0,0,0,0,0,0,0,-0.261799,3.14154,-1.5,3.94113e+12,0,0,0,0,0
2780,-3.20974e-12,0,-1.54806e-06,-3.27649e-12,0,0,-1.06668e-13,0,0,0,0,0,0,0,0,0,0,0,0,0,0,0,0,0,0,0,0,0,-0.261799,3.14154,-1.5,3.94113e+12,0,0,0,0,0
2790,-3.20974e-12,0,-1.54806e-06,-3.27649e-12,0,-3.40902e-12,-1.06668e-13,0,0,0,0,0,0,0,0,0,0,0,0,0,0,0,0,0,0,0,0,0,-0.261799,3.14154,-1.5,3.94113e+12,0,0,0,0,0
2800,-3.20974e-12,0,-1.54806e-06,-3.27649e-12,0,0,-1.06668e-13,0,0,0,0,0,0,0,0,0,0,0,0,0,0,0,0,0,0,0,0,0,-0.261799,3.14154,-1.5,3.94113e+12,0,0,0,0,0
2810,-3.20974e-12,0,-1.54806e-06,-3.27649e-12,0,-3.40902e-12,-1.06669e-13,0,0,0,0,0,0,0,0,0,0,0,0,0,0,0,0,0,0,0,0,0,-0.261799,3.14155,-1.5,3.94113e+12,0,0,0,0,0
2820,-3.20974e-12,0,-1.54806e-06,-3.27649e-12,0,0,-1.06669e-13,0,0,0,0,0,0,0,0,0,0,0,0,0,0,0,0,0,0,0,0,0,-0.261799,3.14155,-1.5,3.94113e+12,0,0,0,0,0
2830,-3.20974e-12,0,-1.54806e-06,-3.27649e-12,0,-3.40902e-12,-1.06669e-13,0,0,0,0,0,0,0,0,0,0,0,0,0,0,0,0,0,0,0,0,0,-0.261799,3.14155,-1.5,3.94113e+12,0,0,0,0,0
2840,-3.20974e-12,0,-1.54806e-06,-3.27649e-12,0,0,-1.06669e-13,0,0,0,0,0,0,0,0,0,0,0,0,0,0,0,0,0,0,0,0,0,-0.261799,3.14155,-1.5,3.94113e+12,0,0,0,0,0
2850,-3.20974e-12,0,-1.54806e-06,-3.27649e-12,0,-3.40902e-12,-1.0667e-13,0,0,0,0,0,0,0,0,0,0,0,0,0,0,0,0,0,0,0,0,0,-0.261799,3.14155,-1.5,3.94113e+12,0,0,0,0,0
2860,-3.20974e-12,0,-1.54806e-06,-3.27649e-12,0,0,-1.0667e-13,0,0,0,0,0,0,0,0,0,0,0,0,0,0,0,0,0,0,0,0,0,-0.261799,3.14156,-1.5,3.94113e+12,0,0,0,0,0
2870,-3.20974e-12,0,-1.54806e-06,-3.27649e-12,0,-3.40902e-12,-1.0667e-13,0,0,0,0,0,0,0,0,0,0,0,0,0,0,0,0,0,0,0,0,0,-0.261799,3.14156,-1.5,3.94113e+12,0,0,0,0,0
2880,-3.20974e-12,0,-1.54806e-06,-3.27649e-12,0,0,-1.06671e-13,0,0,0,0,0,0,0,0,0,0,0,0,0,0,0,0,0,0,0,0,0,-0.261799,3.14156,-1.5,3.94113e+12,0,0,0,0,0
2890,-3.20974e-12,0,-1.54806e-06,-3.27649e-12,0,-3.40902e-12,-1.06671e-13,0,0,0,0,0,0,0,0,0,0,0,0,0,0,0,0,0,0,0,0,0,-0.261799,3.14156,-1.5,3.94113e+12,0,0,0,0,0
2900,-3.20974e-12,0,-1.54806e-06,-3.27649e-12,0,0,-1.06671e-13,0,0,0,0,0,0,0,0,0,0,0,0,0,0,0,0,0,0,0,0,0,-0.261799,3.14156,-1.5,3.94113e+12,0,0,0,0,0
2910,-3.20974e-12,0,-1.54806e-06,-3.27649e-12,0,-3.40902e-12,-1.06671e-13,0,0,0,0,0,0,0,0,0,0,0,0,0,0,0,0,0,0,0,0,0,-0.261799,3.14156,-1.5,3.94113e+12,0,0,0,0,0
2920,-3.20974e-12,0,-1.54806e-06,-3.27649e-12,0,0,-1.06672e-13,0,0,0,0,0,0,0,0,0,0,0,0,0,0,0,0,0,0,0,0,0,-0.261799,3.14156,-1.5,3.94113e+12,0,0,0,0,0
2930,-3.20974e-12,0,-1.54806e-06,-3.27649e-12,0,-3.40902e-12,-1.06672e-13,0,0,0,0,0,0,0,0,0,0,0,0,0,0,0,0,0,0,0,0,0,-0.261799,3.14156,-1.5,3.94113e+12,0,0,0,0,0
2940,-3.20974e-12,0,-1.54806e-06,-3.27649e-12,0,0,-1.06672e-13,0,0,0,0,0,0,0,0,0,0,0,0,0,0,0,0,0,0,0,0,0,-0.261799,3.14156,-1.5,3.94113e+12,0,0,0,0,0
2950,-3.20974e-12,0,-1.54806e-06,-3.27649e-12,0,-3.40902e-12,-1.06672e-13,0,0,0,0,0,0,0,0,0,0,0,0,0,0,0,0,0,0,0,0,0,-0.261799,3.14156,-1.5,3.94113e+12,0,0,0,0,0
2960,-3.20974e-12,0,-1.54806e-06,-3.27649e-12,0,0,-1.06673e-13,0,0,0,0,0,0,0,0,0,0,0,0,0,0,0,0,0,0,0,0,0,-0.261799,3.14157,-1.5,3.94113e+12,0,0,0,0,0
2970,-3.20974e-12,0,-1.54806e-06,-3.27649e-12,0,-3.40902e-12,-1.06673e-13,0,0,0,0,0,0,0,0,0,0,0,0,0,0,0,0,0,0,0,0,0,-0.261799,3.14157,-1.5,3.94113e+12,0,0,0,0,0
2980,-3.20974e-12,0,-1.54806e-06,-3.27649e-12,0,0,-1.06673e-13,0,0,0,0,0,0,0,0,0,0,0,0,0,0,0,0,0,0,0,0,0,-0.261799,3.14157,-1.5,3.94113e+12,0,0,0,0,0
2990,-3.20974e-12,0,-1.54806e-06,-3.27649e-12,0,-3.40902e-12,-1.06674e-13,0,0,0,0,0,0,0,0,0,0,0,0,0,0,0,0,0,0,0,0,0,-0.261799,3.14157,-1.5,3.94113e+12,0,0,0,0,0
3000,-3.20974e-12,0,-1.54806e-06,-3.27649e-12,0,0,-1.06674e-13,0,0,0,0,0,0,0,0,0,0,0,0,0,0,0,0,0,0,0,0,0,-0.261799,3.14157,-1.5,3.94113e+12,0,0,0,0,0
3010,-3.20974e-12,0,-1.54806e-06,-3.27649e-12,0,-3.40902e-12,-1.06674e-13,0,0,0,0,0,0,0,0,0,0,0,0,0,0,0,0,0,0,0,0,0,-0.261799,3.14157,-1.5,3.94113e+12,0,0,0,0,0
3020,-3.20974e-12,0,-1.54806e-06,-3.27649e-12,0,0,-1.06674e-13,0,0,0,0,0,0,0,0,0,0,0,0,0,0,0,0,0,0,0,0,0,-0.261799,3.14157,-1.5,3.94113e+12,0,0,0,0,0
3030,-3.20974e-12,0,-1.54806e-06,-3.27649e-12,0,-3.40902e-12,-1.06675e-13,0,0,0,0,0,0,0,0,0,0,0,0,0,0,0,0,0,0,0,0,0,-0.261799,3.14157,-1.5,3.94113e+12,0,0,0,0,0
3040,-3.20974e-12,0,-1.54806e-06,-3.27649e-12,0,0,-1.06675e-13,0,0,0,0,0,0,0,0,0,0,0,0,0,0,0,0,0,0,0,0,0,-0.261799,3.14157,-1.5,3.94113e+12,0,0,0,0,0
3050,-3.20974e-12,0,-1.54806e-06,-3.27649e-12,0,-3.40902e-12,-1.06675e-13,0,0,0,0,0,0,0,0,0,0,0,0,0,0,0,0,0,0,0,0,0,-0.261799,3.14157,-1.5,3.94113e+12,0,0,0,0,0
3060,-3.20974e-12,0,-1.54806e-06,-3.27649e-12,0,0,-1.06675e-13,0,0,0,0,0,0,0,0,0,0,0,0,0,0,0,0,0,0,0,0,0,-0.261799,3.14157,-1.5,3.94113e+12,0,0,0,0,0
3070,-3.20974e-12,0,-1.54806e-06,-3.27649e-12,0,-3.40902e-12,-1.06676e-13,0,0,0,0,0,0,0,0,0,0,0,0,0,0,0,0,0,0,0,0,0,-0.261799,3.14157,-1.5,3.94113e+12,0,0,0,0,0
3080,-3.20974e-12,0,-1.54806e-06,-3.27649e-12,0,0,-1.06676e-13,0,0,0,0,0,0,0,0,0,0,0,0,0,0,0,0,0,0,0,0,0,-0.261799,3.14157,-1.5,3.94113e+12,0,0,0,0,0
3090,-3.20974e-12,0,-1.54806e-06,-3.27649e-12,0,-3.40902e-12,-1.06676e-13,0,0,0,0,0,0,0,0,0,0,0,0,0,0,0,0,0,0,0,0,0,-0.261799,3.14157,-1.5,3.94113e+12,0,0,0,0,0
3100,-3.20974e-12,0,-1.54806e-06,-3.27649e-12,0,0,-1.06676e-13,0,0,0,0,0,0,0,0,0,0,0,0,0,0,0,0,0,0,0,0,0,-0.261799,3.14157,-1.5,3.94113e+12,0,0,0,0,0
3110,-3.20974e-12,0,-1.54806e-06,-3.27649e-12,0,-3.40902e-12,-1.06677e-13,0,0,0,0,0,0,0,0,0,0,0,0,0,0,0,0,0,0,0,0,0,-0.261799,3.14157,-1.5,3.94113e+12,0,0,0,0,0
3120,-3.20974e-12,0,-1.54806e-06,-3.27649e-12,0,0,-1.06677e-13,0,0,0,0,0,0,0,0,0,0,0,0,0,0,0,0,0,0,0,0,0,-0.261799,3.14157,-1.5,3.94113e+12,0,0,0,0,0
3130,-3.20974e-12,0,-1.54806e-06,-3.27649e-12,0,-3.40902e-12,-1.06628e-13,0,0,0,0,0,0,0,0,0,0,0,0,0,0,0,0,0,0,0,0,0,-0.261799,3.14158,-1.5,3.94113e+12,0,0,0,0,0
3140,-3.20974e-12,0,-1.54806e-06,-3.27649e-12,0,0,-1.06628e-13,0,0,0,0,0,0,0,0,0,0,0,0,0,0,0,0,0,0,0,0,0,-0.261799,3.14158,-1.5,3.94113e+12,0,0,0,0,0
3150,-3.20974e-12,0,-1.54806e-06,-3.27649e-12,0,-3.40902e-12,-1.06629e-13,0,0,0,0,0,0,0,0,0,0,0,0,0,0,0,0,0,0,0,0,0,-0.261799,3.14158,-1.5,3.94113e+12,0,0,0,0,0
3160,-3.20974e-12,0,-1.54806e-06,-3.27649e-12,0,0,-1.06629e-13,0,0,0,0,0,0,0,0,0,0,0,0,0,0,0,0,0,0,0,0,0,-0.261799,3.14158,-1.5,3.94113e+12,0,0,0,0,0
3170,-3.20974e-12,0,-1.54806e-06,-3.27649e-12,0,-3.40902e-12,-1.06629e-13,0,0,0,0,0,0,0,0,0,0,0,0,0,0,0,0,0,0,0,0,0,-0.261799,3.14158,-1.5,3.94113e+12,0,0,0,0,0
3180,-3.20974e-12,0,-1.54806e-06,-3.27649e-12,0,0,-1.06629e-13,0,0,0,0,0,0,0,0,0,0,0,0,0,0,0,0,0,0,0,0,0,-0.261799,3.14158,-1.5,3.94113e+12,0,0,0,0,0
3190,-3.20974e-12,0,-1.54806e-06,-3.27649e-12,0,-3.40902e-12,-1.0663e-13,0,0,0,0,0,0,0,0,0,0,0,0,0,0,0,0,0,0,0,0,0,-0.261799,3.14158,-1.5,3.94113e+12,0,0,0,0,0
3200,-3.20974e-12,0,-1.54806e-06,-3.27649e-12,0,0,-1.0663e-13,0,0,0,0,0,0,0,0,0,0,0,0,0,0,0,0,0,0,0,0,0,-0.261799,3.14158,-1.5,3.94113e+12,0,0,0,0,0
3210,-3.20974e-12,0,-1.54806e-06,-3.27649e-12,0,-3.40902e-12,-1.0663e-13,0,0,0,0,0,0,0,0,0,0,0,0,0,0,0,0,0,0,0,0,0,-0.261799,3.14158,-1.5,3.94113e+12,0,0,0,0,0
3220,-3.20974e-12,0,-1.54806e-06,-3.27649e-12,0,0,-1.06631e-13,0,0,0,0,0,0,0,0,0,0,0,0,0,0,0,0,0,0,0,0,0,-0.261799,3.14158,-1.5,3.94113e+12,0,0,0,0,0
3230,-3.20974e-12,0,-1.54806e-06,-3.27649e-12,0,-3.40902e-12,-1.06631e-13,0,0,0,0,0,0,0,0,0,0,0,0,0,0,0,0,0,0,0,0,0,-0.261799,3.14158,-1.5,3.94113e+12,0,0,0,0,0
3240,-3.20974e-12,0,-1.54806e-06,-3.27649e-12,0,0,-1.06631e-13,0,0,0,0,0,0,0,0,0,0,0,0,0,0,0,0,0,0,0,0,0,-0.261799,3.14158,-1.5,3.94113e+12,0,0,0,0,0
3250,-3.20974e-12,0,-1.54806e-06,-3.27649e-12,0,-3.40902e-12,-1.06631e-13,0,0,0,0,0,0,0,0,0,0,0,0,0,0,0,0,0,0,0,0,0,-0.261799,3.14158,-1.5,3.94113e+12,0,0,0,0,0
3260,-3.20974e-12,0,-1.54806e-06,-3.27649e-12,0,0,-1.06677e-13,0,0,0,0,0,0,0,0,0,0,0,0,0,0,0,0,0,0,0,0,0,-0.261799,3.14158,-1.5,3.94113e+12,0,0,0,0,0
3270,-3.20974e-12,0,-1.54806e-06,-3.27649e-12,0,-3.40902e-12,-1.06678e-13,0,0,0,0,0,0,0,0,0,0,0,0,0,0,0,0,0,0,0,0,0,-0.261799,3.14158,-1.5,3.94113e+12,0,0,0,0,0
3280,-3.20974e-12,0,-1.54806e-06,-3.27649e-12,0,0,-1.06678e-13,0,0,0,0,0,0,0,0,0,0,0,0,0,0,0,0,0,0,0,0,0,-0.261799,3.14158,-1.5,3.94113e+12,0,0,0,0,0
3290,-3.20974e-12,0,-1.54806e-06,-3.27649e-12,0,-3.40902e-12,-1.06678e-13,0,0,0,0,0,0,0,0,0,0,0,0,0,0,0,0,0,0,0,0,0,-0.261799,3.14158,-1.5,3.94113e+12,0,0,0,0,0
3300,-3.20974e-12,0,-1.54806e-06,-3.27649e-12,0,0,-1.06678e-13,0,0,0,0,0,0,0,0,0,0,0,0,0,0,0,0,0,0,0,0,0,-0.261799,3.14158,-1.5,3.94113e+12,0,0,0,0,0
3310,-3.20974e-12,0,-1.54806e-06,-3.27649e-12,0,-3.40902e-12,-1.06679e-13,0,0,0,0,0,0,0,0,0,0,0,0,0,0,0,0,0,0,0,0,0,-0.261799,3.14158,-1.5,3.94113e+12,0,0,0,0,0
3320,-3.20974e-12,0,-1.54806e-06,-3.27649e-12,0,0,-1.06679e-13,0,0,0,0,0,0,0,0,0,0,0,0,0,0,0,0,0,0,0,0,0,-0.261799,3.14158,-1.5,3.94113e+12,0,0,0,0,0
3330,-3.20974e-12,0,-1.54806e-06,-3.27649e-12,0,-3.40902e-12,-1.06679e-13,0,0,0,0,0,0,0,0,0,0,0,0,0,0,0,0,0,0,0,0,0,-0.261799,3.14158,-1.5,3.94113e+12,0,0,0,0,0
3340,-3.20974e-12,0,-1.54806e-06,-3.27649e-12,0,0,-1.06679e-13,0,0,0,0,0,0,0,0,0,0,0,0,0,0,0,0,0,0,0,0,0,-0.261799,3.14158,-1.5,3.94113e+12,0,0,0,0,0
3350,-3.20974e-12,0,-1.54806e-06,-3.27649e-12,0,-3.40902e-12,-1.0668e-13,0,0,0,0,0,0,0,0,0,0,0,0,0,0,0,0,0,0,0,0,0,-0.261799,3.14158,-1.5,3.94113e+12,0,0,0,0,0
3360,-3.20974e-12,0,-1.54806e-06,-3.27649e-12,0,0,-1.0668e-13,0,0,0,0,0,0,0,0,0,0,0,0,0,0,0,0,0,0,0,0,0,-0.261799,3.14158,-1.5,3.94113e+12,0,0,0,0,0
3370,-3.20974e-12,0,-1.54806e-06,-3.27649e-12,0,-3.40902e-12,-1.0668e-13,0,0,0,0,0,0,0,0,0,0,0,0,0,0,0,0,0,0,0,0,0,-0.261799,3.14158,-1.5,3.94113e+12,0,0,0,0,0
3380,-3.20974e-12,0,-1.54806e-06,-3.27649e-12,0,0,-1.06681e-13,0,0,0,0,0,0,0,0,0,0,0,0,0,0,0,0,0,0,0,0,0,-0.261799,3.14158,-1.5,3.94113e+12,0,0,0,0,0
3390,-3.20974e-12,0,-1.54806e-06,-3.27649e-12,0,-3.40902e-12,-1.06681e-13,0,0,0,0,0,0,0,0,0,0,0,0,0,0,0,0,0,0,0,0,0,-0.261799,3.14158,-1.5,3.94113e+12,0,0,0,0,0
3400,-3.20974e-12,0,-1.54806e-06,-3.27649e-12,0,0,-1.06681e-13,0,0,0,0,0,0,0,0,0,0,0,0,0,0,0,0,0,0,0,0,0,-0.261799,3.14158,-1.5,3.94113e+12,0,0,0,0,0
3410,-3.20974e-12,0,-1.54806e-06,-3.27649e-12,0,-3.40902e-12,-1.06681e-13,0,0,0,0,0,0,0,0,0,0,0,0,0,0,0,0,0,0,0,0,0,-0.261799,3.14158,-1.5,3.94113e+12,0,0,0,0,0
3420,-3.20974e-12,0,-1.54806e-06,-3.27649e-12,0,0,-1.06682e-13,0,0,0,0,0,0,0,0,0,0,0,0,0,0,0,0,0,0,0,0,0,-0.261799,3.14158,-1.5,3.94113e+12,0,0,0,0,0
3430,-3.20974e-12,0,-1.54806e-06,-3.27649e-12,0,-3.40902e-12,-1.06682e-13,0,0,0,0,0,0,0,0,0,0,0,0,0,0,0,0,0,0,0,0,0,-0.261799,3.14158,-1.5,3.94113e+12,0,0,0,0,0
3440,-3.20974e-12,0,-1.54806e-06,-3.27649e-12,0,0,-1.06682e-13,0,0,0,0,0,0,0,0,0,0,0,0,0,0,0,0,0,0,0,0,0,-0.261799,3.14158,-1.5,3.94113e+12,0,0,0,0,0
3450,-3.20974e-12,0,-1.54806e-06,-3.27649e-12,0,-3.40902e-12,-1.06682e-13,0,0,0,0,0,0,0,0,0,0,0,0,0,0,0,0,0,0,0,0,0,-0.261799,3.14158,-1.5,3.94113e+12,0,0,0,0,0
3460,-3.20974e-12,0,-1.54806e-06,-3.27649e-12,0,0,-1.06683e-13,0,0,0,0,0,0,0,0,0,0,0,0,0,0,0,0,0,0,0,0,0,-0.261799,3.14158,-1.5,3.94113e+12,0,0,0,0,0
3470,-3.20974e-12,0,-1.54806e-06,-3.27649e-12,0,-3.40902e-12,-1.06683e-13,0,0,0,0,0,0,0,0,0,0,0,0,0,0,0,0,0,0,0,0,0,-0.261799,3.14158,-1.5,3.94113e+12,0,0,0,0,0
3480,-3.20974e-12,0,-1.54806e-06,-3.27649e-12,0,0,-1.06683e-13,0,0,0,0,0,0,0,0,0,0,0,0,0,0,0,0,0,0,0,0,0,-0.261799,3.14158,-1.5,3.94113e+12,0,0,0,0,0
3490,-3.20974e-12,0,-1.54806e-06,-3.27649e-12,0,-3.40902e-12,-1.06684e-13,0,0,0,0,0,0,0,0,0,0,0,0,0,0,0,0,0,0,0,0,0,-0.261799,3.14158,-1.5,3.94113e+12,0,0,0,0,0
3500,-3.20974e-12,0,-1.54806e-06,-3.27649e-12,0,0,-1.06684e-13,0,0,0,0,0,0,0,0,0,0,0,0,0,0,0,0,0,0,0,0,0,-0.261799,3.14158,-1.5,3.94113e+12,0,0,0,0,0
3510,-3.20974e-12,0,-1.54806e-06,-3.27649e-12,0,-3.40902e-12,-1.06684e-13,0,0,0,0,0,0,0,0,0,0,0,0,0,0,0,0,0,0,0,0,0,-0.261799,3.14158,-1.5,3.94113e+12,0,0,0,0,0
3520,-3.20974e-12,0,-1.54806e-06,-3.27649e-12,0,0,-1.06684e-13,0,0,0,0,0,0,0,0,0,0,0,0,0,0,0,0,0,0,0,0,0,-0.261799,3.14158,-1.5,3.94113e+12,0,0,0,0,0
3530,-3.20974e-12,0,-1.54806e-06,-3.27649e-12,0,-3.40902e-12,-1.06685e-13,0,0,0,0,0,0,0,0,0,0,0,0,0,0,0,0,0,0,0,0,0,-0.261799,3.14158,-1.5,3.94113e+12,0,0,0,0,0
3540,-3.20974e-12,0,-1.54806e-06,-3.27649e-12,0,0,-1.06685e-13,0,0,0,0,0,0,0,0,0,0,0,0,0,0,0,0,0,0,0,0,0,-0.261799,3.14158,-1.5,3.94113e+12,0,0,0,0,0
3550,-3.20974e-12,0,-1.54806e-06,-3.27649e-12,0,-3.40902e-12,-1.06685e-13,0,0,0,0,0,0,0,0,0,0,0,0,0,0,0,0,0,0,0,0,0,-0.261799,3.14159,-1.5,3.94113e+12,0,0,0,0,0
3560,-3.20974e-12,0,-1.54806e-06,-3.27649e-12,0,0,-1.06685e-13,0,0,0,0,0,0,0,0,0,0,0,0,0,0,0,0,0,0,0,0,0,-0.261799,3.14159,-1.5,3.94113e+12,0,0,0,0,0
3570,-3.20974e-12,0,-1.54806e-06,-3.27649e-12,0,-3.40902e-12,-1.06686e-13,0,0,0,0,0,0,0,0,0,0,0,0,0,0,0,0,0,0,0,0,0,-0.261799,3.14159,-1.5,3.94113e+12,0,0,0,0,0
3580,-3.20974e-12,0,-1.54806e-06,-3.27649e-12,0,0,-1.06686e-13,0,0,0,0,0,0,0,0,0,0,0,0,0,0,0,0,0,0,0,0,0,-0.261799,3.14159,-1.5,3.94113e+12,0,0,0,0,0
3590,-3.20974e-12,0,-1.54806e-06,-3.27649e-12,0,-3.40902e-12,-1.06686e-13,0,0,0,0,0,0,0,0,0,0,0,0,0,0,0,0,0,0,0,0,0,-0.261799,3.14159,-1.5,3.94113e+12,0,0,0,0,0
3600,-3.20974e-12,0,-1.54806e-06,-3.27649e-12,0,0,-1.06687e-13,0,0,0,0,0,0,0,0,0,0,0,0,0,0,0,0,0,0,0,0,0,-0.261799,3.14159,-1.5,3.94113e+12,0,0,0,0,0
3610,-3.20974e-12,0,-1.54806e-06,-3.27649e-12,0,-3.40902e-12,-1.06687e-13,0,0,0,0,0,0,0,0,0,0,0,0,0,0,0,0,0,0,0,0,0,-0.261799,3.14159,-1.5,3.94113e+12,0,0,0,0,0
3620,-3.20974e-12,0,-1.54806e-06,-3.27649e-12,0,0,-1.06687e-13,0,0,0,0,0,0,0,0,0,0,0,0,0,0,0,0,0,0,0,0,0,-0.261799,3.14159,-1.5,3.94113e+12,0,0,0,0,0
3630,-3.20974e-12,0,-1.54806e-06,-3.27649e-12,0,-3.40902e-12,-1.06687e-13,0,0,0,0,0,0,0,0,0,0,0,0,0,0,0,0,0,0,0,0,0,-0.261799,3.14159,-1.5,3.94113e+12,0,0,0,0,0
3640,-3.20974e-12,0,-1.54806e-06,-3.27649e-12,0,0,-1.06688e-13,0,0,0,0,0,0,0,0,0,0,0,0,0,0,0,0,0,0,0,0,0,-0.261799,3.14159,-1.5,3.94113e+12,0,0,0,0,0
3650,-3.20974e-12,0,-1.54806e-06,-3.27649e-12,0,-3.40902e-12,-1.06688e-13,0,0,0,0,0,0,0,0,0,0,0,0,0,0,0,0,0,0,0,0,0,-0.261799,3.14159,-1.5,3.94113e+12,0,0,0,0,0
3660,-3.20974e-12,0,-1.54806e-06,-3.27649e-12,0,0,-1.06688e-13,0,0,0,0,0,0,0,0,0,0,0,0,0,0,0,0,0,0,0,0,0,-0.261799,3.14159,-1.5,3.94113e+12,0,0,0,0,0
3670,-3.20974e-12,0,-1.54806e-06,-3.27649e-12,0,-3.40902e-12,-1.06688e-13,0,0,0,0,0,0,0,0,0,0,0,0,0,0,0,0,0,0,0,0,0,-0.261799,3.14159,-1.5,3.94113e+12,0,0,0,0,0
3680,-3.20974e-12,0,-1.54806e-06,-3.27649e-12,0,0,-1.06689e-13,0,0,0,0,0,0,0,0,0,0,0,0,0,0,0,0,0,0,0,0,0,-0.261799,3.14159,-1.5,3.94113e+12,0,0,0,0,0
3690,-3.20974e-12,0,-1.54806e-06,-3.27649e-12,0,-3.40902e-12,-1.06689e-13,0,0,0,0,0,0,0,0,0,0,0,0,0,0,0,0,0,0,0,0,0,-0.261799,3.14159,-1.5,3.94113e+12,0,0,0,0,0
3700,-3.20974e-12,0,-1.54806e-06,-3.27649e-12,0,0,-1.06689e-13,0,0,0,0,0,0,0,0,0,0,0,0,0,0,0,0,0,0,0,0,0,-0.261799,3.14159,-1.5,3.94113e+12,0,0,0,0,0
3710,-3.20974e-12,0,-1.54806e-06,-3.27649e-12,0,-3.40902e-12,-1.0669e-13,0,0,0,0,0,0,0,0,0,0,0,0,0,0,0,0,0,0,0,0,0,-0.261799,3.14159,-1.5,3.94113e+12,0,0,0,0,0
3720,-3.20974e-12,0,-1.54806e-06,-3.27649e-12,0,0,-1.0669e-13,0,0,0,0,0,0,0,0,0,0,0,0,0,0,0,0,0,0,0,0,0,-0.261799,3.14159,-1.5,3.94113e+12,0,0,0,0,0
3730,-3.20974e-12,0,-1.54806e-06,-3.27649e-12,0,-3.40902e-12,-1.0669e-13,0,0,0,0,0,0,0,0,0,0,0,0,0,0,0,0,0,0,0,0,0,-0.261799,3.14159,-1.5,3.94113e+12,0,0,0,0,0
3740,-3.20974e-12,0,-1.54806e-06,-3.27649e-12,0,0,-1.0669e-13,0,0,0,0,0,0,0,0,0,0,0,0,0,0,0,0,0,0,0,0,0,-0.261799,3.14159,-1.5,3.94113e+12,0,0,0,0,0
3750,-3.20974e-12,0,-1.54806e-06,-3.27649e-12,0,-3.40902e-12,-1.06691e-13,0,0,0,0,0,0,0,0,0,0,0,0,0,0,0,0,0,0,0,0,0,-0.261799,3.14159,-1.5,3.94113e+12,0,0,0,0,0
3760,-3.20974e-12,0,-1.54806e-06,-3.27649e-12,0,0,-1.06691e-13,0,0,0,0,0,0,0,0,0,0,0,0,0,0,0,0,0,0,0,0,0,-0.261799,3.14159,-1.5,3.94113e+12,0,0,0,0,0
3770,-3.20974e-12,0,-1.54806e-06,-3.27649e-12,0,-3.40902e-12,-1.06691e-13,0,0,0,0,0,0,0,0,0,0,0,0,0,0,0,0,0,0,0,0,0,-0.261799,3.14159,-1.5,3.94113e+12,0,0,0,0,0
3780,-3.20974e-12,0,-1.54806e-06,-3.27649e-12,0,0,-1.06691e-13,0,0,0,0,0,0,0,0,0,0,0,0,0,0,0,0,0,0,0,0,0,-0.261799,3.14159,-1.5,3.94113e+12,0,0,0,0,0
3790,-3.20974e-12,0,-1.54806e-06,-3.27649e-12,0,-3.40902e-12,-1.06692e-13,0,0,0,0,0,0,0,0,0,0,0,0,0,0,0,0,0,0,0,0,0,-0.261799,3.14159,-1.5,3.94113e+12,0,0,0,0,0
3800,-3.20974e-12,0,-1.54806e-06,-3.27649e-12,0,0,-1.06692e-13,0,0,0,0,0,0,0,0,0,0,0,0,0,0,0,0,0,0,0,0,0,-0.261799,3.14159,-1.5,3.94113e+12,0,0,0,0,0
3810,-3.20974e-12,0,-1.54806e-06,-3.27649e-12,0,-3.40902e-12,-1.06692e-13,0,0,0,0,0,0,0,0,0,0,0,0,0,0,0,0,0,0,0,0,0,-0.261799,3.14159,-1.5,3.94113e+12,0,0,0,0,0
3820,-3.20974e-12,0,-1.54806e-06,-3.27649e-12,0,0,-1.06692e-13,0,0,0,0,0,0,0,0,0,0,0,0,0,0,0,0,0,0,0,0,0,-0.261799,3.14159,-1.5,3.94113e+12,0,0,0,0,0
3830,-3.20974e-12,0,-1.54806e-06,-3.27649e-12,0,-3.40902e-12,-1.06693e-13,0,0,0,0,0,0,0,0,0,0,0,0,0,0,0,0,0,0,0,0,0,-0.261799,3.14159,-1.5,3.94113e+12,0,0,0,0,0
3840,-3.20974e-12,0,-1.54806e-06,-3.27649e-12,0,0,-1.06693e-13,0,0,0,0,0,0,0,0,0,0,0,0,0,0,0,0,0,0,0,0,0,-0.261799,3.14159,-1.5,3.94113e+12,0,0,0,0,0
3850,-3.20974e-12,0,-1.54806e-06,-3.27649e-12,0,-3.40902e-12,-1.06693e-13,0,0,0,0,0,0,0,0,0,0,0,0,0,0,0,0,0,0,0,0,0,-0.261799,3.14159,-1.5,3.94113e+12,0,0,0,0,0
