timestamp,A_x,A_y,A_z,P,Q,R,Phi,Theta,Psi,poseX,poseY,poseZ,state_X,state_Y,state_Z,state_VzB,state_Bx,state_By,state_Bz,p1_x,p1_y,p2_x,p2_y,p3_x,p3_y,p4_x,p4_y,roll,pitch,yaw,alt,targetHeading,highLevelState,lowLevelState,gateNumber,filtered_x,filtered_y
10,0,0,0,0,0,0,0,0,0,0,0,0,0,0,0,0,0,0,0,0,0,0,0,0,0,0,0,0,-0.261799,0.0141372,-1.5,-nan,0,0,0,0,0
20,-3.71054e-12,0,-1.5774e-06,-3.84226e-12,0,0,-1.13703e-13,0,0,0,0,0,0,0,0,0,0,0,0,0,0,0,0,0,0,0,0,0,-0.261799,0.620464,-1.5,-nan,0,0,0,0,0
30,-3.71054e-12,0,-1.5774e-06,-3.84226e-12,0,-3.40902e-12,-1.13703e-13,0,0,0,0,0,0,0,0,0,0,0,0,0,0,0,0,0,0,0,0,0,-0.261799,0.642455,-1.5,-nan,0,0,0,0,0
40,-3.71054e-12,0,-1.5774e-06,-3.84226e-12,0,0,-1.13704e-13,0,0,0,0,0,0,0,0,0,0,0,0,0,0,0,0,0,0,0,0,0,-0.261799,0.727278,-1.5,-nan,0,0,0,0,0
50,-3.71054e-12,0,-1.5774e-06,-3.84226e-12,0,-3.40902e-12,-1.13704e-13,0,0,0,0,0,0,0,0,0,0,0,0,0,0,0,0,0,0,0,0,0,-0.261799,0.791668,-1.5,-nan,0,0,0,0,0
60,-3.71054e-12,0,-1.5774e-06,-3.84226e-12,0,0,-1.13705e-13,0,0,0,0,0,0,0,0,0,0,0,0,0,0,0,0,0,0,0,0,0,-0.261799,0.823995,-1.5,-nan,0,0,0,0,0
70,-3.71054e-12,0,-1.5774e-06,-3.84226e-12,0,-3.40902e-12,-1.13705e-13,0,0,0,0,0,0,0,0,0,0,0,0,0,0,0,0,0,0,0,0,0,-0.261799,0.85495,-1.5,-nan,0,0,0,0,0
80,-3.71054e-12,0,-1.5774e-06,-3.84226e-12,0,0,-1.13706e-13,0,0,0,0,0,0,0,0,0,0,0,0,0,0,0,0,0,0,0,0,0,-0.261799,0.891696,-1.5,-nan,0,0,0,0,0
90,-3.71054e-12,0,-1.5774e-06,-3.84226e-12,0,-3.40902e-12,-1.13706e-13,0,0,0,0,0,0,0,0,0,0,0,0,0,0,0,0,0,0,0,0,0,-0.261799,0.918536,-1.5,-nan,0,0,0,0,0
100,-3.71054e-12,0,-1.5774e-06,-3.84226e-12,0,0,-1.13707e-13,0,0,0,0,0,0,0,0,0,0,0,0,0,0,0,0,0,0,0,0,0,-0.261799,0.946882,-1.5,-nan,0,0,0,0,0
110,-3.71054e-12,0,-1.5774e-06,-3.84226e-12,0,-3.40902e-12,-1.13708e-13,0,0,0,0,0,0,0,0,0,0,0,0,0,0,0,0,0,0,0,0,0,-0.261799,0.971541,-1.5,-nan,0,0,0,0,0
120,-3.71054e-12,0,-1.5774e-06,-3.84226e-12,0,0,-1.13708e-13,0,0,0,0,0,0,0,0,0,0,0,0,0,0,0,0,0,0,0,0,0,-0.261799,0.997584,-1.5,-nan,0,0,0,0,0
130,-3.71054e-12,0,-1.5774e-06,-3.84226e-12,0,-3.40902e-12,-1.13709e-13,0,0,0,0,0,0,0,0,0,0,0,0,0,0,0,0,0,0,0,0,0,-0.261799,1.02024,-1.5,-nan,0,0,0,0,0
140,-3.71054e-12,0,-1.5774e-06,-3.84226e-12,0,0,-1.13709e-13,0,0,0,0,0,0,0,0,0,0,0,0,0,0,0,0,0,0,0,0,0,-0.261799,1.04522,-1.5,-nan,0,0,0,0,0
150,-3.71054e-12,0,-1.5774e-06,-3.84226e-12,0,-3.40902e-12,-1.1371e-13,0,0,0,0,0,0,0,0,0,0,0,0,0,0,0,0,0,0,0,0,0,-0.261799,1.06598,-1.5,-nan,0,0,0,0,0
160,-3.71054e-12,0,-1.5774e-06,-3.84226e-12,0,0,-1.1371e-13,0,0,0,0,0,0,0,0,0,0,0,0,0,0,0,0,0,0,0,0,0,-0.261799,1.08692,-1.5,-nan,0,0,0,0,0
170,-3.71054e-12,0,-1.5774e-06,-3.84226e-12,0,-3.40902e-12,-1.13711e-13,0,0,0,0,0,0,0,0,0,0,0,0,0,0,0,0,0,0,0,0,0,-0.261799,1.10603,-1.5,-nan,0,0,0,0,0
180,-3.71054e-12,0,-1.5774e-06,-3.84226e-12,0,0,-1.13711e-13,0,0,0,0,0,0,0,0,0,0,0,0,0,0,0,0,0,0,0,0,0,-0.261799,1.12621,-1.5,-nan,0,0,0,0,0
190,-3.71054e-12,0,-1.5774e-06,-3.84226e-12,0,-3.40902e-12,-1.13712e-13,0,0,0,0,0,0,0,0,0,0,0,0,0,0,0,0,0,0,0,0,0,-0.261799,1.14376,-1.5,-nan,0,0,0,0,0
200,-3.71054e-12,0,-1.5774e-06,-3.84226e-12,0,0,-1.13712e-13,0,0,0,0,0,0,0,0,0,0,0,0,0,0,0,0,0,0,0,0,0,-0.261799,1.16232,-1.5,-nan,0,0,0,0,0
210,-3.71054e-12,0,-1.5774e-06,-3.84226e-12,0,-3.40902e-12,-1.13713e-13,0,0,0,0,0,0,0,0,0,0,0,0,0,0,0,0,0,0,0,0,0,-0.261799,1.17846,-1.5,-nan,0,0,0,0,0
220,-3.71054e-12,0,-1.5774e-06,-3.84226e-12,0,0,-1.13714e-13,0,0,0,0,0,0,0,0,0,0,0,0,0,0,0,0,0,0,0,0,0,-0.261799,1.19551,-1.5,-nan,0,0,0,0,0
230,-3.71054e-12,0,-1.5774e-06,-3.84226e-12,0,-3.40902e-12,-1.13714e-13,0,0,0,0,0,0,0,0,0,0,0,0,0,0,0,0,0,0,0,0,0,-0.261799,1.21035,-1.5,-nan,0,0,0,0,0
240,-3.71054e-12,0,-1.5774e-06,-3.84226e-12,0,0,-1.13715e-13,0,0,0,0,0,0,0,0,0,0,0,0,0,0,0,0,0,0,0,0,0,-0.261799,1.2267,-1.5,-nan,0,0,0,0,0
250,-3.71054e-12,0,-1.5774e-06,-3.84226e-12,0,-3.40902e-12,-1.13715e-13,0,0,0,0,0,0,0,0,0,0,0,0,0,0,0,0,0,0,0,0,0,-0.261799,1.24029,-1.5,-nan,0,0,0,0,0
260,-3.71054e-12,0,-1.5774e-06,-3.84226e-12,0,0,-1.13716e-13,0,0,0,0,0,0,0,0,0,0,0,0,0,0,0,0,0,0,0,0,0,-0.261799,1.25464,-1.5,-nan,0,0,0,0,0
270,-3.71054e-12,0,-1.5774e-06,-3.84226e-12,0,-3.40902e-12,-1.13716e-13,0,0,0,0,0,0,0,0,0,0,0,0,0,0,0,0,0,0,0,0,0,-0.261799,1.26712,-1.5,-nan,0,0,0,0,0
280,-3.71054e-12,0,-1.5774e-06,-3.84226e-12,0,0,-1.13717e-13,0,0,0,0,0,0,0,0,0,0,0,0,0,0,0,0,0,0,0,0,0,-0.261799,1.27853,-1.5,-nan,0,0,0,0,0
290,-3.71054e-12,0,-1.5774e-06,-3.84226e-12,0,-3.40902e-12,-1.13717e-13,0,0,0,0,0,0,0,0,0,0,0,0,0,0,0,0,0,0,0,0,0,-0.261799,1.28663,-1.5,-nan,0,0,0,0,0
300,-3.71054e-12,0,-1.5774e-06,-3.84226e-12,0,0,-1.13718e-13,0,0,0,0,0,0,0,0,0,0,0,0,0,0,0,0,0,0,0,0,0,-0.261799,1.29394,-1.5,-nan,0,0,0,0,0
310,-3.71054e-12,0,-1.5774e-06,-3.84226e-12,0,-3.40902e-12,-1.13718e-13,0,0,0,0,0,0,0,0,0,0,0,0,0,0,0,0,0,0,0,0,0,-0.261799,1.30325,-1.5,-nan,0,0,0,0,0
320,-3.71054e-12,0,-1.5774e-06,-3.84226e-12,0,0,-1.13719e-13,0,0,0,0,0,0,0,0,0,0,0,0,0,0,0,0,0,0,0,0,0,-0.261799,1.31172,-1.5,-nan,0,0,0,0,0
330,-3.71054e-12,0,-1.5774e-06,-3.84226e-12,0,-3.40902e-12,-1.13719e-13,0,0,0,0,0,0,0,0,0,0,0,0,0,0,0,0,0,0,0,0,0,-0.261799,1.32298,-1.5,-nan,0,0,0,0,0
340,-3.71054e-12,0,-1.5774e-06,-3.84226e-12,0,0,-1.1372e-13,0,0,0,0,0,0,0,0,0,0,0,0,0,0,0,0,0,0,0,0,0,-0.261799,1.33277,-1.5,-nan,0,0,0,0,0
350,-3.71054e-12,0,-1.5774e-06,-3.84226e-12,0,-3.40902e-12,-1.13721e-13,0,0,0,0,0,0,0,0,0,0,0,0,0,0,0,0,0,0,0,0,0,-0.261799,1.34358,-1.5,-nan,0,0,0,0,0
360,-3.71054e-12,0,-1.5774e-06,-3.84226e-12,0,0,-1.13721e-13,0,0,0,0,0,0,0,0,0,0,0,0,0,0,0,0,0,0,0,0,0,-0.261799,1.35256,-1.5,-nan,0,0,0,0,0
370,-3.71054e-12,0,-1.5774e-06,-3.84226e-12,0,-3.40902e-12,-1.13722e-13,0,0,0,0,0,0,0,0,0,0,0,0,0,0,0,0,0,0,0,0,0,-0.261799,1.36204,-1.5,-nan,0,0,0,0,0
380,-3.71054e-12,0,-1.5774e-06,-3.84226e-12,0,0,-1.13722e-13,0,0,0,0,0,0,0,0,0,0,0,0,0,0,0,0,0,0,0,0,0,-0.261799,1.37029,-1.5,-nan,0,0,0,0,0
390,-3.71054e-12,0,-1.5774e-06,-3.84226e-12,0,-3.40902e-12,-1.13723e-13,0,0,0,0,0,0,0,0,0,0,0,0,0,0,0,0,0,0,0,0,0,-0.261799,1.379,-1.5,-nan,0,0,0,0,0
400,-3.71054e-12,0,-1.5774e-06,-3.84226e-12,0,0,-1.13723e-13,0,0,0,0,0,0,0,0,0,0,0,0,0,0,0,0,0,0,0,0,0,-0.261799,1.38695,-1.5,-nan,0,0,0,0,0
410,-3.71054e-12,0,-1.5774e-06,-3.84226e-12,0,-3.40902e-12,-1.13724e-13,0,0,0,0,0,0,0,0,0,0,0,0,0,0,0,0,0,0,0,0,0,-0.261799,1.39494,-1.5,-nan,0,0,0,0,0
420,-3.71054e-12,0,-1.5774e-06,-3.84226e-12,0,0,-1.13724e-13,0,0,0,0,0,0,0,0,0,0,0,0,0,0,0,0,0,0,0,0,0,-0.261799,1.40189,-1.5,-nan,0,0,0,0,0
430,-3.71054e-12,0,-1.5774e-06,-3.84226e-12,0,-3.40902e-12,-1.13725e-13,0,0,0,0,0,0,0,0,0,0,0,0,0,0,0,0,0,0,0,0,0,-0.261799,1.40957,-1.5,-nan,0,0,0,0,0
440,-3.71054e-12,0,-1.5774e-06,-3.84226e-12,0,0,-1.13725e-13,0,0,0,0,0,0,0,0,0,0,0,0,0,0,0,0,0,0,0,0,0,-0.261799,1.41594,-1.5,-nan,0,0,0,0,0
450,-3.71054e-12,0,-1.5774e-06,-3.84226e-12,0,-3.40902e-12,-1.13726e-13,0,0,0,0,0,0,0,0,0,0,0,0,0,0,0,0,0,0,0,0,0,-0.261799,1.42297,-1.5,-nan,0,0,0,0,0
460,-3.71054e-12,0,-1.5774e-06,-3.84226e-12,0,0,-1.13727e-13,0,0,0,0,0,0,0,0,0,0,0,0,0,0,0,0,0,0,0,0,0,-0.261799,1.4288,-1.5,-nan,0,0,0,0,0
470,-3.71054e-12,0,-1.5774e-06,-3.84226e-12,0,-3.40902e-12,-1.13727e-13,0,0,0,0,0,0,0,0,0,0,0,0,0,0,0,0,0,0,0,0,0,-0.261799,1.43497,-1.5,-nan,0,0,0,0,0
480,-3.71054e-12,0,-1.5774e-06,-3.84226e-12,0,0,-1.13728e-13,0,0,0,0,0,0,0,0,0,0,0,0,0,0,0,0,0,0,0,0,0,-0.261799,1.44034,-1.5,-nan,0,0,0,0,0
490,-3.71054e-12,0,-1.5774e-06,-3.84226e-12,0,-3.40902e-12,-1.13728e-13,0,0,0,0,0,0,0,0,0,0,0,0,0,0,0,0,0,0,0,0,0,-0.261799,1.44601,-1.5,-nan,0,0,0,0,0
500,-3.71054e-12,0,-1.5774e-06,-3.84226e-12,0,0,-1.13729e-13,0,0,0,0,0,0,0,0,0,0,0,0,0,0,0,0,0,0,0,0,0,-0.261799,1.45094,-1.5,-nan,0,0,0,0,0
510,-3.71054e-12,0,-1.5774e-06,-3.84226e-12,0,-3.40902e-12,-1.13729e-13,0,0,0,0,0,0,0,0,0,0,0,0,0,0,0,0,0,0,0,0,0,-0.261799,1.45639,-1.5,-nan,0,0,0,0,0
520,-3.71054e-12,0,-1.5774e-06,-3.84226e-12,0,0,-1.1373e-13,0,0,0,0,0,0,0,0,0,0,0,0,0,0,0,0,0,0,0,0,0,-0.261799,1.46068,-1.5,-nan,0,0,0,0,0
530,-3.71054e-12,0,-1.5774e-06,-3.84226e-12,0,-3.40902e-12,-1.1373e-13,0,0,0,0,0,0,0,0,0,0,0,0,0,0,0,0,0,0,0,0,0,-0.261799,1.46547,-1.5,-nan,0,0,0,0,0
540,-3.71054e-12,0,-1.5774e-06,-3.84226e-12,0,0,-1.13731e-13,0,0,0,0,0,0,0,0,0,0,0,0,0,0,0,0,0,0,0,0,0,-0.261799,1.46984,-1.5,-nan,0,0,0,0,0
550,-3.71054e-12,0,-1.5774e-06,-3.84226e-12,0,-3.40902e-12,-1.13731e-13,0,0,0,0,0,0,0,0,0,0,0,0,0,0,0,0,0,0,0,0,0,-0.261799,1.47422,-1.5,-nan,0,0,0,0,0
560,-3.71054e-12,0,-1.5774e-06,-3.84226e-12,0,0,-1.13732e-13,0,0,0,0,0,0,0,0,0,0,0,0,0,0,0,0,0,0,0,0,0,-0.261799,1.47861,-1.5,-nan,0,0,0,0,0
570,-3.71054e-12,0,-1.5774e-06,-3.84226e-12,0,-3.40902e-12,-1.13732e-13,0,0,0,0,0,0,0,0,0,0,0,0,0,0,0,0,0,0,0,0,0,-0.261799,1.48152,-1.5,-nan,0,0,0,0,0
580,-3.71054e-12,0,-1.5774e-06,-3.84226e-12,0,0,-1.13733e-13,0,0,0,0,0,0,0,0,0,0,0,0,0,0,0,0,0,0,0,0,0,-0.261799,1.48435,-1.5,-nan,0,0,0,0,0
590,-3.71054e-12,0,-1.5774e-06,-3.84226e-12,0,-3.40902e-12,-1.13734e-13,0,0,0,0,0,0,0,0,0,0,0,0,0,0,0,0,0,0,0,0,0,-0.261799,1.48708,-1.5,-nan,0,0,0,0,0
600,-3.71054e-12,0,-1.5774e-06,-3.84226e-12,0,0,-1.13734e-13,0,0,0,0,0,0,0,0,0,0,0,0,0,0,0,0,0,0,0,0,0,-0.261799,1.4899,-1.5,-nan,0,0,0,0,0
610,-3.71054e-12,0,-1.5774e-06,-3.84226e-12,0,-3.40902e-12,-1.13735e-13,0,0,0,0,0,0,0,0,0,0,0,0,0,0,0,0,0,0,0,0,0,-0.261799,1.49325,-1.5,-nan,0,0,0,0,0
620,-3.71054e-12,0,-1.5774e-06,-3.84226e-12,0,0,-1.13735e-13,0,0,0,0,0,0,0,0,0,0,0,0,0,0,0,0,0,0,0,0,0,-0.261799,1.49647,-1.5,-nan,0,0,0,0,0
630,-3.71054e-12,0,-1.5774e-06,-3.84226e-12,0,-3.40902e-12,-1.13736e-13,0,0,0,0,0,0,0,0,0,0,0,0,0,0,0,0,0,0,0,0,0,-0.261799,1.4997,-1.5,-nan,0,0,0,0,0
640,-3.71054e-12,0,-1.5774e-06,-3.84226e-12,0,0,-1.13736e-13,0,0,0,0,0,0,0,0,0,0,0,0,0,0,0,0,0,0,0,0,0,-0.261799,1.50823,-1.5,-nan,0,0,0,0,0
650,-3.71054e-12,0,-1.5774e-06,-3.84226e-12,0,-3.40902e-12,-1.13737e-13,0,0,0,0,0,0,0,0,0,0,0,0,0,0,0,0,0,0,0,0,0,-0.261799,1.51083,-1.5,-nan,0,0,0,0,0
660,-3.71054e-12,0,-1.5774e-06,-3.84226e-12,0,0,-1.13737e-13,0,0,0,0,0,0,0,0,0,0,0,0,0,0,0,0,0,0,0,0,0,-0.261799,1.51343,-1.5,-nan,0,0,0,0,0
670,-3.71054e-12,0,-1.5774e-06,-3.84226e-12,0,-3.40902e-12,-1.13738e-13,0,0,0,0,0,0,0,0,0,0,0,0,0,0,0,0,0,0,0,0,0,-0.261799,1.51581,-1.5,-nan,0,0,0,0,0
680,-3.71054e-12,0,-1.5774e-06,-3.84226e-12,0,0,-1.13738e-13,0,0,0,0,0,0,0,0,0,0,0,0,0,0,0,0,0,0,0,0,0,-0.261799,1.51809,-1.5,-nan,0,0,0,0,0
690,-3.71054e-12,0,-1.5774e-06,-3.84226e-12,0,-3.40902e-12,-1.13739e-13,0,0,0,0,0,0,0,0,0,0,0,0,0,0,0,0,0,0,0,0,0,-0.261799,1.52038,-1.5,-nan,0,0,0,0,0
700,-3.71054e-12,0,-1.5774e-06,-3.84226e-12,0,0,-1.1374e-13,0,0,0,0,0,0,0,0,0,0,0,0,0,0,0,0,0,0,0,0,0,-0.261799,1.52247,-1.5,-nan,0,0,0,0,0
710,-3.71054e-12,0,-1.5774e-06,-3.84226e-12,0,-3.40902e-12,-1.1374e-13,0,0,0,0,0,0,0,0,0,0,0,0,0,0,0,0,0,0,0,0,0,-0.261799,1.52448,-1.5,-nan,0,0,0,0,0
720,-3.71054e-12,0,-1.5774e-06,-3.84226e-12,0,0,-1.13741e-13,0,0,0,0,0,0,0,0,0,0,0,0,0,0,0,0,0,0,0,0,0,-0.261799,1.52649,-1.5,-nan,0,0,0,0,0
730,-3.71054e-12,0,-1.5774e-06,-3.84226e-12,0,-3.40902e-12,-1.13741e-13,0,0,0,0,0,0,0,0,0,0,0,0,0,0,0,0,0,0,0,0,0,-0.261799,1.52832,-1.5,-nan,0,0,0,0,0
740,-3.71054e-12,0,-1.5774e-06,-3.84226e-12,0,0,-1.13742e-13,0,0,0,0,0,0,0,0,0,0,0,0,0,0,0,0,0,0,0,0,0,-0.261799,1.53009,-1.5,-nan,0,0,0,0,0
750,-3.71054e-12,0,-1.5774e-06,-3.84226e-12,0,-3.40902e-12,-1.13742e-13,0,0,0,0,0,0,0,0,0,0,0,0,0,0,0,0,0,0,0,0,0,-0.261799,1.53177,-1.5,-nan,0,0,0,0,0
760,-3.71054e-12,0,-1.5774e-06,-3.84226e-12,0,0,-1.13743e-13,0,0,0,0,0,0,0,0,0,0,0,0,0,0,0,0,0,0,0,0,0,-0.261799,1.53339,-1.5,-nan,0,0,0,0,0
770,-3.71054e-12,0,-1.5774e-06,-3.84226e-12,0,-3.40902e-12,-1.13743e-13,0,0,0,0,0,0,0,0,0,0,0,0,0,0,0,0,0,0,0,0,0,-0.261799,1.53495,-1.5,-nan,0,0,0,0,0
780,-3.71054e-12,0,-1.5774e-06,-3.84226e-12,0,0,-1.13744e-13,0,0,0,0,0,0,0,0,0,0,0,0,0,0,0,0,0,0,0,0,0,-0.261799,1.5365,-1.5,-nan,0,0,0,0,0
790,-3.71054e-12,0,-1.5774e-06,-3.84226e-12,0,-3.40902e-12,-1.13744e-13,0,0,0,0,0,0,0,0,0,0,0,0,0,0,0,0,0,0,0,0,0,-0.261799,1.53793,-1.5,-nan,0,0,0,0,0
800,-3.71054e-12,0,-1.5774e-06,-3.84226e-12,0,0,-1.13745e-13,0,0,0,0,0,0,0,0,0,0,0,0,0,0,0,0,0,0,0,0,0,-0.261799,1.53929,-1.5,-nan,0,0,0,0,0
810,-3.71054e-12,0,-1.5774e-06,-3.84226e-12,0,-3.40902e-12,-1.13745e-13,0,0,0,0,0,0,0,0,0,0,0,0,0,0,0,0,0,0,0,0,0,-0.261799,1.5406,-1.5,-nan,0,0,0,0,0
820,-3.71054e-12,0,-1.5774e-06,-3.84226e-12,0,0,-1.13746e-13,0,0,0,0,0,0,0,0,0,0,0,0,0,0,0,0,0,0,0,0,0,-0.261799,1.54185,-1.5,-nan,0,0,0,0,0
830,-3.71054e-12,0,-1.5774e-06,-3.84226e-12,0,-3.40902e-12,-1.13747e-13,0,0,0,0,0,0,0,0,0,0,0,0,0,0,0,0,0,0,0,0,0,-0.261799,1.54311,-1.5,-nan,0,0,0,0,0
840,-3.71054e-12,0,-1.5774e-06,-3.84226e-12,0,0,-1.13747e-13,0,0,0,0,0,0,0,0,0,0,0,0,0,0,0,0,0,0,0,0,0,-0.261799,1.54426,-1.5,-nan,0,0,0,0,0
850,-3.71054e-12,0,-1.5774e-06,-3.84226e-12,0,-3.40902e-12,-1.13748e-13,0,0,0,0,0,0,0,0,0,0,0,0,0,0,0,0,0,0,0,0,0,-0.261799,1.54515,-1.5,-nan,0,0,0,0,0
860,-3.71054e-12,0,-1.5774e-06,-3.84226e-12,0,0,-1.13748e-13,0,0,0,0,0,0,0,0,0,0,0,0,0,0,0,0,0,0,0,0,0,-0.261799,1.54596,-1.5,-nan,0,0,0,0,0
870,-3.71054e-12,0,-1.5774e-06,-3.84226e-12,0,-3.40902e-12,-1.13749e-13,0,0,0,0,0,0,0,0,0,0,0,0,0,0,0,0,0,0,0,0,0,-0.261799,1.54679,-1.5,-nan,0,0,0,0,0
880,-3.71054e-12,0,-1.5774e-06,-3.84226e-12,0,0,-1.13749e-13,0,0,0,0,0,0,0,0,0,0,0,0,0,0,0,0,0,0,0,0,0,-0.261799,1.54755,-1.5,-nan,0,0,0,0,0
890,-3.71054e-12,0,-1.5774e-06,-3.84226e-12,0,-3.40902e-12,-1.1375e-13,0,0,0,0,0,0,0,0,0,0,0,0,0,0,0,0,0,0,0,0,0,-0.261799,1.54852,-1.5,-nan,0,0,0,0,0
900,-3.71054e-12,0,-1.5774e-06,-3.84226e-12,0,0,-1.1375e-13,0,0,0,0,0,0,0,0,0,0,0,0,0,0,0,0,0,0,0,0,0,-0.261799,1.54944,-1.5,-nan,0,0,0,0,0
910,-3.71054e-12,0,-1.5774e-06,-3.84226e-12,0,-3.40902e-12,-1.13751e-13,0,0,0,0,0,0,0,0,0,0,0,0,0,0,0,0,0,0,0,0,0,-0.261799,1.55033,-1.5,-nan,0,0,0,0,0
920,-3.71054e-12,0,-1.5774e-06,-3.84226e-12,0,0,-1.13751e-13,0,0,0,0,0,0,0,0,0,0,0,0,0,0,0,0,0,0,0,0,0,-0.261799,1.55122,-1.5,-nan,0,0,0,0,0
930,-3.71054e-12,0,-1.5774e-06,-3.84226e-12,0,-3.40902e-12,-1.13752e-13,0,0,0,0,0,0,0,0,0,0,0,0,0,0,0,0,0,0,0,0,0,-0.261799,1.55203,-1.5,-nan,0,0,0,0,0
940,-3.71054e-12,0,-1.5774e-06,-3.84226e-12,0,0,-1.13753e-13,0,0,0,0,0,0,0,0,0,0,0,0,0,0,0,0,0,0,0,0,0,-0.261799,1.55281,-1.5,-nan,0,0,0,0,0
950,-3.71054e-12,0,-1.5774e-06,-3.84226e-12,0,-3.40902e-12,-1.13753e-13,0,0,0,0,0,0,0,0,0,0,0,0,0,0,0,0,0,0,0,0,0,-0.261799,1.55359,-1.5,-nan,0,0,0,0,0
960,-3.71054e-12,0,-1.5774e-06,-3.84226e-12,0,0,-1.13754e-13,0,0,0,0,0,0,0,0,0,0,0,0,0,0,0,0,0,0,0,0,0,-0.261799,1.55427,-1.5,-nan,0,0,0,0,0
970,-3.71054e-12,0,-1.5774e-06,-3.84226e-12,0,-3.40902e-12,-1.13754e-13,0,0,0,0,0,0,0,0,0,0,0,0,0,0,0,0,0,0,0,0,0,-0.261799,1.55492,-1.5,-nan,0,0,0,0,0
980,-3.71054e-12,0,-1.5774e-06,-3.84226e-12,0,0,-1.13755e-13,0,0,0,0,0,0,0,0,0,0,0,0,0,0,0,0,0,0,0,0,0,-0.261799,1.55558,-1.5,-nan,0,0,0,0,0
990,-3.71054e-12,0,-1.5774e-06,-3.84226e-12,0,-3.40902e-12,-1.13755e-13,0,0,0,0,0,0,0,0,0,0,0,0,0,0,0,0,0,0,0,0,0,-0.261799,1.55621,-1.5,-nan,0,0,0,0,0
1000,-3.71054e-12,0,-1.5774e-06,-3.84226e-12,0,0,-1.13756e-13,0,0,0,0,0,0,0,0,0,0,0,0,0,0,0,0,0,0,0,0,0,-0.261799,1.55682,-1.5,-nan,0,0,0,0,0
1010,-3.71054e-12,0,-1.5774e-06,-3.84226e-12,0,-3.40902e-12,-1.13756e-13,0,0,0,0,0,0,0,0,0,0,0,0,0,0,0,0,0,0,0,0,0,-0.261799,1.55742,-1.5,-nan,0,0,0,0,0
1020,-3.71054e-12,0,-1.5774e-06,-3.84226e-12,0,0,-1.13757e-13,0,0,0,0,0,0,0,0,0,0,0,0,0,0,0,0,0,0,0,0,0,-0.261799,1.55798,-1.5,-nan,0,0,0,0,0
1030,-3.71054e-12,0,-1.5774e-06,-3.84226e-12,0,-3.40902e-12,-1.13757e-13,0,0,0,0,0,0,0,0,0,0,0,0,0,0,0,0,0,0,0,0,0,-0.261799,1.55851,-1.5,-nan,0,0,0,0,0
1040,-3.71054e-12,0,-1.5774e-06,-3.84226e-12,0,0,-1.13758e-13,0,0,0,0,0,0,0,0,0,0,0,0,0,0,0,0,0,0,0,0,0,-0.261799,1.55904,-1.5,-nan,0,0,0,0,0
1050,-3.71054e-12,0,-1.5774e-06,-3.84226e-12,0,-3.40902e-12,-1.13759e-13,0,0,0,0,0,0,0,0,0,0,0,0,0,0,0,0,0,0,0,0,0,-0.261799,1.55953,-1.5,-nan,0,0,0,0,0
1060,-3.71054e-12,0,-1.5774e-06,-3.84226e-12,0,0,-1.13759e-13,0,0,0,0,0,0,0,0,0,0,0,0,0,0,0,0,0,0,0,0,0,-0.261799,1.56,-1.5,-nan,0,0,0,0,0
1070,-3.71054e-12,0,-1.5774e-06,-3.84226e-12,0,-3.40902e-12,-1.1376e-13,0,0,0,0,0,0,0,0,0,0,0,0,0,0,0,0,0,0,0,0,0,-0.261799,1.56045,-1.5,-nan,0,0,0,0,0
1080,-3.71054e-12,0,-1.5774e-06,-3.84226e-12,0,0,-1.1376e-13,0,0,0,0,0,0,0,0,0,0,0,0,0,0,0,0,0,0,0,0,0,-0.261799,1.56088,-1.5,-nan,0,0,0,0,0
1090,-3.71054e-12,0,-1.5774e-06,-3.84226e-12,0,-3.40902e-12,-1.13761e-13,0,0,0,0,0,0,0,0,0,0,0,0,0,0,0,0,0,0,0,0,0,-0.261799,1.56131,-1.5,-nan,0,0,0,0,0
1100,-3.71054e-12,0,-1.5774e-06,-3.84226e-12,0,0,-1.13761e-13,0,0,0,0,0,0,0,0,0,0,0,0,0,0,0,0,0,0,0,0,0,-0.261799,1.56168,-1.5,-nan,0,0,0,0,0
1110,-3.71054e-12,0,-1.5774e-06,-3.84226e-12,0,-3.40902e-12,-1.13762e-13,0,0,0,0,0,0,0,0,0,0,0,0,0,0,0,0,0,0,0,0,0,-0.261799,1.56208,-1.5,-nan,0,0,0,0,0
1120,-3.71054e-12,0,-1.5774e-06,-3.84226e-12,0,0,-1.13762e-13,0,0,0,0,0,0,0,0,0,0,0,0,0,0,0,0,0,0,0,0,0,-0.261799,1.56246,-1.5,-nan,0,0,0,0,0
1130,-3.71054e-12,0,-1.5774e-06,-3.84226e-12,0,-3.40902e-12,-1.13763e-13,0,0,0,0,0,0,0,0,0,0,0,0,0,0,0,0,0,0,0,0,0,-0.261799,1.5627,-1.5,-nan,0,0,0,0,0
1140,-3.71054e-12,0,-1.5774e-06,-3.84226e-12,0,0,-1.13763e-13,0,0,0,0,0,0,0,0,0,0,0,0,0,0,0,0,0,0,0,0,0,-0.261799,1.56298,-1.5,-nan,0,0,0,0,0
1150,-3.71054e-12,0,-1.5774e-06,-3.84226e-12,0,-3.40902e-12,-1.13764e-13,0,0,0,0,0,0,0,0,0,0,0,0,0,0,0,0,0,0,0,0,0,-0.261799,1.56322,-1.5,-nan,0,0,0,0,0
1160,-3.71054e-12,0,-1.5774e-06,-3.84226e-12,0,0,-1.13764e-13,0,0,0,0,0,0,0,0,0,0,0,0,0,0,0,0,0,0,0,0,0,-0.261799,1.56354,-1.5,-nan,0,0,0,0,0
1170,-3.71054e-12,0,-1.5774e-06,-3.84226e-12,0,-3.40902e-12,-1.13765e-13,0,0,0,0,0,0,0,0,0,0,0,0,0,0,0,0,0,0,0,0,0,-0.261799,1.56384,-1.5,-nan,0,0,0,0,0
1180,-3.71054e-12,0,-1.5774e-06,-3.84226e-12,0,0,-1.13766e-13,0,0,0,0,0,0,0,0,0,0,0,0,0,0,0,0,0,0,0,0,0,-0.261799,1.56413,-1.5,-nan,0,0,0,0,0
1190,-3.71054e-12,0,-1.5774e-06,-3.84226e-12,0,-3.40902e-12,-1.13766e-13,0,0,0,0,0,0,0,0,0,0,0,0,0,0,0,0,0,0,0,0,0,-0.261799,1.56442,-1.5,-nan,0,0,0,0,0
1200,-3.71054e-12,0,-1.5774e-06,-3.84226e-12,0,0,-1.13767e-13,0,0,0,0,0,0,0,0,0,0,0,0,0,0,0,0,0,0,0,0,0,-0.261799,1.56467,-1.5,-nan,0,0,0,0,0
1210,-3.71054e-12,0,-1.5774e-06,-3.84226e-12,0,-3.40902e-12,-1.13767e-13,0,0,0,0,0,0,0,0,0,0,0,0,0,0,0,0,0,0,0,0,0,-0.261799,1.56493,-1.5,-nan,0,0,0,0,0
1220,-3.71054e-12,0,-1.5774e-06,-3.84226e-12,0,0,-1.13768e-13,0,0,0,0,0,0,0,0,0,0,0,0,0,0,0,0,0,0,0,0,0,-0.261799,1.56518,-1.5,-nan,0,0,0,0,0
1230,-3.71054e-12,0,-1.5774e-06,-3.84226e-12,0,-3.40902e-12,-1.13768e-13,0,0,0,0,0,0,0,0,0,0,0,0,0,0,0,0,0,0,0,0,0,-0.261799,1.56582,-1.5,-nan,0,0,0,0,0
1240,-3.71054e-12,0,-1.5774e-06,-3.84226e-12,0,0,-1.13769e-13,0,0,0,0,0,0,0,0,0,0,0,0,0,0,0,0,0,0,0,0,0,-0.261799,1.56602,-1.5,-nan,0,0,0,0,0
1250,-3.71054e-12,0,-1.5774e-06,-3.84226e-12,0,-3.40902e-12,-1.13769e-13,0,0,0,0,0,0,0,0,0,0,0,0,0,0,0,0,0,0,0,0,0,-0.261799,1.56623,-1.5,-nan,0,0,0,0,0
1260,-3.71054e-12,0,-1.5774e-06,-3.84226e-12,0,0,-1.1377e-13,0,0,0,0,0,0,0,0,0,0,0,0,0,0,0,0,0,0,0,0,0,-0.261799,1.56642,-1.5,-nan,0,0,0,0,0
1270,-3.71054e-12,0,-1.5774e-06,-3.84226e-12,0,-3.40902e-12,-1.1377e-13,0,0,0,0,0,0,0,0,0,0,0,0,0,0,0,0,0,0,0,0,0,-0.261799,1.5666,-1.5,-nan,0,0,0,0,0
1280,-3.71054e-12,0,-1.5774e-06,-3.84226e-12,0,0,-1.13771e-13,0,0,0,0,0,0,0,0,0,0,0,0,0,0,0,0,0,0,0,0,0,-0.261799,1.56678,-1.5,-nan,0,0,0,0,0
1290,-3.71054e-12,0,-1.5774e-06,-3.84226e-12,0,-3.40902e-12,-1.13772e-13,0,0,0,0,0,0,0,0,0,0,0,0,0,0,0,0,0,0,0,0,0,-0.261799,1.56694,-1.5,-nan,0,0,0,0,0
1300,-3.71054e-12,0,-1.5774e-06,-3.84226e-12,0,0,-1.13772e-13,0,0,0,0,0,0,0,0,0,0,0,0,0,0,0,0,0,0,0,0,0,-0.261799,1.56711,-1.5,-nan,0,0,0,0,0
1310,-3.71054e-12,0,-1.5774e-06,-3.84226e-12,0,-3.40902e-12,-1.13773e-13,0,0,0,0,0,0,0,0,0,0,0,0,0,0,0,0,0,0,0,0,0,-0.261799,1.56726,-1.5,-nan,0,0,0,0,0
1320,-3.71054e-12,0,-1.5774e-06,-3.84226e-12,0,0,-1.13773e-13,0,0,0,0,0,0,0,0,0,0,0,0,0,0,0,0,0,0,0,0,0,-0.261799,1.56741,-1.5,-nan,0,0,0,0,0
1330,-3.71054e-12,0,-1.5774e-06,-3.84226e-12,0,-3.40902e-12,-1.13774e-13,0,0,0,0,0,0,0,0,0,0,0,0,0,0,0,0,0,0,0,0,0,-0.261799,1.56755,-1.5,-nan,0,0,0,0,0
1340,-3.71054e-12,0,-1.5774e-06,-3.84226e-12,0,0,-1.13774e-13,0,0,0,0,0,0,0,0,0,0,0,0,0,0,0,0,0,0,0,0,0,-0.261799,1.56768,-1.5,-nan,0,0,0,0,0
1350,-3.71054e-12,0,-1.5774e-06,-3.84226e-12,0,-3.40902e-12,-1.13775e-13,0,0,0,0,0,0,0,0,0,0,0,0,0,0,0,0,0,0,0,0,0,-0.261799,1.56782,-1.5,-nan,0,0,0,0,0
1360,-3.71054e-12,0,-1.5774e-06,-3.84226e-12,0,0,-1.13775e-13,0,0,0,0,0,0,0,0,0,0,0,0,0,0,0,0,0,0,0,0,0,-0.261799,1.56794,-1.5,-nan,0,0,0,0,0
1370,-3.71054e-12,0,-1.5774e-06,-3.84226e-12,0,-3.40902e-12,-1.13776e-13,0,0,0,0,0,0,0,0,0,0,0,0,0,0,0,0,0,0,0,0,0,-0.261799,1.56806,-1.5,-nan,0,0,0,0,0
1380,-3.71054e-12,0,-1.5774e-06,-3.84226e-12,0,0,-1.13776e-13,0,0,0,0,0,0,0,0,0,0,0,0,0,0,0,0,0,0,0,0,0,-0.261799,1.56818,-1.5,-nan,0,0,0,0,0
1390,-3.71054e-12,0,-1.5774e-06,-3.84226e-12,0,-3.40902e-12,-1.13777e-13,0,0,0,0,0,0,0,0,0,0,0,0,0,0,0,0,0,0,0,0,0,-0.261799,1.56829,-1.5,-nan,0,0,0,0,0
1400,-3.71054e-12,0,-1.5774e-06,-3.84226e-12,0,0,-1.13777e-13,0,0,0,0,0,0,0,0,0,0,0,0,0,0,0,0,0,0,0,0,0,-0.261799,1.56839,-1.5,-nan,0,0,0,0,0
1410,-3.71054e-12,0,-1.5774e-06,-3.84226e-12,0,-3.40902e-12,-1.13778e-13,0,0,0,0,0,0,0,0,0,0,0,0,0,0,0,0,0,0,0,0,0,-0.261799,1.56848,-1.5,-nan,0,0,0,0,0
1420,-3.71054e-12,0,-1.5774e-06,-3.84226e-12,0,0,-1.13779e-13,0,0,0,0,0,0,0,0,0,0,0,0,0,0,0,0,0,0,0,0,0,-0.261799,1.56855,-1.5,-nan,0,0,0,0,0
1430,-3.71054e-12,0,-1.5774e-06,-3.84226e-12,0,-3.40902e-12,-1.13779e-13,0,0,0,0,0,0,0,0,0,0,0,0,0,0,0,0,0,0,0,0,0,-0.261799,1.56862,-1.5,-nan,0,0,0,0,0
1440,-3.71054e-12,0,-1.5774e-06,-3.84226e-12,0,0,-1.1378e-13,0,0,0,0,0,0,0,0,0,0,0,0,0,0,0,0,0,0,0,0,0,-0.261799,1.56871,-1.5,-nan,0,0,0,0,0
1450,-3.71054e-12,0,-1.5774e-06,-3.84226e-12,0,-3.40902e-12,-1.13788e-13,0,0,0,0,0,0,0,0,0,0,0,0,0,0,0,0,0,0,0,0,0,-0.261799,1.5688,-1.5,-nan,0,0,0,0,0
1460,-3.71054e-12,0,-1.5774e-06,-3.84226e-12,0,0,-1.13788e-13,0,0,0,0,0,0,0,0,0,0,0,0,0,0,0,0,0,0,0,0,0,-0.261799,1.56889,-1.5,-nan,0,0,0,0,0
1470,-3.71054e-12,0,-1.5774e-06,-3.84226e-12,0,-3.40902e-12,-1.13789e-13,0,0,0,0,0,0,0,0,0,0,0,0,0,0,0,0,0,0,0,0,0,-0.261799,1.56896,-1.5,-nan,0,0,0,0,0
1480,-3.71054e-12,0,-1.5774e-06,-3.84226e-12,0,0,-1.13789e-13,0,0,0,0,0,0,0,0,0,0,0,0,0,0,0,0,0,0,0,0,0,-0.261799,1.56904,-1.5,-nan,0,0,0,0,0
1490,-3.71054e-12,0,-1.5774e-06,-3.84226e-12,0,-3.40902e-12,-1.1379e-13,0,0,0,0,0,0,0,0,0,0,0,0,0,0,0,0,0,0,0,0,0,-0.261799,1.56912,-1.5,-nan,0,0,0,0,0
1500,-3.71054e-12,0,-1.5774e-06,-3.84226e-12,0,0,-1.1379e-13,0,0,0,0,0,0,0,0,0,0,0,0,0,0,0,0,0,0,0,0,0,-0.261799,1.56919,-1.5,-nan,0,0,0,0,0
1510,-3.71054e-12,0,-1.5774e-06,-3.84226e-12,0,-3.40902e-12,-1.13791e-13,0,0,0,0,0,0,0,0,0,0,0,0,0,0,0,0,0,0,0,0,0,-0.261799,1.56925,-1.5,-nan,0,0,0,0,0
1520,-3.71054e-12,0,-1.5774e-06,-3.84226e-12,0,0,-1.13791e-13,0,0,0,0,0,0,0,0,0,0,0,0,0,0,0,0,0,0,0,0,0,-0.261799,1.56932,-1.5,-nan,0,0,0,0,0
1530,-3.71054e-12,0,-1.5774e-06,-3.84226e-12,0,-3.40902e-12,-1.13792e-13,0,0,0,0,0,0,0,0,0,0,0,0,0,0,0,0,0,0,0,0,0,-0.261799,1.56938,-1.5,-nan,0,0,0,0,0
1540,-3.71054e-12,0,-1.5774e-06,-3.84226e-12,0,0,-1.13792e-13,0,0,0,0,0,0,0,0,0,0,0,0,0,0,0,0,0,0,0,0,0,-0.261799,1.56944,-1.5,-nan,0,0,0,0,0
1550,-3.71054e-12,0,-1.5774e-06,-3.84226e-12,0,-3.40902e-12,-1.13793e-13,0,0,0,0,0,0,0,0,0,0,0,0,0,0,0,0,0,0,0,0,0,-0.261799,1.5695,-1.5,-nan,0,0,0,0,0
1560,-3.71054e-12,0,-1.5774e-06,-3.84226e-12,0,0,-1.13794e-13,0,0,0,0,0,0,0,0,0,0,0,0,0,0,0,0,0,0,0,0,0,-0.261799,1.56955,-1.5,-nan,0,0,0,0,0
1570,-3.71054e-12,0,-1.5774e-06,-3.84226e-12,0,-3.40902e-12,-1.13794e-13,0,0,0,0,0,0,0,0,0,0,0,0,0,0,0,0,0,0,0,0,0,-0.261799,1.5696,-1.5,-nan,0,0,0,0,0
1580,-3.71054e-12,0,-1.5774e-06,-3.84226e-12,0,0,-1.13795e-13,0,0,0,0,0,0,0,0,0,0,0,0,0,0,0,0,0,0,0,0,0,-0.261799,1.56965,-1.5,-nan,0,0,0,0,0
1590,-3.71054e-12,0,-1.5774e-06,-3.84226e-12,0,-3.40902e-12,-1.13795e-13,0,0,0,0,0,0,0,0,0,0,0,0,0,0,0,0,0,0,0,0,0,-0.261799,1.5697,-1.5,-nan,0,0,0,0,0
1600,-3.71054e-12,0,-1.5774e-06,-3.84226e-12,0,0,-1.13796e-13,0,0,0,0,0,0,0,0,0,0,0,0,0,0,0,0,0,0,0,0,0,-0.261799,1.56975,-1.5,-nan,0,0,0,0,0
1610,-3.71054e-12,0,-1.5774e-06,-3.84226e-12,0,-3.40902e-12,-1.13796e-13,0,0,0,0,0,0,0,0,0,0,0,0,0,0,0,0,0,0,0,0,0,-0.261799,1.56979,-1.5,-nan,0,0,0,0,0
1620,-3.71054e-12,0,-1.5774e-06,-3.84226e-12,0,0,-1.13797e-13,0,0,0,0,0,0,0,0,0,0,0,0,0,0,0,0,0,0,0,0,0,-0.261799,1.56983,-1.5,-nan,0,0,0,0,0
1630,-3.71054e-12,0,-1.5774e-06,-3.84226e-12,0,-3.40902e-12,-1.13797e-13,0,0,0,0,0,0,0,0,0,0,0,0,0,0,0,0,0,0,0,0,0,-0.261799,1.56987,-1.5,-nan,0,0,0,0,0
1640,-3.71054e-12,0,-1.5774e-06,-3.84226e-12,0,0,-1.13798e-13,0,0,0,0,0,0,0,0,0,0,0,0,0,0,0,0,0,0,0,0,0,-0.261799,1.56991,-1.5,-nan,0,0,0,0,0
1650,-3.71054e-12,0,-1.5774e-06,-3.84226e-12,0,-3.40902e-12,-1.13798e-13,0,0,0,0,0,0,0,0,0,0,0,0,0,0,0,0,0,0,0,0,0,-0.261799,1.56995,-1.5,-nan,0,0,0,0,0
1660,-3.71054e-12,0,-1.5774e-06,-3.84226e-12,0,0,-1.13799e-13,0,0,0,0,0,0,0,0,0,0,0,0,0,0,0,0,0,0,0,0,0,-0.261799,1.56998,-1.5,-nan,0,0,0,0,0
1670,-3.71054e-12,0,-1.5774e-06,-3.84226e-12,0,-3.40902e-12,-1.13799e-13,0,0,0,0,0,0,0,0,0,0,0,0,0,0,0,0,0,0,0,0,0,-0.261799,1.57002,-1.5,-nan,0,0,0,0,0
1680,-3.71054e-12,0,-1.5774e-06,-3.84226e-12,0,0,-1.138e-13,0,0,0,0,0,0,0,0,0,0,0,0,0,0,0,0,0,0,0,0,0,-0.261799,1.57005,-1.5,-nan,0,0,0,0,0
1690,-3.71054e-12,0,-1.5774e-06,-3.84226e-12,0,-3.40902e-12,-1.13801e-13,0,0,0,0,0,0,0,0,0,0,0,0,0,0,0,0,0,0,0,0,0,-0.261799,1.57008,-1.5,-nan,0,0,0,0,0
1700,-3.71054e-12,0,-1.5774e-06,-3.84226e-12,0,0,-1.13801e-13,0,0,0,0,0,0,0,0,0,0,0,0,0,0,0,0,0,0,0,0,0,-0.261799,1.5701,-1.5,-nan,0,0,0,0,0
1710,-3.71054e-12,0,-1.5774e-06,-3.84226e-12,0,-3.40902e-12,-1.13802e-13,0,0,0,0,0,0,0,0,0,0,0,0,0,0,0,0,0,0,0,0,0,-0.261799,1.57012,-1.5,-nan,0,0,0,0,0
1720,-3.71054e-12,0,-1.5774e-06,-3.84226e-12,0,0,-1.13802e-13,0,0,0,0,0,0,0,0,0,0,0,0,0,0,0,0,0,0,0,0,0,-0.261799,1.57015,-1.5,-nan,0,0,0,0,0
1730,-3.71054e-12,0,-1.5774e-06,-3.84226e-12,0,-3.40902e-12,-1.13803e-13,0,0,0,0,0,0,0,0,0,0,0,0,0,0,0,0,0,0,0,0,0,-0.261799,1.57018,-1.5,-nan,0,0,0,0,0
1740,-3.71054e-12,0,-1.5774e-06,-3.84226e-12,0,0,-1.13803e-13,0,0,0,0,0,0,0,0,0,0,0,0,0,0,0,0,0,0,0,0,0,-0.261799,1.5702,-1.5,-nan,0,0,0,0,0
1750,-3.71054e-12,0,-1.5774e-06,-3.84226e-12,0,-3.40902e-12,-1.13804e-13,0,0,0,0,0,0,0,0,0,0,0,0,0,0,0,0,0,0,0,0,0,-0.261799,1.57023,-1.5,-nan,0,0,0,0,0
1760,-3.71054e-12,0,-1.5774e-06,-3.84226e-12,0,0,-1.13804e-13,0,0,0,0,0,0,0,0,0,0,0,0,0,0,0,0,0,0,0,0,0,-0.261799,1.57025,-1.5,-nan,0,0,0,0,0
1770,-3.71054e-12,0,-1.5774e-06,-3.84226e-12,0,-3.40902e-12,-1.13805e-13,0,0,0,0,0,0,0,0,0,0,0,0,0,0,0,0,0,0,0,0,0,-0.261799,1.57028,-1.5,-nan,0,0,0,0,0
1780,-3.71054e-12,0,-1.5774e-06,-3.84226e-12,0,0,-1.13805e-13,0,0,0,0,0,0,0,0,0,0,0,0,0,0,0,0,0,0,0,0,0,-0.261799,1.5703,-1.5,-nan,0,0,0,0,0
1790,-3.71054e-12,0,-1.5774e-06,-3.84226e-12,0,-3.40902e-12,-1.13806e-13,0,0,0,0,0,0,0,0,0,0,0,0,0,0,0,0,0,0,0,0,0,-0.261799,1.57032,-1.5,-nan,0,0,0,0,0
1800,-3.71054e-12,0,-1.5774e-06,-3.84226e-12,0,0,-1.13807e-13,0,0,0,0,0,0,0,0,0,0,0,0,0,0,0,0,0,0,0,0,0,-0.261799,1.57035,-1.5,-nan,0,0,0,0,0
1810,-3.71054e-12,0,-1.5774e-06,-3.84226e-12,0,-3.40902e-12,-1.13807e-13,0,0,0,0,0,0,0,0,0,0,0,0,0,0,0,0,0,0,0,0,0,-0.261799,1.57037,-1.5,-nan,0,0,0,0,0
1820,-3.71054e-12,0,-1.5774e-06,-3.84226e-12,0,0,-1.13808e-13,0,0,0,0,0,0,0,0,0,0,0,0,0,0,0,0,0,0,0,0,0,-0.261799,1.57039,-1.5,-nan,0,0,0,0,0
1830,-3.71054e-12,0,-1.5774e-06,-3.84226e-12,0,-3.40902e-12,-1.13808e-13,0,0,0,0,0,0,0,0,0,0,0,0,0,0,0,0,0,0,0,0,0,-0.261799,1.57041,-1.5,-nan,0,0,0,0,0
1840,-3.71054e-12,0,-1.5774e-06,-3.84226e-12,0,0,-1.13809e-13,0,0,0,0,0,0,0,0,0,0,0,0,0,0,0,0,0,0,0,0,0,-0.261799,1.57042,-1.5,-nan,0,0,0,0,0
1850,-3.71054e-12,0,-1.5774e-06,-3.84226e-12,0,-3.40902e-12,-1.13809e-13,0,0,0,0,0,0,0,0,0,0,0,0,0,0,0,0,0,0,0,0,0,-0.261799,1.57044,-1.5,-nan,0,0,0,0,0
1860,-3.71054e-12,0,-1.5774e-06,-3.84226e-12,0,0,-1.1381e-13,0,0,0,0,0,0,0,0,0,0,0,0,0,0,0,0,0,0,0,0,0,-0.261799,1.57046,-1.5,-nan,0,0,0,0,0
1870,-3.71054e-12,0,-1.5774e-06,-3.84226e-12,0,-3.40902e-12,-1.1381e-13,0,0,0,0,0,0,0,0,0,0,0,0,0,0,0,0,0,0,0,0,0,-0.261799,1.57047,-1.5,-nan,0,0,0,0,0
1880,-3.71054e-12,0,-1.5774e-06,-3.84226e-12,0,0,-1.13811e-13,0,0,0,0,0,0,0,0,0,0,0,0,0,0,0,0,0,0,0,0,0,-0.261799,1.57048,-1.5,-nan,0,0,0,0,0
1890,-3.71054e-12,0,-1.5774e-06,-3.84226e-12,0,-3.40902e-12,-1.13811e-13,0,0,0,0,0,0,0,0,0,0,0,0,0,0,0,0,0,0,0,0,0,-0.261799,1.5705,-1.5,-nan,0,0,0,0,0
1900,-3.71054e-12,0,-1.5774e-06,-3.84226e-12,0,0,-1.13812e-13,0,0,0,0,0,0,0,0,0,0,0,0,0,0,0,0,0,0,0,0,0,-0.261799,1.57051,-1.5,-nan,0,0,0,0,0
1910,-3.71054e-12,0,-1.5774e-06,-3.84226e-12,0,-3.40902e-12,-1.13812e-13,0,0,0,0,0,0,0,0,0,0,0,0,0,0,0,0,0,0,0,0,0,-0.261799,1.57052,-1.5,-nan,0,0,0,0,0
1920,-3.71054e-12,0,-1.5774e-06,-3.84226e-12,0,0,-1.13813e-13,0,0,0,0,0,0,0,0,0,0,0,0,0,0,0,0,0,0,0,0,0,-0.261799,1.57053,-1.5,-nan,0,0,0,0,0
1930,-3.71054e-12,0,-1.5774e-06,-3.84226e-12,0,-3.40902e-12,-1.13814e-13,0,0,0,0,0,0,0,0,0,0,0,0,0,0,0,0,0,0,0,0,0,-0.261799,1.57054,-1.5,-nan,0,0,0,0,0
1940,-3.71054e-12,0,-1.5774e-06,-3.84226e-12,0,0,-1.13814e-13,0,0,0,0,0,0,0,0,0,0,0,0,0,0,0,0,0,0,0,0,0,-0.261799,1.57055,-1.5,-nan,0,0,0,0,0
1950,-3.71054e-12,0,-1.5774e-06,-3.84226e-12,0,-3.40902e-12,-1.13815e-13,0,0,0,0,0,0,0,0,0,0,0,0,0,0,0,0,0,0,0,0,0,-0.261799,1.57057,-1.5,-nan,0,0,0,0,0
1960,-3.71054e-12,0,-1.5774e-06,-3.84226e-12,0,0,-1.13815e-13,0,0,0,0,0,0,0,0,0,0,0,0,0,0,0,0,0,0,0,0,0,-0.261799,1.57057,-1.5,-nan,0,0,0,0,0
1970,-3.71054e-12,0,-1.5774e-06,-3.84226e-12,0,-3.40902e-12,-1.13816e-13,0,0,0,0,0,0,0,0,0,0,0,0,0,0,0,0,0,0,0,0,0,-0.261799,1.57058,-1.5,-nan,0,0,0,0,0
1980,-3.71054e-12,0,-1.5774e-06,-3.84226e-12,0,0,-1.13816e-13,0,0,0,0,0,0,0,0,0,0,0,0,0,0,0,0,0,0,0,0,0,-0.261799,1.57059,-1.5,-nan,0,0,0,0,0
1990,-3.71054e-12,0,-1.5774e-06,-3.84226e-12,0,-3.40902e-12,-1.13817e-13,0,0,0,0,0,0,0,0,0,0,0,0,0,0,0,0,0,0,0,0,0,-0.261799,1.57059,-1.5,-nan,0,0,0,0,0
2000,-3.71054e-12,0,-1.5774e-06,-3.84226e-12,0,0,-1.13817e-13,0,0,0,0,0,0,0,0,0,0,0,0,0,0,0,0,0,0,0,0,0,-0.261799,1.5706,-1.5,-nan,0,0,0,0,0
2010,-3.71054e-12,0,-1.5774e-06,-3.84226e-12,0,-3.40902e-12,-1.13818e-13,0,0,0,0,0,0,0,0,0,0,0,0,0,0,0,0,0,0,0,0,0,-0.261799,1.57061,-1.5,-nan,0,0,0,0,0
2020,-3.71054e-12,0,-1.5774e-06,-3.84226e-12,0,0,-1.13818e-13,0,0,0,0,0,0,0,0,0,0,0,0,0,0,0,0,0,0,0,0,0,-0.261799,1.57062,-1.5,-nan,0,0,0,0,0
2030,-3.71054e-12,0,-1.5774e-06,-3.84226e-12,0,-3.40902e-12,-1.13819e-13,0,0,0,0,0,0,0,0,0,0,0,0,0,0,0,0,0,0,0,0,0,-0.261799,1.57063,-1.5,-nan,0,0,0,0,0
2040,-3.71054e-12,0,-1.5774e-06,-3.84226e-12,0,0,-1.1382e-13,0,0,0,0,0,0,0,0,0,0,0,0,0,0,0,0,0,0,0,0,0,-0.261799,1.57063,-1.5,-nan,0,0,0,0,0
2050,-3.71054e-12,0,-1.5774e-06,-3.84226e-12,0,-3.40902e-12,-1.1382e-13,0,0,0,0,0,0,0,0,0,0,0,0,0,0,0,0,0,0,0,0,0,-0.261799,1.57064,-1.5,-nan,0,0,0,0,0
2060,-3.71054e-12,0,-1.5774e-06,-3.84226e-12,0,0,-1.13821e-13,0,0,0,0,0,0,0,0,0,0,0,0,0,0,0,0,0,0,0,0,0,-0.261799,1.57065,-1.5,-nan,0,0,0,0,0
2070,-3.71054e-12,0,-1.5774e-06,-3.84226e-12,0,-3.40902e-12,-1.13821e-13,0,0,0,0,0,0,0,0,0,0,0,0,0,0,0,0,0,0,0,0,0,-0.261799,1.57065,-1.5,-nan,0,0,0,0,0
2080,-3.71054e-12,0,-1.5774e-06,-3.84226e-12,0,0,-1.13822e-13,0,0,0,0,0,0,0,0,0,0,0,0,0,0,0,0,0,0,0,0,0,-0.261799,1.57066,-1.5,-nan,0,0,0,0,0
2090,-3.71054e-12,0,-1.5774e-06,-3.84226e-12,0,-3.40902e-12,-1.13822e-13,0,0,0,0,0,0,0,0,0,0,0,0,0,0,0,0,0,0,0,0,0,-0.261799,1.57066,-1.5,-nan,0,0,0,0,0
2100,-3.71054e-12,0,-1.5774e-06,-3.84226e-12,0,0,-1.13823e-13,0,0,0,0,0,0,0,0,0,0,0,0,0,0,0,0,0,0,0,0,0,-0.261799,1.57067,-1.5,-nan,0,0,0,0,0
2110,-3.71054e-12,0,-1.5774e-06,-3.84226e-12,0,-3.40902e-12,-1.13823e-13,0,0,0,0,0,0,0,0,0,0,0,0,0,0,0,0,0,0,0,0,0,-0.261799,1.57067,-1.5,-nan,0,0,0,0,0
2120,-3.71054e-12,0,-1.5774e-06,-3.84226e-12,0,0,-1.13824e-13,0,0,0,0,0,0,0,0,0,0,0,0,0,0,0,0,0,0,0,0,0,-0.261799,1.57068,-1.5,-nan,0,0,0,0,0
2130,-3.71054e-12,0,-1.5774e-06,-3.84226e-12,0,-3.40902e-12,-1.13824e-13,0,0,0,0,0,0,0,0,0,0,0,0,0,0,0,0,0,0,0,0,0,-0.261799,1.57068,-1.5,-nan,0,0,0,0,0
2140,-3.71054e-12,0,-1.5774e-06,-3.84226e-12,0,0,-1.13825e-13,0,0,0,0,0,0,0,0,0,0,0,0,0,0,0,0,0,0,0,0,0,-0.261799,1.57069,-1.5,-nan,0,0,0,0,0
2150,-3.71054e-12,0,-1.5774e-06,-3.84226e-12,0,-3.40902e-12,-1.13826e-13,0,0,0,0,0,0,0,0,0,0,0,0,0,0,0,0,0,0,0,0,0,-0.261799,1.57069,-1.5,-nan,0,0,0,0,0
2160,-3.71054e-12,0,-1.5774e-06,-3.84226e-12,0,0,-1.13826e-13,0,0,0,0,0,0,0,0,0,0,0,0,0,0,0,0,0,0,0,0,0,-0.261799,1.5707,-1.5,-nan,0,0,0,0,0
2170,-3.71054e-12,0,-1.5774e-06,-3.84226e-12,0,-3.40902e-12,-1.13827e-13,0,0,0,0,0,0,0,0,0,0,0,0,0,0,0,0,0,0,0,0,0,-0.261799,1.5707,-1.5,-nan,0,0,0,0,0
2180,-3.71054e-12,0,-1.5774e-06,-3.84226e-12,0,0,-1.13827e-13,0,0,0,0,0,0,0,0,0,0,0,0,0,0,0,0,0,0,0,0,0,-0.261799,1.57071,-1.5,-nan,0,0,0,0,0
2190,-3.71054e-12,0,-1.5774e-06,-3.84226e-12,0,-3.40902e-12,-1.13828e-13,0,0,0,0,0,0,0,0,0,0,0,0,0,0,0,0,0,0,0,0,0,-0.261799,1.57071,-1.5,-nan,0,0,0,0,0
2200,-3.71054e-12,0,-1.5774e-06,-3.84226e-12,0,0,-1.13828e-13,0,0,0,0,0,0,0,0,0,0,0,0,0,0,0,0,0,0,0,0,0,-0.261799,1.57071,-1.5,-nan,0,0,0,0,0
2210,-3.71054e-12,0,-1.5774e-06,-3.84226e-12,0,-3.40902e-12,-1.13829e-13,0,0,0,0,0,0,0,0,0,0,0,0,0,0,0,0,0,0,0,0,0,-0.261799,1.57072,-1.5,-nan,0,0,0,0,0
2220,-3.71054e-12,0,-1.5774e-06,-3.84226e-12,0,0,-1.13829e-13,0,0,0,0,0,0,0,0,0,0,0,0,0,0,0,0,0,0,0,0,0,-0.261799,1.57072,-1.5,-nan,0,0,0,0,0
2230,-3.71054e-12,0,-1.5774e-06,-3.84226e-12,0,-3.40902e-12,-1.1383e-13,0,0,0,0,0,0,0,0,0,0,0,0,0,0,0,0,0,0,0,0,0,-0.261799,1.57072,-1.5,-nan,0,0,0,0,0
2240,-3.71054e-12,0,-1.5774e-06,-3.84226e-12,0,0,-1.1383e-13,0,0,0,0,0,0,0,0,0,0,0,0,0,0,0,0,0,0,0,0,0,-0.261799,1.57073,-1.5,-nan,0,0,0,0,0
2250,-3.71054e-12,0,-1.5774e-06,-3.84226e-12,0,-3.40902e-12,-1.13831e-13,0,0,0,0,0,0,0,0,0,0,0,0,0,0,0,0,0,0,0,0,0,-0.261799,1.57073,-1.5,-nan,0,0,0,0,0
2260,-3.71054e-12,0,-1.5774e-06,-3.84226e-12,0,0,-1.13831e-13,0,0,0,0,0,0,0,0,0,0,0,0,0,0,0,0,0,0,0,0,0,-0.261799,1.57073,-1.5,-nan,0,0,0,0,0
2270,-3.71054e-12,0,-1.5774e-06,-3.84226e-12,0,-3.40902e-12,-1.13832e-13,0,0,0,0,0,0,0,0,0,0,0,0,0,0,0,0,0,0,0,0,0,-0.261799,1.57073,-1.5,-nan,0,0,0,0,0
2280,-3.71054e-12,0,-1.5774e-06,-3.84226e-12,0,0,-1.13833e-13,0,0,0,0,0,0,0,0,0,0,0,0,0,0,0,0,0,0,0,0,0,-0.261799,1.57073,-1.5,-nan,0,0,0,0,0
2290,-3.71054e-12,0,-1.5774e-06,-3.84226e-12,0,-3.40902e-12,-1.13833e-13,0,0,0,0,0,0,0,0,0,0,0,0,0,0,0,0,0,0,0,0,0,-0.261799,1.57074,-1.5,-nan,0,0,0,0,0
2300,-3.71054e-12,0,-1.5774e-06,-3.84226e-12,0,0,-1.13834e-13,0,0,0,0,0,0,0,0,0,0,0,0,0,0,0,0,0,0,0,0,0,-0.261799,1.57074,-1.5,-nan,0,0,0,0,0
2310,-3.71054e-12,0,-1.5774e-06,-3.84226e-12,0,-3.40902e-12,-1.13834e-13,0,0,0,0,0,0,0,0,0,0,0,0,0,0,0,0,0,0,0,0,0,-0.261799,1.57074,-1.5,-nan,0,0,0,0,0
2320,-3.71054e-12,0,-1.5774e-06,-3.84226e-12,0,0,-1.13835e-13,0,0,0,0,0,0,0,0,0,0,0,0,0,0,0,0,0,0,0,0,0,-0.261799,1.57074,-1.5,-nan,0,0,0,0,0
2330,-3.71054e-12,0,-1.5774e-06,-3.84226e-12,0,-3.40902e-12,-1.13835e-13,0,0,0,0,0,0,0,0,0,0,0,0,0,0,0,0,0,0,0,0,0,-0.261799,1.57075,-1.5,-nan,0,0,0,0,0
2340,-3.71054e-12,0,-1.5774e-06,-3.84226e-12,0,0,-1.13836e-13,0,0,0,0,0,0,0,0,0,0,0,0,0,0,0,0,0,0,0,0,0,-0.261799,1.57075,-1.5,-nan,0,0,0,0,0
2350,-3.71054e-12,0,-1.5774e-06,-3.84226e-12,0,-3.40902e-12,-1.13836e-13,0,0,0,0,0,0,0,0,0,0,0,0,0,0,0,0,0,0,0,0,0,-0.261799,1.57075,-1.5,-nan,0,0,0,0,0
2360,-3.71054e-12,0,-1.5774e-06,-3.84226e-12,0,0,-1.13837e-13,0,0,0,0,0,0,0,0,0,0,0,0,0,0,0,0,0,0,0,0,0,-0.261799,1.57075,-1.5,-nan,0,0,0,0,0
2370,-3.71054e-12,0,-1.5774e-06,-3.84226e-12,0,-3.40902e-12,-1.13837e-13,0,0,0,0,0,0,0,0,0,0,0,0,0,0,0,0,0,0,0,0,0,-0.261799,1.57075,-1.5,-nan,0,0,0,0,0
2380,-3.71054e-12,0,-1.5774e-06,-3.84226e-12,0,0,-1.13838e-13,0,0,0,0,0,0,0,0,0,0,0,0,0,0,0,0,0,0,0,0,0,-0.261799,1.57076,-1.5,-nan,0,0,0,0,0
2390,-3.71054e-12,0,-1.5774e-06,-3.84226e-12,0,-3.40902e-12,-1.13839e-13,0,0,0,0,0,0,0,0,0,0,0,0,0,0,0,0,0,0,0,0,0,-0.261799,1.57076,-1.5,-nan,0,0,0,0,0
2400,-3.71054e-12,0,-1.5774e-06,-3.84226e-12,0,0,-1.13839e-13,0,0,0,0,0,0,0,0,0,0,0,0,0,0,0,0,0,0,0,0,0,-0.261799,1.57076,-1.5,-nan,0,0,0,0,0
2410,-3.71054e-12,0,-1.5774e-06,-3.84226e-12,0,-3.40902e-12,-1.1384e-13,0,0,0,0,0,0,0,0,0,0,0,0,0,0,0,0,0,0,0,0,0,-0.261799,1.57076,-1.5,-nan,0,0,0,0,0
2420,-3.71054e-12,0,-1.5774e-06,-3.84226e-12,0,0,-1.1384e-13,0,0,0,0,0,0,0,0,0,0,0,0,0,0,0,0,0,0,0,0,0,-0.261799,1.57077,-1.5,-nan,0,0,0,0,0
2430,-3.71054e-12,0,-1.5774e-06,-3.84226e-12,0,-3.40902e-12,-1.13841e-13,0,0,0,0,0,0,0,0,0,0,0,0,0,0,0,0,0,0,0,0,0,-0.261799,1.57077,-1.5,-nan,0,0,0,0,0
2440,-3.71054e-12,0,-1.5774e-06,-3.84226e-12,0,0,-1.13841e-13,0,0,0,0,0,0,0,0,0,0,0,0,0,0,0,0,0,0,0,0,0,-0.261799,1.57077,-1.5,-nan,0,0,0,0,0
2450,-3.71054e-12,0,-1.5774e-06,-3.84226e-12,0,-3.40902e-12,-1.13842e-13,0,0,0,0,0,0,0,0,0,0,0,0,0,0,0,0,0,0,0,0,0,-0.261799,1.57077,-1.5,-nan,0,0,0,0,0
2460,-3.71054e-12,0,-1.5774e-06,-3.84226e-12,0,0,-1.13842e-13,0,0,0,0,0,0,0,0,0,0,0,0,0,0,0,0,0,0,0,0,0,-0.261799,1.57077,-1.5,-nan,0,0,0,0,0
2470,-3.71054e-12,0,-1.5774e-06,-3.84226e-12,0,-3.40902e-12,-1.13843e-13,0,0,0,0,0,0,0,0,0,0,0,0,0,0,0,0,0,0,0,0,0,-0.261799,1.57077,-1.5,-nan,0,0,0,0,0
2480,-3.71054e-12,0,-1.5774e-06,-3.84226e-12,0,0,-1.13843e-13,0,0,0,0,0,0,0,0,0,0,0,0,0,0,0,0,0,0,0,0,0,-0.261799,1.57077,-1.5,-nan,0,0,0,0,0
2490,-3.71054e-12,0,-1.5774e-06,-3.84226e-12,0,-3.40902e-12,-1.13844e-13,0,0,0,0,0,0,0,0,0,0,0,0,0,0,0,0,0,0,0,0,0,-0.261799,1.57077,-1.5,-nan,0,0,0,0,0
2500,-3.71054e-12,0,-1.5774e-06,-3.84226e-12,0,0,-1.13844e-13,0,0,0,0,0,0,0,0,0,0,0,0,0,0,0,0,0,0,0,0,0,-0.261799,1.57077,-1.5,-nan,0,0,0,0,0
2510,-3.71054e-12,0,-1.5774e-06,-3.84226e-12,0,-3.40902e-12,-1.13845e-13,0,0,0,0,0,0,0,0,0,0,0,0,0,0,0,0,0,0,0,0,0,-0.261799,1.57078,-1.5,-nan,0,0,0,0,0
2520,-3.71054e-12,0,-1.5774e-06,-3.84226e-12,0,0,-1.13846e-13,0,0,0,0,0,0,0,0,0,0,0,0,0,0,0,0,0,0,0,0,0,-0.261799,1.57078,-1.5,-nan,0,0,0,0,0
2530,-3.71054e-12,0,-1.5774e-06,-3.84226e-12,0,-3.40902e-12,-1.13846e-13,0,0,0,0,0,0,0,0,0,0,0,0,0,0,0,0,0,0,0,0,0,-0.261799,1.57078,-1.5,-nan,0,0,0,0,0
2540,-3.71054e-12,0,-1.5774e-06,-3.84226e-12,0,0,-1.13847e-13,0,0,0,0,0,0,0,0,0,0,0,0,0,0,0,0,0,0,0,0,0,-0.261799,1.57078,-1.5,-nan,0,0,0,0,0
2550,-3.71054e-12,0,-1.5774e-06,-3.84226e-12,0,-3.40902e-12,-1.13847e-13,0,0,0,0,0,0,0,0,0,0,0,0,0,0,0,0,0,0,0,0,0,-0.261799,1.57078,-1.5,-nan,0,0,0,0,0
2560,-3.71054e-12,0,-1.5774e-06,-3.84226e-12,0,0,-1.13848e-13,0,0,0,0,0,0,0,0,0,0,0,0,0,0,0,0,0,0,0,0,0,-0.261799,1.57078,-1.5,-nan,0,0,0,0,0
2570,-3.71054e-12,0,-1.5774e-06,-3.84226e-12,0,-3.40902e-12,-1.13848e-13,0,0,0,0,0,0,0,0,0,0,0,0,0,0,0,0,0,0,0,0,0,-0.261799,1.57078,-1.5,-nan,0,0,0,0,0
2580,-3.71054e-12,0,-1.5774e-06,-3.84226e-12,0,0,-1.13849e-13,0,0,0,0,0,0,0,0,0,0,0,0,0,0,0,0,0,0,0,0,0,-0.261799,1.57078,-1.5,-nan,0,0,0,0,0
2590,-3.71054e-12,0,-1.5774e-06,-3.84226e-12,0,-3.40902e-12,-1.13849e-13,0,0,0,0,0,0,0,0,0,0,0,0,0,0,0,0,0,0,0,0,0,-0.261799,1.57078,-1.5,-nan,0,0,0,0,0
2600,-3.71054e-12,0,-1.5774e-06,-3.84226e-12,0,0,-1.1385e-13,0,0,0,0,0,0,0,0,0,0,0,0,0,0,0,0,0,0,0,0,0,-0.261799,1.57078,-1.5,-nan,0,0,0,0,0
2610,-3.71054e-12,0,-1.5774e-06,-3.84226e-12,0,-3.40902e-12,-1.1385e-13,0,0,0,0,0,0,0,0,0,0,0,0,0,0,0,0,0,0,0,0,0,-0.261799,1.57078,-1.5,-nan,0,0,0,0,0
2620,-3.71054e-12,0,-1.5774e-06,-3.84226e-12,0,0,-1.13851e-13,0,0,0,0,0,0,0,0,0,0,0,0,0,0,0,0,0,0,0,0,0,-0.261799,1.57078,-1.5,-nan,0,0,0,0,0
2630,-3.71054e-12,0,-1.5774e-06,-3.84226e-12,0,-3.40902e-12,-1.13852e-13,0,0,0,0,0,0,0,0,0,0,0,0,0,0,0,0,0,0,0,0,0,-0.261799,1.57078,-1.5,-nan,0,0,0,0,0
2640,-3.71054e-12,0,-1.5774e-06,-3.84226e-12,0,0,-1.13852e-13,0,0,0,0,0,0,0,0,0,0,0,0,0,0,0,0,0,0,0,0,0,-0.261799,1.57078,-1.5,-nan,0,0,0,0,0
2650,-3.71054e-12,0,-1.5774e-06,-3.84226e-12,0,-3.40902e-12,-1.13853e-13,0,0,0,0,0,0,0,0,0,0,0,0,0,0,0,0,0,0,0,0,0,-0.261799,1.57078,-1.5,-nan,0,0,0,0,0
2660,-3.71054e-12,0,-1.5774e-06,-3.84226e-12,0,0,-1.13853e-13,0,0,0,0,0,0,0,0,0,0,0,0,0,0,0,0,0,0,0,0,0,-0.261799,1.57078,-1.5,-nan,0,0,0,0,0
2670,-3.71054e-12,0,-1.5774e-06,-3.84226e-12,0,-3.40902e-12,-1.13854e-13,0,0,0,0,0,0,0,0,0,0,0,0,0,0,0,0,0,0,0,0,0,-0.261799,1.57078,-1.5,-nan,0,0,0,0,0
2680,-3.71054e-12,0,-1.5774e-06,-3.84226e-12,0,0,-1.13854e-13,0,0,0,0,0,0,0,0,0,0,0,0,0,0,0,0,0,0,0,0,0,-0.261799,1.57078,-1.5,-nan,0,0,0,0,0
2690,-3.71054e-12,0,-1.5774e-06,-3.84226e-12,0,-3.40902e-12,-1.13855e-13,0,0,0,0,0,0,0,0,0,0,0,0,0,0,0,0,0,0,0,0,0,-0.261799,1.57078,-1.5,-nan,0,0,0,0,0
2700,-3.71054e-12,0,-1.5774e-06,-3.84226e-12,0,0,-1.13855e-13,0,0,0,0,0,0,0,0,0,0,0,0,0,0,0,0,0,0,0,0,0,-0.261799,1.57079,-1.5,-nan,0,0,0,0,0
2710,-3.71054e-12,0,-1.5774e-06,-3.84226e-12,0,-3.40902e-12,-1.13856e-13,0,0,0,0,0,0,0,0,0,0,0,0,0,0,0,0,0,0,0,0,0,-0.261799,1.57079,-1.5,-nan,0,0,0,0,0
2720,-3.71054e-12,0,-1.5774e-06,-3.84226e-12,0,0,-1.13856e-13,0,0,0,0,0,0,0,0,0,0,0,0,0,0,0,0,0,0,0,0,0,-0.261799,1.57079,-1.5,-nan,0,0,0,0,0
2730,-3.71054e-12,0,-1.5774e-06,-3.84226e-12,0,-3.40902e-12,-1.13857e-13,0,0,0,0,0,0,0,0,0,0,0,0,0,0,0,0,0,0,0,0,0,-0.261799,1.57079,-1.5,-nan,0,0,0,0,0
2740,-3.71054e-12,0,-1.5774e-06,-3.84226e-12,0,0,-1.13857e-13,0,0,0,0,0,0,0,0,0,0,0,0,0,0,0,0,0,0,0,0,0,-0.261799,1.57079,-1.5,-nan,0,0,0,0,0
2750,-3.71054e-12,0,-1.5774e-06,-3.84226e-12,0,-3.40902e-12,-1.13858e-13,0,0,0,0,0,0,0,0,0,0,0,0,0,0,0,0,0,0,0,0,0,-0.261799,1.57079,-1.5,-nan,0,0,0,0,0
2760,-3.71054e-12,0,-1.5774e-06,-3.84226e-12,0,0,-1.13859e-13,0,0,0,0,0,0,0,0,0,0,0,0,0,0,0,0,0,0,0,0,0,-0.261799,1.57079,-1.5,-nan,0,0,0,0,0
2770,-3.71054e-12,0,-1.5774e-06,-3.84226e-12,0,-3.40902e-12,-1.13859e-13,0,0,0,0,0,0,0,0,0,0,0,0,0,0,0,0,0,0,0,0,0,-0.261799,1.57079,-1.5,-nan,0,0,0,0,0
2780,-3.71054e-12,0,-1.5774e-06,-3.84226e-12,0,0,-1.1386e-13,0,0,0,0,0,0,0,0,0,0,0,0,0,0,0,0,0,0,0,0,0,-0.261799,1.57079,-1.5,-nan,0,0,0,0,0
2790,-3.71054e-12,0,-1.5774e-06,-3.84226e-12,0,-3.40902e-12,-1.1386e-13,0,0,0,0,0,0,0,0,0,0,0,0,0,0,0,0,0,0,0,0,0,-0.261799,1.57079,-1.5,-nan,0,0,0,0,0
2800,-3.71054e-12,0,-1.5774e-06,-3.84226e-12,0,0,-1.13861e-13,0,0,0,0,0,0,0,0,0,0,0,0,0,0,0,0,0,0,0,0,0,-0.261799,1.57079,-1.5,-nan,0,0,0,0,0
2810,-3.71054e-12,0,-1.5774e-06,-3.84226e-12,0,-3.40902e-12,-1.13861e-13,0,0,0,0,0,0,0,0,0,0,0,0,0,0,0,0,0,0,0,0,0,-0.261799,1.57079,-1.5,-nan,0,0,0,0,0
2820,-3.71054e-12,0,-1.5774e-06,-3.84226e-12,0,0,-1.13862e-13,0,0,0,0,0,0,0,0,0,0,0,0,0,0,0,0,0,0,0,0,0,-0.261799,1.57079,-1.5,-nan,0,0,0,0,0
2830,-3.71054e-12,0,-1.5774e-06,-3.84226e-12,0,-3.40902e-12,-1.13862e-13,0,0,0,0,0,0,0,0,0,0,0,0,0,0,0,0,0,0,0,0,0,-0.261799,1.57079,-1.5,-nan,0,0,0,0,0
2840,-3.71054e-12,0,-1.5774e-06,-3.84226e-12,0,0,-1.13863e-13,0,0,0,0,0,0,0,0,0,0,0,0,0,0,0,0,0,0,0,0,0,-0.261799,1.57079,-1.5,-nan,0,0,0,0,0
2850,-3.71054e-12,0,-1.5774e-06,-3.84226e-12,0,-3.40902e-12,-1.13863e-13,0,0,0,0,0,0,0,0,0,0,0,0,0,0,0,0,0,0,0,0,0,-0.261799,1.57079,-1.5,-nan,0,0,0,0,0
2860,-3.71054e-12,0,-1.5774e-06,-3.84226e-12,0,0,-1.13864e-13,0,0,0,0,0,0,0,0,0,0,0,0,0,0,0,0,0,0,0,0,0,-0.261799,1.57079,-1.5,-nan,0,0,0,0,0
2870,-3.71054e-12,0,-1.5774e-06,-3.84226e-12,0,-3.40902e-12,-1.13865e-13,0,0,0,0,0,0,0,0,0,0,0,0,0,0,0,0,0,0,0,0,0,-0.261799,1.57079,-1.5,-nan,0,0,0,0,0
2880,-3.71054e-12,0,-1.5774e-06,-3.84226e-12,0,0,-1.13865e-13,0,0,0,0,0,0,0,0,0,0,0,0,0,0,0,0,0,0,0,0,0,-0.261799,1.57079,-1.5,-nan,0,0,0,0,0
2890,-3.71054e-12,0,-1.5774e-06,-3.84226e-12,0,-3.40902e-12,-1.13866e-13,0,0,0,0,0,0,0,0,0,0,0,0,0,0,0,0,0,0,0,0,0,-0.261799,1.57079,-1.5,-nan,0,0,0,0,0
2900,-3.71054e-12,0,-1.5774e-06,-3.84226e-12,0,0,-1.13866e-13,0,0,0,0,0,0,0,0,0,0,0,0,0,0,0,0,0,0,0,0,0,-0.261799,1.57079,-1.5,-nan,0,0,0,0,0
2910,-3.71054e-12,0,-1.5774e-06,-3.84226e-12,0,-3.40902e-12,-1.13867e-13,0,0,0,0,0,0,0,0,0,0,0,0,0,0,0,0,0,0,0,0,0,-0.261799,1.57079,-1.5,-nan,0,0,0,0,0
2920,-3.71054e-12,0,-1.5774e-06,-3.84226e-12,0,0,-1.13867e-13,0,0,0,0,0,0,0,0,0,0,0,0,0,0,0,0,0,0,0,0,0,-0.261799,1.57079,-1.5,-nan,0,0,0,0,0
2930,-3.71054e-12,0,-1.5774e-06,-3.84226e-12,0,-3.40902e-12,-1.13868e-13,0,0,0,0,0,0,0,0,0,0,0,0,0,0,0,0,0,0,0,0,0,-0.261799,1.57079,-1.5,-nan,0,0,0,0,0
2940,-3.71054e-12,0,-1.5774e-06,-3.84226e-12,0,0,-1.13868e-13,0,0,0,0,0,0,0,0,0,0,0,0,0,0,0,0,0,0,0,0,0,-0.261799,1.57079,-1.5,-nan,0,0,0,0,0
2950,-3.71054e-12,0,-1.5774e-06,-3.84226e-12,0,-3.40902e-12,-1.13869e-13,0,0,0,0,0,0,0,0,0,0,0,0,0,0,0,0,0,0,0,0,0,-0.261799,1.57079,-1.5,-nan,0,0,0,0,0
2960,-3.71054e-12,0,-1.5774e-06,-3.84226e-12,0,0,-1.13869e-13,0,0,0,0,0,0,0,0,0,0,0,0,0,0,0,0,0,0,0,0,0,-0.261799,1.57079,-1.5,-nan,0,0,0,0,0
2970,-3.71054e-12,0,-1.5774e-06,-3.84226e-12,0,-3.40902e-12,-1.1387e-13,0,0,0,0,0,0,0,0,0,0,0,0,0,0,0,0,0,0,0,0,0,-0.261799,1.57079,-1.5,-nan,0,0,0,0,0
2980,-3.71054e-12,0,-1.5774e-06,-3.84226e-12,0,0,-1.13871e-13,0,0,0,0,0,0,0,0,0,0,0,0,0,0,0,0,0,0,0,0,0,-0.261799,1.57079,-1.5,-nan,0,0,0,0,0
2990,-3.71054e-12,0,-1.5774e-06,-3.84226e-12,0,-3.40902e-12,-1.13871e-13,0,0,0,0,0,0,0,0,0,0,0,0,0,0,0,0,0,0,0,0,0,-0.261799,1.57079,-1.5,-nan,0,0,0,0,0
3000,-3.71054e-12,0,-1.5774e-06,-3.84226e-12,0,0,-1.13872e-13,0,0,0,0,0,0,0,0,0,0,0,0,0,0,0,0,0,0,0,0,0,-0.261799,1.57079,-1.5,-nan,0,0,0,0,0
3010,-3.71054e-12,0,-1.5774e-06,-3.84226e-12,0,-3.40902e-12,-1.13872e-13,0,0,0,0,0,0,0,0,0,0,0,0,0,0,0,0,0,0,0,0,0,-0.261799,1.57079,-1.5,-nan,0,0,0,0,0
3020,-3.71054e-12,0,-1.5774e-06,-3.84226e-12,0,0,-1.13873e-13,0,0,0,0,0,0,0,0,0,0,0,0,0,0,0,0,0,0,0,0,0,-0.261799,1.57079,-1.5,-nan,0,0,0,0,0
3030,-3.71054e-12,0,-1.5774e-06,-3.84226e-12,0,-3.40902e-12,-1.13873e-13,0,0,0,0,0,0,0,0,0,0,0,0,0,0,0,0,0,0,0,0,0,-0.261799,1.57079,-1.5,-nan,0,0,0,0,0
3040,-3.71054e-12,0,-1.5774e-06,-3.84226e-12,0,0,-1.13874e-13,0,0,0,0,0,0,0,0,0,0,0,0,0,0,0,0,0,0,0,0,0,-0.261799,1.57079,-1.5,-nan,0,0,0,0,0
3050,-3.71054e-12,0,-1.5774e-06,-3.84226e-12,0,-3.40902e-12,-1.13874e-13,0,0,0,0,0,0,0,0,0,0,0,0,0,0,0,0,0,0,0,0,0,-0.261799,1.57079,-1.5,-nan,0,0,0,0,0
3060,-3.71054e-12,0,-1.5774e-06,-3.84226e-12,0,0,-1.13875e-13,0,0,0,0,0,0,0,0,0,0,0,0,0,0,0,0,0,0,0,0,0,-0.261799,1.57079,-1.5,-nan,0,0,0,0,0
3070,-3.71054e-12,0,-1.5774e-06,-3.84226e-12,0,-3.40902e-12,-1.13875e-13,0,0,0,0,0,0,0,0,0,0,0,0,0,0,0,0,0,0,0,0,0,-0.261799,1.57079,-1.5,-nan,0,0,0,0,0
3080,-3.71054e-12,0,-1.5774e-06,-3.84226e-12,0,0,-1.13876e-13,0,0,0,0,0,0,0,0,0,0,0,0,0,0,0,0,0,0,0,0,0,-0.261799,1.57079,-1.5,-nan,0,0,0,0,0
3090,-3.71054e-12,0,-1.5774e-06,-3.84226e-12,0,-3.40902e-12,-1.13876e-13,0,0,0,0,0,0,0,0,0,0,0,0,0,0,0,0,0,0,0,0,0,-0.261799,1.57079,-1.5,-nan,0,0,0,0,0
3100,-3.71054e-12,0,-1.5774e-06,-3.84226e-12,0,0,-1.13877e-13,0,0,0,0,0,0,0,0,0,0,0,0,0,0,0,0,0,0,0,0,0,-0.261799,1.57079,-1.5,-nan,0,0,0,0,0
3110,-3.71054e-12,0,-1.5774e-06,-3.84226e-12,0,-3.40902e-12,-1.1378e-13,0,0,0,0,0,0,0,0,0,0,0,0,0,0,0,0,0,0,0,0,0,-0.261799,1.57079,-1.5,-nan,0,0,0,0,0
3120,-3.71054e-12,0,-1.5774e-06,-3.84226e-12,0,0,-1.13781e-13,0,0,0,0,0,0,0,0,0,0,0,0,0,0,0,0,0,0,0,0,0,-0.261799,1.57079,-1.5,-nan,0,0,0,0,0
3130,-3.71054e-12,0,-1.5774e-06,-3.84226e-12,0,-3.40902e-12,-1.13781e-13,0,0,0,0,0,0,0,0,0,0,0,0,0,0,0,0,0,0,0,0,0,-0.261799,1.57079,-1.5,-nan,0,0,0,0,0
3140,-3.71054e-12,0,-1.5774e-06,-3.84226e-12,0,0,-1.13782e-13,0,0,0,0,0,0,0,0,0,0,0,0,0,0,0,0,0,0,0,0,0,-0.261799,1.57079,-1.5,-nan,0,0,0,0,0
3150,-3.71054e-12,0,-1.5774e-06,-3.84226e-12,0,-3.40902e-12,-1.13782e-13,0,0,0,0,0,0,0,0,0,0,0,0,0,0,0,0,0,0,0,0,0,-0.261799,1.57079,-1.5,-nan,0,0,0,0,0
3160,-3.71054e-12,0,-1.5774e-06,-3.84226e-12,0,0,-1.13783e-13,0,0,0,0,0,0,0,0,0,0,0,0,0,0,0,0,0,0,0,0,0,-0.261799,1.57079,-1.5,-nan,0,0,0,0,0
3170,-3.71054e-12,0,-1.5774e-06,-3.84226e-12,0,-3.40902e-12,-1.13783e-13,0,0,0,0,0,0,0,0,0,0,0,0,0,0,0,0,0,0,0,0,0,-0.261799,1.57079,-1.5,-nan,0,0,0,0,0
3180,-3.71054e-12,0,-1.5774e-06,-3.84226e-12,0,0,-1.13784e-13,0,0,0,0,0,0,0,0,0,0,0,0,0,0,0,0,0,0,0,0,0,-0.261799,1.57079,-1.5,-nan,0,0,0,0,0
3190,-3.71054e-12,0,-1.5774e-06,-3.84226e-12,0,-3.40902e-12,-1.13785e-13,0,0,0,0,0,0,0,0,0,0,0,0,0,0,0,0,0,0,0,0,0,-0.261799,1.57079,-1.5,-nan,0,0,0,0,0
3200,-3.71054e-12,0,-1.5774e-06,-3.84226e-12,0,0,-1.13785e-13,0,0,0,0,0,0,0,0,0,0,0,0,0,0,0,0,0,0,0,0,0,-0.261799,1.57079,-1.5,-nan,0,0,0,0,0
3210,-3.71054e-12,0,-1.5774e-06,-3.84226e-12,0,-3.40902e-12,-1.13786e-13,0,0,0,0,0,0,0,0,0,0,0,0,0,0,0,0,0,0,0,0,0,-0.261799,1.57079,-1.5,-nan,0,0,0,0,0
3220,-3.71054e-12,0,-1.5774e-06,-3.84226e-12,0,0,-1.13786e-13,0,0,0,0,0,0,0,0,0,0,0,0,0,0,0,0,0,0,0,0,0,-0.261799,1.57079,-1.5,-nan,0,0,0,0,0
3230,-3.71054e-12,0,-1.5774e-06,-3.84226e-12,0,-3.40902e-12,-1.13787e-13,0,0,0,0,0,0,0,0,0,0,0,0,0,0,0,0,0,0,0,0,0,-0.261799,1.57079,-1.5,-nan,0,0,0,0,0
3240,-3.71054e-12,0,-1.5774e-06,-3.84226e-12,0,0,-1.13878e-13,0,0,0,0,0,0,0,0,0,0,0,0,0,0,0,0,0,0,0,0,0,-0.261799,1.57079,-1.5,-nan,0,0,0,0,0
3250,-3.71054e-12,0,-1.5774e-06,-3.84226e-12,0,-3.40902e-12,-1.13878e-13,0,0,0,0,0,0,0,0,0,0,0,0,0,0,0,0,0,0,0,0,0,-0.261799,1.57079,-1.5,-nan,0,0,0,0,0
3260,-3.71054e-12,0,-1.5774e-06,-3.84226e-12,0,0,-1.13879e-13,0,0,0,0,0,0,0,0,0,0,0,0,0,0,0,0,0,0,0,0,0,-0.261799,1.57079,-1.5,-nan,0,0,0,0,0
3270,-3.71054e-12,0,-1.5774e-06,-3.84226e-12,0,-3.40902e-12,-1.13879e-13,0,0,0,0,0,0,0,0,0,0,0,0,0,0,0,0,0,0,0,0,0,-0.261799,1.57079,-1.5,-nan,0,0,0,0,0
3280,-3.71054e-12,0,-1.5774e-06,-3.84226e-12,0,0,-1.1388e-13,0,0,0,0,0,0,0,0,0,0,0,0,0,0,0,0,0,0,0,0,0,-0.261799,1.57079,-1.5,-nan,0,0,0,0,0
3290,-3.71054e-12,0,-1.5774e-06,-3.84226e-12,0,-3.40902e-12,-1.1388e-13,0,0,0,0,0,0,0,0,0,0,0,0,0,0,0,0,0,0,0,0,0,-0.261799,1.57079,-1.5,-nan,0,0,0,0,0
3300,-3.71054e-12,0,-1.5774e-06,-3.84226e-12,0,0,-1.13881e-13,0,0,0,0,0,0,0,0,0,0,0,0,0,0,0,0,0,0,0,0,0,-0.261799,1.57079,-1.5,-nan,0,0,0,0,0
3310,-3.71054e-12,0,-1.5774e-06,-3.84226e-12,0,-3.40902e-12,-1.13881e-13,0,0,0,0,0,0,0,0,0,0,0,0,0,0,0,0,0,0,0,0,0,-0.261799,1.57079,-1.5,-nan,0,0,0,0,0
3320,-3.71054e-12,0,-1.5774e-06,-3.84226e-12,0,0,-1.13882e-13,0,0,0,0,0,0,0,0,0,0,0,0,0,0,0,0,0,0,0,0,0,-0.261799,1.57079,-1.5,-nan,0,0,0,0,0
3330,-3.71054e-12,0,-1.5774e-06,-3.84226e-12,0,-3.40902e-12,-1.13882e-13,0,0,0,0,0,0,0,0,0,0,0,0,0,0,0,0,0,0,0,0,0,-0.261799,1.57079,-1.5,-nan,0,0,0,0,0
3340,-3.71054e-12,0,-1.5774e-06,-3.84226e-12,0,0,-1.13883e-13,0,0,0,0,0,0,0,0,0,0,0,0,0,0,0,0,0,0,0,0,0,-0.261799,1.57079,-1.5,-nan,0,0,0,0,0
3350,-3.71054e-12,0,-1.5774e-06,-3.84226e-12,0,-3.40902e-12,-1.13884e-13,0,0,0,0,0,0,0,0,0,0,0,0,0,0,0,0,0,0,0,0,0,-0.261799,1.57079,-1.5,-nan,0,0,0,0,0
3360,-3.71054e-12,0,-1.5774e-06,-3.84226e-12,0,0,-1.13884e-13,0,0,0,0,0,0,0,0,0,0,0,0,0,0,0,0,0,0,0,0,0,-0.261799,1.57079,-1.5,-nan,0,0,0,0,0
3370,-3.71054e-12,0,-1.5774e-06,-3.84226e-12,0,-3.40902e-12,-1.13885e-13,0,0,0,0,0,0,0,0,0,0,0,0,0,0,0,0,0,0,0,0,0,-0.261799,1.57079,-1.5,-nan,0,0,0,0,0
3380,-3.71054e-12,0,-1.5774e-06,-3.84226e-12,0,0,-1.13885e-13,0,0,0,0,0,0,0,0,0,0,0,0,0,0,0,0,0,0,0,0,0,-0.261799,1.57079,-1.5,-nan,0,0,0,0,0
3390,-3.71054e-12,0,-1.5774e-06,-3.84226e-12,0,-3.40902e-12,-1.13886e-13,0,0,0,0,0,0,0,0,0,0,0,0,0,0,0,0,0,0,0,0,0,-0.261799,1.57079,-1.5,-nan,0,0,0,0,0
3400,-3.71054e-12,0,-1.5774e-06,-3.84226e-12,0,0,-1.13886e-13,0,0,0,0,0,0,0,0,0,0,0,0,0,0,0,0,0,0,0,0,0,-0.261799,1.57079,-1.5,-nan,0,0,0,0,0
3410,-3.71054e-12,0,-1.5774e-06,-3.84226e-12,0,-3.40902e-12,-1.13887e-13,0,0,0,0,0,0,0,0,0,0,0,0,0,0,0,0,0,0,0,0,0,-0.261799,1.57079,-1.5,-nan,0,0,0,0,0
3420,-3.71054e-12,0,-1.5774e-06,-3.84226e-12,0,0,-1.13887e-13,0,0,0,0,0,0,0,0,0,0,0,0,0,0,0,0,0,0,0,0,0,-0.261799,1.57079,-1.5,-nan,0,0,0,0,0
3430,-3.71054e-12,0,-1.5774e-06,-3.84226e-12,0,-3.40902e-12,-1.13888e-13,0,0,0,0,0,0,0,0,0,0,0,0,0,0,0,0,0,0,0,0,0,-0.261799,1.57079,-1.5,-nan,0,0,0,0,0
3440,-3.71054e-12,0,-1.5774e-06,-3.84226e-12,0,0,-1.13888e-13,0,0,0,0,0,0,0,0,0,0,0,0,0,0,0,0,0,0,0,0,0,-0.261799,1.57079,-1.5,-nan,0,0,0,0,0
3450,-3.71054e-12,0,-1.5774e-06,-3.84226e-12,0,-3.40902e-12,-1.13889e-13,0,0,0,0,0,0,0,0,0,0,0,0,0,0,0,0,0,0,0,0,0,-0.261799,1.57079,-1.5,-nan,0,0,0,0,0
3460,-3.71054e-12,0,-1.5774e-06,-3.84226e-12,0,0,-1.13889e-13,0,0,0,0,0,0,0,0,0,0,0,0,0,0,0,0,0,0,0,0,0,-0.261799,1.57079,-1.5,-nan,0,0,0,0,0
3470,-3.71054e-12,0,-1.5774e-06,-3.84226e-12,0,-3.40902e-12,-1.1389e-13,0,0,0,0,0,0,0,0,0,0,0,0,0,0,0,0,0,0,0,0,0,-0.261799,1.57079,-1.5,-nan,0,0,0,0,0
3480,-3.71054e-12,0,-1.5774e-06,-3.84226e-12,0,0,-1.13891e-13,0,0,0,0,0,0,0,0,0,0,0,0,0,0,0,0,0,0,0,0,0,-0.261799,1.57079,-1.5,-nan,0,0,0,0,0
3490,-3.71054e-12,0,-1.5774e-06,-3.84226e-12,0,-3.40902e-12,-1.13891e-13,0,0,0,0,0,0,0,0,0,0,0,0,0,0,0,0,0,0,0,0,0,-0.261799,1.57079,-1.5,-nan,0,0,0,0,0
3500,-3.71054e-12,0,-1.5774e-06,-3.84226e-12,0,0,-1.13892e-13,0,0,0,0,0,0,0,0,0,0,0,0,0,0,0,0,0,0,0,0,0,-0.261799,1.57079,-1.5,-nan,0,0,0,0,0
3510,-3.71054e-12,0,-1.5774e-06,-3.84226e-12,0,-3.40902e-12,-1.13892e-13,0,0,0,0,0,0,0,0,0,0,0,0,0,0,0,0,0,0,0,0,0,-0.261799,1.57079,-1.5,-nan,0,0,0,0,0
3520,-3.71054e-12,0,-1.5774e-06,-3.84226e-12,0,0,-1.13893e-13,0,0,0,0,0,0,0,0,0,0,0,0,0,0,0,0,0,0,0,0,0,-0.261799,1.57079,-1.5,-nan,0,0,0,0,0
3530,-3.71054e-12,0,-1.5774e-06,-3.84226e-12,0,-3.40902e-12,-1.13893e-13,0,0,0,0,0,0,0,0,0,0,0,0,0,0,0,0,0,0,0,0,0,-0.261799,1.57079,-1.5,-nan,0,0,0,0,0
3540,-3.71054e-12,0,-1.5774e-06,-3.84226e-12,0,0,-1.13894e-13,0,0,0,0,0,0,0,0,0,0,0,0,0,0,0,0,0,0,0,0,0,-0.261799,1.57079,-1.5,-nan,0,0,0,0,0
3550,-3.71054e-12,0,-1.5774e-06,-3.84226e-12,0,-3.40902e-12,-1.13894e-13,0,0,0,0,0,0,0,0,0,0,0,0,0,0,0,0,0,0,0,0,0,-0.261799,1.57079,-1.5,-nan,0,0,0,0,0
3560,-3.71054e-12,0,-1.5774e-06,-3.84226e-12,0,0,-1.13895e-13,0,0,0,0,0,0,0,0,0,0,0,0,0,0,0,0,0,0,0,0,0,-0.261799,1.57079,-1.5,-nan,0,0,0,0,0
3570,-3.71054e-12,0,-1.5774e-06,-3.84226e-12,0,-3.40902e-12,-1.13895e-13,0,0,0,0,0,0,0,0,0,0,0,0,0,0,0,0,0,0,0,0,0,-0.261799,1.57079,-1.5,-nan,0,0,0,0,0
3580,-3.71054e-12,0,-1.5774e-06,-3.84226e-12,0,0,-1.13896e-13,0,0,0,0,0,0,0,0,0,0,0,0,0,0,0,0,0,0,0,0,0,-0.261799,1.57079,-1.5,-nan,0,0,0,0,0
3590,-3.71054e-12,0,-1.5774e-06,-3.84226e-12,0,-3.40902e-12,-1.13897e-13,0,0,0,0,0,0,0,0,0,0,0,0,0,0,0,0,0,0,0,0,0,-0.261799,1.57079,-1.5,-nan,0,0,0,0,0
3600,-3.71054e-12,0,-1.5774e-06,-3.84226e-12,0,0,-1.13897e-13,0,0,0,0,0,0,0,0,0,0,0,0,0,0,0,0,0,0,0,0,0,-0.261799,1.57079,-1.5,-nan,0,0,0,0,0
3610,-3.71054e-12,0,-1.5774e-06,-3.84226e-12,0,-3.40902e-12,-1.13898e-13,0,0,0,0,0,0,0,0,0,0,0,0,0,0,0,0,0,0,0,0,0,-0.261799,1.57079,-1.5,-nan,0,0,0,0,0
3620,-3.71054e-12,0,-1.5774e-06,-3.84226e-12,0,0,-1.13898e-13,0,0,0,0,0,0,0,0,0,0,0,0,0,0,0,0,0,0,0,0,0,-0.261799,1.57079,-1.5,-nan,0,0,0,0,0
3630,-3.71054e-12,0,-1.5774e-06,-3.84226e-12,0,-3.40902e-12,-1.13899e-13,0,0,0,0,0,0,0,0,0,0,0,0,0,0,0,0,0,0,0,0,0,-0.261799,1.57079,-1.5,-nan,0,0,0,0,0
3640,-3.71054e-12,0,-1.5774e-06,-3.84226e-12,0,0,-1.13899e-13,0,0,0,0,0,0,0,0,0,0,0,0,0,0,0,0,0,0,0,0,0,-0.261799,1.57079,-1.5,-nan,0,0,0,0,0
3650,-3.71054e-12,0,-1.5774e-06,-3.84226e-12,0,-3.40902e-12,-1.139e-13,0,0,0,0,0,0,0,0,0,0,0,0,0,0,0,0,0,0,0,0,0,-0.261799,1.57079,-1.5,-nan,0,0,0,0,0
3660,-3.71054e-12,0,-1.5774e-06,-3.84226e-12,0,0,-1.139e-13,0,0,0,0,0,0,0,0,0,0,0,0,0,0,0,0,0,0,0,0,0,-0.261799,1.57079,-1.5,-nan,0,0,0,0,0
3670,-3.71054e-12,0,-1.5774e-06,-3.84226e-12,0,-3.40902e-12,-1.13901e-13,0,0,0,0,0,0,0,0,0,0,0,0,0,0,0,0,0,0,0,0,0,-0.261799,1.57079,-1.5,-nan,0,0,0,0,0
3680,-3.71054e-12,0,-1.5774e-06,-3.84226e-12,0,0,-1.13901e-13,0,0,0,0,0,0,0,0,0,0,0,0,0,0,0,0,0,0,0,0,0,-0.261799,1.57079,-1.5,-nan,0,0,0,0,0
3690,-3.71054e-12,0,-1.5774e-06,-3.84226e-12,0,-3.40902e-12,-1.13902e-13,0,0,0,0,0,0,0,0,0,0,0,0,0,0,0,0,0,0,0,0,0,-0.261799,1.57079,-1.5,-nan,0,0,0,0,0
3700,-3.71054e-12,0,-1.5774e-06,-3.84226e-12,0,0,-1.13902e-13,0,0,0,0,0,0,0,0,0,0,0,0,0,0,0,0,0,0,0,0,0,-0.261799,1.57079,-1.5,-nan,0,0,0,0,0
3710,-3.71054e-12,0,-1.5774e-06,-3.84226e-12,0,-3.40902e-12,-1.13903e-13,0,0,0,0,0,0,0,0,0,0,0,0,0,0,0,0,0,0,0,0,0,-0.261799,1.57079,-1.5,-nan,0,0,0,0,0
3720,-3.71054e-12,0,-1.5774e-06,-3.84226e-12,0,0,-1.13904e-13,0,0,0,0,0,0,0,0,0,0,0,0,0,0,0,0,0,0,0,0,0,-0.261799,1.57079,-1.5,-nan,0,0,0,0,0
3730,-3.71054e-12,0,-1.5774e-06,-3.84226e-12,0,-3.40902e-12,-1.13904e-13,0,0,0,0,0,0,0,0,0,0,0,0,0,0,0,0,0,0,0,0,0,-0.261799,1.57079,-1.5,-nan,0,0,0,0,0
3740,-3.71054e-12,0,-1.5774e-06,-3.84226e-12,0,0,-1.13905e-13,0,0,0,0,0,0,0,0,0,0,0,0,0,0,0,0,0,0,0,0,0,-0.261799,1.57079,-1.5,-nan,0,0,0,0,0
3750,-3.71054e-12,0,-1.5774e-06,-3.84226e-12,0,-3.40902e-12,-1.13905e-13,0,0,0,0,0,0,0,0,0,0,0,0,0,0,0,0,0,0,0,0,0,-0.261799,1.57079,-1.5,-nan,0,0,0,0,0
3760,-3.71054e-12,0,-1.5774e-06,-3.84226e-12,0,0,-1.13906e-13,0,0,0,0,0,0,0,0,0,0,0,0,0,0,0,0,0,0,0,0,0,-0.261799,1.57079,-1.5,-nan,0,0,0,0,0
3770,-3.71054e-12,0,-1.5774e-06,-3.84226e-12,0,-3.40902e-12,-1.13906e-13,0,0,0,0,0,0,0,0,0,0,0,0,0,0,0,0,0,0,0,0,0,-0.261799,1.57079,-1.5,-nan,0,0,0,0,0
3780,-3.71054e-12,0,-1.5774e-06,-3.84226e-12,0,0,-1.13907e-13,0,0,0,0,0,0,0,0,0,0,0,0,0,0,0,0,0,0,0,0,0,-0.261799,1.57079,-1.5,-nan,0,0,0,0,0
3790,-3.71054e-12,0,-1.5774e-06,-3.84226e-12,0,-3.40902e-12,-1.13907e-13,0,0,0,0,0,0,0,0,0,0,0,0,0,0,0,0,0,0,0,0,0,-0.261799,1.57079,-1.5,-nan,0,0,0,0,0
3800,-3.71054e-12,0,-1.5774e-06,-3.84226e-12,0,0,-1.13908e-13,0,0,0,0,0,0,0,0,0,0,0,0,0,0,0,0,0,0,0,0,0,-0.261799,1.57079,-1.5,-nan,0,0,0,0,0
3810,-3.71054e-12,0,-1.5774e-06,-3.84226e-12,0,-3.40902e-12,-1.13908e-13,0,0,0,0,0,0,0,0,0,0,0,0,0,0,0,0,0,0,0,0,0,-0.261799,1.57079,-1.5,-nan,0,0,0,0,0
3820,-3.71054e-12,0,-1.5774e-06,-3.84226e-12,0,0,-1.13909e-13,0,0,0,0,0,0,0,0,0,0,0,0,0,0,0,0,0,0,0,0,0,-0.261799,1.57079,-1.5,-nan,0,0,0,0,0
3830,-3.71054e-12,0,-1.5774e-06,-3.84226e-12,0,-3.40902e-12,-1.1391e-13,0,0,0,0,0,0,0,0,0,0,0,0,0,0,0,0,0,0,0,0,0,-0.261799,1.57079,-1.5,-nan,0,0,0,0,0
3840,-3.71054e-12,0,-1.5774e-06,-3.84226e-12,0,0,-1.1391e-13,0,0,0,0,0,0,0,0,0,0,0,0,0,0,0,0,0,0,0,0,0,-0.261799,1.57079,-1.5,-nan,0,0,0,0,0
3850,-3.71054e-12,0,-1.5774e-06,-3.84226e-12,0,-3.40902e-12,-1.13911e-13,0,0,0,0,0,0,0,0,0,0,0,0,0,0,0,0,0,0,0,0,0,-0.261799,1.57079,-1.5,-nan,0,0,0,0,0
3860,-3.71054e-12,0,-1.5774e-06,-3.84226e-12,0,0,-1.13911e-13,0,0,0,0,0,0,0,0,0,0,0,0,0,0,0,0,0,0,0,0,0,-0.261799,1.57079,-1.5,-nan,0,0,0,0,0
3870,-3.71054e-12,0,-1.5774e-06,-3.84226e-12,0,-3.40902e-12,-1.13912e-13,0,0,0,0,0,0,0,0,0,0,0,0,0,0,0,0,0,0,0,0,0,-0.261799,1.57079,-1.5,-nan,0,0,0,0,0
3880,-3.71054e-12,0,-1.5774e-06,-3.84226e-12,0,0,-1.13912e-13,0,0,0,0,0,0,0,0,0,0,0,0,0,0,0,0,0,0,0,0,0,-0.261799,1.57079,-1.5,-nan,0,0,0,0,0
3890,-3.71054e-12,0,-1.5774e-06,-3.84226e-12,0,-3.40902e-12,-1.13913e-13,0,0,0,0,0,0,0,0,0,0,0,0,0,0,0,0,0,0,0,0,0,-0.261799,1.57079,-1.5,-nan,0,0,0,0,0
3900,-3.71054e-12,0,-1.5774e-06,-3.84226e-12,0,0,-1.13913e-13,0,0,0,0,0,0,0,0,0,0,0,0,0,0,0,0,0,0,0,0,0,-0.261799,1.57079,-1.5,-nan,0,0,0,0,0
3910,-3.71054e-12,0,-1.5774e-06,-3.84226e-12,0,-3.40902e-12,-1.13914e-13,0,0,0,0,0,0,0,0,0,0,0,0,0,0,0,0,0,0,0,0,0,-0.261799,1.57079,-1.5,-nan,0,0,0,0,0
3920,-3.71054e-12,0,-1.5774e-06,-3.84226e-12,0,0,-1.13914e-13,0,0,0,0,0,0,0,0,0,0,0,0,0,0,0,0,0,0,0,0,0,-0.261799,1.57079,-1.5,-nan,0,0,0,0,0
3930,-3.71054e-12,0,-1.5774e-06,-3.84226e-12,0,-3.40902e-12,-1.13915e-13,0,0,0,0,0,0,0,0,0,0,0,0,0,0,0,0,0,0,0,0,0,-0.261799,1.57079,-1.5,-nan,0,0,0,0,0
3940,-3.71054e-12,0,-1.5774e-06,-3.84226e-12,0,0,-1.13915e-13,0,0,0,0,0,0,0,0,0,0,0,0,0,0,0,0,0,0,0,0,0,-0.261799,1.57079,-1.5,-nan,0,0,0,0,0
3950,-3.71054e-12,0,-1.5774e-06,-3.84226e-12,0,-3.40902e-12,-1.13916e-13,0,0,0,0,0,0,0,0,0,0,0,0,0,0,0,0,0,0,0,0,0,-0.261799,1.57079,-1.5,-nan,0,0,0,0,0
3960,-3.71054e-12,0,-1.5774e-06,-3.84226e-12,0,0,-1.13917e-13,0,0,0,0,0,0,0,0,0,0,0,0,0,0,0,0,0,0,0,0,0,-0.261799,1.57079,-1.5,-nan,0,0,0,0,0
3970,-3.71054e-12,0,-1.5774e-06,-3.84226e-12,0,-3.40902e-12,-1.13917e-13,0,0,0,0,0,0,0,0,0,0,0,0,0,0,0,0,0,0,0,0,0,-0.261799,1.57079,-1.5,-nan,0,0,0,0,0
3980,-3.71054e-12,0,-1.5774e-06,-3.84226e-12,0,0,-1.13918e-13,0,0,0,0,0,0,0,0,0,0,0,0,0,0,0,0,0,0,0,0,0,-0.261799,1.57079,-1.5,-nan,0,0,0,0,0
3990,-3.71054e-12,0,-1.5774e-06,-3.84226e-12,0,-3.40902e-12,-1.13918e-13,0,0,0,0,0,0,0,0,0,0,0,0,0,0,0,0,0,0,0,0,0,-0.261799,1.57079,-1.5,-nan,0,0,0,0,0
4000,-3.71054e-12,0,-1.5774e-06,-3.84226e-12,0,0,-1.13919e-13,0,0,0,0,0,0,0,0,0,0,0,0,0,0,0,0,0,0,0,0,0,-0.261799,1.57079,-1.5,-nan,0,0,0,0,0
4010,-3.71054e-12,0,-1.5774e-06,-3.84226e-12,0,-3.40902e-12,-1.13919e-13,0,0,0,0,0,0,0,0,0,0,0,0,0,0,0,0,0,0,0,0,0,-0.261799,1.57079,-1.5,-nan,0,0,0,0,0
4020,-3.71054e-12,0,-1.5774e-06,-3.84226e-12,0,0,-1.1392e-13,0,0,0,0,0,0,0,0,0,0,0,0,0,0,0,0,0,0,0,0,0,-0.261799,1.57079,-1.5,-nan,0,0,0,0,0
4030,-3.71054e-12,0,-1.5774e-06,-3.84226e-12,0,-3.40902e-12,-1.1392e-13,0,0,0,0,0,0,0,0,0,0,0,0,0,0,0,0,0,0,0,0,0,-0.261799,1.57079,-1.5,-nan,0,0,0,0,0
4040,-3.71054e-12,0,-1.5774e-06,-3.84226e-12,0,0,-1.13921e-13,0,0,0,0,0,0,0,0,0,0,0,0,0,0,0,0,0,0,0,0,0,-0.261799,1.57079,-1.5,-nan,0,0,0,0,0
4050,-3.71054e-12,0,-1.5774e-06,-3.84226e-12,0,-3.40902e-12,-1.13921e-13,0,0,0,0,0,0,0,0,0,0,0,0,0,0,0,0,0,0,0,0,0,-0.261799,1.57079,-1.5,-nan,0,0,0,0,0
4060,-3.71054e-12,0,-1.5774e-06,-3.84226e-12,0,0,-1.13922e-13,0,0,0,0,0,0,0,0,0,0,0,0,0,0,0,0,0,0,0,0,0,-0.261799,1.57079,-1.5,-nan,0,0,0,0,0
