timestamp,A_x,A_y,A_z,P,Q,R,Phi,Theta,Psi,poseX,poseY,poseZ,state_X,state_Y,state_Z,state_VzB,state_Bx,state_By,state_Bz,p1_x,p1_y,p2_x,p2_y,p3_x,p3_y,p4_x,p4_y,roll,pitch,yaw,alt,targetHeading,highLevelState,lowLevelState,gateNumber,filtered_x,filtered_y,x_OT,y_OT,vx_OT,vy_OT,filtered_vx,filtered_vygateArearansac_corr_x,ransac_corr_y,ransac_corr_vx,ransac_corr_vy,detectionTimeStamp
5590,0,0,0,0,0,0,0,0,0,0,0,0,0,0,0,0,0,0,0,0,0,0,0,0,0,0,0,0,-0.261799,0,-1.5,nan,0,0,0,0,0,0,0,0,0,0,0,1.9603e-19,0,0,0,0,0
8009,-3.2133e-12,1.64349e-38,-1.54015e-06,-3.27827e-12,1.64337e-38,0,-1.06589e-13,0,0,0,0,0,0,0,0,0,0,0,0,0,0,0,0,0,0,0,0,0,-0.261799,0,-1.5,nan,0,0,0,0,0,0,0,0,0,0,0,1.9603e-19,0,0,0,0,0
8110,-3.2133e-12,1.64349e-38,-1.54015e-06,-3.27827e-12,1.64337e-38,-3.40903e-12,-1.0659e-13,0,0,0,0,0,0,0,0,0,0,0,0,0,0,0,0,0,0,0,0,0,-0.261799,0,-1.5,nan,0,0,0,0,0,0,0,0,0,0,0,1.9603e-19,0,0,0,0,0
8176,-3.2133e-12,1.64349e-38,-1.54015e-06,-3.27827e-12,1.64337e-38,0,-1.0659e-13,0,0,0,0,0,0,0,0,0,0,0,0,0,0,0,0,0,0,0,0,0,-0.261799,0,-1.5,nan,0,0,0,0,0,0,0,0,0,0,0,1.9603e-19,0,0,0,0,0
8225,-3.2133e-12,1.64349e-38,-1.54015e-06,-3.27827e-12,1.64337e-38,-3.40903e-12,-1.0659e-13,0,0,0,0,0,0,0,0,0,0,0,0,0,0,0,0,0,0,0,0,0,-0.261799,0,-1.5,nan,0,0,0,0,0,0,0,0,0,0,0,1.9603e-19,0,0,0,0,0
8330,-3.2133e-12,1.64349e-38,-1.54015e-06,-3.27827e-12,1.64337e-38,0,-1.0659e-13,0,0,0,0,0,0,0,0,0,0,0,0,0,0,0,0,0,0,0,0,0,-0.261799,0,-1.5,nan,0,0,0,0,0,0,0,0,0,0,0,1.9603e-19,0,0,0,0,0
8399,-3.2133e-12,1.64349e-38,-1.54015e-06,-3.27827e-12,1.64337e-38,-3.40903e-12,-1.06591e-13,0,0,0,0,0,0,0,0,0,0,0,0,0,0,0,0,0,0,0,0,0,-0.261799,0,-1.5,nan,0,0,0,0,0,0,0,0,0,0,0,1.9603e-19,0,0,0,0,0
8457,-3.2133e-12,1.64349e-38,-1.54015e-06,-3.27827e-12,1.64337e-38,0,-1.06591e-13,0,0,0,0,0,0,0,0,0,0,0,0,0,0,0,0,0,0,0,0,0,-0.261799,0,-1.5,nan,0,0,0,0,0,0,0,0,0,0,0,1.9603e-19,0,0,0,0,0
8475,-3.2133e-12,1.64349e-38,-1.54015e-06,-3.27827e-12,1.64337e-38,-3.40903e-12,-1.06591e-13,0,0,0,0,0,0,0,0,0,0,0,0,0,0,0,0,0,0,0,0,0,-0.261799,0,-1.5,nan,0,0,0,0,0,0,0,0,0,0,0,1.9603e-19,0,0,0,0,0
8580,-3.2133e-12,1.64349e-38,-1.54015e-06,-3.27827e-12,1.64337e-38,0,-1.06591e-13,0,0,0,0,0,0,0,0,0,0,0,0,0,0,0,0,0,0,0,0,0,-0.261799,0,-1.5,nan,0,0,0,0,0,0,0,0,0,0,0,1.9603e-19,0,0,0,0,0
8636,-3.2133e-12,1.64349e-38,-1.54015e-06,-3.27827e-12,1.64337e-38,-3.40903e-12,-1.06592e-13,0,0,0,0,0,0,0,0,0,0,0,0,0,0,0,0,0,0,0,0,0,-0.261799,0,-1.5,nan,0,0,0,0,0,0,0,0,0,0,0,1.9603e-19,0,0,0,0,0
8653,-3.2133e-12,1.64349e-38,-1.54015e-06,-3.27827e-12,1.64337e-38,0,-1.06592e-13,0,0,0,0,0,0,0,0,0,0,0,0,0,0,0,0,0,0,0,0,0,-0.261799,0,-1.5,nan,0,0,0,0,0,0,0,0,0,0,0,1.9603e-19,0,0,0,0,0
8692,-3.2133e-12,1.64349e-38,-1.54015e-06,-3.27827e-12,1.64337e-38,-3.40903e-12,-1.06592e-13,0,0,0,0,0,0,0,0,0,0,0,0,0,0,0,0,0,0,0,0,0,-0.261799,0,-1.5,nan,0,0,0,0,0,0,0,0,0,0,0,1.9603e-19,0,0,0,0,0
8800,-3.2133e-12,1.64349e-38,-1.54015e-06,-3.27827e-12,1.64337e-38,0,-1.06593e-13,0,0,0,0,0,0,0,0,0,0,0,0,0,0,0,0,0,0,0,0,0,-0.261799,0,-1.5,nan,0,0,0,0,0,0,0,0,0,0,0,1.9603e-19,0,0,0,0,0
8845,-3.2133e-12,1.64349e-38,-1.54015e-06,-3.27827e-12,1.64337e-38,-3.40903e-12,-1.06593e-13,0,0,0,0,0,0,0,0,0,0,0,0,0,0,0,0,0,0,0,0,0,-0.261799,0,-1.5,nan,0,0,0,0,0,0,0,0,0,0,0,1.9603e-19,0,0,0,0,0
8866,-3.2133e-12,1.64349e-38,-1.54015e-06,-3.27827e-12,1.64337e-38,0,-1.06593e-13,0,0,0,0,0,0,0,0,0,0,0,0,0,0,0,0,0,0,0,0,0,-0.261799,0,-1.5,nan,0,0,0,0,0,0,0,0,0,0,0,1.9603e-19,0,0,0,0,0
8883,-3.2133e-12,1.64349e-38,-1.54015e-06,-3.27827e-12,1.64337e-38,-3.40903e-12,-1.06593e-13,0,0,0,0,0,0,0,0,0,0,0,0,0,0,0,0,0,0,0,0,0,-0.261799,0,-1.5,nan,0,0,0,0,0,0,0,0,0,0,0,1.9603e-19,0,0,0,0,0
8990,-3.2133e-12,1.64349e-38,-1.54015e-06,-3.27827e-12,1.64337e-38,0,-1.06594e-13,0,0,0,0,0,0,0,0,0,0,0,0,0,0,0,0,0,0,0,0,0,-0.261799,0,-1.5,nan,0,0,0,0,0,0,0,0,0,0,0,1.9603e-19,0,0,0,0,0
9026,-3.2133e-12,1.64349e-38,-1.54015e-06,-3.27827e-12,1.64337e-38,-3.40903e-12,-1.06594e-13,0,0,0,0,0,0,0,0,0,0,0,0,0,0,0,0,0,0,0,0,0,-0.261799,0,-1.5,nan,0,0,0,0,0,0,0,0,0,0,0,1.9603e-19,0,0,0,0,0
9052,-3.2133e-12,1.64349e-38,-1.54015e-06,-3.27827e-12,1.64337e-38,0,-1.06594e-13,0,0,-2.86599,-0.213568,0.231479,0,0,0,0,0,1.13401,-0.213568,276,-87,276,-87,425,-94,279,63,0,-0.261799,0,-1.5,nan,0,0,0,0,0,0,0,0,0,0,0,23393,0,0,0,0,9043
9071,-3.2133e-12,1.64349e-38,-1.54015e-06,-3.27827e-12,1.64337e-38,-3.40903e-12,-1.06594e-13,0,0,-2.81804,-0.225548,0.141285,0,0,0,0,0,1.18196,-0.225548,279,-83,279,-83,424,-89,279,66,0,-0.261799,0,-1.5,nan,0,0,0,0,0,0,0,0,0,0,0,22475,0,0,0,0,9069
9083,-3.2133e-12,1.64349e-38,-1.54015e-06,-3.27827e-12,1.64337e-38,0,-1.06595e-13,0,0,-2.81804,-0.225548,0.141285,0,0,0,0,0,1.18196,-0.225548,279,-83,279,-83,424,-89,279,66,0,-0.261799,0,-1.5,nan,0,0,0,0,0,0,0,0,0,0,0,22475,0,0,0,0,9069
9108,-3.2133e-12,1.64349e-38,-1.54015e-06,-3.27827e-12,1.64337e-38,-3.40903e-12,-1.06595e-13,0,0,-2.84506,-0.209936,0.131229,0,0,0,0,0,1.15494,-0.209936,276,-77,276,-77,424,-87,279,69,0,-0.261799,0,-1.5,nan,0,0,0,0,0,0,0,0,0,0,0,23088,0,0,0,0,9104
9129,-3.2133e-12,1.64349e-38,-1.54015e-06,-3.27827e-12,1.64337e-38,0,-1.06595e-13,0,0,-2.84506,-0.209936,0.131229,0,0,0,0,0,1.15494,-0.209936,276,-77,276,-77,424,-87,279,69,0,-0.261799,0,-1.5,nan,0,0,0,0,0,0,0,0,0,0,0,23088,0,0,0,0,9104
9149,-3.2133e-12,1.64349e-38,-1.54015e-06,-3.27827e-12,1.64337e-38,-3.40903e-12,-1.06596e-13,0,0,-2.84506,-0.209936,0.131229,0,0,0,0,0,1.15494,-0.209936,276,-77,276,-77,424,-87,279,69,0,-0.261799,0,-1.5,nan,0,0,0,0,0,0,0,0,0,0,0,23088,0,0,0,0,9104
9166,-3.2133e-12,1.64349e-38,-1.54015e-06,-3.27827e-12,1.64337e-38,0,-1.06596e-13,0,0,-2.84506,-0.209936,0.131229,0,0,0,0,0,1.15494,-0.209936,276,-77,276,-77,424,-87,279,69,0,-0.261799,0,-1.5,nan,0,0,0,0,0,0,0,0,0,0,0,23088,0,0,0,0,9104
9207,-3.2133e-12,1.64349e-38,-1.54015e-06,-3.27827e-12,1.64337e-38,-3.40903e-12,-1.06596e-13,0,0,-3.01589,-0.248285,0.253822,0,0,0,0,0,0.984108,-0.248285,282,-70,282,-70,427,-78,280,53,0,-0.261799,0,-1.5,nan,0,0,0,0,0,0,0,0,0,0,0,19845,0,0,0,0,9199
9243,-3.2133e-12,1.64349e-38,-1.54015e-06,-3.27827e-12,1.64337e-38,0,-1.06596e-13,0,0,-3.01589,-0.248285,0.253822,0,0,0,0,0,0.984108,-0.248285,282,-70,282,-70,427,-78,280,53,0,-0.261799,0,-1.5,nan,0,0,0,0,0,0,0,0,0,0,0,19845,0,0,0,0,9199
9264,-3.2133e-12,1.64349e-38,-1.54015e-06,-3.27827e-12,1.64337e-38,-3.40903e-12,-1.06597e-13,0,0,-3.01589,-0.248285,0.253822,0,0,0,0,0,0.984108,-0.248285,282,-70,282,-70,427,-78,280,53,0,-0.261799,0,-1.5,nan,0,0,0,0,0,0,0,0,0,0,0,19845,0,0,0,0,9199
9282,-3.2133e-12,1.64349e-38,-1.54015e-06,-3.27827e-12,1.64337e-38,0,-1.06597e-13,0,0,-3.01589,-0.248285,0.253822,0,0,0,0,0,0.984108,-0.248285,282,-70,282,-70,427,-78,280,53,0,-0.261799,0,-1.5,nan,0,0,0,0,0,0,0,0,0,0,0,19845,0,0,0,0,9199
9300,-3.2133e-12,1.64349e-38,-1.54015e-06,-3.27827e-12,1.64337e-38,-3.40903e-12,-1.06597e-13,0,0,-3.00694,-0.241438,0.23818,0,0,0,0,0,0.993058,-0.241438,280,-70,280,-70,426,-76,280,56,0,-0.261799,0,-1.5,nan,0,0,0,0,0,0,0,0,0,0,0,19418,0,0,0,0,9295
9320,-3.2133e-12,1.64349e-38,-1.54015e-06,-3.27827e-12,1.64337e-38,0,-1.06597e-13,0,0,-3.00694,-0.241438,0.23818,0,0,0,0,0,0.993058,-0.241438,280,-70,280,-70,426,-76,280,56,0,-0.261799,0,-1.5,nan,0,0,0,0,0,0,0,0,0,0,0,19418,0,0,0,0,9295
9338,-3.2133e-12,1.64349e-38,-1.54015e-06,-3.27827e-12,1.64337e-38,-3.40903e-12,-1.06598e-13,0,0,-3.00694,-0.241438,0.23818,0,0,0,0,0,0.993058,-0.241438,280,-70,280,-70,426,-76,280,56,0,-0.261799,0,-1.5,nan,0,0,0,0,0,0,0,0,0,0,0,19418,0,0,0,0,9295
9358,-3.2133e-12,1.64349e-38,-1.54015e-06,-3.27827e-12,1.64337e-38,0,-1.06598e-13,0,0,-3.00694,-0.241438,0.23818,0,0,0,0,0,0.993058,-0.241438,280,-70,280,-70,426,-76,280,56,0,-0.261799,0,-1.5,nan,0,0,0,0,0,0,0,0,0,0,0,19418,0,0,0,0,9295
9408,-3.2133e-12,1.64349e-38,-1.54015e-06,-3.27827e-12,1.64337e-38,-3.40903e-12,-1.06598e-13,0,0,-3.0084,-0.241399,0.23964,0,0,0,0,0,0.991596,-0.241399,279,-68,279,-68,426,-76,280,54,0,-0.261799,0,-1.5,nan,0,0,0,0,0,0,0,0,0,0,0,19551,0,0,0,0,9400
9429,-3.2133e-12,1.64349e-38,-1.54015e-06,-3.27827e-12,1.64337e-38,0,-1.06599e-13,0,0,-3.0084,-0.241399,0.23964,0,0,0,0,0,0.991596,-0.241399,279,-68,279,-68,426,-76,280,54,0,-0.261799,0,-1.5,nan,0,0,0,0,0,0,0,0,0,0,0,19551,0,0,0,0,9400
9457,-3.2133e-12,1.64349e-38,-1.54015e-06,-3.27827e-12,1.64337e-38,-3.40903e-12,-1.06599e-13,0,0,-2.93074,-0.242053,0.157537,0,0,0,0,0,1.06926,-0.242053,282,-70,282,-70,426,-76,280,54,0.261799,-0.261799,0,-1.5,nan,0,0,0,0.92843,-0.246792,0,0,0,0,-0.638037,-0.0544722,22046,0.946295,-0.245267,-0.638037,-0.0544722,9438
9492,-3.2133e-12,1.64349e-38,-1.54015e-06,-3.27827e-12,1.64337e-38,0,-1.06599e-13,0,0,-2.93074,-0.242053,0.157537,0,0,0,0,0,1.06926,-0.242053,282,-70,282,-70,426,-76,280,54,0.261799,-0.261799,0,-1.5,nan,0,0,0,0.906099,-0.248699,0,0,0,0,-0.638037,-0.0544722,22046,0.946295,-0.245267,-0.638037,-0.0544722,9438
9507,-3.2133e-12,1.64349e-38,-1.54015e-06,-3.27827e-12,1.64337e-38,-3.40903e-12,-1.06599e-13,0,0,-2.93074,-0.242053,0.157537,0,0,0,0,0,1.06926,-0.242053,282,-70,282,-70,426,-76,280,54,0.261799,-0.261799,0,-1.5,nan,0,0,0,0.897166,-0.249461,0,0,0,0,-0.638037,-0.0544722,22046,0.946295,-0.245267,-0.638037,-0.0544722,9438
9523,-3.2133e-12,1.64349e-38,-1.54015e-06,-3.27827e-12,1.64337e-38,0,-1.066e-13,0,0,-2.93074,-0.242053,0.157537,0,0,0,0,0,1.06926,-0.242053,282,-70,282,-70,426,-76,280,54,0.261799,-0.261799,0,-1.5,nan,0,0,0,0.886319,-0.250387,0,0,0,0,-0.638037,-0.0544722,22046,0.946295,-0.245267,-0.638037,-0.0544722,9438
9550,-3.2133e-12,1.64349e-38,-1.54015e-06,-3.27827e-12,1.64337e-38,-3.40903e-12,-1.066e-13,0,0,-3.02748,-0.247455,0.255172,0,0,0,0,0,0.972523,-0.247455,282,-70,282,-70,426,-76,280,54,0.261799,-0.261799,0,-1.5,nan,0,0,0,0.960824,-0.248752,0,0,0,0,-0.433281,-0.0480421,19418,0.972523,-0.247455,-0.433281,-0.0480421,9536
9587,-3.2133e-12,1.64349e-38,-1.54015e-06,-3.27827e-12,1.64337e-38,0,-1.066e-13,0,0,-3.02857,-0.249916,0.252177,0,0,0,0,0,0.971431,-0.249916,282,-70,282,-70,426,-74,280,54,0.261799,-0.261799,0,-1.5,nan,0,0,0,0.950928,-0.251196,0,0,0,0,-0.419976,-0.0493848,19126,0.966466,-0.249368,-0.419976,-0.0493848,9573
9640,-3.2133e-12,1.64349e-38,-1.54015e-06,-3.27827e-12,1.64337e-38,-3.40903e-12,-1.066e-13,0,0,-3.02857,-0.249916,0.252177,0,0,0,0,0,0.971431,-0.249916,282,-70,282,-70,426,-74,280,54,0.261799,-0.261799,0,-1.5,nan,0,0,0,0.928669,-0.253813,0,0,0,0,-0.419976,-0.0493848,19126,0.966466,-0.249368,-0.419976,-0.0493848,9573
9656,-3.2133e-12,1.64349e-38,-1.54015e-06,-3.27827e-12,1.64337e-38,0,-1.06601e-13,0,0,-3.02857,-0.249916,0.252177,0,0,0,0,0,0.971431,-0.249916,282,-70,282,-70,426,-74,280,54,0.261799,-0.261799,0,-1.5,nan,0,0,0,0.92237,-0.254554,0,0,0,0,-0.419976,-0.0493848,19126,0.966466,-0.249368,-0.419976,-0.0493848,9573
9672,-3.2133e-12,1.64349e-38,-1.54015e-06,-3.27827e-12,1.64337e-38,-3.40903e-12,-1.06601e-13,0,0,-3.02857,-0.249916,0.252177,0,0,0,0,0,0.971431,-0.249916,282,-70,282,-70,426,-74,280,54,0.261799,-0.261799,0,-1.5,nan,0,0,0,0.91523,-0.255393,0,0,0,0,-0.419976,-0.0493848,19126,0.966466,-0.249368,-0.419976,-0.0493848,9573
9713,-3.2133e-12,1.64349e-38,-1.54015e-06,-3.27827e-12,1.64337e-38,0,-1.06601e-13,0,0,-3.00349,-0.224745,0.219556,0,0,0,0,0,0.996512,-0.224745,279,-70,279,-70,423,-74,278,62,0.261799,-0.261799,0,-1.5,nan,0,0,0,0.994806,-0.256673,0,0,0,0,-0.0377433,-0.0476172,19720,0.995259,-0.256101,-0.0377433,-0.0476172,9703
9735,-3.2133e-12,1.64349e-38,-1.54015e-06,-3.27827e-12,1.64337e-38,-3.40903e-12,-1.06602e-13,0,0,-3.00349,-0.224745,0.219556,0,0,0,0,0,0.996512,-0.224745,279,-70,279,-70,423,-74,278,62,0.261799,-0.261799,0,-1.5,nan,0,0,0,0.993976,-0.25772,0,0,0,0,-0.0377433,-0.0476172,19720,0.995259,-0.256101,-0.0377433,-0.0476172,9703
9746,-3.2133e-12,1.64349e-38,-1.54015e-06,-3.27827e-12,1.64337e-38,0,-1.06602e-13,0,0,-3.00349,-0.224745,0.219556,0,0,0,0,0,0.996512,-0.224745,279,-70,279,-70,423,-74,278,62,0.261799,-0.261799,0,-1.5,nan,0,0,0,0.993561,-0.258244,0,0,0,0,-0.0377433,-0.0476172,19720,0.995259,-0.256101,-0.0377433,-0.0476172,9703
9842,-3.2133e-12,1.64349e-38,-1.54015e-06,-3.27827e-12,1.64337e-38,-3.40903e-12,-1.06602e-13,0,0,-3.04206,-0.202353,0.264445,0,0,0,0,0,0.957944,-0.202353,276,-70,276,-70,420,-75,275,53,0.261799,-0.261799,0,-1.5,nan,0,0,0,0.949359,-0.233593,0,0,0,0,-0.082051,0.0162461,19140,0.957236,-0.235153,-0.082051,0.0162461,9827
9857,-3.2133e-12,1.64349e-38,-1.54015e-06,-3.27827e-12,1.64337e-38,0,-1.06602e-13,0,0,-3.04206,-0.202353,0.264445,0,0,0,0,0,0.957944,-0.202353,276,-70,276,-70,420,-75,275,53,0.261799,-0.261799,0,-1.5,nan,0,0,0,0.948128,-0.23335,0,0,0,0,-0.082051,0.0162461,19140,0.957236,-0.235153,-0.082051,0.0162461,9827
9889,-3.2133e-12,1.64349e-38,-1.54015e-06,-3.27827e-12,1.64337e-38,-3.40903e-12,-1.06603e-13,0,0,-3.04206,-0.202353,0.264445,0,0,0,0,0,0.957944,-0.202353,276,-70,276,-70,420,-75,275,53,0.261799,-0.261799,0,-1.5,nan,0,0,0,0.945503,-0.23283,0,0,0,0,-0.082051,0.0162461,19140,0.957236,-0.235153,-0.082051,0.0162461,9827
9945,-3.2133e-12,1.64349e-38,-1.54015e-06,-3.27827e-12,1.64337e-38,0,-1.06603e-13,0,0,-3.00654,-0.195533,0.246112,0,0,0,0,0,0.993457,-0.195533,273,-70,273,-70,421,-77,275,53,0.261799,-0.261799,0,-1.5,nan,0,0,0,0.991258,-0.205921,0,0,0,0,-0.00650734,0.0593693,19832,0.991356,-0.206812,-0.00650734,0.0593693,9932
9973,-3.2133e-12,1.64349e-38,-1.54015e-06,-3.27827e-12,1.64337e-38,-3.40903e-12,-1.06603e-13,0,0,-3.01521,-0.201542,0.230757,0,0,0,0,0,0.98479,-0.201542,278,-70,278,-70,420,-75,274,61,0.261799,-0.261799,0,-1.5,nan,0,0,0,0.993524,-0.200826,0,0,0,0,0.000129863,0.065037,19856,0.993522,-0.201541,0.000129863,0.065037,9964
9985,-3.2133e-12,1.64349e-38,-1.54015e-06,-3.27827e-12,1.64337e-38,0,-1.06603e-13,0,0,-3.01521,-0.201542,0.230757,0,0,0,0,0,0.98479,-0.201542,278,-70,278,-70,420,-75,274,61,0.261799,-0.261799,0,-1.5,nan,0,0,0,0.993525,-0.200045,0,0,0,0,0.000129863,0.065037,19856,0.993522,-0.201541,0.000129863,0.065037,9964
10025,-3.2133e-12,1.64349e-38,-1.54015e-06,-3.27827e-12,1.64337e-38,-3.40903e-12,-1.06604e-13,0,0,-2.99394,-0.204216,0.215652,0,0,0,0,0,1.00606,-0.204216,276,-70,276,-70,423,-74,275,61,0.261799,-0.261799,0,-1.5,nan,0,0,0,0.998067,-0.202443,0,0,0,0,0.00722646,0.0549352,19980,0.997778,-0.20464,0.00722646,0.0549352,10008
10038,-3.2133e-12,1.64349e-38,-1.54015e-06,-3.27827e-12,1.64337e-38,0,-1.06604e-13,0,0,-2.99394,-0.204216,0.215652,0,0,0,0,0,1.00606,-0.204216,276,-70,276,-70,423,-74,275,61,0.261799,-0.261799,0,-1.5,nan,0,0,0,0.998161,-0.201729,0,0,0,0,0.00722646,0.0549352,19980,0.997778,-0.20464,0.00722646,0.0549352,10008
10068,-3.2133e-12,1.64349e-38,-1.54015e-06,-3.27827e-12,1.64337e-38,-3.40903e-12,-1.06604e-13,0,0,-2.98237,-0.213068,0.210941,0,0,0,0,0,1.01763,-0.213068,276,-70,276,-70,420,-75,277,61,0.261799,-0.261799,0,-1.5,nan,0,0,0,1.0042,-0.203137,0,0,0,0,0.0134107,0.0492233,19584,1.00407,-0.20363,0.0134107,0.0492233,10061
10079,-3.2133e-12,1.64349e-38,-1.54015e-06,-3.27827e-12,1.64337e-38,0,-1.06605e-13,0,0,-2.98237,-0.213068,0.210941,0,0,0,0,0,1.01763,-0.213068,276,-70,276,-70,420,-75,277,61,0.261799,-0.261799,0,-1.5,nan,0,0,0,1.00435,-0.202596,0,0,0,0,0.0134107,0.0492233,19584,1.00407,-0.20363,0.0134107,0.0492233,10061
10119,-3.2133e-12,1.64349e-38,-1.54015e-06,-3.27827e-12,1.64337e-38,-3.40903e-12,-1.06605e-13,0,0,-2.98237,-0.213068,0.210941,0,0,0,0,0,1.01763,-0.213068,276,-70,276,-70,420,-75,277,61,0.261799,-0.261799,0,-1.5,nan,0,0,0,1.00041,-0.199522,0,0,0,0,0.0089862,0.05181,19584,1.00005,-0.201594,0.0089862,0.05181,10096
10145,-3.2133e-12,1.64349e-38,-1.54015e-06,-3.27827e-12,1.64337e-38,0,-1.06605e-13,0,0,-3.02708,-0.220897,0.250631,0,0,0,0,0,0.972918,-0.220897,278,-70,278,-70,422,-76,278,56,0.261799,-0.261799,0,-1.5,nan,0,0,0,0.995183,-0.208954,0,0,0,0,0.00433773,0.0381674,19152,0.99507,-0.209946,0.00433773,0.0381674,10130
10171,-3.2133e-12,1.64349e-38,-1.54015e-06,-3.27827e-12,1.64337e-38,-3.40903e-12,-1.06605e-13,0,0,-3.02192,-0.216812,0.243678,0,0,0,0,0,0.978081,-0.216812,276,-70,276,-70,422,-74,278,56,0.261799,-0.261799,0,-1.5,nan,0,0,0,0.99297,-0.207087,0,0,0,0,-0.00625745,0.0379714,19126,0.993039,-0.207504,-0.00625745,0.0379714,10162
10185,-3.2133e-12,1.64349e-38,-1.54015e-06,-3.27827e-12,1.64337e-38,0,-1.06606e-13,0,0,-3.02192,-0.216812,0.243678,0,0,0,0,0,0.978081,-0.216812,276,-70,276,-70,422,-74,278,56,0.261799,-0.261799,0,-1.5,nan,0,0,0,0.992883,-0.206555,0,0,0,0,-0.00625745,0.0379714,19126,0.993039,-0.207504,-0.00625745,0.0379714,10162
10229,-3.2133e-12,1.64349e-38,-1.54015e-06,-3.27827e-12,1.64337e-38,-3.40903e-12,-1.06606e-13,0,0,-3.02708,-0.220897,0.250631,0,0,0,0,0,0.972918,-0.220897,278,-70,278,-70,422,-76,278,56,0.261799,-0.261799,0,-1.5,nan,0,0,0,0.97653,-0.207857,0,0,0,0,-0.0313984,0.0365423,19152,0.977628,-0.209136,-0.0313984,0.0365423,10196
10251,-3.2133e-12,1.64349e-38,-1.54015e-06,-3.27827e-12,1.64337e-38,0,-1.06606e-13,0,0,-3.0569,-0.233598,0.265004,0,0,0,0,0,0.943105,-0.233598,278,-70,278,-70,423,-74,282,56,0.261799,-0.261799,0,-1.5,nan,0,0,0,0.972382,-0.209109,0,0,0,0,-0.0427008,0.0342683,18995,0.972851,-0.209486,-0.0427008,0.0342683,10242
10308,-3.2133e-12,1.64349e-38,-1.54015e-06,-3.27827e-12,1.64337e-38,-3.40903e-12,-1.06606e-13,0,0,-3.01125,-0.219751,0.243254,0,0,0,0,0,0.988754,-0.219751,276,-69,276,-69,423,-76,278,54,0.261799,-0.261799,0,-1.5,nan,0,0,0,0.972938,-0.213202,0,0,0,0,-0.0362616,0.0273512,19551,0.974533,-0.214406,-0.0362616,0.0273512,10267
10333,-3.2133e-12,1.64349e-38,-1.54015e-06,-3.27827e-12,1.64337e-38,0,-1.06607e-13,0,0,-3.02007,-0.23443,0.24642,0,0,0,0,0,0.979931,-0.23443,279,-70,279,-70,423,-76,280,56,0.261799,-0.261799,0,-1.5,nan,0,0,0,0.978606,-0.213854,0,0,0,0,-0.0216163,0.0258965,19152,0.978909,-0.214216,-0.0216163,0.0258965,10321
10370,-3.2133e-12,1.64349e-38,-1.54015e-06,-3.27827e-12,1.64337e-38,-3.40903e-12,-1.06607e-13,0,0,-3.02007,-0.23443,0.24642,0,0,0,0,0,0.979931,-0.23443,279,-70,279,-70,423,-76,280,56,0.261799,-0.261799,0,-1.5,nan,0,0,0,0.977806,-0.212895,0,0,0,0,-0.0216163,0.0258965,19152,0.978909,-0.214216,-0.0216163,0.0258965,10321
10383,-3.2133e-12,1.64349e-38,-1.54015e-06,-3.27827e-12,1.64337e-38,0,-1.06607e-13,0,0,-3.02007,-0.23443,0.24642,0,0,0,0,0,0.979931,-0.23443,279,-70,279,-70,423,-76,280,56,0.261799,-0.261799,0,-1.5,nan,0,0,0,0.977525,-0.212559,0,0,0,0,-0.0216163,0.0258965,19152,0.978909,-0.214216,-0.0216163,0.0258965,10321
10405,-3.2133e-12,1.64349e-38,-1.54015e-06,-3.27827e-12,1.64337e-38,-3.40903e-12,-1.06607e-13,0,0,-3.02007,-0.23443,0.24642,0,0,0,0,0,0.979931,-0.23443,279,-70,279,-70,423,-76,280,56,0.261799,-0.261799,0,-1.5,nan,0,0,0,0.97705,-0.211989,0,0,0,0,-0.0216163,0.0258965,19152,0.978909,-0.214216,-0.0216163,0.0258965,10321
10452,-3.2133e-12,1.64349e-38,-1.54015e-06,-3.27827e-12,1.64337e-38,0,-1.06608e-13,0,0,-3.02007,-0.23443,0.24642,0,0,0,0,0,0.979931,-0.23443,279,-70,279,-70,423,-76,280,56,0.261799,-0.261799,0,-1.5,nan,0,0,0,0.976034,-0.210772,0,0,0,0,-0.0216163,0.0258965,19152,0.978909,-0.214216,-0.0216163,0.0258965,10321
10480,-3.2133e-12,1.64349e-38,-1.54015e-06,-3.27827e-12,1.64337e-38,-3.40903e-12,-1.06608e-13,0,0,-3.01185,-0.275119,0.204472,0,0,0,0,0,0.988147,-0.275119,285,-66,285,-66,429,-73,285,64,0.261799,-0.261799,0,-1.5,nan,0,0,0,0.97789,-0.21063,0,0,0,0,-0.0173843,0.026814,19728,0.978377,-0.211381,-0.0173843,0.026814,10464
10505,-3.2133e-12,1.64349e-38,-1.54015e-06,-3.27827e-12,1.64337e-38,0,-1.06608e-13,0,0,-3.01185,-0.275119,0.204472,0,0,0,0,0,0.988147,-0.275119,285,-66,285,-66,429,-73,285,64,0.261799,-0.261799,0,-1.5,nan,0,0,0,0.98705,-0.214669,0,0,0,0,-0.0057878,0.0200118,19728,0.987108,-0.214869,-0.0057878,0.0200118,10497
10518,-3.2133e-12,1.64349e-38,-1.54015e-06,-3.27827e-12,1.64337e-38,-3.40903e-12,-1.06609e-13,0,0,-3.01185,-0.275119,0.204472,0,0,0,0,0,0.988147,-0.275119,285,-66,285,-66,429,-73,285,64,0.261799,-0.261799,0,-1.5,nan,0,0,0,0.986969,-0.214389,0,0,0,0,-0.0057878,0.0200118,19728,0.987108,-0.214869,-0.0057878,0.0200118,10497
10564,-3.2133e-12,1.64349e-38,-1.54015e-06,-3.27827e-12,1.64337e-38,0,-1.06609e-13,0,0,-2.98006,-0.266069,0.186135,0,0,0,0,0,1.01994,-0.266069,282,-65,282,-65,428,-72,283,63,0.261799,-0.261799,0,-1.5,nan,0,0,0,0.986901,-0.213118,0,0,0,0,-0.0029819,0.0192529,19710,0.987011,-0.21383,-0.0029819,0.0192529,10529
10585,-3.2133e-12,1.64349e-38,-1.54015e-06,-3.27827e-12,1.64337e-38,-3.40903e-12,-1.06609e-13,0,0,-2.98006,-0.266069,0.186135,0,0,0,0,0,1.01994,-0.266069,282,-65,282,-65,428,-72,283,63,0.261799,-0.261799,0,-1.5,nan,0,0,0,0.986838,-0.212713,0,0,0,0,-0.0029819,0.0192529,19710,0.987011,-0.21383,-0.0029819,0.0192529,10529
10614,-3.2133e-12,1.64349e-38,-1.54015e-06,-3.27827e-12,1.64337e-38,0,-1.06609e-13,0,0,-3.01638,-0.268033,0.205184,0,0,0,0,0,0.983624,-0.268033,283,-67,283,-67,429,-71,285,64,0.261799,-0.261799,0,-1.5,nan,0,0,0,0.986776,-0.220913,0,0,0,0,-0.00513863,0.00371692,19710,0.986925,-0.221021,-0.00513863,0.00371692,10595
10648,-3.2133e-12,1.64349e-38,-1.54015e-06,-3.27827e-12,1.64337e-38,-3.40903e-12,-1.0661e-13,0,0,-3.01638,-0.268033,0.205184,0,0,0,0,0,0.983624,-0.268033,283,-67,283,-67,429,-71,285,64,0.261799,-0.261799,0,-1.5,nan,0,0,0,0.986601,-0.220787,0,0,0,0,-0.00513863,0.00371692,19710,0.986925,-0.221021,-0.00513863,0.00371692,10595
10686,-3.2133e-12,1.64349e-38,-1.54015e-06,-3.27827e-12,1.64337e-38,0,-1.0661e-13,0,0,-3.01638,-0.268033,0.205184,0,0,0,0,0,0.983624,-0.268033,283,-67,283,-67,429,-71,285,64,0.261799,-0.261799,0,-1.5,nan,0,0,0,0.986406,-0.220646,0,0,0,0,-0.00513863,0.00371692,19710,0.986925,-0.221021,-0.00513863,0.00371692,10595
10711,-3.2133e-12,1.64349e-38,-1.54015e-06,-3.27827e-12,1.64337e-38,-3.40903e-12,-1.0661e-13,0,0,-3.0095,-0.265582,0.22828,0,0,0,0,0,0.990497,-0.265582,282,-67,282,-67,429,-74,283,56,0.261799,-0.261799,0,-1.5,nan,0,0,0,0.984289,-0.234479,0,0,0,0,-0.0100924,-0.00494008,19404,0.98445,-0.2344,-0.0100924,-0.00494008,10697
10732,-3.2133e-12,1.64349e-38,-1.54015e-06,-3.27827e-12,1.64337e-38,0,-1.0661e-13,0,0,-3.0095,-0.265582,0.22828,0,0,0,0,0,0.990497,-0.265582,282,-67,282,-67,429,-74,283,56,0.261799,-0.261799,0,-1.5,nan,0,0,0,0.984077,-0.234583,0,0,0,0,-0.0100924,-0.00494008,19404,0.98445,-0.2344,-0.0100924,-0.00494008,10697
10749,-3.2133e-12,1.64349e-38,-1.54015e-06,-3.27827e-12,1.64337e-38,-3.40903e-12,-1.06611e-13,0,0,-3.0095,-0.265582,0.22828,0,0,0,0,0,0.990497,-0.265582,282,-67,282,-67,429,-74,283,56,0.261799,-0.261799,0,-1.5,nan,0,0,0,0.983915,-0.234662,0,0,0,0,-0.0100924,-0.00494008,19404,0.98445,-0.2344,-0.0100924,-0.00494008,10697
10781,-3.2133e-12,1.64349e-38,-1.54015e-06,-3.27827e-12,1.64337e-38,0,-1.06611e-13,0,0,-3.02535,-0.263734,0.235941,0,0,0,0,0,0.974651,-0.263734,282,-67,282,-67,429,-73,283,54,0.261799,-0.261799,0,-1.5,nan,0,0,0,0.986246,-0.23971,0,0,0,0,-0.00435843,-0.00879666,19551,0.986329,-0.239543,-0.00435843,-0.00879666,10764
10799,-3.2133e-12,1.64349e-38,-1.54015e-06,-3.27827e-12,1.64337e-38,-3.40903e-12,-1.06611e-13,0,0,-3.02535,-0.263734,0.235941,0,0,0,0,0,0.974651,-0.263734,282,-67,282,-67,429,-73,283,54,0.261799,-0.261799,0,-1.5,nan,0,0,0,0.986168,-0.239868,0,0,0,0,-0.00435843,-0.00879666,19551,0.986329,-0.239543,-0.00435843,-0.00879666,10764
10818,-3.2133e-12,1.64349e-38,-1.54015e-06,-3.27827e-12,1.64337e-38,0,-1.06612e-13,0,0,-3.02535,-0.263734,0.235941,0,0,0,0,0,0.974651,-0.263734,282,-67,282,-67,429,-73,283,54,0.261799,-0.261799,0,-1.5,nan,0,0,0,0.986085,-0.240035,0,0,0,0,-0.00435843,-0.00879666,19551,0.986329,-0.239543,-0.00435843,-0.00879666,10764
10878,-3.2133e-12,1.64349e-38,-1.54015e-06,-3.27827e-12,1.64337e-38,-3.40903e-12,-1.06612e-13,0,0,-3.01923,-0.267217,0.232776,0,0,0,0,0,0.980769,-0.267217,282,-67,282,-67,428,-72,283,54,0.261799,-0.261799,0,-1.5,nan,0,0,0,0.981044,-0.238537,0,0,0,0,-0.0119631,-0.00739393,19126,0.981762,-0.238093,-0.0119631,-0.00739393,10861
10918,-3.2133e-12,1.64349e-38,-1.54015e-06,-3.27827e-12,1.64337e-38,0,-1.06612e-13,0,0,-3.01923,-0.267217,0.232776,0,0,0,0,0,0.980769,-0.267217,282,-67,282,-67,428,-72,283,54,0.261799,-0.261799,0,-1.5,nan,0,0,0,0.980578,-0.238825,0,0,0,0,-0.0119631,-0.00739393,19126,0.981762,-0.238093,-0.0119631,-0.00739393,10861
10956,-3.2133e-12,1.64349e-38,-1.54015e-06,-3.27827e-12,1.64337e-38,-3.40903e-12,-1.06612e-13,0,0,-3.01923,-0.267217,0.232776,0,0,0,0,0,0.980769,-0.267217,282,-67,282,-67,428,-72,283,54,0.261799,-0.261799,0,-1.5,nan,0,0,0,0.980111,-0.239113,0,0,0,0,-0.0119631,-0.00739393,19126,0.981762,-0.238093,-0.0119631,-0.00739393,10861
10982,-3.2133e-12,1.64349e-38,-1.54015e-06,-3.27827e-12,1.64337e-38,0,-1.06613e-13,0,0,-3.01384,-0.264535,0.230982,0,0,0,0,0,0.986164,-0.264535,282,-67,282,-67,428,-74,283,54,0.261799,-0.261799,0,-1.5,nan,0,0,0,0.986436,-0.266016,0,0,0,0,-0.00339054,-0.0292462,19564,0.986524,-0.265255,-0.00339054,-0.0292462,10965
11000,-3.2133e-12,1.64349e-38,-1.54015e-06,-3.27827e-12,1.64337e-38,-3.40903e-12,-1.06613e-13,0,0,-3.01384,-0.264535,0.230982,0,0,0,0,0,0.986164,-0.264535,282,-67,282,-67,428,-74,283,54,0.261799,-0.261799,0,-1.5,nan,0,0,0,0.986375,-0.266542,0,0,0,0,-0.00339054,-0.0292462,19564,0.986524,-0.265255,-0.00339054,-0.0292462,10965
11017,-3.2133e-12,1.64349e-38,-1.54015e-06,-3.27827e-12,1.64337e-38,0,-1.06613e-13,0,0,-3.01384,-0.264535,0.230982,0,0,0,0,0,0.986164,-0.264535,282,-67,282,-67,428,-74,283,54,0.261799,-0.261799,0,-1.5,nan,0,0,0,0.986321,-0.26701,0,0,0,0,-0.00339054,-0.0292462,19564,0.986524,-0.265255,-0.00339054,-0.0292462,10965
11031,-3.2133e-12,1.64349e-38,-1.54015e-06,-3.27827e-12,1.64337e-38,-3.40903e-12,-1.06613e-13,0,0,-3.01384,-0.264535,0.230982,0,0,0,0,0,0.986164,-0.264535,282,-67,282,-67,428,-74,283,54,0.261799,-0.261799,0,-1.5,nan,0,0,0,0.98627,-0.267449,0,0,0,0,-0.00339054,-0.0292462,19564,0.986524,-0.265255,-0.00339054,-0.0292462,10965
11047,-3.2133e-12,1.64349e-38,-1.54015e-06,-3.27827e-12,1.64337e-38,0,-1.06614e-13,0,0,-3.01384,-0.264535,0.230982,0,0,0,0,0,0.986164,-0.264535,282,-67,282,-67,428,-74,283,54,0.261799,-0.261799,0,-1.5,nan,0,0,0,0.986215,-0.267916,0,0,0,0,-0.00339054,-0.0292462,19564,0.986524,-0.265255,-0.00339054,-0.0292462,10965
11080,-3.2133e-12,1.64349e-38,-1.54015e-06,-3.27827e-12,1.64337e-38,-3.40903e-12,-1.06614e-13,0,0,-3.01923,-0.267217,0.232776,0,0,0,0,0,0.980769,-0.267217,282,-67,282,-67,428,-72,283,54,0.261799,-0.261799,0,-1.5,nan,0,0,0,0.981279,-0.26762,0,0,0,0,-0.0061779,-0.0244561,19126,0.981384,-0.267204,-0.0061779,-0.0244561,11065
11098,-3.2133e-12,1.64349e-38,-1.54015e-06,-3.27827e-12,1.64337e-38,0,-1.06614e-13,0,0,-3.01923,-0.267217,0.232776,0,0,0,0,0,0.980769,-0.267217,282,-67,282,-67,428,-72,283,54,0.261799,-0.261799,0,-1.5,nan,0,0,0,0.981168,-0.26806,0,0,0,0,-0.0061779,-0.0244561,19126,0.981384,-0.267204,-0.0061779,-0.0244561,11065
11119,-3.2133e-12,1.64349e-38,-1.54015e-06,-3.27827e-12,1.64337e-38,-3.40903e-12,-1.06615e-13,0,0,-3.01923,-0.267217,0.232776,0,0,0,0,0,0.980769,-0.267217,282,-67,282,-67,428,-72,283,54,0.261799,-0.261799,0,-1.5,nan,0,0,0,0.981044,-0.268549,0,0,0,0,-0.0061779,-0.0244561,19126,0.981384,-0.267204,-0.0061779,-0.0244561,11065
11253,-3.2133e-12,1.64349e-38,-1.54015e-06,-3.27827e-12,1.64337e-38,0,-1.06615e-13,0,0,-3.02192,-0.26561,0.232188,0,0,0,0,0,0.978084,-0.26561,282,-67,282,-67,428,-72,283,54,0.261799,-0.261799,0,-1.5,nan,0,0,0,0.981061,-0.271344,0,0,0,0,-0.00622448,-0.0297224,19272,0.981845,-0.267599,-0.00622448,-0.0297224,11129
11275,-3.2133e-12,1.64349e-38,-1.54015e-06,-3.27827e-12,1.64337e-38,-3.40903e-12,-1.06615e-13,0,0,-3.02192,-0.26561,0.232188,0,0,0,0,0,0.978084,-0.26561,282,-67,282,-67,428,-72,283,54,0.261799,-0.261799,0,-1.5,nan,0,0,0,0.98093,-0.271968,0,0,0,0,-0.00622448,-0.0297224,19272,0.981845,-0.267599,-0.00622448,-0.0297224,11129
11296,-3.2133e-12,1.64349e-38,-1.54015e-06,-3.27827e-12,1.64337e-38,0,-1.06615e-13,0,0,-3.02192,-0.26561,0.232188,0,0,0,0,0,0.978084,-0.26561,282,-67,282,-67,428,-72,283,54,0.261799,-0.261799,0,-1.5,nan,0,0,0,0.980793,-0.272622,0,0,0,0,-0.00622448,-0.0297224,19272,0.981845,-0.267599,-0.00622448,-0.0297224,11129
11313,-3.2133e-12,1.64349e-38,-1.54015e-06,-3.27827e-12,1.64337e-38,-3.40903e-12,-1.06616e-13,0,0,-3.02192,-0.26561,0.232188,0,0,0,0,0,0.978084,-0.26561,282,-67,282,-67,428,-72,283,54,0.261799,-0.261799,0,-1.5,nan,0,0,0,0.980687,-0.273127,0,0,0,0,-0.00622448,-0.0297224,19272,0.981845,-0.267599,-0.00622448,-0.0297224,11129
11455,-3.2133e-12,1.64349e-38,-1.54015e-06,-3.27827e-12,1.64337e-38,0,-1.06616e-13,0,0,-3.01923,-0.267217,0.232776,0,0,0,0,0,0.980769,-0.267217,282,-67,282,-67,428,-72,283,54,0.261799,-0.261799,0,-1.5,nan,0,0,0,0.977585,-0.285173,0,0,0,0,-0.0084725,-0.043965,19126,0.978653,-0.279634,-0.0084725,-0.043965,11331
11491,-3.2133e-12,1.64349e-38,-1.54015e-06,-3.27827e-12,1.64337e-38,-3.40903e-12,-1.06616e-13,0,0,-3.01923,-0.267217,0.232776,0,0,0,0,0,0.980769,-0.267217,282,-67,282,-67,428,-72,283,54,0.261799,-0.261799,0,-1.5,nan,0,0,0,0.97728,-0.286756,0,0,0,0,-0.0084725,-0.043965,19126,0.978653,-0.279634,-0.0084725,-0.043965,11331
11508,-3.2133e-12,1.64349e-38,-1.54015e-06,-3.27827e-12,1.64337e-38,0,-1.06616e-13,0,0,-3.01923,-0.267217,0.232776,0,0,0,0,0,0.980769,-0.267217,282,-67,282,-67,428,-72,283,54,0.261799,-0.261799,0,-1.5,nan,0,0,0,0.977136,-0.287503,0,0,0,0,-0.0084725,-0.043965,19126,0.978653,-0.279634,-0.0084725,-0.043965,11331
11545,-3.2133e-12,1.64349e-38,-1.54015e-06,-3.27827e-12,1.64337e-38,-3.40903e-12,-1.06617e-13,0,0,-3.01923,-0.267217,0.232776,0,0,0,0,0,0.980769,-0.267217,282,-67,282,-67,428,-72,283,54,0.261799,-0.261799,0,-1.5,nan,0,0,0,0.976823,-0.28913,0,0,0,0,-0.0084725,-0.043965,19126,0.978653,-0.279634,-0.0084725,-0.043965,11331
11559,-3.2133e-12,1.64349e-38,-1.54015e-06,-3.27827e-12,1.64337e-38,0,-1.06617e-13,0,0,-3.01923,-0.267217,0.232776,0,0,0,0,0,0.980769,-0.267217,282,-67,282,-67,428,-72,283,54,0.261799,-0.261799,0,-1.5,nan,0,0,0,0.976704,-0.289745,0,0,0,0,-0.0084725,-0.043965,19126,0.978653,-0.279634,-0.0084725,-0.043965,11331
11727,-3.2133e-12,1.64349e-38,-1.54015e-06,-3.27827e-12,1.64337e-38,-3.40903e-12,-1.06617e-13,0,0,-3.01122,-0.266146,0.231607,0,0,0,0,0,0.988776,-0.266146,282,-67,282,-67,428,-74,283,54,0.261799,-0.261799,0,-1.5,nan,0,0,0,0.977037,-0.304131,0,0,0,0,-0.00798877,-0.0529212,19418,0.97838,-0.295241,-0.00798877,-0.0529212,11594
11769,-3.2133e-12,1.64349e-38,-1.54015e-06,-3.27827e-12,1.64337e-38,0,-1.06618e-13,0,0,-3.01122,-0.266146,0.231607,0,0,0,0,0,0.988776,-0.266146,282,-67,282,-67,428,-74,283,54,0.261799,-0.261799,0,-1.5,nan,0,0,0,0.976702,-0.306354,0,0,0,0,-0.00798877,-0.0529212,19418,0.97838,-0.295241,-0.00798877,-0.0529212,11594
11904,-3.2133e-12,1.64349e-38,-1.54015e-06,-3.27827e-12,1.64337e-38,-3.40903e-12,-1.06618e-13,0,0,-3.02535,-0.263734,0.235941,0,0,0,0,0,0.974651,-0.263734,282,-67,282,-67,429,-73,283,54,0.261799,-0.261799,0,-1.5,nan,0,0,0,0.973737,-0.312317,0,0,0,0,-0.0083741,-0.05374,19551,0.974783,-0.3056,-0.0083741,-0.05374,11782
11916,-3.2133e-12,1.64349e-38,-1.54015e-06,-3.27827e-12,1.64337e-38,0,-1.06618e-13,0,0,-3.02535,-0.263734,0.235941,0,0,0,0,0,0.974651,-0.263734,282,-67,282,-67,429,-73,283,54,0.261799,-0.261799,0,-1.5,nan,0,0,0,0.973636,-0.312962,0,0,0,0,-0.0083741,-0.05374,19551,0.974783,-0.3056,-0.0083741,-0.05374,11782
11937,-3.2133e-12,1.64349e-38,-1.54015e-06,-3.27827e-12,1.64337e-38,-3.40903e-12,-1.06618e-13,0,0,-3.02535,-0.263734,0.235941,0,0,0,0,0,0.974651,-0.263734,282,-67,282,-67,429,-73,283,54,0.261799,-0.261799,0,-1.5,nan,0,0,0,0.97346,-0.314091,0,0,0,0,-0.0083741,-0.05374,19551,0.974783,-0.3056,-0.0083741,-0.05374,11782
11970,-3.2133e-12,1.64349e-38,-1.54015e-06,-3.27827e-12,1.64337e-38,0,-1.06619e-13,0,0,-3.02535,-0.263734,0.235941,0,0,0,0,0,0.974651,-0.263734,282,-67,282,-67,429,-73,283,54,0.261799,-0.261799,0,-1.5,nan,0,0,0,0.973184,-0.315864,0,0,0,0,-0.0083741,-0.05374,19551,0.974783,-0.3056,-0.0083741,-0.05374,11782
11991,-3.2133e-12,1.64349e-38,-1.54015e-06,-3.27827e-12,1.64337e-38,-3.40903e-12,-1.06619e-13,0,0,-3.02535,-0.263734,0.235941,0,0,0,0,0,0.974651,-0.263734,282,-67,282,-67,429,-73,283,54,0.261799,-0.261799,0,-1.5,nan,0,0,0,0.973008,-0.316993,0,0,0,0,-0.0083741,-0.05374,19551,0.974783,-0.3056,-0.0083741,-0.05374,11782
12011,-3.2133e-12,1.64349e-38,-1.54015e-06,-3.27827e-12,1.64337e-38,0,-1.06619e-13,0,0,-3.02535,-0.263734,0.235941,0,0,0,0,0,0.974651,-0.263734,282,-67,282,-67,429,-73,283,54,0.261799,-0.261799,0,-1.5,nan,0,0,0,0.972841,-0.318067,0,0,0,0,-0.0083741,-0.05374,19551,0.974783,-0.3056,-0.0083741,-0.05374,11782
12029,-3.2133e-12,1.64349e-38,-1.54015e-06,-3.27827e-12,1.64337e-38,-3.40903e-12,-1.06619e-13,0,0,-3.02535,-0.263734,0.235941,0,0,0,0,0,0.974651,-0.263734,282,-67,282,-67,429,-73,283,54,0.261799,-0.261799,0,-1.5,nan,0,0,0,0.97269,-0.319035,0,0,0,0,-0.0083741,-0.05374,19551,0.974783,-0.3056,-0.0083741,-0.05374,11782
12071,-3.2133e-12,1.64349e-38,-1.54015e-06,-3.27827e-12,1.64337e-38,0,-1.0662e-13,0,0,-3.02535,-0.263734,0.235941,0,0,0,0,0,0.974651,-0.263734,282,-67,282,-67,429,-73,283,54,0.261799,-0.261799,0,-1.5,nan,0,0,0,0.972338,-0.321292,0,0,0,0,-0.0083741,-0.05374,19551,0.974783,-0.3056,-0.0083741,-0.05374,11782
12088,-3.2133e-12,1.64349e-38,-1.54015e-06,-3.27827e-12,1.64337e-38,-3.40903e-12,-1.0662e-13,0,0,-3.02535,-0.263734,0.235941,0,0,0,0,0,0.974651,-0.263734,282,-67,282,-67,429,-73,283,54,0.261799,-0.261799,0,-1.5,nan,0,0,0,0.972204,-0.322151,0,0,0,0,-0.0083741,-0.05374,19551,0.974783,-0.3056,-0.0083741,-0.05374,11782
12106,-3.2133e-12,1.64349e-38,-1.54015e-06,-3.27827e-12,1.64337e-38,0,-1.0662e-13,0,0,-3.02535,-0.263734,0.235941,0,0,0,0,0,0.974651,-0.263734,282,-67,282,-67,429,-73,283,54,0.261799,-0.261799,0,-1.5,nan,0,0,0,0.972045,-0.323173,0,0,0,0,-0.0083741,-0.05374,19551,0.974783,-0.3056,-0.0083741,-0.05374,11782
12126,-3.2133e-12,1.64349e-38,-1.54015e-06,-3.27827e-12,1.64337e-38,-3.40903e-12,-1.0662e-13,0,0,-3.02535,-0.263734,0.235941,0,0,0,0,0,0.974651,-0.263734,282,-67,282,-67,429,-73,283,54,0.261799,-0.261799,0,-1.5,nan,0,0,0,0.971878,-0.324247,0,0,0,0,-0.0083741,-0.05374,19551,0.974783,-0.3056,-0.0083741,-0.05374,11782
12145,-3.2133e-12,1.64349e-38,-1.54015e-06,-3.27827e-12,1.64337e-38,0,-1.06621e-13,0,0,-3.02535,-0.263734,0.235941,0,0,0,0,0,0.974651,-0.263734,282,-67,282,-67,429,-73,283,54,0.261799,-0.261799,0,-1.5,nan,0,0,0,0.971718,-0.325268,0,0,0,0,-0.0083741,-0.05374,19551,0.974783,-0.3056,-0.0083741,-0.05374,11782
12289,-3.2133e-12,1.64349e-38,-1.54015e-06,-3.27827e-12,1.64337e-38,-3.40903e-12,-1.06621e-13,0,0,-3.03243,-0.266358,0.240238,0,0,0,0,0,0.967567,-0.266358,282,-67,282,-67,429,-73,284,54,0.261799,-0.261799,0,-1.5,nan,0,0,0,0.969708,-0.266874,0,0,0,0,-0.00896143,-0.000569795,19551,0.970864,-0.2668,-0.00896143,-0.000569795,12162
12313,-3.2133e-12,1.64349e-38,-1.54015e-06,-3.27827e-12,1.64337e-38,0,-1.06621e-13,0,0,-3.03243,-0.266358,0.240238,0,0,0,0,0,0.967567,-0.266358,282,-67,282,-67,429,-73,284,54,0.261799,-0.261799,0,-1.5,nan,0,0,0,0.969493,-0.266888,0,0,0,0,-0.00896143,-0.000569795,19551,0.970864,-0.2668,-0.00896143,-0.000569795,12162
12333,-3.2133e-12,1.64349e-38,-1.54015e-06,-3.27827e-12,1.64337e-38,-3.40903e-12,-1.06622e-13,0,0,-3.03243,-0.266358,0.240238,0,0,0,0,0,0.967567,-0.266358,282,-67,282,-67,429,-73,284,54,0.261799,-0.261799,0,-1.5,nan,0,0,0,0.969314,-0.266899,0,0,0,0,-0.00896143,-0.000569795,19551,0.970864,-0.2668,-0.00896143,-0.000569795,12162
12350,-3.2133e-12,1.64349e-38,-1.54015e-06,-3.27827e-12,1.64337e-38,0,-1.06622e-13,0,0,-3.03243,-0.266358,0.240238,0,0,0,0,0,0.967567,-0.266358,282,-67,282,-67,429,-73,284,54,0.261799,-0.261799,0,-1.5,nan,0,0,0,0.969161,-0.266909,0,0,0,0,-0.00896143,-0.000569795,19551,0.970864,-0.2668,-0.00896143,-0.000569795,12162
12367,-3.2133e-12,1.64349e-38,-1.54015e-06,-3.27827e-12,1.64337e-38,-3.40903e-12,-1.06622e-13,0,0,-3.03243,-0.266358,0.240238,0,0,0,0,0,0.967567,-0.266358,282,-67,282,-67,429,-73,284,54,0.261799,-0.261799,0,-1.5,nan,0,0,0,0.969009,-0.266918,0,0,0,0,-0.00896143,-0.000569795,19551,0.970864,-0.2668,-0.00896143,-0.000569795,12162
12391,-3.2133e-12,1.64349e-38,-1.54015e-06,-3.27827e-12,1.64337e-38,0,-1.06622e-13,0,0,-3.03243,-0.266358,0.240238,0,0,0,0,0,0.967567,-0.266358,282,-67,282,-67,429,-73,284,54,0.261799,-0.261799,0,-1.5,nan,0,0,0,0.968794,-0.266932,0,0,0,0,-0.00896143,-0.000569795,19551,0.970864,-0.2668,-0.00896143,-0.000569795,12162
12408,-3.2133e-12,1.64349e-38,-1.54015e-06,-3.27827e-12,1.64337e-38,-3.40903e-12,-1.06623e-13,0,0,-3.03243,-0.266358,0.240238,0,0,0,0,0,0.967567,-0.266358,282,-67,282,-67,429,-73,284,54,0.261799,-0.261799,0,-1.5,nan,0,0,0,0.968642,-0.266942,0,0,0,0,-0.00896143,-0.000569795,19551,0.970864,-0.2668,-0.00896143,-0.000569795,12162
12425,-3.2133e-12,1.64349e-38,-1.54015e-06,-3.27827e-12,1.64337e-38,0,-1.06623e-13,0,0,-3.03243,-0.266358,0.240238,0,0,0,0,0,0.967567,-0.266358,282,-67,282,-67,429,-73,284,54,0.261799,-0.261799,0,-1.5,nan,0,0,0,0.968489,-0.266951,0,0,0,0,-0.00896143,-0.000569795,19551,0.970864,-0.2668,-0.00896143,-0.000569795,12162
12447,-3.2133e-12,1.64349e-38,-1.54015e-06,-3.27827e-12,1.64337e-38,-3.40903e-12,-1.06623e-13,0,0,-3.03243,-0.266358,0.240238,0,0,0,0,0,0.967567,-0.266358,282,-67,282,-67,429,-73,284,54,0.261799,-0.261799,0,-1.5,nan,0,0,0,0.968292,-0.266964,0,0,0,0,-0.00896143,-0.000569795,19551,0.970864,-0.2668,-0.00896143,-0.000569795,12162
12466,-3.2133e-12,1.64349e-38,-1.54015e-06,-3.27827e-12,1.64337e-38,0,-1.06623e-13,0,0,-3.03243,-0.266358,0.240238,0,0,0,0,0,0.967567,-0.266358,282,-67,282,-67,429,-73,284,54,0.261799,-0.261799,0,-1.5,nan,0,0,0,0.968131,-0.266974,0,0,0,0,-0.00896143,-0.000569795,19551,0.970864,-0.2668,-0.00896143,-0.000569795,12162
12479,-3.2133e-12,1.64349e-38,-1.54015e-06,-3.27827e-12,1.64337e-38,-3.40903e-12,-1.06624e-13,0,0,-3.03243,-0.266358,0.240238,0,0,0,0,0,0.967567,-0.266358,282,-67,282,-67,429,-73,284,54,0.261799,-0.261799,0,-1.5,nan,0,0,0,0.968005,-0.266982,0,0,0,0,-0.00896143,-0.000569795,19551,0.970864,-0.2668,-0.00896143,-0.000569795,12162
12498,-3.2133e-12,1.64349e-38,-1.54015e-06,-3.27827e-12,1.64337e-38,0,-1.06624e-13,0,0,-3.03243,-0.266358,0.240238,0,0,0,0,0,0.967567,-0.266358,282,-67,282,-67,429,-73,284,54,0.261799,-0.261799,0,-1.5,nan,0,0,0,0.967844,-0.266992,0,0,0,0,-0.00896143,-0.000569795,19551,0.970864,-0.2668,-0.00896143,-0.000569795,12162
12545,-3.2133e-12,1.64349e-38,-1.54015e-06,-3.27827e-12,1.64337e-38,-3.40903e-12,-1.06624e-13,0,0,-3.03243,-0.266358,0.240238,0,0,0,0,0,0.967567,-0.266358,282,-67,282,-67,429,-73,284,54,0.261799,-0.261799,0,-1.5,nan,0,0,0,0.967414,-0.26702,0,0,0,0,-0.00896143,-0.000569795,19551,0.970864,-0.2668,-0.00896143,-0.000569795,12162
12700,-3.2133e-12,1.64349e-38,-1.54015e-06,-3.27827e-12,1.64337e-38,0,-1.06625e-13,0,0,-3.01923,-0.267217,0.232776,0,0,0,0,0,0.980769,-0.267217,282,-67,282,-67,428,-72,283,54,0.261799,-0.261799,0,-1.5,nan,0,0,0,0.979135,-0.266811,0,0,0,0,-0.00114645,-0.000599191,19126,0.979313,-0.266718,-0.00114645,-0.000599191,12576
12736,-3.2133e-12,1.64349e-38,-1.54015e-06,-3.27827e-12,1.64337e-38,-3.40903e-12,-1.06625e-13,0,0,-3.01923,-0.267217,0.232776,0,0,0,0,0,0.980769,-0.267217,282,-67,282,-67,428,-72,283,54,0.261799,-0.261799,0,-1.5,nan,0,0,0,0.979094,-0.266832,0,0,0,0,-0.00114645,-0.000599191,19126,0.979313,-0.266718,-0.00114645,-0.000599191,12576
12753,-3.2133e-12,1.64349e-38,-1.54015e-06,-3.27827e-12,1.64337e-38,0,-1.06625e-13,0,0,-3.01923,-0.267217,0.232776,0,0,0,0,0,0.980769,-0.267217,282,-67,282,-67,428,-72,283,54,0.261799,-0.261799,0,-1.5,nan,0,0,0,0.979074,-0.266843,0,0,0,0,-0.00114645,-0.000599191,19126,0.979313,-0.266718,-0.00114645,-0.000599191,12576
12774,-3.2133e-12,1.64349e-38,-1.54015e-06,-3.27827e-12,1.64337e-38,-3.40903e-12,-1.06625e-13,0,0,-3.01923,-0.267217,0.232776,0,0,0,0,0,0.980769,-0.267217,282,-67,282,-67,428,-72,283,54,0.261799,-0.261799,0,-1.5,nan,0,0,0,0.97905,-0.266855,0,0,0,0,-0.00114645,-0.000599191,19126,0.979313,-0.266718,-0.00114645,-0.000599191,12576
12814,-3.2133e-12,1.64349e-38,-1.54015e-06,-3.27827e-12,1.64337e-38,0,-1.06626e-13,0,0,-3.01923,-0.267217,0.232776,0,0,0,0,0,0.980769,-0.267217,282,-67,282,-67,428,-72,283,54,0.261799,-0.261799,0,-1.5,nan,0,0,0,0.979005,-0.266879,0,0,0,0,-0.00114645,-0.000599191,19126,0.979313,-0.266718,-0.00114645,-0.000599191,12576
12834,-3.2133e-12,1.64349e-38,-1.54015e-06,-3.27827e-12,1.64337e-38,-3.40903e-12,-1.06626e-13,0,0,-3.01923,-0.267217,0.232776,0,0,0,0,0,0.980769,-0.267217,282,-67,282,-67,428,-72,283,54,0.261799,-0.261799,0,-1.5,nan,0,0,0,0.978982,-0.266891,0,0,0,0,-0.00114645,-0.000599191,19126,0.979313,-0.266718,-0.00114645,-0.000599191,12576
12855,-3.2133e-12,1.64349e-38,-1.54015e-06,-3.27827e-12,1.64337e-38,0,-1.06626e-13,0,0,-3.01923,-0.267217,0.232776,0,0,0,0,0,0.980769,-0.267217,282,-67,282,-67,428,-72,283,54,0.261799,-0.261799,0,-1.5,nan,0,0,0,0.978959,-0.266903,0,0,0,0,-0.00114645,-0.000599191,19126,0.979313,-0.266718,-0.00114645,-0.000599191,12576
12872,-3.2133e-12,1.64349e-38,-1.54015e-06,-3.27827e-12,1.64337e-38,-3.40903e-12,-1.06626e-13,0,0,-3.01923,-0.267217,0.232776,0,0,0,0,0,0.980769,-0.267217,282,-67,282,-67,428,-72,283,54,0.261799,-0.261799,0,-1.5,nan,0,0,0,0.978938,-0.266914,0,0,0,0,-0.00114645,-0.000599191,19126,0.979313,-0.266718,-0.00114645,-0.000599191,12576
12892,-3.2133e-12,1.64349e-38,-1.54015e-06,-3.27827e-12,1.64337e-38,0,-1.06627e-13,0,0,-3.01923,-0.267217,0.232776,0,0,0,0,0,0.980769,-0.267217,282,-67,282,-67,428,-72,283,54,0.261799,-0.261799,0,-1.5,nan,0,0,0,0.978915,-0.266926,0,0,0,0,-0.00114645,-0.000599191,19126,0.979313,-0.266718,-0.00114645,-0.000599191,12576
13030,-3.2133e-12,1.64349e-38,-1.54015e-06,-3.27827e-12,1.64337e-38,-3.40903e-12,-1.06627e-13,0,0,-3.05872,-0.2829,0.246449,0,0,0,0,0,0.941285,-0.2829,286,-66,286,-66,429,-71,285,56,0.261799,-0.261799,0,-1.5,nan,0,0,0,0.954522,-0.267771,0,0,0,0,-0.0151747,-0.00112566,18864,0.956601,-0.267617,-0.0151747,-0.00112566,12902
13054,-3.2133e-12,1.64349e-38,-1.54015e-06,-3.27827e-12,1.64337e-38,0,-1.06627e-13,0,0,-3.02433,-0.268838,0.226378,0,0,0,0,0,0.97567,-0.268838,283,-67,283,-67,429,-74,285,59,0.261799,-0.261799,0,-1.5,nan,0,0,0,0.974853,-0.268841,0,0,0,0,-0.00216474,-0.00172399,19564,0.97489,-0.268811,-0.00216474,-0.00172399,13040
13094,-3.2133e-12,1.64349e-38,-1.54015e-06,-3.27827e-12,1.64337e-38,-3.40903e-12,-1.06628e-13,0,0,-3.02433,-0.268838,0.226378,0,0,0,0,0,0.97567,-0.268838,283,-67,283,-67,429,-74,285,59,0.261799,-0.261799,0,-1.5,nan,0,0,0,0.974766,-0.26891,0,0,0,0,-0.00216474,-0.00172399,19564,0.97489,-0.268811,-0.00216474,-0.00172399,13040
13110,-3.2133e-12,1.64349e-38,-1.54015e-06,-3.27827e-12,1.64337e-38,0,-1.06628e-13,0,0,-3.02433,-0.268838,0.226378,0,0,0,0,0,0.97567,-0.268838,283,-67,283,-67,429,-74,285,59,0.261799,-0.261799,0,-1.5,nan,0,0,0,0.974732,-0.268937,0,0,0,0,-0.00216474,-0.00172399,19564,0.97489,-0.268811,-0.00216474,-0.00172399,13040
13127,-3.2133e-12,1.64349e-38,-1.54015e-06,-3.27827e-12,1.64337e-38,-3.40903e-12,-1.06632e-13,0,0,-3.02433,-0.268838,0.226378,0,0,0,0,0,0.97567,-0.268838,283,-67,283,-67,429,-74,285,59,0.261799,-0.261799,0,-1.5,nan,0,0,0,0.974697,-0.268965,0,0,0,0,-0.00216474,-0.00172399,19564,0.97489,-0.268811,-0.00216474,-0.00172399,13040
13148,-3.2133e-12,1.64349e-38,-1.54015e-06,-3.27827e-12,1.64337e-38,0,-1.06632e-13,0,0,-3.02433,-0.268838,0.226378,0,0,0,0,0,0.97567,-0.268838,283,-67,283,-67,429,-74,285,59,0.261799,-0.261799,0,-1.5,nan,0,0,0,0.974652,-0.269001,0,0,0,0,-0.00216474,-0.00172399,19564,0.97489,-0.268811,-0.00216474,-0.00172399,13040
13288,-3.2133e-12,1.64349e-38,-1.54015e-06,-3.27827e-12,1.64337e-38,-3.40903e-12,-1.06632e-13,0,0,-3.04048,-0.273227,0.237277,0,0,0,0,0,0.95952,-0.273227,283,-67,283,-67,428,-71,285,56,0.261799,-0.261799,0,-1.5,nan,0,0,0,0.958153,-0.274084,0,0,0,0,-0.0109405,-0.0068557,18995,0.95952,-0.273227,-0.0109405,-0.0068557,13165
13299,-3.2133e-12,1.64349e-38,-1.54015e-06,-3.27827e-12,1.64337e-38,0,-1.06633e-13,0,0,-3.04048,-0.273227,0.237277,0,0,0,0,0,0.95952,-0.273227,283,-67,283,-67,428,-71,285,56,0.261799,-0.261799,0,-1.5,nan,0,0,0,0.958022,-0.274167,0,0,0,0,-0.0109405,-0.0068557,18995,0.95952,-0.273227,-0.0109405,-0.0068557,13165
13311,-3.2133e-12,1.64349e-38,-1.54015e-06,-3.27827e-12,1.64337e-38,-3.40903e-12,-1.06633e-13,0,0,-3.04048,-0.273227,0.237277,0,0,0,0,0,0.95952,-0.273227,283,-67,283,-67,428,-71,285,56,0.261799,-0.261799,0,-1.5,nan,0,0,0,0.95789,-0.274249,0,0,0,0,-0.0109405,-0.0068557,18995,0.95952,-0.273227,-0.0109405,-0.0068557,13165
13330,-3.2133e-12,1.64349e-38,-1.54015e-06,-3.27827e-12,1.64337e-38,0,-1.06633e-13,0,0,-3.04048,-0.273227,0.237277,0,0,0,0,0,0.95952,-0.273227,283,-67,283,-67,428,-71,285,56,0.261799,-0.261799,0,-1.5,nan,0,0,0,0.957682,-0.274379,0,0,0,0,-0.0109405,-0.0068557,18995,0.95952,-0.273227,-0.0109405,-0.0068557,13165
13486,-3.2133e-12,1.64349e-38,-1.54015e-06,-3.27827e-12,1.64337e-38,-3.40903e-12,-1.06633e-13,0,0,-3.00468,-0.265636,0.219196,0,0,0,0,0,0.995316,-0.265636,282,-67,282,-67,429,-73,283,56,0.261799,-0.261799,0,-1.5,nan,0,0,0,0.976034,-0.271497,0,0,0,0,0.000810493,-0.00454739,19551,0.975933,-0.270933,0.000810493,-0.00454739,13364
13498,-3.2133e-12,1.64349e-38,-1.54015e-06,-3.27827e-12,1.64337e-38,0,-1.06634e-13,0,0,-3.00468,-0.265636,0.219196,0,0,0,0,0,0.995316,-0.265636,282,-67,282,-67,429,-73,283,56,0.261799,-0.261799,0,-1.5,nan,0,0,0,0.976044,-0.271551,0,0,0,0,0.000810493,-0.00454739,19551,0.975933,-0.270933,0.000810493,-0.00454739,13364
13519,-3.2133e-12,1.64349e-38,-1.54015e-06,-3.27827e-12,1.64337e-38,-3.40903e-12,-1.06634e-13,0,0,-2.98756,-0.269884,0.211108,0,0,0,0,0,1.01244,-0.269884,282,-67,282,-67,429,-73,283,56,0.261799,-0.261799,0,-1.5,nan,0,0,0,0.979689,-0.270145,0,0,0,0,0.0042497,-0.0028491,19404,0.979599,-0.270085,0.0042497,-0.0028491,13503
13537,-3.2133e-12,1.64349e-38,-1.54015e-06,-3.27827e-12,1.64337e-38,0,-1.06634e-13,0,0,-2.98756,-0.269884,0.211108,0,0,0,0,0,1.01244,-0.269884,282,-67,282,-67,429,-73,283,56,0.261799,-0.261799,0,-1.5,nan,0,0,0,0.979765,-0.270196,0,0,0,0,0.0042497,-0.0028491,19404,0.979599,-0.270085,0.0042497,-0.0028491,13503
13550,-3.2133e-12,1.64349e-38,-1.54015e-06,-3.27827e-12,1.64337e-38,-3.40903e-12,-1.06634e-13,0,0,-2.98756,-0.269884,0.211108,0,0,0,0,0,1.01244,-0.269884,282,-67,282,-67,429,-73,283,56,0.261799,-0.261799,0,-1.5,nan,0,0,0,0.97982,-0.270233,0,0,0,0,0.0042497,-0.0028491,19404,0.979599,-0.270085,0.0042497,-0.0028491,13503
13767,-3.2133e-12,1.64349e-38,-1.54015e-06,-3.27827e-12,1.64337e-38,0,-1.06635e-13,0,0,-3.01869,-0.262878,0.227586,0,0,0,0,0,0.981308,-0.262878,282,-67,282,-67,429,-73,283,56,0.261799,-0.261799,0,-1.5,nan,0,0,0,0.982592,-0.270573,0,0,0,0,0.00545316,-0.00266634,19551,0.981409,-0.269995,0.00545316,-0.00266634,13584
13778,-3.2133e-12,1.64349e-38,-1.54015e-06,-3.27827e-12,1.64337e-38,-3.40903e-12,-1.06635e-13,0,0,-3.01869,-0.262878,0.227586,0,0,0,0,0,0.981308,-0.262878,282,-67,282,-67,429,-73,283,56,0.261799,-0.261799,0,-1.5,nan,0,0,0,0.982652,-0.270603,0,0,0,0,0.00545316,-0.00266634,19551,0.981409,-0.269995,0.00545316,-0.00266634,13584
13797,-3.2133e-12,1.64349e-38,-1.54015e-06,-3.27827e-12,1.64337e-38,0,-1.06635e-13,0,0,-3.01869,-0.262878,0.227586,0,0,0,0,0,0.981308,-0.262878,282,-67,282,-67,429,-73,283,56,0.261799,-0.261799,0,-1.5,nan,0,0,0,0.982756,-0.270653,0,0,0,0,0.00545316,-0.00266634,19551,0.981409,-0.269995,0.00545316,-0.00266634,13584
13818,-3.2133e-12,1.64349e-38,-1.54015e-06,-3.27827e-12,1.64337e-38,-3.40903e-12,-1.06636e-13,0,0,-3.01869,-0.262878,0.227586,0,0,0,0,0,0.981308,-0.262878,282,-67,282,-67,429,-73,283,56,0.261799,-0.261799,0,-1.5,nan,0,0,0,0.98287,-0.270709,0,0,0,0,0.00545316,-0.00266634,19551,0.981409,-0.269995,0.00545316,-0.00266634,13584
13834,-3.2133e-12,1.64349e-38,-1.54015e-06,-3.27827e-12,1.64337e-38,0,-1.06636e-13,0,0,-3.01869,-0.262878,0.227586,0,0,0,0,0,0.981308,-0.262878,282,-67,282,-67,429,-73,283,56,0.261799,-0.261799,0,-1.5,nan,0,0,0,0.982958,-0.270752,0,0,0,0,0.00545316,-0.00266634,19551,0.981409,-0.269995,0.00545316,-0.00266634,13584
13851,-3.2133e-12,1.64349e-38,-1.54015e-06,-3.27827e-12,1.64337e-38,-3.40903e-12,-1.06636e-13,0,0,-3.01869,-0.262878,0.227586,0,0,0,0,0,0.981308,-0.262878,282,-67,282,-67,429,-73,283,56,0.261799,-0.261799,0,-1.5,nan,0,0,0,0.98305,-0.270797,0,0,0,0,0.00545316,-0.00266634,19551,0.981409,-0.269995,0.00545316,-0.00266634,13584
13875,-3.2133e-12,1.64349e-38,-1.54015e-06,-3.27827e-12,1.64337e-38,0,-1.06636e-13,0,0,-3.01869,-0.262878,0.227586,0,0,0,0,0,0.981308,-0.262878,282,-67,282,-67,429,-73,283,56,0.261799,-0.261799,0,-1.5,nan,0,0,0,0.983176,-0.270859,0,0,0,0,0.00545316,-0.00266634,19551,0.981409,-0.269995,0.00545316,-0.00266634,13584
13892,-3.2133e-12,1.64349e-38,-1.54015e-06,-3.27827e-12,1.64337e-38,-3.40903e-12,-1.06637e-13,0,0,-3.01869,-0.262878,0.227586,0,0,0,0,0,0.981308,-0.262878,282,-67,282,-67,429,-73,283,56,0.261799,-0.261799,0,-1.5,nan,0,0,0,0.983268,-0.270904,0,0,0,0,0.00545316,-0.00266634,19551,0.981409,-0.269995,0.00545316,-0.00266634,13584
13913,-3.2133e-12,1.64349e-38,-1.54015e-06,-3.27827e-12,1.64337e-38,0,-1.06637e-13,0,0,-3.01869,-0.262878,0.227586,0,0,0,0,0,0.981308,-0.262878,282,-67,282,-67,429,-73,283,56,0.261799,-0.261799,0,-1.5,nan,0,0,0,0.983383,-0.27096,0,0,0,0,0.00545316,-0.00266634,19551,0.981409,-0.269995,0.00545316,-0.00266634,13584
13929,-3.2133e-12,1.64349e-38,-1.54015e-06,-3.27827e-12,1.64337e-38,-3.40903e-12,-1.06637e-13,0,0,-3.01869,-0.262878,0.227586,0,0,0,0,0,0.981308,-0.262878,282,-67,282,-67,429,-73,283,56,0.261799,-0.261799,0,-1.5,nan,0,0,0,0.983476,-0.271005,0,0,0,0,0.00545316,-0.00266634,19551,0.981409,-0.269995,0.00545316,-0.00266634,13584
14088,-3.2133e-12,1.64349e-38,-1.54015e-06,-3.27827e-12,1.64337e-38,0,-1.06637e-13,0,0,-3.03882,-0.270414,0.239878,0,0,0,0,0,0.96118,-0.270414,285,-66,285,-66,429,-74,283,56,0.261799,-0.261799,0,-1.5,nan,0,0,0,0.979887,-0.270717,0,0,0,0,0.000611208,-0.00170555,19564,0.97981,-0.270501,0.000611208,-0.00170555,13963
14099,-3.2133e-12,1.64349e-38,-1.54015e-06,-3.27827e-12,1.64337e-38,-3.40903e-12,-1.06638e-13,0,0,-3.03882,-0.270414,0.239878,0,0,0,0,0,0.96118,-0.270414,285,-66,285,-66,429,-74,283,56,0.261799,-0.261799,0,-1.5,nan,0,0,0,0.979894,-0.270736,0,0,0,0,0.000611208,-0.00170555,19564,0.97981,-0.270501,0.000611208,-0.00170555,13963
14128,-3.2133e-12,1.64349e-38,-1.54015e-06,-3.27827e-12,1.64337e-38,0,-1.06638e-13,0,0,-3.04555,-0.26974,0.244106,0,0,0,0,0,0.954448,-0.26974,285,-68,285,-68,428,-72,283,56,0.261799,-0.261799,0,-1.5,nan,0,0,0,0.959214,-0.270162,0,0,0,0,-0.0140716,-0.0011603,19140,0.959622,-0.270128,-0.0140716,-0.0011603,14113
14141,-3.2133e-12,1.64349e-38,-1.54015e-06,-3.27827e-12,1.64337e-38,-3.40903e-12,-1.06638e-13,0,0,-3.04555,-0.26974,0.244106,0,0,0,0,0,0.954448,-0.26974,285,-68,285,-68,428,-72,283,56,0.261799,-0.261799,0,-1.5,nan,0,0,0,0.959031,-0.270177,0,0,0,0,-0.0140716,-0.0011603,19140,0.959622,-0.270128,-0.0140716,-0.0011603,14113
14162,-3.2133e-12,1.64349e-38,-1.54015e-06,-3.27827e-12,1.64337e-38,0,-1.06639e-13,0,0,-3.04555,-0.26974,0.244106,0,0,0,0,0,0.954448,-0.26974,285,-68,285,-68,428,-72,283,56,0.261799,-0.261799,0,-1.5,nan,0,0,0,0.958736,-0.270201,0,0,0,0,-0.0140716,-0.0011603,19140,0.959622,-0.270128,-0.0140716,-0.0011603,14113
14179,-3.2133e-12,1.64349e-38,-1.54015e-06,-3.27827e-12,1.64337e-38,-3.40903e-12,-1.06639e-13,0,0,-3.04555,-0.26974,0.244106,0,0,0,0,0,0.954448,-0.26974,285,-68,285,-68,428,-72,283,56,0.261799,-0.261799,0,-1.5,nan,0,0,0,0.958497,-0.270221,0,0,0,0,-0.0140716,-0.0011603,19140,0.959622,-0.270128,-0.0140716,-0.0011603,14113
14322,-3.2133e-12,1.64349e-38,-1.54015e-06,-3.27827e-12,1.64337e-38,0,-1.06639e-13,0,0,-3.04306,-0.270974,0.240588,0,0,0,0,0,0.956942,-0.270974,285,-66,285,-66,429,-73,283,56,0.261799,-0.261799,0,-1.5,nan,0,0,0,0.95511,-0.270561,0,0,0,0,-0.0160436,-0.000923812,19418,0.957164,-0.270443,-0.0160436,-0.000923812,14196
14350,-3.2133e-12,1.64349e-38,-1.54015e-06,-3.27827e-12,1.64337e-38,-3.40903e-12,-1.06639e-13,0,0,-3.04566,-0.269003,0.244115,0,0,0,0,0,0.954336,-0.269003,285,-66,285,-66,428,-74,283,56,0.261799,-0.261799,0,-1.5,nan,0,0,0,0.954388,-0.269413,0,0,0,0,-0.0163082,0.000920681,19430,0.954665,-0.269429,-0.0163082,0.000920681,14335
14362,-3.2133e-12,1.64349e-38,-1.54015e-06,-3.27827e-12,1.64337e-38,0,-1.0664e-13,0,0,-3.04566,-0.269003,0.244115,0,0,0,0,0,0.954336,-0.269003,285,-66,285,-66,428,-74,283,56,0.261799,-0.261799,0,-1.5,nan,0,0,0,0.954192,-0.269402,0,0,0,0,-0.0163082,0.000920681,19430,0.954665,-0.269429,-0.0163082,0.000920681,14335
14383,-3.2133e-12,1.64349e-38,-1.54015e-06,-3.27827e-12,1.64337e-38,-3.40903e-12,-1.0664e-13,0,0,-3.04566,-0.269003,0.244115,0,0,0,0,0,0.954336,-0.269003,285,-66,285,-66,428,-74,283,56,0.261799,-0.261799,0,-1.5,nan,0,0,0,0.95385,-0.269383,0,0,0,0,-0.0163082,0.000920681,19430,0.954665,-0.269429,-0.0163082,0.000920681,14335
14400,-3.2133e-12,1.64349e-38,-1.54015e-06,-3.27827e-12,1.64337e-38,0,-1.0664e-13,0,0,-3.04566,-0.269003,0.244115,0,0,0,0,0,0.954336,-0.269003,285,-66,285,-66,428,-74,283,56,0.261799,-0.261799,0,-1.5,nan,0,0,0,0.953572,-0.269367,0,0,0,0,-0.0163082,0.000920681,19430,0.954665,-0.269429,-0.0163082,0.000920681,14335
14448,-3.2133e-12,1.64349e-38,-1.54015e-06,-3.27827e-12,1.64337e-38,-3.40903e-12,-1.0664e-13,0,0,-3.04566,-0.269003,0.244115,0,0,0,0,0,0.954336,-0.269003,285,-66,285,-66,428,-74,283,56,0.261799,-0.261799,0,-1.5,nan,0,0,0,0.952806,-0.269324,0,0,0,0,-0.0163082,0.000920681,19430,0.954665,-0.269429,-0.0163082,0.000920681,14335
14469,-3.2133e-12,1.64349e-38,-1.54015e-06,-3.27827e-12,1.64337e-38,0,-1.06641e-13,0,0,-3.04566,-0.269003,0.244115,0,0,0,0,0,0.954336,-0.269003,285,-66,285,-66,428,-74,283,56,0.261799,-0.261799,0,-1.5,nan,0,0,0,0.952447,-0.269304,0,0,0,0,-0.0163082,0.000920681,19430,0.954665,-0.269429,-0.0163082,0.000920681,14335
14625,-3.2133e-12,1.64349e-38,-1.54015e-06,-3.27827e-12,1.64337e-38,-3.40903e-12,-1.06641e-13,0,0,-3.04114,-0.275031,0.238114,0,0,0,0,0,0.958865,-0.275031,285,-66,285,-66,428,-71,283,56,0.261799,-0.261799,0,-1.5,nan,0,0,0,0.949903,-0.270898,0,0,0,0,-0.0163081,-0.00093888,18850,0.952023,-0.270776,-0.0163081,-0.00093888,14497
14646,-3.2133e-12,1.64349e-38,-1.54015e-06,-3.27827e-12,1.64337e-38,0,-1.06641e-13,0,0,-3.04114,-0.275031,0.238114,0,0,0,0,0,0.958865,-0.275031,285,-66,285,-66,428,-71,283,56,0.261799,-0.261799,0,-1.5,nan,0,0,0,0.949561,-0.270918,0,0,0,0,-0.0163081,-0.00093888,18850,0.952023,-0.270776,-0.0163081,-0.00093888,14497
14678,-3.2133e-12,1.64349e-38,-1.54015e-06,-3.27827e-12,1.64337e-38,-3.40903e-12,-1.06642e-13,0,0,-3.04114,-0.275031,0.238114,0,0,0,0,0,0.958865,-0.275031,285,-66,285,-66,428,-71,283,56,0.261799,-0.261799,0,-1.5,nan,0,0,0,0.949039,-0.270948,0,0,0,0,-0.0163081,-0.00093888,18850,0.952023,-0.270776,-0.0163081,-0.00093888,14497
14825,-3.2133e-12,1.64349e-38,-1.54015e-06,-3.27827e-12,1.64337e-38,0,-1.06642e-13,0,0,-3.04566,-0.269003,0.244115,0,0,0,0,0,0.954336,-0.269003,285,-66,285,-66,428,-74,283,56,0.261799,-0.261799,0,-1.5,nan,0,0,0,0.949926,-0.269958,0,0,0,0,-0.0139221,-0.000474482,19430,0.951973,-0.269888,-0.0139221,-0.000474482,14705
14878,-3.2133e-12,1.64349e-38,-1.54015e-06,-3.27827e-12,1.64337e-38,-3.40903e-12,-1.06642e-13,0,0,-3.04566,-0.269003,0.244115,0,0,0,0,0,0.954336,-0.269003,285,-66,285,-66,428,-74,283,56,0.261799,-0.261799,0,-1.5,nan,0,0,0,0.949188,-0.269983,0,0,0,0,-0.0139221,-0.000474482,19430,0.951973,-0.269888,-0.0139221,-0.000474482,14705
14896,-3.2133e-12,1.64349e-38,-1.54015e-06,-3.27827e-12,1.64337e-38,0,-1.06642e-13,0,0,-3.04566,-0.269003,0.244115,0,0,0,0,0,0.954336,-0.269003,285,-66,285,-66,428,-74,283,56,0.261799,-0.261799,0,-1.5,nan,0,0,0,0.948938,-0.269992,0,0,0,0,-0.0139221,-0.000474482,19430,0.951973,-0.269888,-0.0139221,-0.000474482,14705
14913,-3.2133e-12,1.64349e-38,-1.54015e-06,-3.27827e-12,1.64337e-38,-3.40903e-12,-1.06643e-13,0,0,-3.04566,-0.269003,0.244115,0,0,0,0,0,0.954336,-0.269003,285,-66,285,-66,428,-74,283,56,0.261799,-0.261799,0,-1.5,nan,0,0,0,0.948715,-0.269999,0,0,0,0,-0.0139221,-0.000474482,19430,0.951973,-0.269888,-0.0139221,-0.000474482,14705
15054,-3.2133e-12,1.64349e-38,-1.54015e-06,-3.27827e-12,1.64337e-38,0,-1.06643e-13,0,0,-3.06492,-0.275643,0.254486,0,0,0,0,0,0.93508,-0.275643,286,-66,286,-66,429,-71,283,54,0.261799,-0.261799,0,-1.5,nan,0,0,0,0.93007,-0.276436,0,0,0,0,-0.0334435,-0.00628877,19126,0.934284,-0.275644,-0.0334435,-0.00628877,14930
15077,-3.2133e-12,1.64349e-38,-1.54015e-06,-3.27827e-12,1.64337e-38,-3.40903e-12,-1.06643e-13,0,0,-3.06492,-0.275643,0.254486,0,0,0,0,0,0.93508,-0.275643,286,-66,286,-66,429,-71,283,54,0.261799,-0.261799,0,-1.5,nan,0,0,0,0.929301,-0.276581,0,0,0,0,-0.0334435,-0.00628877,19126,0.934284,-0.275644,-0.0334435,-0.00628877,14930
15098,-3.2133e-12,1.64349e-38,-1.54015e-06,-3.27827e-12,1.64337e-38,0,-1.06643e-13,0,0,-3.06492,-0.275643,0.254486,0,0,0,0,0,0.93508,-0.275643,286,-66,286,-66,429,-71,283,54,0.261799,-0.261799,0,-1.5,nan,0,0,0,0.928598,-0.276713,0,0,0,0,-0.0334435,-0.00628877,19126,0.934284,-0.275644,-0.0334435,-0.00628877,14930
15115,-3.2133e-12,1.64349e-38,-1.54015e-06,-3.27827e-12,1.64337e-38,-3.40903e-12,-1.06644e-13,0,0,-3.06492,-0.275643,0.254486,0,0,0,0,0,0.93508,-0.275643,286,-66,286,-66,429,-71,283,54,0.261799,-0.261799,0,-1.5,nan,0,0,0,0.92803,-0.27682,0,0,0,0,-0.0334435,-0.00628877,19126,0.934284,-0.275644,-0.0334435,-0.00628877,14930
15134,-3.2133e-12,1.64349e-38,-1.54015e-06,-3.27827e-12,1.64337e-38,0,-1.06644e-13,0,0,-3.06492,-0.275643,0.254486,0,0,0,0,0,0.93508,-0.275643,286,-66,286,-66,429,-71,283,54,0.261799,-0.261799,0,-1.5,nan,0,0,0,0.927394,-0.27694,0,0,0,0,-0.0334435,-0.00628877,19126,0.934284,-0.275644,-0.0334435,-0.00628877,14930
15155,-3.2133e-12,1.64349e-38,-1.54015e-06,-3.27827e-12,1.64337e-38,-3.40903e-12,-1.06644e-13,0,0,-3.06492,-0.275643,0.254486,0,0,0,0,0,0.93508,-0.275643,286,-66,286,-66,429,-71,283,54,0.261799,-0.261799,0,-1.5,nan,0,0,0,0.926692,-0.277072,0,0,0,0,-0.0334435,-0.00628877,19126,0.934284,-0.275644,-0.0334435,-0.00628877,14930
15171,-3.2133e-12,1.64349e-38,-1.54015e-06,-3.27827e-12,1.64337e-38,0,-1.06645e-13,0,0,-3.06492,-0.275643,0.254486,0,0,0,0,0,0.93508,-0.275643,286,-66,286,-66,429,-71,283,54,0.261799,-0.261799,0,-1.5,nan,0,0,0,0.926157,-0.277172,0,0,0,0,-0.0334435,-0.00628877,19126,0.934284,-0.275644,-0.0334435,-0.00628877,14930
15183,-3.2133e-12,1.64349e-38,-1.54015e-06,-3.27827e-12,1.64337e-38,-3.40903e-12,-1.06645e-13,0,0,-3.06492,-0.275643,0.254486,0,0,0,0,0,0.93508,-0.275643,286,-66,286,-66,429,-71,283,54,0.261799,-0.261799,0,-1.5,nan,0,0,0,0.925756,-0.277248,0,0,0,0,-0.0334435,-0.00628877,19126,0.934284,-0.275644,-0.0334435,-0.00628877,14930
15201,-3.2133e-12,1.64349e-38,-1.54015e-06,-3.27827e-12,1.64337e-38,0,-1.06645e-13,0,0,-3.06492,-0.275643,0.254486,0,0,0,0,0,0.93508,-0.275643,286,-66,286,-66,429,-71,283,54,0.261799,-0.261799,0,-1.5,nan,0,0,0,0.925154,-0.277361,0,0,0,0,-0.0334435,-0.00628877,19126,0.934284,-0.275644,-0.0334435,-0.00628877,14930
15221,-3.2133e-12,1.64349e-38,-1.54015e-06,-3.27827e-12,1.64337e-38,-3.40903e-12,-1.06645e-13,0,0,-3.06492,-0.275643,0.254486,0,0,0,0,0,0.93508,-0.275643,286,-66,286,-66,429,-71,283,54,0.261799,-0.261799,0,-1.5,nan,0,0,0,0.924485,-0.277487,0,0,0,0,-0.0334435,-0.00628877,19126,0.934284,-0.275644,-0.0334435,-0.00628877,14930
15383,-3.2133e-12,1.64349e-38,-1.54015e-06,-3.27827e-12,1.64337e-38,0,-1.06646e-13,0,0,-3.03882,-0.270414,0.239878,0,0,0,0,0,0.96118,-0.270414,285,-66,285,-66,429,-74,283,56,0.261799,-0.261799,0,-1.5,nan,0,0,0,0.925493,-0.270435,0,0,0,0,-0.0304454,-0.000270875,19564,0.930425,-0.270391,-0.0304454,-0.000270875,15233
15397,-3.2133e-12,1.64349e-38,-1.54015e-06,-3.27827e-12,1.64337e-38,-3.40903e-12,-1.06646e-13,0,0,-3.03882,-0.270414,0.239878,0,0,0,0,0,0.96118,-0.270414,285,-66,285,-66,429,-74,283,56,0.261799,-0.261799,0,-1.5,nan,0,0,0,0.925066,-0.270439,0,0,0,0,-0.0304454,-0.000270875,19564,0.930425,-0.270391,-0.0304454,-0.000270875,15233
15413,-3.2133e-12,1.64349e-38,-1.54015e-06,-3.27827e-12,1.64337e-38,0,-1.06646e-13,0,0,-3.03882,-0.270414,0.239878,0,0,0,0,0,0.96118,-0.270414,285,-66,285,-66,429,-74,283,56,0.261799,-0.261799,0,-1.5,nan,0,0,0,0.924579,-0.270443,0,0,0,0,-0.0304454,-0.000270875,19564,0.930425,-0.270391,-0.0304454,-0.000270875,15233
15434,-3.2133e-12,1.64349e-38,-1.54015e-06,-3.27827e-12,1.64337e-38,-3.40903e-12,-1.06646e-13,0,0,-3.03882,-0.270414,0.239878,0,0,0,0,0,0.96118,-0.270414,285,-66,285,-66,429,-74,283,56,0.261799,-0.261799,0,-1.5,nan,0,0,0,0.92394,-0.270449,0,0,0,0,-0.0304454,-0.000270875,19564,0.930425,-0.270391,-0.0304454,-0.000270875,15233
