timestamp,A_x,A_y,A_z,P,Q,R,Phi,Theta,Psi,poseX,poseY,poseZ,state_X,state_Y,state_Z,state_VzB,state_Bx,state_By,state_Bz,p1_x,p1_y,p2_x,p2_y,p3_x,p3_y,p4_x,p4_y,roll,pitch,yaw,alt,targetHeading,highLevelState,lowLevelState,gateNumber,filtered_x,filtered_y,x_OT,y_OT,vx_OT,vy_OT,filtered_vx,filtered_vygateArearansac_corr_x,ransac_corr_y,ransac_corr_vx,ransac_corr_vy,detectionTimeStamppTermX,dTermX,pTermY,dTermY,vxcmd,vycmd
5586,0,0,0,0,0,0,0,0,0,0,0,0,0,0,0,0,0,0,0,0,0,0,0,0,0,0,0,0,-0.0872664,0,-1.5,3.94113e+12,0,0,0,0,0,0,0,0,0,0,0,1.9603e-19,0,0,0,0,0,0,0,0,0,2,0
5599,0,0,0,0,0,0,0,0,0,0,0,0,0,0,0,0,0,0,0,0,0,0,0,0,0,0,0,0,-0.0872664,0,-1.5,3.94113e+12,0,0,0,0,0,0,0,0,0,0,0,1.9603e-19,0,0,0,0,0,0,0,0,0,2,0
6136,-3.73718e-12,0,-1.59044e-06,-3.892e-12,0,0,0,0,0,0,0,0,0,0,0,0,0,0,0,0,0,0,0,0,0,0,0,0,-0.0872664,0,-1.5,3.94113e+12,0,0,0,0,0,0,0,0,0,0,0,1.9603e-19,0,0,0,0,0,0,0,0,0,2,0
6150,-3.73718e-12,0,-1.59044e-06,-3.892e-12,0,0,0,0,0,0,0,0,0,0,0,0,0,0,0,0,0,0,0,0,0,0,0,0,-0.0872664,0,-1.5,3.94113e+12,0,0,0,0,0,0,0,0,0,0,0,1.9603e-19,0,0,0,0,0,0,0,0,0,2,0
6165,-3.73718e-12,0,-1.59044e-06,-3.892e-12,0,0,0,0,0,0,0,0,0,0,0,0,0,0,0,0,0,0,0,0,0,0,0,0,-0.0872664,0,-1.5,3.94113e+12,0,0,0,0,0,0,0,0,0,0,0,1.9603e-19,0,0,0,0,0,0,0,0,0,2,0
6181,-3.73718e-12,0,-1.59044e-06,-3.892e-12,0,0,0,0,0,0,0,0,0,0,0,0,0,0,0,0,0,0,0,0,0,0,0,0,-0.0872664,0,-1.5,3.94113e+12,0,0,0,0,0,0,0,0,0,0,0,1.9603e-19,0,0,0,0,0,0,0,0,0,2,0
6196,-3.73718e-12,0,-1.59044e-06,-3.892e-12,0,0,0,0,0,0,0,0,0,0,0,0,0,0,0,0,0,0,0,0,0,0,0,0,-0.0872664,0,-1.5,3.94113e+12,0,0,0,0,0,0,0,0,0,0,0,1.9603e-19,0,0,0,0,0,0,0,0,0,2,0
6212,-3.73718e-12,0,-1.59044e-06,-3.892e-12,0,0,0,0,0,0,0,0,0,0,0,0,0,0,0,0,0,0,0,0,0,0,0,0,-0.0872664,0,-1.5,3.94113e+12,0,0,0,0,0,0,0,0,0,0,0,1.9603e-19,0,0,0,0,0,0,0,0,0,2,0
6228,-3.73718e-12,0,-1.59044e-06,-3.892e-12,0,0,0,0,0,0,0,0,0,0,0,0,0,0,0,0,0,0,0,0,0,0,0,0,-0.0872664,0,-1.5,3.94113e+12,0,0,0,0,0,0,0,0,0,0,0,1.9603e-19,0,0,0,0,0,0,0,0,0,2,0
6243,-3.73718e-12,0,-1.59044e-06,-3.892e-12,0,0,0,0,0,0,0,0,0,0,0,0,0,0,0,0,0,0,0,0,0,0,0,0,-0.0872664,0,-1.5,3.94113e+12,0,0,0,0,0,0,0,0,0,0,0,1.9603e-19,0,0,0,0,0,0,0,0,0,2,0
6259,-3.73718e-12,0,-1.59044e-06,-3.892e-12,0,0,0,0,0,0,0,0,0,0,0,0,0,0,0,0,0,0,0,0,0,0,0,0,-0.0872664,0,-1.5,3.94113e+12,0,0,0,0,0,0,0,0,0,0,0,1.9603e-19,0,0,0,0,0,0,0,0,0,2,0
6280,-3.73718e-12,0,-1.59044e-06,-3.892e-12,0,0,0,0,0,0,0,0,0,0,0,0,0,0,0,0,0,0,0,0,0,0,0,0,-0.0872664,0,-1.5,3.94113e+12,0,0,0,0,0,0,0,0,0,0,0,1.9603e-19,0,0,0,0,0,0,0,0,0,2,0
6293,-3.73718e-12,0,-1.59044e-06,-3.892e-12,0,0,0,0,0,0,0,0,0,0,0,0,0,0,0,0,0,0,0,0,0,0,0,0,-0.0872664,0,-1.5,3.94113e+12,0,0,0,0,0,0,0,0,0,0,0,1.9603e-19,0,0,0,0,0,0,0,0,0,2,0
6306,-3.73718e-12,0,-1.59044e-06,-3.892e-12,0,0,0,0,0,0,0,0,0,0,0,0,0,0,0,0,0,0,0,0,0,0,0,0,-0.0872664,0,-1.5,3.94113e+12,0,0,0,0,0,0,0,0,0,0,0,1.9603e-19,0,0,0,0,0,0,0,0,0,2,0
6322,-3.73718e-12,0,-1.59044e-06,-3.892e-12,0,0,0,0,0,0,0,0,0,0,0,0,0,0,0,0,0,0,0,0,0,0,0,0,-0.0872664,0,-1.5,3.94113e+12,0,0,0,0,0,0,0,0,0,0,0,1.9603e-19,0,0,0,0,0,0,0,0,0,2,0
6397,-3.73718e-12,0,-1.59044e-06,-3.892e-12,0,0,0,0,0,0,0,0,0,0,0,0,0,0,0,0,0,0,0,0,0,0,0,0,-0.0872664,0,-1.5,3.94113e+12,0,0,0,0,0,0,0,0,0,0,0,1.9603e-19,0,0,0,0,0,0,0,0,0,2,0
6413,-3.73718e-12,0,-1.59044e-06,-3.892e-12,0,0,0,0,0,0,0,0,0,0,0,0,0,0,0,0,0,0,0,0,0,0,0,0,-0.0872664,0,-1.5,3.94113e+12,0,0,0,0,0,0,0,0,0,0,0,1.9603e-19,0,0,0,0,0,0,0,0,0,2,0
6429,-3.73718e-12,0,-1.59044e-06,-3.892e-12,0,0,0,0,0,0,0,0,0,0,0,0,0,0,0,0,0,0,0,0,0,0,0,0,-0.0872664,0,-1.5,3.94113e+12,0,0,0,0,0,0,0,0,0,0,0,1.9603e-19,0,0,0,0,0,0,0,0,0,2,0
6445,-3.73718e-12,0,-1.59044e-06,-3.892e-12,0,0,0,0,0,0,0,0,0,0,0,0,0,0,0,0,0,0,0,0,0,0,0,0,-0.0872664,0,-1.5,3.94113e+12,0,0,0,0,0,0,0,0,0,0,0,1.9603e-19,0,0,0,0,0,0,0,0,0,2,0
6460,-3.73718e-12,0,-1.59044e-06,-3.892e-12,0,0,0,0,0,0,0,0,0,0,0,0,0,0,0,0,0,0,0,0,0,0,0,0,-0.0872664,0,-1.5,3.94113e+12,0,0,0,0,0,0,0,0,0,0,0,1.9603e-19,0,0,0,0,0,0,0,0,0,2,0
6476,-3.73718e-12,0,-1.59044e-06,-3.892e-12,0,0,0,0,0,0,0,0,0,0,0,0,0,0,0,0,0,0,0,0,0,0,0,0,-0.0872664,0,-1.5,3.94113e+12,0,0,0,0,0,0,0,0,0,0,0,1.9603e-19,0,0,0,0,0,0,0,0,0,2,0
6493,-3.73718e-12,0,-1.59044e-06,-3.892e-12,0,0,0,0,0,0,0,0,0,0,0,0,0,0,0,0,0,0,0,0,0,0,0,0,-0.0872664,0,-1.5,3.94113e+12,0,0,0,0,0,0,0,0,0,0,0,1.9603e-19,0,0,0,0,0,0,0,0,0,2,0
6508,-3.73718e-12,0,-1.59044e-06,-3.892e-12,0,0,0,0,0,0,0,0,0,0,0,0,0,0,0,0,0,0,0,0,0,0,0,0,-0.0872664,0,-1.5,3.94113e+12,0,0,0,0,0,0,0,0,0,0,0,1.9603e-19,0,0,0,0,0,0,0,0,0,2,0
6523,-3.73718e-12,0,-1.59044e-06,-3.892e-12,0,0,0,0,0,0,0,0,0,0,0,0,0,0,0,0,0,0,0,0,0,0,0,0,-0.0872664,0,-1.5,3.94113e+12,0,0,0,0,0,0,0,0,0,0,0,1.9603e-19,0,0,0,0,0,0,0,0,0,2,0
6538,-3.73718e-12,0,-1.59044e-06,-3.892e-12,0,0,0,0,0,0,0,0,0,0,0,0,0,0,0,0,0,0,0,0,0,0,0,0,-0.0872664,0,-1.5,3.94113e+12,0,0,0,0,0,0,0,0,0,0,0,1.9603e-19,0,0,0,0,0,0,0,0,0,2,0
6554,-3.73718e-12,0,-1.59044e-06,-3.892e-12,0,0,0,0,0,0,0,0,0,0,0,0,0,0,0,0,0,0,0,0,0,0,0,0,-0.0872664,0,-1.5,3.94113e+12,0,0,0,0,0,0,0,0,0,0,0,1.9603e-19,0,0,0,0,0,0,0,0,0,2,0
6569,-3.73718e-12,0,-1.59044e-06,-3.892e-12,0,0,0,0,0,0,0,0,0,0,0,0,0,0,0,0,0,0,0,0,0,0,0,0,-0.0872664,0,-1.5,3.94113e+12,0,0,0,0,0,0,0,0,0,0,0,1.9603e-19,0,0,0,0,0,0,0,0,0,2,0
6585,-3.73718e-12,0,-1.59044e-06,-3.892e-12,0,0,0,0,0,0,0,0,0,0,0,0,0,0,0,0,0,0,0,0,0,0,0,0,-0.0872664,0,-1.5,3.94113e+12,0,0,0,0,0,0,0,0,0,0,0,1.9603e-19,0,0,0,0,0,0,0,0,0,2,0
6601,-3.73718e-12,0,-1.59044e-06,-3.892e-12,0,0,0,0,0,0,0,0,0,0,0,0,0,0,0,0,0,0,0,0,0,0,0,0,-0.0872664,0,-1.5,3.94113e+12,0,0,0,0,0,0,0,0,0,0,0,1.9603e-19,0,0,0,0,0,0,0,0,0,2,0
6616,-3.73718e-12,0,-1.59044e-06,-3.892e-12,0,0,0,0,0,0,0,0,0,0,0,0,0,0,0,0,0,0,0,0,0,0,0,0,-0.0872664,0,-1.5,3.94113e+12,0,0,0,0,0,0,0,0,0,0,0,1.9603e-19,0,0,0,0,0,0,0,0,0,2,0
6632,-3.73718e-12,0,-1.59044e-06,-3.892e-12,0,0,0,0,0,0,0,0,0,0,0,0,0,0,0,0,0,0,0,0,0,0,0,0,-0.0872664,0,-1.5,3.94113e+12,0,0,0,0,0,0,0,0,0,0,0,1.9603e-19,0,0,0,0,0,0,0,0,0,2,0
6648,-3.73718e-12,0,-1.59044e-06,-3.892e-12,0,0,0,0,0,0,0,0,0,0,0,0,0,0,0,0,0,0,0,0,0,0,0,0,-0.0872664,0,-1.5,3.94113e+12,0,0,0,0,0,0,0,0,0,0,0,1.9603e-19,0,0,0,0,0,0,0,0,0,2,0
6663,-3.73718e-12,0,-1.59044e-06,-3.892e-12,0,0,0,0,0,0,0,0,0,0,0,0,0,0,0,0,0,0,0,0,0,0,0,0,-0.0872664,0,-1.5,3.94113e+12,0,0,0,0,0,0,0,0,0,0,0,1.9603e-19,0,0,0,0,0,0,0,0,0,2,0
6679,-3.73718e-12,0,-1.59044e-06,-3.892e-12,0,0,0,0,0,0,0,0,0,0,0,0,0,0,0,0,0,0,0,0,0,0,0,0,-0.0872664,0,-1.5,3.94113e+12,0,0,0,0,0,0,0,0,0,0,0,1.9603e-19,0,0,0,0,0,0,0,0,0,2,0
6694,-3.73718e-12,0,-1.59044e-06,-3.892e-12,0,0,0,0,0,0,0,0,0,0,0,0,0,0,0,0,0,0,0,0,0,0,0,0,-0.0872664,0,-1.5,3.94113e+12,0,0,0,0,0,0,0,0,0,0,0,1.9603e-19,0,0,0,0,0,0,0,0,0,2,0
6710,-3.73718e-12,0,-1.59044e-06,-3.892e-12,0,0,0,0,0,0,0,0,0,0,0,0,0,0,0,0,0,0,0,0,0,0,0,0,-0.0872664,0,-1.5,3.94113e+12,0,0,0,0,0,0,0,0,0,0,0,1.9603e-19,0,0,0,0,0,0,0,0,0,2,0
6726,-3.73718e-12,0,-1.59044e-06,-3.892e-12,0,0,0,0,0,0,0,0,0,0,0,0,0,0,0,0,0,0,0,0,0,0,0,0,-0.0872664,0,-1.5,3.94113e+12,0,0,0,0,0,0,0,0,0,0,0,1.9603e-19,0,0,0,0,0,0,0,0,0,2,0
6741,-3.73718e-12,0,-1.59044e-06,-3.892e-12,0,0,0,0,0,0,0,0,0,0,0,0,0,0,0,0,0,0,0,0,0,0,0,0,-0.0872664,0,-1.5,3.94113e+12,0,0,0,0,0,0,0,0,0,0,0,1.9603e-19,0,0,0,0,0,0,0,0,0,2,0
6757,-3.73718e-12,0,-1.59044e-06,-3.892e-12,0,0,0,0,0,0,0,0,0,0,0,0,0,0,0,0,0,0,0,0,0,0,0,0,-0.0872664,0,-1.5,3.94113e+12,0,0,0,0,0,0,0,0,0,0,0,1.9603e-19,0,0,0,0,0,0,0,0,0,2,0
6773,-3.73718e-12,0,-1.59044e-06,-3.892e-12,0,0,0,0,0,0,0,0,0,0,0,0,0,0,0,0,0,0,0,0,0,0,0,0,-0.0872664,0,-1.5,3.94113e+12,0,0,0,0,0,0,0,0,0,0,0,1.9603e-19,0,0,0,0,0,0,0,0,0,2,0
6788,-3.73718e-12,0,-1.59044e-06,-3.892e-12,0,0,0,0,0,0,0,0,0,0,0,0,0,0,0,0,0,0,0,0,0,0,0,0,-0.0872664,0,-1.5,3.94113e+12,0,0,0,0,0,0,0,0,0,0,0,1.9603e-19,0,0,0,0,0,0,0,0,0,2,0
6804,-3.73718e-12,0,-1.59044e-06,-3.892e-12,0,0,0,0,0,0,0,0,0,0,0,0,0,0,0,0,0,0,0,0,0,0,0,0,-0.0872664,0,-1.5,3.94113e+12,0,0,0,0,0,0,0,0,0,0,0,1.9603e-19,0,0,0,0,0,0,0,0,0,2,0
6819,-3.73718e-12,0,-1.59044e-06,-3.892e-12,0,0,0,0,0,0,0,0,0,0,0,0,0,0,0,0,0,0,0,0,0,0,0,0,-0.0872664,0,-1.5,3.94113e+12,0,0,0,0,0,0,0,0,0,0,0,1.9603e-19,0,0,0,0,0,0,0,0,0,2,0
6835,-3.73718e-12,0,-1.59044e-06,-3.892e-12,0,0,0,0,0,0,0,0,0,0,0,0,0,0,0,0,0,0,0,0,0,0,0,0,-0.0872664,0,-1.5,3.94113e+12,0,0,0,0,0,0,0,0,0,0,0,1.9603e-19,0,0,0,0,0,0,0,0,0,2,0
6850,-3.73718e-12,0,-1.59044e-06,-3.892e-12,0,0,0,0,0,0,0,0,0,0,0,0,0,0,0,0,0,0,0,0,0,0,0,0,-0.0872664,0,-1.5,3.94113e+12,0,0,0,0,0,0,0,0,0,0,0,1.9603e-19,0,0,0,0,0,0,0,0,0,2,0
6866,-3.73718e-12,0,-1.59044e-06,-3.892e-12,0,0,0,0,0,0,0,0,0,0,0,0,0,0,0,0,0,0,0,0,0,0,0,0,-0.0872664,0,-1.5,3.94113e+12,0,0,0,0,0,0,0,0,0,0,0,1.9603e-19,0,0,0,0,0,0,0,0,0,2,0
6881,-3.73718e-12,0,-1.59044e-06,-3.892e-12,0,0,0,0,0,0,0,0,0,0,0,0,0,0,0,0,0,0,0,0,0,0,0,0,-0.0872664,0,-1.5,3.94113e+12,0,0,0,0,0,0,0,0,0,0,0,1.9603e-19,0,0,0,0,0,0,0,0,0,2,0
6896,-3.73718e-12,0,-1.59044e-06,-3.892e-12,0,0,0,0,0,0,0,0,0,0,0,0,0,0,0,0,0,0,0,0,0,0,0,0,-0.0872664,0,-1.5,3.94113e+12,0,0,0,0,0,0,0,0,0,0,0,1.9603e-19,0,0,0,0,0,0,0,0,0,2,0
6911,-3.73718e-12,0,-1.59044e-06,-3.892e-12,0,0,0,0,0,0,0,0,0,0,0,0,0,0,0,0,0,0,0,0,0,0,0,0,-0.0872664,0,-1.5,3.94113e+12,0,0,0,0,0,0,0,0,0,0,0,1.9603e-19,0,0,0,0,0,0,0,0,0,2,0
6927,-3.73718e-12,0,-1.59044e-06,-3.892e-12,0,0,0,0,0,0,0,0,0,0,0,0,0,0,0,0,0,0,0,0,0,0,0,0,-0.0872664,0,-1.5,3.94113e+12,0,0,0,0,0,0,0,0,0,0,0,1.9603e-19,0,0,0,0,0,0,0,0,0,2,0
6943,-3.73718e-12,0,-1.59044e-06,-3.892e-12,0,0,0,0,0,0,0,0,0,0,0,0,0,0,0,0,0,0,0,0,0,0,0,0,-0.0872664,0,-1.5,3.94113e+12,0,0,0,0,0,0,0,0,0,0,0,1.9603e-19,0,0,0,0,0,0,0,0,0,2,0
6960,-3.73718e-12,0,-1.59044e-06,-3.892e-12,0,0,0,0,0,0,0,0,0,0,0,0,0,0,0,0,0,0,0,0,0,0,0,0,-0.0872664,0,-1.5,3.94113e+12,0,0,0,0,0,0,0,0,0,0,0,1.9603e-19,0,0,0,0,0,0,0,0,0,2,0
6975,-3.73718e-12,0,-1.59044e-06,-3.892e-12,0,0,0,0,0,0,0,0,0,0,0,0,0,0,0,0,0,0,0,0,0,0,0,0,-0.0872664,0,-1.5,3.94113e+12,0,0,0,0,0,0,0,0,0,0,0,1.9603e-19,0,0,0,0,0,0,0,0,0,2,0
6991,-3.73718e-12,0,-1.59044e-06,-3.892e-12,0,0,0,0,0,0,0,0,0,0,0,0,0,0,0,0,0,0,0,0,0,0,0,0,-0.0872664,0,-1.5,3.94113e+12,0,0,0,0,0,0,0,0,0,0,0,1.9603e-19,0,0,0,0,0,0,0,0,0,2,0
7007,-3.73718e-12,0,-1.59044e-06,-3.892e-12,0,0,0,0,0,0,0,0,0,0,0,0,0,0,0,0,0,0,0,0,0,0,0,0,-0.0872664,0,-1.5,3.94113e+12,0,0,0,0,0,0,0,0,0,0,0,1.9603e-19,0,0,0,0,0,0,0,0,0,2,0
7023,-3.73718e-12,0,-1.59044e-06,-3.892e-12,0,0,0,0,0,0,0,0,0,0,0,0,0,0,0,0,0,0,0,0,0,0,0,0,-0.0872664,0,-1.5,3.94113e+12,0,0,0,0,0,0,0,0,0,0,0,1.9603e-19,0,0,0,0,0,0,0,0,0,2,0
7048,-3.73718e-12,0,-1.59044e-06,-3.892e-12,0,0,0,0,0,0,0,0,0,0,0,0,0,0,0,0,0,0,0,0,0,0,0,0,-0.0872664,0,-1.5,3.94113e+12,0,0,0,0,0,0,0,0,0,0,0,1.9603e-19,0,0,0,0,0,0,0,0,0,2,0
7064,-3.73718e-12,0,-1.59044e-06,-3.892e-12,0,0,0,0,0,0,0,0,0,0,0,0,0,0,0,0,0,0,0,0,0,0,0,0,-0.0872664,0,-1.5,3.94113e+12,0,0,0,0,0,0,0,0,0,0,0,1.9603e-19,0,0,0,0,0,0,0,0,0,2,0
7079,-3.73718e-12,0,-1.59044e-06,-3.892e-12,0,0,0,0,0,0,0,0,0,0,0,0,0,0,0,0,0,0,0,0,0,0,0,0,-0.0872664,0,-1.5,3.94113e+12,0,0,0,0,0,0,0,0,0,0,0,1.9603e-19,0,0,0,0,0,0,0,0,0,2,0
7096,-3.73718e-12,0,-1.59044e-06,-3.892e-12,0,0,0,0,0,0,0,0,0,0,0,0,0,0,0,0,0,0,0,0,0,0,0,0,-0.0872664,0,-1.5,3.94113e+12,0,0,0,0,0,0,0,0,0,0,0,1.9603e-19,0,0,0,0,0,0,0,0,0,2,0
7111,-3.73718e-12,0,-1.59044e-06,-3.892e-12,0,0,0,0,0,0,0,0,0,0,0,0,0,0,0,0,0,0,0,0,0,0,0,0,-0.0872664,0,-1.5,3.94113e+12,0,0,0,0,0,0,0,0,0,0,0,1.9603e-19,0,0,0,0,0,0,0,0,0,2,0
7127,-3.73718e-12,0,-1.59044e-06,-3.892e-12,0,0,0,0,0,0,0,0,0,0,0,0,0,0,0,0,0,0,0,0,0,0,0,0,-0.0872664,0,-1.5,3.94113e+12,0,0,0,0,0,0,0,0,0,0,0,1.9603e-19,0,0,0,0,0,0,0,0,0,2,0
7143,-3.73718e-12,0,-1.59044e-06,-3.892e-12,0,0,0,0,0,0,0,0,0,0,0,0,0,0,0,0,0,0,0,0,0,0,0,0,-0.0872664,0,-1.5,3.94113e+12,0,0,0,0,0,0,0,0,0,0,0,1.9603e-19,0,0,0,0,0,0,0,0,0,2,0
7159,-3.73718e-12,0,-1.59044e-06,-3.892e-12,0,0,0,0,0,0,0,0,0,0,0,0,0,0,0,0,0,0,0,0,0,0,0,0,-0.0872664,0,-1.5,3.94113e+12,0,0,0,0,0,0,0,0,0,0,0,1.9603e-19,0,0,0,0,0,0,0,0,0,2,0
7174,-3.73718e-12,0,-1.59044e-06,-3.892e-12,0,0,0,0,0,0,0,0,0,0,0,0,0,0,0,0,0,0,0,0,0,0,0,0,-0.0872664,0,-1.5,3.94113e+12,0,0,0,0,0,0,0,0,0,0,0,1.9603e-19,0,0,0,0,0,0,0,0,0,2,0
7190,-3.73718e-12,0,-1.59044e-06,-3.892e-12,0,0,0,0,0,0,0,0,0,0,0,0,0,0,0,0,0,0,0,0,0,0,0,0,-0.0872664,0,-1.5,3.94113e+12,0,0,0,0,0,0,0,0,0,0,0,1.9603e-19,0,0,0,0,0,0,0,0,0,2,0
7205,-3.73718e-12,0,-1.59044e-06,-3.892e-12,0,0,0,0,0,0,0,0,0,0,0,0,0,0,0,0,0,0,0,0,0,0,0,0,-0.0872664,0,-1.5,3.94113e+12,0,0,0,0,0,0,0,0,0,0,0,1.9603e-19,0,0,0,0,0,0,0,0,0,2,0
7221,-3.73718e-12,0,-1.59044e-06,-3.892e-12,0,0,0,0,0,0,0,0,0,0,0,0,0,0,0,0,0,0,0,0,0,0,0,0,-0.0872664,0,-1.5,3.94113e+12,0,0,0,0,0,0,0,0,0,0,0,1.9603e-19,0,0,0,0,0,0,0,0,0,2,0
7237,-3.73718e-12,0,-1.59044e-06,-3.892e-12,0,0,0,0,0,0,0,0,0,0,0,0,0,0,0,0,0,0,0,0,0,0,0,0,-0.0872664,0,-1.5,3.94113e+12,0,0,0,0,0,0,0,0,0,0,0,1.9603e-19,0,0,0,0,0,0,0,0,0,2,0
7252,-3.73718e-12,0,-1.59044e-06,-3.892e-12,0,0,0,0,0,0,0,0,0,0,0,0,0,0,0,0,0,0,0,0,0,0,0,0,-0.0872664,0,-1.5,3.94113e+12,0,0,0,0,0,0,0,0,0,0,0,1.9603e-19,0,0,0,0,0,0,0,0,0,2,0
7266,-3.73718e-12,0,-1.59044e-06,-3.892e-12,0,0,0,0,0,0,0,0,0,0,0,0,0,0,0,0,0,0,0,0,0,0,0,0,-0.0872664,0,-1.5,3.94113e+12,0,0,0,0,0,0,0,0,0,0,0,1.9603e-19,0,0,0,0,0,0,0,0,0,2,0
7281,-3.73718e-12,0,-1.59044e-06,-3.892e-12,0,0,0,0,0,0,0,0,0,0,0,0,0,0,0,0,0,0,0,0,0,0,0,0,-0.0872664,0,-1.5,3.94113e+12,0,0,0,0,0,0,0,0,0,0,0,1.9603e-19,0,0,0,0,0,0,0,0,0,2,0
7297,-3.73718e-12,0,-1.59044e-06,-3.892e-12,0,0,0,0,0,0,0,0,0,0,0,0,0,0,0,0,0,0,0,0,0,0,0,0,-0.0872664,0,-1.5,3.94113e+12,0,0,0,0,0,0,0,0,0,0,0,1.9603e-19,0,0,0,0,0,0,0,0,0,2,0
7312,-3.73718e-12,0,-1.59044e-06,-3.892e-12,0,0,0,0,0,0,0,0,0,0,0,0,0,0,0,0,0,0,0,0,0,0,0,0,-0.0872664,0,-1.5,3.94113e+12,0,0,0,0,0,0,0,0,0,0,0,1.9603e-19,0,0,0,0,0,0,0,0,0,2,0
7329,-3.73718e-12,0,-1.59044e-06,-3.892e-12,0,0,0,0,0,0,0,0,0,0,0,0,0,0,0,0,0,0,0,0,0,0,0,0,-0.0872664,0,-1.5,3.94113e+12,0,0,0,0,0,0,0,0,0,0,0,1.9603e-19,0,0,0,0,0,0,0,0,0,2,0
7344,-3.73718e-12,0,-1.59044e-06,-3.892e-12,0,0,0,0,0,0,0,0,0,0,0,0,0,0,0,0,0,0,0,0,0,0,0,0,-0.0872664,0,-1.5,3.94113e+12,0,0,0,0,0,0,0,0,0,0,0,1.9603e-19,0,0,0,0,0,0,0,0,0,2,0
7360,-3.73718e-12,0,-1.59044e-06,-3.892e-12,0,0,0,0,0,0,0,0,0,0,0,0,0,0,0,0,0,0,0,0,0,0,0,0,-0.0872664,0,-1.5,3.94113e+12,0,0,0,0,0,0,0,0,0,0,0,1.9603e-19,0,0,0,0,0,0,0,0,0,2,0
7376,-3.73718e-12,0,-1.59044e-06,-3.892e-12,0,0,0,0,0,0,0,0,0,0,0,0,0,0,0,0,0,0,0,0,0,0,0,0,-0.0872664,0,-1.5,3.94113e+12,0,0,0,0,0,0,0,0,0,0,0,1.9603e-19,0,0,0,0,0,0,0,0,0,2,0
7391,-3.73718e-12,0,-1.59044e-06,-3.892e-12,0,0,0,0,0,0,0,0,0,0,0,0,0,0,0,0,0,0,0,0,0,0,0,0,-0.0872664,0,-1.5,3.94113e+12,0,0,0,0,0,0,0,0,0,0,0,1.9603e-19,0,0,0,0,0,0,0,0,0,2,0
7409,-3.73718e-12,0,-1.59044e-06,-3.892e-12,0,0,0,0,0,0,0,0,0,0,0,0,0,0,0,0,0,0,0,0,0,0,0,0,-0.0872664,0,-1.5,3.94113e+12,0,0,0,0,0,0,0,0,0,0,0,1.9603e-19,0,0,0,0,0,0,0,0,0,2,0
7424,-3.73718e-12,0,-1.59044e-06,-3.892e-12,0,0,0,0,0,0,0,0,0,0,0,0,0,0,0,0,0,0,0,0,0,0,0,0,-0.0872664,0,-1.5,3.94113e+12,0,0,0,0,0,0,0,0,0,0,0,1.9603e-19,0,0,0,0,0,0,0,0,0,2,0
7440,-3.73718e-12,0,-1.59044e-06,-3.892e-12,0,0,0,0,0,0,0,0,0,0,0,0,0,0,0,0,0,0,0,0,0,0,0,0,-0.0872664,0,-1.5,3.94113e+12,0,0,0,0,0,0,0,0,0,0,0,1.9603e-19,0,0,0,0,0,0,0,0,0,2,0
7456,-3.73718e-12,0,-1.59044e-06,-3.892e-12,0,0,0,0,0,0,0,0,0,0,0,0,0,0,0,0,0,0,0,0,0,0,0,0,-0.0872664,0,-1.5,3.94113e+12,0,0,0,0,0,0,0,0,0,0,0,1.9603e-19,0,0,0,0,0,0,0,0,0,2,0
7472,-3.73718e-12,0,-1.59044e-06,-3.892e-12,0,0,0,0,0,0,0,0,0,0,0,0,0,0,0,0,0,0,0,0,0,0,0,0,-0.0872664,0,-1.5,3.94113e+12,0,0,0,0,0,0,0,0,0,0,0,1.9603e-19,0,0,0,0,0,0,0,0,0,2,0
7487,-3.73718e-12,0,-1.59044e-06,-3.892e-12,0,0,0,0,0,0,0,0,0,0,0,0,0,0,0,0,0,0,0,0,0,0,0,0,-0.0872664,0,-1.5,3.94113e+12,0,0,0,0,0,0,0,0,0,0,0,1.9603e-19,0,0,0,0,0,0,0,0,0,2,0
7503,-3.73718e-12,0,-1.59044e-06,-3.892e-12,0,0,0,0,0,0,0,0,0,0,0,0,0,0,0,0,0,0,0,0,0,0,0,0,-0.0872664,0,-1.5,3.94113e+12,0,0,0,0,0,0,0,0,0,0,0,1.9603e-19,0,0,0,0,0,0,0,0,0,2,0
7519,-3.73718e-12,0,-1.59044e-06,-3.892e-12,0,0,0,0,0,0,0,0,0,0,0,0,0,0,0,0,0,0,0,0,0,0,0,0,-0.0872664,0,-1.5,3.94113e+12,0,0,0,0,0,0,0,0,0,0,0,1.9603e-19,0,0,0,0,0,0,0,0,0,2,0
7534,-3.73718e-12,0,-1.59044e-06,-3.892e-12,0,0,0,0,0,0,0,0,0,0,0,0,0,0,0,0,0,0,0,0,0,0,0,0,-0.0872664,0,-1.5,3.94113e+12,0,0,0,0,0,0,0,0,0,0,0,1.9603e-19,0,0,0,0,0,0,0,0,0,2,0
7549,-3.73718e-12,0,-1.59044e-06,-3.892e-12,0,0,0,0,0,0,0,0,0,0,0,0,0,0,0,0,0,0,0,0,0,0,0,0,-0.0872664,0,-1.5,3.94113e+12,0,0,0,0,0,0,0,0,0,0,0,1.9603e-19,0,0,0,0,0,0,0,0,0,2,0
7565,-3.73718e-12,0,-1.59044e-06,-3.892e-12,0,0,0,0,0,0,0,0,0,0,0,0,0,0,0,0,0,0,0,0,0,0,0,0,-0.0872664,0,-1.5,3.94113e+12,0,0,0,0,0,0,0,0,0,0,0,1.9603e-19,0,0,0,0,0,0,0,0,0,2,0
7580,-3.73722e-12,0,0,-3.892e-12,0,0,0,0,0,0,0,0,0,0,0,0,0,0,0,0,0,0,0,0,0,0,0,0,-0.0872664,0,-1.5,3.94113e+12,0,0,0,0,0,0,0,0,0,0,0,1.9603e-19,0,0,0,0,0,0,0,0,0,2,0
7597,-3.73718e-12,0,-1.59044e-06,-3.892e-12,0,0,0,0,0,0,0,0,0,0,0,0,0,0,0,0,0,0,0,0,0,0,0,0,-0.0872664,0,-1.5,3.94113e+12,0,0,0,0,0,0,0,0,0,0,0,1.9603e-19,0,0,0,0,0,0,0,0,0,2,0
7612,-3.73718e-12,0,-1.59044e-06,-3.892e-12,0,0,0,0,0,0,0,0,0,0,0,0,0,0,0,0,0,0,0,0,0,0,0,0,-0.0872664,0,-1.5,3.94113e+12,0,0,0,0,0,0,0,0,0,0,0,1.9603e-19,0,0,0,0,0,0,0,0,0,2,0
7627,-3.73718e-12,0,-1.59044e-06,-3.892e-12,0,0,0,0,0,0,0,0,0,0,0,0,0,0,0,0,0,0,0,0,0,0,0,0,-0.0872664,0,-1.5,3.94113e+12,0,0,0,0,0,0,0,0,0,0,0,1.9603e-19,0,0,0,0,0,0,0,0,0,2,0
7642,-3.73718e-12,0,-1.59044e-06,-3.892e-12,0,0,0,0,0,0,0,0,0,0,0,0,0,0,0,0,0,0,0,0,0,0,0,0,-0.0872664,0,-1.5,3.94113e+12,0,0,0,0,0,0,0,0,0,0,0,1.9603e-19,0,0,0,0,0,0,0,0,0,2,0
7658,-3.73718e-12,0,-1.59044e-06,-3.892e-12,0,0,0,0,0,0,0,0,0,0,0,0,0,0,0,0,0,0,0,0,0,0,0,0,-0.0872664,0,-1.5,3.94113e+12,0,0,0,0,0,0,0,0,0,0,0,1.9603e-19,0,0,0,0,0,0,0,0,0,2,0
7673,-3.73718e-12,0,-1.59044e-06,-3.892e-12,0,0,0,0,0,0,0,0,0,0,0,0,0,0,0,0,0,0,0,0,0,0,0,0,-0.0872664,0,-1.5,3.94113e+12,0,0,0,0,0,0,0,0,0,0,0,1.9603e-19,0,0,0,0,0,0,0,0,0,2,0
7690,-3.73718e-12,0,-1.59044e-06,-3.892e-12,0,0,0,0,0,0,0,0,0,0,0,0,0,0,0,0,0,0,0,0,0,0,0,0,-0.0872664,0,-1.5,3.94113e+12,0,0,0,0,0,0,0,0,0,0,0,1.9603e-19,0,0,0,0,0,0,0,0,0,2,0
7705,-3.73718e-12,0,-1.59044e-06,-3.892e-12,0,0,0,0,0,0,0,0,0,0,0,0,0,0,0,0,0,0,0,0,0,0,0,0,-0.0872664,0,-1.5,3.94113e+12,0,0,0,0,0,0,0,0,0,0,0,1.9603e-19,0,0,0,0,0,0,0,0,0,2,0
7721,-3.73718e-12,0,-1.59044e-06,-3.892e-12,0,0,0,0,0,0,0,0,0,0,0,0,0,0,0,0,0,0,0,0,0,0,0,0,-0.0872664,0,-1.5,3.94113e+12,0,0,0,0,0,0,0,0,0,0,0,1.9603e-19,0,0,0,0,0,0,0,0,0,2,0
7737,-3.73718e-12,0,-1.59044e-06,-3.892e-12,0,0,0,0,0,0,0,0,0,0,0,0,0,0,0,0,0,0,0,0,0,0,0,0,-0.0872664,0,-1.5,3.94113e+12,0,0,0,0,0,0,0,0,0,0,0,1.9603e-19,0,0,0,0,0,0,0,0,0,2,0
7752,-3.73718e-12,0,-1.59044e-06,-3.892e-12,0,0,0,0,0,0,0,0,0,0,0,0,0,0,0,0,0,0,0,0,0,0,0,0,-0.0872664,0,-1.5,3.94113e+12,0,0,0,0,0,0,0,0,0,0,0,1.9603e-19,0,0,0,0,0,0,0,0,0,2,0
7768,-3.73718e-12,0,-1.59044e-06,-3.892e-12,0,0,0,0,0,0,0,0,0,0,0,0,0,0,0,0,0,0,0,0,0,0,0,0,-0.0872664,0,-1.5,3.94113e+12,0,0,0,0,0,0,0,0,0,0,0,1.9603e-19,0,0,0,0,0,0,0,0,0,2,0
7784,-3.73718e-12,0,-1.59044e-06,-3.892e-12,0,0,0,0,0,0,0,0,0,0,0,0,0,0,0,0,0,0,0,0,0,0,0,0,-0.0872664,0,-1.5,3.94113e+12,0,0,0,0,0,0,0,0,0,0,0,1.9603e-19,0,0,0,0,0,0,0,0,0,2,0
7799,-3.73718e-12,0,-1.59044e-06,-3.892e-12,0,0,0,0,0,0,0,0,0,0,0,0,0,0,0,0,0,0,0,0,0,0,0,0,-0.0872664,0,-1.5,3.94113e+12,0,0,0,0,0,0,0,0,0,0,0,1.9603e-19,0,0,0,0,0,0,0,0,0,2,0
7815,-3.73718e-12,0,-1.59044e-06,-3.892e-12,0,0,0,0,0,0,0,0,0,0,0,0,0,0,0,0,0,0,0,0,0,0,0,0,-0.0872664,0,-1.5,3.94113e+12,0,0,0,0,0,0,0,0,0,0,0,1.9603e-19,0,0,0,0,0,0,0,0,0,2,0
7838,-3.73718e-12,0,-1.59044e-06,-3.892e-12,0,0,0,0,0,0,0,0,0,0,0,0,0,4.4,0,-1368603560,-1332145697,-1368603560,-1332145697,1038598271,-1368603560,-1368608400,-1368608400,0,-0.0872664,0,-1.5,3.94113e+12,0,0,0,0,0,0,0,0,0,0,0,0,0,0,0,0,7831,0,0,0,0,2,0
7851,-3.73718e-12,0,-1.59044e-06,-3.892e-12,0,0,0,0,0,0,0,0,0,0,0,0,0,4.4,0,-1368603560,-1332145697,-1368603560,-1332145697,1038598271,-1368603560,-1368608400,-1368608400,0,-0.0872664,0,-1.5,3.94113e+12,0,0,0,0,0,0,0,0,0,0,0,0,0,0,0,0,7831,0,0,0,0,2,0
7867,-3.73718e-12,0,-1.59044e-06,-3.892e-12,0,0,0,0,0,-3.58169,0.284151,0.602412,0,0,0,0,0,-0.506912,0.284151,222,-78,222,-78,344,-87,231,50,0,-0.0872664,0,-1.5,3.94113e+12,0,0,0,0,0,0,0,0,0,0,0,18084,0,0,0,0,7859,0,0,0,0,2,0
7884,-3.73718e-12,0,-1.59044e-06,-3.892e-12,0,0,0,0,0,-3.58169,0.284151,0.602412,0,0,0,0,0,-0.506912,0.284151,222,-78,222,-78,344,-87,231,50,0,-0.0872664,0,-1.5,3.94113e+12,0,0,0,0,0,0,0,0,0,0,0,18084,0,0,0,0,7859,0,0,0,0,2,0
7899,-3.73718e-12,0,-1.59044e-06,-3.892e-12,0,0,0,0,0,-3.43018,0.255778,0.4925,0,0,0,0,0,-0.299347,0.255778,225,-74,225,-74,347,-98,232,57,0,-0.0872664,0,-1.5,3.94113e+12,0,0,0,0,0,0,0,0,0,0,0,20305,0,0,0,0,7891,0,0,0,0,2,0
7915,-3.73718e-12,0,-1.59044e-06,-3.892e-12,0,0,0,0,0,-3.43018,0.255778,0.4925,0,0,0,0,0,-0.299347,0.255778,225,-74,225,-74,347,-98,232,57,0,-0.0872664,0,-1.5,3.94113e+12,0,0,0,0,0,0,0,0,0,0,0,20305,0,0,0,0,7891,0,0,0,0,2,0
7932,-3.73718e-12,0,-1.59044e-06,-3.892e-12,0,0,0,0,0,-3.43018,0.255778,0.4925,0,0,0,0,0,-0.299347,0.255778,225,-74,225,-74,347,-98,232,57,0,-0.0872664,0,-1.5,3.94113e+12,0,0,0,0,0,0,0,0,0,0,0,20305,0,0,0,0,7891,0,0,0,0,2,0
7946,-3.73718e-12,0,-1.59044e-06,-3.892e-12,0,0,0,0,0,-3.43018,0.255778,0.4925,0,0,0,0,0,-0.299347,0.255778,225,-74,225,-74,347,-98,232,57,0,-0.0872664,0,-1.5,3.94113e+12,0,0,0,0,0,0,0,0,0,0,0,20305,0,0,0,0,7891,0,0,0,0,2,0
7961,-3.73718e-12,0,-1.59044e-06,-3.892e-12,0,0,0,0,0,-3.43018,0.255778,0.4925,0,0,0,0,0,-0.299347,0.255778,225,-74,225,-74,347,-98,232,57,0,-0.0872664,0,-1.5,3.94113e+12,0,0,0,0,0,0,0,0,0,0,0,20305,0,0,0,0,7891,0,0,0,0,2,0
7974,-3.73718e-12,0,-1.59044e-06,-3.892e-12,0,0,0,0,0,-3.43018,0.255778,0.4925,0,0,0,0,0,-0.299347,0.255778,225,-74,225,-74,347,-98,232,57,0,-0.0872664,0,-1.5,3.94113e+12,0,0,0,0,0,0,0,0,0,0,0,20305,0,0,0,0,7891,0,0,0,0,2,0
7990,-3.73718e-12,0,-1.59044e-06,-3.892e-12,0,0,0,0,0,-3.43018,0.255778,0.4925,0,0,0,0,0,-0.299347,0.255778,225,-74,225,-74,347,-98,232,57,0,-0.0872664,0,-1.5,3.94113e+12,0,0,0,0,0,0,0,0,0,0,0,20305,0,0,0,0,7891,0,0,0,0,2,0
8006,-3.73718e-12,0,-1.59044e-06,-3.892e-12,0,0,0,0,0,-3.43018,0.255778,0.4925,0,0,0,0,0,-0.299347,0.255778,225,-74,225,-74,347,-98,232,57,0,-0.0872664,0,-1.5,3.94113e+12,0,0,0,0,0,0,0,0,0,0,0,20305,0,0,0,0,7891,0,0,0,0,2,0
8069,-3.73718e-12,0,-1.59044e-06,-3.892e-12,0,0,0,0,0,-3.43018,0.255778,0.4925,0,0,0,0,0,-0.299347,0.255778,225,-74,225,-74,347,-98,232,57,-0.0553714,-0.0872664,0,-1.5,3.94113e+12,0,0,0,-0.282906,0.253531,0,0,0,0,1.02753,-0.140455,20305,-0.299347,0.255778,1.02753,-0.140455,8055,0,0,0,0,2,-0.278884
8092,-3.73718e-12,0,-1.59044e-06,-3.892e-12,0,0,0,0,0,-3.43018,0.255778,0.4925,0,0,0,0,0,-0.299347,0.255778,225,-74,225,-74,347,-98,232,57,-0.0539499,-0.0872664,0,-1.5,3.94113e+12,0,0,0,-0.259273,0.2503,0,0,0,0,1.02753,-0.140455,20305,-0.299347,0.255778,1.02753,-0.140455,8055,0,0,0,0,2,-0.27533
8107,-3.73718e-12,0,-1.59044e-06,-3.892e-12,0,0,0,0,0,-3.43018,0.255778,0.4925,0,0,0,0,0,-0.299347,0.255778,225,-74,225,-74,347,-98,232,57,-0.0530229,-0.0872664,0,-1.5,3.94113e+12,0,0,0,-0.243859,0.248194,0,0,0,0,1.02753,-0.140455,20305,-0.299347,0.255778,1.02753,-0.140455,8055,0,0,0,0,2,-0.273013
8129,-3.73718e-12,0,-1.59044e-06,-3.892e-12,0,0,0,0,0,-3.43018,0.255778,0.4925,0,0,0,0,0,-0.299347,0.255778,225,-74,225,-74,347,-98,232,57,-0.0516633,-0.0872664,0,-1.5,3.94113e+12,0,0,0,-0.221253,0.245104,0,0,0,0,1.02753,-0.140455,20305,-0.299347,0.255778,1.02753,-0.140455,8055,0,0,0,0,2,-0.269614
8150,-3.73718e-12,0,-1.59044e-06,-3.892e-12,0,0,0,0,0,-3.43018,0.255778,0.4925,0,0,0,0,0,-0.299347,0.255778,225,-74,225,-74,347,-98,232,57,-0.0503654,-0.0872664,0,-1.5,3.94113e+12,0,0,0,-0.199674,0.242154,0,0,0,0,1.02753,-0.140455,20305,-0.299347,0.255778,1.02753,-0.140455,8055,0,0,0,0,2,-0.266369
8166,-3.73718e-12,0,-1.59044e-06,-3.892e-12,0,0,0,0,0,-3.43018,0.255778,0.4925,0,0,0,0,0,-0.299347,0.255778,225,-74,225,-74,347,-98,232,57,-0.0493766,-0.0872664,0,-1.5,3.94113e+12,0,0,0,-0.183234,0.239907,0,0,0,0,1.02753,-0.140455,20305,-0.299347,0.255778,1.02753,-0.140455,8055,0,0,0,0,2,-0.263897
8187,-3.73718e-12,0,-1.59044e-06,-3.892e-12,0,0,0,0,0,-3.43018,0.255778,0.4925,0,0,0,0,0,-0.299347,0.255778,225,-74,225,-74,347,-98,232,57,-0.0480788,-0.0872664,0,-1.5,3.94113e+12,0,0,0,-0.161655,0.236957,0,0,0,0,1.02753,-0.140455,20305,-0.299347,0.255778,1.02753,-0.140455,8055,0,0,0,0,2,-0.260653
8206,-3.73718e-12,0,-1.59044e-06,-3.892e-12,0,0,0,0,0,-3.5267,0.262395,0.549137,0,0,0,0,0,-0.431576,0.262395,227,-71,227,-71,347,-95,232,53,-0.124362,-0.0872664,0,-1.5,3.94113e+12,0,0,0,-0.439431,0.262789,0,0,0,0,-0.436392,0.0218386,18796,-0.431576,0.262395,-0.436392,0.0218386,8194,0,0,0,0,2,-0.289067
8226,-3.73718e-12,0,-1.59044e-06,-3.892e-12,0,0,0,0,0,-3.5267,0.262395,0.549137,0,0,0,0,0,-0.431576,0.262395,227,-71,227,-71,347,-95,232,53,-0.124564,-0.0872664,0,-1.5,3.94113e+12,0,0,0,-0.448595,0.263247,0,0,0,0,-0.436392,0.0218386,18796,-0.431576,0.262395,-0.436392,0.0218386,8194,0,0,0,0,2,-0.289572
8242,-3.73718e-12,0,-1.59044e-06,-3.892e-12,0,0,0,0,0,-3.5267,0.262395,0.549137,0,0,0,0,0,-0.431576,0.262395,227,-71,227,-71,347,-95,232,53,-0.124718,-0.0872664,0,-1.5,3.94113e+12,0,0,0,-0.455578,0.263597,0,0,0,0,-0.436392,0.0218386,18796,-0.431576,0.262395,-0.436392,0.0218386,8194,0,0,0,0,2,-0.289956
8267,-3.73718e-12,0,-1.59044e-06,-3.892e-12,0,0,0,0,0,-3.49694,0.260676,0.521485,0,0,0,0,0,-0.390803,0.260676,225,-71,225,-71,347,-95,234,57,-0.120319,-0.0872664,0,-1.5,3.94113e+12,0,0,0,-0.397189,0.261018,0,0,0,0,-0.25546,0.0136793,19608,-0.390803,0.260676,-0.25546,0.0136793,8256,0,0,0,0,2,-0.287119
8287,-3.73718e-12,0,-1.59044e-06,-3.892e-12,0,0,0,0,0,-3.49694,0.260676,0.521485,0,0,0,0,0,-0.390803,0.260676,225,-71,225,-71,347,-95,234,57,-0.12044,-0.0872664,0,-1.5,3.94113e+12,0,0,0,-0.402299,0.261291,0,0,0,0,-0.25546,0.0136793,19608,-0.390803,0.260676,-0.25546,0.0136793,8256,0,0,0,0,2,-0.28742
8302,-3.73718e-12,0,-1.59044e-06,-3.892e-12,0,0,0,0,0,-3.49694,0.260676,0.521485,0,0,0,0,0,-0.390803,0.260676,225,-71,225,-71,347,-95,234,57,-0.12053,-0.0872664,0,-1.5,3.94113e+12,0,0,0,-0.406131,0.261496,0,0,0,0,-0.25546,0.0136793,19608,-0.390803,0.260676,-0.25546,0.0136793,8256,0,0,0,0,2,-0.287646
8326,-3.73718e-12,0,-1.59044e-06,-3.892e-12,0,0,0,0,0,-3.48224,0.269922,0.519361,0,0,0,0,0,-0.370663,0.269922,222,-71,222,-71,347,-95,232,54,-0.125525,-0.0872664,0,-1.5,3.94113e+12,0,0,0,-0.412262,0.265431,0,0,0,0,-0.255459,0.0218385,19668,-0.410473,0.265278,-0.255459,0.0218385,8321,0,0,0,0,2,-0.291974
8342,-3.73718e-12,0,-1.59044e-06,-3.892e-12,0,0,0,0,0,-3.48224,0.269922,0.519361,0,0,0,0,0,-0.370663,0.269922,222,-71,222,-71,347,-95,232,54,-0.125679,-0.0872664,0,-1.5,3.94113e+12,0,0,0,-0.416349,0.26578,0,0,0,0,-0.255459,0.0218385,19668,-0.410473,0.265278,-0.255459,0.0218385,8321,0,0,0,0,2,-0.292358
8363,-3.73718e-12,0,-1.59044e-06,-3.892e-12,0,0,0,0,0,-3.48224,0.269922,0.519361,0,0,0,0,0,-0.370663,0.269922,222,-71,222,-71,347,-95,232,54,-0.125881,-0.0872664,0,-1.5,3.94113e+12,0,0,0,-0.421714,0.266239,0,0,0,0,-0.255459,0.0218385,19668,-0.410473,0.265278,-0.255459,0.0218385,8321,0,0,0,0,2,-0.292863
8384,-3.73718e-12,0,-1.59044e-06,-3.892e-12,0,0,0,0,0,-3.48224,0.269922,0.519361,0,0,0,0,0,-0.370663,0.269922,222,-71,222,-71,347,-95,232,54,-0.126082,-0.0872664,0,-1.5,3.94113e+12,0,0,0,-0.427079,0.266698,0,0,0,0,-0.255459,0.0218385,19668,-0.410473,0.265278,-0.255459,0.0218385,8321,0,0,0,0,2,-0.293367
8400,-3.73718e-12,0,-1.59044e-06,-3.892e-12,0,0,0,0,0,-3.48224,0.269922,0.519361,0,0,0,0,0,-0.370663,0.269922,222,-71,222,-71,347,-95,232,54,-0.126236,-0.0872664,0,-1.5,3.94113e+12,0,0,0,-0.431166,0.267047,0,0,0,0,-0.255459,0.0218385,19668,-0.410473,0.265278,-0.255459,0.0218385,8321,0,0,0,0,2,-0.293752
8421,-3.73718e-12,0,-1.59044e-06,-3.892e-12,0,0,0,0,0,-3.48224,0.269922,0.519361,0,0,0,0,0,-0.370663,0.269922,222,-71,222,-71,347,-95,232,54,-0.126438,-0.0872664,0,-1.5,3.94113e+12,0,0,0,-0.436531,0.267506,0,0,0,0,-0.255459,0.0218385,19668,-0.410473,0.265278,-0.255459,0.0218385,8321,0,0,0,0,2,-0.294256
8436,-3.73718e-12,0,-1.59044e-06,-3.892e-12,0,0,0,0,0,-3.48224,0.269922,0.519361,0,0,0,0,0,-0.370663,0.269922,222,-71,222,-71,347,-95,232,54,-0.126582,-0.0872664,0,-1.5,3.94113e+12,0,0,0,-0.440363,0.267833,0,0,0,0,-0.255459,0.0218385,19668,-0.410473,0.265278,-0.255459,0.0218385,8321,0,0,0,0,2,-0.294617
8460,-3.73718e-12,0,-1.59044e-06,-3.892e-12,0,0,0,0,0,-3.56423,0.263338,0.548147,0,0,0,0,0,-0.482999,0.263338,225,-71,225,-71,350,-84,231,53,-0.120956,-0.0872664,0,-1.5,3.94113e+12,0,0,0,-0.446494,0.263427,0,0,0,0,-0.255459,0.01262,17673,-0.444706,0.263338,-0.255459,0.01262,8455,0,0,0,0,2,-0.289769
8481,-3.73718e-12,0,-1.59044e-06,-3.892e-12,0,0,0,0,0,-3.56423,0.263338,0.548147,0,0,0,0,0,-0.482999,0.263338,225,-71,225,-71,350,-84,231,53,-0.121072,-0.0872664,0,-1.5,3.94113e+12,0,0,0,-0.451859,0.263692,0,0,0,0,-0.255459,0.01262,17673,-0.444706,0.263338,-0.255459,0.01262,8455,0,0,0,0,2,-0.290061
8500,-3.73718e-12,0,-1.59044e-06,-3.892e-12,0,0,0,0,0,-3.55929,0.273955,0.547339,0,0,0,0,0,-0.476231,0.273955,222,-71,222,-71,348,-84,231,53,-0.12764,-0.0872664,0,-1.5,3.94113e+12,0,0,0,-0.474483,0.269463,0,0,0,0,-0.290141,0.0226905,18084,-0.471002,0.26919,-0.290141,0.0226905,8490,0,0,0,0,2,-0.296409
8525,-3.73718e-12,0,-1.59044e-06,-3.892e-12,0,0,0,0,0,-3.55929,0.273955,0.547339,0,0,0,0,0,-0.476231,0.273955,222,-71,222,-71,348,-84,231,53,-0.132697,-0.0872664,0,-1.5,3.94113e+12,0,0,0,-0.482248,0.274232,0,0,0,0,-0.284988,0.0300847,18084,-0.480538,0.274051,-0.284988,0.0300847,8521,0,0,0,0,2,-0.301655
8539,-3.73718e-12,0,-1.59044e-06,-3.892e-12,0,0,0,0,0,-3.55929,0.273955,0.547339,0,0,0,0,0,-0.476231,0.273955,222,-71,222,-71,348,-84,231,53,-0.132881,-0.0872664,0,-1.5,3.94113e+12,0,0,0,-0.486238,0.274653,0,0,0,0,-0.284988,0.0300847,18084,-0.480538,0.274051,-0.284988,0.0300847,8521,0,0,0,0,2,-0.302118
8564,-3.73718e-12,0,-1.59044e-06,-3.892e-12,0,0,0,0,0,-3.54546,0.26858,0.538911,0,0,0,0,0,-0.457275,0.26858,222,-71,222,-71,350,-84,231,53,-0.12717,-0.0872664,0,-1.5,3.94113e+12,0,0,0,-0.481839,0.270034,0,0,0,0,-0.265824,0.0208885,18084,-0.479978,0.269887,-0.265824,0.0208885,8558,0,0,0,0,2,-0.297037
8585,-3.73718e-12,0,-1.59044e-06,-3.892e-12,0,0,0,0,0,-3.54546,0.26858,0.538911,0,0,0,0,0,-0.457275,0.26858,222,-71,222,-71,350,-84,231,53,-0.127363,-0.0872664,0,-1.5,3.94113e+12,0,0,0,-0.487421,0.270472,0,0,0,0,-0.265824,0.0208885,18084,-0.479978,0.269887,-0.265824,0.0208885,8558,0,0,0,0,2,-0.29752
8604,-3.73718e-12,0,-1.59044e-06,-3.892e-12,0,0,0,0,0,-3.55929,0.273955,0.547339,0,0,0,0,0,-0.476231,0.273955,222,-71,222,-71,348,-84,231,53,-0.129988,-0.0872664,0,-1.5,3.94113e+12,0,0,0,-0.482275,0.273344,0,0,0,0,-0.253179,0.0242901,18084,-0.477465,0.272883,-0.253179,0.0242901,8592,0,0,0,0,2,-0.300679
8628,-3.73718e-12,0,-1.59044e-06,-3.892e-12,0,0,0,0,0,-3.54546,0.26858,0.538911,0,0,0,0,0,-0.457275,0.26858,222,-71,222,-71,350,-84,231,53,-0.127768,-0.0872664,0,-1.5,3.94113e+12,0,0,0,-0.488605,0.271391,0,0,0,0,-0.253179,0.0208885,18084,-0.486832,0.271245,-0.253179,0.0208885,8623,0,0,0,0,2,-0.298531
8645,-3.73718e-12,0,-1.59044e-06,-3.892e-12,0,0,0,0,0,-3.54546,0.26858,0.538911,0,0,0,0,0,-0.457275,0.26858,222,-71,222,-71,350,-84,231,53,-0.127924,-0.0872664,0,-1.5,3.94113e+12,0,0,0,-0.492909,0.271747,0,0,0,0,-0.253179,0.0208885,18084,-0.486832,0.271245,-0.253179,0.0208885,8623,0,0,0,0,2,-0.298921
8670,-3.73718e-12,0,-1.59044e-06,-3.892e-12,0,0,0,0,0,-3.55586,0.269613,0.549842,0,0,0,0,0,-0.471523,0.269613,222,-71,222,-71,350,-84,231,53,-0.126287,-0.0872664,0,-1.5,3.94113e+12,0,0,0,-0.496772,0.270797,0,0,0,0,-0.247615,0.01784,18084,-0.490581,0.270351,-0.247615,0.01784,8658,0,0,0,0,2,-0.297877
8686,-3.73718e-12,0,-1.59044e-06,-3.892e-12,0,0,0,0,0,-3.55586,0.269613,0.549842,0,0,0,0,0,-0.471523,0.269613,222,-71,222,-71,350,-84,231,53,-0.126412,-0.0872664,0,-1.5,3.94113e+12,0,0,0,-0.500734,0.271083,0,0,0,0,-0.247615,0.01784,18084,-0.490581,0.270351,-0.247615,0.01784,8658,0,0,0,0,2,-0.298191
8711,-3.73718e-12,0,-1.59044e-06,-3.892e-12,0,0,0,0,0,-3.58645,0.271902,0.568589,0,0,0,0,0,-0.513436,0.271902,224,-71,224,-71,348,-84,231,53,-0.127631,-0.0872664,0,-1.5,3.94113e+12,0,0,0,-0.508106,0.272073,0,0,0,0,-0.249007,0.0197964,17810,-0.501881,0.271578,-0.249007,0.0197964,8698,0,0,0,0,2,-0.29928
8736,-3.73718e-12,0,-1.59044e-06,-3.892e-12,0,0,0,0,0,-3.54546,0.26858,0.538911,0,0,0,0,0,-0.457275,0.26858,222,-71,222,-71,350,-84,231,53,-0.127119,-0.0872664,0,-1.5,3.94113e+12,0,0,0,-0.494591,0.271876,0,0,0,0,-0.209789,0.018735,18084,-0.489346,0.271407,-0.209789,0.018735,8723,0,0,0,0,2,-0.299063
8752,-3.73718e-12,0,-1.59044e-06,-3.892e-12,0,0,0,0,0,-3.54546,0.26858,0.538911,0,0,0,0,0,-0.457275,0.26858,222,-71,222,-71,350,-84,231,53,-0.127243,-0.0872664,0,-1.5,3.94113e+12,0,0,0,-0.497738,0.272157,0,0,0,0,-0.209789,0.018735,18084,-0.489346,0.271407,-0.209789,0.018735,8723,0,0,0,0,2,-0.299373
8776,-3.73718e-12,0,-1.59044e-06,-3.892e-12,0,0,0,0,0,-3.54546,0.26858,0.538911,0,0,0,0,0,-0.457275,0.26858,222,-71,222,-71,350,-84,231,53,-0.125683,-0.0872664,0,-1.5,3.94113e+12,0,0,0,-0.501591,0.271564,0,0,0,0,-0.207507,0.0154869,18084,-0.496403,0.271177,-0.207507,0.0154869,8764,0,0,0,0,2,-0.29872
8796,-3.73718e-12,0,-1.59044e-06,-3.892e-12,0,0,0,0,0,-3.54546,0.26858,0.538911,0,0,0,0,0,-0.457275,0.26858,222,-71,222,-71,350,-84,231,53,-0.125831,-0.0872664,0,-1.5,3.94113e+12,0,0,0,-0.498543,0.271841,0,0,0,0,-0.177789,0.0155531,18084,-0.496765,0.271685,-0.177789,0.0155531,8788,0,0,0,0,2,-0.299025
8818,-3.73718e-12,0,-1.59044e-06,-3.892e-12,0,0,0,0,0,-3.54546,0.26858,0.538911,0,0,0,0,0,-0.457275,0.26858,222,-71,222,-71,350,-84,231,53,-0.125982,-0.0872664,0,-1.5,3.94113e+12,0,0,0,-0.502454,0.272183,0,0,0,0,-0.177789,0.0155531,18084,-0.496765,0.271685,-0.177789,0.0155531,8788,0,0,0,0,2,-0.299401
8842,-3.73718e-12,0,-1.59044e-06,-3.892e-12,0,0,0,0,0,-3.56676,0.272345,0.551821,0,0,0,0,0,-0.486465,0.272345,222,-71,222,-71,348,-84,232,53,-0.126407,-0.0872664,0,-1.5,3.94113e+12,0,0,0,-0.488883,0.272802,0,0,0,0,-0.115016,0.0159358,18084,-0.486123,0.272419,-0.115016,0.0159358,8829,0,0,0,0,2,-0.300082
8863,-3.73718e-12,0,-1.59044e-06,-3.892e-12,0,0,0,0,0,-3.55929,0.273955,0.547339,0,0,0,0,0,-0.476231,0.273955,222,-71,222,-71,348,-84,231,53,-0.126526,-0.0872664,0,-1.5,3.94113e+12,0,0,0,-0.482807,0.273067,0,0,0,0,-0.0833483,0.0159403,18084,-0.482057,0.272924,-0.0833483,0.0159403,8856,0,0,0,0,2,-0.300374
8884,-3.73718e-12,0,-1.59044e-06,-3.892e-12,0,0,0,0,0,-3.55929,0.273955,0.547339,0,0,0,0,0,-0.476231,0.273955,222,-71,222,-71,348,-84,231,53,-0.126673,-0.0872664,0,-1.5,3.94113e+12,0,0,0,-0.484557,0.273402,0,0,0,0,-0.0833483,0.0159403,18084,-0.482057,0.272924,-0.0833483,0.0159403,8856,0,0,0,0,2,-0.300742
8904,-3.73718e-12,0,-1.59044e-06,-3.892e-12,0,0,0,0,0,-3.59456,0.270315,0.573575,0,0,0,0,0,-0.524549,0.270315,225,-71,225,-71,348,-84,231,53,-0.126607,-0.0872664,0,-1.5,3.94113e+12,0,0,0,-0.496334,0.273609,0,0,0,0,-0.110293,0.0155467,17673,-0.494128,0.273298,-0.110293,0.0155467,8891,0,0,0,0,2,-0.30097
8930,-3.73718e-12,0,-1.59044e-06,-3.892e-12,0,0,0,0,0,-3.59209,0.27419,0.567851,0,0,0,0,0,-0.521163,0.27419,222,-71,222,-71,348,-82,232,53,-0.126864,-0.0872664,0,-1.5,3.94113e+12,0,0,0,-0.518483,0.274115,0,0,0,0,-0.172342,0.0156329,17820,-0.516932,0.273974,-0.172342,0.0156329,8923,0,0,0,0,2,-0.301526
8951,-3.73718e-12,0,-1.59044e-06,-3.892e-12,0,0,0,0,0,-3.59209,0.27419,0.567851,0,0,0,0,0,-0.521163,0.27419,222,-71,222,-71,348,-82,232,53,-0.127008,-0.0872664,0,-1.5,3.94113e+12,0,0,0,-0.522102,0.274443,0,0,0,0,-0.172342,0.0156329,17820,-0.516932,0.273974,-0.172342,0.0156329,8923,0,0,0,0,2,-0.301887
8971,-3.73718e-12,0,-1.59044e-06,-3.892e-12,0,0,0,0,0,-3.54546,0.26858,0.538911,0,0,0,0,0,-0.457275,0.26858,222,-71,222,-71,350,-84,231,53,-0.127635,-0.0872664,0,-1.5,3.94113e+12,0,0,0,-0.508899,0.274931,0,0,0,0,-0.125239,0.0166638,18084,-0.506394,0.274598,-0.125239,0.0166638,8958,0,0,0,0,2,-0.302424
8997,-3.73718e-12,0,-1.59044e-06,-3.892e-12,0,0,0,0,0,-3.54546,0.26858,0.538911,0,0,0,0,0,-0.457275,0.26858,222,-71,222,-71,350,-84,231,53,-0.12605,-0.0872664,0,-1.5,3.94113e+12,0,0,0,-0.492231,0.273819,0,0,0,0,-0.0801717,0.0139252,18084,-0.491349,0.273666,-0.0801717,0.0139252,8988,0,0,0,0,2,-0.301201
9013,-3.73718e-12,0,-1.59044e-06,-3.892e-12,0,0,0,0,0,-3.54546,0.26858,0.538911,0,0,0,0,0,-0.457275,0.26858,222,-71,222,-71,350,-84,231,53,-0.126148,-0.0872664,0,-1.5,3.94113e+12,0,0,0,-0.493514,0.274042,0,0,0,0,-0.0801717,0.0139252,18084,-0.491349,0.273666,-0.0801717,0.0139252,8988,0,0,0,0,2,-0.301446
9039,-3.73718e-12,0,-1.59044e-06,-3.892e-12,0,0,0,0,0,-3.54546,0.26858,0.538911,0,0,0,0,0,-0.457275,0.26858,222,-71,222,-71,350,-84,231,53,-0.123329,-0.0872664,0,-1.5,3.94113e+12,0,0,0,-0.488526,0.271775,0,0,0,0,-0.0686522,0.00936981,18084,-0.486741,0.271531,-0.0686522,0.00936981,9026,0,0,0,0,2,-0.298952
9064,-3.73718e-12,0,-1.59044e-06,-3.892e-12,0,0,0,0,0,-3.55929,0.273955,0.547339,0,0,0,0,0,-0.476231,0.273955,222,-71,222,-71,348,-84,231,53,-0.125839,-0.0872664,0,-1.5,3.94113e+12,0,0,0,-0.482293,0.274098,0,0,0,0,-0.0568452,0.0130895,18084,-0.481554,0.273928,-0.0568452,0.0130895,9053,0,0,0,0,2,-0.301508
9080,-3.73718e-12,0,-1.59044e-06,-3.892e-12,0,0,0,0,0,-3.55929,0.273955,0.547339,0,0,0,0,0,-0.476231,0.273955,222,-71,222,-71,348,-84,231,53,-0.125931,-0.0872664,0,-1.5,3.94113e+12,0,0,0,-0.483202,0.274307,0,0,0,0,-0.0568452,0.0130895,18084,-0.481554,0.273928,-0.0568452,0.0130895,9053,0,0,0,0,2,-0.301738
9107,-3.73718e-12,0,-1.59044e-06,-3.892e-12,0,0,0,0,0,-3.55293,0.266971,0.543395,0,0,0,0,0,-0.467511,0.266971,222,-71,222,-71,350,-84,232,53,-0.123302,-0.0872664,0,-1.5,3.94113e+12,0,0,0,-0.480842,0.272464,0,0,0,0,-0.0496749,0.00854541,18084,-0.479501,0.272233,-0.0496749,0.00854541,9093,0,0,0,0,2,-0.299711
9127,-3.73718e-12,0,-1.59044e-06,-3.892e-12,0,0,0,0,0,-3.54546,0.26858,0.538911,0,0,0,0,0,-0.457275,0.26858,222,-71,222,-71,350,-84,231,53,-0.11881,-0.0872664,0,-1.5,3.94113e+12,0,0,0,-0.478272,0.269085,0,0,0,0,-0.0461283,0.00103375,18084,-0.47795,0.269078,-0.0461283,0.00103375,9122,0,0,0,0,2,-0.295994
9147,-3.73718e-12,0,-1.59044e-06,-3.892e-12,0,0,0,0,0,-3.54546,0.26858,0.538911,0,0,0,0,0,-0.457275,0.26858,222,-71,222,-71,350,-84,231,53,-0.11882,-0.0872664,0,-1.5,3.94113e+12,0,0,0,-0.479195,0.269106,0,0,0,0,-0.0461283,0.00103375,18084,-0.47795,0.269078,-0.0461283,0.00103375,9122,0,0,0,0,2,-0.296016
9168,-3.73718e-12,0,-1.59044e-06,-3.892e-12,0,0,0,0,0,-3.54546,0.26858,0.538911,0,0,0,0,0,-0.457275,0.26858,222,-71,222,-71,350,-84,231,53,-0.118328,-0.0872664,0,-1.5,3.94113e+12,0,0,0,-0.473575,0.268662,0,0,0,0,-0.0276003,0.00029248,18084,-0.473189,0.268658,-0.0276003,0.00029248,9156,0,0,0,0,2,-0.295529
9189,-3.73718e-12,0,-1.59044e-06,-3.892e-12,0,0,0,0,0,-3.54546,0.26858,0.538911,0,0,0,0,0,-0.457275,0.26858,222,-71,222,-71,350,-84,231,53,-0.118331,-0.0872664,0,-1.5,3.94113e+12,0,0,0,-0.474127,0.268668,0,0,0,0,-0.0276003,0.00029248,18084,-0.473189,0.268658,-0.0276003,0.00029248,9156,0,0,0,0,2,-0.295535
9215,-3.73718e-12,0,-1.59044e-06,-3.892e-12,0,0,0,0,0,-3.55586,0.269613,0.549842,0,0,0,0,0,-0.471523,0.269613,222,-71,222,-71,350,-84,231,53,-0.119452,-0.0872664,0,-1.5,3.94113e+12,0,0,0,-0.473042,0.269658,0,0,0,0,-0.0229029,0.00200754,18084,-0.472424,0.269604,-0.0229029,0.00200754,9201,0,0,0,0,2,-0.296624
9236,-3.73718e-12,0,-1.59044e-06,-3.892e-12,0,0,0,0,0,-3.5699,0.275018,0.558412,0,0,0,0,0,-0.490757,0.275018,222,-71,222,-71,348,-84,231,53,-0.119565,-0.0872664,0,-1.5,3.94113e+12,0,0,0,-0.480124,0.269732,0,0,0,0,-0.0367821,0.00220614,18084,-0.479609,0.269701,-0.0367821,0.00220614,9224,0,0,0,0,2,-0.296706
9263,-3.73718e-12,0,-1.59044e-06,-3.892e-12,0,0,0,0,0,-3.55929,0.273955,0.547339,0,0,0,0,0,-0.476231,0.273955,222,-71,222,-71,348,-84,231,53,-0.124946,-0.0872664,0,-1.5,3.94113e+12,0,0,0,-0.476269,0.274314,0,0,0,0,-0.0350723,0.0106209,18084,-0.475918,0.274208,-0.0350723,0.0106209,9255,0,0,0,0,2,-0.301745
9280,-3.73718e-12,0,-1.59044e-06,-3.892e-12,0,0,0,0,0,-3.55929,0.273955,0.547339,0,0,0,0,0,-0.476231,0.273955,222,-71,222,-71,348,-84,231,53,-0.125026,-0.0872664,0,-1.5,3.94113e+12,0,0,0,-0.476865,0.274494,0,0,0,0,-0.0350723,0.0106209,18084,-0.475918,0.274208,-0.0350723,0.0106209,9255,0,0,0,0,2,-0.301944
9307,-3.73718e-12,0,-1.59044e-06,-3.892e-12,0,0,0,0,0,-3.54546,0.26858,0.538911,0,0,0,0,0,-0.457275,0.26858,222,-71,222,-71,350,-84,231,53,-0.120531,-0.0872664,0,-1.5,3.94113e+12,0,0,0,-0.477983,0.270762,0,0,0,0,-0.0304296,0.0034886,18084,-0.477161,0.270667,-0.0304296,0.0034886,9293,0,0,0,0,2,-0.297838
9334,-3.73718e-12,0,-1.59044e-06,-3.892e-12,0,0,0,0,0,-3.54546,0.26858,0.538911,0,0,0,0,0,-0.457275,0.26858,222,-71,222,-71,350,-84,231,53,-0.11879,-0.0872664,0,-1.5,3.94113e+12,0,0,0,-0.472807,0.26914,0,0,0,0,-0.02194,0.00092176,18084,-0.4725,0.269127,-0.02194,0.00092176,9322,0,0,0,0,2,-0.296054
9349,-3.73718e-12,0,-1.59044e-06,-3.892e-12,0,0,0,0,0,-3.54546,0.26858,0.538911,0,0,0,0,0,-0.457275,0.26858,222,-71,222,-71,350,-84,231,53,-0.118796,-0.0872664,0,-1.5,3.94113e+12,0,0,0,-0.473136,0.269154,0,0,0,0,-0.02194,0.00092176,18084,-0.4725,0.269127,-0.02194,0.00092176,9322,0,0,0,0,2,-0.296069
9376,-3.73718e-12,0,-1.59044e-06,-3.892e-12,0,0,0,0,0,-3.54546,0.26858,0.538911,0,0,0,0,0,-0.457275,0.26858,222,-71,222,-71,350,-84,231,53,-0.118059,-0.0872664,0,-1.5,3.94113e+12,0,0,0,-0.460652,0.268996,0,0,0,0,0.0140474,-0.000748817,18084,-0.461031,0.269017,0.0140474,-0.000748817,9362,0,0,0,0,2,-0.295896
9397,-3.73718e-12,0,-1.59044e-06,-3.892e-12,0,0,0,0,0,-3.55586,0.269613,0.549842,0,0,0,0,0,-0.471523,0.269613,222,-71,222,-71,350,-84,231,53,-0.117556,-0.0872664,0,-1.5,3.94113e+12,0,0,0,-0.45952,0.268562,0,0,0,0,0.0180461,-0.00152831,18084,-0.459682,0.268575,0.0180461,-0.00152831,9390,0,0,0,0,2,-0.295418
9419,-3.73718e-12,0,-1.59044e-06,-3.892e-12,0,0,0,0,0,-3.55586,0.269613,0.549842,0,0,0,0,0,-0.471523,0.269613,222,-71,222,-71,350,-84,231,53,-0.117541,-0.0872664,0,-1.5,3.94113e+12,0,0,0,-0.459123,0.268528,0,0,0,0,0.0180461,-0.00152831,18084,-0.459682,0.268575,0.0180461,-0.00152831,9390,0,0,0,0,2,-0.295381
9445,-3.73718e-12,0,-1.59044e-06,-3.892e-12,0,0,0,0,0,-3.55929,0.273955,0.547339,0,0,0,0,0,-0.476231,0.273955,222,-71,222,-71,348,-84,231,53,-0.118562,-0.0872664,0,-1.5,3.94113e+12,0,0,0,-0.462704,0.269507,0,0,0,0,0.0136799,-5.15777e-05,18084,-0.463059,0.269508,0.0136799,-5.15777e-05,9431,0,0,0,0,2,-0.296458
9466,-3.73718e-12,0,-1.59044e-06,-3.892e-12,0,0,0,0,0,-3.60612,0.257918,0.580066,0,0,0,0,0,-0.540382,0.257918,222,-71,222,-71,350,-84,238,53,-0.116837,-0.0872664,0,-1.5,3.94113e+12,0,0,0,-0.471048,0.26816,0,0,0,0,0.000980991,-0.0028829,18084,-0.47106,0.268194,0.000980991,-0.0028829,9456,0,0,0,0,2,-0.294976
9487,-3.73718e-12,0,-1.59044e-06,-3.892e-12,0,0,0,0,0,-3.60612,0.257918,0.580066,0,0,0,0,0,-0.540382,0.257918,222,-71,222,-71,350,-84,238,53,-0.116811,-0.0872664,0,-1.5,3.94113e+12,0,0,0,-0.471028,0.268099,0,0,0,0,0.000980991,-0.0028829,18084,-0.47106,0.268194,0.000980991,-0.0028829,9456,0,0,0,0,2,-0.294909
9508,-3.73718e-12,0,-1.59044e-06,-3.892e-12,0,0,0,0,0,-3.55586,0.269613,0.549842,0,0,0,0,0,-0.471523,0.269613,222,-71,222,-71,350,-84,231,53,-0.117798,-0.0872664,0,-1.5,3.94113e+12,0,0,0,-0.471226,0.26885,0,0,0,0,-0.000424144,-0.00123882,18084,-0.471217,0.268876,-0.000424144,-0.00123882,9494,0,0,0,0,2,-0.295735
9536,-3.73718e-12,0,-1.59044e-06,-3.892e-12,0,0,0,0,0,-3.55475,0.269605,0.540437,0,0,0,0,0,-0.470002,0.269605,222,-69,222,-69,350,-84,231,53,-0.118844,-0.0872664,0,-1.5,3.94113e+12,0,0,0,-0.471435,0.269642,0,0,0,0,-0.00567853,0.000505177,18084,-0.471384,0.269637,-0.00567853,0.000505177,9528,0,0,0,0,2,-0.296606
9562,-3.73718e-12,0,-1.59044e-06,-3.892e-12,0,0,0,0,0,-3.54546,0.26858,0.538911,0,0,0,0,0,-0.457275,0.26858,222,-71,222,-71,350,-84,231,53,-0.118331,-0.0872664,0,-1.5,3.94113e+12,0,0,0,-0.471371,0.269233,0,0,0,0,-0.00114937,-0.000328655,18084,-0.47136,0.269237,-0.00114937,-0.000328655,9554,0,0,0,0,2,-0.296157
9578,-3.73718e-12,0,-1.59044e-06,-3.892e-12,0,0,0,0,0,-3.54546,0.26858,0.538911,0,0,0,0,0,-0.457275,0.26858,222,-71,222,-71,350,-84,231,53,-0.118329,-0.0872664,0,-1.5,3.94113e+12,0,0,0,-0.47139,0.269228,0,0,0,0,-0.00114937,-0.000328655,18084,-0.47136,0.269237,-0.00114937,-0.000328655,9554,0,0,0,0,2,-0.296151
9600,-3.73718e-12,0,-1.59044e-06,-3.892e-12,0,0,0,0,0,-3.56343,0.268004,0.554399,0,0,0,0,0,-0.481903,0.268004,222,-71,222,-71,350,-84,232,53,-0.118037,-0.0872664,0,-1.5,3.94113e+12,0,0,0,-0.473192,0.268465,0,0,0,0,-0.0128718,-0.00021999,18084,-0.473012,0.268468,-0.0128718,-0.00021999,9588,0,0,0,0,2,-0.295312
9615,-3.73718e-12,0,-1.59044e-06,-3.892e-12,0,0,0,0,0,-3.56343,0.268004,0.554399,0,0,0,0,0,-0.481903,0.268004,222,-71,222,-71,350,-84,232,53,-0.118035,-0.0872664,0,-1.5,3.94113e+12,0,0,0,-0.473385,0.268462,0,0,0,0,-0.0128718,-0.00021999,18084,-0.473012,0.268468,-0.0128718,-0.00021999,9588,0,0,0,0,2,-0.295308
9637,-3.73718e-12,0,-1.59044e-06,-3.892e-12,0,0,0,0,0,-3.54546,0.26858,0.538911,0,0,0,0,0,-0.457275,0.26858,222,-71,222,-71,350,-84,231,53,-0.118182,-0.0872664,0,-1.5,3.94113e+12,0,0,0,-0.470739,0.268722,0,0,0,0,0.000567017,-0.000140227,18084,-0.470751,0.268725,0.000567017,-0.000140227,9622,0,0,0,0,2,-0.295594
9652,-3.73718e-12,0,-1.59044e-06,-3.892e-12,0,0,0,0,0,-3.54546,0.26858,0.538911,0,0,0,0,0,-0.457275,0.26858,222,-71,222,-71,350,-84,231,53,-0.118181,-0.0872664,0,-1.5,3.94113e+12,0,0,0,-0.47073,0.26872,0,0,0,0,0.000567017,-0.000140227,18084,-0.470751,0.268725,0.000567017,-0.000140227,9622,0,0,0,0,2,-0.295592
9673,-3.73718e-12,0,-1.59044e-06,-3.892e-12,0,0,0,0,0,-3.55293,0.266971,0.543395,0,0,0,0,0,-0.467511,0.266971,222,-71,222,-71,350,-84,232,53,-0.117654,-0.0872664,0,-1.5,3.94113e+12,0,0,0,-0.470558,0.26847,0,0,0,0,-0.00615582,-0.00118146,18084,-0.470429,0.268494,-0.00615582,-0.00118146,9659,0,0,0,0,2,-0.295317
9696,-3.73718e-12,0,-1.59044e-06,-3.892e-12,0,0,0,0,0,-3.57457,0.262019,0.556382,0,0,0,0,0,-0.497167,0.262019,222,-71,222,-71,350,-84,235,53,-0.117919,-0.0872664,0,-1.5,3.94113e+12,0,0,0,-0.475179,0.268602,0,0,0,0,-0.018606,-0.000664448,18084,-0.475049,0.268606,-0.018606,-0.000664448,9690,0,0,0,0,2,-0.295462
9710,-3.73718e-12,0,-1.59044e-06,-3.892e-12,0,0,0,0,0,-3.57457,0.262019,0.556382,0,0,0,0,0,-0.497167,0.262019,222,-71,222,-71,350,-84,235,53,-0.117915,-0.0872664,0,-1.5,3.94113e+12,0,0,0,-0.475458,0.268592,0,0,0,0,-0.018606,-0.000664448,18084,-0.475049,0.268606,-0.018606,-0.000664448,9690,0,0,0,0,2,-0.295451
9732,-3.73718e-12,0,-1.59044e-06,-3.892e-12,0,0,0,0,0,-3.55475,0.269605,0.540437,0,0,0,0,0,-0.470002,0.269605,222,-69,222,-69,350,-84,231,53,-0.117821,-0.0872664,0,-1.5,3.94113e+12,0,0,0,-0.471935,0.268427,0,0,0,0,-0.0071383,-0.000717587,18084,-0.471849,0.268436,-0.0071383,-0.000717587,9722,0,0,0,0,2,-0.29527
9748,-3.73718e-12,0,-1.59044e-06,-3.892e-12,0,0,0,0,0,-3.55475,0.269605,0.540437,0,0,0,0,0,-0.470002,0.269605,222,-69,222,-69,350,-84,231,53,-0.117816,-0.0872664,0,-1.5,3.94113e+12,0,0,0,-0.472049,0.268415,0,0,0,0,-0.0071383,-0.000717587,18084,-0.471849,0.268436,-0.0071383,-0.000717587,9722,0,0,0,0,2,-0.295257
9769,-3.73718e-12,0,-1.59044e-06,-3.892e-12,0,0,0,0,0,-3.54546,0.26858,0.538911,0,0,0,0,0,-0.457275,0.26858,222,-71,222,-71,350,-84,231,53,-0.11791,-0.0872664,0,-1.5,3.94113e+12,0,0,0,-0.468767,0.268403,0,0,0,0,0.00393664,-0.000468258,18084,-0.46885,0.268413,0.00393664,-0.000468258,9755,0,0,0,0,2,-0.295243
9785,-3.73718e-12,0,-1.59044e-06,-3.892e-12,0,0,0,0,0,-3.54546,0.26858,0.538911,0,0,0,0,0,-0.457275,0.26858,222,-71,222,-71,350,-84,231,53,-0.117907,-0.0872664,0,-1.5,3.94113e+12,0,0,0,-0.468704,0.268396,0,0,0,0,0.00393664,-0.000468258,18084,-0.46885,0.268413,0.00393664,-0.000468258,9755,0,0,0,0,2,-0.295235
9801,-3.73718e-12,0,-1.59044e-06,-3.892e-12,0,0,0,0,0,-3.54546,0.26858,0.538911,0,0,0,0,0,-0.457275,0.26858,222,-71,222,-71,350,-84,231,53,-0.117903,-0.0872664,0,-1.5,3.94113e+12,0,0,0,-0.468641,0.268388,0,0,0,0,0.00393664,-0.000468258,18084,-0.46885,0.268413,0.00393664,-0.000468258,9755,0,0,0,0,2,-0.295227
9817,-3.73718e-12,0,-1.59044e-06,-3.892e-12,0,0,0,0,0,-3.54546,0.26858,0.538911,0,0,0,0,0,-0.457275,0.26858,222,-71,222,-71,350,-84,231,53,-0.1179,-0.0872664,0,-1.5,3.94113e+12,0,0,0,-0.468582,0.268381,0,0,0,0,0.00393664,-0.000468258,18084,-0.46885,0.268413,0.00393664,-0.000468258,9755,0,0,0,0,2,-0.295219
9833,-3.73718e-12,0,-1.59044e-06,-3.892e-12,0,0,0,0,0,-3.54546,0.26858,0.538911,0,0,0,0,0,-0.457275,0.26858,222,-71,222,-71,350,-84,231,53,-0.117897,-0.0872664,0,-1.5,3.94113e+12,0,0,0,-0.468515,0.268373,0,0,0,0,0.00393664,-0.000468258,18084,-0.46885,0.268413,0.00393664,-0.000468258,9755,0,0,0,0,2,-0.29521
9848,-3.73718e-12,0,-1.59044e-06,-3.892e-12,0,0,0,0,0,-3.54546,0.26858,0.538911,0,0,0,0,0,-0.457275,0.26858,222,-71,222,-71,350,-84,231,53,-0.117894,-0.0872664,0,-1.5,3.94113e+12,0,0,0,-0.468456,0.268366,0,0,0,0,0.00393664,-0.000468258,18084,-0.46885,0.268413,0.00393664,-0.000468258,9755,0,0,0,0,2,-0.295203
9865,-3.73718e-12,0,-1.59044e-06,-3.892e-12,0,0,0,0,0,-3.54546,0.26858,0.538911,0,0,0,0,0,-0.457275,0.26858,222,-71,222,-71,350,-84,231,53,-0.11789,-0.0872664,0,-1.5,3.94113e+12,0,0,0,-0.468389,0.268358,0,0,0,0,0.00393664,-0.000468258,18084,-0.46885,0.268413,0.00393664,-0.000468258,9755,0,0,0,0,2,-0.295194
9881,-3.73718e-12,0,-1.59044e-06,-3.892e-12,0,0,0,0,0,-3.54546,0.26858,0.538911,0,0,0,0,0,-0.457275,0.26858,222,-71,222,-71,350,-84,231,53,-0.117887,-0.0872664,0,-1.5,3.94113e+12,0,0,0,-0.468326,0.268351,0,0,0,0,0.00393664,-0.000468258,18084,-0.46885,0.268413,0.00393664,-0.000468258,9755,0,0,0,0,2,-0.295186
9896,-3.73718e-12,0,-1.59044e-06,-3.892e-12,0,0,0,0,0,-3.54546,0.26858,0.538911,0,0,0,0,0,-0.457275,0.26858,222,-71,222,-71,350,-84,231,53,-0.117884,-0.0872664,0,-1.5,3.94113e+12,0,0,0,-0.468267,0.268344,0,0,0,0,0.00393664,-0.000468258,18084,-0.46885,0.268413,0.00393664,-0.000468258,9755,0,0,0,0,2,-0.295178
9913,-3.73718e-12,0,-1.59044e-06,-3.892e-12,0,0,0,0,0,-3.54546,0.26858,0.538911,0,0,0,0,0,-0.457275,0.26858,222,-71,222,-71,350,-84,231,53,-0.11788,-0.0872664,0,-1.5,3.94113e+12,0,0,0,-0.4682,0.268336,0,0,0,0,0.00393664,-0.000468258,18084,-0.46885,0.268413,0.00393664,-0.000468258,9755,0,0,0,0,2,-0.295169
9928,-3.73718e-12,0,-1.59044e-06,-3.892e-12,0,0,0,0,0,-3.54546,0.26858,0.538911,0,0,0,0,0,-0.457275,0.26858,222,-71,222,-71,350,-84,231,53,-0.117877,-0.0872664,0,-1.5,3.94113e+12,0,0,0,-0.468141,0.268329,0,0,0,0,0.00393664,-0.000468258,18084,-0.46885,0.268413,0.00393664,-0.000468258,9755,0,0,0,0,2,-0.295162
9943,-3.73718e-12,0,-1.59044e-06,-3.892e-12,0,0,0,0,0,-3.54546,0.26858,0.538911,0,0,0,0,0,-0.457275,0.26858,222,-71,222,-71,350,-84,231,53,-0.117874,-0.0872664,0,-1.5,3.94113e+12,0,0,0,-0.468082,0.268322,0,0,0,0,0.00393664,-0.000468258,18084,-0.46885,0.268413,0.00393664,-0.000468258,9755,0,0,0,0,2,-0.295154
9965,-3.73718e-12,0,-1.59044e-06,-3.892e-12,0,0,0,0,0,-3.62818,0.259483,0.57925,0,0,0,0,0,-0.570608,0.259483,227,-67,227,-67,351,-82,232,52,-0.116355,-0.0872664,0,-1.5,3.94113e+12,0,0,0,-0.472884,0.267205,0,0,0,0,-0.00149842,-0.00303689,17018,-0.472871,0.267232,-0.00149842,-0.00303689,9957,0,0,0,0,2,-0.293925
9980,-3.73718e-12,0,-1.59044e-06,-3.892e-12,0,0,0,0,0,-3.62818,0.259483,0.57925,0,0,0,0,0,-0.570608,0.259483,227,-67,227,-67,351,-82,232,52,-0.116334,-0.0872664,0,-1.5,3.94113e+12,0,0,0,-0.472908,0.267156,0,0,0,0,-0.00149842,-0.00303689,17018,-0.472871,0.267232,-0.00149842,-0.00303689,9957,0,0,0,0,2,-0.293872
9996,-3.73718e-12,0,-1.59044e-06,-3.892e-12,0,0,0,0,0,-3.62818,0.259483,0.57925,0,0,0,0,0,-0.570608,0.259483,227,-67,227,-67,351,-82,232,52,-0.116313,-0.0872664,0,-1.5,3.94113e+12,0,0,0,-0.472932,0.267108,0,0,0,0,-0.00149842,-0.00303689,17018,-0.472871,0.267232,-0.00149842,-0.00303689,9957,0,0,0,0,2,-0.293818
10012,-3.73718e-12,0,-1.59044e-06,-3.892e-12,0,0,0,0,0,-3.62818,0.259483,0.57925,0,0,0,0,0,-0.570608,0.259483,227,-67,227,-67,351,-82,232,52,-0.116291,-0.0872664,0,-1.5,3.94113e+12,0,0,0,-0.472956,0.267059,0,0,0,0,-0.00149842,-0.00303689,17018,-0.472871,0.267232,-0.00149842,-0.00303689,9957,0,0,0,0,2,-0.293765
10028,-3.73718e-12,0,-1.59044e-06,-3.892e-12,0,0,0,0,0,-3.62818,0.259483,0.57925,0,0,0,0,0,-0.570608,0.259483,227,-67,227,-67,351,-82,232,52,-0.11627,-0.0872664,0,-1.5,3.94113e+12,0,0,0,-0.47298,0.267011,0,0,0,0,-0.00149842,-0.00303689,17018,-0.472871,0.267232,-0.00149842,-0.00303689,9957,0,0,0,0,2,-0.293712
10044,-3.73718e-12,0,-1.59044e-06,-3.892e-12,0,0,0,0,0,-3.62818,0.259483,0.57925,0,0,0,0,0,-0.570608,0.259483,227,-67,227,-67,351,-82,232,52,-0.116249,-0.0872664,0,-1.5,3.94113e+12,0,0,0,-0.473004,0.266962,0,0,0,0,-0.00149842,-0.00303689,17018,-0.472871,0.267232,-0.00149842,-0.00303689,9957,0,0,0,0,2,-0.293658
10060,-3.73718e-12,0,-1.59044e-06,-3.892e-12,0,0,0,0,0,-3.62818,0.259483,0.57925,0,0,0,0,0,-0.570608,0.259483,227,-67,227,-67,351,-82,232,52,-0.116228,-0.0872664,0,-1.5,3.94113e+12,0,0,0,-0.473027,0.266916,0,0,0,0,-0.00149842,-0.00303689,17018,-0.472871,0.267232,-0.00149842,-0.00303689,9957,0,0,0,0,2,-0.293608
10075,-3.73718e-12,0,-1.59044e-06,-3.892e-12,0,0,0,0,0,-3.62818,0.259483,0.57925,0,0,0,0,0,-0.570608,0.259483,227,-67,227,-67,351,-82,232,52,-0.116207,-0.0872664,0,-1.5,3.94113e+12,0,0,0,-0.473051,0.266868,0,0,0,0,-0.00149842,-0.00303689,17018,-0.472871,0.267232,-0.00149842,-0.00303689,9957,0,0,0,0,2,-0.293555
10097,-3.73718e-12,0,-1.59044e-06,-3.892e-12,0,0,0,0,0,-3.57474,0.264609,0.5528,0,0,0,0,0,-0.497396,0.264609,223,-68,223,-68,351,-84,232,52,-0.115939,-0.0872664,0,-1.5,3.94113e+12,0,0,0,-0.479521,0.266419,0,0,0,0,-0.0128862,-0.00321304,17816,-0.479393,0.266451,-0.0128862,-0.00321304,10089,0,0,0,0,2,-0.29306
10112,-3.73718e-12,0,-1.59044e-06,-3.892e-12,0,0,0,0,0,-3.57474,0.264609,0.5528,0,0,0,0,0,-0.497396,0.264609,223,-68,223,-68,351,-84,232,52,-0.115918,-0.0872664,0,-1.5,3.94113e+12,0,0,0,-0.479715,0.26637,0,0,0,0,-0.0128862,-0.00321304,17816,-0.479393,0.266451,-0.0128862,-0.00321304,10089,0,0,0,0,2,-0.293007
10129,-3.73718e-12,0,-1.59044e-06,-3.892e-12,0,0,0,0,0,-3.57474,0.264609,0.5528,0,0,0,0,0,-0.497396,0.264609,223,-68,223,-68,351,-84,232,52,-0.115894,-0.0872664,0,-1.5,3.94113e+12,0,0,0,-0.479934,0.266316,0,0,0,0,-0.0128862,-0.00321304,17816,-0.479393,0.266451,-0.0128862,-0.00321304,10089,0,0,0,0,2,-0.292947
10144,-3.73718e-12,0,-1.59044e-06,-3.892e-12,0,0,0,0,0,-3.57474,0.264609,0.5528,0,0,0,0,0,-0.497396,0.264609,223,-68,223,-68,351,-84,232,52,-0.115873,-0.0872664,0,-1.5,3.94113e+12,0,0,0,-0.480127,0.266268,0,0,0,0,-0.0128862,-0.00321304,17816,-0.479393,0.266451,-0.0128862,-0.00321304,10089,0,0,0,0,2,-0.292894
10159,-3.73718e-12,0,-1.59044e-06,-3.892e-12,0,0,0,0,0,-3.57474,0.264609,0.5528,0,0,0,0,0,-0.497396,0.264609,223,-68,223,-68,351,-84,232,52,-0.115851,-0.0872664,0,-1.5,3.94113e+12,0,0,0,-0.48032,0.266219,0,0,0,0,-0.0128862,-0.00321304,17816,-0.479393,0.266451,-0.0128862,-0.00321304,10089,0,0,0,0,2,-0.292841
10175,-3.73718e-12,0,-1.59044e-06,-3.892e-12,0,0,0,0,0,-3.57474,0.264609,0.5528,0,0,0,0,0,-0.497396,0.264609,223,-68,223,-68,351,-84,232,52,-0.11583,-0.0872664,0,-1.5,3.94113e+12,0,0,0,-0.480514,0.266171,0,0,0,0,-0.0128862,-0.00321304,17816,-0.479393,0.266451,-0.0128862,-0.00321304,10089,0,0,0,0,2,-0.292788
10191,-3.73718e-12,0,-1.59044e-06,-3.892e-12,0,0,0,0,0,-3.57474,0.264609,0.5528,0,0,0,0,0,-0.497396,0.264609,223,-68,223,-68,351,-84,232,52,-0.115806,-0.0872664,0,-1.5,3.94113e+12,0,0,0,-0.480733,0.266117,0,0,0,0,-0.0128862,-0.00321304,17816,-0.479393,0.266451,-0.0128862,-0.00321304,10089,0,0,0,0,2,-0.292728
10207,-3.73718e-12,0,-1.59044e-06,-3.892e-12,0,0,0,0,0,-3.57474,0.264609,0.5528,0,0,0,0,0,-0.497396,0.264609,223,-68,223,-68,351,-84,232,52,-0.115783,-0.0872664,0,-1.5,3.94113e+12,0,0,0,-0.480939,0.266065,0,0,0,0,-0.0128862,-0.00321304,17816,-0.479393,0.266451,-0.0128862,-0.00321304,10089,0,0,0,0,2,-0.292672
10228,-3.73718e-12,0,-1.59044e-06,-3.892e-12,0,0,0,0,0,-3.57474,0.264609,0.5528,0,0,0,0,0,-0.497396,0.264609,223,-68,223,-68,351,-84,232,52,-0.11484,-0.0872664,0,-1.5,3.94113e+12,0,0,0,-0.498173,0.264795,0,0,0,0,-0.0308373,-0.00417515,17816,-0.497865,0.264837,-0.0308373,-0.00417515,10220,0,0,0,0,2,-0.291275
10244,-3.73718e-12,0,-1.59044e-06,-3.892e-12,0,0,0,0,0,-3.57474,0.264609,0.5528,0,0,0,0,0,-0.497396,0.264609,223,-68,223,-68,351,-84,232,52,-0.11481,-0.0872664,0,-1.5,3.94113e+12,0,0,0,-0.498667,0.264728,0,0,0,0,-0.0308373,-0.00417515,17816,-0.497865,0.264837,-0.0308373,-0.00417515,10220,0,0,0,0,2,-0.291201
10266,-3.73718e-12,0,-1.59044e-06,-3.892e-12,0,0,0,0,0,-3.58951,0.265359,0.557753,0,0,0,0,0,-0.517627,0.265359,223,-68,223,-68,351,-82,232,52,-0.115182,-0.0872664,0,-1.5,3.94113e+12,0,0,0,-0.500416,0.265166,0,0,0,0,-0.0331475,-0.00372827,17554,-0.500118,0.265199,-0.0331475,-0.00372827,10258,0,0,0,0,2,-0.291682
10281,-3.73718e-12,0,-1.59044e-06,-3.892e-12,0,0,0,0,0,-3.58951,0.265359,0.557753,0,0,0,0,0,-0.517627,0.265359,223,-68,223,-68,351,-82,232,52,-0.115155,-0.0872664,0,-1.5,3.94113e+12,0,0,0,-0.500946,0.265106,0,0,0,0,-0.0331475,-0.00372827,17554,-0.500118,0.265199,-0.0331475,-0.00372827,10258,0,0,0,0,2,-0.291617
10303,-3.73718e-12,0,-1.59044e-06,-3.892e-12,0,0,0,0,0,-3.59624,0.261949,0.56384,0,0,0,0,0,-0.526846,0.261949,225,-67,225,-67,351,-84,232,52,-0.114486,-0.0872664,0,-1.5,3.94113e+12,0,0,0,-0.504641,0.264232,0,0,0,0,-0.0366025,-0.00444039,17544,-0.503836,0.26433,-0.0366025,-0.00444039,10289,0,0,0,0,2,-0.290656
10319,-3.73718e-12,0,-1.59044e-06,-3.892e-12,0,0,0,0,0,-3.59624,0.261949,0.56384,0,0,0,0,0,-0.526846,0.261949,225,-67,225,-67,351,-84,232,52,-0.114455,-0.0872664,0,-1.5,3.94113e+12,0,0,0,-0.505226,0.264161,0,0,0,0,-0.0366025,-0.00444039,17544,-0.503836,0.26433,-0.0366025,-0.00444039,10289,0,0,0,0,2,-0.290578
10345,-3.73718e-12,0,-1.59044e-06,-3.892e-12,0,0,0,0,0,-3.60509,0.264788,0.569177,0,0,0,0,0,-0.538971,0.264788,225,-67,225,-67,351,-84,232,52,-0.114611,-0.0872664,0,-1.5,3.94113e+12,0,0,0,-0.509131,0.264404,0,0,0,0,-0.0392089,-0.00431782,17408,-0.508111,0.264516,-0.0392089,-0.00431782,10326,0,0,0,0,2,-0.290845
10358,-3.73718e-12,0,-1.59044e-06,-3.892e-12,0,0,0,0,0,-3.60509,0.264788,0.569177,0,0,0,0,0,-0.538971,0.264788,225,-67,225,-67,351,-84,232,52,-0.114586,-0.0872664,0,-1.5,3.94113e+12,0,0,0,-0.50964,0.264348,0,0,0,0,-0.0392089,-0.00431782,17408,-0.508111,0.264516,-0.0392089,-0.00431782,10326,0,0,0,0,2,-0.290783
10373,-3.73718e-12,0,-1.59044e-06,-3.892e-12,0,0,0,0,0,-3.60509,0.264788,0.569177,0,0,0,0,0,-0.538971,0.264788,225,-67,225,-67,351,-84,232,52,-0.114558,-0.0872664,0,-1.5,3.94113e+12,0,0,0,-0.510229,0.264283,0,0,0,0,-0.0392089,-0.00431782,17408,-0.508111,0.264516,-0.0392089,-0.00431782,10326,0,0,0,0,2,-0.290712
10388,-3.73718e-12,0,-1.59044e-06,-3.892e-12,0,0,0,0,0,-3.60509,0.264788,0.569177,0,0,0,0,0,-0.538971,0.264788,225,-67,225,-67,351,-84,232,52,-0.114529,-0.0872664,0,-1.5,3.94113e+12,0,0,0,-0.510817,0.264219,0,0,0,0,-0.0392089,-0.00431782,17408,-0.508111,0.264516,-0.0392089,-0.00431782,10326,0,0,0,0,2,-0.29064
10409,-3.73718e-12,0,-1.59044e-06,-3.892e-12,0,0,0,0,0,-3.68574,0.265736,0.593267,0,0,0,0,0,-0.649463,0.265736,225,-69,225,-69,351,-70,232,52,-0.114738,-0.0872664,0,-1.5,3.94113e+12,0,0,0,-0.526064,0.264493,0,0,0,0,-0.0531087,-0.00409739,15738,-0.524949,0.264579,-0.0531087,-0.00409739,10395,0,0,0,0,2,-0.290943
10426,-3.73718e-12,0,-1.59044e-06,-3.892e-12,0,0,0,0,0,-3.68574,0.265736,0.593267,0,0,0,0,0,-0.649463,0.265736,225,-69,225,-69,351,-70,232,52,-0.114707,-0.0872664,0,-1.5,3.94113e+12,0,0,0,-0.526967,0.264424,0,0,0,0,-0.0531087,-0.00409739,15738,-0.524949,0.264579,-0.0531087,-0.00409739,10395,0,0,0,0,2,-0.290866
10441,-3.73718e-12,0,-1.59044e-06,-3.892e-12,0,0,0,0,0,-3.68574,0.265736,0.593267,0,0,0,0,0,-0.649463,0.265736,225,-69,225,-69,351,-70,232,52,-0.11468,-0.0872664,0,-1.5,3.94113e+12,0,0,0,-0.527764,0.264362,0,0,0,0,-0.0531087,-0.00409739,15738,-0.524949,0.264579,-0.0531087,-0.00409739,10395,0,0,0,0,2,-0.290798
10463,-3.73718e-12,0,-1.59044e-06,-3.892e-12,0,0,0,0,0,-3.57474,0.264609,0.5528,0,0,0,0,0,-0.497396,0.264609,223,-68,223,-68,351,-84,232,52,-0.114556,-0.0872664,0,-1.5,3.94113e+12,0,0,0,-0.524369,0.264359,0,0,0,0,-0.0500794,-0.00440601,17816,-0.523968,0.264394,-0.0500794,-0.00440601,10457,0,0,0,0,2,-0.290795
10479,-3.73718e-12,0,-1.59044e-06,-3.892e-12,0,0,0,0,0,-3.57474,0.264609,0.5528,0,0,0,0,0,-0.497396,0.264609,223,-68,223,-68,351,-84,232,52,-0.114525,-0.0872664,0,-1.5,3.94113e+12,0,0,0,-0.52517,0.264289,0,0,0,0,-0.0500794,-0.00440601,17816,-0.523968,0.264394,-0.0500794,-0.00440601,10457,0,0,0,0,2,-0.290718
