timestamp,A_x,A_y,A_z,P,Q,R,Phi,Theta,Psi,poseX,poseY,poseZ,state_X,state_Y,state_Z,state_VzB,state_Bx,state_By,state_Bz,p1_x,p1_y,p2_x,p2_y,p3_x,p3_y,p4_x,p4_y,roll,pitch,yaw,alt,targetHeading,highLevelState,lowLevelState,gateNumber,filtered_x,filtered_y,x_OT,y_OT,vx_OT,vy_OT,filtered_vx,filtered_vygateArearansac_corr_x,ransac_corr_y,ransac_corr_vx,ransac_corr_vy,detectionTimeStamp
5831,0,0,0,0,0,0,0,0,0,0,0,0,0,0,0,0,0,0,0,0,0,0,0,0,0,0,0,0,-0,0,-1.5,3.94113e+12,0,0,0,0,0,0,0,0,0,0,0,1.9603e-19,0,0,0,0,0
5846,0,0,0,0,0,0,0,0,0,0,0,0,0,0,0,0,0,0,0,0,0,0,0,0,0,0,0,0,-0,0,-1.5,3.94113e+12,0,0,0,0,0,0,0,0,0,0,0,1.9603e-19,0,0,0,0,0
6559,-3.21335e-12,1.25666e-38,-1.576e-06,-3.27827e-12,1.25654e-38,-3.40904e-12,-1.13703e-13,0,0,0,0,0,0,0,0,0,0,0,0,0,0,0,0,0,0,0,0,0,-0,0,-1.5,3.94113e+12,0,0,0,0,0,0,0,0,0,0,0,1.9603e-19,0,0,0,0,0
6660,-3.21335e-12,1.25666e-38,-1.576e-06,-3.27827e-12,1.25654e-38,0,-1.13703e-13,0,0,0,0,0,0,0,0,0,0,0,0,0,0,0,0,0,0,0,0,0,-0,0,-1.5,3.94113e+12,0,0,0,0,0,0,0,0,0,0,0,1.9603e-19,0,0,0,0,0
6800,-3.21335e-12,1.25666e-38,-1.576e-06,-3.27827e-12,1.25654e-38,-3.40904e-12,-1.13704e-13,0,0,0,0,0,0,0,0,0,0,0,0,0,0,0,0,0,0,0,0,0,-0,0,-1.5,3.94113e+12,0,0,0,0,0,0,0,0,0,0,0,1.9603e-19,0,0,0,0,0
7000,-3.21335e-12,1.25666e-38,-1.576e-06,-3.27827e-12,1.25654e-38,0,-1.13704e-13,0,0,0,0,0,0,0,0,0,0,0,0,0,0,0,0,0,0,0,0,0,-0,0,-1.5,3.94113e+12,0,0,0,0,0,0,0,0,0,0,0,1.9603e-19,0,0,0,0,0
7140,-3.21335e-12,1.25666e-38,-1.576e-06,-3.27827e-12,1.25654e-38,-3.40904e-12,-1.13705e-13,0,0,0,0,0,0,0,0,0,0,0,0,0,0,0,0,0,0,0,0,0,-0,0,-1.5,3.94113e+12,0,0,0,0,0,0,0,0,0,0,0,1.9603e-19,0,0,0,0,0
7250,-3.21335e-12,1.25666e-38,-1.576e-06,-3.27827e-12,1.25654e-38,0,-1.13705e-13,0,0,0,0,0,0,0,0,0,0,0,0,0,0,0,0,0,0,0,0,0,-0,0,-1.5,3.94113e+12,0,0,0,0,0,0,0,0,0,0,0,1.9603e-19,0,0,0,0,0
7630,-3.21335e-12,1.25666e-38,-1.576e-06,-3.27827e-12,1.25654e-38,-3.40904e-12,-1.13706e-13,0,0,-3.66949,-0.231308,0.287217,0,0,0,0,0,-0.627195,-0.231308,283,-35,283,-35,407,-42,287,87,0,-0,0,-1.5,3.94113e+12,0,0,0,0,0,0,0,0,0,0,0,15996,0,0,0,0,7622
7770,-3.21335e-12,1.25666e-38,-1.576e-06,-3.27827e-12,1.25654e-38,0,-1.13706e-13,0,0,-3.62739,-0.238792,0.243939,0,0,0,0,0,-0.569528,-0.238792,283,-31,283,-31,405,-40,287,91,0,-0,0,-1.5,3.94113e+12,0,0,0,0,0,0,0,0,0,0,0,17161,0,0,0,0,7762
7880,-3.21335e-12,1.25666e-38,-1.576e-06,-3.27827e-12,1.25654e-38,-3.40904e-12,-1.13707e-13,0,0,-3.62739,-0.238792,0.243939,0,0,0,0,0,-0.569528,-0.238792,283,-31,283,-31,405,-40,287,91,0,-0,0,-1.5,3.94113e+12,0,0,0,0,0,0,0,0,0,0,0,17161,0,0,0,0,7762
8160,-3.21335e-12,1.25666e-38,-1.576e-06,-3.27827e-12,1.25654e-38,0,-1.13708e-13,0,0,-3.65794,-0.220642,0.257538,0,0,0,0,0,-0.611378,-0.220642,283,-30,283,-30,402,-40,284,91,0,-0,0,-1.5,3.94113e+12,0,0,0,0,0,0,0,0,0,0,0,16768,0,0,0,0,8152
8310,-3.21335e-12,1.25666e-38,-1.576e-06,-3.27827e-12,1.25654e-38,-3.40904e-12,-1.13708e-13,0,0,-3.71964,-0.19077,0.28458,0,0,0,0,0,-0.695903,-0.19077,278,-30,278,-30,399,-38,284,91,0,-0,0,-1.5,3.94113e+12,0,0,0,0,0,0,0,0,0,0,0,16254,0,0,0,0,8304
8508,-3.21335e-12,1.25666e-38,-1.576e-06,-3.27827e-12,1.25654e-38,0,-1.13709e-13,0,0,-3.71959,-0.195584,0.28022,0,0,0,0,0,-0.695835,-0.195584,278,-30,278,-30,401,-36,284,91,0.214678,-0.436332,0,-1.5,3.94113e+12,0,0,0,-0.734644,-0.176048,0,0,0,0,-0.188059,0.0714612,16002,-0.708503,-0.185982,-0.188059,0.0714612,8371
8613,-3.21335e-12,1.25666e-38,-1.576e-06,-3.27827e-12,1.25654e-38,-3.40904e-12,-1.13709e-13,0,0,-3.66114,-0.185136,0.258999,0,0,0,0,0,-0.615756,-0.185136,278,-30,278,-30,399,-40,281,91,0.0832488,-0.396003,0,-1.5,3.94113e+12,0,0,0,-0.75439,-0.178719,0,0,0,0,-0.188059,0.0611108,16768,-0.734644,-0.185136,-0.188059,0.0611108,8602
8686,-3.21335e-12,1.25666e-38,-1.576e-06,-3.27827e-12,1.25654e-38,0,-1.13715e-13,0,0,-3.68458,-0.193032,0.261924,0,0,0,0,0,-0.647874,-0.193032,278,-28,278,-28,399,-40,284,91,0.0827537,-0.39207,0,-1.5,3.94113e+12,0,0,0,-0.749902,-0.176537,0,0,0,0,-0.171163,0.0551503,16768,-0.737407,-0.180563,-0.171163,0.0551503,8674
8823,-3.21335e-12,1.25666e-38,-1.576e-06,-3.27827e-12,1.25654e-38,-3.40904e-12,-1.13715e-13,0,0,-3.68477,-0.195635,0.278132,0,0,0,0,0,-0.648133,-0.195635,278,-30,278,-30,401,-40,283,88,0.0816439,-0.332797,0,-1.5,3.94113e+12,0,0,0,-0.656135,-0.173337,0,0,0,0,-0.0473009,0.0502467,16384,-0.649654,-0.180221,-0.0473009,0.0502467,8811
8934,-3.21335e-12,1.25666e-38,-1.576e-06,-3.27827e-12,1.25654e-38,0,-1.1371e-13,0,0,-3.69792,-0.193949,0.279976,0,0,0,0,0,-0.666154,-0.193949,278,-30,278,-30,401,-40,284,90,0.081536,-0.341324,0,-1.5,3.94113e+12,0,0,0,-0.671866,-0.171992,0,0,0,0,-0.0538991,0.0445975,16380,-0.665883,-0.176942,-0.0538991,0.0445975,8922
8983,-3.21335e-12,1.25666e-38,-1.576e-06,-3.27827e-12,1.25654e-38,-3.40904e-12,-1.13711e-13,0,0,-3.68467,-0.191538,0.270856,0,0,0,0,0,-0.647998,-0.191538,278,-30,278,-30,401,-40,283,88,0.0901074,-0.339863,0,-1.5,3.94113e+12,0,0,0,-0.669063,-0.184818,0,0,0,0,-0.0533284,0.0230121,16128,-0.666503,-0.185922,-0.0533284,0.0230121,8971
9394,-3.21335e-12,1.25666e-38,-1.576e-06,-3.27827e-12,1.25654e-38,0,-1.13712e-13,0,0,-3.66216,-0.181133,0.252348,0,0,0,0,0,-0.617154,-0.181133,278,-30,278,-30,399,-40,281,91,0.0806815,-0.326864,0,-1.5,3.94113e+12,0,0,0,-0.652619,-0.167837,0,0,0,0,-0.00554079,0.0323709,16506,-0.650336,-0.181174,-0.00554079,0.0323709,9382
9461,-3.21335e-12,1.25666e-38,-1.576e-06,-3.27827e-12,1.25654e-38,-3.40904e-12,-1.13712e-13,0,0,-3.72736,-0.197761,0.292691,0,0,0,0,0,-0.706478,-0.197761,278,-30,278,-30,399,-40,287,91,0.0940055,-0.29546,0,-1.5,3.94113e+12,0,0,0,-0.606285,-0.18914,0,0,0,0,0.0768397,0.00564934,16506,-0.611434,-0.189519,0.0768397,0.00564934,9449
9734,-3.21335e-12,1.25666e-38,-1.576e-06,-3.27827e-12,1.25654e-38,0,-1.13714e-13,0,0,-3.69217,-0.191903,0.286118,0,0,0,0,0,-0.658279,-0.191903,278,-32,278,-32,401,-40,283,88,0.0954859,-0.329327,0,-1.5,3.94113e+12,0,0,0,-0.65823,-0.191288,0,0,0,0,-0.00212151,0.00157454,16128,-0.657651,-0.191718,-0.00212151,0.00157454,9722
9780,-3.21335e-12,1.25666e-38,-1.576e-06,-3.27827e-12,1.25654e-38,-3.40904e-12,-1.1371e-13,0,0,-3.67586,-0.181877,0.273088,0,0,0,0,0,-0.635935,-0.181877,278,-32,278,-32,399,-40,281,90,0.0957437,-0.312768,0,-1.5,3.94113e+12,0,0,0,-0.633779,-0.191698,0,0,0,0,0.0412233,0.00104887,16380,-0.635675,-0.191746,0.0412233,0.00104887,9768
10014,-3.21335e-12,1.25666e-38,-1.576e-06,-3.27827e-12,1.25654e-38,0,-1.13714e-13,0,0,-3.62817,-0.192242,0.242115,0,0,0,0,0,-0.570594,-0.192242,278,-30,278,-30,401,-40,281,91,0.0957791,-0.291284,0,-1.5,3.94113e+12,0,0,0,-0.594436,-0.191694,0,0,0,0,0.0593668,0.00068293,17030,-0.608328,-0.191854,0.0593668,0.00068293,10002
10049,-3.21335e-12,1.25666e-38,-1.576e-06,-3.27827e-12,1.25654e-38,-3.40904e-12,-1.13716e-13,0,0,-3.64918,-0.184772,0.248182,0,0,0,0,0,-0.59938,-0.184772,278,-30,278,-30,399,-40,281,91,0.0919728,-0.295037,0,-1.5,3.94113e+12,0,0,0,-0.600422,-0.185123,0,0,0,0,0.0517305,0.00588788,16768,-0.602232,-0.185329,0.0517305,0.00588788,10037
10074,-3.21335e-12,1.25666e-38,-1.576e-06,-3.27827e-12,1.25654e-38,0,-1.13721e-13,0,0,-3.66832,-0.1856,0.265061,0,0,0,0,0,-0.6256,-0.1856,278,-30,278,-30,399,-40,281,90,0.0971058,-0.436332,0,-1.5,3.94113e+12,0,0,0,-0.623129,-0.185279,0,0,0,0,0.0340052,0.00603497,16640,-0.623333,-0.185315,0.0340052,0.00603497,10070
10090,-3.21335e-12,1.25666e-38,-1.576e-06,-3.27827e-12,1.25654e-38,-3.40904e-12,-1.13713e-13,0,0,-3.66832,-0.1856,0.265061,0,0,0,0,0,-0.6256,-0.1856,278,-30,278,-30,399,-40,281,90,0.0919876,-0.307892,0,-1.5,3.94113e+12,0,0,0,-0.622585,-0.185182,0,0,0,0,0.0340052,0.00603497,16640,-0.623333,-0.185315,0.0340052,0.00603497,10070
10208,-3.21335e-12,1.25666e-38,-1.576e-06,-3.27827e-12,1.25654e-38,0,-1.13722e-13,0,0,-3.63728,-0.184487,0.246309,0,0,0,0,0,-0.583067,-0.184487,278,-32,278,-32,399,-40,281,91,0.0720707,-0.330947,0,-1.5,3.94113e+12,0,0,0,-0.591175,-0.184569,0,0,0,0,0.0466773,0.00610035,16768,-0.591455,-0.184605,0.0466773,0.00610035,10204
10416,-3.21335e-12,1.25666e-38,-1.576e-06,-3.27827e-12,1.25654e-38,-3.40904e-12,-1.13723e-13,0,0,-3.66072,-0.185037,0.249826,0,0,0,0,0,-0.615189,-0.185037,278,-28,278,-28,399,-40,281,91,0.0914159,-0.286008,0,-1.5,3.94113e+12,0,0,0,-0.581314,-0.183946,0,0,0,0,0.0465174,0.00557431,16768,-0.59099,-0.185106,0.0465174,0.00557431,10404
10484,-3.21335e-12,1.25666e-38,-1.576e-06,-3.27827e-12,1.25654e-38,0,-1.13723e-13,0,0,-3.63628,-0.193221,0.248665,0,0,0,0,0,-0.581699,-0.193221,278,-30,278,-30,401,-40,281,88,0.0910565,-0.285559,0,-1.5,3.94113e+12,0,0,0,-0.579336,-0.183316,0,0,0,0,0.0410827,0.00601331,16640,-0.582129,-0.183725,0.0410827,0.00601331,10471
10523,-3.21335e-12,1.25666e-38,-1.576e-06,-3.27827e-12,1.25654e-38,-3.40904e-12,-1.13724e-13,0,0,-3.70714,-0.190364,0.273425,0,0,0,0,0,-0.678786,-0.190364,278,-30,278,-30,399,-38,284,91,0.0946881,-0.298779,0,-1.5,3.94113e+12,0,0,0,-0.602728,-0.189769,0,0,0,0,0.025851,0.00196073,16254,-0.603736,-0.189845,0.025851,0.00196073,10510
10983,-3.21335e-12,1.25666e-38,-1.576e-06,-3.27827e-12,1.25654e-38,0,-1.13725e-13,0,0,-3.7688,-0.205417,0.312783,0,0,0,0,0,-0.763254,-0.205417,282,-30,282,-30,401,-36,283,88,0.0944082,-0.294882,0,-1.5,3.94113e+12,0,0,0,-0.59504,-0.189123,0,0,0,0,0.0263638,0.00153567,15128,-0.607141,-0.189828,0.0263638,0.00153567,10970
10999,-3.21335e-12,1.25666e-38,-1.576e-06,-3.27827e-12,1.25654e-38,-3.40904e-12,-1.13722e-13,0,0,-3.7688,-0.205417,0.312783,0,0,0,0,0,-0.763254,-0.205417,282,-30,282,-30,401,-36,283,88,0.0943952,-0.294658,0,-1.5,3.94113e+12,0,0,0,-0.594591,-0.189097,0,0,0,0,0.0263638,0.00153567,15128,-0.607141,-0.189828,0.0263638,0.00153567,10970
11023,-3.21335e-12,1.25666e-38,-1.576e-06,-3.27827e-12,1.25654e-38,0,-1.13717e-13,0,0,-3.67254,-0.191232,0.268894,0,0,0,0,0,-0.631378,-0.191232,278,-32,278,-32,401,-40,283,88,0.0958384,-0.318356,0,-1.5,3.94113e+12,0,0,0,-0.632533,-0.191266,0,0,0,0,-0.0209004,-0.00205058,16128,-0.632031,-0.191216,-0.0209004,-0.00205058,11011
11062,-3.21335e-12,1.25666e-38,-1.576e-06,-3.27827e-12,1.25654e-38,-3.40904e-12,-1.13719e-13,0,0,-3.63509,-0.19271,0.248018,0,0,0,0,0,-0.580071,-0.19271,278,-30,278,-30,401,-40,281,90,0.0964801,-0.292513,0,-1.5,3.94113e+12,0,0,0,-0.590796,-0.192269,0,0,0,0,0.0288444,-0.00345357,16900,-0.591921,-0.192134,0.0288444,-0.00345357,11050
11178,-3.21335e-12,1.25666e-38,-1.576e-06,-3.27827e-12,1.25654e-38,0,-1.13716e-13,0,0,-3.66645,-0.185445,0.261518,0,0,0,0,0,-0.623032,-0.185445,278,-30,278,-30,401,-40,281,91,0.0945022,-0.294298,0,-1.5,3.94113e+12,0,0,0,-0.593042,-0.189234,0,0,0,0,0.0222137,0.00114241,16506,-0.593265,-0.189245,0.0222137,0.00114241,11170
11219,-3.21335e-12,1.25666e-38,-1.576e-06,-3.27827e-12,1.25654e-38,-3.40904e-12,-1.13728e-13,0,0,-3.65655,-0.185918,0.260732,0,0,0,0,0,-0.609476,-0.185918,278,-32,278,-32,401,-40,281,88,0.0925877,-0.303005,0,-1.5,3.94113e+12,0,0,0,-0.607608,-0.185862,0,0,0,0,0.0079914,0.00343687,16128,-0.607936,-0.186003,0.0079914,0.00343687,11207
11240,-3.21335e-12,1.25666e-38,-1.576e-06,-3.27827e-12,1.25654e-38,0,-1.13728e-13,0,0,-3.65655,-0.185918,0.260732,0,0,0,0,0,-0.609476,-0.185918,278,-32,278,-32,401,-40,281,88,0.0927987,-0.303736,0,-1.5,3.94113e+12,0,0,0,-0.609265,-0.186217,0,0,0,0,0.00897719,0.00310393,16128,-0.609337,-0.186242,0.00897719,0.00310393,11234
11257,-3.21335e-12,1.25666e-38,-1.576e-06,-3.27827e-12,1.25654e-38,-3.40904e-12,-1.13718e-13,0,0,-3.65655,-0.185918,0.260732,0,0,0,0,0,-0.609476,-0.185918,278,-32,278,-32,401,-40,281,88,0.0927718,-0.303658,0,-1.5,3.94113e+12,0,0,0,-0.609113,-0.186165,0,0,0,0,0.00897719,0.00310393,16128,-0.609337,-0.186242,0.00897719,0.00310393,11234
11282,-3.21335e-12,1.25666e-38,-1.576e-06,-3.27827e-12,1.25654e-38,0,-1.13731e-13,0,0,-3.65655,-0.185918,0.260732,0,0,0,0,0,-0.609476,-0.185918,278,-32,278,-32,401,-40,281,88,0.0926604,-0.30302,0,-1.5,3.94113e+12,0,0,0,-0.607602,-0.186003,0,0,0,0,0.00781511,0.00340881,16128,-0.607797,-0.186089,0.00781511,0.00340881,11270
11395,-3.21335e-12,1.25666e-38,-1.576e-06,-3.27827e-12,1.25654e-38,-3.40904e-12,-1.13731e-13,0,0,-3.64128,-0.188504,0.248929,0,0,0,0,0,-0.588552,-0.188504,278,-30,278,-30,399,-40,281,91,0.0927294,-0.303167,0,-1.5,3.94113e+12,0,0,0,-0.607721,-0.186044,0,0,0,0,0.00692984,0.00292456,17030,-0.608504,-0.186374,0.00692984,0.00292456,11382
11446,-3.21335e-12,1.25666e-38,-1.576e-06,-3.27827e-12,1.25654e-38,0,-1.13732e-13,0,0,-3.62332,-0.192329,0.237324,0,0,0,0,0,-0.56395,-0.192329,278,-30,278,-30,401,-40,281,90,0.0930411,-0.305458,0,-1.5,3.94113e+12,0,0,0,-0.610011,-0.186037,0,0,0,0,-0.00453437,-0.000225966,16900,-0.609779,-0.186026,-0.00453437,-0.000225966,11434
11467,-3.21335e-12,1.25666e-38,-1.576e-06,-3.27827e-12,1.25654e-38,-3.40904e-12,-1.13719e-13,0,0,-3.62332,-0.192329,0.237324,0,0,0,0,0,-0.56395,-0.192329,278,-30,278,-30,401,-40,281,90,0.0930442,-0.305506,0,-1.5,3.94113e+12,0,0,0,-0.610106,-0.186042,0,0,0,0,-0.00453437,-0.000225966,16900,-0.609779,-0.186026,-0.00453437,-0.000225966,11434
11513,-3.21335e-12,1.25666e-38,-1.576e-06,-3.27827e-12,1.25654e-38,0,-1.13727e-13,0,0,-3.68567,-0.189087,0.264279,0,0,0,0,0,-0.649368,-0.189087,278,-30,278,-30,399,-40,284,91,0.0942259,-0.306262,0,-1.5,3.94113e+12,0,0,0,-0.610778,-0.188491,0,0,0,0,-0.00873628,0.000190037,16506,-0.610664,-0.188493,-0.00873628,0.000190037,11502
11625,-3.21335e-12,1.25666e-38,-1.576e-06,-3.27827e-12,1.25654e-38,-3.40904e-12,-1.1373e-13,0,0,-3.65321,-0.196182,0.259206,0,0,0,0,0,-0.604898,-0.196182,278,-32,278,-32,399,-40,284,91,0.0941638,-0.305161,0,-1.5,3.94113e+12,0,0,0,-0.609047,-0.188475,0,0,0,0,-0.00639108,0.000732654,17030,-0.608331,-0.188557,-0.00639108,0.000732654,11612
11658,-3.21335e-12,1.25666e-38,-1.576e-06,-3.27827e-12,1.25654e-38,0,-1.13727e-13,0,0,-3.6651,-0.196496,0.261064,0,0,0,0,0,-0.621184,-0.196496,278,-30,278,-30,399,-40,284,91,0.0947186,-0.307856,0,-1.5,3.94113e+12,0,0,0,-0.613686,-0.189206,0,0,0,0,-0.0101242,-0.00115088,17030,-0.613352,-0.189168,-0.0101242,-0.00115088,11645
11679,-3.21335e-12,1.25666e-38,-1.576e-06,-3.27827e-12,1.25654e-38,-3.40904e-12,-1.1372e-13,0,0,-3.67548,-0.204174,0.270577,0,0,0,0,0,-0.635408,-0.204174,278,-32,278,-32,399,-40,287,91,0.0949598,-0.309656,0,-1.5,3.94113e+12,0,0,0,-0.61629,-0.189474,0,0,0,0,-0.0151368,-0.00223117,17030,-0.616123,-0.18945,-0.0151368,-0.00223117,11670
11700,-3.21335e-12,1.25666e-38,-1.576e-06,-3.27827e-12,1.25654e-38,0,-1.1373e-13,0,0,-3.67548,-0.204174,0.270577,0,0,0,0,0,-0.635408,-0.204174,278,-32,278,-32,399,-40,287,91,0.0949835,-0.309818,0,-1.5,3.94113e+12,0,0,0,-0.616607,-0.189521,0,0,0,0,-0.0151368,-0.00223117,17030,-0.616123,-0.18945,-0.0151368,-0.00223117,11670
11721,-3.21335e-12,1.25666e-38,-1.576e-06,-3.27827e-12,1.25654e-38,-3.40904e-12,-1.13732e-13,0,0,-3.64128,-0.188504,0.248929,0,0,0,0,0,-0.588552,-0.188504,278,-30,278,-30,399,-40,281,91,0.0950832,-0.307575,0,-1.5,3.94113e+12,0,0,0,-0.613373,-0.18969,0,0,0,0,-0.00888055,-0.00238039,17030,-0.613186,-0.18964,-0.00888055,-0.00238039,11708
11765,-3.21335e-12,1.25666e-38,-1.576e-06,-3.27827e-12,1.25654e-38,0,-1.13734e-13,0,0,-3.64273,-0.180344,0.248711,0,0,0,0,0,-0.590536,-0.180344,278,-32,278,-32,399,-41,281,91,0.0941163,-0.306968,0,-1.5,3.94113e+12,0,0,0,-0.612386,-0.188379,0,0,0,0,-0.00773608,0.000736036,16632,-0.612046,-0.188411,-0.00773608,0.000736036,11752
11791,-3.21335e-12,1.25666e-38,-1.576e-06,-3.27827e-12,1.25654e-38,-3.40904e-12,-1.13734e-13,0,0,-3.65258,-0.195861,0.258986,0,0,0,0,0,-0.604033,-0.195861,281,-31,281,-31,399,-41,281,91,0.0951784,-0.301856,0,-1.5,3.94113e+12,0,0,0,-0.604291,-0.189893,0,0,0,0,0.00288197,-0.00231762,16764,-0.604366,-0.189833,0.00288197,-0.00231762,11778
11812,-3.21335e-12,1.25666e-38,-1.576e-06,-3.27827e-12,1.25654e-38,0,-1.13735e-13,0,0,-3.71954,-0.202127,0.300438,0,0,0,0,0,-0.695766,-0.202127,281,-31,281,-31,399,-41,284,88,0.0950738,-0.301569,0,-1.5,3.94113e+12,0,0,0,-0.60458,-0.189681,0,0,0,0,0.00722475,-0.00233292,16125,-0.604659,-0.189655,0.00722475,-0.00233292,11803
11829,-3.21335e-12,1.25666e-38,-1.576e-06,-3.27827e-12,1.25654e-38,-3.40904e-12,-1.13729e-13,0,0,-3.71954,-0.202127,0.300438,0,0,0,0,0,-0.695766,-0.202127,281,-31,281,-31,399,-41,284,88,0.0950943,-0.301504,0,-1.5,3.94113e+12,0,0,0,-0.604457,-0.189721,0,0,0,0,0.00722475,-0.00233292,16125,-0.604659,-0.189655,0.00722475,-0.00233292,11803
11935,-3.21335e-12,1.25666e-38,-1.576e-06,-3.27827e-12,1.25654e-38,0,-1.13736e-13,0,0,-3.6938,-0.200546,0.300258,0,0,0,0,0,-0.660508,-0.200546,283,-33,283,-33,402,-43,281,88,0.0978163,-0.302898,0,-1.5,3.94113e+12,0,0,0,-0.606416,-0.194648,0,0,0,0,0.00311022,-0.00492815,16113,-0.606746,-0.194125,0.00311022,-0.00492815,11922
12041,-3.21335e-12,1.25666e-38,-1.576e-06,-3.27827e-12,1.25654e-38,-3.40904e-12,-1.13736e-13,0,0,-3.66205,-0.19952,0.297321,0,0,0,0,0,-0.617003,-0.19952,281,-36,281,-36,402,-43,281,85,0.117776,-0.436332,0,-1.5,3.94113e+12,0,0,0,-0.617305,-0.194558,0,0,0,0,-0.0136864,-0.00348219,16000,-0.617209,-0.194533,-0.0136864,-0.00348219,12036
12055,-3.21335e-12,1.25666e-38,-1.576e-06,-3.27827e-12,1.25654e-38,0,-1.1372e-13,0,0,-3.66205,-0.19952,0.297321,0,0,0,0,0,-0.617003,-0.19952,281,-36,281,-36,402,-43,281,85,0.0976512,-0.310116,0,-1.5,3.94113e+12,0,0,0,-0.617497,-0.194606,0,0,0,0,-0.0136864,-0.00348219,16000,-0.617209,-0.194533,-0.0136864,-0.00348219,12036
12089,-3.21335e-12,1.25666e-38,-1.576e-06,-3.27827e-12,1.25654e-38,-3.40904e-12,-1.13737e-13,0,0,-3.702,-0.192039,0.324922,0,0,0,0,0,-0.671739,-0.192039,281,-35,281,-35,401,-45,281,85,0.0964832,-0.311554,0,-1.5,3.94113e+12,0,0,0,-0.620432,-0.192646,0,0,0,0,-0.0133562,-0.00159916,15860,-0.619978,-0.192592,-0.0133562,-0.00159916,12076
12210,-3.21335e-12,1.25666e-38,-1.576e-06,-3.27827e-12,1.25654e-38,0,-1.13737e-13,0,0,-3.72243,-0.178009,0.299961,0,0,0,0,0,-0.699733,-0.178009,278,-32,278,-32,399,-38,280,87,0.0960235,-0.309393,0,-1.5,3.94113e+12,0,0,0,-0.617881,-0.191852,0,0,0,0,-0.00454475,-0.000982534,15500,-0.61784,-0.191843,-0.00454475,-0.000982534,12203
12276,-3.21335e-12,1.25666e-38,-1.576e-06,-3.27827e-12,1.25654e-38,-3.40904e-12,-1.13738e-13,0,0,-3.69165,-0.173525,0.276656,0,0,0,0,0,-0.657562,-0.173525,278,-32,278,-32,398,-39,280,92,0.0934154,-0.332685,0,-1.5,3.94113e+12,0,0,0,-0.656715,-0.187303,0,0,0,0,-0.0432861,0.00235715,16244,-0.656325,-0.187324,-0.0432861,0.00235715,12269
12297,-3.21335e-12,1.25666e-38,-1.576e-06,-3.27827e-12,1.25654e-38,0,-1.13733e-13,0,0,-3.69165,-0.173525,0.276656,0,0,0,0,0,-0.657562,-0.173525,278,-32,278,-32,398,-39,280,92,0.0933914,-0.333139,0,-1.5,3.94113e+12,0,0,0,-0.657624,-0.187254,0,0,0,0,-0.0432861,0.00235715,16244,-0.656325,-0.187324,-0.0432861,0.00235715,12269
12319,-3.21335e-12,1.25666e-38,-1.576e-06,-3.27827e-12,1.25654e-38,-3.40904e-12,-1.13739e-13,0,0,-3.68782,-0.177838,0.274964,0,0,0,0,0,-0.652318,-0.177838,278,-32,278,-32,399,-38,280,92,0.0928722,-0.332704,0,-1.5,3.94113e+12,0,0,0,-0.656557,-0.186388,0,0,0,0,-0.0442804,0.00321998,16250,-0.655583,-0.186459,-0.0442804,0.00321998,12306
12436,-3.21335e-12,1.25666e-38,-1.576e-06,-3.27827e-12,1.25654e-38,0,-1.13725e-13,0,0,-3.65285,-0.160427,0.260913,0,0,0,0,0,-0.604399,-0.160427,275,-32,275,-32,397,-41,279,91,0.0902051,-0.331849,0,-1.5,3.94113e+12,0,0,0,-0.6562,-0.181774,0,0,0,0,-0.0375059,0.00682118,16764,-0.651812,-0.182572,-0.0375059,0.00682118,12422
12493,-3.21335e-12,1.25666e-38,-1.576e-06,-3.27827e-12,1.25654e-38,-3.40904e-12,-1.13738e-13,0,0,-3.74202,-0.193864,0.302358,0,0,0,0,0,-0.726568,-0.193864,281,-30,281,-30,399,-41,284,91,0.0908954,-0.339169,0,-1.5,3.94113e+12,0,0,0,-0.66848,-0.183013,0,0,0,0,-0.0492898,0.00611102,15972,-0.667889,-0.183086,-0.0492898,0.00611102,12482
12509,-3.21335e-12,1.25666e-38,-1.576e-06,-3.27827e-12,1.25654e-38,0,-1.13726e-13,0,0,-3.74202,-0.193864,0.302358,0,0,0,0,0,-0.726568,-0.193864,281,-30,281,-30,399,-41,284,91,0.0908427,-0.339585,0,-1.5,3.94113e+12,0,0,0,-0.669318,-0.182909,0,0,0,0,-0.0492898,0.00611102,15972,-0.667889,-0.183086,-0.0492898,0.00611102,12482
12559,-3.21335e-12,1.25666e-38,-1.576e-06,-3.27827e-12,1.25654e-38,-3.40904e-12,-1.13726e-13,0,0,-3.62966,-0.188222,0.247183,0,0,0,0,0,-0.572632,-0.188222,278,-32,278,-32,399,-40,281,91,0.0940554,-0.34131,0,-1.5,3.94113e+12,0,0,0,-0.672439,-0.18826,0,0,0,0,-0.0508979,0.000743153,17030,-0.669894,-0.188297,-0.0508979,0.000743153,12545
12697,-3.21335e-12,1.25666e-38,-1.576e-06,-3.27827e-12,1.25654e-38,0,-1.1374e-13,0,0,-3.72448,-0.186241,0.291327,0,0,0,0,0,-0.702538,-0.186241,281,-30,281,-30,399,-40,281,91,0.0934201,-0.346049,0,-1.5,3.94113e+12,0,0,0,-0.681036,-0.187104,0,0,0,0,-0.0553133,0.00131897,15851,-0.673901,-0.187274,-0.0553133,0.00131897,12570
12879,-3.21335e-12,1.25666e-38,-1.576e-06,-3.27827e-12,1.25654e-38,-3.40904e-12,-1.1374e-13,0,0,-3.68935,-0.195914,0.32964,0,0,0,0,0,-0.654411,-0.195914,278,-36,278,-36,401,-46,284,83,0.0960578,-0.342257,0,-1.5,3.94113e+12,0,0,0,-0.676277,-0.191701,0,0,0,0,-0.0411661,-0.00207292,16383,-0.675783,-0.191676,-0.0411661,-0.00207292,12869
12895,-3.21335e-12,1.25666e-38,-1.576e-06,-3.27827e-12,1.25654e-38,0,-1.13741e-13,0,0,-3.68935,-0.195914,0.32964,0,0,0,0,0,-0.654411,-0.195914,278,-36,278,-36,401,-46,284,83,0.0960743,-0.342587,0,-1.5,3.94113e+12,0,0,0,-0.676936,-0.191734,0,0,0,0,-0.0411661,-0.00207292,16383,-0.675783,-0.191676,-0.0411661,-0.00207292,12869
13050,-3.21335e-12,1.25666e-38,-1.576e-06,-3.27827e-12,1.25654e-38,-3.40904e-12,-1.13741e-13,0,0,-3.59712,-0.201637,0.284922,0,0,0,0,0,-0.528048,-0.201637,278,-38,278,-38,400,-48,284,85,0.0971731,-0.330884,0,-1.5,3.94113e+12,0,0,0,-0.656447,-0.193733,0,0,0,0,-0.0266063,-0.00306318,17689,-0.656074,-0.19369,-0.0266063,-0.00306318,13038
13066,-3.21335e-12,1.25666e-38,-1.576e-06,-3.27827e-12,1.25654e-38,0,-1.13742e-13,0,0,-3.59712,-0.201637,0.284922,0,0,0,0,0,-0.528048,-0.201637,278,-38,278,-38,400,-48,284,85,0.0971974,-0.331098,0,-1.5,3.94113e+12,0,0,0,-0.656873,-0.193782,0,0,0,0,-0.0266063,-0.00306318,17689,-0.656074,-0.19369,-0.0266063,-0.00306318,13038
13092,-3.21335e-12,1.25666e-38,-1.576e-06,-3.27827e-12,1.25654e-38,-3.40904e-12,-1.13742e-13,0,0,-3.65952,-0.189366,0.313357,0,0,0,0,0,-0.613544,-0.189366,278,-36,278,-36,400,-48,283,85,0.096057,-0.317059,0,-1.5,3.94113e+12,0,0,0,-0.631554,-0.191761,0,0,0,0,-0.0128074,-0.00176942,16891,-0.631221,-0.191715,-0.0128074,-0.00176942,13078
13212,-3.21335e-12,1.25666e-38,-1.576e-06,-3.27827e-12,1.25654e-38,0,-1.13743e-13,0,0,-3.71976,-0.190716,0.307312,0,0,0,0,0,-0.696067,-0.190716,278,-32,278,-32,399,-41,284,88,0.0953227,-0.315161,0,-1.5,3.94113e+12,0,0,0,-0.629125,-0.19082,0,0,0,0,-0.00599421,0.000870376,16254,-0.629065,-0.190829,-0.00599421,0.000870376,13204
13244,-3.21335e-12,1.25666e-38,-1.576e-06,-3.27827e-12,1.25654e-38,-3.40904e-12,-1.13743e-13,0,0,-3.66687,-0.185285,0.291119,0,0,0,0,0,-0.623607,-0.185285,278,-33,278,-33,399,-43,281,88,0.0941582,-0.311998,0,-1.5,3.94113e+12,0,0,0,-0.624676,-0.188856,0,0,0,0,0.00342392,0.002702,16768,-0.624711,-0.188883,0.00342392,0.002702,13236
13265,-3.21335e-12,1.25666e-38,-1.576e-06,-3.27827e-12,1.25654e-38,0,-1.13744e-13,0,0,-3.66687,-0.185285,0.291119,0,0,0,0,0,-0.623607,-0.185285,278,-33,278,-33,399,-43,281,88,0.0941291,-0.311959,0,-1.5,3.94113e+12,0,0,0,-0.624604,-0.188799,0,0,0,0,0.00342392,0.002702,16768,-0.624711,-0.188883,0.00342392,0.002702,13236
13287,-3.21335e-12,1.25666e-38,-1.576e-06,-3.27827e-12,1.25654e-38,-3.40904e-12,-1.13745e-13,0,0,-3.70577,-0.210852,0.317823,0,0,0,0,0,-0.676907,-0.210852,283,-35,283,-35,404,-43,283,85,0.094826,-0.310742,0,-1.5,3.94113e+12,0,0,0,-0.622903,-0.189987,0,0,0,0,0.00710179,0.00167632,15488,-0.623059,-0.190024,0.00710179,0.00167632,13273
13358,-3.21335e-12,1.25666e-38,-1.576e-06,-3.27827e-12,1.25654e-38,0,-1.13745e-13,0,0,-3.68606,-0.210118,0.322875,0,0,0,0,0,-0.649896,-0.210118,283,-38,283,-38,404,-45,283,83,0.0948514,-0.325225,0,-1.5,3.94113e+12,0,0,0,-0.647488,-0.190025,0,0,0,0,-0.0148087,0.00160831,15488,-0.646437,-0.190139,-0.0148087,0.00160831,13344
13386,-3.21335e-12,1.25666e-38,-1.576e-06,-3.27827e-12,1.25654e-38,-3.40904e-12,-1.13746e-13,0,0,-3.70142,-0.205729,0.311215,0,0,0,0,0,-0.670944,-0.205729,281,-33,281,-33,404,-43,283,85,0.0954817,-0.326677,0,-1.5,3.94113e+12,0,0,0,-0.65138,-0.191078,0,0,0,0,-0.0098864,0.00057393,15744,-0.651103,-0.191094,-0.0098864,0.00057393,13372
13408,-3.21335e-12,1.25666e-38,-1.576e-06,-3.27827e-12,1.25654e-38,0,-1.13746e-13,0,0,-3.71886,-0.206562,0.315628,0,0,0,0,0,-0.694838,-0.206562,283,-33,283,-33,402,-43,283,87,0.20034,-0.434098,0,-1.5,3.94113e+12,0,0,0,-0.658855,-0.198157,0,0,0,0,-0.0139687,-0.00564146,15730,-0.658757,-0.198118,-0.0139687,-0.00564146,13403
13429,-3.21335e-12,1.25666e-38,-1.576e-06,-3.27827e-12,1.25654e-38,-3.40904e-12,-1.13747e-13,0,0,-3.71886,-0.206562,0.315628,0,0,0,0,0,-0.694838,-0.206562,283,-33,283,-33,402,-43,283,87,0.0997019,-0.330972,0,-1.5,3.94113e+12,0,0,0,-0.659148,-0.198276,0,0,0,0,-0.0139687,-0.00564146,15730,-0.658757,-0.198118,-0.0139687,-0.00564146,13403
13452,-3.21335e-12,1.25666e-38,-1.576e-06,-3.27827e-12,1.25654e-38,0,-1.13747e-13,0,0,-3.68739,-0.204746,0.299125,0,0,0,0,0,-0.651723,-0.204746,281,-33,281,-33,404,-43,283,87,0.100478,-0.3257,0,-1.5,3.94113e+12,0,0,0,-0.651043,-0.199603,0,0,0,0,-0.00179338,-0.00676051,15990,-0.651001,-0.199448,-0.00179338,-0.00676051,13438
13489,-3.21335e-12,1.25666e-38,-1.576e-06,-3.27827e-12,1.25654e-38,-3.40904e-12,-1.13748e-13,0,0,-3.69596,-0.204991,0.296523,0,0,0,0,0,-0.663459,-0.204991,283,-33,283,-33,402,-43,283,90,0.103838,-0.325102,0,-1.5,3.94113e+12,0,0,0,-0.65111,-0.204806,0,0,0,0,0.00453181,-0.0143467,16093,-0.651277,-0.204275,0.00453181,-0.0143467,13475
13513,-3.21335e-12,1.25666e-38,-1.576e-06,-3.27827e-12,1.25654e-38,0,-1.13748e-13,0,0,-3.63167,-0.221655,0.277141,0,0,0,0,0,-0.575391,-0.221655,283,-35,283,-35,404,-43,283,87,0.104661,-0.322843,0,-1.5,3.94113e+12,0,0,0,-0.647092,-0.206158,0,0,0,0,0.00704793,-0.0158201,16640,-0.647191,-0.205936,0.00704793,-0.0158201,13501
13530,-3.21335e-12,1.25666e-38,-1.576e-06,-3.27827e-12,1.25654e-38,-3.40904e-12,-1.13749e-13,0,0,-3.63167,-0.221655,0.277141,0,0,0,0,0,-0.575391,-0.221655,283,-35,283,-35,404,-43,283,87,0.104787,-0.322786,0,-1.5,3.94113e+12,0,0,0,-0.64698,-0.206411,0,0,0,0,0.00704793,-0.0158201,16640,-0.647191,-0.205936,0.00704793,-0.0158201,13501
13552,-3.21335e-12,1.25666e-38,-1.576e-06,-3.27827e-12,1.25654e-38,0,-1.13749e-13,0,0,-3.6155,-0.216213,0.268661,0,0,0,0,0,-0.553237,-0.216213,281,-35,281,-35,404,-43,283,87,0.106932,-0.324464,0,-1.5,3.94113e+12,0,0,0,-0.650221,-0.209701,0,0,0,0,0.00645528,-0.0208142,16900,-0.650369,-0.209222,0.00645528,-0.0208142,13538
13616,-3.21335e-12,1.25666e-38,-1.576e-06,-3.27827e-12,1.25654e-38,-3.40904e-12,-1.1375e-13,0,0,-3.67122,-0.204151,0.295182,0,0,0,0,0,-0.629573,-0.204151,281,-35,281,-35,402,-43,283,87,0.107117,-0.323394,0,-1.5,3.94113e+12,0,0,0,-0.648088,-0.210169,0,0,0,0,0.00651121,-0.0203202,16250,-0.648179,-0.209885,0.00651121,-0.0203202,13604
13633,-3.21335e-12,1.25666e-38,-1.576e-06,-3.27827e-12,1.25654e-38,0,-1.1375e-13,0,0,-3.67122,-0.204151,0.295182,0,0,0,0,0,-0.629573,-0.204151,281,-35,281,-35,402,-43,283,87,0.107289,-0.323339,0,-1.5,3.94113e+12,0,0,0,-0.647977,-0.210515,0,0,0,0,0.00651121,-0.0203202,16250,-0.648179,-0.209885,0.00651121,-0.0203202,13604
13655,-3.21335e-12,1.25666e-38,-1.576e-06,-3.27827e-12,1.25654e-38,-3.40904e-12,-1.13751e-13,0,0,-3.60733,-0.211027,0.257462,0,0,0,0,0,-0.542035,-0.211027,281,-35,281,-35,402,-43,283,90,0.108102,-0.311306,0,-1.5,3.94113e+12,0,0,0,-0.62806,-0.211871,0,0,0,0,0.0272334,-0.0216726,17290,-0.62866,-0.211394,0.0272334,-0.0216726,13641
13682,-3.21335e-12,1.25666e-38,-1.576e-06,-3.27827e-12,1.25654e-38,0,-1.13752e-13,0,0,-3.6447,-0.218009,0.284034,0,0,0,0,0,-0.593237,-0.218009,283,-35,283,-35,402,-43,283,87,0.108736,-0.311657,0,-1.5,3.94113e+12,0,0,0,-0.628589,-0.212839,0,0,0,0,0.0263766,-0.0231645,16640,-0.628958,-0.212514,0.0263766,-0.0231645,13670
13699,-3.21335e-12,1.25666e-38,-1.576e-06,-3.27827e-12,1.25654e-38,-3.40904e-12,-1.13752e-13,0,0,-3.6447,-0.218009,0.284034,0,0,0,0,0,-0.593237,-0.218009,283,-35,283,-35,402,-43,283,87,0.108933,-0.311433,0,-1.5,3.94113e+12,0,0,0,-0.628141,-0.213232,0,0,0,0,0.0263766,-0.0231645,16640,-0.628958,-0.212514,0.0263766,-0.0231645,13670
13726,-3.21335e-12,1.25666e-38,-1.576e-06,-3.27827e-12,1.25654e-38,0,-1.13753e-13,0,0,-3.62161,-0.212063,0.269592,0,0,0,0,0,-0.561604,-0.212063,281,-35,281,-35,402,-43,283,88,0.109135,-0.294325,0,-1.5,3.94113e+12,0,0,0,-0.599073,-0.213687,0,0,0,0,0.0521076,-0.0229071,17030,-0.60048,-0.213069,0.0521076,-0.0229071,13711
13748,-3.21335e-12,1.25666e-38,-1.576e-06,-3.27827e-12,1.25654e-38,-3.40904e-12,-1.13753e-13,0,0,-3.62972,-0.214768,0.273794,0,0,0,0,0,-0.572719,-0.214768,281,-35,281,-35,402,-43,284,88,0.10983,-0.298269,0,-1.5,3.94113e+12,0,0,0,-0.603839,-0.214893,0,0,0,0,0.036485,-0.0238368,17030,-0.60435,-0.21456,0.036485,-0.0238368,13736
13765,-3.21335e-12,1.25666e-38,-1.576e-06,-3.27827e-12,1.25654e-38,0,-1.13754e-13,0,0,-3.62972,-0.214768,0.273794,0,0,0,0,0,-0.572719,-0.214768,281,-35,281,-35,402,-43,284,88,0.110033,-0.297962,0,-1.5,3.94113e+12,0,0,0,-0.603219,-0.215299,0,0,0,0,0.036485,-0.0238368,17030,-0.60435,-0.21456,0.036485,-0.0238368,13736
13811,-3.21335e-12,1.25666e-38,-1.576e-06,-3.27827e-12,1.25654e-38,-3.40904e-12,-1.13754e-13,0,0,-3.67122,-0.204151,0.295182,0,0,0,0,0,-0.629573,-0.204151,281,-35,281,-35,402,-43,283,87,0.110395,-0.299221,0,-1.5,3.94113e+12,0,0,0,-0.604958,-0.216048,0,0,0,0,0.0325491,-0.0237047,16250,-0.606455,-0.214958,0.0325491,-0.0237047,13797
13824,-3.21335e-12,1.25666e-38,-1.576e-06,-3.27827e-12,1.25654e-38,0,-1.13755e-13,0,0,-3.67122,-0.204151,0.295182,0,0,0,0,0,-0.629573,-0.204151,281,-35,281,-35,402,-43,283,87,0.110548,-0.299013,0,-1.5,3.94113e+12,0,0,0,-0.604534,-0.216356,0,0,0,0,0.0325491,-0.0237047,16250,-0.606455,-0.214958,0.0325491,-0.0237047,13797
13857,-3.21335e-12,1.25666e-38,-1.576e-06,-3.27827e-12,1.25654e-38,-3.40904e-12,-1.13755e-13,0,0,-3.64601,-0.220223,0.282326,0,0,0,0,0,-0.595036,-0.220223,283,-35,283,-35,402,-43,284,88,0.110477,-0.299823,0,-1.5,3.94113e+12,0,0,0,-0.60381,-0.217708,0,0,0,0,0.0312429,-0.0243498,16768,-0.60481,-0.216929,0.0312429,-0.0243498,13842
13884,-3.21335e-12,1.25666e-38,-1.576e-06,-3.27827e-12,1.25654e-38,0,-1.13756e-13,0,0,-3.7062,-0.206175,0.313338,0,0,0,0,0,-0.677491,-0.206175,283,-35,283,-35,402,-43,283,87,0.11048,-0.299548,0,-1.5,3.94113e+12,0,0,0,-0.605003,-0.216636,0,0,0,0,0.0295393,-0.0216196,15730,-0.605801,-0.216052,0.0295393,-0.0216196,13869
13900,-3.21335e-12,1.25666e-38,-1.576e-06,-3.27827e-12,1.25654e-38,-3.40904e-12,-1.13756e-13,0,0,-3.7062,-0.206175,0.313338,0,0,0,0,0,-0.677491,-0.206175,283,-35,283,-35,402,-43,283,87,0.110663,-0.299297,0,-1.5,3.94113e+12,0,0,0,-0.604501,-0.217004,0,0,0,0,0.0295393,-0.0216196,15730,-0.605801,-0.216052,0.0295393,-0.0216196,13869
13922,-3.21335e-12,1.25666e-38,-1.576e-06,-3.27827e-12,1.25654e-38,0,-1.13757e-13,0,0,-3.69596,-0.204991,0.296523,0,0,0,0,0,-0.663459,-0.204991,283,-33,283,-33,402,-43,283,90,0.110792,-0.314694,0,-1.5,3.94113e+12,0,0,0,-0.629244,-0.217317,0,0,0,0,-0.000706688,-0.0213316,16093,-0.629229,-0.216848,-0.000706688,-0.0213316,13908
13949,-3.21335e-12,1.25666e-38,-1.576e-06,-3.27827e-12,1.25654e-38,-3.40904e-12,-1.13758e-13,0,0,-3.71886,-0.206562,0.315628,0,0,0,0,0,-0.694838,-0.206562,283,-33,283,-33,402,-43,283,87,0.110742,-0.313931,0,-1.5,3.94113e+12,0,0,0,-0.628644,-0.217445,0,0,0,0,0.00390046,-0.0201918,15730,-0.628698,-0.217163,0.00390046,-0.0201918,13937
13966,-3.21335e-12,1.25666e-38,-1.576e-06,-3.27827e-12,1.25654e-38,0,-1.13758e-13,0,0,-3.71886,-0.206562,0.315628,0,0,0,0,0,-0.694838,-0.206562,283,-33,283,-33,402,-43,283,87,0.110913,-0.313898,0,-1.5,3.94113e+12,0,0,0,-0.628577,-0.217789,0,0,0,0,0.00390046,-0.0201918,15730,-0.628698,-0.217163,0.00390046,-0.0201918,13937
13989,-3.21335e-12,1.25666e-38,-1.576e-06,-3.27827e-12,1.25654e-38,-3.40904e-12,-1.13759e-13,0,0,-3.66786,-0.19914,0.295096,0,0,0,0,0,-0.624973,-0.19914,281,-35,281,-35,402,-45,283,88,0.110145,-0.314036,0,-1.5,3.94113e+12,0,0,0,-0.627894,-0.216501,0,0,0,0,-0.000885163,-0.0189486,16359,-0.627875,-0.216084,-0.000885163,-0.0189486,13974
14015,-3.21335e-12,1.25666e-38,-1.576e-06,-3.27827e-12,1.25654e-38,0,-1.13759e-13,0,0,-3.69518,-0.200333,0.305078,0,0,0,0,0,-0.6624,-0.200333,281,-33,281,-33,401,-45,284,88,0.10902,-0.315921,0,-1.5,3.94113e+12,0,0,0,-0.631811,-0.214675,0,0,0,0,-0.000135471,-0.0168269,16359,-0.631809,-0.214439,-0.000135471,-0.0168269,14003
14032,-3.21335e-12,1.25666e-38,-1.576e-06,-3.27827e-12,1.25654e-38,-3.40904e-12,-1.1376e-13,0,0,-3.69518,-0.200333,0.305078,0,0,0,0,0,-0.6624,-0.200333,281,-33,281,-33,401,-45,284,88,0.109163,-0.315919,0,-1.5,3.94113e+12,0,0,0,-0.631814,-0.214961,0,0,0,0,-0.000135471,-0.0168269,16359,-0.631809,-0.214439,-0.000135471,-0.0168269,14003
14090,-3.21335e-12,1.25666e-38,-1.576e-06,-3.27827e-12,1.25654e-38,0,-1.1376e-13,0,0,-3.65044,-0.185121,0.284479,0,0,0,0,0,-0.601099,-0.185121,278,-35,278,-35,399,-43,281,87,0.108632,-0.316213,0,-1.5,3.94113e+12,0,0,0,-0.631341,-0.214323,0,0,0,0,-0.00541755,-0.0147067,16640,-0.631027,-0.21347,-0.00541755,-0.0147067,14076
14113,-3.21335e-12,1.25666e-38,-1.576e-06,-3.27827e-12,1.25654e-38,-3.40904e-12,-1.13761e-13,0,0,-3.67467,-0.181501,0.29035,0,0,0,0,0,-0.634293,-0.181501,278,-33,278,-33,399,-43,281,88,0.104504,-0.318866,0,-1.5,3.94113e+12,0,0,0,-0.635383,-0.207798,0,0,0,0,-0.0117265,-0.00604977,16506,-0.635242,-0.207726,-0.0117265,-0.00604977,14103
14126,-3.21335e-12,1.25666e-38,-1.576e-06,-3.27827e-12,1.25654e-38,0,-1.13761e-13,0,0,-3.67467,-0.181501,0.29035,0,0,0,0,0,-0.634293,-0.181501,278,-33,278,-33,399,-43,281,88,0.104543,-0.318939,0,-1.5,3.94113e+12,0,0,0,-0.635535,-0.207877,0,0,0,0,-0.0117265,-0.00604977,16506,-0.635242,-0.207726,-0.0117265,-0.00604977,14103
14151,-3.21335e-12,1.25666e-38,-1.576e-06,-3.27827e-12,1.25654e-38,-3.40904e-12,-1.13762e-13,0,0,-3.68037,-0.197706,0.280218,0,0,0,0,0,-0.642108,-0.197706,281,-31,281,-31,401,-41,281,88,0.103534,-0.323763,0,-1.5,3.94113e+12,0,0,0,-0.642478,-0.206562,0,0,0,0,-0.0252467,-0.0025187,16125,-0.641872,-0.206502,-0.0252467,-0.0025187,14136
14167,-3.21335e-12,1.25666e-38,-1.576e-06,-3.27827e-12,1.25654e-38,0,-1.13762e-13,0,0,-3.68037,-0.197706,0.280218,0,0,0,0,0,-0.642108,-0.197706,281,-31,281,-31,401,-41,281,88,0.103554,-0.323978,0,-1.5,3.94113e+12,0,0,0,-0.642907,-0.206605,0,0,0,0,-0.0252467,-0.0025187,16125,-0.641872,-0.206502,-0.0252467,-0.0025187,14136
14189,-3.21335e-12,1.25666e-38,-1.576e-06,-3.27827e-12,1.25654e-38,-3.40904e-12,-1.13763e-13,0,0,-3.65272,-0.200299,0.254772,0,0,0,0,0,-0.604225,-0.200299,281,-30,281,-30,401,-40,281,91,0.100922,-0.317428,0,-1.5,3.94113e+12,0,0,0,-0.633323,-0.202578,0,0,0,0,-0.0076734,0.00366836,16637,-0.633155,-0.202659,-0.0076734,0.00366836,14175
14216,-3.21335e-12,1.25666e-38,-1.576e-06,-3.27827e-12,1.25654e-38,0,-1.13763e-13,0,0,-3.65058,-0.184658,0.262787,0,0,0,0,0,-0.601289,-0.184658,275,-30,275,-30,398,-41,283,88,0.099162,-0.305209,0,-1.5,3.94113e+12,0,0,0,-0.616487,-0.199816,0,0,0,0,0.0303368,0.00745715,17157,-0.616911,-0.19992,0.0303368,0.00745715,14204
14232,-3.21335e-12,1.25666e-38,-1.576e-06,-3.27827e-12,1.25654e-38,-3.40904e-12,-1.13764e-13,0,0,-3.65058,-0.184658,0.262787,0,0,0,0,0,-0.601289,-0.184658,275,-30,275,-30,398,-41,283,88,0.0991023,-0.304967,0,-1.5,3.94113e+12,0,0,0,-0.616001,-0.199696,0,0,0,0,0.0303368,0.00745715,17157,-0.616911,-0.19992,0.0303368,0.00745715,14204
14255,-3.21335e-12,1.25666e-38,-1.576e-06,-3.27827e-12,1.25654e-38,0,-1.13765e-13,0,0,-3.64115,-0.183153,0.237559,0,0,0,0,0,-0.588375,-0.183153,278,-27,278,-27,397,-41,281,94,0.0974373,-0.293814,0,-1.5,3.94113e+12,0,0,0,-0.599364,-0.19732,0,0,0,0,0.0586995,0.0122324,17550,-0.600655,-0.197589,0.0586995,0.0122324,14240
14301,-3.21335e-12,1.25666e-38,-1.576e-06,-3.27827e-12,1.25654e-38,-3.40904e-12,-1.13765e-13,0,0,-3.64729,-0.186069,0.24551,0,0,0,0,0,-0.596791,-0.186069,275,-27,275,-27,399,-40,283,91,0.0959759,-0.290397,0,-1.5,3.94113e+12,0,0,0,-0.594111,-0.19498,0,0,0,0,0.0665717,0.0151418,17423,-0.597239,-0.195691,0.0665717,0.0151418,14287
14345,-3.21335e-12,1.25666e-38,-1.576e-06,-3.27827e-12,1.25654e-38,0,-1.13766e-13,0,0,-3.67722,-0.18321,0.256601,0,0,0,0,0,-0.637793,-0.18321,278,-27,278,-27,396,-39,281,92,0.043081,-0.269522,0,-1.5,3.94113e+12,0,0,0,-0.596897,-0.189545,0,0,0,0,0.0590918,0.0254161,17030,-0.59737,-0.189749,0.0590918,0.0254161,14339
14366,-3.21335e-12,1.25666e-38,-1.576e-06,-3.27827e-12,1.25654e-38,-3.40904e-12,-1.13766e-13,0,0,-3.67722,-0.18321,0.256601,0,0,0,0,0,-0.637793,-0.18321,278,-27,278,-27,396,-39,281,92,0.0919645,-0.291918,0,-1.5,3.94113e+12,0,0,0,-0.595656,-0.189012,0,0,0,0,0.0590918,0.0254161,17030,-0.59737,-0.189749,0.0590918,0.0254161,14339
14388,-3.21335e-12,1.25666e-38,-1.576e-06,-3.27827e-12,1.25654e-38,0,-1.13767e-13,0,0,-3.63993,-0.178401,0.230768,0,0,0,0,0,-0.586702,-0.178401,275,-25,275,-25,398,-39,281,94,0.0873047,-0.290173,0,-1.5,3.94113e+12,0,0,0,-0.591713,-0.181728,0,0,0,0,0.056812,0.0356002,17689,-0.592962,-0.182511,0.056812,0.0356002,14374
14410,-3.21335e-12,1.25666e-38,-1.576e-06,-3.27827e-12,1.25654e-38,-3.40904e-12,-1.13767e-13,0,0,-3.70498,-0.177667,0.267953,0,0,0,0,0,-0.675816,-0.177667,278,-27,278,-27,398,-39,281,94,0.0859268,-0.289005,0,-1.5,3.94113e+12,0,0,0,-0.590546,-0.179872,0,0,0,0,0.0626886,0.0400924,16625,-0.59111,-0.180233,0.0626886,0.0400924,14403
14430,-3.21335e-12,1.25666e-38,-1.576e-06,-3.27827e-12,1.25654e-38,0,-1.13768e-13,0,0,-3.70498,-0.177667,0.267953,0,0,0,0,0,-0.675816,-0.177667,278,-27,278,-27,398,-39,281,94,0.0855266,-0.288375,0,-1.5,3.94113e+12,0,0,0,-0.589292,-0.17907,0,0,0,0,0.0626886,0.0400924,16625,-0.59111,-0.180233,0.0626886,0.0400924,14403
14450,-3.21335e-12,1.25666e-38,-1.576e-06,-3.27827e-12,1.25654e-38,-3.40904e-12,-1.13768e-13,0,0,-3.66293,-0.157202,0.259692,0,0,0,0,0,-0.618219,-0.157202,272,-28,272,-28,397,-41,281,94,0.0833899,-0.304931,0,-1.5,3.94113e+12,0,0,0,-0.614059,-0.175539,0,0,0,0,0.020958,0.0438005,17550,-0.614353,-0.176152,0.020958,0.0438005,14438
14466,-3.21335e-12,1.25666e-38,-1.576e-06,-3.27827e-12,1.25654e-38,0,-1.13769e-13,0,0,-3.66293,-0.157202,0.259692,0,0,0,0,0,-0.618219,-0.157202,272,-28,272,-28,397,-41,281,94,0.0830176,-0.304756,0,-1.5,3.94113e+12,0,0,0,-0.613703,-0.174794,0,0,0,0,0.020958,0.0438005,17550,-0.614353,-0.176152,0.020958,0.0438005,14438
14493,-3.21335e-12,1.25666e-38,-1.576e-06,-3.27827e-12,1.25654e-38,-3.40904e-12,-1.13769e-13,0,0,-3.67187,-0.157267,0.266227,0,0,0,0,0,-0.630467,-0.157267,275,-28,275,-28,395,-43,280,95,0.0822351,-0.306903,0,-1.5,3.94113e+12,0,0,0,-0.617067,-0.173545,0,0,0,0,0.0163146,0.0453784,17526,-0.617508,-0.17477,0.0163146,0.0453784,14478
14515,-3.21335e-12,1.25666e-38,-1.576e-06,-3.27827e-12,1.25654e-38,0,-1.1377e-13,0,0,-3.64576,-0.149403,0.252742,0,0,0,0,0,-0.594687,-0.149403,272,-28,272,-28,395,-43,280,95,0.080912,-0.313592,0,-1.5,3.94113e+12,0,0,0,-0.622279,-0.171705,0,0,0,0,-0.0245221,0.0494063,17940,-0.621936,-0.172397,-0.0245221,0.0494063,14503
14532,-3.21335e-12,1.25666e-38,-1.576e-06,-3.27827e-12,1.25654e-38,-3.40904e-12,-1.13771e-13,0,0,-3.64576,-0.149403,0.252742,0,0,0,0,0,-0.594687,-0.149403,272,-28,272,-28,395,-43,280,95,0.0804921,-0.313801,0,-1.5,3.94113e+12,0,0,0,-0.622696,-0.170865,0,0,0,0,-0.0245221,0.0494063,17940,-0.621936,-0.172397,-0.0245221,0.0494063,14503
14583,-3.21335e-12,1.25666e-38,-1.576e-06,-3.27827e-12,1.25654e-38,0,-1.13771e-13,0,0,-3.67667,-0.148727,0.275828,0,0,0,0,0,-0.637035,-0.148727,272,-28,272,-28,394,-43,280,92,0.0787313,-0.320479,0,-1.5,3.94113e+12,0,0,0,-0.63163,-0.167585,0,0,0,0,-0.0466213,0.0506221,17550,-0.629252,-0.170167,-0.0466213,0.0506221,14569
14599,-3.21335e-12,1.25666e-38,-1.576e-06,-3.27827e-12,1.25654e-38,-3.40904e-12,-1.13772e-13,0,0,-3.67667,-0.148727,0.275828,0,0,0,0,0,-0.637035,-0.148727,272,-28,272,-28,394,-43,280,92,0.0783255,-0.320849,0,-1.5,3.94113e+12,0,0,0,-0.632376,-0.166775,0,0,0,0,-0.0466213,0.0506221,17550,-0.629252,-0.170167,-0.0466213,0.0506221,14569
14626,-3.21335e-12,1.25666e-38,-1.576e-06,-3.27827e-12,1.25654e-38,0,-1.13772e-13,0,0,-3.67358,-0.146932,0.251987,0,0,0,0,0,-0.632804,-0.146932,272,-27,272,-27,394,-39,279,94,0.0741887,-0.321224,0,-1.5,3.94113e+12,0,0,0,-0.634068,-0.160093,0,0,0,0,-0.0419066,0.0585758,17290,-0.632937,-0.161674,-0.0419066,0.0585758,14612
14648,-3.21335e-12,1.25666e-38,-1.576e-06,-3.27827e-12,1.25654e-38,-3.40904e-12,-1.13773e-13,0,0,-3.67358,-0.146932,0.251987,0,0,0,0,0,-0.632804,-0.146932,272,-27,272,-27,394,-39,279,94,0.0715588,-0.317982,0,-1.5,3.94113e+12,0,0,0,-0.633384,-0.155877,0,0,0,0,-0.0129048,0.0638022,17290,-0.633229,-0.156643,-0.0129048,0.0638022,14639
14688,-3.21335e-12,1.25666e-38,-1.576e-06,-3.27827e-12,1.25654e-38,0,-1.13773e-13,0,0,-3.65269,-0.154835,0.239697,0,0,0,0,0,-0.604186,-0.154835,272,-25,272,-25,394,-39,279,92,0.069685,-0.321826,0,-1.5,3.94113e+12,0,0,0,-0.63548,-0.152355,0,0,0,0,-0.0408566,0.0649269,17554,-0.633846,-0.154952,-0.0408566,0.0649269,14674
14715,-3.21335e-12,1.25666e-38,-1.576e-06,-3.27827e-12,1.25654e-38,-3.40904e-12,-1.13774e-13,0,0,-3.67019,-0.150947,0.255228,0,0,0,0,0,-0.628154,-0.150947,272,-25,272,-25,391,-41,280,91,0.0686624,-0.319951,0,-1.5,3.94113e+12,0,0,0,-0.632421,-0.150445,0,0,0,0,-0.037384,0.0656077,17688,-0.631898,-0.151364,-0.037384,0.0656077,14703
14732,-3.21335e-12,1.25666e-38,-1.576e-06,-3.27827e-12,1.25654e-38,0,-1.13774e-13,0,0,-3.67019,-0.150947,0.255228,0,0,0,0,0,-0.628154,-0.150947,272,-25,272,-25,391,-41,280,91,0.0681047,-0.320266,0,-1.5,3.94113e+12,0,0,0,-0.633057,-0.14933,0,0,0,0,-0.037384,0.0656077,17688,-0.631898,-0.151364,-0.037384,0.0656077,14703
14752,-3.21335e-12,1.25666e-38,-1.576e-06,-3.27827e-12,1.25654e-38,-3.40904e-12,-1.13775e-13,0,0,-3.65661,-0.152473,0.25032,0,0,0,0,0,-0.609559,-0.152473,272,-25,272,-25,392,-42,280,91,0.0672326,-0.317636,0,-1.5,3.94113e+12,0,0,0,-0.629693,-0.147654,0,0,0,0,-0.0278801,0.0659363,17822,-0.629136,-0.148972,-0.0278801,0.0659363,14737
14894,-3.21335e-12,1.25666e-38,-1.576e-06,-3.27827e-12,1.25654e-38,0,-1.13775e-13,0,0,-3.66439,-0.152939,0.252227,0,0,0,0,0,-0.620212,-0.152939,272,-25,272,-25,392,-41,280,91,0.0629528,-0.301635,0,-1.5,3.94113e+12,0,0,0,-0.619754,-0.138601,0,0,0,0,0.00475991,0.0664098,17688,-0.620354,-0.146968,0.00475991,0.0664098,14770
14931,-3.21335e-12,1.25666e-38,-1.576e-06,-3.27827e-12,1.25654e-38,-3.40904e-12,-1.13776e-13,0,0,-3.67958,-0.13125,0.241222,0,0,0,0,0,-0.641025,-0.13125,270,-25,270,-25,391,-39,279,96,0.0609612,-0.314655,0,-1.5,3.94113e+12,0,0,0,-0.628602,-0.135405,0,0,0,0,-0.0035409,0.0674165,17550,-0.628474,-0.137832,-0.0035409,0.0674165,14917
14946,-3.21335e-12,1.25666e-38,-1.576e-06,-3.27827e-12,1.25654e-38,0,-1.13777e-13,0,0,-3.67958,-0.13125,0.241222,0,0,0,0,0,-0.641025,-0.13125,270,-25,270,-25,391,-39,279,96,0.0604219,-0.314684,0,-1.5,3.94113e+12,0,0,0,-0.628658,-0.134326,0,0,0,0,-0.0035409,0.0674165,17550,-0.628474,-0.137832,-0.0035409,0.0674165,14917
14967,-3.21335e-12,1.25666e-38,-1.576e-06,-3.27827e-12,1.25654e-38,-3.40904e-12,-1.13777e-13,0,0,-3.67958,-0.13125,0.241222,0,0,0,0,0,-0.641025,-0.13125,270,-25,270,-25,391,-39,279,96,0.059714,-0.314721,0,-1.5,3.94113e+12,0,0,0,-0.628733,-0.132911,0,0,0,0,-0.0035409,0.0674165,17550,-0.628474,-0.137832,-0.0035409,0.0674165,14917
14989,-3.21335e-12,1.25666e-38,-1.576e-06,-3.27827e-12,1.25654e-38,0,-1.13778e-13,0,0,-3.66906,-0.130426,0.237891,0,0,0,0,0,-0.626607,-0.130426,270,-24,270,-24,391,-41,279,96,0.057361,-0.312972,0,-1.5,3.94113e+12,0,0,0,-0.626355,-0.12893,0,0,0,0,0.00205194,0.0710517,17810,-0.6264,-0.130493,0.00205194,0.0710517,14975
15016,-3.21335e-12,1.25666e-38,-1.576e-06,-3.27827e-12,1.25654e-38,-3.40904e-12,-1.13778e-13,0,0,-3.6347,-0.111555,0.222532,0,0,0,0,0,-0.579536,-0.111555,267,-25,267,-25,391,-41,276,96,0.055993,-0.313216,0,-1.5,3.94113e+12,0,0,0,-0.626401,-0.126461,0,0,0,0,-0.000154973,0.0723807,17947,-0.626399,-0.127474,-0.000154973,0.0723807,15004
15033,-3.21335e-12,1.25666e-38,-1.576e-06,-3.27827e-12,1.25654e-38,0,-1.13779e-13,0,0,-3.6347,-0.111555,0.222532,0,0,0,0,0,-0.579536,-0.111555,267,-25,267,-25,391,-41,276,96,0.0553778,-0.31322,0,-1.5,3.94113e+12,0,0,0,-0.626404,-0.125231,0,0,0,0,-0.000154973,0.0723807,17947,-0.626399,-0.127474,-0.000154973,0.0723807,15004
15055,-3.21335e-12,1.25666e-38,-1.576e-06,-3.27827e-12,1.25654e-38,-3.40904e-12,-1.13779e-13,0,0,-3.68558,-0.126953,0.246943,0,0,0,0,0,-0.649245,-0.126953,270,-24,270,-24,391,-39,277,94,0.0551864,-0.311964,0,-1.5,3.94113e+12,0,0,0,-0.625531,-0.124594,0,0,0,0,0.00801748,0.0711163,17290,-0.625708,-0.126159,0.00801748,0.0711163,15041
15082,-3.21335e-12,1.25666e-38,-1.576e-06,-3.27827e-12,1.25654e-38,0,-1.1378e-13,0,0,-3.73834,-0.135576,0.274199,0,0,0,0,0,-0.721532,-0.135576,273,-22,273,-22,391,-39,277,92,0.0540548,-0.314077,0,-1.5,3.94113e+12,0,0,0,-0.627963,-0.122439,0,0,0,0,-0.000981121,0.0716528,16637,-0.627949,-0.123442,-0.000981121,0.0716528,15070
15099,-3.21335e-12,1.25666e-38,-1.576e-06,-3.27827e-12,1.25654e-38,-3.40904e-12,-1.1378e-13,0,0,-3.73834,-0.135576,0.274199,0,0,0,0,0,-0.721532,-0.135576,273,-22,273,-22,391,-39,277,92,0.0534813,-0.314088,0,-1.5,3.94113e+12,0,0,0,-0.627979,-0.121292,0,0,0,0,-0.000981121,0.0716528,16637,-0.627949,-0.123442,-0.000981121,0.0716528,15070
15121,-3.21335e-12,1.25666e-38,-1.576e-06,-3.27827e-12,1.25654e-38,0,-1.13781e-13,0,0,-3.7057,-0.132232,0.254972,0,0,0,0,0,-0.676815,-0.132232,270,-25,270,-25,391,-37,279,96,0.0529446,-0.318135,0,-1.5,3.94113e+12,0,0,0,-0.634148,-0.120206,0,0,0,0,-0.0105881,0.0715903,17290,-0.633904,-0.121853,-0.0105881,0.0715903,15107
15181,-3.21335e-12,1.25666e-38,-1.576e-06,-3.27827e-12,1.25654e-38,-3.40904e-12,-1.13781e-13,0,0,-3.70257,-0.148045,0.23544,0,0,0,0,0,-0.672525,-0.148045,273,-22,273,-22,393,-36,279,96,0.0521829,-0.333233,0,-1.5,3.94113e+12,0,0,0,-0.656875,-0.118137,0,0,0,0,-0.0479295,0.0688588,17028,-0.6563,-0.118963,-0.0479295,0.0688588,15171
15213,-3.21335e-12,1.25666e-38,-1.576e-06,-3.27827e-12,1.25654e-38,0,-1.13782e-13,0,0,-3.67226,-0.147087,0.224573,0,0,0,0,0,-0.63099,-0.147087,272,-24,272,-24,393,-36,279,96,0.055212,-0.332764,0,-1.5,3.94113e+12,0,0,0,-0.656104,-0.122695,0,0,0,0,-0.047128,0.0613588,17292,-0.655586,-0.12337,-0.047128,0.0613588,15203
15229,-3.21335e-12,1.25666e-38,-1.576e-06,-3.27827e-12,1.25654e-38,-3.40904e-12,-1.13782e-13,0,0,-3.67226,-0.147087,0.224573,0,0,0,0,0,-0.63099,-0.147087,272,-24,272,-24,393,-36,279,96,0.0546908,-0.333164,0,-1.5,3.94113e+12,0,0,0,-0.656905,-0.121652,0,0,0,0,-0.047128,0.0613588,17292,-0.655586,-0.12337,-0.047128,0.0613588,15203
15256,-3.21335e-12,1.25666e-38,-1.576e-06,-3.27827e-12,1.25654e-38,0,-1.13783e-13,0,0,-3.71243,-0.15114,0.233239,0,0,0,0,0,-0.686028,-0.15114,275,-22,275,-22,393,-36,279,96,0.0554295,-0.336069,0,-1.5,3.94113e+12,0,0,0,-0.661613,-0.12263,0,0,0,0,-0.0526353,0.058861,16632,-0.660192,-0.124219,-0.0526353,0.058861,15242
15279,-3.21335e-12,1.25666e-38,-1.576e-06,-3.27827e-12,1.25654e-38,-3.40904e-12,-1.13784e-13,0,0,-3.67062,-0.162795,0.193999,0,0,0,0,0,-0.628752,-0.162795,275,-22,275,-22,398,-33,280,101,0.0562287,-0.337081,0,-1.5,3.94113e+12,0,0,0,-0.663415,-0.123759,0,0,0,0,-0.0537602,0.0565102,16884,-0.66277,-0.124437,-0.0537602,0.0565102,15269
15300,-3.21335e-12,1.25666e-38,-1.576e-06,-3.27827e-12,1.25654e-38,0,-1.13784e-13,0,0,-3.67062,-0.162795,0.193999,0,0,0,0,0,-0.628752,-0.162795,275,-22,275,-22,398,-33,280,101,0.055664,-0.337621,0,-1.5,3.94113e+12,0,0,0,-0.66449,-0.122629,0,0,0,0,-0.0537602,0.0565102,16884,-0.66277,-0.124437,-0.0537602,0.0565102,15269
15322,-3.21335e-12,1.25666e-38,-1.576e-06,-3.27827e-12,1.25654e-38,-3.40904e-12,-1.13785e-13,0,0,-3.64305,-0.180018,0.19914,0,0,0,0,0,-0.590984,-0.180018,275,-24,275,-24,398,-33,281,95,0.0547245,-0.335255,0,-1.5,3.94113e+12,0,0,0,-0.660861,-0.120784,0,0,0,0,-0.0482288,0.0566711,17024,-0.659752,-0.122087,-0.0482288,0.0566711,15308
15344,-3.21335e-12,1.25666e-38,-1.576e-06,-3.27827e-12,1.25654e-38,0,-1.13785e-13,0,0,-3.62745,-0.174394,0.186461,0,0,0,0,0,-0.569605,-0.174394,275,-24,275,-24,396,-34,281,98,0.0666437,-0.330902,0,-1.5,3.94113e+12,0,0,0,-0.653841,-0.138133,0,0,0,0,-0.0398228,0.0242334,17556,-0.653443,-0.138376,-0.0398228,0.0242334,15336
15388,-3.21335e-12,1.25666e-38,-1.576e-06,-3.27827e-12,1.25654e-38,-3.40904e-12,-1.13786e-13,0,0,-3.67355,-0.172084,0.209767,0,0,0,0,0,-0.632757,-0.172084,275,-22,275,-22,396,-34,281,96,0.0709121,-0.319144,0,-1.5,3.94113e+12,0,0,0,-0.63495,-0.144493,0,0,0,0,-0.0166812,0.0133452,17030,-0.634232,-0.145067,-0.0166812,0.0133452,15373
15410,-3.21335e-12,1.25666e-38,-1.576e-06,-3.27827e-12,1.25654e-38,0,-1.13786e-13,0,0,-3.65163,-0.170773,0.19176,0,0,0,0,0,-0.602733,-0.170773,275,-22,275,-22,396,-34,281,99,0.0933885,-0.297239,0,-1.5,3.94113e+12,0,0,0,-0.633634,-0.145927,0,0,0,0,-0.0136923,0.0115253,17423,-0.633524,-0.146019,-0.0136923,0.0115253,15404
15427,-3.21335e-12,1.25666e-38,-1.576e-06,-3.27827e-12,1.25654e-38,-3.40904e-12,-1.13787e-13,0,0,-3.65163,-0.170773,0.19176,0,0,0,0,0,-0.602733,-0.170773,275,-22,275,-22,396,-34,281,99,0.0717129,-0.318301,0,-1.5,3.94113e+12,0,0,0,-0.633866,-0.145731,0,0,0,0,-0.0136923,0.0115253,17423,-0.633524,-0.146019,-0.0136923,0.0115253,15404
15454,-3.21335e-12,1.25666e-38,-1.576e-06,-3.27827e-12,1.25654e-38,0,-1.13787e-13,0,0,-3.68149,-0.18402,0.208561,0,0,0,0,0,-0.643637,-0.18402,279,-22,279,-22,399,-35,281,96,0.0735051,-0.317563,0,-1.5,3.94113e+12,0,0,0,-0.63323,-0.14831,0,0,0,0,-0.00948114,0.00649539,16375,-0.632974,-0.148485,-0.00948114,0.00649539,15440
15478,-3.21335e-12,1.25666e-38,-1.576e-06,-3.27827e-12,1.25654e-38,-3.40904e-12,-1.13788e-13,0,0,-3.68525,-0.183927,0.208508,0,0,0,0,0,-0.648788,-0.183927,278,-22,278,-22,400,-33,281,98,0.0773673,-0.318463,0,-1.5,3.94113e+12,0,0,0,-0.635794,-0.154086,0,0,0,0,-0.00565366,-0.0032389,16506,-0.635738,-0.154054,-0.00565366,-0.0032389,15470
15491,-3.21335e-12,1.25666e-38,-1.576e-06,-3.27827e-12,1.25654e-38,0,-1.13788e-13,0,0,-3.68525,-0.183927,0.208508,0,0,0,0,0,-0.648788,-0.183927,278,-22,278,-22,400,-33,281,98,0.0773876,-0.3185,0,-1.5,3.94113e+12,0,0,0,-0.635868,-0.154128,0,0,0,0,-0.00565366,-0.0032389,16506,-0.635738,-0.154054,-0.00565366,-0.0032389,15470
15515,-3.21335e-12,1.25666e-38,-1.576e-06,-3.27827e-12,1.25654e-38,-3.40904e-12,-1.13789e-13,0,0,-3.72385,-0.190714,0.234828,0,0,0,0,0,-0.701671,-0.190714,278,-22,278,-22,400,-33,283,95,0.0848869,-0.325273,0,-1.5,3.94113e+12,0,0,0,-0.645712,-0.166221,0,0,0,0,-0.0241831,-0.0177608,16128,-0.645373,-0.165973,-0.0241831,-0.0177608,15503
15532,-3.21335e-12,1.25666e-38,-1.576e-06,-3.27827e-12,1.25654e-38,0,-1.1379e-13,0,0,-3.72385,-0.190714,0.234828,0,0,0,0,0,-0.701671,-0.190714,278,-22,278,-22,400,-33,283,95,0.0850371,-0.325481,0,-1.5,3.94113e+12,0,0,0,-0.646123,-0.166523,0,0,0,0,-0.0241831,-0.0177608,16128,-0.645373,-0.165973,-0.0241831,-0.0177608,15503
15559,-3.21335e-12,1.25666e-38,-1.576e-06,-3.27827e-12,1.25654e-38,-3.40904e-12,-1.1379e-13,0,0,-3.71774,-0.188209,0.231595,0,0,0,0,0,-0.693301,-0.188209,278,-23,278,-23,399,-33,283,96,0.0894232,-0.324698,0,-1.5,3.94113e+12,0,0,0,-0.645963,-0.173804,0,0,0,0,-0.0171625,-0.0252167,16254,-0.6455,-0.173123,-0.0171625,-0.0252167,15545
15608,-3.21335e-12,1.25666e-38,-1.576e-06,-3.27827e-12,1.25654e-38,0,-1.13791e-13,0,0,-3.75321,-0.228491,0.231258,0,0,0,0,0,-0.741894,-0.228491,284,-20,284,-20,402,-31,287,99,0.112564,-0.338737,0,-1.5,3.94113e+12,0,0,0,-0.652503,-0.180631,0,0,0,0,-0.0221832,-0.0330186,16120,-0.652348,-0.180399,-0.0221832,-0.0330186,15603
15625,-3.21335e-12,1.25666e-38,-1.576e-06,-3.27827e-12,1.25654e-38,-3.40904e-12,-1.13791e-13,0,0,-3.75321,-0.228491,0.231258,0,0,0,0,0,-0.741894,-0.228491,284,-20,284,-20,402,-31,287,99,0.0938973,-0.328657,0,-1.5,3.94113e+12,0,0,0,-0.65288,-0.181192,0,0,0,0,-0.0221832,-0.0330186,16120,-0.652348,-0.180399,-0.0221832,-0.0330186,15603
15683,-3.21335e-12,1.25666e-38,-1.576e-06,-3.27827e-12,1.25654e-38,0,-1.13792e-13,0,0,-3.73765,-0.220822,0.221428,0,0,0,0,0,-0.720578,-0.220822,284,-20,284,-20,403,-30,284,99,0.100841,-0.360295,0,-1.5,3.94113e+12,0,0,0,-0.703692,-0.192765,0,0,0,0,-0.0845182,-0.0445873,15867,-0.69879,-0.190179,-0.0845182,-0.0445873,15669
15700,-3.21335e-12,1.25666e-38,-1.576e-06,-3.27827e-12,1.25654e-38,-3.40904e-12,-1.13792e-13,0,0,-3.73765,-0.220822,0.221428,0,0,0,0,0,-0.720578,-0.220822,284,-20,284,-20,403,-30,284,99,0.10122,-0.361017,0,-1.5,3.94113e+12,0,0,0,-0.705129,-0.193523,0,0,0,0,-0.0845182,-0.0445873,15867,-0.69879,-0.190179,-0.0845182,-0.0445873,15669
15722,-3.21335e-12,1.25666e-38,-1.576e-06,-3.27827e-12,1.25654e-38,0,-1.13793e-13,0,0,-3.7294,-0.213676,0.217348,0,0,0,0,0,-0.709275,-0.213676,281,-20,281,-20,402,-30,285,98,0.102926,-0.361023,0,-1.5,3.94113e+12,0,0,0,-0.70646,-0.196295,0,0,0,0,-0.0779302,-0.0477865,16128,-0.704745,-0.195243,-0.0779302,-0.0477865,15708
15749,-3.21335e-12,1.25666e-38,-1.576e-06,-3.27827e-12,1.25654e-38,-3.40904e-12,-1.13793e-13,0,0,-3.72861,-0.206674,0.209862,0,0,0,0,0,-0.708198,-0.206674,281,-19,281,-19,399,-31,285,99,0.113346,-0.365868,0,-1.5,3.94113e+12,0,0,0,-0.713461,-0.209086,0,0,0,0,-0.0913786,-0.0880345,16380,-0.710994,-0.206709,-0.0913786,-0.0880345,15735
15766,-3.21335e-12,1.25666e-38,-1.576e-06,-3.27827e-12,1.25654e-38,0,-1.13794e-13,0,0,-3.72861,-0.206674,0.209862,0,0,0,0,0,-0.708198,-0.206674,281,-19,281,-19,399,-31,285,99,0.114094,-0.366642,0,-1.5,3.94113e+12,0,0,0,-0.715015,-0.210582,0,0,0,0,-0.0913786,-0.0880345,16380,-0.710994,-0.206709,-0.0913786,-0.0880345,15735
15788,-3.21335e-12,1.25666e-38,-1.576e-06,-3.27827e-12,1.25654e-38,-3.40904e-12,-1.13794e-13,0,0,-3.63325,-0.201118,0.160682,0,0,0,0,0,-0.577551,-0.201118,278,-20,278,-20,399,-31,284,101,0.114852,-0.366467,0,-1.5,3.94113e+12,0,0,0,-0.714611,-0.211685,0,0,0,0,-0.0916343,-0.0900984,17556,-0.712595,-0.209703,-0.0916343,-0.0900984,15774
15815,-3.21335e-12,1.25666e-38,-1.576e-06,-3.27827e-12,1.25654e-38,0,-1.13795e-13,0,0,-3.64167,-0.207802,0.164521,0,0,0,0,0,-0.58909,-0.207802,281,-19,281,-19,399,-33,284,102,0.116923,-0.366631,0,-1.5,3.94113e+12,0,0,0,-0.715005,-0.215426,0,0,0,0,-0.0912854,-0.0921012,17550,-0.713727,-0.214137,-0.0912854,-0.0921012,15803
15829,-3.21335e-12,1.25666e-38,-1.576e-06,-3.27827e-12,1.25654e-38,-3.40904e-12,-1.13795e-13,0,0,-3.64167,-0.207802,0.164521,0,0,0,0,0,-0.58909,-0.207802,281,-19,281,-19,399,-33,284,102,0.117567,-0.36727,0,-1.5,3.94113e+12,0,0,0,-0.716283,-0.216716,0,0,0,0,-0.0912854,-0.0921012,17550,-0.713727,-0.214137,-0.0912854,-0.0921012,15803
15852,-3.21335e-12,1.25666e-38,-1.576e-06,-3.27827e-12,1.25654e-38,0,-1.13796e-13,0,0,-3.66978,-0.189565,0.18001,0,0,0,0,0,-0.627597,-0.189565,278,-20,278,-20,399,-33,284,102,0.118791,-0.338071,0,-1.5,3.94113e+12,0,0,0,-0.668679,-0.218729,0,0,0,0,-0.037296,-0.0942751,17145,-0.667859,-0.216655,-0.037296,-0.0942751,15837
15896,-3.21335e-12,1.25666e-38,-1.576e-06,-3.27827e-12,1.25654e-38,-3.40904e-12,-1.13797e-13,0,0,-3.71797,-0.201448,0.195172,0,0,0,0,0,-0.693614,-0.201448,281,-19,281,-19,400,-30,284,102,0.122242,-0.35401,0,-1.5,3.94113e+12,0,0,0,-0.694901,-0.224649,0,0,0,0,-0.0656212,-0.0991854,16368,-0.691948,-0.220186,-0.0656212,-0.0991854,15882
15919,-3.21335e-12,1.25666e-38,-1.576e-06,-3.27827e-12,1.25654e-38,0,-1.13797e-13,0,0,-3.64849,-0.204512,0.170747,0,0,0,0,0,-0.59843,-0.204512,278,-20,278,-20,400,-30,284,99,0.122998,-0.332925,0,-1.5,3.94113e+12,0,0,0,-0.661296,-0.22594,0,0,0,0,-0.022791,-0.100285,17157,-0.660772,-0.223634,-0.022791,-0.100285,15905
15946,-3.21335e-12,1.25666e-38,-1.576e-06,-3.27827e-12,1.25654e-38,-3.40904e-12,-1.13798e-13,0,0,-3.64424,-0.201393,0.179587,0,0,0,0,0,-0.592607,-0.201393,278,-20,278,-20,399,-33,284,99,0.121971,-0.324312,0,-1.5,3.94113e+12,0,0,0,-0.648373,-0.224604,0,0,0,0,-0.00123179,-0.0967002,17556,-0.648361,-0.223637,-0.00123179,-0.0967002,15938
15963,-3.21335e-12,1.25666e-38,-1.576e-06,-3.27827e-12,1.25654e-38,0,-1.13798e-13,0,0,-3.64424,-0.201393,0.179587,0,0,0,0,0,-0.592607,-0.201393,278,-20,278,-20,399,-33,284,99,0.122793,-0.324319,0,-1.5,3.94113e+12,0,0,0,-0.648394,-0.226248,0,0,0,0,-0.00123179,-0.0967002,17556,-0.648361,-0.223637,-0.00123179,-0.0967002,15938
15985,-3.21335e-12,1.25666e-38,-1.576e-06,-3.27827e-12,1.25654e-38,-3.40904e-12,-1.13799e-13,0,0,-3.70867,-0.189591,0.217688,0,0,0,0,0,-0.680876,-0.189591,278,-22,278,-22,399,-33,284,99,0.12173,-0.327069,0,-1.5,3.94113e+12,0,0,0,-0.653238,-0.224863,0,0,0,0,-0.00450657,-0.0929899,16632,-0.653139,-0.222818,-0.00450657,-0.0929899,15971
16032,-3.21335e-12,1.25666e-38,-1.576e-06,-3.27827e-12,1.25654e-38,0,-1.13799e-13,0,0,-3.75204,-0.180932,0.242435,0,0,0,0,0,-0.740292,-0.180932,279,-22,279,-22,396,-31,281,96,0.124086,-0.343104,0,-1.5,3.94113e+12,0,0,0,-0.679878,-0.229508,0,0,0,0,-0.0316516,-0.0933242,15875,-0.678391,-0.225121,-0.0316516,-0.0933242,16018
16055,-3.21335e-12,1.25666e-38,-1.576e-06,-3.27827e-12,1.25654e-38,-3.40904e-12,-1.138e-13,0,0,-3.72343,-0.171801,0.241419,0,0,0,0,0,-0.701105,-0.171801,278,-23,278,-23,396,-34,280,98,0.120465,-0.343084,0,-1.5,3.94113e+12,0,0,0,-0.682806,-0.22459,0,0,0,0,-0.0168359,-0.0817018,16500,-0.68257,-0.223446,-0.0168359,-0.0817018,16043
16078,-3.21335e-12,1.25666e-38,-1.576e-06,-3.27827e-12,1.25654e-38,0,-1.138e-13,0,0,-3.72605,-0.166464,0.29437,0,0,0,0,0,-0.70469,-0.166464,278,-27,278,-27,394,-43,281,94,0.114605,-0.353147,0,-1.5,3.94113e+12,0,0,0,-0.699933,-0.216172,0,0,0,0,-0.0317974,-0.0651965,16988,-0.699615,-0.21552,-0.0317974,-0.0651965,16070
16099,-3.21335e-12,1.25666e-38,-1.576e-06,-3.27827e-12,1.25654e-38,-3.40904e-12,-1.13801e-13,0,0,-3.72605,-0.166464,0.29437,0,0,0,0,0,-0.70469,-0.166464,278,-27,278,-27,394,-43,281,94,0.11529,-0.353481,0,-1.5,3.94113e+12,0,0,0,-0.700601,-0.217541,0,0,0,0,-0.0317974,-0.0651965,16988,-0.699615,-0.21552,-0.0317974,-0.0651965,16070
16122,-3.21335e-12,1.25666e-38,-1.576e-06,-3.27827e-12,1.25654e-38,0,-1.13801e-13,0,0,-3.70313,-0.174674,0.294115,0,0,0,0,0,-0.673284,-0.174674,275,-28,275,-28,398,-43,283,91,0.113946,-0.343058,0,-1.5,3.94113e+12,0,0,0,-0.683132,-0.216595,0,0,0,0,-0.0149158,-0.0564771,17152,-0.682789,-0.215296,-0.0149158,-0.0564771,16107
16136,-3.21335e-12,1.25666e-38,-1.576e-06,-3.27827e-12,1.25654e-38,-3.40904e-12,-1.13802e-13,0,0,-3.70313,-0.174674,0.294115,0,0,0,0,0,-0.673284,-0.174674,275,-28,275,-28,398,-43,283,91,0.114341,-0.343161,0,-1.5,3.94113e+12,0,0,0,-0.683341,-0.217386,0,0,0,0,-0.0149158,-0.0564771,17152,-0.682789,-0.215296,-0.0149158,-0.0564771,16107
16181,-3.21335e-12,1.25666e-38,-1.576e-06,-3.27827e-12,1.25654e-38,0,-1.13803e-13,0,0,-3.6237,-0.157615,0.329539,0,0,0,0,0,-0.564468,-0.157615,272,-38,272,-38,397,-54,281,83,0.100199,-0.348716,0,-1.5,3.94113e+12,0,0,0,-0.686274,-0.196639,0,0,0,0,-0.0558167,-0.018795,17947,-0.685604,-0.196413,-0.0558167,-0.018795,16171
16197,-3.21335e-12,1.25666e-38,-1.576e-06,-3.27827e-12,1.25654e-38,-3.40904e-12,-1.13803e-13,0,0,-3.6237,-0.157615,0.329539,0,0,0,0,0,-0.564468,-0.157615,272,-38,272,-38,397,-54,281,83,0.100349,-0.349163,0,-1.5,3.94113e+12,0,0,0,-0.687167,-0.196939,0,0,0,0,-0.0558167,-0.018795,17947,-0.685604,-0.196413,-0.0558167,-0.018795,16171
16225,-3.21335e-12,1.25666e-38,-1.576e-06,-3.27827e-12,1.25654e-38,0,-1.13804e-13,0,0,-3.67379,-0.171632,0.386358,0,0,0,0,0,-0.633097,-0.171632,275,-41,275,-41,399,-55,281,77,0.0972047,-0.347566,0,-1.5,3.94113e+12,0,0,0,-0.684976,-0.192242,0,0,0,0,-0.0507658,-0.0108392,16896,-0.683555,-0.191938,-0.0507658,-0.0108392,16210
16247,-3.21335e-12,1.25666e-38,-1.576e-06,-3.27827e-12,1.25654e-38,-3.40904e-12,-1.13804e-13,0,0,-3.65618,-0.163101,0.37618,0,0,0,0,0,-0.60897,-0.163101,275,-45,275,-45,397,-54,280,77,0.0886225,-0.341334,0,-1.5,3.94113e+12,0,0,0,-0.675045,-0.178626,0,0,0,0,-0.0381263,0.0069095,16637,-0.674587,-0.178709,-0.0381263,0.0069095,16237
16264,-3.21335e-12,1.25666e-38,-1.576e-06,-3.27827e-12,1.25654e-38,0,-1.13805e-13,0,0,-3.65618,-0.163101,0.37618,0,0,0,0,0,-0.60897,-0.163101,275,-45,275,-45,397,-54,280,77,0.0885638,-0.341658,0,-1.5,3.94113e+12,0,0,0,-0.675693,-0.178509,0,0,0,0,-0.0381263,0.0069095,16637,-0.674587,-0.178709,-0.0381263,0.0069095,16237
16291,-3.21335e-12,1.25666e-38,-1.576e-06,-3.27827e-12,1.25654e-38,-3.40904e-12,-1.13805e-13,0,0,-3.73295,-0.191736,0.430194,0,0,0,0,0,-0.714137,-0.191736,278,-45,278,-45,401,-53,284,74,0.0964125,-0.348088,0,-1.5,3.94113e+12,0,0,0,-0.686127,-0.191579,0,0,0,0,-0.0502631,-0.006228,15748,-0.68477,-0.191411,-0.0502631,-0.006228,16277
