timestamp,A_x,A_y,A_z,P,Q,R,Phi,Theta,Psi,poseX,poseY,poseZ,state_X,state_Y,state_Z,state_VzB,state_Bx,state_By,state_Bz,p1_x,p1_y,p2_x,p2_y,p3_x,p3_y,p4_x,p4_y,roll,pitch,yaw,alt,targetHeading,highLevelState,lowLevelState,gateNumber,filtered_x,filtered_y,x_OT,y_OT,vx_OT,vy_OT,filtered_vx,filtered_vygateArearansac_corr_x,ransac_corr_y,ransac_corr_vx,ransac_corr_vy,detectionTimeStamp
5842,0,0,0,0,0,0,0,0,0,0,0,0,0,0,0,0,0,0,0,0,0,0,0,0,0,0,0,0,-0.261799,0,-1.5,nan,0,0,0,0,0,0,0,0,0,0,0,1.9603e-19,0,0,0,0,0
5858,0,0,0,0,0,0,0,0,0,0,0,0,0,0,0,0,0,0,0,0,0,0,0,0,0,0,0,0,-0.261799,0,-1.5,nan,0,0,0,0,0,0,0,0,0,0,0,1.9603e-19,0,0,0,0,0
8419,-3.34297e-12,1.00393e-37,-1.60487e-06,-3.40794e-12,1.00384e-37,-3.92437e-12,-1.13703e-13,0,0,0,0,0,0,0,0,0,0,0,0,0,0,0,0,0,0,0,0,0,-0.261799,0,-1.5,nan,0,0,0,0,0,0,0,0,0,0,0,1.9603e-19,0,0,0,0,0
8520,-3.34297e-12,1.00393e-37,-1.60487e-06,-3.40794e-12,1.00384e-37,0,-1.13703e-13,0,0,0,0,0,0,0,0,0,0,0,0,0,0,0,0,0,0,0,0,0,-0.261799,0,-1.5,nan,0,0,0,0,0,0,0,0,0,0,0,1.9603e-19,0,0,0,0,0
9110,-3.34297e-12,1.00393e-37,-1.60487e-06,-3.40794e-12,1.00384e-37,-3.92437e-12,-1.13704e-13,0,0,0,0,0,0,0,0,0,0,0,0,0,0,0,0,0,0,0,0,0,-0.261799,0,-1.5,nan,0,0,0,0,0,0,0,0,0,0,0,1.9603e-19,0,0,0,0,0
9260,-3.34297e-12,1.00393e-37,-1.60487e-06,-3.40794e-12,1.00384e-37,0,-1.13704e-13,0,0,0,0,0,0,0,0,0,0,0,0,0,0,0,0,0,0,0,0,0,-0.261799,0,-1.5,nan,0,0,0,0,0,0,0,0,0,0,0,1.9603e-19,0,0,0,0,0
9410,-3.34297e-12,1.00393e-37,-1.60487e-06,-3.40794e-12,1.00384e-37,-3.92437e-12,-1.13705e-13,0,0,0,0,0,0,0,0,0,0,0,0,0,0,0,0,0,0,0,0,0,-0.261799,0,-1.5,nan,0,0,0,0,0,0,0,0,0,0,0,1.9603e-19,0,0,0,0,0
9487,-3.34297e-12,1.00393e-37,-1.60487e-06,-3.40794e-12,1.00384e-37,0,-1.13705e-13,0,0,0,0,0,0,0,0,0,0,0,0,0,0,0,0,0,0,0,0,0,-0.261799,0,-1.5,nan,0,0,0,0,0,0,0,0,0,0,0,1.9603e-19,0,0,0,0,0
9536,-3.34297e-12,1.00393e-37,-1.60487e-06,-3.40794e-12,1.00384e-37,-3.92437e-12,-1.13706e-13,0,0,0,0,0,0,0,0,0,0,0,0,0,0,0,0,0,0,0,0,0,-0.261799,0,-1.5,nan,0,0,0,0,0,0,0,0,0,0,0,1.9603e-19,0,0,0,0,0
9582,-3.34297e-12,1.00393e-37,-1.60487e-06,-3.40794e-12,1.00384e-37,0,-1.13706e-13,0,0,0,0,0,0,0,0,0,0,0,0,0,0,0,0,0,0,0,0,0,-0.261799,0,-1.5,nan,0,0,0,0,0,0,0,0,0,0,0,1.9603e-19,0,0,0,0,0
9690,-3.34297e-12,1.00393e-37,-1.60487e-06,-3.40794e-12,1.00384e-37,-3.92437e-12,-1.13707e-13,0,0,0,0,0,0,0,0,0,0,0,0,0,0,0,0,0,0,0,0,0,-0.261799,0,-1.5,nan,0,0,0,0,0,0,0,0,0,0,0,1.9603e-19,0,0,0,0,0
9746,-3.34297e-12,1.00393e-37,-1.60487e-06,-3.40794e-12,1.00384e-37,0,-1.13708e-13,0,0,0,0,0,0,0,0,0,0,0,0,0,0,0,0,0,0,0,0,0,-0.261799,0,-1.5,nan,0,0,0,0,0,0,0,0,0,0,0,1.9603e-19,0,0,0,0,0
9780,-3.34297e-12,1.00393e-37,-1.60487e-06,-3.40794e-12,1.00384e-37,-3.92437e-12,-1.13708e-13,0,0,0,0,0,0,0,0,0,0,0,0,0,0,0,0,0,0,0,0,0,-0.261799,0,-1.5,nan,0,0,0,0,0,0,0,0,0,0,0,1.9603e-19,0,0,0,0,0
9798,-3.34297e-12,1.00393e-37,-1.60487e-06,-3.40794e-12,1.00384e-37,0,-1.13709e-13,0,0,0,0,0,0,0,0,0,0,0,0,0,0,0,0,0,0,0,0,0,-0.261799,0,-1.5,nan,0,0,0,0,0,0,0,0,0,0,0,1.9603e-19,0,0,0,0,0
9900,-3.34297e-12,1.00393e-37,-1.60487e-06,-3.40794e-12,1.00384e-37,-3.92437e-12,-1.13709e-13,0,0,0,0,0,0,0,0,0,0,0,0,0,0,0,0,0,0,0,0,0,-0.261799,0,-1.5,nan,0,0,0,0,0,0,0,0,0,0,0,1.9603e-19,0,0,0,0,0
9951,-3.34297e-12,1.00393e-37,-1.60487e-06,-3.40794e-12,1.00384e-37,0,-1.1371e-13,0,0,0,0,0,0,0,0,0,0,0,0,0,0,0,0,0,0,0,0,0,-0.261799,0,-1.5,nan,0,0,0,0,0,0,0,0,0,0,0,1.9603e-19,0,0,0,0,0
9968,-3.34297e-12,1.00393e-37,-1.60487e-06,-3.40794e-12,1.00384e-37,-3.92437e-12,-1.1371e-13,0,0,0,0,0,0,0,0,0,0,0,0,0,0,0,0,0,0,0,0,0,-0.261799,0,-1.5,nan,0,0,0,0,0,0,0,0,0,0,0,1.9603e-19,0,0,0,0,0
9986,-3.34297e-12,1.00393e-37,-1.60487e-06,-3.40794e-12,1.00384e-37,0,-1.13711e-13,0,0,0,0,0,0,0,0,0,0,0,0,0,0,0,0,0,0,0,0,0,-0.261799,0,-1.5,nan,0,0,0,0,0,0,0,0,0,0,0,1.9603e-19,0,0,0,0,0
10090,-3.34297e-12,1.00393e-37,-1.60487e-06,-3.40794e-12,1.00384e-37,-3.92437e-12,-1.13711e-13,0,0,0,0,0,0,0,0,0,0,0,0,0,0,0,0,0,0,0,0,0,-0.261799,0,-1.5,nan,0,0,0,0,0,0,0,0,0,0,0,1.9603e-19,0,0,0,0,0
10158,-3.34297e-12,1.00393e-37,-1.60487e-06,-3.40794e-12,1.00384e-37,0,-1.13712e-13,0,0,0,0,0,0,0,0,0,0,0,0,0,0,0,0,0,0,0,0,0,-0.261799,0,-1.5,nan,0,0,0,0,0,0,0,0,0,0,0,1.9603e-19,0,0,0,0,0
10175,-3.34297e-12,1.00393e-37,-1.60487e-06,-3.40794e-12,1.00384e-37,-3.92437e-12,-1.13712e-13,0,0,0,0,0,0,0,0,0,0,0,0,0,0,0,0,0,0,0,0,0,-0.261799,0,-1.5,nan,0,0,0,0,0,0,0,0,0,0,0,1.9603e-19,0,0,0,0,0
10187,-3.34297e-12,1.00393e-37,-1.60487e-06,-3.40794e-12,1.00384e-37,0,-1.13713e-13,0,0,0,0,0,0,0,0,0,0,0,0,0,0,0,0,0,0,0,0,0,-0.261799,0,-1.5,nan,0,0,0,0,0,0,0,0,0,0,0,1.9603e-19,0,0,0,0,0
10201,-3.34297e-12,1.00393e-37,-1.60487e-06,-3.40794e-12,1.00384e-37,-3.92437e-12,-1.13714e-13,0,0,0,0,0,0,0,0,0,0,0,0,0,0,0,0,0,0,0,0,0,-0.261799,0,-1.5,nan,0,0,0,0,0,0,0,0,0,0,0,1.9603e-19,0,0,0,0,0
10218,-3.34297e-12,1.00393e-37,-1.60487e-06,-3.40794e-12,1.00384e-37,0,-1.13714e-13,0,0,0,0,0,0,0,0,0,0,0,0,0,0,0,0,0,0,0,0,0,-0.261799,0,-1.5,nan,0,0,0,0,0,0,0,0,0,0,0,1.9603e-19,0,0,0,0,0
10239,-3.34297e-12,1.00393e-37,-1.60487e-06,-3.40794e-12,1.00384e-37,-3.92437e-12,-1.13715e-13,0,0,0,0,0,0,0,0,0,0,0,0,0,0,0,0,0,0,0,0,0,-0.261799,0,-1.5,nan,0,0,0,0,0,0,0,0,0,0,0,1.9603e-19,0,0,0,0,0
10257,-3.34297e-12,1.00393e-37,-1.60487e-06,-3.40794e-12,1.00384e-37,0,-1.13715e-13,0,0,0,0,0,0,0,0,0,0,0,0,0,0,0,0,0,0,0,0,0,-0.261799,0,-1.5,nan,0,0,0,0,0,0,0,0,0,0,0,1.9603e-19,0,0,0,0,0
10274,-3.34297e-12,1.00393e-37,-1.60487e-06,-3.40794e-12,1.00384e-37,-3.92437e-12,-1.13716e-13,0,0,0,0,0,0,0,0,0,0,0,0,0,0,0,0,0,0,0,0,0,-0.261799,0,-1.5,nan,0,0,0,0,0,0,0,0,0,0,0,1.9603e-19,0,0,0,0,0
10310,-3.34297e-12,1.00393e-37,-1.60487e-06,-3.40794e-12,1.00384e-37,0,-1.13716e-13,0,0,0,0,0,0,0,0,0,0,0,0,0,0,0,0,0,0,0,0,0,-0.261799,0,-1.5,nan,0,0,0,0,0,0,0,0,0,0,0,1.9603e-19,0,0,0,0,0
10396,-3.34297e-12,1.00393e-37,-1.60487e-06,-3.40794e-12,1.00384e-37,-3.92437e-12,-1.13717e-13,0,0,0,0,0,0,0,0,0,0,0,0,0,0,0,0,0,0,0,0,0,-0.261799,0,-1.5,nan,0,0,0,0,0,0,0,0,0,0,0,1.9603e-19,0,0,0,0,0
10620,-3.34297e-12,1.00393e-37,-1.60487e-06,-3.40794e-12,1.00384e-37,0,-1.13717e-13,0,0,0,0,0,0,0,0,0,0,0,0,0,0,0,0,0,0,0,0,0,-0.261799,0,-1.5,nan,0,0,0,0,0,0,0,0,0,0,0,1.9603e-19,0,0,0,0,0
10771,-3.34297e-12,1.00393e-37,-1.60487e-06,-3.40794e-12,1.00384e-37,-3.92437e-12,-1.13718e-13,0,0,-3.29725,0.217276,0.252545,0,0,0,0,0,-0.0813189,0.217276,230,-60,230,-60,363,-36,232,69,0,-0.261799,0,-1.5,nan,0,0,0,0,0,0,0,0,0,0,0,17290,0,0,0,0,10762
11296,-3.34297e-12,1.00393e-37,-1.60487e-06,-3.40794e-12,1.00384e-37,0,-1.13718e-13,0,0,-3.31176,0.213869,0.260887,0,0,0,0,0,-0.0986452,0.213869,232,-60,232,-60,363,-36,232,69,0,-0.261799,0,-1.5,nan,0,0,0,0,0,0,0,0,0,0,0,17030,0,0,0,0,11288
11312,-3.34297e-12,1.00393e-37,-1.60487e-06,-3.40794e-12,1.00384e-37,-3.92437e-12,-1.13719e-13,0,0,-3.31176,0.213869,0.260887,0,0,0,0,0,-0.0986452,0.213869,232,-60,232,-60,363,-36,232,69,0,-0.261799,0,-1.5,nan,0,0,0,0,0,0,0,0,0,0,0,17030,0,0,0,0,11288
11324,-3.34297e-12,1.00393e-37,-1.60487e-06,-3.40794e-12,1.00384e-37,0,-1.13719e-13,0,0,-3.31176,0.213869,0.260887,0,0,0,0,0,-0.0986452,0.213869,232,-60,232,-60,363,-36,232,69,0,-0.261799,0,-1.5,nan,0,0,0,0,0,0,0,0,0,0,0,17030,0,0,0,0,11288
11336,-3.34297e-12,1.00393e-37,-1.60487e-06,-3.40794e-12,1.00384e-37,-3.92437e-12,-1.1372e-13,0,0,-3.31176,0.213869,0.260887,0,0,0,0,0,-0.0986452,0.213869,232,-60,232,-60,363,-36,232,69,0,-0.261799,0,-1.5,nan,0,0,0,0,0,0,0,0,0,0,0,17030,0,0,0,0,11288
11381,-3.34297e-12,1.00393e-37,-1.60487e-06,-3.40794e-12,1.00384e-37,0,-1.13721e-13,0,0,-3.23122,0.217411,0.25261,0,0,0,0,0,-0.00267029,0.217411,229,-61,229,-61,363,-51,232,67,0,-0.261799,0,-1.5,nan,0,0,0,0,0,0,0,0,0,0,0,17554,0,0,0,0,11373
11403,-3.34297e-12,1.00393e-37,-1.60487e-06,-3.40794e-12,1.00384e-37,-3.92437e-12,-1.13721e-13,0,0,-3.23122,0.217411,0.25261,0,0,0,0,0,-0.00267029,0.217411,229,-61,229,-61,363,-51,232,67,0,-0.261799,0,-1.5,nan,0,0,0,0,0,0,0,0,0,0,0,17554,0,0,0,0,11395
11424,-3.34297e-12,1.00393e-37,-1.60487e-06,-3.40794e-12,1.00384e-37,0,-1.13722e-13,0,0,-3.24377,0.216283,0.257921,0,0,0,0,0,-0.0175853,0.216283,230,-60,230,-60,363,-51,232,67,0,-0.261799,0,-1.5,nan,0,0,0,0,0,0,0,0,0,0,0,17290,0,0,0,0,11417
11477,-3.34297e-12,1.00393e-37,-1.60487e-06,-3.40794e-12,1.00384e-37,-3.92437e-12,-1.13722e-13,0,0,-3.25806,0.221604,0.266108,0,0,0,0,0,-0.0345945,0.221604,230,-60,230,-60,363,-51,232,67,0,-0.261799,0,-1.5,nan,0,0,0,0,0,0,0,0,0,0,0,17290,0,0,0,0,11468
11498,-3.34297e-12,1.00393e-37,-1.60487e-06,-3.40794e-12,1.00384e-37,0,-1.13723e-13,0,0,-3.24377,0.216283,0.257921,0,0,0,0,0,-0.0175853,0.216283,230,-60,230,-60,363,-51,232,67,0,-0.261799,0,-1.5,nan,0,0,0,0,0,0,0,0,0,0,0,17290,0,0,0,0,11489
11513,-3.34297e-12,1.00393e-37,-1.60487e-06,-3.40794e-12,1.00384e-37,-3.92437e-12,-1.13723e-13,0,0,-3.24377,0.216283,0.257921,0,0,0,0,0,-0.0175853,0.216283,230,-60,230,-60,363,-51,232,67,0,-0.261799,0,-1.5,nan,0,0,0,0,0,0,0,0,0,0,0,17290,0,0,0,0,11489
11529,-3.34297e-12,1.00393e-37,-1.60487e-06,-3.40794e-12,1.00384e-37,0,-1.13724e-13,0,0,-3.24696,0.212468,0.25527,0,0,0,0,0,-0.0213823,0.212468,232,-60,232,-60,363,-51,232,69,0,-0.261799,0,-1.5,nan,0,0,0,0,0,0,0,0,0,0,0,17030,0,0,0,0,11521
11560,-3.34297e-12,1.00393e-37,-1.60487e-06,-3.40794e-12,1.00384e-37,-3.92437e-12,-1.13724e-13,0,0,-3.23122,0.217411,0.25261,0,0,0,0,0,-0.00267029,0.217411,229,-61,229,-61,363,-51,232,67,-0.261799,-0.261799,0,-1.5,nan,0,0,0,-0.0175853,0.215307,0,0,0,0,2.66677e-08,-0.0117545,17554,-0.0175853,0.21546,2.66677e-08,-0.0117545,11549
11586,-3.34297e-12,1.00393e-37,-1.60487e-06,-3.40794e-12,1.00384e-37,0,-1.13725e-13,0,0,-3.23692,0.220206,0.244693,0,0,0,0,0,-0.00944662,0.220206,230,-60,230,-60,363,-51,232,69,-0.261799,-0.261799,0,-1.5,nan,0,0,0,-0.00920147,0.217411,0,0,0,0,0.0490294,-1.21879e-08,17556,-0.00944662,0.217411,0.0490294,-1.21879e-08,11583
11674,-3.34297e-12,1.00393e-37,-1.60487e-06,-3.40794e-12,1.00384e-37,-3.92437e-12,-1.13731e-13,0,0,-3.23122,0.217411,0.25261,0,0,0,0,0,-0.00267029,0.217411,229,-61,229,-61,363,-51,232,67,-0.261799,-0.261799,0,-1.5,nan,0,0,0,0.000257195,0.217411,0,0,0,0,0.0692595,4.66115e-08,17554,-0.0058376,0.217411,0.0692595,4.66115e-08,11662
11710,-3.34297e-12,1.00393e-37,-1.60487e-06,-3.40794e-12,1.00384e-37,0,-1.13731e-13,0,0,-3.25752,0.21288,0.265974,0,0,0,0,0,-0.0339537,0.21288,232,-60,232,-60,363,-51,232,67,-0.261799,-0.261799,0,-1.5,nan,0,0,0,-0.00347286,0.217411,0,0,0,0,0.0520536,2.42609e-08,17030,-0.00534675,0.217411,0.0520536,2.42609e-08,11698
11737,-3.34297e-12,1.00393e-37,-1.60487e-06,-3.40794e-12,1.00384e-37,-3.92437e-12,-1.13726e-13,0,0,-3.24377,0.216283,0.257921,0,0,0,0,0,-0.0175853,0.216283,230,-60,230,-60,363,-51,232,67,-0.261799,-0.261799,0,-1.5,nan,0,0,0,-0.0150088,0.216438,0,0,0,0,0.00817028,-0.00206001,17290,-0.0152294,0.216494,0.00817028,-0.00206001,11725
11763,-3.34297e-12,1.00393e-37,-1.60487e-06,-3.40794e-12,1.00384e-37,0,-1.13725e-13,0,0,-3.24377,0.216283,0.257921,0,0,0,0,0,-0.0175853,0.216283,230,-60,230,-60,363,-51,232,67,-0.261799,-0.261799,0,-1.5,nan,0,0,0,-0.0147964,0.216385,0,0,0,0,0.00817028,-0.00206001,17290,-0.0152294,0.216494,0.00817028,-0.00206001,11725
11788,-3.34297e-12,1.00393e-37,-1.60487e-06,-3.40794e-12,1.00384e-37,-3.92437e-12,-1.13727e-13,0,0,-3.24377,0.216283,0.257921,0,0,0,0,0,-0.0175853,0.216283,230,-60,230,-60,363,-51,232,67,-0.261799,-0.261799,0,-1.5,nan,0,0,0,-0.0175853,0.216236,0,0,0,0,2.01761e-09,-0.0033312,17290,-0.0175853,0.216262,2.01761e-09,-0.0033312,11782
11813,-3.34297e-12,1.00393e-37,-1.60487e-06,-3.40794e-12,1.00384e-37,0,-1.13727e-13,0,0,-3.24377,0.216283,0.257921,0,0,0,0,0,-0.0175853,0.216283,230,-60,230,-60,363,-51,232,67,-0.261799,-0.261799,0,-1.5,nan,0,0,0,-0.0175853,0.216152,0,0,0,0,2.01761e-09,-0.0033312,17290,-0.0175853,0.216262,2.01761e-09,-0.0033312,11782
11837,-3.34297e-12,1.00393e-37,-1.60487e-06,-3.40794e-12,1.00384e-37,-3.92437e-12,-1.13729e-13,0,0,-3.24377,0.216283,0.257921,0,0,0,0,0,-0.0175853,0.216283,230,-60,230,-60,363,-51,232,67,-0.261799,-0.261799,0,-1.5,nan,0,0,0,-0.0175853,0.216103,0,0,0,0,1.24437e-09,-0.0027812,17290,-0.0175853,0.21617,1.24437e-09,-0.0027812,11825
11867,-3.34297e-12,1.00393e-37,-1.60487e-06,-3.40794e-12,1.00384e-37,0,-1.13728e-13,0,0,-3.23451,0.221734,0.249826,0,0,0,0,0,-0.00658131,0.221734,229,-61,229,-61,363,-51,232,67,-0.261799,-0.261799,0,-1.5,nan,0,0,0,-0.0162322,0.216103,0,0,0,0,0.00190112,-0.00224341,17822,-0.0162892,0.21617,0.00190112,-0.00224341,11855
11888,-3.34297e-12,1.00393e-37,-1.60487e-06,-3.40794e-12,1.00384e-37,-3.92437e-12,-1.13732e-13,0,0,-3.24377,0.216283,0.257921,0,0,0,0,0,-0.0175853,0.216283,230,-60,230,-60,363,-51,232,67,-0.261799,-0.261799,0,-1.5,nan,0,0,0,-0.0181677,0.216227,0,0,0,0,-0.000704924,-0.00180525,17290,-0.0181634,0.216238,-0.000704924,-0.00180525,11884
11904,-3.34297e-12,1.00393e-37,-1.60487e-06,-3.40794e-12,1.00384e-37,0,-1.13729e-13,0,0,-3.24377,0.216283,0.257921,0,0,0,0,0,-0.0175853,0.216283,230,-60,230,-60,363,-51,232,67,-0.261799,-0.261799,0,-1.5,nan,0,0,0,-0.0181789,0.216198,0,0,0,0,-0.000704924,-0.00180525,17290,-0.0181634,0.216238,-0.000704924,-0.00180525,11884
11927,-3.34297e-12,1.00393e-37,-1.60487e-06,-3.40794e-12,1.00384e-37,-3.92437e-12,-1.13737e-13,0,0,-3.24377,0.216283,0.257921,0,0,0,0,0,-0.0175853,0.216283,230,-60,230,-60,363,-51,232,67,-0.261799,-0.261799,0,-1.5,nan,0,0,0,-0.0175853,0.216192,0,0,0,0,-2.58278e-11,-0.00198607,17290,-0.0175853,0.216216,-2.58278e-11,-0.00198607,11917
11944,-3.34297e-12,1.00393e-37,-1.60487e-06,-3.40794e-12,1.00384e-37,0,-1.1373e-13,0,0,-3.24377,0.216283,0.257921,0,0,0,0,0,-0.0175853,0.216283,230,-60,230,-60,363,-51,232,67,-0.261799,-0.261799,0,-1.5,nan,0,0,0,-0.0175853,0.216158,0,0,0,0,-2.58278e-11,-0.00198607,17290,-0.0175853,0.216216,-2.58278e-11,-0.00198607,11917
11978,-3.34297e-12,1.00393e-37,-1.60487e-06,-3.40794e-12,1.00384e-37,-3.92437e-12,-1.13738e-13,0,0,-3.24377,0.216283,0.257921,0,0,0,0,0,-0.0175853,0.216283,230,-60,230,-60,363,-51,232,67,-0.261799,-0.261799,0,-1.5,nan,0,0,0,-0.018054,0.216123,0,0,0,0,-0.000377699,-0.00174013,17290,-0.0180415,0.216181,-0.000377699,-0.00174013,11965
12002,-3.34297e-12,1.00393e-37,-1.60487e-06,-3.40794e-12,1.00384e-37,0,-1.13739e-13,0,0,-3.23122,0.217411,0.25261,0,0,0,0,0,-0.00267029,0.217411,229,-61,229,-61,363,-51,232,67,-0.261799,-0.261799,0,-1.5,nan,0,0,0,-0.0172452,0.216283,0,0,0,0,-0.00127622,-9.14396e-10,17554,-0.0172133,0.216283,-0.00127622,-9.14396e-10,11990
12027,-3.34297e-12,1.00393e-37,-1.60487e-06,-3.40794e-12,1.00384e-37,-3.92437e-12,-1.1374e-13,0,0,-3.23122,0.217411,0.25261,0,0,0,0,0,-0.00267029,0.217411,229,-61,229,-61,363,-51,232,67,-0.261799,-0.261799,0,-1.5,nan,0,0,0,-0.0175759,0.216172,0,0,0,0,-0.00204688,-0.000667376,17554,-0.0175247,0.216188,-0.00204688,-0.000667376,12015
12058,-3.34297e-12,1.00393e-37,-1.60487e-06,-3.40794e-12,1.00384e-37,0,-1.13741e-13,0,0,-3.23122,0.217411,0.25261,0,0,0,0,0,-0.00267029,0.217411,229,-61,229,-61,363,-51,232,67,-0.261799,-0.261799,0,-1.5,nan,0,0,0,-0.0157768,0.216235,0,0,0,0,0.00281065,-0.000583182,17554,-0.0158049,0.216241,0.00281065,-0.000583182,12049
12088,-3.34297e-12,1.00393e-37,-1.60487e-06,-3.40794e-12,1.00384e-37,-3.92437e-12,-1.13736e-13,0,0,-3.23122,0.217411,0.25261,0,0,0,0,0,-0.00267029,0.217411,229,-61,229,-61,363,-51,232,67,-0.261799,-0.261799,0,-1.5,nan,0,0,0,-0.00296607,0.21748,0,0,0,0,0.0242984,0.00167118,17554,-0.00311186,0.21747,0.0242984,0.00167118,12083
12108,-3.34297e-12,1.00393e-37,-1.60487e-06,-3.40794e-12,1.00384e-37,0,-1.13739e-13,0,0,-3.23122,0.217411,0.25261,0,0,0,0,0,-0.00267029,0.217411,229,-61,229,-61,363,-51,232,67,-0.261799,-0.261799,0,-1.5,nan,0,0,0,-0.00245581,0.217515,0,0,0,0,0.0242984,0.00167118,17554,-0.00311186,0.21747,0.0242984,0.00167118,12083
12138,-3.34297e-12,1.00393e-37,-1.60487e-06,-3.40794e-12,1.00384e-37,-3.92437e-12,-1.13732e-13,0,0,-3.24377,0.216283,0.257921,0,0,0,0,0,-0.0175853,0.216283,230,-60,230,-60,363,-51,232,67,-0.261799,-0.261799,0,-1.5,nan,0,0,0,-0.0161835,0.216552,0,0,0,0,0.00289572,0.000343539,17290,-0.0162703,0.216542,0.00289572,0.000343539,12125
12177,-3.34297e-12,1.00393e-37,-1.60487e-06,-3.40794e-12,1.00384e-37,0,-1.13733e-13,0,0,-3.24377,0.216283,0.257921,0,0,0,0,0,-0.0175853,0.216283,230,-60,230,-60,363,-51,232,67,-0.261799,-0.261799,0,-1.5,nan,0,0,0,-0.017103,0.216287,0,0,0,0,-0.000942059,-0.000106786,17290,-0.0170663,0.216291,-0.000942059,-0.000106786,12164
12199,-3.34297e-12,1.00393e-37,-1.60487e-06,-3.40794e-12,1.00384e-37,-3.92437e-12,-1.13733e-13,0,0,-3.24377,0.216283,0.257921,0,0,0,0,0,-0.0175853,0.216283,230,-60,230,-60,363,-51,232,67,-0.261799,-0.261799,0,-1.5,nan,0,0,0,-0.0168096,0.216297,0,0,0,0,-9.6092e-05,-6.4739e-05,17290,-0.0168083,0.216298,-9.6092e-05,-6.4739e-05,12188
12231,-3.34297e-12,1.00393e-37,-1.60487e-06,-3.40794e-12,1.00384e-37,0,-1.13734e-13,0,0,-3.25752,0.21288,0.265974,0,0,0,0,0,-0.0339537,0.21288,232,-60,232,-60,363,-51,232,67,-0.261799,-0.261799,0,-1.5,nan,0,0,0,-0.0181621,0.216296,0,0,0,0,-0.00134501,-0.000111528,17030,-0.018119,0.2163,-0.00134501,-0.000111528,12218
12245,-3.34297e-12,1.00393e-37,-1.60487e-06,-3.40794e-12,1.00384e-37,-3.92437e-12,-1.1374e-13,0,0,-3.25752,0.21288,0.265974,0,0,0,0,0,-0.0339537,0.21288,232,-60,232,-60,363,-51,232,67,-0.261799,-0.261799,0,-1.5,nan,0,0,0,-0.0181809,0.216295,0,0,0,0,-0.00134501,-0.000111528,17030,-0.018119,0.2163,-0.00134501,-0.000111528,12218
12268,-3.34297e-12,1.00393e-37,-1.60487e-06,-3.40794e-12,1.00384e-37,0,-1.13734e-13,0,0,-3.24377,0.216283,0.257921,0,0,0,0,0,-0.0175853,0.216283,230,-60,230,-60,363,-51,232,67,-0.261799,-0.261799,0,-1.5,nan,0,0,0,-0.0168843,0.216276,0,0,0,0,0.00165143,-1.45049e-05,17290,-0.0169223,0.216276,0.00165143,-1.45049e-05,12255
12302,-3.34297e-12,1.00393e-37,-1.60487e-06,-3.40794e-12,1.00384e-37,-3.92437e-12,-1.13742e-13,0,0,-3.23122,0.217411,0.25261,0,0,0,0,0,-0.00267029,0.217411,229,-61,229,-61,363,-51,232,67,-0.261799,-0.261799,0,-1.5,nan,0,0,0,-0.0175815,0.216243,0,0,0,0,-0.0018355,-0.000275315,17554,-0.0175209,0.216252,-0.0018355,-0.000275315,12288
12328,-3.34297e-12,1.00393e-37,-1.60487e-06,-3.40794e-12,1.00384e-37,0,-1.13742e-13,0,0,-3.24708,0.220622,0.255129,0,0,0,0,0,-0.0215216,0.220622,230,-60,230,-60,363,-51,232,67,-0.261799,-0.261799,0,-1.5,nan,0,0,0,-0.0166133,0.216107,0,0,0,0,0.00149882,-0.000841148,17556,-0.0166538,0.216129,0.00149882,-0.000841148,12315
12394,-3.34297e-12,1.00393e-37,-1.60487e-06,-3.40794e-12,1.00384e-37,-3.92437e-12,-1.13743e-13,0,0,-3.26064,0.217224,0.263052,0,0,0,0,0,-0.0376682,0.217224,232,-60,232,-60,363,-51,232,67,-0.261799,-0.261799,0,-1.5,nan,0,0,0,-0.0170318,0.216177,0,0,0,0,-0.000346496,-0.000435353,17292,-0.0170273,0.216183,-0.000346496,-0.000435353,12383
12419,-3.34297e-12,1.00393e-37,-1.60487e-06,-3.40794e-12,1.00384e-37,0,-1.13737e-13,0,0,-3.24377,0.216283,0.257921,0,0,0,0,0,-0.0175853,0.216283,230,-60,230,-60,363,-51,232,67,-0.261799,-0.261799,0,-1.5,nan,0,0,0,-0.0175712,0.216247,0,0,0,0,-7.93559e-05,-0.000234616,17290,-0.0175706,0.216249,-7.93559e-05,-0.000234616,12413
12447,-3.34297e-12,1.00393e-37,-1.60487e-06,-3.40794e-12,1.00384e-37,-3.92437e-12,-1.13735e-13,0,0,-3.24377,0.216283,0.257921,0,0,0,0,0,-0.0175853,0.216283,230,-60,230,-60,363,-51,232,67,-0.261799,-0.261799,0,-1.5,nan,0,0,0,-0.0175735,0.21624,0,0,0,0,-7.93559e-05,-0.000234616,17290,-0.0175706,0.216249,-7.93559e-05,-0.000234616,12413
12474,-3.34297e-12,1.00393e-37,-1.60487e-06,-3.40794e-12,1.00384e-37,0,-1.13743e-13,0,0,-3.24377,0.216283,0.257921,0,0,0,0,0,-0.0175853,0.216283,230,-60,230,-60,363,-51,232,67,-0.261799,-0.261799,0,-1.5,nan,0,0,0,-0.0180698,0.216333,0,0,0,0,-0.000774495,-0.000236193,17290,-0.0180489,0.21634,-0.000774495,-0.000236193,12460
12499,-3.34297e-12,1.00393e-37,-1.60487e-06,-3.40794e-12,1.00384e-37,-3.92437e-12,-1.13744e-13,0,0,-3.24377,0.216283,0.257921,0,0,0,0,0,-0.0175853,0.216283,230,-60,230,-60,363,-51,232,67,-0.261799,-0.261799,0,-1.5,nan,0,0,0,-0.0174678,0.216222,0,0,0,0,0.000430167,-0.000137798,17290,-0.0174785,0.216225,0.000430167,-0.000137798,12485
12541,-3.34297e-12,1.00393e-37,-1.60487e-06,-3.40794e-12,1.00384e-37,0,-1.13744e-13,0,0,-3.24377,0.216283,0.257921,0,0,0,0,0,-0.0175853,0.216283,230,-60,230,-60,363,-51,232,67,-0.261799,-0.261799,0,-1.5,nan,0,0,0,-0.018163,0.216257,0,0,0,0,-0.00256066,-2.34196e-05,17290,-0.0180555,0.216257,-0.00256066,-2.34196e-05,12527
12631,-3.34297e-12,1.00393e-37,-1.60487e-06,-3.40794e-12,1.00384e-37,-3.92437e-12,-1.13745e-13,0,0,-3.23122,0.217411,0.25261,0,0,0,0,0,-0.00267029,0.217411,229,-61,229,-61,363,-51,232,67,-0.261799,-0.261799,0,-1.5,nan,0,0,0,-0.0174992,0.216252,0,0,0,0,-0.000531439,-3.70232e-05,17554,-0.0174514,0.216255,-0.000531439,-3.70232e-05,12617
12659,-3.34297e-12,1.00393e-37,-1.60487e-06,-3.40794e-12,1.00384e-37,0,-1.13745e-13,0,0,-3.24377,0.216283,0.257921,0,0,0,0,0,-0.0175853,0.216283,230,-60,230,-60,363,-51,232,67,-0.261799,-0.261799,0,-1.5,nan,0,0,0,-0.0176584,0.216275,0,0,0,0,-0.000149696,-0.000300146,17290,-0.0176566,0.216278,-0.000149696,-0.000300146,12649
12689,-3.34297e-12,1.00393e-37,-1.60487e-06,-3.40794e-12,1.00384e-37,-3.92437e-12,-1.13746e-13,0,0,-3.24377,0.216283,0.257921,0,0,0,0,0,-0.0175853,0.216283,230,-60,230,-60,363,-51,232,67,-0.261799,-0.261799,0,-1.5,nan,0,0,0,-0.0175471,0.216308,0,0,0,0,-0.000655276,-9.67658e-05,17290,-0.0175419,0.216309,-0.000655276,-9.67658e-05,12683
12702,-3.34297e-12,1.00393e-37,-1.60487e-06,-3.40794e-12,1.00384e-37,0,-1.13735e-13,0,0,-3.24377,0.216283,0.257921,0,0,0,0,0,-0.0175853,0.216283,230,-60,230,-60,363,-51,232,67,-0.261799,-0.261799,0,-1.5,nan,0,0,0,-0.0175557,0.216307,0,0,0,0,-0.000655276,-9.67658e-05,17290,-0.0175419,0.216309,-0.000655276,-9.67658e-05,12683
12729,-3.34297e-12,1.00393e-37,-1.60487e-06,-3.40794e-12,1.00384e-37,-3.92437e-12,-1.13746e-13,0,0,-3.23645,0.213629,0.25373,0,0,0,0,0,-0.00888252,0.213629,230,-60,230,-60,363,-51,232,67,-0.261799,-0.261799,0,-1.5,nan,0,0,0,-0.0176287,0.216315,0,0,0,0,-0.000636978,-2.16938e-05,17290,-0.0176198,0.216315,-0.000636978,-2.16938e-05,12717
12759,-3.34297e-12,1.00393e-37,-1.60487e-06,-3.40794e-12,1.00384e-37,0,-1.13747e-13,0,0,-3.23122,0.217411,0.25261,0,0,0,0,0,-0.00267029,0.217411,229,-61,229,-61,363,-51,232,67,-0.261799,-0.261799,0,-1.5,nan,0,0,0,-0.0171315,0.216308,0,0,0,0,0.000171899,7.00166e-05,17554,-0.017133,0.216308,0.000171899,7.00166e-05,12751
12800,-3.34297e-12,1.00393e-37,-1.60487e-06,-3.40794e-12,1.00384e-37,-3.92437e-12,-1.13748e-13,0,0,-3.24377,0.216283,0.257921,0,0,0,0,0,-0.0175853,0.216283,230,-60,230,-60,363,-51,232,67,-0.261799,-0.261799,0,-1.5,nan,0,0,0,-0.0176942,0.216281,0,0,0,0,-0.000507165,-1.60659e-07,17290,-0.0176729,0.216281,-0.000507165,-1.60659e-07,12786
12833,-3.34297e-12,1.00393e-37,-1.60487e-06,-3.40794e-12,1.00384e-37,0,-1.13748e-13,0,0,-3.24377,0.216283,0.257921,0,0,0,0,0,-0.0175853,0.216283,230,-60,230,-60,363,-51,232,67,-0.261799,-0.261799,0,-1.5,nan,0,0,0,-0.0177105,0.216281,0,0,0,0,-0.000507165,-1.60659e-07,17290,-0.0176729,0.216281,-0.000507165,-1.60659e-07,12786
12859,-3.34297e-12,1.00393e-37,-1.60487e-06,-3.40794e-12,1.00384e-37,-3.92437e-12,-1.13749e-13,0,0,-3.24708,0.220622,0.255129,0,0,0,0,0,-0.0215216,0.220622,230,-60,230,-60,363,-51,232,67,-0.261799,-0.261799,0,-1.5,nan,0,0,0,-0.0176604,0.216235,0,0,0,0,-5.65721e-05,-8.14233e-05,17556,-0.0176597,0.216236,-5.65721e-05,-8.14233e-05,12848
12892,-3.34297e-12,1.00393e-37,-1.60487e-06,-3.40794e-12,1.00384e-37,0,-1.13749e-13,0,0,-3.24377,0.216283,0.257921,0,0,0,0,0,-0.0175853,0.216283,230,-60,230,-60,363,-51,232,67,-0.261799,-0.261799,0,-1.5,nan,0,0,0,-0.0169434,0.216256,0,0,0,0,0.000613348,-0.000190806,17290,-0.0169507,0.216258,0.000613348,-0.000190806,12882
12913,-3.34297e-12,1.00393e-37,-1.60487e-06,-3.40794e-12,1.00384e-37,-3.92437e-12,-1.1375e-13,0,0,-3.24377,0.216283,0.257921,0,0,0,0,0,-0.0175853,0.216283,230,-60,230,-60,363,-51,232,67,-0.261799,-0.261799,0,-1.5,nan,0,0,0,-0.0169305,0.216252,0,0,0,0,0.000613348,-0.000190806,17290,-0.0169507,0.216258,0.000613348,-0.000190806,12882
12940,-3.34297e-12,1.00393e-37,-1.60487e-06,-3.40794e-12,1.00384e-37,0,-1.1375e-13,0,0,-3.24377,0.216283,0.257921,0,0,0,0,0,-0.0175853,0.216283,230,-60,230,-60,363,-51,232,67,-0.261799,-0.261799,0,-1.5,nan,0,0,0,-0.0169418,0.216319,0,0,0,0,0.000610953,7.03115e-05,17290,-0.0169583,0.216317,0.000610953,7.03115e-05,12926
12969,-3.34297e-12,1.00393e-37,-1.60487e-06,-3.40794e-12,1.00384e-37,-3.92437e-12,-1.13751e-13,0,0,-3.24377,0.216283,0.257921,0,0,0,0,0,-0.0175853,0.216283,230,-60,230,-60,363,-51,232,67,-0.261799,-0.261799,0,-1.5,nan,0,0,0,-0.0176657,0.216336,0,0,0,0,-0.000660996,0.000103474,17290,-0.0176465,0.216333,-0.000660996,0.000103474,12955
13002,-3.34297e-12,1.00393e-37,-1.60487e-06,-3.40794e-12,1.00384e-37,0,-1.13751e-13,0,0,-3.24377,0.216283,0.257921,0,0,0,0,0,-0.0175853,0.216283,230,-60,230,-60,363,-51,232,67,-0.261799,-0.261799,0,-1.5,nan,0,0,0,-0.0180158,0.216297,0,0,0,0,-0.000653458,2.57348e-05,17290,-0.0179942,0.216296,-0.000653458,2.57348e-05,12988
13029,-3.34297e-12,1.00393e-37,-1.60487e-06,-3.40794e-12,1.00384e-37,-3.92437e-12,-1.13752e-13,0,0,-3.24377,0.216283,0.257921,0,0,0,0,0,-0.0175853,0.216283,230,-60,230,-60,363,-51,232,67,-0.261799,-0.261799,0,-1.5,nan,0,0,0,-0.017615,0.216286,0,0,0,0,-0.000684316,2.92296e-05,17290,-0.0176074,0.216285,-0.000684316,2.92296e-05,13020
13043,-3.34297e-12,1.00393e-37,-1.60487e-06,-3.40794e-12,1.00384e-37,0,-1.13752e-13,0,0,-3.24377,0.216283,0.257921,0,0,0,0,0,-0.0175853,0.216283,230,-60,230,-60,363,-51,232,67,-0.261799,-0.261799,0,-1.5,nan,0,0,0,-0.0176245,0.216286,0,0,0,0,-0.000684316,2.92296e-05,17290,-0.0176074,0.216285,-0.000684316,2.92296e-05,13020
13090,-3.34297e-12,1.00393e-37,-1.60487e-06,-3.40794e-12,1.00384e-37,-3.92437e-12,-1.13753e-13,0,0,-3.21659,0.212124,0.244222,0,0,0,0,0,0.0147121,0.212124,229,-61,229,-61,363,-51,232,67,-0.261799,-0.261799,0,-1.5,nan,0,0,0,-0.0182809,0.216255,0,0,0,0,-0.00166515,-0.000137376,17554,-0.0182026,0.216262,-0.00166515,-0.000137376,13076
13113,-3.34297e-12,1.00393e-37,-1.60487e-06,-3.40794e-12,1.00384e-37,0,-1.13754e-13,0,0,-3.21659,0.212124,0.244222,0,0,0,0,0,0.0147121,0.212124,229,-61,229,-61,363,-51,232,67,-0.261799,-0.261799,0,-1.5,nan,0,0,0,-0.0183192,0.216252,0,0,0,0,-0.00166515,-0.000137376,17554,-0.0182026,0.216262,-0.00166515,-0.000137376,13076
13139,-3.34297e-12,1.00393e-37,-1.60487e-06,-3.40794e-12,1.00384e-37,-3.92437e-12,-1.13754e-13,0,0,-3.24377,0.216283,0.257921,0,0,0,0,0,-0.0175853,0.216283,230,-60,230,-60,363,-51,232,67,-0.261799,-0.261799,0,-1.5,nan,0,0,0,-0.0171816,0.21624,0,0,0,0,6.10968e-05,-4.02775e-05,17290,-0.0171832,0.216241,6.10968e-05,-4.02775e-05,13125
13169,-3.34297e-12,1.00393e-37,-1.60487e-06,-3.40794e-12,1.00384e-37,0,-1.13755e-13,0,0,-3.24708,0.220622,0.255129,0,0,0,0,0,-0.0215216,0.220622,230,-60,230,-60,363,-51,232,67,-0.261799,-0.261799,0,-1.5,nan,0,0,0,-0.0181668,0.216167,0,0,0,0,-0.000593795,-0.000179222,17556,-0.018149,0.216172,-0.000593795,-0.000179222,13155
13229,-3.34297e-12,1.00393e-37,-1.60487e-06,-3.40794e-12,1.00384e-37,-3.92437e-12,-1.13755e-13,0,0,-3.24377,0.216283,0.257921,0,0,0,0,0,-0.0175853,0.216283,230,-60,230,-60,363,-51,232,67,-0.261799,-0.261799,0,-1.5,nan,0,0,0,-0.0176598,0.216283,0,0,0,0,-0.000337818,7.98281e-08,17290,-0.0176399,0.216283,-0.000337818,7.98281e-08,13215
13253,-3.34297e-12,1.00393e-37,-1.60487e-06,-3.40794e-12,1.00384e-37,0,-1.13756e-13,0,0,-3.24377,0.216283,0.257921,0,0,0,0,0,-0.0175853,0.216283,230,-60,230,-60,363,-51,232,67,-0.261799,-0.261799,0,-1.5,nan,0,0,0,-0.0176683,0.216283,0,0,0,0,-0.000337818,7.98281e-08,17290,-0.0176399,0.216283,-0.000337818,7.98281e-08,13215
13283,-3.34297e-12,1.00393e-37,-1.60487e-06,-3.40794e-12,1.00384e-37,-3.92437e-12,-1.13756e-13,0,0,-3.24377,0.216283,0.257921,0,0,0,0,0,-0.0175853,0.216283,230,-60,230,-60,363,-51,232,67,-0.261799,-0.261799,0,-1.5,nan,0,0,0,-0.0176784,0.216283,0,0,0,0,-0.000337818,7.98281e-08,17290,-0.0176399,0.216283,-0.000337818,7.98281e-08,13215
13303,-3.34297e-12,1.00393e-37,-1.60487e-06,-3.40794e-12,1.00384e-37,0,-1.13757e-13,0,0,-3.24377,0.216283,0.257921,0,0,0,0,0,-0.0175853,0.216283,230,-60,230,-60,363,-51,232,67,-0.261799,-0.261799,0,-1.5,nan,0,0,0,-0.0176852,0.216283,0,0,0,0,-0.000337818,7.98281e-08,17290,-0.0176399,0.216283,-0.000337818,7.98281e-08,13215
13329,-3.34297e-12,1.00393e-37,-1.60487e-06,-3.40794e-12,1.00384e-37,-3.92437e-12,-1.13757e-13,0,0,-3.2533,0.216537,0.259314,0,0,0,0,0,-0.0289226,0.216537,230,-60,230,-60,363,-49,232,67,-0.261799,-0.261799,0,-1.5,nan,0,0,0,-0.0184186,0.216283,0,0,0,0,-0.000804191,-2.67195e-08,17290,-0.0184074,0.216283,-0.000804191,-2.67195e-08,13317
13375,-3.34297e-12,1.00393e-37,-1.60487e-06,-3.40794e-12,1.00384e-37,0,-1.13758e-13,0,0,-3.2533,0.216537,0.259314,0,0,0,0,0,-0.0289226,0.216537,230,-60,230,-60,363,-49,232,67,-0.261799,-0.261799,0,-1.5,nan,0,0,0,-0.0184548,0.216283,0,0,0,0,-0.000804191,-2.67195e-08,17290,-0.0184074,0.216283,-0.000804191,-2.67195e-08,13317
13446,-3.34297e-12,1.00393e-37,-1.60487e-06,-3.40794e-12,1.00384e-37,-3.92437e-12,-1.13758e-13,0,0,-3.2533,0.216537,0.259314,0,0,0,0,0,-0.0289226,0.216537,230,-60,230,-60,363,-49,232,67,-0.261799,-0.261799,0,-1.5,nan,0,0,0,-0.0185119,0.216283,0,0,0,0,-0.000804191,-2.67195e-08,17290,-0.0184074,0.216283,-0.000804191,-2.67195e-08,13317
13490,-3.34297e-12,1.00393e-37,-1.60487e-06,-3.40794e-12,1.00384e-37,0,-1.13759e-13,0,0,-3.29362,0.217223,0.252617,0,0,0,0,0,-0.0769811,0.217223,230,-60,230,-60,363,-37,232,69,-0.261799,-0.261799,0,-1.5,nan,0,0,0,-0.0178949,0.21627,0,0,0,0,-0.000340708,-1.23328e-06,17290,-0.0178796,0.21627,-0.000340708,-1.23328e-06,13476
13508,-3.34297e-12,1.00393e-37,-1.60487e-06,-3.40794e-12,1.00384e-37,-3.92437e-12,-1.13759e-13,0,0,-3.29362,0.217223,0.252617,0,0,0,0,0,-0.0769811,0.217223,230,-60,230,-60,363,-37,232,69,-0.261799,-0.261799,0,-1.5,nan,0,0,0,-0.0179011,0.21627,0,0,0,0,-0.000340708,-1.23328e-06,17290,-0.0178796,0.21627,-0.000340708,-1.23328e-06,13476
13533,-3.34297e-12,1.00393e-37,-1.60487e-06,-3.40794e-12,1.00384e-37,0,-1.1376e-13,0,0,-3.29362,0.217223,0.252617,0,0,0,0,0,-0.0769811,0.217223,230,-60,230,-60,363,-37,232,69,-0.261799,-0.261799,0,-1.5,nan,0,0,0,-0.0179096,0.21627,0,0,0,0,-0.000340708,-1.23328e-06,17290,-0.0178796,0.21627,-0.000340708,-1.23328e-06,13476
13560,-3.34297e-12,1.00393e-37,-1.60487e-06,-3.40794e-12,1.00384e-37,-3.92437e-12,-1.13761e-13,0,0,-3.2533,0.216537,0.259314,0,0,0,0,0,-0.0289226,0.216537,230,-60,230,-60,363,-49,232,67,-0.261799,-0.261799,0,-1.5,nan,0,0,0,-0.0216366,0.216382,0,0,0,0,-0.00352726,9.80587e-05,17290,-0.0215978,0.21638,-0.00352726,9.80587e-05,13551
13589,-3.34297e-12,1.00393e-37,-1.60487e-06,-3.40794e-12,1.00384e-37,0,-1.13761e-13,0,0,-3.2533,0.216537,0.259314,0,0,0,0,0,-0.0289226,0.216537,230,-60,230,-60,363,-49,232,67,-0.261799,-0.261799,0,-1.5,nan,0,0,0,-0.0176812,0.216503,0,0,0,0,-2.5118e-05,0.000187187,17290,-0.017681,0.216501,-2.5118e-05,0.000187187,13583
13628,-3.34297e-12,1.00393e-37,-1.60487e-06,-3.40794e-12,1.00384e-37,-3.92437e-12,-1.13762e-13,0,0,-3.2533,0.216537,0.259314,0,0,0,0,0,-0.0289226,0.216537,230,-60,230,-60,363,-49,232,67,-0.261799,-0.261799,0,-1.5,nan,0,0,0,-0.0176822,0.21651,0,0,0,0,-2.5118e-05,0.000187187,17290,-0.017681,0.216501,-2.5118e-05,0.000187187,13583
13653,-3.34297e-12,1.00393e-37,-1.60487e-06,-3.40794e-12,1.00384e-37,0,-1.13762e-13,0,0,-3.2533,0.216537,0.259314,0,0,0,0,0,-0.0289226,0.216537,230,-60,230,-60,363,-49,232,67,-0.261799,-0.261799,0,-1.5,nan,0,0,0,-0.0176828,0.216515,0,0,0,0,-2.5118e-05,0.000187187,17290,-0.017681,0.216501,-2.5118e-05,0.000187187,13583
13673,-3.34297e-12,1.00393e-37,-1.60487e-06,-3.40794e-12,1.00384e-37,-3.92437e-12,-1.13763e-13,0,0,-3.2533,0.216537,0.259314,0,0,0,0,0,-0.0289226,0.216537,230,-60,230,-60,363,-49,232,67,-0.261799,-0.261799,0,-1.5,nan,0,0,0,-0.0176833,0.216519,0,0,0,0,-2.5118e-05,0.000187187,17290,-0.017681,0.216501,-2.5118e-05,0.000187187,13583
13693,-3.34297e-12,1.00393e-37,-1.60487e-06,-3.40794e-12,1.00384e-37,0,-1.13763e-13,0,0,-3.2533,0.216537,0.259314,0,0,0,0,0,-0.0289226,0.216537,230,-60,230,-60,363,-49,232,67,-0.261799,-0.261799,0,-1.5,nan,0,0,0,-0.0176838,0.216522,0,0,0,0,-2.5118e-05,0.000187187,17290,-0.017681,0.216501,-2.5118e-05,0.000187187,13583
13723,-3.34297e-12,1.00393e-37,-1.60487e-06,-3.40794e-12,1.00384e-37,-3.92437e-12,-1.13764e-13,0,0,-3.2533,0.216537,0.259314,0,0,0,0,0,-0.0289226,0.216537,230,-60,230,-60,363,-49,232,67,-0.261799,-0.261799,0,-1.5,nan,0,0,0,-0.0176846,0.216528,0,0,0,0,-2.5118e-05,0.000187187,17290,-0.017681,0.216501,-2.5118e-05,0.000187187,13583
13747,-3.34297e-12,1.00393e-37,-1.60487e-06,-3.40794e-12,1.00384e-37,0,-1.13764e-13,0,0,-3.2533,0.216537,0.259314,0,0,0,0,0,-0.0289226,0.216537,230,-60,230,-60,363,-49,232,67,-0.261799,-0.261799,0,-1.5,nan,0,0,0,-0.0176852,0.216533,0,0,0,0,-2.5118e-05,0.000187187,17290,-0.017681,0.216501,-2.5118e-05,0.000187187,13583
13764,-3.34297e-12,1.00393e-37,-1.60487e-06,-3.40794e-12,1.00384e-37,-3.92437e-12,-1.13765e-13,0,0,-3.2533,0.216537,0.259314,0,0,0,0,0,-0.0289226,0.216537,230,-60,230,-60,363,-49,232,67,-0.261799,-0.261799,0,-1.5,nan,0,0,0,-0.0176856,0.216536,0,0,0,0,-2.5118e-05,0.000187187,17290,-0.017681,0.216501,-2.5118e-05,0.000187187,13583
13786,-3.34297e-12,1.00393e-37,-1.60487e-06,-3.40794e-12,1.00384e-37,0,-1.13765e-13,0,0,-3.2533,0.216537,0.259314,0,0,0,0,0,-0.0289226,0.216537,230,-60,230,-60,363,-49,232,67,-0.261799,-0.261799,0,-1.5,nan,0,0,0,-0.0176862,0.21654,0,0,0,0,-2.5118e-05,0.000187187,17290,-0.017681,0.216501,-2.5118e-05,0.000187187,13583
13803,-3.34297e-12,1.00393e-37,-1.60487e-06,-3.40794e-12,1.00384e-37,-3.92437e-12,-1.13766e-13,0,0,-3.2533,0.216537,0.259314,0,0,0,0,0,-0.0289226,0.216537,230,-60,230,-60,363,-49,232,67,-0.261799,-0.261799,0,-1.5,nan,0,0,0,-0.0176866,0.216543,0,0,0,0,-2.5118e-05,0.000187187,17290,-0.017681,0.216501,-2.5118e-05,0.000187187,13583
13821,-3.34297e-12,1.00393e-37,-1.60487e-06,-3.40794e-12,1.00384e-37,0,-1.13767e-13,0,0,-3.2533,0.216537,0.259314,0,0,0,0,0,-0.0289226,0.216537,230,-60,230,-60,363,-49,232,67,-0.261799,-0.261799,0,-1.5,nan,0,0,0,-0.017687,0.216546,0,0,0,0,-2.5118e-05,0.000187187,17290,-0.017681,0.216501,-2.5118e-05,0.000187187,13583
13843,-3.34297e-12,1.00393e-37,-1.60487e-06,-3.40794e-12,1.00384e-37,-3.92437e-12,-1.13767e-13,0,0,-3.2533,0.216537,0.259314,0,0,0,0,0,-0.0289226,0.216537,230,-60,230,-60,363,-49,232,67,-0.261799,-0.261799,0,-1.5,nan,0,0,0,-0.0176876,0.216551,0,0,0,0,-2.5118e-05,0.000187187,17290,-0.017681,0.216501,-2.5118e-05,0.000187187,13583
13878,-3.34297e-12,1.00393e-37,-1.60487e-06,-3.40794e-12,1.00384e-37,0,-1.13768e-13,0,0,-3.2533,0.216537,0.259314,0,0,0,0,0,-0.0289226,0.216537,230,-60,230,-60,363,-49,232,67,-0.261799,-0.261799,0,-1.5,nan,0,0,0,-0.0176885,0.216557,0,0,0,0,-2.5118e-05,0.000187187,17290,-0.017681,0.216501,-2.5118e-05,0.000187187,13583
13923,-3.34297e-12,1.00393e-37,-1.60487e-06,-3.40794e-12,1.00384e-37,-3.92437e-12,-1.13768e-13,0,0,-3.2533,0.216537,0.259314,0,0,0,0,0,-0.0289226,0.216537,230,-60,230,-60,363,-49,232,67,-0.261799,-0.261799,0,-1.5,nan,0,0,0,-0.0176896,0.216565,0,0,0,0,-2.5118e-05,0.000187187,17290,-0.017681,0.216501,-2.5118e-05,0.000187187,13583
13946,-3.34297e-12,1.00393e-37,-1.60487e-06,-3.40794e-12,1.00384e-37,0,-1.13769e-13,0,0,-3.2533,0.216537,0.259314,0,0,0,0,0,-0.0289226,0.216537,230,-60,230,-60,363,-49,232,67,-0.261799,-0.261799,0,-1.5,nan,0,0,0,-0.0176902,0.21657,0,0,0,0,-2.5118e-05,0.000187187,17290,-0.017681,0.216501,-2.5118e-05,0.000187187,13583
13992,-3.34297e-12,1.00393e-37,-1.60487e-06,-3.40794e-12,1.00384e-37,-3.92437e-12,-1.13769e-13,0,0,-3.2533,0.216537,0.259314,0,0,0,0,0,-0.0289226,0.216537,230,-60,230,-60,363,-49,232,67,-0.261799,-0.261799,0,-1.5,nan,0,0,0,-0.0176913,0.216578,0,0,0,0,-2.5118e-05,0.000187187,17290,-0.017681,0.216501,-2.5118e-05,0.000187187,13583
14013,-3.34297e-12,1.00393e-37,-1.60487e-06,-3.40794e-12,1.00384e-37,0,-1.1377e-13,0,0,-3.2533,0.216537,0.259314,0,0,0,0,0,-0.0289226,0.216537,230,-60,230,-60,363,-49,232,67,-0.261799,-0.261799,0,-1.5,nan,0,0,0,-0.0176919,0.216582,0,0,0,0,-2.5118e-05,0.000187187,17290,-0.017681,0.216501,-2.5118e-05,0.000187187,13583
14030,-3.34297e-12,1.00393e-37,-1.60487e-06,-3.40794e-12,1.00384e-37,-3.92437e-12,-1.1377e-13,0,0,-3.2533,0.216537,0.259314,0,0,0,0,0,-0.0289226,0.216537,230,-60,230,-60,363,-49,232,67,-0.261799,-0.261799,0,-1.5,nan,0,0,0,-0.0176923,0.216586,0,0,0,0,-2.5118e-05,0.000187187,17290,-0.017681,0.216501,-2.5118e-05,0.000187187,13583
14055,-3.34297e-12,1.00393e-37,-1.60487e-06,-3.40794e-12,1.00384e-37,0,-1.13771e-13,0,0,-3.2533,0.216537,0.259314,0,0,0,0,0,-0.0289226,0.216537,230,-60,230,-60,363,-49,232,67,-0.261799,-0.261799,0,-1.5,nan,0,0,0,-0.0176929,0.21659,0,0,0,0,-2.5118e-05,0.000187187,17290,-0.017681,0.216501,-2.5118e-05,0.000187187,13583
14072,-3.34297e-12,1.00393e-37,-1.60487e-06,-3.40794e-12,1.00384e-37,-3.92437e-12,-1.13771e-13,0,0,-3.2533,0.216537,0.259314,0,0,0,0,0,-0.0289226,0.216537,230,-60,230,-60,363,-49,232,67,-0.261799,-0.261799,0,-1.5,nan,0,0,0,-0.0176933,0.216593,0,0,0,0,-2.5118e-05,0.000187187,17290,-0.017681,0.216501,-2.5118e-05,0.000187187,13583
14089,-3.34297e-12,1.00393e-37,-1.60487e-06,-3.40794e-12,1.00384e-37,0,-1.13772e-13,0,0,-3.2533,0.216537,0.259314,-0.0176938,0.216597,-2.50302e-05,0.000186532,0,-0.0289226,0.216537,230,-60,230,-60,363,-49,232,67,-0.261799,-0.261799,0,-1.5,nan,0,0,0,-0.0176938,0.216597,0,0,0,0,-2.50302e-05,0.000186532,17290,0,0,0,0,13583
14113,-3.34297e-12,1.00393e-37,-1.60487e-06,-3.40794e-12,1.00384e-37,-3.92437e-12,-1.13772e-13,0,0,-3.2533,0.216537,0.259314,-0.0176944,0.216601,-2.47308e-05,0.000184301,0,-0.0289226,0.216537,230,-60,230,-60,363,-49,232,67,-0.261799,-0.261799,0,-1.5,nan,0,0,0,-0.0176944,0.216601,0,0,0,0,-2.47308e-05,0.000184301,17290,0,0,0,0,13583
14127,-3.34297e-12,1.00393e-37,-1.60487e-06,-3.40794e-12,1.00384e-37,0,-1.13773e-13,0,0,-3.2533,0.216537,0.259314,-0.0176947,0.216604,-2.45581e-05,0.000183014,0,-0.0289226,0.216537,230,-60,230,-60,363,-49,232,67,-0.261799,-0.261799,0,-1.5,nan,0,0,0,-0.0176947,0.216604,0,0,0,0,-2.45581e-05,0.000183014,17290,0,0,0,0,13583
14153,-3.34297e-12,1.00393e-37,-1.60487e-06,-3.40794e-12,1.00384e-37,-3.92437e-12,-1.13774e-13,0,0,-3.2533,0.216537,0.259314,-0.0176953,0.216608,-2.42399e-05,0.000180643,0,-0.0289226,0.216537,230,-60,230,-60,363,-49,232,67,-0.261799,-0.261799,0,-1.5,nan,0,0,0,-0.0176953,0.216608,0,0,0,0,-2.42399e-05,0.000180643,17290,0,0,0,0,13583
14174,-3.34297e-12,1.00393e-37,-1.60487e-06,-3.40794e-12,1.00384e-37,0,-1.13774e-13,0,0,-3.2533,0.216537,0.259314,-0.0176958,0.216612,-2.39982e-05,0.000178842,0,-0.0289226,0.216537,230,-60,230,-60,363,-49,232,67,-0.261799,-0.261799,0,-1.5,nan,0,0,0,-0.0176958,0.216612,0,0,0,0,-2.39982e-05,0.000178842,17290,0,0,0,0,13583
14193,-3.34297e-12,1.00393e-37,-1.60487e-06,-3.40794e-12,1.00384e-37,-3.92437e-12,-1.13775e-13,0,0,-3.2533,0.216537,0.259314,-0.0176963,0.216615,-2.37589e-05,0.000177058,0,-0.0289226,0.216537,230,-60,230,-60,363,-49,232,67,-0.261799,-0.261799,0,-1.5,nan,0,0,0,-0.0176963,0.216615,0,0,0,0,-2.37589e-05,0.000177058,17290,0,0,0,0,13583
14213,-3.34297e-12,1.00393e-37,-1.60487e-06,-3.40794e-12,1.00384e-37,0,-1.13775e-13,0,0,-3.2533,0.216537,0.259314,-0.0176968,0.216619,-2.35221e-05,0.000175294,0,-0.0289226,0.216537,230,-60,230,-60,363,-49,232,67,-0.261799,-0.261799,0,-1.5,nan,0,0,0,-0.0176968,0.216619,0,0,0,0,-2.35221e-05,0.000175294,17290,0,0,0,0,13583
14234,-3.34297e-12,1.00393e-37,-1.60487e-06,-3.40794e-12,1.00384e-37,-3.92437e-12,-1.13776e-13,0,0,-3.2533,0.216537,0.259314,-0.0176973,0.216623,-2.32759e-05,0.000173459,0,-0.0289226,0.216537,230,-60,230,-60,363,-49,232,67,-0.261799,-0.261799,0,-1.5,nan,0,0,0,-0.0176973,0.216623,0,0,0,0,-2.32759e-05,0.000173459,17290,0,0,0,0,13583
14251,-3.34297e-12,1.00393e-37,-1.60487e-06,-3.40794e-12,1.00384e-37,0,-1.13776e-13,0,0,-3.2533,0.216537,0.259314,-0.0176977,0.216626,-2.30787e-05,0.000171989,0,-0.0289226,0.216537,230,-60,230,-60,363,-49,232,67,-0.261799,-0.261799,0,-1.5,nan,0,0,0,-0.0176977,0.216626,0,0,0,0,-2.30787e-05,0.000171989,17290,0,0,0,0,13583
14267,-3.34297e-12,1.00393e-37,-1.60487e-06,-3.40794e-12,1.00384e-37,-3.92437e-12,-1.13777e-13,0,0,-3.2533,0.216537,0.259314,-0.017698,0.216628,-2.28945e-05,0.000170617,0,-0.0289226,0.216537,230,-60,230,-60,363,-49,232,67,-0.261799,-0.261799,0,-1.5,nan,0,0,0,-0.017698,0.216628,0,0,0,0,-2.28945e-05,0.000170617,17290,0,0,0,0,13583
14292,-3.34297e-12,1.00393e-37,-1.60487e-06,-3.40794e-12,1.00384e-37,0,-1.13777e-13,0,0,-3.2533,0.216537,0.259314,-0.0176986,0.216633,-2.26094e-05,0.000168492,0,-0.0289226,0.216537,230,-60,230,-60,363,-49,232,67,-0.261799,-0.261799,0,-1.5,nan,0,0,0,-0.0176986,0.216633,0,0,0,0,-2.26094e-05,0.000168492,17290,0,0,0,0,13583
14308,-3.34297e-12,1.00393e-37,-1.60487e-06,-3.40794e-12,1.00384e-37,-3.92437e-12,-1.13778e-13,0,0,-3.2533,0.216537,0.259314,-0.017699,0.216635,-2.2429e-05,0.000167147,0,-0.0289226,0.216537,230,-60,230,-60,363,-49,232,67,-0.261799,-0.261799,0,-1.5,nan,0,0,0,-0.017699,0.216635,0,0,0,0,-2.2429e-05,0.000167147,17290,0,0,0,0,13583
14343,-3.34297e-12,1.00393e-37,-1.60487e-06,-3.40794e-12,1.00384e-37,0,-1.13778e-13,0,0,-3.2533,0.216537,0.259314,-0.0176997,0.216641,-2.20378e-05,0.000164232,0,-0.0289226,0.216537,230,-60,230,-60,363,-49,232,67,-0.261799,-0.261799,0,-1.5,nan,0,0,0,-0.0176997,0.216641,0,0,0,0,-2.20378e-05,0.000164232,17290,0,0,0,0,13583
14378,-3.34297e-12,1.00393e-37,-1.60487e-06,-3.40794e-12,1.00384e-37,-3.92437e-12,-1.13779e-13,0,0,-3.2533,0.216537,0.259314,-0.0177005,0.216647,-2.16645e-05,0.00016145,0,-0.0289226,0.216537,230,-60,230,-60,363,-49,232,67,-0.261799,-0.261799,0,-1.5,nan,0,0,0,-0.0177005,0.216647,0,0,0,0,-2.16645e-05,0.00016145,17290,0,0,0,0,13583
14392,-3.34297e-12,1.00393e-37,-1.60487e-06,-3.40794e-12,1.00384e-37,0,-1.1378e-13,0,0,-3.2533,0.216537,0.259314,-0.0177008,0.216649,-2.15024e-05,0.000160242,0,-0.0289226,0.216537,230,-60,230,-60,363,-49,232,67,-0.261799,-0.261799,0,-1.5,nan,0,0,0,-0.0177008,0.216649,0,0,0,0,-2.15024e-05,0.000160242,17290,0,0,0,0,13583
14409,-3.34297e-12,1.00393e-37,-1.60487e-06,-3.40794e-12,1.00384e-37,-3.92437e-12,-1.1378e-13,0,0,-3.2533,0.216537,0.259314,-0.0177012,0.216652,-2.13202e-05,0.000158884,0,-0.0289226,0.216537,230,-60,230,-60,363,-49,232,67,-0.261799,-0.261799,0,-1.5,nan,0,0,0,-0.0177012,0.216652,0,0,0,0,-2.13202e-05,0.000158884,17290,0,0,0,0,13583
14426,-3.34297e-12,1.00393e-37,-1.60487e-06,-3.40794e-12,1.00384e-37,0,-1.13781e-13,0,0,-3.2533,0.216537,0.259314,-0.0177015,0.216654,-2.11395e-05,0.000157537,0,-0.0289226,0.216537,230,-60,230,-60,363,-49,232,67,-0.261799,-0.261799,0,-1.5,nan,0,0,0,-0.0177015,0.216654,0,0,0,0,-2.11395e-05,0.000157537,17290,0,0,0,0,13583
14446,-3.34297e-12,1.00393e-37,-1.60487e-06,-3.40794e-12,1.00384e-37,-3.92437e-12,-1.13789e-13,0,0,-3.2533,0.216537,0.259314,-0.0177019,0.216657,-2.09287e-05,0.000155967,0,-0.0289226,0.216537,230,-60,230,-60,363,-49,232,67,-0.261799,-0.261799,0,-1.5,nan,0,0,0,-0.0177019,0.216657,0,0,0,0,-2.09287e-05,0.000155967,17290,0,0,0,0,13583
14468,-3.34297e-12,1.00393e-37,-1.60487e-06,-3.40794e-12,1.00384e-37,0,-1.13789e-13,0,0,-3.2533,0.216537,0.259314,-0.0177024,0.216661,-2.07096e-05,0.000154334,0,-0.0289226,0.216537,230,-60,230,-60,363,-49,232,67,-0.261799,-0.261799,0,-1.5,nan,0,0,0,-0.0177024,0.216661,0,0,0,0,-2.07096e-05,0.000154334,17290,0,0,0,0,13583
14484,-3.34297e-12,1.00393e-37,-1.60487e-06,-3.40794e-12,1.00384e-37,-3.92437e-12,-1.1379e-13,0,0,-3.2533,0.216537,0.259314,-0.0177027,0.216663,-2.05341e-05,0.000153026,0,-0.0289226,0.216537,230,-60,230,-60,363,-49,232,67,-0.261799,-0.261799,0,-1.5,nan,0,0,0,-0.0177027,0.216663,0,0,0,0,-2.05341e-05,0.000153026,17290,0,0,0,0,13583
14503,-3.34297e-12,1.00393e-37,-1.60487e-06,-3.40794e-12,1.00384e-37,0,-1.1379e-13,0,0,-3.2533,0.216537,0.259314,-0.0177031,0.216666,-2.03396e-05,0.000151577,0,-0.0289226,0.216537,230,-60,230,-60,363,-49,232,67,-0.261799,-0.261799,0,-1.5,nan,0,0,0,-0.0177031,0.216666,0,0,0,0,-2.03396e-05,0.000151577,17290,0,0,0,0,13583
14548,-3.34297e-12,1.00393e-37,-1.60487e-06,-3.40794e-12,1.00384e-37,-3.92437e-12,-1.13791e-13,0,0,-3.2533,0.216537,0.259314,-0.017704,0.216673,-1.98836e-05,0.000148178,0,-0.0289226,0.216537,230,-60,230,-60,363,-49,232,67,-0.261799,-0.261799,0,-1.5,nan,0,0,0,-0.017704,0.216673,0,0,0,0,-1.98836e-05,0.000148178,17290,0,0,0,0,13583
14568,-3.34297e-12,1.00393e-37,-1.60487e-06,-3.40794e-12,1.00384e-37,0,-1.13791e-13,0,0,-3.2533,0.216537,0.259314,-0.0177044,0.216676,-1.96853e-05,0.000146701,0,-0.0289226,0.216537,230,-60,230,-60,363,-49,232,67,-0.261799,-0.261799,0,-1.5,nan,0,0,0,-0.0177044,0.216676,0,0,0,0,-1.96853e-05,0.000146701,17290,0,0,0,0,13583
14593,-3.34297e-12,1.00393e-37,-1.60487e-06,-3.40794e-12,1.00384e-37,-3.92437e-12,-1.13792e-13,0,0,-3.2533,0.216537,0.259314,-0.0177049,0.216679,-1.944e-05,0.000144873,0,-0.0289226,0.216537,230,-60,230,-60,363,-49,232,67,-0.261799,-0.261799,0,-1.5,nan,0,0,0,-0.0177049,0.216679,0,0,0,0,-1.944e-05,0.000144873,17290,0,0,0,0,13583
14613,-3.34297e-12,1.00393e-37,-1.60487e-06,-3.40794e-12,1.00384e-37,0,-1.13792e-13,0,0,-3.2533,0.216537,0.259314,-0.0177053,0.216682,-1.92462e-05,0.000143429,0,-0.0289226,0.216537,230,-60,230,-60,363,-49,232,67,-0.261799,-0.261799,0,-1.5,nan,0,0,0,-0.0177053,0.216682,0,0,0,0,-1.92462e-05,0.000143429,17290,0,0,0,0,13583
14633,-3.34297e-12,1.00393e-37,-1.60487e-06,-3.40794e-12,1.00384e-37,-3.92437e-12,-1.13793e-13,0,0,-3.2533,0.216537,0.259314,-0.0177057,0.216685,-1.90543e-05,0.000141999,0,-0.0289226,0.216537,230,-60,230,-60,363,-49,232,67,-0.261799,-0.261799,0,-1.5,nan,0,0,0,-0.0177057,0.216685,0,0,0,0,-1.90543e-05,0.000141999,17290,0,0,0,0,13583
14658,-3.34297e-12,1.00393e-37,-1.60487e-06,-3.40794e-12,1.00384e-37,0,-1.13793e-13,0,0,-3.2533,0.216537,0.259314,-0.0177061,0.216689,-1.88169e-05,0.000140229,0,-0.0289226,0.216537,230,-60,230,-60,363,-49,232,67,-0.261799,-0.261799,0,-1.5,nan,0,0,0,-0.0177061,0.216689,0,0,0,0,-1.88169e-05,0.000140229,17290,0,0,0,0,13583
14672,-3.34297e-12,1.00393e-37,-1.60487e-06,-3.40794e-12,1.00384e-37,-3.92437e-12,-1.13794e-13,0,0,-3.2533,0.216537,0.259314,-0.0177064,0.216691,-1.86855e-05,0.00013925,0,-0.0289226,0.216537,230,-60,230,-60,363,-49,232,67,-0.261799,-0.261799,0,-1.5,nan,0,0,0,-0.0177064,0.216691,0,0,0,0,-1.86855e-05,0.00013925,17290,0,0,0,0,13583
14706,-3.34297e-12,1.00393e-37,-1.60487e-06,-3.40794e-12,1.00384e-37,0,-1.13794e-13,0,0,-3.2533,0.216537,0.259314,-0.017707,0.216695,-1.8369e-05,0.000136891,0,-0.0289226,0.216537,230,-60,230,-60,363,-49,232,67,-0.261799,-0.261799,0,-1.5,nan,0,0,0,-0.017707,0.216695,0,0,0,0,-1.8369e-05,0.000136891,17290,0,0,0,0,13583
14728,-3.34297e-12,1.00393e-37,-1.60487e-06,-3.40794e-12,1.00384e-37,-3.92437e-12,-1.13795e-13,0,0,-3.2533,0.216537,0.259314,-0.0177074,0.216698,-1.81676e-05,0.00013539,0,-0.0289226,0.216537,230,-60,230,-60,363,-49,232,67,-0.261799,-0.261799,0,-1.5,nan,0,0,0,-0.0177074,0.216698,0,0,0,0,-1.81676e-05,0.00013539,17290,0,0,0,0,13583
14757,-3.34297e-12,1.00393e-37,-1.60487e-06,-3.40794e-12,1.00384e-37,0,-1.13796e-13,0,0,-3.2533,0.216537,0.259314,-0.0177079,0.216702,-1.79051e-05,0.000133434,0,-0.0289226,0.216537,230,-60,230,-60,363,-49,232,67,-0.261799,-0.261799,0,-1.5,nan,0,0,0,-0.0177079,0.216702,0,0,0,0,-1.79051e-05,0.000133434,17290,0,0,0,0,13583
14783,-3.34297e-12,1.00393e-37,-1.60487e-06,-3.40794e-12,1.00384e-37,-3.92437e-12,-1.13796e-13,0,0,-3.2533,0.216537,0.259314,-0.0177084,0.216706,-1.76731e-05,0.000131705,0,-0.0289226,0.216537,230,-60,230,-60,363,-49,232,67,-0.261799,-0.261799,0,-1.5,nan,0,0,0,-0.0177084,0.216706,0,0,0,0,-1.76731e-05,0.000131705,17290,0,0,0,0,13583
14816,-3.34297e-12,1.00393e-37,-1.60487e-06,-3.40794e-12,1.00384e-37,0,-1.13797e-13,0,0,-3.16184,0.208331,0.203721,-0.017709,0.21671,-1.73826e-05,0.00012954,0,0.0796008,0.208331,226,-62,226,-62,363,-49,232,70,-0.261799,-0.261799,0,-1.5,nan,0,0,0,-0.017709,0.21671,0,0,0,0,-1.73826e-05,0.00012954,18084,0,0,0,0,14816
14833,-3.34297e-12,1.00393e-37,-1.60487e-06,-3.40794e-12,1.00384e-37,-3.92437e-12,-1.13797e-13,0,0,-3.16184,0.208331,0.203721,-0.0177093,0.216712,-1.72352e-05,0.000128442,0,0.0796008,0.208331,226,-62,226,-62,363,-49,232,70,-0.261799,-0.261799,0,-1.5,nan,0,0,0,-0.0177093,0.216712,0,0,0,0,-1.72352e-05,0.000128442,18084,0,0,0,0,14816
14858,-3.34297e-12,1.00393e-37,-1.60487e-06,-3.40794e-12,1.00384e-37,0,-1.13798e-13,0,0,-3.1758,0.213551,0.211793,-0.0177097,0.216715,-1.70205e-05,0.000126842,0,0.063077,0.213551,226,-62,226,-62,361,-49,232,70,-0.261799,-0.261799,0,-1.5,nan,0,0,0,-0.0177097,0.216715,0,0,0,0,-1.70205e-05,0.000126842,18084,0,0,0,0,14850
14883,-3.34297e-12,1.00393e-37,-1.60487e-06,-3.40794e-12,1.00384e-37,-3.92437e-12,-1.13798e-13,0,0,-3.16184,0.208331,0.203721,-0.0177101,0.216718,-1.68084e-05,0.000125261,0,0.0796008,0.208331,226,-62,226,-62,363,-49,232,70,-0.261799,-0.261799,0,-1.5,nan,0,0,0,-0.0177101,0.216718,0,0,0,0,-1.68084e-05,0.000125261,18084,0,0,0,0,14881
14903,-3.34297e-12,1.00393e-37,-1.60487e-06,-3.40794e-12,1.00384e-37,0,-1.13799e-13,0,0,-3.16184,0.208331,0.203721,-0.0177105,0.216721,-1.66408e-05,0.000124012,0,0.0796008,0.208331,226,-62,226,-62,363,-49,232,70,-0.261799,-0.261799,0,-1.5,nan,0,0,0,-0.0177105,0.216721,0,0,0,0,-1.66408e-05,0.000124012,18084,0,0,0,0,14881
14955,-3.34297e-12,1.00393e-37,-1.60487e-06,-3.40794e-12,1.00384e-37,-3.92437e-12,-1.13799e-13,0,0,-3.1758,0.213551,0.211793,-0.0177113,0.216727,-1.62099e-05,0.000120801,0,0.063077,0.213551,226,-62,226,-62,361,-49,232,70,-0.261799,-0.261799,0,-1.5,nan,0,0,0,-0.0177113,0.216727,0,0,0,0,-1.62099e-05,0.000120801,18084,0,0,0,0,14953
14973,-3.34297e-12,1.00393e-37,-1.60487e-06,-3.40794e-12,1.00384e-37,0,-1.138e-13,0,0,-3.1758,0.213551,0.211793,-0.0177116,0.216729,-1.60644e-05,0.000119717,0,0.063077,0.213551,226,-62,226,-62,361,-49,232,70,-0.261799,-0.261799,0,-1.5,nan,0,0,0,-0.0177116,0.216729,0,0,0,0,-1.60644e-05,0.000119717,18084,0,0,0,0,14953
14987,-3.34297e-12,1.00393e-37,-1.60487e-06,-3.40794e-12,1.00384e-37,-3.92437e-12,-1.138e-13,0,0,-3.1758,0.213551,0.211793,-0.0177118,0.216731,-1.59523e-05,0.000118881,0,0.063077,0.213551,226,-62,226,-62,361,-49,232,70,-0.261799,-0.261799,0,-1.5,nan,0,0,0,-0.0177118,0.216731,0,0,0,0,-1.59523e-05,0.000118881,18084,0,0,0,0,14981
15005,-3.34297e-12,1.00393e-37,-1.60487e-06,-3.40794e-12,1.00384e-37,0,-1.13801e-13,0,0,-3.1758,0.213551,0.211793,-0.0177121,0.216733,-1.58091e-05,0.000117814,0,0.063077,0.213551,226,-62,226,-62,361,-49,232,70,-0.261799,-0.261799,0,-1.5,nan,0,0,0,-0.0177121,0.216733,0,0,0,0,-1.58091e-05,0.000117814,18084,0,0,0,0,14981
15026,-3.34297e-12,1.00393e-37,-1.60487e-06,-3.40794e-12,1.00384e-37,-3.92437e-12,-1.13802e-13,0,0,-3.1758,0.213551,0.211793,-0.0177124,0.216736,-1.56437e-05,0.000116582,0,0.063077,0.213551,226,-62,226,-62,361,-49,232,70,-0.261799,-0.261799,0,-1.5,nan,0,0,0,0.063077,0.213551,0,0,0,0,5.1186e-07,-3.99799e-06,18084,0.0807892,-0.0031835,1.61556e-05,-0.00012058,15017
15179,-3.34297e-12,1.00393e-37,-1.60487e-06,-3.40794e-12,1.00384e-37,0,-1.13802e-13,0,0,-3.20622,0.224128,0.229146,-0.0177147,0.216752,-1.44677e-05,0.000107817,0,0.0270162,0.224128,226,-62,226,-62,361,-49,232,70,-0.261799,-0.261799,0,-1.5,nan,0,0,0,0.0630772,0.213549,0,0,0,0,1.56102e-06,-1.20578e-05,17820,0.0807897,-0.00318702,1.60287e-05,-0.000119875,15047
15207,-3.34297e-12,1.00393e-37,-1.60487e-06,-3.40794e-12,1.00384e-37,-3.92437e-12,-1.13807e-13,0,0,-3.1758,0.213551,0.211793,-0.017715,0.216755,-1.42658e-05,0.000106313,0,0.063077,0.213551,226,-62,226,-62,361,-49,232,70,-0.261799,-0.261799,0,-1.5,nan,0,0,0,0.063077,0.213551,0,0,0,0,9.08495e-07,-6.89488e-06,18084,0.0807917,-0.00320137,1.51743e-05,-0.000113208,15195
15247,-3.34297e-12,1.00393e-37,-1.60487e-06,-3.40794e-12,1.00384e-37,0,-1.13803e-13,0,0,-3.1758,0.213551,0.211793,-0.0177156,0.216759,-1.39745e-05,0.000104142,0,0.063077,0.213551,226,-62,226,-62,361,-49,232,70,-0.261799,-0.261799,0,-1.5,nan,0,0,0,0.0630771,0.21355,0,0,0,0,1.19981e-06,-9.06586e-06,18084,0.0807917,-0.00320137,1.51743e-05,-0.000113208,15195
15268,-3.34297e-12,1.00393e-37,-1.60487e-06,-3.40794e-12,1.00384e-37,-3.92437e-12,-1.13808e-13,0,0,-3.16184,0.208331,0.203721,-0.0177159,0.216762,-1.38351e-05,0.000103104,0,0.0796008,0.208331,226,-62,226,-62,363,-49,232,70,-0.261799,-0.261799,0,-1.5,nan,0,0,0,0.0630774,0.213548,0,0,0,0,2.20388e-06,-1.68822e-05,18084,0.0807929,-0.00321128,1.6039e-05,-0.000119986,15256
15324,-3.34297e-12,1.00393e-37,-1.60487e-06,-3.40794e-12,1.00384e-37,0,-1.13803e-13,0,0,-3.16184,0.208331,0.203721,-0.0177167,0.216767,-1.34424e-05,0.000100177,0,0.0796008,0.208331,226,-62,226,-62,363,-49,232,70,-0.261799,-0.261799,0,-1.5,nan,0,0,0,0.0630777,0.213545,0,0,0,0,2.99677e-06,-2.30674e-05,18084,0.0807934,-0.00321473,1.64392e-05,-0.000123244,15312
15343,-3.34297e-12,1.00393e-37,-1.60487e-06,-3.40794e-12,1.00384e-37,-3.92437e-12,-1.13808e-13,0,0,-3.16184,0.208331,0.203721,-0.0177169,0.216769,-1.33151e-05,9.92282e-05,0,0.0796008,0.208331,226,-62,226,-62,363,-49,232,70,-0.261799,-0.261799,0,-1.5,nan,0,0,0,0.0630777,0.213545,0,0,0,0,3.1241e-06,-2.40162e-05,18084,0.0807934,-0.00321473,1.64392e-05,-0.000123244,15312
15367,-3.34297e-12,1.00393e-37,-1.60487e-06,-3.40794e-12,1.00384e-37,0,-1.13804e-13,0,0,-3.1758,0.213551,0.211793,-0.0177172,0.216771,-1.31559e-05,9.80415e-05,0,0.063077,0.213551,226,-62,226,-62,361,-49,232,70,-0.261799,-0.261799,0,-1.5,nan,0,0,0,0.0630776,0.213546,0,0,0,0,2.86257e-06,-2.18772e-05,18084,0.0807945,-0.00322279,1.60185e-05,-0.000119919,15355
15391,-3.34297e-12,1.00393e-37,-1.60487e-06,-3.40794e-12,1.00384e-37,-3.92437e-12,-1.13805e-13,0,0,-3.1758,0.213551,0.211793,-0.0177175,0.216774,-1.29986e-05,9.68697e-05,0,0.063077,0.213551,226,-62,226,-62,361,-49,232,70,-0.261799,-0.261799,0,-1.5,nan,0,0,0,0.0630773,0.213548,0,0,0,0,2.1551e-06,-1.61713e-05,18084,0.0807947,-0.00322432,1.51537e-05,-0.000113041,15383
15412,-3.34297e-12,1.00393e-37,-1.60487e-06,-3.40794e-12,1.00384e-37,0,-1.13804e-13,0,0,-3.1758,0.213551,0.211793,-0.0177178,0.216776,-1.28626e-05,9.58557e-05,0,0.063077,0.213551,226,-62,226,-62,361,-49,232,70,-0.261799,-0.261799,0,-1.5,nan,0,0,0,0.0630774,0.213548,0,0,0,0,2.29117e-06,-1.71853e-05,18084,0.0807947,-0.00322432,1.51537e-05,-0.000113041,15383
15439,-3.34297e-12,1.00393e-37,-1.60487e-06,-3.40794e-12,1.00384e-37,-3.92437e-12,-1.13806e-13,0,0,-3.12445,0.214401,0.205796,-0.0177182,0.216778,-1.26895e-05,9.45662e-05,0,0.123769,0.214401,226,-62,226,-62,360,-61,232,70,-0.261799,-0.261799,0,-1.5,nan,0,0,0,0.0630773,0.21355,0,0,0,0,2.2519e-06,-1.34937e-05,18084,0.080795,-0.00322582,1.49414e-05,-0.00010806,15426
15467,-3.34297e-12,1.00393e-37,-1.60487e-06,-3.40794e-12,1.00384e-37,0,-1.13809e-13,0,0,-3.16184,0.208331,0.203721,-0.0177185,0.216781,-1.25125e-05,9.3247e-05,0,0.0796008,0.208331,226,-62,226,-62,363,-49,232,70,-0.261799,-0.261799,0,-1.5,nan,0,0,0,0.0778936,0.213549,0,0,0,0,0.0284701,-1.61355e-05,18084,0.0948146,-0.00322916,0.0284826,-0.000109383,15455
15493,-3.34297e-12,1.00393e-37,-1.60487e-06,-3.40794e-12,1.00384e-37,-3.92437e-12,-1.13814e-13,0,0,-3.1758,0.213551,0.211793,-0.0177188,0.216783,-1.23506e-05,9.20401e-05,0,0.063077,0.213551,226,-62,226,-62,361,-49,232,70,-0.261799,-0.261799,0,-1.5,nan,0,0,0,0.0630774,0.213304,0,0,0,0,2.55038e-06,-0.000671762,18084,0.0807961,-0.00346985,1.49009e-05,-0.000763802,15482
15513,-3.34297e-12,1.00393e-37,-1.60487e-06,-3.40794e-12,1.00384e-37,0,-1.13806e-13,0,0,-3.1758,0.213551,0.211793,-0.0177191,0.216785,-1.22274e-05,9.11225e-05,0,0.063077,0.213551,226,-62,226,-62,361,-49,232,70,-0.261799,-0.261799,0,-1.5,nan,0,0,0,0.0630775,0.21329,0,0,0,0,2.67351e-06,-0.00067268,18084,0.0807961,-0.00346985,1.49009e-05,-0.000763802,15482
15555,-3.34297e-12,1.00393e-37,-1.60487e-06,-3.40794e-12,1.00384e-37,-3.92437e-12,-1.13815e-13,0,0,-3.24407,0.217801,0.23063,-0.0177196,0.216789,-1.1972e-05,8.92188e-05,0,-0.0179462,0.217801,230,-40,230,-40,360,-61,232,70,-0.261799,-0.261799,0,-1.5,nan,0,0,0,0.0630774,0.213548,0,0,0,0,2.72315e-06,-1.88298e-05,17423,0.0807969,-0.00323972,1.46951e-05,-0.000108049,15549
15583,-3.34297e-12,1.00393e-37,-1.60487e-06,-3.40794e-12,1.00384e-37,0,-1.13814e-13,0,0,-3.24407,0.217801,0.23063,-0.0177199,0.216792,-1.18049e-05,8.79738e-05,0,-0.0179462,0.217801,230,-40,230,-40,360,-61,232,70,-0.261799,-0.261799,0,-1.5,nan,0,0,0,0.0630775,0.213548,0,0,0,0,2.89021e-06,-2.00748e-05,17423,0.0807969,-0.00323972,1.46951e-05,-0.000108049,15549
15608,-3.34297e-12,1.00393e-37,-1.60487e-06,-3.40794e-12,1.00384e-37,-3.92437e-12,-1.13817e-13,0,0,-3.24407,0.217801,0.23063,-0.0177202,0.216794,-1.16579e-05,8.6878e-05,0,-0.0179462,0.217801,230,-40,230,-40,360,-61,232,70,-0.261799,-0.261799,0,-1.5,nan,0,0,0,0.0639967,0.213547,0,0,0,0,0.00269221,-2.08769e-05,17423,0.0816493,-0.00324359,0.00270387,-0.000107755,15595
15629,-3.34297e-12,1.00393e-37,-1.60487e-06,-3.40794e-12,1.00384e-37,0,-1.13818e-13,0,0,-3.24407,0.217801,0.23063,-0.0177205,0.216796,-1.15359e-05,8.59691e-05,0,-0.0179462,0.217801,230,-40,230,-40,360,-61,232,70,-0.261799,-0.261799,0,-1.5,nan,0,0,0,0.0553322,0.213955,0,0,0,0,-0.0105376,0.000582897,17423,0.0731789,-0.00284638,-0.010526,0.000496928,15619
15658,-3.34297e-12,1.00393e-37,-1.60487e-06,-3.40794e-12,1.00384e-37,-3.92437e-12,-1.1381e-13,0,0,-3.24407,0.217801,0.23063,-0.0177208,0.216798,-1.13694e-05,8.47283e-05,0,-0.0179462,0.217801,230,-40,230,-40,360,-61,232,70,-0.261799,-0.261799,0,-1.5,nan,0,0,0,0.0506564,0.215571,0,0,0,0,-0.0184529,0.0029899,17423,0.06858,-0.00125909,-0.0184415,0.00290517,15649
15691,-3.34297e-12,1.00393e-37,-1.60487e-06,-3.40794e-12,1.00384e-37,0,-1.13811e-13,0,0,-3.2309,0.217293,0.22704,-0.0177212,0.216801,-1.11827e-05,8.33369e-05,0,-0.00228262,0.217293,230,-40,230,-40,360,-63,232,70,-0.261799,-0.261799,0,-1.5,nan,0,0,0,-0.00273162,0.217436,0,0,0,0,-0.0975231,0.00549006,17689,0.0158671,0.00058653,-0.0975119,0.00540673,15685
15713,-3.34297e-12,1.00393e-37,-1.60487e-06,-3.40794e-12,1.00384e-37,-3.92437e-12,-1.13809e-13,0,0,-3.2309,0.217293,0.22704,-0.0177214,0.216803,-1.10601e-05,8.2423e-05,0,-0.00228262,0.217293,230,-40,230,-40,360,-63,232,70,-0.261799,-0.261799,0,-1.5,nan,0,0,0,-0.00487707,0.217557,0,0,0,0,-0.097523,0.00548915,17689,0.0158671,0.00058653,-0.0975119,0.00540673,15685
15756,-3.34297e-12,1.00393e-37,-1.60487e-06,-3.40794e-12,1.00384e-37,0,-1.13816e-13,0,0,-3.13725,0.2153,0.213319,-0.0177219,0.216806,-1.08235e-05,8.06601e-05,0,0.108665,0.2153,227,-62,227,-62,359,-61,232,70,-0.261799,-0.261799,0,-1.5,nan,0,0,0,-0.0108697,0.215495,0,0,0,0,-0.0998608,0.00251122,17952,0.00775078,-0.0013326,-0.09985,0.00243056,15750
15774,-3.34297e-12,1.00393e-37,-1.60487e-06,-3.40794e-12,1.00384e-37,-3.92437e-12,-1.13816e-13,0,0,-3.13725,0.2153,0.213319,-0.0177221,0.216808,-1.07264e-05,7.99362e-05,0,0.108665,0.2153,227,-62,227,-62,359,-61,232,70,-0.261799,-0.261799,0,-1.5,nan,0,0,0,-0.0126672,0.215541,0,0,0,0,-0.0998607,0.00251049,17952,0.00775078,-0.0013326,-0.09985,0.00243056,15750
15801,-3.34297e-12,1.00393e-37,-1.60487e-06,-3.40794e-12,1.00384e-37,0,-1.13811e-13,0,0,-3.25156,0.216104,0.234941,-0.0177224,0.21681,-1.05821e-05,7.88606e-05,0,-0.0268521,0.216104,231,-40,231,-40,360,-61,232,70,-0.261799,-0.261799,0,-1.5,nan,0,0,0,-0.0271139,0.215356,0,0,0,0,-0.114088,0.00217586,17292,-0.00631149,-0.00151006,-0.114078,0.002097,15788
15828,-3.34297e-12,1.00393e-37,-1.60487e-06,-3.40794e-12,1.00384e-37,-3.92437e-12,-1.13819e-13,0,0,-3.25156,0.216104,0.234941,-0.0177226,0.216812,-1.04397e-05,7.77998e-05,0,-0.0268521,0.216104,231,-40,231,-40,360,-61,232,70,-0.261799,-0.261799,0,-1.5,nan,0,0,0,-0.0296613,0.216128,0,0,0,0,-0.110213,0.00300942,17292,-0.0089633,-0.000762874,-0.110203,0.00293162,15815
15858,-3.34297e-12,1.00393e-37,-1.60487e-06,-3.40794e-12,1.00384e-37,0,-1.1382e-13,0,0,-3.25156,0.216104,0.234941,-0.0177229,0.216814,-1.02838e-05,7.66381e-05,0,-0.0268521,0.216104,231,-40,231,-40,360,-61,232,70,-0.261799,-0.261799,0,-1.5,nan,0,0,0,-0.0309,0.216159,0,0,0,0,-0.111377,0.0030991,17292,-0.0119521,-0.00068823,-0.111366,0.00302246,15849
15888,-3.34297e-12,1.00393e-37,-1.60487e-06,-3.40794e-12,1.00384e-37,-3.92437e-12,-1.1382e-13,0,0,-3.11184,0.209358,0.198414,-0.0177232,0.216816,-1.01303e-05,7.54938e-05,0,0.138643,0.209358,226,-62,226,-62,362,-61,232,70,-0.261799,-0.261799,0,-1.5,nan,0,0,0,-0.0307377,0.216347,0,0,0,0,-0.106663,0.00317174,18084,-0.0120546,-0.000497171,-0.106653,0.00309624,15881
