timestamp,A_x,A_y,A_z,P,Q,R,Phi,Theta,Psi,poseX,poseY,poseZ,state_X,state_Y,state_Z,state_VzB,state_Bx,state_By,state_Bz,p1_x,p1_y,p2_x,p2_y,p3_x,p3_y,p4_x,p4_y,roll,pitch,yaw,alt,targetHeading,highLevelState,lowLevelState,gateNumber,filtered_x,filtered_y,x_OT,y_OT,vx_OT,vy_OT
10,0,0,0,0,0,0,0,0,0,0,0,0,0,0,0,0,0,0,0,0,0,0,0,0,0,0,0,0,-0.261799,0.00623302,-1.5,3.94113e+12,0,0,3,0,0,0,0,0,0
20,-3.34124e-12,8.11e-38,-1.60255e-06,-3.40794e-12,8.10953e-38,0,-1.13703e-13,0,0,0,0,0,0,0,0,0,0,0,0,0,0,0,0,0,0,0,0,0,-0.261799,0.000803785,-1.5,3.94113e+12,0,0,3,0,0,0,0,0,0
30,-3.34124e-12,8.11e-38,-1.60255e-06,-3.40794e-12,8.10953e-38,-3.92437e-12,-1.13703e-13,0,0,0,0,0,0,0,0,0,0,0,0,0,0,0,0,0,0,0,0,0,-0.261799,0.00077994,-1.5,3.94113e+12,0,0,3,0,0,0,0,0,0
40,-3.34124e-12,8.11e-38,-1.60255e-06,-3.40794e-12,8.10953e-38,0,-1.13704e-13,0,0,0,0,0,0,0,0,0,0,0,0,0,0,0,0,0,0,0,0,0,-0.261799,0.000600213,-1.5,3.94113e+12,0,0,3,0,0,0,0,0,0
50,-3.34124e-12,8.11e-38,-1.60255e-06,-3.40794e-12,8.10953e-38,-3.92437e-12,-1.13704e-13,0,0,0,0,0,0,0,0,0,0,0,0,0,0,0,0,0,0,0,0,0,-0.261799,0.00057531,-1.5,3.94113e+12,0,0,3,0,0,0,0,0,0
60,-3.34124e-12,8.11e-38,-1.60255e-06,-3.40794e-12,8.10953e-38,0,-1.13705e-13,0,0,0,0,0,0,0,0,0,0,0,0,0,0,0,0,0,0,0,0,0,-0.261799,0.000472177,-1.5,3.94113e+12,0,0,3,0,0,0,0,0,0
70,-3.34124e-12,8.11e-38,-1.60255e-06,-3.40794e-12,8.10953e-38,-3.92437e-12,-1.13705e-13,0,0,0,0,0,0,0,0,0,0,0,0,0,0,0,0,0,0,0,0,0,-0.261799,0.000452586,-1.5,3.94113e+12,0,0,3,0,0,0,0,0,0
80,-3.34124e-12,8.11e-38,-1.60255e-06,-3.40794e-12,8.10953e-38,0,-1.13706e-13,0,0,0,0,0,0,0,0,0,0,0,0,0,0,0,0,0,0,0,0,0,-0.261799,0.000432027,-1.5,3.94113e+12,0,0,3,0,0,0,0,0,0
90,-3.34124e-12,8.11e-38,-1.60255e-06,-3.40794e-12,8.10953e-38,-3.92437e-12,-1.13706e-13,0,0,0,0,0,0,0,0,0,0,0,0,0,0,0,0,0,0,0,0,0,-0.261799,0.000362233,-1.5,3.94113e+12,0,0,3,0,0,0,0,0,0
100,-3.34124e-12,8.11e-38,-1.60255e-06,-3.40794e-12,8.10953e-38,0,-1.13707e-13,0,0,0,0,0,0,0,0,0,0,0,0,0,0,0,0,0,0,0,0,0,-0.261799,0.000346506,-1.5,3.94113e+12,0,0,3,0,0,0,0,0,0
110,-3.34124e-12,8.11e-38,-1.60255e-06,-3.40794e-12,8.10953e-38,-3.92437e-12,-1.13708e-13,0,0,0,0,0,0,0,0,0,0,0,0,0,0,0,0,0,0,0,0,0,-0.261799,0.000332129,-1.5,3.94113e+12,0,0,3,0,0,0,0,0,0
120,-3.34124e-12,8.11e-38,-1.60255e-06,-3.40794e-12,8.10953e-38,0,-1.13708e-13,0,0,0,0,0,0,0,0,0,0,0,0,0,0,0,0,0,0,0,0,0,-0.261799,0.000284357,-1.5,3.94113e+12,0,0,3,0,0,0,0,0,0
130,-3.34124e-12,8.11e-38,-1.60255e-06,-3.40794e-12,8.10953e-38,-3.92437e-12,-1.13709e-13,0,0,0,0,0,0,0,0,0,0,0,0,0,0,0,0,0,0,0,0,0,-0.261799,0.000272011,-1.5,3.94113e+12,0,0,3,0,0,0,0,0,0
140,-3.34124e-12,8.11e-38,-1.60255e-06,-3.40794e-12,8.10953e-38,0,-1.13709e-13,0,0,0,0,0,0,0,0,0,0,0,0,0,0,0,0,0,0,0,0,0,-0.261799,0.000240967,-1.5,3.94113e+12,0,0,3,0,0,0,0,0,0
150,-3.34124e-12,8.11e-38,-1.60255e-06,-3.40794e-12,8.10953e-38,-3.92437e-12,-1.1371e-13,0,0,0,0,0,0,0,0,0,0,0,0,0,0,0,0,0,0,0,0,0,-0.261799,0.000230969,-1.5,3.94113e+12,0,0,3,0,0,0,0,0,0
160,-3.34124e-12,8.11e-38,-1.60255e-06,-3.40794e-12,8.10953e-38,0,-1.1371e-13,0,0,0,0,0,0,0,0,0,0,0,0,0,0,0,0,0,0,0,0,0,-0.261799,0.000220942,-1.5,3.94113e+12,0,0,3,0,0,0,0,0,0
170,-3.34124e-12,8.11e-38,-1.60255e-06,-3.40794e-12,8.10953e-38,-3.92437e-12,-1.13711e-13,0,0,0,0,0,0,0,0,0,0,0,0,0,0,0,0,0,0,0,0,0,-0.261799,0.000211775,-1.5,3.94113e+12,0,0,3,0,0,0,0,0,0
180,-3.34124e-12,8.11e-38,-1.60255e-06,-3.40794e-12,8.10953e-38,0,-1.13711e-13,0,0,0,0,0,0,0,0,0,0,0,0,0,0,0,0,0,0,0,0,0,-0.261799,0.000202996,-1.5,3.94113e+12,0,0,3,0,0,0,0,0,0
190,-3.34124e-12,8.11e-38,-1.60255e-06,-3.40794e-12,8.10953e-38,-3.92437e-12,-1.13712e-13,0,0,-2.88856,-0.00503515,0.133966,0,0,0,0,0,0.158215,-0.00503515,-1367293584,243853269,-1367293584,243853269,254855241,-1367293584,-1367293536,-1367293536,0,-0.261799,0.000191392,-1.5,3.94113e+12,0,0,3,0,0,0,0,0,0
200,-3.34124e-12,8.11e-38,-1.60255e-06,-3.40794e-12,8.10953e-38,0,-1.13712e-13,0,0,-2.8719,0.00118675,0.123788,0,0,0,0,0,0.18037,0.00118675,-1367293584,243853269,-1367293584,243853269,254855241,-1367293584,-1367293536,-1367293536,0,-0.261799,0.000183459,-1.5,3.94113e+12,0,0,3,0,0,0,0,0,0
210,-3.34124e-12,8.11e-38,-1.60255e-06,-3.40794e-12,8.10953e-38,-3.92437e-12,-1.13713e-13,0,0,-2.8719,0.00118675,0.123788,0,0,0,0,0,0.18037,0.00118675,-1367293584,243853269,-1367293584,243853269,254855241,-1367293584,-1367293536,-1367293536,0,-0.261799,0.000175854,-1.5,3.94113e+12,0,0,3,0,0,0,0,0,0
220,-3.34124e-12,8.11e-38,-1.60255e-06,-3.40794e-12,8.10953e-38,0,-1.13714e-13,0,0,-2.8719,0.00118675,0.123788,0,0,0,0,0,0.18037,0.00118675,-1367293584,243853269,-1367293584,243853269,254855241,-1367293584,-1367293536,-1367293536,0,-0.261799,0.000169596,-1.5,3.94113e+12,0,0,3,0,0,0,0,0,0
230,-3.34124e-12,8.11e-38,-1.60255e-06,-3.40794e-12,8.10953e-38,-3.92437e-12,-1.13714e-13,0,0,-2.8719,0.00118675,0.123788,0,0,0,0,0,0.18037,0.00118675,-1367293584,243853269,-1367293584,243853269,254855241,-1367293584,-1367293536,-1367293536,0,-0.261799,0.000162893,-1.5,3.94113e+12,0,0,3,0,0,0,0,0,0
240,-3.34124e-12,8.11e-38,-1.60255e-06,-3.40794e-12,8.10953e-38,0,-1.13715e-13,0,0,-2.8719,0.00118675,0.123788,0,0,0,0,0,0.18037,0.00118675,-1367293584,243853269,-1367293584,243853269,254855241,-1367293584,-1367293536,-1367293536,0,-0.261799,0.000155814,-1.5,3.94113e+12,0,0,3,0,0,0,0,0,0
250,-3.34124e-12,8.11e-38,-1.60255e-06,-3.40794e-12,8.10953e-38,-3.92437e-12,-1.13715e-13,0,0,-2.8719,0.00118675,0.123788,0,0,0,0,0,0.18037,0.00118675,-1367293584,243853269,-1367293584,243853269,254855241,-1367293584,-1367293536,-1367293536,0,-0.261799,0.000149355,-1.5,3.94113e+12,0,0,3,0,0,0,0,0,0
260,-3.34124e-12,8.11e-38,-1.60255e-06,-3.40794e-12,8.10953e-38,0,-1.13716e-13,0,0,-2.8719,0.00118675,0.123788,0,0,0,0,0,0.18037,0.00118675,-1367293584,243853269,-1367293584,243853269,254855241,-1367293584,-1367293536,-1367293536,0,-0.261799,0.000142865,-1.5,3.94113e+12,0,0,3,0,0,0,0,0,0
270,-3.34124e-12,8.11e-38,-1.60255e-06,-3.40794e-12,8.10953e-38,-3.92437e-12,-1.13716e-13,0,0,-2.8719,0.00118675,0.123788,0,0,0,0,0,0.18037,0.00118675,-1367293584,243853269,-1367293584,243853269,254855241,-1367293584,-1367293536,-1367293536,0,-0.261799,0.000137218,-1.5,3.94113e+12,0,0,3,0,0,0,0,0,0
280,-3.34124e-12,8.11e-38,-1.60255e-06,-3.40794e-12,8.10953e-38,0,-1.13717e-13,0,0,-2.66259,0.00317722,0.0768271,0,0,0,0,0,0.45875,0.00317722,-1367293584,243853269,-1367293584,243853269,254855241,-1367293584,-1367293536,-1367293536,0,-0.261799,0.000130985,-1.5,3.94113e+12,0,0,3,0,0,0,0,0,0
290,-3.34124e-12,8.11e-38,-1.60255e-06,-3.40794e-12,8.10953e-38,-3.92437e-12,-1.13717e-13,0,0,-2.66259,0.00317722,0.0768271,0,0,0,0,0,0.45875,0.00317722,-1367293584,243853269,-1367293584,243853269,254855241,-1367293584,-1367293536,-1367293536,0,-0.261799,0.000125808,-1.5,3.94113e+12,0,0,3,0,0,0,0,0,0
300,-3.34124e-12,8.11e-38,-1.60255e-06,-3.40794e-12,8.10953e-38,0,-1.13718e-13,0,0,-2.67753,0.0204346,0.0860654,0,0,0,0,0,0.438886,0.0204346,-1367293584,243853269,-1367293584,243853269,254855241,-1367293584,-1367293536,-1367293536,-0.13973,-0.261799,0.000118112,-1.5,3.94113e+12,0,0,3,0.477415,0.0239037,0,0,0,0
310,-3.34124e-12,8.11e-38,-1.60255e-06,-3.40794e-12,8.10953e-38,-3.92437e-12,-1.13718e-13,0,0,-2.67753,0.0204346,0.0860654,0,0,0,0,0,0.438886,0.0204346,-1367293584,243853269,-1367293584,243853269,254855241,-1367293584,-1367293536,-1367293536,-0.142075,-0.261799,0.000113909,-1.5,3.94113e+12,0,0,3,0.499786,0.025918,0,0,0,0
320,-3.34124e-12,8.11e-38,-1.60255e-06,-3.40794e-12,8.10953e-38,0,-1.13719e-13,0,0,-2.67753,0.0204346,0.0860654,0,0,0,0,0,0.438886,0.0204346,-1367293584,243853269,-1367293584,243853269,254855241,-1367293584,-1367293536,-1367293536,-0.145071,-0.261799,0.000108734,-1.5,3.94113e+12,0,0,3,0.528372,0.0284918,0,0,0,0
330,-3.34124e-12,8.11e-38,-1.60255e-06,-3.40794e-12,8.10953e-38,-3.92437e-12,-1.13719e-13,0,0,-2.67753,0.0204346,0.0860654,0,0,0,0,0,0.438886,0.0204346,-1367293584,243853269,-1367293584,243853269,254855241,-1367293584,-1367293536,-1367293536,-0.147676,-0.261799,0.000104437,-1.5,3.94113e+12,0,0,3,0.553229,0.0307299,0,0,0,0
340,-3.34124e-12,8.11e-38,-1.60255e-06,-3.40794e-12,8.10953e-38,0,-1.1372e-13,0,0,-2.67753,0.0204346,0.0860654,0,0,0,0,0,0.438886,0.0204346,-1367293584,243853269,-1367293584,243853269,254855241,-1367293584,-1367293536,-1367293536,-0.150672,-0.261799,9.96925e-05,-1.5,3.94113e+12,0,0,3,0.581815,0.0333037,0,0,0,0
350,-3.34124e-12,8.11e-38,-1.60255e-06,-3.40794e-12,8.10953e-38,-3.92437e-12,-1.13721e-13,0,0,-2.67753,0.0204346,0.0860654,0,0,0,0,0,0.438886,0.0204346,-1367293584,243853269,-1367293584,243853269,254855241,-1367293584,-1367293536,-1367293536,-0.153277,-0.261799,9.57524e-05,-1.5,3.94113e+12,0,0,3,0.606672,0.0355419,0,0,0,0
360,-3.34124e-12,8.11e-38,-1.60255e-06,-3.40794e-12,8.10953e-38,0,-1.13721e-13,0,0,-2.67753,0.0204346,0.0860654,0,0,0,0,0,0.438886,0.0204346,-1367293584,243853269,-1367293584,243853269,254855241,-1367293584,-1367293536,-1367293536,-0.155361,-0.261799,9.27237e-05,-1.5,3.94113e+12,0,0,3,0.626558,0.0373324,0,0,0,0
370,-3.34124e-12,8.11e-38,-1.60255e-06,-3.40794e-12,8.10953e-38,-3.92437e-12,-1.13722e-13,0,0,-2.67753,0.0204346,0.0860654,0,0,0,0,0,0.438886,0.0204346,-1367293584,243853269,-1367293584,243853269,254855241,-1367293584,-1367293536,-1367293536,-0.157576,-0.261799,8.96065e-05,-1.5,3.94113e+12,0,0,3,0.647686,0.0392347,0,0,0,0
380,-3.34124e-12,8.11e-38,-1.60255e-06,-3.40794e-12,8.10953e-38,0,-1.13722e-13,0,0,-2.67753,0.0204346,0.0860654,0,0,0,0,0,0.438886,0.0204346,-1367293584,243853269,-1367293584,243853269,254855241,-1367293584,-1367293536,-1367293536,-0.160181,-0.261799,8.60651e-05,-1.5,3.94113e+12,0,0,3,0.672544,0.0414729,0,0,0,0
390,-3.34124e-12,8.11e-38,-1.60255e-06,-3.40794e-12,8.10953e-38,-3.92437e-12,-1.13723e-13,0,0,-2.67753,0.0204346,0.0860654,0,0,0,0,0,0.438886,0.0204346,-1367293584,243853269,-1367293584,243853269,254855241,-1367293584,-1367293536,-1367293536,-0.163177,-0.261799,8.21554e-05,-1.5,3.94113e+12,0,0,3,0.701129,0.0440467,0,0,0,0
400,-3.34124e-12,8.11e-38,-1.60255e-06,-3.40794e-12,8.10953e-38,0,-1.13723e-13,0,0,-2.67753,0.0204346,0.0860654,0,0,0,0,0,0.438886,0.0204346,-1367293584,243853269,-1367293584,243853269,254855241,-1367293584,-1367293536,-1367293536,-0.165782,-0.261799,7.89084e-05,-1.5,3.94113e+12,0,0,3,0.725987,0.0462848,0,0,0,0
410,-3.34124e-12,8.11e-38,-1.60255e-06,-3.40794e-12,8.10953e-38,-3.92437e-12,-1.13724e-13,0,0,-2.67753,0.0204346,0.0860654,0,0,0,0,0,0.438886,0.0204346,-1367293584,243853269,-1367293584,243853269,254855241,-1367293584,-1367293536,-1367293536,-0.168778,-0.261799,7.53275e-05,-1.5,3.94113e+12,0,0,3,0.754573,0.0488587,0,0,0,0
420,-3.34124e-12,8.11e-38,-1.60255e-06,-3.40794e-12,8.10953e-38,0,-1.13724e-13,0,0,-2.67753,0.0204346,0.0860654,0,0,0,0,0,0.438886,0.0204346,-1367293584,243853269,-1367293584,243853269,254855241,-1367293584,-1367293536,-1367293536,-0.171383,-0.261799,7.23504e-05,-1.5,3.94113e+12,0,0,3,0.77943,0.0510968,0,0,0,0
430,-3.34124e-12,8.11e-38,-1.60255e-06,-3.40794e-12,8.10953e-38,-3.92437e-12,-1.13725e-13,0,0,-2.67753,0.0204346,0.0860654,0,0,0,0,0,0.438886,0.0204346,-1367293584,243853269,-1367293584,243853269,254855241,-1367293584,-1367293536,-1367293536,-0.174249,-0.261799,6.92061e-05,-1.5,3.94113e+12,0,0,3,0.806773,0.0535587,0,0,0,0
440,-3.34124e-12,8.11e-38,-1.60255e-06,-3.40794e-12,8.10953e-38,0,-1.13725e-13,0,0,-2.67753,0.0204346,0.0860654,0,0,0,0,0,0.438886,0.0204346,-1367293584,243853269,-1367293584,243853269,254855241,-1367293584,-1367293536,-1367293536,-0.176984,-0.261799,6.63347e-05,-1.5,3.94113e+12,0,0,3,0.832873,0.0559087,0,0,0,0
450,-3.34124e-12,8.11e-38,-1.60255e-06,-3.40794e-12,8.10953e-38,-3.92437e-12,-1.13726e-13,0,0,-2.67753,0.0204346,0.0860654,0,0,0,0,0,0.438886,0.0204346,-1367293584,243853269,-1367293584,243853269,254855241,-1367293584,-1367293536,-1367293536,-0.17998,-0.261799,6.33213e-05,-1.5,3.94113e+12,0,0,3,0.861459,0.0584826,0,0,0,0
460,-3.34124e-12,8.11e-38,-1.60255e-06,-3.40794e-12,8.10953e-38,0,-1.13727e-13,0,0,-2.67753,0.0204346,0.0860654,0,0,0,0,0,0.438886,0.0204346,-1367293584,243853269,-1367293584,243853269,254855241,-1367293584,-1367293536,-1367293536,-0.182585,-0.261799,6.08187e-05,-1.5,3.94113e+12,0,0,3,0.886316,0.0607207,0,0,0,0
470,-3.34124e-12,8.11e-38,-1.60255e-06,-3.40794e-12,8.10953e-38,-3.92437e-12,-1.13727e-13,0,0,-2.67753,0.0204346,0.0860654,0,0,0,0,0,0.438886,0.0204346,-1367293584,243853269,-1367293584,243853269,254855241,-1367293584,-1367293536,-1367293536,-0.185581,-0.261799,5.80588e-05,-1.5,3.94113e+12,0,0,3,0.914902,0.0632945,0,0,0,0
480,-3.34124e-12,8.11e-38,-1.60255e-06,-3.40794e-12,8.10953e-38,0,-1.13728e-13,0,0,-2.67753,0.0204346,0.0860654,0,0,0,0,0,0.438886,0.0204346,-1367293584,243853269,-1367293584,243853269,254855241,-1367293584,-1367293536,-1367293536,-0.188186,-0.261799,5.57641e-05,-1.5,3.94113e+12,0,0,3,0.939759,0.0655327,0,0,0,0
490,-3.34124e-12,8.11e-38,-1.60255e-06,-3.40794e-12,8.10953e-38,-3.92437e-12,-1.13728e-13,0,0,-2.67753,0.0204346,0.0860654,0,0,0,0,0,0.438886,0.0204346,-1367293584,243853269,-1367293584,243853269,254855241,-1367293584,-1367293536,-1367293536,-0.19027,-0.261799,5.40003e-05,-1.5,3.94113e+12,0,0,3,0.959645,0.0673231,0,0,0,0
500,-3.34124e-12,8.11e-38,-1.60255e-06,-3.40794e-12,8.10953e-38,0,-1.13729e-13,0,0,-2.67753,0.0204346,0.0860654,0,0,0,0,0,0.438886,0.0204346,-1367293584,243853269,-1367293584,243853269,254855241,-1367293584,-1367293536,-1367293536,-0.192485,-0.261799,5.21849e-05,-1.5,3.94113e+12,0,0,3,0.980774,0.0692255,0,0,0,0
510,-3.34124e-12,8.11e-38,-1.60255e-06,-3.40794e-12,8.10953e-38,-3.92437e-12,-1.13729e-13,0,0,-2.67753,0.0204346,0.0860654,0,0,0,0,0,0.438886,0.0204346,-1367293584,243853269,-1367293584,243853269,254855241,-1367293584,-1367293536,-1367293536,-0.19509,-0.261799,5.01225e-05,-1.5,3.94113e+12,0,0,3,1.00563,0.0714637,0,0,0,0
520,-3.34124e-12,8.11e-38,-1.60255e-06,-3.40794e-12,8.10953e-38,0,-1.1373e-13,0,0,-2.67753,0.0204346,0.0860654,0,0,0,0,0,0.438886,0.0204346,-1367293584,243853269,-1367293584,243853269,254855241,-1367293584,-1367293536,-1367293536,-0.198086,-0.261799,4.78455e-05,-1.5,3.94113e+12,0,0,3,1.03422,0.0740375,0,0,0,0
530,-3.34124e-12,8.11e-38,-1.60255e-06,-3.40794e-12,8.10953e-38,-3.92437e-12,-1.1373e-13,0,0,-2.67753,0.0204346,0.0860654,0,0,0,0,0,0.438886,0.0204346,-1367293584,243853269,-1367293584,243853269,254855241,-1367293584,-1367293536,-1367293536,-0.200691,-0.261799,4.59546e-05,-1.5,3.94113e+12,0,0,3,1.05907,0.0762756,0,0,0,0
540,-3.34124e-12,8.11e-38,-1.60255e-06,-3.40794e-12,8.10953e-38,0,-1.13731e-13,0,0,-2.67753,0.0204346,0.0860654,1.08639,0.0787353,1.2379,0.11146,0,0.438886,0.0204346,-1367293584,243853269,-1367293584,243853269,254855241,-1367293584,-1367293536,-1367293536,-0.203107,-0.261799,4.39574e-05,-1.5,3.94113e+12,0,0,3,1.08639,0.0787353,0,0,0,0
550,-3.34124e-12,8.11e-38,-1.60255e-06,-3.40794e-12,8.10953e-38,-3.92437e-12,-1.13731e-13,0,0,-2.67753,0.0204346,0.0860654,1.11219,0.0810586,1.22495,0.110293,0,0.438886,0.0204346,-1367293584,243853269,-1367293584,243853269,254855241,-1367293584,-1367293536,-1367293536,-0.204645,-0.261799,4.21336e-05,-1.5,3.94113e+12,0,0,3,1.11219,0.0810586,0,0,0,0
560,-3.34124e-12,8.11e-38,-1.60255e-06,-3.40794e-12,8.10953e-38,0,-1.13732e-13,0,0,-2.67753,0.0204346,0.0860654,1.13893,0.0834658,1.21151,0.109083,0,0.438886,0.0204346,-1367293584,243853269,-1367293584,243853269,254855241,-1367293584,-1367293536,-1367293536,-0.206237,-0.261799,4.03025e-05,-1.5,3.94113e+12,0,0,3,1.13893,0.0834658,0,0,0,0
570,-3.34124e-12,8.11e-38,-1.60255e-06,-3.40794e-12,8.10953e-38,-3.92437e-12,-1.13732e-13,0,0,-2.67753,0.0204346,0.0860654,1.16419,0.0857401,1.19883,0.107942,0,0.438886,0.0204346,-1367293584,243853269,-1367293584,243853269,254855241,-1367293584,-1367293536,-1367293536,-0.207743,-0.261799,3.86319e-05,-1.5,3.94113e+12,0,0,3,1.16419,0.0857401,0,0,0,0
580,-3.34124e-12,8.11e-38,-1.60255e-06,-3.40794e-12,8.10953e-38,0,-1.13733e-13,0,0,-2.67753,0.0204346,0.0860654,1.19035,0.088096,1.18569,0.106758,0,0.438886,0.0204346,-1367293584,243853269,-1367293584,243853269,254855241,-1367293584,-1367293536,-1367293536,-0.209301,-0.261799,3.6953e-05,-1.5,3.94113e+12,0,0,3,1.19035,0.088096,0,0,0,0
590,-3.34124e-12,8.11e-38,-1.60255e-06,-3.40794e-12,8.10953e-38,-3.92437e-12,-1.13734e-13,0,0,-2.67753,0.0204346,0.0860654,1.23587,0.0921944,1.16266,0.104684,0,0.438886,0.0204346,-1367293584,243853269,-1367293584,243853269,254855241,-1367293584,-1367293536,-1367293536,-0.211998,-0.261799,3.41148e-05,-1.5,3.94113e+12,0,0,3,1.23587,0.0921944,0,0,0,0
600,-3.34124e-12,8.11e-38,-1.60255e-06,-3.40794e-12,8.10953e-38,0,-1.13734e-13,0,0,-2.67753,0.0204346,0.0860654,1.26239,0.094582,1.14933,0.103484,0,0.438886,0.0204346,-1367293584,243853269,-1367293584,243853269,254855241,-1367293584,-1367293536,-1367293536,-0.213577,-0.261799,3.2565e-05,-1.5,3.94113e+12,0,0,3,1.26239,0.094582,0,0,0,0
610,-3.34124e-12,8.11e-38,-1.60255e-06,-3.40794e-12,8.10953e-38,-3.92437e-12,-1.13735e-13,0,0,-2.67753,0.0204346,0.0860654,1.28182,0.0963316,1.13959,0.102607,0,0.438886,0.0204346,-1367293584,243853269,-1367293584,243853269,254855241,-1367293584,-1367293536,-1367293536,-0.214737,-0.261799,3.1471e-05,-1.5,3.94113e+12,0,0,3,1.28182,0.0963316,0,0,0,0
620,-3.34124e-12,8.11e-38,-1.60255e-06,-3.40794e-12,8.10953e-38,0,-1.13735e-13,0,0,-2.67753,0.0204346,0.0860654,1.29996,0.0979647,1.1305,0.101789,0,0.438886,0.0204346,-1367293584,243853269,-1367293584,243853269,254855241,-1367293584,-1367293536,-1367293536,-0.215819,-0.261799,3.0475e-05,-1.5,3.94113e+12,0,0,3,1.29996,0.0979647,0,0,0,0
630,-3.34124e-12,8.11e-38,-1.60255e-06,-3.40794e-12,8.10953e-38,-3.92437e-12,-1.13736e-13,0,0,-2.67753,0.0204346,0.0860654,1.32352,0.100086,1.11866,0.100723,0,0.438886,0.0204346,-1367293584,243853269,-1367293584,243853269,254855241,-1367293584,-1367293536,-1367293536,-0.217223,-0.261799,2.92105e-05,-1.5,3.94113e+12,0,0,3,1.32352,0.100086,0,0,0,0
640,-3.34124e-12,8.11e-38,-1.60255e-06,-3.40794e-12,8.10953e-38,0,-1.13736e-13,0,0,-2.67753,0.0204346,0.0860654,1.34795,0.102285,1.1064,0.0996187,0,0.438886,0.0204346,-1367293584,243853269,-1367293584,243853269,254855241,-1367293584,-1367293536,-1367293536,-0.218678,-0.261799,2.79411e-05,-1.5,3.94113e+12,0,0,3,1.34795,0.102285,0,0,0,0
650,-3.34124e-12,8.11e-38,-1.60255e-06,-3.40794e-12,8.10953e-38,-3.92437e-12,-1.13737e-13,0,0,-2.67753,0.0204346,0.0860654,1.37101,0.104362,1.09482,0.0985759,0,0.438886,0.0204346,-1367293584,243853269,-1367293584,243853269,254855241,-1367293584,-1367293536,-1367293536,-0.220053,-0.261799,2.67818e-05,-1.5,3.94113e+12,0,0,3,1.37101,0.104362,0,0,0,0
660,-3.34124e-12,8.11e-38,-1.60255e-06,-3.40794e-12,8.10953e-38,0,-1.13737e-13,0,0,-2.67753,0.0204346,0.0860654,1.39383,0.106416,1.08335,0.097544,0,0.438886,0.0204346,-1367293584,243853269,-1367293584,243853269,254855241,-1367293584,-1367293536,-1367293536,-0.221412,-0.261799,2.56706e-05,-1.5,3.94113e+12,0,0,3,1.39383,0.106416,0,0,0,0
670,-3.34124e-12,8.11e-38,-1.60255e-06,-3.40794e-12,8.10953e-38,-3.92437e-12,-1.13738e-13,0,0,-2.67753,0.0204346,0.0860654,1.41747,0.108545,1.07147,0.0964744,0,0.438886,0.0204346,-1367293584,243853269,-1367293584,243853269,254855241,-1367293584,-1367293536,-1367293536,-0.222821,-0.261799,2.4555e-05,-1.5,3.94113e+12,0,0,3,1.41747,0.108545,0,0,0,0
680,-3.34124e-12,8.11e-38,-1.60255e-06,-3.40794e-12,8.10953e-38,0,-1.13738e-13,0,0,-2.67753,0.0204346,0.0860654,1.43981,0.110556,1.06026,0.0954645,0,0.438886,0.0204346,-1367293584,243853269,-1367293584,243853269,254855241,-1367293584,-1367293536,-1367293536,-0.224151,-0.261799,2.35362e-05,-1.5,3.94113e+12,0,0,3,1.43981,0.110556,0,0,0,0
690,-3.34124e-12,8.11e-38,-1.60255e-06,-3.40794e-12,8.10953e-38,-3.92437e-12,-1.13739e-13,0,0,-2.67753,0.0204346,0.0860654,1.46295,0.11264,1.04863,0.0944176,0,0.438886,0.0204346,-1367293584,243853269,-1367293584,243853269,254855241,-1367293584,-1367293536,-1367293536,-0.22553,-0.261799,2.25133e-05,-1.5,3.94113e+12,0,0,3,1.46295,0.11264,0,0,0,0
700,-3.34124e-12,8.11e-38,-1.60255e-06,-3.40794e-12,8.10953e-38,0,-1.1374e-13,0,0,-2.67753,0.0204346,0.0860654,1.48583,0.114701,1.03713,0.0933822,0,0.438886,0.0204346,-1367293584,243853269,-1367293584,243853269,254855241,-1367293584,-1367293536,-1367293536,-0.226893,-0.261799,2.15349e-05,-1.5,3.94113e+12,0,0,3,1.48583,0.114701,0,0,0,0
710,-3.34124e-12,8.11e-38,-1.60255e-06,-3.40794e-12,8.10953e-38,-3.92437e-12,-1.1374e-13,0,0,-2.67753,0.0204346,0.0860654,1.50745,0.116647,1.02628,0.0924047,0,0.438886,0.0204346,-1367293584,243853269,-1367293584,243853269,254855241,-1367293584,-1367293536,-1367293536,-0.228181,-0.261799,2.06414e-05,-1.5,3.94113e+12,0,0,3,1.50745,0.116647,0,0,0,0
720,-3.34124e-12,8.11e-38,-1.60255e-06,-3.40794e-12,8.10953e-38,0,-1.13741e-13,0,0,-2.67753,0.0204346,0.0860654,1.52985,0.118664,1.01502,0.0913913,0,0.438886,0.0204346,-1367293584,243853269,-1367293584,243853269,254855241,-1367293584,-1367293536,-1367293536,-0.229516,-0.261799,1.97443e-05,-1.5,3.94113e+12,0,0,3,1.52985,0.118664,0,0,0,0
730,-3.34124e-12,8.11e-38,-1.60255e-06,-3.40794e-12,8.10953e-38,-3.92437e-12,-1.13741e-13,0,0,-2.67753,0.0204346,0.0860654,1.54601,0.120119,1.00692,0.0906622,0,0.438886,0.0204346,-1367293584,243853269,-1367293584,243853269,254855241,-1367293584,-1367293536,-1367293536,-0.23048,-0.261799,1.91194e-05,-1.5,3.94113e+12,0,0,3,1.54601,0.120119,0,0,0,0
740,-3.34124e-12,8.11e-38,-1.60255e-06,-3.40794e-12,8.10953e-38,0,-1.13742e-13,0,0,-2.67753,0.0204346,0.0860654,1.56303,0.121651,0.99839,0.0898939,0,0.438886,0.0204346,-1367293584,243853269,-1367293584,243853269,254855241,-1367293584,-1367293536,-1367293536,-0.231495,-0.261799,1.84771e-05,-1.5,3.94113e+12,0,0,3,1.56303,0.121651,0,0,0,0
750,-3.34124e-12,8.11e-38,-1.60255e-06,-3.40794e-12,8.10953e-38,-3.92437e-12,-1.13742e-13,0,0,-2.67753,0.0204346,0.0860654,1.58483,0.123614,0.987444,0.0889084,0,0.438886,0.0204346,-1367293584,243853269,-1367293584,243853269,254855241,-1367293584,-1367293536,-1367293536,-0.232794,-0.261799,1.76749e-05,-1.5,3.94113e+12,0,0,3,1.58483,0.123614,0,0,0,0
760,-3.34124e-12,8.11e-38,-1.60255e-06,-3.40794e-12,8.10953e-38,0,-1.13743e-13,0,0,-2.67753,0.0204346,0.0860654,1.60541,0.125467,0.97711,0.0879779,0,0.438886,0.0204346,-1367293584,243853269,-1367293584,243853269,254855241,-1367293584,-1367293536,-1367293536,-0.234021,-0.261799,1.69764e-05,-1.5,3.94113e+12,0,0,3,1.60541,0.125467,0,0,0,0
770,-3.34124e-12,8.11e-38,-1.60255e-06,-3.40794e-12,8.10953e-38,-3.92437e-12,-1.13743e-13,0,0,-2.67753,0.0204346,0.0860654,1.62675,0.127388,0.966398,0.0870134,0,0.438886,0.0204346,-1367293584,243853269,-1367293584,243853269,254855241,-1367293584,-1367293536,-1367293536,-0.235293,-0.261799,1.62393e-05,-1.5,3.94113e+12,0,0,3,1.62675,0.127388,0,0,0,0
780,-3.34124e-12,8.11e-38,-1.60255e-06,-3.40794e-12,8.10953e-38,0,-1.13744e-13,0,0,-2.67753,0.0204346,0.0860654,1.64689,0.129202,0.956281,0.0861025,0,0.438886,0.0204346,-1367293584,243853269,-1367293584,243853269,254855241,-1367293584,-1367293536,-1367293536,-0.236493,-0.261799,1.55656e-05,-1.5,3.94113e+12,0,0,3,1.64689,0.129202,0,0,0,0
790,-3.34124e-12,8.11e-38,-1.60255e-06,-3.40794e-12,8.10953e-38,-3.92437e-12,-1.13744e-13,0,0,-2.67753,0.0204346,0.0860654,1.66682,0.130997,0.946271,0.0852012,0,0.438886,0.0204346,-1367293584,243853269,-1367293584,243853269,254855241,-1367293584,-1367293536,-1367293536,-0.237681,-0.261799,1.49197e-05,-1.5,3.94113e+12,0,0,3,1.66682,0.130997,0,0,0,0
800,-3.34124e-12,8.11e-38,-1.60255e-06,-3.40794e-12,8.10953e-38,0,-1.13745e-13,0,0,-2.93799,0.0498478,0.0935574,1.68748,0.132856,0.935894,0.0842669,0,0.0924702,0.0498478,-1367293584,243853269,-1367293584,243853269,254855241,-1367293584,-1367293536,-1367293536,-0.238911,-0.261799,1.42713e-05,-1.5,3.94113e+12,0,0,3,1.68748,0.132856,0,0,0,0
810,-3.34124e-12,8.11e-38,-1.60255e-06,-3.40794e-12,8.10953e-38,-3.92437e-12,-1.13745e-13,0,0,-2.93799,0.0498478,0.0935574,1.70698,0.134613,0.926097,0.0833848,0,0.0924702,0.0498478,-1367293584,243853269,-1367293584,243853269,254855241,-1367293584,-1367293536,-1367293536,-0.240073,-0.261799,1.36792e-05,-1.5,3.94113e+12,0,0,3,1.70698,0.134613,0,0,0,0
820,-3.34124e-12,8.11e-38,-1.60255e-06,-3.40794e-12,8.10953e-38,0,-1.13746e-13,0,0,-2.94033,0.054345,0.0904597,1.7272,0.136433,0.915944,0.0824706,0,0.0893648,0.054345,-1367293584,243853269,-1367293584,243853269,254855241,-1367293584,-1367293536,-1367293536,-0.241278,-0.261799,1.30853e-05,-1.5,3.94113e+12,0,0,3,1.7272,0.136433,0,0,0,0
830,-3.34124e-12,8.11e-38,-1.60255e-06,-3.40794e-12,8.10953e-38,-3.92437e-12,-1.13747e-13,0,0,-2.92674,0.057702,0.0884128,1.74629,0.138152,0.906356,0.0816073,0,0.10744,0.057702,-1367293584,243853269,-1367293584,243853269,254855241,-1367293584,-1367293536,-1367293536,-0.242416,-0.261799,1.25424e-05,-1.5,3.94113e+12,0,0,3,1.74629,0.138152,0,0,0,0
840,-3.34124e-12,8.11e-38,-1.60255e-06,-3.40794e-12,8.10953e-38,0,-1.13747e-13,0,0,-2.92674,0.057702,0.0884128,1.76608,0.139934,0.896419,0.0807126,0,0.10744,0.057702,-1367293584,243853269,-1367293584,243853269,254855241,-1367293584,-1367293536,-1367293536,-0.243595,-0.261799,1.19979e-05,-1.5,3.94113e+12,0,0,3,1.76608,0.139934,0,0,0,0
850,-3.34124e-12,8.11e-38,-1.60255e-06,-3.40794e-12,8.10953e-38,-3.92437e-12,-1.13748e-13,0,0,-2.92674,0.057702,0.0884128,1.78124,0.141298,0.888823,0.0800286,0,0.10744,0.057702,-1367293584,243853269,-1367293584,243853269,254855241,-1367293584,-1367293536,-1367293536,-0.244499,-0.261799,1.15948e-05,-1.5,3.94113e+12,0,0,3,1.78124,0.141298,0,0,0,0
860,-3.34124e-12,8.11e-38,-1.60255e-06,-3.40794e-12,8.10953e-38,0,-1.13748e-13,0,0,-2.92674,0.057702,0.0884128,1.7945,0.142493,0.882174,0.07943,0,0.10744,0.057702,-1367293584,243853269,-1367293584,243853269,254855241,-1367293584,-1367293536,-1367293536,-0.245291,-0.261799,1.12507e-05,-1.5,3.94113e+12,0,0,3,1.7945,0.142493,0,0,0,0
870,-3.34124e-12,8.11e-38,-1.60255e-06,-3.40794e-12,8.10953e-38,-3.92437e-12,-1.13749e-13,0,0,-2.92674,0.057702,0.0884128,1.81376,0.144227,0.872503,0.0785592,0,0.10744,0.057702,-1367293584,243853269,-1367293584,243853269,254855241,-1367293584,-1367293536,-1367293536,-0.246439,-0.261799,1.07622e-05,-1.5,3.94113e+12,0,0,3,1.81376,0.144227,0,0,0,0
880,-3.34124e-12,8.11e-38,-1.60255e-06,-3.40794e-12,8.10953e-38,0,-1.13749e-13,0,0,-2.92674,0.057702,0.0884128,1.83195,0.145864,0.863369,0.0777368,0,0.10744,0.057702,-1367293584,243853269,-1367293584,243853269,254855241,-1367293584,-1367293536,-1367293536,-0.247522,-0.261799,1.03157e-05,-1.5,3.94113e+12,0,0,3,1.83195,0.145864,0,0,0,0
890,-3.34124e-12,8.11e-38,-1.60255e-06,-3.40794e-12,8.10953e-38,-3.92437e-12,-1.1375e-13,0,0,-2.92674,0.057702,0.0884128,1.8508,0.147562,0.853904,0.0768845,0,0.10744,0.057702,-1367293584,243853269,-1367293584,243853269,254855241,-1367293584,-1367293536,-1367293536,-0.248645,-0.261799,9.86781e-06,-1.5,3.94113e+12,0,0,3,1.8508,0.147562,0,0,0,0
900,-3.34124e-12,8.11e-38,-1.60255e-06,-3.40794e-12,8.10953e-38,0,-1.1375e-13,0,0,-2.92674,0.057702,0.0884128,1.86944,0.14924,0.844542,0.0760416,0,0.10744,0.057702,-1367293584,243853269,-1367293584,243853269,254855241,-1367293584,-1367293536,-1367293536,-0.249756,-0.261799,9.4394e-06,-1.5,3.94113e+12,0,0,3,1.86944,0.14924,0,0,0,0
910,-3.34124e-12,8.11e-38,-1.60255e-06,-3.40794e-12,8.10953e-38,-3.92437e-12,-1.13751e-13,0,0,-2.92674,0.057702,0.0884128,1.88704,0.150825,0.835702,0.0752456,0,0.10744,0.057702,-1367293584,243853269,-1367293584,243853269,254855241,-1367293584,-1367293536,-1367293536,-0.250805,-0.261799,9.04775e-06,-1.5,3.94113e+12,0,0,3,1.88704,0.150825,0,0,0,0
920,-3.34124e-12,8.11e-38,-1.60255e-06,-3.40794e-12,8.10953e-38,0,-1.13751e-13,0,0,-2.92674,0.057702,0.0884128,1.90446,0.152393,0.826953,0.0744579,0,0.10744,0.057702,-1367293584,243853269,-1367293584,243853269,254855241,-1367293584,-1367293536,-1367293536,-0.251843,-0.261799,8.67235e-06,-1.5,3.94113e+12,0,0,3,1.90446,0.152393,0,0,0,0
930,-3.34124e-12,8.11e-38,-1.60255e-06,-3.40794e-12,8.10953e-38,-3.92437e-12,-1.13752e-13,0,0,-2.92674,0.057702,0.0884128,1.92251,0.154019,0.817885,0.0736414,0,0.10744,0.057702,-1367293584,243853269,-1367293584,243853269,254855241,-1367293584,-1367293536,-1367293536,-0.252918,-0.261799,8.29546e-06,-1.5,3.94113e+12,0,0,3,1.92251,0.154019,0,0,0,0
940,-3.34124e-12,8.11e-38,-1.60255e-06,-3.40794e-12,8.10953e-38,0,-1.13753e-13,0,0,-2.92674,0.057702,0.0884128,1.93956,0.155554,0.809323,0.0728705,0,0.10744,0.057702,-1367293584,243853269,-1367293584,243853269,254855241,-1367293584,-1367293536,-1367293536,-0.253934,-0.261799,7.95128e-06,-1.5,3.94113e+12,0,0,3,1.93956,0.155554,0,0,0,0
950,-3.34124e-12,8.11e-38,-1.60255e-06,-3.40794e-12,8.10953e-38,-3.92437e-12,-1.13753e-13,0,0,-2.92674,0.057702,0.0884128,1.95723,0.157144,0.80045,0.0720716,0,0.10744,0.057702,-1367293584,243853269,-1367293584,243853269,254855241,-1367293584,-1367293536,-1367293536,-0.254987,-0.261799,7.60607e-06,-1.5,3.94113e+12,0,0,3,1.95723,0.157144,0,0,0,0
960,-3.34124e-12,8.11e-38,-1.60255e-06,-3.40794e-12,8.10953e-38,0,-1.13754e-13,0,0,-2.92674,0.057702,0.0884128,1.97391,0.158647,0.792071,0.0713172,0,0.10744,0.057702,-1367293584,243853269,-1367293584,243853269,254855241,-1367293584,-1367293536,-1367293536,-0.255981,-0.261799,7.29049e-06,-1.5,3.94113e+12,0,0,3,1.97391,0.158647,0,0,0,0
970,-3.34124e-12,8.11e-38,-1.60255e-06,-3.40794e-12,8.10953e-38,-3.92437e-12,-1.13754e-13,0,0,-2.92674,0.057702,0.0884128,1.98652,0.159782,0.785752,0.0707482,0,0.10744,0.057702,-1367293584,243853269,-1367293584,243853269,254855241,-1367293584,-1367293536,-1367293536,-0.256734,-0.261799,7.05974e-06,-1.5,3.94113e+12,0,0,3,1.98652,0.159782,0,0,0,0
980,-3.34124e-12,8.11e-38,-1.60255e-06,-3.40794e-12,8.10953e-38,0,-1.13755e-13,0,0,-2.92674,0.057702,0.0884128,1.9998,0.160978,0.779093,0.0701487,0,0.10744,0.057702,-1367293584,243853269,-1367293584,243853269,254855241,-1367293584,-1367293536,-1367293536,-0.257526,-0.261799,6.82258e-06,-1.5,3.94113e+12,0,0,3,1.9998,0.160978,0,0,0,0
990,-3.34124e-12,8.11e-38,-1.60255e-06,-3.40794e-12,8.10953e-38,-3.92437e-12,-1.13755e-13,0,0,-2.92674,0.057702,0.0884128,2.01605,0.16244,0.77094,0.0694145,0,0.10744,0.057702,-1367293584,243853269,-1367293584,243853269,254855241,-1367293584,-1367293536,-1367293536,-0.258494,-0.261799,6.53977e-06,-1.5,3.94113e+12,0,0,3,2.01605,0.16244,0,0,0,0
1000,-3.34124e-12,8.11e-38,-1.60255e-06,-3.40794e-12,8.10953e-38,0,-1.13756e-13,0,0,-2.92674,0.057702,0.0884128,2.03212,0.163887,0.762869,0.0686879,0,0.10744,0.057702,-1367293584,243853269,-1367293584,243853269,254855241,-1367293584,-1367293536,-1367293536,-0.259452,-0.261799,6.26843e-06,-1.5,3.94113e+12,0,0,3,2.03212,0.163887,0,0,0,0
1010,-3.34124e-12,8.11e-38,-1.60255e-06,-3.40794e-12,8.10953e-38,-3.92437e-12,-1.13756e-13,0,0,-2.92674,0.057702,0.0884128,2.04877,0.165386,0.754504,0.0679347,0,0.10744,0.057702,-1367293584,243853269,-1367293584,243853269,254855241,-1367293584,-1367293536,-1367293536,-0.260444,-0.261799,5.99601e-06,-1.5,3.94113e+12,0,0,3,2.04877,0.165386,0,0,0,0
1020,-3.34124e-12,8.11e-38,-1.60255e-06,-3.40794e-12,8.10953e-38,0,-1.13757e-13,0,0,-2.92674,0.057702,0.0884128,2.06524,0.16687,0.746232,0.0671899,0,0.10744,0.057702,-1367293584,243853269,-1367293584,243853269,254855241,-1367293584,-1367293536,-1367293536,-0.261425,-0.261799,5.7357e-06,-1.5,3.94113e+12,0,0,3,2.06524,0.16687,0,0,0,0
1030,-3.34124e-12,8.11e-38,-1.60255e-06,-3.40794e-12,8.10953e-38,-3.92437e-12,-1.13757e-13,0,0,-2.92674,0.057702,0.0884128,2.08079,0.16827,0.73842,0.0664865,0,0.10744,0.057702,-1367293584,243853269,-1367293584,243853269,254855241,-1367293584,-1367293536,-1367293536,-0.261799,-0.261799,5.49772e-06,-1.5,3.94113e+12,0,0,3,2.08079,0.16827,0,0,0,0
1040,-3.34124e-12,8.11e-38,-1.60255e-06,-3.40794e-12,8.10953e-38,0,-1.13758e-13,0,0,-2.92674,0.057702,0.0884128,2.09691,0.169721,0.730323,0.0657574,0,0.10744,0.057702,-1367293584,243853269,-1367293584,243853269,254855241,-1367293584,-1367293536,-1367293536,-0.261799,-0.261799,5.25879e-06,-1.5,3.94113e+12,0,0,3,2.09691,0.169721,0,0,0,0
1050,-3.34124e-12,8.11e-38,-1.60255e-06,-3.40794e-12,8.10953e-38,-3.92437e-12,-1.13759e-13,0,0,-2.92674,0.057702,0.0884128,2.11213,0.171092,0.722678,0.0650691,0,0.10744,0.057702,-1367293584,243853269,-1367293584,243853269,254855241,-1367293584,-1367293536,-1367293536,-0.261799,-0.261799,5.0406e-06,-1.5,3.94113e+12,0,0,3,2.11213,0.171092,0,0,0,0
1060,-3.34124e-12,8.11e-38,-1.60255e-06,-3.40794e-12,8.10953e-38,0,-1.13759e-13,0,0,-2.92674,0.057702,0.0884128,2.12791,0.172512,0.714755,0.0643557,0,0.10744,0.057702,-1367293584,243853269,-1367293584,243853269,254855241,-1367293584,-1367293536,-1367293536,-0.261799,-0.261799,4.82176e-06,-1.5,3.94113e+12,0,0,3,2.12791,0.172512,0,0,0,0
1070,-3.34124e-12,8.11e-38,-1.60255e-06,-3.40794e-12,8.10953e-38,-3.92437e-12,-1.1376e-13,0,0,-2.92674,0.057702,0.0884128,2.14281,0.173854,0.707273,0.063682,0,0.10744,0.057702,-1367293584,243853269,-1367293584,243853269,254855241,-1367293584,-1367293536,-1367293536,-0.261799,-0.261799,4.6217e-06,-1.5,3.94113e+12,0,0,3,2.14281,0.173854,0,0,0,0
1080,-3.34124e-12,8.11e-38,-1.60255e-06,-3.40794e-12,8.10953e-38,0,-1.1376e-13,0,0,-2.92674,0.057702,0.0884128,2.15894,0.175307,0.699167,0.0629522,0,0.10744,0.057702,-1367293584,243853269,-1367293584,243853269,254855241,-1367293584,-1367293536,-1367293536,-0.261799,-0.261799,4.41197e-06,-1.5,3.94113e+12,0,0,3,2.15894,0.175307,0,0,0,0
1090,-3.34124e-12,8.11e-38,-1.60255e-06,-3.40794e-12,8.10953e-38,-3.92437e-12,-1.13761e-13,0,0,-2.92674,0.057702,0.0884128,2.17007,0.176309,0.693589,0.06245,0,0.10744,0.057702,-1367293584,243853269,-1367293584,243853269,254855241,-1367293584,-1367293536,-1367293536,-0.261799,-0.261799,4.27242e-06,-1.5,3.94113e+12,0,0,3,2.17007,0.176309,0,0,0,0
1100,-3.34124e-12,8.11e-38,-1.60255e-06,-3.40794e-12,8.10953e-38,0,-1.13761e-13,0,0,-2.92674,0.057702,0.0884128,2.18111,0.177303,0.688056,0.0619518,0,0.10744,0.057702,-1367293584,243853269,-1367293584,243853269,254855241,-1367293584,-1367293536,-1367293536,-0.261799,-0.261799,4.1372e-06,-1.5,3.94113e+12,0,0,3,2.18111,0.177303,0,0,0,0
1110,-3.34124e-12,8.11e-38,-1.60255e-06,-3.40794e-12,8.10953e-38,-3.92437e-12,-1.13762e-13,0,0,-2.92674,0.057702,0.0884128,2.19546,0.178594,0.680855,0.0613034,0,0.10744,0.057702,-1367293584,243853269,-1367293584,243853269,254855241,-1367293584,-1367293536,-1367293536,-0.261799,-0.261799,3.96571e-06,-1.5,3.94113e+12,0,0,3,2.19546,0.178594,0,0,0,0
1120,-3.34124e-12,8.11e-38,-1.60255e-06,-3.40794e-12,8.10953e-38,0,-1.13762e-13,0,0,-2.92674,0.057702,0.0884128,2.21032,0.179932,0.673389,0.0606312,0,0.10744,0.057702,-1367293584,243853269,-1367293584,243853269,254855241,-1367293584,-1367293536,-1367293536,-0.261799,-0.261799,3.79336e-06,-1.5,3.94113e+12,0,0,3,2.21032,0.179932,0,0,0,0
1130,-3.34124e-12,8.11e-38,-1.60255e-06,-3.40794e-12,8.10953e-38,-3.92437e-12,-1.13763e-13,0,0,-2.92674,0.057702,0.0884128,2.22369,0.181136,0.666675,0.0600267,0,0.10744,0.057702,-1367293584,243853269,-1367293584,243853269,254855241,-1367293584,-1367293536,-1367293536,-0.261799,-0.261799,3.64344e-06,-1.5,3.94113e+12,0,0,3,2.22369,0.181136,0,0,0,0
1140,-3.34124e-12,8.11e-38,-1.60255e-06,-3.40794e-12,8.10953e-38,0,-1.13763e-13,0,0,-2.92674,0.057702,0.0884128,2.2389,0.182506,0.659032,0.0593385,0,0.10744,0.057702,-1367293584,243853269,-1367293584,243853269,254855241,-1367293584,-1367293536,-1367293536,-0.261799,-0.261799,3.47793e-06,-1.5,3.94113e+12,0,0,3,2.2389,0.182506,0,0,0,0
1150,-3.34124e-12,8.11e-38,-1.60255e-06,-3.40794e-12,8.10953e-38,-3.92437e-12,-1.13764e-13,0,0,-2.92674,0.057702,0.0884128,2.25198,0.183684,0.652462,0.0587469,0,0.10744,0.057702,-1367293584,243853269,-1367293584,243853269,254855241,-1367293584,-1367293536,-1367293536,-0.261799,-0.261799,3.34047e-06,-1.5,3.94113e+12,0,0,3,2.25198,0.183684,0,0,0,0
1160,-3.34124e-12,8.11e-38,-1.60255e-06,-3.40794e-12,8.10953e-38,0,-1.13764e-13,0,0,-2.92674,0.057702,0.0884128,2.26623,0.184966,0.645307,0.0581027,0,0.10744,0.057702,-1367293584,243853269,-1367293584,243853269,254855241,-1367293584,-1367293536,-1367293536,-0.261799,-0.261799,3.1953e-06,-1.5,3.94113e+12,0,0,3,2.26623,0.184966,0,0,0,0
1170,-3.34124e-12,8.11e-38,-1.60255e-06,-3.40794e-12,8.10953e-38,-3.92437e-12,-1.13765e-13,0,0,-2.92674,0.057702,0.0884128,2.29161,0.187252,0.632446,0.0569447,0,0.10744,0.057702,-1367293584,243853269,-1367293584,243853269,254855241,-1367293584,-1367293536,-1367293536,-0.261799,-0.261799,2.94323e-06,-1.5,3.94113e+12,0,0,3,2.29161,0.187252,0,0,0,0
1180,-3.34124e-12,8.11e-38,-1.60255e-06,-3.40794e-12,8.10953e-38,0,-1.13766e-13,0,0,-2.92674,0.057702,0.0884128,2.31283,0.189162,0.621735,0.0559803,0,0.10744,0.057702,-1367293584,243853269,-1367293584,243853269,254855241,-1367293584,-1367293536,-1367293536,-0.261799,-0.261799,2.74608e-06,-1.5,3.94113e+12,0,0,3,2.31283,0.189162,0,0,0,0
1190,-3.34124e-12,8.11e-38,-1.60255e-06,-3.40794e-12,8.10953e-38,-3.92437e-12,-1.13766e-13,0,0,-2.92674,0.057702,0.0884128,2.32518,0.190274,0.615536,0.0554221,0,0.10744,0.057702,-1367293584,243853269,-1367293584,243853269,254855241,-1367293584,-1367293536,-1367293536,-0.261799,-0.261799,2.63754e-06,-1.5,3.94113e+12,0,0,3,2.32518,0.190274,0,0,0,0
1200,-3.34124e-12,8.11e-38,-1.60255e-06,-3.40794e-12,8.10953e-38,0,-1.13767e-13,0,0,-2.92674,0.057702,0.0884128,2.33922,0.191539,0.608481,0.054787,0,0.10744,0.057702,-1367293584,243853269,-1367293584,243853269,254855241,-1367293584,-1367293536,-1367293536,-0.261799,-0.261799,2.51785e-06,-1.5,3.94113e+12,0,0,3,2.33922,0.191539,0,0,0,0
1210,-3.34124e-12,8.11e-38,-1.60255e-06,-3.40794e-12,8.10953e-38,-3.92437e-12,-1.13767e-13,0,0,-2.92674,0.057702,0.0884128,2.34891,0.192411,0.603627,0.0543499,0,0.10744,0.057702,-1367293584,243853269,-1367293584,243853269,254855241,-1367293584,-1367293536,-1367293536,-0.261799,-0.261799,2.43816e-06,-1.5,3.94113e+12,0,0,3,2.34891,0.192411,0,0,0,0
1220,-3.34124e-12,8.11e-38,-1.60255e-06,-3.40794e-12,8.10953e-38,0,-1.13768e-13,0,0,-2.92674,0.057702,0.0884128,2.35851,0.193276,0.598811,0.0539163,0,0.10744,0.057702,-1367293584,243853269,-1367293584,243853269,254855241,-1367293584,-1367293536,-1367293536,-0.261799,-0.261799,2.361e-06,-1.5,3.94113e+12,0,0,3,2.35851,0.193276,0,0,0,0
1230,-3.34124e-12,8.11e-38,-1.60255e-06,-3.40794e-12,8.10953e-38,-3.92437e-12,-1.13768e-13,0,0,-2.92674,0.057702,0.0884128,2.37217,0.194506,0.591948,0.0532983,0,0.10744,0.057702,-1367293584,243853269,-1367293584,243853269,254855241,-1367293584,-1367293536,-1367293536,-0.261799,-0.261799,2.25386e-06,-1.5,3.94113e+12,0,0,3,2.37217,0.194506,0,0,0,0
1240,-3.34124e-12,8.11e-38,-1.60255e-06,-3.40794e-12,8.10953e-38,0,-1.13769e-13,0,0,-2.92674,0.057702,0.0884128,2.38393,0.195564,0.586046,0.0527669,0,0.10744,0.057702,-1367293584,243853269,-1367293584,243853269,254855241,-1367293584,-1367293536,-1367293536,-0.261799,-0.261799,2.16478e-06,-1.5,3.94113e+12,0,0,3,2.38393,0.195564,0,0,0,0
1250,-3.34124e-12,8.11e-38,-1.60255e-06,-3.40794e-12,8.10953e-38,-3.92437e-12,-1.13769e-13,0,0,-2.92674,0.057702,0.0884128,2.3973,0.196768,0.579328,0.052162,0,0.10744,0.057702,-1367293584,243853269,-1367293584,243853269,254855241,-1367293584,-1367293536,-1367293536,-0.261799,-0.261799,2.06644e-06,-1.5,3.94113e+12,0,0,3,2.3973,0.196768,0,0,0,0
1260,-3.34124e-12,8.11e-38,-1.60255e-06,-3.40794e-12,8.10953e-38,0,-1.1377e-13,0,0,-2.92674,0.057702,0.0884128,2.4088,0.197804,0.573552,0.051642,0,0.10744,0.057702,-1367293584,243853269,-1367293584,243853269,254855241,-1367293584,-1367293536,-1367293536,-0.261799,-0.261799,1.98477e-06,-1.5,3.94113e+12,0,0,3,2.4088,0.197804,0,0,0,0
1270,-3.34124e-12,8.11e-38,-1.60255e-06,-3.40794e-12,8.10953e-38,-3.92437e-12,-1.1377e-13,0,0,-2.92674,0.057702,0.0884128,2.42189,0.198982,0.566978,0.0510501,0,0.10744,0.057702,-1367293584,243853269,-1367293584,243853269,254855241,-1367293584,-1367293536,-1367293536,-0.261799,-0.261799,1.8947e-06,-1.5,3.94113e+12,0,0,3,2.42189,0.198982,0,0,0,0
1280,-3.34124e-12,8.11e-38,-1.60255e-06,-3.40794e-12,8.10953e-38,0,-1.13771e-13,0,0,-2.92674,0.057702,0.0884128,2.43315,0.199996,0.561327,0.0505412,0,0.10744,0.057702,-1367293584,243853269,-1367293584,243853269,254855241,-1367293584,-1367293536,-1367293536,-0.261799,-0.261799,1.81988e-06,-1.5,3.94113e+12,0,0,3,2.43315,0.199996,0,0,0,0
1290,-3.34124e-12,8.11e-38,-1.60255e-06,-3.40794e-12,8.10953e-38,-3.92437e-12,-1.13772e-13,0,0,-2.92674,0.057702,0.0884128,2.4454,0.201099,0.555171,0.049987,0,0.10744,0.057702,-1367293584,243853269,-1367293584,243853269,254855241,-1367293584,-1367293536,-1367293536,-0.261799,-0.261799,1.74079e-06,-1.5,3.94113e+12,0,0,3,2.4454,0.201099,0,0,0,0
1300,-3.34124e-12,8.11e-38,-1.60255e-06,-3.40794e-12,8.10953e-38,0,-1.13772e-13,0,0,-2.92674,0.057702,0.0884128,2.45698,0.202141,0.549361,0.0494638,0,0.10744,0.057702,-1367293584,243853269,-1367293584,243853269,254855241,-1367293584,-1367293536,-1367293536,-0.261799,-0.261799,1.66863e-06,-1.5,3.94113e+12,0,0,3,2.45698,0.202141,0,0,0,0
1310,-3.34124e-12,8.11e-38,-1.60255e-06,-3.40794e-12,8.10953e-38,-3.92437e-12,-1.13773e-13,0,0,-2.92674,0.057702,0.0884128,2.46897,0.203221,0.543337,0.0489214,0,0.10744,0.057702,-1367293584,243853269,-1367293584,243853269,254855241,-1367293584,-1367293536,-1367293536,-0.261799,-0.261799,1.59612e-06,-1.5,3.94113e+12,0,0,3,2.46897,0.203221,0,0,0,0
1320,-3.34124e-12,8.11e-38,-1.60255e-06,-3.40794e-12,8.10953e-38,0,-1.13773e-13,0,0,-2.92674,0.057702,0.0884128,2.48029,0.204241,0.53765,0.0484094,0,0.10744,0.057702,-1367293584,243853269,-1367293584,243853269,254855241,-1367293584,-1367293536,-1367293536,-0.261799,-0.261799,1.52996e-06,-1.5,3.94113e+12,0,0,3,2.48029,0.204241,0,0,0,0
1330,-3.34124e-12,8.11e-38,-1.60255e-06,-3.40794e-12,8.10953e-38,-3.92437e-12,-1.13774e-13,0,0,-2.92674,0.057702,0.0884128,2.48832,0.204963,0.533629,0.0480473,0,0.10744,0.057702,-1367293584,243853269,-1367293584,243853269,254855241,-1367293584,-1367293536,-1367293536,-0.261799,-0.261799,1.48454e-06,-1.5,3.94113e+12,0,0,3,2.48832,0.204963,0,0,0,0
1340,-3.34124e-12,8.11e-38,-1.60255e-06,-3.40794e-12,8.10953e-38,0,-1.13774e-13,0,0,-2.92674,0.057702,0.0884128,2.49734,0.205776,0.529105,0.0476401,0,0.10744,0.057702,-1367293584,243853269,-1367293584,243853269,254855241,-1367293584,-1367293536,-1367293536,-0.261799,-0.261799,1.43464e-06,-1.5,3.94113e+12,0,0,3,2.49734,0.205776,0,0,0,0
1350,-3.34124e-12,8.11e-38,-1.60255e-06,-3.40794e-12,8.10953e-38,-3.92437e-12,-1.13775e-13,0,0,-2.92674,0.057702,0.0884128,2.50837,0.206769,0.523568,0.0471415,0,0.10744,0.057702,-1367293584,243853269,-1367293584,243853269,254855241,-1367293584,-1367293536,-1367293536,-0.261799,-0.261799,1.37517e-06,-1.5,3.94113e+12,0,0,3,2.50837,0.206769,0,0,0,0
1360,-3.34124e-12,8.11e-38,-1.60255e-06,-3.40794e-12,8.10953e-38,0,-1.13775e-13,0,0,-2.92674,0.057702,0.0884128,2.5198,0.207798,0.517828,0.0466247,0,0.10744,0.057702,-1367293584,243853269,-1367293584,243853269,254855241,-1367293584,-1367293536,-1367293536,-0.261799,-0.261799,1.31547e-06,-1.5,3.94113e+12,0,0,3,2.5198,0.207798,0,0,0,0
1370,-3.34124e-12,8.11e-38,-1.60255e-06,-3.40794e-12,8.10953e-38,-3.92437e-12,-1.13776e-13,0,0,-2.92674,0.057702,0.0884128,2.53009,0.208724,0.512665,0.0461598,0,0.10744,0.057702,-1367293584,243853269,-1367293584,243853269,254855241,-1367293584,-1367293536,-1367293536,-0.261799,-0.261799,1.26348e-06,-1.5,3.94113e+12,0,0,3,2.53009,0.208724,0,0,0,0
1380,-3.34124e-12,8.11e-38,-1.60255e-06,-3.40794e-12,8.10953e-38,0,-1.13776e-13,0,0,-2.92674,0.057702,0.0884128,2.54178,0.209777,0.50679,0.0456308,0,0.10744,0.057702,-1367293584,243853269,-1367293584,243853269,254855241,-1367293584,-1367293536,-1367293536,-0.261799,-0.261799,1.20614e-06,-1.5,3.94113e+12,0,0,3,2.54178,0.209777,0,0,0,0
1390,-3.34124e-12,8.11e-38,-1.60255e-06,-3.40794e-12,8.10953e-38,-3.92437e-12,-1.13777e-13,0,0,-2.92674,0.057702,0.0884128,2.55185,0.210683,0.501738,0.045176,0,0.10744,0.057702,-1367293584,243853269,-1367293584,243853269,254855241,-1367293584,-1367293536,-1367293536,-0.261799,-0.261799,1.15851e-06,-1.5,3.94113e+12,0,0,3,2.55185,0.210683,0,0,0,0
1400,-3.34124e-12,8.11e-38,-1.60255e-06,-3.40794e-12,8.10953e-38,0,-1.13777e-13,0,0,-2.92674,0.057702,0.0884128,2.56329,0.211714,0.495987,0.0446582,0,0.10744,0.057702,-1367293584,243853269,-1367293584,243853269,254855241,-1367293584,-1367293536,-1367293536,-0.261799,-0.261799,1.10594e-06,-1.5,3.94113e+12,0,0,3,2.56329,0.211714,0,0,0,0
1410,-3.34124e-12,8.11e-38,-1.60255e-06,-3.40794e-12,8.10953e-38,-3.92437e-12,-1.13778e-13,0,0,-2.92674,0.057702,0.0884128,2.57266,0.212557,0.491289,0.0442352,0,0.10744,0.057702,-1367293584,243853269,-1367293584,243853269,254855241,-1367293584,-1367293536,-1367293536,-0.261799,-0.261799,1.06441e-06,-1.5,3.94113e+12,0,0,3,2.57266,0.212557,0,0,0,0
1420,-3.34124e-12,8.11e-38,-1.60255e-06,-3.40794e-12,8.10953e-38,0,-1.13779e-13,0,0,-2.92674,0.057702,0.0884128,2.58386,0.213566,0.485659,0.0437282,0,0.10744,0.057702,-1367293584,243853269,-1367293584,243853269,254855241,-1367293584,-1367293536,-1367293536,-0.261799,-0.261799,1.0161e-06,-1.5,3.94113e+12,0,0,3,2.58386,0.213566,0,0,0,0
1430,-3.34124e-12,8.11e-38,-1.60255e-06,-3.40794e-12,8.10953e-38,-3.92437e-12,-1.13779e-13,0,0,-2.92674,0.057702,0.0884128,2.59351,0.214435,0.480817,0.0432922,0,0.10744,0.057702,-1367293584,243853269,-1367293584,243853269,254855241,-1367293584,-1367293536,-1367293536,-0.261799,-0.261799,9.75945e-07,-1.5,3.94113e+12,0,0,3,2.59351,0.214435,0,0,0,0
1440,-3.34124e-12,8.11e-38,-1.60255e-06,-3.40794e-12,8.10953e-38,0,-1.1378e-13,0,0,-2.92674,0.057702,0.0884128,2.604,0.21538,0.475544,0.0428175,0,0.10744,0.057702,-1367293584,243853269,-1367293584,243853269,254855241,-1367293584,-1367293536,-1367293536,-0.261799,-0.261799,9.33531e-07,-1.5,3.94113e+12,0,0,3,2.604,0.21538,0,0,0,0
1450,-3.34124e-12,8.11e-38,-1.60255e-06,-3.40794e-12,8.10953e-38,-3.92437e-12,-1.1378e-13,0,0,-2.92674,0.057702,0.0884128,2.61204,0.216103,0.471513,0.0424546,0,0.10744,0.057702,-1367293584,243853269,-1367293584,243853269,254855241,-1367293584,-1367293536,-1367293536,-0.261799,-0.261799,9.02148e-07,-1.5,3.94113e+12,0,0,3,2.61204,0.216103,0,0,0,0
1460,-3.34124e-12,8.11e-38,-1.60255e-06,-3.40794e-12,8.10953e-38,0,-1.13781e-13,0,0,-2.92674,0.057702,0.0884128,2.61955,0.216779,0.467752,0.0421159,0,0.10744,0.057702,-1367293584,243853269,-1367293584,243853269,254855241,-1367293584,-1367293536,-1367293536,-0.261799,-0.261799,8.73595e-07,-1.5,3.94113e+12,0,0,3,2.61955,0.216779,0,0,0,0
1470,-3.34124e-12,8.11e-38,-1.60255e-06,-3.40794e-12,8.10953e-38,-3.92437e-12,-1.13781e-13,0,0,-2.92674,0.057702,0.0884128,2.62976,0.217698,0.462622,0.041654,0,0.10744,0.057702,-1367293584,243853269,-1367293584,243853269,254855241,-1367293584,-1367293536,-1367293536,-0.261799,-0.261799,8.3563e-07,-1.5,3.94113e+12,0,0,3,2.62976,0.217698,0,0,0,0
1480,-3.34124e-12,8.11e-38,-1.60255e-06,-3.40794e-12,8.10953e-38,0,-1.13782e-13,0,0,-2.92674,0.057702,0.0884128,2.6394,0.218567,0.457781,0.0412181,0,0.10744,0.057702,-1367293584,243853269,-1367293584,243853269,254855241,-1367293584,-1367293536,-1367293536,-0.261799,-0.261799,8.00992e-07,-1.5,3.94113e+12,0,0,3,2.6394,0.218567,0,0,0,0
1490,-3.34124e-12,8.11e-38,-1.60255e-06,-3.40794e-12,8.10953e-38,-3.92437e-12,-1.13782e-13,0,0,-2.92674,0.057702,0.0884128,2.64939,0.219466,0.45276,0.0407661,0,0.10744,0.057702,-1367293584,243853269,-1367293584,243853269,254855241,-1367293584,-1367293536,-1367293536,-0.261799,-0.261799,7.66181e-07,-1.5,3.94113e+12,0,0,3,2.64939,0.219466,0,0,0,0
1500,-3.34124e-12,8.11e-38,-1.60255e-06,-3.40794e-12,8.10953e-38,0,-1.13783e-13,0,0,-2.92674,0.057702,0.0884128,2.65838,0.220276,0.448246,0.0403596,0,0.10744,0.057702,-1367293584,243853269,-1367293584,243853269,254855241,-1367293584,-1367293536,-1367293536,-0.261799,-0.261799,7.359e-07,-1.5,3.94113e+12,0,0,3,2.65838,0.220276,0,0,0,0
1510,-3.34124e-12,8.11e-38,-1.60255e-06,-3.40794e-12,8.10953e-38,-3.92437e-12,-1.13783e-13,0,0,-2.92674,0.057702,0.0884128,2.66861,0.221197,0.443109,0.0398971,0,0.10744,0.057702,-1367293584,243853269,-1367293584,243853269,254855241,-1367293584,-1367293536,-1367293536,-0.261799,-0.261799,7.02505e-07,-1.5,3.94113e+12,0,0,3,2.66861,0.221197,0,0,0,0
1520,-3.34124e-12,8.11e-38,-1.60255e-06,-3.40794e-12,8.10953e-38,0,-1.13784e-13,0,0,-2.92674,0.057702,0.0884128,2.67741,0.221989,0.438692,0.0394994,0,0.10744,0.057702,-1367293584,243853269,-1367293584,243853269,254855241,-1367293584,-1367293536,-1367293536,-0.261799,-0.261799,6.74765e-07,-1.5,3.94113e+12,0,0,3,2.67741,0.221989,0,0,0,0
1530,-3.34124e-12,8.11e-38,-1.60255e-06,-3.40794e-12,8.10953e-38,-3.92437e-12,-1.13785e-13,0,0,-2.92674,0.057702,0.0884128,2.68742,0.22289,0.433664,0.0390467,0,0.10744,0.057702,-1367293584,243853269,-1367293584,243853269,254855241,-1367293584,-1367293536,-1367293536,-0.261799,-0.261799,6.44145e-07,-1.5,3.94113e+12,0,0,3,2.68742,0.22289,0,0,0,0
1540,-3.34124e-12,8.11e-38,-1.60255e-06,-3.40794e-12,8.10953e-38,0,-1.13785e-13,0,0,-2.92674,0.057702,0.0884128,2.69604,0.223666,0.429342,0.0386575,0,0.10744,0.057702,-1367293584,243853269,-1367293584,243853269,254855241,-1367293584,-1367293536,-1367293536,-0.261799,-0.261799,6.18709e-07,-1.5,3.94113e+12,0,0,3,2.69604,0.223666,0,0,0,0
1550,-3.34124e-12,8.11e-38,-1.60255e-06,-3.40794e-12,8.10953e-38,-3.92437e-12,-1.13786e-13,0,0,-2.92674,0.057702,0.0884128,2.70541,0.22451,0.424635,0.0382337,0,0.10744,0.057702,-1367293584,243853269,-1367293584,243853269,254855241,-1367293584,-1367293536,-1367293536,-0.261799,-0.261799,5.91848e-07,-1.5,3.94113e+12,0,0,3,2.70541,0.22451,0,0,0,0
1560,-3.34124e-12,8.11e-38,-1.60255e-06,-3.40794e-12,8.10953e-38,0,-1.13786e-13,0,0,-2.92674,0.057702,0.0884128,2.7151,0.225382,0.419768,0.0377955,0,0.10744,0.057702,-1367293584,243853269,-1367293584,243853269,254855241,-1367293584,-1367293536,-1367293536,-0.261799,-0.261799,5.6499e-07,-1.5,3.94113e+12,0,0,3,2.7151,0.225382,0,0,0,0
1570,-3.34124e-12,8.11e-38,-1.60255e-06,-3.40794e-12,8.10953e-38,-3.92437e-12,-1.13787e-13,0,0,-2.92674,0.057702,0.0884128,2.72136,0.225947,0.416628,0.0375128,0,0.10744,0.057702,-1367293584,243853269,-1367293584,243853269,254855241,-1367293584,-1367293536,-1367293536,-0.261799,-0.261799,5.4822e-07,-1.5,3.94113e+12,0,0,3,2.72136,0.225947,0,0,0,0
1580,-3.34124e-12,8.11e-38,-1.60255e-06,-3.40794e-12,8.10953e-38,0,-1.13787e-13,0,0,-2.92674,0.057702,0.0884128,2.72799,0.226544,0.413305,0.0372135,0,0.10744,0.057702,-1367293584,243853269,-1367293584,243853269,254855241,-1367293584,-1367293536,-1367293536,-0.261799,-0.261799,5.30869e-07,-1.5,3.94113e+12,0,0,3,2.72799,0.226544,0,0,0,0
1590,-3.34124e-12,8.11e-38,-1.60255e-06,-3.40794e-12,8.10953e-38,-3.92437e-12,-1.13788e-13,0,0,-2.92674,0.057702,0.0884128,2.73661,0.227319,0.408978,0.036824,0,0.10744,0.057702,-1367293584,243853269,-1367293584,243853269,254855241,-1367293584,-1367293536,-1367293536,-0.261799,-0.261799,5.08843e-07,-1.5,3.94113e+12,0,0,3,2.73661,0.227319,0,0,0,0
1600,-3.34124e-12,8.11e-38,-1.60255e-06,-3.40794e-12,8.10953e-38,0,-1.13788e-13,0,0,-2.92674,0.057702,0.0884128,2.74554,0.228123,0.404493,0.0364202,0,0.10744,0.057702,-1367293584,243853269,-1367293584,243853269,254855241,-1367293584,-1367293536,-1367293536,-0.261799,-0.261799,4.86729e-07,-1.5,3.94113e+12,0,0,3,2.74554,0.228123,0,0,0,0
1610,-3.34124e-12,8.11e-38,-1.60255e-06,-3.40794e-12,8.10953e-38,-3.92437e-12,-1.13789e-13,0,0,-2.92674,0.057702,0.0884128,2.75437,0.228918,0.400059,0.0360209,0,0.10744,0.057702,-1367293584,243853269,-1367293584,243853269,254855241,-1367293584,-1367293536,-1367293536,-0.261799,-0.261799,4.65598e-07,-1.5,3.94113e+12,0,0,3,2.75437,0.228918,0,0,0,0
1620,-3.34124e-12,8.11e-38,-1.60255e-06,-3.40794e-12,8.10953e-38,0,-1.13789e-13,0,0,-2.92674,0.057702,0.0884128,2.76271,0.229669,0.395871,0.0356438,0,0.10744,0.057702,-1367293584,243853269,-1367293584,243853269,254855241,-1367293584,-1367293536,-1367293536,-0.261799,-0.261799,4.4628e-07,-1.5,3.94113e+12,0,0,3,2.76271,0.229669,0,0,0,0
1630,-3.34124e-12,8.11e-38,-1.60255e-06,-3.40794e-12,8.10953e-38,-3.92437e-12,-1.1379e-13,0,0,-2.92674,0.057702,0.0884128,2.77096,0.230412,0.391727,0.0352707,0,0.10744,0.057702,-1367293584,243853269,-1367293584,243853269,254855241,-1367293584,-1367293536,-1367293536,-0.261799,-0.261799,4.27763e-07,-1.5,3.94113e+12,0,0,3,2.77096,0.230412,0,0,0,0
1640,-3.34124e-12,8.11e-38,-1.60255e-06,-3.40794e-12,8.10953e-38,0,-1.1379e-13,0,0,-2.92674,0.057702,0.0884128,2.77951,0.231182,0.387431,0.0348839,0,0.10744,0.057702,-1367293584,243853269,-1367293584,243853269,254855241,-1367293584,-1367293536,-1367293536,-0.261799,-0.261799,4.09173e-07,-1.5,3.94113e+12,0,0,3,2.77951,0.231182,0,0,0,0
1650,-3.34124e-12,8.11e-38,-1.60255e-06,-3.40794e-12,8.10953e-38,-3.92437e-12,-1.13791e-13,0,0,-2.92674,0.057702,0.0884128,2.78758,0.231909,0.383375,0.0345187,0,0.10744,0.057702,-1367293584,243853269,-1367293584,243853269,254855241,-1367293584,-1367293536,-1367293536,-0.261799,-0.261799,3.92196e-07,-1.5,3.94113e+12,0,0,3,2.78758,0.231909,0,0,0,0
1660,-3.34124e-12,8.11e-38,-1.60255e-06,-3.40794e-12,8.10953e-38,0,-1.13792e-13,0,0,-2.92674,0.057702,0.0884128,2.79595,0.232662,0.379172,0.0341403,0,0.10744,0.057702,-1367293584,243853269,-1367293584,243853269,254855241,-1367293584,-1367293536,-1367293536,-0.261799,-0.261799,3.75169e-07,-1.5,3.94113e+12,0,0,3,2.79595,0.232662,0,0,0,0
1670,-3.34124e-12,8.11e-38,-1.60255e-06,-3.40794e-12,8.10953e-38,-3.92437e-12,-1.13792e-13,0,0,-2.92674,0.057702,0.0884128,2.80386,0.233374,0.375203,0.0337829,0,0.10744,0.057702,-1367293584,243853269,-1367293584,243853269,254855241,-1367293584,-1367293536,-1367293536,-0.261799,-0.261799,3.59603e-07,-1.5,3.94113e+12,0,0,3,2.80386,0.233374,0,0,0,0
1680,-3.34124e-12,8.11e-38,-1.60255e-06,-3.40794e-12,8.10953e-38,0,-1.13793e-13,0,0,-2.92674,0.057702,0.0884128,2.81168,0.234078,0.371276,0.0334293,0,0.10744,0.057702,-1367293584,243853269,-1367293584,243853269,254855241,-1367293584,-1367293536,-1367293536,-0.261799,-0.261799,3.44682e-07,-1.5,3.94113e+12,0,0,3,2.81168,0.234078,0,0,0,0
1690,-3.34124e-12,8.11e-38,-1.60255e-06,-3.40794e-12,8.10953e-38,-3.92437e-12,-1.13793e-13,0,0,-2.92674,0.057702,0.0884128,2.81795,0.234643,0.368129,0.0331459,0,0.10744,0.057702,-1367293584,243853269,-1367293584,243853269,254855241,-1367293584,-1367293536,-1367293536,-0.261799,-0.261799,3.33095e-07,-1.5,3.94113e+12,0,0,3,2.81795,0.234643,0,0,0,0
1700,-3.34124e-12,8.11e-38,-1.60255e-06,-3.40794e-12,8.10953e-38,0,-1.13794e-13,0,0,-2.92674,0.057702,0.0884128,2.82381,0.235171,0.365192,0.0328815,0,0.10744,0.057702,-1367293584,243853269,-1367293584,243853269,254855241,-1367293584,-1367293536,-1367293536,-0.261799,-0.261799,3.22559e-07,-1.5,3.94113e+12,0,0,3,2.82381,0.235171,0,0,0,0
1710,-3.34124e-12,8.11e-38,-1.60255e-06,-3.40794e-12,8.10953e-38,-3.92437e-12,-1.13794e-13,0,0,-2.92674,0.057702,0.0884128,2.83142,0.235856,0.361369,0.0325373,0,0.10744,0.057702,-1367293584,243853269,-1367293584,243853269,254855241,-1367293584,-1367293536,-1367293536,-0.261799,-0.261799,3.09176e-07,-1.5,3.94113e+12,0,0,3,2.83142,0.235856,0,0,0,0
1720,-3.34124e-12,8.11e-38,-1.60255e-06,-3.40794e-12,8.10953e-38,0,-1.13795e-13,0,0,-2.92674,0.057702,0.0884128,2.84876,0.237417,0.352547,0.031743,0,0.10744,0.057702,-1367293584,243853269,-1367293584,243853269,254855241,-1367293584,-1367293536,-1367293536,-0.261799,-0.261799,2.7931e-07,-1.5,3.94113e+12,0,0,3,2.84876,0.237417,0,0,0,0
1730,-3.34124e-12,8.11e-38,-1.60255e-06,-3.40794e-12,8.10953e-38,-3.92437e-12,-1.13795e-13,0,0,-2.92674,0.057702,0.0884128,2.85784,0.238235,0.34798,0.0313318,0,0.10744,0.057702,-1367293584,243853269,-1367293584,243853269,254855241,-1367293584,-1367293536,-1367293536,-0.261799,-0.261799,2.64989e-07,-1.5,3.94113e+12,0,0,3,2.85784,0.238235,0,0,0,0
1740,-3.34124e-12,8.11e-38,-1.60255e-06,-3.40794e-12,8.10953e-38,0,-1.13796e-13,0,0,-2.92674,0.057702,0.0884128,2.8685,0.239194,0.342605,0.0308478,0,0.10744,0.057702,-1367293584,243853269,-1367293584,243853269,254855241,-1367293584,-1367293536,-1367293536,-0.261799,-0.261799,2.48779e-07,-1.5,3.94113e+12,0,0,3,2.8685,0.239194,0,0,0,0
1750,-3.34124e-12,8.11e-38,-1.60255e-06,-3.40794e-12,8.10953e-38,-3.92437e-12,-1.13796e-13,0,0,-2.92674,0.057702,0.0884128,2.87597,0.239867,0.338848,0.0305095,0,0.10744,0.057702,-1367293584,243853269,-1367293584,243853269,254855241,-1367293584,-1367293536,-1367293536,-0.261799,-0.261799,2.37967e-07,-1.5,3.94113e+12,0,0,3,2.87597,0.239867,0,0,0,0
1760,-3.34124e-12,8.11e-38,-1.60255e-06,-3.40794e-12,8.10953e-38,0,-1.13797e-13,0,0,-2.92674,0.057702,0.0884128,2.88304,0.240503,0.335301,0.0301901,0,0.10744,0.057702,-1367293584,243853269,-1367293584,243853269,254855241,-1367293584,-1367293536,-1367293536,-0.261799,-0.261799,2.28094e-07,-1.5,3.94113e+12,0,0,3,2.88304,0.240503,0,0,0,0
1770,-3.34124e-12,8.11e-38,-1.60255e-06,-3.40794e-12,8.10953e-38,-3.92437e-12,-1.13798e-13,0,0,-2.92674,0.057702,0.0884128,2.89036,0.241163,0.331625,0.0298592,0,0.10744,0.057702,-1367293584,243853269,-1367293584,243853269,254855241,-1367293584,-1367293536,-1367293536,-0.261799,-0.261799,2.18191e-07,-1.5,3.94113e+12,0,0,3,2.89036,0.241163,0,0,0,0
1780,-3.34124e-12,8.11e-38,-1.60255e-06,-3.40794e-12,8.10953e-38,0,-1.13798e-13,0,0,-2.92674,0.057702,0.0884128,2.89727,0.241785,0.328153,0.0295466,0,0.10744,0.057702,-1367293584,243853269,-1367293584,243853269,254855241,-1367293584,-1367293536,-1367293536,-0.261799,-0.261799,2.09138e-07,-1.5,3.94113e+12,0,0,3,2.89727,0.241785,0,0,0,0
1790,-3.34124e-12,8.11e-38,-1.60255e-06,-3.40794e-12,8.10953e-38,-3.92437e-12,-1.13799e-13,0,0,-2.92674,0.057702,0.0884128,2.90411,0.242401,0.324718,0.0292373,0,0.10744,0.057702,-1367293584,243853269,-1367293584,243853269,254855241,-1367293584,-1367293536,-1367293536,-0.261799,-0.261799,2.00461e-07,-1.5,3.94113e+12,0,0,3,2.90411,0.242401,0,0,0,0
1800,-3.34124e-12,8.11e-38,-1.60255e-06,-3.40794e-12,8.10953e-38,0,-1.13799e-13,0,0,-2.92674,0.057702,0.0884128,2.9112,0.243039,0.321157,0.0289167,0,0.10744,0.057702,-1367293584,243853269,-1367293584,243853269,254855241,-1367293584,-1367293536,-1367293536,-0.261799,-0.261799,1.91749e-07,-1.5,3.94113e+12,0,0,3,2.9112,0.243039,0,0,0,0
1810,-3.34124e-12,8.11e-38,-1.60255e-06,-3.40794e-12,8.10953e-38,-3.92437e-12,-1.138e-13,0,0,-2.92674,0.057702,0.0884128,2.91631,0.243499,0.318595,0.028686,0,0.10744,0.057702,-1367293584,243853269,-1367293584,243853269,254855241,-1367293584,-1367293536,-1367293536,-0.261799,-0.261799,1.85684e-07,-1.5,3.94113e+12,0,0,3,2.91631,0.243499,0,0,0,0
1820,-3.34124e-12,8.11e-38,-1.60255e-06,-3.40794e-12,8.10953e-38,0,-1.138e-13,0,0,-2.92674,0.057702,0.0884128,2.92138,0.243956,0.316054,0.0284572,0,0.10744,0.057702,-1367293584,243853269,-1367293584,243853269,254855241,-1367293584,-1367293536,-1367293536,-0.261799,-0.261799,1.79807e-07,-1.5,3.94113e+12,0,0,3,2.92138,0.243956,0,0,0,0
1830,-3.34124e-12,8.11e-38,-1.60255e-06,-3.40794e-12,8.10953e-38,-3.92437e-12,-1.13801e-13,0,0,-2.92674,0.057702,0.0884128,2.92828,0.244577,0.312589,0.0281452,0,0.10744,0.057702,-1367293584,243853269,-1367293584,243853269,254855241,-1367293584,-1367293536,-1367293536,-0.261799,-0.261799,1.72001e-07,-1.5,3.94113e+12,0,0,3,2.92828,0.244577,0,0,0,0
1840,-3.34124e-12,8.11e-38,-1.60255e-06,-3.40794e-12,8.10953e-38,0,-1.13801e-13,0,0,-2.92674,0.057702,0.0884128,2.9348,0.245164,0.309317,0.0278506,0,0.10744,0.057702,-1367293584,243853269,-1367293584,243853269,254855241,-1367293584,-1367293536,-1367293536,-0.261799,-0.261799,1.64871e-07,-1.5,3.94113e+12,0,0,3,2.9348,0.245164,0,0,0,0
1850,-3.34124e-12,8.11e-38,-1.60255e-06,-3.40794e-12,8.10953e-38,-3.92437e-12,-1.13802e-13,0,0,-2.92674,0.057702,0.0884128,2.94124,0.245744,0.306079,0.0275591,0,0.10744,0.057702,-1367293584,243853269,-1367293584,243853269,254855241,-1367293584,-1367293536,-1367293536,-0.261799,-0.261799,1.5803e-07,-1.5,3.94113e+12,0,0,3,2.94124,0.245744,0,0,0,0
1860,-3.34124e-12,8.11e-38,-1.60255e-06,-3.40794e-12,8.10953e-38,0,-1.13802e-13,0,0,-2.92674,0.057702,0.0884128,2.94762,0.246319,0.302875,0.0272706,0,0.10744,0.057702,-1367293584,243853269,-1367293584,243853269,254855241,-1367293584,-1367293536,-1367293536,-0.261799,-0.261799,1.51474e-07,-1.5,3.94113e+12,0,0,3,2.94762,0.246319,0,0,0,0
