timestamp,A_x,A_y,A_z,P,Q,R,Phi,Theta,Psi,poseX,poseY,poseZ,state_X,state_Y,state_Z,state_VzB,state_Bx,state_By,state_Bz,p1_x,p1_y,p2_x,p2_y,p3_x,p3_y,p4_x,p4_y,roll,pitch,yaw,alt,targetHeading,highLevelState,lowLevelState,gateNumber,filtered_x,filtered_y,x_OT,y_OT,vx_OT,vy_OT,filtered_vx,filtered_vygateArearansac_corr_x,ransac_corr_y,ransac_corr_vx,ransac_corr_vy,detectionTimeStamppTermX,dTermX,pTermY,dTermY,vxcmd,vycmd
5677,0,0,0,0,0,0,0,0,0,0,0,0,0,0,0,0,0,0,0,0,0,0,0,0,0,0,0,0,-0.0348889,0,-1.5,-nan,0,0,0,0,0,0,0,0,0,0,0,1.9603e-19,0,0,0,0,0,0,0,0,0,0,0
6215,-3.10495e-12,0,-1.50848e-06,-3.18057e-12,0,0,0,0,0,0,0,0,0,0,0,0,0,0,0,0,0,0,0,0,0,0,0,0,-0.0348889,0,-1.5,-nan,0,0,0,0,0,0,0,0,0,0,0,1.9603e-19,0,0,0,0,0,0,0,0,0,0,0
6228,-3.10495e-12,0,-1.50848e-06,-3.18057e-12,0,0,0,0,0,0,0,0,0,0,0,0,0,0,0,0,0,0,0,0,0,0,0,0,-0.0348889,0,-1.5,-nan,0,0,0,0,0,0,0,0,0,0,0,1.9603e-19,0,0,0,0,0,0,0,0,0,0,0
6244,-3.10495e-12,0,-1.50848e-06,-3.18057e-12,0,0,0,0,0,0,0,0,0,0,0,0,0,0,0,0,0,0,0,0,0,0,0,0,-0.0348889,0,-1.5,-nan,0,0,0,0,0,0,0,0,0,0,0,1.9603e-19,0,0,0,0,0,0,0,0,0,0,0
6260,-3.10495e-12,0,-1.50848e-06,-3.18057e-12,0,0,0,0,0,0,0,0,0,0,0,0,0,0,0,0,0,0,0,0,0,0,0,0,-0.0348889,0,-1.5,-nan,0,0,0,0,0,0,0,0,0,0,0,1.9603e-19,0,0,0,0,0,0,0,0,0,0,0
6276,-3.10495e-12,0,-1.50848e-06,-3.18057e-12,0,0,0,0,0,0,0,0,0,0,0,0,0,0,0,0,0,0,0,0,0,0,0,0,-0.0348889,0,-1.5,-nan,0,0,0,0,0,0,0,0,0,0,0,1.9603e-19,0,0,0,0,0,0,0,0,0,0,0
6291,-3.10495e-12,0,-1.50848e-06,-3.18057e-12,0,0,0,0,0,0,0,0,0,0,0,0,0,0,0,0,0,0,0,0,0,0,0,0,-0.0348889,0,-1.5,-nan,0,0,0,0,0,0,0,0,0,0,0,1.9603e-19,0,0,0,0,0,0,0,0,0,0,0
6307,-3.10495e-12,0,-1.50848e-06,-3.18057e-12,0,0,0,0,0,0,0,0,0,0,0,0,0,0,0,0,0,0,0,0,0,0,0,0,-0.0348889,0,-1.5,-nan,0,0,0,0,0,0,0,0,0,0,0,1.9603e-19,0,0,0,0,0,0,0,0,0,0,0
6322,-3.10495e-12,0,-1.50848e-06,-3.18057e-12,0,0,0,0,0,0,0,0,0,0,0,0,0,0,0,0,0,0,0,0,0,0,0,0,-0.0348889,0,-1.5,-nan,0,0,0,0,0,0,0,0,0,0,0,1.9603e-19,0,0,0,0,0,0,0,0,0,0,0
6339,-3.10495e-12,0,-1.50848e-06,-3.18057e-12,0,0,0,0,0,0,0,0,0,0,0,0,0,0,0,0,0,0,0,0,0,0,0,0,-0.0348889,0,-1.5,-nan,0,0,0,0,0,0,0,0,0,0,0,1.9603e-19,0,0,0,0,0,0,0,0,0,0,0
6364,-3.10495e-12,0,-1.50848e-06,-3.18057e-12,0,0,0,0,0,0,0,0,0,0,0,0,0,0,0,0,0,0,0,0,0,0,0,0,-0.0348889,0,-1.5,-nan,0,0,0,0,0,0,0,0,0,0,0,1.9603e-19,0,0,0,0,0,0,0,0,0,0,0
6377,-3.10495e-12,0,-1.50848e-06,-3.18057e-12,0,0,0,0,0,0,0,0,0,0,0,0,0,0,0,0,0,0,0,0,0,0,0,0,-0.0348889,0,-1.5,-nan,0,0,0,0,0,0,0,0,0,0,0,1.9603e-19,0,0,0,0,0,0,0,0,0,0,0
6392,-3.10495e-12,0,-1.50848e-06,-3.18057e-12,0,0,0,0,0,0,0,0,0,0,0,0,0,0,0,0,0,0,0,0,0,0,0,0,-0.0348889,0,-1.5,-nan,0,0,0,0,0,0,0,0,0,0,0,1.9603e-19,0,0,0,0,0,0,0,0,0,0,0
6474,-3.10495e-12,0,-1.50848e-06,-3.18057e-12,0,0,0,0,0,-7.62793,-5.21781,0.122397,0,0,0,0,0,-6.05027,-5.21781,570,119,570,119,630,112,571,175,0,-0.0348889,0,-1.5,-nan,0,0,0,0,0,0,0,0,0,0,0,3843,0,0,0,0,6465,0,0,0,0,0,0
6490,-3.10495e-12,0,-1.50848e-06,-3.18057e-12,0,0,0,0,0,-7.62793,-5.21781,0.122397,0,0,0,0,0,-6.05027,-5.21781,570,119,570,119,630,112,571,175,0,-0.0348889,0,-1.5,-nan,0,0,0,0,0,0,0,0,0,0,0,3843,0,0,0,0,6465,0,0,0,0,0,0
6506,-3.10495e-12,0,-1.50848e-06,-3.18057e-12,0,0,0,0,0,-7.62793,-5.21781,0.122397,0,0,0,0,0,-6.05027,-5.21781,570,119,570,119,630,112,571,175,0,-0.0348889,0,-1.5,-nan,0,0,0,0,0,0,0,0,0,0,0,3843,0,0,0,0,6465,0,0,0,0,0,0
6522,-3.10495e-12,0,-1.50848e-06,-3.18057e-12,0,0,0,0,0,-7.57998,-5.30001,0.171216,0,0,0,0,0,-5.98458,-5.30001,576,117,576,117,637,108,576,172,0,-0.0348889,0,-1.5,-nan,0,0,0,0,0,0,0,0,0,0,0,3968,0,0,0,0,6515,0,0,0,0,0,0
6538,-3.10495e-12,0,-1.50848e-06,-3.18057e-12,0,0,0,0,0,-7.57998,-5.30001,0.171216,0,0,0,0,0,-5.98458,-5.30001,576,117,576,117,637,108,576,172,0,-0.0348889,0,-1.5,-nan,0,0,0,0,0,0,0,0,0,0,0,3968,0,0,0,0,6515,0,0,0,0,0,0
6553,-3.10495e-12,0,-1.50848e-06,-3.18057e-12,0,0,0,0,0,-7.50445,-5.24315,0.166951,0,0,0,0,0,-5.88109,-5.24315,576,114,576,114,636,108,576,172,0,-0.0348889,0,-1.5,-nan,0,0,0,0,0,0,0,0,0,0,0,3968,0,0,0,0,6547,0,0,0,0,0,0
6569,-3.10495e-12,0,-1.50848e-06,-3.18057e-12,0,0,0,0,0,-7.50445,-5.24315,0.166951,0,0,0,0,0,-5.88109,-5.24315,576,114,576,114,636,108,576,172,0,-0.0348889,0,-1.5,-nan,0,0,0,0,0,0,0,0,0,0,0,3968,0,0,0,0,6547,0,0,0,0,0,0
6590,-3.10495e-12,0,-1.50848e-06,-3.18057e-12,0,0,0,0,0,-7.61368,-5.31019,0.156586,0,0,0,0,0,-6.03075,-5.31019,576,117,576,117,634,110,576,173,0,-0.0348889,0,-1.5,-nan,0,0,0,-6.04101,-5.31245,0,0,0,0,-0.732835,-0.161527,3906,-6.03075,-5.31019,-0.732835,-0.161527,6578,0,0,0,0,0,0
6605,-3.10495e-12,0,-1.50848e-06,-3.18057e-12,0,0,0,0,0,-7.61368,-5.31019,0.156586,0,0,0,0,0,-6.03075,-5.31019,576,117,576,117,634,110,576,173,0,-0.0348889,0,-1.5,-nan,0,0,0,-6.052,-5.31487,0,0,0,0,-0.732835,-0.161527,3906,-6.03075,-5.31019,-0.732835,-0.161527,6578,0,0,0,0,0,0
6620,-3.10495e-12,0,-1.50848e-06,-3.18057e-12,0,0,0,0,0,-7.61368,-5.31019,0.156586,0,0,0,0,0,-6.03075,-5.31019,576,117,576,117,634,110,576,173,0,-0.0348889,0,-1.5,-nan,0,0,0,-6.06299,-5.3173,0,0,0,0,-0.732835,-0.161527,3906,-6.03075,-5.31019,-0.732835,-0.161527,6578,0,0,0,0,0,0
6636,-3.10495e-12,0,-1.50848e-06,-3.18057e-12,0,0,0,0,0,-7.61368,-5.31019,0.156586,0,0,0,0,0,-6.03075,-5.31019,576,117,576,117,634,110,576,173,0,-0.0348889,0,-1.5,-nan,0,0,0,-6.07472,-5.31988,0,0,0,0,-0.732835,-0.161527,3906,-6.03075,-5.31019,-0.732835,-0.161527,6578,0,0,0,0,0,0
6655,-3.10495e-12,0,-1.50848e-06,-3.18057e-12,0,0,0,0,0,-7.54869,-5.25141,0.117586,0,0,0,0,0,-5.94171,-5.25141,575,117,575,117,635,111,576,176,0,-0.0348889,0,-1.5,-nan,0,0,0,-5.93544,-5.24429,0,0,0,0,0.348508,0.395173,3900,-5.94171,-5.25141,0.348508,0.395173,6643,0,0,0,0,0,0
6670,-3.10495e-12,0,-1.50848e-06,-3.18057e-12,0,0,0,0,0,-7.54869,-5.25141,0.117586,0,0,0,0,0,-5.94171,-5.25141,575,117,575,117,635,111,576,176,0,-0.0348889,0,-1.5,-nan,0,0,0,-5.92986,-5.23797,0,0,0,0,0.348508,0.395173,3900,-5.94171,-5.25141,0.348508,0.395173,6643,0,0,0,0,0,0
6689,-3.10495e-12,0,-1.50848e-06,-3.18057e-12,0,0,0,0,0,-7.51797,-5.2294,0.13434,0,0,0,0,0,-5.89961,-5.2294,573,117,573,117,634,110,576,173,0,-0.0348889,0,-1.5,-nan,0,0,0,-5.88933,-5.22085,0,0,0,0,0.541176,0.449766,4095,-5.89961,-5.2294,0.541176,0.449766,6678,0,0,0,0,0,0
6705,-3.10495e-12,0,-1.50848e-06,-3.18057e-12,0,0,0,0,0,-7.51797,-5.2294,0.13434,0,0,0,0,0,-5.89961,-5.2294,573,117,573,117,634,110,576,173,0,-0.0348889,0,-1.5,-nan,0,0,0,-5.88067,-5.21366,0,0,0,0,0.541176,0.449766,4095,-5.89961,-5.2294,0.541176,0.449766,6678,0,0,0,0,0,0
6721,-3.10495e-12,0,-1.50848e-06,-3.18057e-12,0,0,0,0,0,-7.51797,-5.2294,0.13434,0,0,0,0,0,-5.89961,-5.2294,573,117,573,117,634,110,576,173,0,-0.0348889,0,-1.5,-nan,0,0,0,-5.87201,-5.20646,0,0,0,0,0.541176,0.449766,4095,-5.89961,-5.2294,0.541176,0.449766,6678,0,0,0,0,0,0
6736,-3.10495e-12,0,-1.50848e-06,-3.18057e-12,0,0,0,0,0,-7.51797,-5.2294,0.13434,0,0,0,0,0,-5.89961,-5.2294,573,117,573,117,634,110,576,173,0,-0.0348889,0,-1.5,-nan,0,0,0,-5.8639,-5.19971,0,0,0,0,0.541176,0.449766,4095,-5.89961,-5.2294,0.541176,0.449766,6678,0,0,0,0,0,0
6752,-3.10495e-12,0,-1.50848e-06,-3.18057e-12,0,0,0,0,0,-7.51797,-5.2294,0.13434,0,0,0,0,0,-5.89961,-5.2294,573,117,573,117,634,110,576,173,0,-0.0348889,0,-1.5,-nan,0,0,0,-5.85524,-5.19252,0,0,0,0,0.541176,0.449766,4095,-5.89961,-5.2294,0.541176,0.449766,6678,0,0,0,0,0,0
6768,-3.10495e-12,0,-1.50848e-06,-3.18057e-12,0,0,0,0,0,-7.51797,-5.2294,0.13434,0,0,0,0,0,-5.89961,-5.2294,573,117,573,117,634,110,576,173,0,-0.0348889,0,-1.5,-nan,0,0,0,-5.84658,-5.18532,0,0,0,0,0.541176,0.449766,4095,-5.89961,-5.2294,0.541176,0.449766,6678,0,0,0,0,0,0
6784,-3.10495e-12,0,-1.50848e-06,-3.18057e-12,0,0,0,0,0,-7.51797,-5.2294,0.13434,0,0,0,0,0,-5.89961,-5.2294,573,117,573,117,634,110,576,173,0,-0.0348889,0,-1.5,-nan,0,0,0,-5.83792,-5.17813,0,0,0,0,0.541176,0.449766,4095,-5.89961,-5.2294,0.541176,0.449766,6678,0,0,0,0,0,0
6799,-3.10495e-12,0,-1.50848e-06,-3.18057e-12,0,0,0,0,0,-7.51797,-5.2294,0.13434,0,0,0,0,0,-5.89961,-5.2294,573,117,573,117,634,110,576,173,0,-0.0348889,0,-1.5,-nan,0,0,0,-5.8298,-5.17138,0,0,0,0,0.541176,0.449766,4095,-5.89961,-5.2294,0.541176,0.449766,6678,0,0,0,0,0,0
6815,-3.10495e-12,0,-1.50848e-06,-3.18057e-12,0,0,0,0,0,-7.51797,-5.2294,0.13434,0,0,0,0,0,-5.89961,-5.2294,573,117,573,117,634,110,576,173,0,-0.0348889,0,-1.5,-nan,0,0,0,-5.82114,-5.16418,0,0,0,0,0.541176,0.449766,4095,-5.89961,-5.2294,0.541176,0.449766,6678,0,0,0,0,0,0
6831,-3.10495e-12,0,-1.50848e-06,-3.18057e-12,0,0,0,0,0,-7.51797,-5.2294,0.13434,0,0,0,0,0,-5.89961,-5.2294,573,117,573,117,634,110,576,173,0,-0.0348889,0,-1.5,-nan,0,0,0,-5.81249,-5.15699,0,0,0,0,0.541176,0.449766,4095,-5.89961,-5.2294,0.541176,0.449766,6678,0,0,0,0,0,0
6846,-3.10495e-12,0,-1.50848e-06,-3.18057e-12,0,0,0,0,0,-7.51797,-5.2294,0.13434,0,0,0,0,0,-5.89961,-5.2294,573,117,573,117,634,110,576,173,0,-0.0348889,0,-1.5,-nan,0,0,0,-5.80437,-5.15024,0,0,0,0,0.541176,0.449766,4095,-5.89961,-5.2294,0.541176,0.449766,6678,0,0,0,0,0,0
6861,-3.10495e-12,0,-1.50848e-06,-3.18057e-12,0,0,0,0,0,-7.51797,-5.2294,0.13434,0,0,0,0,0,-5.89961,-5.2294,573,117,573,117,634,110,576,173,0,-0.0348889,0,-1.5,-nan,0,0,0,-5.79625,-5.14349,0,0,0,0,0.541176,0.449766,4095,-5.89961,-5.2294,0.541176,0.449766,6678,0,0,0,0,0,0
6877,-3.10495e-12,0,-1.50848e-06,-3.18057e-12,0,0,0,0,0,-7.51797,-5.2294,0.13434,0,0,0,0,0,-5.89961,-5.2294,573,117,573,117,634,110,576,173,0,-0.0348889,0,-1.5,-nan,0,0,0,-5.78759,-5.1363,0,0,0,0,0.541176,0.449766,4095,-5.89961,-5.2294,0.541176,0.449766,6678,0,0,0,0,0,0
6893,-3.10495e-12,0,-1.50848e-06,-3.18057e-12,0,0,0,0,0,-7.51797,-5.2294,0.13434,0,0,0,0,0,-5.89961,-5.2294,573,117,573,117,634,110,576,173,0,-0.0348889,0,-1.5,-nan,0,0,0,-5.77893,-5.1291,0,0,0,0,0.541176,0.449766,4095,-5.89961,-5.2294,0.541176,0.449766,6678,0,0,0,0,0,0
6913,-3.10495e-12,0,-1.50848e-06,-3.18057e-12,0,0,0,0,0,-7.51797,-5.2294,0.13434,0,0,0,0,0,-5.89961,-5.2294,573,117,573,117,634,110,576,173,0,-0.0348889,0,-1.5,-nan,0,0,0,-5.76811,-5.12011,0,0,0,0,0.541176,0.449766,4095,-5.89961,-5.2294,0.541176,0.449766,6678,0,0,0,0,0,0
6929,-3.10495e-12,0,-1.50848e-06,-3.18057e-12,0,0,0,0,0,-7.51797,-5.2294,0.13434,0,0,0,0,0,-5.89961,-5.2294,573,117,573,117,634,110,576,173,0,-0.0348889,0,-1.5,-nan,0,0,0,-5.75945,-5.11291,0,0,0,0,0.541176,0.449766,4095,-5.89961,-5.2294,0.541176,0.449766,6678,0,0,0,0,0,0
6948,-3.10495e-12,0,-1.50848e-06,-3.18057e-12,0,0,0,0,0,-7.71138,-5.37371,0.151714,0,0,0,0,0,-6.16458,-5.37371,576,117,576,117,633,114,576,175,0,-0.0348889,0,-1.5,-nan,0,0,0,-6.17252,-5.37736,0,0,0,0,-0.72135,-0.332202,3782,-6.16458,-5.37371,-0.72135,-0.332202,6939,0,0,0,0,0,0
6964,-3.10495e-12,0,-1.50848e-06,-3.18057e-12,0,0,0,0,0,-7.71138,-5.37371,0.151714,0,0,0,0,0,-6.16458,-5.37371,576,117,576,117,633,114,576,175,0,-0.0348889,0,-1.5,-nan,0,0,0,-6.18406,-5.38268,0,0,0,0,-0.72135,-0.332202,3782,-6.16458,-5.37371,-0.72135,-0.332202,6939,0,0,0,0,0,0
6980,-3.10495e-12,0,-1.50848e-06,-3.18057e-12,0,0,0,0,0,-7.71138,-5.37371,0.151714,0,0,0,0,0,-6.16458,-5.37371,576,117,576,117,633,114,576,175,0,-0.0348889,0,-1.5,-nan,0,0,0,-6.1956,-5.38799,0,0,0,0,-0.72135,-0.332202,3782,-6.16458,-5.37371,-0.72135,-0.332202,6939,0,0,0,0,0,0
6996,-3.10495e-12,0,-1.50848e-06,-3.18057e-12,0,0,0,0,0,-7.71138,-5.37371,0.151714,0,0,0,0,0,-6.16458,-5.37371,576,117,576,117,633,114,576,175,0,-0.0348889,0,-1.5,-nan,0,0,0,-6.20642,-5.39298,0,0,0,0,-0.72135,-0.332202,3782,-6.16458,-5.37371,-0.72135,-0.332202,6939,0,0,0,0,0,0
7012,-3.10495e-12,0,-1.50848e-06,-3.18057e-12,0,0,0,0,0,-7.71138,-5.37371,0.151714,0,0,0,0,0,-6.16458,-5.37371,576,117,576,117,633,114,576,175,0,-0.0348889,0,-1.5,-nan,0,0,0,-6.21869,-5.39862,0,0,0,0,-0.72135,-0.332202,3782,-6.16458,-5.37371,-0.72135,-0.332202,6939,0,0,0,0,0,0
7028,-3.10495e-12,0,-1.50848e-06,-3.18057e-12,0,0,0,0,0,-7.71138,-5.37371,0.151714,0,0,0,0,0,-6.16458,-5.37371,576,117,576,117,633,114,576,175,0,-0.0348889,0,-1.5,-nan,0,0,0,-6.22951,-5.40361,0,0,0,0,-0.72135,-0.332202,3782,-6.16458,-5.37371,-0.72135,-0.332202,6939,0,0,0,0,0,0
7046,-3.10495e-12,0,-1.50848e-06,-3.18057e-12,0,0,0,0,0,-7.6717,-5.33714,0.105305,0,0,0,0,0,-6.11023,-5.33714,576,118,576,118,631,116,576,177,0,-0.0348889,0,-1.5,-nan,0,0,0,-6.11231,-5.33809,0,0,0,0,-0.416083,-0.189111,3782,-6.11023,-5.33714,-0.416083,-0.189111,7043,0,0,0,0,0,0
7062,-3.10495e-12,0,-1.50848e-06,-3.18057e-12,0,0,0,0,0,-7.6717,-5.33714,0.105305,0,0,0,0,0,-6.11023,-5.33714,576,118,576,118,631,116,576,177,0,-0.0348889,0,-1.5,-nan,0,0,0,-6.11855,-5.34092,0,0,0,0,-0.416083,-0.189111,3782,-6.11023,-5.33714,-0.416083,-0.189111,7043,0,0,0,0,0,0
7079,-3.10495e-12,0,-1.50848e-06,-3.18057e-12,0,0,0,0,0,-7.6717,-5.33714,0.105305,0,0,0,0,0,-6.11023,-5.33714,576,118,576,118,631,116,576,177,0,-0.0348889,0,-1.5,-nan,0,0,0,-6.12604,-5.34433,0,0,0,0,-0.416083,-0.189111,3782,-6.11023,-5.33714,-0.416083,-0.189111,7043,0,0,0,0,0,0
7093,-3.10495e-12,0,-1.50848e-06,-3.18057e-12,0,0,0,0,0,-7.6717,-5.33714,0.105305,0,0,0,0,0,-6.11023,-5.33714,576,118,576,118,631,116,576,177,0,-0.0348889,0,-1.5,-nan,0,0,0,-6.13186,-5.34697,0,0,0,0,-0.416083,-0.189111,3782,-6.11023,-5.33714,-0.416083,-0.189111,7043,0,0,0,0,0,0
7109,-3.10495e-12,0,-1.50848e-06,-3.18057e-12,0,0,0,0,0,-7.6717,-5.33714,0.105305,0,0,0,0,0,-6.11023,-5.33714,576,118,576,118,631,116,576,177,0,-0.0348889,0,-1.5,-nan,0,0,0,-6.13852,-5.35,0,0,0,0,-0.416083,-0.189111,3782,-6.11023,-5.33714,-0.416083,-0.189111,7043,0,0,0,0,0,0
7129,-3.10495e-12,0,-1.50848e-06,-3.18057e-12,0,0,0,0,0,-7.6717,-5.33714,0.105305,0,0,0,0,0,-6.11023,-5.33714,576,118,576,118,631,116,576,177,-0.310038,-0.0348889,0,-1.5,-nan,0,0,0,-6.14642,-5.35359,0,0,0,0,-0.416083,-0.189111,3782,-6.11023,-5.33714,-0.416083,-0.189111,7043,0,0,0,0,0,0
7145,-3.10495e-12,0,-1.50848e-06,-3.18057e-12,0,0,0,0,0,-7.6717,-5.33714,0.105305,0,0,0,0,0,-6.11023,-5.33714,576,118,576,118,631,116,576,177,-0.309542,-0.0348889,0,-1.5,-nan,0,0,0,-6.1535,-5.35681,0,0,0,0,-0.416083,-0.189111,3782,-6.11023,-5.33714,-0.416083,-0.189111,7043,0,0,0,0,0,0
7161,-3.10495e-12,0,-1.50848e-06,-3.18057e-12,0,0,0,0,0,-7.6717,-5.33714,0.105305,0,0,0,0,0,-6.11023,-5.33714,576,118,576,118,631,116,576,177,-0.3081,-0.0348889,0,-1.5,-nan,0,0,0,-6.15974,-5.35964,0,0,0,0,-0.416083,-0.189111,3782,-6.11023,-5.33714,-0.416083,-0.189111,7043,0,0,0,0,0,0
7177,-3.10495e-12,0,-1.50848e-06,-3.18057e-12,0,0,0,0,0,-7.6717,-5.33714,0.105305,0,0,0,0,0,-6.11023,-5.33714,576,118,576,118,631,116,576,177,-0.305283,-0.0348889,0,-1.5,-nan,0,0,0,-6.16681,-5.36286,0,0,0,0,-0.416083,-0.189111,3782,-6.11023,-5.33714,-0.416083,-0.189111,7043,0,0,0,0,0,0
7193,-3.10495e-12,0,-1.50848e-06,-3.18057e-12,0,0,0,0,0,-7.6717,-5.33714,0.105305,0,0,0,0,0,-6.11023,-5.33714,576,118,576,118,631,116,576,177,-0.301713,-0.0348889,0,-1.5,-nan,0,0,0,-6.17305,-5.3657,0,0,0,0,-0.416083,-0.189111,3782,-6.11023,-5.33714,-0.416083,-0.189111,7043,0,0,0,0,0,0
7209,-3.10495e-12,0,-1.50848e-06,-3.18057e-12,0,0,0,0,0,-7.6717,-5.33714,0.105305,0,0,0,0,0,-6.11023,-5.33714,576,118,576,118,631,116,576,177,-0.29674,-0.0348889,0,-1.5,-nan,0,0,0,-6.17971,-5.36872,0,0,0,0,-0.416083,-0.189111,3782,-6.11023,-5.33714,-0.416083,-0.189111,7043,0,0,0,0,0,0
7225,-3.10495e-12,0,-1.50848e-06,-3.18057e-12,0,0,0,0,0,-7.6717,-5.33714,0.105305,0,0,0,0,0,-6.11023,-5.33714,576,118,576,118,631,116,576,177,-0.290518,-0.0348889,0,-1.5,-nan,0,0,0,-6.18637,-5.37175,0,0,0,0,-0.416083,-0.189111,3782,-6.11023,-5.33714,-0.416083,-0.189111,7043,0,0,0,0,0,0
7240,-3.10495e-12,0,-1.50848e-06,-3.18057e-12,0,0,0,0,0,-7.6717,-5.33714,0.105305,0,0,0,0,0,-6.11023,-5.33714,576,118,576,118,631,116,576,177,-0.282992,-0.0348889,0,-1.5,-nan,0,0,0,-6.19303,-5.37477,0,0,0,0,-0.416083,-0.189111,3782,-6.11023,-5.33714,-0.416083,-0.189111,7043,0,0,0,0,0,0
7260,-3.10495e-12,0,-1.50848e-06,-3.18057e-12,0,0,0,0,0,-7.41938,-5.22442,-0.00726242,0,0,0,0,0,-5.76456,-5.22442,576,121,576,121,640,118,579,180,-0.271667,-0.0348889,0,-1.5,-nan,0,0,0,-5.75801,-5.22459,0,0,0,0,0.299659,0.0732344,3968,-5.764,-5.22606,0.299659,0.0732344,7248,0,0,0,0,0,0
7276,-3.10495e-12,0,-1.50848e-06,-3.18057e-12,0,0,0,0,0,-7.41938,-5.22442,-0.00726242,0,0,0,0,0,-5.76456,-5.22442,576,121,576,121,640,118,579,180,-0.261002,-0.0348889,0,-1.5,-nan,0,0,0,-5.75321,-5.22342,0,0,0,0,0.299659,0.0732344,3968,-5.764,-5.22606,0.299659,0.0732344,7248,0,0,0,0,0,0
7292,-3.10495e-12,0,-1.50848e-06,-3.18057e-12,0,0,0,0,0,-7.41938,-5.22442,-0.00726242,0,0,0,0,0,-5.76456,-5.22442,576,121,576,121,640,118,579,180,-0.249646,-0.0348889,0,-1.5,-nan,0,0,0,-5.74872,-5.22232,0,0,0,0,0.299659,0.0732344,3968,-5.764,-5.22606,0.299659,0.0732344,7248,0,0,0,0,0,0
7308,-3.10495e-12,0,-1.50848e-06,-3.18057e-12,0,0,0,0,0,-7.41938,-5.22442,-0.00726242,0,0,0,0,0,-5.76456,-5.22442,576,121,576,121,640,118,579,180,-0.23512,-0.0348889,0,-1.5,-nan,0,0,0,-5.74363,-5.22108,0,0,0,0,0.299659,0.0732344,3968,-5.764,-5.22606,0.299659,0.0732344,7248,0,0,0,0,0,0
7323,-3.10495e-12,0,-1.50848e-06,-3.18057e-12,0,0,0,0,0,-7.41938,-5.22442,-0.00726242,0,0,0,0,0,-5.76456,-5.22442,576,121,576,121,640,118,579,180,-0.220779,-0.0348889,0,-1.5,-nan,0,0,0,-5.73913,-5.21998,0,0,0,0,0.299659,0.0732344,3968,-5.764,-5.22606,0.299659,0.0732344,7248,0,0,0,0,0,0
7338,-3.10495e-12,0,-1.50848e-06,-3.18057e-12,0,0,0,0,0,-7.41938,-5.22442,-0.00726242,0,0,0,0,0,-5.76456,-5.22442,576,121,576,121,640,118,579,180,-0.204952,-0.0348889,0,-1.5,-nan,0,0,0,-5.73464,-5.21888,0,0,0,0,0.299659,0.0732344,3968,-5.764,-5.22606,0.299659,0.0732344,7248,0,0,0,0,0,0
7358,-3.10495e-12,0,-1.50848e-06,-3.18057e-12,0,0,0,0,0,-7.5866,-5.3561,0.0848053,0,0,0,0,0,-5.99364,-5.3561,579,119,579,119,640,115,579,176,-0.182681,-0.0348889,0,-1.5,-nan,0,0,0,-5.99248,-5.35754,0,0,0,0,-0.070777,-0.0677331,3721,-5.99163,-5.35673,-0.070777,-0.0677331,7348,0,0,0,0,0,0
7374,-3.10495e-12,0,-1.50848e-06,-3.18057e-12,0,0,0,0,0,-7.5866,-5.3561,0.0848053,0,0,0,0,0,-5.99364,-5.3561,579,119,579,119,640,115,579,176,-0.160563,-0.0348889,0,-1.5,-nan,0,0,0,-5.99368,-5.3587,0,0,0,0,-0.070777,-0.0677331,3721,-5.99163,-5.35673,-0.070777,-0.0677331,7348,0,0,0,0,0,0
7390,-3.10495e-12,0,-1.50848e-06,-3.18057e-12,0,0,0,0,0,-7.5866,-5.3561,0.0848053,0,0,0,0,0,-5.99364,-5.3561,579,119,579,119,640,115,579,176,-0.139264,-0.0348889,0,-1.5,-nan,0,0,0,-5.99474,-5.35971,0,0,0,0,-0.070777,-0.0677331,3721,-5.99163,-5.35673,-0.070777,-0.0677331,7348,0,0,0,0,0,0
7406,-3.10495e-12,0,-1.50848e-06,-3.18057e-12,0,0,0,0,0,-7.5866,-5.3561,0.0848053,0,0,0,0,0,-5.99364,-5.3561,579,119,579,119,640,115,579,176,-0.113042,-0.0348889,0,-1.5,-nan,0,0,0,-5.99595,-5.36086,0,0,0,0,-0.070777,-0.0677331,3721,-5.99163,-5.35673,-0.070777,-0.0677331,7348,0,0,0,0,0,0
7421,-3.10495e-12,0,-1.50848e-06,-3.18057e-12,0,0,0,0,0,-7.5866,-5.3561,0.0848053,0,0,0,0,0,-5.99364,-5.3561,579,119,579,119,640,115,579,176,-0.0880207,-0.0348889,0,-1.5,-nan,0,0,0,-5.99701,-5.36188,0,0,0,0,-0.070777,-0.0677331,3721,-5.99163,-5.35673,-0.070777,-0.0677331,7348,0,0,0,0,0,0
7437,-3.10495e-12,0,-1.50848e-06,-3.18057e-12,0,0,0,0,0,-7.5866,-5.3561,0.0848053,0,0,0,0,0,-5.99364,-5.3561,579,119,579,119,640,115,579,176,-0.0593475,-0.0348889,0,-1.5,-nan,0,0,0,-5.99814,-5.36296,0,0,0,0,-0.070777,-0.0677331,3721,-5.99163,-5.35673,-0.070777,-0.0677331,7348,0,0,0,0,0,0
7457,-3.10495e-12,0,-1.50848e-06,-3.18057e-12,0,0,0,0,0,-7.62898,-5.34391,0.0437099,0,0,0,0,0,-6.0517,-5.34391,576,124,576,124,637,116,578,179,-0.0205927,-0.0348889,0,-1.5,-nan,0,0,0,-6.0499,-5.34494,0,0,0,0,-0.129749,-0.0663625,3906,-6.04834,-5.34414,-0.129749,-0.0663625,7447,0,0,0,0,0,0
7473,-3.10495e-12,0,-1.50848e-06,-3.18057e-12,0,0,0,0,0,-7.62898,-5.34391,0.0437099,0,0,0,0,0,-6.0517,-5.34391,576,124,576,124,637,116,578,179,0.0127423,-0.0348889,0,-1.5,-nan,0,0,0,-6.05197,-5.346,0,0,0,0,-0.129749,-0.0663625,3906,-6.04834,-5.34414,-0.129749,-0.0663625,7447,0,0,0,0,0,0
7492,-3.10495e-12,0,-1.50848e-06,-3.18057e-12,0,0,0,0,0,-7.73089,-5.41506,0.0710741,0,0,0,0,0,-6.19133,-5.41506,576,125,576,125,637,116,578,177,0.0549795,-0.0348889,0,-1.5,-nan,0,0,0,-6.05543,-5.37545,0,0,0,0,-0.128141,-0.133063,3782,-6.053,-5.37292,-0.128141,-0.133063,7480,0,0,0,0,0,0
7508,-3.10495e-12,0,-1.50848e-06,-3.18057e-12,0,0,0,0,0,-7.73089,-5.41506,0.0710741,0,0,0,0,0,-6.19133,-5.41506,576,125,576,125,637,116,578,177,0.0927118,-0.0348889,0,-1.5,-nan,0,0,0,-6.05748,-5.37758,0,0,0,0,-0.128141,-0.133063,3782,-6.053,-5.37292,-0.128141,-0.133063,7480,0,0,0,0,0,0
7527,-3.10495e-12,0,-1.50848e-06,-3.18057e-12,0,0,0,0,0,-7.80395,-5.46165,0.0827946,0,0,0,0,0,-6.29141,-5.46165,576,124,576,124,636,118,578,177,0.13995,-0.0348889,0,-1.5,-nan,0,0,0,-6.19708,-5.41866,0,0,0,0,-0.286011,-0.170214,3658,-6.19165,-5.41543,-0.286011,-0.170214,7515,0,0,0,0,0,0
7547,-3.10495e-12,0,-1.50848e-06,-3.18057e-12,0,0,0,0,0,-7.59172,-5.31787,0.0307962,0,0,0,0,0,-6.00066,-5.31787,576,124,576,124,637,116,578,180,0.192286,-0.0348889,0,-1.5,-nan,0,0,0,-6.06462,-5.37323,0,0,0,0,-0.127735,-0.0859036,3968,-6.0636,-5.37254,-0.127735,-0.0859036,7541,0,0,0,0,0,0
7563,-3.10495e-12,0,-1.50848e-06,-3.18057e-12,0,0,0,0,0,-7.59172,-5.31787,0.0307962,0,0,0,0,0,-6.00066,-5.31787,576,124,576,124,637,116,578,180,0.235853,-0.0348889,0,-1.5,-nan,0,0,0,-6.06667,-5.37461,0,0,0,0,-0.127735,-0.0859036,3968,-6.0636,-5.37254,-0.127735,-0.0859036,7541,0,0,0,0,0,0
7579,-3.10495e-12,0,-1.50848e-06,-3.18057e-12,0,0,0,0,0,-7.59172,-5.31787,0.0307962,0,0,0,0,0,-6.00066,-5.31787,576,124,576,124,637,116,578,180,0.280689,-0.0348889,0,-1.5,-nan,0,0,0,-6.06871,-5.37598,0,0,0,0,-0.127735,-0.0859036,3968,-6.0636,-5.37254,-0.127735,-0.0859036,7541,0,0,0,0,0,0
7598,-3.10495e-12,0,-1.50848e-06,-3.18057e-12,0,0,0,0,0,-7.53982,-5.26336,0.0186882,0,0,0,0,0,-5.92956,-5.26336,576,123,576,123,637,116,576,180,0.335231,-0.0348889,0,-1.5,-nan,0,0,0,-6.01379,-5.35694,0,0,0,0,-0.034784,-0.0663617,3904,-6.01313,-5.35568,-0.034784,-0.0663617,7586,0,0,0,0,0,0
7618,-3.10495e-12,0,-1.50848e-06,-3.18057e-12,0,0,0,0,0,-7.66969,-5.37239,0.0480965,0,0,0,0,0,-6.10747,-5.37239,576,124,576,124,637,117,578,179,0.39367,-0.0348889,0,-1.5,-nan,0,0,0,-6.07274,-5.37344,0,0,0,0,-0.134288,-0.0777907,3844,-6.07194,-5.37297,-0.134288,-0.0777907,7614,0,0,0,0,0,0
7634,-3.10495e-12,0,-1.50848e-06,-3.18057e-12,0,0,0,0,0,-7.66969,-5.37239,0.0480965,0,0,0,0,0,-6.10747,-5.37239,576,124,576,124,637,117,578,179,0.440789,-0.0348889,0,-1.5,-nan,0,0,0,-6.07489,-5.37469,0,0,0,0,-0.134288,-0.0777907,3844,-6.07194,-5.37297,-0.134288,-0.0777907,7614,0,0,0,0,0,0
7654,-3.10495e-12,0,-1.50848e-06,-3.18057e-12,0,0,0,0,0,-7.75225,-5.42087,0.0808655,0,0,0,0,0,-6.22058,-5.42087,576,123,576,123,635,117,578,179,0.49964,-0.0348889,0,-1.5,-nan,0,0,0,-6.11239,-5.37644,0,0,0,0,-0.165516,-0.0660781,3844,-6.10908,-5.37512,-0.165516,-0.0660781,7642,0,0,0,0,0,0
7670,-3.10497e-12,0,0,-3.18057e-12,0,0,0,0,0,-7.75225,-5.42087,0.0808655,0,0,0,0,0,-6.22058,-5.42087,576,123,576,123,635,117,578,179,0.546318,-0.0348889,0,-1.5,-nan,0,0,0,-6.11504,-5.3775,0,0,0,0,-0.165516,-0.0660781,3844,-6.10908,-5.37512,-0.165516,-0.0660781,7642,0,0,0,0,0,0
7690,-3.10495e-12,0,-1.50848e-06,-3.18057e-12,0,0,0,0,0,-7.55284,-5.28133,0.0219577,0,0,0,0,0,-5.94739,-5.28133,576,123,576,123,637,117,576,180,0.603694,-0.0348889,0,-1.5,-nan,0,0,0,-6.08796,-5.37929,0,0,0,0,-0.131222,-0.0742636,3906,-6.08534,-5.37781,-0.131222,-0.0742636,7677,0,0,0,0,0,0
7706,-3.10495e-12,0,-1.50848e-06,-3.18057e-12,0,0,0,0,0,-7.55284,-5.28133,0.0219577,0,0,0,0,0,-5.94739,-5.28133,576,123,576,123,637,117,576,180,0.648511,-0.0348889,0,-1.5,-nan,0,0,0,-6.09006,-5.38048,0,0,0,0,-0.131222,-0.0742636,3906,-6.08534,-5.37781,-0.131222,-0.0742636,7677,0,0,0,0,0,0
7726,-3.10495e-12,0,-1.50848e-06,-3.18057e-12,0,0,0,0,0,-7.55284,-5.28133,0.0219577,0,0,0,0,0,-5.94739,-5.28133,576,123,576,123,637,117,576,180,0.702823,-0.0348889,0,-1.5,-nan,0,0,0,-6.00732,-5.36321,0,0,0,0,-0.0278108,-0.0527708,3906,-6.00676,-5.36215,-0.0278108,-0.0527708,7713,0,0,0,0,0,0
7743,-3.10495e-12,0,-1.50848e-06,-3.18057e-12,0,0,0,0,0,-7.55284,-5.28133,0.0219577,0,0,0,0,0,-5.94739,-5.28133,576,123,576,123,637,117,576,180,0.744693,-0.0348889,0,-1.5,-nan,0,0,0,-6.00776,-5.36405,0,0,0,0,-0.0278108,-0.0527708,3906,-6.00676,-5.36215,-0.0278108,-0.0527708,7713,0,0,0,0,0,0
7762,-3.10495e-12,0,-1.50848e-06,-3.18057e-12,0,0,0,0,0,-7.59562,-5.30218,0.031727,0,0,0,0,0,-6.006,-5.30218,576,123,576,123,635,117,576,180,0,-0.0348889,0,-1.5,-nan,0,0,0,-6.00922,-5.35604,0,0,0,0,-0.0391478,-0.0434266,3906,-6.00844,-5.35517,-0.0391478,-0.0434266,7749,0,0,0,0,0,0
7778,-3.10495e-12,0,-1.50848e-06,-3.18057e-12,0,0,0,0,0,-7.59562,-5.30218,0.031727,0,0,0,0,0,-6.006,-5.30218,576,123,576,123,635,117,576,180,0,-0.0348889,0,-1.5,-nan,0,0,0,-6.00985,-5.35673,0,0,0,0,-0.0391478,-0.0434266,3906,-6.00844,-5.35517,-0.0391478,-0.0434266,7749,0,0,0,0,0,0
7798,-3.10495e-12,0,-1.50848e-06,-3.18057e-12,0,0,0,0,0,-7.56571,-5.29478,0.0292937,0,0,0,0,0,-5.96502,-5.29478,576,123,576,123,638,117,576,179,0,-0.0348889,0,-1.5,-nan,0,0,0,-6.0061,-5.31937,0,0,0,0,-0.027637,-0.0152584,3844,-6.00555,-5.31907,-0.027637,-0.0152584,7785,0,0,0,0,0,0
7819,-3.10495e-12,0,-1.50848e-06,-3.18057e-12,0,0,0,0,0,-7.61774,-5.32643,0.0270262,0,0,0,0,0,-6.0363,-5.32643,576,125,576,125,637,117,576,180,0,-0.0348889,0,-1.5,-nan,0,0,0,-6.01047,-5.32586,0,0,0,0,-0.0369068,-0.0231765,3906,-6.0101,-5.32563,-0.0369068,-0.0231765,7811,0,0,0,0,0,0
7834,-3.10495e-12,0,-1.50848e-06,-3.18057e-12,0,0,0,0,0,-7.61774,-5.32643,0.0270262,0,0,0,0,0,-6.0363,-5.32643,576,125,576,125,637,117,576,180,0,-0.0348889,0,-1.5,-nan,0,0,0,-6.01103,-5.32621,0,0,0,0,-0.0369068,-0.0231765,3906,-6.0101,-5.32563,-0.0369068,-0.0231765,7811,0,0,0,0,0,0
7854,-3.10495e-12,0,-1.50848e-06,-3.18057e-12,0,0,0,0,0,-7.59562,-5.30218,0.031727,0,0,0,0,0,-6.006,-5.30218,576,123,576,123,635,117,576,180,0,-0.0348889,0,-1.5,-nan,0,0,0,-6.0038,-5.32418,0,0,0,0,-0.012917,-0.0200096,3906,-6.00369,-5.32402,-0.012917,-0.0200096,7847,0,0,0,0,0,0
7869,-3.10495e-12,0,-1.50848e-06,-3.18057e-12,0,0,0,0,0,-7.59562,-5.30218,0.031727,0,0,0,0,0,-6.006,-5.30218,576,123,576,123,635,117,576,180,0,-0.0348889,0,-1.5,-nan,0,0,0,-6.004,-5.3245,0,0,0,0,-0.012917,-0.0200096,3906,-6.00369,-5.32402,-0.012917,-0.0200096,7847,0,0,0,0,0,0
7890,-3.10495e-12,0,-1.50848e-06,-3.18057e-12,0,0,0,0,0,-7.55284,-5.28133,0.0219577,0,0,0,0,0,-5.94739,-5.28133,576,123,576,123,637,117,576,180,0,-0.0348889,0,-1.5,-nan,0,0,0,-6.01016,-5.30273,0,0,0,0,-0.0267573,-0.000138708,3906,-6.00981,-5.30273,-0.0267573,-0.000138708,7879,0,0,0,0,0,0
7906,-3.10495e-12,0,-1.50848e-06,-3.18057e-12,0,0,0,0,0,-7.55284,-5.28133,0.0219577,0,0,0,0,0,-5.94739,-5.28133,576,123,576,123,637,117,576,180,0,-0.0348889,0,-1.5,-nan,0,0,0,-6.01059,-5.30273,0,0,0,0,-0.0267573,-0.000138708,3906,-6.00981,-5.30273,-0.0267573,-0.000138708,7879,0,0,0,0,0,0
7926,-3.10495e-12,0,-1.50848e-06,-3.18057e-12,0,0,0,0,0,-7.48939,-5.24143,0.0214307,0,0,0,0,0,-5.86047,-5.24143,576,123,576,123,638,115,576,179,0,-0.0348889,0,-1.5,-nan,0,0,0,-6.00837,-5.30521,0,0,0,0,-0.0248075,-0.00305344,3968,-6.00787,-5.30515,-0.0248075,-0.00305344,7913,0,0,0,0,0,0
7947,-3.10495e-12,0,-1.50848e-06,-3.18057e-12,0,0,0,0,0,-7.55284,-5.28133,0.0219577,0,0,0,0,0,-5.94739,-5.28133,576,123,576,123,637,117,576,180,0,-0.0348889,0,-1.5,-nan,0,0,0,-6.0009,-5.29786,0,0,0,0,-0.0113987,0.00402687,3906,-6.00082,-5.29789,-0.0113987,0.00402687,7942,0,0,0,0,0,0
7962,-3.10495e-12,0,-1.50848e-06,-3.18057e-12,0,0,0,0,0,-7.55284,-5.28133,0.0219577,0,0,0,0,0,-5.94739,-5.28133,576,123,576,123,637,117,576,180,0,-0.0348889,0,-1.5,-nan,0,0,0,-6.00107,-5.2978,0,0,0,0,-0.0113987,0.00402687,3906,-6.00082,-5.29789,-0.0113987,0.00402687,7942,0,0,0,0,0,0
7978,-3.10495e-12,0,-1.50848e-06,-3.18057e-12,0,0,0,0,0,-7.55284,-5.28133,0.0219577,0,0,0,0,0,-5.94739,-5.28133,576,123,576,123,637,117,576,180,0,-0.0348889,0,-1.5,-nan,0,0,0,-6.00125,-5.29773,0,0,0,0,-0.0113987,0.00402687,3906,-6.00082,-5.29789,-0.0113987,0.00402687,7942,0,0,0,0,0,0
7999,-3.10495e-12,0,-1.50848e-06,-3.18057e-12,0,0,0,0,0,-7.68213,-5.38574,0.064799,0,0,0,0,0,-6.12452,-5.38574,576,123,576,123,638,117,578,177,0,-0.0348889,0,-1.5,-nan,0,0,0,-6.01261,-5.30745,0,0,0,0,-0.0274885,-0.00464761,3720,-6.01203,-5.30735,-0.0274885,-0.00464761,7985,0,0,0,0,0,0
8015,-3.10495e-12,0,-1.50848e-06,-3.18057e-12,0,0,0,0,0,-7.68213,-5.38574,0.064799,0,0,0,0,0,-6.12452,-5.38574,576,123,576,123,638,117,578,177,0,-0.0348889,0,-1.5,-nan,0,0,0,-6.01305,-5.30752,0,0,0,0,-0.0274885,-0.00464761,3720,-6.01203,-5.30735,-0.0274885,-0.00464761,7985,0,0,0,0,0,0
8035,-3.10495e-12,0,-1.50848e-06,-3.18057e-12,0,0,0,0,0,-7.58899,-5.30655,0.0346087,0,0,0,0,0,-5.99691,-5.30655,576,123,576,123,637,117,576,179,0,-0.0348889,0,-1.5,-nan,0,0,0,-6.01136,-5.30191,0,0,0,0,-0.0186296,-8.23313e-05,3844,-6.01098,-5.30191,-0.0186296,-8.23313e-05,8022,0,0,0,0,0,0
8053,-3.10495e-12,0,-1.50848e-06,-3.18057e-12,0,0,0,0,0,-7.56571,-5.29478,0.0292937,0,0,0,0,0,-5.96502,-5.29478,576,123,576,123,638,117,576,179,0,-0.0348889,0,-1.5,-nan,0,0,0,-5.99976,-5.30563,0,0,0,0,-0.00894607,-0.00498395,3844,-5.99968,-5.30558,-0.00894607,-0.00498395,8046,0,0,0,0,0,0
8070,-3.10495e-12,0,-1.50848e-06,-3.18057e-12,0,0,0,0,0,-7.56571,-5.29478,0.0292937,0,0,0,0,0,-5.96502,-5.29478,576,123,576,123,638,117,576,179,0,-0.0348889,0,-1.5,-nan,0,0,0,-5.99992,-5.30571,0,0,0,0,-0.00894607,-0.00498395,3844,-5.99968,-5.30558,-0.00894607,-0.00498395,8046,0,0,0,0,0,0
8091,-3.10495e-12,0,-1.50848e-06,-3.18057e-12,0,0,0,0,0,-7.58899,-5.30655,0.0346087,0,0,0,0,0,-5.99691,-5.30655,576,123,576,123,637,117,576,179,0,-0.0348889,0,-1.5,-nan,0,0,0,-5.99584,-5.30784,0,0,0,0,-0.00459704,-0.00534636,3844,-5.99578,-5.30777,-0.00459704,-0.00534636,8080,0,0,0,0,0,0
8106,-3.10495e-12,0,-1.50848e-06,-3.18057e-12,0,0,0,0,0,-7.58899,-5.30655,0.0346087,0,0,0,0,0,-5.99691,-5.30655,576,123,576,123,637,117,576,179,0,-0.0348889,0,-1.5,-nan,0,0,0,-5.99591,-5.30792,0,0,0,0,-0.00459704,-0.00534636,3844,-5.99578,-5.30777,-0.00459704,-0.00534636,8080,0,0,0,0,0,0
8127,-3.10495e-12,0,-1.50848e-06,-3.18057e-12,0,0,0,0,0,-7.58899,-5.30655,0.0346087,0,0,0,0,0,-5.99691,-5.30655,576,123,576,123,637,117,576,179,0,-0.0348889,0,-1.5,-nan,0,0,0,-6.00055,-5.30678,0,0,0,0,-0.0101959,-0.00165051,3844,-6.00033,-5.30675,-0.0101959,-0.00165051,8113,0,0,0,0,0,0
8149,-3.10495e-12,0,-1.50848e-06,-3.18057e-12,0,0,0,0,0,-7.48939,-5.24143,0.0214307,0,0,0,0,0,-5.86047,-5.24143,576,123,576,123,638,115,576,179,0,-0.0348889,0,-1.5,-nan,0,0,0,-5.99462,-5.30579,0,0,0,0,0.0101157,-4.45013e-05,3968,-5.99473,-5.30579,0.0101157,-4.45013e-05,8141,0,0,0,0,0,0
8165,-3.10495e-12,0,-1.50848e-06,-3.18057e-12,0,0,0,0,0,-7.48939,-5.24143,0.0214307,0,0,0,0,0,-5.86047,-5.24143,576,123,576,123,638,115,576,179,0,-0.0348889,0,-1.5,-nan,0,0,0,-5.99447,-5.30579,0,0,0,0,0.0101157,-4.45013e-05,3968,-5.99473,-5.30579,0.0101157,-4.45013e-05,8141,0,0,0,0,0,0
8186,-3.10495e-12,0,-1.50848e-06,-3.18057e-12,0,0,0,0,0,-7.56281,-5.29267,0.0194023,0,0,0,0,0,-5.96105,-5.29267,576,124,576,124,638,117,576,180,0,-0.0348889,0,-1.5,-nan,0,0,0,-5.98183,-5.29997,0,0,0,0,0.0301793,0.0077277,3906,-5.98207,-5.30003,0.0301793,0.0077277,8181,0,0,0,0,0,0
8202,-3.10495e-12,0,-1.50848e-06,-3.18057e-12,0,0,0,0,0,-7.56281,-5.29267,0.0194023,0,0,0,0,0,-5.96105,-5.29267,576,124,576,124,638,117,576,180,0,-0.0348889,0,-1.5,-nan,0,0,0,-5.98135,-5.29984,0,0,0,0,0.0301793,0.0077277,3906,-5.98207,-5.30003,0.0301793,0.0077277,8181,0,0,0,0,0,0
8224,-3.10495e-12,0,-1.50848e-06,-3.18057e-12,0,0,0,0,0,-7.58899,-5.30655,0.0346087,0,0,0,0,0,-5.99691,-5.30655,576,123,576,123,637,117,576,179,0,-0.0348889,0,-1.5,-nan,0,0,0,-5.99474,-5.29132,0,0,0,0,0.00840639,0.037064,3844,-5.99492,-5.2921,0.00840639,0.037064,8209,0,0,0,0,0,0
8240,-3.10495e-12,0,-1.50848e-06,-3.18057e-12,0,0,0,0,0,-7.58899,-5.30655,0.0346087,0,0,0,0,0,-5.99691,-5.30655,576,123,576,123,637,117,576,179,0,-0.0348889,0,-1.5,-nan,0,0,0,-5.9946,-5.29069,0,0,0,0,0.00840639,0.037064,3844,-5.99492,-5.2921,0.00840639,0.037064,8209,0,0,0,0,0,0
8261,-3.10495e-12,0,-1.50848e-06,-3.18057e-12,0,0,0,0,0,-7.48939,-5.24143,0.0214307,0,0,0,0,0,-5.86047,-5.24143,576,123,576,123,638,115,576,179,0,-0.0348889,0,-1.5,-nan,0,0,0,-5.94426,-5.28551,0,0,0,0,0.119222,0.0414097,3968,-5.94665,-5.28634,0.119222,0.0414097,8247,0,0,0,0,0,0
8277,-3.10495e-12,0,-1.50848e-06,-3.18057e-12,0,0,0,0,0,-7.48939,-5.24143,0.0214307,0,0,0,0,0,-5.86047,-5.24143,576,123,576,123,638,115,576,179,0,-0.0348889,0,-1.5,-nan,0,0,0,-5.94223,-5.28481,0,0,0,0,0.119222,0.0414097,3968,-5.94665,-5.28634,0.119222,0.0414097,8247,0,0,0,0,0,0
8298,-3.10495e-12,0,-1.50848e-06,-3.18057e-12,0,0,0,0,0,-7.45389,-5.21664,0.00894169,0,0,0,0,0,-5.81182,-5.21664,576,123,576,123,638,115,576,180,0,-0.0348889,0,-1.5,-nan,0,0,0,-5.91949,-5.27117,0,0,0,0,0.155102,0.0744886,4030,-5.92275,-5.27273,0.155102,0.0744886,8284,0,0,0,0,0,0
8314,-3.10495e-12,0,-1.50848e-06,-3.18057e-12,0,0,0,0,0,-7.45389,-5.21664,0.00894169,0,0,0,0,0,-5.81182,-5.21664,576,123,576,123,638,115,576,180,0,-0.0348889,0,-1.5,-nan,0,0,0,-5.91701,-5.26997,0,0,0,0,0.155102,0.0744886,4030,-5.92275,-5.27273,0.155102,0.0744886,8284,0,0,0,0,0,0
8335,-3.10495e-12,0,-1.50848e-06,-3.18057e-12,0,0,0,0,0,-7.55284,-5.28133,0.0219577,0,0,0,0,0,-5.94739,-5.28133,576,123,576,123,637,117,576,180,0,-0.0348889,0,-1.5,-nan,0,0,0,-5.93867,-5.27961,0,0,0,0,0.121493,0.0505642,3906,-5.9411,-5.28063,0.121493,0.0505642,8320,0,0,0,0,0,0
8357,-3.10495e-12,0,-1.50848e-06,-3.18057e-12,0,0,0,0,0,-7.53005,-5.26988,0.0167653,0,0,0,0,0,-5.91617,-5.26988,576,123,576,123,638,117,576,180,0,-0.0348889,0,-1.5,-nan,0,0,0,-5.94168,-5.27203,0,0,0,0,0.0817853,0.0722058,3906,-5.9425,-5.27275,0.0817853,0.0722058,8349,0,0,0,0,0,0
8372,-3.10495e-12,0,-1.50848e-06,-3.18057e-12,0,0,0,0,0,-7.53005,-5.26988,0.0167653,0,0,0,0,0,-5.91617,-5.26988,576,123,576,123,638,117,576,180,0,-0.0348889,0,-1.5,-nan,0,0,0,-5.94045,-5.27095,0,0,0,0,0.0817853,0.0722058,3906,-5.9425,-5.27275,0.0817853,0.0722058,8349,0,0,0,0,0,0
8393,-3.10495e-12,0,-1.50848e-06,-3.18057e-12,0,0,0,0,0,-7.62927,-5.32553,0.0345256,0,0,0,0,0,-6.05211,-5.32553,576,124,576,124,635,117,576,180,0,-0.0348889,0,-1.5,-nan,0,0,0,-5.93799,-5.26604,0,0,0,0,0.108191,0.0843825,3906,-5.94016,-5.26773,0.108191,0.0843825,8379,0,0,0,0,0,0
8409,-3.10495e-12,0,-1.50848e-06,-3.18057e-12,0,0,0,0,0,-7.62927,-5.32553,0.0345256,0,0,0,0,0,-6.05211,-5.32553,576,124,576,124,635,117,576,180,0,-0.0348889,0,-1.5,-nan,0,0,0,-5.93615,-5.2646,0,0,0,0,0.108191,0.0843825,3906,-5.94016,-5.26773,0.108191,0.0843825,8379,0,0,0,0,0,0
8430,-3.10495e-12,0,-1.50848e-06,-3.18057e-12,0,0,0,0,0,-7.45389,-5.21664,0.00894169,0,0,0,0,0,-5.81182,-5.21664,576,123,576,123,638,115,576,180,0,-0.0348889,0,-1.5,-nan,0,0,0,-5.90831,-5.26541,0,0,0,0,0.141779,0.0753196,4030,-5.91128,-5.267,0.141779,0.0753196,8416,0,0,0,0,0,0
8452,-3.10495e-12,0,-1.50848e-06,-3.18057e-12,0,0,0,0,0,-7.54363,-5.26617,0.0287624,0,0,0,0,0,-5.93478,-5.26617,576,121,576,121,637,117,576,180,0,-0.0348889,0,-1.5,-nan,0,0,0,-5.92978,-5.26441,0,0,0,0,0.109508,0.062408,3843,-5.93099,-5.2651,0.109508,0.062408,8442,0,0,0,0,0,0
8467,-3.10495e-12,0,-1.50848e-06,-3.18057e-12,0,0,0,0,0,-7.54363,-5.26617,0.0287624,0,0,0,0,0,-5.93478,-5.26617,576,121,576,121,637,117,576,180,0,-0.0348889,0,-1.5,-nan,0,0,0,-5.92803,-5.26341,0,0,0,0,0.109508,0.062408,3843,-5.93099,-5.2651,0.109508,0.062408,8442,0,0,0,0,0,0
8489,-3.10495e-12,0,-1.50848e-06,-3.18057e-12,0,0,0,0,0,-7.75186,-5.40653,0.0517012,0,0,0,0,0,-6.22005,-5.40653,576,123,576,123,636,120,576,180,0,-0.0348889,0,-1.5,-nan,0,0,0,-5.93828,-5.27282,0,0,0,0,0.0664838,0.0443725,3600,-5.93908,-5.27335,0.0664838,0.0443725,8479,0,0,0,0,0,0
8505,-3.10495e-12,0,-1.50848e-06,-3.18057e-12,0,0,0,0,0,-7.75186,-5.40653,0.0517012,0,0,0,0,0,-6.22005,-5.40653,576,123,576,123,636,120,576,180,0,-0.0348889,0,-1.5,-nan,0,0,0,-5.93722,-5.27211,0,0,0,0,0.0664838,0.0443725,3600,-5.93908,-5.27335,0.0664838,0.0443725,8479,0,0,0,0,0,0
8526,-3.10495e-12,0,-1.50848e-06,-3.18057e-12,0,0,0,0,0,-7.59111,-5.30353,0.0299301,0,0,0,0,0,-5.99982,-5.30353,576,123,576,123,638,117,576,180,0,-0.0348889,0,-1.5,-nan,0,0,0,-5.94152,-5.27386,0,0,0,0,0.0575863,0.040441,3906,-5.94272,-5.27471,0.0575863,0.040441,8512,0,0,0,0,0,0
8548,-3.10495e-12,0,-1.50848e-06,-3.18057e-12,0,0,0,0,0,-7.55284,-5.28133,0.0219577,0,0,0,0,0,-5.94739,-5.28133,576,123,576,123,637,117,576,180,0,-0.0348889,0,-1.5,-nan,0,0,0,-5.94856,-5.28343,0,0,0,0,0.0355695,0.0211185,3906,-5.94881,-5.28358,0.0355695,0.0211185,8542,0,0,0,0,0,0
8564,-3.10495e-12,0,-1.50848e-06,-3.18057e-12,0,0,0,0,0,-7.55284,-5.28133,0.0219577,0,0,0,0,0,-5.94739,-5.28133,576,123,576,123,637,117,576,180,0,-0.0348889,0,-1.5,-nan,0,0,0,-5.94799,-5.28309,0,0,0,0,0.0355695,0.0211185,3906,-5.94881,-5.28358,0.0355695,0.0211185,8542,0,0,0,0,0,0
8585,-3.10495e-12,0,-1.50848e-06,-3.18057e-12,0,0,0,0,0,-7.63272,-5.32802,0.0446156,0,0,0,0,0,-6.05682,-5.32802,576,123,576,123,635,117,576,179,0,-0.0348889,0,-1.5,-nan,0,0,0,-5.94706,-5.27924,0,0,0,0,0.0391753,0.0264001,3844,-5.94738,-5.27945,0.0391753,0.0264001,8579,0,0,0,0,0,0
8601,-3.10495e-12,0,-1.50848e-06,-3.18057e-12,0,0,0,0,0,-7.63272,-5.32802,0.0446156,0,0,0,0,0,-6.05682,-5.32802,576,123,576,123,635,117,576,179,0,-0.0348889,0,-1.5,-nan,0,0,0,-5.94648,-5.27884,0,0,0,0,0.0391753,0.0264001,3844,-5.94738,-5.27945,0.0391753,0.0264001,8579,0,0,0,0,0,0
8623,-3.10495e-12,0,-1.50848e-06,-3.18057e-12,0,0,0,0,0,-7.45672,-5.2002,0.00114702,0,0,0,0,0,-5.81571,-5.2002,573,123,573,123,637,117,576,180,0,-0.0348889,0,-1.5,-nan,0,0,0,-5.93552,-5.27802,0,0,0,0,0.0477509,0.0276662,4095,-5.93662,-5.27866,0.0477509,0.0276662,8609,0,0,0,0,0,0
8639,-3.10495e-12,0,-1.50848e-06,-3.18057e-12,0,0,0,0,0,-7.45672,-5.2002,0.00114702,0,0,0,0,0,-5.81571,-5.2002,573,123,573,123,637,117,576,180,0,-0.0348889,0,-1.5,-nan,0,0,0,-5.93476,-5.27758,0,0,0,0,0.0477509,0.0276662,4095,-5.93662,-5.27866,0.0477509,0.0276662,8609,0,0,0,0,0,0
8659,-3.10495e-12,0,-1.50848e-06,-3.18057e-12,0,0,0,0,0,-7.73914,-5.42105,0.0824148,0,0,0,0,0,-6.20263,-5.42105,576,123,576,123,637,117,578,176,0,-0.0348889,0,-1.5,-nan,0,0,0,-5.96145,-5.28866,0,0,0,0,-0.00240068,0.00748079,3720,-5.9614,-5.28881,-0.00240068,0.00748079,8645,0,0,0,0,0,0
8675,-3.10495e-12,0,-1.50848e-06,-3.18057e-12,0,0,0,0,0,-7.73914,-5.42105,0.0824148,0,0,0,0,0,-6.20263,-5.42105,576,123,576,123,637,117,578,176,0,-0.0348889,0,-1.5,-nan,0,0,0,-5.96149,-5.28854,0,0,0,0,-0.00240068,0.00748079,3720,-5.9614,-5.28881,-0.00240068,0.00748079,8645,0,0,0,0,0,0
8697,-3.10495e-12,0,-1.50848e-06,-3.18057e-12,0,0,0,0,0,-7.55284,-5.28133,0.0219577,0,0,0,0,0,-5.94739,-5.28133,576,123,576,123,637,117,576,180,0,-0.0348889,0,-1.5,-nan,0,0,0,-5.95231,-5.27928,0,0,0,0,0.0121025,0.0213947,3906,-5.95258,-5.27975,0.0121025,0.0213947,8683,0,0,0,0,0,0
8718,-3.10495e-12,0,-1.50848e-06,-3.18057e-12,0,0,0,0,0,-7.58899,-5.30655,0.0346087,0,0,0,0,0,-5.99691,-5.30655,576,123,576,123,637,117,576,179,0,-0.0348889,0,-1.5,-nan,0,0,0,-5.95083,-5.28698,0,0,0,0,0.0272445,0.0102709,3844,-5.95111,-5.28708,0.0272445,0.0102709,8710,0,0,0,0,0,0
8734,-3.10495e-12,0,-1.50848e-06,-3.18057e-12,0,0,0,0,0,-7.58899,-5.30655,0.0346087,0,0,0,0,0,-5.99691,-5.30655,576,123,576,123,637,117,576,179,0,-0.0348889,0,-1.5,-nan,0,0,0,-5.9504,-5.28681,0,0,0,0,0.0272445,0.0102709,3844,-5.95111,-5.28708,0.0272445,0.0102709,8710,0,0,0,0,0,0
8755,-3.10495e-12,0,-1.50848e-06,-3.18057e-12,0,0,0,0,0,-7.58591,-5.30431,0.0246505,0,0,0,0,0,-5.9927,-5.30431,576,124,576,124,637,117,576,180,0,-0.0348889,0,-1.5,-nan,0,0,0,-5.95639,-5.30501,0,0,0,0,0.00932638,-0.0122875,3906,-5.9565,-5.30486,0.00932638,-0.0122875,8746,0,0,0,0,0,0
8771,-3.10495e-12,0,-1.50848e-06,-3.18057e-12,0,0,0,0,0,-7.58591,-5.30431,0.0246505,0,0,0,0,0,-5.9927,-5.30431,576,124,576,124,637,117,576,180,0,-0.0348889,0,-1.5,-nan,0,0,0,-5.95624,-5.30521,0,0,0,0,0.00932638,-0.0122875,3906,-5.9565,-5.30486,0.00932638,-0.0122875,8746,0,0,0,0,0,0
8793,-3.10495e-12,0,-1.50848e-06,-3.18057e-12,0,0,0,0,0,-7.63554,-5.34862,0.0451971,0,0,0,0,0,-6.06068,-5.34862,576,123,576,123,637,117,578,179,0,-0.0348889,0,-1.5,-nan,0,0,0,-5.99337,-5.30455,0,0,0,0,-0.0353945,-0.0138651,3844,-5.99312,-5.30445,-0.0353945,-0.0138651,8787,0,0,0,0,0,0
8808,-3.10495e-12,0,-1.50848e-06,-3.18057e-12,0,0,0,0,0,-7.63554,-5.34862,0.0451971,0,0,0,0,0,-6.06068,-5.34862,576,123,576,123,637,117,578,179,0,-0.0348889,0,-1.5,-nan,0,0,0,-5.99394,-5.30477,0,0,0,0,-0.0353945,-0.0138651,3844,-5.99312,-5.30445,-0.0353945,-0.0138651,8787,0,0,0,0,0,0
8830,-3.10495e-12,0,-1.50848e-06,-3.18057e-12,0,0,0,0,0,-7.5968,-5.31179,0.0229783,0,0,0,0,0,-6.00762,-5.31179,574,125,574,125,637,117,578,180,0,-0.0348889,0,-1.5,-nan,0,0,0,-6.00359,-5.30933,0,0,0,0,-0.0603505,-0.02516,4032,-6.00232,-5.30881,-0.0603505,-0.02516,8815,0,0,0,0,0,0
8846,-3.10495e-12,0,-1.50848e-06,-3.18057e-12,0,0,0,0,0,-7.5968,-5.31179,0.0229783,0,0,0,0,0,-6.00762,-5.31179,574,125,574,125,637,117,578,180,0,-0.0348889,0,-1.5,-nan,0,0,0,-6.00455,-5.30974,0,0,0,0,-0.0603505,-0.02516,4032,-6.00232,-5.30881,-0.0603505,-0.02516,8815,0,0,0,0,0,0
8867,-3.10495e-12,0,-1.50848e-06,-3.18057e-12,0,0,0,0,0,-7.59823,-5.32254,0.0322672,0,0,0,0,0,-6.00958,-5.32254,576,123,576,123,637,117,578,180,0,-0.0348889,0,-1.5,-nan,0,0,0,-6.0071,-5.31239,0,0,0,0,-0.0590242,-0.0320415,3906,-6.00586,-5.31172,-0.0590242,-0.0320415,8852,0,0,0,0,0,0
8888,-3.10495e-12,0,-1.50848e-06,-3.18057e-12,0,0,0,0,0,-7.55284,-5.28133,0.0219577,0,0,0,0,0,-5.94739,-5.28133,576,123,576,123,637,117,576,180,0,-0.0348889,0,-1.5,-nan,0,0,0,-6.00266,-5.3111,0,0,0,0,-0.0571005,-0.026703,3906,-6.00209,-5.31083,-0.0571005,-0.026703,8880,0,0,0,0,0,0
8904,-3.10495e-12,0,-1.50848e-06,-3.18057e-12,0,0,0,0,0,-7.55284,-5.28133,0.0219577,0,0,0,0,0,-5.94739,-5.28133,576,123,576,123,637,117,576,180,0,-0.0348889,0,-1.5,-nan,0,0,0,-6.00357,-5.31153,0,0,0,0,-0.0571005,-0.026703,3906,-6.00209,-5.31083,-0.0571005,-0.026703,8880,0,0,0,0,0,0
8925,-3.10495e-12,0,-1.50848e-06,-3.18057e-12,0,0,0,0,0,-7.56571,-5.29478,0.0292937,0,0,0,0,0,-5.96502,-5.29478,576,123,576,123,638,117,576,179,0,-0.0348889,0,-1.5,-nan,0,0,0,-5.99734,-5.30712,0,0,0,0,-0.0348989,-0.0142104,3844,-5.99689,-5.30693,-0.0348989,-0.0142104,8913,0,0,0,0,0,0
8940,-3.10495e-12,0,-1.50848e-06,-3.18057e-12,0,0,0,0,0,-7.56571,-5.29478,0.0292937,0,0,0,0,0,-5.96502,-5.29478,576,123,576,123,638,117,576,179,0,-0.0348889,0,-1.5,-nan,0,0,0,-5.9979,-5.30735,0,0,0,0,-0.0348989,-0.0142104,3844,-5.99689,-5.30693,-0.0348989,-0.0142104,8913,0,0,0,0,0,0
8961,-3.10495e-12,0,-1.50848e-06,-3.18057e-12,0,0,0,0,0,-7.65272,-5.34197,0.0484008,0,0,0,0,0,-6.08423,-5.34197,576,123,576,123,637,117,576,179,0,-0.0348889,0,-1.5,-nan,0,0,0,-6.00095,-5.30899,0,0,0,0,-0.0359556,-0.015718,3782,-6.00019,-5.30866,-0.0359556,-0.015718,8947,0,0,0,0,0,0
8977,-3.10495e-12,0,-1.50848e-06,-3.18057e-12,0,0,0,0,0,-7.65272,-5.34197,0.0484008,0,0,0,0,0,-6.08423,-5.34197,576,123,576,123,637,117,576,179,0,-0.0348889,0,-1.5,-nan,0,0,0,-6.00152,-5.30924,0,0,0,0,-0.0359556,-0.015718,3782,-6.00019,-5.30866,-0.0359556,-0.015718,8947,0,0,0,0,0,0
8998,-3.10495e-12,0,-1.50848e-06,-3.18057e-12,0,0,0,0,0,-7.58899,-5.30655,0.0346087,0,0,0,0,0,-5.99691,-5.30655,576,123,576,123,637,117,576,179,0,-0.0348889,0,-1.5,-nan,0,0,0,-6.01097,-5.30848,0,0,0,0,-0.0500874,-0.0155622,3844,-6.00992,-5.30815,-0.0500874,-0.0155622,8984,0,0,0,0,0,0
9020,-3.10495e-12,0,-1.50848e-06,-3.18057e-12,0,0,0,0,0,-7.58899,-5.30655,0.0346087,0,0,0,0,0,-5.99691,-5.30655,576,123,576,123,637,117,576,179,0,-0.0348889,0,-1.5,-nan,0,0,0,-5.99879,-5.30704,0,0,0,0,-0.0451156,-0.0125552,3844,-5.99847,-5.30696,-0.0451156,-0.0125552,9014,0,0,0,0,0,0
9036,-3.10495e-12,0,-1.50848e-06,-3.18057e-12,0,0,0,0,0,-7.58899,-5.30655,0.0346087,0,0,0,0,0,-5.99691,-5.30655,576,123,576,123,637,117,576,179,0,-0.0348889,0,-1.5,-nan,0,0,0,-5.99951,-5.30725,0,0,0,0,-0.0451156,-0.0125552,3844,-5.99847,-5.30696,-0.0451156,-0.0125552,9014,0,0,0,0,0,0
9057,-3.10495e-12,0,-1.50848e-06,-3.18057e-12,0,0,0,0,0,-7.58899,-5.30655,0.0346087,0,0,0,0,0,-5.99691,-5.30655,576,123,576,123,637,117,576,179,0,-0.0348889,0,-1.5,-nan,0,0,0,-6.00125,-5.30935,0,0,0,0,-0.0592566,-0.0176205,3844,-6.0006,-5.30915,-0.0592566,-0.0176205,9047,0,0,0,0,0,0
9073,-3.10495e-12,0,-1.50848e-06,-3.18057e-12,0,0,0,0,0,-7.58899,-5.30655,0.0346087,0,0,0,0,0,-5.99691,-5.30655,576,123,576,123,637,117,576,179,0,-0.0348889,0,-1.5,-nan,0,0,0,-6.00226,-5.30965,0,0,0,0,-0.0592566,-0.0176205,3844,-6.0006,-5.30915,-0.0592566,-0.0176205,9047,0,0,0,0,0,0
9094,-3.10495e-12,0,-1.50848e-06,-3.18057e-12,0,0,0,0,0,-7.58899,-5.30655,0.0346087,0,0,0,0,0,-5.99691,-5.30655,576,123,576,123,637,117,576,179,0,-0.0348889,0,-1.5,-nan,0,0,0,-6.0015,-5.30928,0,0,0,0,-0.0580235,-0.0216098,3844,-6.00029,-5.30883,-0.0580235,-0.0216098,9080,0,0,0,0,0,0
9110,-3.10495e-12,0,-1.50848e-06,-3.18057e-12,0,0,0,0,0,-7.58899,-5.30655,0.0346087,0,0,0,0,0,-5.99691,-5.30655,576,123,576,123,637,117,576,179,0,-0.0348889,0,-1.5,-nan,0,0,0,-6.00243,-5.30963,0,0,0,0,-0.0580235,-0.0216098,3844,-6.00029,-5.30883,-0.0580235,-0.0216098,9080,0,0,0,0,0,0
9131,-3.10495e-12,0,-1.50848e-06,-3.18057e-12,0,0,0,0,0,-7.55284,-5.28133,0.0219577,0,0,0,0,0,-5.94739,-5.28133,576,123,576,123,637,117,576,180,0,-0.0348889,0,-1.5,-nan,0,0,0,-6.00584,-5.31068,0,0,0,0,-0.068042,-0.0339043,3906,-6.00489,-5.31021,-0.068042,-0.0339043,9119,0,0,0,0,0,0
9147,-3.10495e-12,0,-1.50848e-06,-3.18057e-12,0,0,0,0,0,-7.55284,-5.28133,0.0219577,0,0,0,0,0,-5.94739,-5.28133,576,123,576,123,637,117,576,180,0,-0.0348889,0,-1.5,-nan,0,0,0,-6.00693,-5.31122,0,0,0,0,-0.068042,-0.0339043,3906,-6.00489,-5.31021,-0.068042,-0.0339043,9119,0,0,0,0,0,0
9169,-3.10495e-12,0,-1.50848e-06,-3.18057e-12,0,0,0,0,0,-7.61259,-5.33708,0.0399543,0,0,0,0,0,-6.02925,-5.33708,576,123,576,123,638,117,578,179,0,-0.0348889,0,-1.5,-nan,0,0,0,-6.00717,-5.312,0,0,0,0,-0.0609963,-0.0340225,3844,-6.00589,-5.31128,-0.0609963,-0.0340225,9155,0,0,0,0,0,0
9190,-3.10495e-12,0,-1.50848e-06,-3.18057e-12,0,0,0,0,0,-7.46772,-5.21227,0.0080086,0,0,0,0,0,-5.83078,-5.21227,573,123,573,123,638,117,576,179,0,-0.0348889,0,-1.5,-nan,0,0,0,-6.01029,-5.31317,0,0,0,0,-0.0723242,-0.0382525,4030,-6.00943,-5.31271,-0.0723242,-0.0382525,9180,0,0,0,0,0,0
9205,-3.10495e-12,0,-1.50848e-06,-3.18057e-12,0,0,0,0,0,-7.46772,-5.21227,0.0080086,0,0,0,0,0,-5.83078,-5.21227,573,123,573,123,638,117,576,179,0,-0.0348889,0,-1.5,-nan,0,0,0,-6.01138,-5.31374,0,0,0,0,-0.0723242,-0.0382525,4030,-6.00943,-5.31271,-0.0723242,-0.0382525,9180,0,0,0,0,0,0
9227,-3.10495e-12,0,-1.50848e-06,-3.18057e-12,0,0,0,0,0,-7.58899,-5.30655,0.0346087,0,0,0,0,0,-5.99691,-5.30655,576,123,576,123,637,117,576,179,0,-0.0348889,0,-1.5,-nan,0,0,0,-6.0168,-5.31372,0,0,0,0,-0.0844415,-0.0389878,3844,-6.01562,-5.31318,-0.0844415,-0.0389878,9214,0,0,0,0,0,0
9248,-3.10495e-12,0,-1.50848e-06,-3.18057e-12,0,0,0,0,0,-7.63554,-5.34862,0.0451971,0,0,0,0,0,-6.06068,-5.34862,576,123,576,123,637,117,578,179,0,-0.0348889,0,-1.5,-nan,0,0,0,-6.01545,-5.31735,0,0,0,0,-0.0714881,-0.0388659,3844,-6.01495,-5.31708,-0.0714881,-0.0388659,9243,0,0,0,0,0,0
9264,-3.10495e-12,0,-1.50848e-06,-3.18057e-12,0,0,0,0,0,-7.63554,-5.34862,0.0451971,0,0,0,0,0,-6.06068,-5.34862,576,123,576,123,637,117,578,179,0,-0.0348889,0,-1.5,-nan,0,0,0,-6.01659,-5.31797,0,0,0,0,-0.0714881,-0.0388659,3844,-6.01495,-5.31708,-0.0714881,-0.0388659,9243,0,0,0,0,0,0
9286,-3.10495e-12,0,-1.50848e-06,-3.18057e-12,0,0,0,0,0,-7.65272,-5.34197,0.0484008,0,0,0,0,0,-6.08423,-5.34197,576,123,576,123,637,117,576,179,0,-0.0348889,0,-1.5,-nan,0,0,0,-6.02228,-5.31943,0,0,0,0,-0.0798818,-0.0424012,3782,-6.0214,-5.31896,-0.0798818,-0.0424012,9276,0,0,0,0,0,0
9301,-3.10495e-12,0,-1.50848e-06,-3.18057e-12,0,0,0,0,0,-7.65272,-5.34197,0.0484008,0,0,0,0,0,-6.08423,-5.34197,576,123,576,123,637,117,576,179,0,-0.0348889,0,-1.5,-nan,0,0,0,-6.02355,-5.3201,0,0,0,0,-0.0798818,-0.0424012,3782,-6.0214,-5.31896,-0.0798818,-0.0424012,9276,0,0,0,0,0,0
9317,-3.10495e-12,0,-1.50848e-06,-3.18057e-12,0,0,0,0,0,-7.65272,-5.34197,0.0484008,0,0,0,0,0,-6.08423,-5.34197,576,123,576,123,637,117,576,179,0,-0.0348889,0,-1.5,-nan,0,0,0,-6.02483,-5.32078,0,0,0,0,-0.0798818,-0.0424012,3782,-6.0214,-5.31896,-0.0798818,-0.0424012,9276,0,0,0,0,0,0
9333,-3.10495e-12,0,-1.50848e-06,-3.18057e-12,0,0,0,0,0,-7.65272,-5.34197,0.0484008,0,0,0,0,0,-6.08423,-5.34197,576,123,576,123,637,117,576,179,0,-0.0348889,0,-1.5,-nan,0,0,0,-6.02611,-5.32146,0,0,0,0,-0.0798818,-0.0424012,3782,-6.0214,-5.31896,-0.0798818,-0.0424012,9276,0,0,0,0,0,0
9354,-3.10495e-12,0,-1.50848e-06,-3.18057e-12,0,0,0,0,0,-7.6035,-5.33067,0.05646,0,0,0,0,0,-6.0168,-5.33067,576,123,576,123,638,115,578,177,0,-0.0348889,0,-1.5,-nan,0,0,0,-6.01329,-5.31565,0,0,0,0,-0.0448935,-0.0204703,3844,-6.01285,-5.31544,-0.0448935,-0.0204703,9346,0,0,0,0,0,0
9370,-3.10495e-12,0,-1.50848e-06,-3.18057e-12,0,0,0,0,0,-7.6035,-5.33067,0.05646,0,0,0,0,0,-6.0168,-5.33067,576,123,576,123,638,115,578,177,0,-0.0348889,0,-1.5,-nan,0,0,0,-6.01401,-5.31598,0,0,0,0,-0.0448935,-0.0204703,3844,-6.01285,-5.31544,-0.0448935,-0.0204703,9346,0,0,0,0,0,0
9392,-3.10495e-12,0,-1.50848e-06,-3.18057e-12,0,0,0,0,0,-7.45389,-5.21664,0.00894169,0,0,0,0,0,-5.81182,-5.21664,576,123,576,123,638,115,576,180,0,-0.0348889,0,-1.5,-nan,0,0,0,-5.9959,-5.30966,0,0,0,0,0.00431684,-0.00752722,4030,-5.99596,-5.30956,0.00431684,-0.00752722,9379,0,0,0,0,0,0
9407,-3.10495e-12,0,-1.50848e-06,-3.18057e-12,0,0,0,0,0,-7.45389,-5.21664,0.00894169,0,0,0,0,0,-5.81182,-5.21664,576,123,576,123,638,115,576,180,0,-0.0348889,0,-1.5,-nan,0,0,0,-5.99583,-5.30978,0,0,0,0,0.00431684,-0.00752722,4030,-5.99596,-5.30956,0.00431684,-0.00752722,9379,0,0,0,0,0,0
9428,-3.10495e-12,0,-1.50848e-06,-3.18057e-12,0,0,0,0,0,-7.63554,-5.34862,0.0451971,0,0,0,0,0,-6.06068,-5.34862,576,123,576,123,637,117,578,179,0,-0.0348889,0,-1.5,-nan,0,0,0,-6.01029,-5.31553,0,0,0,0,-0.0293119,-0.0171067,3844,-6.00968,-5.31517,-0.0293119,-0.0171067,9414,0,0,0,0,0,0
9451,-3.10495e-12,0,-1.50848e-06,-3.18057e-12,0,0,0,0,0,-7.58899,-5.30655,0.0346087,0,0,0,0,0,-5.99691,-5.30655,576,123,576,123,637,117,576,179,0,-0.0348889,0,-1.5,-nan,0,0,0,-5.99565,-5.31206,0,0,0,0,0.00437401,-0.00965333,3844,-5.9957,-5.31195,0.00437401,-0.00965333,9441,0,0,0,0,0,0
9465,-3.10495e-12,0,-1.50848e-06,-3.18057e-12,0,0,0,0,0,-7.58899,-5.30655,0.0346087,0,0,0,0,0,-5.99691,-5.30655,576,123,576,123,637,117,576,179,0,-0.0348889,0,-1.5,-nan,0,0,0,-5.99559,-5.3122,0,0,0,0,0.00437401,-0.00965333,3844,-5.9957,-5.31195,0.00437401,-0.00965333,9441,0,0,0,0,0,0
9486,-3.10495e-12,0,-1.50848e-06,-3.18057e-12,0,0,0,0,0,-7.5985,-5.31759,0.0319357,0,0,0,0,0,-6.00994,-5.31759,576,124,576,124,638,117,576,179,0,-0.0348889,0,-1.5,-nan,0,0,0,-6.0003,-5.30928,0,0,0,0,-0.00489198,-0.00435651,3844,-6.00026,-5.30924,-0.00489198,-0.00435651,9480,0,0,0,0,0,0
9502,-3.10495e-12,0,-1.50848e-06,-3.18057e-12,0,0,0,0,0,-7.5985,-5.31759,0.0319357,0,0,0,0,0,-6.00994,-5.31759,576,124,576,124,638,117,576,179,0,-0.0348889,0,-1.5,-nan,0,0,0,-6.00038,-5.30935,0,0,0,0,-0.00489198,-0.00435651,3844,-6.00026,-5.30924,-0.00489198,-0.00435651,9480,0,0,0,0,0,0
9517,-3.10495e-12,0,-1.50848e-06,-3.18057e-12,0,0,0,0,0,-7.5985,-5.31759,0.0319357,0,0,0,0,0,-6.00994,-5.31759,576,124,576,124,638,117,576,179,0,-0.0348889,0,-1.5,-nan,0,0,0,-6.00046,-5.30941,0,0,0,0,-0.00489198,-0.00435651,3844,-6.00026,-5.30924,-0.00489198,-0.00435651,9480,0,0,0,0,0,0
9539,-3.10495e-12,0,-1.50848e-06,-3.18057e-12,0,0,0,0,0,-7.61259,-5.33708,0.0399543,0,0,0,0,0,-6.02925,-5.33708,576,123,576,123,638,117,578,179,0,-0.0348889,0,-1.5,-nan,0,0,0,-6.01065,-5.32005,0,0,0,0,-0.0235666,-0.0191076,3844,-6.01013,-5.31963,-0.0235666,-0.0191076,9525,0,0,0,0,0,0
9560,-3.10495e-12,0,-1.50848e-06,-3.18057e-12,0,0,0,0,0,-7.63554,-5.34862,0.0451971,0,0,0,0,0,-6.06068,-5.34862,576,123,576,123,637,117,578,179,0,-0.0348889,0,-1.5,-nan,0,0,0,-6.02823,-5.33361,0,0,0,0,-0.0555122,-0.0432432,3844,-6.02746,-5.33301,-0.0555122,-0.0432432,9548,0,0,0,0,0,0
9581,-3.10495e-12,0,-1.50848e-06,-3.18057e-12,0,0,0,0,0,-7.48939,-5.24143,0.0214307,0,0,0,0,0,-5.86047,-5.24143,576,123,576,123,638,115,576,179,0,-0.0348889,0,-1.5,-nan,0,0,0,-6.01196,-5.32021,0,0,0,0,-0.0246797,-0.016337,3968,-6.01179,-5.32009,-0.0246797,-0.016337,9576,0,0,0,0,0,0
9597,-3.10495e-12,0,-1.50848e-06,-3.18057e-12,0,0,0,0,0,-7.48939,-5.24143,0.0214307,0,0,0,0,0,-5.86047,-5.24143,576,123,576,123,638,115,576,179,0,-0.0348889,0,-1.5,-nan,0,0,0,-6.01235,-5.32047,0,0,0,0,-0.0246797,-0.016337,3968,-6.01179,-5.32009,-0.0246797,-0.016337,9576,0,0,0,0,0,0
9618,-3.10495e-12,0,-1.50848e-06,-3.18057e-12,0,0,0,0,0,-7.55284,-5.28133,0.0219577,0,0,0,0,0,-5.94739,-5.28133,576,123,576,123,637,117,576,180,0,-0.0348889,0,-1.5,-nan,0,0,0,-6.00248,-5.31417,0,0,0,0,-0.00899557,-0.00991042,3906,-6.00239,-5.31406,-0.00899557,-0.00991042,9609,0,0,0,0,0,0
9634,-3.10495e-12,0,-1.50848e-06,-3.18057e-12,0,0,0,0,0,-7.55284,-5.28133,0.0219577,0,0,0,0,0,-5.94739,-5.28133,576,123,576,123,637,117,576,180,0,-0.0348889,0,-1.5,-nan,0,0,0,-6.00263,-5.31433,0,0,0,0,-0.00899557,-0.00991042,3906,-6.00239,-5.31406,-0.00899557,-0.00991042,9609,0,0,0,0,0,0
9656,-3.10495e-12,0,-1.50848e-06,-3.18057e-12,0,0,0,0,0,-7.61259,-5.33708,0.0399543,0,0,0,0,0,-6.02925,-5.33708,576,123,576,123,638,117,578,179,0,-0.0348889,0,-1.5,-nan,0,0,0,-6.0099,-5.32013,0,0,0,0,-0.0190185,-0.0171583,3844,-6.00969,-5.31994,-0.0190185,-0.0171583,9646,0,0,0,0,0,0
9671,-3.10495e-12,0,-1.50848e-06,-3.18057e-12,0,0,0,0,0,-7.61259,-5.33708,0.0399543,0,0,0,0,0,-6.02925,-5.33708,576,123,576,123,638,117,578,179,0,-0.0348889,0,-1.5,-nan,0,0,0,-6.01021,-5.32041,0,0,0,0,-0.0190185,-0.0171583,3844,-6.00969,-5.31994,-0.0190185,-0.0171583,9646,0,0,0,0,0,0
9692,-3.10495e-12,0,-1.50848e-06,-3.18057e-12,0,0,0,0,0,-7.61259,-5.33708,0.0399543,0,0,0,0,0,-6.02925,-5.33708,576,123,576,123,638,117,578,179,0,-0.0348889,0,-1.5,-nan,0,0,0,-6.0276,-5.33223,0,0,0,0,-0.0394951,-0.0360418,3844,-6.02705,-5.33173,-0.0394951,-0.0360418,9680,0,0,0,0,0,0
9709,-3.10495e-12,0,-1.50848e-06,-3.18057e-12,0,0,0,0,0,-7.61259,-5.33708,0.0399543,0,0,0,0,0,-6.02925,-5.33708,576,123,576,123,638,117,578,179,0,-0.0348889,0,-1.5,-nan,0,0,0,-6.02823,-5.33281,0,0,0,0,-0.0394951,-0.0360418,3844,-6.02705,-5.33173,-0.0394951,-0.0360418,9680,0,0,0,0,0,0
9730,-3.10495e-12,0,-1.50848e-06,-3.18057e-12,0,0,0,0,0,-7.53418,-5.28217,0.0316806,0,0,0,0,0,-5.92182,-5.28217,576,123,576,123,638,115,578,179,0,-0.0348889,0,-1.5,-nan,0,0,0,-6.0111,-5.32433,0,0,0,0,-0.0167702,-0.0206668,3968,-6.01073,-5.32387,-0.0167702,-0.0206668,9716,0,0,0,0,0,0
9745,-3.10495e-12,0,-1.50848e-06,-3.18057e-12,0,0,0,0,0,-7.53418,-5.28217,0.0316806,0,0,0,0,0,-5.92182,-5.28217,576,123,576,123,638,115,578,179,0,-0.0348889,0,-1.5,-nan,0,0,0,-6.01135,-5.32464,0,0,0,0,-0.0167702,-0.0206668,3968,-6.01073,-5.32387,-0.0167702,-0.0206668,9716,0,0,0,0,0,0
9766,-3.10495e-12,0,-1.50848e-06,-3.18057e-12,0,0,0,0,0,-7.61259,-5.33708,0.0399543,0,0,0,0,0,-6.02925,-5.33708,576,123,576,123,638,117,578,179,0,-0.0348889,0,-1.5,-nan,0,0,0,-6.03171,-5.3334,0,0,0,0,-0.0378937,-0.031925,3844,-6.03092,-5.33273,-0.0378937,-0.031925,9752,0,0,0,0,0,0
9788,-3.10495e-12,0,-1.50848e-06,-3.18057e-12,0,0,0,0,0,-7.69651,-5.38671,0.0542134,0,0,0,0,0,-6.14422,-5.38671,576,123,576,123,636,118,578,179,0,-0.0348889,0,-1.5,-nan,0,0,0,-6.03148,-5.33944,0,0,0,0,-0.0365938,-0.0393294,3782,-6.03115,-5.33909,-0.0365938,-0.0393294,9780,0,0,0,0,0,0
9803,-3.10495e-12,0,-1.50848e-06,-3.18057e-12,0,0,0,0,0,-7.69651,-5.38671,0.0542134,0,0,0,0,0,-6.14422,-5.38671,576,123,576,123,636,118,578,179,0,-0.0348889,0,-1.5,-nan,0,0,0,-6.03207,-5.34007,0,0,0,0,-0.0365938,-0.0393294,3782,-6.03115,-5.33909,-0.0365938,-0.0393294,9780,0,0,0,0,0,0
9825,-3.10495e-12,0,-1.50848e-06,-3.18057e-12,0,0,0,0,0,-7.53005,-5.26988,0.0167653,0,0,0,0,0,-5.91617,-5.26988,576,123,576,123,638,117,576,180,0,-0.0348889,0,-1.5,-nan,0,0,0,-6.03491,-5.34003,0,0,0,0,-0.0427995,-0.0412431,3906,-6.03444,-5.33957,-0.0427995,-0.0412431,9815,0,0,0,0,0,0
9841,-3.10495e-12,0,-1.50848e-06,-3.18057e-12,0,0,0,0,0,-7.53005,-5.26988,0.0167653,0,0,0,0,0,-5.91617,-5.26988,576,123,576,123,638,117,576,180,0,-0.0348889,0,-1.5,-nan,0,0,0,-6.03564,-5.34073,0,0,0,0,-0.0427995,-0.0412431,3906,-6.03444,-5.33957,-0.0427995,-0.0412431,9815,0,0,0,0,0,0
9862,-3.10495e-12,0,-1.50848e-06,-3.18057e-12,0,0,0,0,0,-7.63554,-5.34862,0.0451971,0,0,0,0,0,-6.06068,-5.34862,576,123,576,123,637,117,578,179,0,-0.0348889,0,-1.5,-nan,0,0,0,-6.04114,-5.34221,0,0,0,0,-0.0532649,-0.0442605,3844,-6.04003,-5.34128,-0.0532649,-0.0442605,9848,0,0,0,0,0,0
9878,-3.10495e-12,0,-1.50848e-06,-3.18057e-12,0,0,0,0,0,-7.63554,-5.34862,0.0451971,0,0,0,0,0,-6.06068,-5.34862,576,123,576,123,637,117,578,179,0,-0.0348889,0,-1.5,-nan,0,0,0,-6.042,-5.34292,0,0,0,0,-0.0532649,-0.0442605,3844,-6.04003,-5.34128,-0.0532649,-0.0442605,9848,0,0,0,0,0,0
9899,-3.10495e-12,0,-1.50848e-06,-3.18057e-12,0,0,0,0,0,-7.53418,-5.28217,0.0316806,0,0,0,0,0,-5.92182,-5.28217,576,123,576,123,638,115,578,179,0,-0.0348889,0,-1.5,-nan,0,0,0,-6.03947,-5.3421,0,0,0,0,-0.0508887,-0.0420239,3968,-6.0384,-5.34122,-0.0508887,-0.0420239,9885,0,0,0,0,0,0
9915,-3.10495e-12,0,-1.50848e-06,-3.18057e-12,0,0,0,0,0,-7.53418,-5.28217,0.0316806,0,0,0,0,0,-5.92182,-5.28217,576,123,576,123,638,115,578,179,0,-0.0348889,0,-1.5,-nan,0,0,0,-6.04028,-5.34278,0,0,0,0,-0.0508887,-0.0420239,3968,-6.0384,-5.34122,-0.0508887,-0.0420239,9885,0,0,0,0,0,0
9936,-3.10495e-12,0,-1.50848e-06,-3.18057e-12,0,0,0,0,0,-7.63554,-5.34862,0.0451971,0,0,0,0,0,-6.06068,-5.34862,576,123,576,123,637,117,578,179,0,-0.0348889,0,-1.5,-nan,0,0,0,-6.03988,-5.34793,0,0,0,0,-0.0462462,-0.0453675,3844,-6.0389,-5.34698,-0.0462462,-0.0453675,9922,0,0,0,0,0,0
9958,-3.10495e-12,0,-1.50848e-06,-3.18057e-12,0,0,0,0,0,-7.61259,-5.33708,0.0399543,0,0,0,0,0,-6.02925,-5.33708,576,123,576,123,638,117,578,179,0,-0.0348889,0,-1.5,-nan,0,0,0,-6.03067,-5.3424,0,0,0,0,-0.0318489,-0.0393728,3844,-6.03022,-5.34185,-0.0318489,-0.0393728,9946,0,0,0,0,0,0
9973,-3.10495e-12,0,-1.50848e-06,-3.18057e-12,0,0,0,0,0,-7.61259,-5.33708,0.0399543,0,0,0,0,0,-6.02925,-5.33708,576,123,576,123,638,117,578,179,0,-0.0348889,0,-1.5,-nan,0,0,0,-6.03118,-5.34303,0,0,0,0,-0.0318489,-0.0393728,3844,-6.03022,-5.34185,-0.0318489,-0.0393728,9946,0,0,0,0,0,0
9995,-3.10495e-12,0,-1.50848e-06,-3.18057e-12,0,0,0,0,0,-7.55284,-5.28133,0.0219577,0,0,0,0,0,-5.94739,-5.28133,576,123,576,123,637,117,576,180,0,-0.0348889,0,-1.5,-nan,0,0,0,-6.04025,-5.33898,0,0,0,0,-0.0459823,-0.0330159,3906,-6.03924,-5.33825,-0.0459823,-0.0330159,9981,0,0,0,0,0,0
10011,-3.10495e-12,0,-1.50848e-06,-3.18057e-12,0,0,0,0,0,-7.55284,-5.28133,0.0219577,0,0,0,0,0,-5.94739,-5.28133,576,123,576,123,637,117,576,180,0,-0.0348889,0,-1.5,-nan,0,0,0,-6.04094,-5.33947,0,0,0,0,-0.0459823,-0.0330159,3906,-6.03924,-5.33825,-0.0459823,-0.0330159,9981,0,0,0,0,0,0
10026,-3.10495e-12,0,-1.50848e-06,-3.18057e-12,0,0,0,0,0,-7.55284,-5.28133,0.0219577,0,0,0,0,0,-5.94739,-5.28133,576,123,576,123,637,117,576,180,0,-0.0348889,0,-1.5,-nan,0,0,0,-6.04168,-5.34,0,0,0,0,-0.0459823,-0.0330159,3906,-6.03924,-5.33825,-0.0459823,-0.0330159,9981,0,0,0,0,0,0
10048,-3.10495e-12,0,-1.50848e-06,-3.18057e-12,0,0,0,0,0,-7.6191,-5.3419,0.0370204,0,0,0,0,0,-6.03816,-5.3419,576,123,576,123,637,117,579,180,0,-0.0348889,0,-1.5,-nan,0,0,0,-6.02983,-5.33927,0,0,0,0,-0.0333686,-0.0345086,3906,-6.0296,-5.33903,-0.0333686,-0.0345086,10042,0,0,0,0,0,0
10063,-3.10495e-12,0,-1.50848e-06,-3.18057e-12,0,0,0,0,0,-7.6191,-5.3419,0.0370204,0,0,0,0,0,-6.03816,-5.3419,576,123,576,123,637,117,579,180,0,-0.0348889,0,-1.5,-nan,0,0,0,-6.03036,-5.33982,0,0,0,0,-0.0333686,-0.0345086,3906,-6.0296,-5.33903,-0.0333686,-0.0345086,10042,0,0,0,0,0,0
10085,-3.10495e-12,0,-1.50848e-06,-3.18057e-12,0,0,0,0,0,-7.43375,-5.1886,-0.00408501,0,0,0,0,0,-5.78423,-5.1886,573,123,573,123,638,117,576,180,0,-0.0348889,0,-1.5,-nan,0,0,0,-6.03624,-5.34459,0,0,0,0,-0.0371365,-0.0358607,4095,-6.03594,-5.3443,-0.0371365,-0.0358607,10079,0,0,0,0,0,0
10100,-3.10495e-12,0,-1.50848e-06,-3.18057e-12,0,0,0,0,0,-7.43375,-5.1886,-0.00408501,0,0,0,0,0,-5.78423,-5.1886,573,123,573,123,638,117,576,180,0,-0.0348889,0,-1.5,-nan,0,0,0,-6.03679,-5.34513,0,0,0,0,-0.0371365,-0.0358607,4095,-6.03594,-5.3443,-0.0371365,-0.0358607,10079,0,0,0,0,0,0
10122,-3.10495e-12,0,-1.50848e-06,-3.18057e-12,0,0,0,0,0,-7.55284,-5.28133,0.0219577,0,0,0,0,0,-5.94739,-5.28133,576,123,576,123,637,117,576,180,0,-0.0348889,0,-1.5,-nan,0,0,0,-6.01493,-5.33535,0,0,0,0,-0.00377449,-0.0237055,3906,-6.01489,-5.33511,-0.00377449,-0.0237055,10114,0,0,0,0,0,0
