timestamp,A_x,A_y,A_z,P,Q,R,Phi,Theta,Psi,poseX,poseY,poseZ,state_X,state_Y,state_Z,state_VzB,state_Bx,state_By,state_Bz,p1_x,p1_y,p2_x,p2_y,p3_x,p3_y,p4_x,p4_y,roll,pitch,yaw,alt,targetHeading,highLevelState,lowLevelState,gateNumber,filtered_x,filtered_y,x_OT,y_OT,vx_OT,vy_OT
10,0,0,0,0,0,0,0,0,0,0,0,0,0,0,0,0,0,0,0,0,0,0,0,0,0,0,0,0,-0.261799,0.0062205,-1.5,nan,0,0,3,0,0,0,0,0,0
20,-3.34124e-12,0,-1.59137e-06,-3.40794e-12,0,0,-1.13703e-13,0,0,0,0,0,0,0,0,0,0,0,0,0,0,0,0,0,0,0,0,0,-0.261799,0.00145167,-1.5,nan,0,0,3,0,0,0,0,0,0
30,-3.34124e-12,0,-1.59137e-06,-3.40794e-12,0,-3.89773e-12,-1.13703e-13,0,0,0,0,0,0,0,0,0,0,0,0,0,0,0,0,0,0,0,0,0,-0.261799,0.00140861,-1.5,nan,0,0,3,0,0,0,0,0,0
40,-3.34124e-12,0,-1.59137e-06,-3.40794e-12,0,0,-1.13704e-13,0,0,0,0,0,0,0,0,0,0,0,0,0,0,0,0,0,0,0,0,0,-0.261799,0.00132532,-1.5,nan,0,0,3,0,0,0,0,0,0
50,-3.34124e-12,0,-1.59137e-06,-3.40794e-12,0,-3.89773e-12,-1.13704e-13,0,0,0,0,0,0,0,0,0,0,0,0,0,0,0,0,0,0,0,0,0,-0.261799,0.00127294,-1.5,nan,0,0,3,0,0,0,0,0,0
60,-3.34124e-12,0,-1.59137e-06,-3.40794e-12,0,0,-1.13705e-13,0,0,0,0,0,0,0,0,0,0,0,0,0,0,0,0,0,0,0,0,0,-0.261799,0.00121767,-1.5,nan,0,0,3,0,0,0,0,0,0
70,-3.34124e-12,0,-1.59137e-06,-3.40794e-12,0,-3.89773e-12,-1.13705e-13,0,0,0,0,0,0,0,0,0,0,0,0,0,0,0,0,0,0,0,0,0,-0.261799,0.00117194,-1.5,nan,0,0,3,0,0,0,0,0,0
80,-3.34124e-12,0,-1.59137e-06,-3.40794e-12,0,0,-1.13706e-13,0,0,0,0,0,0,0,0,0,0,0,0,0,0,0,0,0,0,0,0,0,-0.261799,0.00109795,-1.5,nan,0,0,3,0,0,0,0,0,0
90,-3.34124e-12,0,-1.59137e-06,-3.40794e-12,0,-3.89773e-12,-1.13706e-13,0,0,0,0,0,0,0,0,0,0,0,0,0,0,0,0,0,0,0,0,0,-0.261799,0.00091625,-1.5,nan,0,0,3,0,0,0,0,0,0
100,-3.34124e-12,0,-1.59137e-06,-3.40794e-12,0,0,-1.13707e-13,0,0,0,0,0,0,0,0,0,0,0,0,0,0,0,0,0,0,0,0,0,-0.261799,0.000874671,-1.5,nan,0,0,3,0,0,0,0,0,0
110,-3.34124e-12,0,-1.59137e-06,-3.40794e-12,0,-3.89773e-12,-1.13708e-13,0,0,0,0,0,0,0,0,0,0,0,0,0,0,0,0,0,0,0,0,0,-0.261799,0.000841823,-1.5,nan,0,0,3,0,0,0,0,0,0
120,-3.34124e-12,0,-1.59137e-06,-3.40794e-12,0,0,-1.13708e-13,0,0,0,0,0,0,0,0,0,0,0,0,0,0,0,0,0,0,0,0,0,-0.261799,0.000805238,-1.5,nan,0,0,3,0,0,0,0,0,0
130,-3.34124e-12,0,-1.59137e-06,-3.40794e-12,0,-3.89773e-12,-1.13709e-13,0,0,0,0,0,0,0,0,0,0,0,0,0,0,0,0,0,0,0,0,0,-0.261799,0.000773442,-1.5,nan,0,0,3,0,0,0,0,0,0
140,-3.34124e-12,0,-1.59137e-06,-3.40794e-12,0,0,-1.13709e-13,0,0,-3.1232,-0.0829445,0.344477,0,0,0,0,0,0.876796,-0.0829445,-1368607936,-1368607936,-1368607936,-1368607936,-1368607896,-12924923,-203663805,-1368607896,0,-0.261799,0.000720039,-1.5,nan,0,0,3,0,0,0,0,0,0
150,-3.34124e-12,0,-1.59137e-06,-3.40794e-12,0,-3.89773e-12,-1.1371e-13,0,0,-3.1232,-0.0829445,0.344477,0,0,0,0,0,0.876796,-0.0829445,-1368607936,-1368607936,-1368607936,-1368607936,-1368607896,-12924923,-203663805,-1368607896,0,-0.261799,0.000691607,-1.5,nan,0,0,3,0,0,0,0,0,0
160,-3.34124e-12,0,-1.59137e-06,-3.40794e-12,0,0,-1.1371e-13,0,0,-3.1232,-0.0829445,0.344477,0,0,0,0,0,0.876796,-0.0829445,-1368607936,-1368607936,-1368607936,-1368607936,-1368607896,-12924923,-203663805,-1368607896,0,-0.261799,0.000661581,-1.5,nan,0,0,3,0,0,0,0,0,0
170,-3.34124e-12,0,-1.59137e-06,-3.40794e-12,0,-3.89773e-12,-1.13711e-13,0,0,-3.1232,-0.0829445,0.344477,0,0,0,0,0,0.876796,-0.0829445,-1368607936,-1368607936,-1368607936,-1368607936,-1368607896,-12924923,-203663805,-1368607896,0,-0.261799,0.000636735,-1.5,nan,0,0,3,0,0,0,0,0,0
180,-3.34124e-12,0,-1.59137e-06,-3.40794e-12,0,0,-1.13711e-13,0,0,-3.09764,-0.0785058,0.327797,0,0,0,0,0,0.902363,-0.0785058,-1368607936,-1368607936,-1368607936,-1368607936,-1368607896,-12924923,-203663805,-1368607896,0,-0.261799,0.000532617,-1.5,nan,0,0,3,0,0,0,0,0,0
190,-3.34124e-12,0,-1.59137e-06,-3.40794e-12,0,-3.89773e-12,-1.13712e-13,0,0,-3.09764,-0.0785058,0.327797,0,0,0,0,0,0.902363,-0.0785058,-1368607936,-1368607936,-1368607936,-1368607936,-1368607896,-12924923,-203663805,-1368607896,0,-0.261799,0.00051054,-1.5,nan,0,0,3,0,0,0,0,0,0
200,-3.34124e-12,0,-1.59137e-06,-3.40794e-12,0,0,-1.13712e-13,0,0,-3.09764,-0.0785058,0.327797,0,0,0,0,0,0.902363,-0.0785058,-1368607936,-1368607936,-1368607936,-1368607936,-1368607896,-12924923,-203663805,-1368607896,0,-0.261799,0.000488352,-1.5,nan,0,0,3,0,0,0,0,0,0
210,-3.34124e-12,0,-1.59137e-06,-3.40794e-12,0,-3.89773e-12,-1.13713e-13,0,0,-3.09764,-0.0785058,0.327797,0,0,0,0,0,0.902363,-0.0785058,-1368607936,-1368607936,-1368607936,-1368607936,-1368607896,-12924923,-203663805,-1368607896,0,-0.261799,0.000470974,-1.5,nan,0,0,3,0,0,0,0,0,0
220,-3.34124e-12,0,-1.59137e-06,-3.40794e-12,0,0,-1.13714e-13,0,0,-3.09764,-0.0785058,0.327797,0,0,0,0,0,0.902363,-0.0785058,-1368607936,-1368607936,-1368607936,-1368607936,-1368607896,-12924923,-203663805,-1368607896,0,-0.261799,0.000460702,-1.5,nan,0,0,3,0,0,0,0,0,0
230,-3.34124e-12,0,-1.59137e-06,-3.40794e-12,0,-3.89773e-12,-1.13714e-13,0,0,-3.09764,-0.0785058,0.327797,0,0,0,0,0,0.902363,-0.0785058,-1368607936,-1368607936,-1368607936,-1368607936,-1368607896,-12924923,-203663805,-1368607896,0,-0.261799,0.000447935,-1.5,nan,0,0,3,0,0,0,0,0,0
240,-3.34124e-12,0,-1.59137e-06,-3.40794e-12,0,0,-1.13715e-13,0,0,-3.09764,-0.0785058,0.327797,0,0,0,0,0,0.902363,-0.0785058,-1368607936,-1368607936,-1368607936,-1368607936,-1368607896,-12924923,-203663805,-1368607896,0,-0.261799,0.000430231,-1.5,nan,0,0,3,0,0,0,0,0,0
250,-3.34124e-12,0,-1.59137e-06,-3.40794e-12,0,-3.89773e-12,-1.13715e-13,0,0,-3.09764,-0.0785058,0.327797,0,0,0,0,0,0.902363,-0.0785058,-1368607936,-1368607936,-1368607936,-1368607936,-1368607896,-12924923,-203663805,-1368607896,0,-0.261799,0.000410707,-1.5,nan,0,0,3,0,0,0,0,0,0
260,-3.34124e-12,0,-1.59137e-06,-3.40794e-12,0,0,-1.13716e-13,0,0,-3.20673,-0.0883618,0.418877,0,0,0,0,0,0.793269,-0.0883618,-1368607936,-1368607936,-1368607936,-1368607936,-1368607896,-12924923,-203663805,-1368607896,0,-0.261799,0.000345974,-1.5,nan,0,0,3,0,0,0,0,0,0
270,-3.34124e-12,0,-1.59137e-06,-3.40794e-12,0,-3.89773e-12,-1.13716e-13,0,0,-3.21038,-0.0873962,0.374352,0,0,0,0,0,0.789619,-0.0873962,-1368607936,-1368607936,-1368607936,-1368607936,-1368607896,-12924923,-203663805,-1368607896,0,-0.261799,0.000330938,-1.5,nan,0,0,3,0,0,0,0,0,0
280,-3.34124e-12,0,-1.59137e-06,-3.40794e-12,0,0,-1.13717e-13,0,0,-3.21038,-0.0873962,0.374352,0,0,0,0,0,0.789619,-0.0873962,-1368607936,-1368607936,-1368607936,-1368607936,-1368607896,-12924923,-203663805,-1368607896,0,-0.261799,0.000317859,-1.5,nan,0,0,3,0,0,0,0,0,0
290,-3.34124e-12,0,-1.59137e-06,-3.40794e-12,0,-3.89773e-12,-1.13717e-13,0,0,-3.12791,-0.0651679,0.313727,0,0,0,0,0,0.872089,-0.0651679,-1368607936,-1368607936,-1368607936,-1368607936,-1368607896,-12924923,-203663805,-1368607896,0.135686,-0.261799,0.000244612,-1.5,nan,0,0,3,0.736195,-0.091609,0,0,0,0
300,-3.34124e-12,0,-1.59137e-06,-3.40794e-12,0,0,-1.13718e-13,0,0,-3.15596,-0.0537677,0.313261,0,0,0,0,0,0.844037,-0.0537677,-1368607936,-1368607936,-1368607936,-1368607936,-1368607896,-12924923,-203663805,-1368607896,0.0279264,-0.261799,0.000218137,-1.5,nan,0,0,3,0.836924,-0.0582994,0,0,0,0
310,-3.34124e-12,0,-1.59137e-06,-3.40794e-12,0,-3.89773e-12,-1.13718e-13,0,0,-3.15596,-0.0537677,0.313261,0,0,0,0,0,0.844037,-0.0537677,-1368607936,-1368607936,-1368607936,-1368607936,-1368607896,-12924923,-203663805,-1368607896,0.0271362,-0.261799,0.000210803,-1.5,nan,0,0,3,0.834726,-0.0576205,0,0,0,0
320,-3.34124e-12,0,-1.59137e-06,-3.40794e-12,0,0,-1.13719e-13,0,0,-3.15596,-0.0537677,0.313261,0,0,0,0,0,0.844037,-0.0537677,-1368607936,-1368607936,-1368607936,-1368607936,-1368607896,-12924923,-203663805,-1368607896,0.0264389,-0.261799,0.00020455,-1.5,nan,0,0,3,0.832786,-0.0570215,0,0,0,0
330,-3.34124e-12,0,-1.59137e-06,-3.40794e-12,0,-3.89773e-12,-1.13719e-13,0,0,-3.15596,-0.0537677,0.313261,0,0,0,0,0,0.844037,-0.0537677,-1368607936,-1368607936,-1368607936,-1368607936,-1368607896,-12924923,-203663805,-1368607896,0.0230457,-0.261799,0.000175128,-1.5,nan,0,0,3,0.823345,-0.0541063,0,0,0,0
340,-3.34124e-12,0,-1.59137e-06,-3.40794e-12,0,0,-1.1372e-13,0,0,-3.29955,-0.175628,0.51437,0,0,0,0,0,0.700451,-0.175628,-1368607936,-1368607936,-1368607936,-1368607936,-1368607896,-12924923,-203663805,-1368607896,0.144952,-0.261799,0.000135806,-1.5,nan,0,0,3,0.662779,-0.0995697,0,0,0,0
350,-3.34124e-12,0,-1.59137e-06,-3.40794e-12,0,-3.89773e-12,-1.13721e-13,0,0,-3.29955,-0.175628,0.51437,0,0,0,0,0,0.700451,-0.175628,-1368607936,-1368607936,-1368607936,-1368607936,-1368607896,-12924923,-203663805,-1368607896,0.145865,-0.261799,0.000128576,-1.5,nan,0,0,3,0.653856,-0.100354,0,0,0,0
360,-3.34124e-12,0,-1.59137e-06,-3.40794e-12,0,0,-1.13721e-13,0,0,-3.29955,-0.175628,0.51437,0,0,0,0,0,0.700451,-0.175628,-1368607936,-1368607936,-1368607936,-1368607936,-1368607896,-12924923,-203663805,-1368607896,0.146508,-0.261799,0.000123748,-1.5,nan,0,0,3,0.647577,-0.100906,0,0,0,0
370,-3.34124e-12,0,-1.59137e-06,-3.40794e-12,0,-3.89773e-12,-1.13722e-13,0,0,-3.29955,-0.175628,0.51437,0,0,0,0,0,0.700451,-0.175628,-1368607936,-1368607936,-1368607936,-1368607936,-1368607896,-12924923,-203663805,-1368607896,0.146981,-0.261799,0.00012032,-1.5,nan,0,0,3,0.642951,-0.101313,0,0,0,0
380,-3.34124e-12,0,-1.59137e-06,-3.40794e-12,0,0,-1.13722e-13,0,0,-3.29955,-0.175628,0.51437,0,0,0,0,0,0.700451,-0.175628,-1368607936,-1368607936,-1368607936,-1368607936,-1368607896,-12924923,-203663805,-1368607896,0.149653,-0.261799,0.000101592,-1.5,nan,0,0,3,0.616845,-0.103608,0,0,0,0
390,-3.34124e-12,0,-1.59137e-06,-3.40794e-12,0,-3.89773e-12,-1.13723e-13,0,0,-3.30363,-0.269144,0.532238,0,0,0,0,0,0.696368,-0.269144,-1368607936,-1368607936,-1368607936,-1368607936,-1368607896,-12924923,-203663805,-1368607896,0.261799,-0.261799,8.07811e-05,-1.5,nan,0,0,3,0.671573,-0.253709,0,0,0,0
400,-3.34124e-12,0,-1.59137e-06,-3.40794e-12,0,0,-1.13723e-13,0,0,-3.30363,-0.269144,0.532238,0,0,0,0,0,0.696368,-0.269144,-1368607936,-1368607936,-1368607936,-1368607936,-1368607896,-12924923,-203663805,-1368607896,0.261799,-0.261799,7.66344e-05,-1.5,nan,0,0,3,0.665374,-0.259396,0,0,0,0
410,-3.34124e-12,0,-1.59137e-06,-3.40794e-12,0,-3.89773e-12,-1.13724e-13,0,0,-3.2848,-0.273951,0.51491,0,0,0,0,0,0.715196,-0.273951,-1368607936,-1368607936,-1368607936,-1368607936,-1368607896,-12924923,-203663805,-1368607896,0.261799,-0.261799,6.04833e-05,-1.5,nan,0,0,3,0.659482,-0.299134,0,0,0,0
420,-3.34124e-12,0,-1.59137e-06,-3.40794e-12,0,0,-1.13724e-13,0,0,-3.11666,-0.192686,0.319275,0,0,0,0,0,0.883343,-0.192686,-1368607936,-1368607936,-1368607936,-1368607936,-1368607896,-12924923,-203663805,-1368607896,0.261799,-0.261799,5.59501e-05,-1.5,nan,0,0,3,0.692709,-0.287808,0,0,0,0
430,-3.34124e-12,0,-1.59137e-06,-3.40794e-12,0,-3.89773e-12,-1.13725e-13,0,0,-3.17683,-0.142796,0.336576,0,0,0,0,0,0.82317,-0.142796,-1368607936,-1368607936,-1368607936,-1368607936,-1368607896,-12924923,-203663805,-1368607896,0.261799,-0.261799,4.00003e-05,-1.5,nan,0,0,3,0.816799,-0.215764,0,0,0,0
440,-3.34124e-12,0,-1.59137e-06,-3.40794e-12,0,0,-1.13725e-13,0,0,-3.14959,-0.10576,0.303905,0,0,0,0,0,0.850407,-0.10576,-1368607936,-1368607936,-1368607936,-1368607936,-1368607896,-12924923,-203663805,-1368607896,0.261799,-0.261799,3.73959e-05,-1.5,nan,0,0,3,0.821452,-0.181813,0,0,0,0
450,-3.34124e-12,0,-1.59137e-06,-3.40794e-12,0,-3.89773e-12,-1.13726e-13,0,0,-3.14959,-0.10576,0.303905,0,0,0,0,0,0.850407,-0.10576,-1368607936,-1368607936,-1368607936,-1368607936,-1368607896,-12924923,-203663805,-1368607896,0.237693,-0.261799,2.90906e-05,-1.5,nan,0,0,3,0.849385,-0.157427,0,0,0,0
460,-3.34124e-12,0,-1.59137e-06,-3.40794e-12,0,0,-1.13727e-13,0,0,-3.14798,-0.109045,0.308827,0,0,0,0,0,0.852022,-0.109045,-1368607936,-1368607936,-1368607936,-1368607936,-1368607896,-12924923,-203663805,-1368607896,0.169026,-0.261799,1.91235e-05,-1.5,nan,0,0,3,0.863683,-0.122567,0,0,0,0
470,-3.34124e-12,0,-1.59137e-06,-3.40794e-12,0,-3.89773e-12,-1.13727e-13,0,0,-3.14798,-0.109045,0.308827,0,0,0,0,0,0.852022,-0.109045,-1368607936,-1368607936,-1368607936,-1368607936,-1368607896,-12924923,-203663805,-1368607896,0.169425,-0.261799,1.86312e-05,-1.5,nan,0,0,3,0.864328,-0.12291,0,0,0,0
480,-3.34124e-12,0,-1.59137e-06,-3.40794e-12,0,0,-1.13728e-13,0,0,-3.14798,-0.109045,0.308827,0,0,0,0,0,0.852022,-0.109045,-1368607936,-1368607936,-1368607936,-1368607936,-1368607896,-12924923,-203663805,-1368607896,0.169854,-0.261799,1.81148e-05,-1.5,nan,0,0,3,0.865022,-0.123279,0,0,0,0
490,-3.34124e-12,0,-1.59137e-06,-3.40794e-12,0,-3.89773e-12,-1.13728e-13,0,0,-3.14798,-0.109045,0.308827,0,0,0,0,0,0.852022,-0.109045,-1368607936,-1368607936,-1368607936,-1368607936,-1368607896,-12924923,-203663805,-1368607896,0.170376,-0.261799,1.75063e-05,-1.5,nan,0,0,3,0.865865,-0.123727,0,0,0,0
500,-3.34124e-12,0,-1.59137e-06,-3.40794e-12,0,0,-1.13729e-13,0,0,-3.14798,-0.109045,0.308827,0,0,0,0,0,0.852022,-0.109045,-1368607936,-1368607936,-1368607936,-1368607936,-1368607896,-12924923,-203663805,-1368607896,0.17099,-0.261799,1.68144e-05,-1.5,nan,0,0,3,0.866857,-0.124254,0,0,0,0
510,-3.34124e-12,0,-1.59137e-06,-3.40794e-12,0,-3.89773e-12,-1.13729e-13,0,0,-3.14798,-0.109045,0.308827,0,0,0,0,0,0.852022,-0.109045,-1368607936,-1368607936,-1368607936,-1368607936,-1368607896,-12924923,-203663805,-1368607896,0.171419,-0.261799,1.63486e-05,-1.5,nan,0,0,3,0.867552,-0.124623,0,0,0,0
520,-3.34124e-12,0,-1.59137e-06,-3.40794e-12,0,0,-1.1373e-13,0,0,-3.03636,-0.126821,0.376117,0,0,0,0,0,0.963638,-0.126821,-1368607936,-1368607936,-1368607936,-1368607936,-1368607896,-12924923,-203663805,-1368607896,0.181069,-0.261799,1.11109e-05,-1.5,nan,0,0,3,0.876696,-0.132323,0,0,0,0
530,-3.34124e-12,0,-1.59137e-06,-3.40794e-12,0,-3.89773e-12,-1.1373e-13,0,0,-3.03636,-0.126821,0.376117,0,0,0,0,0,0.963638,-0.126821,-1368607936,-1368607936,-1368607936,-1368607936,-1368607896,-12924923,-203663805,-1368607896,0.181919,-0.261799,1.05187e-05,-1.5,nan,0,0,3,0.878045,-0.133054,0,0,0,0
540,-3.34124e-12,0,-1.59137e-06,-3.40794e-12,0,0,-1.13731e-13,0,0,-3.03636,-0.126821,0.376117,0,0,0,0,0,0.963638,-0.126821,-1368607936,-1368607936,-1368607936,-1368607936,-1368607896,-12924923,-203663805,-1368607896,0.182549,-0.261799,1.01034e-05,-1.5,nan,0,0,3,0.879045,-0.133595,0,0,0,0
550,-3.34124e-12,0,-1.59137e-06,-3.40794e-12,0,-3.89773e-12,-1.13731e-13,0,0,-3.03636,-0.126821,0.376117,0,0,0,0,0,0.963638,-0.126821,-1368607936,-1368607936,-1368607936,-1368607936,-1368607896,-12924923,-203663805,-1368607896,0.18321,-0.261799,9.68418e-06,-1.5,nan,0,0,3,0.880095,-0.134163,0,0,0,0
560,-3.34124e-12,0,-1.59137e-06,-3.40794e-12,0,0,-1.13732e-13,0,0,-3.1105,-0.113253,0.415911,0,0,0,0,0,0.889501,-0.113253,-1368607936,-1368607936,-1368607936,-1368607936,-1368607896,-12924923,-203663805,-1368607896,0.16765,-0.261799,7.63913e-06,-1.5,nan,0,0,3,0.892691,-0.125356,0,0,0,0
570,-3.34124e-12,0,-1.59137e-06,-3.40794e-12,0,-3.89773e-12,-1.13732e-13,0,0,-3.1105,-0.113253,0.415911,0,0,0,0,0,0.889501,-0.113253,-1368607936,-1368607936,-1368607936,-1368607936,-1368607896,-12924923,-203663805,-1368607896,0.167953,-0.261799,7.45752e-06,-1.5,nan,0,0,3,0.893412,-0.125617,0,0,0,0
580,-3.34124e-12,0,-1.59137e-06,-3.40794e-12,0,0,-1.13733e-13,0,0,-3.09555,-0.103244,0.413353,0,0,0,0,0,0.904446,-0.103244,-1368607936,-1368607936,-1368607936,-1368607936,-1368607896,-12924923,-203663805,-1368607896,0.166021,-0.261799,5.05368e-06,-1.5,nan,0,0,3,0.908043,-0.125473,0,0,0,0
590,-3.34124e-12,0,-1.59137e-06,-3.40794e-12,0,-3.89773e-12,-1.13734e-13,0,0,-3.09555,-0.103244,0.413353,0,0,0,0,0,0.904446,-0.103244,-1368607936,-1368607936,-1368607936,-1368607936,-1368607896,-12924923,-203663805,-1368607896,0.166533,-0.261799,4.83406e-06,-1.5,nan,0,0,3,0.90945,-0.125912,0,0,0,0
600,-3.34124e-12,0,-1.59137e-06,-3.40794e-12,0,0,-1.13734e-13,0,0,-3.09555,-0.103244,0.413353,0,0,0,0,0,0.904446,-0.103244,-1368607936,-1368607936,-1368607936,-1368607936,-1368607896,-12924923,-203663805,-1368607896,0.166974,-0.261799,4.65252e-06,-1.5,nan,0,0,3,0.910665,-0.126292,0,0,0,0
610,-3.34124e-12,0,-1.59137e-06,-3.40794e-12,0,-3.89773e-12,-1.13735e-13,0,0,-3.09555,-0.103244,0.413353,0,0,0,0,0,0.904446,-0.103244,-1368607936,-1368607936,-1368607936,-1368607936,-1368607896,-12924923,-203663805,-1368607896,0.167439,-0.261799,4.4688e-06,-1.5,nan,0,0,3,0.911944,-0.126691,0,0,0,0
620,-3.34124e-12,0,-1.59137e-06,-3.40794e-12,0,0,-1.13735e-13,0,0,-3.09555,-0.103244,0.413353,0,0,0,0,0,0.904446,-0.103244,-1368607936,-1368607936,-1368607936,-1368607936,-1368607896,-12924923,-203663805,-1368607896,0.167927,-0.261799,4.28339e-06,-1.5,nan,0,0,3,0.913287,-0.12711,0,0,0,0
630,-3.34124e-12,0,-1.59137e-06,-3.40794e-12,0,-3.89773e-12,-1.13736e-13,0,0,-3.09555,-0.103244,0.413353,0,0,0,0,0,0.904446,-0.103244,-1368607936,-1368607936,-1368607936,-1368607936,-1368607896,-12924923,-203663805,-1368607896,0.0539177,-0.261799,3.33084e-06,-1.5,nan,0,0,3,0.932263,-0.0866794,0,0,0,0
640,-3.34124e-12,0,-1.59137e-06,-3.40794e-12,0,0,-1.13736e-13,0,0,-3.11807,-0.135809,0.437668,0,0,0,0,0,0.881927,-0.135809,-1368607936,-1368607936,-1368607936,-1368607936,-1368607896,-12924923,-203663805,-1368607896,0.0636649,-0.261799,2.25565e-06,-1.5,nan,0,0,3,0.938689,-0.0886045,0,0,0,0
650,-3.34124e-12,0,-1.59137e-06,-3.40794e-12,0,-3.89773e-12,-1.13737e-13,0,0,-3.11807,-0.135809,0.437668,0,0,0,0,0,0.881927,-0.135809,-1368607936,-1368607936,-1368607936,-1368607936,-1368607896,-12924923,-203663805,-1368607896,0.0630217,-0.261799,2.19313e-06,-1.5,nan,0,0,3,0.939756,-0.0880519,0,0,0,0
660,-3.34124e-12,0,-1.59137e-06,-3.40794e-12,0,0,-1.13737e-13,0,0,-3.11807,-0.135809,0.437668,0,0,0,0,0,0.881927,-0.135809,-1368607936,-1368607936,-1368607936,-1368607936,-1368607896,-12924923,-203663805,-1368607896,0.0621028,-0.261799,2.10653e-06,-1.5,nan,0,0,3,0.941281,-0.0872625,0,0,0,0
670,-3.34124e-12,0,-1.59137e-06,-3.40794e-12,0,-3.89773e-12,-1.13738e-13,0,0,-3.11807,-0.135809,0.437668,0,0,0,0,0,0.881927,-0.135809,-1368607936,-1368607936,-1368607936,-1368607936,-1368607896,-12924923,-203663805,-1368607896,0.0612299,-0.261799,2.02742e-06,-1.5,nan,0,0,3,0.942729,-0.0865126,0,0,0,0
680,-3.34124e-12,0,-1.59137e-06,-3.40794e-12,0,0,-1.13738e-13,0,0,-3.06231,-0.116372,0.38663,0,0,0,0,0,0.937689,-0.116372,-1368607936,-1368607936,-1368607936,-1368607936,-1368607896,-12924923,-203663805,-1368607896,0.109621,-0.261799,1.56821e-06,-1.5,nan,0,0,3,0.944928,-0.105621,0,0,0,0
690,-3.34124e-12,0,-1.59137e-06,-3.40794e-12,0,-3.89773e-12,-1.13739e-13,0,0,-2.82646,-0.210659,0.238933,0,0,0,0,0,1.17354,-0.210659,-1368607936,-1368607936,-1368607936,-1368607936,-1368607896,-12924923,-203663805,-1368607896,0.127163,-0.261799,9.66087e-07,-1.5,nan,0,0,3,0.957204,-0.115443,0,0,0,0
700,-3.34124e-12,0,-1.59137e-06,-3.40794e-12,0,0,-1.1374e-13,0,0,-3.07275,-0.180016,0.431192,0,0,0,0,0,0.927253,-0.180016,-1368607936,-1368607936,-1368607936,-1368607936,-1368607896,-12924923,-203663805,-1368607896,0.184526,-0.261799,8.53748e-07,-1.5,nan,0,0,3,0.945567,-0.14137,0,0,0,0
710,-3.34124e-12,0,-1.59137e-06,-3.40794e-12,0,-3.89773e-12,-1.1374e-13,0,0,-3.07275,-0.180016,0.431192,0,0,0,0,0,0.927253,-0.180016,-1368607936,-1368607936,-1368607936,-1368607936,-1368607896,-12924923,-203663805,-1368607896,0.184897,-0.261799,8.28408e-07,-1.5,nan,0,0,3,0.946455,-0.14169,0,0,0,0
720,-3.34124e-12,0,-1.59137e-06,-3.40794e-12,0,0,-1.13741e-13,0,0,-3.07275,-0.180016,0.431192,0,0,0,0,0,0.927253,-0.180016,-1368607936,-1368607936,-1368607936,-1368607936,-1368607896,-12924923,-203663805,-1368607896,0.185339,-0.261799,7.97324e-07,-1.5,nan,0,0,3,0.947508,-0.142069,0,0,0,0
730,-3.34124e-12,0,-1.59137e-06,-3.40794e-12,0,-3.89773e-12,-1.13741e-13,0,0,-3.05383,-0.232858,0.506665,0,0,0,0,0,0.946168,-0.232858,-1368607936,-1368607936,-1368607936,-1368607936,-1368607896,-12924923,-203663805,-1368607896,0.251483,-0.261799,5.22572e-07,-1.5,nan,0,0,3,0.95471,-0.181393,0,0,0,0
740,-3.34124e-12,0,-1.59137e-06,-3.40794e-12,0,0,-1.13742e-13,0,0,-3.06519,-0.244899,0.571888,0,0,0,0,0,0.934805,-0.244899,-1368607936,-1368607936,-1368607936,-1368607936,-1368607896,-12924923,-203663805,-1368607896,0.261799,-0.261799,4.81408e-07,-1.5,nan,0,0,3,0.957062,-0.192638,0,0,0,0
750,-3.34124e-12,0,-1.59137e-06,-3.40794e-12,0,-3.89773e-12,-1.13742e-13,0,0,-3.06519,-0.244899,0.571888,0,0,0,0,0,0.934805,-0.244899,-1368607936,-1368607936,-1368607936,-1368607936,-1368607896,-12924923,-203663805,-1368607896,0.261799,-0.261799,4.66181e-07,-1.5,nan,0,0,3,0.957937,-0.193368,0,0,0,0
760,-3.34124e-12,0,-1.59137e-06,-3.40794e-12,0,0,-1.13743e-13,0,0,-3.06519,-0.244899,0.571888,0,0,0,0,0,0.934805,-0.244899,-1368607936,-1368607936,-1368607936,-1368607936,-1368607896,-12924923,-203663805,-1368607896,0.261799,-0.261799,4.51427e-07,-1.5,nan,0,0,3,0.958811,-0.194098,0,0,0,0
770,-3.34124e-12,0,-1.59137e-06,-3.40794e-12,0,-3.89773e-12,-1.13743e-13,0,0,-3.06608,-0.24258,0.646676,0,0,0,0,0,0.933924,-0.24258,-1368607936,-1368607936,-1368607936,-1368607936,-1368607896,-12924923,-203663805,-1368607896,0.261799,-0.261799,3.02987e-07,-1.5,nan,0,0,3,0.944019,-0.25904,0,0,0,0
780,-3.34124e-12,0,-1.59137e-06,-3.40794e-12,0,0,-1.13744e-13,0,0,-3.06608,-0.24258,0.646676,0,0,0,0,0,0.933924,-0.24258,-1368607936,-1368607936,-1368607936,-1368607936,-1368607896,-12924923,-203663805,-1368607896,0.261799,-0.261799,2.87452e-07,-1.5,nan,0,0,3,0.94487,-0.261604,0,0,0,0
790,-3.34124e-12,0,-1.59137e-06,-3.40794e-12,0,-3.89773e-12,-1.13744e-13,0,0,-3.06608,-0.24258,0.646676,0,0,0,0,0,0.933924,-0.24258,-1368607936,-1368607936,-1368607936,-1368607936,-1368607896,-12924923,-203663805,-1368607896,0.261799,-0.261799,2.80054e-07,-1.5,nan,0,0,3,0.945296,-0.262886,0,0,0,0
800,-3.34124e-12,0,-1.59137e-06,-3.40794e-12,0,0,-1.13745e-13,0,0,-3.06608,-0.24258,0.646676,0,0,0,0,0,0.933924,-0.24258,-1368607936,-1368607936,-1368607936,-1368607936,-1368607896,-12924923,-203663805,-1368607896,0.261799,-0.261799,2.67883e-07,-1.5,nan,0,0,3,0.946016,-0.265055,0,0,0,0
810,-3.34124e-12,0,-1.59137e-06,-3.40794e-12,0,-3.89773e-12,-1.13745e-13,0,0,-3.06608,-0.24258,0.646676,0,0,0,0,0,0.933924,-0.24258,-1368607936,-1368607936,-1368607936,-1368607936,-1368607896,-12924923,-203663805,-1368607896,0.261799,-0.261799,2.57296e-07,-1.5,nan,0,0,3,0.946671,-0.267027,0,0,0,0
820,-3.34124e-12,0,-1.59137e-06,-3.40794e-12,0,0,-1.13746e-13,0,0,-3.06608,-0.24258,0.646676,0,0,0,0,0,0.933924,-0.24258,-1368607936,-1368607936,-1368607936,-1368607936,-1368607896,-12924923,-203663805,-1368607896,0.261799,-0.261799,2.4562e-07,-1.5,nan,0,0,3,0.947424,-0.269295,0,0,0,0
830,-3.34124e-12,0,-1.59137e-06,-3.40794e-12,0,-3.89773e-12,-1.13747e-13,0,0,-3.06608,-0.24258,0.646676,0,0,0,0,0,0.933924,-0.24258,-1368607936,-1368607936,-1368607936,-1368607936,-1368607896,-12924923,-203663805,-1368607896,0.261799,-0.261799,2.35912e-07,-1.5,nan,0,0,3,0.948079,-0.271267,0,0,0,0
840,-3.34124e-12,0,-1.59137e-06,-3.40794e-12,0,0,-1.13747e-13,0,0,-3.06608,-0.24258,0.646676,0,0,0,0,0,0.933924,-0.24258,-1368607936,-1368607936,-1368607936,-1368607936,-1368607896,-12924923,-203663805,-1368607896,0.261799,-0.261799,2.07551e-07,-1.5,nan,0,0,3,0.950076,-0.277281,0,0,0,0
850,-3.34124e-12,0,-1.59137e-06,-3.40794e-12,0,-3.89773e-12,-1.13748e-13,0,0,-3.06608,-0.24258,0.646676,0,0,0,0,0,0.933924,-0.24258,-1368607936,-1368607936,-1368607936,-1368607936,-1368607896,-12924923,-203663805,-1368607896,0.261799,-0.261799,1.9894e-07,-1.5,nan,0,0,3,0.950764,-0.279352,0,0,0,0
860,-3.34124e-12,0,-1.59137e-06,-3.40794e-12,0,0,-1.13748e-13,0,0,-3.06608,-0.24258,0.646676,0,0,0,0,0,0.933924,-0.24258,-1368607936,-1368607936,-1368607936,-1368607936,-1368607896,-12924923,-203663805,-1368607896,0.261799,-0.261799,1.89912e-07,-1.5,nan,0,0,3,0.951517,-0.281619,0,0,0,0
870,-3.34124e-12,0,-1.59137e-06,-3.40794e-12,0,-3.89773e-12,-1.13749e-13,0,0,-3.06608,-0.24258,0.646676,0,0,0,0,0,0.933924,-0.24258,-1368607936,-1368607936,-1368607936,-1368607936,-1368607896,-12924923,-203663805,-1368607896,0.261799,-0.261799,1.8278e-07,-1.5,nan,0,0,3,0.952172,-0.283591,0,0,0,0
880,-3.34124e-12,0,-1.59137e-06,-3.40794e-12,0,0,-1.13749e-13,0,0,-3.06608,-0.24258,0.646676,0,0,0,0,0,0.933924,-0.24258,-1368607936,-1368607936,-1368607936,-1368607936,-1368607896,-12924923,-203663805,-1368607896,0.261799,-0.261799,1.74844e-07,-1.5,nan,0,0,3,0.952892,-0.28576,0,0,0,0
890,-3.34124e-12,0,-1.59137e-06,-3.40794e-12,0,-3.89773e-12,-1.1375e-13,0,0,-3.06608,-0.24258,0.646676,0,0,0,0,0,0.933924,-0.24258,-1368607936,-1368607936,-1368607936,-1368607936,-1368607896,-12924923,-203663805,-1368607896,0.261799,-0.261799,1.67934e-07,-1.5,nan,0,0,3,0.953547,-0.287732,0,0,0,0
900,-3.34124e-12,0,-1.59137e-06,-3.40794e-12,0,0,-1.1375e-13,0,0,-3.06608,-0.24258,0.646676,0,0,0,0,0,0.933924,-0.24258,-1368607936,-1368607936,-1368607936,-1368607936,-1368607896,-12924923,-203663805,-1368607896,0.261799,-0.261799,1.60313e-07,-1.5,nan,0,0,3,0.9543,-0.29,0,0,0,0
910,-3.34124e-12,0,-1.59137e-06,-3.40794e-12,0,-3.89773e-12,-1.13751e-13,0,0,-3.06608,-0.24258,0.646676,0,0,0,0,0,0.933924,-0.24258,-1368607936,-1368607936,-1368607936,-1368607936,-1368607896,-12924923,-203663805,-1368607896,0.261799,-0.261799,1.54924e-07,-1.5,nan,0,0,3,0.954857,-0.291676,0,0,0,0
920,-3.34124e-12,0,-1.59137e-06,-3.40794e-12,0,0,-1.13751e-13,0,0,-3.06608,-0.24258,0.646676,0,0,0,0,0,0.933924,-0.24258,-1368607936,-1368607936,-1368607936,-1368607936,-1368607896,-12924923,-203663805,-1368607896,0.261799,-0.261799,1.50326e-07,-1.5,nan,0,0,3,0.955348,-0.293155,0,0,0,0
930,-3.34124e-12,0,-1.59137e-06,-3.40794e-12,0,-3.89773e-12,-1.13752e-13,0,0,-3.06608,-0.24258,0.646676,0.956853,-0.297688,0.0325974,-0.0981572,0,0.933924,-0.24258,-1368607936,-1368607936,-1368607936,-1368607936,-1368607896,-12924923,-203663805,-1368607896,0.261799,-0.261799,1.36692e-07,-1.5,nan,0,0,3,0.956853,-0.297688,0,0,0,0
940,-3.34124e-12,0,-1.59137e-06,-3.40794e-12,0,0,-1.13753e-13,0,0,-3.06608,-0.24258,0.646676,0.957501,-0.299638,0.0322725,-0.0971788,0,0.933924,-0.24258,-1368607936,-1368607936,-1368607936,-1368607936,-1368607896,-12924923,-203663805,-1368607896,0.261799,-0.261799,1.31294e-07,-1.5,nan,0,0,3,0.957501,-0.299638,0,0,0,0
950,-3.34124e-12,0,-1.59137e-06,-3.40794e-12,0,-3.89773e-12,-1.13753e-13,0,0,-3.06608,-0.24258,0.646676,0.958205,-0.301759,0.0319186,-0.0961131,0,0.933924,-0.24258,-1368607936,-1368607936,-1368607936,-1368607936,-1368607896,-12924923,-203663805,-1368607896,0.261799,-0.261799,1.25588e-07,-1.5,nan,0,0,3,0.958205,-0.301759,0,0,0,0
960,-3.34124e-12,0,-1.59137e-06,-3.40794e-12,0,0,-1.13754e-13,0,0,-3.06608,-0.24258,0.646676,0.958871,-0.303763,0.0315844,-0.095107,0,0.933924,-0.24258,-1368607936,-1368607936,-1368607936,-1368607936,-1368607896,-12924923,-203663805,-1368607896,0.261799,-0.261799,1.20377e-07,-1.5,nan,0,0,3,0.958871,-0.303763,0,0,0,0
970,-3.34124e-12,0,-1.59137e-06,-3.40794e-12,0,-3.89773e-12,-1.13754e-13,0,0,-3.06608,-0.24258,0.646676,0.95956,-0.305838,0.0312381,-0.094064,0,0.933924,-0.24258,-1368607936,-1368607936,-1368607936,-1368607936,-1368607896,-12924923,-203663805,-1368607896,0.261799,-0.261799,1.15146e-07,-1.5,nan,0,0,3,0.95956,-0.305838,0,0,0,0
980,-3.34124e-12,0,-1.59137e-06,-3.40794e-12,0,0,-1.13755e-13,0,0,-3.06608,-0.24258,0.646676,0.960211,-0.3078,0.0309112,-0.0930796,0,0.933924,-0.24258,-1368607936,-1368607936,-1368607936,-1368607936,-1368607896,-12924923,-203663805,-1368607896,0.261799,-0.261799,1.10373e-07,-1.5,nan,0,0,3,0.960211,-0.3078,0,0,0,0
990,-3.34124e-12,0,-1.59137e-06,-3.40794e-12,0,-3.89773e-12,-1.13755e-13,0,0,-3.06608,-0.24258,0.646676,0.960886,-0.309831,0.0305722,-0.0920589,0,0.933924,-0.24258,-1368607936,-1368607936,-1368607936,-1368607936,-1368607896,-12924923,-203663805,-1368607896,0.261799,-0.261799,1.05576e-07,-1.5,nan,0,0,3,0.960886,-0.309831,0,0,0,0
1000,-3.34124e-12,0,-1.59137e-06,-3.40794e-12,0,0,-1.13756e-13,0,0,-3.06608,-0.24258,0.646676,0.961493,-0.31166,0.0302674,-0.0911413,0,0.933924,-0.24258,-1368607936,-1368607936,-1368607936,-1368607936,-1368607896,-12924923,-203663805,-1368607896,0.261799,-0.261799,1.01611e-07,-1.5,nan,0,0,3,0.961493,-0.31166,0,0,0,0
1010,-3.34124e-12,0,-1.59137e-06,-3.40794e-12,0,-3.89773e-12,-1.13756e-13,0,0,-3.06608,-0.24258,0.646676,0.962184,-0.313739,0.0299205,-0.0900967,0,0.933924,-0.24258,-1368607936,-1368607936,-1368607936,-1368607936,-1368607896,-12924923,-203663805,-1368607896,0.261799,-0.261799,9.70004e-08,-1.5,nan,0,0,3,0.962184,-0.313739,0,0,0,0
1020,-3.34124e-12,0,-1.59137e-06,-3.40794e-12,0,0,-1.13757e-13,0,0,-3.06608,-0.24258,0.646676,0.962778,-0.315529,0.0296223,-0.0891986,0,0.933924,-0.24258,-1368607936,-1368607936,-1368607936,-1368607936,-1368607896,-12924923,-203663805,-1368607896,0.261799,-0.261799,9.31701e-08,-1.5,nan,0,0,3,0.962778,-0.315529,0,0,0,0
1030,-3.34124e-12,0,-1.59137e-06,-3.40794e-12,0,-3.89773e-12,-1.13757e-13,0,0,-3.06608,-0.24258,0.646676,0.963425,-0.317476,0.0292975,-0.0882207,0,0.933924,-0.24258,-1368607936,-1368607936,-1368607936,-1368607936,-1368607896,-12924923,-203663805,-1368607896,0.261799,-0.261799,8.91251e-08,-1.5,nan,0,0,3,0.963425,-0.317476,0,0,0,0
1040,-3.34124e-12,0,-1.59137e-06,-3.40794e-12,0,0,-1.13758e-13,0,0,-3.06608,-0.24258,0.646676,0.964093,-0.319489,0.0289618,-0.0872096,0,0.933924,-0.24258,-1368607936,-1368607936,-1368607936,-1368607936,-1368607896,-12924923,-203663805,-1368607896,0.261799,-0.261799,8.50806e-08,-1.5,nan,0,0,3,0.964093,-0.319489,0,0,0,0
1050,-3.34124e-12,0,-1.59137e-06,-3.40794e-12,0,-3.89773e-12,-1.13759e-13,0,0,-3.06608,-0.24258,0.646676,0.964526,-0.320791,0.0287451,-0.0865573,0,0.933924,-0.24258,-1368607936,-1368607936,-1368607936,-1368607936,-1368607896,-12924923,-203663805,-1368607896,0.261799,-0.261799,8.25553e-08,-1.5,nan,0,0,3,0.964526,-0.320791,0,0,0,0
1060,-3.34124e-12,0,-1.59137e-06,-3.40794e-12,0,0,-1.13759e-13,0,0,-3.06608,-0.24258,0.646676,0.965012,-0.322254,0.0285015,-0.0858238,0,0.933924,-0.24258,-1368607936,-1368607936,-1368607936,-1368607936,-1368607896,-12924923,-203663805,-1368607896,0.261799,-0.261799,7.99424e-08,-1.5,nan,0,0,3,0.965012,-0.322254,0,0,0,0
1070,-3.34124e-12,0,-1.59137e-06,-3.40794e-12,0,-3.89773e-12,-1.1376e-13,0,0,-3.06608,-0.24258,0.646676,0.965606,-0.324043,0.0282032,-0.0849256,0,0.933924,-0.24258,-1368607936,-1368607936,-1368607936,-1368607936,-1368607896,-12924923,-203663805,-1368607896,0.261799,-0.261799,7.66287e-08,-1.5,nan,0,0,3,0.965606,-0.324043,0,0,0,0
1080,-3.34124e-12,0,-1.59137e-06,-3.40794e-12,0,0,-1.1376e-13,0,0,-3.06608,-0.24258,0.646676,0.966194,-0.325814,0.027908,-0.0840366,0,0.933924,-0.24258,-1368607936,-1368607936,-1368607936,-1368607936,-1368607896,-12924923,-203663805,-1368607896,0.261799,-0.261799,7.34493e-08,-1.5,nan,0,0,3,0.966194,-0.325814,0,0,0,0
1090,-3.34124e-12,0,-1.59137e-06,-3.40794e-12,0,-3.89773e-12,-1.13761e-13,0,0,-3.06608,-0.24258,0.646676,0.966803,-0.327648,0.027602,-0.0831152,0,0.933924,-0.24258,-1368607936,-1368607936,-1368607936,-1368607936,-1368607896,-12924923,-203663805,-1368607896,0.261799,-0.261799,7.02605e-08,-1.5,nan,0,0,3,0.966803,-0.327648,0,0,0,0
1100,-3.34124e-12,0,-1.59137e-06,-3.40794e-12,0,0,-1.13761e-13,0,0,-3.06608,-0.24258,0.646676,0.967351,-0.329299,0.0273269,-0.0822866,0,0.933924,-0.24258,-1368607936,-1368607936,-1368607936,-1368607936,-1368607896,-12924923,-203663805,-1368607896,0.261799,-0.261799,6.74836e-08,-1.5,nan,0,0,3,0.967351,-0.329299,0,0,0,0
1110,-3.34124e-12,0,-1.59137e-06,-3.40794e-12,0,-3.89773e-12,-1.13762e-13,0,0,-3.06608,-0.24258,0.646676,0.967948,-0.331095,0.0270272,-0.0813842,0,0.933924,-0.24258,-1368607936,-1368607936,-1368607936,-1368607936,-1368607896,-12924923,-203663805,-1368607896,0.261799,-0.261799,6.45509e-08,-1.5,nan,0,0,3,0.967948,-0.331095,0,0,0,0
1120,-3.34124e-12,0,-1.59137e-06,-3.40794e-12,0,0,-1.13762e-13,0,0,-3.06608,-0.24258,0.646676,0.968538,-0.332872,0.0267309,-0.080492,0,0.933924,-0.24258,-1368607936,-1368607936,-1368607936,-1368607936,-1368607896,-12924923,-203663805,-1368607896,0.261799,-0.261799,6.17484e-08,-1.5,nan,0,0,3,0.968538,-0.332872,0,0,0,0
1130,-3.34124e-12,0,-1.59137e-06,-3.40794e-12,0,-3.89773e-12,-1.13763e-13,0,0,-3.06608,-0.24258,0.646676,0.969095,-0.33455,0.0264511,-0.0796496,0,0.933924,-0.24258,-1368607936,-1368607936,-1368607936,-1368607936,-1368607896,-12924923,-203663805,-1368607896,0.261799,-0.261799,5.91888e-08,-1.5,nan,0,0,3,0.969095,-0.33455,0,0,0,0
1140,-3.34124e-12,0,-1.59137e-06,-3.40794e-12,0,0,-1.13763e-13,0,0,-3.06608,-0.24258,0.646676,0.969646,-0.33621,0.0261742,-0.0788158,0,0.933924,-0.24258,-1368607936,-1368607936,-1368607936,-1368607936,-1368607896,-12924923,-203663805,-1368607896,0.261799,-0.261799,5.6733e-08,-1.5,nan,0,0,3,0.969646,-0.33621,0,0,0,0
1150,-3.34124e-12,0,-1.59137e-06,-3.40794e-12,0,-3.89773e-12,-1.13764e-13,0,0,-3.06608,-0.24258,0.646676,0.970192,-0.337853,0.0259002,-0.0779908,0,0.933924,-0.24258,-1368607936,-1368607936,-1368607936,-1368607936,-1368607896,-12924923,-203663805,-1368607896,0.261799,-0.261799,5.43792e-08,-1.5,nan,0,0,3,0.970192,-0.337853,0,0,0,0
1160,-3.34124e-12,0,-1.59137e-06,-3.40794e-12,0,0,-1.13764e-13,0,0,-3.06608,-0.24258,0.646676,0.970732,-0.339478,0.0256291,-0.0771744,0,0.933924,-0.24258,-1368607936,-1368607936,-1368607936,-1368607936,-1368607896,-12924923,-203663805,-1368607896,0.261799,-0.261799,5.21229e-08,-1.5,nan,0,0,3,0.970732,-0.339478,0,0,0,0
1170,-3.34124e-12,0,-1.59137e-06,-3.40794e-12,0,-3.89773e-12,-1.13765e-13,0,0,-3.06608,-0.24258,0.646676,0.971291,-0.341163,0.0253481,-0.0763281,0,0.933924,-0.24258,-1368607936,-1368607936,-1368607936,-1368607936,-1368607896,-12924923,-203663805,-1368607896,0.261799,-0.261799,4.98577e-08,-1.5,nan,0,0,3,0.971291,-0.341163,0,0,0,0
1180,-3.34124e-12,0,-1.59137e-06,-3.40794e-12,0,0,-1.13766e-13,0,0,-3.06608,-0.24258,0.646676,0.971695,-0.342378,0.0251459,-0.0757192,0,0.933924,-0.24258,-1368607936,-1368607936,-1368607936,-1368607936,-1368607896,-12924923,-203663805,-1368607896,0.261799,-0.261799,4.82807e-08,-1.5,nan,0,0,3,0.971695,-0.342378,0,0,0,0
1190,-3.34124e-12,0,-1.59137e-06,-3.40794e-12,0,-3.89773e-12,-1.13766e-13,0,0,-3.06608,-0.24258,0.646676,0.972219,-0.343957,0.0248827,-0.0749268,0,0.933924,-0.24258,-1368607936,-1368607936,-1368607936,-1368607936,-1368607896,-12924923,-203663805,-1368607896,0.261799,-0.261799,4.62794e-08,-1.5,nan,0,0,3,0.972219,-0.343957,0,0,0,0
1200,-3.34124e-12,0,-1.59137e-06,-3.40794e-12,0,0,-1.13767e-13,0,0,-3.06608,-0.24258,0.646676,0.972738,-0.345519,0.0246223,-0.0741426,0,0.933924,-0.24258,-1368607936,-1368607936,-1368607936,-1368607936,-1368607896,-12924923,-203663805,-1368607896,0.261799,-0.261799,4.43611e-08,-1.5,nan,0,0,3,0.972738,-0.345519,0,0,0,0
1210,-3.34124e-12,0,-1.59137e-06,-3.40794e-12,0,-3.89773e-12,-1.13767e-13,0,0,-3.06608,-0.24258,0.646676,0.973251,-0.347064,0.0243646,-0.0733667,0,0.933924,-0.24258,-1368607936,-1368607936,-1368607936,-1368607936,-1368607896,-12924923,-203663805,-1368607896,0.261799,-0.261799,4.25223e-08,-1.5,nan,0,0,3,0.973251,-0.347064,0,0,0,0
1220,-3.34124e-12,0,-1.59137e-06,-3.40794e-12,0,0,-1.13768e-13,0,0,-3.06608,-0.24258,0.646676,0.973759,-0.348594,0.0241096,-0.0725987,0,0.933924,-0.24258,-1368607936,-1368607936,-1368607936,-1368607936,-1368607896,-12924923,-203663805,-1368607896,0.261799,-0.261799,4.0758e-08,-1.5,nan,0,0,3,0.973759,-0.348594,0,0,0,0
1230,-3.34124e-12,0,-1.59137e-06,-3.40794e-12,0,-3.89773e-12,-1.13768e-13,0,0,-3.06608,-0.24258,0.646676,0.974521,-0.350888,0.0237252,-0.0714414,0,0.933924,-0.24258,-1368607936,-1368607936,-1368607936,-1368607936,-1368607896,-12924923,-203663805,-1368607896,0.261799,-0.261799,3.81879e-08,-1.5,nan,0,0,3,0.974521,-0.350888,0,0,0,0
1240,-3.34124e-12,0,-1.59137e-06,-3.40794e-12,0,0,-1.13769e-13,0,0,-3.06608,-0.24258,0.646676,0.975224,-0.353007,0.0233705,-0.0703733,0,0.933924,-0.24258,-1368607936,-1368607936,-1368607936,-1368607936,-1368607896,-12924923,-203663805,-1368607896,0.261799,-0.261799,3.5927e-08,-1.5,nan,0,0,3,0.975224,-0.353007,0,0,0,0
1250,-3.34124e-12,0,-1.59137e-06,-3.40794e-12,0,-3.89773e-12,-1.13769e-13,0,0,-3.06608,-0.24258,0.646676,0.975712,-0.354473,0.0231259,-0.0696366,0,0.933924,-0.24258,-1368607936,-1368607936,-1368607936,-1368607936,-1368607896,-12924923,-203663805,-1368607896,0.261799,-0.261799,3.44363e-08,-1.5,nan,0,0,3,0.975712,-0.354473,0,0,0,0
1260,-3.34124e-12,0,-1.59137e-06,-3.40794e-12,0,0,-1.1377e-13,0,0,-3.06608,-0.24258,0.646676,0.976216,-0.355994,0.0228724,-0.0688732,0,0.933924,-0.24258,-1368607936,-1368607936,-1368607936,-1368607936,-1368607896,-12924923,-203663805,-1368607896,0.261799,-0.261799,3.29413e-08,-1.5,nan,0,0,3,0.976216,-0.355994,0,0,0,0
1270,-3.34124e-12,0,-1.59137e-06,-3.40794e-12,0,-3.89773e-12,-1.1377e-13,0,0,-3.06608,-0.24258,0.646676,0.976693,-0.35743,0.022633,-0.0681524,0,0.933924,-0.24258,-1368607936,-1368607936,-1368607936,-1368607936,-1368607896,-12924923,-203663805,-1368607896,0.261799,-0.261799,3.15758e-08,-1.5,nan,0,0,3,0.976693,-0.35743,0,0,0,0
1280,-3.34124e-12,0,-1.59137e-06,-3.40794e-12,0,0,-1.13771e-13,0,0,-3.06608,-0.24258,0.646676,0.977165,-0.358851,0.0223961,-0.0674391,0,0.933924,-0.24258,-1368607936,-1368607936,-1368607936,-1368607936,-1368607896,-12924923,-203663805,-1368607896,0.261799,-0.261799,3.0267e-08,-1.5,nan,0,0,3,0.977165,-0.358851,0,0,0,0
1290,-3.34124e-12,0,-1.59137e-06,-3.40794e-12,0,-3.89773e-12,-1.13772e-13,0,0,-3.06608,-0.24258,0.646676,0.977632,-0.360256,0.0221617,-0.0667332,0,0.933924,-0.24258,-1368607936,-1368607936,-1368607936,-1368607936,-1368607896,-12924923,-203663805,-1368607896,0.261799,-0.261799,2.90112e-08,-1.5,nan,0,0,3,0.977632,-0.360256,0,0,0,0
1300,-3.34124e-12,0,-1.59137e-06,-3.40794e-12,0,0,-1.13772e-13,0,0,-3.06608,-0.24258,0.646676,0.978094,-0.361647,0.0219297,-0.0660346,0,0.933924,-0.24258,-1368607936,-1368607936,-1368607936,-1368607936,-1368607896,-12924923,-203663805,-1368607896,0.261799,-0.261799,2.78075e-08,-1.5,nan,0,0,3,0.978094,-0.361647,0,0,0,0
1310,-3.34124e-12,0,-1.59137e-06,-3.40794e-12,0,-3.89773e-12,-1.13773e-13,0,0,-3.06608,-0.24258,0.646676,0.978443,-0.362698,0.0217547,-0.0655078,0,0.933924,-0.24258,-1368607936,-1368607936,-1368607936,-1368607936,-1368607896,-12924923,-203663805,-1368607896,0.261799,-0.261799,2.69274e-08,-1.5,nan,0,0,3,0.978443,-0.362698,0,0,0,0
1320,-3.34124e-12,0,-1.59137e-06,-3.40794e-12,0,0,-1.13773e-13,0,0,-3.06608,-0.24258,0.646676,0.978896,-0.364064,0.021527,-0.064822,0,0.933924,-0.24258,-1368607936,-1368607936,-1368607936,-1368607936,-1368607896,-12924923,-203663805,-1368607896,0.261799,-0.261799,2.58101e-08,-1.5,nan,0,0,3,0.978896,-0.364064,0,0,0,0
1330,-3.34124e-12,0,-1.59137e-06,-3.40794e-12,0,-3.89773e-12,-1.13774e-13,0,0,-3.06608,-0.24258,0.646676,0.979366,-0.365479,0.021291,-0.0641114,0,0.933924,-0.24258,-1368607936,-1368607936,-1368607936,-1368607936,-1368607896,-12924923,-203663805,-1368607896,0.261799,-0.261799,2.46896e-08,-1.5,nan,0,0,3,0.979366,-0.365479,0,0,0,0
1340,-3.34124e-12,0,-1.59137e-06,-3.40794e-12,0,0,-1.13774e-13,0,0,-3.06608,-0.24258,0.646676,0.97981,-0.366815,0.0210681,-0.0634402,0,0.933924,-0.24258,-1368607936,-1368607936,-1368607936,-1368607936,-1368607896,-12924923,-203663805,-1368607896,0.261799,-0.261799,2.36652e-08,-1.5,nan,0,0,3,0.97981,-0.366815,0,0,0,0
1350,-3.34124e-12,0,-1.59137e-06,-3.40794e-12,0,-3.89773e-12,-1.13775e-13,0,0,-3.06608,-0.24258,0.646676,0.980249,-0.368137,0.0208476,-0.0627761,0,0.933924,-0.24258,-1368607936,-1368607936,-1368607936,-1368607936,-1368607896,-12924923,-203663805,-1368607896,0.261799,-0.261799,2.26833e-08,-1.5,nan,0,0,3,0.980249,-0.368137,0,0,0,0
1360,-3.34124e-12,0,-1.59137e-06,-3.40794e-12,0,0,-1.13775e-13,0,0,-3.06608,-0.24258,0.646676,0.980704,-0.369508,0.020619,-0.0620879,0,0.933924,-0.24258,-1368607936,-1368607936,-1368607936,-1368607936,-1368607896,-12924923,-203663805,-1368607896,0.261799,-0.261799,2.16985e-08,-1.5,nan,0,0,3,0.980704,-0.369508,0,0,0,0
1370,-3.34124e-12,0,-1.59137e-06,-3.40794e-12,0,-3.89773e-12,-1.13776e-13,0,0,-3.06608,-0.24258,0.646676,0.981134,-0.370802,0.0204032,-0.061438,0,0.933924,-0.24258,-1368607936,-1368607936,-1368607936,-1368607936,-1368607896,-12924923,-203663805,-1368607896,0.261799,-0.261799,2.07982e-08,-1.5,nan,0,0,3,0.981134,-0.370802,0,0,0,0
1380,-3.34124e-12,0,-1.59137e-06,-3.40794e-12,0,0,-1.13776e-13,0,0,-3.06608,-0.24258,0.646676,0.981559,-0.372083,0.0201896,-0.0607948,0,0.933924,-0.24258,-1368607936,-1368607936,-1368607936,-1368607936,-1368607896,-12924923,-203663805,-1368607896,0.261799,-0.261799,1.99353e-08,-1.5,nan,0,0,3,0.981559,-0.372083,0,0,0,0
1390,-3.34124e-12,0,-1.59137e-06,-3.40794e-12,0,-3.89773e-12,-1.13777e-13,0,0,-3.06608,-0.24258,0.646676,0.98198,-0.37335,0.0199782,-0.0601584,0,0.933924,-0.24258,-1368607936,-1368607936,-1368607936,-1368607936,-1368607896,-12924923,-203663805,-1368607896,0.261799,-0.261799,1.91081e-08,-1.5,nan,0,0,3,0.98198,-0.37335,0,0,0,0
1400,-3.34124e-12,0,-1.59137e-06,-3.40794e-12,0,0,-1.13777e-13,0,0,-3.06608,-0.24258,0.646676,0.982416,-0.374663,0.0197592,-0.0594989,0,0.933924,-0.24258,-1368607936,-1368607936,-1368607936,-1368607936,-1368607896,-12924923,-203663805,-1368607896,0.261799,-0.261799,1.82786e-08,-1.5,nan,0,0,3,0.982416,-0.374663,0,0,0,0
1410,-3.34124e-12,0,-1.59137e-06,-3.40794e-12,0,-3.89773e-12,-1.13778e-13,0,0,-3.06608,-0.24258,0.646676,0.982828,-0.375904,0.0195524,-0.0588762,0,0.933924,-0.24258,-1368607936,-1368607936,-1368607936,-1368607936,-1368607896,-12924923,-203663805,-1368607896,0.261799,-0.261799,1.75209e-08,-1.5,nan,0,0,3,0.982828,-0.375904,0,0,0,0
1420,-3.34124e-12,0,-1.59137e-06,-3.40794e-12,0,0,-1.13779e-13,0,0,-3.06608,-0.24258,0.646676,0.983236,-0.377131,0.0193477,-0.0582599,0,0.933924,-0.24258,-1368607936,-1368607936,-1368607936,-1368607936,-1368607896,-12924923,-203663805,-1368607896,0.261799,-0.261799,1.67939e-08,-1.5,nan,0,0,3,0.983236,-0.377131,0,0,0,0
1430,-3.34124e-12,0,-1.59137e-06,-3.40794e-12,0,-3.89773e-12,-1.13786e-13,0,0,-3.06608,-0.24258,0.646676,0.983582,-0.378173,0.0191742,-0.0577372,0,0.933924,-0.24258,-1368607936,-1368607936,-1368607936,-1368607936,-1368607896,-12924923,-203663805,-1368607896,0.261799,-0.261799,1.61968e-08,-1.5,nan,0,0,3,0.983582,-0.378173,0,0,0,0
1440,-3.34124e-12,0,-1.59137e-06,-3.40794e-12,0,0,-1.13787e-13,0,0,-3.06608,-0.24258,0.646676,0.983868,-0.379035,0.0190307,-0.0573053,0,0.933924,-0.24258,-1368607936,-1368607936,-1368607936,-1368607936,-1368607896,-12924923,-203663805,-1368607896,0.261799,-0.261799,1.5716e-08,-1.5,nan,0,0,3,0.983868,-0.379035,0,0,0,0
1450,-3.34124e-12,0,-1.59137e-06,-3.40794e-12,0,-3.89773e-12,-1.13787e-13,0,0,-3.06608,-0.24258,0.646676,0.984284,-0.380286,0.018822,-0.0566769,0,0.933924,-0.24258,-1368607936,-1368607936,-1368607936,-1368607936,-1368607896,-12924923,-203663805,-1368607896,0.261799,-0.261799,1.5033e-08,-1.5,nan,0,0,3,0.984284,-0.380286,0,0,0,0
1460,-3.34124e-12,0,-1.59137e-06,-3.40794e-12,0,0,-1.13788e-13,0,0,-3.06608,-0.24258,0.646676,0.984676,-0.381468,0.0186251,-0.0560837,0,0.933924,-0.24258,-1368607936,-1368607936,-1368607936,-1368607936,-1368607896,-12924923,-203663805,-1368607896,0.261799,-0.261799,1.44099e-08,-1.5,nan,0,0,3,0.984676,-0.381468,0,0,0,0
1470,-3.34124e-12,0,-1.59137e-06,-3.40794e-12,0,-3.89773e-12,-1.13789e-13,0,0,-3.06608,-0.24258,0.646676,0.985064,-0.382637,0.0184301,-0.0554966,0,0.933924,-0.24258,-1368607936,-1368607936,-1368607936,-1368607936,-1368607896,-12924923,-203663805,-1368607896,0.261799,-0.261799,1.3812e-08,-1.5,nan,0,0,3,0.985064,-0.382637,0,0,0,0
1480,-3.34124e-12,0,-1.59137e-06,-3.40794e-12,0,0,-1.13789e-13,0,0,-3.06608,-0.24258,0.646676,0.985467,-0.383848,0.018228,-0.0548882,0,0.933924,-0.24258,-1368607936,-1368607936,-1368607936,-1368607936,-1368607896,-12924923,-203663805,-1368607896,0.261799,-0.261799,1.32123e-08,-1.5,nan,0,0,3,0.985467,-0.383848,0,0,0,0
1490,-3.34124e-12,0,-1.59137e-06,-3.40794e-12,0,-3.89773e-12,-1.1379e-13,0,0,-3.06608,-0.24258,0.646676,0.985847,-0.384993,0.0180373,-0.0543138,0,0.933924,-0.24258,-1368607936,-1368607936,-1368607936,-1368607936,-1368607896,-12924923,-203663805,-1368607896,0.261799,-0.261799,1.26647e-08,-1.5,nan,0,0,3,0.985847,-0.384993,0,0,0,0
1500,-3.34124e-12,0,-1.59137e-06,-3.40794e-12,0,0,-1.1379e-13,0,0,-3.06608,-0.24258,0.646676,0.986223,-0.386125,0.0178485,-0.0537452,0,0.933924,-0.24258,-1368607936,-1368607936,-1368607936,-1368607936,-1368607896,-12924923,-203663805,-1368607896,0.261799,-0.261799,1.21392e-08,-1.5,nan,0,0,3,0.986223,-0.386125,0,0,0,0
1510,-3.34124e-12,0,-1.59137e-06,-3.40794e-12,0,-3.89773e-12,-1.13791e-13,0,0,-3.06608,-0.24258,0.646676,0.986595,-0.387245,0.0176616,-0.0531826,0,0.933924,-0.24258,-1368607936,-1368607936,-1368607936,-1368607936,-1368607896,-12924923,-203663805,-1368607896,0.261799,-0.261799,1.16355e-08,-1.5,nan,0,0,3,0.986595,-0.387245,0,0,0,0
1520,-3.34124e-12,0,-1.59137e-06,-3.40794e-12,0,0,-1.13791e-13,0,0,-3.06608,-0.24258,0.646676,0.986963,-0.388353,0.0174767,-0.0526259,0,0.933924,-0.24258,-1368607936,-1368607936,-1368607936,-1368607936,-1368607896,-12924923,-203663805,-1368607896,0.261799,-0.261799,1.11528e-08,-1.5,nan,0,0,3,0.986963,-0.388353,0,0,0,0
1530,-3.34124e-12,0,-1.59137e-06,-3.40794e-12,0,-3.89773e-12,-1.13792e-13,0,0,-3.06608,-0.24258,0.646676,0.987327,-0.38945,0.0172938,-0.052075,0,0.933924,-0.24258,-1368607936,-1368607936,-1368607936,-1368607936,-1368607896,-12924923,-203663805,-1368607896,0.261799,-0.261799,1.069e-08,-1.5,nan,0,0,3,0.987327,-0.38945,0,0,0,0
1540,-3.34124e-12,0,-1.59137e-06,-3.40794e-12,0,0,-1.13792e-13,0,0,-3.06608,-0.24258,0.646676,0.987687,-0.390536,0.0171128,-0.0515299,0,0.933924,-0.24258,-1368607936,-1368607936,-1368607936,-1368607936,-1368607896,-12924923,-203663805,-1368607896,0.261799,-0.261799,1.02465e-08,-1.5,nan,0,0,3,0.987687,-0.390536,0,0,0,0
1550,-3.34124e-12,0,-1.59137e-06,-3.40794e-12,0,-3.89773e-12,-1.13793e-13,0,0,-3.06608,-0.24258,0.646676,0.988078,-0.391711,0.0169166,-0.0509391,0,0.933924,-0.24258,-1368607936,-1368607936,-1368607936,-1368607936,-1368607896,-12924923,-203663805,-1368607896,0.261799,-0.261799,9.78104e-09,-1.5,nan,0,0,3,0.988078,-0.391711,0,0,0,0
1560,-3.34124e-12,0,-1.59137e-06,-3.40794e-12,0,0,-1.13793e-13,0,0,-3.06608,-0.24258,0.646676,0.988347,-0.392522,0.0167816,-0.0505327,0,0.933924,-0.24258,-1368607936,-1368607936,-1368607936,-1368607936,-1368607896,-12924923,-203663805,-1368607896,0.261799,-0.261799,9.47147e-09,-1.5,nan,0,0,3,0.988347,-0.392522,0,0,0,0
1570,-3.34124e-12,0,-1.59137e-06,-3.40794e-12,0,-3.89773e-12,-1.13794e-13,0,0,-3.06608,-0.24258,0.646676,0.988713,-0.393625,0.0165976,-0.0499786,0,0.933924,-0.24258,-1368607936,-1368607936,-1368607936,-1368607936,-1368607896,-12924923,-203663805,-1368607896,0.261799,-0.261799,9.05985e-09,-1.5,nan,0,0,3,0.988713,-0.393625,0,0,0,0
1580,-3.34124e-12,0,-1.59137e-06,-3.40794e-12,0,0,-1.13794e-13,0,0,-3.06608,-0.24258,0.646676,0.989059,-0.394667,0.0164239,-0.0494556,0,0.933924,-0.24258,-1368607936,-1368607936,-1368607936,-1368607936,-1368607896,-12924923,-203663805,-1368607896,0.261799,-0.261799,8.68431e-09,-1.5,nan,0,0,3,0.989059,-0.394667,0,0,0,0
1590,-3.34124e-12,0,-1.59137e-06,-3.40794e-12,0,-3.89773e-12,-1.13795e-13,0,0,-3.06608,-0.24258,0.646676,0.989418,-0.395746,0.0162438,-0.0489132,0,0.933924,-0.24258,-1368607936,-1368607936,-1368607936,-1368607936,-1368607896,-12924923,-203663805,-1368607896,0.261799,-0.261799,8.3069e-09,-1.5,nan,0,0,3,0.989418,-0.395746,0,0,0,0
1600,-3.34124e-12,0,-1.59137e-06,-3.40794e-12,0,0,-1.13796e-13,0,0,-3.06608,-0.24258,0.646676,0.98974,-0.396718,0.0160819,-0.0484257,0,0.933924,-0.24258,-1368607936,-1368607936,-1368607936,-1368607936,-1368607896,-12924923,-203663805,-1368607896,0.261799,-0.261799,7.97888e-09,-1.5,nan,0,0,3,0.98974,-0.396718,0,0,0,0
1610,-3.34124e-12,0,-1.59137e-06,-3.40794e-12,0,-3.89773e-12,-1.13796e-13,0,0,-3.06608,-0.24258,0.646676,0.990091,-0.397775,0.0159055,-0.0478946,0,0.933924,-0.24258,-1368607936,-1368607936,-1368607936,-1368607936,-1368607896,-12924923,-203663805,-1368607896,0.261799,-0.261799,7.63213e-09,-1.5,nan,0,0,3,0.990091,-0.397775,0,0,0,0
1620,-3.34124e-12,0,-1.59137e-06,-3.40794e-12,0,0,-1.13797e-13,0,0,-3.06608,-0.24258,0.646676,0.990407,-0.398726,0.0157469,-0.0474171,0,0.933924,-0.24258,-1368607936,-1368607936,-1368607936,-1368607936,-1368607896,-12924923,-203663805,-1368607896,0.261799,-0.261799,7.33049e-09,-1.5,nan,0,0,3,0.990407,-0.398726,0,0,0,0
1630,-3.34124e-12,0,-1.59137e-06,-3.40794e-12,0,-3.89773e-12,-1.13797e-13,0,0,-3.06608,-0.24258,0.646676,0.990767,-0.399808,0.0155664,-0.0468737,0,0.933924,-0.24258,-1368607936,-1368607936,-1368607936,-1368607936,-1368607896,-12924923,-203663805,-1368607896,0.261799,-0.261799,6.99783e-09,-1.5,nan,0,0,3,0.990767,-0.399808,0,0,0,0
1640,-3.34124e-12,0,-1.59137e-06,-3.40794e-12,0,0,-1.13798e-13,0,0,-3.06608,-0.24258,0.646676,0.991076,-0.400739,0.0154113,-0.0464063,0,0.933924,-0.24258,-1368607936,-1368607936,-1368607936,-1368607936,-1368607896,-12924923,-203663805,-1368607896,0.261799,-0.261799,6.72126e-09,-1.5,nan,0,0,3,0.991076,-0.400739,0,0,0,0
1650,-3.34124e-12,0,-1.59137e-06,-3.40794e-12,0,-3.89773e-12,-1.13798e-13,0,0,-3.06608,-0.24258,0.646676,0.991412,-0.401752,0.0152423,-0.0458974,0,0.933924,-0.24258,-1368607936,-1368607936,-1368607936,-1368607936,-1368607896,-12924923,-203663805,-1368607896,0.261799,-0.261799,6.42916e-09,-1.5,nan,0,0,3,0.991412,-0.401752,0,0,0,0
1660,-3.34124e-12,0,-1.59137e-06,-3.40794e-12,0,0,-1.13799e-13,0,0,-3.06608,-0.24258,0.646676,0.99173,-0.402708,0.0150827,-0.0454171,0,0.933924,-0.24258,-1368607936,-1368607936,-1368607936,-1368607936,-1368607896,-12924923,-203663805,-1368607896,0.261799,-0.261799,6.16266e-09,-1.5,nan,0,0,3,0.99173,-0.402708,0,0,0,0
1670,-3.34124e-12,0,-1.59137e-06,-3.40794e-12,0,-3.89773e-12,-1.13799e-13,0,0,-3.06608,-0.24258,0.646676,0.992059,-0.4037,0.0149173,-0.0449191,0,0.933924,-0.24258,-1368607936,-1368607936,-1368607936,-1368607936,-1368607896,-12924923,-203663805,-1368607896,0.261799,-0.261799,5.89484e-09,-1.5,nan,0,0,3,0.992059,-0.4037,0,0,0,0
1680,-3.34124e-12,0,-1.59137e-06,-3.40794e-12,0,0,-1.138e-13,0,0,-3.06608,-0.24258,0.646676,0.992311,-0.404459,0.0147909,-0.0445384,0,0.933924,-0.24258,-1368607936,-1368607936,-1368607936,-1368607936,-1368607896,-12924923,-203663805,-1368607896,0.261799,-0.261799,5.69681e-09,-1.5,nan,0,0,3,0.992311,-0.404459,0,0,0,0
1690,-3.34124e-12,0,-1.59137e-06,-3.40794e-12,0,-3.89773e-12,-1.138e-13,0,0,-3.06608,-0.24258,0.646676,0.992547,-0.405168,0.0146729,-0.0441831,0,0.933924,-0.24258,-1368607936,-1368607936,-1368607936,-1368607936,-1368607896,-12924923,-203663805,-1368607896,0.261799,-0.261799,5.51651e-09,-1.5,nan,0,0,3,0.992547,-0.405168,0,0,0,0
1700,-3.34124e-12,0,-1.59137e-06,-3.40794e-12,0,0,-1.13801e-13,0,0,-3.06608,-0.24258,0.646676,0.992867,-0.406132,0.014512,-0.0436985,0,0.933924,-0.24258,-1368607936,-1368607936,-1368607936,-1368607936,-1368607896,-12924923,-203663805,-1368607896,0.261799,-0.261799,5.27676e-09,-1.5,nan,0,0,3,0.992867,-0.406132,0,0,0,0
1710,-3.34124e-12,0,-1.59137e-06,-3.40794e-12,0,-3.89773e-12,-1.13802e-13,0,0,-3.06608,-0.24258,0.646676,0.993169,-0.407043,0.0143601,-0.0432412,0,0.933924,-0.24258,-1368607936,-1368607936,-1368607936,-1368607936,-1368607896,-12924923,-203663805,-1368607896,0.261799,-0.261799,5.05804e-09,-1.5,nan,0,0,3,0.993169,-0.407043,0,0,0,0
1720,-3.34124e-12,0,-1.59137e-06,-3.40794e-12,0,0,-1.13802e-13,0,0,-3.06608,-0.24258,0.646676,0.993483,-0.407987,0.0142027,-0.042767,0,0.933924,-0.24258,-1368607936,-1368607936,-1368607936,-1368607936,-1368607896,-12924923,-203663805,-1368607896,0.261799,-0.261799,4.83822e-09,-1.5,nan,0,0,3,0.993483,-0.407987,0,0,0,0
1730,-3.34124e-12,0,-1.59137e-06,-3.40794e-12,0,-3.89773e-12,-1.13803e-13,0,0,-3.06608,-0.24258,0.646676,0.993765,-0.408837,0.0140611,-0.0423407,0,0.933924,-0.24258,-1368607936,-1368607936,-1368607936,-1368607936,-1368607896,-12924923,-203663805,-1368607896,0.261799,-0.261799,4.64717e-09,-1.5,nan,0,0,3,0.993765,-0.408837,0,0,0,0
1740,-3.34124e-12,0,-1.59137e-06,-3.40794e-12,0,0,-1.13803e-13,0,0,-3.06608,-0.24258,0.646676,0.994072,-0.409761,0.0139069,-0.0418764,0,0.933924,-0.24258,-1368607936,-1368607936,-1368607936,-1368607936,-1368607896,-12924923,-203663805,-1368607896,0.261799,-0.261799,4.44521e-09,-1.5,nan,0,0,3,0.994072,-0.409761,0,0,0,0
1750,-3.34124e-12,0,-1.59137e-06,-3.40794e-12,0,-3.89773e-12,-1.13804e-13,0,0,-3.06608,-0.24258,0.646676,0.994321,-0.41051,0.0137821,-0.0415007,0,0.933924,-0.24258,-1368607936,-1368607936,-1368607936,-1368607936,-1368607896,-12924923,-203663805,-1368607896,0.261799,-0.261799,4.28715e-09,-1.5,nan,0,0,3,0.994321,-0.41051,0,0,0,0
1760,-3.34124e-12,0,-1.59137e-06,-3.40794e-12,0,0,-1.13804e-13,0,0,-3.06608,-0.24258,0.646676,0.994608,-0.411375,0.0136378,-0.0410663,0,0.933924,-0.24258,-1368607936,-1368607936,-1368607936,-1368607936,-1368607896,-12924923,-203663805,-1368607896,0.261799,-0.261799,4.10927e-09,-1.5,nan,0,0,3,0.994608,-0.411375,0,0,0,0
1770,-3.34124e-12,0,-1.59137e-06,-3.40794e-12,0,-3.89773e-12,-1.13805e-13,0,0,-3.06608,-0.24258,0.646676,0.994892,-0.412231,0.0134951,-0.0406364,0,0.933924,-0.24258,-1368607936,-1368607936,-1368607936,-1368607936,-1368607896,-12924923,-203663805,-1368607896,0.261799,-0.261799,3.93877e-09,-1.5,nan,0,0,3,0.994892,-0.412231,0,0,0,0
1780,-3.34124e-12,0,-1.59137e-06,-3.40794e-12,0,0,-1.13805e-13,0,0,-3.06608,-0.24258,0.646676,0.995187,-0.413118,0.0133471,-0.0401909,0,0.933924,-0.24258,-1368607936,-1368607936,-1368607936,-1368607936,-1368607896,-12924923,-203663805,-1368607896,0.261799,-0.261799,3.76777e-09,-1.5,nan,0,0,3,0.995187,-0.413118,0,0,0,0
1790,-3.34124e-12,0,-1.59137e-06,-3.40794e-12,0,-3.89773e-12,-1.13806e-13,0,0,-3.06608,-0.24258,0.646676,0.995465,-0.413956,0.0132075,-0.0397702,0,0.933924,-0.24258,-1368607936,-1368607936,-1368607936,-1368607936,-1368607896,-12924923,-203663805,-1368607896,0.261799,-0.261799,3.61159e-09,-1.5,nan,0,0,3,0.995465,-0.413956,0,0,0,0
1800,-3.34124e-12,0,-1.59137e-06,-3.40794e-12,0,0,-1.13806e-13,0,0,-3.06608,-0.24258,0.646676,0.99574,-0.414785,0.0130692,-0.0393539,0,0.933924,-0.24258,-1368607936,-1368607936,-1368607936,-1368607936,-1368607896,-12924923,-203663805,-1368607896,0.261799,-0.261799,3.46174e-09,-1.5,nan,0,0,3,0.99574,-0.414785,0,0,0,0
1810,-3.34124e-12,0,-1.59137e-06,-3.40794e-12,0,-3.89773e-12,-1.13807e-13,0,0,-3.06608,-0.24258,0.646676,0.996229,-0.416258,0.0128217,-0.0386088,0,0.933924,-0.24258,-1368607936,-1368607936,-1368607936,-1368607936,-1368607896,-12924923,-203663805,-1368607896,0.261799,-0.261799,3.20228e-09,-1.5,nan,0,0,3,0.996229,-0.416258,0,0,0,0
1820,-3.34124e-12,0,-1.59137e-06,-3.40794e-12,0,0,-1.13808e-13,0,0,-3.06608,-0.24258,0.646676,0.996446,-0.41691,0.0127131,-0.0382816,0,0.933924,-0.24258,-1368607936,-1368607936,-1368607936,-1368607936,-1368607896,-12924923,-203663805,-1368607896,0.261799,-0.261799,3.09463e-09,-1.5,nan,0,0,3,0.996446,-0.41691,0,0,0,0
1830,-3.34124e-12,0,-1.59137e-06,-3.40794e-12,0,-3.89773e-12,-1.13808e-13,0,0,-3.06608,-0.24258,0.646676,0.996736,-0.417783,0.0125673,-0.0378427,0,0.933924,-0.24258,-1368607936,-1368607936,-1368607936,-1368607936,-1368607896,-12924923,-203663805,-1368607896,0.261799,-0.261799,2.95405e-09,-1.5,nan,0,0,3,0.996736,-0.417783,0,0,0,0
1840,-3.34124e-12,0,-1.59137e-06,-3.40794e-12,0,0,-1.13809e-13,0,0,-3.06608,-0.24258,0.646676,0.996986,-0.418535,0.012442,-0.0374654,0,0.933924,-0.24258,-1368607936,-1368607936,-1368607936,-1368607936,-1368607896,-12924923,-203663805,-1368607896,0.261799,-0.261799,2.8373e-09,-1.5,nan,0,0,3,0.996986,-0.418535,0,0,0,0
1850,-3.34124e-12,0,-1.59137e-06,-3.40794e-12,0,-3.89773e-12,-1.13809e-13,0,0,-3.06608,-0.24258,0.646676,0.997257,-0.419353,0.0123056,-0.0370545,0,0.933924,-0.24258,-1368607936,-1368607936,-1368607936,-1368607936,-1368607896,-12924923,-203663805,-1368607896,0.261799,-0.261799,2.71399e-09,-1.5,nan,0,0,3,0.997257,-0.419353,0,0,0,0
1860,-3.34124e-12,0,-1.59137e-06,-3.40794e-12,0,0,-1.1381e-13,0,0,-3.06608,-0.24258,0.646676,0.997514,-0.420125,0.0121768,-0.0366668,0,0.933924,-0.24258,-1368607936,-1368607936,-1368607936,-1368607936,-1368607896,-12924923,-203663805,-1368607896,0.261799,-0.261799,2.60149e-09,-1.5,nan,0,0,3,0.997514,-0.420125,0,0,0,0
1870,-3.34124e-12,0,-1.59137e-06,-3.40794e-12,0,-3.89773e-12,-1.1381e-13,0,0,-3.06608,-0.24258,0.646676,0.99778,-0.420925,0.0120433,-0.0362647,0,0.933924,-0.24258,-1368607936,-1368607936,-1368607936,-1368607936,-1368607896,-12924923,-203663805,-1368607896,0.261799,-0.261799,2.48844e-09,-1.5,nan,0,0,3,0.99778,-0.420925,0,0,0,0
1880,-3.34124e-12,0,-1.59137e-06,-3.40794e-12,0,0,-1.13811e-13,0,0,-3.06608,-0.24258,0.646676,0.998019,-0.421646,0.0119232,-0.0359031,0,0.933924,-0.24258,-1368607936,-1368607936,-1368607936,-1368607936,-1368607896,-12924923,-203663805,-1368607896,0.261799,-0.261799,2.39009e-09,-1.5,nan,0,0,3,0.998019,-0.421646,0,0,0,0
1890,-3.34124e-12,0,-1.59137e-06,-3.40794e-12,0,-3.89773e-12,-1.13811e-13,0,0,-3.06608,-0.24258,0.646676,0.998291,-0.422465,0.0117865,-0.0354915,0,0.933924,-0.24258,-1368607936,-1368607936,-1368607936,-1368607936,-1368607896,-12924923,-203663805,-1368607896,0.261799,-0.261799,2.28151e-09,-1.5,nan,0,0,3,0.998291,-0.422465,0,0,0,0
1900,-3.34124e-12,0,-1.59137e-06,-3.40794e-12,0,0,-1.13812e-13,0,0,-3.06608,-0.24258,0.646676,0.998525,-0.42317,0.011669,-0.0351377,0,0.933924,-0.24258,-1368607936,-1368607936,-1368607936,-1368607936,-1368607896,-12924923,-203663805,-1368607896,0.261799,-0.261799,2.19142e-09,-1.5,nan,0,0,3,0.998525,-0.42317,0,0,0,0
1910,-3.34124e-12,0,-1.59137e-06,-3.40794e-12,0,-3.89773e-12,-1.13812e-13,0,0,-3.06608,-0.24258,0.646676,0.998791,-0.423971,0.0115353,-0.034735,0,0.933924,-0.24258,-1368607936,-1368607936,-1368607936,-1368607936,-1368607896,-12924923,-203663805,-1368607896,0.261799,-0.261799,2.09198e-09,-1.5,nan,0,0,3,0.998791,-0.423971,0,0,0,0
1920,-3.34124e-12,0,-1.59137e-06,-3.40794e-12,0,0,-1.13813e-13,0,0,-3.06608,-0.24258,0.646676,0.99902,-0.424661,0.0114203,-0.0343888,0,0.933924,-0.24258,-1368607936,-1368607936,-1368607936,-1368607936,-1368607896,-12924923,-203663805,-1368607896,0.261799,-0.261799,2.00937e-09,-1.5,nan,0,0,3,0.99902,-0.424661,0,0,0,0
1930,-3.34124e-12,0,-1.59137e-06,-3.40794e-12,0,-3.89773e-12,-1.13813e-13,0,0,-3.06608,-0.24258,0.646676,0.999269,-0.425412,0.0112951,-0.0340117,0,0.933924,-0.24258,-1368607936,-1368607936,-1368607936,-1368607936,-1368607896,-12924923,-203663805,-1368607896,0.261799,-0.261799,1.92204e-09,-1.5,nan,0,0,3,0.999269,-0.425412,0,0,0,0
1940,-3.34124e-12,0,-1.59137e-06,-3.40794e-12,0,0,-1.13814e-13,0,0,-3.06608,-0.24258,0.646676,0.99946,-0.425987,0.0111993,-0.0337234,0,0.933924,-0.24258,-1368607936,-1368607936,-1368607936,-1368607936,-1368607896,-12924923,-203663805,-1368607896,0.261799,-0.261799,1.85743e-09,-1.5,nan,0,0,3,0.99946,-0.425987,0,0,0,0
1950,-3.34124e-12,0,-1.59137e-06,-3.40794e-12,0,-3.89773e-12,-1.13815e-13,0,0,-3.06608,-0.24258,0.646676,0.999683,-0.426656,0.0110877,-0.0333872,0,0.933924,-0.24258,-1368607936,-1368607936,-1368607936,-1368607936,-1368607896,-12924923,-203663805,-1368607896,0.261799,-0.261799,1.78402e-09,-1.5,nan,0,0,3,0.999683,-0.426656,0,0,0,0
1960,-3.34124e-12,0,-1.59137e-06,-3.40794e-12,0,0,-1.13815e-13,0,0,-3.06608,-0.24258,0.646676,0.999936,-0.427418,0.0109606,-0.0330044,0,0.933924,-0.24258,-1368607936,-1368607936,-1368607936,-1368607936,-1368607896,-12924923,-203663805,-1368607896,0.261799,-0.261799,1.70298e-09,-1.5,nan,0,0,3,0.999936,-0.427418,0,0,0,0
1970,-3.34124e-12,0,-1.59137e-06,-3.40794e-12,0,-3.89773e-12,-1.13816e-13,0,0,-3.06608,-0.24258,0.646676,1.00019,-0.428171,0.0108349,-0.0326262,0,0.933924,-0.24258,-1368607936,-1368607936,-1368607936,-1368607936,-1368607896,-12924923,-203663805,-1368607896,0.261799,-0.261799,1.6257e-09,-1.5,nan,0,0,3,1.00019,-0.428171,0,0,0,0
1980,-3.34124e-12,0,-1.59137e-06,-3.40794e-12,0,0,-1.13816e-13,0,0,-3.06608,-0.24258,0.646676,1.00116,-0.431105,0.0103276,-0.0310985,0,0.933924,-0.24258,-1368607936,-1368607936,-1368607936,-1368607936,-1368607896,-12924923,-203663805,-1368607896,0.261799,-0.261799,1.32467e-09,-1.5,nan,0,0,3,1.00116,-0.431105,0,0,0,0
1990,-3.34124e-12,0,-1.59137e-06,-3.40794e-12,0,-3.89773e-12,-1.13817e-13,0,0,-3.06608,-0.24258,0.646676,1.00138,-0.431754,0.0102195,-0.0307731,0,0.933924,-0.24258,-1368607936,-1368607936,-1368607936,-1368607936,-1368607896,-12924923,-203663805,-1368607896,0.261799,-0.261799,1.26976e-09,-1.5,nan,0,0,3,1.00138,-0.431754,0,0,0,0
