timestamp,A_x,A_y,A_z,P,Q,R,Phi,Theta,Psi,poseX,poseY,poseZ,state_X,state_Y,state_Z,state_VzB,state_Bx,state_By,state_Bz,p1_x,p1_y,p2_x,p2_y,p3_x,p3_y,p4_x,p4_y,roll,pitch,yaw,alt,targetHeading,highLevelState,lowLevelState,gateNumber,filtered_x,filtered_y
10,0,0,0,0,0,0,0,0,0,0,0,0,0,0,0,0,0,0,0,0,0,0,0,0,0,0,0,0,-0.261799,0.0125664,-1.5,2.51931e-09,0,0,0,0,0
20,-3.20974e-12,1.80799e-38,-1.55365e-06,-3.27649e-12,1.80787e-38,0,-1.06589e-13,0,0,0,0,0,0,0,0,0,0,0,0,0,0,0,0,0,0,0,0,0,-0.261799,0.587477,-1.5,2.51931e-09,0,0,0,0,0
30,-3.20974e-12,1.80799e-38,-1.55365e-06,-3.27649e-12,1.80787e-38,-3.40902e-12,-1.0659e-13,0,0,0,0,0,0,0,0,0,0,0,0,0,0,0,0,0,0,0,0,0,-0.261799,0.611039,-1.5,2.51931e-09,0,0,0,0,0
40,-3.20974e-12,1.80799e-38,-1.55365e-06,-3.27649e-12,1.80787e-38,0,-1.0659e-13,0,0,0,0,0,0,0,0,0,0,0,0,0,0,0,0,0,0,0,0,0,-0.261799,0.863937,-1.5,2.51931e-09,0,0,0,0,0
50,-3.20974e-12,1.80799e-38,-1.55365e-06,-3.27649e-12,1.80787e-38,-3.40902e-12,-1.0659e-13,0,0,0,0,0,0,0,0,0,0,0,0,0,0,0,0,0,0,0,0,0,-0.261799,0.896924,-1.5,2.51931e-09,0,0,0,0,0
60,-3.20974e-12,1.80799e-38,-1.55365e-06,-3.27649e-12,1.80787e-38,0,-1.0659e-13,0,0,0,0,0,0,0,0,0,0,0,0,0,0,0,0,0,0,0,0,0,-0.261799,1.03201,-1.5,2.51931e-09,0,0,0,0,0
70,-3.20974e-12,1.80799e-38,-1.55365e-06,-3.27649e-12,1.80787e-38,-3.40902e-12,-1.06591e-13,0,0,0,0,0,0,0,0,0,0,0,0,0,0,0,0,0,0,0,0,0,-0.261799,1.06343,-1.5,2.51931e-09,0,0,0,0,0
80,-3.20974e-12,1.80799e-38,-1.55365e-06,-3.27649e-12,1.80787e-38,0,-1.06591e-13,0,0,0,0,0,0,0,0,0,0,0,0,0,0,0,0,0,0,0,0,0,-0.261799,1.09799,-1.5,2.51931e-09,0,0,0,0,0
90,-3.20974e-12,1.80799e-38,-1.55365e-06,-3.27649e-12,1.80787e-38,-3.40902e-12,-1.06591e-13,0,0,0,0,0,0,0,0,0,0,0,0,0,0,0,0,0,0,0,0,0,-0.261799,1.2315,-1.5,2.51931e-09,0,0,0,0,0
100,-3.20974e-12,1.80799e-38,-1.55365e-06,-3.27649e-12,1.80787e-38,0,-1.06591e-13,0,0,0,0,0,0,0,0,0,0,0,0,0,0,0,0,0,0,0,0,0,-0.261799,1.26763,-1.5,2.51931e-09,0,0,0,0,0
110,-3.20974e-12,1.80799e-38,-1.55365e-06,-3.27649e-12,1.80787e-38,-3.40902e-12,-1.06592e-13,0,0,0,0,0,0,0,0,0,0,0,0,0,0,0,0,0,0,0,0,0,-0.261799,1.29905,-1.5,2.51931e-09,0,0,0,0,0
120,-3.20974e-12,1.80799e-38,-1.55365e-06,-3.27649e-12,1.80787e-38,0,-1.06592e-13,0,0,0,0,0,0,0,0,0,0,0,0,0,0,0,0,0,0,0,0,0,-0.261799,1.43257,-1.5,2.51931e-09,0,0,0,0,0
130,-3.20974e-12,1.80799e-38,-1.55365e-06,-3.27649e-12,1.80787e-38,-3.40902e-12,-1.06592e-13,0,0,0,0,0,0,0,0,0,0,0,0,0,0,0,0,0,0,0,0,0,-0.261799,1.46398,-1.5,2.51931e-09,0,0,0,0,0
140,-3.20974e-12,1.80799e-38,-1.55365e-06,-3.27649e-12,1.80787e-38,0,-1.06593e-13,0,0,0,0,0,0,0,0,0,0,0,0,0,0,0,0,0,0,0,0,0,-0.261799,1.49854,-1.5,2.51931e-09,0,0,0,0,0
150,-3.20974e-12,1.80799e-38,-1.55365e-06,-3.27649e-12,1.80787e-38,-3.40902e-12,-1.06593e-13,0,0,0,0,0,0,0,0,0,0,0,0,0,0,0,0,0,0,0,0,0,-0.261799,1.62735,-1.5,2.51931e-09,0,0,0,0,0
160,-3.20974e-12,1.80799e-38,-1.55365e-06,-3.27649e-12,1.80787e-38,0,-1.06593e-13,0,0,0,0,0,0,0,0,0,0,0,0,0,0,0,0,0,0,0,0,0,-0.261799,1.66347,-1.5,2.51931e-09,0,0,0,0,0
170,-3.20974e-12,1.80799e-38,-1.55365e-06,-3.27649e-12,1.80787e-38,-3.40902e-12,-1.06593e-13,0,0,0,0,0,0,0,0,0,0,0,0,0,0,0,0,0,0,0,0,0,-0.261799,1.69489,-1.5,2.51931e-09,0,0,0,0,0
180,-3.20974e-12,1.80799e-38,-1.55365e-06,-3.27649e-12,1.80787e-38,0,-1.06594e-13,0,0,0,0,0,0,0,0,0,0,0,0,0,0,0,0,0,0,0,0,0,-0.261799,1.82841,-1.5,2.51931e-09,0,0,0,0,0
190,-3.20974e-12,1.80799e-38,-1.55365e-06,-3.27649e-12,1.80787e-38,-3.40902e-12,-1.06594e-13,0,0,0,0,0,0,0,0,0,0,0,0,0,0,0,0,0,0,0,0,0,-0.261799,1.85982,-1.5,2.51931e-09,0,0,0,0,0
200,-3.20974e-12,1.80799e-38,-1.55365e-06,-3.27649e-12,1.80787e-38,0,-1.06594e-13,0,0,0,0,0,0,0,0,0,0,0,0,0,0,0,0,0,0,0,0,0,-0.261799,1.89438,-1.5,2.51931e-09,0,0,0,0,0
210,-3.20974e-12,1.80799e-38,-1.55365e-06,-3.27649e-12,1.80787e-38,-3.40902e-12,-1.06594e-13,0,0,0,0,0,0,0,0,0,0,0,0,0,0,0,0,0,0,0,0,0,-0.261799,2.0279,-1.5,2.51931e-09,0,0,0,0,0
220,-3.20974e-12,1.80799e-38,-1.55365e-06,-3.27649e-12,1.80787e-38,0,-1.06595e-13,0,0,0,0,0,0,0,0,0,0,0,0,0,0,0,0,0,0,0,0,0,-0.261799,2.06246,-1.5,2.51931e-09,0,0,0,0,0
230,-3.20974e-12,1.80799e-38,-1.55365e-06,-3.27649e-12,1.80787e-38,-3.40902e-12,-1.06595e-13,0,0,0,0,0,0,0,0,0,0,0,0,0,0,0,0,0,0,0,0,0,-0.261799,2.09387,-1.5,2.51931e-09,0,0,0,0,0
240,-3.20974e-12,1.80799e-38,-1.55365e-06,-3.27649e-12,1.80787e-38,0,-1.06595e-13,0,0,0,0,0,0,0,0,0,0,0,0,0,0,0,0,0,0,0,0,0,-0.261799,2.12686,-1.5,2.51931e-09,0,0,0,0,0
250,-3.20974e-12,1.80799e-38,-1.55365e-06,-3.27649e-12,1.80787e-38,-3.40902e-12,-1.06596e-13,0,0,0,0,0,0,0,0,0,0,0,0,0,0,0,0,0,0,0,0,0,-0.261799,2.14728,-1.5,2.51931e-09,0,0,0,0,0
260,-3.20974e-12,1.80799e-38,-1.55365e-06,-3.27649e-12,1.80787e-38,0,-1.06596e-13,0,0,0,0,0,0,0,0,0,0,0,0,0,0,0,0,0,0,0,0,0,-0.261799,2.16927,-1.5,2.51931e-09,0,0,0,0,0
270,-3.20974e-12,1.80799e-38,-1.55365e-06,-3.27649e-12,1.80787e-38,-3.40902e-12,-1.06596e-13,0,0,0,0,0,0,0,0,0,0,0,0,0,0,0,0,0,0,0,0,0,-0.261799,2.28865,-1.5,2.51931e-09,0,0,0,0,0
280,-3.20974e-12,1.80799e-38,-1.55365e-06,-3.27649e-12,1.80787e-38,0,-1.06596e-13,0,0,0,0,0,0,0,0,0,0,0,0,0,0,0,0,0,0,0,0,0,-0.261799,2.32007,-1.5,2.51931e-09,0,0,0,0,0
290,-3.20974e-12,1.80799e-38,-1.55365e-06,-3.27649e-12,1.80787e-38,-3.40902e-12,-1.06597e-13,0,0,0,0,0,0,0,0,0,0,0,0,0,0,0,0,0,0,0,0,0,-0.261799,2.3562,-1.5,2.51931e-09,0,0,0,0,0
300,-3.20974e-12,1.80799e-38,-1.55365e-06,-3.27649e-12,1.80787e-38,0,-1.06597e-13,0,0,0,0,0,0,0,0,0,0,0,0,0,0,0,0,0,0,0,0,0,-0.261799,2.43979,-1.5,2.51931e-09,0,0,0,0,0
310,-3.20974e-12,1.80799e-38,-1.55365e-06,-3.27649e-12,1.80787e-38,-3.40902e-12,-1.06597e-13,0,0,0,0,0,0,0,0,0,0,0,0,0,0,0,0,0,0,0,0,0,-0.261799,2.47029,-1.5,2.51931e-09,0,0,0,0,0
320,-3.20974e-12,1.80799e-38,-1.55365e-06,-3.27649e-12,1.80787e-38,0,-1.06597e-13,0,0,0,0,0,0,0,0,0,0,0,0,0,0,0,0,0,0,0,0,0,-0.261799,2.49812,-1.5,2.51931e-09,0,0,0,0,0
330,-3.20974e-12,1.80799e-38,-1.55365e-06,-3.27649e-12,1.80787e-38,-3.40902e-12,-1.06598e-13,0,0,0,0,0,0,0,0,0,0,0,0,0,0,0,0,0,0,0,0,0,-0.261799,2.59557,-1.5,2.51931e-09,0,0,0,0,0
340,-3.20974e-12,1.80799e-38,-1.55365e-06,-3.27649e-12,1.80787e-38,0,-1.06598e-13,0,0,0,0,0,0,0,0,0,0,0,0,0,0,0,0,0,0,0,0,0,-0.261799,2.61715,-1.5,2.51931e-09,0,0,0,0,0
350,-3.20974e-12,1.80799e-38,-1.55365e-06,-3.27649e-12,1.80787e-38,-3.40902e-12,-1.06598e-13,0,0,0,0,0,0,0,0,0,0,0,0,0,0,0,0,0,0,0,0,0,-0.261799,2.63994,-1.5,2.51931e-09,0,0,0,0,0
360,-3.20974e-12,1.80799e-38,-1.55365e-06,-3.27649e-12,1.80787e-38,0,-1.06599e-13,0,0,0,0,0,0,0,0,0,0,0,0,0,0,0,0,0,0,0,0,0,-0.261799,2.65977,-1.5,2.51931e-09,0,0,0,0,0
370,-3.20974e-12,1.80799e-38,-1.55365e-06,-3.27649e-12,1.80787e-38,-3.40902e-12,-1.06599e-13,0,0,0,0,0,0,0,0,0,0,0,0,0,0,0,0,0,0,0,0,0,-0.261799,2.68163,-1.5,2.51931e-09,0,0,0,0,0
380,-3.20974e-12,1.80799e-38,-1.55365e-06,-3.27649e-12,1.80787e-38,0,-1.06599e-13,0,0,0,0,0,0,0,0,0,0,0,0,0,0,0,0,0,0,0,0,0,-0.261799,2.6998,-1.5,2.51931e-09,0,0,0,0,0
390,-3.20974e-12,1.80799e-38,-1.55365e-06,-3.27649e-12,1.80787e-38,-3.40902e-12,-1.06599e-13,0,0,0,0,0,0,0,0,0,0,0,0,0,0,0,0,0,0,0,0,0,-0.261799,2.7303,-1.5,2.51931e-09,0,0,0,0,0
400,-3.20974e-12,1.80799e-38,-1.55365e-06,-3.27649e-12,1.80787e-38,0,-1.066e-13,0,0,0,0,0,0,0,0,0,0,0,0,0,0,0,0,0,0,0,0,0,-0.261799,2.76351,-1.5,2.51931e-09,0,0,0,0,0
410,-3.20974e-12,1.80799e-38,-1.55365e-06,-3.27649e-12,1.80787e-38,-3.40902e-12,-1.066e-13,0,0,0,0,0,0,0,0,0,0,0,0,0,0,0,0,0,0,0,0,0,-0.261799,2.78812,-1.5,2.51931e-09,0,0,0,0,0
420,-3.20974e-12,1.80799e-38,-1.55365e-06,-3.27649e-12,1.80787e-38,0,-1.066e-13,0,0,0,0,0,0,0,0,0,0,0,0,0,0,0,0,0,0,0,0,0,-0.261799,2.80209,-1.5,2.51931e-09,0,0,0,0,0
430,-3.20974e-12,1.80799e-38,-1.55365e-06,-3.27649e-12,1.80787e-38,-3.40902e-12,-1.066e-13,0,0,0,0,0,0,0,0,0,0,0,0,0,0,0,0,0,0,0,0,0,-0.261799,2.8175,-1.5,2.51931e-09,0,0,0,0,0
440,-3.20974e-12,1.80799e-38,-1.55365e-06,-3.27649e-12,1.80787e-38,0,-1.06601e-13,0,0,0,0,0,0,0,0,0,0,0,0,0,0,0,0,0,0,0,0,0,-0.261799,2.83031,-1.5,2.51931e-09,0,0,0,0,0
450,-3.20974e-12,1.80799e-38,-1.55365e-06,-3.27649e-12,1.80787e-38,-3.40902e-12,-1.06601e-13,0,0,0,0,0,0,0,0,0,0,0,0,0,0,0,0,0,0,0,0,0,-0.261799,2.84443,-1.5,2.51931e-09,0,0,0,0,0
460,-3.20974e-12,1.80799e-38,-1.55365e-06,-3.27649e-12,1.80787e-38,0,-1.06601e-13,0,0,0,0,0,0,0,0,0,0,0,0,0,0,0,0,0,0,0,0,0,-0.261799,2.85618,-1.5,2.51931e-09,0,0,0,0,0
470,-3.20974e-12,1.80799e-38,-1.55365e-06,-3.27649e-12,1.80787e-38,-3.40902e-12,-1.06602e-13,0,0,0,0,0,0,0,0,0,0,0,0,0,0,0,0,0,0,0,0,0,-0.261799,2.86858,-1.5,2.51931e-09,0,0,0,0,0
480,-3.20974e-12,1.80799e-38,-1.55365e-06,-3.27649e-12,1.80787e-38,0,-1.06602e-13,0,0,0,0,0,0,0,0,0,0,0,0,0,0,0,0,0,0,0,0,0,-0.261799,2.87937,-1.5,2.51931e-09,0,0,0,0,0
490,-3.20974e-12,1.80799e-38,-1.55365e-06,-3.27649e-12,1.80787e-38,-3.40902e-12,-1.06602e-13,0,0,0,0,0,0,0,0,0,0,0,0,0,0,0,0,0,0,0,0,0,-0.261799,2.88767,-1.5,2.51931e-09,0,0,0,0,0
500,-3.20974e-12,1.80799e-38,-1.55365e-06,-3.27649e-12,1.80787e-38,0,-1.06602e-13,0,0,0,0,0,0,0,0,0,0,0,0,0,0,0,0,0,0,0,0,0,-0.261799,2.89621,-1.5,2.51931e-09,0,0,0,0,0
510,-3.20974e-12,1.80799e-38,-1.55365e-06,-3.27649e-12,1.80787e-38,-3.40902e-12,-1.06603e-13,0,0,0,0,0,0,0,0,0,0,0,0,0,0,0,0,0,0,0,0,0,-0.261799,2.90638,-1.5,2.51931e-09,0,0,0,0,0
520,-3.20974e-12,1.80799e-38,-1.55365e-06,-3.27649e-12,1.80787e-38,0,-1.06603e-13,0,0,0,0,0,0,0,0,0,0,0,0,0,0,0,0,0,0,0,0,0,-0.261799,2.91659,-1.5,2.51931e-09,0,0,0,0,0
530,-3.20974e-12,1.80799e-38,-1.55365e-06,-3.27649e-12,1.80787e-38,-3.40902e-12,-1.06603e-13,0,0,0,0,0,0,0,0,0,0,0,0,0,0,0,0,0,0,0,0,0,-0.261799,2.92548,-1.5,2.51931e-09,0,0,0,0,0
540,-3.20974e-12,1.80799e-38,-1.55365e-06,-3.27649e-12,1.80787e-38,0,-1.06603e-13,0,0,0,0,0,0,0,0,0,0,0,0,0,0,0,0,0,0,0,0,0,-0.261799,2.93529,-1.5,2.51931e-09,0,0,0,0,0
550,-3.20974e-12,1.80799e-38,-1.55365e-06,-3.27649e-12,1.80787e-38,-3.40902e-12,-1.06604e-13,0,0,0,0,0,0,0,0,0,0,0,0,0,0,0,0,0,0,0,0,0,-0.261799,2.94344,-1.5,2.51931e-09,0,0,0,0,0
560,-3.20974e-12,1.80799e-38,-1.55365e-06,-3.27649e-12,1.80787e-38,0,-1.06604e-13,0,0,0,0,0,0,0,0,0,0,0,0,0,0,0,0,0,0,0,0,0,-0.261799,2.95205,-1.5,2.51931e-09,0,0,0,0,0
570,-3.20974e-12,1.80799e-38,-1.55365e-06,-3.27649e-12,1.80787e-38,-3.40902e-12,-1.06604e-13,0,0,0,0,0,0,0,0,0,0,0,0,0,0,0,0,0,0,0,0,0,-0.261799,2.95991,-1.5,2.51931e-09,0,0,0,0,0
580,-3.20974e-12,1.80799e-38,-1.55365e-06,-3.27649e-12,1.80787e-38,0,-1.06605e-13,0,0,0,0,0,0,0,0,0,0,0,0,0,0,0,0,0,0,0,0,0,-0.261799,2.96781,-1.5,2.51931e-09,0,0,0,0,0
590,-3.20974e-12,1.80799e-38,-1.55365e-06,-3.27649e-12,1.80787e-38,-3.40902e-12,-1.06605e-13,0,0,0,0,0,0,0,0,0,0,0,0,0,0,0,0,0,0,0,0,0,-0.261799,2.97501,-1.5,2.51931e-09,0,0,0,0,0
600,-3.20974e-12,1.80799e-38,-1.55365e-06,-3.27649e-12,1.80787e-38,0,-1.06605e-13,0,0,0,0,0,0,0,0,0,0,0,0,0,0,0,0,0,0,0,0,0,-0.261799,2.98224,-1.5,2.51931e-09,0,0,0,0,0
610,-3.20974e-12,1.80799e-38,-1.55365e-06,-3.27649e-12,1.80787e-38,-3.40902e-12,-1.06605e-13,0,0,0,0,0,0,0,0,0,0,0,0,0,0,0,0,0,0,0,0,0,-0.261799,2.98823,-1.5,2.51931e-09,0,0,0,0,0
620,-3.20974e-12,1.80799e-38,-1.55365e-06,-3.27649e-12,1.80787e-38,0,-1.06606e-13,0,0,0,0,0,0,0,0,0,0,0,0,0,0,0,0,0,0,0,0,0,-0.261799,2.99489,-1.5,2.51931e-09,0,0,0,0,0
630,-3.20974e-12,1.80799e-38,-1.55365e-06,-3.27649e-12,1.80787e-38,-3.40902e-12,-1.06606e-13,0,0,0,0,0,0,0,0,0,0,0,0,0,0,0,0,0,0,0,0,0,-0.261799,3.00069,-1.5,2.51931e-09,0,0,0,0,0
640,-3.20974e-12,1.80799e-38,-1.55365e-06,-3.27649e-12,1.80787e-38,0,-1.06606e-13,0,0,0,0,0,0,0,0,0,0,0,0,0,0,0,0,0,0,0,0,0,-0.261799,3.00708,-1.5,2.51931e-09,0,0,0,0,0
650,-3.20974e-12,1.80799e-38,-1.55365e-06,-3.27649e-12,1.80787e-38,-3.40902e-12,-1.06606e-13,0,0,0,0,0,0,0,0,0,0,0,0,0,0,0,0,0,0,0,0,0,-0.261799,3.0124,-1.5,2.51931e-09,0,0,0,0,0
660,-3.20974e-12,1.80799e-38,-1.55365e-06,-3.27649e-12,1.80787e-38,0,-1.06607e-13,0,0,0,0,0,0,0,0,0,0,0,0,0,0,0,0,0,0,0,0,0,-0.261799,3.01802,-1.5,2.51931e-09,0,0,0,0,0
670,-3.20974e-12,1.80799e-38,-1.55365e-06,-3.27649e-12,1.80787e-38,-3.40902e-12,-1.06607e-13,0,0,0,0,0,0,0,0,0,0,0,0,0,0,0,0,0,0,0,0,0,-0.261799,3.02314,-1.5,2.51931e-09,0,0,0,0,0
680,-3.20974e-12,1.80799e-38,-1.55365e-06,-3.27649e-12,1.80787e-38,0,-1.06607e-13,0,0,0,0,0,0,0,0,0,0,0,0,0,0,0,0,0,0,0,0,0,-0.261799,3.02829,-1.5,2.51931e-09,0,0,0,0,0
690,-3.20974e-12,1.80799e-38,-1.55365e-06,-3.27649e-12,1.80787e-38,-3.40902e-12,-1.06607e-13,0,0,0,0,0,0,0,0,0,0,0,0,0,0,0,0,0,0,0,0,0,-0.261799,3.03276,-1.5,2.51931e-09,0,0,0,0,0
700,-3.20974e-12,1.80799e-38,-1.55365e-06,-3.27649e-12,1.80787e-38,0,-1.06608e-13,0,0,0,0,0,0,0,0,0,0,0,0,0,0,0,0,0,0,0,0,0,-0.261799,3.0377,-1.5,2.51931e-09,0,0,0,0,0
710,-3.20974e-12,1.80799e-38,-1.55365e-06,-3.27649e-12,1.80787e-38,-3.40902e-12,-1.06608e-13,0,0,0,0,0,0,0,0,0,0,0,0,0,0,0,0,0,0,0,0,0,-0.261799,3.04181,-1.5,2.51931e-09,0,0,0,0,0
720,-3.20974e-12,1.80799e-38,-1.55365e-06,-3.27649e-12,1.80787e-38,0,-1.06608e-13,0,0,0,0,0,0,0,0,0,0,0,0,0,0,0,0,0,0,0,0,0,-0.261799,3.04496,-1.5,2.51931e-09,0,0,0,0,0
730,-3.20974e-12,1.80799e-38,-1.55365e-06,-3.27649e-12,1.80787e-38,-3.40902e-12,-1.06609e-13,0,0,0,0,0,0,0,0,0,0,0,0,0,0,0,0,0,0,0,0,0,-0.261799,3.04821,-1.5,2.51931e-09,0,0,0,0,0
740,-3.20974e-12,1.80799e-38,-1.55365e-06,-3.27649e-12,1.80787e-38,0,-1.06609e-13,0,0,0,0,0,0,0,0,0,0,0,0,0,0,0,0,0,0,0,0,0,-0.261799,3.05117,-1.5,2.51931e-09,0,0,0,0,0
750,-3.20974e-12,1.80799e-38,-1.55365e-06,-3.27649e-12,1.80787e-38,-3.40902e-12,-1.06609e-13,0,0,0,0,0,0,0,0,0,0,0,0,0,0,0,0,0,0,0,0,0,-0.261799,3.0551,-1.5,2.51931e-09,0,0,0,0,0
760,-3.20974e-12,1.80799e-38,-1.55365e-06,-3.27649e-12,1.80787e-38,0,-1.06609e-13,0,0,0,0,0,0,0,0,0,0,0,0,0,0,0,0,0,0,0,0,0,-0.261799,3.05851,-1.5,2.51931e-09,0,0,0,0,0
770,-3.20974e-12,1.80799e-38,-1.55365e-06,-3.27649e-12,1.80787e-38,-3.40902e-12,-1.0661e-13,0,0,0,0,0,0,0,0,0,0,0,0,0,0,0,0,0,0,0,0,0,-0.261799,3.06228,-1.5,2.51931e-09,0,0,0,0,0
780,-3.20974e-12,1.80799e-38,-1.55365e-06,-3.27649e-12,1.80787e-38,0,-1.0661e-13,0,0,0,0,0,0,0,0,0,0,0,0,0,0,0,0,0,0,0,0,0,-0.261799,3.06542,-1.5,2.51931e-09,0,0,0,0,0
790,-3.20974e-12,1.80799e-38,-1.55365e-06,-3.27649e-12,1.80787e-38,-3.40902e-12,-1.0661e-13,0,0,0,0,0,0,0,0,0,0,0,0,0,0,0,0,0,0,0,0,0,-0.261799,3.06872,-1.5,2.51931e-09,0,0,0,0,0
800,-3.20974e-12,1.80799e-38,-1.55365e-06,-3.27649e-12,1.80787e-38,0,-1.0661e-13,0,0,0,0,0,0,0,0,0,0,0,0,0,0,0,0,0,0,0,0,0,-0.261799,3.0716,-1.5,2.51931e-09,0,0,0,0,0
810,-3.20974e-12,1.80799e-38,-1.55365e-06,-3.27649e-12,1.80787e-38,-3.40902e-12,-1.06611e-13,0,0,0,0,0,0,0,0,0,0,0,0,0,0,0,0,0,0,0,0,0,-0.261799,3.07464,-1.5,2.51931e-09,0,0,0,0,0
820,-3.20974e-12,1.80799e-38,-1.55365e-06,-3.27649e-12,1.80787e-38,0,-1.06611e-13,0,0,0,0,0,0,0,0,0,0,0,0,0,0,0,0,0,0,0,0,0,-0.261799,3.07729,-1.5,2.51931e-09,0,0,0,0,0
830,-3.20974e-12,1.80799e-38,-1.55365e-06,-3.27649e-12,1.80787e-38,-3.40902e-12,-1.06611e-13,0,0,0,0,0,0,0,0,0,0,0,0,0,0,0,0,0,0,0,0,0,-0.261799,3.08021,-1.5,2.51931e-09,0,0,0,0,0
840,-3.20974e-12,1.80799e-38,-1.55365e-06,-3.27649e-12,1.80787e-38,0,-1.06612e-13,0,0,0,0,0,0,0,0,0,0,0,0,0,0,0,0,0,0,0,0,0,-0.261799,3.08263,-1.5,2.51931e-09,0,0,0,0,0
850,-3.20974e-12,1.80799e-38,-1.55365e-06,-3.27649e-12,1.80787e-38,-3.40902e-12,-1.06612e-13,0,0,0,0,0,0,0,0,0,0,0,0,0,0,0,0,0,0,0,0,0,-0.261799,3.08519,-1.5,2.51931e-09,0,0,0,0,0
860,-3.20974e-12,1.80799e-38,-1.55365e-06,-3.27649e-12,1.80787e-38,0,-1.06612e-13,0,0,0,0,0,0,0,0,0,0,0,0,0,0,0,0,0,0,0,0,0,-0.261799,3.08753,-1.5,2.51931e-09,0,0,0,0,0
870,-3.20974e-12,1.80799e-38,-1.55365e-06,-3.27649e-12,1.80787e-38,-3.40902e-12,-1.06612e-13,0,0,0,0,0,0,0,0,0,0,0,0,0,0,0,0,0,0,0,0,0,-0.261799,3.08988,-1.5,2.51931e-09,0,0,0,0,0
880,-3.20974e-12,1.80799e-38,-1.55365e-06,-3.27649e-12,1.80787e-38,0,-1.06613e-13,0,0,0,0,0,0,0,0,0,0,0,0,0,0,0,0,0,0,0,0,0,-0.261799,3.09192,-1.5,2.51931e-09,0,0,0,0,0
890,-3.20974e-12,1.80799e-38,-1.55365e-06,-3.27649e-12,1.80787e-38,-3.40902e-12,-1.06613e-13,0,0,0,0,0,0,0,0,0,0,0,0,0,0,0,0,0,0,0,0,0,-0.261799,3.09408,-1.5,2.51931e-09,0,0,0,0,0
900,-3.20974e-12,1.80799e-38,-1.55365e-06,-3.27649e-12,1.80787e-38,0,-1.06613e-13,0,0,0,0,0,0,0,0,0,0,0,0,0,0,0,0,0,0,0,0,0,-0.261799,3.09596,-1.5,2.51931e-09,0,0,0,0,0
910,-3.20974e-12,1.80799e-38,-1.55365e-06,-3.27649e-12,1.80787e-38,-3.40902e-12,-1.06613e-13,0,0,0,0,0,0,0,0,0,0,0,0,0,0,0,0,0,0,0,0,0,-0.261799,3.09803,-1.5,2.51931e-09,0,0,0,0,0
920,-3.20974e-12,1.80799e-38,-1.55365e-06,-3.27649e-12,1.80787e-38,0,-1.06614e-13,0,0,0,0,0,0,0,0,0,0,0,0,0,0,0,0,0,0,0,0,0,-0.261799,3.09966,-1.5,2.51931e-09,0,0,0,0,0
930,-3.20974e-12,1.80799e-38,-1.55365e-06,-3.27649e-12,1.80787e-38,-3.40902e-12,-1.06614e-13,0,0,0,0,0,0,0,0,0,0,0,0,0,0,0,0,0,0,0,0,0,-0.261799,3.10149,-1.5,2.51931e-09,0,0,0,0,0
940,-3.20974e-12,1.80799e-38,-1.55365e-06,-3.27649e-12,1.80787e-38,0,-1.06614e-13,0,0,0,0,0,0,0,0,0,0,0,0,0,0,0,0,0,0,0,0,0,-0.261799,3.10331,-1.5,2.51931e-09,0,0,0,0,0
950,-3.20974e-12,1.80799e-38,-1.55365e-06,-3.27649e-12,1.80787e-38,-3.40902e-12,-1.06615e-13,0,0,0,0,0,0,0,0,0,0,0,0,0,0,0,0,0,0,0,0,0,-0.261799,3.10452,-1.5,2.51931e-09,0,0,0,0,0
960,-3.20974e-12,1.80799e-38,-1.55365e-06,-3.27649e-12,1.80787e-38,0,-1.06615e-13,0,0,0,0,0,0,0,0,0,0,0,0,0,0,0,0,0,0,0,0,0,-0.261799,3.10576,-1.5,2.51931e-09,0,0,0,0,0
970,-3.20974e-12,1.80799e-38,-1.55365e-06,-3.27649e-12,1.80787e-38,-3.40902e-12,-1.06615e-13,0,0,0,0,0,0,0,0,0,0,0,0,0,0,0,0,0,0,0,0,0,-0.261799,3.10683,-1.5,2.51931e-09,0,0,0,0,0
980,-3.20974e-12,1.80799e-38,-1.55365e-06,-3.27649e-12,1.80787e-38,0,-1.06615e-13,0,0,0,0,0,0,0,0,0,0,0,0,0,0,0,0,0,0,0,0,0,-0.261799,3.10834,-1.5,2.51931e-09,0,0,0,0,0
990,-3.20974e-12,1.80799e-38,-1.55365e-06,-3.27649e-12,1.80787e-38,-3.40902e-12,-1.06616e-13,0,0,0,0,0,0,0,0,0,0,0,0,0,0,0,0,0,0,0,0,0,-0.261799,3.10978,-1.5,2.51931e-09,0,0,0,0,0
1000,-3.20974e-12,1.80799e-38,-1.55365e-06,-3.27649e-12,1.80787e-38,0,-1.06616e-13,0,0,0,0,0,0,0,0,0,0,0,0,0,0,0,0,0,0,0,0,0,-0.261799,3.11116,-1.5,2.51931e-09,0,0,0,0,0
1010,-3.20974e-12,1.80799e-38,-1.55365e-06,-3.27649e-12,1.80787e-38,-3.40902e-12,-1.06616e-13,0,0,0,0,0,0,0,0,0,0,0,0,0,0,0,0,0,0,0,0,0,-0.261799,3.11248,-1.5,2.51931e-09,0,0,0,0,0
1020,-3.20974e-12,1.80799e-38,-1.55365e-06,-3.27649e-12,1.80787e-38,0,-1.06616e-13,0,0,0,0,0,0,0,0,0,0,0,0,0,0,0,0,0,0,0,0,0,-0.261799,3.11369,-1.5,2.51931e-09,0,0,0,0,0
1030,-3.20974e-12,1.80799e-38,-1.55365e-06,-3.27649e-12,1.80787e-38,-3.40902e-12,-1.06617e-13,0,0,0,0,0,0,0,0,0,0,0,0,0,0,0,0,0,0,0,0,0,-0.261799,3.11485,-1.5,2.51931e-09,0,0,0,0,0
1040,-3.20974e-12,1.80799e-38,-1.55365e-06,-3.27649e-12,1.80787e-38,0,-1.06617e-13,0,0,0,0,0,0,0,0,0,0,0,0,0,0,0,0,0,0,0,0,0,-0.261799,3.11596,-1.5,2.51931e-09,0,0,0,0,0
1050,-3.20974e-12,1.80799e-38,-1.55365e-06,-3.27649e-12,1.80787e-38,-3.40902e-12,-1.06617e-13,0,0,0,0,0,0,0,0,0,0,0,0,0,0,0,0,0,0,0,0,0,-0.261799,3.11702,-1.5,2.51931e-09,0,0,0,0,0
1060,-3.20974e-12,1.80799e-38,-1.55365e-06,-3.27649e-12,1.80787e-38,0,-1.06618e-13,0,0,0,0,0,0,0,0,0,0,0,0,0,0,0,0,0,0,0,0,0,-0.261799,3.11823,-1.5,2.51931e-09,0,0,0,0,0
1070,-3.20974e-12,1.80799e-38,-1.55365e-06,-3.27649e-12,1.80787e-38,-3.40902e-12,-1.06618e-13,0,0,0,0,0,0,0,0,0,0,0,0,0,0,0,0,0,0,0,0,0,-0.261799,3.1192,-1.5,2.51931e-09,0,0,0,0,0
1080,-3.20974e-12,1.80799e-38,-1.55365e-06,-3.27649e-12,1.80787e-38,0,-1.06618e-13,0,0,0,0,0,0,0,0,0,0,0,0,0,0,0,0,0,0,0,0,0,-0.261799,3.12013,-1.5,2.51931e-09,0,0,0,0,0
1090,-3.20974e-12,1.80799e-38,-1.55365e-06,-3.27649e-12,1.80787e-38,-3.40902e-12,-1.06618e-13,0,0,0,0,0,0,0,0,0,0,0,0,0,0,0,0,0,0,0,0,0,-0.261799,3.12106,-1.5,2.51931e-09,0,0,0,0,0
1100,-3.20974e-12,1.80799e-38,-1.55365e-06,-3.27649e-12,1.80787e-38,0,-1.06619e-13,0,0,0,0,0,0,0,0,0,0,0,0,0,0,0,0,0,0,0,0,0,-0.261799,3.12191,-1.5,2.51931e-09,0,0,0,0,0
1110,-3.20974e-12,1.80799e-38,-1.55365e-06,-3.27649e-12,1.80787e-38,-3.40902e-12,-1.06619e-13,0,0,0,0,0,0,0,0,0,0,0,0,0,0,0,0,0,0,0,0,0,-0.261799,3.12273,-1.5,2.51931e-09,0,0,0,0,0
1120,-3.20974e-12,1.80799e-38,-1.55365e-06,-3.27649e-12,1.80787e-38,0,-1.06619e-13,0,0,0,0,0,0,0,0,0,0,0,0,0,0,0,0,0,0,0,0,0,-0.261799,3.12355,-1.5,2.51931e-09,0,0,0,0,0
1130,-3.20974e-12,1.80799e-38,-1.55365e-06,-3.27649e-12,1.80787e-38,-3.40902e-12,-1.06619e-13,0,0,0,0,0,0,0,0,0,0,0,0,0,0,0,0,0,0,0,0,0,-0.261799,3.12433,-1.5,2.51931e-09,0,0,0,0,0
1140,-3.20974e-12,1.80799e-38,-1.55365e-06,-3.27649e-12,1.80787e-38,0,-1.0662e-13,0,0,0,0,0,0,0,0,0,0,0,0,0,0,0,0,0,0,0,0,0,-0.261799,3.12505,-1.5,2.51931e-09,0,0,0,0,0
1150,-3.20974e-12,1.80799e-38,-1.55365e-06,-3.27649e-12,1.80787e-38,-3.40902e-12,-1.0662e-13,0,0,0,0,0,0,0,0,0,0,0,0,0,0,0,0,0,0,0,0,0,-0.261799,3.12573,-1.5,2.51931e-09,0,0,0,0,0
1160,-3.20974e-12,1.80799e-38,-1.55365e-06,-3.27649e-12,1.80787e-38,0,-1.0662e-13,0,0,0,0,0,0,0,0,0,0,0,0,0,0,0,0,0,0,0,0,0,-0.261799,3.12642,-1.5,2.51931e-09,0,0,0,0,0
1170,-3.20974e-12,1.80799e-38,-1.55365e-06,-3.27649e-12,1.80787e-38,-3.40902e-12,-1.0662e-13,0,0,0,0,0,0,0,0,0,0,0,0,0,0,0,0,0,0,0,0,0,-0.261799,3.12705,-1.5,2.51931e-09,0,0,0,0,0
1180,-3.20974e-12,1.80799e-38,-1.55365e-06,-3.27649e-12,1.80787e-38,0,-1.06621e-13,0,0,0,0,0,0,0,0,0,0,0,0,0,0,0,0,0,0,0,0,0,-0.261799,3.12768,-1.5,2.51931e-09,0,0,0,0,0
1190,-3.20974e-12,1.80799e-38,-1.55365e-06,-3.27649e-12,1.80787e-38,-3.40902e-12,-1.06621e-13,0,0,0,0,0,0,0,0,0,0,0,0,0,0,0,0,0,0,0,0,0,-0.261799,3.12812,-1.5,2.51931e-09,0,0,0,0,0
1200,-3.20974e-12,1.80799e-38,-1.55365e-06,-3.27649e-12,1.80787e-38,0,-1.06621e-13,0,0,0,0,0,0,0,0,0,0,0,0,0,0,0,0,0,0,0,0,0,-0.261799,3.12855,-1.5,2.51931e-09,0,0,0,0,0
1210,-3.20974e-12,1.80799e-38,-1.55365e-06,-3.27649e-12,1.80787e-38,-3.40902e-12,-1.06622e-13,0,0,0,0,0,0,0,0,0,0,0,0,0,0,0,0,0,0,0,0,0,-0.261799,3.12896,-1.5,2.51931e-09,0,0,0,0,0
1220,-3.20974e-12,1.80799e-38,-1.55365e-06,-3.27649e-12,1.80787e-38,0,-1.06622e-13,0,0,0,0,0,0,0,0,0,0,0,0,0,0,0,0,0,0,0,0,0,-0.261799,3.12951,-1.5,2.51931e-09,0,0,0,0,0
1230,-3.20974e-12,1.80799e-38,-1.55365e-06,-3.27649e-12,1.80787e-38,-3.40902e-12,-1.06622e-13,0,0,0,0,0,0,0,0,0,0,0,0,0,0,0,0,0,0,0,0,0,-0.261799,3.13001,-1.5,2.51931e-09,0,0,0,0,0
1240,-3.20974e-12,1.80799e-38,-1.55365e-06,-3.27649e-12,1.80787e-38,0,-1.06622e-13,0,0,0,0,0,0,0,0,0,0,0,0,0,0,0,0,0,0,0,0,0,-0.261799,3.13049,-1.5,2.51931e-09,0,0,0,0,0
1250,-3.20974e-12,1.80799e-38,-1.55365e-06,-3.27649e-12,1.80787e-38,-3.40902e-12,-1.06623e-13,0,0,0,0,0,0,0,0,0,0,0,0,0,0,0,0,0,0,0,0,0,-0.261799,3.13095,-1.5,2.51931e-09,0,0,0,0,0
1260,-3.20974e-12,1.80799e-38,-1.55365e-06,-3.27649e-12,1.80787e-38,0,-1.06623e-13,0,0,0,0,0,0,0,0,0,0,0,0,0,0,0,0,0,0,0,0,0,-0.261799,3.13139,-1.5,2.51931e-09,0,0,0,0,0
1270,-3.20974e-12,1.80799e-38,-1.55365e-06,-3.27649e-12,1.80787e-38,-3.40902e-12,-1.06623e-13,0,0,0,0,0,0,0,0,0,0,0,0,0,0,0,0,0,0,0,0,0,-0.261799,3.13182,-1.5,2.51931e-09,0,0,0,0,0
1280,-3.20974e-12,1.80799e-38,-1.55365e-06,-3.27649e-12,1.80787e-38,0,-1.06623e-13,0,0,0,0,0,0,0,0,0,0,0,0,0,0,0,0,0,0,0,0,0,-0.261799,3.13222,-1.5,2.51931e-09,0,0,0,0,0
1290,-3.20974e-12,1.80799e-38,-1.55365e-06,-3.27649e-12,1.80787e-38,-3.40902e-12,-1.06624e-13,0,0,0,0,0,0,0,0,0,0,0,0,0,0,0,0,0,0,0,0,0,-0.261799,3.13261,-1.5,2.51931e-09,0,0,0,0,0
1300,-3.20974e-12,1.80799e-38,-1.55365e-06,-3.27649e-12,1.80787e-38,0,-1.06624e-13,0,0,0,0,0,0,0,0,0,0,0,0,0,0,0,0,0,0,0,0,0,-0.261799,3.13298,-1.5,2.51931e-09,0,0,0,0,0
1310,-3.20974e-12,1.80799e-38,-1.55365e-06,-3.27649e-12,1.80787e-38,-3.40902e-12,-1.06624e-13,0,0,0,0,0,0,0,0,0,0,0,0,0,0,0,0,0,0,0,0,0,-0.261799,3.13334,-1.5,2.51931e-09,0,0,0,0,0
1320,-3.20974e-12,1.80799e-38,-1.55365e-06,-3.27649e-12,1.80787e-38,0,-1.06625e-13,0,0,0,0,0,0,0,0,0,0,0,0,0,0,0,0,0,0,0,0,0,-0.261799,3.1337,-1.5,2.51931e-09,0,0,0,0,0
1330,-3.20974e-12,1.80799e-38,-1.55365e-06,-3.27649e-12,1.80787e-38,-3.40902e-12,-1.06625e-13,0,0,0,0,0,0,0,0,0,0,0,0,0,0,0,0,0,0,0,0,0,-0.261799,3.13403,-1.5,2.51931e-09,0,0,0,0,0
1340,-3.20974e-12,1.80799e-38,-1.55365e-06,-3.27649e-12,1.80787e-38,0,-1.06625e-13,0,0,0,0,0,0,0,0,0,0,0,0,0,0,0,0,0,0,0,0,0,-0.261799,3.13434,-1.5,2.51931e-09,0,0,0,0,0
1350,-3.20974e-12,1.80799e-38,-1.55365e-06,-3.27649e-12,1.80787e-38,-3.40902e-12,-1.06625e-13,0,0,0,0,0,0,0,0,0,0,0,0,0,0,0,0,0,0,0,0,0,-0.261799,3.13464,-1.5,2.51931e-09,0,0,0,0,0
1360,-3.20974e-12,1.80799e-38,-1.55365e-06,-3.27649e-12,1.80787e-38,0,-1.06626e-13,0,0,0,0,0,0,0,0,0,0,0,0,0,0,0,0,0,0,0,0,0,-0.261799,3.13493,-1.5,2.51931e-09,0,0,0,0,0
1370,-3.20974e-12,1.80799e-38,-1.55365e-06,-3.27649e-12,1.80787e-38,-3.40902e-12,-1.06626e-13,0,0,0,0,0,0,0,0,0,0,0,0,0,0,0,0,0,0,0,0,0,-0.261799,3.13521,-1.5,2.51931e-09,0,0,0,0,0
1380,-3.20974e-12,1.80799e-38,-1.55365e-06,-3.27649e-12,1.80787e-38,0,-1.06626e-13,0,0,0,0,0,0,0,0,0,0,0,0,0,0,0,0,0,0,0,0,0,-0.261799,3.13547,-1.5,2.51931e-09,0,0,0,0,0
1390,-3.20974e-12,1.80799e-38,-1.55365e-06,-3.27649e-12,1.80787e-38,-3.40902e-12,-1.06626e-13,0,0,0,0,0,0,0,0,0,0,0,0,0,0,0,0,0,0,0,0,0,-0.261799,3.13572,-1.5,2.51931e-09,0,0,0,0,0
1400,-3.20974e-12,1.80799e-38,-1.55365e-06,-3.27649e-12,1.80787e-38,0,-1.06627e-13,0,0,0,0,0,0,0,0,0,0,0,0,0,0,0,0,0,0,0,0,0,-0.261799,3.13597,-1.5,2.51931e-09,0,0,0,0,0
1410,-3.20974e-12,1.80799e-38,-1.55365e-06,-3.27649e-12,1.80787e-38,-3.40902e-12,-1.06627e-13,0,0,0,0,0,0,0,0,0,0,0,0,0,0,0,0,0,0,0,0,0,-0.261799,3.13621,-1.5,2.51931e-09,0,0,0,0,0
1420,-3.20974e-12,1.80799e-38,-1.55365e-06,-3.27649e-12,1.80787e-38,0,-1.06627e-13,0,0,0,0,0,0,0,0,0,0,0,0,0,0,0,0,0,0,0,0,0,-0.261799,3.13639,-1.5,2.51931e-09,0,0,0,0,0
1430,-3.20974e-12,1.80799e-38,-1.55365e-06,-3.27649e-12,1.80787e-38,-3.40902e-12,-1.06628e-13,0,0,0,0,0,0,0,0,0,0,0,0,0,0,0,0,0,0,0,0,0,-0.261799,3.13656,-1.5,2.51931e-09,0,0,0,0,0
1440,-3.20974e-12,1.80799e-38,-1.55365e-06,-3.27649e-12,1.80787e-38,0,-1.06628e-13,0,0,0,0,0,0,0,0,0,0,0,0,0,0,0,0,0,0,0,0,0,-0.261799,3.13672,-1.5,2.51931e-09,0,0,0,0,0
1450,-3.20974e-12,1.80799e-38,-1.55365e-06,-3.27649e-12,1.80787e-38,-3.40902e-12,-1.06632e-13,0,0,0,0,0,0,0,0,0,0,0,0,0,0,0,0,0,0,0,0,0,-0.261799,3.13692,-1.5,2.51931e-09,0,0,0,0,0
1460,-3.20974e-12,1.80799e-38,-1.55365e-06,-3.27649e-12,1.80787e-38,0,-1.06632e-13,0,0,0,0,0,0,0,0,0,0,0,0,0,0,0,0,0,0,0,0,0,-0.261799,3.13712,-1.5,2.51931e-09,0,0,0,0,0
1470,-3.20974e-12,1.80799e-38,-1.55365e-06,-3.27649e-12,1.80787e-38,-3.40902e-12,-1.06632e-13,0,0,0,0,0,0,0,0,0,0,0,0,0,0,0,0,0,0,0,0,0,-0.261799,3.13731,-1.5,2.51931e-09,0,0,0,0,0
1480,-3.20974e-12,1.80799e-38,-1.55365e-06,-3.27649e-12,1.80787e-38,0,-1.06633e-13,0,0,0,0,0,0,0,0,0,0,0,0,0,0,0,0,0,0,0,0,0,-0.261799,3.13749,-1.5,2.51931e-09,0,0,0,0,0
1490,-3.20974e-12,1.80799e-38,-1.55365e-06,-3.27649e-12,1.80787e-38,-3.40902e-12,-1.06633e-13,0,0,0,0,0,0,0,0,0,0,0,0,0,0,0,0,0,0,0,0,0,-0.261799,3.13766,-1.5,2.51931e-09,0,0,0,0,0
1500,-3.20974e-12,1.80799e-38,-1.55365e-06,-3.27649e-12,1.80787e-38,0,-1.06633e-13,0,0,0,0,0,0,0,0,0,0,0,0,0,0,0,0,0,0,0,0,0,-0.261799,3.13783,-1.5,2.51931e-09,0,0,0,0,0
1510,-3.20974e-12,1.80799e-38,-1.55365e-06,-3.27649e-12,1.80787e-38,-3.40902e-12,-1.06633e-13,0,0,0,0,0,0,0,0,0,0,0,0,0,0,0,0,0,0,0,0,0,-0.261799,3.13799,-1.5,2.51931e-09,0,0,0,0,0
1520,-3.20974e-12,1.80799e-38,-1.55365e-06,-3.27649e-12,1.80787e-38,0,-1.06634e-13,0,0,0,0,0,0,0,0,0,0,0,0,0,0,0,0,0,0,0,0,0,-0.261799,3.13814,-1.5,2.51931e-09,0,0,0,0,0
1530,-3.20974e-12,1.80799e-38,-1.55365e-06,-3.27649e-12,1.80787e-38,-3.40902e-12,-1.06634e-13,0,0,0,0,0,0,0,0,0,0,0,0,0,0,0,0,0,0,0,0,0,-0.261799,3.13833,-1.5,2.51931e-09,0,0,0,0,0
1540,-3.20974e-12,1.80799e-38,-1.55365e-06,-3.27649e-12,1.80787e-38,0,-1.06634e-13,0,0,0,0,0,0,0,0,0,0,0,0,0,0,0,0,0,0,0,0,0,-0.261799,3.13847,-1.5,2.51931e-09,0,0,0,0,0
1550,-3.20974e-12,1.80799e-38,-1.55365e-06,-3.27649e-12,1.80787e-38,-3.40902e-12,-1.06634e-13,0,0,0,0,0,0,0,0,0,0,0,0,0,0,0,0,0,0,0,0,0,-0.261799,3.1386,-1.5,2.51931e-09,0,0,0,0,0
1560,-3.20974e-12,1.80799e-38,-1.55365e-06,-3.27649e-12,1.80787e-38,0,-1.06635e-13,0,0,0,0,0,0,0,0,0,0,0,0,0,0,0,0,0,0,0,0,0,-0.261799,3.13873,-1.5,2.51931e-09,0,0,0,0,0
1570,-3.20974e-12,1.80799e-38,-1.55365e-06,-3.27649e-12,1.80787e-38,-3.40902e-12,-1.06635e-13,0,0,0,0,0,0,0,0,0,0,0,0,0,0,0,0,0,0,0,0,0,-0.261799,3.13885,-1.5,2.51931e-09,0,0,0,0,0
1580,-3.20974e-12,1.80799e-38,-1.55365e-06,-3.27649e-12,1.80787e-38,0,-1.06635e-13,0,0,0,0,0,0,0,0,0,0,0,0,0,0,0,0,0,0,0,0,0,-0.261799,3.13897,-1.5,2.51931e-09,0,0,0,0,0
1590,-3.20974e-12,1.80799e-38,-1.55365e-06,-3.27649e-12,1.80787e-38,-3.40902e-12,-1.06636e-13,0,0,0,0,0,0,0,0,0,0,0,0,0,0,0,0,0,0,0,0,0,-0.261799,3.13908,-1.5,2.51931e-09,0,0,0,0,0
1600,-3.20974e-12,1.80799e-38,-1.55365e-06,-3.27649e-12,1.80787e-38,0,-1.06636e-13,0,0,0,0,0,0,0,0,0,0,0,0,0,0,0,0,0,0,0,0,0,-0.261799,3.13918,-1.5,2.51931e-09,0,0,0,0,0
1610,-3.20974e-12,1.80799e-38,-1.55365e-06,-3.27649e-12,1.80787e-38,-3.40902e-12,-1.06636e-13,0,0,0,0,0,0,0,0,0,0,0,0,0,0,0,0,0,0,0,0,0,-0.261799,3.13929,-1.5,2.51931e-09,0,0,0,0,0
1620,-3.20974e-12,1.80799e-38,-1.55365e-06,-3.27649e-12,1.80787e-38,0,-1.06636e-13,0,0,0,0,0,0,0,0,0,0,0,0,0,0,0,0,0,0,0,0,0,-0.261799,3.13939,-1.5,2.51931e-09,0,0,0,0,0
1630,-3.20974e-12,1.80799e-38,-1.55365e-06,-3.27649e-12,1.80787e-38,-3.40902e-12,-1.06637e-13,0,0,0,0,0,0,0,0,0,0,0,0,0,0,0,0,0,0,0,0,0,-0.261799,3.13948,-1.5,2.51931e-09,0,0,0,0,0
1640,-3.20974e-12,1.80799e-38,-1.55365e-06,-3.27649e-12,1.80787e-38,0,-1.06637e-13,0,0,0,0,0,0,0,0,0,0,0,0,0,0,0,0,0,0,0,0,0,-0.261799,3.13957,-1.5,2.51931e-09,0,0,0,0,0
1650,-3.20974e-12,1.80799e-38,-1.55365e-06,-3.27649e-12,1.80787e-38,-3.40902e-12,-1.06637e-13,0,0,0,0,0,0,0,0,0,0,0,0,0,0,0,0,0,0,0,0,0,-0.261799,3.13965,-1.5,2.51931e-09,0,0,0,0,0
1660,-3.20974e-12,1.80799e-38,-1.55365e-06,-3.27649e-12,1.80787e-38,0,-1.06637e-13,0,0,0,0,0,0,0,0,0,0,0,0,0,0,0,0,0,0,0,0,0,-0.261799,3.13971,-1.5,2.51931e-09,0,0,0,0,0
1670,-3.20974e-12,1.80799e-38,-1.55365e-06,-3.27649e-12,1.80787e-38,-3.40902e-12,-1.06638e-13,0,0,0,0,0,0,0,0,0,0,0,0,0,0,0,0,0,0,0,0,0,-0.261799,3.13978,-1.5,2.51931e-09,0,0,0,0,0
1680,-3.20974e-12,1.80799e-38,-1.55365e-06,-3.27649e-12,1.80787e-38,0,-1.06638e-13,0,0,0,0,0,0,0,0,0,0,0,0,0,0,0,0,0,0,0,0,0,-0.261799,3.13984,-1.5,2.51931e-09,0,0,0,0,0
1690,-3.20974e-12,1.80799e-38,-1.55365e-06,-3.27649e-12,1.80787e-38,-3.40902e-12,-1.06638e-13,0,0,0,0,0,0,0,0,0,0,0,0,0,0,0,0,0,0,0,0,0,-0.261799,3.13991,-1.5,2.51931e-09,0,0,0,0,0
1700,-3.20974e-12,1.80799e-38,-1.55365e-06,-3.27649e-12,1.80787e-38,0,-1.06639e-13,0,0,0,0,0,0,0,0,0,0,0,0,0,0,0,0,0,0,0,0,0,-0.261799,3.13998,-1.5,2.51931e-09,0,0,0,0,0
1710,-3.20974e-12,1.80799e-38,-1.55365e-06,-3.27649e-12,1.80787e-38,-3.40902e-12,-1.06639e-13,0,0,0,0,0,0,0,0,0,0,0,0,0,0,0,0,0,0,0,0,0,-0.261799,3.14005,-1.5,2.51931e-09,0,0,0,0,0
1720,-3.20974e-12,1.80799e-38,-1.55365e-06,-3.27649e-12,1.80787e-38,0,-1.06639e-13,0,0,0,0,0,0,0,0,0,0,0,0,0,0,0,0,0,0,0,0,0,-0.261799,3.14011,-1.5,2.51931e-09,0,0,0,0,0
1730,-3.20974e-12,1.80799e-38,-1.55365e-06,-3.27649e-12,1.80787e-38,-3.40902e-12,-1.06639e-13,0,0,0,0,0,0,0,0,0,0,0,0,0,0,0,0,0,0,0,0,0,-0.261799,3.14017,-1.5,2.51931e-09,0,0,0,0,0
1740,-3.20974e-12,1.80799e-38,-1.55365e-06,-3.27649e-12,1.80787e-38,0,-1.0664e-13,0,0,0,0,0,0,0,0,0,0,0,0,0,0,0,0,0,0,0,0,0,-0.261799,3.14023,-1.5,2.51931e-09,0,0,0,0,0
1750,-3.20974e-12,1.80799e-38,-1.55365e-06,-3.27649e-12,1.80787e-38,-3.40902e-12,-1.0664e-13,0,0,0,0,0,0,0,0,0,0,0,0,0,0,0,0,0,0,0,0,0,-0.261799,3.14029,-1.5,2.51931e-09,0,0,0,0,0
1760,-3.20974e-12,1.80799e-38,-1.55365e-06,-3.27649e-12,1.80787e-38,0,-1.0664e-13,0,0,0,0,0,0,0,0,0,0,0,0,0,0,0,0,0,0,0,0,0,-0.261799,3.14035,-1.5,2.51931e-09,0,0,0,0,0
1770,-3.20974e-12,1.80799e-38,-1.55365e-06,-3.27649e-12,1.80787e-38,-3.40902e-12,-1.0664e-13,0,0,0,0,0,0,0,0,0,0,0,0,0,0,0,0,0,0,0,0,0,-0.261799,3.1404,-1.5,2.51931e-09,0,0,0,0,0
1780,-3.20974e-12,1.80799e-38,-1.55365e-06,-3.27649e-12,1.80787e-38,0,-1.06641e-13,0,0,0,0,0,0,0,0,0,0,0,0,0,0,0,0,0,0,0,0,0,-0.261799,3.14045,-1.5,2.51931e-09,0,0,0,0,0
1790,-3.20974e-12,1.80799e-38,-1.55365e-06,-3.27649e-12,1.80787e-38,-3.40902e-12,-1.06641e-13,0,0,0,0,0,0,0,0,0,0,0,0,0,0,0,0,0,0,0,0,0,-0.261799,3.1405,-1.5,2.51931e-09,0,0,0,0,0
1800,-3.20974e-12,1.80799e-38,-1.55365e-06,-3.27649e-12,1.80787e-38,0,-1.06641e-13,0,0,0,0,0,0,0,0,0,0,0,0,0,0,0,0,0,0,0,0,0,-0.261799,3.14054,-1.5,2.51931e-09,0,0,0,0,0
1810,-3.20974e-12,1.80799e-38,-1.55365e-06,-3.27649e-12,1.80787e-38,-3.40902e-12,-1.06642e-13,0,0,0,0,0,0,0,0,0,0,0,0,0,0,0,0,0,0,0,0,0,-0.261799,3.14059,-1.5,2.51931e-09,0,0,0,0,0
1820,-3.20974e-12,1.80799e-38,-1.55365e-06,-3.27649e-12,1.80787e-38,0,-1.06642e-13,0,0,0,0,0,0,0,0,0,0,0,0,0,0,0,0,0,0,0,0,0,-0.261799,3.14063,-1.5,2.51931e-09,0,0,0,0,0
1830,-3.20974e-12,1.80799e-38,-1.55365e-06,-3.27649e-12,1.80787e-38,-3.40902e-12,-1.06642e-13,0,0,0,0,0,0,0,0,0,0,0,0,0,0,0,0,0,0,0,0,0,-0.261799,3.14067,-1.5,2.51931e-09,0,0,0,0,0
1840,-3.20974e-12,1.80799e-38,-1.55365e-06,-3.27649e-12,1.80787e-38,0,-1.06642e-13,0,0,0,0,0,0,0,0,0,0,0,0,0,0,0,0,0,0,0,0,0,-0.261799,3.14071,-1.5,2.51931e-09,0,0,0,0,0
1850,-3.20974e-12,1.80799e-38,-1.55365e-06,-3.27649e-12,1.80787e-38,-3.40902e-12,-1.06643e-13,0,0,0,0,0,0,0,0,0,0,0,0,0,0,0,0,0,0,0,0,0,-0.261799,3.14074,-1.5,2.51931e-09,0,0,0,0,0
1860,-3.20974e-12,1.80799e-38,-1.55365e-06,-3.27649e-12,1.80787e-38,0,-1.06643e-13,0,0,0,0,0,0,0,0,0,0,0,0,0,0,0,0,0,0,0,0,0,-0.261799,3.14078,-1.5,2.51931e-09,0,0,0,0,0
1870,-3.20974e-12,1.80799e-38,-1.55365e-06,-3.27649e-12,1.80787e-38,-3.40902e-12,-1.06643e-13,0,0,0,0,0,0,0,0,0,0,0,0,0,0,0,0,0,0,0,0,0,-0.261799,3.14081,-1.5,2.51931e-09,0,0,0,0,0
1880,-3.20974e-12,1.80799e-38,-1.55365e-06,-3.27649e-12,1.80787e-38,0,-1.06643e-13,0,0,0,0,0,0,0,0,0,0,0,0,0,0,0,0,0,0,0,0,0,-0.261799,3.14085,-1.5,2.51931e-09,0,0,0,0,0
1890,-3.20974e-12,1.80799e-38,-1.55365e-06,-3.27649e-12,1.80787e-38,-3.40902e-12,-1.06644e-13,0,0,0,0,0,0,0,0,0,0,0,0,0,0,0,0,0,0,0,0,0,-0.261799,3.14087,-1.5,2.51931e-09,0,0,0,0,0
1900,-3.20974e-12,1.80799e-38,-1.55365e-06,-3.27649e-12,1.80787e-38,0,-1.06644e-13,0,0,0,0,0,0,0,0,0,0,0,0,0,0,0,0,0,0,0,0,0,-0.261799,3.1409,-1.5,2.51931e-09,0,0,0,0,0
1910,-3.20974e-12,1.80799e-38,-1.55365e-06,-3.27649e-12,1.80787e-38,-3.40902e-12,-1.06644e-13,0,0,0,0,0,0,0,0,0,0,0,0,0,0,0,0,0,0,0,0,0,-0.261799,3.14092,-1.5,2.51931e-09,0,0,0,0,0
1920,-3.20974e-12,1.80799e-38,-1.55365e-06,-3.27649e-12,1.80787e-38,0,-1.06645e-13,0,0,0,0,0,0,0,0,0,0,0,0,0,0,0,0,0,0,0,0,0,-0.261799,3.14094,-1.5,2.51931e-09,0,0,0,0,0
1930,-3.20974e-12,1.80799e-38,-1.55365e-06,-3.27649e-12,1.80787e-38,-3.40902e-12,-1.06645e-13,0,0,0,0,0,0,0,0,0,0,0,0,0,0,0,0,0,0,0,0,0,-0.261799,3.14097,-1.5,2.51931e-09,0,0,0,0,0
1940,-3.20974e-12,1.80799e-38,-1.55365e-06,-3.27649e-12,1.80787e-38,0,-1.06645e-13,0,0,0,0,0,0,0,0,0,0,0,0,0,0,0,0,0,0,0,0,0,-0.261799,3.141,-1.5,2.51931e-09,0,0,0,0,0
1950,-3.20974e-12,1.80799e-38,-1.55365e-06,-3.27649e-12,1.80787e-38,-3.40902e-12,-1.06645e-13,0,0,0,0,0,0,0,0,0,0,0,0,0,0,0,0,0,0,0,0,0,-0.261799,3.14102,-1.5,2.51931e-09,0,0,0,0,0
1960,-3.20974e-12,1.80799e-38,-1.55365e-06,-3.27649e-12,1.80787e-38,0,-1.06646e-13,0,0,0,0,0,0,0,0,0,0,0,0,0,0,0,0,0,0,0,0,0,-0.261799,3.14105,-1.5,2.51931e-09,0,0,0,0,0
1970,-3.20974e-12,1.80799e-38,-1.55365e-06,-3.27649e-12,1.80787e-38,-3.40902e-12,-1.06646e-13,0,0,0,0,0,0,0,0,0,0,0,0,0,0,0,0,0,0,0,0,0,-0.261799,3.14107,-1.5,2.51931e-09,0,0,0,0,0
1980,-3.20974e-12,1.80799e-38,-1.55365e-06,-3.27649e-12,1.80787e-38,0,-1.06646e-13,0,0,0,0,0,0,0,0,0,0,0,0,0,0,0,0,0,0,0,0,0,-0.261799,3.14109,-1.5,2.51931e-09,0,0,0,0,0
1990,-3.20974e-12,1.80799e-38,-1.55365e-06,-3.27649e-12,1.80787e-38,-3.40902e-12,-1.06646e-13,0,0,0,0,0,0,0,0,0,0,0,0,0,0,0,0,0,0,0,0,0,-0.261799,3.14111,-1.5,2.51931e-09,0,0,0,0,0
2000,-3.20974e-12,1.80799e-38,-1.55365e-06,-3.27649e-12,1.80787e-38,0,-1.06647e-13,0,0,0,0,0,0,0,0,0,0,0,0,0,0,0,0,0,0,0,0,0,-0.261799,3.14113,-1.5,2.51931e-09,0,0,0,0,0
2010,-3.20974e-12,1.80799e-38,-1.55365e-06,-3.27649e-12,1.80787e-38,-3.40902e-12,-1.06647e-13,0,0,0,0,0,0,0,0,0,0,0,0,0,0,0,0,0,0,0,0,0,-0.261799,3.14115,-1.5,2.51931e-09,0,0,0,0,0
2020,-3.20974e-12,1.80799e-38,-1.55365e-06,-3.27649e-12,1.80787e-38,0,-1.06647e-13,0,0,0,0,0,0,0,0,0,0,0,0,0,0,0,0,0,0,0,0,0,-0.261799,3.14117,-1.5,2.51931e-09,0,0,0,0,0
2030,-3.20974e-12,1.80799e-38,-1.55365e-06,-3.27649e-12,1.80787e-38,-3.40902e-12,-1.06647e-13,0,0,0,0,0,0,0,0,0,0,0,0,0,0,0,0,0,0,0,0,0,-0.261799,3.14119,-1.5,2.51931e-09,0,0,0,0,0
2040,-3.20974e-12,1.80799e-38,-1.55365e-06,-3.27649e-12,1.80787e-38,0,-1.06648e-13,0,0,0,0,0,0,0,0,0,0,0,0,0,0,0,0,0,0,0,0,0,-0.261799,3.1412,-1.5,2.51931e-09,0,0,0,0,0
2050,-3.20974e-12,1.80799e-38,-1.55365e-06,-3.27649e-12,1.80787e-38,-3.40902e-12,-1.06648e-13,0,0,0,0,0,0,0,0,0,0,0,0,0,0,0,0,0,0,0,0,0,-0.261799,3.14122,-1.5,2.51931e-09,0,0,0,0,0
2060,-3.20974e-12,1.80799e-38,-1.55365e-06,-3.27649e-12,1.80787e-38,0,-1.06648e-13,0,0,0,0,0,0,0,0,0,0,0,0,0,0,0,0,0,0,0,0,0,-0.261799,3.14124,-1.5,2.51931e-09,0,0,0,0,0
2070,-3.20974e-12,1.80799e-38,-1.55365e-06,-3.27649e-12,1.80787e-38,-3.40902e-12,-1.06649e-13,0,0,0,0,0,0,0,0,0,0,0,0,0,0,0,0,0,0,0,0,0,-0.261799,3.14125,-1.5,2.51931e-09,0,0,0,0,0
2080,-3.20974e-12,1.80799e-38,-1.55365e-06,-3.27649e-12,1.80787e-38,0,-1.06649e-13,0,0,0,0,0,0,0,0,0,0,0,0,0,0,0,0,0,0,0,0,0,-0.261799,3.14126,-1.5,2.51931e-09,0,0,0,0,0
2090,-3.20974e-12,1.80799e-38,-1.55365e-06,-3.27649e-12,1.80787e-38,-3.40902e-12,-1.06649e-13,0,0,0,0,0,0,0,0,0,0,0,0,0,0,0,0,0,0,0,0,0,-0.261799,3.14128,-1.5,2.51931e-09,0,0,0,0,0
2100,-3.20974e-12,1.80799e-38,-1.55365e-06,-3.27649e-12,1.80787e-38,0,-1.06649e-13,0,0,0,0,0,0,0,0,0,0,0,0,0,0,0,0,0,0,0,0,0,-0.261799,3.14129,-1.5,2.51931e-09,0,0,0,0,0
2110,-3.20974e-12,1.80799e-38,-1.55365e-06,-3.27649e-12,1.80787e-38,-3.40902e-12,-1.0665e-13,0,0,0,0,0,0,0,0,0,0,0,0,0,0,0,0,0,0,0,0,0,-0.261799,3.1413,-1.5,2.51931e-09,0,0,0,0,0
2120,-3.20974e-12,1.80799e-38,-1.55365e-06,-3.27649e-12,1.80787e-38,0,-1.0665e-13,0,0,0,0,0,0,0,0,0,0,0,0,0,0,0,0,0,0,0,0,0,-0.261799,3.14131,-1.5,2.51931e-09,0,0,0,0,0
2130,-3.20974e-12,1.80799e-38,-1.55365e-06,-3.27649e-12,1.80787e-38,-3.40902e-12,-1.0665e-13,0,0,0,0,0,0,0,0,0,0,0,0,0,0,0,0,0,0,0,0,0,-0.261799,3.14132,-1.5,2.51931e-09,0,0,0,0,0
2140,-3.20974e-12,1.80799e-38,-1.55365e-06,-3.27649e-12,1.80787e-38,0,-1.0665e-13,0,0,0,0,0,0,0,0,0,0,0,0,0,0,0,0,0,0,0,0,0,-0.261799,3.14133,-1.5,2.51931e-09,0,0,0,0,0
2150,-3.20974e-12,1.80799e-38,-1.55365e-06,-3.27649e-12,1.80787e-38,-3.40902e-12,-1.06651e-13,0,0,0,0,0,0,0,0,0,0,0,0,0,0,0,0,0,0,0,0,0,-0.261799,3.14134,-1.5,2.51931e-09,0,0,0,0,0
2160,-3.20974e-12,1.80799e-38,-1.55365e-06,-3.27649e-12,1.80787e-38,0,-1.06651e-13,0,0,0,0,0,0,0,0,0,0,0,0,0,0,0,0,0,0,0,0,0,-0.261799,3.14135,-1.5,2.51931e-09,0,0,0,0,0
2170,-3.20974e-12,1.80799e-38,-1.55365e-06,-3.27649e-12,1.80787e-38,-3.40902e-12,-1.06651e-13,0,0,0,0,0,0,0,0,0,0,0,0,0,0,0,0,0,0,0,0,0,-0.261799,3.14136,-1.5,2.51931e-09,0,0,0,0,0
2180,-3.20974e-12,1.80799e-38,-1.55365e-06,-3.27649e-12,1.80787e-38,0,-1.06652e-13,0,0,0,0,0,0,0,0,0,0,0,0,0,0,0,0,0,0,0,0,0,-0.261799,3.14137,-1.5,2.51931e-09,0,0,0,0,0
2190,-3.20974e-12,1.80799e-38,-1.55365e-06,-3.27649e-12,1.80787e-38,-3.40902e-12,-1.06652e-13,0,0,0,0,0,0,0,0,0,0,0,0,0,0,0,0,0,0,0,0,0,-0.261799,3.14138,-1.5,2.51931e-09,0,0,0,0,0
2200,-3.20974e-12,1.80799e-38,-1.55365e-06,-3.27649e-12,1.80787e-38,0,-1.06652e-13,0,0,0,0,0,0,0,0,0,0,0,0,0,0,0,0,0,0,0,0,0,-0.261799,3.14139,-1.5,2.51931e-09,0,0,0,0,0
2210,-3.20974e-12,1.80799e-38,-1.55365e-06,-3.27649e-12,1.80787e-38,-3.40902e-12,-1.06652e-13,0,0,0,0,0,0,0,0,0,0,0,0,0,0,0,0,0,0,0,0,0,-0.261799,3.1414,-1.5,2.51931e-09,0,0,0,0,0
2220,-3.20974e-12,1.80799e-38,-1.55365e-06,-3.27649e-12,1.80787e-38,0,-1.06653e-13,0,0,0,0,0,0,0,0,0,0,0,0,0,0,0,0,0,0,0,0,0,-0.261799,3.14142,-1.5,2.51931e-09,0,0,0,0,0
2230,-3.20974e-12,1.80799e-38,-1.55365e-06,-3.27649e-12,1.80787e-38,-3.40902e-12,-1.06653e-13,0,0,0,0,0,0,0,0,0,0,0,0,0,0,0,0,0,0,0,0,0,-0.261799,3.14143,-1.5,2.51931e-09,0,0,0,0,0
2240,-3.20974e-12,1.80799e-38,-1.55365e-06,-3.27649e-12,1.80787e-38,0,-1.06653e-13,0,0,0,0,0,0,0,0,0,0,0,0,0,0,0,0,0,0,0,0,0,-0.261799,3.14144,-1.5,2.51931e-09,0,0,0,0,0
2250,-3.20974e-12,1.80799e-38,-1.55365e-06,-3.27649e-12,1.80787e-38,-3.40902e-12,-1.06653e-13,0,0,0,0,0,0,0,0,0,0,0,0,0,0,0,0,0,0,0,0,0,-0.261799,3.14144,-1.5,2.51931e-09,0,0,0,0,0
2260,-3.20974e-12,1.80799e-38,-1.55365e-06,-3.27649e-12,1.80787e-38,0,-1.06654e-13,0,0,0,0,0,0,0,0,0,0,0,0,0,0,0,0,0,0,0,0,0,-0.261799,3.14145,-1.5,2.51931e-09,0,0,0,0,0
2270,-3.20974e-12,1.80799e-38,-1.55365e-06,-3.27649e-12,1.80787e-38,-3.40902e-12,-1.06654e-13,0,0,0,0,0,0,0,0,0,0,0,0,0,0,0,0,0,0,0,0,0,-0.261799,3.14145,-1.5,2.51931e-09,0,0,0,0,0
2280,-3.20974e-12,1.80799e-38,-1.55365e-06,-3.27649e-12,1.80787e-38,0,-1.06654e-13,0,0,0,0,0,0,0,0,0,0,0,0,0,0,0,0,0,0,0,0,0,-0.261799,3.14146,-1.5,2.51931e-09,0,0,0,0,0
2290,-3.20974e-12,1.80799e-38,-1.55365e-06,-3.27649e-12,1.80787e-38,-3.40902e-12,-1.06655e-13,0,0,0,0,0,0,0,0,0,0,0,0,0,0,0,0,0,0,0,0,0,-0.261799,3.14147,-1.5,2.51931e-09,0,0,0,0,0
2300,-3.20974e-12,1.80799e-38,-1.55365e-06,-3.27649e-12,1.80787e-38,0,-1.06655e-13,0,0,0,0,0,0,0,0,0,0,0,0,0,0,0,0,0,0,0,0,0,-0.261799,3.14147,-1.5,2.51931e-09,0,0,0,0,0
2310,-3.20974e-12,1.80799e-38,-1.55365e-06,-3.27649e-12,1.80787e-38,-3.40902e-12,-1.06655e-13,0,0,0,0,0,0,0,0,0,0,0,0,0,0,0,0,0,0,0,0,0,-0.261799,3.14148,-1.5,2.51931e-09,0,0,0,0,0
2320,-3.20974e-12,1.80799e-38,-1.55365e-06,-3.27649e-12,1.80787e-38,0,-1.06655e-13,0,0,0,0,0,0,0,0,0,0,0,0,0,0,0,0,0,0,0,0,0,-0.261799,3.14148,-1.5,2.51931e-09,0,0,0,0,0
2330,-3.20974e-12,1.80799e-38,-1.55365e-06,-3.27649e-12,1.80787e-38,-3.40902e-12,-1.06656e-13,0,0,0,0,0,0,0,0,0,0,0,0,0,0,0,0,0,0,0,0,0,-0.261799,3.14149,-1.5,2.51931e-09,0,0,0,0,0
2340,-3.20974e-12,1.80799e-38,-1.55365e-06,-3.27649e-12,1.80787e-38,0,-1.06656e-13,0,0,0,0,0,0,0,0,0,0,0,0,0,0,0,0,0,0,0,0,0,-0.261799,3.14149,-1.5,2.51931e-09,0,0,0,0,0
2350,-3.20974e-12,1.80799e-38,-1.55365e-06,-3.27649e-12,1.80787e-38,-3.40902e-12,-1.06656e-13,0,0,0,0,0,0,0,0,0,0,0,0,0,0,0,0,0,0,0,0,0,-0.261799,3.14149,-1.5,2.51931e-09,0,0,0,0,0
2360,-3.20974e-12,1.80799e-38,-1.55365e-06,-3.27649e-12,1.80787e-38,0,-1.06656e-13,0,0,0,0,0,0,0,0,0,0,0,0,0,0,0,0,0,0,0,0,0,-0.261799,3.1415,-1.5,2.51931e-09,0,0,0,0,0
2370,-3.20974e-12,1.80799e-38,-1.55365e-06,-3.27649e-12,1.80787e-38,-3.40902e-12,-1.06657e-13,0,0,0,0,0,0,0,0,0,0,0,0,0,0,0,0,0,0,0,0,0,-0.261799,3.1415,-1.5,2.51931e-09,0,0,0,0,0
2380,-3.20974e-12,1.80799e-38,-1.55365e-06,-3.27649e-12,1.80787e-38,0,-1.06657e-13,0,0,0,0,0,0,0,0,0,0,0,0,0,0,0,0,0,0,0,0,0,-0.261799,3.1415,-1.5,2.51931e-09,0,0,0,0,0
2390,-3.20974e-12,1.80799e-38,-1.55365e-06,-3.27649e-12,1.80787e-38,-3.40902e-12,-1.06657e-13,0,0,0,0,0,0,0,0,0,0,0,0,0,0,0,0,0,0,0,0,0,-0.261799,3.14151,-1.5,2.51931e-09,0,0,0,0,0
2400,-3.20974e-12,1.80799e-38,-1.55365e-06,-3.27649e-12,1.80787e-38,0,-1.06658e-13,0,0,0,0,0,0,0,0,0,0,0,0,0,0,0,0,0,0,0,0,0,-0.261799,3.14151,-1.5,2.51931e-09,0,0,0,0,0
2410,-3.20974e-12,1.80799e-38,-1.55365e-06,-3.27649e-12,1.80787e-38,-3.40902e-12,-1.06658e-13,0,0,0,0,0,0,0,0,0,0,0,0,0,0,0,0,0,0,0,0,0,-0.261799,3.14151,-1.5,2.51931e-09,0,0,0,0,0
2420,-3.20974e-12,1.80799e-38,-1.55365e-06,-3.27649e-12,1.80787e-38,0,-1.06658e-13,0,0,0,0,0,0,0,0,0,0,0,0,0,0,0,0,0,0,0,0,0,-0.261799,3.14152,-1.5,2.51931e-09,0,0,0,0,0
2430,-3.20974e-12,1.80799e-38,-1.55365e-06,-3.27649e-12,1.80787e-38,-3.40902e-12,-1.06658e-13,0,0,0,0,0,0,0,0,0,0,0,0,0,0,0,0,0,0,0,0,0,-0.261799,3.14152,-1.5,2.51931e-09,0,0,0,0,0
2440,-3.20974e-12,1.80799e-38,-1.55365e-06,-3.27649e-12,1.80787e-38,0,-1.06659e-13,0,0,0,0,0,0,0,0,0,0,0,0,0,0,0,0,0,0,0,0,0,-0.261799,3.14152,-1.5,2.51931e-09,0,0,0,0,0
2450,-3.20974e-12,1.80799e-38,-1.55365e-06,-3.27649e-12,1.80787e-38,-3.40902e-12,-1.06659e-13,0,0,0,0,0,0,0,0,0,0,0,0,0,0,0,0,0,0,0,0,0,-0.261799,3.14153,-1.5,2.51931e-09,0,0,0,0,0
2460,-3.20974e-12,1.80799e-38,-1.55365e-06,-3.27649e-12,1.80787e-38,0,-1.06659e-13,0,0,0,0,0,0,0,0,0,0,0,0,0,0,0,0,0,0,0,0,0,-0.261799,3.14153,-1.5,2.51931e-09,0,0,0,0,0
2470,-3.20974e-12,1.80799e-38,-1.55365e-06,-3.27649e-12,1.80787e-38,-3.40902e-12,-1.06659e-13,0,0,0,0,0,0,0,0,0,0,0,0,0,0,0,0,0,0,0,0,0,-0.261799,3.14153,-1.5,2.51931e-09,0,0,0,0,0
2480,-3.20974e-12,1.80799e-38,-1.55365e-06,-3.27649e-12,1.80787e-38,0,-1.0666e-13,0,0,0,0,0,0,0,0,0,0,0,0,0,0,0,0,0,0,0,0,0,-0.261799,3.14153,-1.5,2.51931e-09,0,0,0,0,0
2490,-3.20974e-12,1.80799e-38,-1.55365e-06,-3.27649e-12,1.80787e-38,-3.40902e-12,-1.0666e-13,0,0,0,0,0,0,0,0,0,0,0,0,0,0,0,0,0,0,0,0,0,-0.261799,3.14154,-1.5,2.51931e-09,0,0,0,0,0
2500,-3.20974e-12,1.80799e-38,-1.55365e-06,-3.27649e-12,1.80787e-38,0,-1.0666e-13,0,0,0,0,0,0,0,0,0,0,0,0,0,0,0,0,0,0,0,0,0,-0.261799,3.14154,-1.5,2.51931e-09,0,0,0,0,0
2510,-3.20974e-12,1.80799e-38,-1.55365e-06,-3.27649e-12,1.80787e-38,-3.40902e-12,-1.06661e-13,0,0,0,0,0,0,0,0,0,0,0,0,0,0,0,0,0,0,0,0,0,-0.261799,3.14154,-1.5,2.51931e-09,0,0,0,0,0
2520,-3.20974e-12,1.80799e-38,-1.55365e-06,-3.27649e-12,1.80787e-38,0,-1.06661e-13,0,0,0,0,0,0,0,0,0,0,0,0,0,0,0,0,0,0,0,0,0,-0.261799,3.14154,-1.5,2.51931e-09,0,0,0,0,0
2530,-3.20974e-12,1.80799e-38,-1.55365e-06,-3.27649e-12,1.80787e-38,-3.40902e-12,-1.06661e-13,0,0,0,0,0,0,0,0,0,0,0,0,0,0,0,0,0,0,0,0,0,-0.261799,3.14154,-1.5,2.51931e-09,0,0,0,0,0
2540,-3.20974e-12,1.80799e-38,-1.55365e-06,-3.27649e-12,1.80787e-38,0,-1.06661e-13,0,0,0,0,0,0,0,0,0,0,0,0,0,0,0,0,0,0,0,0,0,-0.261799,3.14155,-1.5,2.51931e-09,0,0,0,0,0
2550,-3.20974e-12,1.80799e-38,-1.55365e-06,-3.27649e-12,1.80787e-38,-3.40902e-12,-1.06662e-13,0,0,0,0,0,0,0,0,0,0,0,0,0,0,0,0,0,0,0,0,0,-0.261799,3.14155,-1.5,2.51931e-09,0,0,0,0,0
2560,-3.20974e-12,1.80799e-38,-1.55365e-06,-3.27649e-12,1.80787e-38,0,-1.06662e-13,0,0,0,0,0,0,0,0,0,0,0,0,0,0,0,0,0,0,0,0,0,-0.261799,3.14155,-1.5,2.51931e-09,0,0,0,0,0
2570,-3.20974e-12,1.80799e-38,-1.55365e-06,-3.27649e-12,1.80787e-38,-3.40902e-12,-1.06662e-13,0,0,0,0,0,0,0,0,0,0,0,0,0,0,0,0,0,0,0,0,0,-0.261799,3.14155,-1.5,2.51931e-09,0,0,0,0,0
2580,-3.20974e-12,1.80799e-38,-1.55365e-06,-3.27649e-12,1.80787e-38,0,-1.06662e-13,0,0,0,0,0,0,0,0,0,0,0,0,0,0,0,0,0,0,0,0,0,-0.261799,3.14155,-1.5,2.51931e-09,0,0,0,0,0
2590,-3.20974e-12,1.80799e-38,-1.55365e-06,-3.27649e-12,1.80787e-38,-3.40902e-12,-1.06663e-13,0,0,0,0,0,0,0,0,0,0,0,0,0,0,0,0,0,0,0,0,0,-0.261799,3.14156,-1.5,2.51931e-09,0,0,0,0,0
2600,-3.20974e-12,1.80799e-38,-1.55365e-06,-3.27649e-12,1.80787e-38,0,-1.06663e-13,0,0,0,0,0,0,0,0,0,0,0,0,0,0,0,0,0,0,0,0,0,-0.261799,3.14156,-1.5,2.51931e-09,0,0,0,0,0
2610,-3.20974e-12,1.80799e-38,-1.55365e-06,-3.27649e-12,1.80787e-38,-3.40902e-12,-1.06663e-13,0,0,0,0,0,0,0,0,0,0,0,0,0,0,0,0,0,0,0,0,0,-0.261799,3.14156,-1.5,2.51931e-09,0,0,0,0,0
2620,-3.20974e-12,1.80799e-38,-1.55365e-06,-3.27649e-12,1.80787e-38,0,-1.06663e-13,0,0,0,0,0,0,0,0,0,0,0,0,0,0,0,0,0,0,0,0,0,-0.261799,3.14156,-1.5,2.51931e-09,0,0,0,0,0
2630,-3.20974e-12,1.80799e-38,-1.55365e-06,-3.27649e-12,1.80787e-38,-3.40902e-12,-1.06664e-13,0,0,0,0,0,0,0,0,0,0,0,0,0,0,0,0,0,0,0,0,0,-0.261799,3.14156,-1.5,2.51931e-09,0,0,0,0,0
2640,-3.20974e-12,1.80799e-38,-1.55365e-06,-3.27649e-12,1.80787e-38,0,-1.06664e-13,0,0,0,0,0,0,0,0,0,0,0,0,0,0,0,0,0,0,0,0,0,-0.261799,3.14156,-1.5,2.51931e-09,0,0,0,0,0
2650,-3.20974e-12,1.80799e-38,-1.55365e-06,-3.27649e-12,1.80787e-38,-3.40902e-12,-1.06664e-13,0,0,0,0,0,0,0,0,0,0,0,0,0,0,0,0,0,0,0,0,0,-0.261799,3.14156,-1.5,2.51931e-09,0,0,0,0,0
2660,-3.20974e-12,1.80799e-38,-1.55365e-06,-3.27649e-12,1.80787e-38,0,-1.06665e-13,0,0,0,0,0,0,0,0,0,0,0,0,0,0,0,0,0,0,0,0,0,-0.261799,3.14156,-1.5,2.51931e-09,0,0,0,0,0
2670,-3.20974e-12,1.80799e-38,-1.55365e-06,-3.27649e-12,1.80787e-38,-3.40902e-12,-1.06665e-13,0,0,0,0,0,0,0,0,0,0,0,0,0,0,0,0,0,0,0,0,0,-0.261799,3.14156,-1.5,2.51931e-09,0,0,0,0,0
2680,-3.20974e-12,1.80799e-38,-1.55365e-06,-3.27649e-12,1.80787e-38,0,-1.06665e-13,0,0,0,0,0,0,0,0,0,0,0,0,0,0,0,0,0,0,0,0,0,-0.261799,3.14157,-1.5,2.51931e-09,0,0,0,0,0
2690,-3.20974e-12,1.80799e-38,-1.55365e-06,-3.27649e-12,1.80787e-38,-3.40902e-12,-1.06665e-13,0,0,0,0,0,0,0,0,0,0,0,0,0,0,0,0,0,0,0,0,0,-0.261799,3.14157,-1.5,2.51931e-09,0,0,0,0,0
2700,-3.20974e-12,1.80799e-38,-1.55365e-06,-3.27649e-12,1.80787e-38,0,-1.06666e-13,0,0,0,0,0,0,0,0,0,0,0,0,0,0,0,0,0,0,0,0,0,-0.261799,3.14157,-1.5,2.51931e-09,0,0,0,0,0
2710,-3.20974e-12,1.80799e-38,-1.55365e-06,-3.27649e-12,1.80787e-38,-3.40902e-12,-1.06666e-13,0,0,0,0,0,0,0,0,0,0,0,0,0,0,0,0,0,0,0,0,0,-0.261799,3.14157,-1.5,2.51931e-09,0,0,0,0,0
2720,-3.20974e-12,1.80799e-38,-1.55365e-06,-3.27649e-12,1.80787e-38,0,-1.06666e-13,0,0,0,0,0,0,0,0,0,0,0,0,0,0,0,0,0,0,0,0,0,-0.261799,3.14157,-1.5,2.51931e-09,0,0,0,0,0
2730,-3.20974e-12,1.80799e-38,-1.55365e-06,-3.27649e-12,1.80787e-38,-3.40902e-12,-1.06666e-13,0,0,0,0,0,0,0,0,0,0,0,0,0,0,0,0,0,0,0,0,0,-0.261799,3.14157,-1.5,2.51931e-09,0,0,0,0,0
2740,-3.20974e-12,1.80799e-38,-1.55365e-06,-3.27649e-12,1.80787e-38,0,-1.06667e-13,0,0,0,0,0,0,0,0,0,0,0,0,0,0,0,0,0,0,0,0,0,-0.261799,3.14157,-1.5,2.51931e-09,0,0,0,0,0
2750,-3.20974e-12,1.80799e-38,-1.55365e-06,-3.27649e-12,1.80787e-38,-3.40902e-12,-1.06667e-13,0,0,0,0,0,0,0,0,0,0,0,0,0,0,0,0,0,0,0,0,0,-0.261799,3.14157,-1.5,2.51931e-09,0,0,0,0,0
2760,-3.20974e-12,1.80799e-38,-1.55365e-06,-3.27649e-12,1.80787e-38,0,-1.06667e-13,0,0,0,0,0,0,0,0,0,0,0,0,0,0,0,0,0,0,0,0,0,-0.261799,3.14157,-1.5,2.51931e-09,0,0,0,0,0
2770,-3.20974e-12,1.80799e-38,-1.55365e-06,-3.27649e-12,1.80787e-38,-3.40902e-12,-1.06668e-13,0,0,0,0,0,0,0,0,0,0,0,0,0,0,0,0,0,0,0,0,0,-0.261799,3.14157,-1.5,2.51931e-09,0,0,0,0,0
2780,-3.20974e-12,1.80799e-38,-1.55365e-06,-3.27649e-12,1.80787e-38,0,-1.06668e-13,0,0,0,0,0,0,0,0,0,0,0,0,0,0,0,0,0,0,0,0,0,-0.261799,3.14157,-1.5,2.51931e-09,0,0,0,0,0
2790,-3.20974e-12,1.80799e-38,-1.55365e-06,-3.27649e-12,1.80787e-38,-3.40902e-12,-1.06668e-13,0,0,0,0,0,0,0,0,0,0,0,0,0,0,0,0,0,0,0,0,0,-0.261799,3.14157,-1.5,2.51931e-09,0,0,0,0,0
2800,-3.20974e-12,1.80799e-38,-1.55365e-06,-3.27649e-12,1.80787e-38,0,-1.06668e-13,0,0,0,0,0,0,0,0,0,0,0,0,0,0,0,0,0,0,0,0,0,-0.261799,3.14157,-1.5,2.51931e-09,0,0,0,0,0
2810,-3.20974e-12,1.80799e-38,-1.55365e-06,-3.27649e-12,1.80787e-38,-3.40902e-12,-1.06669e-13,0,0,0,0,0,0,0,0,0,0,0,0,0,0,0,0,0,0,0,0,0,-0.261799,3.14157,-1.5,2.51931e-09,0,0,0,0,0
2820,-3.20974e-12,1.80799e-38,-1.55365e-06,-3.27649e-12,1.80787e-38,0,-1.06669e-13,0,0,0,0,0,0,0,0,0,0,0,0,0,0,0,0,0,0,0,0,0,-0.261799,3.14157,-1.5,2.51931e-09,0,0,0,0,0
2830,-3.20974e-12,1.80799e-38,-1.55365e-06,-3.27649e-12,1.80787e-38,-3.40902e-12,-1.06669e-13,0,0,0,0,0,0,0,0,0,0,0,0,0,0,0,0,0,0,0,0,0,-0.261799,3.14157,-1.5,2.51931e-09,0,0,0,0,0
2840,-3.20974e-12,1.80799e-38,-1.55365e-06,-3.27649e-12,1.80787e-38,0,-1.06669e-13,0,0,0,0,0,0,0,0,0,0,0,0,0,0,0,0,0,0,0,0,0,-0.261799,3.14158,-1.5,2.51931e-09,0,0,0,0,0
2850,-3.20974e-12,1.80799e-38,-1.55365e-06,-3.27649e-12,1.80787e-38,-3.40902e-12,-1.0667e-13,0,0,0,0,0,0,0,0,0,0,0,0,0,0,0,0,0,0,0,0,0,-0.261799,3.14158,-1.5,2.51931e-09,0,0,0,0,0
2860,-3.20974e-12,1.80799e-38,-1.55365e-06,-3.27649e-12,1.80787e-38,0,-1.0667e-13,0,0,0,0,0,0,0,0,0,0,0,0,0,0,0,0,0,0,0,0,0,-0.261799,3.14158,-1.5,2.51931e-09,0,0,0,0,0
2870,-3.20974e-12,1.80799e-38,-1.55365e-06,-3.27649e-12,1.80787e-38,-3.40902e-12,-1.0667e-13,0,0,0,0,0,0,0,0,0,0,0,0,0,0,0,0,0,0,0,0,0,-0.261799,3.14158,-1.5,2.51931e-09,0,0,0,0,0
2880,-3.20974e-12,1.80799e-38,-1.55365e-06,-3.27649e-12,1.80787e-38,0,-1.06671e-13,0,0,0,0,0,0,0,0,0,0,0,0,0,0,0,0,0,0,0,0,0,-0.261799,3.14158,-1.5,2.51931e-09,0,0,0,0,0
2890,-3.20974e-12,1.80799e-38,-1.55365e-06,-3.27649e-12,1.80787e-38,-3.40902e-12,-1.06671e-13,0,0,0,0,0,0,0,0,0,0,0,0,0,0,0,0,0,0,0,0,0,-0.261799,3.14158,-1.5,2.51931e-09,0,0,0,0,0
2900,-3.20974e-12,1.80799e-38,-1.55365e-06,-3.27649e-12,1.80787e-38,0,-1.06671e-13,0,0,0,0,0,0,0,0,0,0,0,0,0,0,0,0,0,0,0,0,0,-0.261799,3.14158,-1.5,2.51931e-09,0,0,0,0,0
2910,-3.20974e-12,1.80799e-38,-1.55365e-06,-3.27649e-12,1.80787e-38,-3.40902e-12,-1.06671e-13,0,0,0,0,0,0,0,0,0,0,0,0,0,0,0,0,0,0,0,0,0,-0.261799,3.14158,-1.5,2.51931e-09,0,0,0,0,0
2920,-3.20974e-12,1.80799e-38,-1.55365e-06,-3.27649e-12,1.80787e-38,0,-1.06672e-13,0,0,0,0,0,0,0,0,0,0,0,0,0,0,0,0,0,0,0,0,0,-0.261799,3.14158,-1.5,2.51931e-09,0,0,0,0,0
2930,-3.20974e-12,1.80799e-38,-1.55365e-06,-3.27649e-12,1.80787e-38,-3.40902e-12,-1.06672e-13,0,0,0,0,0,0,0,0,0,0,0,0,0,0,0,0,0,0,0,0,0,-0.261799,3.14158,-1.5,2.51931e-09,0,0,0,0,0
2940,-3.20974e-12,1.80799e-38,-1.55365e-06,-3.27649e-12,1.80787e-38,0,-1.06672e-13,0,0,0,0,0,0,0,0,0,0,0,0,0,0,0,0,0,0,0,0,0,-0.261799,3.14158,-1.5,2.51931e-09,0,0,0,0,0
2950,-3.20974e-12,1.80799e-38,-1.55365e-06,-3.27649e-12,1.80787e-38,-3.40902e-12,-1.06672e-13,0,0,0,0,0,0,0,0,0,0,0,0,0,0,0,0,0,0,0,0,0,-0.261799,3.14158,-1.5,2.51931e-09,0,0,0,0,0
2960,-3.20974e-12,1.80799e-38,-1.55365e-06,-3.27649e-12,1.80787e-38,0,-1.06673e-13,0,0,0,0,0,0,0,0,0,0,0,0,0,0,0,0,0,0,0,0,0,-0.261799,3.14158,-1.5,2.51931e-09,0,0,0,0,0
2970,-3.20974e-12,1.80799e-38,-1.55365e-06,-3.27649e-12,1.80787e-38,-3.40902e-12,-1.06673e-13,0,0,0,0,0,0,0,0,0,0,0,0,0,0,0,0,0,0,0,0,0,-0.261799,3.14158,-1.5,2.51931e-09,0,0,0,0,0
2980,-3.20974e-12,1.80799e-38,-1.55365e-06,-3.27649e-12,1.80787e-38,0,-1.06673e-13,0,0,0,0,0,0,0,0,0,0,0,0,0,0,0,0,0,0,0,0,0,-0.261799,3.14158,-1.5,2.51931e-09,0,0,0,0,0
2990,-3.20974e-12,1.80799e-38,-1.55365e-06,-3.27649e-12,1.80787e-38,-3.40902e-12,-1.06674e-13,0,0,0,0,0,0,0,0,0,0,0,0,0,0,0,0,0,0,0,0,0,-0.261799,3.14158,-1.5,2.51931e-09,0,0,0,0,0
3000,-3.20974e-12,1.80799e-38,-1.55365e-06,-3.27649e-12,1.80787e-38,0,-1.06674e-13,0,0,0,0,0,0,0,0,0,0,0,0,0,0,0,0,0,0,0,0,0,-0.261799,3.14158,-1.5,2.51931e-09,0,0,0,0,0
3010,-3.20974e-12,1.80799e-38,-1.55365e-06,-3.27649e-12,1.80787e-38,-3.40902e-12,-1.06674e-13,0,0,0,0,0,0,0,0,0,0,0,0,0,0,0,0,0,0,0,0,0,-0.261799,3.14158,-1.5,2.51931e-09,0,0,0,0,0
3020,-3.20974e-12,1.80799e-38,-1.55365e-06,-3.27649e-12,1.80787e-38,0,-1.06674e-13,0,0,0,0,0,0,0,0,0,0,0,0,0,0,0,0,0,0,0,0,0,-0.261799,3.14158,-1.5,2.51931e-09,0,0,0,0,0
3030,-3.20974e-12,1.80799e-38,-1.55365e-06,-3.27649e-12,1.80787e-38,-3.40902e-12,-1.06675e-13,0,0,0,0,0,0,0,0,0,0,0,0,0,0,0,0,0,0,0,0,0,-0.261799,3.14158,-1.5,2.51931e-09,0,0,0,0,0
3040,-3.20974e-12,1.80799e-38,-1.55365e-06,-3.27649e-12,1.80787e-38,0,-1.06675e-13,0,0,0,0,0,0,0,0,0,0,0,0,0,0,0,0,0,0,0,0,0,-0.261799,3.14158,-1.5,2.51931e-09,0,0,0,0,0
3050,-3.20974e-12,1.80799e-38,-1.55365e-06,-3.27649e-12,1.80787e-38,-3.40902e-12,-1.06675e-13,0,0,0,0,0,0,0,0,0,0,0,0,0,0,0,0,0,0,0,0,0,-0.261799,3.14158,-1.5,2.51931e-09,0,0,0,0,0
3060,-3.20974e-12,1.80799e-38,-1.55365e-06,-3.27649e-12,1.80787e-38,0,-1.06675e-13,0,0,0,0,0,0,0,0,0,0,0,0,0,0,0,0,0,0,0,0,0,-0.261799,3.14158,-1.5,2.51931e-09,0,0,0,0,0
3070,-3.20974e-12,1.80799e-38,-1.55365e-06,-3.27649e-12,1.80787e-38,-3.40902e-12,-1.06628e-13,0,0,0,0,0,0,0,0,0,0,0,0,0,0,0,0,0,0,0,0,0,-0.261799,3.14158,-1.5,2.51931e-09,0,0,0,0,0
3080,-3.20974e-12,1.80799e-38,-1.55365e-06,-3.27649e-12,1.80787e-38,0,-1.06628e-13,0,0,0,0,0,0,0,0,0,0,0,0,0,0,0,0,0,0,0,0,0,-0.261799,3.14158,-1.5,2.51931e-09,0,0,0,0,0
3090,-3.20974e-12,1.80799e-38,-1.55365e-06,-3.27649e-12,1.80787e-38,-3.40902e-12,-1.06629e-13,0,0,0,0,0,0,0,0,0,0,0,0,0,0,0,0,0,0,0,0,0,-0.261799,3.14158,-1.5,2.51931e-09,0,0,0,0,0
3100,-3.20974e-12,1.80799e-38,-1.55365e-06,-3.27649e-12,1.80787e-38,0,-1.06629e-13,0,0,0,0,0,0,0,0,0,0,0,0,0,0,0,0,0,0,0,0,0,-0.261799,3.14158,-1.5,2.51931e-09,0,0,0,0,0
3110,-3.20974e-12,1.80799e-38,-1.55365e-06,-3.27649e-12,1.80787e-38,-3.40902e-12,-1.06629e-13,0,0,0,0,0,0,0,0,0,0,0,0,0,0,0,0,0,0,0,0,0,-0.261799,3.14158,-1.5,2.51931e-09,0,0,0,0,0
3120,-3.20974e-12,1.80799e-38,-1.55365e-06,-3.27649e-12,1.80787e-38,0,-1.06629e-13,0,0,0,0,0,0,0,0,0,0,0,0,0,0,0,0,0,0,0,0,0,-0.261799,3.14158,-1.5,2.51931e-09,0,0,0,0,0
3130,-3.20974e-12,1.80799e-38,-1.55365e-06,-3.27649e-12,1.80787e-38,-3.40902e-12,-1.0663e-13,0,0,0,0,0,0,0,0,0,0,0,0,0,0,0,0,0,0,0,0,0,-0.261799,3.14158,-1.5,2.51931e-09,0,0,0,0,0
3140,-3.20974e-12,1.80799e-38,-1.55365e-06,-3.27649e-12,1.80787e-38,0,-1.0663e-13,0,0,0,0,0,0,0,0,0,0,0,0,0,0,0,0,0,0,0,0,0,-0.261799,3.14158,-1.5,2.51931e-09,0,0,0,0,0
3150,-3.20974e-12,1.80799e-38,-1.55365e-06,-3.27649e-12,1.80787e-38,-3.40902e-12,-1.0663e-13,0,0,0,0,0,0,0,0,0,0,0,0,0,0,0,0,0,0,0,0,0,-0.261799,3.14158,-1.5,2.51931e-09,0,0,0,0,0
3160,-3.20974e-12,1.80799e-38,-1.55365e-06,-3.27649e-12,1.80787e-38,0,-1.06631e-13,0,0,0,0,0,0,0,0,0,0,0,0,0,0,0,0,0,0,0,0,0,-0.261799,3.14158,-1.5,2.51931e-09,0,0,0,0,0
3170,-3.20974e-12,1.80799e-38,-1.55365e-06,-3.27649e-12,1.80787e-38,-3.40902e-12,-1.06631e-13,0,0,0,0,0,0,0,0,0,0,0,0,0,0,0,0,0,0,0,0,0,-0.261799,3.14158,-1.5,2.51931e-09,0,0,0,0,0
3180,-3.20974e-12,1.80799e-38,-1.55365e-06,-3.27649e-12,1.80787e-38,0,-1.06631e-13,0,0,0,0,0,0,0,0,0,0,0,0,0,0,0,0,0,0,0,0,0,-0.261799,3.14158,-1.5,2.51931e-09,0,0,0,0,0
3190,-3.20974e-12,1.80799e-38,-1.55365e-06,-3.27649e-12,1.80787e-38,-3.40902e-12,-1.06631e-13,0,0,0,0,0,0,0,0,0,0,0,0,0,0,0,0,0,0,0,0,0,-0.261799,3.14158,-1.5,2.51931e-09,0,0,0,0,0
3200,-3.20974e-12,1.80799e-38,-1.55365e-06,-3.27649e-12,1.80787e-38,0,-1.06676e-13,0,0,0,0,0,0,0,0,0,0,0,0,0,0,0,0,0,0,0,0,0,-0.261799,3.14158,-1.5,2.51931e-09,0,0,0,0,0
3210,-3.20974e-12,1.80799e-38,-1.55365e-06,-3.27649e-12,1.80787e-38,-3.40902e-12,-1.06676e-13,0,0,0,0,0,0,0,0,0,0,0,0,0,0,0,0,0,0,0,0,0,-0.261799,3.14158,-1.5,2.51931e-09,0,0,0,0,0
3220,-3.20974e-12,1.80799e-38,-1.55365e-06,-3.27649e-12,1.80787e-38,0,-1.06676e-13,0,0,0,0,0,0,0,0,0,0,0,0,0,0,0,0,0,0,0,0,0,-0.261799,3.14159,-1.5,2.51931e-09,0,0,0,0,0
3230,-3.20974e-12,1.80799e-38,-1.55365e-06,-3.27649e-12,1.80787e-38,-3.40902e-12,-1.06676e-13,0,0,0,0,0,0,0,0,0,0,0,0,0,0,0,0,0,0,0,0,0,-0.261799,3.14159,-1.5,2.51931e-09,0,0,0,0,0
3240,-3.20974e-12,1.80799e-38,-1.55365e-06,-3.27649e-12,1.80787e-38,0,-1.06677e-13,0,0,0,0,0,0,0,0,0,0,0,0,0,0,0,0,0,0,0,0,0,-0.261799,3.14159,-1.5,2.51931e-09,0,0,0,0,0
3250,-3.20974e-12,1.80799e-38,-1.55365e-06,-3.27649e-12,1.80787e-38,-3.40902e-12,-1.06677e-13,0,0,0,0,0,0,0,0,0,0,0,0,0,0,0,0,0,0,0,0,0,-0.261799,3.14159,-1.5,2.51931e-09,0,0,0,0,0
3260,-3.20974e-12,1.80799e-38,-1.55365e-06,-3.27649e-12,1.80787e-38,0,-1.06677e-13,0,0,0,0,0,0,0,0,0,0,0,0,0,0,0,0,0,0,0,0,0,-0.261799,3.14159,-1.5,2.51931e-09,0,0,0,0,0
3270,-3.20974e-12,1.80799e-38,-1.55365e-06,-3.27649e-12,1.80787e-38,-3.40902e-12,-1.06678e-13,0,0,0,0,0,0,0,0,0,0,0,0,0,0,0,0,0,0,0,0,0,-0.261799,3.14159,-1.5,2.51931e-09,0,0,0,0,0
3280,-3.20974e-12,1.80799e-38,-1.55365e-06,-3.27649e-12,1.80787e-38,0,-1.06678e-13,0,0,0,0,0,0,0,0,0,0,0,0,0,0,0,0,0,0,0,0,0,-0.261799,3.14159,-1.5,2.51931e-09,0,0,0,0,0
3290,-3.20974e-12,1.80799e-38,-1.55365e-06,-3.27649e-12,1.80787e-38,-3.40902e-12,-1.06678e-13,0,0,0,0,0,0,0,0,0,0,0,0,0,0,0,0,0,0,0,0,0,-0.261799,3.14159,-1.5,2.51931e-09,0,0,0,0,0
3300,-3.20974e-12,1.80799e-38,-1.55365e-06,-3.27649e-12,1.80787e-38,0,-1.06678e-13,0,0,0,0,0,0,0,0,0,0,0,0,0,0,0,0,0,0,0,0,0,-0.261799,3.14159,-1.5,2.51931e-09,0,0,0,0,0
3310,-3.20974e-12,1.80799e-38,-1.55365e-06,-3.27649e-12,1.80787e-38,-3.40902e-12,-1.06679e-13,0,0,0,0,0,0,0,0,0,0,0,0,0,0,0,0,0,0,0,0,0,-0.261799,3.14159,-1.5,2.51931e-09,0,0,0,0,0
3320,-3.20974e-12,1.80799e-38,-1.55365e-06,-3.27649e-12,1.80787e-38,0,-1.06679e-13,0,0,0,0,0,0,0,0,0,0,0,0,0,0,0,0,0,0,0,0,0,-0.261799,3.14159,-1.5,2.51931e-09,0,0,0,0,0
3330,-3.20974e-12,1.80799e-38,-1.55365e-06,-3.27649e-12,1.80787e-38,-3.40902e-12,-1.06679e-13,0,0,0,0,0,0,0,0,0,0,0,0,0,0,0,0,0,0,0,0,0,-0.261799,3.14159,-1.5,2.51931e-09,0,0,0,0,0
3340,-3.20974e-12,1.80799e-38,-1.55365e-06,-3.27649e-12,1.80787e-38,0,-1.06679e-13,0,0,0,0,0,0,0,0,0,0,0,0,0,0,0,0,0,0,0,0,0,-0.261799,3.14159,-1.5,2.51931e-09,0,0,0,0,0
3350,-3.20974e-12,1.80799e-38,-1.55365e-06,-3.27649e-12,1.80787e-38,-3.40902e-12,-1.0668e-13,0,0,0,0,0,0,0,0,0,0,0,0,0,0,0,0,0,0,0,0,0,-0.261799,3.14159,-1.5,2.51931e-09,0,0,0,0,0
3360,-3.20974e-12,1.80799e-38,-1.55365e-06,-3.27649e-12,1.80787e-38,0,-1.0668e-13,0,0,0,0,0,0,0,0,0,0,0,0,0,0,0,0,0,0,0,0,0,-0.261799,3.14159,-1.5,2.51931e-09,0,0,0,0,0
3370,-3.20974e-12,1.80799e-38,-1.55365e-06,-3.27649e-12,1.80787e-38,-3.40902e-12,-1.0668e-13,0,0,0,0,0,0,0,0,0,0,0,0,0,0,0,0,0,0,0,0,0,-0.261799,3.14159,-1.5,2.51931e-09,0,0,0,0,0
3380,-3.20974e-12,1.80799e-38,-1.55365e-06,-3.27649e-12,1.80787e-38,0,-1.06681e-13,0,0,0,0,0,0,0,0,0,0,0,0,0,0,0,0,0,0,0,0,0,-0.261799,3.14159,-1.5,2.51931e-09,0,0,0,0,0
3390,-3.20974e-12,1.80799e-38,-1.55365e-06,-3.27649e-12,1.80787e-38,-3.40902e-12,-1.06681e-13,0,0,0,0,0,0,0,0,0,0,0,0,0,0,0,0,0,0,0,0,0,-0.261799,3.14159,-1.5,2.51931e-09,0,0,0,0,0
3400,-3.20974e-12,1.80799e-38,-1.55365e-06,-3.27649e-12,1.80787e-38,0,-1.06681e-13,0,0,0,0,0,0,0,0,0,0,0,0,0,0,0,0,0,0,0,0,0,-0.261799,3.14159,-1.5,2.51931e-09,0,0,0,0,0
3410,-3.20974e-12,1.80799e-38,-1.55365e-06,-3.27649e-12,1.80787e-38,-3.40902e-12,-1.06681e-13,0,0,0,0,0,0,0,0,0,0,0,0,0,0,0,0,0,0,0,0,0,-0.261799,3.14159,-1.5,2.51931e-09,0,0,0,0,0
