timestamp,A_x,A_y,A_z,P,Q,R,Phi,Theta,Psi,poseX,poseY,poseZ,state_X,state_Y,state_Z,state_VzB,state_Bx,state_By,state_Bz,p1_x,p1_y,p2_x,p2_y,p3_x,p3_y,p4_x,p4_y,roll,pitch,yaw,alt,targetHeading,highLevelState,lowLevelState,gateNumber,filtered_x,filtered_y,x_OT,y_OT,vx_OT,vy_OT,filtered_vx,filtered_vygateArearansac_corr_x,ransac_corr_y,ransac_corr_vx,ransac_corr_vy,detectionTimeStamppTermX,dTermX,pTermY,dTermY,vxcmd,vycmd
5826,0,0,0,0,0,0,0,0,0,0,0,0,0,0,0,0,0,0,0,0,0,0,0,0,0,0,0,0.005102,-0.0348889,0,-1.5,6.40901e-10,0,0,0,0,0,0,0,0,0,0,0,1.9603e-19,0,0,0,0,0,0,0,0,0,0,0
6385,-3.33315e-12,1.79765e-38,-1.61046e-06,-3.40794e-12,1.79753e-38,0,0,0,0,0,0,0,0,0,0,0,0,0,0,0,0,0,0,0,0,0,0,0.005102,-0.0348889,0,-1.5,6.40901e-10,0,0,0,0,0,0,0,0,0,0,0,1.9603e-19,0,0,0,0,0,0,0,0,0,0,0
6405,-3.33315e-12,1.79765e-38,-1.61046e-06,-3.40794e-12,1.79753e-38,0,0,0,0,0,0,0,0,0,0,0,0,0,0,0,0,0,0,0,0,0,0,0.005102,-0.0348889,0,-1.5,6.40901e-10,0,0,0,0,0,0,0,0,0,0,0,1.9603e-19,0,0,0,0,0,0,0,0,0,0,0
6424,-3.33315e-12,1.79765e-38,-1.61046e-06,-3.40794e-12,1.79753e-38,0,0,0,0,0,0,0,0,0,0,0,0,0,0,0,0,0,0,0,0,0,0,0.005102,-0.0348889,0,-1.5,6.40901e-10,0,0,0,0,0,0,0,0,0,0,0,1.9603e-19,0,0,0,0,0,0,0,0,0,0,0
6449,-3.33315e-12,1.79765e-38,-1.61046e-06,-3.40794e-12,1.79753e-38,0,0,0,0,0,0,0,0,0,0,0,0,0,0,0,0,0,0,0,0,0,0,0.005102,-0.0348889,0,-1.5,6.40901e-10,0,0,0,0,0,0,0,0,0,0,0,1.9603e-19,0,0,0,0,0,0,0,0,0,0,0
6469,-3.33315e-12,1.79765e-38,-1.61046e-06,-3.40794e-12,1.79753e-38,0,0,0,0,0,0,0,0,0,0,0,0,0,0,0,0,0,0,0,0,0,0,0.005102,-0.0348889,0,-1.5,6.40901e-10,0,0,0,0,0,0,0,0,0,0,0,1.9603e-19,0,0,0,0,0,0,0,0,0,0,0
6495,-3.33315e-12,1.79765e-38,-1.61046e-06,-3.40794e-12,1.79753e-38,0,0,0,0,0,0,0,0,0,0,0,0,0,0,0,0,0,0,0,0,0,0,0.005102,-0.0348889,0,-1.5,6.40901e-10,0,0,0,0,0,0,0,0,0,0,0,1.9603e-19,0,0,0,0,0,0,0,0,0,0,0
6511,-3.33315e-12,1.79765e-38,-1.61046e-06,-3.40794e-12,1.79753e-38,0,0,0,0,0,0,0,0,0,0,0,0,0,0,0,0,0,0,0,0,0,0,0.005102,-0.0348889,0,-1.5,6.40901e-10,0,0,0,0,0,0,0,0,0,0,0,1.9603e-19,0,0,0,0,0,0,0,0,0,0,0
6530,-3.33315e-12,1.79765e-38,-1.61046e-06,-3.40794e-12,1.79753e-38,0,0,0,0,0,0,0,0,0,0,0,0,0,0,0,0,0,0,0,0,0,0,0.005102,-0.0348889,0,-1.5,6.40901e-10,0,0,0,0,0,0,0,0,0,0,0,1.9603e-19,0,0,0,0,0,0,0,0,0,0,0
6556,-3.33315e-12,1.79765e-38,-1.61046e-06,-3.40794e-12,1.79753e-38,0,0,0,0,0,0,0,0,0,0,0,0,0,0,0,0,0,0,0,0,0,0,0.005102,-0.0348889,0,-1.5,6.40901e-10,0,0,0,0,0,0,0,0,0,0,0,1.9603e-19,0,0,0,0,0,0,0,0,0,0,0
6661,-3.33315e-12,1.79765e-38,-1.61046e-06,-3.40794e-12,1.79753e-38,0,0,0,0,0,0,0,0,0,0,0,0,0,0,0,0,0,0,0,0,0,0,0.005102,-0.0348889,0,-1.5,6.40901e-10,0,0,0,0,0,0,0,0,0,0,0,1.9603e-19,0,0,0,0,0,0,0,0,0,0,0
6687,-3.33315e-12,1.79765e-38,-1.61046e-06,-3.40794e-12,1.79753e-38,0,0,0,0,0,0,0,0,0,0,0,0,0,0,0,0,0,0,0,0,0,0,0.005102,-0.0348889,0,-1.5,6.40901e-10,0,0,0,0,0,0,0,0,0,0,0,1.9603e-19,0,0,0,0,0,0,0,0,0,0,0
6706,-3.33315e-12,1.79765e-38,-1.61046e-06,-3.40794e-12,1.79753e-38,0,0,0,0,0,0,0,0,0,0,0,0,0,0,0,0,0,0,0,0,0,0,0.005102,-0.0348889,0,-1.5,6.40901e-10,0,0,0,0,0,0,0,0,0,0,0,1.9603e-19,0,0,0,0,0,0,0,0,0,0,0
6725,-3.33315e-12,1.79765e-38,-1.61046e-06,-3.40794e-12,1.79753e-38,0,0,0,0,0,0,0,0,0,0,0,0,0,0,0,0,0,0,0,0,0,0,0.005102,-0.0348889,0,-1.5,6.40901e-10,0,0,0,0,0,0,0,0,0,0,0,1.9603e-19,0,0,0,0,0,0,0,0,0,0,0
6750,-3.33315e-12,1.79765e-38,-1.61046e-06,-3.40794e-12,1.79753e-38,0,0,0,0,0,0,0,0,0,0,0,0,0,0,0,0,0,0,0,0,0,0,0.005102,-0.0348889,0,-1.5,6.40901e-10,0,0,0,0,0,0,0,0,0,0,0,1.9603e-19,0,0,0,0,0,0,0,0,0,0,0
6781,-3.33315e-12,1.79765e-38,-1.61046e-06,-3.40794e-12,1.79753e-38,0,0,0,0,-3.63175,-0.0223682,0.461052,0,0,0,0,0,-0.575503,-0.0223682,257,-61,257,-61,384,-57,262,64,0.005102,-0.0348889,0,-1.5,6.40901e-10,0,0,0,0,0,0,0,0,0,0,0,16250,0,0,0,0,6766,0,0,0,0,0,0
6806,-3.33315e-12,1.79765e-38,-1.61046e-06,-3.40794e-12,1.79753e-38,0,0,0,0,-3.66885,-0.0137078,0.48211,0,0,0,0,0,-0.626323,-0.0137078,257,-61,257,-61,384,-57,262,64,0.005102,-0.0348889,0,-1.5,6.40901e-10,0,0,0,0,0,0,0,0,0,0,0,15875,0,0,0,0,6794,0,0,0,0,0,0
6825,-3.33315e-12,1.79765e-38,-1.61046e-06,-3.40794e-12,1.79753e-38,0,0,0,0,-3.61043,-0.0267895,0.446451,0,0,0,0,0,-0.546284,-0.0267895,257,-61,257,-61,386,-57,262,64,0.005102,-0.0348889,0,-1.5,6.40901e-10,0,0,0,0,0,0,0,0,0,0,0,16250,0,0,0,0,6814,0,0,0,0,0,0
6845,-3.33315e-12,1.79765e-38,-1.61046e-06,-3.40794e-12,1.79753e-38,0,0,0,0,-3.61043,-0.0267895,0.446451,0,0,0,0,0,-0.546284,-0.0267895,257,-61,257,-61,386,-57,262,64,0.005102,-0.0348889,0,-1.5,6.40901e-10,0,0,0,0,0,0,0,0,0,0,0,16250,0,0,0,0,6814,0,0,0,0,0,0
6869,-3.33315e-12,1.79765e-38,-1.61046e-06,-3.40794e-12,1.79753e-38,0,0,0,0,-3.6411,-0.0180871,0.464117,0,0,0,0,0,-0.588307,-0.0180871,257,-61,257,-61,382,-57,262,64,0.00161087,-0.0348889,0,-1.5,6.40901e-10,0,0,0,-0.574051,-0.0197294,0,0,0,0,0.593995,-0.068427,16250,-0.588307,-0.0180871,0.593995,-0.068427,6851,0,0,0,0,0,0
6929,-3.33315e-12,1.79765e-38,-1.61046e-06,-3.40794e-12,1.79753e-38,0,0,0,0,-3.57825,-0.0162203,0.448631,0,0,0,0,0,-0.5022,-0.0162203,257,-61,257,-61,382,-67,262,64,0.005102,-0.0348889,0,-1.5,6.40901e-10,0,0,0,-0.538412,-0.0180871,0,0,0,0,0.593995,4.09265e-08,17030,-0.564548,-0.0180871,0.593995,4.09265e-08,6917,0,0,0,0,0,0
6962,-3.33315e-12,1.79765e-38,-1.61046e-06,-3.40794e-12,1.79753e-38,0,0,0,0,-3.55444,-0.0242809,0.432676,0,0,0,0,0,-0.469584,-0.0242809,257,-59,257,-59,386,-68,262,64,0.00185237,-0.0348889,0,-1.5,6.40901e-10,0,0,0,-0.455421,-0.0252363,0,0,0,0,0.94421,-0.0636935,17160,-0.469584,-0.0242809,0.94421,-0.0636935,6949,0,0,0,0,0,0
6979,-3.33315e-12,1.79765e-38,-1.61046e-06,-3.40794e-12,1.79753e-38,0,0,0,0,-3.55444,-0.0242809,0.432676,0,0,0,0,0,-0.469584,-0.0242809,257,-59,257,-59,386,-68,262,64,0.00185237,-0.0348889,0,-1.5,6.40901e-10,0,0,0,-0.439369,-0.0263191,0,0,0,0,0.94421,-0.0636935,17160,-0.469584,-0.0242809,0.94421,-0.0636935,6949,0,0,0,0,0,0
7014,-3.33315e-12,1.79765e-38,-1.61046e-06,-3.40794e-12,1.79753e-38,0,0,0,0,-3.55444,-0.0242809,0.432676,0,0,0,0,0,-0.469584,-0.0242809,257,-59,257,-59,386,-68,262,64,0.00185237,-0.0348889,0,-1.5,6.40901e-10,0,0,0,-0.406322,-0.0285484,0,0,0,0,0.94421,-0.0636935,17160,-0.469584,-0.0242809,0.94421,-0.0636935,6949,0,0,0,0,0,0
7037,-3.33315e-12,1.79765e-38,-1.61046e-06,-3.40794e-12,1.79753e-38,0,0,0,0,-3.58276,-0.0112496,0.443199,0,0,0,0,0,-0.508383,-0.0112496,259,-57,259,-57,382,-67,258,64,0.00716614,-0.0348889,0,-1.5,6.40901e-10,0,0,0,-0.497033,-0.0102786,0,0,0,0,0.472926,0.0404587,16899,-0.508383,-0.0112496,0.472926,0.0404587,7023,0,0,0,0,0,0
7068,-3.33315e-12,1.79765e-38,-1.61046e-06,-3.40794e-12,1.79753e-38,0,0,0,0,-3.57576,-0.0134054,0.439142,0,0,0,0,0,-0.498793,-0.0134054,259,-57,259,-57,383,-67,258,64,0.00632481,-0.0348889,0,-1.5,6.40901e-10,0,0,0,-0.483553,-0.0125887,0,0,0,0,0.467171,0.0239679,16899,-0.498036,-0.0133317,0.467171,0.0239679,7053,0,0,0,0,0,0
7098,-3.33315e-12,1.79765e-38,-1.61046e-06,-3.40794e-12,1.79753e-38,0,0,0,0,-3.62925,-0.000380542,0.469619,0,0,0,0,0,-0.57207,-0.000380542,259,-57,259,-57,383,-67,258,64,0.00714204,-0.0348889,0,-1.5,6.40901e-10,0,0,0,-0.470005,-0.00785483,0,0,0,0,0.467171,0.0399864,16375,-0.483553,-0.00901443,0.467171,0.0399864,7082,0,0,0,0,0,0
7121,-3.33315e-12,1.79765e-38,-1.61046e-06,-3.40794e-12,1.79753e-38,0,0,0,0,-3.65462,-0.00261897,0.484154,0,0,0,0,0,-0.606834,-0.00261897,259,-57,259,-57,382,-67,260,64,0.00816842,-0.0348889,0,-1.5,6.40901e-10,0,0,0,-0.482975,-0.00235709,0,0,0,0,0.313288,0.0601046,16113,-0.484855,-0.00271772,0.313288,0.0601046,7116,0,0,0,0,0,0
7146,-3.33315e-12,1.79765e-38,-1.61046e-06,-3.40794e-12,1.79753e-38,0,0,0,0,-3.65462,-0.00261897,0.484154,0,0,0,0,0,-0.606834,-0.00261897,259,-57,259,-57,382,-67,260,64,0.00816842,-0.0348889,0,-1.5,6.40901e-10,0,0,0,-0.475143,-0.000854468,0,0,0,0,0.313288,0.0601046,16113,-0.484855,-0.00271772,0.313288,0.0601046,7116,0,0,0,0,0,0
7176,-3.33315e-12,1.79765e-38,-1.61046e-06,-3.40794e-12,1.79753e-38,0,0,0,0,-3.61867,-0.000718602,0.463251,0,0,0,0,0,-0.557581,-0.000718602,257,-59,257,-59,382,-66,260,65,0.00822409,-0.0348889,0,-1.5,6.40901e-10,0,0,0,-0.555717,0.00119094,0,0,0,0,0.070602,0.0611957,16375,-0.557905,-0.000706139,0.070602,0.0611957,7161,0,0,0,0,0,0
7227,-3.33315e-12,1.79765e-38,-1.61046e-06,-3.40794e-12,1.79753e-38,0,0,0,0,-3.61867,-0.000718602,0.463251,0,0,0,0,0,-0.557581,-0.000718602,257,-59,257,-59,382,-66,260,65,0.00822409,-0.0348889,0,-1.5,6.40901e-10,0,0,0,-0.552116,0.00431193,0,0,0,0,0.070602,0.0611957,16375,-0.557905,-0.000706139,0.070602,0.0611957,7161,0,0,0,0,0,0
7258,-3.33315e-12,1.79765e-38,-1.61046e-06,-3.40794e-12,1.79753e-38,0,0,0,0,-3.61867,-0.000718602,0.463251,0,0,0,0,0,-0.557581,-0.000718602,257,-59,257,-59,382,-66,260,65,0.00822409,-0.0348889,0,-1.5,6.40901e-10,0,0,0,-0.549998,0.0061478,0,0,0,0,0.070602,0.0611957,16375,-0.557905,-0.000706139,0.070602,0.0611957,7161,0,0,0,0,0,0
7283,-3.33315e-12,1.79765e-38,-1.61046e-06,-3.40794e-12,1.79753e-38,0,0,0,0,-3.61867,-0.000718602,0.463251,0,0,0,0,0,-0.557581,-0.000718602,257,-59,257,-59,382,-66,260,65,0.00822409,-0.0348889,0,-1.5,6.40901e-10,0,0,0,-0.548233,0.00767769,0,0,0,0,0.070602,0.0611957,16375,-0.557905,-0.000706139,0.070602,0.0611957,7161,0,0,0,0,0,0
7299,-3.33315e-12,1.79765e-38,-1.61046e-06,-3.40794e-12,1.79753e-38,0,0,0,0,-3.61867,-0.000718602,0.463251,0,0,0,0,0,-0.557581,-0.000718602,257,-59,257,-59,382,-66,260,65,0.00822409,-0.0348889,0,-1.5,6.40901e-10,0,0,0,-0.547103,0.00865682,0,0,0,0,0.070602,0.0611957,16375,-0.557905,-0.000706139,0.070602,0.0611957,7161,0,0,0,0,0,0
7325,-3.33315e-12,1.79765e-38,-1.61046e-06,-3.40794e-12,1.79753e-38,0,0,0,0,-3.61867,-0.000718602,0.463251,0,0,0,0,0,-0.557581,-0.000718602,257,-59,257,-59,382,-66,260,65,0.00822409,-0.0348889,0,-1.5,6.40901e-10,0,0,0,-0.545197,0.0103091,0,0,0,0,0.070602,0.0611957,16375,-0.557905,-0.000706139,0.070602,0.0611957,7161,0,0,0,0,0,0
7351,-3.33315e-12,1.79765e-38,-1.61046e-06,-3.40794e-12,1.79753e-38,0,0,0,0,-3.61867,-0.000718602,0.463251,0,0,0,0,0,-0.557581,-0.000718602,257,-59,257,-59,382,-66,260,65,0.00822409,-0.0348889,0,-1.5,6.40901e-10,0,0,0,-0.543432,0.011839,0,0,0,0,0.070602,0.0611957,16375,-0.557905,-0.000706139,0.070602,0.0611957,7161,0,0,0,0,0,0
7370,-3.33315e-12,1.79765e-38,-1.61046e-06,-3.40794e-12,1.79753e-38,0,0,0,0,-3.61867,-0.000718602,0.463251,0,0,0,0,0,-0.557581,-0.000718602,257,-59,257,-59,382,-66,260,65,0.00822409,-0.0348889,0,-1.5,6.40901e-10,0,0,0,-0.54209,0.0130017,0,0,0,0,0.070602,0.0611957,16375,-0.557905,-0.000706139,0.070602,0.0611957,7161,0,0,0,0,0,0
7396,-3.33315e-12,1.79765e-38,-1.61046e-06,-3.40794e-12,1.79753e-38,0,0,0,0,-3.61867,-0.000718602,0.463251,0,0,0,0,0,-0.557581,-0.000718602,257,-59,257,-59,382,-66,260,65,0.00822409,-0.0348889,0,-1.5,6.40901e-10,0,0,0,-0.540255,0.0145928,0,0,0,0,0.070602,0.0611957,16375,-0.557905,-0.000706139,0.070602,0.0611957,7161,0,0,0,0,0,0
7419,-3.33315e-12,1.79765e-38,-1.61046e-06,-3.40794e-12,1.79753e-38,0,0,0,0,-3.61867,-0.000718602,0.463251,0,0,0,0,0,-0.557581,-0.000718602,257,-59,257,-59,382,-66,260,65,0.00822409,-0.0348889,0,-1.5,6.40901e-10,0,0,0,-0.53856,0.0160615,0,0,0,0,0.070602,0.0611957,16375,-0.557905,-0.000706139,0.070602,0.0611957,7161,0,0,0,0,0,0
7442,-3.33315e-12,1.79765e-38,-1.61046e-06,-3.40794e-12,1.79753e-38,0,0,0,0,-3.61867,-0.000718602,0.463251,0,0,0,0,0,-0.557581,-0.000718602,257,-59,257,-59,382,-66,260,65,0.00822409,-0.0348889,0,-1.5,6.40901e-10,0,0,0,-0.536936,0.017469,0,0,0,0,0.070602,0.0611957,16375,-0.557905,-0.000706139,0.070602,0.0611957,7161,0,0,0,0,0,0
7488,-3.33315e-12,1.79765e-38,-1.61046e-06,-3.40794e-12,1.79753e-38,0,0,0,0,-3.61867,-0.000718602,0.463251,0,0,0,0,0,-0.557581,-0.000718602,257,-59,257,-59,382,-66,260,65,0.00822409,-0.0348889,0,-1.5,6.40901e-10,0,0,0,-0.533759,0.0202228,0,0,0,0,0.070602,0.0611957,16375,-0.557905,-0.000706139,0.070602,0.0611957,7161,0,0,0,0,0,0
7507,-3.33315e-12,1.79765e-38,-1.61046e-06,-3.40794e-12,1.79753e-38,0,0,0,0,-3.61867,-0.000718602,0.463251,0,0,0,0,0,-0.557581,-0.000718602,257,-59,257,-59,382,-66,260,65,0.00822409,-0.0348889,0,-1.5,6.40901e-10,0,0,0,-0.532418,0.0213856,0,0,0,0,0.070602,0.0611957,16375,-0.557905,-0.000706139,0.070602,0.0611957,7161,0,0,0,0,0,0
7533,-3.33315e-12,1.79765e-38,-1.61046e-06,-3.40794e-12,1.79753e-38,0,0,0,0,-3.61867,-0.000718602,0.463251,0,0,0,0,0,-0.557581,-0.000718602,257,-59,257,-59,382,-66,260,65,0.00822409,-0.0348889,0,-1.5,6.40901e-10,0,0,0,-0.530582,0.0229767,0,0,0,0,0.070602,0.0611957,16375,-0.557905,-0.000706139,0.070602,0.0611957,7161,0,0,0,0,0,0
7556,-3.33315e-12,1.79765e-38,-1.61046e-06,-3.40794e-12,1.79753e-38,0,0,0,0,-3.71679,-0.0374,0.538109,0,0,0,0,0,-0.692008,-0.0374,272,-60,272,-60,383,-69,260,61,0.00634335,-0.0348889,0,-1.5,6.40901e-10,0,0,0,-0.620712,-0.000713744,0,0,0,0,-0.102071,0.0243312,16113,-0.620099,-0.000859732,-0.102071,0.0243312,7552,0,0,0,0,0,0
7574,-3.33315e-12,1.79765e-38,-1.61046e-06,-3.40794e-12,1.79753e-38,0,0,0,0,-3.71679,-0.0374,0.538109,0,0,0,0,0,-0.692008,-0.0374,272,-60,272,-60,383,-69,260,61,0.00634335,-0.0348889,0,-1.5,6.40901e-10,0,0,0,-0.622549,-0.000275782,0,0,0,0,-0.102071,0.0243312,16113,-0.620099,-0.000859732,-0.102071,0.0243312,7552,0,0,0,0,0,0
7598,-3.33315e-12,1.79765e-38,-1.61046e-06,-3.40794e-12,1.79753e-38,0,0,0,0,-3.71679,-0.0374,0.538109,0,0,0,0,0,-0.692008,-0.0374,272,-60,272,-60,383,-69,260,61,0.00634335,-0.0348889,0,-1.5,6.40901e-10,0,0,0,-0.624999,0.000308169,0,0,0,0,-0.102071,0.0243312,16113,-0.620099,-0.000859732,-0.102071,0.0243312,7552,0,0,0,0,0,0
7624,-3.33315e-12,1.79765e-38,-1.61046e-06,-3.40794e-12,1.79753e-38,0,0,0,0,-3.71679,-0.0374,0.538109,0,0,0,0,0,-0.692008,-0.0374,272,-60,272,-60,383,-69,260,61,0.00634335,-0.0348889,0,-1.5,6.40901e-10,0,0,0,-0.627653,0.000940781,0,0,0,0,-0.102071,0.0243312,16113,-0.620099,-0.000859732,-0.102071,0.0243312,7552,0,0,0,0,0,0
7643,-3.33315e-12,1.79765e-38,-1.61046e-06,-3.40794e-12,1.79753e-38,0,0,0,0,-3.71679,-0.0374,0.538109,0,0,0,0,0,-0.692008,-0.0374,272,-60,272,-60,383,-69,260,61,0.00634335,-0.0348889,0,-1.5,6.40901e-10,0,0,0,-0.629592,0.00140308,0,0,0,0,-0.102071,0.0243312,16113,-0.620099,-0.000859732,-0.102071,0.0243312,7552,0,0,0,0,0,0
7669,-3.33315e-12,1.79765e-38,-1.61046e-06,-3.40794e-12,1.79753e-38,0,0,0,0,-3.71679,-0.0374,0.538109,0,0,0,0,0,-0.692008,-0.0374,272,-60,272,-60,383,-69,260,61,0.00634335,-0.0348889,0,-1.5,6.40901e-10,0,0,0,-0.632348,0.00206002,0,0,0,0,-0.102071,0.0243312,16113,-0.620099,-0.000859732,-0.102071,0.0243312,7552,0,0,0,0,0,0
7689,-3.33315e-12,1.79765e-38,-1.61046e-06,-3.40794e-12,1.79753e-38,0,0,0,0,-3.71679,-0.0374,0.538109,0,0,0,0,0,-0.692008,-0.0374,272,-60,272,-60,383,-69,260,61,0.00634335,-0.0348889,0,-1.5,6.40901e-10,0,0,0,-0.634287,0.00252232,0,0,0,0,-0.102071,0.0243312,16113,-0.620099,-0.000859732,-0.102071,0.0243312,7552,0,0,0,0,0,0
7738,-3.33315e-12,1.79765e-38,-1.61046e-06,-3.40794e-12,1.79753e-38,0,0,0,0,-3.71679,-0.0374,0.538109,0,0,0,0,0,-0.692008,-0.0374,272,-60,272,-60,383,-69,260,61,0.00634335,-0.0348889,0,-1.5,6.40901e-10,0,0,0,-0.639289,0.00371455,0,0,0,0,-0.102071,0.0243312,16113,-0.620099,-0.000859732,-0.102071,0.0243312,7552,0,0,0,0,0,0
7762,-3.33315e-12,1.79765e-38,-1.61046e-06,-3.40794e-12,1.79753e-38,0,0,0,0,-3.71679,-0.0374,0.538109,0,0,0,0,0,-0.692008,-0.0374,272,-60,272,-60,383,-69,260,61,0.00634335,-0.0348889,0,-1.5,6.40901e-10,0,0,0,-0.641738,0.0042985,0,0,0,0,-0.102071,0.0243312,16113,-0.620099,-0.000859732,-0.102071,0.0243312,7552,0,0,0,0,0,0
7781,-3.33315e-12,1.79765e-38,-1.61046e-06,-3.40794e-12,1.79753e-38,0,0,0,0,-3.71679,-0.0374,0.538109,0,0,0,0,0,-0.692008,-0.0374,272,-60,272,-60,383,-69,260,61,0.00634335,-0.0348889,0,-1.5,6.40901e-10,0,0,0,-0.643678,0.00476079,0,0,0,0,-0.102071,0.0243312,16113,-0.620099,-0.000859732,-0.102071,0.0243312,7552,0,0,0,0,0,0
7807,-3.33315e-12,1.79765e-38,-1.61046e-06,-3.40794e-12,1.79753e-38,0,0,0,0,-3.71679,-0.0374,0.538109,0,0,0,0,0,-0.692008,-0.0374,272,-60,272,-60,383,-69,260,61,0.00634335,-0.0348889,0,-1.5,6.40901e-10,0,0,0,-0.646332,0.00539341,0,0,0,0,-0.102071,0.0243312,16113,-0.620099,-0.000859732,-0.102071,0.0243312,7552,0,0,0,0,0,0
7836,-3.33315e-12,1.79765e-38,-1.61046e-06,-3.40794e-12,1.79753e-38,0,0,0,0,-3.58939,-0.0159993,0.446713,0,0,0,0,0,-0.51747,-0.0159993,259,-59,259,-59,382,-66,260,65,0.00511373,-0.0348889,0,-1.5,6.40901e-10,0,0,0,-0.518873,-0.0161191,0,0,0,0,0.0565407,0.000229926,16768,-0.520569,-0.016126,0.0565407,0.000229926,7821,0,0,0,0,0,0
7859,-3.33315e-12,1.79765e-38,-1.61046e-06,-3.40794e-12,1.79753e-38,0,0,0,0,-3.57917,-0.00499981,0.440803,0,0,0,0,0,-0.503459,-0.00499981,256,-59,256,-59,380,-66,260,65,0.00567244,-0.0348889,0,-1.5,6.40901e-10,0,0,0,-0.5124,-0.00511901,0,0,0,0,0.0699394,0.0111811,17161,-0.513379,-0.00527555,0.0699394,0.0111811,7847,0,0,0,0,0,0
7879,-3.33315e-12,1.79765e-38,-1.61046e-06,-3.40794e-12,1.79753e-38,0,0,0,0,-3.57917,-0.00499981,0.440803,0,0,0,0,0,-0.503459,-0.00499981,256,-59,256,-59,380,-66,260,65,0.00567244,-0.0348889,0,-1.5,6.40901e-10,0,0,0,-0.511001,-0.00489539,0,0,0,0,0.0699394,0.0111811,17161,-0.513379,-0.00527555,0.0699394,0.0111811,7847,0,0,0,0,0,0
7906,-3.33315e-12,1.79765e-38,-1.61046e-06,-3.40794e-12,1.79753e-38,0,0,0,0,-3.56801,-0.0250817,0.432293,0,0,0,0,0,-0.488167,-0.0250817,259,-60,259,-60,386,-64,260,65,0.00509895,-0.0348889,0,-1.5,6.40901e-10,0,0,0,-0.499853,-0.0162787,0,0,0,0,0.0761022,-5.97639e-05,16512,-0.501908,-0.016277,0.0761022,-5.97639e-05,7890,0,0,0,0,0,0
7930,-3.33315e-12,1.79765e-38,-1.61046e-06,-3.40794e-12,1.79753e-38,0,0,0,0,-3.5409,-0.0208805,0.420728,0,0,0,0,0,-0.451039,-0.0208805,257,-62,257,-62,386,-64,260,65,0.00506636,-0.0348889,0,-1.5,6.40901e-10,0,0,0,-0.49499,-0.0165652,0,0,0,0,0.0802097,-0.000698407,16770,-0.496915,-0.0165485,0.0802097,-0.000698407,7914,0,0,0,0,0,0
7959,-3.33315e-12,1.79765e-38,-1.61046e-06,-3.40794e-12,1.79753e-38,0,0,0,0,-3.56801,-0.0250817,0.432293,0,0,0,0,0,-0.488167,-0.0250817,259,-60,259,-60,386,-64,260,65,0.0048581,-0.0348889,0,-1.5,6.40901e-10,0,0,0,-0.484833,-0.0211735,0,0,0,0,0.0887476,-0.00478043,16512,-0.486164,-0.0211018,0.0887476,-0.00478043,7946,0,0,0,0,0,0
8006,-3.33315e-12,1.79765e-38,-1.61046e-06,-3.40794e-12,1.79753e-38,0,0,0,0,-3.67377,-0.00692245,0.480783,0,0,0,0,0,-0.63307,-0.00692245,257,-59,257,-59,384,-57,260,63,0.00504489,-0.0348889,0,-1.5,6.40901e-10,0,0,0,-0.487597,-0.0173742,0,0,0,0,0.0840821,-0.00111929,15494,-0.490876,-0.0173305,0.0840821,-0.00111929,7992,0,0,0,0,0,0
8030,-3.33315e-12,1.79765e-38,-1.61046e-06,-3.40794e-12,1.79753e-38,0,0,0,0,-3.55054,-0.0158118,0.436808,0,0,0,0,0,-0.464238,-0.0158118,257,-61,257,-61,386,-68,260,64,0.00504301,-0.0348889,0,-1.5,6.40901e-10,0,0,0,-0.47516,-0.0162517,0,0,0,0,0.0916462,-0.00115612,17028,-0.476626,-0.0162332,0.0916462,-0.00115612,8016,0,0,0,0,0,0
8077,-3.33315e-12,1.79765e-38,-1.61046e-06,-3.40794e-12,1.79753e-38,0,0,0,0,-3.58363,-0.00499839,0.447566,0,0,0,0,0,-0.509567,-0.00499839,256,-59,256,-59,382,-67,260,64,0.00510345,-0.0348889,0,-1.5,6.40901e-10,0,0,0,-0.486453,-0.0157289,0,0,0,0,0.0781613,2.84143e-05,16899,-0.490126,-0.0157302,0.0781613,2.84143e-05,8061,0,0,0,0,0,0
8101,-3.33315e-12,1.79765e-38,-1.61046e-06,-3.40794e-12,1.79753e-38,0,0,0,0,-3.58042,-0.00751209,0.449873,0,0,0,0,0,-0.505175,-0.00751209,257,-61,257,-61,382,-67,260,64,0.00512519,-0.0348889,0,-1.5,6.40901e-10,0,0,0,-0.485237,-0.0156687,0,0,0,0,0.0781955,0.000454605,16768,-0.487114,-0.0156796,0.0781955,0.000454605,8085,0,0,0,0,0,0
8132,-3.33315e-12,1.79765e-38,-1.61046e-06,-3.40794e-12,1.79753e-38,0,0,0,0,-3.56201,-0.0183462,0.443273,0,0,0,0,0,-0.479948,-0.0183462,259,-62,259,-62,385,-68,260,64,0.00510728,-0.0348889,0,-1.5,6.40901e-10,0,0,0,-0.480295,-0.0160048,0,0,0,0,0.0806229,0.00010349,16632,-0.482794,-0.016008,0.0806229,0.00010349,8115,0,0,0,0,0,0
8162,-3.33315e-12,1.79765e-38,-1.61046e-06,-3.40794e-12,1.79753e-38,0,0,0,0,-3.56214,-0.0226972,0.443349,0,0,0,0,0,-0.480134,-0.0226972,260,-62,260,-62,386,-68,260,64,0.00508089,-0.0348889,0,-1.5,6.40901e-10,0,0,0,-0.476783,-0.016014,0,0,0,0,0.0820361,-0.000413768,16632,-0.478013,-0.0160078,0.0820361,-0.000413768,8148,0,0,0,0,0,0
8181,-3.33315e-12,1.79765e-38,-1.61046e-06,-3.40794e-12,1.79753e-38,0,0,0,0,-3.56214,-0.0226972,0.443349,0,0,0,0,0,-0.480134,-0.0226972,260,-62,260,-62,386,-68,260,64,0.00508089,-0.0348889,0,-1.5,6.40901e-10,0,0,0,-0.475142,-0.0160223,0,0,0,0,0.0820361,-0.000413768,16632,-0.478013,-0.0160078,0.0820361,-0.000413768,8148,0,0,0,0,0,0
8211,-3.33315e-12,1.79765e-38,-1.61046e-06,-3.40794e-12,1.79753e-38,0,0,0,0,-3.6007,-0.0138236,0.457319,0,0,0,0,0,-0.53296,-0.0138236,257,-59,257,-59,383,-67,262,64,0.00511199,-0.0348889,0,-1.5,6.40901e-10,0,0,0,-0.478614,-0.0157289,0,0,0,0,0.0748773,0.000195877,16768,-0.48086,-0.0157348,0.0748773,0.000195877,8195,0,0,0,0,0,0
8236,-3.33315e-12,1.79765e-38,-1.61046e-06,-3.40794e-12,1.79753e-38,0,0,0,0,-3.64679,-0.000365867,0.47955,0,0,0,0,0,-0.596106,-0.000365867,257,-57,257,-57,382,-67,261,64,0.00511559,-0.0348889,0,-1.5,6.40901e-10,0,0,0,-0.473482,-0.0156902,0,0,0,0,0.0787135,0.000266411,16375,-0.475371,-0.0156966,0.0787135,0.000266411,8219,0,0,0,0,0,0
8259,-3.33315e-12,1.79765e-38,-1.61046e-06,-3.40794e-12,1.79753e-38,0,0,0,0,-3.63305,-0.00468407,0.469663,0,0,0,0,0,-0.577276,-0.00468407,259,-57,259,-57,379,-67,260,65,0.00517324,-0.0348889,0,-1.5,6.40901e-10,0,0,0,-0.493492,-0.0136998,0,0,0,0,0.0521089,0.00139648,16632,-0.494169,-0.0137179,0.0521089,0.00139648,8248,0,0,0,0,0,0
8311,-3.33315e-12,1.79765e-38,-1.61046e-06,-3.40794e-12,1.79753e-38,0,0,0,0,-3.76674,0.0179857,0.490909,0,0,0,0,0,-0.760429,0.0179857,255,-54,255,-54,378,-50,260,67,0.00521947,-0.0348889,0,-1.5,6.40901e-10,0,0,0,-0.494492,-0.0123493,0,0,0,0,0.0487738,0.00230244,15004,-0.496394,-0.0124391,0.0487738,0.00230244,8297,0,0,0,0,0,0
8341,-3.33315e-12,1.79765e-38,-1.61046e-06,-3.40794e-12,1.79753e-38,0,0,0,0,-3.64836,0.0377168,0.418516,0,0,0,0,0,-0.59825,0.0377168,253,-49,253,-49,377,-60,256,71,0.00543056,-0.0348889,0,-1.5,6.40901e-10,0,0,0,-0.498799,-0.00663867,0,0,0,0,0.0364064,0.00643995,16375,-0.499928,-0.0068383,0.0364064,0.00643995,8324,0,0,0,0,0,0
8361,-3.33315e-12,1.79765e-38,-1.61046e-06,-3.40794e-12,1.79753e-38,0,0,0,0,-3.64836,0.0377168,0.418516,0,0,0,0,0,-0.59825,0.0377168,253,-49,253,-49,377,-60,256,71,0.00543056,-0.0348889,0,-1.5,6.40901e-10,0,0,0,-0.498108,-0.00651631,0,0,0,0,0.0364064,0.00643995,16375,-0.499928,-0.0068383,0.0364064,0.00643995,8324,0,0,0,0,0,0
8387,-3.33315e-12,1.79765e-38,-1.61046e-06,-3.40794e-12,1.79753e-38,0,0,0,0,-3.64836,0.0377168,0.418516,0,0,0,0,0,-0.59825,0.0377168,253,-49,253,-49,377,-60,256,71,0.00543056,-0.0348889,0,-1.5,6.40901e-10,0,0,0,-0.497161,-0.00634887,0,0,0,0,0.0364064,0.00643995,16375,-0.499928,-0.0068383,0.0364064,0.00643995,8324,0,0,0,0,0,0
8412,-3.33315e-12,1.79765e-38,-1.61046e-06,-3.40794e-12,1.79753e-38,0,0,0,0,-3.64836,0.0377168,0.418516,0,0,0,0,0,-0.59825,0.0377168,253,-49,253,-49,377,-60,256,71,0.00543056,-0.0348889,0,-1.5,6.40901e-10,0,0,0,-0.496214,-0.00618143,0,0,0,0,0.0364064,0.00643995,16375,-0.499928,-0.0068383,0.0364064,0.00643995,8324,0,0,0,0,0,0
8434,-3.33315e-12,1.79765e-38,-1.61046e-06,-3.40794e-12,1.79753e-38,0,0,0,0,-3.64836,0.0377168,0.418516,0,0,0,0,0,-0.59825,0.0377168,253,-49,253,-49,377,-60,256,71,0.00543056,-0.0348889,0,-1.5,6.40901e-10,0,0,0,-0.49545,-0.00604619,0,0,0,0,0.0364064,0.00643995,16375,-0.499928,-0.0068383,0.0364064,0.00643995,8324,0,0,0,0,0,0
8458,-3.33315e-12,1.79765e-38,-1.61046e-06,-3.40794e-12,1.79753e-38,0,0,0,0,-3.64836,0.0377168,0.418516,0,0,0,0,0,-0.59825,0.0377168,253,-49,253,-49,377,-60,256,71,0.00543056,-0.0348889,0,-1.5,6.40901e-10,0,0,0,-0.49454,-0.00588519,0,0,0,0,0.0364064,0.00643995,16375,-0.499928,-0.0068383,0.0364064,0.00643995,8324,0,0,0,0,0,0
8477,-3.33315e-12,1.79765e-38,-1.61046e-06,-3.40794e-12,1.79753e-38,0,0,0,0,-3.64836,0.0377168,0.418516,0,0,0,0,0,-0.59825,0.0377168,253,-49,253,-49,377,-60,256,71,0.00543056,-0.0348889,0,-1.5,6.40901e-10,0,0,0,-0.493848,-0.00576283,0,0,0,0,0.0364064,0.00643995,16375,-0.499928,-0.0068383,0.0364064,0.00643995,8324,0,0,0,0,0,0
8502,-3.33315e-12,1.79765e-38,-1.61046e-06,-3.40794e-12,1.79753e-38,0,0,0,0,-3.64836,0.0377168,0.418516,0,0,0,0,0,-0.59825,0.0377168,253,-49,253,-49,377,-60,256,71,0.00543056,-0.0348889,0,-1.5,6.40901e-10,0,0,0,-0.492938,-0.00560183,0,0,0,0,0.0364064,0.00643995,16375,-0.499928,-0.0068383,0.0364064,0.00643995,8324,0,0,0,0,0,0
8532,-3.33315e-12,1.79765e-38,-1.61046e-06,-3.40794e-12,1.79753e-38,0,0,0,0,-3.4355,-0.0415565,0.416224,0,0,0,0,0,-0.306629,-0.0415565,262,-78,262,-78,385,-78,266,66,0.00519158,-0.0348889,0,-1.5,6.40901e-10,0,0,0,-0.483125,-0.0129532,0,0,0,0,0.0516707,0.00175594,18000,-0.484624,-0.0130042,0.0516707,0.00175594,8515,0,0,0,0,0,0
8575,-3.33315e-12,1.79765e-38,-1.61046e-06,-3.40794e-12,1.79753e-38,0,0,0,0,-3.4355,-0.0415565,0.416224,0,0,0,0,0,-0.306629,-0.0415565,262,-78,262,-78,385,-78,266,66,0.00519158,-0.0348889,0,-1.5,6.40901e-10,0,0,0,-0.480852,-0.012876,0,0,0,0,0.0516707,0.00175594,18000,-0.484624,-0.0130042,0.0516707,0.00175594,8515,0,0,0,0,0,0
8595,-3.33315e-12,1.79765e-38,-1.61046e-06,-3.40794e-12,1.79753e-38,0,0,0,0,-3.4355,-0.0415565,0.416224,0,0,0,0,0,-0.306629,-0.0415565,262,-78,262,-78,385,-78,266,66,0.00519158,-0.0348889,0,-1.5,6.40901e-10,0,0,0,-0.47987,-0.0128426,0,0,0,0,0.0516707,0.00175594,18000,-0.484624,-0.0130042,0.0516707,0.00175594,8515,0,0,0,0,0,0
8624,-3.33315e-12,1.79765e-38,-1.61046e-06,-3.40794e-12,1.79753e-38,0,0,0,0,-3.4355,-0.0415565,0.416224,0,0,0,0,0,-0.306629,-0.0415565,262,-78,262,-78,385,-78,266,66,0.00519833,-0.0348889,0,-1.5,6.40901e-10,0,0,0,-0.470254,-0.0128603,0,0,0,0,0.0594416,0.00188818,18000,-0.471086,-0.0128868,0.0594416,0.00188818,8612,0,0,0,0,0,0
8643,-3.33315e-12,1.79765e-38,-1.61046e-06,-3.40794e-12,1.79753e-38,0,0,0,0,-3.4355,-0.0415565,0.416224,0,0,0,0,0,-0.306629,-0.0415565,262,-78,262,-78,385,-78,266,66,0.00519833,-0.0348889,0,-1.5,6.40901e-10,0,0,0,-0.469124,-0.0128245,0,0,0,0,0.0594416,0.00188818,18000,-0.471086,-0.0128868,0.0594416,0.00188818,8612,0,0,0,0,0,0
8673,-3.33315e-12,1.79765e-38,-1.61046e-06,-3.40794e-12,1.79753e-38,0,0,0,0,-3.53565,-0.128877,0.473003,0,0,0,0,0,-0.443846,-0.128877,271,-69,271,-69,401,-72,272,58,0.00513755,-0.0348889,0,-1.5,6.40901e-10,0,0,0,-0.451784,-0.0146538,0,0,0,0,0.069305,0.00069685,16900,-0.453933,-0.0146754,0.069305,0.00069685,8656,0,0,0,0,0,0
8704,-3.33315e-12,1.79765e-38,-1.61046e-06,-3.40794e-12,1.79753e-38,0,0,0,0,-3.5569,-0.125445,0.487949,0,0,0,0,0,-0.472952,-0.125445,271,-69,271,-69,399,-72,272,57,0.00489708,-0.0348889,0,-1.5,6.40901e-10,0,0,0,-0.46443,-0.0205466,0,0,0,0,0.0594942,-0.00401644,16640,-0.466215,-0.0204261,0.0594942,-0.00401644,8686,0,0,0,0,0,0
8729,-3.33315e-12,1.79765e-38,-1.61046e-06,-3.40794e-12,1.79753e-38,0,0,0,0,-3.54731,-0.128967,0.475828,0,0,0,0,0,-0.459814,-0.128967,271,-67,271,-67,401,-72,272,58,0.00484468,-0.0348889,0,-1.5,6.40901e-10,0,0,0,-0.45991,-0.0205288,0,0,0,0,0.0607073,-0.00504346,16900,-0.46076,-0.0204582,0.0607073,-0.00504346,8717,0,0,0,0,0,0
8759,-3.33315e-12,1.79765e-38,-1.61046e-06,-3.40794e-12,1.79753e-38,0,0,0,0,-3.57316,-0.119377,0.49536,0,0,0,0,0,-0.495225,-0.119377,271,-69,271,-69,396,-72,272,58,0.0041257,-0.0348889,0,-1.5,6.40901e-10,0,0,0,-0.478089,-0.0346315,0,0,0,0,0.0257845,-0.0191359,16250,-0.478373,-0.034421,0.0257845,-0.0191359,8750,0,0,0,0,0,0
8778,-3.33315e-12,1.79765e-38,-1.61046e-06,-3.40794e-12,1.79753e-38,0,0,0,0,-3.57316,-0.119377,0.49536,0,0,0,0,0,-0.495225,-0.119377,271,-69,271,-69,396,-72,272,58,0.0041257,-0.0348889,0,-1.5,6.40901e-10,0,0,0,-0.4776,-0.0349951,0,0,0,0,0.0257845,-0.0191359,16250,-0.478373,-0.034421,0.0257845,-0.0191359,8750,0,0,0,0,0,0
8808,-3.33315e-12,1.79765e-38,-1.61046e-06,-3.40794e-12,1.79753e-38,0,0,0,0,-3.58188,-0.0863271,0.491519,0,0,0,0,0,-0.50718,-0.0863271,268,-67,268,-67,395,-72,268,60,0.00390749,-0.0348889,0,-1.5,6.40901e-10,0,0,0,-0.466914,-0.0410354,0,0,0,0,0.0501377,-0.0234129,16764,-0.468418,-0.040333,0.0501377,-0.0234129,8791,0,0,0,0,0,0
8863,-3.33315e-12,1.79765e-38,-1.61046e-06,-3.40794e-12,1.79753e-38,0,0,0,0,-3.59525,-0.058416,0.482809,0,0,0,0,0,-0.525496,-0.058416,263,-64,263,-64,391,-68,265,60,0.00344438,-0.0348889,0,-1.5,6.40901e-10,0,0,0,-0.469152,-0.0525798,0,0,0,0,0.0486031,-0.0324898,16384,-0.470902,-0.0514101,0.0486031,-0.0324898,8848,0,0,0,0,0,0
8887,-3.33315e-12,1.79765e-38,-1.61046e-06,-3.40794e-12,1.79753e-38,0,0,0,0,-3.59825,-0.0496251,0.46193,0,0,0,0,0,-0.529596,-0.0496251,263,-74,263,-74,387,-54,264,61,0.00339788,-0.0348889,0,-1.5,6.40901e-10,0,0,0,-0.461107,-0.0525396,0,0,0,0,0.0550142,-0.0334012,17112,-0.461547,-0.0522724,0.0550142,-0.0334012,8881,0,0,0,0,0,0
8912,-3.33315e-12,1.79765e-38,-1.61046e-06,-3.40794e-12,1.79753e-38,0,0,0,0,-3.59825,-0.0496251,0.46193,0,0,0,0,0,-0.529596,-0.0496251,263,-74,263,-74,387,-54,264,61,0.00339788,-0.0348889,0,-1.5,6.40901e-10,0,0,0,-0.459787,-0.0533412,0,0,0,0,0.0550142,-0.0334012,17112,-0.461547,-0.0522724,0.0550142,-0.0334012,8881,0,0,0,0,0,0
8937,-3.33315e-12,1.79765e-38,-1.61046e-06,-3.40794e-12,1.79753e-38,0,0,0,0,-3.72746,-0.0514186,0.516203,0,0,0,0,0,-0.706615,-0.0514186,263,-62,263,-62,387,-54,266,61,0.00343882,-0.0348889,0,-1.5,6.40901e-10,0,0,0,-0.494189,-0.0520706,0,0,0,0,0.0205863,-0.0325988,15376,-0.494704,-0.0512556,0.0205863,-0.0325988,8919,0,0,0,0,0,0
8960,-3.33315e-12,1.79765e-38,-1.61046e-06,-3.40794e-12,1.79753e-38,0,0,0,0,-3.7008,-0.0392232,0.492068,0,0,0,0,0,-0.670098,-0.0392232,263,-60,263,-60,387,-54,262,63,0.00301165,-0.0348889,0,-1.5,6.40901e-10,0,0,0,-0.506218,-0.0549366,0,0,0,0,0.0059282,-0.0409716,15375,-0.506355,-0.0539942,0.0059282,-0.0409716,8943,0,0,0,0,0,0
8989,-3.33315e-12,1.79765e-38,-1.61046e-06,-3.40794e-12,1.79753e-38,0,0,0,0,-3.69476,-0.0251981,0.481747,0,0,0,0,0,-0.661823,-0.0251981,260,-59,260,-59,384,-54,262,65,0.00305696,-0.0348889,0,-1.5,6.40901e-10,0,0,0,-0.530619,-0.0545964,0,0,0,0,-0.0248841,-0.0400834,15500,-0.53037,-0.0541956,-0.0248841,-0.0400834,8980,0,0,0,0,0,0
9014,-3.33315e-12,1.79765e-38,-1.61046e-06,-3.40794e-12,1.79753e-38,0,0,0,0,-3.69476,-0.0251981,0.481747,0,0,0,0,0,-0.661823,-0.0251981,260,-59,260,-59,384,-54,262,65,0.00305696,-0.0348889,0,-1.5,6.40901e-10,0,0,0,-0.531241,-0.0555985,0,0,0,0,-0.0248841,-0.0400834,15500,-0.53037,-0.0541956,-0.0248841,-0.0400834,8980,0,0,0,0,0,0
9038,-3.33315e-12,1.79765e-38,-1.61046e-06,-3.40794e-12,1.79753e-38,0,0,0,0,-3.67145,-0.0297047,0.470526,0,0,0,0,0,-0.629893,-0.0297047,260,-60,260,-60,386,-54,262,65,0.00277898,-0.0348889,0,-1.5,6.40901e-10,0,0,0,-0.532596,-0.0610627,0,0,0,0,-0.0300742,-0.0455319,15750,-0.531874,-0.0599699,-0.0300742,-0.0455319,9021,0,0,0,0,0,0
9063,-3.33315e-12,1.79765e-38,-1.61046e-06,-3.40794e-12,1.79753e-38,0,0,0,0,-3.67145,-0.0297047,0.470526,0,0,0,0,0,-0.629893,-0.0297047,260,-60,260,-60,386,-54,262,65,0.00277898,-0.0348889,0,-1.5,6.40901e-10,0,0,0,-0.533348,-0.062201,0,0,0,0,-0.0300742,-0.0455319,15750,-0.531874,-0.0599699,-0.0300742,-0.0455319,9021,0,0,0,0,0,0
9094,-3.33315e-12,1.79765e-38,-1.61046e-06,-3.40794e-12,1.79753e-38,0,0,0,0,-3.69253,-0.0368836,0.48732,0,0,0,0,0,-0.658763,-0.0368836,262,-60,262,-60,387,-54,262,63,0.00305041,-0.0348889,0,-1.5,6.40901e-10,0,0,0,-0.541383,-0.0585843,0,0,0,0,-0.0455704,-0.0402118,15375,-0.540653,-0.0579409,-0.0455704,-0.0402118,9080,0,0,0,0,0,0
9138,-3.33315e-12,1.79765e-38,-1.61046e-06,-3.40794e-12,1.79753e-38,0,0,0,0,-3.56118,-0.029592,0.458697,0,0,0,0,0,-0.478817,-0.029592,264,-60,264,-60,384,-78,262,64,0.00308608,-0.0348889,0,-1.5,6.40901e-10,0,0,0,-0.538534,-0.059851,0,0,0,0,-0.0351982,-0.0395126,17466,-0.537267,-0.0584285,-0.0351982,-0.0395126,9123,0,0,0,0,0,0
9168,-3.33315e-12,1.79765e-38,-1.61046e-06,-3.40794e-12,1.79753e-38,0,0,0,0,-3.55534,-0.0273137,0.455072,0,0,0,0,0,-0.470818,-0.0273137,260,-60,260,-60,384,-78,265,64,0.00315009,-0.0348889,0,-1.5,6.40901e-10,0,0,0,-0.539386,-0.0598949,0,0,0,0,-0.0388901,-0.038258,17750,-0.538219,-0.0587471,-0.0388901,-0.038258,9151,0,0,0,0,0,0
9192,-3.33315e-12,1.79765e-38,-1.61046e-06,-3.40794e-12,1.79753e-38,0,0,0,0,-3.60941,-0.024602,0.466737,0,0,0,0,0,-0.544897,-0.024602,260,-59,260,-59,385,-68,262,64,0.00376382,-0.0348889,0,-1.5,6.40901e-10,0,0,0,-0.540543,-0.0469472,0,0,0,0,-0.0318669,-0.0262287,16500,-0.540097,-0.04658,-0.0318669,-0.0262287,9181,0,0,0,0,0,0
9222,-3.33315e-12,1.79765e-38,-1.61046e-06,-3.40794e-12,1.79753e-38,0,0,0,0,-3.58702,-0.00935414,0.475455,0,0,0,0,0,-0.514215,-0.00935414,257,-62,257,-62,382,-71,261,61,0.00367047,-0.0348889,0,-1.5,6.40901e-10,0,0,0,-0.520784,-0.0454894,0,0,0,0,-0.00833663,-0.0280586,16896,-0.520701,-0.0452089,-0.00833663,-0.0280586,9213,0,0,0,0,0,0
9246,-3.33315e-12,1.79765e-38,-1.61046e-06,-3.40794e-12,1.79753e-38,0,0,0,0,-3.58702,-0.00935414,0.475455,0,0,0,0,0,-0.514215,-0.00935414,257,-62,257,-62,382,-71,261,61,0.00367047,-0.0348889,0,-1.5,6.40901e-10,0,0,0,-0.520984,-0.0461629,0,0,0,0,-0.00833663,-0.0280586,16896,-0.520701,-0.0452089,-0.00833663,-0.0280586,9213,0,0,0,0,0,0
9271,-3.33315e-12,1.79765e-38,-1.61046e-06,-3.40794e-12,1.79753e-38,0,0,0,0,-3.60047,-0.00195832,0.501172,0,0,0,0,0,-0.532645,-0.00195832,254,-62,254,-62,382,-73,262,60,0.00405789,-0.0348889,0,-1.5,6.40901e-10,0,0,0,-0.531064,-0.0394275,0,0,0,0,-0.0226085,-0.020465,17290,-0.530499,-0.0389159,-0.0226085,-0.020465,9253,0,0,0,0,0,0
9296,-3.33315e-12,1.79765e-38,-1.61046e-06,-3.40794e-12,1.79753e-38,0,0,0,0,-3.6107,-0.015884,0.515578,0,0,0,0,0,-0.546663,-0.015884,257,-66,257,-66,382,-73,264,60,0.00437496,-0.0348889,0,-1.5,6.40901e-10,0,0,0,-0.536646,-0.0341817,0,0,0,0,-0.0255368,-0.0142502,17024,-0.536288,-0.0339822,-0.0255368,-0.0142502,9284,0,0,0,0,0,0
9325,-3.33315e-12,1.79765e-38,-1.61046e-06,-3.40794e-12,1.79753e-38,0,0,0,0,-3.63814,-0.0293991,0.531637,0,0,0,0,0,-0.584258,-0.0293991,257,-66,257,-66,382,-73,269,60,0.00445935,-0.0348889,0,-1.5,6.40901e-10,0,0,0,-0.5462,-0.0340404,0,0,0,0,-0.0350177,-0.0125961,17157,-0.54571,-0.033864,-0.0350177,-0.0125961,9313,0,0,0,0,0,0
9344,-3.33315e-12,1.79765e-38,-1.61046e-06,-3.40794e-12,1.79753e-38,0,0,0,0,-3.63814,-0.0293991,0.531637,0,0,0,0,0,-0.584258,-0.0293991,257,-66,257,-66,382,-73,269,60,0.00445935,-0.0348889,0,-1.5,6.40901e-10,0,0,0,-0.546866,-0.0342797,0,0,0,0,-0.0350177,-0.0125961,17157,-0.54571,-0.033864,-0.0350177,-0.0125961,9313,0,0,0,0,0,0
9374,-3.33315e-12,1.79765e-38,-1.61046e-06,-3.40794e-12,1.79753e-38,0,0,0,0,-3.62116,-0.0151026,0.534883,0,0,0,0,0,-0.560983,-0.0151026,257,-66,257,-66,381,-76,265,60,0.00455687,-0.0348889,0,-1.5,6.40901e-10,0,0,0,-0.551533,-0.0328406,0,0,0,0,-0.0454354,-0.0106847,17408,-0.55017,-0.0325201,-0.0454354,-0.0106847,9357,0,0,0,0,0,0
9433,-3.33315e-12,1.79765e-38,-1.61046e-06,-3.40794e-12,1.79753e-38,0,0,0,0,-3.56593,-0.00389924,0.502073,0,0,0,0,0,-0.485318,-0.00389924,254,-66,254,-66,382,-76,262,60,0.0061703,-0.0348889,0,-1.5,6.40901e-10,0,0,0,-0.520194,-0.0206881,0,0,0,0,0.00991293,0.0209395,17816,-0.5206,-0.0215467,0.00991293,0.0209395,9419,0,0,0,0,0,0
9458,-3.33315e-12,1.79765e-38,-1.61046e-06,-3.40794e-12,1.79753e-38,0,0,0,0,-3.56659,0.00480313,0.502537,0,0,0,0,0,-0.486232,0.00480313,254,-66,254,-66,381,-76,260,60,0.00663621,-0.0348889,0,-1.5,6.40901e-10,0,0,0,-0.499907,-0.0156289,0,0,0,0,0.0638391,0.0300716,17680,-0.50061,-0.0159597,0.0638391,0.0300716,9449,0,0,0,0,0,0
9488,-3.33315e-12,1.79765e-38,-1.61046e-06,-3.40794e-12,1.79753e-38,0,0,0,0,-3.56532,0.000458444,0.501784,0,0,0,0,0,-0.484488,0.000458444,254,-66,254,-66,381,-76,261,60,0.00865568,-0.0348889,0,-1.5,6.40901e-10,0,0,0,-0.505215,-0.00236566,0,0,0,0,0.0295244,0.0696555,17816,-0.505451,-0.00292289,0.0295244,0.0696555,9482,0,0,0,0,0,0
9513,-3.33315e-12,1.79765e-38,-1.61046e-06,-3.40794e-12,1.79753e-38,0,0,0,0,-3.56532,0.000458444,0.501784,0,0,0,0,0,-0.484488,0.000458444,254,-66,254,-66,381,-76,261,60,0.00865568,-0.0348889,0,-1.5,6.40901e-10,0,0,0,-0.504477,-0.000624261,0,0,0,0,0.0295244,0.0696555,17816,-0.505451,-0.00292289,0.0295244,0.0696555,9482,0,0,0,0,0,0
9537,-3.33315e-12,1.79765e-38,-1.61046e-06,-3.40794e-12,1.79753e-38,0,0,0,0,-3.5576,0.00264193,0.497242,0,0,0,0,0,-0.473916,0.00264193,254,-66,254,-66,381,-76,260,60,0.00904589,-0.0348889,0,-1.5,6.40901e-10,0,0,0,-0.504657,0.00467719,0,0,0,0,0.0285103,0.0773043,17816,-0.505369,0.00274457,0.0285103,0.0773043,9520,0,0,0,0,0,0
9568,-3.33315e-12,1.79765e-38,-1.61046e-06,-3.40794e-12,1.79753e-38,0,0,0,0,-3.57291,-0.00173632,0.50625,0,0,0,0,0,-0.494884,-0.00173632,254,-66,254,-66,381,-76,262,60,0.00952963,-0.0348889,0,-1.5,6.40901e-10,0,0,0,-0.502194,0.00872962,0,0,0,0,0.0303038,0.0867863,17816,-0.503103,0.00612602,0.0303038,0.0867863,9550,0,0,0,0,0,0
9592,-3.33315e-12,1.79765e-38,-1.61046e-06,-3.40794e-12,1.79753e-38,0,0,0,0,-3.56532,0.000458444,0.501784,0,0,0,0,0,-0.484488,0.000458444,254,-66,254,-66,381,-76,261,60,0.00978707,-0.0348889,0,-1.5,6.40901e-10,0,0,0,-0.510475,0.0119529,0,0,0,0,0.00204811,0.0918326,17816,-0.510502,0.0107591,0.00204811,0.0918326,9581,0,0,0,0,0,0
9622,-3.33315e-12,1.79765e-38,-1.61046e-06,-3.40794e-12,1.79753e-38,0,0,0,0,-3.57803,-0.00161024,0.511603,0,0,0,0,0,-0.501903,-0.00161024,254,-66,254,-66,381,-76,262,60,0.00970114,-0.0348889,0,-1.5,6.40901e-10,0,0,0,-0.50232,0.013301,0,0,0,0,0.0254092,0.0901483,17816,-0.502523,0.0125799,0.0254092,0.0901483,9615,0,0,0,0,0,0
9641,-3.33315e-12,1.79765e-38,-1.61046e-06,-3.40794e-12,1.79753e-38,0,0,0,0,-3.57803,-0.00161024,0.511603,0,0,0,0,0,-0.501903,-0.00161024,254,-66,254,-66,381,-76,262,60,0.00970114,-0.0348889,0,-1.5,6.40901e-10,0,0,0,-0.501837,0.0150139,0,0,0,0,0.0254092,0.0901483,17816,-0.502523,0.0125799,0.0254092,0.0901483,9615,0,0,0,0,0,0
9659,-3.33315e-12,1.79765e-38,-1.61046e-06,-3.40794e-12,1.79753e-38,0,0,0,0,-3.57803,-0.00161024,0.511603,0,0,0,0,0,-0.501903,-0.00161024,254,-66,254,-66,381,-76,262,60,0.00970114,-0.0348889,0,-1.5,6.40901e-10,0,0,0,-0.501355,0.0167267,0,0,0,0,0.0254092,0.0901483,17816,-0.502523,0.0125799,0.0254092,0.0901483,9615,0,0,0,0,0,0
9706,-3.33315e-12,1.79765e-38,-1.61046e-06,-3.40794e-12,1.79753e-38,0,0,0,0,-3.60046,0.00239191,0.527377,0,0,0,0,0,-0.532626,0.00239191,254,-66,254,-66,379,-76,262,58,0.00966843,-0.0348889,0,-1.5,6.40901e-10,0,0,0,-0.497638,0.0201112,0,0,0,0,0.0264187,0.0895071,17554,-0.498536,0.0170679,0.0264187,0.0895071,9691,0,0,0,0,0,0
9737,-3.33315e-12,1.79765e-38,-1.61046e-06,-3.40794e-12,1.79753e-38,0,0,0,0,-3.59795,-0.00601276,0.549589,0,0,0,0,0,-0.529188,-0.00601276,257,-69,257,-69,380,-80,262,57,0.0095529,-0.0348889,0,-1.5,6.40901e-10,0,0,0,-0.500396,0.0214793,0,0,0,0,0.027327,0.0872425,17536,-0.501271,0.0186876,0.027327,0.0872425,9720,0,0,0,0,0,0
9762,-3.33315e-12,1.79765e-38,-1.61046e-06,-3.40794e-12,1.79753e-38,0,0,0,0,-3.58803,-0.00819524,0.543381,0,0,0,0,0,-0.515599,-0.00819524,254,-69,254,-69,381,-80,265,57,0.00910063,-0.0348889,0,-1.5,6.40901e-10,0,0,0,-0.500186,0.017695,0,0,0,0,0.0278029,0.0783773,17947,-0.500853,0.015814,0.0278029,0.0783773,9745,0,0,0,0,0,0
9786,-3.33315e-12,1.79765e-38,-1.61046e-06,-3.40794e-12,1.79753e-38,0,0,0,0,-3.58803,-0.00819524,0.543381,0,0,0,0,0,-0.515599,-0.00819524,254,-69,254,-69,381,-80,265,57,0.00910063,-0.0348889,0,-1.5,6.40901e-10,0,0,0,-0.499491,0.0196545,0,0,0,0,0.0278029,0.0783773,17947,-0.500853,0.015814,0.0278029,0.0783773,9745,0,0,0,0,0,0
9811,-3.33315e-12,1.79765e-38,-1.61046e-06,-3.40794e-12,1.79753e-38,0,0,0,0,-3.58803,-0.00819524,0.543381,0,0,0,0,0,-0.515599,-0.00819524,254,-69,254,-69,381,-80,265,57,0.00910063,-0.0348889,0,-1.5,6.40901e-10,0,0,0,-0.498824,0.0215355,0,0,0,0,0.0278029,0.0783773,17947,-0.500853,0.015814,0.0278029,0.0783773,9745,0,0,0,0,0,0
9830,-3.33315e-12,1.79765e-38,-1.61046e-06,-3.40794e-12,1.79753e-38,0,0,0,0,-3.58803,-0.00819524,0.543381,0,0,0,0,0,-0.515599,-0.00819524,254,-69,254,-69,381,-80,265,57,0.00910063,-0.0348889,0,-1.5,6.40901e-10,0,0,0,-0.498295,0.0230246,0,0,0,0,0.0278029,0.0783773,17947,-0.500853,0.015814,0.0278029,0.0783773,9745,0,0,0,0,0,0
9855,-3.33315e-12,1.79765e-38,-1.61046e-06,-3.40794e-12,1.79753e-38,0,0,0,0,-3.58803,-0.00819524,0.543381,0,0,0,0,0,-0.515599,-0.00819524,254,-69,254,-69,381,-80,265,57,0.00910063,-0.0348889,0,-1.5,6.40901e-10,0,0,0,-0.497573,0.0250623,0,0,0,0,0.0278029,0.0783773,17947,-0.500853,0.015814,0.0278029,0.0783773,9745,0,0,0,0,0,0
9874,-3.33315e-12,1.79765e-38,-1.61046e-06,-3.40794e-12,1.79753e-38,0,0,0,0,-3.58803,-0.00819524,0.543381,0,0,0,0,0,-0.515599,-0.00819524,254,-69,254,-69,381,-80,265,57,0.00910063,-0.0348889,0,-1.5,6.40901e-10,0,0,0,-0.497044,0.0265514,0,0,0,0,0.0278029,0.0783773,17947,-0.500853,0.015814,0.0278029,0.0783773,9745,0,0,0,0,0,0
9899,-3.33315e-12,1.79765e-38,-1.61046e-06,-3.40794e-12,1.79753e-38,0,0,0,0,-3.58803,-0.00819524,0.543381,0,0,0,0,0,-0.515599,-0.00819524,254,-69,254,-69,381,-80,265,57,0.00910063,-0.0348889,0,-1.5,6.40901e-10,0,0,0,-0.496349,0.0285108,0,0,0,0,0.0278029,0.0783773,17947,-0.500853,0.015814,0.0278029,0.0783773,9745,0,0,0,0,0,0
9924,-3.33315e-12,1.79765e-38,-1.61046e-06,-3.40794e-12,1.79753e-38,0,0,0,0,-3.58803,-0.00819524,0.543381,0,0,0,0,0,-0.515599,-0.00819524,254,-69,254,-69,381,-80,265,57,0.00910063,-0.0348889,0,-1.5,6.40901e-10,0,0,0,-0.495682,0.0303917,0,0,0,0,0.0278029,0.0783773,17947,-0.500853,0.015814,0.0278029,0.0783773,9745,0,0,0,0,0,0
9961,-3.33315e-12,1.79765e-38,-1.61046e-06,-3.40794e-12,1.79753e-38,0,0,0,0,-3.58803,-0.00819524,0.543381,0,0,0,0,0,-0.515599,-0.00819524,254,-69,254,-69,381,-80,265,57,0.00910063,-0.0348889,0,-1.5,6.40901e-10,0,0,0,-0.494653,0.0332916,0,0,0,0,0.0278029,0.0783773,17947,-0.500853,0.015814,0.0278029,0.0783773,9745,0,0,0,0,0,0
9980,-3.33315e-12,1.79765e-38,-1.61046e-06,-3.40794e-12,1.79753e-38,0,0,0,0,-3.58803,-0.00819524,0.543381,0,0,0,0,0,-0.515599,-0.00819524,254,-69,254,-69,381,-80,265,57,0.00910063,-0.0348889,0,-1.5,6.40901e-10,0,0,0,-0.494125,0.0347807,0,0,0,0,0.0278029,0.0783773,17947,-0.500853,0.015814,0.0278029,0.0783773,9745,0,0,0,0,0,0
10004,-3.33315e-12,1.79765e-38,-1.61046e-06,-3.40794e-12,1.79753e-38,0,0,0,0,-3.58803,-0.00819524,0.543381,0,0,0,0,0,-0.515599,-0.00819524,254,-69,254,-69,381,-80,265,57,0.00910063,-0.0348889,0,-1.5,6.40901e-10,0,0,0,-0.493458,0.0366617,0,0,0,0,0.0278029,0.0783773,17947,-0.500853,0.015814,0.0278029,0.0783773,9745,0,0,0,0,0,0
10024,-3.33315e-12,1.79765e-38,-1.61046e-06,-3.40794e-12,1.79753e-38,0,0,0,0,-3.58803,-0.00819524,0.543381,0,0,0,0,0,-0.515599,-0.00819524,254,-69,254,-69,381,-80,265,57,0.00910063,-0.0348889,0,-1.5,6.40901e-10,0,0,0,-0.492902,0.0382292,0,0,0,0,0.0278029,0.0783773,17947,-0.500853,0.015814,0.0278029,0.0783773,9745,0,0,0,0,0,0
10050,-3.33315e-12,1.79765e-38,-1.61046e-06,-3.40794e-12,1.79753e-38,0,0,0,0,-3.58803,-0.00819524,0.543381,0,0,0,0,0,-0.515599,-0.00819524,254,-69,254,-69,381,-80,265,57,0.00910063,-0.0348889,0,-1.5,6.40901e-10,0,0,0,-0.492179,0.040267,0,0,0,0,0.0278029,0.0783773,17947,-0.500853,0.015814,0.0278029,0.0783773,9745,0,0,0,0,0,0
10072,-3.33315e-12,1.79765e-38,-1.61046e-06,-3.40794e-12,1.79753e-38,0,0,0,0,-3.58803,-0.00819524,0.543381,0,0,0,0,0,-0.515599,-0.00819524,254,-69,254,-69,381,-80,265,57,0.00910063,-0.0348889,0,-1.5,6.40901e-10,0,0,0,-0.491567,0.0419913,0,0,0,0,0.0278029,0.0783773,17947,-0.500853,0.015814,0.0278029,0.0783773,9745,0,0,0,0,0,0
10089,-3.33315e-12,1.79765e-38,-1.61046e-06,-3.40794e-12,1.79753e-38,0,0,0,0,-3.58803,-0.00819524,0.543381,0,0,0,0,0,-0.515599,-0.00819524,254,-69,254,-69,381,-80,265,57,0.00910063,-0.0348889,0,-1.5,6.40901e-10,0,0,0,-0.491095,0.0433236,0,0,0,0,0.0278029,0.0783773,17947,-0.500853,0.015814,0.0278029,0.0783773,9745,0,0,0,0,0,0
10114,-3.33315e-12,1.79765e-38,-1.61046e-06,-3.40794e-12,1.79753e-38,0,0,0,0,-3.58803,-0.00819524,0.543381,0,0,0,0,0,-0.515599,-0.00819524,254,-69,254,-69,381,-80,265,57,0.00910063,-0.0348889,0,-1.5,6.40901e-10,0,0,0,-0.4904,0.045283,0,0,0,0,0.0278029,0.0783773,17947,-0.500853,0.015814,0.0278029,0.0783773,9745,0,0,0,0,0,0
10133,-3.33315e-12,1.79765e-38,-1.61046e-06,-3.40794e-12,1.79753e-38,0,0,0,0,-3.58803,-0.00819524,0.543381,0,0,0,0,0,-0.515599,-0.00819524,254,-69,254,-69,381,-80,265,57,0.00910063,-0.0348889,0,-1.5,6.40901e-10,0,0,0,-0.489871,0.0467721,0,0,0,0,0.0278029,0.0783773,17947,-0.500853,0.015814,0.0278029,0.0783773,9745,0,0,0,0,0,0
10163,-3.33315e-12,1.79765e-38,-1.61046e-06,-3.40794e-12,1.79753e-38,0,0,0,0,-3.53119,-0.0183953,0.522789,0,0,0,0,0,-0.437725,-0.0183953,257,-78,257,-78,384,-80,264,57,0.0084908,-0.0348889,0,-1.5,6.40901e-10,0,0,0,-0.467617,0.0400383,0,0,0,0,0.0515491,0.0664237,17399,-0.469164,0.0380456,0.0515491,0.0664237,10145,0,0,0,0,0,0
10205,-3.33315e-12,1.79765e-38,-1.61046e-06,-3.40794e-12,1.79753e-38,0,0,0,0,-3.53119,-0.0183953,0.522789,0,0,0,0,0,-0.437725,-0.0183953,257,-78,257,-78,384,-80,264,57,0.0084908,-0.0348889,0,-1.5,6.40901e-10,0,0,0,-0.465401,0.0428945,0,0,0,0,0.0515491,0.0664237,17399,-0.469164,0.0380456,0.0515491,0.0664237,10145,0,0,0,0,0,0
10227,-3.33315e-12,1.79765e-38,-1.61046e-06,-3.40794e-12,1.79753e-38,0,0,0,0,-3.54865,-0.0167815,0.516039,0,0,0,0,0,-0.461649,-0.0167815,256,-67,256,-67,381,-80,262,55,0.00791196,-0.0348889,0,-1.5,6.40901e-10,0,0,0,-0.461364,0.0327721,0,0,0,0,0.0529964,0.0550777,18090,-0.462053,0.0320562,0.0529964,0.0550777,10215,0,0,0,0,0,0
10256,-3.33315e-12,1.79765e-38,-1.61046e-06,-3.40794e-12,1.79753e-38,0,0,0,0,-3.51271,-0.0136924,0.509187,0,0,0,0,0,-0.412413,-0.0136924,254,-68,254,-68,381,-83,262,55,0.00752557,-0.0348889,0,-1.5,6.40901e-10,0,0,0,-0.426514,0.0283708,0,0,0,0,0.101702,0.047504,18906,-0.427633,0.0278483,0.101702,0.047504,10248,0,0,0,0,0,0
10276,-3.33315e-12,1.79765e-38,-1.61046e-06,-3.40794e-12,1.79753e-38,0,0,0,0,-3.51271,-0.0136924,0.509187,0,0,0,0,0,-0.412413,-0.0136924,254,-68,254,-68,381,-83,262,55,0.00752557,-0.0348889,0,-1.5,6.40901e-10,0,0,0,-0.424582,0.0292733,0,0,0,0,0.101702,0.047504,18906,-0.427633,0.0278483,0.101702,0.047504,10248,0,0,0,0,0,0
10300,-3.33315e-12,1.79765e-38,-1.61046e-06,-3.40794e-12,1.79753e-38,0,0,0,0,-3.60287,-0.0206028,0.570279,0,0,0,0,0,-0.535933,-0.0206028,254,-71,254,-71,382,-74,263,50,0.00680653,-0.0348889,0,-1.5,6.40901e-10,0,0,0,-0.434307,0.0133233,0,0,0,0,0.0953306,0.0334101,16988,-0.436595,0.0125214,0.0953306,0.0334101,10282,0,0,0,0,0,0
10330,-3.33315e-12,1.79765e-38,-1.61046e-06,-3.40794e-12,1.79753e-38,0,0,0,0,-3.61622,-0.0257921,0.633082,0,0,0,0,0,-0.554228,-0.0257921,254,-78,254,-78,381,-81,266,42,0.00622508,-0.0348889,0,-1.5,6.40901e-10,0,0,0,-0.440217,0.00461329,0,0,0,0,0.0910391,0.0220131,16851,-0.441673,0.00426109,0.0910391,0.0220131,10316,0,0,0,0,0,0
10361,-3.33315e-12,1.79765e-38,-1.61046e-06,-3.40794e-12,1.79753e-38,0,0,0,0,-3.46875,-0.0134621,0.62782,0,0,0,0,0,-0.35219,-0.0134621,253,-89,253,-89,382,-99,262,42,0.00523455,-0.0348889,0,-1.5,6.40901e-10,0,0,0,-0.413967,-0.0129871,0,0,0,0,0.117395,0.00259812,19458,-0.415962,-0.0130312,0.117395,0.00259812,10346,0,0,0,0,0,0
10380,-3.33315e-12,1.79765e-38,-1.61046e-06,-3.40794e-12,1.79753e-38,0,0,0,0,-3.46875,-0.0134621,0.62782,0,0,0,0,0,-0.35219,-0.0134621,253,-89,253,-89,382,-99,262,42,0.00523455,-0.0348889,0,-1.5,6.40901e-10,0,0,0,-0.411736,-0.0129377,0,0,0,0,0.117395,0.00259812,19458,-0.415962,-0.0130312,0.117395,0.00259812,10346,0,0,0,0,0,0
10405,-3.33315e-12,1.79765e-38,-1.61046e-06,-3.40794e-12,1.79753e-38,0,0,0,0,-3.46875,-0.0134621,0.62782,0,0,0,0,0,-0.35219,-0.0134621,253,-89,253,-89,382,-99,262,42,0.00523455,-0.0348889,0,-1.5,6.40901e-10,0,0,0,-0.408801,-0.0128728,0,0,0,0,0.117395,0.00259812,19458,-0.415962,-0.0130312,0.117395,0.00259812,10346,0,0,0,0,0,0
10424,-3.33315e-12,1.79765e-38,-1.61046e-06,-3.40794e-12,1.79753e-38,0,0,0,0,-3.46875,-0.0134621,0.62782,0,0,0,0,0,-0.35219,-0.0134621,253,-89,253,-89,382,-99,262,42,0.00523455,-0.0348889,0,-1.5,6.40901e-10,0,0,0,-0.406571,-0.0128234,0,0,0,0,0.117395,0.00259812,19458,-0.415962,-0.0130312,0.117395,0.00259812,10346,0,0,0,0,0,0
10467,-3.33315e-12,1.79765e-38,-1.61046e-06,-3.40794e-12,1.79753e-38,0,0,0,0,-3.46875,-0.0134621,0.62782,0,0,0,0,0,-0.35219,-0.0134621,253,-89,253,-89,382,-99,262,42,0.00523455,-0.0348889,0,-1.5,6.40901e-10,0,0,0,-0.401523,-0.0127117,0,0,0,0,0.117395,0.00259812,19458,-0.415962,-0.0130312,0.117395,0.00259812,10346,0,0,0,0,0,0
10486,-3.33315e-12,1.79765e-38,-1.61046e-06,-3.40794e-12,1.79753e-38,0,0,0,0,-3.46875,-0.0134621,0.62782,0,0,0,0,0,-0.35219,-0.0134621,253,-89,253,-89,382,-99,262,42,0.00523455,-0.0348889,0,-1.5,6.40901e-10,0,0,0,-0.399175,-0.0126597,0,0,0,0,0.117395,0.00259812,19458,-0.415962,-0.0130312,0.117395,0.00259812,10346,0,0,0,0,0,0
10506,-3.33315e-12,1.79765e-38,-1.61046e-06,-3.40794e-12,1.79753e-38,0,0,0,0,-3.46875,-0.0134621,0.62782,0,0,0,0,0,-0.35219,-0.0134621,253,-89,253,-89,382,-99,262,42,0.00523455,-0.0348889,0,-1.5,6.40901e-10,0,0,0,-0.396945,-0.0126104,0,0,0,0,0.117395,0.00259812,19458,-0.415962,-0.0130312,0.117395,0.00259812,10346,0,0,0,0,0,0
10525,-3.33315e-12,1.79765e-38,-1.61046e-06,-3.40794e-12,1.79753e-38,0,0,0,0,-3.46875,-0.0134621,0.62782,0,0,0,0,0,-0.35219,-0.0134621,253,-89,253,-89,382,-99,262,42,0.00523455,-0.0348889,0,-1.5,6.40901e-10,0,0,0,-0.394714,-0.012561,0,0,0,0,0.117395,0.00259812,19458,-0.415962,-0.0130312,0.117395,0.00259812,10346,0,0,0,0,0,0
10544,-3.33315e-12,1.79765e-38,-1.61046e-06,-3.40794e-12,1.79753e-38,0,0,0,0,-3.46875,-0.0134621,0.62782,0,0,0,0,0,-0.35219,-0.0134621,253,-89,253,-89,382,-99,262,42,0.00523455,-0.0348889,0,-1.5,6.40901e-10,0,0,0,-0.392484,-0.0125116,0,0,0,0,0.117395,0.00259812,19458,-0.415962,-0.0130312,0.117395,0.00259812,10346,0,0,0,0,0,0
10563,-3.33315e-12,1.79765e-38,-1.61046e-06,-3.40794e-12,1.79753e-38,0,0,0,0,-3.46875,-0.0134621,0.62782,0,0,0,0,0,-0.35219,-0.0134621,253,-89,253,-89,382,-99,262,42,0.00523455,-0.0348889,0,-1.5,6.40901e-10,0,0,0,-0.390136,-0.0124597,0,0,0,0,0.117395,0.00259812,19458,-0.415962,-0.0130312,0.117395,0.00259812,10346,0,0,0,0,0,0
10583,-3.33315e-12,1.79765e-38,-1.61046e-06,-3.40794e-12,1.79753e-38,0,0,0,0,-3.46875,-0.0134621,0.62782,0,0,0,0,0,-0.35219,-0.0134621,253,-89,253,-89,382,-99,262,42,0.00523455,-0.0348889,0,-1.5,6.40901e-10,0,0,0,-0.387906,-0.0124103,0,0,0,0,0.117395,0.00259812,19458,-0.415962,-0.0130312,0.117395,0.00259812,10346,0,0,0,0,0,0
10602,-3.33315e-12,1.79765e-38,-1.61046e-06,-3.40794e-12,1.79753e-38,0,0,0,0,-3.46875,-0.0134621,0.62782,0,0,0,0,0,-0.35219,-0.0134621,253,-89,253,-89,382,-99,262,42,0.00523455,-0.0348889,0,-1.5,6.40901e-10,0,0,0,-0.385676,-0.0123609,0,0,0,0,0.117395,0.00259812,19458,-0.415962,-0.0130312,0.117395,0.00259812,10346,0,0,0,0,0,0
10621,-3.33315e-12,1.79765e-38,-1.61046e-06,-3.40794e-12,1.79753e-38,0,0,0,0,-3.46875,-0.0134621,0.62782,0,0,0,0,0,-0.35219,-0.0134621,253,-89,253,-89,382,-99,262,42,0.00523455,-0.0348889,0,-1.5,6.40901e-10,0,0,0,-0.383445,-0.0123116,0,0,0,0,0.117395,0.00259812,19458,-0.415962,-0.0130312,0.117395,0.00259812,10346,0,0,0,0,0,0
10640,-3.33315e-12,1.79765e-38,-1.61046e-06,-3.40794e-12,1.79753e-38,0,0,0,0,-3.46875,-0.0134621,0.62782,0,0,0,0,0,-0.35219,-0.0134621,253,-89,253,-89,382,-99,262,42,0.00523455,-0.0348889,0,-1.5,6.40901e-10,0,0,0,-0.381097,-0.0122596,0,0,0,0,0.117395,0.00259812,19458,-0.415962,-0.0130312,0.117395,0.00259812,10346,0,0,0,0,0,0
10688,-3.33315e-12,1.79765e-38,-1.61046e-06,-3.40794e-12,1.79753e-38,0,0,0,0,-3.46875,-0.0134621,0.62782,0,0,0,0,0,-0.35219,-0.0134621,253,-89,253,-89,382,-99,262,42,0.00523455,-0.0348889,0,-1.5,6.40901e-10,0,0,0,-0.37558,-0.0121375,0,0,0,0,0.117395,0.00259812,19458,-0.415962,-0.0130312,0.117395,0.00259812,10346,0,0,0,0,0,0
10708,-3.33315e-12,1.79765e-38,-1.61046e-06,-3.40794e-12,1.79753e-38,0,0,0,0,-3.46875,-0.0134621,0.62782,0,0,0,0,0,-0.35219,-0.0134621,253,-89,253,-89,382,-99,262,42,0.00523455,-0.0348889,0,-1.5,6.40901e-10,0,0,0,-0.373232,-0.0120856,0,0,0,0,0.117395,0.00259812,19458,-0.415962,-0.0130312,0.117395,0.00259812,10346,0,0,0,0,0,0
10728,-3.33315e-12,1.79765e-38,-1.61046e-06,-3.40794e-12,1.79753e-38,0,0,0,0,-3.46875,-0.0134621,0.62782,0,0,0,0,0,-0.35219,-0.0134621,253,-89,253,-89,382,-99,262,42,0.00523455,-0.0348889,0,-1.5,6.40901e-10,0,0,0,-0.370884,-0.0120336,0,0,0,0,0.117395,0.00259812,19458,-0.415962,-0.0130312,0.117395,0.00259812,10346,0,0,0,0,0,0
10747,-3.33315e-12,1.79765e-38,-1.61046e-06,-3.40794e-12,1.79753e-38,0,0,0,0,-3.46875,-0.0134621,0.62782,0,0,0,0,0,-0.35219,-0.0134621,253,-89,253,-89,382,-99,262,42,0.00523455,-0.0348889,0,-1.5,6.40901e-10,0,0,0,-0.368654,-0.0119842,0,0,0,0,0.117395,0.00259812,19458,-0.415962,-0.0130312,0.117395,0.00259812,10346,0,0,0,0,0,0
10766,-3.33315e-12,1.79765e-38,-1.61046e-06,-3.40794e-12,1.79753e-38,0,0,0,0,-3.46875,-0.0134621,0.62782,0,0,0,0,0,-0.35219,-0.0134621,253,-89,253,-89,382,-99,262,42,0.00523455,-0.0348889,0,-1.5,6.40901e-10,0,0,0,-0.366423,-0.0119349,0,0,0,0,0.117395,0.00259812,19458,-0.415962,-0.0130312,0.117395,0.00259812,10346,0,0,0,0,0,0
10786,-3.33315e-12,1.79765e-38,-1.61046e-06,-3.40794e-12,1.79753e-38,0,0,0,0,-3.46875,-0.0134621,0.62782,0,0,0,0,0,-0.35219,-0.0134621,253,-89,253,-89,382,-99,262,42,0.00523455,-0.0348889,0,-1.5,6.40901e-10,0,0,0,-0.364076,-0.0118829,0,0,0,0,0.117395,0.00259812,19458,-0.415962,-0.0130312,0.117395,0.00259812,10346,0,0,0,0,0,0
10805,-3.33315e-12,1.79765e-38,-1.61046e-06,-3.40794e-12,1.79753e-38,0,0,0,0,-3.46875,-0.0134621,0.62782,0,0,0,0,0,-0.35219,-0.0134621,253,-89,253,-89,382,-99,262,42,0.00523455,-0.0348889,0,-1.5,6.40901e-10,0,0,0,-0.361845,-0.0118335,0,0,0,0,0.117395,0.00259812,19458,-0.415962,-0.0130312,0.117395,0.00259812,10346,0,0,0,0,0,0
10824,-3.33315e-12,1.79765e-38,-1.61046e-06,-3.40794e-12,1.79753e-38,0,0,0,0,-3.46875,-0.0134621,0.62782,0,0,0,0,0,-0.35219,-0.0134621,253,-89,253,-89,382,-99,262,42,0.00523455,-0.0348889,0,-1.5,6.40901e-10,0,0,0,-0.359615,-0.0117842,0,0,0,0,0.117395,0.00259812,19458,-0.415962,-0.0130312,0.117395,0.00259812,10346,0,0,0,0,0,0
10843,-3.33315e-12,1.79765e-38,-1.61046e-06,-3.40794e-12,1.79753e-38,0,0,0,0,-3.46875,-0.0134621,0.62782,0,0,0,0,0,-0.35219,-0.0134621,253,-89,253,-89,382,-99,262,42,0.00523455,-0.0348889,0,-1.5,6.40901e-10,0,0,0,-0.357384,-0.0117348,0,0,0,0,0.117395,0.00259812,19458,-0.415962,-0.0130312,0.117395,0.00259812,10346,0,0,0,0,0,0
10863,-3.33315e-12,1.79765e-38,-1.61046e-06,-3.40794e-12,1.79753e-38,0,0,0,0,-3.46875,-0.0134621,0.62782,-0.355041,-0.011683,0.116751,0.00258386,0,-0.35219,-0.0134621,253,-89,253,-89,382,-99,262,42,0.00523382,-0.0348889,0,-1.5,6.40901e-10,0,0,0,-0.355041,-0.011683,0,0,0,0,0.116751,0.00258386,19458,0,0,0,0,10346,0,0,0,0,0,0
10900,-3.33315e-12,1.79765e-38,-1.61046e-06,-3.40794e-12,1.79753e-38,0,0,0,0,-3.46875,-0.0134621,0.62782,-0.350776,-0.0115886,0.114603,0.00253634,0,-0.35219,-0.0134621,253,-89,253,-89,382,-99,262,42,0.0052314,-0.0348889,0,-1.5,6.40901e-10,0,0,0,-0.350776,-0.0115886,0,0,0,0,0.114603,0.00253634,19458,0,0,0,0,10346,0,0,0,0,0,0
10919,-3.33315e-12,1.79765e-38,-1.61046e-06,-3.40794e-12,1.79753e-38,0,0,0,0,-3.46875,-0.0134621,0.62782,-0.348612,-0.0115407,0.113518,0.00251232,0,-0.35219,-0.0134621,253,-89,253,-89,382,-99,262,42,0.00523017,-0.0348889,0,-1.5,6.40901e-10,0,0,0,-0.348612,-0.0115407,0,0,0,0,0.113518,0.00251232,19458,0,0,0,0,10346,0,0,0,0,0,0
10938,-3.33315e-12,1.79765e-38,-1.61046e-06,-3.40794e-12,1.79753e-38,0,0,0,0,-3.46875,-0.0134621,0.62782,-0.346356,-0.0114907,0.112387,0.0024873,0,-0.35219,-0.0134621,253,-89,253,-89,382,-99,262,42,0.0052289,-0.0348889,0,-1.5,6.40901e-10,0,0,0,-0.346356,-0.0114907,0,0,0,0,0.112387,0.0024873,19458,0,0,0,0,10346,0,0,0,0,0,0
10958,-3.33315e-12,1.79765e-38,-1.61046e-06,-3.40794e-12,1.79753e-38,0,0,0,0,-3.46875,-0.0134621,0.62782,-0.344122,-0.0114413,0.111268,0.00246252,0,-0.35219,-0.0134621,253,-89,253,-89,382,-99,262,42,0.00522763,-0.0348889,0,-1.5,6.40901e-10,0,0,0,-0.344122,-0.0114413,0,0,0,0,0.111268,0.00246252,19458,0,0,0,0,10346,0,0,0,0,0,0
10977,-3.33315e-12,1.79765e-38,-1.61046e-06,-3.40794e-12,1.79753e-38,0,0,0,0,-3.46875,-0.0134621,0.62782,-0.34202,-0.0113948,0.110214,0.00243921,0,-0.35219,-0.0134621,253,-89,253,-89,382,-99,262,42,0.00522644,-0.0348889,0,-1.5,6.40901e-10,0,0,0,-0.34202,-0.0113948,0,0,0,0,0.110214,0.00243921,19458,0,0,0,0,10346,0,0,0,0,0,0
10997,-3.33315e-12,1.79765e-38,-1.61046e-06,-3.40794e-12,1.79753e-38,0,0,0,0,-3.46875,-0.0134621,0.62782,-0.339939,-0.0113487,0.109171,0.00241612,0,-0.35219,-0.0134621,253,-89,253,-89,382,-99,262,42,0.00522526,-0.0348889,0,-1.5,6.40901e-10,0,0,0,-0.339939,-0.0113487,0,0,0,0,0.109171,0.00241612,19458,0,0,0,0,10346,0,0,0,0,0,0
11017,-3.33315e-12,1.79765e-38,-1.61046e-06,-3.40794e-12,1.79753e-38,0,0,0,0,-3.46875,-0.0134621,0.62782,-0.337769,-0.0113007,0.108083,0.00239204,0,-0.35219,-0.0134621,253,-89,253,-89,382,-99,262,42,0.00522404,-0.0348889,0,-1.5,6.40901e-10,0,0,0,-0.337769,-0.0113007,0,0,0,0,0.108083,0.00239204,19458,0,0,0,0,10346,0,0,0,0,0,0
11036,-3.33315e-12,1.79765e-38,-1.61046e-06,-3.40794e-12,1.79753e-38,0,0,0,0,-3.46875,-0.0134621,0.62782,-0.335728,-0.0112555,0.10706,0.0023694,0,-0.35219,-0.0134621,253,-89,253,-89,382,-99,262,42,0.00522288,-0.0348889,0,-1.5,6.40901e-10,0,0,0,-0.335728,-0.0112555,0,0,0,0,0.10706,0.0023694,19458,0,0,0,0,10346,0,0,0,0,0,0
11056,-3.33315e-12,1.79765e-38,-1.61046e-06,-3.40794e-12,1.79753e-38,0,0,0,0,-3.46875,-0.0134621,0.62782,-0.3336,-0.0112084,0.105993,0.00234579,0,-0.35219,-0.0134621,253,-89,253,-89,382,-99,262,42,0.00522168,-0.0348889,0,-1.5,6.40901e-10,0,0,0,-0.3336,-0.0112084,0,0,0,0,0.105993,0.00234579,19458,0,0,0,0,10346,0,0,0,0,0,0
11075,-3.33315e-12,1.79765e-38,-1.61046e-06,-3.40794e-12,1.79753e-38,0,0,0,0,-3.46875,-0.0134621,0.62782,-0.331598,-0.0111641,0.10499,0.00232358,0,-0.35219,-0.0134621,253,-89,253,-89,382,-99,262,42,0.00522054,-0.0348889,0,-1.5,6.40901e-10,0,0,0,-0.331598,-0.0111641,0,0,0,0,0.10499,0.00232358,19458,0,0,0,0,10346,0,0,0,0,0,0
11121,-3.33315e-12,1.79765e-38,-1.61046e-06,-3.40794e-12,1.79753e-38,0,0,0,0,-3.46875,-0.0134621,0.62782,-0.32685,-0.0110591,0.10259,0.00227047,0,-0.35219,-0.0134621,253,-89,253,-89,382,-99,262,42,0.00521783,-0.0348889,0,-1.5,6.40901e-10,0,0,0,-0.32685,-0.0110591,0,0,0,0,0.10259,0.00227047,19458,0,0,0,0,10346,0,0,0,0,0,0
11141,-3.33315e-12,1.79765e-38,-1.61046e-06,-3.40794e-12,1.79753e-38,0,0,0,0,-3.46875,-0.0134621,0.62782,-0.324811,-0.0110139,0.101568,0.00224784,0,-0.35219,-0.0134621,253,-89,253,-89,382,-99,262,42,0.00521668,-0.0348889,0,-1.5,6.40901e-10,0,0,0,-0.324811,-0.0110139,0,0,0,0,0.101568,0.00224784,19458,0,0,0,0,10346,0,0,0,0,0,0
11159,-3.33315e-12,1.79765e-38,-1.61046e-06,-3.40794e-12,1.79753e-38,0,0,0,0,-3.46875,-0.0134621,0.62782,-0.322993,-0.0109737,0.100657,0.00222768,0,-0.35219,-0.0134621,253,-89,253,-89,382,-99,262,42,0.00521565,-0.0348889,0,-1.5,6.40901e-10,0,0,0,-0.322993,-0.0109737,0,0,0,0,0.100657,0.00222768,19458,0,0,0,0,10346,0,0,0,0,0,0
11178,-3.33315e-12,1.79765e-38,-1.61046e-06,-3.40794e-12,1.79753e-38,0,0,0,0,-3.46875,-0.0134621,0.62782,-0.320993,-0.0109294,0.0996539,0.00220549,0,-0.35219,-0.0134621,253,-89,253,-89,382,-99,262,42,0.00521452,-0.0348889,0,-1.5,6.40901e-10,0,0,0,-0.320993,-0.0109294,0,0,0,0,0.0996539,0.00220549,19458,0,0,0,0,10346,0,0,0,0,0,0
11198,-3.33315e-12,1.79765e-38,-1.61046e-06,-3.40794e-12,1.79753e-38,0,0,0,0,-3.46875,-0.0134621,0.62782,-0.319111,-0.0108878,0.0987105,0.00218461,0,-0.35219,-0.0134621,253,-89,253,-89,382,-99,262,42,0.00521345,-0.0348889,0,-1.5,6.40901e-10,0,0,0,-0.319111,-0.0108878,0,0,0,0,0.0987105,0.00218461,19458,0,0,0,0,10346,0,0,0,0,0,0
11217,-3.33315e-12,1.79765e-38,-1.61046e-06,-3.40794e-12,1.79753e-38,0,0,0,0,-3.46875,-0.0134621,0.62782,-0.317149,-0.0108444,0.0977269,0.00216284,0,-0.35219,-0.0134621,253,-89,253,-89,382,-99,262,42,0.00521234,-0.0348889,0,-1.5,6.40901e-10,0,0,0,-0.317149,-0.0108444,0,0,0,0,0.0977269,0.00216284,19458,0,0,0,0,10346,0,0,0,0,0,0
11237,-3.33315e-12,1.79765e-38,-1.61046e-06,-3.40794e-12,1.79753e-38,0,0,0,0,-3.46875,-0.0134621,0.62782,-0.315303,-0.0108035,0.0968017,0.00214237,0,-0.35219,-0.0134621,253,-89,253,-89,382,-99,262,42,0.0052113,-0.0348889,0,-1.5,6.40901e-10,0,0,0,-0.315303,-0.0108035,0,0,0,0,0.0968017,0.00214237,19458,0,0,0,0,10346,0,0,0,0,0,0
11256,-3.33315e-12,1.79765e-38,-1.61046e-06,-3.40794e-12,1.79753e-38,0,0,0,0,-3.46875,-0.0134621,0.62782,-0.31338,-0.0107609,0.0958372,0.00212102,0,-0.35219,-0.0134621,253,-89,253,-89,382,-99,262,42,0.00521021,-0.0348889,0,-1.5,6.40901e-10,0,0,0,-0.31338,-0.0107609,0,0,0,0,0.0958372,0.00212102,19458,0,0,0,0,10346,0,0,0,0,0,0
