timestamp,A_x,A_y,A_z,P,Q,R,Phi,Theta,Psi,poseX,poseY,poseZ,state_X,state_Y,state_Z,state_VzB,state_Bx,state_By,state_Bz,p1_x,p1_y,p2_x,p2_y,p3_x,p3_y,p4_x,p4_y,roll,pitch,yaw,alt,targetHeading,highLevelState,lowLevelState,gateNumber,filtered_x,filtered_y,x_OT,y_OT,vx_OT,vy_OT,filtered_vx,filtered_vygateArearansac_corr_x,ransac_corr_y,ransac_corr_vx,ransac_corr_vy,detectionTimeStamppTermX,dTermX,pTermY,dTermY,vxcmd,vycmd
5967,0,0.264648,1.65918,-0.000709406,0.000381522,0.00293738,0.00226561,-0.0484084,1.62364,0,0,0,-2.50528e-06,2.04206e-05,-0.00045827,0.00379666,1.62272,0,0,0,0,0,0,0,0,0,0,-0.435694,-0.150841,0,-1.7,1.81795e-38,0,0,0,-2.50528e-06,2.04206e-05,-3.94922,-1.19922,0,0,-0.00045827,0.00379666,1.9603e-19,0,0,0,0,0,0,0,0,0,2,-4.08413e-05
5987,0,0.264648,4.19629,-0.000110207,-0.000111146,0.00234219,0.000442185,-0.0480265,1.62592,0,0,0,-2.25651e-05,0.000202841,-0.00133005,0.0127271,1.62502,0,0,0,0,0,0,0,0,0,0,-0.435513,-0.147519,0,-1.7,1.81795e-38,0,0,0,-2.25651e-05,0.000202841,-3.94922,-1.19922,0,0,-0.00133005,0.0127271,1.9603e-19,0,0,0,0,0,0,0,0,0,2,-0.000405682
6002,0,0.264648,-1.01758,-0.00168185,-0.000723023,0.00210916,-0.00088442,-0.0474716,1.62828,0,0,0,-4.87163e-05,0.000480241,-0.00178678,0.0201307,1.62737,0,0,0,0,0,0,0,0,0,0,-0.435336,-0.144509,0,-1.7,1.81795e-38,0,0,0,-4.87163e-05,0.000480241,-3.94922,-1.19922,0,0,-0.00178678,0.0201307,1.9603e-19,0,0,0,0,0,0,0,0,0,2,-0.000960483
6017,0,0.264648,0.324219,0.000364573,-0.000288681,0.00265243,-0.000959679,-0.0474262,1.62845,0,0,0,-7.82752e-05,0.000848448,-0.00205934,0.0269687,1.62845,0,0,0,0,0,0,0,0,0,0,-0.435194,-0.142146,0,-1.7,1.81795e-38,0,0,0,-7.82752e-05,0.000848448,-3.94922,-1.19922,0,0,-0.00205934,0.0269687,1.9603e-19,0,0,0,0,0,0,0,0,0,2,-0.0016969
6032,0,0.264648,3.97754,-0.000341624,-7.10914e-07,0.00175302,-0.000978202,-0.0474224,1.62849,0,0,0,-0.000111549,0.0013186,-0.00230505,0.0337479,1.62849,0,0,0,0,0,0,0,0,0,0,-0.435082,-0.140205,0,-1.7,1.81795e-38,0,0,0,-0.000111549,0.0013186,-3.94922,-1.19922,0,0,-0.00230505,0.0337479,1.9603e-19,0,0,0,0,0,0,0,0,0,2,-0.00263719
6048,0,0.264648,-7.28613,0.00111667,-0.000784206,0.00191289,-0.00100083,-0.0474221,1.62852,0,0,0,-0.000148468,0.00188999,-0.00254634,0.0404813,1.62852,0,0,0,0,0,0,0,0,0,0,-0.434967,-0.138226,0,-1.7,1.81795e-38,0,0,0,-0.000148468,0.00188999,-3.94922,-1.19922,0,0,-0.00254634,0.0404813,1.9603e-19,0,0,0,0,0,0,0,0,0,2,-0.00377997
6063,0,0.264648,0.87207,0.00101255,0.000251432,0.00286958,-0.00101697,-0.047407,1.62856,0,0,0,-0.000188963,0.00256194,-0.00278356,0.0471688,1.62856,0,0,0,0,0,0,0,0,0,0,-0.434849,-0.136202,0,-1.7,1.81795e-38,0,0,0,-0.000188963,0.00256194,-3.94922,-1.19922,0,0,-0.00278356,0.0471688,1.9603e-19,0,0,0,0,0,0,0,0,0,2,-0.00512388
6076,0,0.264648,-5.92188,-0.000665412,-0.000348529,0.0025541,-0.00104369,-0.0473981,1.62861,0,0,0,-0.000229822,0.00327593,-0.00300198,0.0533671,1.62856,0,0,0,0,0,0,0,0,0,0,-0.434739,-0.134299,0,-1.7,1.81795e-38,0,0,0,-0.000229822,0.00327593,-3.94922,-1.19922,0,0,-0.00300198,0.0533671,1.9603e-19,0,0,0,0,0,0,0,0,0,2,-0.00655186
6094,0,0.264648,5.49707,0.000905905,7.14125e-05,0.00226631,-0.00106045,-0.0473904,1.62864,0,0,0,-0.000287219,0.00433345,-0.00327629,0.0612832,1.62864,0,0,0,0,0,0,0,0,0,0,-0.434591,-0.13176,0,-1.7,1.81795e-38,0,0,0,-0.000287219,0.00433345,-3.94922,-1.19922,0,0,-0.00327629,0.0612832,1.9603e-19,0,0,0,0,0,0,0,0,0,2,-0.0086669
6110,0,0.264648,4.21191,0.000776334,-0.000616005,0.00309426,-0.0010762,-0.0473877,1.62869,-5.05589,0.739778,-0.241032,-0.000342084,0.00538517,-0.00351572,0.0682618,1.62869,-1.05588,0.739778,215,58,215,58,306,60,212,149,-0.434458,-0.129471,0,-1.7,1.81795e-38,0,0,0,-0.000342084,0.00538517,-3.94922,-1.19922,0,0,-0.00351572,0.0682618,8648,0,0,0,0,6108,0,0,0,0,2,-0.0107703
6124,0,0.264648,5.91113,-0.00106974,-8.17713e-05,0.00154318,-0.00111018,-0.047376,1.62872,-5.05589,0.739778,-0.241032,-0.00039309,0.00639329,-0.00372214,0.0743252,1.62869,-1.05588,0.739778,215,58,215,58,306,60,212,149,-0.434341,-0.127455,0,-1.7,1.81795e-38,0,0,0,-0.00039309,0.00639329,-3.94922,-1.19922,0,0,-0.00372214,0.0743252,8648,0,0,0,0,6108,0,0,0,0,2,-0.0127866
6139,0,0.264648,5.91113,-0.00106974,-8.17713e-05,0.00154318,-0.00111018,-0.047376,1.62872,-5.03733,0.727822,-0.240056,-0.000451037,0.00757065,-0.0039393,0.0807802,1.62872,-1.03733,0.727822,216,57,216,57,308,60,212,148,-0.434212,-0.125243,0,-1.7,1.81795e-38,0,0,0,-0.000451037,0.00757065,-3.94922,-1.19922,0,0,-0.0039393,0.0807802,8928,0,0,0,0,6135,0,0,0,0,2,-0.0151413
6154,0,0.264648,5.91113,-0.00106974,-8.17713e-05,0.00154318,-0.00111018,-0.047376,1.62872,-5.03733,0.727822,-0.240056,-0.000507953,0.00875464,-0.00413852,0.0867642,1.62872,-1.03733,0.727822,216,57,216,57,308,60,212,148,-0.434091,-0.123159,0,-1.7,1.81795e-38,0,0,0,-0.000507953,0.00875464,-3.94922,-1.19922,0,0,-0.00413852,0.0867642,8928,0,0,0,0,6135,0,0,0,0,2,-0.0175093
6168,0,0.264648,5.91113,-0.00106974,-8.17713e-05,0.00154318,-0.00111018,-0.047376,1.62872,-5.0682,0.738679,-0.23749,-0.000572027,0.0101161,-0.00435058,0.093134,1.62872,-1.0682,0.738679,216,58,216,58,306,60,212,149,-0.433959,-0.12089,0,-1.7,1.81795e-38,0,0,0,-0.000572027,0.0101161,-3.94922,-1.19922,0,0,-0.00435058,0.093134,8648,0,0,0,0,6159,0,0,0,0,2,-0.0202321
6198,0,0.264648,5.91113,-0.00106974,-8.17713e-05,0.00154318,-0.00111018,-0.047376,1.62872,-5.05521,0.736669,-0.238187,-0.000712124,0.0131978,-0.00477153,0.105778,1.62872,-1.05521,0.736669,216,57,216,57,306,60,212,149,-0.433687,-0.116195,0,-1.7,1.81795e-38,0,0,0,-0.000712124,0.0131978,-3.94922,-1.19922,0,0,-0.00477153,0.105778,8742,0,0,0,0,6189,0,0,0,0,2,-0.0263956
6251,0,0.264648,-2.85449,0.00117427,-0.000771555,0.00294561,-0.00123748,-0.0473216,1.62899,-5.11953,0.742541,-0.207799,-0.000998058,0.0197977,-0.00549689,0.127805,1.62899,-1.11953,0.742541,217,57,217,57,306,60,212,145,-0.410453,0.282438,0,-1.7,1.81795e-38,0,0,0,-1.18661,0.75407,-3.94922,-1.19922,0,0,-1.2658,0.220803,8742,-1.11882,0.729343,-1.2603,0.0929982,6227,0,0,0,0,2,-1.50814
6264,0,0.264648,-4.36621,0.001034,2.8823e-05,0.00214909,-0.0012457,-0.0473018,1.62903,-5.11953,0.742541,-0.207799,-0.00107082,0.0215018,-0.00565739,0.133081,1.62903,-1.11953,0.742541,217,57,217,57,306,60,212,145,-0.410276,0.285223,0,-1.7,1.81795e-38,0,0,0,-1.20307,0.756983,-3.94922,-1.19922,0,0,-1.26596,0.226079,8742,-1.11882,0.729343,-1.2603,0.0929982,6227,0,0,0,0,2,-1.51397
6283,0,0.264648,-4.12207,0.000815203,-0.000214377,0.00295194,-0.00126071,-0.0472845,1.62907,-5.02402,0.726309,-0.246475,-0.00118113,0.0241236,-0.0058884,0.140736,1.62907,-1.02401,0.726309,216,57,216,57,308,60,212,149,-0.405865,0.193297,0,-1.7,1.81795e-38,0,0,0,-1.02137,0.725603,-3.94922,-1.19922,0,0,0.293623,-0.0772955,8928,-1.02289,0.703442,0.299511,-0.218031,6276,0,0,0,0,2,-1.45121
6298,0,0.264648,-3.12402,7.08807e-05,-7.86712e-05,0.00269779,-0.00128061,-0.0472724,1.62913,-5.02402,0.726309,-0.246475,-0.00127119,0.0262927,-0.00606723,0.14673,1.62913,-1.02401,0.726309,216,57,216,57,308,60,212,149,-0.405834,0.194268,0,-1.7,1.81795e-38,0,0,0,-1.01697,0.724502,-3.94922,-1.19922,0,0,0.293444,-0.0713012,8928,-1.02289,0.703442,0.299511,-0.218031,6276,0,0,0,0,2,-1.449
6316,0,0.264648,3.34863,0.000821809,-0.000738401,0.00189446,-0.0012941,-0.047263,1.62916,-5.068,0.738956,-0.237099,-0.0013828,0.0290152,-0.00627723,0.153869,1.62916,-1.068,0.738956,216,58,216,58,306,60,212,149,-0.413382,0.231092,0,-1.7,1.81795e-38,0,0,0,-1.06883,0.739345,-3.94922,-1.19922,0,0,-0.0928718,0.0442514,8648,-1.06667,0.711317,-0.0865945,-0.109617,6309,0,0,0,0,2,-1.47869
6332,0,0.264648,-4.80176,0.000270423,-0.000248837,0.00152804,-0.00131719,-0.0472543,1.62919,-5.068,0.738956,-0.237099,-0.00147863,0.0313804,-0.0064487,0.159772,1.62919,-1.068,0.738956,216,58,216,58,306,60,212,149,-0.41326,0.232941,0,-1.7,1.81795e-38,0,0,0,-1.07023,0.740066,-3.94922,-1.19922,0,0,-0.0930432,0.0501545,8648,-1.06667,0.711317,-0.0865945,-0.109617,6309,0,0,0,0,2,-1.48013
6350,0,0.264648,5.58691,-0.000981399,-0.000248724,0.00237506,-0.00135376,-0.047249,1.62923,-5.05498,0.737007,-0.237734,-0.001597,0.0343365,-0.0066486,0.166803,1.62923,-1.05498,0.737007,216,57,216,57,306,60,212,149,-0.413515,0.228345,0,-1.7,1.81795e-38,0,0,0,-1.05497,0.737398,-3.94922,-1.19922,0,0,0.000307709,0.0370124,8742,-1.05345,0.704489,0.00695631,-0.129791,6340,0,0,0,0,2,-1.4748
6365,0,0.264648,4.17578,-0.00021517,-0.000264387,0.00179573,-0.00137391,-0.0472398,1.62927,-5.05498,0.737007,-0.237734,-0.00170519,0.0370705,-0.00682018,0.173005,1.62927,-1.05498,0.737007,216,57,216,57,306,60,212,149,-0.41339,0.230236,0,-1.7,1.81795e-38,0,0,0,-1.05497,0.738055,-3.94922,-1.19922,0,0,0.000136131,0.0432141,8742,-1.05345,0.704489,0.00695631,-0.129791,6340,0,0,0,0,2,-1.47611
6383,0,0.264648,2.71094,9.37727e-05,-0.000131714,0.000891693,-0.00139691,-0.0472363,1.6293,-5.0239,0.726518,-0.246259,-0.0018301,0.0402632,-0.00700836,0.179927,1.6293,-1.0239,0.726518,216,57,216,57,308,60,212,149,-0.413324,0.231152,0,-1.7,1.81795e-38,0,0,0,-1.05261,0.738652,-3.94922,-1.19922,0,0,0.0408312,0.0456405,8928,-1.05135,0.7,0.0478396,-0.134286,6373,0,0,0,0,2,-1.4773
6397,0,0.264648,-2.23926,-0.00110901,-0.00135522,0.00210058,-0.00142736,-0.0472394,1.62933,-5.0239,0.726518,-0.246259,-0.00192945,0.0428284,-0.00714994,0.18527,1.62933,-1.0239,0.726518,216,57,216,57,308,60,212,149,-0.413215,0.232839,0,-1.7,1.81795e-38,0,0,0,-1.05204,0.739337,-3.94922,-1.19922,0,0,0.0406896,0.0509841,8928,-1.05135,0.7,0.0478396,-0.134286,6373,0,0,0,0,2,-1.47867
6416,0,0.264648,-3.00098,0.000161226,-0.000474029,0.00327107,-0.00144906,-0.0472371,1.62937,-5.04991,0.730145,-0.232921,-0.00206756,0.0464354,-0.00733651,0.192472,1.62937,-1.04991,0.730145,216,57,216,57,308,60,212,147,-0.413931,0.220345,0,-1.7,1.81795e-38,0,0,0,-1.05135,0.73033,-3.94922,-1.19922,0,0,0.0168239,0.0188669,8928,-1.04957,0.685978,0.0241604,-0.173605,6406,0,0,0,0,2,-1.46066
6431,0,0.264648,-2.63672,-0.00100231,8.61167e-05,0.00155436,-0.00148854,-0.0472282,1.62941,-5.04991,0.730145,-0.232921,-0.00217899,0.0493771,-0.00747842,0.198113,1.62941,-1.04991,0.730145,216,57,216,57,308,60,212,147,-0.413823,0.221938,0,-1.7,1.81795e-38,0,0,0,-1.0511,0.730668,-3.94922,-1.19922,0,0,0.0166819,0.0245076,8928,-1.04957,0.685978,0.0241604,-0.173605,6406,0,0,0,0,2,-1.46134
6450,0,0.264648,0.261719,0.00196837,-0.000429201,0.00211828,-0.00149031,-0.0472263,1.62945,-5.06842,0.739149,-0.230892,-0.00232318,0.0532269,-0.0076526,0.205204,1.62945,-1.06842,0.739149,216,57,216,57,306,60,212,148,-0.413198,0.232326,0,-1.7,1.81795e-38,0,0,0,-1.05331,0.737347,-3.94922,-1.19922,0,0,0.0034082,0.052706,8742,-1.05112,0.68595,0.0110608,-0.152498,6440,0,0,0,0,2,-1.47469
6465,0,0.264648,4.25586,0.000462748,0.000312473,0.0023596,-0.00150559,-0.0472191,1.62949,-5.06842,0.739149,-0.230892,-0.00243929,0.0563587,-0.00778823,0.210758,1.62949,-1.06842,0.739149,216,57,216,57,306,60,212,148,-0.413075,0.234151,0,-1.7,1.81795e-38,0,0,0,-1.05326,0.738192,-3.94922,-1.19922,0,0,0.00327257,0.0582598,8742,-1.05112,0.68595,0.0110608,-0.152498,6440,0,0,0,0,2,-1.47638
6484,0,0.264648,-4.56641,0.000868616,-9.33044e-05,0.00190421,-0.00151586,-0.0472064,1.62952,-5.05555,0.740537,-0.240482,-0.0025893,0.0604473,-0.00795666,0.217739,1.62952,-1.05555,0.740537,215,58,215,58,306,60,212,149,-0.412714,0.240102,0,-1.7,1.81795e-38,0,0,0,-1.0532,0.742271,-3.94922,-1.19922,0,0,0.00310294,0.0738955,8648,-1.05074,0.68355,0.0110596,-0.143843,6475,0,0,0,0,2,-1.48454
6500,0,0.264648,2.62305,-0.000164587,2.19319e-05,0.00285701,-0.00154084,-0.0471892,1.62956,-5.05555,0.740537,-0.240482,-0.00271803,0.0639906,-0.00809467,0.223568,1.62956,-1.05555,0.740537,215,58,215,58,306,60,212,149,-0.412576,0.242192,0,-1.7,1.81795e-38,0,0,0,-1.05315,0.743513,-3.94922,-1.19922,0,0,0.00296492,0.0797247,8648,-1.05074,0.68355,0.0110596,-0.143843,6475,0,0,0,0,2,-1.48703
6518,0,0.264648,2.62305,-0.000164587,2.19319e-05,0.00285701,-0.00154084,-0.0471892,1.62956,-5.03702,0.728547,-0.239467,-0.00286559,0.0680945,-0.00824644,0.230077,1.62956,-1.03702,0.728547,216,57,216,57,308,60,212,148,-0.412636,0.241167,0,-1.7,1.81795e-38,0,0,0,-1.05316,0.74195,-3.94922,-1.19922,0,0,0.00319739,0.0787426,8928,-1.0505,0.676579,0.0114438,-0.151334,6506,0,0,0,0,2,-1.4839
6534,0,0.264648,2.62305,-0.000164587,2.19319e-05,0.00285701,-0.00154084,-0.0471892,1.62956,-5.03702,0.728547,-0.239467,-0.0029989,0.0718343,-0.00838025,0.235816,1.62956,-1.03702,0.728547,216,57,216,57,308,60,212,148,-0.412513,0.243257,0,-1.7,1.81795e-38,0,0,0,-1.05311,0.743268,-3.94922,-1.19922,0,0,0.00306358,0.0844818,8928,-1.0505,0.676579,0.0114438,-0.151334,6506,0,0,0,0,2,-1.48654
6553,0,0.264648,0.733398,-0.000430141,-0.000450841,0.00292788,-0.00162726,-0.0471722,1.62967,-5.07619,0.743153,-0.234312,-0.00315997,0.0763964,-0.0085299,0.242578,1.62967,-1.07619,0.743153,216,57,216,57,306,62,211,148,-0.412401,0.244378,0,-1.7,1.81795e-38,0,0,0,-1.05447,0.743769,-3.94922,-1.19922,0,0,0.00380008,0.0877794,8835,-1.05138,0.668302,0.01233,-0.154799,6549,0,0,0,0,2,-1.48754
6566,0,0.264648,0.733398,-0.000430141,-0.000450841,0.00292788,-0.00162726,-0.0471722,1.62967,-5.07619,0.743153,-0.234312,-0.00327162,0.0795863,-0.00862659,0.247168,1.62967,-1.07619,0.743153,216,57,216,57,306,62,211,148,-0.412299,0.246112,0,-1.7,1.81795e-38,0,0,0,-1.05442,0.744947,-3.94922,-1.19922,0,0,0.0037034,0.0923696,8835,-1.05138,0.668302,0.01233,-0.154799,6549,0,0,0,0,2,-1.48989
6584,0,0.264648,0.733398,-0.000430141,-0.000450841,0.00292788,-0.00162726,-0.0471722,1.62967,-5.0498,0.730478,-0.232727,-0.00342853,0.0841127,-0.00875964,0.253485,1.62967,-1.0498,0.730479,216,57,216,57,308,60,212,147,-0.412376,0.24481,0,-1.7,1.81795e-38,0,0,0,-1.05391,0.743325,-3.94922,-1.19922,0,0,0.00334189,0.0903967,8928,-1.0507,0.662148,0.0121015,-0.163088,6572,0,0,0,0,2,-1.48665
6600,0,0.264648,0.733398,-0.000430141,-0.000450841,0.00292788,-0.00162726,-0.0471722,1.62967,-5.0498,0.730478,-0.232727,-0.00356988,0.0882252,-0.00887695,0.259054,1.62967,-1.0498,0.730479,216,57,216,57,308,60,212,147,-0.41225,0.24695,0,-1.7,1.81795e-38,0,0,0,-1.05385,0.744828,-3.94922,-1.19922,0,0,0.00322458,0.0959659,8928,-1.0507,0.662148,0.0121015,-0.163088,6572,0,0,0,0,2,-1.48966
6619,0,0.264648,0.733398,-0.000430141,-0.000450841,0.00292788,-0.00162726,-0.0471722,1.62967,-5.05484,0.737522,-0.237549,-0.00374036,0.0932335,-0.00901525,0.265619,1.62967,-1.05484,0.737522,216,57,216,57,306,60,212,149,-0.412419,0.244084,0,-1.7,1.81795e-38,0,0,0,-1.05458,0.741672,-3.94922,-1.19922,0,0,0.00252764,0.0907943,8742,-1.05106,0.65176,0.0115429,-0.174825,6607,0,0,0,0,2,-1.48334
6635,0,0.264648,0.733398,-0.000430141,-0.000450841,0.00292788,-0.00162726,-0.0471722,1.62967,-5.05484,0.737522,-0.237549,-0.00388578,0.0975393,-0.00913072,0.271102,1.62967,-1.05484,0.737522,216,57,216,57,306,60,212,149,-0.412294,0.246205,0,-1.7,1.81795e-38,0,0,0,-1.05454,0.743181,-3.94922,-1.19922,0,0,0.00241216,0.0962763,8742,-1.05106,0.65176,0.0115429,-0.174825,6607,0,0,0,0,2,-1.48636
6650,0,0.264648,0.733398,-0.000430141,-0.000450841,0.00292788,-0.00162726,-0.0471722,1.62967,-5.05484,0.737522,-0.237549,-0.00402375,0.101654,-0.00923821,0.276205,1.62967,-1.05484,0.737522,216,57,216,57,306,60,212,149,-0.412175,0.248223,0,-1.7,1.81795e-38,0,0,0,-1.05451,0.744673,-3.94922,-1.19922,0,0,0.00230467,0.101379,8742,-1.05106,0.65176,0.0115429,-0.174825,6607,0,0,0,0,2,-1.48935
6665,0,0.264648,-4.48047,-0.00126427,-0.000403959,0.00329261,-0.00170898,-0.046875,1.62988,-5.05484,0.737522,-0.237549,-0.0041633,0.105845,-0.00933885,0.281253,1.62988,-1.05484,0.737522,216,57,216,57,306,60,212,149,-0.411966,0.250352,0,-1.7,1.81795e-38,0,0,0,-1.05448,0.746241,-3.94922,-1.19922,0,0,0.00220404,0.106428,8742,-1.05106,0.65176,0.0115429,-0.174825,6607,0,0,0,0,2,-1.49248
6684,0,0.264648,-7.31934,-0.000650883,-0.000708626,0.00193183,-0.00178936,-0.0470961,1.63001,-5.07339,0.73404,-0.242431,-0.00434214,0.111265,-0.00945293,0.287586,1.63001,-1.07339,0.73404,216,58,216,58,308,63,212,149,-0.411895,0.250704,0,-1.7,1.81795e-38,0,0,0,-1.05409,0.745971,-3.94922,-1.19922,0,0,0.00137768,0.108172,8832,-1.04988,0.636859,0.0108306,-0.179414,6674,0,0,0,0,2,-1.49194
6699,0,0.264648,-7.35254,0.000311944,-0.00079583,0.00193306,-0.00181518,-0.0470855,1.63005,-5.07339,0.73404,-0.242431,-0.00448474,0.115627,-0.0095347,0.292568,1.63005,-1.07339,0.73404,216,58,216,58,308,63,212,149,-0.411755,0.252797,0,-1.7,1.81795e-38,0,0,0,-1.05407,0.747642,-3.94922,-1.19922,0,0,0.00129591,0.113154,8832,-1.04988,0.636859,0.0108306,-0.179414,6674,0,0,0,0,2,-1.49528
6719,0,0.264648,-7.35254,0.000311944,-0.00079583,0.00193306,-0.00181518,-0.0470855,1.63005,-5.08114,0.741698,-0.229722,-0.00467691,0.121571,-0.00964007,0.299163,1.63005,-1.08114,0.741698,216,58,216,58,306,60,212,148,-0.411633,0.254856,0,-1.7,1.81795e-38,0,0,0,-1.05672,0.749185,-3.94922,-1.19922,0,0,-0.00537408,0.118318,8648,-1.05213,0.631231,0.004266,-0.180845,6707,0,0,0,0,2,-1.49837
6733,0,0.264648,-7.35254,0.000311944,-0.00079583,0.00193306,-0.00181518,-0.0470855,1.63005,-5.08114,0.741698,-0.229722,-0.00481252,0.125799,-0.0097132,0.30374,1.63005,-1.08114,0.741698,216,58,216,58,306,60,212,148,-0.411515,0.256845,0,-1.7,1.81795e-38,0,0,0,-1.0568,0.750882,-3.94922,-1.19922,0,0,-0.0054472,0.122895,8648,-1.05213,0.631231,0.004266,-0.180845,6707,0,0,0,0,2,-1.50176
6752,0,0.264648,-7.37109,-0.000540804,8.46338e-05,0.00195606,-0.00187446,-0.0470616,1.63017,-5.08162,0.744683,-0.226552,-0.00499825,0.131645,-0.00980851,0.309907,1.63017,-1.08162,0.744683,215,58,215,58,306,60,212,147,-0.411668,0.253417,0,-1.7,1.81795e-38,0,0,0,-1.07661,0.747593,-3.94922,-1.19922,0,0,-0.0532118,0.115529,8648,-1.07105,0.618475,-0.0434033,-0.194377,6742,0,0,0,0,2,-1.49519
6767,0,0.264648,3.89258,3.67654e-05,-0.000590171,0.00325667,-0.00190534,-0.0470633,1.63021,-5.08162,0.744683,-0.226552,-0.00514604,0.13634,-0.00987599,0.314735,1.63021,-1.08162,0.744683,215,58,215,58,306,60,212,147,-0.411525,0.255528,0,-1.7,1.81795e-38,0,0,0,-1.07741,0.749373,-3.94922,-1.19922,0,0,-0.0532793,0.120358,8648,-1.07105,0.618475,-0.0434033,-0.194377,6742,0,0,0,0,2,-1.49875
6787,0,0.264648,-7.2334,0.000842908,-0.000337479,0.00138826,-0.00194568,-0.0470548,1.63028,-5.05463,0.737928,-0.237178,-0.00534476,0.142725,-0.00996196,0.321128,1.63021,-1.05463,0.737928,216,57,216,57,306,60,212,149,-0.411326,0.258876,0,-1.7,1.81795e-38,0,0,0,-1.05815,0.751946,-3.94922,-1.19922,0,0,-0.00964566,0.128628,8742,-1.05281,0.613071,0.000316301,-0.1925,6775,0,0,0,0,2,-1.50389
6802,0,0.264648,-7.2334,0.000842908,-0.000337479,0.00138826,-0.00194568,-0.0470548,1.63028,-5.05463,0.737928,-0.237178,-0.0054948,0.147587,-0.0100229,0.325881,1.63028,-1.05463,0.737928,216,57,216,57,306,60,212,149,-0.41117,0.261073,0,-1.7,1.81795e-38,0,0,0,-1.0583,0.753921,-3.94922,-1.19922,0,0,-0.00970661,0.133381,8742,-1.05281,0.613071,0.000316301,-0.1925,6775,0,0,0,0,2,-1.50784
6822,0,0.264648,-1.50195,-0.000925804,-7.04595e-05,0.00298255,-0.00200402,-0.047044,1.63037,-5.08109,0.741916,-0.229663,-0.0056963,0.15419,-0.0101001,0.332171,1.63028,-1.08109,0.741916,216,58,216,58,306,60,212,148,-0.411159,0.26126,0,-1.7,1.81795e-38,0,0,0,-1.08064,0.754557,-3.94922,-1.19922,0,0,-0.0525006,0.132859,8648,-1.07409,0.604352,-0.0424004,-0.199312,6809,0,0,0,0,2,-1.50911
6837,0,0.264648,-0.759766,-0.0010534,-4.34985e-05,0.00225796,-0.0020358,-0.0470279,1.6304,-5.08109,0.741916,-0.229663,-0.00584828,0.159218,-0.0101496,0.336848,1.63037,-1.08109,0.741916,216,58,216,58,306,60,212,148,-0.410987,0.263483,0,-1.7,1.81795e-38,0,0,0,-1.08142,0.756595,-3.94922,-1.19922,0,0,-0.05255,0.137535,8648,-1.07409,0.604352,-0.0424004,-0.199312,6809,0,0,0,0,2,-1.51319
6858,0,0.264648,0.229492,0.00136649,-0.000740754,0.00242326,-0.00204873,-0.0470261,1.63044,-5.08126,0.741817,-0.223586,-0.00605218,0.166042,-0.0102123,0.343039,1.63044,-1.08126,0.741817,216,57,216,57,306,60,212,147,-0.410938,0.2638,0,-1.7,1.81795e-38,0,0,0,-1.08369,0.757218,-3.94922,-1.19922,0,0,-0.0569226,0.137438,8742,-1.0767,0.595288,-0.0467103,-0.2056,6845,0,0,0,0,2,-1.51444
6873,0,0.264648,4.66699,0.0012562,-0.00161667,0.0023607,-0.00204912,-0.0470366,1.63048,-5.08126,0.741817,-0.223586,-0.00621604,0.171581,-0.0102576,0.347946,1.63044,-1.08126,0.741817,216,57,216,57,306,60,212,147,-0.410798,0.266147,0,-1.7,1.81795e-38,0,0,0,-1.0846,0.759467,-3.94922,-1.19922,0,0,-0.0569679,0.142345,8742,-1.0767,0.595288,-0.0467103,-0.2056,6845,0,0,0,0,2,-1.51893
6892,0,0.264648,-5.2959,-0.000322165,5.37086e-06,0.00275995,-0.00208855,-0.047023,1.63052,-5.09153,0.734002,-0.21447,-0.00641164,0.178268,-0.0103099,0.353732,1.63052,-1.09153,0.734002,216,57,216,57,308,60,213,145,-0.410827,0.265098,0,-1.7,1.81795e-38,0,0,0,-1.08492,0.758875,-3.94922,-1.19922,0,0,-0.0569986,0.13919,8835,-1.07762,0.584683,-0.0466887,-0.214542,6879,0,0,0,0,2,-1.51775
6913,0,0.264648,4.32422,-0.000796385,-0.00134194,0.00316456,-0.00211919,-0.0470304,1.63057,-5.09153,0.73407,-0.214482,-0.00662882,0.185782,-0.010359,0.360067,1.63057,-1.09153,0.73407,216,57,216,57,308,60,213,145,-0.410755,0.265946,0,-1.7,1.81795e-38,0,0,0,-1.08688,0.759709,-3.94922,-1.19922,0,0,-0.0547731,0.140841,8835,-1.07994,0.575462,-0.0444141,-0.219227,6908,0,0,0,0,2,-1.51942
6927,0,0.264648,-0.0283203,-0.00246436,-0.00102163,0.00324772,-0.0021713,-0.0470277,1.63062,-5.09153,0.73407,-0.214482,-0.00677409,0.190859,-0.0103861,0.364256,1.63062,-1.09153,0.73407,216,57,216,57,308,60,213,145,-0.410611,0.268014,0,-1.7,1.81795e-38,0,0,0,-1.08765,0.761717,-3.94922,-1.19922,0,0,-0.0548002,0.145029,8835,-1.07994,0.575462,-0.0444141,-0.219227,6908,0,0,0,0,2,-1.52343
6947,0,0.264648,-0.250977,1.40783e-05,-0.000125811,0.00224204,-0.00218664,-0.0470072,1.63066,-5.07846,0.735346,-0.218292,-0.00698222,0.19822,-0.0104175,0.370196,1.63066,-1.07846,0.735346,215,57,215,57,308,60,213,145,-0.410678,0.266619,0,-1.7,1.81795e-38,0,0,0,-1.08904,0.760343,-3.94922,-1.19922,0,0,-0.0553776,0.142123,8835,-1.08166,0.564176,-0.0449601,-0.228073,6940,0,0,0,0,2,-1.52069
6962,0,0.264648,0.989258,-9.12247e-05,-0.000908517,0.00234917,-0.00221041,-0.0470071,1.63071,-5.07846,0.735346,-0.218292,-0.00713869,0.203814,-0.0104384,0.374612,1.63071,-1.07846,0.735346,215,57,215,57,308,60,213,145,-0.410528,0.268824,0,-1.7,1.81795e-38,0,0,0,-1.08988,0.762516,-3.94922,-1.19922,0,0,-0.0553986,0.14654,8835,-1.08166,0.564176,-0.0449601,-0.228073,6940,0,0,0,0,2,-1.52503
6983,0,0.264648,3.71094,-0.000379942,0.000851268,0.00101643,-0.00224306,-0.0469912,1.63073,-5.06753,0.740498,-0.236452,-0.00735821,0.211761,-0.0104614,0.380746,1.63073,-1.06753,0.740498,216,58,216,58,306,60,212,149,-0.410389,0.270974,0,-1.7,1.81795e-38,0,0,0,-1.09027,0.764586,-3.94922,-1.19922,0,0,-0.0543197,0.150976,8648,-1.08243,0.555352,-0.0438583,-0.229769,6974,0,0,0,0,2,-1.52917
6998,0,0.264648,-0.867188,0.000410628,-0.000223281,0.00159288,-0.00227546,-0.0469809,1.63077,-5.06753,0.740498,-0.236452,-0.00751526,0.217513,-0.0104735,0.385089,1.63077,-1.06753,0.740498,216,58,216,58,306,60,212,149,-0.410238,0.273224,0,-1.7,1.81795e-38,0,0,0,-1.09109,0.766891,-3.94922,-1.19922,0,0,-0.0543318,0.155319,8648,-1.08243,0.555352,-0.0438583,-0.229769,6974,0,0,0,0,2,-1.53378
7018,0,0.264648,1.34668,-0.00204835,-0.000628627,0.00199701,-0.00230606,-0.0469723,1.6308,-5.06749,0.743252,-0.239359,-0.00772486,0.225288,-0.0104827,0.390834,1.6308,-1.06749,0.743252,215,57,215,57,306,62,212,149,-0.410143,0.274561,0,-1.7,1.81795e-38,0,0,0,-1.08259,0.768311,-3.94922,-1.19922,0,0,-0.0357831,0.157783,8742,-1.07458,0.545586,-0.0253004,-0.233052,7009,0,0,0,0,2,-1.53662
7033,0,0.264648,4.5625,-0.000275605,0.000160047,0.00209164,-0.00233099,-0.0469697,1.63083,-5.06749,0.743252,-0.239359,-0.00788214,0.231192,-0.0104863,0.395108,1.63083,-1.06749,0.743252,215,57,215,57,306,62,212,149,-0.409993,0.276842,0,-1.7,1.81795e-38,0,0,0,-1.08312,0.770719,-3.94922,-1.19922,0,0,-0.0357867,0.162056,8742,-1.07458,0.545586,-0.0253004,-0.233052,7009,0,0,0,0,2,-1.54144
7054,0,0.264648,3.3457,0.000650935,0.000404693,0.0023496,-0.00234022,-0.0469504,1.63089,-5.06651,0.731057,-0.227544,-0.00810238,0.239575,-0.0104883,0.401048,1.63083,-1.06651,0.731057,216,57,216,57,308,60,213,147,-0.410071,0.275538,0,-1.7,1.81795e-38,0,0,0,-1.08276,0.769167,-3.94922,-1.19922,0,0,-0.0355573,0.159933,8835,-1.07413,0.534655,-0.025069,-0.241115,7041,0,0,0,0,2,-1.53833
7069,0,0.264648,-2.21387,-1.74073e-05,0.000472651,0.00291745,-0.00236172,-0.0469337,1.63092,-5.06651,0.731057,-0.227544,-0.00825971,0.245631,-0.0104885,0.405249,1.63089,-1.06651,0.731057,216,57,216,57,308,60,213,147,-0.409911,0.277825,0,-1.7,1.81795e-38,0,0,0,-1.08329,0.771605,-3.94922,-1.19922,0,0,-0.0355575,0.164134,8835,-1.07413,0.534655,-0.025069,-0.241115,7041,0,0,0,0,2,-1.54321
7088,0,0.264648,-4.65039,-0.00037659,-0.000527582,0.00331937,-0.00238191,-0.0469358,1.63097,-5.06742,0.740711,-0.236265,-0.00845899,0.2534,-0.0104872,0.410534,1.63092,-1.06742,0.740711,216,58,216,58,306,60,212,149,-0.410507,0.267708,0,-1.7,1.81795e-38,0,0,0,-1.07056,0.759468,-3.94922,-1.19922,0,0,-0.0189506,0.147821,8648,-1.06194,0.511059,-0.00846339,-0.262712,7075,0,0,0,0,2,-1.51894
7104,0,0.264648,-4.37012,-0.000607994,0.000275647,0.00271408,-0.00244141,-0.046875,1.6311,-5.06742,0.740711,-0.236265,-0.00862672,0.260015,-0.0104814,0.414946,1.63097,-1.06742,0.740711,216,58,216,58,306,60,212,149,-0.410346,0.270034,0,-1.7,1.81795e-38,0,0,0,-1.07086,0.761879,-3.94922,-1.19922,0,0,-0.0189448,0.152233,8648,-1.06194,0.511059,-0.00846339,-0.262712,7075,0,0,0,0,2,-1.52376
7123,0,0.264648,-1.69531,-0.000933362,0.000173012,0.00182437,-0.00245356,-0.0469185,1.63105,-5.09139,0.734566,-0.21425,-0.00882564,0.267967,-0.0104638,0.420136,1.63105,-1.09139,0.734566,216,57,216,57,308,60,213,145,-0.410181,0.272219,0,-1.7,1.81795e-38,0,0,0,-1.08504,0.764166,-3.94922,-1.19922,0,0,-0.0359148,0.156285,8835,-1.07573,0.501213,-0.025451,-0.263852,7110,0,0,0,0,2,-1.52833
7144,0,0.264648,4.26758,-0.000891417,-0.000272573,0.00225688,-0.00248104,-0.0469155,1.63107,-5.08105,0.742571,-0.223281,-0.00904509,0.276867,-0.0104423,0.425829,1.63105,-1.08105,0.742571,216,57,216,57,306,60,212,147,-0.410232,0.271367,0,-1.7,1.81795e-38,0,0,0,-1.08132,0.763007,-3.94922,-1.19922,0,0,-0.0290924,0.155188,8742,-1.07212,0.488305,-0.0186501,-0.270641,7138,0,0,0,0,2,-1.52601
7159,0,0.264648,-5.26758,0.000976251,-0.000196779,0.00190421,-0.00249755,-0.0469125,1.63111,-5.08105,0.742571,-0.223281,-0.00920155,0.283292,-0.0104226,0.42986,1.63111,-1.08105,0.742571,216,57,216,57,306,60,212,147,-0.410071,0.27358,0,-1.7,1.81795e-38,0,0,0,-1.08175,0.765372,-3.94922,-1.19922,0,0,-0.0290727,0.159219,8742,-1.07212,0.488305,-0.0186501,-0.270641,7138,0,0,0,0,2,-1.53074
7180,0,0.264648,0.521484,-0.00147862,-0.000758562,0.00195028,-0.00251826,-0.0469121,1.63115,-5.09399,0.744651,-0.222593,-0.00942001,0.292394,-0.0103912,0.43546,1.63115,-1.09399,0.744651,216,58,216,58,306,60,212,147,-0.409852,0.276913,0,-1.7,1.81795e-38,0,0,0,-1.08557,0.769111,-3.94922,-1.19922,0,0,-0.0307716,0.16503,8648,-1.07599,0.47888,-0.0203804,-0.27043,7174,0,0,0,0,2,-1.53822
7195,0,0.264648,7.33105,-0.000586669,0.000453524,0.00278349,-0.00253823,-0.0469078,1.6312,-5.09399,0.744651,-0.222593,-0.00957565,0.298964,-0.0103665,0.439425,1.6312,-1.09399,0.744651,216,58,216,58,306,60,212,147,-0.409695,0.279176,0,-1.7,1.81795e-38,0,0,0,-1.08603,0.771624,-3.94922,-1.19922,0,0,-0.0307469,0.168996,8648,-1.07599,0.47888,-0.0203804,-0.27043,7174,0,0,0,0,2,-1.54325
7216,0,0.264648,-1.43848,-0.000775078,-0.000148244,0.00257221,-0.00256806,-0.0469028,1.63124,-5.02336,0.728442,-0.245438,-0.00979282,0.308266,-0.0103266,0.444934,1.63124,-1.02336,0.728442,216,57,216,57,308,60,212,149,-0.40979,0.277309,0,-1.7,1.81795e-38,0,0,0,-1.08289,0.770832,-3.94922,-1.19922,0,0,-0.0286699,0.163027,8928,-1.07292,0.465386,-0.0183433,-0.281908,7208,0,0,0,0,2,-1.54166
7231,0,0.264648,-6.4082,0.0005,-0.000461163,0.00248719,-0.00259378,-0.0468921,1.63127,-5.02336,0.728442,-0.245438,-0.00994743,0.314977,-0.0102949,0.448835,1.63127,-1.02336,0.728442,216,57,216,57,308,60,212,149,-0.409643,0.279533,0,-1.7,1.81795e-38,0,0,0,-1.08332,0.773315,-3.94922,-1.19922,0,0,-0.0286381,0.166927,8928,-1.07292,0.465386,-0.0183433,-0.281908,7208,0,0,0,0,2,-1.54663
7252,0,0.264648,4.68848,0.00031635,0.000421949,0.000904928,-0.00263788,-0.0468634,1.63134,-5.03651,0.730338,-0.238667,-0.0101527,0.324019,-0.0102489,0.453996,1.63131,-1.03651,0.730338,216,57,216,57,308,60,212,148,-0.409782,0.276985,0,-1.7,1.81795e-38,0,0,0,-1.08396,0.772282,-3.94922,-1.19922,0,0,-0.0308992,0.158724,8928,-1.07358,0.451511,-0.0206502,-0.295272,7242,0,0,0,0,2,-1.54456
7267,0,0.264648,4.68848,0.00031635,0.000421949,0.000904928,-0.00263788,-0.0468634,1.63134,-5.03651,0.730338,-0.238667,-0.0103163,0.331325,-0.0102069,0.458086,1.63134,-1.03651,0.730338,216,57,216,57,308,60,212,148,-0.409628,0.279307,0,-1.7,1.81795e-38,0,0,0,-1.08445,0.774864,-3.94922,-1.19922,0,0,-0.0308571,0.162814,8928,-1.07358,0.451511,-0.0206502,-0.295272,7242,0,0,0,0,2,-1.54973
7288,0,0.264648,7.0459,-0.000223517,-0.000996592,0.000732163,-0.00268893,-0.0468441,1.63138,-5.09391,0.744886,-0.222449,-0.0105299,0.341022,-0.0101521,0.463414,1.63134,-1.09391,0.744886,216,58,216,58,306,60,212,147,-0.410012,0.272973,0,-1.7,1.81795e-38,0,0,0,-1.09385,0.767724,-3.94922,-1.19922,0,0,-0.0451924,0.151712,8648,-1.08258,0.433248,-0.0350403,-0.311702,7274,0,0,0,0,2,-1.53545
7302,0,0.264648,-5.42969,0.00115156,0.000587196,0.00158714,-0.0026986,-0.0468218,1.63141,-5.09391,0.744886,-0.222449,-0.0106716,0.347541,-0.010109,0.466933,1.63138,-1.09391,0.744886,216,58,216,58,306,60,212,147,-0.409876,0.274943,0,-1.7,1.81795e-38,0,0,0,-1.09448,0.769879,-3.94922,-1.19922,0,0,-0.0451493,0.155231,8648,-1.08258,0.433248,-0.0350403,-0.311702,7274,0,0,0,0,2,-1.53976
7322,0,0.264648,1.60547,0.000759018,0.000126819,0.00116785,-0.00271113,-0.046803,1.63143,-5.05426,0.73928,-0.236685,-0.0108729,0.356947,-0.0100468,0.471923,1.63143,-1.05426,0.73928,216,57,216,57,306,60,212,149,-0.40998,0.27286,0,-1.7,1.81795e-38,0,0,0,-1.08583,0.76742,-3.94922,-1.19922,0,0,-0.0320808,0.151713,8742,-1.07452,0.416877,-0.022034,-0.32021,7308,0,0,0,0,2,-1.53484
7337,0,0.264648,-3.9707,0.000277869,-0.000428335,0.00335514,-0.00272997,-0.0467995,1.63148,-5.05426,0.73928,-0.236685,-0.0110232,0.364062,-0.00999811,0.475629,1.63143,-1.05426,0.73928,216,57,216,57,306,60,212,149,-0.409853,0.274938,0,-1.7,1.81795e-38,0,0,0,-1.08631,0.769732,-3.94922,-1.19922,0,0,-0.0320321,0.155419,8742,-1.07452,0.416877,-0.022034,-0.32021,7308,0,0,0,0,2,-1.53946
7358,0,0.264648,4.87793,0.000414492,0.000197577,0.00376987,-0.00273781,-0.0467913,1.63154,-5.09379,0.745005,-0.222201,-0.0112321,0.374127,-0.00992664,0.480781,1.63154,-1.09379,0.745005,216,58,216,58,306,60,212,147,-0.409997,0.271859,0,-1.7,1.81795e-38,0,0,0,-1.09436,0.768205,-3.94922,-1.19922,0,0,-0.0422733,0.145962,8648,-1.08245,0.401109,-0.0323466,-0.334819,7344,0,0,0,0,2,-1.53641
7379,0,0.264648,-3.47949,-0.000447208,-0.000148972,0.00254124,-0.00276551,-0.0467758,1.63157,-5.05475,0.742565,-0.239261,-0.0114396,0.384292,-0.00985398,0.485879,1.63157,-1.05475,0.742565,215,58,215,58,306,60,212,149,-0.410087,0.270145,0,-1.7,1.81795e-38,0,0,0,-1.08891,0.766547,-3.94922,-1.19922,0,0,-0.0370597,0.142354,8648,-1.07714,0.386377,-0.0272058,-0.343525,7369,0,0,0,0,2,-1.53309
7394,0,0.264648,-6.82617,0.00019236,-0.00063531,0.00166501,-0.00278445,-0.0467752,1.6316,-5.05475,0.742565,-0.239261,-0.0115868,0.391615,-0.00979827,0.489488,1.6316,-1.05475,0.742565,215,58,215,58,306,60,212,149,-0.409953,0.272141,0,-1.7,1.81795e-38,0,0,0,-1.08946,0.768717,-3.94922,-1.19922,0,0,-0.037004,0.145963,8648,-1.07714,0.386377,-0.0272058,-0.343525,7369,0,0,0,0,2,-1.53743
7416,0,0.264648,3.62012,8.57896e-05,0.000143607,0.00279851,-0.00282069,-0.0467636,1.63166,-5.05475,0.742565,-0.239261,-0.0118011,0.402467,-0.00971286,0.494743,1.63166,-1.05475,0.742565,215,58,215,58,306,60,212,149,-0.409747,0.27512,0,-1.7,1.81795e-38,0,0,0,-1.09028,0.772012,-3.94922,-1.19922,0,0,-0.0369186,0.151219,8648,-1.07714,0.386377,-0.0272058,-0.343525,7369,0,0,0,0,2,-1.54402
7437,0,0.264648,3.33691,0.000848604,-0.000178418,0.00245247,-0.00283394,-0.0467459,1.63174,-5.06829,0.744309,-0.22636,-0.0120038,0.412931,-0.00962682,0.499708,1.63174,-1.06829,0.744309,215,57,215,57,306,60,212,147,-0.409747,0.27454,0,-1.7,1.81795e-38,0,0,0,-1.07001,0.771212,-3.94922,-1.19922,0,0,-0.00196485,0.150355,8742,-1.05816,0.365618,0.00766197,-0.349354,7423,0,0,0,0,2,-1.54242
7458,0,0.264648,3.33691,0.000848604,-0.000178418,0.00245247,-0.00283394,-0.0467459,1.63174,-5.05525,0.742564,-0.233046,-0.0122048,0.42349,-0.00953973,0.50462,1.63174,-1.05525,0.742564,215,57,215,57,306,60,212,148,-0.410088,0.268952,0,-1.7,1.81795e-38,0,0,0,-1.06771,0.767057,-3.94922,-1.19922,0,0,0.00255924,0.136274,8742,-1.05568,0.348723,0.012099,-0.368346,7446,0,0,0,0,2,-1.53411
7473,0,0.264648,-6.0791,-0.000333352,-0.000362577,0.00266835,-0.00287676,-0.046721,1.63179,-5.05525,0.742564,-0.233046,-0.0123473,0.431092,-0.00947641,0.508098,1.63179,-1.05525,0.742564,215,57,215,57,306,60,212,148,-0.409948,0.270878,0,-1.7,1.81795e-38,0,0,0,-1.06767,0.769133,-3.94922,-1.19922,0,0,0.00262256,0.139752,8742,-1.05568,0.348723,0.012099,-0.368346,7446,0,0,0,0,2,-1.53827
7494,0,0.264648,2.66797,-0.000141249,0.000791566,0.00254541,-0.00291055,-0.0467091,1.63185,-5.04186,0.740728,-0.239764,-0.0125449,0.441832,-0.00938023,0.512928,1.63185,-1.04186,0.740728,215,57,215,57,306,60,212,149,-0.410319,0.264447,0,-1.7,1.81795e-38,0,0,0,-1.06348,0.762205,-3.94922,-1.19922,0,0,0.0124488,0.127746,8742,-1.05139,0.328462,0.021829,-0.385182,7480,0,0,0,0,2,-1.52441
7514,0,0.264648,-1.95703,0.000729714,0.000116567,0.00191736,-0.0029281,-0.046698,1.63188,-5.11605,0.751007,-0.230641,-0.0127313,0.452149,-0.00928311,0.517481,1.63188,-1.11605,0.751007,215,57,215,57,306,65,212,148,-0.410443,0.262172,0,-1.7,1.81795e-38,0,0,0,-1.06662,0.760431,-3.94922,-1.19922,0,0,0.0101544,0.122119,8742,-1.05405,0.311445,0.0194375,-0.395362,7509,0,0,0,0,2,-1.52086
7529,0,0.264648,-5.2041,-0.000906546,-0.000596919,0.00322915,-0.00295698,-0.0466927,1.63193,-5.11605,0.751007,-0.230641,-0.0128698,0.459943,-0.00920831,0.520867,1.63193,-1.11605,0.751007,215,57,215,57,306,65,212,148,-0.410315,0.263966,0,-1.7,1.81795e-38,0,0,0,-1.06647,0.762295,-3.94922,-1.19922,0,0,0.0102292,0.125505,8742,-1.05405,0.311445,0.0194375,-0.395362,7509,0,0,0,0,2,-1.52459
7550,0,0.264648,2.94629,-0.00190193,-0.00069999,0.00254847,-0.00300971,-0.0466775,1.63201,-5.12896,0.752876,-0.223901,-0.0130617,0.470945,-0.00909913,0.525569,1.63197,-1.12896,0.752876,215,57,215,57,306,65,212,147,-0.410344,0.263223,0,-1.7,1.81795e-38,0,0,0,-1.06617,0.761705,-3.94922,-1.19922,0,0,0.0106574,0.123647,8742,-1.05334,0.295583,0.0197565,-0.401922,7540,0,0,0,0,2,-1.52341
7566,0,0.264648,2.94629,-0.00190193,-0.00069999,0.00254847,-0.00300971,-0.0466775,1.63201,-5.12896,0.752876,-0.223901,-0.0131975,0.47886,-0.00901815,0.528899,1.63201,-1.12896,0.752876,215,57,215,57,306,65,212,147,-0.410217,0.265013,0,-1.7,1.81795e-38,0,0,0,-1.06601,0.763592,-3.94922,-1.19922,0,0,0.0107384,0.126976,8742,-1.05334,0.295583,0.0197565,-0.401922,7540,0,0,0,0,2,-1.52718
7586,0,0.264648,4.46094,-0.000530788,0.00115904,0.0023149,-0.00303725,-0.0466509,1.6321,-5.0658,0.738092,-0.220745,-0.0133851,0.490036,-0.0089019,0.533526,1.6321,-1.0658,0.738092,217,55,217,55,306,60,212,147,-0.410184,0.264926,0,-1.7,1.81795e-38,0,0,0,-1.06584,0.76373,-3.94922,-1.19922,0,0,0.0120381,0.126204,8930,-1.0529,0.282247,0.02094,-0.407323,7573,0,0,0,0,2,-1.52746
7602,0,0.264648,0.173828,0.000358591,-0.00250791,0.00259807,-0.00306106,-0.0466631,1.63214,-5.0658,0.738092,-0.220745,-0.0135178,0.498071,-0.00881632,0.536799,1.6321,-1.0658,0.738092,217,55,217,55,306,60,212,147,-0.410075,0.266704,0,-1.7,1.81795e-38,0,0,0,-1.06566,0.765654,-3.94922,-1.19922,0,0,0.0121237,0.129476,8930,-1.0529,0.282247,0.02094,-0.407323,7573,0,0,0,0,2,-1.53131
7623,0,0.264648,0.0175781,0.00170985,0.00149416,0.00152898,-0.00304045,-0.0466398,1.63217,-5.07361,0.73619,-0.218056,-0.0137098,0.509954,-0.00868819,0.541565,1.63217,-1.07361,0.73619,216,57,216,57,308,60,212,145,-0.410106,0.265709,0,-1.7,1.81795e-38,0,0,0,-1.06731,0.764348,-3.94922,-1.19922,0,0,0.0163567,0.127982,8928,-1.05415,0.263493,0.0250449,-0.413583,7609,0,0,0,0,2,-1.5287
7644,0,0.264648,3.42578,-0.00207313,-0.000889802,0.00205084,-0.00309463,-0.0466396,1.63221,-5.07361,0.73619,-0.218056,-0.0138821,0.52084,-0.00857141,0.54585,1.63221,-1.07361,0.73619,216,57,216,57,308,60,212,145,-0.409971,0.267625,0,-1.7,1.81795e-38,0,0,0,-1.07094,0.766554,-3.94922,-1.19922,0,0,0.0122303,0.131182,8928,-1.05721,0.248617,0.0208017,-0.414668,7638,0,0,0,0,2,-1.53311
7659,0,0.264648,3.42578,-0.00207313,-0.000889802,0.00205084,-0.00309463,-0.0466396,1.63221,-5.07361,0.73619,-0.218056,-0.0140182,0.529608,-0.00847428,0.54925,1.63221,-1.07361,0.73619,216,57,216,57,308,60,212,145,-0.409853,0.269539,0,-1.7,1.81795e-38,0,0,0,-1.07075,0.768687,-3.94922,-1.19922,0,0,0.0123274,0.134582,8928,-1.05721,0.248617,0.0208017,-0.414668,7638,0,0,0,0,2,-1.53737
7679,0,0.264648,2.66016,0.00059109,1.0315e-05,0.00209626,-0.00312691,-0.0466116,1.63229,-5.0787,0.734326,-0.225795,-0.0141862,0.540646,-0.00835055,0.553464,1.63229,-1.0787,0.734326,216,58,216,58,308,60,213,147,-0.409801,0.269872,0,-1.7,1.81795e-38,0,0,0,-1.07303,0.769502,-3.94922,-1.19922,0,0,0.00974768,0.134165,8740,-1.05897,0.231791,0.0180982,-0.419298,7674,0,0,0,0,2,-1.539
7695,0,0.264648,0.551758,0.000680838,-0.000660548,0.00154788,-0.00312969,-0.0466026,1.63233,-5.0787,0.734326,-0.225795,-0.0143188,0.549535,-0.00825015,0.556805,1.63233,-1.0787,0.734326,216,58,216,58,308,60,213,147,-0.409666,0.271809,0,-1.7,1.81795e-38,0,0,0,-1.07287,0.771682,-3.94922,-1.19922,0,0,0.00984808,0.137506,8740,-1.05897,0.231791,0.0180982,-0.419298,7674,0,0,0,0,2,-1.54336
7715,0,0.264648,-1.05078,-0.00154171,0.000159315,0.0020943,-0.00319117,-0.0465964,1.63237,-5.00585,0.72993,-0.248981,-0.0144821,0.560724,-0.00811838,0.560947,1.63237,-1.00585,0.72993,216,57,216,57,308,60,211,149,-0.409614,0.272397,0,-1.7,1.81795e-38,0,0,0,-1.06968,0.772712,-3.94922,-1.19922,0,0,0.014383,0.137739,9021,-1.05542,0.21622,0.0225013,-0.423207,7707,0,0,0,0,2,-1.54542
7730,0,0.264648,0.729492,0.00294989,-0.000301116,0.00195759,-0.00316944,-0.046593,1.63241,-5.00585,0.72993,-0.248981,-0.0146029,0.569169,-0.00801824,0.564027,1.63241,-1.00585,0.72993,216,57,216,57,308,60,211,149,-0.40948,0.274231,0,-1.7,1.81795e-38,0,0,0,-1.06946,0.774808,-3.94922,-1.19922,0,0,0.0144831,0.14082,9021,-1.05542,0.21622,0.0225013,-0.423207,7707,0,0,0,0,2,-1.54962
7751,0,0.264648,6.33496,-0.000959256,-6.65391e-05,0.00237426,-0.00321988,-0.0465673,1.6325,-5.07834,0.731274,-0.22271,-0.0147695,0.58107,-0.00788009,0.568304,1.63246,-1.07834,0.731274,217,57,217,57,308,60,213,147,-0.409631,0.2715,0,-1.7,1.81795e-38,0,0,0,-1.07145,0.771268,-3.94922,-1.19922,0,0,0.0105065,0.136882,8835,-1.05689,0.194944,0.0183866,-0.431422,7742,0,0,0,0,2,-1.54254
7767,0,0.264648,-5.03418,-0.000157499,7.98453e-05,0.00222859,-0.00324541,-0.0465622,1.63254,-5.07834,0.731274,-0.22271,-0.0148944,0.590196,-0.00776969,0.571533,1.6325,-1.07834,0.731274,217,57,217,57,308,60,213,147,-0.409495,0.27343,0,-1.7,1.81795e-38,0,0,0,-1.07129,0.773491,-3.94922,-1.19922,0,0,0.0106169,0.14011,8835,-1.05689,0.194944,0.0183866,-0.431422,7742,0,0,0,0,2,-1.54698
7788,0,0.264648,-5.03418,-0.000157499,7.98453e-05,0.00222859,-0.00324541,-0.0465622,1.63254,-5.07856,0.734532,-0.225525,-0.0150557,0.602253,-0.0076227,0.575736,1.63254,-1.07856,0.734532,216,58,216,58,308,60,213,147,-0.410202,0.261708,0,-1.7,1.81795e-38,0,0,0,-1.07262,0.761421,-3.94922,-1.19922,0,0,0.00832931,0.117202,8740,-1.05776,0.16467,0.015952,-0.458534,7778,0,0,0,0,2,-1.52284
7803,0,0.264648,6.75781,0.000812546,0.000209323,0.00168056,-0.00325337,-0.0465498,1.6326,-5.07856,0.734532,-0.225525,-0.015169,0.610918,-0.00751731,0.578713,1.6326,-1.07856,0.734532,216,58,216,58,308,60,213,147,-0.410072,0.26337,0,-1.7,1.81795e-38,0,0,0,-1.07249,0.763208,-3.94922,-1.19922,0,0,0.00843471,0.120178,8740,-1.05776,0.16467,0.015952,-0.458534,7778,0,0,0,0,2,-1.52642
7824,0,0.264648,6.75781,0.000812546,0.000209323,0.00168056,-0.00325337,-0.0465498,1.6326,-5.07856,0.734532,-0.225525,-0.0153247,0.623131,-0.00736984,0.582848,1.6326,-1.07856,0.734532,216,58,216,58,308,60,213,147,-0.409928,0.265691,0,-1.7,1.81795e-38,0,0,0,-1.07231,0.765791,-3.94922,-1.19922,0,0,0.00858217,0.124313,8740,-1.05776,0.16467,0.015952,-0.458534,7778,0,0,0,0,2,-1.53158
7840,0,0.264648,-4.47949,0.00124939,-0.000483095,0.00286853,-0.00330024,-0.0465304,1.63269,-5.07856,0.734532,-0.225525,-0.0154415,0.632488,-0.00725635,0.585969,1.63269,-1.07856,0.734532,216,58,216,58,308,60,213,147,-0.409779,0.267514,0,-1.7,1.81795e-38,0,0,0,-1.07218,0.767812,-3.94922,-1.19922,0,0,0.00869566,0.127434,8740,-1.05776,0.16467,0.015952,-0.458534,7778,0,0,0,0,2,-1.53562
7860,0,0.264648,-7.36914,0.000659625,5.45941e-05,0.00272116,-0.00317383,-0.0463867,1.63281,-5.05428,0.743406,-0.238444,-0.0155846,0.644262,-0.00711684,0.58983,1.63281,-1.05428,0.743406,215,58,215,58,306,60,212,149,-0.410095,0.261608,0,-1.7,1.81795e-38,0,0,0,-1.06992,0.761535,-3.94922,-1.19922,0,0,0.0111234,0.116121,8648,-1.0547,0.126747,0.0182403,-0.473709,7846,0,0,0,0,2,-1.52307
7882,0,0.264648,-7.3584,0.000146568,-0.000635224,0.0030982,-0.00332572,-0.0465114,1.63278,-5.0788,0.743516,-0.233548,-0.0157391,0.657298,-0.00696627,0.59403,1.63278,-1.0788,0.743516,216,57,216,57,306,62,212,149,-0.41015,0.260961,0,-1.7,1.81795e-38,0,0,0,-1.07415,0.76068,-3.94922,-1.19922,0,0,-0.000202958,0.115295,8742,-1.05846,0.107212,0.00676331,-0.478735,7876,0,0,0,0,2,-1.52136
7896,0,0.264648,-7.3584,0.000146568,-0.000635224,0.0030982,-0.00332572,-0.0465114,1.63278,-5.0788,0.743516,-0.233548,-0.0158357,0.665637,-0.00686225,0.596687,1.63278,-1.0788,0.743516,216,57,216,57,306,62,212,149,-0.410058,0.262441,0,-1.7,1.81795e-38,0,0,0,-1.07415,0.762317,-3.94922,-1.19922,0,0,-9.89358e-05,0.117952,8742,-1.05846,0.107212,0.00676331,-0.478735,7876,0,0,0,0,2,-1.52463
7916,0,0.264648,7.38184,-0.00262809,0.000681195,0.0022627,-0.00341814,-0.0464997,1.6329,-5.00569,0.73025,-0.248672,-0.0159711,0.677619,-0.00671265,0.600456,1.63286,-1.00569,0.73025,216,57,216,57,308,60,211,149,-0.410207,0.259477,0,-1.7,1.81795e-38,0,0,0,-1.07388,0.759128,-3.94922,-1.19922,0,0,-0.00276015,0.11231,9021,-1.05795,0.0863904,0.0039525,-0.488147,7908,0,0,0,0,2,-1.51826
7931,0,0.264648,-0.525391,0.00950327,0.000235051,0.00300073,-0.00333547,-0.0465125,1.63294,-5.00569,0.73025,-0.248672,-0.0160706,0.686653,-0.00659486,0.60326,1.6329,-1.00569,0.73025,216,57,216,57,308,60,211,149,-0.410096,0.261044,0,-1.7,1.81795e-38,0,0,0,-1.07392,0.76084,-3.94922,-1.19922,0,0,-0.00264236,0.115113,9021,-1.05795,0.0863904,0.0039525,-0.488147,7908,0,0,0,0,2,-1.52168
7952,0,0.264648,-0.525391,0.00950327,0.000235051,0.00300073,-0.00333547,-0.0465125,1.63294,-5.02263,0.72988,-0.24405,-0.0162069,0.699374,-0.00643624,0.607155,1.63294,-1.02263,0.72988,216,57,216,57,308,60,212,149,-0.410241,0.258409,0,-1.7,1.81795e-38,0,0,0,-1.06928,0.757667,-3.94922,-1.19922,0,0,0.000823041,0.110822,8928,-1.05317,0.065241,0.00725928,-0.496333,7940,0,0,0,0,2,-1.51533
7967,0,0.264648,-6.20312,-0.0096491,0.00079203,0.00351128,-0.00343459,-0.0464987,1.63303,-5.02263,0.72988,-0.24405,-0.0163024,0.708508,-0.00632807,0.609914,1.63294,-1.02263,0.72988,216,57,216,57,308,60,212,149,-0.410146,0.25994,0,-1.7,1.81795e-38,0,0,0,-1.06927,0.759355,-3.94922,-1.19922,0,0,0.000931214,0.113581,8928,-1.05317,0.065241,0.00725928,-0.496333,7940,0,0,0,0,2,-1.51871
7988,0,0.264648,-6.20312,-0.0096491,0.00079203,0.00351128,-0.00343459,-0.0464987,1.63303,-5.0057,0.730266,-0.248684,-0.0164328,0.721374,-0.00615806,0.613747,1.63303,-1.0057,0.730266,216,57,216,57,308,60,211,149,-0.410281,0.257166,0,-1.7,1.81795e-38,0,0,0,-1.06539,0.757713,-3.94922,-1.19922,0,0,0.0055215,0.1056,9021,-1.0492,0.0470102,0.0116796,-0.508147,7974,0,0,0,0,2,-1.51543
8004,0,0.264648,3.11719,0.00571315,-0.000328992,0.00298981,-0.00349795,-0.046493,1.63313,-5.0057,0.730266,-0.248684,-0.01653,0.731223,-0.00602684,0.616641,1.63313,-1.0057,0.730266,216,57,216,57,308,60,211,149,-0.41014,0.258786,0,-1.7,1.81795e-38,0,0,0,-1.0653,0.759432,-3.94922,-1.19922,0,0,0.00565272,0.108494,9021,-1.0492,0.0470102,0.0116796,-0.508147,7974,0,0,0,0,2,-1.51886
8024,0,0.264648,-2.53223,0.00442886,-0.00144209,0.00188836,-0.00342964,-0.0464999,1.63317,-5.09065,0.736334,-0.212805,-0.0166482,0.743607,-0.00586021,0.620232,1.63317,-1.09065,0.736334,216,57,216,57,308,60,213,145,-0.410305,0.255903,0,-1.7,1.81795e-38,0,0,0,-1.0658,0.756871,-3.94922,-1.19922,0,0,0.00395672,0.101999,8835,-1.04934,0.023629,0.00981693,-0.518233,8010,0,0,0,0,2,-1.51374
8040,0,0.264648,-2.7959,-0.00176113,-0.000912174,0.00224093,-0.00345121,-0.0464943,1.6332,-5.09065,0.736334,-0.212805,-0.0167407,0.753559,-0.00573461,0.623079,1.6332,-1.09065,0.736334,216,57,216,57,308,60,213,145,-0.410194,0.257456,0,-1.7,1.81795e-38,0,0,0,-1.06573,0.758532,-3.94922,-1.19922,0,0,0.00408232,0.104846,8835,-1.04934,0.023629,0.00981693,-0.518233,8010,0,0,0,0,2,-1.51706
8061,0,0.264648,-2.7959,-0.00176113,-0.000912174,0.00224093,-0.00345121,-0.0464943,1.6332,-5.07336,0.736849,-0.217578,-0.0168531,0.76607,-0.00557627,0.626611,1.6332,-1.07336,0.736849,216,57,216,57,308,60,212,145,-0.410395,0.254242,0,-1.7,1.81795e-38,0,0,0,-1.07339,0.756065,-3.94922,-1.19922,0,0,-0.00288679,0.0968957,8928,-1.05659,0.00058951,0.00268948,-0.529716,8046,0,0,0,0,2,-1.51213
8082,0,0.264648,1.35156,-0.00313974,0.000387826,0.000893573,-0.00362683,-0.0464645,1.63327,-5.09064,0.736362,-0.212795,-0.0169732,0.779911,-0.00538329,0.630457,1.63327,-1.09064,0.736362,216,57,216,57,308,60,213,145,-0.410685,0.249214,0,-1.7,1.81795e-38,0,0,0,-1.07303,0.75081,-3.94922,-1.19922,0,0,0.00201657,0.0871564,8835,-1.05613,-0.0236676,0.00739986,-0.543301,8074,0,0,0,0,2,-1.50162
8096,0,0.264648,1.35156,-0.00313974,0.000387826,0.000893573,-0.00362683,-0.0464645,1.63327,-5.09064,0.736362,-0.212795,-0.0170474,0.788758,-0.00525072,0.632882,1.63327,-1.09064,0.736362,216,57,216,57,308,60,213,145,-0.410608,0.250439,0,-1.7,1.81795e-38,0,0,0,-1.073,0.752051,-3.94922,-1.19922,0,0,0.00214914,0.0895812,8835,-1.05613,-0.0236676,0.00739986,-0.543301,8074,0,0,0,0,2,-1.5041
8117,0,0.264648,2.68652,0.00272956,-0.000711425,0.00253414,-0.00366211,-0.0463867,1.6333,-5.07332,0.737183,-0.217538,-0.0171549,0.802098,-0.0050488,0.636483,1.6333,-1.07332,0.737183,216,57,216,57,308,60,212,145,-0.410888,0.245747,0,-1.7,1.81795e-38,0,0,0,-1.07198,0.74785,-3.94922,-1.19922,0,0,0.00491799,0.0791212,8928,-1.05495,-0.0475595,0.00996679,-0.557362,8107,0,0,0,0,2,-1.4957
8132,0,0.264648,-1.77246,-0.00296809,0.000261341,0.00237322,-0.00367265,-0.046435,1.63342,-5.07332,0.737183,-0.217538,-0.0172292,0.81167,-0.00490338,0.639029,1.6333,-1.07332,0.737183,216,57,216,57,308,60,212,145,-0.41081,0.246987,0,-1.7,1.81795e-38,0,0,0,-1.07191,0.749061,-3.94922,-1.19922,0,0,0.00506341,0.0816672,8928,-1.05495,-0.0475595,0.00996679,-0.557362,8107,0,0,0,0,2,-1.49812
8153,0,0.264648,-1.77246,-0.00296809,0.000261341,0.00237322,-0.00367265,-0.046435,1.63342,-5.1276,0.741682,-0.210857,-0.0173295,0.825137,-0.0047011,0.642573,1.63342,-1.1276,0.741682,216,57,216,57,308,63,213,145,-0.410861,0.245424,0,-1.7,1.81795e-38,0,0,0,-1.07417,0.746832,-3.94922,-1.19922,0,0,-0.00433005,0.0796627,8835,-1.05685,-0.0704238,0.00037105,-0.56291,8141,0,0,0,0,2,-1.49366
8169,-0.00292969,0.262695,-6.38574,-0.00247986,-0.00165734,0.0205167,-0.00373425,-0.0463811,1.63359,-5.1276,0.741682,-0.210857,-0.0173986,0.8348,-0.0045555,0.645083,1.63359,-1.1276,0.741682,216,57,216,57,308,63,213,145,-0.410711,0.246728,0,-1.7,1.81795e-38,0,0,0,-1.07424,0.748051,-3.94922,-1.19922,0,0,-0.00418445,0.0821731,8835,-1.05685,-0.0704238,0.00037105,-0.56291,8141,0,0,0,0,2,-1.4961
8189,-1.58594,-0.392578,-5.00879,-0.455265,-0.0997122,0.549165,-0.00772255,-0.0470776,1.64019,-5.10972,0.745716,-0.222587,-0.0174903,0.848399,-0.00413128,0.648623,1.64019,-1.10972,0.745716,216,57,216,57,306,62,213,148,-0.407962,0.248889,0,-1.7,1.81795e-38,0,0,0,-1.0916,0.748022,-3.94922,-1.19922,0,0,-0.0375469,0.0800726,8649,-1.07341,-0.0884369,-0.0334156,-0.56855,8175,0,0,0,0,2,-1.49604
8205,-1.42773,0.0927734,-3.88965,-2.02025,-0.391549,0.163108,-0.0365338,-0.0530665,1.64356,-5.10972,0.745716,-0.222587,-0.0175437,0.858807,-0.00202478,0.651801,1.64356,-1.10972,0.745716,216,57,216,57,306,62,213,148,-0.406426,0.25171,0,-1.7,1.81795e-38,0,0,0,-1.09219,0.749333,-3.94922,-1.19922,0,0,-0.0354404,0.0832512,8649,-1.07341,-0.0884369,-0.0334156,-0.56855,8175,0,0,0,0,2,-1.49867
8225,-1.42773,0.0927734,-3.88965,-2.02025,-0.391549,0.163108,-0.0365338,-0.0530665,1.64356,-5.12481,0.754534,-0.221881,-0.0174944,0.871913,0.00437543,0.656836,1.64356,-1.12481,0.754534,216,57,216,57,306,62,213,147,-0.40635,0.252757,0,-1.7,1.81795e-38,0,0,0,-1.09932,0.750228,-3.94922,-1.19922,0,0,-0.035893,0.0856584,8649,-1.08102,-0.110261,-0.0402684,-0.571178,8211,0,0,0,0,2,-1.50046
8246,3.12988,1.78418,0.214844,0.488672,0.425747,-1.42945,-0.0471881,-0.0409172,1.60612,-5.12539,0.824497,-0.244341,-0.0173029,0.885765,0.0124459,0.660667,1.60612,-1.12539,0.824497,216,55,216,55,306,59,209,145,-0.422001,0.238799,0,-1.7,1.81795e-38,0,0,0,-1.1008,0.752291,-3.94922,-1.19922,0,0,-0.029517,0.0877475,8827,-1.0832,-0.129463,-0.0419629,-0.572919,8241,0,0,0,0,2,-1.50458
8261,3.12988,1.78418,0.214844,0.488672,0.425747,-1.42945,-0.0471881,-0.0409172,1.60612,-5.12539,0.824497,-0.244341,-0.0170538,0.895692,0.0190778,0.662471,1.60612,-1.12539,0.824497,216,55,216,55,306,59,209,145,-0.421962,0.239916,0,-1.7,1.81795e-38,0,0,0,-1.10118,0.753624,-3.94922,-1.19922,0,0,-0.0228851,0.089552,8827,-1.0832,-0.129463,-0.0419629,-0.572919,8241,0,0,0,0,2,-1.50725
8277,1.64844,0.606445,-5.28613,-0.327962,-0.275485,-0.672084,-0.0420906,-0.0442093,1.57762,-5.12539,0.824497,-0.244341,-0.0166756,0.906312,0.0258735,0.664497,1.57762,-1.12539,0.824497,216,55,216,55,306,59,209,145,-0.43359,0.228956,0,-1.7,1.81795e-38,0,0,0,-1.10147,0.755078,-3.94922,-1.19922,0,0,-0.0160894,0.0915776,8827,-1.0832,-0.129463,-0.0419629,-0.572919,8241,0,0,0,0,2,-1.51016
8291,0.829102,0.405273,2.42285,-1.25281,-0.349137,-0.987052,-0.0595823,-0.0514484,1.56233,-5.12539,0.824497,-0.244341,-0.0162597,0.915634,0.0325165,0.666804,1.56233,-1.12539,0.824497,216,55,216,55,306,59,209,145,-0.439716,0.223509,0,-1.7,1.81795e-38,0,0,0,-1.10164,0.756378,-3.94922,-1.19922,0,0,-0.00944636,0.0938845,8827,-1.0832,-0.129463,-0.0419629,-0.572919,8241,0,0,0,0,2,-1.51276
8307,2.04883,-0.331055,-2.34473,-1.52078,-0.631378,-1.18438,-0.0829351,-0.0608218,1.54487,-5.12539,0.824497,-0.244341,-0.0156372,0.926338,0.043138,0.670462,1.54487,-1.12539,0.824497,216,55,216,55,306,59,209,145,-0.44664,0.217453,0,-1.7,1.81795e-38,0,0,0,-1.10169,0.757916,-3.94922,-1.19922,0,0,0.00117514,0.0975423,8827,-1.0832,-0.129463,-0.0419629,-0.572919,8241,0,0,0,0,2,-1.51583
8322,3.84668,-1.43457,4.88184,-1.02255,-1.3453,-0.604111,-0.101742,-0.0800167,1.53393,-5.12539,0.824497,-0.244341,-0.0148678,0.936439,0.0564731,0.675624,1.53393,-1.12539,0.824497,216,55,216,55,306,59,209,145,-0.450978,0.214584,0,-1.7,1.81795e-38,0,0,0,-1.10155,0.759423,-3.94922,-1.19922,0,0,0.0145102,0.102704,8827,-1.0832,-0.129463,-0.0419629,-0.572919,8241,0,0,0,0,2,-1.51885
8338,4.17383,-2.55176,4.41797,-0.0507699,-1.62105,0.271425,-0.105795,-0.104451,1.53769,-5.12539,0.824497,-0.244341,-0.0137998,0.947326,0.0727395,0.683974,1.53769,-1.12539,0.824497,216,55,216,55,306,59,209,145,-0.449608,0.219225,0,-1.7,1.81795e-38,0,0,0,-1.10115,0.761143,-3.94922,-1.19922,0,0,0.0307766,0.111055,8827,-1.0832,-0.129463,-0.0419629,-0.572919,8241,0,0,0,0,2,-1.52229
8353,4.17383,-2.55176,4.41797,-0.0507699,-1.62105,0.271425,-0.105795,-0.104451,1.53769,-5.12539,0.824497,-0.244341,-0.0125617,0.957683,0.0883611,0.694256,1.53769,-1.12539,0.824497,216,55,216,55,306,59,209,145,-0.449722,0.222675,0,-1.7,1.81795e-38,0,0,0,-1.10054,0.762906,-3.94922,-1.19922,0,0,0.0463982,0.121337,8827,-1.0832,-0.129463,-0.0419629,-0.572919,8241,0,0,0,0,2,-1.52581
8368,4.96582,-3.16895,0.581055,0.203849,-0.437361,2.20008,-0.113051,-0.125374,1.59384,-5.12539,0.824497,-0.244341,-0.0110859,0.968199,0.103924,0.705543,1.59384,-1.12539,0.824497,216,55,216,55,306,59,209,145,-0.42664,0.251069,0,-1.7,1.81795e-38,0,0,0,-1.0997,0.764827,-3.94922,-1.19922,0,0,0.0619613,0.132624,8827,-1.0832,-0.129463,-0.0419629,-0.572919,8241,0,0,0,0,2,-1.52965
8384,4.94434,-3.57812,-7.11035,0.839381,-0.142416,2.74781,-0.10871,-0.123362,1.6352,-5.12539,0.824497,-0.244341,-0.00924878,0.979646,0.120353,0.720681,1.6352,-1.12539,0.824497,216,55,216,55,306,59,209,145,-0.408367,0.273258,0,-1.7,1.81795e-38,0,0,0,-1.09853,0.767108,-3.94922,-1.19922,0,0,0.0783899,0.147762,8827,-1.0832,-0.129463,-0.0419629,-0.572919,8241,0,0,0,0,2,-1.53422
8399,4.13672,-2.87012,2.6084,1.55822,0.398418,3.03512,-0.0918808,-0.113694,1.68162,-5.12539,0.824497,-0.244341,-0.00730751,0.990595,0.134402,0.735045,1.6352,-1.12539,0.824497,216,55,216,55,306,59,209,145,-0.40806,0.278017,0,-1.7,1.81795e-38,0,0,0,-1.09722,0.769463,-3.94922,-1.19922,0,0,0.0924391,0.162125,8827,-1.0832,-0.129463,-0.0419629,-0.572919,8241,0,0,0,0,2,-1.53893
8415,4.13672,-2.87012,2.6084,1.55822,0.398418,3.03512,-0.0918808,-0.113694,1.68162,-5.12539,0.824497,-0.244341,-0.00504047,1.0025,0.145833,0.749139,1.68162,-1.12539,0.824497,216,55,216,55,306,59,209,145,-0.386079,0.301331,0,-1.7,1.81795e-38,0,0,0,-1.09563,0.772201,-3.94922,-1.19922,0,0,0.10387,0.176219,8827,-1.0832,-0.129463,-0.0419629,-0.572919,8241,0,0,0,0,2,-1.5444
8430,1.68945,-2.44922,-2.7832,1.13103,2.56977,2.2626,-0.0523205,-0.0479641,1.76293,-5.12539,0.824497,-0.244341,-0.00275285,1.01386,0.156473,0.762258,1.68162,-1.12539,0.824497,216,55,216,55,306,59,209,145,-0.385564,0.305965,0,-1.7,1.81795e-38,0,0,0,-1.09397,0.774967,-3.94922,-1.19922,0,0,0.11451,0.189339,8827,-1.0832,-0.129463,-0.0419629,-0.572919,8241,0,0,0,0,2,-1.54993
8446,1.53027,-3.52441,6.89355,1.02027,3.01041,2.15158,-0.037882,0.000480498,1.79392,-5.12539,0.824497,-0.244341,-0.000152754,1.02616,0.164489,0.770285,1.76293,-1.12539,0.824497,216,55,216,55,306,59,209,145,-0.344983,0.337178,0,-1.7,1.81795e-38,0,0,0,-1.09204,0.778105,-3.94922,-1.19922,0,0,0.122526,0.197366,8827,-1.0832,-0.129463,-0.0419629,-0.572919,8241,0,0,0,0,2,-1.55621
8460,1.53027,-3.52441,6.89355,1.02027,3.01041,2.15158,-0.037882,0.000480498,1.79392,-5.12539,0.824497,-0.244341,0.00218863,1.03695,0.168786,0.768933,1.79392,-1.12539,0.824497,216,55,216,55,306,59,209,145,-0.328965,0.347622,0,-1.7,1.81795e-38,0,0,0,-1.09028,0.780869,-3.94922,-1.19922,0,0,0.126823,0.196014,8827,-1.0832,-0.129463,-0.0419629,-0.572919,8241,0,0,0,0,2,-1.56174
8476,1.88086,-4.4082,1.78809,1.52609,3.11532,2.33932,-0.0148926,0.0515137,1.8291,-5.12539,0.824497,-0.244341,0.00493296,1.04919,0.172725,0.760951,1.8291,-1.12539,0.824497,216,55,216,55,306,59,209,145,-0.310399,0.35887,0,-1.7,1.81795e-38,0,0,0,-1.08821,0.783944,-3.94922,-1.19922,0,0,0.130762,0.188031,8827,-1.0832,-0.129463,-0.0419629,-0.572919,8241,0,0,0,0,2,-1.56789
8491,1.88086,-4.4082,1.78809,1.52609,3.11532,2.33932,-0.0148926,0.0515137,1.8291,-5.12539,0.824497,-0.244341,0.00755098,1.06049,0.175609,0.749072,1.8291,-1.12539,0.824497,216,55,216,55,306,59,209,145,-0.310399,0.35887,0,-1.7,1.81795e-38,0,0,0,-1.08622,0.786653,-3.94922,-1.19922,0,0,0.133647,0.176153,8827,-1.0832,-0.129463,-0.0419629,-0.572919,8241,0,0,0,0,2,-1.57331
8507,0.395508,-5.12695,5.57422,1.0503,3.20205,3.09694,0.0392993,0.155421,1.92248,-5.12539,0.824497,-0.244341,0.0103883,1.07231,0.177911,0.728658,1.92248,-1.12539,0.824497,216,55,216,55,306,59,209,145,-0.260263,0.382913,0,-1.7,1.81795e-38,0,0,0,-1.08406,0.789306,-3.94922,-1.19922,0,0,0.135948,0.155738,8827,-1.0832,-0.129463,-0.0419629,-0.572919,8241,0,0,0,0,2,-1.57861
8522,0.395508,-5.12695,5.57422,1.0503,3.20205,3.09694,0.0392993,0.155421,1.92248,-5.12539,0.824497,-0.244341,0.0130686,1.08298,0.179146,0.700242,1.92248,-1.12539,0.824497,216,55,216,55,306,59,209,145,-0.262354,0.377214,0,-1.7,1.81795e-38,0,0,0,-1.08201,0.791374,-3.94922,-1.19922,0,0,0.137183,0.127322,8827,-1.0832,-0.129463,-0.0419629,-0.572919,8241,0,0,0,0,2,-1.58275
8537,-1.53027,-6.04004,-0.761719,0.962717,1.97909,3.21999,0.08718,0.230193,2.03238,-5.12539,0.824497,-0.244341,0.0157695,1.09319,0.180817,0.666858,2.03238,-1.12539,0.824497,216,55,216,55,306,59,209,145,-0.203622,0.395912,0,-1.7,1.81795e-38,0,0,0,-1.07993,0.79299,-3.94922,-1.19922,0,0,0.138854,0.0939383,8827,-1.0832,-0.129463,-0.0419629,-0.572919,8241,0,0,0,0,2,-1.58598
8552,-1.53027,-6.04004,-0.761719,0.962717,1.97909,3.21999,0.08718,0.230193,2.03238,-5.12539,0.824497,-0.244341,0.0185042,1.10279,0.183141,0.625984,2.03238,-1.12539,0.824497,216,55,216,55,306,59,209,145,-0.207947,0.387217,0,-1.7,1.81795e-38,0,0,0,-1.07783,0.794003,-3.94922,-1.19922,0,0,0.141178,0.0530644,8827,-1.0832,-0.129463,-0.0419629,-0.572919,8241,0,0,0,0,2,-1.58801
8568,-1.59082,-4.58594,-6.08789,0.534654,1.55291,3.26024,0.142675,0.267549,2.14545,-5.12539,0.824497,-0.244341,0.0214597,1.11236,0.185631,0.580912,2.14545,-1.12539,0.824497,216,55,216,55,306,59,209,145,-0.149267,0.397802,0,-1.7,1.81795e-38,0,0,0,-1.07555,0.794405,-3.94922,-1.19922,0,0,0.143668,0.00799274,8827,-1.0832,-0.129463,-0.0419629,-0.572919,8241,0,0,0,0,2,-1.58881
8583,-1.65723,-3.66309,1.97559,-0.0924798,1.77491,3.36676,0.159028,0.287459,2.20492,-5.12539,0.824497,-0.244341,0.0242677,1.12061,0.18839,0.531266,2.20492,-1.12539,0.824497,216,55,216,55,306,59,209,145,-0.122448,0.395525,0,-1.7,1.81795e-38,0,0,0,-1.07337,0.794061,-3.94922,-1.19922,0,0,0.146427,-0.0416531,8827,-1.0832,-0.129463,-0.0419629,-0.572919,8241,0,0,0,0,2,-1.58812
8598,-1.5625,-2.75684,-3.68652,-0.389738,1.43917,3.60089,0.171768,0.302934,2.26775,-5.12539,0.824497,-0.244341,0.0271394,1.12809,0.193262,0.478719,2.20492,-1.12539,0.824497,216,55,216,55,306,59,209,145,-0.130563,0.384491,0,-1.7,1.81795e-38,0,0,0,-1.07112,0.792942,-3.94922,-1.19922,0,0,0.151299,-0.0942001,8827,-1.0832,-0.129463,-0.0419629,-0.572919,8241,0,0,0,0,2,-1.58588
8614,-1.85059,-2.42188,5.96387,-0.262345,0.869267,3.50928,0.185764,0.308513,2.32757,-5.12539,0.824497,-0.244341,0.0303177,1.13515,0.201711,0.42018,2.26775,-1.12539,0.824497,216,55,216,55,306,59,209,145,-0.105275,0.379558,0,-1.7,1.81795e-38,0,0,0,-1.06862,0.790837,-3.94922,-1.19922,0,0,0.159748,-0.152739,8827,-1.0832,-0.129463,-0.0419629,-0.572919,8241,0,0,0,0,2,-1.58167
8628,-1.85059,-2.42188,5.96387,-0.262345,0.869267,3.50928,0.185764,0.308513,2.32757,-5.12539,0.824497,-0.244341,0.0332244,1.14057,0.211043,0.367878,2.32757,-1.12539,0.824497,216,55,216,55,306,59,209,145,-0.0818372,0.374408,0,-1.7,1.81795e-38,0,0,0,-1.0663,0.788235,-3.94922,-1.19922,0,0,0.16908,-0.205041,8827,-1.0832,-0.129463,-0.0419629,-0.572919,8241,0,0,0,0,2,-1.57647
8650,-2.32812,-2.44141,2.67871,-0.405781,0.32576,3.26295,0.196646,0.304671,2.38362,-5.12539,0.824497,-0.244341,0.0380773,1.14754,0.226747,0.28623,2.38362,-1.12539,0.824497,216,55,216,55,306,59,209,145,-0.0678336,0.362162,0,-1.7,1.81795e-38,0,0,0,-1.06237,0.782602,-3.94922,-1.19922,0,0,0.184784,-0.286689,8827,-1.0832,-0.129463,-0.0419629,-0.572919,8241,0,0,0,0,2,-1.5652
8663,-0.707031,-1.83691,3.75586,-0.207791,-0.226163,3.40802,0.215495,0.282362,2.491,-5.12539,0.824497,-0.244341,0.0411025,1.15088,0.236514,0.238346,2.38362,-1.12539,0.824497,216,55,216,55,306,59,209,145,-0.0780185,0.352521,0,-1.7,1.81795e-38,0,0,0,-1.05989,0.778495,-3.94922,-1.19922,0,0,0.194551,-0.334573,8827,-1.0832,-0.129463,-0.0419629,-0.572919,8241,0,0,0,0,2,-1.55699
8678,0.0751953,-1.01172,-4.16504,-0.317862,-0.729501,3.88593,0.226199,0.25843,2.55068,-5.12539,0.824497,-0.244341,0.0447621,1.15393,0.248411,0.184226,2.491,-1.12539,0.824497,216,55,216,55,306,59,209,145,-0.0340618,0.347974,0,-1.7,1.81795e-38,0,0,0,-1.05686,0.772949,-3.94922,-1.19922,0,0,0.206448,-0.388693,8827,-1.0832,-0.129463,-0.0419629,-0.572919,8241,0,0,0,0,2,-1.5459
8694,0.0751953,-1.01172,-4.16504,-0.317862,-0.729501,3.88593,0.226199,0.25843,2.55068,-5.12539,0.824497,-0.244341,0.0488691,1.1563,0.261187,0.128671,2.55068,-1.12539,0.824497,216,55,216,55,306,59,209,145,-0.0171963,0.339446,0,-1.7,1.81795e-38,0,0,0,-1.05342,0.766158,-3.94922,-1.19922,0,0,0.219224,-0.444249,8827,-1.0832,-0.129463,-0.0419629,-0.572919,8241,0,0,0,0,2,-1.53232
