timestamp,A_x,A_y,A_z,P,Q,R,Phi,Theta,Psi,poseX,poseY,poseZ,state_X,state_Y,state_Z,state_VzB,state_Bx,state_By,state_Bz,p1_x,p1_y,p2_x,p2_y,p3_x,p3_y,p4_x,p4_y,roll,pitch,yaw,alt,targetHeading,highLevelState,lowLevelState,gateNumber,filtered_x,filtered_y,x_OT,y_OT,vx_OT,vy_OT,filtered_vx,filtered_vygateArearansac_corr_x,ransac_corr_y,ransac_corr_vx,ransac_corr_vy,detectionTimeStamppTermX,dTermX,pTermY,dTermY,vxcmd,vycmd
5987,-0.27832,0,-3.16602,-0.000327141,0.000501588,0.0024285,0.0386527,-0.00921635,0.593532,0,0,0,-4.48387e-06,1.2022e-05,-0.000951772,0.00254957,0.592833,0,0,0,0,0,0,0,0,0,0,-0.244318,-0.535962,0,-1.7,4.16626e-38,0,0,0,-4.48387e-06,1.2022e-05,-4.08984,-1.44922,0,0,-0.000951772,0.00254957,1.9603e-19,0,0,0,0,0,0,0,0,0,2,-2.4044e-05
6002,-0.27832,0,-3.14453,-0.000565887,-0.000589081,0.0019996,0.0390212,-0.00925304,0.595493,0,0,0,-4.10149e-05,0.000109524,-0.00313919,0.00836699,0.594701,0,0,0,0,0,0,0,0,0,0,-0.246238,-0.534663,0,-1.7,4.16626e-38,0,0,0,-4.10149e-05,0.000109524,-4.08984,-1.44922,0,0,-0.00313919,0.00836699,1.9603e-19,0,0,0,0,0,0,0,0,0,2,-0.000219048
6018,-0.27832,0,3.67676,0.000333222,-9.08445e-05,0.00139482,0.0391865,-0.00931049,0.597355,0,0,0,-0.000107136,0.000285204,-0.00520635,0.0138136,0.596436,0,0,0,0,0,0,0,0,0,0,-0.248061,-0.533421,0,-1.7,4.16626e-38,0,0,0,-0.000107136,0.000285204,-4.08984,-1.44922,0,0,-0.00520635,0.0138136,1.9603e-19,0,0,0,0,0,0,0,0,0,2,-0.000570407
6033,-0.27832,0,-1.45215,5.72219e-05,8.69438e-05,0.00176969,0.0391889,-0.00930722,0.597507,0,0,0,-0.000212968,0.000565303,-0.00741523,0.0196063,0.597507,0,0,0,0,0,0,0,0,0,0,-0.249759,-0.532261,0,-1.7,4.16626e-38,0,0,0,-0.000212968,0.000565303,-4.08984,-1.4375,0,0,-0.00741523,0.0196063,1.9603e-19,0,0,0,0,0,0,0,0,0,2,-0.00113061
6049,-0.27832,0,3.51953,-0.000202977,-0.000591943,0.00197453,0.0390625,-0.00927734,0.597412,0,0,0,-0.000344096,0.000911581,-0.00946953,0.0249935,0.597412,0,0,0,0,0,0,0,0,0,0,-0.250982,-0.53143,0,-1.7,4.16626e-38,0,0,0,-0.000344096,0.000911581,-4.08984,-1.44922,0,0,-0.00946953,0.0249935,1.9603e-19,0,0,0,0,0,0,0,0,0,2,-0.00182316
6064,-0.27832,0,-6.30566,-0.000960785,3.32844e-05,0.00235321,0.0391764,-0.00929821,0.597559,0,0,0,-0.000517771,0.0013696,-0.0116439,0.0306949,0.597559,0,0,0,0,0,0,0,0,0,0,-0.252402,-0.530462,0,-1.7,4.16626e-38,0,0,0,-0.000517771,0.0013696,-4.08984,-1.44922,0,0,-0.0116439,0.0306949,1.9603e-19,0,0,0,0,0,0,0,0,0,2,-0.0027392
6080,-0.27832,0,-2.33301,-7.6364e-05,-0.00119384,0.00183636,0.0391877,-0.00929895,0.597594,0,0,0,-0.000712072,0.00188149,-0.0136735,0.0360128,0.597594,0,0,0,0,0,0,0,0,0,0,-0.253725,-0.529561,0,-1.7,4.16626e-38,0,0,0,-0.000712072,0.00188149,-4.08984,-1.44922,0,0,-0.0136735,0.0360128,1.9603e-19,0,0,0,0,0,0,0,0,0,2,-0.00376298
6100,-0.27832,0,4.79492,0.00140344,-0.000672616,0.00267206,0.0392042,-0.00929712,0.597631,0,0,0,-0.00104001,0.00274462,-0.0164957,0.0434054,0.597631,0,0,0,0,0,0,0,0,0,0,-0.255623,-0.528269,0,-1.7,4.16626e-38,0,0,0,-0.00104001,0.00274462,-4.08984,-1.44922,0,0,-0.0164957,0.0434054,1.9603e-19,0,0,0,0,0,0,0,0,0,2,-0.00548924
6113,-0.27832,0,-0.727539,-0.00158738,-0.000615108,0.00246981,0.0391936,-0.00930469,0.597671,0,0,0,-0.00126846,0.00334558,-0.0182281,0.0479428,0.597671,0,0,0,0,0,0,0,0,0,0,-0.256823,-0.527452,0,-1.7,4.16626e-38,0,0,0,-0.00126846,0.00334558,-4.08984,-1.44922,0,0,-0.0182281,0.0479428,1.9603e-19,0,0,0,0,0,0,0,0,0,2,-0.00669115
6129,-0.27832,0,-4.54883,-0.00146051,-0.00147026,0.00336224,0.0391751,-0.00931322,0.597719,0,0,0,-0.00158171,0.00416926,-0.020345,0.0534913,0.597719,0,0,0,0,0,0,0,0,0,0,-0.258327,-0.526427,0,-1.7,4.16626e-38,0,0,0,-0.00158171,0.00416926,-4.08984,-1.44922,0,0,-0.020345,0.0534913,1.9603e-19,0,0,0,0,0,0,0,0,0,2,-0.00833853
6144,-0.27832,0,-5.54883,0.00158659,-0.00013215,0.00189559,0.0392014,-0.00931529,0.597757,0,0,0,-0.00190542,0.00502024,-0.0223152,0.0586567,0.597757,0,0,0,0,0,0,0,0,0,0,-0.25976,-0.525451,0,-1.7,4.16626e-38,0,0,0,-0.00190542,0.00502024,-4.08984,-1.44922,0,0,-0.0223152,0.0586567,1.9603e-19,0,0,0,0,0,0,0,0,0,2,-0.0100405
6159,-0.27832,0,-6.2627,-0.000577956,0.000345072,0.00162401,0.0391952,-0.00930565,0.597777,0,0,0,-0.00223404,0.00588392,-0.0241433,0.0634475,0.597777,0,0,0,0,0,0,0,0,0,0,-0.261113,-0.524529,0,-1.7,4.16626e-38,0,0,0,-0.00223404,0.00588392,-4.08984,-1.44922,0,0,-0.0241433,0.0634475,1.9603e-19,0,0,0,0,0,0,0,0,0,2,-0.0117678
6179,-0.27832,0,-3.02246,0.00100522,0.000170881,0.00182056,0.039212,-0.00929599,0.597805,0,0,0,-0.00278043,0.00731946,-0.0268684,0.0705829,0.597805,0,0,0,0,0,0,0,0,0,0,-0.263191,-0.523113,0,-1.7,4.16626e-38,0,0,0,-0.00278043,0.00731946,-4.08984,-1.44922,0,0,-0.0268684,0.0705829,1.9603e-19,0,0,0,0,0,0,0,0,0,2,-0.0146389
6193,-0.27832,0,-1.18359,0.000786799,0.00108225,0.00172329,0.0392203,-0.00928105,0.597841,0,0,0,-0.00317258,0.00834944,-0.0286721,0.0752987,0.597841,0,0,0,0,0,0,0,0,0,0,-0.264604,-0.522151,0,-1.7,4.16626e-38,0,0,0,-0.00317258,0.00834944,-4.08984,-1.44922,0,0,-0.0286721,0.0752987,1.9603e-19,0,0,0,0,0,0,0,0,0,2,-0.0166989
6220,-0.27832,0,-3.69434,5.01065e-06,5.06143e-05,0.00307673,0.0392278,-0.00927994,0.597918,0,0,0,-0.00401563,0.0105625,-0.0321291,0.0843282,0.597875,0,0,0,0,0,0,0,0,0,0,-0.267396,-0.520248,0,-1.7,4.16626e-38,0,0,0,-0.00401563,0.0105625,-4.08984,-1.44922,0,0,-0.0321291,0.0843282,1.9603e-19,0,0,0,0,0,0,0,0,0,2,-0.021125
6245,-0.27832,0,-4.68066,-0.00106988,-0.000680462,0.00175813,0.0392257,-0.00929459,0.597942,0,0,0,-0.00487606,0.0128201,-0.035292,0.0925895,0.597942,0,0,0,0,0,0,0,0,0,0,-0.270059,-0.518432,0,-1.7,4.16626e-38,0,0,0,-0.00487606,0.0128201,-4.08984,-1.44922,0,0,-0.035292,0.0925895,1.9603e-19,0,0,0,0,0,0,0,0,0,2,-0.0256401
6258,-0.27832,0,-5.24219,-0.000654974,-0.000597683,0.00181621,0.0392265,-0.00928887,0.597969,0,0,0,-0.005348,0.0140581,-0.0369188,0.0968415,0.597969,0,0,0,0,0,0,0,0,0,0,-0.271458,-0.517478,0,-1.7,4.16626e-38,0,0,0,-0.005348,0.0140581,-4.08984,-1.44922,0,0,-0.0369188,0.0968415,1.9603e-19,0,0,0,0,0,0,0,0,0,2,-0.0281162
6272,-0.27832,0,-3.87988,-0.000990934,-0.00036744,0.00166754,0.0392275,-0.00928884,0.598,0,0,0,-0.00587994,0.0154533,-0.0386609,0.101393,0.598,0,0,0,0,0,0,0,0,0,0,-0.272986,-0.516436,0,-1.7,4.16626e-38,0,0,0,-0.00587994,0.0154533,-4.08984,-1.44922,0,0,-0.0386609,0.101393,1.9603e-19,0,0,0,0,0,0,0,0,0,2,-0.0309065
6287,-0.27832,0,-1.51758,0.000622276,-0.000239712,0.00123537,0.0392339,-0.00927675,0.598021,0,0,0,-0.00647731,0.0170198,-0.0405157,0.106238,0.598,0,0,0,0,0,0,0,0,0,0,-0.274634,-0.515313,0,-1.7,4.16626e-38,0,0,0,-0.00647731,0.0170198,-4.08984,-1.44922,0,0,-0.0405157,0.106238,1.9603e-19,0,0,0,0,0,0,0,0,0,2,-0.0340395
6302,-0.27832,0,3.94043,0.000601995,-0.00140124,0.00194711,0.0392402,-0.00929018,0.59805,0,0,0,-0.0071024,0.0186586,-0.04236,0.11105,0.598021,0,0,0,0,0,0,0,0,0,0,-0.276313,-0.514169,0,-1.7,4.16626e-38,0,0,0,-0.0071024,0.0186586,-4.08984,-1.44922,0,0,-0.04236,0.11105,1.9603e-19,0,0,0,0,0,0,0,0,0,2,-0.0373172
6317,-0.27832,0,-5.68164,0.000302736,-0.00014551,0.00253556,0.0392434,-0.00928571,0.598089,0,0,0,-0.00775503,0.0203694,-0.0441911,0.115832,0.59805,0,0,0,0,0,0,0,0,0,0,-0.278018,-0.513006,0,-1.7,4.16626e-38,0,0,0,-0.00775503,0.0203694,-4.08984,-1.44922,0,0,-0.0441911,0.115832,1.9603e-19,0,0,0,0,0,0,0,0,0,2,-0.0407387
6332,-0.27832,0,2.79688,0.000463461,-9.09044e-05,0.00390074,0.0392436,-0.00928232,0.598137,0,0,0,-0.00843551,0.0221528,-0.0460105,0.120582,0.598089,0,0,0,0,0,0,0,0,0,0,-0.279749,-0.511824,0,-1.7,4.16626e-38,0,0,0,-0.00843551,0.0221528,-4.08984,-1.44922,0,0,-0.0460105,0.120582,1.9603e-19,0,0,0,0,0,0,0,0,0,2,-0.0443056
6347,-0.27832,0,2.79688,0.000463461,-9.09044e-05,0.00390074,0.0392436,-0.00928232,0.598137,0,0,0,-0.00914268,0.0240059,-0.0478184,0.125299,0.598137,0,0,0,0,0,0,0,0,0,0,-0.281506,-0.510625,0,-1.7,4.16626e-38,0,0,0,-0.00914268,0.0240059,-4.08984,-1.44922,0,0,-0.0478184,0.125299,1.9603e-19,0,0,0,0,0,0,0,0,0,2,-0.0480119
6362,-0.27832,0,-2.09277,-0.000416946,-0.00176816,0.00182763,0.0392469,-0.00930135,0.598165,0,0,0,-0.00987685,0.0259295,-0.0496135,0.129985,0.598165,0,0,0,0,0,0,0,0,0,0,-0.283278,-0.509416,0,-1.7,4.16626e-38,0,0,0,-0.00987685,0.0259295,-4.08984,-1.44922,0,0,-0.0496135,0.129985,1.9603e-19,0,0,0,0,0,0,0,0,0,2,-0.051859
6376,-0.27832,0,-5.32324,-0.000459858,-0.000889964,0.00287139,0.0392487,-0.00929247,0.598196,0,0,0,-0.0105862,0.0277879,-0.0512776,0.134331,0.598196,0,0,0,0,0,0,0,0,0,0,-0.284954,-0.508272,0,-1.7,4.16626e-38,0,0,0,-0.0105862,0.0277879,-4.08984,-1.44922,0,0,-0.0512776,0.134331,1.9603e-19,0,0,0,0,0,0,0,0,0,2,-0.0555757
6392,-0.27832,0,6.12207,-0.000591364,-0.000519079,0.00173777,0.0392522,-0.00929887,0.598228,0,0,0,-0.0114259,0.0299875,-0.0531676,0.139265,0.598228,0,0,0,0,0,0,0,0,0,0,-0.286893,-0.506949,0,-1.7,4.16626e-38,0,0,0,-0.0114259,0.0299875,-4.08984,-1.44922,0,0,-0.0531676,0.139265,1.9603e-19,0,0,0,0,0,0,0,0,0,2,-0.059975
6406,-0.27832,0,2.82617,-0.000335755,0.000425429,0.00141667,0.0392543,-0.00928981,0.598261,0,0,0,-0.0121845,0.0319743,-0.0548101,0.143553,0.598261,0,0,0,0,0,0,0,0,0,0,-0.28861,-0.505776,0,-1.7,4.16626e-38,0,0,0,-0.0121845,0.0319743,-4.08984,-1.44922,0,0,-0.0548101,0.143553,1.9603e-19,0,0,0,0,0,0,0,0,0,2,-0.0639486
6421,-0.27832,0,-5.0957,-0.0015343,-0.00153156,0.00133369,0.0392363,-0.00929525,0.598287,0,0,0,-0.0129663,0.0340218,-0.0564431,0.147813,0.598287,0,0,0,0,0,0,0,0,0,0,-0.290345,-0.504592,0,-1.7,4.16626e-38,0,0,0,-0.0129663,0.0340218,-4.08984,-1.44922,0,0,-0.0564431,0.147813,1.9603e-19,0,0,0,0,0,0,0,0,0,2,-0.0680436
6436,-0.27832,0,4.3584,-0.000832816,3.62958e-05,0.00111006,0.0392427,-0.009292,0.598313,0,0,0,-0.0138883,0.0364362,-0.0582952,0.152649,0.598287,0,0,0,0,0,0,0,0,0,0,-0.292341,-0.503231,0,-1.7,4.16626e-38,0,0,0,-0.0138883,0.0364362,-4.08984,-1.4375,-0.00999832,0.00999832,-0.0582952,0.152649,1.9603e-19,0,0,0,0,0,0,0,0,0,2,-0.0728723
6451,-0.27832,0,-2.63086,-0.0010669,-0.000182767,0.00245317,0.0392479,-0.00928852,0.598342,0,0,0,-0.0147794,0.0387695,-0.0600206,0.157151,0.598313,0,0,0,0,0,0,0,0,0,0,-0.294244,-0.501933,0,-1.7,4.16626e-38,0,0,0,-0.0147794,0.0387695,-4.08984,-1.4375,-0.00999832,0.00999832,-0.0600206,0.157151,1.9603e-19,0,0,0,0,0,0,0,0,0,2,-0.0775389
6466,-0.27832,0,-5.97168,0.000657986,-0.000813168,0.00246198,0.0392572,-0.00930242,0.598373,0,0,0,-0.0156963,0.04117,-0.0617349,0.161623,0.598342,0,0,0,0,0,0,0,0,0,0,-0.296169,-0.500618,0,-1.7,4.16626e-38,0,0,0,-0.0156963,0.04117,-4.08984,-1.4375,-0.00999832,0.00999832,-0.0617349,0.161623,1.9603e-19,0,0,0,0,0,0,0,0,0,2,-0.08234
6482,-0.27832,0,-5.97168,0.000657986,-0.000813168,0.00246198,0.0392572,-0.00930242,0.598373,0,0,0,-0.0167026,0.0438043,-0.0635508,0.166361,0.598373,0,0,0,0,0,0,0,0,0,0,-0.298246,-0.4992,0,-1.7,4.16626e-38,0,0,0,-0.0167026,0.0438043,-4.08984,-1.4375,-0.00999832,0.00999832,-0.0635508,0.166361,1.9603e-19,0,0,0,0,0,0,0,0,0,2,-0.0876086
6497,-0.27832,0,7.08789,-0.000208035,-0.000485288,0.00146594,0.0392537,-0.00930085,0.598401,0,0,0,-0.0176722,0.0463424,-0.0652411,0.170773,0.598401,0,0,0,0,0,0,0,0,0,0,-0.300215,-0.497855,0,-1.7,4.16626e-38,0,0,0,-0.0176722,0.0463424,-4.08984,-1.4375,-0.00999832,0.00999832,-0.0652411,0.170773,1.9603e-19,0,0,0,0,0,0,0,0,0,2,-0.0926849
6512,-0.27832,0,6.49805,-0.000132874,-0.00025395,0.00286266,0.0392588,-0.00929097,0.598435,0,0,0,-0.0186666,0.0489453,-0.0669207,0.175154,0.598435,0,0,0,0,0,0,0,0,0,0,-0.302206,-0.496495,0,-1.7,4.16626e-38,0,0,0,-0.0186666,0.0489453,-4.08984,-1.4375,-0.00999832,0.00999832,-0.0669207,0.175154,1.9603e-19,0,0,0,0,0,0,0,0,0,2,-0.0978905
6527,-0.27832,0,-6.92773,-0.00110219,-0.000155619,0.00160201,0.0392551,-0.00929408,0.598461,0,0,0,-0.0196862,0.0516135,-0.0685897,0.179506,0.598461,0,0,0,0,0,0,0,0,0,0,-0.304216,-0.495123,0,-1.7,4.16626e-38,0,0,0,-0.0196862,0.0516135,-4.08984,-1.4375,-0.00999832,0.00999832,-0.0685897,0.179506,1.9603e-19,0,0,0,0,0,0,0,0,0,2,-0.103227
6542,-0.27832,0,-4.37109,0.000375881,-0.000200737,0.00145362,0.0390625,-0.00927734,0.598389,0,0,0,-0.020731,0.0543479,-0.0702416,0.183818,0.598389,0,0,0,0,0,0,0,0,0,0,-0.306213,-0.493767,0,-1.7,4.16626e-38,0,0,0,-0.020731,0.0543479,-4.08984,-1.4375,-0.00999832,0.00999832,-0.0702416,0.183818,1.9603e-19,0,0,0,0,0,0,0,0,0,2,-0.108696
6557,-0.27832,0,0.375,0.00017179,-7.02633e-05,0.00210877,0.0392826,-0.00927478,0.59853,0,0,0,-0.0218005,0.0571465,-0.0718789,0.188094,0.59853,0,0,0,0,0,0,0,0,0,0,-0.308297,-0.492333,0,-1.7,4.16626e-38,0,0,0,-0.0218005,0.0571465,-4.08984,-1.4375,-0.00999832,0.00999832,-0.0718789,0.188094,1.9603e-19,0,0,0,0,0,0,0,0,0,2,-0.114293
6573,-0.27832,0,7.28223,1.7056e-05,-0.00068982,0.0024196,0.0392754,-0.0092819,0.598572,0,0,0,-0.0229689,0.0602039,-0.0736283,0.192645,0.598572,0,0,0,0,0,0,0,0,0,0,-0.310513,-0.490818,0,-1.7,4.16626e-38,0,0,0,-0.0229689,0.0602039,-4.08984,-1.44922,0,-0.0299988,-0.0736283,0.192645,1.9603e-19,0,0,0,0,0,0,0,0,0,2,-0.120408
6587,-0.27832,0,-0.660156,-0.00068755,-0.000443479,0.00133189,0.0392712,-0.00927574,0.598589,0,0,0,-0.0240129,0.0629351,-0.0751474,0.196597,0.598589,0,0,0,0,0,0,0,0,0,0,-0.312463,-0.489486,0,-1.7,4.16626e-38,0,0,0,-0.0240129,0.0629351,-4.08984,-1.44922,0,0,-0.0751474,0.196597,1.9603e-19,0,0,0,0,0,0,0,0,0,2,-0.12587
6601,-0.27832,0,3.66797,0.000509836,0.000193093,0.00218467,0.0392739,-0.00927559,0.59862,0,0,0,-0.025078,0.0657215,-0.0766573,0.200524,0.598589,0,0,0,0,0,0,0,0,0,0,-0.314425,-0.488148,0,-1.7,4.16626e-38,0,0,0,-0.025078,0.0657215,-4.08984,-1.44922,0,0,-0.0766573,0.200524,1.9603e-19,0,0,0,0,0,0,0,0,0,2,-0.131443
6616,-0.27832,0,-6.30957,-5.7392e-05,-0.000410432,0.00281845,0.03928,-0.00928167,0.598661,0,0,0,-0.0262434,0.0687698,-0.0782651,0.204706,0.59862,0,0,0,0,0,0,0,0,0,0,-0.316558,-0.48669,0,-1.7,4.16626e-38,0,0,0,-0.0262434,0.0687698,-4.08984,-1.44922,0,0,-0.0782651,0.204706,1.9603e-19,0,0,0,0,0,0,0,0,0,2,-0.13754
6631,-0.27832,0,-6.30957,-5.7392e-05,-0.000410432,0.00281845,0.03928,-0.00928167,0.598661,0,0,0,-0.0274324,0.0718795,-0.079862,0.208859,0.598661,0,0,0,0,0,0,0,0,0,0,-0.318713,-0.485216,0,-1.7,4.16626e-38,0,0,0,-0.0274324,0.0718795,-4.08984,-1.44922,0,0,-0.079862,0.208859,1.9603e-19,0,0,0,0,0,0,0,0,0,2,-0.143759
6646,-0.27832,0,-4.94238,0.000571334,-0.00134448,0.00207939,0.0392961,-0.00929961,0.598701,0,0,0,-0.0286453,0.0750512,-0.081448,0.212987,0.598701,0,0,0,0,0,0,0,0,0,0,-0.320888,-0.483728,0,-1.7,4.16626e-38,0,0,0,-0.0286453,0.0750512,-4.08984,-1.44922,0,0,-0.081448,0.212987,1.9603e-19,0,0,0,0,0,0,0,0,0,2,-0.150102
6661,-0.27832,0,-3.57422,-0.0011567,-0.000345807,0.00206508,0.0392943,-0.00929926,0.598735,0,0,0,-0.0297986,0.0780669,-0.0829182,0.216815,0.598735,0,0,0,0,0,0,0,0,0,0,-0.322934,-0.482328,0,-1.7,4.16626e-38,0,0,0,-0.0297986,0.0780669,-4.08984,-1.44922,0,0,-0.0829182,0.216815,1.9603e-19,0,0,0,0,0,0,0,0,0,2,-0.156134
6676,-0.27832,0,-3.57422,-0.0011567,-0.000345807,0.00206508,0.0392943,-0.00929926,0.598735,0,0,0,-0.0311423,0.0815803,-0.0845875,0.221162,0.598735,0,0,0,0,0,0,0,0,0,0,-0.325283,-0.480725,0,-1.7,4.16626e-38,0,0,0,-0.0311423,0.0815803,-4.08984,-1.44922,0,0,-0.0845875,0.221162,1.9603e-19,0,0,0,0,0,0,0,0,0,2,-0.163161
6697,-0.27832,0,-3.57422,-0.0011567,-0.000345807,0.00206508,0.0392943,-0.00929926,0.598735,0,0,0,-0.0329511,0.0863093,-0.0867624,0.226825,0.598735,0,0,0,0,0,0,0,0,0,0,-0.328406,-0.478595,0,-1.7,4.16626e-38,0,0,0,-0.0329511,0.0863093,-4.08984,-1.44922,0,0,-0.0867624,0.226825,1.9603e-19,0,0,0,0,0,0,0,0,0,2,-0.172619
6712,-0.27832,0,-5.75098,-0.000167472,-0.000292404,0.00259419,0.0392989,-0.00930279,0.598815,0,0,0,-0.034267,0.0897494,-0.0883018,0.230834,0.598815,0,0,0,0,0,0,0,0,0,0,-0.330679,-0.477034,0,-1.7,4.16626e-38,0,0,0,-0.034267,0.0897494,-4.08984,-1.44922,0,0,-0.0883018,0.230834,1.9603e-19,0,0,0,0,0,0,0,0,0,2,-0.179499
6727,-0.27832,0,3.68262,2.76099e-05,8.30413e-05,0.00256915,0.0392904,-0.00929284,0.598853,0,0,0,-0.0356064,0.0932505,-0.0898315,0.234815,0.598853,0,0,0,0,0,0,0,0,0,0,-0.332958,-0.475473,0,-1.7,4.16626e-38,0,0,0,-0.0356064,0.0932505,-4.08984,-1.44922,0,0,-0.0898315,0.234815,1.9603e-19,0,0,0,0,0,0,0,0,0,2,-0.186501
6742,-0.27832,0,-1.04688,-0.000103976,-0.000951655,0.00276975,0.0392994,-0.00930093,0.598897,0,0,0,-0.0369681,0.0968099,-0.0913512,0.238769,0.598897,0,0,0,0,0,0,0,0,0,0,-0.335258,-0.473899,0,-1.7,4.16626e-38,0,0,0,-0.0369681,0.0968099,-4.08984,-1.44922,0,0,-0.0913512,0.238769,1.9603e-19,0,0,0,0,0,0,0,0,0,2,-0.19362
6756,-0.27832,0,-4.61035,-0.000950622,0.000224773,0.00138899,0.0393059,-0.0093058,0.598915,0,0,0,-0.0382596,0.100185,-0.0927603,0.242436,0.598915,0,0,0,0,0,0,0,0,0,0,-0.337415,-0.472424,0,-1.7,4.16626e-38,0,0,0,-0.0382596,0.100185,-4.08984,-1.44922,0,0,-0.0927603,0.242436,1.9603e-19,0,0,0,0,0,0,0,0,0,2,-0.20037
6772,-0.27832,0,-5.87988,-0.00161329,-0.000952221,0.00198242,0.0393052,-0.0093119,0.598941,0,0,0,-0.03976,0.104107,-0.09436,0.246601,0.598941,0,0,0,0,0,0,0,0,0,0,-0.339901,-0.470723,0,-1.7,4.16626e-38,0,0,0,-0.03976,0.104107,-4.08984,-1.44922,0,0,-0.09436,0.246601,1.9603e-19,0,0,0,0,0,0,0,0,0,2,-0.208213
6786,-0.27832,0,-7.28027,6.47226e-05,-0.000671733,0.00138465,0.0393117,-0.00931359,0.598958,0,0,0,-0.0410931,0.10759,-0.0957495,0.250219,0.598958,0,0,0,0,0,0,0,0,0,0,-0.342092,-0.469225,0,-1.7,4.16626e-38,0,0,0,-0.0410931,0.10759,-4.08984,-1.44922,0,0,-0.0957495,0.250219,1.9603e-19,0,0,0,0,0,0,0,0,0,2,-0.215181
6799,-0.27832,0,3.2627,-0.000720916,0.000295133,0.00106754,0.0393179,-0.00930157,0.598978,0,0,0,-0.0423482,0.11087,-0.0970322,0.25356,0.598958,0,0,0,0,0,0,0,0,0,0,-0.344137,-0.46783,0,-1.7,4.16626e-38,0,0,0,-0.0423482,0.11087,-4.08984,-1.44922,0,0,-0.0970322,0.25356,1.9603e-19,0,0,0,0,0,0,0,0,0,2,-0.22174
6815,-0.27832,0,3.2627,-0.000720916,0.000295133,0.00106754,0.0393179,-0.00930157,0.598978,0,0,0,-0.0438179,0.114711,-0.0985045,0.257391,0.598978,0,0,0,0,0,0,0,0,0,0,-0.346519,-0.4662,0,-1.7,4.16626e-38,0,0,0,-0.0438179,0.114711,-4.08984,-1.44922,0,0,-0.0985045,0.257391,1.9603e-19,0,0,0,0,0,0,0,0,0,2,-0.229421
6829,-0.27832,0,5.6416,-0.00138183,-0.000576642,0.00159038,0.0393177,-0.00930211,0.599005,0,0,0,-0.0453097,0.118608,-0.0999679,0.261196,0.599005,0,0,0,0,0,0,0,0,0,0,-0.348923,-0.464556,0,-1.7,4.16626e-38,0,0,0,-0.0453097,0.118608,-4.08984,-1.44922,0,0,-0.0999679,0.261196,1.9603e-19,0,0,0,0,0,0,0,0,0,2,-0.237217
6844,-0.27832,0,-2.46875,0.000282055,-0.000869048,0.000717583,0.0393366,-0.00930611,0.599029,0,0,0,-0.0468233,0.122563,-0.101422,0.264977,0.599029,0,0,0,0,0,0,0,0,0,0,-0.351343,-0.4629,0,-1.7,4.16626e-38,0,0,0,-0.0468233,0.122563,-4.08984,-1.44922,0,0,-0.101422,0.264977,1.9603e-19,0,0,0,0,0,0,0,0,0,2,-0.245126
6859,-0.27832,0,-2.46875,0.000282055,-0.000869048,0.000717583,0.0393366,-0.00930611,0.599029,0,0,0,-0.0483582,0.126573,-0.102867,0.268733,0.599029,0,0,0,0,0,0,0,0,0,0,-0.353774,-0.46124,0,-1.7,4.16626e-38,0,0,0,-0.0483582,0.126573,-4.08984,-1.44922,0,0,-0.102867,0.268733,1.9603e-19,0,0,0,0,0,0,0,0,0,2,-0.253146
6875,-0.27832,0,-2.46875,0.000282055,-0.000869048,0.000717583,0.0393366,-0.00930611,0.599029,0,0,0,-0.0499151,0.13064,-0.104302,0.272465,0.599029,0,0,0,0,0,0,0,0,0,0,-0.356224,-0.459567,0,-1.7,4.16626e-38,0,0,0,-0.0499151,0.13064,-4.08984,-1.44922,0,0,-0.104302,0.272465,1.9603e-19,0,0,0,0,0,0,0,0,0,2,-0.26128
6890,-0.27832,0,-2.89551,-0.00039045,-0.000312608,0.00222548,0.039338,-0.00929513,0.599139,0,0,0,-0.0515994,0.13504,-0.105823,0.276417,0.599139,0,0,0,0,0,0,0,0,0,0,-0.358889,-0.45773,0,-1.7,4.16626e-38,0,0,0,-0.0515994,0.13504,-4.08984,-1.44922,0,0,-0.105823,0.276417,1.9603e-19,0,0,0,0,0,0,0,0,0,2,-0.27008
6904,-0.27832,0,-3.32812,0.000638294,-0.000820641,0.00230392,0.0393418,-0.00928686,0.599168,0,0,0,-0.0530927,0.13894,-0.107147,0.27985,0.599168,0,0,0,0,0,0,0,0,0,0,-0.361216,-0.456136,0,-1.7,4.16626e-38,0,0,0,-0.0530927,0.13894,-4.08984,-1.44922,0,0,-0.107147,0.27985,1.9603e-19,0,0,0,0,0,0,0,0,0,2,-0.27788
6919,-0.27832,0,-1.90039,0.000270227,-0.000529232,0.00199368,0.0393455,-0.00928702,0.599203,0,0,0,-0.0547135,0.143173,-0.108557,0.283506,0.599203,0,0,0,0,0,0,0,0,0,0,-0.363728,-0.454414,0,-1.7,4.16626e-38,0,0,0,-0.0547135,0.143173,-4.08984,-1.44922,0,0,-0.108557,0.283506,1.9603e-19,0,0,0,0,0,0,0,0,0,2,-0.286346
6934,-0.27832,0,0.77832,2.03121e-05,-0.000327257,0.00104591,0.0393492,-0.00928113,0.599226,0,0,0,-0.0563551,0.14746,-0.109958,0.287136,0.599203,0,0,0,0,0,0,0,0,0,0,-0.366248,-0.452693,0,-1.7,4.16626e-38,0,0,0,-0.0563551,0.14746,-4.08984,-1.44922,0,0,-0.109958,0.287136,1.9603e-19,0,0,0,0,0,0,0,0,0,2,-0.29492
6949,-0.27832,0,5.1748,0.000237729,0.000581666,0.00140369,0.0393583,-0.00927359,0.599255,0,0,0,-0.057906,0.15151,-0.111257,0.290503,0.599226,0,0,0,0,0,0,0,0,0,0,-0.368621,-0.451068,0,-1.7,4.16626e-38,0,0,0,-0.057906,0.15151,-4.08984,-1.44922,0,0,-0.111257,0.290503,1.9603e-19,0,0,0,0,0,0,0,0,0,2,-0.30302
6964,-0.27832,0,5.1748,0.000237729,0.000581666,0.00140369,0.0393583,-0.00927359,0.599255,0,0,0,-0.0597012,0.156197,-0.112734,0.294325,0.599255,0,0,0,0,0,0,0,0,0,0,-0.371354,-0.449197,0,-1.7,4.16626e-38,0,0,0,-0.0597012,0.156197,-4.08984,-1.44922,0,0,-0.112734,0.294325,1.9603e-19,0,0,0,0,0,0,0,0,0,2,-0.312394
6978,-0.27832,0,-3.98926,0.00125184,0.000132928,0.00250614,0.0393767,-0.00926068,0.599297,0,0,0,-0.0612906,0.160346,-0.11402,0.297646,0.599297,0,0,0,0,0,0,0,0,0,0,-0.373764,-0.447543,0,-1.7,4.16626e-38,0,0,0,-0.0612906,0.160346,-4.08984,-1.44922,0,0,-0.11402,0.297646,1.9603e-19,0,0,0,0,0,0,0,0,0,2,-0.320692
6992,-0.27832,0,2.56934,-0.000604158,-0.00070905,0.00182386,0.0393817,-0.00926181,0.599331,0,0,0,-0.0628979,0.164542,-0.115299,0.300948,0.599331,0,0,0,0,0,0,0,0,0,0,-0.376187,-0.445881,0,-1.7,4.16626e-38,0,0,0,-0.0628979,0.164542,-4.08984,-1.44922,0,0,-0.115299,0.300948,1.9603e-19,0,0,0,0,0,0,0,0,0,2,-0.329083
7006,-0.27832,0,1.54883,0.000453922,0.001344,0.00281095,0.0393848,-0.00924781,0.59937,0,0,0,-0.0645234,0.168784,-0.116572,0.304229,0.59937,0,0,0,0,0,0,0,0,0,0,-0.378626,-0.444207,0,-1.7,4.16626e-38,0,0,0,-0.0645234,0.168784,-4.08984,-1.44922,0,0,-0.116572,0.304229,1.9603e-19,0,0,0,0,0,0,0,0,0,2,-0.337568
7022,-0.27832,0,-1.99121,-0.000419729,-0.000102793,0.00214937,0.0393849,-0.0092465,0.599403,0,0,0,-0.0662851,0.173381,-0.117928,0.307722,0.599403,0,0,0,0,0,0,0,0,0,0,-0.381254,-0.442405,0,-1.7,4.16626e-38,0,0,0,-0.0662851,0.173381,-4.08984,-1.44922,0,0,-0.117928,0.307722,1.9603e-19,0,0,0,0,0,0,0,0,0,2,-0.346763
7037,-0.27832,0,-1.13574,7.05315e-05,-0.000670918,0.00221981,0.0393795,-0.00924354,0.599442,0,0,0,-0.0680671,0.178031,-0.119275,0.311191,0.599442,0,0,0,0,0,0,0,0,0,0,-0.3839,-0.440589,0,-1.7,4.16626e-38,0,0,0,-0.0680671,0.178031,-4.08984,-1.44922,0,0,-0.119275,0.311191,1.9603e-19,0,0,0,0,0,0,0,0,0,2,-0.356061
7051,-0.27832,0,-0.782227,-0.000767286,-0.000283894,0.00298561,0.0393683,-0.00923101,0.599472,0,0,0,-0.0698691,0.182732,-0.120613,0.314635,0.599442,0,0,0,0,0,0,0,0,0,0,-0.386552,-0.438777,0,-1.7,4.16626e-38,0,0,0,-0.0698691,0.182732,-4.08984,-1.44922,0,0,-0.120613,0.314635,1.9603e-19,0,0,0,0,0,0,0,0,0,2,-0.365464
7066,-0.27832,0,1.19824,0.000873471,-0.000760038,0.00111666,0.0393834,-0.00922369,0.599498,0,0,0,-0.0716912,0.187485,-0.121943,0.318054,0.599472,0,0,0,0,0,0,0,0,0,0,-0.389227,-0.436943,0,-1.7,4.16626e-38,0,0,0,-0.0716912,0.187485,-4.08984,-1.44922,0,0,-0.121943,0.318054,1.9603e-19,0,0,0,0,0,0,0,0,0,2,-0.374969
7082,-0.27832,0,5.49609,-0.000188319,-0.000342347,0.00313982,0.039383,-0.00921452,0.599541,0,0,0,-0.0736571,0.192612,-0.123355,0.321678,0.599498,0,0,0,0,0,0,0,0,0,0,-0.392098,-0.434975,0,-1.7,4.16626e-38,0,0,0,-0.0736571,0.192612,-4.08984,-1.44922,0,0,-0.123355,0.321678,1.9603e-19,0,0,0,0,0,0,0,0,0,2,-0.385223
7097,-0.27832,0,5.49609,-0.000188319,-0.000342347,0.00313982,0.039383,-0.00921452,0.599541,0,0,0,-0.0755198,0.197468,-0.124669,0.325049,0.599541,0,0,0,0,0,0,0,0,0,0,-0.39481,-0.433112,0,-1.7,4.16626e-38,0,0,0,-0.0755198,0.197468,-4.08984,-1.44922,0,0,-0.124669,0.325049,1.9603e-19,0,0,0,0,0,0,0,0,0,2,-0.394937
7112,-0.27832,0,-3.09473,0.000329123,-0.000223984,0.0019586,0.0393885,-0.00921765,0.599575,0,0,0,-0.0774022,0.202376,-0.125975,0.328398,0.599575,0,0,0,0,0,0,0,0,0,0,-0.397536,-0.431242,0,-1.7,4.16626e-38,0,0,0,-0.0774022,0.202376,-4.08984,-1.44922,0,0,-0.125975,0.328398,1.9603e-19,0,0,0,0,0,0,0,0,0,2,-0.404751
7127,-0.27832,0,6.52344,0.00103755,0.000435392,0.00260291,0.0393884,-0.00921324,0.599602,0,0,0,-0.0791765,0.207001,-0.127187,0.331504,0.599602,0,0,0,0,0,0,0,0,0,0,-0.400093,-0.429488,0,-1.7,4.16626e-38,0,0,0,-0.0791765,0.207001,-4.08984,-1.44922,0,0,-0.127187,0.331504,1.9603e-19,0,0,0,0,0,0,0,0,0,2,-0.414002
7141,-0.27832,0,0.779297,-0.000487526,-0.000449866,0.000950379,0.0393892,-0.00920703,0.599612,0,0,0,-0.0810968,0.212005,-0.128477,0.33481,0.599612,0,0,0,0,0,0,0,0,0,0,-0.402844,-0.427606,0,-1.7,4.16626e-38,0,0,0,-0.0810968,0.212005,-4.08984,-1.44922,0,0,-0.128477,0.33481,1.9603e-19,0,0,0,0,0,0,0,0,0,2,-0.424011
7157,-0.27832,0,-1.73828,-9.70729e-05,-0.00063062,0.00187673,0.0394024,-0.00920537,0.599642,0,0,0,-0.0831669,0.217399,-0.129846,0.338313,0.599642,0,0,0,0,0,0,0,0,0,0,-0.405801,-0.425577,0,-1.7,4.16626e-38,0,0,0,-0.0831669,0.217399,-4.08984,-1.44922,0,0,-0.129846,0.338313,1.9603e-19,0,0,0,0,0,0,0,0,0,2,-0.434798
7171,-0.27832,0,-3.88672,-0.00149354,-0.000926758,0.00254926,0.0393826,-0.00920646,0.599679,0,0,0,-0.084995,0.222162,-0.131035,0.341355,0.599679,0,0,0,0,0,0,0,0,0,0,-0.408404,-0.423789,0,-1.7,4.16626e-38,0,0,0,-0.084995,0.222162,-4.08984,-1.44922,0,0,-0.131035,0.341355,1.9603e-19,0,0,0,0,0,0,0,0,0,2,-0.444324
7185,-0.27832,0,7.05859,-0.000599671,-0.000649457,0.00211196,0.0390625,-0.0090332,0.599609,0,0,0,-0.0868397,0.226967,-0.132214,0.344367,0.599609,0,0,0,0,0,0,0,0,0,0,-0.410991,-0.422037,0,-1.7,4.16626e-38,0,0,0,-0.0868397,0.226967,-4.08984,-1.44922,0,0,-0.132214,0.344367,1.9603e-19,0,0,0,0,0,0,0,0,0,2,-0.453934
7200,-0.27832,0,-0.651367,-0.00139089,-0.000137071,0.00240344,0.0393735,-0.00920897,0.599742,0,0,0,-0.0888347,0.232162,-0.133465,0.347532,0.599609,0,0,0,0,0,0,0,0,0,0,-0.413789,-0.420124,0,-1.7,4.16626e-38,0,0,0,-0.0888347,0.232162,-4.08984,-1.44922,0,0,-0.133465,0.347532,1.9603e-19,0,0,0,0,0,0,0,0,0,2,-0.464324
7215,-0.27832,0,-7.36621,0.000221821,-0.000295224,0.00227519,0.0393894,-0.00921234,0.599773,0,0,0,-0.0908487,0.237406,-0.134713,0.350727,0.599742,0,0,0,0,0,0,0,0,0,0,-0.416645,-0.418139,0,-1.7,4.16626e-38,0,0,0,-0.0908487,0.237406,-4.08984,-1.44922,0,0,-0.134713,0.350727,1.9603e-19,0,0,0,0,0,0,0,0,0,2,-0.474812
7230,-0.27832,0,1.31738,2.80053e-05,-0.000163987,0.00176106,0.0393973,-0.00920279,0.599802,0,0,0,-0.0928814,0.242698,-0.135953,0.353903,0.599773,0,0,0,0,0,0,0,0,0,0,-0.419492,-0.416184,0,-1.7,4.16626e-38,0,0,0,-0.0928814,0.242698,-4.08984,-1.44922,0,0,-0.135953,0.353903,1.9603e-19,0,0,0,0,0,0,0,0,0,2,-0.485395
7245,-0.27832,0,1.31738,2.80053e-05,-0.000163987,0.00176106,0.0393973,-0.00920279,0.599802,0,0,0,-0.0949323,0.248036,-0.137187,0.357057,0.599802,0,0,0,0,0,0,0,0,0,0,-0.422353,-0.41422,0,-1.7,4.16626e-38,0,0,0,-0.0949323,0.248036,-4.08984,-1.44922,0,0,-0.137187,0.357057,1.9603e-19,0,0,0,0,0,0,0,0,0,2,-0.496072
7260,-0.27832,0,-2.92188,-0.000787437,0.000540519,0.00282566,0.0393745,-0.00918893,0.59985,0,0,0,-0.0970017,0.253421,-0.138412,0.360189,0.59985,0,0,0,0,0,0,0,0,0,0,-0.425234,-0.412238,0,-1.7,4.16626e-38,0,0,0,-0.0970017,0.253421,-4.08984,-1.44922,0,0,-0.138412,0.360189,1.9603e-19,0,0,0,0,0,0,0,0,0,2,-0.506843
7274,-0.27832,0,-4.52344,-0.000623761,1.94329e-05,0.00223727,0.0393762,-0.00918147,0.599883,0,0,0,-0.0989495,0.25849,-0.13955,0.363091,0.599883,0,0,0,0,0,0,0,0,0,0,-0.427932,-0.410384,0,-1.7,4.16626e-38,0,0,0,-0.0989495,0.25849,-4.08984,-1.44922,0,0,-0.13955,0.363091,1.9603e-19,0,0,0,0,0,0,0,0,0,2,-0.516979
7289,-0.27832,0,-4.28027,0.000556685,-0.000322268,0.00288868,0.0393829,-0.00917277,0.599918,0,0,0,-0.101054,0.263966,-0.140762,0.366179,0.599918,0,0,0,0,0,0,0,0,0,0,-0.430838,-0.408387,0,-1.7,4.16626e-38,0,0,0,-0.101054,0.263966,-4.08984,-1.44922,0,0,-0.140762,0.366179,1.9603e-19,0,0,0,0,0,0,0,0,0,2,-0.527932
7305,-0.27832,0,-3.62598,0.000288447,-0.000265564,0.0030275,0.0393793,-0.00917665,0.599959,0,0,0,-0.10332,0.269858,-0.142047,0.369451,0.599959,0,0,0,0,0,0,0,0,0,0,-0.433954,-0.406244,0,-1.7,4.16626e-38,0,0,0,-0.10332,0.269858,-4.08984,-1.44922,0,0,-0.142047,0.369451,1.9603e-19,0,0,0,0,0,0,0,0,0,2,-0.539716
7319,-0.27832,0,1.09863,0.00140818,0.000292302,0.00244423,0.0393967,-0.00917126,0.600001,0,0,0,-0.105318,0.275056,-0.143163,0.372294,0.600001,0,0,0,0,0,0,0,0,0,0,-0.436695,-0.404357,0,-1.7,4.16626e-38,0,0,0,-0.105318,0.275056,-4.08984,-1.44922,0,0,-0.143163,0.372294,1.9603e-19,0,0,0,0,0,0,0,0,0,2,-0.550111
7334,-0.27832,0,5.00195,-0.000227071,0.000311692,0.00193408,0.0393999,-0.0091674,0.600034,0,0,0,-0.107477,0.280669,-0.144354,0.375322,0.600034,0,0,0,0,0,0,0,0,0,0,-0.439644,-0.40233,0,-1.7,4.16626e-38,0,0,0,-0.107477,0.280669,-4.08984,-1.44922,0,0,-0.144354,0.375322,1.9603e-19,0,0,0,0,0,0,0,0,0,2,-0.561339
7349,-0.27832,0,-2.21777,-0.000622536,-0.000137384,0.0027241,0.039413,-0.00916248,0.600069,0,0,0,-0.109654,0.286328,-0.145538,0.37833,0.600034,0,0,0,0,0,0,0,0,0,0,-0.4426,-0.400308,0,-1.7,4.16626e-38,0,0,0,-0.109654,0.286328,-4.08984,-1.4375,-0.00999832,0.00999832,-0.145538,0.37833,1.9603e-19,0,0,0,0,0,0,0,0,0,2,-0.572657
7364,-0.27832,0,5.33691,-0.000170467,-0.00077877,0.00342307,0.039416,-0.00917125,0.600118,0,0,0,-0.111849,0.292032,-0.146715,0.381318,0.600069,0,0,0,0,0,0,0,0,0,0,-0.445578,-0.39826,0,-1.7,4.16626e-38,0,0,0,-0.111849,0.292032,-4.08984,-1.4375,-0.00999832,0.00999832,-0.146715,0.381318,1.9603e-19,0,0,0,0,0,0,0,0,0,2,-0.584064
7378,-0.27832,0,5.33691,-0.000170467,-0.00077877,0.00342307,0.039416,-0.00917125,0.600118,0,0,0,-0.113912,0.297395,-0.147807,0.38409,0.600118,0,0,0,0,0,0,0,0,0,0,-0.448374,-0.396333,0,-1.7,4.16626e-38,0,0,0,-0.113912,0.297395,-4.08984,-1.4375,-0.00999832,0.00999832,-0.147807,0.38409,1.9603e-19,0,0,0,0,0,0,0,0,0,2,-0.594791
7394,-0.27832,0,-3.14844,-0.000253099,-0.000192041,0.000745826,0.0394175,-0.00915798,0.600156,0,0,0,-0.11629,0.303573,-0.149046,0.387236,0.600156,0,0,0,0,0,0,0,0,0,0,-0.45158,-0.394127,0,-1.7,4.16626e-38,0,0,0,-0.11629,0.303573,-4.08984,-1.4375,-0.00999832,0.00999832,-0.149046,0.387236,1.9603e-19,0,0,0,0,0,0,0,0,0,2,-0.607146
7409,-0.27832,0,-3.14844,-0.000253099,-0.000192041,0.000745826,0.0394175,-0.00915798,0.600156,0,0,0,-0.118537,0.30941,-0.150201,0.390164,0.600156,0,0,0,0,0,0,0,0,0,0,-0.454593,-0.392065,0,-1.7,4.16626e-38,0,0,0,-0.118537,0.30941,-4.08984,-1.4375,-0.00999832,0.00999832,-0.150201,0.390164,1.9603e-19,0,0,0,0,0,0,0,0,0,2,-0.618819
7425,-0.27832,0,0.0751953,0.000215398,-0.000210264,0.00153732,0.0394327,-0.00915457,0.600221,0,0,0,-0.120801,0.31529,-0.15135,0.393074,0.600221,0,0,0,0,0,0,0,0,0,0,-0.457634,-0.389964,0,-1.7,4.16626e-38,0,0,0,-0.120801,0.31529,-4.08984,-1.4375,-0.00999832,0.00999832,-0.15135,0.393074,1.9603e-19,0,0,0,0,0,0,0,0,0,2,-0.630581
7446,-0.27832,0,5.13672,4.88122e-05,-4.87193e-05,0.00130288,0.0394433,-0.00914489,0.600275,0,0,0,-0.124156,0.324003,-0.153024,0.397311,0.60025,0,0,0,0,0,0,0,0,0,0,-0.462109,-0.386892,0,-1.7,4.16626e-38,0,0,0,-0.124156,0.324003,-4.08984,-1.44922,0,-0.0199986,-0.153024,0.397311,1.9603e-19,0,0,0,0,0,0,0,0,0,2,-0.648006
7461,-0.27832,0,5.13672,4.88122e-05,-4.87193e-05,0.00130288,0.0394433,-0.00914489,0.600275,0,0,0,-0.126462,0.32999,-0.154156,0.400173,0.600275,0,0,33554303,-167645441,33554303,-167645441,-8436479,-1,-534446081,-65025,-0.465175,-0.384785,0,-1.7,4.16626e-38,0,0,0,-0.126462,0.32999,-4.08984,-1.44922,0,-0.0199986,-0.154156,0.400173,0,0,0,0,0,0,0,0,0,0,2,-0.659979
7476,-0.27832,0,-6.08594,-0.000133858,-0.000361378,0.00199961,0.0394575,-0.0091486,0.600304,0,0,0,-0.128785,0.33602,-0.155281,0.403017,0.600304,0,0,33554303,-167645441,33554303,-167645441,-8436479,-1,-534446081,-65025,-0.468255,-0.382667,0,-1.7,4.16626e-38,0,0,0,-0.128785,0.33602,-4.08984,-1.44922,0,0,-0.155281,0.403017,0,0,0,0,0,0,0,0,0,0,2,-0.672039
7491,-0.27832,0,-6.08594,-0.000133858,-0.000361378,0.00199961,0.0394575,-0.0091486,0.600304,0,0,0,-0.131125,0.342092,-0.1564,0.405843,0.600304,0,0,33554303,-167645441,33554303,-167645441,-8436479,-1,-534446081,-65025,-0.471344,-0.380553,0,-1.7,4.16626e-38,0,0,0,-0.131125,0.342092,-4.08984,-1.44922,0,0,-0.1564,0.405843,0,0,0,0,0,0,0,0,0,0,2,-0.684184
7507,-0.27832,0,-6.08594,-0.000133858,-0.000361378,0.00199961,0.0394575,-0.0091486,0.600304,0,0,0,-0.13364,0.348616,-0.157584,0.408836,0.600304,0,0,33554303,-167645441,33554303,-167645441,-8436479,-1,-534446081,-65025,-0.474653,-0.378287,0,-1.7,4.16626e-38,0,0,0,-0.13364,0.348616,-4.08984,-1.44922,0,0,-0.157584,0.408836,0,0,0,0,0,0,0,0,0,0,2,-0.697233
7523,-0.27832,0,6.47656,-0.000406284,-0.000320118,0.00176481,0.0394723,-0.00916302,0.600391,0,0,0,-0.136173,0.355188,-0.158761,0.411809,0.600391,0,0,33554303,-167645441,33554303,-167645441,-8436479,-1,-534446081,-65025,-0.477995,-0.37597,0,-1.7,4.16626e-38,0,0,0,-0.136173,0.355188,-4.08984,-1.44922,0,0,-0.158761,0.411809,0,0,0,0,0,0,0,0,0,0,2,-0.710376
7537,-0.27832,0,3.4502,-0.000480085,0.000414219,0.00210581,0.0394646,-0.00915545,0.600432,0,0,0,-0.138405,0.360976,-0.159783,0.414394,0.600432,0,0,33554303,-167645441,33554303,-167645441,-8436479,-1,-534446081,-65025,-0.480925,-0.37395,0,-1.7,4.16626e-38,0,0,0,-0.138405,0.360976,-4.08984,-1.44922,0,0,-0.159783,0.414394,0,0,0,0,0,0,0,0,0,0,2,-0.721953
7553,-0.27832,0,3.83691,-0.000353574,-0.00039478,0.00227219,0.0394696,-0.0091542,0.600471,0,0,0,-0.140974,0.367637,-0.160944,0.417328,0.600471,0,0,33554303,-167645441,33554303,-167645441,-8436479,-1,-534446081,-65025,-0.484286,-0.371635,0,-1.7,4.16626e-38,0,0,0,-0.140974,0.367637,-4.08984,-1.44922,0,0,-0.160944,0.417328,0,0,0,0,0,0,0,0,0,0,2,-0.735275
7568,-0.27832,0,2.88379,0.000350735,0.000418443,0.00218708,0.0394893,-0.00914539,0.600501,0,0,0,-0.143398,0.373923,-0.162026,0.420059,0.600501,0,0,33554303,-167645441,33554303,-167645441,-8436479,-1,-534446081,-65025,-0.487448,-0.369459,0,-1.7,4.16626e-38,0,0,0,-0.143398,0.373923,-4.08984,-1.44922,0,0,-0.162026,0.420059,0,0,0,0,0,0,0,0,0,0,2,-0.747846
7583,-0.27832,0,1.96875,0.00126133,-0.00057647,0.00251305,0.0395187,-0.00914623,0.600533,-4.95447,0.58568,-0.0924311,-0.145839,0.38025,-0.163104,0.422774,0.600533,0,0,218,60,218,60,312,70,220,153,-0.490624,-0.367272,0,-1.7,4.16626e-38,0,0,0,-0.145839,0.38025,-4.08984,-1.44922,0,0,-0.163104,0.422774,8928,0,0,0,0,0,0,0,0,0,2,-0.7605
7599,-0.27832,0,-4.4082,0.0016183,-0.00122237,0.0022073,0.0395392,-0.0091529,0.600564,-4.95447,0.58568,-0.0924311,-0.148296,0.386618,-0.164177,0.425474,0.600564,0,0,218,60,218,60,312,70,220,153,-0.493814,-0.365076,0,-1.7,4.16626e-38,0,0,0,-0.148296,0.386618,-4.08984,-1.44922,0,0,-0.164177,0.425474,8928,0,0,0,0,0,0,0,0,0,2,-0.773236
7614,-0.27832,0,6.8584,6.66243e-05,-0.00122189,0.00191459,0.0395319,-0.00915657,0.600599,-4.95447,0.58568,-0.0924311,-0.150935,0.393456,-0.165314,0.428337,0.600564,0,0,218,60,218,60,312,70,220,153,-0.497225,-0.362739,0,-1.7,4.16626e-38,0,0,0,-0.150935,0.393456,-4.08984,-1.44922,0,0,-0.165314,0.428337,8928,0,0,0,0,0,0,0,0,0,2,-0.786911
7629,-0.27832,0,0.271484,0.000907705,-0.00114908,0.000625426,0.039544,-0.00915763,0.600601,-4.95447,0.585598,-0.0924415,-0.153425,0.399906,-0.166372,0.431002,0.600599,0,0,218,60,218,60,312,70,220,153,-0.500442,-0.360523,0,-1.7,4.16626e-38,0,0,0,-0.153425,0.399906,-4.08984,-1.44922,0,0,-0.166372,0.431002,8928,0,0,0,0,0,0,0,0,0,2,-0.799813
7645,-0.27832,0,0.271484,0.000907705,-0.00114908,0.000625426,0.039544,-0.00915763,0.600601,-4.95447,0.585598,-0.0924415,-0.15593,0.406397,-0.167423,0.433649,0.600601,0,0,218,60,218,60,312,70,220,153,-0.503666,-0.358313,0,-1.7,4.16626e-38,0,0,0,-0.15593,0.406397,-4.08984,-1.44922,0,0,-0.167423,0.433649,8928,0,0,0,0,0,0,0,0,0,2,-0.812794
7660,-0.27832,0,0.271484,0.000907705,-0.00114908,0.000625426,0.039544,-0.00915763,0.600601,-4.95448,0.585591,-0.0924617,-0.158621,0.413365,-0.168537,0.436455,0.600601,0,0,218,60,218,60,312,70,220,153,-0.507119,-0.355948,0,-1.7,4.16626e-38,0,0,0,-0.158621,0.413365,-4.08984,-1.44922,0,0,-0.168537,0.436455,8928,0,0,0,0,0,0,0,0,0,2,-0.82673
7675,-0.27832,0,6.80664,0.00048545,-0.000619049,0.00114137,0.0395439,-0.0091712,0.600647,-4.95448,0.585591,-0.0924617,-0.161159,0.419937,-0.169573,0.439067,0.600647,0,0,218,60,218,60,312,70,220,153,-0.510377,-0.353699,0,-1.7,4.16626e-38,0,0,0,-0.161159,0.419937,-4.08984,-1.44922,0,0,-0.169573,0.439067,8928,0,0,0,0,0,0,0,0,0,2,-0.839874
7691,-0.27832,0,6.80664,0.00048545,-0.000619049,0.00114137,0.0395439,-0.0091712,0.600647,-4.95448,0.585591,-0.0924617,-0.163884,0.426991,-0.17067,0.441834,0.600647,0,0,218,60,218,60,312,70,220,153,-0.513857,-0.351314,0,-1.7,4.16626e-38,0,0,0,-0.163884,0.426991,-4.08984,-1.44922,0,0,-0.17067,0.441834,8928,0,0,0,0,0,0,0,0,0,2,-0.853983
7706,-0.27832,0,6.80664,0.00048545,-0.000619049,0.00114137,0.0395439,-0.0091712,0.600647,-4.95448,0.585591,-0.0924617,-0.166454,0.433644,-0.171691,0.444411,0.600647,0,0,218,60,218,60,312,70,220,153,-0.517132,-0.34907,0,-1.7,4.16626e-38,0,0,0,-0.166454,0.433644,-4.08984,-1.44922,0,0,-0.171691,0.444411,8928,0,0,0,0,0,0,0,0,0,2,-0.867288
7721,-0.27832,0,-4.34277,0.00043215,8.21453e-05,0.00220768,0.0395659,-0.00918177,0.60074,-4.95451,0.585592,-0.0925268,-0.169039,0.440335,-0.172706,0.446971,0.60074,0,0,218,60,218,60,312,70,220,153,-0.520436,-0.346769,0,-1.7,4.16626e-38,0,0,0,-0.169039,0.440335,-4.08984,-1.44922,0,0,-0.172706,0.446971,8928,0,0,0,0,0,0,0,0,0,2,-0.880669
7737,-0.27832,0,0.363281,4.28858e-05,-9.94834e-05,0.00271658,0.0395648,-0.00918654,0.600783,-4.95451,0.585592,-0.0925268,-0.171813,0.447515,-0.173782,0.449685,0.600783,0,0,218,60,218,60,312,70,220,153,-0.523965,-0.344334,0,-1.7,4.16626e-38,0,0,0,-0.171813,0.447515,-4.08984,-1.4375,-0.00999832,0.00999832,-0.173782,0.449685,8928,0,0,0,0,0,0,0,0,0,2,-0.89503
7752,-0.27832,0,7.25195,-0.00117918,-0.000879445,0.00190587,0.0395585,-0.00918798,0.600824,-4.95454,0.585559,-0.0925896,-0.17443,0.454285,-0.174782,0.452212,0.600824,0,0,218,60,218,60,312,70,220,153,-0.527285,-0.342041,0,-1.7,4.16626e-38,0,0,0,-0.17443,0.454285,-4.08984,-1.4375,-0.00999832,0.00999832,-0.174782,0.452212,8928,0,0,0,0,0,0,0,0,0,2,-0.908569
7767,-0.27832,0,-0.65625,0.000770843,0.000232067,0.00144806,0.0395645,-0.00918181,0.600851,-4.95454,0.585559,-0.0925896,-0.177061,0.461091,-0.175776,0.454721,0.600851,0,0,218,60,218,60,312,70,220,153,-0.530614,-0.339749,0,-1.7,4.16626e-38,0,0,0,-0.177061,0.461091,-4.08984,-1.44922,0,-0.0299988,-0.175776,0.454721,8928,0,0,0,0,0,0,0,0,0,2,-0.922183
7783,-0.27832,0,3.68555,-9.32591e-05,0.000117172,0.00196851,0.0395766,-0.00916658,0.600881,-4.95454,0.585559,-0.0925896,-0.179884,0.468395,-0.176831,0.457379,0.600881,0,0,218,60,218,60,312,70,220,153,-0.53418,-0.337292,0,-1.7,4.16626e-38,0,0,0,-0.179884,0.468395,-4.08984,-1.44922,0,-0.0299988,-0.176831,0.457379,8928,0,0,0,0,0,0,0,0,0,2,-0.93679
7799,-0.27832,0,-6.28613,-0.00101036,-0.000408715,0.00257912,0.0395703,-0.00915794,0.60091,-4.95454,0.585559,-0.0925896,-0.182546,0.475279,-0.177815,0.459854,0.60091,0,0,218,60,218,60,312,70,220,153,-0.537534,-0.334981,0,-1.7,4.16626e-38,0,0,0,-0.182546,0.475279,-4.08984,-1.44922,0,0,-0.177815,0.459854,8928,0,0,0,0,0,0,0,0,0,2,-0.950559
7814,-0.27832,0,-3.41992,3.46812e-05,0.000469338,0.00230908,0.0395598,-0.00915355,0.600939,-4.95454,0.585559,-0.0925896,-0.185402,0.482664,-0.178859,0.462473,0.60091,0,0,218,60,218,60,312,70,220,153,-0.541119,-0.332523,0,-1.7,4.16626e-38,0,0,0,-0.185402,0.482664,-4.08984,-1.44922,0,0,-0.178859,0.462473,8928,0,0,0,0,0,0,0,0,0,2,-0.965328
7829,-0.27832,0,-0.318359,0.000839572,-0.000632624,0.00308194,0.0395672,-0.00915631,0.600985,-5.00984,0.593007,-0.0868871,-0.188094,0.489624,-0.17983,0.46491,0.600939,0,0,218,64,218,64,312,70,220,153,-0.544497,-0.330195,0,-1.7,4.16626e-38,0,0,0,-0.188094,0.489624,-4.08984,-1.44922,0,0,-0.17983,0.46491,8544,0,0,0,0,0,0,0,0,0,2,-0.979249
7845,-0.27832,0,6.8418,2.3785e-05,-0.000666178,0.00238216,0.0395662,-0.00915205,0.601018,-5.00984,0.593007,-0.0868871,-0.190982,0.49709,-0.180859,0.467493,0.600985,0,0,218,64,218,64,312,70,220,153,-0.548115,-0.327694,0,-1.7,4.16626e-38,0,0,0,-0.190982,0.49709,-4.08984,-1.44922,0,0,-0.180859,0.467493,8544,0,0,0,0,0,0,0,0,0,2,-0.99418
7861,-0.27832,0,-1.03418,-0.000909671,-0.0003511,0.00186029,0.0395598,-0.00915697,0.601051,-5.00984,0.593007,-0.0868871,-0.193887,0.504596,-0.181881,0.470056,0.601018,0,0,218,64,218,64,312,70,220,153,-0.551745,-0.325191,0,-1.7,4.16626e-38,0,0,0,-0.193887,0.504596,-4.08984,-1.44922,0,0,-0.181881,0.470056,8544,0,0,0,0,0,0,0,0,0,2,-1.00919
7876,-0.27832,0,-1.03418,-0.000909671,-0.0003511,0.00186029,0.0395598,-0.00915697,0.601051,-5.00984,0.593007,-0.0868871,-0.196624,0.51167,-0.182833,0.472443,0.601051,0,0,218,64,218,64,312,70,220,153,-0.555159,-0.322836,0,-1.7,4.16626e-38,0,0,0,-0.196624,0.51167,-4.08984,-1.44922,0,0,-0.182833,0.472443,8544,0,0,0,0,0,0,0,0,0,2,-1.02334
7892,-0.27832,0,-1.03418,-0.000909671,-0.0003511,0.00186029,0.0395598,-0.00915697,0.601051,-5.00984,0.593007,-0.0868871,-0.19956,0.519255,-0.18384,0.47497,0.601051,0,0,218,64,218,64,312,70,220,153,-0.558808,-0.320334,0,-1.7,4.16626e-38,0,0,0,-0.19956,0.519255,-4.08984,-1.44922,0,0,-0.18384,0.47497,8544,0,0,0,0,0,0,0,0,0,2,-1.03851
7907,-0.27832,0,5.39648,-0.00173177,0.000579021,0.00145761,0.0395815,-0.00914927,0.601091,-5.00984,0.593007,-0.0868871,-0.202326,0.526402,-0.184779,0.477324,0.601091,0,0,218,64,218,64,312,70,220,153,-0.562246,-0.317958,0,-1.7,4.16626e-38,0,0,0,-0.202326,0.526402,-4.08984,-1.44922,0,0,-0.184779,0.477324,8544,0,0,0,0,0,0,0,0,0,2,-1.0528
7923,-0.27832,0,2.60645,-0.000667601,-0.000366059,0.00144523,0.0395774,-0.00914617,0.601122,-4.95445,0.585528,-0.0924025,-0.205293,0.534064,-0.185776,0.479818,0.601122,0,0,218,60,218,60,312,70,220,153,-0.565924,-0.315421,0,-1.7,4.16626e-38,0,0,0,-0.205293,0.534064,-4.08984,-1.44922,0,0,-0.185776,0.479818,8928,0,0,0,0,0,0,0,0,0,2,-1.06813
7937,-0.27832,0,2.7793,0.000134497,8.21785e-05,0.00318328,0.0395867,-0.00913627,0.601161,-4.95445,0.585528,-0.0924025,-0.207901,0.540801,-0.186642,0.481984,0.601161,0,0,218,60,218,60,312,70,220,153,-0.569154,-0.313187,0,-1.7,4.16626e-38,0,0,0,-0.207901,0.540801,-4.08984,-1.44922,0,0,-0.186642,0.481984,8928,0,0,0,0,0,0,0,0,0,2,-1.0816
7952,-0.27832,0,4.17383,0.00137259,-0.000817654,0.00199421,0.039606,-0.00914615,0.601201,-4.95442,0.585518,-0.0923376,-0.21071,0.548053,-0.187567,0.484293,0.601201,0,0,218,60,218,60,312,70,220,153,-0.572625,-0.310787,0,-1.7,4.16626e-38,0,0,0,-0.21071,0.548053,-4.08984,-1.44922,0,0,-0.187567,0.484293,8928,0,0,0,0,0,0,0,0,0,2,-1.09611
7968,-0.27832,0,5.45996,0.000161263,-0.000964587,0.00202146,0.0396122,-0.00914701,0.601222,-4.95442,0.585518,-0.0923376,-0.213721,0.555826,-0.188547,0.48674,0.601222,0,0,218,60,218,60,312,70,220,153,-0.576338,-0.30823,0,-1.7,4.16626e-38,0,0,0,-0.213721,0.555826,-4.08984,-1.44922,0,0,-0.188547,0.48674,8928,0,0,0,0,0,0,0,0,0,2,-1.11165
7984,-0.27832,0,3.5625,8.5317e-05,0.000225608,0.00155811,0.0396129,-0.00913326,0.601245,-4.95444,0.585477,-0.0923759,-0.216747,0.563639,-0.189521,0.48917,0.601245,0,0,218,60,218,60,312,70,220,153,-0.580063,-0.305664,0,-1.7,4.16626e-38,0,0,0,-0.216747,0.563639,-4.08984,-1.44922,0,0,-0.189521,0.48917,8928,0,0,0,0,0,0,0,0,0,2,-1.12728
7999,-0.27832,0,-7.37988,0.00165613,-0.000284525,0.00181477,0.0396298,-0.00913005,0.60128,-4.95444,0.585477,-0.0923759,-0.219599,0.570998,-0.190429,0.491431,0.60128,0,0,218,60,218,60,312,70,220,153,-0.583568,-0.303243,0,-1.7,4.16626e-38,0,0,0,-0.219599,0.570998,-4.08984,-1.44922,0,0,-0.190429,0.491431,8928,0,0,0,0,0,0,0,0,0,2,-1.142
8014,-0.27832,0,4.25293,0.000239603,0.000563858,0.00309492,0.0396352,-0.00911963,0.601323,-4.95444,0.585477,-0.0923759,-0.222464,0.578391,-0.191333,0.493679,0.601323,0,0,218,60,218,60,312,70,220,153,-0.587085,-0.300808,0,-1.7,4.16626e-38,0,0,0,-0.222464,0.578391,-4.08984,-1.44922,0,0,-0.191333,0.493679,8928,0,0,0,0,0,0,0,0,0,2,-1.15678
8030,-0.27832,0,1.94922,0.000676043,0.000131496,0.00195381,0.0396481,-0.00911258,0.60135,-4.9544,0.585447,-0.0922857,-0.225535,0.586314,-0.192292,0.49606,0.601323,0,0,218,60,218,60,312,70,220,153,-0.590843,-0.29823,0,-1.7,4.16626e-38,0,0,0,-0.225535,0.586314,-4.08984,-1.44922,0,0,-0.192292,0.49606,8928,0,0,0,0,0,0,0,0,0,2,-1.17263
8045,-0.27832,0,3.94141,-0.000622629,-0.000557811,0.00269595,0.039647,-0.00912024,0.601387,-4.9544,0.585447,-0.0922857,-0.228428,0.593776,-0.193187,0.498277,0.60135,0,0,218,60,218,60,312,70,220,153,-0.59438,-0.295789,0,-1.7,4.16626e-38,0,0,0,-0.228428,0.593776,-4.08984,-1.44922,0,0,-0.193187,0.498277,8928,0,0,0,0,0,0,0,0,0,2,-1.18755
8061,-0.27832,0,6.41406,-0.000577077,-0.000133603,0.0017713,0.0396532,-0.00911547,0.601417,-4.95435,0.585415,-0.0921927,-0.231529,0.601773,-0.194135,0.500626,0.601387,0,0,218,60,218,60,312,70,220,153,-0.598165,-0.293173,0,-1.7,4.16626e-38,0,0,0,-0.231529,0.601773,-4.08984,-1.44922,0,0,-0.194135,0.500626,8928,0,0,0,0,0,0,0,0,0,2,-1.20355
8076,-0.27832,0,6.41406,-0.000577077,-0.000133603,0.0017713,0.0396532,-0.00911547,0.601417,-4.95435,0.585415,-0.0921927,-0.234449,0.609303,-0.195018,0.502813,0.601417,0,0,218,60,218,60,312,70,220,153,-0.601724,-0.290716,0,-1.7,4.16626e-38,0,0,0,-0.234449,0.609303,-4.08984,-1.44922,0,0,-0.195018,0.502813,8928,0,0,0,0,0,0,0,0,0,2,-1.21861
8091,-0.27832,0,6.41406,-0.000577077,-0.000133603,0.0017713,0.0396532,-0.00911547,0.601417,-5.00972,0.592867,-0.0866369,-0.237383,0.616867,-0.195895,0.504986,0.601417,0,0,218,64,218,64,312,70,220,153,-0.60529,-0.288269,0,-1.7,4.16626e-38,0,0,0,-0.237383,0.616867,-4.08984,-1.44922,0,0,-0.195895,0.504986,8544,0,0,0,0,0,0,0,0,0,2,-1.23373
8107,-0.27832,0,2.12012,0.00038764,-0.000213568,0.00227342,0.0396652,-0.00911518,0.601489,-5.00972,0.592867,-0.0866369,-0.240527,0.624971,-0.196825,0.507288,0.601489,0,0,218,64,218,64,312,70,220,153,-0.606661,-0.28729,0,-1.7,4.16626e-38,0,0,0,-0.240527,0.624971,-4.08984,-1.44922,0,0,-0.196825,0.507288,8544,0,0,0,0,0,0,0,0,0,2,-1.24994
8122,-0.27832,0,-5.55273,-0.000177,-0.00171254,0.00179052,0.0396609,-0.00912892,0.601521,-5.04524,0.594,-0.0817089,-0.243488,0.6326,-0.197691,0.509432,0.601521,0,0,219,64,219,64,312,72,220,153,-0.606664,-0.28727,0,-1.7,4.16626e-38,0,0,0,-0.243488,0.6326,-4.08984,-1.44922,0,0,-0.197691,0.509432,8455,0,0,0,0,0,0,0,0,0,2,-1.2652
8137,-0.27832,0,3.82812,-0.00141375,-0.000990097,0.00157056,0.0396568,-0.00913612,0.60154,-5.04524,0.594,-0.0817089,-0.246461,0.640262,-0.198549,0.511561,0.60154,0,0,219,64,219,64,312,72,220,153,-0.606666,-0.287259,0,-1.7,4.16626e-38,0,0,0,-0.246461,0.640262,-4.08984,-1.44922,0,0,-0.198549,0.511561,8455,0,0,0,0,0,0,0,0,0,2,-1.28052
8153,-0.27832,0,0.363281,0.000683598,-0.00091871,0.00286025,0.0396759,-0.00913361,0.601575,-5.04524,0.594,-0.0817089,-0.249647,0.64847,-0.199459,0.513818,0.601575,0,0,219,64,219,64,312,72,220,153,-0.60667,-0.287238,0,-1.7,4.16626e-38,0,0,0,-0.249647,0.64847,-4.08984,-1.44922,0,0,-0.199459,0.513818,8455,0,0,0,0,0,0,0,0,0,2,-1.29694
8168,-0.27832,0,-3.29395,0.000687573,-0.000291076,0.00139187,0.0396949,-0.00913565,0.601605,-5.04524,0.594,-0.0817089,-0.252647,0.656197,-0.200308,0.515921,0.601605,0,0,219,64,219,64,312,72,220,153,-0.606674,-0.28722,0,-1.7,4.16626e-38,0,0,0,-0.252647,0.656197,-4.08984,-1.44922,0,0,-0.200308,0.515921,8455,0,0,0,0,0,0,0,0,0,2,-1.31239
8183,-0.27832,0,2.82031,-0.000625878,-9.34395e-05,0.00163562,0.0396952,-0.00912691,0.601635,-5.04524,0.594,-0.0817089,-0.25566,0.663956,-0.201152,0.518012,0.601635,0,0,219,64,219,64,312,72,220,153,-0.606677,-0.287201,0,-1.7,4.16626e-38,0,0,0,-0.25566,0.663956,-4.08984,-1.44922,0,0,-0.201152,0.518012,8455,0,0,0,0,0,0,0,0,0,2,-1.32791
8199,-0.27832,0,2.83203,-0.00106993,-0.000381647,0.00242573,0.039681,-0.00911844,0.60168,-5.04524,0.594,-0.0817089,-0.258685,0.671746,-0.201991,0.520087,0.60168,0,0,219,64,219,64,312,72,220,153,-0.606682,-0.287174,0,-1.7,4.16626e-38,0,0,0,-0.258685,0.671746,-4.08984,-1.44922,0,0,-0.201991,0.520087,8455,0,0,0,0,0,0,0,0,0,2,-1.34349
8214,-0.27832,0,-6.28906,0.000116885,-0.000380415,0.000858519,0.0396801,-0.0091145,0.601704,-5.04524,0.594,-0.0817089,-0.261723,0.679567,-0.202825,0.522146,0.601704,0,0,219,64,219,64,312,72,220,153,-0.606685,-0.287159,0,-1.7,4.16626e-38,0,0,0,-0.261723,0.679567,-4.08984,-1.44922,0,0,-0.202825,0.522146,8455,0,0,0,0,0,0,0,0,0,2,-1.35913
8229,-0.27832,0,-0.766602,0.00196544,8.19071e-05,0.000719044,0.0397006,-0.00911244,0.601732,-5.04524,0.594,-0.0817089,-0.264977,0.687944,-0.203709,0.524327,0.601704,0,0,219,64,219,64,312,72,220,153,-0.606685,-0.287159,0,-1.7,4.16626e-38,0,0,0,-0.264977,0.687944,-4.08984,-1.44922,0,0,-0.203709,0.524327,8455,0,0,0,0,0,0,0,0,0,2,-1.37589
8244,-0.27832,0,6.69141,0.000442792,0.000504637,0.00118776,0.0397115,-0.00909463,0.601752,-5.04524,0.594,-0.0817089,-0.268041,0.695828,-0.204534,0.526359,0.601732,0,0,219,64,219,64,312,72,220,153,-0.606688,-0.287143,0,-1.7,4.16626e-38,0,0,0,-0.268041,0.695828,-4.08984,-1.44922,0,0,-0.204534,0.526359,8455,0,0,0,0,0,0,0,0,0,2,-1.39166
8259,-0.27832,0,-0.339844,-0.00026688,-0.000868821,0.00167098,0.0396992,-0.00909923,0.601786,-5.04523,0.593941,-0.0816771,-0.271117,0.703743,-0.205355,0.528378,0.601752,0,0,219,64,219,64,312,72,220,153,-0.60669,-0.28713,0,-1.7,4.16626e-38,0,0,0,-0.271117,0.703743,-4.08984,-1.44922,0,0,-0.205355,0.528378,8455,0,0,0,0,0,0,0,0,0,2,-1.40749
8274,-0.27832,0,-0.339844,-0.00026688,-0.000868821,0.00167098,0.0396992,-0.00909923,0.601786,-5.04523,0.593941,-0.0816771,-0.274205,0.711688,-0.206171,0.530382,0.601786,0,0,219,64,219,64,312,72,220,153,-0.606694,-0.28711,0,-1.7,4.16626e-38,0,0,0,-0.274205,0.711688,-4.08984,-1.44922,0,0,-0.206171,0.530382,8455,0,0,0,0,0,0,0,0,0,2,-1.42338
8291,-0.27832,0,-4.26855,-0.00114114,-0.00118783,0.00107831,0.0397064,-0.00911091,0.601847,-5.00203,0.588178,-0.0861703,-0.27772,0.720731,-0.207089,0.532638,0.601786,0,0,219,61,219,61,312,72,220,153,-0.606694,-0.28711,0,-1.7,4.16626e-38,0,0,0,-0.27772,0.720731,-4.08984,-1.44922,0,0,-0.207089,0.532638,8740,0,0,0,0,0,0,0,0,0,2,-1.44146
8305,-0.27832,0,-4.26855,-0.00114114,-0.00118783,0.00107831,0.0397064,-0.00911091,0.601847,-5.00203,0.588178,-0.0861703,-0.280626,0.728204,-0.207839,0.534482,0.601847,0,0,219,61,219,61,312,72,220,153,-0.606701,-0.287073,0,-1.7,4.16626e-38,0,0,0,-0.280626,0.728204,-4.08984,-1.44922,0,0,-0.207839,0.534482,8740,0,0,0,0,0,0,0,0,0,2,-1.45641
8320,-0.27832,0,-4.42871,-0.000274552,-0.000389297,0.00183992,0.0397214,-0.00910257,0.601889,-4.93227,0.565354,-0.114774,-0.283751,0.73624,-0.208638,0.536447,0.601889,0,0,218,61,218,61,312,72,222,155,-0.606706,-0.287047,0,-1.7,4.16626e-38,0,0,0,-0.283751,0.73624,-4.08984,-1.44922,0,0,-0.208638,0.536447,9400,0,0,0,0,0,0,0,0,0,2,-1.47248
8335,-0.27832,0,-1.86621,0.000628756,-0.000409998,0.00173269,0.0397423,-0.00910776,0.601923,-4.93227,0.565354,-0.114774,-0.286888,0.744305,-0.209434,0.5384,0.601923,0,0,218,61,218,61,312,72,222,155,-0.606709,-0.287027,0,-1.7,4.16626e-38,0,0,0,-0.286888,0.744305,-4.08984,-1.44922,0,0,-0.209434,0.5384,9400,0,0,0,0,0,0,0,0,0,2,-1.48861
8350,-0.27832,0,1.58301,-0.00104787,-0.00101027,0.00250095,0.0397476,-0.00910896,0.601963,-4.93227,0.565354,-0.114774,-0.290038,0.752399,-0.210226,0.540342,0.601963,0,0,218,61,218,61,312,72,222,155,-0.606714,-0.287002,0,-1.7,4.16626e-38,0,0,0,-0.290038,0.752399,-4.08984,-1.44922,0,0,-0.210226,0.540342,9400,0,0,0,0,0,0,0,0,0,2,-1.5048
8365,-0.27832,0,4.56152,0.000754149,-0.000820002,0.000584857,0.0397565,-0.00910541,0.601985,-4.93227,0.565354,-0.114774,-0.293199,0.760523,-0.211013,0.542272,0.601985,0,0,218,61,218,61,312,72,222,155,-0.606716,-0.286989,0,-1.7,4.16626e-38,0,0,0,-0.293199,0.760523,-4.08984,-1.44922,0,0,-0.211013,0.542272,9400,0,0,0,0,0,0,0,0,0,2,-1.52105
8381,-0.27832,0,0.841797,-0.000229875,-0.000147381,0.00252963,0.0397654,-0.00910495,0.60203,-4.93227,0.565354,-0.114774,-0.296583,0.76922,-0.211848,0.544317,0.60203,0,0,218,61,218,61,312,72,222,155,-0.606722,-0.286962,0,-1.7,4.16626e-38,0,0,0,-0.296583,0.76922,-4.08984,-1.44922,0,0,-0.211848,0.544317,9400,0,0,0,0,0,0,0,0,0,2,-1.53844
8395,-0.27832,0,-4.03418,-0.000538989,-7.03705e-05,0.00125092,0.0397643,-0.00910471,0.60206,-5.04114,0.577855,-0.0804907,-0.299556,0.776857,-0.212574,0.546094,0.60203,0,0,219,64,219,64,312,72,222,152,-0.606722,-0.286962,0,-1.7,4.16626e-38,0,0,0,-0.299556,0.776857,-4.08984,-1.4375,-0.00999832,0.0199986,-0.212574,0.546094,8722,0,0,0,0,0,0,0,0,0,2,-1.55371
8411,-0.27832,0,-5.57812,0.000206197,-0.00107382,0.0022191,0.0397645,-0.00910777,0.602095,-5.04114,0.577855,-0.0804907,-0.302965,0.785615,-0.213398,0.548112,0.60206,0,0,219,64,219,64,312,72,222,152,-0.606725,-0.286943,0,-1.7,4.16626e-38,0,0,0,-0.302965,0.785615,-4.08984,-1.4375,-0.00999832,0.0199986,-0.213398,0.548112,8722,0,0,0,0,0,0,0,0,0,2,-1.57123
8426,-0.27832,0,7.02734,-0.000344406,0.00011626,0.00256747,0.039757,-0.00910185,0.602128,-5.04114,0.577855,-0.0804907,-0.306174,0.793855,-0.214166,0.549991,0.602095,0,0,219,64,219,64,312,72,222,152,-0.606729,-0.286922,0,-1.7,4.16626e-38,0,0,0,-0.306174,0.793855,-4.08984,-1.44922,0,-0.0199986,-0.214166,0.549991,8722,0,0,0,0,0,0,0,0,0,2,-1.58771
8441,-0.27832,0,7.02734,-0.000344406,0.00011626,0.00256747,0.039757,-0.00910185,0.602128,-5.04114,0.577855,-0.0804907,-0.309394,0.802123,-0.214929,0.551857,0.602128,0,0,219,64,219,64,312,72,222,152,-0.606733,-0.286902,0,-1.7,4.16626e-38,0,0,0,-0.309394,0.802123,-4.08984,-1.44922,0,-0.0199986,-0.214929,0.551857,8722,0,0,0,0,0,0,0,0,0,2,-1.60425
8457,-0.27832,0,6.2832,-0.000208761,-0.0009934,0.00239198,0.0397589,-0.00910219,0.602161,-5.00202,0.588082,-0.0861537,-0.312841,0.810973,-0.215737,0.553832,0.602161,0,0,219,61,219,61,312,72,220,153,-0.606736,-0.286882,0,-1.7,4.16626e-38,0,0,0,-0.312841,0.810973,-4.08984,-1.44922,0,-0.0199986,-0.215737,0.553832,8740,0,0,0,0,0,0,0,0,0,2,-1.62195
8472,-0.27832,0,-7.26465,-0.000334013,-0.000346144,0.00237592,0.0397582,-0.00910258,0.602203,-5.00202,0.588082,-0.0861537,-0.316084,0.819298,-0.216489,0.555671,0.602203,0,0,219,61,219,61,312,72,220,153,-0.606741,-0.286857,0,-1.7,4.16626e-38,0,0,0,-0.316084,0.819298,-4.08984,-1.44922,0,0,-0.216489,0.555671,8740,0,0,0,0,0,0,0,0,0,2,-1.6386
8487,-0.27832,0,-3.28418,8.74181e-05,-0.000700839,0.000873261,0.0397651,-0.00910923,0.602217,-4.9543,0.585233,-0.0920885,-0.319338,0.82765,-0.217236,0.557498,0.602217,0,0,218,60,218,60,312,70,220,153,-0.606743,-0.286848,0,-1.7,4.16626e-38,0,0,0,-0.319338,0.82765,-4.08984,-1.44922,0,0,-0.217236,0.557498,8928,0,0,0,0,0,0,0,0,0,2,-1.6553
8501,-0.27832,0,3.68848,-0.000299151,-0.000472244,0.00338488,0.0397631,-0.00910722,0.602267,-4.9543,0.585233,-0.0920885,-0.322386,0.83547,-0.217929,0.559192,0.602267,0,0,218,60,218,60,312,70,220,153,-0.606748,-0.286818,0,-1.7,4.16626e-38,0,0,0,-0.322386,0.83547,-4.08984,-1.44922,0,0,-0.217929,0.559192,8928,0,0,0,0,0,0,0,0,0,2,-1.67094
8516,-0.27832,0,-4.90527,-0.000850827,0.000929943,0.00214848,0.0397581,-0.00909935,0.60229,-4.9543,0.585233,-0.0920885,-0.325662,0.843875,-0.218667,0.560995,0.60229,0,0,218,60,218,60,312,70,220,153,-0.606751,-0.286804,0,-1.7,4.16626e-38,0,0,0,-0.325662,0.843875,-4.08984,-1.44922,0,0,-0.218667,0.560995,8928,0,0,0,0,0,0,0,0,0,2,-1.68775
8531,-0.27832,0,5.45508,-0.000760884,-0.000314996,0.00170681,0.0397453,-0.00909735,0.602319,-4.9543,0.585233,-0.0920885,-0.328949,0.852307,-0.219401,0.562785,0.602319,0,0,218,60,218,60,312,70,220,153,-0.606754,-0.286787,0,-1.7,4.16626e-38,0,0,0,-0.328949,0.852307,-4.08984,-1.44922,0,0,-0.219401,0.562785,8928,0,0,0,0,0,0,0,0,0,2,-1.70461
8547,-0.27832,0,1.21875,-0.000562515,-1.85961e-05,0.0018601,0.0397392,-0.00909191,0.602347,-4.9543,0.585233,-0.0920885,-0.332467,0.861331,-0.220177,0.564679,0.602347,0,0,218,60,218,60,312,70,220,153,-0.606757,-0.286769,0,-1.7,4.16626e-38,0,0,0,-0.332467,0.861331,-4.08984,-1.44922,0,0,-0.220177,0.564679,8928,0,0,0,0,0,0,0,0,0,2,-1.72266
8562,-0.27832,0,-5.80371,0.000462097,0.000526761,0.0023918,0.0397496,-0.00908698,0.602378,-4.95429,0.585253,-0.0920701,-0.335777,0.869818,-0.2209,0.566441,0.602378,0,0,218,60,218,60,312,70,220,153,-0.606761,-0.286751,0,-1.7,4.16626e-38,0,0,0,-0.335777,0.869818,-4.08984,-1.44922,0,0,-0.2209,0.566441,8928,0,0,0,0,0,0,0,0,0,2,-1.73964
8577,-0.27832,0,-1.45312,0.000164139,0.000439504,0.00280506,0.0397586,-0.00907481,0.602414,-4.95429,0.585253,-0.0920701,-0.339097,0.878331,-0.22162,0.568192,0.602378,0,0,218,60,218,60,312,70,220,153,-0.606761,-0.286751,0,-1.7,4.16626e-38,0,0,0,-0.339097,0.878331,-4.08984,-1.44922,0,0,-0.22162,0.568192,8928,0,0,0,0,0,0,0,0,0,2,-1.75666
8592,-0.27832,0,3.52148,-0.00085827,0.00113245,0.00242397,0.0397518,-0.00906876,0.602448,-4.99616,0.590882,-0.0876971,-0.342428,0.886871,-0.222338,0.569932,0.602414,0,0,218,63,218,63,312,70,220,153,-0.606765,-0.286729,0,-1.7,4.16626e-38,0,0,0,-0.342428,0.886871,-4.08984,-1.44922,0,0,-0.222338,0.569932,8640,0,0,0,0,0,0,0,0,0,2,-1.77374
8607,-0.27832,0,-6.2998,-4.8013e-05,-0.000187837,0.00124585,0.0397607,-0.00907842,0.602474,-4.99616,0.590882,-0.0876971,-0.34577,0.895436,-0.22305,0.571659,0.602448,0,0,218,63,218,63,312,70,220,153,-0.606768,-0.286708,0,-1.7,4.16626e-38,0,0,0,-0.34577,0.895436,-4.08984,-1.44922,0,0,-0.22305,0.571659,8640,0,0,0,0,0,0,0,0,0,2,-1.79087
8623,-0.27832,0,-6.2998,-4.8013e-05,-0.000187837,0.00124585,0.0397607,-0.00907842,0.602474,-4.95423,0.58524,-0.0919299,-0.349347,0.904602,-0.223806,0.573489,0.602474,0,0,218,60,218,60,312,70,220,153,-0.606771,-0.286692,0,-1.7,4.16626e-38,0,0,0,-0.349347,0.904602,-4.08984,-1.44922,0,0,-0.223806,0.573489,8928,0,0,0,0,0,0,0,0,0,2,-1.8092
8638,-0.27832,0,-2.3418,0.000791192,-0.000754917,0.00219642,0.039782,-0.00908357,0.602505,-4.95423,0.58524,-0.0919299,-0.35271,0.91322,-0.224509,0.575194,0.602505,0,0,218,60,218,60,312,70,220,153,-0.606775,-0.286674,0,-1.7,4.16626e-38,0,0,0,-0.35271,0.91322,-4.08984,-1.44922,0,0,-0.224509,0.575194,8928,0,0,0,0,0,0,0,0,0,2,-1.82644
8654,-0.27832,0,4.82422,-0.000386274,0.000118052,0.00268943,0.0397886,-0.00907609,0.602549,-4.99615,0.590828,-0.0876635,-0.35631,0.922442,-0.225255,0.577003,0.602549,0,0,218,63,218,63,312,70,220,153,-0.60678,-0.286647,0,-1.7,4.16626e-38,0,0,0,-0.35631,0.922442,-4.08984,-1.44922,0,0,-0.225255,0.577003,8640,0,0,0,0,0,0,0,0,0,2,-1.84488
8668,-0.27832,0,-0.699219,-0.000287019,-0.00109705,0.00102229,0.0397842,-0.00909068,0.602567,-4.99615,0.590828,-0.0876635,-0.35947,0.930534,-0.225904,0.578574,0.602567,0,0,218,63,218,63,312,70,220,153,-0.606782,-0.286636,0,-1.7,4.16626e-38,0,0,0,-0.35947,0.930534,-4.08984,-1.44922,0,0,-0.225904,0.578574,8640,0,0,0,0,0,0,0,0,0,2,-1.86107
8682,-0.27832,0,-4.55176,0.00175688,-0.000840773,0.00345459,0.0395508,-0.0090332,0.602539,-4.95427,0.585189,-0.0920183,-0.362638,0.938648,-0.226543,0.580123,0.602539,0,0,218,60,218,60,312,70,220,153,-0.606779,-0.286653,0,-1.7,4.16626e-38,0,0,0,-0.362638,0.938648,-4.08984,-1.44922,0,0,-0.226543,0.580123,8928,0,0,0,0,0,0,0,0,0,2,-1.8773
8698,-0.27832,0,-5.56543,0.000138327,-0.00102433,0.00284838,0.0397847,-0.00910249,0.602654,-4.95427,0.585189,-0.0920183,-0.366043,0.947365,-0.227219,0.581762,0.602654,0,0,218,60,218,60,312,70,220,153,-0.606792,-0.286583,0,-1.7,4.16626e-38,0,0,0,-0.366043,0.947365,-4.08984,-1.44922,0,0,-0.227219,0.581762,8928,0,0,0,0,0,0,0,0,0,2,-1.89473
8713,-0.27832,0,-6.25781,0.00134824,-0.000594351,0.00238089,0.0398024,-0.00909685,0.602683,-4.95427,0.585189,-0.0920183,-0.369686,0.956692,-0.227945,0.583526,0.602683,0,0,218,60,218,60,312,70,220,153,-0.606795,-0.286566,0,-1.7,4.16626e-38,0,0,0,-0.369686,0.956692,-4.08984,-1.44922,0,0,-0.227945,0.583526,8928,0,0,0,0,0,0,0,0,0,2,-1.91338
8729,-0.27832,0,-3.03125,-0.0015816,-0.000205062,0.00183029,0.0397995,-0.00910033,0.602705,-4.99619,0.590825,-0.0877535,-0.37334,0.966046,-0.228667,0.585278,0.602705,0,0,218,63,218,63,312,70,220,153,-0.606797,-0.286552,0,-1.7,4.16626e-38,0,0,0,-0.37334,0.966046,-4.08984,-1.44922,0,0,-0.228667,0.585278,8640,0,0,0,0,0,0,0,0,0,2,-1.93209
8744,-0.27832,0,-1.2207,0.00141892,0.000399223,0.00226325,0.0398252,-0.00909417,0.602732,-4.99619,0.590825,-0.0877535,-0.376776,0.974841,-0.229339,0.586909,0.602705,0,0,218,63,218,63,312,70,220,153,-0.606797,-0.286552,0,-1.7,4.16626e-38,0,0,0,-0.376776,0.974841,-4.08984,-1.44922,0,0,-0.229339,0.586909,8640,0,0,0,0,0,0,0,0,0,2,-1.94968
