timestamp,A_x,A_y,A_z,P,Q,R,Phi,Theta,Psi,poseX,poseY,poseZ,state_X,state_Y,state_Z,state_VzB,state_Bx,state_By,state_Bz,p1_x,p1_y,p2_x,p2_y,p3_x,p3_y,p4_x,p4_y,roll,pitch,yaw,alt,targetHeading,highLevelState,lowLevelState,gateNumber,filtered_x,filtered_y,x_OT,y_OT,vx_OT,vy_OT,filtered_vx,filtered_vygateArearansac_corr_x,ransac_corr_y,ransac_corr_vx,ransac_corr_vy,detectionTimeStamppTermX,dTermX,pTermY,dTermY,vxcmd,vycmd
5988,1.4668,0.0371094,6.11816,-0.00531371,0.00475132,-0.0484807,-0.19313,0.0685606,-1.52655,0,0,0,-8.31281e-05,2.72762e-05,-0.0154619,0.0050412,-1.50813,0,0,0,0,0,0,0,0,0,0,0.435396,-0.203042,0,-1.5,1.83186e-38,0,0,0,-8.31281e-05,2.72762e-05,0,0,0,0,-0.0154619,0.0050412,1.9603e-19,0,0,0,0,0,0,0,0,0,2.5,-5.45524e-05
6003,1.4668,0.102539,-0.871094,-0.00348104,0.00576459,-0.0478889,-0.196214,0.0551333,-1.57286,0,0,0,-0.000580955,0.000184991,-0.0443309,0.0138431,-1.55426,0,0,0,0,0,0,0,0,0,0,0.436214,-0.185211,0,-1.5,1.83186e-38,0,0,0,-0.000580955,0.000184991,0,0,0,0,-0.0443309,0.0138431,1.9603e-19,0,0,0,0,0,0,0,0,0,2.5,-0.000369983
6020,1.4668,0.102539,-3.08594,-0.003919,0.00420403,-0.0484729,-0.198266,0.0429838,-1.61831,0,0,0,-0.00177515,0.00054754,-0.0787349,0.023586,-1.59983,0,0,0,0,0,0,0,0,0,0,0.436327,-0.167946,0,-1.5,1.83186e-38,0,0,0,-0.00177515,0.00054754,0,0,0,0,-0.0787349,0.023586,1.9603e-19,0,0,0,0,0,0,0,0,0,2.5,-0.00109508
6035,1.4668,0.102539,1.94531,-0.00515172,0.00486609,-0.0481068,-0.198455,0.0417931,-1.62299,0,0,0,-0.00323125,0.000975647,-0.107158,0.0312328,-1.62225,0,0,0,0,0,0,0,0,0,0,0.436181,-0.16029,0,-1.5,1.83186e-38,0,0,0,-0.00323125,0.000975647,0,0,0,0,-0.107158,0.0312328,1.9603e-19,0,0,0,0,0,0,0,0,0,2.5,-0.00195129
6050,1.4668,0.102539,1.94531,-0.00515172,0.00486609,-0.0481068,-0.198455,0.0417931,-1.62299,0,0,0,-0.00511195,0.00151703,-0.135398,0.038762,-1.62299,0,0,0,0,0,0,0,0,0,0,0.436283,-0.162116,0,-1.5,1.83186e-38,0,0,0,-0.00511195,0.00151703,0,0,0,0,-0.135398,0.038762,1.9603e-19,0,0,0,0,0,0,0,0,0,2.5,-0.00303406
6065,1.4668,0.102539,-6.48145,-0.00402894,0.00444157,-0.0484787,-0.198472,0.041603,-1.62374,0,0,0,-0.00741442,0.00217081,-0.163448,0.0462348,-1.62374,0,0,0,0,0,0,0,0,0,0,0.43639,-0.163982,0,-1.5,1.83186e-38,0,0,0,-0.00741442,0.00217081,0,0,0,0,-0.163448,0.0462348,1.9603e-19,0,0,0,0,0,0,0,0,0,2.5,-0.00434161
6081,1.4668,0.102539,2.64746,-0.00497425,0.0056619,-0.0484142,-0.198508,0.0414202,-1.62451,0,0,0,-0.0103327,0.00299126,-0.19316,0.0541442,-1.62451,0,0,0,0,0,0,0,0,0,0,0.43651,-0.166028,0,-1.5,1.83186e-38,0,0,0,-0.0103327,0.00299126,0,0,0,0,-0.19316,0.0541442,1.9603e-19,0,0,0,0,0,0,0,0,0,2.5,-0.00598252
6100,1.4668,0.102539,-1.59082,-0.00464155,0.00573513,-0.0472448,-0.198531,0.0412358,-1.62528,0,0,0,-0.0144625,0.00414236,-0.228187,0.0634638,-1.62528,0,0,0,0,0,0,0,0,0,0,0.436661,-0.168595,0,-1.5,1.83186e-38,0,0,0,-0.0144625,0.00414236,0,0,0,0,-0.228187,0.0634638,1.9603e-19,0,0,0,0,0,0,0,0,0,2.5,-0.00828472
6118,1.4668,0.102539,3.28711,-0.00545605,0.00505394,-0.0477878,-0.19861,0.0408378,-1.62683,0,0,0,-0.0189598,0.00538839,-0.261083,0.0722096,-1.62606,0,0,0,0,0,0,0,0,0,0,0.436812,-0.171057,0,-1.5,1.83186e-38,0,0,0,-0.0189598,0.00538839,0,0,0,0,-0.261083,0.0722096,1.9603e-19,0,0,0,0,0,0,0,0,0,2.5,-0.0107768
6134,1.4668,0.102539,3.28711,-0.00545605,0.00505394,-0.0477878,-0.19861,0.0408378,-1.62683,-4.97392,0.73822,0.289598,-0.0234331,0.00662235,-0.290095,0.0799133,-1.62683,-0.97392,0.73822,252,39,252,39,339,55,238,128,0.436951,-0.173261,0,-1.5,1.83186e-38,0,0,0,-0.0234331,0.00662235,0,0,0,0,-0.290095,0.0799133,10201,0,0,0,0,6127,0,0,0,0,2.5,-0.0132447
6149,1.4668,0.102539,-5.29297,-0.00634814,0.00463254,-0.0492422,-0.198662,0.040641,-1.62759,-4.97392,0.73822,0.289598,-0.0280459,0.00789042,-0.317106,0.0870795,-1.62759,-0.97392,0.73822,252,39,252,39,339,55,238,128,0.437088,-0.175351,0,-1.5,1.83186e-38,0,0,0,-0.0280459,0.00789042,0,0,0,0,-0.317106,0.0870795,10201,0,0,0,0,6127,0,0,0,0,2.5,-0.0157808
6164,1.4668,0.102539,-5.29297,-0.00634814,0.00463254,-0.0492422,-0.198662,0.040641,-1.62759,-4.98919,0.7435,0.291418,-0.0330622,0.00926547,-0.343937,0.0941934,-1.62759,-0.989193,0.7435,252,39,252,39,339,55,238,128,0.437228,-0.177813,0,-1.5,1.83186e-38,0,0,0,-0.0330622,0.00926547,0,0,0,0,-0.343937,0.0941934,10201,0,0,0,0,6156,0,0,0,0,2.5,-0.0185309
6195,1.4668,0.102539,-4.12012,-0.00574008,0.00430847,-0.0475483,-0.198776,0.0400425,-1.62994,-4.98152,0.727356,0.290292,-0.0450645,0.0125408,-0.398982,0.10878,-1.62994,-0.981518,0.727356,252,39,252,39,339,55,240,128,0.437547,-0.182059,0,-1.5,1.83186e-38,0,0,0,-0.0450645,0.0125408,0,0,0,0,-0.398982,0.10878,9999,0,0,0,0,6189,0,0,0,0,2.5,-0.0250816
6241,1.4668,0.102539,4.15918,-0.00515449,0.00483897,-0.0486585,-0.198832,0.0396625,-1.63146,-5.03794,0.745257,0.30977,-0.0661599,0.0182694,-0.479343,0.130012,-1.63146,-1.03794,0.745257,252,39,252,39,339,55,240,127,0.458692,-0.529313,0,-1.5,1.83186e-38,0,0,0,-0.997733,0.745358,0,0,0,0,-0.157878,0.0373923,9999,-0.934787,0.728015,0.321465,-0.0926199,6234,0,0,0,0,2.5,-1.49072
6266,1.4668,0.102539,4.15918,-0.00515449,0.00483897,-0.0486585,-0.198832,0.0396625,-1.63146,-5.01279,0.737967,0.295269,-0.0788614,0.0217092,-0.522189,0.141319,-1.63146,-1.01279,0.737967,252,39,252,39,339,55,240,128,0.457492,-0.50955,0,-1.5,1.83186e-38,0,0,0,-1.01589,0.737688,0,0,0,0,-0.316078,-0.0264663,9999,-0.939094,0.717657,0.206111,-0.167786,6258,0,0,0,0,2.5,-1.47538
6282,1.4668,0.102539,3.53809,-0.00458805,0.00479666,-0.0481831,-0.19891,0.0391115,-1.63379,-5.01279,0.737967,0.295269,-0.0875018,0.0240456,-0.549337,0.148478,-1.63379,-1.01279,0.737967,252,39,252,39,339,55,240,128,0.458373,-0.510096,0,-1.5,1.83186e-38,0,0,0,-1.02124,0.73734,0,0,0,0,-0.343226,-0.0193073,9999,-0.939094,0.717657,0.206111,-0.167786,6258,0,0,0,0,2.5,-1.47468
6300,1.4668,0.102539,3.53809,-0.00458805,0.00479666,-0.0481831,-0.19891,0.0391115,-1.63379,-4.9504,0.728828,0.271427,-0.0977611,0.026816,-0.579654,0.156463,-1.63379,-0.950398,0.728828,252,39,252,39,339,55,238,128,0.458491,-0.511963,0,-1.5,1.83186e-38,0,0,0,-1.01037,0.73709,0,0,0,0,-0.258189,-0.0113224,10201,-0.918393,0.713294,0.321465,-0.167786,6289,0,0,0,0,2.5,-1.47418
6316,1.4668,0.102539,6.62988,-0.00538798,0.00380897,-0.0474117,-0.198965,0.038727,-1.63527,-4.9504,0.728828,0.271427,-0.107308,0.0293912,-0.606384,0.163497,-1.63527,-0.950398,0.728828,252,39,252,39,339,55,238,128,0.459099,-0.512985,0,-1.5,1.83186e-38,0,0,0,-1.01477,0.736981,0,0,0,0,-0.284919,-0.00428857,10201,-0.918393,0.713294,0.321465,-0.167786,6289,0,0,0,0,2.5,-1.47396
6334,1.4668,0.102539,-5.3916,-0.00448516,0.00552274,-0.0488304,-0.199037,0.0383401,-1.63686,-4.99252,0.74154,0.286281,-0.118577,0.0324271,-0.636235,0.171343,-1.63527,-0.992517,0.74154,252,39,252,39,339,55,238,127,0.459829,-0.524282,0,-1.5,1.83186e-38,0,0,0,-0.9956,0.742048,0,0,0,0,-0.18151,0.0308611,10201,-0.885208,0.712149,0.454726,-0.140482,6322,0,0,0,0,2.5,-1.4841
6349,1.4668,0.102539,-5.3916,-0.00448516,0.00552274,-0.0488304,-0.199037,0.0383401,-1.63686,-4.99252,0.74154,0.286281,-0.128359,0.03506,-0.660921,0.177825,-1.63686,-0.992517,0.74154,252,39,252,39,339,55,238,127,0.460507,-0.525433,0,-1.5,1.83186e-38,0,0,0,-0.998562,0.742573,0,0,0,0,-0.206195,0.0373431,10201,-0.885208,0.712149,0.454726,-0.140482,6322,0,0,0,0,2.5,-1.48515
6368,1.4668,0.102539,3.08594,-0.00391662,0.00321333,-0.0472677,-0.199078,0.0379562,-1.63835,-4.98795,0.728288,0.279187,-0.141324,0.0385456,-0.691972,0.185972,-1.63686,-0.987949,0.728288,252,39,252,39,339,55,240,128,0.459619,-0.512021,0,-1.5,1.83186e-38,0,0,0,-1.00304,0.735189,0,0,0,0,-0.23379,-0.00165311,9999,-0.870422,0.700208,0.458182,-0.187625,6356,0,0,0,0,2.5,-1.47038
6383,1.4668,0.102539,-3.81543,-0.00525948,0.00448358,-0.048587,-0.199103,0.0377414,-1.63917,-4.98795,0.728288,0.279187,-0.151939,0.0413969,-0.716282,0.192343,-1.63835,-0.987949,0.728288,252,39,252,39,339,55,240,128,0.46023,-0.512944,0,-1.5,1.83186e-38,0,0,0,-1.00678,0.735226,0,0,0,0,-0.2581,0.00471814,9999,-0.870422,0.700208,0.458182,-0.187625,6356,0,0,0,0,2.5,-1.47045
6402,1.4668,0.102539,5.14844,-0.00448533,0.00434824,-0.049295,-0.199135,0.0375632,-1.63992,-4.95405,0.729341,0.265086,-0.165187,0.0449519,-0.745251,0.199924,-1.63917,-0.954052,0.729341,252,39,252,39,339,55,238,128,0.460027,-0.505516,0,-1.5,1.83186e-38,0,0,0,-0.997746,0.728899,0,0,0,0,-0.220091,-0.0108858,10201,-0.842012,0.687742,0.52516,-0.210809,6390,0,0,0,0,2.5,-1.4578
6421,1.4668,0.102539,5.14844,-0.00448533,0.00434824,-0.049295,-0.199135,0.0375632,-1.63992,-5.03065,0.741052,0.29393,-0.180496,0.0490561,-0.777156,0.208264,-1.63992,-1.03065,0.741052,252,39,252,39,339,55,240,127,0.461447,-0.522092,0,-1.5,1.83186e-38,0,0,0,-1.00791,0.738315,0,0,0,0,-0.273093,0.0381313,9999,-0.829939,0.69011,0.504063,-0.170132,6418,0,0,0,0,2.5,-1.47663
6435,1.4668,0.102539,0.00976562,-0.00484742,0.00587429,-0.048354,-0.199185,0.0371943,-1.64144,-5.03065,0.741052,0.29393,-0.191573,0.0520231,-0.799311,0.214054,-1.63992,-1.03065,0.741052,252,39,252,39,339,55,240,127,0.461567,-0.523828,0,-1.5,1.83186e-38,0,0,0,-1.01193,0.7389,0,0,0,0,-0.295249,0.0439211,9999,-0.829939,0.69011,0.504063,-0.170132,6418,0,0,0,0,2.5,-1.4778
6454,1.4668,0.102539,0.00976562,-0.00484742,0.00587429,-0.048354,-0.199185,0.0371943,-1.64144,-5.03219,0.741266,0.291271,-0.207115,0.0561829,-0.829164,0.221842,-1.64144,-1.03219,0.741266,252,39,252,39,339,55,240,127,0.462338,-0.526519,0,-1.5,1.83186e-38,0,0,0,-1.03432,0.740704,0,0,0,0,-0.389565,0.053921,9999,-0.829405,0.685361,0.439599,-0.167921,6451,0,0,0,0,2.5,-1.48141
6470,1.4668,0.102539,4.79785,-0.00393164,0.00491746,-0.0479524,-0.19922,0.0367826,-1.64304,-5.03219,0.741266,0.291271,-0.219779,0.0595695,-0.852549,0.227943,-1.64144,-1.03219,0.741266,252,39,252,39,339,55,240,127,0.462476,-0.528473,0,-1.5,1.83186e-38,0,0,0,-1.04039,0.741572,0,0,0,0,-0.41295,0.0600223,9999,-0.829405,0.685361,0.439599,-0.167921,6451,0,0,0,0,2.5,-1.48314
6489,1.4668,0.102539,-3.69531,-0.00487353,0.00443599,-0.0488203,-0.199237,0.0365956,-1.6438,-4.9923,0.728798,0.271714,-0.237227,0.0642316,-0.88349,0.235998,-1.64304,-0.992301,0.728798,252,39,252,39,339,55,240,128,0.463128,-0.528914,0,-1.5,1.83186e-38,0,0,0,-1.04134,0.741715,0,0,0,0,-0.413744,0.0644739,9999,-0.806933,0.678513,0.469746,-0.171524,6485,0,0,0,0,2.5,-1.48343
6504,1.4668,0.102539,5.37988,-0.005006,0.00510303,-0.0479973,-0.199273,0.0364264,-1.64454,-4.9923,0.728798,0.271714,-0.249786,0.0675851,-0.904972,0.241585,-1.6438,-0.992301,0.728798,252,39,252,39,339,55,240,128,0.463533,-0.530431,0,-1.5,1.83186e-38,0,0,0,-1.04732,0.742667,0,0,0,0,-0.435226,0.0700613,9999,-0.806933,0.678513,0.469746,-0.171524,6485,0,0,0,0,2.5,-1.48533
6523,1.4668,0.102539,5.83008,-0.00368796,0.00496049,-0.0476493,-0.199285,0.0362449,-1.64527,-5.03517,0.744112,0.28505,-0.268276,0.0725184,-0.935443,0.249504,-1.64527,-1.03517,0.744112,252,39,252,39,339,55,240,128,0.464306,-0.533113,0,-1.5,1.83186e-38,0,0,0,-1.03792,0.744828,0,0,0,0,-0.396876,0.0792271,9999,-0.773948,0.673671,0.538567,-0.170277,6517,0,0,0,0,2.5,-1.48966
6538,1.4668,0.102539,7.29492,-0.00411482,0.00476481,-0.0486377,-0.199303,0.036037,-1.64609,-5.03517,0.744112,0.28505,-0.282527,0.0763179,-0.958107,0.255388,-1.64609,-1.03517,0.744112,252,39,252,39,339,55,240,128,0.464756,-0.53482,0,-1.5,1.83186e-38,0,0,0,-1.04409,0.746073,0,0,0,0,-0.41954,0.0851112,9999,-0.773948,0.673671,0.538567,-0.170277,6517,0,0,0,0,2.5,-1.49215
6558,1.4668,0.102539,-0.376953,-0.00389555,0.00516805,-0.0490717,-0.199335,0.0358537,-1.64687,-5.03675,0.7443,0.282347,-0.301071,0.0812583,-0.986599,0.262778,-1.64687,-1.03675,0.7443,252,39,252,39,339,55,240,128,0.465003,-0.534015,0,-1.5,1.83186e-38,0,0,0,-1.04794,0.745256,0,0,0,0,-0.436559,0.0849683,9999,-0.750723,0.665242,0.55004,-0.17781,6552,0,0,0,0,2.5,-1.49051
6572,1.4668,0.102539,-4.71777,-0.00386405,0.00472414,-0.0478811,-0.199341,0.0356682,-1.64763,-5.03675,0.7443,0.282347,-0.316086,0.085256,-1.00892,0.268562,-1.64763,-1.03675,0.7443,252,39,252,39,339,55,240,128,0.465441,-0.535764,0,-1.5,1.83186e-38,0,0,0,-1.05471,0.746586,0,0,0,0,-0.458878,0.0907523,9999,-0.750723,0.665242,0.55004,-0.17781,6552,0,0,0,0,2.5,-1.49317
6592,1.4668,0.102539,-5.25586,-0.00416665,0.00471579,-0.0489784,-0.199358,0.0354779,-1.64841,-4.97614,0.737649,0.253538,-0.336642,0.0907252,-1.03845,0.276209,-1.64841,-0.976137,0.737649,252,39,252,39,339,55,238,128,0.465849,-0.537028,0,-1.5,1.83186e-38,0,0,0,-1.05893,0.7476,0,0,0,0,-0.473286,0.0952544,10302,-0.727944,0.658685,0.565162,-0.180955,6584,0,0,0,0,2.5,-1.4952
6608,1.4668,0.102539,-5.25586,-0.00416665,0.00471579,-0.0489784,-0.199358,0.0354779,-1.64841,-4.97614,0.737649,0.253538,-0.353497,0.0952064,-1.06187,0.282271,-1.64841,-0.976137,0.737649,252,39,252,39,339,55,238,128,0.466028,-0.539329,0,-1.5,1.83186e-38,0,0,0,-1.06675,0.749186,0,0,0,0,-0.496713,0.101316,10302,-0.727944,0.658685,0.565162,-0.180955,6584,0,0,0,0,2.5,-1.49837
6626,1.4668,0.102539,-2.77637,-0.00544478,0.00426787,-0.0488702,-0.199402,0.0350991,-1.65,-5.00421,0.745486,0.265579,-0.372907,0.100364,-1.08803,0.289037,-1.65,-1.00421,0.745486,252,39,252,39,339,55,238,128,0.466495,-0.537191,0,-1.5,1.83186e-38,0,0,0,-1.0733,0.747459,0,0,0,0,-0.516923,0.0991578,10201,-0.706106,0.648993,0.571107,-0.189879,6618,0,0,0,0,2.5,-1.49492
6641,1.4668,0.102539,1.66992,-0.00334528,0.00403021,-0.0491238,-0.199404,0.0349125,-1.65078,-5.00421,0.745486,0.265579,-0.388319,0.104457,-1.10822,0.294251,-1.65078,-1.00421,0.745486,252,39,252,39,339,55,238,128,0.466941,-0.538839,0,-1.5,1.83186e-38,0,0,0,-1.08072,0.748893,0,0,0,0,-0.537113,0.104372,10201,-0.706106,0.648993,0.571107,-0.189879,6618,0,0,0,0,2.5,-1.49779
6660,1.4668,0.102539,-5.55859,-0.00567692,0.00472423,-0.0484935,-0.19943,0.034736,-1.65153,-5.06894,0.752517,0.290505,-0.41085,0.110437,-1.13685,0.301641,-1.65153,-1.06894,0.752517,252,39,252,39,338,55,240,127,0.467668,-0.544116,0,-1.5,1.83186e-38,0,0,0,-1.07765,0.753513,0,0,0,0,-0.529711,0.117708,9898,-0.672871,0.644915,0.607141,-0.183933,6652,0,0,0,0,2.5,-1.50703
6676,1.4668,0.102539,3.98926,-0.00461652,0.00391765,-0.0479185,-0.199449,0.0345373,-1.65232,-5.06894,0.752517,0.290505,-0.428109,0.115014,-1.15815,0.307133,-1.65232,-1.06894,0.752517,252,39,252,39,338,55,240,127,0.468146,-0.546021,0,-1.5,1.83186e-38,0,0,0,-1.0858,0.755332,0,0,0,0,-0.551011,0.1232,9898,-0.672871,0.644915,0.607141,-0.183933,6652,0,0,0,0,2.5,-1.51066
6695,1.4668,0.102539,2.55957,-0.00564239,0.00487682,-0.0493162,-0.199479,0.0343569,-1.6531,-5.04098,0.744749,0.27511,-0.451632,0.12125,-1.18633,0.314393,-1.6531,-1.04098,0.744749,252,39,252,39,339,55,240,128,0.468333,-0.54443,0,-1.5,1.83186e-38,0,0,0,-1.09267,0.754029,0,0,0,0,-0.570375,0.120879,9999,-0.649047,0.635295,0.61596,-0.193514,6684,0,0,0,0,2.5,-1.50806
6710,1.4668,0.102539,2.48145,-0.00479092,0.00504558,-0.048222,-0.199501,0.0341829,-1.65385,-5.04098,0.744749,0.27511,-0.46963,0.126018,-1.2073,0.319789,-1.65385,-1.04098,0.744749,252,39,252,39,339,55,240,128,0.468802,-0.54635,0,-1.5,1.83186e-38,0,0,0,-1.10143,0.755894,0,0,0,0,-0.591341,0.126275,9999,-0.649047,0.635295,0.61596,-0.193514,6684,0,0,0,0,2.5,-1.51179
6730,1.4668,0.102539,2.48145,-0.00479092,0.00504558,-0.048222,-0.199501,0.0341829,-1.65385,-5.01006,0.745231,0.255216,-0.494165,0.132514,-1.23506,0.326931,-1.65385,-1.01006,0.745231,251,41,251,41,339,55,238,128,0.469022,-0.548997,0,-1.5,1.83186e-38,0,0,0,-1.07171,0.757854,0,0,0,0,-0.498554,0.13298,9999,-0.592279,0.629219,0.736504,-0.193951,6717,0,0,0,0,2.5,-1.51571
6746,1.4668,0.102539,-1.9834,-0.00495249,0.00435132,-0.0480228,-0.199545,0.0338324,-1.65535,-5.01006,0.745231,0.255216,-0.514151,0.137803,-1.25707,0.33259,-1.65535,-1.01006,0.745231,251,41,251,41,339,55,238,128,0.469794,-0.550793,0,-1.5,1.83186e-38,0,0,0,-1.07992,0.76004,0,0,0,0,-0.520563,0.138639,9999,-0.592279,0.629219,0.736504,-0.193951,6717,0,0,0,0,2.5,-1.52008
6765,1.4668,0.102539,-1.9834,-0.00495249,0.00435132,-0.0480228,-0.199545,0.0338324,-1.65535,-5.05705,0.746631,0.276229,-0.538364,0.144206,-1.28301,0.339255,-1.65535,-1.05705,0.746631,251,41,251,41,339,55,240,127,0.469375,-0.54585,0,-1.5,1.83186e-38,0,0,0,-1.079,0.755,0,0,0,0,-0.516038,0.128872,9801,-0.555204,0.614791,0.76697,-0.210382,6752,0,0,0,0,2.5,-1.51
6780,1.4668,0.102539,-1.9834,-0.00495249,0.00435132,-0.0480228,-0.199545,0.0338324,-1.65535,-5.05705,0.746631,0.276229,-0.557806,0.149346,-1.30332,0.344473,-1.65535,-1.05705,0.746631,251,41,251,41,339,55,240,127,0.469569,-0.548138,0,-1.5,1.83186e-38,0,0,0,-1.08693,0.756984,0,0,0,0,-0.536353,0.134091,9801,-0.555204,0.614791,0.76697,-0.210382,6752,0,0,0,0,2.5,-1.51397
6801,1.4668,0.102539,-2.98242,-0.00524697,0.00408948,-0.0485805,-0.199617,0.033099,-1.65842,-5.04296,0.745007,0.271682,-0.585584,0.156685,-1.33156,0.351727,-1.65535,-1.04296,0.745007,252,39,252,39,339,55,240,128,0.469761,-0.550404,0,-1.5,1.83186e-38,0,0,0,-1.08886,0.758879,0,0,0,0,-0.544775,0.139399,9999,-0.519802,0.606654,0.786781,-0.212328,6788,0,0,0,0,2.5,-1.51776
6815,1.4668,0.102539,5.42676,-0.00488916,0.00547265,-0.0492396,-0.199637,0.0329149,-1.65925,-5.04296,0.745007,0.271682,-0.604391,0.161651,-1.35021,0.356502,-1.65842,-1.04296,0.745007,252,39,252,39,339,55,240,128,0.471105,-0.551143,0,-1.5,1.83186e-38,0,0,0,-1.09666,0.760873,0,0,0,0,-0.563428,0.144174,9999,-0.519802,0.606654,0.786781,-0.212328,6788,0,0,0,0,2.5,-1.52175
6829,1.4668,0.102539,5.42676,-0.00488916,0.00547265,-0.0492396,-0.199637,0.0329149,-1.65925,-5.03125,0.740167,0.263582,-0.623458,0.166684,-1.36875,0.361246,-1.65925,-1.04296,0.745007,252,39,252,39,339,55,240,128,0.471612,-0.552961,0,-1.5,1.83186e-38,0,0,0,-1.10471,0.762934,0,0,0,0,-0.581964,0.148918,9999,-0.519802,0.606654,0.786781,-0.212328,6788,0,0,0,0,2.5,-1.52587
6845,1.4668,0.102539,1.98535,-0.0042243,0.00471008,-0.0471658,-0.199649,0.0327388,-1.66,-5.03125,0.740167,0.263582,-0.644181,0.172152,-1.38848,0.366293,-1.66,-1.04296,0.745007,252,39,252,39,339,55,240,128,0.47211,-0.555,0,-1.5,1.83186e-38,0,0,0,-1.11363,0.765216,0,0,0,0,-0.601696,0.153965,9999,-0.519802,0.606654,0.786781,-0.212328,6788,0,0,0,0,2.5,-1.53043
6860,1.4668,0.102539,1.98535,-0.0042243,0.00471008,-0.0471658,-0.199649,0.0327388,-1.66,-5.05815,0.747689,0.275195,-0.666616,0.178069,-1.40938,0.371637,-1.66,-1.04296,0.745007,252,39,252,39,339,55,240,127,0.472341,-0.557585,0,-1.5,1.83186e-38,0,0,0,-1.12348,0.767736,0,0,0,0,-0.622599,0.159309,9999,-0.519802,0.606654,0.786781,-0.212328,6788,0,0,0,0,2.5,-1.53547
6875,1.4668,0.102539,2.2168,-0.0020763,0.00475194,-0.0487109,-0.199654,0.0323874,-1.66152,-5.05815,0.747689,0.275195,-0.68794,0.18369,-1.42883,0.376608,-1.66152,-1.04296,0.745007,252,39,252,39,339,55,240,127,0.473149,-0.559315,0,-1.5,1.83186e-38,0,0,0,-1.133,0.770173,0,0,0,0,-0.642052,0.16428,9999,-0.519802,0.606654,0.786781,-0.212328,6788,0,0,0,0,2.5,-1.54035
6890,1.4668,0.102539,6.49512,-0.00495522,0.0042021,-0.0485663,-0.199686,0.0322022,-1.66229,-5.01487,0.746715,0.25152,-0.709559,0.189387,-1.44815,0.38154,-1.66229,-1.04296,0.745007,252,39,252,39,338,55,238,128,0.473671,-0.56143,0,-1.5,1.83186e-38,0,0,0,-1.14282,0.772685,0,0,0,0,-0.661373,0.169212,10100,-0.519802,0.606654,0.786781,-0.212328,6788,0,0,0,0,2.5,-1.54537
6906,1.4668,0.102539,-3.57129,-0.0047632,0.00445322,-0.048372,-0.199698,0.0320155,-1.66309,-5.01487,0.746715,0.25152,-0.732939,0.195545,-1.46862,0.386759,-1.66309,-1.04296,0.745007,252,39,252,39,338,55,238,128,0.474227,-0.563726,0,-1.5,1.83186e-38,0,0,0,-1.15361,0.775445,0,0,0,0,-0.681839,0.174431,10100,-0.519802,0.606654,0.786781,-0.212328,6788,0,0,0,0,2.5,-1.55089
6921,1.4668,0.102539,0.0595703,-0.00404135,0.00518946,-0.0490719,-0.199707,0.0317383,-1.66382,-5.01384,0.746516,0.248938,-0.755147,0.201392,-1.48767,0.391609,-1.66382,-1.04296,0.745007,252,39,252,39,339,55,238,128,0.474747,-0.565913,0,-1.5,1.83186e-38,0,0,0,-1.16401,0.778107,0,0,0,0,-0.700889,0.179281,10201,-0.519802,0.606654,0.786781,-0.212328,6788,0,0,0,0,2.5,-1.55621
6936,1.4668,0.102539,5.38574,-0.00396513,0.00421745,-0.0479884,-0.199706,0.0316654,-1.66458,-5.01384,0.746516,0.248938,-0.777645,0.207312,-1.50659,0.396415,-1.66458,-1.04296,0.745007,252,39,252,39,339,55,238,128,0.475274,-0.568,0,-1.5,1.83186e-38,0,0,0,-1.17471,0.780843,0,0,0,0,-0.719811,0.184087,10201,-0.519802,0.606654,0.786781,-0.212328,6788,0,0,0,0,2.5,-1.56169
6952,1.4668,0.102539,-3.91406,-0.00421197,0.00502517,-0.0493699,-0.199723,0.0314957,-1.66534,-5.0641,0.747307,0.264037,-0.801955,0.213707,-1.52663,0.401515,-1.66458,-1.04296,0.745007,251,41,251,41,339,55,240,127,0.475274,-0.568,0,-1.5,1.83186e-38,0,0,0,-1.18643,0.78384,0,0,0,0,-0.739851,0.189187,9801,-0.519802,0.606654,0.786781,-0.212328,6788,0,0,0,0,2.5,-1.56768
6968,1.4668,0.102539,5.09375,-0.00427402,0.00374965,-0.0483626,-0.199734,0.031309,-1.66616,-5.0641,0.747307,0.264037,-0.825035,0.219776,-1.54529,0.40626,-1.66534,-1.04296,0.745007,251,41,251,41,339,55,240,127,0.475574,-0.567637,0,-1.5,1.83186e-38,0,0,0,-1.19771,0.786724,0,0,0,0,-0.758506,0.193932,9801,-0.519802,0.606654,0.786781,-0.212328,6788,0,0,0,0,2.5,-1.57345
6982,1.4668,0.102539,0.15332,-0.00363795,0.00338482,-0.0483721,-0.199736,0.0311148,-1.66692,-5.0641,0.747307,0.264037,-0.848389,0.225914,-1.56381,0.410969,-1.66616,-1.04296,0.745007,251,41,251,41,339,55,240,127,0.475895,-0.567249,0,-1.5,1.83186e-38,0,0,0,-1.20926,0.789678,0,0,0,0,-0.777032,0.198641,9801,-0.519802,0.606654,0.786781,-0.212328,6788,0,0,0,0,2.5,-1.57936
6996,1.4668,0.102539,0.15332,-0.00363795,0.00338482,-0.0483721,-0.199736,0.0311148,-1.66692,-5.00378,0.74421,0.237937,-0.870435,0.231706,-1.58099,0.415331,-1.66692,-1.04296,0.745007,252,39,252,39,338,55,238,128,0.476197,-0.566883,0,-1.5,1.83186e-38,0,0,0,-1.22029,0.792497,0,0,0,0,-0.794208,0.203003,10200,-0.519802,0.606654,0.786781,-0.212328,6788,0,0,0,0,2.5,-1.58499
7012,1.4668,0.102539,-1.99707,-0.00374174,0.00419219,-0.0494937,-0.199731,0.0309274,-1.66768,-5.00378,0.74421,0.237937,-0.895929,0.238402,-1.60049,0.420278,-1.66768,-1.04296,0.745007,252,39,252,39,338,55,238,128,0.476494,-0.566522,0,-1.5,1.83186e-38,0,0,0,-1.2332,0.795796,0,0,0,0,-0.813706,0.20795,10200,-0.519802,0.606654,0.786781,-0.212328,6788,0,0,0,0,2.5,-1.59159
7027,1.4668,0.102539,-1.99707,-0.00374174,0.00419219,-0.0494937,-0.199731,0.0309274,-1.66768,-5.05329,0.745068,0.253571,-0.920107,0.244749,-1.61863,0.42488,-1.66768,-1.04296,0.745007,251,41,251,41,339,55,240,128,0.476494,-0.566522,0,-1.5,1.83186e-38,0,0,0,-1.24558,0.798958,0,0,0,0,-0.831853,0.212552,9801,-0.519802,0.606654,0.786781,-0.212328,6788,0,0,0,0,2.5,-1.59792
7042,1.4668,0.102539,-1.99707,-0.00374174,0.00419219,-0.0494937,-0.199731,0.0309274,-1.66768,-5.05329,0.745068,0.253571,-0.944561,0.251167,-1.63666,0.429451,-1.66768,-1.04296,0.745007,251,41,251,41,339,55,240,128,0.476494,-0.566522,0,-1.5,1.83186e-38,0,0,0,-1.25823,0.802191,0,0,0,0,-0.84988,0.217123,9801,-0.519802,0.606654,0.786781,-0.212328,6788,0,0,0,0,2.5,-1.60438
7058,1.4668,0.102539,5.13672,-0.00361286,0.00416219,-0.047288,-0.199748,0.0303844,-1.67001,-5.03365,0.751218,0.243391,-0.970943,0.258087,-1.65575,0.434287,-1.67001,-1.04296,0.745007,251,41,251,41,339,55,238,128,0.477404,-0.565413,0,-1.5,1.83186e-38,0,0,0,-1.27202,0.805714,0,0,0,0,-0.868972,0.221959,9999,-0.519802,0.606654,0.786781,-0.212328,6788,0,0,0,0,2.5,-1.61143
7073,1.4668,0.102539,-2.06543,-0.00399459,0.00479905,-0.0485221,-0.199758,0.0302056,-1.67076,-5.03365,0.751218,0.243391,-0.995946,0.264644,-1.67352,0.43878,-1.67076,-1.04296,0.745007,251,41,251,41,339,55,238,128,0.477697,-0.565056,0,-1.5,1.83186e-38,0,0,0,-1.28522,0.809086,0,0,0,0,-0.88674,0.226452,9999,-0.519802,0.606654,0.786781,-0.212328,6788,0,0,0,0,2.5,-1.61817
7089,1.4668,0.102539,5.46582,-0.00369456,0.00403678,-0.0482671,-0.199762,0.0300275,-1.6715,-5.00508,0.741795,0.235805,-1.02291,0.271713,-1.69234,0.443535,-1.6715,-1.04296,0.745007,252,39,252,39,339,55,238,128,0.477988,-0.564699,0,-1.5,1.83186e-38,0,0,0,-1.2996,0.812758,0,0,0,0,-0.905561,0.231207,10201,-0.519802,0.606654,0.786781,-0.212328,6788,0,0,0,0,2.5,-1.62552
7104,1.4668,0.102539,-3,-0.00355465,0.00330764,-0.0484196,-0.199778,0.0298306,-1.67227,-5.00508,0.741795,0.235805,-1.04846,0.278408,-1.70986,0.447956,-1.67227,-1.04296,0.745007,252,39,252,39,339,55,238,128,0.478288,-0.564331,0,-1.5,1.83186e-38,0,0,0,-1.31335,0.816267,0,0,0,0,-0.923079,0.235628,10201,-0.519802,0.606654,0.786781,-0.212328,6788,0,0,0,0,2.5,-1.63253
7119,1.4668,0.102539,-2.09082,-0.00523479,0.00381161,-0.0487757,-0.199797,0.029637,-1.67307,-5.00876,0.743579,0.225255,-1.07428,0.285169,-1.72726,0.452342,-1.67307,-1.04296,0.745007,251,41,251,41,339,55,238,128,0.478598,-0.563951,0,-1.5,1.83186e-38,0,0,0,-1.32737,0.819844,0,0,0,0,-0.94048,0.240014,10100,-0.519802,0.606654,0.786781,-0.212328,6788,0,0,0,0,2.5,-1.63969
7134,1.4668,0.102539,1.32324,-0.00440834,0.00468388,-0.0483219,-0.199818,0.0294542,-1.67381,-5.00876,0.743579,0.225255,-1.10035,0.291996,-1.74454,0.456693,-1.67307,-1.04296,0.745007,251,41,251,41,339,55,238,128,0.478598,-0.563951,0,-1.5,1.83186e-38,0,0,0,-1.34164,0.823485,0,0,0,0,-0.957762,0.244365,10100,-0.519802,0.606654,0.786781,-0.212328,6788,0,0,0,0,2.5,-1.64697
7150,1.4668,0.102539,-7.19531,-0.0049996,0.00501194,-0.0483212,-0.199833,0.0292739,-1.67458,-5.00876,0.743579,0.225255,-1.12846,0.299351,-1.76285,0.461298,-1.67381,-1.04296,0.745007,251,41,251,41,339,55,238,128,0.478886,-0.563596,0,-1.5,1.83186e-38,0,0,0,-1.35715,0.827444,0,0,0,0,-0.976073,0.24897,10100,-0.519802,0.606654,0.786781,-0.212328,6788,0,0,0,0,2.5,-1.65489
7164,1.4668,0.102539,1.82324,-0.00465118,0.00433239,-0.0478109,-0.199843,0.0290986,-1.67534,-5.05525,0.746046,0.250611,-1.15328,0.305845,-1.77876,0.465295,-1.67458,-1.04296,0.745007,252,39,252,39,339,55,240,128,0.479185,-0.563228,0,-1.5,1.83186e-38,0,0,0,-1.37096,0.830965,0,0,0,0,-0.991982,0.252967,9999,-0.519802,0.606654,0.786781,-0.212328,6788,0,0,0,0,2.5,-1.66193
7180,1.4668,0.102539,1.82324,-0.00465118,0.00433239,-0.0478109,-0.199843,0.0290986,-1.67534,-5.05525,0.746046,0.250611,-1.18192,0.313336,-1.79682,0.469831,-1.67534,-1.04296,0.745007,252,39,252,39,339,55,240,128,0.479482,-0.562862,0,-1.5,1.83186e-38,0,0,0,-1.38701,0.835059,0,0,0,0,-1.01004,0.257503,9999,-0.519802,0.606654,0.786781,-0.212328,6788,0,0,0,0,2.5,-1.67012
7195,1.4668,0.102539,1.82324,-0.00465118,0.00433239,-0.0478109,-0.199843,0.0290986,-1.67534,-5.0381,0.752585,0.240391,-1.20903,0.320423,-1.81364,0.474052,-1.67534,-1.04296,0.745007,252,39,252,39,338,55,238,128,0.479482,-0.562862,0,-1.5,1.83186e-38,0,0,0,-1.40232,0.838961,0,0,0,0,-1.02685,0.261724,10100,-0.519802,0.606654,0.786781,-0.212328,6788,0,0,0,0,2.5,-1.67792
7210,1.4668,0.102539,2.33496,-0.0046217,0.00553461,-0.04994,-0.199868,0.0287539,-1.67693,-5.0381,0.752585,0.240391,-1.2364,0.327573,-1.83033,0.478242,-1.67693,-1.04296,0.745007,252,39,252,39,338,55,238,128,0.480098,-0.5621,0,-1.5,1.83186e-38,0,0,0,-1.41788,0.842926,0,0,0,0,-1.04355,0.265914,10100,-0.519802,0.606654,0.786781,-0.212328,6788,0,0,0,0,2.5,-1.68585
7225,1.4668,0.102539,4.8584,-0.00286532,0.00479676,-0.0484631,-0.19987,0.0285839,-1.67771,-5.08535,0.75404,0.26231,-1.26401,0.334787,-1.84692,0.482401,-1.67771,-1.04296,0.745007,252,39,252,39,338,55,240,127,0.480401,-0.561725,0,-1.5,1.83186e-38,0,0,0,-1.4337,0.846955,0,0,0,0,-1.06014,0.270073,9898,-0.519802,0.606654,0.786781,-0.212328,6788,0,0,0,0,2.5,-1.69391
7240,1.4668,0.102539,-2.99121,-0.00318361,0.00481029,-0.0494262,-0.199874,0.0284238,-1.67847,-5.08535,0.75404,0.26231,-1.29187,0.342062,-1.86338,0.486529,-1.67847,-1.04296,0.745007,252,39,252,39,338,55,240,127,0.480696,-0.561358,0,-1.5,1.83186e-38,0,0,0,-1.44975,0.851045,0,0,0,0,-1.0766,0.274201,9898,-0.519802,0.606654,0.786781,-0.212328,6788,0,0,0,0,2.5,-1.70209
7255,1.4668,0.102539,5.63379,-0.00466466,0.00428038,-0.0475982,-0.199885,0.0282404,-1.67925,-5.07313,0.748008,0.248378,-1.31998,0.349399,-1.87974,0.490627,-1.67925,-1.04296,0.745007,251,41,251,41,339,55,240,127,0.480998,-0.560983,0,-1.5,1.83186e-38,0,0,0,-1.46606,0.855198,0,0,0,0,-1.09296,0.278299,9801,-0.519802,0.606654,0.786781,-0.212328,6788,0,0,0,0,2.5,-1.7104
7271,1.4668,0.102539,2.21094,-0.00422654,0.00402417,-0.0497645,-0.199893,0.0280511,-1.68006,-5.07313,0.748008,0.248378,-1.35023,0.357294,-1.89707,0.494963,-1.68006,-1.04296,0.745007,251,41,251,41,339,55,240,127,0.481311,-0.560593,0,-1.5,1.83186e-38,0,0,0,-1.48373,0.859695,0,0,0,0,-1.11029,0.282635,9801,-0.519802,0.606654,0.786781,-0.212328,6788,0,0,0,0,2.5,-1.71939
7286,1.4668,0.102539,1.98047,-0.00416694,0.00457377,-0.0501397,-0.199908,0.0278769,-1.68082,-5.0618,0.745725,0.238802,-1.50054,0.863973,-1.12783,0.287051,-1.68082,-1.04296,0.745007,251,41,251,41,339,55,240,128,0.481604,-0.560227,0,-1.5,1.83186e-38,0,0,0,-1.50054,0.863973,0,0,0,0,-1.12783,0.287051,9801,0,0,0,0,6788,0,0,0,0,2.5,-1.72795
7301,1.4668,0.102539,1.73047,-0.0038094,0.00370833,-0.0481628,-0.199917,0.0276927,-1.68158,-5.0618,0.745725,0.238802,-1.51765,0.86833,-1.14913,0.29248,-1.68158,-1.04296,0.745007,251,41,251,41,339,55,240,128,0.481898,-0.559861,0,-1.5,1.83186e-38,0,0,0,-1.51765,0.86833,0,0,0,0,-1.14913,0.29248,9801,0,0,0,0,6788,0,0,0,0,2.5,-1.73666
7317,1.4668,0.102539,-1.79199,-0.00500428,0.00424913,-0.0477803,-0.199937,0.0275259,-1.68232,-5.0618,0.745725,0.238802,-1.5351,0.87277,-1.17029,0.297869,-1.68158,-1.04296,0.745007,251,41,251,41,339,55,240,128,0.481898,-0.559861,0,-1.5,1.83186e-38,0,0,0,-1.5351,0.87277,0,0,0,0,-1.17029,0.297869,9801,0,0,0,0,6788,0,0,0,0,2.5,-1.74554
7331,1.4668,0.102539,-1.53906,-0.0041174,0.00447528,-0.0481424,-0.199951,0.0273453,-1.68312,-4.98459,0.734674,0.211162,-1.55285,0.877288,-1.19131,0.303218,-1.68232,-1.04296,0.745007,252,39,252,39,338,55,238,128,0.482181,-0.559507,0,-1.5,1.83186e-38,0,0,0,-1.55285,0.877288,0,0,0,0,-1.19131,0.303218,10200,0,0,0,0,6788,0,0,0,0,2.5,-1.75458
7346,1.4668,0.102539,-1.53906,-0.0041174,0.00447528,-0.0481424,-0.199951,0.0273453,-1.68312,-4.98459,0.734674,0.211162,-1.57091,0.881886,-1.21218,0.308527,-1.68312,-1.04296,0.745007,252,39,252,39,338,55,238,128,0.48249,-0.559119,0,-1.5,1.83186e-38,0,0,0,-1.57091,0.881886,0,0,0,0,-1.21218,0.308527,10200,0,0,0,0,6788,0,0,0,0,2.5,-1.76377
7361,1.4668,0.102539,-1.53906,-0.0041174,0.00447528,-0.0481424,-0.199951,0.0273453,-1.68312,-5.02673,0.747546,0.226577,-1.58929,0.886564,-1.23292,0.313801,-1.68312,-1.04296,0.745007,252,39,252,39,339,55,238,128,0.48249,-0.559119,0,-1.5,1.83186e-38,0,0,0,-1.58929,0.886564,0,0,0,0,-1.23292,0.313801,10201,0,0,0,0,6788,0,0,0,0,2.5,-1.77313
7376,1.4668,0.102539,4.6084,-0.00518682,0.00420498,-0.0491971,-0.199981,0.0270047,-1.68466,-5.02673,0.747546,0.226577,-1.60799,0.891322,-1.25351,0.319038,-1.68466,-1.04296,0.745007,252,39,252,39,339,55,238,128,0.483083,-0.558373,0,-1.5,1.83186e-38,0,0,0,-1.60799,0.891322,0,0,0,0,-1.25351,0.319038,10201,0,0,0,0,6788,0,0,0,0,2.5,-1.78264
7391,1.4668,0.102539,-5.76855,-0.00554399,0.0039253,-0.0491613,-0.199996,0.0268314,-1.68539,-4.99614,0.734537,0.220307,-1.62699,0.896157,-1.27397,0.324235,-1.68539,-1.04296,0.745007,252,39,252,39,339,55,238,127,0.48336,-0.558025,0,-1.5,1.83186e-38,0,0,0,-1.62699,0.896157,0,0,0,0,-1.27397,0.324235,10201,0,0,0,0,6788,0,0,0,0,2.5,-1.79231
7406,1.4668,0.102539,2.12207,-0.00479854,0.00423954,-0.0481751,-0.200016,0.0266463,-1.6862,-4.99614,0.734537,0.220307,-1.64629,0.901071,-1.29429,0.329393,-1.6862,-1.04296,0.745007,252,39,252,39,339,55,238,127,0.483672,-0.557632,0,-1.5,1.83186e-38,0,0,0,-1.64629,0.901071,0,0,0,0,-1.29429,0.329393,10201,0,0,0,0,6788,0,0,0,0,2.5,-1.80214
7422,1.4668,0.102539,-4.7998,-0.00436252,0.0040506,-0.0493979,-0.200018,0.0264669,-1.68696,-5.07571,0.749158,0.244909,-1.66722,0.906397,-1.31581,0.334852,-1.68696,-1.04296,0.745007,252,39,252,39,339,55,240,127,0.483961,-0.557266,0,-1.5,1.83186e-38,0,0,0,-1.66722,0.906397,0,0,0,0,-1.31581,0.334852,9999,0,0,0,0,6788,0,0,0,0,2.5,-1.81279
7437,1.4668,0.102539,6.49121,-0.00493557,0.004805,-0.048975,-0.200035,0.0262964,-1.68771,-5.07571,0.749158,0.244909,-1.68581,0.911127,-1.33451,0.339592,-1.68771,-1.04296,0.745007,252,39,252,39,339,55,240,127,0.484252,-0.556898,0,-1.5,1.83186e-38,0,0,0,-1.68581,0.911127,0,0,0,0,-1.33451,0.339592,9999,0,0,0,0,6788,0,0,0,0,2.5,-1.82225
7452,1.4668,0.102539,3.56836,-0.00364576,0.00576834,-0.0485566,-0.20004,0.0261384,-1.6885,-5.04952,0.744001,0.226834,-1.70738,0.916615,-1.35574,0.344972,-1.6885,-1.04296,0.745007,252,39,252,39,339,55,240,128,0.484551,-0.55652,0,-1.5,1.83186e-38,0,0,0,-1.70738,0.916615,0,0,0,0,-1.35574,0.344972,10098,0,0,0,0,6788,0,0,0,0,2.5,-1.83323
7467,1.4668,0.102539,4.00488,-0.00390014,0.00496862,-0.0489463,-0.199951,0.0258789,-1.68921,-5.04952,0.744001,0.226834,-1.7279,0.921837,-1.3755,0.349976,-1.68921,-1.04296,0.745007,252,39,252,39,339,55,240,128,0.484823,-0.556174,0,-1.5,1.83186e-38,0,0,0,-1.7279,0.921837,0,0,0,0,-1.3755,0.349976,10098,0,0,0,0,6788,0,0,0,0,2.5,-1.84367
7482,1.4668,0.102539,6.61426,-0.00373047,0.00377748,-0.0495275,-0.200041,0.0257844,-1.69009,-5.04952,0.744001,0.226834,-1.74872,0.927133,-1.39512,0.35493,-1.68921,-1.04296,0.745007,252,39,252,39,339,55,240,128,0.484823,-0.556174,0,-1.5,1.83186e-38,0,0,0,-1.74872,0.927133,0,0,0,0,-1.39512,0.35493,10098,0,0,0,0,6788,0,0,0,0,2.5,-1.85427
7497,1.4668,0.102539,6.49121,-0.00359826,0.00344966,-0.0488168,-0.200045,0.025605,-1.69086,-5.03076,0.747732,0.219601,-1.76983,0.932505,-1.41461,0.359865,-1.69009,-1.04296,0.745007,252,39,252,39,339,55,238,128,0.485158,-0.555748,0,-1.5,1.83186e-38,0,0,0,-1.76983,0.932505,0,0,0,0,-1.41461,0.359865,10201,0,0,0,0,6788,0,0,0,0,2.5,-1.86501
7511,1.4668,0.102539,6.49121,-0.00359826,0.00344966,-0.0488168,-0.200045,0.025605,-1.69086,-5.03076,0.747732,0.219601,-1.7898,0.937584,-1.43268,0.364437,-1.69086,-1.04296,0.745007,252,39,252,39,339,55,238,128,0.485453,-0.555373,0,-1.5,1.83186e-38,0,0,0,-1.7898,0.937584,0,0,0,0,-1.43268,0.364437,10201,0,0,0,0,6788,0,0,0,0,2.5,-1.87517
7526,1.4668,0.102539,6.49121,-0.00359826,0.00344966,-0.0488168,-0.200045,0.025605,-1.69086,-5.00373,0.740115,0.20551,-1.81001,0.942726,-1.45064,0.36898,-1.69086,-1.04296,0.745007,252,39,252,39,339,55,238,128,0.485453,-0.555373,0,-1.5,1.83186e-38,0,0,0,-1.81001,0.942726,0,0,0,0,-1.45064,0.36898,10302,0,0,0,0,6788,0,0,0,0,2.5,-1.88545
7541,1.4668,0.102539,-1.52051,-0.00491012,0.00400826,-0.0491087,-0.200061,0.0252654,-1.69238,-5.00373,0.740115,0.20551,-1.83343,0.948682,-1.47102,0.374134,-1.69238,-1.04296,0.745007,252,39,252,39,339,55,238,128,0.486032,-0.554634,0,-1.5,1.83186e-38,0,0,0,-1.83343,0.948682,0,0,0,0,-1.47102,0.374134,10302,0,0,0,0,6788,0,0,0,0,2.5,-1.89736
7556,1.4668,0.102539,3.10156,-0.00451774,0.00384735,-0.0492067,-0.200068,0.0250709,-1.69321,-5.0816,0.742587,0.234298,-1.85568,0.954341,-1.49,0.378927,-1.69321,-1.04296,0.745007,252,41,252,41,338,55,240,127,0.486347,-0.554231,0,-1.5,1.83186e-38,0,0,0,-1.85568,0.954341,0,0,0,0,-1.49,0.378927,9702,0,0,0,0,6788,0,0,0,0,2.5,-1.90868
7571,1.4668,0.102539,-3.8125,-0.00463545,0.00435324,-0.0497587,-0.200085,0.0249109,-1.69399,-5.0816,0.742587,0.234298,-1.87821,0.960071,-1.50885,0.383685,-1.69399,-1.04296,0.745007,252,41,252,41,338,55,240,127,0.486642,-0.553853,0,-1.5,1.83186e-38,0,0,0,-1.87821,0.960071,0,0,0,0,-1.50885,0.383685,9702,0,0,0,0,6788,0,0,0,0,2.5,-1.92014
7587,1.4668,0.102539,5.17676,-0.0048464,0.00410309,-0.0479073,-0.200096,0.0247266,-1.69476,-5.06778,0.746938,0.228678,-1.90256,0.966261,-1.52881,0.388722,-1.69476,-1.04296,0.745007,252,39,252,39,338,55,240,127,0.486936,-0.553476,0,-1.5,1.83186e-38,0,0,0,-1.90256,0.966261,0,0,0,0,-1.52881,0.388722,9996,0,0,0,0,6788,0,0,0,0,2.5,-1.93252
7602,1.4668,0.102539,1.2373,-0.00514378,0.0050857,-0.0489856,-0.200118,0.0245714,-1.69552,-5.06778,0.746938,0.228678,-1.92566,0.972136,-1.5474,0.393408,-1.69552,-1.04296,0.745007,252,39,252,39,338,55,240,127,0.487223,-0.553107,0,-1.5,1.83186e-38,0,0,0,-1.92566,0.972136,0,0,0,0,-1.5474,0.393408,9996,0,0,0,0,6788,0,0,0,0,2.5,-1.94427
7617,1.4668,0.102539,-1.28027,-0.00357399,0.00482827,-0.049143,-0.20012,0.0244009,-1.69635,-5.00653,0.740369,0.20055,-1.94905,0.978082,-1.56586,0.398062,-1.69635,-1.04296,0.745007,252,39,252,39,339,55,238,128,0.487536,-0.552704,0,-1.5,1.83186e-38,0,0,0,-1.94905,0.978082,0,0,0,0,-1.56586,0.398062,10302,0,0,0,0,6788,0,0,0,0,2.5,-1.95616
7633,1.4668,0.102539,-2.98242,-0.00472852,0.00464777,-0.0486504,-0.200132,0.0242366,-1.69709,-5.00653,0.740369,0.20055,-1.97431,0.984501,-1.58541,0.40299,-1.69709,-1.04296,0.745007,252,39,252,39,339,55,238,128,0.487816,-0.552342,0,-1.5,1.83186e-38,0,0,0,-1.97431,0.984501,0,0,0,0,-1.58541,0.40299,10302,0,0,0,0,6788,0,0,0,0,2.5,-1.969
7648,1.4668,0.102539,-1.42676,-0.00444047,0.0036362,-0.0491898,-0.200142,0.0240664,-1.69786,-5.00653,0.740369,0.20055,-1.99826,0.990589,-1.60361,0.407576,-1.69709,-1.04296,0.745007,252,39,252,39,339,55,238,128,0.487816,-0.552342,0,-1.5,1.83186e-38,0,0,0,-1.99826,0.990589,0,0,0,0,-1.60361,0.407576,10302,0,0,0,0,6788,0,0,0,0,2.5,-1.98118
7663,1.4668,0.102539,2.69629,-0.00402769,0.00362334,-0.0486883,-0.200143,0.0238853,-1.69861,-5.0824,0.749668,0.233244,-2.02249,0.996747,-1.62168,0.412128,-1.69786,-1.04296,0.745007,252,39,252,39,339,55,240,127,0.488108,-0.551965,0,-1.5,1.83186e-38,0,0,0,-2.02249,0.996747,0,0,0,0,-1.62168,0.412128,9999,0,0,0,0,6788,0,0,0,0,2.5,-1.99349
7679,1.4668,0.102539,-6.9043,-0.00516048,0.00393873,-0.0482782,-0.200161,0.0237059,-1.69939,-5.0824,0.749668,0.233244,-2.04863,1.00339,-1.64083,0.416948,-1.69861,-1.04296,0.745007,252,39,252,39,339,55,240,127,0.488391,-0.551599,0,-1.5,1.83186e-38,0,0,0,-2.04863,1.00339,0,0,0,0,-1.64083,0.416948,9999,0,0,0,0,6788,0,0,0,0,2.5,-2.00678
7693,1.4668,0.102539,-6.9043,-0.00516048,0.00393873,-0.0482782,-0.200161,0.0237059,-1.69939,-5.02488,0.744937,0.196705,-2.07175,1.00926,-1.65747,0.421131,-1.69939,-1.04296,0.745007,251,41,251,41,339,55,238,128,0.488684,-0.551219,0,-1.5,1.83186e-38,0,0,0,-2.07175,1.00926,0,0,0,0,-1.65747,0.421131,10100,0,0,0,0,6788,0,0,0,0,2.5,-2.01853
7705,1.4668,0.102539,5.21094,-0.00319863,0.00386195,-0.0494636,-0.200165,0.0235058,-1.70021,-5.02488,0.744937,0.196705,-2.09174,1.01434,-1.67164,0.424692,-1.70021,-1.04296,0.745007,251,41,251,41,339,55,238,128,0.488995,-0.550815,0,-1.5,1.83186e-38,0,0,0,-2.09174,1.01434,0,0,0,0,-1.67164,0.424692,10100,0,0,0,0,6788,0,0,0,0,2.5,-2.02869
7720,1.4668,0.102539,4.2832,-0.00388006,0.00314507,-0.0488037,-0.200165,0.0233233,-1.70095,-5.08442,0.749818,0.229702,-2.11698,1.02076,-1.68926,0.429112,-1.70095,-1.04296,0.745007,252,39,252,39,339,55,240,127,0.489273,-0.550454,0,-1.5,1.83186e-38,0,0,0,-2.11698,1.02076,0,0,0,0,-1.68926,0.429112,9999,0,0,0,0,6788,0,0,0,0,2.5,-2.04151
7735,1.4668,0.102539,-4.43945,-0.00455447,0.00556316,-0.0481165,-0.200172,0.0231654,-1.70173,-5.08442,0.749818,0.229702,-2.14249,1.02724,-1.70675,0.4335,-1.70173,-1.04296,0.745007,252,39,252,39,339,55,240,127,0.489564,-0.550074,0,-1.5,1.83186e-38,0,0,0,-2.14249,1.02724,0,0,0,0,-1.70675,0.4335,9999,0,0,0,0,6788,0,0,0,0,2.5,-2.05447
7751,1.4668,0.102539,3.08203,-0.00380934,0.00443329,-0.0488155,-0.200172,0.0230048,-1.70248,-5.01033,0.740633,0.193835,-2.16999,1.03422,-1.72528,0.438146,-1.70248,-1.04296,0.745007,252,39,252,39,339,55,238,128,0.489847,-0.549706,0,-1.5,1.83186e-38,0,0,0,-2.16999,1.03422,0,0,0,0,-1.72528,0.438146,10302,0,0,0,0,6788,0,0,0,0,2.5,-2.06844
7766,1.4668,0.102539,0.314453,-0.00433338,0.00490026,-0.0489744,-0.200168,0.0228357,-1.70332,-5.01033,0.740633,0.193835,-2.19604,1.04083,-1.74253,0.44247,-1.70332,-1.04296,0.745007,252,39,252,39,339,55,238,128,0.490161,-0.549295,0,-1.5,1.83186e-38,0,0,0,-2.19604,1.04083,0,0,0,0,-1.74253,0.44247,10302,0,0,0,0,6788,0,0,0,0,2.5,-2.08167
7781,1.4668,0.102539,-2.43457,-0.00411336,0.00392543,-0.0478976,-0.200169,0.0226826,-1.70407,-5.01033,0.740633,0.193835,-2.22234,1.04751,-1.75966,0.446764,-1.70332,-1.04296,0.745007,252,39,252,39,339,55,238,128,0.490161,-0.549295,0,-1.5,1.83186e-38,0,0,0,-2.22234,1.04751,0,0,0,0,-1.75966,0.446764,10302,0,0,0,0,6788,0,0,0,0,2.5,-2.09502
7796,1.4668,0.102539,-2.40332,-0.0043299,0.00449274,-0.048241,-0.200178,0.0225177,-1.70481,-5.04097,0.75112,0.201851,-2.2489,1.05425,-1.77667,0.451028,-1.70407,-1.04296,0.745007,252,39,252,39,338,55,238,128,0.490441,-0.548929,0,-1.5,1.83186e-38,0,0,0,-2.2489,1.05425,0,0,0,0,-1.77667,0.451028,10200,0,0,0,0,6788,0,0,0,0,2.5,-2.10851
7812,1.4668,0.102539,-1.83691,-0.00494554,0.00459278,-0.0481785,-0.200183,0.0223503,-1.70555,-5.04097,0.75112,0.201851,-2.27751,1.06152,-1.79469,0.455542,-1.70481,-1.04296,0.745007,252,39,252,39,338,55,238,128,0.490719,-0.548565,0,-1.5,1.83186e-38,0,0,0,-2.27751,1.06152,0,0,0,0,-1.79469,0.455542,10200,0,0,0,0,6788,0,0,0,0,2.5,-2.12303
7827,1.4668,0.102539,0.871094,-0.00347601,0.00418916,-0.0485198,-0.200189,0.0221742,-1.70637,-5.04338,0.739115,0.203292,-2.30459,1.06839,-1.81146,0.459741,-1.70555,-1.04296,0.745007,252,39,252,39,339,55,240,127,0.490997,-0.548199,0,-1.5,1.83186e-38,0,0,0,-2.30459,1.06839,0,0,0,0,-1.81146,0.459741,10197,0,0,0,0,6788,0,0,0,0,2.5,-2.13678
7841,1.4668,0.102539,0.871094,-0.00347601,0.00418916,-0.0485198,-0.200189,0.0221742,-1.70637,-5.04338,0.739115,0.203292,-2.33009,1.07486,-1.82702,0.463633,-1.70637,-1.04296,0.745007,252,39,252,39,339,55,240,127,0.491303,-0.547797,0,-1.5,1.83186e-38,0,0,0,-2.33009,1.07486,0,0,0,0,-1.82702,0.463633,10197,0,0,0,0,6788,0,0,0,0,2.5,-2.14972
7857,1.4668,0.102539,5.32129,-0.00434265,0.00470316,-0.0486544,-0.200189,0.022008,-1.70714,-5.09034,0.749334,0.218062,-2.3595,1.08232,-1.84467,0.468051,-1.70714,-1.04296,0.745007,251,41,251,41,339,55,240,127,0.49159,-0.54742,0,-1.5,1.83186e-38,0,0,0,-2.3595,1.08232,0,0,0,0,-1.84467,0.468051,9801,0,0,0,0,6788,0,0,0,0,2.5,-2.16465
7871,1.4668,0.102539,-3.83691,-0.00564536,0.0037545,-0.048191,-0.200219,0.0218467,-1.70788,-5.09034,0.749334,0.218062,-2.38547,1.08891,-1.86001,0.471887,-1.70788,-1.04296,0.745007,251,41,251,41,339,55,240,127,0.491867,-0.547055,0,-1.5,1.83186e-38,0,0,0,-2.38547,1.08891,0,0,0,0,-1.86001,0.471887,9801,0,0,0,0,6788,0,0,0,0,2.5,-2.17782
7886,1.4668,0.102539,2.7002,-0.00410271,0.00401156,-0.0484256,-0.200235,0.0216726,-1.70867,-5.07495,0.745008,0.217193,-2.41352,1.09603,-1.87634,0.475969,-1.70867,-1.04296,0.745007,252,39,252,39,339,55,240,127,0.492158,-0.546669,0,-1.5,1.83186e-38,0,0,0,-2.41352,1.09603,0,0,0,0,-1.87634,0.475969,9999,0,0,0,0,6788,0,0,0,0,2.5,-2.19206
7901,1.4668,0.102539,1.70215,-0.00524477,0.00345561,-0.0481602,-0.20025,0.0214948,-1.70941,-5.07495,0.745008,0.217193,-2.44183,1.10321,-1.89257,0.480019,-1.70941,-1.04296,0.745007,252,39,252,39,339,55,240,127,0.492436,-0.546302,0,-1.5,1.83186e-38,0,0,0,-2.44183,1.10321,0,0,0,0,-1.89257,0.480019,9999,0,0,0,0,6788,0,0,0,0,2.5,-2.20641
7917,1.4668,0.102539,-1.83594,-0.00263708,0.00414182,-0.0489017,-0.200245,0.021316,-1.71024,-5.07495,0.745008,0.217193,-2.47037,1.11045,-1.90868,0.48404,-1.71024,-1.04296,0.745007,252,39,252,39,339,55,240,127,0.492743,-0.545894,0,-1.5,1.83186e-38,0,0,0,-2.47037,1.11045,0,0,0,0,-1.90868,0.48404,9999,0,0,0,0,6788,0,0,0,0,2.5,-2.22089
7932,1.4668,0.102539,1.52539,-0.00278621,0.00448914,-0.0491758,-0.200235,0.0211418,-1.71102,-5.04267,0.748796,0.198439,-2.50108,1.11823,-1.92574,0.488296,-1.71102,-1.04296,0.745007,252,39,252,39,339,55,238,128,0.493033,-0.54551,0,-1.5,1.83186e-38,0,0,0,-2.50108,1.11823,0,0,0,0,-1.92574,0.488296,10201,0,0,0,0,6788,0,0,0,0,2.5,-2.23647
7947,1.4668,0.102539,-5.81543,-0.00375399,0.00387745,-0.0482284,-0.200242,0.0209726,-1.71176,-5.04267,0.748796,0.198439,-2.53012,1.1256,-1.94163,0.492256,-1.71102,-1.04296,0.745007,252,39,252,39,339,55,238,128,0.493033,-0.54551,0,-1.5,1.83186e-38,0,0,0,-2.53012,1.1256,0,0,0,0,-1.94163,0.492256,10201,0,0,0,0,6788,0,0,0,0,2.5,-2.2512
7962,1.4668,0.102539,3.4541,-0.00442872,0.00466959,-0.0499788,-0.200245,0.0208136,-1.71254,-5.07688,0.745124,0.213791,-2.5594,1.13302,-1.9574,0.496184,-1.71176,-1.04296,0.745007,252,39,252,39,339,55,240,127,0.493306,-0.545147,0,-1.5,1.83186e-38,0,0,0,-2.5594,1.13302,0,0,0,0,-1.9574,0.496184,9999,0,0,0,0,6788,0,0,0,0,2.5,-2.26604
7977,1.4668,0.102539,3.61816,-0.00440308,0.00373352,-0.0495108,-0.200246,0.0206285,-1.71337,-5.07688,0.745124,0.213791,-2.58891,1.1405,-1.97307,0.500086,-1.71254,-1.04296,0.745007,252,39,252,39,339,55,240,127,0.493598,-0.544759,0,-1.5,1.83186e-38,0,0,0,-2.58891,1.1405,0,0,0,0,-1.97307,0.500086,9999,0,0,0,0,6788,0,0,0,0,2.5,-2.281
7992,1.4668,0.102539,5.26953,-0.00233433,0.0043705,-0.0481422,-0.200234,0.0204675,-1.71413,-5.09183,0.750297,0.216671,-2.61865,1.14804,-1.98863,0.50396,-1.71337,-1.04296,0.745007,252,39,252,39,339,55,240,127,0.493904,-0.54435,0,-1.5,1.83186e-38,0,0,0,-2.61865,1.14804,0,0,0,0,-1.98863,0.50396,9999,0,0,0,0,6788,0,0,0,0,2.5,-2.29608
8008,1.4668,0.102539,5.26953,-0.00233433,0.0043705,-0.0481422,-0.200234,0.0204675,-1.71413,-5.09183,0.750297,0.216671,-2.65064,1.15614,-2.00511,0.508061,-1.71413,-1.04296,0.745007,252,39,252,39,339,55,240,127,0.494184,-0.543976,0,-1.5,1.83186e-38,0,0,0,-2.65064,1.15614,0,0,0,0,-2.00511,0.508061,9999,0,0,0,0,6788,0,0,0,0,2.5,-2.31229
8023,1.4668,0.102539,-6.76953,-0.00473463,0.00501581,-0.0494612,-0.200239,0.0203185,-1.71487,-5.09501,0.749624,0.209788,-2.68087,1.1638,-2.02045,0.511877,-1.71487,-1.04296,0.745007,251,41,251,41,339,55,240,127,0.494459,-0.543608,0,-1.5,1.83186e-38,0,0,0,-2.68087,1.1638,0,0,0,0,-2.02045,0.511877,9801,0,0,0,0,6788,0,0,0,0,2.5,-2.3276
8038,1.4668,0.102539,0.141602,-0.00408797,0.00350728,-0.0484134,-0.20024,0.0201512,-1.71562,-5.09501,0.749624,0.209788,-2.71132,1.17151,-2.03568,0.515666,-1.71562,-1.04296,0.745007,251,41,251,41,339,55,240,127,0.494736,-0.543236,0,-1.5,1.83186e-38,0,0,0,-2.71132,1.17151,0,0,0,0,-2.03568,0.515666,9801,0,0,0,0,6788,0,0,0,0,2.5,-2.34303
8054,1.4668,0.102539,-7.15625,-0.00430033,0.00385661,-0.048019,-0.20024,0.0199771,-1.71642,-5.07876,0.747489,0.204917,-2.74405,1.17981,-2.05182,0.519677,-1.71642,-1.04296,0.745007,252,39,252,39,339,55,240,127,0.495028,-0.542844,0,-1.5,1.83186e-38,0,0,0,-2.74405,1.17981,0,0,0,0,-2.05182,0.519677,10098,0,0,0,0,6788,0,0,0,0,2.5,-2.35961
8068,1.4668,0.102539,5.16992,-0.0043512,0.00314857,-0.0472467,-0.200242,0.0197977,-1.71717,-5.07876,0.747489,0.204917,-2.7729,1.18711,-2.06583,0.523159,-1.71717,-1.04296,0.745007,252,39,252,39,339,55,240,127,0.495307,-0.54247,0,-1.5,1.83186e-38,0,0,0,-2.7729,1.18711,0,0,0,0,-2.06583,0.523159,10098,0,0,0,0,6788,0,0,0,0,2.5,-2.37422
8083,1.4668,0.102539,3.79297,-0.00439392,0.00314383,-0.0476378,-0.200237,0.0196202,-1.71793,-5.03586,0.745605,0.177115,-2.80403,1.19499,-2.08076,0.526862,-1.71793,-1.04296,0.745007,251,41,251,41,339,55,238,128,0.495584,-0.542096,0,-1.5,1.83186e-38,0,0,0,-2.80403,1.19499,0,0,0,0,-2.08076,0.526862,10100,0,0,0,0,6788,0,0,0,0,2.5,-2.38999
8098,1.4668,0.102539,2.81836,-0.00437466,0.00457478,-0.049095,-0.200195,0.0192871,-1.71875,-5.03586,0.745605,0.177115,-2.83539,1.20293,-2.09558,0.53053,-1.71875,-1.04296,0.745007,251,41,251,41,339,55,238,128,0.495887,-0.541688,0,-1.5,1.83186e-38,0,0,0,-2.83539,1.20293,0,0,0,0,-2.09558,0.53053,10100,0,0,0,0,6788,0,0,0,0,2.5,-2.40587
8114,1.4668,0.102539,-3.05957,-0.00361909,0.0044523,-0.049019,-0.200242,0.0192979,-1.71946,-5.03586,0.745605,0.177115,-2.86908,1.21146,-2.11127,0.534398,-1.71946,-1.04296,0.745007,251,41,251,41,339,55,238,128,0.496148,-0.541335,0,-1.5,1.83186e-38,0,0,0,-2.86908,1.21146,0,0,0,0,-2.11127,0.534398,10100,0,0,0,0,6788,0,0,0,0,2.5,-2.42292
8129,1.4668,0.102539,-3.41797,-0.00382615,0.00427395,-0.0490747,-0.200235,0.0191149,-1.72028,-5.03475,0.743897,0.183539,-2.90088,1.21951,-2.12588,0.538018,-1.71946,-1.04296,0.745007,252,39,252,39,339,55,238,128,0.496148,-0.541335,0,-1.5,1.83186e-38,0,0,0,-2.90088,1.21951,0,0,0,0,-2.12588,0.538018,10201,0,0,0,0,6788,0,0,0,0,2.5,-2.43902
8144,1.4668,0.102539,-3.1123,-0.00449352,0.00422416,-0.0490425,-0.200243,0.018952,-1.72104,-5.03475,0.743897,0.183539,-2.93291,1.22762,-2.1404,0.541612,-1.72028,-1.04296,0.745007,252,39,252,39,339,55,238,128,0.496449,-0.540927,0,-1.5,1.83186e-38,0,0,0,-2.93291,1.22762,0,0,0,0,-2.1404,0.541612,10201,0,0,0,0,6788,0,0,0,0,2.5,-2.45523
8160,1.4668,0.102539,0.928711,-0.0027618,0.00384639,-0.0488671,-0.200219,0.0187858,-1.7218,-5.04911,0.749066,0.187063,-2.96731,1.23632,-2.15577,0.545417,-1.72104,-1.04296,0.745007,252,39,252,39,339,55,238,128,0.496726,-0.540552,0,-1.5,1.83186e-38,0,0,0,-2.96731,1.23632,0,0,0,0,-2.15577,0.545417,10201,0,0,0,0,6788,0,0,0,0,2.5,-2.47264
8175,1.4668,0.102539,0.928711,-0.0027618,0.00384639,-0.0488671,-0.200219,0.0187858,-1.7218,-5.04911,0.749066,0.187063,-2.99978,1.24454,-2.17007,0.548956,-1.7218,-1.04296,0.745007,252,39,252,39,339,55,238,128,0.497006,-0.540171,0,-1.5,1.83186e-38,0,0,0,-2.99978,1.24454,0,0,0,0,-2.17007,0.548956,10201,0,0,0,0,6788,0,0,0,0,2.5,-2.48907
8190,1.4668,0.102539,5.92383,-0.00344451,0.00472669,-0.04933,-0.200217,0.0186385,-1.72257,-5.08333,0.745388,0.202464,-3.03247,1.2528,-2.18428,0.552471,-1.72257,-1.04296,0.745007,252,39,252,39,339,55,240,127,0.497287,-0.539789,0,-1.5,1.83186e-38,0,0,0,-3.03247,1.2528,0,0,0,0,-2.18428,0.552471,9999,0,0,0,0,6788,0,0,0,0,2.5,-2.5
8206,1.4668,0.102539,-2.42383,-0.00447914,0.00349558,-0.0487962,-0.200221,0.0184611,-1.7234,-5.08333,0.745388,0.202464,-3.06537,1.26112,-2.19839,0.555962,-1.7234,-1.04296,0.745007,252,39,252,39,339,55,240,127,0.497589,-0.539378,0,-1.5,1.83186e-38,0,0,0,-3.06537,1.26112,0,0,0,0,-2.19839,0.555962,9999,0,0,0,0,6788,0,0,0,0,2.5,-2.5
8221,1.4668,0.102539,-6.69922,-0.00548133,0.00367933,-0.0484877,-0.20023,0.0183006,-1.72415,-5.05332,0.748472,0.17885,-3.09849,1.2695,-2.2124,0.559427,-1.72415,-1.04296,0.745007,251,41,251,41,339,55,238,128,0.497861,-0.539006,0,-1.5,1.83186e-38,0,0,0,-3.09849,1.2695,0,0,0,0,-2.2124,0.559427,9999,0,0,0,0,6788,0,0,0,0,2.5,-2.5
8236,1.4668,0.102539,5.94336,-0.00508867,0.00491908,-0.0494328,-0.200227,0.0181428,-1.72491,-5.05332,0.748472,0.17885,-3.13404,1.27849,-2.22724,0.563096,-1.72491,-1.04296,0.745007,251,41,251,41,339,55,238,128,0.498139,-0.538626,0,-1.5,1.83186e-38,0,0,0,-3.13404,1.27849,0,0,0,0,-2.22724,0.563096,9999,0,0,0,0,6788,0,0,0,0,2.5,-2.5
8251,1.4668,0.102539,5.80762,-0.00278333,0.00460312,-0.048728,-0.200217,0.0179788,-1.72568,-5.05417,0.748521,0.177317,-3.16758,1.28697,-2.24106,0.566509,-1.72568,-1.04296,0.745007,251,41,251,41,339,55,238,128,0.49842,-0.538243,0,-1.5,1.83186e-38,0,0,0,-3.16758,1.28697,0,0,0,0,-2.24106,0.566509,9999,0,0,0,0,6788,0,0,0,0,2.5,-2.5
8266,1.4668,0.102539,-6.32715,-0.00455417,0.00311938,-0.0485234,-0.200218,0.017799,-1.72646,-5.05417,0.748521,0.177317,-3.20132,1.2955,-2.25477,0.569897,-1.72646,-1.04296,0.745007,251,41,251,41,339,55,238,128,0.498703,-0.537854,0,-1.5,1.83186e-38,0,0,0,-3.20132,1.2955,0,0,0,0,-2.25477,0.569897,9999,0,0,0,0,6788,0,0,0,0,2.5,-2.5
8281,1.4668,0.102539,-1.99316,-0.0040444,0.00446925,-0.0491203,-0.200212,0.0176354,-1.72726,-5.05417,0.748521,0.177317,-3.23528,1.30408,-2.2684,0.573259,-1.72726,-1.04296,0.745007,251,41,251,41,339,55,238,128,0.498992,-0.537456,0,-1.5,1.83186e-38,0,0,0,-3.23528,1.30408,0,0,0,0,-2.2684,0.573259,9999,0,0,0,0,6788,0,0,0,0,2.5,-2.5
8296,1.4668,0.102539,-0.400391,-0.00454557,0.00407853,-0.0487527,-0.200216,0.017475,-1.72802,-5.05898,0.740326,0.181658,-3.26943,1.31271,-2.28193,0.576598,-1.72726,-1.04296,0.745007,252,39,252,39,339,55,240,128,0.498992,-0.537456,0,-1.5,1.83186e-38,0,0,0,-3.26943,1.31271,0,0,0,0,-2.28193,0.576598,10098,0,0,0,0,6788,0,0,0,0,2.5,-2.5
8311,1.4668,0.102539,3.46582,-0.00416822,0.00345604,-0.0501572,-0.200209,0.017309,-1.72881,-5.05898,0.740326,0.181658,-3.30379,1.32139,-2.29537,0.579913,-1.72802,-1.04296,0.745007,252,39,252,39,339,55,240,128,0.49927,-0.537074,0,-1.5,1.83186e-38,0,0,0,-3.30379,1.32139,0,0,0,0,-2.29537,0.579913,10098,0,0,0,0,6788,0,0,0,0,2.5,-2.5
8326,1.4668,0.102539,-6.22754,-0.00275581,0.00349898,-0.0496243,-0.200192,0.0171543,-1.72956,-5.04207,0.745842,0.16602,-3.33835,1.33012,-2.30871,0.583203,-1.72881,-1.04296,0.745007,251,41,251,41,339,55,238,128,0.499554,-0.536683,0,-1.5,1.83186e-38,0,0,0,-3.33835,1.33012,0,0,0,0,-2.30871,0.583203,10100,0,0,0,0,6788,0,0,0,0,2.5,-2.5
8341,1.4668,0.102539,-6.22754,-0.00275581,0.00349898,-0.0496243,-0.200192,0.0171543,-1.72956,-5.04207,0.745842,0.16602,-3.37311,1.3389,-2.32197,0.586471,-1.72956,-1.04296,0.745007,251,41,251,41,339,55,238,128,0.499828,-0.536305,0,-1.5,1.83186e-38,0,0,0,-3.37311,1.3389,0,0,0,0,-2.32197,0.586471,10100,0,0,0,0,6788,0,0,0,0,2.5,-2.5
8357,1.4668,0.102539,0.838867,-0.00328413,0.00403816,-0.0482095,-0.200185,0.0169837,-1.73038,-5.09962,0.746504,0.195891,-3.40806,1.34773,-2.33513,0.589716,-1.73038,-1.04296,0.745007,252,39,252,39,339,56,240,127,0.500126,-0.535894,0,-1.5,1.83186e-38,0,0,0,-3.40806,1.34773,0,0,0,0,-2.33513,0.589716,9999,0,0,0,0,6788,0,0,0,0,2.5,-2.5
8372,1.4668,0.102539,-4.98145,-0.00435956,0.00320881,-0.0495911,-0.200193,0.0168158,-1.73116,-5.09962,0.746504,0.195891,-3.44557,1.3572,-2.34907,0.593151,-1.73116,-1.04296,0.745007,252,39,252,39,339,56,240,127,0.500406,-0.535505,0,-1.5,1.83186e-38,0,0,0,-3.44557,1.3572,0,0,0,0,-2.34907,0.593151,9999,0,0,0,0,6788,0,0,0,0,2.5,-2.5
8387,1.4668,0.102539,6.57422,-0.00451203,0.00276028,-0.0487922,-0.20019,0.0166526,-1.73192,-5.11942,0.755192,0.196691,-3.48093,1.36612,-2.36204,0.596346,-1.73192,-1.04296,0.745007,251,41,251,41,339,55,240,127,0.500681,-0.535124,0,-1.5,1.83186e-38,0,0,0,-3.48093,1.36612,0,0,0,0,-2.36204,0.596346,9801,0,0,0,0,6788,0,0,0,0,2.5,-2.5
8402,1.4668,0.102539,3.81543,-0.00326134,0.00473696,-0.0490116,-0.200184,0.0165081,-1.7327,-5.11942,0.755192,0.196691,-3.51648,1.3751,-2.37492,0.599519,-1.7327,-1.04296,0.745007,251,41,251,41,339,55,240,127,0.500961,-0.534735,0,-1.5,1.83186e-38,0,0,0,-3.51648,1.3751,0,0,0,0,-2.37492,0.599519,9801,0,0,0,0,6788,0,0,0,0,2.5,-2.5
8418,1.4668,0.102539,3.6875,-0.00412987,0.00427552,-0.0484824,-0.200195,0.0161133,-1.7334,-5.02819,0.741465,0.162118,-3.55462,1.38473,-2.38857,0.602863,-1.7334,-1.04296,0.745007,252,39,252,39,339,55,238,128,0.501213,-0.534385,0,-1.5,1.83186e-38,0,0,0,-3.55462,1.38473,0,0,0,0,-2.38857,0.602863,10302,0,0,0,0,6788,0,0,0,0,2.5,-2.5
8432,1.4668,0.102539,4.3877,-0.00372725,0.00322801,-0.0487268,-0.200182,0.0161778,-1.73427,-5.02819,0.741465,0.162118,-3.58576,1.39258,-2.39959,0.605553,-1.73427,-1.04296,0.745007,252,39,252,39,339,55,238,128,0.501528,-0.533946,0,-1.5,1.83186e-38,0,0,0,-3.58576,1.39258,0,0,0,0,-2.39959,0.605553,10302,0,0,0,0,6788,0,0,0,0,2.5,-2.5
8446,1.4668,0.102539,-6.85449,-0.00393139,0.00423764,-0.0486144,-0.200186,0.0160311,-1.73502,-5.02819,0.741465,0.162118,-3.62187,1.4017,-2.41221,0.608661,-1.73502,-1.04296,0.745007,252,39,252,39,339,55,238,128,0.501796,-0.533571,0,-1.5,1.83186e-38,0,0,0,-3.62187,1.4017,0,0,0,0,-2.41221,0.608661,10302,0,0,0,0,6788,0,0,0,0,2.5,-2.5
8461,1.4668,0.102539,0.948242,-0.00421713,0.00420508,-0.0485025,-0.200186,0.0158798,-1.73576,-5.04285,0.746554,0.164824,-3.65817,1.41086,-2.42475,0.611749,-1.73502,-1.04296,0.745007,252,39,252,39,339,55,238,128,0.501796,-0.533571,0,-1.5,1.83186e-38,0,0,0,-3.65817,1.41086,0,0,0,0,-2.42475,0.611749,10302,0,0,0,0,6788,0,0,0,0,2.5,-2.5
8476,1.4668,0.102539,5.78711,-0.0038716,0.00393914,-0.0487397,-0.200184,0.0157306,-1.73653,-5.04285,0.746554,0.164824,-3.69466,1.42006,-2.43721,0.614815,-1.73576,-1.04296,0.745007,252,39,252,39,339,55,238,128,0.502062,-0.533198,0,-1.5,1.83186e-38,0,0,0,-3.69466,1.42006,0,0,0,0,-2.43721,0.614815,10302,0,0,0,0,6788,0,0,0,0,2.5,-2.5
8489,1.4668,0.102539,5.78711,-0.0038716,0.00393914,-0.0487397,-0.200184,0.0157306,-1.73653,-5.04387,0.744294,0.167243,-3.72643,1.42808,-2.44793,0.617455,-1.73653,-1.04296,0.745007,252,39,252,39,339,55,238,128,0.502338,-0.532812,0,-1.5,1.83186e-38,0,0,0,-3.72643,1.42808,0,0,0,0,-2.44793,0.617455,10201,0,0,0,0,6788,0,0,0,0,2.5,-2.5
8505,1.4668,0.102539,5.78711,-0.0038716,0.00393914,-0.0487397,-0.200184,0.0157306,-1.73653,-5.04387,0.744294,0.167243,-3.76327,1.43737,-2.46023,0.620483,-1.73653,-1.04296,0.745007,252,39,252,39,339,55,238,128,0.502338,-0.532812,0,-1.5,1.83186e-38,0,0,0,-3.76327,1.43737,0,0,0,0,-2.46023,0.620483,10201,0,0,0,0,6788,0,0,0,0,2.5,-2.5
8519,1.4668,0.102539,5.78711,-0.0038716,0.00393914,-0.0487397,-0.200184,0.0157306,-1.73653,-5.03025,0.74156,0.158402,-3.80029,1.4467,-2.47244,0.62349,-1.73653,-1.04296,0.745007,252,39,252,39,339,55,238,128,0.502338,-0.532812,0,-1.5,1.83186e-38,0,0,0,-3.80029,1.4467,0,0,0,0,-2.47244,0.62349,10302,0,0,0,0,6788,0,0,0,0,2.5,-2.5
8535,1.4668,0.102539,5.78711,-0.0038716,0.00393914,-0.0487397,-0.200184,0.0157306,-1.73653,-5.03025,0.74156,0.158402,-3.83998,1.45671,-2.48538,0.626676,-1.73653,-1.04296,0.745007,252,39,252,39,339,55,238,128,0.502338,-0.532812,0,-1.5,1.83186e-38,0,0,0,-3.83998,1.45671,0,0,0,0,-2.48538,0.626676,10302,0,0,0,0,6788,0,0,0,0,2.5,-2.5
8550,1.4668,0.102539,-5.84473,-0.00507051,0.00450391,-0.0496145,-0.200213,0.0151074,-1.73962,-5.03025,0.74156,0.158402,-3.87488,1.46551,-2.49662,0.629444,-1.73962,-1.04296,0.745007,252,39,252,39,339,55,238,128,0.503442,-0.53126,0,-1.5,1.83186e-38,0,0,0,-3.87488,1.46551,0,0,0,0,-2.49662,0.629444,10302,0,0,0,0,6788,0,0,0,0,2.5,-2.5
8565,1.4668,0.102539,7.24707,-0.00355365,0.0035632,-0.048723,-0.200197,0.0149369,-1.74043,-5.04404,0.746613,0.16268,-3.91495,1.47561,-2.50938,0.632584,-1.74043,-1.04296,0.745007,252,39,252,39,339,55,238,128,0.503731,-0.530851,0,-1.5,1.83186e-38,0,0,0,-3.91495,1.47561,0,0,0,0,-2.50938,0.632584,10302,0,0,0,0,6788,0,0,0,0,2.5,-2.5
8581,1.4668,0.102539,6.66602,-0.00496755,0.00394731,-0.0489203,-0.200205,0.014786,-1.74118,-5.04404,0.746613,0.16268,-3.95523,1.48577,-2.52204,0.635701,-1.74118,-1.04296,0.745007,252,39,252,39,339,55,238,128,0.503999,-0.530472,0,-1.5,1.83186e-38,0,0,0,-3.95523,1.48577,0,0,0,0,-2.52204,0.635701,10302,0,0,0,0,6788,0,0,0,0,2.5,-2.5
8595,1.4668,0.102539,-6.74219,-0.00328067,0.00458154,-0.0490082,-0.200189,0.014638,-1.74194,-5.018,0.738883,0.146379,-3.99064,1.49469,-2.53305,0.638408,-1.74194,-1.04296,0.745007,252,39,252,39,339,55,238,128,0.504267,-0.530093,0,-1.5,1.83186e-38,0,0,0,-3.99064,1.49469,0,0,0,0,-2.53305,0.638408,10403,0,0,0,0,6788,0,0,0,0,2.5,-2.5
8611,1.4668,0.102539,-4.32617,-0.00519777,0.00341401,-0.0493728,-0.200192,0.0144752,-1.74271,-5.018,0.738883,0.146379,-4.0313,1.50494,-2.54554,0.641482,-1.74194,-1.04296,0.745007,252,39,252,39,339,55,238,128,0.504267,-0.530093,0,-1.5,1.83186e-38,0,0,0,-4.0313,1.50494,0,0,0,0,-2.54554,0.641482,10403,0,0,0,0,6788,0,0,0,0,2.5,-2.5
8626,1.4668,0.102539,0.529297,-0.00439538,0.00356487,-0.0482062,-0.20018,0.0143041,-1.7435,-5.03375,0.738462,0.151212,-4.06959,1.51459,-2.55716,0.644342,-1.74271,-1.04296,0.745007,251,41,251,41,339,55,238,128,0.504542,-0.529703,0,-1.5,1.83186e-38,0,0,0,-4.06959,1.51459,0,0,0,0,-2.55716,0.644342,9999,0,0,0,0,6788,0,0,0,0,2.5,-2.5
8641,1.4668,0.102539,0.529297,-0.00439538,0.00356487,-0.0482062,-0.20018,0.0143041,-1.7435,-5.03375,0.738462,0.151212,-4.10549,1.52363,-2.56794,0.646992,-1.7435,-1.04296,0.745007,251,41,251,41,339,55,238,128,0.504824,-0.529302,0,-1.5,1.83186e-38,0,0,0,-4.10549,1.52363,0,0,0,0,-2.56794,0.646992,9999,0,0,0,0,6788,0,0,0,0,2.5,-2.5
8656,1.4668,0.102539,-7.3623,-0.00425345,0.00441506,-0.0487579,-0.200172,0.0141501,-1.7443,-5.03403,0.741724,0.151581,-4.1467,1.53401,-2.58018,0.650001,-1.7443,-1.04296,0.745007,252,39,252,39,339,55,238,128,0.505106,-0.5289,0,-1.5,1.83186e-38,0,0,0,-4.1467,1.53401,0,0,0,0,-2.58018,0.650001,10302,0,0,0,0,6788,0,0,0,0,2.5,-2.5
8671,1.4668,0.102539,-7.3623,-0.00425345,0.00441506,-0.0487579,-0.200172,0.0141501,-1.7443,-5.03403,0.741724,0.151581,-4.18552,1.54379,-2.59156,0.652801,-1.7443,-1.04296,0.745007,252,39,252,39,339,55,238,128,0.505106,-0.5289,0,-1.5,1.83186e-38,0,0,0,-4.18552,1.54379,0,0,0,0,-2.59156,0.652801,10302,0,0,0,0,6788,0,0,0,0,2.5,-2.5
8687,1.4668,0.102539,-7.3623,-0.00425345,0.00441506,-0.0487579,-0.200172,0.0141501,-1.7443,-5.08533,0.745132,0.163398,-4.2245,1.55361,-2.60287,0.655582,-1.7443,-1.04296,0.745007,251,41,251,41,339,55,240,128,0.505106,-0.5289,0,-1.5,1.83186e-38,0,0,0,-4.2245,1.55361,0,0,0,0,-2.60287,0.655582,9900,0,0,0,0,6788,0,0,0,0,2.5,-2.5
8702,1.4668,0.102539,-7.3623,-0.00425345,0.00441506,-0.0487579,-0.200172,0.0141501,-1.7443,-5.08533,0.745132,0.163398,-4.26627,1.56413,-2.61486,0.658528,-1.7443,-1.04296,0.745007,251,41,251,41,339,55,240,128,0.505106,-0.5289,0,-1.5,1.83186e-38,0,0,0,-4.26627,1.56413,0,0,0,0,-2.61486,0.658528,9900,0,0,0,0,6788,0,0,0,0,2.5,-2.5
