timestamp,A_x,A_y,A_z,P,Q,R,Phi,Theta,Psi,poseX,poseY,poseZ,state_X,state_Y,state_Z,state_VzB,state_Bx,state_By,state_Bz,p1_x,p1_y,p2_x,p2_y,p3_x,p3_y,p4_x,p4_y,roll,pitch,yaw,alt,targetHeading,highLevelState,lowLevelState,gateNumber,filtered_x,filtered_y,x_OT,y_OT,vx_OT,vy_OT,filtered_vx,filtered_vygateArearansac_corr_x,ransac_corr_y,ransac_corr_vx,ransac_corr_vy,detectionTimeStamppTermX,dTermX,pTermY,dTermY,vxcmd,vycmd
6000,0,0,0,0,0,0,0,0,0,0,0,0,0,0,0,0,0,0,0,0,0,0,0,0,0,0,0,0,-0.610776,0.00469354,-1.5,1.14223e-37,0,0,1,0,0,0,0,0,0,0,0,1.9603e-19,0,0,0,0,0,0,0,0,0,2.5,0
6016,0,0,0,0,0,0,0,0,0,0,0,0,0,0,0,0,0,0,0,0,0,0,0,0,0,0,0,0,-0.610776,0.021897,-1.5,1.14223e-37,0,0,2,0,0,0,0,0,0,0,0,1.9603e-19,0,0,0,0,0,0,0,0,0,2.5,0
6030,0,0,0,0,0,0,0,0,0,0,0,0,0,0,0,0,0,0,0,0,0,0,0,0,0,0,0,0,-0.610776,0.0343569,-1.5,1.14223e-37,0,0,3,0,0,0,0,0,0,0,0,1.9603e-19,0,0,0,0,0,0,0,0,0,2.5,0
6045,0,0,0,0,0,0,0,0,0,0,0,0,0,0,0,0,0,0,0,0,0,0,0,0,0,0,0,0,-0.610776,0.0264032,-1.5,1.14223e-37,0,0,0,0,0,0,0,0,0,0,0,1.9603e-19,0,0,0,0,0,0,0,0,0,2.5,0
6060,0,0,0,0,0,0,0,0,0,0,0,0,0,0,0,0,0,0,0,0,0,0,0,0,0,0,0,0,-0.610776,0.0306755,-1.5,1.14223e-37,0,0,1,0,0,0,0,0,0,0,0,1.9603e-19,0,0,0,0,0,0,0,0,0,2.5,0
6075,0,0,0,0,0,0,0,0,0,0,0,0,0,0,0,0,0,0,0,0,0,0,0,0,0,0,0,0,-0.610776,0.041517,-1.5,1.14223e-37,0,0,2,0,0,0,0,0,0,0,0,1.9603e-19,0,0,0,0,0,0,0,0,0,2.5,0
6090,0,0,0,0,0,0,0,0,0,0,0,0,0,0,0,0,0,0,0,0,0,0,0,0,0,0,0,0,-0.610776,0.0554629,-1.5,1.14223e-37,0,0,3,0,0,0,0,0,0,0,0,1.9603e-19,0,0,0,0,0,0,0,0,0,2.5,0
6105,0,0,0,0,0,0,0,0,0,0,0,0,0,0,0,0,0,0,0,0,0,0,0,0,0,0,0,0,-0.610776,0.0474248,-1.5,1.14223e-37,0,0,0,0,0,0,0,0,0,0,0,1.9603e-19,0,0,0,0,0,0,0,0,0,2.5,0
6120,0,0,0,0,0,0,0,0,0,0,0,0,0,0,0,0,0,0,0,0,0,0,0,0,0,0,0,0,-0.610776,0.0497028,-1.5,1.14223e-37,0,0,1,0,0,0,0,0,0,0,0,1.9603e-19,0,0,0,0,0,0,0,0,0,2.5,0
6135,0,0,0,0,0,0,0,0,0,0,0,0,0,0,0,0,0,0,0,0,0,0,0,0,0,0,0,0,-0.610776,0.0635972,-1.5,1.14223e-37,0,0,2,0,0,0,0,0,0,0,0,1.9603e-19,0,0,0,0,0,0,0,0,0,2.5,0
6148,0,0,0,0,0,0,0,0,0,0,0,0,0,0,0,0,0,0,0,0,0,0,0,0,0,0,0,0,-0.610776,0.0711905,-1.5,1.14223e-37,0,0,3,0,0,0,0,0,0,0,0,1.9603e-19,0,0,0,0,0,0,0,0,0,2.5,0
6164,0,0,0,0,0,0,0,0,0,0,0,0,0,0,0,0,0,1,6,369098752,-534446081,369098752,-534446081,33554432,33554432,-1075088617,0,0,-0.610776,0.0646665,-1.5,1.14223e-37,0,0,0,0,0,0,0,0,0,0,0,0,0,0,0,0,6161,0,0,0,0,2.5,0
6177,0,0,0,0,0,0,0,0,0,0,0,0,0,0,0,0,0,1,6,369098752,-534446081,369098752,-534446081,33554432,33554432,-1075088617,0,0,-0.610776,0.0668928,-1.5,1.14223e-37,0,0,1,0,0,0,0,0,0,0,0,0,0,0,0,0,6161,0,0,0,0,2.5,0
6207,0,0,0,0,0,0,0,0,0,-4.97058,1.04635,0.29061,0,0,0,0,0,3.95364,0.029418,191,30,191,30,283,41,185,120,0,-0.610776,0.104186,-1.5,1.14223e-37,0,0,2,0,0,0,0,0,0,0,0,9702,0,0,0,0,6199,0,0,0,0,2.5,0
6264,0,0,0,0,0,0,0,0,0,-4.9484,1.05402,0.281894,0,0,0,0,0,5.9484,4.94596,190,30,190,30,282,40,184,121,0,-0.610776,0.183585,-1.5,1.14223e-37,0,0,3,0,0,0,0,0,0,0,0,9702,0,0,0,0,6256,0,0,0,0,2.5,0
6287,0,0,0,0,0,0,0,0,0,-4.99367,1.05754,0.302459,0,0,0,0,0,3.94245,0.00632858,191,30,191,30,281,40,185,120,0,-0.610776,0.164089,-1.5,1.14223e-37,0,0,0,0,0,0,0,0,0,0,0,9504,0,0,0,0,6282,0,0,0,0,2.5,0
6300,0,0,0,0,0,0,0,0,0,-4.99367,1.05754,0.302459,0,0,0,0,0,3.94245,0.00632858,191,30,191,30,281,40,185,120,0,-0.610776,0.166492,-1.5,1.14223e-37,0,0,1,0,0,0,0,0,0,0,0,9504,0,0,0,0,6282,0,0,0,0,2.5,0
6315,0,0,0,0,0,0,0,0,0,-4.99367,1.05754,0.302459,0,0,0,0,0,3.94245,0.00632858,191,30,191,30,281,40,185,120,0,-0.610776,0.179919,-1.5,1.14223e-37,0,0,2,0,0,0,0,0,0,0,0,9504,0,0,0,0,6282,0,0,0,0,2.5,0
6334,0,0,0,0,0,0,0,0,0,-4.9922,1.05059,0.293005,0,0,0,0,0,5.9922,4.9494,191,30,191,30,283,43,185,120,0.0589305,-0.610776,0.209764,-1.5,1.14223e-37,0,0,2,2.4586,-0.00577654,0,0,0,0,-27.4788,-0.224169,9702,2.98069,-0.00151733,-27.4788,-0.224169,6320,0,0,0,0,2.5,0.0115531
6352,0,0,0,0,0,0,0,0,0,-4.95312,1.03976,0.286717,0,0,0,0,0,5.95312,4.96023,191,30,191,30,282,40,185,120,-0.436332,0.261888,0.238038,-1.5,1.14223e-37,0,0,2,5.95336,4.96095,0,0,0,0,0.0341948,0.103343,9603,5.95312,4.96023,0.0341948,0.103343,6347,0,0,0,0,-1.90672,-2.5
6367,0,0,0,0,0,0,0,0,0,-4.95312,1.03976,0.286717,0,0,0,0,0,5.95312,4.96023,191,30,191,30,282,40,185,120,-0.436332,0.261888,0.2616,-1.5,1.14223e-37,0,0,2,5.95387,4.9625,0,0,0,0,0.0341948,0.103343,9603,5.95312,4.96023,0.0341948,0.103343,6347,0,0,0,0,-1.90774,-2.5
6385,0,0,0,0,0,0,0,0,0,-4.97373,1.04963,0.279881,0,0,0,0,0,5.97373,4.95036,191,30,191,30,283,44,184,121,-0.436332,0.261888,0.289874,-1.5,1.14223e-37,0,0,2,5.97476,4.95163,0,0,0,0,0.148106,0.0318131,9801,5.97373,4.9514,0.148106,0.0318131,6380,0,0,0,0,-1.94952,-2.5
6399,0,0,0,0,0,0,0,0,0,-4.97373,1.04963,0.279881,0,0,0,0,0,5.97373,4.95036,191,30,191,30,283,44,184,121,-0.436332,0.261888,0.311866,-1.5,1.14223e-37,0,0,2,5.97684,4.95207,0,0,0,0,0.148106,0.0318131,9801,5.97373,4.9514,0.148106,0.0318131,6380,0,0,0,0,-1.95367,-2.5
6417,0,0,0,0,0,0,0,0,0,-4.98813,1.05923,0.29732,0,0,0,0,0,5.98813,4.94076,190,30,190,30,282,41,185,120,-0.436332,0.261888,0.34014,-1.5,1.14223e-37,0,0,2,5.9891,4.95136,0,0,0,0,0.19382,0.0256823,9603,5.98813,4.95123,0.19382,0.0256823,6414,0,0,0,0,-1.9782,-2.5
6432,0,0,0,0,0,0,0,0,0,-4.98813,1.05923,0.29732,0,0,0,0,0,5.98813,4.94076,190,30,190,30,282,41,185,120,-0.436332,0.261888,0.363702,-1.5,1.14223e-37,0,0,2,5.99201,4.95174,0,0,0,0,0.19382,0.0256823,9603,5.98813,4.95123,0.19382,0.0256823,6414,0,0,0,0,-1.98402,-2.5
6451,0,0,0,0,0,0,0,0,0,-4.97672,1.05696,0.295874,0,0,0,0,0,5.97672,4.94302,190,30,190,30,282,40,185,120,-0.436332,0.261888,0.393547,-1.5,1.14223e-37,0,0,2,5.98509,4.94438,0,0,0,0,0.145435,-0.0135834,9603,5.98422,4.94446,0.145435,-0.0135834,6448,0,0,0,0,-1.97019,-2.5
6466,0,0,0,0,0,0,0,0,0,-4.97672,1.05696,0.295874,0,0,0,0,0,5.97672,4.94302,190,30,190,30,282,40,185,120,-0.436332,0.261888,0.417109,-1.5,1.14223e-37,0,0,2,5.98728,4.94418,0,0,0,0,0.145435,-0.0135834,9603,5.98422,4.94446,0.145435,-0.0135834,6448,0,0,0,0,-1.97455,-2.5
6485,0,0,0,0,0,0,0,0,0,-4.96347,1.04762,0.27891,0,0,0,0,0,5.96347,4.95236,191,30,191,30,283,43,184,121,-0.436332,0.261888,0.446954,-1.5,1.14223e-37,0,0,2,5.98395,4.95243,0,0,0,0,0.12472,0.0182489,9801,5.9832,4.95232,0.12472,0.0182489,6482,0,0,0,0,-1.9679,-2.5
6500,0,0,0,0,0,0,0,0,0,-4.96347,1.04762,0.27891,0,0,0,0,0,5.96347,4.95236,191,30,191,30,283,43,184,121,-0.436332,0.261888,0.470516,-1.5,1.14223e-37,0,0,2,5.98582,4.9527,0,0,0,0,0.12472,0.0182489,9801,5.9832,4.95232,0.12472,0.0182489,6482,0,0,0,0,-1.97164,-2.5
6519,0,0,0,0,0,0,0,0,0,-4.96427,1.04195,0.288077,0,0,0,0,0,5.96427,4.95804,191,30,191,30,282,41,185,120,-0.436332,0.261888,0.500361,-1.5,1.14223e-37,0,0,2,5.98182,4.95356,0,0,0,0,0.089236,0.0231663,9603,5.98128,4.95342,0.089236,0.0231663,6515,0,0,0,0,-1.96363,-2.5
6534,0,0,0,0,0,0,0,0,0,-4.96427,1.04195,0.288077,0,0,0,0,0,5.96427,4.95804,191,30,191,30,282,41,185,120,-0.436332,0.261888,0.523923,-1.5,1.14223e-37,0,0,2,5.98316,4.9539,0,0,0,0,0.089236,0.0231663,9603,5.98128,4.95342,0.089236,0.0231663,6515,0,0,0,0,-1.96631,-2.5
6553,0,0,0,0,0,0,0,0,0,-4.98803,1.05311,0.29733,0,0,0,0,0,5.98803,4.94688,191,30,191,30,282,41,185,120,-0.436332,0.261888,0.553768,-1.5,1.14223e-37,0,0,2,5.98619,4.95293,0,0,0,0,0.0996697,0.0180976,9603,5.98539,4.95278,0.0996697,0.0180976,6547,0,0,0,0,-1.97237,-2.5
6569,0,0,0,0,0,0,0,0,0,-4.98803,1.05311,0.29733,0,0,0,0,0,5.98803,4.94688,191,30,191,30,282,41,185,120,-0.436332,0.261888,0.57733,-1.5,1.14223e-37,0,0,2,5.98768,4.9532,0,0,0,0,0.0996697,0.0180976,9603,5.98539,4.95278,0.0996697,0.0180976,6547,0,0,0,0,-1.97536,-2.5
6587,0,0,0,0,0,0,0,0,0,-4.98803,1.05311,0.29733,0,0,0,0,0,5.98803,4.94688,191,30,191,30,282,41,185,120,-0.436332,0.261888,0.607175,-1.5,1.14223e-37,0,0,2,5.98957,4.94719,0,0,0,0,0.0996703,-0.00830856,9603,5.98888,4.94725,0.0996703,-0.00830856,6582,0,0,0,0,-1.97915,-2.5
6603,0,0,0,0,0,0,0,0,0,-4.98803,1.05311,0.29733,0,0,0,0,0,5.98803,4.94688,191,30,191,30,282,41,185,120,-0.436332,0.261888,0.632307,-1.5,1.14223e-37,0,0,2,5.99117,4.94705,0,0,0,0,0.0996703,-0.00830856,9603,5.98888,4.94725,0.0996703,-0.00830856,6582,0,0,0,0,-1.98234,-2.5
6621,0,0,0,0,0,0,0,0,0,-8.18583,-5.68609,-0.200158,0,0,0,0,0,9.18584,11.6861,584,143,584,143,633,133,577,197,-0.436332,0.261888,0.660582,-1.5,1.14223e-37,0,0,2,5.9917,4.94746,0,0,0,0,0.0912769,-0.00259689,3584,5.99079,4.94749,0.0912769,-0.00259689,6614,0,0,0,0,-1.98341,-2.5
6637,0,0,0,0,0,0,0,0,0,-8.18583,-5.68609,-0.200158,0,0,0,0,0,9.18584,11.6861,584,143,584,143,633,133,577,197,-0.436332,0.261888,0.685714,-1.5,1.14223e-37,0,0,2,5.99316,4.94742,0,0,0,0,0.0912769,-0.00259689,3584,5.99079,4.94749,0.0912769,-0.00259689,6614,0,0,0,0,-1.98633,-2.5
6651,0,0,0,0,0,0,0,0,0,-8.18583,-5.68609,-0.200158,0,0,0,0,0,9.18584,11.6861,584,143,584,143,633,133,577,197,-0.436332,0.261888,0.707705,-1.5,1.14223e-37,0,0,2,5.99444,4.94738,0,0,0,0,0.0912769,-0.00259689,3584,5.99079,4.94749,0.0912769,-0.00259689,6614,0,0,0,0,-1.98888,-2.5
6665,0,0,0,0,0,0,0,0,0,-8.18583,-5.68609,-0.200158,0,0,0,0,0,9.18584,11.6861,584,143,584,143,633,133,577,197,-0.436332,0.261888,0.729697,-1.5,1.14223e-37,0,0,2,5.99572,4.94735,0,0,0,0,0.0912769,-0.00259689,3584,5.99079,4.94749,0.0912769,-0.00259689,6614,0,0,0,0,-1.99144,-2.5
6684,0,0,0,0,0,0,0,0,0,-5.02044,1.05948,0.300859,0,0,0,0,0,6.02044,4.9405,191,30,191,30,282,44,185,120,-0.436332,0.261888,0.759542,-1.5,1.14223e-37,0,0,2,6.00482,4.94473,0,0,0,0,0.118585,-0.0149869,9603,6.00411,4.94482,0.118585,-0.0149869,6681,0,0,0,0,-2.00964,-2.5
6700,0,0,0,0,0,0,0,0,0,-5.02044,1.05948,0.300859,0,0,0,0,0,6.02044,4.9405,191,30,191,30,282,44,185,120,-0.436332,0.261888,0.784674,-1.5,1.14223e-37,0,0,2,6.00672,4.94449,0,0,0,0,0.118585,-0.0149869,9603,6.00411,4.94482,0.118585,-0.0149869,6681,0,0,0,0,-2.01343,-2.5
6719,0,0,0,0,0,0,0,0,0,-4.94803,1.04789,0.2818,0,0,0,0,0,5.94803,4.95209,191,30,191,30,282,40,184,121,-0.436332,0.261888,0.814519,-1.5,1.14223e-37,0,0,2,6.00543,4.94612,0,0,0,0,0.102982,-0.00850502,9702,6.00482,4.94617,0.102982,-0.00850502,6715,0,0,0,0,-2.01087,-2.5
6734,0,0,0,0,0,0,0,0,0,-4.94803,1.04789,0.2818,0,0,0,0,0,5.94803,4.95209,191,30,191,30,282,40,184,121,-0.436332,0.261888,0.838081,-1.5,1.14223e-37,0,0,2,6.00698,4.94599,0,0,0,0,0.102982,-0.00850502,9702,6.00482,4.94617,0.102982,-0.00850502,6715,0,0,0,0,-2.01396,-2.5
6753,0,0,0,0,0,0,0,0,0,-4.97664,1.05086,0.295893,0,0,0,0,0,5.97664,4.94913,191,30,191,30,282,40,185,120,-0.436332,0.261888,0.867926,-1.5,1.14223e-37,0,0,2,5.97714,4.94903,0,0,0,0,0.00885115,0.00532425,9603,5.97707,4.94898,0.00885115,0.00532425,6747,0,0,0,0,-1.95428,-2.5
6769,0,0,0,0,0,0,0,0,0,-4.97664,1.05086,0.295893,0,0,0,0,0,5.97664,4.94913,191,30,191,30,282,40,185,120,-0.436332,0.261888,0.893059,-1.5,1.14223e-37,0,0,2,5.97728,4.94911,0,0,0,0,0.00885115,0.00532425,9603,5.97707,4.94898,0.00885115,0.00532425,6747,0,0,0,0,-1.95456,-2.5
6788,0,0,0,0,0,0,0,0,0,-4.9922,1.05059,0.293005,0,0,0,0,0,5.9922,4.9494,191,30,191,30,283,43,185,120,-0.436332,0.261888,0.922904,-1.5,1.14223e-37,0,0,2,5.99081,4.94992,0,0,0,0,0.0398801,0.00149447,9702,5.99041,4.9499,0.0398801,0.00149447,6780,0,0,0,0,-1.98163,-2.5
6803,0,0,0,0,0,0,0,0,0,-4.9922,1.05059,0.293005,0,0,0,0,0,5.9922,4.9494,191,30,191,30,283,43,185,120,-0.436332,0.261888,0.946466,-1.5,1.14223e-37,0,0,2,5.99141,4.94994,0,0,0,0,0.0398801,0.00149447,9702,5.99041,4.9499,0.0398801,0.00149447,6780,0,0,0,0,-1.98282,-2.5
6823,0,0,0,0,0,0,0,0,0,-4.9922,1.05059,0.293005,0,0,0,0,0,5.9922,4.9494,191,30,191,30,283,43,185,120,-0.436332,0.261888,0.977882,-1.5,1.14223e-37,0,0,2,5.99525,4.9494,0,0,0,0,0.0528546,0.00516257,9702,5.99472,4.94935,0.0528546,0.00516257,6815,0,0,0,0,-1.9905,-2.5
6838,0,0,0,0,0,0,0,0,0,-4.9922,1.05059,0.293005,0,0,0,0,0,5.9922,4.9494,191,30,191,30,283,43,185,120,-0.436332,0.261888,1.00144,-1.5,1.14223e-37,0,0,2,5.99604,4.94948,0,0,0,0,0.0528546,0.00516257,9702,5.99472,4.94935,0.0528546,0.00516257,6815,0,0,0,0,-1.99209,-2.5
6858,0,0,0,0,0,0,0,0,0,-4.94803,1.04789,0.2818,0,0,0,0,0,5.94803,4.95209,191,30,191,30,282,40,184,121,-0.436332,0.261888,1.03286,-1.5,1.14223e-37,0,0,2,5.99382,4.94946,0,0,0,0,0.0432509,0.00255204,9702,5.99326,4.94942,0.0432509,0.00255204,6847,0,0,0,0,-1.98763,-2.5
6873,0,0,0,0,0,0,0,0,0,-4.94803,1.04789,0.2818,0,0,0,0,0,5.94803,4.95209,191,30,191,30,282,40,184,121,-0.436332,0.261888,1.05642,-1.5,1.14223e-37,0,0,2,5.99447,4.9495,0,0,0,0,0.0432509,0.00255204,9702,5.99326,4.94942,0.0432509,0.00255204,6847,0,0,0,0,-1.98893,-2.5
6893,0,0,0,0,0,0,0,0,0,-4.9922,1.05059,0.293005,0,0,0,0,0,5.9922,4.9494,191,30,191,30,283,43,185,120,-0.436332,0.261888,1.08784,-1.5,1.14223e-37,0,0,2,5.99231,4.94941,0,0,0,0,0.03753,0.00049904,9702,5.99182,4.94941,0.03753,0.00049904,6882,0,0,0,0,-1.98461,-2.5
6907,0,0,0,0,0,0,0,0,0,-4.9922,1.05059,0.293005,0,0,0,0,0,5.9922,4.9494,191,30,191,30,283,43,185,120,-0.436332,0.261888,1.10983,-1.5,1.14223e-37,0,0,2,5.99283,4.94942,0,0,0,0,0.03753,0.00049904,9702,5.99182,4.94941,0.03753,0.00049904,6882,0,0,0,0,-1.98566,-2.5
6926,0,0,0,0,0,0,0,0,0,-4.98803,1.05311,0.29733,0,0,0,0,0,5.98803,4.94688,191,30,191,30,282,41,185,120,-0.436332,0.261888,1.13967,-1.5,1.14223e-37,0,0,2,5.99278,4.94952,0,0,0,0,0.0328276,0.000618366,9603,5.99235,4.94952,0.0328276,0.000618366,6915,0,0,0,0,-1.98555,-2.5
6941,0,0,0,0,0,0,0,0,0,-4.98803,1.05311,0.29733,0,0,0,0,0,5.98803,4.94688,191,30,191,30,282,41,185,120,-0.436332,0.261888,1.16324,-1.5,1.14223e-37,0,0,2,5.99327,4.94953,0,0,0,0,0.0328276,0.000618366,9603,5.99235,4.94952,0.0328276,0.000618366,6915,0,0,0,0,-1.98654,-2.5
6961,0,0,0,0,0,0,0,0,0,-4.97664,1.05086,0.295893,0,0,0,0,0,5.97664,4.94913,191,30,191,30,282,40,185,120,-0.436332,0.261888,1.19465,-1.5,1.14223e-37,0,0,2,5.99516,4.94965,0,0,0,0,0.0343878,0.00219381,9603,5.99448,4.9496,0.0343878,0.00219381,6948,0,0,0,0,-1.99033,-2.5
6976,0,0,0,0,0,0,0,0,0,-4.97664,1.05086,0.295893,0,0,0,0,0,5.97664,4.94913,191,30,191,30,282,40,185,120,-0.436332,0.261888,1.21821,-1.5,1.14223e-37,0,0,2,5.99568,4.94968,0,0,0,0,0.0343878,0.00219381,9603,5.99448,4.9496,0.0343878,0.00219381,6948,0,0,0,0,-1.99136,-2.5
6996,0,0,0,0,0,0,0,0,0,-4.99367,1.05754,0.302459,0,0,0,0,0,5.99367,4.94244,191,30,191,30,281,40,185,120,-0.436332,0.261888,1.24963,-1.5,1.14223e-37,0,0,2,5.9921,4.94909,0,0,0,0,0.0335772,-0.000102272,9504,5.99143,4.94909,0.0335772,-0.000102272,6983,0,0,0,0,-1.98421,-2.5
7011,0,0,0,0,0,0,0,0,0,-4.99367,1.05754,0.302459,0,0,0,0,0,5.99367,4.94244,191,30,191,30,281,40,185,120,-0.436332,0.261888,1.27319,-1.5,1.14223e-37,0,0,2,5.99261,4.94909,0,0,0,0,0.0335772,-0.000102272,9504,5.99143,4.94909,0.0335772,-0.000102272,6983,0,0,0,0,-1.98522,-2.5
7031,0,0,0,0,0,0,0,0,0,-5.02044,1.05948,0.300859,0,0,0,0,0,6.02044,4.9405,191,30,191,30,282,44,185,120,-0.436332,0.261888,1.30461,-1.5,1.14223e-37,0,0,2,5.99901,4.94883,0,0,0,0,0.0371466,-0.000622801,9603,5.99827,4.94884,0.0371466,-0.000622801,7018,0,0,0,0,-1.99802,-2.5
7047,0,0,0,0,0,0,0,0,0,-5.02044,1.05948,0.300859,0,0,0,0,0,6.02044,4.9405,191,30,191,30,282,44,185,120,-0.436332,0.261888,1.32817,-1.5,1.14223e-37,0,0,2,5.99957,4.94882,0,0,0,0,0.0371466,-0.000622801,9603,5.99827,4.94884,0.0371466,-0.000622801,7018,0,0,0,0,-1.99913,-2.5
7066,0,0,0,0,0,0,0,0,0,-4.94167,1.03434,0.264407,0,0,0,0,0,5.94167,4.96565,194,31,194,31,283,41,184,121,-0.436332,0.261888,1.35959,-1.5,1.14223e-37,0,0,2,5.99228,4.94865,0,0,0,0,0.0266818,-0.000610583,9999,5.99174,4.94866,0.0266818,-0.000610583,7053,0,0,0,0,-1.98455,-2.5
7086,0,0,0,0,0,0,0,0,0,-4.94167,1.03434,0.264407,0,0,0,0,0,5.94167,4.96565,194,31,194,31,283,41,184,121,-0.436332,0.261888,1.391,-1.5,1.14223e-37,0,0,2,5.99617,4.94988,0,0,0,0,0.035653,0.000742477,9999,5.99588,4.94987,0.035653,0.000742477,7080,0,0,0,0,-1.99234,-2.5
7102,0,0,0,0,0,0,0,0,0,-4.94167,1.03434,0.264407,0,0,0,0,0,5.94167,4.96565,194,31,194,31,283,41,184,121,-0.436332,0.261888,1.41614,-1.5,1.14223e-37,0,0,2,5.99674,4.94989,0,0,0,0,0.035653,0.000742477,9999,5.99588,4.94987,0.035653,0.000742477,7080,0,0,0,0,-1.99348,-2.5
7122,0,0,0,0,0,0,0,0,0,-4.99433,1.05156,0.296552,0,0,0,0,0,5.99432,4.94843,191,30,191,30,282,41,186,121,-0.436332,0.261888,1.44755,-1.5,1.14223e-37,0,0,2,5.99168,4.95015,0,0,0,0,0.0221627,0.00277034,9504,5.99148,4.95013,0.0221627,0.00277034,7115,0,0,0,0,-1.98337,-2.5
7137,0,0,0,0,0,0,0,0,0,-4.99433,1.05156,0.296552,0,0,0,0,0,5.99432,4.94843,191,30,191,30,282,41,186,121,-0.436332,0.261888,1.47111,-1.5,1.14223e-37,0,0,2,5.99202,4.95019,0,0,0,0,0.0221627,0.00277034,9504,5.99148,4.95013,0.0221627,0.00277034,7115,0,0,0,0,-1.98403,-2.5
7157,0,0,0,0,0,0,0,0,0,-4.9922,1.05059,0.293005,0,0,0,0,0,5.9922,4.9494,191,30,191,30,283,43,185,120,-0.436332,0.261888,1.50253,-1.5,1.14223e-37,0,0,2,5.99411,4.94949,0,0,0,0,0.0266435,-0.000262408,9702,5.99382,4.94949,0.0266435,-0.000262408,7148,0,0,0,0,-1.98823,-2.5
7173,0,0,0,0,0,0,0,0,0,-4.9922,1.05059,0.293005,0,0,0,0,0,5.9922,4.9494,191,30,191,30,283,43,185,120,-0.436332,0.261888,1.52609,-1.5,1.14223e-37,0,0,2,5.99451,4.94948,0,0,0,0,0.0266435,-0.000262408,9702,5.99382,4.94949,0.0266435,-0.000262408,7148,0,0,0,0,-1.98903,-2.5
7192,0,0,0,0,0,0,0,0,0,-5.00239,1.05869,0.293885,0,0,0,0,0,6.00238,4.9413,190,30,190,30,283,44,185,120,-0.436332,0.261888,1.55594,-1.5,1.14223e-37,0,0,2,5.9923,4.94953,0,0,0,0,0.0198784,0.00194496,9702,5.99208,4.94951,0.0198784,0.00194496,7183,0,0,0,0,-1.98461,-2.5
7206,0,0,0,0,0,0,0,0,0,-5.00239,1.05869,0.293885,0,0,0,0,0,6.00238,4.9413,190,30,190,30,283,44,185,120,-0.436332,0.261888,1.5795,-1.5,1.14223e-37,0,0,2,5.9926,4.94956,0,0,0,0,0.0198784,0.00194496,9702,5.99208,4.94951,0.0198784,0.00194496,7183,0,0,0,0,-1.9852,-2.5
7227,0,0,0,0,0,0,0,0,0,-5.02749,1.0738,0.312417,0,0,0,0,0,6.02748,4.92619,190,30,190,30,279,41,185,120,-0.436332,0.261888,1.61249,-1.5,1.14223e-37,0,0,2,5.99926,4.9483,0,0,0,0,0.0286229,-0.0015576,9306,5.99886,4.94833,0.0286229,-0.0015576,7215,0,0,0,0,-1.99853,-2.5
7242,0,0,0,0,0,0,0,0,0,-5.02749,1.0738,0.312417,0,0,0,0,0,6.02748,4.92619,190,30,190,30,279,41,185,120,-0.436332,0.261888,1.63605,-1.5,1.14223e-37,0,0,2,5.99969,4.94828,0,0,0,0,0.0286229,-0.0015576,9306,5.99886,4.94833,0.0286229,-0.0015576,7215,0,0,0,0,-1.99939,-2.5
7263,0,0,0,0,0,0,0,0,0,-4.99399,1.06047,0.29952,0,0,0,0,0,5.99398,4.93952,190,30,190,30,281,41,185,120,-0.436332,0.261888,1.66903,-1.5,1.14223e-37,0,0,2,5.99678,4.94817,0,0,0,0,0.0261297,-0.00230291,9504,5.99623,4.94822,0.0261297,-0.00230291,7249,0,0,0,0,-1.99356,-2.5
7278,0,0,0,0,0,0,0,0,0,-4.99399,1.06047,0.29952,0,0,0,0,0,5.99398,4.93952,190,30,190,30,281,41,185,120,-0.436332,0.261888,1.6926,-1.5,1.14223e-37,0,0,2,5.99717,4.94814,0,0,0,0,0.0261297,-0.00230291,9504,5.99623,4.94822,0.0261297,-0.00230291,7249,0,0,0,0,-1.99435,-2.5
7298,0,0,0,0,0,0,0,0,0,-5.016,1.06483,0.302041,0,0,0,0,0,6.016,4.93516,190,30,190,30,281,43,185,120,-0.436332,0.261888,1.72401,-1.5,1.14223e-37,0,0,2,5.99861,4.94587,0,0,0,0,0.0253843,-0.00501912,9504,5.9981,4.94597,0.0253843,-0.00501912,7285,0,0,0,0,-1.99721,-2.5
7319,0,0,0,0,0,0,0,0,0,-4.9922,1.05059,0.293005,0,0,0,0,0,5.9922,4.9494,191,30,191,30,283,43,185,120,-0.436332,0.261888,1.757,-1.5,1.14223e-37,0,0,2,5.9978,4.9481,0,0,0,0,0.0243749,-0.00141374,9702,5.99763,4.94811,0.0243749,-0.00141374,7314,0,0,0,0,-1.99559,-2.5
7334,0,0,0,0,0,0,0,0,0,-4.9922,1.05059,0.293005,0,0,0,0,0,5.9922,4.9494,191,30,191,30,283,43,185,120,-0.436332,0.261888,1.78056,-1.5,1.14223e-37,0,0,2,5.99816,4.94808,0,0,0,0,0.0243749,-0.00141374,9702,5.99763,4.94811,0.0243749,-0.00141374,7314,0,0,0,0,-1.99633,-2.5
7355,0,0,0,0,0,0,0,0,0,-5.00521,1.05983,0.303943,0,0,0,0,0,6.0052,4.94016,191,30,191,30,281,41,185,120,-0.436332,0.261888,1.81355,-1.5,1.14223e-37,0,0,2,6.00014,4.94193,0,0,0,0,0.0261322,-0.0118137,9504,5.99988,4.94205,0.0261322,-0.0118137,7347,0,0,0,0,-2.00029,-2.5
7371,0,0,0,0,0,0,0,0,0,-5.00521,1.05983,0.303943,0,0,0,0,0,6.0052,4.94016,191,30,191,30,281,41,185,120,-0.436332,0.261888,1.83711,-1.5,1.14223e-37,0,0,2,6.00054,4.94175,0,0,0,0,0.0261322,-0.0118137,9504,5.99988,4.94205,0.0261322,-0.0118137,7347,0,0,0,0,-2.00107,-2.5
7391,0,0,0,0,0,0,0,0,0,-5.0274,1.06422,0.30652,0,0,0,0,0,6.02739,4.93577,191,30,191,30,281,43,185,120,-0.436332,0.261888,1.8701,-1.5,1.14223e-37,0,0,2,6.00657,4.93983,0,0,0,0,0.0316121,-0.0136826,9504,6.0062,4.94,0.0316121,-0.0136826,7382,0,0,0,0,-2.01315,-2.5
7406,0,0,0,0,0,0,0,0,0,-5.0274,1.06422,0.30652,0,0,0,0,0,6.02739,4.93577,191,30,191,30,281,43,185,120,-0.436332,0.261888,1.89366,-1.5,1.14223e-37,0,0,2,6.00705,4.93963,0,0,0,0,0.0316121,-0.0136826,9504,6.0062,4.94,0.0316121,-0.0136826,7382,0,0,0,0,-2.0141,-2.5
7427,0,0,0,0,0,0,0,0,0,-5.02749,1.0738,0.312417,0,0,0,0,0,6.02748,4.92619,190,30,190,30,279,41,185,120,-0.436332,0.261888,1.92665,-1.5,1.14223e-37,0,0,2,6.00873,4.93892,0,0,0,0,0.033318,-0.0144295,9306,6.00827,4.93912,0.033318,-0.0144295,7415,0,0,0,0,-2.01746,-2.5
7443,0,0,0,0,0,0,0,0,0,-5.02749,1.0738,0.312417,0,0,0,0,0,6.02748,4.92619,190,30,190,30,279,41,185,120,-0.436332,0.261888,1.95178,-1.5,1.14223e-37,0,0,2,6.00926,4.93869,0,0,0,0,0.033318,-0.0144295,9306,6.00827,4.93912,0.033318,-0.0144295,7415,0,0,0,0,-2.01853,-2.5
7457,0,0,0,0,0,0,0,0,0,-5.02749,1.0738,0.312417,0,0,0,0,0,6.02748,4.92619,190,30,190,30,279,41,185,120,-0.436332,0.261888,1.97377,-1.5,1.14223e-37,0,0,2,6.00973,4.93849,0,0,0,0,0.033318,-0.0144295,9306,6.00827,4.93912,0.033318,-0.0144295,7415,0,0,0,0,-2.01946,-2.5
7471,0,0,0,0,0,0,0,0,0,-5.02749,1.0738,0.312417,0,0,0,0,0,6.02748,4.92619,190,30,190,30,279,41,185,120,-0.436332,0.261888,1.99576,-1.5,1.14223e-37,0,0,2,6.0102,4.93828,0,0,0,0,0.033318,-0.0144295,9306,6.00827,4.93912,0.033318,-0.0144295,7415,0,0,0,0,-2.0204,-2.5
7486,0,0,0,0,0,0,0,0,0,-5.02749,1.0738,0.312417,0,0,0,0,0,6.02748,4.92619,190,30,190,30,279,41,185,120,-0.436332,0.261888,2.01932,-1.5,1.14223e-37,0,0,2,6.0107,4.93807,0,0,0,0,0.033318,-0.0144295,9306,6.00827,4.93912,0.033318,-0.0144295,7415,0,0,0,0,-2.02139,-2.5
7502,0,0,0,0,0,0,0,0,0,-5.02749,1.0738,0.312417,0,0,0,0,0,6.02748,4.92619,190,30,190,30,279,41,185,120,-0.436332,0.261888,2.04289,-1.5,1.14223e-37,0,0,2,6.0112,4.93785,0,0,0,0,0.033318,-0.0144295,9306,6.00827,4.93912,0.033318,-0.0144295,7415,0,0,0,0,-2.02239,-2.5
7522,0,0,0,0,0,0,0,0,0,-4.96561,1.05121,0.26449,0,0,0,0,0,5.96561,4.94878,191,32,191,32,282,43,184,121,-0.436332,0.261888,2.0743,-1.5,1.14223e-37,0,0,2,6.01052,4.93849,0,0,0,0,0.0317614,-0.0135309,9800,6.01023,4.93861,0.0317614,-0.0135309,7515,0,0,0,0,-2.02103,-2.5
7538,0,0,0,0,0,0,0,0,0,-4.96561,1.05121,0.26449,0,0,0,0,0,5.96561,4.94878,191,32,191,32,282,43,184,121,-0.436332,0.261888,2.09943,-1.5,1.14223e-37,0,0,2,6.01102,4.93827,0,0,0,0,0.0317614,-0.0135309,9800,6.01023,4.93861,0.0317614,-0.0135309,7515,0,0,0,0,-2.02205,-2.5
7558,0,0,0,0,0,0,0,0,0,-4.95765,1.05297,0.26163,0,0,0,0,0,5.95765,4.94702,191,32,191,32,282,43,183,124,-0.436332,0.261888,2.13085,-1.5,1.14223e-37,0,0,2,6.00453,4.9385,0,0,0,0,0.0223831,-0.0133355,9603,6.00428,4.93865,0.0223831,-0.0133355,7549,0,0,0,0,-2.00906,-2.5
7574,0,0,0,0,0,0,0,0,0,-4.95765,1.05297,0.26163,0,0,0,0,0,5.95765,4.94702,191,32,191,32,282,43,183,124,-0.436332,0.261888,2.15598,-1.5,1.14223e-37,0,0,2,6.00489,4.93829,0,0,0,0,0.0223831,-0.0133355,9603,6.00428,4.93865,0.0223831,-0.0133355,7549,0,0,0,0,-2.00977,-2.5
7594,0,0,0,0,0,0,0,0,0,-5.01176,1.05836,0.285081,0,0,0,0,0,6.01176,4.94162,190,32,190,32,282,43,186,123,-0.436332,0.261888,2.1874,-1.5,1.14223e-37,0,0,2,6.00943,4.94154,0,0,0,0,0.0265492,-0.00949195,9312,6.0089,4.94173,0.0265492,-0.00949195,7580,0,0,0,0,-2.01885,-2.5
7610,0,0,0,0,0,0,0,0,0,-5.01176,1.05836,0.285081,0,0,0,0,0,6.01176,4.94162,190,32,190,32,282,43,186,123,-0.436332,0.261888,2.21253,-1.5,1.14223e-37,0,0,2,6.00985,4.94139,0,0,0,0,0.0265492,-0.00949195,9312,6.0089,4.94173,0.0265492,-0.00949195,7580,0,0,0,0,-2.0197,-2.5
7630,0,0,0,0,0,0,0,0,0,-4.97913,1.04834,0.263254,0,0,0,0,0,5.97913,4.95165,191,32,191,32,282,43,186,123,-0.436332,0.261888,2.24395,-1.5,1.14223e-37,0,0,2,5.99754,4.94252,0,0,0,0,0.00878012,-0.00746838,9600,5.99737,4.94267,0.00878012,-0.00746838,7616,0,0,0,0,-1.99509,-2.5
7646,0,0,0,0,0,0,0,0,0,-4.97913,1.04834,0.263254,0,0,0,0,0,5.97913,4.95165,191,32,191,32,282,43,186,123,-0.436332,0.261888,2.26908,-1.5,1.14223e-37,0,0,2,5.99768,4.9424,0,0,0,0,0.00878012,-0.00746838,9600,5.99737,4.94267,0.00878012,-0.00746838,7616,0,0,0,0,-1.99537,-2.5
7667,0,0,0,0,0,0,0,0,0,-4.94818,1.05083,0.248668,0,0,0,0,0,5.94818,4.94916,190,33,190,33,282,43,184,123,-0.436332,0.261888,2.3005,-1.5,1.14223e-37,0,0,2,5.99277,4.94613,0,0,0,0,-6.3245e-05,-0.00354851,9702,5.99277,4.9462,-6.3245e-05,-0.00354851,7653,0,0,0,0,-1.98554,-2.5
7687,0,0,0,0,0,0,0,0,0,-5.02033,1.06021,0.285307,0,0,0,0,0,6.02032,4.93978,191,32,191,32,282,43,186,123,-0.436332,0.261888,2.33348,-1.5,1.14223e-37,0,0,2,6.00385,4.94073,0,0,0,0,0.0151217,-0.0100188,9408,6.00374,4.9408,0.0151217,-0.0100188,7682,0,0,0,0,-2.0077,-2.5
7702,0,0,0,0,0,0,0,0,0,-5.02033,1.06021,0.285307,0,0,0,0,0,6.02032,4.93978,191,32,191,32,282,43,186,123,-0.436332,0.261888,2.35705,-1.5,1.14223e-37,0,0,2,6.00408,4.94058,0,0,0,0,0.0151217,-0.0100188,9408,6.00374,4.9408,0.0151217,-0.0100188,7682,0,0,0,0,-2.00815,-2.5
7722,0,0,0,0,0,0,0,0,0,-5.01093,1.05823,0.272396,0,0,0,0,0,6.01093,4.94176,191,33,191,33,281,43,186,123,-0.436332,0.261888,2.38798,-1.5,1.14223e-37,0,0,2,6.0113,4.94169,0,0,0,0,0.0278027,-0.00816841,9405,6.01102,4.94177,0.0278027,-0.00816841,7715,0,0,0,0,-2.0226,-2.5
7736,0,0,0,0,0,0,0,0,0,-5.01093,1.05823,0.272396,0,0,0,0,0,6.01093,4.94176,191,33,191,33,281,43,186,123,-0.436332,0.261888,2.40886,-1.5,1.14223e-37,0,0,2,6.01169,4.94158,0,0,0,0,0.0278027,-0.00816841,9405,6.01102,4.94177,0.0278027,-0.00816841,7715,0,0,0,0,-2.02338,-2.5
7757,0,0,0,0,0,0,0,0,0,-4.98246,1.05214,0.261522,0,0,0,0,0,5.98246,4.94785,190,33,190,33,282,43,186,123,-0.436332,0.261888,2.43916,-1.5,1.14223e-37,0,0,2,6.01275,4.94116,0,0,0,0,0.0294394,-0.00875465,9504,6.01242,4.94125,0.0294394,-0.00875465,7748,0,0,0,0,-2.02549,-2.5
7772,0,0,0,0,0,0,0,0,0,-4.98246,1.05214,0.261522,0,0,0,0,0,5.98246,4.94785,190,33,190,33,282,43,186,123,-0.436332,0.261888,2.46001,-1.5,1.14223e-37,0,0,2,6.01319,4.94103,0,0,0,0,0.0294394,-0.00875465,9504,6.01242,4.94125,0.0294394,-0.00875465,7748,0,0,0,0,-2.02637,-2.5
7793,0,0,0,0,0,0,0,0,0,-5.02879,1.06845,0.270093,0,0,0,0,0,6.02879,4.93153,190,35,190,35,281,43,186,124,-0.436332,0.261888,2.48688,-1.5,1.14223e-37,0,0,2,6.0113,4.94083,0,0,0,0,0.0244926,-0.00836745,9215,6.01096,4.94095,0.0244926,-0.00836745,7781,0,0,0,0,-2.02261,-2.5
7808,0,0,0,0,0,0,0,0,0,-5.02879,1.06845,0.270093,0,0,0,0,0,6.02879,4.93153,190,35,190,35,281,43,186,124,-0.436332,0.261888,2.50632,-1.5,1.14223e-37,0,0,2,6.01167,4.94071,0,0,0,0,0.0244926,-0.00836745,9215,6.01096,4.94095,0.0244926,-0.00836745,7781,0,0,0,0,-2.02334,-2.5
7829,0,0,0,0,0,0,0,0,0,-4.97571,1.05979,0.258757,0,0,0,0,0,5.9757,4.9402,188,33,188,33,281,43,186,123,-0.436332,0.261888,2.53265,-1.5,1.14223e-37,0,0,2,6.00172,4.93982,0,0,0,0,0.00963647,-0.00902027,9405,6.00152,4.94001,0.00963647,-0.00902027,7815,0,0,0,0,-2.00345,-2.5
7844,0,0,0,0,0,0,0,0,0,-4.97571,1.05979,0.258757,0,0,0,0,0,5.9757,4.9402,188,33,188,33,281,43,186,123,-0.436332,0.261888,2.55072,-1.5,1.14223e-37,0,0,2,6.00187,4.93968,0,0,0,0,0.00963647,-0.00902027,9405,6.00152,4.94001,0.00963647,-0.00902027,7815,0,0,0,0,-2.00374,-2.5
7864,0,0,0,0,0,0,0,0,0,-4.98177,1.06143,0.279347,0,0,0,0,0,5.98176,4.93856,188,32,188,32,281,41,186,123,-0.436332,0.261888,2.57408,-1.5,1.14223e-37,0,0,2,5.99061,4.93964,0,0,0,0,-0.00211524,-0.00922401,9215,5.99065,4.93982,-0.00211524,-0.00922401,7851,0,0,0,0,-1.98122,-2.5
7885,0,0,0,0,0,0,0,0,0,-4.95883,1.05347,0.294781,0,0,0,0,0,5.95883,4.94651,190,30,190,30,281,38,185,120,-0.436332,0.261888,2.59756,-1.5,1.14223e-37,0,0,2,5.98116,4.93916,0,0,0,0,-0.0151778,-0.0102248,9504,5.98127,4.93924,-0.0151778,-0.0102248,7880,0,0,0,0,-1.96233,-2.5
7900,0,0,0,0,0,0,0,0,0,-4.95883,1.05347,0.294781,0,0,0,0,0,5.95883,4.94651,190,30,190,30,281,38,185,120,-0.436332,0.261888,2.6137,-1.5,1.14223e-37,0,0,2,5.98094,4.93901,0,0,0,0,-0.0151778,-0.0102248,9504,5.98127,4.93924,-0.0151778,-0.0102248,7880,0,0,0,0,-1.96187,-2.5
7921,0,0,0,0,0,0,0,0,0,-4.88268,1.10567,0.285825,0,0,0,0,0,5.88267,4.89432,180,28,180,28,278,37,180,120,-0.436332,0.261888,2.63553,-1.5,1.14223e-37,0,0,2,5.98133,4.93915,0,0,0,0,-0.0160324,-0.00793293,9506,5.98147,4.93923,-0.0160324,-0.00793293,7914,0,0,0,0,-1.96266,-2.5
7936,0,0,0,0,0,0,0,0,0,-4.88268,1.10567,0.285825,0,0,0,0,0,5.88267,4.89432,180,28,180,28,278,37,180,120,-0.436332,0.261888,2.65055,-1.5,1.14223e-37,0,0,2,5.98109,4.93903,0,0,0,0,-0.0160324,-0.00793293,9506,5.98147,4.93923,-0.0160324,-0.00793293,7914,0,0,0,0,-1.96218,-2.5
7957,0,0,0,0,0,0,0,0,0,-4.9675,1.20989,0.346319,0,0,0,0,0,5.9675,4.7901,174,26,174,26,267,35,174,118,-0.436332,0.261888,2.67086,-1.5,1.14223e-37,0,0,2,5.97777,4.93787,0,0,0,0,-0.0174951,-0.00926895,8928,5.97797,4.93797,-0.0174951,-0.00926895,7948,0,0,0,0,-1.95555,-2.5
7972,0,0,0,0,0,0,0,0,0,-4.9675,1.20989,0.346319,0,0,0,0,0,5.9675,4.7901,174,26,174,26,267,35,174,118,-0.436332,0.261888,2.68483,-1.5,1.14223e-37,0,0,2,5.97751,4.93773,0,0,0,0,-0.0174951,-0.00926895,8928,5.97797,4.93797,-0.0174951,-0.00926895,7948,0,0,0,0,-1.95502,-2.5
7988,0,0,0,0,0,0,0,0,0,-4.9675,1.20989,0.346319,0,0,0,0,0,5.9675,4.7901,174,26,174,26,267,35,174,118,-0.436332,0.261888,2.69929,-1.5,1.14223e-37,0,0,2,5.97723,4.93759,0,0,0,0,-0.0174951,-0.00926895,8928,5.97797,4.93797,-0.0174951,-0.00926895,7948,0,0,0,0,-1.95446,-2.5
8002,0,0,0,0,0,0,0,0,0,-4.9675,1.20989,0.346319,0,0,0,0,0,5.9675,4.7901,174,26,174,26,267,35,174,118,-0.436332,0.261888,2.71155,-1.5,1.14223e-37,0,0,2,5.97699,4.93746,0,0,0,0,-0.0174951,-0.00926895,8928,5.97797,4.93797,-0.0174951,-0.00926895,7948,0,0,0,0,-1.95397,-2.5
8023,0,0,0,0,0,0,0,0,0,-4.88881,1.18641,0.520353,0,0,0,0,0,5.88881,4.81357,173,13,173,13,264,13,174,104,-0.436332,0.261888,2.72934,-1.5,1.14223e-37,0,0,2,5.9697,4.93582,0,0,0,0,-0.0291998,-0.0132732,8918,5.97005,4.93598,-0.0291998,-0.0132732,8013,0,0,0,0,-1.93939,-2.5
8038,0,0,0,0,0,0,0,0,0,-4.88881,1.18641,0.520353,0,0,0,0,0,5.88881,4.81357,173,13,173,13,264,13,174,104,-0.436332,0.261888,2.74158,-1.5,1.14223e-37,0,0,2,5.96926,4.93562,0,0,0,0,-0.0291998,-0.0132732,8918,5.97005,4.93598,-0.0291998,-0.0132732,8013,0,0,0,0,-1.93852,-2.5
8059,0,0,0,0,0,0,0,0,0,-4.85822,1.11125,0.511526,0,0,0,0,0,5.85821,4.88874,176,11,176,11,269,11,184,106,-0.436332,0.261888,2.75812,-1.5,1.14223e-37,0,0,2,5.96317,4.93481,0,0,0,0,-0.038783,-0.0138842,9500,5.96371,4.93501,-0.038783,-0.0138842,8047,0,0,0,0,-1.92634,-2.5
8074,0,0,0,0,0,0,0,0,0,-4.85822,1.11125,0.511526,0,0,0,0,0,5.85821,4.88874,176,11,176,11,269,11,184,106,-0.436332,0.261888,2.7695,-1.5,1.14223e-37,0,0,2,5.96259,4.9346,0,0,0,0,-0.038783,-0.0138842,9500,5.96371,4.93501,-0.038783,-0.0138842,8047,0,0,0,0,-1.92518,-2.5
8094,0,0,0,0,0,0,0,0,0,-4.87818,1.10107,0.478706,0,0,0,0,0,5.87818,4.89892,179,14,179,14,271,14,185,110,-0.436332,0.261888,2.7842,-1.5,1.14223e-37,0,0,2,5.953,4.93141,0,0,0,0,-0.0545457,-0.0172117,9216,5.95409,4.93176,-0.0545457,-0.0172117,8081,0,0,0,0,-1.906,-2.5
8110,0,0,0,0,0,0,0,0,0,-4.87818,1.10107,0.478706,0,0,0,0,0,5.87818,4.89892,179,14,179,14,271,14,185,110,-0.436332,0.261888,2.79551,-1.5,1.14223e-37,0,0,2,5.95213,4.93114,0,0,0,0,-0.0545457,-0.0172117,9216,5.95409,4.93176,-0.0545457,-0.0172117,8081,0,0,0,0,-1.90425,-2.5
8130,0,0,0,0,0,0,0,0,0,-4.88529,1.14558,0.410166,0,0,0,0,0,5.88529,4.85441,174,23,174,23,265,19,183,119,-0.436332,0.261888,2.80919,-1.5,1.14223e-37,0,0,2,5.94592,4.9208,0,0,0,0,-0.0564349,-0.0293039,10000,5.94705,4.92138,-0.0564349,-0.0293039,8116,0,0,0,0,-1.89184,-2.5
8146,0,0,0,0,0,0,0,0,0,-4.88529,1.14558,0.410166,0,0,0,0,0,5.88529,4.85441,174,23,174,23,265,19,183,119,-0.436332,0.261888,2.8197,-1.5,1.14223e-37,0,0,2,5.94502,4.92033,0,0,0,0,-0.0564349,-0.0293039,10000,5.94705,4.92138,-0.0564349,-0.0293039,8116,0,0,0,0,-1.89003,-2.5
8166,0,0,0,0,0,0,0,0,0,-4.83666,1.19288,0.415937,0,0,0,0,0,5.83666,4.80711,165,21,165,21,261,17,180,116,-0.436332,0.261888,2.83241,-1.5,1.14223e-37,0,0,2,5.93617,4.89644,0,0,0,0,-0.0678853,-0.0519082,10395,5.93753,4.89748,-0.0678853,-0.0519082,8152,0,0,0,0,-1.87234,-2.5
8182,0,0,0,0,0,0,0,0,0,-4.83666,1.19288,0.415937,0,0,0,0,0,5.83666,4.80711,165,21,165,21,261,17,180,116,-0.436332,0.261888,2.84219,-1.5,1.14223e-37,0,0,2,5.93508,4.89561,0,0,0,0,-0.0678853,-0.0519082,10395,5.93753,4.89748,-0.0678853,-0.0519082,8152,0,0,0,0,-1.87017,-2.5
8197,0,0,0,0,0,0,0,0,0,-4.83666,1.19288,0.415937,0,0,0,0,0,5.83666,4.80711,165,21,165,21,261,17,180,116,-0.436332,0.261888,2.85107,-1.5,1.14223e-37,0,0,2,5.93406,4.89483,0,0,0,0,-0.0678853,-0.0519082,10395,5.93753,4.89748,-0.0678853,-0.0519082,8152,0,0,0,0,-1.86813,-2.5
8213,0,0,0,0,0,0,0,0,0,-4.83666,1.19288,0.415937,0,0,0,0,0,5.83666,4.80711,165,21,165,21,261,17,180,116,-0.436332,0.261888,2.8597,-1.5,1.14223e-37,0,0,2,5.93305,4.89405,0,0,0,0,-0.0678853,-0.0519082,10395,5.93753,4.89748,-0.0678853,-0.0519082,8152,0,0,0,0,-1.86609,-2.5
8227,0,0,0,0,0,0,0,0,0,-4.83666,1.19288,0.415937,0,0,0,0,0,5.83666,4.80711,165,21,165,21,261,17,180,116,-0.436332,0.261888,2.86806,-1.5,1.14223e-37,0,0,2,5.93203,4.89328,0,0,0,0,-0.0678853,-0.0519082,10395,5.93753,4.89748,-0.0678853,-0.0519082,8152,0,0,0,0,-1.86406,-2.5
8243,0,0,0,0,0,0,0,0,0,-4.83666,1.19288,0.415937,0,0,0,0,0,5.83666,4.80711,165,21,165,21,261,17,180,116,-0.436332,0.261888,2.87672,-1.5,1.14223e-37,0,0,2,5.93094,4.89245,0,0,0,0,-0.0678853,-0.0519082,10395,5.93753,4.89748,-0.0678853,-0.0519082,8152,0,0,0,0,-1.86188,-2.5
8262,0,0,0,0,0,0,0,0,0,-4.74575,1.26987,0.602176,0,0,0,0,0,5.74575,4.73012,156,2,156,2,249,-5,172,99,-0.436332,0.214062,2.88665,-1.5,1.14223e-37,0,0,2,5.85754,4.88693,0,0,0,0,-0.161062,-0.0580739,11336,5.86061,4.88804,-0.161062,-0.0580739,8248,0,0,0,0,-1.71509,-2.5
8276,0,0,0,0,0,0,0,0,0,-4.74575,1.26987,0.602176,0,0,0,0,0,5.74575,4.73012,156,2,156,2,249,-5,172,99,-0.436332,0.212935,2.89372,-1.5,1.14223e-37,0,0,2,5.85529,4.88612,0,0,0,0,-0.161062,-0.0580739,11336,5.86061,4.88804,-0.161062,-0.0580739,8248,0,0,0,0,-1.71058,-2.5
8291,0,0,0,0,0,0,0,0,0,-4.74575,1.26987,0.602176,0,0,0,0,0,5.74575,4.73012,156,2,156,2,249,-5,172,99,-0.436332,0.211727,2.90108,-1.5,1.14223e-37,0,0,2,5.85287,4.88525,0,0,0,0,-0.161062,-0.0580739,11336,5.86061,4.88804,-0.161062,-0.0580739,8248,0,0,0,0,-1.70575,-2.5
8307,0,0,0,0,0,0,0,0,0,-4.74575,1.26987,0.602176,0,0,0,0,0,5.74575,4.73012,156,2,156,2,249,-5,172,99,-0.436332,0.210519,2.90822,-1.5,1.14223e-37,0,0,2,5.85046,4.88438,0,0,0,0,-0.161062,-0.0580739,11336,5.86061,4.88804,-0.161062,-0.0580739,8248,0,0,0,0,-1.70092,-2.5
8322,0,0,0,0,0,0,0,0,0,-4.74575,1.26987,0.602176,0,0,0,0,0,5.74575,4.73012,156,2,156,2,249,-5,172,99,-0.436332,0.209311,2.91514,-1.5,1.14223e-37,0,0,2,5.84804,4.88351,0,0,0,0,-0.161062,-0.0580739,11336,5.86061,4.88804,-0.161062,-0.0580739,8248,0,0,0,0,-1.69608,-2.5
8337,0,0,0,0,0,0,0,0,0,-4.74575,1.26987,0.602176,0,0,0,0,0,5.74575,4.73012,156,2,156,2,249,-5,172,99,-0.436332,0.208023,2.92231,-1.5,1.14223e-37,0,0,2,5.84547,4.88258,0,0,0,0,-0.161062,-0.0580739,11336,5.86061,4.88804,-0.161062,-0.0580739,8248,0,0,0,0,-1.69093,-2.5
8352,0,0,0,0,0,0,0,0,0,-4.74575,1.26987,0.602176,0,0,0,0,0,5.74575,4.73012,156,2,156,2,249,-5,172,99,-0.436332,0.206815,2.92881,-1.5,1.14223e-37,0,0,2,5.84305,4.88171,0,0,0,0,-0.161062,-0.0580739,11336,5.86061,4.88804,-0.161062,-0.0580739,8248,0,0,0,0,-1.6861,-2.5
8367,0,0,0,0,0,0,0,0,0,-4.74575,1.26987,0.602176,0,0,0,0,0,5.74575,4.73012,156,2,156,2,249,-5,172,99,-0.436332,0.205606,2.93513,-1.5,1.14223e-37,0,0,2,5.84063,4.88084,0,0,0,0,-0.161062,-0.0580739,11336,5.86061,4.88804,-0.161062,-0.0580739,8248,0,0,0,0,-1.68127,-2.5
8383,0,0,0,0,0,0,0,0,0,-4.74575,1.26987,0.602176,0,0,0,0,0,5.74575,4.73012,156,2,156,2,249,-5,172,99,-0.436332,0.204318,2.94166,-1.5,1.14223e-37,0,0,2,5.83806,4.87991,0,0,0,0,-0.161062,-0.0580739,11336,5.86061,4.88804,-0.161062,-0.0580739,8248,0,0,0,0,-1.67611,-2.5
8398,0,0,0,0,0,0,0,0,0,-4.74575,1.26987,0.602176,0,0,0,0,0,5.74575,4.73012,156,2,156,2,249,-5,172,99,-0.436332,0.20311,2.94759,-1.5,1.14223e-37,0,0,2,5.83564,4.87904,0,0,0,0,-0.161062,-0.0580739,11336,5.86061,4.88804,-0.161062,-0.0580739,8248,0,0,0,0,-1.67128,-2.5
8413,0,0,0,0,0,0,0,0,0,-4.74575,1.26987,0.602176,0,0,0,0,0,5.74575,4.73012,156,2,156,2,249,-5,172,99,-0.436332,0.201902,2.95335,-1.5,1.14223e-37,0,0,2,5.83322,4.87817,0,0,0,0,-0.161062,-0.0580739,11336,5.86061,4.88804,-0.161062,-0.0580739,8248,0,0,0,0,-1.66645,-2.5
8434,0,0,0,0,0,0,0,0,0,-4.83985,0.795959,0.287909,0,0,0,0,0,5.83985,5.20403,200,35,200,35,294,25,213,126,-0.436332,0.204267,2.96079,-1.5,1.14223e-37,0,0,2,5.83486,4.90182,0,0,0,0,-0.154876,-0.0360206,10504,5.83811,4.90258,-0.154876,-0.0360206,8420,0,0,0,0,-1.66972,-2.5
8454,0,0,0,0,0,0,0,0,0,-4.77496,0.823382,0.258622,0,0,0,0,0,5.77496,5.17661,194,35,194,35,289,25,212,128,-0.436332,0.19965,2.96791,-1.5,1.14223e-37,0,0,2,5.82815,4.92224,0,0,0,0,-0.159928,-0.0165477,11227,5.82927,4.92235,-0.159928,-0.0165477,8449,0,0,0,0,-1.6563,-2.5
8469,0,0,0,0,0,0,0,0,0,-4.77496,0.823382,0.258622,0,0,0,0,0,5.77496,5.17661,194,35,194,35,289,25,212,128,-0.436332,0.19845,2.97307,-1.5,1.14223e-37,0,0,2,5.82575,4.92199,0,0,0,0,-0.159928,-0.0165477,11227,5.82927,4.92235,-0.159928,-0.0165477,8449,0,0,0,0,-1.65151,-2.5
8490,0,0,0,0,0,0,0,0,0,-4.78781,0.849733,0.286745,0,0,0,0,0,5.78781,5.15025,194,34,194,34,286,21,210,128,-0.436332,0.189058,2.98004,-1.5,1.14223e-37,0,0,2,5.81156,4.90866,0,0,0,0,-0.169108,-0.0341038,11342,5.81359,4.90906,-0.169108,-0.0341038,8480,0,0,0,0,-1.62312,-2.5
8504,0,0,0,0,0,0,0,0,0,-4.78781,0.849733,0.286745,0,0,0,0,0,5.78781,5.15025,194,34,194,34,286,21,210,128,-0.436332,0.187959,2.98419,-1.5,1.14223e-37,0,0,2,5.80936,4.90821,0,0,0,0,-0.169108,-0.0341038,11342,5.81359,4.90906,-0.169108,-0.0341038,8480,0,0,0,0,-1.61872,-2.5
8518,0,0,0,0,0,0,0,0,0,-4.78781,0.849733,0.286745,0,0,0,0,0,5.78781,5.15025,194,34,194,34,286,21,210,128,-0.436332,0.18669,2.98887,-1.5,1.14223e-37,0,0,2,5.80682,4.9077,0,0,0,0,-0.169108,-0.0341038,11342,5.81359,4.90906,-0.169108,-0.0341038,8480,0,0,0,0,-1.61365,-2.5
8533,0,0,0,0,0,0,0,0,0,-4.78781,0.849733,0.286745,0,0,0,0,0,5.78781,5.15025,194,34,194,34,286,21,210,128,-0.436332,0.185422,2.9934,-1.5,1.14223e-37,0,0,2,5.80429,4.90719,0,0,0,0,-0.169108,-0.0341038,11342,5.81359,4.90906,-0.169108,-0.0341038,8480,0,0,0,0,-1.60857,-2.5
8554,0,0,0,0,0,0,0,0,0,-4.83487,0.658984,0.342233,0,0,0,0,0,5.83487,5.341,216,26,216,26,306,22,221,123,-0.436332,0.188013,2.99953,-1.5,1.14223e-37,0,0,2,5.80871,4.9432,0,0,0,0,-0.167586,0.0076294,9898,5.80988,4.94315,-0.167586,0.0076294,8549,0,0,0,0,-1.61742,-2.5
8569,0,0,0,0,0,0,0,0,0,-4.83487,0.658984,0.342233,0,0,0,0,0,5.83487,5.341,216,26,216,26,306,22,221,123,-0.436332,0.186756,3.00374,-1.5,1.14223e-37,0,0,2,5.80619,4.94332,0,0,0,0,-0.167586,0.0076294,9898,5.80988,4.94315,-0.167586,0.0076294,8549,0,0,0,0,-1.61239,-2.5
8585,0,0,0,0,0,0,0,0,0,-4.83487,0.658984,0.342233,0,0,0,0,0,5.83487,5.341,216,26,216,26,306,22,221,123,-0.436332,0.185499,3.00783,-1.5,1.14223e-37,0,0,2,5.80368,4.94343,0,0,0,0,-0.167586,0.0076294,9898,5.80988,4.94315,-0.167586,0.0076294,8549,0,0,0,0,-1.60736,-2.5
8599,0,0,0,0,0,0,0,0,0,-4.83487,0.658984,0.342233,0,0,0,0,0,5.83487,5.341,216,26,216,26,306,22,221,123,-0.436332,0.184242,3.0118,-1.5,1.14223e-37,0,0,2,5.80117,4.94354,0,0,0,0,-0.167586,0.0076294,9898,5.80988,4.94315,-0.167586,0.0076294,8549,0,0,0,0,-1.60233,-2.5
8615,0,0,0,0,0,0,0,0,0,-4.83487,0.658984,0.342233,0,0,0,0,0,5.83487,5.341,216,26,216,26,306,22,221,123,-0.436332,0.182902,3.01591,-1.5,1.14223e-37,0,0,2,5.79848,4.94367,0,0,0,0,-0.167586,0.0076294,9898,5.80988,4.94315,-0.167586,0.0076294,8549,0,0,0,0,-1.59697,-2.5
8630,0,0,0,0,0,0,0,0,0,-4.83487,0.658984,0.342233,0,0,0,0,0,5.83487,5.341,216,26,216,26,306,22,221,123,-0.436332,0.181645,3.01964,-1.5,1.14223e-37,0,0,2,5.79597,4.94378,0,0,0,0,-0.167586,0.0076294,9898,5.80988,4.94315,-0.167586,0.0076294,8549,0,0,0,0,-1.59194,-2.5
8646,0,0,0,0,0,0,0,0,0,-4.83487,0.658984,0.342233,0,0,0,0,0,5.83487,5.341,216,26,216,26,306,22,221,123,-0.436332,0.180304,3.0235,-1.5,1.14223e-37,0,0,2,5.79329,4.9439,0,0,0,0,-0.167586,0.0076294,9898,5.80988,4.94315,-0.167586,0.0076294,8549,0,0,0,0,-1.58658,-2.5
8666,0,0,0,0,0,0,0,0,0,-4.7951,0.776584,0.0802623,0,0,0,0,0,5.7951,5.2234,203,49,203,49,297,42,211,144,-0.436332,0.16967,3.02816,-1.5,1.14223e-37,0,0,2,5.78145,4.97369,0,0,0,0,-0.186436,0.0373437,10302,5.78518,4.97294,-0.186436,0.0373437,8652,0,0,0,0,-1.56289,-2.5
8687,0,0,0,0,0,0,0,0,0,-4.82677,0.706793,0.118379,0,0,0,0,0,5.82677,5.29319,211,43,211,43,303,43,216,139,-0.436332,0.17413,3.03285,-1.5,1.14223e-37,0,0,2,5.78668,5.01026,0,0,0,0,-0.179065,0.0717982,9504,5.78794,5.00976,-0.179065,0.0717982,8682,0,0,0,0,-1.57336,-2.5
8702,0,0,0,0,0,0,0,0,0,-4.82677,0.706793,0.118379,0,0,0,0,0,5.82677,5.29319,211,43,211,43,303,43,216,139,-0.436332,0.172787,3.03608,-1.5,1.14223e-37,0,0,2,5.784,5.01134,0,0,0,0,-0.179065,0.0717982,9504,5.78794,5.00976,-0.179065,0.0717982,8682,0,0,0,0,-1.56799,-2.5
8717,0,0,0,0,0,0,0,0,0,-4.82677,0.706793,0.118379,0,0,0,0,0,5.82677,5.29319,211,43,211,43,303,43,216,139,-0.436332,0.171444,3.03921,-1.5,1.14223e-37,0,0,2,5.78131,5.01242,0,0,0,0,-0.179065,0.0717982,9504,5.78794,5.00976,-0.179065,0.0717982,8682,0,0,0,0,-1.56262,-2.5
8733,0,0,0,0,0,0,0,0,0,-4.82677,0.706793,0.118379,0,0,0,0,0,5.82677,5.29319,211,43,211,43,303,43,216,139,-0.436332,0.170012,3.04245,-1.5,1.14223e-37,0,0,2,5.77844,5.01357,0,0,0,0,-0.179065,0.0717982,9504,5.78794,5.00976,-0.179065,0.0717982,8682,0,0,0,0,-1.55689,-2.5
8747,0,0,0,0,0,0,0,0,0,-4.82677,0.706793,0.118379,0,0,0,0,0,5.82677,5.29319,211,43,211,43,303,43,216,139,-0.436332,0.168758,3.0452,-1.5,1.14223e-37,0,0,2,5.77594,5.01457,0,0,0,0,-0.179065,0.0717982,9504,5.78794,5.00976,-0.179065,0.0717982,8682,0,0,0,0,-1.55188,-2.5
8761,0,0,0,0,0,0,0,0,0,-4.82677,0.706793,0.118379,0,0,0,0,0,5.82677,5.29319,211,43,211,43,303,43,216,139,-0.436332,0.167505,3.04787,-1.5,1.14223e-37,0,0,2,5.77343,5.01558,0,0,0,0,-0.179065,0.0717982,9504,5.78794,5.00976,-0.179065,0.0717982,8682,0,0,0,0,-1.54686,-2.5
8776,0,0,0,0,0,0,0,0,0,-4.82677,0.706793,0.118379,0,0,0,0,0,5.82677,5.29319,211,43,211,43,303,43,216,139,-0.436332,0.166162,3.05065,-1.5,1.14223e-37,0,0,2,5.77074,5.01665,0,0,0,0,-0.179065,0.0717982,9504,5.78794,5.00976,-0.179065,0.0717982,8682,0,0,0,0,-1.54149,-2.5
8792,0,0,0,0,0,0,0,0,0,-4.82677,0.706793,0.118379,0,0,0,0,0,5.82677,5.29319,211,43,211,43,303,43,216,139,-0.436332,0.164729,3.05352,-1.5,1.14223e-37,0,0,2,5.76788,5.0178,0,0,0,0,-0.179065,0.0717982,9504,5.78794,5.00976,-0.179065,0.0717982,8682,0,0,0,0,-1.53576,-2.5
8807,0,0,0,0,0,0,0,0,0,-4.82677,0.706793,0.118379,0,0,0,0,0,5.82677,5.29319,211,43,211,43,303,43,216,139,-0.436332,0.163386,3.05614,-1.5,1.14223e-37,0,0,2,5.76519,5.01888,0,0,0,0,-0.179065,0.0717982,9504,5.78794,5.00976,-0.179065,0.0717982,8682,0,0,0,0,-1.53039,-2.5
8827,0,0,0,0,0,0,0,0,0,-4.78426,0.632408,-0.187827,0,0,0,0,0,5.78426,5.36758,222,66,222,66,314,70,215,161,-0.436332,0.162117,3.05951,-1.5,1.14223e-37,0,0,2,5.764,5.24361,0,0,0,0,-0.181761,0.263953,9504,5.76764,5.23833,-0.181761,0.263953,8813,0,0,0,0,-1.52801,-2.5
8842,0,0,0,0,0,0,0,0,0,-4.78426,0.632408,-0.187827,0,0,0,0,0,5.78426,5.36758,222,66,222,66,314,70,215,161,-0.436332,0.160753,3.06195,-1.5,1.14223e-37,0,0,2,5.76128,5.24757,0,0,0,0,-0.181761,0.263953,9504,5.76764,5.23833,-0.181761,0.263953,8813,0,0,0,0,-1.52255,-2.5
8863,0,0,0,0,0,0,0,0,0,-7.2102,-6.21825,-0.607851,0,0,0,0,0,8.21021,12.2182,647,163,647,163,700,136,647,214,-0.436332,0.158985,3.06509,-1.5,1.14223e-37,0,0,2,5.75791,5.28611,0,0,0,0,-0.182107,0.299441,4134,5.75992,5.28282,-0.182107,0.299441,8853,0,0,0,0,-1.51583,-2.5
8878,0,0,0,0,0,0,0,0,0,-7.2102,-6.21825,-0.607851,0,0,0,0,0,8.21021,12.2182,647,163,647,163,700,136,647,214,-0.436332,0.157528,3.06751,-1.5,1.14223e-37,0,0,2,5.755,5.2909,0,0,0,0,-0.182107,0.299441,4134,5.75992,5.28282,-0.182107,0.299441,8853,0,0,0,0,-1.51,-2.5
8898,0,0,0,0,0,0,0,0,0,-4.73812,0.774247,-0.280089,0,0,0,0,0,5.73812,5.22574,208,74,208,74,302,74,203,169,-0.436332,0.150711,3.07044,-1.5,1.14223e-37,0,0,2,5.74503,5.25847,0,0,0,0,-0.189443,0.268541,9405,5.74882,5.2531,-0.189443,0.268541,8885,0,0,0,0,-1.49006,-2.5
8919,0,0,0,0,0,0,0,0,0,-4.74939,0.766359,-0.320085,0,0,0,0,0,5.74939,5.23363,210,75,210,75,304,81,203,169,-0.436332,0.154314,3.07338,-1.5,1.14223e-37,0,0,2,5.74667,5.23883,0,0,0,0,-0.178312,0.247503,10201,5.74792,5.2371,-0.178312,0.247503,8914,0,0,0,0,-1.49334,-2.5
8935,0,0,0,0,0,0,0,0,0,-4.74939,0.766359,-0.320085,0,0,0,0,0,5.74939,5.23363,210,75,210,75,304,81,203,169,-0.436332,0.152976,3.07541,-1.5,1.14223e-37,0,0,2,5.744,5.24254,0,0,0,0,-0.178312,0.247503,10201,5.74792,5.2371,-0.178312,0.247503,8914,0,0,0,0,-1.488,-2.5
8955,0,0,0,0,0,0,0,0,0,-4.6146,0.780691,-0.371567,0,0,0,0,0,5.6146,5.2193,204,75,204,75,305,83,198,170,-0.436332,0.136443,3.07814,-1.5,1.14223e-37,0,0,2,5.72523,5.25393,0,0,0,0,-0.20691,0.2531,11021,5.7273,5.2514,-0.20691,0.2531,8947,0,0,0,0,-1.45046,-2.5
8970,0,0,0,0,0,0,0,0,0,-4.6146,0.780691,-0.371567,0,0,0,0,0,5.6146,5.2193,204,75,204,75,305,83,198,170,-0.436332,0.134891,3.08003,-1.5,1.14223e-37,0,0,2,5.72213,5.25773,0,0,0,0,-0.20691,0.2531,11021,5.7273,5.2514,-0.20691,0.2531,8947,0,0,0,0,-1.44425,-2.5
8990,0,0,0,0,0,0,0,0,0,-4.74449,0.849365,-0.353048,0,0,0,0,0,5.74449,5.15062,203,78,203,78,297,84,195,171,-0.436332,0.138781,3.08245,-1.5,1.14223e-37,0,0,2,5.7268,5.24578,0,0,0,0,-0.200705,0.259701,10302,5.72921,5.24267,-0.200705,0.259701,8980,0,0,0,0,-1.45361,-2.5
9006,0,0,0,0,0,0,0,0,0,-4.74449,0.849365,-0.353048,0,0,0,0,0,5.74449,5.15062,203,78,203,78,297,84,195,171,-0.436332,0.137276,3.08421,-1.5,1.14223e-37,0,0,2,5.72379,5.24968,0,0,0,0,-0.200705,0.259701,10302,5.72921,5.24267,-0.200705,0.259701,8980,0,0,0,0,-1.44759,-2.5
9025,0,0,0,0,0,0,0,0,0,-4.66319,0.93786,-0.443619,0,0,0,0,0,5.66319,5.06213,191,86,191,86,288,87,186,180,-0.436332,0.126225,3.08647,-1.5,1.14223e-37,0,0,2,5.708,5.2517,0,0,0,0,-0.213316,0.258259,9894,5.71098,5.24808,-0.213316,0.258259,9013,0,0,0,0,-1.41599,-2.5
9039,0,0,0,0,0,0,0,0,0,-4.66319,0.93786,-0.443619,0,0,0,0,0,5.66319,5.06213,191,86,191,86,288,87,186,180,-0.436332,0.124732,3.08789,-1.5,1.14223e-37,0,0,2,5.70501,5.25531,0,0,0,0,-0.213316,0.258259,9894,5.71098,5.24808,-0.213316,0.258259,9013,0,0,0,0,-1.41002,-2.5
9060,0,0,0,0,0,0,0,0,0,-4.56615,0.915323,-0.560784,0,0,0,0,0,5.56614,5.08467,191,91,191,91,289,95,186,188,-0.436332,0.114365,3.09001,-1.5,1.14223e-37,0,0,2,5.68978,5.24241,0,0,0,0,-0.224326,0.241274,10712,5.6927,5.23927,-0.224326,0.241274,9048,0,0,0,0,-1.37956,-2.5
9075,0,0,0,0,0,0,0,0,0,-4.56615,0.915323,-0.560784,0,0,0,0,0,5.56614,5.08467,191,91,191,91,289,95,186,188,-0.436332,0.11257,3.09164,-1.5,1.14223e-37,0,0,2,5.68619,5.24627,0,0,0,0,-0.224326,0.241274,10712,5.6927,5.23927,-0.224326,0.241274,9048,0,0,0,0,-1.37239,-2.5
9095,0,0,0,0,0,0,0,0,0,-4.54668,0.897115,-0.587388,0,0,0,0,0,5.54667,5.10287,193,91,193,91,291,99,186,190,-0.436332,0.0858495,3.09361,-1.5,1.14223e-37,0,0,2,5.64791,5.2542,0,0,0,0,-0.254646,0.249013,11130,5.653,5.24922,-0.254646,0.249013,9082,0,0,0,0,-1.29582,-2.5
9111,0,0,0,0,0,0,0,0,0,-4.54668,0.897115,-0.587388,0,0,0,0,0,5.54667,5.10287,193,91,193,91,291,99,186,190,-0.436332,0.0838123,3.09513,-1.5,1.14223e-37,0,0,2,5.64384,5.25818,0,0,0,0,-0.254646,0.249013,11130,5.653,5.24922,-0.254646,0.249013,9082,0,0,0,0,-1.28767,-2.5
9131,0,0,0,0,0,0,0,0,0,-4.57256,0.913422,-0.598138,0,0,0,0,0,5.57256,5.08657,191,93,191,93,291,101,186,192,-0.436332,0.0778572,3.09696,-1.5,1.14223e-37,0,0,2,5.6331,5.25489,0,0,0,0,-0.256984,0.244934,10920,5.63824,5.24999,-0.256984,0.244934,9117,0,0,0,0,-1.26619,-2.5
9152,0,0,0,0,0,0,0,0,0,-4.48141,0.900396,-0.659749,0,0,0,0,0,5.4814,5.09959,191,95,191,95,292,105,183,196,-0.436332,0.0612953,3.09881,-1.5,1.14223e-37,0,0,2,5.60673,5.21009,0,0,0,0,-0.270492,0.205435,11663,5.60889,5.20845,-0.270492,0.205435,9147,0,0,0,0,-1.21345,-2.5
9167,0,0,0,0,0,0,0,0,0,-4.48141,0.900396,-0.659749,0,0,0,0,0,5.4814,5.09959,191,95,191,95,292,105,183,196,-0.436332,0.0592666,3.10008,-1.5,1.14223e-37,0,0,2,5.60267,5.21317,0,0,0,0,-0.270492,0.205435,11663,5.60889,5.20845,-0.270492,0.205435,9147,0,0,0,0,-1.20534,-2.5
9188,0,0,0,0,0,0,0,0,0,-4.44285,0.866125,-0.733625,0,0,0,0,0,5.44285,5.13386,192,102,192,102,295,108,187,202,-0.436332,0.0284779,3.10172,-1.5,1.14223e-37,0,0,2,5.55818,5.18839,0,0,0,0,-0.304672,0.188566,11664,5.56031,5.18707,-0.304672,0.188566,9182,0,0,0,0,-1.11636,-2.5
9203,0,0,0,0,0,0,0,0,0,-4.44285,0.866125,-0.733625,0,0,0,0,0,5.44285,5.13386,192,102,192,102,295,108,187,202,-0.436332,0.0261929,3.1029,-1.5,1.14223e-37,0,0,2,5.55361,5.19122,0,0,0,0,-0.304672,0.188566,11664,5.56031,5.18707,-0.304672,0.188566,9182,0,0,0,0,-1.10722,-2.5
9223,0,0,0,0,0,0,0,0,0,-4.48789,0.88309,-0.759862,0,0,0,0,0,5.48789,5.1169,193,105,193,105,292,112,186,205,-0.436332,0.0173366,3.1045,-1.5,1.14223e-37,0,0,2,5.53797,5.13677,0,0,0,0,-0.308822,0.154164,11448,5.54137,5.13507,-0.308822,0.154164,9214,0,0,0,0,-1.07595,-2.5
9239,0,0,0,0,0,0,0,0,0,-4.48789,0.88309,-0.759862,0,0,0,0,0,5.48789,5.1169,193,105,193,105,292,112,186,205,-0.436332,0.0150204,3.1056,-1.5,1.14223e-37,0,0,2,5.53334,5.13908,0,0,0,0,-0.308822,0.154164,11448,5.54137,5.13507,-0.308822,0.154164,9214,0,0,0,0,-1.06668,-2.5
9259,0,0,0,0,0,0,0,0,0,-4.49298,0.870698,-0.792029,0,0,0,0,0,5.49298,5.12929,193,109,193,109,291,114,188,211,-0.436332,0.00332638,3.10709,-1.5,1.14223e-37,0,0,2,5.51559,5.16942,0,0,0,0,-0.320098,0.202964,10712,5.52231,5.16516,-0.320098,0.202964,9245,0,0,0,0,-1.03118,-2.5
9274,0,0,0,0,0,0,0,0,0,-4.49298,0.870698,-0.792029,0,0,0,0,0,5.49298,5.12929,193,109,193,109,291,114,188,211,-0.436332,0.000925504,3.10812,-1.5,1.14223e-37,0,0,2,5.51079,5.17247,0,0,0,0,-0.320098,0.202964,10712,5.52231,5.16516,-0.320098,0.202964,9245,0,0,0,0,-1.02158,-2.5
9294,0,0,0,0,0,0,0,0,0,-4.49298,0.870698,-0.792029,0,0,0,0,0,5.49298,5.12929,193,109,193,109,291,114,188,211,-0.436332,-0.00331081,3.10944,-1.5,1.14223e-37,0,0,2,5.50354,5.14857,0,0,0,0,-0.322553,0.194018,10712,5.50999,5.14469,-0.322553,0.194018,9280,0,0,0,0,-1.00709,-2.5
9308,0,0,0,0,0,0,0,0,0,-4.49298,0.870698,-0.792029,0,0,0,0,0,5.49298,5.12929,193,109,193,109,291,114,188,211,-0.436332,-0.00556863,3.11033,-1.5,1.14223e-37,0,0,2,5.49903,5.15129,0,0,0,0,-0.322553,0.194018,10712,5.50999,5.14469,-0.322553,0.194018,9280,0,0,0,0,-0.998056,-2.5
9328,0,0,0,0,0,0,0,0,0,-4.48482,0.784143,-0.807176,0,0,0,0,0,5.48482,5.21585,199,111,199,111,303,116,196,210,-0.436332,-0.0171343,3.11157,-1.5,1.14223e-37,0,0,2,5.48052,5.16712,0,0,0,0,-0.33179,0.222074,11128,5.48715,5.16268,-0.33179,0.222074,9314,0,0,0,0,-0.961031,-2.5
9344,0,0,0,0,0,0,0,0,0,-4.48482,0.784143,-0.807176,0,0,0,0,0,5.48482,5.21585,199,111,199,111,303,116,196,210,-0.436332,-0.0196227,3.11246,-1.5,1.14223e-37,0,0,2,5.47554,5.17045,0,0,0,0,-0.33179,0.222074,11128,5.48715,5.16268,-0.33179,0.222074,9314,0,0,0,0,-0.951077,-2.5
9364,0,0,0,0,0,0,0,0,0,-4.43963,0.789887,-0.805313,0,0,0,0,0,5.43962,5.2101,197,108,197,108,299,114,196,211,-0.436332,-0.02807,3.11366,-1.5,1.14223e-37,0,0,2,5.46331,5.21594,0,0,0,0,-0.341113,0.2499,11021,5.47047,5.2107,-0.341113,0.2499,9350,0,0,0,0,-0.926611,-2.5
9379,0,0,0,0,0,0,0,0,0,-4.43963,0.789887,-0.805313,0,0,0,0,0,5.43962,5.2101,197,108,197,108,299,114,196,211,-0.436332,-0.0306285,3.11449,-1.5,1.14223e-37,0,0,2,5.45819,5.21969,0,0,0,0,-0.341113,0.2499,11021,5.47047,5.2107,-0.341113,0.2499,9350,0,0,0,0,-0.916377,-2.5
9399,0,0,0,0,0,0,0,0,0,-4.44293,0.777375,-0.818215,0,0,0,0,0,5.44292,5.22261,198,112,198,112,299,113,197,213,-0.436332,-0.0343706,3.11556,-1.5,1.14223e-37,0,0,2,5.45057,5.21545,0,0,0,0,-0.340843,0.235983,10506,5.45739,5.21073,-0.340843,0.235983,9386,0,0,0,0,-0.901138,-2.5
9420,0,0,0,0,0,0,0,0,0,-4.37749,0.768175,-0.843812,0,0,0,0,0,5.37749,5.23181,197,110,197,110,300,116,196,216,-0.436332,-0.0391703,3.11664,-1.5,1.14223e-37,0,0,2,5.44184,5.23088,0,0,0,0,-0.342576,0.245432,11024,5.44423,5.22917,-0.342576,0.245432,9415,0,0,0,0,-0.883673,-2.5
9435,0,0,0,0,0,0,0,0,0,-4.37749,0.768175,-0.843812,0,0,0,0,0,5.37749,5.23181,197,110,197,110,300,116,196,216,-0.436332,-0.0417397,3.11738,-1.5,1.14223e-37,0,0,2,5.4367,5.23457,0,0,0,0,-0.342576,0.245432,11024,5.44423,5.22917,-0.342576,0.245432,9415,0,0,0,0,-0.873395,-2.5
9456,0,0,0,0,0,0,0,0,0,-4.3991,0.767212,-0.872058,0,0,0,0,0,5.39909,5.23278,198,116,198,116,300,116,197,219,-0.436332,-0.0645402,3.11839,-1.5,1.14223e-37,0,0,2,5.41099,5.23327,0,0,0,0,-0.38237,0.169116,10609,5.41902,5.22972,-0.38237,0.169116,9442,0,0,0,0,-0.821987,-2.5
9471,0,0,0,0,0,0,0,0,0,-4.3991,0.767212,-0.872058,0,0,0,0,0,5.39909,5.23278,198,116,198,116,300,116,197,219,-0.436332,-0.0674082,3.11907,-1.5,1.14223e-37,0,0,2,5.40526,5.23581,0,0,0,0,-0.38237,0.169116,10609,5.41902,5.22972,-0.38237,0.169116,9442,0,0,0,0,-0.810515,-2.5
9492,0,0,0,0,0,0,0,0,0,-4.31221,0.749695,-0.879926,0,0,0,0,0,5.31221,5.25029,195,116,195,116,299,113,198,220,-0.436332,-0.073491,3.12001,-1.5,1.14223e-37,0,0,2,5.39551,5.22928,0,0,0,0,-0.387212,0.110497,11556,5.40093,5.22774,-0.387212,0.110497,9480,0,0,0,0,-0.791026,-2.5
9507,0,0,0,0,0,0,0,0,0,-4.31221,0.749695,-0.879926,0,0,0,0,0,5.31221,5.25029,195,116,195,116,299,113,198,220,-0.436332,-0.0762015,3.1206,-1.5,1.14223e-37,0,0,2,5.39009,5.23083,0,0,0,0,-0.387212,0.110497,11556,5.40093,5.22774,-0.387212,0.110497,9480,0,0,0,0,-0.780184,-2.5
9527,0,0,0,0,0,0,0,0,0,-4.36456,0.758569,-0.88373,0,0,0,0,0,5.36456,5.24142,195,118,195,118,299,116,198,220,-0.436332,-0.10372,3.12147,-1.5,1.14223e-37,0,0,2,5.35925,5.23406,0,0,0,0,-0.435595,0.107073,11232,5.36447,5.23277,-0.435595,0.107073,9517,0,0,0,0,-0.718494,-2.5
9542,0,0,0,0,0,0,0,0,0,-4.36456,0.758569,-0.88373,0,0,0,0,0,5.36456,5.24142,195,118,195,118,299,116,198,220,-0.436332,-0.106987,3.12207,-1.5,1.14223e-37,0,0,2,5.35271,5.23566,0,0,0,0,-0.435595,0.107073,11232,5.36447,5.23277,-0.435595,0.107073,9517,0,0,0,0,-0.705426,-2.5
9562,0,0,0,0,0,0,0,0,0,-4.36597,0.761273,-0.880463,0,0,0,0,0,5.36597,5.23872,198,115,198,115,300,117,196,221,-0.436332,-0.103847,3.1228,-1.5,1.14223e-37,0,0,2,5.35409,5.22156,0,0,0,0,-0.425791,0.0386466,11024,5.35963,5.22106,-0.425791,0.0386466,9550,0,0,0,0,-0.708181,-2.5
9576,0,0,0,0,0,0,0,0,0,-4.36597,0.761273,-0.880463,0,0,0,0,0,5.36597,5.23872,198,115,198,115,300,117,196,221,-0.436332,-0.10704,3.12336,-1.5,1.14223e-37,0,0,2,5.3477,5.22214,0,0,0,0,-0.425791,0.0386466,11024,5.35963,5.22106,-0.425791,0.0386466,9550,0,0,0,0,-0.695408,-2.5
9596,0,0,0,0,0,0,0,0,0,-4.32074,0.756214,-0.891669,0,0,0,0,0,5.32074,5.24377,195,115,195,115,297,116,198,223,-0.436332,-0.138231,3.12408,-1.5,1.14223e-37,0,0,2,5.31871,5.22072,0,0,0,0,-0.492573,0.0122786,11664,5.32857,5.22048,-0.492573,0.0122786,9582,0,0,0,0,-0.637427,-2.5
9611,0,0,0,0,0,0,0,0,0,-4.32074,0.756214,-0.891669,0,0,0,0,0,5.32074,5.24377,195,115,195,115,297,116,198,223,-0.436332,-0.141925,3.1246,-1.5,1.14223e-37,0,0,2,5.31132,5.22091,0,0,0,0,-0.492573,0.0122786,11664,5.32857,5.22048,-0.492573,0.0122786,9582,0,0,0,0,-0.622649,-2.5
9631,0,0,0,0,0,0,0,0,0,-4.32703,0.768002,-0.898633,0,0,0,0,0,5.32703,5.23199,192,118,192,118,296,116,198,223,-0.436332,-0.144258,3.12527,-1.5,1.14223e-37,0,0,2,5.30521,5.2257,0,0,0,0,-0.489677,0.0337435,11877,5.31501,5.22502,-0.489677,0.0337435,9618,0,0,0,0,-0.610423,-2.5
9647,0,0,0,0,0,0,0,0,0,-4.32703,0.768002,-0.898633,0,0,0,0,0,5.32703,5.23199,192,118,192,118,296,116,198,223,-0.436332,-0.148175,3.12578,-1.5,1.14223e-37,0,0,2,5.29738,5.22624,0,0,0,0,-0.489677,0.0337435,11877,5.31501,5.22502,-0.489677,0.0337435,9618,0,0,0,0,-0.594753,-2.5
9662,0,0,0,0,0,0,0,0,0,-4.32703,0.768002,-0.898633,0,0,0,0,0,5.32703,5.23199,192,118,192,118,296,116,198,223,-0.436332,-0.151848,3.12622,-1.5,1.14223e-37,0,0,2,5.29003,5.22674,0,0,0,0,-0.489677,0.0337435,11877,5.31501,5.22502,-0.489677,0.0337435,9618,0,0,0,0,-0.580063,-2.5
9677,0,0,0,0,0,0,0,0,0,-4.32703,0.768002,-0.898633,0,0,0,0,0,5.32703,5.23199,192,118,192,118,296,116,198,223,-0.436332,-0.155521,3.12668,-1.5,1.14223e-37,0,0,2,5.28269,5.22725,0,0,0,0,-0.489677,0.0337435,11877,5.31501,5.22502,-0.489677,0.0337435,9618,0,0,0,0,-0.565372,-2.5
9697,0,0,0,0,0,0,0,0,0,-4.21553,0.725171,-0.956968,0,0,0,0,0,5.21552,5.27482,192,120,192,120,297,118,201,229,-0.436332,-0.167742,3.12727,-1.5,1.14223e-37,0,0,2,5.26558,5.24073,0,0,0,0,-0.504355,0.0458402,12876,5.27567,5.23981,-0.504355,0.0458402,9684,0,0,0,0,-0.531164,-2.5
9713,0,0,0,0,0,0,0,0,0,-4.21553,0.725171,-0.956968,0,0,0,0,0,5.21552,5.27482,192,120,192,120,297,118,201,229,-0.436332,-0.171777,3.12772,-1.5,1.14223e-37,0,0,2,5.25751,5.24146,0,0,0,0,-0.504355,0.0458402,12876,5.27567,5.23981,-0.504355,0.0458402,9684,0,0,0,0,-0.515025,-2.5
9733,0,0,0,0,0,0,0,0,0,-4.25012,0.709946,-0.955936,0,0,0,0,0,5.25012,5.29004,195,120,195,120,303,121,201,228,-0.436332,-0.187029,3.12827,-1.5,1.14223e-37,0,0,2,5.23979,5.22935,0,0,0,0,-0.529922,0.0121313,12096,5.25039,5.22911,-0.529922,0.0121313,9719,0,0,0,0,-0.479584,-2.5
9748,0,0,0,0,0,0,0,0,0,-4.25012,0.709946,-0.955936,0,0,0,0,0,5.25012,5.29004,195,120,195,120,303,121,201,228,-0.436332,-0.191004,3.12866,-1.5,1.14223e-37,0,0,2,5.23184,5.22953,0,0,0,0,-0.529922,0.0121313,12096,5.25039,5.22911,-0.529922,0.0121313,9719,0,0,0,0,-0.463686,-2.5
9763,0,0,0,0,0,0,0,0,0,-4.25012,0.709946,-0.955936,0,0,0,0,0,5.25012,5.29004,195,120,195,120,303,121,201,228,-0.436332,-0.194978,3.12905,-1.5,1.14223e-37,0,0,2,5.22389,5.22971,0,0,0,0,-0.529922,0.0121313,12096,5.25039,5.22911,-0.529922,0.0121313,9719,0,0,0,0,-0.447788,-2.5
9779,0,0,0,0,0,0,0,0,0,-4.25012,0.709946,-0.955936,0,0,0,0,0,5.25012,5.29004,195,120,195,120,303,121,201,228,-0.436332,-0.199218,3.12944,-1.5,1.14223e-37,0,0,2,5.21542,5.22991,0,0,0,0,-0.529922,0.0121313,12096,5.25039,5.22911,-0.529922,0.0121313,9719,0,0,0,0,-0.43083,-2.5
9799,0,0,0,0,0,0,0,0,0,-6.63814,-5.91863,-0.719763,0,0,0,0,0,7.63815,11.9186,655,154,655,154,718,141,653,218,-0.436332,-0.208239,3.12992,-1.5,1.14223e-37,0,0,2,5.20288,5.27437,0,0,0,0,-0.540938,0.124603,5005,5.2137,5.27187,-0.540938,0.124603,9786,0,0,0,0,-0.405762,-2.5
9814,0,0,0,0,0,0,0,0,0,-6.63814,-5.91863,-0.719763,0,0,0,0,0,7.63815,11.9186,655,154,655,154,718,141,653,218,-0.436332,-0.212296,3.13027,-1.5,1.14223e-37,0,0,2,5.19477,5.27623,0,0,0,0,-0.540938,0.124603,5005,5.2137,5.27187,-0.540938,0.124603,9786,0,0,0,0,-0.389533,-2.5
9833,0,0,0,0,0,0,0,0,0,-4.21946,0.6102,-1.00004,0,0,0,0,0,5.21946,5.38979,203,125,203,125,310,121,213,233,-0.436332,-0.224836,3.1307,-1.5,1.14223e-37,0,0,2,5.1786,5.29196,0,0,0,0,-0.558757,0.160664,12768,5.18921,5.2889,-0.558757,0.160664,9819,0,0,0,0,-0.357191,-2.5
9853,0,0,0,0,0,0,0,0,0,-4.16077,0.589242,-1.0242,0,0,0,0,0,5.16077,5.41075,204,127,204,127,310,121,213,236,-0.436332,-0.223517,3.13113,-1.5,1.14223e-37,0,0,2,5.17235,5.32467,0,0,0,0,-0.540986,0.242856,13455,5.17613,5.32297,-0.540986,0.242856,9848,0,0,0,0,-0.344694,-2.5
9869,0,0,0,0,0,0,0,0,0,-4.16077,0.589242,-1.0242,0,0,0,0,0,5.16077,5.41075,204,127,204,127,310,121,213,236,-0.436332,-0.227845,3.13146,-1.5,1.14223e-37,0,0,2,5.16369,5.32855,0,0,0,0,-0.540986,0.242856,13455,5.17613,5.32297,-0.540986,0.242856,9848,0,0,0,0,-0.327383,-2.5
9889,0,0,0,0,0,0,0,0,0,-4.18827,0.544651,-1.02258,0,0,0,0,0,5.18826,5.45534,209,128,209,128,318,121,218,236,-0.436332,-0.229604,3.13186,-1.5,1.14223e-37,0,0,2,5.15696,5.36954,0,0,0,0,-0.534566,0.324857,12995,5.16178,5.36662,-0.534566,0.324857,9882,0,0,0,0,-0.313929,-2.5
9905,0,0,0,0,0,0,0,0,0,-4.18827,0.544651,-1.02258,0,0,0,0,0,5.18826,5.45534,209,128,209,128,318,121,218,236,-0.436332,-0.23388,3.13216,-1.5,1.14223e-37,0,0,2,5.14841,5.37474,0,0,0,0,-0.534566,0.324857,12995,5.16178,5.36662,-0.534566,0.324857,9882,0,0,0,0,-0.296823,-2.5
9925,0,0,0,0,0,0,0,0,0,-4.12091,0.508461,-1.0525,0,0,0,0,0,5.12091,5.49153,213,130,213,130,320,121,218,238,-0.436332,-0.240186,3.13254,-1.5,1.14223e-37,0,0,2,5.13617,5.40934,0,0,0,0,-0.535306,0.359628,13338,5.14206,5.40538,-0.535306,0.359628,9916,0,0,0,0,-0.272338,-2.5
9941,0,0,0,0,0,0,0,0,0,-4.12091,0.508461,-1.0525,0,0,0,0,0,5.12091,5.49153,213,130,213,130,320,121,218,238,-0.436332,-0.244469,3.13282,-1.5,1.14223e-37,0,0,2,5.1276,5.41509,0,0,0,0,-0.535306,0.359628,13338,5.14206,5.40538,-0.535306,0.359628,9916,0,0,0,0,-0.255208,-2.5
