timestamp,A_x,A_y,A_z,P,Q,R,Phi,Theta,Psi,poseX,poseY,poseZ,state_X,state_Y,state_Z,state_VzB,state_Bx,state_By,state_Bz,p1_x,p1_y,p2_x,p2_y,p3_x,p3_y,p4_x,p4_y,roll,pitch,yaw,alt,targetHeading,highLevelState,lowLevelState,gateNumber,filtered_x,filtered_y,x_OT,y_OT,vx_OT,vy_OT,filtered_vx,filtered_vygateArearansac_corr_x,ransac_corr_y,ransac_corr_vx,ransac_corr_vy,detectionTimeStamppTermX,dTermX,pTermY,dTermY,vxcmd,vycmd
6025,-0.452148,0,4.89453,-0.000312045,0.000731787,0.000788423,0.0522316,0.00513587,-1.1375,0,0,0,1.89448e-05,1.10195e-05,0.00352659,0.00205304,-1.13756,0,0,0,0,0,0,0,0,0,0,0.395802,-0.358094,3.66333e-06,-1.7,1.91566e-38,0,0,0,1.89448e-05,1.10195e-05,0,0,0,0,0.00352659,0.00205304,1.9603e-19,0,0,0,0,0,0,0,0,0,2,-2.2039e-05
6039,-0.600586,0,1.59473,0.000756014,-0.000599904,-2.5692e-05,0.0528512,0.00541524,-1.13726,0,0,0,0.0001328,7.76392e-05,0.0101531,0.00595585,-1.13732,0,0,0,0,0,0,0,0,0,0,0.395334,-0.359104,3.66333e-06,-1.7,1.91566e-38,0,0,0,0.0001328,7.76392e-05,0,0,0,0,0.0101531,0.00595585,1.9603e-19,0,0,0,0,0,0,0,0,0,2,-0.000155278
6057,-0.594727,0,0.354492,-0.00198767,-0.000575196,0.000530924,0.0537011,0.00584773,-1.13704,0,0,0,0.000407092,0.000239217,0.0181199,0.0106981,-1.13718,0,0,0,0,0,0,0,0,0,0,0.394776,-0.360308,3.66333e-06,-1.7,1.91566e-38,0,0,0,0.000407092,0.000239217,0,0,0,0,0.0181199,0.0106981,1.9603e-19,0,0,0,0,0,0,0,0,0,2,-0.000478434
6072,-0.541016,0,5.53125,0.00638451,-0.000780794,0.000539312,0.0536939,0.00587053,-1.13705,0,0,0,0.00074321,0.000438506,0.0247744,0.0147135,-1.13705,0,0,0,0,0,0,0,0,0,0,0.394288,-0.361361,2.44222e-06,-1.7,1.91566e-38,0,0,0,0.00074321,0.000438506,0,0,0,0,0.0247744,0.0147135,1.9603e-19,0,0,0,0,0,0,0,0,0,2,-0.000877011
6088,-0.507812,0,4.22754,0.0155155,-0.00336705,-0.000209937,0.0539752,0.00582657,-1.13703,0,0,0,0.00121398,0.000718775,0.0318578,0.0189821,-1.13703,0,0,0,0,0,0,0,0,0,0,0.393778,-0.362461,2.44222e-06,-1.7,1.91566e-38,0,0,0,0.00121398,0.000718775,0,0,0,0,0.0318578,0.0189821,1.9603e-19,0,0,0,0,0,0,0,0,0,2,-0.00143755
6103,-0.494141,0,5.87988,-0.0011479,0.000843377,0.000378263,0.0540452,0.0058236,-1.13702,0,0,0,0.00175414,0.00104097,0.0384794,0.0229639,-1.13702,0,0,0,0,0,0,0,0,0,0,0.39329,-0.363515,2.44222e-06,-1.7,1.91566e-38,0,0,0,0.00175414,0.00104097,0,0,0,0,0.0384794,0.0229639,1.9603e-19,0,0,0,0,0,0,0,0,0,2,-0.00208195
6118,-0.55957,0,-6.01172,-0.012466,0.00296033,-0.00107281,0.0538555,0.00587535,-1.13703,0,0,0,0.00239503,0.00142374,0.0450553,0.0269205,-1.13703,0,0,0,0,0,0,0,0,0,0,0.392796,-0.364582,2.44222e-06,-1.7,1.91566e-38,0,0,0,0.00239503,0.00142374,0,0,0,0,0.0450553,0.0269205,1.9603e-19,0,0,0,0,0,0,0,0,0,2,-0.00284747
6134,-0.570312,0,1.80957,-0.00428392,0.000212877,-0.000465965,0.0537497,0.00589341,-1.13704,0,0,0,0.00318673,0.00189717,0.0519945,0.0311065,-1.13704,0,0,0,0,0,0,0,0,0,0,0.392258,-0.365744,2.44222e-06,-1.7,1.91566e-38,0,0,0,0.00318673,0.00189717,0,0,0,0,0.0519945,0.0311065,1.9603e-19,0,0,0,0,0,0,0,0,0,2,-0.00379435
6150,-0.537109,0,-7.15137,0.00671191,-0.00137203,0.000624767,0.0538583,0.00588397,-1.13703,0,0,0,0.0040888,0.00243724,0.0588737,0.0352599,-1.13703,0,0,0,0,0,0,0,0,0,0,0.391705,-0.366936,2.44222e-06,-1.7,1.91566e-38,0,0,0,0.0040888,0.00243724,0,0,0,0,0.0588737,0.0352599,1.9603e-19,0,0,0,0,0,0,0,0,0,2,-0.00487448
6165,-0.503906,0,1.0166,0.00450485,-0.0016586,0.000191492,0.0539642,0.00585536,-1.13702,0,0,0,0.00503403,0.00300361,0.0652934,0.0391318,-1.13702,0,0,0,0,0,0,0,0,0,0,0.391178,-0.368074,2.44222e-06,-1.7,1.91566e-38,0,0,0,0.00503403,0.00300361,0,0,0,0,0.0652934,0.0391318,1.9603e-19,0,0,0,0,0,0,0,0,0,2,-0.00600722
6181,-0.470703,0,-6.65039,-0.000197825,0.000256295,0.00101402,0.0540009,0.00585652,-1.13701,0,0,0,0.00614824,0.00367158,0.072108,0.0432356,-1.13702,0,0,0,0,0,0,0,0,0,0,0.390607,-0.369308,3.66333e-06,-1.7,1.91566e-38,0,0,0,0.00614824,0.00367158,0,0,0,0,0.072108,0.0432356,1.9603e-19,0,0,0,0,0,0,0,0,0,2,-0.00734316
6195,-0.478516,0,1.31543,-0.0017311,0.00010118,-0.000725776,0.0539923,0.00586866,-1.13701,0,0,0,0.0072103,0.00430852,0.0780343,0.0468042,-1.13701,0,0,0,0,0,0,0,0,0,0,0.390095,-0.370412,2.44222e-06,-1.7,1.91566e-38,0,0,0,0.0072103,0.00430852,0,0,0,0,0.0780343,0.0468042,1.9603e-19,0,0,0,0,0,0,0,0,0,2,-0.00861705
6210,-0.478516,0,1.31543,-0.0017311,0.00010118,-0.000725776,0.0539923,0.00586866,-1.13701,0,0,0,0.00844188,0.00504736,0.0843424,0.0506038,-1.13701,0,0,0,0,0,0,0,0,0,0,0.389541,-0.371608,2.44222e-06,-1.7,1.91566e-38,0,0,0,0.00844188,0.00504736,0,0,0,0,0.0843424,0.0506038,1.9603e-19,0,0,0,0,0,0,0,0,0,2,-0.0100947
6243,-0.544922,0,-4.36035,-0.0022768,0.000337599,0.000594078,0.0538913,0.0059215,-1.137,0,0,0,0.0115778,0.00692978,0.0981049,0.0589002,-1.137,0,0,0,0,0,0,0,0,0,0,0.388272,-0.374347,2.44222e-06,-1.7,1.91566e-38,0,0,0,0.0115778,0.00692978,0,0,0,0,0.0981049,0.0589002,1.9603e-19,0,0,0,0,0,0,0,0,0,2,-0.0138596
6255,-0.578125,0,-4.10547,0.00455309,-0.000505367,-0.000182166,0.0539803,0.00591366,-1.13701,0,0,0,0.0127913,0.00765843,0.103036,0.0618785,-1.13701,0,0,0,0,0,0,0,0,0,0,0.387807,-0.375352,2.44222e-06,-1.7,1.91566e-38,0,0,0,0.0127913,0.00765843,0,0,0,0,0.103036,0.0618785,1.9603e-19,0,0,0,0,0,0,0,0,0,2,-0.0153169
6270,-0.611328,0,-3.09863,0.00124628,-4.45782e-05,0.000213969,0.0540379,0.00590556,-1.137,0,0,0,0.0143962,0.00862247,0.109173,0.0655835,-1.137,0,0,0,0,0,0,0,0,0,0,0.387213,-0.376634,2.44222e-06,-1.7,1.91566e-38,0,0,0,0.0143962,0.00862247,0,0,0,0,0.109173,0.0655835,1.9603e-19,0,0,0,0,0,0,0,0,0,2,-0.0172449
6284,-0.616211,0,3.39453,-0.0013299,0.000178357,-0.000296778,0.0540465,0.00591125,-1.13699,0,0,0,0.0158582,0.00950085,0.114462,0.0687751,-1.13699,0,0,0,0,0,0,0,0,0,0,0.386691,-0.37776,2.44222e-06,-1.7,1.91566e-38,0,0,0,0.0158582,0.00950085,0,0,0,0,0.114462,0.0687751,1.9603e-19,0,0,0,0,0,0,0,0,0,2,-0.0190017
6297,-0.564453,0,-4.77051,-0.00321629,-1.5635e-05,-0.00109842,0.0540264,0.0059071,-1.13699,0,0,0,0.0175097,0.0104933,0.120124,0.0721923,-1.13699,0,0,0,0,0,0,0,0,0,0,0.386124,-0.378985,2.44222e-06,-1.7,1.91566e-38,0,0,0,0.0175097,0.0104933,0,0,0,0,0.120124,0.0721923,1.9603e-19,0,0,0,0,0,0,0,0,0,2,-0.0209865
6312,-0.498047,0,5.63574,-0.000591958,0.000600428,0.000975583,0.0540314,0.00591534,-1.13698,0,0,0,0.0192413,0.0115341,0.125749,0.0755867,-1.13699,0,0,0,0,0,0,0,0,0,0,0.38555,-0.380225,2.44222e-06,-1.7,1.91566e-38,0,0,0,0.0192413,0.0115341,0,0,0,0,0.125749,0.0755867,1.9603e-19,0,0,0,0,0,0,0,0,0,2,-0.0230681
6327,-0.498047,0,5.63574,-0.000591958,0.000600428,0.000975583,0.0540314,0.00591534,-1.13698,0,0,0,0.0211855,0.0127028,0.131737,0.0792012,-1.13698,0,0,0,0,0,0,0,0,0,0,0.384922,-0.381579,2.44222e-06,-1.7,1.91566e-38,0,0,0,0.0211855,0.0127028,0,0,0,0,0.131737,0.0792012,1.9603e-19,0,0,0,0,0,0,0,0,0,2,-0.0254057
6341,-0.431641,0,4.22168,-0.00261335,0.000687199,-0.000222048,0.0540112,0.00593274,-1.13698,0,0,0,0.0232191,0.0139256,0.137683,0.0827924,-1.13698,0,0,0,0,0,0,0,0,0,0,0.384288,-0.382948,2.44222e-06,-1.7,1.91566e-38,0,0,0,0.0232191,0.0139256,0,0,0,0,0.137683,0.0827924,1.9603e-19,0,0,0,0,0,0,0,0,0,2,-0.0278512
6356,-0.43457,0,2.72852,-0.000237167,-0.000179545,0.000274918,0.0540151,0.00593936,-1.13697,0,0,0,0.0253415,0.015202,0.143587,0.0863606,-1.13697,0,0,0,0,0,0,0,0,0,0,0.383642,-0.384341,2.44222e-06,-1.7,1.91566e-38,0,0,0,0.0253415,0.015202,0,0,0,0,0.143587,0.0863606,1.9603e-19,0,0,0,0,0,0,0,0,0,2,-0.0304041
6371,-0.467773,0,-2.20508,0.00129259,-0.000202059,-0.000282825,0.0540575,0.00592817,-1.13697,0,0,0,0.027552,0.0165318,0.149454,0.0899059,-1.13697,0,0,0,0,0,0,0,0,0,0,0.382991,-0.385747,2.44222e-06,-1.7,1.91566e-38,0,0,0,0.027552,0.0165318,0,0,0,0,0.149454,0.0899059,1.9603e-19,0,0,0,0,0,0,0,0,0,2,-0.0330635
6386,-0.500977,0,-2.99316,0.000672994,-0.000284353,-0.000571139,0.0541026,0.00592349,-1.13698,0,0,0,0.0298487,0.0179135,0.155288,0.0934286,-1.13698,0,0,0,0,0,0,0,0,0,0,0.382332,-0.38717,2.44222e-06,-1.7,1.91566e-38,0,0,0,0.0298487,0.0179135,0,0,0,0,0.155288,0.0934286,1.9603e-19,0,0,0,0,0,0,0,0,0,2,-0.035827
6400,-0.53418,0,-2.62305,-0.00468839,8.89391e-05,8.3417e-05,0.0540706,0.0059336,-1.13698,0,0,0,0.0320708,0.0192505,0.160698,0.0966958,-1.13698,0,0,0,0,0,0,0,0,0,0,0.381706,-0.38852,2.44222e-06,-1.7,1.91566e-38,0,0,0,0.0320708,0.0192505,0,0,0,0,0.160698,0.0966958,1.9603e-19,0,0,0,0,0,0,0,0,0,2,-0.0385009
6416,-0.567383,0,0.267578,-0.0014163,0.000868023,-0.000581926,0.0540635,0.00595286,-1.13699,0,0,0,0.0347046,0.0208354,0.166837,0.100405,-1.13699,0,0,0,0,0,0,0,0,0,0,0.380985,-0.390077,2.44222e-06,-1.7,1.91566e-38,0,0,0,0.0347046,0.0208354,0,0,0,0,0.166837,0.100405,1.9603e-19,0,0,0,0,0,0,0,0,0,2,-0.0416709
6430,-0.599609,0,4.25,0.0012358,-0.000455261,0.0002212,0.0540989,0.00594921,-1.13698,0,0,0,0.0370864,0.022269,0.17217,0.10363,-1.13699,0,0,0,0,0,0,0,0,0,0,0.380345,-0.391459,3.66333e-06,-1.7,1.91566e-38,0,0,0,0.0370864,0.022269,0,0,0,0,0.17217,0.10363,1.9603e-19,0,0,0,0,0,0,0,0,0,2,-0.044538
6444,-0.599609,0,-4.53418,-0.000559183,-0.000776539,0.000482523,0.0541208,0.00594429,-1.13697,0,0,0,0.0393645,0.0236403,0.177096,0.106607,-1.13698,0,0,0,0,0,0,0,0,0,0,0.379743,-0.392758,2.44222e-06,-1.7,1.91566e-38,0,0,0,0.0393645,0.0236403,0,0,0,0,0.177096,0.106607,1.9603e-19,0,0,0,0,0,0,0,0,0,2,-0.0472805
6458,-0.599609,0,-4.53418,-0.000559183,-0.000776539,0.000482523,0.0541208,0.00594429,-1.13697,0,0,0,0.0420756,0.0252724,0.182747,0.110023,-1.13697,0,0,0,0,0,0,0,0,0,0,0.379039,-0.394277,2.44222e-06,-1.7,1.91566e-38,0,0,0,0.0420756,0.0252724,0,0,0,0,0.182747,0.110023,1.9603e-19,0,0,0,0,0,0,0,0,0,2,-0.0505449
6473,-0.599609,0,2.63379,-0.000838121,-5.5458e-05,-0.00028011,0.0541216,0.00596243,-1.13696,0,0,0,0.0448711,0.0269556,0.188361,0.113416,-1.13696,0,0,0,0,0,0,0,0,0,0,0.378327,-0.395814,2.44222e-06,-1.7,1.91566e-38,0,0,0,0.0448711,0.0269556,0,0,0,0,0.188361,0.113416,1.9603e-19,0,0,0,0,0,0,0,0,0,2,-0.0539112
6488,-0.544922,0,0.480469,0.00311578,0.0058282,0.00165078,0.0541549,0.00599443,-1.13695,0,0,0,0.0477505,0.0286895,0.193937,0.116791,-1.13695,0,0,0,0,0,0,0,0,0,0,0.377605,-0.397371,2.44222e-06,-1.7,1.91566e-38,0,0,0,0.0477505,0.0286895,0,0,0,0,0.193937,0.116791,1.9603e-19,0,0,0,0,0,0,0,0,0,2,-0.057379
6503,-0.499023,-0.00488281,-1.05469,0.000909596,0.00286545,0.00230419,0.0541342,0.0059926,-1.13696,0,0,0,0.0507132,0.0304739,0.199477,0.120147,-1.13696,0,0,0,0,0,0,0,0,0,0,0.37688,-0.398937,2.44222e-06,-1.7,1.91566e-38,0,0,0,0.0507132,0.0304739,0,0,0,0,0.199477,0.120147,1.9603e-19,0,0,0,0,0,0,0,0,0,2,-0.0609477
6518,-0.50293,0,0.80957,-0.00275829,0.00238952,-0.000227996,0.0541151,0.00600012,-1.13696,0,0,0,0.0537586,0.0323083,0.204976,0.123479,-1.13696,0,0,0,0,0,0,0,0,0,0,0.376144,-0.400526,2.44222e-06,-1.7,1.91566e-38,0,0,0,0.0537586,0.0323083,0,0,0,0,0.204976,0.123479,1.9603e-19,0,0,0,0,0,0,0,0,0,2,-0.0646166
6533,-0.525391,0,4.89258,-0.00420721,0.00318821,-0.000373475,0.0539551,0.00585938,-1.13696,0,0,0,0.0568846,0.0341916,0.210434,0.126784,-1.13696,0,0,0,0,0,0,0,0,0,0,0.375401,-0.402129,2.44222e-06,-1.7,1.91566e-38,0,0,0,0.0568846,0.0341916,0,0,0,0,0.210434,0.126784,1.9603e-19,0,0,0,0,0,0,0,0,0,2,-0.0683832
6548,-0.525391,-0.0234375,6.35352,0.00490291,-0.00148282,0.000851566,0.054154,0.00599859,-1.13696,0,0,0,0.060092,0.036124,0.215847,0.130046,-1.13696,0,0,0,0,0,0,0,0,0,0,0.37465,-0.403748,2.44222e-06,-1.7,1.91566e-38,0,0,0,0.060092,0.036124,0,0,0,0,0.215847,0.130046,1.9603e-19,0,0,0,0,0,0,0,0,0,2,-0.0722481
6563,-0.525391,0,-4.97363,0.00217694,-0.00252995,-0.000333224,0.0542446,0.00598052,-1.13695,0,0,0,0.0633805,0.0381055,0.221239,0.133313,-1.13696,0,0,0,0,0,0,0,0,0,0,0.373891,-0.405388,2.44222e-06,-1.7,1.91566e-38,0,0,0,0.0633805,0.0381055,0,0,0,0,0.221239,0.133313,1.9603e-19,0,0,0,0,0,0,0,0,0,2,-0.076211
6578,-0.525391,0,0.387695,-0.00651362,0.000749774,0.000712423,0.0541856,0.00601588,-1.13693,0,0,0,0.0665223,0.0399987,0.226251,0.136345,-1.13695,0,0,0,0,0,0,0,0,0,0,0.373172,-0.406938,2.44222e-06,-1.7,1.91566e-38,0,0,0,0.0665223,0.0399987,0,0,0,0,0.226251,0.136345,1.9603e-19,0,0,0,0,0,0,0,0,0,2,-0.0799975
6592,-0.525391,0,0.387695,-0.00651362,0.000749774,0.000712423,0.0541856,0.00601588,-1.13693,0,0,0,0.0699677,0.0420752,0.231581,0.139574,-1.13693,0,0,0,0,0,0,0,0,0,0,0.372393,-0.408618,2.44222e-06,-1.7,1.91566e-38,0,0,0,0.0699677,0.0420752,0,0,0,0,0.231581,0.139574,1.9603e-19,0,0,0,0,0,0,0,0,0,2,-0.0841503
6607,-0.525391,0,6.79785,-0.00451591,0.00119168,2.84129e-05,0.0541252,0.00602874,-1.13693,0,0,0,0.0734926,0.0441998,0.236867,0.14278,-1.13693,0,0,0,0,0,0,0,0,0,0,0.371609,-0.410311,2.44222e-06,-1.7,1.91566e-38,0,0,0,0.0734926,0.0441998,0,0,0,0,0.236867,0.14278,1.9603e-19,0,0,0,0,0,0,0,0,0,2,-0.0883996
6622,-0.525391,0,0.536133,0.00258438,-0.00167854,0.000487081,0.0541823,0.00601046,-1.13691,0,0,0,0.0770964,0.0463723,0.242116,0.145965,-1.13691,0,0,0,0,0,0,0,0,0,0,0.370813,-0.412026,2.44222e-06,-1.7,1.91566e-38,0,0,0,0.0770964,0.0463723,0,0,0,0,0.242116,0.145965,1.9603e-19,0,0,0,0,0,0,0,0,0,2,-0.0927447
6636,-0.525391,0,-4.40625,0.00294887,-0.001865,0.00121246,0.0542442,0.00599278,-1.1369,0,0,0,0.0805292,0.048442,0.246991,0.148918,-1.1369,0,0,0,0,0,0,0,0,0,0,0.370065,-0.413638,2.44222e-06,-1.7,1.91566e-38,0,0,0,0.0805292,0.048442,0,0,0,0,0.246991,0.148918,1.9603e-19,0,0,0,0,0,0,0,0,0,2,-0.0968841
6651,-0.525391,0,-7.35156,-0.00430743,0.000905438,0.000380564,0.054218,0.00600601,-1.13689,0,0,0,0.0842843,0.0507063,0.252184,0.152064,-1.13689,0,0,0,0,0,0,0,0,0,0,0.369255,-0.415384,2.44222e-06,-1.7,1.91566e-38,0,0,0,0.0842843,0.0507063,0,0,0,0,0.252184,0.152064,1.9603e-19,0,0,0,0,0,0,0,0,0,2,-0.101413
6666,-0.525391,0,7.37793,-2.01285e-05,5.48091e-05,0.000846856,0.0539551,0.00585938,-1.13672,0,0,0,0.088117,0.0530174,0.257332,0.155179,-1.13672,0,0,0,0,0,0,0,0,0,0,0.367797,-0.416922,2.44222e-06,-1.7,1.91566e-38,0,0,0,0.088117,0.0530174,0,0,0,0,0.257332,0.155179,1.9603e-19,0,0,0,0,0,0,0,0,0,2,-0.106035
6681,-0.525391,0,6.9873,-0.00205779,-0.000169068,0.000481524,0.0542498,0.00599663,-1.13687,0,0,0,0.0920249,0.055374,0.26243,0.158252,-1.13687,0,0,0,0,0,0,0,0,0,0,0.36586,-0.418095,2.44222e-06,-1.7,1.91566e-38,0,0,0,0.0920249,0.055374,0,0,0,0,0.26243,0.158252,1.9603e-19,0,0,0,0,0,0,0,0,0,2,-0.110748
6696,-0.525391,0,-6.23145,-0.00321347,0.000907372,0.000605257,0.0542288,0.00602185,-1.13686,0,0,0,0.0960093,0.0577768,0.267521,0.161336,-1.13687,0,0,0,0,0,0,0,0,0,0,0.363876,-0.419349,2.44222e-06,-1.7,1.91566e-38,0,0,0,0.0960093,0.0577768,0,0,0,0,0.267521,0.161336,1.9603e-19,0,0,0,0,0,0,0,0,0,2,-0.115554
6710,-0.50293,-0.0136719,-0.244141,0.00229056,-0.00438379,0.00128433,0.0542625,0.00602535,-1.13684,0,0,0,0.0997964,0.0600609,0.272237,0.164196,-1.13686,0,0,0,0,0,0,0,0,0,0,0.362023,-0.420542,2.44222e-06,-1.7,1.91566e-38,0,0,0,0.0997964,0.0600609,0,0,0,0,0.272237,0.164196,1.9603e-19,0,0,0,0,0,0,0,0,0,2,-0.120122
6725,-0.50293,-0.0136719,-0.244141,0.00229056,-0.00438379,0.00128433,0.0542625,0.00602535,-1.13684,0,0,0,0.103929,0.0625533,0.277261,0.167244,-1.13684,0,0,0,0,0,0,0,0,0,0,0.360034,-0.421844,2.44222e-06,-1.7,1.91566e-38,0,0,0,0.103929,0.0625533,0,0,0,0,0.277261,0.167244,1.9603e-19,0,0,0,0,0,0,0,0,0,2,-0.125107
6740,-0.487305,-0.0263672,6.74512,0.00498233,-0.00481954,0.00531134,0.0542796,0.00601223,-1.13681,0,0,0,0.108136,0.0650913,0.282253,0.170271,-1.13681,0,0,0,0,0,0,0,0,0,0,0.358042,-0.423169,2.44222e-06,-1.7,1.91566e-38,0,0,0,0.108136,0.0650913,0,0,0,0,0.282253,0.170271,1.9603e-19,0,0,0,0,0,0,0,0,0,2,-0.130183
6755,-0.541016,-0.00585938,5.58691,0.0033737,-0.00499134,-0.00065211,0.0543739,0.00600597,-1.13682,0,0,0,0.112418,0.0676745,0.287219,0.17328,-1.13682,0,0,0,0,0,0,0,0,0,0,0.356058,-0.424498,2.44222e-06,-1.7,1.91566e-38,0,0,0,0.112418,0.0676745,0,0,0,0,0.287219,0.17328,1.9603e-19,0,0,0,0,0,0,0,0,0,2,-0.135349
6770,-0.557617,0.00683594,5.73535,-0.00217253,0.00135285,-0.000930069,0.0544304,0.0060317,-1.13683,0,0,0,0.116774,0.0703026,0.292162,0.176275,-1.13683,0,0,0,0,0,0,0,0,0,0,0.354072,-0.425848,2.44222e-06,-1.7,1.91566e-38,0,0,0,0.116774,0.0703026,0,0,0,0,0.292162,0.176275,1.9603e-19,0,0,0,0,0,0,0,0,0,2,-0.140605
6785,-0.56543,-0.00195312,-2.43066,-0.00641517,0.00291139,-0.000273096,0.0543479,0.0060583,-1.13682,0,0,0,0.121204,0.0729756,0.297069,0.179252,-1.13682,0,0,0,0,0,0,0,0,0,0,0.352081,-0.427223,2.44222e-06,-1.7,1.91566e-38,0,0,0,0.121204,0.0729756,0,0,0,0,0.297069,0.179252,1.9603e-19,0,0,0,0,0,0,0,0,0,2,-0.145951
6800,-0.50293,-0.0429688,7.36035,-0.00218228,-0.0145783,0.000386778,0.054288,0.00605769,-1.13682,0,0,0,0.125707,0.075693,0.301935,0.182208,-1.13682,0,0,0,0,0,0,0,0,0,0,0.350098,-0.428612,2.44222e-06,-1.7,1.91566e-38,0,0,0,0.125707,0.075693,0,0,0,0,0.301935,0.182208,1.9603e-19,0,0,0,0,0,0,0,0,0,2,-0.151386
6815,-0.507812,-0.109375,5.26758,-0.00559776,-0.0127384,-0.0003084,0.0541751,0.00606462,-1.13683,0,0,0,0.130283,0.0784545,0.306757,0.18514,-1.13683,0,0,0,0,0,0,0,0,0,0,0.348117,-0.43002,2.44222e-06,-1.7,1.91566e-38,0,0,0,0.130283,0.0784545,0,0,0,0,0.306757,0.18514,1.9603e-19,0,0,0,0,0,0,0,0,0,2,-0.156909
6829,-0.474609,-0.0263672,3.92285,0.0183053,-0.00964626,-0.00425652,0.0544089,0.00613174,-1.13683,0,0,0,0.134617,0.0810705,0.311221,0.187857,-1.13683,0,0,0,0,0,0,0,0,0,0,0.346269,-0.431354,2.44222e-06,-1.7,1.91566e-38,0,0,0,0.134617,0.0810705,0,0,0,0,0.311221,0.187857,1.9603e-19,0,0,0,0,0,0,0,0,0,2,-0.162141
6843,-0.536133,-0.0390625,5.16797,0.0130767,-0.00255256,0.00423829,0.0546807,0.00611935,-1.13679,0,0,0,0.139013,0.0837246,0.315679,0.190575,-1.13683,0,0,0,0,0,0,0,0,0,0,0.344414,-0.432706,2.44222e-06,-1.7,1.91566e-38,0,0,0,0.139013,0.0837246,0,0,0,0,0.315679,0.190575,1.9603e-19,0,0,0,0,0,0,0,0,0,2,-0.167449
6858,-0.536133,-0.0390625,5.16797,0.0130767,-0.00255256,0.00423829,0.0546807,0.00611935,-1.13679,0,0,0,0.143795,0.0866113,0.320444,0.193477,-1.13679,0,0,0,0,0,0,0,0,0,0,0.34241,-0.434188,2.44222e-06,-1.7,1.91566e-38,0,0,0,0.143795,0.0866113,0,0,0,0,0.320444,0.193477,1.9603e-19,0,0,0,0,0,0,0,0,0,2,-0.173223
6873,-0.589844,-0.0351562,7.1084,-0.0221839,-0.00682189,-0.00233908,0.0544171,0.00609284,-1.13684,0,0,0,0.148647,0.0895414,0.325181,0.196359,-1.13684,0,0,0,0,0,0,0,0,0,0,0.34043,-0.435655,2.44222e-06,-1.7,1.91566e-38,0,0,0,0.148647,0.0895414,0,0,0,0,0.325181,0.196359,1.9603e-19,0,0,0,0,0,0,0,0,0,2,-0.179083
6888,-0.540039,0.000976562,-4.47754,-0.00867856,0.00340606,-0.00315512,0.054222,0.00621219,-1.13684,0,0,0,0.15357,0.0925144,0.329852,0.199211,-1.13684,0,0,0,0,0,0,0,0,0,0,0.338444,-0.437161,2.44222e-06,-1.7,1.91566e-38,0,0,0,0.15357,0.0925144,0,0,0,0,0.329852,0.199211,1.9603e-19,0,0,0,0,0,0,0,0,0,2,-0.185029
6903,-0.485352,0.00878906,1.41016,0.0140927,0.00372172,0.00179686,0.0544025,0.00619535,-1.13683,0,0,0,0.158561,0.0955292,0.334484,0.20205,-1.13683,0,0,0,0,0,0,0,0,0,0,0.33646,-0.438688,2.44222e-06,-1.7,1.91566e-38,0,0,0,0.158561,0.0955292,0,0,0,0,0.334484,0.20205,1.9603e-19,0,0,0,0,0,0,0,0,0,2,-0.191058
6918,-0.527344,-0.00195312,-3.91992,0.00350742,-0.00111754,0.0012289,0.0545506,0.006138,-1.13682,0,0,0,0.163622,0.0985866,0.339107,0.204875,-1.13682,0,0,0,0,0,0,0,0,0,0,0.334469,-0.440232,2.44222e-06,-1.7,1.91566e-38,0,0,0,0.163622,0.0985866,0,0,0,0,0.339107,0.204875,1.9603e-19,0,0,0,0,0,0,0,0,0,2,-0.197173
6933,-0.557617,0,6.03418,-0.00868254,0.00310343,-8.69807e-05,0.0544694,0.00619216,-1.13682,0,0,0,0.168753,0.101687,0.343709,0.207683,-1.13682,0,0,0,0,0,0,0,0,0,0,0.332477,-0.441794,2.44222e-06,-1.7,1.91566e-38,0,0,0,0.168753,0.101687,0,0,0,0,0.343709,0.207683,1.9603e-19,0,0,0,0,0,0,0,0,0,2,-0.203374
6948,-0.557617,-0.0185547,1.85156,-0.00202868,0.00107825,0.001433,0.0543857,0.00621135,-1.13681,0,0,0,0.173953,0.104829,0.348267,0.210473,-1.13681,0,0,0,0,0,0,0,0,0,0,0.330487,-0.443375,2.44222e-06,-1.7,1.91566e-38,0,0,0,0.173953,0.104829,0,0,0,0,0.348267,0.210473,1.9603e-19,0,0,0,0,0,0,0,0,0,2,-0.209658
6963,-0.557617,-0.00390625,-4.0791,0.00636542,-0.0019388,-0.000561725,0.0545316,0.00618003,-1.13681,0,0,0,0.179221,0.108013,0.35279,0.213244,-1.13681,0,0,0,0,0,0,0,0,0,0,0.328501,-0.444972,2.44222e-06,-1.7,1.91566e-38,0,0,0,0.179221,0.108013,0,0,0,0,0.35279,0.213244,1.9603e-19,0,0,0,0,0,0,0,0,0,2,-0.216026
6978,-0.557617,0,-5.51562,-0.00759793,0.000928519,-0.00181663,0.0544913,0.00620804,-1.13682,0,0,0,0.184556,0.111238,0.357299,0.216,-1.13681,0,0,0,0,0,0,0,0,0,0,0.326511,-0.446586,2.44222e-06,-1.7,1.91566e-38,0,0,0,0.184556,0.111238,0,0,0,0,0.357299,0.216,1.9603e-19,0,0,0,0,0,0,0,0,0,2,-0.222477
6993,-0.557617,0,-6.42969,-0.00363419,0.00218896,0.00111549,0.0543877,0.00624284,-1.13681,0,0,0,0.189959,0.114505,0.361771,0.218738,-1.13682,0,0,0,0,0,0,0,0,0,0,0.324524,-0.448216,2.44222e-06,-1.7,1.91566e-38,0,0,0,0.189959,0.114505,0,0,0,0,0.361771,0.218738,1.9603e-19,0,0,0,0,0,0,0,0,0,2,-0.22901
7008,-0.557617,0,-6.42969,-0.00363419,0.00218896,0.00111549,0.0543877,0.00624284,-1.13681,0,0,0,0.195427,0.117812,0.366202,0.221456,-1.13681,0,0,0,0,0,0,0,0,0,0,0.322536,-0.44987,2.44222e-06,-1.7,1.91566e-38,0,0,0,0.195427,0.117812,0,0,0,0,0.366202,0.221456,1.9603e-19,0,0,0,0,0,0,0,0,0,2,-0.235623
7024,-0.557617,0,-0.818359,0.00665377,-0.00102529,0.00120949,0.0544974,0.00622151,-1.1368,0,0,0,0.201335,0.121384,0.370897,0.224337,-1.1368,0,0,0,0,0,0,0,0,0,0,0.320413,-0.451655,3.66333e-06,-1.7,1.91566e-38,0,0,0,0.201335,0.121384,0,0,0,0,0.370897,0.224337,1.9603e-19,0,0,0,0,0,0,0,0,0,2,-0.242768
7038,-0.557617,0,-5.92871,0.00220203,-0.00166319,0.000124625,0.0546059,0.00619616,-1.13679,0,0,0,0.206562,0.124547,0.374992,0.226844,-1.13679,0,0,0,0,0,0,0,0,0,0,0.318555,-0.453229,3.66333e-06,-1.7,1.91566e-38,0,0,0,0.206562,0.124547,0,0,0,0,0.374992,0.226844,1.9603e-19,0,0,0,0,0,0,0,0,0,2,-0.249093
7053,-0.557617,0,5.70117,-0.00818403,0.00218435,-0.000826153,0.0545043,0.00623834,-1.13679,0,0,0,0.211848,0.127745,0.379063,0.229337,-1.13679,0,0,0,0,0,0,0,0,0,0,0.316696,-0.454819,2.44222e-06,-1.7,1.91566e-38,0,0,0,0.211848,0.127745,0,0,0,0,0.379063,0.229337,1.9603e-19,0,0,0,0,0,0,0,0,0,2,-0.255489
7068,-0.557617,0,4.14941,-0.00129605,-0.000177735,-0.000413695,0.0544624,0.00624769,-1.1368,0,0,0,0.217961,0.131443,0.383672,0.232166,-1.1368,0,0,0,0,0,0,0,0,0,0,0.314577,-0.456651,2.44222e-06,-1.7,1.91566e-38,0,0,0,0.217961,0.131443,0,0,0,0,0.383672,0.232166,1.9603e-19,0,0,0,0,0,0,0,0,0,2,-0.262886
7083,-0.557617,0,5.89844,0.00413937,-0.00116733,0.00021525,0.0545513,0.00623791,-1.1368,0,0,0,0.223756,0.13495,0.387965,0.234801,-1.1368,0,0,0,0,0,0,0,0,0,0,0.31259,-0.458388,3.66333e-06,-1.7,1.91566e-38,0,0,0,0.223756,0.13495,0,0,0,0,0.387965,0.234801,1.9603e-19,0,0,0,0,0,0,0,0,0,2,-0.2699
7098,-0.557617,0,-5.95703,-0.00136041,0.000305782,-0.000111344,0.0545698,0.00624725,-1.1368,0,0,0,0.229616,0.138497,0.392236,0.237421,-1.1368,0,0,0,0,0,0,0,0,0,0,0.3106,-0.460141,2.44222e-06,-1.7,1.91566e-38,0,0,0,0.229616,0.138497,0,0,0,0,0.392236,0.237421,1.9603e-19,0,0,0,0,0,0,0,0,0,2,-0.276994
7113,-0.557617,0,1.74805,-0.00546911,0.00154224,0.000551424,0.0544993,0.00628208,-1.13679,0,0,0,0.235539,0.142083,0.396476,0.240025,-1.13679,0,0,0,0,0,0,0,0,0,0,0.308609,-0.461915,2.44222e-06,-1.7,1.91566e-38,0,0,0,0.235539,0.142083,0,0,0,0,0.396476,0.240025,1.9603e-19,0,0,0,0,0,0,0,0,0,2,-0.284165
7127,-0.557617,0,-7.12695,0.0029697,-0.000366981,-0.000768643,0.0545523,0.00627936,-1.1368,0,0,0,0.241125,0.145464,0.4004,0.24244,-1.13679,0,0,0,0,0,0,0,0,0,0,0.306754,-0.463585,2.44222e-06,-1.7,1.91566e-38,0,0,0,0.241125,0.145464,0,0,0,0,0.4004,0.24244,1.9603e-19,0,0,0,0,0,0,0,0,0,2,-0.290929
7142,-0.557617,0,0.998047,0.0017816,-0.00139057,0.000715113,0.0546201,0.00626706,-1.13679,0,0,0,0.247171,0.149126,0.404585,0.245013,-1.1368,0,0,0,0,0,0,0,0,0,0,0.304766,-0.465388,2.44222e-06,-1.7,1.91566e-38,0,0,0,0.247171,0.149126,0,0,0,0,0.404585,0.245013,1.9603e-19,0,0,0,0,0,0,0,0,0,2,-0.298252
7157,-0.557617,0,0.998047,0.0017816,-0.00139057,0.000715113,0.0546201,0.00626706,-1.13679,0,0,0,0.25328,0.152826,0.408747,0.247571,-1.13679,0,0,0,0,0,0,0,0,0,0,0.302773,-0.467211,2.44222e-06,-1.7,1.91566e-38,0,0,0,0.25328,0.152826,0,0,0,0,0.408747,0.247571,1.9603e-19,0,0,0,0,0,0,0,0,0,2,-0.305652
7172,-0.557617,0,-6.66699,-0.00314405,0.000516146,8.86964e-05,0.0546078,0.00627553,-1.13679,0,0,0,0.259451,0.156564,0.412885,0.250113,-1.13679,0,0,0,0,0,0,0,0,0,0,0.300781,-0.469049,2.44222e-06,-1.7,1.91566e-38,0,0,0,0.259451,0.156564,0,0,0,0,0.412885,0.250113,1.9603e-19,0,0,0,0,0,0,0,0,0,2,-0.313128
7187,-0.557617,0,1.33496,-0.00165975,6.94844e-05,-0.000608926,0.0545853,0.00628287,-1.1368,0,0,0,0.265684,0.16034,0.416992,0.252637,-1.1368,0,0,0,0,0,0,0,0,0,0,0.298791,-0.470901,2.44222e-06,-1.7,1.91566e-38,0,0,0,0.265684,0.16034,0,0,0,0,0.416992,0.252637,1.9603e-19,0,0,0,0,0,0,0,0,0,2,-0.32068
7202,-0.557617,0,-2.88379,0.00236945,-0.00212625,0.000684494,0.0546396,0.00625882,-1.13679,0,0,0,0.271978,0.164153,0.421072,0.255145,-1.13679,0,0,0,0,0,0,0,0,0,0,0.296798,-0.472773,2.44222e-06,-1.7,1.91566e-38,0,0,0,0.271978,0.164153,0,0,0,0,0.421072,0.255145,1.9603e-19,0,0,0,0,0,0,0,0,0,2,-0.328306
7217,-0.557617,0,-4.31543,-0.000141715,0.000564292,0.0013357,0.0546693,0.00625988,-1.13677,0,0,0,0.278333,0.168004,0.425132,0.257636,-1.13677,0,0,0,0,0,0,0,0,0,0,0.294802,-0.474663,2.44222e-06,-1.7,1.91566e-38,0,0,0,0.278333,0.168004,0,0,0,0,0.425132,0.257636,1.9603e-19,0,0,0,0,0,0,0,0,0,2,-0.336009
7231,-0.557617,0,-4.14648,-0.00355334,0.00190747,8.49568e-05,0.0546374,0.00628008,-1.13677,0,0,0,0.284318,0.171632,0.428897,0.259948,-1.13677,0,0,0,0,0,0,0,0,0,0,0.29294,-0.476439,2.44222e-06,-1.7,1.91566e-38,0,0,0,0.284318,0.171632,0,0,0,0,0.428897,0.259948,1.9603e-19,0,0,0,0,0,0,0,0,0,2,-0.343264
7245,-0.874023,0.0322266,-3.08691,-0.22922,0.0555132,-0.0442892,0.0525269,0.00688324,-1.13723,0,0,0,0.290356,0.175291,0.432592,0.262238,-1.13723,0,0,0,0,0,0,0,0,0,0,0.291232,-0.478095,2.44222e-06,-1.7,1.91566e-38,0,0,0,0.290356,0.175291,0,0,0,0,0.432592,0.262238,1.9603e-19,0,0,0,0,0,0,0,0,0,2,-0.350583
7260,-0.161133,0.136719,3.41211,0.00961612,-0.0835754,-0.701855,0.051676,0.00649814,-1.14626,0,0,0,0.296879,0.179248,0.436254,0.26463,-1.13723,0,0,0,0,0,0,0,0,0,0,0.289319,-0.480048,2.44222e-06,-1.7,1.91566e-38,0,0,0,0.296879,0.179248,0,0,0,0,0.436254,0.26463,1.9603e-19,0,0,0,0,0,0,0,0,0,2,-0.358495
7275,-0.00390625,-0.270508,-4.83301,0.123537,-0.0957827,-0.825355,0.0527344,0.00585938,-1.15991,0,0,0,0.303458,0.183238,0.439838,0.266844,-1.14626,0,0,0,0,0,0,0,0,0,0,0.290201,-0.479376,2.44222e-06,-1.7,1.91566e-38,0,0,0,0.303458,0.183238,0,0,0,0,0.439838,0.266844,1.9603e-19,0,0,0,0,0,0,0,0,0,2,-0.366477
7290,-0.00390625,-0.270508,-4.83301,0.123537,-0.0957827,-0.825355,0.0527344,0.00585938,-1.15991,0,0,0,0.310091,0.187262,0.443524,0.268983,-1.15991,0,0,0,0,0,0,0,0,0,0,0.292474,-0.477353,2.44222e-06,-1.7,1.91566e-38,0,0,0,0.310091,0.187262,0,0,0,0,0.443524,0.268983,1.9603e-19,0,0,0,0,0,0,0,0,0,2,-0.374524
7305,-0.198242,-0.362305,5.62207,0.264237,-0.120496,-0.625827,0.0569118,0.00464809,-1.17044,0,0,0,0.316781,0.191317,0.447564,0.271056,-1.17044,0,0,0,0,0,0,0,0,0,0,0.293726,-0.476207,2.44222e-06,-1.7,1.91566e-38,0,0,0,0.316781,0.191317,0,0,0,0,0.447564,0.271056,1.9603e-19,0,0,0,0,0,0,0,0,0,2,-0.382634
7320,-0.575195,-0.375977,4.2373,-0.00282917,-0.0356966,-0.137762,0.0582219,0.00392406,-1.17495,0,0,0,0.323538,0.195403,0.452076,0.273094,-1.17495,0,0,0,0,0,0,0,0,0,0,0.293057,-0.476802,2.44222e-06,-1.7,1.91566e-38,0,0,0,0.323538,0.195403,0,0,0,0,0.452076,0.273094,1.9603e-19,0,0,0,0,0,0,0,0,0,2,-0.390805
7335,-0.834961,-0.644531,2.70703,-0.733181,0.0750942,0.682161,0.0486734,0.00522575,-1.16627,0,0,0,0.33036,0.199517,0.456139,0.27496,-1.16627,0,0,0,0,0,0,0,0,0,0,0.288497,-0.481252,2.44222e-06,-1.7,1.91566e-38,0,0,0,0.33036,0.199517,0,0,0,0,0.456139,0.27496,1.9603e-19,0,0,0,0,0,0,0,0,0,2,-0.399035
7351,-1.37402,-0.282227,-2.15527,-1.32966,0.00202509,1.15738,0.0295182,0.00494655,-1.14881,0,0,0,0.337687,0.203932,0.458327,0.276233,-1.14881,0,0,0,0,0,0,0,0,0,0,0.281562,-0.488323,2.44222e-06,-1.7,1.91566e-38,0,0,0,0.337687,0.203932,0,0,0,0,0.458327,0.276233,1.9603e-19,0,0,0,0,0,0,0,0,0,2,-0.407865
7367,-1.31445,0.444336,-2.99316,-1.55574,-0.0455193,1.22291,0.00539781,0.00410012,-1.12961,0,0,0,0.34502,0.208355,0.457441,0.276122,-1.12961,0,0,0,0,0,0,0,0,0,0,0.274752,-0.495739,2.44222e-06,-1.7,1.91566e-38,0,0,0,0.34502,0.208355,0,0,0,0,0.457441,0.276122,1.9603e-19,0,0,0,0,0,0,0,0,0,2,-0.41671
7381,-0.361328,0.498047,-2.57227,-1.23012,-0.0610583,1.08196,-0.0148955,0.00317082,-1.11204,0,0,0,0.351398,0.21221,0.453943,0.274636,-1.11204,0,0,0,0,0,0,0,0,0,0,0.269159,-0.5023,2.44222e-06,-1.7,1.91566e-38,0,0,0,0.351398,0.21221,0,0,0,0,0.453943,0.274636,1.9603e-19,0,0,0,0,0,0,0,0,0,2,-0.424421
7396,0.167969,0.134766,0.25293,-1.12379,-0.0842073,0.662481,-0.0322792,0.00245626,-1.09978,0,0,0,0.358155,0.216306,0.448126,0.271895,-1.09978,0,0,0,0,0,0,0,0,0,0,0.265796,-0.50745,2.44222e-06,-1.7,1.91566e-38,0,0,0,0.358155,0.216306,0,0,0,0,0.448126,0.271895,1.9603e-19,0,0,0,0,0,0,0,0,0,2,-0.432611
7411,0.244141,-0.0322266,4.21484,-1.24987,-0.106709,0.187848,-0.0529363,0.000779722,-1.09533,0,0,0,0.364804,0.220348,0.440377,0.268017,-1.09533,0,0,0,0,0,0,0,0,0,0,0.265553,-0.510451,2.44222e-06,-1.7,1.91566e-38,0,0,0,0.364804,0.220348,0,0,0,0,0.440377,0.268017,1.9603e-19,0,0,0,0,0,0,0,0,0,2,-0.440696
7426,0.65918,0.0078125,-4.60254,-0.947803,-0.228957,-0.00936091,-0.0690425,-0.00353463,-1.09518,0,0,0,0.371314,0.224317,0.430447,0.262755,-1.09533,0,0,0,0,0,0,0,0,0,0,0.267453,-0.512182,2.44222e-06,-1.7,1.91566e-38,0,0,0,0.371314,0.224317,0,0,0,0,0.430447,0.262755,1.9603e-19,0,0,0,0,0,0,0,0,0,2,-0.448635
7440,0.926758,0.128906,2.65332,-0.636985,-0.16771,-0.0121491,-0.0801992,-0.00665173,-1.09518,0,0,0,0.377243,0.227939,0.419547,0.256337,-1.09518,0,0,0,0,0,0,0,0,0,0,0.26973,-0.513654,2.44222e-06,-1.7,1.91566e-38,0,0,0,0.377243,0.227939,0,0,0,0,0.419547,0.256337,1.9603e-19,0,0,0,0,0,0,0,0,0,2,-0.455878
7455,0.926758,0.128906,2.65332,-0.636985,-0.16771,-0.0121491,-0.0801992,-0.00665173,-1.09518,0,0,0,0.383421,0.231715,0.407276,0.248886,-1.09518,0,0,0,0,0,0,0,0,0,0,0.272446,-0.515081,2.44222e-06,-1.7,1.91566e-38,0,0,0,0.383421,0.231715,0,0,0,0,0.407276,0.248886,1.9603e-19,0,0,0,0,0,0,0,0,0,2,-0.46343
7470,0.983398,0.0390625,0.643555,-0.364893,-0.102164,-0.00797899,-0.0869484,-0.00852203,-1.09516,0,0,0,0.389405,0.23537,0.394201,0.240663,-1.09516,0,0,0,0,0,0,0,0,0,0,0.275452,-0.516379,2.44222e-06,-1.7,1.91566e-38,0,0,0,0.389405,0.23537,0,0,0,0,0.394201,0.240663,1.9603e-19,0,0,0,0,0,0,0,0,0,2,-0.47074
7485,0.962891,0.00195312,-0.970703,-0.154468,-0.051061,-0.00515511,-0.0901106,-0.00947889,-1.09519,0,0,0,0.395191,0.238899,0.380599,0.231919,-1.09519,0,0,0,0,0,0,0,0,0,0,0.278676,-0.517555,2.44222e-06,-1.7,1.91566e-38,0,0,0,0.395191,0.238899,0,0,0,0,0.380599,0.231919,1.9603e-19,0,0,0,0,0,0,0,0,0,2,-0.477797
7500,0.548828,0.00488281,0.734375,-0.247271,-0.0745015,-0.0348031,-0.0933762,-0.0105331,-1.09548,0,0,0,0.40077,0.242293,0.366734,0.222888,-1.09548,0,0,0,0,0,0,0,0,0,0,0.282115,-0.518561,2.44222e-06,-1.7,1.91566e-38,0,0,0,0.40077,0.242293,0,0,0,0,0.366734,0.222888,1.9603e-19,0,0,0,0,0,0,0,0,0,2,-0.484586
7514,0.239258,-0.0146484,4.95117,-0.26223,-0.0586984,-0.215783,-0.0976605,-0.0118424,-1.09784,0,0,0,0.405788,0.245337,0.353502,0.214164,-1.09784,0,0,0,0,0,0,0,0,0,0,0.286171,-0.518815,2.44222e-06,-1.7,1.91566e-38,0,0,0,0.405788,0.245337,0,0,0,0,0.353502,0.214164,1.9603e-19,0,0,0,0,0,0,0,0,0,2,-0.490674
7530,0.197266,-0.130859,6.27734,0.0445087,0.0734453,-0.606815,-0.0980163,-0.0119365,-1.10588,0,0,0,0.411288,0.24866,0.338144,0.204015,-1.10588,0,0,0,0,0,0,0,0,0,0,0.292756,-0.517441,3.66333e-06,-1.7,1.91566e-38,0,0,0,0.411288,0.24866,0,0,0,0,0.338144,0.204015,1.9603e-19,0,0,0,0,0,0,0,0,0,2,-0.49732
7545,-0.362305,-0.186523,-5.14355,-0.0536464,0.100175,-0.962945,-0.0961615,-0.0112052,-1.12151,0,0,0,0.416225,0.251632,0.323791,0.194692,-1.12151,0,0,0,0,0,0,0,0,0,0,0.30168,-0.51362,3.66333e-06,-1.7,1.91566e-38,0,0,0,0.416225,0.251632,0,0,0,0,0.323791,0.194692,1.9603e-19,0,0,0,0,0,0,0,0,0,2,-0.503264
7559,-1.16797,-0.0800781,0.15625,-1.06939,-0.16252,-1.03036,-0.108913,-0.0145985,-1.13796,0,0,0,0.42064,0.254284,0.310539,0.18635,-1.12151,0,0,0,0,0,0,0,0,0,0,0.304994,-0.514375,2.44222e-06,-1.7,1.91566e-38,0,0,0,0.42064,0.254284,0,0,0,0,0.310539,0.18635,1.9603e-19,0,0,0,0,0,0,0,0,0,2,-0.508568
7574,-0.0947266,0.274414,6.69043,-1.80717,-0.344248,-0.849324,-0.135091,-0.0213793,-1.1512,0,0,0,0.425146,0.256983,0.294809,0.176424,-1.13796,0,0,0,0,0,0,0,0,0,0,0.314589,-0.509934,2.44222e-06,-1.7,1.91566e-38,0,0,0,0.425146,0.256983,0,0,0,0,0.294809,0.176424,1.9603e-19,0,0,0,0,0,0,0,0,0,2,-0.513966
7589,-0.0947266,0.274414,6.69043,-1.80717,-0.344248,-0.849324,-0.135091,-0.0213793,-1.1512,0,0,0,0.429408,0.259528,0.277455,0.165328,-1.1512,0,0,0,0,0,0,0,0,0,0,0.323579,-0.506135,2.44222e-06,-1.7,1.91566e-38,0,0,0,0.429408,0.259528,0,0,0,0,0.277455,0.165328,1.9603e-19,0,0,0,0,0,0,0,0,0,2,-0.519055
7604,2.39648,0.697266,1.84668,-0.680649,-0.0693112,-0.503652,-0.153925,-0.0260641,-1.1606,0,0,0,0.433134,0.26174,0.259001,0.153395,-1.1606,0,0,0,0,0,0,0,0,0,0,0.331659,-0.503199,2.44222e-06,-1.7,1.91566e-38,0,0,0,0.433134,0.26174,0,0,0,0,0.259001,0.153395,1.9603e-19,0,0,0,0,0,0,0,0,0,2,-0.523479
7619,2.42969,0.0820312,3.05566,0.143743,0.0116554,0.114835,-0.149812,-0.0249781,-1.16088,0,0,0,0.437043,0.264042,0.236792,0.139033,-1.16088,0,0,0,0,0,0,0,0,0,0,0.333717,-0.501298,2.44222e-06,-1.7,1.91566e-38,0,0,0,0.437043,0.264042,0,0,0,0,0.236792,0.139033,1.9603e-19,0,0,0,0,0,0,0,0,0,2,-0.528084
7633,1.40332,-0.112305,5.78613,-0.56403,-0.244076,0.739234,-0.157501,-0.026559,-1.1501,0,0,0,0.440192,0.26588,0.217403,0.126375,-1.1501,0,0,0,0,0,0,0,0,0,0,0.33109,-0.502829,3.66333e-06,-1.7,1.91566e-38,0,0,0,0.440192,0.26588,0,0,0,0,0.217403,0.126375,1.9603e-19,0,0,0,0,0,0,0,0,0,2,-0.531761
7647,1.36621,0.0117188,-5.93848,-0.807895,-0.37598,1.12995,-0.170534,-0.0293955,-1.13283,0,0,0,0.442868,0.267423,0.198618,0.11369,-1.13283,0,0,0,0,0,0,0,0,0,0,0.326389,-0.506323,2.44222e-06,-1.7,1.91566e-38,0,0,0,0.442868,0.267423,0,0,0,0,0.198618,0.11369,1.9603e-19,0,0,0,0,0,0,0,0,0,2,-0.534846
7661,1.30371,0,2.7168,-0.763696,-0.402145,1.28172,-0.183237,-0.0319021,-1.11158,0,0,0,0.445632,0.26898,0.176348,0.0983123,-1.13283,0,0,0,0,0,0,0,0,0,0,0.327689,-0.503546,2.44222e-06,-1.7,1.91566e-38,0,0,0,0.445632,0.26898,0,0,0,0,0.176348,0.0983123,1.9603e-19,0,0,0,0,0,0,0,0,0,2,-0.537959
7676,0.986328,0.119141,-1.91309,-0.908907,-0.404444,1.28547,-0.197436,-0.0344008,-1.09091,0,0,0,0.448052,0.270291,0.153014,0.0814176,-1.11158,0,0,0,0,0,0,0,0,0,0,0.322204,-0.507237,2.44222e-06,-1.7,1.91566e-38,0,0,0,0.448052,0.270291,0,0,0,0,0.153014,0.0814176,1.9603e-19,0,0,0,0,0,0,0,0,0,2,-0.540582
7690,1.47363,0.0527344,-5.10645,-0.554231,-0.303175,1.14149,-0.209619,-0.0364208,-1.07,0,0,0,0.449991,0.271277,0.130105,0.064101,-1.09091,0,0,0,0,0,0,0,0,0,0,0.317028,-0.510422,2.44222e-06,-1.7,1.91566e-38,0,0,0,0.449991,0.271277,0,0,0,0,0.130105,0.064101,1.9603e-19,0,0,0,0,0,0,0,0,0,2,-0.542554
7705,1.70996,-0.00195312,-3.94043,0.332441,-0.0872598,0.864603,-0.208211,-0.0355409,-1.05501,0,0,0,0.451703,0.272056,0.105144,0.0447928,-1.07,0,0,0,0,0,0,0,0,0,0,0.312063,-0.513086,2.44222e-06,-1.7,1.91566e-38,0,0,0,0.451703,0.272056,0,0,0,0,0.105144,0.0447928,1.9603e-19,0,0,0,0,0,0,0,0,0,2,-0.544112
7720,1.70996,-0.00195312,-3.94043,0.332441,-0.0872598,0.864603,-0.208211,-0.0355409,-1.05501,0,0,0,0.453037,0.272534,0.0800737,0.0247739,-1.05501,0,0,0,0,0,0,0,0,0,0,0.309305,-0.513577,2.44222e-06,-1.7,1.91566e-38,0,0,0,0.453037,0.272534,0,0,0,0,0.0800737,0.0247739,1.9603e-19,0,0,0,0,0,0,0,0,0,2,-0.545069
7735,1.48242,0.0957031,5.47168,0.935651,0.190385,0.559799,-0.194314,-0.0317346,-1.04606,0,0,0,0.454009,0.272721,0.0561597,0.00544315,-1.04606,0,0,0,0,0,0,0,0,0,0,0.30863,-0.512231,2.44222e-06,-1.7,1.91566e-38,0,0,0,0.454009,0.272721,0,0,0,0,0.0561597,0.00544315,1.9603e-19,0,0,0,0,0,0,0,0,0,2,-0.545442
7750,1.55078,0.288086,2.46875,0.380764,0.467899,0.403858,-0.185844,-0.0239567,-1.04099,0,0,0,0.454638,0.272632,0.0335892,-0.0123374,-1.04099,0,0,0,0,0,0,0,0,0,0,0.309183,-0.509918,2.44222e-06,-1.7,1.91566e-38,0,0,0,0.454638,0.272632,0,0,0,0,0.0335892,-0.0123374,1.9603e-19,0,0,0,0,0,0,0,0,0,2,-0.545264
7764,1.85938,-0.303711,0.505859,0.0243436,0.237797,0.560394,-0.185323,-0.0166207,-1.03374,0,0,0,0.454924,0.272321,0.0128143,-0.0277363,-1.03374,0,0,0,0,0,0,0,0,0,0,0.308792,-0.508708,2.44222e-06,-1.7,1.91566e-38,0,0,0,0.454924,0.272321,0,0,0,0,0.0128143,-0.0277363,1.9603e-19,0,0,0,0,0,0,0,0,0,2,-0.544643
7779,1.63672,-0.380859,-2.99023,-0.507558,-0.152126,0.874226,-0.190977,-0.0155884,-1.02065,0,0,0,0.4549,0.271751,-0.00966752,-0.0438234,-1.02065,0,0,0,0,0,0,0,0,0,0,0.30664,-0.509052,2.44222e-06,-1.7,1.91566e-38,0,0,0,0.4549,0.271751,0,0,0,0,-0.00966752,-0.0438234,1.9603e-19,0,0,0,0,0,0,0,0,0,2,-0.543501
7795,1.80859,0.000976562,5.02148,-0.841018,-0.260087,1.12635,-0.204353,-0.0160535,-1.00346,0,0,0,0.454496,0.270869,-0.034392,-0.0618435,-1.00346,0,0,0,0,0,0,0,0,0,0,0.303502,-0.510102,3.66333e-06,-1.7,1.91566e-38,0,0,0,0.454496,0.270869,0,0,0,0,-0.034392,-0.0618435,1.9603e-19,0,0,0,0,0,0,0,0,0,2,-0.541738
7809,2.14062,-0.232422,-1.84277,-0.615298,-0.343869,1.27178,-0.214952,-0.0167767,-0.983329,0,0,0,0.453816,0.269855,-0.0568655,-0.0786757,-0.983329,0,0,0,0,0,0,0,0,0,0,0.299297,-0.512219,2.44222e-06,-1.7,1.91566e-38,0,0,0,0.453816,0.269855,0,0,0,0,-0.0568655,-0.0786757,1.9603e-19,0,0,0,0,0,0,0,0,0,2,-0.53971
7824,2.43945,-0.53125,2.52832,-0.706993,-0.412742,1.25026,-0.226276,-0.0186052,-0.961598,0,0,0,0.452724,0.268489,-0.081552,-0.0978427,-0.983329,0,0,0,0,0,0,0,0,0,0,0.302331,-0.507662,2.44222e-06,-1.7,1.91566e-38,0,0,0,0.452724,0.268489,0,0,0,0,-0.081552,-0.0978427,1.9603e-19,0,0,0,0,0,0,0,0,0,2,-0.536979
7838,2.43945,-0.53125,2.52832,-0.706993,-0.412742,1.25026,-0.226276,-0.0186052,-0.961598,0,0,0,0.451373,0.266948,-0.105189,-0.117238,-0.961598,0,0,0,0,0,0,0,0,0,0,0.298235,-0.509544,2.44222e-06,-1.7,1.91566e-38,0,0,0,0.451373,0.266948,0,0,0,0,-0.105189,-0.117238,1.9603e-19,0,0,0,0,0,0,0,0,0,2,-0.533895
7852,2.54102,-0.598633,-3.77344,-0.908709,-0.330828,1.37756,-0.240967,-0.019043,-0.938721,0,0,0,0.449695,0.265136,-0.129174,-0.137291,-0.938721,0,0,0,0,0,0,0,0,0,0,0.293988,-0.511503,2.44222e-06,-1.7,1.91566e-38,0,0,0,0.449695,0.265136,0,0,0,0,-0.129174,-0.137291,1.9603e-19,0,0,0,0,0,0,0,0,0,2,-0.530273
7867,2.54492,-0.499023,0.436523,-0.824749,-0.146535,1.63455,-0.25491,-0.0157492,-0.914397,0,0,0,0.447508,0.262863,-0.155975,-0.160374,-0.914397,0,0,0,0,0,0,0,0,0,0,0.289919,-0.513082,2.44222e-06,-1.7,1.91566e-38,0,0,0,0.447508,0.262863,0,0,0,0,-0.155975,-0.160374,1.9603e-19,0,0,0,0,0,0,0,0,0,2,-0.525726
7881,2.31445,-0.522461,1.02441,-0.73254,-0.0630287,1.88291,-0.267021,-0.00901346,-0.885787,0,0,0,0.445095,0.260419,-0.182136,-0.18312,-0.885787,0,0,0,0,0,0,0,0,0,0,0.284484,-0.515886,2.44222e-06,-1.7,1.91566e-38,0,0,0,0.445095,0.260419,0,0,0,0,-0.182136,-0.18312,1.9603e-19,0,0,0,0,0,0,0,0,0,2,-0.520837
7896,2.28809,-0.785156,-0.699219,-0.767432,-0.161228,2.07944,-0.278811,-0.00223974,-0.854708,0,0,0,0.442084,0.257429,-0.211225,-0.208542,-0.854708,0,0,0,0,0,0,0,0,0,0,0.278891,-0.518639,2.44222e-06,-1.7,1.91566e-38,0,0,0,0.442084,0.257429,0,0,0,0,-0.211225,-0.208542,1.9603e-19,0,0,0,0,0,0,0,0,0,2,-0.514858
7911,2.49609,-0.849609,2.47168,-0.674439,-0.267962,2.22557,-0.290935,0.00430037,-0.81755,0,0,0,0.438629,0.254047,-0.241095,-0.235035,-0.81755,0,0,0,0,0,0,0,0,0,0,0.271598,-0.522697,2.44222e-06,-1.7,1.91566e-38,0,0,0,0.438629,0.254047,0,0,0,0,-0.241095,-0.235035,1.9603e-19,0,0,0,0,0,0,0,0,0,2,-0.508094
7926,2.34473,-0.728516,-2.0625,-0.607972,-0.2338,2.28021,-0.299884,0.0110002,-0.782635,0,0,0,0.434717,0.250254,-0.271657,-0.262942,-0.782635,0,0,0,0,0,0,0,0,0,0,0.265568,-0.525709,2.44222e-06,-1.7,1.91566e-38,0,0,0,0.434717,0.250254,0,0,0,0,-0.271657,-0.262942,1.9603e-19,0,0,0,0,0,0,0,0,0,2,-0.500508
7941,2.10059,-0.650391,-1.24805,-0.6109,-0.156409,2.21465,-0.30901,0.0192018,-0.747651,0,0,0,0.430344,0.246032,-0.302488,-0.291656,-0.782635,0,0,0,0,0,0,0,0,0,0,0.272154,-0.519158,2.44222e-06,-1.7,1.91566e-38,0,0,0,0.430344,0.246032,0,0,0,0,-0.302488,-0.291656,1.9603e-19,0,0,0,0,0,0,0,0,0,2,-0.492064
7956,2.09277,-0.650391,0.583984,-0.62112,-0.0175382,2.11,-0.317589,0.0286795,-0.715998,0,0,0,0.425511,0.241376,-0.333889,-0.321478,-0.747651,0,0,0,0,0,0,0,0,0,0,0.267105,-0.521815,2.44222e-06,-1.7,1.91566e-38,0,0,0,0.425511,0.241376,0,0,0,0,-0.333889,-0.321478,1.9603e-19,0,0,0,0,0,0,0,0,0,2,-0.482753
7971,2.09277,-0.650391,0.583984,-0.62112,-0.0175382,2.11,-0.317589,0.0286795,-0.715998,0,0,0,0.420206,0.236272,-0.36564,-0.351758,-0.715998,0,0,0,0,0,0,0,0,0,0,0.263614,-0.52345,3.66333e-06,-1.7,1.91566e-38,0,0,0,0.420206,0.236272,0,0,0,0,-0.36564,-0.351758,1.9603e-19,0,0,0,0,0,0,0,0,0,2,-0.472544
7985,2.12598,-0.65918,6.46875,-0.692686,0.102862,2.1395,-0.327847,0.0416898,-0.6824,0,0,0,0.414821,0.231093,-0.396001,-0.380692,-0.6824,0,0,0,0,0,0,0,0,0,0,0.259365,-0.525913,2.44222e-06,-1.7,1.91566e-38,0,0,0,0.414821,0.231093,0,0,0,0,-0.396001,-0.380692,1.9603e-19,0,0,0,0,0,0,0,0,0,2,-0.462186
8000,2.15918,-0.848633,-0.324219,-0.605488,-0.0619529,2.30573,-0.336233,0.053504,-0.647934,0,0,0,0.408567,0.225084,-0.429622,-0.412678,-0.647934,0,0,0,0,0,0,0,0,0,0,0.255871,-0.528003,2.44222e-06,-1.7,1.91566e-38,0,0,0,0.408567,0.225084,0,0,0,0,-0.429622,-0.412678,1.9603e-19,0,0,0,0,0,0,0,0,0,2,-0.450168
8015,2.3457,-0.884766,-2.10742,-0.480617,-0.251602,2.31519,-0.341723,0.062339,-0.612542,0,0,0,0.401793,0.218578,-0.463715,-0.445559,-0.612542,0,0,0,0,0,0,0,0,0,0,0.252588,-0.530239,2.44222e-06,-1.7,1.91566e-38,0,0,0,0.401793,0.218578,0,0,0,0,-0.463715,-0.445559,1.9603e-19,0,0,0,0,0,0,0,0,0,2,-0.437157
8029,2.83789,-0.688477,-2.31152,-0.447417,-0.323243,2.07176,-0.346287,0.0689482,-0.579709,0,0,0,0.395026,0.212069,-0.495527,-0.477219,-0.579709,0,0,0,0,0,0,0,0,0,0,0.250116,-0.53222,2.44222e-06,-1.7,1.91566e-38,0,0,0,0.395026,0.212069,0,0,0,0,-0.495527,-0.477219,1.9603e-19,0,0,0,0,0,0,0,0,0,2,-0.424138
8043,2.91309,-0.928711,0.814453,-0.703517,-0.557645,1.9304,-0.354176,0.0724511,-0.546889,0,0,0,0.387815,0.205109,-0.52714,-0.509608,-0.546889,0,0,0,0,0,0,0,0,0,0,0.24813,-0.534215,2.44222e-06,-1.7,1.91566e-38,0,0,0,0.387815,0.205109,0,0,0,0,-0.52714,-0.509608,1.9603e-19,0,0,0,0,0,0,0,0,0,2,-0.410219
8058,2.5,-1.35449,5.23633,-0.896468,-0.918934,1.95408,-0.36613,0.0707176,-0.511685,0,0,0,0.380157,0.197675,-0.558448,-0.543371,-0.546889,0,0,0,0,0,0,0,0,0,0,0.258514,-0.527892,2.44222e-06,-1.7,1.91566e-38,0,0,0,0.380157,0.197675,0,0,0,0,-0.558448,-0.543371,1.9603e-19,0,0,0,0,0,0,0,0,0,2,-0.395351
8073,1.91992,-1.29492,-4.1582,-0.823013,-0.980005,1.9554,-0.376513,0.0673821,-0.477787,0,0,0,0.370867,0.188558,-0.593237,-0.584925,-0.511685,0,0,0,0,0,0,0,0,0,0,0.258947,-0.529453,2.44222e-06,-1.7,1.91566e-38,0,0,0,0.370867,0.188558,0,0,0,0,-0.593237,-0.584925,1.9603e-19,0,0,0,0,0,0,0,0,0,2,-0.377115
8087,1.44727,-1.0166,-0.308594,-0.617514,-0.73163,2.04747,-0.384599,0.0676368,-0.442819,0,0,0,0.362304,0.180025,-0.622392,-0.623716,-0.477787,0,0,0,0,0,0,0,0,0,0,0.259167,-0.531604,2.44222e-06,-1.7,1.91566e-38,0,0,0,0.362304,0.180025,0,0,0,0,-0.622392,-0.623716,1.9603e-19,0,0,0,0,0,0,0,0,0,2,-0.360049
8102,1.44727,-1.0166,-0.308594,-0.617514,-0.73163,2.04747,-0.384599,0.0676368,-0.442819,0,0,0,0.35267,0.170263,-0.652892,-0.666256,-0.442819,0,0,0,0,0,0,0,0,0,0,0.260541,-0.533798,2.44222e-06,-1.7,1.91566e-38,0,0,0,0.35267,0.170263,0,0,0,0,-0.652892,-0.666256,1.9603e-19,0,0,0,0,0,0,0,0,0,2,-0.340526
8117,1.41211,-0.995117,-0.665039,-0.220304,-0.437913,2.03061,-0.386774,0.0727649,-0.40939,0,0,0,0.342589,0.159848,-0.682416,-0.710047,-0.40939,0,0,0,0,0,0,0,0,0,0,0.263205,-0.535875,2.44222e-06,-1.7,1.91566e-38,0,0,0,0.342589,0.159848,0,0,0,0,-0.682416,-0.710047,1.9603e-19,0,0,0,0,0,0,0,0,0,2,-0.319696
8132,1.59375,-1.05273,4.83789,0.0632943,-0.164766,1.88356,-0.383386,0.0816389,-0.377544,0,0,0,0.332074,0.14877,-0.711096,-0.754244,-0.377544,0,0,0,0,0,0,0,0,0,0,0.266984,-0.537957,2.44222e-06,-1.7,1.91566e-38,0,0,0,0.332074,0.14877,0,0,0,0,-0.711096,-0.754244,1.9603e-19,0,0,0,0,0,0,0,0,0,2,-0.297539
8147,1.88574,-0.748047,-4.41992,-0.0676141,0.0709169,1.61615,-0.381091,0.0917309,-0.353438,0,0,0,0.321135,0.137031,-0.739344,-0.798157,-0.353438,0,0,0,0,0,0,0,0,0,0,0.273951,-0.538455,2.44222e-06,-1.7,1.91566e-38,0,0,0,0.321135,0.137031,0,0,0,0,-0.739344,-0.798157,1.9603e-19,0,0,0,0,0,0,0,0,0,2,-0.274061
8162,1.98242,-0.673828,1.16113,-0.188493,0.0597114,1.33278,-0.381836,0.101318,-0.333252,0,0,0,0.309778,0.124648,-0.767703,-0.841878,-0.333252,0,0,0,0,0,0,0,0,0,0,0.282727,-0.53831,2.44222e-06,-1.7,1.91566e-38,0,0,0,0.309778,0.124648,0,0,0,0,-0.767703,-0.841878,1.9603e-19,0,0,0,0,0,0,0,0,0,2,-0.249295
8177,1.79492,-0.852539,4.22461,-0.113844,-0.148294,1.14748,-0.381579,0.106576,-0.315602,0,0,0,0.297996,0.111609,-0.796085,-0.885556,-0.315602,0,0,0,0,0,0,0,0,0,0,0.292839,-0.53783,2.44222e-06,-1.7,1.91566e-38,0,0,0,0.297996,0.111609,0,0,0,0,-0.796085,-0.885556,1.9603e-19,0,0,0,0,0,0,0,0,0,2,-0.223218
8192,1.8584,-0.818359,-4.62598,-0.116054,-0.173779,0.994176,-0.381212,0.10991,-0.298233,0,0,0,0.28579,0.097915,-0.824144,-0.929221,-0.298233,0,0,0,0,0,0,0,0,0,0,0.303462,-0.537642,2.44222e-06,-1.7,1.91566e-38,0,0,0,0.28579,0.097915,0,0,0,0,-0.824144,-0.929221,1.9603e-19,0,0,0,0,0,0,0,0,0,2,-0.19583
8206,2.01953,-0.657227,3.2207,-0.184756,-0.0119854,1.03434,-0.38201,0.11507,-0.283319,0,0,0,0.274024,0.0845441,-0.849849,-0.970017,-0.298233,0,0,0,0,0,0,0,0,0,0,0.319601,-0.532681,2.44222e-06,-1.7,1.91566e-38,0,0,0,0.274024,0.0845441,0,0,0,0,-0.849849,-0.970017,1.9603e-19,0,0,0,0,0,0,0,0,0,2,-0.169088
8222,1.86816,-0.685547,5.41113,-0.210174,0.0609863,1.16351,-0.38298,0.122448,-0.26708,0,0,0,0.260119,0.0685323,-0.879103,-1.01677,-0.283319,0,0,0,0,0,0,0,0,0,0,0.333133,-0.531902,2.44222e-06,-1.7,1.91566e-38,0,0,0,0.260119,0.0685323,0,0,0,0,-0.879103,-1.01677,1.9603e-19,0,0,0,0,0,0,0,0,0,2,-0.137065
8236,1.86816,-0.685547,5.41113,-0.210174,0.0609863,1.16351,-0.38298,0.122448,-0.26708,0,0,0,0.247583,0.0539339,-0.904832,-1.05778,-0.26708,0,0,0,0,0,0,0,0,0,0,0.344213,-0.532632,2.44222e-06,-1.7,1.91566e-38,0,0,0,0.247583,0.0539339,0,0,0,0,-0.904832,-1.05778,1.9603e-19,0,0,0,0,0,0,0,0,0,2,-0.107868
8250,1.63574,-0.751953,-4.36523,-0.273783,0.0493379,1.15366,-0.384444,0.130003,-0.250338,0,0,0,0.234688,0.0387628,-0.930541,-1.09873,-0.250338,0,0,0,0,0,0,0,0,0,0,0.355436,-0.533929,2.44222e-06,-1.7,1.91566e-38,0,0,0,0.234688,0.0387628,0,0,0,0,-0.930541,-1.09873,1.9603e-19,0,0,0,0,0,0,0,0,0,2,-0.0775257
8265,1.42969,-0.666016,2.36914,-0.408175,0.0800502,0.917033,-0.388344,0.136948,-0.235557,0,0,0,0.220463,0.0218556,-0.958297,-1.14298,-0.235557,0,0,0,0,0,0,0,0,0,0,0.36906,-0.534589,2.44222e-06,-1.7,1.91566e-38,0,0,0,0.220463,0.0218556,0,0,0,0,-0.958297,-1.14298,1.9603e-19,0,0,0,0,0,0,0,0,0,2,-0.0437112
8280,1.17773,-0.598633,-7.22363,-0.341126,0.158676,0.65057,-0.392635,0.143253,-0.226001,0,0,0,0.205817,0.00427922,-0.986399,-1.18777,-0.226001,0,0,0,0,0,0,0,0,0,0,0.38508,-0.533621,2.44222e-06,-1.7,1.91566e-38,0,0,0,0.205817,0.00427922,0,0,0,0,-0.986399,-1.18777,1.9603e-19,0,0,0,0,0,0,0,0,0,2,-0.00855844
8295,1.21387,-0.740234,-2.0459,-0.0527059,0.229418,0.476812,-0.393005,0.149123,-0.219913,0,0,0,0.190747,-0.0139727,-1.01493,-1.23278,-0.219913,0,0,0,0,0,0,0,0,0,0,0.402773,-0.531513,2.44222e-06,-1.7,1.91566e-38,0,0,0,0.190747,-0.0139727,0,0,0,0,-1.01493,-1.23278,1.9603e-19,0,0,0,0,0,0,0,0,0,2,0.0279454
8310,1.47949,-0.879883,-2.65234,-0.0704372,0.464585,0.423855,-0.39247,0.157532,-0.216061,0,0,0,0.175252,-0.0328855,-1.04391,-1.27749,-0.216061,0,0,0,0,0,0,0,0,0,0,0.42155,-0.528638,2.44222e-06,-1.7,1.91566e-38,0,0,0,0.175252,-0.0328855,0,0,0,0,-1.04391,-1.27749,1.9603e-19,0,0,0,0,0,0,0,0,0,2,0.0657709
8325,1.73633,-0.669922,-1.74609,-0.140126,0.88857,0.513537,-0.39388,0.172043,-0.213458,0,0,0,0.159313,-0.0524645,-1.07405,-1.32175,-0.213458,0,0,0,0,0,0,0,0,0,0,0.441007,-0.525316,2.44222e-06,-1.7,1.91566e-38,0,0,0,0.159313,-0.0524645,0,0,0,0,-1.07405,-1.32175,1.9603e-19,0,0,0,0,0,0,0,0,0,2,0.104929
8340,1.6582,-0.371094,2.61328,-0.115396,1.39781,0.440401,-0.395816,0.195286,-0.214346,0,0,0,0.142906,-0.0727039,-1.10556,-1.36565,-0.213458,0,0,0,0,0,0,0,0,0,0,0.461624,-0.520847,2.44222e-06,-1.7,1.91566e-38,0,0,0,0.142906,-0.0727039,0,0,0,0,-1.10556,-1.36565,1.9603e-19,0,0,0,0,0,0,0,0,0,2,0.145408
8355,1.50488,-0.0722656,-5.89355,0.131525,1.81336,0.140449,-0.395854,0.220957,-0.221724,0,0,0,0.125993,-0.0935958,-1.14059,-1.40891,-0.214346,0,0,0,0,0,0,0,0,0,0,0.482706,-0.515915,3.66333e-06,-1.7,1.91566e-38,0,0,0,0.125993,-0.0935958,0,0,0,0,-1.14059,-1.40891,1.9603e-19,0,0,0,0,0,0,0,0,0,2,0.187192
8370,1.47168,0.141602,-0.599609,0.274768,2.18723,-0.211507,-0.394965,0.2501,-0.236932,0,0,0,0.108542,-0.11513,-1.17801,-1.45128,-0.221724,0,0,0,0,0,0,0,0,0,0,0.506049,-0.507647,2.44222e-06,-1.7,1.91566e-38,0,0,0,0.108542,-0.11513,0,0,0,0,-1.17801,-1.45128,1.9603e-19,0,0,0,0,0,0,0,0,0,2,0.230261
8385,1.47168,0.141602,-0.599609,0.274768,2.18723,-0.211507,-0.394965,0.2501,-0.236932,0,0,0,0.0917132,-0.135789,-1.21717,-1.4893,-0.236932,0,0,0,0,0,0,0,0,0,0,0.526558,-0.49617,2.44222e-06,-1.7,1.91566e-38,0,0,0,0.0917132,-0.135789,0,0,0,0,-1.21717,-1.4893,1.9603e-19,0,0,0,0,0,0,0,0,0,2,0.271578
8399,1.68164,0.121094,6.41504,0.442753,2.17094,-0.39686,-0.393469,0.279978,-0.256631,0,0,0,0.0730213,-0.15851,-1.26336,-1.52819,-0.256631,0,0,0,0,0,0,0,0,0,0,0.532793,-0.485736,2.44222e-06,-1.7,1.91566e-38,0,0,0,0.0730213,-0.15851,0,0,0,0,-1.26336,-1.52819,1.9603e-19,0,0,0,0,0,0,0,0,0,2,0.31702
8414,2.22363,-0.0986328,-5.43457,0.765849,1.68568,-0.463734,-0.387158,0.305168,-0.276439,0,0,0,0.0535977,-0.181777,-1.3147,-1.56413,-0.276439,0,0,0,0,0,0,0,0,0,0,0.538855,-0.475121,3.66333e-06,-1.7,1.91566e-38,0,0,0,0.0535977,-0.181777,0,0,0,0,-1.3147,-1.56413,1.9603e-19,0,0,0,0,0,0,0,0,0,2,0.363555
8429,2.96289,-0.364258,3.06934,1.03067,0.962485,-0.416174,-0.375436,0.318618,-0.290132,0,0,0,0.0333568,-0.205565,-1.36895,-1.59702,-0.290132,0,0,0,0,0,0,0,0,0,0,0.542921,-0.467715,2.44222e-06,-1.7,1.91566e-38,0,0,0,0.0333568,-0.205565,0,0,0,0,-1.36895,-1.59702,1.9603e-19,0,0,0,0,0,0,0,0,0,2,0.411129
8443,3.57422,-0.630859,-1.54004,1.02645,0.269096,-0.377304,-0.361205,0.322059,-0.298542,0,0,0,0.0137354,-0.228174,-1.4204,-1.62466,-0.298542,0,0,0,0,0,0,0,0,0,0,0.545369,-0.463139,2.44222e-06,-1.7,1.91566e-38,0,0,0,0.0137354,-0.228174,0,0,0,0,-1.4204,-1.62466,1.9603e-19,0,0,0,0,0,0,0,0,0,2,0.456347
8458,3.59766,-1.0625,-3.27344,0.875082,-0.278704,-0.506307,-0.349153,0.316553,-0.304615,0,0,0,-0.00810081,-0.252812,-1.47503,-1.6522,-0.304615,0,0,0,0,0,0,0,0,0,0,0.547112,-0.459821,2.44222e-06,-1.7,1.91566e-38,0,0,0,-0.00810081,-0.252812,0,0,0,0,-1.47503,-1.6522,1.9603e-19,0,0,0,0,0,0,0,0,0,2,0.505624
8473,3.2793,-1.42969,0.736328,0.818541,-0.497951,-0.782174,-0.338383,0.30456,-0.313504,0,0,0,-0.0307397,-0.277843,-1.52784,-1.6776,-0.313504,0,0,0,0,0,0,0,0,0,0,0.549627,-0.454947,2.44222e-06,-1.7,1.91566e-38,0,0,0,-0.0307397,-0.277843,0,0,0,0,-1.52784,-1.6776,1.9603e-19,0,0,0,0,0,0,0,0,0,2,0.555685
8488,2.91406,-1.41211,6.43359,0.904824,-0.193619,-1.03278,-0.328072,0.294435,-0.327986,0,0,0,-0.0541467,-0.303237,-1.5784,-1.70136,-0.313504,0,0,0,0,0,0,0,0,0,0,0.549627,-0.454947,2.44222e-06,-1.7,1.91566e-38,0,0,0,-0.0541467,-0.303237,0,0,0,0,-1.5784,-1.70136,1.9603e-19,0,0,0,0,0,0,0,0,0,2,0.606473
8503,2.66406,-1.32031,-3.64746,1.14594,0.271379,-1.05841,-0.316323,0.291549,-0.345414,0,0,0,-0.0782926,-0.328966,-1.62695,-1.72297,-0.327986,0,0,0,0,0,0,0,0,0,0,0.553631,-0.446958,2.44222e-06,-1.7,1.91566e-38,0,0,0,-0.0782926,-0.328966,0,0,0,0,-1.62695,-1.72297,1.9603e-19,0,0,0,0,0,0,0,0,0,2,0.657932
8518,2.66406,-1.32031,-3.64746,1.14594,0.271379,-1.05841,-0.316323,0.291549,-0.345414,0,0,0,-0.103162,-0.355011,-1.67484,-1.74304,-0.345414,0,0,0,0,0,0,0,0,0,0,0.558296,-0.437269,2.44222e-06,-1.7,1.91566e-38,0,0,0,-0.103162,-0.355011,0,0,0,0,-1.67484,-1.74304,1.9603e-19,0,0,0,0,0,0,0,0,0,2,0.710023
8533,2.66406,-1.32031,-3.64746,1.14594,0.271379,-1.05841,-0.316323,0.291549,-0.345414,0,0,0,-0.128742,-0.381338,-1.72212,-1.76175,-0.345414,0,0,0,0,0,0,0,0,0,0,0.558296,-0.437269,2.44222e-06,-1.7,1.91566e-38,0,0,0,-0.128742,-0.381338,0,0,0,0,-1.72212,-1.76175,1.9603e-19,0,0,0,0,0,0,0,0,0,2,0.762676
8549,3.31543,-1.16016,-5.44727,1.44781,0.690666,-0.832203,-0.28204,0.301786,-0.379855,0,0,0,-0.156823,-0.409723,-1.77232,-1.77859,-0.379855,0,0,0,0,0,0,0,0,0,0,0.567015,-0.417888,2.44222e-06,-1.7,1.91566e-38,0,0,0,-0.156823,-0.409723,0,0,0,0,-1.77232,-1.77859,1.9603e-19,0,0,0,0,0,0,0,0,0,2,0.819445
8564,3.74219,-1.35742,-2.77832,1.3816,0.375576,-0.853481,-0.263172,0.30529,-0.396514,0,0,0,-0.183849,-0.436499,-1.81905,-1.78807,-0.396514,0,0,0,0,0,0,0,0,0,0,0.570992,-0.408409,2.44222e-06,-1.7,1.91566e-38,0,0,0,-0.183849,-0.436499,0,0,0,0,-1.81905,-1.78807,1.9603e-19,0,0,0,0,0,0,0,0,0,2,0.872998
8579,3.91992,-1.65137,4.24805,1.21324,-0.0162163,-1.02446,-0.248702,0.30203,-0.412226,0,0,0,-0.21158,-0.463385,-1.86476,-1.79409,-0.412226,0,0,0,0,0,0,0,0,0,0,0.574597,-0.399409,2.44222e-06,-1.7,1.91566e-38,0,0,0,-0.21158,-0.463385,0,0,0,0,-1.86476,-1.79409,1.9603e-19,0,0,0,0,0,0,0,0,0,2,0.926769
8594,3.66504,-1.9502,0.178711,0.988031,-0.265634,-1.24497,-0.238364,0.293877,-0.430338,0,0,0,-0.239969,-0.490333,-1.90879,-1.79762,-0.430338,0,0,0,0,0,0,0,0,0,0,0.578578,-0.388965,2.44222e-06,-1.7,1.91566e-38,0,0,0,-0.239969,-0.490333,0,0,0,0,-1.90879,-1.79762,1.9603e-19,0,0,0,0,0,0,0,0,0,2,0.980667
8609,3.18457,-2.19727,-3.32129,1.02757,-0.303411,-1.40595,-0.229015,0.284051,-0.450948,0,0,0,-0.269013,-0.517319,-1.95107,-1.79944,-0.450948,0,0,0,0,0,0,0,0,0,0,0.582875,-0.376997,2.44222e-06,-1.7,1.91566e-38,0,0,0,-0.269013,-0.517319,0,0,0,0,-1.95107,-1.79944,1.9603e-19,0,0,0,0,0,0,0,0,0,2,1.03464
8625,2.71777,-2.21484,1.49023,1.18445,-0.122067,-1.4366,-0.216085,0.275639,-0.475208,0,0,0,-0.298671,-0.544313,-1.99124,-1.79925,-0.475208,0,0,0,0,0,0,0,0,0,0,0.587617,-0.362798,2.44222e-06,-1.7,1.91566e-38,0,0,0,-0.298671,-0.544313,0,0,0,0,-1.99124,-1.79925,1.9603e-19,0,0,0,0,0,0,0,0,0,2,1.08863
8639,2.49707,-2.13477,-3.84668,1.10869,0.121263,-1.36478,-0.204441,0.27228,-0.497255,0,0,0,-0.328913,-0.571281,-2.02962,-1.7969,-0.497255,0,0,0,0,0,0,0,0,0,0,0.591627,-0.349798,2.44222e-06,-1.7,1.91566e-38,0,0,0,-0.328913,-0.571281,0,0,0,0,-2.02962,-1.7969,1.9603e-19,0,0,0,0,0,0,0,0,0,2,1.14256
8653,2.58984,-2.06348,-5.15625,1.05294,0.187801,-1.32704,-0.193909,0.271102,-0.519635,0,0,0,-0.357627,-0.596402,-2.06425,-1.79274,-0.497255,0,0,0,0,0,0,0,0,0,0,0.591627,-0.349798,2.44222e-06,-1.7,1.91566e-38,0,0,0,-0.357627,-0.596402,0,0,0,0,-2.06425,-1.79274,1.9603e-19,0,0,0,0,0,0,0,0,0,2,1.1928
8668,2.58984,-2.06348,-5.15625,1.05294,0.187801,-1.32704,-0.193909,0.271102,-0.519635,0,0,0,-0.388935,-0.623243,-2.10061,-1.78686,-0.519635,0,0,0,0,0,0,0,0,0,0,0.595403,-0.336514,2.44222e-06,-1.7,1.91566e-38,0,0,0,-0.388935,-0.623243,0,0,0,0,-2.10061,-1.78686,1.9603e-19,0,0,0,0,0,0,0,0,0,2,1.24649
8683,2.75586,-2.24902,2.29199,1.03802,-0.0139661,-1.32672,-0.183349,0.267966,-0.540641,0,0,0,-0.420788,-0.649976,-2.13591,-1.77917,-0.540641,0,0,0,0,0,0,0,0,0,0,0.598676,-0.323972,2.44222e-06,-1.7,1.91566e-38,0,0,0,-0.420788,-0.649976,0,0,0,0,-2.13591,-1.77917,1.9603e-19,0,0,0,0,0,0,0,0,0,2,1.29995
8698,2.8916,-2.44824,-0.503906,0.752676,-0.308236,-1.46412,-0.176266,0.259877,-0.563294,0,0,0,-0.453157,-0.676575,-2.1696,-1.76968,-0.563294,0,0,0,0,0,0,0,0,0,0,0.601909,-0.310374,2.44222e-06,-1.7,1.91566e-38,0,0,0,-0.453157,-0.676575,0,0,0,0,-2.1696,-1.76968,1.9603e-19,0,0,0,0,0,0,0,0,0,2,1.35315
8713,2.57422,-2.64746,4.40332,0.507324,-0.606468,-1.65616,-0.17413,0.246819,-0.588082,0,0,0,-0.486004,-0.703024,-2.20136,-1.75929,-0.588082,0,0,0,0,0,0,0,0,0,0,0.605093,-0.295413,2.44222e-06,-1.7,1.91566e-38,0,0,0,-0.486004,-0.703024,0,0,0,0,-2.20136,-1.75929,1.9603e-19,0,0,0,0,0,0,0,0,0,2,1.40605
8728,2.07715,-2.84668,5.81445,0.485458,-0.803375,-1.8489,-0.173028,0.230148,-0.614401,0,0,0,-0.519315,-0.729311,-2.23092,-1.74878,-0.614401,0,0,0,0,0,0,0,0,0,0,0.608067,-0.279448,2.44222e-06,-1.7,1.91566e-38,0,0,0,-0.519315,-0.729311,0,0,0,0,-2.23092,-1.74878,1.9603e-19,0,0,0,0,0,0,0,0,0,2,1.45862
8743,1.93945,-2.97559,2.46973,0.589243,-0.710618,-1.92192,-0.170558,0.21368,-0.642457,0,0,0,-0.553039,-0.755445,-2.25806,-1.73837,-0.642457,0,0,0,0,0,0,0,0,0,0,0.610773,-0.262349,2.44222e-06,-1.7,1.91566e-38,0,0,0,-0.553039,-0.755445,0,0,0,0,-2.25806,-1.73837,1.9603e-19,0,0,0,0,0,0,0,0,0,2,1.51089
8758,2.20117,-2.97852,-5.56543,0.577902,-0.413373,-1.84028,-0.167053,0.201231,-0.671217,0,0,0,-0.587157,-0.78142,-2.28319,-1.72787,-0.671217,0,0,0,0,0,0,0,0,0,0,0.613048,-0.244749,2.44222e-06,-1.7,1.91566e-38,0,0,0,-0.587157,-0.78142,0,0,0,0,-2.28319,-1.72787,1.9603e-19,0,0,0,0,0,0,0,0,0,2,1.56284
8773,2.55176,-2.88672,-7.08301,0.473693,-0.101145,-1.72391,-0.164551,0.193848,-0.700684,0,0,0,-0.621627,-0.807236,-2.30667,-1.71702,-0.700684,0,0,0,0,0,0,0,0,0,0,0.614854,-0.226656,2.44222e-06,-1.7,1.91566e-38,0,0,0,-0.621627,-0.807236,0,0,0,0,-2.30667,-1.71702,1.9603e-19,0,0,0,0,0,0,0,0,0,2,1.61447
8788,2.68555,-2.92188,-0.532227,0.419124,-0.0318739,-1.68485,-0.163179,0.189391,-0.727733,0,0,0,-0.656443,-0.832881,-2.32903,-1.70561,-0.700684,0,0,0,0,0,0,0,0,0,0,0.614854,-0.226656,2.44222e-06,-1.7,1.91566e-38,0,0,0,-0.656443,-0.832881,0,0,0,0,-2.32903,-1.70561,1.9603e-19,0,0,0,0,0,0,0,0,0,2,1.66576
8803,2.49219,-2.97266,-0.938477,0.348461,-0.083337,-1.6985,-0.162753,0.184296,-0.75407,0,0,0,-0.691581,-0.858352,-2.35059,-1.69354,-0.727733,0,0,0,0,0,0,0,0,0,0,0.616041,-0.210008,2.44222e-06,-1.7,1.91566e-38,0,0,0,-0.691581,-0.858352,0,0,0,0,-2.35059,-1.69354,1.9603e-19,0,0,0,0,0,0,0,0,0,2,1.7167
8818,2.25,-2.95312,6.24316,0.368348,-0.110739,-1.60915,-0.161823,0.178538,-0.780075,0,0,0,-0.727036,-0.883637,-2.37135,-1.68104,-0.75407,0,0,0,0,0,0,0,0,0,0,0.616764,-0.193773,3.66333e-06,-1.7,1.91566e-38,0,0,0,-0.727036,-0.883637,0,0,0,0,-2.37135,-1.68104,1.9603e-19,0,0,0,0,0,0,0,0,0,2,1.76727
8833,2.25,-2.95312,6.24316,0.368348,-0.110739,-1.60915,-0.161823,0.178538,-0.780075,0,0,0,-0.762804,-0.908732,-2.39157,-1.66838,-0.780075,0,0,0,0,0,0,0,0,0,0,0.617058,-0.177729,2.44222e-06,-1.7,1.91566e-38,0,0,0,-0.762804,-0.908732,0,0,0,0,-2.39157,-1.66838,1.9603e-19,0,0,0,0,0,0,0,0,0,2,1.81746
8847,1.98926,-2.79102,4.95605,0.294334,0.00151736,-1.39085,-0.160779,0.17419,-0.804728,0,0,0,-0.796448,-0.931982,-2.40973,-1.65623,-0.804728,0,0,0,0,0,0,0,0,0,0,0.616951,-0.162518,2.44222e-06,-1.7,1.91566e-38,0,0,0,-0.796448,-0.931982,0,0,0,0,-2.40973,-1.65623,1.9603e-19,0,0,0,0,0,0,0,0,0,2,1.86396
8861,2.01953,-2.42871,-1.23145,0.304449,0.295736,-1.06573,-0.159757,0.17495,-0.823518,0,0,0,-0.830341,-0.955059,-2.42741,-1.64354,-0.823518,0,0,0,0,0,0,0,0,0,0,0.616618,-0.150928,2.44222e-06,-1.7,1.91566e-38,0,0,0,-0.830341,-0.955059,0,0,0,0,-2.42741,-1.64354,1.9603e-19,0,0,0,0,0,0,0,0,0,2,1.91012
8876,2.11328,-2.03027,-1.02148,0.4747,0.669682,-0.891904,-0.155736,0.181987,-0.839021,0,0,0,-0.866934,-0.979574,-2.44627,-1.62887,-0.839021,0,0,0,0,0,0,0,0,0,0,0.61618,-0.141372,2.44222e-06,-1.7,1.91566e-38,0,0,0,-0.866934,-0.979574,0,0,0,0,-2.44627,-1.62887,1.9603e-19,0,0,0,0,0,0,0,0,0,2,1.95915
8891,2.08008,-1.71973,4.82812,0.569607,0.853924,-0.999102,-0.150357,0.19297,-0.856603,0,0,0,-0.903806,-1.00386,-2.46524,-1.61263,-0.856603,0,0,0,0,0,0,0,0,0,0,0.615503,-0.130543,2.44222e-06,-1.7,1.91566e-38,0,0,0,-0.903806,-1.00386,0,0,0,0,-2.46524,-1.61263,1.9603e-19,0,0,0,0,0,0,0,0,0,2,2
8906,2.04395,-1.62109,4.11328,0.655034,0.752318,-1.18076,-0.144023,0.20319,-0.877648,0,0,0,-0.940965,-1.02788,-2.48439,-1.59444,-0.877648,0,0,0,0,0,0,0,0,0,0,0.614443,-0.117601,2.44222e-06,-1.7,1.91566e-38,0,0,0,-0.940965,-1.02788,0,0,0,0,-2.48439,-1.59444,1.9603e-19,0,0,0,0,0,0,0,0,0,2,2
8920,1.96777,-1.6377,3.44043,0.738657,0.509789,-1.26663,-0.137152,0.209137,-0.899411,0,0,0,-0.975905,-1.05003,-2.50223,-1.57554,-0.877648,0,0,0,0,0,0,0,0,0,0,0.614443,-0.117601,2.44222e-06,-1.7,1.91566e-38,0,0,0,-0.975905,-1.05003,0,0,0,0,-2.50223,-1.57554,1.9603e-19,0,0,0,0,0,0,0,0,0,2,2
8935,1.93457,-1.56836,-3.83008,0.652109,0.417573,-1.16301,-0.13048,0.213081,-0.919808,0,0,0,-1.01362,-1.07345,-2.52076,-1.55332,-0.899411,0,0,0,0,0,0,0,0,0,0,0.61306,-0.104243,2.44222e-06,-1.7,1.91566e-38,0,0,0,-1.01362,-1.07345,0,0,0,0,-2.52076,-1.55332,1.9603e-19,0,0,0,0,0,0,0,0,0,2,2
