timestamp,A_x,A_y,A_z,P,Q,R,Phi,Theta,Psi,poseX,poseY,poseZ,state_X,state_Y,state_Z,state_VzB,state_Bx,state_By,state_Bz,p1_x,p1_y,p2_x,p2_y,p3_x,p3_y,p4_x,p4_y,roll,pitch,yaw,alt,targetHeading,highLevelState,lowLevelState,gateNumber,filtered_x,filtered_y,x_OT,y_OT,vx_OT,vy_OT,filtered_vx,filtered_vygateArearansac_corr_x,ransac_corr_y,ransac_corr_vx,ransac_corr_vy,detectionTimeStamppTermX,dTermX,pTermY,dTermY,vxcmd,vycmd
6012,0.55957,-0.147461,6.62207,-0.000574217,0.000484387,0.000930782,-0.0737352,0.0350812,0.0445653,0,0,0,-1.03326e-05,-2.44982e-05,-0.0021902,-0.00519266,0.0445569,0,0,0,0,0,0,0,0,0,0,-0.0181261,-0.610402,0.00469354,-1.5,3.89878e-38,0,0,1,-1.03326e-05,-2.44982e-05,-0.046875,-0.0390625,-0.00999832,-0.0199986,-0.0021902,-0.00519266,1.9603e-19,0,0,0,0,0,0,0,0,0,2.5,4.89964e-05
6028,0.445312,-0.147461,2.32617,0.000334231,-5.32631e-05,0.000149721,-0.0732703,0.0348503,0.0442771,0,0,0,-9.4749e-05,-0.000224553,-0.00714961,-0.0169369,0.0444171,0,0,0,0,0,0,0,0,0,0,-0.015032,-0.610539,0.0156138,-1.5,3.89878e-38,0,0,2,-9.4749e-05,-0.000224553,-0.046875,-0.0390625,0,0,-0.00714961,-0.0169369,1.9603e-19,0,0,0,0,0,0,0,0,0,2.5,0.000449106
6045,0.454102,-0.147461,6.84668,-0.000374833,-0.000729681,-9.37486e-05,-0.072785,0.0345838,0.0439872,0,0,0,-0.000272162,-0.000644531,-0.0123558,-0.0292443,0.0440856,0,0,0,0,0,0,0,0,0,0,-0.0116038,-0.610689,0.0296634,-1.5,3.89878e-38,0,0,3,-0.000272162,-0.000644531,-0.046875,-0.0390625,0,0,-0.0123558,-0.0292443,1.9603e-19,0,0,0,0,0,0,0,0,0,2.5,0.00128906
6062,0.5625,-0.147461,-2.45898,-5.9998e-05,0.000249886,-0.00126736,-0.072361,0.0343841,0.0438289,0,0,0,-0.000557197,-0.00131905,-0.0177883,-0.042089,0.0438908,0,0,0,0,0,0,0,0,0,0,-0.00797381,-0.610847,0.0217068,-1.5,3.89878e-38,0,0,0,-0.000557197,-0.00131905,-0.046875,-0.0390625,0,0,-0.0177883,-0.042089,1.9603e-19,0,0,0,0,0,0,0,0,0,2.5,0.00263809
6078,0.588867,-0.147461,4.67676,0.00028645,-0.000134044,0.000316127,-0.0723491,0.0343769,0.0438246,0,0,0,-0.000891902,-0.00211094,-0.0225519,-0.0533554,0.0438246,0,0,0,0,0,0,0,0,0,0,-0.00473546,-0.610988,0.0244031,-1.5,3.89878e-38,0,0,1,-0.000891902,-0.00211094,-0.046875,-0.0390625,0,0,-0.0225519,-0.0533554,1.9603e-19,0,0,0,0,0,0,0,0,0,2.5,0.00422189
6094,0.588867,-0.147461,2.84375,-0.00140032,0.000603844,-0.000339327,-0.0723436,0.0343792,0.0438171,0,0,0,-0.00130245,-0.00308222,-0.0272806,-0.0645384,0.0438171,0,0,0,0,0,0,0,0,0,0,-0.00145395,-0.611132,0.0399632,-1.5,3.89878e-38,0,0,2,-0.00130245,-0.00308222,-0.046875,-0.0390625,0,0.00999832,-0.0272806,-0.0645384,1.9603e-19,0,0,0,0,0,0,0,0,0,2.5,0.00616444
6110,0.583984,-0.147461,4.75,-0.000492561,0.000318941,-0.000398065,-0.0723267,0.0343829,0.0438194,0,0,0,-0.00178831,-0.00423157,-0.0319762,-0.0756401,0.0438244,0,0,0,0,0,0,0,0,0,0,0.00188975,-0.611279,0.0554736,-1.5,3.89878e-38,0,0,3,-0.00178831,-0.00423157,-0.046875,-0.0390625,-0.00999832,-0.0199986,-0.0319762,-0.0756401,1.9603e-19,0,0,0,0,0,0,0,0,0,2.5,0.00846313
6126,0.550781,-0.147461,2.10059,0.000381631,7.3911e-06,9.99511e-05,-0.0723156,0.0343754,0.0438178,0,0,0,-0.00234896,-0.00555769,-0.0366388,-0.0866607,0.0438194,0,0,0,0,0,0,0,0,0,0,0.00530687,-0.611428,0.0458772,-1.5,3.89878e-38,0,0,0,-0.00234896,-0.00555769,-0.046875,-0.0390625,-0.00999832,-0.0199986,-0.0366388,-0.0866607,1.9603e-19,0,0,0,0,0,0,0,0,0,2.5,0.0111154
6140,0.517578,-0.147461,6.39746,0.00071716,-1.6627e-05,0.000341653,-0.0722929,0.0343708,0.0438162,0,0,0,-0.00289693,-0.00685376,-0.040688,-0.0962328,0.0438178,0,0,0,0,0,0,0,0,0,0,0.00834573,-0.611562,0.0482686,-1.5,3.89878e-38,0,0,1,-0.00289693,-0.00685376,-0.046875,-0.0390625,-0.00999832,-0.0199986,-0.040688,-0.0962328,1.9603e-19,0,0,0,0,0,0,0,0,0,2.5,0.0137075
6155,0.484375,-0.147461,-3.22656,3.99721e-05,-0.000792975,-0.000605162,-0.0722819,0.0343631,0.0438134,0,0,0,-0.00354898,-0.00839586,-0.0449985,-0.106421,0.0438134,0,0,0,0,0,0,0,0,0,0,0.0116625,-0.611707,0.0621687,-1.5,3.89878e-38,0,0,2,-0.00354898,-0.00839586,-0.046875,-0.0390625,0,0,-0.0449985,-0.106421,1.9603e-19,0,0,0,0,0,0,0,0,0,2.5,0.0167917
6171,0.451172,-0.147461,3.35742,-0.000375012,-1.28962e-05,0.000213287,-0.0722787,0.0343586,0.0438116,0,0,0,-0.00431552,-0.0102087,-0.0495633,-0.117211,0.0438116,0,0,0,0,0,0,0,0,0,0,0.0152637,-0.611865,0.0744613,-1.5,3.89878e-38,0,0,3,-0.00431552,-0.0102087,-0.046875,-0.0390625,0,0,-0.0495633,-0.117211,1.9603e-19,0,0,0,0,0,0,0,0,0,2.5,0.0204173
6191,0.451172,-0.147461,3.35742,-0.000375012,-1.28962e-05,0.000213287,-0.0722787,0.0343586,0.0438116,0,0,0,-0.00538623,-0.0127407,-0.0552273,-0.1306,0.0438116,0,0,0,0,0,0,0,0,0,0,0.0198725,-0.612067,0.0585309,-1.5,3.89878e-38,0,0,0,-0.00538623,-0.0127407,-0.046875,-0.0390625,0,0,-0.0552273,-0.1306,1.9603e-19,0,0,0,0,0,0,0,0,0,2.5,0.0254813
6207,0.443359,-0.147461,-3.33105,0.00164368,-0.000574244,-0.00113695,-0.0722423,0.0343541,0.0437843,0,0,0,-0.00631568,-0.0149385,-0.0597184,-0.141214,0.0437907,0,0,0,0,0,0,0,0,0,0,0.0236307,-0.612231,0.0621741,-1.5,3.89878e-38,0,0,1,-0.00631568,-0.0149385,-0.046875,-0.0390625,0,0,-0.0597184,-0.141214,1.9603e-19,0,0,0,0,0,0,0,0,0,2.5,0.0298771
6223,0.443359,-0.147461,-0.561523,-0.000255363,0.00155805,0.00100455,-0.0722274,0.0343702,0.0437972,0,0,0,-0.00731666,-0.0173054,-0.0641772,-0.151749,0.0437843,0,0,0,0,0,0,0,0,0,0,0.027447,-0.612397,0.0744541,-1.5,3.89878e-38,0,0,2,-0.00731666,-0.0173054,-0.046875,-0.0390625,0,0,-0.0641772,-0.151749,1.9603e-19,0,0,0,0,0,0,0,0,0,2.5,0.0346109
6239,0.443359,-0.147461,-0.561523,-0.000255363,0.00155805,0.00100455,-0.0722274,0.0343702,0.0437972,0,0,0,-0.00838867,-0.0198401,-0.0686061,-0.162205,0.0437972,0,0,0,0,0,0,0,0,0,0,0.031319,-0.612568,0.088262,-1.5,3.89878e-38,0,0,3,-0.00838867,-0.0198401,-0.046875,-0.0390625,0,0,-0.0686061,-0.162205,1.9603e-19,0,0,0,0,0,0,0,0,0,2.5,0.0396802
6256,0.443359,-0.147461,1.53027,2.43183e-05,-0.000784766,-0.00044875,-0.072213,0.034359,0.0437807,0,0,0,-0.00960643,-0.0227191,-0.0732771,-0.173233,0.0437807,0,0,0,0,0,0,0,0,0,0,0.0355186,-0.612751,0.0801053,-1.5,3.89878e-38,0,0,0,-0.00960643,-0.0227191,-0.046875,-0.0390625,0,-0.00999832,-0.0732771,-0.173233,1.9603e-19,0,0,0,0,0,0,0,0,0,2.5,0.0454381
6269,0.443359,-0.147461,1.53027,2.43183e-05,-0.000784766,-0.00044875,-0.072213,0.034359,0.0437807,0,0,0,-0.0105872,-0.0250375,-0.0768225,-0.181604,0.0437807,0,0,0,0,0,0,0,0,0,0,0.0387674,-0.612893,0.0838401,-1.5,3.89878e-38,0,0,1,-0.0105872,-0.0250375,-0.046875,-0.0390625,0,-0.00999832,-0.0768225,-0.181604,1.9603e-19,0,0,0,0,0,0,0,0,0,2.5,0.050075
6312,0.443359,-0.147461,6.4375,5.04037e-05,-0.000501309,-0.000343983,-0.0721868,0.0343499,0.0437765,0,0,0,-0.0142124,-0.0336063,-0.0881994,-0.208465,0.0437765,0,0,0,0,0,0,0,0,0,0,0.0497584,-0.613374,0.13984,-1.5,3.89878e-38,0,0,2,-0.0142124,-0.0336063,-0.046875,-0.0390625,0,-0.00999832,-0.0881994,-0.208465,1.9603e-19,0,0,0,0,0,0,0,0,0,2.5,0.0672127
6336,0.500977,-0.147461,3.36523,0.000292293,-0.00044606,-0.000632571,-0.0721762,0.0343425,0.0437743,0,0,0,-0.0165375,-0.0391015,-0.0948423,-0.224147,0.0437743,0,0,0,0,0,0,0,0,0,0,0.0564212,-0.613666,0.169038,-1.5,3.89878e-38,0,0,3,-0.0165375,-0.0391015,-0.046875,-0.0390625,0,-0.00999832,-0.0948423,-0.224147,1.9603e-19,0,0,0,0,0,0,0,0,0,2.5,0.078203
6349,0.560547,-0.147461,-0.974609,-0.00133476,-0.000554939,-0.000623901,-0.0721719,0.0343389,0.04377,0,0,0,-0.0177976,-0.0420794,-0.0982599,-0.232216,0.04377,0,0,0,0,0,0,0,0,0,0,0.0599259,-0.613819,0.164919,-1.5,3.89878e-38,0,0,0,-0.0177976,-0.0420794,-0.046875,-0.0390625,0,-0.00999832,-0.0982599,-0.232216,1.9603e-19,0,0,0,0,0,0,0,0,0,2.5,0.0841588
6365,0.560547,-0.147461,-4.33691,-1.64499e-05,-0.000213173,0.000495746,-0.07216,0.0343391,0.0437721,0,0,0,-0.0194124,-0.0458955,-0.10244,-0.242085,0.0437721,0,0,0,0,0,0,0,0,0,0,0.064296,-0.614011,0.166654,-1.5,3.89878e-38,0,0,1,-0.0194124,-0.0458955,-0.046875,-0.0390625,0,-0.00999832,-0.10244,-0.242085,1.9603e-19,0,0,0,0,0,0,0,0,0,2.5,0.0917911
6381,0.560547,-0.147461,-3.28613,-0.000115611,0.000281291,-0.000632835,-0.0721554,0.0343366,0.0437643,0,0,0,-0.0210951,-0.0498719,-0.10659,-0.251882,0.0437643,0,0,0,0,0,0,0,0,0,0,0.0687327,-0.614205,0.181645,-1.5,3.89878e-38,0,0,2,-0.0210951,-0.0498719,-0.046875,-0.0390625,0,-0.00999832,-0.10659,-0.251882,1.9603e-19,0,0,0,0,0,0,0,0,0,2.5,0.0997438
6398,0.560547,-0.147461,-0.573242,0.000821189,-0.000684678,0.000238339,-0.0721345,0.0343179,0.043774,0,0,0,-0.0229553,-0.0542677,-0.110966,-0.262213,0.043774,0,0,0,0,0,0,0,0,0,0,0.0735044,-0.614414,0.196206,-1.5,3.89878e-38,0,0,3,-0.0229553,-0.0542677,-0.046875,-0.0390625,0,0,-0.110966,-0.262213,1.9603e-19,0,0,0,0,0,0,0,0,0,2.5,0.108535
6413,0.560547,-0.147461,4.21582,-0.00106644,-0.000783097,-0.00192455,-0.0721309,0.0343081,0.0437541,0,0,0,-0.0246569,-0.0582885,-0.114797,-0.271259,0.0437541,0,0,0,0,0,0,0,0,0,0,0.0777811,-0.6146,0.187611,-1.5,3.89878e-38,0,0,0,-0.0246569,-0.0582885,-0.046875,-0.0390625,0,0,-0.114797,-0.271259,1.9603e-19,0,0,0,0,0,0,0,0,0,2.5,0.116577
6428,0.560547,-0.147461,6.97168,8.55703e-05,-0.000418386,-0.000260517,-0.0721425,0.0343067,0.0437519,0,0,0,-0.0264157,-0.0624443,-0.118601,-0.280244,0.0437541,0,0,0,0,0,0,0,0,0,0,0.0821011,-0.614789,0.187374,-1.5,3.89878e-38,0,0,1,-0.0264157,-0.0624443,-0.046875,-0.0390625,-0.00999832,0.00999832,-0.118601,-0.280244,1.9603e-19,0,0,0,0,0,0,0,0,0,2.5,0.124889
6445,0.560547,-0.147461,0.97168,0.00143993,0.000879143,-3.3485e-05,-0.0721004,0.0343213,0.0437415,0,0,0,-0.0283557,-0.0670284,-0.122631,-0.289764,0.0437519,0,0,0,0,0,0,0,0,0,0,0.0867695,-0.614993,0.202282,-1.5,3.89878e-38,0,0,2,-0.0283557,-0.0670284,-0.046875,-0.0390625,-0.00999832,0.00999832,-0.122631,-0.289764,1.9603e-19,0,0,0,0,0,0,0,0,0,2.5,0.134057
6460,0.560547,-0.147461,-2.69922,-0.000382614,-0.000185397,-0.00152009,-0.0720941,0.0343063,0.0437283,0,0,0,-0.0303598,-0.0717639,-0.126634,-0.299209,0.0437283,0,0,0,0,0,0,0,0,0,0,0.0915045,-0.615198,0.217143,-1.5,3.89878e-38,0,0,3,-0.0303598,-0.0717639,-0.046875,-0.0390625,0,0.00999832,-0.126634,-0.299209,1.9603e-19,0,0,0,0,0,0,0,0,0,2.5,0.143528
6476,0.527344,-0.147461,0.132812,0.000336,0.000390491,-0.000373791,-0.0720842,0.0343014,0.0437238,0,0,0,-0.0324278,-0.0766498,-0.130607,-0.308586,0.0437238,0,0,0,0,0,0,0,0,0,0,0.096289,-0.615407,0.2069,-1.5,3.89878e-38,0,0,0,-0.0324278,-0.0766498,-0.046875,-0.0390625,0,0.00999832,-0.130607,-0.308586,1.9603e-19,0,0,0,0,0,0,0,0,0,2.5,0.1533
6492,0.527344,-0.147461,0.132812,0.000336,0.000390491,-0.000373791,-0.0720842,0.0343014,0.0437238,0,0,0,-0.0345589,-0.0816851,-0.13455,-0.317893,0.0437238,0,0,0,0,0,0,0,0,0,0,0.101129,-0.615618,0.205904,-1.5,3.89878e-38,0,0,1,-0.0345589,-0.0816851,-0.046875,-0.0390625,0,0.00999832,-0.13455,-0.317893,1.9603e-19,0,0,0,0,0,0,0,0,0,2.5,0.16337
6508,0.460938,-0.147461,-5.16699,-0.000528421,-0.000560851,-0.000865378,-0.0720947,0.0342824,0.0437204,0,0,0,-0.0367529,-0.0868685,-0.138464,-0.327135,0.0437204,0,0,0,0,0,0,0,0,0,0,0.106028,-0.615832,0.220739,-1.5,3.89878e-38,0,0,2,-0.0367529,-0.0868685,-0.046875,-0.0390625,0,0,-0.138464,-0.327135,1.9603e-19,0,0,0,0,0,0,0,0,0,2.5,0.173737
6525,0.416992,-0.147461,0.115234,0.000859161,-1.42263e-05,-0.00124212,-0.0720325,0.0342746,0.0437008,0,0,0,-0.0391537,-0.0925407,-0.142591,-0.336884,0.0437204,0,0,0,0,0,0,0,0,0,0,0.111296,-0.616063,0.23709,-1.5,3.89878e-38,0,0,3,-0.0391537,-0.0925407,-0.046875,-0.0390625,0,0,-0.142591,-0.336884,1.9603e-19,0,0,0,0,0,0,0,0,0,2.5,0.185081
6542,0.450195,-0.147461,-0.136719,-0.000940263,0.000283518,-0.000763734,-0.072032,0.0342732,0.0436955,0,0,0,-0.0416228,-0.0983742,-0.146685,-0.346551,0.0437008,0,0,0,0,0,0,0,0,0,0,0.116633,-0.616294,0.225197,-1.5,3.89878e-38,0,0,0,-0.0416228,-0.0983742,-0.046875,-0.0390625,0,0,-0.146685,-0.346551,1.9603e-19,0,0,0,0,0,0,0,0,0,2.5,0.196748
6557,0.450195,-0.147461,-0.136719,-0.000940263,0.000283518,-0.000763734,-0.072032,0.0342732,0.0436955,0,0,0,-0.0438578,-0.103654,-0.15027,-0.355014,0.0436955,0,0,0,0,0,0,0,0,0,0,0.121387,-0.616501,0.224285,-1.5,3.89878e-38,0,0,1,-0.0438578,-0.103654,-0.046875,-0.0390625,0,0,-0.15027,-0.355014,1.9603e-19,0,0,0,0,0,0,0,0,0,2.5,0.207309
6573,0.516602,-0.147461,3.82031,6.4946e-05,5.31237e-05,-0.0011305,-0.0720349,0.0342624,0.0436681,0,0,0,-0.0463009,-0.109426,-0.154068,-0.363978,0.0436681,0,0,0,0,0,0,0,0,0,0,0.126521,-0.616721,0.239045,-1.5,3.89878e-38,0,0,2,-0.0463009,-0.109426,-0.046875,-0.0390625,0,0,-0.154068,-0.363978,1.9603e-19,0,0,0,0,0,0,0,0,0,2.5,0.218852
6590,0.535156,-0.147461,0.262695,0.00143941,-4.64539e-05,0.000599217,-0.0720012,0.0342639,0.0436725,0,0,0,-0.0489642,-0.115718,-0.158072,-0.373432,0.0436725,0,0,0,0,0,0,0,0,0,0,0.132023,-0.616962,0.253759,-1.5,3.89878e-38,0,0,3,-0.0489642,-0.115718,-0.046875,-0.0390625,0,0,-0.158072,-0.373432,1.9603e-19,0,0,0,0,0,0,0,0,0,2.5,0.231436
6605,0.535156,-0.147461,4.15527,0.000946032,-0.000196014,0.000430441,-0.0719827,0.0342585,0.0436795,0,0,0,-0.0513682,-0.121397,-0.16158,-0.381707,0.0436795,0,0,0,0,0,0,0,0,0,0,0.136924,-0.617178,0.24807,-1.5,3.89878e-38,0,0,0,-0.0513682,-0.121397,-0.046875,-0.0390625,0,0,-0.16158,-0.381707,1.9603e-19,0,0,0,0,0,0,0,0,0,2.5,0.242794
6620,0.535156,-0.147461,-2.48828,-0.000746936,0.0012396,-3.42358e-05,-0.0719894,0.0342663,0.043674,0,0,0,-0.0538257,-0.127202,-0.165064,-0.389926,0.043674,0,0,0,0,0,0,0,0,0,0,0.141879,-0.617393,0.246747,-1.5,3.89878e-38,0,0,1,-0.0538257,-0.127202,-0.046875,-0.0390625,0,0,-0.165064,-0.389926,1.9603e-19,0,0,0,0,0,0,0,0,0,2.5,0.254405
6636,0.535156,-0.147461,-5.69922,-0.000577479,-0.000326264,-0.00040811,-0.0719651,0.0342565,0.0436659,0,0,0,-0.0565055,-0.133533,-0.168755,-0.398634,0.0436799,0,0,0,0,0,0,0,0,0,0,0.147213,-0.617627,0.261418,-1.5,3.89878e-38,0,0,2,-0.0565055,-0.133533,-0.046875,-0.0390625,-0.0299988,-0.0199986,-0.168755,-0.398634,1.9603e-19,0,0,0,0,0,0,0,0,0,2.5,0.267065
6652,0.535156,-0.147461,-5.69922,-0.000577479,-0.000326264,-0.00040811,-0.0719651,0.0342565,0.0436659,0,0,0,-0.0592441,-0.140002,-0.172419,-0.407277,0.0436659,0,0,0,0,0,0,0,0,0,0,0.152609,-0.617861,0.276043,-1.5,3.89878e-38,0,0,3,-0.0592441,-0.140002,-0.046875,-0.0390625,-0.0299988,-0.0199986,-0.172419,-0.407277,1.9603e-19,0,0,0,0,0,0,0,0,0,2.5,0.280004
6669,0.535156,-0.147461,-5.69922,-0.000577479,-0.000326264,-0.00040811,-0.0719651,0.0342565,0.0436659,0,0,0,-0.0620411,-0.146608,-0.176057,-0.415856,0.0436659,0,0,0,0,0,0,0,0,0,0,0.158053,-0.618099,0.265564,-1.5,3.89878e-38,0,0,0,-0.0620411,-0.146608,-0.046875,-0.0390625,-0.0299988,-0.0199986,-0.176057,-0.415856,1.9603e-19,0,0,0,0,0,0,0,0,0,2.5,0.293217
6685,0.535156,-0.147461,-5.37891,-0.000410601,0.000377314,-0.0014002,-0.0719529,0.0342395,0.0436604,0,0,0,-0.0650763,-0.153778,-0.179892,-0.424904,0.0436604,0,0,0,0,0,0,0,0,0,0,0.163896,-0.618353,0.264963,-1.5,3.89878e-38,0,0,1,-0.0650763,-0.153778,-0.046875,-0.0390625,0.00999832,0,-0.179892,-0.424904,1.9603e-19,0,0,0,0,0,0,0,0,0,2.5,0.307555
6701,0.535156,-0.147461,4.14746,0.000648624,-0.000163595,-3.14366e-05,-0.0719413,0.0342327,0.0436573,0,0,0,-0.0679911,-0.160662,-0.183473,-0.433353,0.0436573,0,0,0,0,0,0,0,0,0,0,0.169446,-0.618595,0.277445,-1.5,3.89878e-38,0,0,2,-0.0679911,-0.160662,-0.046875,-0.0390625,0,0,-0.183473,-0.433353,1.9603e-19,0,0,0,0,0,0,0,0,0,2.5,0.321325
6717,0.535156,-0.152344,2.71777,-0.000451029,0.0013439,-0.001287,-0.0719444,0.0342493,0.0436417,0,0,0,-0.070964,-0.167684,-0.187028,-0.441741,0.0436417,0,0,0,0,0,0,0,0,0,0,0.175056,-0.618837,0.292005,-1.5,3.89878e-38,0,0,3,-0.070964,-0.167684,-0.046875,-0.0390625,0,0,-0.187028,-0.441741,1.9603e-19,0,0,0,0,0,0,0,0,0,2.5,0.335368
6733,0.535156,-0.21875,3.38477,-0.002481,0.000521184,-0.000555606,-0.0719471,0.0342589,0.0436291,0,0,0,-0.0739936,-0.17484,-0.190561,-0.450069,0.0436426,0,0,0,0,0,0,0,0,0,0,0.18071,-0.619084,0.281462,-1.5,3.89878e-38,0,0,0,-0.0739936,-0.17484,-0.046875,-0.0390625,0.00999832,0.0299988,-0.190561,-0.450069,1.9603e-19,0,0,0,0,0,0,0,0,0,2.5,0.349679
6750,0.535156,-0.251953,-0.892578,-0.000787448,0.000195048,-4.52928e-06,-0.0719417,0.0342564,0.0436327,0,0,0,-0.0770795,-0.182128,-0.194069,-0.458337,0.0436327,0,0,0,0,0,0,0,0,0,0,0.18642,-0.619331,0.27898,-1.5,3.89878e-38,0,0,1,-0.0770795,-0.182128,-0.046875,-0.0390625,0.00999832,0.0299988,-0.194069,-0.458337,1.9603e-19,0,0,0,0,0,0,0,0,0,2.5,0.364255
6765,0.535156,-0.223633,4.21777,-0.000766352,-5.99105e-05,0.00114763,-0.0719467,0.0342531,0.0436444,0,0,0,-0.0802212,-0.189547,-0.197551,-0.466546,0.0436444,0,0,0,0,0,0,0,0,0,0,0.192171,-0.619585,0.293522,-1.5,3.89878e-38,0,0,2,-0.0802212,-0.189547,-0.046875,-0.0390625,-0.00999832,-0.0199986,-0.197551,-0.466546,1.9603e-19,0,0,0,0,0,0,0,0,0,2.5,0.379095
6782,0.535156,-0.19043,-2.44336,-0.00116471,-9.77553e-05,-0.000237687,-0.07195,0.0342504,0.0436406,0,0,0,-0.0836213,-0.197577,-0.201224,-0.475206,0.0436406,0,0,0,0,0,0,0,0,0,0,0.198347,-0.619854,0.309583,-1.5,3.89878e-38,0,0,3,-0.0836213,-0.197577,-0.046875,-0.0390625,-0.00999832,-0.0199986,-0.201224,-0.475206,1.9603e-19,0,0,0,0,0,0,0,0,0,2.5,0.395154
6797,0.535156,-0.157227,-7.14941,-0.000874157,-0.00160165,-0.000266613,-0.0719478,0.0342286,0.0436337,0,0,0,-0.0866708,-0.204779,-0.204438,-0.48279,0.0436337,0,0,0,0,0,0,0,0,0,0,0.203842,-0.620092,0.300534,-1.5,3.89878e-38,0,0,0,-0.0866708,-0.204779,-0.046875,-0.0390625,0,0.00999832,-0.204438,-0.48279,1.9603e-19,0,0,0,0,0,0,0,0,0,2.5,0.409557
6813,0.535156,-0.124023,-5.68945,-0.000717818,0.000572362,-0.000987769,-0.0719448,0.0342261,0.0436237,0,0,0,-0.0897683,-0.212093,-0.20763,-0.490322,0.0436237,0,0,0,0,0,0,0,0,0,0,0.209381,-0.620332,0.298271,-1.5,3.89878e-38,0,0,1,-0.0897683,-0.212093,-0.046875,-0.0390625,0,0.00999832,-0.20763,-0.490322,1.9603e-19,0,0,0,0,0,0,0,0,0,2.5,0.424187
6829,0.535156,-0.134766,1.80078,0.000655759,-0.000184845,-0.00107156,-0.0719223,0.0342237,0.0436089,0,0,0,-0.0931259,-0.220022,-0.21101,-0.498302,0.0436237,0,0,0,0,0,0,0,0,0,0,0.215335,-0.620592,0.312735,-1.5,3.89878e-38,0,0,2,-0.0931259,-0.220022,-0.046875,-0.0390625,0,0.00999832,-0.21101,-0.498302,1.9603e-19,0,0,0,0,0,0,0,0,0,2.5,0.440045
6844,0.535156,-0.167969,-5.45117,0.000657656,0.000398639,-0.000441016,-0.0719136,0.0342279,0.0436089,0,0,0,-0.0965373,-0.228079,-0.214366,-0.506222,0.0436089,0,0,0,0,0,0,0,0,0,0,0.221344,-0.62085,0.327154,-1.5,3.89878e-38,0,0,3,-0.0965373,-0.228079,-0.046875,-0.0390625,0,0.00999832,-0.214366,-0.506222,1.9603e-19,0,0,0,0,0,0,0,0,0,2.5,0.456157
6860,0.535156,-0.201172,4.12305,-0.00132055,-0.000401158,-0.000507146,-0.071927,0.0342227,0.0436066,0,0,0,-0.100002,-0.236261,-0.217699,-0.514083,0.0436066,0,0,0,0,0,0,0,0,0,0,0.227396,-0.621114,0.316471,-1.5,3.89878e-38,0,0,0,-0.100002,-0.236261,-0.046875,-0.0390625,0,0,-0.217699,-0.514083,1.9603e-19,0,0,0,0,0,0,0,0,0,2.5,0.472521
6877,0.535156,-0.234375,2.73438,-0.000522026,-0.000527738,0.000308641,-0.0719196,0.0342044,0.0436144,0,0,0,-0.103742,-0.245091,-0.221212,-0.522374,0.0436144,0,0,0,0,0,0,0,0,0,0,0.233874,-0.621399,0.311727,-1.5,3.89878e-38,0,0,1,-0.103742,-0.245091,-0.046875,-0.0390625,0,0,-0.221212,-0.522374,1.9603e-19,0,0,0,0,0,0,0,0,0,2.5,0.490183
6892,0.535156,-0.234375,2.73438,-0.000522026,-0.000527738,0.000308641,-0.0719196,0.0342044,0.0436144,0,0,0,-0.10709,-0.252997,-0.224287,-0.529636,0.0436144,0,0,0,0,0,0,0,0,0,0,0.239637,-0.62165,0.324573,-1.5,3.89878e-38,0,0,2,-0.10709,-0.252997,-0.046875,-0.0390625,0,0,-0.224287,-0.529636,1.9603e-19,0,0,0,0,0,0,0,0,0,2.5,0.505995
6909,0.535156,-0.245117,3.3877,0.000241532,0.000743153,0.000557886,-0.0718894,0.0342061,0.0436079,0,0,0,-0.110713,-0.261552,-0.227545,-0.537327,0.0436079,0,0,0,0,0,0,0,0,0,0,0.245835,-0.621919,0.338945,-1.5,3.89878e-38,0,0,3,-0.110713,-0.261552,-0.046875,-0.0390625,0,0,-0.227545,-0.537327,1.9603e-19,0,0,0,0,0,0,0,0,0,2.5,0.523105
6925,0.535156,-0.178711,1.49512,-0.00132279,-0.000972107,0.000399108,-0.0718808,0.0341905,0.0436178,0,0,0,-0.114619,-0.270776,-0.230982,-0.545436,0.0436079,0,0,0,0,0,0,0,0,0,0,0.252467,-0.622208,0.327562,-1.5,3.89878e-38,0,0,0,-0.114619,-0.270776,-0.046875,-0.0390625,0,0,-0.230982,-0.545436,1.9603e-19,0,0,0,0,0,0,0,0,0,2.5,0.541553
6941,0.535156,-0.145508,-5.72656,-0.001289,-0.000196579,-0.000135972,-0.0718783,0.0341826,0.0436168,0,0,0,-0.118347,-0.279581,-0.23419,-0.553009,0.0436178,0,0,0,0,0,0,0,0,0,0,0.258752,-0.622485,0.323249,-1.5,3.89878e-38,0,0,1,-0.118347,-0.279581,-0.046875,-0.0390625,0,0,-0.23419,-0.553009,1.9603e-19,0,0,0,0,0,0,0,0,0,2.5,0.559161
6957,0.535156,-0.131836,3.57812,-5.48454e-05,0.000186134,-0.000659554,-0.0718645,0.0341721,0.0436106,0,0,0,-0.122127,-0.288505,-0.237373,-0.560526,0.0436106,0,0,0,0,0,0,0,0,0,0,0.265091,-0.62276,0.33538,-1.5,3.89878e-38,0,0,2,-0.122127,-0.288505,-0.046875,-0.0390625,0,0,-0.237373,-0.560526,1.9603e-19,0,0,0,0,0,0,0,0,0,2.5,0.577011
6974,0.535156,-0.131836,3.7627,0.000820975,0.000395947,-0.000153784,-0.0718433,0.0341789,0.0436055,0,0,0,-0.125958,-0.297552,-0.240532,-0.567987,0.0436055,0,0,0,0,0,0,0,0,0,0,0.271476,-0.623037,0.349709,-1.5,3.89878e-38,0,0,3,-0.125958,-0.297552,-0.046875,-0.0390625,0,0,-0.240532,-0.567987,1.9603e-19,0,0,0,0,0,0,0,0,0,2.5,0.595105
6989,0.535156,-0.131836,5.38477,-0.00012258,-0.000240656,0.000446039,-0.0718301,0.034161,0.0436178,0,0,0,-0.129838,-0.306716,-0.243668,-0.575391,0.0436178,0,0,0,0,0,0,0,0,0,0,0.277897,-0.623321,0.339823,-1.5,3.89878e-38,0,0,0,-0.129838,-0.306716,-0.046875,-0.0390625,0,0,-0.243668,-0.575391,1.9603e-19,0,0,0,0,0,0,0,0,0,2.5,0.613431
7004,0.535156,-0.131836,-6.66211,7.65059e-05,-0.000183799,-0.000992335,-0.07182,0.0341673,0.0436048,0,0,0,-0.133521,-0.315411,-0.246586,-0.582281,0.0436048,0,0,0,0,0,0,0,0,0,0,0.283967,-0.623582,0.339095,-1.5,3.89878e-38,0,0,1,-0.133521,-0.315411,-0.046875,-0.0390625,-0.00999832,-0.00999832,-0.246586,-0.582281,1.9603e-19,0,0,0,0,0,0,0,0,0,2.5,0.630823
7021,0.535156,-0.131836,0.290039,0.000648602,-0.000985794,-0.000498542,-0.0718043,0.0341488,0.0436043,0,0,0,-0.137749,-0.325395,-0.24987,-0.590033,0.0436043,0,0,0,0,0,0,0,0,0,0,0.290891,-0.623884,0.351832,-1.5,3.89878e-38,0,0,2,-0.137749,-0.325395,-0.046875,-0.0390625,-0.00999832,-0.00999832,-0.24987,-0.590033,1.9603e-19,0,0,0,0,0,0,0,0,0,2.5,0.650791
7037,0.535156,-0.131836,5.31641,-0.0010285,7.11437e-05,0.000469603,-0.0717935,0.0341487,0.0436067,0,0,0,-0.141525,-0.334312,-0.252745,-0.596821,0.0436085,0,0,0,0,0,0,0,0,0,0,0.297039,-0.624153,0.366101,-1.5,3.89878e-38,0,0,3,-0.141525,-0.334312,-0.046875,-0.0390625,0,0.00999832,-0.252745,-0.596821,1.9603e-19,0,0,0,0,0,0,0,0,0,2.5,0.668623
7053,0.535156,-0.131836,5.31641,-0.0010285,7.11437e-05,0.000469603,-0.0717935,0.0341487,0.0436067,0,0,0,-0.145858,-0.344545,-0.255982,-0.604461,0.0436067,0,0,0,0,0,0,0,0,0,0,0.304059,-0.624459,0.355262,-1.5,3.89878e-38,0,0,0,-0.145858,-0.344545,-0.046875,-0.0390625,0,0.00999832,-0.255982,-0.604461,1.9603e-19,0,0,0,0,0,0,0,0,0,2.5,0.689089
7069,0.535156,-0.131836,2.94922,0.000423071,-0.000858041,0.000472336,-0.07177,0.0341444,0.0436018,0,0,0,-0.149986,-0.354291,-0.259004,-0.611595,0.0436018,0,0,0,0,0,0,0,0,0,0,0.310712,-0.624748,0.351309,-1.5,3.89878e-38,0,0,1,-0.149986,-0.354291,-0.046875,-0.0390625,0,0.00999832,-0.259004,-0.611595,1.9603e-19,0,0,0,0,0,0,0,0,0,2.5,0.708582
7085,0.507812,-0.131836,-2.01562,0.000890691,0.000914722,-6.74506e-05,-0.0717389,0.0341489,0.0436014,0,0,0,-0.154161,-0.364151,-0.262004,-0.618674,0.0436014,0,0,0,0,0,0,0,0,0,0,0.317405,-0.62504,0.365561,-1.5,3.89878e-38,0,0,2,-0.154161,-0.364151,-0.046875,-0.0390625,0,0.00999832,-0.262004,-0.618674,1.9603e-19,0,0,0,0,0,0,0,0,0,2.5,0.728302
7102,0.474609,-0.131836,1.60352,-9.22891e-05,0.000900962,0.000351325,-0.0717264,0.0341544,0.0436072,0,0,0,-0.158385,-0.374123,-0.264984,-0.625698,0.0436072,0,0,0,0,0,0,0,0,0,0,0.324138,-0.625335,0.379769,-1.5,3.89878e-38,0,0,3,-0.158385,-0.374123,-0.046875,-0.0390625,0,0,-0.264984,-0.625698,1.9603e-19,0,0,0,0,0,0,0,0,0,2.5,0.748247
7118,0.443359,-0.131836,-5.66895,0.000327711,-0.00048675,-0.000349825,-0.0717167,0.0341495,0.0436008,0,0,0,-0.162924,-0.384842,-0.268127,-0.633104,0.0436008,0,0,0,0,0,0,0,0,0,0,0.331345,-0.625648,0.367311,-1.5,3.89878e-38,0,0,0,-0.162924,-0.384842,-0.046875,-0.0390625,0,0,-0.268127,-0.633104,1.9603e-19,0,0,0,0,0,0,0,0,0,2.5,0.769684
7134,0.443359,-0.131836,3.7666,-5.31379e-05,9.63653e-05,0.000123066,-0.0716871,0.0341511,0.0435977,0,0,0,-0.167244,-0.395042,-0.271062,-0.64002,0.0435955,0,0,0,0,0,0,0,0,0,0,0.33817,-0.625943,0.365414,-1.5,3.89878e-38,0,0,1,-0.167244,-0.395042,-0.046875,-0.0390625,0,0,-0.271062,-0.64002,1.9603e-19,0,0,0,0,0,0,0,0,0,2.5,0.790084
7150,0.443359,-0.131836,5.38867,-0.000295552,0.000506202,3.99749e-05,-0.0716894,0.0341488,0.0436033,0,0,0,-0.171612,-0.405355,-0.273977,-0.646885,0.0436033,0,0,0,0,0,0,0,0,0,0,0.345033,-0.626246,0.37961,-1.5,3.89878e-38,0,0,2,-0.171612,-0.405355,-0.046875,-0.0390625,0,0,-0.273977,-0.646885,1.9603e-19,0,0,0,0,0,0,0,0,0,2.5,0.810709
7167,0.443359,-0.131836,-6.64258,-0.000859817,0.000252122,-0.000755943,-0.0716789,0.0341541,0.0435915,0,0,0,-0.176303,-0.416431,-0.277051,-0.654123,0.0435915,0,0,0,0,0,0,0,0,0,0,0.352379,-0.626562,0.392197,-1.5,3.89878e-38,0,0,3,-0.176303,-0.416431,-0.046875,-0.0390625,0,0,-0.277051,-0.654123,1.9603e-19,0,0,0,0,0,0,0,0,0,2.5,0.832863
7350,0.443359,-0.131836,0.27832,-0.00038908,0.000334119,3.52658e-06,-0.0716058,0.0341109,0.0435468,0,0,0,-0.232743,-0.549644,-0.309859,-0.731331,0.0435468,0,0,0,0,0,0,0,0,0,0,0.416923,-0.629358,0.104742,-1.5,3.89878e-38,0,0,3,-0.232743,-0.549644,-0.046875,-0.0390625,0,0,-0.309859,-0.731331,1.9603e-19,0,0,0,0,0,0,0,0,0,2.5,1.09929
7365,0.47168,-0.131836,-7.04004,-0.000718745,-8.99214e-05,0.000136476,-0.0716057,0.0341099,0.0435479,0,0,0,-0.237415,-0.560668,-0.312325,-0.737138,0.0435479,0,0,0,0,0,0,0,0,0,0,0.416923,-0.629358,0.0811797,-1.5,3.89878e-38,0,0,3,-0.237415,-0.560668,-0.046875,-0.0390625,0,0,-0.312325,-0.737138,1.9603e-19,0,0,0,0,0,0,0,0,0,2.5,1.12134
7381,0.504883,-0.131836,5.29785,-0.00161035,-6.60941e-05,-0.000982621,-0.0716101,0.0340971,0.0435457,0,0,0,-0.242439,-0.572527,-0.314938,-0.743291,0.0435457,0,0,0,0,0,0,0,0,0,0,0.416924,-0.629357,0.0560469,-1.5,3.89878e-38,0,0,3,-0.242439,-0.572527,-0.046875,-0.0390625,0,0,-0.314938,-0.743291,1.9603e-19,0,0,0,0,0,0,0,0,0,2.5,1.14505
7397,0.571289,-0.131836,2.95312,-0.000620874,0.000120286,0.000293403,-0.0716013,0.0340931,0.0435414,0,0,0,-0.247506,-0.584484,-0.317531,-0.749399,0.0435391,0,0,0,0,0,0,0,0,0,0,0.416927,-0.629354,0.0309142,-1.5,3.89878e-38,0,0,3,-0.247506,-0.584484,-0.046875,-0.0390625,0,0,-0.317531,-0.749399,1.9603e-19,0,0,0,0,0,0,0,0,0,2.5,1.16897
7414,0.585938,-0.131836,-2.02148,0.000446212,0.000721188,0.000584463,-0.0715906,0.0340915,0.0435386,0,0,0,-0.252934,-0.597295,-0.320265,-0.75584,0.0435386,0,0,0,0,0,0,0,0,0,0,0.416927,-0.629354,0.0042107,-1.5,3.89878e-38,0,0,3,-0.252934,-0.597295,-0.046875,-0.0390625,-0.00999832,-0.00999832,-0.320265,-0.75584,1.9603e-19,0,0,0,0,0,0,0,0,0,2.5,1.19459
7430,0.585938,-0.131836,-0.944336,0.000385118,0.000607069,-0.000605625,-0.0715838,0.0340933,0.0435276,0,0,0,-0.257761,-0.608687,-0.322659,-0.76148,0.0435276,0,0,0,0,0,0,0,0,0,0,0.416932,-0.62935,-0.020922,-1.5,3.89878e-38,0,0,3,-0.257761,-0.608687,-0.046875,-0.0390625,0.00999832,0,-0.322659,-0.76148,1.9603e-19,0,0,0,0,0,0,0,0,0,2.5,1.21737
7446,0.585938,-0.131836,6.07031,0.000333415,-0.000534014,0.000150043,-0.071573,0.0340804,0.0435327,0,0,0,-0.263276,-0.621702,-0.325353,-0.767825,0.0435327,0,0,0,0,0,0,0,0,0,0,0.41693,-0.629352,-0.0460547,-1.5,3.89878e-38,0,0,3,-0.263276,-0.621702,-0.046875,-0.0390625,0.00999832,0,-0.325353,-0.767825,1.9603e-19,0,0,0,0,0,0,0,0,0,2.5,1.2434
7462,0.585938,-0.131836,6.07031,0.000333415,-0.000534014,0.000150043,-0.071573,0.0340804,0.0435327,0,0,0,-0.268507,-0.634048,-0.327869,-0.773751,0.0435327,0,0,0,0,0,0,0,0,0,0,0.41693,-0.629352,-0.0711875,-1.5,3.89878e-38,0,0,3,-0.268507,-0.634048,-0.046875,-0.0390625,0.00999832,0,-0.327869,-0.773751,1.9603e-19,0,0,0,0,0,0,0,0,0,2.5,1.2681
7478,0.436523,-0.131836,-2.18848,-0.000209647,-0.000407906,-0.00121329,-0.0715647,0.0340534,0.0435093,0,0,0,-0.273778,-0.646488,-0.330365,-0.779634,0.0435308,0,0,0,0,0,0,0,0,0,0,0.416931,-0.629351,-0.0963202,-1.5,3.89878e-38,0,0,3,-0.273778,-0.646488,-0.046875,-0.0390625,0.00999832,0,-0.330365,-0.779634,1.9603e-19,0,0,0,0,0,0,0,0,0,2.5,1.29298
7494,0.400391,-0.131836,0.365234,-0.00133986,9.48009e-05,-0.00129468,-0.0715659,0.0340499,0.0434988,0,0,0,-0.27909,-0.659024,-0.332841,-0.785475,0.0435093,0,0,0,0,0,0,0,0,0,0,0.41694,-0.629342,-0.121453,-1.5,3.89878e-38,0,0,3,-0.27909,-0.659024,-0.046875,-0.0390625,-0.0299988,-0.00999832,-0.332841,-0.785475,1.9603e-19,0,0,0,0,0,0,0,0,0,2.5,1.31805
7510,0.400391,-0.131836,5.50293,-0.000941254,0.00122971,0.000188385,-0.0715696,0.0340506,0.0434958,0,0,0,-0.284441,-0.67165,-0.335298,-0.791273,0.0434958,0,0,0,0,0,0,0,0,0,0,0.416947,-0.629336,-0.146586,-1.5,3.89878e-38,0,0,3,-0.284441,-0.67165,-0.046875,-0.0390625,-0.0299988,-0.00999832,-0.335298,-0.791273,1.9603e-19,0,0,0,0,0,0,0,0,0,2.5,1.3433
7527,0.400391,-0.131836,5.50293,-0.000941254,0.00122971,0.000188385,-0.0715696,0.0340506,0.0434958,0,0,0,-0.290169,-0.685169,-0.33789,-0.797389,0.0434958,0,0,0,0,0,0,0,0,0,0,0.416947,-0.629336,-0.173289,-1.5,3.89878e-38,0,0,3,-0.290169,-0.685169,-0.046875,-0.0390625,-0.0299988,-0.00999832,-0.33789,-0.797389,1.9603e-19,0,0,0,0,0,0,0,0,0,2.5,1.37034
7542,0.456055,-0.131836,-7.16016,-0.00129994,-0.00110044,-0.000786599,-0.0715956,0.0340296,0.0434855,0,0,0,-0.295259,-0.697181,-0.340158,-0.802746,0.0434855,0,0,0,0,0,0,0,0,0,0,0.416951,-0.629332,-0.196851,-1.5,3.89878e-38,0,0,3,-0.295259,-0.697181,-0.046875,-0.0390625,0.00999832,-0.0199986,-0.340158,-0.802746,1.9603e-19,0,0,0,0,0,0,0,0,0,2.5,1.39436
7557,0.456055,-0.131836,-7.16016,-0.00129994,-0.00110044,-0.000786599,-0.0715956,0.0340296,0.0434855,0,0,0,-0.300383,-0.709273,-0.34241,-0.808071,0.0434855,0,0,0,0,0,0,0,0,0,0,0.416951,-0.629332,-0.220413,-1.5,3.89878e-38,0,0,3,-0.300383,-0.709273,-0.046875,-0.0390625,0.00999832,-0.0199986,-0.34241,-0.808071,1.9603e-19,0,0,0,0,0,0,0,0,0,2.5,1.41855
7573,0.522461,-0.131836,2.4834,-0.000984207,-0.000439504,0.000563389,-0.0715919,0.034024,0.043485,0,0,0,-0.305887,-0.722262,-0.344796,-0.813711,0.043485,0,0,0,0,0,0,0,0,0,0,0.416952,-0.629332,-0.245546,-1.5,3.89878e-38,0,0,3,-0.305887,-0.722262,-0.046875,-0.0390625,0.00999832,-0.0199986,-0.344796,-0.813711,1.9603e-19,0,0,0,0,0,0,0,0,0,2.5,1.44452
7590,0.561523,-0.131836,-3.25684,-0.00180522,-0.000497191,0.000697911,-0.0716123,0.0340014,0.0434912,0,0,0,-0.311429,-0.73534,-0.347163,-0.819311,0.0434861,0,0,0,0,0,0,0,0,0,0,0.416951,-0.629332,-0.270679,-1.5,3.89878e-38,0,0,3,-0.311429,-0.73534,-0.046875,-0.0390625,0,-0.00999832,-0.347163,-0.819311,1.9603e-19,0,0,0,0,0,0,0,0,0,2.5,1.47068
7606,0.561523,-0.131836,2.05078,-0.000722306,0.000208148,-0.000297725,-0.0716091,0.0339973,0.0434913,0,0,0,-0.317358,-0.749334,-0.349657,-0.825219,0.0434912,0,0,0,0,0,0,0,0,0,0,0.416949,-0.629334,-0.297382,-1.5,3.89878e-38,0,0,3,-0.317358,-0.749334,-0.046875,-0.0390625,0,-0.00999832,-0.349657,-0.825219,1.9603e-19,0,0,0,0,0,0,0,0,0,2.5,1.49867
7622,0.561523,-0.131836,2.05078,-0.000722306,0.000208148,-0.000297725,-0.0716091,0.0339973,0.0434913,0,0,0,-0.322977,-0.762595,-0.351985,-0.830738,0.0434913,0,0,0,0,0,0,0,0,0,0,0.416949,-0.629334,-0.322515,-1.5,3.89878e-38,0,0,3,-0.322977,-0.762595,-0.046875,-0.0390625,0,-0.00999832,-0.351985,-0.830738,1.9603e-19,0,0,0,0,0,0,0,0,0,2.5,1.52519
7638,0.561523,-0.131836,6.64062,-0.00141793,0.00108171,3.21628e-05,-0.0716101,0.0340047,0.0434903,0,0,0,-0.328632,-0.775943,-0.354297,-0.836217,0.0434903,0,0,0,0,0,0,0,0,0,0,0.416949,-0.629334,-0.347647,-1.5,3.89878e-38,0,0,3,-0.328632,-0.775943,-0.046875,-0.0390625,0,-0.00999832,-0.354297,-0.836217,1.9603e-19,0,0,0,0,0,0,0,0,0,2.5,1.55189
7654,0.561523,-0.131836,5.62598,-0.000372471,0.000987574,-0.000342362,-0.0715948,0.034016,0.0434842,0,0,0,-0.334325,-0.789379,-0.356594,-0.841657,0.0434842,0,0,0,0,0,0,0,0,0,0,0.416952,-0.629332,-0.37278,-1.5,3.89878e-38,0,0,3,-0.334325,-0.789379,-0.046875,-0.0390625,0,-0.00999832,-0.356594,-0.841657,1.9603e-19,0,0,0,0,0,0,0,0,0,2.5,1.57876
7671,0.561523,-0.131836,6.7959,0.000100167,0.00051817,-0.000120636,-0.0715839,0.0340117,0.0434781,0,0,0,-0.340414,-0.803751,-0.359017,-0.847391,0.0434781,0,0,0,0,0,0,0,0,0,0,0.416955,-0.629329,-0.399484,-1.5,3.89878e-38,0,0,3,-0.340414,-0.803751,-0.046875,-0.0390625,0,0,-0.359017,-0.847391,1.9603e-19,0,0,0,0,0,0,0,0,0,2.5,1.6075
7687,0.561523,-0.131836,1.69629,0.000526582,0.000768865,-0.000962432,-0.071559,0.0340144,0.0434538,0,0,0,-0.346181,-0.817364,-0.361281,-0.852746,0.043464,0,0,0,0,0,0,0,0,0,0,0.416961,-0.629323,-0.424616,-1.5,3.89878e-38,0,0,3,-0.346181,-0.817364,-0.046875,-0.0390625,0,0,-0.361281,-0.852746,1.9603e-19,0,0,0,0,0,0,0,0,0,2.5,1.63473
7702,0.561523,-0.131836,-3.88086,6.93281e-05,-0.000366717,-0.000323386,-0.071559,0.0340121,0.0434559,0,0,0,-0.351621,-0.830203,-0.363389,-0.857728,0.0434538,0,0,0,0,0,0,0,0,0,0,0.416966,-0.629319,-0.448178,-1.5,3.89878e-38,0,0,3,-0.351621,-0.830203,-0.046875,-0.0390625,0,0,-0.363389,-0.857728,1.9603e-19,0,0,0,0,0,0,0,0,0,2.5,1.66041
7720,0.561523,-0.131836,6.12012,0.000501407,0.000432909,-0.0016409,-0.071548,0.0340117,0.0434533,0,0,0,-0.358192,-0.845713,-0.3659,-0.863663,0.0434533,0,0,0,0,0,0,0,0,0,0,0.416966,-0.629319,-0.476452,-1.5,3.89878e-38,0,0,3,-0.358192,-0.845713,-0.046875,-0.0390625,0,0,-0.3659,-0.863663,1.9603e-19,0,0,0,0,0,0,0,0,0,2.5,1.69143
7735,0.561523,-0.131836,2.05371,0.000872319,-0.000712221,0.000568935,-0.0715347,0.0339984,0.0434553,0,0,0,-0.363331,-0.857845,-0.367837,-0.868242,0.0434553,0,0,0,0,0,0,0,0,0,0,0.416965,-0.629319,-0.498443,-1.5,3.89878e-38,0,0,3,-0.363331,-0.857845,-0.046875,-0.0390625,0,0,-0.367837,-0.868242,1.9603e-19,0,0,0,0,0,0,0,0,0,2.5,1.71569
7750,0.537109,-0.131836,-4.04785,-0.000193594,0.00133438,-3.21517e-05,-0.0715227,0.0340144,0.043454,0,0,0,-0.36924,-0.871791,-0.370037,-0.87344,0.043454,0,0,0,0,0,0,0,0,0,0,0.416966,-0.629319,-0.523576,-1.5,3.89878e-38,0,0,3,-0.36924,-0.871791,-0.046875,-0.0390625,0,0,-0.370037,-0.87344,1.9603e-19,0,0,0,0,0,0,0,0,0,2.5,1.74358
7766,0.503906,-0.131836,-5.37207,-0.000993538,-0.00102369,0.00025778,-0.0715232,0.0339985,0.0434569,0,0,0,-0.375183,-0.885819,-0.372222,-0.878599,0.0434569,0,0,0,0,0,0,0,0,0,0,0.416964,-0.62932,-0.548709,-1.5,3.89878e-38,0,0,3,-0.375183,-0.885819,-0.046875,-0.0390625,0,0,-0.372222,-0.878599,1.9603e-19,0,0,0,0,0,0,0,0,0,2.5,1.77164
7782,0.470703,-0.131836,-1.67285,0.0012887,0.000234605,-0.000480125,-0.0714923,0.0340001,0.0434504,0,0,0,-0.381161,-0.89993,-0.374389,-0.883719,0.0434504,0,0,0,0,0,0,0,0,0,0,0.416967,-0.629317,-0.573842,-1.5,3.89878e-38,0,0,3,-0.381161,-0.89993,-0.046875,-0.0390625,0,0,-0.374389,-0.883719,1.9603e-19,0,0,0,0,0,0,0,0,0,2.5,1.79986
7798,0.427734,-0.131836,0.144531,0.000546482,0.000637021,-0.000848485,-0.0714685,0.03399,0.0434414,0,0,0,-0.387174,-0.914123,-0.376541,-0.8888,0.0434504,0,0,0,0,0,0,0,0,0,0,0.416967,-0.629317,-0.598974,-1.5,3.89878e-38,0,0,3,-0.387174,-0.914123,-0.046875,-0.0390625,0,0,-0.376541,-0.8888,1.9603e-19,0,0,0,0,0,0,0,0,0,2.5,1.82825
7816,0.494141,-0.131836,-1.9873,0.000810106,-0.000137522,-0.000241387,-0.0714426,0.0339934,0.0434287,0,0,0,-0.393981,-0.930191,-0.378944,-0.894468,0.0434287,0,0,0,0,0,0,0,0,0,0,0.416977,-0.629308,-0.627249,-1.5,3.89878e-38,0,0,3,-0.393981,-0.930191,-0.046875,-0.0390625,0,0,-0.378944,-0.894468,1.9603e-19,0,0,0,0,0,0,0,0,0,2.5,1.86038
7832,0.560547,-0.131836,-2.2041,-5.82385e-05,0.00101235,0.000407791,-0.0714369,0.033996,0.0434271,0,0,0,-0.400067,-0.944555,-0.381063,-0.899463,0.0434271,0,0,0,0,0,0,0,0,0,0,0.416978,-0.629308,-0.652381,-1.5,3.89878e-38,0,0,3,-0.400067,-0.944555,-0.046875,-0.0390625,-0.0199986,-0.00999832,-0.381063,-0.899463,1.9603e-19,0,0,0,0,0,0,0,0,0,2.5,1.88911
7849,0.569336,-0.131836,0.956055,0.000528388,-8.41431e-05,-0.00129476,-0.0714225,0.0339966,0.0434136,0,0,0,-0.406569,-0.959904,-0.383299,-0.90473,0.0434136,0,0,0,0,0,0,0,0,0,0,0.416984,-0.629302,-0.679085,-1.5,3.89878e-38,0,0,3,-0.406569,-0.959904,-0.046875,-0.0390625,-0.0199986,-0.00999832,-0.383299,-0.90473,1.9603e-19,0,0,0,0,0,0,0,0,0,2.5,1.91981
7864,0.569336,-0.131836,-0.80957,-0.000466928,-4.77017e-05,0.000803435,-0.0714157,0.0339909,0.0434278,0,0,0,-0.412338,-0.973519,-0.385257,-0.909341,0.0434136,0,0,0,0,0,0,0,0,0,0,0.416984,-0.629302,-0.702647,-1.5,3.89878e-38,0,0,3,-0.412338,-0.973519,-0.046875,-0.0390625,0.0199986,0.00999832,-0.385257,-0.909341,1.9603e-19,0,0,0,0,0,0,0,0,0,2.5,1.94704
7881,0.569336,-0.135742,6.98145,0.00111478,0.00059079,-3.61974e-05,-0.0713914,0.0340011,0.0434302,0,0,0,-0.418911,-0.989035,-0.38746,-0.91453,0.0434278,0,0,0,0,0,0,0,0,0,0,0.416978,-0.629308,-0.72935,-1.5,3.89878e-38,0,0,3,-0.418911,-0.989035,-0.046875,-0.0390625,0.0199986,0.00999832,-0.38746,-0.91453,1.9603e-19,0,0,0,0,0,0,0,0,0,2.5,1.97807
7897,0.548828,-0.168945,1.57031,-0.00106038,-9.22051e-05,-0.00149768,-0.0713856,0.033998,0.0434151,0,0,0,-0.424742,-1.0028,-0.389391,-0.919071,0.0434151,0,0,0,0,0,0,0,0,0,0,0.416983,-0.629303,-0.754483,-1.5,3.89878e-38,0,0,3,-0.424742,-1.0028,-0.046875,-0.0390625,-0.0199986,-0.0199986,-0.389391,-0.919071,1.9603e-19,0,0,0,0,0,0,0,0,0,2.5,2.00559
7912,0.515625,-0.202148,-4.97949,-0.000742023,-0.000736562,-0.000133747,-0.0713848,0.0339882,0.0434156,0,0,0,-0.430994,-1.01755,-0.391436,-0.923881,0.0434156,0,0,0,0,0,0,0,0,0,0,0.416983,-0.629303,-0.778045,-1.5,3.89878e-38,0,0,3,-0.430994,-1.01755,-0.046875,-0.0390625,-0.0199986,-0.0199986,-0.391436,-0.923881,1.9603e-19,0,0,0,0,0,0,0,0,0,2.5,2.03511
7929,0.515625,-0.202148,-4.97949,-0.000742023,-0.000736562,-0.000133747,-0.0713848,0.0339882,0.0434156,0,0,0,-0.437673,-1.03332,-0.393592,-0.928954,0.0434156,0,0,0,0,0,0,0,0,0,0,0.416983,-0.629303,-0.804565,-1.5,3.89878e-38,0,0,3,-0.437673,-1.03332,-0.046875,-0.0390625,-0.0199986,-0.0199986,-0.393592,-0.928954,1.9603e-19,0,0,0,0,0,0,0,0,0,2.5,2.06663
7944,0.449219,-0.25,-5.0791,-7.37235e-05,0.000177932,0.00035634,-0.0713721,0.0339728,0.043412,0,0,0,-0.443595,-1.04729,-0.395479,-0.933396,0.043412,0,0,0,0,0,0,0,0,0,0,0.416985,-0.629301,-0.827308,-1.5,3.89878e-38,0,0,3,-0.443595,-1.04729,-0.046875,-0.0390625,0.0199986,0.00999832,-0.395479,-0.933396,1.9603e-19,0,0,0,0,0,0,0,0,0,2.5,2.09459
7960,0.449219,-0.25,-5.0791,-7.37235e-05,0.000177932,0.00035634,-0.0713721,0.0339728,0.043412,0,0,0,-0.449944,-1.06228,-0.397477,-0.938101,0.043412,0,0,0,0,0,0,0,0,0,0,0.416985,-0.629301,-0.850839,-1.5,3.89878e-38,0,0,3,-0.449944,-1.06228,-0.046875,-0.0390625,0.0199986,0.00999832,-0.397477,-0.938101,1.9603e-19,0,0,0,0,0,0,0,0,0,2.5,2.12455
7976,0.518555,-0.194336,5.72852,-0.00161186,-0.000726057,-0.000661157,-0.0713672,0.0339595,0.0433891,0,0,0,-0.456324,-1.07734,-0.39946,-0.942771,0.0434004,0,0,0,0,0,0,0,0,0,0,0.41699,-0.629297,-0.873626,-1.5,3.89878e-38,0,0,3,-0.456324,-1.07734,-0.046875,-0.0390625,-0.00999832,-0.00999832,-0.39946,-0.942771,1.9603e-19,0,0,0,0,0,0,0,0,0,2.5,2.15467
7992,0.523438,-0.161133,4.34961,0.000971053,-0.000285802,0.000891757,-0.0713478,0.0339598,0.043391,0,0,0,-0.462736,-1.09247,-0.401429,-0.947407,0.0433891,0,0,0,0,0,0,0,0,0,0,0.416995,-0.629292,-0.895691,-1.5,3.89878e-38,0,0,3,-0.462736,-1.09247,-0.046875,-0.0390625,-0.00999832,-0.00999832,-0.401429,-0.947407,1.9603e-19,0,0,0,0,0,0,0,0,0,2.5,2.18494
8008,0.490234,-0.12793,6.00098,0.000849915,-0.000133531,-0.000478569,-0.0713309,0.0339521,0.0433867,0,0,0,-0.46918,-1.10768,-0.403382,-0.952007,0.0433867,0,0,0,0,0,0,0,0,0,0,0.416996,-0.629291,-0.917058,-1.5,3.89878e-38,0,0,3,-0.46918,-1.10768,-0.046875,-0.0390625,-0.00999832,-0.00999832,-0.403382,-0.952007,1.9603e-19,0,0,0,0,0,0,0,0,0,2.5,2.21535
8024,0.490234,-0.12793,6.00098,0.000849915,-0.000133531,-0.000478569,-0.0713309,0.0339521,0.0433867,0,0,0,-0.475654,-1.12296,-0.40532,-0.956571,0.0433867,0,0,0,0,0,0,0,0,0,0,0.416996,-0.629291,-0.937749,-1.5,3.89878e-38,0,0,3,-0.475654,-1.12296,-0.046875,-0.0390625,-0.00999832,-0.00999832,-0.40532,-0.956571,1.9603e-19,0,0,0,0,0,0,0,0,0,2.5,2.24591
8040,0.423828,-0.113281,1.94043,3.4091e-05,-0.000467051,6.31436e-05,-0.0713024,0.03394,0.0433919,0,0,0,-0.482159,-1.13831,-0.407244,-0.961101,0.0433919,0,0,0,0,0,0,0,0,0,0,0.416994,-0.629293,-0.957785,-1.5,3.89878e-38,0,0,3,-0.482159,-1.13831,-0.046875,-0.0390625,0,0,-0.407244,-0.961101,1.9603e-19,0,0,0,0,0,0,0,0,0,2.5,2.27662
8057,0.423828,-0.113281,1.94043,3.4091e-05,-0.000467051,6.31436e-05,-0.0713024,0.03394,0.0433919,0,0,0,-0.488695,-1.15373,-0.409153,-0.965595,0.0433919,0,0,0,0,0,0,0,0,0,0,0.416994,-0.629293,-0.977186,-1.5,3.89878e-38,0,0,3,-0.488695,-1.15373,-0.046875,-0.0390625,0,0,-0.409153,-0.965595,1.9603e-19,0,0,0,0,0,0,0,0,0,2.5,2.30747
8072,0.549805,-0.113281,-5.84277,-0.00107474,-0.000547711,-0.000859843,-0.0712984,0.0339402,0.0433677,0,0,0,-0.495262,-1.16923,-0.411048,-0.970056,0.0433834,0,0,0,0,0,0,0,0,0,0,0.416998,-0.62929,-0.995974,-1.5,3.89878e-38,0,0,3,-0.495262,-1.16923,-0.046875,-0.0390625,-0.0299988,-0.0199986,-0.411048,-0.970056,1.9603e-19,0,0,0,0,0,0,0,0,0,2.5,2.33846
8088,0.563477,-0.113281,5.61426,-0.000125927,-0.000234865,-0.000155635,-0.0712932,0.0339367,0.0433752,0,0,0,-0.501858,-1.1848,-0.41293,-0.974485,0.0433677,0,0,0,0,0,0,0,0,0,0,0.417005,-0.629283,-1.01417,-1.5,3.89878e-38,0,0,3,-0.501858,-1.1848,-0.046875,-0.0390625,-0.0299988,-0.0199986,-0.41293,-0.974485,1.9603e-19,0,0,0,0,0,0,0,0,0,2.5,2.3696
8105,0.530273,-0.113281,6.50781,-0.000240311,-0.000731873,-0.000923605,-0.0712785,0.0339274,0.0433741,0,0,0,-0.5089,-1.20142,-0.414914,-0.979155,0.0433741,0,0,0,0,0,0,0,0,0,0,0.417002,-0.629286,-1.03287,-1.5,3.89878e-38,0,0,3,-0.5089,-1.20142,-0.046875,-0.0390625,0,0,-0.414914,-0.979155,1.9603e-19,0,0,0,0,0,0,0,0,0,2.5,2.40283
8120,0.49707,-0.166992,-5.4707,-0.000404131,0.000549867,-0.000289104,-0.0712732,0.0339284,0.0433738,0,0,0,-0.51514,-1.21614,-0.416651,-0.983244,0.0433738,0,0,0,0,0,0,0,0,0,0,0.417002,-0.629285,-1.04883,-1.5,3.89878e-38,0,0,3,-0.51514,-1.21614,-0.046875,-0.0390625,0,0,-0.416651,-0.983244,1.9603e-19,0,0,0,0,0,0,0,0,0,2.5,2.43228
8135,0.463867,-0.233398,3.40234,0.000307964,0.000499908,0.000439792,-0.0712688,0.0339285,0.043381,0,0,0,-0.521407,-1.23093,-0.418376,-0.987304,0.043381,0,0,0,0,0,0,0,0,0,0,0.416999,-0.629288,-1.06433,-1.5,3.89878e-38,0,0,3,-0.521407,-1.23093,-0.046875,-0.0390625,0,0,-0.418376,-0.987304,1.9603e-19,0,0,0,0,0,0,0,0,0,2.5,2.46186
8152,0.430664,-0.289062,-2.03223,0.000367239,-0.000297835,-0.000738049,-0.0712634,0.0339274,0.0433733,0,0,0,-0.528541,-1.24776,-0.420317,-0.991872,0.0433733,0,0,0,0,0,0,0,0,0,0,0.417002,-0.629285,-1.08134,-1.5,3.89878e-38,0,0,3,-0.528541,-1.24776,-0.046875,-0.0390625,0,0,-0.420317,-0.991872,1.9603e-19,0,0,0,0,0,0,0,0,0,2.5,2.49553
8168,0.407227,-0.262695,-4.54102,0.000453773,0.000400825,-0.00066155,-0.0712517,0.0339267,0.0433655,0,0,0,-0.534862,-1.26268,-0.422017,-0.995872,0.0433655,0,0,0,0,0,0,0,0,0,0,0.417006,-0.629282,-1.09587,-1.5,3.89878e-38,0,0,3,-0.534862,-1.26268,-0.046875,-0.0390625,0,0,-0.422017,-0.995872,1.9603e-19,0,0,0,0,0,0,0,0,0,2.5,2.5
8184,0.500977,-0.196289,-1.57617,-0.000106399,-0.00055771,-0.000552912,-0.0712345,0.0339083,0.0433626,0,0,0,-0.542058,-1.27966,-0.423931,-1.00037,0.0433729,0,0,0,0,0,0,0,0,0,0,0.417003,-0.629285,-1.11183,-1.5,3.89878e-38,0,0,3,-0.542058,-1.27966,-0.046875,-0.0390625,0,0,-0.423931,-1.00037,1.9603e-19,0,0,0,0,0,0,0,0,0,2.5,2.5
8200,0.560547,-0.163086,4.4082,-0.0018805,0.000213915,-0.000498874,-0.0712352,0.0339073,0.0433607,0,0,0,-0.548859,-1.29571,-0.425715,-1.00457,0.0433607,0,0,0,0,0,0,0,0,0,0,0.417008,-0.62928,-1.12635,-1.5,3.89878e-38,0,0,3,-0.548859,-1.29571,-0.046875,-0.0390625,0,0,-0.425715,-1.00457,1.9603e-19,0,0,0,0,0,0,0,0,0,2.5,2.5
8216,0.588867,-0.129883,-5.18359,-6.92517e-05,-0.000928168,-0.000447107,-0.0712258,0.0338945,0.0433595,0,0,0,-0.555689,-1.31183,-0.427487,-1.00874,0.0433595,0,0,0,0,0,0,0,0,0,0,0.417009,-0.629279,-1.14042,-1.5,3.89878e-38,0,0,3,-0.555689,-1.31183,-0.046875,-0.0390625,0,0,-0.427487,-1.00874,1.9603e-19,0,0,0,0,0,0,0,0,0,2.5,2.5
8232,0.542969,-0.0966797,0.641602,0.000624208,-0.000134536,-0.000373543,-0.0712171,0.0338864,0.0433591,0,0,0,-0.562548,-1.32801,-0.429243,-1.01288,0.0433591,0,0,0,0,0,0,0,0,0,0,0.417009,-0.629279,-1.15404,-1.5,3.89878e-38,0,0,3,-0.562548,-1.32801,-0.046875,-0.0390625,0,0,-0.429243,-1.01288,1.9603e-19,0,0,0,0,0,0,0,0,0,2.5,2.5
8249,0.476562,-0.0888672,-6.66797,-0.000167072,7.42526e-05,0.000150849,-0.0712084,0.0338818,0.0433659,0,0,0,-0.569434,-1.34426,-0.430987,-1.01699,0.0433659,0,0,0,0,0,0,0,0,0,0,0.417006,-0.629282,-1.16723,-1.5,3.89878e-38,0,0,3,-0.569434,-1.34426,-0.046875,-0.0390625,0,0,-0.430987,-1.01699,1.9603e-19,0,0,0,0,0,0,0,0,0,2.5,2.5
8265,0.426758,-0.138672,2.31738,-0.000183256,-0.000966404,-0.000928618,-0.0711948,0.0338673,0.0433619,0,0,0,-0.576781,-1.3616,-0.432825,-1.02132,0.0433721,0,0,0,0,0,0,0,0,0,0,0.417003,-0.629285,-1.18079,-1.5,3.89878e-38,0,0,3,-0.576781,-1.3616,-0.046875,-0.0390625,-0.0199986,-0.0199986,-0.432825,-1.02132,1.9603e-19,0,0,0,0,0,0,0,0,0,2.5,2.5
8282,0.444336,-0.171875,4.90137,0.000328103,-0.000929306,-0.000576078,-0.071182,0.0338542,0.0433644,0,0,0,-0.584159,-1.37901,-0.434647,-1.02562,0.0433619,0,0,0,0,0,0,0,0,0,0,0.417008,-0.629281,-1.19389,-1.5,3.89878e-38,0,0,3,-0.584159,-1.37901,-0.046875,-0.0390625,-0.0199986,-0.0199986,-0.434647,-1.02562,1.9603e-19,0,0,0,0,0,0,0,0,0,2.5,2.5
8297,0.509766,-0.205078,-2.93359,-0.000146992,-0.000398093,-0.000265446,-0.0711726,0.0338485,0.0433499,0,0,0,-0.590694,-1.39443,-0.436241,-1.02938,0.0433499,0,0,0,0,0,0,0,0,0,0,0.417013,-0.629276,-1.20508,-1.5,3.89878e-38,0,0,3,-0.590694,-1.39443,-0.046875,-0.0390625,0.0199986,0.00999832,-0.436241,-1.02938,1.9603e-19,0,0,0,0,0,0,0,0,0,2.5,2.5
8315,0.576172,-0.237305,5.58887,-0.000368109,-0.000857285,0.000675055,-0.0711732,0.0338388,0.0433526,0,0,0,-0.59813,-1.41198,-0.438033,-1.03361,0.0433526,0,0,0,0,0,0,0,0,0,0,0.417012,-0.629277,-1.21737,-1.5,3.89878e-38,0,0,3,-0.59813,-1.41198,-0.046875,-0.0390625,0.0199986,0.00999832,-0.438033,-1.03361,1.9603e-19,0,0,0,0,0,0,0,0,0,2.5,2.5
8330,0.576172,-0.237305,5.58887,-0.000368109,-0.000857285,0.000675055,-0.0711732,0.0338388,0.0433526,0,0,0,-0.604716,-1.42752,-0.439602,-1.03732,0.0433526,0,0,0,0,0,0,0,0,0,0,0.417012,-0.629277,-1.22786,-1.5,3.89878e-38,0,0,3,-0.604716,-1.42752,-0.046875,-0.0390625,0.0199986,0.00999832,-0.439602,-1.03732,1.9603e-19,0,0,0,0,0,0,0,0,0,2.5,2.5
8346,0.541992,-0.237305,1.15527,-5.06631e-05,-0.000385076,1.8191e-05,-0.0711569,0.0338153,0.0433373,0,0,0,-0.611767,-1.44415,-0.441263,-1.04124,0.0433373,0,0,0,0,0,0,0,0,0,0,0.417019,-0.62927,-1.23871,-1.5,3.89878e-38,0,0,3,-0.611767,-1.44415,-0.046875,-0.0390625,-0.0299988,-0.0199986,-0.441263,-1.04124,1.9603e-19,0,0,0,0,0,0,0,0,0,2.5,2.5
8362,0.475586,-0.170898,6.64844,0.000216687,-0.000610533,0.000696633,-0.071137,0.0338098,0.0433565,0,0,0,-0.618845,-1.46085,-0.442909,-1.04514,0.0433373,0,0,0,0,0,0,0,0,0,0,0.417019,-0.62927,-1.24922,-1.5,3.89878e-38,0,0,3,-0.618845,-1.46085,-0.046875,-0.0390625,0,0,-0.442909,-1.04514,1.9603e-19,0,0,0,0,0,0,0,0,0,2.5,2.5
8378,0.442383,-0.137695,-3.43164,2.07472e-05,0.000700771,-0.000496287,-0.0711263,0.0338174,0.0433452,0,0,0,-0.626393,-1.47867,-0.444645,-1.04924,0.0433565,0,0,0,0,0,0,0,0,0,0,0.41701,-0.629278,-1.26003,-1.5,3.89878e-38,0,0,3,-0.626393,-1.47867,-0.046875,-0.0390625,0,0,-0.444645,-1.04924,1.9603e-19,0,0,0,0,0,0,0,0,0,2.5,2.5
8393,0.40918,-0.104492,0.206055,-0.00085496,-0.0006232,1.25088e-05,-0.0711171,0.0338149,0.0433478,0,0,0,-0.633078,-1.49444,-0.446167,-1.05284,0.0433478,0,0,0,0,0,0,0,0,0,0,0.417014,-0.629275,-1.26925,-1.5,3.89878e-38,0,0,3,-0.633078,-1.49444,-0.046875,-0.0390625,0,0,-0.446167,-1.05284,1.9603e-19,0,0,0,0,0,0,0,0,0,2.5,2.5
8410,0.394531,-0.0966797,7.38281,-0.000298628,-0.000390737,0.000517801,-0.0711063,0.0338172,0.0433554,0,0,0,-0.640233,-1.51133,-0.447778,-1.05664,0.0433554,0,0,0,0,0,0,0,0,0,0,0.417011,-0.629278,-1.2788,-1.5,3.89878e-38,0,0,3,-0.640233,-1.51133,-0.046875,-0.0390625,0,0,-0.447778,-1.05664,1.9603e-19,0,0,0,0,0,0,0,0,0,2.5,2.5
8426,0.394531,-0.0966797,7.38281,-0.000298628,-0.000390737,0.000517801,-0.0711063,0.0338172,0.0433554,0,0,0,-0.647864,-1.52933,-0.449478,-1.06065,0.0433554,0,0,0,0,0,0,0,0,0,0,0.417011,-0.629278,-1.2886,-1.5,3.89878e-38,0,0,3,-0.647864,-1.52933,-0.046875,-0.0390625,0,0,-0.449478,-1.06065,1.9603e-19,0,0,0,0,0,0,0,0,0,2.5,2.5
8441,0.439453,-0.0966797,-1.58594,3.60877e-05,0.00016326,-0.000209273,-0.0711014,0.0337948,0.0433581,0,0,0,-0.654621,-1.54528,-0.450966,-1.06417,0.0433581,0,0,0,0,0,0,0,0,0,0,0.417009,-0.629279,-1.29698,-1.5,3.89878e-38,0,0,3,-0.654621,-1.54528,-0.046875,-0.0390625,0,0,-0.450966,-1.06417,1.9603e-19,0,0,0,0,0,0,0,0,0,2.5,2.5
8458,0.439453,-0.0966797,-1.58594,3.60877e-05,0.00016326,-0.000209273,-0.0711014,0.0337948,0.0433581,0,0,0,-0.662306,-1.56341,-0.452637,-1.06812,0.0433581,0,0,0,0,0,0,0,0,0,0,0.417009,-0.629279,-1.30618,-1.5,3.89878e-38,0,0,3,-0.662306,-1.56341,-0.046875,-0.0390625,0,0,-0.452637,-1.06812,1.9603e-19,0,0,0,0,0,0,0,0,0,2.5,2.5
8474,0.539062,-0.0996094,-2.21094,-0.00137442,0.000264057,4.58002e-05,-0.0710783,0.0337723,0.0433622,0,0,0,-0.669564,-1.58054,-0.454198,-1.07181,0.0433535,0,0,0,0,0,0,0,0,0,0,0.417011,-0.629277,-1.31455,-1.5,3.89878e-38,0,0,3,-0.669564,-1.58054,-0.046875,-0.0390625,0,0,-0.454198,-1.07181,1.9603e-19,0,0,0,0,0,0,0,0,0,2.5,2.5
8490,0.572266,-0.132812,-6.5957,-0.000938681,-8.13242e-05,-0.000158588,-0.0710796,0.0337702,0.0433628,0,0,0,-0.676847,-1.59773,-0.455746,-1.07547,0.0433622,0,0,0,0,0,0,0,0,0,0,0.417007,-0.629281,-1.32265,-1.5,3.89878e-38,0,0,3,-0.676847,-1.59773,-0.046875,-0.0390625,0,0,-0.455746,-1.07547,1.9603e-19,0,0,0,0,0,0,0,0,0,2.5,2.5
8506,0.583008,-0.166016,6.07227,-0.000495092,0.000603908,-0.000934968,-0.071073,0.0337769,0.0433614,0,0,0,-0.684155,-1.61497,-0.457282,-1.07911,0.0433614,0,0,0,0,0,0,0,0,0,0,0.417008,-0.62928,-1.33051,-1.5,3.89878e-38,0,0,3,-0.684155,-1.61497,-0.046875,-0.0390625,-0.0299988,-0.0199986,-0.457282,-1.07911,1.9603e-19,0,0,0,0,0,0,0,0,0,2.5,2.5
8522,0.570312,-0.199219,5.94531,0.00106219,-4.8457e-05,-0.000464703,-0.0710507,0.0337685,0.0433474,0,0,0,-0.691487,-1.63227,-0.458807,-1.08272,0.0433474,0,0,0,0,0,0,0,0,0,0,0.417014,-0.629274,-1.33811,-1.5,3.89878e-38,0,0,3,-0.691487,-1.63227,-0.046875,-0.0390625,-0.0299988,-0.0199986,-0.458807,-1.08272,1.9603e-19,0,0,0,0,0,0,0,0,0,2.5,2.5
8537,0.537109,-0.232422,-6.17773,-0.0011143,0.000278918,-0.00040541,-0.0710519,0.0337694,0.0433473,0,0,0,-0.698382,-1.64855,-0.460226,-1.08607,0.0433473,0,0,0,0,0,0,0,0,0,0,0.417014,-0.629274,-1.34501,-1.5,3.89878e-38,0,0,3,-0.698382,-1.64855,-0.046875,-0.0390625,0,0,-0.460226,-1.08607,1.9603e-19,0,0,0,0,0,0,0,0,0,2.5,2.5
8553,0.503906,-0.244141,-1.90527,0.000971686,0.000427732,0.000342976,-0.0710329,0.0337627,0.0433443,0,0,0,-0.705762,-1.66596,-0.461729,-1.08963,0.0433443,0,0,0,0,0,0,0,0,0,0,0.417016,-0.629273,-1.35216,-1.5,3.89878e-38,0,0,3,-0.705762,-1.66596,-0.046875,-0.0390625,0,0,-0.461729,-1.08963,1.9603e-19,0,0,0,0,0,0,0,0,0,2.5,2.5
8569,0.4375,-0.244141,5.3916,-0.000691008,0.000261242,-0.000474368,-0.0710167,0.033764,0.0433307,0,0,0,-0.713165,-1.68343,-0.463221,-1.09315,0.0433382,0,0,0,0,0,0,0,0,0,0,0.417018,-0.629271,-1.35907,-1.5,3.89878e-38,0,0,3,-0.713165,-1.68343,-0.046875,-0.0390625,0,0.00999832,-0.463221,-1.09315,1.9603e-19,0,0,0,0,0,0,0,0,0,2.5,2.5
8586,0.422852,-0.244141,-2.62598,-0.000416422,-0.000216896,-0.000253324,-0.0710107,0.0337634,0.0433266,0,0,0,-0.721057,-1.70205,-0.464796,-1.09687,0.0433307,0,0,0,0,0,0,0,0,0,0,0.417022,-0.629268,-1.36619,-1.5,3.89878e-38,0,0,3,-0.721057,-1.70205,-0.046875,-0.0390625,0,0.00999832,-0.464796,-1.09687,1.9603e-19,0,0,0,0,0,0,0,0,0,2.5,2.5
8602,0.445312,-0.244141,-5.18164,0.000638247,0.00118506,-0.000308152,-0.0709937,0.0337742,0.0433176,0,0,0,-0.728509,-1.71964,-0.466266,-1.10034,0.0433176,0,0,0,0,0,0,0,0,0,0,0.417028,-0.629262,-1.37266,-1.5,3.89878e-38,0,0,3,-0.728509,-1.71964,-0.046875,-0.0390625,-0.0299988,-0.0199986,-0.466266,-1.10034,1.9603e-19,0,0,0,0,0,0,0,0,0,2.5,2.5
8618,0.478516,-0.244141,-5.28027,-0.000491432,0.000571965,-0.000106944,-0.0709836,0.0337725,0.0433175,0,0,0,-0.735984,-1.73728,-0.467728,-1.10379,0.0433175,0,0,0,0,0,0,0,0,0,0,0.417028,-0.629262,-1.37892,-1.5,3.89878e-38,0,0,3,-0.735984,-1.73728,-0.046875,-0.0390625,-0.0299988,-0.0199986,-0.467728,-1.10379,1.9603e-19,0,0,0,0,0,0,0,0,0,2.5,2.5
8634,0.511719,-0.244141,-0.601562,-0.000719495,-0.00048971,0.000217064,-0.0709864,0.0337572,0.0433162,0,0,0,-0.743482,-1.75498,-0.469178,-1.1072,0.0433162,0,0,0,0,0,0,0,0,0,0,0.417028,-0.629261,-1.38499,-1.5,3.89878e-38,0,0,3,-0.743482,-1.75498,-0.046875,-0.0390625,-0.0299988,-0.0199986,-0.469178,-1.1072,1.9603e-19,0,0,0,0,0,0,0,0,0,2.5,2.5
8651,0.544922,-0.244141,5.37598,-0.000677044,0.000826008,8.64036e-05,-0.0709799,0.0337572,0.0433076,0,0,0,-0.751004,-1.77273,-0.470616,-1.1106,0.0433076,0,0,0,0,0,0,0,0,0,0,0.417032,-0.629258,-1.39087,-1.5,3.89878e-38,0,0,3,-0.751004,-1.77273,-0.046875,-0.0390625,0,0,-0.470616,-1.1106,1.9603e-19,0,0,0,0,0,0,0,0,0,2.5,2.5
8666,0.518555,-0.244141,-4.27441,-6.56727e-05,-0.000636518,-5.28367e-05,-0.0709694,0.0337361,0.0433107,0,0,0,-0.758549,-1.79053,-0.472044,-1.11396,0.0433083,0,0,0,0,0,0,0,0,0,0,0.417032,-0.629258,-1.39657,-1.5,3.89878e-38,0,0,3,-0.758549,-1.79053,-0.046875,-0.0390625,0,0,-0.472044,-1.11396,1.9603e-19,0,0,0,0,0,0,0,0,0,2.5,2.5
8682,0.485352,-0.244141,-5.62793,-0.000678981,-0.000311649,0.000106252,-0.0709615,0.0337371,0.0433141,0,0,0,-0.766117,-1.80839,-0.47346,-1.11731,0.0433107,0,0,0,0,0,0,0,0,0,0,0.417031,-0.629259,-1.40208,-1.5,3.89878e-38,0,0,3,-0.766117,-1.80839,-0.046875,-0.0390625,0,0,-0.47346,-1.11731,1.9603e-19,0,0,0,0,0,0,0,0,0,2.5,2.5
8699,0.452148,-0.244141,-3.16309,-0.000200035,-0.00134801,-0.000236456,-0.0709449,0.0337137,0.043311,0,0,0,-0.774182,-1.82742,-0.474951,-1.12083,0.043311,0,0,0,0,0,0,0,0,0,0,0.417031,-0.629259,-1.40775,-1.5,3.89878e-38,0,0,3,-0.774182,-1.82742,-0.046875,-0.0390625,0,0,-0.474951,-1.12083,1.9603e-19,0,0,0,0,0,0,0,0,0,2.5,2.5
8714,0.418945,-0.244141,-0.469727,-0.000238146,-0.000418775,-0.000395764,-0.0709363,0.0337117,0.0433038,0,0,0,-0.781319,-1.84427,-0.476255,-1.12392,0.0433038,0,0,0,0,0,0,0,0,0,0,0.417034,-0.629256,-1.41259,-1.5,3.89878e-38,0,0,3,-0.781319,-1.84427,-0.046875,-0.0390625,0,0,-0.476255,-1.12392,1.9603e-19,0,0,0,0,0,0,0,0,0,2.5,2.5
8731,0.418945,-0.244141,-0.469727,-0.000238146,-0.000418775,-0.000395764,-0.0709363,0.0337117,0.0433038,0,0,0,-0.788953,-1.86228,-0.477636,-1.12718,0.0433038,0,0,0,0,0,0,0,0,0,0,0.417034,-0.629256,-1.4176,-1.5,3.89878e-38,0,0,3,-0.788953,-1.86228,-0.046875,-0.0390625,0,0,-0.477636,-1.12718,1.9603e-19,0,0,0,0,0,0,0,0,0,2.5,2.5
8746,0.519531,-0.244141,3.52832,-0.000442031,-0.000428174,0.000361918,-0.0709113,0.0337017,0.0433092,0,0,0,-0.79661,-1.88035,-0.479006,-1.13042,0.0433092,0,0,0,0,0,0,0,0,0,0,0.417032,-0.629259,-1.42245,-1.5,3.89878e-38,0,0,3,-0.79661,-1.88035,-0.046875,-0.0390625,0.0199986,0.00999832,-0.479006,-1.13042,1.9603e-19,0,0,0,0,0,0,0,0,0,2.5,2.5
8763,0.519531,-0.244141,3.52832,-0.000442031,-0.000428174,0.000361918,-0.0709113,0.0337017,0.0433092,0,0,0,-0.804288,-1.89847,-0.480366,-1.13364,0.0433092,0,0,0,0,0,0,0,0,0,0,0.417032,-0.629259,-1.42714,-1.5,3.89878e-38,0,0,3,-0.804288,-1.89847,-0.046875,-0.0390625,0.0199986,0.00999832,-0.480366,-1.13364,1.9603e-19,0,0,0,0,0,0,0,0,0,2.5,2.5
8779,0.576172,-0.244141,4.97461,-0.00065655,-0.000181019,0.000103442,-0.0708926,0.033704,0.0433049,0,0,0,-0.81247,-1.91778,-0.4818,-1.13703,0.043306,0,0,0,0,0,0,0,0,0,0,0.417033,-0.629257,-1.43197,-1.5,3.89878e-38,0,0,3,-0.81247,-1.91778,-0.046875,-0.0390625,0.0199986,0.00999832,-0.4818,-1.13703,1.9603e-19,0,0,0,0,0,0,0,0,0,2.5,2.5
8794,0.555664,-0.244141,-6.67871,0.000760576,0.00064056,-0.000185573,-0.0708768,0.0337011,0.0432957,0,0,0,-0.81971,-1.93487,-0.483057,-1.13999,0.0432957,0,0,0,0,0,0,0,0,0,0,0.417038,-0.629253,-1.43609,-1.5,3.89878e-38,0,0,3,-0.81971,-1.93487,-0.046875,-0.0390625,0.0199986,0.00999832,-0.483057,-1.13999,1.9603e-19,0,0,0,0,0,0,0,0,0,2.5,2.5
8811,0.522461,-0.244141,-2.52637,-0.000824458,0.000248663,0.000225574,-0.0708716,0.033707,0.0432967,0,0,0,-0.827937,-1.95428,-0.484471,-1.14333,0.0432967,0,0,0,0,0,0,0,0,0,0,0.417037,-0.629253,-1.44061,-1.5,3.89878e-38,0,0,3,-0.827937,-1.95428,-0.046875,-0.0390625,0,0,-0.484471,-1.14333,1.9603e-19,0,0,0,0,0,0,0,0,0,2.5,2.5
8827,0.522461,-0.244141,-2.52637,-0.000824458,0.000248663,0.000225574,-0.0708716,0.033707,0.0432967,0,0,0,-0.835702,-1.97261,-0.485792,-1.14644,0.0432967,0,0,0,0,0,0,0,0,0,0,0.417037,-0.629253,-1.44473,-1.5,3.89878e-38,0,0,3,-0.835702,-1.97261,-0.046875,-0.0390625,0,0,-0.485792,-1.14644,1.9603e-19,0,0,0,0,0,0,0,0,0,2.5,2.5
8842,0.456055,-0.244141,1.00391,0.000290961,-0.000317491,0.000734913,-0.0708416,0.0337021,0.0432916,0,0,0,-0.843001,-1.98983,-0.487022,-1.14934,0.0432916,0,0,0,0,0,0,0,0,0,0,0.41704,-0.629251,-1.44847,-1.5,3.89878e-38,0,0,3,-0.843001,-1.98983,-0.046875,-0.0390625,0,0,-0.487022,-1.14934,1.9603e-19,0,0,0,0,0,0,0,0,0,2.5,2.5
8859,0.397461,-0.244141,-0.449219,0.00029191,0.000113554,-0.00115373,-0.0708261,0.0337008,0.043274,0,0,0,-0.850807,-2.00825,-0.488325,-1.15241,0.0432916,0,0,0,0,0,0,0,0,0,0,0.41704,-0.629251,-1.45234,-1.5,3.89878e-38,0,0,3,-0.850807,-2.00825,-0.046875,-0.0390625,0,0,-0.488325,-1.15241,1.9603e-19,0,0,0,0,0,0,0,0,0,2.5,2.5
8874,0.427734,-0.244141,0.776367,0.000529293,0.00108551,0.000384652,-0.0708105,0.0337102,0.0432769,0,0,0,-0.858634,-2.02672,-0.489619,-1.15546,0.043274,0,0,0,0,0,0,0,0,0,0,0.417048,-0.629244,-1.45609,-1.5,3.89878e-38,0,0,3,-0.858634,-2.02672,-0.046875,-0.0390625,-0.00999832,0,-0.489619,-1.15546,1.9603e-19,0,0,0,0,0,0,0,0,0,2.5,2.5
8890,0.460938,-0.239258,-1.16797,-0.000526724,1.17191e-05,-0.000595491,-0.070808,0.0337038,0.0432703,0,0,0,-0.866481,-2.04524,-0.490904,-1.15848,0.0432769,0,0,0,0,0,0,0,0,0,0,0.417046,-0.629245,-1.45972,-1.5,3.89878e-38,0,0,3,-0.866481,-2.04524,-0.046875,-0.0390625,-0.00999832,0,-0.490904,-1.15848,1.9603e-19,0,0,0,0,0,0,0,0,0,2.5,2.5
8907,0.494141,-0.206055,2.95508,-0.000518743,-0.000218337,-0.00113319,-0.0708037,0.0337006,0.0432563,0,0,0,-0.874841,-2.06497,-0.492259,-1.16166,0.0432563,0,0,0,0,0,0,0,0,0,0,0.417056,-0.629237,-1.46324,-1.5,3.89878e-38,0,0,3,-0.874841,-2.06497,-0.046875,-0.0390625,0,0,-0.492259,-1.16166,1.9603e-19,0,0,0,0,0,0,0,0,0,2.5,2.5
8922,0.494141,-0.206055,2.95508,-0.000518743,-0.000218337,-0.00113319,-0.0708037,0.0337006,0.0432563,0,0,0,-0.882236,-2.08242,-0.493445,-1.16445,0.0432563,0,0,0,0,0,0,0,0,0,0,0.417056,-0.629237,-1.46643,-1.5,3.89878e-38,0,0,3,-0.882236,-2.08242,-0.046875,-0.0390625,0,0,-0.493445,-1.16445,1.9603e-19,0,0,0,0,0,0,0,0,0,2.5,2.5
8938,0.560547,-0.139648,6.2666,0.00151179,0.000446426,-0.00139949,-0.0707665,0.0336977,0.0432458,0,0,0,-0.890144,-2.10108,-0.494702,-1.1674,0.0432458,0,0,0,0,0,0,0,0,0,0,0.41706,-0.629232,-1.46973,-1.5,3.89878e-38,0,0,3,-0.890144,-2.10108,-0.046875,-0.0390625,0,0,-0.494702,-1.1674,1.9603e-19,0,0,0,0,0,0,0,0,0,2.5,2.5
8954,0.557617,-0.136719,4.9375,0.00105059,-1.0926e-05,0.000730129,-0.0707413,0.0336974,0.0432493,0,0,0,-0.898073,-2.11979,-0.49595,-1.17032,0.0432493,0,0,0,0,0,0,0,0,0,0,0.417059,-0.629234,-1.47293,-1.5,3.89878e-38,0,0,3,-0.898073,-2.11979,-0.046875,-0.0390625,0,0,-0.49595,-1.17032,1.9603e-19,0,0,0,0,0,0,0,0,0,2.5,2.5
8970,0.491211,-0.203125,-2.49414,0.000455656,-0.000341061,0.00103659,-0.070709,0.0337021,0.043257,0,0,0,-0.906021,-2.13855,-0.497189,-1.17322,0.0432479,0,0,0,0,0,0,0,0,0,0,0.417059,-0.629233,-1.47603,-1.5,3.89878e-38,0,0,3,-0.906021,-2.13855,-0.046875,-0.0390625,0,0,-0.497189,-1.17322,1.9603e-19,0,0,0,0,0,0,0,0,0,2.5,2.5
8987,0.491211,-0.203125,-2.49414,0.000455656,-0.000341061,0.00103659,-0.070709,0.0337021,0.043257,0,0,0,-0.914488,-2.15853,-0.498497,-1.17628,0.043257,0,0,0,0,0,0,0,0,0,0,0.417055,-0.629237,-1.47921,-1.5,3.89878e-38,0,0,3,-0.914488,-2.15853,-0.046875,-0.0390625,0,0,-0.498497,-1.17628,1.9603e-19,0,0,0,0,0,0,0,0,0,2.5,2.5
9003,0.424805,-0.253906,0.954102,-0.000322957,-0.00061799,-0.000893322,-0.0707022,0.0336838,0.0432425,0,0,0,-0.922476,-2.17738,-0.499718,-1.17913,0.0432425,0,0,0,0,0,0,0,0,0,0,0.417062,-0.629231,-1.48211,-1.5,3.89878e-38,0,0,3,-0.922476,-2.17738,-0.046875,-0.0390625,0,0,-0.499718,-1.17913,1.9603e-19,0,0,0,0,0,0,0,0,0,2.5,2.5
