timestamp,A_x,A_y,A_z,P,Q,R,Phi,Theta,Psi,poseX,poseY,poseZ,state_X,state_Y,state_Z,state_VzB,state_Bx,state_By,state_Bz,p1_x,p1_y,p2_x,p2_y,p3_x,p3_y,p4_x,p4_y,roll,pitch,yaw,alt,targetHeading,highLevelState,lowLevelState,gateNumber,filtered_x,filtered_y,x_OT,y_OT,vx_OT,vy_OT,filtered_vx,filtered_vygateArearansac_corr_x,ransac_corr_y,ransac_corr_vx,ransac_corr_vy,detectionTimeStamppTermX,dTermX,pTermY,dTermY,vxcmd,vycmd
6034,-0.77832,0,6.48633,-0.00147917,-0.00235106,-0.000359253,0.115986,-0.00627995,-2.45336,0,0,0,3.02248e-05,-3.98842e-05,0.00559846,-0.00740981,-2.45306,0,0,0,0,0,0,0,0,0,0,0.156523,0.0187037,0.00624548,-1.5,2.38809e-38,0,0,1,3.02248e-05,-3.98842e-05,0,0,0,0,0.00559846,-0.00740981,1.9603e-19,0,0,0,0,0,0,0,0,0,1,4.38726e-05
6049,-0.77832,0,3.61816,-0.00206404,-0.00149764,-0.000194525,0.112771,-0.0082941,-2.45411,0,0,0,0.000207106,-0.000277288,0.0155988,-0.0210941,-2.45385,0,0,0,0,0,0,0,0,0,0,0.15209,0.0191085,0.0171909,-1.5,2.38809e-38,0,0,2,0.000207106,-0.000277288,0,0,0,0,0.0155988,-0.0210941,1.9603e-19,0,0,0,0,0,0,0,0,0,1,0.000305017
6064,-0.77832,0,-4.6084,-0.0014351,-0.00247898,-0.00183501,0.109759,-0.010222,-2.45501,0,0,0,0.000528335,-0.000717511,0.0249921,-0.0345076,-2.45463,0,0,0,0,0,0,0,0,0,0,0.147763,0.0196151,0.0281052,-1.5,2.38809e-38,0,0,3,0.000528335,-0.000717511,0,0,0,0,0.0249921,-0.0345076,1.9603e-19,0,0,0,0,0,0,0,0,0,1,0.000789263
6081,-0.77832,0,2.64453,-0.00102227,-0.00189283,-0.00111075,0.107665,-0.0116424,-2.45569,0,0,0,0.00110127,-0.0015208,0.0355863,-0.0502969,-2.45555,0,0,0,0,0,0,0,0,0,0,0.142681,0.0203424,0.0170474,-1.5,2.38809e-38,0,0,0,0.00110127,-0.0015208,0,0,0,0,0.0355863,-0.0502969,1.9603e-19,0,0,0,0,0,0,0,0,0,1,0.00167288
6097,-0.77832,0,2.50586,-0.00106818,-0.00209806,-0.00183123,0.107628,-0.0116709,-2.45573,0,0,0,0.00176238,-0.00246655,0.0445755,-0.0641166,-2.45573,0,0,0,0,0,0,0,0,0,0,0.138349,0.0209809,0.0214351,-1.5,2.38809e-38,0,0,1,0.00176238,-0.00246655,0,0,0,0,0.0445755,-0.0641166,1.9603e-19,0,0,0,0,0,0,0,0,0,1,0.0027132
6113,-0.77832,0,-1.94336,-0.00140091,-0.00142415,-0.00133062,0.107509,-0.0117183,-2.45576,0,0,0,0.00251191,-0.00355274,0.0529302,-0.0769699,-2.45575,0,0,0,0,0,0,0,0,0,0,0.134304,0.0215916,0.0354425,-1.5,2.38809e-38,0,0,2,0.00251191,-0.00355274,0,0,0,0,0.0529302,-0.0769699,1.9603e-19,0,0,0,0,0,0,0,0,0,1,0.00390801
6129,-0.77832,0,1.45898,-0.00288841,-0.00181247,-0.000892952,0.107448,-0.011744,-2.45577,0,0,0,0.00351514,-0.00502042,0.062314,-0.0914175,-2.45576,0,0,0,0,0,0,0,0,0,0,0.129708,0.0223208,0.0508813,-1.5,2.38809e-38,0,0,3,0.00351514,-0.00502042,0,0,0,0,0.062314,-0.0914175,1.9603e-19,0,0,0,0,0,0,0,0,0,1,0.00552246
6145,-0.77832,0,-5.76172,-0.00200171,-0.00131737,-0.000383239,0.107403,-0.0117682,-2.45578,0,0,0,0.00460138,-0.0066206,0.0710574,-0.104894,-2.45578,0,0,0,0,0,0,0,0,0,0,0.125372,0.023044,0.042788,-1.5,2.38809e-38,0,0,0,0.00460138,-0.0066206,0,0,0,0,0.0710574,-0.104894,1.9603e-19,0,0,0,0,0,0,0,0,0,1,0.00728266
6158,-0.77832,0,3.53027,-0.00131229,-0.000858359,-0.00115003,0.107374,-0.0117858,-2.45579,0,0,0,0.005581,-0.00807038,0.0781021,-0.115758,-2.45578,0,0,0,0,0,0,0,0,0,0,0.121846,0.0236536,0.0469694,-1.5,2.38809e-38,0,0,1,0.005581,-0.00807038,0,0,0,0,0.0781021,-0.115758,1.9603e-19,0,0,0,0,0,0,0,0,0,1,0.00887742
6174,-0.77832,0,3.66797,-0.00253046,-0.00216179,-0.000858979,0.10732,-0.0118176,-2.45581,0,0,0,0.00692114,-0.0100622,0.0867067,-0.129037,-2.45581,0,0,0,0,0,0,0,0,0,0,0.117485,0.0244417,0.0624392,-1.5,2.38809e-38,0,0,2,0.00692114,-0.0100622,0,0,0,0,0.0867067,-0.129037,1.9603e-19,0,0,0,0,0,0,0,0,0,1,0.0110684
6190,-0.77832,0,5.28711,7.96597e-05,-0.00222034,0.000149508,0.107285,-0.0118383,-2.45582,0,0,0,0.00839545,-0.0122611,0.0952328,-0.142205,-2.45582,0,0,0,0,0,0,0,0,0,0,0.113118,0.0252608,0.0747307,-1.5,2.38809e-38,0,0,3,0.00839545,-0.0122611,0,0,0,0,0.0952328,-0.142205,1.9603e-19,0,0,0,0,0,0,0,0,0,1,0.0134872
6203,-0.77832,0,-6.74219,-0.0021524,-0.00208742,-0.000366217,0.107231,-0.0118671,-2.45583,0,0,0,0.00968903,-0.0141956,0.102102,-0.152822,-2.45583,0,0,0,0,0,0,0,0,0,0,0.109561,0.0259509,0.0697508,-1.5,2.38809e-38,0,0,0,0.00968903,-0.0141956,0,0,0,0,0.102102,-0.152822,1.9603e-19,0,0,0,0,0,0,0,0,0,1,0.0156152
6217,-0.77832,0,0.228516,-0.00177753,-0.00144405,-0.000860523,0.107184,-0.011892,-2.45584,0,0,0,0.011182,-0.0164334,0.109442,-0.164175,-2.45584,0,0,0,0,0,0,0,0,0,0,0.105725,0.0267185,0.0717617,-1.5,2.38809e-38,0,0,1,0.011182,-0.0164334,0,0,0,0,0.109442,-0.164175,1.9603e-19,0,0,0,0,0,0,0,0,0,1,0.0180767
6232,-0.77832,0,-7.08691,-0.00142044,-0.00218649,-0.000424939,0.107135,-0.0119238,-2.45585,0,0,0,0.0128971,-0.0190097,0.117243,-0.17625,-2.45585,0,0,33554303,-167645441,33554303,-167645441,-8436479,-1,-534446081,-65025,0.101602,0.0275709,0.0855741,-1.5,2.38809e-38,0,0,2,0.0128971,-0.0190097,0,0,0,0,0.117243,-0.17625,0,0,0,0,0,0,0,0,0,0,1,0.0209106
6247,-0.77832,0,5.20117,-0.00135701,-0.00183247,-0.00101524,0.10708,-0.0119481,-2.45587,0,0,0,0.0147306,-0.0217694,0.124978,-0.188233,-2.45587,0,0,33554303,-167645441,33554303,-167645441,-8436479,-1,-534446081,-65025,0.097468,0.0284538,0.0993376,-1.5,2.38809e-38,0,0,3,0.0147306,-0.0217694,0,0,0,0,0.124978,-0.188233,0,0,0,0,0,0,0,0,0,0,1,0.0239464
6283,-0.77832,0,-3.02246,-0.00229625,-0.00327236,-0.00132245,0.106928,-0.0120582,-2.45593,-3.76359,-0.524779,-0.203728,0.019754,-0.0293584,0.143362,-0.216738,-2.45591,0,0,292,21,292,21,414,3,307,138,0.0874199,0.0307338,0.0614108,-1.5,2.38809e-38,0,0,0,0.019754,-0.0293584,0,0,0,0,0.143362,-0.216738,18090,0,0,0,0,0,0,0,0,0,1,0.0322942
6308,-0.77832,0,-3.01758,-0.00208544,-0.00246586,-0.000480676,0.106828,-0.0121293,-2.45595,-3.78349,-0.531482,-0.199147,0.0235642,-0.0351283,0.155861,-0.236173,-2.45593,0,0,293,22,293,22,413,3,308,138,0.080448,0.0323985,0.0639014,-1.5,2.38809e-38,0,0,1,0.0235642,-0.0351283,0,0,0,0,0.155861,-0.236173,18090,0,0,0,0,0,0,0,0,0,1,0.0386411
6321,-0.77832,0,1.02246,-0.00306433,-0.00197457,-0.00201117,0.106767,-0.0121535,-2.45597,-3.78349,-0.531482,-0.199147,0.0256422,-0.0382793,0.162275,-0.246161,-2.45595,0,0,293,22,293,22,413,3,308,138,0.0768257,0.0332884,0.0746099,-1.5,2.38809e-38,0,0,2,0.0256422,-0.0382793,0,0,0,0,0.162275,-0.246161,18090,0,0,0,0,0,0,0,0,0,1,0.0421073
6335,-0.77832,0,5.97852,-0.0029609,-0.00299387,-0.00198338,0.106714,-0.012196,-2.456,-3.78349,-0.531482,-0.199147,0.0279734,-0.041818,0.169128,-0.256842,-2.45597,0,0,293,22,293,22,413,3,308,138,0.0729159,0.034271,0.0837237,-1.5,2.38809e-38,0,0,3,0.0279734,-0.041818,0,0,0,0,0.169128,-0.256842,18090,0,0,0,0,0,0,0,0,0,1,0.0459998
6351,-0.77832,0,-2.3584,-0.00253121,-0.00226387,-8.3103e-05,0.106658,-0.0122327,-2.45601,-3.7676,-0.524536,-0.205066,0.0305808,-0.0457806,0.17641,-0.268203,-2.456,0,0,291,22,291,22,414,3,308,138,0.0687157,0.0353519,0.0755788,-1.5,2.38809e-38,0,0,0,0.0305808,-0.0457806,0,0,0,0,0.17641,-0.268203,18225,0,0,0,0,0,0,0,0,0,1,0.0503587
6367,-0.77832,0,-6.66016,-0.00206367,-0.00168719,-0.00067868,0.106613,-0.0122559,-2.45602,-3.7676,-0.524536,-0.205066,0.0336698,-0.0504808,0.184582,-0.280974,-2.45602,0,0,291,22,291,22,414,3,308,138,0.0639457,0.0366118,0.0770461,-1.5,2.38809e-38,0,0,1,0.0336698,-0.0504808,0,0,0,0,0.184582,-0.280974,18225,0,0,0,0,0,0,0,0,0,1,0.0555289
6383,-0.77832,0,5.96582,-0.00178628,-0.00194328,-0.00111098,0.106565,-0.0122887,-2.45603,-3.7678,-0.524285,-0.205351,0.0367009,-0.0550979,0.192199,-0.292889,-2.45603,0,0,291,22,291,22,414,3,308,138,0.0594487,0.0378283,0.0924018,-1.5,2.38809e-38,0,0,2,0.0367009,-0.0550979,0,0,0,0,0.192199,-0.292889,18225,0,0,0,0,0,0,0,0,0,1,0.0606077
6398,-0.77832,0,5.85352,-0.00198704,-0.00169468,-0.000115491,0.106519,-0.0123133,-2.45604,-3.7678,-0.524285,-0.205351,0.0396524,-0.0595986,0.199277,-0.303971,-2.45604,0,0,291,22,291,22,414,3,308,138,0.055224,0.0389968,0.106138,-1.5,2.38809e-38,0,0,3,0.0396524,-0.0595986,0,0,0,0,0.199277,-0.303971,18225,0,0,0,0,0,0,0,0,0,1,0.0655584
6414,-0.77832,0,5.85352,-0.00198704,-0.00169468,-0.000115491,0.106519,-0.0123133,-2.45604,-3.7678,-0.524285,-0.205351,0.0429172,-0.0645818,0.206763,-0.315698,-2.45604,0,0,291,22,291,22,414,3,308,138,0.0507088,0.0402718,0.0994742,-1.5,2.38809e-38,0,0,0,0.0429172,-0.0645818,0,0,0,0,0.206763,-0.315698,18225,0,0,0,0,0,0,0,0,0,1,0.0710399
6431,-0.77832,0,-1.98926,-0.00294762,-0.00210818,-0.00151393,0.106426,-0.0123616,-2.45609,-3.7678,-0.524285,-0.205351,0.0465191,-0.0700848,0.214646,-0.328055,-2.45609,0,0,291,22,291,22,414,3,308,138,0.0458884,0.0416623,0.0990556,-1.5,2.38809e-38,0,0,1,0.0465191,-0.0700848,0,0,0,0,0.214646,-0.328055,18225,0,0,0,0,0,0,0,0,0,1,0.0770933
6445,-0.77832,0,-1.98926,-0.00294762,-0.00210818,-0.00151393,0.106426,-0.0123616,-2.45609,-3.77778,-0.523178,-0.201694,0.0495812,-0.0747671,0.221078,-0.338146,-2.45609,0,0,291,22,291,22,414,3,308,138,0.0419208,0.0428298,0.111188,-1.5,2.38809e-38,0,0,2,0.0495812,-0.0747671,0,0,0,0,0.221078,-0.338146,18090,0,0,0,0,0,0,0,0,0,1,0.0822438
6460,-0.77832,0,-2.65039,-0.00284743,-0.00199414,-0.000605092,0.106272,-0.0124349,-2.45615,-3.77778,-0.523178,-0.201694,0.0529636,-0.0799432,0.22792,-0.348882,-2.45609,0,0,291,22,291,22,414,3,308,138,0.0376584,0.0441059,0.124849,-1.5,2.38809e-38,0,0,3,0.0529636,-0.0799432,0,0,0,0,0.22792,-0.348882,18090,0,0,0,0,0,0,0,0,0,1,0.0879375
6478,-0.77832,0,-2.65039,-0.00284743,-0.00199414,-0.000605092,0.106272,-0.0124349,-2.45615,-3.78737,-0.531203,-0.198879,0.0571626,-0.0863745,0.236052,-0.361657,-2.45615,0,0,293,22,293,22,414,3,308,138,0.0325158,0.0456757,0.114981,-1.5,2.38809e-38,0,0,0,0.0571626,-0.0863745,0,0,0,0,0.236052,-0.361657,17955,0,0,0,0,0,0,0,0,0,1,0.095012
6494,-0.77832,0,-5.38477,-0.00284805,-0.00235214,-0.00120663,0.106166,-0.0125101,-2.45619,-3.78737,-0.531203,-0.198879,0.0610124,-0.0922758,0.243198,-0.372905,-2.45619,0,0,293,22,293,22,414,3,308,138,0.0279439,0.0471012,0.114483,-1.5,2.38809e-38,0,0,1,0.0610124,-0.0922758,0,0,0,0,0.243198,-0.372905,17955,0,0,0,0,0,0,0,0,0,1,0.101503
6510,-0.77832,0,-5.38477,-0.00284805,-0.00235214,-0.00120663,0.106166,-0.0125101,-2.45619,-3.78752,-0.530975,-0.199064,0.064978,-0.0983596,0.250274,-0.384062,-2.45619,0,0,293,22,293,22,414,3,308,138,0.0233696,0.0485562,0.129682,-1.5,2.38809e-38,0,0,2,0.064978,-0.0983596,0,0,0,0,0.250274,-0.384062,17955,0,0,0,0,0,0,0,0,0,1,0.108196
6526,-0.77832,0,5.28125,-0.00161489,-0.00141259,-0.000824065,0.106092,-0.0125688,-2.45623,-3.78752,-0.530975,-0.199064,0.0690539,-0.104618,0.257286,-0.395127,-2.45623,0,0,293,22,293,22,414,3,308,138,0.0187771,0.0500402,0.14484,-1.5,2.38809e-38,0,0,3,0.0690539,-0.104618,0,0,0,0,0.257286,-0.395127,17955,0,0,0,0,0,0,0,0,0,1,0.115079
6542,-0.77832,0,-4.36719,-0.00296633,-0.00189096,-0.000833499,0.105988,-0.0126249,-2.45626,-3.75911,-0.519298,-0.214234,0.0732436,-0.111055,0.264231,-0.406103,-2.45624,0,0,291,22,291,22,413,3,308,140,0.0141807,0.0515535,0.134886,-1.5,2.38809e-38,0,0,0,0.0732436,-0.111055,0,0,0,0,0.264231,-0.406103,18495,0,0,0,0,0,0,0,0,0,1,0.12216
6558,-0.77832,0,-5.72168,-0.00126991,-0.00245102,-0.000983176,0.105948,-0.01266,-2.45627,-3.75911,-0.519298,-0.214234,0.0775415,-0.117664,0.27111,-0.416986,-2.45626,0,0,291,22,291,22,413,3,308,140,0.00957512,0.0530946,0.13716,-1.5,2.38809e-38,0,0,1,0.0775415,-0.117664,0,0,0,0,0.27111,-0.416986,18495,0,0,0,0,0,0,0,0,0,1,0.12943
6574,-0.77832,0,-5.72168,-0.00126991,-0.00245102,-0.000983176,0.105948,-0.01266,-2.45627,-3.77639,-0.524681,-0.201098,0.0819509,-0.124449,0.277922,-0.427781,-2.45627,0,0,291,22,291,22,414,3,308,137,0.00496081,0.0546652,0.152269,-1.5,2.38809e-38,0,0,2,0.0819509,-0.124449,0,0,0,0,0.277922,-0.427781,18090,0,0,0,0,0,0,0,0,0,1,0.136894
6590,-0.77832,0,-5.72168,-0.00126991,-0.00245102,-0.000983176,0.105948,-0.01266,-2.45627,-3.77639,-0.524681,-0.201098,0.0864687,-0.131406,0.28468,-0.438489,-2.45627,0,0,291,22,291,22,414,3,308,137,0.000337629,0.0562624,0.16733,-1.5,2.38809e-38,0,0,3,0.0864687,-0.131406,0,0,0,0,0.28468,-0.438489,18090,0,0,0,0,0,0,0,0,0,1,0.144547
6606,-0.77832,0,-0.834961,-0.00237975,-0.00277352,-0.000210778,0.1058,-0.0127403,-2.4563,-3.75259,-0.520415,-0.217308,0.0910941,-0.138534,0.291375,-0.449108,-2.4563,0,0,291,22,291,22,414,3,308,140,-0.00430225,0.0578874,0.157286,-1.5,2.38809e-38,0,0,0,0.0910941,-0.138534,0,0,0,0,0.291375,-0.449108,18495,0,0,0,0,0,0,0,0,0,1,0.152387
6622,-0.77832,0,2.92969,-0.000796495,-0.00124082,-0.000124677,0.105762,-0.0127659,-2.45631,-3.75259,-0.520415,-0.217308,0.0958236,-0.145827,0.297997,-0.459634,-2.45631,0,0,291,22,291,22,414,3,308,140,-0.00894231,0.0595404,0.157276,-1.5,2.38809e-38,0,0,1,0.0958236,-0.145827,0,0,0,0,0.297997,-0.459634,18495,0,0,0,0,0,0,0,0,0,1,0.160409
6639,-0.77832,0,-4.99121,-0.00158819,-0.00174498,-0.00178775,0.105728,-0.0127859,-2.45633,-3.77244,-0.526137,-0.203526,0.100661,-0.153291,0.30456,-0.470075,-2.45633,0,0,292,21,292,21,414,3,308,138,-0.013597,0.0612208,0.172305,-1.5,2.38809e-38,0,0,2,0.100661,-0.153291,0,0,0,0,0.30456,-0.470075,18090,0,0,0,0,0,0,0,0,0,1,0.16862
6654,-0.77832,0,4.86133,-0.00152699,-0.00178113,-0.00101609,0.105649,-0.0128428,-2.45636,-3.77244,-0.526137,-0.203526,0.105288,-0.160436,0.310661,-0.479786,-2.45633,0,0,292,21,292,21,414,3,308,138,-0.0179633,0.0628198,0.185721,-1.5,2.38809e-38,0,0,3,0.105288,-0.160436,0,0,0,0,0.310661,-0.479786,18090,0,0,0,0,0,0,0,0,0,1,0.176479
6670,-0.77832,0,-6.76465,-0.00302873,-0.00209058,-0.00120001,0.105599,-0.0128727,-2.45637,-3.76283,-0.52247,-0.206992,0.110327,-0.16822,0.317112,-0.490064,-2.45636,0,0,291,21,291,21,414,3,308,138,-0.0226368,0.0645515,0.175604,-1.5,2.38809e-38,0,0,0,0.110327,-0.16822,0,0,0,0,0.317112,-0.490064,18225,0,0,0,0,0,0,0,0,0,1,0.185043
6686,-0.77832,0,-2.58887,-0.00120969,-0.00197928,0.000168197,0.105561,-0.012904,-2.45638,-3.76283,-0.52247,-0.206992,0.115467,-0.176169,0.323495,-0.500255,-2.45638,0,0,291,21,291,21,414,3,308,138,-0.027317,0.0663111,0.175232,-1.5,2.38809e-38,0,0,1,0.115467,-0.176169,0,0,0,0,0.323495,-0.500255,18225,0,0,0,0,0,0,0,0,0,1,0.193786
6702,-0.77832,0,6.27539,-0.000825957,-0.00281991,-0.00111469,0.10552,-0.0129357,-2.4564,-3.76913,-0.522669,-0.20721,0.121041,-0.184791,0.330211,-0.510991,-2.4564,0,0,291,22,291,22,414,3,308,138,-0.0322992,0.0682096,0.191753,-1.5,2.38809e-38,0,0,2,0.121041,-0.184791,0,0,0,0,0.330211,-0.510991,18225,0,0,0,0,0,0,0,0,0,1,0.20327
6718,-0.77832,0,6.27539,-0.000825957,-0.00281991,-0.00111469,0.10552,-0.0129357,-2.4564,-3.76913,-0.522669,-0.20721,0.126051,-0.192547,0.336083,-0.520387,-2.4564,0,0,291,22,291,22,414,3,308,138,-0.0366983,0.069909,0.206663,-1.5,2.38809e-38,0,0,3,0.126051,-0.192547,0,0,0,0,0.336083,-0.520387,18225,0,0,0,0,0,0,0,0,0,1,0.211802
6734,-0.77832,0,-0.486328,-0.00175536,-0.00214166,-0.00220366,0.105405,-0.0130181,-2.45647,-3.76913,-0.522669,-0.20721,0.131837,-0.20151,0.34268,-0.53095,-2.45644,0,0,291,22,291,22,414,3,308,138,-0.0417054,0.0718612,0.197635,-1.5,2.38809e-38,0,0,0,0.131837,-0.20151,0,0,0,0,0.34268,-0.53095,18225,0,0,0,0,0,0,0,0,0,1,0.221661
6750,-0.77832,0,-0.486328,-0.00175536,-0.00214166,-0.00220366,0.105405,-0.0130181,-2.45647,-3.77903,-0.521704,-0.20343,0.137033,-0.209564,0.348442,-0.540192,-2.45647,0,0,291,22,291,22,414,3,308,138,-0.0461283,0.0736081,0.197218,-1.5,2.38809e-38,0,0,1,0.137033,-0.209564,0,0,0,0,0.348442,-0.540192,18090,0,0,0,0,0,0,0,0,0,1,0.23052
6766,-0.77832,0,-1.27832,-0.000335453,-0.00302095,-0.00122304,0.105334,-0.0130759,-2.45651,-3.77903,-0.521704,-0.20343,0.143028,-0.218862,0.354913,-0.550583,-2.45651,0,0,291,22,291,22,414,3,308,138,-0.0511521,0.0756152,0.213657,-1.5,2.38809e-38,0,0,2,0.143028,-0.218862,0,0,0,0,0.354913,-0.550583,18090,0,0,0,0,0,0,0,0,0,1,0.240748
6782,-0.77832,0,1.19824,-0.00136109,-0.00137496,-0.00121464,0.1053,-0.0130906,-2.45652,-3.77307,-0.521087,-0.203807,0.148406,-0.227208,0.360564,-0.559675,-2.45652,0,0,291,21,291,21,414,3,308,138,-0.0555871,0.0774109,0.228479,-1.5,2.38809e-38,0,0,3,0.148406,-0.227208,0,0,0,0,0.360564,-0.559675,18090,0,0,0,0,0,0,0,0,0,1,0.249929
6797,-0.77832,0,-7.20508,-0.00163793,-0.00214386,-0.00149266,0.105261,-0.0131161,-2.45654,-3.77307,-0.521087,-0.203807,0.154238,-0.236264,0.366541,-0.569296,-2.45654,0,0,291,21,291,21,414,3,308,138,-0.0603292,0.0793503,0.219755,-1.5,2.38809e-38,0,0,0,0.154238,-0.236264,0,0,0,0,0.366541,-0.569296,18090,0,0,0,0,0,0,0,0,0,1,0.259891
6813,-0.77832,0,1.86719,-0.00173374,-0.00191055,-0.000730695,0.105225,-0.0131477,-2.45656,-3.81334,-0.532446,-0.191303,0.160163,-0.24547,0.37246,-0.578838,-2.45656,0,0,293,24,293,24,414,3,308,138,-0.0650776,0.0813142,0.220506,-1.5,2.38809e-38,0,0,1,0.160163,-0.24547,0,0,0,0,0.37246,-0.578838,17955,0,0,0,0,0,0,0,0,0,1,0.270017
6827,-0.77832,0,-0.529297,-0.00166695,-0.00131466,-0.00078009,0.105183,-0.0131717,-2.45658,-3.81334,-0.532446,-0.191303,0.165422,-0.253646,0.377592,-0.58712,-2.45658,0,0,293,24,293,24,414,3,308,138,-0.0692379,0.0830521,0.229023,-1.5,2.38809e-38,0,0,2,0.165422,-0.253646,0,0,0,0,0.377592,-0.58712,17955,0,0,0,0,0,0,0,0,0,1,0.27901
6842,-0.77832,0,2.3584,-0.00143481,-0.00247507,-0.000825951,0.105144,-0.0132068,-2.4566,-3.79332,-0.53036,-0.192612,0.171137,-0.262536,0.383045,-0.595929,-2.4566,0,0,293,22,293,22,414,2,308,138,-0.073704,0.084935,0.239084,-1.5,2.38809e-38,0,0,3,0.171137,-0.262536,0,0,0,0,0.383045,-0.595929,18088,0,0,0,0,0,0,0,0,0,1,0.288789
6857,-0.77832,0,4.91504,-0.00155364,-0.000917263,-0.00153058,0.105114,-0.013225,-2.45662,-3.79332,-0.53036,-0.192612,0.176934,-0.271557,0.38845,-0.604671,-2.45662,0,0,293,22,293,22,414,2,308,138,-0.0781785,0.0868391,0.233453,-1.5,2.38809e-38,0,0,0,0.176934,-0.271557,0,0,0,0,0.38845,-0.604671,18088,0,0,0,0,0,0,0,0,0,1,0.298712
6873,-0.77832,0,-2.91406,-0.00250673,-0.00237596,-0.00152096,0.105056,-0.0132568,-2.45664,-3.81118,-0.529266,-0.197238,0.183209,-0.281329,0.394166,-0.613925,-2.45664,0,0,293,24,293,24,414,3,308,138,-0.082961,0.0888943,0.231928,-1.5,2.38809e-38,0,0,1,0.183209,-0.281329,0,0,0,0,0.394166,-0.613925,17820,0,0,0,0,0,0,0,0,0,1,0.309462
6889,-0.77832,0,2.19141,-0.00114375,-0.00157168,-0.00186038,0.104995,-0.0133024,-2.45669,-3.81118,-0.529266,-0.197238,0.189574,-0.291245,0.399829,-0.6231,-2.45664,0,0,293,24,293,24,414,3,308,138,-0.0877452,0.0909743,0.243529,-1.5,2.38809e-38,0,0,2,0.189574,-0.291245,0,0,0,0,0.399829,-0.6231,17820,0,0,0,0,0,0,0,0,0,1,0.32037
6905,-0.77832,0,2.01172,-0.00146259,-0.00295478,-0.00137499,0.104958,-0.0133435,-2.45671,-3.78483,-0.527191,-0.212167,0.19603,-0.301311,0.405441,-0.632203,-2.45671,0,0,293,24,293,24,414,3,308,140,-0.0925571,0.0930722,0.258225,-1.5,2.38809e-38,0,0,3,0.19603,-0.301311,0,0,0,0,0.405441,-0.632203,18221,0,0,0,0,0,0,0,0,0,1,0.331442
6921,-0.77832,0,1.82324,-0.00209287,-0.00219862,-0.000373199,0.104914,-0.0133758,-2.45672,-3.78483,-0.527191,-0.212167,0.202574,-0.311518,0.410991,-0.64123,-2.45672,0,0,293,24,293,24,414,3,308,140,-0.0973585,0.0952001,0.248887,-1.5,2.38809e-38,0,0,0,0.202574,-0.311518,0,0,0,0,0.410991,-0.64123,18221,0,0,0,0,0,0,0,0,0,1,0.34267
6938,-0.77832,0,-1.73926,-0.00232617,-0.00229326,-0.000930269,0.104866,-0.0134017,-2.45674,-3.762,-0.520712,-0.209487,0.209627,-0.322527,0.416831,-0.650742,-2.45674,0,0,291,22,291,22,414,2,308,138,-0.102474,0.0974868,0.246559,-1.5,2.38809e-38,0,0,1,0.209627,-0.322527,0,0,0,0,0.416831,-0.650742,18360,0,0,0,0,0,0,0,0,0,1,0.35478
6954,-0.77832,0,-0.415039,-0.00236601,-0.00210954,-0.00039932,0.104826,-0.0134281,-2.45675,-3.762,-0.520712,-0.209487,0.216354,-0.333032,0.422274,-0.659617,-2.45675,0,0,291,22,291,22,414,2,308,138,-0.107294,0.0996626,0.26123,-1.5,2.38809e-38,0,0,2,0.216354,-0.333032,0,0,0,0,0.422274,-0.659617,18360,0,0,0,0,0,0,0,0,0,1,0.366336
6970,-0.77832,0,5.56445,-0.00171129,-0.00184304,-0.000665119,0.104776,-0.0134532,-2.45676,-3.77378,-0.524764,-0.20543,0.223167,-0.343679,0.427665,-0.668418,-2.45676,0,0,292,21,292,21,414,3,308,138,-0.112122,0.101861,0.275856,-1.5,2.38809e-38,0,0,3,0.223167,-0.343679,0,0,0,0,0.427665,-0.668418,18090,0,0,0,0,0,0,0,0,0,1,0.378047
6986,-0.77832,0,-5.57129,-0.00347637,-0.00155515,-0.00152565,0.104652,-0.0135122,-2.4568,-3.77378,-0.524764,-0.20543,0.230064,-0.354462,0.433008,-0.677145,-2.45676,0,0,292,21,292,21,414,3,308,138,-0.116953,0.104082,0.266942,-1.5,2.38809e-38,0,0,0,0.230064,-0.354462,0,0,0,0,0.433008,-0.677145,18090,0,0,0,0,0,0,0,0,0,1,0.389909
7002,-0.77832,0,-4.0752,-0.00389789,-0.00210745,0.000188746,0.104592,-0.0135416,-2.45681,-3.77378,-0.524764,-0.20543,0.237047,-0.365388,0.438287,-0.685795,-2.45681,0,0,292,21,292,21,414,3,308,138,-0.121805,0.106322,0.264749,-1.5,2.38809e-38,0,0,1,0.237047,-0.365388,0,0,0,0,0.438287,-0.685795,18090,0,0,0,0,0,0,0,0,0,1,0.401927
7018,-0.77832,0,-3.03027,-0.00268497,-0.00138226,-0.000932531,0.104543,-0.0135629,-2.45683,-3.77033,-0.521332,-0.20894,0.243669,-0.375753,0.443188,-0.693836,-2.45683,0,0,291,22,291,22,414,3,308,138,-0.126348,0.108446,0.277784,-1.5,2.38809e-38,0,0,2,0.243669,-0.375753,0,0,0,0,0.443188,-0.693836,18225,0,0,0,0,0,0,0,0,0,1,0.413328
7035,-0.77832,0,3.4209,-0.00318772,-0.0016743,-0.000841738,0.104483,-0.0135857,-2.45684,-3.77033,-0.521332,-0.20894,0.251716,-0.388355,0.449012,-0.703403,-2.45684,0,0,291,22,291,22,414,3,308,138,-0.13181,0.111021,0.29333,-1.5,2.38809e-38,0,0,3,0.251716,-0.388355,0,0,0,0,0.449012,-0.703403,18225,0,0,0,0,0,0,0,0,0,1,0.427191
7050,-0.77832,0,3.4209,-0.00318772,-0.0016743,-0.000841738,0.104483,-0.0135857,-2.45684,-3.806,-0.530461,-0.200474,0.258496,-0.39898,0.453818,-0.711304,-2.45684,0,0,293,22,293,22,414,5,308,138,-0.136363,0.113188,0.287482,-1.5,2.38809e-38,0,0,0,0.258496,-0.39898,0,0,0,0,0.453818,-0.711304,17689,0,0,0,0,0,0,0,0,0,1,0.438879
7066,-0.77832,0,5.625,-0.00273882,-0.00177364,-0.00149774,0.10438,-0.0136277,-2.45688,-3.806,-0.530461,-0.200474,0.26535,-0.409726,0.458583,-0.719144,-2.45688,0,0,293,22,293,22,414,5,308,138,-0.140937,0.115367,0.285452,-1.5,2.38809e-38,0,0,1,0.26535,-0.409726,0,0,0,0,0.458583,-0.719144,17689,0,0,0,0,0,0,0,0,0,1,0.450699
7082,-0.77832,0,2.74609,-0.00129386,-0.000669738,-0.00105628,0.1043,-0.0136644,-2.45692,-3.77421,-0.519726,-0.205383,0.27274,-0.421319,0.463617,-0.727438,-2.45688,0,0,291,21,291,21,414,3,308,138,-0.145808,0.11772,0.295639,-1.5,2.38809e-38,0,0,0,0.27274,-0.421319,0,0,0,0,0.463617,-0.727438,18090,0,0,0,0,0,0,0,0,0,1,0.463451
7098,-0.77832,0,-2.18652,-0.00114923,-0.00141806,-0.00115155,0.104264,-0.0136836,-2.45693,-3.77421,-0.519726,-0.205383,0.28021,-0.433045,0.468605,-0.735663,-2.45692,0,0,291,21,291,21,414,3,308,138,-0.150697,0.120089,0.285707,-1.5,2.38809e-38,0,0,0,0.28021,-0.433045,0,0,0,0,0.468605,-0.735663,18090,0,0,0,0,0,0,0,0,0,1,0.47635
7113,-0.77832,0,-2.18652,-0.00114923,-0.00141806,-0.00115155,0.104264,-0.0136836,-2.45693,-3.77755,-0.524065,-0.206963,0.28776,-0.444901,0.473541,-0.743818,-2.45693,0,0,291,22,291,22,414,3,309,138,-0.155586,0.122483,0.277227,-1.5,2.38809e-38,0,0,0,0.28776,-0.444901,0,0,0,0,0.473541,-0.743818,18225,0,0,0,0,0,0,0,0,0,1,0.489392
7129,-0.77832,0,-2.61133,-0.00248451,-0.000797274,-0.000955393,0.10417,-0.0137156,-2.45695,-3.77755,-0.524065,-0.206963,0.295388,-0.456888,0.478433,-0.751905,-2.45695,0,0,291,22,291,22,414,3,309,138,-0.160485,0.124895,0.268453,-1.5,2.38809e-38,0,0,0,0.295388,-0.456888,0,0,0,0,0.478433,-0.751905,18225,0,0,0,0,0,0,0,0,0,1,0.502576
7145,-0.77832,0,-2.61133,-0.00248451,-0.000797274,-0.000955393,0.10417,-0.0137156,-2.45695,-3.77747,-0.519426,-0.206504,0.303092,-0.469,0.483276,-0.75992,-2.45695,0,0,291,22,291,22,413,3,308,138,-0.165383,0.127331,0.259962,-1.5,2.38809e-38,0,0,0,0.303092,-0.469,0,0,0,0,0.483276,-0.75992,18225,0,0,0,0,0,0,0,0,0,1,0.5159
7161,-0.77832,0,-2.61133,-0.00248451,-0.000797274,-0.000955393,0.10417,-0.0137156,-2.45695,-3.77747,-0.519426,-0.206504,0.310874,-0.48124,0.48808,-0.767871,-2.45695,0,0,291,22,291,22,413,3,308,138,-0.17029,0.129786,0.252246,-1.5,2.38809e-38,0,0,0,0.310874,-0.48124,0,0,0,0,0.48808,-0.767871,18225,0,0,0,0,0,0,0,0,0,1,0.529364
7177,-0.77832,0,-4.53223,-0.00163053,-0.00266134,-0.00190516,0.104041,-0.0138113,-2.45701,-3.77036,-0.524527,-0.214638,0.318732,-0.493606,0.492835,-0.775757,-2.45701,0,0,293,22,293,22,413,3,308,140,-0.175221,0.132253,0.244759,-1.5,2.38809e-38,0,0,0,0.318732,-0.493606,0,0,0,0,0.492835,-0.775757,18358,0,0,0,0,0,0,0,0,0,1,0.542967
7193,-0.77832,0,0.573242,-0.00171178,-0.00191154,-0.00258647,0.103937,-0.0138514,-2.45707,-3.77036,-0.524527,-0.214638,0.326167,-0.505313,0.497241,-0.783088,-2.45702,0,0,293,22,293,22,413,3,308,140,-0.179837,0.134591,0.237494,-1.5,2.38809e-38,0,0,0,0.326167,-0.505313,0,0,0,0,0.497241,-0.783088,18358,0,0,0,0,0,0,0,0,0,1,0.555845
7208,-0.77832,0,0.573242,-0.00171178,-0.00191154,-0.00258647,0.103937,-0.0138514,-2.45707,-3.79317,-0.521397,-0.196486,0.334172,-0.517924,0.501897,-0.790844,-2.45707,0,0,291,22,291,22,414,3,308,138,-0.184775,0.137101,0.229977,-1.5,2.38809e-38,0,0,0,0.334172,-0.517924,0,0,0,0,0.501897,-0.790844,18090,0,0,0,0,0,0,0,0,0,1,0.569717
7225,-0.77832,0,0.783203,-0.00187251,-0.00118549,-0.000578535,0.10386,-0.013908,-2.45709,-3.79317,-0.521397,-0.196486,0.342758,-0.531459,0.506798,-0.799014,-2.45709,0,0,291,22,291,22,414,3,308,138,-0.190022,0.139792,0.222251,-1.5,2.38809e-38,0,0,0,0.342758,-0.531459,0,0,0,0,0.506798,-0.799014,18090,0,0,0,0,0,0,0,0,0,1,0.584605
7240,-0.77832,0,5.0127,-0.00234638,-0.00200735,-0.00153295,0.103816,-0.0139292,-2.45711,-3.78597,-0.525534,-0.213758,0.3504,-0.543511,0.511072,-0.80616,-2.45711,0,0,293,24,293,24,414,3,308,140,-0.194658,0.142185,0.215658,-1.5,2.38809e-38,0,0,0,0.3504,-0.543511,0,0,0,0,0.511072,-0.80616,18221,0,0,0,0,0,0,0,0,0,1,0.597862
7255,-0.77832,0,6.38184,-0.00239239,-0.0014453,-0.00191207,0.103761,-0.0139514,-2.45714,-3.78597,-0.525534,-0.213758,0.358106,-0.55567,0.515305,-0.813248,-2.45714,0,0,293,24,293,24,414,3,308,140,-0.199299,0.144594,0.20926,-1.5,2.38809e-38,0,0,0,0.358106,-0.55567,0,0,0,0,0.515305,-0.813248,18221,0,0,0,0,0,0,0,0,0,1,0.611237
7271,-0.77832,0,-4.9834,-0.00145448,-0.00244626,-0.00111127,0.103724,-0.0139908,-2.45716,-3.77776,-0.524217,-0.215032,0.366398,-0.568761,0.519779,-0.82075,-2.45716,0,0,293,24,293,24,414,2,308,140,-0.204256,0.147185,0.202637,-1.5,2.38809e-38,0,0,0,0.366398,-0.568761,0,0,0,0,0.519779,-0.82075,18354,0,0,0,0,0,0,0,0,0,1,0.625637
7287,-0.77832,0,-4.9834,-0.00145448,-0.00244626,-0.00111127,0.103724,-0.0139908,-2.45716,-3.77776,-0.524217,-0.215032,0.37476,-0.581969,0.524211,-0.828192,-2.45716,0,0,293,24,293,24,414,2,308,140,-0.209212,0.149799,0.196228,-1.5,2.38809e-38,0,0,0,0.37476,-0.581969,0,0,0,0,0.524211,-0.828192,18354,0,0,0,0,0,0,0,0,0,1,0.640166
7303,-0.77832,0,6.7998,-0.00196942,-0.00247079,-0.000782029,0.103656,-0.0140389,-2.4572,-3.82629,-0.528852,-0.198426,0.383193,-0.595298,0.528604,-0.835573,-2.4572,0,0,293,24,293,24,413,5,308,138,-0.214186,0.152425,0.190017,-1.5,2.38809e-38,0,0,0,0.383193,-0.595298,0,0,0,0,0.528604,-0.835573,17689,0,0,0,0,0,0,0,0,0,1,0.654827
7319,-0.77832,0,-4.41895,-0.00358021,-0.00129263,-0.00146269,0.103557,-0.0140943,-2.45723,-3.82629,-0.528852,-0.198426,0.391697,-0.608744,0.532953,-0.842894,-2.4572,0,0,293,24,293,24,413,5,308,138,-0.219157,0.155077,0.184003,-1.5,2.38809e-38,0,0,0,0.391697,-0.608744,0,0,0,0,0.532953,-0.842894,17689,0,0,0,0,0,0,0,0,0,1,0.669618
7335,-0.77832,0,-7.3125,-0.00216896,-0.00201278,-0.00138731,0.103514,-0.014115,-2.45725,-3.77827,-0.518378,-0.207636,0.400269,-0.622306,0.53725,-0.850149,-2.45725,0,0,291,22,291,22,413,3,308,138,-0.224148,0.157738,0.17818,-1.5,2.38809e-38,0,0,0,0.400269,-0.622306,0,0,0,0,0.53725,-0.850149,18225,0,0,0,0,0,0,0,0,0,1,0.684537
7351,-0.77832,0,-7.35059,-0.000557417,-0.00224417,-0.00112039,0.103488,-0.0141412,-2.45727,-3.77827,-0.518378,-0.207636,0.408909,-0.635982,0.541504,-0.857343,-2.45727,0,0,291,22,291,22,413,3,308,138,-0.229134,0.160424,0.172891,-1.5,2.38809e-38,0,0,0,0.408909,-0.635982,0,0,0,0,0.541504,-0.857343,18225,0,0,0,0,0,0,0,0,0,1,0.699581
7367,-0.77832,0,-4.39355,-0.00145867,-0.00177969,-0.00200787,0.103452,-0.0141651,-2.45729,-3.77827,-0.518378,-0.207636,0.417617,-0.649775,0.545718,-0.86448,-2.45729,0,0,291,22,291,22,413,3,308,138,-0.234129,0.163128,0.167419,-1.5,2.38809e-38,0,0,0,0.417617,-0.649775,0,0,0,0,0.545718,-0.86448,18225,0,0,0,0,0,0,0,0,0,1,0.714752
7383,-0.77832,0,-4.39355,-0.00145867,-0.00177969,-0.00200787,0.103452,-0.0141651,-2.45729,-3.80346,-0.526745,-0.196219,0.426392,-0.663681,0.549894,-0.871558,-2.45729,0,0,292,21,292,21,414,5,308,138,-0.239123,0.165855,0.16212,-1.5,2.38809e-38,0,0,0,0.426392,-0.663681,0,0,0,0,0.549894,-0.871558,17822,0,0,0,0,0,0,0,0,0,1,0.730049
7400,-0.77832,0,3.95996,-0.000594668,-0.00131042,-0.00108102,0.103345,-0.0142421,-2.45734,-3.80346,-0.526745,-0.196219,0.435789,-0.67858,0.554289,-0.879016,-2.45732,0,0,292,21,292,21,414,5,308,138,-0.244449,0.168764,0.156674,-1.5,2.38809e-38,0,0,0,0.435789,-0.67858,0,0,0,0,0.554289,-0.879016,17822,0,0,0,0,0,0,0,0,0,1,0.746438
7415,-0.77832,0,6.13574,-0.000875363,-0.000750429,-0.00202425,0.103315,-0.0142564,-2.45737,-3.803,-0.527685,-0.203736,0.44414,-0.691828,0.558123,-0.88554,-2.45734,0,0,293,24,293,24,414,3,308,138,-0.249148,0.17135,0.152024,-1.5,2.38809e-38,0,0,0,0.44414,-0.691828,0,0,0,0,0.558123,-0.88554,17955,0,0,0,0,0,0,0,0,0,1,0.761011
7432,-0.77832,0,-7.19141,-0.00116446,-0.00195738,-0.00180075,0.103267,-0.0142837,-2.45739,-3.803,-0.527685,-0.203736,0.453678,-0.706966,0.562425,-0.892874,-2.45739,0,0,293,24,293,24,414,3,308,138,-0.254491,0.174295,0.146913,-1.5,2.38809e-38,0,0,0,0.453678,-0.706966,0,0,0,0,0.562425,-0.892874,17955,0,0,0,0,0,0,0,0,0,1,0.777662
7447,-0.77832,0,-7.19141,-0.00116446,-0.00195738,-0.00180075,0.103267,-0.0142837,-2.45739,-3.78047,-0.52281,-0.207757,0.46215,-0.720421,0.566183,-0.899289,-2.45739,0,0,293,22,293,22,413,3,307,138,-0.259195,0.176919,0.142552,-1.5,2.38809e-38,0,0,0,0.46215,-0.720421,0,0,0,0,0.566183,-0.899289,18090,0,0,0,0,0,0,0,0,0,1,0.792463
7463,-0.77832,0,-1.46387,-0.00127821,-0.00218716,-0.00159896,0.103195,-0.014336,-2.45743,-3.78047,-0.52281,-0.207757,0.47125,-0.734879,0.570155,-0.906077,-2.45743,0,0,293,22,293,22,413,3,307,138,-0.264234,0.179724,0.138043,-1.5,2.38809e-38,0,0,0,0.47125,-0.734879,0,0,0,0,0.570155,-0.906077,18090,0,0,0,0,0,0,0,0,0,1,0.808367
7479,-0.77832,0,-1.46387,-0.00127821,-0.00218716,-0.00159896,0.103195,-0.014336,-2.45743,-3.82562,-0.529089,-0.193056,0.480412,-0.749445,0.574087,-0.91281,-2.45743,0,0,293,22,293,22,414,5,308,137,-0.269264,0.182558,0.133677,-1.5,2.38809e-38,0,0,0,0.480412,-0.749445,0,0,0,0,0.574087,-0.91281,17424,0,0,0,0,0,0,0,0,0,1,0.824389
7495,-0.77832,0,0.296875,-0.000679171,-0.00194832,-0.000756383,0.103139,-0.0143916,-2.45746,-3.82562,-0.529089,-0.193056,0.489637,-0.764118,0.577982,-0.919488,-2.45746,0,0,293,22,293,22,414,5,308,137,-0.271466,0.183079,0.129449,-1.5,2.38809e-38,0,0,0,0.489637,-0.764118,0,0,0,0,0.577982,-0.919488,17424,0,0,0,0,0,0,0,0,0,1,0.84053
7510,-0.77832,0,4.69629,-0.000945007,-0.00193566,-0.00258535,0.103104,-0.0144053,-2.45749,-3.79133,-0.526422,-0.204356,0.498342,-0.77797,0.581596,-0.925699,-2.45749,0,0,293,22,293,22,414,3,308,138,-0.272047,0.182371,0.125606,-1.5,2.38809e-38,0,0,0,0.498342,-0.77797,0,0,0,0,0.581596,-0.925699,17955,0,0,0,0,0,0,0,0,0,1,0.855767
7526,-0.77832,0,4.69629,-0.000945007,-0.00193566,-0.00258535,0.103104,-0.0144053,-2.45749,-3.79133,-0.526422,-0.204356,0.507688,-0.79285,0.58542,-0.932272,-2.45749,0,0,293,22,293,22,414,3,308,138,-0.272651,0.18163,0.121631,-1.5,2.38809e-38,0,0,0,0.507688,-0.79285,0,0,0,0,0.58542,-0.932272,17955,0,0,0,0,0,0,0,0,0,1,0.872136
7542,-0.77832,0,4.69629,-0.000945007,-0.00193566,-0.00258535,0.103104,-0.0144053,-2.45749,-3.81621,-0.526255,-0.201572,0.517094,-0.807835,0.589212,-0.938793,-2.45749,0,0,293,25,293,25,413,3,308,138,-0.273251,0.180895,0.117781,-1.5,2.38809e-38,0,0,0,0.517094,-0.807835,0,0,0,0,0.589212,-0.938793,17955,0,0,0,0,0,0,0,0,0,1,0.888619
7558,-0.77832,0,4.69629,-0.000945007,-0.00193566,-0.00258535,0.103104,-0.0144053,-2.45749,-3.81621,-0.526255,-0.201572,0.526561,-0.822924,0.592975,-0.945262,-2.45749,0,0,293,25,293,25,413,3,308,138,-0.273845,0.180166,0.114054,-1.5,2.38809e-38,0,0,0,0.526561,-0.822924,0,0,0,0,0.592975,-0.945262,17955,0,0,0,0,0,0,0,0,0,1,0.905217
7574,-0.77832,0,4.69629,-0.000945007,-0.00193566,-0.00258535,0.103104,-0.0144053,-2.45749,-3.78144,-0.527164,-0.208482,0.536088,-0.838116,0.596707,-0.951679,-2.45749,0,0,293,22,293,22,414,3,308,138,-0.274435,0.179443,0.110444,-1.5,2.38809e-38,0,0,0,0.536088,-0.838116,0,0,0,0,0.596707,-0.951679,18090,0,0,0,0,0,0,0,0,0,1,0.921927
7590,-0.77832,0,3.73242,-0.00331997,-0.00125329,-0.000728729,0.102887,-0.0145942,-2.45759,-3.78144,-0.527164,-0.208482,0.545673,-0.853408,0.600392,-0.958041,-2.45759,0,0,293,22,293,22,414,3,308,138,-0.275052,0.178702,0.106948,-1.5,2.38809e-38,0,0,0,0.545673,-0.853408,0,0,0,0,0.600392,-0.958041,18090,0,0,0,0,0,0,0,0,0,1,0.938748
7606,-0.77832,0,-0.833984,-0.00173825,-0.00218076,-0.000421781,0.102842,-0.0146226,-2.4576,-3.81628,-0.52884,-0.195567,0.555318,-0.868803,0.604016,-0.964349,-2.4576,0,0,293,24,293,24,414,3,308,138,-0.275627,0.177998,0.103564,-1.5,2.38809e-38,0,0,0,0.555318,-0.868803,0,0,0,0,0.604016,-0.964349,17955,0,0,0,0,0,0,0,0,0,1,0.955683
7623,-0.77832,0,4.62988,-0.00145153,-0.00333996,-0.000839801,0.10278,-0.0146757,-2.45763,-3.81628,-0.52884,-0.195567,0.565628,-0.88527,0.607828,-0.970993,-2.45763,0,0,293,24,293,24,414,3,308,138,-0.276239,0.177252,0.100084,-1.5,2.38809e-38,0,0,0,0.565628,-0.88527,0,0,0,0,0.607828,-0.970993,17955,0,0,0,0,0,0,0,0,0,1,0.973797
7638,-0.77832,0,-3.93945,-0.00144427,-0.0013329,-0.00047194,0.102742,-0.0147005,-2.45764,-3.81089,-0.525363,-0.202385,0.574777,-0.899891,0.611153,-0.976806,-2.45764,0,0,293,24,293,24,413,3,308,138,-0.276767,0.176605,0.0971137,-1.5,2.38809e-38,0,0,0,0.574777,-0.899891,0,0,0,0,0.611153,-0.976806,17955,0,0,0,0,0,0,0,0,0,1,0.98988
7653,-0.77832,0,3.4082,-0.000811775,-0.00149789,-0.000720147,0.10271,-0.014721,-2.45765,-3.81089,-0.525363,-0.202385,0.583976,-0.914597,0.614446,-0.982573,-2.45765,0,0,293,24,293,24,413,3,308,138,-0.277291,0.175964,0.0942328,-1.5,2.38809e-38,0,0,0,0.583976,-0.914597,0,0,0,0,0.614446,-0.982573,17955,0,0,0,0,0,0,0,0,0,1,1
7669,-0.77832,0,-2.19824,-0.00164373,-0.00200505,-0.00118455,0.102666,-0.0147505,-2.45766,-3.83091,-0.527789,-0.199533,0.593844,-0.930383,0.617924,-0.988676,-2.45766,0,0,293,24,293,24,414,5,308,138,-0.277846,0.175286,0.0912503,-1.5,2.38809e-38,0,0,0,0.593844,-0.930383,0,0,0,0,0.617924,-0.988676,17556,0,0,0,0,0,0,0,0,0,1,1
7685,-0.77832,0,-4.58789,-0.00177942,-0.00169225,-0.00045318,0.102632,-0.0147769,-2.45768,-3.83091,-0.527789,-0.199533,0.603765,-0.946263,0.621366,-0.994728,-2.45768,0,0,293,24,293,24,414,5,308,138,-0.278396,0.174614,0.0883641,-1.5,2.38809e-38,0,0,0,0.603765,-0.946263,0,0,0,0,0.621366,-0.994728,17556,0,0,0,0,0,0,0,0,0,1,1
7701,-0.77832,0,-4.29492,-0.00209634,-0.00189013,-0.00125979,0.102594,-0.0147977,-2.4577,-3.77281,-0.518352,-0.212487,0.613743,-0.962242,0.624775,-1.00073,-2.4577,0,0,291,22,291,22,414,3,308,138,-0.27894,0.173949,0.0855674,-1.5,2.38809e-38,0,0,0,0.613743,-0.962242,0,0,0,0,0.624775,-1.00073,18225,0,0,0,0,0,0,0,0,0,1,1
7717,-0.77832,0,4.29883,-0.00245028,-0.0029145,-0.0017436,0.102499,-0.0148556,-2.45775,-3.77281,-0.518352,-0.212487,0.623774,-0.978315,0.628152,-1.00668,-2.4577,0,0,291,22,291,22,414,3,308,138,-0.279473,0.173294,0.0828609,-1.5,2.38809e-38,0,0,0,0.623774,-0.978315,0,0,0,0,0.628152,-1.00668,18225,0,0,0,0,0,0,0,0,0,1,1
7733,-0.77832,0,-5.24219,-0.00133529,-0.00178323,-0.000235026,0.102466,-0.0148828,-2.45776,-3.77281,-0.518352,-0.212487,0.633227,-0.993468,0.631277,-1.01221,-2.45775,0,0,291,22,291,22,414,3,308,138,-0.279985,0.172674,0.0804014,-1.5,2.38809e-38,0,0,0,0.633227,-0.993468,0,0,0,0,0.631277,-1.01221,18225,0,0,0,0,0,0,0,0,0,1,1
7748,-0.77832,0,0.581055,-0.00261134,-0.00232049,-0.000991288,0.10242,-0.014914,-2.45778,-3.77281,-0.518352,-0.212487,0.643362,-1.00973,0.634578,-1.01807,-2.45778,0,0,291,22,291,22,414,3,308,138,-0.280516,0.172027,0.0778567,-1.5,2.38809e-38,0,0,0,0.643362,-1.00973,0,0,0,0,0.634578,-1.01807,18225,0,0,0,0,0,0,0,0,0,1,1
7764,-0.77832,0,7.38379,-0.00194744,-0.00264824,-0.00138639,0.102388,-0.0149414,-2.4578,-3.77281,-0.518352,-0.212487,0.653548,-1.02607,0.637842,-1.02387,-2.4578,0,0,291,22,291,22,414,3,308,138,-0.281039,0.171388,0.0753941,-1.5,2.38809e-38,0,0,0,0.653548,-1.02607,0,0,0,0,0.637842,-1.02387,18225,0,0,0,0,0,0,0,0,0,1,1
7780,-0.77832,0,7.38379,-0.00194744,-0.00264824,-0.00138639,0.102388,-0.0149414,-2.4578,-3.79031,-0.528746,-0.21182,0.663787,-1.04251,0.641076,-1.02963,-2.4578,0,0,293,24,293,24,416,3,308,138,-0.281549,0.170762,0.0730094,-1.5,2.38809e-38,0,0,0,0.663787,-1.04251,0,0,0,0,0.641076,-1.02963,17955,0,0,0,0,0,0,0,0,0,1,1
7796,-0.77832,0,-6.35254,-0.00199349,-0.00161649,-0.00169918,0.102298,-0.0149951,-2.45783,-3.81036,-0.52653,-0.206044,0.674077,-1.05905,0.644277,-1.03534,-2.45783,0,0,293,25,293,25,414,3,308,138,-0.282066,0.170133,0.0706987,-1.5,2.38809e-38,0,0,0,0.674077,-1.05905,0,0,0,0,0.644277,-1.03534,17955,0,0,0,0,0,0,0,0,0,1,1
7812,-0.77832,0,5.78027,-0.00254456,-0.00218248,-0.00142133,0.102251,-0.0150233,-2.45784,-3.79493,-0.521783,-0.214277,0.684418,-1.07567,0.647441,-1.041,-2.45784,0,0,293,24,293,24,413,3,308,140,-0.28257,0.169516,0.0684611,-1.5,2.38809e-38,0,0,0,0.684418,-1.07567,0,0,0,0,0.647441,-1.041,18221,0,0,0,0,0,0,0,0,0,1,1
7829,-0.77832,0,4.39941,-0.0023906,-0.000434357,-3.74651e-05,0.10215,-0.0150685,-2.45786,-3.79493,-0.521783,-0.214277,0.695461,-1.09343,0.650769,-1.04697,-2.45784,0,0,293,24,293,24,413,3,308,140,-0.283095,0.168871,0.0661612,-1.5,2.38809e-38,0,0,0,0.695461,-1.09343,0,0,0,0,0.650769,-1.04697,18221,0,0,0,0,0,0,0,0,0,1,1
7845,-0.77832,0,4.39941,-0.0023906,-0.000434357,-3.74651e-05,0.10215,-0.0150685,-2.45786,-3.83151,-0.527108,-0.200405,0.705905,-1.11024,0.653859,-1.05252,-2.45786,0,0,293,24,293,24,414,5,308,138,-0.283591,0.168266,0.0640685,-1.5,2.38809e-38,0,0,0,0.705905,-1.11024,0,0,0,0,0.653859,-1.05252,17556,0,0,0,0,0,0,0,0,0,1,1
7860,-0.77832,0,0.446289,-0.00156856,-0.00201836,-0.00182305,0.102082,-0.0151155,-2.45791,-3.83151,-0.527108,-0.200405,0.71574,-1.12608,0.65673,-1.05769,-2.45791,0,0,293,24,293,24,414,5,308,138,-0.284059,0.167697,0.0621678,-1.5,2.38809e-38,0,0,0,0.71574,-1.12608,0,0,0,0,0.65673,-1.05769,17556,0,0,0,0,0,0,0,0,0,1,1
7876,-0.77832,0,-6.09082,-0.00148038,-0.00256089,-0.00145048,0.102045,-0.0151473,-2.45793,-3.79279,-0.52488,-0.206475,0.72628,-1.14306,0.659758,-1.06316,-2.45793,0,0,293,22,293,22,414,3,308,138,-0.284544,0.167104,0.0602002,-1.5,2.38809e-38,0,0,0,0.72628,-1.14306,0,0,0,0,0.659758,-1.06316,17955,0,0,0,0,0,0,0,0,0,1,1
7892,-0.77832,0,6.23047,-0.0016475,-0.00175437,-0.0015685,0.102009,-0.0151715,-2.45794,-3.79279,-0.52488,-0.206475,0.736866,-1.16013,0.662752,-1.06858,-2.45794,0,0,293,22,293,22,414,3,308,138,-0.285023,0.166519,0.0584134,-1.5,2.38809e-38,0,0,0,0.736866,-1.16013,0,0,0,0,0.662752,-1.06858,17955,0,0,0,0,0,0,0,0,0,1,1
7908,-0.77832,0,-2.60059,-0.000785332,-0.00284656,-0.000573497,0.101931,-0.0152373,-2.45799,-3.8004,-0.524599,-0.208384,0.747502,-1.17728,0.665717,-1.07396,-2.45797,0,0,293,24,293,24,414,3,308,140,-0.285498,0.165938,0.0565646,-1.5,2.38809e-38,0,0,0,0.747502,-1.17728,0,0,0,0,0.665717,-1.07396,18221,0,0,0,0,0,0,0,0,0,1,1
7924,-0.77832,0,-3.37207,-0.00319597,-0.00223879,-0.000448898,0.101885,-0.0152719,-2.458,-3.8004,-0.524599,-0.208384,0.758184,-1.19452,0.668648,-1.0793,-2.45799,0,0,293,24,293,24,414,3,308,140,-0.285968,0.165364,0.0547744,-1.5,2.38809e-38,0,0,0,0.758184,-1.19452,0,0,0,0,0.668648,-1.0793,18221,0,0,0,0,0,0,0,0,0,1,1
7940,-0.77832,0,-0.453125,-0.00355083,-0.00182866,-0.000170328,0.101833,-0.0153041,-2.45801,-3.80053,-0.524484,-0.208585,0.768913,-1.21184,0.671542,-1.08458,-2.45801,0,0,293,24,293,24,414,3,308,140,-0.286434,0.164796,0.0530408,-1.5,2.38809e-38,0,0,0,0.768913,-1.21184,0,0,0,0,0.671542,-1.08458,18221,0,0,0,0,0,0,0,0,0,1,1
7956,-0.77832,0,5.52441,-0.00168176,-0.00157365,-0.000555995,0.101804,-0.0153251,-2.45802,-3.80053,-0.524484,-0.208585,0.779688,-1.22925,0.674403,-1.08983,-2.45802,0,0,293,24,293,24,414,3,308,140,-0.28689,0.164238,0.051362,-1.5,2.38809e-38,0,0,0,0.779688,-1.22925,0,0,0,0,0.674403,-1.08983,18221,0,0,0,0,0,0,0,0,0,1,1
7972,-0.77832,0,-0.883789,-0.000863363,-0.00152552,-0.000870382,0.101766,-0.0153496,-2.45804,-3.80579,-0.526356,-0.197768,0.790508,-1.24674,0.677235,-1.09503,-2.45804,0,0,293,22,293,22,414,3,308,138,-0.287341,0.163685,0.0497364,-1.5,2.38809e-38,0,0,0,0.790508,-1.24674,0,0,0,0,0.677235,-1.09503,17955,0,0,0,0,0,0,0,0,0,1,1
7988,-0.77832,0,-1.87695,-0.00145731,-0.00161903,-0.000746721,0.101731,-0.0153731,-2.45805,-3.80579,-0.526356,-0.197768,0.801373,-1.26432,0.680038,-1.10019,-2.45805,0,0,293,22,293,22,414,3,308,138,-0.287788,0.163138,0.0481623,-1.5,2.38809e-38,0,0,0,0.801373,-1.26432,0,0,0,0,0.680038,-1.10019,17955,0,0,0,0,0,0,0,0,0,1,1
8004,-0.77832,0,-3.50488,-0.00182776,-0.00177184,-0.000437619,0.101695,-0.0153982,-2.45806,-3.80579,-0.526356,-0.197768,0.812283,-1.28197,0.682811,-1.1053,-2.45806,0,0,293,22,293,22,414,3,308,138,-0.28823,0.162598,0.046638,-1.5,2.38809e-38,0,0,0,0.812283,-1.28197,0,0,0,0,0.682811,-1.1053,17955,0,0,0,0,0,0,0,0,0,1,1
8017,-0.77832,0,0.858398,-0.00251932,-0.00192685,-0.00170319,0.101654,-0.0154198,-2.45808,-3.83221,-0.526337,-0.20142,0.820492,-1.29527,0.68487,-1.1091,-2.45808,0,0,293,24,293,24,414,5,308,138,-0.28856,0.162194,0.0455291,-1.5,2.38809e-38,0,0,0,0.820492,-1.29527,0,0,0,0,0.68487,-1.1091,17556,0,0,0,0,0,0,0,0,0,1,1
8034,-0.77832,0,-1.99219,-0.00182292,-0.00295363,7.49509e-05,0.101593,-0.0154873,-2.4581,-3.83221,-0.526337,-0.20142,0.832856,-1.3153,0.68793,-1.11477,-2.45809,0,0,293,24,293,24,414,5,308,138,-0.289048,0.161596,0.0439995,-1.5,2.38809e-38,0,0,0,0.832856,-1.3153,0,0,0,0,0.68793,-1.11477,17556,0,0,0,0,0,0,0,0,0,1,1
8049,-0.77832,0,-6.73535,-0.00197234,-0.00159621,-0.00119954,0.101556,-0.015496,-2.45812,-3.8323,-0.526221,-0.201551,0.842508,-1.33094,0.690282,-1.11914,-2.4581,0,0,293,24,293,24,414,5,308,138,-0.289421,0.161139,0.0427802,-1.5,2.38809e-38,0,0,0,0.842508,-1.33094,0,0,0,0,0.690282,-1.11914,17556,0,0,0,0,0,0,0,0,0,1,1
8064,-0.77832,0,4.33789,-0.00200412,-0.0024128,-0.00125843,0.101522,-0.0155278,-2.45814,-3.8323,-0.526221,-0.201551,0.85358,-1.3489,0.692946,-1.1241,-2.45812,0,0,293,24,293,24,414,5,308,138,-0.28985,0.160615,0.0414262,-1.5,2.38809e-38,0,0,0,0.85358,-1.3489,0,0,0,0,0.692946,-1.1241,17556,0,0,0,0,0,0,0,0,0,1,1
8080,-0.77832,0,4.33789,-0.00200412,-0.0024128,-0.00125843,0.101522,-0.0155278,-2.45814,-3.8227,-0.522654,-0.200795,0.864695,-1.36694,0.695578,-1.12901,-2.45814,0,0,293,24,293,24,413,3,308,138,-0.290272,0.1601,0.0401151,-1.5,2.38809e-38,0,0,0,0.864695,-1.36694,0,0,0,0,0.695578,-1.12901,17820,0,0,0,0,0,0,0,0,0,1,1
8096,-0.77832,0,-4.70703,-0.000852412,-0.00242255,-0.000836758,0.101448,-0.0155941,-2.45818,-3.8227,-0.522654,-0.200795,0.875851,-1.38505,0.698185,-1.13388,-2.45818,0,0,293,24,293,24,413,3,308,138,-0.290696,0.159584,0.0389244,-1.5,2.38809e-38,0,0,0,0.875851,-1.38505,0,0,0,0,0.698185,-1.13388,17820,0,0,0,0,0,0,0,0,0,1,1
8112,-0.77832,0,-4.70703,-0.000852412,-0.00242255,-0.000836758,0.101448,-0.0155941,-2.45818,-3.80183,-0.523257,-0.204297,0.887048,-1.40324,0.700759,-1.13872,-2.45818,0,0,292,21,292,21,414,5,308,137,-0.291102,0.159085,0.0376932,-1.5,2.38809e-38,0,0,0,0.887048,-1.40324,0,0,0,0,0.700759,-1.13872,17688,0,0,0,0,0,0,0,0,0,1,1
8128,-0.77832,0,1.12012,-0.00150219,-0.00164481,-0.000520671,0.101383,-0.0156547,-2.4582,-3.80183,-0.523257,-0.204297,0.898286,-1.42151,0.703306,-1.14351,-2.4582,0,0,292,21,292,21,414,5,308,137,-0.291512,0.158584,0.036501,-1.5,2.38809e-38,0,0,0,0.898286,-1.42151,0,0,0,0,0.703306,-1.14351,17688,0,0,0,0,0,0,0,0,0,1,1
8144,-0.77832,0,1.12012,-0.00150219,-0.00164481,-0.000520671,0.101383,-0.0156547,-2.4582,-3.79559,-0.528219,-0.205409,0.909565,-1.43986,0.705825,-1.14827,-2.4582,0,0,293,24,293,24,416,2,308,138,-0.29191,0.158096,0.0353464,-1.5,2.38809e-38,0,0,0,0.909565,-1.43986,0,0,0,0,0.705825,-1.14827,18088,0,0,0,0,0,0,0,0,0,1,1
8160,-0.77832,0,3.92871,-0.000540904,-0.00267226,-0.000409687,0.101294,-0.0157475,-2.45823,-3.79559,-0.528219,-0.205409,0.920884,-1.45828,0.708319,-1.15298,-2.45822,0,0,293,24,293,24,416,2,308,138,-0.292309,0.157607,0.0342284,-1.5,2.38809e-38,0,0,0,0.920884,-1.45828,0,0,0,0,0.708319,-1.15298,18088,0,0,0,0,0,0,0,0,0,1,1
8176,-0.77832,0,3.92871,-0.000540904,-0.00267226,-0.000409687,0.101294,-0.0157475,-2.45823,-3.81292,-0.519432,-0.200266,0.932242,-1.47677,0.710781,-1.15766,-2.45823,0,0,291,22,291,22,414,5,308,138,-0.292701,0.157127,0.0331458,-1.5,2.38809e-38,0,0,0,0.932242,-1.47677,0,0,0,0,0.710781,-1.15766,17822,0,0,0,0,0,0,0,0,0,1,1
8192,-0.77832,0,-5.3457,-0.00228775,-0.00239554,-0.00177472,0.101205,-0.0157925,-2.45826,-3.81292,-0.519432,-0.200266,0.943639,-1.49534,0.713215,-1.1623,-2.45826,0,0,291,22,291,22,414,5,308,138,-0.293098,0.156644,0.0320974,-1.5,2.38809e-38,0,0,0,0.943639,-1.49534,0,0,0,0,0.713215,-1.1623,17822,0,0,0,0,0,0,0,0,0,1,1
8208,-0.77832,0,1.67773,-0.00106552,-0.00151831,-0.00121161,0.101174,-0.015805,-2.45829,-3.79198,-0.527094,-0.214262,0.954359,-1.51282,0.715469,-1.16661,-2.45829,0,0,293,24,293,24,416,3,308,138,-0.293461,0.1562,0.0311447,-1.5,2.38809e-38,0,0,0,0.954359,-1.51282,0,0,0,0,0.715469,-1.16661,17955,0,0,0,0,0,0,0,0,0,1,1
8223,-0.77832,0,-3.9082,-0.000867708,-0.00195368,-0.00134049,0.101156,-0.0158305,-2.45831,-3.79198,-0.527094,-0.214262,0.965831,-1.53153,0.717849,-1.17117,-2.45831,0,0,293,24,293,24,416,3,308,138,-0.293843,0.155734,0.0301596,-1.5,2.38809e-38,0,0,0,0.965831,-1.53153,0,0,0,0,0.717849,-1.17117,17955,0,0,0,0,0,0,0,0,0,1,1
8240,-0.77832,0,4.92383,-0.00278826,-0.00274068,-0.000713474,0.101116,-0.0158599,-2.45833,-3.83542,-0.522334,-0.189837,0.978062,-1.55149,0.720351,-1.17598,-2.45833,0,0,293,22,293,22,411,4,308,138,-0.294244,0.155243,0.0291464,-1.5,2.38809e-38,0,0,0,0.978062,-1.55149,0,0,0,0,0.720351,-1.17598,17822,0,0,0,0,0,0,0,0,0,1,1
8255,-0.77832,0,-5.90918,-0.00265473,-0.00184856,-0.00132703,0.101033,-0.0158934,-2.45836,-3.83542,-0.522334,-0.189837,0.988888,-1.56917,0.722533,-1.18018,-2.45834,0,0,293,22,293,22,411,4,308,138,-0.294592,0.154817,0.0282817,-1.5,2.38809e-38,0,0,0,0.988888,-1.56917,0,0,0,0,0.722533,-1.18018,17822,0,0,0,0,0,0,0,0,0,1,1
8271,-0.77832,0,-5.90918,-0.00265473,-0.00184856,-0.00132703,0.101033,-0.0158934,-2.45836,-3.7901,-0.524983,-0.210911,1.00047,-1.5881,0.724835,-1.18463,-2.45836,0,0,293,22,293,22,416,3,308,138,-0.294962,0.154365,0.0273872,-1.5,2.38809e-38,0,0,0,1.00047,-1.5881,0,0,0,0,0.724835,-1.18463,17820,0,0,0,0,0,0,0,0,0,1,1
8287,-0.77832,0,-2.99219,-0.00103361,-0.00178512,-0.000928105,0.100977,-0.0159254,-2.45839,-3.7901,-0.524983,-0.210911,1.01209,-1.6071,0.727116,-1.18904,-2.45839,0,0,293,22,293,22,416,3,308,138,-0.295332,0.153913,0.0265209,-1.5,2.38809e-38,0,0,0,1.01209,-1.6071,0,0,0,0,0.727116,-1.18904,17820,0,0,0,0,0,0,0,0,0,1,1
8304,-0.77832,0,4.16113,-0.000414393,-0.00282926,-0.000277408,0.100949,-0.0159499,-2.4584,-3.83202,-0.529829,-0.20376,1.02448,-1.62737,0.729508,-1.19368,-2.4584,0,0,293,24,293,24,415,6,308,137,-0.295713,0.153446,0.0256293,-1.5,2.38809e-38,0,0,0,1.02448,-1.62737,0,0,0,0,0.729508,-1.19368,17423,0,0,0,0,0,0,0,0,0,1,1
8320,-0.77832,0,-0.258789,-0.00144142,-0.00191434,-0.00075432,0.100915,-0.0159757,-2.45841,-3.83202,-0.529829,-0.20376,1.03618,-1.64651,0.731733,-1.19801,-2.45841,0,0,293,24,293,24,415,6,308,137,-0.296068,0.153011,0.0248187,-1.5,2.38809e-38,0,0,0,1.03618,-1.64651,0,0,0,0,0.731733,-1.19801,17423,0,0,0,0,0,0,0,0,0,1,1
8336,-0.77832,0,-4.0791,-0.00297624,-0.00205814,-0.000988148,0.100867,-0.0159983,-2.45842,-3.83202,-0.529829,-0.20376,1.04791,-1.66572,0.733935,-1.20231,-2.45842,0,0,293,24,293,24,415,6,308,137,-0.296419,0.152581,0.0240332,-1.5,2.38809e-38,0,0,0,1.04791,-1.66572,0,0,0,0,0.733935,-1.20231,17423,0,0,0,0,0,0,0,0,0,1,1
8352,-0.77832,0,-0.238281,-0.00291634,-0.00191584,-0.00121355,0.100769,-0.0160499,-2.45845,-3.81891,-0.526498,-0.201977,1.05967,-1.685,0.736113,-1.20657,-2.45842,0,0,293,22,293,22,414,5,308,137,-0.296763,0.152159,0.023273,-1.5,2.38809e-38,0,0,0,1.05967,-1.685,0,0,0,0,0.736113,-1.20657,17556,0,0,0,0,0,0,0,0,0,1,1
8368,-0.77832,0,4.96094,-0.00197973,-0.00212079,-0.000631165,0.100726,-0.0160725,-2.45847,-3.8168,-0.522817,-0.205325,1.07147,-1.70435,0.738267,-1.21079,-2.45845,0,0,293,24,293,24,414,3,308,138,-0.297113,0.151732,0.0225364,-1.5,2.38809e-38,0,0,0,1.07147,-1.70435,0,0,0,0,0.738267,-1.21079,17820,0,0,0,0,0,0,0,0,0,1,1
8384,-0.77832,0,-1.33984,-0.00177775,-0.00150776,-0.00212063,0.100679,-0.0160954,-2.4585,-3.8168,-0.522817,-0.205325,1.08331,-1.72377,0.740387,-1.21497,-2.4585,0,0,293,24,293,24,414,3,308,138,-0.297463,0.151307,0.0218232,-1.5,2.38809e-38,0,0,0,1.08331,-1.72377,0,0,0,0,0.740387,-1.21497,17820,0,0,0,0,0,0,0,0,0,1,1
8400,-0.77832,0,5.46973,-0.00187891,-0.00219831,-0.00170291,0.100642,-0.0161216,-2.45853,-3.8168,-0.522817,-0.205325,1.09517,-1.74325,0.742481,-1.21912,-2.45853,0,0,293,24,293,24,414,3,308,138,-0.297802,0.150893,0.0211325,-1.5,2.38809e-38,0,0,0,1.09517,-1.74325,0,0,0,0,0.742481,-1.21912,17820,0,0,0,0,0,0,0,0,0,1,1
8416,-0.77832,0,5.46973,-0.00187891,-0.00219831,-0.00170291,0.100642,-0.0161216,-2.45853,-3.81201,-0.518386,-0.204493,1.10708,-1.7628,0.744553,-1.22323,-2.45853,0,0,292,21,292,21,413,5,308,138,-0.298129,0.150491,0.020464,-1.5,2.38809e-38,0,0,0,1.10708,-1.7628,0,0,0,0,0.744553,-1.22323,17689,0,0,0,0,0,0,0,0,0,1,1
8431,-0.77832,0,-7.07617,-0.00249301,-0.000578781,-0.00113892,0.100556,-0.0161504,-2.45857,-3.81201,-0.518386,-0.204493,1.11826,-1.78119,0.746476,-1.22705,-2.45857,0,0,292,21,292,21,413,5,308,138,-0.298447,0.150105,0.0198566,-1.5,2.38809e-38,0,0,0,1.11826,-1.78119,0,0,0,0,0.746476,-1.22705,17689,0,0,0,0,0,0,0,0,0,1,1
8448,-0.77832,0,-6.7334,-0.0020776,-0.00214205,-0.00189747,0.100489,-0.0161923,-2.45861,-3.75778,-0.50649,-0.215368,1.13098,-1.80209,0.74863,-1.23134,-2.45857,0,0,291,22,291,22,414,2,305,138,-0.298787,0.149687,0.0191891,-1.5,2.38809e-38,0,0,0,1.13098,-1.80209,0,0,0,0,0.74863,-1.23134,18360,0,0,0,0,0,0,0,0,0,1,1
8463,-0.77832,0,-1.43848,-0.000703209,-0.0013887,-0.00182745,0.100456,-0.0162172,-2.45864,-3.75778,-0.50649,-0.215368,1.14222,-1.8206,0.750509,-1.23509,-2.45861,0,0,291,22,291,22,414,2,305,138,-0.299097,0.14931,0.0186195,-1.5,2.38809e-38,0,0,0,1.14222,-1.8206,0,0,0,0,0.750509,-1.23509,18360,0,0,0,0,0,0,0,0,0,1,1
8483,-0.77832,0,-1.43848,-0.000703209,-0.0013887,-0.00182745,0.100456,-0.0162172,-2.45864,-3.84198,-0.525894,-0.198355,1.15727,-1.84537,0.752983,-1.24006,-2.45864,0,0,293,24,293,24,414,5,308,137,-0.299495,0.148823,0.0178836,-1.5,2.38809e-38,0,0,0,1.15727,-1.84537,0,0,0,0,0.752983,-1.24006,17424,0,0,0,0,0,0,0,0,0,1,1
8590,-0.77832,0,4.58008,-0.00262515,-0.00133947,-0.000532245,0.100129,-0.0164254,-2.45879,-3.79298,-0.51635,-0.216672,1.23914,-1.98068,0.766034,-1.26631,-2.45879,0,0,291,25,291,25,414,3,308,138,-0.301603,0.146246,0.0141146,-1.5,2.38809e-38,0,0,0,1.23914,-1.98068,0,0,0,0,0.766034,-1.26631,18225,0,0,0,0,0,0,0,0,0,1,1
8667,-0.77832,0,-6.67871,-0.00155191,-0.00236599,-0.00102394,0.0999517,-0.01654,-2.45886,-3.83212,-0.526242,-0.203024,1.29872,-2.07941,0.774635,-1.28411,-2.45886,0,0,293,24,293,24,414,5,308,137,-0.302983,0.144555,0.0119769,-1.5,2.38809e-38,0,0,0,1.29872,-2.07941,0,0,0,0,0.774635,-1.28411,17556,0,0,0,0,0,0,0,0,0,1,1
8683,-0.77832,0,-6.67871,-0.00155191,-0.00236599,-0.00102394,0.0999517,-0.01654,-2.45886,-3.79548,-0.52189,-0.210373,1.31113,-2.09999,0.776327,-1.28766,-2.45886,0,0,293,22,293,22,414,3,308,138,-0.30325,0.144227,0.0115981,-1.5,2.38809e-38,0,0,0,1.31113,-2.09999,0,0,0,0,0.776327,-1.28766,17955,0,0,0,0,0,0,0,0,0,1,1
8699,-0.77832,0,1.83203,-0.00226505,-0.00146438,-0.000713628,0.099849,-0.0166127,-2.45893,-3.79548,-0.52189,-0.210373,1.32357,-2.12063,0.777999,-1.29118,-2.45891,0,0,293,22,293,22,414,3,308,138,-0.303529,0.143888,0.0112313,-1.5,2.38809e-38,0,0,0,1.32357,-2.12063,0,0,0,0,0.777999,-1.29118,17955,0,0,0,0,0,0,0,0,0,1,1
8715,-0.77832,0,0.40918,-0.00194869,-0.00216845,-0.00139848,0.099823,-0.0166385,-2.45895,-3.80766,-0.522502,-0.210616,1.33526,-2.14003,0.779542,-1.29446,-2.45893,0,0,293,24,293,24,414,3,308,138,-0.303778,0.143584,0.0108979,-1.5,2.38809e-38,0,0,0,1.33526,-2.14003,0,0,0,0,0.779542,-1.29446,17955,0,0,0,0,0,0,0,0,0,1,1
8731,-0.77832,0,6.47949,-0.00169741,-0.0022012,-0.00149565,0.0998057,-0.0166666,-2.45898,-3.80766,-0.522502,-0.210616,1.34853,-2.16208,0.781268,-1.29814,-2.45898,0,0,293,24,293,24,414,3,308,138,-0.304067,0.143234,0.0105318,-1.5,2.38809e-38,0,0,0,1.34853,-2.16208,0,0,0,0,0.781268,-1.29814,17955,0,0,0,0,0,0,0,0,0,1,1
8747,-0.77832,0,6.47949,-0.00169741,-0.0022012,-0.00149565,0.0998057,-0.0166666,-2.45898,-3.83473,-0.523499,-0.205089,1.36026,-2.18158,0.782774,-1.30136,-2.45898,0,0,293,24,293,24,414,5,308,138,-0.304304,0.142941,0.0102192,-1.5,2.38809e-38,0,0,0,1.36026,-2.18158,0,0,0,0,0.782774,-1.30136,17556,0,0,0,0,0,0,0,0,0,1,1
8762,-0.77832,0,6.47949,-0.00169741,-0.0022012,-0.00149565,0.0998057,-0.0166666,-2.45898,-3.83473,-0.523499,-0.205089,1.3728,-2.20244,0.78437,-1.30477,-2.45898,0,0,293,24,293,24,414,5,308,138,-0.304556,0.142632,0.00989575,-1.5,2.38809e-38,0,0,0,1.3728,-2.20244,0,0,0,0,0.78437,-1.30477,17556,0,0,0,0,0,0,0,0,0,1,1
8778,-0.77832,0,6.47949,-0.00169741,-0.0022012,-0.00149565,0.0998057,-0.0166666,-2.45898,-3.80592,-0.5205,-0.207212,1.38537,-2.22335,0.785952,-1.30815,-2.45898,0,0,293,22,293,22,414,3,308,138,-0.304805,0.142325,0.00958275,-1.5,2.38809e-38,0,0,0,1.38537,-2.22335,0,0,0,0,0.785952,-1.30815,17820,0,0,0,0,0,0,0,0,0,1,1
8793,-0.77832,0,0.697266,-0.00165653,-0.00229507,-0.0013644,0.0996215,-0.0167736,-2.45907,-3.80592,-0.5205,-0.207212,1.39717,-2.243,0.787424,-1.3113,-2.45898,0,0,293,22,293,22,414,3,308,138,-0.305037,0.142039,0.00929832,-1.5,2.38809e-38,0,0,0,1.39717,-2.243,0,0,0,0,0.787424,-1.3113,17820,0,0,0,0,0,0,0,0,0,1,1
8810,-0.77832,0,0.697266,-0.00165653,-0.00229507,-0.0013644,0.0996215,-0.0167736,-2.45907,-3.84293,-0.524876,-0.199749,1.41058,-2.26533,0.789063,-1.31483,-2.45907,0,0,293,24,293,24,414,5,308,137,-0.305323,0.141695,0.00898573,-1.5,2.38809e-38,0,0,0,1.41058,-2.26533,0,0,0,0,0.789063,-1.31483,17424,0,0,0,0,0,0,0,0,0,1,1
8825,-0.77832,0,0.737305,-0.00194332,-0.00169231,-0.00156431,0.0995517,-0.016806,-2.45911,-3.84293,-0.524876,-0.199749,1.42243,-2.28509,0.790479,-1.31792,-2.45911,0,0,293,24,293,24,414,5,308,137,-0.305561,0.141406,0.00871902,-1.5,2.38809e-38,0,0,0,1.42243,-2.28509,0,0,0,0,0.790479,-1.31792,17424,0,0,0,0,0,0,0,0,0,1,1
8842,-0.77832,0,5.25391,-0.00167275,-0.00190769,-0.00125041,0.0995211,-0.0168253,-2.45913,-3.79266,-0.515887,-0.216546,1.43509,-2.30621,0.791968,-1.32118,-2.45913,0,0,291,22,291,22,414,5,308,138,-0.305802,0.141112,0.00844306,-1.5,2.38809e-38,0,0,0,1.43509,-2.30621,0,0,0,0,0.791968,-1.32118,17955,0,0,0,0,0,0,0,0,0,1,1
8857,-0.77832,0,-4.06934,-0.00180403,-0.00285447,-0.00139015,0.0994847,-0.0168593,-2.45915,-3.79266,-0.515887,-0.216546,1.44778,-2.32738,0.793437,-1.32441,-2.45915,0,0,291,22,291,22,414,5,308,138,-0.306039,0.140821,0.00817584,-1.5,2.38809e-38,0,0,0,1.44778,-2.32738,0,0,0,0,0.793437,-1.32441,17955,0,0,0,0,0,0,0,0,0,1,1
8874,-0.77832,0,4.79102,-0.00185863,-0.00210848,-0.0010699,0.0994509,-0.0168755,-2.45917,-3.82642,-0.524158,-0.20221,1.46128,-2.34993,0.794977,-1.32782,-2.45917,0,0,293,25,293,25,414,3,308,138,-0.30629,0.140515,0.00790118,-1.5,2.38809e-38,0,0,0,1.46128,-2.34993,0,0,0,0,0.794977,-1.32782,17955,0,0,0,0,0,0,0,0,0,1,1
8889,-0.77832,0,4.79102,-0.00185863,-0.00210848,-0.0010699,0.0994509,-0.0168755,-2.45917,-3.82642,-0.524158,-0.20221,1.47322,-2.36988,0.796322,-1.3308,-2.45917,0,0,293,25,293,25,414,3,308,138,-0.306502,0.140254,0.00766666,-1.5,2.38809e-38,0,0,0,1.47322,-2.36988,0,0,0,0,0.796322,-1.3308,17955,0,0,0,0,0,0,0,0,0,1,1
8906,-0.77832,0,6.3252,-0.00198478,-0.00149729,-4.81001e-05,0.0993795,-0.0169056,-2.45921,-3.77666,-0.516222,-0.21212,1.48677,-2.39254,0.79783,-1.33415,-2.45921,0,0,291,22,291,22,416,2,308,138,-0.30675,0.139951,0.00740911,-1.5,2.38809e-38,0,0,0,1.48677,-2.39254,0,0,0,0,0.79783,-1.33415,18224,0,0,0,0,0,0,0,0,0,1,1
8921,-0.77832,0,6.9043,-0.00290944,-0.0017138,-0.00122281,0.0993142,-0.0169442,-2.45924,-3.77666,-0.516222,-0.21212,1.49875,-2.41258,0.799143,-1.33707,-2.45921,0,0,291,22,291,22,416,2,308,138,-0.306957,0.139697,0.00718919,-1.5,2.38809e-38,0,0,0,1.49875,-2.41258,0,0,0,0,0.799143,-1.33707,18224,0,0,0,0,0,0,0,0,0,1,1
8938,-0.77832,0,-6.1875,-0.0027722,-0.00230637,-0.00251689,0.0992716,-0.0169618,-2.45927,-3.8434,-0.524236,-0.200411,1.51236,-2.43535,0.800606,-1.34036,-2.45927,0,0,293,24,293,24,414,5,308,137,-0.307208,0.139393,0.00694768,-1.5,2.38809e-38,0,0,0,1.51236,-2.43535,0,0,0,0,0.800606,-1.34036,17424,0,0,0,0,0,0,0,0,0,1,1
8954,-0.77832,0,-0.117188,-0.00153615,-0.00174639,-0.000309789,0.0992415,-0.0169884,-2.45928,-3.8434,-0.524236,-0.200411,1.52438,-2.45548,0.80188,-1.34324,-2.45928,0,0,293,24,293,24,414,5,308,137,-0.307412,0.139143,0.00674146,-1.5,2.38809e-38,0,0,0,1.52438,-2.45548,0,0,0,0,0.80188,-1.34324,17424,0,0,0,0,0,0,0,0,0,1,1
8970,-0.77832,0,-4.88281,-0.00217424,-0.000866922,-0.000918584,0.0991983,-0.017003,-2.45929,-3.8434,-0.524236,-0.200411,1.53722,-2.477,0.803221,-1.34628,-2.45929,0,0,293,24,293,24,414,5,308,137,-0.307627,0.138879,0.00652809,-1.5,2.38809e-38,0,0,0,1.53722,-2.477,0,0,0,0,0.803221,-1.34628,17424,0,0,0,0,0,0,0,0,0,1,1
8985,-0.77832,0,-4.88281,-0.00217424,-0.000866922,-0.000918584,0.0991983,-0.017003,-2.45929,-3.81285,-0.522607,-0.210221,1.55009,-2.49858,0.804547,-1.34929,-2.45929,0,0,293,22,293,22,414,5,308,138,-0.307836,0.138622,0.00632161,-1.5,2.38809e-38,0,0,0,1.55009,-2.49858,0,0,0,0,0.804547,-1.34929,17689,0,0,0,0,0,0,0,0,0,1,1
9001,-0.77832,0,-4.39746,-0.0034811,-0.00138642,-0.00122866,0.0990571,-0.0170556,-2.45934,-3.81285,-0.522607,-0.210221,1.56297,-2.52019,0.805858,-1.35228,-2.45933,0,0,293,22,293,22,414,5,308,138,-0.308053,0.138357,0.00612165,-1.5,2.38809e-38,0,0,0,1.56297,-2.52019,0,0,0,0,0.805858,-1.35228,17689,0,0,0,0,0,0,0,0,0,1,1
9018,-0.77832,0,0.591797,-0.00171161,-0.00149143,-0.000302685,0.0990254,-0.0170783,-2.45935,-3.8322,-0.522122,-0.20718,1.57588,-2.54186,0.807146,-1.35523,-2.45934,0,0,293,24,293,24,413,5,308,138,-0.308261,0.138102,0.00592791,-1.5,2.38809e-38,0,0,0,1.57588,-2.54186,0,0,0,0,0.807146,-1.35523,17689,0,0,0,0,0,0,0,0,0,1,1
9033,-0.77832,0,-7.3418,-0.00193899,-0.00172712,-0.00168789,0.0989897,-0.0171065,-2.45938,-3.8322,-0.522122,-0.20718,1.58881,-2.56358,0.808413,-1.35816,-2.45938,0,0,293,24,293,24,413,5,308,138,-0.308473,0.137844,0.00574041,-1.5,2.38809e-38,0,0,0,1.58881,-2.56358,0,0,0,0,0.808413,-1.35816,17689,0,0,0,0,0,0,0,0,0,1,1
9049,-0.77832,0,-7.3418,-0.00193899,-0.00172712,-0.00168789,0.0989897,-0.0171065,-2.45938,-3.80673,-0.519331,-0.208318,1.60094,-2.58397,0.809586,-1.36088,-2.45938,0,0,293,22,293,22,414,3,308,138,-0.308658,0.137616,0.00557002,-1.5,2.38809e-38,0,0,0,1.60094,-2.58397,0,0,0,0,0.809586,-1.36088,17820,0,0,0,0,0,0,0,0,0,1,1
9065,-0.77832,0,-7.3418,-0.00193899,-0.00172712,-0.00168789,0.0989897,-0.0171065,-2.45938,-3.80673,-0.519331,-0.208318,1.61391,-2.60578,0.810827,-1.36377,-2.45938,0,0,293,22,293,22,414,3,308,138,-0.308854,0.137375,0.00539373,-1.5,2.38809e-38,0,0,0,1.61391,-2.60578,0,0,0,0,0.810827,-1.36377,17820,0,0,0,0,0,0,0,0,0,1,1
9080,-0.77832,0,-7.3418,-0.00193899,-0.00172712,-0.00168789,0.0989897,-0.0171065,-2.45938,-3.84486,-0.52375,-0.198016,1.6269,-2.62763,0.812059,-1.36662,-2.45938,0,0,293,24,293,24,413,5,308,138,-0.309048,0.137136,0.00522302,-1.5,2.38809e-38,0,0,0,1.6269,-2.62763,0,0,0,0,0.812059,-1.36662,17689,0,0,0,0,0,0,0,0,0,1,1
9096,-0.77832,0,-7.3418,-0.00193899,-0.00172712,-0.00168789,0.0989897,-0.0171065,-2.45938,-3.84486,-0.52375,-0.198016,1.6399,-2.64952,0.81328,-1.36946,-2.45938,0,0,293,24,293,24,413,5,308,138,-0.30924,0.136899,0.00505771,-1.5,2.38809e-38,0,0,0,1.6399,-2.64952,0,0,0,0,0.81328,-1.36946,17689,0,0,0,0,0,0,0,0,0,1,1
9112,-0.77832,0,-4.4668,-0.00214757,-0.00191749,-0.0015545,0.0987758,-0.0172483,-2.45948,-3.84982,-0.524085,-0.20093,1.65293,-2.67147,0.814492,-1.37228,-2.45938,0,0,293,25,293,25,414,5,308,137,-0.309431,0.136664,0.00489764,-1.5,2.38809e-38,0,0,0,1.65293,-2.67147,0,0,0,0,0.814492,-1.37228,17424,0,0,0,0,0,0,0,0,0,1,1
