timestamp,A_x,A_y,A_z,P,Q,R,Phi,Theta,Psi,poseX,poseY,poseZ,state_X,state_Y,state_Z,state_VzB,state_Bx,state_By,state_Bz,p1_x,p1_y,p2_x,p2_y,p3_x,p3_y,p4_x,p4_y,roll,pitch,yaw,alt,targetHeading,highLevelState,lowLevelState,gateNumber,filtered_x,filtered_y,x_OT,y_OT,vx_OT,vy_OT,filtered_vx,filtered_vygateArearansac_corr_x,ransac_corr_y,ransac_corr_vx,ransac_corr_vy,detectionTimeStamppTermX,dTermX,pTermY,dTermY,vxcmd,vycmd
6041,0.00878906,-0.0107422,-2.38672,0.298677,-0.0194393,0.0634557,-0.00526381,0.0656574,-1.81413,0,0,0,-4.03831e-07,2.21559e-05,0.000207786,0.00462429,-1.82638,0,0,0,0,0,0,0,0,0,0,0.242122,0.0620656,0,-1.5,0,0,0,0,-4.03831e-07,2.21559e-05,0,0,0,0,0.000207786,0.00462429,1.9603e-19,0,0,0,0,0,0,0,0,0,1,-2.43715e-05
6056,0.432617,-0.283203,-1.55762,-0.197166,0.0411798,-0.114056,-0.0251953,0.0307851,-1.83069,0,0,0,1.58331e-05,0.000179352,0.00129025,0.0132523,-1.83435,0,0,0,0,0,0,0,0,0,0,0.241932,0.0617983,0,-1.5,0,0,0,0,1.58331e-05,0.000179352,0,0,0,0,0.00129025,0.0132523,1.9603e-19,0,0,0,0,0,0,0,0,0,1,-0.000197287
6074,0.251953,-0.212891,2.34375,0.147155,0.0568888,0.0503339,-0.0279542,0.0341625,-1.83894,0,0,0,-3.87955e-07,0.000470367,-0.00213068,0.0177532,-1.85398,0,0,0,0,0,0,0,0,0,0,0.241831,0.0656161,0,-1.5,0,0,0,0,-3.87955e-07,0.000470367,0,0,0,0,-0.00213068,0.0177532,1.9603e-19,0,0,0,0,0,0,0,0,0,1,-0.000517403
6091,0.0136719,-0.00878906,2.38379,-0.0198473,0.0440378,0.0138291,-0.0265057,0.037668,-1.83702,0,0,0,-7.22413e-05,0.00083383,-0.00536383,0.0239005,-1.83941,0,0,0,0,0,0,0,0,0,0,0.243975,0.0607222,0,-1.5,0,0,0,0,-7.22413e-05,0.00083383,0,0,0,0,-0.00536383,0.0239005,1.9603e-19,0,0,0,0,0,0,0,0,0,1,-0.000917213
6107,0,-0.0546875,1.03906,0.0367625,0.0195945,-0.0315616,-0.0260494,0.0380986,-1.8374,0,0,0,-0.000183325,0.0012849,-0.00774368,0.0304645,-1.8374,0,0,0,0,0,0,0,0,0,0,0.245135,0.0586861,0,-1.5,0,0,0,0,-0.000183325,0.0012849,0,0,0,0,-0.00774368,0.0304645,1.9603e-19,0,0,0,0,0,0,0,0,0,1,-0.00141339
6123,0.0146484,-0.154297,2.19336,0.0677329,-6.47706e-05,-0.0448512,-0.0251491,0.0380625,-1.83803,0,0,0,-0.00033042,0.00183944,-0.00998457,0.0370326,-1.83803,0,0,0,0,0,0,0,0,0,0,0.246112,0.0572572,0,-1.5,0,0,0,0,-0.00033042,0.00183944,0,0,0,0,-0.00998457,0.0370326,1.9603e-19,0,0,0,0,0,0,0,0,0,1,-0.00202338
6138,0.189453,-0.303711,5.52441,0.0408538,0.00843971,-0.0546501,-0.0237365,0.0381543,-1.83941,0,0,0,-0.000499462,0.00245381,-0.0119466,0.0431086,-1.83868,0,0,0,0,0,0,0,0,0,0,0.246995,0.0559194,0,-1.5,0,0,0,0,-0.000499462,0.00245381,0,0,0,0,-0.0119466,0.0431086,1.9603e-19,0,0,0,0,0,0,0,0,0,1,-0.0026992
6154,0.322266,-0.318359,0.568359,0.0179375,-0.00484609,-0.0388946,-0.0235195,0.0381348,-1.84001,0,0,0,-0.000711382,0.00321097,-0.0138971,0.0495164,-1.83941,0,0,0,0,0,0,0,0,0,0,0.247904,0.0544844,0,-1.5,0,0,0,0,-0.000711382,0.00321097,0,0,0,0,-0.0138971,0.0495164,1.9603e-19,0,0,0,0,0,0,0,0,0,1,-0.00353206
6170,0.455078,-0.283203,-4.87598,-0.0112305,-0.0358621,-0.0221359,-0.0237173,0.0376342,-1.84035,0,0,0,-0.000952636,0.0040679,-0.0157546,0.0558482,-1.84035,0,0,0,0,0,0,0,0,0,0,0.248785,0.0530892,0,-1.5,0,0,0,0,-0.000952636,0.0040679,0,0,0,0,-0.0157546,0.0558482,1.9603e-19,0,0,0,0,0,0,0,0,0,1,-0.00447469
6186,0.525391,-0.183594,-5.37988,-0.00813913,-0.00382692,0.00277472,-0.0238432,0.037465,-1.84037,0,0,0,-0.00122397,0.00502493,-0.0176477,0.0620649,-1.84037,0,0,0,0,0,0,0,0,0,0,0.249724,0.0514666,0,-1.5,0,0,0,0,-0.00122397,0.00502493,0,0,0,0,-0.0176477,0.0620649,1.9603e-19,0,0,0,0,0,0,0,0,0,1,-0.00552743
6201,0.476562,-0.0957031,-2.72656,-0.0317387,0.0335205,0.029692,-0.0242136,0.0379252,-1.84001,0,0,0,-0.00150592,0.00601182,-0.0194352,0.067856,-1.84001,0,0,0,0,0,0,0,0,0,0,0.25063,0.0498397,0,-1.5,0,0,0,0,-0.00150592,0.00601182,0,0,0,0,-0.0194352,0.067856,1.9603e-19,0,0,0,0,0,0,0,0,0,1,-0.00661301
6217,0.410156,-0.0800781,4.44531,-0.00953332,-0.0157735,0.0591212,-0.0244864,0.0379136,-1.83927,0,0,0,-0.00181496,0.00708588,-0.0212538,0.0736647,-1.83927,0,0,0,0,0,0,0,0,0,0,0.251569,0.0480899,0,-1.5,0,0,0,0,-0.00181496,0.00708588,0,0,0,0,-0.0212538,0.0736647,1.9603e-19,0,0,0,0,0,0,0,0,0,1,-0.00779447
6232,0.307617,-0.0800781,0.111328,0.038543,-0.0677429,0.0900195,-0.0240344,0.0370514,-1.83806,0,0,0,-0.00217489,0.00832697,-0.0231959,0.0797512,-1.83806,0,0,0,0,0,0,0,0,0,0,0.252587,0.0461171,0,-1.5,0,0,0,0,-0.00217489,0.00832697,0,0,0,0,-0.0231959,0.0797512,1.9603e-19,0,0,0,0,0,0,0,0,0,1,-0.00915967
6293,0.254883,-0.193359,4.43555,0.0415006,0.0281938,-0.0316209,-0.0188197,0.0364286,-1.83818,0,0,0,-0.00397475,0.0143931,-0.0301927,0.102259,-1.83758,0,0,0,0,0,0,0,0,0,0,0.25622,0.03942,0,-1.5,0,0,0,0,-0.00397475,0.0143931,0,0,0,0,-0.0301927,0.102259,1.9603e-19,0,0,0,0,0,0,0,0,0,1,-0.0158324
6316,0.349609,-0.327148,-5.17676,-0.0528819,-0.0668265,0.0558636,-0.0192289,0.0357859,-1.8376,0,0,0,-0.00469571,0.0168767,-0.0318001,0.110081,-1.8376,0,0,0,0,0,0,0,0,0,0,0.257303,0.0369851,0,-1.5,0,0,0,0,-0.00469571,0.0168767,0,0,0,0,-0.0318001,0.110081,1.9603e-19,0,0,0,0,0,0,0,0,0,1,-0.0185644
6332,0.349609,-0.327148,-5.17676,-0.0528819,-0.0668265,0.0558636,-0.0192289,0.0357859,-1.8376,0,0,0,-0.00521686,0.0186939,-0.0329739,0.115401,-1.8376,0,0,0,0,0,0,0,0,0,0,0.258068,0.0352973,0,-1.5,0,0,0,0,-0.00521686,0.0186939,0,0,0,0,-0.0329739,0.115401,1.9603e-19,0,0,0,0,0,0,0,0,0,1,-0.0205633
6348,0.349609,-0.327148,-5.17676,-0.0528819,-0.0668265,0.0558636,-0.0192289,0.0357859,-1.8376,0,0,0,-0.00575632,0.0205942,-0.034138,0.120679,-1.8376,0,0,0,0,0,0,0,0,0,0,0.258835,0.0335972,0,-1.5,0,0,0,0,-0.00575632,0.0205942,0,0,0,0,-0.034138,0.120679,1.9603e-19,0,0,0,0,0,0,0,0,0,1,-0.0226536
6363,0,0.0566406,1.43555,-0.0665634,-0.0462566,-0.0174148,-0.0251704,0.0288642,-1.83328,0,0,0,-0.00627917,0.0224517,-0.0353722,0.125486,-1.83328,0,0,0,0,0,0,0,0,0,0,0.25972,0.0309037,0,-1.5,0,0,0,0,-0.00627917,0.0224517,0,0,0,0,-0.0353722,0.125486,1.9603e-19,0,0,0,0,0,0,0,0,0,1,-0.0246969
6379,0,0.0566406,1.43555,-0.0665634,-0.0462566,-0.0174148,-0.0251704,0.0288642,-1.83328,0,0,0,-0.00686986,0.0245056,-0.0377236,0.129873,-1.83328,0,0,0,0,0,0,0,0,0,0,0.260719,0.0294517,0,-1.5,0,0,0,0,-0.00686986,0.0245056,0,0,0,0,-0.0377236,0.129873,1.9603e-19,0,0,0,0,0,0,0,0,0,1,-0.0269562
6395,0.0527344,-0.0751953,2.36914,-0.152872,0.0422343,-0.100159,-0.0284244,0.0290355,-1.83561,0,0,0,-0.00749794,0.0266282,-0.0402333,0.134286,-1.83561,0,0,0,0,0,0,0,0,0,0,0.261696,0.0285966,0,-1.5,0,0,0,0,-0.00749794,0.0266282,0,0,0,0,-0.0402333,0.134286,1.9603e-19,0,0,0,0,0,0,0,0,0,1,-0.029291
6411,0.251953,-0.210938,-4.75781,-0.151642,0.00299864,-0.110492,-0.0305757,0.0291722,-1.8371,0,0,0,-0.00817143,0.0288241,-0.043135,0.13881,-1.8371,0,0,0,0,0,0,0,0,0,0,0.26281,0.0275037,0,-1.5,0,0,0,0,-0.00817143,0.0288241,0,0,0,0,-0.043135,0.13881,1.9603e-19,0,0,0,0,0,0,0,0,0,1,-0.0317065
6425,0.251953,-0.210938,-4.75781,-0.151642,0.00299864,-0.110492,-0.0305757,0.0291722,-1.8371,0,0,0,-0.00875238,0.0306586,-0.0456324,0.142516,-1.8371,0,0,0,0,0,0,0,0,0,0,0.263789,0.0262875,0,-1.5,0,0,0,0,-0.00875238,0.0306586,0,0,0,0,-0.0456324,0.142516,1.9603e-19,0,0,0,0,0,0,0,0,0,1,-0.0337244
6440,0.523438,-0.484375,-6.18555,-0.120204,0.0550085,-0.00446457,-0.0344574,0.0303267,-1.83859,0,0,0,-0.0095154,0.032987,-0.0488845,0.147174,-1.83859,0,0,0,0,0,0,0,0,0,0,0.265011,0.0251557,0,-1.5,0,0,0,0,-0.0095154,0.032987,0,0,0,0,-0.0488845,0.147174,1.9603e-19,0,0,0,0,0,0,0,0,0,1,-0.0362857
6456,0.364258,-0.0722656,-1.30762,-0.00189948,-0.0164719,0.00229795,-0.0355601,0.0298146,-1.83789,0,0,0,-0.0103352,0.0353927,-0.0524959,0.152019,-1.83808,0,0,0,0,0,0,0,0,0,0,0.266389,0.0234522,0,-1.5,0,0,0,0,-0.0103352,0.0353927,0,0,0,0,-0.0524959,0.152019,1.9603e-19,0,0,0,0,0,0,0,0,0,1,-0.0389319
6472,0.283203,-0.0166016,6.58008,0.0574817,0.0932711,-0.0759642,-0.0349827,0.0307159,-1.83877,0,0,0,-0.0112139,0.0378755,-0.0561925,0.156811,-1.83789,0,0,0,0,0,0,0,0,0,0,0.267781,0.0218306,0,-1.5,0,0,0,0,-0.0112139,0.0378755,0,0,0,0,-0.0561925,0.156811,1.9603e-19,0,0,0,0,0,0,0,0,0,1,-0.0416631
6488,0.276367,-0.0986328,-6.56836,0.14233,0.20821,-0.123314,-0.0332343,0.0333702,-1.84058,0,0,0,-0.012149,0.0404341,-0.0596804,0.161712,-1.84058,0,0,0,0,0,0,0,0,0,0,0.269076,0.0209249,0,-1.5,0,0,0,0,-0.012149,0.0404341,0,0,0,0,-0.0596804,0.161712,1.9603e-19,0,0,0,0,0,0,0,0,0,1,-0.0444775
6504,0.34082,-0.376953,7.0752,0.179783,0.209561,-0.0892363,-0.0310727,0.0363986,-1.84205,0,0,0,-0.0131367,0.0430757,-0.0627121,0.166939,-1.84205,0,0,0,0,0,0,0,0,0,0,0.27032,0.019565,0,-1.5,0,0,0,0,-0.0131367,0.0430757,0,0,0,0,-0.0627121,0.166939,1.9603e-19,0,0,0,0,0,0,0,0,0,1,-0.0473833
6519,0.34082,-0.376953,7.0752,0.179783,0.209561,-0.0892363,-0.0310727,0.0363986,-1.84205,0,0,0,-0.0141015,0.0456294,-0.0652069,0.172062,-1.84205,0,0,0,0,0,0,0,0,0,0,0.271452,0.0178217,0,-1.5,0,0,0,0,-0.0141015,0.0456294,0,0,0,0,-0.0652069,0.172062,1.9603e-19,0,0,0,0,0,0,0,0,0,1,-0.0501924
6535,0.375,-0.486328,0.258789,0.297639,0.0812411,0.0400125,-0.0239462,0.0392383,-1.84224,0,0,0,-0.0151018,0.0482598,-0.067234,0.177195,-1.84224,0,0,0,0,0,0,0,0,0,0,0.272475,0.0160755,0,-1.5,0,0,0,0,-0.0151018,0.0482598,0,0,0,0,-0.067234,0.177195,1.9603e-19,0,0,0,0,0,0,0,0,0,1,-0.0530857
6550,0.155273,-0.243164,-4.28027,0.284571,0.104877,0.0749679,-0.0198207,0.0406978,-1.84123,0,0,0,-0.0161915,0.0511529,-0.068409,0.182724,-1.84123,0,0,0,0,0,0,0,0,0,0,0.273356,0.01378,0,-1.5,0,0,0,0,-0.0161915,0.0511529,0,0,0,0,-0.068409,0.182724,1.9603e-19,0,0,0,0,0,0,0,0,0,1,-0.0562682
6566,-0.0546875,-0.0410156,-6.50488,0.388906,0.0336338,-0.0214772,-0.0100177,0.0424182,-1.84059,0,0,0,-0.0172929,0.0541345,-0.0688892,0.188235,-1.84047,0,0,0,0,0,0,0,0,0,0,0.274068,0.0114856,0,-1.5,0,0,0,0,-0.0172929,0.0541345,0,0,0,0,-0.0688892,0.188235,1.9603e-19,0,0,0,0,0,0,0,0,0,1,-0.0595479
6582,-0.0664062,-0.0742188,2.34277,0.309268,-0.00736986,-0.0915747,-0.00559442,0.0423168,-1.84171,0,0,0,-0.0183928,0.0572015,-0.0684515,0.193616,-1.84059,0,0,0,0,0,0,0,0,0,0,0.274544,0.00938033,0,-1.5,0,0,0,0,-0.0183928,0.0572015,0,0,0,0,-0.0684515,0.193616,1.9603e-19,0,0,0,0,0,0,0,0,0,1,-0.0629217
6598,0.0761719,-0.108398,-0.71875,0.0408193,-0.051921,-0.119219,-0.00443499,0.0416534,-1.8434,0,0,0,-0.0194725,0.0603527,-0.0669567,0.198671,-1.8434,0,0,0,0,0,0,0,0,0,0,0.27473,0.00799872,0,-1.5,0,0,0,0,-0.0194725,0.0603527,0,0,0,0,-0.0669567,0.198671,1.9603e-19,0,0,0,0,0,0,0,0,0,1,-0.0663879
6614,0.175781,-0.283203,1.19727,-0.142544,-0.148528,-0.0904382,-0.00636904,0.0399009,-1.84477,0,0,0,-0.020527,0.0635826,-0.065425,0.203508,-1.84477,0,0,0,0,0,0,0,0,0,0,0.274918,0.00625383,0,-1.5,0,0,0,0,-0.020527,0.0635826,0,0,0,0,-0.065425,0.203508,1.9603e-19,0,0,0,0,0,0,0,0,0,1,-0.0699409
6630,0.275391,-0.477539,5.39355,-0.25899,-0.237348,-0.00593186,-0.0096296,0.0367715,-1.84506,0,0,0,-0.0215623,0.0668856,-0.0644459,0.208021,-1.84506,0,0,0,0,0,0,0,0,0,0,0.275232,0.0043056,0,-1.5,0,0,0,0,-0.0215623,0.0668856,0,0,0,0,-0.0644459,0.208021,1.9603e-19,0,0,0,0,0,0,0,0,0,1,-0.0735742
6646,0.275391,-0.477539,5.39355,-0.25899,-0.237348,-0.00593186,-0.0096296,0.0367715,-1.84506,0,0,0,-0.0225871,0.0702577,-0.0638242,0.212311,-1.84506,0,0,0,0,0,0,0,0,0,0,0.275624,0.00233838,0,-1.5,0,0,0,0,-0.0225871,0.0702577,0,0,0,0,-0.0638242,0.212311,1.9603e-19,0,0,0,0,0,0,0,0,0,1,-0.0772835
6661,0.320312,-0.274414,-5.4082,-0.326987,-0.238549,0.107125,-0.019547,0.030603,-1.84254,0,0,0,-0.0235415,0.0734802,-0.0639108,0.216109,-1.84254,0,0,0,0,0,0,0,0,0,0,0.276143,-0.000119881,0,-1.5,0,0,0,0,-0.0235415,0.0734802,0,0,0,0,-0.0639108,0.216109,1.9603e-19,0,0,0,0,0,0,0,0,0,1,-0.0808283
6678,0.0507812,0.0107422,-4.23926,-0.0839968,-0.00799224,0.0249522,-0.0237291,0.0272913,-1.84059,0,0,0,-0.024577,0.0769766,-0.0652648,0.219704,-1.84115,0,0,33554303,-167645441,33554303,-167645441,-8436479,-1,-534446081,-65025,0.276965,-0.00220602,0,-1.5,0,0,0,0,-0.024577,0.0769766,0,0,0,0,-0.0652648,0.219704,0,0,0,0,0,0,0,0,0,0,1,-0.0846742
6690,0.0673828,-0.0273438,-3.44043,-0.075279,0.0716508,-0.0519509,-0.0247319,0.0279983,-1.84119,0,0,0,-0.0254371,0.0798548,-0.0667504,0.222436,-1.84059,0,0,33554303,-167645441,33554303,-167645441,-8436479,-1,-534446081,-65025,0.277715,-0.00368087,0,-1.5,0,0,0,0,-0.0254371,0.0798548,0,0,0,0,-0.0667504,0.222436,0,0,0,0,0,0,0,0,0,0,1,-0.0878403
6706,0.0673828,-0.0273438,-3.44043,-0.075279,0.0716508,-0.0519509,-0.0247319,0.0279983,-1.84119,-5.49912,-0.292508,-1.39043,-0.0265255,0.0834493,-0.0687194,0.225846,-1.84119,0,0,299,195,299,195,380,189,303,274,0.278683,-0.00515774,0,-1.5,0,0,0,0,-0.0265255,0.0834493,0,0,0,0,-0.0687194,0.225846,7395,0,0,0,0,0,0,0,0,0,1,-0.0917942
6723,0.543945,-0.24707,6.42285,-0.103012,-0.00413768,-0.0642702,-0.0290756,0.0292373,-1.84332,-5.49912,-0.292508,-1.39043,-0.0277176,0.0873293,-0.0709686,0.229589,-1.84332,0,0,299,195,299,195,380,189,303,274,0.279774,-0.00634073,0,-1.5,0,0,0,0,-0.0277176,0.0873293,0,0,0,0,-0.0709686,0.229589,7395,0,0,0,0,0,0,0,0,0,1,-0.0960623
6738,0.629883,-0.436523,1.98535,0.0402309,0.0245788,-0.00800508,-0.0287385,0.0294132,-1.84358,-5.49912,-0.292508,-1.39043,-0.0288049,0.0908067,-0.0733858,0.233156,-1.84358,0,0,299,195,299,195,380,189,303,274,0.280856,-0.00788571,0,-1.5,0,0,0,0,-0.0288049,0.0908067,0,0,0,0,-0.0733858,0.233156,7395,0,0,0,0,0,0,0,0,0,1,-0.0998874
6753,0.512695,-0.448242,0.895508,0.0857961,0.144244,0.0633165,-0.0275427,0.0312284,-1.84289,-5.49912,-0.292508,-1.39043,-0.0299277,0.0943376,-0.0756731,0.236762,-1.84289,0,0,299,195,299,195,380,189,303,274,0.281904,-0.0097289,0,-1.5,0,0,0,0,-0.0299277,0.0943376,0,0,0,0,-0.0756731,0.236762,7395,0,0,0,0,0,0,0,0,0,1,-0.103771
6769,0.339844,-0.375977,2.32617,0.0415276,0.172646,0.109321,-0.0268624,0.0337327,-1.84152,-5.49912,-0.292508,-1.39043,-0.0311616,0.0981682,-0.0778347,0.240872,-1.84152,0,0,299,195,299,195,380,189,303,274,0.282968,-0.011977,0,-1.5,0,0,0,0,-0.0311616,0.0981682,0,0,0,0,-0.0778347,0.240872,7395,0,0,0,0,0,0,0,0,0,1,-0.107985
6785,0.100586,-0.276367,6.7334,-0.0328245,0.148798,0.12417,-0.0270625,0.0358308,-1.83986,-5.49912,-0.292508,-1.39043,-0.0324275,0.102066,-0.0798367,0.245285,-1.83986,0,0,299,195,299,195,380,189,303,274,0.284008,-0.0144104,0,-1.5,0,0,0,0,-0.0324275,0.102066,0,0,0,0,-0.0798367,0.245285,7395,0,0,0,0,0,0,0,0,0,1,-0.112273
6802,0.0820312,0,0.148438,-0.0883561,0.141785,0.0549954,-0.0293674,0.039672,-1.83744,-5.49912,-0.292508,-1.39043,-0.0337257,0.10604,-0.0818343,0.249994,-1.83831,0,0,299,195,299,195,380,189,303,274,0.285067,-0.0169077,0,-1.5,0,0,0,0,-0.0337257,0.10604,0,0,0,0,-0.0818343,0.249994,7395,0,0,0,0,0,0,0,0,0,1,-0.116644
6818,0.148438,0,6.70996,-0.148518,0.277063,-0.00149042,-0.0312204,0.0429875,-1.8375,-5.49912,-0.292508,-1.39043,-0.0350568,0.110092,-0.0839322,0.255044,-1.83744,0,0,299,195,299,195,380,189,303,274,0.286185,-0.0193093,0,-1.5,0,0,0,0,-0.0350568,0.110092,0,0,0,0,-0.0839322,0.255044,7395,0,0,0,0,0,0,0,0,0,1,-0.121101
6834,0.214844,-0.146484,-0.0625,-0.149491,0.485112,-0.000711014,-0.0334824,0.0493522,-1.83777,-5.49912,-0.292508,-1.39043,-0.0365103,0.114495,-0.0863617,0.261349,-1.83777,0,0,299,195,299,195,380,189,303,274,0.287512,-0.021745,0,-1.5,0,0,0,0,-0.0365103,0.114495,0,0,0,0,-0.0863617,0.261349,7395,0,0,0,0,0,0,0,0,0,1,-0.125945
6850,0.1875,-0.378906,-1.44922,-0.115481,0.658852,0.0141287,-0.0350661,0.0578767,-1.83791,-5.47215,-0.288947,-1.35943,-0.0379157,0.118748,-0.0886576,0.268529,-1.83791,0,0,300,197,300,197,380,194,302,279,0.288851,-0.0244124,0,-1.5,0,0,0,0,-0.0379157,0.118748,0,0,0,0,-0.0886576,0.268529,7225,0,0,0,0,0,0,0,0,0,1,-0.130622
6866,0.0449219,-0.524414,0.675781,-0.285631,0.895269,0.0186341,-0.0382765,0.0698085,-1.83804,-5.47215,-0.288947,-1.35943,-0.0392656,0.122851,-0.0907177,0.276809,-1.83804,0,0,300,197,300,197,380,194,302,279,0.290196,-0.0273237,0,-1.5,0,0,0,0,-0.0392656,0.122851,0,0,0,0,-0.0907177,0.276809,7225,0,0,0,0,0,0,0,0,0,1,-0.135137
6882,0.0449219,-0.524414,0.675781,-0.285631,0.895269,0.0186341,-0.0382765,0.0698085,-1.83804,-5.47215,-0.288947,-1.35943,-0.0407399,0.127385,-0.0928939,0.286738,-1.83804,0,0,300,197,300,197,380,194,302,279,0.291705,-0.0307765,0,-1.5,0,0,0,0,-0.0407399,0.127385,0,0,0,0,-0.0928939,0.286738,7225,0,0,0,0,0,0,0,0,0,1,-0.140123
6897,0.195312,-0.402344,6.41797,-1.00931,1.44793,-0.100189,-0.0601384,0.104545,-1.84132,-5.47215,-0.288947,-1.35943,-0.0422517,0.132086,-0.0957373,0.298917,-1.84132,0,0,300,197,300,197,380,194,302,279,0.293649,-0.033808,0,-1.5,0,0,0,0,-0.0422517,0.132086,0,0,0,0,-0.0957373,0.298917,7225,0,0,0,0,0,0,0,0,0,1,-0.145294
6913,0.558594,-1.3291,-3.22461,-1.49743,1.79379,-0.108889,-0.0965155,0.149229,-1.8483,-5.47215,-0.288947,-1.35943,-0.0438238,0.137031,-0.0996953,0.31487,-1.84132,0,0,300,197,300,197,380,194,302,279,0.296032,-0.0386972,0,-1.5,0,0,0,0,-0.0438238,0.137031,0,0,0,0,-0.0996953,0.31487,7225,0,0,0,0,0,0,0,0,0,1,-0.150734
6929,1.05664,-1.59766,3.62695,-1.76105,1.95999,-0.0798916,-0.121472,0.176324,-1.85246,-5.47215,-0.288947,-1.35943,-0.045469,0.142256,-0.10537,0.334925,-1.8483,0,0,300,197,300,197,380,194,302,279,0.299426,-0.0424469,0,-1.5,0,0,0,0,-0.045469,0.142256,0,0,0,0,-0.10537,0.334925,7225,0,0,0,0,0,0,0,0,0,1,-0.156482
6944,1.05664,-1.59766,3.62695,-1.76105,1.95999,-0.0798916,-0.121472,0.176324,-1.85246,-5.47215,-0.288947,-1.35943,-0.0471395,0.147548,-0.114656,0.362531,-1.85246,0,0,300,197,300,197,380,194,302,279,0.304153,-0.0485823,0,-1.5,0,0,0,0,-0.0471395,0.147548,0,0,0,0,-0.114656,0.362531,7225,0,0,0,0,0,0,0,0,0,1,-0.162302
6960,1.89844,-2.23828,5.89648,-1.77248,1.74283,0.0547547,-0.172564,0.226573,-1.85971,-5.47215,-0.288947,-1.35943,-0.0490814,0.153663,-0.125844,0.394345,-1.85971,0,0,300,197,300,197,380,194,302,279,0.309923,-0.054816,0,-1.5,0,0,0,0,-0.0490814,0.153663,0,0,0,0,-0.125844,0.394345,7225,0,0,0,0,0,0,0,0,0,1,-0.169029
6977,2.12891,-2.5957,1.8584,-1.76807,1.72508,0.146861,-0.198052,0.250543,-1.86235,-5.47215,-0.288947,-1.35943,-0.0514039,0.160838,-0.143169,0.438338,-1.86235,0,0,300,197,300,197,380,194,302,279,0.317944,-0.0651737,0,-1.5,0,0,0,0,-0.0514039,0.160838,0,0,0,0,-0.143169,0.438338,7225,0,0,0,0,0,0,0,0,0,1,-0.176921
6993,2.31836,-2.6748,-5.1416,-1.60826,1.75452,0.277606,-0.221634,0.275441,-1.86401,-5.47215,-0.288947,-1.35943,-0.053717,0.16782,-0.16082,0.481612,-1.86401,0,0,300,197,300,197,380,194,302,279,0.325958,-0.075566,0,-1.5,0,0,0,0,-0.053717,0.16782,0,0,0,0,-0.16082,0.481612,7225,0,0,0,0,0,0,0,0,0,1,-0.184603
7009,2.33691,-2.47559,2.61621,-0.959337,1.47757,0.279253,-0.255433,0.319968,-1.86654,-5.47215,-0.288947,-1.35943,-0.0566902,0.176588,-0.183009,0.535389,-1.86519,0,0,300,197,300,197,380,194,302,279,0.335956,-0.0887445,0,-1.5,0,0,0,0,-0.0566902,0.176588,0,0,0,0,-0.183009,0.535389,7225,0,0,0,0,0,0,0,0,0,1,-0.194247
7025,2.28516,-2.38281,-0.667969,-0.59048,1.37739,0.200792,-0.264556,0.338466,-1.8686,-5.47215,-0.288947,-1.35943,-0.0598468,0.185711,-0.20574,0.591099,-1.86654,0,0,300,197,300,197,380,194,302,279,0.346302,-0.102359,0,-1.5,0,0,0,0,-0.0598468,0.185711,0,0,0,0,-0.20574,0.591099,7225,0,0,0,0,0,0,0,0,0,1,-0.204283
7041,2.28516,-2.38281,-0.667969,-0.59048,1.37739,0.200792,-0.264556,0.338466,-1.8686,-5.47215,-0.288947,-1.35943,-0.063388,0.195808,-0.229445,0.651873,-1.8686,0,0,300,197,300,197,380,194,302,279,0.357451,-0.117085,0,-1.5,0,0,0,0,-0.063388,0.195808,0,0,0,0,-0.229445,0.651873,7225,0,0,0,0,0,0,0,0,0,1,-0.215389
7057,2.28516,-2.38281,-0.667969,-0.59048,1.37739,0.200792,-0.264556,0.338466,-1.8686,-5.47215,-0.288947,-1.35943,-0.0673064,0.206872,-0.25296,0.712163,-1.8686,0,0,300,197,300,197,380,194,302,279,0.368386,-0.132678,0,-1.5,0,0,0,0,-0.0673064,0.206872,0,0,0,0,-0.25296,0.712163,7225,0,0,0,0,0,0,0,0,0,1,-0.227559
7074,2.25781,-2.82617,1.36328,-0.0882419,1.31721,-0.227052,-0.281894,0.394779,-1.88803,-5.47215,-0.288947,-1.35943,-0.0718777,0.219701,-0.277318,0.780473,-1.88803,0,0,300,197,300,197,380,194,302,279,0.383107,-0.143174,0,-1.5,0,0,0,0,-0.0718777,0.219701,0,0,0,0,-0.277318,0.780473,7225,0,0,0,0,0,0,0,0,0,1,-0.241671
7090,2.10156,-3.23633,6.16699,0.0510795,1.21443,-0.35548,-0.285275,0.409535,-1.89799,-5.47215,-0.288947,-1.35943,-0.0765391,0.232911,-0.299103,0.851925,-1.89799,0,0,300,197,300,197,380,194,302,279,0.39658,-0.157955,0,-1.5,0,0,0,0,-0.0765391,0.232911,0,0,0,0,-0.299103,0.851925,7225,0,0,0,0,0,0,0,0,0,1,-0.256202
7106,2.2334,-3.83887,4.65137,-0.111482,1.083,-0.427589,-0.295805,0.436704,-1.91963,-5.47215,-0.288947,-1.35943,-0.0815388,0.247288,-0.319902,0.925753,-1.90842,0,0,300,197,300,197,380,194,302,279,0.410537,-0.173232,0,-1.5,0,0,0,0,-0.0815388,0.247288,0,0,0,0,-0.319902,0.925753,7225,0,0,0,0,0,0,0,0,0,1,-0.272017
7121,2.30176,-4.00977,-3.125,-0.113732,0.962289,-0.445967,-0.302065,0.448129,-1.93064,-5.47215,-0.288947,-1.35943,-0.0865194,0.261861,-0.338562,0.997434,-1.91963,0,0,300,197,300,197,380,194,302,279,0.424332,-0.187632,0,-1.5,0,0,0,0,-0.0865194,0.261861,0,0,0,0,-0.338562,0.997434,7225,0,0,0,0,0,0,0,0,0,1,-0.288047
7138,2.50098,-4.10938,3.875,-0.12308,0.844107,-0.477215,-0.308352,0.457173,-1.94129,-5.47215,-0.288947,-1.35943,-0.092504,0.279783,-0.358665,1.0826,-1.94129,0,0,300,197,300,197,380,194,302,279,0.442473,-0.201021,0,-1.5,0,0,0,0,-0.092504,0.279783,0,0,0,0,-0.358665,1.0826,7225,0,0,0,0,0,0,0,0,0,1,-0.307762
7153,2.73828,-4.20898,-6.77441,-0.149925,0.802762,-0.466932,-0.315386,0.465859,-1.9522,-5.47215,-0.288947,-1.35943,-0.0980508,0.296764,-0.375845,1.15956,-1.9522,0,0,300,197,300,197,380,194,302,279,0.457526,-0.216775,0,-1.5,0,0,0,0,-0.0980508,0.296764,0,0,0,0,-0.375845,1.15956,7225,0,0,0,0,0,0,0,0,0,1,-0.32644
7169,2.94922,-4.37988,-1.00293,-0.152773,0.722225,-0.420166,-0.32202,0.47382,-1.96225,-5.47215,-0.288947,-1.35943,-0.104247,0.316169,-0.393657,1.24363,-1.96225,0,0,300,197,300,197,380,194,302,279,0.473854,-0.234825,0,-1.5,0,0,0,0,-0.104247,0.316169,0,0,0,0,-0.393657,1.24363,7225,0,0,0,0,0,0,0,0,0,1,-0.347786
7186,3.04883,-4.64551,0.402344,-0.186501,0.661707,-0.358457,-0.328491,0.480757,-1.97086,-5.47215,-0.288947,-1.35943,-0.111143,0.338305,-0.412168,1.33435,-1.97086,0,0,300,197,300,197,380,194,302,279,0.491322,-0.255433,0,-1.5,0,0,0,0,-0.111143,0.338305,0,0,0,0,-0.412168,1.33435,7225,0,0,0,0,0,0,0,0,0,1,-0.372136
7202,3.24805,-4.78418,6.07422,-0.150639,0.551176,-0.200037,-0.339861,0.493636,-1.98444,-5.47215,-0.288947,-1.35943,-0.117919,0.36056,-0.429302,1.42084,-1.9783,0,0,300,197,300,197,380,194,302,279,0.500991,-0.258989,0,-1.5,0,0,0,0,-0.117919,0.36056,0,0,0,0,-0.429302,1.42084,7225,0,0,0,0,0,0,0,0,0,1,-0.396616
7218,3.21484,-4.71777,6.46973,-0.0528464,0.461888,-0.119784,-0.342904,0.49918,-1.98882,-5.47215,-0.288947,-1.35943,-0.124965,0.384212,-0.446157,1.50863,-1.98444,0,0,300,197,300,197,380,194,302,279,0.506431,-0.254213,0,-1.5,0,0,0,0,-0.124965,0.384212,0,0,0,0,-0.446157,1.50863,7225,0,0,0,0,0,0,0,0,0,1,-0.422633
7235,3.01562,-4.65137,1.63477,0.0170885,0.361367,-0.0617747,-0.344175,0.503731,-1.99185,-5.47215,-0.288947,-1.35943,-0.132276,0.409289,-0.462485,1.59802,-1.99185,0,0,300,197,300,197,380,194,302,279,0.512027,-0.248783,0,-1.5,0,0,0,0,-0.132276,0.409289,0,0,0,0,-0.462485,1.59802,7225,0,0,0,0,0,0,0,0,0,1,-0.450218
7251,2.8291,-4.58496,1.64648,0.0302921,0.37988,-0.0383077,-0.345069,0.508177,-1.99436,-5.47215,-0.288947,-1.35943,-0.139842,0.4358,-0.478269,1.68778,-1.99436,0,0,300,197,300,197,380,194,302,279,0.516245,-0.245879,0,-1.5,0,0,0,0,-0.139842,0.4358,0,0,0,0,-0.478269,1.68778,7225,0,0,0,0,0,0,0,0,0,1,-0.47938
7267,2.7168,-4.51855,-3.34863,0.026279,0.440901,-0.0519424,-0.346285,0.513481,-1.99732,-5.47215,-0.288947,-1.35943,-0.148152,0.465544,-0.494423,1.78358,-1.99732,0,0,300,197,300,197,380,194,302,279,0.520648,-0.242677,0,-1.5,0,0,0,0,-0.148152,0.465544,0,0,0,0,-0.494423,1.78358,7225,0,0,0,0,0,0,0,0,0,1,-0.512099
7283,2.7168,-4.51855,-3.34863,0.026279,0.440901,-0.0519424,-0.346285,0.513481,-1.99732,-5.47215,-0.288947,-1.35943,-0.155703,0.493116,-0.508329,1.86803,-1.99732,0,0,300,197,300,197,380,194,302,279,0.523813,-0.241239,0,-1.5,0,0,0,0,-0.155703,0.493116,0,0,0,0,-0.508329,1.86803,7225,0,0,0,0,0,0,0,0,0,1,-0.542427
7299,2.63086,-4.49609,-0.728516,-0.0816266,0.752903,-0.228782,-0.353861,0.535265,-2.01379,-5.47215,-0.288947,-1.35943,-0.164514,0.525924,-0.523395,1.96421,-2.0065,0,0,300,197,300,197,380,194,302,279,0.529421,-0.23483,0,-1.5,0,0,0,0,-0.164514,0.525924,0,0,0,0,-0.523395,1.96421,7225,0,0,0,0,0,0,0,0,0,1,-0.578517
7314,2.70703,-4.69043,-2.93652,-0.112337,0.593195,-0.283087,-0.359575,0.54198,-2.02139,-5.47215,-0.288947,-1.35943,-0.172484,0.556222,-0.535588,2.05097,-2.01379,0,0,300,197,300,197,380,194,302,279,0.533872,-0.229658,0,-1.5,0,0,0,0,-0.172484,0.556222,0,0,0,0,-0.535588,2.05097,7225,0,0,0,0,0,0,0,0,0,1,-0.611844
7330,2.93945,-4.98926,3.25293,-0.0334359,0.349475,-0.256458,-0.363459,0.545648,-2.02773,-5.47215,-0.288947,-1.35943,-0.181179,0.590004,-0.547882,2.14569,-2.02139,0,0,300,197,300,197,380,194,302,279,0.538369,-0.224256,0,-1.5,0,0,0,0,-0.181179,0.590004,0,0,0,0,-0.547882,2.14569,7225,0,0,0,0,0,0,0,0,0,1,-0.649005
7347,2.93945,-4.98926,3.25293,-0.0334359,0.349475,-0.256458,-0.363459,0.545648,-2.02773,-5.47215,-0.288947,-1.35943,-0.190632,0.627594,-0.560488,2.24674,-2.02773,0,0,300,197,300,197,380,194,302,279,0.542608,-0.219447,0,-1.5,0,0,0,0,-0.190632,0.627594,0,0,0,0,-0.560488,2.24674,7225,0,0,0,0,0,0,0,0,0,1,-0.690353
7362,2.98145,-5.36914,-5.86914,-0.158284,0.295563,-0.107342,-0.369828,0.551123,-2.03544,-5.47215,-0.288947,-1.35943,-0.199143,0.662129,-0.571447,2.33571,-2.03544,0,0,300,197,300,197,380,194,302,279,0.546734,-0.214027,0,-1.5,0,0,0,0,-0.199143,0.662129,0,0,0,0,-0.571447,2.33571,7225,0,0,0,0,0,0,0,0,0,1,-0.728342
7377,3.08008,-5.23926,2.30859,-0.254534,0.373299,-0.079184,-0.375125,0.555484,-2.03893,-5.47215,-0.288947,-1.35943,-0.207819,0.698033,-0.582238,2.42566,-2.03893,0,0,300,197,300,197,380,194,302,279,0.549884,-0.210903,0,-1.5,0,0,0,0,-0.207819,0.698033,0,0,0,0,-0.582238,2.42566,7225,0,0,0,0,0,0,0,0,0,1,-0.767836
7393,3.29199,-5.0459,7.03613,-0.253854,0.370742,-0.028814,-0.380293,0.560158,-2.04182,-5.47215,-0.288947,-1.35943,-0.217256,0.737856,-0.59381,2.52226,-2.04182,0,0,300,197,300,197,380,194,302,279,0.55307,-0.208,0,-1.5,0,0,0,0,-0.217256,0.737856,0,0,0,0,-0.59381,2.52226,7225,0,0,0,0,0,0,0,0,0,1,-0.811641
7409,3.31055,-5.0127,-4.81348,-0.249297,0.338257,-0.00789766,-0.389158,0.568388,-2.04603,-5.47215,-0.288947,-1.35943,-0.226879,0.779231,-0.605457,2.61945,-2.04382,0,0,300,197,300,197,380,194,302,279,0.556077,-0.205564,0,-1.5,0,0,0,0,-0.226879,0.779231,0,0,0,0,-0.605457,2.61945,7225,0,0,0,0,0,0,0,0,0,1,-0.857154
7425,3.07812,-5.14551,-3.19043,-0.307924,0.447104,0.00703115,-0.394674,0.573872,-2.04866,-5.47215,-0.288947,-1.35943,-0.236689,0.822167,-0.617206,2.71728,-2.04603,0,0,300,197,300,197,380,194,302,279,0.559141,-0.202994,0,-1.5,0,0,0,0,-0.236689,0.822167,0,0,0,0,-0.617206,2.71728,7225,0,0,0,0,0,0,0,0,0,1,-0.904384
7442,2.88086,-5.26367,6.7666,-0.323036,0.511518,0.0134559,-0.400637,0.580238,-2.05157,-5.47215,-0.288947,-1.35943,-0.24669,0.866689,-0.629159,2.81687,-2.05157,0,0,300,197,300,197,380,194,302,279,0.562907,-0.198509,0,-1.5,0,0,0,0,-0.24669,0.866689,0,0,0,0,-0.629159,2.81687,7225,0,0,0,0,0,0,0,0,0,1,-0.953358
7458,3.00195,-5.2832,-6.05957,-0.267923,0.545654,0.00447004,-0.406454,0.587201,-2.05501,-5.47215,-0.288947,-1.35943,-0.257526,0.915754,-0.64191,2.9242,-2.05501,0,0,300,197,300,197,380,194,302,279,0.566407,-0.19509,0,-1.5,0,0,0,0,-0.257526,0.915754,0,0,0,0,-0.64191,2.9242,7225,0,0,0,0,0,0,0,0,0,1,-1
7474,3.20215,-5.2168,-4.08301,-0.174848,0.599208,-0.00883899,-0.411077,0.594406,-2.05891,-5.47215,-0.288947,-1.35943,-0.267922,0.963613,-0.653741,3.02653,-2.05891,0,0,300,197,300,197,380,194,302,279,0.569776,-0.191493,0,-1.5,0,0,0,0,-0.267922,0.963613,0,0,0,0,-0.653741,3.02653,7225,0,0,0,0,0,0,0,0,0,1,-1
7490,3.19727,-5.15039,-6.03809,-0.201242,0.724327,-0.044434,-0.416665,0.603123,-2.06423,-5.47215,-0.288947,-1.35943,-0.278499,1.01309,-0.665154,3.13029,-2.06423,0,0,300,197,300,197,380,194,302,279,0.5733,-0.187107,0,-1.5,0,0,0,0,-0.278499,1.01309,0,0,0,0,-0.665154,3.13029,7225,0,0,0,0,0,0,0,0,0,1,-1
7506,3.06445,-5.33105,0.107422,-0.409699,0.695144,-0.17686,-0.435191,0.620797,-2.07866,-5.47215,-0.288947,-1.35943,-0.289258,1.06428,-0.676173,3.2357,-2.07117,0,0,300,197,300,197,380,194,302,279,0.577001,-0.181805,0,-1.5,0,0,0,0,-0.289258,1.06428,0,0,0,0,-0.676173,3.2357,7225,0,0,0,0,0,0,0,0,0,1,-1
7522,3.32324,-5.75684,3.46387,-0.315925,0.510105,-0.182924,-0.443915,0.626376,-2.08555,-5.47215,-0.288947,-1.35943,-0.300187,1.11714,-0.686965,3.34371,-2.07866,0,0,300,197,300,197,380,194,302,279,0.580705,-0.176163,0,-1.5,0,0,0,0,-0.300187,1.11714,0,0,0,0,-0.686965,3.34371,7225,0,0,0,0,0,0,0,0,0,1,-1
7538,3.60352,-5.91992,0.706055,-0.236478,0.469148,-0.110489,-0.450262,0.631277,-2.09079,-5.47215,-0.288947,-1.35943,-0.311291,1.17181,-0.697696,3.45464,-2.09079,0,0,300,197,300,197,380,194,302,279,0.585126,-0.167774,0,-1.5,0,0,0,0,-0.311291,1.17181,0,0,0,0,-0.697696,3.45464,7225,0,0,0,0,0,0,0,0,0,1,-1
7555,3.70996,-5.86133,-1.54395,-0.135322,0.468125,-0.0326946,-0.455078,0.636915,-2.09506,-5.47215,-0.288947,-1.35943,-0.323275,1.23184,-0.708847,3.5738,-2.09506,0,0,300,197,300,197,380,194,302,279,0.588251,-0.163878,0,-1.5,0,0,0,0,-0.323275,1.23184,0,0,0,0,-0.708847,3.5738,7225,0,0,0,0,0,0,0,0,0,1,-1
7570,3.79395,-5.79492,3.52344,0.079765,0.40697,0.0148068,-0.456412,0.642181,-2.09817,-5.47215,-0.288947,-1.35943,-0.334,1.28647,-0.718213,3.67975,-2.09817,0,0,300,197,300,197,380,194,302,279,0.590781,-0.16087,0,-1.5,0,0,0,0,-0.334,1.28647,0,0,0,0,-0.718213,3.67975,7225,0,0,0,0,0,0,0,0,0,1,-1
7585,3.67871,-5.72852,-5.7998,0.2048,0.365209,0.0441595,-0.454987,0.646834,-2.10026,-5.47215,-0.288947,-1.35943,-0.344859,1.3427,-0.72685,3.7859,-2.10026,0,0,300,197,300,197,380,194,302,279,0.592981,-0.158541,0,-1.5,0,0,0,0,-0.344859,1.3427,0,0,0,0,-0.72685,3.7859,7225,0,0,0,0,0,0,0,0,0,1,-1
7601,3.41309,-5.71387,0.22168,0.140882,0.349502,0.0443805,-0.453939,0.651549,-2.10222,-5.47215,-0.288947,-1.35943,-0.356578,1.40446,-0.735193,3.89903,-2.10222,0,0,300,197,300,197,380,194,302,279,0.595088,-0.156323,0,-1.5,0,0,0,0,-0.356578,1.40446,0,0,0,0,-0.735193,3.89903,7225,0,0,0,0,0,0,0,0,0,1,-1
7618,3.44727,-6.11621,-2.18164,0.195882,-0.00439078,0.117284,-0.450294,0.655593,-2.1022,-5.47215,-0.288947,-1.35943,-0.368423,1.46803,-0.742983,4.01178,-2.10222,0,0,300,197,300,197,380,194,302,279,0.596767,-0.155336,0,-1.5,0,0,0,0,-0.368423,1.46803,0,0,0,0,-0.742983,4.01178,7225,0,0,0,0,0,0,0,0,0,1,-1
7634,3.31152,-6.06055,-0.116211,0.208573,-0.0939264,0.20291,-0.444926,0.655604,-2.09845,-5.47215,-0.288947,-1.35943,-0.381134,1.53754,-0.750293,4.13093,-2.1022,0,0,300,197,300,197,380,194,302,279,0.597269,-0.155051,0,-1.5,0,0,0,0,-0.381134,1.53754,0,0,0,0,-0.750293,4.13093,7225,0,0,0,0,0,0,0,0,0,1,-1
7651,2.79199,-5.86133,3.10254,0.161813,-0.111841,0.241361,-0.439701,0.655652,-2.09369,-5.47215,-0.288947,-1.35943,-0.393965,1.60906,-0.757177,4.24796,-2.09369,0,0,300,197,300,197,380,194,302,279,0.595928,-0.160127,0,-1.5,0,0,0,0,-0.393965,1.60906,0,0,0,0,-0.757177,4.24796,7225,0,0,0,0,0,0,0,0,0,1,-1
7667,2.38086,-5.56055,5.19238,0.0636857,-0.170014,0.175718,-0.435951,0.654772,-2.0894,-5.47215,-0.288947,-1.35943,-0.406147,1.67817,-0.763562,4.35651,-2.0894,0,0,300,197,300,197,380,194,302,279,0.595235,-0.162685,0,-1.5,0,0,0,0,-0.406147,1.67817,0,0,0,0,-0.763562,4.35651,7225,0,0,0,0,0,0,0,0,0,1,-1
7683,2.38086,-5.56055,5.19238,0.0636857,-0.170014,0.175718,-0.435951,0.654772,-2.0894,-5.47215,-0.288947,-1.35943,-0.418431,1.749,-0.769953,4.46374,-2.0894,0,0,300,197,300,197,380,194,302,279,0.595235,-0.162685,0,-1.5,0,0,0,0,-0.418431,1.749,0,0,0,0,-0.769953,4.46374,7225,0,0,0,0,0,0,0,0,0,1,-1
7700,3.29004,-5.59668,6.33203,0.000302681,-0.0166605,-0.19781,-0.437684,0.648452,-2.09169,-5.47215,-0.288947,-1.35943,-0.430818,1.82154,-0.776446,4.56976,-2.08871,0,0,300,197,300,197,380,194,302,279,0.595122,-0.163097,0,-1.5,0,0,0,0,-0.430818,1.82154,0,0,0,0,-0.776446,4.56976,7225,0,0,0,0,0,0,0,0,0,1,-1
7715,3.43945,-5.8291,-5.03027,0.103205,-0.0268398,-0.165572,-0.438034,0.647123,-2.09433,-5.47215,-0.288947,-1.35943,-0.443311,1.89575,-0.78313,4.6743,-2.09169,0,0,300,197,300,197,380,194,302,279,0.595607,-0.16132,0,-1.5,0,0,0,0,-0.443311,1.89575,0,0,0,0,-0.78313,4.6743,7225,0,0,0,0,0,0,0,0,0,1,-1
7732,3.40625,-5.90918,-6.38672,0.177512,-0.0708649,-0.112438,-0.436584,0.645622,-2.09571,-5.47215,-0.288947,-1.35943,-0.456699,1.97643,-0.789868,4.78418,-2.09571,0,0,300,197,300,197,380,194,302,279,0.596249,-0.158927,0,-1.5,0,0,0,0,-0.456699,1.97643,0,0,0,0,-0.789868,4.78418,7225,0,0,0,0,0,0,0,0,0,1,-1
7747,3.40625,-5.90918,-6.38672,0.177512,-0.0708649,-0.112438,-0.436584,0.645622,-2.09571,-5.47215,-0.288947,-1.35943,-0.468602,2.04912,-0.795525,4.87998,-2.09571,0,0,300,197,300,197,380,194,302,279,0.596249,-0.158927,0,-1.5,0,0,0,0,-0.468602,2.04912,0,0,0,0,-0.795525,4.87998,7225,0,0,0,0,0,0,0,0,0,1,-1
7763,3.05469,-5.84277,0.401367,0.246103,-0.244154,-0.0233654,-0.429571,0.640683,-2.0947,-5.47215,-0.288947,-1.35943,-0.48139,2.12823,-0.801256,4.98056,-2.0947,0,0,300,197,300,197,380,194,302,279,0.596089,-0.159529,0,-1.5,0,0,0,0,-0.48139,2.12823,0,0,0,0,-0.801256,4.98056,7225,0,0,0,0,0,0,0,0,0,1,-1
7779,3.05469,-5.84277,0.401367,0.246103,-0.244154,-0.0233654,-0.429571,0.640683,-2.0947,-5.47215,-0.288947,-1.35943,-0.494267,2.20896,-0.806613,5.0793,-2.0947,0,0,300,197,300,197,380,194,302,279,0.596089,-0.159529,0,-1.5,0,0,0,0,-0.494267,2.20896,0,0,0,0,-0.806613,5.0793,7225,0,0,0,0,0,0,0,0,0,1,-1
7794,3.07324,-5.77637,-7.3252,0.195101,-0.503474,0.00472441,-0.420095,0.629818,-2.08882,-5.47215,-0.288947,-1.35943,-0.506414,2.28603,-0.81164,5.16988,-2.08882,0,0,300,197,300,197,380,194,302,279,0.595141,-0.163029,0,-1.5,0,0,0,0,-0.506414,2.28603,0,0,0,0,-0.81164,5.16988,7225,0,0,0,0,0,0,0,0,0,1,-1
7810,3.25879,-5.80859,-3.45215,0.331973,-1.02602,0.170265,-0.404777,0.610243,-2.07489,-5.47215,-0.288947,-1.35943,-0.519456,2.3697,-0.817159,5.26287,-2.08373,0,0,300,197,300,197,380,194,302,279,0.594304,-0.166055,0,-1.5,0,0,0,0,-0.519456,2.3697,0,0,0,0,-0.817159,5.26287,7225,0,0,0,0,0,0,0,0,0,1,-1
7826,3.24707,-5.76465,-6.10156,0.54802,-1.49276,0.387301,-0.389461,0.593987,-2.06027,-5.47215,-0.288947,-1.35943,-0.53259,2.45482,-0.823132,5.35174,-2.07489,0,0,300,197,300,197,380,194,302,279,0.592812,-0.171303,0,-1.5,0,0,0,0,-0.53259,2.45482,0,0,0,0,-0.823132,5.35174,7225,0,0,0,0,0,0,0,0,0,1,-1
7847,3.24707,-5.76465,-6.10156,0.54802,-1.49276,0.387301,-0.389461,0.593987,-2.06027,-5.47215,-0.288947,-1.35943,-0.550004,2.56876,-0.831978,5.45887,-2.06027,0,0,300,197,300,197,380,194,302,279,0.590245,-0.17995,0,-1.5,0,0,0,0,-0.550004,2.56876,0,0,0,0,-0.831978,5.45887,7225,0,0,0,0,0,0,0,0,0,1,-1
7950,2.64062,-4.7627,0.166992,0.944219,-2.16464,0.417248,-0.254183,0.403609,-1.93295,-5.47215,-0.288947,-1.35943,-0.63981,3.18071,-0.876127,5.96297,-1.9469,0,0,300,197,300,197,380,194,302,279,0.566098,-0.245569,0,-1.5,0,0,0,0,-0.63981,3.18071,0,0,0,0,-0.876127,5.96297,7225,0,0,0,0,0,0,0,0,0,1,-1
8021,1.69336,-2.33301,-0.470703,0.738847,-1.5688,0.189582,-0.194856,0.294875,-1.87667,-5.47215,-0.288947,-1.35943,-0.704579,3.61224,-0.916852,6.08561,-1.87667,0,0,300,197,300,197,380,194,302,279,0.547472,-0.284686,0,-1.5,0,0,0,0,-0.704579,3.61224,0,0,0,0,-0.916852,6.08561,7225,0,0,0,0,0,0,0,0,0,1,-1
8038,1.36133,-2.36621,-1.92676,0.725398,-1.56536,0.14567,-0.182507,0.27352,-1.87018,-5.47215,-0.288947,-1.35943,-0.720265,3.71576,-0.925815,6.09159,-1.87018,0,0,300,197,300,197,380,194,302,279,0.545612,-0.288234,0,-1.5,0,0,0,0,-0.720265,3.71576,0,0,0,0,-0.925815,6.09159,7225,0,0,0,0,0,0,0,0,0,1,-1
8054,1.14941,-2.34473,4.21387,0.564176,-1.45827,0.112317,-0.172744,0.253385,-1.86469,-5.47215,-0.288947,-1.35943,-0.735157,3.81324,-0.933462,6.09185,-1.86469,0,0,300,197,300,197,380,194,302,279,0.544021,-0.291226,0,-1.5,0,0,0,0,-0.735157,3.81324,0,0,0,0,-0.933462,6.09185,7225,0,0,0,0,0,0,0,0,0,1,-1
8070,1.20215,-2.23242,-4.95703,0.542114,-1.37602,0.0916853,-0.164514,0.235159,-1.86018,-5.47215,-0.288947,-1.35943,-0.750169,3.91069,-0.940734,6.08873,-1.86018,0,0,300,197,300,197,380,194,302,279,0.542701,-0.293677,0,-1.5,0,0,0,0,-0.750169,3.91069,0,0,0,0,-0.940734,6.08873,7225,0,0,0,0,0,0,0,0,0,1,-1
8087,1.20703,-1.69727,3.85547,0.631242,-1.14503,0.0200301,-0.145563,0.200475,-1.85302,-5.47215,-0.288947,-1.35943,-0.765295,4.00805,-0.947771,6.08356,-1.86018,0,0,300,197,300,197,380,194,302,279,0.542701,-0.293677,0,-1.5,0,0,0,0,-0.765295,4.00805,0,0,0,0,-0.947771,6.08356,7225,0,0,0,0,0,0,0,0,0,1,-1
8103,1.08203,-1.40039,4.30566,0.535133,-0.887724,-0.051986,-0.137773,0.187994,-1.85176,-5.47215,-0.288947,-1.35943,-0.781485,4.11139,-0.954536,6.0745,-1.85302,0,0,300,197,300,197,380,194,302,279,0.540585,-0.297555,0,-1.5,0,0,0,0,-0.781485,4.11139,0,0,0,0,-0.954536,6.0745,7225,0,0,0,0,0,0,0,0,0,1,-1
8118,1.08105,-1.25391,6.98828,0.522712,-0.700549,-0.124874,-0.130715,0.177681,-1.85202,-5.47215,-0.288947,-1.35943,-0.79585,4.20238,-0.959281,6.06132,-1.85202,0,0,300,197,300,197,380,194,302,279,0.540288,-0.298093,0,-1.5,0,0,0,0,-0.79585,4.20238,0,0,0,0,-0.959281,6.06132,7225,0,0,0,0,0,0,0,0,0,1,-1
8134,1.14746,-1.26074,6.97949,0.57998,-0.634395,-0.146424,-0.123122,0.168923,-1.85291,-5.47215,-0.288947,-1.35943,-0.811245,4.2992,-0.963534,6.04529,-1.85291,0,0,300,197,300,197,380,194,302,279,0.540552,-0.297615,0,-1.5,0,0,0,0,-0.811245,4.2992,0,0,0,0,-0.963534,6.04529,7225,0,0,0,0,0,0,0,0,0,1,-1
8151,1.19238,-1.29395,-4.76465,0.546037,-0.693533,-0.157955,-0.115476,0.159236,-1.85401,-5.47215,-0.288947,-1.35943,-0.827667,4.40176,-0.967072,6.02636,-1.85401,0,0,300,197,300,197,380,194,302,279,0.54088,-0.297018,0,-1.5,0,0,0,0,-0.827667,4.40176,0,0,0,0,-0.967072,6.02636,7225,0,0,0,0,0,0,0,0,0,1,-1
8167,1.19238,-1.32715,7.14062,0.468812,-0.796696,-0.124715,-0.108976,0.148185,-1.85463,-5.47215,-0.288947,-1.35943,-0.843168,4.49798,-0.969667,6.00677,-1.85463,0,0,300,197,300,197,380,194,302,279,0.541063,-0.296685,0,-1.5,0,0,0,0,-0.843168,4.49798,0,0,0,0,-0.969667,6.00677,7225,0,0,0,0,0,0,0,0,0,1,-1
8183,1.17383,-1.22852,-1.92773,0.325787,-0.857528,-0.0412002,-0.0982872,0.124477,-1.85429,-5.47215,-0.288947,-1.35943,-0.858705,4.59388,-0.971742,5.9852,-1.85478,0,0,300,197,300,197,380,194,302,279,0.541109,-0.296601,0,-1.5,0,0,0,0,-0.858705,4.59388,0,0,0,0,-0.971742,5.9852,7225,0,0,0,0,0,0,0,0,0,1,-1
8199,1.10742,-1.0957,-5.48047,0.227309,-0.938626,-0.0112715,-0.0949599,0.112109,-1.85329,-5.47215,-0.288947,-1.35943,-0.874271,4.6894,-0.973468,5.96149,-1.85429,0,0,300,197,300,197,380,194,302,279,0.540962,-0.296869,0,-1.5,0,0,0,0,-0.874271,4.6894,0,0,0,0,-0.973468,5.96149,7225,0,0,0,0,0,0,0,0,0,1,-1
8215,1.10449,-0.962891,-3.67285,0.118955,-0.989495,0.00342903,-0.0927337,0.0987533,-1.85198,-5.47215,-0.288947,-1.35943,-0.888888,4.77858,-0.975067,5.93641,-1.85198,0,0,300,197,300,197,380,194,302,279,0.540276,-0.298117,0,-1.5,0,0,0,0,-0.888888,4.77858,0,0,0,0,-0.975067,5.93641,7225,0,0,0,0,0,0,0,0,0,1,-1
8231,0.941406,-0.830078,-2.65039,-0.0670865,-0.837121,0.0212699,-0.0932017,0.086741,-1.85058,-5.47215,-0.288947,-1.35943,-0.905487,4.87917,-0.97726,5.90579,-1.85058,0,0,300,197,300,197,380,194,302,279,0.539858,-0.298872,0,-1.5,0,0,0,0,-0.905487,4.87917,0,0,0,0,-0.97726,5.90579,7225,0,0,0,0,0,0,0,0,0,1,-1
8246,0.941406,-0.830078,-2.65039,-0.0670865,-0.837121,0.0212699,-0.0932017,0.086741,-1.85058,-5.47215,-0.288947,-1.35943,-0.920169,4.96748,-0.979617,5.87769,-1.85058,0,0,300,197,300,197,380,194,302,279,0.539858,-0.298872,0,-1.5,0,0,0,0,-0.920169,4.96748,0,0,0,0,-0.979617,5.87769,7225,0,0,0,0,0,0,0,0,0,1,-1
8263,0.808594,-0.542969,-4.8291,-0.240668,-0.778712,0.00532661,-0.0980499,0.065009,-1.84822,-5.47215,-0.288947,-1.35943,-0.935871,5.06121,-0.982748,5.84677,-1.84822,0,0,300,197,300,197,380,194,302,279,0.539152,-0.300144,0,-1.5,0,0,0,0,-0.935871,5.06121,0,0,0,0,-0.982748,5.84677,7225,0,0,0,0,0,0,0,0,0,1,-1
8279,0.808594,-0.542969,-4.8291,-0.240668,-0.778712,0.00532661,-0.0980499,0.065009,-1.84822,-5.47215,-0.288947,-1.35943,-0.952627,5.16022,-0.987172,5.81214,-1.84822,0,0,300,197,300,197,380,194,302,279,0.539152,-0.300144,0,-1.5,0,0,0,0,-0.952627,5.16022,0,0,0,0,-0.987172,5.81214,7225,0,0,0,0,0,0,0,0,0,1,-1
8294,1.06738,-0.110352,5.85352,-0.144795,-0.820724,0.0328815,-0.107997,0.0314666,-1.84384,-5.47215,-0.288947,-1.35943,-0.967475,5.24711,-0.991851,5.78069,-1.84553,0,0,300,197,300,197,380,194,302,279,0.53834,-0.301597,0,-1.5,0,0,0,0,-0.967475,5.24711,0,0,0,0,-0.991851,5.78069,7225,0,0,0,0,0,0,0,0,0,1,-1
8311,1.03711,-0.0292969,-4.96094,-0.0550097,-0.690702,0.037779,-0.108689,0.0215599,-1.84225,-5.47215,-0.288947,-1.35943,-0.983412,5.33922,-0.998506,5.74474,-1.84384,0,0,300,197,300,197,380,194,302,279,0.53783,-0.302506,0,-1.5,0,0,0,0,-0.983412,5.33922,0,0,0,0,-0.998506,5.74474,7225,0,0,0,0,0,0,0,0,0,1,-1
8326,1.00391,-0.0253906,-1.40039,0.0397404,-0.474811,0.055045,-0.108325,0.0148554,-1.84081,-5.47215,-0.288947,-1.35943,-0.999468,5.43074,-1.00611,5.70648,-1.84081,0,0,300,197,300,197,380,194,302,279,0.536911,-0.304135,0,-1.5,0,0,0,0,-0.999468,5.43074,0,0,0,0,-1.00611,5.70648,7225,0,0,0,0,0,0,0,0,0,1,-1
8342,1.00391,-0.0253906,-1.40039,0.0397404,-0.474811,0.055045,-0.108325,0.0148554,-1.84081,-5.47215,-0.288947,-1.35943,-1.01564,5.52165,-1.01383,5.66774,-1.84081,0,0,300,197,300,197,380,194,302,279,0.536911,-0.304135,0,-1.5,0,0,0,0,-1.01564,5.52165,0,0,0,0,-1.01383,5.66774,7225,0,0,0,0,0,0,0,0,0,1,-1
8359,1.00391,-0.0253906,-1.40039,0.0397404,-0.474811,0.055045,-0.108325,0.0148554,-1.84081,-5.47215,-0.288947,-1.35943,-1.03297,5.61755,-1.02197,5.62691,-1.84081,0,0,300,197,300,197,380,194,302,279,0.536911,-0.304135,0,-1.5,0,0,0,0,-1.03297,5.61755,0,0,0,0,-1.02197,5.62691,7225,0,0,0,0,0,0,0,0,0,1,-1
8374,0.806641,0,-2.44629,0.171688,-0.162871,-0.015485,-0.100725,0.00454041,-1.83919,-5.50212,-0.316714,-1.3774,-1.04836,5.70161,-1.02883,5.59047,-1.83919,0,0,304,188,304,188,387,188,304,268,0.536417,-0.305005,0,-1.5,0,0,0,0,-1.04836,5.70161,0,0,0,0,-1.02883,5.59047,6806,0,0,0,0,0,0,0,0,0,1,-1
8389,0.768555,0,3.98633,0.198322,-0.161881,-0.00877582,-0.0980576,0.00232225,-1.8391,-5.50212,-0.316714,-1.3774,-1.06386,5.78512,-1.03509,5.55303,-1.8391,0,0,304,188,304,188,387,188,304,268,0.536391,-0.30505,0,-1.5,0,0,0,0,-1.06386,5.78512,0,0,0,0,-1.03509,5.55303,6806,0,0,0,0,0,0,0,0,0,1,-1
8405,0.735352,0,-4.79492,0.200144,-0.146028,-0.00275028,-0.0953058,0.000247749,-1.83894,-5.46737,-0.308006,-1.39901,-1.08049,5.87355,-1.04143,5.51299,-1.83894,0,0,305,183,305,183,388,184,302,264,0.536341,-0.305138,0,-1.5,0,0,0,0,-1.08049,5.87355,0,0,0,0,-1.04143,5.51299,7224,0,0,0,0,0,0,0,0,0,1,-1
8421,0.668945,0,-0.0126953,0.148717,-0.0924161,0.0233254,-0.090581,-0.00229625,-1.83832,-5.46737,-0.308006,-1.39901,-1.09721,5.96135,-1.04752,5.47301,-1.83894,0,0,305,183,305,183,388,184,302,264,0.536341,-0.305138,0,-1.5,0,0,0,0,-1.09721,5.96135,0,0,0,0,-1.04752,5.47301,7224,0,0,0,0,0,0,0,0,0,1,-1
8437,0.65918,0,-0.175781,0.0923001,-0.1225,0.0338658,-0.089203,-0.00387493,-1.8377,-5.52884,-0.302015,-1.37572,-1.11403,6.04849,-1.05291,5.43267,-1.8377,0,0,304,183,304,183,387,181,302,261,0.535963,-0.305802,0,-1.5,0,0,0,0,-1.11403,6.04849,0,0,0,0,-1.05291,5.43267,6970,0,0,0,0,0,0,0,0,0,1,-1
8453,0.733398,0,1.09668,0.0707966,-0.150081,0.0311474,-0.0882113,-0.00595356,-1.83708,-5.52884,-0.302015,-1.37572,-1.13093,6.135,-1.05813,5.3923,-1.83708,0,0,304,183,304,183,387,181,302,261,0.535774,-0.306133,0,-1.5,0,0,0,0,-1.13093,6.135,0,0,0,0,-1.05813,5.3923,6970,0,0,0,0,0,0,0,0,0,1,-1
8469,0.866211,0,3.77637,0.0345077,-0.100743,0.0318311,-0.0876269,-0.00743797,-1.83654,-5.52884,-0.302015,-1.37572,-1.14791,6.22085,-1.06327,5.35192,-1.83654,0,0,304,183,304,183,387,181,302,261,0.535609,-0.306422,0,-1.5,0,0,0,0,-1.14791,6.22085,0,0,0,0,-1.06327,5.35192,6970,0,0,0,0,0,0,0,0,0,1,-1
8486,0.941406,0,-0.911133,-0.00117384,-0.0708089,0.0335388,-0.0876662,-0.00835559,-1.83598,-5.52884,-0.302015,-1.37572,-1.16605,6.31137,-1.06867,5.30914,-1.83598,0,0,304,183,304,183,387,181,302,261,0.535437,-0.306721,0,-1.5,0,0,0,0,-1.16605,6.31137,0,0,0,0,-1.06867,5.30914,6970,0,0,0,0,0,0,0,0,0,1,-1
8502,0.90918,0,3.10938,-0.0218107,-0.0294101,0.0691898,-0.087888,-0.00986084,-1.83454,-5.50535,-0.28722,-1.36444,-1.1832,6.39589,-1.07376,5.26905,-1.83542,0,0,303,176,303,176,385,177,302,257,0.535264,-0.307023,0,-1.5,0,0,0,0,-1.1832,6.39589,0,0,0,0,-1.07376,5.26905,6889,0,0,0,0,0,0,0,0,0,1,-1
8518,0.830078,0,6.60742,0.00759811,0.00246057,0.113206,-0.0878912,-0.00964485,-1.83307,-5.50535,-0.28722,-1.36444,-1.20043,6.47978,-1.0789,5.22911,-1.83454,0,0,303,176,303,176,385,177,302,257,0.534994,-0.307494,0,-1.5,0,0,0,0,-1.20043,6.47978,0,0,0,0,-1.0789,5.22911,6889,0,0,0,0,0,0,0,0,0,1,-1
8535,0.712891,0,-3.5127,0.0558271,-0.00696517,0.131103,-0.0871675,-0.00953123,-1.83121,-5.50535,-0.28722,-1.36444,-1.21883,6.56821,-1.08427,5.18703,-1.83121,0,0,303,176,303,176,385,177,302,257,0.533967,-0.309273,0,-1.5,0,0,0,0,-1.21883,6.56821,0,0,0,0,-1.08427,5.18703,6889,0,0,0,0,0,0,0,0,0,1,-1
8550,0.712891,0,-3.5127,0.0558271,-0.00696517,0.131103,-0.0871675,-0.00953123,-1.83121,-5.50535,-0.28722,-1.36444,-1.23514,6.64566,-1.0889,5.15017,-1.83121,0,0,303,176,303,176,385,177,302,257,0.533967,-0.309273,0,-1.5,0,0,0,0,-1.23514,6.64566,0,0,0,0,-1.0889,5.15017,6889,0,0,0,0,0,0,0,0,0,1,-1
8566,0.604492,0.166016,0.307617,0.109369,0.0303779,0.0165703,-0.0849337,-0.00938709,-1.82941,-5.50535,-0.28722,-1.36444,-1.25262,6.72765,-1.09367,5.11112,-1.82941,0,0,303,176,303,176,385,177,302,257,0.53341,-0.310234,0,-1.5,0,0,0,0,-1.25262,6.72765,0,0,0,0,-1.09367,5.11112,6889,0,0,0,0,0,0,0,0,0,1,-1
8583,0.604492,0.0722656,-5.71387,0.190692,0.118543,-0.0557538,-0.0799267,-0.00647955,-1.83086,-5.49057,-0.252938,-1.37157,-1.27016,6.80902,-1.09818,5.07233,-1.82941,0,0,300,176,300,176,384,177,299,256,0.53341,-0.310234,0,-1.5,0,0,0,0,-1.27016,6.80902,0,0,0,0,-1.09818,5.07233,7055,0,0,0,0,0,0,0,0,0,1,-1
8597,0.698242,-0.00292969,-2.95898,0.201653,0.0385534,-0.0569858,-0.0771653,-0.00574845,-1.83173,-5.49057,-0.252938,-1.37157,-1.28667,6.88475,-1.10195,5.03637,-1.83086,0,0,300,176,300,176,384,177,299,256,0.53386,-0.309459,0,-1.5,0,0,0,0,-1.28667,6.88475,0,0,0,0,-1.10195,5.03637,7055,0,0,0,0,0,0,0,0,0,1,-1
8612,0.698242,-0.00292969,-2.95898,0.201653,0.0385534,-0.0569858,-0.0771653,-0.00574845,-1.83173,-5.54178,-0.250945,-1.35077,-1.30323,6.95995,-1.10507,5.0008,-1.83173,0,0,301,174,301,174,381,178,299,256,0.534129,-0.308994,0,-1.5,0,0,0,0,-1.30323,6.95995,0,0,0,0,-1.10507,5.0008,6970,0,0,0,0,0,0,0,0,0,1,-1
8628,0.780273,0.000976562,-0.512695,0.0753779,-0.0741652,0.0314124,-0.0735755,-0.0068299,-1.83165,-5.54178,-0.250945,-1.35077,-1.32095,7.03957,-1.10817,4.96315,-1.83173,0,0,301,174,301,174,381,178,299,256,0.534129,-0.308994,0,-1.5,0,0,0,0,-1.32095,7.03957,0,0,0,0,-1.10817,4.96315,6970,0,0,0,0,0,0,0,0,0,1,-1
8644,0.780273,0.000976562,-0.512695,0.0753779,-0.0741652,0.0314124,-0.0735755,-0.0068299,-1.83165,-5.509,-0.254417,-1.35902,-1.33871,7.11859,-1.11074,4.9255,-1.83165,0,0,300,176,300,176,383,178,299,257,0.534105,-0.309036,0,-1.5,0,0,0,0,-1.33871,7.11859,0,0,0,0,-1.11074,4.9255,6972,0,0,0,0,0,0,0,0,0,1,-1
8660,0.581055,0.0673828,-2.52051,0.00348502,-0.0795091,0.0449335,-0.0731554,-0.00940262,-1.83012,-5.509,-0.254417,-1.35902,-1.3565,7.197,-1.1133,4.88803,-1.83012,0,0,300,176,300,176,383,178,299,257,0.53363,-0.309855,0,-1.5,0,0,0,0,-1.3565,7.197,0,0,0,0,-1.1133,4.88803,6972,0,0,0,0,0,0,0,0,0,1,-1
8676,0.581055,0.0673828,-2.52051,0.00348502,-0.0795091,0.0449335,-0.0731554,-0.00940262,-1.83012,-5.509,-0.254417,-1.35902,-1.37434,7.27482,-1.11587,4.85055,-1.83012,0,0,300,176,300,176,383,178,299,257,0.53363,-0.309855,0,-1.5,0,0,0,0,-1.37434,7.27482,0,0,0,0,-1.11587,4.85055,6972,0,0,0,0,0,0,0,0,0,1,-1
8692,0.439453,0.0693359,-5.42383,0.117287,-0.0308636,0.0606349,-0.070958,-0.0103691,-1.82873,-5.509,-0.254417,-1.35902,-1.39222,7.35203,-1.11832,4.81327,-1.82873,0,0,300,176,300,176,383,178,299,257,0.533197,-0.310599,0,-1.5,0,0,0,0,-1.39222,7.35203,0,0,0,0,-1.11832,4.81327,6972,0,0,0,0,0,0,0,0,0,1,-1
8709,0.444336,0.0361328,-0.680664,0.128562,-0.0835088,0.0660084,-0.069088,-0.0113181,-1.8277,-5.51085,-0.247878,-1.36005,-1.41126,7.43342,-1.12059,4.77372,-1.8277,0,0,299,174,299,174,383,176,299,256,0.532878,-0.311146,0,-1.5,0,0,0,0,-1.41126,7.43342,0,0,0,0,-1.12059,4.77372,6888,0,0,0,0,0,0,0,0,0,1,-1
8724,0.444336,0.0361328,-0.680664,0.128562,-0.0835088,0.0660084,-0.069088,-0.0113181,-1.8277,-5.51085,-0.247878,-1.36005,-1.42809,7.50469,-1.12244,4.73898,-1.8277,0,0,299,174,299,174,383,176,299,256,0.532878,-0.311146,0,-1.5,0,0,0,0,-1.42809,7.50469,0,0,0,0,-1.12244,4.73898,6888,0,0,0,0,0,0,0,0,0,1,-1
8741,0.457031,0.256836,-4.45605,0.0325987,-0.0340561,-0.0680897,-0.0677191,-0.0146853,-1.82805,-5.51085,-0.247878,-1.36005,-1.44719,7.58483,-1.12452,4.69985,-1.82805,0,0,299,174,299,174,383,176,299,256,0.532986,-0.310961,0,-1.5,0,0,0,0,-1.44719,7.58483,0,0,0,0,-1.12452,4.69985,6888,0,0,0,0,0,0,0,0,0,1,-1
8753,0.623047,0.0390625,-5.7666,0.0904221,-0.0284715,-0.0673922,-0.0664897,-0.015087,-1.82899,-5.51085,-0.247878,-1.36005,-1.4607,7.64102,-1.12591,4.67206,-1.82899,0,0,299,174,299,174,383,176,299,256,0.533278,-0.31046,0,-1.5,0,0,0,0,-1.4607,7.64102,0,0,0,0,-1.12591,4.67206,6888,0,0,0,0,0,0,0,0,0,1,-1
8769,0.713867,0.0273438,-3.23047,0.0327734,-0.0268499,-0.0308343,-0.0657495,-0.0154624,-1.82949,-5.55892,-0.219696,-1.36686,-1.47873,7.71538,-1.12757,4.63514,-1.82949,0,0,296,174,296,174,379,174,298,254,0.533435,-0.31019,0,-1.5,0,0,0,0,-1.47873,7.71538,0,0,0,0,-1.12757,4.63514,6640,0,0,0,0,0,0,0,0,0,1,-1
8785,0.74707,0.0683594,-0.645508,-0.0380623,-0.0709983,0.0002093,-0.0662574,-0.0162794,-1.82948,-5.55892,-0.219696,-1.36686,-1.49679,7.78917,-1.1292,4.59841,-1.82948,0,0,296,174,296,174,379,174,298,254,0.533432,-0.310195,0,-1.5,0,0,0,0,-1.49679,7.78917,0,0,0,0,-1.1292,4.59841,6640,0,0,0,0,0,0,0,0,0,1,-1
8802,0.765625,0.0556641,-1.06836,-0.0629103,-0.0990285,0.019029,-0.0671098,-0.0176521,-1.82918,-5.55892,-0.219696,-1.36686,-1.516,7.86692,-1.13105,4.55957,-1.82918,0,0,296,174,296,174,379,174,298,254,0.533337,-0.310359,0,-1.5,0,0,0,0,-1.516,7.86692,0,0,0,0,-1.13105,4.55957,6640,0,0,0,0,0,0,0,0,0,1,-1
8817,0.666992,0.0224609,-0.15332,-0.0587415,-0.0254915,0.0453304,-0.0680917,-0.0181845,-1.82856,-5.55892,-0.219696,-1.36686,-1.53299,7.93499,-1.13285,4.52546,-1.82856,0,0,296,174,296,174,379,174,298,254,0.533147,-0.310685,0,-1.5,0,0,0,0,-1.53299,7.93499,0,0,0,0,-1.13285,4.52546,6640,0,0,0,0,0,0,0,0,0,1,-1
8833,0.351562,0.0556641,5.08203,0.158107,0.0730516,0.02418,-0.0656474,-0.0167392,-1.82754,-5.55892,-0.219696,-1.36686,-1.55113,8.00703,-1.13482,4.48935,-1.82789,0,0,296,174,296,174,379,174,298,254,0.532939,-0.311042,0,-1.5,0,0,0,0,-1.55113,8.00703,0,0,0,0,-1.13482,4.48935,6640,0,0,0,0,0,0,0,0,0,1,-1
8849,0.275391,0.219727,-6.29199,0.206074,0.0616352,-0.023894,-0.0626853,-0.0158615,-1.82783,-5.43076,-0.212142,-1.36369,-1.56931,8.07849,-1.13653,4.45358,-1.82754,0,0,296,171,296,171,380,171,296,252,0.532829,-0.31123,0,-1.5,0,0,0,0,-1.56931,8.07849,0,0,0,0,-1.13653,4.45358,6972,0,0,0,0,0,0,0,0,0,1,-1
8865,0.280273,0.335938,2.30371,0.132997,0.0546919,-0.0730079,-0.0605568,-0.0152014,-1.82876,-5.43076,-0.212142,-1.36369,-1.58636,8.14497,-1.13748,4.42036,-1.82876,0,0,296,171,296,171,380,171,296,252,0.533207,-0.310582,0,-1.5,0,0,0,0,-1.58636,8.14497,0,0,0,0,-1.13748,4.42036,6972,0,0,0,0,0,0,0,0,0,1,-1
8880,0.280273,0.335938,2.30371,0.132997,0.0546919,-0.0730079,-0.0605568,-0.0152014,-1.82876,-5.4959,-0.21689,-1.34857,-1.60457,8.21533,-1.13818,4.38521,-1.82876,0,0,296,171,296,171,379,171,298,252,0.533207,-0.310582,0,-1.5,0,0,0,0,-1.60457,8.21533,0,0,0,0,-1.13818,4.38521,6889,0,0,0,0,0,0,0,0,0,1,-1
8897,0.512695,-0.0205078,-5.54102,-0.0858411,-0.049281,-0.0606269,-0.0616675,-0.0153967,-1.83112,-5.4959,-0.21689,-1.34857,-1.62279,8.28513,-1.13895,4.35035,-1.83112,0,0,296,171,296,171,379,171,298,252,0.53394,-0.309321,0,-1.5,0,0,0,0,-1.62279,8.28513,0,0,0,0,-1.13895,4.35035,6889,0,0,0,0,0,0,0,0,0,1,-1
8912,0.512695,-0.0205078,-5.54102,-0.0858411,-0.049281,-0.0606269,-0.0616675,-0.0153967,-1.83112,-5.48095,-0.211641,-1.36317,-1.64102,8.35437,-1.13981,4.3158,-1.83112,0,0,296,171,296,171,379,174,296,254,0.53394,-0.309321,0,-1.5,0,0,0,0,-1.64102,8.35437,0,0,0,0,-1.13981,4.3158,6889,0,0,0,0,0,0,0,0,0,1,-1
8928,0.726562,0,-2.88281,0.0205195,-0.0393954,0.0497336,-0.0624713,-0.0173341,-1.83055,-5.48095,-0.211641,-1.36317,-1.65927,8.42306,-1.14075,4.28142,-1.83055,0,0,296,171,296,171,379,174,296,254,0.533763,-0.309626,0,-1.5,0,0,0,0,-1.65927,8.42306,0,0,0,0,-1.14075,4.28142,6889,0,0,0,0,0,0,0,0,0,1,-1
8945,0.394531,0.0683594,6.21875,0.0275769,-0.00144851,0.0425353,-0.0616845,-0.0167953,-1.829,-5.53217,-0.250232,-1.35918,-1.67867,8.49543,-1.14187,4.24502,-1.83055,0,0,299,171,299,171,382,174,300,254,0.533763,-0.309626,0,-1.5,0,0,0,0,-1.67867,8.49543,0,0,0,0,-1.14187,4.24502,6889,0,0,0,0,0,0,0,0,0,1,-1
8961,0.368164,0.216797,-4.59082,0.0345723,-0.0337593,0.00370045,-0.0612411,-0.0172909,-1.82882,-5.53217,-0.250232,-1.35918,-1.69695,8.563,-1.14277,4.21106,-1.82882,0,0,299,171,299,171,382,174,300,254,0.533226,-0.310549,0,-1.5,0,0,0,0,-1.69695,8.563,0,0,0,0,-1.14277,4.21106,6889,0,0,0,0,0,0,0,0,0,1,-1
8977,0.368164,0.216797,-4.59082,0.0345723,-0.0337593,0.00370045,-0.0612411,-0.0172909,-1.82882,-5.48959,-0.230661,-1.36009,-1.7141,8.62586,-1.14356,4.1794,-1.82882,0,0,296,173,296,173,380,171,299,252,0.533226,-0.310549,0,-1.5,0,0,0,0,-1.7141,8.62586,0,0,0,0,-1.14356,4.1794,7055,0,0,0,0,0,0,0,0,0,1,-1
8992,0.509766,0.0644531,0.236328,0.100994,0.0517166,-0.023458,-0.0590564,-0.0169012,-1.82972,-5.48959,-0.230661,-1.36009,-1.73241,8.69238,-1.14432,4.14588,-1.82972,0,0,296,173,296,173,380,171,299,252,0.533507,-0.310067,0,-1.5,0,0,0,0,-1.73241,8.69238,0,0,0,0,-1.14432,4.14588,7055,0,0,0,0,0,0,0,0,0,1,-1
9009,0.609375,0.0322266,0.191406,0.079378,0.0374101,0.0202494,-0.0578564,-0.0162248,-1.82957,-5.48959,-0.230661,-1.36009,-1.75072,8.75837,-1.14473,4.11263,-1.82957,0,0,296,173,296,173,380,171,299,252,0.533459,-0.31015,0,-1.5,0,0,0,0,-1.75072,8.75837,0,0,0,0,-1.14473,4.11263,7055,0,0,0,0,0,0,0,0,0,1,-1
9023,0.654297,0.117188,3.68164,0.0227819,-0.0380438,0.0445444,-0.0575077,-0.0165288,-1.829,-5.48959,-0.230661,-1.36009,-1.7679,8.81976,-1.14498,4.08172,-1.829,0,0,296,173,296,173,380,171,299,252,0.533282,-0.310454,0,-1.5,0,0,0,0,-1.7679,8.81976,0,0,0,0,-1.14498,4.08172,7055,0,0,0,0,0,0,0,0,0,1,-1
9039,0.504883,0.150391,-4.43066,-0.0443851,-0.111618,0.0567397,-0.05793,-0.0179711,-1.82813,-5.48959,-0.230661,-1.36009,-1.78622,8.88473,-1.14527,4.04886,-1.82813,0,0,296,173,296,173,380,171,299,252,0.533013,-0.310916,0,-1.5,0,0,0,0,-1.78622,8.88473,0,0,0,0,-1.14527,4.04886,7055,0,0,0,0,0,0,0,0,0,1,-1
9055,0.28125,0.235352,-3.22266,-0.03977,-0.0747985,0.0313844,-0.059664,-0.0204448,-1.82676,-5.48959,-0.230661,-1.36009,-1.80455,8.94917,-1.14562,4.01615,-1.82813,0,0,296,173,296,173,380,171,299,252,0.533013,-0.310916,0,-1.5,0,0,0,0,-1.80455,8.94917,0,0,0,0,-1.14562,4.01615,7055,0,0,0,0,0,0,0,0,0,1,-1
9071,0.347656,0.330078,-7.24902,-0.0229005,-0.0420413,0.0438908,-0.059968,-0.0211568,-1.82617,-5.54852,-0.217539,-1.35866,-1.82288,9.0131,-1.14618,3.98351,-1.82617,0,0,296,171,296,171,380,174,296,251,0.532401,-0.311963,0,-1.5,0,0,0,0,-1.82288,9.0131,0,0,0,0,-1.14618,3.98351,6804,0,0,0,0,0,0,0,0,0,1,-1
9087,0.466797,0.429688,6.84277,0.0341686,0.0124247,0.0637666,-0.0597868,-0.0210984,-1.82534,-5.54852,-0.217539,-1.35866,-1.84123,9.0765,-1.14696,3.9509,-1.82534,0,0,296,171,296,171,380,174,296,251,0.532141,-0.312405,0,-1.5,0,0,0,0,-1.84123,9.0765,0,0,0,0,-1.14696,3.9509,6804,0,0,0,0,0,0,0,0,0,1,-1
9103,0.632812,0.529297,4.62891,0.145634,0.0352615,0.099304,-0.0580642,-0.0206422,-1.82409,-5.54852,-0.217539,-1.35866,-1.85959,9.13939,-1.1476,3.91853,-1.82409,0,0,296,171,296,171,380,174,296,251,0.531752,-0.313067,0,-1.5,0,0,0,0,-1.85959,9.13939,0,0,0,0,-1.1476,3.91853,6804,0,0,0,0,0,0,0,0,0,1,-1
9119,0.677734,0.628906,2.44434,0.130936,0.048556,0.145664,-0.0560198,-0.0199536,-1.82219,-5.54852,-0.217539,-1.35866,-1.87795,9.20176,-1.14791,3.88643,-1.82219,0,0,296,171,296,171,380,174,296,251,0.531156,-0.314078,0,-1.5,0,0,0,0,-1.87795,9.20176,0,0,0,0,-1.14791,3.88643,6804,0,0,0,0,0,0,0,0,0,1,-1
9135,0.677734,0.728516,-4.74023,0.0412136,0.0355965,0.185305,-0.0553597,-0.0193291,-1.81978,-5.54852,-0.217539,-1.35866,-1.89632,9.26361,-1.14798,3.85459,-1.81978,0,0,296,171,296,171,380,174,296,251,0.530397,-0.315356,0,-1.5,0,0,0,0,-1.89632,9.26361,0,0,0,0,-1.14798,3.85459,6804,0,0,0,0,0,0,0,0,0,1,-1
9151,0.660156,0.927734,-2.9834,0.0454222,-0.143395,0.220209,-0.0548565,-0.0217565,-1.8136,-5.54852,-0.217539,-1.35866,-1.91469,9.32496,-1.14797,3.82305,-1.81978,0,0,296,171,296,171,380,174,296,251,0.530397,-0.315356,0,-1.5,0,0,0,0,-1.91469,9.32496,0,0,0,0,-1.14797,3.82305,6804,0,0,0,0,0,0,0,0,0,1,-1
9167,0.642578,1.0752,4.74414,-0.0405654,-0.150426,0.238226,-0.0552419,-0.0238498,-1.81035,-5.54852,-0.217539,-1.35866,-1.93305,9.38579,-1.14799,3.79126,-1.81035,0,0,296,171,296,171,380,174,296,251,0.527401,-0.320343,0,-1.5,0,0,0,0,-1.93305,9.38579,0,0,0,0,-1.14799,3.79126,6804,0,0,0,0,0,0,0,0,0,1,-1
9183,0.673828,1.27441,-0.9375,-0.0967148,-0.211684,0.254647,-0.056728,-0.0264769,-1.80659,-5.54852,-0.217539,-1.35866,-1.95142,9.44612,-1.1482,3.75934,-1.80659,0,0,296,171,296,171,380,174,296,251,0.526193,-0.322324,0,-1.5,0,0,0,0,-1.95142,9.44612,0,0,0,0,-1.1482,3.75934,6804,0,0,0,0,0,0,0,0,0,1,-1
9199,0.537109,1.3877,-7.13281,-0.0689702,-0.322217,0.197869,-0.0576898,-0.0306724,-1.80351,-5.54852,-0.217539,-1.35866,-1.9698,9.50594,-1.14872,3.72724,-1.80351,0,0,296,171,296,171,380,174,296,251,0.525197,-0.323943,0,-1.5,0,0,0,0,-1.9698,9.50594,0,0,0,0,-1.14872,3.72724,6804,0,0,0,0,0,0,0,0,0,1,-1
9214,0.537109,1.3877,-7.13281,-0.0689702,-0.322217,0.197869,-0.0576898,-0.0306724,-1.80351,-5.56787,-0.118006,-1.37091,-1.98704,9.56156,-1.14941,3.69693,-1.80351,0,0,289,170,289,170,371,168,290,248,0.525197,-0.323943,0,-1.5,0,0,0,0,-1.98704,9.56156,0,0,0,0,-1.14941,3.69693,6806,0,0,0,0,0,0,0,0,0,1,-1
9231,0.381836,1.37695,-2.99121,0.108958,-0.0783749,0.101778,-0.0578646,-0.0358878,-1.79957,-5.56787,-0.118006,-1.37091,-2.00659,9.62403,-1.15027,3.66253,-1.79957,0,0,289,170,289,170,371,168,290,248,0.523917,-0.326009,0,-1.5,0,0,0,0,-2.00659,9.62403,0,0,0,0,-1.15027,3.66253,6806,0,0,0,0,0,0,0,0,0,1,-1
9246,0.381836,1.37695,-2.99121,0.108958,-0.0783749,0.101778,-0.0578646,-0.0358878,-1.79957,-5.49291,-0.0635037,-1.35749,-2.02385,9.67868,-1.15114,3.63193,-1.79957,0,0,283,166,283,166,367,165,287,246,0.523917,-0.326009,0,-1.5,0,0,0,0,-2.02385,9.67868,0,0,0,0,-1.15114,3.63193,7047,0,0,0,0,0,0,0,0,0,1,-1
9262,0.413086,1.52246,7.15039,0.391918,-0.122051,0.107235,-0.0421923,-0.0412876,-1.79513,-5.49291,-0.0635037,-1.35749,-2.04227,9.73646,-1.15143,3.59912,-1.79685,0,0,283,166,283,166,367,165,287,246,0.523028,-0.327433,0,-1.5,0,0,0,0,-2.04227,9.73646,0,0,0,0,-1.15143,3.59912,7047,0,0,0,0,0,0,0,0,0,1,-1
9278,0.413086,1.52246,7.15039,0.391918,-0.122051,0.107235,-0.0421923,-0.0412876,-1.79513,-5.52973,-0.0383873,-1.35601,-2.06069,9.7937,-1.15047,3.56578,-1.79513,0,0,283,165,283,165,365,161,285,245,0.522464,-0.328333,0,-1.5,0,0,0,0,-2.06069,9.7937,0,0,0,0,-1.15047,3.56578,7056,0,0,0,0,0,0,0,0,0,1,-1
9294,0.226562,1.86816,-6.74707,0.00852146,-0.189765,0.169166,-0.0371009,-0.0477396,-1.79093,-5.52973,-0.0383873,-1.35601,-2.07908,9.85042,-1.14899,3.53213,-1.79093,0,0,283,165,283,165,365,161,285,245,0.521078,-0.330528,0,-1.5,0,0,0,0,-2.07908,9.85042,0,0,0,0,-1.14899,3.53213,7056,0,0,0,0,0,0,0,0,0,1,-1
9310,0.226562,1.86816,-6.74707,0.00852146,-0.189765,0.169166,-0.0371009,-0.0477396,-1.79093,-5.55708,0.00516462,-1.36075,-2.09745,9.90658,-1.14713,3.49792,-1.79093,0,0,278,162,278,162,361,161,282,242,0.521078,-0.330528,0,-1.5,0,0,0,0,-2.09745,9.90658,0,0,0,0,-1.14713,3.49792,6966,0,0,0,0,0,0,0,0,0,1,-1
9326,-0.00976562,2.03418,-5.70898,-0.0494895,-0.598318,0.226488,-0.043715,-0.0601212,-1.78383,-5.55708,0.00516462,-1.36075,-2.11578,9.9622,-1.1458,3.46334,-1.78383,0,0,278,162,278,162,361,161,282,242,0.518719,-0.334218,0,-1.5,0,0,0,0,-2.11578,9.9622,0,0,0,0,-1.1458,3.46334,6966,0,0,0,0,0,0,0,0,0,1,-1
