timestamp,A_x,A_y,A_z,P,Q,R,Phi,Theta,Psi,poseX,poseY,poseZ,state_X,state_Y,state_Z,state_VzB,state_Bx,state_By,state_Bz,p1_x,p1_y,p2_x,p2_y,p3_x,p3_y,p4_x,p4_y,roll,pitch,yaw,alt,targetHeading,highLevelState,lowLevelState,gateNumber,filtered_x,filtered_y,x_OT,y_OT,vx_OT,vy_OT,filtered_vx,filtered_vygateArearansac_corr_x,ransac_corr_y,ransac_corr_vx,ransac_corr_vy,detectionTimeStamppTermX,dTermX,pTermY,dTermY,vxcmd,vycmd
6045,0.631836,0.207031,-3.31641,-0.00269822,0.00034287,-0.00459622,-0.0615416,-0.03144,-1.75689,0,0,0,-2.70721e-05,-8.28064e-06,-0.00505325,-0.00153856,-1.75536,0,0,0,0,0,0,0,0,0,0,0.246925,-0.127954,0,-1.5,0,0,0,0,-2.70721e-05,-8.28064e-06,0,0,0,0,-0.00505325,-0.00153856,1.9603e-19,0,0,0,0,0,0,0,0,0,1,9.1087e-06
6059,0.545898,0.113281,-1.74512,-0.00154767,-0.000737989,-0.00499048,-0.0643651,-0.0320977,-1.76078,0,0,0,-0.000192219,-5.76478e-05,-0.014819,-0.0043896,-1.75918,0,0,0,0,0,0,0,0,0,0,0.249008,-0.125839,0,-1.5,0,0,0,0,-0.000192219,-5.76478e-05,0,0,0,0,-0.014819,-0.0043896,1.9603e-19,0,0,0,0,0,0,0,0,0,1,6.34126e-05
6075,0.613281,0.135742,-1.77246,-0.00227885,-0.000505487,-0.00444111,-0.0669398,-0.0328158,-1.76464,0,0,0,-0.000507091,-0.00014944,-0.0249292,-0.00720434,-1.76308,0,0,0,0,0,0,0,0,0,0,0.251158,-0.12367,0,-1.5,0,0,0,0,-0.000507091,-0.00014944,0,0,0,0,-0.0249292,-0.00720434,1.9603e-19,0,0,0,0,0,0,0,0,0,1,0.000164384
6092,0.637695,0.140625,-1.81934,-0.00163853,-0.000641756,-0.00450638,-0.0686501,-0.0333246,-1.76774,0,0,0,-0.00109896,-0.000317624,-0.0374219,-0.0105451,-1.76689,0,0,0,0,0,0,0,0,0,0,0.253854,-0.12124,0,-1.5,0,0,0,0,-0.00109896,-0.000317624,0,0,0,0,-0.0374219,-0.0105451,1.9603e-19,0,0,0,0,0,0,0,0,0,1,0.000349386
6108,0.670898,0.173828,-3.33301,-0.00194099,-0.000675553,-0.00379612,-0.0686846,-0.0333415,-1.76779,0,0,0,-0.00181268,-0.000516284,-0.0486918,-0.0134796,-1.76774,0,0,0,0,0,0,0,0,0,0,0.256418,-0.119701,0,-1.5,0,0,0,0,-0.00181268,-0.000516284,0,0,0,0,-0.0486918,-0.0134796,1.9603e-19,0,0,0,0,0,0,0,0,0,1,0.000567912
6123,0.671875,0.207031,1.07715,-0.00217322,0.000145943,-0.00557282,-0.0687101,-0.0333402,-1.76787,0,0,0,-0.00264461,-0.000744911,-0.0591832,-0.01621,-1.76787,0,0,0,0,0,0,0,0,0,0,0.258837,-0.118423,0,-1.5,0,0,0,0,-0.00264461,-0.000744911,0,0,0,0,-0.0591832,-0.01621,1.9603e-19,0,0,0,0,0,0,0,0,0,1,0.000819402
6139,0.671875,0.240234,5.36426,-0.00170222,-0.000771706,-0.0055416,-0.0687443,-0.0333524,-1.76794,0,0,0,-0.00370838,-0.00103465,-0.0702944,-0.0190989,-1.76794,0,0,0,0,0,0,0,0,0,0,0.2614,-0.117073,0,-1.5,0,0,0,0,-0.00370838,-0.00103465,0,0,0,0,-0.0702944,-0.0190989,1.9603e-19,0,0,0,0,0,0,0,0,0,1,0.00113812
6155,0.657227,0.239258,-1.79883,-0.00257337,0.000832447,-0.00395839,-0.0687699,-0.0333485,-1.76801,0,0,0,-0.00494906,-0.00137037,-0.0813228,-0.0219639,-1.76801,0,0,0,0,0,0,0,0,0,0,0.263941,-0.115722,0,-1.5,0,0,0,0,-0.00494906,-0.00137037,0,0,0,0,-0.0813228,-0.0219639,1.9603e-19,0,0,0,0,0,0,0,0,0,1,0.00150741
6171,0.59082,0.206055,-6.56445,-0.00107661,-0.000859401,-0.00575163,-0.0687902,-0.0333609,-1.76808,0,0,0,-0.00636187,-0.00175077,-0.0922655,-0.0248044,-1.76808,0,0,0,0,0,0,0,0,0,0,0.266459,-0.114368,0,-1.5,0,0,0,0,-0.00636187,-0.00175077,0,0,0,0,-0.0922655,-0.0248044,1.9603e-19,0,0,0,0,0,0,0,0,0,1,0.00192585
6187,0.549805,0.172852,4.51465,-0.0016939,-0.00103071,-0.00529886,-0.0688309,-0.0333729,-1.76815,0,0,0,-0.0079489,-0.00217639,-0.103126,-0.0276224,-1.76815,0,0,0,0,0,0,0,0,0,0,0.268957,-0.113011,0,-1.5,0,0,0,0,-0.0079489,-0.00217639,0,0,0,0,-0.103126,-0.0276224,1.9603e-19,0,0,0,0,0,0,0,0,0,1,0.00239403
6202,0.522461,0.106445,-3.22656,-0.00317498,-0.00156951,-0.00497663,-0.0689169,-0.0334035,-1.76829,0,0,0,-0.00959363,-0.0026161,-0.113235,-0.0302437,-1.76822,0,0,0,0,0,0,0,0,0,0,0.271279,-0.111737,0,-1.5,0,0,0,0,-0.00959363,-0.0026161,0,0,0,0,-0.113235,-0.0302437,1.9603e-19,0,0,0,0,0,0,0,0,0,1,0.00287771
6218,0.543945,0.125,-0.262695,-0.00243674,-0.001193,-0.00471051,-0.0689591,-0.0334265,-1.76835,0,0,0,-0.0115147,-0.00312832,-0.123946,-0.0330187,-1.76829,0,0,0,0,0,0,0,0,0,0,0.273736,-0.110375,0,-1.5,0,0,0,0,-0.0115147,-0.00312832,0,0,0,0,-0.123946,-0.0330187,1.9603e-19,0,0,0,0,0,0,0,0,0,1,0.00344115
6233,0.577148,0.158203,5.73145,-0.00272386,0.000184474,-0.00505583,-0.0689976,-0.0334296,-1.76842,0,0,0,-0.0134677,-0.0036479,-0.133917,-0.035601,-1.76842,0,0,0,0,0,0,0,0,0,0,0.276017,-0.109076,0,-1.5,0,0,0,0,-0.0134677,-0.0036479,0,0,0,0,-0.133917,-0.035601,1.9603e-19,0,0,0,0,0,0,0,0,0,1,0.00401269
6267,0.643555,0.224609,-1.84082,-0.00186961,-0.000137693,-0.0054397,-0.0690709,-0.0334594,-1.76857,0,0,0,-0.0186169,-0.00501253,-0.156345,-0.0414026,-1.76857,0,0,0,0,0,0,0,0,0,0,0.281146,-0.106143,0,-1.5,0,0,0,0,-0.0186169,-0.00501253,0,0,0,0,-0.156345,-0.0414026,1.9603e-19,0,0,0,0,0,0,0,0,0,1,0.00551379
6280,0.666016,0.225586,-3.35156,5.90375e-05,-0.00120902,-0.00421732,-0.0690839,-0.0334782,-1.76863,0,0,0,-0.0207164,-0.00556809,-0.164795,-0.0435871,-1.76863,0,0,0,0,0,0,0,0,0,0,0.283076,-0.105026,0,-1.5,0,0,0,0,-0.0207164,-0.00556809,0,0,0,0,-0.164795,-0.0435871,1.9603e-19,0,0,0,0,0,0,0,0,0,1,0.0061249
6312,0.666016,0.225586,-1.80078,-0.00156714,-0.0015792,-0.00613035,-0.0691941,-0.0335229,-1.76882,0,0,0,-0.0263123,-0.00704527,-0.184804,-0.0487591,-1.76874,0,0,0,0,0,0,0,0,0,0,0.287639,-0.102343,0,-1.5,0,0,0,0,-0.0263123,-0.00704527,0,0,0,0,-0.184804,-0.0487591,1.9603e-19,0,0,0,0,0,0,0,0,0,1,0.0077498
6325,0.666016,0.225586,-1.80078,-0.00156714,-0.0015792,-0.00613035,-0.0691941,-0.0335229,-1.76882,0,0,0,-0.0287817,-0.00769642,-0.193084,-0.0508968,-1.76882,0,0,0,0,0,0,0,0,0,0,0.289523,-0.101215,0,-1.5,0,0,0,0,-0.0287817,-0.00769642,0,0,0,0,-0.193084,-0.0508968,1.9603e-19,0,0,0,0,0,0,0,0,0,1,0.00846606
6340,0.666016,0.225586,4.50586,-0.0026729,-0.000479374,-0.00497891,-0.0692632,-0.0335392,-1.76895,0,0,0,-0.0319775,-0.00853827,-0.203209,-0.0535112,-1.76882,0,0,0,0,0,0,0,0,0,0,0.29183,-0.0998492,0,-1.5,0,0,0,0,-0.0319775,-0.00853827,0,0,0,0,-0.203209,-0.0535112,1.9603e-19,0,0,0,0,0,0,0,0,0,1,0.00939209
6356,0.666016,0.225586,-2.83887,-0.00146049,-0.000103897,-0.0036371,-0.0692921,-0.0335384,-1.76901,0,0,0,-0.0353314,-0.00942089,-0.213262,-0.0561032,-1.76895,0,0,0,0,0,0,0,0,0,0,0.294109,-0.0984426,0,-1.5,0,0,0,0,-0.0353314,-0.00942089,0,0,0,0,-0.213262,-0.0561032,1.9603e-19,0,0,0,0,0,0,0,0,0,1,0.010363
6373,0.666016,0.225586,-3.21289,-0.00119245,-0.00049796,-0.0051579,-0.0693159,-0.0335575,-1.76907,0,0,0,-0.0388486,-0.0103456,-0.223243,-0.0586736,-1.76907,0,0,0,0,0,0,0,0,0,0,0.296369,-0.0970351,0,-1.5,0,0,0,0,-0.0388486,-0.0103456,0,0,0,0,-0.223243,-0.0586736,1.9603e-19,0,0,0,0,0,0,0,0,0,1,0.0113801
6388,0.666016,0.225586,-3.21289,-0.00119245,-0.00049796,-0.0051579,-0.0693159,-0.0335575,-1.76907,0,0,0,-0.0425246,-0.0113112,-0.233147,-0.0612245,-1.76907,0,0,0,0,0,0,0,0,0,0,0.298619,-0.0956618,0,-1.5,0,0,0,0,-0.0425246,-0.0113112,0,0,0,0,-0.233147,-0.0612245,1.9603e-19,0,0,0,0,0,0,0,0,0,1,0.0124423
6414,0.666016,0.225586,-0.250977,-0.00206348,-0.00220008,-0.00429878,-0.0694165,-0.0336143,-1.76928,0,0,0,-0.048899,-0.0129835,-0.249112,-0.0653359,-1.76928,0,0,0,0,0,0,0,0,0,0,0.302223,-0.0933562,0,-1.5,0,0,0,0,-0.048899,-0.0129835,0,0,0,0,-0.249112,-0.0653359,1.9603e-19,0,0,0,0,0,0,0,0,0,1,0.0142819
6430,0.666016,0.225586,-1.78613,-0.00179265,-0.00044569,-0.00421927,-0.0694498,-0.0336328,-1.76934,0,0,0,-0.052987,-0.0140552,-0.25883,-0.0678374,-1.76934,0,0,0,0,0,0,0,0,0,0,0.304417,-0.0919544,0,-1.5,0,0,0,0,-0.052987,-0.0140552,0,0,0,0,-0.25883,-0.0678374,1.9603e-19,0,0,0,0,0,0,0,0,0,1,0.0154607
6447,0.666016,0.225586,-3.3291,-0.00221179,-0.000341431,-0.00404335,-0.0694897,-0.0336391,-1.7694,0,0,0,-0.0575037,-0.0152384,-0.269079,-0.0704741,-1.7694,0,0,0,0,0,0,0,0,0,0,0.30673,-0.0904664,0,-1.5,0,0,0,0,-0.0575037,-0.0152384,0,0,0,0,-0.269079,-0.0704741,1.9603e-19,0,0,0,0,0,0,0,0,0,1,0.0167623
6462,0.666016,0.225586,1.07715,-0.00151052,0.000386416,-0.00504452,-0.0695131,-0.0336418,-1.76947,0,0,0,-0.0616267,-0.0163179,-0.278052,-0.0727803,-1.76947,0,0,0,0,0,0,0,0,0,0,0.308751,-0.0891458,0,-1.5,0,0,0,0,-0.0616267,-0.0163179,0,0,0,0,-0.278052,-0.0727803,1.9603e-19,0,0,0,0,0,0,0,0,0,1,0.0179497
6477,0.666016,0.225586,-1.81836,-0.00233703,-0.00095657,-0.00491971,-0.0695801,-0.0336914,-1.76953,0,0,0,-0.0658837,-0.0174317,-0.286962,-0.0750691,-1.76953,0,0,0,0,0,0,0,0,0,0,0.310756,-0.0878268,0,-1.5,0,0,0,0,-0.0658837,-0.0174317,0,0,0,0,-0.286962,-0.0750691,1.9603e-19,0,0,0,0,0,0,0,0,0,1,0.0191749
6494,0.666016,0.225586,-6.5752,-0.00138351,-0.000882597,-0.00407885,-0.0695935,-0.033687,-1.76965,0,0,0,-0.0708725,-0.0187363,-0.296989,-0.0776457,-1.76953,0,0,0,0,0,0,0,0,0,0,0.313015,-0.0863481,0,-1.5,0,0,0,0,-0.0708725,-0.0187363,0,0,0,0,-0.296989,-0.0776457,1.9603e-19,0,0,0,0,0,0,0,0,0,1,0.0206099
6509,0.666016,0.225586,4.53418,-0.00093975,-0.0018021,-0.00509622,-0.0696095,-0.0337086,-1.76972,0,0,0,-0.0754124,-0.0199228,-0.305769,-0.0799,-1.76972,0,0,0,0,0,0,0,0,0,0,0.314975,-0.0849829,0,-1.5,0,0,0,0,-0.0754124,-0.0199228,0,0,0,0,-0.305769,-0.0799,1.9603e-19,0,0,0,0,0,0,0,0,0,1,0.0219151
6524,0.647461,0.225586,-2.8418,-0.00240209,-0.00170977,-0.00452795,-0.0696499,-0.033726,-1.76978,0,0,0,-0.0800833,-0.021143,-0.314487,-0.0821393,-1.76978,0,0,0,0,0,0,0,0,0,0,0.316929,-0.0836557,0,-1.5,0,0,0,0,-0.0800833,-0.021143,0,0,0,0,-0.314487,-0.0821393,1.9603e-19,0,0,0,0,0,0,0,0,0,1,0.0232572
6541,0.614258,0.225586,-3.21777,-0.00309068,-0.000791644,-0.00497348,-0.0696934,-0.0337382,-1.76985,0,0,0,-0.0855377,-0.0225671,-0.324301,-0.0846579,-1.76985,0,0,0,0,0,0,0,0,0,0,0.319125,-0.0821469,0,-1.5,0,0,0,0,-0.0855377,-0.0225671,0,0,0,0,-0.324301,-0.0846579,1.9603e-19,0,0,0,0,0,0,0,0,0,1,0.0248238
6556,0.614258,0.225586,-3.21777,-0.00309068,-0.000791644,-0.00497348,-0.0696934,-0.0337382,-1.76985,0,0,0,-0.0904854,-0.0238583,-0.332893,-0.0868618,-1.76985,0,0,0,0,0,0,0,0,0,0,0.321052,-0.0808339,0,-1.5,0,0,0,0,-0.0904854,-0.0238583,0,0,0,0,-0.332893,-0.0868618,1.9603e-19,0,0,0,0,0,0,0,0,0,1,0.0262441
6573,0.547852,0.225586,5.72949,-0.00239642,-0.00157803,-0.00611715,-0.0697715,-0.0337718,-1.77,0,0,0,-0.096251,-0.0253622,-0.34256,-0.0893405,-1.77,0,0,0,0,0,0,0,0,0,0,0.323202,-0.0792937,0,-1.5,0,0,0,0,-0.096251,-0.0253622,0,0,0,0,-0.34256,-0.0893405,1.9603e-19,0,0,0,0,0,0,0,0,0,1,0.0278985
6589,0.555664,0.225586,-1.80078,-0.00222503,-0.00120708,-0.0032621,-0.0698329,-0.0338033,-1.77012,0,0,0,-0.101824,-0.0268153,-0.351593,-0.0916547,-1.77008,0,0,0,0,0,0,0,0,0,0,0.325215,-0.0778647,0,-1.5,0,0,0,0,-0.101824,-0.0268153,0,0,0,0,-0.351593,-0.0916547,1.9603e-19,0,0,0,0,0,0,0,0,0,1,0.0294968
6605,0.588867,0.225586,-3.31348,-0.00127844,-0.000552364,-0.00465303,-0.069848,-0.0338134,-1.77018,0,0,0,-0.107544,-0.0283059,-0.360561,-0.0939516,-1.77012,0,0,0,0,0,0,0,0,0,0,0.327213,-0.0764402,0,-1.5,0,0,0,0,-0.107544,-0.0283059,0,0,0,0,-0.360561,-0.0939516,1.9603e-19,0,0,0,0,0,0,0,0,0,1,0.0311365
6621,0.62207,0.225586,1.0752,-0.00232171,-0.000927793,-0.00546438,-0.0698877,-0.0338233,-1.77025,0,0,0,-0.113404,-0.0298324,-0.369463,-0.0962306,-1.77025,0,0,0,0,0,0,0,0,0,0,0.329186,-0.0749881,0,-1.5,0,0,0,0,-0.113404,-0.0298324,0,0,0,0,-0.369463,-0.0962306,1.9603e-19,0,0,0,0,0,0,0,0,0,1,0.0328156
6645,0.680664,0.225586,-1.8252,-0.000674272,-0.000474115,-0.00476689,-0.0699462,-0.0338496,-1.77038,0,0,0,-0.122498,-0.0322001,-0.382713,-0.09962,-1.77031,0,0,0,0,0,0,0,0,0,0,0.33213,-0.0728428,0,-1.5,0,0,0,0,-0.122498,-0.0322001,0,0,0,0,-0.382713,-0.09962,1.9603e-19,0,0,0,0,0,0,0,0,0,1,0.0354201
6668,0.680664,0.225586,-1.8252,-0.000674272,-0.000474115,-0.00476689,-0.0699462,-0.0338496,-1.77038,0,0,0,-0.131511,-0.0345452,-0.395272,-0.102831,-1.77038,0,0,0,0,0,0,0,0,0,0,0.334914,-0.0707801,0,-1.5,0,0,0,0,-0.131511,-0.0345452,0,0,0,0,-0.395272,-0.102831,1.9603e-19,0,0,0,0,0,0,0,0,0,1,0.0379998
6683,0.625,0.225586,4.53809,-0.00154695,-0.00126195,-0.00457574,-0.0700193,-0.0338824,-1.77049,0,0,0,-0.137519,-0.0361078,-0.403379,-0.104903,-1.77049,0,0,0,0,0,0,0,0,0,0,0.3367,-0.0694105,0,-1.5,0,0,0,0,-0.137519,-0.0361078,0,0,0,0,-0.403379,-0.104903,1.9603e-19,0,0,0,0,0,0,0,0,0,1,0.0397185
6699,0.558594,0.225586,-3.21875,-0.00214296,-0.000979035,-0.0044008,-0.0700765,-0.0339105,-1.77062,0,0,0,-0.144061,-0.0378086,-0.41197,-0.107096,-1.77056,0,0,0,0,0,0,0,0,0,0,0.338597,-0.0679663,0,-1.5,0,0,0,0,-0.144061,-0.0378086,0,0,0,0,-0.41197,-0.107096,1.9603e-19,0,0,0,0,0,0,0,0,0,1,0.0415894
6714,0.525391,0.225586,-0.22168,-0.00256233,-0.00036226,-0.00533106,-0.0701249,-0.0339112,-1.77069,0,0,0,-0.150315,-0.0394342,-0.419965,-0.109137,-1.77062,0,0,0,0,0,0,0,0,0,0,0.340359,-0.0666099,0,-1.5,0,0,0,0,-0.150315,-0.0394342,0,0,0,0,-0.419965,-0.109137,1.9603e-19,0,0,0,0,0,0,0,0,0,1,0.0433777
6731,0.549805,0.225586,5.69336,-0.00169825,-7.85418e-05,-0.00379063,-0.0701552,-0.033914,-1.77076,0,0,0,-0.157124,-0.0412032,-0.428438,-0.111297,-1.77076,0,0,0,0,0,0,0,0,0,0,0.342216,-0.0651366,0,-1.5,0,0,0,0,-0.157124,-0.0412032,0,0,0,0,-0.428438,-0.111297,1.9603e-19,0,0,0,0,0,0,0,0,0,1,0.0453235
6746,0.549805,0.225586,5.69336,-0.00169825,-7.85418e-05,-0.00379063,-0.0701552,-0.033914,-1.77076,0,0,0,-0.163627,-0.042892,-0.436325,-0.113304,-1.77076,0,0,0,0,0,0,0,0,0,0,0.343957,-0.063798,0,-1.5,0,0,0,0,-0.163627,-0.042892,0,0,0,0,-0.436325,-0.113304,1.9603e-19,0,0,0,0,0,0,0,0,0,1,0.0471812
6761,0.616211,0.225586,-1.76172,-0.00230717,-0.00141956,-0.00444234,-0.0702183,-0.0339389,-1.77091,0,0,0,-0.170696,-0.0447272,-0.444678,-0.115428,-1.77091,0,0,0,0,0,0,0,0,0,0,0.345781,-0.0623167,0,-1.5,0,0,0,0,-0.170696,-0.0447272,0,0,0,0,-0.444678,-0.115428,1.9603e-19,0,0,0,0,0,0,0,0,0,1,0.0492
6778,0.616211,0.225586,-1.76172,-0.00230717,-0.00141956,-0.00444234,-0.0702183,-0.0339389,-1.77091,0,0,0,-0.177898,-0.0465962,-0.452972,-0.117535,-1.77091,0,0,0,0,0,0,0,0,0,0,0.347607,-0.0608844,0,-1.5,0,0,0,0,-0.177898,-0.0465962,0,0,0,0,-0.452972,-0.117535,1.9603e-19,0,0,0,0,0,0,0,0,0,1,0.0512559
6793,0.646484,0.225586,1.11426,-0.00142203,-0.000688468,-0.00466239,-0.0702824,-0.0339615,-1.77104,0,0,0,-0.185232,-0.0484988,-0.461204,-0.119626,-1.77104,0,0,0,0,0,0,0,0,0,0,0.349401,-0.0594049,0,-1.5,0,0,0,0,-0.185232,-0.0484988,0,0,0,0,-0.461204,-0.119626,1.9603e-19,0,0,0,0,0,0,0,0,0,1,0.0533487
6810,0.646484,0.225586,-1.80859,-0.00311581,-0.00108562,-0.00506967,-0.070355,-0.0340052,-1.77118,0,0,0,-0.193168,-0.0505567,-0.469889,-0.121829,-1.77111,0,0,0,0,0,0,0,0,0,0,0.351297,-0.0578518,0,-1.5,0,0,0,0,-0.193168,-0.0505567,0,0,0,0,-0.469889,-0.121829,1.9603e-19,0,0,0,0,0,0,0,0,0,1,0.0556124
6826,0.646484,0.225586,-6.5791,-0.000481057,-0.000500881,-0.00529087,-0.0703791,-0.0340126,-1.77124,0,0,0,-0.200769,-0.052527,-0.478001,-0.123888,-1.77118,0,0,0,0,0,0,0,0,0,0,0.353066,-0.056388,0,-1.5,0,0,0,0,-0.200769,-0.052527,0,0,0,0,-0.478001,-0.123888,1.9603e-19,0,0,0,0,0,0,0,0,0,1,0.0577797
6842,0.646484,0.225586,-6.5791,-0.000481057,-0.000500881,-0.00529087,-0.0703791,-0.0340126,-1.77124,0,0,0,-0.208499,-0.05453,-0.486056,-0.12593,-1.77124,0,0,0,0,0,0,0,0,0,0,0.354822,-0.054926,0,-1.5,0,0,0,0,-0.208499,-0.05453,0,0,0,0,-0.486056,-0.12593,1.9603e-19,0,0,0,0,0,0,0,0,0,1,0.059983
6858,0.646484,0.225586,-2.81543,0.000126712,-1.05514e-05,-0.00563102,-0.0704157,-0.0340307,-1.77139,0,0,0,-0.216358,-0.0565655,-0.494049,-0.127955,-1.77139,0,0,0,0,0,0,0,0,0,0,0.356549,-0.0534291,0,-1.5,0,0,0,0,-0.216358,-0.0565655,0,0,0,0,-0.494049,-0.127955,1.9603e-19,0,0,0,0,0,0,0,0,0,1,0.0622221
6874,0.646484,0.225586,-3.18359,-0.00251457,-0.000654651,-0.00612135,-0.0704467,-0.0340421,-1.77147,0,0,0,-0.224343,-0.0586333,-0.501986,-0.129965,-1.77147,0,0,0,0,0,0,0,0,0,0,0.358271,-0.0519587,0,-1.5,0,0,0,0,-0.224343,-0.0586333,0,0,0,0,-0.501986,-0.129965,1.9603e-19,0,0,0,0,0,0,0,0,0,1,0.0644967
6890,0.646484,0.225586,-0.273438,-0.00278455,-4.43579e-05,-0.00433318,-0.0704828,-0.0340482,-1.77153,0,0,0,-0.232456,-0.0607331,-0.509864,-0.131957,-1.77153,0,0,0,0,0,0,0,0,0,0,0.359979,-0.0504882,0,-1.5,0,0,0,0,-0.232456,-0.0607331,0,0,0,0,-0.509864,-0.131957,1.9603e-19,0,0,0,0,0,0,0,0,0,1,0.0668064
6906,0.646484,0.225586,-0.228516,-0.00129045,-0.000658865,-0.00491851,-0.0703125,-0.0339355,-1.77148,0,0,0,-0.240693,-0.0628646,-0.517684,-0.133934,-1.77161,0,0,0,0,0,0,0,0,0,0,0.361669,-0.0490116,0,-1.5,0,0,0,0,-0.240693,-0.0628646,0,0,0,0,-0.517684,-0.133934,1.9603e-19,0,0,0,0,0,0,0,0,0,1,0.069151
6923,0.646484,0.225586,-1.79102,-0.00243891,-0.00162073,-0.00465475,-0.0703125,-0.0339355,-1.77173,0,0,0,-0.249058,-0.0650281,-0.525429,-0.13589,-1.77148,0,0,0,0,0,0,0,0,0,0,0.363366,-0.0476089,0,-1.5,0,0,0,0,-0.249058,-0.0650281,0,0,0,0,-0.525429,-0.13589,1.9603e-19,0,0,0,0,0,0,0,0,0,1,0.0715309
6940,0.646484,0.225586,-3.31055,-0.000697522,-0.00145809,-0.0049849,-0.0705664,-0.0341166,-1.77178,0,0,0,-0.258618,-0.0674999,-0.534065,-0.138068,-1.77178,0,0,0,0,0,0,0,0,0,0,0.365199,-0.0458691,0,-1.5,0,0,0,0,-0.258618,-0.0674999,0,0,0,0,-0.534065,-0.138068,1.9603e-19,0,0,0,0,0,0,0,0,0,1,0.0742499
6955,0.646484,0.225586,1.08496,-0.00183773,-0.00162309,-0.00496674,-0.0705847,-0.034132,-1.77185,0,0,0,-0.266154,-0.0694479,-0.540754,-0.139759,-1.77185,0,0,0,0,0,0,0,0,0,0,0.366638,-0.0445715,0,-1.5,0,0,0,0,-0.266154,-0.0694479,0,0,0,0,-0.540754,-0.139759,1.9603e-19,0,0,0,0,0,0,0,0,0,1,0.0763927
6970,0.646484,0.225586,5.37109,-0.000866637,-0.00169361,-0.00419252,-0.0705996,-0.0341581,-1.77191,0,0,0,-0.274883,-0.0717036,-0.548347,-0.14168,-1.77191,0,0,0,0,0,0,0,0,0,0,0.368271,-0.0430932,0,-1.5,0,0,0,0,-0.274883,-0.0717036,0,0,0,0,-0.548347,-0.14168,1.9603e-19,0,0,0,0,0,0,0,0,0,1,0.078874
6986,0.646484,0.225586,-1.78027,-0.00130879,-0.00122246,-0.00550934,-0.0706269,-0.0341661,-1.77198,0,0,0,-0.283734,-0.07399,-0.555884,-0.143588,-1.77198,0,0,0,0,0,0,0,0,0,0,0.369887,-0.0416081,0,-1.5,0,0,0,0,-0.283734,-0.07399,0,0,0,0,-0.555884,-0.143588,1.9603e-19,0,0,0,0,0,0,0,0,0,1,0.081389
7002,0.646484,0.225586,4.53809,-0.00278258,0.000525439,-0.00508636,-0.070678,-0.0341805,-1.77211,0,0,0,-0.292707,-0.0763073,-0.563366,-0.14548,-1.77203,0,0,0,0,0,0,0,0,0,0,0.37149,-0.0401249,0,-1.5,0,0,0,0,-0.292707,-0.0763073,0,0,0,0,-0.563366,-0.14548,1.9603e-19,0,0,0,0,0,0,0,0,0,1,0.083938
7018,0.646484,0.225586,-2.83203,-0.00207458,-0.00109024,-0.00481611,-0.0707098,-0.0341929,-1.77217,0,0,0,-0.301798,-0.0786547,-0.570792,-0.147357,-1.77211,0,0,0,0,0,0,0,0,0,0,0.373077,-0.0386347,0,-1.5,0,0,0,0,-0.301798,-0.0786547,0,0,0,0,-0.570792,-0.147357,1.9603e-19,0,0,0,0,0,0,0,0,0,1,0.0865202
7035,0.646484,0.225586,-3.25293,-0.00171967,-0.000411859,-0.00416354,-0.0707332,-0.0342001,-1.77223,0,0,0,-0.311009,-0.081032,-0.578168,-0.149219,-1.77223,0,0,0,0,0,0,0,0,0,0,0.374642,-0.0371226,0,-1.5,0,0,0,0,-0.311009,-0.081032,0,0,0,0,-0.578168,-0.149219,1.9603e-19,0,0,0,0,0,0,0,0,0,1,0.0891352
7051,0.646484,0.225586,-0.24707,-0.00104528,0.000562391,-0.0045831,-0.0707565,-0.0342007,-1.7723,0,0,0,-0.320923,-0.0835903,-0.585946,-0.151179,-1.7723,0,0,0,0,0,0,0,0,0,0,0.3763,-0.0355395,0,-1.5,0,0,0,0,-0.320923,-0.0835903,0,0,0,0,-0.585946,-0.151179,1.9603e-19,0,0,0,0,0,0,0,0,0,1,0.0919493
7067,0.646484,0.225586,5.69727,-0.00139483,0.000346135,-0.00323387,-0.0707793,-0.0342034,-1.77236,0,0,0,-0.330372,-0.0860278,-0.593209,-0.153008,-1.77236,0,0,0,0,0,0,0,0,0,0,0.377844,-0.0340483,0,-1.5,0,0,0,0,-0.330372,-0.0860278,0,0,0,0,-0.593209,-0.153008,1.9603e-19,0,0,0,0,0,0,0,0,0,1,0.0946306
7083,0.646484,0.225586,5.69727,-0.00139483,0.000346135,-0.00323387,-0.0707793,-0.0342034,-1.77236,0,0,0,-0.339937,-0.0884944,-0.600416,-0.154821,-1.77236,0,0,0,0,0,0,0,0,0,0,0.379383,-0.0325788,0,-1.5,0,0,0,0,-0.339937,-0.0884944,0,0,0,0,-0.600416,-0.154821,1.9603e-19,0,0,0,0,0,0,0,0,0,1,0.0973439
7103,0.646484,0.19043,-3.33203,-0.00181072,-0.000968575,-0.00470411,-0.0708781,-0.0342173,-1.77255,0,0,0,-0.352071,-0.0916224,-0.609357,-0.157068,-1.77255,0,0,0,0,0,0,0,0,0,0,0.38126,-0.030664,0,-1.5,0,0,0,0,-0.352071,-0.0916224,0,0,0,0,-0.609357,-0.157068,1.9603e-19,0,0,0,0,0,0,0,0,0,1,0.100785
7119,0.646484,0.157227,1.08008,-0.00197758,-0.00218892,-0.00444526,-0.0709155,-0.0342407,-1.77261,0,0,0,-0.361895,-0.0941542,-0.616454,-0.158846,-1.77261,0,0,0,0,0,0,0,0,0,0,0.382762,-0.0291701,0,-1.5,0,0,0,0,-0.361895,-0.0941542,0,0,0,0,-0.616454,-0.158846,1.9603e-19,0,0,0,0,0,0,0,0,0,1,0.10357
7135,0.646484,0.143555,5.36719,-0.00136082,-0.000767515,-0.00451766,-0.0709403,-0.0342568,-1.77266,0,0,0,-0.371833,-0.0967143,-0.623501,-0.160612,-1.77266,0,0,0,0,0,0,0,0,0,0,0.38425,-0.0276724,0,-1.5,0,0,0,0,-0.371833,-0.0967143,0,0,0,0,-0.623501,-0.160612,1.9603e-19,0,0,0,0,0,0,0,0,0,1,0.106386
7151,0.646484,0.143555,-1.80176,-0.000480334,-0.00205485,-0.00399193,-0.0709544,-0.0342773,-1.77273,0,0,0,-0.38188,-0.099302,-0.630496,-0.162365,-1.77273,0,0,0,0,0,0,0,0,0,0,0.385723,-0.0261702,0,-1.5,0,0,0,0,-0.38188,-0.099302,0,0,0,0,-0.630496,-0.162365,1.9603e-19,0,0,0,0,0,0,0,0,0,1,0.109232
7168,0.646484,0.143555,-6.58301,-0.00239574,-0.000517358,-0.00452016,-0.070976,-0.0342925,-1.7728,0,0,0,-0.39268,-0.102083,-0.63787,-0.164214,-1.7728,0,0,0,0,0,0,0,0,0,0,0.387273,-0.0245715,0,-1.5,0,0,0,0,-0.39268,-0.102083,0,0,0,0,-0.63787,-0.164214,1.9603e-19,0,0,0,0,0,0,0,0,0,1,0.112291
7183,0.646484,0.143555,-2.83496,-0.00133163,-0.000730056,-0.00516396,-0.0710305,-0.0343136,-1.77294,0,0,0,-0.401664,-0.104395,-0.643897,-0.165725,-1.7728,0,0,0,0,0,0,0,0,0,0,0.388546,-0.0232762,0,-1.5,0,0,0,0,-0.401664,-0.104395,0,0,0,0,-0.643897,-0.165725,1.9603e-19,0,0,0,0,0,0,0,0,0,1,0.114834
7198,0.646484,0.143555,-3.22949,-0.00102153,-0.000736809,-0.00474429,-0.0710566,-0.034325,-1.77302,0,0,0,-0.412036,-0.107064,-0.65074,-0.167439,-1.77294,0,0,0,0,0,0,0,0,0,0,0.389966,-0.0217377,0,-1.5,0,0,0,0,-0.412036,-0.107064,0,0,0,0,-0.65074,-0.167439,1.9603e-19,0,0,0,0,0,0,0,0,0,1,0.11777
7214,0.646484,0.143555,-0.233398,-0.00188034,-0.000643762,-0.00517454,-0.071086,-0.0343328,-1.77309,0,0,0,-0.422517,-0.10976,-0.657537,-0.169139,-1.77309,0,0,0,0,0,0,0,0,0,0,0.391374,-0.0201968,0,-1.5,0,0,0,0,-0.422517,-0.10976,0,0,0,0,-0.657537,-0.169139,1.9603e-19,0,0,0,0,0,0,0,0,0,1,0.120736
7229,0.646484,0.143555,5.72266,-0.00278033,-0.000259313,-0.00544331,-0.0711296,-0.0343376,-1.77315,0,0,0,-0.432441,-0.112313,-0.663866,-0.17072,-1.77315,0,0,0,0,0,0,0,0,0,0,0.392694,-0.0187789,0,-1.5,0,0,0,0,-0.432441,-0.112313,0,0,0,0,-0.663866,-0.17072,1.9603e-19,0,0,0,0,0,0,0,0,0,1,0.123544
7246,0.646484,0.143555,5.72266,-0.00278033,-0.000259313,-0.00544331,-0.0711296,-0.0343376,-1.77315,0,0,0,-0.443134,-0.115062,-0.670571,-0.172392,-1.77315,0,0,0,0,0,0,0,0,0,0,0.3941,-0.0172919,0,-1.5,0,0,0,0,-0.443134,-0.115062,0,0,0,0,-0.670571,-0.172392,1.9603e-19,0,0,0,0,0,0,0,0,0,1,0.126568
7261,0.646484,0.143555,-1.76758,-0.00149935,0.000239358,-0.00390057,-0.0711897,-0.0343344,-1.77327,0,0,0,-0.453933,-0.117838,-0.677226,-0.17405,-1.77327,0,0,0,0,0,0,0,0,0,0,0.395474,-0.0157573,0,-1.5,0,0,0,0,-0.453933,-0.117838,0,0,0,0,-0.677226,-0.17405,1.9603e-19,0,0,0,0,0,0,0,0,0,1,0.129621
7277,0.646484,0.143555,-1.76758,-0.00149935,0.000239358,-0.00390057,-0.0711897,-0.0343344,-1.77327,0,0,0,-0.464838,-0.12064,-0.683834,-0.175692,-1.77327,0,0,0,0,0,0,0,0,0,0,0.396855,-0.0142681,0,-1.5,0,0,0,0,-0.464838,-0.12064,0,0,0,0,-0.683834,-0.175692,1.9603e-19,0,0,0,0,0,0,0,0,0,1,0.132704
7293,0.646484,0.143555,5.34863,-0.000929012,3.0967e-05,-0.00526746,-0.0712653,-0.0343611,-1.77345,0,0,0,-0.475848,-0.123468,-0.690393,-0.177321,-1.77339,0,0,0,0,0,0,0,0,0,0,0.398204,-0.0127313,0,-1.5,0,0,0,0,-0.475848,-0.123468,0,0,0,0,-0.690393,-0.177321,1.9603e-19,0,0,0,0,0,0,0,0,0,1,0.135815
7309,0.646484,0.143555,5.34863,-0.000929012,3.0967e-05,-0.00526746,-0.0712653,-0.0343611,-1.77345,0,0,0,-0.486963,-0.126322,-0.696907,-0.178936,-1.77345,0,0,6751551,-734311392,6751551,-734311392,-769392640,131072,184549376,989855744,0.39955,-0.0112141,0,-1.5,0,0,0,0,-0.486963,-0.126322,0,0,0,0,-0.696907,-0.178936,0,0,0,0,0,0,0,0,0,0,1,0.138954
7323,0.646484,0.143555,-6.57812,-0.00144972,-0.000535355,-0.00421494,-0.0713111,-0.0343736,-1.77357,0,0,0,-0.496065,-0.128659,-0.70216,-0.180239,-1.77345,0,0,6751551,-734311392,6751551,-734311392,-769392640,131072,184549376,989855744,0.400641,-0.0100013,0,-1.5,0,0,0,0,-0.496065,-0.128659,0,0,0,0,-0.70216,-0.180239,0,0,0,0,0,0,0,0,0,0,1,0.141525
7338,0.646484,0.143555,4.51562,-0.00289391,-0.000360667,-0.00440519,-0.0713457,-0.0343751,-1.77363,-7.43031,-5.03481,-0.101274,-0.507367,-0.131559,-0.708591,-0.18183,-1.77363,0,0,585,136,585,136,626,118,587,198,0.401945,-0.00843274,0,-1.5,0,0,0,0,-0.507367,-0.131559,0,0,0,0,-0.708591,-0.18183,3360,0,0,0,0,0,0,0,0,0,1,0.144715
7354,0.646484,0.143555,-2.82324,-0.000935283,-0.000104239,-0.00622936,-0.0713654,-0.0343824,-1.77372,-7.43031,-5.03481,-0.101274,-0.51877,-0.134485,-0.714975,-0.183407,-1.77372,0,0,585,136,585,136,626,118,587,198,0.403253,-0.00690391,0,-1.5,0,0,0,0,-0.51877,-0.134485,0,0,0,0,-0.714975,-0.183407,3360,0,0,0,0,0,0,0,0,0,1,0.147933
7371,0.646484,0.143555,-3.21973,-0.000471754,-0.00098196,-0.00483405,-0.071385,-0.0343987,-1.77378,-7.43017,-5.03451,-0.100965,-0.530999,-0.137621,-0.721708,-0.185068,-1.77378,0,0,585,136,585,136,626,118,587,198,0.404634,-0.00528812,0,-1.5,0,0,0,0,-0.530999,-0.137621,0,0,0,0,-0.721708,-0.185068,3360,0,0,0,0,0,0,0,0,0,1,0.151383
7386,0.646484,0.143555,-3.21973,-0.000471754,-0.00098196,-0.00483405,-0.071385,-0.0343987,-1.77378,-7.43017,-5.03451,-0.100965,-0.54188,-0.140411,-0.727601,-0.186523,-1.77378,0,0,585,136,585,136,626,118,587,198,0.405849,-0.00388346,0,-1.5,0,0,0,0,-0.54188,-0.140411,0,0,0,0,-0.727601,-0.186523,3360,0,0,0,0,0,0,0,0,0,1,0.154452
7401,0.646484,0.143555,5.69434,-0.00123044,-0.000745159,-0.00634567,-0.0714237,-0.0344243,-1.77391,-7.43017,-5.03451,-0.100965,-0.55285,-0.143222,-0.733454,-0.187967,-1.77391,0,0,585,136,585,136,626,118,587,198,0.407031,-0.00242379,0,-1.5,0,0,0,0,-0.55285,-0.143222,0,0,0,0,-0.733454,-0.187967,3360,0,0,0,0,0,0,0,0,0,1,0.157545
7417,0.646484,0.143555,-1.68945,-0.000230929,-0.000715998,-0.00543682,-0.0714449,-0.0344281,-1.77403,-7.64082,-5.1874,-0.070729,-0.564651,-0.146246,-0.739654,-0.189497,-1.77391,0,0,585,136,585,136,628,121,587,198,0.408304,-0.000922151,0,-1.5,0,0,0,0,-0.564651,-0.146246,0,0,0,0,-0.739654,-0.189497,3311,0,0,0,0,0,0,0,0,0,1,0.160871
7433,0.646484,0.143555,-3.30859,-0.00255173,-0.000709678,-0.00504449,-0.071477,-0.0344346,-1.7741,-7.64082,-5.1874,-0.070729,-0.57655,-0.149294,-0.745807,-0.191014,-1.77403,0,0,585,136,585,136,628,121,587,198,0.409427,0.000605367,0,-1.5,0,0,0,0,-0.57655,-0.149294,0,0,0,0,-0.745807,-0.191014,3311,0,0,0,0,0,0,0,0,0,1,0.164223
7449,0.646484,0.143555,1.08008,-0.00262815,-0.00183155,-0.0048268,-0.0715126,-0.0344532,-1.77416,-7.42374,-5.02108,-0.102476,-0.588547,-0.152366,-0.751918,-0.192517,-1.77416,0,0,585,136,585,136,624,118,587,198,0.409158,0.0018537,0,-1.5,0,0,0,0,-0.588547,-0.152366,0,0,0,0,-0.751918,-0.192517,3360,0,0,0,0,0,0,0,0,0,1,0.167602
7465,0.646484,0.143555,5.37207,-0.00156011,-0.00114026,-0.0040583,-0.0715377,-0.0344714,-1.77421,-7.42374,-5.02108,-0.102476,-0.600642,-0.155462,-0.757988,-0.19401,-1.77421,0,0,585,136,585,136,624,118,587,198,0.408901,0.00307403,0,-1.5,0,0,0,0,-0.600642,-0.155462,0,0,0,0,-0.757988,-0.19401,3360,0,0,0,0,0,0,0,0,0,1,0.171008
7481,0.646484,0.143555,5.37207,-0.00156011,-0.00114026,-0.0040583,-0.0715377,-0.0344714,-1.77421,-7.42374,-5.02108,-0.102476,-0.612833,-0.158582,-0.764012,-0.195491,-1.77421,0,0,585,136,585,136,624,118,587,198,0.408653,0.00427703,0,-1.5,0,0,0,0,-0.612833,-0.158582,0,0,0,0,-0.764012,-0.195491,3360,0,0,0,0,0,0,0,0,0,1,0.17444
7498,0.646484,0.143555,-6.56445,-0.00112364,-0.0005306,-0.00468596,-0.0715958,-0.0344831,-1.77434,-7.42374,-5.02108,-0.102476,-0.62512,-0.161725,-0.769992,-0.196961,-1.77434,0,0,585,136,585,136,624,118,587,198,0.408381,0.00553618,0,-1.5,0,0,0,0,-0.62512,-0.161725,0,0,0,0,-0.769992,-0.196961,3360,0,0,0,0,0,0,0,0,0,1,0.177897
7513,0.646484,0.143555,-6.56445,-0.00112364,-0.0005306,-0.00468596,-0.0715958,-0.0344831,-1.77434,-7.50104,-5.08246,-0.090567,-0.637502,-0.164892,-0.77593,-0.198417,-1.77434,0,0,585,136,585,136,626,119,587,198,0.408131,0.00674563,0,-1.5,0,0,0,0,-0.637502,-0.164892,0,0,0,0,-0.77593,-0.198417,3318,0,0,0,0,0,0,0,0,0,1,0.181381
7529,0.646484,0.143555,-3.24805,-0.00195512,-0.00088069,-0.00467898,-0.0716644,-0.0345292,-1.77453,-7.50104,-5.08246,-0.090567,-0.649979,-0.168081,-0.781824,-0.199862,-1.77446,0,0,585,136,585,136,626,119,587,198,0.407859,0.00800849,0,-1.5,0,0,0,0,-0.649979,-0.168081,0,0,0,0,-0.781824,-0.199862,3318,0,0,0,0,0,0,0,0,0,1,0.18489
7545,0.646484,0.143555,-3.24805,-0.00195512,-0.00088069,-0.00467898,-0.0716644,-0.0345292,-1.77453,-7.42357,-5.02062,-0.102183,-0.662548,-0.171294,-0.78768,-0.201298,-1.77453,0,0,585,136,585,136,624,118,587,198,0.407595,0.00925223,0,-1.5,0,0,0,0,-0.662548,-0.171294,0,0,0,0,-0.78768,-0.201298,3360,0,0,0,0,0,0,0,0,0,1,0.188423
7561,0.646484,0.143555,5.72266,-0.0018611,-0.00101564,-0.00529,-0.0717286,-0.0345461,-1.77467,-7.42357,-5.02062,-0.102183,-0.674416,-0.174326,-0.79313,-0.202634,-1.77467,0,0,585,136,585,136,624,118,587,198,0.407334,0.0104514,0,-1.5,0,0,0,0,-0.674416,-0.174326,0,0,0,0,-0.79313,-0.202634,3360,0,0,0,0,0,0,0,0,0,1,0.191759
7577,0.646484,0.143555,5.72266,-0.0018611,-0.00101564,-0.00529,-0.0717286,-0.0345461,-1.77467,-7.43559,-5.02928,-0.10937,-0.687969,-0.177788,-0.799268,-0.204134,-1.77467,0,0,585,136,585,136,626,119,585,199,0.407065,0.0117512,0,-1.5,0,0,0,0,-0.687969,-0.177788,0,0,0,0,-0.799268,-0.204134,3360,0,0,0,0,0,0,0,0,0,1,0.195567
7592,0.646484,0.143555,-1.79102,-0.000989057,-0.000954589,-0.00495958,-0.0717859,-0.0345793,-1.77482,-7.43559,-5.02928,-0.10937,-0.70001,-0.180863,-0.804642,-0.205448,-1.77482,0,0,585,136,585,136,626,119,585,199,0.406798,0.0129634,0,-1.5,0,0,0,0,-0.70001,-0.180863,0,0,0,0,-0.804642,-0.205448,3360,0,0,0,0,0,0,0,0,0,1,0.198949
7608,0.646484,0.143555,-3.33496,-0.00237932,-0.000656933,-0.00500078,-0.0718238,-0.0345921,-1.77489,-7.43559,-5.02928,-0.10937,-0.712944,-0.184165,-0.81034,-0.20684,-1.77489,0,0,585,136,585,136,626,119,585,199,0.406531,0.0142203,0,-1.5,0,0,0,0,-0.712944,-0.184165,0,0,0,0,-0.81034,-0.20684,3360,0,0,0,0,0,0,0,0,0,1,0.202581
7624,0.646484,0.143555,5.38574,-0.00207024,-0.0004606,-0.00414377,-0.0718732,-0.0346077,-1.77501,-7.43559,-5.02928,-0.10937,-0.725969,-0.187489,-0.815998,-0.208221,-1.77495,0,0,585,136,585,136,626,119,585,199,0.406264,0.0154788,0,-1.5,0,0,0,0,-0.725969,-0.187489,0,0,0,0,-0.815998,-0.208221,3360,0,0,0,0,0,0,0,0,0,1,0.206238
7640,0.646484,0.143555,-1.82617,-0.00189247,-0.00105424,-0.00555624,-0.0718949,-0.0346179,-1.77508,-7.43559,-5.02928,-0.10937,-0.739084,-0.190835,-0.821615,-0.20959,-1.77501,0,0,585,136,585,136,626,119,585,199,0.405997,0.0167388,0,-1.5,0,0,0,0,-0.739084,-0.190835,0,0,0,0,-0.821615,-0.20959,3360,0,0,0,0,0,0,0,0,0,1,0.209918
7656,0.646484,0.143555,-6.55469,-0.000358471,-0.000912196,-0.00449586,-0.0719134,-0.0346302,-1.77514,-7.43559,-5.02928,-0.10937,-0.752289,-0.194202,-0.827195,-0.210948,-1.77514,0,0,585,136,585,136,626,119,585,199,0.405714,0.0180339,0,-1.5,0,0,0,0,-0.752289,-0.194202,0,0,0,0,-0.827195,-0.210948,3360,0,0,0,0,0,0,0,0,0,1,0.213623
7673,0.646484,0.143555,4.51855,-0.00118295,-0.0014856,-0.00424716,-0.0719436,-0.0346522,-1.7752,-7.63547,-5.17324,-0.0719981,-0.766416,-0.197804,-0.833079,-0.21238,-1.7752,0,0,585,136,585,136,628,121,585,198,0.405429,0.0193778,0,-1.5,0,0,0,0,-0.766416,-0.197804,0,0,0,0,-0.833079,-0.21238,3311,0,0,0,0,0,0,0,0,0,1,0.217585
7689,0.646484,0.143555,-2.82812,-0.00158755,-0.00112717,-0.00528136,-0.0719744,-0.0346609,-1.77528,-7.63547,-5.17324,-0.0719981,-0.779801,-0.201216,-0.838577,-0.213718,-1.77528,0,0,585,136,585,136,628,121,585,198,0.405156,0.0206546,0,-1.5,0,0,0,0,-0.779801,-0.201216,0,0,0,0,-0.838577,-0.213718,3311,0,0,0,0,0,0,0,0,0,1,0.221338
7705,0.646484,0.143555,-3.21973,-0.0011929,-0.000726803,-0.00424463,-0.0719916,-0.0346712,-1.77534,-7.63547,-5.17324,-0.0719981,-0.793276,-0.204649,-0.844036,-0.215045,-1.77534,0,0,585,136,585,136,628,121,585,198,0.404885,0.0219298,0,-1.5,0,0,0,0,-0.793276,-0.204649,0,0,0,0,-0.844036,-0.215045,3311,0,0,0,0,0,0,0,0,0,1,0.225114
7721,0.646484,0.143555,5.71875,-0.00341169,-0.000864493,-0.00400337,-0.0720598,-0.0346957,-1.77547,-7.63547,-5.17324,-0.0719981,-0.806837,-0.208104,-0.849453,-0.216361,-1.77534,0,0,585,136,585,136,628,121,585,198,0.404625,0.0231822,0,-1.5,0,0,0,0,-0.806837,-0.208104,0,0,0,0,-0.849453,-0.216361,3311,0,0,0,0,0,0,0,0,0,1,0.228914
7737,0.646484,0.143555,5.71875,-0.00341169,-0.000864493,-0.00400337,-0.0720598,-0.0346957,-1.77547,-7.43616,-5.03793,-0.107683,-0.820485,-0.21158,-0.854833,-0.217667,-1.77547,0,0,585,136,585,136,626,119,587,199,0.404339,0.024489,0,-1.5,0,0,0,0,-0.820485,-0.21158,0,0,0,0,-0.854833,-0.217667,3360,0,0,0,0,0,0,0,0,0,1,0.232737
7753,0.646484,0.143555,-1.75195,-0.000166259,-0.00216933,-0.00559858,-0.0720993,-0.0347354,-1.7756,-7.43616,-5.03793,-0.107683,-0.834217,-0.215075,-0.860177,-0.218963,-1.7756,0,0,585,136,585,136,626,119,587,199,0.404051,0.0258011,0,-1.5,0,0,0,0,-0.834217,-0.215075,0,0,0,0,-0.860177,-0.218963,3360,0,0,0,0,0,0,0,0,0,1,0.236583
7770,0.646484,0.143555,-3.3291,-0.0017636,-0.000850879,-0.00571399,-0.0721332,-0.0347464,-1.77568,-7.74987,-5.23812,-0.0208883,-0.848904,-0.218813,-0.865818,-0.220332,-1.77568,0,0,585,136,585,136,626,119,585,194,0.403758,0.0271728,0,-1.5,0,0,0,0,-0.848904,-0.218813,0,0,0,0,-0.865818,-0.220332,3150,0,0,0,0,0,0,0,0,0,1,0.240695
7785,0.646484,0.143555,1.07617,-0.00211023,7.93706e-05,-0.00503551,-0.0721602,-0.0347486,-1.77574,-7.74987,-5.23812,-0.0208883,-0.861938,-0.22213,-0.87076,-0.221529,-1.77574,0,0,585,136,585,136,626,119,585,194,0.403498,0.028384,0,-1.5,0,0,0,0,-0.861938,-0.22213,0,0,0,0,-0.87076,-0.221529,3150,0,0,0,0,0,0,0,0,0,1,0.244343
7801,0.646484,0.143555,5.34082,-0.0019984,0.000887848,-0.00488044,-0.0721916,-0.0347447,-1.7758,-7.74987,-5.23812,-0.0208883,-0.875047,-0.225464,-0.875669,-0.222715,-1.7758,0,0,585,136,585,136,626,119,585,194,0.403238,0.0295981,0,-1.5,0,0,0,0,-0.875047,-0.225464,0,0,0,0,-0.875669,-0.222715,3150,0,0,0,0,0,0,0,0,0,1,0.24801
7816,0.646484,0.143555,5.34082,-0.0019984,0.000887848,-0.00488044,-0.0721916,-0.0347447,-1.7758,-7.56466,-5.12354,-0.0719277,-0.889112,-0.229041,-0.880868,-0.22397,-1.7758,0,0,585,136,585,136,626,119,587,197,0.402974,0.0308682,0,-1.5,0,0,0,0,-0.889112,-0.229041,0,0,0,0,-0.880868,-0.22397,3276,0,0,0,0,0,0,0,0,0,1,0.251945
7833,0.646484,0.143555,4.52344,-0.00152853,-0.000521789,-0.0048021,-0.0722793,-0.0347636,-1.77602,-7.56466,-5.12354,-0.0719277,-0.904149,-0.232863,-0.886352,-0.225291,-1.77595,0,0,585,136,585,136,626,119,587,197,0.402663,0.0322792,0,-1.5,0,0,0,0,-0.904149,-0.232863,0,0,0,0,-0.886352,-0.225291,3276,0,0,0,0,0,0,0,0,0,1,0.25615
7849,0.646484,0.143555,-2.83203,-0.00128679,-0.000425684,-0.00434834,-0.0722984,-0.0347733,-1.77608,-7.50045,-5.08051,-0.089525,-0.918385,-0.236481,-0.891482,-0.226522,-1.77608,0,0,585,136,585,136,626,119,587,198,0.40237,0.0336087,0,-1.5,0,0,0,0,-0.918385,-0.236481,0,0,0,0,-0.891482,-0.226522,3318,0,0,0,0,0,0,0,0,0,1,0.260129
7865,0.646484,0.143555,-3.19727,-0.00102467,-0.000385858,-0.00465395,-0.0723096,-0.0347801,-1.77615,-7.50045,-5.08051,-0.089525,-0.932702,-0.240118,-0.896574,-0.227744,-1.77615,0,0,585,136,585,136,626,119,587,198,0.40209,0.0349128,0,-1.5,0,0,0,0,-0.932702,-0.240118,0,0,0,0,-0.896574,-0.227744,3318,0,0,0,0,0,0,0,0,0,1,0.26413
7881,0.646484,0.143555,-3.19727,-0.00102467,-0.000385858,-0.00465395,-0.0723096,-0.0347801,-1.77615,-7.56447,-5.12311,-0.0714571,-0.9471,-0.243775,-0.901627,-0.228956,-1.77615,0,0,585,136,585,136,626,119,587,197,0.401823,0.0361939,0,-1.5,0,0,0,0,-0.9471,-0.243775,0,0,0,0,-0.901627,-0.228956,3276,0,0,0,0,0,0,0,0,0,1,0.268152
7897,0.646484,0.143555,5.69824,-0.00229967,-0.000596014,-0.00525115,-0.0723743,-0.0348006,-1.77626,-7.56447,-5.12311,-0.0714571,-0.961579,-0.247451,-0.906644,-0.230158,-1.77626,0,0,585,136,585,136,626,119,587,197,0.401531,0.0375251,0,-1.5,0,0,0,0,-0.961579,-0.247451,0,0,0,0,-0.906644,-0.230158,3276,0,0,0,0,0,0,0,0,0,1,0.272196
7913,0.646484,0.143555,5.69824,-0.00229967,-0.000596014,-0.00525115,-0.0723743,-0.0348006,-1.77626,-7.42931,-5.03169,-0.0995064,-0.976138,-0.251146,-0.911628,-0.231351,-1.77626,0,0,585,136,585,136,626,118,587,198,0.401263,0.0388116,0,-1.5,0,0,0,0,-0.976138,-0.251146,0,0,0,0,-0.911628,-0.231351,3360,0,0,0,0,0,0,0,0,0,1,0.27626
7929,0.646484,0.143555,-3.33008,-0.0029427,-0.000600805,-0.00500406,-0.0724549,-0.0348434,-1.77647,-7.42931,-5.03169,-0.0995064,-0.990776,-0.25486,-0.916575,-0.232535,-1.77639,0,0,585,136,585,136,626,118,587,198,0.400966,0.040153,0,-1.5,0,0,0,0,-0.990776,-0.25486,0,0,0,0,-0.916575,-0.232535,3360,0,0,0,0,0,0,0,0,0,1,0.280346
7945,0.646484,0.143555,1.06641,-0.00230783,-0.00015866,-0.00456504,-0.0724858,-0.0348455,-1.77653,-7.49474,-5.06728,-0.0904576,-1.00549,-0.258592,-0.921491,-0.23371,-1.77647,0,0,585,136,585,136,624,119,587,198,0.40068,0.0414761,0,-1.5,0,0,0,0,-1.00549,-0.258592,0,0,0,0,-0.921491,-0.23371,3318,0,0,0,0,0,0,0,0,0,1,0.284451
7960,0.646484,0.143555,5.36035,-0.00128785,-0.000122877,-0.00492616,-0.0724986,-0.0348423,-1.77661,-7.49474,-5.06728,-0.0904576,-1.01936,-0.262108,-0.926071,-0.234801,-1.77661,0,0,585,136,585,136,624,119,587,198,0.400397,0.0427445,0,-1.5,0,0,0,0,-1.01936,-0.262108,0,0,0,0,-0.926071,-0.234801,3318,0,0,0,0,0,0,0,0,0,1,0.288319
7977,0.646484,0.143555,5.36035,-0.00128785,-0.000122877,-0.00492616,-0.0724986,-0.0348423,-1.77661,-7.49474,-5.06728,-0.0904576,-1.03516,-0.266114,-0.931224,-0.236027,-1.77661,0,0,585,136,585,136,624,119,587,198,0.40011,0.0441227,0,-1.5,0,0,0,0,-1.03516,-0.266114,0,0,0,0,-0.931224,-0.236027,3318,0,0,0,0,0,0,0,0,0,1,0.292725
7992,0.646484,0.143555,-6.60938,-0.00280428,0.000190859,-0.00481482,-0.0725717,-0.0348479,-1.77675,-7.49474,-5.06728,-0.0904576,-1.04917,-0.269664,-0.935737,-0.237098,-1.77675,0,0,585,136,585,136,624,119,587,198,0.399824,0.0453979,0,-1.5,0,0,0,0,-1.04917,-0.269664,0,0,0,0,-0.935737,-0.237098,3318,0,0,0,0,0,0,0,0,0,1,0.296631
8007,0.646484,0.143555,4.52832,-0.00106444,-0.000737915,-0.00556992,-0.0725892,-0.0348679,-1.77683,-7.4859,-5.05998,-0.0827502,-1.06325,-0.273231,-0.940224,-0.23816,-1.77683,0,0,585,136,585,136,624,118,587,197,0.399551,0.0466498,0,-1.5,0,0,0,0,-1.06325,-0.273231,0,0,0,0,-0.940224,-0.23816,3318,0,0,0,0,0,0,0,0,0,1,0.300554
8023,0.646484,0.143555,-2.82227,-0.00252535,-0.000525843,-0.00572894,-0.0726256,-0.0348809,-1.7769,-7.4859,-5.05998,-0.0827502,-1.07834,-0.277054,-0.94498,-0.239285,-1.7769,0,0,585,136,585,136,624,118,587,197,0.399264,0.0479807,0,-1.5,0,0,0,0,-1.07834,-0.277054,0,0,0,0,-0.94498,-0.239285,3318,0,0,0,0,0,0,0,0,0,1,0.304759
8039,0.646484,0.143555,-0.274414,-0.0023786,-0.000816131,-0.00399094,-0.0726819,-0.0349036,-1.77701,-7.42247,-5.01748,-0.100358,-1.09351,-0.280894,-0.949702,-0.240402,-1.77696,0,0,585,136,585,136,624,118,587,198,0.398977,0.0493121,0,-1.5,0,0,0,0,-1.09351,-0.280894,0,0,0,0,-0.949702,-0.240402,3360,0,0,0,0,0,0,0,0,0,1,0.308983
8056,0.646484,0.143555,5.72949,-0.00191482,-0.000501172,-0.00520223,-0.0727023,-0.0349106,-1.77707,-7.42247,-5.01748,-0.100358,-1.10971,-0.284994,-0.954686,-0.241578,-1.77707,0,0,585,136,585,136,624,118,587,198,0.398659,0.0507505,0,-1.5,0,0,0,0,-1.10971,-0.284994,0,0,0,0,-0.954686,-0.241578,3360,0,0,0,0,0,0,0,0,0,1,0.313493
8072,0.646484,0.143555,-0.248047,-0.00177482,-0.000419772,-0.00576464,-0.0727306,-0.0349109,-1.77715,-7.56406,-5.12189,-0.0705707,-1.12504,-0.288871,-0.959344,-0.242675,-1.77715,0,0,585,136,585,136,626,119,587,197,0.398368,0.0520917,0,-1.5,0,0,0,0,-1.12504,-0.288871,0,0,0,0,-0.959344,-0.242675,3276,0,0,0,0,0,0,0,0,0,1,0.317758
8088,0.646484,0.143555,-1.79004,-0.00110496,0.00148697,-0.00571984,-0.0727434,-0.034898,-1.77721,-7.56406,-5.12189,-0.0705707,-1.14043,-0.292764,-0.963968,-0.243761,-1.77721,0,0,585,136,585,136,626,119,587,197,0.398078,0.0534319,0,-1.5,0,0,0,0,-1.14043,-0.292764,0,0,0,0,-0.963968,-0.243761,3276,0,0,0,0,0,0,0,0,0,1,0.322041
8104,0.646484,0.143555,-3.35742,-0.00226634,-0.00117222,-0.00429586,-0.0727752,-0.0349133,-1.77727,-7.56406,-5.12189,-0.0705707,-1.1559,-0.296676,-0.968559,-0.244837,-1.77727,0,0,585,136,585,136,626,119,587,197,0.397789,0.0547714,0,-1.5,0,0,0,0,-1.1559,-0.296676,0,0,0,0,-0.968559,-0.244837,3276,0,0,0,0,0,0,0,0,0,1,0.326344
8120,0.646484,0.143555,1.08008,-0.00206348,-0.00113037,-0.00380535,-0.0728124,-0.0349224,-1.77733,-7.56406,-5.12189,-0.0705707,-1.17145,-0.300605,-0.97312,-0.245904,-1.77733,0,0,585,136,585,136,626,119,587,197,0.3975,0.0561129,0,-1.5,0,0,0,0,-1.17145,-0.300605,0,0,0,0,-0.97312,-0.245904,3276,0,0,0,0,0,0,0,0,0,1,0.330665
8136,0.646484,0.143555,5.37109,-0.00170746,-0.00112129,-0.0043664,-0.0728367,-0.0349331,-1.77739,-7.49822,-5.08215,-0.0877211,-1.18707,-0.30455,-0.97765,-0.246962,-1.77739,0,0,585,136,585,136,626,119,588,198,0.39721,0.0574565,0,-1.5,0,0,0,0,-1.18707,-0.30455,0,0,0,0,-0.97765,-0.246962,3318,0,0,0,0,0,0,0,0,0,1,0.335005
8152,0.646484,0.143555,-6.58789,-0.00149463,-0.000207011,-0.00406516,-0.0728856,-0.034948,-1.77751,-7.49822,-5.08215,-0.0877211,-1.20276,-0.308512,-0.982146,-0.248012,-1.77751,0,0,585,136,585,136,626,119,588,198,0.396904,0.0588271,0,-1.5,0,0,0,0,-1.20276,-0.308512,0,0,0,0,-0.982146,-0.248012,3318,0,0,0,0,0,0,0,0,0,1,0.339364
8168,0.646484,0.143555,4.51562,-0.00259169,-0.000842908,-0.00567501,-0.0729171,-0.0349623,-1.77758,-7.49822,-5.08215,-0.0877211,-1.21852,-0.312491,-0.986615,-0.249053,-1.77758,0,0,585,136,585,136,626,119,588,198,0.396609,0.0601816,0,-1.5,0,0,0,0,-1.21852,-0.312491,0,0,0,0,-0.986615,-0.249053,3318,0,0,0,0,0,0,0,0,0,1,0.34374
8185,0.646484,0.143555,-2.82227,-0.00136629,-0.000856213,-0.00500404,-0.0729391,-0.0349691,-1.77764,-7.49965,-5.0784,-0.0877764,-1.23534,-0.316737,-0.99133,-0.25015,-1.77764,0,0,585,136,585,136,626,119,587,198,0.396299,0.0616175,0,-1.5,0,0,0,0,-1.23534,-0.316737,0,0,0,0,-0.99133,-0.25015,3318,0,0,0,0,0,0,0,0,0,1,0.348411
8200,0.646484,0.143555,-3.20801,-0.00155662,-0.00192762,-0.00418366,-0.0729589,-0.0349886,-1.7777,-7.49965,-5.0784,-0.0877764,-1.25025,-0.320499,-0.995462,-0.251111,-1.7777,0,0,585,136,585,136,626,119,587,198,0.396024,0.0628871,0,-1.5,0,0,0,0,-1.25025,-0.320499,0,0,0,0,-0.995462,-0.251111,3318,0,0,0,0,0,0,0,0,0,1,0.352549
8216,0.646484,0.143555,-3.20801,-0.00155662,-0.00192762,-0.00418366,-0.0729589,-0.0349886,-1.7777,-7.4996,-5.07824,-0.0876826,-1.26622,-0.324527,-0.999836,-0.252129,-1.7777,0,0,585,136,585,136,626,119,587,198,0.395744,0.0642202,0,-1.5,0,0,0,0,-1.26622,-0.324527,0,0,0,0,-0.999836,-0.252129,3318,0,0,0,0,0,0,0,0,0,1,0.35698
8232,0.646484,0.143555,-0.226562,-0.00227693,-0.000784332,-0.00523034,-0.0730456,-0.0350344,-1.77792,-7.4996,-5.07824,-0.0876826,-1.28226,-0.328571,-1.00418,-0.253139,-1.77784,0,0,585,136,585,136,626,119,587,198,0.395429,0.0656128,0,-1.5,0,0,0,0,-1.28226,-0.328571,0,0,0,0,-1.00418,-0.253139,3318,0,0,0,0,0,0,0,0,0,1,0.361429
8248,0.646484,0.143555,-1.77051,-0.00122017,-0.00159618,-0.00409676,-0.0730739,-0.0350502,-1.77797,-7.49961,-5.07819,-0.0877343,-1.29838,-0.332632,-1.0085,-0.254141,-1.77792,0,0,585,136,585,136,626,119,587,198,0.39513,0.0669795,0,-1.5,0,0,0,0,-1.29838,-0.332632,0,0,0,0,-1.0085,-0.254141,3318,0,0,0,0,0,0,0,0,0,1,0.365895
8264,0.646484,0.143555,-3.3623,-0.00207061,7.79302e-05,-0.00377442,-0.0731071,-0.0350516,-1.77803,-7.49961,-5.07819,-0.0877343,-1.31456,-0.336709,-1.01279,-0.255137,-1.77803,0,0,585,136,585,136,626,119,587,198,0.394821,0.0683649,0,-1.5,0,0,0,0,-1.31456,-0.336709,0,0,0,0,-1.01279,-0.255137,3318,0,0,0,0,0,0,0,0,0,1,0.37038
8280,0.646484,0.143555,-3.3623,-0.00207061,7.79302e-05,-0.00377442,-0.0731071,-0.0350516,-1.77803,-7.42198,-5.0161,-0.0995355,-1.33081,-0.340802,-1.01705,-0.256124,-1.77803,0,0,585,136,585,136,624,118,587,198,0.394539,0.0697076,0,-1.5,0,0,0,0,-1.33081,-0.340802,0,0,0,0,-1.01705,-0.256124,3360,0,0,0,0,0,0,0,0,0,1,0.374882
8297,0.646484,0.143555,5.3916,-0.00178587,-0.00099152,-0.00469915,-0.0731708,-0.0350802,-1.77815,-7.42198,-5.0161,-0.0995355,-1.34815,-0.345167,-1.02155,-0.257164,-1.77815,0,0,585,136,585,136,624,118,587,198,0.394209,0.0711837,0,-1.5,0,0,0,0,-1.34815,-0.345167,0,0,0,0,-1.02155,-0.257164,3360,0,0,0,0,0,0,0,0,0,1,0.379684
8313,0.646484,0.143555,-1.82324,-0.00138999,-0.000200298,-0.00487059,-0.0731934,-0.035093,-1.77822,-7.84816,-5.30626,-0.0396975,-1.36454,-0.349292,-1.02576,-0.258135,-1.77822,0,0,585,136,585,136,626,124,585,198,0.393908,0.0725594,0,-1.5,0,0,0,0,-1.36454,-0.349292,0,0,0,0,-1.02576,-0.258135,3108,0,0,0,0,0,0,0,0,0,1,0.384222
8329,0.646484,0.143555,4.52344,-0.0028524,-0.000352966,-0.00525133,-0.0732358,-0.0351126,-1.77835,-7.84816,-5.30626,-0.0396975,-1.38099,-0.353433,-1.02993,-0.259099,-1.77829,0,0,585,136,585,136,626,124,585,198,0.393606,0.0739372,0,-1.5,0,0,0,0,-1.38099,-0.353433,0,0,0,0,-1.02993,-0.259099,3108,0,0,0,0,0,0,0,0,0,1,0.388776
8345,0.646484,0.143555,4.52344,-0.0028524,-0.000352966,-0.00525133,-0.0732358,-0.0351126,-1.77835,-7.43488,-5.03431,-0.105203,-1.39752,-0.357588,-1.03408,-0.260056,-1.77835,0,0,585,136,585,136,626,119,587,199,0.393305,0.0753152,0,-1.5,0,0,0,0,-1.39752,-0.357588,0,0,0,0,-1.03408,-0.260056,3360,0,0,0,0,0,0,0,0,0,1,0.393347
8360,0.646484,0.143555,-3.2334,-0.000680105,-0.000762208,-0.00453101,-0.0732704,-0.0351247,-1.77848,-7.43488,-5.03431,-0.105203,-1.41306,-0.361497,-1.03794,-0.260945,-1.77848,0,0,585,136,585,136,626,119,587,199,0.393006,0.0766349,0,-1.5,0,0,0,0,-1.41306,-0.361497,0,0,0,0,-1.03794,-0.260945,3360,0,0,0,0,0,0,0,0,0,1,0.397647
8377,0.646484,0.143555,-3.2334,-0.000680105,-0.000762208,-0.00453101,-0.0732704,-0.0351247,-1.77848,-7.43485,-5.03419,-0.105151,-1.43076,-0.365945,-1.04229,-0.261944,-1.77848,0,0,585,136,585,136,626,119,587,199,0.392702,0.0780762,0,-1.5,0,0,0,0,-1.43076,-0.365945,0,0,0,0,-1.04229,-0.261944,3360,0,0,0,0,0,0,0,0,0,1,0.402539
8392,0.646484,0.143555,5.70801,-0.00139293,-0.000937226,-0.0053846,-0.0733159,-0.0351394,-1.77861,-7.43485,-5.03419,-0.105151,-1.44643,-0.369882,-1.04609,-0.262818,-1.77861,0,0,585,136,585,136,626,119,587,199,0.3924,0.079402,0,-1.5,0,0,0,0,-1.44643,-0.369882,0,0,0,0,-1.04609,-0.262818,3360,0,0,0,0,0,0,0,0,0,1,0.406871
8408,0.646484,0.143555,-0.210938,-0.00286978,-0.000642541,-0.00546551,-0.0733535,-0.0351443,-1.77868,-7.30545,-4.93855,-0.141423,-1.46216,-0.373833,-1.04988,-0.263685,-1.77868,0,0,585,136,585,136,626,119,585,201,0.392115,0.0807022,0,-1.5,0,0,0,0,-1.46216,-0.373833,0,0,0,0,-1.04988,-0.263685,3444,0,0,0,0,0,0,0,0,0,1,0.411216
8424,0.646484,0.143555,-1.77344,-0.00152076,-0.000573434,-0.00406266,-0.0733761,-0.0351621,-1.77874,-7.30545,-4.93855,-0.141423,-1.48005,-0.378326,-1.05414,-0.264659,-1.77874,0,0,585,136,585,136,626,119,585,201,0.391795,0.0821723,0,-1.5,0,0,0,0,-1.48005,-0.378326,0,0,0,0,-1.05414,-0.264659,3444,0,0,0,0,0,0,0,0,0,1,0.416159
8440,0.646484,0.143555,-3.32031,-0.00137228,-0.00018781,-0.00511959,-0.0733962,-0.0351671,-1.77881,-7.21979,-4.8698,-0.137617,-1.49696,-0.38257,-1.05812,-0.265569,-1.77881,0,0,585,136,585,136,624,116,585,199,0.391487,0.083566,0,-1.5,0,0,0,0,-1.49696,-0.38257,0,0,0,0,-1.05812,-0.265569,3486,0,0,0,0,0,0,0,0,0,1,0.420827
8456,0.646484,0.143555,5.37012,-0.00187367,-0.00158237,-0.00418795,-0.0734453,-0.0351968,-1.77894,-7.21979,-4.8698,-0.137617,-1.51393,-0.386828,-1.06207,-0.266471,-1.77881,0,0,585,136,585,136,624,116,585,199,0.391199,0.0849324,0,-1.5,0,0,0,0,-1.51393,-0.386828,0,0,0,0,-1.06207,-0.266471,3486,0,0,0,0,0,0,0,0,0,1,0.425511
8472,0.646484,0.143555,-1.8418,-0.00213382,-0.00127426,-0.00556841,-0.0734713,-0.0352122,-1.77902,-7.42288,-5.00696,-0.0996877,-1.53096,-0.391101,-1.066,-0.267367,-1.77902,0,0,585,136,585,136,624,118,585,198,0.390857,0.0863811,0,-1.5,0,0,0,0,-1.53096,-0.391101,0,0,0,0,-1.066,-0.267367,3360,0,0,0,0,0,0,0,0,0,1,0.430211
8488,0.646484,0.143555,-6.54199,-0.00165172,-0.000727726,-0.00470647,-0.0734917,-0.0352187,-1.77909,-7.42288,-5.00696,-0.0996877,-1.54806,-0.395388,-1.0699,-0.268256,-1.77909,0,0,585,136,585,136,624,118,585,198,0.390549,0.0877798,0,-1.5,0,0,0,0,-1.54806,-0.395388,0,0,0,0,-1.0699,-0.268256,3360,0,0,0,0,0,0,0,0,0,1,0.434927
8504,0.646484,0.143555,4.55566,-0.00116867,-0.00021731,-0.00503246,-0.0734994,-0.0352286,-1.77916,-7.42288,-5.00696,-0.0996877,-1.56522,-0.399689,-1.07378,-0.269138,-1.77916,0,0,585,136,585,136,624,118,585,198,0.390239,0.0891809,0,-1.5,0,0,0,0,-1.56522,-0.399689,0,0,0,0,-1.07378,-0.269138,3360,0,0,0,0,0,0,0,0,0,1,0.439658
8520,0.646484,0.143555,-2.81445,-0.00217135,-0.000159527,-0.00577844,-0.0735144,-0.0352375,-1.77923,-7.42288,-5.00696,-0.0996877,-1.58244,-0.404005,-1.07763,-0.270014,-1.77923,0,0,585,136,585,136,624,118,585,198,0.389929,0.0905854,0,-1.5,0,0,0,0,-1.58244,-0.404005,0,0,0,0,-1.07763,-0.270014,3360,0,0,0,0,0,0,0,0,0,1,0.444405
8537,0.646484,0.143555,-3.22559,-0.00212222,-0.000971168,-0.00404076,-0.0735491,-0.035244,-1.77929,-7.4339,-5.02385,-0.105971,-1.59972,-0.408334,-1.08145,-0.270882,-1.77929,0,0,585,136,585,136,626,119,585,199,0.389624,0.0919824,0,-1.5,0,0,0,0,-1.59972,-0.408334,0,0,0,0,-1.08145,-0.270882,3360,0,0,0,0,0,0,0,0,0,1,0.449167
8552,0.646484,0.143555,5.70898,-0.00153198,-0.00021657,-0.00388292,-0.0736052,-0.0352573,-1.7794,-7.4339,-5.02385,-0.105971,-1.61706,-0.412677,-1.08524,-0.271742,-1.77929,0,0,585,136,585,136,626,119,585,199,0.389332,0.0933613,0,-1.5,0,0,0,0,-1.61706,-0.412677,0,0,0,0,-1.08524,-0.271742,3360,0,0,0,0,0,0,0,0,0,1,0.453945
8568,0.646484,0.143555,-0.240234,-0.00176678,-0.000544976,-0.00552553,-0.0734863,-0.0351562,-1.77954,-7.49766,-5.06621,-0.0880321,-1.63446,-0.417034,-1.08901,-0.272593,-1.77954,0,0,585,136,585,136,626,119,585,198,0.388971,0.0948411,0,-1.5,0,0,0,0,-1.63446,-0.417034,0,0,0,0,-1.08901,-0.272593,3318,0,0,0,0,0,0,0,0,0,1,0.458737
8585,0.646484,0.143555,-1.79102,-0.00227566,-0.000483234,-0.00545809,-0.0736589,-0.0352811,-1.77954,-7.49766,-5.06621,-0.0880321,-1.65302,-0.421677,-1.09297,-0.273482,-1.77954,0,0,585,136,585,136,626,119,585,198,0.388661,0.0963074,0,-1.5,0,0,0,0,-1.65302,-0.421677,0,0,0,0,-1.09297,-0.273482,3318,0,0,0,0,0,0,0,0,0,1,0.463845
8606,0.646484,0.143555,-3.3418,-0.00202619,-0.000791968,-0.00386606,-0.073675,-0.0352959,-1.77959,-7.49762,-5.06606,-0.0879564,-1.67605,-0.427437,-1.09785,-0.274583,-1.77959,0,0,585,136,585,136,626,119,585,198,0.388261,0.0981471,0,-1.5,0,0,0,0,-1.67605,-0.427437,0,0,0,0,-1.09785,-0.274583,3318,0,0,0,0,0,0,0,0,0,1,0.470181
8622,0.646484,0.143555,5.37207,-0.0010233,-0.00118066,-0.00528786,-0.0737033,-0.0353189,-1.77973,-7.49762,-5.06606,-0.0879564,-1.69365,-0.431839,-1.10154,-0.275414,-1.77959,0,0,585,136,585,136,626,119,585,198,0.387967,0.0995347,0,-1.5,0,0,0,0,-1.69365,-0.431839,0,0,0,0,-1.10154,-0.275414,3318,0,0,0,0,0,0,0,0,0,1,0.475023
8639,0.646484,0.143555,-1.81543,-0.000955473,-0.000973369,-0.00524531,-0.0737232,-0.0353301,-1.7798,-7.49762,-5.06606,-0.0879564,-1.71242,-0.436531,-1.10543,-0.276291,-1.7798,0,0,585,136,585,136,626,119,585,198,0.387597,0.101092,0,-1.5,0,0,0,0,-1.71242,-0.436531,0,0,0,0,-1.10543,-0.276291,3318,0,0,0,0,0,0,0,0,0,1,0.480184
8654,0.646484,0.143555,-6.57031,-0.00151926,3.44154e-05,-0.0050933,-0.0737391,-0.0353301,-1.77987,-7.49762,-5.06606,-0.0879564,-1.72903,-0.440683,-1.10884,-0.277059,-1.77987,0,0,585,136,585,136,626,119,585,198,0.387301,0.102423,0,-1.5,0,0,0,0,-1.72903,-0.440683,0,0,0,0,-1.10884,-0.277059,3318,0,0,0,0,0,0,0,0,0,1,0.484751
8671,0.646484,0.143555,4.51465,-0.00112252,-0.00161628,-0.00560123,-0.0737515,-0.0353467,-1.77994,-7.48965,-5.05957,-0.0806693,-1.74793,-0.445402,-1.11267,-0.277921,-1.77994,0,0,585,136,585,136,626,118,585,197,0.386967,0.103932,0,-1.5,0,0,0,0,-1.74793,-0.445402,0,0,0,0,-1.11267,-0.277921,3318,0,0,0,0,0,0,0,0,0,1,0.489942
8687,0.646484,0.143555,4.51465,-0.00112252,-0.00161628,-0.00560123,-0.0737515,-0.0353467,-1.77994,-7.48965,-5.05957,-0.0806693,-1.76577,-0.449857,-1.11625,-0.278726,-1.77994,0,0,585,136,585,136,626,118,585,197,0.38667,0.105327,0,-1.5,0,0,0,0,-1.76577,-0.449857,0,0,0,0,-1.11625,-0.278726,3318,0,0,0,0,0,0,0,0,0,1,0.494843
8703,0.643555,0.143555,-3.18164,-0.00117565,-0.000873066,-0.00465955,-0.0737723,-0.0353718,-1.78007,-7.49332,-5.06306,-0.088092,-1.78366,-0.454325,-1.1198,-0.279526,-1.78007,0,0,585,136,585,136,624,119,587,198,0.386339,0.106772,0,-1.5,0,0,0,0,-1.78366,-0.454325,0,0,0,0,-1.1198,-0.279526,3318,0,0,0,0,0,0,0,0,0,1,0.499758
8719,0.577148,0.143555,5.70117,-0.00105892,0.00061564,-0.00394226,-0.0738134,-0.0353662,-1.78019,-7.49332,-5.06306,-0.088092,-1.80162,-0.458806,-1.12333,-0.28032,-1.78007,0,0,585,136,585,136,624,119,587,198,0.386042,0.108172,0,-1.5,0,0,0,0,-1.80162,-0.458806,0,0,0,0,-1.12333,-0.28032,3318,0,0,0,0,0,0,0,0,0,1,0.504686
8736,0.543945,0.143555,-0.21582,-0.00184989,-0.000411602,-0.00463555,-0.073841,-0.0353777,-1.78025,-7.49325,-5.06287,-0.0879484,-1.82076,-0.46358,-1.12706,-0.281154,-1.78025,0,0,585,136,585,136,624,119,587,198,0.385673,0.109731,0,-1.5,0,0,0,0,-1.82076,-0.46358,0,0,0,0,-1.12706,-0.281154,3318,0,0,0,0,0,0,0,0,0,1,0.509939
8751,0.553711,0.143555,-1.78223,-0.00141421,-0.00142535,-0.00399273,-0.0738603,-0.0353911,-1.78031,-7.49325,-5.06287,-0.0879484,-1.83769,-0.467805,-1.13032,-0.281883,-1.78031,0,0,585,136,585,136,624,119,587,198,0.385377,0.111069,0,-1.5,0,0,0,0,-1.83769,-0.467805,0,0,0,0,-1.13032,-0.281883,3318,0,0,0,0,0,0,0,0,0,1,0.514585
8769,0.586914,0.143555,-3.33887,-0.000986738,-0.000383195,-0.0047375,-0.0738651,-0.0353966,-1.78037,-7.49751,-5.06547,-0.0878272,-1.85808,-0.472889,-1.13421,-0.282752,-1.78037,0,0,585,136,585,136,626,119,585,198,0.385024,0.112672,0,-1.5,0,0,0,0,-1.85808,-0.472889,0,0,0,0,-1.13421,-0.282752,3318,0,0,0,0,0,0,0,0,0,1,0.520178
8784,0.65332,0.143555,5.33105,-0.00253009,-0.000607943,-0.00590683,-0.0739132,-0.0354184,-1.78051,-7.49751,-5.06547,-0.0878272,-1.87513,-0.477137,-1.13743,-0.28347,-1.78037,0,0,585,136,585,136,626,119,585,198,0.384744,0.11399,0,-1.5,0,0,0,0,-1.87513,-0.477137,0,0,0,0,-1.13743,-0.28347,3318,0,0,0,0,0,0,0,0,0,1,0.524851
8802,0.665039,0.143555,-1.83691,-0.00252669,-0.000507687,-0.00512893,-0.073947,-0.0354284,-1.78058,-7.49751,-5.06547,-0.0878272,-1.89451,-0.481965,-1.14105,-0.284278,-1.78051,0,0,585,136,585,136,626,119,585,198,0.384384,0.115541,0,-1.5,0,0,0,0,-1.89451,-0.481965,0,0,0,0,-1.14105,-0.284278,3318,0,0,0,0,0,0,0,0,0,1,0.530162
8817,0.665039,0.143555,-6.55273,-0.00253979,-0.000792608,-0.00455686,-0.0739641,-0.0354341,-1.78064,-7.48955,-5.05906,-0.0805074,-1.91165,-0.486236,-1.14423,-0.284984,-1.78064,0,0,585,136,585,136,626,118,585,197,0.384066,0.116911,0,-1.5,0,0,0,0,-1.91165,-0.486236,0,0,0,0,-1.14423,-0.284984,3318,0,0,0,0,0,0,0,0,0,1,0.53486
8832,0.665039,0.143555,4.5332,-0.00164468,-0.0010344,-0.00506255,-0.0739868,-0.0354438,-1.78071,-7.48955,-5.05906,-0.0805074,-1.93,-0.490804,-1.14759,-0.285731,-1.78071,0,0,585,136,585,136,626,118,585,197,0.383745,0.118349,0,-1.5,0,0,0,0,-1.93,-0.490804,0,0,0,0,-1.14759,-0.285731,3318,0,0,0,0,0,0,0,0,0,1,0.539884
8848,0.665039,0.143555,4.5332,-0.00164468,-0.0010344,-0.00506255,-0.0739868,-0.0354438,-1.78071,-7.48955,-5.05906,-0.0805074,-1.94839,-0.495384,-1.15094,-0.286472,-1.78071,0,0,585,136,585,136,626,118,585,197,0.383444,0.119762,0,-1.5,0,0,0,0,-1.94839,-0.495384,0,0,0,0,-1.15094,-0.286472,3318,0,0,0,0,0,0,0,0,0,1,0.544922
8865,0.665039,0.143555,-3.21191,-0.00198785,-0.00102814,-0.0049583,-0.0740171,-0.0354647,-1.78083,-7.48955,-5.05906,-0.0805074,-1.96684,-0.499975,-1.15426,-0.287207,-1.78083,0,0,585,136,585,136,626,118,585,197,0.383106,0.121224,0,-1.5,0,0,0,0,-1.96684,-0.499975,0,0,0,0,-1.15426,-0.287207,3318,0,0,0,0,0,0,0,0,0,1,0.549972
8880,0.665039,0.143555,-3.21191,-0.00198785,-0.00102814,-0.0049583,-0.0740171,-0.0354647,-1.78083,-7.48955,-5.05906,-0.0805074,-1.98535,-0.504578,-1.15755,-0.287937,-1.78083,0,0,585,136,585,136,626,118,585,197,0.382804,0.12264,0,-1.5,0,0,0,0,-1.98535,-0.504578,0,0,0,0,-1.15755,-0.287937,3318,0,0,0,0,0,0,0,0,0,1,0.555036
8896,0.665039,0.143555,-0.234375,-0.00239099,-0.000724408,-0.00516541,-0.0741102,-0.0354902,-1.78103,-7.48955,-5.05906,-0.0805074,-2.0039,-0.509192,-1.16083,-0.28866,-1.78096,0,0,585,136,585,136,626,118,585,197,0.382464,0.124107,0,-1.5,0,0,0,0,-2.0039,-0.509192,0,0,0,0,-1.16083,-0.28866,3318,0,0,0,0,0,0,0,0,0,1,0.560112
8912,0.665039,0.143555,-1.80371,-0.00177908,-0.00164202,-0.00592221,-0.0741343,-0.0355058,-1.7811,-7.56091,-5.10739,-0.0699672,-2.02251,-0.513819,-1.16409,-0.289377,-1.78103,0,0,585,136,585,136,626,119,585,197,0.38214,0.125553,0,-1.5,0,0,0,0,-2.02251,-0.513819,0,0,0,0,-1.16409,-0.289377,3276,0,0,0,0,0,0,0,0,0,1,0.565201
8928,0.665039,0.143555,-3.34375,-0.00225336,-0.000979132,-0.0053137,-0.0741653,-0.0355156,-1.78117,-7.56091,-5.10739,-0.0699672,-2.04117,-0.518456,-1.16732,-0.290089,-1.78117,0,0,585,136,585,136,626,119,585,197,0.381795,0.127027,0,-1.5,0,0,0,0,-2.04117,-0.518456,0,0,0,0,-1.16732,-0.290089,3276,0,0,0,0,0,0,0,0,0,1,0.570302
8944,0.665039,0.143555,-3.34375,-0.00225336,-0.000979132,-0.0053137,-0.0741653,-0.0355156,-1.78117,-7.49356,-5.05321,-0.0884155,-2.05988,-0.523105,-1.17054,-0.290795,-1.78117,0,0,585,136,585,136,624,119,585,198,0.381491,0.12845,0,-1.5,0,0,0,0,-2.05988,-0.523105,0,0,0,0,-1.17054,-0.290795,3318,0,0,0,0,0,0,0,0,0,1,0.575415
8960,0.611328,0.143555,5.37402,-0.00189109,-0.000510191,-0.00515916,-0.0741991,-0.035534,-1.78131,-7.49356,-5.05321,-0.0884155,-2.07864,-0.527765,-1.17374,-0.291495,-1.78131,0,0,585,136,585,136,624,119,585,198,0.381145,0.129927,0,-1.5,0,0,0,0,-2.07864,-0.527765,0,0,0,0,-1.17374,-0.291495,3318,0,0,0,0,0,0,0,0,0,1,0.580541
8976,0.578125,0.143555,-1.84473,-0.00161318,8.97218e-07,-0.0039873,-0.0742295,-0.03554,-1.78137,-7.42086,-5.01266,-0.0979114,-2.09627,-0.532143,-1.17671,-0.292145,-1.78137,0,0,585,136,585,136,624,118,587,198,0.38084,0.131287,0,-1.5,0,0,0,0,-2.09627,-0.532143,0,0,0,0,-1.17671,-0.292145,3360,0,0,0,0,0,0,0,0,0,1,0.585358
8992,0.513672,0.143555,4.52539,-0.000508364,-0.000601847,-0.00375002,-0.0742624,-0.0355516,-1.78149,-7.42086,-5.01266,-0.0979114,-2.11632,-0.537118,-1.18006,-0.292876,-1.78144,0,0,585,136,585,136,624,118,587,198,0.380494,0.132831,0,-1.5,0,0,0,0,-2.11632,-0.537118,0,0,0,0,-1.18006,-0.292876,3360,0,0,0,0,0,0,0,0,0,1,0.59083
9008,0.513672,0.143555,4.52539,-0.000508364,-0.000601847,-0.00375002,-0.0742624,-0.0355516,-1.78149,-7.42077,-5.01249,-0.0977167,-2.13404,-0.541518,-1.183,-0.293515,-1.78149,0,0,585,136,585,136,624,118,587,198,0.380192,0.13419,0,-1.5,0,0,0,0,-2.13404,-0.541518,0,0,0,0,-1.183,-0.293515,3360,0,0,0,0,0,0,0,0,0,1,0.595669
9023,0.527344,0.143555,-3.19434,-0.00121117,-0.000969998,-0.00471229,-0.0743121,-0.0355705,-1.78162,-7.42077,-5.01249,-0.0977167,-2.15182,-0.545926,-1.18592,-0.29415,-1.78149,0,0,585,136,585,136,624,118,587,198,0.379905,0.135531,0,-1.5,0,0,0,0,-2.15182,-0.545926,0,0,0,0,-1.18592,-0.29415,3360,0,0,0,0,0,0,0,0,0,1,0.600519
9039,0.560547,0.143555,-0.260742,-0.00214566,-0.00144395,-0.00455382,-0.0743361,-0.0355887,-1.78168,-7.42077,-5.01249,-0.0977167,-2.17201,-0.550935,-1.1892,-0.294863,-1.78168,0,0,585,136,585,136,624,118,587,198,0.379521,0.137123,0,-1.5,0,0,0,0,-2.17201,-0.550935,0,0,0,0,-1.1892,-0.294863,3360,0,0,0,0,0,0,0,0,0,1,0.606028
9055,0.59375,0.143555,5.7168,-0.0018355,-0.000978677,-0.00491978,-0.0743598,-0.0355993,-1.78175,-7.42077,-5.01249,-0.0977167,-2.19107,-0.555659,-1.19228,-0.29553,-1.78175,0,0,585,136,585,136,624,118,587,198,0.379193,0.138582,0,-1.5,0,0,0,0,-2.19107,-0.555659,0,0,0,0,-1.19228,-0.29553,3360,0,0,0,0,0,0,0,0,0,1,0.611225
9071,0.626953,0.143555,-0.219727,-0.000434082,-0.000531385,-0.00555917,-0.0743625,-0.0356058,-1.78182,-7.6405,-5.17092,-0.0653113,-2.21018,-0.560395,-1.19533,-0.296191,-1.78182,0,0,585,136,585,136,626,121,587,198,0.378862,0.140046,0,-1.5,0,0,0,0,-2.21018,-0.560395,0,0,0,0,-1.19533,-0.296191,3234,0,0,0,0,0,0,0,0,0,1,0.616434
9087,0.626953,0.143555,-0.219727,-0.000434082,-0.000531385,-0.00555917,-0.0743625,-0.0356058,-1.78182,-7.6405,-5.17092,-0.0653113,-2.22934,-0.565141,-1.19836,-0.296847,-1.78182,0,0,585,136,585,136,626,121,587,198,0.378554,0.141483,0,-1.5,0,0,0,0,-2.22934,-0.565141,0,0,0,0,-1.19836,-0.296847,3234,0,0,0,0,0,0,0,0,0,1,0.621655
