timestamp,A_x,A_y,A_z,P,Q,R,Phi,Theta,Psi,poseX,poseY,poseZ,state_X,state_Y,state_Z,state_VzB,state_Bx,state_By,state_Bz,p1_x,p1_y,p2_x,p2_y,p3_x,p3_y,p4_x,p4_y,roll,pitch,yaw,alt,targetHeading,highLevelState,lowLevelState,gateNumber,filtered_x,filtered_y,x_OT,y_OT,vx_OT,vy_OT,filtered_vx,filtered_vygateArearansac_corr_x,ransac_corr_y,ransac_corr_vx,ransac_corr_vy,detectionTimeStamppTermX,dTermX,pTermY,dTermY,vxcmd,vycmd
6108,0.0517578,0,-1.22656,7.7861e-05,0.00128288,-0.000473611,-0.0248639,0.00453681,-1.40073,0,0,0,-8.06736e-06,1.95964e-07,-0.00171326,3.93297e-05,-1.40054,0,0,0,0,0,0,0,0,0,0,0.369998,-0.238065,0,-1.5,8.30266e-38,0,0,0,-8.06736e-06,1.95964e-07,0,0,0,0,-0.00171326,3.93297e-05,1.9603e-19,0,0,0,0,0,0,0,0,0,1.5,-3.91928e-07
6127,0.165039,0,0.0751953,0.00115212,0.000434112,-0.000314469,-0.0254206,0.00417937,-1.40136,0,0,0,-0.000107208,1.7726e-06,-0.00665324,8.53297e-05,-1.40109,0,0,0,0,0,0,0,0,0,0,0.371249,-0.238081,0,-1.5,8.30266e-38,0,0,0,-0.000107208,1.7726e-06,0,0,0,0,-0.00665324,8.53297e-05,1.9603e-19,0,0,0,0,0,0,0,0,0,1.5,-3.54519e-06
6156,0.141602,0,-3.96289,-0.000744613,0.00048975,-0.00130851,-0.0258965,0.00388678,-1.40196,0,0,0,-0.000434855,3.46061e-06,-0.0136309,3.8177e-05,-1.40173,0,0,0,0,0,0,0,0,0,0,0.373011,-0.238126,0,-1.5,8.30266e-38,0,0,0,-0.000434855,3.46061e-06,0,0,0,0,-0.0136309,3.8177e-05,1.9603e-19,0,0,0,0,0,0,0,0,0,1.5,-6.92122e-06
6172,0.141602,0,-6.04883,-0.00251264,0.00011391,-0.00160467,-0.0261825,0.00365355,-1.4024,0,0,0,-0.000692725,3.28739e-06,-0.0176347,-4.93007e-05,-1.40224,0,0,0,0,0,0,0,0,0,0,0.374034,-0.238083,0,-1.5,8.30266e-38,0,0,0,-0.000692725,3.28739e-06,0,0,0,0,-0.0176347,-4.93007e-05,1.9603e-19,0,0,0,0,0,0,0,0,0,1.5,-6.57479e-06
6200,0.141602,0,3.64258,-0.00152859,0.000697901,-0.000961891,-0.0262142,0.00364304,-1.40242,0,0,0,-0.00136242,-2.88722e-06,-0.0248951,-0.000268783,-1.40242,0,0,0,0,0,0,0,0,0,0,0.375844,-0.238263,0,-1.5,8.30266e-38,0,0,0,-0.00136242,-2.88722e-06,0,0,0,0,-0.0248951,-0.000268783,1.9603e-19,0,0,0,0,0,0,0,0,0,1.5,5.77444e-06
6216,0.141602,0,-4.33203,-0.0038122,0.00142444,-0.000605216,-0.0262814,0.00365554,-1.40244,0,0,0,-0.00180118,-8.44907e-06,-0.0288597,-0.000392603,-1.40243,0,0,0,0,0,0,0,0,0,0,0.376827,-0.238393,0,-1.5,8.30266e-38,0,0,0,-0.00180118,-8.44907e-06,0,0,0,0,-0.0288597,-0.000392603,1.9603e-19,0,0,0,0,0,0,0,0,0,1.5,1.68981e-05
6238,0.141602,0,-5.17578,-0.0017606,0.00167891,-0.00156294,-0.0263045,0.00366175,-1.40245,0,0,0,-0.0025192,-1.96847e-05,-0.0342778,-0.000561431,-1.40245,0,0,0,0,0,0,0,0,0,0,0.378172,-0.238563,0,-1.5,8.30266e-38,0,0,0,-0.0025192,-1.96847e-05,0,0,0,0,-0.0342778,-0.000561431,1.9603e-19,0,0,0,0,0,0,0,0,0,1.5,3.93694e-05
6260,0.141602,0,-1.3252,-0.000501348,0.000245834,-0.000687917,-0.0263325,0.00363983,-1.40247,0,0,0,-0.00335851,-3.46698e-05,-0.0396552,-0.000728147,-1.40247,0,0,0,0,0,0,0,0,0,0,0.379507,-0.238734,0,-1.5,8.30266e-38,0,0,0,-0.00335851,-3.46698e-05,0,0,0,0,-0.0396552,-0.000728147,1.9603e-19,0,0,0,0,0,0,0,0,0,1.5,6.93397e-05
6276,0.141602,0,4.12695,0.000534597,0.000546003,-0.00202881,-0.0263084,0.00363607,-1.4025,0,0,0,-0.00403253,-4.75808e-05,-0.0435299,-0.000851706,-1.4025,0,0,0,0,0,0,0,0,0,0,0.38047,-0.238847,0,-1.5,8.30266e-38,0,0,0,-0.00403253,-4.75808e-05,0,0,0,0,-0.0435299,-0.000851706,1.9603e-19,0,0,0,0,0,0,0,0,0,1.5,9.51616e-05
6298,0.141602,0,6.3418,0.00112674,-0.00025097,-0.00040461,-0.0262573,0.00362006,-1.40251,0,0,0,-0.00507126,-6.89034e-05,-0.0488111,-0.00102019,-1.4025,0,0,0,0,0,0,0,0,0,0,0.381781,-0.239015,0,-1.5,8.30266e-38,0,0,0,-0.00507126,-6.89034e-05,0,0,0,0,-0.0488111,-0.00102019,1.9603e-19,0,0,0,0,0,0,0,0,0,1.5,0.000137807
6322,0.141602,0,3.63574,-0.00174299,0.000390767,-0.000160727,-0.0262718,0.00361695,-1.40252,0,0,0,-0.00628554,-9.53009e-05,-0.0542729,-0.0011956,-1.40252,0,0,0,0,0,0,0,0,0,0,0.383138,-0.239181,0,-1.5,8.30266e-38,0,0,0,-0.00628554,-9.53009e-05,0,0,0,0,-0.0542729,-0.0011956,1.9603e-19,0,0,0,0,0,0,0,0,0,1.5,0.000190602
6354,0.141602,0,6.55566,-0.00149821,0.000273051,-0.00073908,-0.0263287,0.0036109,-1.40255,0,0,0,-0.00828026,-0.000141367,-0.0620272,-0.00144794,-1.40254,0,0,0,0,0,0,0,0,0,0,0.385065,-0.239413,0,-1.5,8.30266e-38,0,0,0,-0.00828026,-0.000141367,0,0,0,0,-0.0620272,-0.00144794,1.9603e-19,0,0,0,0,0,0,0,0,0,1.5,0.000282733
6380,0.141602,0,-5.2959,0.0001499,6.79465e-05,-0.000774993,-0.0263318,0.00360302,-1.40255,0,0,0,-0.0100075,-0.000182798,-0.0680547,-0.00164747,-1.40255,0,0,0,0,0,0,0,0,0,0,0.386563,-0.23959,0,-1.5,8.30266e-38,0,0,0,-0.0100075,-0.000182798,0,0,0,0,-0.0680547,-0.00164747,1.9603e-19,0,0,0,0,0,0,0,0,0,1.5,0.000365596
6392,0.141602,0,0.249023,-0.00058411,0.000358414,0.000252535,-0.0263369,0.00360004,-1.40256,0,0,0,-0.0107729,-0.00020148,-0.0705799,-0.00173183,-1.40256,0,0,0,0,0,0,0,0,0,0,0.387191,-0.239665,0,-1.5,8.30266e-38,0,0,0,-0.0107729,-0.00020148,0,0,0,0,-0.0705799,-0.00173183,1.9603e-19,0,0,0,0,0,0,0,0,0,1.5,0.000402959
6412,0.141602,0,6.91211,-0.00140588,0.000704916,-0.00103963,-0.0263687,0.00360216,-1.40258,0,0,0,-0.0122485,-0.00023826,-0.0751462,-0.0018848,-1.40257,0,0,0,0,0,0,0,0,0,0,0.388327,-0.239794,0,-1.5,8.30266e-38,0,0,0,-0.0122485,-0.00023826,0,0,0,0,-0.0751462,-0.0018848,1.9603e-19,0,0,0,0,0,0,0,0,0,1.5,0.00047652
6433,0.141602,0,-7.26074,-0.00034083,0.00115211,-9.28745e-05,-0.0263814,0.00360185,-1.40259,0,0,0,-0.0138976,-0.000280224,-0.0799042,-0.00204448,-1.40259,0,0,0,0,0,0,0,0,0,0,0.389511,-0.239927,0,-1.5,8.30266e-38,0,0,0,-0.0138976,-0.000280224,0,0,0,0,-0.0799042,-0.00204448,1.9603e-19,0,0,0,0,0,0,0,0,0,1.5,0.000560448
6448,0.141602,0,-2.66211,-0.00101316,0.000428454,0.000112023,-0.0263973,0.00360248,-1.40259,0,0,0,-0.0152127,-0.000314168,-0.083498,-0.0021654,-1.40259,0,0,0,0,0,0,0,0,0,0,0.390404,-0.24003,0,-1.5,8.30266e-38,0,0,0,-0.0152127,-0.000314168,0,0,0,0,-0.083498,-0.0021654,1.9603e-19,0,0,0,0,0,0,0,0,0,1.5,0.000628337
6469,0.141602,0,-3.22559,-3.38662e-05,0.000531784,-0.00118617,-0.0263672,0.00341797,-1.40259,0,0,0,-0.0169453,-0.000359591,-0.0879583,-0.00231904,-1.40259,0,0,0,0,0,0,0,0,0,0,0.391514,-0.240158,0,-1.5,8.30266e-38,0,0,0,-0.0169453,-0.000359591,0,0,0,0,-0.0879583,-0.00231904,1.9603e-19,0,0,0,0,0,0,0,0,0,1.5,0.000719181
6489,0.141602,0,-6.90918,-0.000660623,-0.000457847,-0.000598204,-0.0263973,0.00358486,-1.40262,0,0,0,-0.0188615,-0.00041113,-0.0925915,-0.00250229,-1.40262,0,0,0,0,0,0,0,0,0,0,0.39267,-0.240267,0,-1.5,8.30266e-38,0,0,0,-0.0188615,-0.00041113,0,0,0,0,-0.0925915,-0.00250229,1.9603e-19,0,0,0,0,0,0,0,0,0,1.5,0.00082226
6505,0.141602,0,7.00781,-0.00180828,0.000202694,-0.001031,-0.0264127,0.00358701,-1.40263,0,0,0,-0.0202822,-0.000449757,-0.0958778,-0.0026152,-1.40263,0,0,0,0,0,0,0,0,0,0,0.393489,-0.240354,0,-1.5,8.30266e-38,0,0,0,-0.0202822,-0.000449757,0,0,0,0,-0.0958778,-0.0026152,1.9603e-19,0,0,0,0,0,0,0,0,0,1.5,0.000899514
6525,0.141602,0,6.64648,-0.0017163,0.000485848,-0.000969205,-0.0264363,0.00359978,-1.40265,0,0,0,-0.0223639,-0.000507018,-0.100449,-0.00277164,-1.40265,0,0,0,0,0,0,0,0,0,0,0.394628,-0.240471,0,-1.5,8.30266e-38,0,0,0,-0.0223639,-0.000507018,0,0,0,0,-0.100449,-0.00277164,1.9603e-19,0,0,0,0,0,0,0,0,0,1.5,0.00101404
6540,0.141602,0,-5.61133,1.36923e-05,-0.000234907,-0.00152625,-0.0264403,0.00358989,-1.40267,0,0,0,-0.023902,-0.000549656,-0.103688,-0.00288179,-1.40267,0,0,0,0,0,0,0,0,0,0,0.395436,-0.240551,0,-1.5,8.30266e-38,0,0,0,-0.023902,-0.000549656,0,0,0,0,-0.103688,-0.00288179,1.9603e-19,0,0,0,0,0,0,0,0,0,1.5,0.00109931
6561,0.141602,0,3.20117,-0.00110042,0.000110062,-0.00125898,-0.0264407,0.0035713,-1.4027,0,0,0,-0.0261466,-0.000612485,-0.10819,-0.00303691,-1.40268,0,0,0,0,0,0,0,0,0,0,0.396558,-0.240665,0,-1.5,8.30266e-38,0,0,0,-0.0261466,-0.000612485,0,0,0,0,-0.10819,-0.00303691,1.9603e-19,0,0,0,0,0,0,0,0,0,1.5,0.00122497
6582,0.141602,0,-3.7334,-0.00115778,0.000444931,-0.00132332,-0.0264617,0.00356831,-1.40272,0,0,0,-0.0284831,-0.000678527,-0.112649,-0.00319394,-1.40272,0,0,0,0,0,0,0,0,0,0,0.397671,-0.240767,0,-1.5,8.30266e-38,0,0,0,-0.0284831,-0.000678527,0,0,0,0,-0.112649,-0.00319394,1.9603e-19,0,0,0,0,0,0,0,0,0,1.5,0.00135705
6597,0.141602,0,5.18848,-0.000465181,0.000906661,-0.000284812,-0.0264739,0.00358119,-1.40272,0,0,0,-0.0302026,-0.000727485,-0.115809,-0.00330503,-1.40272,0,0,0,0,0,0,0,0,0,0,0.398459,-0.240846,0,-1.5,8.30266e-38,0,0,0,-0.0302026,-0.000727485,0,0,0,0,-0.115809,-0.00330503,1.9603e-19,0,0,0,0,0,0,0,0,0,1.5,0.00145497
6618,0.141602,0,0.0849609,-0.000878241,-6.23706e-06,-0.000325516,-0.0264755,0.00357149,-1.40273,0,0,0,-0.0327002,-0.00079918,-0.120204,-0.00345855,-1.40273,0,0,0,0,0,0,0,0,0,0,0.399555,-0.240955,0,-1.5,8.30266e-38,0,0,0,-0.0327002,-0.00079918,0,0,0,0,-0.120204,-0.00345855,1.9603e-19,0,0,0,0,0,0,0,0,0,1.5,0.00159836
6633,0.112305,0,1.55566,-0.0002658,0.000808831,-0.000717607,-0.0264702,0.0035731,-1.40274,0,0,0,-0.0344088,-0.000848509,-0.123107,-0.00356107,-1.40274,0,0,0,0,0,0,0,0,0,0,0.40028,-0.241021,0,-1.5,8.30266e-38,0,0,0,-0.0344088,-0.000848509,0,0,0,0,-0.123107,-0.00356107,1.9603e-19,0,0,0,0,0,0,0,0,0,1.5,0.00169702
6652,0.0791016,0,4.85449,-9.80575e-05,-0.000303216,-0.00108751,-0.0264696,0.0035683,-1.40276,0,0,0,-0.0369287,-0.000921766,-0.127226,-0.00370633,-1.40276,0,0,0,0,0,0,0,0,0,0,0.401309,-0.241113,0,-1.5,8.30266e-38,0,0,0,-0.0369287,-0.000921766,0,0,0,0,-0.127226,-0.00370633,1.9603e-19,0,0,0,0,0,0,0,0,0,1.5,0.00184353
6673,0.0527344,0,5.46777,-0.00187242,-0.000914538,-0.000890711,-0.0265007,0.00354844,-1.40278,0,0,0,-0.0396644,-0.00100187,-0.131513,-0.00385884,-1.40277,0,0,0,0,0,0,0,0,0,0,0.402379,-0.241212,0,-1.5,8.30266e-38,0,0,0,-0.0396644,-0.00100187,0,0,0,0,-0.131513,-0.00385884,1.9603e-19,0,0,0,0,0,0,0,0,0,1.5,0.00200373
6688,0.0527344,0,5.88086,-7.29808e-05,0.000302147,-0.00030855,-0.026505,0.00353993,-1.40279,0,0,0,-0.0416665,-0.00106082,-0.13455,-0.00396996,-1.40279,0,0,0,0,0,0,0,0,0,0,0.403139,-0.241274,0,-1.5,8.30266e-38,0,0,0,-0.0416665,-0.00106082,0,0,0,0,-0.13455,-0.00396996,1.9603e-19,0,0,0,0,0,0,0,0,0,1.5,0.00212165
6709,0.0527344,0,7.34082,0.000334886,-0.00017386,-0.000261593,-0.0265028,0.00352514,-1.4028,0,0,0,-0.0445551,-0.00114653,-0.138773,-0.00412684,-1.4028,0,0,0,0,0,0,0,0,0,0,0.404193,-0.241368,0,-1.5,8.30266e-38,0,0,0,-0.0445551,-0.00114653,0,0,0,0,-0.138773,-0.00412684,1.9603e-19,0,0,0,0,0,0,0,0,0,1.5,0.00229305
6722,0.0527344,0,-0.337891,0.000216106,0.00020098,1.11932e-05,-0.0264968,0.00351878,-1.4028,0,0,0,-0.0463797,-0.00120095,-0.141362,-0.00422467,-1.4028,0,0,0,0,0,0,0,0,0,0,0.404841,-0.241423,0,-1.5,8.30266e-38,0,0,0,-0.0463797,-0.00120095,0,0,0,0,-0.141362,-0.00422467,1.9603e-19,0,0,0,0,0,0,0,0,0,1.5,0.0024019
6748,0.0527344,0,-5.17285,-0.000577701,0.000450398,-0.00052877,-0.0265005,0.00353115,-1.4028,0,0,0,-0.0501529,-0.0013145,-0.146506,-0.00441909,-1.4028,0,0,0,0,0,0,0,0,0,0,0.406126,-0.241535,0,-1.5,8.30266e-38,0,0,0,-0.0501529,-0.0013145,0,0,0,0,-0.146506,-0.00441909,1.9603e-19,0,0,0,0,0,0,0,0,0,1.5,0.00262899
6769,0.0527344,0,-2.72461,-0.00327057,0.000305895,-0.000449099,-0.0265462,0.00351488,-1.40282,0,0,0,-0.0532909,-0.00140959,-0.150616,-0.0045734,-1.40282,0,0,0,0,0,0,0,0,0,0,0.407155,-0.241615,0,-1.5,8.30266e-38,0,0,0,-0.0532909,-0.00140959,0,0,0,0,-0.150616,-0.0045734,1.9603e-19,0,0,0,0,0,0,0,0,0,1.5,0.00281918
6785,0.0527344,0,1.74707,-0.000733125,-0.000389209,-0.00178493,-0.0265523,0.00350985,-1.40284,0,0,0,-0.0557324,-0.00148398,-0.153722,-0.00469227,-1.40282,0,0,0,0,0,0,0,0,0,0,0.407932,-0.241675,0,-1.5,8.30266e-38,0,0,0,-0.0557324,-0.00148398,0,0,0,0,-0.153722,-0.00469227,1.9603e-19,0,0,0,0,0,0,0,0,0,1.5,0.00296795
6806,0.0527344,0,-5.49023,0.000644086,0.000675495,-0.000548948,-0.0265463,0.00351133,-1.40284,0,0,0,-0.0590191,-0.00158478,-0.157772,-0.00484876,-1.40284,0,0,0,0,0,0,0,0,0,0,0.408946,-0.241748,0,-1.5,8.30266e-38,0,0,0,-0.0590191,-0.00158478,0,0,0,0,-0.157772,-0.00484876,1.9603e-19,0,0,0,0,0,0,0,0,0,1.5,0.00316955
6826,0.0527344,0,2.65332,-0.00144609,0.00024443,-0.000719163,-0.0265604,0.00350068,-1.40287,0,0,0,-0.0622282,-0.00168382,-0.161592,-0.00499626,-1.40286,0,0,0,0,0,0,0,0,0,0,0.409903,-0.241817,0,-1.5,8.30266e-38,0,0,0,-0.0622282,-0.00168382,0,0,0,0,-0.161592,-0.00499626,1.9603e-19,0,0,0,0,0,0,0,0,0,1.5,0.00336764
6842,0.0527344,0,2.54004,-0.00119479,0.000140871,-0.00216471,-0.0265723,0.00349741,-1.40289,0,0,0,-0.0648445,-0.00176497,-0.164624,-0.00511508,-1.40289,0,0,0,0,0,0,0,0,0,0,0.410665,-0.241861,0,-1.5,8.30266e-38,0,0,0,-0.0648445,-0.00176497,0,0,0,0,-0.164624,-0.00511508,1.9603e-19,0,0,0,0,0,0,0,0,0,1.5,0.00352994
6864,0.0527344,0,-1.94336,0.000608448,0.000257033,-0.000864028,-0.026568,0.00348349,-1.40292,0,0,0,-0.0685298,-0.00188,-0.168763,-0.00527809,-1.40289,0,0,0,0,0,0,0,0,0,0,0.411701,-0.241937,0,-1.5,8.30266e-38,0,0,0,-0.0685298,-0.00188,0,0,0,0,-0.168763,-0.00527809,1.9603e-19,0,0,0,0,0,0,0,0,0,1.5,0.00376001
6880,0.0527344,0,-1.94336,0.000608448,0.000257033,-0.000864028,-0.026568,0.00348349,-1.40292,0,0,0,-0.0712604,-0.00196566,-0.171744,-0.0053966,-1.40292,0,0,0,0,0,0,0,0,0,0,0.41245,-0.241978,0,-1.5,8.30266e-38,0,0,0,-0.0712604,-0.00196566,0,0,0,0,-0.171744,-0.0053966,1.9603e-19,0,0,0,0,0,0,0,0,0,1.5,0.00393132
6900,0.0527344,0,-5.75391,-0.00121473,0.000536107,-0.000702508,-0.0265688,0.00348708,-1.40296,0,0,0,-0.0747455,-0.0020756,-0.175441,-0.00554445,-1.40296,0,0,0,0,0,0,0,0,0,0,0.413379,-0.242027,0,-1.5,8.30266e-38,0,0,0,-0.0747455,-0.0020756,0,0,0,0,-0.175441,-0.00554445,1.9603e-19,0,0,0,0,0,0,0,0,0,1.5,0.0041512
6921,0.0527344,0,3.67383,-0.00176917,9.73896e-05,-0.00173488,-0.0266025,0.00348206,-1.40299,0,0,0,-0.0784872,-0.00219432,-0.17929,-0.00569766,-1.40296,0,0,0,0,0,0,0,0,0,0,0.414344,-0.242091,0,-1.5,8.30266e-38,0,0,0,-0.0784872,-0.00219432,0,0,0,0,-0.17929,-0.00569766,1.9603e-19,0,0,0,0,0,0,0,0,0,1.5,0.00438864
6937,0.0527344,0,5.30078,-0.000380766,-8.44262e-05,-3.20206e-06,-0.0266074,0.00347359,-1.403,0,0,0,-0.0813864,-0.0022867,-0.182198,-0.00581424,-1.403,0,0,0,0,0,0,0,0,0,0,0.415077,-0.242119,0,-1.5,8.30266e-38,0,0,0,-0.0813864,-0.0022867,0,0,0,0,-0.182198,-0.00581424,1.9603e-19,0,0,0,0,0,0,0,0,0,1.5,0.00457341
6959,0.0527344,0,5.30078,-0.000380766,-8.44262e-05,-3.20206e-06,-0.0266074,0.00347359,-1.403,0,0,0,-0.0854558,-0.0024171,-0.18617,-0.00597603,-1.403,0,0,0,0,0,0,0,0,0,0,0.416073,-0.242181,0,-1.5,8.30266e-38,0,0,0,-0.0854558,-0.0024171,0,0,0,0,-0.18617,-0.00597603,1.9603e-19,0,0,0,0,0,0,0,0,0,1.5,0.0048342
6975,0.0527344,0,5.30078,-0.000380766,-8.44262e-05,-3.20206e-06,-0.0266074,0.00347359,-1.403,0,0,0,-0.0884637,-0.00251391,-0.189031,-0.00609257,-1.403,0,0,0,0,0,0,0,0,0,0,0.416792,-0.242224,0,-1.5,8.30266e-38,0,0,0,-0.0884637,-0.00251391,0,0,0,0,-0.189031,-0.00609257,1.9603e-19,0,0,0,0,0,0,0,0,0,1.5,0.00502781
6996,0.0527344,0,5.30078,-0.000380766,-8.44262e-05,-3.20206e-06,-0.0266074,0.00347359,-1.403,0,0,0,-0.092489,-0.00264412,-0.192759,-0.00624442,-1.403,0,0,0,0,0,0,0,0,0,0,0.417728,-0.242278,0,-1.5,8.30266e-38,0,0,0,-0.092489,-0.00264412,0,0,0,0,-0.192759,-0.00624442,1.9603e-19,0,0,0,0,0,0,0,0,0,1.5,0.00528823
7018,0.0527344,0,2.88184,-0.00124349,0.000176394,-0.00120043,-0.0266512,0.003482,-1.40309,0,0,0,-0.0967891,-0.00278391,-0.19663,-0.00640158,-1.40308,0,0,0,0,0,0,0,0,0,0,0.418705,-0.242301,0,-1.5,8.30266e-38,0,0,0,-0.0967891,-0.00278391,0,0,0,0,-0.19663,-0.00640158,1.9603e-19,0,0,0,0,0,0,0,0,0,1.5,0.00556782
7034,0.0527344,0,-2.98535,-4.81875e-05,0.00100571,-0.000740848,-0.0266472,0.00347831,-1.40311,0,0,0,-0.0997638,-0.00288096,-0.199249,-0.00650755,-1.40311,0,0,0,0,0,0,0,0,0,0,0.419365,-0.242324,0,-1.5,8.30266e-38,0,0,0,-0.0997638,-0.00288096,0,0,0,0,-0.199249,-0.00650755,1.9603e-19,0,0,0,0,0,0,0,0,0,1.5,0.00576192
7055,0.0527344,0,-2.98535,-4.81875e-05,0.00100571,-0.000740848,-0.0266472,0.00347831,-1.40311,0,0,0,-0.104208,-0.00302658,-0.203062,-0.00666235,-1.40311,0,0,0,0,0,0,0,0,0,0,0.420324,-0.242373,0,-1.5,8.30266e-38,0,0,0,-0.104208,-0.00302658,0,0,0,0,-0.203062,-0.00666235,1.9603e-19,0,0,0,0,0,0,0,0,0,1.5,0.00605316
7071,0.0527344,0,-1.48633,-0.00107695,-7.24959e-05,-0.000922033,-0.0266721,0.00346205,-1.40315,0,0,0,-0.107485,-0.00313432,-0.205809,-0.00677453,-1.40313,0,0,0,0,0,0,0,0,0,0,0.421016,-0.242395,0,-1.5,8.30266e-38,0,0,0,-0.107485,-0.00313432,0,0,0,0,-0.205809,-0.00677453,1.9603e-19,0,0,0,0,0,0,0,0,0,1.5,0.00626863
7092,0.0527344,0,-1.48633,-0.00107695,-7.24959e-05,-0.000922033,-0.0266721,0.00346205,-1.40315,0,0,0,-0.11186,-0.00327879,-0.20939,-0.00692277,-1.40315,0,0,0,0,0,0,0,0,0,0,0.421918,-0.242431,0,-1.5,8.30266e-38,0,0,0,-0.11186,-0.00327879,0,0,0,0,-0.20939,-0.00692277,1.9603e-19,0,0,0,0,0,0,0,0,0,1.5,0.00655758
7115,0.0527344,0,0.294922,-0.00170539,-0.00112898,2.82697e-06,-0.0267201,0.00343868,-1.40317,0,0,0,-0.116526,-0.00343355,-0.213109,-0.00707827,-1.40317,0,0,0,0,0,0,0,0,0,0,0.422856,-0.242462,0,-1.5,8.30266e-38,0,0,0,-0.116526,-0.00343355,0,0,0,0,-0.213109,-0.00707827,1.9603e-19,0,0,0,0,0,0,0,0,0,1.5,0.00686709
7130,0.0527344,0,5.43457,-0.00111448,0.000218183,-0.00176693,-0.0267309,0.0034251,-1.40319,0,0,0,-0.119747,-0.00354078,-0.215626,-0.00718728,-1.40317,0,0,0,0,0,0,0,0,0,0,0.42349,-0.242487,0,-1.5,8.30266e-38,0,0,0,-0.119747,-0.00354078,0,0,0,0,-0.215626,-0.00718728,1.9603e-19,0,0,0,0,0,0,0,0,0,1.5,0.00708155
7150,0.0527344,0,-2.52832,-0.00123721,0.000716395,0.000426434,-0.0267406,0.00341915,-1.40319,0,0,0,-0.124327,-0.00369402,-0.219128,-0.00734226,-1.40319,0,0,0,0,0,0,0,0,0,0,0.424374,-0.242512,0,-1.5,8.30266e-38,0,0,0,-0.124327,-0.00369402,0,0,0,0,-0.219128,-0.00734226,1.9603e-19,0,0,0,0,0,0,0,0,0,1.5,0.00738804
7166,0.0527344,0,-7.26562,-5.31202e-05,-0.000263973,-0.0012792,-0.0267411,0.0034115,-1.40321,0,0,0,-0.12786,-0.0038127,-0.221771,-0.00746051,-1.40321,0,0,0,0,0,0,0,0,0,0,0.425041,-0.242526,0,-1.5,8.30266e-38,0,0,0,-0.12786,-0.0038127,0,0,0,0,-0.221771,-0.00746051,1.9603e-19,0,0,0,0,0,0,0,0,0,1.5,0.0076254
7188,0.0527344,0,2.45508,-0.000281968,-0.000516474,-0.000554277,-0.0267402,0.00338937,-1.40323,0,0,0,-0.132794,-0.00397932,-0.225379,-0.00762325,-1.40323,0,0,0,0,0,0,0,0,0,0,0.425953,-0.242546,0,-1.5,8.30266e-38,0,0,0,-0.132794,-0.00397932,0,0,0,0,-0.225379,-0.00762325,1.9603e-19,0,0,0,0,0,0,0,0,0,1.5,0.00795864
7209,0.0527344,0,-3.94434,-0.000808018,0.000416555,-0.000795264,-0.0267431,0.00338403,-1.40324,0,0,0,-0.137578,-0.00414177,-0.228788,-0.00778136,-1.40324,0,0,0,0,0,0,0,0,0,0,0.426814,-0.242564,0,-1.5,8.30266e-38,0,0,0,-0.137578,-0.00414177,0,0,0,0,-0.228788,-0.00778136,1.9603e-19,0,0,0,0,0,0,0,0,0,1.5,0.00828354
7225,0.0527344,0,2.06738,8.36639e-05,-0.000228038,-0.000448801,-0.0267541,0.00337337,-1.40326,0,0,0,-0.141265,-0.00426749,-0.231362,-0.00790131,-1.40324,0,0,0,0,0,0,0,0,0,0,0.427464,-0.24258,0,-1.5,8.30266e-38,0,0,0,-0.141265,-0.00426749,0,0,0,0,-0.231362,-0.00790131,1.9603e-19,0,0,0,0,0,0,0,0,0,1.5,0.00853499
7246,0.0527344,0,-6.08496,-0.000491973,0.00076469,-0.000442139,-0.0267581,0.00337335,-1.40327,0,0,0,-0.146174,-0.00443579,-0.234718,-0.00806006,-1.40327,0,0,0,0,0,0,0,0,0,0,0.428314,-0.242584,0,-1.5,8.30266e-38,0,0,0,-0.146174,-0.00443579,0,0,0,0,-0.234718,-0.00806006,1.9603e-19,0,0,0,0,0,0,0,0,0,1.5,0.00887158
7268,0.0527344,0,5.60742,-0.00133031,0.000359858,-0.00101821,-0.0267826,0.00336776,-1.4033,0,0,0,-0.151391,-0.00461564,-0.2382,-0.00822489,-1.40329,0,0,0,0,0,0,0,0,0,0,0.429195,-0.242593,0,-1.5,8.30266e-38,0,0,0,-0.151391,-0.00461564,0,0,0,0,-0.2382,-0.00822489,1.9603e-19,0,0,0,0,0,0,0,0,0,1.5,0.00923128
7284,0.0527344,0,5.60742,-0.00133031,0.000359858,-0.00101821,-0.0267826,0.00336776,-1.4033,0,0,0,-0.155228,-0.00474846,-0.240712,-0.00834496,-1.4033,0,0,0,0,0,0,0,0,0,0,0.429831,-0.242598,0,-1.5,8.30266e-38,0,0,0,-0.155228,-0.00474846,0,0,0,0,-0.240712,-0.00834496,1.9603e-19,0,0,0,0,0,0,0,0,0,1.5,0.00949693
7305,0.0527344,0,-4.61426,-0.000154828,-0.000310122,-0.000663786,-0.0267821,0.00335324,-1.40332,0,0,0,-0.160332,-0.00492605,-0.243985,-0.00850219,-1.40332,0,0,0,0,0,0,0,0,0,0,0.430661,-0.242597,0,-1.5,8.30266e-38,0,0,0,-0.160332,-0.00492605,0,0,0,0,-0.243985,-0.00850219,1.9603e-19,0,0,0,0,0,0,0,0,0,1.5,0.0098521
7321,0.0527344,0,-3.94238,-0.000115822,0.000682812,-0.00127822,-0.0267819,0.00334981,-1.40336,0,0,0,-0.164262,-0.00506335,-0.246455,-0.0086224,-1.40332,0,0,0,0,0,0,0,0,0,0,0.431009,-0.242556,0,-1.5,8.30266e-38,0,0,0,-0.164262,-0.00506335,0,0,0,0,-0.246455,-0.0086224,1.9603e-19,0,0,0,0,0,0,0,0,0,1.5,0.0101267
7342,0.0527344,0,6.05859,-0.000255609,0.00106394,-0.000700008,-0.0267877,0.00334726,-1.40336,0,0,0,-0.169485,-0.00524676,-0.249674,-0.00877932,-1.40336,0,0,0,0,0,0,0,0,0,0,0.431033,-0.242409,0,-1.5,8.30266e-38,0,0,0,-0.169485,-0.00524676,0,0,0,0,-0.249674,-0.00877932,1.9603e-19,0,0,0,0,0,0,0,0,0,1.5,0.0104935
7364,0.0527344,0,-4.91211,-0.00106614,0.000237006,0.000432131,-0.0267905,0.00334088,-1.40337,0,0,0,-0.175031,-0.0054425,-0.253014,-0.00894305,-1.40336,0,0,0,0,0,0,0,0,0,0,0.431056,-0.242272,0,-1.5,8.30266e-38,0,0,0,-0.175031,-0.0054425,0,0,0,0,-0.253014,-0.00894305,1.9603e-19,0,0,0,0,0,0,0,0,0,1.5,0.010885
7380,0.0527344,0,-5.37305,-0.00207579,0.00121437,-0.000263239,-0.0268126,0.00334392,-1.40337,0,0,0,-0.179104,-0.0055868,-0.255421,-0.00906203,-1.40337,0,0,0,0,0,0,0,0,0,0,0.431074,-0.242168,0,-1.5,8.30266e-38,0,0,0,-0.179104,-0.0055868,0,0,0,0,-0.255421,-0.00906203,1.9603e-19,0,0,0,0,0,0,0,0,0,1.5,0.0111736
7400,0.0527344,0,-1.66895,3.3026e-05,-0.000395346,-0.000680943,-0.0268028,0.00333598,-1.40338,0,0,0,-0.184253,-0.00577005,-0.25841,-0.00921015,-1.40338,0,0,0,0,0,0,0,0,0,0,0.431096,-0.242037,0,-1.5,8.30266e-38,0,0,0,-0.184253,-0.00577005,0,0,0,0,-0.25841,-0.00921015,1.9603e-19,0,0,0,0,0,0,0,0,0,1.5,0.0115401
7417,0.117188,0,0.0927734,-2.31937e-05,0.000479384,-0.00109927,-0.0267869,0.0033341,-1.40339,0,0,0,-0.188673,-0.005928,-0.260926,-0.00933553,-1.40338,0,0,0,0,0,0,0,0,0,0,0.431114,-0.241928,0,-1.5,8.30266e-38,0,0,0,-0.188673,-0.005928,0,0,0,0,-0.260926,-0.00933553,1.9603e-19,0,0,0,0,0,0,0,0,0,1.5,0.011856
7438,0.149414,0,-2.07422,-0.000201432,0.000539199,-0.00066366,-0.0267674,0.00332883,-1.4034,0,0,0,-0.194199,-0.00612634,-0.264009,-0.00948916,-1.4034,0,0,0,0,0,0,0,0,0,0,0.431139,-0.241783,0,-1.5,8.30266e-38,0,0,0,-0.194199,-0.00612634,0,0,0,0,-0.264009,-0.00948916,1.9603e-19,0,0,0,0,0,0,0,0,0,1.5,0.0122527
7460,0.149414,0,0.897461,-0.000937556,-0.000130673,-0.0012044,-0.0267983,0.0033186,-1.40344,0,0,0,-0.200056,-0.00633755,-0.267202,-0.00964881,-1.4034,0,0,0,0,0,0,0,0,0,0,0.431163,-0.24164,0,-1.5,8.30266e-38,0,0,0,-0.200056,-0.00633755,0,0,0,0,-0.267202,-0.00964881,1.9603e-19,0,0,0,0,0,0,0,0,0,1.5,0.0126751
7476,0.128906,0,5.3877,-0.00134393,0.000707825,-0.00104027,-0.0267994,0.00331743,-1.40345,0,0,0,-0.204355,-0.00649312,-0.269505,-0.00976508,-1.40344,0,0,0,0,0,0,0,0,0,0,0.431183,-0.24152,0,-1.5,8.30266e-38,0,0,0,-0.204355,-0.00649312,0,0,0,0,-0.269505,-0.00976508,1.9603e-19,0,0,0,0,0,0,0,0,0,1.5,0.0129862
7497,0.0957031,0,-0.84375,-0.0019588,-4.1338e-05,-0.000835694,-0.0268142,0.00331514,-1.40347,0,0,0,-0.210059,-0.00670047,-0.272509,-0.00991831,-1.40347,0,0,0,0,0,0,0,0,0,0,0.431209,-0.241368,0,-1.5,8.30266e-38,0,0,0,-0.210059,-0.00670047,0,0,0,0,-0.272509,-0.00991831,1.9603e-19,0,0,0,0,0,0,0,0,0,1.5,0.0134009
7514,0.0625,0,6.95312,-0.000407774,-0.000434459,-0.00148931,-0.0268261,0.00330611,-1.40349,0,0,0,-0.214718,-0.00687044,-0.27492,-0.0100424,-1.40349,0,0,0,0,0,0,0,0,0,0,0.431229,-0.241244,0,-1.5,8.30266e-38,0,0,0,-0.214718,-0.00687044,0,0,0,0,-0.27492,-0.0100424,1.9603e-19,0,0,0,0,0,0,0,0,0,1.5,0.0137409
7535,0.0166016,0,-5.78516,-0.000999047,0.000137002,-0.000388109,-0.0268555,0.00317383,-1.40356,0,0,0,-0.220535,-0.00708357,-0.277877,-0.0102013,-1.40356,0,0,0,0,0,0,0,0,0,0,0.431259,-0.241066,0,-1.5,8.30266e-38,0,0,0,-0.220535,-0.00708357,0,0,0,0,-0.277877,-0.0102013,1.9603e-19,0,0,0,0,0,0,0,0,0,1.5,0.0141671
7557,0.0458984,0,-5.1123,8.24464e-05,-0.000353338,-0.0011813,-0.0268132,0.0032719,-1.40351,0,0,0,-0.226695,-0.00731088,-0.280946,-0.010389,-1.40356,0,0,0,0,0,0,0,0,0,0,0.431286,-0.240908,0,-1.5,8.30266e-38,0,0,0,-0.226695,-0.00731088,0,0,0,0,-0.280946,-0.010389,1.9603e-19,0,0,0,0,0,0,0,0,0,1.5,0.0146218
7573,0.0791016,0,-0.731445,-0.000880464,-0.000442226,-0.00147773,-0.0268101,0.00326356,-1.40353,0,0,0,-0.230929,-0.0074679,-0.283018,-0.0105078,-1.40351,0,0,0,0,0,0,0,0,0,0,0.4313,-0.240824,0,-1.5,8.30266e-38,0,0,0,-0.230929,-0.0074679,0,0,0,0,-0.283018,-0.0105078,1.9603e-19,0,0,0,0,0,0,0,0,0,1.5,0.0149358
7594,0.0791016,0,-0.731445,-0.000880464,-0.000442226,-0.00147773,-0.0268101,0.00326356,-1.40353,0,0,0,-0.237202,-0.00770159,-0.28603,-0.010672,-1.40353,0,0,0,0,0,0,0,0,0,0,0.431328,-0.24066,0,-1.5,8.30266e-38,0,0,0,-0.237202,-0.00770159,0,0,0,0,-0.28603,-0.010672,1.9603e-19,0,0,0,0,0,0,0,0,0,1.5,0.0154032
7610,0.145508,0,5.65723,1.21623e-05,0.00112735,-0.000936612,-0.0267962,0.00327348,-1.40354,0,0,0,-0.2418,-0.00787355,-0.2882,-0.0107895,-1.40354,0,0,0,0,0,0,0,0,0,0,0.431348,-0.24054,0,-1.5,8.30266e-38,0,0,0,-0.2418,-0.00787355,0,0,0,0,-0.2882,-0.0107895,1.9603e-19,0,0,0,0,0,0,0,0,0,1.5,0.0157471
7632,0.135742,0,5.93359,-0.00206628,-0.000413771,0.000119411,-0.0268238,0.00324921,-1.40355,0,0,0,-0.248186,-0.00811336,-0.291159,-0.0109497,-1.40355,0,0,0,0,0,0,0,0,0,0,0.431375,-0.240381,0,-1.5,8.30266e-38,0,0,0,-0.248186,-0.00811336,0,0,0,0,-0.291159,-0.0109497,1.9603e-19,0,0,0,0,0,0,0,0,0,1.5,0.0162267
7652,0.0693359,0,1.85645,-0.00227258,-0.000611828,-0.00182274,-0.0268727,0.00323276,-1.40358,0,0,0,-0.254047,-0.00833444,-0.293829,-0.0110984,-1.40356,0,0,0,0,0,0,0,0,0,0,0.4314,-0.240231,0,-1.5,8.30266e-38,0,0,0,-0.254047,-0.00833444,0,0,0,0,-0.293829,-0.0110984,1.9603e-19,0,0,0,0,0,0,0,0,0,1.5,0.0166689
7668,0.0673828,0,-7.13086,-0.00134764,0.000212507,-0.000634552,-0.0268921,0.00322257,-1.40358,0,0,0,-0.25877,-0.00851326,-0.29595,-0.0112184,-1.40358,0,0,0,0,0,0,0,0,0,0,0.431421,-0.240104,0,-1.5,8.30266e-38,0,0,0,-0.25877,-0.00851326,0,0,0,0,-0.29595,-0.0112184,1.9603e-19,0,0,0,0,0,0,0,0,0,1.5,0.0170265
7690,0.0673828,0,-7.13086,-0.00134764,0.000212507,-0.000634552,-0.0268921,0.00322257,-1.40358,0,0,0,-0.265327,-0.00876274,-0.298852,-0.011387,-1.40358,0,0,0,0,0,0,0,0,0,0,0.431449,-0.239937,0,-1.5,8.30266e-38,0,0,0,-0.265327,-0.00876274,0,0,0,0,-0.298852,-0.011387,1.9603e-19,0,0,0,0,0,0,0,0,0,1.5,0.0175255
7706,0.0673828,0,-6.63281,-0.000719384,0.00111666,0.000491799,-0.0268993,0.00322862,-1.4036,0,0,0,-0.27013,-0.00894617,-0.300942,-0.011508,-1.4036,0,0,0,0,0,0,0,0,0,0,0.43147,-0.239812,0,-1.5,8.30266e-38,0,0,0,-0.27013,-0.00894617,0,0,0,0,-0.300942,-0.011508,1.9603e-19,0,0,0,0,0,0,0,0,0,1.5,0.0178923
7728,0.0673828,0,-2.76562,-0.000479244,-0.000987304,-0.00044646,-0.0269069,0.00320037,-1.40362,0,0,0,-0.276795,-0.00920188,-0.303795,-0.011674,-1.40362,0,0,0,0,0,0,0,0,0,0,0.4315,-0.239635,0,-1.5,8.30266e-38,0,0,0,-0.276795,-0.00920188,0,0,0,0,-0.303795,-0.011674,1.9603e-19,0,0,0,0,0,0,0,0,0,1.5,0.0184038
7750,0.0673828,0,-4.08496,-0.000944277,-0.000164634,-0.00130548,-0.026915,0.00319079,-1.40365,0,0,0,-0.283215,-0.00944944,-0.306493,-0.0118358,-1.40364,0,0,0,0,0,0,0,0,0,0,0.431529,-0.239465,0,-1.5,8.30266e-38,0,0,0,-0.283215,-0.00944944,0,0,0,0,-0.306493,-0.0118358,1.9603e-19,0,0,0,0,0,0,0,0,0,1.5,0.0188989
7765,0.0673828,0,-3.06152,-0.00105496,-0.000176976,-0.00041133,-0.0269316,0.00318311,-1.40366,0,0,0,-0.28814,-0.00964011,-0.308531,-0.011959,-1.40365,0,0,0,0,0,0,0,0,0,0,0.43155,-0.239337,0,-1.5,8.30266e-38,0,0,0,-0.28814,-0.00964011,0,0,0,0,-0.308531,-0.011959,1.9603e-19,0,0,0,0,0,0,0,0,0,1.5,0.0192802
7787,0.0673828,0,-3.06152,-0.00105496,-0.000176976,-0.00041133,-0.0269316,0.00318311,-1.40366,0,0,0,-0.29497,-0.00990583,-0.311314,-0.0121296,-1.40366,0,0,0,0,0,0,0,0,0,0,0.43158,-0.239159,0,-1.5,8.30266e-38,0,0,0,-0.29497,-0.00990583,0,0,0,0,-0.311314,-0.0121296,1.9603e-19,0,0,0,0,0,0,0,0,0,1.5,0.0198117
7803,0.0673828,0,-4.73047,-0.00141485,0.00151891,0.00108937,-0.0269273,0.00318204,-1.40367,0,0,0,-0.299972,-0.0101012,-0.313319,-0.0122525,-1.40367,0,0,0,0,0,0,0,0,0,0,0.431602,-0.239028,0,-1.5,8.30266e-38,0,0,0,-0.299972,-0.0101012,0,0,0,0,-0.313319,-0.0122525,1.9603e-19,0,0,0,0,0,0,0,0,0,1.5,0.0202023
7825,0.0673828,0,4.23438,-0.0019966,0.000891477,0.000321019,-0.026959,0.00318569,-1.40368,0,0,0,-0.306907,-0.0103733,-0.316056,-0.0124203,-1.40368,0,0,0,0,0,0,0,0,0,0,0.431632,-0.238849,0,-1.5,8.30266e-38,0,0,0,-0.306907,-0.0103733,0,0,0,0,-0.316056,-0.0124203,1.9603e-19,0,0,0,0,0,0,0,0,0,1.5,0.0207466
7846,0.0673828,0,2.75488,-0.000476886,1.44976e-05,-0.000235564,-0.0269712,0.00317971,-1.40368,0,0,0,-0.313581,-0.0106364,-0.318648,-0.0125796,-1.40368,0,0,0,0,0,0,0,0,0,0,0.431661,-0.238679,0,-1.5,8.30266e-38,0,0,0,-0.313581,-0.0106364,0,0,0,0,-0.318648,-0.0125796,1.9603e-19,0,0,0,0,0,0,0,0,0,1.5,0.0212728
7861,0.0673828,0,-1.91895,-0.0011142,0.000520558,-0.00223012,-0.0269911,0.00316825,-1.40372,0,0,0,-0.318379,-0.0108262,-0.320485,-0.0126932,-1.40368,0,0,0,0,0,0,0,0,0,0,0.431681,-0.238557,0,-1.5,8.30266e-38,0,0,0,-0.318379,-0.0108262,0,0,0,0,-0.320485,-0.0126932,1.9603e-19,0,0,0,0,0,0,0,0,0,1.5,0.0216524
7884,0.0673828,0,2.50781,0.000306412,-0.000605522,0.000233622,-0.0269901,0.00315505,-1.40372,0,0,0,-0.325796,-0.011121,-0.323284,-0.0128699,-1.40372,0,0,0,0,0,0,0,0,0,0,0.431716,-0.238352,0,-1.5,8.30266e-38,0,0,0,-0.325796,-0.011121,0,0,0,0,-0.323284,-0.0128699,1.9603e-19,0,0,0,0,0,0,0,0,0,1.5,0.022242
7899,0.0673828,0,-5.82422,-0.0014185,-0.000305248,-0.000681987,-0.0270039,0.00314371,-1.40373,0,0,0,-0.330662,-0.0113151,-0.325092,-0.0129863,-1.40373,0,0,0,0,0,0,0,0,0,0,0.431737,-0.238224,0,-1.5,8.30266e-38,0,0,0,-0.330662,-0.0113151,0,0,0,0,-0.325092,-0.0129863,1.9603e-19,0,0,0,0,0,0,0,0,0,1.5,0.0226303
7920,0.0673828,0,4.62598,-0.0015739,0.000182762,0.000467813,-0.0270151,0.00315025,-1.40374,0,0,0,-0.337197,-0.0115771,-0.327488,-0.0131415,-1.40374,0,0,0,0,0,0,0,0,0,0,0.431766,-0.238052,0,-1.5,8.30266e-38,0,0,0,-0.337197,-0.0115771,0,0,0,0,-0.327488,-0.0131415,1.9603e-19,0,0,0,0,0,0,0,0,0,1.5,0.0231541
7941,0.0673828,0,4.47363,-6.1635e-06,0.000504092,-9.08282e-06,-0.0270205,0.003149,-1.40375,0,0,0,-0.344442,-0.0118688,-0.330101,-0.01331,-1.40375,0,0,0,0,0,0,0,0,0,0,0.431798,-0.237859,0,-1.5,8.30266e-38,0,0,0,-0.344442,-0.0118688,0,0,0,0,-0.330101,-0.01331,1.9603e-19,0,0,0,0,0,0,0,0,0,1.5,0.0237375
7957,0.0673828,0,0.444336,-0.0005974,0.000351691,-0.000621352,-0.0270081,0.00313387,-1.40376,0,0,0,-0.349743,-0.012083,-0.331984,-0.0134316,-1.40375,0,0,0,0,0,0,0,0,0,0,0.431821,-0.237724,0,-1.5,8.30266e-38,0,0,0,-0.349743,-0.012083,0,0,0,0,-0.331984,-0.0134316,1.9603e-19,0,0,0,0,0,0,0,0,0,1.5,0.0241659
7979,0.0673828,0,-6.02637,0.00104747,0.000873701,-0.00191402,-0.0269856,0.00313647,-1.40379,0,0,0,-0.357087,-0.0123811,-0.33455,-0.0135999,-1.40379,0,0,0,0,0,0,0,0,0,0,0.431856,-0.237519,0,-1.5,8.30266e-38,0,0,0,-0.357087,-0.0123811,0,0,0,0,-0.33455,-0.0135999,1.9603e-19,0,0,0,0,0,0,0,0,0,1.5,0.0247622
7995,0.0673828,0,6.24609,-0.000309924,0.000915789,-0.000729786,-0.02699,0.00312825,-1.40381,0,0,0,-0.362459,-0.0125999,-0.336396,-0.0137208,-1.40381,0,0,0,0,0,0,0,0,0,0,0.43188,-0.237375,0,-1.5,8.30266e-38,0,0,0,-0.362459,-0.0125999,0,0,0,0,-0.336396,-0.0137208,1.9603e-19,0,0,0,0,0,0,0,0,0,1.5,0.0251999
8017,0.0673828,0,3.61719,-0.000845704,0.000537148,-0.00134361,-0.0269954,0.00312641,-1.40382,0,0,0,-0.369559,-0.0128905,-0.338801,-0.0138795,-1.40382,0,0,0,0,0,0,0,0,0,0,0.431911,-0.237186,0,-1.5,8.30266e-38,0,0,0,-0.369559,-0.0128905,0,0,0,0,-0.338801,-0.0138795,1.9603e-19,0,0,0,0,0,0,0,0,0,1.5,0.0257809
8038,0.0673828,0,-3.36426,-0.00220151,0.000158462,-0.000848613,-0.0270313,0.00312957,-1.40385,0,0,0,-0.377051,-0.0131983,-0.3413,-0.0140447,-1.40385,0,0,0,0,0,0,0,0,0,0,0.431946,-0.23698,0,-1.5,8.30266e-38,0,0,0,-0.377051,-0.0131983,0,0,0,0,-0.3413,-0.0140447,1.9603e-19,0,0,0,0,0,0,0,0,0,1.5,0.0263967
8054,0.0673828,0,5.50684,-0.00119819,0.00123315,-0.00124415,-0.0270513,0.00312715,-1.40387,0,0,0,-0.382531,-0.0134243,-0.343104,-0.0141639,-1.40385,0,0,0,0,0,0,0,0,0,0,0.431969,-0.23684,0,-1.5,8.30266e-38,0,0,0,-0.382531,-0.0134243,0,0,0,0,-0.343104,-0.0141639,1.9603e-19,0,0,0,0,0,0,0,0,0,1.5,0.0268486
8076,0.0673828,0,-0.929688,-0.00184605,0.000518536,-0.00100068,-0.0270695,0.00313154,-1.40388,0,0,0,-0.390117,-0.0137384,-0.345571,-0.0143275,-1.40388,0,0,0,0,0,0,0,0,0,0,0.432004,-0.236631,0,-1.5,8.30266e-38,0,0,0,-0.390117,-0.0137384,0,0,0,0,-0.345571,-0.0143275,1.9603e-19,0,0,0,0,0,0,0,0,0,1.5,0.0274768
8092,0.0673828,0,-0.929688,-0.00184605,0.000518536,-0.00100068,-0.0270695,0.00313154,-1.40388,0,0,0,-0.395664,-0.0139689,-0.34735,-0.0144452,-1.40388,0,0,0,0,0,0,0,0,0,0,0.432028,-0.236489,0,-1.5,8.30266e-38,0,0,0,-0.395664,-0.0139689,0,0,0,0,-0.34735,-0.0144452,1.9603e-19,0,0,0,0,0,0,0,0,0,1.5,0.0279377
8113,0.0673828,0,0.915039,0.000248608,-0.001064,-0.0010661,-0.0270387,0.00311725,-1.40391,0,0,0,-0.402992,-0.0142744,-0.349667,-0.0145987,-1.40391,0,0,0,0,0,0,0,0,0,0,0.432062,-0.236288,0,-1.5,8.30266e-38,0,0,0,-0.402992,-0.0142744,0,0,0,0,-0.349667,-0.0145987,1.9603e-19,0,0,0,0,0,0,0,0,0,1.5,0.0285489
8128,0.0673828,0,5.19238,3.96269e-05,0.00085452,-0.00108579,-0.0270274,0.00313053,-1.40392,0,0,0,-0.408253,-0.0144945,-0.351303,-0.0147079,-1.40392,0,0,0,0,0,0,0,0,0,0,0.432085,-0.236147,0,-1.5,8.30266e-38,0,0,0,-0.408253,-0.0144945,0,0,0,0,-0.351303,-0.0147079,1.9603e-19,0,0,0,0,0,0,0,0,0,1.5,0.0289889
8151,0.0673828,0,-6.74902,-0.000192395,-0.000224042,-0.000484913,-0.0270142,0.0031264,-1.40396,0,0,0,-0.416373,-0.0148354,-0.35379,-0.0148714,-1.40394,0,0,0,0,0,0,0,0,0,0,0.432121,-0.235931,0,-1.5,8.30266e-38,0,0,0,-0.416373,-0.0148354,0,0,0,0,-0.35379,-0.0148714,1.9603e-19,0,0,0,0,0,0,0,0,0,1.5,0.0296708
8171,0.0673828,0,4.28516,-0.000934148,0.000550273,-0.000840901,-0.0270194,0.00312405,-1.40396,0,0,0,-0.423479,-0.0151348,-0.355929,-0.0150126,-1.40396,0,0,0,0,0,0,0,0,0,0,0.432154,-0.235739,0,-1.5,8.30266e-38,0,0,0,-0.423479,-0.0151348,0,0,0,0,-0.355929,-0.0150126,1.9603e-19,0,0,0,0,0,0,0,0,0,1.5,0.0302696
8187,0.0673828,0,4.28516,-0.000934148,0.000550273,-0.000840901,-0.0270194,0.00312405,-1.40396,0,0,0,-0.429192,-0.0153762,-0.357626,-0.0151249,-1.40396,0,0,0,0,0,0,0,0,0,0,0.432178,-0.235592,0,-1.5,8.30266e-38,0,0,0,-0.429192,-0.0153762,0,0,0,0,-0.357626,-0.0151249,1.9603e-19,0,0,0,0,0,0,0,0,0,1.5,0.0307524
8209,0.0673828,0,-3.16699,0.000615647,0.000784427,-0.000934094,-0.0270321,0.00313133,-1.40399,0,0,0,-0.437095,-0.0157113,-0.359943,-0.0152778,-1.40399,0,0,0,0,0,0,0,0,0,0,0.432214,-0.235376,0,-1.5,8.30266e-38,0,0,0,-0.437095,-0.0157113,0,0,0,0,-0.359943,-0.0152778,1.9603e-19,0,0,0,0,0,0,0,0,0,1.5,0.0314226
8225,0.0673828,0,1.10742,7.81769e-05,0.000638481,-0.00170616,-0.0270311,0.00313076,-1.40401,0,0,0,-0.44251,-0.0159415,-0.361509,-0.0153805,-1.40401,0,0,0,0,0,0,0,0,0,0,0.432238,-0.235232,0,-1.5,8.30266e-38,0,0,0,-0.44251,-0.0159415,0,0,0,0,-0.361509,-0.0153805,1.9603e-19,0,0,0,0,0,0,0,0,0,1.5,0.0318829
8246,0.0673828,0,6.7334,-0.000961554,-0.000305293,-0.0006557,-0.0270521,0.00312014,-1.40403,0,0,0,-0.450498,-0.0162821,-0.36379,-0.0155307,-1.40401,0,0,0,0,0,0,0,0,0,0,0.432273,-0.235023,0,-1.5,8.30266e-38,0,0,0,-0.450498,-0.0162821,0,0,0,0,-0.36379,-0.0155307,1.9603e-19,0,0,0,0,0,0,0,0,0,1.5,0.0325643
8267,0.0673828,0,3.96777,-0.00149301,0.000545389,-0.000866827,-0.0270666,0.00312068,-1.40404,0,0,0,-0.45817,-0.0166104,-0.365949,-0.0156747,-1.40404,0,0,0,0,0,0,0,0,0,0,0.432308,-0.234816,0,-1.5,8.30266e-38,0,0,0,-0.45817,-0.0166104,0,0,0,0,-0.365949,-0.0156747,1.9603e-19,0,0,0,0,0,0,0,0,0,1.5,0.0332208
8284,0.0673828,0,6.82422,-0.000402139,0.000673234,5.33888e-06,-0.0270677,0.00312897,-1.40404,0,0,0,-0.464042,-0.0168624,-0.367581,-0.0157832,-1.40404,0,0,0,0,0,0,0,0,0,0,0.432334,-0.234662,0,-1.5,8.30266e-38,0,0,0,-0.464042,-0.0168624,0,0,0,0,-0.367581,-0.0157832,1.9603e-19,0,0,0,0,0,0,0,0,0,1.5,0.0337247
8305,0.0673828,0,1.67773,-0.000630051,0.000560937,-0.00143053,-0.027058,0.00313105,-1.40408,0,0,0,-0.472163,-0.0172118,-0.369808,-0.0159301,-1.40406,0,0,0,0,0,0,0,0,0,0,0.43237,-0.234445,0,-1.5,8.30266e-38,0,0,0,-0.472163,-0.0172118,0,0,0,0,-0.369808,-0.0159301,1.9603e-19,0,0,0,0,0,0,0,0,0,1.5,0.0344237
8321,0.0673828,0,1.67773,-0.000630051,0.000560937,-0.00143053,-0.027058,0.00313105,-1.40408,0,0,0,-0.478096,-0.0174678,-0.371412,-0.0160352,-1.40408,0,0,0,0,0,0,0,0,0,0,0.432397,-0.234286,0,-1.5,8.30266e-38,0,0,0,-0.478096,-0.0174678,0,0,0,0,-0.371412,-0.0160352,1.9603e-19,0,0,0,0,0,0,0,0,0,1.5,0.0349356
8343,0.0673828,0,-3.41895,-0.00171352,0.000280906,-0.00224743,-0.0271018,0.00311947,-1.40412,0,0,0,-0.485927,-0.0178066,-0.373502,-0.0161731,-1.4041,0,0,0,0,0,0,0,0,0,0,0.432432,-0.234074,0,-1.5,8.30266e-38,0,0,0,-0.485927,-0.0178066,0,0,0,0,-0.373502,-0.0161731,1.9603e-19,0,0,0,0,0,0,0,0,0,1.5,0.0356132
8364,0.0673828,0,-5.93164,-0.00158882,-2.26865e-05,-0.00103734,-0.0271099,0.00310802,-1.40414,0,0,0,-0.493802,-0.0181483,-0.375578,-0.0163126,-1.40414,0,0,0,0,0,0,0,0,0,0,0.432468,-0.233856,0,-1.5,8.30266e-38,0,0,0,-0.493802,-0.0181483,0,0,0,0,-0.375578,-0.0163126,1.9603e-19,0,0,0,0,0,0,0,0,0,1.5,0.0362966
8380,0.0673828,0,-5.66406,-0.000396336,-0.000394983,-0.000574305,-0.0271077,0.00309684,-1.40414,0,0,0,-0.500205,-0.0184269,-0.377245,-0.0164271,-1.40414,0,0,0,0,0,0,0,0,0,0,0.432496,-0.233688,0,-1.5,8.30266e-38,0,0,0,-0.500205,-0.0184269,0,0,0,0,-0.377245,-0.0164271,1.9603e-19,0,0,0,0,0,0,0,0,0,1.5,0.0368538
8402,0.0673828,0,4.15234,-0.00121528,-0.000971099,-0.000936011,-0.0271108,0.00307197,-1.40417,0,0,0,-0.508537,-0.0187905,-0.379384,-0.0165759,-1.40417,0,0,0,0,0,0,0,0,0,0,0.432534,-0.233461,0,-1.5,8.30266e-38,0,0,0,-0.508537,-0.0187905,0,0,0,0,-0.379384,-0.0165759,1.9603e-19,0,0,0,0,0,0,0,0,0,1.5,0.0375811
8417,0.0673828,0,-0.233398,-0.00198833,-0.000912376,-0.00114115,-0.0271188,0.00306428,-1.40418,0,0,0,-0.514242,-0.0190402,-0.38083,-0.01668,-1.40418,0,0,0,0,0,0,0,0,0,0,0.43256,-0.233309,0,-1.5,8.30266e-38,0,0,0,-0.514242,-0.0190402,0,0,0,0,-0.38083,-0.01668,1.9603e-19,0,0,0,0,0,0,0,0,0,1.5,0.0380804
8437,0.0673828,0,-0.233398,-0.00198833,-0.000912376,-0.00114115,-0.0271188,0.00306428,-1.40418,0,0,0,-0.521885,-0.0193757,-0.382745,-0.016819,-1.40418,0,0,0,0,0,0,0,0,0,0,0.432593,-0.233109,0,-1.5,8.30266e-38,0,0,0,-0.521885,-0.0193757,0,0,0,0,-0.382745,-0.016819,1.9603e-19,0,0,0,0,0,0,0,0,0,1.5,0.0387515
8459,0.0673828,0,-0.233398,-0.00198833,-0.000912376,-0.00114115,-0.0271188,0.00306428,-1.40418,0,0,0,-0.530339,-0.0197482,-0.384832,-0.0169705,-1.40418,0,0,0,0,0,0,0,0,0,0,0.432631,-0.232888,0,-1.5,8.30266e-38,0,0,0,-0.530339,-0.0197482,0,0,0,0,-0.384832,-0.0169705,1.9603e-19,0,0,0,0,0,0,0,0,0,1.5,0.0394963
8475,0.0673828,0,5.02246,-0.000309616,0.000889807,9.75925e-05,-0.0271234,0.00305741,-1.40421,0,0,0,-0.536512,-0.0200208,-0.386335,-0.01708,-1.40421,0,0,0,0,0,0,0,0,0,0,0.432659,-0.232715,0,-1.5,8.30266e-38,0,0,0,-0.536512,-0.0200208,0,0,0,0,-0.386335,-0.01708,1.9603e-19,0,0,0,0,0,0,0,0,0,1.5,0.0400417
8497,0.0673828,0,5.02246,-0.000309616,0.000889807,9.75925e-05,-0.0271234,0.00305741,-1.40421,0,0,0,-0.545043,-0.0203989,-0.388387,-0.0172304,-1.40421,0,0,0,0,0,0,0,0,0,0,0.432697,-0.232491,0,-1.5,8.30266e-38,0,0,0,-0.545043,-0.0203989,0,0,0,0,-0.388387,-0.0172304,1.9603e-19,0,0,0,0,0,0,0,0,0,1.5,0.0407978
8513,0.0673828,0,5.02246,-0.000309616,0.000889807,9.75925e-05,-0.0271234,0.00305741,-1.40421,0,0,0,-0.551272,-0.0206757,-0.389866,-0.0173387,-1.40421,0,0,0,0,0,0,0,0,0,0,0.432724,-0.232328,0,-1.5,8.30266e-38,0,0,0,-0.551272,-0.0206757,0,0,0,0,-0.389866,-0.0173387,1.9603e-19,0,0,0,0,0,0,0,0,0,1.5,0.0413514
8535,0.0673828,0,5.02246,-0.000309616,0.000889807,9.75925e-05,-0.0271234,0.00305741,-1.40421,0,0,0,-0.55988,-0.0210594,-0.391883,-0.0174866,-1.40421,0,0,0,0,0,0,0,0,0,0,0.432762,-0.232102,0,-1.5,8.30266e-38,0,0,0,-0.55988,-0.0210594,0,0,0,0,-0.391883,-0.0174866,1.9603e-19,0,0,0,0,0,0,0,0,0,1.5,0.0421188
8557,0.0673828,0,-1.71289,-0.0114018,0.00214289,-9.199e-05,-0.027105,0.0030092,-1.40429,0,0,0,-0.568138,-0.0214287,-0.393789,-0.017628,-1.40429,0,0,0,0,0,0,0,0,0,0,0.432804,-0.231849,0,-1.5,8.30266e-38,0,0,0,-0.568138,-0.0214287,0,0,0,0,-0.393789,-0.017628,1.9603e-19,0,0,0,0,0,0,0,0,0,1.5,0.0428575
8572,0.0673828,0,-2.25,-0.0164256,0.000673773,-0.000499862,-0.0273342,0.0030043,-1.4043,0,0,0,-0.574454,-0.021712,-0.395237,-0.0177426,-1.4043,0,0,0,0,0,0,0,0,0,0,0.432832,-0.231676,0,-1.5,8.30266e-38,0,0,0,-0.574454,-0.021712,0,0,0,0,-0.395237,-0.0177426,1.9603e-19,0,0,0,0,0,0,0,0,0,1.5,0.0434239
8594,0.0673828,0,1.37109,0.00283907,0.00143537,-0.000575869,-0.0275053,0.00300181,-1.40431,0,0,0,-0.583181,-0.0221049,-0.397245,-0.0179047,-1.4043,0,0,0,0,0,0,0,0,0,0,0.432872,-0.231442,0,-1.5,8.30266e-38,0,0,0,-0.583181,-0.0221049,0,0,0,0,-0.397245,-0.0179047,1.9603e-19,0,0,0,0,0,0,0,0,0,1.5,0.0442097
8610,0.0673828,0,-6.59961,0.0132613,0.000665069,0.000110816,-0.0273266,0.0029905,-1.40432,0,0,0,-0.589552,-0.0223926,-0.398714,-0.0180258,-1.40432,0,0,0,0,0,0,0,0,0,0,0.432902,-0.231264,0,-1.5,8.30266e-38,0,0,0,-0.589552,-0.0223926,0,0,0,0,-0.398714,-0.0180258,1.9603e-19,0,0,0,0,0,0,0,0,0,1.5,0.0447853
8631,0.0673828,0,-6.59961,0.0132613,0.000665069,0.000110816,-0.0273266,0.0029905,-1.40432,0,0,0,-0.597953,-0.0227735,-0.400595,-0.0181804,-1.40432,0,0,0,0,0,0,0,0,0,0,0.432939,-0.231038,0,-1.5,8.30266e-38,0,0,0,-0.597953,-0.0227735,0,0,0,0,-0.400595,-0.0181804,1.9603e-19,0,0,0,0,0,0,0,0,0,1.5,0.045547
8654,0.0673828,0,-1.71484,0.00116616,0.000313982,-0.00106917,-0.0269518,0.00297413,-1.40434,0,0,0,-0.6072,-0.0231943,-0.402621,-0.0183461,-1.40434,0,0,0,0,0,0,0,0,0,0,0.432982,-0.23078,0,-1.5,8.30266e-38,0,0,0,-0.6072,-0.0231943,0,0,0,0,-0.402621,-0.0183461,1.9603e-19,0,0,0,0,0,0,0,0,0,1.5,0.0463887
8669,0.0673828,0,6.57617,-0.00198585,0.000180033,-0.000204297,-0.0269718,0.00297283,-1.40435,0,0,0,-0.613251,-0.0234705,-0.403886,-0.0184478,-1.40435,0,0,0,0,0,0,0,0,0,0,0.43301,-0.230615,0,-1.5,8.30266e-38,0,0,0,-0.613251,-0.0234705,0,0,0,0,-0.403886,-0.0184478,1.9603e-19,0,0,0,0,0,0,0,0,0,1.5,0.046941
8689,0.0673828,0,-4.97852,-2.50956e-05,0.000502551,3.4968e-05,-0.0269699,0.0029622,-1.40437,0,0,0,-0.621352,-0.0238413,-0.405562,-0.0185829,-1.40435,0,0,0,0,0,0,0,0,0,0,0.433046,-0.230399,0,-1.5,8.30266e-38,0,0,0,-0.621352,-0.0238413,0,0,0,0,-0.405562,-0.0185829,1.9603e-19,0,0,0,0,0,0,0,0,0,1.5,0.0476827
8705,0.0673828,0,-0.136719,-0.00198223,0.00095102,-0.000643512,-0.0269935,0.00296074,-1.40438,0,0,0,-0.627855,-0.0241398,-0.406891,-0.0186908,-1.40437,0,0,0,0,0,0,0,0,0,0,0.433077,-0.230217,0,-1.5,8.30266e-38,0,0,0,-0.627855,-0.0241398,0,0,0,0,-0.406891,-0.0186908,1.9603e-19,0,0,0,0,0,0,0,0,0,1.5,0.0482796
8727,0.0673828,0,-0.136719,-0.00198223,0.00095102,-0.000643512,-0.0269935,0.00296074,-1.40438,0,0,0,-0.636835,-0.0245533,-0.408709,-0.0188402,-1.40438,0,0,0,0,0,0,0,0,0,0,0.433118,-0.229971,0,-1.5,8.30266e-38,0,0,0,-0.636835,-0.0245533,0,0,0,0,-0.408709,-0.0188402,1.9603e-19,0,0,0,0,0,0,0,0,0,1.5,0.0491066
8748,0.0673828,0,6.8584,-0.00441585,-0.000377967,-0.00204381,-0.0271624,0.0029664,-1.40442,0,0,0,-0.645444,-0.024951,-0.410436,-0.018982,-1.40442,0,0,0,0,0,0,0,0,0,0,0.433159,-0.229723,0,-1.5,8.30266e-38,0,0,0,-0.645444,-0.024951,0,0,0,0,-0.410436,-0.018982,1.9603e-19,0,0,0,0,0,0,0,0,0,1.5,0.0499021
8764,0.0673828,0,-6.61133,-0.00280597,0.000524881,-0.000562676,-0.0271899,0.00296162,-1.40443,0,0,0,-0.652024,-0.0252559,-0.411761,-0.0190922,-1.40443,0,0,0,0,0,0,0,0,0,0,0.433189,-0.229539,0,-1.5,8.30266e-38,0,0,0,-0.652024,-0.0252559,0,0,0,0,-0.411761,-0.0190922,1.9603e-19,0,0,0,0,0,0,0,0,0,1.5,0.0505118
8786,0.0673828,0,6.95703,1.42887e-06,0.000910274,-0.00102115,-0.0272008,0.00296218,-1.40445,0,0,0,-0.661111,-0.0256783,-0.413573,-0.0192437,-1.40444,0,0,0,0,0,0,0,0,0,0,0.433231,-0.22929,0,-1.5,8.30266e-38,0,0,0,-0.661111,-0.0256783,0,0,0,0,-0.413573,-0.0192437,1.9603e-19,0,0,0,0,0,0,0,0,0,1.5,0.0513565
8802,0.0673828,0,1.85059,-0.000151927,1.45293e-05,-0.000854874,-0.0271971,0.0029564,-1.40446,0,0,0,-0.667741,-0.0259873,-0.414879,-0.0193527,-1.40445,0,0,0,0,0,0,0,0,0,0,0.433262,-0.229105,0,-1.5,8.30266e-38,0,0,0,-0.667741,-0.0259873,0,0,0,0,-0.414879,-0.0193527,1.9603e-19,0,0,0,0,0,0,0,0,0,1.5,0.0519746
8823,0.0673828,0,1.85059,-0.000151927,1.45293e-05,-0.000854874,-0.0271971,0.0029564,-1.40446,0,0,0,-0.676479,-0.0263958,-0.416581,-0.0194964,-1.40446,0,0,0,0,0,0,0,0,0,0,0.433302,-0.228867,0,-1.5,8.30266e-38,0,0,0,-0.676479,-0.0263958,0,0,0,0,-0.416581,-0.0194964,1.9603e-19,0,0,0,0,0,0,0,0,0,1.5,0.0527917
8845,0.0673828,0,-6.59863,0.00059996,-0.000684659,-0.000745793,-0.0271801,0.00293743,-1.40448,0,0,0,-0.685253,-0.0268074,-0.418265,-0.0196392,-1.40448,0,0,0,0,0,0,0,0,0,0,0.433343,-0.228617,0,-1.5,8.30266e-38,0,0,0,-0.685253,-0.0268074,0,0,0,0,-0.418265,-0.0196392,1.9603e-19,0,0,0,0,0,0,0,0,0,1.5,0.0536148
8860,0.0673828,0,-6.45117,0.0025245,0.000791095,-0.000434524,-0.0271565,0.00293949,-1.4045,0,0,0,-0.691958,-0.0271228,-0.419534,-0.0197488,-1.4045,0,0,0,0,0,0,0,0,0,0,0.433375,-0.228426,0,-1.5,8.30266e-38,0,0,0,-0.691958,-0.0271228,0,0,0,0,-0.419534,-0.0197488,1.9603e-19,0,0,0,0,0,0,0,0,0,1.5,0.0542455
8876,0.0673828,0,-3.28418,0.0047913,0.000324326,-0.00169909,-0.0271043,0.00294224,-1.40452,0,0,0,-0.698684,-0.0274399,-0.420788,-0.0198562,-1.40452,0,0,0,0,0,0,0,0,0,0,0.433407,-0.228235,0,-1.5,8.30266e-38,0,0,0,-0.698684,-0.0274399,0,0,0,0,-0.420788,-0.0198562,1.9603e-19,0,0,0,0,0,0,0,0,0,1.5,0.0548798
8892,0.0673828,0,-3.28418,0.0047913,0.000324326,-0.00169909,-0.0271043,0.00294224,-1.40452,0,0,0,-0.705429,-0.0277586,-0.422027,-0.0199616,-1.40452,0,0,0,0,0,0,0,0,0,0,0.433437,-0.228052,0,-1.5,8.30266e-38,0,0,0,-0.705429,-0.0277586,0,0,0,0,-0.422027,-0.0199616,1.9603e-19,0,0,0,0,0,0,0,0,0,1.5,0.0555173
8909,0.0673828,0,-0.4375,0.000241128,0.00129078,7.64071e-05,-0.0269169,0.00294419,-1.40453,0,0,0,-0.712618,-0.0280992,-0.423323,-0.0200712,-1.40453,0,0,0,0,0,0,0,0,0,0,0.433471,-0.227853,0,-1.5,8.30266e-38,0,0,0,-0.712618,-0.0280992,0,0,0,0,-0.423323,-0.0200712,1.9603e-19,0,0,0,0,0,0,0,0,0,1.5,0.0561984
8924,0.0673828,0,0.797852,-0.00592805,-0.000504461,-0.000286974,-0.026991,0.00292991,-1.40454,0,0,0,-0.718978,-0.0284012,-0.424441,-0.0201642,-1.40453,0,0,0,0,0,0,0,0,0,0,0.4335,-0.22768,0,-1.5,8.30266e-38,0,0,0,-0.718978,-0.0284012,0,0,0,0,-0.424441,-0.0201642,1.9603e-19,0,0,0,0,0,0,0,0,0,1.5,0.0568023
8940,0.0673828,0,5.28027,-0.0068672,0.00055651,-0.000642499,-0.0270847,0.00292759,-1.40455,0,0,0,-0.725356,-0.0287045,-0.425557,-0.0202582,-1.40454,0,0,0,0,0,0,0,0,0,0,0.433529,-0.227506,0,-1.5,8.30266e-38,0,0,0,-0.725356,-0.0287045,0,0,0,0,-0.425557,-0.0202582,1.9603e-19,0,0,0,0,0,0,0,0,0,1.5,0.057409
8956,0.0673828,0,5.28027,-0.0068672,0.00055651,-0.000642499,-0.0270847,0.00292759,-1.40455,0,0,0,-0.732604,-0.0290501,-0.426834,-0.0203688,-1.40455,0,0,0,0,0,0,0,0,0,0,0.433563,-0.2273,0,-1.5,8.30266e-38,0,0,0,-0.732604,-0.0290501,0,0,0,0,-0.426834,-0.0203688,1.9603e-19,0,0,0,0,0,0,0,0,0,1.5,0.0581003
8971,0.0673828,0,4.81152,8.12686e-05,0.00127115,-0.000846423,-0.0271326,0.00294604,-1.40456,0,0,0,-0.739018,-0.0293566,-0.427955,-0.0204653,-1.40456,0,0,0,0,0,0,0,0,0,0,0.433592,-0.227123,0,-1.5,8.30266e-38,0,0,0,-0.739018,-0.0293566,0,0,0,0,-0.427955,-0.0204653,1.9603e-19,0,0,0,0,0,0,0,0,0,1.5,0.0587132
8988,0.0673828,0,4.81152,8.12686e-05,0.00127115,-0.000846423,-0.0271326,0.00294604,-1.40456,0,0,0,-0.745878,-0.0296851,-0.429148,-0.0205663,-1.40456,0,0,0,0,0,0,0,0,0,0,0.433624,-0.226937,0,-1.5,8.30266e-38,0,0,0,-0.745878,-0.0296851,0,0,0,0,-0.429148,-0.0205663,1.9603e-19,0,0,0,0,0,0,0,0,0,1.5,0.0593702
9004,0.0673828,0,6.32129,0.00218288,0.000615114,-0.000299878,-0.0270567,0.00295532,-1.40458,0,0,0,-0.753187,-0.0300359,-0.430401,-0.0206714,-1.40458,0,0,0,0,0,0,0,0,0,0,0.433658,-0.226728,0,-1.5,8.30266e-38,0,0,0,-0.753187,-0.0300359,0,0,0,0,-0.430401,-0.0206714,1.9603e-19,0,0,0,0,0,0,0,0,0,1.5,0.0600718
9020,0.0673828,0,6.89941,-0.000556684,0.00040064,-0.000558278,-0.0270339,0.00294918,-1.40461,0,0,0,-0.759654,-0.0303468,-0.43149,-0.0207615,-1.40459,0,0,0,0,0,0,0,0,0,0,0.433688,-0.226548,0,-1.5,8.30266e-38,0,0,0,-0.759654,-0.0303468,0,0,0,0,-0.43149,-0.0207615,1.9603e-19,0,0,0,0,0,0,0,0,0,1.5,0.0606937
9036,0.0673828,0,-6.1084,0.00135144,0.000121295,-0.00123352,-0.027008,0.00294972,-1.40463,0,0,0,-0.767002,-0.0307009,-0.432715,-0.0208631,-1.40461,0,0,0,0,0,0,0,0,0,0,0.433723,-0.226341,0,-1.5,8.30266e-38,0,0,0,-0.767002,-0.0307009,0,0,0,0,-0.432715,-0.0208631,1.9603e-19,0,0,0,0,0,0,0,0,0,1.5,0.0614018
9053,0.0673828,0,-6.1084,0.00135144,0.000121295,-0.00123352,-0.027008,0.00294972,-1.40463,0,0,0,-0.774372,-0.0310567,-0.433925,-0.020963,-1.40463,0,0,0,0,0,0,0,0,0,0,0.433757,-0.226132,0,-1.5,8.30266e-38,0,0,0,-0.774372,-0.0310567,0,0,0,0,-0.433925,-0.020963,1.9603e-19,0,0,0,0,0,0,0,0,0,1.5,0.0621133
9069,0.0673828,0,-4.85645,0.00038093,9.45723e-05,-0.00106985,-0.0269336,0.00294568,-1.40466,0,0,0,-0.781326,-0.031393,-0.435052,-0.0210559,-1.40466,0,0,0,0,0,0,0,0,0,0,0.43379,-0.225932,0,-1.5,8.30266e-38,0,0,0,-0.781326,-0.031393,0,0,0,0,-0.435052,-0.0210559,1.9603e-19,0,0,0,0,0,0,0,0,0,1.5,0.0627861
9085,0.0673828,0,-7.16992,-0.0064449,0.0010739,-0.00156352,-0.0269956,0.00294809,-1.40467,0,0,0,-0.788298,-0.0317309,-0.436167,-0.0211477,-1.40467,0,0,0,0,0,0,0,0,0,0,0.433823,-0.225736,0,-1.5,8.30266e-38,0,0,0,-0.788298,-0.0317309,0,0,0,0,-0.436167,-0.0211477,1.9603e-19,0,0,0,0,0,0,0,0,0,1.5,0.0634617
9101,0.0732422,0,-7.27637,-0.0132419,0.00112297,1.3128e-05,-0.0271673,0.00295623,-1.40468,0,0,0,-0.795288,-0.0320702,-0.437291,-0.0212408,-1.40468,0,0,0,0,0,0,0,0,0,0,0.433855,-0.225544,0,-1.5,8.30266e-38,0,0,0,-0.795288,-0.0320702,0,0,0,0,-0.437291,-0.0212408,1.9603e-19,0,0,0,0,0,0,0,0,0,1.5,0.0641403
9118,0.139648,0,0.591797,-0.010222,0.000382593,-0.000872034,-0.0275106,0.00294567,-1.40469,0,0,0,-0.802736,-0.0324324,-0.438506,-0.0213435,-1.40468,0,0,0,0,0,0,0,0,0,0,0.433889,-0.225338,0,-1.5,8.30266e-38,0,0,0,-0.802736,-0.0324324,0,0,0,0,-0.438506,-0.0213435,1.9603e-19,0,0,0,0,0,0,0,0,0,1.5,0.0648647
9133,0.172852,0,-7.29395,0.00120085,0.000822879,-0.00185547,-0.0275051,0.00294441,-1.40471,0,0,0,-0.809324,-0.0327534,-0.439608,-0.021441,-1.40469,0,0,0,0,0,0,0,0,0,0,0.43392,-0.225151,0,-1.5,8.30266e-38,0,0,0,-0.809324,-0.0327534,0,0,0,0,-0.439608,-0.021441,1.9603e-19,0,0,0,0,0,0,0,0,0,1.5,0.0655069
9148,0.140625,0,4.00293,0.0113208,0.000826338,-0.000420332,-0.0273506,0.00295022,-1.40472,0,0,0,-0.815928,-0.033076,-0.440699,-0.0215372,-1.40472,0,0,0,0,0,0,0,0,0,0,0.433952,-0.224956,0,-1.5,8.30266e-38,0,0,0,-0.815928,-0.033076,0,0,0,0,-0.440699,-0.0215372,1.9603e-19,0,0,0,0,0,0,0,0,0,1.5,0.066152
9164,0.351562,0,6.19922,0.1687,-0.0098942,-0.0108876,-0.0260625,0.00284886,-1.40483,0,0,0,-0.822991,-0.0334216,-0.441783,-0.0216303,-1.40483,0,0,0,0,0,0,0,0,0,0,0.43399,-0.224716,0,-1.5,8.30266e-38,0,0,0,-0.822991,-0.0334216,0,0,0,0,-0.441783,-0.0216303,1.9603e-19,0,0,0,0,0,0,0,0,0,1.5,0.0668431
9181,0.947266,0,-7.06543,0.712985,0.00286547,0.0254287,-0.0166576,0.00291301,-1.40453,0,0,0,-0.830509,-0.0337897,-0.442131,-0.0216035,-1.40453,0,0,0,0,0,0,0,0,0,0,0.434005,-0.224671,0,-1.5,8.30266e-38,0,0,0,-0.830509,-0.0337897,0,0,0,0,-0.442131,-0.0216035,1.9603e-19,0,0,0,0,0,0,0,0,0,1.5,0.0675794
9197,-0.417969,-0.00488281,4.35156,0.412954,-0.0600842,0.0518704,-0.0098616,0.00231083,-1.40386,0,0,0,-0.837575,-0.0341334,-0.441137,-0.0213943,-1.40386,0,0,0,0,0,0,0,0,0,0,0.433991,-0.224841,0,-1.5,8.30266e-38,0,0,0,-0.837575,-0.0341334,0,0,0,0,-0.441137,-0.0213943,1.9603e-19,0,0,0,0,0,0,0,0,0,1.5,0.0682668
9213,-0.12793,-0.797852,4.1416,0.00239664,-0.0526957,0.0150009,-0.00625677,0.000604566,-1.40187,0,0,0,-0.844617,-0.0344733,-0.439364,-0.0211794,-1.40259,0,0,0,0,0,0,0,0,0,0,0.433946,-0.225277,0,-1.5,8.30266e-38,0,0,0,-0.844617,-0.0344733,0,0,0,0,-0.439364,-0.0211794,1.9603e-19,0,0,0,0,0,0,0,0,0,1.5,0.0689466
9229,-0.0507812,-0.477539,6.62207,-0.129161,0.0217851,-0.173497,-0.00791905,0.000863507,-1.40401,0,0,0,-0.851625,-0.0348109,-0.437235,-0.021069,-1.40187,0,0,0,0,0,0,0,0,0,0,0.433933,-0.225451,0,-1.5,8.30266e-38,0,0,0,-0.851625,-0.0348109,0,0,0,0,-0.437235,-0.021069,1.9603e-19,0,0,0,0,0,0,0,0,0,1.5,0.0696217
9245,0,-0.0390625,-3.34668,-0.177537,0.0463248,-0.207008,-0.0103622,0.00120736,-1.40688,0,0,0,-0.858601,-0.0351471,-0.435389,-0.020991,-1.40688,0,0,0,0,0,0,0,0,0,0,0.434207,-0.223132,0,-1.5,8.30266e-38,0,0,0,-0.858601,-0.0351471,0,0,0,0,-0.435389,-0.020991,1.9603e-19,0,0,0,0,0,0,0,0,0,1.5,0.0702943
9261,0,0.467773,3.34668,-0.126074,0.0129726,-0.143377,-0.0122183,0.00125176,-1.40905,0,0,0,-0.865552,-0.0354823,-0.433965,-0.0209276,-1.40905,0,0,0,0,0,0,0,0,0,0,0.434336,-0.222039,0,-1.5,8.30266e-38,0,0,0,-0.865552,-0.0354823,0,0,0,0,-0.433965,-0.0209276,1.9603e-19,0,0,0,0,0,0,0,0,0,1.5,0.0709645
9278,0.212891,0.59375,-1.01758,-0.0409468,0.0169028,-0.17874,-0.0132618,0.00135743,-1.41126,0,0,0,-0.872915,-0.0358376,-0.432755,-0.0208917,-1.41126,0,0,0,0,0,0,0,0,0,0,0.434467,-0.220913,0,-1.5,8.30266e-38,0,0,0,-0.872915,-0.0358376,0,0,0,0,-0.432755,-0.0208917,1.9603e-19,0,0,0,0,0,0,0,0,0,1.5,0.0716752
9294,0.212891,0.59375,-1.01758,-0.0409468,0.0169028,-0.17874,-0.0132618,0.00135743,-1.41126,0,0,0,-0.879828,-0.0361716,-0.431731,-0.0208617,-1.41126,0,0,0,0,0,0,0,0,0,0,0.434493,-0.220756,0,-1.5,8.30266e-38,0,0,0,-0.879828,-0.0361716,0,0,0,0,-0.431731,-0.0208617,1.9603e-19,0,0,0,0,0,0,0,0,0,1.5,0.0723431
9310,0.0986328,-0.460938,-0.669922,-0.765401,0.0263051,-0.567506,-0.0272524,0.00192051,-1.42821,0,0,0,-0.886727,-0.0365051,-0.431033,-0.0208491,-1.42087,0,0,0,0,0,0,0,0,0,0,0.434942,-0.216418,0,-1.5,8.30266e-38,0,0,0,-0.886727,-0.0365051,0,0,0,0,-0.431033,-0.0208491,1.9603e-19,0,0,0,0,0,0,0,0,0,1.5,0.0730103
9325,-0.107422,-0.118164,4.09766,-0.761747,-0.174895,-0.677056,-0.0381778,-0.000574236,-1.43759,0,0,0,-0.893194,-0.0368183,-0.431494,-0.0209328,-1.42821,0,0,0,0,0,0,0,0,0,0,0.435264,-0.213046,0,-1.5,8.30266e-38,0,0,0,-0.893194,-0.0368183,0,0,0,0,-0.431494,-0.0209328,1.9603e-19,0,0,0,0,0,0,0,0,0,1.5,0.0736367
9342,-0.0283203,0.28125,0.416016,-0.542743,-0.175831,-0.357552,-0.0463867,-0.00341797,-1.44312,0,0,0,-0.900564,-0.0371832,-0.434638,-0.0217832,-1.44312,0,0,0,0,0,0,0,0,0,0,0.435841,-0.206163,0,-1.5,8.30266e-38,0,0,0,-0.900564,-0.0371832,0,0,0,0,-0.434638,-0.0217832,1.9603e-19,0,0,0,0,0,0,0,0,0,1.5,0.0743664
9357,0.304688,0.166992,7.04297,-0.345879,-0.106354,-0.175899,-0.0514066,-0.00527713,-1.44582,0,0,0,-0.90712,-0.037522,-0.438591,-0.0230941,-1.44582,0,0,0,0,0,0,0,0,0,0,0.435987,-0.204492,0,-1.5,8.30266e-38,0,0,0,-0.90712,-0.037522,0,0,0,0,-0.438591,-0.0230941,1.9603e-19,0,0,0,0,0,0,0,0,0,1.5,0.075044
9373,0.535156,0.131836,1.04004,-0.269171,-0.0773568,-0.335339,-0.0553735,-0.00663988,-1.44983,0,0,0,-0.914187,-0.0379088,-0.443552,-0.0248482,-1.44983,0,0,0,0,0,0,0,0,0,0,0.43618,-0.202114,0,-1.5,8.30266e-38,0,0,0,-0.914187,-0.0379088,0,0,0,0,-0.443552,-0.0248482,1.9603e-19,0,0,0,0,0,0,0,0,0,1.5,0.0758176
9389,0.535156,0.131836,1.04004,-0.269171,-0.0773568,-0.335339,-0.0553735,-0.00663988,-1.44983,0,0,0,-0.921339,-0.0383264,-0.448851,-0.0267495,-1.44983,0,0,0,0,0,0,0,0,0,0,0.436263,-0.201435,0,-1.5,8.30266e-38,0,0,0,-0.921339,-0.0383264,0,0,0,0,-0.448851,-0.0267495,1.9603e-19,0,0,0,0,0,0,0,0,0,1.5,0.0766527
9405,0.651367,0.0683594,0.0791016,-0.181071,-0.0409322,-0.609866,-0.0612378,-0.0090255,-1.46507,0,0,0,-0.928576,-0.0387741,-0.454452,-0.0287644,-1.46507,0,0,0,0,0,0,0,0,0,0,0.4367,-0.19406,0,-1.5,8.30266e-38,0,0,0,-0.928576,-0.0387741,0,0,0,0,-0.454452,-0.0287644,1.9603e-19,0,0,0,0,0,0,0,0,0,1.5,0.0775483
9421,0.651367,0.0683594,0.0791016,-0.181071,-0.0409322,-0.609866,-0.0612378,-0.0090255,-1.46507,0,0,0,-0.935912,-0.0392576,-0.460579,-0.0309772,-1.46507,0,0,0,0,0,0,0,0,0,0,0.436784,-0.193269,0,-1.5,8.30266e-38,0,0,0,-0.935912,-0.0392576,0,0,0,0,-0.460579,-0.0309772,1.9603e-19,0,0,0,0,0,0,0,0,0,1.5,0.0785153
9437,0.651367,0.0683594,0.0791016,-0.181071,-0.0409322,-0.609866,-0.0612378,-0.0090255,-1.46507,0,0,0,-0.943345,-0.0397764,-0.466662,-0.0331741,-1.46507,0,0,0,0,0,0,0,0,0,0,0.43687,-0.192465,0,-1.5,8.30266e-38,0,0,0,-0.943345,-0.0397764,0,0,0,0,-0.466662,-0.0331741,1.9603e-19,0,0,0,0,0,0,0,0,0,1.5,0.0795527
9453,0.651367,0.0683594,0.0791016,-0.181071,-0.0409322,-0.609866,-0.0612378,-0.0090255,-1.46507,0,0,0,-0.950873,-0.0403294,-0.472701,-0.0353549,-1.46507,0,0,0,0,0,0,0,0,0,0,0.436956,-0.191648,0,-1.5,8.30266e-38,0,0,0,-0.950873,-0.0403294,0,0,0,0,-0.472701,-0.0353549,1.9603e-19,0,0,0,0,0,0,0,0,0,1.5,0.0806588
9469,0.651367,0.0683594,0.0791016,-0.181071,-0.0409322,-0.609866,-0.0612378,-0.0090255,-1.46507,0,0,0,-0.958497,-0.0409172,-0.478696,-0.0375201,-1.46507,0,0,0,0,0,0,0,0,0,0,0.437044,-0.190818,0,-1.5,8.30266e-38,0,0,0,-0.958497,-0.0409172,0,0,0,0,-0.478696,-0.0375201,1.9603e-19,0,0,0,0,0,0,0,0,0,1.5,0.0818343
9485,1.17188,0.482422,0.80957,0.269362,-0.541195,-0.711448,-0.0556316,-0.0279023,-1.51103,0,0,0,-0.966216,-0.0415431,-0.484291,-0.0405962,-1.51103,0,0,0,0,0,0,0,0,0,0,0.4374,-0.169641,0,-1.5,8.30266e-38,0,0,0,-0.966216,-0.0415431,0,0,0,0,-0.484291,-0.0405962,1.9603e-19,0,0,0,0,0,0,0,0,0,1.5,0.0830862
9501,1.32715,0.751953,3.58887,0.445939,-0.878281,-0.550556,-0.0493152,-0.039288,-1.51875,0,0,0,-0.974015,-0.0422435,-0.488861,-0.0458164,-1.51875,0,0,0,0,0,0,0,0,0,0,0.437436,-0.16461,0,-1.5,8.30266e-38,0,0,0,-0.974015,-0.0422435,0,0,0,0,-0.488861,-0.0458164,1.9603e-19,0,0,0,0,0,0,0,0,0,1.5,0.0844869
9518,-0.157227,0.614258,-1.57812,0.934659,-0.626802,-0.159711,-0.030675,-0.0580224,-1.52615,0,0,0,-0.982369,-0.0430977,-0.492542,-0.0530538,-1.52387,0,0,0,0,0,0,0,0,0,0,0.437485,-0.160139,0,-1.5,8.30266e-38,0,0,0,-0.982369,-0.0430977,0,0,0,0,-0.492542,-0.0530538,1.9603e-19,0,0,0,0,0,0,0,0,0,1.5,0.0861953
9534,1.30762,1.875,-2.6582,1.31774,-1.17928,0.269335,-0.0145277,-0.0725904,-1.52341,0,0,0,-0.990271,-0.0440299,-0.494192,-0.0614997,-1.52615,0,0,0,0,0,0,0,0,0,0,0.437566,-0.156566,0,-1.5,8.30266e-38,0,0,0,-0.990271,-0.0440299,0,0,0,0,-0.494192,-0.0614997,1.9603e-19,0,0,0,0,0,0,0,0,0,1.5,0.0880599
9551,2.08691,2.83789,3.78809,1.23444,-1.10146,0.587795,0.00231067,-0.0901648,-1.51519,0,0,0,-0.998648,-0.0452076,-0.491364,-0.0740364,-1.51519,0,0,0,0,0,0,0,0,0,0,0.437943,-0.157647,0,-1.5,8.30266e-38,0,0,0,-0.998648,-0.0452076,0,0,0,0,-0.491364,-0.0740364,1.9603e-19,0,0,0,0,0,0,0,0,0,1.5,0.0904152
9566,2.3916,2.12402,-3.22168,1.02761,-0.226798,0.669979,0.0157593,-0.095478,-1.50589,0,0,0,-1.00549,-0.0463499,-0.486696,-0.0860763,-1.50589,0,0,0,0,0,0,0,0,0,0,0.438312,-0.158145,0,-1.5,8.30266e-38,0,0,0,-1.00549,-0.0463499,0,0,0,0,-0.486696,-0.0860763,1.9603e-19,0,0,0,0,0,0,0,0,0,1.5,0.0926998
9581,2.85742,1.10547,2.96777,0.990247,0.171043,0.732212,0.0275717,-0.093536,-1.49598,0,0,0,-1.0132,-0.0478753,-0.479019,-0.100059,-1.49598,0,0,0,0,0,0,0,0,0,0,0.43877,-0.158244,0,-1.5,8.30266e-38,0,0,0,-1.0132,-0.0478753,0,0,0,0,-0.479019,-0.100059,1.9603e-19,0,0,0,0,0,0,0,0,0,1.5,0.0957506
9597,2.93652,0.711914,5.56055,0.981806,0.381883,0.737425,0.0397788,-0.0890114,-1.4853,0,0,0,-1.02077,-0.0496177,-0.469413,-0.113296,-1.4853,0,0,0,0,0,0,0,0,0,0,0.439275,-0.158765,0,-1.5,8.30266e-38,0,0,0,-1.02077,-0.0496177,0,0,0,0,-0.469413,-0.113296,1.9603e-19,0,0,0,0,0,0,0,0,0,1.5,0.0992353
9613,3.06934,0.666016,0.973633,1.10507,0.79857,0.699513,0.0651597,-0.071454,-1.46545,0,0,0,-1.02816,-0.0515603,-0.457911,-0.12532,-1.47543,0,0,0,0,0,0,0,0,0,0,0.439787,-0.159142,0,-1.5,8.30266e-38,0,0,0,-1.02816,-0.0515603,0,0,0,0,-0.457911,-0.12532,1.9603e-19,0,0,0,0,0,0,0,0,0,1.5,0.103121
9630,3.13574,0.975586,3.32324,1.23887,0.942482,0.817497,0.0806199,-0.0594221,-1.45341,0,0,0,-1.03535,-0.0536769,-0.444288,-0.135428,-1.46545,0,0,0,0,0,0,0,0,0,0,0.440295,-0.159966,0,-1.5,8.30266e-38,0,0,0,-1.03535,-0.0536769,0,0,0,0,-0.444288,-0.135428,1.9603e-19,0,0,0,0,0,0,0,0,0,1.5,0.107354
9646,3.49512,0.917969,-3.62793,1.35411,1.0947,1.04069,0.0972413,-0.0463061,-1.43858,0,0,0,-1.04271,-0.0560582,-0.426088,-0.142338,-1.43858,0,0,0,0,0,0,0,0,0,0,0.44091,-0.168907,0,-1.5,8.30266e-38,0,0,0,-1.04271,-0.0560582,0,0,0,0,-0.426088,-0.142338,1.9603e-19,0,0,0,0,0,0,0,0,0,1.5,0.112116
9662,3.88672,0.72168,-3.23633,1.29864,1.24352,1.23249,0.114135,-0.0310274,-1.41989,0,0,0,-1.04933,-0.0583746,-0.406209,-0.145554,-1.41989,0,0,0,0,0,0,0,0,0,0,0.441231,-0.17521,0,-1.5,8.30266e-38,0,0,0,-1.04933,-0.0583746,0,0,0,0,-0.406209,-0.145554,1.9603e-19,0,0,0,0,0,0,0,0,0,1.5,0.116749
