timestamp,A_x,A_y,A_z,P,Q,R,Phi,Theta,Psi,poseX,poseY,poseZ,state_X,state_Y,state_Z,state_VzB,state_Bx,state_By,state_Bz,p1_x,p1_y,p2_x,p2_y,p3_x,p3_y,p4_x,p4_y,roll,pitch,yaw,alt,targetHeading,highLevelState,lowLevelState,gateNumber,filtered_x,filtered_y,x_OT,y_OT,vx_OT,vy_OT,filtered_vx,filtered_vygateArearansac_corr_x,ransac_corr_y,ransac_corr_vx,ransac_corr_vy,detectionTimeStamppTermX,dTermX,pTermY,dTermY,vxcmd,vycmd
6038,0.201172,0,-1.95215,0.00853918,0.0129915,0.00110507,0.0430877,0.100798,2.68885,0,0,0,2.29194e-05,-2.66249e-05,0.00486682,-0.00565067,2.68826,0,0,0,0,0,0,0,0,0,0,-0.192381,0.217189,0.00469354,-1.5,0,0,0,1,2.29194e-05,-2.66249e-05,0,0,0,0,0.00486682,-0.00565067,1.9603e-19,0,0,0,0,0,0,0,0,0,2.51,5.32498e-05
6055,0.152344,0,6.25098,0.00837155,0.0136989,0.00137035,0.0433132,0.102203,2.69034,0,0,0,0.00023319,-0.000270151,0.0167978,-0.0194236,2.68977,0,0,0,0,0,0,0,0,0,0,-0.194997,0.215923,0.0202979,-1.5,0,0,0,2,0.00023319,-0.000270151,0,0,0,0,0.0167978,-0.0194236,1.9603e-19,0,0,0,0,0,0,0,0,0,2.51,0.000540301
6070,0.152344,0,3.1543,0.00692549,0.0122767,0.00129034,0.0433575,0.103271,2.69172,0,0,0,0.000584998,-0.000675816,0.0274318,-0.0315799,2.69113,0,0,0,0,0,0,0,0,0,0,-0.197382,0.214778,0.0327048,-1.5,0,0,0,3,0.000584998,-0.000675816,0,0,0,0,0.0274318,-0.0315799,1.9603e-19,0,0,0,0,0,0,0,0,0,2.51,0.00135163
6093,0.152344,0,4.86035,0.00728174,0.0125469,0.00184687,0.0431861,0.103887,0.00313503,0,0,0,4.93512e-05,-8.73652e-05,-0.00234304,-0.0031962,0.00288565,0,0,0,0,0,0,0,0,0,0,-0.00041637,-0.610777,0,-1.5,0,0,0,0,4.93512e-05,-8.73652e-05,0,0,0,0,-0.00234304,-0.0031962,1.9603e-19,0,0,0,0,0,0,0,0,0,2.51,0.00017473
6109,0.152344,0,5.50781,0.00719542,0.0117042,0.00219364,0.0431819,0.103902,0.00317013,0,0,0,-0.000154415,-6.95519e-05,-0.0186416,0.0035625,0.00314783,0,0,0,0,0,0,0,0,0,0,-0.00222934,-0.610772,0,-1.5,0,0,0,0,-0.000154415,-6.95519e-05,0,0,0,0,-0.0186416,0.0035625,1.9603e-19,0,0,0,0,0,0,0,0,0,2.51,0.000139104
6124,0.152344,0,5.9043,0.00708482,0.0119246,0.00177324,0.0431757,0.103909,0.00319279,0,0,0,-0.00058082,4.47469e-05,-0.0338046,0.00984914,0.00317013,0,0,0,0,0,0,0,0,0,0,-0.00386787,-0.610766,0,-1.5,0,0,0,0,-0.00058082,4.47469e-05,0,0,0,0,-0.0338046,0.00984914,1.9603e-19,0,0,0,0,0,0,0,0,0,2.51,-8.94938e-05
6140,0.152344,0,-7.37305,0.00785451,0.0126593,0.0023875,0.0431785,0.103921,0.00322098,0,0,0,-0.00129052,0.000272298,-0.0498583,0.0165021,0.00322098,0,0,0,0,0,0,0,0,0,0,-0.00566706,-0.61076,0,-1.5,0,0,0,0,-0.00129052,0.000272298,0,0,0,0,-0.0498583,0.0165021,1.9603e-19,0,0,0,0,0,0,0,0,0,2.51,-0.000544596
6156,0.152344,0,2.02441,0.00691287,0.0127019,0.00256284,0.0431702,0.103937,0.00324689,0,0,0,-0.00225575,0.000605737,-0.0657864,0.0231015,0.00324689,0,0,0,0,0,0,0,0,0,0,-0.00749493,-0.610754,0,-1.5,0,0,0,0,-0.00225575,0.000605737,0,0,0,0,-0.0657864,0.0231015,1.9603e-19,0,0,0,0,0,0,0,0,0,2.51,-0.00121147
6172,0.152344,0,2.24316,0.00776156,0.0124405,0.0010196,0.0431759,0.10395,0.0032648,0,0,0,-0.00347453,0.0010442,-0.0815902,0.0296472,0.0032648,0,0,0,0,0,0,0,0,0,0,-0.00935839,-0.610748,0,-1.5,0,0,0,0,-0.00347453,0.0010442,0,0,0,0,-0.0815902,0.0296472,1.9603e-19,0,0,0,0,0,0,0,0,0,2.51,-0.00208839
6188,0.152344,0,6.31641,0.00649965,0.0122915,0.0015921,0.0431616,0.103957,0.0032828,0,0,0,-0.00494486,0.00158684,-0.0972697,0.0361401,0.0032828,0,0,0,0,0,0,0,0,0,0,-0.0112608,-0.610742,0,-1.5,0,0,0,0,-0.00494486,0.00158684,0,0,0,0,-0.0972697,0.0361401,1.9603e-19,0,0,0,0,0,0,0,0,0,2.51,-0.00317368
6204,0.152344,0,-1.17578,0.00673556,0.012161,0.00199846,0.0431515,0.103968,0.00329988,0,0,0,-0.00665986,0.00223077,-0.112823,0.0425778,0.00329988,0,0,0,0,0,0,0,0,0,0,-0.0131996,-0.610735,0,-1.5,0,0,0,0,-0.00665986,0.00223077,0,0,0,0,-0.112823,0.0425778,1.9603e-19,0,0,0,0,0,0,0,0,0,2.51,-0.00446153
6219,0.152344,0,6.87109,0.00684941,0.0120545,0.000672574,0.0431359,0.103985,0.00333509,0,0,0,-0.00849229,0.00292739,-0.127294,0.0485649,0.00332922,0,0,0,0,0,0,0,0,0,0,-0.0150575,-0.610729,0,-1.5,0,0,0,0,-0.00849229,0.00292739,0,0,0,0,-0.127294,0.0485649,1.9603e-19,0,0,0,0,0,0,0,0,0,2.51,-0.00585479
6235,0.152344,0,6.9082,0.00699283,0.0124222,0.00168494,0.0431192,0.103999,0.00334592,0,0,0,-0.0106853,0.00376907,-0.142612,0.0549001,0.00333509,0,0,0,0,0,0,0,0,0,0,-0.0170647,-0.610722,0,-1.5,0,0,0,0,-0.0106853,0.00376907,0,0,0,0,-0.142612,0.0549001,1.9603e-19,0,0,0,0,0,0,0,0,0,2.51,-0.00753814
6259,0.152344,0,-6.07129,0.00892662,0.0126956,0.00159377,0.0431228,0.104004,0.00336454,0,0,0,-0.0145115,0.00525347,-0.165403,0.0643195,0.00336454,0,0,0,0,0,0,0,0,0,0,-0.0201745,-0.610711,0,-1.5,0,0,0,0,-0.0145115,0.00525347,0,0,0,0,-0.165403,0.0643195,1.9603e-19,0,0,0,0,0,0,0,0,0,2.51,-0.0105069
6274,0.152344,0,6.8125,0.00748359,0.0121271,0.00232055,0.0431154,0.104034,0.00341867,0,0,0,-0.0171289,0.0062746,-0.179487,0.070139,0.00338706,0,0,0,0,0,0,0,0,0,0,-0.0221498,-0.610704,0,-1.5,0,0,0,0,-0.0171289,0.0062746,0,0,0,0,-0.179487,0.070139,1.9603e-19,0,0,0,0,0,0,0,0,0,2.51,-0.0125492
6301,0.152344,0,5.84863,0.0078078,0.0123602,0.00218267,0.0431115,0.104047,0.00345908,0,0,0,-0.0224914,0.00838167,-0.204637,0.0805273,0.00343674,0,0,0,0,0,0,0,0,0,0,-0.0258221,-0.61069,0,-1.5,0,0,0,0,-0.0224914,0.00838167,0,0,0,0,-0.204637,0.0805273,1.9603e-19,0,0,0,0,0,0,0,0,0,2.51,-0.0167633
6327,0.152344,0,-0.279297,0.00654216,0.0120173,0.00257331,0.0430946,0.104057,0.00349094,0,0,0,-0.0282661,0.0106629,-0.228527,0.0903886,0.00349094,0,0,0,0,0,0,0,0,0,0,-0.0294516,-0.610676,0,-1.5,0,0,0,0,-0.0282661,0.0106629,0,0,0,0,-0.228527,0.0903886,1.9603e-19,0,0,0,0,0,0,0,0,0,2.51,-0.0213257
6340,0.152344,0,-1.13184,0.00796363,0.0118822,0.00221754,0.0430956,0.104065,0.00351302,0,0,0,-0.0313306,0.0118765,-0.240332,0.0952587,0.00351302,0,0,0,0,0,0,0,0,0,0,-0.0312856,-0.610669,0,-1.5,0,0,0,0,-0.0313306,0.0118765,0,0,0,0,-0.240332,0.0952587,1.9603e-19,0,0,0,0,0,0,0,0,0,2.51,-0.0237531
6356,0.152344,0,1.3457,0.00722375,0.0114042,0.000835061,0.0430818,0.104067,0.00352097,0,0,0,-0.0353231,0.0134614,-0.254762,0.10121,0.00352097,0,0,0,0,0,0,0,0,0,0,-0.0335694,-0.610661,0,-1.5,0,0,0,0,-0.0353231,0.0134614,0,0,0,0,-0.254762,0.10121,1.9603e-19,0,0,0,0,0,0,0,0,0,2.51,-0.0269228
6372,0.152344,0,2.89844,0.00773376,0.0121157,0.00290328,0.0430682,0.104085,0.00358421,0,0,0,-0.0395454,0.015141,-0.269078,0.107113,0.0035545,0,0,0,0,0,0,0,0,0,0,-0.0358995,-0.610652,0,-1.5,0,0,0,0,-0.0395454,0.015141,0,0,0,0,-0.269078,0.107113,1.9603e-19,0,0,0,0,0,0,0,0,0,2.51,-0.030282
6388,0.152344,0,-1.81348,0.00695861,0.0123782,0.00204705,0.0430486,0.10409,0.0036029,0,0,0,-0.044,0.0169164,-0.283285,0.112968,0.00358421,0,0,0,0,0,0,0,0,0,0,-0.0382638,-0.610642,0,-1.5,0,0,0,0,-0.044,0.0169164,0,0,0,0,-0.283285,0.112968,1.9603e-19,0,0,0,0,0,0,0,0,0,2.51,-0.0338328
6405,0.152344,0,-2.9873,0.00754361,0.0122904,0.00145625,0.0430438,0.104102,0.00361842,0,0,0,-0.0489808,0.0189047,-0.298256,0.119132,0.00361842,0,0,0,0,0,0,0,0,0,0,-0.040814,-0.610632,0,-1.5,0,0,0,0,-0.0489808,0.0189047,0,0,0,0,-0.298256,0.119132,1.9603e-19,0,0,0,0,0,0,0,0,0,2.51,-0.0378095
6420,0.152344,0,-1.30273,0.0077032,0.0126727,0.00317691,0.0430436,0.104111,0.0036646,0,0,0,-0.0535815,0.0207439,-0.311361,0.124526,0.0036646,0,0,0,0,0,0,0,0,0,0,-0.0431022,-0.610621,0,-1.5,0,0,0,0,-0.0535815,0.0207439,0,0,0,0,-0.311361,0.124526,1.9603e-19,0,0,0,0,0,0,0,0,0,2.51,-0.0414879
6437,0.152344,0,2.79395,0.0072523,0.0123748,0.0026137,0.0430331,0.104114,0.00368938,0,0,0,-0.059037,0.0229277,-0.326099,0.13059,0.00368938,0,0,0,0,0,0,0,0,0,0,-0.0457209,-0.610611,0,-1.5,0,0,0,0,-0.059037,0.0229277,0,0,0,0,-0.326099,0.13059,1.9603e-19,0,0,0,0,0,0,0,0,0,2.51,-0.0458554
6454,0.152344,0,2.79395,0.0072523,0.0123748,0.0026137,0.0430331,0.104114,0.00368938,0,0,0,-0.0647417,0.025214,-0.340712,0.136602,0.00368938,0,0,0,0,0,0,0,0,0,0,-0.0483668,-0.610601,0,-1.5,0,0,0,0,-0.0647417,0.025214,0,0,0,0,-0.340712,0.136602,1.9603e-19,0,0,0,0,0,0,0,0,0,2.51,-0.050428
6470,0.152344,0,5.63867,0.00776084,0.0114179,0.00241421,0.0430042,0.104129,0.00375321,0,0,0,-0.0703365,0.0274586,-0.354352,0.142213,0.00368938,0,0,0,0,0,0,0,0,0,0,-0.0508919,-0.610592,0,-1.5,0,0,0,0,-0.0703365,0.0274586,0,0,0,0,-0.354352,0.142213,1.9603e-19,0,0,0,0,0,0,0,0,0,2.51,-0.0549172
6486,0.152344,0,-2.38379,0.00665817,0.0123996,0.0011653,0.0429954,0.104139,0.00377549,0,0,0,-0.0761442,0.0297907,-0.367885,0.147772,0.00377549,4,0,0,0,0,0,0,0,0,0,-0.0534855,-0.610578,0,-1.5,0,0,0,0,-0.0761442,0.0297907,0,0,0,0,-0.367885,0.147772,0,0,0,0,0,6480,0,0,0,0,2.51,-0.0595815
6501,0.152344,0,7.20801,0.00652349,0.0124972,0.00140133,0.0429862,0.104144,0.00378719,0,0,0,-0.0817844,0.0320574,-0.380474,0.152943,0.00378719,4,0,0,0,0,0,0,0,0,0,-0.0559164,-0.610568,0,-1.5,0,0,0,0,-0.0817844,0.0320574,0,0,0,0,-0.380474,0.152943,0,0,0,0,0,6480,0,0,0,0,2.51,-0.0641147
6516,0.152344,0,5.49219,0.0069751,0.0126392,0.00247307,0.0429782,0.104147,0.00381631,0,0,0,-0.0876091,0.0343998,-0.392969,0.158072,0.00381631,4,0,0,0,0,0,0,0,0,0,-0.0583826,-0.610557,0,-1.5,0,0,0,0,-0.0876091,0.0343998,0,0,0,0,-0.392969,0.158072,0,0,0,0,0,6480,0,0,0,0,2.51,-0.0687996
6531,0.152344,0,3.84863,0.00700277,0.0115902,0.00201113,0.042965,0.104142,0.00384159,0,0,0,-0.0936237,0.0368201,-0.405373,0.163161,0.00384159,4,0,0,0,0,0,0,0,0,0,-0.0608761,-0.610546,0,-1.5,0,0,0,0,-0.0936237,0.0368201,0,0,0,0,-0.405373,0.163161,0,0,0,0,0,6480,0,0,0,0,2.51,-0.0736403
6547,0.152344,0,5.19141,0.00647812,0.0122324,0.00175404,0.0429388,0.104141,0.00385606,0,0,0,-0.100244,0.0394857,-0.4185,0.168544,0.00385606,4,0,0,0,0,0,0,0,0,0,-0.063561,-0.610535,0,-1.5,0,0,0,0,-0.100244,0.0394857,0,0,0,0,-0.4185,0.168544,0,0,0,0,0,6480,0,0,0,0,2.51,-0.0789713
6563,0.152344,0,-6.72266,0.00752267,0.0112799,0.000977488,0.042933,0.104138,0.0038661,0,0,0,-0.106639,0.0420623,-0.430712,0.17355,0.0038661,4,0,0,0,0,0,0,0,0,0,-0.0661049,-0.610524,0,-1.5,0,0,0,0,-0.106639,0.0420623,0,0,0,0,-0.430712,0.17355,0,0,0,0,0,6480,0,0,0,0,2.51,-0.0841246
6579,0.152344,0,-7.05566,0.00634083,0.0119716,0.00180582,0.0429131,0.104153,0.003914,-4.54083,-0.497061,0.0715788,-0.114118,0.0450766,-0.444446,0.179178,0.0038661,-0.540831,-0.497061,309,88,309,88,407,83,310,178,-0.0690192,-0.610513,0,-1.5,0,0,0,0,-0.114118,0.0450766,0,0,0,0,-0.444446,0.179178,9500,0,0,0,0,6571,0,0,0,0,2.51,-0.0901533
6595,0.152344,0,5.25488,0.00621161,0.0125587,0.00208946,0.0428898,0.104156,0.00394444,-4.54083,-0.497061,0.0715788,-0.12136,0.047997,-0.457263,0.184428,0.003914,-0.540831,-0.497061,309,88,309,88,407,83,310,178,-0.0718127,-0.610499,0,-1.5,0,0,0,0,-0.12136,0.047997,0,0,0,0,-0.457263,0.184428,9500,0,0,0,0,6571,0,0,0,0,2.51,-0.0959941
6611,0.152344,0,5.25488,0.00621161,0.0125587,0.00208946,0.0428898,0.104156,0.00394444,-4.54345,-0.488473,0.0702568,-0.128809,0.0510026,-0.469982,0.189631,0.00394444,-0.543453,-0.488473,309,88,309,88,403,82,310,178,-0.0746295,-0.610485,0,-1.5,0,0,0,0,-0.128809,0.0510026,0,0,0,0,-0.469982,0.189631,9696,0,0,0,0,6603,0,0,0,0,2.51,-0.102005
6627,0.152344,0,5.25488,0.00621161,0.0125587,0.00208946,0.0428898,0.104156,0.00394444,-4.54345,-0.488473,0.0702568,-0.136462,0.054091,-0.482599,0.194792,0.00394444,-0.543453,-0.488473,309,88,309,88,403,82,310,178,-0.077464,-0.610474,0,-1.5,0,0,0,0,-0.136462,0.054091,0,0,0,0,-0.482599,0.194792,9696,0,0,0,0,6603,0,0,0,0,2.51,-0.108182
6643,0.152344,0,-2.04297,0.00663446,0.012189,0.00194659,0.0428705,0.104189,0.00400167,-4.49613,-0.483298,0.0464958,-0.144315,0.0572615,-0.495118,0.199911,0.00400167,-0.496131,-0.483298,309,88,309,88,406,83,308,179,-0.0803539,-0.610458,0,-1.5,0,0,0,0,-0.144315,0.0572615,0,0,0,0,-0.495118,0.199911,9696,0,0,0,0,6639,0,0,0,0,2.51,-0.114523
6660,0.152344,0,-0.999023,0.00718109,0.0132418,0.00170454,0.0428573,0.104202,0.00402589,-4.49613,-0.483298,0.0464958,-0.152877,0.0607194,-0.508314,0.205301,0.00402589,-0.496131,-0.483298,309,88,309,88,406,83,308,179,-0.0834409,-0.610444,0,-1.5,0,0,0,0,-0.152877,0.0607194,0,0,0,0,-0.508314,0.205301,9696,0,0,0,0,6639,0,0,0,0,2.51,-0.121439
6685,0.152344,0,6.41992,0.00815211,0.0114991,0.00286064,0.0428436,0.104219,0.0040858,-4.49693,-0.489005,0.0467266,-0.165898,0.0659794,-0.527533,0.213145,0.00405009,-0.496934,-0.489005,309,88,309,88,407,83,309,179,0.240573,-0.611754,0,-1.5,0,0,0,0,-0.493176,-0.488912,0,0,0,0,0.341687,0.00845596,9600,-0.33684,-0.55264,0.869219,-0.204689,6676,0,0,0,0,2.51,0.977825
6698,0.152344,0,-2.90723,0.00661498,0.0122271,0.00151773,0.0428324,0.104229,0.00410418,-4.49693,-0.489005,0.0467266,-0.172834,0.0687823,-0.537422,0.217179,0.00410418,-0.496934,-0.489005,309,88,309,88,407,83,309,179,0.23947,-0.611763,0,-1.5,0,0,0,0,-0.488812,-0.48877,0,0,0,0,0.331797,0.0124896,9600,-0.33684,-0.55264,0.869219,-0.204689,6676,0,0,0,0,2.51,0.977541
6717,0.152344,0,-2.90723,0.00661498,0.0122271,0.00151773,0.0428324,0.104229,0.00410418,-4.54473,-0.499281,0.0585175,-0.183234,0.0729856,-0.551778,0.223032,0.00410418,-0.544727,-0.499281,309,90,309,90,407,83,311,179,0.237849,-0.611756,0,-1.5,0,0,0,0,-0.482697,-0.488456,0,0,0,0,0.317442,0.0183438,9600,-0.315978,-0.557553,0.869219,-0.204688,6706,0,0,0,0,2.51,0.976912
6732,0.152344,0,1.11719,0.00672382,0.0125658,0.00331552,0.0427944,0.104256,0.00416332,-4.54473,-0.499281,0.0585175,-0.191619,0.0763754,-0.563007,0.22761,0.00410418,-0.544727,-0.499281,309,90,309,90,407,83,311,179,0.236545,-0.611751,0,-1.5,0,0,0,0,-0.478044,-0.488137,0,0,0,0,0.306212,0.0229222,9600,-0.315978,-0.557553,0.869219,-0.204688,6706,0,0,0,0,2.51,0.976273
6758,0.152344,0,6.59961,0.00754931,0.0125575,0.00250158,0.0427822,0.104273,0.00420251,-4.54473,-0.499281,0.0585175,-0.206636,0.0824472,-0.582323,0.235471,0.00416332,-0.544727,-0.499281,309,90,309,90,407,83,311,179,0.234179,-0.611755,0,-1.5,0,0,0,0,-0.470461,-0.487387,0,0,0,0,0.286897,0.0307831,9600,-0.315978,-0.557553,0.869219,-0.204688,6706,0,0,0,0,2.51,0.974774
6774,0.152344,0,-3.47266,0.00727212,0.0119418,0.00215546,0.0427654,0.104279,0.00422058,-4.54473,-0.499281,0.0585175,-0.216072,0.0862634,-0.594062,0.240245,0.00420251,-0.544727,-0.499281,309,90,309,90,407,83,311,179,0.232698,-0.611758,0,-1.5,0,0,0,0,-0.46599,-0.486846,0,0,0,0,0.275158,0.0355569,9600,-0.315978,-0.557553,0.869219,-0.204688,6706,0,0,0,0,2.51,0.973691
6789,0.152344,0,0.125977,0.00726559,0.0119344,0.00130315,0.0427499,0.104283,0.00422641,-4.54473,-0.499281,0.0585175,-0.225089,0.0899101,-0.604983,0.244683,0.00422641,-0.544727,-0.499281,309,90,309,90,407,83,311,179,0.23129,-0.611758,0,-1.5,0,0,0,0,-0.461969,-0.486269,0,0,0,0,0.264237,0.0399945,9600,-0.315978,-0.557553,0.869219,-0.204688,6706,0,0,0,0,2.51,0.972538
6805,0.152344,0,6.71191,0.0055997,0.0114119,0.00228123,0.0427265,0.104285,0.00425178,-4.54473,-0.499281,0.0585175,-0.23489,0.0938744,-0.616545,0.249377,0.00425178,-0.544727,-0.499281,309,90,309,90,407,83,311,179,0.22976,-0.611757,0,-1.5,0,0,0,0,-0.457863,-0.48558,0,0,0,0,0.252675,0.044689,9600,-0.315978,-0.557553,0.869219,-0.204688,6706,0,0,0,0,2.51,0.97116
6821,0.152344,0,-0.0244141,0.00742227,0.0123738,0.00240018,0.0427242,0.104296,0.00428194,-4.54473,-0.499281,0.0585175,-0.244872,0.0979119,-0.628014,0.25403,0.00428194,-0.544727,-0.499281,309,90,309,90,407,83,311,179,0.228203,-0.611758,0,-1.5,0,0,0,0,-0.453937,-0.484817,0,0,0,0,0.241206,0.049342,9600,-0.315978,-0.557553,0.869219,-0.204688,6706,0,0,0,0,2.51,0.969635
6837,0.152344,0,-1.62012,0.0072362,0.013348,0.0016237,0.0427168,0.104311,0.00429625,-4.54473,-0.499281,0.0585175,-0.255036,0.102023,-0.639394,0.258645,0.00429625,-0.544727,-0.499281,309,90,309,90,407,83,311,179,0.226625,-0.611754,0,-1.5,0,0,0,0,-0.450194,-0.483981,0,0,0,0,0.229826,0.0539567,9600,-0.315978,-0.557553,0.869219,-0.204688,6706,0,0,0,0,2.51,0.967962
6853,0.152344,0,-1.62012,0.0072362,0.013348,0.0016237,0.0427168,0.104311,0.00429625,-4.54473,-0.499281,0.0585175,-0.265382,0.106208,-0.650684,0.263222,0.00429625,-0.544727,-0.499281,309,90,309,90,407,83,311,179,0.225025,-0.611747,0,-1.5,0,0,0,0,-0.446632,-0.483071,0,0,0,0,0.218535,0.0585338,9600,-0.315978,-0.557553,0.869219,-0.204688,6706,0,0,0,0,2.51,0.966142
6869,0.152344,0,-2.27539,0.00640882,0.0119334,0.00115464,0.0426849,0.104319,0.00436764,-4.54473,-0.499281,0.0585175,-0.275907,0.110466,-0.661885,0.267761,0.00434984,-0.544727,-0.499281,309,90,309,90,407,83,311,179,0.223376,-0.611752,0,-1.5,0,0,0,0,-0.443249,-0.482088,0,0,0,0,0.207334,0.0630729,9600,-0.315978,-0.557553,0.869219,-0.204688,6706,0,0,0,0,2.51,0.964176
6884,0.152344,0,-6.62109,0.00634337,0.0116924,0.00154332,0.0426651,0.104326,0.0043879,-4.54473,-0.499281,0.0585175,-0.285936,0.114524,-0.672306,0.27198,0.00436764,-0.544727,-0.499281,309,90,309,90,407,83,311,179,0.22182,-0.611749,0,-1.5,0,0,0,0,-0.44024,-0.481101,0,0,0,0,0.196914,0.0672923,9600,-0.315978,-0.557553,0.869219,-0.204688,6706,0,0,0,0,2.51,0.962202
6901,0.152344,0,6.02539,0.00686852,0.0110681,0.00303117,0.0426562,0.104323,0.00442316,-4.54473,-0.499281,0.0585175,-0.297499,0.119201,-0.684027,0.27672,0.00442316,-0.544727,-0.499281,309,90,309,90,407,83,311,179,0.220011,-0.611754,0,-1.5,0,0,0,0,-0.437026,-0.479903,0,0,0,0,0.185193,0.0720323,9600,-0.315978,-0.557553,0.869219,-0.204688,6706,0,0,0,0,2.51,0.959806
6918,0.152344,0,6.02539,0.00686852,0.0110681,0.00303117,0.0426562,0.104323,0.00442316,-4.54473,-0.499281,0.0585175,-0.308558,0.123675,-0.694966,0.281142,0.00442316,-0.544727,-0.499281,309,90,309,90,407,83,311,179,0.218306,-0.611746,0,-1.5,0,0,0,0,-0.434178,-0.478704,0,0,0,0,0.174254,0.0764543,9600,-0.315978,-0.557553,0.869219,-0.204688,6706,0,0,0,0,2.51,0.957408
6934,0.152344,0,-6.22363,0.00645549,0.0122065,0.000621002,0.0426379,0.104333,0.00445407,-4.54473,-0.499281,0.0585175,-0.3205,0.128506,-0.706493,0.285801,0.00445407,-0.544727,-0.499281,309,90,309,90,407,83,311,179,0.216453,-0.611745,0,-1.5,0,0,0,0,-0.431343,-0.477353,0,0,0,0,0.162726,0.0811125,9600,-0.315978,-0.557553,0.869219,-0.204688,6706,0,0,0,0,2.51,0.954706
6950,0.152344,0,-1.95117,0.00719255,0.0117369,0.00133274,0.0426345,0.104332,0.00446746,-4.54473,-0.499281,0.0585175,-0.331913,0.133123,-0.717253,0.290146,0.00446746,-0.544727,-0.499281,309,90,309,90,407,83,311,179,0.21469,-0.61174,0,-1.5,0,0,0,0,-0.428849,-0.476011,0,0,0,0,0.151967,0.0854578,9600,-0.315978,-0.557553,0.869219,-0.204688,6706,0,0,0,0,2.51,0.952022
6966,0.152344,0,4.77246,0.00728241,0.0120432,0.00192016,0.042625,0.104343,0.00451357,-4.54473,-0.499281,0.0585175,-0.343502,0.137811,-0.727929,0.294457,0.00449251,-0.544727,-0.499281,309,90,309,90,407,83,311,179,0.212895,-0.611737,0,-1.5,0,0,0,0,-0.42653,-0.474598,0,0,0,0,0.14129,0.0897684,9600,-0.315978,-0.557553,0.869219,-0.204688,6706,0,0,0,0,2.51,0.949196
6982,0.152344,0,-2.56934,0.00782736,0.013136,0.00125399,0.0426188,0.104356,0.00452414,-4.54473,-0.499281,0.0585175,-0.355257,0.142566,-0.73852,0.298731,0.00451357,-0.544727,-0.499281,309,90,309,90,407,83,311,179,0.211077,-0.611734,0,-1.5,0,0,0,0,-0.424378,-0.473118,0,0,0,0,0.1307,0.0940427,9600,-0.315978,-0.557553,0.869219,-0.204688,6706,0,0,0,0,2.51,0.946237
6998,0.152344,0,-5.19336,0.00699547,0.0116144,0.00251079,0.0426094,0.104356,0.0045508,-4.54473,-0.499281,0.0585175,-0.367183,0.14739,-0.749029,0.302969,0.0045508,-0.544727,-0.499281,309,90,309,90,407,83,311,179,0.209226,-0.611733,0,-1.5,0,0,0,0,-0.422397,-0.471569,0,0,0,0,0.12019,0.0982813,9600,-0.315978,-0.557553,0.869219,-0.204688,6706,0,0,0,0,2.51,0.943138
7017,0.152344,0,-5.19336,0.00699547,0.0116144,0.00251079,0.0426094,0.104356,0.0045508,-4.50888,-0.492928,0.0519784,-0.381578,0.153212,-0.761408,0.30796,0.0045508,-0.508879,-0.492928,310,88,310,88,407,83,309,179,0.231445,-0.611834,0,-1.5,0,0,0,0,-0.510527,-0.492002,0,0,0,0,-0.0905432,0.0502718,9600,-0.141696,-0.640318,0.670865,-0.257688,7006,0,0,0,0,2.51,0.984004
7034,0.152344,0,-0.624023,0.00712848,0.0122295,0.00371969,0.0425897,0.104376,0.00460345,-4.50888,-0.492928,0.0519784,-0.394642,0.158496,-0.77238,0.31238,0.00460345,-0.508879,-0.492928,310,88,310,88,407,83,309,179,0.229865,-0.611839,0,-1.5,0,0,0,0,-0.512187,-0.491099,0,0,0,0,-0.101515,0.0546924,9600,-0.141696,-0.640318,0.670865,-0.257688,7006,0,0,0,0,2.51,0.982197
7049,0.152344,0,0.125977,0.0085469,0.0115663,0.00161437,0.0425703,0.104376,0.00462963,-4.50888,-0.492928,0.0519784,-0.406321,0.163219,-0.781983,0.316247,0.00460345,-0.508879,-0.492928,310,88,310,88,407,83,309,179,0.22847,-0.611833,0,-1.5,0,0,0,0,-0.513803,-0.490241,0,0,0,0,-0.111119,0.0585591,9600,-0.141696,-0.640318,0.670865,-0.257688,7006,0,0,0,0,2.51,0.980481
7065,0.152344,0,-4.32617,0.00743287,0.0113898,0.00213001,0.0425609,0.104378,0.00465517,-4.50888,-0.492928,0.0519784,-0.41894,0.168322,-0.79215,0.320338,0.00462963,-0.508879,-0.492928,310,88,310,88,407,83,309,179,0.226945,-0.611832,0,-1.5,0,0,0,0,-0.515688,-0.489261,0,0,0,0,-0.121285,0.0626506,9600,-0.141696,-0.640318,0.670865,-0.257688,7006,0,0,0,0,2.51,0.978521
7082,0.152344,0,-4.32617,0.00743287,0.0113898,0.00213001,0.0425609,0.104378,0.00465517,-4.50888,-0.492928,0.0519784,-0.432528,0.173817,-0.802866,0.324647,0.00465517,-0.508879,-0.492928,310,88,310,88,407,83,309,179,0.2253,-0.61183,0,-1.5,0,0,0,0,-0.517871,-0.488147,0,0,0,0,-0.132001,0.0669589,9600,-0.141696,-0.640318,0.670865,-0.257688,7006,0,0,0,0,2.51,0.976293
7097,0.152344,0,-3.22754,0.0080421,0.011705,0.0011918,0.0425455,0.104379,0.00469478,-4.50888,-0.492928,0.0519784,-0.444662,0.178723,-0.812243,0.328415,0.00469478,-0.508879,-0.492928,310,88,310,88,407,83,309,179,0.22382,-0.611832,0,-1.5,0,0,0,0,-0.519942,-0.487106,0,0,0,0,-0.141378,0.0707276,9600,-0.141696,-0.640318,0.670865,-0.257688,7006,0,0,0,0,2.51,0.974211
7115,0.152344,0,-0.518555,0.00747159,0.0123376,0.0019035,0.0425332,0.104397,0.00470188,-4.51491,-0.485122,0.0607823,-0.459409,0.184686,-0.823404,0.332898,0.00470188,-0.514913,-0.485122,309,88,309,88,406,83,308,179,0.220555,-0.611818,0,-1.5,0,0,0,0,-0.516442,-0.484273,0,0,0,0,-0.141379,0.0781113,9696,-0.0645352,-0.666156,0.682026,-0.254787,7106,0,0,0,0,2.51,0.968546
7131,0.152344,0,2.92383,0.00666317,0.0123579,0.00223174,0.0425133,0.104418,0.0047508,-4.51491,-0.485122,0.0607823,-0.472687,0.190054,-0.833245,0.336847,0.00472798,-0.514913,-0.485122,309,88,309,88,406,83,308,179,0.21891,-0.611816,0,-1.5,0,0,0,0,-0.518808,-0.482982,0,0,0,0,-0.151219,0.0820604,9696,-0.0645352,-0.666156,0.682026,-0.254787,7106,0,0,0,0,2.51,0.965963
7151,0.152344,0,2.92383,0.00666317,0.0123579,0.00223174,0.0425133,0.104418,0.0047508,-4.53478,-0.481367,0.0655542,-0.489518,0.196857,-0.845444,0.341739,0.0047508,-0.53478,-0.481367,309,88,309,88,404,82,309,179,0.216142,-0.611808,0,-1.5,0,0,0,0,-0.530689,-0.480728,0,0,0,0,-0.178815,0.0885877,9603,-0.0545035,-0.672522,0.666629,-0.253152,7139,0,0,0,0,2.51,0.961456
7167,0.152344,0,6.23047,0.00756063,0.0129873,0.00171578,0.0424849,0.104436,0.00480484,-4.53478,-0.481367,0.0655542,-0.503144,0.202364,-0.855112,0.345612,0.00480484,-0.53478,-0.481367,309,88,309,88,404,82,309,179,0.214422,-0.611812,0,-1.5,0,0,0,0,-0.533648,-0.479271,0,0,0,0,-0.188483,0.0924602,9603,-0.0545035,-0.672522,0.666629,-0.253152,7139,0,0,0,0,2.51,0.958543
7186,0.152344,0,-6.78125,0.00730205,0.0124937,0.00148306,0.0424734,0.104456,0.00483984,-4.52029,-0.488232,0.0540253,-0.51954,0.208991,-0.866502,0.35017,0.00480484,-0.520288,-0.488232,309,88,309,88,406,84,309,179,0.213595,-0.611808,0,-1.5,0,0,0,0,-0.530738,-0.478678,0,0,0,0,-0.18772,0.0945804,9500,-0.0240947,-0.682812,0.678782,-0.255589,7174,0,0,0,0,2.51,0.957356
7202,0.152344,0,-2.55078,0.00606692,0.0115183,0.00244996,0.0424504,0.10446,0.00486987,-4.52029,-0.488232,0.0540253,-0.533504,0.214633,-0.876007,0.353971,0.00483984,-0.520288,-0.488232,309,88,309,88,406,84,309,179,0.211852,-0.611807,0,-1.5,0,0,0,0,-0.533842,-0.477124,0,0,0,0,-0.197224,0.098382,9500,-0.0240947,-0.682812,0.678782,-0.255589,7174,0,0,0,0,2.51,0.954249
7222,0.152344,0,6.30957,0.00617143,0.012259,0.00158407,0.0424342,0.104471,0.00488364,-4.54671,-0.482521,0.0673296,-0.551184,0.221777,-0.887791,0.358676,0.00488364,-0.546709,-0.482521,309,88,309,88,404,83,309,179,0.211159,-0.611813,0,-1.5,0,0,0,0,-0.541484,-0.476441,0,0,0,0,-0.214075,0.0997127,9504,-0.00377446,-0.693039,0.673716,-0.258963,7210,0,0,0,0,2.51,0.952883
7238,0.152344,0,0.943359,0.00574907,0.0125026,0.00266912,0.0424217,0.104477,0.00491772,-4.54671,-0.482521,0.0673296,-0.565484,0.227554,-0.897129,0.3624,0.00491772,-0.546709,-0.482521,309,88,309,88,404,83,309,179,0.209396,-0.611811,0,-1.5,0,0,0,0,-0.545005,-0.474808,0,0,0,0,-0.223413,0.103437,9504,-0.00377446,-0.693039,0.673716,-0.258963,7210,0,0,0,0,2.51,0.949616
7257,0.152344,0,-0.430664,0.00756327,0.0117228,0.00214501,0.0424074,0.104488,0.00495986,-4.53459,-0.481238,0.0659206,-0.582674,0.234497,-0.90813,0.366785,0.00491772,-0.534594,-0.481238,309,88,309,88,404,82,309,179,0.211213,-0.61182,0,-1.5,0,0,0,0,-0.544265,-0.477423,0,0,0,0,-0.227886,0.101399,9603,0.0254845,-0.706877,0.680244,-0.265386,7245,0,0,0,0,2.51,0.954846
7277,0.152344,0,-0.430664,0.00756327,0.0117228,0.00214501,0.0424074,0.104488,0.00495986,-4.50919,-0.498263,0.0526194,-0.600982,0.24189,-0.919595,0.37135,0.00495986,-0.50919,-0.498263,309,88,309,88,407,83,311,179,0.209492,-0.611821,0,-1.5,0,0,0,0,-0.546595,-0.475649,0,0,0,0,-0.234303,0.104665,9696,0.0495896,-0.715673,0.685292,-0.266685,7272,0,0,0,0,2.51,0.951298
7292,0.152344,0,-0.430664,0.00756327,0.0117228,0.00214501,0.0424074,0.104488,0.00495986,-4.50919,-0.498263,0.0526194,-0.614858,0.247493,-0.928116,0.374743,0.00495986,-0.50919,-0.498263,309,88,309,88,407,83,311,179,0.207842,-0.611813,0,-1.5,0,0,0,0,-0.550192,-0.474046,0,0,0,0,-0.242824,0.108058,9696,0.0495896,-0.715673,0.685292,-0.266685,7272,0,0,0,0,2.51,0.948093
7311,0.152344,0,1.23145,0.00592302,0.0115454,0.00231431,0.0423626,0.104494,0.00503216,-4.54658,-0.48242,0.0675944,-0.632622,0.254665,-0.938821,0.379,0.00503216,-0.546578,-0.48242,309,88,309,88,404,83,309,179,0.206561,-0.611821,0,-1.5,0,0,0,0,-0.55097,-0.473408,0,0,0,0,-0.248978,0.111779,9504,0.0761332,-0.725935,0.689843,-0.267221,7305,0,0,0,0,2.51,0.946815
7328,0.152344,0,1.92969,0.00723785,0.0120382,0.00201137,0.0423451,0.104494,0.00507466,-4.54658,-0.48242,0.0675944,-0.648686,0.261149,-0.948314,0.382771,0.00503216,-0.546578,-0.48242,309,88,309,88,404,83,309,179,0.204647,-0.611812,0,-1.5,0,0,0,0,-0.555307,-0.471466,0,0,0,0,-0.258471,0.11555,9504,0.0761332,-0.725935,0.689843,-0.267221,7305,0,0,0,0,2.51,0.942932
7348,0.152344,0,1.92969,0.00723785,0.0120382,0.00201137,0.0423451,0.104494,0.00507466,-4.53516,-0.495441,0.0625463,-0.666831,0.268472,-0.958829,0.386944,0.00507466,-0.535162,-0.495441,309,88,309,88,407,83,311,179,0.205264,-0.611824,0,-1.5,0,0,0,0,-0.560468,-0.471151,0,0,0,0,-0.269941,0.112377,9504,0.0980961,-0.736328,0.688888,-0.274567,7337,0,0,0,0,2.51,0.942301
7364,0.152344,0,2.39551,0.00615379,0.0117919,0.0019716,0.0423159,0.104493,0.00511756,-4.53516,-0.495441,0.0625463,-0.683234,0.275091,-0.968152,0.390641,0.00511756,-0.535162,-0.495441,309,88,309,88,407,83,311,179,0.203346,-0.611823,0,-1.5,0,0,0,0,-0.56516,-0.469199,0,0,0,0,-0.279264,0.116074,9504,0.0980961,-0.736328,0.688888,-0.274567,7337,0,0,0,0,2.51,0.938399
7384,0.152344,0,-2.88965,0.00742973,0.0119983,0.00274492,0.0423008,0.104497,0.00517869,-4.56697,-0.486715,0.0664088,-0.702745,0.282963,-0.979026,0.394949,0.00517869,-0.566968,-0.486715,309,90,309,90,404,84,309,179,0.201769,-0.611827,0,-1.5,0,0,0,0,-0.572113,-0.466785,0,0,0,0,-0.291487,0.117446,9500,0.116881,-0.744198,0.687539,-0.277503,7371,0,0,0,0,2.51,0.933571
7400,0.152344,0,5.72461,0.00618453,0.012513,0.00209301,0.0422743,0.1045,0.00520813,-4.56697,-0.486715,0.0664088,-0.7185,0.289318,-0.987643,0.398358,0.00520813,-0.566968,-0.486715,309,90,309,90,404,84,309,179,0.199946,-0.611824,0,-1.5,0,0,0,0,-0.576868,-0.46487,0,0,0,0,-0.300104,0.120855,9500,0.116881,-0.744198,0.687539,-0.277503,7371,0,0,0,0,2.51,0.92974
7421,0.152344,0,2.05859,0.00605391,0.0123009,0.00237997,0.0422478,0.104506,0.00525237,-4.53945,-0.490684,0.0735787,-0.739402,0.297747,-0.998858,0.40279,0.00520813,-0.539447,-0.490684,309,88,309,88,406,83,309,176,0.203976,-0.611845,0,-1.5,0,0,0,0,-0.579276,-0.469889,0,0,0,0,-0.298503,0.114775,9300,0.145419,-0.761588,0.700355,-0.288015,7408,0,0,0,0,2.51,0.939778
7438,0.152344,0,1.82812,0.00619458,0.012122,0.0022022,0.0422291,0.104517,0.00527586,-4.53945,-0.490684,0.0735787,-0.755473,0.304227,-1.00732,0.406131,0.00525237,-0.539447,-0.490684,309,88,309,88,406,83,309,176,0.202185,-0.611844,0,-1.5,0,0,0,0,-0.584141,-0.468017,0,0,0,0,-0.306963,0.118115,9300,0.145419,-0.761588,0.700355,-0.288015,7408,0,0,0,0,2.51,0.936035
7457,0.152344,0,-1.69727,0.00659853,0.0110939,0.00119009,0.0422141,0.104515,0.00529384,-4.55899,-0.492079,0.0720263,-0.775767,0.312408,-1.01781,0.410264,0.00529384,-0.558987,-0.492079,309,88,309,88,404,83,311,179,0.201058,-0.611847,0,-1.5,0,0,0,0,-0.587831,-0.466906,0,0,0,0,-0.309164,0.120328,9600,0.173762,-0.773515,0.708645,-0.289936,7445,0,0,0,0,2.51,0.933813
7473,0.152344,0,-0.397461,0.00643346,0.0114117,0.00164901,0.0422066,0.104517,0.00531265,-4.55899,-0.492079,0.0720263,-0.792139,0.319006,-1.02612,0.413536,0.00531265,-0.558987,-0.492079,309,88,309,88,404,83,311,179,0.199252,-0.611841,0,-1.5,0,0,0,0,-0.592866,-0.464947,0,0,0,0,-0.317475,0.123601,9600,0.173762,-0.773515,0.708645,-0.289936,7445,0,0,0,0,2.51,0.929893
7490,0.152344,0,-2.13086,0.00740972,0.0121222,0.000806756,0.0421954,0.104519,0.00535018,-4.55899,-0.492079,0.0720263,-0.80968,0.326074,-1.03488,0.416983,0.00533855,-0.558987,-0.492079,309,88,309,88,404,83,311,179,0.19731,-0.611836,0,-1.5,0,0,0,0,-0.598359,-0.462807,0,0,0,0,-0.326234,0.127047,9600,0.173762,-0.773515,0.708645,-0.289936,7445,0,0,0,0,2.51,0.925615
7505,0.152344,0,-2.13086,0.00740972,0.0121222,0.000806756,0.0421954,0.104519,0.00535018,-4.55899,-0.492079,0.0720263,-0.825277,0.332358,-1.04254,0.419998,0.00535018,-0.558987,-0.492079,309,88,309,88,404,83,311,179,0.195583,-0.611829,0,-1.5,0,0,0,0,-0.603327,-0.460873,0,0,0,0,-0.333899,0.130063,9600,0.173762,-0.773515,0.708645,-0.289936,7445,0,0,0,0,2.51,0.921745
7522,0.152344,0,-4.01953,0.0075321,0.0116081,0.000700191,0.0421915,0.104527,0.00539119,-4.55899,-0.492079,0.0720263,-0.842043,0.339112,-1.05066,0.423189,0.00539119,-0.558987,-0.492079,309,88,309,88,404,83,311,179,0.19371,-0.611827,0,-1.5,0,0,0,0,-0.608755,-0.458758,0,0,0,0,-0.342014,0.133254,9600,0.173762,-0.773515,0.708645,-0.289936,7445,0,0,0,0,2.51,0.917516
7538,0.152344,0,-3.00488,0.00767641,0.0114568,0.00280121,0.0421925,0.104524,0.00542091,-4.55899,-0.492079,0.0720263,-0.859998,0.346343,-1.05921,0.426551,0.00542091,-0.558987,-0.492079,309,88,309,88,404,83,311,179,0.191706,-0.611822,0,-1.5,0,0,0,0,-0.614663,-0.456456,0,0,0,0,-0.350567,0.136615,9600,0.173762,-0.773515,0.708645,-0.289936,7445,0,0,0,0,2.51,0.912911
7554,0.152344,0,3.44238,0.00734898,0.0108488,0.00107436,0.0421812,0.104521,0.00543188,-4.55899,-0.492079,0.0720263,-0.877027,0.3532,-1.06719,0.429687,0.00543188,-0.558987,-0.492079,309,88,309,88,404,83,311,179,0.189808,-0.611814,0,-1.5,0,0,0,0,-0.620354,-0.454238,0,0,0,0,-0.358549,0.139751,9600,0.173762,-0.773515,0.708645,-0.289936,7445,0,0,0,0,2.51,0.908475
7575,0.152344,0,-4.68359,0.00669773,0.0116073,0.00217968,0.0421602,0.104517,0.00545974,-4.5465,-0.482136,0.0678482,-0.898498,0.361843,-1.07708,0.433569,0.00545974,-0.546495,-0.482136,309,88,309,88,404,83,309,179,0.197065,-0.611859,0,-1.5,0,0,0,0,-0.62784,-0.463606,0,0,0,0,-0.371281,0.129411,9504,0.266423,-0.823624,0.705803,-0.304158,7570,0,0,0,0,2.51,0.927211
7590,0.152344,0,4.27734,0.00681178,0.0106584,0.00206898,0.0421418,0.104523,0.00550899,-4.5465,-0.482136,0.0678482,-0.915814,0.368813,-1.08492,0.436644,0.00545974,-0.546495,-0.482136,309,88,309,88,404,83,309,179,0.195245,-0.611849,0,-1.5,0,0,0,0,-0.633863,-0.461503,0,0,0,0,-0.37912,0.132486,9504,0.266423,-0.823624,0.705803,-0.304158,7570,0,0,0,0,2.51,0.923005
7611,0.152344,0,2.74707,0.00743002,0.0118387,0.00187695,0.0421351,0.104526,0.00553191,-4.54785,-0.493696,0.0676976,-0.938733,0.378035,-1.09512,0.440639,0.00553191,-0.547853,-0.493696,309,88,309,88,406,83,311,179,0.198903,-0.611883,0,-1.5,0,0,0,0,-0.620289,-0.466666,0,0,0,0,-0.366149,0.128051,9504,0.31407,-0.842826,0.728973,-0.312588,7607,0,0,0,0,2.51,0.933332
7627,0.152344,0,2.74707,0.00743002,0.0118387,0.00187695,0.0421351,0.104526,0.00553191,-4.54785,-0.493696,0.0676976,-0.956336,0.385117,-1.10282,0.443653,0.00553191,-0.547853,-0.493696,309,88,309,88,406,83,311,179,0.19711,-0.611874,0,-1.5,0,0,0,0,-0.626228,-0.464585,0,0,0,0,-0.373846,0.131065,9504,0.31407,-0.842826,0.728973,-0.312588,7607,0,0,0,0,2.51,0.929171
7648,0.152344,0,2.74707,0.00743002,0.0118387,0.00187695,0.0421351,0.104526,0.00553191,-4.5813,-0.493756,0.0746703,-0.97963,0.394487,-1.11283,0.447573,0.00553191,-0.581298,-0.493756,309,90,309,90,404,83,311,179,0.194865,-0.611861,0,-1.5,0,0,0,0,-0.628336,-0.461804,0,0,0,0,-0.376134,0.134481,9600,0.344663,-0.853473,0.736698,-0.313092,7641,0,0,0,0,2.51,0.923607
7664,0.152344,0,-5.81445,0.00699403,0.0126295,0.00218607,0.0420975,0.104535,0.00561424,-4.5813,-0.493756,0.0746703,-0.997512,0.401678,-1.12039,0.450529,0.00561424,-0.581298,-0.493756,309,90,309,90,404,83,311,179,0.192999,-0.611867,0,-1.5,0,0,0,0,-0.634432,-0.459622,0,0,0,0,-0.38369,0.137437,9600,0.344663,-0.853473,0.736698,-0.313092,7641,0,0,0,0,2.51,0.919243
7685,0.152344,0,4.84473,0.00657305,0.011281,0.00281841,0.0420869,0.104541,0.00566302,-4.48375,-0.481165,0.0470474,-1.02118,0.411195,-1.13022,0.45437,0.00561424,-0.48375,-0.481165,309,88,309,88,406,82,308,179,0.191265,-0.611857,0,-1.5,0,0,0,0,-0.638935,-0.457697,0,0,0,0,-0.38258,0.140524,9797,0.366548,-0.862301,0.747643,-0.313846,7672,0,0,0,0,2.51,0.915394
7700,0.152344,0,4.47461,0.00537517,0.0116036,0.00192518,0.0420594,0.104545,0.00567928,-4.48375,-0.481165,0.0470474,-1.0382,0.418037,-1.13718,0.457084,0.00566302,-0.48375,-0.481165,309,88,309,88,406,82,308,179,0.189498,-0.611857,0,-1.5,0,0,0,0,-0.644741,-0.455563,0,0,0,0,-0.389538,0.143238,9797,0.366548,-0.862301,0.747643,-0.313846,7672,0,0,0,0,2.51,0.911125
7720,0.152344,0,-5.60645,0.00688605,0.0120617,0.00153907,0.0420526,0.104549,0.00570031,-4.54115,-0.493492,0.0773377,-1.06108,0.427229,-1.14639,0.460668,0.00570031,-0.541151,-0.493492,309,88,309,88,406,82,310,176,0.187749,-0.611854,0,-1.5,0,0,0,0,-0.638942,-0.453363,0,0,0,0,-0.369237,0.145769,9400,0.406591,-0.874294,0.777149,-0.314899,7707,0,0,0,0,2.51,0.906725
7737,0.152344,0,0.501953,0.00752776,0.0119442,0.0025084,0.0420484,0.104559,0.00573247,-4.54115,-0.493492,0.0773377,-1.08065,0.435093,-1.15413,0.463683,0.00573247,-0.541151,-0.493492,309,88,309,88,406,82,310,176,0.185725,-0.611848,0,-1.5,0,0,0,0,-0.645304,-0.450851,0,0,0,0,-0.376985,0.148784,9400,0.406591,-0.874294,0.777149,-0.314899,7707,0,0,0,0,2.51,0.901703
7758,0.152344,0,6.27246,0.00703071,0.0116733,0.00124184,0.0420425,0.104555,0.00577655,-4.50857,-0.486481,0.0534661,-1.10502,0.444884,-1.16362,0.467373,0.00577655,-0.508568,-0.486481,309,88,309,88,406,83,309,179,0.188036,-0.61187,0,-1.5,0,0,0,0,-0.634394,-0.454022,0,0,0,0,-0.368322,0.145804,9600,0.453929,-0.892153,0.795301,-0.321569,7745,0,0,0,0,2.51,0.908043
7774,0.152344,0,3.62109,0.00804272,0.0106011,0.00201977,0.0420477,0.104548,0.00580047,-4.50857,-0.486481,0.0534661,-1.12372,0.452391,-1.17078,0.470155,0.00580047,-0.508568,-0.486481,309,88,309,88,406,83,309,179,0.186149,-0.611863,0,-1.5,0,0,0,0,-0.640362,-0.451659,0,0,0,0,-0.375478,0.148587,9600,0.453929,-0.892153,0.795301,-0.321569,7745,0,0,0,0,2.51,0.903319
7790,0.152344,0,-2.56641,0.00800459,0.0110886,0.00163242,0.042044,0.104549,0.00582064,-4.50857,-0.486481,0.0534661,-1.14252,0.459943,-1.17788,0.472915,0.00582064,-0.508568,-0.486481,309,88,309,88,406,83,309,179,0.184247,-0.611856,0,-1.5,0,0,0,0,-0.646445,-0.449253,0,0,0,0,-0.382578,0.151347,9600,0.453929,-0.892153,0.795301,-0.321569,7745,0,0,0,0,2.51,0.898506
7812,0.152344,0,-3.35352,0.00534723,0.0113359,0.00227263,0.042017,0.104555,0.00584962,-4.55471,-0.485105,0.0652155,-1.16738,0.469922,-1.18711,0.476501,0.00584962,-0.554709,-0.485105,309,90,309,90,404,83,309,179,0.182383,-0.611851,0,-1.5,0,0,0,0,-0.640411,-0.447088,0,0,0,0,-0.373973,0.154423,9600,0.520466,-0.914433,0.813139,-0.322078,7805,0,0,0,0,2.51,0.894176
7828,0.152344,0,5.54492,0.00744821,0.0118383,0.00209488,0.0420039,0.104559,0.00589216,-4.55471,-0.485105,0.0652155,-1.18765,0.478054,-1.19452,0.479373,0.00589216,-0.554709,-0.485105,309,90,309,90,404,83,309,179,0.180318,-0.611846,0,-1.5,0,0,0,0,-0.64685,-0.444431,0,0,0,0,-0.381377,0.157295,9600,0.520466,-0.914433,0.813139,-0.322078,7805,0,0,0,0,2.51,0.888862
7849,0.152344,0,-1.86816,0.00634921,0.0116131,0.00177895,0.0419845,0.104564,0.00591847,-4.54233,-0.475204,0.0609682,-1.21285,0.488167,-1.20358,0.482883,0.00590836,-0.542332,-0.475204,308,90,308,90,404,83,308,179,0.190167,-0.611908,0,-1.5,0,0,0,0,-0.648638,-0.452438,0,0,0,0,-0.376395,0.133882,9600,0.555111,-0.936766,0.827183,-0.349,7840,0,0,0,0,2.51,0.904876
7865,0.152344,0,-3.4541,0.00712144,0.0108881,0.0016579,0.0419746,0.10456,0.00593425,-4.54233,-0.475204,0.0609682,-1.23096,0.495434,-1.20999,0.485365,0.00591847,-0.542332,-0.475204,308,90,308,90,404,83,308,179,0.188526,-0.6119,0,-1.5,0,0,0,0,-0.654347,-0.450406,0,0,0,0,-0.382809,0.136365,9600,0.555111,-0.936766,0.827183,-0.349,7840,0,0,0,0,2.51,0.900811
7886,0.152344,0,-3.4541,0.00712144,0.0108881,0.0016579,0.0419746,0.10456,0.00593425,-4.55295,-0.479917,0.0767305,-1.25771,0.506162,-1.21931,0.488971,0.00593425,-0.552949,-0.479917,309,88,309,88,404,83,308,179,0.194708,-0.61194,0,-1.5,0,0,0,0,-0.643285,-0.45743,0,0,0,0,-0.371635,0.125658,9600,0.602562,-0.958506,0.847679,-0.363313,7875,0,0,0,0,2.51,0.914859
7901,0.152344,0,5.20605,0.00718719,0.0112296,0.00155577,0.0419576,0.10456,0.00596739,-4.55295,-0.479917,0.0767305,-1.27606,0.513521,-1.22561,0.491405,0.00596739,-0.552949,-0.479917,309,88,309,88,404,83,308,179,0.193131,-0.611937,0,-1.5,0,0,0,0,-0.64892,-0.455521,0,0,0,0,-0.37793,0.128091,9600,0.602562,-0.958506,0.847679,-0.363313,7875,0,0,0,0,2.51,0.911042
7922,0.152344,0,5.20605,0.00718719,0.0112296,0.00155577,0.0419576,0.10456,0.00596739,-4.52086,-0.482026,0.0614231,-1.30193,0.523889,-1.23435,0.494781,0.00596739,-0.520862,-0.482026,309,88,309,88,404,82,309,179,0.197093,-0.61196,0,-1.5,0,0,0,0,-0.648345,-0.460307,0,0,0,0,-0.374863,0.121813,9700,0.635535,-0.976363,0.859489,-0.372968,7908,0,0,0,0,2.51,0.920614
7943,0.152344,0,5.20605,0.00718719,0.0112296,0.00155577,0.0419576,0.10456,0.00596739,-4.54235,-0.483743,0.0636215,-1.32797,0.534324,-1.243,0.498121,0.00596739,-0.542351,-0.483743,309,90,309,90,404,82,309,179,0.198203,-0.611967,0,-1.5,0,0,0,0,-0.63975,-0.461877,0,0,0,0,-0.364729,0.120514,9700,0.682069,-0.993558,0.87827,-0.377607,7938,0,0,0,0,2.51,0.923753
7959,0.152344,0,-2.97949,0.00777292,0.0112714,0.00216818,0.041919,0.104538,0.00605803,-4.54235,-0.483743,0.0636215,-1.34792,0.542321,-1.24952,0.500638,0.00605803,-0.542351,-0.483743,309,90,309,90,404,82,309,179,0.196556,-0.611975,0,-1.5,0,0,0,0,-0.645654,-0.459922,0,0,0,0,-0.371254,0.123032,9700,0.682069,-0.993558,0.87827,-0.377607,7938,0,0,0,0,2.51,0.919844
7981,0.152344,0,-4.32129,0.0060943,0.0117185,0.00182978,0.0418997,0.104542,0.00607621,-4.54109,-0.480672,0.0602881,-1.37554,0.553383,-1.25841,0.504059,0.00607621,-0.541093,-0.480672,309,90,309,90,404,83,308,179,0.196096,-0.611976,0,-1.5,0,0,0,0,-0.620101,-0.459942,0,0,0,0,-0.340229,0.124883,9696,0.744419,-1.00877,0.918181,-0.379176,7971,0,0,0,0,2.51,0.919885
7997,0.152344,0,1.1377,0.0080035,0.0112245,0.00119648,0.0419036,0.104539,0.00610896,-4.54109,-0.480672,0.0602881,-1.39574,0.561473,-1.26481,0.506521,0.00610896,-0.541093,-0.480672,309,90,309,90,404,83,308,179,0.194454,-0.611972,0,-1.5,0,0,0,0,-0.62561,-0.457919,0,0,0,0,-0.346628,0.127345,9696,0.744419,-1.00877,0.918181,-0.379176,7971,0,0,0,0,2.51,0.915838
8019,0.152344,0,6.70898,0.00717633,0.0115667,0.000861592,0.0418785,0.104531,0.00613554,-4.56684,-0.486157,0.0668382,-1.4237,0.572668,-1.27353,0.509877,0.00613554,-0.566835,-0.486156,309,90,309,90,404,84,309,179,0.195961,-0.611987,0,-1.5,0,0,0,0,-0.607204,-0.457769,0,0,0,0,-0.311383,0.120971,9500,0.795326,-1.02188,0.962151,-0.388906,8004,0,0,0,0,2.51,0.915538
8035,0.152344,0,3.94531,0.00614878,0.0119389,0.00146548,0.0418647,0.104541,0.00616316,-4.56684,-0.486157,0.0668382,-1.44414,0.58085,-1.27981,0.512287,0.00616316,-0.566835,-0.486156,309,90,309,90,404,84,309,179,0.194366,-0.611983,0,-1.5,0,0,0,0,-0.61225,-0.455809,0,0,0,0,-0.317661,0.123381,9500,0.795326,-1.02188,0.962151,-0.388906,8004,0,0,0,0,2.51,0.911618
8051,0.152344,0,3.94531,0.00614878,0.0119389,0.00146548,0.0418647,0.104541,0.00616316,-4.56684,-0.486157,0.0668382,-1.46468,0.589072,-1.28604,0.514677,0.00616316,-0.566835,-0.486156,309,90,309,90,404,84,309,179,0.192769,-0.611973,0,-1.5,0,0,0,0,-0.617398,-0.45381,0,0,0,0,-0.323892,0.125771,9500,0.795326,-1.02188,0.962151,-0.388906,8004,0,0,0,0,2.51,0.907619
8067,0.152344,0,-5.29004,0.00610084,0.0111539,0.00325169,0.0418489,0.104539,0.00621222,-4.56684,-0.486157,0.0668382,-1.48532,0.597332,-1.29222,0.517046,0.00621222,-0.566835,-0.486156,309,90,309,90,404,84,309,179,0.191137,-0.611972,0,-1.5,0,0,0,0,-0.622645,-0.451773,0,0,0,0,-0.330072,0.12814,9500,0.795326,-1.02188,0.962151,-0.388906,8004,0,0,0,0,2.51,0.903545
8089,0.152344,0,-3.90723,0.00659414,0.011594,0.00197328,0.0418213,0.104543,0.0062618,-4.55472,-0.484883,0.0652706,-1.51258,0.608236,-1.30027,0.520126,0.0062618,-0.55472,-0.484883,309,90,309,90,404,83,309,179,0.198455,-0.612028,0,-1.5,0,0,0,0,-0.610248,-0.458673,0,0,0,0,-0.307354,0.11258,9600,0.881479,-1.05835,0.992914,-0.407546,8074,0,0,0,0,2.51,0.917346
8105,0.152344,0,4.95801,0.00667097,0.0119777,0.00155296,0.0418099,0.104545,0.00628778,-4.55472,-0.484883,0.0652706,-1.53476,0.617106,-1.30672,0.522589,0.00628778,-0.55472,-0.484883,309,90,309,90,404,83,309,179,0.196857,-0.612023,0,-1.5,0,0,0,0,-0.615546,-0.456731,0,0,0,0,-0.313801,0.115043,9600,0.881479,-1.05835,0.992914,-0.407546,8074,0,0,0,0,2.51,0.913463
8121,0.152344,0,-3.43652,0.00682229,0.0113518,0.00221061,0.0418035,0.104543,0.00631407,-4.55472,-0.484883,0.0652706,-1.55441,0.624966,-1.31236,0.524742,0.00631407,-0.55472,-0.484883,309,90,309,90,404,83,309,179,0.195435,-0.612019,0,-1.5,0,0,0,0,-0.620308,-0.454985,0,0,0,0,-0.319442,0.117196,9600,0.881479,-1.05835,0.992914,-0.407546,8074,0,0,0,0,2.51,0.90997
8137,0.152344,0,-5.87402,0.00569392,0.0113443,0.00141858,0.0417816,0.104538,0.0063256,-4.55472,-0.484883,0.0652706,-1.57679,0.633913,-1.3187,0.52716,0.0063256,-0.55472,-0.484883,309,90,309,90,404,83,309,179,0.193816,-0.612011,0,-1.5,0,0,0,0,-0.625808,-0.452966,0,0,0,0,-0.325785,0.119614,9600,0.881479,-1.05835,0.992914,-0.407546,8074,0,0,0,0,2.51,0.905932
8163,0.152344,0,-2.98633,0.00664821,0.0124804,0.00276783,0.0417575,0.104533,0.00638815,-4.5445,-0.484214,0.0644361,-1.61127,0.647691,-1.32832,0.530821,0.00638815,-0.544503,-0.484214,309,88,309,88,404,84,309,179,0.191252,-0.612007,0,-1.5,0,0,0,0,-0.625679,-0.449334,0,0,0,0,-0.320143,0.122495,9500,0.959374,-1.08641,1.00817,-0.408326,8149,0,0,0,0,2.51,0.898668
8282,0.152344,0,5.44531,0.00666622,0.0110102,0.00234312,0.0416696,0.10456,0.00654832,-4.55828,-0.482801,0.0696047,-1.77396,0.712616,-1.37162,0.547268,0.00654832,-0.558277,-0.482801,309,88,309,88,404,84,309,179,0.191921,-0.612043,0,-1.5,0,0,0,0,-0.629673,-0.448661,0,0,0,0,-0.304568,0.118192,9405,1.13148,-1.15613,1.06705,-0.429076,8272,0,0,0,0,2.51,0.897321
8357,0.152344,0,-6.58789,0.00635038,0.01118,0.00185788,0.0415703,0.10451,0.00667621,-4.56678,-0.485869,0.0670335,-1.87855,0.75431,-1.39738,0.556967,0.00667621,-0.566782,-0.485869,309,90,309,90,404,84,309,179,0.189441,-0.612051,0,-1.5,0,0,0,0,-0.650128,-0.444616,0,0,0,0,-0.322953,0.119801,9500,1.14784,-1.16614,1.07442,-0.437166,8343,0,0,0,0,2.51,0.889233
8373,0.152344,0,3.35645,0.00522149,0.011194,0.00127175,0.0415432,0.104497,0.00668997,-4.56678,-0.485869,0.0670335,-1.90097,0.763243,-1.40267,0.558944,0.00668997,-0.566782,-0.485869,309,90,309,90,404,84,309,179,0.187972,-0.612044,0,-1.5,0,0,0,0,-0.65535,-0.442679,0,0,0,0,-0.328242,0.121777,9500,1.14784,-1.16614,1.07442,-0.437166,8343,0,0,0,0,2.51,0.885358
8390,0.152344,0,4.48535,0.00711125,0.0105519,0.00225436,0.0415317,0.104465,0.00674173,-4.56678,-0.485869,0.0670335,-1.92487,0.772768,-1.40824,0.561023,0.00671839,-0.566782,-0.485869,309,90,309,90,404,84,309,179,0.186393,-0.612039,0,-1.5,0,0,0,0,-0.660992,-0.440586,0,0,0,0,-0.333814,0.123857,9500,1.14784,-1.16614,1.07442,-0.437166,8343,0,0,0,0,2.51,0.881171
8412,0.152344,0,-6.75879,0.00739486,0.0113117,0.00244687,0.0415139,0.10447,0.00676485,-4.53315,-0.477097,0.0631339,-1.95596,0.785147,-1.41537,0.563685,0.00676485,-0.533151,-0.477097,309,88,309,88,404,83,308,179,0.18666,-0.612049,0,-1.5,0,0,0,0,-0.650116,-0.44088,0,0,0,0,-0.315137,0.123293,9600,1.29484,-1.22162,1.10024,-0.440392,8404,0,0,0,0,2.51,0.881759
8428,0.152344,0,1.06543,0.0064732,0.0115342,0.0018604,0.0414851,0.104467,0.0067892,-4.53315,-0.477097,0.0631339,-1.97723,0.79362,-1.42019,0.565478,0.0067892,-0.533151,-0.477097,309,88,309,88,404,83,308,179,0.185268,-0.612044,0,-1.5,0,0,0,0,-0.654889,-0.439013,0,0,0,0,-0.319957,0.125087,9600,1.29484,-1.22162,1.10024,-0.440392,8404,0,0,0,0,2.51,0.878026
8449,0.152344,0,5.88867,0.00631645,0.0121781,0.00197704,0.0414583,0.104471,0.00681954,-4.5413,-0.478141,0.0750202,-2.00858,0.806097,-1.4272,0.56808,0.00681954,-0.541303,-0.478141,309,88,309,88,404,82,308,179,0.193043,-0.612103,0,-1.5,0,0,0,0,-0.64991,-0.448878,0,0,0,0,-0.309874,0.113663,9700,1.34302,-1.24861,1.11733,-0.454416,8437,0,0,0,0,2.51,0.897757
8466,0.152344,0,6.92676,0.00504135,0.0116683,0.00179155,0.0414016,0.104475,0.00685101,-4.5413,-0.478141,0.0750202,-2.0329,0.815777,-1.43256,0.570062,0.00685101,-0.541303,-0.478141,309,88,309,88,404,82,308,179,0.191557,-0.612099,0,-1.5,0,0,0,0,-0.655237,-0.446924,0,0,0,0,-0.315235,0.115646,9700,1.34302,-1.24861,1.11733,-0.454416,8437,0,0,0,0,2.51,0.893849
8487,0.152344,0,-1.75098,0.00565811,0.0102504,0.00247233,0.0413645,0.104457,0.00688651,-4.54487,-0.478168,0.0645651,-2.06164,0.82721,-1.43882,0.572367,0.00685101,-0.544869,-0.478168,309,88,309,88,404,84,308,179,0.19159,-0.612099,0,-1.5,0,0,0,0,-0.628071,-0.446984,0,0,0,0,-0.283898,0.11563,9500,1.41047,-1.26506,1.15492,-0.456737,8472,0,0,0,0,2.51,0.893967
8502,0.152344,0,-2.2207,0.00643248,0.0115765,0.00179751,0.0413543,0.104462,0.00691112,-4.54487,-0.478168,0.0645651,-2.08471,0.836387,-1.44377,0.574187,0.00688651,-0.544869,-0.478168,309,88,309,88,404,84,308,179,0.190186,-0.612096,0,-1.5,0,0,0,0,-0.632663,-0.445115,0,0,0,0,-0.288849,0.11745,9500,1.41047,-1.26506,1.15492,-0.456737,8472,0,0,0,0,2.51,0.89023
8524,0.152344,0,-1.44922,0.00640697,0.0105452,0.0014364,0.0413381,0.104454,0.00692763,-4.55847,-0.482318,0.0694728,-2.11658,0.849057,-1.45052,0.576664,0.00692763,-0.558468,-0.482318,309,88,309,88,404,84,309,179,0.193338,-0.612126,0,-1.5,0,0,0,0,-0.623369,-0.449479,0,0,0,0,-0.263397,0.113495,9405,1.46709,-1.28835,1.18712,-0.463168,8510,0,0,0,0,2.51,0.898957
8540,0.152344,0,1.40039,0.00509665,0.0118433,0.00101712,0.0413085,0.104454,0.00694163,-4.55847,-0.482318,0.0694728,-2.13984,0.858302,-1.45538,0.578442,0.00694163,-0.558468,-0.482318,309,88,309,88,404,84,309,179,0.19197,-0.61212,0,-1.5,0,0,0,0,-0.627634,-0.447644,0,0,0,0,-0.268255,0.115274,9405,1.46709,-1.28835,1.18712,-0.463168,8510,0,0,0,0,2.51,0.895288
8556,0.152344,0,2.76172,0.00719419,0.0105546,0.00190905,0.0412914,0.104442,0.00698319,-4.55847,-0.482318,0.0694728,-2.16317,0.867575,-1.4602,0.580204,0.00694163,-0.558468,-0.482318,309,88,309,88,404,84,309,179,0.190599,-0.61211,0,-1.5,0,0,0,0,-0.631975,-0.445782,0,0,0,0,-0.273075,0.117036,9405,1.46709,-1.28835,1.18712,-0.463168,8510,0,0,0,0,2.51,0.891564
8578,0.152344,0,-1.44336,0.0060334,0.0112083,0.00112838,0.0412689,0.104437,0.00699161,-4.54665,-0.481054,0.0679966,-2.19539,0.880374,-1.46676,0.582599,0.00699161,-0.546654,-0.481054,309,88,309,88,404,83,309,179,0.200154,-0.612186,0,-1.5,0,0,0,0,-0.638249,-0.456902,0,0,0,0,-0.279663,0.100967,9504,1.54527,-1.33246,1.1871,-0.481632,8570,0,0,0,0,2.51,0.913804
8594,0.152344,0,-1.65332,0.00759406,0.0112159,0.00198574,0.041269,0.104437,0.00701845,-4.54665,-0.481054,0.0679966,-2.21891,0.889713,-1.47149,0.58432,0.00701845,-0.546654,-0.481054,309,88,309,88,404,83,309,179,0.198895,-0.612183,0,-1.5,0,0,0,0,-0.642773,-0.455268,0,0,0,0,-0.28439,0.102688,9504,1.54527,-1.33246,1.1871,-0.481632,8570,0,0,0,0,2.51,0.910537
8616,0.152344,0,6.62207,0.00657869,0.0109669,0.00158795,0.0412537,0.104433,0.00704024,-4.55495,-0.484149,0.0651093,-2.25137,0.902602,-1.47793,0.586663,0.00704024,-0.554954,-0.484149,309,90,309,90,404,83,309,179,0.202014,-0.612209,0,-1.5,0,0,0,0,-0.635892,-0.459043,0,0,0,0,-0.272397,0.0977245,9600,1.60101,-1.35578,1.20553,-0.488938,8606,0,0,0,0,2.51,0.918087
8632,0.152344,0,-4.9707,0.00656646,0.0110854,0.00103749,0.0412219,0.104422,0.00707583,-4.55495,-0.484149,0.0651093,-2.27507,0.912006,-1.48257,0.588346,0.00707583,-0.554954,-0.484149,309,90,309,90,404,83,309,179,0.200787,-0.612208,0,-1.5,0,0,0,0,-0.640299,-0.457462,0,0,0,0,-0.277034,0.0994082,9600,1.60101,-1.35578,1.20553,-0.488938,8606,0,0,0,0,2.51,0.914924
8654,0.152344,0,-6.32617,0.00706443,0.0109884,0.00211578,0.0412047,0.104421,0.00711557,-4.57812,-0.490562,0.0885354,-2.30778,0.924985,-1.48889,0.590637,0.00707583,-0.578121,-0.490562,309,88,309,88,404,83,310,176,0.202393,-0.612219,0,-1.5,0,0,0,0,-0.598663,-0.458438,0,0,0,0,-0.225829,0.0949326,9300,1.68133,-1.37252,1.26306,-0.495704,8640,0,0,0,0,2.51,0.916875
8670,0.152344,0,6.77832,0.00672171,0.0112755,0.00183243,0.0411934,0.104413,0.00713536,-4.57812,-0.490562,0.0885354,-2.33165,0.934452,-1.49343,0.592281,0.00713536,-0.578121,-0.490562,309,88,309,88,404,83,310,176,0.201188,-0.612223,0,-1.5,0,0,0,0,-0.602323,-0.456902,0,0,0,0,-0.230376,0.096577,9300,1.68133,-1.37252,1.26306,-0.495704,8640,0,0,0,0,2.51,0.913804
8692,0.152344,0,-6.63867,0.00674176,0.0122434,0.00234873,0.0411579,0.104412,0.00718464,-4.58671,-0.496633,0.0825018,-2.3646,0.947517,-1.49964,0.594521,0.00713536,-0.586712,-0.496633,309,90,309,90,406,84,310,176,0.202713,-0.612234,0,-1.5,0,0,0,0,-0.596104,-0.458066,0,0,0,0,-0.224864,0.0928053,9200,1.74045,-1.39455,1.27477,-0.501716,8678,0,0,0,0,2.51,0.916131
8713,0.152344,0,-6.63867,0.00674176,0.0122434,0.00234873,0.0411579,0.104412,0.00718464,-4.57491,-0.486335,0.0784806,-2.39617,0.960031,-1.50549,0.59663,0.00718464,-0.574908,-0.486335,309,90,309,90,404,83,309,179,0.204481,-0.612257,0,-1.5,0,0,0,0,-0.597042,-0.459389,0,0,0,0,-0.221667,0.0882953,9600,1.78629,-1.41434,1.28382,-0.508334,8705,0,0,0,0,2.51,0.918779
8729,0.152344,0,6.94629,0.00756322,0.012403,0.00143504,0.0411442,0.104407,0.00721224,-4.57491,-0.486335,0.0784806,-2.42031,0.969594,-1.5099,0.598217,0.00721224,-0.574908,-0.486335,309,90,309,90,404,83,309,179,0.203357,-0.612254,0,-1.5,0,0,0,0,-0.600635,-0.45796,0,0,0,0,-0.226082,0.0898832,9600,1.78629,-1.41434,1.28382,-0.508334,8705,0,0,0,0,2.51,0.91592
8751,0.152344,0,0.40332,0.00696489,0.0113443,0.00227794,0.0411292,0.1044,0.00726133,-4.52032,-0.486562,0.0546988,-2.45361,0.982785,-1.51591,0.600378,0.00726133,-0.520323,-0.486562,309,88,309,88,406,84,309,179,0.209791,-0.612311,0,-1.5,0,0,0,0,-0.602737,-0.465668,0,0,0,0,-0.22725,0.0794768,9500,1.83283,-1.44116,1.28866,-0.520901,8739,0,0,0,0,2.51,0.931336
8768,0.152344,0,6.5,0.00718947,0.0102947,0.00229828,0.041126,0.104395,0.0072781,-4.52032,-0.486562,0.0546988,-2.47943,0.99301,-1.52051,0.602028,0.0072781,-0.520323,-0.486562,309,88,309,88,406,84,309,179,0.208687,-0.612307,0,-1.5,0,0,0,0,-0.606651,-0.464299,0,0,0,0,-0.231849,0.0811264,9500,1.83283,-1.44116,1.28866,-0.520901,8739,0,0,0,0,2.51,0.928598
8784,0.152344,0,6.5,0.00718947,0.0102947,0.00229828,0.041126,0.104395,0.0072781,-4.52032,-0.486562,0.0546988,-2.5038,1.00266,-1.52481,0.603567,0.0072781,-0.520323,-0.486562,309,88,309,88,406,84,309,179,0.207645,-0.612299,0,-1.5,0,0,0,0,-0.610404,-0.462985,0,0,0,0,-0.236142,0.0826654,9500,1.83283,-1.44116,1.28866,-0.520901,8739,0,0,0,0,2.51,0.92597
8800,0.152344,0,-6.46094,0.00667069,0.0100034,0.00217987,0.0410933,0.104369,0.00733512,-4.52032,-0.486562,0.0546988,-2.52824,1.01233,-1.52906,0.605091,0.00733512,-0.520323,-0.486562,309,88,309,88,406,84,309,179,0.20657,-0.612303,0,-1.5,0,0,0,0,-0.614225,-0.461647,0,0,0,0,-0.240398,0.0841895,9500,1.83283,-1.44116,1.28866,-0.520901,8739,0,0,0,0,2.51,0.923294
8822,0.152344,0,4.66992,0.00674424,0.0115563,0.000922813,0.0410763,0.104368,0.00737581,-4.53316,-0.482195,0.0626878,-2.56044,1.02507,-1.5346,0.60707,0.00737581,-0.53316,-0.482195,309,88,309,88,404,83,309,179,0.209372,-0.612333,0,-1.5,0,0,0,0,-0.604174,-0.464486,0,0,0,0,-0.21255,0.0785873,9600,1.9285,-1.47846,1.32205,-0.528483,8807,0,0,0,0,2.51,0.928973
8838,0.152344,0,0.733398,0.0072943,0.0114587,0.00220912,0.0410684,0.104368,0.00740013,-4.53316,-0.482195,0.0626878,-2.58658,1.03541,-1.53904,0.608652,0.00740013,-0.53316,-0.482195,309,88,309,88,404,83,309,179,0.208289,-0.61233,0,-1.5,0,0,0,0,-0.607837,-0.463133,0,0,0,0,-0.216988,0.0801693,9600,1.9285,-1.47846,1.32205,-0.528483,8807,0,0,0,0,2.51,0.926266
8860,0.152344,0,0.762695,0.00733561,0.0108743,0.00207453,0.041057,0.104361,0.00745413,-4.56724,-0.485145,0.0664945,-2.62052,1.04883,-1.54473,0.610679,0.00740013,-0.567238,-0.485145,309,90,309,90,404,84,309,179,0.216556,-0.612391,0,-1.5,0,0,0,0,-0.608198,-0.471386,0,0,0,0,-0.213375,0.0636078,9500,1.98303,-1.50818,1.33135,-0.547072,8845,0,0,0,0,2.51,0.942771
8881,0.152344,0,0.762695,0.00733561,0.0108743,0.00207453,0.041057,0.104361,0.00745413,-4.50179,-0.469433,0.0423321,-2.65303,1.06168,-1.5501,0.612589,0.00745413,-0.50179,-0.469433,306,91,306,91,406,83,308,179,0.214435,-0.612387,0,-1.5,0,0,0,0,-0.610782,-0.468999,0,0,0,0,-0.214618,0.0672221,9792,2.02623,-1.52413,1.33548,-0.545367,8871,0,0,0,0,2.51,0.937997
8899,0.152344,0,4.77344,0.00758298,0.0103315,0.00186895,0.0410251,0.10433,0.00750877,-4.50179,-0.469433,0.0423321,-2.68099,1.07272,-1.55466,0.614209,0.00748965,-0.50179,-0.469433,306,91,306,91,406,83,308,179,0.2134,-0.612387,0,-1.5,0,0,0,0,-0.614699,-0.46777,0,0,0,0,-0.219175,0.0688414,9792,2.02623,-1.52413,1.33548,-0.545367,8871,0,0,0,0,2.51,0.935539
8920,0.152344,0,4.77344,0.00758298,0.0103315,0.00186895,0.0410251,0.10433,0.00750877,-4.5415,-0.479616,0.0599478,-2.71215,1.08503,-1.55967,0.615986,0.00750877,-0.541504,-0.479616,309,90,309,90,404,83,308,179,0.212389,-0.612384,0,-1.5,0,0,0,0,-0.614712,-0.466376,0,0,0,0,-0.217697,0.0700647,9696,2.07865,-1.54376,1.34197,-0.545921,8907,0,0,0,0,2.51,0.932752
8935,0.152344,0,6.37402,0.00581648,0.0114463,0.00105727,0.0409763,0.104313,0.00755876,-4.5415,-0.479616,0.0599478,-2.73714,1.0949,-1.56364,0.617391,0.00755876,-0.541504,-0.479616,309,90,309,90,404,83,308,179,0.211449,-0.612387,0,-1.5,0,0,0,0,-0.618236,-0.465241,0,0,0,0,-0.221667,0.0714696,9696,2.07865,-1.54376,1.34197,-0.545921,8907,0,0,0,0,2.51,0.930482
8951,0.152344,0,6.37402,0.00581648,0.0114463,0.00105727,0.0409763,0.104313,0.00755876,-4.5415,-0.479616,0.0599478,-2.7622,1.10479,-1.56757,0.618779,0.00755876,-0.541504,-0.479616,309,90,309,90,404,83,308,179,0.210523,-0.61238,0,-1.5,0,0,0,0,-0.621822,-0.464083,0,0,0,0,-0.225603,0.072858,9696,2.07865,-1.54376,1.34197,-0.545921,8907,0,0,0,0,2.51,0.928167
8968,0.152344,0,5.8125,0.00713423,0.011028,0.0026071,0.0409319,0.104297,0.00761172,-4.5415,-0.479616,0.0599478,-2.78732,1.11471,-1.57148,0.620154,0.00757962,-0.541504,-0.479616,309,90,309,90,404,83,308,179,0.20958,-0.612378,0,-1.5,0,0,0,0,-0.625473,-0.462903,0,0,0,0,-0.229509,0.0742334,9696,2.07865,-1.54376,1.34197,-0.545921,8907,0,0,0,0,2.51,0.925806
8989,0.152344,0,-6.70996,0.00606745,0.0106192,0.00157893,0.0409092,0.10428,0.00762692,-4.52619,-0.471731,0.0513344,-2.82198,1.12838,-1.5768,0.622022,0.00762692,-0.526185,-0.471731,306,91,306,91,404,83,309,179,0.214108,-0.612422,0,-1.5,0,0,0,0,-0.62026,-0.469109,0,0,0,0,-0.22406,0.0684506,9888,2.17196,-1.58531,1.35274,-0.553572,8975,0,0,0,0,2.51,0.938219
9011,0.152344,0,3.91699,0.00567963,0.0115925,0.00186446,0.0408637,0.104271,0.00767911,-4.51805,-0.488356,0.0501882,-2.85674,1.14209,-1.58206,0.62386,0.00765638,-0.518052,-0.488356,309,90,309,90,407,83,309,179,0.214048,-0.612428,0,-1.5,0,0,0,0,-0.620292,-0.469089,0,0,0,0,-0.222236,0.0685974,9600,2.22013,-1.60452,1.35982,-0.555262,9001,0,0,0,0,2.51,0.938178
9027,0.152344,0,-3.57129,0.00663185,0.0123079,0.00236518,0.0408539,0.104282,0.00770554,-4.51805,-0.488356,0.0501882,-2.88209,1.15209,-1.58584,0.625179,0.00770554,-0.518052,-0.488356,309,90,309,90,407,83,309,179,0.213141,-0.612432,0,-1.5,0,0,0,0,-0.623887,-0.467978,0,0,0,0,-0.226022,0.0699165,9600,2.22013,-1.60452,1.35982,-0.555262,9001,0,0,0,0,2.51,0.935955
9049,0.152344,0,-3.57129,0.00663185,0.0123079,0.00236518,0.0408539,0.104282,0.00770554,-4.55345,-0.484165,0.0757546,-2.91705,1.16586,-1.591,0.626971,0.00770554,-0.55345,-0.484165,309,88,309,88,404,83,309,179,0.212556,-0.612427,0,-1.5,0,0,0,0,-0.601918,-0.467094,0,0,0,0,-0.190471,0.0704879,9600,2.29553,-1.62517,1.40053,-0.556483,9037,0,0,0,0,2.51,0.934188
9065,0.152344,0,-6.80371,0.00619732,0.0117352,0.00141456,0.0407847,0.104257,0.00775669,-4.55345,-0.484165,0.0757546,-2.94255,1.17591,-1.59472,0.628258,0.00774817,-0.55345,-0.484165,309,88,309,88,404,83,309,179,0.211645,-0.612429,0,-1.5,0,0,0,0,-0.605004,-0.465953,0,0,0,0,-0.194184,0.0717754,9600,2.29553,-1.62517,1.40053,-0.556483,9037,0,0,0,0,2.51,0.931905
9087,0.152344,0,-2.47168,0.00675166,0.0114176,0.00214617,0.040767,0.10426,0.00778009,-4.53071,-0.486783,0.0551196,-2.97771,1.18976,-1.59978,0.630003,0.00778009,-0.530711,-0.486783,309,90,309,90,406,83,309,179,0.210969,-0.612431,0,-1.5,0,0,0,0,-0.569938,-0.464924,0,0,0,0,-0.151772,0.0723661,9600,2.37592,-1.64241,1.448,-0.557637,9072,0,0,0,0,2.51,0.929848
9103,0.152344,0,4.58301,0.00562621,0.0121675,0.0013666,0.0407461,0.104254,0.00779455,-4.53071,-0.486783,0.0551196,-3.00335,1.19985,-1.60342,0.631253,0.00779455,-0.530711,-0.486783,309,90,309,90,406,83,309,179,0.210065,-0.612427,0,-1.5,0,0,0,0,-0.572403,-0.463754,0,0,0,0,-0.155413,0.0736159,9600,2.37592,-1.64241,1.448,-0.557637,9072,0,0,0,0,2.51,0.927507
9125,0.152344,0,-6.125,0.00731304,0.0111636,0.00233992,0.0407321,0.104251,0.0078357,-4.58152,-0.483423,0.0714437,-3.0387,1.21376,-1.60838,0.632954,0.0078357,-0.581524,-0.483423,309,90,309,90,404,84,309,179,0.21218,-0.612452,0,-1.5,0,0,0,0,-0.582858,-0.465934,0,0,0,0,-0.167373,0.0694462,9405,2.42414,-1.6673,1.44101,-0.563507,9111,0,0,0,0,2.51,0.931868
9146,0.152344,0,4.78906,0.0054683,0.0115395,0.00136187,0.0407019,0.104244,0.00784765,-4.53168,-0.478664,0.0588158,-3.07254,1.22708,-1.61306,0.634552,0.00784765,-0.531682,-0.478664,309,88,309,88,404,84,308,179,0.211843,-0.612452,0,-1.5,0,0,0,0,-0.575975,-0.465064,0,0,0,0,-0.161414,0.0690336,9595,2.48204,-1.68649,1.45165,-0.565519,9138,0,0,0,0,2.51,0.930129
9162,0.152344,0,6.34961,0.00677475,0.0116519,0.00145785,0.0406961,0.104226,0.00788692,-4.53168,-0.478664,0.0588158,-3.09838,1.23724,-1.6166,0.635755,0.00787459,-0.531682,-0.478664,309,88,309,88,404,84,308,179,0.210972,-0.612451,0,-1.5,0,0,0,0,-0.578593,-0.463948,0,0,0,0,-0.164946,0.0702366,9595,2.48204,-1.68649,1.45165,-0.565519,9138,0,0,0,0,2.51,0.927895
9184,0.152344,0,6.34961,0.00677475,0.0116519,0.00145785,0.0406961,0.104226,0.00788692,-4.50724,-0.481756,0.0493126,-3.13401,1.25125,-1.62141,0.637393,0.00788692,-0.507239,-0.481756,309,88,309,88,406,84,308,179,0.214511,-0.612482,0,-1.5,0,0,0,0,-0.574261,-0.467711,0,0,0,0,-0.153872,0.0635855,9595,2.53921,-1.71093,1.46754,-0.573808,9172,0,0,0,0,2.51,0.935423
9200,0.152344,0,3.32324,0.00625777,0.0111445,0.00162883,0.0406523,0.104217,0.00792391,-4.50724,-0.481756,0.0493126,-3.15999,1.26146,-1.62487,0.63857,0.00792391,-0.507239,-0.481756,309,88,309,88,406,84,308,179,0.213686,-0.612483,0,-1.5,0,0,0,0,-0.576757,-0.466682,0,0,0,0,-0.157335,0.0647622,9595,2.53921,-1.71093,1.46754,-0.573808,9172,0,0,0,0,2.51,0.933364
9222,0.152344,0,-4.39258,0.00540907,0.0113781,0.00256629,0.0406197,0.104208,0.00796869,-4.56758,-0.484683,0.0660643,-3.19581,1.27554,-1.62959,0.640167,0.00796869,-0.567577,-0.484683,309,90,309,90,404,84,309,179,0.213835,-0.612494,0,-1.5,0,0,0,0,-0.570885,-0.466588,0,0,0,0,-0.135763,0.0639013,9500,2.59206,-1.72945,1.49383,-0.576266,9208,0,0,0,0,2.51,0.933177
