timestamp,A_x,A_y,A_z,P,Q,R,Phi,Theta,Psi,poseX,poseY,poseZ,state_X,state_Y,state_Z,state_VzB,state_Bx,state_By,state_Bz,p1_x,p1_y,p2_x,p2_y,p3_x,p3_y,p4_x,p4_y,roll,pitch,yaw,alt,targetHeading,highLevelState,lowLevelState,gateNumber,filtered_x,filtered_y,x_OT,y_OT,vx_OT,vy_OT,filtered_vx,filtered_vygateArearansac_corr_x,ransac_corr_y,ransac_corr_vx,ransac_corr_vy,detectionTimeStamppTermX,dTermX,pTermY,dTermY,vxcmd,vycmd
6040,-1.80078,0,-7.2168,-0.0026032,0.0028471,0.00105995,0.19573,0.0164673,2.97113,0,0,0,-7.26291e-06,-8.33453e-05,-0.00134847,-0.0154952,2.97075,0,0,0,0,0,0,0,0,0,0,-0.0464182,0.0715827,0.00468411,-1.7,2.75569e-38,0,0,1,-7.26291e-06,-8.33453e-05,0,0,0,0,-0.00134847,-0.0154952,1.9603e-19,0,0,0,0,0,0,0,0,0,1,0.000166691
6056,-1.78418,0,-6.71191,0.00262079,0.00281799,0.000515789,0.194668,0.0163927,2.97225,0,0,0,-5.03471e-05,-0.000580987,-0.00382019,-0.044268,2.97183,0,0,0,0,0,0,0,0,0,0,-0.0535927,0.0709843,0.0187366,-2.2,2.75569e-38,0,0,2,-5.03471e-05,-0.000580987,0,0,0,0,-0.00382019,-0.044268,1.9603e-19,0,0,0,0,0,0,0,0,0,1,0.00116197
6072,-1.75684,0,-1.44629,-0.0146231,0.00619751,0.000755696,0.193357,0.0163935,2.97338,0,0,0,-0.000137113,-0.00159109,-0.00638856,-0.0745799,2.97289,0,0,0,0,0,0,0,0,0,0,-0.061408,0.0703169,0.0280301,-0.7,2.75569e-38,0,0,3,-0.000137113,-0.00159109,0,0,0,0,-0.00638856,-0.0745799,1.9603e-19,0,0,0,0,0,0,0,0,0,1,0.00318218
6088,-1.67676,0,-2.50293,-0.0126737,0.00355089,0.000169697,0.193297,0.0163967,2.97349,0,0,0,-0.000265789,-0.00309967,-0.00889475,-0.104541,2.97349,0,0,0,0,0,0,0,0,0,0,-0.0694957,0.0695916,0.0185435,-1.7,2.75569e-38,0,0,0,-0.000265789,-0.00309967,0,0,0,0,-0.00889475,-0.104541,1.9603e-19,0,0,0,0,0,0,0,0,0,1,0.00619933
6103,-1.67676,0,-7.21191,0.00822725,0.00174699,0.000240209,0.193332,0.0163839,2.9735,0,0,0,-0.000434057,-0.0050846,-0.0113635,-0.134241,2.9735,0,0,0,0,0,0,0,0,0,0,-0.0778943,0.0687928,0.0213028,-1.7,2.75569e-38,0,0,1,-0.000434057,-0.0050846,0,0,0,0,-0.0113635,-0.134241,1.9603e-19,0,0,0,0,0,0,0,0,0,1,0.0101692
6119,-1.67676,0,5.05078,0.0181315,-0.00162626,0.00336331,0.193595,0.0163182,2.97354,0,0,0,-0.000626792,-0.00736587,-0.013669,-0.161904,2.97354,0,0,0,0,0,0,0,0,0,0,-0.0859235,0.0680168,0.0353108,-2.2,2.75569e-38,0,0,2,-0.000626792,-0.00736587,0,0,0,0,-0.013669,-0.161904,1.9603e-19,0,0,0,0,0,0,0,0,0,1,0.0147317
6134,-1.70801,0,2.47949,0.00365328,0.00131,0.00188671,0.193723,0.0162895,2.97357,0,0,0,-0.00087129,-0.0102648,-0.0161237,-0.191241,2.97357,0,0,0,0,0,0,0,0,0,0,-0.09468,0.0671551,0.0508398,-0.7,2.75569e-38,0,0,3,-0.00087129,-0.0102648,0,0,0,0,-0.0161237,-0.191241,1.9603e-19,0,0,0,0,0,0,0,0,0,1,0.0205295
6150,-1.74121,0,-3.09375,-0.0240448,0.00754464,2.01191e-05,0.193391,0.0163519,2.97358,0,0,0,-0.00115493,-0.013631,-0.0185605,-0.220368,2.97358,0,0,0,0,0,0,0,0,0,0,-0.103618,0.0662576,0.0412619,-1.7,2.75569e-38,0,0,0,-0.00115493,-0.013631,0,0,0,0,-0.0185605,-0.220368,1.9603e-19,0,0,0,0,0,0,0,0,0,1,0.027262
6170,-1.76074,0,-3.29395,-0.0140439,0.00418465,0.000522749,0.19306,0.0163925,2.97359,0,0,0,-0.00156691,-0.0185281,-0.0215598,-0.256432,2.97359,0,0,0,0,0,0,0,0,0,0,-0.115043,0.0650811,0.0432396,-1.7,2.75569e-38,0,0,1,-0.00156691,-0.0185281,0,0,0,0,-0.0215598,-0.256432,1.9603e-19,0,0,0,0,0,0,0,0,0,1,0.0370561
6186,-1.76074,0,2.01758,0.0201848,-0.00135559,0.000592217,0.193242,0.0163549,2.9736,0,0,0,-0.00193604,-0.0229224,-0.0239322,-0.28501,2.9736,0,0,0,0,0,0,0,0,0,0,-0.12435,0.0641052,0.0555953,-2.2,2.75569e-38,0,0,2,-0.00193604,-0.0229224,0,0,0,0,-0.0239322,-0.28501,1.9603e-19,0,0,0,0,0,0,0,0,0,1,0.0458449
6201,-1.76074,0,-6.0752,0.0269859,-0.00280153,0.000322467,0.193711,0.0162693,2.97361,0,0,0,-0.00231649,-0.0274553,-0.0261558,-0.311656,2.97361,0,0,0,0,0,0,0,0,0,0,-0.133244,0.0631612,0.0694786,-0.7,2.75569e-38,0,0,3,-0.00231649,-0.0274553,0,0,0,0,-0.0261558,-0.311656,1.9603e-19,0,0,0,0,0,0,0,0,0,1,0.0549107
6216,-1.76074,0,6.64844,-0.0114576,0.00431739,-0.000447702,0.193665,0.0162587,2.97362,0,0,0,-0.00273034,-0.0323867,-0.0283788,-0.338161,2.97362,0,0,0,0,0,0,0,0,0,0,-0.142298,0.0621907,0.0613907,-1.7,2.75569e-38,0,0,0,-0.00273034,-0.0323867,0,0,0,0,-0.0283788,-0.338161,1.9603e-19,0,0,0,0,0,0,0,0,0,1,0.0647735
6239,-1.76074,0,5.63574,-0.0315781,0.00738578,0.000157359,0.193148,0.0163483,2.97363,0,0,0,-0.00343798,-0.0408197,-0.0317501,-0.378459,2.97363,0,0,0,0,0,0,0,0,0,0,-0.156526,0.0606343,0.0624365,-1.7,2.75569e-38,0,0,1,-0.00343798,-0.0408197,0,0,0,0,-0.0317501,-0.378459,1.9603e-19,0,0,0,0,0,0,0,0,0,1,0.0816394
6256,-1.74707,0,6.7168,-0.00265767,0.00308994,-8.94464e-06,0.192627,0.0161133,2.97363,0,0,0,-0.00400473,-0.0475775,-0.0342065,-0.407851,2.97363,0,0,0,0,0,0,0,0,0,0,-0.167204,0.0594468,0.0762799,-2.2,2.75569e-38,0,0,2,-0.00400473,-0.0475775,0,0,0,0,-0.0342065,-0.407851,1.9603e-19,0,0,0,0,0,0,0,0,0,1,0.0951551
6317,-1.76367,0,6.08203,-0.0192132,0.00698371,-3.90156e-05,0.193037,0.0163593,2.97371,0,0,0,-0.00655721,-0.0779889,-0.0429831,-0.512244,2.97371,0,0,0,0,0,0,0,0,0,0,-0.208275,0.054722,0.160174,-0.7,2.75569e-38,0,0,3,-0.00655721,-0.0779889,0,0,0,0,-0.0429831,-0.512244,1.9603e-19,0,0,0,0,0,0,0,0,0,1,0.155978
6330,-1.77246,0,2.02539,0.0081077,0.000210593,0.000502227,0.193037,0.0163466,2.97372,0,0,0,-0.00713055,-0.0848237,-0.0447838,-0.533966,2.97372,0,0,0,0,0,0,0,0,0,0,-0.217072,0.0536893,0.154852,-1.7,2.75569e-38,0,0,0,-0.00713055,-0.0848237,0,0,0,0,-0.0447838,-0.533966,1.9603e-19,0,0,0,0,0,0,0,0,0,1,0.169647
6344,-1.77246,0,-4.88184,0.0216552,-0.00114018,0.00175037,0.193373,0.0162829,2.97375,0,0,0,-0.00777463,-0.0925054,-0.0467126,-0.55722,2.97372,0,0,0,0,0,0,0,0,0,0,-0.226671,0.0525516,0.155511,-1.7,2.75569e-38,0,0,1,-0.00777463,-0.0925054,0,0,0,0,-0.0467126,-0.55722,1.9603e-19,0,0,0,0,0,0,0,0,0,1,0.185011
6360,-1.77246,0,-5.35547,0.000948817,0.00152658,0.00120737,0.193478,0.0162526,2.97376,0,0,0,-0.00854455,-0.101691,-0.0489205,-0.583672,2.97375,0,0,0,0,0,0,0,0,0,0,-0.237806,0.0512291,0.170553,-2.2,2.75569e-38,0,0,2,-0.00854455,-0.101691,0,0,0,0,-0.0489205,-0.583672,1.9603e-19,0,0,0,0,0,0,0,0,0,1,0.203382
6375,-1.77246,0,-1.6582,-0.0192091,0.00698048,-0.00109656,0.193204,0.0163118,2.97376,0,0,0,-0.00929776,-0.110678,-0.0509823,-0.60831,2.97376,0,0,0,0,0,0,0,0,0,0,-0.248393,0.0499614,0.183983,-0.7,2.75569e-38,0,0,3,-0.00929776,-0.110678,0,0,0,0,-0.0509823,-0.60831,1.9603e-19,0,0,0,0,0,0,0,0,0,1,0.221355
6393,-1.77246,0,4.44531,-0.00871198,0.0041512,-0.000136355,0.192974,0.0163554,2.97377,0,0,0,-0.0102455,-0.121987,-0.0534314,-0.637653,2.97376,0,0,0,0,0,0,0,0,0,0,-0.261303,0.0483941,0.170743,-1.7,2.75569e-38,0,0,0,-0.0102455,-0.121987,0,0,0,0,-0.0534314,-0.637653,1.9603e-19,0,0,0,0,0,0,0,0,0,1,0.243973
6409,-1.77246,0,0.110352,0.0126324,-0.000547303,0.000369878,0.193083,0.0163197,2.97379,0,0,0,-0.0110664,-0.131786,-0.0554352,-0.661859,2.97377,0,0,0,0,0,0,0,0,0,0,-0.272181,0.047063,0.170809,-1.7,2.75569e-38,0,0,1,-0.0110664,-0.131786,0,0,0,0,-0.0554352,-0.661859,1.9603e-19,0,0,0,0,0,0,0,0,0,1,0.263571
6424,-1.77246,0,-2.05859,0.0147518,-0.000232046,-1.64378e-05,0.193358,0.0162673,2.9738,0,0,0,-0.0119757,-0.142645,-0.0575621,-0.687511,2.97379,0,0,0,0,0,0,0,0,0,0,-0.283943,0.0456128,0.185783,-2.2,2.75569e-38,0,0,2,-0.0119757,-0.142645,0,0,0,0,-0.0575621,-0.687511,1.9603e-19,0,0,0,0,0,0,0,0,0,1,0.28529
6440,-1.77246,0,-2.05859,0.0147518,-0.000232046,-1.64378e-05,0.193358,0.0162673,2.9738,0,0,0,-0.0129183,-0.153905,-0.0596859,-0.713006,2.9738,0,0,0,0,0,0,0,0,0,0,-0.295864,0.0441355,0.197581,-0.7,2.75569e-38,0,0,3,-0.0129183,-0.153905,0,0,0,0,-0.0596859,-0.713006,1.9603e-19,0,0,0,0,0,0,0,0,0,1,0.307811
6455,-1.77246,0,-2.05859,0.0147518,-0.000232046,-1.64378e-05,0.193358,0.0162673,2.9738,0,0,0,-0.0138322,-0.164824,-0.061669,-0.736756,2.9738,0,0,0,0,0,0,0,0,0,0,-0.307183,0.042721,0.190169,-1.7,2.75569e-38,0,0,0,-0.0138322,-0.164824,0,0,0,0,-0.061669,-0.736756,1.9603e-19,0,0,0,0,0,0,0,0,0,1,0.329648
6471,-1.77246,0,0.917969,-0.015971,0.00418145,0.000537676,0.193082,0.0162841,2.97382,0,0,0,-0.0148403,-0.176869,-0.0637652,-0.761897,2.97382,0,0,0,0,0,0,0,0,0,0,-0.3194,0.0411904,0.19145,-1.7,2.75569e-38,0,0,1,-0.0148403,-0.176869,0,0,0,0,-0.0637652,-0.761897,1.9603e-19,0,0,0,0,0,0,0,0,0,1,0.353737
6486,-1.77051,0,5.41895,-0.00533584,0.00375991,-0.000597736,0.192905,0.016311,2.97383,0,0,0,-0.0158151,-0.188517,-0.0657069,-0.785266,2.97383,0,0,0,0,0,0,0,0,0,0,-0.330982,0.039723,0.201649,-2.2,2.75569e-38,0,0,2,-0.0158151,-0.188517,0,0,0,0,-0.0657069,-0.785266,1.9603e-19,0,0,0,0,0,0,0,0,0,1,0.377034
6502,-1.7373,0,-0.841797,0.0138385,-0.000311865,0.000783093,0.193048,0.0162685,2.97384,0,0,0,-0.0168194,-0.200521,-0.067635,-0.808474,2.97384,0,0,0,0,0,0,0,0,0,0,-0.342699,0.0382308,0.214948,-0.7,2.75569e-38,0,0,3,-0.0168194,-0.200521,0,0,0,0,-0.067635,-0.808474,1.9603e-19,0,0,0,0,0,0,0,0,0,1,0.401041
6516,-1.7041,0,6.94531,0.012418,-0.000339768,0.00176993,0.193257,0.0162161,2.97387,0,0,0,-0.017852,-0.212865,-0.0695612,-0.831549,2.97387,0,0,0,0,0,0,0,0,0,0,-0.354547,0.0367214,0.206272,-1.7,2.75569e-38,0,0,0,-0.017852,-0.212865,0,0,0,0,-0.0695612,-0.831549,1.9603e-19,0,0,0,0,0,0,0,0,0,1,0.42573
6531,-1.6709,0,1.5459,-0.00414611,0.00240096,-0.000229714,0.193259,0.0162104,2.97388,0,0,0,-0.0189135,-0.225554,-0.071481,-0.854485,2.97388,0,0,0,0,0,0,0,0,0,0,-0.366533,0.0351832,0.205696,-1.7,2.75569e-38,0,0,1,-0.0189135,-0.225554,0,0,0,0,-0.071481,-0.854485,1.9603e-19,0,0,0,0,0,0,0,0,0,1,0.451108
6546,-1.65527,0,-5.77051,-0.0168958,0.00460596,-0.00106952,0.192994,0.0162521,2.97389,0,0,0,-0.0200041,-0.238592,-0.073385,-0.877259,2.97389,0,0,0,0,0,0,0,0,0,0,-0.378652,0.0336176,0.218967,-2.2,2.75569e-38,0,0,2,-0.0200041,-0.238592,0,0,0,0,-0.073385,-0.877259,1.9603e-19,0,0,0,0,0,0,0,0,0,1,0.477183
6561,-1.65527,0,-7.3125,-0.00666138,0.00371917,-0.000192528,0.192762,0.0162762,2.97391,0,0,0,-0.0211231,-0.251969,-0.0752667,-0.899852,2.97389,0,0,0,0,0,0,0,0,0,0,-0.390894,0.0320222,0.232197,-0.7,2.75569e-38,0,0,3,-0.0211231,-0.251969,0,0,0,0,-0.0752667,-0.899852,1.9603e-19,0,0,0,0,0,0,0,0,0,1,0.503938
6576,-1.65527,0,-5.11621,0.0201679,-0.00193789,0.00118683,0.192985,0.0162245,2.97393,0,0,0,-0.0222701,-0.265684,-0.077126,-0.922259,2.97391,0,0,0,0,0,0,0,0,0,0,-0.403252,0.0304078,0.223458,-1.7,2.75569e-38,0,0,0,-0.0222701,-0.265684,0,0,0,0,-0.077126,-0.922259,1.9603e-19,0,0,0,0,0,0,0,0,0,1,0.531368
6591,-1.66797,0,-0.743164,0.0158323,-0.000714413,-0.000545153,0.193265,0.0161578,2.97393,0,0,0,-0.023445,-0.279733,-0.0789852,-0.944546,2.97393,0,0,0,0,0,0,0,0,0,0,-0.415746,0.0287726,0.222577,-1.7,2.75569e-38,0,0,1,-0.023445,-0.279733,0,0,0,0,-0.0789852,-0.944546,1.9603e-19,0,0,0,0,0,0,0,0,0,1,0.559467
6606,-1.66797,0,-0.743164,0.0158323,-0.000714413,-0.000545153,0.193265,0.0161578,2.97393,0,0,0,-0.0246477,-0.294116,-0.0808407,-0.966705,2.97393,0,0,0,0,0,0,0,0,0,0,-0.428374,0.0271075,0.23578,-2.2,2.75569e-38,0,0,2,-0.0246477,-0.294116,0,0,0,0,-0.0808407,-0.966705,1.9603e-19,0,0,0,0,0,0,0,0,0,1,0.588232
6622,-1.73438,0,-5.89746,-0.0119146,0.00402942,0.000190197,0.193158,0.0161712,2.97394,0,0,0,-0.0259613,-0.309823,-0.0828122,-0.99019,2.97394,0,0,0,0,0,0,0,0,0,0,-0.441988,0.0253059,0.250513,-0.7,2.75569e-38,0,0,3,-0.0259613,-0.309823,0,0,0,0,-0.0828122,-0.99019,1.9603e-19,0,0,0,0,0,0,0,0,0,1,0.619646
6637,-1.73438,0,-5.89746,-0.0119146,0.00402942,0.000190197,0.193158,0.0161712,2.97394,0,0,0,-0.0272207,-0.324881,-0.0846447,-1.01204,2.97394,0,0,0,0,0,0,0,0,0,0,-0.454874,0.0235897,0.244837,-1.7,2.75569e-38,0,0,0,-0.0272207,-0.324881,0,0,0,0,-0.0846447,-1.01204,1.9603e-19,0,0,0,0,0,0,0,0,0,1,0.649763
6653,-1.78516,0,4.31934,0.00695399,0.00164843,0.000777518,0.1928,0.0162313,2.97398,0,0,0,-0.0285948,-0.34131,-0.0865772,-1.03517,2.97398,0,0,0,0,0,0,0,0,0,0,-0.468746,0.0217499,0.245137,-1.7,2.75569e-38,0,0,1,-0.0285948,-0.34131,0,0,0,0,-0.0865772,-1.03517,1.9603e-19,0,0,0,0,0,0,0,0,0,1,0.68262
6668,-1.75977,0,5.95996,0.0183349,-0.001291,0.000193985,0.193073,0.0161749,2.97399,0,0,0,-0.0299103,-0.35704,-0.0883715,-1.05668,2.97399,0,0,0,0,0,0,0,0,0,0,-0.475609,0.0210452,0.258249,-2.2,2.75569e-38,0,0,2,-0.0299103,-0.35704,0,0,0,0,-0.0883715,-1.05668,1.9603e-19,0,0,0,0,0,0,0,0,0,1,0.71408
6683,-1.72656,0,-5.92383,0.00130122,0.0014006,0.00160544,0.19317,0.016135,2.97401,0,0,0,-0.0312527,-0.373092,-0.0901662,-1.07808,2.97401,0,0,0,0,0,0,0,0,0,0,-0.475679,0.0215005,0.271329,-0.7,2.75569e-38,0,0,3,-0.0312527,-0.373092,0,0,0,0,-0.0901662,-1.07808,1.9603e-19,0,0,0,0,0,0,0,0,0,1,0.746183
6701,-1.69336,0,1.8877,-0.0150538,0.00430643,-0.000136423,0.192946,0.0161626,2.97402,0,0,0,-0.0329011,-0.392799,-0.0923048,-1.10357,2.97402,0,0,0,0,0,0,0,0,0,0,-0.475766,0.0220329,0.260875,-1.7,2.75569e-38,0,0,0,-0.0329011,-0.392799,0,0,0,0,-0.0923048,-1.10357,1.9603e-19,0,0,0,0,0,0,0,0,0,1,0.785599
6715,-1.66016,0,-7.09473,-0.00716411,0.00289896,-0.00188228,0.192741,0.0161942,2.97402,0,0,0,-0.0341134,-0.407293,-0.0938287,-1.12181,2.97402,0,0,0,0,0,0,0,0,0,0,-0.475829,0.0224082,0.260362,-1.7,2.75569e-38,0,0,1,-0.0341134,-0.407293,0,0,0,0,-0.0938287,-1.12181,1.9603e-19,0,0,0,0,0,0,0,0,0,1,0.814587
6729,-1.63086,0,1.0957,0.0109043,0.000850354,0.00112445,0.192848,0.0161781,2.97404,0,0,0,-0.0354414,-0.423172,-0.0954558,-1.14133,2.97404,0,0,0,0,0,0,0,0,0,0,-0.475894,0.0228164,0.271849,-2.2,2.75569e-38,0,0,2,-0.0354414,-0.423172,0,0,0,0,-0.0954558,-1.14133,1.9603e-19,0,0,0,0,0,0,0,0,0,1,0.846343
6743,-1.63965,0,-6.55273,0.00676489,0.000136117,0.00150508,0.192982,0.0161422,2.97405,0,0,0,-0.0368901,-0.440493,-0.097192,-1.16212,2.97404,0,0,0,0,0,0,0,0,0,0,-0.475966,0.0232444,0.284868,-0.7,2.75569e-38,0,0,3,-0.0368901,-0.440493,0,0,0,0,-0.097192,-1.16212,1.9603e-19,0,0,0,0,0,0,0,0,0,1,0.880986
6759,-1.70605,0,5.67285,-0.00837561,0.00309333,0.00103697,0.192866,0.0161485,2.97407,0,0,0,-0.038464,-0.459312,-0.0990396,-1.18417,2.97405,0,0,0,0,0,0,0,0,0,0,-0.47604,0.0237078,0.274347,-1.7,2.75569e-38,0,0,0,-0.038464,-0.459312,0,0,0,0,-0.0990396,-1.18417,1.9603e-19,0,0,0,0,0,0,0,0,0,1,0.918624
6774,-1.77246,0,6.49609,-0.00161506,0.00202691,0.00102014,0.192745,0.016152,2.97409,0,0,0,-0.0399657,-0.477267,-0.100755,-1.20467,2.97407,0,0,0,0,0,0,0,0,0,0,-0.476108,0.0241395,0.274665,-1.7,2.75569e-38,0,0,1,-0.0399657,-0.477267,0,0,0,0,-0.100755,-1.20467,1.9603e-19,0,0,0,0,0,0,0,0,0,1,0.954534
6789,-1.77246,0,6.49609,-0.00161506,0.00202691,0.00102014,0.192745,0.016152,2.97409,0,0,0,-0.0414931,-0.495529,-0.102457,-1.22502,2.97409,0,0,0,0,0,0,0,0,0,0,-0.476175,0.0245688,0.286095,-2.2,2.75569e-38,0,0,2,-0.0414931,-0.495529,0,0,0,0,-0.102457,-1.22502,1.9603e-19,0,0,0,0,0,0,0,0,0,1,0.991058
6804,-1.77246,0,6.49609,-0.00161506,0.00202691,0.00102014,0.192745,0.016152,2.97409,0,0,0,-0.0430458,-0.514094,-0.104145,-1.24523,2.97409,0,0,0,0,0,0,0,0,0,0,-0.476245,0.024985,0.309656,-0.7,2.75569e-38,0,0,2,-0.0430458,-0.514094,0,0,0,0,-0.104145,-1.24523,1.9603e-19,0,0,0,0,0,0,0,0,0,1,1
6819,-1.75586,0,3.38672,0.00263723,0.00091371,-0.00120173,0.19302,0.0160861,2.97409,0,0,0,-0.0446243,-0.532967,-0.105829,-1.26532,2.97409,0,0,0,0,0,0,0,0,0,0,-0.476315,0.0254002,0.333218,-0.7,2.75569e-38,0,0,2,-0.0446243,-0.532967,0,0,0,0,-0.105829,-1.26532,1.9603e-19,0,0,0,0,0,0,0,0,0,1,1
6835,-1.72266,0,-2.0791,-0.0156466,0.00513029,-0.000229423,0.192825,0.0161148,2.97411,0,0,0,-0.0463358,-0.55343,-0.107619,-1.28662,2.97411,0,0,0,0,0,0,0,0,0,0,-0.476387,0.0258479,0.358351,-0.7,2.75569e-38,0,0,2,-0.0463358,-0.55343,0,0,0,0,-0.107619,-1.28662,1.9603e-19,0,0,0,0,0,0,0,0,0,1,1
6849,-1.68945,0,-4.57324,-0.0115339,0.0038623,0.000171989,0.192554,0.0161623,2.97412,0,0,0,-0.0478562,-0.571606,-0.109164,-1.30509,2.97412,0,0,0,0,0,0,0,0,0,0,-0.476449,0.0262349,0.380342,-0.7,2.75569e-38,0,0,2,-0.0478562,-0.571606,0,0,0,0,-0.109164,-1.30509,1.9603e-19,0,0,0,0,0,0,0,0,0,1,1
6865,-1.65625,0,-4.29199,0.00793509,0.00124652,0.000406245,0.192587,0.0161531,2.97413,0,0,0,-0.0496212,-0.592708,-0.11091,-1.32605,2.97413,0,0,0,0,0,0,0,0,0,0,-0.476519,0.0266713,0.405475,-0.7,2.75569e-38,0,0,2,-0.0496212,-0.592708,0,0,0,0,-0.11091,-1.32605,1.9603e-19,0,0,0,0,0,0,0,0,0,1,1
6880,-1.64355,0,-1.64844,0.0151433,0.000148549,0.00164973,0.19282,0.0161014,2.97415,0,0,0,-0.0513006,-0.612788,-0.11254,-1.34557,2.97415,0,0,0,0,0,0,0,0,0,0,-0.476583,0.0270825,0.429037,-0.7,2.75569e-38,0,0,2,-0.0513006,-0.612788,0,0,0,0,-0.11254,-1.34557,1.9603e-19,0,0,0,0,0,0,0,0,0,1,1
6895,-1.67676,0,4.36426,0.00147807,0.0021773,0.00165459,0.19289,0.0160776,2.97418,0,0,0,-0.0530045,-0.633159,-0.114169,-1.36498,2.97418,0,0,0,0,0,0,0,0,0,0,-0.476646,0.0274949,0.452599,-0.7,2.75569e-38,0,0,2,-0.0530045,-0.633159,0,0,0,0,-0.114169,-1.36498,1.9603e-19,0,0,0,0,0,0,0,0,0,1,1
6911,-1.70996,0,-5.18652,-0.00997078,0.0038793,-0.000425947,0.192742,0.0160934,2.9742,0,0,0,-0.0547327,-0.65382,-0.11579,-1.38426,2.9742,0,0,0,0,0,0,0,0,0,0,-0.47671,0.027905,0.476161,-0.7,2.75569e-38,0,0,2,-0.0547327,-0.65382,0,0,0,0,-0.11579,-1.38426,1.9603e-19,0,0,0,0,0,0,0,0,0,1,1
6924,-1.74316,0,0.602539,-0.00578153,0.00343432,0.000484926,0.192596,0.0161207,2.97422,0,0,0,-0.056367,-0.673359,-0.117288,-1.40213,2.9742,0,0,0,0,0,0,0,0,0,0,-0.476772,0.0282742,0.498152,-0.7,2.75569e-38,0,0,2,-0.056367,-0.673359,0,0,0,0,-0.117288,-1.40213,1.9603e-19,0,0,0,0,0,0,0,0,0,1,1
6938,-1.74316,0,0.602539,-0.00578153,0.00343432,0.000484926,0.192596,0.0161207,2.97422,0,0,0,-0.0580222,-0.693146,-0.118772,-1.41987,2.97422,0,0,0,0,0,0,0,0,0,0,-0.47683,0.0286487,0.520143,-0.7,2.75569e-38,0,0,2,-0.0580222,-0.693146,0,0,0,0,-0.118772,-1.41987,1.9603e-19,0,0,0,0,0,0,0,0,0,1,1
6953,-1.7627,0,-7.3623,0.00367643,0.000503147,0.000410452,0.192615,0.0160972,2.97423,0,0,0,-0.0598186,-0.714621,-0.120349,-1.43875,2.97423,0,0,0,0,0,0,0,0,0,0,-0.476893,0.0290428,0.543705,-0.7,2.75569e-38,0,0,2,-0.0598186,-0.714621,0,0,0,0,-0.120349,-1.43875,1.9603e-19,0,0,0,0,0,0,0,0,0,1,1
6968,-1.7627,0,2.71191,0.00594532,0.00126066,-0.000279759,0.192694,0.0160733,2.97424,0,0,0,-0.0616391,-0.736384,-0.12192,-1.4575,2.97424,0,0,0,0,0,0,0,0,0,0,-0.476957,0.0294341,0.567267,-0.7,2.75569e-38,0,0,2,-0.0616391,-0.736384,0,0,0,0,-0.12192,-1.4575,1.9603e-19,0,0,0,0,0,0,0,0,0,1,1
6983,-1.7627,0,2.30078,-0.00047853,0.00200176,0.000187092,0.192701,0.0160611,2.97423,0,0,0,-0.063483,-0.758427,-0.123485,-1.47614,2.97423,0,0,0,0,0,0,0,0,0,0,-0.477023,0.0298187,0.590828,-0.7,2.75569e-38,0,0,2,-0.063483,-0.758427,0,0,0,0,-0.123485,-1.47614,1.9603e-19,0,0,0,0,0,0,0,0,0,1,1
6998,-1.7627,0,2.30078,-0.00047853,0.00200176,0.000187092,0.192701,0.0160611,2.97423,0,0,0,-0.0653504,-0.780748,-0.125041,-1.49465,2.97423,0,0,0,0,0,0,0,0,0,0,-0.477088,0.0302022,0.61439,-0.7,2.75569e-38,0,0,2,-0.0653504,-0.780748,0,0,0,0,-0.125041,-1.49465,1.9603e-19,0,0,0,0,0,0,0,0,0,1,1
7014,-1.7627,0,-2.93457,-0.00142655,0.00258098,-0.000526709,0.192519,0.0160927,2.97426,0,0,0,-0.0673678,-0.804863,-0.126684,-1.51425,2.97426,0,0,0,0,0,0,0,0,0,0,-0.47715,0.030621,0.639523,-0.7,2.75569e-38,0,0,2,-0.0673678,-0.804863,0,0,0,0,-0.126684,-1.51425,1.9603e-19,0,0,0,0,0,0,0,0,0,1,1
7029,-1.74707,0,5.66895,0.00159678,0.00647859,0.00122222,0.192535,0.0161347,2.97429,0,0,0,-0.0692824,-0.827748,-0.128206,-1.53248,2.97429,0,0,0,0,0,0,0,0,0,0,-0.477207,0.0310104,0.663085,-0.7,2.75569e-38,0,0,2,-0.0692824,-0.827748,0,0,0,0,-0.128206,-1.53248,1.9603e-19,0,0,0,0,0,0,0,0,0,1,1
7044,-1.69922,0,2.00684,-0.00975469,0.0024968,0.000345054,0.19242,0.0161849,2.9743,0,0,0,-0.0712201,-0.850911,-0.12971,-1.55059,2.9743,0,0,0,0,0,0,0,0,0,0,-0.477268,0.031386,0.686647,-0.7,2.75569e-38,0,0,2,-0.0712201,-0.850911,0,0,0,0,-0.12971,-1.55059,1.9603e-19,0,0,0,0,0,0,0,0,0,1,1
7059,-1.69922,0,0.869141,0.0094325,0.00158737,-0.000147606,0.192384,0.0161429,2.97432,0,0,0,-0.0731801,-0.874343,-0.131197,-1.56856,2.9743,0,0,0,0,0,0,0,0,0,0,-0.47733,0.0317524,0.710209,-0.7,2.75569e-38,0,0,2,-0.0731801,-0.874343,0,0,0,0,-0.131197,-1.56856,1.9603e-19,0,0,0,0,0,0,0,0,0,1,1
7074,-1.69922,0,2.52344,0.0373848,-0.00549012,0.000143992,0.192934,0.0159998,2.97431,0,0,0,-0.0751624,-0.898044,-0.132678,-1.58641,2.97432,0,0,0,0,0,0,0,0,0,0,-0.477389,0.0321244,0.733771,-0.7,2.75569e-38,0,0,2,-0.0751624,-0.898044,0,0,0,0,-0.132678,-1.58641,1.9603e-19,0,0,0,0,0,0,0,0,0,1,1
7089,-1.78418,0,6.52246,-0.00948172,0.00185505,-7.40649e-05,0.193022,0.015974,2.97431,0,0,0,-0.0771671,-0.922013,-0.134184,-1.60421,2.97431,0,0,0,0,0,0,0,0,0,0,-0.477452,0.0324941,0.757333,-0.7,2.75569e-38,0,0,2,-0.0771671,-0.922013,0,0,0,0,-0.134184,-1.60421,1.9603e-19,0,0,0,0,0,0,0,0,0,1,1
7104,-1.78418,0,6.52246,-0.00948172,0.00185505,-7.40649e-05,0.193022,0.015974,2.97431,0,0,0,-0.0791944,-0.946247,-0.135683,-1.6219,2.97431,0,0,0,0,0,0,0,0,0,0,-0.477515,0.0328621,0.780894,-0.7,2.75569e-38,0,0,2,-0.0791944,-0.946247,0,0,0,0,-0.135683,-1.6219,1.9603e-19,0,0,0,0,0,0,0,0,0,1,1
7120,-1.79199,0,-3.50781,-0.044156,0.0128765,-6.16663e-05,0.192337,0.0161487,2.97434,0,0,0,-0.081382,-0.972395,-0.137257,-1.64061,2.97434,0,0,0,0,0,0,0,0,0,0,-0.477574,0.0332643,0.806027,-0.7,2.75569e-38,0,0,2,-0.081382,-0.972395,0,0,0,0,-0.137257,-1.64061,1.9603e-19,0,0,0,0,0,0,0,0,0,1,1
7134,-1.69238,0,0.301758,-0.0190809,0.00543926,0.000726453,0.191845,0.0162337,2.97437,0,0,0,-0.0833151,-0.995503,-0.138587,-1.65677,2.97437,0,0,0,0,0,0,0,0,0,0,-0.477623,0.033607,0.828018,-0.7,2.75569e-38,0,0,2,-0.0833151,-0.995503,0,0,0,0,-0.138587,-1.65677,1.9603e-19,0,0,0,0,0,0,0,0,0,1,1
7148,-1.69238,0,0.301758,-0.0190809,0.00543926,0.000726453,0.191845,0.0162337,2.97437,0,0,0,-0.0852667,-1.01884,-0.139897,-1.6728,2.97437,0,0,0,0,0,0,0,0,0,0,-0.477678,0.0339299,0.850009,-0.7,2.75569e-38,0,0,2,-0.0852667,-1.01884,0,0,0,0,-0.139897,-1.6728,1.9603e-19,0,0,0,0,0,0,0,0,0,1,1
7163,-1.69238,0,0.301758,-0.0190809,0.00543926,0.000726453,0.191845,0.0162337,2.97437,0,0,0,-0.0873786,-1.04409,-0.141291,-1.68987,2.97437,0,0,0,0,0,0,0,0,0,0,-0.477736,0.0342737,0.873571,-0.7,2.75569e-38,0,0,2,-0.0873786,-1.04409,0,0,0,0,-0.141291,-1.68987,1.9603e-19,0,0,0,0,0,0,0,0,0,1,1
7178,-1.7334,0,-5.25586,0.02765,-0.00143156,0.00141561,0.193314,0.0159157,2.9744,0,0,0,-0.0895115,-1.06961,-0.142698,-1.70688,2.9744,0,0,0,0,0,0,0,0,0,0,-0.477787,0.0346366,0.897133,-0.7,2.75569e-38,0,0,2,-0.0895115,-1.06961,0,0,0,0,-0.142698,-1.70688,1.9603e-19,0,0,0,0,0,0,0,0,0,1,1
7193,-1.87793,0,-5.40332,-0.0365072,0.00931336,0.000648821,0.192931,0.0160005,2.97444,0,0,0,-0.0916661,-1.09537,-0.144153,-1.72392,2.97444,0,0,0,0,0,0,0,0,0,0,-0.47784,0.035012,0.920695,-0.7,2.75569e-38,0,0,2,-0.0916661,-1.09537,0,0,0,0,-0.144153,-1.72392,1.9603e-19,0,0,0,0,0,0,0,0,0,1,1
7209,-1.80664,0,-0.474609,-0.0668206,0.0143192,-0.00290568,0.191858,0.0162263,2.97446,0,0,0,-0.0938421,-1.1214,-0.145578,-1.74079,2.97444,0,0,0,0,0,0,0,0,0,0,-0.4779,0.0353633,0.944257,-0.7,2.75569e-38,0,0,2,-0.0938421,-1.1214,0,0,0,0,-0.145578,-1.74079,1.9603e-19,0,0,0,0,0,0,0,0,0,1,1
7224,-1.65723,0,5.20996,-0.0288534,0.00459595,-0.000508446,0.19118,0.0162947,2.97447,0,0,0,-0.0961861,-1.14943,-0.147023,-1.75851,2.97446,0,0,0,0,0,0,0,0,0,0,-0.477955,0.0357294,0.96939,-0.7,2.75569e-38,0,0,2,-0.0961861,-1.14943,0,0,0,0,-0.147023,-1.75851,1.9603e-19,0,0,0,0,0,0,0,0,0,1,1
7239,-1.44336,-0.015625,0.152344,0.46134,0.0349514,0.521285,0.194824,0.0158691,2.97876,0,0,0,-0.0984039,-1.17596,-0.148342,-1.7749,2.97447,0,0,0,0,0,0,0,0,0,0,-0.478009,0.0360568,0.992952,-0.7,2.75569e-38,0,0,2,-0.0984039,-1.17596,0,0,0,0,-0.148342,-1.7749,1.9603e-19,0,0,0,0,0,0,0,0,0,1,1
7254,-1.44336,-0.015625,0.152344,0.46134,0.0349514,0.521285,0.194824,0.0158691,2.97876,0,0,0,-0.100642,-1.20274,-0.149666,-1.79147,2.97876,0,0,0,0,0,0,0,0,0,0,-0.477154,0.0384346,1.01651,-0.7,2.75569e-38,0,0,2,-0.100642,-1.20274,0,0,0,0,-0.149666,-1.79147,1.9603e-19,0,0,0,0,0,0,0,0,0,1,1
7269,-1.35938,-0.183594,-4.66406,1.35483,0.165501,1.11744,0.214861,0.0135236,2.99635,0,0,0,-0.1029,-1.22978,-0.151102,-1.80936,2.99635,0,0,0,0,0,0,0,0,0,0,-0.473387,0.0471515,1.04008,-0.7,2.75569e-38,0,0,2,-0.1029,-1.22978,0,0,0,0,-0.151102,-1.80936,1.9603e-19,0,0,0,0,0,0,0,0,0,1,1
7284,-2.81934,-0.389648,-6.70312,2.28244,0.17476,0.802116,0.254008,0.0134178,3.01315,0,0,0,-0.105182,-1.25712,-0.15278,-1.83126,3.01315,0,0,0,0,0,0,0,0,0,0,-0.469652,0.0554879,1.06364,-0.7,2.75569e-38,0,0,2,-0.105182,-1.25712,0,0,0,0,-0.15278,-1.83126,1.9603e-19,0,0,0,0,0,0,0,0,0,1,1
7299,-2.7168,0.0927734,-1.11621,0.152972,0.151076,0.629491,0.263135,0.0132676,3.02256,0,0,0,-0.107491,-1.28483,-0.154512,-1.8571,3.02256,0,0,0,0,0,0,0,0,0,0,-0.467519,0.0603263,1.0872,-0.7,2.75569e-38,0,0,2,-0.107491,-1.28483,0,0,0,0,-0.154512,-1.8571,1.9603e-19,0,0,0,0,0,0,0,0,0,1,1
7315,-2.40137,-0.267578,6.58594,0.00282936,0.10562,0.405699,0.262955,0.0131361,3.03058,0,0,0,-0.10998,-1.31484,-0.1561,-1.88536,3.03058,0,0,0,0,0,0,0,0,0,0,-0.465665,0.0644639,1.11233,-0.7,2.75569e-38,0,0,2,-0.10998,-1.31484,0,0,0,0,-0.1561,-1.88536,1.9603e-19,0,0,0,0,0,0,0,0,0,1,1
7330,-2.55566,0.700195,1.86328,-0.594556,0.0285778,0.0471141,0.255963,0.0130571,3.03212,0,0,0,-0.112334,-1.34336,-0.157347,-1.91124,3.03212,0,0,0,0,0,0,0,0,0,0,-0.46533,0.0654909,1.13589,-0.7,2.75569e-38,0,0,2,-0.112334,-1.34336,0,0,0,0,-0.157347,-1.91124,1.9603e-19,0,0,0,0,0,0,0,0,0,1,1
7346,-2.8418,0.616211,-2.81445,-1.1399,0.00997466,-0.00652705,0.238795,0.0132273,3.03195,0,0,0,-0.114863,-1.37421,-0.158426,-1.93678,3.03195,0,0,0,0,0,0,0,0,0,0,-0.465401,0.0656789,1.16103,-0.7,2.75569e-38,0,0,2,-0.114863,-1.37421,0,0,0,0,-0.158426,-1.93678,1.9603e-19,0,0,0,0,0,0,0,0,0,1,1
7360,-2.89648,-0.0361328,0.647461,-1.716,0.0221755,-0.00926017,0.213156,0.0135432,3.03192,0,0,0,-0.117087,-1.4015,-0.159146,-1.95711,3.03192,0,0,0,0,0,0,0,0,0,0,-0.465429,0.0658414,1.18302,-0.7,2.75569e-38,0,0,2,-0.117087,-1.4015,0,0,0,0,-0.159146,-1.95711,1.9603e-19,0,0,0,0,0,0,0,0,0,1,1
7375,-1.56543,0.246094,4.61621,-1.44008,0.149672,0.0283453,0.188486,0.0167403,3.03263,0,0,0,-0.119478,-1.43103,-0.159518,-1.97547,3.03192,0,0,0,0,0,0,0,0,0,0,-0.46544,0.0659339,1.20658,-0.7,2.75569e-38,0,0,2,-0.119478,-1.43103,0,0,0,0,-0.159518,-1.97547,1.9603e-19,0,0,0,0,0,0,0,0,0,1,1
7390,-0.376953,-0.0498047,-4.13574,-0.641837,0.0544723,-0.0066428,0.175551,0.0172836,3.03294,0,0,0,-0.121866,-1.4608,-0.158999,-1.9901,3.03263,0,0,0,0,0,0,0,0,0,0,-0.465254,0.0661367,1.23014,-0.7,2.75569e-38,0,0,2,-0.121866,-1.4608,0,0,0,0,-0.158999,-1.9901,1.9603e-19,0,0,0,0,0,0,0,0,0,1,1
7405,-0.138672,-0.00585938,3.22852,0.365495,-0.00945399,0.0102491,0.177855,0.0170873,3.03307,0,0,0,-0.124243,-1.49077,-0.158189,-2.00272,3.03294,0,0,0,0,0,0,0,0,0,0,-0.465157,0.0660805,1.25371,-0.7,2.75569e-38,0,0,2,-0.124243,-1.49077,0,0,0,0,-0.158189,-2.00272,1.9603e-19,0,0,0,0,0,0,0,0,0,1,1
7420,-0.138672,-0.00585938,3.22852,0.365495,-0.00945399,0.0102491,0.177855,0.0170873,3.03307,0,0,0,-0.126609,-1.52093,-0.157422,-2.01545,3.03307,0,0,0,0,0,0,0,0,0,0,-0.465105,0.0659499,1.27727,-0.7,2.75569e-38,0,0,2,-0.126609,-1.52093,0,0,0,0,-0.157422,-2.01545,1.9603e-19,0,0,0,0,0,0,0,0,0,1,1
7435,-0.710938,0.0126953,-2.22266,1.01536,-0.0560405,0.0208916,0.192288,0.0162036,3.03322,0,0,0,-0.128964,-1.55129,-0.156827,-2.02909,3.03322,0,0,0,0,0,0,0,0,0,0,-0.465052,0.0658738,1.30083,-0.7,2.75569e-38,0,0,2,-0.128964,-1.55129,0,0,0,0,-0.156827,-2.02909,1.9603e-19,0,0,0,0,0,0,0,0,0,1,1
7450,-1.81836,-0.0410156,-6.33301,1.00051,-0.153831,0.0338364,0.209241,0.0133774,3.03334,0,0,0,-0.131314,-1.58187,-0.156722,-2.0449,3.03334,0,0,0,0,0,0,0,0,0,0,-0.465021,0.0659027,1.32439,-0.7,2.75569e-38,0,0,2,-0.131314,-1.58187,0,0,0,0,-0.156722,-2.0449,1.9603e-19,0,0,0,0,0,0,0,0,0,1,1
7466,-3.20117,0.170898,6.44531,0.0689231,-0.0248612,-0.0613549,0.214493,0.0131824,3.03261,0,0,0,-0.133825,-1.61478,-0.157112,-2.0636,3.03261,0,0,0,0,0,0,0,0,0,0,-0.465207,0.0656599,1.34952,-0.7,2.75569e-38,0,0,2,-0.133825,-1.61478,0,0,0,0,-0.157112,-2.0636,1.9603e-19,0,0,0,0,0,0,0,0,0,1,1
7481,-3.02246,0.0595703,-6.28809,-0.669516,0.0992031,-0.0594869,0.204611,0.014088,3.03197,0,0,0,-0.136185,-1.6459,-0.157423,-2.08076,3.03197,0,0,0,0,0,0,0,0,0,0,-0.46537,0.0654375,1.37309,-0.7,2.75569e-38,0,0,2,-0.136185,-1.6459,0,0,0,0,-0.157423,-2.08076,1.9603e-19,0,0,0,0,0,0,0,0,0,1,1
7496,-1.7627,-0.0332031,-0.941406,-0.699293,0.0831181,-0.0702869,0.192326,0.0161413,3.03108,0,0,0,-0.138547,-1.67726,-0.157397,-2.09631,3.03108,0,0,0,0,0,0,0,0,0,0,-0.465581,0.0650194,1.39665,-0.7,2.75569e-38,0,0,2,-0.138547,-1.67726,0,0,0,0,-0.157397,-2.09631,1.9603e-19,0,0,0,0,0,0,0,0,0,1,1
7511,-0.902344,-0.0175781,3.79297,-0.168273,0.00293786,-0.0884051,0.187297,0.0163606,3.0297,0,0,0,-0.140905,-1.70884,-0.15706,-2.11043,3.0297,0,0,0,0,0,0,0,0,0,0,-0.465903,0.0642912,1.42021,-0.7,2.75569e-38,0,0,2,-0.140905,-1.70884,0,0,0,0,-0.15706,-2.11043,1.9603e-19,0,0,0,0,0,0,0,0,0,1,1
7526,-0.758789,-0.0234375,1.23926,0.448252,-0.0454676,-0.0607173,0.19223,0.0158992,3.0285,0,0,0,-0.143257,-1.74063,-0.156725,-2.12416,3.0285,0,0,0,0,0,0,0,0,0,0,-0.466179,0.0636492,1.44377,-0.7,2.75569e-38,0,0,2,-0.143257,-1.74063,0,0,0,0,-0.156725,-2.12416,1.9603e-19,0,0,0,0,0,0,0,0,0,1,1
7541,-1.36914,-0.0292969,-2.93457,0.681324,-0.123185,0.0256264,0.202805,0.0141548,3.02828,0,0,0,-0.145606,-1.77263,-0.156584,-2.13853,3.02828,0,0,0,0,0,0,0,0,0,0,-0.466227,0.0635126,1.46733,-0.7,2.75569e-38,0,0,2,-0.145606,-1.77263,0,0,0,0,-0.156584,-2.13853,1.9603e-19,0,0,0,0,0,0,0,0,0,1,1
7557,-2.23438,0.105469,-0.823242,0.365143,-0.0355675,-0.0472314,0.211598,0.0131004,3.02769,0,0,0,-0.148115,-1.80702,-0.156842,-2.15517,3.02828,0,0,0,0,0,0,0,0,0,0,-0.466234,0.0635765,1.49247,-0.7,2.75569e-38,0,0,2,-0.148115,-1.80702,0,0,0,0,-0.156842,-2.15517,1.9603e-19,0,0,0,0,0,0,0,0,0,1,1
7571,-2.40137,0.0341797,6.22559,0.0762079,-0.0043817,-0.0379111,0.21272,0.013079,3.02692,0,0,0,-0.150315,-1.83733,-0.157365,-2.17084,3.02769,0,0,0,0,0,0,0,0,0,0,-0.466389,0.0634318,1.51446,-0.7,2.75569e-38,0,0,2,-0.150315,-1.83733,0,0,0,0,-0.157365,-2.17084,1.9603e-19,0,0,0,0,0,0,0,0,0,1,1
7586,-2.40137,0.0341797,6.22559,0.0762079,-0.0043817,-0.0379111,0.21272,0.013079,3.02692,0,0,0,-0.152681,-1.87005,-0.157946,-2.18761,3.02692,0,0,0,0,0,0,0,0,0,0,-0.46659,0.0632145,1.53802,-0.7,2.75569e-38,0,0,2,-0.152681,-1.87005,0,0,0,0,-0.157946,-2.18761,1.9603e-19,0,0,0,0,0,0,0,0,0,1,1
7602,-1.80273,0,-1.4043,0.15176,0.0112205,0.0431303,0.214758,0.0130801,3.02722,0,0,0,-0.155215,-1.90524,-0.158597,-2.2056,3.02722,0,0,0,0,0,0,0,0,0,0,-0.466537,0.063516,1.56315,-0.7,2.75569e-38,0,0,2,-0.155215,-1.90524,0,0,0,0,-0.158597,-2.2056,1.9603e-19,0,0,0,0,0,0,0,0,0,1,1
7617,-1.68164,0,-2.50879,0.18069,0.0380618,0.159398,0.217561,0.0131142,3.02956,0,0,0,-0.157599,-1.93848,-0.159201,-2.22271,3.02956,0,0,0,0,0,0,0,0,0,0,-0.465995,0.0647591,1.58672,-0.7,2.75569e-38,0,0,2,-0.157599,-1.93848,0,0,0,0,-0.159201,-2.22271,1.9603e-19,0,0,0,0,0,0,0,0,0,1,1
7632,-1.7793,0,-2.13477,0.0614459,0.0539455,0.225584,0.219184,0.0131715,3.03309,0,0,0,-0.159993,-1.97199,-0.159745,-2.24003,3.03309,0,0,0,0,0,0,0,0,0,0,-0.465164,0.0665345,1.61028,-0.7,2.75569e-38,0,0,2,-0.159993,-1.97199,0,0,0,0,-0.159745,-2.24003,1.9603e-19,0,0,0,0,0,0,0,0,0,1,1
7647,-2.17285,0,0.492188,-0.0171974,0.0521904,0.1969,0.21957,0.0132589,3.03622,0,0,0,-0.162394,-2.00576,-0.160185,-2.25741,3.03622,0,0,0,0,0,0,0,0,0,0,-0.464419,0.0680999,1.63384,-0.7,2.75569e-38,0,0,2,-0.162394,-2.00576,0,0,0,0,-0.160185,-2.25741,1.9603e-19,0,0,0,0,0,0,0,0,0,1,1
7662,-2.17773,0,5.62305,-0.321378,0.0862271,0.367537,0.215326,0.0133136,3.04149,0,0,0,-0.1648,-2.03979,-0.160459,-2.27447,3.04149,0,0,0,0,0,0,0,0,0,0,-0.463141,0.0706112,1.6574,-0.7,2.75569e-38,0,0,2,-0.1648,-2.03979,0,0,0,0,-0.160459,-2.27447,1.9603e-19,0,0,0,0,0,0,0,0,0,1,1
7678,-2.23828,0,-2.37305,-0.261628,0.054615,0.196181,0.210274,0.0134942,3.04594,0,0,0,-0.167368,-2.07636,-0.160499,-2.29183,3.04594,0,0,0,0,0,0,0,0,0,0,-0.462046,0.0726814,1.68253,-0.7,2.75569e-38,0,0,2,-0.167368,-2.07636,0,0,0,0,-0.160499,-2.29183,1.9603e-19,0,0,0,0,0,0,0,0,0,1,1
7693,-1.84082,-0.0234375,-7.25,-0.0454214,-0.00481635,-0.0268209,0.209352,0.0134487,3.04569,0,0,0,-0.169774,-2.11089,-0.160387,-2.30749,3.04569,0,0,0,0,0,0,0,0,0,0,-0.462106,0.0725371,1.7061,-0.7,2.75569e-38,0,0,2,-0.169774,-2.11089,0,0,0,0,-0.160387,-2.30749,1.9603e-19,0,0,0,0,0,0,0,0,0,1,1
7709,-1.75879,-0.0175781,5.09766,-0.0429659,-0.0167165,-0.0892498,0.208417,0.0134969,3.04442,0,0,0,-0.172339,-2.14798,-0.160275,-2.32394,3.04442,0,0,0,0,0,0,0,0,0,0,-0.462417,0.0719207,1.73123,-0.7,2.75569e-38,0,0,2,-0.172339,-2.14798,0,0,0,0,-0.160275,-2.32394,1.9603e-19,0,0,0,0,0,0,0,0,0,1,1
7724,-1.85645,0,2.50879,0.00870421,-0.014216,-0.0625022,0.20863,0.0134707,3.04313,0,0,0,-0.174743,-2.18298,-0.16019,-2.33914,3.04313,0,0,0,0,0,0,0,0,0,0,-0.462732,0.0713046,1.75479,-0.7,2.75569e-38,0,0,2,-0.174743,-2.18298,0,0,0,0,-0.16019,-2.33914,1.9603e-19,0,0,0,0,0,0,0,0,0,1,1
7740,-1.95215,0,-3.09473,-0.0361627,-0.0107646,-0.0672491,0.208212,0.0134716,3.04218,0,0,0,-0.177305,-2.22057,-0.160144,-2.35528,3.04313,0,0,0,0,0,0,0,0,0,0,-0.462731,0.0712932,1.77992,-0.7,2.75569e-38,0,0,2,-0.177305,-2.22057,0,0,0,0,-0.160144,-2.35528,1.9603e-19,0,0,0,0,0,0,0,0,0,1,1
7755,-1.88086,0,-3.26367,-0.0489405,-0.0132653,-0.0578062,0.207265,0.0134148,3.04109,0,0,0,-0.179707,-2.25604,-0.160125,-2.37024,3.04218,0,0,0,0,0,0,0,0,0,0,-0.462963,0.0708483,1.80349,-0.7,2.75569e-38,0,0,2,-0.179707,-2.25604,0,0,0,0,-0.160125,-2.37024,1.9603e-19,0,0,0,0,0,0,0,0,0,1,1
7773,-2.01074,0,2.05078,-0.196648,0.00305055,-0.14506,0.204958,0.0136505,3.03912,0,0,0,-0.18259,-2.29891,-0.160135,-2.38789,3.04109,0,0,0,0,0,0,0,0,0,0,-0.463231,0.0703455,1.83176,-0.7,2.75569e-38,0,0,2,-0.18259,-2.29891,0,0,0,0,-0.160135,-2.38789,1.9603e-19,0,0,0,0,0,0,0,0,0,1,1
7787,-2.21484,0.0107422,-5.95703,-0.554254,0.0341469,-0.36698,0.197506,0.0150117,3.03437,0,0,0,-0.184831,-2.33246,-0.160134,-2.40119,3.03912,0,0,0,0,0,0,0,0,0,0,-0.463711,0.0694358,1.85375,-0.7,2.75569e-38,0,0,2,-0.184831,-2.33246,0,0,0,0,-0.160134,-2.40119,1.9603e-19,0,0,0,0,0,0,0,0,0,1,1
7802,-2.21484,0.0107422,-5.95703,-0.554254,0.0341469,-0.36698,0.197506,0.0150117,3.03437,0,0,0,-0.187073,-2.36619,-0.16004,-2.41383,3.03437,0,0,0,0,0,0,0,0,0,0,-0.464862,0.0672056,1.87574,-0.7,2.75569e-38,0,0,2,-0.187073,-2.36619,0,0,0,0,-0.16004,-2.41383,1.9603e-19,0,0,0,0,0,0,0,0,0,1,1
7817,-1.93945,0.0332031,6.65527,-0.443664,-0.0316571,-0.435722,0.189739,0.0160292,3.02795,0,0,0,-0.189631,-2.40496,-0.159817,-2.42723,3.02795,0,0,0,0,0,0,0,0,0,0,-0.466397,0.0641624,1.90088,-0.7,2.75569e-38,0,0,2,-0.189631,-2.40496,0,0,0,0,-0.159817,-2.42723,1.9603e-19,0,0,0,0,0,0,0,0,0,1,1
7832,-1.875,0.000976562,5.62891,-0.490607,-0.0691457,-0.625023,0.182328,0.0168524,3.01856,0,0,0,-0.192026,-2.44148,-0.159555,-2.43854,3.01856,0,0,0,0,0,0,0,0,0,0,-0.468609,0.0597068,1.92444,-0.7,2.75569e-38,0,0,2,-0.192026,-2.44148,0,0,0,0,-0.159555,-2.43854,1.9603e-19,0,0,0,0,0,0,0,0,0,1,1
7847,-2.01562,0.398438,6.80176,-0.68994,-0.070322,-0.693304,0.170676,0.0175708,3.00649,0,0,0,-0.194417,-2.47815,-0.159297,-2.44844,3.00649,0,0,0,0,0,0,0,0,0,0,-0.471394,0.0539668,1.948,-0.7,2.75569e-38,0,0,2,-0.194417,-2.47815,0,0,0,0,-0.159297,-2.44844,1.9603e-19,0,0,0,0,0,0,0,0,0,1,1
7862,-1.81348,0.730469,-4.5459,-0.382497,-0.0363631,-0.40518,0.163533,0.0176429,2.99854,0,0,0,-0.196804,-2.51496,-0.159051,-2.45683,2.99854,0,0,0,0,0,0,0,0,0,0,-0.473185,0.0501534,1.97156,-0.7,2.75569e-38,0,0,2,-0.196804,-2.51496,0,0,0,0,-0.159051,-2.45683,1.9603e-19,0,0,0,0,0,0,0,0,0,1,1
7878,-1.60645,-0.223633,1.62305,-0.530293,-0.0202004,-0.127351,0.155876,0.0180153,2.99576,0,0,0,-0.199346,-2.55436,-0.158746,-2.4645,2.99576,0,0,0,0,0,0,0,0,0,0,-0.473796,0.0487623,1.9967,-0.7,2.75569e-38,0,0,2,-0.199346,-2.55436,0,0,0,0,-0.158746,-2.4645,1.9603e-19,0,0,0,0,0,0,0,0,0,1,1
7893,-1.81934,-0.046875,-3.87012,-0.338933,0.00657945,0.0582611,0.149757,0.0182579,2.99651,0,0,0,-0.201723,-2.59138,-0.158317,-2.47072,2.99651,0,0,0,0,0,0,0,0,0,0,-0.473614,0.0490092,2.02026,-0.7,2.75569e-38,0,0,2,-0.201723,-2.59138,0,0,0,0,-0.158317,-2.47072,1.9603e-19,0,0,0,0,0,0,0,0,0,1,1
7908,-1.45801,-0.0527344,6.05957,0.0467116,0.0172908,0.178463,0.148992,0.0180902,2.99898,0,0,0,-0.204093,-2.6285,-0.157757,-2.47627,2.99898,0,0,0,0,0,0,0,0,0,0,-0.473039,0.050043,2.04382,-0.7,2.75569e-38,0,0,2,-0.204093,-2.6285,0,0,0,0,-0.157757,-2.47627,1.9603e-19,0,0,0,0,0,0,0,0,0,1,1
7923,-1.10742,-0.449219,1.88867,0.410413,0.0357615,0.244523,0.15457,0.018026,3.00272,0,0,0,-0.206454,-2.66569,-0.157178,-2.48193,3.00272,0,0,0,0,0,0,0,0,0,0,-0.472177,0.0516652,2.06738,-0.7,2.75569e-38,0,0,2,-0.206454,-2.66569,0,0,0,0,-0.157178,-2.48193,1.9603e-19,0,0,0,0,0,0,0,0,0,1,1
7939,-0.879883,-0.417969,-4.95801,0.899781,-0.0179658,0.30603,0.167185,0.0171414,3.00742,0,0,0,-0.208962,-2.70548,-0.156631,-2.4888,3.00742,0,0,0,0,0,0,0,0,0,0,-0.471092,0.0537438,2.09251,-0.7,2.75569e-38,0,0,2,-0.208962,-2.70548,0,0,0,0,-0.156631,-2.4888,1.9603e-19,0,0,0,0,0,0,0,0,0,1,1
7955,-0.689453,-0.150391,7.21387,0.878191,0.00175194,0.318002,0.181659,0.0163237,3.0123,0,0,0,-0.211466,-2.74538,-0.156376,-2.49762,3.0123,0,0,0,0,0,0,0,0,0,0,-0.469965,0.0559771,2.11765,-0.7,2.75569e-38,0,0,2,-0.211466,-2.74538,0,0,0,0,-0.156376,-2.49762,1.9603e-19,0,0,0,0,0,0,0,0,0,1,1
7970,-0.59668,0,2.67383,0.525083,0.0296232,0.335228,0.19141,0.0156843,3.01759,0,0,0,-0.213811,-2.78294,-0.156377,-2.5077,3.0123,0,0,0,0,0,0,0,0,0,0,-0.469965,0.0559775,2.14121,-0.7,2.75569e-38,0,0,2,-0.213811,-2.78294,0,0,0,0,-0.156377,-2.5077,1.9603e-19,0,0,0,0,0,0,0,0,0,1,1
7985,-0.958008,0.0898438,0.699219,0.464425,-0.0200156,0.31121,0.198584,0.0145451,3.02269,0,0,0,-0.216158,-2.82067,-0.156507,-2.51914,3.01759,0,0,0,0,0,0,0,0,0,0,-0.468741,0.0584963,2.16477,-0.7,2.75569e-38,0,0,2,-0.216158,-2.82067,0,0,0,0,-0.156507,-2.51914,1.9603e-19,0,0,0,0,0,0,0,0,0,1,1
7999,-0.958008,0.0898438,0.699219,0.464425,-0.0200156,0.31121,0.198584,0.0145451,3.02269,0,0,0,-0.218351,-2.85603,-0.156708,-2.53031,3.02269,0,0,0,0,0,0,0,0,0,0,-0.467554,0.0609323,2.18676,-0.7,2.75569e-38,0,0,2,-0.218351,-2.85603,0,0,0,0,-0.156708,-2.53031,1.9603e-19,0,0,0,0,0,0,0,0,0,1,1
8013,-1.65918,0.015625,2.07715,0.440661,-0.0325386,0.152922,0.205837,0.013248,3.02557,0,0,0,-0.220547,-2.89156,-0.157059,-2.54226,3.02557,0,0,0,0,0,0,0,0,0,0,-0.466884,0.0623651,2.20875,-0.7,2.75569e-38,0,0,2,-0.220547,-2.89156,0,0,0,0,-0.157059,-2.54226,1.9603e-19,0,0,0,0,0,0,0,0,0,1,1
8028,-2.18066,0.0498047,5.00098,0.0975546,0.0180244,0.092766,0.208534,0.013175,3.02684,0,0,0,-0.222908,-2.92983,-0.157571,-2.55574,3.02684,0,0,0,0,0,0,0,0,0,0,-0.466597,0.063086,2.23232,-0.7,2.75569e-38,0,0,2,-0.222908,-2.92983,0,0,0,0,-0.157571,-2.55574,1.9603e-19,0,0,0,0,0,0,0,0,0,1,1
8044,-1.91602,0.0166016,-2.81348,0.0915497,0.0136638,0.0691841,0.209688,0.0131368,3.02804,0,0,0,-0.225435,-2.97087,-0.158119,-2.57036,3.02804,0,0,0,0,0,0,0,0,0,0,-0.466328,0.0637805,2.25745,-0.7,2.75569e-38,0,0,2,-0.225435,-2.97087,0,0,0,0,-0.158119,-2.57036,1.9603e-19,0,0,0,0,0,0,0,0,0,1,1
8059,-1.4043,-0.00683594,5.63477,0.198468,0.0744429,0.316801,0.212369,0.0131991,3.03198,0,0,0,-0.227811,-3.00956,-0.158599,-2.58418,3.03198,0,0,0,0,0,0,0,0,0,0,-0.465399,0.0657357,2.28101,-0.7,2.75569e-38,0,0,2,-0.227811,-3.00956,0,0,0,0,-0.158599,-2.58418,1.9603e-19,0,0,0,0,0,0,0,0,0,1,1
8080,-1.33301,0.393555,2.2168,0.0346355,0.151966,0.685196,0.214163,0.0131255,0.0102319,0,0,0,-1.13194e-05,-0.000176125,-0.00139895,-0.00831388,0.0102319,0,0,0,0,0,0,0,0,0,0,-0.000395097,-0.424803,0,-1.7,2.75569e-38,0,0,0,-1.13194e-05,-0.000176125,0,0,0,0,-0.00139895,-0.00831388,1.9603e-19,0,0,0,0,0,0,0,0,0,1,0.00035225
8094,-1.93555,0.90332,2.22949,-0.493379,0.14224,0.541189,0.207871,0.0132818,0.0204477,0,0,0,-4.99513e-05,-3.86907e-05,-0.00366961,0.0208186,0.0204477,0,0,0,0,0,0,0,0,0,0,-0.0103145,-0.425203,0,-1.7,2.75569e-38,0,0,0,-4.99513e-05,-3.86907e-05,0,0,0,0,-0.00366961,0.0208186,1.9603e-19,0,0,0,0,0,0,0,0,0,1,7.73815e-05
8109,-2.73633,0.0576172,1.98535,-0.388823,0.0209059,-0.218818,0.201922,0.0140196,0.0197538,0,0,0,-0.000122736,0.000504784,-0.00609639,0.0490816,0.0197538,0,0,0,0,0,0,0,0,0,0,-0.0174886,-0.425672,0,-1.7,2.75569e-38,0,0,0,-0.000122736,0.000504784,0,0,0,0,-0.00609639,0.0490816,1.9603e-19,0,0,0,0,0,0,0,0,0,1,-0.00100957
8124,-2.14746,-0.724609,-1.67969,-0.223811,-0.0494751,-0.430427,0.196682,0.0149822,0.0121405,0,0,0,-0.000249732,0.00161979,-0.00887944,0.0802915,0.0121405,0,0,0,0,0,0,0,0,0,0,-0.0239432,-0.426392,0,-1.7,2.75569e-38,0,0,0,-0.000249732,0.00161979,0,0,0,0,-0.00887944,0.0802915,1.9603e-19,0,0,0,0,0,0,0,0,0,1,-0.00323958
8140,-2.14746,-0.724609,-1.67969,-0.223811,-0.0494751,-0.430427,0.196682,0.0149822,0.0121405,0,0,0,-0.000419213,0.00321426,-0.0115664,0.110661,0.0121405,0,0,0,0,0,0,0,0,0,0,-0.0323404,-0.426962,0,-1.7,2.75569e-38,0,0,0,-0.000419213,0.00321426,0,0,0,0,-0.0115664,0.110661,1.9603e-19,0,0,0,0,0,0,0,0,0,1,-0.00642852
8155,-1.38672,0.0175781,0.185547,0.240165,0.00766357,0.289568,0.203851,0.0133226,0.0128989,0,0,0,-0.000616866,0.00514812,-0.01404,0.139078,0.0128989,0,0,0,0,0,0,0,0,0,0,-0.0406103,-0.427452,0,-1.7,2.75569e-38,0,0,0,-0.000616866,0.00514812,0,0,0,0,-0.01404,0.139078,1.9603e-19,0,0,0,0,0,0,0,0,0,1,-0.0102962
8171,-1.90918,-0.150391,4.73828,-0.139507,0.11977,0.425063,0.203177,0.0135196,0.019748,0,0,0,-0.000866264,0.00769052,-0.0164671,0.170169,0.0128989,0,0,0,0,0,0,0,0,0,0,-0.0496615,-0.427942,0,-1.7,2.75569e-38,0,0,0,-0.000866264,0.00769052,0,0,0,0,-0.0164671,0.170169,1.9603e-19,0,0,0,0,0,0,0,0,0,1,-0.015381
8185,-2.33301,-0.494141,-5.56934,-0.537935,0.081048,0.219435,0.195055,0.0148347,0.0249063,0,0,0,-0.00111744,0.0103115,-0.0187938,0.197077,0.019748,0,0,0,0,0,0,0,0,0,0,-0.0594438,-0.428019,0,-1.7,2.75569e-38,0,0,0,-0.00111744,0.0103115,0,0,0,0,-0.0187938,0.197077,1.9603e-19,0,0,0,0,0,0,0,0,0,1,-0.020623
8200,-2.33301,-0.494141,-5.56934,-0.537935,0.081048,0.219435,0.195055,0.0148347,0.0249063,0,0,0,-0.00142417,0.0135416,-0.0214404,0.225065,0.0249063,0,0,0,0,0,0,0,0,0,0,-0.0693768,-0.428155,0,-1.7,2.75569e-38,0,0,0,-0.00142417,0.0135416,0,0,0,0,-0.0214404,0.225065,1.9603e-19,0,0,0,0,0,0,0,0,0,1,-0.0270832
8212,-2.15625,-0.300781,6.25391,-0.449837,-0.134424,-0.0324877,0.187443,0.0133198,0.0244764,0,0,0,-0.00169733,0.0164005,-0.0235555,0.246398,0.0244764,0,0,0,0,0,0,0,0,0,0,-0.0760415,-0.428548,0,-1.7,2.75569e-38,0,0,0,-0.00169733,0.0164005,0,0,0,0,-0.0235555,0.246398,1.9603e-19,0,0,0,0,0,0,0,0,0,1,-0.032801
8227,-1.23145,0.523438,3.58301,-0.103999,-0.151713,0.182093,0.184577,0.0100465,0.025518,0,0,0,-0.00207407,0.020347,-0.0258633,0.272182,0.025518,0,0,0,0,0,0,0,0,0,0,-0.0847373,-0.428831,0,-1.7,2.75569e-38,0,0,0,-0.00207407,0.020347,0,0,0,0,-0.0258633,0.272182,1.9603e-19,0,0,0,0,0,0,0,0,0,1,-0.0406939
8242,-1.3877,0.558594,6.94336,-0.151125,0.00573797,0.578928,0.182873,0.00817822,0.0332538,0,0,0,-0.00248137,0.0246747,-0.0278445,0.297436,0.0332538,0,0,0,0,0,0,0,0,0,0,-0.0951918,-0.428381,0,-1.7,2.75569e-38,0,0,0,-0.00248137,0.0246747,0,0,0,0,-0.0278445,0.297436,1.9603e-19,0,0,0,0,0,0,0,0,0,1,-0.0493495
8291,-1.35059,0.0341797,-3.91211,-0.351583,-0.331231,0.129517,0.165076,-0.00544081,0.0484718,0,0,0,-0.00410189,0.042594,-0.0335356,0.377858,0.0484718,0,0,0,0,0,0,0,0,0,0,-0.128145,-0.426916,0,-1.7,2.75569e-38,0,0,0,-0.00410189,0.042594,0,0,0,0,-0.0335356,0.377858,1.9603e-19,0,0,0,0,0,0,0,0,0,1,-0.0851879
8307,-0.850586,0.000976562,4.89453,0.0432451,-0.307933,0.342082,0.164516,-0.0109807,0.0519916,0,0,0,-0.00463948,0.0488768,-0.0334968,0.401097,0.0519916,0,0,0,0,0,0,0,0,0,0,-0.137971,-0.425988,0,-1.7,2.75569e-38,0,0,0,-0.00463948,0.0488768,0,0,0,0,-0.0334968,0.401097,1.9603e-19,0,0,0,0,0,0,0,0,0,1,-0.0977537
8322,-0.939453,0,-3.43359,0.337117,-0.221766,0.52624,0.169194,-0.0167448,0.0597972,0,0,0,-0.00513573,0.055103,-0.0327416,0.4229,0.0597972,0,0,0,0,0,0,0,0,0,0,-0.148468,-0.424204,0,-1.7,2.75569e-38,0,0,0,-0.00513573,0.055103,0,0,0,0,-0.0327416,0.4229,1.9603e-19,0,0,0,0,0,0,0,0,0,1,-0.110206
8337,-1.19922,0.0146484,-4.39844,0.388641,0.370609,0.47224,0.175138,-0.0150065,0.0679296,0,0,0,-0.00561551,0.0616555,-0.0315358,0.445103,0.0597972,0,0,0,0,0,0,0,0,0,0,-0.157261,-0.423375,0,-1.7,2.75569e-38,0,0,0,-0.00561551,0.0616555,0,0,0,0,-0.0315358,0.445103,1.9603e-19,0,0,0,0,0,0,0,0,0,1,-0.123311
8352,-1.60254,0.993164,0.345703,-0.00913513,1.44737,0.210153,0.177099,0.00284583,0.0756348,0,0,0,-0.00608216,0.0685477,-0.0308574,0.468028,0.0679296,0,0,0,0,0,0,0,0,0,0,-0.168425,-0.421296,0,-1.7,2.75569e-38,0,0,0,-0.00608216,0.0685477,0,0,0,0,-0.0308574,0.468028,1.9603e-19,0,0,0,0,0,0,0,0,0,1,-0.137095
8367,-2.87012,1.08105,-5.88281,-0.624146,0.000466181,0.201314,0.168454,0.0160306,0.079335,0,0,0,-0.00654842,0.0757828,-0.0319017,0.490854,0.0756348,0,0,0,0,0,0,0,0,0,0,-0.179639,-0.419547,0,-1.7,2.75569e-38,0,0,0,-0.00654842,0.0757828,0,0,0,0,-0.0319017,0.490854,1.9603e-19,0,0,0,0,0,0,0,0,0,1,-0.151566
8382,-2.87012,1.08105,-5.88281,-0.624146,0.000466181,0.201314,0.168454,0.0160306,0.079335,0,0,0,-0.00705407,0.0833544,-0.0352471,0.512695,0.079335,0,0,0,0,0,0,0,0,0,0,-0.189828,-0.418981,0,-1.7,2.75569e-38,0,0,0,-0.00705407,0.0833544,0,0,0,0,-0.0352471,0.512695,1.9603e-19,0,0,0,0,0,0,0,0,0,1,-0.166709
8397,-2.42773,0.738281,4.61914,-0.908318,-0.00687758,-0.122769,0.155064,0.0176389,0.0790296,0,0,0,-0.0076215,0.0912391,-0.0393776,0.532878,0.0790296,0,0,0,0,0,0,0,0,0,0,-0.198795,-0.419359,0,-1.7,2.75569e-38,0,0,0,-0.0076215,0.0912391,0,0,0,0,-0.0393776,0.532878,1.9603e-19,0,0,0,0,0,0,0,0,0,1,-0.182478
8411,-1.6709,0.625,4.8252,-1.09813,0.000848034,-0.672758,0.137119,0.0191085,0.0694725,0,0,0,-0.00820675,0.0988523,-0.0431666,0.549545,0.0694725,0,0,0,0,0,0,0,0,0,0,-0.204465,-0.421639,0,-1.7,2.75569e-38,0,0,0,-0.00820675,0.0988523,0,0,0,0,-0.0431666,0.549545,1.9603e-19,0,0,0,0,0,0,0,0,0,1,-0.197705
8427,-0.793945,0.672852,4.37012,-1.11114,-0.0198222,-0.766902,0.11933,0.0201026,0.0573634,0,0,0,-0.00894104,0.107823,-0.0472539,0.565836,0.0573634,0,0,0,0,0,0,0,0,0,0,-0.210059,-0.424626,0,-1.7,2.75569e-38,0,0,0,-0.00894104,0.107823,0,0,0,0,-0.0472539,0.565836,1.9603e-19,0,0,0,0,0,0,0,0,0,1,-0.215646
8441,-0.490234,0.44043,6.94336,-0.909336,-0.0581434,-0.718724,0.103631,0.0205701,0.0458081,0,0,0,-0.00963241,0.115853,-0.0505624,0.577571,0.0458081,0,0,0,0,0,0,0,0,0,0,-0.214134,-0.427545,0,-1.7,2.75569e-38,0,0,0,-0.00963241,0.115853,0,0,0,0,-0.0505624,0.577571,1.9603e-19,0,0,0,0,0,0,0,0,0,1,-0.231707
8455,-0.395508,0.302734,-5.41797,-0.650923,-0.0312768,-0.729564,0.0917727,0.020791,0.0340611,0,0,0,-0.0103682,0.124031,-0.0536939,0.587794,0.0340611,0,0,0,0,0,0,0,0,0,0,-0.217814,-0.430599,0,-1.7,2.75569e-38,0,0,0,-0.0103682,0.124031,0,0,0,0,-0.0536939,0.587794,1.9603e-19,0,0,0,0,0,0,0,0,0,1,-0.248063
8470,-0.392578,0.643555,1.54883,-0.268093,-0.0168961,-0.575365,0.0857416,0.020558,0.023598,0,0,0,-0.0112042,0.13294,-0.0568505,0.597215,0.0340611,0,0,0,0,0,0,0,0,0,0,-0.224646,-0.431156,0,-1.7,2.75569e-38,0,0,0,-0.0112042,0.13294,0,0,0,0,-0.0568505,0.597215,1.9603e-19,0,0,0,0,0,0,0,0,0,1,-0.265879
8485,-0.380859,0.84082,7.20312,-0.125945,-0.052516,-0.379315,0.0834743,0.0201777,0.0171407,0,0,0,-0.0120854,0.14198,-0.0597894,0.605721,0.023598,0,0,0,0,0,0,0,0,0,0,-0.22861,-0.43407,0,-1.7,2.75569e-38,0,0,0,-0.0120854,0.14198,0,0,0,0,-0.0597894,0.605721,1.9603e-19,0,0,0,0,0,0,0,0,0,1,-0.28396
8500,-0.398438,0.263672,-1.96875,-0.164809,-0.0522617,-0.261076,0.0810481,0.0198622,0.0128239,0,0,0,-0.0130091,0.151145,-0.0625654,0.613858,0.0171407,0,0,0,0,0,0,0,0,0,0,-0.233556,-0.436121,0,-1.7,2.75569e-38,0,0,0,-0.0130091,0.151145,0,0,0,0,-0.0625654,0.613858,1.9603e-19,0,0,0,0,0,0,0,0,0,1,-0.302289
8515,-0.398438,0.263672,-1.96875,-0.164809,-0.0522617,-0.261076,0.0810481,0.0198622,0.0128239,0,0,0,-0.0139732,0.160427,-0.0652599,0.621733,0.0128239,0,0,0,0,0,0,0,0,0,0,-0.239043,-0.437716,0,-1.7,2.75569e-38,0,0,0,-0.0139732,0.160427,0,0,0,0,-0.0652599,0.621733,1.9603e-19,0,0,0,0,0,0,0,0,0,1,-0.320855
8530,-0.374023,-0.658203,-2.59277,-0.304577,-0.0776882,-0.298305,0.0764952,0.0191082,0.00828959,0,0,0,-0.0149766,0.169825,-0.0678262,0.629156,0.00828959,0,0,0,0,0,0,0,0,0,0,-0.244406,-0.439384,0,-1.7,2.75569e-38,0,0,0,-0.0149766,0.169825,0,0,0,0,-0.0678262,0.629156,1.9603e-19,0,0,0,0,0,0,0,0,0,1,-0.33965
8545,-0.304688,-1.26562,-0.376953,-0.297944,-0.0294134,-0.33162,0.0711471,0.0185513,0.00249586,0,0,0,-0.0160167,0.179326,-0.0702028,0.635775,0.00249586,0,0,0,0,0,0,0,0,0,0,-0.249274,-0.441374,0,-1.7,2.75569e-38,0,0,0,-0.0160167,0.179326,0,0,0,0,-0.0702028,0.635775,1.9603e-19,0,0,0,0,0,0,0,0,0,1,-0.358652
8560,-0.40332,-1.65723,3.27051,-0.245316,-0.0761648,-0.153621,0.0668058,0.0189901,-0.000905559,0,0,0,-0.0170913,0.188919,-0.0724973,0.641646,-0.000905559,0,0,0,0,0,0,0,0,0,0,-0.254628,-0.442799,0,-1.7,2.75569e-38,0,0,0,-0.0170913,0.188919,0,0,0,0,-0.0724973,0.641646,1.9603e-19,0,0,0,0,0,0,0,0,0,1,-0.377839
8575,-0.616211,-1.15723,-6.76758,-0.138168,-0.0487778,0.121569,0.0644793,0.0188707,7.74484e-05,0,0,0,-0.0182003,0.198595,-0.0747885,0.647003,7.74484e-05,0,0,0,0,0,0,0,0,0,0,-0.261069,-0.443121,0,-1.7,2.75569e-38,0,0,0,-0.0182003,0.198595,0,0,0,0,-0.0747885,0.647003,1.9603e-19,0,0,0,0,0,0,0,0,0,1,-0.39719
8590,-0.577148,-0.553711,-0.65332,-0.159468,0.0255617,0.343458,0.0622268,0.0187832,0.00477025,0,0,0,-0.0193441,0.208349,-0.0770675,0.652027,0.00477025,0,0,0,0,0,0,0,0,0,0,-0.268463,-0.442434,0,-1.7,2.75569e-38,0,0,0,-0.0193441,0.208349,0,0,0,0,-0.0770675,0.652027,1.9603e-19,0,0,0,0,0,0,0,0,0,1,-0.416699
8606,-0.239258,-0.313477,-6.8623,-0.0897335,0.0197202,0.439193,0.0603161,0.0186244,0.0123572,0,0,0,-0.0205223,0.218175,-0.0793643,0.656683,0.0123572,0,0,0,0,0,0,0,0,0,0,-0.276572,-0.440888,0,-1.7,2.75569e-38,0,0,0,-0.0205223,0.218175,0,0,0,0,-0.0793643,0.656683,1.9603e-19,0,0,0,0,0,0,0,0,0,1,-0.436351
8620,-0.0839844,-0.0126953,2.93066,-0.0351664,0.00255621,0.345429,0.0598293,0.0181557,0.0178976,0,0,0,-0.0217352,0.228068,-0.0816736,0.661076,0.0178976,0,0,0,0,0,0,0,0,0,0,-0.284098,-0.439821,0,-1.7,2.75569e-38,0,0,0,-0.0217352,0.228068,0,0,0,0,-0.0816736,0.661076,1.9603e-19,0,0,0,0,0,0,0,0,0,1,-0.456137
8636,-0.145508,0.0136719,0.791016,0.0411226,-0.0057022,0.286982,0.0601904,0.0177242,0.0225189,0,0,0,-0.0230667,0.238692,-0.0841001,0.665648,0.0178976,0,0,0,0,0,0,0,0,0,0,-0.290563,-0.440312,0,-1.7,2.75569e-38,0,0,0,-0.0230667,0.238692,0,0,0,0,-0.0841001,0.665648,1.9603e-19,0,0,0,0,0,0,0,0,0,1,-0.477384
8650,-0.363281,-0.0488281,-1.14453,-0.0521359,-0.0289797,0.170409,0.0599193,0.0172494,0.0254999,0,0,0,-0.0242622,0.248046,-0.0861881,0.66966,0.0225189,0,0,0,0,0,0,0,0,0,0,-0.297478,-0.43936,0,-1.7,2.75569e-38,0,0,0,-0.0242622,0.248046,0,0,0,0,-0.0861881,0.66966,1.9603e-19,0,0,0,0,0,0,0,0,0,1,-0.496092
8664,-0.363281,-0.0488281,-1.14453,-0.0521359,-0.0289797,0.170409,0.0599193,0.0172494,0.0254999,0,0,0,-0.0254871,0.257456,-0.0882393,0.673622,0.0254999,0,0,0,0,0,0,0,0,0,0,-0.303974,-0.43884,0,-1.7,2.75569e-38,0,0,0,-0.0254871,0.257456,0,0,0,0,-0.0882393,0.673622,1.9603e-19,0,0,0,0,0,0,0,0,0,1,-0.514913
8680,-0.501953,-0.0595703,0.649414,-0.233193,-0.0276463,0.116956,0.0568791,0.016683,0.0274348,0,0,0,-0.0268315,0.267601,-0.0903722,0.67764,0.0274348,0,0,0,0,0,0,0,0,0,0,-0.310574,-0.438617,0,-1.7,2.75569e-38,0,0,0,-0.0268315,0.267601,0,0,0,0,-0.0903722,0.67764,1.9603e-19,0,0,0,0,0,0,0,0,0,1,-0.535201
8694,-0.364258,-0.321289,0.996094,-0.265563,-0.014418,0.241885,0.0519396,0.0161017,0.0307686,0,0,0,-0.028207,0.2778,-0.0924114,0.681068,0.0307686,0,0,0,0,0,0,0,0,0,0,-0.317422,-0.437907,0,-1.7,2.75569e-38,0,0,0,-0.028207,0.2778,0,0,0,0,-0.0924114,0.681068,1.9603e-19,0,0,0,0,0,0,0,0,0,1,-0.5556
8709,-0.0556641,-0.374023,1.4082,0.00799643,0.0570775,0.331514,0.0511549,0.0168896,0.036007,0,0,0,-0.0296125,0.288045,-0.094449,0.68398,0.036007,0,0,0,0,0,0,0,0,0,0,-0.324663,-0.436539,0,-1.7,2.75569e-38,0,0,0,-0.0296125,0.288045,0,0,0,0,-0.094449,0.68398,1.9603e-19,0,0,0,0,0,0,0,0,0,1,-0.576089
8724,-0.249023,-0.213867,-4.02441,0.166993,0.0183605,0.232694,0.0535669,0.0172887,0.040211,0,0,0,-0.0310499,0.298332,-0.0966051,0.686929,0.040211,0,0,0,0,0,0,0,0,0,0,-0.33166,-0.435474,0,-1.7,2.75569e-38,0,0,0,-0.0310499,0.298332,0,0,0,0,-0.0966051,0.686929,1.9603e-19,0,0,0,0,0,0,0,0,0,1,-0.596664
8739,-0.492188,0.345703,-5.90137,0.121985,-0.0304501,0.0562064,0.0559201,0.0170938,0.0415841,0,0,0,-0.0325203,0.308667,-0.0988083,0.690155,0.0415841,0,0,0,0,0,0,0,0,0,0,-0.338009,-0.43532,0,-1.7,2.75569e-38,0,0,0,-0.0325203,0.308667,0,0,0,0,-0.0988083,0.690155,1.9603e-19,0,0,0,0,0,0,0,0,0,1,-0.617333
8754,-0.428711,0.535156,7.2002,-0.107413,0.0164457,0.00619784,0.0546052,0.0167052,0.0417329,0,0,0,-0.0340235,0.319052,-0.100977,0.693558,0.0417329,0,0,0,0,0,0,0,0,0,0,-0.344109,-0.43556,0,-1.7,2.75569e-38,0,0,0,-0.0340235,0.319052,0,0,0,0,-0.100977,0.693558,1.9603e-19,0,0,0,0,0,0,0,0,0,1,-0.638104
8769,-0.428711,0.535156,7.2002,-0.107413,0.0164457,0.00619784,0.0546052,0.0167052,0.0417329,0,0,0,-0.035558,0.329486,-0.103084,0.696798,0.0417329,0,0,0,0,0,0,0,0,0,0,-0.350153,-0.435834,0,-1.7,2.75569e-38,0,0,0,-0.035558,0.329486,0,0,0,0,-0.103084,0.696798,1.9603e-19,0,0,0,0,0,0,0,0,0,1,-0.658972
8785,-0.193359,0.15332,-6.75977,-0.077762,0.00486405,0.0668649,0.0513343,0.0165603,0.0426184,0,0,0,-0.0372301,0.34067,-0.105316,0.700231,0.0417329,0,0,0,0,0,0,0,0,0,0,-0.356621,-0.436123,0,-1.7,2.75569e-38,0,0,0,-0.0372301,0.34067,0,0,0,0,-0.105316,0.700231,1.9603e-19,0,0,0,0,0,0,0,0,0,1,-0.68134
8800,-0.15625,-0.0410156,-2.92871,-0.0203667,0.0151902,0.145829,0.0508618,0.0165873,0.0445579,0,0,0,-0.0387215,0.350496,-0.107223,0.702764,0.0426184,0,0,0,0,0,0,0,0,0,0,-0.362414,-0.436047,0,-1.7,2.75569e-38,0,0,0,-0.0387215,0.350496,0,0,0,0,-0.107223,0.702764,1.9603e-19,0,0,0,0,0,0,0,0,0,1,-0.700991
8817,-0.185547,-0.273438,1.78516,-0.0816214,0.0199303,0.276354,0.0499272,0.0168102,0.0488825,0,0,0,-0.0405705,0.362477,-0.109532,0.70578,0.0445579,0,0,0,0,0,0,0,0,0,0,-0.369684,-0.43562,0,-1.7,2.75569e-38,0,0,0,-0.0405705,0.362477,0,0,0,0,-0.109532,0.70578,1.9603e-19,0,0,0,0,0,0,0,0,0,1,-0.724954
8832,-0.243164,-0.0644531,-6.49414,-0.185832,0.0166841,0.26415,0.0473493,0.0165849,0.0531972,0,0,0,-0.0423459,0.373798,-0.111728,0.708474,0.0488825,0,0,0,0,0,0,0,0,0,0,-0.377163,-0.434257,0,-1.7,2.75569e-38,0,0,0,-0.0423459,0.373798,0,0,0,0,-0.111728,0.708474,1.9603e-19,0,0,0,0,0,0,0,0,0,1,-0.747597
8846,-0.243164,-0.0644531,-6.49414,-0.185832,0.0166841,0.26415,0.0473493,0.0165849,0.0531972,0,0,0,-0.0439267,0.383735,-0.113649,0.710511,0.0531972,0,0,0,0,0,0,0,0,0,0,-0.383776,-0.432816,0,-1.7,2.75569e-38,0,0,0,-0.0439267,0.383735,0,0,0,0,-0.113649,0.710511,1.9603e-19,0,0,0,0,0,0,0,0,0,1,-0.767471
8860,-0.21875,0.12207,2.56738,-0.259842,-0.0150623,0.117386,0.0434998,0.0162827,0.0556893,0,0,0,-0.0455341,0.393698,-0.115523,0.712139,0.0556893,0,0,0,0,0,0,0,0,0,0,-0.389825,-0.432027,0,-1.7,2.75569e-38,0,0,0,-0.0455341,0.393698,0,0,0,0,-0.115523,0.712139,1.9603e-19,0,0,0,0,0,0,0,0,0,1,-0.787395
8874,-0.266602,0.222656,-1.6543,-0.306109,-0.0126291,-0.0331546,0.0386432,0.015938,0.0554858,0,0,0,-0.0471676,0.403678,-0.117321,0.713208,0.0554858,0,0,0,0,0,0,0,0,0,0,-0.395047,-0.432263,0,-1.7,2.75569e-38,0,0,0,-0.0471676,0.403678,0,0,0,0,-0.117321,0.713208,1.9603e-19,0,0,0,0,0,0,0,0,0,1,-0.807357
8889,-0.364258,0.313477,-7.28906,-0.296817,-0.0173263,-0.00817685,0.0334933,0.0156267,0.0550425,0,0,0,-0.0489453,0.414382,-0.119147,0.71364,0.0550425,0,0,0,0,0,0,0,0,0,0,-0.40041,-0.432594,0,-1.7,2.75569e-38,0,0,0,-0.0489453,0.414382,0,0,0,0,-0.119147,0.71364,1.9603e-19,0,0,0,0,0,0,0,0,0,1,-0.828765
8905,-0.166016,0.0351562,3.1582,-0.268661,-0.0223062,0.00726905,0.0290544,0.0153245,0.0551968,0,0,0,-0.0507494,0.425086,-0.120885,0.713446,0.0551968,0,0,0,0,0,0,0,0,0,0,-0.405769,-0.432673,0,-1.7,2.75569e-38,0,0,0,-0.0507494,0.425086,0,0,0,0,-0.120885,0.713446,1.9603e-19,0,0,0,0,0,0,0,0,0,1,-0.850173
8919,0.0107422,0.00878906,-5.36816,-0.199485,-0.0156744,0.0146025,0.0256781,0.0149768,0.05536,0,0,0,-0.0525788,0.435781,-0.122543,0.712711,0.05536,0,0,0,0,0,0,0,0,0,0,-0.41099,-0.432735,0,-1.7,2.75569e-38,0,0,0,-0.0525788,0.435781,0,0,0,0,-0.122543,0.712711,1.9603e-19,0,0,0,0,0,0,0,0,0,1,-0.871563
8934,0,0,2.25879,-0.123025,0.00648309,0.004755,0.0233929,0.0149424,0.0555467,0,0,0,-0.0544323,0.446461,-0.124122,0.711554,0.05536,0,0,0,0,0,0,0,0,0,0,-0.416054,-0.43285,0,-1.7,2.75569e-38,0,0,0,-0.0544323,0.446461,0,0,0,0,-0.124122,0.711554,1.9603e-19,0,0,0,0,0,0,0,0,0,1,-0.892922
8949,0,0,-5.40137,0.0167876,0.0548247,-0.0703828,0.0231517,0.0156071,0.0547332,0,0,0,-0.0563091,0.45712,-0.125667,0.71007,0.0555467,0,0,0,0,0,0,0,0,0,0,-0.421075,-0.432883,0,-1.7,2.75569e-38,0,0,0,-0.0563091,0.45712,0,0,0,0,-0.125667,0.71007,1.9603e-19,0,0,0,0,0,0,0,0,0,1,-0.91424
8964,0,0,-5.40137,0.0167876,0.0548247,-0.0703828,0.0231517,0.0156071,0.0547332,0,0,0,-0.0582092,0.467757,-0.127252,0.708576,0.0547332,0,0,0,0,0,0,0,0,0,0,-0.425824,-0.43335,0,-1.7,2.75569e-38,0,0,0,-0.0582092,0.467757,0,0,0,0,-0.127252,0.708576,1.9603e-19,0,0,0,0,0,0,0,0,0,1,-0.935513
8979,0,0.0302734,5.11914,0.0702199,0.045801,-0.141197,0.0242259,0.0163795,0.0525303,0,0,0,-0.0601334,0.478371,-0.128922,0.707146,0.0525303,0,0,0,0,0,0,0,0,0,0,-0.430217,-0.434445,0,-1.7,2.75569e-38,0,0,0,-0.0601334,0.478371,0,0,0,0,-0.128922,0.707146,1.9603e-19,0,0,0,0,0,0,0,0,0,1,-0.956743
8995,0,0.621094,0.998047,-0.144872,0.0359485,-0.223395,0.0229969,0.0167926,0.0494821,0,0,0,-0.062215,0.489671,-0.130776,0.70564,0.0494821,0,0,0,0,0,0,0,0,0,0,-0.434712,-0.435957,0,-1.7,2.75569e-38,0,0,0,-0.062215,0.489671,0,0,0,0,-0.130776,0.70564,1.9603e-19,0,0,0,0,0,0,0,0,0,1,-0.979342
9010,0,0.859375,-0.773438,-0.440532,0.0983649,-0.41865,0.0166817,0.018051,0.0437256,0,0,0,-0.0641933,0.50024,-0.132575,0.70377,0.0437256,0,0,0,0,0,0,0,0,0,0,-0.437912,-0.438699,0,-1.7,2.75569e-38,0,0,0,-0.0641933,0.50024,0,0,0,0,-0.132575,0.70377,1.9603e-19,0,0,0,0,0,0,0,0,0,1,-1
9025,0.0126953,0.424805,0.37207,-0.601901,-0.0208584,-0.62752,0.00723819,0.018558,0.0343356,0,0,0,-0.0662,0.510771,-0.134439,0.700816,0.0343356,0,0,0,0,0,0,0,0,0,0,-0.434689,-0.44329,0,-1.7,2.75569e-38,0,0,0,-0.0662,0.510771,0,0,0,0,-0.134439,0.700816,1.9603e-19,0,0,0,0,0,0,0,0,0,1,-1
9041,-0.00292969,0.238281,-0.716797,-0.627019,-0.0186031,-0.769291,-0.00412545,0.0183368,0.0213875,0,0,0,-0.068371,0.52194,-0.136378,0.696054,0.0213875,0,0,0,0,0,0,0,0,0,0,-0.429992,-0.449406,0,-1.7,2.75569e-38,0,0,0,-0.068371,0.52194,0,0,0,0,-0.136378,0.696054,1.9603e-19,0,0,0,0,0,0,0,0,0,1,-1
9054,-0.0361328,-0.116211,6.90625,-0.432482,-0.242688,-0.539604,-0.011891,0.0153593,0.011563,0,0,0,-0.0701555,0.530949,-0.137726,0.690972,0.011563,0,0,0,0,0,0,0,0,0,0,-0.426004,-0.453969,0,-1.7,2.75569e-38,0,0,0,-0.0701555,0.530949,0,0,0,0,-0.137726,0.690972,1.9603e-19,0,0,0,0,0,0,0,0,0,1,-1
9068,-0.0693359,-0.269531,6.76562,-0.263085,-0.482834,-0.116185,-0.0161133,0.00830078,0.00830078,0,0,0,-0.0720942,0.540569,-0.138808,0.684895,0.00830078,0,0,0,0,0,0,0,0,0,0,-0.423572,-0.45564,0,-1.7,2.75569e-38,0,0,0,-0.0720942,0.540569,0,0,0,0,-0.138808,0.684895,1.9603e-19,0,0,0,0,0,0,0,0,0,1,-1
9083,-0.0917969,-0.227539,-2.28906,-0.142635,-0.479211,0.216651,-0.0189443,0.000656507,0.0112387,0,0,0,-0.0741789,0.550775,-0.139072,0.677907,0.00830078,0,0,0,0,0,0,0,0,0,0,-0.421826,-0.455721,0,-1.7,2.75569e-38,0,0,0,-0.0741789,0.550775,0,0,0,0,-0.139072,0.677907,1.9603e-19,0,0,0,0,0,0,0,0,0,1,-1
9098,-0.0917969,-0.100586,-4.04395,0.0475956,-0.199903,0.266361,-0.018497,-0.00376965,0.0161663,0,0,0,-0.0762566,0.560873,-0.138201,0.67056,0.0112387,0,0,0,0,0,0,0,0,0,0,-0.420812,-0.454283,0,-1.7,2.75569e-38,0,0,0,-0.0762566,0.560873,0,0,0,0,-0.138201,0.67056,1.9603e-19,0,0,0,0,0,0,0,0,0,1,-1
9113,-0.0917969,-0.100586,-4.04395,0.0475956,-0.199903,0.266361,-0.018497,-0.00376965,0.0161663,0,0,0,-0.0783194,0.570861,-0.136982,0.663303,0.0161663,0,0,0,0,0,0,0,0,0,0,-0.420366,-0.451931,0,-1.7,2.75569e-38,0,0,0,-0.0783194,0.570861,0,0,0,0,-0.136982,0.663303,1.9603e-19,0,0,0,0,0,0,0,0,0,1,-1
9128,-0.0917969,-0.121094,2.38965,0.0247565,0.0694013,0.162496,-0.0177004,-0.00336224,0.0191061,0,0,0,-0.0803595,0.580741,-0.135484,0.656178,0.0191061,0,0,0,0,0,0,0,0,0,0,-0.419392,-0.450353,0,-1.7,2.75569e-38,0,0,0,-0.0803595,0.580741,0,0,0,0,-0.135484,0.656178,1.9603e-19,0,0,0,0,0,0,0,0,0,1,-1
9143,-0.0917969,-0.270508,5.65625,-0.121767,0.302139,0.0260313,-0.0190343,0.000757267,0.0199361,0,0,0,-0.0823787,0.590515,-0.134268,0.649087,0.0199361,0,0,0,0,0,0,0,0,0,0,-0.417843,-0.449737,0,-1.7,2.75569e-38,0,0,0,-0.0823787,0.590515,0,0,0,0,-0.134268,0.649087,1.9603e-19,0,0,0,0,0,0,0,0,0,1,-1
