timestamp,A_x,A_y,A_z,P,Q,R,Phi,Theta,Psi,poseX,poseY,poseZ,state_X,state_Y,state_Z,state_VzB,state_Bx,state_By,state_Bz,p1_x,p1_y,p2_x,p2_y,p3_x,p3_y,p4_x,p4_y,roll,pitch,yaw,alt,targetHeading,highLevelState,lowLevelState,gateNumber,filtered_x,filtered_y,x_OT,y_OT,vx_OT,vy_OT,filtered_vx,filtered_vygateArearansac_corr_x,ransac_corr_y,ransac_corr_vx,ransac_corr_vy,detectionTimeStamppTermX,dTermX,pTermY,dTermY,vxcmd,vycmd
6060,0,0,7.08594,-0.00239828,-8.38259e-05,-0.00902257,-0.0422629,-0.0264253,-1.05268,0,0,0,-9.98364e-06,-1.89935e-05,-0.00185642,-0.00352232,-1.04947,0,0,0,0,0,0,0,0,0,0,0.378812,-0.390981,0,-1.5,0,0,0,0,-9.98364e-06,-1.89935e-05,-0.109375,0.1875,0,0,-0.00185642,-0.00352232,1.9603e-19,0,0,0,0,0,0,0,0,0,2.5,3.79871e-05
6074,0,0,7.06641,-0.0016563,-0.000391749,-0.00950063,-0.0411268,-0.0252525,-1.06098,0,0,0,-6.3889e-05,-0.000120174,-0.00508317,-0.0094834,-1.05767,0,0,0,0,0,0,0,0,0,0,0.381333,-0.386522,0,-1.5,0,0,0,0,-6.3889e-05,-0.000120174,-0.109375,0.1875,0,0,-0.00508317,-0.0094834,1.9603e-19,0,0,0,0,0,0,0,0,0,2.5,0.000240348
6092,0,0,-7.02344,-0.00241891,0.000243974,-0.00963089,-0.0400999,-0.0241058,-1.069,0,0,0,-0.000214009,-0.000396143,-0.00942102,-0.017195,-1.06575,0,0,0,0,0,0,0,0,0,0,0.384032,-0.381628,0,-1.5,0,0,0,0,-0.000214009,-0.000396143,-0.109375,0.1875,0,0,-0.00942102,-0.017195,1.9603e-19,0,0,0,0,0,0,0,0,0,2.5,0.000792286
6109,0,0,7.06152,-0.00115548,0.000371495,-0.00967018,-0.0390136,-0.0232916,-1.07569,0,0,0,-0.00041529,-0.000759178,-0.0132479,-0.0237471,-1.07394,0,0,0,0,0,0,0,0,0,0,0.386585,-0.376874,0,-1.5,0,0,0,0,-0.00041529,-0.000759178,-0.109375,0.1875,0,0,-0.0132479,-0.0237471,1.9603e-19,0,0,0,0,0,0,0,0,0,2.5,0.00151836
6126,0,0,-5.97852,-0.000783838,-0.000387365,-0.0100882,-0.038996,-0.023277,-1.07583,0,0,0,-0.000681911,-0.00123224,-0.0170055,-0.0300399,-1.07583,0,0,0,0,0,0,0,0,0,0,0.387825,-0.374554,0,-1.5,0,0,0,0,-0.000681911,-0.00123224,-0.109375,0.1875,0,0,-0.0170055,-0.0300399,1.9603e-19,0,0,0,0,0,0,0,0,0,2.5,0.00246447
6141,0,0,0.0498047,-0.00225917,0.000612556,-0.00985951,-0.038983,-0.0232529,-1.07596,0,0,0,-0.000968819,-0.0017361,-0.0202932,-0.0355408,-1.07596,0,0,0,0,0,0,0,0,0,0,0.388624,-0.37307,0,-1.5,0,0,0,0,-0.000968819,-0.0017361,-0.109375,0.1875,0,0,-0.0202932,-0.0355408,1.9603e-19,0,0,0,0,0,0,0,0,0,2.5,0.00347219
6157,0,0,-7.04883,-0.0019644,0.000262801,-0.00856019,-0.0389439,-0.0232171,-1.07623,0,0,0,-0.00133012,-0.00236595,-0.0237739,-0.0413594,-1.0761,0,0,0,0,0,0,0,0,0,0,0.389493,-0.371456,0,-1.5,0,0,0,0,-0.00133012,-0.00236595,-0.109375,0.1875,0,0,-0.0237739,-0.0413594,1.9603e-19,0,0,0,0,0,0,0,0,0,2.5,0.0047319
6175,0,0,-7.17285,-0.00195057,0.000539203,-0.00964397,-0.0389228,-0.023197,-1.07637,0,0,0,-0.0018056,-0.00318987,-0.0276573,-0.0478467,-1.07623,0,0,0,0,0,0,0,0,0,0,0.390484,-0.369616,0,-1.5,0,0,0,0,-0.0018056,-0.00318987,-0.109375,0.1875,0,0,-0.0276573,-0.0478467,1.9603e-19,0,0,0,0,0,0,0,0,0,2.5,0.00637974
6191,0,0,-4.29395,-0.00188242,0.000476602,-0.00905632,-0.0389145,-0.0231763,-1.0765,0,0,0,-0.00228409,-0.00401545,-0.0310779,-0.0535548,-1.0765,0,0,0,0,0,0,0,0,0,0,0.391409,-0.367892,0,-1.5,0,0,0,0,-0.00228409,-0.00401545,-0.109375,0.1875,0,0,-0.0310779,-0.0535548,1.9603e-19,0,0,0,0,0,0,0,0,0,2.5,0.0080309
6207,0,0,0.743164,-0.00250853,0.000802284,-0.009802,-0.0389085,-0.0231511,-1.07663,0,0,0,-0.00281703,-0.00493183,-0.0344727,-0.0592127,-1.07663,0,0,0,0,0,0,0,0,0,0,0.392322,-0.366191,0,-1.5,0,0,0,0,-0.00281703,-0.00493183,-0.109375,0.1875,0,0,-0.0344727,-0.0592127,1.9603e-19,0,0,0,0,0,0,0,0,0,2.5,0.00986367
6223,0,0,-7.19824,-0.00120771,0.000335065,-0.00939971,-0.0388838,-0.0231281,-1.07677,0,0,0,-0.00340296,-0.00593645,-0.0378409,-0.0648189,-1.07677,0,0,0,0,0,0,0,0,0,0,0.39325,-0.364463,0,-1.5,0,0,0,0,-0.00340296,-0.00593645,-0.109375,0.1875,0,0,-0.0378409,-0.0648189,1.9603e-19,0,0,0,0,0,0,0,0,0,2.5,0.0118729
6240,0,0,4.08301,-0.000670157,-1.87758e-05,-0.00953975,-0.0388665,-0.0231126,-1.07691,0,0,0,-0.00404355,-0.00703201,-0.0411821,-0.0703766,-1.07691,0,0,0,0,0,0,0,0,0,0,0.394196,-0.362702,0,-1.5,0,0,0,0,-0.00404355,-0.00703201,-0.109375,0.1875,0,0,-0.0411821,-0.0703766,1.9603e-19,0,0,0,0,0,0,0,0,0,2.5,0.014064
6286,0,0,-5.97949,-0.00268704,0.000834444,-0.00944813,-0.0388243,-0.023029,-1.07745,0,0,0,-0.00636047,-0.0109738,-0.0509065,-0.0865412,-1.07731,0,0,0,0,0,0,0,0,0,0,0.39712,-0.357247,0,-1.5,0,0,0,0,-0.00636047,-0.0109738,-0.109375,0.1875,0,0,-0.0509065,-0.0865412,1.9603e-19,0,0,0,0,0,0,0,0,0,2.5,0.0219476
6320,0,0,-4.7168,-0.00118783,-0.000144843,-0.0102408,-0.0387788,-0.0230111,-1.07772,0,0,0,-0.00827882,-0.0142267,-0.0577865,-0.0979325,-1.07772,0,0,0,0,0,0,0,0,0,0,0.399313,-0.353144,0,-1.5,0,0,0,0,-0.00827882,-0.0142267,-0.109375,0.1875,0,0,-0.0577865,-0.0979325,1.9603e-19,0,0,0,0,0,0,0,0,0,2.5,0.0284534
6340,0,0,-7.14258,-0.00154915,0.000184283,-0.0103852,-0.0387453,-0.0229761,-1.07801,0,0,0,-0.00948853,-0.0162747,-0.0617623,-0.104514,-1.07772,0,0,0,0,0,0,0,0,0,0,0.400576,-0.350792,0,-1.5,0,0,0,0,-0.00948853,-0.0162747,-0.109375,0.1875,0,0,-0.0617623,-0.104514,1.9603e-19,0,0,0,0,0,0,0,0,0,2.5,0.0325494
6353,0,0,-4.25,-0.0010255,0.000202184,-0.00943392,-0.0387226,-0.0229632,-1.07815,0,0,0,-0.010247,-0.0175576,-0.064126,-0.108421,-1.07801,0,0,0,0,0,0,0,0,0,0,0.401393,-0.34925,0,-1.5,0,0,0,0,-0.010247,-0.0175576,-0.109375,0.1875,0,0,-0.064126,-0.108421,1.9603e-19,0,0,0,0,0,0,0,0,0,2.5,0.0351151
6369,0,0,0.729492,-0.00181357,0.000979253,-0.00961631,-0.0387126,-0.0229378,-1.07829,0,0,0,-0.0113738,-0.0194612,-0.067451,-0.113913,-1.07829,0,0,0,0,0,0,0,0,0,0,0.402541,-0.34709,0,-1.5,0,0,0,0,-0.0113738,-0.0194612,-0.109375,0.1875,0,0,-0.067451,-0.113913,1.9603e-19,0,0,0,0,0,0,0,0,0,2.5,0.0389225
6385,0,0,-7.16797,-0.0021055,-0.000118975,-0.0106524,-0.0386956,-0.0229231,-1.07843,0,0,0,-0.0124847,-0.0213361,-0.0705552,-0.119034,-1.07843,0,0,33554303,-167645441,33554303,-167645441,-8436479,-1,-534446081,-65025,0.403614,-0.345078,0,-1.5,0,0,0,0,-0.0124847,-0.0213361,-0.109375,0.1875,0,0,-0.0705552,-0.119034,0,0,0,0,0,0,0,0,0,0,2.5,0.0426722
6398,0,0,4.09766,-0.00287266,-7.24243e-05,-0.00963701,-0.0386823,-0.0229146,-1.07856,0,0,0,-0.0134218,-0.0229163,-0.0730579,-0.123161,-1.07856,0,0,33554303,-167645441,33554303,-167645441,-8436479,-1,-534446081,-65025,0.404497,-0.34342,0,-1.5,0,0,0,0,-0.0134218,-0.0229163,-0.109375,0.1875,0,0,-0.0730579,-0.123161,0,0,0,0,0,0,0,0,0,0,2.5,0.0458325
6414,0,0,6.23438,-0.00232275,-0.000565526,-0.00981341,-0.0386772,-0.0229041,-1.0787,0,0,0,-0.0146229,-0.0249399,-0.0761175,-0.128203,-1.0787,0,0,33554303,-167645441,33554303,-167645441,-8436479,-1,-534446081,-65025,0.405594,-0.341361,0,-1.5,0,0,0,0,-0.0146229,-0.0249399,-0.109375,0.1875,0,0,-0.0761175,-0.128203,0,0,0,0,0,0,0,0,0,0,2.5,0.0498798
6430,0,0,-7.03027,-0.00251731,0.000266128,-0.0101468,-0.0386689,-0.0228863,-1.07883,0,0,0,-0.0158727,-0.0270437,-0.0791537,-0.133202,-1.07883,0,0,33554303,-167645441,33554303,-167645441,-8436479,-1,-534446081,-65025,0.406703,-0.339279,0,-1.5,0,0,0,0,-0.0158727,-0.0270437,-0.109375,0.1875,0,0,-0.0791537,-0.133202,0,0,0,0,0,0,0,0,0,0,2.5,0.0540874
6446,0,0,7.05176,-0.00136494,0.000760337,-0.00987792,-0.0386536,-0.0228587,-1.07897,-7.4918,-6.11142,-0.1643,-0.0171708,-0.0292271,-0.0821665,-0.138157,-1.07897,0,0,633,139,633,139,684,122,635,197,0.407826,-0.33717,0,-1.5,0,0,0,0,-0.0171708,-0.0292271,-0.109375,0.1875,0,0,-0.0821665,-0.138157,3900,0,0,0,0,0,0,0,0,0,2.5,0.0584541
6462,0,0,7.05176,-0.00136494,0.000760337,-0.00987792,-0.0386536,-0.0228587,-1.07897,-7.4918,-6.11142,-0.1643,-0.0185169,-0.0314892,-0.0851557,-0.143069,-1.07897,0,0,633,139,633,139,684,122,635,197,0.40894,-0.335091,0,-1.5,0,0,0,0,-0.0185169,-0.0314892,-0.109375,0.1875,0,0,-0.0851557,-0.143069,3900,0,0,0,0,0,0,0,0,0,2.5,0.0629784
6478,0,0,-4.7334,-0.000650848,0.000103007,-0.0100761,-0.0385977,-0.0228067,-1.07937,-7.62878,-6.21461,-0.141571,-0.0199106,-0.0338296,-0.0881211,-0.147941,-1.07897,0,0,633,139,633,139,682,123,637,197,0.410068,-0.332985,0,-1.5,0,0,0,0,-0.0199106,-0.0338296,-0.109375,0.1875,0,0,-0.0881211,-0.147941,3700,0,0,0,0,0,0,0,0,0,2.5,0.0676591
6494,0,0,-7.04492,-0.00216183,0.000306798,-0.0107028,-0.038584,-0.0227881,-1.07951,-7.62878,-6.21461,-0.141571,-0.0213505,-0.0362458,-0.0910609,-0.152761,-1.07951,0,0,633,139,633,139,682,123,637,197,0.411292,-0.330636,0,-1.5,0,0,0,0,-0.0213505,-0.0362458,-0.109375,0.1875,0,0,-0.0910609,-0.152761,3700,0,0,0,0,0,0,0,0,0,2.5,0.0724916
6511,0,0,-7.13379,-0.00314529,-0.000262725,-0.00965135,-0.0385867,-0.0227803,-1.07965,-7.62878,-6.21461,-0.141571,-0.0229327,-0.0388987,-0.09416,-0.157836,-1.07965,0,0,633,139,633,139,682,123,637,197,0.412537,-0.328291,0,-1.5,0,0,0,0,-0.0229327,-0.0388987,-0.109375,0.1875,0,0,-0.09416,-0.157836,3700,0,0,0,0,0,0,0,0,0,2.5,0.0777973
6526,0,0,-4.23926,-0.00162622,3.45198e-05,-0.00983686,-0.0385623,-0.0227668,-1.07978,-7.62878,-6.21461,-0.141571,-0.0243706,-0.041308,-0.0968724,-0.162275,-1.07978,0,0,633,139,633,139,682,123,637,197,0.413649,-0.326196,0,-1.5,0,0,0,0,-0.0243706,-0.041308,-0.109375,0.1875,0,0,-0.0968724,-0.162275,3700,0,0,0,0,0,0,0,0,0,2.5,0.082616
6542,0,0,0.771484,-0.000980482,8.97143e-05,-0.00936134,-0.0385387,-0.0227514,-1.07992,-7.62878,-6.21461,-0.141571,-0.0259499,-0.0439523,-0.0997423,-0.166969,-1.07992,0,0,633,139,633,139,682,123,637,197,0.414847,-0.323936,0,-1.5,0,0,0,0,-0.0259499,-0.0439523,-0.109375,0.1875,0,0,-0.0997423,-0.166969,3700,0,0,0,0,0,0,0,0,0,2.5,0.0879046
6558,0,0,0.771484,-0.000980482,8.97143e-05,-0.00936134,-0.0385387,-0.0227514,-1.07992,-7.44249,-6.08038,-0.164718,-0.0275748,-0.0466713,-0.102589,-0.171624,-1.07992,0,0,635,138,635,138,684,121,635,197,0.416036,-0.32171,0,-1.5,0,0,0,0,-0.0275748,-0.0466713,-0.109375,0.1875,0,0,-0.102589,-0.171624,3800,0,0,0,0,0,0,0,0,0,2.5,0.0933426
6574,0,0,6.26953,-0.000782308,0.000321079,-0.00973525,-0.0384884,-0.0226962,-1.08032,-7.44249,-6.08038,-0.164718,-0.0292459,-0.0494658,-0.105413,-0.176239,-1.08018,0,0,635,138,635,138,684,121,635,197,0.417277,-0.319352,0,-1.5,0,0,0,0,-0.0292459,-0.0494658,-0.109375,0.1875,0,0,-0.105413,-0.176239,3800,0,0,0,0,0,0,0,0,0,2.5,0.0989316
6590,0,0,-7.0459,-0.00124076,-0.00023538,-0.0100737,-0.0384682,-0.0226848,-1.08046,-7.44249,-6.08038,-0.164718,-0.0309611,-0.0523323,-0.108214,-0.180809,-1.08032,0,0,635,138,635,138,684,121,635,197,0.41851,-0.317023,0,-1.5,0,0,0,0,-0.0309611,-0.0523323,-0.109375,0.1875,0,0,-0.108214,-0.180809,3800,0,0,0,0,0,0,0,0,0,2.5,0.104665
6606,0,0,7.08105,-0.00214479,-0.000231993,-0.00891646,-0.0384498,-0.0226642,-1.08059,-7.44249,-6.08038,-0.164718,-0.0327208,-0.0552714,-0.110991,-0.185336,-1.08059,0,0,635,138,635,138,684,121,635,197,0.419773,-0.314615,0,-1.5,0,0,0,0,-0.0327208,-0.0552714,-0.109375,0.1875,0,0,-0.110991,-0.185336,3800,0,0,0,0,0,0,0,0,0,2.5,0.110543
6622,0,0,7.08105,-0.00214479,-0.000231993,-0.00891646,-0.0384498,-0.0226642,-1.08059,-7.44249,-6.08038,-0.164718,-0.0345248,-0.0582825,-0.113746,-0.189823,-1.08059,0,0,635,138,635,138,684,121,635,197,0.42101,-0.312297,0,-1.5,0,0,0,0,-0.0345248,-0.0582825,-0.109375,0.1875,0,0,-0.113746,-0.189823,3800,0,0,0,0,0,0,0,0,0,2.5,0.116565
6638,0,0,0.0498047,-0.00152255,-0.000120692,-0.0108936,-0.0384271,-0.0226531,-1.08087,-7.44249,-6.08038,-0.164718,-0.0363726,-0.0613651,-0.116478,-0.194272,-1.08087,0,0,635,138,635,138,684,121,635,197,0.422297,-0.309839,0,-1.5,0,0,0,0,-0.0363726,-0.0613651,-0.109375,0.1875,0,0,-0.116478,-0.194272,3800,0,0,0,0,0,0,0,0,0,2.5,0.12273
6654,0,0,0.0498047,-0.00152255,-0.000120692,-0.0108936,-0.0384271,-0.0226531,-1.08087,-7.33655,-5.9939,-0.181389,-0.0382648,-0.0645199,-0.119189,-0.198684,-1.08087,0,0,633,139,633,139,686,119,637,197,0.423558,-0.307474,0,-1.5,0,0,0,0,-0.0382648,-0.0645199,-0.109375,0.1875,0,0,-0.119189,-0.198684,4134,0,0,0,0,0,0,0,0,0,2.5,0.12904
6670,0,0,-7.16211,-0.00138504,-0.000727637,-0.00964758,-0.0383931,-0.0226233,-1.08128,-7.33655,-5.9939,-0.181389,-0.0402001,-0.0677449,-0.121878,-0.203061,-1.08087,0,0,633,139,633,139,686,119,637,197,0.424832,-0.305086,0,-1.5,0,0,0,0,-0.0402001,-0.0677449,-0.109375,0.1875,0,0,-0.121878,-0.203061,4134,0,0,0,0,0,0,0,0,0,2.5,0.13549
6688,0,0,-7.16211,-0.00138504,-0.000727637,-0.00964758,-0.0383931,-0.0226233,-1.08128,-7.33655,-5.9939,-0.181389,-0.0424295,-0.0714578,-0.124878,-0.20794,-1.08128,0,0,633,139,633,139,686,119,637,197,0.426332,-0.302195,0,-1.5,0,0,0,0,-0.0424295,-0.0714578,-0.109375,0.1875,0,0,-0.124878,-0.20794,4134,0,0,0,0,0,0,0,0,0,2.5,0.142916
6704,0,0,0.758789,-0.00178275,0.00041162,-0.00983633,-0.0383665,-0.022588,-1.08155,-7.33655,-5.9939,-0.181389,-0.0444553,-0.07483,-0.127522,-0.212233,-1.08155,0,0,633,139,633,139,686,119,637,197,0.427664,-0.299642,0,-1.5,0,0,0,0,-0.0444553,-0.07483,-0.109375,0.1875,0,0,-0.127522,-0.212233,4134,0,0,0,0,0,0,0,0,0,2.5,0.14966
6717,0,0,-7.18262,-0.00131109,0.00022113,-0.0104108,-0.0383427,-0.022574,-1.0817,-7.45781,-6.10256,-0.160866,-0.04613,-0.0776164,-0.129654,-0.215688,-1.0817,0,0,635,138,635,138,684,121,637,197,0.428743,-0.297587,0,-1.5,0,0,0,0,-0.04613,-0.0776164,-0.109375,0.1875,0,0,-0.129654,-0.215688,3800,0,0,0,0,0,0,0,0,0,2.5,0.155233
6732,0,0,4.1084,-0.00226767,0.00119226,-0.0112087,-0.0383278,-0.0225408,-1.08185,-7.45781,-6.10256,-0.160866,-0.0480978,-0.080889,-0.132096,-0.219643,-1.08185,0,0,635,138,635,138,684,121,637,197,0.429994,-0.295206,0,-1.5,0,0,0,0,-0.0480978,-0.080889,-0.109375,0.1875,0,0,-0.132096,-0.219643,3800,0,0,0,0,0,0,0,0,0,2.5,0.161778
6748,0,0,6.26855,-0.00146567,0.000310615,-0.00918703,-0.0383164,-0.0225232,-1.08198,-7.52191,-6.12857,-0.161986,-0.0502385,-0.0844473,-0.134683,-0.223825,-1.08198,0,0,635,141,635,141,680,121,635,197,0.431336,-0.292657,0,-1.5,0,0,0,0,-0.0502385,-0.0844473,-0.109375,0.1875,0,0,-0.134683,-0.223825,3800,0,0,0,0,0,0,0,0,0,2.5,0.168895
6764,0,0,-7.04004,-0.00223302,-0.000627741,-0.010317,-0.0382966,-0.0225198,-1.08212,-7.52191,-6.12857,-0.161986,-0.0524196,-0.0880708,-0.137248,-0.227969,-1.08212,0,0,635,141,635,141,680,121,635,197,0.432689,-0.290083,0,-1.5,0,0,0,0,-0.0524196,-0.0880708,-0.109375,0.1875,0,0,-0.137248,-0.227969,3800,0,0,0,0,0,0,0,0,0,2.5,0.176142
6780,0,0,7.05176,-0.000629032,0.000469175,-0.00997255,-0.0382667,-0.0225004,-1.08225,-7.78595,-6.35451,-0.063608,-0.0546423,-0.0917615,-0.139791,-0.232078,-1.08225,0,0,635,138,635,138,684,121,634,190,0.434053,-0.287488,0,-1.5,0,0,0,0,-0.0546423,-0.0917615,-0.109375,0.1875,0,0,-0.139791,-0.232078,3519,0,0,0,0,0,0,0,0,0,2.5,0.183523
6797,0,0,7.05176,-0.000629032,0.000469175,-0.00997255,-0.0382667,-0.0225004,-1.08225,-7.78595,-6.35451,-0.063608,-0.0570483,-0.0957545,-0.14247,-0.236404,-1.08225,0,0,635,138,635,138,684,121,634,190,0.435498,-0.28477,0,-1.5,0,0,0,0,-0.0570483,-0.0957545,-0.109375,0.1875,0,0,-0.14247,-0.236404,3519,0,0,0,0,0,0,0,0,0,2.5,0.191509
6813,0,0,-4.74902,-0.00182524,0.000736539,-0.010226,-0.0382378,-0.0224383,-1.08268,-7.78595,-6.35451,-0.063608,-0.0593534,-0.0995782,-0.144971,-0.24044,-1.08268,0,0,635,138,635,138,684,121,634,190,0.436915,-0.282002,0,-1.5,0,0,0,0,-0.0593534,-0.0995782,-0.109375,0.1875,0,0,-0.144971,-0.24044,3519,0,0,0,0,0,0,0,0,0,2.5,0.199156
6832,0,0,-4.74902,-0.00182524,0.000736539,-0.010226,-0.0382378,-0.0224383,-1.08268,-7.58238,-6.18685,-0.14568,-0.0621453,-0.104207,-0.147919,-0.24518,-1.08268,0,0,635,138,635,138,682,123,635,197,0.438556,-0.278912,0,-1.5,0,0,0,0,-0.0621453,-0.104207,-0.109375,0.1875,0,0,-0.147919,-0.24518,3700,0,0,0,0,0,0,0,0,0,2.5,0.208414
6848,0,0,-7.17773,-0.000248121,-0.000653271,-0.00991155,-0.0381861,-0.0224133,-1.08296,-7.60671,-6.20284,-0.154652,-0.0645371,-0.10817,-0.150378,-0.249132,-1.08296,0,0,635,139,635,139,682,124,634,198,0.439977,-0.276168,0,-1.5,0,0,0,0,-0.0645371,-0.10817,-0.109375,0.1875,0,0,-0.150378,-0.249132,3774,0,0,0,0,0,0,0,0,0,2.5,0.21634
6864,0,0,0.744141,-0.000642316,6.622e-06,-0.00986154,-0.0381385,-0.0223759,-1.08324,-7.60671,-6.20284,-0.154652,-0.0669687,-0.112197,-0.152815,-0.253048,-1.08296,0,0,635,139,635,139,682,124,634,198,0.441379,-0.273524,0,-1.5,0,0,0,0,-0.0669687,-0.112197,-0.109375,0.1875,0,0,-0.152815,-0.253048,3774,0,0,0,0,0,0,0,0,0,2.5,0.224395
6880,0,0,0.744141,-0.000642316,6.622e-06,-0.00986154,-0.0381385,-0.0223759,-1.08324,-7.60671,-6.20284,-0.154652,-0.0694392,-0.116287,-0.155231,-0.256928,-1.08324,0,0,635,139,635,139,682,124,634,198,0.44282,-0.270736,0,-1.5,0,0,0,0,-0.0694392,-0.116287,-0.109375,0.1875,0,0,-0.155231,-0.256928,3774,0,0,0,0,0,0,0,0,0,2.5,0.232574
6896,0,0,4.09668,-0.000555661,0.00057606,-0.00934013,-0.0380838,-0.022348,-1.08351,-7.60671,-6.20284,-0.154652,-0.0719473,-0.120437,-0.157626,-0.26077,-1.08351,0,0,635,139,635,139,682,124,634,198,0.444267,-0.267936,0,-1.5,0,0,0,0,-0.0719473,-0.120437,-0.109375,0.1875,0,0,-0.157626,-0.26077,3774,0,0,0,0,0,0,0,0,0,2.5,0.240874
6913,0,0,6.26074,-0.00131104,0.000898475,-0.00941696,-0.0380646,-0.0223285,-1.08365,-7.60671,-6.20284,-0.154652,-0.0746556,-0.124916,-0.160147,-0.26481,-1.08365,0,0,635,139,635,139,682,124,634,198,0.445801,-0.265002,0,-1.5,0,0,0,0,-0.0746556,-0.124916,-0.109375,0.1875,0,0,-0.160147,-0.26481,3774,0,0,0,0,0,0,0,0,0,2.5,0.249832
6928,0,0,-7.01172,-0.00260107,0.000398107,-0.0101537,-0.0380573,-0.0223143,-1.08379,-7.60671,-6.20284,-0.154652,-0.0770786,-0.128921,-0.162353,-0.268341,-1.08379,0,0,635,139,635,139,682,124,634,198,0.447164,-0.262389,0,-1.5,0,0,0,0,-0.0770786,-0.128921,-0.109375,0.1875,0,0,-0.162353,-0.268341,3774,0,0,0,0,0,0,0,0,0,2.5,0.257843
6944,0,0,7.0752,-0.00197786,2.95371e-06,-0.0106189,-0.0380859,-0.0222168,-1.08398,-7.60671,-6.20284,-0.154652,-0.0797008,-0.133254,-0.164693,-0.272073,-1.08398,0,0,635,139,635,139,682,124,634,198,0.448631,-0.259562,0,-1.5,0,0,0,0,-0.0797008,-0.133254,-0.109375,0.1875,0,0,-0.164693,-0.272073,3774,0,0,0,0,0,0,0,0,0,2.5,0.266508
6961,0,0,0.0410156,-0.00150722,0.000301579,-0.00998449,-0.0380097,-0.0222634,-1.0842,-7.60671,-6.20284,-0.154652,-0.0823604,-0.137646,-0.167023,-0.275768,-1.08398,0,0,635,139,635,139,682,124,634,198,0.450091,-0.256804,0,-1.5,0,0,0,0,-0.0823604,-0.137646,-0.109375,0.1875,0,0,-0.167023,-0.275768,3774,0,0,0,0,0,0,0,0,0,2.5,0.275292
6977,0,0,-4.72266,-0.00101539,0.000714533,-0.00983231,-0.0379866,-0.0222438,-1.08433,-7.60671,-6.20284,-0.154652,-0.0852267,-0.142377,-0.169464,-0.279661,-1.0842,0,0,635,139,635,139,682,124,634,198,0.45167,-0.253754,0,-1.5,0,0,0,0,-0.0852267,-0.142377,-0.109375,0.1875,0,0,-0.169464,-0.279661,3774,0,0,0,0,0,0,0,0,0,2.5,0.284754
6993,0,0,-7.03418,-0.000637795,-0.00101133,-0.0100492,-0.0379566,-0.0222369,-1.08447,-7.58277,-6.18804,-0.149242,-0.0877893,-0.146605,-0.171598,-0.283063,-1.08447,0,0,633,139,633,139,682,123,637,197,0.453077,-0.251014,0,-1.5,0,0,0,0,-0.0877893,-0.146605,-0.109375,0.1875,0,0,-0.171598,-0.283063,3848,0,0,0,0,0,0,0,0,0,2.5,0.29321
7009,0,0,-7.15527,-0.0021004,-0.00034988,-0.00919366,-0.0379351,-0.0222234,-1.0846,-7.58277,-6.18804,-0.149242,-0.0907329,-0.151459,-0.173996,-0.286884,-1.0846,0,0,633,139,633,139,682,123,637,197,0.454667,-0.247964,0,-1.5,0,0,0,0,-0.0907329,-0.151459,-0.109375,0.1875,0,0,-0.173996,-0.286884,3848,0,0,0,0,0,0,0,0,0,2.5,0.302918
7025,0,0,-7.15527,-0.0021004,-0.00034988,-0.00919366,-0.0379351,-0.0222234,-1.0846,-7.58277,-6.18804,-0.149242,-0.0935397,-0.156086,-0.176233,-0.290448,-1.0846,0,0,633,139,633,139,682,123,637,197,0.456164,-0.245131,0,-1.5,0,0,0,0,-0.0935397,-0.156086,-0.109375,0.1875,0,0,-0.176233,-0.290448,3848,0,0,0,0,0,0,0,0,0,2.5,0.312171
7041,0,0,0.746094,-0.00272797,0.000327847,-0.0103415,-0.0379076,-0.0221927,-1.08489,-7.58277,-6.18804,-0.149242,-0.0963821,-0.160769,-0.178453,-0.29398,-1.08489,0,0,633,139,633,139,682,123,637,197,0.45769,-0.24215,0,-1.5,0,0,0,0,-0.0963821,-0.160769,-0.109375,0.1875,0,0,-0.178453,-0.29398,3848,0,0,0,0,0,0,0,0,0,2.5,0.321538
7057,0,0,4.11816,-0.0015015,0.00100581,-0.00928822,-0.03786,-0.0221481,-1.08517,-7.58277,-6.18804,-0.149242,-0.0992605,-0.165509,-0.180654,-0.29748,-1.08489,0,0,633,139,633,139,682,123,637,197,0.459206,-0.23928,0,-1.5,0,0,0,0,-0.0992605,-0.165509,-0.109375,0.1875,0,0,-0.180654,-0.29748,3848,0,0,0,0,0,0,0,0,0,2.5,0.331019
7073,0,0,6.29492,-0.00146859,0.000600919,-0.00927876,-0.0378304,-0.0221189,-1.0853,-7.58277,-6.18804,-0.149242,-0.102174,-0.170305,-0.182838,-0.300947,-1.08517,0,0,633,139,633,139,682,123,637,197,0.460748,-0.236263,0,-1.5,0,0,0,0,-0.102174,-0.170305,-0.109375,0.1875,0,0,-0.182838,-0.300947,3848,0,0,0,0,0,0,0,0,0,2.5,0.340611
7089,0,0,6.29492,-0.00146859,0.000600919,-0.00927876,-0.0378304,-0.0221189,-1.0853,-7.58277,-6.18804,-0.149242,-0.105121,-0.175156,-0.185002,-0.304374,-1.0853,0,0,633,139,633,139,682,123,637,197,0.462287,-0.233301,0,-1.5,0,0,0,0,-0.105121,-0.175156,-0.109375,0.1875,0,0,-0.185002,-0.304374,3848,0,0,0,0,0,0,0,0,0,2.5,0.350311
7105,0,0,7.0752,-0.0010927,-0.000370431,-0.00981338,-0.0377952,-0.0220836,-1.08557,-7.58277,-6.18804,-0.149242,-0.108104,-0.180061,-0.187148,-0.307771,-1.08557,0,0,633,139,633,139,682,123,637,197,0.463844,-0.230254,0,-1.5,0,0,0,0,-0.108104,-0.180061,-0.109375,0.1875,0,0,-0.187148,-0.307771,3848,0,0,0,0,0,0,0,0,0,2.5,0.360123
7121,0,0,7.0752,-0.0010927,-0.000370431,-0.00981338,-0.0377952,-0.0220836,-1.08557,-7.58277,-6.18804,-0.149242,-0.110931,-0.184708,-0.189144,-0.310926,-1.08557,0,0,633,139,633,139,682,123,637,197,0.465295,-0.227501,0,-1.5,0,0,0,0,-0.110931,-0.184708,-0.109375,0.1875,0,0,-0.189144,-0.310926,3848,0,0,0,0,0,0,0,0,0,2.5,0.369417
7137,0,0,0.0263672,-0.00166452,0.000953825,-0.00856402,-0.0377554,-0.0220275,-1.08583,-7.58277,-6.18804,-0.149242,-0.114171,-0.190033,-0.191389,-0.314467,-1.08583,0,0,633,139,633,139,682,123,637,197,0.466963,-0.224242,0,-1.5,0,0,0,0,-0.114171,-0.190033,-0.109375,0.1875,0,0,-0.191389,-0.314467,3848,0,0,0,0,0,0,0,0,0,2.5,0.380066
7153,0,0,-7.02734,-0.00176028,-0.000209986,-0.00888481,-0.0377273,-0.021997,-1.08611,-7.58277,-6.18804,-0.149242,-0.117255,-0.195099,-0.193484,-0.317767,-1.08583,0,0,633,139,633,139,682,123,637,197,0.468528,-0.221271,0,-1.5,0,0,0,0,-0.117255,-0.195099,-0.109375,0.1875,0,0,-0.193484,-0.317767,3848,0,0,0,0,0,0,0,0,0,2.5,0.390199
7169,0,0,-7.13477,-0.00125247,-0.00024037,-0.00995603,-0.037711,-0.0219882,-1.08624,-7.58277,-6.18804,-0.149242,-0.120372,-0.200217,-0.195562,-0.321035,-1.08611,0,0,633,139,633,139,682,123,637,197,0.470114,-0.218151,0,-1.5,0,0,0,0,-0.120372,-0.200217,-0.109375,0.1875,0,0,-0.195562,-0.321035,3848,0,0,0,0,0,0,0,0,0,2.5,0.400434
7186,0,0,-4.27148,-0.00161302,-0.000821929,-0.00968505,-0.0376949,-0.0219766,-1.08638,-7.58277,-6.18804,-0.149242,-0.123523,-0.205388,-0.197624,-0.324273,-1.08638,0,0,633,139,633,139,682,123,637,197,0.471707,-0.215021,0,-1.5,0,0,0,0,-0.123523,-0.205388,-0.109375,0.1875,0,0,-0.197624,-0.324273,3848,0,0,0,0,0,0,0,0,0,2.5,0.410775
7202,0,0,0.757812,-0.000172008,-0.0001135,-0.010144,-0.0376562,-0.0219672,-1.08652,-7.58277,-6.18804,-0.149242,-0.126906,-0.210938,-0.199794,-0.327678,-1.08652,0,0,633,139,633,139,682,123,637,197,0.473401,-0.211744,0,-1.5,0,0,0,0,-0.126906,-0.210938,-0.109375,0.1875,0,0,-0.199794,-0.327678,3848,0,0,0,0,0,0,0,0,0,2.5,0.421876
7218,0,0,-7.16504,-0.00154666,0.000261191,-0.0116774,-0.037641,-0.0219549,-1.08668,-7.32416,-5.9769,-0.183819,-0.130123,-0.216213,-0.201816,-0.330852,-1.08668,0,0,633,139,633,139,686,119,635,197,0.475004,-0.208632,0,-1.5,0,0,0,0,-0.130123,-0.216213,-0.109375,0.1875,0,0,-0.201816,-0.330852,4134,0,0,0,0,0,0,0,0,0,2.5,0.432426
7234,0,0,4.12207,-0.00182554,4.85405e-05,-0.0102921,-0.0376248,-0.0219407,-1.08683,-7.32416,-5.9769,-0.183819,-0.133373,-0.221539,-0.203822,-0.333997,-1.08683,0,0,633,139,633,139,686,119,635,197,0.476614,-0.205511,0,-1.5,0,0,0,0,-0.133373,-0.221539,-0.109375,0.1875,0,0,-0.203822,-0.333997,4134,0,0,0,0,0,0,0,0,0,2.5,0.443077
7250,0,0,6.28223,-0.00236253,-0.000448378,-0.0095844,-0.037615,-0.0219211,-1.08695,-7.32418,-5.97708,-0.183959,-0.136655,-0.226915,-0.205812,-0.337113,-1.08695,0,0,633,139,633,139,686,119,635,197,0.478231,-0.202381,0,-1.5,0,0,0,0,-0.136655,-0.226915,-0.109375,0.1875,0,0,-0.205812,-0.337113,4134,0,0,0,0,0,0,0,0,0,2.5,0.453831
7266,0,0,6.28223,-0.00236253,-0.000448378,-0.0095844,-0.037615,-0.0219211,-1.08695,-7.32418,-5.97708,-0.183959,-0.139969,-0.232342,-0.207787,-0.340203,-1.08695,0,0,633,139,633,139,686,119,635,197,0.479852,-0.199295,0,-1.5,0,0,0,0,-0.139969,-0.232342,-0.109375,0.1875,0,0,-0.207787,-0.340203,4134,0,0,0,0,0,0,0,0,0,2.5,0.464684
7282,0,0,6.28223,-0.00236253,-0.000448378,-0.0095844,-0.037615,-0.0219211,-1.08695,-7.34344,-6.0109,-0.178614,-0.143314,-0.237817,-0.209746,-0.343268,-1.08695,0,0,633,139,633,139,686,119,639,197,0.481482,-0.196194,0,-1.5,0,0,0,0,-0.143314,-0.237817,-0.109375,0.1875,0,0,-0.209746,-0.343268,4134,0,0,0,0,0,0,0,0,0,2.5,0.475634
7298,0,0,0.0585938,-0.000677264,0.000251084,-0.00981304,-0.0375635,-0.0218344,-1.0875,-7.34344,-6.0109,-0.178614,-0.14669,-0.243341,-0.21169,-0.346303,-1.0875,0,0,633,139,633,139,686,119,639,197,0.48313,-0.192815,0,-1.5,0,0,0,0,-0.14669,-0.243341,-0.109375,0.1875,0,0,-0.21169,-0.346303,4134,0,0,0,0,0,0,0,0,0,2.5,0.486681
7315,0,0,-4.74805,-0.00227979,-0.000156901,-0.0105296,-0.0375553,-0.0218185,-1.08764,-7.58198,-6.1886,-0.144841,-0.150311,-0.249263,-0.213741,-0.349487,-1.08764,0,0,635,138,635,138,682,123,635,197,0.484878,-0.18942,0,-1.5,0,0,0,0,-0.150311,-0.249263,-0.109375,0.1875,0,0,-0.213741,-0.349487,3700,0,0,0,0,0,0,0,0,0,2.5,0.498526
7330,0,0,-7.06445,-0.000909808,0.000243007,-0.0106185,-0.0375342,-0.0218039,-1.08778,-7.58198,-6.1886,-0.144841,-0.153534,-0.254531,-0.215535,-0.352269,-1.08778,0,0,635,138,635,138,682,123,635,197,0.486427,-0.1864,0,-1.5,0,0,0,0,-0.153534,-0.254531,-0.109375,0.1875,0,0,-0.215535,-0.352269,3700,0,0,0,0,0,0,0,0,0,2.5,0.509063
7346,0,0,-7.1543,-0.00195906,0.000891672,-0.0102435,-0.0375205,-0.0217815,-1.08792,-7.33613,-5.99618,-0.180368,-0.157003,-0.260199,-0.217435,-0.355211,-1.08792,0,0,633,139,633,139,686,119,637,197,0.488086,-0.183173,0,-1.5,0,0,0,0,-0.157003,-0.260199,-0.109375,0.1875,0,0,-0.217435,-0.355211,4134,0,0,0,0,0,0,0,0,0,2.5,0.520397
7362,0,0,0.726562,-0.00200678,2.30999e-05,-0.0102979,-0.037491,-0.0217644,-1.08821,-7.33613,-5.99618,-0.180368,-0.160501,-0.265913,-0.21932,-0.358126,-1.08792,0,0,633,139,633,139,686,119,637,197,0.489751,-0.179997,0,-1.5,0,0,0,0,-0.160501,-0.265913,-0.109375,0.1875,0,0,-0.21932,-0.358126,4134,0,0,0,0,0,0,0,0,0,2.5,0.531825
7379,0,0,-7.18652,-0.00208102,0.000435818,-0.00973717,-0.0373535,-0.0217285,-1.08838,-7.33613,-5.99618,-0.180368,-0.164252,-0.272034,-0.221303,-0.36119,-1.08838,0,0,633,139,633,139,686,119,637,197,0.491528,-0.176382,0,-1.5,0,0,0,0,-0.164252,-0.272034,-0.109375,0.1875,0,0,-0.221303,-0.36119,4134,0,0,0,0,0,0,0,0,0,2.5,0.544069
7395,0,0,4.09277,-0.00204747,-0.000555341,-0.00937982,-0.0374756,-0.0217445,-1.08847,-7.33613,-5.99618,-0.180368,-0.167588,-0.277478,-0.223029,-0.363862,-1.08847,0,0,633,139,633,139,686,119,637,197,0.493101,-0.173334,0,-1.5,0,0,0,0,-0.167588,-0.277478,-0.109375,0.1875,0,0,-0.223029,-0.363862,4134,0,0,0,0,0,0,0,0,0,2.5,0.554956
7411,0,0,6.25586,-0.00169147,0.000114182,-0.00942284,-0.0374672,-0.0217312,-1.08861,-7.33613,-5.99618,-0.180368,-0.171402,-0.283698,-0.224984,-0.366874,-1.08861,0,0,633,139,633,139,686,119,637,197,0.494892,-0.169843,0,-1.5,0,0,0,0,-0.171402,-0.283698,-0.109375,0.1875,0,0,-0.224984,-0.366874,4134,0,0,0,0,0,0,0,0,0,2.5,0.567396
7427,0,0,-7.0332,-0.00211549,0.000516814,-0.00946216,-0.0374542,-0.0217085,-1.08874,-7.33613,-5.99618,-0.180368,-0.175021,-0.289598,-0.226809,-0.369681,-1.08874,0,0,633,139,633,139,686,119,637,197,0.496584,-0.166542,0,-1.5,0,0,0,0,-0.175021,-0.289598,-0.109375,0.1875,0,0,-0.226809,-0.369681,4134,0,0,0,0,0,0,0,0,0,2.5,0.579195
7443,0,0,-5.97461,-0.00246443,-0.000380598,-0.00970897,-0.0374396,-0.0216869,-1.089,-7.33613,-5.99618,-0.180368,-0.178669,-0.295542,-0.22862,-0.372461,-1.08888,0,0,633,139,633,139,686,119,637,197,0.498283,-0.163223,0,-1.5,0,0,0,0,-0.178669,-0.295542,-0.109375,0.1875,0,0,-0.22862,-0.372461,4134,0,0,0,0,0,0,0,0,0,2.5,0.591083
7459,0,0,0.0488281,-0.0025504,0.000335027,-0.00948203,-0.0374322,-0.0216715,-1.08914,-7.73788,-6.31823,-0.0767998,-0.182346,-0.30153,-0.230417,-0.375217,-1.089,0,0,635,138,635,138,684,121,634,191,0.499988,-0.159898,0,-1.5,0,0,0,0,-0.182346,-0.30153,-0.109375,0.1875,0,0,-0.230417,-0.375217,3570,0,0,0,0,0,0,0,0,0,2.5,0.60306
7475,0,0,-4.75,-0.00114254,-0.000480592,-0.01003,-0.0374075,-0.0216603,-1.08927,-7.73788,-6.31823,-0.0767998,-0.186051,-0.307562,-0.232201,-0.377946,-1.08927,0,0,635,138,635,138,684,121,634,191,0.501697,-0.156486,0,-1.5,0,0,0,0,-0.186051,-0.307562,-0.109375,0.1875,0,0,-0.232201,-0.377946,3570,0,0,0,0,0,0,0,0,0,2.5,0.615125
7491,0,0,-7.02051,-0.00206767,0.00129167,-0.00985689,-0.0373905,-0.0216296,-1.08942,-7.73788,-6.31823,-0.0767998,-0.189784,-0.313637,-0.233968,-0.380648,-1.08942,0,0,635,138,635,138,684,121,634,191,0.503413,-0.153121,0,-1.5,0,0,0,0,-0.189784,-0.313637,-0.109375,0.1875,0,0,-0.233968,-0.380648,3570,0,0,0,0,0,0,0,0,0,2.5,0.627274
7508,0,0,-7.1377,-0.00146455,-0.000237418,-0.0101531,-0.0373797,-0.0216212,-1.08955,-7.73788,-6.31823,-0.0767998,-0.193782,-0.320139,-0.235832,-0.38349,-1.08955,0,0,635,138,635,138,684,121,634,191,0.505244,-0.149542,0,-1.5,0,0,0,0,-0.193782,-0.320139,-0.109375,0.1875,0,0,-0.235832,-0.38349,3570,0,0,0,0,0,0,0,0,0,2.5,0.640279
7522,0,0,-7.1377,-0.00146455,-0.000237418,-0.0101531,-0.0373797,-0.0216212,-1.08955,-7.62819,-6.21791,-0.139755,-0.197097,-0.325529,-0.237354,-0.38581,-1.08955,0,0,633,139,633,139,682,123,637,197,0.50676,-0.146639,0,-1.5,0,0,0,0,-0.197097,-0.325529,-0.109375,0.1875,0,0,-0.237354,-0.38581,3700,0,0,0,0,0,0,0,0,0,2.5,0.651058
7537,0,0,-7.1377,-0.00146455,-0.000237418,-0.0101531,-0.0373797,-0.0216212,-1.08955,-7.62819,-6.21791,-0.139755,-0.200673,-0.33134,-0.238974,-0.388279,-1.08955,0,0,633,139,633,139,682,123,637,197,0.508391,-0.143517,0,-1.5,0,0,0,0,-0.200673,-0.33134,-0.109375,0.1875,0,0,-0.238974,-0.388279,3700,0,0,0,0,0,0,0,0,0,2.5,0.66268
7554,0,0,-7.1377,-0.00146455,-0.000237418,-0.0101531,-0.0373797,-0.0216212,-1.08955,-7.62819,-6.21791,-0.139755,-0.204756,-0.337971,-0.240795,-0.391055,-1.08955,0,0,633,139,633,139,682,123,637,197,0.510247,-0.139963,0,-1.5,0,0,0,0,-0.204756,-0.337971,-0.109375,0.1875,0,0,-0.240795,-0.391055,3700,0,0,0,0,0,0,0,0,0,2.5,0.675942
7570,0,0,6.30176,-0.00202866,-0.00053657,-0.00918272,-0.0373102,-0.0215415,-1.09023,-7.62819,-6.21791,-0.139755,-0.208626,-0.344254,-0.242495,-0.393645,-1.08955,0,0,633,139,633,139,682,123,637,197,0.512001,-0.136604,0,-1.5,0,0,0,0,-0.208626,-0.344254,-0.109375,0.1875,0,0,-0.242495,-0.393645,3700,0,0,0,0,0,0,0,0,0,2.5,0.688509
7586,0,0,-7.01562,-0.00187947,-0.000272454,-0.00896356,-0.0372935,-0.0215293,-1.09035,-7.62819,-6.21791,-0.139755,-0.212524,-0.35058,-0.244181,-0.396196,-1.09035,0,0,633,139,633,139,682,123,637,197,0.513727,-0.132825,0,-1.5,0,0,0,0,-0.212524,-0.35058,-0.109375,0.1875,0,0,-0.244181,-0.396196,3700,0,0,0,0,0,0,0,0,0,2.5,0.701159
7603,0,0,7.04785,-0.000371954,0.000705477,-0.0106264,-0.0372724,-0.0215013,-1.0905,-7.62819,-6.21791,-0.139755,-0.216695,-0.357345,-0.245957,-0.39888,-1.0905,0,0,633,139,633,139,682,123,637,197,0.515594,-0.129155,0,-1.5,0,0,0,0,-0.216695,-0.357345,-0.109375,0.1875,0,0,-0.245957,-0.39888,3700,0,0,0,0,0,0,0,0,0,2.5,0.714691
7619,0,0,-5.98633,-0.00195041,-0.000489047,-0.0102272,-0.0372581,-0.0214896,-1.09064,-7.55828,-6.15235,-0.158516,-0.220648,-0.363754,-0.247615,-0.401379,-1.09064,0,0,633,139,633,139,682,123,635,198,0.517356,-0.125686,0,-1.5,0,0,0,0,-0.220648,-0.363754,-0.109375,0.1875,0,0,-0.247615,-0.401379,3750,0,0,0,0,0,0,0,0,0,2.5,0.727508
7636,0,0,0.0439453,-0.000881751,0.000375556,-0.0103408,-0.0372306,-0.0214701,-1.09078,-7.55828,-6.15235,-0.158516,-0.224627,-0.370202,-0.249259,-0.403855,-1.09078,0,0,633,139,633,139,682,123,635,198,0.519124,-0.122202,0,-1.5,0,0,0,0,-0.224627,-0.370202,-0.109375,0.1875,0,0,-0.249259,-0.403855,3750,0,0,0,0,0,0,0,0,0,2.5,0.740404
7652,0,0,-4.73242,-0.000900778,-0.000371051,-0.0103632,-0.0372085,-0.0214674,-1.09093,-7.55828,-6.15245,-0.158528,-0.228883,-0.377096,-0.250989,-0.406459,-1.09093,0,0,633,139,633,139,682,123,635,198,0.521008,-0.11849,0,-1.5,0,0,0,0,-0.228883,-0.377096,-0.109375,0.1875,0,0,-0.250989,-0.406459,3750,0,0,0,0,0,0,0,0,0,2.5,0.754192
7668,0,0,-7.14941,-0.000222774,0.000112598,-0.00973562,-0.037175,-0.0214196,-1.09121,-7.55828,-6.15245,-0.158528,-0.232916,-0.383624,-0.252602,-0.408888,-1.09093,0,0,633,139,633,139,682,123,635,198,0.522795,-0.115056,0,-1.5,0,0,0,0,-0.232916,-0.383624,-0.109375,0.1875,0,0,-0.252602,-0.408888,3750,0,0,0,0,0,0,0,0,0,2.5,0.767249
7684,0,0,-4.27246,-0.00199075,0.000196349,-0.00982271,-0.037158,-0.0213939,-1.09135,-7.42571,-6.0711,-0.174491,-0.236974,-0.390191,-0.254204,-0.411286,-1.09135,0,0,633,138,633,138,684,122,637,198,0.524561,-0.111393,0,-1.5,0,0,0,0,-0.236974,-0.390191,-0.109375,0.1875,0,0,-0.254204,-0.411286,3952,0,0,0,0,0,0,0,0,0,2.5,0.780382
7700,0,0,0.726562,-0.00177256,-0.000394315,-0.00949964,-0.037146,-0.0213808,-1.09147,-7.42571,-6.0711,-0.174491,-0.240801,-0.396382,-0.255693,-0.413513,-1.09147,0,0,633,138,633,138,684,122,637,198,0.526238,-0.108086,0,-1.5,0,0,0,0,-0.240801,-0.396382,-0.109375,0.1875,0,0,-0.255693,-0.413513,3952,0,0,0,0,0,0,0,0,0,2.5,0.792764
7717,0,0,-7.18066,-0.00178748,-0.000206506,-0.0089967,-0.0371324,-0.021367,-1.0916,-7.44155,-6.0838,-0.162747,-0.245425,-0.403857,-0.257467,-0.41616,-1.0916,0,0,635,138,635,138,684,121,635,197,0.528258,-0.104115,0,-1.5,0,0,0,0,-0.245425,-0.403857,-0.109375,0.1875,0,0,-0.257467,-0.41616,3800,0,0,0,0,0,0,0,0,0,2.5,0.807715
7732,0,0,6.31445,-0.00124061,0.000509921,-0.00930588,-0.0370723,-0.0213259,-1.09188,-7.44155,-6.0838,-0.162747,-0.249301,-0.41012,-0.258931,-0.418342,-1.09175,0,0,635,138,635,138,684,121,635,197,0.529942,-0.100775,0,-1.5,0,0,0,0,-0.249301,-0.41012,-0.109375,0.1875,0,0,-0.258931,-0.418342,3800,0,0,0,0,0,0,0,0,0,2.5,0.820241
7748,0,0,-7.03906,-0.00114481,-0.000216509,-0.00969851,-0.0370486,-0.0213158,-1.09202,-7.44155,-6.0838,-0.162747,-0.25346,-0.416838,-0.260479,-0.420646,-1.09188,0,0,635,138,635,138,684,121,635,197,0.531746,-0.0972129,0,-1.5,0,0,0,0,-0.25346,-0.416838,-0.109375,0.1875,0,0,-0.260479,-0.420646,3800,0,0,0,0,0,0,0,0,0,2.5,0.833676
7764,0,0,7.04492,-0.00204447,-0.000196269,-0.00946803,-0.0370356,-0.0212986,-1.09215,-7.44155,-6.0838,-0.162747,-0.257644,-0.423592,-0.262012,-0.422925,-1.09215,0,0,635,138,635,138,684,121,635,197,0.533543,-0.0935654,0,-1.5,0,0,0,0,-0.257644,-0.423592,-0.109375,0.1875,0,0,-0.262012,-0.422925,3800,0,0,0,0,0,0,0,0,0,2.5,0.847185
7781,0,0,-6.00293,-0.00132706,0.000143833,-0.0100938,-0.0370154,-0.0212883,-1.0923,-7.44155,-6.0838,-0.162747,-0.262116,-0.430809,-0.263628,-0.425322,-1.0923,0,0,635,138,635,138,684,121,635,197,0.535468,-0.0897523,0,-1.5,0,0,0,0,-0.262116,-0.430809,-0.109375,0.1875,0,0,-0.263628,-0.425322,3800,0,0,0,0,0,0,0,0,0,2.5,0.861617
7797,0,0,0.0185547,-0.00321152,0.00104195,-0.00879131,-0.0370085,-0.0212594,-1.09243,-7.44155,-6.0838,-0.162747,-0.266349,-0.437636,-0.265135,-0.427555,-1.09243,0,0,635,138,635,138,684,121,635,197,0.537286,-0.086156,0,-1.5,0,0,0,0,-0.266349,-0.437636,-0.109375,0.1875,0,0,-0.265135,-0.427555,3800,0,0,0,0,0,0,0,0,0,2.5,0.875273
7813,0,0,-4.75391,-0.000643408,2.84064e-05,-0.00885768,-0.0369852,-0.0212394,-1.09254,-7.44155,-6.0838,-0.162747,-0.270607,-0.444501,-0.266631,-0.429765,-1.09254,0,0,635,138,635,138,684,121,635,197,0.539109,-0.0825563,0,-1.5,0,0,0,0,-0.270607,-0.444501,-0.109375,0.1875,0,0,-0.266631,-0.429765,3800,0,0,0,0,0,0,0,0,0,2.5,0.889001
7829,0,0,-7.03613,-0.00164115,-0.000889037,-0.0102233,-0.0369652,-0.0212268,-1.09268,-7.44155,-6.0838,-0.162747,-0.274888,-0.451399,-0.268114,-0.431953,-1.09268,0,0,635,138,635,138,684,121,635,197,0.540935,-0.0789325,0,-1.5,0,0,0,0,-0.274888,-0.451399,-0.109375,0.1875,0,0,-0.268114,-0.431953,3800,0,0,0,0,0,0,0,0,0,2.5,0.902798
7845,0,0,-4.24121,-0.00174227,0.000134738,-0.010891,-0.0369552,-0.0211938,-1.09296,-7.43659,-6.07171,-0.177138,-0.279194,-0.458333,-0.269585,-0.43412,-1.09282,0,0,633,139,633,139,684,122,635,198,0.542766,-0.0752984,0,-1.5,0,0,0,0,-0.279194,-0.458333,-0.109375,0.1875,0,0,-0.269585,-0.43412,3952,0,0,0,0,0,0,0,0,0,2.5,0.916666
7862,0,0,0.758789,-0.00111757,-0.000308066,-0.00932409,-0.0369419,-0.0211812,-1.09309,-7.43659,-6.07171,-0.177138,-0.283794,-0.465738,-0.271137,-0.436398,-1.09309,0,0,633,139,633,139,684,122,635,198,0.544704,-0.071361,0,-1.5,0,0,0,0,-0.283794,-0.465738,-0.109375,0.1875,0,0,-0.271137,-0.436398,3952,0,0,0,0,0,0,0,0,0,2.5,0.931477
7878,0,0,-7.16016,-0.00116261,-0.000570299,-0.0101096,-0.0369179,-0.0211775,-1.09323,-7.43659,-6.07171,-0.177138,-0.288147,-0.472742,-0.272585,-0.438521,-1.09323,0,0,633,139,633,139,684,122,635,198,0.546543,-0.0677027,0,-1.5,0,0,0,0,-0.288147,-0.472742,-0.109375,0.1875,0,0,-0.272585,-0.438521,3952,0,0,0,0,0,0,0,0,0,2.5,0.945485
7894,0,0,-7.16016,-0.00116261,-0.000570299,-0.0101096,-0.0369179,-0.0211775,-1.09323,-7.43659,-6.07171,-0.177138,-0.292523,-0.47978,-0.27402,-0.440624,-1.09323,0,0,633,139,633,139,684,122,635,198,0.548402,-0.0641104,0,-1.5,0,0,0,0,-0.292523,-0.47978,-0.109375,0.1875,0,0,-0.27402,-0.440624,3952,0,0,0,0,0,0,0,0,0,2.5,0.95956
7911,0,0,6.25781,-0.00104231,0.00101282,-0.0103215,-0.0368807,-0.0211413,-1.09351,-7.43659,-6.07171,-0.177138,-0.296922,-0.486852,-0.275443,-0.442708,-1.09351,0,0,633,139,633,139,684,122,635,198,0.550234,-0.0603525,0,-1.5,0,0,0,0,-0.296922,-0.486852,-0.109375,0.1875,0,0,-0.275443,-0.442708,3952,0,0,0,0,0,0,0,0,0,2.5,0.973704
7925,0,0,6.25781,-0.00104231,0.00101282,-0.0103215,-0.0368807,-0.0211413,-1.09351,-7.43659,-6.07171,-0.177138,-0.301067,-0.493511,-0.276766,-0.444641,-1.09351,0,0,633,139,633,139,684,122,635,198,0.551986,-0.0569657,0,-1.5,0,0,0,0,-0.301067,-0.493511,-0.109375,0.1875,0,0,-0.276766,-0.444641,3952,0,0,0,0,0,0,0,0,0,2.5,0.987023
7940,0,0,-5.97754,-0.00142706,0.000883583,-0.00870895,-0.0368266,-0.0211016,-1.09391,-7.43659,-6.07171,-0.177138,-0.305231,-0.5002,-0.278078,-0.446558,-1.09379,0,0,633,139,633,139,684,122,635,198,0.553708,-0.0534148,0,-1.5,0,0,0,0,-0.305231,-0.5002,-0.109375,0.1875,0,0,-0.278078,-0.446558,3952,0,0,0,0,0,0,0,0,0,2.5,1.0004
7957,0,0,0.0605469,-0.00220579,-0.000178602,-0.00943702,-0.0368149,-0.0210756,-1.09405,-7.44141,-6.08445,-0.162527,-0.309974,-0.507815,-0.279552,-0.448706,-1.09391,0,0,635,138,635,138,684,121,635,197,0.555688,-0.0494888,0,-1.5,0,0,0,0,-0.309974,-0.507815,-0.109375,0.1875,0,0,-0.279552,-0.448706,3800,0,0,0,0,0,0,0,0,0,2.5,1.01563
7972,0,0,-4.77344,-0.00201114,-0.000151807,-0.00954717,-0.0367971,-0.0210609,-1.09418,-7.44141,-6.08445,-0.162527,-0.31418,-0.514564,-0.280843,-0.450579,-1.09418,0,0,635,138,635,138,684,121,635,197,0.557416,-0.0459217,0,-1.5,0,0,0,0,-0.31418,-0.514564,-0.109375,0.1875,0,0,-0.280843,-0.450579,3800,0,0,0,0,0,0,0,0,0,2.5,1.02913
7989,0,0,-4.77344,-0.00201114,-0.000151807,-0.00954717,-0.0367971,-0.0210609,-1.09418,-7.35211,-6.02032,-0.171401,-0.318688,-0.521794,-0.282209,-0.452558,-1.09418,0,0,635,138,635,138,686,119,637,197,0.559302,-0.0422699,0,-1.5,0,0,0,0,-0.318688,-0.521794,-0.109375,0.1875,0,0,-0.282209,-0.452558,3978,0,0,0,0,0,0,0,0,0,2.5,1.04359
8005,0,0,-7.15625,-0.00140129,0.000772405,-0.0095846,-0.0367697,-0.0210313,-1.09446,-7.35211,-6.02032,-0.171401,-0.323501,-0.52951,-0.283649,-0.454641,-1.09446,0,0,635,138,635,138,686,119,637,197,0.561273,-0.0382214,0,-1.5,0,0,0,0,-0.323501,-0.52951,-0.109375,0.1875,0,0,-0.283649,-0.454641,3978,0,0,0,0,0,0,0,0,0,2.5,1.05902
8020,0,0,-7.15625,-0.00140129,0.000772405,-0.0095846,-0.0367697,-0.0210313,-1.09446,-7.36464,-6.02188,-0.16878,-0.327768,-0.536347,-0.284908,-0.45646,-1.09446,0,0,635,138,635,138,684,119,637,197,0.563049,-0.0347793,0,-1.5,0,0,0,0,-0.327768,-0.536347,-0.109375,0.1875,0,0,-0.284908,-0.45646,3822,0,0,0,0,0,0,0,0,0,2.5,1.07269
8037,0,0,-7.16504,-0.00149001,0.000663082,-0.0107173,-0.0367244,-0.0209768,-1.09489,-7.36464,-6.02188,-0.16878,-0.332627,-0.54413,-0.286325,-0.458505,-1.09446,0,0,635,138,635,138,684,119,637,197,0.565067,-0.0308669,0,-1.5,0,0,0,0,-0.332627,-0.54413,-0.109375,0.1875,0,0,-0.286325,-0.458505,3822,0,0,0,0,0,0,0,0,0,2.5,1.08826
8053,0,0,4.1084,-0.00208137,0.000303991,-0.00969998,-0.0367122,-0.0209682,-1.09502,-7.36464,-6.02188,-0.16878,-0.337222,-0.551485,-0.287646,-0.460407,-1.09489,0,0,635,138,635,138,684,119,637,197,0.566909,-0.0269365,0,-1.5,0,0,0,0,-0.337222,-0.551485,-0.109375,0.1875,0,0,-0.287646,-0.460407,3822,0,0,0,0,0,0,0,0,0,2.5,1.10297
8070,0,0,6.28516,-0.00217195,0.00043431,-0.0109474,-0.0367022,-0.0209616,-1.09517,-7.36464,-6.02188,-0.16878,-0.342127,-0.559334,-0.289039,-0.462402,-1.09517,0,0,635,138,635,138,684,119,637,197,0.568893,-0.0228417,0,-1.5,0,0,0,0,-0.342127,-0.559334,-0.109375,0.1875,0,0,-0.289039,-0.462402,3822,0,0,0,0,0,0,0,0,0,2.5,1.11867
8086,0,0,6.28516,-0.00217195,0.00043431,-0.0109474,-0.0367022,-0.0209616,-1.09517,-7.36464,-6.02188,-0.16878,-0.346765,-0.566752,-0.290339,-0.464263,-1.09517,0,0,635,138,635,138,684,119,637,197,0.570804,-0.0191311,0,-1.5,0,0,0,0,-0.346765,-0.566752,-0.109375,0.1875,0,0,-0.290339,-0.464263,3822,0,0,0,0,0,0,0,0,0,2.5,1.1335
8101,0,0,7.0625,-0.00224419,0.000811066,-0.00891474,-0.0366706,-0.020916,-1.09543,-7.36464,-6.02188,-0.16878,-0.351132,-0.573732,-0.291548,-0.46599,-1.09543,0,0,635,138,635,138,684,119,637,197,0.572559,-0.0154965,0,-1.5,0,0,0,0,-0.351132,-0.573732,-0.109375,0.1875,0,0,-0.291548,-0.46599,3822,0,0,0,0,0,0,0,0,0,2.5,1.14746
8119,0,0,-5.96875,-0.00149324,0.000873957,-0.0104624,-0.0366592,-0.0208982,-1.09557,-7.36464,-6.02188,-0.16878,-0.356104,-0.581676,-0.292908,-0.467925,-1.09557,0,0,635,138,635,138,684,119,637,197,0.574575,-0.0114529,0,-1.5,0,0,0,0,-0.356104,-0.581676,-0.109375,0.1875,0,0,-0.292908,-0.467925,3822,0,0,0,0,0,0,0,0,0,2.5,1.16335
8134,0,0,-4.73828,-0.00102212,0.000381555,-0.00920216,-0.0366256,-0.0208889,-1.09583,-7.36464,-6.02188,-0.16878,-0.360803,-0.589181,-0.294178,-0.469728,-1.0957,0,0,635,138,635,138,684,119,637,197,0.576476,-0.00764016,0,-1.5,0,0,0,0,-0.360803,-0.589181,-0.109375,0.1875,0,0,-0.294178,-0.469728,3822,0,0,0,0,0,0,0,0,0,2.5,1.17836
8150,0,0,-7.02344,-0.0019107,0.00022188,-0.00965303,-0.0366187,-0.0208745,-1.09597,-7.36464,-6.02188,-0.16878,-0.365523,-0.596715,-0.295436,-0.471514,-1.09583,0,0,635,138,635,138,684,119,637,197,0.578382,-0.00381983,0,-1.5,0,0,0,0,-0.365523,-0.596715,-0.109375,0.1875,0,0,-0.295436,-0.471514,3822,0,0,0,0,0,0,0,0,0,2.5,1.19343
8166,0,0,-7.13574,-0.00184126,0.00107482,-0.009813,-0.0366012,-0.020863,-1.09611,-7.36464,-6.02188,-0.16878,-0.370263,-0.604277,-0.296684,-0.47328,-1.09611,0,0,635,138,635,138,684,119,637,197,0.580265,9.45852e-05,0,-1.5,0,0,0,0,-0.370263,-0.604277,-0.109375,0.1875,0,0,-0.296684,-0.47328,3822,0,0,0,0,0,0,0,0,0,2.5,1.20855
8182,0,0,-4.22949,-0.00166913,0.000473076,-0.00954744,-0.0365829,-0.0208499,-1.09624,-7.36464,-6.02188,-0.16878,-0.375023,-0.611868,-0.29792,-0.475029,-1.09624,0,0,635,138,635,138,684,119,637,197,0.582176,0.00393603,0,-1.5,0,0,0,0,-0.375023,-0.611868,-0.109375,0.1875,0,0,-0.29792,-0.475029,3822,0,0,0,0,0,0,0,0,0,2.5,1.22374
8198,0,0,0.745117,-0.00259724,7.5265e-05,-0.00939095,-0.0365733,-0.0208409,-1.09636,-7.36464,-6.02188,-0.16878,-0.379802,-0.619487,-0.299147,-0.47676,-1.09636,0,0,635,138,635,138,684,119,637,197,0.584091,0.00778285,0,-1.5,0,0,0,0,-0.379802,-0.619487,-0.109375,0.1875,0,0,-0.299147,-0.47676,3822,0,0,0,0,0,0,0,0,0,2.5,1.23897
8215,0,0,-7.16895,-0.00223536,0.000557083,-0.0103109,-0.0365616,-0.0208279,-1.09651,-7.5791,-6.1716,-0.152713,-0.384902,-0.627612,-0.300439,-0.478581,-1.09651,0,0,633,139,633,139,680,123,637,198,0.586127,0.0118894,0,-1.5,0,0,0,0,-0.384902,-0.627612,-0.109375,0.1875,0,0,-0.300439,-0.478581,3750,0,0,0,0,0,0,0,0,0,2.5,1.25522
8231,0,0,6.25098,-0.0027802,0.000190193,-0.00862224,-0.0365412,-0.0208014,-1.09676,-7.5791,-6.1716,-0.152713,-0.38942,-0.634806,-0.30157,-0.480174,-1.09651,0,0,633,139,633,139,680,123,637,198,0.587443,0.0144521,0,-1.5,0,0,0,0,-0.38942,-0.634806,-0.109375,0.1875,0,0,-0.30157,-0.480174,3750,0,0,0,0,0,0,0,0,0,2.5,1.26961
8247,0,0,6.25098,-0.0027802,0.000190193,-0.00862224,-0.0365412,-0.0208014,-1.09676,-7.5791,-6.1716,-0.152713,-0.39456,-0.642989,-0.302842,-0.481961,-1.09676,0,0,633,139,633,139,680,123,637,198,0.587396,0.0145982,0,-1.5,0,0,0,0,-0.39456,-0.642989,-0.109375,0.1875,0,0,-0.302842,-0.481961,3750,0,0,0,0,0,0,0,0,0,2.5,1.28598
8263,0,0,7.0459,-0.000487852,0.00126593,-0.00892413,-0.0365082,-0.0207609,-1.09702,-7.5791,-6.1716,-0.152713,-0.399418,-0.650718,-0.30403,-0.483625,-1.09702,0,0,633,139,633,139,680,123,637,198,0.587348,0.0147485,0,-1.5,0,0,0,0,-0.399418,-0.650718,-0.109375,0.1875,0,0,-0.30403,-0.483625,3750,0,0,0,0,0,0,0,0,0,2.5,1.30144
8279,0,0,-5.98047,-0.000882515,-0.000142105,-0.0100637,-0.0364882,-0.0207503,-1.09716,-7.5791,-6.1716,-0.152713,-0.404295,-0.658473,-0.305208,-0.485267,-1.09716,0,0,633,139,633,139,680,123,637,198,0.58732,0.0148339,0,-1.5,0,0,0,0,-0.404295,-0.658473,-0.109375,0.1875,0,0,-0.305208,-0.485267,3750,0,0,0,0,0,0,0,0,0,2.5,1.31695
8295,0,0,0.0537109,-0.00130271,0.000501692,-0.00940449,-0.0364672,-0.0207351,-1.0973,-7.5791,-6.1716,-0.152713,-0.40919,-0.666254,-0.306374,-0.486891,-1.0973,0,0,633,139,633,139,680,123,637,198,0.587295,0.0149127,0,-1.5,0,0,0,0,-0.40919,-0.666254,-0.109375,0.1875,0,0,-0.306374,-0.486891,3750,0,0,0,0,0,0,0,0,0,2.5,1.33251
8312,0,0,-4.74512,-0.00138026,6.31191e-05,-0.00987247,-0.0364537,-0.0207179,-1.09744,-7.5791,-6.1716,-0.152713,-0.414413,-0.67455,-0.307603,-0.4886,-1.09744,0,0,633,139,633,139,680,123,637,198,0.587268,0.0149946,0,-1.5,0,0,0,0,-0.414413,-0.67455,-0.109375,0.1875,0,0,-0.307603,-0.4886,3750,0,0,0,0,0,0,0,0,0,2.5,1.3491
8327,0,0,-7.15527,-0.000733567,0.0011475,-0.00952321,-0.036418,-0.0206669,-1.09772,-7.5791,-6.1716,-0.152713,-0.419037,-0.681893,-0.308679,-0.490092,-1.09744,0,0,633,139,633,139,680,123,637,198,0.587268,0.0149946,0,-1.5,0,0,0,0,-0.419037,-0.681893,-0.109375,0.1875,0,0,-0.308679,-0.490092,3750,0,0,0,0,0,0,0,0,0,2.5,1.36379
8342,0,0,-4.23145,-0.0018925,0.000389249,-0.0102122,-0.0363995,-0.02065,-1.09786,-7.5791,-6.1716,-0.152713,-0.423677,-0.689259,-0.309746,-0.491568,-1.09772,0,0,633,139,633,139,680,123,637,198,0.587215,0.0151594,0,-1.5,0,0,0,0,-0.423677,-0.689259,-0.109375,0.1875,0,0,-0.309746,-0.491568,3750,0,0,0,0,0,0,0,0,0,2.5,1.37852
8358,0,0,0.754883,-0.00145713,-0.000199258,-0.010121,-0.0363942,-0.0206401,-1.098,-7.5791,-6.1716,-0.152713,-0.428645,-0.69714,-0.310876,-0.493123,-1.09786,0,0,633,139,633,139,680,123,637,198,0.587188,0.0152442,0,-1.5,0,0,0,0,-0.428645,-0.69714,-0.109375,0.1875,0,0,-0.310876,-0.493123,3750,0,0,0,0,0,0,0,0,0,2.5,1.39428
8374,0,0,-7.18164,-0.00152684,0.000986639,-0.0101482,-0.0363778,-0.0206219,-1.09814,-7.5791,-6.1716,-0.152713,-0.433631,-0.705046,-0.311998,-0.494661,-1.09814,0,0,633,139,633,139,680,123,637,198,0.587135,0.0154071,0,-1.5,0,0,0,0,-0.433631,-0.705046,-0.109375,0.1875,0,0,-0.311998,-0.494661,3750,0,0,0,0,0,0,0,0,0,2.5,1.41009
8390,0,0,-7.18164,-0.00152684,0.000986639,-0.0101482,-0.0363778,-0.0206219,-1.09814,-7.5791,-6.1716,-0.152713,-0.438634,-0.712977,-0.31311,-0.496183,-1.09814,0,0,633,139,633,139,680,123,637,198,0.587135,0.0154071,0,-1.5,0,0,0,0,-0.438634,-0.712977,-0.109375,0.1875,0,0,-0.31311,-0.496183,3750,0,0,0,0,0,0,0,0,0,2.5,1.42595
8406,0,0,6.23926,-0.00270966,0.000809739,-0.0108704,-0.0363541,-0.020591,-1.09842,-7.5791,-6.1716,-0.152713,-0.443656,-0.720932,-0.314213,-0.497691,-1.09842,0,0,633,139,633,139,680,123,637,198,0.587082,0.0155703,0,-1.5,0,0,0,0,-0.443656,-0.720932,-0.109375,0.1875,0,0,-0.314213,-0.497691,3750,0,0,0,0,0,0,0,0,0,2.5,1.44186
8422,0,0,6.23926,-0.00270966,0.000809739,-0.0108704,-0.0363541,-0.020591,-1.09842,-7.5791,-6.1716,-0.152713,-0.448694,-0.72891,-0.315308,-0.499182,-1.09842,0,0,633,139,633,139,680,123,637,198,0.587082,0.0155703,0,-1.5,0,0,0,0,-0.448694,-0.72891,-0.109375,0.1875,0,0,-0.315308,-0.499182,3750,0,0,0,0,0,0,0,0,0,2.5,1.45782
8438,0,0,-6.00488,-0.00236318,8.52956e-05,-0.0096555,-0.0363094,-0.020549,-1.09883,-7.5791,-6.1716,-0.152713,-0.453751,-0.736913,-0.316395,-0.500661,-1.09842,0,0,633,139,633,139,680,123,637,198,0.587082,0.0155703,0,-1.5,0,0,0,0,-0.453751,-0.736913,-0.109375,0.1875,0,0,-0.316395,-0.500661,3750,0,0,0,0,0,0,0,0,0,2.5,1.47383
8454,0,0,-6.00488,-0.00236318,8.52956e-05,-0.0096555,-0.0363094,-0.020549,-1.09883,-7.41525,-6.04663,-0.166645,-0.458825,-0.744939,-0.317472,-0.502123,-1.09883,0,0,633,138,633,138,682,121,635,197,0.587004,0.0158105,0,-1.5,0,0,0,0,-0.458825,-0.744939,-0.109375,0.1875,0,0,-0.317472,-0.502123,3952,0,0,0,0,0,0,0,0,0,2.5,1.48988
8470,0,0,-4.72852,-0.000424508,0.00114518,-0.00959929,-0.0362735,-0.0205211,-1.0991,-7.41525,-6.04663,-0.166645,-0.463915,-0.752988,-0.318539,-0.503567,-1.0991,0,0,633,138,633,138,682,121,635,197,0.586952,0.0159713,0,-1.5,0,0,0,0,-0.463915,-0.752988,-0.109375,0.1875,0,0,-0.318539,-0.503567,3952,0,0,0,0,0,0,0,0,0,2.5,1.50598
8486,0,0,-4.72852,-0.000424508,0.00114518,-0.00959929,-0.0362735,-0.0205211,-1.0991,-7.41525,-6.04663,-0.166645,-0.469023,-0.76106,-0.319597,-0.504993,-1.0991,0,0,633,138,633,138,682,121,635,197,0.586952,0.0159713,0,-1.5,0,0,0,0,-0.469023,-0.76106,-0.109375,0.1875,0,0,-0.319597,-0.504993,3952,0,0,0,0,0,0,0,0,0,2.5,1.52212
8502,0,0,-7.12402,-0.00180883,0.000371944,-0.00935725,-0.0362383,-0.0204935,-1.09936,-7.41525,-6.04663,-0.166645,-0.474147,-0.769154,-0.320646,-0.506404,-1.09936,0,0,633,138,633,138,682,121,635,197,0.586903,0.0161232,0,-1.5,0,0,0,0,-0.474147,-0.769154,-0.109375,0.1875,0,0,-0.320646,-0.506404,3952,0,0,0,0,0,0,0,0,0,2.5,1.53831
8519,0,0,-4.23535,-0.00188018,0.000541957,-0.0104991,-0.0362225,-0.0204741,-1.0995,-7.57749,-6.17067,-0.147865,-0.479289,-0.777271,-0.321685,-0.507799,-1.0995,0,0,633,139,633,139,680,123,635,197,0.586877,0.0162046,0,-1.5,0,0,0,0,-0.479289,-0.777271,-0.109375,0.1875,0,0,-0.321685,-0.507799,3848,0,0,0,0,0,0,0,0,0,2.5,1.55454
8533,0,0,0.730469,-0.00227243,-0.000586635,-0.0103963,-0.0362093,-0.0204656,-1.09964,-7.57749,-6.17067,-0.147865,-0.484123,-0.784901,-0.322652,-0.509093,-1.09964,0,0,633,139,633,139,680,123,635,197,0.586849,0.016288,0,-1.5,0,0,0,0,-0.484123,-0.784901,-0.109375,0.1875,0,0,-0.322652,-0.509093,3848,0,0,0,0,0,0,0,0,0,2.5,1.5698
8549,0,0,-7.1582,-0.00253118,0.000144512,-0.0104297,-0.0362022,-0.0204556,-1.09978,-7.57749,-6.17067,-0.147865,-0.489296,-0.79306,-0.323675,-0.510459,-1.09978,0,0,633,139,633,139,680,123,635,197,0.586824,0.0163675,0,-1.5,0,0,0,0,-0.489296,-0.79306,-0.109375,0.1875,0,0,-0.323675,-0.510459,3848,0,0,0,0,0,0,0,0,0,2.5,1.58612
8565,0,0,6.27832,-0.00193018,0.00028307,-0.009572,-0.0361676,-0.0204295,-1.10005,-7.57749,-6.17067,-0.147865,-0.494485,-0.801241,-0.32469,-0.511812,-1.0999,0,0,633,139,633,139,680,123,635,197,0.586799,0.0164419,0,-1.5,0,0,0,0,-0.494485,-0.801241,-0.109375,0.1875,0,0,-0.32469,-0.511812,3848,0,0,0,0,0,0,0,0,0,2.5,1.60248
8581,0,0,-7.03711,-0.00146748,0.000560176,-0.0102311,-0.0361328,-0.0202637,-1.1001,-7.57749,-6.17067,-0.147865,-0.499691,-0.809444,-0.325696,-0.513146,-1.1001,0,0,633,139,633,139,680,123,635,197,0.586762,0.0165566,0,-1.5,0,0,0,0,-0.499691,-0.809444,-0.109375,0.1875,0,0,-0.325696,-0.513146,3848,0,0,0,0,0,0,0,0,0,2.5,1.61889
8597,0,0,7.06738,-0.002215,0.000316598,-0.0104777,-0.0361398,-0.0204063,-1.10033,-7.57749,-6.17067,-0.147865,-0.504913,-0.817668,-0.326699,-0.514451,-1.10033,0,0,633,139,633,139,680,123,635,197,0.586718,0.0166926,0,-1.5,0,0,0,0,-0.504913,-0.817668,-0.109375,0.1875,0,0,-0.326699,-0.514451,3848,0,0,0,0,0,0,0,0,0,2.5,1.63534
8614,0,0,-6.00879,-0.00244081,0.000293665,-0.0097719,-0.0361381,-0.0203936,-1.10047,-7.41685,-6.0665,-0.165592,-0.510478,-0.82643,-0.32775,-0.515841,-1.10047,0,0,633,138,633,138,684,121,637,197,0.586692,0.0167728,0,-1.5,0,0,0,0,-0.510478,-0.82643,-0.109375,0.1875,0,0,-0.32775,-0.515841,3952,0,0,0,0,0,0,0,0,0,2.5,1.65286
8630,0,0,-6.00879,-0.00244081,0.000293665,-0.0097719,-0.0361381,-0.0203936,-1.10047,-7.41685,-6.0665,-0.165592,-0.515403,-0.834179,-0.328671,-0.517056,-1.10047,0,0,633,138,633,138,684,121,637,197,0.586692,0.0167728,0,-1.5,0,0,0,0,-0.515403,-0.834179,-0.109375,0.1875,0,0,-0.328671,-0.517056,3952,0,0,0,0,0,0,0,0,0,2.5,1.66836
8646,0,0,-4.75098,-0.00186781,-0.000222924,-0.00903458,-0.0361173,-0.0203579,-1.10074,-7.41685,-6.0665,-0.165592,-0.521002,-0.842984,-0.329707,-0.51842,-1.10074,0,0,633,138,633,138,684,121,637,197,0.58664,0.0169313,0,-1.5,0,0,0,0,-0.521002,-0.842984,-0.109375,0.1875,0,0,-0.329707,-0.51842,3952,0,0,0,0,0,0,0,0,0,2.5,1.68597
8662,0,0,-7.12207,-0.00132376,-0.000312975,-0.0108523,-0.0360846,-0.0203257,-1.10103,-7.41685,-6.0665,-0.165592,-0.526287,-0.851292,-0.330674,-0.519687,-1.10074,0,0,633,138,633,138,684,121,637,197,0.58664,0.0169313,0,-1.5,0,0,0,0,-0.526287,-0.851292,-0.109375,0.1875,0,0,-0.330674,-0.519687,3952,0,0,0,0,0,0,0,0,0,2.5,1.70258
8678,0,0,-4.24609,-0.0018074,0.00095676,-0.0100297,-0.0360679,-0.0202919,-1.10117,-7.41685,-6.0665,-0.165592,-0.531588,-0.85962,-0.331634,-0.520935,-1.10117,0,0,633,138,633,138,684,121,637,197,0.586556,0.0171884,0,-1.5,0,0,0,0,-0.531588,-0.85962,-0.109375,0.1875,0,0,-0.331634,-0.520935,3952,0,0,0,0,0,0,0,0,0,2.5,1.71924
8694,0,0,0.744141,-0.00196725,0.00079247,-0.0108337,-0.0360523,-0.0202703,-1.10131,-7.41685,-6.0665,-0.165592,-0.536905,-0.867968,-0.332586,-0.522168,-1.10131,0,0,633,138,633,138,684,121,637,197,0.586531,0.0172663,0,-1.5,0,0,0,0,-0.536905,-0.867968,-0.109375,0.1875,0,0,-0.332586,-0.522168,3952,0,0,0,0,0,0,0,0,0,2.5,1.73594
8710,0,0,-7.15527,-0.00206743,0.000856451,-0.0103222,-0.0360396,-0.0202464,-1.10145,-7.41685,-6.0665,-0.165592,-0.542236,-0.876336,-0.333531,-0.523385,-1.10145,0,0,633,138,633,138,684,121,637,197,0.586503,0.0173515,0,-1.5,0,0,0,0,-0.542236,-0.876336,-0.109375,0.1875,0,0,-0.333531,-0.523385,3952,0,0,0,0,0,0,0,0,0,2.5,1.75267
8727,0,0,-7.15527,-0.00206743,0.000856451,-0.0103222,-0.0360396,-0.0202464,-1.10145,-7.41685,-6.0665,-0.165592,-0.547917,-0.885247,-0.334527,-0.524665,-1.10145,0,0,633,138,633,138,684,121,637,197,0.586503,0.0173515,0,-1.5,0,0,0,0,-0.547917,-0.885247,-0.109375,0.1875,0,0,-0.334527,-0.524665,3952,0,0,0,0,0,0,0,0,0,2.5,1.77049
8742,0,0,-6.98242,-0.00199769,0.000760674,-0.0096601,-0.0360036,-0.0201883,-1.10184,-7.41685,-6.0665,-0.165592,-0.552943,-0.893128,-0.335399,-0.525781,-1.10171,0,0,633,138,633,138,684,121,637,197,0.586454,0.0175018,0,-1.5,0,0,0,0,-0.552943,-0.893128,-0.109375,0.1875,0,0,-0.335399,-0.525781,3952,0,0,0,0,0,0,0,0,0,2.5,1.78626
8758,0,0,7.09375,-0.00270876,-0.000621147,-0.0094117,-0.0359945,-0.0201839,-1.10197,-7.41685,-6.0665,-0.165592,-0.558319,-0.901553,-0.336323,-0.526956,-1.10184,0,0,633,138,633,138,684,121,637,197,0.586429,0.0175779,0,-1.5,0,0,0,0,-0.558319,-0.901553,-0.109375,0.1875,0,0,-0.336323,-0.526956,3952,0,0,0,0,0,0,0,0,0,2.5,1.80311
8774,0,0,-5.98828,-0.00201029,0.00104779,-0.00944106,-0.0359933,-0.0201756,-1.10211,-7.41685,-6.0665,-0.165592,-0.56371,-0.909996,-0.33724,-0.528118,-1.10211,0,0,633,138,633,138,684,121,637,197,0.586377,0.0177361,0,-1.5,0,0,0,0,-0.56371,-0.909996,-0.109375,0.1875,0,0,-0.33724,-0.528118,3952,0,0,0,0,0,0,0,0,0,2.5,1.81999
8790,0,0,-5.98828,-0.00201029,0.00104779,-0.00944106,-0.0359933,-0.0201756,-1.10211,-7.41685,-6.0665,-0.165592,-0.569115,-0.918458,-0.33815,-0.529269,-1.10211,0,0,633,138,633,138,684,121,637,197,0.586377,0.0177361,0,-1.5,0,0,0,0,-0.569115,-0.918458,-0.109375,0.1875,0,0,-0.33815,-0.529269,3952,0,0,0,0,0,0,0,0,0,2.5,1.83692
8806,0,0,-4.74414,-0.000476357,0.000633069,-0.00978708,-0.0359499,-0.0201387,-1.10238,-7.41685,-6.0665,-0.165592,-0.574535,-0.926939,-0.339053,-0.530408,-1.10238,0,0,633,138,633,138,684,121,637,197,0.586324,0.0178976,0,-1.5,0,0,0,0,-0.574535,-0.926939,-0.109375,0.1875,0,0,-0.339053,-0.530408,3952,0,0,0,0,0,0,0,0,0,2.5,1.85388
8822,0,0,-4.74414,-0.000476357,0.000633069,-0.00978708,-0.0359499,-0.0201387,-1.10238,-7.27062,-5.9386,-0.19529,-0.579969,-0.935437,-0.339947,-0.531532,-1.10238,0,0,633,139,633,139,686,119,635,198,0.586324,0.0178976,0,-1.5,0,0,0,0,-0.579969,-0.935437,-0.109375,0.1875,0,0,-0.339947,-0.531532,4187,0,0,0,0,0,0,0,0,0,2.5,1.87087
8838,0,0,-4.25391,-0.00202847,2.55147e-07,-0.0101313,-0.0358939,-0.0201005,-1.10279,-7.27062,-5.9386,-0.19529,-0.585418,-0.943953,-0.340832,-0.532644,-1.10266,0,0,633,139,633,139,686,119,635,198,0.586272,0.018057,0,-1.5,0,0,0,0,-0.585418,-0.943953,-0.109375,0.1875,0,0,-0.340832,-0.532644,4187,0,0,0,0,0,0,0,0,0,2.5,1.88791
8854,0,0,-4.25391,-0.00202847,2.55147e-07,-0.0101313,-0.0358939,-0.0201005,-1.10279,-7.46475,-6.10643,-0.16036,-0.59088,-0.952487,-0.341709,-0.53374,-1.10279,0,0,633,139,633,139,686,121,637,197,0.586245,0.0181385,0,-1.5,0,0,0,0,-0.59088,-0.952487,-0.109375,0.1875,0,0,-0.341709,-0.53374,4028,0,0,0,0,0,0,0,0,0,2.5,1.90497
8870,0,0,-7.16309,-0.000992787,0.000562059,-0.00922554,-0.0358613,-0.0200615,-1.10306,-7.46475,-6.10643,-0.16036,-0.596357,-0.961038,-0.342579,-0.534826,-1.10306,0,0,633,139,633,139,686,121,637,197,0.586194,0.0182925,0,-1.5,0,0,0,0,-0.596357,-0.961038,-0.109375,0.1875,0,0,-0.342579,-0.534826,4028,0,0,0,0,0,0,0,0,0,2.5,1.92208
8886,0,0,-7.16309,-0.000992787,0.000562059,-0.00922554,-0.0358613,-0.0200615,-1.10306,-7.46475,-6.10643,-0.16036,-0.601847,-0.969606,-0.343442,-0.535895,-1.10306,0,0,633,139,633,139,686,121,637,197,0.586194,0.0182925,0,-1.5,0,0,0,0,-0.601847,-0.969606,-0.109375,0.1875,0,0,-0.343442,-0.535895,4028,0,0,0,0,0,0,0,0,0,2.5,1.93921
8902,0,0,6.24512,-0.00207992,0.001731,-0.0095761,-0.0358279,-0.0200108,-1.10333,-7.46475,-6.10643,-0.16036,-0.607351,-0.978192,-0.344297,-0.536951,-1.10333,0,0,633,139,633,139,686,121,637,197,0.586141,0.0184533,0,-1.5,0,0,0,0,-0.607351,-0.978192,-0.109375,0.1875,0,0,-0.344297,-0.536951,4028,0,0,0,0,0,0,0,0,0,2.5,1.95638
8919,0,0,-6.99707,-0.00180035,0.000602752,-0.00970015,-0.0358129,-0.0199934,-1.10347,-5.26482,-0.0214077,-0.35798,-0.613214,-0.987332,-0.345199,-0.538055,-1.10347,0,0,279,84,279,84,371,98,281,169,0.586115,0.0185337,0,-1.5,0,0,0,0,-0.613214,-0.987332,-0.109375,0.1875,0,0,-0.345199,-0.538055,8096,0,0,0,0,0,0,0,0,0,2.5,1.97466
8934,0,0,7.07422,-0.000832315,-0.0006007,-0.00928309,-0.0357905,-0.0199862,-1.1036,-5.26482,-0.0214077,-0.35798,-0.618053,-0.994873,-0.345935,-0.538955,-1.1036,0,0,279,84,279,84,371,98,281,169,0.586089,0.018612,0,-1.5,0,0,0,0,-0.618053,-0.994873,-0.109375,0.1875,0,0,-0.345935,-0.538955,8096,0,0,0,0,0,0,0,0,0,2.5,1.98975
8949,0,0,-5.97852,-0.0024352,0.00050083,-0.00999482,-0.0357858,-0.0199768,-1.10374,-7.28206,-5.95748,-0.192084,-0.623597,-1.00351,-0.346769,-0.539972,-1.10374,0,0,633,139,633,139,686,119,637,198,0.586062,0.0186928,0,-1.5,0,0,0,0,-0.623597,-1.00351,-0.109375,0.1875,0,0,-0.346769,-0.539972,4187,0,0,0,0,0,0,0,0,0,2.5,2.00701
8965,0,0,-4.7627,-0.00280479,-0.000347111,-0.00861611,-0.0357586,-0.0199537,-1.10399,-7.28206,-5.95748,-0.192084,-0.629153,-1.01216,-0.347597,-0.540981,-1.10374,0,0,633,139,633,139,686,119,637,198,0.586062,0.0186928,0,-1.5,0,0,0,0,-0.629153,-1.01216,-0.109375,0.1875,0,0,-0.347597,-0.540981,4187,0,0,0,0,0,0,0,0,0,2.5,2.02431
8982,0,0,-4.7627,-0.00280479,-0.000347111,-0.00861611,-0.0357586,-0.0199537,-1.10399,-7.28205,-5.95749,-0.192043,-0.635072,-1.02136,-0.348469,-0.542037,-1.10399,0,0,633,139,633,139,686,119,637,198,0.586014,0.0188404,0,-1.5,0,0,0,0,-0.635072,-1.02136,-0.109375,0.1875,0,0,-0.348469,-0.542037,4187,0,0,0,0,0,0,0,0,0,2.5,2.04273
8998,0,0,-7.20312,-0.00122124,0.00124623,-0.0100813,-0.0357135,-0.019915,-1.10426,-7.28205,-5.95749,-0.192043,-0.640656,-1.03005,-0.349282,-0.543019,-1.10426,0,0,633,139,633,139,686,119,637,198,0.585962,0.018997,0,-1.5,0,0,0,0,-0.640656,-1.03005,-0.109375,0.1875,0,0,-0.349282,-0.543019,4187,0,0,0,0,0,0,0,0,0,2.5,2.0601
9014,0,0,-4.27344,-0.00321021,-0.00062005,-0.0100958,-0.0357168,-0.019909,-1.1044,-7.28203,-5.95767,-0.192007,-0.646253,-1.03875,-0.350087,-0.543987,-1.1044,0,0,633,139,633,139,686,119,637,198,0.585935,0.01908,0,-1.5,0,0,0,0,-0.646253,-1.03875,-0.109375,0.1875,0,0,-0.350087,-0.543987,4187,0,0,0,0,0,0,0,0,0,2.5,2.07749
