timestamp,A_x,A_y,A_z,P,Q,R,Phi,Theta,Psi,poseX,poseY,poseZ,state_X,state_Y,state_Z,state_VzB,state_Bx,state_By,state_Bz,p1_x,p1_y,p2_x,p2_y,p3_x,p3_y,p4_x,p4_y,roll,pitch,yaw,alt,targetHeading,highLevelState,lowLevelState,gateNumber,filtered_x,filtered_y,x_OT,y_OT,vx_OT,vy_OT,filtered_vx,filtered_vygateArearansac_corr_x,ransac_corr_y,ransac_corr_vx,ransac_corr_vy,detectionTimeStamppTermX,dTermX,pTermY,dTermY,vxcmd,vycmd
6060,-0.600586,0,-4.1582,-0.000760452,-0.00057589,-0.000392495,0.0693634,-0.0150929,-0.000856759,0,0,0,4.93253e-06,2.23926e-05,0.00104547,0.00474885,-0.000763251,0,0,0,0,0,0,0,0,0,0,-0.00100276,-0.424184,0,-1.5,3.86549e-38,0,0,0,4.93253e-06,2.23926e-05,0,0,0,0,0.00104547,0.00474885,1.9603e-19,0,0,0,0,0,0,0,0,0,1,-2.46319e-05
6075,-0.560547,0,-2.22266,0.000103192,-0.000326782,3.10868e-05,0.0694213,-0.0149611,-0.000950882,0,0,0,4.10645e-05,0.000187044,0.00326196,0.0148927,-0.000933934,0,0,0,0,0,0,0,0,0,0,-0.00354188,-0.423632,0,-1.5,3.86549e-38,0,0,0,4.10645e-05,0.000187044,0,0,0,0,0.00326196,0.0148927,1.9603e-19,0,0,0,0,0,0,0,0,0,1,-0.000205748
6093,-0.640625,0,-2.2207,-0.000275376,0.000393374,-0.00066788,0.0696031,-0.0148407,-0.00109895,0,0,0,0.000129981,0.000594375,0.00588078,0.0269861,-0.00108893,0,0,0,0,0,0,0,0,0,0,-0.00663935,-0.422982,0,-1.5,3.86549e-38,0,0,0,0.000129981,0.000594375,0,0,0,0,0.00588078,0.0269861,1.9603e-19,0,0,0,0,0,0,0,0,0,1,-0.000653812
6110,-0.194336,0.0986328,-4.4082,0.465887,-0.0212134,0.00540079,0.0777209,-0.0173405,-0.000772155,0,0,0,0.000265561,0.0012185,0.00845594,0.0390059,-0.00116306,0,0,0,0,0,0,0,0,0,0,-0.00979825,-0.422342,0,-1.5,3.86549e-38,0,0,0,0.000265561,0.0012185,0,0,0,0,0.00845594,0.0390059,1.9603e-19,0,0,0,0,0,0,0,0,0,1,-0.00134035
6126,0,0,5.12793,0.864255,-0.0330683,0.0173378,0.0885025,-0.0177458,-0.000636315,0,0,0,0.00042568,0.00195995,0.0109384,0.0508858,-0.000636315,0,0,0,0,0,0,0,0,0,0,-0.0131031,-0.421718,0,-1.5,3.86549e-38,0,0,0,0.00042568,0.00195995,0,0,0,0,0.0109384,0.0508858,1.9603e-19,0,0,0,0,0,0,0,0,0,1,-0.00215594
6142,-0.863281,-0.00390625,-4.32227,1.26675,-0.0697374,0.066273,0.12216,-0.0191605,0.000482468,0,0,0,0.000628423,0.00291528,0.0136744,0.0653024,-0.000219431,0,0,0,0,0,0,0,0,0,0,-0.0170732,-0.42103,0,-1.5,3.86549e-38,0,0,0,0.000628423,0.00291528,0,0,0,0,0.0136744,0.0653024,1.9603e-19,0,0,0,0,0,0,0,0,0,1,-0.00320681
6158,-2.6582,0.0761719,4.70703,0.402324,-0.042492,0.109212,0.130814,-0.0202229,0.00192008,0,0,0,0.000875832,0.00413103,0.0165121,0.0827436,0.000482468,0,0,0,0,0,0,0,0,0,0,-0.0219406,-0.420306,0,-1.5,3.86549e-38,0,0,0,0.000875832,0.00413103,0,0,0,0,0.0165121,0.0827436,1.9603e-19,0,0,0,0,0,0,0,0,0,1,-0.00454414
6174,-2.30664,0.244141,3.57422,-0.12378,0.0258044,-0.00112567,0.129282,-0.0201069,0.00209545,0,0,0,0.00117075,0.00565766,0.0195208,0.102589,0.00209545,0,0,0,0,0,0,0,0,0,0,-0.0277167,-0.419507,0,-1.5,3.86549e-38,0,0,0,0.00117075,0.00565766,0,0,0,0,0.0195208,0.102589,1.9603e-19,0,0,0,0,0,0,0,0,0,1,-0.00622342
6191,-1.16602,0.161133,6.62695,-0.12077,0.0648094,0.000212313,0.127583,-0.0191801,0.00225814,0,0,0,0.00153821,0.00763662,0.0226162,0.123184,0.00225814,0,0,0,0,0,0,0,0,0,0,-0.0334476,-0.418715,0,-1.5,3.86549e-38,0,0,0,0.00153821,0.00763662,0,0,0,0,0.0226162,0.123184,1.9603e-19,0,0,0,0,0,0,0,0,0,1,-0.00840028
6207,-1.12695,-0.0107422,-3.08984,-0.159859,0.0278674,0.0149635,0.12542,-0.0186722,0.002504,0,0,0,0.00192931,0.00980735,0.0253769,0.142102,0.002504,0,0,0,0,0,0,0,0,0,0,-0.0388326,-0.418004,0,-1.5,3.86549e-38,0,0,0,0.00192931,0.00980735,0,0,0,0,0.0253769,0.142102,1.9603e-19,0,0,0,0,0,0,0,0,0,1,-0.0107881
6223,-1.20996,0.0810547,3.51465,-0.205172,0.0311649,0.022723,0.122895,-0.0183417,0.00282331,0,0,0,0.0023635,0.0122755,0.0280411,0.160508,0.00282331,0,0,0,0,0,0,0,0,0,0,-0.0441887,-0.41731,0,-1.5,3.86549e-38,0,0,0,0.0023635,0.0122755,0,0,0,0,0.0280411,0.160508,1.9603e-19,0,0,0,0,0,0,0,0,0,1,-0.0135031
6250,-1.43945,0.00976562,-4.21289,-0.668937,0.0476474,0.127373,0.108488,-0.0176838,0.00519561,0,0,0,0.00283864,0.0150256,0.0306235,0.178141,0.00351631,0,0,0,0,0,0,0,0,0,0,-0.0495191,-0.416616,0,-1.5,3.86549e-38,0,0,0,0.00283864,0.0150256,0,0,0,0,0.0306235,0.178141,1.9603e-19,0,0,0,0,0,0,0,0,0,1,-0.0165282
6308,-0.482422,0,-5.95117,-0.670133,-0.0199019,0.2071,0.0599658,-0.0160836,0.0181164,0,0,0,0.00557361,0.0315182,0.0411775,0.247399,0.015307,0,0,0,0,0,0,0,0,0,0,-0.0741779,-0.413043,0,-1.5,3.86549e-38,0,0,0,0.00557361,0.0315182,0,0,0,0,0.0411775,0.247399,1.9603e-19,0,0,0,0,0,0,0,0,0,1,-0.0346701
6325,-0.0517578,0,4.84766,-0.463089,-0.0328963,0.196701,0.0531632,-0.0166439,0.0208421,0,0,0,0.00634115,0.0360862,0.0434272,0.25652,0.0208421,0,0,0,0,0,0,0,0,0,0,-0.0790215,-0.411992,0,-1.5,3.86549e-38,0,0,0,0.00634115,0.0360862,0,0,0,0,0.0434272,0.25652,1.9603e-19,0,0,0,0,0,0,0,0,0,1,-0.0396948
6337,-0.116211,0,2.13867,-0.278468,-0.0135696,0.128659,0.0488814,-0.0170192,0.0228378,0,0,0,0.00687364,0.0391989,0.0449932,0.261271,0.0208421,0,0,0,0,0,0,0,0,0,0,-0.0810566,-0.411558,0,-1.5,3.86549e-38,0,0,0,0.00687364,0.0391989,0,0,0,0,0.0449932,0.261271,1.9603e-19,0,0,0,0,0,0,0,0,0,1,-0.0431188
6352,-0.31543,0.0429688,6.52246,-0.194214,-0.00421739,0.0625514,0.0461137,-0.0170494,0.0238262,0,0,0,0.00756789,0.0431689,0.0469927,0.266495,0.0238262,0,0,0,0,0,0,0,0,0,0,-0.0841489,-0.410759,0,-1.5,3.86549e-38,0,0,0,0.00756789,0.0431689,0,0,0,0,0.0469927,0.266495,1.9603e-19,0,0,0,0,0,0,0,0,0,1,-0.0474858
6369,-0.339844,0,-3.05273,-0.104423,-0.0298427,0.0220363,0.0444311,-0.0174545,0.0240573,0,0,0,0.00839166,0.0477595,0.0492648,0.271907,0.0240573,0,0,0,0,0,0,0,0,0,0,-0.0868045,-0.410108,0,-1.5,3.86549e-38,0,0,0,0.00839166,0.0477595,0,0,0,0,0.0492648,0.271907,1.9603e-19,0,0,0,0,0,0,0,0,0,1,-0.0525355
6385,-0.129883,0,3.46094,0.0329602,-0.0293918,0.0988978,0.044461,-0.0178902,0.0251368,0,0,0,0.00920216,0.0521595,0.05146,0.276761,0.0251368,0,0,0,0,0,0,0,0,0,0,-0.089468,-0.409405,0,-1.5,3.86549e-38,0,0,0,0.00920216,0.0521595,0,0,0,0,0.05146,0.276761,1.9603e-19,0,0,0,0,0,0,0,0,0,1,-0.0573755
6401,-0.00488281,0,-0.941406,0.177428,-0.0392011,0.320694,0.0464984,-0.0185657,0.0288254,0,0,0,0.0100489,0.0566389,0.0537025,0.281708,0.0288254,0,0,0,0,0,0,0,0,0,0,-0.0927855,-0.408442,0,-1.5,3.86549e-38,0,0,0,0.0100489,0.0566389,0,0,0,0,0.0537025,0.281708,1.9603e-19,0,0,0,0,0,0,0,0,0,1,-0.0623028
6417,-0.154297,0.192383,-3.34375,-0.0218251,0.0928605,1.11839,0.0486895,-0.0180775,0.0529285,0,0,0,0.0109319,0.0612006,0.0559444,0.28697,0.0379222,0,0,0,0,0,0,0,0,0,0,-0.0974569,-0.406931,0,-1.5,3.86549e-38,0,0,0,0.0109319,0.0612006,0,0,0,0,0.0559444,0.28697,1.9603e-19,0,0,0,0,0,0,0,0,0,1,-0.0673207
6434,-0.292969,0.101562,-0.5,-0.106545,0.096382,1.30488,0.046797,-0.0176622,0.0704355,0,0,0,0.0119077,0.0661429,0.0581123,0.29273,0.0704355,0,0,0,0,0,0,0,0,0,0,-0.107717,-0.402902,0,-1.5,3.86549e-38,0,0,0,0.0119077,0.0661429,0,0,0,0,0.0581123,0.29273,1.9603e-19,0,0,0,0,0,0,0,0,0,1,-0.0727572
6450,-0.509766,-0.0478516,4.38867,0.0328044,0.0375269,0.988417,0.0466698,-0.0175483,0.0855794,0,0,0,0.0128555,0.0708794,0.0598518,0.297902,0.0855794,0,0,0,0,0,0,0,0,0,0,-0.113713,-0.400589,0,-1.5,3.86549e-38,0,0,0,0.0128555,0.0708794,0,0,0,0,0.0598518,0.297902,1.9603e-19,0,0,0,0,0,0,0,0,0,1,-0.0779673
6466,-1.17383,0.15918,2.88184,0.0582096,0.00885897,0.409351,0.047714,-0.0177393,0.0923407,0,0,0,0.0138298,0.0756986,0.0614723,0.30312,0.0923407,0,0,0,0,0,0,0,0,0,0,-0.117821,-0.39917,0,-1.5,3.86549e-38,0,0,0,0.0138298,0.0756986,0,0,0,0,0.0614723,0.30312,1.9603e-19,0,0,0,0,0,0,0,0,0,1,-0.0832685
6482,-1.17383,0.15918,2.88184,0.0582096,0.00885897,0.409351,0.047714,-0.0177393,0.0923407,0,0,0,0.0148295,0.0806024,0.0630597,0.308398,0.0923407,0,0,0,0,0,0,0,0,0,0,-0.120441,-0.398528,0,-1.5,3.86549e-38,0,0,0,0.0148295,0.0806024,0,0,0,0,0.0630597,0.308398,1.9603e-19,0,0,0,0,0,0,0,0,0,1,-0.0886626
6498,-0.445312,0.0410156,-7.13281,-0.162995,-0.00229483,-0.00952469,0.043877,-0.0177338,0.0930724,0,0,0,0.0158547,0.0855889,0.0646559,0.313371,0.0930724,0,0,0,0,0,0,0,0,0,0,-0.123171,-0.3978,0,-1.5,3.86549e-38,0,0,0,0.0158547,0.0855889,0,0,0,0,0.0646559,0.313371,1.9603e-19,0,0,0,0,0,0,0,0,0,1,-0.0941478
6513,-0.231445,0.0107422,-2.78418,-0.073219,0.0140256,-0.101485,0.0415532,-0.0173499,0.0911016,0,0,0,0.0168391,0.0903312,0.0661666,0.317683,0.0930724,0,0,0,0,0,0,0,0,0,0,-0.125508,-0.397202,0,-1.5,3.86549e-38,0,0,0,0.0168391,0.0903312,0,0,0,0,0.0661666,0.317683,1.9603e-19,0,0,0,0,0,0,0,0,0,1,-0.0993643
6530,-0.391602,0.000976562,4.15137,-0.115257,-0.00846868,-0.111074,0.0400052,-0.0172097,0.0894774,0,0,0,0.0179832,0.095786,0.0678592,0.322346,0.0911016,0,0,0,0,0,0,0,0,0,0,-0.127685,-0.396785,0,-1.5,3.86549e-38,0,0,0,0.0179832,0.095786,0,0,0,0,0.0678592,0.322346,1.9603e-19,0,0,0,0,0,0,0,0,0,1,-0.105365
6542,-0.162109,0.0537109,-3.47168,-0.00613769,-0.0616179,-0.0170515,0.0395874,-0.0180287,0.0890494,0,0,0,0.0188062,0.0996755,0.0690472,0.325278,0.0894774,0,0,0,0,0,0,0,0,0,0,-0.129092,-0.396536,0,-1.5,3.86549e-38,0,0,0,0.0188062,0.0996755,0,0,0,0,0.0690472,0.325278,1.9603e-19,0,0,0,0,0,0,0,0,0,1,-0.109643
6556,-0.200195,0.166016,-6.89258,0.0437657,-0.000863243,-0.0115385,0.0403074,-0.0181641,0.0888834,0,0,0,0.0197854,0.104259,0.0704929,0.328651,0.0890494,0,0,0,0,0,0,0,0,0,0,-0.131061,-0.396044,0,-1.5,3.86549e-38,0,0,0,0.0197854,0.104259,0,0,0,0,0.0704929,0.328651,1.9603e-19,0,0,0,0,0,0,0,0,0,1,-0.114685
6572,-0.353516,0.0664062,7.00391,0.0194094,-0.00598476,-0.00451581,0.0405457,-0.0181993,0.0888188,0,0,0,0.0209313,0.109559,0.0722042,0.332573,0.0888188,0,0,0,0,0,0,0,0,0,0,-0.1334,-0.395432,0,-1.5,3.86549e-38,0,0,0,0.0209313,0.109559,0,0,0,0,0.0722042,0.332573,1.9603e-19,0,0,0,0,0,0,0,0,0,1,-0.120515
6588,-0.19043,0.00585938,-6.69336,0.110771,-0.000456932,-0.00928052,0.0417715,-0.0182454,0.0887084,0,0,0,0.0220298,0.114583,0.0737969,0.336275,0.0887084,0,0,0,0,0,0,0,0,0,0,-0.135638,-0.394845,0,-1.5,3.86549e-38,0,0,0,0.0220298,0.114583,0,0,0,0,0.0737969,0.336275,1.9603e-19,0,0,0,0,0,0,0,0,0,1,-0.126042
6603,-0.0419922,0.0390625,-2.38379,0.234753,0.00480445,-0.0184585,0.0447024,-0.0181585,0.0884847,0,0,0,0.0232281,0.120007,0.075462,0.340475,0.0884847,0,0,0,0,0,0,0,0,0,0,-0.138084,-0.394236,0,-1.5,3.86549e-38,0,0,0,0.0232281,0.120007,0,0,0,0,0.075462,0.340475,1.9603e-19,0,0,0,0,0,0,0,0,0,1,-0.132008
6619,-0.0751953,0.0722656,4.67578,0.364803,0.0330936,-0.0416916,0.0493931,-0.0177929,0.087978,0,0,0,0.0244517,0.125502,0.0770227,0.3453,0.087978,0,0,0,0,0,0,0,0,0,0,-0.140645,-0.393679,0,-1.5,3.86549e-38,0,0,0,0.0244517,0.125502,0,0,0,0,0.0770227,0.3453,1.9603e-19,0,0,0,0,0,0,0,0,0,1,-0.138052
6635,-0.337891,0.105469,2.87891,0.399981,0.0569304,-0.0576575,0.0550922,-0.0169621,0.0872492,0,0,0,0.0256988,0.131082,0.0784168,0.350879,0.0872492,0,0,0,0,0,0,0,0,0,0,-0.143373,-0.393179,0,-1.5,3.86549e-38,0,0,0,0.0256988,0.131082,0,0,0,0,0.0784168,0.350879,1.9603e-19,0,0,0,0,0,0,0,0,0,1,-0.14419
6651,-0.762695,0.0380859,-4.0918,0.21517,0.0314099,-0.0557895,0.0589445,-0.0162017,0.086566,0,0,0,0.0269661,0.136758,0.0796147,0.357164,0.086566,0,0,0,0,0,0,0,0,0,0,-0.146318,-0.392708,0,-1.5,3.86549e-38,0,0,0,0.0269661,0.136758,0,0,0,0,0.0796147,0.357164,1.9603e-19,0,0,0,0,0,0,0,0,0,1,-0.150434
6667,-0.892578,0.535156,-7.2334,-0.764462,0.0913251,-0.120481,0.0429688,-0.0170898,0.0844727,0,0,0,0.0282517,0.142539,0.0808377,0.363406,0.0858459,0,0,0,0,0,0,0,0,0,0,-0.149273,-0.392238,0,-1.5,3.86549e-38,0,0,0,0.0282517,0.142539,0,0,0,0,0.0808377,0.363406,1.9603e-19,0,0,0,0,0,0,0,0,0,1,-0.156792
6683,0.0810547,0.0537109,-2.67578,-0.509287,0.0632043,-0.155129,0.0355171,-0.0155757,0.0824477,0,0,0,0.0295594,0.148406,0.082258,0.368198,0.0844727,0,0,0,0,0,0,0,0,0,0,-0.151746,-0.391852,0,-1.5,3.86549e-38,0,0,0,0.0295594,0.148406,0,0,0,0,0.082258,0.368198,1.9603e-19,0,0,0,0,0,0,0,0,0,1,-0.163247
6700,0.199219,-0.166016,3.94922,-0.165837,-0.0686094,-0.0159041,0.0322449,-0.0164544,0.0819009,0,0,0,0.0309738,0.154699,0.0837024,0.371053,0.0819009,0,0,0,0,0,0,0,0,0,0,-0.153592,-0.391682,0,-1.5,3.86549e-38,0,0,0,0.0309738,0.154699,0,0,0,0,0.0837024,0.371053,1.9603e-19,0,0,0,0,0,0,0,0,0,1,-0.170169
6716,0.106445,0.293945,-3.36133,0.153578,0.0356262,-0.0120483,0.0337075,-0.0162537,0.0817754,0,0,0,0.0323282,0.16066,0.0851707,0.37342,0.0817754,0,0,0,0,0,0,0,0,0,0,-0.155759,-0.391153,0,-1.5,3.86549e-38,0,0,0,0.0323282,0.16066,0,0,0,0,0.0851707,0.37342,1.9603e-19,0,0,0,0,0,0,0,0,0,1,-0.176726
6732,-0.0888672,-0.0302734,-6.88477,0.352268,0.00360447,-0.0116636,0.0383878,-0.015992,0.0816422,0,0,0,0.0337052,0.166661,0.086553,0.376227,0.0816422,0,0,0,0,0,0,0,0,0,0,-0.158046,-0.390637,0,-1.5,3.86549e-38,0,0,0,0.0337052,0.166661,0,0,0,0,0.086553,0.376227,1.9603e-19,0,0,0,0,0,0,0,0,0,1,-0.183328
6748,-0.0888672,-0.0302734,-6.88477,0.352268,0.00360447,-0.0116636,0.0383878,-0.015992,0.0816422,0,0,0,0.0351039,0.172715,0.0878684,0.37942,0.0816422,0,0,0,0,0,0,0,0,0,0,-0.160474,-0.390109,0,-1.5,3.86549e-38,0,0,0,0.0351039,0.172715,0,0,0,0,0.0878684,0.37942,1.9603e-19,0,0,0,0,0,0,0,0,0,1,-0.189986
6764,-0.720703,0.0498047,-2.37305,0.0933123,-0.00163071,-0.00877007,0.0494023,-0.0154674,0.0808913,0,0,0,0.0364335,0.178437,0.0890175,0.382929,0.0810651,0,0,0,0,0,0,0,0,0,0,-0.162769,-0.389717,0,-1.5,3.86549e-38,0,0,0,0.0364335,0.178437,0,0,0,0,0.0890175,0.382929,1.9603e-19,0,0,0,0,0,0,0,0,0,1,-0.19628
6779,-0.748047,0.104492,4.71289,-0.0651661,0.000995905,-0.00333336,0.0488367,-0.0154426,0.0808393,0,0,0,0.0378693,0.184612,0.0901063,0.387643,0.0808913,0,0,0,0,0,0,0,0,0,0,-0.165577,-0.389241,0,-1.5,3.86549e-38,0,0,0,0.0378693,0.184612,0,0,0,0,0.0901063,0.387643,1.9603e-19,0,0,0,0,0,0,0,0,0,1,-0.203074
6796,-0.560547,0.0722656,2.92188,-0.136404,-0.00590412,-0.00200087,0.0470296,-0.0155011,0.0808155,0,0,0,0.0393223,0.190864,0.0911852,0.392333,0.0808155,0,0,0,0,0,0,0,0,0,0,-0.168421,-0.388751,0,-1.5,3.86549e-38,0,0,0,0.0393223,0.190864,0,0,0,0,0.0911852,0.392333,1.9603e-19,0,0,0,0,0,0,0,0,0,1,-0.209951
6811,-0.560547,0.0722656,2.92188,-0.136404,-0.00590412,-0.00200087,0.0470296,-0.0155011,0.0808155,0,0,0,0.0407928,0.197188,0.0922834,0.396739,0.0808155,0,0,0,0,0,0,0,0,0,0,-0.17123,-0.388248,0,-1.5,3.86549e-38,0,0,0,0.0407928,0.197188,0,0,0,0,0.0922834,0.396739,1.9603e-19,0,0,0,0,0,0,0,0,0,1,-0.216907
6828,-0.179688,0.00585938,-7.16016,-0.0121634,-0.000742368,-0.00260525,0.0450814,-0.0155459,0.0807719,0,0,0,0.0422808,0.203581,0.0933849,0.400997,0.0807719,0,0,0,0,0,0,0,0,0,0,-0.174012,-0.387754,0,-1.5,3.86549e-38,0,0,0,0.0422808,0.203581,0,0,0,0,0.0933849,0.400997,1.9603e-19,0,0,0,0,0,0,0,0,0,1,-0.22394
6844,-0.179688,0.00585938,-7.16016,-0.0121634,-0.000742368,-0.00260525,0.0450814,-0.0155459,0.0807719,0,0,0,0.0438814,0.210446,0.0945666,0.405281,0.0807719,0,0,0,0,0,0,0,0,0,0,-0.176937,-0.38722,0,-1.5,3.86549e-38,0,0,0,0.0438814,0.210446,0,0,0,0,0.0945666,0.405281,1.9603e-19,0,0,0,0,0,0,0,0,0,1,-0.23149
6860,-0.466797,0,4.15527,0.0185739,0.000755551,-0.0012141,0.0471792,-0.0154665,0.080699,0,0,0,0.0453099,0.216561,0.0955894,0.409131,0.0807224,0,0,0,0,0,0,0,0,0,0,-0.179542,-0.386761,0,-1.5,3.86549e-38,0,0,0,0.0453099,0.216561,0,0,0,0,0.0955894,0.409131,1.9603e-19,0,0,0,0,0,0,0,0,0,1,-0.238218
6876,-0.536133,0,-3.45117,-0.0317859,-0.000265417,0.000101381,0.0468405,-0.0154759,0.0806995,0,0,0,0.0469477,0.223568,0.0967164,0.413661,0.080699,0,0,0,0,0,0,0,0,0,0,-0.182564,-0.386238,0,-1.5,3.86549e-38,0,0,0,0.0469477,0.223568,0,0,0,0,0.0967164,0.413661,1.9603e-19,0,0,0,0,0,0,0,0,0,1,-0.245925
6892,-0.467773,0,-6.84863,-0.0352338,-0.000296422,-0.000560636,0.0463196,-0.0154782,0.0806965,0,0,0,0.0485059,0.230229,0.0977706,0.417856,0.0806965,0,0,0,0,0,0,0,0,0,0,-0.185413,-0.385743,0,-1.5,3.86549e-38,0,0,0,0.0485059,0.230229,0,0,0,0,0.0977706,0.417856,1.9603e-19,0,0,0,0,0,0,0,0,0,1,-0.253252
6908,-0.467773,0,-6.84863,-0.0352338,-0.000296422,-0.000560636,0.0463196,-0.0154782,0.0806965,0,0,0,0.0500813,0.236958,0.0988225,0.421948,0.0806965,0,0,0,0,0,0,0,0,0,0,-0.188256,-0.38525,0,-1.5,3.86549e-38,0,0,0,0.0500813,0.236958,0,0,0,0,0.0988225,0.421948,1.9603e-19,0,0,0,0,0,0,0,0,0,1,-0.260654
6924,-0.300781,0,-6.69043,0.0242585,0.0019521,-0.00123205,0.0464864,-0.0154609,0.0806564,0,0,0,0.0516731,0.243751,0.0998648,0.426012,0.0806564,0,0,0,0,0,0,0,0,0,0,-0.191101,-0.384765,0,-1.5,3.86549e-38,0,0,0,0.0516731,0.243751,0,0,0,0,0.0998648,0.426012,1.9603e-19,0,0,0,0,0,0,0,0,0,1,-0.268126
6940,-0.316406,0,-2.36426,0.0205066,-0.000225534,-0.000222504,0.0468278,-0.0154632,0.0806514,0,0,0,0.0532818,0.25061,0.100894,0.430085,0.0806514,0,0,0,0,0,0,0,0,0,0,-0.193974,-0.384276,0,-1.5,3.86549e-38,0,0,0,0.0532818,0.25061,0,0,0,0,0.100894,0.430085,1.9603e-19,0,0,0,0,0,0,0,0,0,1,-0.275671
6957,-0.382812,0,2.91406,-0.01592,-5.04247e-05,-0.000988868,0.0466297,-0.0154581,0.0806293,0,0,0,0.0550089,0.257969,0.101975,0.434413,0.0806313,0,0,0,0,0,0,0,0,0,0,-0.197044,-0.38376,0,-1.5,3.86549e-38,0,0,0,0.0550089,0.257969,0,0,0,0,0.101975,0.434413,1.9603e-19,0,0,0,0,0,0,0,0,0,1,-0.283766
6971,-0.399414,0,-4.14844,-0.00637568,-0.000331587,-0.000405096,0.0464998,-0.0154585,0.0806182,0,0,0,0.0564442,0.264081,0.10286,0.43793,0.0806293,0,0,0,0,0,0,0,0,0,0,-0.199578,-0.383334,0,-1.5,3.86549e-38,0,0,0,0.0564442,0.264081,0,0,0,0,0.10286,0.43793,1.9603e-19,0,0,0,0,0,0,0,0,0,1,-0.290489
6986,-0.399414,0,-7.13867,0.00978265,0.00075197,-0.00102454,0.0466098,-0.0154451,0.0806001,0,0,0,0.0578921,0.270243,0.10374,0.441403,0.0806182,0,0,0,0,0,0,0,0,0,0,-0.202112,-0.38291,0,-1.5,3.86549e-38,0,0,0,0.0578921,0.270243,0,0,0,0,0.10374,0.441403,1.9603e-19,0,0,0,0,0,0,0,0,0,1,-0.297267
6998,-0.399414,0,7.38184,0.0107737,0.000232864,5.14529e-05,0.0467829,-0.0154429,0.0806057,0,0,0,0.0592472,0.276007,0.10455,0.444612,0.0806001,0,0,0,0,0,0,0,0,0,0,-0.204471,-0.38252,0,-1.5,3.86549e-38,0,0,0,0.0592472,0.276007,0,0,0,0,0.10455,0.444612,1.9603e-19,0,0,0,0,0,0,0,0,0,1,-0.303608
7014,-0.399414,0,-2.82031,-0.00130364,3.90133e-05,-0.00107905,0.0468226,-0.0154497,0.0805884,0,0,0,0.0609304,0.283162,0.105538,0.448548,0.0806057,0,0,0,0,0,0,0,0,0,0,-0.207395,-0.382035,0,-1.5,3.86549e-38,0,0,0,0.0609304,0.283162,0,0,0,0,0.105538,0.448548,1.9603e-19,0,0,0,0,0,0,0,0,0,1,-0.311478
7030,-0.399414,0,4.15332,-0.0101826,-4.47266e-05,-0.000788941,0.0466958,-0.0154562,0.0805866,0,0,0,0.062629,0.290379,0.106519,0.452468,0.0805866,0,0,0,0,0,0,0,0,0,0,-0.210326,-0.381556,0,-1.5,3.86549e-38,0,0,0,0.062629,0.290379,0,0,0,0,0.106519,0.452468,1.9603e-19,0,0,0,0,0,0,0,0,0,1,-0.319417
7045,-0.399414,0,-3.44531,-0.00347279,-0.000672318,-0.000280075,0.0466392,-0.0154667,0.0805852,0,0,0,0.0642354,0.2972,0.107433,0.456097,0.0805852,0,0,0,0,0,0,0,0,0,0,-0.213082,-0.381104,0,-1.5,3.86549e-38,0,0,0,0.0642354,0.2972,0,0,0,0,0.107433,0.456097,1.9603e-19,0,0,0,0,0,0,0,0,0,1,-0.32692
7061,-0.399414,0,-6.80762,0.00586409,-0.000699923,0.000169062,0.0467107,-0.0154784,0.0805816,0,0,0,0.0659642,0.304537,0.108403,0.459937,0.0805816,0,0,0,0,0,0,0,0,0,0,-0.216029,-0.380624,0,-1.5,3.86549e-38,0,0,0,0.0659642,0.304537,0,0,0,0,0.108403,0.459937,1.9603e-19,0,0,0,0,0,0,0,0,0,1,-0.334991
7077,-0.399414,0,-6.80762,0.00586409,-0.000699923,0.000169062,0.0467107,-0.0154784,0.0805816,0,0,0,0.0677088,0.311936,0.109366,0.463754,0.0805816,0,0,0,0,0,0,0,0,0,0,-0.218989,-0.380143,0,-1.5,3.86549e-38,0,0,0,0.0677088,0.311936,0,0,0,0,0.109366,0.463754,1.9603e-19,0,0,0,0,0,0,0,0,0,1,-0.34313
7093,-0.399414,0,-6.66992,0.0014371,-0.000139351,-0.00101327,0.0468565,-0.0154802,0.0805538,0,0,0,0.0694687,0.319396,0.110321,0.467548,0.0805538,0,0,0,0,0,0,0,0,0,0,-0.221954,-0.37967,0,-1.5,3.86549e-38,0,0,0,0.0694687,0.319396,0,0,0,0,0.110321,0.467548,1.9603e-19,0,0,0,0,0,0,0,0,0,1,-0.351336
7110,-0.399414,0,4.70508,-0.00212975,0.000138276,0.00122889,0.0467668,-0.0154725,0.0805648,0,0,0,0.0712438,0.326917,0.111268,0.471327,0.0805538,0,0,0,0,0,0,0,0,0,0,-0.224938,-0.379191,0,-1.5,3.86549e-38,0,0,0,0.0712438,0.326917,0,0,0,0,0.111268,0.471327,1.9603e-19,0,0,0,0,0,0,0,0,0,1,-0.359608
7126,-0.399414,0,2.88965,0.00285305,-0.000806312,-0.00116248,0.0468045,-0.0154812,0.0805474,0,0,0,0.0731463,0.334973,0.112265,0.475302,0.0805474,0,0,0,0,0,0,0,0,0,0,-0.228116,-0.378686,0,-1.5,3.86549e-38,0,0,0,0.0731463,0.334973,0,0,0,0,0.112265,0.475302,1.9603e-19,0,0,0,0,0,0,0,0,0,1,-0.36847
7142,-0.399414,0,-4.16895,0.00306168,-0.000614021,-0.000135056,0.0468601,-0.0154821,0.0805417,0,0,0,0.0749521,0.342616,0.113197,0.479012,0.0805417,4,0,33554303,-167645441,33554303,-167645441,-8436479,-1,-534446081,-65025,-0.231115,-0.378212,0,-1.5,3.86549e-38,0,0,0,0.0749521,0.342616,0,0,0,0,0.113197,0.479012,0,0,0,0,0,7136,0,0,0,0,1,-0.376877
7156,-0.399414,0,-7.15039,0.000144972,0.000144639,-0.000479393,0.0468857,-0.0154854,0.0805347,0,0,0,0.0765438,0.34935,0.114005,0.48224,0.0805347,4,0,33554303,-167645441,33554303,-167645441,-8436479,-1,-534446081,-65025,-0.233748,-0.377798,0,-1.5,3.86549e-38,0,0,0,0.0765438,0.34935,0,0,0,0,0.114005,0.48224,0,0,0,0,0,7136,0,0,0,0,1,-0.384285
7173,-0.399414,0,7.37305,-0.00264719,-0.000694034,-0.00114056,0.0468481,-0.0154854,0.0805238,0,0,0,0.078493,0.357592,0.11498,0.486133,0.0805238,4,0,33554303,-167645441,33554303,-167645441,-8436479,-1,-534446081,-65025,-0.236956,-0.377297,0,-1.5,3.86549e-38,0,0,0,0.078493,0.357592,0,0,0,0,0.11498,0.486133,0,0,0,0,0,7136,0,0,0,0,1,-0.393351
7188,-0.399414,0,-2.8125,3.07662e-05,-0.000439879,-0.000646017,0.0468408,-0.0154797,0.0805215,0,0,0,0.0802257,0.364916,0.115833,0.489534,0.0805215,4,0,33554303,-167645441,33554303,-167645441,-8436479,-1,-534446081,-65025,-0.239793,-0.376854,0,-1.5,3.86549e-38,0,0,0,0.0802257,0.364916,0,0,0,0,0.115833,0.489534,0,0,0,0,0,7136,0,0,0,0,1,-0.401408
7204,-0.399414,0,4.15039,0.00165145,-0.00120586,-0.00131096,0.0468648,-0.0154837,0.0805046,0,0,0,0.0820886,0.372787,0.116736,0.493136,0.0805046,4,0,33554303,-167645441,33554303,-167645441,-8436479,-1,-534446081,-65025,-0.242827,-0.376387,0,-1.5,3.86549e-38,0,0,0,0.0820886,0.372787,0,0,0,0,0.116736,0.493136,0,0,0,0,0,7136,0,0,0,0,1,-0.410065
7221,-0.399414,0,-6.80957,-0.000966389,-0.00143575,0.000455084,0.046904,-0.0155025,0.080505,0,0,0,0.0839658,0.380714,0.117632,0.496714,0.0805004,4,0,33554303,-167645441,33554303,-167645441,-8436479,-1,-534446081,-65025,-0.245872,-0.375917,0,-1.5,3.86549e-38,0,0,0,0.0839658,0.380714,0,0,0,0,0.117632,0.496714,0,0,0,0,0,7136,0,0,0,0,1,-0.418786
7237,-0.399414,0,7.0166,-0.00217025,-0.000202738,-0.000211982,0.0468747,-0.0154949,0.080502,0,0,0,0.0859763,0.389201,0.118579,0.500489,0.080502,4,0,33554303,-167645441,33554303,-167645441,-8436479,-1,-534446081,-65025,-0.249121,-0.375417,0,-1.5,3.86549e-38,0,0,0,0.0859763,0.389201,0,0,0,0,0.118579,0.500489,0,0,0,0,0,7136,0,0,0,0,1,-0.428122
7253,-0.399414,0,-6.68262,-0.00119922,-0.00121076,0.000204085,0.0468647,-0.0155063,0.0805094,0,0,0,0.0878826,0.397245,0.119463,0.504007,0.0805094,4,0,33554303,-167645441,33554303,-167645441,-8436479,-1,-534446081,-65025,-0.252186,-0.374947,0,-1.5,3.86549e-38,0,0,0,0.0878826,0.397245,0,0,0,0,0.119463,0.504007,0,0,0,0,0,7136,0,0,0,0,1,-0.43697
7269,-0.399414,0,-2.33301,0.000768844,-0.000146492,-0.000126085,0.046891,-0.0155034,0.0805081,0,0,0,0.0898032,0.405346,0.12034,0.507497,0.0805081,4,0,33554303,-167645441,33554303,-167645441,-8436479,-1,-534446081,-65025,-0.255258,-0.374479,0,-1.5,3.86549e-38,0,0,0,0.0898032,0.405346,0,0,0,0,0.12034,0.507497,0,0,0,0,0,7136,0,0,0,0,1,-0.445881
7285,-0.399414,0,4.71289,-0.00103317,-0.000661555,-0.00021802,0.0468934,-0.0155029,0.0805036,0,0,0,0.0917378,0.413502,0.12121,0.510963,0.0805036,4,0,33554303,-167645441,33554303,-167645441,-8436479,-1,-534446081,-65025,-0.258339,-0.374013,0,-1.5,3.86549e-38,0,0,0,0.0917378,0.413502,0,0,0,0,0.12121,0.510963,0,0,0,0,0,7136,0,0,0,0,1,-0.454853
7302,-0.399414,0,2.90625,-0.00145994,-4.09828e-05,0.000319166,0.0468912,-0.0155074,0.0805096,-3.72566,0.184137,-0.190015,0.0936863,0.421714,0.122074,0.514401,0.0805096,0.274345,0.184137,225,16,225,16,349,10,235,136,-0.261431,-0.373546,0,-1.5,3.86549e-38,0,0,0,0.0936863,0.421714,0,0,0,0,0.122074,0.514401,16758,0,0,0,0,7301,0,0,0,0,1,-0.463885
7318,-0.399414,0,-7.15137,0.0010635,-0.00123848,-0.00074837,0.0468922,-0.0155037,0.080504,-3.72566,0.184137,-0.190015,0.0957715,0.430499,0.122984,0.518024,0.0805096,0.274345,0.184137,225,16,225,16,349,10,235,136,-0.264723,-0.373052,0,-1.5,3.86549e-38,0,0,0,0.0957715,0.430499,0,0,0,0,0.122984,0.518024,16758,0,0,0,0,7301,0,0,0,0,1,-0.473548
7334,-0.399414,0,7.36035,0.00145808,-0.000304836,-0.000398145,0.0469228,-0.0155078,0.080495,-3.72566,0.184137,-0.190015,0.0977479,0.438821,0.123833,0.521406,0.080495,0.274345,0.184137,225,16,225,16,349,10,235,136,-0.267827,-0.372592,0,-1.5,3.86549e-38,0,0,0,0.0977479,0.438821,0,0,0,0,0.123833,0.521406,16758,0,0,0,0,7301,0,0,0,0,1,-0.482704
7349,-0.399414,0,-2.82812,-0.000670396,-8.36986e-05,-0.000340221,0.0469407,-0.0155077,0.0804998,-3.72566,0.184137,-0.190015,0.0996131,0.446673,0.124623,0.524556,0.0804998,0.274345,0.184137,225,16,225,16,349,10,235,136,-0.27075,-0.372157,0,-1.5,3.86549e-38,0,0,0,0.0996131,0.446673,0,0,0,0,0.124623,0.524556,16758,0,0,0,0,7301,0,0,0,0,1,-0.49134
7366,-0.399414,0,4.17676,-0.00246476,-0.00032126,-1.89729e-05,0.0469202,-0.0155194,0.0804951,-3.72566,0.184137,-0.190015,0.101742,0.455631,0.125512,0.528101,0.0804951,0.274345,0.184137,225,16,225,16,349,10,235,136,-0.274069,-0.371668,0,-1.5,3.86549e-38,0,0,0,0.101742,0.455631,0,0,0,0,0.125512,0.528101,16758,0,0,0,0,7301,0,0,0,0,1,-0.501194
7381,-0.399414,0,4.17676,-0.00246476,-0.00032126,-1.89729e-05,0.0469202,-0.0155194,0.0804951,-3.72566,0.184137,-0.190015,0.103632,0.463582,0.126291,0.5312,0.0804951,0.274345,0.184137,225,16,225,16,349,10,235,136,-0.277006,-0.371235,0,-1.5,3.86549e-38,0,0,0,0.103632,0.463582,0,0,0,0,0.126291,0.5312,16758,0,0,0,0,7301,0,0,0,0,1,-0.509941
7397,-0.399414,0,-6.79004,0.000237395,-0.000937053,0.00058184,0.0469126,-0.0155195,0.0804959,-3.72566,0.184137,-0.190015,0.105661,0.472116,0.127116,0.534481,0.0804959,0.274345,0.184137,225,16,225,16,349,10,235,136,-0.280146,-0.370775,0,-1.5,3.86549e-38,0,0,0,0.105661,0.472116,0,0,0,0,0.127116,0.534481,16758,0,0,0,0,7301,0,0,0,0,1,-0.519328
7413,-0.399414,0,-6.63672,-0.000502755,-0.00102026,-0.000618547,0.0469377,-0.015529,0.0804989,-3.72566,0.184137,-0.190015,0.107704,0.480702,0.127934,0.537735,0.0804959,0.274345,0.184137,225,16,225,16,349,10,235,136,-0.283294,-0.370316,0,-1.5,3.86549e-38,0,0,0,0.107704,0.480702,0,0,0,0,0.127934,0.537735,16758,0,0,0,0,7301,0,0,0,0,1,-0.528772
7429,-0.399414,0,-2.32422,-0.000685633,-0.00158996,-0.0013187,0.0469464,-0.0155429,0.080481,-3.72566,0.184137,-0.190015,0.109759,0.48934,0.128747,0.540967,0.0804989,0.274345,0.184137,225,16,225,16,349,10,235,136,-0.286451,-0.369856,0,-1.5,3.86549e-38,0,0,0,0.109759,0.48934,0,0,0,0,0.128747,0.540967,16758,0,0,0,0,7301,0,0,0,0,1,-0.538274
7445,-0.399414,0,-2.32422,-0.000685633,-0.00158996,-0.0013187,0.0469464,-0.0155429,0.080481,-3.72566,0.184137,-0.190015,0.111828,0.498029,0.129556,0.544174,0.080481,0.274345,0.184137,225,16,225,16,349,10,235,136,-0.289613,-0.369403,0,-1.5,3.86549e-38,0,0,0,0.111828,0.498029,0,0,0,0,0.129556,0.544174,16758,0,0,0,0,7301,0,0,0,0,1,-0.547832
7461,-0.399414,0,2.92578,0.000855804,-9.70259e-05,-0.000591955,0.0469538,-0.0155435,0.0804614,-3.72566,0.184137,-0.190015,0.113909,0.506769,0.130358,0.547357,0.0804614,0.274345,0.184137,225,16,225,16,349,10,235,136,-0.292781,-0.368952,0,-1.5,3.86549e-38,0,0,0,0.113909,0.506769,0,0,0,0,0.130358,0.547357,16758,0,0,0,0,7301,0,0,0,0,1,-0.557446
7477,-0.399414,0,2.92578,0.000855804,-9.70259e-05,-0.000591955,0.0469538,-0.0155435,0.0804614,-3.72574,0.184056,-0.190145,0.116003,0.51556,0.131154,0.550514,0.0804614,0.274256,0.184056,225,16,225,16,349,10,235,136,-0.295962,-0.368496,0,-1.5,3.86549e-38,0,0,0,0.116003,0.51556,0,0,0,0,0.131154,0.550514,16758,0,0,0,0,7469,0,0,0,0,1,-0.567116
7493,-0.399414,0,-7.14746,-0.000293763,-0.000385265,3.5392e-05,0.0469712,-0.0155411,0.0804476,-3.72574,0.184056,-0.190145,0.11811,0.524401,0.131943,0.553648,0.0804476,0.274256,0.184056,225,16,225,16,349,10,235,136,-0.299148,-0.368045,0,-1.5,3.86549e-38,0,0,0,0.11811,0.524401,0,0,0,0,0.131943,0.553648,16758,0,0,0,0,7469,0,0,0,0,1,-0.576841
7509,-0.399414,0,-7.3877,-0.00164184,-0.00103228,0.000744473,0.0469596,-0.0155472,0.0804479,-3.71609,0.183736,-0.196225,0.120229,0.533292,0.132727,0.556757,0.0804479,0.283907,0.183736,223,17,223,17,351,10,236,136,-0.302344,-0.367591,0,-1.5,3.86549e-38,0,0,0,0.120229,0.533292,0,0,0,0,0.132727,0.556757,16884,0,0,0,0,7503,0,0,0,0,1,-0.586622
7525,-0.399414,0,4.05664,0.00097243,-0.000251833,0.000860901,0.0469948,-0.0155408,0.0804595,-3.71609,0.183736,-0.196225,0.122361,0.542233,0.133504,0.559841,0.0804479,0.283907,0.183736,223,17,223,17,351,10,236,136,-0.305548,-0.367137,0,-1.5,3.86549e-38,0,0,0,0.122361,0.542233,0,0,0,0,0.133504,0.559841,16884,0,0,0,0,7503,0,0,0,0,1,-0.596456
7541,-0.399414,0,-3.4541,-0.00118502,-0.000308271,-0.000483062,0.0469895,-0.0155392,0.0804487,-3.71609,0.183736,-0.196225,0.124505,0.551223,0.134274,0.562905,0.0804487,0.283907,0.183736,223,17,223,17,351,10,236,136,-0.30876,-0.366685,0,-1.5,3.86549e-38,0,0,0,0.124505,0.551223,0,0,0,0,0.134274,0.562905,16884,0,0,0,0,7503,0,0,0,0,1,-0.606345
7558,-0.399414,0,-6.79785,-0.00124093,0.000132031,-8.80687e-05,0.0469912,-0.0155371,0.0804411,-3.71609,0.183736,-0.196225,0.126797,0.560827,0.135085,0.566134,0.0804411,0.283907,0.183736,223,17,223,17,351,10,236,136,-0.31218,-0.366208,0,-1.5,3.86549e-38,0,0,0,0.126797,0.560827,0,0,0,0,0.135085,0.566134,16884,0,0,0,0,7503,0,0,0,0,1,-0.61691
7573,-0.399414,0,7.03711,-0.000728227,1.49448e-05,0.000293282,0.0469813,-0.0155352,0.0804489,-3.71609,0.183736,-0.196225,0.12883,0.569347,0.135795,0.568959,0.0804489,0.283907,0.183736,223,17,223,17,351,10,236,136,-0.315206,-0.365784,0,-1.5,3.86549e-38,0,0,0,0.12883,0.569347,0,0,0,0,0.135795,0.568959,16884,0,0,0,0,7503,0,0,0,0,1,-0.626281
7589,-0.399414,0,-6.6748,0.000538185,0.000643419,0.0018762,0.0469976,-0.0155305,0.0804691,-3.71609,0.183736,-0.196225,0.13101,0.578481,0.136545,0.571949,0.0804691,0.283907,0.183736,223,17,223,17,351,10,236,136,-0.318444,-0.365329,0,-1.5,3.86549e-38,0,0,0,0.13101,0.578481,0,0,0,0,0.136545,0.571949,16884,0,0,0,0,7503,0,0,0,0,1,-0.636329
7614,-0.399414,0,4.75,0.000109672,-0.00034791,-6.71199e-06,0.0470158,-0.015527,0.0804509,-3.71609,0.183736,-0.196225,0.134445,0.592863,0.137707,0.576584,0.0804509,0.283907,0.183736,223,17,223,17,351,10,236,136,-0.323514,-0.364634,0,-1.5,3.86549e-38,0,0,0,0.134445,0.592863,0,0,0,0,0.137707,0.576584,16884,0,0,0,0,7503,0,0,0,0,1,-0.652149
7630,-0.399414,0,2.88379,-0.00114864,0.000332517,-0.000360823,0.0470134,-0.0155223,0.0804484,-3.71609,0.183736,-0.196225,0.136656,0.602118,0.13844,0.579518,0.0804484,0.283907,0.183736,223,17,223,17,351,10,236,136,-0.326767,-0.364188,0,-1.5,3.86549e-38,0,0,0,0.136656,0.602118,0,0,0,0,0.13844,0.579518,16884,0,0,0,0,7503,0,0,0,0,1,-0.66233
7645,-0.399414,0,-4.17773,-0.000319568,-0.000112051,-2.78641e-05,0.0470092,-0.0155225,0.08045,-3.71609,0.183736,-0.196225,0.138739,0.610838,0.139123,0.582246,0.08045,0.283907,0.183736,223,17,223,17,351,10,236,136,-0.329823,-0.36377,0,-1.5,3.86549e-38,0,0,0,0.138739,0.610838,0,0,0,0,0.139123,0.582246,16884,0,0,0,0,7503,0,0,0,0,1,-0.671921
7661,-0.399414,0,7.38477,-1.67912e-06,-4.60239e-05,-0.00088506,0.0470303,-0.0155254,0.0804326,-3.71609,0.183736,-0.196225,0.140973,0.620184,0.139845,0.585135,0.0804411,0.283907,0.183736,223,17,223,17,351,10,236,136,-0.333089,-0.363329,0,-1.5,3.86549e-38,0,0,0,0.140973,0.620184,0,0,0,0,0.139845,0.585135,16884,0,0,0,0,7503,0,0,0,0,1,-0.682202
7677,-0.399414,0,-2.8291,-0.000162837,-0.00133502,0.000771018,0.0470346,-0.0155323,0.0804334,-3.71609,0.183736,-0.196225,0.143217,0.629575,0.140561,0.588002,0.0804326,0.283907,0.183736,223,17,223,17,351,10,236,136,-0.336362,-0.362888,0,-1.5,3.86549e-38,0,0,0,0.143217,0.629575,0,0,0,0,0.140561,0.588002,16884,0,0,0,0,7503,0,0,0,0,1,-0.692533
7692,-0.399414,0,4.15625,-5.31291e-06,-0.000641247,0.00024719,0.0470391,-0.0155318,0.0804289,-3.71609,0.183736,-0.196225,0.145332,0.638421,0.141229,0.59067,0.0804289,0.283907,0.183736,223,17,223,17,351,10,236,136,-0.339437,-0.362474,0,-1.5,3.86549e-38,0,0,0,0.145332,0.638421,0,0,0,0,0.141229,0.59067,16884,0,0,0,0,7503,0,0,0,0,1,-0.702263
7709,-0.399414,0,4.15625,-5.31291e-06,-0.000641247,0.00024719,0.0470391,-0.0155318,0.0804289,-3.74409,0.176066,-0.183467,0.147742,0.648497,0.141979,0.593672,0.0804289,0.255911,0.176066,227,17,227,17,351,9,236,136,-0.342932,-0.362004,0,-1.5,3.86549e-38,0,0,0,0.147742,0.648497,0,0,0,0,0.141979,0.593672,16510,0,0,0,0,7703,0,0,0,0,1,-0.713347
7725,-0.399414,0,4.15625,-5.31291e-06,-0.000641247,0.00024719,0.0470391,-0.0155318,0.0804289,-3.74409,0.176066,-0.183467,0.150021,0.658024,0.14268,0.596473,0.0804289,0.255911,0.176066,227,17,227,17,351,9,236,136,-0.346228,-0.361563,0,-1.5,3.86549e-38,0,0,0,0.150021,0.658024,0,0,0,0,0.14268,0.596473,16510,0,0,0,0,7703,0,0,0,0,1,-0.723827
7741,-0.399414,0,7.00781,9.78325e-05,-0.000460048,0.000459853,0.0470901,-0.0155535,0.0804235,-3.77646,0.184426,-0.172816,0.15231,0.667596,0.143376,0.599255,0.0804235,0.223536,0.184426,227,17,227,17,349,10,236,136,-0.34953,-0.361124,0,-1.5,3.86549e-38,0,0,0,0.15231,0.667596,0,0,0,0,0.143376,0.599255,16254,0,0,0,0,7736,0,0,0,0,1,-0.734356
7757,-0.399414,0,-2.34766,-0.00261404,-0.00102709,-0.000842458,0.0470821,-0.0155637,0.0804093,-3.77646,0.184426,-0.172816,0.154612,0.677213,0.144069,0.602021,0.0804205,0.223536,0.184426,227,17,227,17,349,10,236,136,-0.35284,-0.360684,0,-1.5,3.86549e-38,0,0,0,0.154612,0.677213,0,0,0,0,0.144069,0.602021,16254,0,0,0,0,7736,0,0,0,0,1,-0.744934
7773,-0.399414,0,4.71191,-0.000987538,-0.000228498,-0.000710865,0.0470651,-0.0155708,0.0803993,-3.77646,0.184426,-0.172816,0.156779,0.686268,0.144714,0.604593,0.0804093,0.223536,0.184426,227,17,227,17,349,10,236,136,-0.355949,-0.360276,0,-1.5,3.86549e-38,0,0,0,0.156779,0.686268,0,0,0,0,0.144714,0.604593,16254,0,0,0,0,7736,0,0,0,0,1,-0.754895
7788,-0.399414,0,2.89453,0.00400487,-0.000733966,-0.000668687,0.0471201,-0.015564,0.0803989,-3.77646,0.184426,-0.172816,0.159102,0.69597,0.145398,0.607313,0.0803993,0.223536,0.184426,227,17,227,17,349,10,236,136,-0.35927,-0.35984,0,-1.5,3.86549e-38,0,0,0,0.159102,0.69597,0,0,0,0,0.145398,0.607313,16254,0,0,0,0,7736,0,0,0,0,1,-0.765568
7805,-0.399414,0,-4.17285,0.000991386,-0.000278362,0.000177271,0.0471444,-0.0155641,0.0803941,-3.77646,0.184426,-0.172816,0.161581,0.706326,0.146118,0.610188,0.0803941,0.223536,0.184426,227,17,227,17,349,10,236,136,-0.36281,-0.359376,0,-1.5,3.86549e-38,0,0,0,0.161581,0.706326,0,0,0,0,0.146118,0.610188,16254,0,0,0,0,7736,0,0,0,0,1,-0.776959
7821,-0.399414,0,-7.16406,-0.000902658,-0.00107927,-0.00143501,0.047143,-0.015574,0.0803799,-3.77646,0.184426,-0.172816,0.163926,0.716117,0.14679,0.612874,0.0803799,0.223536,0.184426,227,17,227,17,349,10,236,136,-0.366147,-0.358944,0,-1.5,3.86549e-38,0,0,0,0.163926,0.716117,0,0,0,0,0.14679,0.612874,16254,0,0,0,0,7736,0,0,0,0,1,-0.787729
7846,-0.399414,0,-7.375,-0.00197178,-0.000483791,-0.000344301,0.0471313,-0.015571,0.0803779,-3.73192,0.184302,-0.190003,0.167465,0.730888,0.14779,0.616863,0.0803779,0.268082,0.184302,225,17,225,17,349,10,235,136,-0.0793984,-0.418667,0,-1.5,3.86549e-38,0,0,0,0.268091,0.184718,0,0,0,0,0.000762537,0.0349424,16758,0.10239,-0.539186,-0.147027,-0.581921,7835,0,0,0,0,1,-0.20319
7859,-0.399414,0,4.07812,0.00121696,0.000319937,-0.000755903,0.0471539,-0.0155736,0.080363,-3.73192,0.184302,-0.190003,0.169539,0.739544,0.148367,0.619166,0.080363,0.268082,0.184302,225,17,225,17,349,10,235,136,-0.0800966,-0.418467,0,-1.5,3.86549e-38,0,0,0,0.268106,0.185227,0,0,0,0,0.00133976,0.0372453,16758,0.10239,-0.539186,-0.147027,-0.581921,7835,0,0,0,0,1,-0.20375
7878,-0.399414,0,4.07812,0.00121696,0.000319937,-0.000755903,0.0471539,-0.0155736,0.080363,-3.71976,0.170598,-0.20001,0.172367,0.751346,0.149145,0.622271,0.080363,0.280243,0.170598,227,17,227,17,352,10,236,138,-0.0810591,-0.418195,0,-1.5,3.86549e-38,0,0,0,0.268141,0.185973,0,0,0,0,0.00211734,0.0403501,16768,0.0973915,-0.558972,-0.147027,-0.581921,7869,0,0,0,0,1,-0.20457
7894,-0.399414,0,-6.81738,-0.00160627,-0.000704111,-0.000596246,0.0471508,-0.0155747,0.0803533,-3.71976,0.170598,-0.20001,0.17476,0.761328,0.149794,0.624862,0.0803533,0.280243,0.170598,227,17,227,17,352,10,236,138,-0.0818736,-0.417967,0,-1.5,3.86549e-38,0,0,0,0.268182,0.186645,0,0,0,0,0.00276639,0.0429411,16768,0.0973915,-0.558972,-0.147027,-0.581921,7869,0,0,0,0,1,-0.205309
7910,-0.399414,0,-6.67871,-0.000211682,-0.000205767,0.00146514,0.0471337,-0.0155801,0.0803645,-3.71976,0.170598,-0.20001,0.177163,0.771353,0.150438,0.627432,0.0803533,0.280243,0.170598,227,17,227,17,352,10,236,138,-0.0826969,-0.417739,0,-1.5,3.86549e-38,0,0,0,0.268233,0.187359,0,0,0,0,0.00341052,0.0455115,16768,0.0973915,-0.558972,-0.147027,-0.581921,7869,0,0,0,0,1,-0.206095
7926,-0.399414,0,-2.33105,2.05326e-06,-0.000190668,-0.000204361,0.047149,-0.0155804,0.0803613,-3.71976,0.170598,-0.20001,0.179577,0.781419,0.151077,0.629981,0.0803645,0.280243,0.170598,227,17,227,17,352,10,236,138,-0.0835288,-0.417511,0,-1.5,3.86549e-38,0,0,0,0.268294,0.188114,0,0,0,0,0.00405,0.0480601,16768,0.0973915,-0.558972,-0.147027,-0.581921,7869,0,0,0,0,1,-0.206925
7946,-0.399414,0,-2.33105,2.05326e-06,-0.000190668,-0.000204361,0.047149,-0.0155804,0.0803613,-3.72527,0.186198,-0.192756,0.182609,0.794059,0.15187,0.63314,0.0803613,0.274729,0.186198,223,17,223,17,351,10,236,136,-0.0822103,-0.415092,0,-1.5,3.86549e-38,0,0,0,0.27514,0.186683,0,0,0,0,0.0141202,0.0451567,16758,0.0940458,-0.600909,-0.13775,-0.587983,7937,0,0,0,0,1,-0.205351
7961,-0.399414,0,2.93457,-0.00145958,-0.000114601,0.00116808,0.047157,-0.0155794,0.0803578,-3.72527,0.186198,-0.192756,0.184893,0.803579,0.152459,0.635488,0.0803578,0.274729,0.186198,223,17,223,17,351,10,236,136,-0.0829747,-0.414883,0,-1.5,3.86549e-38,0,0,0,0.275357,0.187383,0,0,0,0,0.0147093,0.047505,16758,0.0940458,-0.600909,-0.13775,-0.587983,7937,0,0,0,0,1,-0.206122
7976,-0.399414,0,-4.15625,-0.000719838,0.000111735,0.000428913,0.0471492,-0.0155785,0.0803593,-3.72527,0.186198,-0.192756,0.187185,0.813134,0.153044,0.637819,0.0803593,0.274729,0.186198,223,17,223,17,351,10,236,136,-0.0837457,-0.414674,0,-1.5,3.86549e-38,0,0,0,0.275583,0.188119,0,0,0,0,0.0152939,0.0498359,16758,0.0940458,-0.600909,-0.13775,-0.587983,7937,0,0,0,0,1,-0.20693
7993,-0.399414,0,7.38379,-0.000213492,-0.00101903,0.000563187,0.0471684,-0.0155971,0.0803599,-3.72527,0.186198,-0.192756,0.189794,0.824006,0.153702,0.64044,0.0803586,0.274729,0.186198,223,17,223,17,351,10,236,136,-0.0846257,-0.414438,0,-1.5,3.86549e-38,0,0,0,0.275851,0.188995,0,0,0,0,0.0159519,0.052457,16758,0.0940458,-0.600909,-0.13775,-0.587983,7937,0,0,0,0,1,-0.207894
8009,-0.399414,0,-2.81348,-0.000413191,-0.000888375,0.000210308,0.0471778,-0.0156037,0.0803536,-3.72527,0.186198,-0.192756,0.19226,0.834279,0.154318,0.64289,0.0803536,0.274729,0.186198,223,17,223,17,351,10,236,136,-0.0854596,-0.414216,0,-1.5,3.86549e-38,0,0,0,0.276112,0.18986,0,0,0,0,0.0165682,0.0549064,16758,0.0940458,-0.600909,-0.13775,-0.587983,7937,0,0,0,0,1,-0.208846
8025,-0.399414,0,4.15625,-0.00140311,-0.000413812,-0.000766674,0.0471697,-0.0156059,0.0803439,-3.72527,0.186198,-0.192756,0.194735,0.84459,0.15493,0.64532,0.0803439,0.274729,0.186198,223,17,223,17,351,10,236,136,-0.0862983,-0.413996,0,-1.5,3.86549e-38,0,0,0,0.276384,0.190763,0,0,0,0,0.0171804,0.0573369,16758,0.0940458,-0.600909,-0.13775,-0.587983,7937,0,0,0,0,1,-0.209839
8045,-0.399414,0,-3.42969,-0.000764685,-0.00032881,2.76809e-05,0.047166,-0.0156044,0.0803454,-3.74149,0.186999,-0.186377,0.197688,0.856886,0.155652,0.648181,0.0803454,0.258506,0.186999,225,17,225,17,349,10,235,136,-0.0877974,-0.417301,0,-1.5,3.86549e-38,0,0,0,0.268024,0.191625,0,0,0,0,0.00351988,0.0613031,16632,0.0720094,-0.658805,-0.152132,-0.586878,8035,0,0,0,0,1,-0.210788
8061,-0.399414,0,7.00488,0.000136491,0.000436042,4.10402e-05,0.0471955,-0.0155964,0.0803461,-3.74149,0.186999,-0.186377,0.200341,0.867933,0.156291,0.650717,0.080346,0.258506,0.186999,225,17,225,17,349,10,235,136,-0.0887101,-0.417068,0,-1.5,3.86549e-38,0,0,0,0.268091,0.192695,0,0,0,0,0.00415914,0.0638396,16632,0.0720094,-0.658805,-0.152132,-0.586878,8035,0,0,0,0,1,-0.211965
8077,-0.399414,0,7.00488,0.000136491,0.000436042,4.10402e-05,0.0471955,-0.0155964,0.0803461,-3.74149,0.186999,-0.186377,0.202848,0.878369,0.156887,0.653087,0.0803461,0.258506,0.186999,225,17,225,17,349,10,235,136,-0.0895756,-0.416848,0,-1.5,3.86549e-38,0,0,0,0.268163,0.193741,0,0,0,0,0.00475498,0.0662098,16632,0.0720094,-0.658805,-0.152132,-0.586878,8035,0,0,0,0,1,-0.213116
8094,-0.399414,0,-2.34082,-0.000450855,-0.000156374,-0.000445412,0.0472003,-0.0156026,0.0803253,-3.74149,0.186999,-0.186377,0.205522,0.889499,0.157514,0.655586,0.0803253,0.258506,0.186999,225,17,225,17,349,10,235,136,-0.0904967,-0.416618,0,-1.5,3.86549e-38,0,0,0,0.268251,0.194894,0,0,0,0,0.00538228,0.0687087,16632,0.0720094,-0.658805,-0.152132,-0.586878,8035,0,0,0,0,1,-0.214384
8113,-0.399414,0,-2.34082,-0.000450855,-0.000156374,-0.000445412,0.0472003,-0.0156026,0.0803253,-3.74785,0.178745,-0.186409,0.208523,0.901989,0.15821,0.658355,0.0803253,0.25215,0.178745,227,19,227,19,351,9,235,136,-0.0881169,-0.420814,0,-1.5,3.86549e-38,0,0,0,0.258592,0.190792,0,0,0,0,-0.010582,0.0623867,16510,0.0520947,-0.704045,-0.168792,-0.595968,8103,0,0,0,0,1,-0.209871
8130,-0.399414,0,-2.34082,-0.000450855,-0.000156374,-0.000445412,0.0472003,-0.0156026,0.0803253,-3.74785,0.178745,-0.186409,0.211219,0.913208,0.158827,0.66081,0.0803253,0.25215,0.178745,227,19,227,19,351,9,235,136,-0.0890144,-0.420587,0,-1.5,3.86549e-38,0,0,0,0.258419,0.191879,0,0,0,0,-0.0099649,0.0648417,16510,0.0520947,-0.704045,-0.168792,-0.595968,8103,0,0,0,0,1,-0.211067
8148,-0.399414,0,-7.14746,-0.00143459,-0.000336148,-0.000952964,0.0471792,-0.0156087,0.0803225,-3.77111,0.184389,-0.179396,0.214086,0.925133,0.159475,0.663387,0.0803225,0.228889,0.184389,227,19,227,19,349,10,235,136,-0.0873456,-0.422244,0,-1.5,3.86549e-38,0,0,0,0.254117,0.188595,0,0,0,0,-0.0160358,0.0612718,16380,0.0431903,-0.7257,-0.175511,-0.602115,8136,0,0,0,0,1,-0.207454
8163,-0.399414,0,7.35547,-0.00104956,-0.000422835,-0.00110274,0.047176,-0.015614,0.0803078,-3.77111,0.184389,-0.179396,0.216483,0.935104,0.160012,0.665513,0.0803078,0.228889,0.184389,227,19,227,19,349,10,235,136,-0.0881185,-0.422048,0,-1.5,3.86549e-38,0,0,0,0.253882,0.189534,0,0,0,0,-0.0154991,0.0633979,16380,0.0431903,-0.7257,-0.175511,-0.602115,8136,0,0,0,0,1,-0.208487
8183,-0.399414,0,7.35547,-0.00104956,-0.000422835,-0.00110274,0.047176,-0.015614,0.0803078,-3.73777,0.189129,-0.192471,0.219693,0.948452,0.160722,0.668325,0.0803078,0.262227,0.189129,225,17,225,17,349,10,235,136,-0.0882891,-0.420449,0,-1.5,3.86549e-38,0,0,0,0.256858,0.189703,0,0,0,0,-0.00917785,0.0644048,16506,0.0405629,-0.746671,-0.1699,-0.60392,8171,0,0,0,0,1,-0.208674
8199,-0.399414,0,-3.43359,-0.00116912,0.000236241,0.000392623,0.0471858,-0.015603,0.0803041,-3.73777,0.189129,-0.192471,0.22227,0.959168,0.161285,0.670553,0.0802998,0.262227,0.189129,225,17,225,17,349,10,235,136,-0.0891198,-0.420242,0,-1.5,3.86549e-38,0,0,0,0.256717,0.190756,0,0,0,0,-0.00861472,0.0666334,16506,0.0405629,-0.746671,-0.1699,-0.60392,8171,0,0,0,0,1,-0.209832
8215,-0.399414,0,-6.8418,0.000451115,0.000228063,-0.000713863,0.0471883,-0.0156022,0.0802937,-3.73777,0.189129,-0.192471,0.224857,0.96992,0.161843,0.672765,0.0803041,0.262227,0.189129,225,17,225,17,349,10,235,136,-0.0899592,-0.420034,0,-1.5,3.86549e-38,0,0,0,0.256585,0.191845,0,0,0,0,-0.00805709,0.0688451,16506,0.0405629,-0.746671,-0.1699,-0.60392,8171,0,0,0,0,1,-0.211029
8231,-0.399414,0,6.98145,-0.00131673,9.66708e-05,8.35522e-06,0.047192,-0.0155994,0.0802936,-3.73777,0.189129,-0.192471,0.227452,0.980706,0.162395,0.674959,0.0802936,0.262227,0.189129,225,17,225,17,349,10,235,136,-0.0908003,-0.419828,0,-1.5,3.86549e-38,0,0,0,0.256461,0.192969,0,0,0,0,-0.00750493,0.071039,16506,0.0405629,-0.746671,-0.1699,-0.60392,8171,0,0,0,0,1,-0.212266
8247,-0.399414,0,6.98145,-0.00131673,9.66708e-05,8.35522e-06,0.047192,-0.0155994,0.0802936,-3.73777,0.189129,-0.192471,0.230056,0.991528,0.162942,0.677136,0.0802936,0.262227,0.189129,225,17,225,17,349,10,235,136,-0.0916494,-0.419623,0,-1.5,3.86549e-38,0,0,0,0.256347,0.194127,0,0,0,0,-0.00695761,0.073216,16506,0.0405629,-0.746671,-0.1699,-0.60392,8171,0,0,0,0,1,-0.21354
8263,-0.399414,0,-2.33984,0.000191863,-0.000189531,-0.00125293,0.0472169,-0.0156141,0.0802582,-3.73777,0.189129,-0.192471,0.232669,1.00238,0.163486,0.679297,0.0802582,0.262227,0.189129,225,17,225,17,349,10,235,136,-0.0924957,-0.419421,0,-1.5,3.86549e-38,0,0,0,0.256241,0.195321,0,0,0,0,-0.00641373,0.0753774,16506,0.0405629,-0.746671,-0.1699,-0.60392,8171,0,0,0,0,1,-0.214854
8279,-0.399414,0,-2.33984,0.000191863,-0.000189531,-0.00125293,0.0472169,-0.0156141,0.0802582,-3.73777,0.189129,-0.192471,0.23529,1.01328,0.164027,0.681444,0.0802582,0.262227,0.189129,225,17,225,17,349,10,235,136,-0.0933563,-0.419216,0,-1.5,3.86549e-38,0,0,0,0.256144,0.196549,0,0,0,0,-0.00587286,0.0775238,16506,0.0405629,-0.746671,-0.1699,-0.60392,8171,0,0,0,0,1,-0.216204
8295,-0.399414,0,2.90039,-0.000116806,-0.000234523,0.000160292,0.0472074,-0.015617,0.0802603,-3.73777,0.189129,-0.192471,0.237755,1.02352,0.164531,0.68344,0.0802603,0.262227,0.189129,225,17,225,17,349,10,235,136,-0.0941682,-0.419024,0,-1.5,3.86549e-38,0,0,0,0.256061,0.197731,0,0,0,0,-0.00536953,0.07952,16506,0.0405629,-0.746671,-0.1699,-0.60392,8171,0,0,0,0,1,-0.217504
8311,-0.399414,0,-7.15625,-0.00101879,2.67466e-05,-0.000591719,0.047216,-0.0156109,0.080253,-3.73777,0.189129,-0.192471,0.240559,1.03516,0.165097,0.685684,0.0802603,0.262227,0.189129,225,17,225,17,349,10,235,136,-0.0950936,-0.418808,0,-1.5,3.86549e-38,0,0,0,0.255976,0.199108,0,0,0,0,-0.00480308,0.0817642,16506,0.0405629,-0.746671,-0.1699,-0.60392,8171,0,0,0,0,1,-0.219019
8326,-0.399414,0,-7.38574,0.000624488,-0.000238442,-0.000380372,0.0472277,-0.0156171,0.0802499,-3.73777,0.189129,-0.192471,0.24304,1.04546,0.165592,0.687648,0.080253,0.262227,0.189129,225,17,225,17,349,10,235,136,-0.0959127,-0.418618,0,-1.5,3.86549e-38,0,0,0,0.255908,0.200354,0,0,0,0,-0.00430793,0.0837284,16506,0.0405629,-0.746671,-0.1699,-0.60392,8171,0,0,0,0,1,-0.220389
8342,-0.399414,0,-2.80078,0.000207185,0.000476056,-0.000350145,0.0472393,-0.0156118,0.0802447,-3.73777,0.189129,-0.192471,0.245695,1.05649,0.166117,0.68973,0.0802447,0.262227,0.189129,225,17,225,17,349,10,235,136,-0.0967922,-0.418417,0,-1.5,3.86549e-38,0,0,0,0.255845,0.201715,0,0,0,0,-0.00378349,0.0858104,16506,0.0405629,-0.746671,-0.1699,-0.60392,8171,0,0,0,0,1,-0.221886
8358,-0.399414,0,4.10352,0.000413629,-0.000357767,-0.000293117,0.0472493,-0.0156197,0.0802367,-3.73777,0.189129,-0.192471,0.248358,1.06755,0.166636,0.691798,0.0802367,0.262227,0.189129,225,17,225,17,349,10,235,136,-0.0976772,-0.418216,0,-1.5,3.86549e-38,0,0,0,0.25579,0.203109,0,0,0,0,-0.00326379,0.0878778,16506,0.0405629,-0.746671,-0.1699,-0.60392,8171,0,0,0,0,1,-0.22342
8375,-0.399414,0,-3.45117,0.000413661,-0.000399364,-0.000564599,0.0472608,-0.0156184,0.0802273,-3.73777,0.189129,-0.192471,0.251197,1.07933,0.167185,0.693978,0.0802273,0.262227,0.189129,225,17,225,17,349,10,235,136,-0.0986234,-0.418003,0,-1.5,3.86549e-38,0,0,0,0.25574,0.204627,0,0,0,0,-0.00271533,0.0900584,16506,0.0405629,-0.746671,-0.1699,-0.60392,8171,0,0,0,0,1,-0.22509
8390,-0.399414,0,-6.83789,-0.000169158,5.75849e-05,0.000218658,0.0472679,-0.0156169,0.0802315,-3.73777,0.189129,-0.192471,0.253709,1.08976,0.167664,0.695888,0.0802315,0.262227,0.189129,225,17,225,17,349,10,235,136,-0.099466,-0.417814,0,-1.5,3.86549e-38,0,0,0,0.255704,0.205996,0,0,0,0,-0.00223564,0.0919682,16506,0.0405629,-0.746671,-0.1699,-0.60392,8171,0,0,0,0,1,-0.226596
8407,-0.399414,0,-6.69238,-0.00059859,-0.000205478,0.00116925,0.0472881,-0.0156268,0.0802365,-3.73777,0.189129,-0.192471,0.256566,1.10161,0.168204,0.698037,0.0802253,0.262227,0.189129,225,17,225,17,349,10,235,136,-0.100424,-0.417603,0,-1.5,3.86549e-38,0,0,0,0.255672,0.207583,0,0,0,0,-0.00169636,0.0941171,16506,0.0405629,-0.746671,-0.1699,-0.60392,8171,0,0,0,0,1,-0.228342
8423,-0.399414,0,-2.37402,-0.0004144,-0.00114811,0.000610627,0.0472934,-0.0156327,0.0802424,-3.73777,0.189129,-0.192471,0.259262,1.1128,0.168708,0.700045,0.0802365,0.262227,0.189129,225,17,225,17,349,10,235,136,-0.101335,-0.417402,0,-1.5,3.86549e-38,0,0,0,0.25565,0.20911,0,0,0,0,-0.00119233,0.0961246,16506,0.0405629,-0.746671,-0.1699,-0.60392,8171,0,0,0,0,1,-0.230021
8443,-0.399414,0,-2.37402,-0.0004144,-0.00114811,0.000610627,0.0472934,-0.0156327,0.0802424,-3.76725,0.181294,-0.176812,0.262644,1.12683,0.169334,0.702534,0.0802424,0.232754,0.181294,227,17,227,17,349,10,236,136,-0.102193,-0.419393,0,-1.5,3.86549e-38,0,0,0,0.24759,0.210254,0,0,0,0,-0.00940827,0.0976394,16380,-0.0132665,-0.910531,-0.178742,-0.604895,8435,0,0,0,0,1,-0.23128
8459,-0.399414,0,2.91699,0.000246787,-1.86546e-05,-0.000470222,0.0473069,-0.0156426,0.0802476,-3.76725,0.181294,-0.176812,0.265359,1.1381,0.169831,0.704509,0.0802476,0.232754,0.181294,227,17,227,17,349,10,236,136,-0.10311,-0.419194,0,-1.5,3.86549e-38,0,0,0,0.247445,0.211837,0,0,0,0,-0.00891142,0.0996138,16380,-0.0132665,-0.910531,-0.178742,-0.604895,8435,0,0,0,0,1,-0.233021
8479,-0.399414,0,-4.17773,0.000232081,-0.000566391,0.000428158,0.0473105,-0.0156477,0.0802565,-6.59595,-5.4235,-0.0988916,0.268763,1.15222,0.170448,0.706957,0.0802565,-2.59595,-5.4235,624,97,624,97,674,73,630,164,-0.104718,-0.418601,0,-1.5,3.86549e-38,0,0,0,0.248123,0.214708,0,0,0,0,-0.00706339,0.103049,5460,-0.0188647,-0.93147,-0.177511,-0.603908,8471,0,0,0,0,1,-0.236179
8493,-0.399414,0,7.36816,-0.000878424,-0.000693419,0.00070801,0.0473181,-0.0156472,0.0802521,-6.59595,-5.4235,-0.0988916,0.271153,1.16213,0.170876,0.708656,0.0802521,-2.59595,-5.4235,624,97,624,97,674,73,630,164,-0.105532,-0.418428,0,-1.5,3.86549e-38,0,0,0,0.248028,0.216166,0,0,0,0,-0.00663503,0.104748,5460,-0.0188647,-0.93147,-0.177511,-0.603908,8471,0,0,0,0,1,-0.237783
8513,-0.399414,0,7.36816,-0.000878424,-0.000693419,0.00070801,0.0473181,-0.0156472,0.0802521,-6.62921,-5.45039,-0.0991124,0.274408,1.17563,0.171453,0.710946,0.0802521,-2.62921,-5.45039,624,99,624,99,674,73,630,164,-0.104248,-0.417677,0,-1.5,3.86549e-38,0,0,0,0.252458,0.214364,0,0,0,0,-0.0032289,0.101853,5460,-0.0186311,-0.949688,-0.174682,-0.609093,8500,0,0,0,0,1,-0.235801
8528,-0.399414,0,4.13965,0.000153838,-0.000719307,-0.000839865,0.0473313,-0.0156399,0.0802396,-6.62921,-5.45039,-0.0991124,0.277156,1.18702,0.171934,0.712857,0.0802396,-2.62921,-5.45039,624,99,624,99,674,73,630,164,-0.105164,-0.417484,0,-1.5,3.86549e-38,0,0,0,0.252411,0.216014,0,0,0,0,-0.00274804,0.103764,5460,-0.0186311,-0.949688,-0.174682,-0.609093,8500,0,0,0,0,1,-0.237615
8549,-0.399414,0,-6.83496,-0.00174569,-1.6723e-05,-0.00041776,0.0473245,-0.0156321,0.0802404,-3.75183,0.180904,-0.187443,0.280776,1.20203,0.172559,0.715346,0.0802404,0.248166,0.180904,228,17,228,17,349,10,235,138,-0.104462,-0.417713,0,-1.5,3.86549e-38,0,0,0,0.248939,0.214625,0,0,0,0,-0.00343437,0.10242,16512,-0.0281409,-0.97453,-0.175993,-0.612926,8536,0,0,0,0,1,-0.236087
8566,-0.399414,0,7.00195,-0.000757919,-0.000746059,-0.000525683,0.04733,-0.0156319,0.080242,-3.75183,0.180904,-0.187443,0.283715,1.21421,0.173058,0.717339,0.080242,0.248166,0.180904,228,17,228,17,349,10,235,138,-0.105432,-0.417509,0,-1.5,3.86549e-38,0,0,0,0.248886,0.216388,0,0,0,0,-0.00293498,0.104413,16512,-0.0281409,-0.97453,-0.175993,-0.612926,8536,0,0,0,0,1,-0.238026
8582,-0.399414,0,7.00195,-0.000757919,-0.000746059,-0.000525683,0.04733,-0.0156319,0.080242,-3.75183,0.180904,-0.187443,0.286488,1.22571,0.173524,0.7192,0.080242,0.248166,0.180904,228,17,228,17,349,10,235,138,-0.10635,-0.417319,0,-1.5,3.86549e-38,0,0,0,0.248844,0.218077,0,0,0,0,-0.0024689,0.106274,16512,-0.0281409,-0.97453,-0.175993,-0.612926,8536,0,0,0,0,1,-0.239885
8598,-0.399414,0,-2.34375,-0.000168402,4.11542e-05,-0.00124724,0.0473467,-0.0156434,0.0802193,-3.75183,0.180904,-0.187443,0.289269,1.23723,0.173987,0.721047,0.0802193,0.248166,0.180904,228,17,228,17,349,10,235,138,-0.107266,-0.417131,0,-1.5,3.86549e-38,0,0,0,0.248809,0.219796,0,0,0,0,-0.00200595,0.108121,16512,-0.0281409,-0.97453,-0.175993,-0.612926,8536,0,0,0,0,1,-0.241776
8618,-0.399414,0,2.9043,0.000274842,0.00025144,-0.00156278,0.0473564,-0.0156404,0.0801938,-3.74081,0.191086,-0.188916,0.292757,1.25169,0.174562,0.723339,0.0801938,0.259188,0.191086,227,16,227,16,349,10,233,136,-0.103098,-0.417113,0,-1.5,3.86549e-38,0,0,0,0.249539,0.211737,0,0,0,0,-0.000591069,0.100398,16128,-0.0397155,-1.02749,-0.175153,-0.622941,8606,0,0,0,0,1,-0.23291
8639,-0.399414,0,-4.16992,-0.0013953,8.26178e-05,-0.00032451,0.0473481,-0.0156376,0.0801944,-3.74357,0.17775,-0.186048,0.296431,1.26691,0.175159,0.725721,0.0801944,0.256435,0.17775,227,17,227,17,351,10,235,136,-0.0926106,-0.416814,0,-1.5,3.86549e-38,0,0,0,0.254778,0.194352,0,0,0,0,0.00396185,0.0778013,16380,-0.0406258,-1.06867,-0.171197,-0.64792,8635,0,0,0,0,1,-0.213787
8655,-0.399414,0,7.38184,0.000287969,0.000245336,0.000393328,0.0473678,-0.0156394,0.0801823,-3.74357,0.17775,-0.186048,0.299238,1.27854,0.17561,0.727518,0.0801944,0.256435,0.17775,227,17,227,17,351,10,235,136,-0.0933955,-0.416638,0,-1.5,3.86549e-38,0,0,0,0.254846,0.195615,0,0,0,0,0.0044121,0.0795981,16380,-0.0406258,-1.06867,-0.171197,-0.64792,8635,0,0,0,0,1,-0.215176
8675,-0.399414,0,-2.8457,-0.00112092,4.87241e-05,-0.000644058,0.0473592,-0.0156364,0.0801707,-3.73966,0.18139,-0.180869,0.302757,1.29312,0.176168,0.729747,0.0801823,0.260336,0.18139,227,14,227,14,349,10,235,136,-0.0942913,-0.415411,0,-1.5,3.86549e-38,0,0,0,0.258459,0.1973,0,0,0,0,0.00902006,0.0817208,16380,-0.043296,-1.09193,-0.167147,-0.648026,8671,0,0,0,0,1,-0.21703
8692,-0.399414,0,4.13965,-0.00124863,0.000110469,-0.000646747,0.0473499,-0.0156348,0.0801657,-3.73966,0.18139,-0.180869,0.305757,1.30554,0.176637,0.731623,0.0801657,0.260336,0.18139,227,14,227,14,349,10,235,136,-0.0951318,-0.415227,0,-1.5,3.86549e-38,0,0,0,0.258617,0.19871,0,0,0,0,0.00948966,0.0835968,16380,-0.043296,-1.09193,-0.167147,-0.648026,8671,0,0,0,0,1,-0.218581
8712,-0.399414,0,-6.84961,-0.000433977,-0.000986756,-0.000306458,0.0473516,-0.0156575,0.0801531,-3.76107,0.178609,-0.179384,0.309297,1.3202,0.177186,0.733809,0.0801639,0.238929,0.178609,227,17,227,17,351,10,236,136,-0.0972017,-0.415448,0,-1.5,3.86549e-38,0,0,0,0.258364,0.201236,0,0,0,0,0.00794749,0.0890026,16254,-0.0490717,-1.11187,-0.169238,-0.644806,8703,0,0,0,0,1,-0.221359
8728,-0.399414,0,7.02148,0.000746252,-0.000666006,-0.000624208,0.0473673,-0.0156677,0.0801487,-3.76107,0.178609,-0.179384,0.311959,1.33123,0.177595,0.735434,0.0801531,0.238929,0.178609,227,17,227,17,351,10,236,136,-0.0979661,-0.415285,0,-1.5,3.86549e-38,0,0,0,0.258487,0.202586,0,0,0,0,0.00835688,0.0906276,16254,-0.0490717,-1.11187,-0.169238,-0.644806,8703,0,0,0,0,1,-0.222845
8744,-0.399414,0,7.02148,0.000746252,-0.000666006,-0.000624208,0.0473673,-0.0156677,0.0801487,-3.76107,0.178609,-0.179384,0.314983,1.34375,0.178058,0.737264,0.0801487,0.238929,0.178609,227,17,227,17,351,10,236,136,-0.0988398,-0.415099,0,-1.5,3.86549e-38,0,0,0,0.258634,0.204147,0,0,0,0,0.0088198,0.0924581,16254,-0.0490717,-1.11187,-0.169238,-0.644806,8703,0,0,0,0,1,-0.224562
8760,-0.399414,0,-2.35645,-0.000450459,-0.000424156,-0.000292672,0.0473536,-0.0156642,0.080138,-3.76107,0.178609,-0.179384,0.317837,1.35556,0.17849,0.738972,0.080138,0.238929,0.178609,227,17,227,17,351,10,236,136,-0.0996645,-0.414925,0,-1.5,3.86549e-38,0,0,0,0.25878,0.205644,0,0,0,0,0.0092517,0.0941655,16254,-0.0490717,-1.11187,-0.169238,-0.644806,8703,0,0,0,0,1,-0.226209
8781,-0.399414,0,-2.35645,-0.000450459,-0.000424156,-0.000292672,0.0473536,-0.0156642,0.080138,-3.72827,0.18394,-0.194431,0.321593,1.37111,0.179052,0.741192,0.080138,0.271735,0.18394,225,16,225,16,349,10,236,138,-0.0948919,-0.414523,0,-1.5,3.86549e-38,0,0,0,0.259468,0.198296,0,0,0,0,0.0123834,0.0833485,16896,-0.0586248,-1.159,-0.166668,-0.657843,8768,0,0,0,0,1,-0.218126
8797,-0.399414,0,-2.35645,-0.000450459,-0.000424156,-0.000292672,0.0473536,-0.0156642,0.080138,-3.72827,0.18394,-0.194431,0.324462,1.38299,0.179475,0.742866,0.080138,0.271735,0.18394,225,16,225,16,349,10,236,138,-0.0956708,-0.414354,0,-1.5,3.86549e-38,0,0,0,0.259671,0.199646,0,0,0,0,0.0128071,0.0850229,16896,-0.0586248,-1.159,-0.166668,-0.657843,8768,0,0,0,0,1,-0.219611
8818,-0.399414,0,-2.35645,-0.000450459,-0.000424156,-0.000292672,0.0473536,-0.0156642,0.080138,-3.7194,0.179225,-0.200212,0.328059,1.39788,0.180001,0.744942,0.080138,0.280599,0.179225,225,17,225,17,351,10,236,138,-0.0950438,-0.413934,0,-1.5,3.86549e-38,0,0,0,0.260814,0.198536,0,0,0,0,0.0146841,0.0838784,16896,-0.0639384,-1.18612,-0.165317,-0.661064,8805,0,0,0,0,1,-0.21839
8834,-0.399414,0,-7.36426,1.17845e-05,0.000927202,-0.00123102,0.047379,-0.0156531,0.0801384,-3.7194,0.179225,-0.200212,0.331124,1.41056,0.180442,0.746691,0.0801384,0.280599,0.179225,225,17,225,17,351,10,236,138,-0.0958671,-0.413757,0,-1.5,3.86549e-38,0,0,0,0.261069,0.199982,0,0,0,0,0.0151255,0.0856273,16896,-0.0639384,-1.18612,-0.165317,-0.661064,8805,0,0,0,0,1,-0.21998
8854,-0.399414,0,4.12988,-0.00109505,-0.002077,-0.000292223,0.0473824,-0.0156602,0.0801317,-3.74942,0.18032,-0.183727,0.33474,1.42552,0.180956,0.748734,0.0801317,0.25058,0.18032,227,17,227,17,349,10,235,136,-0.0924478,-0.414732,0,-1.5,3.86549e-38,0,0,0,0.258568,0.194339,0,0,0,0,0.0123335,0.077896,16506,-0.0727997,-1.21777,-0.168622,-0.670838,8841,0,0,0,0,1,-0.213772
8875,-0.399414,0,-3.44922,0.000173184,0.00101376,-8.00253e-05,0.0473951,-0.015646,0.0801265,-3.76097,0.180595,-0.177202,0.338547,1.44127,0.181489,0.750858,0.0801265,0.239031,0.180595,227,16,227,16,349,10,236,136,-0.0930593,-0.415126,0,-1.5,3.86549e-38,0,0,0,0.256639,0.195533,0,0,0,0,0.0105679,0.0788998,16380,-0.08037,-1.23969,-0.170921,-0.671958,8868,0,0,0,0,1,-0.215086
8892,-0.399414,0,7.01465,0.000836381,-0.00161881,4.75645e-05,0.0474099,-0.0156688,0.0801126,-3.76097,0.180595,-0.177202,0.341637,1.45406,0.181915,0.752562,0.0801265,0.239031,0.180595,227,16,227,16,349,10,236,136,-0.0938481,-0.414956,0,-1.5,3.86549e-38,0,0,0,0.256823,0.196892,0,0,0,0,0.010994,0.0806035,16380,-0.08037,-1.23969,-0.170921,-0.671958,8868,0,0,0,0,1,-0.216582
8907,-0.399414,0,7.01465,0.000836381,-0.00161881,4.75645e-05,0.0474099,-0.0156688,0.0801126,-3.76097,0.180595,-0.177202,0.34437,1.46536,0.182291,0.754055,0.0801126,0.239031,0.180595,227,16,227,16,349,10,236,136,-0.0945448,-0.414807,0,-1.5,3.86549e-38,0,0,0,0.256992,0.198116,0,0,0,0,0.0113701,0.0820969,16380,-0.08037,-1.23969,-0.170921,-0.671958,8868,0,0,0,0,1,-0.217927
8923,-0.399414,0,-2.35059,7.18797e-05,-0.000285504,-0.000279571,0.047413,-0.0156702,0.0801067,-3.76097,0.180595,-0.177202,0.347291,1.47744,0.182689,0.755636,0.0801067,0.239031,0.180595,227,16,227,16,349,10,236,136,-0.0952937,-0.414647,0,-1.5,3.86549e-38,0,0,0,0.257178,0.199445,0,0,0,0,0.0117682,0.0836778,16380,-0.08037,-1.23969,-0.170921,-0.671958,8868,0,0,0,0,1,-0.21939
8944,-0.399414,0,2.9043,-0.000915419,0.000541461,-0.000962136,0.0474107,-0.0156685,0.0800824,-3.77678,0.183847,-0.173235,0.351134,1.49334,0.183207,0.757693,0.0800868,0.223219,0.183847,227,17,227,17,349,10,236,136,-0.0950131,-0.415658,0,-1.5,3.86549e-38,0,0,0,0.252247,0.198526,0,0,0,0,0.00783463,0.083266,16254,-0.0969578,-1.28739,-0.175373,-0.674427,8935,0,0,0,0,1,-0.218379
8960,-0.399414,0,-4.2041,-0.00191737,0.00084521,0.000715624,0.047405,-0.0156636,0.0800892,-3.77678,0.183847,-0.173235,0.354069,1.50548,0.183599,0.759246,0.0800824,0.223219,0.183847,227,17,227,17,349,10,236,136,-0.0957607,-0.4155,0,-1.5,3.86549e-38,0,0,0,0.252377,0.199875,0,0,0,0,0.0082261,0.0848185,16254,-0.0969578,-1.28739,-0.175373,-0.674427,8935,0,0,0,0,1,-0.219862
8981,-0.399414,0,-4.2041,-0.00191737,0.00084521,0.000715624,0.047405,-0.0156636,0.0800892,-3.75483,0.177966,-0.179771,0.357933,1.52145,0.184107,0.761265,0.0800892,0.245173,0.177966,227,16,227,16,351,10,236,136,-0.0970609,-0.415654,0,-1.5,3.86549e-38,0,0,0,0.249834,0.202198,0,0,0,0,0.00719248,0.0873902,16254,-0.104383,-1.3051,-0.176915,-0.673875,8968,0,0,0,0,1,-0.222418
