timestamp,A_x,A_y,A_z,P,Q,R,Phi,Theta,Psi,poseX,poseY,poseZ,state_X,state_Y,state_Z,state_VzB,state_Bx,state_By,state_Bz,p1_x,p1_y,p2_x,p2_y,p3_x,p3_y,p4_x,p4_y,roll,pitch,yaw,alt,targetHeading,highLevelState,lowLevelState,gateNumber,filtered_x,filtered_y,x_OT,y_OT,vx_OT,vy_OT,filtered_vx,filtered_vygateArearansac_corr_x,ransac_corr_y,ransac_corr_vx,ransac_corr_vy,detectionTimeStamppTermX,dTermX,pTermY,dTermY,vxcmd,vycmd
6059,0,0.239258,6.58691,0.000235445,0.00168771,-0.00156911,-0.00105026,-0.0397403,-2.20267,0,0,0,-1.0224e-05,-1.36333e-05,-0.00190154,-0.0025289,-2.20211,0,0,0,0,0,0,0,0,0,0,0.201822,-0.0260991,0,-1.5,8.08455e-38,0,0,0,-1.0224e-05,-1.36333e-05,0,0,0,0,-0.00190154,-0.0025289,1.9603e-19,0,0,0,0,0,0,0,0,0,1,1.49967e-05
6074,0,0.239258,6.54883,7.43863e-05,-0.00048023,-0.001415,-0.00163637,-0.0388636,-2.20386,0,0,0,-7.14801e-05,-9.39746e-05,-0.00545441,-0.00710793,-2.20339,0,0,0,0,0,0,0,0,0,0,0.201658,-0.0243749,0,-1.5,8.08455e-38,0,0,0,-7.14801e-05,-9.39746e-05,0,0,0,0,-0.00545441,-0.00710793,1.9603e-19,0,0,0,0,0,0,0,0,0,1,0.000103372
6089,0,0.239258,-7.23145,-0.000383334,0.000572877,-0.0020802,-0.00211393,-0.0379432,-2.20524,0,0,0,-0.000185654,-0.00024107,-0.00897138,-0.0114823,-2.20468,0,0,0,0,0,0,0,0,0,0,0.201501,-0.0226796,0,-1.5,8.08455e-38,0,0,0,-0.000185654,-0.00024107,0,0,0,0,-0.00897138,-0.0114823,1.9603e-19,0,0,0,0,0,0,0,0,0,1,0.000265177
6106,0,0.138672,-6.80957,-0.00118529,0.00135472,-0.00109871,-0.00256724,-0.0372378,-2.20626,0,0,0,-0.000395301,-0.000506166,-0.0131529,-0.0165262,-2.206,0,0,0,0,0,0,0,0,0,0,0.20135,-0.0207199,0,-1.5,8.08455e-38,0,0,0,-0.000395301,-0.000506166,0,0,0,0,-0.0131529,-0.0165262,1.9603e-19,0,0,0,0,0,0,0,0,0,1,0.000556783
6122,0,0.138672,3.84277,0.000466324,0.000714445,-0.00128941,-0.00258445,-0.03722,-2.20631,0,0,0,-0.00064446,-0.000816108,-0.0168337,-0.0208516,-2.20629,0,0,0,0,0,0,0,0,0,0,0.201354,-0.0191769,0,-1.5,8.08455e-38,0,0,0,-0.00064446,-0.000816108,0,0,0,0,-0.0168337,-0.0208516,1.9603e-19,0,0,0,0,0,0,0,0,0,1,0.000897719
6138,0,0.138672,-3.64355,-8.05744e-05,0.000814354,-0.00119861,-0.00259236,-0.037209,-2.20632,0,0,0,-0.000951043,-0.00119343,-0.0204839,-0.0251343,-2.20631,0,0,0,0,0,0,0,0,0,0,0.201389,-0.0176864,0,-1.5,8.08455e-38,0,0,0,-0.000951043,-0.00119343,0,0,0,0,-0.0204839,-0.0251343,1.9603e-19,0,0,0,0,0,0,0,0,0,1,0.00131277
6154,0,0.138672,-7.00879,-0.0016247,0.000729526,-0.00193666,-0.00261042,-0.0371947,-2.20634,0,0,0,-0.00131687,-0.00164026,-0.0241052,-0.029382,-2.20632,0,0,0,0,0,0,0,0,0,0,0.201412,-0.0161927,0,-1.5,8.08455e-38,0,0,0,-0.00131687,-0.00164026,0,0,0,0,-0.0241052,-0.029382,1.9603e-19,0,0,0,0,0,0,0,0,0,1,0.00180428
6170,0,0.138672,6.80566,9.25097e-05,0.000880563,-0.00128704,-0.00262393,-0.0371807,-2.20636,0,0,0,-0.00174034,-0.00215463,-0.0276987,-0.0335905,-2.20636,0,0,0,0,0,0,0,0,0,0,0.201421,-0.0146921,0,-1.5,8.08455e-38,0,0,0,-0.00174034,-0.00215463,0,0,0,0,-0.0276987,-0.0335905,1.9603e-19,0,0,0,0,0,0,0,0,0,1,0.0023701
6186,0,0.157227,-6.87402,-0.00161382,8.29674e-05,-0.00222394,-0.00263873,-0.0371696,-2.20638,0,0,0,-0.00221989,-0.00273464,-0.0312637,-0.0377617,-2.20638,0,0,0,0,0,0,0,0,0,0,0.20142,-0.0131903,0,-1.5,8.08455e-38,0,0,0,-0.00221989,-0.00273464,0,0,0,0,-0.0312637,-0.0377617,1.9603e-19,0,0,0,0,0,0,0,0,0,1,0.00300811
6202,0,0.19043,-2.58691,-0.0007052,4.40048e-05,-0.000549864,-0.00264888,-0.0371582,-2.20639,0,0,0,-0.0027562,-0.00338102,-0.034801,-0.0418965,-2.20639,0,0,0,0,0,0,0,0,0,0,0.20141,-0.0116879,0,-1.5,8.08455e-38,0,0,0,-0.0027562,-0.00338102,0,0,0,0,-0.034801,-0.0418965,1.9603e-19,0,0,0,0,0,0,0,0,0,1,0.00371912
6218,0,0.223633,4.51758,-0.000419805,-0.000433816,-0.0010906,-0.00265858,-0.0371599,-2.20641,0,0,0,-0.00334882,-0.0040932,-0.0383109,-0.0459965,-2.20641,0,0,0,0,0,0,0,0,0,0,0.201389,-0.0101817,0,-1.5,8.08455e-38,0,0,0,-0.00334882,-0.0040932,0,0,0,0,-0.0383109,-0.0459965,1.9603e-19,0,0,0,0,0,0,0,0,0,1,0.00450252
6233,0,0.256836,6.8457,-0.000877589,-3.73071e-05,-0.000520131,-0.00269618,-0.037142,-2.20645,0,0,0,-0.0039551,-0.00482006,-0.0415769,-0.0498093,-2.20643,0,0,0,0,0,0,0,0,0,0,0.201358,-0.00876368,0,-1.5,8.08455e-38,0,0,0,-0.0039551,-0.00482006,0,0,0,0,-0.0415769,-0.0498093,1.9603e-19,0,0,0,0,0,0,0,0,0,1,0.00530206
6249,0,0.256836,-4.10059,0.00107336,0.00106667,-0.00115093,-0.00269537,-0.0371249,-2.20648,0,0,0,-0.0046567,-0.00565943,-0.0450359,-0.0538422,-2.20645,0,0,0,0,0,0,0,0,0,0,0.201315,-0.00725018,0,-1.5,8.08455e-38,0,0,0,-0.0046567,-0.00565943,0,0,0,0,-0.0450359,-0.0538422,1.9603e-19,0,0,0,0,0,0,0,0,0,1,0.00622537
6261,0,0.256836,-4.10059,0.00107336,0.00106667,-0.00115093,-0.00269537,-0.0371249,-2.20648,0,0,0,-0.00521603,-0.00632755,-0.0476105,-0.0568411,-2.20648,0,0,0,0,0,0,0,0,0,0,0.201275,-0.00611163,0,-1.5,8.08455e-38,0,0,0,-0.00521603,-0.00632755,0,0,0,0,-0.0476105,-0.0568411,1.9603e-19,0,0,0,0,0,0,0,0,0,1,0.0069603
6292,0,0.256836,-2.21094,-0.000731003,0.00157311,-0.0022288,-0.00268865,-0.0370607,-2.20655,0,0,0,-0.0068485,-0.00827197,-0.0542107,-0.0645295,-2.20652,0,0,0,0,0,0,0,0,0,0,0.201136,-0.00314646,0,-1.5,8.08455e-38,0,0,0,-0.0068485,-0.00827197,0,0,0,0,-0.0542107,-0.0645295,1.9603e-19,0,0,0,0,0,0,0,0,0,1,0.00909917
6319,0,0.256836,0.845703,-0.000310994,0.00121463,-0.00140376,-0.00270516,-0.0370332,-2.20658,0,0,0,-0.00842487,-0.0101455,-0.0598618,-0.0711111,-2.20656,0,0,0,0,0,0,0,0,0,0,0.200983,-0.000560217,0,-1.5,8.08455e-38,0,0,0,-0.00842487,-0.0101455,0,0,0,0,-0.0598618,-0.0711111,1.9603e-19,0,0,0,0,0,0,0,0,0,1,0.0111601
6342,0,0.256836,5.33789,-0.000357344,0.000756832,-0.000931614,-0.00271725,-0.0370155,-2.20661,0,0,0,-0.0098789,-0.0118709,-0.0646114,-0.076635,-2.20661,0,0,0,0,0,0,0,0,0,0,0.200828,0.00164697,0,-1.5,8.08455e-38,0,0,0,-0.0098789,-0.0118709,0,0,0,0,-0.0646114,-0.076635,1.9603e-19,0,0,0,0,0,0,0,0,0,1,0.013058
6355,0,0.249023,-0.925781,-0.000207415,0.000776675,-0.00178001,-0.00272821,-0.0369942,-2.20662,0,0,0,-0.0107403,-0.0128921,-0.0672674,-0.0797209,-2.20662,0,0,0,0,0,0,0,0,0,0,0.200735,0.00289116,0,-1.5,8.08455e-38,0,0,0,-0.0107403,-0.0128921,0,0,0,0,-0.0672674,-0.0797209,1.9603e-19,0,0,0,0,0,0,0,0,0,1,0.0141813
6368,0,0.21582,6.86523,0.000933844,0.00104629,-0.00118984,-0.00273772,-0.0369774,-2.20664,0,0,0,-0.0116357,-0.0139528,-0.0699057,-0.0827838,-2.20664,0,0,0,0,0,0,0,0,0,0,0.200634,0.00413729,0,-1.5,8.08455e-38,0,0,0,-0.0116357,-0.0139528,0,0,0,0,-0.0699057,-0.0827838,1.9603e-19,0,0,0,0,0,0,0,0,0,1,0.015348
6384,0,0.149414,-5.82715,-0.000523501,0.000282782,-0.00173583,-0.00276644,-0.0369563,-2.20666,0,0,0,-0.0127881,-0.0153167,-0.073131,-0.0865254,-2.20665,0,0,0,0,0,0,0,0,0,0,0.200504,0.00567088,0,-1.5,8.08455e-38,0,0,0,-0.0127881,-0.0153167,0,0,0,0,-0.073131,-0.0865254,1.9603e-19,0,0,0,0,0,0,0,0,0,1,0.0168483
6397,0,0.149414,-5.82715,-0.000523501,0.000282782,-0.00173583,-0.00276644,-0.0369563,-2.20666,0,0,0,-0.0137599,-0.0164659,-0.0757323,-0.0895393,-2.20666,0,0,0,0,0,0,0,0,0,0,0.20039,0.00692075,0,-1.5,8.08455e-38,0,0,0,-0.0137599,-0.0164659,0,0,0,0,-0.0757323,-0.0895393,1.9603e-19,0,0,0,0,0,0,0,0,0,1,0.0181125
6413,0,0.125977,1.00977,-0.00210546,0.00143076,-0.00204003,-0.00280752,-0.0369108,-2.20671,0,0,0,-0.015005,-0.0179372,-0.0789127,-0.0932216,-2.20668,0,0,0,0,0,0,0,0,0,0,0.20024,0.008462,0,-1.5,8.08455e-38,0,0,0,-0.015005,-0.0179372,0,0,0,0,-0.0789127,-0.0932216,1.9603e-19,0,0,0,0,0,0,0,0,0,1,0.0197309
6430,0,0.125977,1.00977,-0.00210546,0.00143076,-0.00204003,-0.00280752,-0.0369108,-2.20671,0,0,0,-0.0163835,-0.0195647,-0.0822647,-0.0970961,-2.20671,0,0,0,0,0,0,0,0,0,0,0.200066,0.0101063,0,-1.5,8.08455e-38,0,0,0,-0.0163835,-0.0195647,0,0,0,0,-0.0822647,-0.0970961,1.9603e-19,0,0,0,0,0,0,0,0,0,1,0.0215212
6446,0,0.125977,1.00977,-0.00210546,0.00143076,-0.00204003,-0.00280752,-0.0369108,-2.20671,0,0,0,-0.0176458,-0.0210539,-0.0851989,-0.100484,-2.20671,0,0,0,0,0,0,0,0,0,0,0.19991,0.0115529,0,-1.5,8.08455e-38,0,0,0,-0.0176458,-0.0210539,0,0,0,0,-0.0851989,-0.100484,1.9603e-19,0,0,0,0,0,0,0,0,0,1,0.0231593
6462,0,0.1875,4.81445,-0.000173504,0.000827987,-0.00220793,-0.00284547,-0.036878,-2.20679,0,0,0,-0.0190417,-0.0226994,-0.0883058,-0.104067,-2.20679,0,0,0,0,0,0,0,0,0,0,0.199719,0.0131151,0,-1.5,8.08455e-38,0,0,0,-0.0190417,-0.0226994,0,0,0,0,-0.0883058,-0.104067,1.9603e-19,0,0,0,0,0,0,0,0,0,1,0.0249693
6480,0,0.1875,4.81445,-0.000173504,0.000827987,-0.00220793,-0.00284547,-0.036878,-2.20679,0,0,0,-0.020766,-0.0247302,-0.0919659,-0.108281,-2.20679,0,0,0,0,0,0,0,0,0,0,0.199498,0.0149554,0,-1.5,8.08455e-38,0,0,0,-0.020766,-0.0247302,0,0,0,0,-0.0919659,-0.108281,1.9603e-19,0,0,0,0,0,0,0,0,0,1,0.0272032
6495,0,0.287109,-6.09082,-0.000829511,0.00174621,-0.00232165,-0.00289489,-0.0368209,-2.20687,0,0,0,-0.0221725,-0.0263855,-0.0948292,-0.111575,-2.20683,0,0,0,0,0,0,0,0,0,0,0.199307,0.0164167,0,-1.5,8.08455e-38,0,0,0,-0.0221725,-0.0263855,0,0,0,0,-0.0948292,-0.111575,1.9603e-19,0,0,0,0,0,0,0,0,0,1,0.029024
6510,0,0.280273,6.19141,-0.0020849,0.000574557,-0.00125934,-0.00292511,-0.0368025,-2.20689,0,0,0,-0.0236216,-0.0280898,-0.0976718,-0.114837,-2.20687,0,0,0,0,0,0,0,0,0,0,0.199108,0.0178797,0,-1.5,8.08455e-38,0,0,0,-0.0236216,-0.0280898,0,0,0,0,-0.0976718,-0.114837,1.9603e-19,0,0,0,0,0,0,0,0,0,1,0.0308988
6526,0,0.24707,3.55957,-0.00144702,0.000129498,-0.000924724,-0.00293779,-0.0367944,-2.2069,0,0,0,-0.0252161,-0.0299635,-0.100683,-0.118286,-2.20689,0,0,0,0,0,0,0,0,0,0,0.198892,0.0194389,0,-1.5,8.08455e-38,0,0,0,-0.0252161,-0.0299635,0,0,0,0,-0.100683,-0.118286,1.9603e-19,0,0,0,0,0,0,0,0,0,1,0.0329598
6542,0,0.213867,-2.64551,-0.0014249,0.000896008,-0.00125618,-0.00295117,-0.0367793,-2.20692,0,0,0,-0.0268584,-0.031892,-0.103672,-0.121703,-2.20692,0,0,0,0,0,0,0,0,0,0,0.198664,0.0210031,0,-1.5,8.08455e-38,0,0,0,-0.0268584,-0.031892,0,0,0,0,-0.103672,-0.121703,1.9603e-19,0,0,0,0,0,0,0,0,0,1,0.0350812
6559,0,0.180664,-4.3457,-0.00116841,0.000464083,-0.000848576,-0.00297649,-0.0367644,-2.20693,0,0,0,-0.0286555,-0.0340005,-0.106823,-0.125298,-2.20693,0,0,0,0,0,0,0,0,0,0,0.198417,0.022663,0,-1.5,8.08455e-38,0,0,0,-0.0286555,-0.0340005,0,0,0,0,-0.106823,-0.125298,1.9603e-19,0,0,0,0,0,0,0,0,0,1,0.0374006
6575,0,0.147461,-5.22754,-0.00167009,-0.000885903,-0.000938473,-0.00300541,-0.0367564,-2.20695,0,0,0,-0.0303947,-0.0360395,-0.109766,-0.128649,-2.20695,0,0,0,0,0,0,0,0,0,0,0.198174,0.0242282,0,-1.5,8.08455e-38,0,0,0,-0.0303947,-0.0360395,0,0,0,0,-0.109766,-0.128649,1.9603e-19,0,0,0,0,0,0,0,0,0,1,0.0396435
6591,0,0.171875,-3.77051,-0.000540007,0.00163845,-0.00217244,-0.0030193,-0.0367344,-2.20698,0,0,0,-0.0321817,-0.0381328,-0.112687,-0.131971,-2.20698,0,0,0,0,0,0,0,0,0,0,0.19792,0.0257993,0,-1.5,8.08455e-38,0,0,0,-0.0321817,-0.0381328,0,0,0,0,-0.112687,-0.131971,1.9603e-19,0,0,0,0,0,0,0,0,0,1,0.0419461
6607,0,0.238281,4.07324,-0.000497894,0.000104576,-0.00050518,-0.0030678,-0.0367205,-2.20701,0,0,0,-0.0340143,-0.0402779,-0.115585,-0.135262,-2.20698,0,0,0,0,0,0,0,0,0,0,0.197664,0.0273662,0,-1.5,8.08455e-38,0,0,0,-0.0340143,-0.0402779,0,0,0,0,-0.115585,-0.135262,1.9603e-19,0,0,0,0,0,0,0,0,0,1,0.0443057
6623,0,0.238281,4.07324,-0.000497894,0.000104576,-0.00050518,-0.0030678,-0.0367205,-2.20701,0,0,0,-0.0358939,-0.0424765,-0.118463,-0.138525,-2.20701,0,0,0,0,0,0,0,0,0,0,0.197392,0.0289427,0,-1.5,8.08455e-38,0,0,0,-0.0358939,-0.0424765,0,0,0,0,-0.118463,-0.138525,1.9603e-19,0,0,0,0,0,0,0,0,0,1,0.0467241
6639,0,0.238281,4.07324,-0.000497894,0.000104576,-0.00050518,-0.0030678,-0.0367205,-2.20701,0,0,0,-0.0378193,-0.0447269,-0.12132,-0.141759,-2.20701,0,0,0,0,0,0,0,0,0,0,0.197118,0.0305151,0,-1.5,8.08455e-38,0,0,0,-0.0378193,-0.0447269,0,0,0,0,-0.12132,-0.141759,1.9603e-19,0,0,0,0,0,0,0,0,0,1,0.0491996
6656,0,0.219727,3.61523,-1.96815e-05,0.000619602,-0.00135468,-0.00309562,-0.0367014,-2.20707,0,0,0,-0.039915,-0.0471743,-0.124332,-0.145164,-2.20707,0,0,0,0,0,0,0,0,0,0,0.196806,0.0321997,0,-1.5,8.08455e-38,0,0,0,-0.039915,-0.0471743,0,0,0,0,-0.124332,-0.145164,1.9603e-19,0,0,0,0,0,0,0,0,0,1,0.0518917
6672,0,0.186523,4.01465,-0.000651845,0.000315581,-0.00190295,-0.00310636,-0.0366878,-2.2071,0,0,0,-0.0418054,-0.0493806,-0.126968,-0.148141,-2.2071,0,0,0,0,0,0,0,0,0,0,0.196528,0.0336834,0,-1.5,8.08455e-38,0,0,0,-0.0418054,-0.0493806,0,0,0,0,-0.126968,-0.148141,1.9603e-19,0,0,0,0,0,0,0,0,0,1,0.0543187
6688,0,0.15332,6.6123,0.000246479,-0.000270483,-0.00221344,-0.00312066,-0.036676,-2.20712,0,0,0,-0.0439966,-0.0519358,-0.129934,-0.151484,-2.20712,0,0,0,0,0,0,0,0,0,0,0.196206,0.035365,0,-1.5,8.08455e-38,0,0,0,-0.0439966,-0.0519358,0,0,0,0,-0.129934,-0.151484,1.9603e-19,0,0,0,0,0,0,0,0,0,1,0.0571294
6705,0,0.138672,-5.39941,-0.000895533,0.00107225,-0.0012613,-0.00314261,-0.0366504,-2.20714,0,0,0,-0.0461046,-0.0543924,-0.132703,-0.154603,-2.20712,0,0,0,0,0,0,0,0,0,0,0.195897,0.036948,0,-1.5,8.08455e-38,0,0,0,-0.0461046,-0.0543924,0,0,0,0,-0.132703,-0.154603,1.9603e-19,0,0,0,0,0,0,0,0,0,1,0.0598316
6720,0,0.171875,-1.50098,-0.000264485,0.000153245,-0.0017697,-0.00315758,-0.0366401,-2.20716,0,0,0,-0.0482559,-0.0568976,-0.135449,-0.157693,-2.20714,0,0,0,0,0,0,0,0,0,0,0.195578,0.0385342,0,-1.5,8.08455e-38,0,0,0,-0.0482559,-0.0568976,0,0,0,0,-0.135449,-0.157693,1.9603e-19,0,0,0,0,0,0,0,0,0,1,0.0625873
6735,0,0.205078,3.11035,0.000471743,0.000820435,-0.00188911,-0.0031462,-0.0366207,-2.2072,0,0,0,-0.0503117,-0.05929,-0.138004,-0.160563,-2.2072,0,0,0,0,0,0,0,0,0,0,0.195262,0.0400313,0,-1.5,8.08455e-38,0,0,0,-0.0503117,-0.05929,0,0,0,0,-0.138004,-0.160563,1.9603e-19,0,0,0,0,0,0,0,0,0,1,0.065219
6751,0,0.238281,-3.78613,0.000149606,0.000603275,-0.00213879,-0.00315228,-0.0365953,-2.20722,0,0,0,-0.0525482,-0.0618909,-0.140707,-0.1636,-2.20722,0,0,0,0,0,0,0,0,0,0,0.194924,0.0416232,0,-1.5,8.08455e-38,0,0,0,-0.0525482,-0.0618909,0,0,0,0,-0.140707,-0.1636,1.9603e-19,0,0,0,0,0,0,0,0,0,1,0.06808
6767,0,0.238281,-3.78613,0.000149606,0.000603275,-0.00213879,-0.00315228,-0.0365953,-2.20722,0,0,0,-0.0548268,-0.0645392,-0.143386,-0.166608,-2.20722,0,0,0,0,0,0,0,0,0,0,0.194582,0.0432118,0,-1.5,8.08455e-38,0,0,0,-0.0548268,-0.0645392,0,0,0,0,-0.143386,-0.166608,1.9603e-19,0,0,0,0,0,0,0,0,0,1,0.0709931
6783,0,0.269531,1.23242,0.000403487,0.000484438,-0.00112531,-0.00317946,-0.0365617,-2.20725,0,0,0,-0.0571481,-0.0672354,-0.146044,-0.16959,-2.20725,0,0,0,0,0,0,0,0,0,0,0.194227,0.0448077,0,-1.5,8.08455e-38,0,0,0,-0.0571481,-0.0672354,0,0,0,0,-0.146044,-0.16959,1.9603e-19,0,0,0,0,0,0,0,0,0,1,0.0739589
6799,0,0.269531,1.23242,0.000403487,0.000484438,-0.00112531,-0.00317946,-0.0365617,-2.20725,0,0,0,-0.0595117,-0.069979,-0.148681,-0.172544,-2.20725,0,0,0,0,0,0,0,0,0,0,0.19387,0.0464002,0,-1.5,8.08455e-38,0,0,0,-0.0595117,-0.069979,0,0,0,0,-0.148681,-0.172544,1.9603e-19,0,0,0,0,0,0,0,0,0,1,0.0769769
6815,0,0.244141,4.80566,0.000104438,-0.000108122,-0.00107923,-0.00321941,-0.0365482,-2.20731,0,0,0,-0.0619173,-0.0727696,-0.151296,-0.175475,-2.20725,0,0,0,0,0,0,0,0,0,0,0.193505,0.0479952,0,-1.5,8.08455e-38,0,0,0,-0.0619173,-0.0727696,0,0,0,0,-0.151296,-0.175475,1.9603e-19,0,0,0,0,0,0,0,0,0,1,0.0800466
6831,0,0.210938,-3.69922,0.00016009,-9.8298e-05,-0.00177074,-0.00321544,-0.0365452,-2.20732,0,0,0,-0.0643654,-0.0756078,-0.153894,-0.17838,-2.20731,0,0,0,0,0,0,0,0,0,0,0.193117,0.0496048,0,-1.5,8.08455e-38,0,0,0,-0.0643654,-0.0756078,0,0,0,0,-0.153894,-0.17838,1.9603e-19,0,0,0,0,0,0,0,0,0,1,0.0831685
6847,0,0.177734,5.39453,0.000379444,-0.000335466,-0.00220657,-0.00321646,-0.0365394,-2.20736,0,0,0,-0.066854,-0.0784912,-0.156472,-0.181258,-2.20736,0,0,0,0,0,0,0,0,0,0,0.192725,0.0512144,0,-1.5,8.08455e-38,0,0,0,-0.066854,-0.0784912,0,0,0,0,-0.156472,-0.181258,1.9603e-19,0,0,0,0,0,0,0,0,0,1,0.0863403
6863,0,0.177734,5.39453,0.000379444,-0.000335466,-0.00220657,-0.00321646,-0.0365394,-2.20736,0,0,0,-0.0693844,-0.0814213,-0.159029,-0.184112,-2.20736,0,0,0,0,0,0,0,0,0,0,0.192336,0.0528163,0,-1.5,8.08455e-38,0,0,0,-0.0693844,-0.0814213,0,0,0,0,-0.159029,-0.184112,1.9603e-19,0,0,0,0,0,0,0,0,0,1,0.0895635
6879,0,0.12793,7.2832,0.000185156,-0.000146005,-0.00173906,-0.00322416,-0.0365211,-2.2074,0,0,0,-0.0719547,-0.084396,-0.161565,-0.186943,-2.2074,0,0,0,0,0,0,0,0,0,0,0.191929,0.0544278,0,-1.5,8.08455e-38,0,0,0,-0.0719547,-0.084396,0,0,0,0,-0.161565,-0.186943,1.9603e-19,0,0,0,0,0,0,0,0,0,1,0.0928356
6895,0,0.12793,-0.364258,-0.000810099,0.000467966,-0.00151688,-0.00325007,-0.0365026,-2.20743,0,0,0,-0.0745654,-0.0874157,-0.164082,-0.189746,-2.20743,0,0,0,0,0,0,0,0,0,0,0.191519,0.0560379,0,-1.5,8.08455e-38,0,0,0,-0.0745654,-0.0874157,0,0,0,0,-0.164082,-0.189746,1.9603e-19,0,0,0,0,0,0,0,0,0,1,0.0961573
6912,0,0.12793,-5.2627,-0.00146885,0.000667342,-0.00166285,-0.00326878,-0.036477,-2.20748,0,0,0,-0.0773841,-0.0906739,-0.166734,-0.192698,-2.20746,0,0,0,0,0,0,0,0,0,0,0.191074,0.0577516,0,-1.5,8.08455e-38,0,0,0,-0.0773841,-0.0906739,0,0,0,0,-0.166734,-0.192698,1.9603e-19,0,0,0,0,0,0,0,0,0,1,0.0997413
6928,0,0.12793,-5.63574,-0.000245654,0.00115403,-0.00153569,-0.00328652,-0.0364641,-2.2075,0,0,0,-0.0800771,-0.0937852,-0.16921,-0.195449,-2.20748,0,0,0,0,0,0,0,0,0,0,0.190649,0.0593645,0,-1.5,8.08455e-38,0,0,0,-0.0800771,-0.0937852,0,0,0,0,-0.16921,-0.195449,1.9603e-19,0,0,0,0,0,0,0,0,0,1,0.103164
6943,0,0.12793,-2.76953,-0.000798092,-0.000185359,-0.000490123,-0.00330505,-0.0364481,-2.20752,0,0,0,-0.0826369,-0.096741,-0.171514,-0.198003,-2.20752,0,0,0,0,0,0,0,0,0,0,0.19024,0.0608817,0,-1.5,8.08455e-38,0,0,0,-0.0826369,-0.096741,0,0,0,0,-0.171514,-0.198003,1.9603e-19,0,0,0,0,0,0,0,0,0,1,0.106415
6959,0,0.12793,1.67871,0.000414995,-0.00165399,-0.000673322,-0.00330317,-0.0364583,-2.20753,0,0,0,-0.0854068,-0.0999374,-0.173955,-0.200704,-2.20753,0,0,0,0,0,0,0,0,0,0,0.189804,0.0624965,0,-1.5,8.08455e-38,0,0,0,-0.0854068,-0.0999374,0,0,0,0,-0.173955,-0.200704,1.9603e-19,0,0,0,0,0,0,0,0,0,1,0.109931
6975,0,0.15332,-5.5,2.99503e-05,0.000184897,-0.00235163,-0.0032991,-0.0364564,-2.20756,0,0,0,-0.0882156,-0.103177,-0.176377,-0.203384,-2.20756,0,0,0,0,0,0,0,0,0,0,0.189355,0.0641174,0,-1.5,8.08455e-38,0,0,0,-0.0882156,-0.103177,0,0,0,0,-0.176377,-0.203384,1.9603e-19,0,0,0,0,0,0,0,0,0,1,0.113495
6991,0,0.186523,3.98438,-0.00081308,-5.20172e-05,-0.000434812,-0.00331156,-0.0364505,-2.20756,0,0,0,-0.0910628,-0.106459,-0.178779,-0.206043,-2.20756,0,0,0,0,0,0,0,0,0,0,0.188905,0.0657356,0,-1.5,8.08455e-38,0,0,0,-0.0910628,-0.106459,0,0,0,0,-0.178779,-0.206043,1.9603e-19,0,0,0,0,0,0,0,0,0,1,0.117105
7008,0,0.25293,-3.15527,-0.000836546,0.00107529,-0.00160956,-0.00332232,-0.0364122,-2.20761,0,0,0,-0.09413,-0.109993,-0.181311,-0.208842,-2.20759,0,0,0,0,0,0,0,0,0,0,0.188415,0.0674601,0,-1.5,8.08455e-38,0,0,0,-0.09413,-0.109993,0,0,0,0,-0.181311,-0.208842,1.9603e-19,0,0,0,0,0,0,0,0,0,1,0.120992
7024,0,0.25293,-3.15527,-0.000836546,0.00107529,-0.00160956,-0.00332232,-0.0364122,-2.20761,0,0,0,-0.0970558,-0.113361,-0.183673,-0.211452,-2.20761,0,0,0,0,0,0,0,0,0,0,0.187946,0.0690846,0,-1.5,8.08455e-38,0,0,0,-0.0970558,-0.113361,0,0,0,0,-0.183673,-0.211452,1.9603e-19,0,0,0,0,0,0,0,0,0,1,0.124698
7040,0,0.279297,2.95801,-0.00130456,0.000857872,-0.00132174,-0.00335386,-0.0363934,-2.20765,0,0,0,-0.100018,-0.116771,-0.186016,-0.214038,-2.20765,0,0,0,0,0,0,0,0,0,0,0.187463,0.0707149,0,-1.5,8.08455e-38,0,0,0,-0.100018,-0.116771,0,0,0,0,-0.186016,-0.214038,1.9603e-19,0,0,0,0,0,0,0,0,0,1,0.128448
7057,0,0.279297,-4.3252,-0.000559431,0.0012193,-0.00143435,-0.00336959,-0.0363725,-2.20768,0,0,0,-0.103208,-0.12044,-0.188487,-0.216757,-2.20768,0,0,0,0,0,0,0,0,0,0,0.186949,0.0724451,0,-1.5,8.08455e-38,0,0,0,-0.103208,-0.12044,0,0,0,0,-0.188487,-0.216757,1.9603e-19,0,0,0,0,0,0,0,0,0,1,0.132484
7072,0,0.279297,-7.36621,-0.00173122,0.00201588,-0.00114368,-0.00339724,-0.0363565,-2.20769,0,0,0,-0.106056,-0.123714,-0.190651,-0.219132,-2.20769,0,0,0,0,0,0,0,0,0,0,0.186492,0.0739708,0,-1.5,8.08455e-38,0,0,0,-0.106056,-0.123714,0,0,0,0,-0.190651,-0.219132,1.9603e-19,0,0,0,0,0,0,0,0,0,1,0.136085
7089,0,0.279297,7.18359,-0.00100243,0.000922868,-0.00076578,-0.00340803,-0.0363393,-2.20771,0,0,0,-0.109324,-0.127469,-0.193085,-0.221799,-2.20771,0,0,0,0,0,0,0,0,0,0,0.185966,0.0757019,0,-1.5,8.08455e-38,0,0,0,-0.109324,-0.127469,0,0,0,0,-0.193085,-0.221799,1.9603e-19,0,0,0,0,0,0,0,0,0,1,0.140216
7105,0,0.279297,3.94336,-0.00123029,0.00050707,-0.000507773,-0.00343227,-0.0363025,-2.20774,0,0,0,-0.112437,-0.131043,-0.195357,-0.224285,-2.20771,0,0,0,0,0,0,0,0,0,0,0.185469,0.0773296,0,-1.5,8.08455e-38,0,0,0,-0.112437,-0.131043,0,0,0,0,-0.195357,-0.224285,1.9603e-19,0,0,0,0,0,0,0,0,0,1,0.144147
7121,0,0.279297,-3.64062,-0.000243498,0.00141182,-0.000834222,-0.0034379,-0.0362863,-2.20776,0,0,0,-0.115585,-0.134657,-0.19761,-0.226748,-2.20774,0,0,0,0,0,0,0,0,0,0,0.184958,0.0789633,0,-1.5,8.08455e-38,0,0,0,-0.115585,-0.134657,0,0,0,0,-0.19761,-0.226748,1.9603e-19,0,0,0,0,0,0,0,0,0,1,0.148122
7138,0,0.279297,-7.0459,-0.00101085,-0.000264922,-0.00179357,-0.00345038,-0.0362837,-2.20778,0,0,0,-0.118971,-0.13854,-0.199985,-0.229337,-2.20778,0,0,0,0,0,0,0,0,0,0,0.184405,0.0807027,0,-1.5,8.08455e-38,0,0,0,-0.118971,-0.13854,0,0,0,0,-0.199985,-0.229337,1.9603e-19,0,0,0,0,0,0,0,0,0,1,0.152394
7153,0,0.279297,6.77441,-0.00143465,0.000764803,-0.00274613,-0.00347452,-0.0362686,-2.2078,0,0,0,-0.121991,-0.142002,-0.202065,-0.231601,-2.2078,0,0,0,0,0,0,0,0,0,0,0.183913,0.0822371,0,-1.5,8.08455e-38,0,0,0,-0.121991,-0.142002,0,0,0,0,-0.202065,-0.231601,1.9603e-19,0,0,0,0,0,0,0,0,0,1,0.156202
7168,0,0.279297,6.77441,-0.00143465,0.000764803,-0.00274613,-0.00347452,-0.0362686,-2.2078,0,0,0,-0.125042,-0.145498,-0.20413,-0.233845,-2.2078,0,0,0,0,0,0,0,0,0,0,0.183423,0.0837679,0,-1.5,8.08455e-38,0,0,0,-0.125042,-0.145498,0,0,0,0,-0.20413,-0.233845,1.9603e-19,0,0,0,0,0,0,0,0,0,1,0.160047
7184,0,0.279297,-2.56348,-0.000510408,0.000939701,-0.000687022,-0.00348999,-0.0362288,-2.20784,0,0,0,-0.12833,-0.149263,-0.206315,-0.236217,-2.20784,0,0,0,0,0,0,0,0,0,0,0.182885,0.0854078,0,-1.5,8.08455e-38,0,0,0,-0.12833,-0.149263,0,0,0,0,-0.206315,-0.236217,1.9603e-19,0,0,0,0,0,0,0,0,0,1,0.16419
7200,0,0.279297,1.5752,-0.000497707,0.000241216,-0.00241496,-0.00351177,-0.036205,-2.20788,0,0,0,-0.131654,-0.153067,-0.208483,-0.238565,-2.20786,0,0,33554303,-167645441,33554303,-167645441,-8436479,-1,-534446081,-65025,0.182342,0.0870479,0,-1.5,8.08455e-38,0,0,0,-0.131654,-0.153067,0,0,0,0,-0.208483,-0.238565,0,0,0,0,0,0,0,0,0,0,1,0.168374
7213,0,0.279297,1.5752,-0.000497707,0.000241216,-0.00241496,-0.00351177,-0.036205,-2.20788,0,0,0,-0.134378,-0.156184,-0.210231,-0.240456,-2.20788,0,0,33554303,-167645441,33554303,-167645441,-8436479,-1,-534446081,-65025,0.181896,0.0883808,0,-1.5,8.08455e-38,0,0,0,-0.134378,-0.156184,0,0,0,0,-0.210231,-0.240456,0,0,0,0,0,0,0,0,0,0,1,0.171803
7229,0,0.251953,-4.12109,-0.000449905,0.000489386,-0.00115277,-0.00353728,-0.036183,-2.20792,0,0,0,-0.137765,-0.160056,-0.212367,-0.242766,-2.2079,0,0,33554303,-167645441,33554303,-167645441,-8436479,-1,-534446081,-65025,0.181345,0.0900217,0,-1.5,8.08455e-38,0,0,0,-0.137765,-0.160056,0,0,0,0,-0.212367,-0.242766,0,0,0,0,0,0,0,0,0,0,1,0.176061
7245,0,0.21875,6.14648,0.000339492,0.000215722,-0.000953537,-0.00354011,-0.0361826,-2.20794,0,0,0,-0.141184,-0.163963,-0.214487,-0.245053,-2.20792,0,0,33554303,-167645441,33554303,-167645441,-8436479,-1,-534446081,-65025,0.180786,0.0916641,0,-1.5,8.08455e-38,0,0,0,-0.141184,-0.163963,0,0,0,0,-0.214487,-0.245053,0,0,0,0,0,0,0,0,0,0,1,0.18036
7260,0,0.185547,0.136719,-0.00102333,0.000289175,-0.00152474,-0.00356832,-0.0361748,-2.20796,0,0,0,-0.14442,-0.16766,-0.216461,-0.24718,-2.20796,0,0,33554303,-167645441,33554303,-167645441,-8436479,-1,-534446081,-65025,0.180251,0.0932088,0,-1.5,8.08455e-38,0,0,0,-0.14442,-0.16766,0,0,0,0,-0.216461,-0.24718,0,0,0,0,0,0,0,0,0,0,1,0.184426
7276,0,0.152344,-2.19238,-0.00135165,0.00132364,-0.000804811,-0.00358566,-0.0361532,-2.20798,0,0,0,-0.147905,-0.171638,-0.218552,-0.249426,-2.20798,0,0,33554303,-167645441,33554303,-167645441,-8436479,-1,-534446081,-65025,0.179681,0.0948545,0,-1.5,8.08455e-38,0,0,0,-0.147905,-0.171638,0,0,0,0,-0.218552,-0.249426,0,0,0,0,0,0,0,0,0,0,1,0.188801
7292,0,0.119141,-2.31152,-0.00188173,3.62454e-05,-0.000944804,-0.00360125,-0.0361462,-2.20799,-3.35638,-0.270374,-0.119133,-0.151424,-0.175652,-0.220628,-0.251651,-2.20799,0,0,277,-20,277,-20,419,-41,293,108,0.179108,0.0964989,0,-1.5,8.08455e-38,0,0,0,-0.151424,-0.175652,0,0,0,0,-0.220628,-0.251651,22946,0,0,0,0,0,0,0,0,0,1,0.193217
7308,0,0.116211,0.865234,-0.00106432,0.000911133,-0.000995921,-0.00361635,-0.0361313,-2.208,-3.35638,-0.270374,-0.119133,-0.154975,-0.179701,-0.222688,-0.253854,-2.208,0,0,277,-20,277,-20,419,-41,293,108,0.178529,0.0981449,0,-1.5,8.08455e-38,0,0,0,-0.154975,-0.179701,0,0,0,0,-0.222688,-0.253854,22946,0,0,0,0,0,0,0,0,0,1,0.197671
7324,0,0.116211,5.36426,-0.00051549,1.92327e-05,-0.000438511,-0.00362632,-0.0361276,-2.20801,-3.34995,-0.269739,-0.124035,-0.158559,-0.183785,-0.224732,-0.256038,-2.20801,0,0,277,-20,277,-20,419,-41,293,109,0.177943,0.099793,0,-1.5,8.08455e-38,0,0,0,-0.158559,-0.183785,0,0,0,0,-0.224732,-0.256038,23100,0,0,0,0,0,0,0,0,0,1,0.202163
7341,0,0.116211,5.36426,-0.00051549,1.92327e-05,-0.000438511,-0.00362632,-0.0361276,-2.20801,-3.34995,-0.269739,-0.124035,-0.162403,-0.188163,-0.226887,-0.258338,-2.20801,0,0,277,-20,277,-20,419,-41,293,109,0.177317,0.101543,0,-1.5,8.08455e-38,0,0,0,-0.162403,-0.188163,0,0,0,0,-0.226887,-0.258338,23100,0,0,0,0,0,0,0,0,0,1,0.206979
7356,0,0.116211,5.36426,-0.00051549,1.92327e-05,-0.000438511,-0.00362632,-0.0361276,-2.20801,-3.34995,-0.269739,-0.124035,-0.165824,-0.192057,-0.228773,-0.260351,-2.20801,0,0,277,-20,277,-20,419,-41,293,109,0.176759,0.103089,0,-1.5,8.08455e-38,0,0,0,-0.165824,-0.192057,0,0,0,0,-0.228773,-0.260351,23100,0,0,0,0,0,0,0,0,0,1,0.211263
7372,0,0.241211,-5.83594,-0.00114945,0.00102249,-0.00135429,-0.00365477,-0.0360941,-2.20807,-3.34995,-0.269739,-0.124035,-0.169505,-0.196244,-0.230769,-0.262481,-2.20807,0,0,277,-20,277,-20,419,-41,293,109,0.176143,0.104749,0,-1.5,8.08455e-38,0,0,0,-0.169505,-0.196244,0,0,0,0,-0.230769,-0.262481,23100,0,0,0,0,0,0,0,0,0,1,0.215869
7390,0,0.274414,4.18164,-0.000802119,3.84912e-05,-0.00169846,-0.00367347,-0.0360857,-2.2081,-3.34995,-0.269739,-0.124035,-0.173452,-0.200732,-0.232875,-0.264718,-2.2081,0,0,277,-20,277,-20,419,-41,293,109,0.175492,0.106509,0,-1.5,8.08455e-38,0,0,0,-0.173452,-0.200732,0,0,0,0,-0.232875,-0.264718,23100,0,0,0,0,0,0,0,0,0,1,0.220805
7403,0,0.297852,1.03418,-0.000642661,0.00128366,-0.000757489,-0.0036779,-0.0360704,-2.20811,-3.34995,-0.269739,-0.124035,-0.176727,-0.204454,-0.234595,-0.266543,-2.20811,0,0,277,-20,277,-20,419,-41,293,109,0.174953,0.107956,0,-1.5,8.08455e-38,0,0,0,-0.176727,-0.204454,0,0,0,0,-0.234595,-0.266543,23100,0,0,0,0,0,0,0,0,0,1,0.224899
7418,0,0.279297,0.705078,-0.00129315,-8.80373e-05,-0.00280914,-0.00369511,-0.0360563,-2.20815,-3.34995,-0.269739,-0.124035,-0.180264,-0.208471,-0.236425,-0.268482,-2.20815,0,0,277,-20,277,-20,419,-41,293,109,0.174365,0.109512,0,-1.5,8.08455e-38,0,0,0,-0.180264,-0.208471,0,0,0,0,-0.236425,-0.268482,23100,0,0,0,0,0,0,0,0,0,1,0.229318
7434,0,0.212891,2.30273,0.0005622,0.000955875,-0.00167668,-0.00370048,-0.0360433,-2.20817,-3.34995,-0.269739,-0.124035,-0.184067,-0.212788,-0.238363,-0.270531,-2.20817,0,0,277,-20,277,-20,419,-41,293,109,0.173736,0.11117,0,-1.5,8.08455e-38,0,0,0,-0.184067,-0.212788,0,0,0,0,-0.238363,-0.270531,23100,0,0,0,0,0,0,0,0,0,1,0.234067
7450,0,0.154297,-2.96289,-0.00121833,0.000788539,-0.00063577,-0.00372578,-0.0360165,-2.2082,-3.34995,-0.269739,-0.124035,-0.187901,-0.217137,-0.240284,-0.272562,-2.20818,0,0,277,-20,277,-20,419,-41,293,109,0.173104,0.112828,0,-1.5,8.08455e-38,0,0,0,-0.187901,-0.217137,0,0,0,0,-0.240284,-0.272562,23100,0,0,0,0,0,0,0,0,0,1,0.238851
7465,0,0.1875,5.65527,-0.000330451,-0.000945595,-0.000207143,-0.00373044,-0.0360188,-2.20821,-3.34995,-0.269739,-0.124035,-0.191522,-0.221244,-0.242072,-0.274448,-2.2082,0,0,277,-20,277,-20,419,-41,293,109,0.172506,0.114383,0,-1.5,8.08455e-38,0,0,0,-0.191522,-0.221244,0,0,0,0,-0.242072,-0.274448,23100,0,0,0,0,0,0,0,0,0,1,0.243368
7481,0,0.220703,2.19141,-0.000760373,0.000551431,-0.00151532,-0.00374132,-0.0360082,-2.20824,-3.34995,-0.269739,-0.124035,-0.195415,-0.225656,-0.243966,-0.276443,-2.20824,0,0,277,-20,277,-20,419,-41,293,109,0.171857,0.116047,0,-1.5,8.08455e-38,0,0,0,-0.195415,-0.225656,0,0,0,0,-0.243966,-0.276443,23100,0,0,0,0,0,0,0,0,0,1,0.248222
7497,0,0.220703,2.19141,-0.000760373,0.000551431,-0.00151532,-0.00374132,-0.0360082,-2.20824,-3.36818,-0.272981,-0.115146,-0.199338,-0.2301,-0.245845,-0.278419,-2.20824,0,0,278,-19,278,-19,419,-41,293,108,0.171213,0.117706,0,-1.5,8.08455e-38,0,0,0,-0.199338,-0.2301,0,0,0,0,-0.245845,-0.278419,22797,0,0,0,0,0,0,0,0,0,1,0.25311
7513,0,0.262695,1.72461,-0.000822406,0.000510008,-0.00120666,-0.00376472,-0.0359833,-2.20828,-3.36818,-0.272981,-0.115146,-0.203291,-0.234575,-0.24771,-0.280377,-2.20828,0,0,278,-19,278,-19,419,-41,293,108,0.170553,0.119372,0,-1.5,8.08455e-38,0,0,0,-0.203291,-0.234575,0,0,0,0,-0.24771,-0.280377,22797,0,0,0,0,0,0,0,0,0,1,0.258032
7530,0,0.262695,-1.78223,-0.000411357,0.0013174,-0.00171769,-0.00377163,-0.0359608,-2.2083,-3.35862,-0.270247,-0.117347,-0.207524,-0.239364,-0.249675,-0.282435,-2.2083,0,0,278,-20,278,-20,419,-41,292,108,0.16985,0.121141,0,-1.5,8.08455e-38,0,0,0,-0.207524,-0.239364,0,0,0,0,-0.249675,-0.282435,22797,0,0,0,0,0,0,0,0,0,1,0.2633
7545,0,0.262695,-1.52832,-0.000793443,0.000949131,-0.000860556,-0.00377965,-0.0359424,-2.20832,-3.35862,-0.270247,-0.117347,-0.211285,-0.243617,-0.251394,-0.284233,-2.20832,0,0,278,-20,278,-20,419,-41,292,108,0.169227,0.1227,0,-1.5,8.08455e-38,0,0,0,-0.211285,-0.243617,0,0,0,0,-0.251394,-0.284233,22797,0,0,0,0,0,0,0,0,0,1,0.267979
7560,0,0.262695,0.189453,-0.000407235,0.0013996,-0.00117641,-0.00379393,-0.0359219,-2.20832,-3.368,-0.272891,-0.114901,-0.215072,-0.247898,-0.2531,-0.286015,-2.20832,0,0,278,-19,278,-19,419,-41,293,108,0.168601,0.124259,0,-1.5,8.08455e-38,0,0,0,-0.215072,-0.247898,0,0,0,0,-0.2531,-0.286015,22797,0,0,0,0,0,0,0,0,0,1,0.272688
7576,0,0.262695,-5.75391,-0.0015774,0.00106284,-0.000710011,-0.00383277,-0.0358879,-2.20836,-3.368,-0.272891,-0.114901,-0.219141,-0.252494,-0.254905,-0.287898,-2.20836,0,0,278,-19,278,-19,419,-41,293,108,0.167921,0.125928,0,-1.5,8.08455e-38,0,0,0,-0.219141,-0.252494,0,0,0,0,-0.254905,-0.287898,22797,0,0,0,0,0,0,0,0,0,1,0.277744
7593,0,0.262695,2.11914,-0.00193613,-0.000410363,-0.000753026,-0.00385462,-0.0358856,-2.20838,-3.35469,-0.270028,-0.12092,-0.223495,-0.25741,-0.25681,-0.289874,-2.20838,0,0,278,-20,278,-20,419,-41,292,108,0.167199,0.127698,0,-1.5,8.08455e-38,0,0,0,-0.223495,-0.25741,0,0,0,0,-0.25681,-0.289874,22797,0,0,0,0,0,0,0,0,0,1,0.283151
7609,0,0.262695,-4.80566,-0.00041775,0.000615384,7.12607e-05,-0.00386075,-0.0358706,-2.20839,-3.35469,-0.270028,-0.12092,-0.227622,-0.262067,-0.25859,-0.291716,-2.20839,0,0,278,-20,278,-20,419,-41,292,108,0.166517,0.129364,0,-1.5,8.08455e-38,0,0,0,-0.227622,-0.262067,0,0,0,0,-0.25859,-0.291716,22797,0,0,0,0,0,0,0,0,0,1,0.288274
7625,0,0.231445,6.4707,-0.000503075,0.00103962,-0.0025615,-0.00386863,-0.0358454,-2.20841,-3.34726,-0.266929,-0.125997,-0.231779,-0.266754,-0.260356,-0.29354,-2.20841,0,0,277,-19,277,-19,419,-41,292,109,0.165826,0.131032,0,-1.5,8.08455e-38,0,0,0,-0.231779,-0.266754,0,0,0,0,-0.260356,-0.29354,23100,0,0,0,0,0,0,0,0,0,1,0.293429
7730,0,0.144531,3.11719,-0.000147371,-0.000150291,-0.000948486,-0.00393905,-0.0357735,-2.20858,-3.3472,-0.266914,-0.125917,-0.260237,-0.298733,-0.271831,-0.305378,-2.20858,0,0,277,-19,277,-19,419,-41,292,109,0.161083,0.142211,0,-1.5,8.08455e-38,0,0,0,-0.260237,-0.298733,0,0,0,0,-0.271831,-0.305378,23100,0,0,0,0,0,0,0,0,0,1,0.328606
7813,0,0.144531,-3.66992,0.000274508,0.000717956,-0.00165315,-0.00399922,-0.0356584,-2.20871,-3.35851,-0.265781,-0.118379,-0.283452,-0.324745,-0.280441,-0.314161,-2.20871,0,0,277,-19,277,-19,418,-41,292,108,0.157203,0.151024,0,-1.5,8.08455e-38,0,0,0,-0.283452,-0.324745,0,0,0,0,-0.280441,-0.314161,22946,0,0,0,0,0,0,0,0,0,1,0.35722
7830,0,0.144531,5.41309,-0.000204639,0.000234327,-0.00125827,-0.0039976,-0.0356474,-2.20872,-3.35851,-0.265781,-0.118379,-0.288238,-0.330105,-0.28213,-0.315866,-2.20872,0,0,277,-19,277,-19,418,-41,292,108,0.156406,0.152804,0,-1.5,8.08455e-38,0,0,0,-0.288238,-0.330105,0,0,0,0,-0.28213,-0.315866,22946,0,0,0,0,0,0,0,0,0,1,0.363116
7846,0,0.144531,5.83203,-0.000797321,-0.000494518,-0.000505473,-0.0040086,-0.0356384,-2.20874,-3.35851,-0.265781,-0.118379,-0.292769,-0.335176,-0.283706,-0.317456,-2.20874,0,0,277,-19,277,-19,418,-41,292,108,0.15565,0.154481,0,-1.5,8.08455e-38,0,0,0,-0.292769,-0.335176,0,0,0,0,-0.283706,-0.317456,22946,0,0,0,0,0,0,0,0,0,1,0.368693
7862,0,0.144531,7.25879,-0.000494759,0.000233665,-0.00172763,-0.0040141,-0.035631,-2.20876,-3.36143,-0.269945,-0.116515,-0.297325,-0.340272,-0.28527,-0.319031,-2.20876,0,0,278,-19,278,-19,419,-41,292,108,0.154888,0.156159,0,-1.5,8.08455e-38,0,0,0,-0.297325,-0.340272,0,0,0,0,-0.28527,-0.319031,22797,0,0,0,0,0,0,0,0,0,1,0.374299
7879,0,0.144531,-4.70312,-0.000778393,0.00113859,-0.00150796,-0.00401469,-0.0356088,-2.20879,-3.36143,-0.269945,-0.116515,-0.302192,-0.345713,-0.286917,-0.32069,-2.20877,0,0,278,-19,278,-19,419,-41,292,108,0.154076,0.157942,0,-1.5,8.08455e-38,0,0,0,-0.302192,-0.345713,0,0,0,0,-0.286917,-0.32069,22797,0,0,0,0,0,0,0,0,0,1,0.380285
7894,0,0.144531,-4.70312,-0.000778393,0.00113859,-0.00150796,-0.00401469,-0.0356088,-2.20879,-3.35775,-0.269808,-0.116187,-0.30651,-0.350538,-0.288358,-0.32214,-2.20879,0,0,278,-20,278,-20,419,-41,292,108,0.153353,0.159516,0,-1.5,8.08455e-38,0,0,0,-0.30651,-0.350538,0,0,0,0,-0.288358,-0.32214,22797,0,0,0,0,0,0,0,0,0,1,0.385592
7909,0,0.204102,-5.62109,-0.00018611,0.000105182,-0.00157294,-0.00404912,-0.0355989,-2.20881,-3.35775,-0.269808,-0.116187,-0.310849,-0.355384,-0.289788,-0.323577,-2.20881,0,0,278,-20,278,-20,419,-41,292,108,0.152626,0.161091,0,-1.5,8.08455e-38,0,0,0,-0.310849,-0.355384,0,0,0,0,-0.289788,-0.323577,22797,0,0,0,0,0,0,0,0,0,1,0.390922
7925,0,0.237305,-2.76758,-0.0012604,-0.000324342,-0.0011679,-0.00406681,-0.0355918,-2.20882,-3.33602,-0.271249,-0.126152,-0.315502,-0.360577,-0.291305,-0.325094,-2.20882,0,0,277,-19,277,-19,421,-42,293,110,0.151849,0.162771,0,-1.5,8.08455e-38,0,0,0,-0.315502,-0.360577,0,0,0,0,-0.291305,-0.325094,23408,0,0,0,0,0,0,0,0,0,1,0.396635
7942,0,0.270508,1.68555,-0.0010039,-0.000355135,-0.00165749,-0.00407803,-0.0355929,-2.20884,-3.33602,-0.271249,-0.126152,-0.320472,-0.366121,-0.292906,-0.326691,-2.20884,0,0,277,-19,277,-19,421,-42,293,110,0.15102,0.164557,0,-1.5,8.08455e-38,0,0,0,-0.320472,-0.366121,0,0,0,0,-0.292906,-0.326691,23408,0,0,0,0,0,0,0,0,0,1,0.402733
7958,0,0.287109,-5.51855,-5.3397e-05,0.000883652,-0.000810708,-0.00407786,-0.0355769,-2.20886,-3.33684,-0.269285,-0.123629,-0.325174,-0.371364,-0.294401,-0.328179,-2.20886,0,0,277,-19,277,-19,421,-42,292,109,0.150234,0.166239,0,-1.5,8.08455e-38,0,0,0,-0.325174,-0.371364,0,0,0,0,-0.294401,-0.328179,23254,0,0,0,0,0,0,0,0,0,1,0.4085
7974,0,0.220703,0.49707,-0.000510704,0.000823285,-0.00241474,-0.00411103,-0.0355376,-2.2089,-3.33684,-0.269285,-0.123629,-0.329899,-0.37663,-0.295882,-0.329654,-2.20886,0,0,277,-19,277,-19,421,-42,292,109,0.14945,0.167919,0,-1.5,8.08455e-38,0,0,0,-0.329899,-0.37663,0,0,0,0,-0.295882,-0.329654,23254,0,0,0,0,0,0,0,0,0,1,0.414293
7991,0,0.1875,-3.12988,-0.000146625,0.000809537,-0.000526084,-0.00411461,-0.0355214,-2.20891,-3.33565,-0.271519,-0.12823,-0.334649,-0.38192,-0.297353,-0.331114,-2.2089,0,0,277,-19,277,-19,421,-42,293,109,0.148645,0.169607,0,-1.5,8.08455e-38,0,0,0,-0.334649,-0.38192,0,0,0,0,-0.297353,-0.331114,23254,0,0,0,0,0,0,0,0,0,1,0.420112
8007,0,0.154297,2.93066,-0.000252472,0.000931467,-0.00148221,-0.00411614,-0.0355054,-2.20893,-3.33565,-0.271519,-0.12823,-0.339721,-0.387565,-0.298901,-0.332645,-2.20893,0,0,277,-19,277,-19,421,-42,293,109,0.147794,0.171396,0,-1.5,8.08455e-38,0,0,0,-0.339721,-0.387565,0,0,0,0,-0.298901,-0.332645,23254,0,0,0,0,0,0,0,0,0,1,0.426322
8023,0,0.157227,2.99414,-0.00022417,0.000766243,-0.00152735,-0.00412039,-0.0354953,-2.20896,-3.34234,-0.271727,-0.120804,-0.344518,-0.392902,-0.300345,-0.334071,-2.20896,0,0,277,-19,277,-19,421,-42,293,109,0.146988,0.17308,0,-1.5,8.08455e-38,0,0,0,-0.344518,-0.392902,0,0,0,0,-0.300345,-0.334071,23254,0,0,0,0,0,0,0,0,0,1,0.432193
8039,0,0.157227,2.99414,-0.00022417,0.000766243,-0.00152735,-0.00412039,-0.0354953,-2.20896,-3.34234,-0.271727,-0.120804,-0.349338,-0.398262,-0.301778,-0.335485,-2.20896,0,0,277,-19,277,-19,421,-42,293,109,0.146187,0.174761,0,-1.5,8.08455e-38,0,0,0,-0.349338,-0.398262,0,0,0,0,-0.301778,-0.335485,23254,0,0,0,0,0,0,0,0,0,1,0.438088
8055,0,0.157227,2.99414,-0.00022417,0.000766243,-0.00152735,-0.00412039,-0.0354953,-2.20896,-3.34234,-0.271727,-0.120804,-0.354182,-0.403644,-0.303199,-0.336887,-2.20896,0,0,277,-19,277,-19,421,-42,293,109,0.145382,0.176443,0,-1.5,8.08455e-38,0,0,0,-0.354182,-0.403644,0,0,0,0,-0.303199,-0.336887,23254,0,0,0,0,0,0,0,0,0,1,0.444009
8071,0,0.157227,2.99414,-0.00022417,0.000766243,-0.00152735,-0.00412039,-0.0354953,-2.20896,-3.33941,-0.26774,-0.12822,-0.359047,-0.409049,-0.304608,-0.338279,-2.20896,0,0,277,-19,277,-19,419,-42,293,110,0.144572,0.178126,0,-1.5,8.08455e-38,0,0,0,-0.359047,-0.409049,0,0,0,0,-0.304608,-0.338279,23408,0,0,0,0,0,0,0,0,0,1,0.449954
8088,0,0.157227,2.99414,-0.00022417,0.000766243,-0.00152735,-0.00412039,-0.0354953,-2.20896,-3.33941,-0.26774,-0.12822,-0.364243,-0.414816,-0.306094,-0.339745,-2.20896,0,0,277,-19,277,-19,419,-42,293,110,0.143707,0.179916,0,-1.5,8.08455e-38,0,0,0,-0.364243,-0.414816,0,0,0,0,-0.306094,-0.339745,23408,0,0,0,0,0,0,0,0,0,1,0.456298
8103,0,0.243164,-3.61719,-0.0020747,0.000819106,-0.000568152,-0.00414503,-0.0354055,-2.20906,-3.34932,-0.270798,-0.121755,-0.368847,-0.419925,-0.307394,-0.341026,-2.20906,0,0,278,-19,278,-19,421,-42,292,108,0.142905,0.181509,0,-1.5,8.08455e-38,0,0,0,-0.368847,-0.419925,0,0,0,0,-0.307394,-0.341026,22800,0,0,0,0,0,0,0,0,0,1,0.461917
8119,0,0.209961,-7.0293,-0.000133936,-0.000329216,-0.000757249,-0.00415241,-0.0353988,-2.20907,-3.34932,-0.270798,-0.121755,-0.373779,-0.425395,-0.308765,-0.34237,-2.20907,0,0,278,-19,278,-19,421,-42,292,108,0.142077,0.183194,0,-1.5,8.08455e-38,0,0,0,-0.373779,-0.425395,0,0,0,0,-0.308765,-0.34237,22800,0,0,0,0,0,0,0,0,0,1,0.467935
8135,0,0.209961,-7.0293,-0.000133936,-0.000329216,-0.000757249,-0.00415241,-0.0353988,-2.20907,-3.35284,-0.270914,-0.117728,-0.378734,-0.430887,-0.310126,-0.343703,-2.20907,0,0,278,-19,278,-19,421,-42,292,108,0.141252,0.184877,0,-1.5,8.08455e-38,0,0,0,-0.378734,-0.430887,0,0,0,0,-0.310126,-0.343703,22800,0,0,0,0,0,0,0,0,0,1,0.473976
8151,0,0.143555,-6.90137,0.000454194,0.000204121,-0.00156322,-0.00414479,-0.0353964,-2.2091,-3.35284,-0.270914,-0.117728,-0.38371,-0.4364,-0.311476,-0.345024,-2.2091,0,0,278,-19,278,-19,421,-42,292,108,0.140412,0.186565,0,-1.5,8.08455e-38,0,0,0,-0.38371,-0.4364,0,0,0,0,-0.311476,-0.345024,22800,0,0,0,0,0,0,0,0,0,1,0.48004
8167,0,0.169922,4.50293,-0.000760473,6.63018e-05,-0.00310779,-0.00414238,-0.0353679,-2.20917,-3.35049,-0.271284,-0.120782,-0.388708,-0.441935,-0.312814,-0.346335,-2.2091,0,0,277,-19,277,-19,421,-42,293,106,0.139579,0.18825,0,-1.5,8.08455e-38,0,0,0,-0.388708,-0.441935,0,0,0,0,-0.312814,-0.346335,22644,0,0,0,0,0,0,0,0,0,1,0.486128
8183,0,0.203125,1.6084,-0.00125757,0.000433507,-0.00175031,-0.00414781,-0.0353607,-2.20918,-3.35049,-0.271284,-0.120782,-0.393727,-0.44749,-0.31414,-0.347634,-2.20917,0,0,277,-19,277,-19,421,-42,293,106,0.138718,0.189944,0,-1.5,8.08455e-38,0,0,0,-0.393727,-0.44749,0,0,0,0,-0.31414,-0.347634,22644,0,0,0,0,0,0,0,0,0,1,0.492239
8199,0,0.203125,1.6084,-0.00125757,0.000433507,-0.00175031,-0.00414781,-0.0353607,-2.20918,-3.34725,-0.270287,-0.12017,-0.398767,-0.453065,-0.315455,-0.34892,-2.20918,0,0,277,-19,277,-19,421,-42,293,109,0.137871,0.191632,0,-1.5,8.08455e-38,0,0,0,-0.398767,-0.453065,0,0,0,0,-0.315455,-0.34892,23103,0,0,0,0,0,0,0,0,0,1,0.498372
8215,0,0.254883,-4.10352,0.000482946,0.00123838,-0.00242352,-0.00416612,-0.0353328,-2.20924,-3.34725,-0.270287,-0.12017,-0.403828,-0.458661,-0.316758,-0.350193,-2.20924,0,0,277,-19,277,-19,421,-42,293,109,0.137007,0.193325,0,-1.5,8.08455e-38,0,0,0,-0.403828,-0.458661,0,0,0,0,-0.316758,-0.350193,23103,0,0,0,0,0,0,0,0,0,1,0.504528
8232,0,0.254883,-4.10352,0.000482946,0.00123838,-0.00242352,-0.00416612,-0.0353328,-2.20924,-3.34845,-0.272256,-0.115337,-0.409228,-0.464629,-0.318132,-0.351531,-2.20924,0,0,277,-19,277,-19,421,-42,293,108,0.136105,0.195116,0,-1.5,8.08455e-38,0,0,0,-0.409228,-0.464629,0,0,0,0,-0.318132,-0.351531,23100,0,0,0,0,0,0,0,0,0,1,0.511092
8248,0,0.254883,-4.10352,0.000482946,0.00123838,-0.00242352,-0.00416612,-0.0353328,-2.20924,-3.34845,-0.272256,-0.115337,-0.414331,-0.470267,-0.319414,-0.35278,-2.20924,0,0,277,-19,277,-19,421,-42,293,108,0.135253,0.196802,0,-1.5,8.08455e-38,0,0,0,-0.414331,-0.470267,0,0,0,0,-0.319414,-0.35278,23100,0,0,0,0,0,0,0,0,0,1,0.517293
8264,0,0.129883,-2.30859,-0.00076522,0.00124271,-0.00236146,-0.00417457,-0.035263,-2.20933,-3.33568,-0.269422,-0.125074,-0.419455,-0.475924,-0.320686,-0.354018,-2.20924,0,0,277,-19,277,-19,421,-42,292,108,0.134397,0.19849,0,-1.5,8.08455e-38,0,0,0,-0.419455,-0.475924,0,0,0,0,-0.320686,-0.354018,23100,0,0,0,0,0,0,0,0,0,1,0.523516
8281,0,0.129883,0.834961,0.000236387,-0.000200267,-0.00242862,-0.00417694,-0.0352675,-2.20935,-3.33568,-0.269422,-0.125074,-0.424921,-0.481957,-0.322025,-0.355319,-2.20935,0,0,277,-19,277,-19,421,-42,292,108,0.133439,0.200298,0,-1.5,8.08455e-38,0,0,0,-0.424921,-0.481957,0,0,0,0,-0.322025,-0.355319,23100,0,0,0,0,0,0,0,0,0,1,0.530153
8297,0,0.129883,0.834961,0.000236387,-0.000200267,-0.00242862,-0.00417694,-0.0352675,-2.20935,-3.36162,-0.265382,-0.108998,-0.429763,-0.487298,-0.323194,-0.356453,-2.20935,0,0,278,-20,278,-20,417,-42,292,109,0.132629,0.201879,0,-1.5,8.08455e-38,0,0,0,-0.429763,-0.487298,0,0,0,0,-0.323194,-0.356453,23103,0,0,0,0,0,0,0,0,0,1,0.536027
8312,0,0.129883,-0.907227,-0.00144247,0.001157,-0.00112363,-0.00421297,-0.0352343,-2.20939,-3.36162,-0.265382,-0.108998,-0.434622,-0.492655,-0.324355,-0.357577,-2.20939,0,0,278,-20,278,-20,417,-42,292,109,0.131804,0.203465,0,-1.5,8.08455e-38,0,0,0,-0.434622,-0.492655,0,0,0,0,-0.324355,-0.357577,23103,0,0,0,0,0,0,0,0,0,1,0.541921
8328,0,0.15918,6.86816,-0.000575579,0.000106401,-0.00142759,-0.00421996,-0.0352283,-2.2094,-3.32671,-0.267089,-0.137189,-0.440151,-0.498748,-0.325661,-0.358833,-2.2094,0,0,277,-19,277,-19,421,-42,292,109,0.130873,0.20526,0,-1.5,8.08455e-38,0,0,0,-0.440151,-0.498748,0,0,0,0,-0.325661,-0.358833,23103,0,0,0,0,0,0,0,0,0,1,0.548623
8344,0,0.192383,1.4541,-0.000482038,0.000784976,-0.00154866,-0.00421973,-0.0352143,-2.20943,-3.32671,-0.267089,-0.137189,-0.445374,-0.504501,-0.326881,-0.360004,-2.20943,0,0,277,-19,277,-19,421,-42,292,109,0.129992,0.20695,0,-1.5,8.08455e-38,0,0,0,-0.445374,-0.504501,0,0,0,0,-0.326881,-0.360004,23103,0,0,0,0,0,0,0,0,0,1,0.554952
8360,0,0.225586,-5.85156,-0.00199022,0.000775274,-0.00132298,-0.00423279,-0.0352057,-2.20945,-3.36984,-0.272253,-0.104873,-0.450617,-0.510274,-0.32809,-0.361163,-2.20945,0,0,278,-20,278,-20,419,-41,293,108,0.129108,0.20864,0,-1.5,8.08455e-38,0,0,0,-0.450617,-0.510274,0,0,0,0,-0.32809,-0.361163,22797,0,0,0,0,0,0,0,0,0,1,0.561301
8376,0,0.291992,1.03223,-0.000681713,0.000971368,-0.00210423,-0.00423199,-0.0351646,-2.2095,-3.36984,-0.272253,-0.104873,-0.455879,-0.516064,-0.32929,-0.362312,-2.20945,0,0,278,-20,278,-20,419,-41,293,108,0.128229,0.210328,0,-1.5,8.08455e-38,0,0,0,-0.455879,-0.516064,0,0,0,0,-0.32929,-0.362312,22797,0,0,0,0,0,0,0,0,0,1,0.567671
8392,0,0.298828,0.683594,-0.000588335,0.00161612,-0.00186162,-0.00423414,-0.0351454,-2.20952,-3.36619,-0.270299,-0.110404,-0.46116,-0.521873,-0.330477,-0.363446,-2.20952,0,0,277,-19,277,-19,419,-41,293,106,0.127316,0.212025,0,-1.5,8.08455e-38,0,0,0,-0.46116,-0.521873,0,0,0,0,-0.330477,-0.363446,22638,0,0,0,0,0,0,0,0,0,1,0.574061
8409,0,0.265625,2.32031,-0.000843356,0.00138449,-0.00221062,-0.00424657,-0.0351289,-2.20955,-3.36619,-0.270299,-0.110404,-0.466792,-0.528065,-0.331726,-0.364638,-2.20955,0,0,277,-19,277,-19,419,-41,293,106,0.126362,0.213821,0,-1.5,8.08455e-38,0,0,0,-0.466792,-0.528065,0,0,0,0,-0.331726,-0.364638,22638,0,0,0,0,0,0,0,0,0,1,0.580872
8425,0,0.232422,4.79102,-0.000905,0.00111509,-0.000961149,-0.00425153,-0.035109,-2.20957,-3.35064,-0.264837,-0.119511,-0.472111,-0.533911,-0.332892,-0.365746,-2.20957,0,0,277,-20,277,-20,419,-41,292,109,0.125466,0.21551,0,-1.5,8.08455e-38,0,0,0,-0.472111,-0.533911,0,0,0,0,-0.332892,-0.365746,22950,0,0,0,0,0,0,0,0,0,1,0.587302
8441,0,0.232422,4.79102,-0.000905,0.00111509,-0.000961149,-0.00425153,-0.035109,-2.20957,-3.35064,-0.264837,-0.119511,-0.477115,-0.539407,-0.333976,-0.366776,-2.20957,0,0,277,-20,277,-20,419,-41,292,109,0.124629,0.217092,0,-1.5,8.08455e-38,0,0,0,-0.477115,-0.539407,0,0,0,0,-0.333976,-0.366776,22950,0,0,0,0,0,0,0,0,0,1,0.593347
8457,0,0.232422,4.79102,-0.000905,0.00111509,-0.000961149,-0.00425153,-0.035109,-2.20957,-3.36233,-0.271887,-0.111963,-0.482471,-0.545287,-0.335123,-0.367866,-2.20957,0,0,278,-20,278,-20,419,-41,293,108,0.123733,0.21878,0,-1.5,8.08455e-38,0,0,0,-0.482471,-0.545287,0,0,0,0,-0.335123,-0.367866,22797,0,0,0,0,0,0,0,0,0,1,0.599815
8472,0,0.232422,4.79102,-0.000905,0.00111509,-0.000961149,-0.00425153,-0.035109,-2.20957,-3.36233,-0.271887,-0.111963,-0.487845,-0.551184,-0.336261,-0.368947,-2.20957,0,0,278,-20,278,-20,419,-41,293,108,0.122834,0.220468,0,-1.5,8.08455e-38,0,0,0,-0.487845,-0.551184,0,0,0,0,-0.336261,-0.368947,22797,0,0,0,0,0,0,0,0,0,1,0.606302
8489,0,0.0839844,1.74414,0.000205892,0.00149588,-0.00167181,-0.00431783,-0.035042,-2.20968,-3.34573,-0.274357,-0.1177,-0.493575,-0.557469,-0.337461,-0.370084,-2.20968,0,0,278,-20,278,-20,421,-42,293,108,0.12183,0.222276,0,-1.5,8.08455e-38,0,0,0,-0.493575,-0.557469,0,0,0,0,-0.337461,-0.370084,22950,0,0,0,0,0,0,0,0,0,1,0.613216
8504,0,0.143555,-1.77441,-0.000186303,-0.000348043,-0.00152683,-0.00431641,-0.0350347,-2.20971,-3.34573,-0.274357,-0.1177,-0.498647,-0.56303,-0.338512,-0.371067,-2.20971,0,0,278,-20,278,-20,421,-42,293,108,0.120971,0.223862,0,-1.5,8.08455e-38,0,0,0,-0.498647,-0.56303,0,0,0,0,-0.338512,-0.371067,22950,0,0,0,0,0,0,0,0,0,1,0.619333
8521,0,0.209961,-1.52539,0.000732982,0.000571787,-0.00209072,-0.00429982,-0.0350189,-2.20973,-3.34573,-0.274357,-0.1177,-0.504414,-0.56935,-0.339693,-0.372171,-2.20973,0,0,278,-20,278,-20,421,-42,293,108,0.119997,0.225657,0,-1.5,8.08455e-38,0,0,0,-0.504414,-0.56935,0,0,0,0,-0.339693,-0.372171,22950,0,0,0,0,0,0,0,0,0,1,0.626285
8537,0,0.209961,-1.52539,0.000732982,0.000571787,-0.00209072,-0.00429982,-0.0350189,-2.20973,-3.34573,-0.274357,-0.1177,-0.509861,-0.575315,-0.340793,-0.373201,-2.20973,0,0,278,-20,278,-20,421,-42,293,108,0.119086,0.227345,0,-1.5,8.08455e-38,0,0,0,-0.509861,-0.575315,0,0,0,0,-0.340793,-0.373201,22950,0,0,0,0,0,0,0,0,0,1,0.632847
8553,0,0.302734,4.66406,-0.000408991,0.000705177,-0.00319325,-0.00431301,-0.0350013,-2.20979,-3.34573,-0.274357,-0.1177,-0.515325,-0.581297,-0.341884,-0.374222,-2.20979,0,0,278,-20,278,-20,421,-42,293,108,0.118148,0.22904,0,-1.5,8.08455e-38,0,0,0,-0.515325,-0.581297,0,0,0,0,-0.341884,-0.374222,22950,0,0,0,0,0,0,0,0,0,1,0.639427
8569,0,0.266602,2.09082,-0.000597332,0.000653009,-0.00190491,-0.0043312,-0.0349591,-2.20985,-3.36579,-0.27194,-0.111942,-0.520806,-0.587295,-0.342966,-0.375232,-2.20979,0,0,278,-19,278,-19,419,-41,293,108,0.11723,0.230728,0,-1.5,8.08455e-38,0,0,0,-0.520806,-0.587295,0,0,0,0,-0.342966,-0.375232,22797,0,0,0,0,0,0,0,0,0,1,0.646024
8585,0,0.233398,-4.7998,-0.000259745,0.000112902,-0.00200145,-0.00432913,-0.0349593,-2.20988,-3.36579,-0.27194,-0.111942,-0.526305,-0.593309,-0.34404,-0.37623,-2.20985,0,0,278,-19,278,-19,419,-41,293,108,0.116289,0.232422,0,-1.5,8.08455e-38,0,0,0,-0.526305,-0.593309,0,0,0,0,-0.34404,-0.37623,22797,0,0,0,0,0,0,0,0,0,1,0.65264
8601,0,0.233398,-4.7998,-0.000259745,0.000112902,-0.00200145,-0.00432913,-0.0349593,-2.20988,-3.35583,-0.27109,-0.112427,-0.53182,-0.599339,-0.345104,-0.377217,-2.20988,0,0,278,-20,278,-20,419,-42,293,108,0.115355,0.234113,0,-1.5,8.08455e-38,0,0,0,-0.53182,-0.599339,0,0,0,0,-0.345104,-0.377217,22950,0,0,0,0,0,0,0,0,0,1,0.659273
8617,0,0.166992,-6.12988,-0.00182734,0.00011435,-0.00163904,-0.00435659,-0.0349452,-2.2099,-3.35583,-0.27109,-0.112427,-0.537353,-0.605385,-0.34616,-0.378196,-2.2099,0,0,278,-20,278,-20,419,-42,293,108,0.114419,0.235804,0,-1.5,8.08455e-38,0,0,0,-0.537353,-0.605385,0,0,0,0,-0.34616,-0.378196,22950,0,0,0,0,0,0,0,0,0,1,0.665923
8633,0,0.166992,-6.12988,-0.00182734,0.00011435,-0.00163904,-0.00435659,-0.0349452,-2.2099,-3.38424,-0.265963,-0.111467,-0.542903,-0.611446,-0.347209,-0.379163,-2.2099,0,0,278,-19,278,-19,416,-40,293,108,0.113491,0.237493,0,-1.5,8.08455e-38,0,0,0,-0.542903,-0.611446,0,0,0,0,-0.347209,-0.379163,22496,0,0,0,0,0,0,0,0,0,1,0.672591
8649,0,0.113281,3.07031,-0.00220862,0.00122896,-0.0013796,-0.0043852,-0.0349167,-2.20994,-3.38424,-0.265963,-0.111467,-0.548469,-0.617523,-0.34825,-0.380119,-2.20994,0,0,278,-19,278,-19,416,-40,293,108,0.112545,0.239185,0,-1.5,8.08455e-38,0,0,0,-0.548469,-0.617523,0,0,0,0,-0.34825,-0.380119,22496,0,0,0,0,0,0,0,0,0,1,0.679275
8665,0,0.179688,-4.625,0.000171839,0.000750789,-0.00126569,-0.00438815,-0.0349003,-2.20999,-3.37531,-0.262619,-0.109021,-0.554052,-0.623614,-0.349283,-0.381065,-2.20994,0,0,278,-19,278,-19,416,-40,291,108,0.111612,0.240874,0,-1.5,8.08455e-38,0,0,0,-0.554052,-0.623614,0,0,0,0,-0.349283,-0.381065,22644,0,0,0,0,0,0,0,0,0,1,0.685976
8682,0,0.212891,4.34668,0.000125522,0.000277247,-0.000224461,-0.00438925,-0.0348898,-2.21,-3.37531,-0.262619,-0.109021,-0.560001,-0.630104,-0.350372,-0.382059,-2.20999,0,0,278,-19,278,-19,416,-40,291,108,0.110596,0.242674,0,-1.5,8.08455e-38,0,0,0,-0.560001,-0.630104,0,0,0,0,-0.350372,-0.382059,22644,0,0,0,0,0,0,0,0,0,1,0.693114
8697,0,0.212891,4.34668,0.000125522,0.000277247,-0.000224461,-0.00438925,-0.0348898,-2.21,-3.37687,-0.270501,-0.0980436,-0.565266,-0.635843,-0.351324,-0.382927,-2.21,0,0,277,-19,277,-19,419,-41,293,106,0.109714,0.244257,0,-1.5,8.08455e-38,0,0,0,-0.565266,-0.635843,0,0,0,0,-0.351324,-0.382927,22638,0,0,0,0,0,0,0,0,0,1,0.699427
8712,0,0.254883,0.0410156,-0.000393474,0.00114854,-0.00127529,-0.00440649,-0.034861,-2.21004,-3.37687,-0.270501,-0.0980436,-0.570545,-0.641595,-0.352268,-0.383787,-2.21004,0,0,277,-19,277,-19,419,-41,293,106,0.108813,0.245844,0,-1.5,8.08455e-38,0,0,0,-0.570545,-0.641595,0,0,0,0,-0.352268,-0.383787,22638,0,0,0,0,0,0,0,0,0,1,0.705754
8729,0,0.254883,3.44434,-0.00135316,0.000679509,-0.00135605,-0.00443018,-0.0348575,-2.21006,-3.35093,-0.268154,-0.118188,-0.576545,-0.64813,-0.353331,-0.38475,-2.21006,0,0,277,-19,277,-19,419,-41,293,110,0.107801,0.247641,0,-1.5,8.08455e-38,0,0,0,-0.576545,-0.64813,0,0,0,0,-0.353331,-0.38475,23254,0,0,0,0,0,0,0,0,0,1,0.712943
8745,0,0.254883,-4.46191,0.000543395,0.000547174,-0.00176123,-0.00441888,-0.0348442,-2.21009,-3.35093,-0.268154,-0.118188,-0.582209,-0.654295,-0.354323,-0.385645,-2.21009,0,0,277,-19,277,-19,419,-41,293,110,0.106842,0.249332,0,-1.5,8.08455e-38,0,0,0,-0.582209,-0.654295,0,0,0,0,-0.354323,-0.385645,23254,0,0,0,0,0,0,0,0,0,1,0.719725
8761,0,0.254883,2.67578,0.00161196,0.000293103,-0.00218546,-0.00440379,-0.0348321,-2.21012,-3.35684,-0.268999,-0.115232,-0.587888,-0.660475,-0.355305,-0.386534,-2.21012,0,0,277,-19,277,-19,419,-41,293,108,0.105881,0.251024,0,-1.5,8.08455e-38,0,0,0,-0.587888,-0.660475,0,0,0,0,-0.355305,-0.386534,22946,0,0,0,0,0,0,0,0,0,1,0.726522
8777,0,0.254883,-1.08008,-0.000948193,0.000846476,-0.00130517,-0.00441247,-0.034802,-2.21016,-3.35684,-0.268999,-0.115232,-0.593583,-0.666668,-0.356278,-0.387415,-2.21012,0,0,277,-19,277,-19,419,-41,293,108,0.104929,0.252713,0,-1.5,8.08455e-38,0,0,0,-0.593583,-0.666668,0,0,0,0,-0.356278,-0.387415,22946,0,0,0,0,0,0,0,0,0,1,0.733335
8794,0,0.254883,-1.08008,-0.000948193,0.000846476,-0.00130517,-0.00441247,-0.034802,-2.21016,-3.33994,-0.271116,-0.116687,-0.599294,-0.672876,-0.357241,-0.388284,-2.21016,0,0,277,-19,277,-19,419,-42,293,108,0.103955,0.254405,0,-1.5,8.08455e-38,0,0,0,-0.599294,-0.672876,0,0,0,0,-0.357241,-0.388284,23400,0,0,0,0,0,0,0,0,0,1,0.740164
8810,0,0.254883,4.9541,-0.00119657,0.000969983,-0.000408252,-0.00445171,-0.0347613,-2.2102,-3.33994,-0.271116,-0.116687,-0.605378,-0.679487,-0.358256,-0.389197,-2.2102,0,0,277,-19,277,-19,419,-42,293,108,0.10292,0.256203,0,-1.5,8.08455e-38,0,0,0,-0.605378,-0.679487,0,0,0,0,-0.358256,-0.389197,23400,0,0,0,0,0,0,0,0,0,1,0.747436
8826,0,0.254883,6.33594,-0.000725196,0.000282527,-0.00187681,-0.00445417,-0.0347505,-2.21023,-3.35909,-0.267108,-0.11608,-0.61112,-0.685723,-0.359205,-0.390042,-2.21023,0,0,277,-19,277,-19,419,-41,293,109,0.101949,0.257893,0,-1.5,8.08455e-38,0,0,0,-0.61112,-0.685723,0,0,0,0,-0.359205,-0.390042,22950,0,0,0,0,0,0,0,0,0,1,0.754296
8842,0,0.235352,-5.02734,-0.000630791,0.000900128,-0.00100765,-0.00446138,-0.0347284,-2.21024,-3.35909,-0.267108,-0.11608,-0.616877,-0.691972,-0.360145,-0.390878,-2.21024,0,0,277,-19,277,-19,419,-41,293,109,0.100982,0.259581,0,-1.5,8.08455e-38,0,0,0,-0.616877,-0.691972,0,0,0,0,-0.360145,-0.390878,22950,0,0,0,0,0,0,0,0,0,1,0.76117
8858,0,0.202148,2.24316,0.000726378,0.000354098,-0.00100276,-0.00445446,-0.0347247,-2.21026,-3.32999,-0.269115,-0.13153,-0.622649,-0.698235,-0.361076,-0.391706,-2.21026,0,0,278,-20,278,-20,421,-42,292,109,0.100011,0.26127,0,-1.5,8.08455e-38,0,0,0,-0.622649,-0.698235,0,0,0,0,-0.361076,-0.391706,22952,0,0,0,0,0,0,0,0,0,1,0.768058
8875,0,0.135742,-4.0625,-0.00134988,0.000432739,-0.00269373,-0.00449269,-0.0347038,-2.21031,-3.32999,-0.269115,-0.13153,-0.628798,-0.704904,-0.362057,-0.392578,-2.21026,0,0,278,-20,278,-20,421,-42,292,109,0.098983,0.263062,0,-1.5,8.08455e-38,0,0,0,-0.628798,-0.704904,0,0,0,0,-0.362057,-0.392578,22952,0,0,0,0,0,0,0,0,0,1,0.775394
8890,0,0.118164,-2.16113,-0.000316783,-0.000384783,-0.00108145,-0.00449571,-0.0346993,-2.21032,-3.34965,-0.271888,-0.112064,-0.634237,-0.710799,-0.362918,-0.393335,-2.21032,0,0,278,-19,278,-19,421,-42,292,108,0.0980476,0.26465,0,-1.5,8.08455e-38,0,0,0,-0.634237,-0.710799,0,0,0,0,-0.362918,-0.393335,22950,0,0,0,0,0,0,0,0,0,1,0.781879
8905,0,0.118164,4.1875,-0.000382693,0.000910374,-0.00143409,-0.00450148,-0.0346841,-2.21034,-3.34965,-0.271888,-0.112064,-0.639689,-0.716707,-0.363772,-0.394085,-2.21034,0,0,278,-19,278,-19,421,-42,292,108,0.0971294,0.266233,0,-1.5,8.08455e-38,0,0,0,-0.639689,-0.716707,0,0,0,0,-0.363772,-0.394085,22950,0,0,0,0,0,0,0,0,0,1,0.788377
8921,0,0.118164,-5.37988,-0.00157544,0.00112892,-0.00154537,-0.00450898,-0.0346671,-2.21036,-3.34965,-0.271888,-0.112064,-0.645519,-0.72302,-0.364677,-0.394877,-2.21036,0,0,278,-19,278,-19,421,-42,292,108,0.0961459,0.267922,0,-1.5,8.08455e-38,0,0,0,-0.645519,-0.72302,0,0,0,0,-0.364677,-0.394877,22950,0,0,0,0,0,0,0,0,0,1,0.795322
8937,0,0.118164,-5.37988,-0.00157544,0.00112892,-0.00154537,-0.00450898,-0.0346671,-2.21036,-3.36912,-0.261741,-0.106781,-0.651363,-0.729347,-0.365573,-0.39566,-2.21036,0,0,277,-20,277,-20,416,-40,292,109,0.0951706,0.269609,0,-1.5,8.08455e-38,0,0,0,-0.651363,-0.729347,0,0,0,0,-0.365573,-0.39566,22946,0,0,0,0,0,0,0,0,0,1,0.802281
8954,0,0.141602,3.56152,-0.00168008,0.00172165,-0.00165832,-0.0045376,-0.0346328,-2.21041,-3.36912,-0.261741,-0.106781,-0.657222,-0.735685,-0.366463,-0.396434,-2.21041,0,0,277,-20,277,-20,416,-40,292,109,0.0941717,0.2713,0,-1.5,8.08455e-38,0,0,0,-0.657222,-0.735685,0,0,0,0,-0.366463,-0.396434,22946,0,0,0,0,0,0,0,0,0,1,0.809254
8969,0,0.253906,6.65137,-0.000468496,0.000491363,-0.00165496,-0.00453892,-0.0346078,-2.21045,-3.36931,-0.270056,-0.119031,-0.663094,-0.742036,-0.367345,-0.397197,-2.21041,0,0,278,-17,278,-17,419,-41,293,108,0.0931923,0.272986,0,-1.5,8.08455e-38,0,0,0,-0.663094,-0.742036,0,0,0,0,-0.367345,-0.397197,22648,0,0,0,0,0,0,0,0,0,1,0.81624
8986,0,0.253906,6.51758,-0.000983181,0.00127861,-0.00251375,-0.00454974,-0.0346011,-2.21049,-3.36931,-0.270056,-0.119031,-0.66935,-0.748797,-0.368274,-0.398,-2.21045,0,0,278,-17,278,-17,419,-41,293,108,0.0921329,0.274781,0,-1.5,8.08455e-38,0,0,0,-0.66935,-0.748797,0,0,0,0,-0.368274,-0.398,22648,0,0,0,0,0,0,0,0,0,1,0.823677
9002,0,0.253906,6.51758,-0.000983181,0.00127861,-0.00251375,-0.00454974,-0.0346011,-2.21049,-3.36818,-0.261956,-0.112901,-0.675251,-0.755173,-0.369142,-0.398745,-2.21049,0,0,277,-19,277,-19,416,-40,292,108,0.0911305,0.27647,0,-1.5,8.08455e-38,0,0,0,-0.675251,-0.755173,0,0,0,0,-0.369142,-0.398745,22792,0,0,0,0,0,0,0,0,0,1,0.830691
9018,0,0.253906,-1.49414,-0.00140089,0.000421932,-0.00254609,-0.0045837,-0.0345868,-2.21052,-3.36818,-0.261956,-0.112901,-0.681166,-0.761561,-0.370003,-0.399483,-2.21052,0,0,277,-19,277,-19,416,-40,292,108,0.0901293,0.278159,0,-1.5,8.08455e-38,0,0,0,-0.681166,-0.761561,0,0,0,0,-0.370003,-0.399483,22792,0,0,0,0,0,0,0,0,0,1,0.837717
9034,0,0.253906,3.12012,-0.000789462,0.00086654,-0.001547,-0.0045848,-0.0345722,-2.21055,-3.35303,-0.26442,-0.1181,-0.687095,-0.76796,-0.370859,-0.40021,-2.21055,0,0,277,-19,277,-19,419,-41,292,109,0.0891304,0.279847,0,-1.5,8.08455e-38,0,0,0,-0.687095,-0.76796,0,0,0,0,-0.370859,-0.40021,22950,0,0,0,0,0,0,0,0,0,1,0.844756
9050,0,0.253906,-3.81445,-0.00143888,0.000143638,-0.000943436,-0.0045934,-0.034564,-2.21056,-3.35303,-0.26442,-0.1181,-0.692665,-0.773969,-0.371654,-0.400885,-2.21056,0,0,277,-19,277,-19,419,-41,292,109,0.0881957,0.281428,0,-1.5,8.08455e-38,0,0,0,-0.692665,-0.773969,0,0,0,0,-0.371654,-0.400885,22950,0,0,0,0,0,0,0,0,0,1,0.851366
9065,0,0.253906,1.25586,-0.000480853,0.0011651,-0.00112311,-0.00460209,-0.0345296,-2.2106,-3.365,-0.269695,-0.104233,-0.69862,-0.780391,-0.372497,-0.401599,-2.21056,0,0,277,-20,277,-20,419,-41,293,106,0.0872039,0.283113,0,-1.5,8.08455e-38,0,0,0,-0.69862,-0.780391,0,0,0,0,-0.372497,-0.401599,22638,0,0,0,0,0,0,0,0,0,1,0.85843
9082,0,0.253906,0.0419922,-0.000306094,0.000903686,-0.00102163,-0.0046048,-0.0345136,-2.21062,-3.365,-0.269695,-0.104233,-0.704963,-0.787226,-0.373384,-0.402348,-2.2106,0,0,277,-20,277,-20,419,-41,293,106,0.0861302,0.284907,0,-1.5,8.08455e-38,0,0,0,-0.704963,-0.787226,0,0,0,0,-0.373384,-0.402348,22638,0,0,0,0,0,0,0,0,0,1,0.865949
9097,0,0.253906,0.0419922,-0.000306094,0.000903686,-0.00102163,-0.0046048,-0.0345136,-2.21062,-3.3775,-0.264514,-0.10631,-0.710571,-0.793268,-0.374158,-0.402999,-2.21062,0,0,277,-19,277,-19,416,-40,293,108,0.0851892,0.286488,0,-1.5,8.08455e-38,0,0,0,-0.710571,-0.793268,0,0,0,0,-0.374158,-0.402999,22792,0,0,0,0,0,0,0,0,0,1,0.872595
9113,0,0.253906,4.81836,1.30466e-05,6.21485e-05,-0.00127655,-0.00460362,-0.0344967,-2.21066,-3.3775,-0.264514,-0.10631,-0.716566,-0.799723,-0.374977,-0.403687,-2.21066,0,0,277,-19,277,-19,416,-40,293,108,0.0841701,0.288176,0,-1.5,8.08455e-38,0,0,0,-0.716566,-0.799723,0,0,0,0,-0.374977,-0.403687,22792,0,0,0,0,0,0,0,0,0,1,0.879696
9130,0,0.253906,-3.66992,-0.000898916,0.000569235,-0.0011164,-0.00461442,-0.0344839,-2.21069,-3.35094,-0.265841,-0.114446,-0.72295,-0.806594,-0.375839,-0.404409,-2.21069,0,0,277,-19,277,-19,419,-41,292,109,0.0830958,0.289967,0,-1.5,8.08455e-38,0,0,0,-0.72295,-0.806594,0,0,0,0,-0.375839,-0.404409,23100,0,0,0,0,0,0,0,0,0,1,0.887253
9146,0,0.253906,5.42676,-0.000444123,-8.13387e-06,-0.00141861,-0.00461369,-0.0344768,-2.2107,-3.35094,-0.265841,-0.114446,-0.728972,-0.813071,-0.376643,-0.405082,-2.2107,0,0,277,-19,277,-19,419,-41,292,109,0.0820859,0.291652,0,-1.5,8.08455e-38,0,0,0,-0.728972,-0.813071,0,0,0,0,-0.376643,-0.405082,23100,0,0,0,0,0,0,0,0,0,1,0.894378
9162,0,0.253906,5.83984,0.000731538,0.000462944,-0.000259596,-0.00461206,-0.0344686,-2.21071,-3.34961,-0.268067,-0.119039,-0.735007,-0.81956,-0.377441,-0.405748,-2.21071,0,0,277,-19,277,-19,419,-41,293,109,0.0810781,0.293336,0,-1.5,8.08455e-38,0,0,0,-0.735007,-0.81956,0,0,0,0,-0.377441,-0.405748,23100,0,0,0,0,0,0,0,0,0,1,0.901516
9178,0,0.253906,-0.335938,-0.000594171,0.000173049,0.000306659,-0.00462287,-0.0344439,-2.21073,-3.34961,-0.268067,-0.119039,-0.741054,-0.826059,-0.378231,-0.406408,-2.21071,0,0,277,-19,277,-19,419,-41,293,109,0.0800708,0.29502,0,-1.5,8.08455e-38,0,0,0,-0.741054,-0.826059,0,0,0,0,-0.378231,-0.406408,23100,0,0,0,0,0,0,0,0,0,1,0.908664
