timestamp,A_x,A_y,A_z,P,Q,R,Phi,Theta,Psi,poseX,poseY,poseZ,state_X,state_Y,state_Z,state_VzB,state_Bx,state_By,state_Bz,p1_x,p1_y,p2_x,p2_y,p3_x,p3_y,p4_x,p4_y,roll,pitch,yaw,alt,targetHeading,highLevelState,lowLevelState,gateNumber,filtered_x,filtered_y,x_OT,y_OT,vx_OT,vy_OT,filtered_vx,filtered_vygateArearansac_corr_x,ransac_corr_y,ransac_corr_vx,ransac_corr_vy,detectionTimeStamppTermX,dTermX,pTermY,dTermY,vxcmd,vycmd
6061,1.11133,-0.618164,-0.701172,-0.186238,-0.0618008,0.380388,0.0635288,-0.00987612,-0.325438,0,0,0,3.30193e-05,-0.00124583,0.00372219,-0.142263,-0.238581,0,0,0,0,0,0,0,0,0,0,0.123565,-0.529366,0,-1.5,9.38862e-38,0,0,0,3.30193e-05,-0.00124583,0,0,0,0,0.00372219,-0.142263,1.9603e-19,0,0,0,0,0,0,0,0,0,1.5,0.00249166
6076,0,0.442383,3.33496,-0.00580344,0.00169872,-0.000695307,0.0280357,-0.0358637,-0.308262,0,0,0,0.000109522,-0.00326891,0.00779094,-0.132332,-0.309218,0,0,0,0,0,0,0,0,0,0,0.146596,-0.519238,0,-1.5,9.38862e-38,0,0,0,0.000109522,-0.00326891,0,0,0,0,0.00779094,-0.132332,1.9603e-19,0,0,0,0,0,0,0,0,0,1.5,0.00653781
6094,0,0.486328,5.72559,-0.00515185,-9.25724e-05,-0.000198197,0.019722,-0.0374573,-0.308346,0,0,0,0.000355109,-0.00573081,0.0156605,-0.128354,-0.308275,0,0,0,0,0,0,0,0,0,0,0.145899,-0.51743,0,-1.5,9.38862e-38,0,0,0,0.000355109,-0.00573081,0,0,0,0,0.0156605,-0.128354,1.9603e-19,0,0,0,0,0,0,0,0,0,1.5,0.0114616
6111,0.09375,0.532227,6.1377,-0.00350187,0.0016047,0.000110953,0.0130088,-0.0388349,-0.308488,0,0,0,0.0006945,-0.00788805,0.0224624,-0.126245,-0.308437,0,0,0,0,0,0,0,0,0,0,0.145964,-0.515619,0,-1.5,9.38862e-38,0,0,0,0.0006945,-0.00788805,-4.31641,-1.13672,0,0,0.0224624,-0.126245,1.9603e-19,0,0,0,0,0,0,0,0,0,1.5,0.0157761
6127,0.126953,0.532227,-7.15918,-0.00584916,0.000867779,8.14453e-05,0.0128867,-0.0388631,-0.308493,0,0,0,0.00111972,-0.00989659,0.0287199,-0.125193,-0.308493,0,0,0,0,0,0,0,0,0,0,0.146214,-0.513895,0,-1.5,9.38862e-38,0,0,0,0.00111972,-0.00989659,-4.31641,-1.13672,0,0,0.0287199,-0.125193,1.9603e-19,0,0,0,0,0,0,0,0,0,1.5,0.0197932
6143,0.125,0.532227,4.3457,-0.00376236,0.000647377,-0.000579025,0.0127857,-0.0388938,-0.308498,0,0,0,0.00164254,-0.0118897,0.0349249,-0.12422,-0.308498,0,0,0,0,0,0,0,0,0,0,0.146463,-0.512188,0,-1.5,9.38862e-38,0,0,0,0.00164254,-0.0118897,-4.31641,-1.13672,0,0,0.0349249,-0.12422,1.9603e-19,0,0,0,0,0,0,0,0,0,1.5,0.0237795
6159,0.0917969,0.532227,6.01465,-0.00354572,0.00130303,-0.00125316,0.0126819,-0.0389159,-0.308509,0,0,0,0.00226418,-0.0138676,0.0410847,-0.123275,-0.308509,0,0,0,0,0,0,0,0,0,0,0.146716,-0.51049,0,-1.5,9.38862e-38,0,0,0,0.00226418,-0.0138676,-4.31641,-1.13672,0,0,0.0410847,-0.123275,1.9603e-19,0,0,0,0,0,0,0,0,0,1.5,0.0277352
6175,0.0585938,0.532227,-4.43359,-0.0047674,0.00180384,-0.000509603,0.0125681,-0.0389353,-0.308509,0,0,0,0.00293594,-0.0157083,0.0468172,-0.122412,-0.308509,0,0,0,0,0,0,0,0,0,0,0.146952,-0.508911,0,-1.5,9.38862e-38,0,0,0,0.00293594,-0.0157083,-4.31641,-1.13672,0,0,0.0468172,-0.122412,1.9603e-19,0,0,0,0,0,0,0,0,0,1.5,0.0314166
6190,0.0253906,0.532227,4.77051,-0.00509148,0.000993436,-0.000319942,0.0124534,-0.0389639,-0.308518,0,0,0,0.00374885,-0.0176574,0.0528883,-0.121515,-0.308518,0,0,0,0,0,0,0,0,0,0,0.147209,-0.507236,0,-1.5,9.38862e-38,0,0,0,0.00374885,-0.0176574,-4.31641,-1.13672,0,0,0.0528883,-0.121515,1.9603e-19,0,0,0,0,0,0,0,0,0,1.5,0.0353149
6206,0,0.532227,1.41113,-0.00453242,0.00123997,-0.00053257,0.0123387,-0.0389937,-0.308529,0,0,0,0.00465843,-0.0195925,0.0589147,-0.120644,-0.308529,0,0,0,0,0,0,0,0,0,0,0.14747,-0.505571,0,-1.5,9.38862e-38,0,0,0,0.00465843,-0.0195925,-4.31641,-1.13672,0,0,0.0589147,-0.120644,1.9603e-19,0,0,0,0,0,0,0,0,0,1.5,0.0391849
6222,0,0.532227,1.52441,-0.00352246,0.00103166,-0.000908841,0.0121343,-0.039042,-0.308542,0,0,0,0.00566209,-0.0215141,0.0648963,-0.119797,-0.308542,0,0,0,0,0,0,0,0,0,0,0.147734,-0.503917,0,-1.5,9.38862e-38,0,0,0,0.00566209,-0.0215141,-4.31641,-1.13672,0,0,0.0648963,-0.119797,1.9603e-19,0,0,0,0,0,0,0,0,0,1.5,0.0430282
6237,0,0.532227,4.88672,-0.00468182,0.000623784,-0.000680648,0.0120254,-0.0390737,-0.308548,0,0,0,0.00668941,-0.0233037,0.0704626,-0.119034,-0.308542,0,0,0,0,0,0,0,0,0,0,0.147981,-0.502377,0,-1.5,9.38862e-38,0,0,0,0.00668941,-0.0233037,-4.31641,-1.13672,0,0,0.0704626,-0.119034,1.9603e-19,0,0,0,0,0,0,0,0,0,1.5,0.0466073
6265,0,0.532227,5.50293,-0.00479131,0.00154025,-0.000772858,0.0118068,-0.0391134,-0.308559,0,0,0,0.0088838,-0.0266069,0.0807568,-0.117662,-0.308594,0,0,0,0,0,0,0,0,0,0,0.148464,-0.49952,0,-1.5,9.38862e-38,0,0,0,0.0088838,-0.0266069,-4.31641,-1.13672,0,0,0.0807568,-0.117662,1.9603e-19,0,0,0,0,0,0,0,0,0,1.5,0.0532138
6319,0,0.532227,2.27832,-0.00409238,0.000964635,-0.000879479,0.011365,-0.0392031,-0.308577,0,0,0,0.0141644,-0.0328427,0.100375,-0.115163,-0.30857,0,0,0,0,0,0,0,0,0,0,0.149342,-0.494093,0,-1.5,9.38862e-38,0,0,0,0.0141644,-0.0328427,-4.31641,-1.13672,0,0,0.100375,-0.115163,1.9603e-19,0,0,0,0,0,0,0,0,0,1.5,0.0656853
6339,0,0.532227,6.31641,-0.00533889,0.00161194,-0.0013752,0.011242,-0.0392227,-0.30859,-4.67579,-1.07392,0.376831,0.0162713,-0.0351344,0.10746,-0.114344,-0.30859,0,0,366,-9,366,-9,466,-7,362,91,0.149707,-0.492117,0,-1.5,9.38862e-38,0,0,0,0.0162713,-0.0351344,-4.31641,-1.13672,0,0,0.10746,-0.114344,10400,0,0,0,0,0,0,0,0,0,1.5,0.0702688
6352,0,0.532227,-1.20117,-0.00372389,0.000742617,-0.00100512,0.0111327,-0.03925,-0.308596,-4.67579,-1.07392,0.376831,0.0177052,-0.0366167,0.112024,-0.113834,-0.308596,0,0,366,-9,366,-9,466,-7,362,91,0.149947,-0.490843,0,-1.5,9.38862e-38,0,0,0,0.0177052,-0.0366167,-4.31641,-1.13672,0,0,0.112024,-0.113834,10400,0,0,0,0,0,0,0,0,0,1.5,0.0732334
6368,0,0.532227,-5.50586,-0.00438963,0.000667033,-0.00128793,0.0110234,-0.0392858,-0.308615,-4.67579,-1.07392,0.376831,0.0195545,-0.0384319,0.117605,-0.11323,-0.308615,0,0,366,-9,366,-9,466,-7,362,91,0.15025,-0.489281,0,-1.5,9.38862e-38,0,0,0,0.0195545,-0.0384319,-4.31641,-1.13672,0,0,0.117605,-0.11323,10400,0,0,0,0,0,0,0,0,0,1.5,0.0768637
6384,0,0.532227,6.83496,-0.00456285,0.00141141,-0.000457376,0.0109067,-0.0393091,-0.308611,-4.67649,-1.07224,0.377001,0.0214945,-0.0402374,0.123146,-0.112647,-0.308611,0,0,366,-9,366,-9,466,-7,362,91,0.150549,-0.487732,0,-1.5,9.38862e-38,0,0,0,0.0214945,-0.0402374,-4.31641,-1.13672,0,0,0.123146,-0.112647,10400,0,0,0,0,0,0,0,0,0,1.5,0.0804747
6400,0,0.532227,-6.08691,-0.00527876,0.000875848,-0.000138236,0.0106897,-0.0393663,-0.308602,-4.67649,-1.07224,0.377001,0.0235226,-0.0420338,0.128646,-0.112086,-0.308609,0,0,366,-9,366,-9,466,-7,362,91,0.150853,-0.486192,0,-1.5,9.38862e-38,0,0,0,0.0235226,-0.0420338,-4.31641,-1.13672,0,0,0.128646,-0.112086,10400,0,0,0,0,0,0,0,0,0,1.5,0.0840676
6416,0,0.532227,-6.08691,-0.00527876,0.000875848,-0.000138236,0.0106897,-0.0393663,-0.308602,-4.67669,-1.07178,0.377029,0.0256384,-0.0438215,0.134105,-0.111549,-0.308602,0,0,366,-9,366,-9,466,-7,362,91,0.15116,-0.484662,0,-1.5,9.38862e-38,0,0,0,0.0256384,-0.0438215,-4.31641,-1.13672,0,0,0.134105,-0.111549,10400,0,0,0,0,0,0,0,0,0,1.5,0.0876429
6432,0,0.532227,-6.08691,-0.00527876,0.000875848,-0.000138236,0.0106897,-0.0393663,-0.308602,-4.67669,-1.07178,0.377029,0.027841,-0.0456007,0.139525,-0.111025,-0.308602,0,0,366,-9,366,-9,466,-7,362,91,0.151472,-0.48314,0,-1.5,9.38862e-38,0,0,0,0.027841,-0.0456007,-4.31641,-1.13672,0,0,0.139525,-0.111025,10400,0,0,0,0,0,0,0,0,0,1.5,0.0912015
6449,0,0.532227,5.61719,-0.00382759,0.0023095,-0.00106007,0.0103807,-0.0394301,-0.308624,-4.71324,-1.08536,0.389919,0.03013,-0.0473717,0.144904,-0.110517,-0.308624,0,0,368,-8,368,-8,466,-7,362,91,0.151793,-0.481625,0,-1.5,9.38862e-38,0,0,0,0.03013,-0.0473717,-4.31641,-1.13672,0,0,0.144904,-0.110517,10296,0,0,0,0,0,0,0,0,0,1.5,0.0947434
6464,0,0.532227,7.1416,-0.00376582,0.00106839,-0.00106339,0.0102714,-0.0394561,-0.308628,-4.71324,-1.08536,0.389919,0.0325046,-0.0491351,0.15024,-0.110056,-0.308628,0,0,368,-8,368,-8,466,-7,362,91,0.152119,-0.480121,0,-1.5,9.38862e-38,0,0,0,0.0325046,-0.0491351,-4.31641,-1.13672,0,0,0.15024,-0.110056,10296,0,0,0,0,0,0,0,0,0,1.5,0.0982701
6484,0,0.532227,-1.20996,-0.00300233,0.00135434,-0.0010894,0.0100524,-0.0394993,-0.308671,-4.71324,-1.08536,0.389919,0.0356022,-0.0513284,0.156859,-0.109505,-0.308651,0,0,368,-8,368,-8,466,-7,362,91,0.152537,-0.47825,0,-1.5,9.38862e-38,0,0,0,0.0356022,-0.0513284,-4.31641,-1.13672,0,0,0.156859,-0.109505,10296,0,0,0,0,0,0,0,0,0,1.5,0.102657
6501,0,0.532227,1.33496,-0.00366356,0.000905835,-0.000562316,0.00995666,-0.0395185,-0.308673,-4.67717,-1.07063,0.37714,0.0383302,-0.0531851,0.162432,-0.109066,-0.308673,0,0,366,-9,366,-9,466,-7,362,91,0.1529,-0.47667,0,-1.5,9.38862e-38,0,0,0,0.0383302,-0.0531851,-4.31641,-1.13672,0,0,0.162432,-0.109066,10400,0,0,0,0,0,0,0,0,0,1.5,0.10637
6516,0,0.532227,1.33496,-0.00366356,0.000905835,-0.000562316,0.00995666,-0.0395185,-0.308673,-4.7138,-1.08398,0.390095,0.0408139,-0.0548175,0.167311,-0.108701,-0.308673,0,0,368,-8,368,-8,466,-7,362,91,0.15322,-0.475288,0,-1.5,9.38862e-38,0,0,0,0.0408139,-0.0548175,-4.31641,-1.13672,0,0,0.167311,-0.108701,10296,0,0,0,0,0,0,0,0,0,1.5,0.109635
6531,0,0.532227,1.33496,-0.00366356,0.000905835,-0.000562316,0.00995666,-0.0395185,-0.308673,-4.7138,-1.08398,0.390095,0.0433705,-0.0564445,0.172157,-0.108339,-0.308673,0,0,368,-8,368,-8,466,-7,362,91,0.153541,-0.473914,0,-1.5,9.38862e-38,0,0,0,0.0433705,-0.0564445,-4.31641,-1.13672,0,0,0.172157,-0.108339,10296,0,0,0,0,0,0,0,0,0,1.5,0.112889
6548,0,0.532227,-1.81641,-0.00440086,0.00082093,0.000315379,0.00964552,-0.0395881,-0.308678,-4.7138,-1.08398,0.390095,0.0463572,-0.0582819,0.177609,-0.107953,-0.308678,0,0,368,-8,368,-8,466,-7,362,91,0.153912,-0.472365,0,-1.5,9.38862e-38,0,0,0,0.0463572,-0.0582819,-4.31641,-1.13672,0,0,0.177609,-0.107953,10296,0,0,0,0,0,0,0,0,0,1.5,0.116564
6563,0,0.532227,-3.01953,-0.00485384,0.000277053,-0.00108153,0.0095349,-0.0396104,-0.308685,-4.7138,-1.08398,0.390095,0.0490675,-0.0598982,0.18238,-0.107649,-0.308685,0,0,368,-8,368,-8,466,-7,362,91,0.154249,-0.471005,0,-1.5,9.38862e-38,0,0,0,0.0490675,-0.0598982,-4.31641,-1.13672,0,0,0.18238,-0.107649,10296,0,0,0,0,0,0,0,0,0,1.5,0.119796
6580,0,0.532227,-1.36621,-0.00440143,0.00146619,0.000399452,0.00942481,-0.0396314,-0.30868,-4.7138,-1.08398,0.390095,0.0522272,-0.0617246,0.187749,-0.107324,-0.30868,0,0,368,-8,368,-8,466,-7,362,91,0.154632,-0.469474,0,-1.5,9.38862e-38,0,0,0,0.0522272,-0.0617246,-4.31641,-1.13672,0,0,0.187749,-0.107324,10296,0,0,0,0,0,0,0,0,0,1.5,0.123449
6596,0,0.532227,-1.36621,-0.00440143,0.00146619,0.000399452,0.00942481,-0.0396314,-0.30868,-4.7138,-1.08398,0.390095,0.0552823,-0.0634388,0.192761,-0.107032,-0.30868,0,0,368,-8,368,-8,466,-7,362,91,0.154999,-0.468042,0,-1.5,9.38862e-38,0,0,0,0.0552823,-0.0634388,-4.31641,-1.13672,0,0,0.192761,-0.107032,10296,0,0,0,0,0,0,0,0,0,1.5,0.126878
6612,0,0.532227,5.32227,-0.00314556,0.000443572,-0.00128973,0.00912211,-0.0396777,-0.308688,-4.7138,-1.08398,0.390095,0.0584172,-0.0651484,0.197737,-0.106749,-0.308688,0,0,368,-8,368,-8,466,-7,362,91,0.15537,-0.466617,0,-1.5,9.38862e-38,0,0,0,0.0584172,-0.0651484,-4.31641,-1.13672,0,0,0.197737,-0.106749,10296,0,0,0,0,0,0,0,0,0,1.5,0.130297
6628,0,0.532227,4.38672,-0.00509727,-0.000113056,-0.0011822,0.00901214,-0.0397209,-0.308698,-4.7138,-1.08398,0.390095,0.0616313,-0.0668539,0.202671,-0.106513,-0.308698,0,0,368,-8,368,-8,466,-7,362,91,0.155754,-0.4652,0,-1.5,9.38862e-38,0,0,0,0.0616313,-0.0668539,-4.31641,-1.13672,0,0,0.202671,-0.106513,10296,0,0,0,0,0,0,0,0,0,1.5,0.133708
6644,0,0.532227,-2.39062,-0.00449979,0.0002933,-0.000733454,0.0089081,-0.039752,-0.30871,-4.7138,-1.08398,0.390095,0.0649256,-0.0685559,0.207571,-0.106299,-0.30871,0,0,368,-8,368,-8,466,-7,362,91,0.156146,-0.463788,0,-1.5,9.38862e-38,0,0,0,0.0649256,-0.0685559,-4.31641,-1.13672,0,0,0.207571,-0.106299,10296,0,0,0,0,0,0,0,0,0,1.5,0.137112
6660,0,0.532227,-4.36816,-0.00594312,0.000144977,0.000638493,0.00879424,-0.0397806,-0.308715,-4.69043,-1.07053,0.38007,0.0682964,-0.0702546,0.212435,-0.106105,-0.308715,0,0,366,-8,366,-8,466,-7,362,91,0.156541,-0.462386,0,-1.5,9.38862e-38,0,0,0,0.0682964,-0.0702546,-4.31641,-1.13672,0,0,0.212435,-0.106105,10296,0,0,0,0,0,0,0,0,0,1.5,0.140509
6676,0,0.532227,-3.28027,-0.00541111,0.00145003,-0.00128619,0.00866709,-0.0397958,-0.308724,-4.69043,-1.07053,0.38007,0.0717446,-0.0719505,0.217261,-0.105932,-0.308724,0,0,366,-8,366,-8,466,-7,362,91,0.156943,-0.46099,0,-1.5,9.38862e-38,0,0,0,0.0717446,-0.0719505,-4.31641,-1.13672,0,0,0.217261,-0.105932,10296,0,0,0,0,0,0,0,0,0,1.5,0.143901
6692,0,0.532227,-4.23145,-0.00467104,0.0010681,-0.000252721,0.00830078,-0.0397949,-0.308594,-4.69043,-1.07053,0.38007,0.0752711,-0.0736437,0.222051,-0.105771,-0.308724,0,0,366,-8,366,-8,466,-7,362,91,0.157348,-0.459605,0,-1.5,9.38862e-38,0,0,0,0.0752711,-0.0736437,-4.31641,-1.13672,0,0,0.222051,-0.105771,10296,0,0,0,0,0,0,0,0,0,1.5,0.147287
6707,0,0.532227,5.00195,-0.00553138,0.0010358,0.000327626,0.00830819,-0.0398746,-0.308721,-4.69043,-1.07053,0.38007,0.0786449,-0.0752293,0.226493,-0.105672,-0.308594,0,0,366,-8,366,-8,466,-7,362,91,0.157705,-0.458334,0,-1.5,9.38862e-38,0,0,0,0.0786449,-0.0752293,-4.31641,-1.13672,0,0,0.226493,-0.105672,10296,0,0,0,0,0,0,0,0,0,1.5,0.150459
6722,0,0.532227,5.00195,-0.00553138,0.0010358,0.000327626,0.00830819,-0.0398746,-0.308721,-4.67862,-1.06638,0.377958,0.0820851,-0.0768135,0.230917,-0.105577,-0.308721,0,0,366,-9,366,-9,466,-7,362,91,0.158137,-0.457026,0,-1.5,9.38862e-38,0,0,0,0.0820851,-0.0768135,-4.31641,-1.13672,0,0,0.230917,-0.105577,10400,0,0,0,0,0,0,0,0,0,1.5,0.153627
6738,0,0.532227,2.95801,-0.00463127,0.000753689,0.000476805,0.00808313,-0.0399339,-0.308727,-4.67862,-1.06638,0.377958,0.085829,-0.0785017,0.235603,-0.105485,-0.308727,0,0,366,-9,366,-9,466,-7,362,91,0.158565,-0.45566,0,-1.5,9.38862e-38,0,0,0,0.085829,-0.0785017,-4.31641,-1.13672,0,0,0.235603,-0.105485,10400,0,0,0,0,0,0,0,0,0,1.5,0.157003
6754,0,0.532227,2.95801,-0.00463127,0.000753689,0.000476805,0.00808313,-0.0399339,-0.308727,-4.67862,-1.06638,0.377958,0.0896476,-0.0801888,0.240254,-0.105422,-0.308727,0,0,366,-9,366,-9,466,-7,362,91,0.159,-0.454301,0,-1.5,9.38862e-38,0,0,0,0.0896476,-0.0801888,-4.31641,-1.13672,0,0,0.240254,-0.105422,10400,0,0,0,0,0,0,0,0,0,1.5,0.160378
6770,0,0.532227,-4.55762,-0.00414792,0.000456154,0.000279829,0.00788391,-0.0399837,-0.308731,-4.67862,-1.06638,0.377958,0.0935402,-0.0818749,0.244871,-0.105371,-0.308731,0,0,366,-9,366,-9,466,-7,362,91,0.159442,-0.452948,0,-1.5,9.38862e-38,0,0,0,0.0935402,-0.0818749,-4.31641,-1.13672,0,0,0.244871,-0.105371,10400,0,0,0,0,0,0,0,0,0,1.5,0.16375
6787,0,0.532227,2.97559,-0.00413545,0.0011448,-0.000301017,0.00768848,-0.040025,-0.308724,-4.67927,-1.0655,0.377621,0.0977566,-0.0836658,0.249739,-0.105338,-0.308731,0,0,366,-9,366,-9,466,-7,362,91,0.159917,-0.451519,0,-1.5,9.38862e-38,0,0,0,0.0977566,-0.0836658,-4.31641,-1.13672,0,0,0.249739,-0.105338,10400,0,0,0,0,0,0,0,0,0,1.5,0.167332
6802,0,0.532227,-4.34277,-0.00405679,0.00225422,0.00077544,0.00757446,-0.0400515,-0.308719,-4.67927,-1.0655,0.377621,0.101544,-0.0852457,0.254001,-0.105325,-0.308724,0,0,366,-9,366,-9,466,-7,362,91,0.160341,-0.450266,0,-1.5,9.38862e-38,0,0,0,0.101544,-0.0852457,-4.31641,-1.13672,0,0,0.254001,-0.105325,10400,0,0,0,0,0,0,0,0,0,1.5,0.170491
6819,0,0.532227,-7.32715,-0.00425343,0.00185485,-0.000642846,0.0074808,-0.040076,-0.308727,-4.67927,-1.0655,0.377621,0.105915,-0.0870365,0.258794,-0.105347,-0.308727,0,0,366,-9,366,-9,466,-7,362,91,0.160836,-0.44885,0,-1.5,9.38862e-38,0,0,0,0.105915,-0.0870365,-4.31641,-1.13672,0,0,0.258794,-0.105347,10400,0,0,0,0,0,0,0,0,0,1.5,0.174073
6835,0,0.532227,7.23828,-0.003677,0.000589194,-0.0015109,0.00738078,-0.0401038,-0.308738,-4.67927,-1.0655,0.377621,0.110101,-0.0887224,0.26327,-0.105385,-0.308738,0,0,366,-9,366,-9,466,-7,362,91,0.161311,-0.447523,0,-1.5,9.38862e-38,0,0,0,0.110101,-0.0887224,-4.31641,-1.13672,0,0,0.26327,-0.105385,10400,0,0,0,0,0,0,0,0,0,1.5,0.177445
6851,0,0.532227,-2.95996,-0.00458433,0.00130846,-0.00106308,0.0072791,-0.0401258,-0.30875,-4.69181,-1.06723,0.380295,0.114359,-0.0904091,0.267713,-0.105441,-0.30875,0,0,366,-8,366,-8,466,-7,362,91,0.161794,-0.446202,0,-1.5,9.38862e-38,0,0,0,0.114359,-0.0904091,-4.31641,-1.13672,0,0,0.267713,-0.105441,10296,0,0,0,0,0,0,0,0,0,1.5,0.180818
6867,0,0.532227,4.02051,-0.00504979,0.000908159,-0.00065622,0.00717117,-0.0401492,-0.308758,-4.69181,-1.06723,0.380295,0.118415,-0.0919913,0.271848,-0.105509,-0.308758,0,0,366,-8,366,-8,466,-7,362,91,0.162252,-0.444971,0,-1.5,9.38862e-38,0,0,0,0.118415,-0.0919913,-4.31641,-1.13672,0,0,0.271848,-0.105509,10296,0,0,0,0,0,0,0,0,0,1.5,0.183983
6884,0.0205078,0.532227,-6.96875,-0.00452551,0.000511432,-0.00147745,0.0069666,-0.0402075,-0.30879,-4.69181,-1.06723,0.380295,0.123089,-0.093786,0.276501,-0.105603,-0.308774,0,0,366,-8,366,-8,466,-7,362,91,0.16278,-0.44358,0,-1.5,9.38862e-38,0,0,0,0.123089,-0.093786,-4.31641,-1.13672,0,0,0.276501,-0.105603,10296,0,0,0,0,0,0,0,0,0,1.5,0.187572
6898,0.0537109,0.532227,6.87207,-0.00405609,0.000423726,-7.94007e-05,0.00686702,-0.0402282,-0.308788,-4.69181,-1.06723,0.380295,0.127276,-0.095371,0.280574,-0.105704,-0.30879,0,0,366,-8,366,-8,466,-7,362,91,0.163254,-0.442359,0,-1.5,9.38862e-38,0,0,0,0.127276,-0.095371,-4.31641,-1.13672,0,0,0.280574,-0.105704,10296,0,0,0,0,0,0,0,0,0,1.5,0.190742
6920,0.0869141,0.532227,-6.81445,-0.00452913,0.00167455,-4.83375e-05,0.00676563,-0.0402409,-0.308793,-4.69181,-1.06723,0.380295,0.133539,-0.097699,0.286503,-0.105876,-0.308793,0,0,366,-8,366,-8,466,-7,362,91,0.163954,-0.440579,0,-1.5,9.38862e-38,0,0,0,0.133539,-0.097699,-4.31641,-1.13672,0,0,0.286503,-0.105876,10296,0,0,0,0,0,0,0,0,0,1.5,0.195398
6936,0.0869141,0.532227,-6.81445,-0.00452913,0.00167455,-4.83375e-05,0.00676563,-0.0402409,-0.308793,-4.69181,-1.06723,0.380295,0.138167,-0.0993945,0.290771,-0.106022,-0.308793,0,0,366,-8,366,-8,466,-7,362,91,0.164472,-0.439294,0,-1.5,9.38862e-38,0,0,0,0.138167,-0.0993945,-4.31641,-1.13672,0,0,0.290771,-0.106022,10296,0,0,0,0,0,0,0,0,0,1.5,0.198789
6951,0.15332,0.532227,4.58301,-0.00479387,-0.00129328,-0.000561694,0.0065506,-0.0403026,-0.308813,-4.69181,-1.06723,0.380295,0.142567,-0.100986,0.294744,-0.10617,-0.308813,0,0,366,-8,366,-8,466,-7,362,91,0.164969,-0.438092,0,-1.5,9.38862e-38,0,0,0,0.142567,-0.100986,-4.31641,-1.13672,0,0,0.294744,-0.10617,10296,0,0,0,0,0,0,0,0,0,1.5,0.201972
6968,0.152344,0.532227,-6.14453,-0.00477702,0.000171349,-0.000428213,0.00635098,-0.0403657,-0.308832,-4.69181,-1.06723,0.380295,0.147627,-0.102793,0.299214,-0.106365,-0.308824,0,0,366,-8,366,-8,466,-7,362,91,0.16554,-0.436736,0,-1.5,9.38862e-38,0,0,0,0.147627,-0.102793,-4.31641,-1.13672,0,0,0.299214,-0.106365,10296,0,0,0,0,0,0,0,0,0,1.5,0.205586
6983,0.0859375,0.532227,4.76172,-0.00433684,0.00156771,0.000149793,0.00624765,-0.0403847,-0.308837,-4.69181,-1.06723,0.380295,0.152153,-0.10439,0.30313,-0.106555,-0.308832,0,0,366,-8,366,-8,466,-7,362,91,0.16605,-0.435545,0,-1.5,9.38862e-38,0,0,0,0.152153,-0.10439,-4.31641,-1.13672,0,0,0.30313,-0.106555,10296,0,0,0,0,0,0,0,0,0,1.5,0.208781
6999,0.0195312,0.532227,2.07617,-0.00421359,0.00130078,-0.000614601,0.0061491,-0.0404142,-0.308845,-4.69181,-1.06723,0.380295,0.157047,-0.106098,0.307275,-0.106781,-0.308845,0,0,366,-8,366,-8,466,-7,362,91,0.166606,-0.434278,0,-1.5,9.38862e-38,0,0,0,0.157047,-0.106098,-4.31641,-1.13672,0,0,0.307275,-0.106781,10296,0,0,0,0,0,0,0,0,0,1.5,0.212195
7015,0,0.532227,6.35352,-0.0033261,0.000543814,-0.00130845,0.00605464,-0.0404389,-0.30886,-4.69181,-1.06723,0.380295,0.162006,-0.107809,0.311391,-0.107024,-0.30886,0,0,366,-8,366,-8,466,-7,362,91,0.16717,-0.433017,0,-1.5,9.38862e-38,0,0,0,0.162006,-0.107809,-4.31641,-1.13672,0,0,0.311391,-0.107024,10296,0,0,0,0,0,0,0,0,0,1.5,0.215617
7031,0,0.532227,-3.26074,-0.0029437,0.00141802,-0.000238393,0.00596135,-0.0404681,-0.308862,-4.69181,-1.06723,0.380295,0.167032,-0.109524,0.315476,-0.107283,-0.308862,0,0,366,-8,366,-8,466,-7,362,91,0.167738,-0.431763,0,-1.5,9.38862e-38,0,0,0,0.167032,-0.109524,-4.31641,-1.13672,0,0,0.315476,-0.107283,10296,0,0,0,0,0,0,0,0,0,1.5,0.219048
7047,0,0.532227,3.32617,-0.00332193,0.00063724,-0.00116157,0.00586962,-0.0404965,-0.308873,-4.69181,-1.06723,0.380295,0.172122,-0.111243,0.319532,-0.107555,-0.308873,0,0,366,-8,366,-8,466,-7,362,91,0.168317,-0.430514,0,-1.5,9.38862e-38,0,0,0,0.172122,-0.111243,-4.31641,-1.13672,0,0,0.319532,-0.107555,10296,0,0,0,0,0,0,0,0,0,1.5,0.222486
7063,0.0283203,0.532227,-4.39258,-0.00410231,-0.000507372,6.40488e-05,0.00567947,-0.0405552,-0.308883,-4.69181,-1.06723,0.380295,0.177276,-0.112967,0.323558,-0.10784,-0.30888,0,0,366,-8,366,-8,466,-7,362,91,0.168902,-0.42927,0,-1.5,9.38862e-38,0,0,0,0.177276,-0.112967,-4.31641,-1.13672,0,0,0.323558,-0.10784,10296,0,0,0,0,0,0,0,0,0,1.5,0.225934
7080,0.0283203,0.532227,-4.39258,-0.00410231,-0.000507372,6.40488e-05,0.00567947,-0.0405552,-0.308883,-4.69181,-1.06723,0.380295,0.182824,-0.114804,0.327804,-0.108159,-0.308883,0,0,366,-8,366,-8,466,-7,362,91,0.169531,-0.427955,0,-1.5,9.38862e-38,0,0,0,0.182824,-0.114804,-4.31641,-1.13672,0,0,0.327804,-0.108159,10296,0,0,0,0,0,0,0,0,0,1.5,0.229607
7095,0.0947266,0.532227,-0.626953,-0.00388599,0.000886747,8.38487e-06,0.00548882,-0.0406096,-0.308886,-4.69181,-1.06723,0.380295,0.187777,-0.116429,0.331523,-0.10845,-0.308886,0,0,366,-8,366,-8,466,-7,362,91,0.170092,-0.426799,0,-1.5,9.38862e-38,0,0,0,0.187777,-0.116429,-4.31641,-1.13672,0,0,0.331523,-0.10845,10296,0,0,0,0,0,0,0,0,0,1.5,0.232858
7111,0.12793,0.532227,4.19531,-0.00432771,0.000540088,-0.000889403,0.00538456,-0.0406375,-0.308899,-4.68164,-1.06036,0.37766,0.193123,-0.118168,0.335463,-0.10879,-0.308899,0,0,366,-9,366,-9,466,-7,362,91,0.170705,-0.425569,0,-1.5,9.38862e-38,0,0,0,0.193123,-0.118168,-4.31641,-1.13672,0,0,0.335463,-0.10879,10400,0,0,0,0,0,0,0,0,0,1.5,0.236335
7127,0.12793,0.532227,4.19531,-0.00432771,0.000540088,-0.000889403,0.00538456,-0.0406375,-0.308899,-4.68164,-1.06036,0.37766,0.198532,-0.119912,0.339373,-0.10914,-0.308899,0,0,366,-9,366,-9,466,-7,362,91,0.171322,-0.424346,0,-1.5,9.38862e-38,0,0,0,0.198532,-0.119912,-4.31641,-1.13672,0,0,0.339373,-0.10914,10400,0,0,0,0,0,0,0,0,0,1.5,0.239824
7143,0.15625,0.532227,6.94922,-0.0028965,0.00146041,-0.000141765,0.00518807,-0.0406623,-0.308906,-4.68164,-1.06036,0.37766,0.204002,-0.121662,0.343253,-0.109499,-0.308906,0,0,366,-9,366,-9,466,-7,362,91,0.171948,-0.423127,0,-1.5,9.38862e-38,0,0,0,0.204002,-0.121662,-4.31641,-1.13672,0,0,0.343253,-0.109499,10400,0,0,0,0,0,0,0,0,0,1.5,0.243324
7159,0.15625,0.532227,6.94922,-0.0028965,0.00146041,-0.000141765,0.00518807,-0.0406623,-0.308906,-4.68164,-1.06036,0.37766,0.209535,-0.123418,0.347101,-0.109874,-0.308906,0,0,366,-9,366,-9,466,-7,362,91,0.172581,-0.421915,0,-1.5,9.38862e-38,0,0,0,0.209535,-0.123418,-4.31641,-1.13672,0,0,0.347101,-0.109874,10400,0,0,0,0,0,0,0,0,0,1.5,0.246836
7175,0.0751953,0.532227,0.0791016,-0.00321211,0.000687879,0.000630292,0.00489916,-0.0407373,-0.308907,-4.68164,-1.06036,0.37766,0.215129,-0.12518,0.350922,-0.110259,-0.308913,0,0,366,-9,366,-9,466,-7,362,91,0.173224,-0.420707,0,-1.5,9.38862e-38,0,0,0,0.215129,-0.12518,-4.31641,-1.13672,0,0,0.350922,-0.110259,10400,0,0,0,0,0,0,0,0,0,1.5,0.25036
7191,0.0419922,0.532227,4.82715,-0.00391287,0.00155047,0.000429594,0.00480368,-0.0407549,-0.308898,-4.69402,-1.0623,0.380374,0.220783,-0.126948,0.354713,-0.110668,-0.308907,0,0,366,-8,366,-8,466,-7,362,91,0.173874,-0.419505,0,-1.5,9.38862e-38,0,0,0,0.220783,-0.126948,-4.31641,-1.13672,0,0,0.354713,-0.110668,10296,0,0,0,0,0,0,0,0,0,1.5,0.253896
7207,0.0234375,0.532227,-5.21875,-0.00386191,0.000826521,-0.000207239,0.00470223,-0.0407788,-0.308893,-4.69402,-1.0623,0.380374,0.226498,-0.128723,0.358475,-0.111099,-0.308893,0,0,366,-8,366,-8,466,-7,362,91,0.174533,-0.418309,0,-1.5,9.38862e-38,0,0,0,0.226498,-0.128723,-4.31641,-1.13672,0,0,0.358475,-0.111099,10296,0,0,0,0,0,0,0,0,0,1.5,0.257447
7223,0.0234375,0.532227,-5.21875,-0.00386191,0.000826521,-0.000207239,0.00470223,-0.0407788,-0.308893,-4.69402,-1.0623,0.380374,0.232273,-0.130506,0.362208,-0.111541,-0.308893,0,0,366,-8,366,-8,466,-7,362,91,0.175203,-0.417115,0,-1.5,9.38862e-38,0,0,0,0.232273,-0.130506,-4.31641,-1.13672,0,0,0.362208,-0.111541,10296,0,0,0,0,0,0,0,0,0,1.5,0.261011
7239,0.0234375,0.532227,0.0361328,-0.00401488,0.000877615,-0.00144714,0.00449866,-0.0408263,-0.308905,-4.69402,-1.0623,0.380374,0.238106,-0.132295,0.365914,-0.111993,-0.308905,0,0,366,-8,366,-8,466,-7,362,91,0.175885,-0.415924,0,-1.5,9.38862e-38,0,0,0,0.238106,-0.132295,-4.31641,-1.13672,0,0,0.365914,-0.111993,10296,0,0,0,0,0,0,0,0,0,1.5,0.26459
7255,0.0234375,0.532227,0.0361328,-0.00401488,0.000877615,-0.00144714,0.00449866,-0.0408263,-0.308905,-4.68231,-1.05866,0.377825,0.243998,-0.134092,0.36959,-0.112461,-0.308905,0,0,366,-9,366,-9,466,-7,362,91,0.176572,-0.41474,0,-1.5,9.38862e-38,0,0,0,0.243998,-0.134092,-4.31641,-1.13672,0,0,0.36959,-0.112461,10400,0,0,0,0,0,0,0,0,0,1.5,0.268183
7271,0.0234375,0.532227,3.75391,-0.00426481,0.000943778,-0.000118367,0.00421678,-0.0408969,-0.308909,-4.68231,-1.05866,0.377825,0.24995,-0.135896,0.373241,-0.112937,-0.308909,0,0,366,-9,366,-9,466,-7,362,91,0.177269,-0.413559,0,-1.5,9.38862e-38,0,0,0,0.24995,-0.135896,-4.31641,-1.13672,0,0,0.373241,-0.112937,10400,0,0,0,0,0,0,0,0,0,1.5,0.271792
7287,0.0234375,0.532227,3.75391,-0.00426481,0.000943778,-0.000118367,0.00421678,-0.0408969,-0.308909,-4.71908,-1.072,0.390815,0.255959,-0.137708,0.376863,-0.113437,-0.308909,0,0,368,-8,368,-8,466,-7,362,91,0.177975,-0.412383,0,-1.5,9.38862e-38,0,0,0,0.255959,-0.137708,-4.31641,-1.13672,0,0,0.376863,-0.113437,10296,0,0,0,0,0,0,0,0,0,1.5,0.275416
7302,0.0234375,0.532227,4.13574,-0.00418261,0.000883752,-0.00136015,0.00401499,-0.0409428,-0.308926,-4.71908,-1.072,0.390815,0.261645,-0.139414,0.380235,-0.113913,-0.308926,0,0,368,-8,368,-8,466,-7,362,91,0.178649,-0.411282,0,-1.5,9.38862e-38,0,0,0,0.261645,-0.139414,-4.31641,-1.13672,0,0,0.380235,-0.113913,10296,0,0,0,0,0,0,0,0,0,1.5,0.278828
7319,0.0234375,0.532227,-2.50586,-0.00435332,2.45828e-05,-0.000618216,0.00391256,-0.0409741,-0.308932,-6.1829,-7.02133,0.637834,0.26815,-0.141357,0.384026,-0.114483,-0.308932,0,0,756,46,756,46,822,16,760,110,0.179424,-0.410039,0,-1.5,9.38862e-38,0,0,0,0.26815,-0.141357,-4.31641,-1.13672,0,0,0.384026,-0.114483,7144,0,0,0,0,0,0,0,0,0,1.5,0.282714
7332,0.0234375,0.532227,-7.13867,-0.00364248,0.000154024,-0.00103533,0.00383249,-0.0410005,-0.308939,-6.1829,-7.02133,0.637834,0.273166,-0.142849,0.386904,-0.11493,-0.308939,0,0,756,46,756,46,822,16,760,110,0.180024,-0.409092,0,-1.5,9.38862e-38,0,0,0,0.273166,-0.142849,-4.31641,-1.13672,0,0,0.386904,-0.11493,7144,0,0,0,0,0,0,0,0,0,1.5,0.285697
7348,0.0234375,0.532227,-5.74707,-0.00377933,0.00156663,-0.000404621,0.00373373,-0.0410193,-0.308943,-6.1829,-7.02133,0.637834,0.279392,-0.144693,0.390423,-0.115492,-0.308943,0,0,756,46,756,46,822,16,760,110,0.180769,-0.40793,0,-1.5,9.38862e-38,0,0,0,0.279392,-0.144693,-4.31641,-1.13672,0,0,0.390423,-0.115492,7144,0,0,0,0,0,0,0,0,0,1.5,0.289386
7364,0.0234375,0.532227,-2.63184,-0.0115901,-0.000350361,-0.00485928,0.00358168,-0.0410551,-0.308979,-6.1829,-7.02133,0.637834,0.285674,-0.146547,0.393916,-0.116069,-0.308979,0,0,756,46,756,46,822,16,760,110,0.181533,-0.406766,0,-1.5,9.38862e-38,0,0,0,0.285674,-0.146547,-4.31641,-1.13672,0,0,0.393916,-0.116069,7144,0,0,0,0,0,0,0,0,0,1.5,0.293094
7380,0.0234375,0.532227,1.74902,-0.0282914,0.00201105,0.002439,0.00319793,-0.0410642,-0.308968,-6.1829,-7.02133,0.637834,0.292013,-0.14841,0.397376,-0.116678,-0.308968,0,0,756,46,756,46,822,16,760,110,0.1823,-0.405614,0,-1.5,9.38862e-38,0,0,0,0.292013,-0.14841,-4.31641,-1.13672,0,0,0.397376,-0.116678,7144,0,0,0,0,0,0,0,0,0,1.5,0.29682
7396,0.0234375,0.532227,4.05859,-0.0380311,0.000880595,0.000854691,0.00204098,-0.0411482,-0.30895,-6.1829,-7.02133,0.637834,0.298406,-0.150284,0.400793,-0.117357,-0.308976,0,0,756,46,756,46,822,16,760,110,0.183096,-0.404462,0,-1.5,9.38862e-38,0,0,0,0.298406,-0.150284,-4.31641,-1.13672,0,0,0.400793,-0.117357,7144,0,0,0,0,0,0,0,0,0,1.5,0.300568
7412,0.0234375,0.532227,2.62109,-0.0285581,-0.0018954,0.000415576,0.00158198,-0.0412038,-0.308941,-6.1829,-7.02133,0.637834,0.304855,-0.152169,0.404163,-0.118126,-0.30895,0,0,756,46,756,46,822,16,760,110,0.183915,-0.403319,0,-1.5,9.38862e-38,0,0,0,0.304855,-0.152169,-4.31641,-1.13672,0,0,0.404163,-0.118126,7144,0,0,0,0,0,0,0,0,0,1.5,0.304339
7429,0.0234375,0.532227,2.51172,-0.0145962,0.000508421,0.000943764,0.0013092,-0.0412309,-0.308923,-6.1829,-7.02133,0.637834,0.311764,-0.154188,0.407688,-0.119069,-0.308923,0,0,756,46,756,46,822,16,760,110,0.184827,-0.402106,0,-1.5,9.38862e-38,0,0,0,0.311764,-0.154188,-4.31641,-1.13672,0,0,0.407688,-0.119069,7144,0,0,0,0,0,0,0,0,0,1.5,0.308376
7445,0.0234375,0.532227,3.36719,-0.0060981,0.0010213,-0.000128709,0.0011624,-0.04125,-0.308921,-6.1829,-7.02133,0.637834,0.318322,-0.156103,0.410972,-0.11999,-0.308921,0,0,756,46,756,46,822,16,760,110,0.185708,-0.400963,0,-1.5,9.38862e-38,0,0,0,0.318322,-0.156103,-4.31641,-1.13672,0,0,0.410972,-0.11999,7144,0,0,0,0,0,0,0,0,0,1.5,0.312205
7462,0.0234375,0.532227,-1.94336,0.000438583,0.00123171,0.000177527,0.00112042,-0.0412717,-0.30892,-6.1829,-7.02133,0.637834,0.325346,-0.158153,0.414434,-0.12098,-0.30892,0,0,756,46,756,46,822,16,760,110,0.186658,-0.399752,0,-1.5,9.38862e-38,0,0,0,0.325346,-0.158153,-4.31641,-1.13672,0,0,0.414434,-0.12098,7144,0,0,0,0,0,0,0,0,0,1.5,0.316306
7478,0.0234375,0.532227,1.46094,-0.000174611,0.000903452,-0.000433355,0.00108843,-0.0412876,-0.308934,-6.1829,-7.02133,0.637834,0.331592,-0.159976,0.417466,-0.121853,-0.308934,0,0,756,46,756,46,822,16,760,110,0.187507,-0.398684,0,-1.5,9.38862e-38,0,0,0,0.331592,-0.159976,-4.31641,-1.13672,0,0,0.417466,-0.121853,7144,0,0,0,0,0,0,0,0,0,1.5,0.319953
7493,0.0234375,0.532227,3.55859,-0.00679213,0.000489056,0.000118192,0.000913164,-0.0413297,-0.308954,-6.1829,-7.02133,0.637834,0.338306,-0.161936,0.42068,-0.122781,-0.308934,0,0,756,46,756,46,822,16,760,110,0.188417,-0.39755,0,-1.5,9.38862e-38,0,0,0,0.338306,-0.161936,-4.31641,-1.13672,0,0,0.42068,-0.122781,7144,0,0,0,0,0,0,0,0,0,1.5,0.323872
7509,0.0234375,0.532227,3.69922,-0.00946524,0.00111616,-0.000361392,0.000752219,-0.0413504,-0.308962,-6.1829,-7.02133,0.637834,0.34507,-0.16391,0.423869,-0.12372,-0.308962,0,0,756,46,756,46,822,16,760,110,0.189345,-0.396414,0,-1.5,9.38862e-38,0,0,0,0.34507,-0.16391,-4.31641,-1.13672,0,0,0.423869,-0.12372,7144,0,0,0,0,0,0,0,0,0,1.5,0.32782
7525,0.0234375,0.532227,5.32617,-0.010067,0.00145359,-0.000868379,0.000575363,-0.0413652,-0.308959,-6.1829,-7.02133,0.637834,0.351885,-0.1659,0.427028,-0.124695,-0.308959,0,0,756,46,756,46,822,16,760,110,0.190284,-0.395285,0,-1.5,9.38862e-38,0,0,0,0.351885,-0.1659,-4.31641,-1.13672,0,0,0.427028,-0.124695,7144,0,0,0,0,0,0,0,0,0,1.5,0.3318
7541,0.0234375,0.532227,-6.69141,-0.00763535,0.000270118,-0.000586009,0.000427235,-0.0413951,-0.308968,-6.1829,-7.02133,0.637834,0.35875,-0.167905,0.430159,-0.125693,-0.308968,0,0,756,46,756,46,822,16,760,110,0.191241,-0.394157,0,-1.5,9.38862e-38,0,0,0,0.35875,-0.167905,-4.31641,-1.13672,0,0,0.430159,-0.125693,7144,0,0,0,0,0,0,0,0,0,1.5,0.335811
7557,0.0234375,0.532227,-6.69141,-0.00763535,0.000270118,-0.000586009,0.000427235,-0.0413951,-0.308968,-6.1829,-7.02133,0.637834,0.365666,-0.169927,0.433266,-0.126697,-0.308968,0,0,756,46,756,46,822,16,760,110,0.192207,-0.393033,0,-1.5,9.38862e-38,0,0,0,0.365666,-0.169927,-4.31641,-1.13672,0,0,0.433266,-0.126697,7144,0,0,0,0,0,0,0,0,0,1.5,0.339854
7573,0.0234375,0.532227,-7.06445,-0.00451898,9.86799e-05,0.000816628,0.000205453,-0.0414495,-0.308965,-6.1829,-7.02133,0.637834,0.37263,-0.171965,0.43635,-0.127708,-0.308965,0,0,756,46,756,46,822,16,760,110,0.193183,-0.391913,0,-1.5,9.38862e-38,0,0,0,0.37263,-0.171965,-4.31641,-1.13672,0,0,0.43635,-0.127708,7144,0,0,0,0,0,0,0,0,0,1.5,0.343929
7589,0.0566406,0.532227,3.86035,-0.00412094,0.000956477,-0.000408158,3.11549e-05,-0.0414848,-0.308974,-6.1829,-7.02133,0.637834,0.379644,-0.174019,0.43941,-0.128734,-0.308965,0,0,756,46,756,46,822,16,760,110,0.194173,-0.390794,0,-1.5,9.38862e-38,0,0,0,0.379644,-0.174019,-4.31641,-1.13672,0,0,0.43941,-0.128734,7144,0,0,0,0,0,0,0,0,0,1.5,0.348037
7605,0.0898438,0.532227,2.90625,-0.00521004,0.000858973,-0.000712313,-6.91724e-05,-0.0415094,-0.308979,-6.1829,-7.02133,0.637834,0.386706,-0.176089,0.442444,-0.129781,-0.308974,0,0,756,46,756,46,822,16,760,110,0.19518,-0.389675,0,-1.5,9.38862e-38,0,0,0,0.386706,-0.176089,-4.31641,-1.13672,0,0,0.442444,-0.129781,7144,0,0,0,0,0,0,0,0,0,1.5,0.352178
7621,0.0898438,0.532227,2.90625,-0.00521004,0.000858973,-0.000712313,-6.91724e-05,-0.0415094,-0.308979,-6.1829,-7.02133,0.637834,0.393816,-0.178176,0.445456,-0.130836,-0.308979,0,0,756,46,756,46,822,16,760,110,0.196197,-0.388559,0,-1.5,9.38862e-38,0,0,0,0.393816,-0.178176,-4.31641,-1.13672,0,0,0.445456,-0.130836,7144,0,0,0,0,0,0,0,0,0,1.5,0.356353
7636,0.15625,0.532227,-0.993164,-0.00493026,0.0012128,-0.00178466,-0.000277924,-0.041547,-0.309003,-6.1829,-7.02133,0.637834,0.400524,-0.180148,0.448259,-0.131826,-0.309003,0,0,756,46,756,46,822,16,760,110,0.197165,-0.387512,0,-1.5,9.38862e-38,0,0,0,0.400524,-0.180148,-4.31641,-1.13672,0,0,0.448259,-0.131826,7144,0,0,0,0,0,0,0,0,0,1.5,0.360297
7653,0.15625,0.532227,-0.993164,-0.00493026,0.0012128,-0.00178466,-0.000277924,-0.041547,-0.309003,-6.10072,-6.883,0.596625,0.40818,-0.182402,0.451409,-0.132966,-0.309003,0,0,751,49,751,49,822,18,761,116,0.19827,-0.386332,0,-1.5,9.38862e-38,0,0,0,0.40818,-0.182402,-4.31641,-1.13672,0,0,0.451409,-0.132966,7448,0,0,0,0,0,0,0,0,0,1.5,0.364804
7668,0.183594,0.532227,-1.49316,-0.00569346,0.00131466,0.00030814,-0.000527753,-0.0415814,-0.30899,-6.10072,-6.883,0.596625,0.414977,-0.184406,0.454165,-0.133982,-0.30899,0,0,751,49,751,49,822,18,761,116,0.199254,-0.385296,0,-1.5,9.38862e-38,0,0,0,0.414977,-0.184406,-4.31641,-1.13672,0,0,0.454165,-0.133982,7448,0,0,0,0,0,0,0,0,0,1.5,0.368812
7684,0.183594,0.532227,-2.47559,-0.00580391,0.000532313,-0.00118409,-0.000640991,-0.0416136,-0.309007,-6.10072,-6.883,0.596625,0.422274,-0.186561,0.457082,-0.135086,-0.309007,0,0,751,49,751,49,822,18,761,116,0.200325,-0.384187,0,-1.5,9.38862e-38,0,0,0,0.422274,-0.186561,-4.31641,-1.13672,0,0,0.457082,-0.135086,7448,0,0,0,0,0,0,0,0,0,1.5,0.373123
7700,0.0712891,0.499023,0.357422,-0.00490459,0.00101346,-0.00172171,-0.000832831,-0.0416564,-0.309034,-6.10072,-6.883,0.596625,0.429617,-0.188734,0.459976,-0.136198,-0.309016,0,0,751,49,751,49,822,18,761,116,0.201407,-0.38308,0,-1.5,9.38862e-38,0,0,0,0.429617,-0.188734,-4.31641,-1.13672,0,0,0.459976,-0.136198,7448,0,0,0,0,0,0,0,0,0,1.5,0.377468
7717,0.0175781,0.435547,5.42383,-0.0058478,0.00136503,-0.00086941,-0.000940319,-0.0416792,-0.309036,-6.14607,-6.96116,0.627631,0.43747,-0.191062,0.463028,-0.13739,-0.309034,0,0,756,48,756,48,822,18,761,116,0.202572,-0.381905,0,-1.5,9.38862e-38,0,0,0,0.43747,-0.191062,-4.31641,-1.13672,0,0,0.463028,-0.13739,7252,0,0,0,0,0,0,0,0,0,1.5,0.382125
7733,0.0175781,0.402344,-2.49902,-0.00421254,0.000672995,-0.000329569,-0.00104368,-0.041701,-0.309042,-6.14607,-6.96116,0.627631,0.444908,-0.193272,0.465875,-0.138533,-0.309042,0,0,756,48,756,48,822,18,761,116,0.203682,-0.380803,0,-1.5,9.38862e-38,0,0,0,0.444908,-0.193272,-4.31641,-1.13672,0,0,0.465875,-0.138533,7252,0,0,0,0,0,0,0,0,0,1.5,0.386545
7749,0.0654297,0.412109,-7.23828,-0.00477871,0.000788359,-0.00232096,-0.00114085,-0.041721,-0.309062,-6.14607,-6.96116,0.627631,0.452391,-0.195501,0.4687,-0.139686,-0.309062,0,0,756,48,756,48,822,18,761,116,0.204807,-0.379699,0,-1.5,9.38862e-38,0,0,0,0.452391,-0.195501,-4.31641,-1.13672,0,0,0.4687,-0.139686,7252,0,0,0,0,0,0,0,0,0,1.5,0.391002
7765,0.131836,0.445312,5.06152,-0.00420807,0.000714674,-0.000866389,-0.00124488,-0.0417541,-0.309071,-6.14607,-6.96116,0.627631,0.459919,-0.197748,0.471504,-0.140847,-0.309071,0,0,756,48,756,48,822,18,761,116,0.205942,-0.3786,0,-1.5,9.38862e-38,0,0,0,0.459919,-0.197748,-4.31641,-1.13672,0,0,0.471504,-0.140847,7252,0,0,0,0,0,0,0,0,0,1.5,0.395495
7781,0.15918,0.511719,-3.98438,-0.00531369,0.00132711,-0.00046757,-0.00144909,-0.04179,-0.309074,-5.95884,-6.74673,0.55007,0.467492,-0.200013,0.474287,-0.142016,-0.309067,0,0,751,50,751,50,827,17,761,118,0.207088,-0.377504,0,-1.5,9.38862e-38,0,0,0,0.467492,-0.200013,-4.31641,-1.13672,0,0,0.474287,-0.142016,7979,0,0,0,0,0,0,0,0,0,1.5,0.400027
7797,0.125977,0.544922,-3.25879,-0.00423792,0.0009883,-0.00133331,-0.0015516,-0.0418084,-0.309095,-5.95884,-6.74673,0.55007,0.47511,-0.202298,0.477048,-0.143195,-0.309074,0,0,751,50,751,50,827,17,761,118,0.208248,-0.376408,0,-1.5,9.38862e-38,0,0,0,0.47511,-0.202298,-4.31641,-1.13672,0,0,0.477048,-0.143195,7979,0,0,0,0,0,0,0,0,0,1.5,0.404596
7813,0.0927734,0.578125,2.03516,-0.0050614,0.000688426,0.00159678,-0.00164933,-0.041837,-0.309087,-5.95884,-6.74673,0.55007,0.482772,-0.204602,0.479785,-0.144391,-0.309087,0,0,751,50,751,50,827,17,761,118,0.209425,-0.375312,0,-1.5,9.38862e-38,0,0,0,0.482772,-0.204602,-4.31641,-1.13672,0,0,0.479785,-0.144391,7979,0,0,0,0,0,0,0,0,0,1.5,0.409204
7830,0.0595703,0.549805,-6.09375,-0.00414518,0.00129222,-5.83081e-05,-0.00174853,-0.0418545,-0.309085,-5.95884,-6.74673,0.55007,0.49096,-0.20707,0.482671,-0.145673,-0.309085,0,0,751,50,751,50,827,17,761,118,0.210686,-0.374153,0,-1.5,9.38862e-38,0,0,0,0.49096,-0.20707,-4.31641,-1.13672,0,0,0.482671,-0.145673,7979,0,0,0,0,0,0,0,0,0,1.5,0.414141
7845,0.0478516,0.516602,6.6377,-0.00484654,0.000755798,-0.000170804,-0.00184976,-0.0418777,-0.309088,-6.05532,-6.85763,0.59772,0.498224,-0.209267,0.485196,-0.146813,-0.309088,0,0,756,48,756,48,827,17,757,117,0.211812,-0.37313,0,-1.5,9.38862e-38,0,0,0,0.498224,-0.209267,-4.31641,-1.13672,0,0,0.485196,-0.146813,7400,0,0,0,0,0,0,0,0,0,1.5,0.418533
7860,0.0478516,0.516602,6.6377,-0.00484654,0.000755798,-0.000170804,-0.00184976,-0.0418777,-0.309088,-6.05532,-6.85763,0.59772,0.505526,-0.21148,0.487704,-0.147953,-0.309088,0,0,756,48,756,48,827,17,757,117,0.212947,-0.372109,0,-1.5,9.38862e-38,0,0,0,0.505526,-0.21148,-4.31641,-1.13672,0,0,0.487704,-0.147953,7400,0,0,0,0,0,0,0,0,0,1.5,0.42296
7877,0.0478516,0.450195,6.69336,-0.00555117,0.000848737,-0.000773549,-0.00206117,-0.0419244,-0.30911,-6.05532,-6.85763,0.59772,0.513849,-0.21401,0.490526,-0.14925,-0.30911,0,0,756,48,756,48,827,17,757,117,0.214251,-0.370949,0,-1.5,9.38862e-38,0,0,0,0.513849,-0.21401,-4.31641,-1.13672,0,0,0.490526,-0.14925,7400,0,0,0,0,0,0,0,0,0,1.5,0.428019
7893,0.0478516,0.457031,1.61523,-0.00395303,0.00105886,-0.0014273,-0.00225658,-0.0419662,-0.309137,-6.05532,-6.85763,0.59772,0.521725,-0.21641,0.493159,-0.150483,-0.30911,0,0,756,48,756,48,827,17,757,117,0.215487,-0.369863,0,-1.5,9.38862e-38,0,0,0,0.521725,-0.21641,-4.31641,-1.13672,0,0,0.493159,-0.150483,7400,0,0,0,0,0,0,0,0,0,1.5,0.43282
7909,0.0478516,0.490234,-3.92676,-0.00480233,-0.000106529,-0.00117901,-0.00235949,-0.0419854,-0.309152,-6.05532,-6.85763,0.59772,0.529643,-0.218831,0.49577,-0.151739,-0.309137,0,0,756,48,756,48,827,17,757,117,0.216746,-0.368771,0,-1.5,9.38862e-38,0,0,0,0.529643,-0.218831,-4.31641,-1.13672,0,0,0.49577,-0.151739,7400,0,0,0,0,0,0,0,0,0,1.5,0.437662
7925,0.0478516,0.523438,6.06738,-0.00535113,-0.0007639,-1.71275e-05,-0.00247376,-0.0420216,-0.309153,-6.04503,-6.85956,0.593209,0.537602,-0.221272,0.498361,-0.153006,-0.309153,0,0,758,48,758,48,827,17,759,118,0.218017,-0.367683,0,-1.5,9.38862e-38,0,0,0,0.537602,-0.221272,-4.31641,-1.13672,0,0,0.498361,-0.153006,7272,0,0,0,0,0,0,0,0,0,1.5,0.442545
7941,0.0478516,0.556641,1.96973,-0.00613039,0.000460699,6.82991e-05,-0.00258855,-0.0420483,-0.309156,-6.04503,-6.85956,0.593209,0.545602,-0.223733,0.500932,-0.154283,-0.309156,0,0,758,48,758,48,827,17,759,118,0.219298,-0.366599,0,-1.5,9.38862e-38,0,0,0,0.545602,-0.223733,-4.31641,-1.13672,0,0,0.500932,-0.154283,7272,0,0,0,0,0,0,0,0,0,1.5,0.447467
7957,0.0478516,0.556641,1.96973,-0.00613039,0.000460699,6.82991e-05,-0.00258855,-0.0420483,-0.309156,-6.04503,-6.85956,0.593209,0.553644,-0.226215,0.503484,-0.155565,-0.309156,0,0,758,48,758,48,827,17,759,118,0.220592,-0.365516,0,-1.5,9.38862e-38,0,0,0,0.553644,-0.226215,-4.31641,-1.13672,0,0,0.503484,-0.155565,7272,0,0,0,0,0,0,0,0,0,1.5,0.452431
7973,0.0478516,0.557617,-5.36133,-0.00442204,0.000656633,-0.00107206,-0.00278416,-0.0420891,-0.309172,-6.04503,-6.85956,0.593209,0.561726,-0.228718,0.506017,-0.156849,-0.309172,0,0,758,48,758,48,827,17,759,118,0.2219,-0.364431,0,-1.5,9.38862e-38,0,0,0,0.561726,-0.228718,-4.31641,-1.13672,0,0,0.506017,-0.156849,7272,0,0,0,0,0,0,0,0,0,1.5,0.457436
7989,0.0478516,0.491211,4.45312,-0.00513295,0.000110015,-0.000477046,-0.002994,-0.042139,-0.309176,-6.01908,-6.83643,0.586319,0.569848,-0.231241,0.508528,-0.158144,-0.309172,0,0,756,48,756,48,827,17,763,118,0.223218,-0.363351,0,-1.5,9.38862e-38,0,0,0,0.569848,-0.231241,-4.31641,-1.13672,0,0,0.508528,-0.158144,7474,0,0,0,0,0,0,0,0,0,1.5,0.462481
8004,0.0478516,0.458008,0.09375,-0.00493267,0.000858929,-0.000481558,-0.00309281,-0.042163,-0.309179,-6.01908,-6.83643,0.586319,0.577499,-0.233625,0.510866,-0.159366,-0.309176,0,0,756,48,756,48,827,17,763,118,0.224468,-0.362337,0,-1.5,9.38862e-38,0,0,0,0.577499,-0.233625,-4.31641,-1.13672,0,0,0.510866,-0.159366,7474,0,0,0,0,0,0,0,0,0,1.5,0.467249
8021,0.0478516,0.458008,0.09375,-0.00493267,0.000858929,-0.000481558,-0.00309281,-0.042163,-0.309179,-5.95714,-6.73161,0.558051,0.586213,-0.23635,0.513494,-0.160775,-0.309179,0,0,751,50,751,50,827,17,759,118,0.225902,-0.361189,0,-1.5,9.38862e-38,0,0,0,0.586213,-0.23635,-4.31641,-1.13672,0,0,0.513494,-0.160775,7979,0,0,0,0,0,0,0,0,0,1.5,0.4727
8036,0.0595703,0.424805,-2.23633,-0.00421128,0.00160788,-0.000119498,-0.00328951,-0.0421986,-0.309186,-5.95714,-6.73161,0.558051,0.593937,-0.238773,0.515794,-0.162016,-0.309186,0,0,751,50,751,50,827,17,759,118,0.227178,-0.360176,0,-1.5,9.38862e-38,0,0,0,0.593937,-0.238773,-4.31641,-1.13672,0,0,0.515794,-0.162016,7979,0,0,0,0,0,0,0,0,0,1.5,0.477546
8051,0.0595703,0.424805,-2.23633,-0.00421128,0.00160788,-0.000119498,-0.00328951,-0.0421986,-0.309186,-5.98877,-6.79257,0.57521,0.601696,-0.241216,0.518076,-0.163271,-0.309186,0,0,751,50,751,50,827,17,766,117,0.228467,-0.359166,0,-1.5,9.38862e-38,0,0,0,0.601696,-0.241216,-4.31641,-1.13672,0,0,0.518076,-0.163271,7900,0,0,0,0,0,0,0,0,0,1.5,0.482431
8067,0.125977,0.424805,5.41504,-0.00442296,0.000862993,-0.000542625,-0.00341797,-0.0419922,-0.309082,-5.98877,-6.79257,0.57521,0.610011,-0.243842,0.52048,-0.164604,-0.309082,0,0,751,50,751,50,827,17,766,117,0.229833,-0.358116,0,-1.5,9.38862e-38,0,0,0,0.610011,-0.243842,-4.31641,-1.13672,0,0,0.52048,-0.164604,7900,0,0,0,0,0,0,0,0,0,1.5,0.487684
8084,0.15918,0.424805,-0.871094,-0.00465308,0.000424721,-0.000557047,-0.00360547,-0.0422697,-0.309215,-5.98877,-6.79257,0.57521,0.618364,-0.24649,0.522856,-0.165948,-0.309215,0,0,751,50,751,50,827,17,766,117,0.231258,-0.357015,0,-1.5,9.38862e-38,0,0,0,0.618364,-0.24649,-4.31641,-1.13672,0,0,0.522856,-0.165948,7900,0,0,0,0,0,0,0,0,0,1.5,0.492979
8100,0.167969,0.433594,1.50195,-0.00434721,0.0019596,-0.00186623,-0.00377706,-0.0423045,-0.309244,-5.98877,-6.79257,0.57521,0.626754,-0.249159,0.525235,-0.167314,-0.309229,0,0,751,50,751,50,827,17,766,117,0.232676,-0.355935,0,-1.5,9.38862e-38,0,0,0,0.626754,-0.249159,-4.31641,-1.13672,0,0,0.525235,-0.167314,7900,0,0,0,0,0,0,0,0,0,1.5,0.498318
8116,0.167969,0.433594,1.50195,-0.00434721,0.0019596,-0.00186623,-0.00377706,-0.0423045,-0.309244,-5.98877,-6.79257,0.57521,0.635712,-0.25202,0.527742,-0.168771,-0.309244,0,0,751,50,751,50,827,17,766,117,0.234198,-0.354788,0,-1.5,9.38862e-38,0,0,0,0.635712,-0.25202,-4.31641,-1.13672,0,0,0.527742,-0.168771,7900,0,0,0,0,0,0,0,0,0,1.5,0.50404
8132,0.101562,0.5,-7.29102,-0.00370071,0.00108914,-0.00113791,-0.00395635,-0.042355,-0.30927,-5.98877,-6.79257,0.57521,0.644179,-0.254734,0.530082,-0.170144,-0.30927,0,0,751,50,751,50,827,17,766,117,0.235644,-0.353708,0,-1.5,9.38862e-38,0,0,0,0.644179,-0.254734,-4.31641,-1.13672,0,0,0.530082,-0.170144,7900,0,0,0,0,0,0,0,0,0,1.5,0.509468
8148,0.0683594,0.533203,-5.10352,-0.0052468,0.000747266,0.0005025,-0.00404817,-0.0423732,-0.309263,-5.98877,-6.79257,0.57521,0.652685,-0.257471,0.532405,-0.171535,-0.309263,0,0,751,50,751,50,827,17,766,117,0.237101,-0.352634,0,-1.5,9.38862e-38,0,0,0,0.652685,-0.257471,-4.31641,-1.13672,0,0,0.532405,-0.171535,7900,0,0,0,0,0,0,0,0,0,1.5,0.514942
8164,0.0351562,0.566406,-0.740234,-0.0061108,0.000823816,-0.000158119,-0.00415418,-0.042396,-0.309261,-5.98877,-6.79257,0.57521,0.661228,-0.26023,0.534709,-0.172933,-0.309261,0,0,751,50,751,50,827,17,766,117,0.238572,-0.351559,0,-1.5,9.38862e-38,0,0,0,0.661228,-0.26023,-4.31641,-1.13672,0,0,0.534709,-0.172933,7900,0,0,0,0,0,0,0,0,0,1.5,0.520461
8180,0.0166016,0.584961,-5.88086,-0.00579104,0.00233307,-0.00081243,-0.00426772,-0.0424021,-0.309263,-5.9882,-6.77028,0.575335,0.669807,-0.263012,0.536993,-0.174339,-0.309263,0,0,753,50,753,50,827,17,759,118,0.240059,-0.350484,0,-1.5,9.38862e-38,0,0,0,0.669807,-0.263012,-4.31641,-1.13672,0,0,0.536993,-0.174339,7777,0,0,0,0,0,0,0,0,0,1.5,0.526024
8196,0.0830078,0.584961,4.2627,-0.00364367,0.00157492,-0.000250675,-0.00445483,-0.0424445,-0.309268,-5.9882,-6.77028,0.575335,0.678422,-0.265816,0.539259,-0.175744,-0.309263,0,0,753,50,753,50,827,17,759,118,0.241556,-0.349411,0,-1.5,9.38862e-38,0,0,0,0.678422,-0.265816,-4.31641,-1.13672,0,0,0.539259,-0.175744,7777,0,0,0,0,0,0,0,0,0,1.5,0.531632
8213,0.116211,0.574219,5.96875,-0.00354759,0.000109421,0.000101417,-0.00453647,-0.0424682,-0.309273,-6.0915,-6.91329,0.610117,0.687616,-0.26882,0.541646,-0.177244,-0.309268,0,0,760,51,760,51,827,17,759,118,0.243163,-0.34827,0,-1.5,9.38862e-38,0,0,0,0.687616,-0.26882,-4.31641,-1.13672,0,0,0.541646,-0.177244,7171,0,0,0,0,0,0,0,0,0,1.5,0.53764
8228,0.129883,0.541016,-5.96875,-0.00326458,0.000162512,-0.000421842,-0.00460663,-0.0425005,-0.309287,-6.0915,-6.91329,0.610117,0.69576,-0.271491,0.543736,-0.178585,-0.309287,0,0,760,51,760,51,827,17,759,118,0.244599,-0.347259,0,-1.5,9.38862e-38,0,0,0,0.69576,-0.271491,-4.31641,-1.13672,0,0,0.543736,-0.178585,7171,0,0,0,0,0,0,0,0,0,1.5,0.542982
8243,0.129883,0.507812,1.86035,-0.00508148,0.00164795,-0.000936967,-0.00470592,-0.0425139,-0.309299,-6.0915,-6.91329,0.610117,0.703936,-0.274183,0.545813,-0.17993,-0.309299,0,0,760,51,760,51,827,17,759,118,0.246046,-0.34625,0,-1.5,9.38862e-38,0,0,0,0.703936,-0.274183,-4.31641,-1.13672,0,0,0.545813,-0.17993,7171,0,0,0,0,0,0,0,0,0,1.5,0.548366
8259,0.129883,0.507812,1.86035,-0.00508148,0.00164795,-0.000936967,-0.00470592,-0.0425139,-0.309299,-6.09125,-6.91178,0.61165,0.712693,-0.277077,0.548011,-0.181367,-0.309299,0,0,760,51,760,51,827,17,759,118,0.247599,-0.345177,0,-1.5,9.38862e-38,0,0,0,0.712693,-0.277077,-4.31641,-1.13672,0,0,0.548011,-0.181367,7171,0,0,0,0,0,0,0,0,0,1.5,0.554154
8276,0.129883,0.441406,1.05371,-0.00476128,0.00108587,-0.00104073,-0.00489861,-0.042554,-0.309312,-6.09125,-6.91178,0.61165,0.721484,-0.279994,0.550192,-0.182805,-0.309312,0,0,760,51,760,51,827,17,759,118,0.249167,-0.344101,0,-1.5,9.38862e-38,0,0,0,0.721484,-0.279994,-4.31641,-1.13672,0,0,0.550192,-0.182805,7171,0,0,0,0,0,0,0,0,0,1.5,0.559988
8291,0.129883,0.441406,1.05371,-0.00476128,0.00108587,-0.00104073,-0.00489861,-0.042554,-0.309312,-6.01016,-6.79369,0.572091,0.73031,-0.282934,0.552355,-0.184252,-0.309312,0,0,753,54,753,54,827,17,759,118,0.250747,-0.343028,0,-1.5,9.38862e-38,0,0,0,0.73031,-0.282934,-4.31641,-1.13672,0,0,0.552355,-0.184252,7777,0,0,0,0,0,0,0,0,0,1.5,0.565868
8307,0.129883,0.487305,6.47852,-0.00434091,0.0011197,-0.000709111,-0.00517792,-0.0426313,-0.309326,-6.01016,-6.79369,0.572091,0.73917,-0.285897,0.554502,-0.185699,-0.309326,0,0,753,54,753,54,827,17,759,118,0.252342,-0.341952,0,-1.5,9.38862e-38,0,0,0,0.73917,-0.285897,-4.31641,-1.13672,0,0,0.554502,-0.185699,7777,0,0,0,0,0,0,0,0,0,1.5,0.571794
8323,0.129883,0.520508,-5.47656,-0.00575406,0.000585492,-0.00130858,-0.00527094,-0.0426567,-0.309342,-6.00741,-6.77955,0.572661,0.748064,-0.288884,0.556634,-0.187163,-0.309326,0,0,753,54,753,54,824,17,759,118,0.253951,-0.340878,0,-1.5,9.38862e-38,0,0,0,0.748064,-0.288884,-4.31641,-1.13672,0,0,0.556634,-0.187163,7777,0,0,0,0,0,0,0,0,0,1.5,0.577767
8340,0.129883,0.549805,3.36523,-0.00406156,0.00172582,-0.000292544,-0.00534904,-0.0426649,-0.309359,-6.00741,-6.77955,0.572661,0.757552,-0.292083,0.558879,-0.188733,-0.309359,0,0,753,54,753,54,824,17,759,118,0.255683,-0.339729,0,-1.5,9.38862e-38,0,0,0,0.757552,-0.292083,-4.31641,-1.13672,0,0,0.558879,-0.188733,7777,0,0,0,0,0,0,0,0,0,1.5,0.584165
8356,0.129883,0.549805,3.36523,-0.00406156,0.00172582,-0.000292544,-0.00534904,-0.0426649,-0.309359,-6.03481,-6.79834,0.592963,0.766515,-0.295118,0.560975,-0.190209,-0.309359,0,0,751,50,751,50,821,19,761,118,0.25732,-0.338655,0,-1.5,9.38862e-38,0,0,0,0.766515,-0.295118,-4.31641,-1.13672,0,0,0.560975,-0.190209,7821,0,0,0,0,0,0,0,0,0,1.5,0.590235
8372,0.129883,0.549805,-4.56543,-0.00410237,0.0010596,-0.00124142,-0.00552168,-0.0427008,-0.309378,-6.03481,-6.79834,0.592963,0.774949,-0.297984,0.562924,-0.191595,-0.309378,0,0,751,50,751,50,821,19,761,118,0.25887,-0.337644,0,-1.5,9.38862e-38,0,0,0,0.774949,-0.297984,-4.31641,-1.13672,0,0,0.562924,-0.191595,7821,0,0,0,0,0,0,0,0,0,1.5,0.595968
8387,0.129883,0.549805,-4.56543,-0.00410237,0.0010596,-0.00124142,-0.00552168,-0.0427008,-0.309378,-6.00948,-6.79074,0.575115,0.783977,-0.301065,0.564988,-0.193079,-0.309378,0,0,753,54,753,54,827,17,759,118,0.260534,-0.336571,0,-1.5,9.38862e-38,0,0,0,0.783977,-0.301065,-4.31641,-1.13672,0,0,0.564988,-0.193079,7777,0,0,0,0,0,0,0,0,0,1.5,0.60213
8404,0.129883,0.549805,4.33887,-0.00293974,1.66724e-06,-0.00059913,-0.00576611,-0.0427721,-0.309399,-6.00948,-6.79074,0.575115,0.793606,-0.304365,0.567163,-0.194655,-0.309388,0,0,753,54,753,54,827,17,759,118,0.262316,-0.335428,0,-1.5,9.38862e-38,0,0,0,0.793606,-0.304365,-4.31641,-1.13672,0,0,0.567163,-0.194655,7777,0,0,0,0,0,0,0,0,0,1.5,0.608729
8419,0.129883,0.549805,4.33887,-0.00293974,1.66724e-06,-0.00059913,-0.00576611,-0.0427721,-0.309399,-6.0364,-6.79186,0.594491,0.802132,-0.307298,0.569068,-0.196058,-0.309399,0,0,751,50,751,50,821,19,759,118,0.263904,-0.334418,0,-1.5,9.38862e-38,0,0,0,0.802132,-0.307298,-4.31641,-1.13672,0,0,0.569068,-0.196058,7821,0,0,0,0,0,0,0,0,0,1.5,0.614596
8435,0.129883,0.549805,0.611328,-0.00407673,0.00145348,-0.00133302,-0.00594388,-0.042806,-0.309411,-6.0364,-6.79186,0.594491,0.811258,-0.31045,0.571086,-0.197553,-0.309411,0,0,751,50,751,50,821,19,759,118,0.26561,-0.333341,0,-1.5,9.38862e-38,0,0,0,0.811258,-0.31045,-4.31641,-1.13672,0,0,0.571086,-0.197553,7821,0,0,0,0,0,0,0,0,0,1.5,0.620901
8451,0.129883,0.549805,0.611328,-0.00407673,0.00145348,-0.00133302,-0.00594388,-0.042806,-0.309411,-5.98537,-6.75123,0.583016,0.820416,-0.313627,0.573087,-0.199063,-0.309411,0,0,753,50,753,50,824,17,759,118,0.26733,-0.332266,0,-1.5,9.38862e-38,0,0,0,0.820416,-0.313627,-4.31641,-1.13672,0,0,0.573087,-0.199063,7777,0,0,0,0,0,0,0,0,0,1.5,0.627254
8467,0.129883,0.549805,2.69922,-0.0044089,0.00074917,3.01717e-05,-0.00612908,-0.0428691,-0.309424,-5.98537,-6.75123,0.583016,0.829606,-0.316828,0.575073,-0.200573,-0.309424,0,0,753,50,753,50,824,17,759,118,0.269065,-0.331187,0,-1.5,9.38862e-38,0,0,0,0.829606,-0.316828,-4.31641,-1.13672,0,0,0.575073,-0.200573,7777,0,0,0,0,0,0,0,0,0,1.5,0.633656
8484,0.129883,0.549805,2.2666,-0.0049381,0.000738,-0.000934921,-0.00621498,-0.042895,-0.30944,-5.98537,-6.75123,0.583016,0.838828,-0.320053,0.577045,-0.202097,-0.30944,0,0,753,50,753,50,824,17,759,118,0.270816,-0.330106,0,-1.5,9.38862e-38,0,0,0,0.838828,-0.320053,-4.31641,-1.13672,0,0,0.577045,-0.202097,7777,0,0,0,0,0,0,0,0,0,1.5,0.640106
8500,0.129883,0.549805,-2.96289,-0.00436924,0.00112591,-0.000284289,-0.00634766,-0.0427246,-0.309326,-5.98537,-6.75123,0.583016,0.848661,-0.323506,0.579125,-0.20372,-0.309448,0,0,753,50,753,50,824,17,759,118,0.27269,-0.328959,0,-1.5,9.38862e-38,0,0,0,0.848661,-0.323506,-4.31641,-1.13672,0,0,0.579125,-0.20372,7777,0,0,0,0,0,0,0,0,0,1.5,0.647013
8516,0.129883,0.549805,-2.96289,-0.00436924,0.00112591,-0.000284289,-0.00634766,-0.0427246,-0.309326,-5.98537,-6.75123,0.583016,0.857947,-0.326782,0.581053,-0.205242,-0.309326,0,0,753,50,753,50,824,17,759,118,0.274447,-0.327919,0,-1.5,9.38862e-38,0,0,0,0.857947,-0.326782,-4.31641,-1.13672,0,0,0.581053,-0.205242,7777,0,0,0,0,0,0,0,0,0,1.5,0.653564
8532,0.129883,0.549805,2.0625,-0.00469763,-0.000354495,-0.000931587,-0.00657127,-0.0429928,-0.309463,-5.98537,-6.75123,0.583016,0.867263,-0.330081,0.582954,-0.206758,-0.309463,0,0,753,50,753,50,824,17,759,118,0.276256,-0.326811,0,-1.5,9.38862e-38,0,0,0,0.867263,-0.330081,-4.31641,-1.13672,0,0,0.582954,-0.206758,7777,0,0,0,0,0,0,0,0,0,1.5,0.660162
8548,0.129883,0.549805,1.10352,-0.00471251,0.000669485,4.12249e-05,-0.00666149,-0.0430181,-0.309463,-5.98537,-6.75123,0.583016,0.876611,-0.333406,0.584867,-0.208308,-0.309463,0,0,753,50,753,50,824,17,759,118,0.278062,-0.325731,0,-1.5,9.38862e-38,0,0,0,0.876611,-0.333406,-4.31641,-1.13672,0,0,0.584867,-0.208308,7777,0,0,0,0,0,0,0,0,0,1.5,0.666811
8564,0.129883,0.549805,2.30469,-0.0046899,0.00149773,-0.00112443,-0.00675262,-0.0430367,-0.309473,-5.98537,-6.75123,0.583016,0.885988,-0.336754,0.586765,-0.209864,-0.309473,0,0,753,50,753,50,824,17,759,118,0.279885,-0.324648,0,-1.5,9.38862e-38,0,0,0,0.885988,-0.336754,-4.31641,-1.13672,0,0,0.586765,-0.209864,7777,0,0,0,0,0,0,0,0,0,1.5,0.673509
8580,0.129883,0.549805,6.58203,-0.00553204,0.00184699,-0.000908022,-0.00684904,-0.043051,-0.309487,-5.98537,-6.75123,0.583016,0.895396,-0.340128,0.588648,-0.211424,-0.309487,0,0,753,50,753,50,824,17,759,118,0.281722,-0.323563,0,-1.5,9.38862e-38,0,0,0,0.895396,-0.340128,-4.31641,-1.13672,0,0,0.588648,-0.211424,7777,0,0,0,0,0,0,0,0,0,1.5,0.680256
8596,0.129883,0.549805,0.112305,-0.00364203,0.000598382,-0.0010619,-0.00702516,-0.0430923,-0.309499,-5.98537,-6.75123,0.583016,0.904834,-0.343527,0.590515,-0.212986,-0.309489,0,0,753,50,753,50,824,17,759,118,0.283571,-0.322481,0,-1.5,9.38862e-38,0,0,0,0.904834,-0.343527,-4.31641,-1.13672,0,0,0.590515,-0.212986,7777,0,0,0,0,0,0,0,0,0,1.5,0.687054
8612,0.129883,0.549805,0.112305,-0.00364203,0.000598382,-0.0010619,-0.00702516,-0.0430923,-0.309499,-4.74005,-1.05248,0.399112,0.914301,-0.346951,0.592367,-0.214554,-0.309499,0,0,369,-8,369,-8,466,-7,362,91,0.285435,-0.321397,0,-1.5,9.38862e-38,0,0,0,0.914301,-0.346951,-4.31641,-1.13672,0,0,0.592367,-0.214554,10296,0,0,0,0,0,0,0,0,0,1.5,0.693902
8628,0.129883,0.549805,-3.85352,-0.00459323,0.000943958,-0.000622511,-0.00719784,-0.0431234,-0.309507,-4.74005,-1.05248,0.399112,0.923203,-0.350183,0.59409,-0.216022,-0.309507,0,0,369,-8,369,-8,466,-7,362,91,0.287194,-0.32038,0,-1.5,9.38862e-38,0,0,0,0.923203,-0.350183,-4.31641,-1.13672,0,0,0.59409,-0.216022,10296,0,0,0,0,0,0,0,0,0,1.5,0.700367
8644,0.129883,0.549805,5.16504,-0.00358457,0.000402563,-0.000276004,-0.00728513,-0.0431448,-0.309512,-4.74005,-1.05248,0.399112,0.933325,-0.353875,0.596027,-0.217704,-0.309512,0,0,369,-8,369,-8,466,-7,362,91,0.289206,-0.319227,0,-1.5,9.38862e-38,0,0,0,0.933325,-0.353875,-4.31641,-1.13672,0,0,0.596027,-0.217704,10296,0,0,0,0,0,0,0,0,0,1.5,0.70775
8660,0.129883,0.549805,5.16504,-0.00358457,0.000402563,-0.000276004,-0.00728513,-0.0431448,-0.309512,-6.09537,-6.87437,0.621912,0.942879,-0.357374,0.597834,-0.219286,-0.309512,0,0,751,54,751,54,822,18,764,116,0.291111,-0.318143,0,-1.5,9.38862e-38,0,0,0,0.942879,-0.357374,-4.31641,-1.13672,0,0,0.597834,-0.219286,7742,0,0,0,0,0,0,0,0,0,1.5,0.714749
8676,0.129883,0.549805,-1.90137,-0.00587743,0.000911471,-0.000838815,-0.00748131,-0.0432037,-0.309535,-6.09537,-6.87437,0.621912,0.952463,-0.360899,0.599628,-0.22087,-0.309535,0,0,751,54,751,54,822,18,764,116,0.293034,-0.317052,0,-1.5,9.38862e-38,0,0,0,0.952463,-0.360899,-4.31641,-1.13672,0,0,0.599628,-0.22087,7742,0,0,0,0,0,0,0,0,0,1.5,0.721798
8692,0.129883,0.549805,-1.90137,-0.00587743,0.000911471,-0.000838815,-0.00748131,-0.0432037,-0.309535,-6.09537,-6.87437,0.621912,0.962075,-0.364449,0.601409,-0.222461,-0.309535,0,0,751,54,751,54,822,18,764,116,0.294968,-0.315966,0,-1.5,9.38862e-38,0,0,0,0.962075,-0.364449,-4.31641,-1.13672,0,0,0.601409,-0.222461,7742,0,0,0,0,0,0,0,0,0,1.5,0.728898
8708,0.129883,0.549805,5.19824,-0.00441146,0.000356359,-0.000143481,-0.00773694,-0.0432746,-0.309549,-6.09537,-6.87437,0.621912,0.971716,-0.368025,0.603178,-0.224051,-0.309554,0,0,751,54,751,54,822,18,764,116,0.296918,-0.314874,0,-1.5,9.38862e-38,0,0,0,0.971716,-0.368025,-4.31641,-1.13672,0,0,0.603178,-0.224051,7742,0,0,0,0,0,0,0,0,0,1.5,0.73605
8724,0.129883,0.549805,-1.99219,-0.00481698,0.000317571,-0.000467441,-0.00783625,-0.0433073,-0.309549,-4.68939,-1.05138,0.371279,0.981385,-0.371626,0.604932,-0.225655,-0.309549,0,0,370,-8,370,-8,469,-7,362,91,0.29888,-0.313787,0,-1.5,9.38862e-38,0,0,0,0.981385,-0.371626,-4.31641,-1.13672,0,0,0.604932,-0.225655,10807,0,0,0,0,0,0,0,0,0,1.5,0.743253
8740,0.129883,0.549805,-6.73633,-0.0042318,0.000194162,-0.00118751,-0.00792496,-0.0433354,-0.309563,-4.68939,-1.05138,0.371279,0.991082,-0.375253,0.606673,-0.227272,-0.309563,0,0,370,-8,370,-8,469,-7,362,91,0.300862,-0.312692,0,-1.5,9.38862e-38,0,0,0,0.991082,-0.375253,-4.31641,-1.13672,0,0,0.606673,-0.227272,10807,0,0,0,0,0,0,0,0,0,1.5,0.750506
8755,0.129883,0.549805,-6.73633,-0.0042318,0.000194162,-0.00118751,-0.00792496,-0.0433354,-0.309563,-4.68939,-1.05138,0.371279,1.0002,-0.378677,0.608294,-0.228789,-0.309563,0,0,370,-8,370,-8,469,-7,362,91,0.30273,-0.311669,0,-1.5,9.38862e-38,0,0,0,1.0002,-0.378677,-4.31641,-1.13672,0,0,0.608294,-0.228789,10807,0,0,0,0,0,0,0,0,0,1.5,0.757354
8772,0.129883,0.549805,-3.00684,-0.00296047,0.00100406,-0.00103812,-0.00808564,-0.0433856,-0.309571,-4.68939,-1.05138,0.371279,1.01056,-0.382586,0.610119,-0.230506,-0.309571,0,0,370,-8,370,-8,469,-7,362,91,0.304862,-0.310506,0,-1.5,9.38862e-38,0,0,0,1.01056,-0.382586,-4.31641,-1.13672,0,0,0.610119,-0.230506,10807,0,0,0,0,0,0,0,0,0,1.5,0.765172
8787,0.129883,0.549805,-3.00684,-0.00296047,0.00100406,-0.00103812,-0.00808564,-0.0433856,-0.309571,-4.68939,-1.05138,0.371279,1.01973,-0.386058,0.611717,-0.232026,-0.309571,0,0,370,-8,370,-8,469,-7,362,91,0.306756,-0.309481,0,-1.5,9.38862e-38,0,0,0,1.01973,-0.386058,-4.31641,-1.13672,0,0,0.611717,-0.232026,10807,0,0,0,0,0,0,0,0,0,1.5,0.772116
8802,0.129883,0.549805,-3.15625,-0.00438474,0.00128068,-0.000604688,-0.00825549,-0.043435,-0.309589,-4.68939,-1.05138,0.371279,1.02892,-0.389553,0.613303,-0.233546,-0.309589,0,0,370,-8,370,-8,469,-7,362,91,0.308664,-0.30845,0,-1.5,9.38862e-38,0,0,0,1.02892,-0.389553,-4.31641,-1.13672,0,0,0.613303,-0.233546,10807,0,0,0,0,0,0,0,0,0,1.5,0.779106
8819,0.129883,0.549805,1.12793,-0.00512308,-3.39069e-06,-0.00128471,-0.00835226,-0.0434606,-0.309604,-4.8311,-1.08413,0.443511,1.03936,-0.393542,0.615088,-0.235281,-0.309604,0,0,370,-8,370,-8,466,-7,366,89,0.310843,-0.30728,0,-1.5,9.38862e-38,0,0,0,1.03936,-0.393542,-4.31641,-1.13672,0,0,0.615088,-0.235281,9900,0,0,0,0,0,0,0,0,0,1.5,0.787085
8834,0.129883,0.549805,6.71777,-0.00437655,0.000834554,0.000107579,-0.0085359,-0.0434974,-0.309617,-4.8311,-1.08413,0.443511,1.04861,-0.397087,0.616651,-0.23681,-0.309604,0,0,370,-8,370,-8,466,-7,366,89,0.312776,-0.306252,0,-1.5,9.38862e-38,0,0,0,1.04861,-0.397087,-4.31641,-1.13672,0,0,0.616651,-0.23681,9900,0,0,0,0,0,0,0,0,0,1.5,0.794173
8851,0.129883,0.549805,6.71777,-0.00437655,0.000834554,0.000107579,-0.0085359,-0.0434974,-0.309617,-4.8312,-1.08391,0.443508,1.05911,-0.401132,0.618406,-0.238561,-0.309617,0,0,370,-8,370,-8,466,-7,366,89,0.314987,-0.30508,0,-1.5,9.38862e-38,0,0,0,1.05911,-0.401132,-4.31641,-1.13672,0,0,0.618406,-0.238561,9900,0,0,0,0,0,0,0,0,0,1.5,0.802263
8867,0.129883,0.549805,6.82129,-0.00514393,-0.000395056,-0.000667811,-0.0087142,-0.0435574,-0.309632,-4.8312,-1.08391,0.443508,1.06902,-0.404965,0.620045,-0.240204,-0.309632,0,0,370,-8,370,-8,466,-7,366,89,0.317081,-0.303976,0,-1.5,9.38862e-38,0,0,0,1.06902,-0.404965,-4.31641,-1.13672,0,0,0.620045,-0.240204,9900,0,0,0,0,0,0,0,0,0,1.5,0.809931
