timestamp,A_x,A_y,A_z,P,Q,R,Phi,Theta,Psi,poseX,poseY,poseZ,state_X,state_Y,state_Z,state_VzB,state_Bx,state_By,state_Bz,p1_x,p1_y,p2_x,p2_y,p3_x,p3_y,p4_x,p4_y,roll,pitch,yaw,alt,targetHeading,highLevelState,lowLevelState,gateNumber,filtered_x,filtered_y,x_OT,y_OT,vx_OT,vy_OT,filtered_vx,filtered_vygateArearansac_corr_x,ransac_corr_y,ransac_corr_vx,ransac_corr_vy,detectionTimeStamppTermX,dTermX,pTermY,dTermY,vxcmd,vycmd
6058,-0.238281,0.146484,-3.94141,-0.0212634,-0.111843,0.123696,0.0132818,-0.00168991,-2.68109,0,0,0,2.40257e-06,-9.62175e-07,0.000334055,-0.00039791,-2.69336,0,0,0,0,0,0,0,0,0,0,0.189005,0.218827,0.00469354,-1.5,0,0,0,1,2.40257e-06,-9.62175e-07,0,0,0,0,0.000334055,-0.00039791,1.9603e-19,0,0,0,0,0,0,0,0,0,2.5,1.92435e-06
6073,-0.464844,0.305664,5.55078,0.0376994,0.143427,-0.0493823,0.0202514,-0.0504124,-2.6657,0,0,0,8.55964e-06,-2.78098e-05,0.00177116,-0.00187651,-2.66883,0,0,0,0,0,0,0,0,0,0,0.198251,0.214249,0.0172097,-1.5,0,0,0,2,8.55964e-06,-2.78098e-05,0,0,0,0,0.00177116,-0.00187651,1.9603e-19,0,0,0,0,0,0,0,0,0,2.5,5.56196e-05
6089,-0.0507812,0.387695,-5.96191,0.00653922,-0.155779,0.0210899,0.0187447,-0.0531897,-2.66026,0,0,0,7.35968e-06,-9.81253e-05,-0.00169672,-0.0067344,-2.66807,0,0,0,0,0,0,0,0,0,0,0.197434,0.214668,0.0281239,-1.5,0,0,0,3,7.35968e-06,-9.81253e-05,0,0,0,0,-0.00169672,-0.0067344,1.9603e-19,0,0,0,0,0,0,0,0,0,2.5,0.000196251
6106,-0.015625,0.407227,-5.24121,0.00578034,0.0740807,-0.0203138,0.0180209,-0.0449457,-2.66748,0,0,0,-9.69957e-05,-0.000300832,-0.00832633,-0.0138892,-2.66171,0,0,0,0,0,0,0,0,0,0,0.198232,0.214275,0.0201765,-1.5,0,0,0,0,-9.69957e-05,-0.000300832,0,0,0,0,-0.00832633,-0.0138892,1.9603e-19,0,0,0,0,0,0,0,0,0,2.5,0.000601665
6122,-0.130859,0.21875,3.04297,0.0250215,-0.0297968,0.0659713,0.0186404,-0.0453542,-2.6662,0,0,0,-0.00028178,-0.000582157,-0.0132236,-0.0195179,-2.66708,0,0,0,0,0,0,0,0,0,0,0.194763,0.216042,0.0229033,-1.5,0,0,0,1,-0.00028178,-0.000582157,0,0,0,0,-0.0132236,-0.0195179,1.9603e-19,0,0,0,0,0,0,0,0,0,2.5,0.00116431
6138,-0.197266,0.257812,-4.90039,0.00405976,-0.00716696,0.0558969,0.0187565,-0.0455606,-2.66537,0,0,0,-0.00054436,-0.000953629,-0.0180813,-0.0251675,-2.6662,0,0,0,0,0,0,0,0,0,0,0.193686,0.216602,0.0384694,-1.5,0,0,0,2,-0.00054436,-0.000953629,0,0,0,0,-0.0180813,-0.0251675,1.9603e-19,0,0,0,0,0,0,0,0,0,2.5,0.00190726
6155,-0.244141,0.324219,4.49512,-0.00782636,0.0251493,0.042417,0.0186407,-0.0452779,-2.66475,0,0,0,-0.000884653,-0.00141604,-0.0229266,-0.0308444,-2.66475,0,0,0,0,0,0,0,0,0,0,0.192786,0.217078,0.0539858,-1.5,0,0,0,3,-0.000884653,-0.00141604,0,0,0,0,-0.0229266,-0.0308444,1.9603e-19,0,0,0,0,0,0,0,0,0,2.5,0.00283209
6179,-0.265625,0.378906,-0.290039,-0.00075246,0.0202374,0.0265158,0.0186406,-0.0444379,-2.66398,0,0,0,-0.00159258,-0.00234529,-0.0303589,-0.039578,-2.66433,0,0,0,0,0,0,0,0,0,0,0.190598,0.218214,0.0318215,-1.5,0,0,0,0,-0.00159258,-0.00234529,0,0,0,0,-0.0303589,-0.039578,1.9603e-19,0,0,0,0,0,0,0,0,0,2.5,0.00469058
6192,-0.236328,0.345703,3.56445,-0.00317863,-0.0259064,0.0397053,0.0185753,-0.0446767,-2.66347,0,0,0,-0.00201745,-0.00289579,-0.0340939,-0.0440285,-2.66398,0,0,0,0,0,0,0,0,0,0,0.189503,0.218785,0.0345063,-1.5,0,0,0,1,-0.00201745,-0.00289579,0,0,0,0,-0.0340939,-0.0440285,0,0,0,0,0,0,0,0,0,0,2.5,0.00579158
6206,-0.139648,0.320312,-4.43555,0.00210887,-0.0753822,0.0479277,0.0185467,-0.0456362,-2.66284,0,0,0,-0.00252945,-0.00355342,-0.0381091,-0.0487952,-2.66347,0,0,0,0,0,0,0,0,0,0,0.188354,0.219388,0.0453324,-1.5,0,0,0,2,-0.00252945,-0.00355342,0,0,0,0,-0.0381091,-0.0487952,0,0,0,0,0,0,0,0,0,0,2.5,0.00710683
6222,-0.0507812,0.320312,2.69336,0.00658173,-0.0993483,0.0431436,0.0186299,-0.0470419,-2.66223,-6.58914,0.204278,-1.51332,-0.00318757,-0.00439124,-0.0427438,-0.0542424,-2.66284,0,0,269,179,269,179,340,180,275,248,0.187023,0.220088,0.0608214,-1.5,0,0,0,3,-0.00318757,-0.00439124,0,0,0,0,-0.0427438,-0.0542424,5106,0,0,0,0,0,0,0,0,0,2.5,0.00878247
6247,-0.181641,0.320312,-1.0498,0.00385645,-0.0546752,-0.00120254,0.0185547,-0.0490723,-2.66187,-6.58914,0.204278,-1.51332,-0.00439337,-0.00590429,-0.0503846,-0.0629551,-2.66189,0,0,269,179,269,179,340,180,275,248,0.184793,0.221265,0.0386161,-1.5,0,0,0,0,-0.00439337,-0.00590429,0,0,0,0,-0.0503846,-0.0629551,5106,0,0,0,0,0,0,0,0,0,2.5,0.0118086
6261,-0.28125,0.320312,0.780273,-0.00272916,0.0107458,-0.0199757,0.0188121,-0.0492732,-2.66211,-6.52723,0.218596,-1.52981,-0.00513673,-0.00682811,-0.054793,-0.0678662,-2.66187,0,0,268,183,268,183,339,176,273,248,0.183303,0.222041,0.0427706,-1.5,0,0,0,1,-0.00513673,-0.00682811,0,0,0,0,-0.054793,-0.0678662,5400,0,0,0,0,0,0,0,0,0,2.5,0.0136562
6295,-0.311523,0.320312,6.31934,-0.00490692,0.122886,-0.0434415,0.0187184,-0.0467727,-2.66313,-6.54654,0.230686,-1.52407,-0.00729108,-0.0094587,-0.0654148,-0.0796991,-2.66313,0,0,269,180,269,180,338,175,272,247,0.179007,0.224241,0.0864184,-1.5,0,0,0,2,-0.00729108,-0.0094587,0,0,0,0,-0.0654148,-0.0796991,5184,0,0,0,0,0,0,0,0,0,2.5,0.0189174
6322,-0.178711,0.320312,0.386719,-0.00228023,0.215518,-0.0486418,0.0187356,-0.0415869,-2.66436,-6.37769,0.220811,-1.51133,-0.00921182,-0.0117895,-0.0729575,-0.0885625,-2.66436,0,0,268,179,268,179,338,175,271,248,0.175515,0.226013,0.118959,-1.5,0,0,0,3,-0.00921182,-0.0117895,0,0,0,0,-0.0729575,-0.0885625,5548,0,0,0,0,0,0,0,0,0,2.5,0.023579
6341,-0.140625,0.264648,6.79785,-0.00860631,0.244085,-0.0161411,0.0186922,-0.0381665,-2.66466,-6.37769,0.220811,-1.51133,-0.0106555,-0.0135456,-0.0773559,-0.0942731,-2.66466,0,0,268,179,268,179,338,175,271,248,0.173344,0.227125,0.105773,-1.5,0,0,0,0,-0.0106555,-0.0135456,0,0,0,0,-0.0773559,-0.0942731,5548,0,0,0,0,0,0,0,0,0,2.5,0.0270912
6358,-0.140625,0.201172,0.484375,-0.0268615,0.205542,0.0658111,0.0183521,-0.0352249,-2.66391,-6.41532,0.214895,-1.48626,-0.0119278,-0.0151019,-0.0805582,-0.0987687,-2.66391,0,0,267,181,267,181,339,178,273,250,0.171957,0.227869,0.106793,-1.5,0,0,0,1,-0.0119278,-0.0151019,0,0,0,0,-0.0805582,-0.0987687,5544,0,0,0,0,0,0,0,0,0,2.5,0.0302037
6373,-0.0126953,0.210938,-7.31543,0.0369041,0.0322252,0.134329,0.0186162,-0.0330081,-2.66038,-6.41532,0.214895,-1.48626,-0.0132475,-0.0167274,-0.083449,-0.103055,-2.66038,0,0,267,181,267,181,339,178,273,250,0.171705,0.228132,0.122024,-1.5,0,0,0,2,-0.0132475,-0.0167274,0,0,0,0,-0.083449,-0.103055,5544,0,0,0,0,0,0,0,0,0,2.5,0.0334547
6390,-0.0830078,0.244141,-7.28418,0.0263487,0.0244534,0.124413,0.0189951,-0.0327796,-2.65864,-6.46342,0.217848,-1.51431,-0.0146961,-0.0185279,-0.0861579,-0.107477,-2.65864,0,0,268,185,268,185,339,182,273,254,0.170628,0.228764,0.135642,-1.5,0,0,0,3,-0.0146961,-0.0185279,0,0,0,0,-0.0861579,-0.107477,5400,0,0,0,0,0,0,0,0,0,2.5,0.0370559
6406,-0.24707,0.277344,-4.38867,0.00913483,0.0677725,0.0855656,0.0191372,-0.0319962,-2.65732,-6.46342,0.217848,-1.51431,-0.0160996,-0.0202899,-0.0885792,-0.111622,-2.65732,0,0,268,185,268,185,339,182,273,254,0.169466,0.22943,0.125718,-1.5,0,0,0,0,-0.0160996,-0.0202899,0,0,0,0,-0.0885792,-0.111622,5400,0,0,0,0,0,0,0,0,0,2.5,0.0405799
6422,-0.273438,0.310547,0.543945,-0.0121265,0.096418,0.0459203,0.0190115,-0.0306982,-2.65657,-6.49761,0.25483,-1.52599,-0.0175411,-0.0221188,-0.0908455,-0.115675,-2.65657,0,0,265,187,265,187,336,183,272,255,0.168062,0.230202,0.126341,-1.5,0,0,0,1,-0.0175411,-0.0221188,0,0,0,0,-0.0908455,-0.115675,5472,0,0,0,0,0,0,0,0,0,2.5,0.0442376
6438,-0.273438,0.310547,0.543945,-0.0121265,0.096418,0.0459203,0.0190115,-0.0306982,-2.65657,-6.49761,0.25483,-1.52599,-0.0190172,-0.0240111,-0.0929849,-0.119627,-2.65657,0,0,265,187,265,187,336,183,272,255,0.166351,0.231104,0.141493,-1.5,0,0,0,2,-0.0190172,-0.0240111,0,0,0,0,-0.0929849,-0.119627,5472,0,0,0,0,0,0,0,0,0,2.5,0.0480223
6455,-0.120117,0.324219,6.12695,0.0143007,-0.038358,-0.0114378,0.0190454,-0.0298654,-2.65613,-6.38614,0.278047,-1.53472,-0.0206228,-0.0260907,-0.0952393,-0.123791,-2.65657,0,0,264,187,264,187,334,184,268,256,0.16451,0.232074,0.158168,-1.5,0,0,0,3,-0.0206228,-0.0260907,0,0,0,0,-0.0952393,-0.123791,5544,0,0,0,0,0,0,0,0,0,2.5,0.0521813
6470,-0.120117,0.324219,6.12695,0.0143007,-0.038358,-0.0114378,0.0190454,-0.0298654,-2.65613,-6.38614,0.278047,-1.53472,-0.0220694,-0.0279823,-0.0970998,-0.127383,-2.65613,0,0,264,187,264,187,334,184,268,256,0.16306,0.232861,0.149726,-1.5,0,0,0,0,-0.0220694,-0.0279823,0,0,0,0,-0.0970998,-0.127383,5544,0,0,0,0,0,0,0,0,0,2.5,0.0559646
6487,-0.269531,0.231445,4.33105,-0.0260685,-0.0305534,-0.0708057,0.0187788,-0.0308713,-2.65776,-6.36164,0.273488,-1.55312,-0.023744,-0.0301938,-0.099234,-0.131432,-2.65776,0,0,264,188,264,188,335,186,268,259,0.160522,0.234112,0.149571,-1.5,0,0,0,1,-0.023744,-0.0301938,0,0,0,0,-0.099234,-0.131432,5621,0,0,0,0,0,0,0,0,0,2.5,0.0603876
6502,-0.204102,0.297852,2.03809,-0.016087,-0.0644092,-0.0701683,0.0185599,-0.0316274,-2.65873,-6.36164,0.273488,-1.55312,-0.0252513,-0.0321989,-0.101252,-0.135002,-2.65873,0,0,264,188,264,188,335,186,268,259,0.158445,0.235148,0.163066,-1.5,0,0,0,2,-0.0252513,-0.0321989,0,0,0,0,-0.101252,-0.135002,5621,0,0,0,0,0,0,0,0,0,2.5,0.0643977
6514,-0.148438,0.356445,4.08496,0.0089493,-0.117389,-0.0664999,0.0186849,-0.033181,-2.6597,-6.36164,0.273488,-1.55312,-0.0264787,-0.0338399,-0.102977,-0.137883,-2.6597,0,0,264,188,264,188,335,186,268,259,0.156683,0.236015,0.171826,-1.5,0,0,0,3,-0.0264787,-0.0338399,0,0,0,0,-0.102977,-0.137883,5621,0,0,0,0,0,0,0,0,0,2.5,0.0676798
6531,-0.148438,0.356445,4.08496,0.0089493,-0.117389,-0.0664999,0.0186849,-0.033181,-2.6597,-6.40716,0.275188,-1.54058,-0.0281519,-0.036087,-0.105403,-0.141783,-2.6597,0,0,264,187,264,187,334,184,269,256,0.154824,0.236988,0.161764,-1.5,0,0,0,0,-0.0281519,-0.036087,0,0,0,0,-0.105403,-0.141783,5544,0,0,0,0,0,0,0,0,0,2.5,0.0721741
6546,-0.268555,0.1875,-3.34766,-0.00469811,-0.074437,-0.071118,0.0190337,-0.0359923,-2.66157,-6.40716,0.275188,-1.54058,-0.0298642,-0.0383966,-0.107951,-0.145745,-2.66157,0,0,264,187,264,187,334,184,269,256,0.152152,0.238267,0.161669,-1.5,0,0,0,1,-0.0298642,-0.0383966,0,0,0,0,-0.107951,-0.145745,5544,0,0,0,0,0,0,0,0,0,2.5,0.0767932
6563,-0.268555,0.1875,-3.34766,-0.00469811,-0.074437,-0.071118,0.0190337,-0.0359923,-2.66157,-6.59456,0.250681,-1.55074,-0.0317317,-0.0409221,-0.110883,-0.150083,-2.66157,0,0,267,188,267,188,336,183,272,255,0.15007,0.239351,0.175115,-1.5,0,0,0,2,-0.0317317,-0.0409221,0,0,0,0,-0.110883,-0.150083,5328,0,0,0,0,0,0,0,0,0,2.5,0.0818441
6579,-0.0400391,0.143555,-4.54395,-0.0147274,0.0531279,-0.112431,0.0184961,-0.0349166,-2.66616,-6.59456,0.250681,-1.55074,-0.0335337,-0.0433645,-0.113622,-0.154093,-2.66453,0,0,267,188,267,188,336,183,272,255,0.146869,0.240814,0.186956,-1.5,0,0,0,3,-0.0335337,-0.0433645,0,0,0,0,-0.113622,-0.154093,5328,0,0,0,0,0,0,0,0,0,2.5,0.086729
6595,-0.0400391,0.143555,-4.54395,-0.0147274,0.0531279,-0.112431,0.0184961,-0.0349166,-2.66616,-6.33279,0.236665,-1.54537,-0.0353793,-0.0458705,-0.11625,-0.157941,-2.66616,0,0,265,185,265,185,337,183,271,256,0.144223,0.242067,0.176834,-1.5,0,0,0,0,-0.0353793,-0.0458705,0,0,0,0,-0.11625,-0.157941,5767,0,0,0,0,0,0,0,0,0,2.5,0.091741
6611,-0.0458984,0.209961,-7.14941,-0.00511454,0.0360634,-0.00784734,0.0182796,-0.0335656,-2.66742,-6.33279,0.236665,-1.54537,-0.0372666,-0.0484376,-0.118816,-0.161726,-2.66742,0,0,265,185,265,185,337,183,271,256,0.141712,0.243267,0.176437,-1.5,0,0,0,1,-0.0372666,-0.0484376,0,0,0,0,-0.118816,-0.161726,5767,0,0,0,0,0,0,0,0,0,2.5,0.0968752
6628,-0.0458984,0.209961,-7.14941,-0.00511454,0.0360634,-0.00784734,0.0182796,-0.0335656,-2.66742,-6.53507,0.212436,-1.52853,-0.0393148,-0.0512297,-0.121388,-0.16561,-2.66742,0,0,269,184,269,184,340,186,273,254,0.139606,0.244348,0.19296,-1.5,0,0,0,2,-0.0393148,-0.0512297,0,0,0,0,-0.121388,-0.16561,5180,0,0,0,0,0,0,0,0,0,2.5,0.102459
6643,-0.233398,0.212891,5.80957,0.0155557,-0.0230763,0.0978638,0.018532,-0.0337853,-2.66556,-6.53507,0.212436,-1.52853,-0.0411575,-0.0537469,-0.123639,-0.16903,-2.66556,0,0,269,184,269,184,340,186,273,254,0.138506,0.245056,0.206294,-1.5,0,0,0,3,-0.0411575,-0.0537469,0,0,0,0,-0.123639,-0.16903,5180,0,0,0,0,0,0,0,0,0,2.5,0.107494
6659,-0.206055,0.212891,-0.222656,0.0166718,-0.0104167,0.105363,0.0187483,-0.0340164,-2.66411,-6.53507,0.212436,-1.52853,-0.0431608,-0.0564898,-0.126028,-0.172704,-2.66411,0,0,269,184,269,184,340,186,273,254,0.137079,0.245908,0.196094,-1.5,0,0,0,0,-0.0431608,-0.0564898,0,0,0,0,-0.126028,-0.172704,5180,0,0,0,0,0,0,0,0,0,2.5,0.11298
6676,-0.0732422,0.222656,1.2207,-0.00576403,0.0392081,0.0476173,0.018685,-0.0333417,-2.66217,-6.53507,0.212436,-1.52853,-0.0453319,-0.0594702,-0.12854,-0.176609,-2.66288,0,0,269,184,269,184,340,186,273,254,0.135411,0.246874,0.194923,-1.5,0,0,0,1,-0.0453319,-0.0594702,0,0,0,0,-0.12854,-0.176609,5180,0,0,0,0,0,0,0,0,0,2.5,0.11894
6691,-0.0859375,0.255859,-6.79785,-0.000345896,0.0308411,0.0383309,0.0186666,-0.0328756,-2.66164,-6.53507,0.212436,-1.52853,-0.0472805,-0.062152,-0.130656,-0.17998,-2.66217,0,0,269,184,269,184,340,186,273,254,0.133769,0.247786,0.208237,-1.5,0,0,0,2,-0.0472805,-0.062152,0,0,0,0,-0.130656,-0.17998,5180,0,0,0,0,0,0,0,0,0,2.5,0.124304
6706,-0.177734,0.289062,2.86133,-0.00162981,-0.0184375,0.0491155,0.018652,-0.0329864,-2.66097,-6.53507,0.212436,-1.52853,-0.0492601,-0.0648838,-0.132696,-0.183294,-2.66097,0,0,269,184,269,184,340,186,273,254,0.13233,0.248639,0.22151,-1.5,0,0,0,3,-0.0492601,-0.0648838,0,0,0,0,-0.132696,-0.183294,5180,0,0,0,0,0,0,0,0,0,2.5,0.129768
6723,-0.277344,0.322266,-1.80371,0.010859,-0.0628406,0.0283451,0.0187636,-0.0338206,-2.66053,-6.44158,0.233382,-1.53771,-0.0514061,-0.0678535,-0.134893,-0.186829,-2.66053,0,0,268,188,268,188,336,182,271,256,0.130416,0.249677,0.211249,-1.5,0,0,0,0,-0.0514061,-0.0678535,0,0,0,0,-0.134893,-0.186829,5624,0,0,0,0,0,0,0,0,0,2.5,0.135707
6738,-0.317383,0.355469,-2.98535,0.00532049,-0.0483806,-0.00248049,0.0189379,-0.0346007,-2.66052,-6.44158,0.233382,-1.53771,-0.0535883,-0.0708804,-0.137187,-0.190424,-2.66052,0,0,268,188,268,188,336,182,271,256,0.128285,0.250791,0.210587,-1.5,0,0,0,1,-0.0535883,-0.0708804,0,0,0,0,-0.137187,-0.190424,5624,0,0,0,0,0,0,0,0,0,2.5,0.141761
6755,-0.322266,0.334961,-1.375,-0.019528,-0.0235841,-0.0272818,0.018744,-0.0349764,-2.66086,-6.35209,0.237521,-1.54178,-0.0559479,-0.0741599,-0.139694,-0.194265,-2.66086,0,0,265,187,265,187,337,182,271,255,0.125836,0.252037,0.226967,-1.5,0,0,0,2,-0.0559479,-0.0741599,0,0,0,0,-0.139694,-0.194265,5767,0,0,0,0,0,0,0,0,0,2.5,0.14832
6771,-0.322266,0.334961,-1.375,-0.019528,-0.0235841,-0.0272818,0.018744,-0.0349764,-2.66086,-6.35209,0.237521,-1.54178,-0.0582073,-0.0773047,-0.142078,-0.19785,-2.66086,0,0,265,187,265,187,337,182,271,255,0.123647,0.253178,0.241736,-1.5,0,0,0,3,-0.0582073,-0.0773047,0,0,0,0,-0.142078,-0.19785,5767,0,0,0,0,0,0,0,0,0,2.5,0.154609
6787,-0.0966797,0.262695,3.84863,0.00303577,-0.0423499,-0.0649372,0.0185868,-0.036398,-2.66346,-6.47845,0.25804,-1.53795,-0.0605049,-0.0805066,-0.144496,-0.201413,-2.66257,0,0,265,187,265,187,337,182,271,255,0.120704,0.254538,0.232498,-1.5,0,0,0,0,-0.0605049,-0.0805066,0,0,0,0,-0.144496,-0.201413,5475,0,0,0,0,0,0,0,0,0,2.5,0.161013
6803,-0.157227,0.262695,-6.94824,-0.00524622,-0.0140714,-0.0553357,0.0186006,-0.0366614,-2.66424,-6.47845,0.25804,-1.53795,-0.062843,-0.083766,-0.147069,-0.205015,-2.66424,0,0,265,187,265,187,337,182,271,255,0.117738,0.255902,0.233019,-1.5,0,0,0,1,-0.062843,-0.083766,0,0,0,0,-0.147069,-0.205015,5475,0,0,0,0,0,0,0,0,0,2.5,0.167532
6819,-0.223633,0.249023,6.99609,-0.00991185,0.040671,-0.0545186,0.0185271,-0.0362094,-2.66502,-6.47845,0.25804,-1.53795,-0.0652225,-0.0870828,-0.149642,-0.208592,-2.66502,0,0,265,187,265,187,337,182,271,255,0.115135,0.257164,0.244616,-1.5,0,0,0,2,-0.0652225,-0.0870828,0,0,0,0,-0.149642,-0.208592,5475,0,0,0,0,0,0,0,0,0,2.5,0.174166
6835,-0.229492,0.182617,-6.21973,-0.0139564,0.0888104,-0.0481349,0.0183848,-0.035062,-2.66566,-6.53572,0.24418,-1.54037,-0.0676422,-0.0904559,-0.1521,-0.212067,-2.66566,0,0,267,185,267,185,337,183,272,254,0.112585,0.258409,0.256178,-1.5,0,0,0,3,-0.0676422,-0.0904559,0,0,0,0,-0.1521,-0.212067,5254,0,0,0,0,0,0,0,0,0,2.5,0.180912
6851,-0.158203,0.144531,-0.333008,-0.0195101,0.0944464,-0.0339131,0.0181533,-0.0336686,-2.66616,-6.53572,0.24418,-1.54037,-0.0700994,-0.0938832,-0.15437,-0.21539,-2.66616,0,0,267,185,267,185,337,183,272,254,0.110107,0.25963,0.247344,-1.5,0,0,0,0,-0.0700994,-0.0938832,0,0,0,0,-0.15437,-0.21539,5254,0,0,0,0,0,0,0,0,0,2.5,0.187766
6866,-0.158203,0.144531,-0.333008,-0.0195101,0.0944464,-0.0339131,0.0181533,-0.0336686,-2.66616,-6.41309,0.220126,-1.53246,-0.0724345,-0.0971433,-0.15639,-0.218411,-2.66616,0,0,267,185,267,185,339,183,272,254,0.107986,0.260722,0.246034,-1.5,0,0,0,1,-0.0724345,-0.0971433,0,0,0,0,-0.15639,-0.218411,5467,0,0,0,0,0,0,0,0,0,2.5,0.194287
6883,-0.0488281,0.244141,-7.27539,0.0132628,-0.066398,0.0242002,0.0182824,-0.0337476,-2.66596,-6.41309,0.220126,-1.53246,-0.075118,-0.100894,-0.158621,-0.221785,-2.66627,0,0,267,185,267,185,339,183,272,254,0.105524,0.261977,0.262273,-1.5,0,0,0,2,-0.075118,-0.100894,0,0,0,0,-0.158621,-0.221785,5467,0,0,0,0,0,0,0,0,0,2.5,0.201787
6898,-0.148438,0.277344,-4.36816,0.00667765,-0.0782589,0.0248339,0.0184208,-0.0348248,-2.66564,-6.47422,0.210918,-1.53825,-0.0775154,-0.104248,-0.16057,-0.224748,-2.66596,0,0,268,188,268,188,340,183,273,255,0.103509,0.263052,0.2722,-1.5,0,0,0,3,-0.0775154,-0.104248,0,0,0,0,-0.16057,-0.224748,5472,0,0,0,0,0,0,0,0,0,2.5,0.208496
6914,-0.248047,0.280273,0.557617,-0.00183128,-0.0524302,0.0205905,0.0184393,-0.0356595,-2.66537,-6.47422,0.210918,-1.53825,-0.0801074,-0.107877,-0.162828,-0.228025,-2.66537,0,0,268,188,268,188,340,183,273,255,0.101424,0.264198,0.264872,-1.5,0,0,0,0,-0.0801074,-0.107877,0,0,0,0,-0.162828,-0.228025,5472,0,0,0,0,0,0,0,0,0,2.5,0.215755
6930,-0.248047,0.280273,0.557617,-0.00183128,-0.0524302,0.0205905,0.0184393,-0.0356595,-2.66537,-6.49736,0.203521,-1.54165,-0.0827373,-0.111561,-0.165167,-0.231331,-2.66537,0,0,268,187,268,187,340,183,275,255,0.0990522,0.265422,0.262721,-1.5,0,0,0,1,-0.0827373,-0.111561,0,0,0,0,-0.165167,-0.231331,5472,0,0,0,0,0,0,0,0,0,2.5,0.223121
6946,-0.261719,0.280273,3.91797,0.00284977,-0.0273765,0.0204042,0.0183823,-0.036514,-2.66482,-6.49736,0.203521,-1.54165,-0.0854045,-0.115297,-0.167533,-0.234633,-2.66482,0,0,268,187,268,187,340,183,275,255,0.0969034,0.266603,0.277327,-1.5,0,0,0,2,-0.0854045,-0.115297,0,0,0,0,-0.167533,-0.234633,5472,0,0,0,0,0,0,0,0,0,2.5,0.230593
6963,-0.261719,0.280273,3.91797,0.00284977,-0.0273765,0.0204042,0.0183823,-0.036514,-2.66482,-6.41149,0.208587,-1.54596,-0.0882819,-0.119325,-0.170106,-0.238149,-2.66482,0,0,268,187,268,187,341,182,272,254,0.0943326,0.26793,0.293453,-1.5,0,0,0,3,-0.0882819,-0.119325,0,0,0,0,-0.170106,-0.238149,5472,0,0,0,0,0,0,0,0,0,2.5,0.238651
6980,-0.162109,0.280273,4.31348,-0.0135206,-0.016382,0.00319258,0.0183571,-0.0375411,-2.66453,-6.41149,0.208587,-1.54596,-0.091029,-0.12317,-0.172546,-0.241459,-2.6646,0,0,268,187,268,187,341,182,272,254,0.0919869,0.269172,0.282905,-1.5,0,0,0,0,-0.091029,-0.12317,0,0,0,0,-0.172546,-0.241459,5472,0,0,0,0,0,0,0,0,0,2.5,0.246341
6996,-0.162109,0.280273,4.31348,-0.0135206,-0.016382,0.00319258,0.0183571,-0.0375411,-2.66453,-6.47641,0.230156,-1.54975,-0.0939924,-0.127315,-0.175205,-0.244997,-2.66453,0,0,267,185,267,185,337,184,272,254,0.0893885,0.270524,0.27983,-1.5,0,0,0,1,-0.0939924,-0.127315,0,0,0,0,-0.175205,-0.244997,5390,0,0,0,0,0,0,0,0,0,2.5,0.254631
7012,-0.0957031,0.280273,-4.51074,0.000573525,-0.0795851,-0.0070039,0.0182342,-0.0391226,-2.66474,-6.47641,0.230156,-1.54975,-0.0968214,-0.131269,-0.177766,-0.248319,-2.66474,0,0,267,185,267,185,337,184,272,254,0.0868027,0.271831,0.291239,-1.5,0,0,0,2,-0.0968214,-0.131269,0,0,0,0,-0.177766,-0.248319,5390,0,0,0,0,0,0,0,0,0,2.5,0.262538
7028,-0.0957031,0.280273,-4.51074,0.000573525,-0.0795851,-0.0070039,0.0182342,-0.0391226,-2.66474,-6.40928,0.231681,-1.5444,-0.0996942,-0.135278,-0.18048,-0.251687,-2.66474,0,0,267,185,267,185,337,182,271,254,0.084274,0.273137,0.305745,-1.5,0,0,0,3,-0.0996942,-0.135278,0,0,0,0,-0.18048,-0.251687,5544,0,0,0,0,0,0,0,0,0,2.5,0.270555
7044,-0.230469,0.280273,1.41797,0.00559877,-0.0625766,-0.039567,0.0184979,-0.0412877,-2.66559,-6.40928,0.231681,-1.5444,-0.102611,-0.13934,-0.18328,-0.255099,-2.66559,0,0,267,185,267,185,337,182,271,254,0.0813319,0.27453,0.295147,-1.5,0,0,0,0,-0.102611,-0.13934,0,0,0,0,-0.18328,-0.255099,5544,0,0,0,0,0,0,0,0,0,2.5,0.27868
7060,-0.302734,0.280273,0.0996094,-0.0058444,-0.0178127,-0.0531034,0.0185259,-0.0416233,-2.66629,-6.41761,0.223891,-1.56087,-0.105574,-0.143458,-0.186254,-0.25861,-2.66629,0,0,267,184,267,184,339,182,272,254,0.0784042,0.275931,0.292392,-1.5,0,0,0,1,-0.105574,-0.143458,0,0,0,0,-0.186254,-0.25861,5472,0,0,0,0,0,0,0,0,0,2.5,0.286917
7077,-0.169922,0.280273,4.72949,-0.0201627,0.0431854,-0.0478644,0.0180187,-0.0405775,-2.66766,-6.41761,0.223891,-1.56087,-0.108777,-0.147897,-0.189409,-0.262303,-2.66701,0,0,267,184,267,184,339,182,272,254,0.0752844,0.277424,0.308445,-1.5,0,0,0,2,-0.108777,-0.147897,0,0,0,0,-0.189409,-0.262303,5472,0,0,0,0,0,0,0,0,0,2.5,0.295794
7092,-0.169922,0.280273,4.72949,-0.0201627,0.0431854,-0.0478644,0.0180187,-0.0405775,-2.66766,-6.4229,0.22782,-1.54469,-0.111644,-0.151862,-0.192086,-0.265414,-2.66766,0,0,267,184,267,184,337,180,272,254,0.0725362,0.278732,0.321317,-1.5,0,0,0,3,-0.111644,-0.151862,0,0,0,0,-0.192086,-0.265414,5698,0,0,0,0,0,0,0,0,0,2.5,0.303723
7107,-0.101562,0.280273,5.44043,0.00599927,-0.0262485,0.0023025,0.0180629,-0.0406249,-2.66821,-6.4229,0.22782,-1.54469,-0.114551,-0.155873,-0.194743,-0.268503,-2.66821,0,0,267,184,267,184,337,180,272,254,0.069813,0.280038,0.312221,-1.5,0,0,0,0,-0.114551,-0.155873,0,0,0,0,-0.194743,-0.268503,5698,0,0,0,0,0,0,0,0,0,2.5,0.311745
7124,-0.134766,0.280273,5.89355,0.0100598,-0.0257986,0.0337055,0.0182129,-0.041014,-2.66782,-6.4229,0.22782,-1.54469,-0.117894,-0.160476,-0.197747,-0.271995,-2.66782,0,0,267,184,267,184,337,180,272,254,0.0671673,0.281459,0.31069,-1.5,0,0,0,1,-0.117894,-0.160476,0,0,0,0,-0.197747,-0.271995,5698,0,0,0,0,0,0,0,0,0,2.5,0.320951
7140,-0.167969,0.280273,7.36133,0.00126726,0.00986129,0.0518765,0.0182585,-0.0409922,-2.66711,-6.4229,0.22782,-1.54469,-0.121087,-0.164861,-0.200578,-0.275297,-2.66711,0,0,267,184,267,184,337,180,272,254,0.0648044,0.282791,0.323541,-1.5,0,0,0,2,-0.121087,-0.164861,0,0,0,0,-0.200578,-0.275297,5698,0,0,0,0,0,0,0,0,0,2.5,0.329723
7156,-0.201172,0.288086,-0.393555,-0.00284418,0.0483385,0.0465059,0.0181914,-0.0404424,-2.66643,-6.49215,0.210219,-1.52269,-0.124326,-0.1693,-0.203352,-0.27856,-2.66643,0,0,269,183,269,183,340,179,273,251,0.0624148,0.284135,0.337917,-1.5,0,0,0,3,-0.124326,-0.1693,0,0,0,0,-0.203352,-0.27856,5328,0,0,0,0,0,0,0,0,0,2.5,0.338601
7172,-0.135742,0.354492,-5.22266,0.00176376,0.0457508,-0.0252586,0.0181954,-0.0388504,-2.66624,-6.49215,0.210219,-1.52269,-0.127608,-0.173791,-0.206058,-0.281768,-2.66643,0,0,269,183,269,183,340,179,273,251,0.059705,0.285529,0.327191,-1.5,0,0,0,0,-0.127608,-0.173791,0,0,0,0,-0.206058,-0.281768,5328,0,0,0,0,0,0,0,0,0,2.5,0.347582
7188,-0.135742,0.354492,-5.22266,0.00176376,0.0457508,-0.0252586,0.0181954,-0.0388504,-2.66624,-6.47453,0.213887,-1.53118,-0.130932,-0.178333,-0.20863,-0.284894,-2.66624,0,0,268,185,268,185,339,179,273,252,0.0570798,0.286915,0.323797,-1.5,0,0,0,1,-0.130932,-0.178333,0,0,0,0,-0.20863,-0.284894,5548,0,0,0,0,0,0,0,0,0,2.5,0.356665
7205,-0.0722656,0.383789,-2.72559,-0.0197367,0.00671709,-0.085733,0.0180048,-0.0382757,-2.66818,-6.47453,0.213887,-1.53118,-0.134296,-0.182923,-0.211063,-0.287929,-2.66818,0,0,268,185,268,185,339,179,273,252,0.0534693,0.288417,0.338159,-1.5,0,0,0,2,-0.134296,-0.182923,0,0,0,0,-0.211063,-0.287929,5548,0,0,0,0,0,0,0,0,0,2.5,0.365846
7221,-0.0908203,0.361328,1.68262,-0.0178074,-0.0269233,-0.100244,0.0178143,-0.0385439,-2.66957,-6.36882,0.214792,-1.54249,-0.137913,-0.187853,-0.21359,-0.291055,-2.66957,0,0,268,185,268,185,339,180,272,254,0.0499308,0.289967,0.354042,-1.5,0,0,0,3,-0.137913,-0.187853,0,0,0,0,-0.21359,-0.291055,5624,0,0,0,0,0,0,0,0,0,2.5,0.375707
7237,-0.0908203,0.361328,1.68262,-0.0178074,-0.0269233,-0.100244,0.0178143,-0.0385439,-2.66957,-6.36882,0.214792,-1.54249,-0.141355,-0.19254,-0.215992,-0.293961,-2.66957,0,0,268,185,268,185,339,180,272,254,0.0471966,0.291363,0.346386,-1.5,0,0,0,0,-0.141355,-0.19254,0,0,0,0,-0.215992,-0.293961,5624,0,0,0,0,0,0,0,0,0,2.5,0.38508
7253,-0.253906,0.294922,4.0166,-0.0035923,-0.0693009,-0.0723432,0.0176933,-0.0401048,-2.67188,-6.36882,0.214792,-1.54249,-0.144835,-0.197273,-0.21848,-0.296881,-2.67188,0,0,268,185,268,185,339,180,272,254,0.0433619,0.292872,0.341735,-1.5,0,0,0,1,-0.144835,-0.197273,0,0,0,0,-0.21848,-0.296881,5624,0,0,0,0,0,0,0,0,0,2.5,0.394546
7268,-0.320312,0.228516,2.54297,0.00160878,-0.0615772,-0.0147034,0.0178937,-0.0419807,-2.67284,-6.2945,0.200777,-1.54573,-0.148136,-0.201753,-0.22092,-0.299642,-2.67188,0,0,268,184,268,184,339,180,273,255,0.040749,0.294198,0.354461,-1.5,0,0,0,2,-0.148136,-0.201753,0,0,0,0,-0.22092,-0.299642,5850,0,0,0,0,0,0,0,0,0,2.5,0.403506
7285,-0.329102,0.195312,3.30371,-0.00668315,-0.057278,0.0109437,0.0178183,-0.0427733,-2.67273,-6.2945,0.200777,-1.54573,-0.151924,-0.206882,-0.22379,-0.302826,-2.67284,0,0,268,184,268,184,339,180,273,255,0.0373018,0.295756,0.370278,-1.5,0,0,0,3,-0.151924,-0.206882,0,0,0,0,-0.22379,-0.302826,5850,0,0,0,0,0,0,0,0,0,2.5,0.413765
7300,-0.240234,0.162109,-1.99512,0.00606341,-0.0521977,0.00831298,0.0178851,-0.0434901,-2.67259,-6.57554,0.173363,-1.54428,-0.155307,-0.211453,-0.226548,-0.305741,-2.67259,0,0,272,185,272,185,341,180,276,252,0.0347309,0.297109,0.360987,-1.5,0,0,0,0,-0.155307,-0.211453,0,0,0,0,-0.226548,-0.305741,5328,0,0,0,0,0,0,0,0,0,2.5,0.422906
7316,-0.140625,0.183594,-1.15234,-0.000897572,-0.0324122,-0.0144895,0.0179228,-0.0440031,-2.67275,-6.57554,0.173363,-1.54428,-0.158963,-0.216377,-0.229566,-0.308888,-2.67275,0,0,272,185,272,185,341,180,276,252,0.0317568,0.298582,0.359203,-1.5,0,0,0,1,-0.158963,-0.216377,0,0,0,0,-0.229566,-0.308888,5328,0,0,0,0,0,0,0,0,0,2.5,0.432754
7332,-0.140625,0.183594,-1.15234,-0.000897572,-0.0324122,-0.0144895,0.0179228,-0.0440031,-2.67275,-6.42054,0.169024,-1.54494,-0.162668,-0.221352,-0.232613,-0.312042,-2.67275,0,0,271,183,271,183,343,179,275,252,0.0288343,0.300062,0.373424,-1.5,0,0,0,2,-0.162668,-0.221352,0,0,0,0,-0.232613,-0.312042,5475,0,0,0,0,0,0,0,0,0,2.5,0.442704
7348,-0.03125,0.25,6.33301,-0.0110909,-0.00237906,-0.043797,0.0176609,-0.0440859,-2.67378,-6.42054,0.169024,-1.54494,-0.166421,-0.226378,-0.235649,-0.315157,-2.67378,0,0,271,183,271,183,343,179,275,252,0.0254075,0.301576,0.3876,-1.5,0,0,0,3,-0.166421,-0.226378,0,0,0,0,-0.235649,-0.315157,5475,0,0,0,0,0,0,0,0,0,2.5,0.452755
7364,-0.03125,0.25,6.33301,-0.0110909,-0.00237906,-0.043797,0.0176609,-0.0440859,-2.67378,-6.46291,0.177976,-1.54741,-0.170224,-0.231452,-0.238684,-0.318224,-2.67378,0,0,271,183,271,183,341,179,275,252,0.0224582,0.303066,0.376676,-1.5,0,0,0,0,-0.170224,-0.231452,0,0,0,0,-0.238684,-0.318224,5475,0,0,0,0,0,0,0,0,0,2.5,0.462905
7381,-0.118164,0.349609,2.06348,0.000553269,-0.0211515,0.0446131,0.0176309,-0.0448845,-2.67369,-6.46291,0.177976,-1.54741,-0.174317,-0.236898,-0.241913,-0.321468,-2.67422,0,0,271,183,271,183,341,179,275,252,0.0190908,0.304668,0.371548,-1.5,0,0,0,1,-0.174317,-0.236898,0,0,0,0,-0.241913,-0.321468,5475,0,0,0,0,0,0,0,0,0,2.5,0.473796
7397,-0.151367,0.382812,1.06543,-0.000490068,-0.0229472,0.0681985,0.0176084,-0.0452117,-2.67277,-6.30925,0.158436,-1.55078,-0.178219,-0.242074,-0.244996,-0.324527,-2.67277,0,0,271,182,271,182,341,178,276,254,0.0167961,0.306155,0.385719,-1.5,0,0,0,2,-0.178219,-0.242074,0,0,0,0,-0.244996,-0.324527,5928,0,0,0,0,0,0,0,0,0,2.5,0.484147
7413,-0.18457,0.416016,2.25977,0.00153012,-0.0346097,0.0646878,0.0175954,-0.0456897,-2.67186,-6.30925,0.158436,-1.55078,-0.182171,-0.247297,-0.248126,-0.327606,-2.67186,0,0,271,182,271,182,341,178,276,254,0.0142157,0.30767,0.397495,-1.5,0,0,0,3,-0.182171,-0.247297,0,0,0,0,-0.248126,-0.327606,5928,0,0,0,0,0,0,0,0,0,2.5,0.494595
7430,-0.18457,0.416016,2.25977,0.00153012,-0.0346097,0.0646878,0.0175954,-0.0456897,-2.67186,-6.46429,0.173973,-1.54367,-0.186427,-0.252904,-0.251476,-0.330881,-2.67186,0,0,271,182,271,182,341,178,276,251,0.010986,0.30931,0.384966,-1.5,0,0,0,0,-0.186427,-0.252904,0,0,0,0,-0.251476,-0.330881,5475,0,0,0,0,0,0,0,0,0,2.5,0.505808
7446,-0.250977,0.445312,-3.52148,-0.000423106,0.0368757,0.000945624,0.0178884,-0.0456846,-2.67134,-6.46429,0.173973,-1.54367,-0.190483,-0.258229,-0.25459,-0.333956,-2.67134,0,0,271,182,271,182,341,178,276,251,0.00818087,0.310859,0.382752,-1.5,0,0,0,1,-0.190483,-0.258229,0,0,0,0,-0.25459,-0.333956,5475,0,0,0,0,0,0,0,0,0,2.5,0.516459
7462,-0.241211,0.328125,5.35449,-0.0194674,0.0664997,-0.0346583,0.0174413,-0.0435759,-2.67196,-6.47614,0.177888,-1.53862,-0.194588,-0.263604,-0.257667,-0.337031,-2.67134,0,0,269,182,269,182,341,178,277,250,0.00510001,0.312425,0.394526,-1.5,0,0,0,2,-0.194588,-0.263604,0,0,0,0,-0.257667,-0.337031,5544,0,0,0,0,0,0,0,0,0,2.5,0.527208
7478,-0.141602,0.305664,-3.92676,-0.00323464,0.0122305,-0.0456748,0.0173961,-0.043289,-2.67255,-6.47614,0.177888,-1.53862,-0.198742,-0.269028,-0.260589,-0.339974,-2.67196,0,0,269,182,269,182,341,178,277,250,0.00172395,0.313988,0.408618,-1.5,0,0,0,3,-0.198742,-0.269028,0,0,0,0,-0.260589,-0.339974,5544,0,0,0,0,0,0,0,0,0,2.5,0.538056
7494,-0.141602,0.305664,-3.92676,-0.00323464,0.0122305,-0.0456748,0.0173961,-0.043289,-2.67255,-6.4829,0.194188,-1.53234,-0.202939,-0.274496,-0.263324,-0.342756,-2.67255,0,0,269,182,269,182,340,179,275,251,-0.00162358,0.315539,0.400745,-1.5,0,0,0,0,-0.202939,-0.274496,0,0,0,0,-0.263324,-0.342756,5472,0,0,0,0,0,0,0,0,0,2.5,0.548992
7510,-0.114258,0.305664,0.234375,-0.00851622,-0.063068,-0.0400059,0.017402,-0.0445762,-2.67401,-6.4829,0.194188,-1.53234,-0.206914,-0.279662,-0.265916,-0.345365,-2.67401,0,0,269,182,269,182,340,179,275,251,-0.00522635,0.316994,0.396683,-1.5,0,0,0,1,-0.206914,-0.279662,0,0,0,0,-0.265916,-0.345365,5472,0,0,0,0,0,0,0,0,0,2.5,0.559325
7526,-0.147461,0.305664,-1.93164,-0.00512904,-0.0860831,-0.0117091,0.0173365,-0.0456999,-2.67425,-6.53011,0.171979,-1.54642,-0.211469,-0.285568,-0.269038,-0.348391,-2.67425,0,0,271,183,271,183,341,179,277,251,-0.00865448,0.318664,0.412318,-1.5,0,0,0,2,-0.211469,-0.285568,0,0,0,0,-0.269038,-0.348391,5400,0,0,0,0,0,0,0,0,0,2.5,0.571136
7542,-0.180664,0.323242,-3.58203,0.0110188,-0.0907885,0.0157923,0.0174664,-0.0470148,-2.67409,-6.53011,0.171979,-1.54642,-0.215805,-0.291172,-0.272133,-0.351309,-2.67409,0,0,271,183,271,183,341,179,277,251,-0.0117328,0.320257,0.426345,-1.5,0,0,0,3,-0.215805,-0.291172,0,0,0,0,-0.272133,-0.351309,5400,0,0,0,0,0,0,0,0,0,2.5,0.582343
7558,-0.213867,0.355469,0.856445,0.0157738,-0.055666,0.012867,0.0177213,-0.0479305,-2.67388,-6.34505,0.151479,-1.55748,-0.220193,-0.296824,-0.275342,-0.354305,-2.67388,0,0,271,182,271,182,343,178,276,251,-0.0148185,0.321871,0.415266,-1.5,0,0,0,0,-0.220193,-0.296824,0,0,0,0,-0.275342,-0.354305,5694,0,0,0,0,0,0,0,0,0,2.5,0.593648
7574,-0.274414,0.322266,-2.08789,-0.01092,0.109675,-0.0369873,0.017754,-0.0464603,-2.67443,-6.34505,0.151479,-1.55748,-0.224633,-0.302525,-0.278594,-0.35734,-2.67388,0,0,271,182,271,182,343,178,276,251,-0.0180401,0.323498,0.410116,-1.5,0,0,0,1,-0.224633,-0.302525,0,0,0,0,-0.278594,-0.35734,5694,0,0,0,0,0,0,0,0,0,2.5,0.605049
7590,-0.274414,0.322266,-2.08789,-0.01092,0.109675,-0.0369873,0.017754,-0.0464603,-2.67443,-6.59472,0.168868,-1.53952,-0.229122,-0.308273,-0.281614,-0.360249,-2.67443,0,0,272,180,272,180,343,180,276,248,-0.0215278,0.32511,0.424133,-1.5,0,0,0,2,-0.229122,-0.308273,0,0,0,0,-0.281614,-0.360249,4964,0,0,0,0,0,0,0,0,0,2.5,0.616545
7607,-0.0986328,0.291992,-3.07129,-0.0110181,0.112401,-0.0143541,0.0172516,-0.0426933,-2.67518,-6.59472,0.168868,-1.53952,-0.233659,-0.314067,-0.284489,-0.363049,-2.67518,0,0,272,180,272,180,343,180,276,248,-0.0251149,0.326712,0.438107,-1.5,0,0,0,3,-0.233659,-0.314067,0,0,0,0,-0.284489,-0.363049,4964,0,0,0,0,0,0,0,0,0,2.5,0.628133
7623,-0.00683594,0.325195,-2.0957,0.0095562,0.0439805,0.0150607,0.0173586,-0.04193,-2.675,-6.44436,0.165263,-1.50057,-0.238525,-0.320269,-0.287087,-0.365716,-2.675,0,0,271,180,271,180,343,176,277,250,-0.0283911,0.328411,0.425415,-1.5,0,0,0,0,-0.238525,-0.320269,0,0,0,0,-0.287087,-0.365716,5476,0,0,0,0,0,0,0,0,0,2.5,0.640538
7639,-0.0625,0.324219,1.43555,0.0130414,-0.00583189,0.0235333,0.0175396,-0.0419489,-2.67469,-6.44436,0.165263,-1.50057,-0.243142,-0.326146,-0.289432,-0.368191,-2.67469,0,0,271,180,271,180,343,176,277,250,-0.0314124,0.330021,0.419346,-1.5,0,0,0,1,-0.243142,-0.326146,0,0,0,0,-0.289432,-0.368191,5476,0,0,0,0,0,0,0,0,0,2.5,0.652291
7655,-0.162109,0.291016,-7.10059,-0.000804174,-0.0156039,0.0347605,0.0176032,-0.0421826,-2.67424,-6.50876,0.175354,-1.5294,-0.247797,-0.332062,-0.291761,-0.370674,-2.67424,0,0,271,183,271,183,341,179,276,251,-0.0343769,0.331648,0.433326,-1.5,0,0,0,2,-0.247797,-0.332062,0,0,0,0,-0.291761,-0.370674,5400,0,0,0,0,0,0,0,0,0,2.5,0.664124
7672,-0.232422,0.302734,-0.668945,-0.00167172,-0.0198897,0.0528721,0.0174363,-0.0426197,-2.67295,-6.50876,0.175354,-1.5294,-0.25249,-0.338019,-0.294088,-0.373154,-2.67424,0,0,271,183,271,183,341,179,276,251,-0.0375894,0.333269,0.447263,-1.5,0,0,0,3,-0.25249,-0.338019,0,0,0,0,-0.294088,-0.373154,5400,0,0,0,0,0,0,0,0,0,2.5,0.676038
7687,-0.166016,0.402344,-1.47949,0.00703094,-0.0432657,0.0471069,0.0175054,-0.0431812,-2.67225,-6.6354,0.166817,-1.54783,-0.257219,-0.344015,-0.296471,-0.375634,-2.67225,0,0,272,183,272,183,343,183,277,251,-0.0398106,0.334979,0.439235,-1.5,0,0,0,0,-0.257219,-0.344015,0,0,0,0,-0.296471,-0.375634,4964,0,0,0,0,0,0,0,0,0,2.5,0.688029
7702,-0.107422,0.421875,-3.47949,0.0142985,-0.0524884,0.0102195,0.0177161,-0.0439265,-2.67202,-6.6354,0.166817,-1.54783,-0.261688,-0.349672,-0.298767,-0.378005,-2.67202,0,0,272,183,272,183,343,183,277,251,-0.0427444,0.336536,0.434482,-1.5,0,0,0,1,-0.261688,-0.349672,0,0,0,0,-0.298767,-0.378005,4964,0,0,0,0,0,0,0,0,0,2.5,0.699344
7718,-0.149414,0.388672,0.87207,-0.00757852,-0.0234972,-0.0206773,0.0177198,-0.0443681,-2.67228,-6.6354,0.166817,-1.54783,-0.266495,-0.355747,-0.301285,-0.380588,-2.67228,0,0,272,183,272,183,343,183,277,251,-0.0461591,0.338191,0.448402,-1.5,0,0,0,2,-0.266495,-0.355747,0,0,0,0,-0.301285,-0.380588,4964,0,0,0,0,0,0,0,0,0,2.5,0.711494
7734,-0.21582,0.355469,5.11914,-0.0208121,-0.000927746,-0.0293133,0.0174798,-0.0443792,-2.67267,-6.5301,0.171857,-1.54209,-0.271342,-0.361864,-0.303831,-0.383156,-2.67267,0,0,271,183,271,183,341,179,277,251,-0.0496621,0.339845,0.462279,-1.5,0,0,0,3,-0.271342,-0.361864,0,0,0,0,-0.303831,-0.383156,5400,0,0,0,0,0,0,0,0,0,2.5,0.723727
7750,-0.25293,0.322266,-2.08594,-0.00541387,-0.0236397,-0.0409096,0.0173961,-0.0446151,-2.67321,-6.5301,0.171857,-1.54209,-0.27623,-0.368021,-0.306384,-0.385683,-2.67321,0,0,271,183,271,183,341,179,277,251,-0.0532499,0.341493,0.451055,-1.5,0,0,0,0,-0.27623,-0.368021,0,0,0,0,-0.306384,-0.385683,5400,0,0,0,0,0,0,0,0,0,2.5,0.736041
7766,-0.25293,0.322266,-2.08594,-0.00541387,-0.0236397,-0.0409096,0.0173961,-0.0446151,-2.67321,-6.45509,0.181724,-1.54615,-0.281159,-0.374218,-0.308944,-0.388192,-2.67321,0,0,269,183,269,183,341,179,276,251,-0.0565744,0.343175,0.445192,-1.5,0,0,0,1,-0.281159,-0.374218,0,0,0,0,-0.308944,-0.388192,5544,0,0,0,0,0,0,0,0,0,2.5,0.748436
7782,-0.25293,0.322266,-2.08594,-0.00541387,-0.0236397,-0.0409096,0.0173961,-0.0446151,-2.67321,-6.45509,0.181724,-1.54615,-0.286129,-0.380455,-0.311483,-0.39068,-2.67321,0,0,269,183,269,183,341,179,276,251,-0.0599122,0.344864,0.459069,-1.5,0,0,0,2,-0.286129,-0.380455,0,0,0,0,-0.311483,-0.39068,5544,0,0,0,0,0,0,0,0,0,2.5,0.76091
7798,-0.25293,0.322266,-2.08594,-0.00541387,-0.0236397,-0.0409096,0.0173961,-0.0446151,-2.67321,-6.50917,0.175408,-1.5469,-0.291139,-0.386732,-0.314002,-0.393149,-2.67321,0,0,271,183,271,183,341,179,276,251,-0.0632633,0.346559,0.472903,-1.5,0,0,0,3,-0.291139,-0.386732,0,0,0,0,-0.314002,-0.393149,5400,0,0,0,0,0,0,0,0,0,2.5,0.773464
7814,-0.25293,0.322266,-2.08594,-0.00541387,-0.0236397,-0.0409096,0.0173961,-0.0446151,-2.67321,-6.50917,0.175408,-1.5469,-0.296189,-0.393047,-0.3165,-0.395597,-2.67321,0,0,271,183,271,183,341,179,276,251,-0.0666271,0.348261,0.462277,-1.5,0,0,0,0,-0.296189,-0.393047,0,0,0,0,-0.3165,-0.395597,5400,0,0,0,0,0,0,0,0,0,2.5,0.786095
7830,-0.25293,0.322266,-2.08594,-0.00541387,-0.0236397,-0.0409096,0.0173961,-0.0446151,-2.67321,-6.48844,0.162937,-1.53955,-0.301279,-0.399402,-0.318979,-0.398026,-2.67321,0,0,272,183,272,183,343,178,276,251,-0.0700043,0.34997,0.456191,-1.5,0,0,0,0,-0.301279,-0.399402,0,0,0,0,-0.318979,-0.398026,5402,0,0,0,0,0,0,0,0,0,2.5,0.798805
7846,-0.0205078,0.279297,-6.62891,-0.00448449,-0.0299931,0.0071885,0.0173694,-0.0454329,-2.67399,-6.48844,0.162937,-1.53955,-0.306408,-0.405796,-0.32149,-0.400458,-2.67399,0,0,272,183,272,183,343,178,276,251,-0.0738107,0.35163,0.441761,-1.5,0,0,0,0,-0.306408,-0.405796,0,0,0,0,-0.32149,-0.400458,5402,0,0,0,0,0,0,0,0,0,2.5,0.811591
7861,-0.09375,0.279297,2.01562,0.00273541,-0.047174,0.0191669,0.0173982,-0.0467757,-2.67369,-6.44197,0.165757,-1.54957,-0.311254,-0.411825,-0.32389,-0.402746,-2.67399,0,0,271,183,271,183,343,178,276,251,-0.0770123,0.353246,0.428649,-1.5,0,0,0,0,-0.311254,-0.411825,0,0,0,0,-0.32389,-0.402746,5475,0,0,0,0,0,0,0,0,0,2.5,0.823649
7878,-0.160156,0.279297,-3.22266,0.00578135,-0.0364294,0.0159741,0.0174928,-0.0473059,-2.67346,-6.44197,0.165757,-1.54957,-0.316791,-0.418701,-0.326681,-0.40537,-2.67369,0,0,271,183,271,183,343,178,276,251,-0.0805034,0.355117,0.414239,-1.5,0,0,0,0,-0.316791,-0.418701,0,0,0,0,-0.326681,-0.40537,5475,0,0,0,0,0,0,0,0,0,2.5,0.837402
7894,-0.226562,0.279297,-6.96484,-0.00512028,-0.00635578,0.0102832,0.0174785,-0.0474708,-2.67332,-6.60606,0.173831,-1.54777,-0.322046,-0.425213,-0.329453,-0.407926,-2.67332,0,0,272,183,272,183,341,178,277,250,-0.0837871,0.356904,0.401136,-1.5,0,0,0,0,-0.322046,-0.425213,0,0,0,0,-0.329453,-0.407926,5256,0,0,0,0,0,0,0,0,0,2.5,0.850426
7909,-0.224609,0.298828,6.91992,-0.00795067,0.0182727,0.00708278,0.0170898,-0.0471191,-2.6731,-6.60606,0.173831,-1.54777,-0.327013,-0.431355,-0.332044,-0.410291,-2.6731,0,0,272,183,272,183,341,178,277,250,-0.0869343,0.358576,0.38923,-1.5,0,0,0,0,-0.327013,-0.431355,0,0,0,0,-0.332044,-0.410291,5256,0,0,0,0,0,0,0,0,0,2.5,0.86271
7926,-0.165039,0.332031,4.73242,0.00196768,0.0203639,0.00126788,0.0173753,-0.0469559,-2.67317,-6.50461,0.183021,-1.54744,-0.332689,-0.438358,-0.334924,-0.412901,-2.67317,0,0,271,182,271,182,340,178,275,251,-0.090679,0.360446,0.376154,-1.5,0,0,0,0,-0.332689,-0.438358,0,0,0,0,-0.334924,-0.412901,5475,0,0,0,0,0,0,0,0,0,2.5,0.876717
7942,-0.117188,0.365234,2.59668,0.000356385,0.0217925,-0.00386161,0.0174248,-0.046656,-2.67322,-6.50461,0.183021,-1.54744,-0.338075,-0.44499,-0.337566,-0.41535,-2.67322,0,0,271,182,271,182,340,178,275,251,-0.0942108,0.362214,0.364256,-1.5,0,0,0,0,-0.338075,-0.44499,0,0,0,0,-0.337566,-0.41535,5475,0,0,0,0,0,0,0,0,0,2.5,0.88998
7958,-0.114258,0.384766,-4.57812,-0.00783613,0.021675,-0.00824458,0.0173662,-0.0463421,-2.67332,-6.53116,0.191331,-1.53188,-0.343504,-0.451661,-0.340146,-0.417758,-2.67332,0,0,269,182,269,182,341,178,275,248,-0.0977788,0.363982,0.352728,-1.5,0,0,0,0,-0.343504,-0.451661,0,0,0,0,-0.340146,-0.417758,5320,0,0,0,0,0,0,0,0,0,2.5,0.903322
7974,-0.114258,0.384766,3.35547,-0.00744384,-0.0103937,-0.00766431,0.0172227,-0.0462489,-2.67355,-6.53116,0.191331,-1.53188,-0.348973,-0.45837,-0.34268,-0.420128,-2.67332,0,0,269,182,269,182,341,178,275,248,-0.101301,0.365764,0.341564,-1.5,0,0,0,0,-0.348973,-0.45837,0,0,0,0,-0.34268,-0.420128,5320,0,0,0,0,0,0,0,0,0,2.5,0.91674
7991,-0.114258,0.384766,3.35547,-0.00744384,-0.0103937,-0.00766431,0.0172227,-0.0462489,-2.67355,-6.52368,0.183307,-1.53817,-0.354828,-0.465539,-0.345349,-0.422596,-2.67355,0,0,269,182,269,182,341,178,277,250,-0.105177,0.367635,0.330089,-1.5,0,0,0,0,-0.354828,-0.465539,0,0,0,0,-0.345349,-0.422596,5472,0,0,0,0,0,0,0,0,0,2.5,0.931078
8006,-0.114258,0.384766,-6.54297,-0.00234325,-0.0451173,-0.0136256,0.0172532,-0.0473198,-2.67391,-6.52368,0.183307,-1.53817,-0.360031,-0.471899,-0.347722,-0.424775,-2.67391,0,0,269,182,269,182,341,178,277,250,-0.108694,0.369277,0.320292,-1.5,0,0,0,0,-0.360031,-0.471899,0,0,0,0,-0.347722,-0.424775,5472,0,0,0,0,0,0,0,0,0,2.5,0.943798
8023,-0.114258,0.384766,2.23633,-0.00602957,-0.0460353,-0.00889931,0.0171743,-0.0479726,-2.67405,-6.44646,0.18524,-1.55362,-0.365973,-0.479148,-0.350544,-0.427299,-2.67405,0,0,269,182,269,182,340,178,276,252,-0.112569,0.37118,0.309532,-1.5,0,0,0,0,-0.365973,-0.479148,0,0,0,0,-0.350544,-0.427299,5698,0,0,0,0,0,0,0,0,0,2.5,0.958296
8039,-0.124023,0.384766,-4.69629,0.00567037,-0.0314198,-0.0124282,0.0172809,-0.048454,-2.67421,-6.44646,0.18524,-1.55362,-0.371255,-0.485579,-0.353095,-0.429548,-2.67421,0,0,269,182,269,182,340,178,276,252,-0.116031,0.372863,0.300344,-1.5,0,0,0,0,-0.371255,-0.485579,0,0,0,0,-0.353095,-0.429548,5698,0,0,0,0,0,0,0,0,0,2.5,0.971158
8055,-0.157227,0.384766,-5.71777,-0.00112528,0.0220412,-0.015127,0.017329,-0.0482959,-2.67441,-6.53543,0.183568,-1.53588,-0.37729,-0.49291,-0.355992,-0.432104,-2.67441,0,0,271,182,271,182,341,176,275,248,-0.119984,0.374779,0.290255,-1.5,0,0,0,0,-0.37729,-0.49291,0,0,0,0,-0.355992,-0.432104,5328,0,0,0,0,0,0,0,0,0,2.5,0.985819
8071,-0.148438,0.384766,-2.89746,-0.0186957,0.113612,-0.0232156,0.0170513,-0.0456866,-2.67503,-6.53543,0.183568,-1.53588,-0.383014,-0.499848,-0.358682,-0.434486,-2.67441,0,0,271,182,271,182,341,176,275,248,-0.123614,0.376609,0.281068,-1.5,0,0,0,0,-0.383014,-0.499848,0,0,0,0,-0.358682,-0.434486,5328,0,0,0,0,0,0,0,0,0,2.5,0.999697
8087,-0.0820312,0.384766,-1.0459,-0.00729131,0.0795469,0.000804454,0.0168849,-0.0444269,-2.67506,-6.49951,0.166649,-1.51089,-0.388777,-0.506822,-0.361008,-0.436623,-2.67503,0,0,272,180,272,180,343,176,276,248,-0.127547,0.378341,0.272178,-1.5,0,0,0,0,-0.388777,-0.506822,0,0,0,0,-0.361008,-0.436623,5256,0,0,0,0,0,0,0,0,0,2.5,1.01364
8101,-0.078125,0.338867,0.853516,0.0149179,0.0238958,0.0192157,0.017066,-0.043996,-2.67482,-6.49951,0.166649,-1.51089,-0.393848,-0.51295,-0.362875,-0.43838,-2.67482,0,0,272,180,272,180,343,176,276,248,-0.130559,0.379945,0.264635,-1.5,0,0,0,0,-0.393848,-0.51295,0,0,0,0,-0.362875,-0.43838,5256,0,0,0,0,0,0,0,0,0,2.5,1.0259
8118,-0.136719,0.240234,-3.49316,0.00399419,-0.00358782,0.0456564,0.0171881,-0.0440356,-2.67427,-6.49951,0.166649,-1.51089,-0.40004,-0.520426,-0.365056,-0.440501,-2.67427,0,0,272,180,272,180,343,176,276,248,-0.134061,0.38194,0.255745,-1.5,0,0,0,0,-0.40004,-0.520426,0,0,0,0,-0.365056,-0.440501,5256,0,0,0,0,0,0,0,0,0,2.5,1.04085
8133,-0.203125,0.239258,-4.5166,-0.000799563,-0.0133851,0.0730246,0.0171337,-0.0442211,-2.67328,-6.4471,0.169841,-1.53627,-0.405535,-0.527052,-0.366966,-0.442374,-2.67328,0,0,271,182,271,182,343,178,276,251,-0.136887,0.383779,0.248154,-1.5,0,0,0,0,-0.405535,-0.527052,0,0,0,0,-0.366966,-0.442374,5402,0,0,0,0,0,0,0,0,0,2.5,1.0541
8150,-0.223633,0.270508,-3.17383,0.0149916,-0.00477649,0.0621783,0.0172874,-0.0443765,-2.67237,-6.4471,0.169841,-1.53627,-0.411797,-0.534595,-0.369135,-0.444506,-2.67237,0,0,271,182,271,182,343,178,276,251,-0.140216,0.38585,0.239817,-1.5,0,0,0,0,-0.411797,-0.534595,0,0,0,0,-0.369135,-0.444506,5402,0,0,0,0,0,0,0,0,0,2.5,1.06919
8166,-0.223633,0.270508,-3.17383,0.0149916,-0.00477649,0.0621783,0.0172874,-0.0443765,-2.67237,-6.48403,0.174904,-1.54875,-0.417724,-0.541728,-0.371163,-0.446516,-2.67237,0,0,271,183,271,183,341,179,276,252,-0.143845,0.38769,0.232232,-1.5,0,0,0,0,-0.417724,-0.541728,0,0,0,0,-0.371163,-0.446516,5475,0,0,0,0,0,0,0,0,0,2.5,1.08346
8181,-0.223633,0.291016,6.63574,-0.040832,0.275648,-0.0625959,0.0169411,-0.0379481,-2.67297,-6.48403,0.174904,-1.54875,-0.423309,-0.548444,-0.372904,-0.448319,-2.67219,0,0,271,183,271,183,341,179,276,252,-0.147143,0.389438,0.225339,-1.5,0,0,0,0,-0.423309,-0.548444,0,0,0,0,-0.372904,-0.448319,5475,0,0,0,0,0,0,0,0,0,2.5,1.09689
8198,-0.173828,0.257812,3.81445,-0.0660537,0.291227,-0.0376918,0.016037,-0.0337669,-2.67357,-6.48239,0.19443,-1.54549,-0.429666,-0.556085,-0.374342,-0.450048,-2.67297,0,0,269,183,269,183,340,179,275,251,-0.151378,0.391244,0.217769,-1.5,0,0,0,0,-0.429666,-0.556085,0,0,0,0,-0.374342,-0.450048,5472,0,0,0,0,0,0,0,0,0,2.5,1.11217
8214,-0.0410156,0.224609,3.64062,-0.0344824,0.198568,0.0161038,0.0154664,-0.0308117,-2.67342,-6.48239,0.19443,-1.54549,-0.435661,-0.563296,-0.374824,-0.450993,-2.67342,0,0,269,183,269,183,340,179,275,251,-0.155061,0.392909,0.210881,-1.5,0,0,0,0,-0.435661,-0.563296,0,0,0,0,-0.374824,-0.450993,5472,0,0,0,0,0,0,0,0,0,2.5,1.12659
8229,-0.0410156,0.224609,3.64062,-0.0344824,0.198568,0.0161038,0.0154664,-0.0308117,-2.67342,-6.56838,0.186036,-1.50621,-0.441285,-0.570068,-0.375032,-0.451687,-2.67342,0,0,272,183,272,183,341,183,275,252,-0.158237,0.394515,0.204621,-1.5,0,0,0,0,-0.441285,-0.570068,0,0,0,0,-0.375032,-0.451687,4968,0,0,0,0,0,0,0,0,0,2.5,1.14014
8245,-0.209961,0.158203,-6.7334,0.0158739,-0.017164,0.068423,0.0156233,-0.0296914,-2.67158,-6.56838,0.186036,-1.50621,-0.447288,-0.577302,-0.375186,-0.452402,-2.67158,0,0,272,183,272,183,341,183,275,252,-0.160575,0.396525,0.198145,-1.5,0,0,0,0,-0.447288,-0.577302,0,0,0,0,-0.375186,-0.452402,4968,0,0,0,0,0,0,0,0,0,2.5,1.1546
8262,-0.209961,0.158203,-6.7334,0.0158739,-0.017164,0.068423,0.0156233,-0.0296914,-2.67158,-6.50649,0.181471,-1.53253,-0.453666,-0.585001,-0.375232,-0.453121,-2.67158,0,0,271,188,271,188,341,184,276,256,-0.164167,0.398349,0.191489,-1.5,0,0,0,0,-0.453666,-0.585001,0,0,0,0,-0.375232,-0.453121,5328,0,0,0,0,0,0,0,0,0,2.5,1.17
8277,-0.227539,0.152344,-4.22461,0.000519895,-0.0105039,0.0122125,0.0158563,-0.0310995,-2.66977,-6.50649,0.181471,-1.53253,-0.459295,-0.591804,-0.375335,-0.453802,-2.67006,0,0,271,188,271,188,341,184,276,256,-0.166477,0.400221,0.185808,-1.5,0,0,0,0,-0.459295,-0.591804,0,0,0,0,-0.375335,-0.453802,5328,0,0,0,0,0,0,0,0,0,2.5,1.18361
8292,-0.227539,0.152344,-4.22461,0.000519895,-0.0105039,0.0122125,0.0158563,-0.0310995,-2.66977,-6.39873,0.190659,-1.56897,-0.464927,-0.598618,-0.375523,-0.454546,-2.66977,0,0,271,191,271,191,340,184,273,259,-0.169513,0.401902,0.180293,-1.5,0,0,0,0,-0.464927,-0.598618,0,0,0,0,-0.375523,-0.454546,5625,0,0,0,0,0,0,0,0,0,2.5,1.19724
8308,-0.0947266,0.21875,-2.68164,-0.0079155,0.0299125,-0.0486258,0.015682,-0.0305453,-2.67086,-6.39873,0.190659,-1.56897,-0.470938,-0.605899,-0.375735,-0.455344,-2.66977,0,0,271,191,271,191,340,184,273,259,-0.172934,0.403647,0.17459,-1.5,0,0,0,0,-0.470938,-0.605899,0,0,0,0,-0.375735,-0.455344,5625,0,0,0,0,0,0,0,0,0,2.5,1.2118
8324,-0.0634766,0.239258,-5.86914,-0.00489957,0.0120302,-0.0236198,0.015636,-0.0303022,-2.67126,-6.43367,0.222775,-1.56569,-0.476951,-0.613192,-0.375879,-0.456063,-2.67126,0,0,268,189,268,189,339,186,272,259,-0.1772,0.405124,0.169065,-1.5,0,0,0,0,-0.476951,-0.613192,0,0,0,0,-0.375879,-0.456063,5475,0,0,0,0,0,0,0,0,0,2.5,1.22638
8341,-0.0664062,0.183594,7.26855,0.0133015,-0.0160781,-0.00773114,0.0157931,-0.0304935,-2.67138,-6.43367,0.222775,-1.56569,-0.483343,-0.620954,-0.376013,-0.456813,-2.67138,0,0,268,189,268,189,339,186,272,259,-0.180901,0.406945,0.163381,-1.5,0,0,0,0,-0.483343,-0.620954,0,0,0,0,-0.376013,-0.456813,5475,0,0,0,0,0,0,0,0,0,2.5,1.24191
8357,-0.132812,0.117188,6.7041,0.0033033,-0.0042289,-0.0121557,0.0159442,-0.030617,-2.67152,-6.43597,0.207072,-1.54634,-0.48936,-0.628271,-0.376152,-0.457548,-2.67152,0,0,269,189,269,189,340,184,273,256,-0.184406,0.40866,0.15821,-1.5,0,0,0,0,-0.48936,-0.628271,0,0,0,0,-0.376152,-0.457548,5400,0,0,0,0,0,0,0,0,0,2.5,1.25654
8373,-0.212891,0.0839844,-0.461914,-0.0121756,0.0707889,-0.03354,0.0157165,-0.0292713,-2.67229,-6.43597,0.207072,-1.54634,-0.49538,-0.635599,-0.376294,-0.458294,-2.67152,0,0,269,189,269,189,340,184,273,256,-0.187839,0.410405,0.153203,-1.5,0,0,0,0,-0.49538,-0.635599,0,0,0,0,-0.376294,-0.458294,5400,0,0,0,0,0,0,0,0,0,2.5,1.2712
8390,-0.212891,0.0839844,-0.461914,-0.0121756,0.0707889,-0.03354,0.0157165,-0.0292713,-2.67229,-6.43602,0.207027,-1.54711,-0.501778,-0.643398,-0.376348,-0.459008,-2.67229,0,0,269,189,269,189,340,184,273,256,-0.19182,0.41205,0.148056,-1.5,0,0,0,0,-0.501778,-0.643398,0,0,0,0,-0.376348,-0.459008,5400,0,0,0,0,0,0,0,0,0,2.5,1.2868
8406,-0.0214844,0.248047,1.70801,-0.0104859,0.0660659,-0.00220593,0.0154018,-0.0271644,-2.67246,-6.43602,0.207027,-1.54711,-0.507799,-0.650749,-0.376269,-0.459577,-2.67246,0,0,269,189,269,189,340,184,273,256,-0.191921,0.412017,0.143373,-1.5,0,0,0,0,-0.507799,-0.650749,0,0,0,0,-0.376269,-0.459577,5400,0,0,0,0,0,0,0,0,0,2.5,1.3015
8422,-0.03125,0.220703,-4.73535,-0.0063435,0.0463029,0.00790814,0.0153139,-0.0264932,-2.67238,-6.42369,0.195621,-1.56034,-0.513816,-0.658106,-0.375948,-0.459969,-2.67238,0,0,271,191,271,191,339,186,273,260,-0.191875,0.412033,0.138835,-1.5,0,0,0,0,-0.513816,-0.658106,0,0,0,0,-0.375948,-0.459969,5550,0,0,0,0,0,0,0,0,0,2.5,1.31621
8438,-0.0976562,0.1875,3.61328,0.00319233,0.0902978,0.00599997,0.0153708,-0.0254839,-2.67223,-6.42369,0.195621,-1.56034,-0.519827,-0.665469,-0.3755,-0.460286,-2.67223,0,0,271,191,271,191,339,186,273,260,-0.191782,0.412063,0.134444,-1.5,0,0,0,0,-0.519827,-0.665469,0,0,0,0,-0.3755,-0.460286,5550,0,0,0,0,0,0,0,0,0,2.5,1.33094
8454,-0.164062,0.170898,-5.59668,-0.0249603,0.254916,-0.0181371,0.0151824,-0.0224398,-2.67235,-6.45464,0.184605,-1.54925,-0.525829,-0.672836,-0.37482,-0.460474,-2.67235,0,0,271,189,271,189,340,188,275,260,-0.191858,0.412038,0.130453,-1.5,0,0,0,0,-0.525829,-0.672836,0,0,0,0,-0.37482,-0.460474,5400,0,0,0,0,0,0,0,0,0,2.5,1.34567
8471,-0.240234,0.101562,6.7793,-0.0781426,0.671174,-0.186955,0.0134538,-0.00770191,-2.6755,-6.45464,0.184605,-1.54925,-0.53219,-0.680665,-0.37383,-0.460511,-2.67235,0,0,271,189,271,189,340,188,275,260,-0.191858,0.412038,0.126071,-1.5,0,0,0,0,-0.53219,-0.680665,0,0,0,0,-0.37383,-0.460511,5400,0,0,0,0,0,0,0,0,0,2.5,1.36133
8486,-0.240234,0.0498047,0.399414,-0.114804,0.870759,-0.158131,0.0119006,0.00404633,-2.67775,-6.45464,0.184605,-1.54925,-0.537412,-0.687109,-0.372056,-0.459898,-2.6755,0,0,271,189,271,189,340,188,275,260,-0.193701,0.411432,0.122577,-1.5,0,0,0,0,-0.537412,-0.687109,0,0,0,0,-0.372056,-0.459898,5400,0,0,0,0,0,0,0,0,0,2.5,1.37422
8500,-0.240234,-0.0830078,-4.64941,-0.157451,0.928022,-0.108238,0.00985854,0.0167081,-2.67917,-6.357,0.198551,-1.48347,-0.542963,-0.693993,-0.368629,-0.458209,-2.67775,0,0,269,192,269,192,340,191,273,263,-0.195018,0.410995,0.11918,-1.5,0,0,0,0,-0.542963,-0.693993,0,0,0,0,-0.368629,-0.458209,5544,0,0,0,0,0,0,0,0,0,2.5,1.38799
8517,-0.240234,-0.217773,7.31152,-0.138704,0.791161,-0.0402011,0.0078276,0.0283104,-2.67982,-6.357,0.198551,-1.48347,-0.54916,-0.701742,-0.362102,-0.454416,-2.67982,0,0,269,192,269,192,340,191,273,263,-0.19623,0.41059,0.115176,-1.5,0,0,0,0,-0.54916,-0.701742,0,0,0,0,-0.362102,-0.454416,5544,0,0,0,0,0,0,0,0,0,2.5,1.40348
8532,0,-0.200195,-7.35547,0.0253882,0.535198,0.125834,0.00744947,0.0364628,-2.67854,-6.357,0.198551,-1.48347,-0.554523,-0.708517,-0.354882,-0.450037,-2.67854,0,0,269,192,269,192,340,191,273,263,-0.195484,0.410839,0.111758,-1.5,0,0,0,0,-0.554523,-0.708517,0,0,0,0,-0.354882,-0.450037,5544,0,0,0,0,0,0,0,0,0,2.5,1.41703
8549,-0.107422,-0.510742,-4.4541,-0.0199622,0.11996,0.205031,0.00755602,0.0388093,-2.67572,-6.357,0.198551,-1.48347,-0.560112,-0.715664,-0.346297,-0.444878,-2.67572,0,0,269,192,269,192,340,191,273,263,-0.193828,0.41139,0.10822,-1.5,0,0,0,0,-0.560112,-0.715664,0,0,0,0,-0.346297,-0.444878,5544,0,0,0,0,0,0,0,0,0,2.5,1.43133
8565,-0.107422,-0.510742,-4.4541,-0.0199622,0.11996,0.205031,0.00755602,0.0388093,-2.67572,-6.357,0.198551,-1.48347,-0.565897,-0.723166,-0.337031,-0.439331,-2.67572,0,0,269,192,269,192,340,191,273,263,-0.193828,0.41139,0.104585,-1.5,0,0,0,0,-0.565897,-0.723166,0,0,0,0,-0.337031,-0.439331,5544,0,0,0,0,0,0,0,0,0,2.5,1.44633
8581,-0.0917969,-0.140625,4.14941,-0.0568017,-0.275943,0.204724,0.00781096,0.0326675,-2.66605,-6.357,0.198551,-1.48347,-0.571202,-0.730143,-0.328524,-0.434277,-2.66892,0,0,269,192,269,192,340,191,273,263,-0.189843,0.412693,0.101277,-1.5,0,0,0,0,-0.571202,-0.730143,0,0,0,0,-0.328524,-0.434277,5544,0,0,0,0,0,0,0,0,0,2.5,1.46029
8597,-0.158203,-0.0742188,6.2168,-0.0313183,-0.369235,0.157089,0.00740552,0.0275706,-2.66381,-6.65178,0.172027,-1.63627,-0.576373,-0.737041,-0.320531,-0.429489,-2.66605,0,0,273,222,273,222,343,222,277,290,-0.188159,0.413235,0.0980715,-1.5,0,0,0,0,-0.576373,-0.737041,0,0,0,0,-0.320531,-0.429489,4896,0,0,0,0,0,0,0,0,0,2.5,1.47408
8613,-0.152344,-0.0078125,-7.06738,0.0262989,-0.394492,0.0943558,0.00774405,0.0221951,-2.66238,-6.65178,0.172027,-1.63627,-0.581428,-0.743867,-0.313699,-0.425161,-2.66238,0,0,273,222,273,222,343,222,277,290,-0.185998,0.413923,0.0949675,-1.5,0,0,0,0,-0.581428,-0.743867,0,0,0,0,-0.313699,-0.425161,4896,0,0,0,0,0,0,0,0,0,2.5,1.48773
8629,-0.152344,-0.0078125,-7.06738,0.0262989,-0.394492,0.0943558,0.00774405,0.0221951,-2.66238,-6.50939,0.227584,-1.66211,-0.586383,-0.750628,-0.307554,-0.421243,-2.66238,0,0,269,222,269,222,339,216,271,287,-0.185998,0.413923,0.0919618,-1.5,0,0,0,0,-0.586383,-0.750628,0,0,0,0,-0.307554,-0.421243,5325,0,0,0,0,0,0,0,0,0,2.5,1.50126
8645,-0.0859375,0.00488281,2.01172,-0.00208709,-0.185813,-0.030231,0.00806208,0.0145838,-2.66256,-6.50939,0.227584,-1.66211,-0.591243,-0.757329,-0.301848,-0.41758,-2.66256,0,0,269,222,269,222,339,216,271,287,-0.186102,0.41389,0.0890531,-1.5,0,0,0,0,-0.591243,-0.757329,0,0,0,0,-0.301848,-0.41758,5325,0,0,0,0,0,0,0,0,0,2.5,1.51466
8662,-0.0859375,0.00488281,2.01172,-0.00208709,-0.185813,-0.030231,0.00806208,0.0145838,-2.66256,-6.42285,0.259196,-1.66334,-0.596316,-0.76439,-0.29652,-0.414113,-2.66256,0,0,266,213,266,213,337,211,271,285,-0.186102,0.41389,0.0860614,-1.5,0,0,0,0,-0.596316,-0.76439,0,0,0,0,-0.29652,-0.414113,5476,0,0,0,0,0,0,0,0,0,2.5,1.52878
8677,-0.0234375,0,6.55078,0.0280094,-0.0628145,-0.0621507,0.00851009,0.0120681,-2.66415,-6.42285,0.259196,-1.66334,-0.60072,-0.770573,-0.291997,-0.411188,-2.66415,0,0,266,213,266,213,337,211,271,285,-0.187038,0.413593,0.0835083,-1.5,0,0,0,0,-0.60072,-0.770573,0,0,0,0,-0.291997,-0.411188,5476,0,0,0,0,0,0,0,0,0,2.5,1.54115
8692,-0.0234375,-0.0175781,-3.44922,0.0322778,-0.0287291,-0.0550003,0.00896228,0.0116612,-2.6649,-6.44924,0.26398,-1.61657,-0.605058,-0.776714,-0.287675,-0.408443,-2.6649,0,0,267,211,267,211,336,206,269,278,-0.187481,0.413452,0.0810297,-1.5,0,0,0,0,-0.605058,-0.776714,0,0,0,0,-0.287675,-0.408443,5328,0,0,0,0,0,0,0,0,0,2.5,1.55343
8708,-0.0332031,-0.0839844,-1.12109,0.00484868,0.0432525,-0.0284499,0.00946077,0.0122993,-2.66642,-6.44924,0.26398,-1.61657,-0.609615,-0.78322,-0.283115,-0.405594,-2.6649,0,0,267,211,267,211,336,206,269,278,-0.187481,0.413452,0.0784667,-1.5,0,0,0,0,-0.609615,-0.78322,0,0,0,0,-0.283115,-0.405594,5328,0,0,0,0,0,0,0,0,0,2.5,1.56644
8724,-0.0332031,-0.0839844,-1.12109,0.00484868,0.0432525,-0.0284499,0.00946077,0.0122993,-2.66642,-6.35727,0.263852,-1.60794,-0.614096,-0.78968,-0.278466,-0.402794,-2.66642,0,0,265,209,265,209,337,206,269,279,-0.188376,0.413166,0.0759832,-1.5,0,0,0,0,-0.614096,-0.78968,0,0,0,0,-0.278466,-0.402794,5548,0,0,0,0,0,0,0,0,0,2.5,1.57936
8740,-0.0908203,-0.143555,-5.77344,0.0192175,0.0429905,-0.0244971,0.00986984,0.013325,-2.66657,-6.35727,0.263852,-1.60794,-0.618502,-0.796096,-0.273791,-0.40001,-2.66657,0,0,265,209,265,209,337,206,269,279,-0.188461,0.413138,0.0735784,-1.5,0,0,0,0,-0.618502,-0.796096,0,0,0,0,-0.273791,-0.40001,5548,0,0,0,0,0,0,0,0,0,2.5,1.59219
8757,-0.0908203,-0.0546875,-7.19531,-0.011267,0.0770804,-0.00966626,0.00980477,0.014366,-2.66681,-6.42895,0.239627,-1.61621,-0.623101,-0.802863,-0.268688,-0.39703,-2.66681,0,0,268,211,268,211,336,207,271,281,-0.188601,0.413094,0.0711066,-1.5,0,0,0,0,-0.623101,-0.802863,0,0,0,0,-0.268688,-0.39703,5624,0,0,0,0,0,0,0,0,0,2.5,1.60573
8773,-0.0908203,-0.0205078,3.40137,-0.0014787,0.0640204,0.0287398,0.00973782,0.0152873,-2.6665,-6.42895,0.239627,-1.61621,-0.62735,-0.809187,-0.263789,-0.394167,-2.6665,0,0,268,211,268,211,336,207,271,281,-0.188418,0.413152,0.0688575,-1.5,0,0,0,0,-0.62735,-0.809187,0,0,0,0,-0.263789,-0.394167,5624,0,0,0,0,0,0,0,0,0,2.5,1.61837
8789,-0.203125,-0.0830078,7.17383,0.0173663,0.0552661,0.0735775,0.0100259,0.0160333,-2.66555,-6.37208,0.233746,-1.61176,-0.631519,-0.815463,-0.258813,-0.391277,-2.66555,0,0,268,211,268,211,337,207,271,281,-0.18786,0.413331,0.0666781,-1.5,0,0,0,0,-0.631519,-0.815463,0,0,0,0,-0.258813,-0.391277,5624,0,0,0,0,0,0,0,0,0,2.5,1.63093
8806,-0.205078,-0.0146484,2.2334,0.00312968,0.0924586,0.10198,0.010407,0.0184022,-2.66286,-6.37208,0.233746,-1.61176,-0.63586,-0.822081,-0.253441,-0.388205,-2.66286,0,0,268,211,268,211,337,207,271,281,-0.186281,0.413833,0.0644381,-1.5,0,0,0,0,-0.63586,-0.822081,0,0,0,0,-0.253441,-0.388205,5624,0,0,0,0,0,0,0,0,0,2.5,1.64416
8822,-0.0908203,0,6.2334,0.00189241,0.0601135,0.102587,0.0104693,0.019306,-2.66139,-6.57659,0.257307,-1.58969,-0.639859,-0.828261,-0.248079,-0.385212,-2.66139,0,0,268,211,268,211,337,209,271,279,-0.185419,0.414105,0.0623987,-1.5,0,0,0,0,-0.639859,-0.828261,0,0,0,0,-0.248079,-0.385212,5040,0,0,0,0,0,0,0,0,0,2.5,1.65652
8838,-0.078125,0,-1.24609,0.00827236,0.0136953,0.0976748,0.0106256,0.0195399,-2.66006,-6.57659,0.257307,-1.58969,-0.643773,-0.834394,-0.242646,-0.382197,-2.66006,0,0,268,211,268,211,337,209,271,279,-0.184634,0.414352,0.060425,-1.5,0,0,0,0,-0.643773,-0.834394,0,0,0,0,-0.242646,-0.382197,5040,0,0,0,0,0,0,0,0,0,2.5,1.66879
8854,-0.078125,0,-5.5293,0.00884365,-0.00476493,0.0607791,0.0108128,0.0194409,-2.65907,-6.37865,0.27708,-1.61112,-0.647598,-0.840477,-0.237229,-0.379216,-2.65907,0,0,264,213,264,213,336,209,269,282,-0.184051,0.414535,0.0585126,-1.5,0,0,0,0,-0.647598,-0.840477,0,0,0,0,-0.237229,-0.379216,5548,0,0,0,0,0,0,0,0,0,2.5,1.68095
8871,-0.078125,0,6.84277,-0.00972444,0.0252991,-0.0192507,0.0107764,0.0198296,-2.65906,-6.37865,0.27708,-1.61112,-0.651568,-0.84689,-0.231521,-0.376095,-2.65907,0,0,264,213,264,213,336,209,269,282,-0.184051,0.414535,0.0565469,-1.5,0,0,0,0,-0.651568,-0.84689,0,0,0,0,-0.231521,-0.376095,5548,0,0,0,0,0,0,0,0,0,2.5,1.69378
8886,-0.078125,0,6.84277,-0.00972444,0.0252991,-0.0192507,0.0107764,0.0198296,-2.65906,-6.35876,0.291682,-1.60529,-0.654993,-0.852505,-0.226499,-0.373347,-2.65906,0,0,263,212,263,212,335,209,268,282,-0.184046,0.414536,0.0548685,-1.5,0,0,0,0,-0.654993,-0.852505,0,0,0,0,-0.226499,-0.373347,5548,0,0,0,0,0,0,0,0,0,2.5,1.70501
8901,-0.078125,0,-0.331055,0.00197349,-0.0139369,-0.0369729,0.0106791,0.0198388,-2.66011,-6.35876,0.291682,-1.60529,-0.658342,-0.858078,-0.221493,-0.370605,-2.65906,0,0,263,212,263,212,335,209,268,282,-0.184046,0.414536,0.0532399,-1.5,0,0,0,0,-0.658342,-0.858078,0,0,0,0,-0.221493,-0.370605,5548,0,0,0,0,0,0,0,0,0,2.5,1.71616
8917,-0.078125,0,6.70508,-0.00820159,-0.0393422,-0.0150832,0.0105621,0.019352,-2.66035,-6.35876,0.291682,-1.60529,-0.66183,-0.863977,-0.216209,-0.367695,-2.66035,0,0,263,212,263,212,335,209,268,282,-0.184802,0.414299,0.0515549,-1.5,0,0,0,0,-0.66183,-0.863977,0,0,0,0,-0.216209,-0.367695,5548,0,0,0,0,0,0,0,0,0,2.5,1.72795
8933,-0.078125,0,5.52441,-0.00310398,-0.054185,0.0108426,0.0105418,0.0186135,-2.66029,-6.43459,0.306921,-1.61245,-0.665235,-0.86983,-0.211059,-0.364837,-2.66029,0,0,263,212,263,212,335,211,267,282,-0.184766,0.414311,0.0499232,-1.5,0,0,0,0,-0.665235,-0.86983,0,0,0,0,-0.211059,-0.364837,5254,0,0,0,0,0,0,0,0,0,2.5,1.73966
8949,-0.102539,-0.0195312,5.78711,0.00163406,-0.0480696,0.0234698,0.0105893,0.0179244,-2.65996,-6.43459,0.306921,-1.61245,-0.668559,-0.875638,-0.206063,-0.362061,-2.65996,0,0,263,212,263,212,335,211,267,282,-0.184573,0.414371,0.0483431,-1.5,0,0,0,0,-0.668559,-0.875638,0,0,0,0,-0.206063,-0.362061,5254,0,0,0,0,0,0,0,0,0,2.5,1.75128
8965,-0.102539,-0.0195312,5.78711,0.00163406,-0.0480696,0.0234698,0.0105893,0.0179244,-2.65996,-6.57224,0.289567,-1.61998,-0.671805,-0.881403,-0.201164,-0.359342,-2.65996,0,0,267,214,267,214,335,209,269,282,-0.184573,0.414371,0.0468131,-1.5,0,0,0,0,-0.671805,-0.881403,0,0,0,0,-0.201164,-0.359342,5110,0,0,0,0,0,0,0,0,0,2.5,1.76281
