timestamp,A_x,A_y,A_z,P,Q,R,Phi,Theta,Psi,poseX,poseY,poseZ,state_X,state_Y,state_Z,state_VzB,state_Bx,state_By,state_Bz,p1_x,p1_y,p2_x,p2_y,p3_x,p3_y,p4_x,p4_y,roll,pitch,yaw,alt,targetHeading,highLevelState,lowLevelState,gateNumber,filtered_x,filtered_y,x_OT,y_OT,vx_OT,vy_OT,filtered_vx,filtered_vygateArearansac_corr_x,ransac_corr_y,ransac_corr_vx,ransac_corr_vy,detectionTimeStamppTermX,dTermX,pTermY,dTermY,vxcmd,vycmd
6073,0.12793,0,5.45508,0.000542289,0.000487715,-0.000310235,-0.00575384,-0.00446252,-0.0319217,0,0,0,1.48589e-06,-1.68705e-06,0.000313452,-0.000363054,-0.0315114,0,0,0,0,0,0,0,0,0,0,0.0138387,-0.610557,0,-1.5,0,0,0,0,1.48589e-06,-1.68705e-06,0,0,0,0,0.000313452,-0.000363054,1.9603e-19,0,0,0,0,0,0,0,0,0,2.51,3.3741e-06
6088,0.12793,0,-5.65723,0.000406073,0.000240952,-0.00249334,-0.00686121,-0.00401514,-0.0332714,0,0,0,1.19907e-05,-1.50839e-05,0.000932739,-0.00124842,-0.0326963,0,0,0,0,0,0,0,0,0,0,0.0145834,-0.610533,0,-1.5,0,0,0,0,1.19907e-05,-1.50839e-05,0,0,0,0,0.000932739,-0.00124842,1.9603e-19,0,0,0,0,0,0,0,0,0,2.51,3.01678e-05
6103,0.0595703,0,5.22559,0.000608572,-3.30024e-05,-0.00068233,-0.00767699,-0.0037275,-0.0345537,0,0,0,3.28216e-05,-4.57561e-05,0.00151718,-0.00234577,-0.0340167,0,0,0,0,0,0,0,0,0,0,0.0154487,-0.610503,0,-1.5,0,0,0,0,3.28216e-05,-4.57561e-05,0,0,0,0,0.00151718,-0.00234577,1.9603e-19,0,0,0,0,0,0,0,0,0,2.51,9.15122e-05
6120,0.0800781,0,-6.56445,0.00108981,-6.14667e-05,-0.00118551,-0.00818899,-0.0034753,-0.0355439,0,0,0,6.46785e-05,-9.91786e-05,0.00207391,-0.0036273,-0.0353234,0,0,0,0,0,0,0,0,0,0,0.0163653,-0.61047,0,-1.5,0,0,0,0,6.46785e-05,-9.91786e-05,0,0,0,0,0.00207391,-0.0036273,1.9603e-19,0,0,0,0,0,0,0,0,0,2.51,0.000198357
6136,0.113281,0,2.77441,0.00189006,0.000189778,-0.00208579,-0.00818643,-0.00345815,-0.035563,0,0,0,0.000102921,-0.000170585,0.00255446,-0.00489853,-0.035563,0,0,0,0,0,0,0,0,0,0,0.0168231,-0.610454,0,-1.5,0,0,0,0,0.000102921,-0.000170585,0,0,0,0,0.00255446,-0.00489853,1.9603e-19,0,0,0,0,0,0,0,0,0,2.51,0.000341171
6152,0.146484,0,-1.44922,-0.000878187,0.000314924,-0.00141883,-0.00821507,-0.00344865,-0.0355846,0,0,0,0.000148786,-0.000262227,0.00302886,-0.00616098,-0.0355846,0,0,0,0,0,0,0,0,0,0,0.0171937,-0.610441,0,-1.5,0,0,0,0,0.000148786,-0.000262227,0,0,0,0,0.00302886,-0.00616098,1.9603e-19,0,0,0,0,0,0,0,0,0,2.51,0.000524455
6168,0.150391,0,6.64941,0.00157654,-0.000868606,-0.0020709,-0.00823374,-0.00344818,-0.0356522,0,0,0,0.000202185,-0.000374005,0.00349817,-0.00741659,-0.0356282,0,0,0,0,0,0,0,0,0,0,0.0175823,-0.610427,0,-1.5,0,0,0,0,0.000202185,-0.000374005,0,0,0,0,0.00349817,-0.00741659,1.9603e-19,0,0,0,0,0,0,0,0,0,2.51,0.000748009
6184,0.150391,0,-6.23047,0.000562284,-0.000244152,-0.00160648,-0.0082505,-0.00344644,-0.0356738,0,0,0,0.000263048,-0.000505782,0.00396352,-0.00866381,-0.0356522,0,0,0,0,0,0,0,0,0,0,0.0179702,-0.610413,0,-1.5,0,0,0,0,0.000263048,-0.000505782,0,0,0,0,0.00396352,-0.00866381,1.9603e-19,0,0,0,0,0,0,0,0,0,2.51,0.00101156
6200,0.150391,0,-3.28809,0.000447787,0.000169462,-0.000973866,-0.00826061,-0.00343293,-0.035692,0,0,0,0.000331171,-0.00065706,0.00442462,-0.00990457,-0.035692,0,0,0,0,0,0,0,0,0,0,0.0183731,-0.610398,0,-1.5,0,0,0,0,0.000331171,-0.00065706,0,0,0,0,0.00442462,-0.00990457,1.9603e-19,0,0,0,0,0,0,0,0,0,2.51,0.00131412
6216,0.150391,0,3.23242,0.000316347,0.000366253,-0.000684777,-0.00828073,-0.00341967,-0.0357024,0,0,0,0.000406611,-0.000828107,0.00487958,-0.0111375,-0.0357024,0,0,0,0,0,0,0,0,0,0,0.0187712,-0.610384,0,-1.5,0,0,0,0,0.000406611,-0.000828107,0,0,0,0,0.00487958,-0.0111375,1.9603e-19,0,0,0,0,0,0,0,0,0,2.51,0.00165621
6232,0.150391,0,-2.24609,-0.000210481,-0.000721372,-0.00124055,-0.00830078,-0.00317383,-0.0356445,0,0,0,0.000483829,-0.0010063,0.0052868,-0.0122873,-0.0356445,0,0,0,0,0,0,0,0,0,0,0.0191223,-0.610372,0,-1.5,0,0,0,0,0.000483829,-0.0010063,0,0,0,0,0.0052868,-0.0122873,1.9603e-19,0,0,0,0,0,0,0,0,0,2.51,0.00201259
6260,0.150391,0,-1.32715,-0.00111501,0.000317318,-0.0018284,-0.0083486,-0.00340288,-0.03577,0,0,0,0.000572764,-0.00121571,0.00570872,-0.013507,-0.0357362,0,0,0,0,0,0,0,0,0,0,0.0195716,-0.610355,0,-1.5,0,0,0,0,0.000572764,-0.00121571,0,0,0,0,0.00570872,-0.013507,1.9603e-19,0,0,0,0,0,0,0,0,0,2.51,0.00243142
6298,0.150391,0,2.81543,0.00116705,-0.000597117,-0.00106668,-0.00837083,-0.00339899,-0.0358369,0,0,0,0.000924575,-0.00207113,0.00711353,-0.0173707,-0.0358369,0,0,0,0,0,0,0,0,0,0,0.0210082,-0.610304,0,-1.5,0,0,0,0,0.000924575,-0.00207113,0,0,0,0,0.00711353,-0.0173707,1.9603e-19,0,0,0,0,0,0,0,0,0,2.51,0.00414227
6335,0.150391,0,6.6377,-0.000213802,0.000156534,-0.0016203,-0.00840491,-0.00340192,-0.0358976,0,0,0,0.00121761,-0.00279681,0.00810261,-0.0201205,-0.0358369,0,0,0,0,0,0,0,0,0,0,0.0220578,-0.610266,0,-1.5,0,0,0,0,0.00121761,-0.00279681,0,0,0,0,0.00810261,-0.0201205,1.9603e-19,0,0,0,0,0,0,0,0,0,2.51,0.00559361
6348,0.150391,0,-6.26855,0.000277089,-0.0014214,-0.00121954,-0.0084158,-0.00340311,-0.0359202,0,0,0,0.00132566,-0.00306594,0.00844418,-0.021074,-0.0358976,0,0,0,0,0,0,0,0,0,0,0.022457,-0.610251,0,-1.5,0,0,0,0,0.00132566,-0.00306594,0,0,0,0,0.00844418,-0.021074,1.9603e-19,0,0,0,0,0,0,0,0,0,2.51,0.00613187
6361,0.150391,0,-4.82031,0.000797292,-0.000393925,-0.00231087,-0.00842967,-0.00340069,-0.0359427,0,0,0,0.00143818,-0.00334757,0.00878364,-0.0220229,-0.0359202,0,0,0,0,0,0,0,0,0,0,0.0228446,-0.610237,0,-1.5,0,0,0,0,0.00143818,-0.00334757,0,0,0,0,0.00878364,-0.0220229,1.9603e-19,0,0,0,0,0,0,0,0,0,2.51,0.00669514
6377,0.150391,0,-0.179688,0.000615873,-0.000343027,-0.00151342,-0.00845042,-0.00339694,-0.0359651,0,0,0,0.00158295,-0.00371178,0.00919827,-0.0231838,-0.0359427,0,0,0,0,0,0,0,0,0,0,0.0233265,-0.61022,0,-1.5,0,0,0,0,0.00158295,-0.00371178,0,0,0,0,0.00919827,-0.0231838,1.9603e-19,0,0,0,0,0,0,0,0,0,2.51,0.00742355
6393,0.150391,0,-6.30859,0.00231033,0.000443743,-0.00142368,-0.00844538,-0.00338809,-0.0359876,0,0,0,0.00173431,-0.00409451,0.00960848,-0.0243396,-0.0359876,0,0,0,0,0,0,0,0,0,0,0.023826,-0.610201,0,-1.5,0,0,0,0,0.00173431,-0.00409451,0,0,0,0,0.00960848,-0.0243396,1.9603e-19,0,0,0,0,0,0,0,0,0,2.51,0.00818902
6409,0.150391,0,-6.30859,0.00231033,0.000443743,-0.00142368,-0.00844538,-0.00338809,-0.0359876,0,0,0,0.00189218,-0.00449563,0.0100142,-0.0254854,-0.0359876,0,0,0,0,0,0,0,0,0,0,0.0243127,-0.610184,0,-1.5,0,0,0,0,0.00189218,-0.00449563,0,0,0,0,0.0100142,-0.0254854,1.9603e-19,0,0,0,0,0,0,0,0,0,2.51,0.00899127
6426,0.150391,0,6.875,0.00212196,-0.000233055,-0.00096921,-0.00844461,-0.00337703,-0.0360285,0,0,0,0.00206728,-0.00494262,0.0104412,-0.0266932,-0.0360285,0,0,0,0,0,0,0,0,0,0,0.0248557,-0.610164,0,-1.5,0,0,0,0,0.00206728,-0.00494262,0,0,0,0,0.0104412,-0.0266932,1.9603e-19,0,0,0,0,0,0,0,0,0,2.51,0.00988525
6443,0.140625,0,-6.61426,0.00152089,-1.07133e-05,-0.00195927,-0.00844573,-0.00337127,-0.0360539,0,0,0,0.00223852,-0.00538157,0.0108382,-0.0278203,-0.0360539,0,0,0,0,0,0,0,0,0,0,0.0253677,-0.610145,0,-1.5,0,0,0,0,0.00223852,-0.00538157,0,0,0,0,0.0108382,-0.0278203,1.9603e-19,0,0,0,0,0,0,0,0,0,2.51,0.0107631
6459,0.0742188,0,6.94922,-0.000737096,-3.16676e-05,-0.00194954,-0.00847611,-0.00336357,-0.0360922,0,0,0,0.00241607,-0.00583845,0.0112314,-0.0289387,-0.036069,0,0,0,0,0,0,0,0,0,0,0.025882,-0.610126,0,-1.5,0,0,0,0,0.00241607,-0.00583845,0,0,0,0,0.0112314,-0.0289387,1.9603e-19,0,0,0,0,0,0,0,0,0,2.51,0.0116769
6475,0.0742188,0,6.94922,-0.000737096,-3.16676e-05,-0.00194954,-0.00847611,-0.00336357,-0.0360922,0,0,0,0.00261171,-0.00634383,0.0116451,-0.0301199,-0.0360922,4,0,33554303,-167645441,33554303,-167645441,-8436479,-1,-534446081,-65025,0.0264397,-0.610106,0,-1.5,0,0,0,0,0.00261171,-0.00634383,0,0,0,0,0.0116451,-0.0301199,0,0,0,0,0,6467,0,0,0,0,2.51,0.0126877
6491,0.0078125,0,0.394531,0.00134746,-0.000428263,-0.00242282,-0.00850817,-0.00335075,-0.0361499,0,0,0,0.00280208,-0.00683737,0.0120299,-0.0312258,-0.0361499,4,0,33554303,-167645441,33554303,-167645441,-8436479,-1,-534446081,-65025,0.0269877,-0.610086,0,-1.5,0,0,0,0,0.00280208,-0.00683737,0,0,0,0,0.0120299,-0.0312258,0,0,0,0,0,6467,0,0,0,0,2.51,0.0136747
6507,0.0078125,0,0.394531,0.00134746,-0.000428263,-0.00242282,-0.00850817,-0.00335075,-0.0361499,0,0,0,0.00299856,-0.00734856,0.01241,-0.0323265,-0.0361499,4,0,33554303,-167645441,33554303,-167645441,-8436479,-1,-534446081,-65025,0.0275181,-0.610066,0,-1.5,0,0,0,0,0.00299856,-0.00734856,0,0,0,0,0.01241,-0.0323265,0,0,0,0,0,6467,0,0,0,0,2.51,0.0146971
6524,0.0449219,0,-6.55469,-0.000220527,0.000528612,-0.00163575,-0.00854917,-0.00333611,-0.0361894,0,0,0,0.00321408,-0.00791131,0.0128095,-0.0334891,-0.0361894,4,0,33554303,-167645441,33554303,-167645441,-8436479,-1,-534446081,-65025,0.028107,-0.610045,0,-1.5,0,0,0,0,0.00321408,-0.00791131,0,0,0,0,0.0128095,-0.0334891,0,0,0,0,0,6467,0,0,0,0,2.51,0.0158226
6540,0.078125,0,-6.34668,0.000473105,-0.000126049,-0.0024347,-0.00856629,-0.00333278,-0.0362152,-4.67681,0.0124968,-0.308927,0.00342282,-0.00845825,0.0131804,-0.0345791,-0.0362152,-0.676805,0.0124968,269,78,269,78,370,73,270,168,0.0286639,-0.610024,0,-1.5,0,0,0,0,0.00342282,-0.00845825,0,0,0,0,0.0131804,-0.0345791,9690,0,0,0,0,6535,0,0,0,0,2.51,0.0169165
6556,0.144531,0,4.69824,0.00193125,-0.000900929,-0.00030219,-0.00857843,-0.00333662,-0.0362404,-4.67681,0.0124968,-0.308927,0.00362386,-0.00898677,0.0135252,-0.0355949,-0.0362338,-0.676805,0.0124968,269,78,269,78,370,73,270,168,0.0291898,-0.610005,0,-1.5,0,0,0,0,0.00362386,-0.00898677,0,0,0,0,0.0135252,-0.0355949,9690,0,0,0,0,6535,0,0,0,0,2.51,0.0179735
6572,0.157227,0,0.757812,0.000261185,-0.000427719,-0.00215248,-0.00858961,-0.00333403,-0.0362658,-4.67681,0.0124968,-0.308927,0.0038582,-0.00960489,0.0139132,-0.0367388,-0.0362658,-0.676805,0.0124968,269,78,269,78,370,73,270,168,0.0297984,-0.609982,0,-1.5,0,0,0,0,0.0038582,-0.00960489,0,0,0,0,0.0139132,-0.0367388,9690,0,0,0,0,6535,0,0,0,0,2.51,0.0192098
6588,0.157227,0,-0.402344,0.00171611,-0.0006807,-0.00239712,-0.00858659,-0.00332682,-0.0362907,-4.67681,0.0124968,-0.308927,0.00408461,-0.010204,0.0142747,-0.0378081,-0.0362907,-0.676805,0.0124968,269,78,269,78,370,73,270,168,0.0303758,-0.609961,0,-1.5,0,0,0,0,0.00408461,-0.010204,0,0,0,0,0.0142747,-0.0378081,9690,0,0,0,0,6535,0,0,0,0,2.51,0.0204079
6604,0.157227,0,0.802734,-5.62608e-05,-0.000549802,-0.00212319,-0.0086057,-0.00332262,-0.0363224,-4.67681,0.0124968,-0.308927,0.00431677,-0.01082,0.0146321,-0.0388697,-0.0363224,-0.676805,0.0124968,269,78,269,78,370,73,270,168,0.0309626,-0.609939,0,-1.5,0,0,0,0,0.00431677,-0.01082,0,0,0,0,0.0146321,-0.0388697,9690,0,0,0,0,6535,0,0,0,0,2.51,0.0216401
6621,0.131836,0,5.33887,0.00118016,-0.0013819,-0.0021269,-0.00862134,-0.0033349,-0.0363533,-4.67681,0.0124968,-0.308927,0.00456966,-0.0114932,0.0150091,-0.0399914,-0.0363533,-0.676805,0.0124968,269,78,269,78,370,73,270,168,0.0315927,-0.609916,0,-1.5,0,0,0,0,0.00456966,-0.0114932,0,0,0,0,0.0150091,-0.0399914,9690,0,0,0,0,6535,0,0,0,0,2.51,0.0229864
6637,0.0986328,0,-4.03418,0.00156567,-0.000478842,-0.00208877,-0.0086182,-0.00333288,-0.036382,-4.67681,0.0124968,-0.308927,0.00481352,-0.0121441,0.0153618,-0.0410398,-0.036382,-0.676805,0.0124968,269,78,269,78,370,73,270,168,0.0321923,-0.609894,0,-1.5,0,0,0,0,0.00481352,-0.0121441,0,0,0,0,0.0153618,-0.0410398,9690,0,0,0,0,6535,0,0,0,0,2.51,0.0242881
6653,0.0644531,0,2.3252,0.000854054,-0.000248208,-0.00196207,-0.00863843,-0.00331396,-0.0364336,-4.67681,0.0124968,-0.308927,0.00506288,-0.0128113,0.0157115,-0.0420793,-0.036382,-0.676805,0.0124968,269,78,269,78,370,73,270,168,0.0327854,-0.609872,0,-1.5,0,0,0,0,0.00506288,-0.0128113,0,0,0,0,0.0157115,-0.0420793,9690,0,0,0,0,6535,0,0,0,0,2.51,0.0256226
6670,0.0644531,0,2.3252,0.000854054,-0.000248208,-0.00196207,-0.00863843,-0.00331396,-0.0364336,-4.66721,0.0125334,-0.314476,0.00531787,-0.0134955,0.0160553,-0.0431138,-0.0364336,-0.667206,0.0125334,269,78,269,78,370,73,270,168,0.0334082,-0.609848,0,-1.5,0,0,0,0,0.00531787,-0.0134955,0,0,0,0,0.0160553,-0.0431138,9690,0,0,0,0,6665,0,0,0,0,2.51,0.0269909
6685,0.130859,0,-6.82031,-0.000282033,-0.00033451,-0.000691941,-0.008676,-0.00330118,-0.0364619,-4.66721,0.0125334,-0.314476,0.00557834,-0.0141961,0.0163958,-0.0441414,-0.0364619,-0.667206,0.0125334,269,78,269,78,370,73,270,168,0.0340273,-0.609825,0,-1.5,0,0,0,0,0.00557834,-0.0141961,0,0,0,0,0.0163958,-0.0441414,9690,0,0,0,0,6665,0,0,0,0,2.51,0.0283921
6701,0.164062,0,7.02734,0.0008,-0.000323339,-0.00115639,-0.00868602,-0.00329623,-0.0364773,-4.66819,0.00413294,-0.316921,0.00584421,-0.0149131,0.0167316,-0.0451659,-0.0364773,-0.66819,0.00413294,269,78,269,78,370,73,272,169,0.0346482,-0.609802,0,-1.5,0,0,0,0,0.00584421,-0.0149131,0,0,0,0,0.0167316,-0.0451659,9888,0,0,0,0,6699,0,0,0,0,2.51,0.0298262
6718,0.197266,0,-6.17871,0.000133896,0.000936789,-0.000702973,-0.00870236,-0.0032772,-0.0364893,-4.66819,0.00413294,-0.316921,0.00613253,-0.0156928,0.0170837,-0.0462473,-0.0364893,-0.66819,0.00413294,269,78,269,78,370,73,272,169,0.0353132,-0.609778,0,-1.5,0,0,0,0,0.00613253,-0.0156928,0,0,0,0,0.0170837,-0.0462473,9888,0,0,0,0,6699,0,0,0,0,2.51,0.0313857
6742,0.152344,0,-0.0341797,-0.000570872,0.000749481,-0.00155619,-0.0087215,-0.00325419,-0.0365047,-4.65594,0.00993503,-0.314257,0.00655024,-0.0168267,0.0175695,-0.0477645,-0.0365047,-0.65594,0.00993503,269,78,269,78,368,73,270,168,0.0161042,-0.610479,0,-1.5,0,0,0,0,-0.661193,0.0096755,0,0,0,0,0.0768688,-0.0200699,9975,-0.668514,0.0261422,0.0592993,0.0276946,6731,0,0,0,0,2.51,-0.019351
6756,0.152344,0,-0.0341797,-0.000570872,0.000749481,-0.00155619,-0.0087215,-0.00325419,-0.0365047,-4.65594,0.00993503,-0.314257,0.00678074,-0.0174543,0.0178288,-0.0485787,-0.0365047,-0.65594,0.00993503,269,78,269,78,368,73,270,168,0.0164413,-0.610467,0,-1.5,0,0,0,0,-0.660191,0.009408,0,0,0,0,0.0771281,-0.0208841,9975,-0.668514,0.0261422,0.0592993,0.0276946,6731,0,0,0,0,2.51,-0.018816
6774,0,0,-7.23242,0.000976256,-4.63936e-05,-0.00186693,-0.00875203,-0.00322501,-0.0365779,-4.66379,0.00969496,-0.317726,0.00712405,-0.0183917,0.0182022,-0.0497624,-0.0365779,-0.66379,0.00969496,269,78,269,78,370,74,270,168,0.0161748,-0.610477,0,-1.5,0,0,0,0,-0.663262,0.00951728,0,0,0,0,0.0586596,-0.0199082,9682,-0.67075,0.0276403,0.0404574,0.0298542,6767,0,0,0,0,2.51,-0.0190346
6791,0.0244141,0,0.636719,-0.000285055,-0.00020388,-0.00102219,-0.00879069,-0.00321014,-0.0366276,-4.66379,0.00969496,-0.317726,0.0074371,-0.0192492,0.01853,-0.0508161,-0.0366045,-0.66379,0.00969496,269,78,269,78,370,74,270,168,0.0166246,-0.61046,0,-1.5,0,0,0,0,-0.662261,0.00916724,0,0,0,0,0.0589874,-0.0209619,9682,-0.67075,0.0276403,0.0404574,0.0298542,6767,0,0,0,0,2.51,-0.0183345
6810,0.0244141,0,0.636719,-0.000285055,-0.00020388,-0.00102219,-0.00879069,-0.00321014,-0.0366276,-4.6825,0.00708742,-0.312558,0.00779375,-0.0202296,0.0188907,-0.051989,-0.0366276,-0.682499,0.00708742,269,78,269,78,370,73,272,169,0.0179726,-0.610411,0,-1.5,0,0,0,0,-0.661136,0.00815583,0,0,0,0,0.0593482,-0.0242945,9792,-0.669699,0.0278593,0.0404574,0.0276946,6799,0,0,0,0,2.51,-0.0163117
6826,0.155273,0,4.00195,0.000794216,-0.000110685,-0.00135594,-0.00883851,-0.00319327,-0.0366684,-4.6825,0.00708742,-0.312558,0.00809917,-0.0210718,0.0191907,-0.0529705,-0.0366684,-0.682499,0.00708742,269,78,269,78,370,73,272,169,0.0184349,-0.610394,0,-1.5,0,0,0,0,-0.660183,0.00775681,0,0,0,0,0.0596481,-0.025276,9792,-0.669699,0.0278593,0.0404574,0.0276946,6799,0,0,0,0,2.51,-0.0155136
6842,0.155273,0,4.00195,0.000794216,-0.000110685,-0.00135594,-0.00883851,-0.00319327,-0.0366684,-4.6825,0.00708742,-0.312558,0.00840923,-0.0219293,0.0194863,-0.0539487,-0.0366684,-0.682499,0.00708742,269,78,269,78,370,73,272,169,0.0188864,-0.610377,0,-1.5,0,0,0,0,-0.659226,0.00734242,0,0,0,0,0.0599438,-0.0262541,9792,-0.669699,0.0278593,0.0404574,0.0276946,6799,0,0,0,0,2.51,-0.0146848
6858,0.126953,0,4.4248,0.000569918,3.76683e-05,-0.00250094,-0.00886946,-0.00316085,-0.0367492,-4.6825,0.00708742,-0.312558,0.00872409,-0.0228027,0.019778,-0.0549202,-0.0367239,-0.682499,0.00708742,269,78,269,78,370,73,272,169,0.0193683,-0.610359,0,-1.5,0,0,0,0,-0.658264,0.00691214,0,0,0,0,0.0602354,-0.0272257,9792,-0.669699,0.0278593,0.0404574,0.0276946,6799,0,0,0,0,2.51,-0.0138243
6874,0.09375,0,5.94434,0.00073732,0.000187549,-0.00128237,-0.00888334,-0.00315011,-0.0367772,-4.6825,0.00708742,-0.312558,0.00904355,-0.0236915,0.0200641,-0.0558867,-0.0367492,-0.682499,0.00708742,269,78,269,78,370,73,272,169,0.0198435,-0.610342,0,-1.5,0,0,0,0,-0.657297,0.00646637,0,0,0,0,0.0605216,-0.0281921,9792,-0.669699,0.0278593,0.0404574,0.0276946,6799,0,0,0,0,2.51,-0.0129327
6891,0.0605469,0,-4.4082,0.000222174,0.000437217,-0.0012943,-0.00890946,-0.00313039,-0.0367987,-4.6825,0.00708742,-0.312558,0.00938794,-0.0246529,0.0203628,-0.0569089,-0.0367987,-0.682499,0.00708742,269,78,269,78,370,73,272,169,0.0203656,-0.610322,0,-1.5,0,0,0,0,-0.656265,0.00597584,0,0,0,0,0.0608202,-0.0292143,9792,-0.669699,0.0278593,0.0404574,0.0276946,6799,0,0,0,0,2.51,-0.0119517
6906,0.0605469,0,-4.4082,0.000222174,0.000437217,-0.0012943,-0.00890946,-0.00313039,-0.0367987,-4.6825,0.00708742,-0.312558,0.00969589,-0.0255152,0.0206215,-0.0578068,-0.0367987,-0.682499,0.00708742,269,78,269,78,370,73,272,169,0.0208132,-0.610306,0,-1.5,0,0,0,0,-0.65535,0.00552893,0,0,0,0,0.0610789,-0.0301122,9792,-0.669699,0.0278593,0.0404574,0.0276946,6799,0,0,0,0,2.51,-0.0110579
6921,0.0556641,0,1.46191,0.000543368,0.0001961,-0.000924318,-0.00893345,-0.00310107,-0.0368194,-4.6825,0.00708742,-0.312558,0.0100077,-0.0263909,0.0208765,-0.0586993,-0.0368194,-0.682499,0.00708742,269,78,269,78,370,73,272,169,0.0212752,-0.610289,0,-1.5,0,0,0,0,-0.654431,0.00506861,0,0,0,0,0.0613339,-0.0310048,9792,-0.669699,0.0278593,0.0404574,0.0276946,6799,0,0,0,0,2.51,-0.0101372
6941,0.12207,0,1.58398,0.000916752,-0.00124152,-0.00189164,-0.00897345,-0.00311151,-0.0368591,-4.67625,0.0130812,-0.307813,0.0104294,-0.0275799,0.0212102,-0.0598836,-0.0368281,-0.676253,0.0130812,269,78,269,78,370,73,270,168,0.0209124,-0.610302,0,-1.5,0,0,0,0,-0.676631,0.00531467,0,0,0,0,-0.0314274,-0.0300294,9690,-0.686429,0.0325363,-0.0526377,0.0298542,6932,0,0,0,0,2.51,-0.0106293
6957,0.155273,0,4.87793,0.000344163,-0.000671616,-0.000151796,-0.00898796,-0.00310308,-0.0368636,-4.67625,0.0130812,-0.307813,0.0107715,-0.0285477,0.0214756,-0.0608262,-0.0368591,-0.676253,0.0130812,269,78,269,78,370,73,270,168,0.0214062,-0.610284,0,-1.5,0,0,0,0,-0.677131,0.00482458,0,0,0,0,-0.0311621,-0.030972,9690,-0.686429,0.0325363,-0.0526377,0.0298542,6932,0,0,0,0,2.51,-0.00964917
6976,0.155273,0,4.87793,0.000344163,-0.000671616,-0.000151796,-0.00898796,-0.00310308,-0.0368636,-4.67627,0.0131362,-0.307863,0.0111833,-0.0297169,0.0217868,-0.06194,-0.0368636,-0.676267,0.0131362,269,78,269,78,370,73,270,168,0.00783991,-0.610784,0,-1.5,0,0,0,0,-0.676561,0.0133141,0,0,0,0,-0.0273438,0.00635907,9690,-0.687204,0.0422798,-0.0491306,0.0682991,6967,0,0,0,0,2.51,-0.0266282
6993,0.195312,0,5.50195,0.00107136,0.000254988,-0.00205569,-0.00903552,-0.00307701,-0.0369151,-4.67627,0.0131362,-0.307863,0.0115347,-0.0307178,0.0220449,-0.0628725,-0.0369151,-0.676267,0.0131362,269,78,269,78,370,73,270,168,0.00804939,-0.610777,0,-1.5,0,0,0,0,-0.676996,0.013406,0,0,0,0,-0.0270857,0.00542665,9690,-0.687204,0.0422798,-0.0491306,0.0682991,6967,0,0,0,0,2.51,-0.0268121
7009,0.195312,0,5.50195,0.00107136,0.000254988,-0.00205569,-0.00903552,-0.00307701,-0.0369151,-4.67627,0.0131362,-0.307863,0.0119125,-0.0317978,0.0223139,-0.06386,-0.0369151,-0.676267,0.0131362,269,78,269,78,370,73,270,168,0.00825564,-0.610769,0,-1.5,0,0,0,0,-0.677453,0.0134871,0,0,0,0,-0.0268166,0.00443907,9690,-0.687204,0.0422798,-0.0491306,0.0682991,6967,0,0,0,0,2.51,-0.0269741
7025,0.0957031,0,1.98633,-0.00170101,0.000564397,-0.000986623,-0.00909352,-0.00302816,-0.0369762,-4.67627,0.0131362,-0.307863,0.0122721,-0.0328293,0.0225631,-0.0647832,-0.0369601,-0.676267,0.0131362,269,78,269,78,370,73,270,168,0.00847525,-0.610761,0,-1.5,0,0,0,0,-0.67788,0.0135484,0,0,0,0,-0.0265674,0.0035159,9690,-0.687204,0.0422798,-0.0491306,0.0682991,6967,0,0,0,0,2.51,-0.0270968
7041,0.0625,0,2.22852,0.000667209,0.000430737,-0.00247973,-0.00910965,-0.00301655,-0.0370094,-4.67627,0.0131362,-0.307863,0.0126357,-0.0338755,0.0228042,-0.0657063,-0.0369762,-0.676267,0.0131362,269,78,269,78,370,73,270,168,0.00868965,-0.610753,0,-1.5,0,0,0,0,-0.678302,0.0135949,0,0,0,0,-0.0263264,0.00259276,9690,-0.687204,0.0422798,-0.0491306,0.0682991,6967,0,0,0,0,2.51,-0.0271899
7057,0.0292969,0,6.31445,-0.000316239,0.000644922,-0.00127503,-0.009134,-0.00300999,-0.0370315,-4.67627,0.0131362,-0.307863,0.013003,-0.0349365,0.0230411,-0.0666255,-0.0370315,-0.676267,0.0131362,269,78,269,78,370,73,270,168,0.00892753,-0.610745,0,-1.5,0,0,0,0,-0.678721,0.0136267,0,0,0,0,-0.0260895,0.00167359,9690,-0.687204,0.0422798,-0.0491306,0.0682991,6967,0,0,0,0,2.51,-0.0272535
7074,0.0292969,0,6.31445,-0.000316239,0.000644922,-0.00127503,-0.009134,-0.00300999,-0.0370315,-4.67627,0.0131362,-0.307863,0.0133976,-0.0360802,0.0232898,-0.0675973,-0.0370315,-0.676267,0.0131362,269,78,269,78,370,73,270,168,0.00916162,-0.610736,0,-1.5,0,0,0,0,-0.679161,0.0136441,0,0,0,0,-0.0258408,0.000701807,9690,-0.687204,0.0422798,-0.0491306,0.0682991,6967,0,0,0,0,2.51,-0.0272883
7089,0.0791016,0,-5.4502,0.00154394,-0.000266124,-0.00192211,-0.00914851,-0.00300537,-0.0370709,-4.67627,0.0131362,-0.307863,0.013749,-0.0371024,0.0235071,-0.0684485,-0.0370709,-0.676267,0.0131362,269,78,269,78,370,73,270,168,0.0093903,-0.610728,0,-1.5,0,0,0,0,-0.679547,0.0136464,0,0,0,0,-0.0256235,-0.000149362,9690,-0.687204,0.0422798,-0.0491306,0.0682991,6967,0,0,0,0,2.51,-0.0272928
7106,0.112305,0,6.90234,-0.000687163,6.13067e-05,-0.00110447,-0.00917909,-0.00300192,-0.0370832,-4.67627,0.0131362,-0.307863,0.0141275,-0.038207,0.0237363,-0.0693527,-0.0370832,-0.676267,0.0131362,269,78,269,78,370,73,270,168,0.00962752,-0.610719,0,-1.5,0,0,0,0,-0.679955,0.0136345,0,0,0,0,-0.0253943,-0.00105356,9690,-0.687204,0.0422798,-0.0491306,0.0682991,6967,0,0,0,0,2.51,-0.0272691
7122,0.165039,0,-6.08594,0.00177174,-0.000720758,-0.00157022,-0.00919146,-0.00298897,-0.037126,-4.67627,0.0131362,-0.307863,0.0145337,-0.0393966,0.0239764,-0.0703099,-0.0370971,-0.676267,0.0131362,269,78,269,78,370,73,270,168,0.00988694,-0.61071,0,-1.5,0,0,0,0,-0.680384,0.0136061,0,0,0,0,-0.0251542,-0.00201075,9690,-0.687204,0.0422798,-0.0491306,0.0682991,6967,0,0,0,0,2.51,-0.0272122
7138,0.165039,0,-0.257812,0.000369151,-0.000421235,-0.00228076,-0.00920569,-0.00299072,-0.0371565,-4.67627,0.0131362,-0.307863,0.0149197,-0.0405309,0.0241992,-0.0712048,-0.0371565,-0.676267,0.0131362,269,78,269,78,370,73,270,168,0.0101572,-0.6107,0,-1.5,0,0,0,0,-0.680784,0.0135645,0,0,0,0,-0.0249313,-0.00290568,9690,-0.687204,0.0422798,-0.0491306,0.0682991,6967,0,0,0,0,2.51,-0.027129
7154,0.143555,0,6.8418,0.000648798,-8.00103e-05,-0.000498188,-0.0092184,-0.0029943,-0.0371714,-4.67627,0.0131362,-0.307863,0.0153092,-0.0416796,0.0244206,-0.0720946,-0.0371714,-0.676267,0.0131362,269,78,269,78,370,73,270,168,0.0104139,-0.610691,0,-1.5,0,0,0,0,-0.68118,0.0135086,0,0,0,0,-0.02471,-0.00379547,9690,-0.687204,0.0422798,-0.0491306,0.0682991,6967,0,0,0,0,2.51,-0.0270173
7174,0.0771484,0,5.8457,0.000820365,0.000590385,-0.00166244,-0.0092321,-0.00296966,-0.0372158,-4.68196,0.00772652,-0.311533,0.0158011,-0.0431356,0.0246948,-0.0731996,-0.0371844,-0.681963,0.00772652,269,78,269,78,370,73,272,169,0.01734,-0.610433,0,-1.5,0,0,0,0,-0.682213,0.00770054,0,0,0,0,-0.0255358,-0.0198802,9792,-0.697512,0.050303,-0.0502305,0.0533194,7166,0,0,0,0,2.51,-0.0154011
7190,0.0439453,0,-0.276367,0.000811256,0.0001463,-0.00193537,-0.00924108,-0.00296952,-0.0372447,-4.68196,0.00772652,-0.311533,0.0161985,-0.044316,0.0249101,-0.0740766,-0.0372158,-0.681963,0.00772652,269,78,269,78,370,73,272,169,0.0177364,-0.610418,0,-1.5,0,0,0,0,-0.68262,0.00737322,0,0,0,0,-0.0253204,-0.0207572,9792,-0.697512,0.050303,-0.0502305,0.0533194,7166,0,0,0,0,2.51,-0.0147464
7210,0.0439453,0,-0.276367,0.000811256,0.0001463,-0.00193537,-0.00924108,-0.00296952,-0.0372447,-4.69145,0.00785148,-0.305794,0.0167004,-0.0458128,0.025175,-0.0751651,-0.0372447,-0.691447,0.00785148,269,78,269,78,370,73,272,169,0.0177057,-0.610419,0,-1.5,0,0,0,0,-0.683224,0.00727841,0,0,0,0,-0.0251216,-0.0203944,9792,-0.698919,0.0519958,-0.0502966,0.0547707,7198,0,0,0,0,2.51,-0.0145568
7226,0.0185547,0,1.38477,0.000487695,1.54394e-05,-0.00237953,-0.00927946,-0.00295223,-0.0373029,-4.69145,0.00785148,-0.305794,0.0171054,-0.0470243,0.0253836,-0.0760303,-0.0373029,-0.691447,0.00785148,269,78,269,78,370,73,272,169,0.0181147,-0.610404,0,-1.5,0,0,0,0,-0.683624,0.00694329,0,0,0,0,-0.0249129,-0.0212596,9792,-0.698919,0.0519958,-0.0502966,0.0547707,7198,0,0,0,0,2.51,-0.0138866
7245,0.0849609,0,2.92578,-0.00103934,-0.000791862,-0.00236542,-0.00932604,-0.00294145,-0.0373638,-4.66744,0.00490541,-0.315446,0.0175908,-0.0484823,0.0256272,-0.077054,-0.0373029,-0.667437,0.00490541,269,78,269,78,370,73,272,169,0.0194476,-0.610354,0,-1.5,0,0,0,0,-0.683851,0.00587703,0,0,0,0,-0.0244352,-0.0244625,9888,-0.700491,0.0533601,-0.0500624,0.0525915,7233,0,0,0,0,2.51,-0.0117541
7262,0.118164,0,-1.7627,-0.000228755,0.000687674,-0.00244396,-0.00935637,-0.00292954,-0.0373938,-4.66744,0.00490541,-0.315446,0.018029,-0.0498026,0.0258417,-0.0779655,-0.0373938,-0.667437,0.00490541,269,78,269,78,370,73,272,169,0.0199279,-0.610336,0,-1.5,0,0,0,0,-0.684264,0.00545083,0,0,0,0,-0.0242206,-0.025374,9888,-0.700491,0.0533601,-0.0500624,0.0525915,7233,0,0,0,0,2.51,-0.0109017
7281,0.151367,0,-2.98438,0.000201632,0.00102428,-0.00171952,-0.00937144,-0.00291697,-0.0374114,-4.68095,0.0220733,-0.308716,0.0185229,-0.0512969,0.0260751,-0.0789858,-0.0374114,-0.680946,0.0220733,269,78,269,78,370,73,269,168,0.01953,-0.610351,0,-1.5,0,0,0,0,-0.68274,0.00568309,0,0,0,0,-0.0203843,-0.024215,9595,-0.70038,0.0559393,-0.0464594,0.0547707,7269,0,0,0,0,2.51,-0.0113662
7297,0.18457,0,-1.29688,0.000220774,0.00039632,-0.00125942,-0.00938916,-0.00290725,-0.0374382,-4.68095,0.0220733,-0.308716,0.0189422,-0.0525696,0.0262678,-0.0798396,-0.0374382,-0.680946,0.0220733,269,78,269,78,370,73,269,168,0.019953,-0.610335,0,-1.5,0,0,0,0,-0.683064,0.00528667,0,0,0,0,-0.0201916,-0.0250689,9595,-0.70038,0.0559393,-0.0464594,0.0547707,7269,0,0,0,0,2.51,-0.0105733
7317,0.117188,0,-6.82324,0.000476417,0.00070935,-0.00150333,-0.00941482,-0.00289358,-0.0374771,-4.67651,0.0164611,-0.309648,0.0194707,-0.0541808,0.0265055,-0.0809001,-0.0374382,-0.676505,0.0164611,269,78,269,78,368,73,270,168,0.0199131,-0.610337,0,-1.5,0,0,0,0,-0.68195,0.00527753,0,0,0,0,-0.0159941,-0.0248907,9785,-0.70057,0.0583381,-0.0424995,0.0560094,7305,0,0,0,0,2.51,-0.0105551
7334,0.0527344,0,5.34766,0.000959259,-0.000685516,-0.0011619,-0.00942743,-0.00290055,-0.0375001,-4.67651,0.0164611,-0.309648,0.0199235,-0.055566,0.0267033,-0.0817975,-0.0375001,-0.676505,0.0164611,269,78,269,78,368,73,270,168,0.0203806,-0.610319,0,-1.5,0,0,0,0,-0.682219,0.0048445,0,0,0,0,-0.0157963,-0.0257881,9785,-0.70057,0.0583381,-0.0424995,0.0560094,7305,0,0,0,0,2.51,-0.009689
7350,0.0195312,0,5.64258,0.00182556,-0.000530087,-0.00201836,-0.00943096,-0.00289492,-0.0375209,-4.67651,0.0164611,-0.309648,0.0203527,-0.0568833,0.0268882,-0.0826367,-0.0375209,-0.676505,0.0164611,269,78,269,78,368,73,270,168,0.0208097,-0.610303,0,-1.5,0,0,0,0,-0.68247,0.00442332,0,0,0,0,-0.0156113,-0.0266273,9785,-0.70057,0.0583381,-0.0424995,0.0560094,7305,0,0,0,0,2.51,-0.00884664
7370,0,0,-2.33008,-9.90319e-05,-0.000393518,-0.00107097,-0.00945143,-0.00289647,-0.0375385,-4.66624,0.0136456,-0.312527,0.0208933,-0.0585494,0.0271167,-0.0836789,-0.0375385,-0.666239,0.0136456,269,78,269,78,370,73,270,168,0.0130503,-0.610594,0,-1.5,0,0,0,0,-0.682568,0.0127109,0,0,0,0,-0.0161468,-0.0121119,9690,-0.703201,0.0708309,-0.0432635,0.071567,7366,0,0,0,0,2.51,-0.0254218
7387,0.0566406,0,-3.28516,0.00105339,-0.000439577,-0.000762733,-0.00946,-0.00289974,-0.0375753,-4.66624,0.0136456,-0.312527,0.0213565,-0.0599819,0.0273093,-0.0845586,-0.0375753,-0.666239,0.0136456,269,78,269,78,370,73,270,168,0.013394,-0.610581,0,-1.5,0,0,0,0,-0.68284,0.012495,0,0,0,0,-0.0159542,-0.0129916,9690,-0.703201,0.0708309,-0.0432635,0.071567,7366,0,0,0,0,2.51,-0.02499
7407,0.0898438,0,2.97949,0.00141732,-0.000222698,-0.00118635,-0.00946824,-0.00289423,-0.037594,-4.69155,0.0194645,-0.305348,0.0219056,-0.0616863,0.0275338,-0.0855861,-0.037594,-0.691554,0.0194645,269,78,269,78,368,73,270,168,0.0130446,-0.610594,0,-1.5,0,0,0,0,-0.683621,0.013147,0,0,0,0,-0.015898,-0.0128642,9690,-0.705179,0.0742515,-0.0434318,0.0727219,7401,0,0,0,0,2.51,-0.026294
7423,0.123047,0,-4.17969,0.000126875,0.000149639,-0.00241414,-0.00949193,-0.00288864,-0.0376196,-4.69155,0.0194645,-0.305348,0.0223479,-0.063064,0.0277106,-0.0864028,-0.0376196,-0.691554,0.0194645,269,78,269,78,368,73,270,168,0.0133667,-0.610582,0,-1.5,0,0,0,0,-0.683874,0.0129329,0,0,0,0,-0.0157212,-0.013681,9690,-0.705179,0.0742515,-0.0434318,0.0727219,7401,0,0,0,0,2.51,-0.0258657
7444,0.15625,0,5.03906,0.000891712,0.000824941,-0.00228393,-0.00950292,-0.00287573,-0.03765,-4.69155,0.0194645,-0.305348,0.0229332,-0.0648939,0.0279392,-0.0874692,-0.03765,-0.691554,0.0194645,269,78,269,78,368,73,270,168,0.0133283,-0.610584,0,-1.5,0,0,0,0,-0.687962,0.0129674,0,0,0,0,-0.0217412,-0.0135432,9690,-0.709852,0.0763088,-0.0496804,0.073926,7431,0,0,0,0,2.51,-0.0259348
7459,0.160156,0,2.98047,0.000669489,-0.00102354,-0.00188657,-0.00954753,-0.00286407,-0.037703,-4.69155,0.0194645,-0.305348,0.0233538,-0.066213,0.028099,-0.0882261,-0.037703,-0.691554,0.0194645,269,78,269,78,368,73,270,168,0.0136456,-0.610572,0,-1.5,0,0,0,0,-0.688287,0.0127571,0,0,0,0,-0.0215815,-0.0143001,9690,-0.709852,0.0763088,-0.0496804,0.073926,7431,0,0,0,0,2.51,-0.0255143
7478,0.160156,0,2.98047,0.000669489,-0.00102354,-0.00188657,-0.00954753,-0.00286407,-0.037703,-4.67049,0.00540602,-0.311039,0.0238902,-0.0679015,0.0282978,-0.0891834,-0.037703,-0.670485,0.00540602,269,78,269,78,368,73,272,169,0.0141373,-0.610553,0,-1.5,0,0,0,0,-0.685001,0.0124724,0,0,0,0,-0.0162363,-0.015699,10080,-0.708045,0.0789777,-0.0445341,0.0734843,7465,0,0,0,0,2.51,-0.0249448
7494,0.0976562,0,4.98535,-0.00022201,0.00014873,-0.000907391,-0.00960989,-0.00284725,-0.0377492,-4.67049,0.00540602,-0.311039,0.0243447,-0.0693368,0.0284629,-0.0899843,-0.037734,-0.670485,0.00540602,269,78,269,78,368,73,272,169,0.0144806,-0.610541,0,-1.5,0,0,0,0,-0.685259,0.0122128,0,0,0,0,-0.0160712,-0.0165,10080,-0.708045,0.0789777,-0.0445341,0.0734843,7465,0,0,0,0,2.51,-0.0244256
7510,0.0722656,0,4.19531,-3.38739e-05,-0.0011794,-0.00202209,-0.00962745,-0.00285127,-0.0377702,-4.67049,0.00540602,-0.311039,0.0248018,-0.070785,0.028625,-0.0907844,-0.0377492,-0.670485,0.00540602,269,78,269,78,368,73,272,169,0.0148233,-0.610528,0,-1.5,0,0,0,0,-0.685515,0.0119404,0,0,0,0,-0.0159091,-0.0173001,10080,-0.708045,0.0789777,-0.0445341,0.0734843,7465,0,0,0,0,2.51,-0.0238808
7526,0.0722656,0,-4.31836,-0.000152325,0.000521173,-0.00182328,-0.00965392,-0.00283806,-0.0377933,-4.67049,0.00540602,-0.311039,0.0252615,-0.0722459,0.0287855,-0.0915834,-0.0377933,-0.670485,0.00540602,269,78,269,78,368,73,272,169,0.0151846,-0.610514,0,-1.5,0,0,0,0,-0.685768,0.0116552,0,0,0,0,-0.0157486,-0.0180991,10080,-0.708045,0.0789777,-0.0445341,0.0734843,7465,0,0,0,0,2.51,-0.0233104
7542,0.0722656,0,-4.31836,-0.000152325,0.000521173,-0.00182328,-0.00965392,-0.00283806,-0.0377933,-4.67049,0.00540602,-0.311039,0.0257237,-0.0737196,0.0289427,-0.0923796,-0.0377933,-0.670485,0.00540602,269,78,269,78,368,73,272,169,0.0155324,-0.610501,0,-1.5,0,0,0,0,-0.686018,0.0113572,0,0,0,0,-0.0155915,-0.0188953,10080,-0.708045,0.0789777,-0.0445341,0.0734843,7465,0,0,0,0,2.51,-0.0227144
7559,0.0722656,0,7.27832,0.0012834,0.000313069,-0.00146959,-0.00952148,-0.00268555,-0.0378418,-4.67049,0.00540602,-0.311039,0.0261884,-0.075206,0.0290899,-0.0931614,-0.0378418,-0.670485,0.00540602,269,78,269,78,368,73,272,169,0.015904,-0.610487,0,-1.5,0,0,0,0,-0.686266,0.0110466,0,0,0,0,-0.0154442,-0.019677,10080,-0.708045,0.0789777,-0.0445341,0.0734843,7465,0,0,0,0,2.51,-0.0220932
7575,0.0722656,0,7.27832,0.0012834,0.000313069,-0.00146959,-0.00952148,-0.00268555,-0.0378418,-4.67049,0.00540602,-0.311039,0.0266845,-0.0767986,0.0292297,-0.0939708,-0.0378418,-0.670485,0.00540602,269,78,269,78,368,73,272,169,0.0162778,-0.610473,0,-1.5,0,0,0,0,-0.686527,0.0107032,0,0,0,0,-0.0153044,-0.0204864,10080,-0.708045,0.0789777,-0.0445341,0.0734843,7465,0,0,0,0,2.51,-0.0214064
7590,0.0722656,0,-3.50781,0.0010197,8.131e-05,-0.00145433,-0.0097231,-0.00280921,-0.0379003,-4.67049,0.00540602,-0.311039,0.0271241,-0.0782151,0.0293592,-0.0946907,-0.0378849,-0.670485,0.00540602,269,78,269,78,368,73,272,169,0.0166334,-0.610459,0,-1.5,0,0,0,0,-0.686755,0.010389,0,0,0,0,-0.0151749,-0.0212063,10080,-0.708045,0.0789777,-0.0445341,0.0734843,7465,0,0,0,0,2.51,-0.020778
7606,0.0722656,0,-6.93945,0.00010112,-0.00103135,-0.00118804,-0.00973607,-0.0028073,-0.0379232,-4.67049,0.00540602,-0.311039,0.0275954,-0.0797383,0.0295072,-0.0954719,-0.0379003,-0.670485,0.00540602,269,78,269,78,368,73,272,169,0.017009,-0.610445,0,-1.5,0,0,0,0,-0.686997,0.0100415,0,0,0,0,-0.0150269,-0.0219876,10080,-0.708045,0.0789777,-0.0445341,0.0734843,7465,0,0,0,0,2.51,-0.0200829
7623,0.0722656,0,6.89648,-0.000656742,0.000192286,-0.00226562,-0.00975833,-0.00279967,-0.0379517,-4.67049,0.00540602,-0.311039,0.0280988,-0.0813705,0.029662,-0.0962987,-0.0379517,-0.670485,0.00540602,269,78,269,78,368,73,272,169,0.0174292,-0.610429,0,-1.5,0,0,0,0,-0.68725,0.00965856,0,0,0,0,-0.0148721,-0.0228143,10080,-0.708045,0.0789777,-0.0445341,0.0734843,7465,0,0,0,0,2.51,-0.0193171
7642,0.0722656,0,6.89648,-0.000656742,0.000192286,-0.00226562,-0.00975833,-0.00279967,-0.0379517,-4.6815,0.00843579,-0.310711,0.0286644,-0.0832113,0.0298321,-0.097218,-0.0379517,-0.681502,0.00843579,269,78,269,78,370,73,272,169,0.0188741,-0.610374,0,-1.5,0,0,0,0,-0.681628,0.00797596,0,0,0,0,-0.00595426,-0.0252327,9792,-0.709863,0.0903234,-0.0357864,0.0719854,7632,0,0,0,0,2.51,-0.0159519
7659,0.0722656,0,6.89648,-0.000656742,0.000192286,-0.00226562,-0.00975833,-0.00279967,-0.0379517,-4.6815,0.00843579,-0.310711,0.0291432,-0.0847748,0.0299741,-0.0979854,-0.0379517,-0.681502,0.00843579,269,78,269,78,370,73,272,169,0.0192715,-0.610359,0,-1.5,0,0,0,0,-0.681722,0.00756416,0,0,0,0,-0.00581229,-0.0260001,9792,-0.709863,0.0903234,-0.0357864,0.0719854,7632,0,0,0,0,2.51,-0.0151283
7679,0.0722656,0,1.67285,0.00125927,0.000102818,-0.00164037,-0.00976362,-0.00277121,-0.0380549,-4.641,0.0141733,-0.316072,0.0297753,-0.0868469,0.0301576,-0.0989842,-0.0380549,-0.641001,0.0141733,269,78,269,78,368,73,269,168,0.0192331,-0.61036,0,-1.5,0,0,0,0,-0.681959,0.00779675,0,0,0,0,-0.00477994,-0.0261312,9975,-0.711001,0.0931138,-0.0349376,0.0728531,7666,0,0,0,0,2.51,-0.0155935
7695,0.0722656,0,-6.10742,0.00191226,-0.000178017,-0.00183194,-0.00976475,-0.00277551,-0.0380703,-4.641,0.0141733,-0.316072,0.0302593,-0.0884386,0.0302926,-0.0997383,-0.0380703,-0.641001,0.0141733,269,78,269,78,368,73,269,168,0.019641,-0.610345,0,-1.5,0,0,0,0,-0.682034,0.00737072,0,0,0,0,-0.00464497,-0.0268853,9975,-0.711001,0.0931138,-0.0349376,0.0728531,7666,0,0,0,0,2.51,-0.0147414
7716,0.0722656,0,2.06445,0.00104215,0.000402114,-0.00154842,-0.00976899,-0.00276179,-0.038115,-4.6514,0.011238,-0.316041,0.0308979,-0.0905473,0.0304688,-0.10072,-0.0380703,-0.651395,0.011238,269,78,269,78,370,73,270,168,0.0175175,-0.610426,0,-1.5,0,0,0,0,-0.675601,0.0100104,0,0,0,0,0.00428105,-0.0236644,9785,-0.705949,0.0989396,-0.0261877,0.0770554,7703,0,0,0,0,2.51,-0.0200209
7733,0.0722656,0,6.40137,0.000187652,5.53592e-05,-0.00167496,-0.0097936,-0.00275054,-0.0381309,-4.6514,0.011238,-0.316041,0.0313868,-0.0921666,0.0306003,-0.101461,-0.0381309,-0.651395,0.011238,269,78,269,78,370,73,270,168,0.0179221,-0.61041,0,-1.5,0,0,0,0,-0.675531,0.00962401,0,0,0,0,0.00441258,-0.0244056,9785,-0.705949,0.0989396,-0.0261877,0.0770554,7703,0,0,0,0,2.51,-0.019248
7748,0.0722656,0,-3.20996,-0.000325317,-0.000110162,-0.00209577,-0.00980242,-0.00274387,-0.0381592,-4.6514,0.011238,-0.316041,0.0318778,-0.0937978,0.0307277,-0.1022,-0.0381592,-0.651395,0.011238,269,78,269,78,370,73,270,168,0.0183181,-0.610395,0,-1.5,0,0,0,0,-0.675459,0.00922574,0,0,0,0,0.00453996,-0.0251448,9785,-0.705949,0.0989396,-0.0261877,0.0770554,7703,0,0,0,0,2.51,-0.0184515
7765,0.0722656,0,3.33008,0.00148412,-0.000831762,-0.0021703,-0.00980376,-0.00274688,-0.0381898,-4.6514,0.011238,-0.316041,0.0324016,-0.0955438,0.0308612,-0.10298,-0.0381898,-0.651395,0.011238,269,78,269,78,370,73,270,168,0.0187442,-0.610379,0,-1.5,0,0,0,0,-0.675381,0.00878968,0,0,0,0,0.00467344,-0.0259249,9785,-0.705949,0.0989396,-0.0261877,0.0770554,7703,0,0,0,0,2.51,-0.0175794
7785,0.0722656,0,-4.37012,0.000900358,0.000111668,-0.00232722,-0.00983319,-0.0027373,-0.0382354,-4.66689,0.00567253,-0.314453,0.033021,-0.0976157,0.0310172,-0.10389,-0.0381898,-0.666887,0.00567253,269,78,269,78,370,73,272,169,0.0216622,-0.610267,0,-1.5,0,0,0,0,-0.666463,0.00518243,0,0,0,0,0.0154564,-0.0303905,9888,-0.699173,0.101328,-0.0155608,0.0734997,7772,0,0,0,0,2.51,-0.0103649
7802,0.0722656,0,-4.37012,0.000900358,0.000111668,-0.00232722,-0.00983319,-0.0027373,-0.0382354,-4.66689,0.00567253,-0.314453,0.0335497,-0.0993906,0.0311476,-0.104659,-0.0382354,-0.666887,0.00567253,269,78,269,78,370,73,272,169,0.0221365,-0.610249,0,-1.5,0,0,0,0,-0.666199,0.00465706,0,0,0,0,0.0155868,-0.0311589,9888,-0.699173,0.101328,-0.0155608,0.0734997,7772,0,0,0,0,2.51,-0.00931412
7817,0.0722656,0,-0.59082,0.000346232,-0.0003389,-0.00116846,-0.00984997,-0.00273608,-0.0382711,-4.66689,0.00567253,-0.314453,0.0340181,-0.100967,0.0312609,-0.105334,-0.0382711,-0.666887,0.00567253,269,78,269,78,370,73,272,169,0.0225575,-0.610232,0,-1.5,0,0,0,0,-0.665964,0.00418313,0,0,0,0,0.0157,-0.0318341,9888,-0.699173,0.101328,-0.0155608,0.0734997,7772,0,0,0,0,2.51,-0.00836627
7833,0.0722656,0,4.23242,-0.000708106,-0.000825879,-0.00124496,-0.00987043,-0.00274131,-0.0382878,-4.66689,0.00567253,-0.314453,0.0345194,-0.10266,0.0313807,-0.106052,-0.0382878,-0.666887,0.00567253,269,78,269,78,370,73,272,169,0.0230023,-0.610215,0,-1.5,0,0,0,0,-0.665711,0.00366646,0,0,0,0,0.0158199,-0.0325522,9888,-0.699173,0.101328,-0.0155608,0.0734997,7772,0,0,0,0,2.51,-0.00733293
7849,0.0722656,0,1.51172,0.000513823,-0.000781076,-0.000972327,-0.00987901,-0.00273621,-0.0383103,-4.66689,0.00567253,-0.314453,0.0350228,-0.104364,0.0314996,-0.106767,-0.0383103,-0.666887,0.00567253,269,78,269,78,370,73,272,169,0.0234545,-0.610198,0,-1.5,0,0,0,0,-0.665457,0.00313833,0,0,0,0,0.0159388,-0.0332669,9888,-0.699173,0.101328,-0.0155608,0.0734997,7772,0,0,0,0,2.51,-0.00627667
7871,0.0722656,0,0.967773,0.00067086,0.000303487,-0.00131711,-0.00991777,-0.00272262,-0.0383651,-4.65131,0.0113955,-0.315889,0.0356863,-0.106619,0.0316526,-0.1077,-0.0383461,-0.651309,0.0113955,269,78,269,78,370,73,270,168,0.020886,-0.610296,0,-1.5,0,0,0,0,-0.665791,0.00667311,0,0,0,0,0.0153258,-0.0299922,9785,-0.701379,0.112825,-0.0163268,0.0777074,7866,0,0,0,0,2.51,-0.0133462
7886,0.0722656,0,-2.69922,0.0005213,0.00049525,-0.00124257,-0.00993336,-0.00271352,-0.0383917,-4.65131,0.0113955,-0.315889,0.036194,-0.108349,0.0317665,-0.108407,-0.0383917,-0.651309,0.0113955,269,78,269,78,370,73,270,168,0.0213262,-0.610279,0,-1.5,0,0,0,0,-0.665545,0.00618579,0,0,0,0,0.0154397,-0.0307001,9785,-0.701379,0.112825,-0.0163268,0.0777074,7866,0,0,0,0,2.51,-0.0123716
7907,0.0722656,0,4.84375,-0.000280686,-0.000315264,-0.00242607,-0.0099721,-0.00270844,-0.0384394,-4.71371,0.0087973,-0.292267,0.036863,-0.110638,0.0319123,-0.109334,-0.038411,-0.713707,0.0087973,269,78,269,78,370,73,272,167,0.0217599,-0.610262,0,-1.5,0,0,0,0,-0.665353,0.00563526,0,0,0,0,0.0158477,-0.0313015,9588,-0.702056,0.115493,-0.0160646,0.0780322,7899,0,0,0,0,2.51,-0.0112705
7924,0.0722656,0,-5.17871,0.000857515,-0.000422605,-0.00160707,-0.00998512,-0.00270184,-0.038461,-4.71371,0.0087973,-0.292267,0.0374068,-0.112505,0.0320286,-0.11008,-0.0384394,-0.713707,0.0087973,269,78,269,78,370,73,272,167,0.0222286,-0.610244,0,-1.5,0,0,0,0,-0.665083,0.00509493,0,0,0,0,0.015964,-0.0320475,9588,-0.702056,0.115493,-0.0160646,0.0780322,7899,0,0,0,0,2.51,-0.0101899
7940,0.0722656,0,4.43359,0.00156334,-0.000881745,-0.00167699,-0.00999697,-0.00270787,-0.038474,-4.71371,0.0087973,-0.292267,0.0379204,-0.114274,0.0321357,-0.11078,-0.038474,-0.713707,0.0087973,269,78,269,78,370,73,272,167,0.0226784,-0.610227,0,-1.5,0,0,0,0,-0.664826,0.0045748,0,0,0,0,0.0160711,-0.0327476,9588,-0.702056,0.115493,-0.0160646,0.0780322,7899,0,0,0,0,2.51,-0.00914961
7956,0.0722656,0,0.0849609,0.00114063,-0.000396811,-0.00220791,-0.0100019,-0.00270731,-0.0384968,-4.71371,0.0087973,-0.292267,0.0384356,-0.116053,0.0322427,-0.111476,-0.0384968,-0.713707,0.0087973,269,78,269,78,370,73,272,167,0.0231276,-0.610209,0,-1.5,0,0,0,0,-0.664568,0.00404373,0,0,0,0,0.0161781,-0.0334439,9588,-0.702056,0.115493,-0.0160646,0.0780322,7899,0,0,0,0,2.51,-0.00808747
7972,0.0722656,0,-0.134766,0.00031414,-0.000144301,-0.00160063,-0.010024,-0.00270852,-0.0385213,-4.71371,0.0087973,-0.292267,0.0389526,-0.117844,0.0323487,-0.112169,-0.0385213,-0.713707,0.0087973,269,78,269,78,370,73,272,167,0.0235824,-0.610191,0,-1.5,0,0,0,0,-0.664308,0.00350134,0,0,0,0,0.0162841,-0.0341366,9588,-0.702056,0.115493,-0.0160646,0.0780322,7899,0,0,0,0,2.51,-0.00700269
7989,0.0722656,0,1.11621,0.00148125,-0.00105304,-0.00237999,-0.0100297,-0.00271094,-0.0385464,-4.71371,0.0087973,-0.292267,0.0395038,-0.119759,0.0324605,-0.112901,-0.0385464,-0.713707,0.0087973,269,78,269,78,370,73,272,167,0.0240703,-0.610173,0,-1.5,0,0,0,0,-0.66403,0.00291295,0,0,0,0,0.0163959,-0.0348693,9588,-0.702056,0.115493,-0.0160646,0.0780322,7899,0,0,0,0,2.51,-0.0058259
8009,0.0722656,0,3.80176,0.000975663,-0.000258709,-0.00171166,-0.0100354,-0.00271167,-0.0385745,-4.67619,0.00608862,-0.308734,0.0401547,-0.122028,0.0325911,-0.113757,-0.0385745,-0.676186,0.00608862,269,78,269,78,370,73,272,169,0.0236068,-0.61019,0,-1.5,0,0,0,0,-0.675142,0.00360051,0,0,0,0,0.00568955,-0.0343402,9888,-0.714947,0.124596,-0.0269015,0.0794164,7998,0,0,0,0,2.51,-0.00720102
8025,0.0722656,0,4.16309,0.000441709,-0.000565414,-0.0017951,-0.0100595,-0.00269643,-0.0386267,-4.67619,0.00608862,-0.308734,0.0406772,-0.123855,0.0326938,-0.114436,-0.0386267,-0.676186,0.00608862,269,78,269,78,370,73,272,169,0.0240773,-0.610172,0,-1.5,0,0,0,0,-0.67505,0.00304413,0,0,0,0,0.00579228,-0.0350197,9888,-0.714947,0.124596,-0.0269015,0.0794164,7998,0,0,0,0,2.51,-0.00608825
8046,0.0722656,0,-7.12598,-0.00116274,-8.98887e-05,-0.000609683,-0.0101079,-0.0026919,-0.0386595,-4.65456,0.0117605,-0.311786,0.0413656,-0.126271,0.0328252,-0.115324,-0.0386267,-0.654559,0.0117605,269,78,269,78,368,73,270,168,0.0235727,-0.610191,0,-1.5,0,0,0,0,-0.664327,0.00382039,0,0,0,0,0.0157163,-0.0345521,9975,-0.705334,0.128395,-0.0171088,0.0807718,8033,0,0,0,0,2.51,-0.00764077
8062,0.0722656,0,-5.71582,0.00097269,-0.000155028,-0.00214791,-0.0101149,-0.00268208,-0.0386833,-4.65456,0.0117605,-0.311786,0.0418919,-0.128123,0.0329237,-0.115997,-0.0386595,-0.654559,0.0117605,269,78,269,78,368,73,270,168,0.0240349,-0.610173,0,-1.5,0,0,0,0,-0.664075,0.00326051,0,0,0,0,0.0158149,-0.0352256,9975,-0.705334,0.128395,-0.0171088,0.0807718,8033,0,0,0,0,2.51,-0.00652102
8083,0.0722656,0,-2.57617,0.000823383,0.000637309,-0.00167529,-0.0101209,-0.00266434,-0.0387002,-4.69104,0.0203673,-0.304458,0.0425851,-0.130572,0.0330481,-0.11688,-0.0387002,-0.69104,0.0203673,269,78,269,78,368,73,270,168,0.0241324,-0.610169,0,-1.5,0,0,0,0,-0.675385,0.00300302,0,0,0,0,0.00509675,-0.0350296,9690,-0.717383,0.131856,-0.0279513,0.0818508,8070,0,0,0,0,2.51,-0.00600604
8104,0.0722656,0,1.77051,0.000226623,-0.000903995,-0.00181874,-0.0101306,-0.00266368,-0.0387239,-4.64253,0.0149706,-0.309497,0.0432807,-0.133038,0.0331683,-0.117756,-0.0387239,-0.642528,0.0149706,269,78,269,78,367,71,270,168,0.0243191,-0.610162,0,-1.5,0,0,0,0,-0.662007,0.00286512,0,0,0,0,0.0172946,-0.0354601,10185,-0.705176,0.135327,-0.0158737,0.0822956,8099,0,0,0,0,2.51,-0.00573025
8120,0.0800781,0,4.08301,0.000320481,0.000108129,-0.000866364,-0.0101611,-0.00265734,-0.0387584,-4.64253,0.0149706,-0.309497,0.0438123,-0.134929,0.0332588,-0.118417,-0.0387584,-0.642528,0.0149706,269,78,269,78,367,71,270,168,0.0247863,-0.610143,0,-1.5,0,0,0,0,-0.661729,0.00229102,0,0,0,0,0.0173851,-0.0361218,10185,-0.705176,0.135327,-0.0158737,0.0822956,8099,0,0,0,0,2.51,-0.00458205
8141,0.113281,0,2.68262,0.00144253,-0.000252028,-0.00165138,-0.0101596,-0.00265263,-0.038769,-4.65445,0.0118908,-0.311575,0.0445123,-0.137427,0.0333749,-0.119284,-0.038769,-0.654446,0.0118908,269,78,269,78,368,73,270,168,0.0258666,-0.610101,0,-1.5,0,0,0,0,-0.660719,0.00106954,0,0,0,0,0.0176048,-0.0379846,9975,-0.705058,0.137603,-0.0157701,0.0812991,8132,0,0,0,0,2.51,-0.00213908
8157,0.179688,0,3.39355,-0.000488667,0.00108089,-0.00193192,-0.010188,-0.00262948,-0.0388217,-4.65445,0.0118908,-0.311575,0.0450472,-0.139343,0.0334613,-0.119938,-0.0387901,-0.654446,0.0118908,269,78,269,78,368,73,270,168,0.0263463,-0.610082,0,-1.5,0,0,0,0,-0.660437,0.000454922,0,0,0,0,0.0176912,-0.0386389,9975,-0.705058,0.137603,-0.0157701,0.0812991,8132,0,0,0,0,2.51,-0.000909845
8178,0.149414,0,-0.919922,0.00123302,0.000204886,-0.00139094,-0.0101894,-0.00262633,-0.0388315,-4.65442,0.0119305,-0.311527,0.0457514,-0.141873,0.0335705,-0.120793,-0.0388315,-0.654418,0.0119305,269,78,269,78,368,73,270,168,0.0255377,-0.610113,0,-1.5,0,0,0,0,-0.657818,0.00146602,0,0,0,0,0.0198376,-0.0373521,9975,-0.703391,0.142254,-0.0137329,0.0834406,8167,0,0,0,0,2.51,-0.00293205
8195,0.0830078,0,1.5127,0.000691808,0.000370303,-0.00139615,-0.0102092,-0.00261129,-0.0388526,-4.65442,0.0119305,-0.311527,0.0463231,-0.143934,0.0336557,-0.12148,-0.0388526,-0.654418,0.0119305,269,78,269,78,368,73,270,168,0.0260396,-0.610094,0,-1.5,0,0,0,0,-0.65748,0.000823491,0,0,0,0,0.0199227,-0.0380394,9975,-0.703391,0.142254,-0.0137329,0.0834406,8167,0,0,0,0,2.51,-0.00164698
8210,0.0830078,0,1.5127,0.000691808,0.000370303,-0.00139615,-0.0102092,-0.00261129,-0.0388526,-4.65442,0.0119305,-0.311527,0.0468286,-0.145762,0.0337287,-0.122083,-0.0388526,-0.654418,0.0119305,269,78,269,78,368,73,270,168,0.0264782,-0.610077,0,-1.5,0,0,0,0,-0.65718,0.000247247,0,0,0,0,0.0199957,-0.0386427,9975,-0.703391,0.142254,-0.0137329,0.0834406,8167,0,0,0,0,2.51,-0.000494494
8226,0.0283203,0,3.72461,-0.000555964,-0.000362533,-0.00184019,-0.0102437,-0.00261691,-0.0389255,-4.65442,0.0119305,-0.311527,0.0473691,-0.147722,0.0338058,-0.122723,-0.0388969,-0.654418,0.0119305,269,78,269,78,368,73,270,168,0.0269695,-0.610057,0,-1.5,0,0,0,0,-0.656859,-0.000377735,0,0,0,0,0.0200729,-0.0392821,9975,-0.703391,0.142254,-0.0137329,0.0834406,8167,0,0,0,0,2.51,0.000755471
8242,0.0283203,0,5.36816,0.000346524,0.000154552,-0.000826954,-0.0102609,-0.00261448,-0.0389481,-4.65442,0.0119305,-0.311527,0.0479107,-0.149692,0.0338826,-0.12336,-0.0389255,-0.654418,0.0119305,269,78,269,78,368,73,270,168,0.0274584,-0.610038,0,-1.5,0,0,0,0,-0.656537,-0.00101272,0,0,0,0,0.0201497,-0.0399195,9975,-0.703391,0.142254,-0.0137329,0.0834406,8167,0,0,0,0,2.51,0.00202543
8258,0.0283203,0,-6.69531,-0.000138435,-0.000375979,-0.00163281,-0.0102851,-0.00261147,-0.0389685,-4.65442,0.0119305,-0.311527,0.0484536,-0.151672,0.0339586,-0.123997,-0.0389685,-0.654418,0.0119305,269,78,269,78,368,73,270,168,0.0279587,-0.610018,0,-1.5,0,0,0,0,-0.656214,-0.00165791,0,0,0,0,0.0202257,-0.0405566,9975,-0.703391,0.142254,-0.0137329,0.0834406,8167,0,0,0,0,2.51,0.00331581
8274,0.0283203,0,-6.69531,-0.000138435,-0.000375979,-0.00163281,-0.0102851,-0.00261147,-0.0389685,-4.65442,0.0119305,-0.311527,0.0489978,-0.153663,0.0340335,-0.124633,-0.0389685,-0.654418,0.0119305,269,78,269,78,368,73,270,168,0.0284449,-0.609999,0,-1.5,0,0,0,0,-0.65589,-0.00231346,0,0,0,0,0.0203005,-0.041192,9975,-0.703391,0.142254,-0.0137329,0.0834406,8167,0,0,0,0,2.51,0.00462693
8290,0.0478516,0,-7.02539,-0.000341494,-0.000220739,-0.00158179,-0.0103156,-0.00260292,-0.039014,-4.65442,0.0119305,-0.311527,0.0495431,-0.155664,0.0341071,-0.125265,-0.039014,-0.654418,0.0119305,269,78,269,78,368,73,270,168,0.0289552,-0.609978,0,-1.5,0,0,0,0,-0.655564,-0.00297916,0,0,0,0,0.0203741,-0.0418241,9975,-0.703391,0.142254,-0.0137329,0.0834406,8167,0,0,0,0,2.51,0.00595831
8312,0.114258,0,3.93359,-0.000694825,0.000432242,-0.000877936,-0.0103696,-0.00259254,-0.0390351,-4.68102,0.00918796,-0.309852,0.0502948,-0.158432,0.0342053,-0.126133,-0.0390351,-0.681015,0.00918796,269,78,269,78,370,73,272,169,0.0292828,-0.609965,0,-1.5,0,0,0,0,-0.656833,-0.00341685,0,0,0,0,0.0191719,-0.042223,9792,-0.706918,0.15384,-0.0150334,0.0839095,8300,0,0,0,0,2.51,0.0068337
8328,0.147461,0,2.95312,0.000199016,-0.00021495,-0.00030779,-0.0103859,-0.00258744,-0.0390408,-4.68102,0.00918796,-0.309852,0.0508428,-0.160456,0.0342744,-0.126765,-0.0390408,-0.681015,0.00918796,269,78,269,78,370,73,272,169,0.0297839,-0.609946,0,-1.5,0,0,0,0,-0.656526,-0.00409882,0,0,0,0,0.0192409,-0.042855,9792,-0.706918,0.15384,-0.0150334,0.0839095,8300,0,0,0,0,2.51,0.00819764
8344,0.147461,0,2.95312,0.000199016,-0.00021495,-0.00030779,-0.0103859,-0.00258744,-0.0390408,-4.68102,0.00918796,-0.309852,0.0513919,-0.162491,0.0343422,-0.127393,-0.0390408,-0.681015,0.00918796,269,78,269,78,370,73,272,169,0.0302868,-0.609926,0,-1.5,0,0,0,0,-0.656217,-0.00479091,0,0,0,0,0.0193087,-0.0434839,9792,-0.706918,0.15384,-0.0150334,0.0839095,8300,0,0,0,0,2.51,0.00958182
8361,0.181641,0,-1.01953,0.000119147,-0.000276582,-0.00178974,-0.0104238,-0.00257167,-0.039101,-4.68102,0.00918796,-0.309852,0.0519765,-0.164664,0.0344126,-0.128059,-0.039101,-0.681015,0.00918796,269,78,269,78,370,73,272,169,0.0308522,-0.609903,0,-1.5,0,0,0,0,-0.655888,-0.00553766,0,0,0,0,0.0193792,-0.044149,9792,-0.706918,0.15384,-0.0150334,0.0839095,8300,0,0,0,0,2.51,0.0110753
8381,0.115234,0,6.46289,0.000363897,-0.000250383,-0.00114693,-0.0104428,-0.00256909,-0.0391415,-4.66035,0.0122066,-0.309662,0.0526659,-0.167236,0.0344924,-0.128839,-0.0391415,-0.660345,0.0122066,269,78,269,78,370,73,270,168,0.0273583,-0.610039,0,-1.5,0,0,0,0,-0.659447,-0.000259613,0,0,0,0,0.0147815,-0.0406483,9785,-0.711719,0.165213,-0.0197109,0.088191,8367,0,0,0,0,2.51,0.000519226
8397,0.0820312,0,-2.88184,-1.05544e-05,0.000283768,-0.00145889,-0.0104594,-0.00256322,-0.0391645,-4.66035,0.0122066,-0.309662,0.0532184,-0.169304,0.0345548,-0.129461,-0.0391645,-0.660345,0.0122066,269,78,269,78,370,73,270,168,0.0278518,-0.61002,0,-1.5,0,0,0,0,-0.65921,-0.000916308,0,0,0,0,0.014844,-0.0412701,9785,-0.711719,0.165213,-0.0197109,0.088191,8367,0,0,0,0,2.51,0.00183262
8413,0.0820312,0,-2.88184,-1.05544e-05,0.000283768,-0.00145889,-0.0104594,-0.00256322,-0.0391645,-4.66035,0.0122066,-0.309662,0.0537719,-0.171382,0.034616,-0.13008,-0.0391645,-0.660345,0.0122066,269,78,269,78,370,73,270,168,0.0283394,-0.610001,0,-1.5,0,0,0,0,-0.658972,-0.00158291,0,0,0,0,0.0149051,-0.0418888,9785,-0.711719,0.165213,-0.0197109,0.088191,8367,0,0,0,0,2.51,0.00316582
8429,0.0351562,0,2.09668,-0.000467175,-4.97659e-05,-0.000606416,-0.0104821,-0.00256102,-0.0392092,-4.66035,0.0122066,-0.309662,0.0543264,-0.173469,0.0346764,-0.130695,-0.0392092,-0.660345,0.0122066,269,78,269,78,370,73,270,168,0.0288506,-0.60998,0,-1.5,0,0,0,0,-0.658733,-0.00225957,0,0,0,0,0.0149655,-0.0425041,9785,-0.711719,0.165213,-0.0197109,0.088191,8367,0,0,0,0,2.51,0.00451915
8451,0.0351562,0,2.34863,0.00208351,-0.00164056,-0.00211829,-0.010507,-0.00256273,-0.0392744,-4.71812,0.0181241,-0.299092,0.0550905,-0.176358,0.0347583,-0.131538,-0.0392744,-0.718125,0.0181241,269,78,269,78,367,73,272,169,0.0291934,-0.609966,0,-1.5,0,0,0,0,-0.658893,-0.00269006,0,0,0,0,0.0163359,-0.0429017,9792,-0.713579,0.171718,-0.0184224,0.0886358,8437,0,0,0,0,2.51,0.00538011
8467,0.0351562,0,6.6084,0.00041777,0.000100151,-0.00241471,-0.0105202,-0.0025589,-0.0393037,-4.71812,0.0181241,-0.299092,0.0556473,-0.178469,0.0348171,-0.132148,-0.0393037,-0.718125,0.0181241,269,78,269,78,367,73,272,169,0.0297048,-0.609946,0,-1.5,0,0,0,0,-0.658631,-0.00338288,0,0,0,0,0.0163947,-0.043512,9792,-0.713579,0.171718,-0.0184224,0.0886358,8437,0,0,0,0,2.51,0.00676576
8483,0.0351562,0,-3.47363,0.000670003,-0.000105996,-0.000828002,-0.010498,-0.00244141,-0.0393066,-4.71812,0.0181241,-0.299092,0.0562049,-0.180589,0.034868,-0.132753,-0.0393066,-0.718125,0.0181241,269,78,269,78,367,73,272,169,0.0302083,-0.609926,0,-1.5,0,0,0,0,-0.658368,-0.00408544,0,0,0,0,0.0164456,-0.0441174,9792,-0.713579,0.171718,-0.0184224,0.0886358,8437,0,0,0,0,2.51,0.00817089
8500,0.0351562,0,0.137695,0.000466283,-0.000496972,-0.00174428,-0.0105508,-0.00256321,-0.0393366,-4.71812,0.0181241,-0.299092,0.0567982,-0.182853,0.0349166,-0.133392,-0.0393366,-0.718125,0.0181241,269,78,269,78,367,73,272,169,0.0307591,-0.609904,0,-1.5,0,0,0,0,-0.658088,-0.00484243,0,0,0,0,0.0164941,-0.0447559,9792,-0.713579,0.171718,-0.0184224,0.0886358,8437,0,0,0,0,2.51,0.00968486
8516,0.0351562,0,-0.0126953,-0.00085951,0.000352396,-0.00318501,-0.0105754,-0.00256048,-0.039388,-4.71812,0.0181241,-0.299092,0.0573574,-0.184994,0.0349742,-0.133994,-0.0393522,-0.718125,0.0181241,269,78,269,78,367,73,272,169,0.0312771,-0.609883,0,-1.5,0,0,0,0,-0.657824,-0.00556464,0,0,0,0,0.0165517,-0.0453582,9792,-0.713579,0.171718,-0.0184224,0.0886358,8437,0,0,0,0,2.51,0.0111293
8532,0.0351562,0,-1.58105,-0.00113266,0.00018102,-0.0016383,-0.0106122,-0.00255478,-0.0394038,-4.71812,0.0181241,-0.299092,0.0579176,-0.187144,0.0350309,-0.134594,-0.039388,-0.718125,0.0181241,269,78,269,78,367,73,272,169,0.0318081,-0.609862,0,-1.5,0,0,0,0,-0.657559,-0.00629647,0,0,0,0,0.0166084,-0.0459578,9792,-0.713579,0.171718,-0.0184224,0.0886358,8437,0,0,0,0,2.51,0.0125929
8554,0.0351562,0,-0.414062,0.000526992,0.000399101,-0.00173696,-0.0106316,-0.00255016,-0.0394271,-4.67287,0.0121986,-0.308743,0.0586894,-0.190117,0.0351057,-0.135422,-0.0394271,-0.67287,0.0121986,269,78,269,78,370,74,270,167,0.0286616,-0.609985,0,-1.5,0,0,0,0,-0.664432,-0.00210072,0,0,0,0,0.0127221,-0.0416852,9579,-0.722629,0.185954,-0.0223836,0.0937366,8540,0,0,0,0,2.51,0.00420144
8575,0.0351562,0,6.01953,-0.000408025,0.000762208,-0.001187,-0.0106527,-0.00253521,-0.0394388,-4.69807,0.0180969,-0.301503,0.0594276,-0.192972,0.0351736,-0.136208,-0.0394388,-0.698072,0.0180969,269,78,269,78,368,74,270,167,0.0278315,-0.610018,0,-1.5,0,0,0,0,-0.672208,-0.00122417,0,0,0,0,0.00760528,-0.0400948,9579,-0.731305,0.190594,-0.0275683,0.0961136,8565,0,0,0,0,2.51,0.00244834
8591,0.0351562,0,-6.62012,-1.4095e-07,-0.00097482,-0.0010186,-0.0106794,-0.00253571,-0.0394743,-4.69807,0.0180969,-0.301503,0.0599909,-0.195157,0.0352237,-0.136805,-0.0394743,-0.698072,0.0180969,269,78,269,78,368,74,270,167,0.0283195,-0.609998,0,-1.5,0,0,0,0,-0.672086,-0.00187174,0,0,0,0,0.00765541,-0.0406912,9579,-0.731305,0.190594,-0.0275683,0.0961136,8565,0,0,0,0,2.51,0.00374349
8607,0.0351562,0,-6.62012,-1.4095e-07,-0.00097482,-0.0010186,-0.0106794,-0.00253571,-0.0394743,-4.69807,0.0180969,-0.301503,0.060555,-0.197352,0.0352734,-0.137399,-0.0394743,-0.698072,0.0180969,269,78,269,78,368,74,270,167,0.0287964,-0.609979,0,-1.5,0,0,0,0,-0.671963,-0.00252905,0,0,0,0,0.00770504,-0.0412859,9579,-0.731305,0.190594,-0.0275683,0.0961136,8565,0,0,0,0,2.51,0.0050581
8623,0.0351562,0,5.91504,0.000209931,8.97617e-05,-0.00147951,-0.0107056,-0.00252681,-0.0395182,-4.69807,0.0180969,-0.301503,0.0611198,-0.199557,0.035322,-0.137991,-0.0395182,-0.698072,0.0180969,269,78,269,78,368,74,270,167,0.0292964,-0.609959,0,-1.5,0,0,0,0,-0.671839,-0.00319582,0,0,0,0,0.00775366,-0.0418772,9579,-0.731305,0.190594,-0.0275683,0.0961136,8565,0,0,0,0,2.51,0.00639164
8640,0.0351562,0,-1.89941,0.000677189,0.000914624,-0.000315784,-0.0107373,-0.00250642,-0.0395405,-4.69807,0.0180969,-0.301503,0.0617209,-0.20191,0.0353721,-0.138618,-0.0395263,-0.698072,0.0180969,269,78,269,78,368,74,270,167,0.0298156,-0.609938,0,-1.5,0,0,0,0,-0.671707,-0.00391461,0,0,0,0,0.00780382,-0.042504,9579,-0.731305,0.190594,-0.0275683,0.0961136,8565,0,0,0,0,2.51,0.00782922
8656,0.0351562,0,-0.310547,0.0012451,-0.000361212,-0.00300289,-0.0107503,-0.00250809,-0.0395753,-4.69807,0.0180969,-0.301503,0.0622873,-0.204133,0.035417,-0.139205,-0.0395405,-0.698072,0.0180969,269,78,269,78,368,74,270,167,0.0303114,-0.609919,0,-1.5,0,0,0,0,-0.671581,-0.00460063,0,0,0,0,0.00784871,-0.0430918,9579,-0.731305,0.190594,-0.0275683,0.0961136,8565,0,0,0,0,2.51,0.00920127
8672,0.0351562,0,5.35938,0.000351212,-0.000272043,-0.00252617,-0.0107676,-0.00250356,-0.0396055,-4.69807,0.0180969,-0.301503,0.0628544,-0.206367,0.0354601,-0.139792,-0.0396055,-0.698072,0.0180969,269,78,269,78,368,74,270,167,0.0308337,-0.609897,0,-1.5,0,0,0,0,-0.671455,-0.00529625,0,0,0,0,0.00789176,-0.0436786,9579,-0.731305,0.190594,-0.0275683,0.0961136,8565,0,0,0,0,2.51,0.0105925
8688,0.0371094,0,-2.6582,0.00232365,0.000305762,-0.00181557,-0.0107626,-0.00250118,-0.0396287,-4.69807,0.0180969,-0.301503,0.0634222,-0.20861,0.0355019,-0.140376,-0.0396287,-0.698072,0.0180969,269,78,269,78,368,74,270,167,0.031342,-0.609877,0,-1.5,0,0,0,0,-0.671329,-0.00600122,0,0,0,0,0.00793362,-0.0442628,9579,-0.731305,0.190594,-0.0275683,0.0961136,8565,0,0,0,0,2.51,0.0120024
8704,0.0703125,0,-5.21875,0.00134801,0.000944428,-0.00292645,-0.0107629,-0.00248603,-0.0396686,-4.69807,0.0180969,-0.301503,0.0639907,-0.210862,0.0355422,-0.140955,-0.0396686,-0.698072,0.0180969,269,78,269,78,368,74,270,167,0.0318608,-0.609855,0,-1.5,0,0,0,0,-0.671201,-0.0067155,0,0,0,0,0.00797394,-0.0448417,9579,-0.731305,0.190594,-0.0275683,0.0961136,8565,0,0,0,0,2.51,0.013431
8720,0.103516,0,-5.3457,0.00138631,0.000615761,-0.00191218,-0.0107723,-0.00247432,-0.0396852,-4.69807,0.0180969,-0.301503,0.0645598,-0.213123,0.03558,-0.14153,-0.0396852,-0.698072,0.0180969,269,78,269,78,368,74,270,167,0.032373,-0.609835,0,-1.5,0,0,0,0,-0.671073,-0.0074388,0,0,0,0,0.00801168,-0.0454165,9579,-0.731305,0.190594,-0.0275683,0.0961136,8565,0,0,0,0,2.51,0.0148776
8737,0.169922,0,5.35938,0.00074732,0.000358249,-0.00222511,-0.0107914,-0.00245147,-0.039725,-4.69807,0.0180969,-0.301503,0.0651651,-0.215536,0.0356179,-0.142137,-0.0397022,-0.698072,0.0180969,269,78,269,78,368,74,270,167,0.0329213,-0.609813,0,-1.5,0,0,0,0,-0.670937,-0.00821774,0,0,0,0,0.0080496,-0.0460236,9579,-0.731305,0.190594,-0.0275683,0.0961136,8565,0,0,0,0,2.51,0.0164355
8752,0.161133,0,0.152344,-9.00313e-05,-0.000312981,-0.000395933,-0.0108054,-0.00244574,-0.0397337,-4.69807,0.0180969,-0.301503,0.0656996,-0.217673,0.035649,-0.14267,-0.039725,-0.698072,0.0180969,269,78,269,78,368,74,270,167,0.0334118,-0.609793,0,-1.5,0,0,0,0,-0.670816,-0.00891322,0,0,0,0,0.00808072,-0.0465565,9579,-0.731305,0.190594,-0.0275683,0.0961136,8565,0,0,0,0,2.51,0.0178264
8769,0.12793,0,-4.31348,0.000418911,0.000393116,-0.0024546,-0.0108244,-0.00243537,-0.0397663,-4.69807,0.0180969,-0.301503,0.066306,-0.220105,0.0356817,-0.143273,-0.0397663,-0.698072,0.0180969,269,78,269,78,368,74,270,167,0.033979,-0.60977,0,-1.5,0,0,0,0,-0.670678,-0.0097113,0,0,0,0,0.00811337,-0.0471592,9579,-0.731305,0.190594,-0.0275683,0.0961136,8565,0,0,0,0,2.51,0.0194226
8784,0.0947266,0,-5.64453,0.000303039,-0.000312395,-0.000611161,-0.0108407,-0.00243635,-0.0397868,-4.69807,0.0180969,-0.301503,0.0668415,-0.222259,0.0357088,-0.143803,-0.0397868,-0.698072,0.0180969,269,78,269,78,368,74,270,167,0.0344764,-0.60975,0,-1.5,0,0,0,0,-0.670556,-0.0104238,0,0,0,0,0.00814046,-0.0476897,9579,-0.731305,0.190594,-0.0275683,0.0961136,8565,0,0,0,0,2.51,0.0208476
8806,0.0615234,0,-3.16797,0.00179317,-0.00079493,-0.00205342,-0.0108362,-0.00244381,-0.0398045,-4.71779,0.0186503,-0.29854,0.0676277,-0.225434,0.035749,-0.144577,-0.0398045,-0.717786,0.0186503,269,78,269,78,367,73,272,169,0.0288844,-0.609972,0,-1.5,0,0,0,0,-0.672787,-0.00342421,0,0,0,0,0.00600889,-0.0392721,9792,-0.740147,0.221062,-0.0297401,0.105305,8799,0,0,0,0,2.51,0.00684842
8822,0.0224609,0,-0.751953,0.00117187,-0.000507055,-0.00238098,-0.0108533,-0.00244435,-0.0398637,-4.71779,0.0186503,-0.29854,0.0681999,-0.227753,0.0357785,-0.145133,-0.0398045,-0.717786,0.0186503,269,78,269,78,367,73,272,169,0.0293402,-0.609954,0,-1.5,0,0,0,0,-0.672691,-0.0040582,0,0,0,0,0.00603842,-0.0398287,9792,-0.740147,0.221062,-0.0297401,0.105305,8799,0,0,0,0,2.51,0.00811639
