timestamp,A_x,A_y,A_z,P,Q,R,Phi,Theta,Psi,poseX,poseY,poseZ,state_X,state_Y,state_Z,state_VzB,state_Bx,state_By,state_Bz,p1_x,p1_y,p2_x,p2_y,p3_x,p3_y,p4_x,p4_y,roll,pitch,yaw,alt,targetHeading,highLevelState,lowLevelState,gateNumber,filtered_x,filtered_y,x_OT,y_OT,vx_OT,vy_OT,filtered_vx,filtered_vygateArearansac_corr_x,ransac_corr_y,ransac_corr_vx,ransac_corr_vy,detectionTimeStamppTermX,dTermX,pTermY,dTermY,vxcmd,vycmd
6084,0.121094,0.0419922,0.462891,-0.00306074,-0.000354346,-0.00071361,-0.0308419,-0.0333007,-1.69672,0,0,0,-0.000183608,-0.000159505,-0.00872089,-0.00755663,-1.69627,0,0,0,0,0,0,0,0,0,0,0.249956,-0.140967,0,-1.5,1.97059e-38,0,0,0,-0.000183608,-0.000159505,0,0,0,0,-0.00872089,-0.00755663,1.9603e-19,0,0,0,0,0,0,0,0,0,1,0.000175455
6098,0.231445,0.125,-0.269531,-0.000288601,-0.000612219,-0.00235881,-0.0315304,-0.0327591,-1.69788,0,0,0,-0.000346353,-0.000299493,-0.0134344,-0.0114925,-1.69739,0,0,0,0,0,0,0,0,0,0,0.250958,-0.139526,0,-1.5,1.97059e-38,0,0,0,-0.000346353,-0.000299493,0,0,0,0,-0.0134344,-0.0114925,1.9603e-19,0,0,0,0,0,0,0,0,0,1,0.000329442
6116,0.276367,0.0820312,-1.30469,-0.0012862,0.00100681,-0.00169406,-0.032175,-0.0321686,-1.69898,0,0,0,-0.000681169,-0.000581939,-0.0199003,-0.0166672,-1.69854,0,0,0,0,0,0,0,0,0,0,0.252346,-0.137669,0,-1.5,1.97059e-38,0,0,0,-0.000681169,-0.000581939,0,0,0,0,-0.0199003,-0.0166672,1.9603e-19,0,0,0,0,0,0,0,0,0,1,0.000640133
6133,0.142578,0.0820312,-3.38379,-0.00129628,-0.000129545,-0.00167784,-0.032744,-0.0316589,-1.70022,0,0,0,-0.00108183,-0.000913436,-0.0257276,-0.0211406,-1.69971,0,0,0,0,0,0,0,0,0,0,0.253592,-0.135989,0,-1.5,1.97059e-38,0,0,0,-0.00108183,-0.000913436,0,0,0,0,-0.0257276,-0.0211406,1.9603e-19,0,0,0,0,0,0,0,0,0,1,0.00100478
6149,0.276367,0.149414,3.93945,-0.00148103,-4.65686e-05,-0.000391231,-0.0327846,-0.0316329,-1.70028,0,0,0,-0.00155134,-0.0012948,-0.0312374,-0.0252348,-1.70027,0,0,0,0,0,0,0,0,0,0,0.254791,-0.134548,0,-1.5,1.97059e-38,0,0,0,-0.00155134,-0.0012948,0,0,0,0,-0.0312374,-0.0252348,1.9603e-19,0,0,0,0,0,0,0,0,0,1,0.00142428
6165,0.289062,0.182617,0.464844,-0.00148743,-0.000934127,-0.00208096,-0.0328045,-0.0316344,-1.70031,0,0,0,-0.00210877,-0.00174115,-0.0367177,-0.0292839,-1.70028,0,0,0,0,0,0,0,0,0,0,0.256003,-0.133244,0,-1.5,1.97059e-38,0,0,0,-0.00210877,-0.00174115,0,0,0,0,-0.0367177,-0.0292839,1.9603e-19,0,0,0,0,0,0,0,0,0,1,0.00191526
6181,0.255859,0.21582,-3.22559,-0.000648226,0.000313968,-0.00145298,-0.0328171,-0.0316149,-1.70033,0,0,0,-0.00275176,-0.00225065,-0.0421583,-0.0332984,-1.70033,0,0,0,0,0,0,0,0,0,0,0.257202,-0.131922,0,-1.5,1.97059e-38,0,0,0,-0.00275176,-0.00225065,0,0,0,0,-0.0421583,-0.0332984,1.9603e-19,0,0,0,0,0,0,0,0,0,1,0.00247572
6197,0.222656,0.21875,2.82129,-0.00201701,0.000716541,-0.000374998,-0.0328403,-0.0316034,-1.70033,0,0,0,-0.00348137,-0.00282403,-0.0475577,-0.0372774,-1.70033,0,0,0,0,0,0,0,0,0,0,0.258391,-0.130604,0,-1.5,1.97059e-38,0,0,0,-0.00348137,-0.00282403,0,0,0,0,-0.0475577,-0.0372774,1.9603e-19,0,0,0,0,0,0,0,0,0,1,0.00310643
6212,0.189453,0.212891,2.92285,-0.00135551,0.000216174,-0.00143749,-0.0328556,-0.0315927,-1.70035,0,0,0,-0.00424339,-0.003419,-0.0525838,-0.0409764,-1.70035,0,0,0,0,0,0,0,0,0,0,0.259496,-0.129357,0,-1.5,1.97059e-38,0,0,0,-0.00424339,-0.003419,0,0,0,0,-0.0525838,-0.0409764,1.9603e-19,0,0,0,0,0,0,0,0,0,1,0.0037609
6228,0.15625,0.179688,-4.36816,-0.00178429,0.000333667,-0.00257052,-0.0328852,-0.0315863,-1.70038,0,0,0,-0.0051407,-0.00411579,-0.0579074,-0.0448902,-1.70038,0,0,0,0,0,0,0,0,0,0,0.260663,-0.128017,0,-1.5,1.97059e-38,0,0,0,-0.0051407,-0.00411579,0,0,0,0,-0.0579074,-0.0448902,1.9603e-19,0,0,0,0,0,0,0,0,0,1,0.00452736
6244,0.123047,0.146484,3.0791,-0.000742307,0.000485511,-0.00143676,-0.0328946,-0.0315774,-1.70041,0,0,0,-0.00612113,-0.00487362,-0.0631913,-0.0487704,-1.70041,0,0,0,0,0,0,0,0,0,0,0.261819,-0.126672,0,-1.5,1.97059e-38,0,0,0,-0.00612113,-0.00487362,0,0,0,0,-0.0631913,-0.0487704,1.9603e-19,0,0,0,0,0,0,0,0,0,1,0.00536098
6259,0.114258,0.0800781,-2.46094,-0.00123183,2.9341e-05,-0.000821113,-0.0329253,-0.0315668,-1.70045,0,0,0,-0.00711659,-0.00564011,-0.0681081,-0.0523783,-1.70043,0,0,0,0,0,0,0,0,0,0,0.262893,-0.125402,0,-1.5,1.97059e-38,0,0,0,-0.00711659,-0.00564011,0,0,0,0,-0.0681081,-0.0523783,1.9603e-19,0,0,0,0,0,0,0,0,0,1,0.00620412
6278,0.147461,0.0634766,-3.27441,-0.000698683,0.00100435,-0.00191749,-0.0329359,-0.0315537,-1.70047,0,0,0,-0.00849181,-0.00669481,-0.074291,-0.0569107,-1.70047,0,0,0,0,0,0,0,0,0,0,0.26424,-0.123782,0,-1.5,1.97059e-38,0,0,0,-0.00849181,-0.00669481,0,0,0,0,-0.074291,-0.0569107,1.9603e-19,0,0,0,0,0,0,0,0,0,1,0.0073643
6313,0.213867,0.0800781,0.836914,-0.00131066,-0.000371648,-0.000200424,-0.032937,-0.0315423,-1.7005,0,0,0,-0.0114026,-0.00891412,-0.085569,-0.065168,-1.7005,0,0,0,0,0,0,0,0,0,0,0.266688,-0.120757,0,-1.5,1.97059e-38,0,0,0,-0.0114026,-0.00891412,0,0,0,0,-0.085569,-0.065168,1.9603e-19,0,0,0,0,0,0,0,0,0,1,0.00980553
6341,0.230469,0.177734,2.66895,-0.00283469,-0.0006571,-0.00122312,-0.0330085,-0.0315223,-1.70056,0,0,0,-0.0139836,-0.0108743,-0.0944383,-0.071656,-1.70056,0,0,0,0,0,0,0,0,0,0,0.268604,-0.118312,0,-1.5,1.97059e-38,0,0,0,-0.0139836,-0.0108743,0,0,0,0,-0.0944383,-0.071656,1.9603e-19,0,0,0,0,0,0,0,0,0,1,0.0119617
6358,0.197266,0.177734,1.64062,-0.000759751,0.000285736,-0.00176159,-0.0330196,-0.0315213,-1.70059,-4.63349,0.0958852,-0.207858,-0.0156477,-0.0121352,-0.0997592,-0.0755387,-1.70056,0,0,263,53,263,53,364,48,268,147,0.269753,-0.116831,0,-1.5,1.97059e-38,0,0,0,-0.0156477,-0.0121352,0,0,0,0,-0.0997592,-0.0755387,10593,0,0,0,0,0,0,0,0,0,1,0.0133488
6370,0.164062,0.177734,-1.91895,-0.00168586,-7.74019e-05,-0.00241864,-0.0330423,-0.0315105,-1.70062,-4.63349,0.0958852,-0.207858,-0.0168722,-0.0130616,-0.103489,-0.0782571,-1.70059,0,0,263,53,263,53,364,48,268,147,0.270555,-0.115777,0,-1.5,1.97059e-38,0,0,0,-0.0168722,-0.0130616,0,0,0,0,-0.103489,-0.0782571,10593,0,0,0,0,0,0,0,0,0,1,0.0143678
6386,0.130859,0.177734,1.42969,-0.000630589,-0.000361681,-0.00119382,-0.0330533,-0.0314955,-1.70064,-4.63349,0.0958852,-0.207858,-0.01858,-0.0143516,-0.108431,-0.0818573,-1.70062,0,0,263,53,263,53,364,48,268,147,0.271616,-0.114365,0,-1.5,1.97059e-38,0,0,0,-0.01858,-0.0143516,0,0,0,0,-0.108431,-0.0818573,10593,0,0,0,0,0,0,0,0,0,1,0.0157868
6408,0.0957031,0.177734,-4.01758,-0.000399107,-0.000457851,-0.00158712,-0.0330836,-0.031488,-1.70068,-4.63349,0.0958852,-0.207858,-0.0210724,-0.0162302,-0.115176,-0.086761,-1.70065,0,0,263,53,263,53,364,48,268,147,0.27306,-0.112409,0,-1.5,1.97059e-38,0,0,0,-0.0210724,-0.0162302,0,0,0,0,-0.115176,-0.086761,10593,0,0,0,0,0,0,0,0,0,1,0.0178533
6424,0.128906,0.177734,3.29492,-0.00164283,0.00126284,-0.00203872,-0.0331144,-0.0314729,-1.70071,-4.63349,0.0958852,-0.207858,-0.0229663,-0.0176555,-0.120033,-0.0902883,-1.70068,0,0,263,53,263,53,364,48,268,147,0.274098,-0.110983,0,-1.5,1.97059e-38,0,0,0,-0.0229663,-0.0176555,0,0,0,0,-0.120033,-0.0902883,10593,0,0,0,0,0,0,0,0,0,1,0.0194211
6440,0.162109,0.177734,-2.90723,-0.00093777,0.000157505,-0.000646027,-0.0331276,-0.0314615,-1.70072,-4.63349,0.0958852,-0.207858,-0.024936,-0.0191358,-0.124853,-0.0937843,-1.70071,0,0,263,53,263,53,364,48,268,147,0.275125,-0.109548,0,-1.5,1.97059e-38,0,0,0,-0.024936,-0.0191358,0,0,0,0,-0.124853,-0.0937843,10593,0,0,0,0,0,0,0,0,0,1,0.0210494
6455,0.195312,0.177734,-6.29883,-0.00110129,-0.000910365,-0.0021558,-0.0331418,-0.0314667,-1.70075,-4.63349,0.0958852,-0.207858,-0.0268522,-0.020574,-0.129341,-0.0970333,-1.70075,0,0,263,53,263,53,364,48,268,147,0.276078,-0.108192,0,-1.5,1.97059e-38,0,0,0,-0.0268522,-0.020574,0,0,0,0,-0.129341,-0.0970333,10593,0,0,0,0,0,0,0,0,0,1,0.0226314
6470,0.228516,0.177734,5.91309,-0.000907988,-0.000254414,-0.00235888,-0.0331504,-0.031469,-1.70079,-4.63349,0.0958852,-0.207858,-0.0288355,-0.0220607,-0.133798,-0.100258,-1.70079,0,0,263,53,263,53,364,48,268,147,0.277023,-0.106834,0,-1.5,1.97059e-38,0,0,0,-0.0288355,-0.0220607,0,0,0,0,-0.133798,-0.100258,10593,0,0,0,0,0,0,0,0,0,1,0.0242668
6486,0.232422,0.177734,5.70898,-0.0016232,0.000104334,-0.00134734,-0.0331648,-0.0314675,-1.70081,-4.63349,0.0958852,-0.207858,-0.0310244,-0.0236997,-0.138517,-0.103671,-1.70081,0,0,263,53,263,53,364,48,268,147,0.278022,-0.105382,0,-1.5,1.97059e-38,0,0,0,-0.0310244,-0.0236997,0,0,0,0,-0.138517,-0.103671,10593,0,0,0,0,0,0,0,0,0,1,0.0260696
6503,0.199219,0.177734,6.13086,-0.00114141,-0.000562698,-0.00153706,-0.0331811,-0.0314807,-1.70083,-4.63349,0.0958852,-0.207858,-0.033434,-0.0255017,-0.143494,-0.107269,-1.70083,0,0,263,53,263,53,364,48,268,147,0.279073,-0.10383,0,-1.5,1.97059e-38,0,0,0,-0.033434,-0.0255017,0,0,0,0,-0.143494,-0.107269,10593,0,0,0,0,0,0,0,0,0,1,0.0280519
6518,0.166016,0.177734,6.10449,-0.000866054,0.000626054,-0.00226638,-0.0331915,-0.0314726,-1.70086,-4.63349,0.0958852,-0.207858,-0.0356274,-0.0271404,-0.147851,-0.110417,-1.70086,0,0,263,53,263,53,364,48,268,147,0.279991,-0.102456,0,-1.5,1.97059e-38,0,0,0,-0.0356274,-0.0271404,0,0,0,0,-0.147851,-0.110417,10593,0,0,0,0,0,0,0,0,0,1,0.0298544
6534,0.135742,0.177734,0.166016,-0.00113751,0.000838962,-0.0022986,-0.0332079,-0.0314635,-1.70089,-4.63349,0.0958852,-0.207858,-0.0380415,-0.0289421,-0.152465,-0.113748,-1.70089,0,0,263,53,263,53,364,48,268,147,0.28096,-0.10098,0,-1.5,1.97059e-38,0,0,0,-0.0380415,-0.0289421,0,0,0,0,-0.152465,-0.113748,10593,0,0,0,0,0,0,0,0,0,1,0.0318363
6550,0.135742,0.177734,7.37109,-0.000351121,0.000652258,-0.000972136,-0.0332197,-0.0314397,-1.70094,-4.63349,0.0958852,-0.207858,-0.0405291,-0.0307968,-0.157045,-0.117052,-1.70089,0,0,263,53,263,53,364,48,268,147,0.281922,-0.0995066,0,-1.5,1.97059e-38,0,0,0,-0.0405291,-0.0307968,0,0,0,0,-0.157045,-0.117052,10593,0,0,0,0,0,0,0,0,0,1,0.0338765
6567,0.135742,0.177734,5.1709,-0.00113658,0.000193166,-0.00142942,-0.0332372,-0.0314335,-1.70097,-4.63349,0.0958852,-0.207858,-0.0430897,-0.0327041,-0.16159,-0.120325,-1.70097,0,0,263,53,263,53,364,48,268,147,0.282868,-0.0980046,0,-1.5,1.97059e-38,0,0,0,-0.0430897,-0.0327041,0,0,0,0,-0.16159,-0.120325,10593,0,0,0,0,0,0,0,0,0,1,0.0359745
6583,0.135742,0.177734,6.15918,0.000727926,-8.63446e-05,-0.000817472,-0.0332255,-0.0314349,-1.70098,-4.63349,0.0958852,-0.207858,-0.0457225,-0.0346634,-0.1661,-0.12357,-1.70098,0,0,263,53,263,53,364,48,268,147,0.28381,-0.0965166,0,-1.5,1.97059e-38,0,0,0,-0.0457225,-0.0346634,0,0,0,0,-0.1661,-0.12357,10593,0,0,0,0,0,0,0,0,0,1,0.0381297
6599,0.135742,0.177734,-6.91699,-0.000865524,-0.000794039,-0.0014646,-0.0332248,-0.0314382,-1.701,-4.61673,0.101656,-0.215224,-0.0485986,-0.0368018,-0.170852,-0.126991,-1.701,0,0,263,54,263,54,364,48,266,147,0.284799,-0.0949257,0,-1.5,1.97059e-38,0,0,0,-0.0485986,-0.0368018,0,0,0,0,-0.170852,-0.126991,10593,0,0,0,0,0,0,0,0,0,1,0.040482
6615,0.135742,0.177734,-6.91699,-0.000865524,-0.000794039,-0.0014646,-0.0332248,-0.0314382,-1.701,-4.61673,0.101656,-0.215224,-0.0512016,-0.0387356,-0.17501,-0.129985,-1.701,0,0,263,54,263,54,364,48,266,147,0.285664,-0.0935213,0,-1.5,1.97059e-38,0,0,0,-0.0512016,-0.0387356,0,0,0,0,-0.17501,-0.129985,10593,0,0,0,0,0,0,0,0,0,1,0.0426092
6631,0.135742,0.177734,-4.81836,-0.000810755,0.000608767,-0.00108705,-0.0332689,-0.0314213,-1.70105,-4.61673,0.101656,-0.215224,-0.05423,-0.0409837,-0.179689,-0.133351,-1.70103,0,0,263,54,263,54,364,48,266,147,0.286631,-0.0919124,0,-1.5,1.97059e-38,0,0,0,-0.05423,-0.0409837,0,0,0,0,-0.179689,-0.133351,10593,0,0,0,0,0,0,0,0,0,1,0.045082
6647,0.135742,0.177734,5.52832,-0.00245313,0.000688449,-0.00187535,-0.0332879,-0.0314074,-1.70107,-4.61673,0.101656,-0.215224,-0.0571509,-0.0431503,-0.18406,-0.136491,-1.70105,0,0,263,54,263,54,364,48,266,147,0.287534,-0.0903956,0,-1.5,1.97059e-38,0,0,0,-0.0571509,-0.0431503,0,0,0,0,-0.18406,-0.136491,10593,0,0,0,0,0,0,0,0,0,1,0.0474653
6663,0.135742,0.177734,1.26855,-0.000504251,0.000601561,-0.00189739,-0.0332831,-0.0313964,-1.7011,-4.61673,0.101656,-0.215224,-0.0601402,-0.0453659,-0.188398,-0.139601,-1.7011,0,0,263,54,263,54,364,48,266,147,0.288425,-0.0888663,0,-1.5,1.97059e-38,0,0,0,-0.0601402,-0.0453659,0,0,0,0,-0.188398,-0.139601,10593,0,0,0,0,0,0,0,0,0,1,0.0499025
6679,0.135742,0.177734,-5.7373,-0.00120022,0.000356956,-0.00306875,-0.03329,-0.0313866,-1.70114,-4.59155,0.101215,-0.222892,-0.0630052,-0.0474879,-0.192434,-0.142493,-1.70114,0,0,262,54,262,54,365,48,266,147,0.289252,-0.0874289,0,-1.5,1.97059e-38,0,0,0,-0.0630052,-0.0474879,0,0,0,0,-0.192434,-0.142493,10692,0,0,0,0,0,0,0,0,0,1,0.0522367
6695,0.135742,0.177734,-1.42773,-0.000326202,0.000638731,-0.00149307,-0.0332852,-0.0313798,-1.70116,-4.59155,0.101215,-0.222892,-0.0663282,-0.0499473,-0.196973,-0.145743,-1.70116,0,0,262,54,262,54,365,48,266,147,0.290182,-0.0857998,0,-1.5,1.97059e-38,0,0,0,-0.0663282,-0.0499473,0,0,0,0,-0.196973,-0.145743,10692,0,0,0,0,0,0,0,0,0,1,0.054942
6710,0.135742,0.177734,-1.42773,-0.000326202,0.000638731,-0.00149307,-0.0332852,-0.0313798,-1.70116,-4.6626,0.105137,-0.204071,-0.0693202,-0.0521601,-0.200944,-0.148585,-1.70116,0,0,265,53,265,53,364,48,266,147,0.290995,-0.0843627,0,-1.5,1.97059e-38,0,0,0,-0.0693202,-0.0521601,0,0,0,0,-0.200944,-0.148585,10098,0,0,0,0,0,0,0,0,0,1,0.0573762
6725,0.135742,0.177734,-2.65332,-0.0013203,0.000144474,0.000264334,-0.0333293,-0.0313534,-1.70118,-4.6626,0.105137,-0.204071,-0.0723715,-0.0544155,-0.204888,-0.151404,-1.70118,0,0,265,53,265,53,364,48,266,147,0.291799,-0.0829149,0,-1.5,1.97059e-38,0,0,0,-0.0723715,-0.0544155,0,0,0,0,-0.204888,-0.151404,10098,0,0,0,0,0,0,0,0,0,1,0.059857
6741,0.135742,0.177734,-2.65332,-0.0013203,0.000144474,0.000264334,-0.0333293,-0.0313534,-1.70118,-4.61659,0.101751,-0.214991,-0.0756936,-0.0568693,-0.209067,-0.154386,-1.70118,0,0,263,54,263,54,364,48,266,147,0.29265,-0.0813708,0,-1.5,1.97059e-38,0,0,0,-0.0756936,-0.0568693,0,0,0,0,-0.209067,-0.154386,10593,0,0,0,0,0,0,0,0,0,1,0.0625562
6757,0.135742,0.177734,-0.745117,0.000471798,0.000786053,-0.000698478,-0.0333435,-0.031286,-1.70123,-4.61659,0.101751,-0.214991,-0.079081,-0.0593697,-0.213212,-0.157344,-1.70118,0,0,263,54,263,54,364,48,266,147,0.293492,-0.0798212,0,-1.5,1.97059e-38,0,0,0,-0.079081,-0.0593697,0,0,0,0,-0.213212,-0.157344,10593,0,0,0,0,0,0,0,0,0,1,0.0653066
6773,0.135742,0.177734,-0.745117,0.000471798,0.000786053,-0.000698478,-0.0333435,-0.031286,-1.70123,-4.61659,0.101751,-0.214991,-0.0825356,-0.061918,-0.217325,-0.160273,-1.70123,0,0,263,54,263,54,364,48,266,147,0.29432,-0.0782499,0,-1.5,1.97059e-38,0,0,0,-0.0825356,-0.061918,0,0,0,0,-0.217325,-0.160273,10593,0,0,0,0,0,0,0,0,0,1,0.0681098
6789,0.135742,0.177734,-2.67773,-0.00151016,-0.000188291,-0.00257553,-0.0333542,-0.0312847,-1.70128,-4.61659,0.101751,-0.214991,-0.0860557,-0.0645129,-0.221406,-0.163173,-1.70128,0,0,263,54,263,54,364,48,266,147,0.295139,-0.0766766,0,-1.5,1.97059e-38,0,0,0,-0.0860557,-0.0645129,0,0,0,0,-0.221406,-0.163173,10593,0,0,0,0,0,0,0,0,0,1,0.0709642
6805,0.135742,0.177734,5.60352,-0.00281716,5.46743e-05,-0.001269,-0.0333822,-0.0312743,-1.70129,-4.61638,0.101843,-0.214583,-0.0896408,-0.0671539,-0.225458,-0.166049,-1.70129,0,0,263,54,263,54,364,48,266,147,0.295955,-0.0751093,0,-1.5,1.97059e-38,0,0,0,-0.0896408,-0.0671539,0,0,0,0,-0.225458,-0.166049,10593,0,0,0,0,0,0,0,0,0,1,0.0738693
6821,0.135742,0.177734,2.09082,-0.00107285,0.000100018,-0.000122167,-0.033389,-0.0312731,-1.7013,-4.61638,0.101843,-0.214583,-0.0932905,-0.0698406,-0.22948,-0.1689,-1.7013,0,0,263,54,263,54,364,48,266,147,0.296762,-0.0735364,0,-1.5,1.97059e-38,0,0,0,-0.0932905,-0.0698406,0,0,0,0,-0.22948,-0.1689,10593,0,0,0,0,0,0,0,0,0,1,0.0768247
6838,0.135742,0.177734,-1.13672,0.000546901,-0.000973533,-0.00104258,-0.0333874,-0.0312733,-1.70132,-4.61638,0.101843,-0.214583,-0.0972383,-0.072745,-0.23372,-0.171904,-1.70132,0,0,263,54,263,54,364,48,266,147,0.297609,-0.0718568,0,-1.5,1.97059e-38,0,0,0,-0.0972383,-0.072745,0,0,0,0,-0.23372,-0.171904,10593,0,0,0,0,0,0,0,0,0,1,0.0800195
6853,0.135742,0.177734,-0.976562,-0.000720979,0.000708297,-0.00172442,-0.0334135,-0.0312546,-1.70136,-4.61638,0.101843,-0.214583,-0.10078,-0.075349,-0.23743,-0.174532,-1.70134,0,0,263,54,263,54,364,48,266,147,0.298348,-0.0703683,0,-1.5,1.97059e-38,0,0,0,-0.10078,-0.075349,0,0,0,0,-0.23743,-0.174532,10593,0,0,0,0,0,0,0,0,0,1,0.0828839
6869,0.135742,0.177734,6.75684,-0.00102486,0.000167157,-0.000937662,-0.0334275,-0.0312461,-1.70139,-4.61638,0.101843,-0.214583,-0.10462,-0.0781708,-0.24136,-0.177313,-1.70136,0,0,263,54,263,54,364,48,266,147,0.299128,-0.068774,0,-1.5,1.97059e-38,0,0,0,-0.10462,-0.0781708,0,0,0,0,-0.24136,-0.177313,10593,0,0,0,0,0,0,0,0,0,1,0.0859879
6886,0.135742,0.177734,-0.109375,-0.000730454,0.000524003,-0.00126729,-0.0334332,-0.0312385,-1.70142,-4.61638,0.101843,-0.214583,-0.108769,-0.0812174,-0.245505,-0.18024,-1.70142,0,0,263,54,263,54,364,48,266,147,0.299945,-0.0670668,0,-1.5,1.97059e-38,0,0,0,-0.108769,-0.0812174,0,0,0,0,-0.245505,-0.18024,10593,0,0,0,0,0,0,0,0,0,1,0.0893391
6901,0.135742,0.177734,-2.48926,-0.000843501,-0.000124798,-0.00231195,-0.0334463,-0.0312286,-1.70145,-4.66093,0.0916406,-0.197574,-0.112487,-0.0839457,-0.249134,-0.182799,-1.70145,0,0,265,53,265,53,364,48,268,147,0.300661,-0.0655622,0,-1.5,1.97059e-38,0,0,0,-0.112487,-0.0839457,0,0,0,0,-0.249134,-0.182799,10395,0,0,0,0,0,0,0,0,0,1,0.0923403
6916,0.135742,0.177734,-0.505859,-0.00184766,-0.000418853,-0.00214789,-0.033461,-0.0312267,-1.70147,-4.66093,0.0916406,-0.197574,-0.116258,-0.0867116,-0.252737,-0.185338,-1.70147,0,0,265,53,265,53,364,48,268,147,0.301369,-0.0640539,0,-1.5,1.97059e-38,0,0,0,-0.116258,-0.0867116,0,0,0,0,-0.252737,-0.185338,10395,0,0,0,0,0,0,0,0,0,1,0.0953828
6932,0.135742,0.177734,5.90332,-0.000940842,2.88178e-05,-0.00175884,-0.0334771,-0.0312242,-1.70148,-4.66093,0.0916406,-0.197574,-0.120342,-0.0897053,-0.256554,-0.188025,-1.70148,0,0,265,53,265,53,364,48,268,147,0.302119,-0.0624432,0,-1.5,1.97059e-38,0,0,0,-0.120342,-0.0897053,0,0,0,0,-0.256554,-0.188025,10395,0,0,0,0,0,0,0,0,0,1,0.0986758
6948,0.135742,0.177734,-2.41797,-0.000422305,-0.00041452,-0.0021877,-0.0334891,-0.0312257,-1.70151,-4.66093,0.0916406,-0.197574,-0.124485,-0.0927409,-0.260343,-0.190689,-1.70151,0,0,265,53,265,53,364,48,268,147,0.30286,-0.0608232,0,-1.5,1.97059e-38,0,0,0,-0.124485,-0.0927409,0,0,0,0,-0.260343,-0.190689,10395,0,0,0,0,0,0,0,0,0,1,0.102015
6965,0.135742,0.177734,0.794922,-0.00265063,0.000244386,-0.00189981,-0.0335397,-0.031203,-1.70155,-4.66093,0.0916406,-0.197574,-0.128955,-0.0960135,-0.264338,-0.193496,-1.70153,0,0,265,53,265,53,364,48,268,147,0.303639,-0.0591004,0,-1.5,1.97059e-38,0,0,0,-0.128955,-0.0960135,0,0,0,0,-0.264338,-0.193496,10395,0,0,0,0,0,0,0,0,0,1,0.105615
6981,0.135742,0.177734,-1.70703,-0.00269165,-0.000336765,-0.00239761,-0.0335616,-0.0312063,-1.70159,-4.62649,0.099472,-0.211202,-0.132954,-0.0989397,-0.267841,-0.195949,-1.70159,0,0,262,54,262,54,364,48,268,147,0.304316,-0.057562,0,-1.5,1.97059e-38,0,0,0,-0.132954,-0.0989397,0,0,0,0,-0.267841,-0.195949,10692,0,0,0,0,0,0,0,0,0,1,0.108834
6998,0.135742,0.177734,-3.82812,-0.00188446,-0.000292826,-0.00193713,-0.0335925,-0.0311973,-1.70162,-4.62649,0.099472,-0.211202,-0.137552,-0.102302,-0.271786,-0.198708,-1.70162,0,0,262,54,262,54,364,48,268,147,0.30508,-0.0558241,0,-1.5,1.97059e-38,0,0,0,-0.137552,-0.102302,0,0,0,0,-0.271786,-0.198708,10692,0,0,0,0,0,0,0,0,0,1,0.112532
7014,0.135742,0.177734,-3.82812,-0.00188446,-0.000292826,-0.00193713,-0.0335925,-0.0311973,-1.70162,-4.64501,0.0887578,-0.202193,-0.141939,-0.105509,-0.275471,-0.20128,-1.70162,0,0,265,53,265,53,364,48,268,147,0.305794,-0.0541921,0,-1.5,1.97059e-38,0,0,0,-0.141939,-0.105509,0,0,0,0,-0.275471,-0.20128,10494,0,0,0,0,0,0,0,0,0,1,0.116059
7030,0.135742,0.177734,-0.611328,-0.00231151,0.000200817,-0.00210055,-0.033617,-0.0311836,-1.70167,-4.64501,0.0887578,-0.202193,-0.146665,-0.10896,-0.279355,-0.203989,-1.70167,0,0,265,53,265,53,364,48,268,147,0.306538,-0.0524352,0,-1.5,1.97059e-38,0,0,0,-0.146665,-0.10896,0,0,0,0,-0.279355,-0.203989,10494,0,0,0,0,0,0,0,0,0,1,0.119856
7045,0.135742,0.177734,2.65039,-0.00148611,1.37509e-05,-0.00163773,-0.0336659,-0.0311815,-1.70171,-4.62639,0.0996367,-0.211098,-0.150888,-0.112043,-0.282757,-0.206359,-1.70167,0,0,262,54,262,54,364,48,268,147,0.307193,-0.0508964,0,-1.5,1.97059e-38,0,0,0,-0.150888,-0.112043,0,0,0,0,-0.282757,-0.206359,10692,0,0,0,0,0,0,0,0,0,1,0.123247
7061,0.135742,0.177734,1.33105,-0.0016527,-0.000525967,-0.0022648,-0.0336816,-0.0311801,-1.70174,-4.62639,0.0996367,-0.211098,-0.15545,-0.115371,-0.286362,-0.208867,-1.70171,0,0,262,54,262,54,364,48,268,147,0.307881,-0.0492397,0,-1.5,1.97059e-38,0,0,0,-0.15545,-0.115371,0,0,0,0,-0.286362,-0.208867,10692,0,0,0,0,0,0,0,0,0,1,0.126908
7078,0.135742,0.177734,4.78516,-0.000673463,0.000225636,-0.00177574,-0.0336873,-0.0311855,-1.70176,-4.62639,0.0996367,-0.211098,-0.160361,-0.118951,-0.290167,-0.211508,-1.70176,0,0,262,54,262,54,364,48,268,147,0.308603,-0.0474689,0,-1.5,1.97059e-38,0,0,0,-0.160361,-0.118951,0,0,0,0,-0.290167,-0.211508,10692,0,0,0,0,0,0,0,0,0,1,0.130846
7093,0.135742,0.177734,-3.03906,-0.000885419,-0.000111275,-0.00184183,-0.0336953,-0.0311802,-1.70178,-4.62639,0.0996367,-0.211098,-0.164744,-0.122145,-0.293499,-0.213819,-1.70178,0,0,262,54,262,54,364,48,268,147,0.309235,-0.0459081,0,-1.5,1.97059e-38,0,0,0,-0.164744,-0.122145,0,0,0,0,-0.293499,-0.213819,10692,0,0,0,0,0,0,0,0,0,1,0.13436
7108,0.135742,0.177734,-3.03906,-0.000885419,-0.000111275,-0.00184183,-0.0336953,-0.0311802,-1.70178,-4.6438,0.111002,-0.211801,-0.169178,-0.125374,-0.296806,-0.216112,-1.70178,0,0,263,54,263,54,364,48,266,147,0.309864,-0.0443514,0,-1.5,1.97059e-38,0,0,0,-0.169178,-0.125374,0,0,0,0,-0.296806,-0.216112,10296,0,0,0,0,0,0,0,0,0,1,0.137912
7124,0.135742,0.177734,0.369141,-0.000526289,-0.000687858,-0.00158828,-0.0337238,-0.0311723,-1.70183,-4.6438,0.111002,-0.211801,-0.173963,-0.128857,-0.300309,-0.218539,-1.70183,0,0,263,54,263,54,364,48,266,147,0.310521,-0.0426704,0,-1.5,1.97059e-38,0,0,0,-0.173963,-0.128857,0,0,0,0,-0.300309,-0.218539,10296,0,0,0,0,0,0,0,0,0,1,0.141743
7140,0.135742,0.177734,-4.45996,-0.000909519,0.000241934,-0.00151691,-0.0337279,-0.0311648,-1.70185,-4.63811,0.0972321,-0.207361,-0.178803,-0.132378,-0.303787,-0.220945,-1.70185,0,0,262,54,262,54,364,48,269,147,0.311176,-0.0409946,0,-1.5,1.97059e-38,0,0,0,-0.178803,-0.132378,0,0,0,0,-0.303787,-0.220945,10692,0,0,0,0,0,0,0,0,0,1,0.145616
7156,0.135742,0.177734,-5.84863,7.57099e-05,-0.00127194,-0.00146985,-0.0337273,-0.0311725,-1.70187,-4.63811,0.0972321,-0.207361,-0.183699,-0.135937,-0.307237,-0.22333,-1.70187,0,0,262,54,262,54,364,48,269,147,0.311823,-0.0393147,0,-1.5,1.97059e-38,0,0,0,-0.183699,-0.135937,0,0,0,0,-0.307237,-0.22333,10692,0,0,0,0,0,0,0,0,0,1,0.149531
7172,0.135742,0.177734,-6.77441,0.000144464,0.000247917,-0.00182696,-0.0337318,-0.0311643,-1.7019,-4.58868,0.104257,-0.228421,-0.188651,-0.139536,-0.310661,-0.225698,-1.7019,0,0,262,54,262,54,365,48,266,147,0.31246,-0.0376253,0,-1.5,1.97059e-38,0,0,0,-0.188651,-0.139536,0,0,0,0,-0.310661,-0.225698,10593,0,0,0,0,0,0,0,0,0,1,0.153489
7188,0.135742,0.177734,-0.206055,0.000273567,-0.000915329,-0.00266174,-0.0337433,-0.0311655,-1.70195,-4.58868,0.104257,-0.228421,-0.193656,-0.143171,-0.314057,-0.228045,-1.70195,0,0,262,54,262,54,365,48,266,147,0.313088,-0.0359254,0,-1.5,1.97059e-38,0,0,0,-0.193656,-0.143171,0,0,0,0,-0.314057,-0.228045,10593,0,0,0,0,0,0,0,0,0,1,0.157488
7204,0.135742,0.177734,-6.54004,-0.00111563,0.000912553,-0.00245419,-0.0337561,-0.0311635,-1.70197,-4.58868,0.104257,-0.228421,-0.198716,-0.146844,-0.317429,-0.230373,-1.70197,0,0,262,54,262,54,365,48,266,147,0.313712,-0.0342303,0,-1.5,1.97059e-38,0,0,0,-0.198716,-0.146844,0,0,0,0,-0.317429,-0.230373,10593,0,0,0,0,0,0,0,0,0,1,0.161528
7220,0.135742,0.177734,4.28125,-0.000782187,-0.000276253,-0.00136842,-0.0337662,-0.031166,-1.70199,-4.58868,0.104257,-0.228421,-0.203829,-0.150553,-0.320776,-0.232682,-1.70199,0,0,262,54,262,54,365,48,266,147,0.314331,-0.0325324,0,-1.5,1.97059e-38,0,0,0,-0.203829,-0.150553,0,0,0,0,-0.320776,-0.232682,10593,0,0,0,0,0,0,0,0,0,1,0.165609
7236,0.135742,0.177734,0.980469,-0.00119159,0.000830639,-0.00126501,-0.0337797,-0.0311574,-1.70201,-4.61597,0.102515,-0.214139,-0.208997,-0.1543,-0.324099,-0.234972,-1.70201,0,0,263,54,263,54,364,48,266,147,0.314942,-0.0308286,0,-1.5,1.97059e-38,0,0,0,-0.208997,-0.1543,0,0,0,0,-0.324099,-0.234972,10593,0,0,0,0,0,0,0,0,0,1,0.16973
7252,0.135742,0.177734,0.980469,-0.00119159,0.000830639,-0.00126501,-0.0337797,-0.0311574,-1.70201,-4.61597,0.102515,-0.214139,-0.214216,-0.158083,-0.327396,-0.237243,-1.70201,0,0,263,54,263,54,364,48,266,147,0.315549,-0.0291268,0,-1.5,1.97059e-38,0,0,0,-0.214216,-0.158083,0,0,0,0,-0.327396,-0.237243,10593,0,0,0,0,0,0,0,0,0,1,0.173891
7274,0.135742,0.177734,4.33301,-0.00111072,-0.000432585,-0.00131104,-0.03379,-0.0311402,-1.70209,-4.61597,0.102515,-0.214139,-0.221488,-0.16335,-0.331891,-0.240337,-1.70209,0,0,263,54,263,54,364,48,266,147,0.316361,-0.0267522,0,-1.5,1.97059e-38,0,0,0,-0.221488,-0.16335,0,0,0,0,-0.331891,-0.240337,10593,0,0,0,0,0,0,0,0,0,1,0.179685
7290,0.135742,0.177734,4.33301,-0.00111072,-0.000432585,-0.00131104,-0.03379,-0.0311402,-1.70209,-4.6042,0.104508,-0.226372,-0.226832,-0.167219,-0.335128,-0.242562,-1.70209,0,0,263,54,263,54,364,48,266,147,0.316951,-0.0250401,0,-1.5,1.97059e-38,0,0,0,-0.226832,-0.167219,0,0,0,0,-0.335128,-0.242562,10494,0,0,0,0,0,0,0,0,0,1,0.183941
7305,0.135742,0.177734,0.344727,-0.000931873,-0.000664782,-0.000922299,-0.0337918,-0.0311347,-1.70212,-4.6042,0.104508,-0.226372,-0.231888,-0.170877,-0.338139,-0.244631,-1.70212,0,0,263,54,263,54,364,48,266,147,0.317493,-0.0234208,0,-1.5,1.97059e-38,0,0,0,-0.231888,-0.170877,0,0,0,0,-0.338139,-0.244631,10494,0,0,0,0,0,0,0,0,0,1,0.187965
7321,0.135742,0.177734,-6.16992,-0.00107861,-0.000944498,-0.00183927,-0.0338042,-0.0311309,-1.70214,-4.6042,0.104508,-0.226372,-0.236989,-0.174567,-0.341128,-0.246683,-1.70214,0,0,263,54,263,54,364,48,266,147,0.31803,-0.0218023,0,-1.5,1.97059e-38,0,0,0,-0.236989,-0.174567,0,0,0,0,-0.341128,-0.246683,10494,0,0,0,0,0,0,0,0,0,1,0.192023
7336,0.135742,0.177734,-4.36035,-0.00145183,0.00174431,-0.00179296,-0.0338244,-0.0311024,-1.70217,-4.6042,0.104508,-0.226372,-0.24248,-0.178536,-0.344294,-0.248855,-1.70215,0,0,263,54,263,54,364,48,266,147,0.318599,-0.0200745,0,-1.5,1.97059e-38,0,0,0,-0.24248,-0.178536,0,0,0,0,-0.344294,-0.248855,10494,0,0,0,0,0,0,0,0,0,1,0.19639
7352,0.135742,0.177734,-1.77637,-0.00102484,0.000946811,-0.0027164,-0.0338346,-0.0310936,-1.70222,-4.6042,0.104508,-0.226372,-0.248021,-0.18254,-0.347435,-0.251005,-1.70217,0,0,263,54,263,54,364,48,266,147,0.31916,-0.0183405,0,-1.5,1.97059e-38,0,0,0,-0.248021,-0.18254,0,0,0,0,-0.347435,-0.251005,10494,0,0,0,0,0,0,0,0,0,1,0.200794
7368,0.135742,0.177734,2.98926,-0.000691208,-0.000192671,-0.0037016,-0.033844,-0.0310925,-1.70226,-4.62963,0.11368,-0.215859,-0.253612,-0.186578,-0.350554,-0.253136,-1.70226,0,0,262,54,262,54,364,48,266,147,0.319703,-0.0165796,0,-1.5,1.97059e-38,0,0,0,-0.253612,-0.186578,0,0,0,0,-0.350554,-0.253136,10395,0,0,0,0,0,0,0,0,0,1,0.205236
7384,0.135742,0.177734,-6.12109,-0.0022907,0.000500243,-0.00133351,-0.033862,-0.0310863,-1.70227,-4.62963,0.11368,-0.215859,-0.259252,-0.19065,-0.353651,-0.255248,-1.70227,0,0,262,54,262,54,364,48,266,147,0.320253,-0.0148413,0,-1.5,1.97059e-38,0,0,0,-0.259252,-0.19065,0,0,0,0,-0.353651,-0.255248,10395,0,0,0,0,0,0,0,0,0,1,0.209714
7400,0.135742,0.177734,0.828125,-0.00151461,-0.00042752,-0.00246688,-0.0338723,-0.0310896,-1.7023,-4.62925,0.099723,-0.212703,-0.264943,-0.194756,-0.356725,-0.257343,-1.7023,0,0,263,53,263,53,364,48,268,147,0.320794,-0.013093,0,-1.5,1.97059e-38,0,0,0,-0.264943,-0.194756,0,0,0,0,-0.356725,-0.257343,10494,0,0,0,0,0,0,0,0,0,1,0.214231
7416,0.135742,0.177734,0.828125,-0.00151461,-0.00042752,-0.00246688,-0.0338723,-0.0310896,-1.7023,-4.62925,0.099723,-0.212703,-0.270682,-0.198894,-0.359776,-0.259421,-1.7023,0,0,263,53,263,53,364,48,268,147,0.321332,-0.0113498,0,-1.5,1.97059e-38,0,0,0,-0.270682,-0.198894,0,0,0,0,-0.359776,-0.259421,10494,0,0,0,0,0,0,0,0,0,1,0.218784
7432,0.135742,0.177734,0.828125,-0.00151461,-0.00042752,-0.00246688,-0.0338723,-0.0310896,-1.7023,-4.65654,0.103153,-0.20725,-0.27647,-0.203067,-0.362803,-0.261483,-1.7023,0,0,263,54,263,54,365,48,268,147,0.321865,-0.00960206,0,-1.5,1.97059e-38,0,0,0,-0.27647,-0.203067,0,0,0,0,-0.362803,-0.261483,10296,0,0,0,0,0,0,0,0,0,1,0.223373
7448,0.135742,0.177734,3.70996,-0.000904526,-0.000296975,-0.00187614,-0.0338647,-0.0310685,-1.70243,-4.65654,0.103153,-0.20725,-0.282305,-0.207271,-0.365805,-0.263527,-1.7023,0,0,263,54,263,54,365,48,268,147,0.32239,-0.00785057,0,-1.5,1.97059e-38,0,0,0,-0.282305,-0.207271,0,0,0,0,-0.365805,-0.263527,10296,0,0,0,0,0,0,0,0,0,1,0.227998
7465,0.135742,0.177734,4.32715,-0.00175066,0.000141269,-0.00281938,-0.0338878,-0.031062,-1.70245,-4.59064,0.102125,-0.221509,-0.288559,-0.211775,-0.368969,-0.26568,-1.70245,0,0,262,54,262,54,365,48,266,147,0.322915,-0.00593608,0,-1.5,1.97059e-38,0,0,0,-0.288559,-0.211775,0,0,0,0,-0.368969,-0.26568,10692,0,0,0,0,0,0,0,0,0,1,0.232952
7481,0.135742,0.177734,-6.92676,-0.00168127,0.000171738,-0.00144394,-0.0338885,-0.0310546,-1.70248,-4.59064,0.102125,-0.221509,-0.294493,-0.216047,-0.371925,-0.267686,-1.70248,0,0,262,54,262,54,365,48,266,147,0.323424,-0.00416993,0,-1.5,1.97059e-38,0,0,0,-0.294493,-0.216047,0,0,0,0,-0.371925,-0.267686,10692,0,0,0,0,0,0,0,0,0,1,0.237652
7497,0.135742,0.177734,-3.47461,-0.000594588,-0.000527607,-0.00192615,-0.033901,-0.0310557,-1.7025,-4.59064,0.102125,-0.221509,-0.300474,-0.22035,-0.374858,-0.269675,-1.7025,0,0,262,54,262,54,365,48,266,147,0.323927,-0.00240038,0,-1.5,1.97059e-38,0,0,0,-0.300474,-0.22035,0,0,0,0,-0.374858,-0.269675,10692,0,0,0,0,0,0,0,0,0,1,0.242385
7512,0.135742,0.177734,-3.47461,-0.000594588,-0.000527607,-0.00192615,-0.033901,-0.0310557,-1.7025,-4.61569,0.102708,-0.213667,-0.306123,-0.224413,-0.377588,-0.271524,-1.7025,0,0,263,54,263,54,364,48,266,147,0.324396,-0.000744693,0,-1.5,1.97059e-38,0,0,0,-0.306123,-0.224413,0,0,0,0,-0.377588,-0.271524,10593,0,0,0,0,0,0,0,0,0,1,0.246854
7529,0.135742,0.177734,-3.47461,-0.000594588,-0.000527607,-0.00192615,-0.033901,-0.0310557,-1.7025,-4.61569,0.102708,-0.213667,-0.312576,-0.229052,-0.380657,-0.273604,-1.7025,0,0,263,54,263,54,364,48,266,147,0.32492,0.00113616,0,-1.5,1.97059e-38,0,0,0,-0.312576,-0.229052,0,0,0,0,-0.380657,-0.273604,10593,0,0,0,0,0,0,0,0,0,1,0.251957
7545,0.135742,0.177734,-2.57617,-0.00102746,0.000514311,-0.000779377,-0.0339338,-0.0310226,-1.70257,-4.64199,0.105678,-0.211667,-0.318312,-0.233174,-0.383343,-0.275424,-1.7025,0,0,262,54,262,54,365,48,268,147,0.325377,0.00279915,0,-1.5,1.97059e-38,0,0,0,-0.318312,-0.233174,0,0,0,0,-0.383343,-0.275424,10395,0,0,0,0,0,0,0,0,0,1,0.256491
7560,0.135742,0.177734,0.224609,-0.000525644,-0.00015841,-0.0025261,-0.0339316,-0.031026,-1.7026,-4.64199,0.105678,-0.211667,-0.324476,-0.237601,-0.386189,-0.277348,-1.70257,0,0,262,54,262,54,365,48,268,147,0.325848,0.00459809,0,-1.5,1.97059e-38,0,0,0,-0.324476,-0.237601,0,0,0,0,-0.386189,-0.277348,10395,0,0,0,0,0,0,0,0,0,1,0.261361
7576,0.135742,0.177734,0.224609,-0.000525644,-0.00015841,-0.0025261,-0.0339316,-0.031026,-1.7026,-4.62943,0.113853,-0.215525,-0.330684,-0.242058,-0.389014,-0.279254,-1.7026,0,0,262,54,262,54,364,48,266,147,0.326318,0.00638904,0,-1.5,1.97059e-38,0,0,0,-0.330684,-0.242058,0,0,0,0,-0.389014,-0.279254,10395,0,0,0,0,0,0,0,0,0,1,0.266264
7592,0.135742,0.177734,0.224609,-0.000525644,-0.00015841,-0.0025261,-0.0339316,-0.031026,-1.7026,-4.62943,0.113853,-0.215525,-0.336938,-0.246546,-0.391817,-0.281145,-1.7026,0,0,262,54,262,54,364,48,266,147,0.326789,0.00817315,0,-1.5,1.97059e-38,0,0,0,-0.336938,-0.246546,0,0,0,0,-0.391817,-0.281145,10395,0,0,0,0,0,0,0,0,0,1,0.271201
7608,0.135742,0.177734,0.224609,-0.000525644,-0.00015841,-0.0025261,-0.0339316,-0.031026,-1.7026,-4.62353,0.116532,-0.220171,-0.343236,-0.251064,-0.394597,-0.28302,-1.7026,0,0,261,55,261,55,364,48,266,147,0.327253,0.00996097,0,-1.5,1.97059e-38,0,0,0,-0.343236,-0.251064,0,0,0,0,-0.394597,-0.28302,10494,0,0,0,0,0,0,0,0,0,1,0.276171
7624,0.135742,0.177734,-3.05957,-0.00104537,-0.000692843,-0.00151069,-0.0339673,-0.0309921,-1.7027,-4.62353,0.116532,-0.220171,-0.349579,-0.255612,-0.397358,-0.284878,-1.7027,0,0,261,55,261,55,364,48,266,147,0.327692,0.0117861,0,-1.5,1.97059e-38,0,0,0,-0.349579,-0.255612,0,0,0,0,-0.397358,-0.284878,10494,0,0,0,0,0,0,0,0,0,1,0.281173
7640,0.135742,0.177734,6.9043,-0.00190923,0.000769001,-0.00198019,-0.0339963,-0.0309844,-1.70275,-4.58039,0.104237,-0.232989,-0.355965,-0.26019,-0.400099,-0.286717,-1.7027,0,0,263,54,263,54,365,48,265,147,0.328145,0.0135799,0,-1.5,1.97059e-38,0,0,0,-0.355965,-0.26019,0,0,0,0,-0.400099,-0.286717,10494,0,0,0,0,0,0,0,0,0,1,0.286209
7656,0.135742,0.177734,4.65332,-0.00123341,-0.000179323,-0.00181354,-0.0340088,-0.0309765,-1.70279,-4.58039,0.104237,-0.232989,-0.362395,-0.264796,-0.402821,-0.28854,-1.70275,0,0,263,54,263,54,365,48,265,147,0.328584,0.0153936,0,-1.5,1.97059e-38,0,0,0,-0.362395,-0.264796,0,0,0,0,-0.402821,-0.28854,10494,0,0,0,0,0,0,0,0,0,1,0.291275
7673,0.135742,0.177734,4.65332,-0.00123341,-0.000179323,-0.00181354,-0.0340088,-0.0309765,-1.70279,-4.61106,0.10259,-0.217656,-0.369274,-0.269722,-0.405693,-0.290459,-1.70279,0,0,263,54,263,54,365,48,266,147,0.329048,0.0173167,0,-1.5,1.97059e-38,0,0,0,-0.369274,-0.269722,0,0,0,0,-0.405693,-0.290459,10494,0,0,0,0,0,0,0,0,0,1,0.296694
7688,0.135742,0.177734,-4.6875,-0.000762593,2.28434e-05,-0.00226819,-0.0340388,-0.030968,-1.70285,-4.61106,0.10259,-0.217656,-0.374975,-0.273802,-0.408041,-0.292025,-1.70285,0,0,263,54,263,54,365,48,266,147,0.329419,0.0189151,0,-1.5,1.97059e-38,0,0,0,-0.374975,-0.273802,0,0,0,0,-0.408041,-0.292025,10494,0,0,0,0,0,0,0,0,0,1,0.301183
7703,0.135742,0.177734,6.68848,-0.00186205,-0.00062316,-0.00155025,-0.0340622,-0.030966,-1.70287,-4.58888,0.107915,-0.221677,-0.381531,-0.278493,-0.410709,-0.293801,-1.70287,0,0,262,54,262,54,364,48,265,147,0.329847,0.0207297,0,-1.5,1.97059e-38,0,0,0,-0.381531,-0.278493,0,0,0,0,-0.410709,-0.293801,10692,0,0,0,0,0,0,0,0,0,1,0.306342
7719,0.135742,0.177734,0.447266,-0.000575737,-0.000545124,-0.00120298,-0.0340645,-0.0309579,-1.70289,-4.58888,0.107915,-0.221677,-0.38813,-0.283212,-0.413359,-0.295561,-1.70289,0,0,262,54,262,54,364,48,265,147,0.330271,0.0225463,0,-1.5,1.97059e-38,0,0,0,-0.38813,-0.283212,0,0,0,0,-0.413359,-0.295561,10692,0,0,0,0,0,0,0,0,0,1,0.311533
7735,0.135742,0.177734,-1.86328,-0.000785077,0.00148617,-0.00165055,-0.0340848,-0.030936,-1.70292,-4.58888,0.107915,-0.221677,-0.394771,-0.28796,-0.415989,-0.297305,-1.70292,0,0,262,54,262,54,364,48,265,147,0.330688,0.0243684,0,-1.5,1.97059e-38,0,0,0,-0.394771,-0.28796,0,0,0,0,-0.415989,-0.297305,10692,0,0,0,0,0,0,0,0,0,1,0.316756
7751,0.135742,0.177734,-1.58398,-0.00138828,-0.000599998,-0.00160568,-0.0341133,-0.0309175,-1.70295,-4.58888,0.107915,-0.221677,-0.401455,-0.292735,-0.418601,-0.299032,-1.70294,0,0,262,54,262,54,364,48,265,147,0.331102,0.0261895,0,-1.5,1.97059e-38,0,0,0,-0.401455,-0.292735,0,0,0,0,-0.418601,-0.299032,10692,0,0,0,0,0,0,0,0,0,1,0.322008
7768,0.135742,0.177734,-1.58398,-0.00138828,-0.000599998,-0.00160568,-0.0341133,-0.0309175,-1.70295,-4.6399,0.108831,-0.214317,-0.408601,-0.297838,-0.421356,-0.300849,-1.70295,0,0,263,55,263,55,365,48,266,147,0.331536,0.0281276,0,-1.5,1.97059e-38,0,0,0,-0.408601,-0.297838,0,0,0,0,-0.421356,-0.300849,10296,0,0,0,0,0,0,0,0,0,1,0.327622
7783,0.135742,0.177734,5.27148,-0.00214964,-0.000782526,-0.000678036,-0.0341523,-0.0309046,-1.70301,-4.6399,0.108831,-0.214317,-0.414945,-0.302366,-0.423768,-0.302438,-1.70301,0,0,263,55,263,55,365,48,266,147,0.331907,0.0298525,0,-1.5,1.97059e-38,0,0,0,-0.414945,-0.302366,0,0,0,0,-0.423768,-0.302438,10296,0,0,0,0,0,0,0,0,0,1,0.332603
7800,0.135742,0.177734,-4.22461,-0.00280585,0.000692002,-0.00173572,-0.0341802,-0.0308896,-1.70303,-4.6399,0.108831,-0.214317,-0.422179,-0.307527,-0.426487,-0.304222,-1.70303,0,0,263,55,263,55,365,48,266,147,0.332331,0.031798,0,-1.5,1.97059e-38,0,0,0,-0.422179,-0.307527,0,0,0,0,-0.426487,-0.304222,10296,0,0,0,0,0,0,0,0,0,1,0.33828
7816,0.135742,0.177734,4.65332,-0.00174733,-0.00107401,-0.00135078,-0.0341972,-0.0308968,-1.70306,-4.6399,0.108831,-0.214317,-0.429029,-0.312412,-0.42903,-0.305884,-1.70306,0,0,263,55,263,55,365,48,266,147,0.332722,0.0336357,0,-1.5,1.97059e-38,0,0,0,-0.429029,-0.312412,0,0,0,0,-0.42903,-0.305884,10296,0,0,0,0,0,0,0,0,0,1,0.343653
7832,0.135742,0.177734,-2.58301,-0.00141194,-0.000885242,-0.00224941,-0.0342075,-0.0309101,-1.70308,-4.6399,0.108831,-0.214317,-0.435919,-0.317323,-0.431554,-0.307535,-1.70308,0,0,263,55,263,55,365,48,266,147,0.33311,0.035475,0,-1.5,1.97059e-38,0,0,0,-0.435919,-0.317323,0,0,0,0,-0.431554,-0.307535,10296,0,0,0,0,0,0,0,0,0,1,0.349055
7847,0.135742,0.177734,-5.96289,-0.000499198,-0.000577097,-0.000868846,-0.0342372,-0.0309172,-1.70311,-4.66867,0.0930762,-0.196208,-0.442415,-0.321951,-0.433904,-0.309071,-1.70308,0,0,265,54,265,54,364,48,268,147,0.333474,0.0371947,0,-1.5,1.97059e-38,0,0,0,-0.442415,-0.321951,0,0,0,0,-0.433904,-0.309071,10395,0,0,0,0,0,0,0,0,0,1,0.354146
7864,0.135742,0.177734,-1.56445,-0.00052556,8.99383e-05,-0.00145911,-0.0342485,-0.0309061,-1.70313,-4.66867,0.0930762,-0.196208,-0.449822,-0.327225,-0.436551,-0.310799,-1.70311,0,0,265,54,265,54,364,48,268,147,0.333876,0.0391574,0,-1.5,1.97059e-38,0,0,0,-0.449822,-0.327225,0,0,0,0,-0.436551,-0.310799,10395,0,0,0,0,0,0,0,0,0,1,0.359947
7879,0.135742,0.177734,6.68066,-0.0015058,-0.000382725,-0.00193953,-0.0342638,-0.0309081,-1.70316,-4.61151,0.11395,-0.22326,-0.456392,-0.331901,-0.438869,-0.312309,-1.70316,0,0,261,55,261,55,365,48,266,147,0.33422,0.0408992,0,-1.5,1.97059e-38,0,0,0,-0.456392,-0.331901,0,0,0,0,-0.438869,-0.312309,10494,0,0,0,0,0,0,0,0,0,1,0.365091
7894,0.135742,0.177734,1.8252,-0.000829072,-0.000850538,-0.00105254,-0.0342701,-0.0309118,-1.70318,-4.61151,0.11395,-0.22326,-0.462997,-0.3366,-0.441173,-0.313807,-1.70318,0,0,261,55,261,55,365,48,266,147,0.334567,0.0426328,0,-1.5,1.97059e-38,0,0,0,-0.462997,-0.3366,0,0,0,0,-0.441173,-0.313807,10494,0,0,0,0,0,0,0,0,0,1,0.37026
7911,0.135742,0.177734,1.8252,-0.000829072,-0.000850538,-0.00105254,-0.0342701,-0.0309118,-1.70318,-4.61525,0.103304,-0.213095,-0.470526,-0.341954,-0.443764,-0.315493,-1.70318,0,0,263,54,263,54,364,48,266,147,0.33496,0.0445955,0,-1.5,1.97059e-38,0,0,0,-0.470526,-0.341954,0,0,0,0,-0.443764,-0.315493,10593,0,0,0,0,0,0,0,0,0,1,0.376149
7927,0.135742,0.177734,1.8252,-0.000829072,-0.000850538,-0.00105254,-0.0342701,-0.0309118,-1.70318,-4.61525,0.103304,-0.213095,-0.477652,-0.347018,-0.446183,-0.317066,-1.70318,0,0,263,54,263,54,364,48,266,147,0.335323,0.0464458,0,-1.5,1.97059e-38,0,0,0,-0.477652,-0.347018,0,0,0,0,-0.446183,-0.317066,10593,0,0,0,0,0,0,0,0,0,1,0.38172
7943,0.135742,0.177734,1.8252,-0.000829072,-0.000850538,-0.00105254,-0.0342701,-0.0309118,-1.70318,-4.62909,0.114387,-0.215101,-0.484816,-0.352108,-0.448582,-0.318627,-1.70318,0,0,262,54,262,54,364,48,266,147,0.335682,0.0482991,0,-1.5,1.97059e-38,0,0,0,-0.484816,-0.352108,0,0,0,0,-0.448582,-0.318627,10395,0,0,0,0,0,0,0,0,0,1,0.387319
7959,0.135742,0.177734,6.82324,-0.000923132,-2.2811e-05,-0.00242214,-0.0343289,-0.030913,-1.70329,-4.62909,0.114387,-0.215101,-0.492018,-0.357222,-0.450965,-0.320175,-1.70327,0,0,262,54,262,54,364,48,266,147,0.336015,0.0501854,0,-1.5,1.97059e-38,0,0,0,-0.492018,-0.357222,0,0,0,0,-0.450965,-0.320175,10395,0,0,0,0,0,0,0,0,0,1,0.392944
7975,0.135742,0.177734,6.82324,-0.000923132,-2.2811e-05,-0.00242214,-0.0343289,-0.030913,-1.70329,-4.63723,0.0954169,-0.208867,-0.499257,-0.36236,-0.453335,-0.321709,-1.70329,0,0,263,55,263,55,365,48,268,147,0.33636,0.0520528,0,-1.5,1.97059e-38,0,0,0,-0.499257,-0.36236,0,0,0,0,-0.453335,-0.321709,10593,0,0,0,0,0,0,0,0,0,1,0.398596
7991,0.135742,0.177734,-4.80469,-0.00165805,0.000301052,-0.00245092,-0.0343502,-0.0309002,-1.70335,-4.63723,0.0954169,-0.208867,-0.506535,-0.367523,-0.455688,-0.32323,-1.70335,0,0,263,55,263,55,365,48,268,147,0.336692,0.0539346,0,-1.5,1.97059e-38,0,0,0,-0.506535,-0.367523,0,0,0,0,-0.455688,-0.32323,10593,0,0,0,0,0,0,0,0,0,1,0.404275
8007,0.135742,0.177734,-4.80469,-0.00165805,0.000301052,-0.00245092,-0.0343502,-0.0309002,-1.70335,-4.56549,0.0992583,-0.236662,-0.51385,-0.37271,-0.458024,-0.324737,-1.70335,0,0,262,55,262,55,365,48,266,147,0.337032,0.0557991,0,-1.5,1.97059e-38,0,0,0,-0.51385,-0.37271,0,0,0,0,-0.458024,-0.324737,10791,0,0,0,0,0,0,0,0,0,1,0.409981
8023,0.135742,0.177734,-5.66602,-0.0018513,-0.000322446,-0.00149875,-0.0343807,-0.0308878,-1.7034,-4.56549,0.0992583,-0.236662,-0.520741,-0.377595,-0.460198,-0.326138,-1.7034,0,0,262,55,262,55,365,48,266,147,0.337336,0.0575659,0,-1.5,1.97059e-38,0,0,0,-0.520741,-0.377595,0,0,0,0,-0.460198,-0.326138,10791,0,0,0,0,0,0,0,0,0,1,0.415354
8038,0.135742,0.177734,0.298828,-0.00104009,-3.89157e-05,-0.00176263,-0.0343894,-0.0308786,-1.70342,-4.60499,0.113998,-0.222365,-0.528129,-0.382828,-0.462504,-0.327618,-1.70342,0,0,262,54,262,54,365,48,265,147,0.337664,0.0594419,0,-1.5,1.97059e-38,0,0,0,-0.528129,-0.382828,0,0,0,0,-0.462504,-0.327618,10395,0,0,0,0,0,0,0,0,0,1,0.421111
8054,0.135742,0.177734,6.84473,-0.00108604,0.000572217,-0.00122012,-0.0344109,-0.0308649,-1.70344,-4.60499,0.113998,-0.222365,-0.535552,-0.388085,-0.464793,-0.329085,-1.70344,0,0,262,54,262,54,365,48,265,147,0.337986,0.0613211,0,-1.5,1.97059e-38,0,0,0,-0.535552,-0.388085,0,0,0,0,-0.464793,-0.329085,10395,0,0,0,0,0,0,0,0,0,1,0.426894
8070,0.135742,0.177734,-4.58789,-0.000268491,-0.000757884,-0.00151487,-0.0344246,-0.0308592,-1.7035,-4.60499,0.113998,-0.222365,-0.543013,-0.393366,-0.467066,-0.330537,-1.70348,0,0,262,54,262,54,365,48,265,147,0.338299,0.0632102,0,-1.5,1.97059e-38,0,0,0,-0.543013,-0.393366,0,0,0,0,-0.467066,-0.330537,10395,0,0,0,0,0,0,0,0,0,1,0.432703
8085,0.135742,0.177734,7.3584,-0.00072942,0.0003747,-0.00244145,-0.0344272,-0.0308433,-1.70353,-4.60499,0.113998,-0.222365,-0.550039,-0.398337,-0.469182,-0.331887,-1.7035,0,0,262,54,262,54,365,48,265,147,0.338594,0.0649758,0,-1.5,1.97059e-38,0,0,0,-0.550039,-0.398337,0,0,0,0,-0.469182,-0.331887,10395,0,0,0,0,0,0,0,0,0,1,0.438171
8101,0.135742,0.177734,7.32227,-0.00195562,0.000163752,-0.00120427,-0.0344489,-0.0308396,-1.70355,-4.62893,0.114632,-0.214899,-0.55757,-0.403662,-0.471423,-0.333314,-1.70355,0,0,262,54,262,54,364,48,266,147,0.338896,0.0668715,0,-1.5,1.97059e-38,0,0,0,-0.55757,-0.403662,0,0,0,0,-0.471423,-0.333314,10395,0,0,0,0,0,0,0,0,0,1,0.444028
8117,0.135742,0.177734,6.96875,-0.00235466,0.000245281,-0.00216795,-0.0344567,-0.0308409,-1.70358,-4.62893,0.114632,-0.214899,-0.565136,-0.40901,-0.473649,-0.334728,-1.70358,0,0,262,54,262,54,364,48,266,147,0.3392,0.0687624,0,-1.5,1.97059e-38,0,0,0,-0.565136,-0.40901,0,0,0,0,-0.473649,-0.334728,10395,0,0,0,0,0,0,0,0,0,1,0.449911
8134,0.135742,0.177734,-6.24609,-0.000807928,0.000327184,-0.0022829,-0.0344667,-0.030829,-1.70361,-4.6261,0.0978702,-0.215093,-0.573214,-0.414717,-0.475996,-0.336217,-1.70361,0,0,263,54,263,54,365,48,268,147,0.339516,0.0707758,0,-1.5,1.97059e-38,0,0,0,-0.573214,-0.414717,0,0,0,0,-0.475996,-0.336217,10494,0,0,0,0,0,0,0,0,0,1,0.456189
8149,0.135742,0.177734,-6.24609,-0.000807928,0.000327184,-0.0022829,-0.0344667,-0.030829,-1.70361,-4.6261,0.0978702,-0.215093,-0.580373,-0.419773,-0.478051,-0.337519,-1.70361,0,0,263,54,263,54,365,48,268,147,0.339799,0.0725446,0,-1.5,1.97059e-38,0,0,0,-0.580373,-0.419773,0,0,0,0,-0.478051,-0.337519,10494,0,0,0,0,0,0,0,0,0,1,0.46175
8166,0.135742,0.177734,2.85449,-0.00122267,0.000457557,-0.00223794,-0.0344712,-0.0308305,-1.70365,-4.62885,0.114699,-0.214773,-0.588526,-0.425527,-0.480363,-0.338982,-1.70365,0,0,262,54,262,54,364,48,266,147,0.340104,0.0745654,0,-1.5,1.97059e-38,0,0,0,-0.588526,-0.425527,0,0,0,0,-0.480363,-0.338982,10395,0,0,0,0,0,0,0,0,0,1,0.468079
8182,0.135742,0.177734,-6.79004,-0.00102365,-0.000334658,-0.000980326,-0.0345039,-0.0308152,-1.70368,-4.62885,0.114699,-0.214773,-0.596234,-0.430964,-0.48252,-0.340349,-1.70365,0,0,262,54,262,54,364,48,266,147,0.340395,0.0764576,0,-1.5,1.97059e-38,0,0,0,-0.596234,-0.430964,0,0,0,0,-0.48252,-0.340349,10395,0,0,0,0,0,0,0,0,0,1,0.474061
8198,0.135742,0.177734,-6.4707,-0.00195952,-0.000283007,-0.000819623,-0.0345245,-0.0308097,-1.70369,-4.62885,0.114699,-0.214773,-0.603976,-0.436424,-0.484666,-0.3417,-1.70369,0,0,262,54,262,54,364,48,266,147,0.340673,0.0783661,0,-1.5,1.97059e-38,0,0,0,-0.603976,-0.436424,0,0,0,0,-0.484666,-0.3417,10395,0,0,0,0,0,0,0,0,0,1,0.480066
8214,0.135742,0.177734,-6.4707,-0.00195952,-0.000283007,-0.000819623,-0.0345245,-0.0308097,-1.70369,-4.61121,0.114371,-0.222863,-0.611752,-0.441905,-0.486798,-0.34304,-1.70369,0,0,261,55,261,55,365,48,266,147,0.340957,0.0802627,0,-1.5,1.97059e-38,0,0,0,-0.611752,-0.441905,0,0,0,0,-0.486798,-0.34304,10494,0,0,0,0,0,0,0,0,0,1,0.486095
8230,0.135742,0.177734,-2.61426,-0.000259937,-9.89929e-05,-0.0030775,-0.0345335,-0.0307911,-1.70375,-4.61121,0.114371,-0.222863,-0.619563,-0.447407,-0.488913,-0.344368,-1.70375,0,0,261,55,261,55,365,48,266,147,0.34122,0.0821834,0,-1.5,1.97059e-38,0,0,0,-0.619563,-0.447407,0,0,0,0,-0.488913,-0.344368,10494,0,0,0,0,0,0,0,0,0,1,0.492148
8245,0.135742,0.177734,-2.61426,-0.000259937,-9.89929e-05,-0.0030775,-0.0345335,-0.0307911,-1.70375,-4.59445,0.108847,-0.221962,-0.626915,-0.452584,-0.490881,-0.345601,-1.70375,0,0,261,55,261,55,364,48,266,147,0.341478,0.0839654,0,-1.5,1.97059e-38,0,0,0,-0.626915,-0.452584,0,0,0,0,-0.490881,-0.345601,10791,0,0,0,0,0,0,0,0,0,1,0.497843
8262,0.135742,0.177734,3.76465,-0.000904748,-0.000546992,-0.0016656,-0.0345667,-0.0307995,-1.70381,-4.59445,0.108847,-0.221962,-0.635285,-0.458475,-0.493096,-0.346988,-1.70379,0,0,261,55,261,55,364,48,266,147,0.341757,0.0859999,0,-1.5,1.97059e-38,0,0,0,-0.635285,-0.458475,0,0,0,0,-0.493096,-0.346988,10791,0,0,0,0,0,0,0,0,0,1,0.504322
8277,0.135742,0.177734,-0.989258,-0.00182749,-0.000480274,-0.000994482,-0.0345857,-0.0307972,-1.70382,-4.62875,0.114804,-0.214617,-0.642699,-0.463691,-0.495037,-0.348201,-1.70381,0,0,262,54,262,54,364,48,266,147,0.342002,0.0877934,0,-1.5,1.97059e-38,0,0,0,-0.642699,-0.463691,0,0,0,0,-0.495037,-0.348201,10395,0,0,0,0,0,0,0,0,0,1,0.51006
8293,0.135742,0.177734,-4.50684,-0.00165247,-0.000187637,-0.000609457,-0.0345932,-0.0307933,-1.70385,-4.62875,0.114804,-0.214617,-0.650144,-0.468926,-0.496966,-0.349405,-1.70382,0,0,262,54,262,54,364,48,266,147,0.342245,0.0895883,0,-1.5,1.97059e-38,0,0,0,-0.650144,-0.468926,0,0,0,0,-0.496966,-0.349405,10395,0,0,0,0,0,0,0,0,0,1,0.515818
8309,0.135742,0.177734,-4.50684,-0.00165247,-0.000187637,-0.000609457,-0.0345932,-0.0307933,-1.70385,-4.60083,0.10628,-0.217133,-0.658616,-0.474881,-0.499138,-0.350758,-1.70385,0,0,262,54,262,54,364,48,266,147,0.342515,0.091626,0,-1.5,1.97059e-38,0,0,0,-0.658616,-0.474881,0,0,0,0,-0.499138,-0.350758,10692,0,0,0,0,0,0,0,0,0,1,0.522369
8325,0.135742,0.177734,-7.16504,-0.0012312,0.000740164,-0.000858236,-0.0345955,-0.0307824,-1.70391,-4.60083,0.10628,-0.217133,-0.666623,-0.480506,-0.501165,-0.35202,-1.70391,0,0,262,54,262,54,364,48,266,147,0.342754,0.0935604,0,-1.5,1.97059e-38,0,0,0,-0.666623,-0.480506,0,0,0,0,-0.501165,-0.35202,10692,0,0,0,0,0,0,0,0,0,1,0.528556
8338,0.135742,0.177734,3.32129,0.000165138,0.00157354,-0.00121325,-0.0346002,-0.0307624,-1.70393,-4.60082,0.106292,-0.217117,-0.673151,-0.48509,-0.5028,-0.353036,-1.70393,0,0,262,54,262,54,364,48,266,147,0.342953,0.0951222,0,-1.5,1.97059e-38,0,0,0,-0.673151,-0.48509,0,0,0,0,-0.5028,-0.353036,10692,0,0,0,0,0,0,0,0,0,1,0.533599
8354,0.135742,0.177734,3.32129,0.000165138,0.00157354,-0.00121325,-0.0346002,-0.0307624,-1.70393,-4.60082,0.106292,-0.217117,-0.681216,-0.490751,-0.504798,-0.354275,-1.70393,0,0,262,54,262,54,364,48,266,147,0.343201,0.0970387,0,-1.5,1.97059e-38,0,0,0,-0.681216,-0.490751,0,0,0,0,-0.504798,-0.354275,10692,0,0,0,0,0,0,0,0,0,1,0.539826
8371,0.135742,0.177734,-0.311523,-0.00249335,0.000926838,-0.0014385,-0.0346434,-0.030741,-1.70398,-4.66437,0.107288,-0.203378,-0.689822,-0.496789,-0.506907,-0.35558,-1.70398,0,0,262,54,262,54,364,48,269,147,0.343446,0.0990948,0,-1.5,1.97059e-38,0,0,0,-0.689822,-0.496789,0,0,0,0,-0.506907,-0.35558,10395,0,0,0,0,0,0,0,0,0,1,0.546467
8387,0.135742,0.177734,-5.28711,-0.000924375,9.84987e-05,-0.00146225,-0.0346579,-0.030742,-1.70403,-4.66437,0.107288,-0.203378,-0.697952,-0.50249,-0.508879,-0.356794,-1.70398,0,0,262,54,262,54,364,48,269,147,0.343686,0.101015,0,-1.5,1.97059e-38,0,0,0,-0.697952,-0.50249,0,0,0,0,-0.508879,-0.356794,10395,0,0,0,0,0,0,0,0,0,1,0.552739
8403,0.135742,0.177734,-5.28711,-0.000924375,9.84987e-05,-0.00146225,-0.0346579,-0.030742,-1.70403,-4.60754,0.109107,-0.217765,-0.706115,-0.508212,-0.510837,-0.357999,-1.70403,0,0,262,54,262,54,364,48,266,147,0.343907,0.102957,0,-1.5,1.97059e-38,0,0,0,-0.706115,-0.508212,0,0,0,0,-0.510837,-0.357999,10593,0,0,0,0,0,0,0,0,0,1,0.559033
8419,0.135742,0.177734,-2.83594,-0.0017748,0.0010569,-0.00213885,-0.0346894,-0.0307187,-1.7041,-4.60754,0.109107,-0.217765,-0.714308,-0.513952,-0.512781,-0.359192,-1.7041,0,0,262,54,262,54,364,48,266,147,0.344121,0.104904,0,-1.5,1.97059e-38,0,0,0,-0.714308,-0.513952,0,0,0,0,-0.512781,-0.359192,10593,0,0,0,0,0,0,0,0,0,1,0.565347
8435,0.135742,0.177734,0.700195,-0.00189779,-0.000235794,-0.00152479,-0.0346946,-0.030716,-1.70413,-4.58961,0.103428,-0.220134,-0.722532,-0.519711,-0.514714,-0.360373,-1.70413,0,0,262,54,262,54,365,48,266,147,0.344342,0.106841,0,-1.5,1.97059e-38,0,0,0,-0.722532,-0.519711,0,0,0,0,-0.514714,-0.360373,10692,0,0,0,0,0,0,0,0,0,1,0.571682
8451,0.135742,0.177734,5.35059,-0.00125059,0.000645812,-0.00129014,-0.0346998,-0.0307034,-1.70415,-4.58961,0.103428,-0.220134,-0.730788,-0.525489,-0.516632,-0.361542,-1.70415,0,0,262,54,262,54,365,48,266,147,0.34456,0.108778,0,-1.5,1.97059e-38,0,0,0,-0.730788,-0.525489,0,0,0,0,-0.516632,-0.361542,10692,0,0,0,0,0,0,0,0,0,1,0.578038
8466,0.135742,0.177734,-2.65234,-0.00349854,0.000555025,-0.00201546,-0.0347303,-0.0306887,-1.70417,-4.57823,0.1054,-0.232174,-0.738555,-0.530923,-0.518419,-0.362628,-1.70417,0,0,262,54,262,54,365,48,266,147,0.344763,0.110593,0,-1.5,1.97059e-38,0,0,0,-0.738555,-0.530923,0,0,0,0,-0.518419,-0.362628,10593,0,0,0,0,0,0,0,0,0,1,0.584015
8481,0.135742,0.177734,0.0410156,-0.00140863,-0.00143957,-0.00182041,-0.0347796,-0.0306848,-1.70421,-4.57823,0.1054,-0.232174,-0.746348,-0.536373,-0.520195,-0.363703,-1.70417,0,0,262,54,262,54,365,48,266,147,0.344968,0.112404,0,-1.5,1.97059e-38,0,0,0,-0.746348,-0.536373,0,0,0,0,-0.520195,-0.363703,10593,0,0,0,0,0,0,0,0,0,1,0.59001
8498,0.135742,0.177734,2.27246,-0.000246317,0.000121742,-0.00149799,-0.0347745,-0.0306829,-1.70423,-4.62844,0.115194,-0.214195,-0.755213,-0.542569,-0.522195,-0.364912,-1.70421,0,0,262,54,262,54,364,48,266,147,0.345186,0.114472,0,-1.5,1.97059e-38,0,0,0,-0.755213,-0.542569,0,0,0,0,-0.522195,-0.364912,10395,0,0,0,0,0,0,0,0,0,1,0.596826
8514,0.135742,0.177734,0.366211,-0.00124406,-0.00147658,-0.00304206,-0.0347787,-0.0306986,-1.70426,-4.62844,0.115194,-0.214195,-0.763587,-0.548419,-0.524066,-0.366039,-1.70423,0,0,262,54,262,54,364,48,266,147,0.345392,0.116415,0,-1.5,1.97059e-38,0,0,0,-0.763587,-0.548419,0,0,0,0,-0.524066,-0.366039,10395,0,0,0,0,0,0,0,0,0,1,0.603261
8530,0.135742,0.177734,6.91406,-0.000732966,-9.61658e-05,-0.00154255,-0.0347939,-0.0306948,-1.70428,-4.62844,0.115194,-0.214195,-0.771991,-0.554287,-0.525923,-0.367158,-1.70428,0,0,262,54,262,54,364,48,266,147,0.345586,0.118371,0,-1.5,1.97059e-38,0,0,0,-0.771991,-0.554287,0,0,0,0,-0.525923,-0.367158,10395,0,0,0,0,0,0,0,0,0,1,0.609716
8546,0.135742,0.177734,6.91406,-0.000732966,-9.61658e-05,-0.00154255,-0.0347939,-0.0306948,-1.70428,-4.60055,0.106586,-0.216737,-0.780425,-0.560173,-0.527767,-0.368268,-1.70428,0,0,262,54,262,54,364,48,266,147,0.34579,0.120311,0,-1.5,1.97059e-38,0,0,0,-0.780425,-0.560173,0,0,0,0,-0.527767,-0.368268,10692,0,0,0,0,0,0,0,0,0,1,0.61619
8562,0.135742,0.177734,6.08789,-0.00247663,-0.000466936,-0.00197057,-0.0348319,-0.0306799,-1.70432,-4.60055,0.106586,-0.216737,-0.788888,-0.566076,-0.529599,-0.369368,-1.70432,0,0,262,54,262,54,364,48,266,147,0.345979,0.122269,0,-1.5,1.97059e-38,0,0,0,-0.788888,-0.566076,0,0,0,0,-0.529599,-0.369368,10692,0,0,0,0,0,0,0,0,0,1,0.622684
8578,0.135742,0.177734,6.08789,-0.00247663,-0.000466936,-0.00197057,-0.0348319,-0.0306799,-1.70432,-4.59841,0.108955,-0.22319,-0.79738,-0.571997,-0.531419,-0.370456,-1.70432,0,0,262,54,262,54,364,48,266,147,0.346177,0.124213,0,-1.5,1.97059e-38,0,0,0,-0.79738,-0.571997,0,0,0,0,-0.531419,-0.370456,10593,0,0,0,0,0,0,0,0,0,1,0.629197
8594,0.135742,0.177734,-4.17578,-9.97037e-05,-0.00105573,-0.00216062,-0.0348791,-0.0306768,-1.70441,-4.59841,0.108955,-0.22319,-0.805901,-0.577936,-0.533228,-0.371536,-1.70438,0,0,262,54,262,54,364,48,266,147,0.346352,0.126181,0,-1.5,1.97059e-38,0,0,0,-0.805901,-0.577936,0,0,0,0,-0.533228,-0.371536,10593,0,0,0,0,0,0,0,0,0,1,0.635729
8610,0.135742,0.177734,-4.34766,-0.00018943,2.44554e-05,-0.00154723,-0.0348834,-0.0306776,-1.70444,-4.61721,0.0958181,-0.20859,-0.813916,-0.583518,-0.534914,-0.372539,-1.70441,0,0,262,53,262,53,365,48,269,147,0.346524,0.128017,0,-1.5,1.97059e-38,0,0,0,-0.813916,-0.583518,0,0,0,0,-0.534914,-0.372539,10692,0,0,0,0,0,0,0,0,0,1,0.64187
8625,0.135742,0.177734,-1.77539,-0.000499585,-0.000694679,-0.00173351,-0.0348857,-0.030684,-1.70446,-4.61721,0.0958181,-0.20859,-0.822493,-0.58949,-0.536701,-0.3736,-1.70446,0,0,262,53,262,53,365,48,269,147,0.346699,0.129982,0,-1.5,1.97059e-38,0,0,0,-0.822493,-0.58949,0,0,0,0,-0.536701,-0.3736,10692,0,0,0,0,0,0,0,0,0,1,0.648439
8642,0.135742,0.177734,-1.77539,-0.000499585,-0.000694679,-0.00173351,-0.0348857,-0.030684,-1.70446,-4.64741,0.110404,-0.204869,-0.831638,-0.595854,-0.538585,-0.37472,-1.70446,0,0,263,54,263,54,362,49,266,147,0.346895,0.132057,0,-1.5,1.97059e-38,0,0,0,-0.831638,-0.595854,0,0,0,0,-0.538585,-0.37472,10486,0,0,0,0,0,0,0,0,0,1,0.655439
8657,0.135742,0.177734,4.63965,-0.00061699,-0.000667051,-0.000599704,-0.0349008,-0.0306751,-1.7045,-4.64741,0.110404,-0.204869,-0.839732,-0.601484,-0.540234,-0.375699,-1.7045,0,0,263,54,263,54,362,49,266,147,0.347052,0.133903,0,-1.5,1.97059e-38,0,0,0,-0.839732,-0.601484,0,0,0,0,-0.540234,-0.375699,10486,0,0,0,0,0,0,0,0,0,1,0.661632
8672,0.135742,0.177734,0.930664,-0.000742458,0.000270729,-0.000750715,-0.0349132,-0.0306699,-1.70452,-4.6474,0.110432,-0.204862,-0.847852,-0.607129,-0.541873,-0.376669,-1.70452,0,0,263,54,263,54,362,49,266,147,0.347213,0.135743,0,-1.5,1.97059e-38,0,0,0,-0.847852,-0.607129,0,0,0,0,-0.541873,-0.376669,10486,0,0,0,0,0,0,0,0,0,1,0.667841
8688,0.135742,0.177734,0.930664,-0.000742458,0.000270729,-0.000750715,-0.0349132,-0.0306699,-1.70452,-4.6474,0.110432,-0.204862,-0.85654,-0.613166,-0.543609,-0.377696,-1.70452,0,0,263,54,263,54,362,49,266,147,0.347388,0.137701,0,-1.5,1.97059e-38,0,0,0,-0.85654,-0.613166,0,0,0,0,-0.543609,-0.377696,10486,0,0,0,0,0,0,0,0,0,1,0.674483
8704,0.135742,0.177734,-3.27539,-0.00113288,-0.000488486,-0.00152583,-0.0349664,-0.0306648,-1.70457,-4.63319,0.112914,-0.20934,-0.865256,-0.61922,-0.545334,-0.378713,-1.70457,0,0,262,54,262,54,362,49,266,147,0.347542,0.139679,0,-1.5,1.97059e-38,0,0,0,-0.865256,-0.61922,0,0,0,0,-0.545334,-0.378713,10584,0,0,0,0,0,0,0,0,0,1,0.681142
8720,0.135742,0.177734,-6.19336,-0.00193272,-0.000311202,-0.00200043,-0.0349764,-0.0306539,-1.70463,-4.63319,0.112914,-0.20934,-0.873999,-0.62529,-0.547051,-0.379721,-1.70457,0,0,262,54,262,54,362,49,266,147,0.347711,0.141641,0,-1.5,1.97059e-38,0,0,0,-0.873999,-0.62529,0,0,0,0,-0.547051,-0.379721,10584,0,0,0,0,0,0,0,0,0,1,0.687819
8737,0.135742,0.177734,-6.19336,-0.00193272,-0.000311202,-0.00200043,-0.0349764,-0.0306539,-1.70463,-4.59608,0.106589,-0.220866,-0.88277,-0.631376,-0.548756,-0.380718,-1.70463,0,0,262,54,262,54,365,48,266,147,0.34786,0.143623,0,-1.5,1.97059e-38,0,0,0,-0.88277,-0.631376,0,0,0,0,-0.548756,-0.380718,10593,0,0,0,0,0,0,0,0,0,1,0.694513
8752,0.135742,0.177734,5.46875,-0.000977078,0.000771918,-0.00103776,-0.0349987,-0.0306498,-1.70468,-4.59608,0.106589,-0.220866,-0.891568,-0.637478,-0.550448,-0.381707,-1.70468,0,0,262,54,262,54,365,48,266,147,0.348003,0.145608,0,-1.5,1.97059e-38,0,0,0,-0.891568,-0.637478,0,0,0,0,-0.550448,-0.381707,10593,0,0,0,0,0,0,0,0,0,1,0.701226
8768,0.135742,0.177734,4.6123,-0.00173972,-8.27609e-05,-0.00176649,-0.035013,-0.030639,-1.70471,-4.59608,0.106589,-0.220866,-0.900393,-0.643595,-0.55213,-0.382687,-1.70471,0,0,262,54,262,54,365,48,266,147,0.348154,0.147583,0,-1.5,1.97059e-38,0,0,0,-0.900393,-0.643595,0,0,0,0,-0.55213,-0.382687,10593,0,0,0,0,0,0,0,0,0,1,0.707955
8784,0.135742,0.177734,5.83203,-0.000551123,-0.000285008,-0.0013325,-0.035003,-0.0306355,-1.70474,-4.59608,0.106589,-0.220866,-0.909244,-0.649729,-0.5538,-0.383657,-1.70474,0,0,262,54,262,54,365,48,266,147,0.348302,0.149559,0,-1.5,1.97059e-38,0,0,0,-0.909244,-0.649729,0,0,0,0,-0.5538,-0.383657,10593,0,0,0,0,0,0,0,0,0,1,0.714701
8801,0.135742,0.177734,-6.0918,-0.00103065,0.000245406,-0.00217433,-0.0350055,-0.0306297,-1.70476,-4.59608,0.106589,-0.220866,-0.918122,-0.655877,-0.555455,-0.384619,-1.70476,0,0,262,54,262,54,365,48,266,147,0.348445,0.151538,0,-1.5,1.97059e-38,0,0,0,-0.918122,-0.655877,0,0,0,0,-0.555455,-0.384619,10593,0,0,0,0,0,0,0,0,0,1,0.721465
8816,0.135742,0.177734,3.73828,-0.000950066,-0.000266798,-0.00221743,-0.0350135,-0.0306299,-1.70483,-4.59608,0.106589,-0.220866,-0.927027,-0.662041,-0.557097,-0.385572,-1.70476,0,0,262,54,262,54,365,48,266,147,0.348594,0.153509,0,-1.5,1.97059e-38,0,0,0,-0.927027,-0.662041,0,0,0,0,-0.557097,-0.385572,10593,0,0,0,0,0,0,0,0,0,1,0.728245
8833,0.135742,0.177734,1.29785,0.000614085,-0.000366322,-0.00133575,-0.0350044,-0.0306256,-1.70485,-4.59608,0.106589,-0.220866,-0.936517,-0.668607,-0.558829,-0.386576,-1.70485,0,0,262,54,262,54,365,48,266,147,0.34872,0.155635,0,-1.5,1.97059e-38,0,0,0,-0.936517,-0.668607,0,0,0,0,-0.558829,-0.386576,10593,0,0,0,0,0,0,0,0,0,1,0.735468
8847,0.135742,0.177734,1.29785,0.000614085,-0.000366322,-0.00133575,-0.0350044,-0.0306256,-1.70485,-4.62825,0.115565,-0.214,-0.944353,-0.674027,-0.560243,-0.387395,-1.70485,0,0,262,54,262,54,364,48,266,147,0.348844,0.157362,0,-1.5,1.97059e-38,0,0,0,-0.944353,-0.674027,0,0,0,0,-0.560243,-0.387395,10395,0,0,0,0,0,0,0,0,0,1,0.741429
8862,0.135742,0.12793,-1.01758,-0.00303704,-0.000518842,-0.00171855,-0.035031,-0.0306259,-1.7049,-4.62825,0.115565,-0.214,-0.952771,-0.679846,-0.561748,-0.388267,-1.7049,0,0,262,54,262,54,364,48,266,147,0.348957,0.159232,0,-1.5,1.97059e-38,0,0,0,-0.952771,-0.679846,0,0,0,0,-0.561748,-0.388267,10395,0,0,0,0,0,0,0,0,0,1,0.74783
8878,0.135742,0.12793,-1.01758,-0.00303704,-0.000518842,-0.00171855,-0.035031,-0.0306259,-1.7049,-4.61665,0.112488,-0.217468,-0.961776,-0.686068,-0.563344,-0.389189,-1.7049,0,0,262,54,262,54,365,48,266,147,0.349093,0.161209,0,-1.5,1.97059e-38,0,0,0,-0.961776,-0.686068,0,0,0,0,-0.563344,-0.389189,10395,0,0,0,0,0,0,0,0,0,1,0.754674
8894,0.135742,0.0839844,6.2832,-0.000622452,0.000225498,-0.000839851,-0.0350396,-0.0306261,-1.70493,-4.61665,0.112488,-0.217468,-0.970805,-0.692304,-0.564928,-0.390104,-1.70493,0,0,262,54,262,54,365,48,266,147,0.349214,0.163201,0,-1.5,1.97059e-38,0,0,0,-0.970805,-0.692304,0,0,0,0,-0.564928,-0.390104,10395,0,0,0,0,0,0,0,0,0,1,0.761534
8910,0.135742,0.0839844,6.2832,-0.000622452,0.000225498,-0.000839851,-0.0350396,-0.0306261,-1.70493,-4.66059,0.0886035,-0.194538,-0.97986,-0.698555,-0.5665,-0.391011,-1.70493,0,0,265,53,265,53,365,48,269,147,0.349343,0.165182,0,-1.5,1.97059e-38,0,0,0,-0.97986,-0.698555,0,0,0,0,-0.5665,-0.391011,10395,0,0,0,0,0,0,0,0,0,1,0.76841
8926,0.135742,0.0839844,0.457031,-0.00112564,0.000427549,-0.00234773,-0.0350514,-0.0306219,-1.70502,-4.66059,0.0886035,-0.194538,-0.988372,-0.704428,-0.567963,-0.391855,-1.70499,0,0,265,53,265,53,365,48,269,147,0.349442,0.167059,0,-1.5,1.97059e-38,0,0,0,-0.988372,-0.704428,0,0,0,0,-0.567963,-0.391855,10395,0,0,0,0,0,0,0,0,0,1,0.774871
8942,0.135742,0.0839844,0.457031,-0.00112564,0.000427549,-0.00234773,-0.0350514,-0.0306219,-1.70502,-4.65228,0.110551,-0.206493,-0.997476,-0.710707,-0.569512,-0.392747,-1.70502,0,0,262,54,262,54,364,48,268,147,0.349556,0.169053,0,-1.5,1.97059e-38,0,0,0,-0.997476,-0.710707,0,0,0,0,-0.569512,-0.392747,10395,0,0,0,0,0,0,0,0,0,1,0.781778
