timestamp,A_x,A_y,A_z,P,Q,R,Phi,Theta,Psi,poseX,poseY,poseZ,state_X,state_Y,state_Z,state_VzB,state_Bx,state_By,state_Bz,p1_x,p1_y,p2_x,p2_y,p3_x,p3_y,p4_x,p4_y,roll,pitch,yaw,alt,targetHeading,highLevelState,lowLevelState,gateNumber,filtered_x,filtered_y,x_OT,y_OT,vx_OT,vy_OT,filtered_vx,filtered_vygateArearansac_corr_x,ransac_corr_y,ransac_corr_vx,ransac_corr_vy,detectionTimeStamppTermX,dTermX,pTermY,dTermY,vxcmd,vycmd
6076,-0.53418,0.430664,-0.253906,-0.00162952,0.0002573,-0.00237588,0.0686478,-0.0598287,1.35468,0,0,0,-2.30369e-05,3.08459e-05,-0.00428092,0.00573745,1.35564,0,0,0,0,0,0,0,0,0,0,-0.245589,-0.226638,0,-1.5,1.82784e-38,0,0,0,-2.30369e-05,3.08459e-05,0,0,0,0,-0.00428092,0.00573745,1.9603e-19,0,0,0,0,0,0,0,0,0,1,-3.39305e-05
6090,-0.53418,0.430664,-0.240234,0.000418892,-0.000128456,-0.00228853,0.0683491,-0.0599112,1.3523,0,0,0,-0.000160343,0.000215596,-0.0122037,0.0164543,1.35326,0,0,0,0,0,0,0,0,0,0,-0.247988,-0.224985,0,-1.5,1.82784e-38,0,0,0,-0.000160343,0.000215596,0,0,0,0,-0.0122037,0.0164543,1.9603e-19,0,0,0,0,0,0,0,0,0,1,-0.000237156
6108,-0.53418,0.367188,-6.51758,-0.000983043,-0.000817027,-0.00314765,0.068091,-0.0599286,1.34996,0,0,0,-0.00048788,0.000658963,-0.021558,0.0292363,1.35088,0,0,0,0,0,0,0,0,0,0,-0.250873,-0.222847,0,-1.5,1.82784e-38,0,0,0,-0.00048788,0.000658963,0,0,0,0,-0.021558,0.0292363,1.9603e-19,0,0,0,0,0,0,0,0,0,1,-0.000724859
6125,-0.53418,0.504883,-6.47852,-0.00196271,-0.000329561,-0.00376619,0.0678433,-0.0599479,1.34802,0,0,0,-0.000947629,0.00128438,-0.0302448,0.0412138,1.34853,0,0,0,0,0,0,0,0,0,0,-0.253574,-0.220828,0,-1.5,1.82784e-38,0,0,0,-0.000947629,0.00128438,0,0,0,0,-0.0302448,0.0412138,1.9603e-19,0,0,0,0,0,0,0,0,0,1,-0.00141282
6141,-0.53418,0.504883,-0.225586,-0.00145753,-0.000265323,-0.00147593,0.0678285,-0.0599423,1.348,0,0,0,-0.00151628,0.0020615,-0.0383015,0.0524054,1.348,0,0,0,0,0,0,0,0,0,0,-0.25618,-0.218469,0,-1.5,1.82784e-38,0,0,0,-0.00151628,0.0020615,0,0,0,0,-0.0383015,0.0524054,1.9603e-19,0,0,0,0,0,0,0,0,0,1,-0.00226765
6157,-0.53418,0.504883,7.05859,-0.00106113,0.000318239,-0.00385741,0.0678231,-0.0599341,1.34794,0,0,0,-0.00221062,0.00301323,-0.0462908,0.0635047,1.34794,0,0,0,0,0,0,0,0,0,0,-0.258796,-0.215963,0,-1.5,1.82784e-38,0,0,0,-0.00221062,0.00301323,0,0,0,0,-0.0462908,0.0635047,1.9603e-19,0,0,0,0,0,0,0,0,0,1,-0.00331455
6173,-0.53418,0.504883,0.494141,-0.00163086,-0.000812402,-0.00220304,0.067793,-0.0599402,1.34788,0,0,0,-0.00303212,0.00414163,-0.0542145,0.0745147,1.3479,0,0,0,0,0,0,0,0,0,0,-0.261403,-0.213425,0,-1.5,1.82784e-38,0,0,0,-0.00303212,0.00414163,0,0,0,0,-0.0542145,0.0745147,1.9603e-19,0,0,0,0,0,0,0,0,0,1,-0.0045558
6189,-0.53418,0.504883,6.61426,-0.00103122,0.000196855,-0.00223436,0.0677901,-0.0599429,1.34784,0,0,0,-0.00391667,0.0053585,-0.0615827,0.0847569,1.34788,0,0,0,0,0,0,0,0,0,0,-0.263839,-0.211016,0,-1.5,1.82784e-38,0,0,0,-0.00391667,0.0053585,0,0,0,0,-0.0615827,0.0847569,1.9603e-19,0,0,0,0,0,0,0,0,0,1,-0.00589435
6204,-0.53418,0.504883,-6.46973,-0.000675032,-0.000470137,-0.00239417,0.0677793,-0.0599456,1.3478,0,0,0,-0.00498399,0.00682864,-0.0693799,0.0956005,1.3478,0,0,0,0,0,0,0,0,0,0,-0.266426,-0.208428,0,-1.5,1.82784e-38,0,0,0,-0.00498399,0.00682864,0,0,0,0,-0.0693799,0.0956005,1.9603e-19,0,0,0,0,0,0,0,0,0,1,-0.00751151
6220,-0.53418,0.504883,-4.83789,-0.000868741,-0.000674893,-0.00357562,0.0677648,-0.0599503,1.34776,0,0,0,-0.00617295,0.00846799,-0.0771111,0.106356,1.34776,0,0,0,0,0,0,0,0,0,0,-0.269004,-0.205806,0,-1.5,1.82784e-38,0,0,0,-0.00617295,0.00846799,0,0,0,0,-0.0771111,0.106356,1.9603e-19,0,0,0,0,0,0,0,0,0,1,-0.00931479
6235,-0.53418,0.504883,-0.0234375,-0.000179346,-0.00050864,-0.00309119,0.0677709,-0.0599511,1.34772,0,0,0,-0.00739922,0.0101602,-0.0843011,0.116362,1.34772,0,0,0,0,0,0,0,0,0,0,-0.271412,-0.20332,0,-1.5,1.82784e-38,0,0,0,-0.00739922,0.0101602,0,0,0,0,-0.0843011,0.116362,1.9603e-19,0,0,0,0,0,0,0,0,0,1,-0.0111762
6251,-0.53418,0.504883,-6.2666,-0.00135715,-0.000732559,-0.00327273,0.06776,-0.0599584,1.34768,0,0,0,-0.00882568,0.0121301,-0.0919106,0.126954,1.34768,0,0,0,0,0,0,0,0,0,0,-0.273972,-0.200641,0,-1.5,1.82784e-38,0,0,0,-0.00882568,0.0121301,0,0,0,0,-0.0919106,0.126954,1.9603e-19,0,0,0,0,0,0,0,0,0,1,-0.0133431
6286,-0.53418,0.504883,-6.50391,-0.000424054,-0.0004199,-0.00330597,0.0677389,-0.0599516,1.34756,0,0,0,-0.0123875,0.0170547,-0.107939,0.149272,1.3476,0,0,0,0,0,0,0,0,0,0,-0.279413,-0.194788,0,-1.5,1.82784e-38,0,0,0,-0.0123875,0.0170547,0,0,0,0,-0.107939,0.149272,1.9603e-19,0,0,0,0,0,0,0,0,0,1,-0.0187602
6312,-0.53418,0.504883,7.05371,-0.000115954,-0.000560059,-0.00202009,0.0677421,-0.0599296,1.34749,0,0,0,-0.0155512,0.0214324,-0.120444,0.16669,1.34752,0,0,0,0,0,0,0,0,0,0,-0.28369,-0.190083,0,-1.5,1.82784e-38,0,0,0,-0.0155512,0.0214324,0,0,0,0,-0.120444,0.16669,1.9603e-19,0,0,0,0,0,0,0,0,0,1,-0.0235756
6338,-0.53418,0.504883,0.537109,-0.00136101,-0.00011629,-0.00368009,0.0677275,-0.0599273,1.34739,0,0,0,-0.0189086,0.0260808,-0.132324,0.183234,1.34744,0,0,0,0,0,0,0,0,0,0,-0.287785,-0.185483,0,-1.5,1.82784e-38,0,0,0,-0.0189086,0.0260808,0,0,0,0,-0.132324,0.183234,1.9603e-19,0,0,0,0,0,0,0,0,0,1,-0.0286889
6351,-0.53418,0.504883,0.537109,-0.00136101,-0.00011629,-0.00368009,0.0677275,-0.0599273,1.34739,0,0,0,-0.0205362,0.028335,-0.137741,0.19078,1.34739,0,0,0,0,0,0,0,0,0,0,-0.28966,-0.183353,0,-1.5,1.82784e-38,0,0,0,-0.0205362,0.028335,0,0,0,0,-0.137741,0.19078,1.9603e-19,0,0,0,0,0,0,0,0,0,1,-0.0311685
6366,-0.53418,0.504883,0.537109,-0.00136101,-0.00011629,-0.00368009,0.0677275,-0.0599273,1.34739,0,0,0,-0.0228156,0.0314927,-0.144917,0.200777,1.34739,0,0,0,0,0,0,0,0,0,0,-0.292155,-0.180467,0,-1.5,1.82784e-38,0,0,0,-0.0228156,0.0314927,0,0,0,0,-0.144917,0.200777,1.9603e-19,0,0,0,0,0,0,0,0,0,1,-0.0346419
6382,-0.53418,0.504883,-4.83691,-0.00075613,0.000166155,-0.00245455,0.0677181,-0.0599404,1.34727,0,0,0,-0.0252091,0.0348094,-0.152035,0.210694,1.34739,0,0,0,0,0,0,0,0,0,0,-0.294642,-0.177554,0,-1.5,1.82784e-38,0,0,0,-0.0252091,0.0348094,0,0,0,0,-0.152035,0.210694,1.9603e-19,0,0,0,0,0,0,0,0,0,1,-0.0382903
6398,-0.53418,0.504883,-0.046875,-0.00159238,-0.00139199,-0.00271416,0.0677158,-0.0599477,1.34722,0,0,0,-0.0277159,0.038284,-0.159093,0.220535,1.34722,0,0,0,0,0,0,0,0,0,0,-0.297119,-0.174664,0,-1.5,1.82784e-38,0,0,0,-0.0277159,0.038284,0,0,0,0,-0.159093,0.220535,1.9603e-19,0,0,0,0,0,0,0,0,0,1,-0.0421124
6414,-0.53418,0.493164,-6.24707,-0.00138566,0.000597243,-0.00298553,0.0677048,-0.0599387,1.34719,0,0,0,-0.0303328,0.0419121,-0.166093,0.230297,1.34719,0,0,0,0,0,0,0,0,0,0,-0.299588,-0.17171,0,-1.5,1.82784e-38,0,0,0,-0.0303328,0.0419121,0,0,0,0,-0.166093,0.230297,1.9603e-19,0,0,0,0,0,0,0,0,0,1,-0.0461033
6430,-0.53418,0.459961,6.87695,-0.000678527,0.000221017,-0.00416331,0.0677069,-0.059936,1.34713,0,0,0,-0.0330633,0.0456987,-0.173036,0.239981,1.34713,0,0,0,0,0,0,0,0,0,0,-0.302049,-0.168736,0,-1.5,1.82784e-38,0,0,0,-0.0330633,0.0456987,0,0,0,0,-0.173036,0.239981,1.9603e-19,0,0,0,0,0,0,0,0,0,1,-0.0502686
6446,-0.53418,0.426758,6.99316,-0.000731496,-0.000700128,-0.003162,0.0677032,-0.0599415,1.34709,0,0,0,-0.0359043,0.0496395,-0.179923,0.249588,1.34709,0,0,0,0,0,0,0,0,0,0,-0.304501,-0.165732,0,-1.5,1.82784e-38,0,0,0,-0.0359043,0.0496395,0,0,0,0,-0.179923,0.249588,1.9603e-19,0,0,0,0,0,0,0,0,0,1,-0.0546034
6462,-0.53418,0.436523,-0.265625,-0.000558481,-0.000739812,-0.00262258,0.067687,-0.0599418,1.34701,0,0,0,-0.0388549,0.0537331,-0.186754,0.259119,1.34705,0,0,0,0,0,0,0,0,0,0,-0.306945,-0.162702,0,-1.5,1.82784e-38,0,0,0,-0.0388549,0.0537331,0,0,0,0,-0.186754,0.259119,1.9603e-19,0,0,0,0,0,0,0,0,0,1,-0.0591064
6475,-0.53418,0.436523,-0.265625,-0.000558481,-0.000739812,-0.00262258,0.067687,-0.0599418,1.34701,0,0,0,-0.0413264,0.0571626,-0.19226,0.266803,1.34701,0,0,0,0,0,0,0,0,0,0,-0.308923,-0.160226,0,-1.5,1.82784e-38,0,0,0,-0.0413264,0.0571626,0,0,0,0,-0.19226,0.266803,1.9603e-19,0,0,0,0,0,0,0,0,0,1,-0.0628788
6490,-0.53418,0.566406,1.91016,-0.00117768,-3.85068e-05,-0.00344166,0.0676848,-0.0599399,1.34692,0,0,0,-0.0442714,0.0612499,-0.198569,0.275611,1.34697,0,0,0,0,0,0,0,0,0,0,-0.3112,-0.157345,0,-1.5,1.82784e-38,0,0,0,-0.0442714,0.0612499,0,0,0,0,-0.198569,0.275611,1.9603e-19,0,0,0,0,0,0,0,0,0,1,-0.0673749
6506,-0.53418,0.549805,0.532227,-0.00115068,-0.000120016,-0.00245467,0.0676851,-0.0599442,1.34689,0,0,0,-0.0475187,0.0657578,-0.205248,0.284936,1.34692,0,0,369098752,-534446081,369098752,-534446081,33554432,33554432,-1075088617,0,-0.313622,-0.15425,0,-1.5,1.82784e-38,0,0,0,-0.0475187,0.0657578,0,0,0,0,-0.205248,0.284936,0,0,0,0,0,0,0,0,0,0,1,-0.0723335
6523,-0.53418,0.549805,0.532227,-0.00115068,-0.000120016,-0.00245467,0.0676851,-0.0599442,1.34689,0,0,0,-0.0510854,0.0707099,-0.212284,0.294763,1.34689,0,0,369098752,-534446081,369098752,-534446081,33554432,33554432,-1075088617,0,-0.316186,-0.150928,0,-1.5,1.82784e-38,0,0,0,-0.0510854,0.0707099,0,0,0,0,-0.212284,0.294763,0,0,0,0,0,0,0,0,0,0,1,-0.0777809
6537,-0.53418,0.416992,-6.45215,-0.000398541,0.000131289,-0.0026866,0.0676759,-0.059941,1.3468,0,0,0,-0.0541084,0.0749078,-0.218032,0.30279,1.3468,0,0,369098752,-534446081,369098752,-534446081,33554432,33554432,-1075088617,0,-0.318291,-0.148193,0,-1.5,1.82784e-38,0,0,0,-0.0541084,0.0749078,0,0,0,0,-0.218032,0.30279,0,0,0,0,0,0,0,0,0,0,1,-0.0823986
6553,-0.53418,0.40918,-4.83105,-0.0013876,-0.00077819,-0.00258416,0.0676728,-0.0599481,1.34677,0,0,0,-0.0576634,0.0798454,-0.224551,0.311897,1.34677,0,0,369098752,-534446081,369098752,-534446081,33554432,33554432,-1075088617,0,-0.320688,-0.145022,0,-1.5,1.82784e-38,0,0,0,-0.0576634,0.0798454,0,0,0,0,-0.224551,0.311897,0,0,0,0,0,0,0,0,0,0,1,-0.0878299
6568,-0.53418,0.442383,-0.00976562,-0.000919217,-0.000105696,-0.00204315,0.067665,-0.0599481,1.34673,0,0,0,-0.0610904,0.0846058,-0.230613,0.32037,1.34673,0,0,369098752,-534446081,369098752,-534446081,33554432,33554432,-1075088617,0,-0.322928,-0.142028,0,-1.5,1.82784e-38,0,0,0,-0.0610904,0.0846058,0,0,0,0,-0.230613,0.32037,0,0,0,0,0,0,0,0,0,0,1,-0.0930664
6584,-0.53418,0.475586,-6.23828,-0.000788592,-0.0003533,-0.00333997,0.0676649,-0.0599506,1.34669,0,0,0,-0.0648456,0.0898233,-0.237029,0.329338,1.34669,0,0,369098752,-534446081,369098752,-534446081,33554432,33554432,-1075088617,0,-0.325311,-0.138814,0,-1.5,1.82784e-38,0,0,0,-0.0648456,0.0898233,0,0,0,0,-0.237029,0.329338,0,0,0,0,0,0,0,0,0,0,1,-0.0988056
6600,-0.589844,0.541992,6.98145,-4.95407e-05,-0.000592302,-0.00356183,0.0676795,-0.0599572,1.34658,-3.87052,0.623831,-0.144242,-0.068703,0.0951834,-0.243393,0.338236,1.34663,0,0,168,6,168,6,291,-10,190,123,-0.327686,-0.13558,0,-1.5,1.82784e-38,0,0,0,-0.068703,0.0951834,0,0,0,0,-0.243393,0.338236,18886,0,0,0,0,0,0,0,0,0,1,-0.104702
6616,-0.623047,0.522461,-6.49121,-0.000209506,-0.000153398,-0.00250857,0.0676801,-0.0599579,1.34654,-3.87052,0.623831,-0.144242,-0.0724112,0.100337,-0.249313,0.346515,1.34658,0,0,168,6,168,6,291,-10,190,123,-0.329907,-0.132526,0,-1.5,1.82784e-38,0,0,0,-0.0724112,0.100337,0,0,0,0,-0.249313,0.346515,18886,0,0,0,0,0,0,0,0,0,1,-0.110371
6632,-0.629883,0.456055,-0.227539,-0.00192831,-0.000249644,-0.00323138,0.0676717,-0.0599585,1.3465,-3.84674,0.626836,-0.15265,-0.0767229,0.10633,-0.255971,0.355825,1.3465,0,0,168,6,168,6,291,-10,187,123,-0.332417,-0.129048,0,-1.5,1.82784e-38,0,0,0,-0.0767229,0.10633,0,0,0,0,-0.255971,0.355825,18886,0,0,0,0,0,0,0,0,0,1,-0.116963
6648,-0.629883,0.40332,7.11035,-0.00145865,0.000117732,-0.00362987,0.0676711,-0.0599615,1.34645,-3.84674,0.626836,-0.15265,-0.0808818,0.112112,-0.262182,0.364514,1.34645,0,0,168,6,168,6,291,-10,187,123,-0.33477,-0.125741,0,-1.5,1.82784e-38,0,0,0,-0.0808818,0.112112,0,0,0,0,-0.262182,0.364514,18886,0,0,0,0,0,0,0,0,0,1,-0.123324
6664,-0.629883,0.398438,1.93945,-0.00160979,0.000886164,-0.00336001,0.0676591,-0.0599562,1.3464,-3.84674,0.626836,-0.15265,-0.0851396,0.118032,-0.268343,0.373134,1.3464,0,0,168,6,168,6,291,-10,187,123,-0.337116,-0.122411,0,-1.5,1.82784e-38,0,0,0,-0.0851396,0.118032,0,0,0,0,-0.268343,0.373134,18886,0,0,0,0,0,0,0,0,0,1,-0.129836
6679,-0.629883,0.430664,0.516602,-0.000394217,-0.00103458,-0.00271827,0.0676643,-0.0599687,1.34637,-3.85404,0.62667,-0.156743,-0.0892202,0.123707,-0.274072,0.381153,1.34637,0,0,168,8,168,8,291,-10,188,124,-0.339307,-0.119266,0,-1.5,1.82784e-38,0,0,0,-0.0892202,0.123707,0,0,0,0,-0.274072,0.381153,19028,0,0,0,0,0,0,0,0,0,1,-0.136078
6695,-0.629883,0.463867,6.6377,0.000779729,-0.00146742,-0.00249822,0.0676756,-0.0599841,1.34633,-3.85404,0.62667,-0.156743,-0.0936672,0.129892,-0.280136,0.389644,1.34633,0,0,168,8,168,8,291,-10,188,124,-0.341639,-0.115888,0,-1.5,1.82784e-38,0,0,0,-0.0936672,0.129892,0,0,0,0,-0.280136,0.389644,19028,0,0,0,0,0,0,0,0,0,1,-0.142881
6711,-0.613281,0.516602,-4.82617,-0.000761184,-0.00126945,-0.00243944,0.067671,-0.0599884,1.34626,-3.85406,0.626682,-0.156775,-0.0982127,0.136215,-0.286154,0.39807,1.34633,0,0,168,8,168,8,291,-10,188,124,-0.343961,-0.112474,0,-1.5,1.82784e-38,0,0,0,-0.0982127,0.136215,0,0,0,0,-0.286154,0.39807,19028,0,0,0,0,0,0,0,0,0,1,-0.149837
6726,-0.580078,0.516602,-0.0224609,0.000192237,-0.000167196,-0.00411709,0.0676806,-0.0599926,1.34622,-3.85406,0.626682,-0.156775,-0.102559,0.142262,-0.291749,0.405907,1.34626,0,0,168,8,168,8,291,-10,188,124,-0.346135,-0.109277,0,-1.5,1.82784e-38,0,0,0,-0.102559,0.142262,0,0,0,0,-0.291749,0.405907,19028,0,0,0,0,0,0,0,0,0,1,-0.156488
6742,-0.580078,0.516602,-0.0224609,0.000192237,-0.000167196,-0.00411709,0.0676806,-0.0599926,1.34622,-3.84141,0.624065,-0.159784,-0.107288,0.148841,-0.297673,0.414205,1.34622,0,0,168,6,168,6,291,-10,188,124,-0.348447,-0.105838,0,-1.5,1.82784e-38,0,0,0,-0.107288,0.148841,0,0,0,0,-0.297673,0.414205,19028,0,0,0,0,0,0,0,0,0,1,-0.163725
6758,-0.513672,0.516602,6.91699,-0.00161942,-0.000151622,-0.00332119,0.0676639,-0.0599996,1.34614,-3.84141,0.624065,-0.159784,-0.11211,0.155552,-0.303547,0.422436,1.34614,0,0,168,6,168,6,291,-10,188,124,-0.350754,-0.102386,0,-1.5,1.82784e-38,0,0,0,-0.11211,0.155552,0,0,0,0,-0.303547,0.422436,19028,0,0,0,0,0,0,0,0,0,1,-0.171108
6774,-0.513672,0.516602,6.91699,-0.00161942,-0.000151622,-0.00332119,0.0676639,-0.0599996,1.34614,-3.86618,0.623174,-0.148446,-0.117026,0.162395,-0.309373,0.430603,1.34614,0,0,168,6,168,6,291,-10,190,123,-0.353047,-0.0988856,0,-1.5,1.82784e-38,0,0,0,-0.117026,0.162395,0,0,0,0,-0.309373,0.430603,18886,0,0,0,0,0,0,0,0,0,1,-0.178634
6791,-0.482422,0.516602,-6.48828,1.24777e-05,-0.00051879,-0.000952954,0.0676606,-0.0600006,1.34609,-3.86618,0.623174,-0.148446,-0.122353,0.16981,-0.315512,0.43921,1.34609,0,0,168,6,168,6,291,-10,190,123,-0.355481,-0.0951604,0,-1.5,1.82784e-38,0,0,0,-0.122353,0.16981,0,0,0,0,-0.315512,0.43921,18886,0,0,0,0,0,0,0,0,0,1,-0.186791
6807,-0.495117,0.516602,7.02441,0.000133872,1.21734e-05,-0.00303515,0.0676717,-0.0600002,1.34601,-3.84566,0.624685,-0.155867,-0.12746,0.176919,-0.32124,0.447243,1.34606,0,0,168,6,168,6,291,-10,188,124,-0.357763,-0.0916272,0,-1.5,1.82784e-38,0,0,0,-0.12746,0.176919,0,0,0,0,-0.32124,0.447243,19028,0,0,0,0,0,0,0,0,0,1,-0.194611
6823,-0.549805,0.516602,1.93555,-0.000919497,0.000525958,-0.00288455,0.0676719,-0.0599921,1.34597,-3.84566,0.624685,-0.155867,-0.132658,0.184156,-0.326924,0.455213,1.34601,0,0,168,6,168,6,291,-10,188,124,-0.36004,-0.0880769,0,-1.5,1.82784e-38,0,0,0,-0.132658,0.184156,0,0,0,0,-0.326924,0.455213,19028,0,0,0,0,0,0,0,0,0,1,-0.202572
6839,-0.549805,0.516602,1.93555,-0.000919497,0.000525958,-0.00288455,0.0676719,-0.0599921,1.34597,-3.85349,0.633094,-0.154671,-0.137946,0.19152,-0.332562,0.463119,1.34597,0,0,167,7,167,7,289,-10,188,124,-0.36231,-0.0845071,0,-1.5,1.82784e-38,0,0,0,-0.137946,0.19152,0,0,0,0,-0.332562,0.463119,19162,0,0,0,0,0,0,0,0,0,1,-0.210672
6855,-0.549805,0.516602,1.93555,-0.000919497,0.000525958,-0.00288455,0.0676719,-0.0599921,1.34597,-3.85349,0.633094,-0.154671,-0.143324,0.19901,-0.338156,0.470961,1.34597,0,0,167,7,167,7,289,-10,188,124,-0.364569,-0.0808996,0,-1.5,1.82784e-38,0,0,0,-0.143324,0.19901,0,0,0,0,-0.338156,0.470961,19162,0,0,0,0,0,0,0,0,0,1,-0.218911
6870,-0.549805,0.516602,1.93555,-0.000919497,0.000525958,-0.00288455,0.0676719,-0.0599921,1.34597,-3.8818,0.632548,-0.137625,-0.148447,0.206145,-0.343359,0.478257,1.34597,0,0,168,6,168,6,288,-11,190,123,-0.366682,-0.0774989,0,-1.5,1.82784e-38,0,0,0,-0.148447,0.206145,0,0,0,0,-0.343359,0.478257,19028,0,0,0,0,0,0,0,0,0,1,-0.22676
6886,-0.633789,0.516602,-4.84375,-0.000345216,0.000141657,-0.00261355,0.0676493,-0.0599967,1.3458,-3.8818,0.632548,-0.137625,-0.153997,0.213876,-0.348864,0.485979,1.3458,0,0,168,6,168,6,288,-11,190,123,-0.368944,-0.0739111,0,-1.5,1.82784e-38,0,0,0,-0.153997,0.213876,0,0,0,0,-0.348864,0.485979,19028,0,0,0,0,0,0,0,0,0,1,-0.235264
6903,-0.600586,0.516602,-0.000976562,-0.000614104,-0.000640279,-0.00292924,0.0676462,-0.0600067,1.34577,-3.87228,0.631327,-0.143698,-0.159991,0.222227,-0.354661,0.494119,1.34577,0,0,168,6,168,6,288,-11,190,124,-0.371327,-0.0700246,0,-1.5,1.82784e-38,0,0,0,-0.159991,0.222227,0,0,0,0,-0.354661,0.494119,19170,0,0,0,0,0,0,0,0,0,1,-0.24445
6918,-0.53418,0.516602,6.87207,-0.000323227,7.70176e-05,-0.00332616,0.0676397,-0.060014,1.34569,-3.87228,0.631327,-0.143698,-0.165359,0.229706,-0.359734,0.501243,1.34577,0,0,168,6,168,6,288,-11,190,124,-0.373419,-0.0665667,0,-1.5,1.82784e-38,0,0,0,-0.165359,0.229706,0,0,0,0,-0.359734,0.501243,19170,0,0,0,0,0,0,0,0,0,1,-0.252677
6934,-0.500977,0.483398,6.9502,-0.00173116,-0.000817674,-0.00306188,0.0676357,-0.060021,1.34565,-3.85697,0.622038,-0.154426,-0.17117,0.237803,-0.365103,0.508786,1.34569,0,0,168,6,168,6,291,-10,190,124,-0.375654,-0.0628876,0,-1.5,1.82784e-38,0,0,0,-0.17117,0.237803,0,0,0,0,-0.365103,0.508786,19028,0,0,0,0,0,0,0,0,0,1,-0.261583
6950,-0.533203,0.454102,-6.48828,-0.0018851,-0.00134838,-0.0031746,0.0676217,-0.0600281,1.3456,-3.85697,0.622038,-0.154426,-0.177066,0.24602,-0.370426,0.51627,1.3456,0,0,168,6,168,6,291,-10,190,124,-0.377883,-0.0591915,0,-1.5,1.82784e-38,0,0,0,-0.177066,0.24602,0,0,0,0,-0.370426,0.51627,19028,0,0,0,0,0,0,0,0,0,1,-0.270622
6966,-0.566406,0.454102,-0.280273,3.86738e-05,-8.39031e-05,-0.00264392,0.067624,-0.06002,1.34556,-3.8723,0.626777,-0.146161,-0.183046,0.254356,-0.375704,0.523695,1.34556,0,0,168,6,168,6,291,-10,190,124,-0.380101,-0.0554574,0,-1.5,1.82784e-38,0,0,0,-0.183046,0.254356,0,0,0,0,-0.375704,0.523695,18894,0,0,0,0,0,0,0,0,0,1,-0.279792
6982,-0.599609,0.454102,7.04785,0.00042804,-0.000775658,-0.0021163,0.0676313,-0.0600282,1.34553,-3.8723,0.626777,-0.146161,-0.189111,0.26281,-0.380941,0.531061,1.34553,0,0,168,6,168,6,291,-10,190,124,-0.382312,-0.0517017,0,-1.5,1.82784e-38,0,0,0,-0.189111,0.26281,0,0,0,0,-0.380941,0.531061,18894,0,0,0,0,0,0,0,0,0,1,-0.289091
6998,-0.632812,0.454102,1.9668,-0.000706166,-0.000848595,-0.00186713,0.0676311,-0.0600384,1.3455,-3.8723,0.626777,-0.146161,-0.195259,0.271382,-0.386135,0.53837,1.3455,0,0,168,6,168,6,291,-10,190,124,-0.384516,-0.0479239,0,-1.5,1.82784e-38,0,0,0,-0.195259,0.271382,0,0,0,0,-0.386135,0.53837,18894,0,0,0,0,0,0,0,0,0,1,-0.29852
7014,-0.632812,0.454102,1.9668,-0.000706166,-0.000848595,-0.00186713,0.0676311,-0.0600384,1.3455,-3.86132,0.62268,-0.150511,-0.201098,0.279523,-0.390967,0.54517,1.3455,0,0,168,6,168,6,291,-10,190,124,-0.386573,-0.0443543,0,-1.5,1.82784e-38,0,0,0,-0.201098,0.279523,0,0,0,0,-0.390967,0.54517,19028,0,0,0,0,0,0,0,0,0,1,-0.307476
7030,-0.557617,0.454102,-6.46582,-0.000679837,-0.000880807,-0.00223138,0.0676289,-0.0600437,1.34538,-3.86132,0.62268,-0.150511,-0.207804,0.288875,-0.3964,0.552817,1.34542,0,0,168,6,168,6,291,-10,190,124,-0.388909,-0.0403165,0,-1.5,1.82784e-38,0,0,0,-0.207804,0.288875,0,0,0,0,-0.3964,0.552817,19028,0,0,0,0,0,0,0,0,0,1,-0.317763
7046,-0.510742,0.454102,-4.83203,-0.000176601,-0.00104641,-0.00202907,0.0676389,-0.0600534,1.34535,-3.8707,0.623897,-0.14459,-0.214198,0.297793,-0.40147,0.559954,1.34538,0,0,168,6,168,6,291,-10,190,123,-0.391096,-0.0364862,0,-1.5,1.82784e-38,0,0,0,-0.214198,0.297793,0,0,0,0,-0.40147,0.559954,18886,0,0,0,0,0,0,0,0,0,1,-0.327573
7061,-0.485352,0.454102,-0.0263672,-0.000863807,-0.000181897,-0.00266901,0.0676294,-0.0600594,1.34531,-3.8707,0.623897,-0.14459,-0.220266,0.306257,-0.406186,0.566597,1.34531,0,0,168,6,168,6,291,-10,190,123,-0.393147,-0.0328895,0,-1.5,1.82784e-38,0,0,0,-0.220266,0.306257,0,0,0,0,-0.406186,0.566597,18886,0,0,0,0,0,0,0,0,0,1,-0.336883
7077,-0.485352,0.454102,-0.0263672,-0.000863807,-0.000181897,-0.00266901,0.0676294,-0.0600594,1.34531,-3.85672,0.628812,-0.151737,-0.226816,0.315394,-0.411175,0.573628,1.34531,0,0,168,6,168,6,291,-10,188,124,-0.395317,-0.0290059,0,-1.5,1.82784e-38,0,0,0,-0.226816,0.315394,0,0,0,0,-0.411175,0.573628,18894,0,0,0,0,0,0,0,0,0,1,-0.346934
7094,-0.485352,0.454102,6.88574,-0.00054373,-0.000318295,-0.00339584,0.0676293,-0.0600529,1.34522,-3.85672,0.628812,-0.151737,-0.233447,0.324646,-0.416126,0.580604,1.34522,0,0,168,6,168,6,291,-10,188,124,-0.397496,-0.0251407,0,-1.5,1.82784e-38,0,0,0,-0.233447,0.324646,0,0,0,0,-0.416126,0.580604,18894,0,0,0,0,0,0,0,0,0,1,-0.35711
7108,-0.485352,0.454102,6.88574,-0.00054373,-0.000318295,-0.00339584,0.0676293,-0.0600529,1.34522,-3.86082,0.629416,-0.147845,-0.239733,0.333418,-0.420729,0.587093,1.34522,0,0,168,6,168,6,291,-10,188,124,-0.399521,-0.0214659,0,-1.5,1.82784e-38,0,0,0,-0.239733,0.333418,0,0,0,0,-0.420729,0.587093,18894,0,0,0,0,0,0,0,0,0,1,-0.366759
7123,-0.485352,0.454102,-6.55176,-9.12075e-05,-0.000926488,-0.00244877,0.0676202,-0.0600556,1.34514,-3.86082,0.629416,-0.147845,-0.246088,0.342286,-0.425298,0.593533,1.34514,0,0,168,6,168,6,291,-10,188,124,-0.401552,-0.017808,0,-1.5,1.82784e-38,0,0,0,-0.246088,0.342286,0,0,0,0,-0.425298,0.593533,18894,0,0,0,0,0,0,0,0,0,1,-0.376515
7139,-0.485352,0.454102,-0.292969,-0.00120754,0.000579638,-0.003332,0.0676088,-0.0600525,1.34511,-3.86081,0.629431,-0.147838,-0.252944,0.351854,-0.430132,0.600351,1.34511,0,0,168,6,168,6,291,-10,188,124,-0.403705,-0.0138651,0,-1.5,1.82784e-38,0,0,0,-0.252944,0.351854,0,0,0,0,-0.430132,0.600351,18894,0,0,0,0,0,0,0,0,0,1,-0.38704
7155,-0.566406,0.454102,1.94824,-0.00110914,-0.000376803,-0.00238388,0.0676073,-0.0600498,1.34502,-3.86081,0.629431,-0.147838,-0.259875,0.361529,-0.434925,0.607113,1.34511,0,0,168,6,168,6,291,-10,188,124,-0.405847,-0.00989262,0,-1.5,1.82784e-38,0,0,0,-0.259875,0.361529,0,0,0,0,-0.434925,0.607113,18894,0,0,0,0,0,0,0,0,0,1,-0.397682
7171,-0.566406,0.454102,1.94824,-0.00110914,-0.000376803,-0.00238388,0.0676073,-0.0600498,1.34502,-3.8739,0.622221,-0.146053,-0.266884,0.371314,-0.43968,0.613822,1.34502,0,0,168,6,168,6,291,-10,191,123,-0.407998,-0.00593811,0,-1.5,1.82784e-38,0,0,0,-0.266884,0.371314,0,0,0,0,-0.43968,0.613822,18886,0,0,0,0,0,0,0,0,0,1,-0.408445
7187,-0.678711,0.454102,6.59277,-0.00110823,0.000222788,-0.0028031,0.067604,-0.060045,1.34494,-3.8739,0.622221,-0.146053,-0.273967,0.381203,-0.444396,0.620477,1.34494,0,0,168,6,168,6,291,-10,191,123,-0.410142,-0.00196303,0,-1.5,1.82784e-38,0,0,0,-0.273967,0.381203,0,0,0,0,-0.444396,0.620477,18886,0,0,0,0,0,0,0,0,0,1,-0.419323
7203,-0.582031,0.454102,-6.44922,-0.000428048,-0.000564638,-0.00178782,0.0676033,-0.0600506,1.34491,-3.89114,0.625472,-0.138971,-0.281126,0.3912,-0.449073,0.62708,1.34491,0,0,168,8,168,8,291,-10,191,123,-0.412272,0.00205135,0,-1.5,1.82784e-38,0,0,0,-0.281126,0.3912,0,0,0,0,-0.449073,0.62708,18886,0,0,0,0,0,0,0,0,0,1,-0.43032
7219,-0.483398,0.454102,-4.82812,-0.000763966,0.000138902,-0.00273873,0.0675965,-0.0600567,1.34487,-3.89114,0.625472,-0.138971,-0.288359,0.4013,-0.453712,0.63363,1.34487,0,0,168,8,168,8,291,-10,191,123,-0.414397,0.00608084,0,-1.5,1.82784e-38,0,0,0,-0.288359,0.4013,0,0,0,0,-0.453712,0.63363,18886,0,0,0,0,0,0,0,0,0,1,-0.44143
7235,-0.480469,0.454102,-0.00976562,-0.00167338,-0.000924187,-0.00382546,0.0675756,-0.0600579,1.34482,-3.88342,0.626556,-0.141741,-0.295665,0.411504,-0.458311,0.640129,1.34482,0,0,168,8,168,8,291,-10,190,123,-0.41652,0.0101208,0,-1.5,1.82784e-38,0,0,0,-0.295665,0.411504,0,0,0,0,-0.458311,0.640129,18886,0,0,0,0,0,0,0,0,0,1,-0.452655
7252,-0.53418,0.454102,6.89746,-0.00103068,-0.000244157,-0.00303718,0.0675683,-0.0600588,1.34475,-3.88342,0.626556,-0.141741,-0.30351,0.422462,-0.463156,0.646978,1.34475,0,0,168,8,168,8,291,-10,190,123,-0.418774,0.0144222,0,-1.5,1.82784e-38,0,0,0,-0.30351,0.422462,0,0,0,0,-0.463156,0.646978,18886,0,0,0,0,0,0,0,0,0,1,-0.464708
7268,-0.567383,0.454102,6.9873,0.000269289,-0.00136743,-0.00442367,0.0675762,-0.0600661,1.34469,-3.87397,0.625374,-0.147765,-0.310966,0.432879,-0.467675,0.653371,1.34469,0,0,168,8,168,8,291,-10,190,124,-0.420885,0.0184968,0,-1.5,1.82784e-38,0,0,0,-0.310966,0.432879,0,0,0,0,-0.467675,0.653371,19028,0,0,0,0,0,0,0,0,0,1,-0.476167
7283,-0.600586,0.454102,-6.4834,-9.125e-05,-0.000911473,-0.00320318,0.067584,-0.0600728,1.34466,-3.87397,0.625374,-0.147765,-0.318022,0.442737,-0.47188,0.65932,1.34466,0,0,168,8,168,8,291,-10,190,124,-0.422858,0.0223368,0,-1.5,1.82784e-38,0,0,0,-0.318022,0.442737,0,0,0,0,-0.47188,0.65932,19028,0,0,0,0,0,0,0,0,0,1,-0.487011
7300,-0.603516,0.454102,-0.251953,-0.00129631,-0.000245272,-0.00237687,0.067574,-0.0600767,1.34462,-3.87101,0.622655,-0.148731,-0.326098,0.454021,-0.476608,0.666012,1.34462,0,0,170,8,170,8,292,-10,188,124,-0.425087,0.0267121,0,-1.5,1.82784e-38,0,0,0,-0.326098,0.454021,0,0,0,0,-0.476608,0.666012,18760,0,0,0,0,0,0,0,0,0,1,-0.499423
7315,-0.603516,0.454102,-0.251953,-0.00129631,-0.000245272,-0.00237687,0.067574,-0.0600767,1.34462,-3.87101,0.622655,-0.148731,-0.333287,0.464068,-0.480744,0.671867,1.34462,0,0,170,8,170,8,292,-10,188,124,-0.427043,0.0305994,0,-1.5,1.82784e-38,0,0,0,-0.333287,0.464068,0,0,0,0,-0.480744,0.671867,18760,0,0,0,0,0,0,0,0,0,1,-0.510475
7340,-0.603516,0.454102,0.499023,-0.00061033,-0.00104658,-0.00396167,0.0675506,-0.0600828,1.34451,-3.87101,0.622655,-0.148731,-0.345433,0.481045,-0.487581,0.681549,1.34451,0,0,170,8,170,8,292,-10,188,124,-0.430323,0.0370745,0,-1.5,1.82784e-38,0,0,0,-0.345433,0.481045,0,0,0,0,-0.487581,0.681549,18760,0,0,0,0,0,0,0,0,0,1,-0.52915
7356,-0.603516,0.454102,0.499023,-0.00061033,-0.00104658,-0.00396167,0.0675506,-0.0600828,1.34451,-3.86997,0.624792,-0.151732,-0.35328,0.492015,-0.4919,0.687672,1.34451,0,0,168,8,168,8,291,-10,190,124,-0.432395,0.0412635,0,-1.5,1.82784e-38,0,0,0,-0.35328,0.492015,0,0,0,0,-0.4919,0.687672,19028,0,0,0,0,0,0,0,0,0,1,-0.541216
7372,-0.603516,0.454102,-6.4834,-0.000366763,-0.000937047,-0.00292669,0.0675411,-0.0600947,1.34443,-3.86997,0.624792,-0.151732,-0.361194,0.503079,-0.496183,0.693746,1.34443,0,0,168,8,168,8,291,-10,190,124,-0.434479,0.0454354,0,-1.5,1.82784e-38,0,0,0,-0.361194,0.503079,0,0,0,0,-0.496183,0.693746,19028,0,0,0,0,0,0,0,0,0,1,-0.553387
7387,-0.603516,0.454102,-0.0195312,-0.000228677,-0.000636395,-0.0019018,0.067543,-0.0601059,1.34436,-3.86997,0.624792,-0.151732,-0.368675,0.51354,-0.500165,0.699397,1.34439,0,0,168,8,168,8,291,-10,190,124,-0.436422,0.0493721,0,-1.5,1.82784e-38,0,0,0,-0.368675,0.51354,0,0,0,0,-0.500165,0.699397,19028,0,0,0,0,0,0,0,0,0,1,-0.564894
7402,-0.603516,0.454102,-6.20801,-0.000847441,-5.85141e-05,-0.002409,0.0675397,-0.0601115,1.34431,-3.86997,0.624792,-0.151732,-0.376216,0.524085,-0.504117,0.705008,1.34436,0,0,168,8,168,8,291,-10,190,124,-0.438358,0.0533296,0,-1.5,1.82784e-38,0,0,0,-0.376216,0.524085,0,0,0,0,-0.504117,0.705008,19028,0,0,0,0,0,0,0,0,0,1,-0.576494
7418,-0.603516,0.454102,6.87012,-0.00029877,0.000196143,-0.00376745,0.0675404,-0.0601076,1.34427,-3.86997,0.624792,-0.151732,-0.384325,0.535426,-0.508299,0.710948,1.34431,0,0,168,8,168,8,291,-10,190,124,-0.44042,0.0575624,0,-1.5,1.82784e-38,0,0,0,-0.384325,0.535426,0,0,0,0,-0.508299,0.710948,19028,0,0,0,0,0,0,0,0,0,1,-0.588969
7433,-0.603516,0.454102,6.95996,-0.00139667,-7.20469e-05,-0.00266112,0.0675275,-0.0600998,1.34423,-3.90052,0.634457,-0.139372,-0.391987,0.546144,-0.512188,0.716473,1.34423,0,0,170,8,170,8,289,-9,188,124,-0.442359,0.0615247,0,-1.5,1.82784e-38,0,0,0,-0.391987,0.546144,0,0,0,0,-0.512188,0.716473,18620,0,0,0,0,0,0,0,0,0,1,-0.600758
7449,-0.603516,0.454102,-6.49219,-0.000948611,0.00010074,-0.00339826,0.0675174,-0.0600937,1.34418,-3.90052,0.634457,-0.139372,-0.400225,0.557669,-0.516303,0.722321,1.34418,0,0,170,8,170,8,289,-9,188,124,-0.444413,0.0657862,0,-1.5,1.82784e-38,0,0,0,-0.400225,0.557669,0,0,0,0,-0.516303,0.722321,18620,0,0,0,0,0,0,0,0,0,1,-0.613436
7465,-0.603516,0.454102,-0.25293,5.99507e-05,-0.000569838,-0.00319032,0.0675215,-0.060093,1.34413,-3.90052,0.634457,-0.139372,-0.408529,0.569287,-0.520384,0.728122,1.34413,0,0,170,8,170,8,289,-9,188,124,-0.446463,0.0700623,0,-1.5,1.82784e-38,0,0,0,-0.408529,0.569287,0,0,0,0,-0.520384,0.728122,18620,0,0,0,0,0,0,0,0,0,1,-0.626216
7481,-0.603516,0.454102,-0.25293,5.99507e-05,-0.000569838,-0.00319032,0.0675215,-0.060093,1.34413,-3.88187,0.6282,-0.140478,-0.416896,0.580996,-0.524431,0.733876,1.34413,0,0,168,6,168,6,291,-10,190,123,-0.448495,0.0743741,0,-1.5,1.82784e-38,0,0,0,-0.416896,0.580996,0,0,0,0,-0.524431,0.733876,18753,0,0,0,0,0,0,0,0,0,1,-0.639095
7498,-0.603516,0.454102,0.473633,6.78119e-05,-0.000241587,-0.0029649,0.0675341,-0.0600909,1.344,-3.88187,0.6282,-0.140478,-0.425858,0.593539,-0.528697,0.73994,1.34404,0,0,168,6,168,6,291,-10,190,123,-0.450673,0.0789323,0,-1.5,1.82784e-38,0,0,0,-0.425858,0.593539,0,0,0,0,-0.528697,0.73994,18753,0,0,0,0,0,0,0,0,0,1,-0.652892
7513,-0.603516,0.454102,6.60254,-0.000905788,-0.000239729,-0.00202428,0.0675292,-0.0600933,1.34397,-3.85427,0.626936,-0.157341,-0.433291,0.603942,-0.532182,0.744895,1.344,0,0,168,8,168,8,291,-10,188,124,-0.452454,0.0827122,0,-1.5,1.82784e-38,0,0,0,-0.433291,0.603942,0,0,0,0,-0.532182,0.744895,19028,0,0,0,0,0,0,0,0,0,1,-0.664336
7528,-0.603516,0.454102,-6.47949,-0.00140113,-0.000590534,-0.00263157,0.0675284,-0.0601039,1.34394,-3.85427,0.626936,-0.157341,-0.44131,0.615166,-0.535889,0.750166,1.34397,0,0,168,8,168,8,291,-10,188,124,-0.454358,0.0867783,0,-1.5,1.82784e-38,0,0,0,-0.44131,0.615166,0,0,0,0,-0.535889,0.750166,19028,0,0,0,0,0,0,0,0,0,1,-0.676683
7543,-0.603516,0.454102,-4.83691,-0.000263528,-0.000468273,-0.00353784,0.0675328,-0.0601089,1.34389,-3.85677,0.629003,-0.151967,-0.449925,0.627227,-0.539812,0.755749,1.34389,0,0,168,6,168,6,291,-10,188,124,-0.456394,0.0911131,0,-1.5,1.82784e-38,0,0,0,-0.449925,0.627227,0,0,0,0,-0.539812,0.755749,18894,0,0,0,0,0,0,0,0,0,1,-0.68995
7559,-0.603516,0.454102,-0.0693359,-0.00106238,-0.000748534,-0.00366814,0.0675256,-0.0601189,1.34384,-3.85677,0.629003,-0.151967,-0.458603,0.639378,-0.543702,0.761288,1.34384,0,0,168,6,168,6,291,-10,188,124,-0.458417,0.0954787,0,-1.5,1.82784e-38,0,0,0,-0.458603,0.639378,0,0,0,0,-0.543702,0.761288,18894,0,0,0,0,0,0,0,0,0,1,-0.703315
7575,-0.603516,0.454102,-0.0693359,-0.00106238,-0.000748534,-0.00366814,0.0675256,-0.0601189,1.34384,-3.85431,0.626919,-0.15739,-0.467343,0.651616,-0.547561,0.766785,1.34384,0,0,168,8,168,8,291,-10,188,124,-0.460424,0.0998798,0,-1.5,1.82784e-38,0,0,0,-0.467343,0.651616,0,0,0,0,-0.547561,0.766785,19028,0,0,0,0,0,0,0,0,0,1,-0.716778
7591,-0.603516,0.454102,6.87695,-0.00171689,0.000441421,-0.00272261,0.0675008,-0.0601237,1.34377,-3.85431,0.626919,-0.15739,-0.476143,0.66394,-0.551386,0.772237,1.34377,0,0,168,8,168,8,291,-10,188,124,-0.462446,0.104261,0,-1.5,1.82784e-38,0,0,0,-0.476143,0.66394,0,0,0,0,-0.551386,0.772237,19028,0,0,0,0,0,0,0,0,0,1,-0.730334
7606,-0.603516,0.454102,6.97266,-0.00124537,-0.000556981,-0.00201419,0.0674856,-0.0601347,1.34374,-3.87004,0.624879,-0.151925,-0.484448,0.675573,-0.554941,0.777309,1.34374,0,0,168,8,168,8,291,-10,190,124,-0.464324,0.108401,0,-1.5,1.82784e-38,0,0,0,-0.484448,0.675573,0,0,0,0,-0.554941,0.777309,19028,0,0,0,0,0,0,0,0,0,1,-0.74313
7623,-0.603516,0.454102,-0.241211,-0.000772629,-0.000215127,-0.00241741,0.0674827,-0.0601429,1.34367,-3.87004,0.624879,-0.151925,-0.493367,0.688066,-0.558701,0.782681,1.3437,0,0,168,8,168,8,291,-10,190,124,-0.466327,0.112828,0,-1.5,1.82784e-38,0,0,0,-0.493367,0.688066,0,0,0,0,-0.558701,0.782681,19028,0,0,0,0,0,0,0,0,0,1,-0.756873
7638,-0.603516,0.454102,-0.241211,-0.000772629,-0.000215127,-0.00241741,0.0674827,-0.0601429,1.34367,-3.8794,0.626159,-0.146113,-0.502345,0.700645,-0.562431,0.788011,1.34367,0,0,168,8,168,8,291,-10,190,123,-0.468324,0.11727,0,-1.5,1.82784e-38,0,0,0,-0.502345,0.700645,0,0,0,0,-0.562431,0.788011,18886,0,0,0,0,0,0,0,0,0,1,-0.77071
7654,-0.603516,0.454102,-0.241211,-0.000772629,-0.000215127,-0.00241741,0.0674827,-0.0601429,1.34367,-3.8794,0.626159,-0.146113,-0.511383,0.713309,-0.566131,0.793298,1.34367,0,0,168,8,168,8,291,-10,190,123,-0.470307,0.121743,0,-1.5,1.82784e-38,0,0,0,-0.511383,0.713309,0,0,0,0,-0.566131,0.793298,18886,0,0,0,0,0,0,0,0,0,1,-0.78464
7670,-0.603516,0.454102,-0.241211,-0.000772629,-0.000215127,-0.00241741,0.0674827,-0.0601429,1.34367,-3.87473,0.632335,-0.147252,-0.520478,0.726055,-0.5698,0.798542,1.34367,0,0,168,8,168,8,291,-10,188,123,-0.472286,0.126229,0,-1.5,1.82784e-38,0,0,0,-0.520478,0.726055,0,0,0,0,-0.5698,0.798542,18753,0,0,0,0,0,0,0,0,0,1,-0.798661
7685,-0.603516,0.454102,-0.241211,-0.000772629,-0.000215127,-0.00241741,0.0674827,-0.0601429,1.34367,-3.87473,0.632335,-0.147252,-0.529058,0.738081,-0.573214,0.80342,1.34367,0,0,168,8,168,8,291,-10,188,123,-0.474136,0.130447,0,-1.5,1.82784e-38,0,0,0,-0.529058,0.738081,0,0,0,0,-0.573214,0.80342,18753,0,0,0,0,0,0,0,0,0,1,-0.811889
7702,-0.603516,0.454102,-6.45898,-0.000140569,-0.000616209,-0.00194838,0.0675233,-0.0601575,1.34348,-3.87843,0.632571,-0.144007,-0.538847,0.751801,-0.577054,0.808908,1.34348,0,0,167,7,167,7,289,-10,190,123,-0.476288,0.135155,0,-1.5,1.82784e-38,0,0,0,-0.538847,0.751801,0,0,0,0,-0.577054,0.808908,19019,0,0,0,0,0,0,0,0,0,1,-0.826981
7717,-0.603516,0.454102,-4.83887,-0.00131363,0.000694897,-0.00264635,0.0675151,-0.0601492,1.34344,-3.87843,0.632571,-0.144007,-0.547535,0.763981,-0.580416,0.813713,1.34344,0,0,167,7,167,7,289,-10,190,123,-0.478144,0.139382,0,-1.5,1.82784e-38,0,0,0,-0.547535,0.763981,0,0,0,0,-0.580416,0.813713,19019,0,0,0,0,0,0,0,0,0,1,-0.840379
7733,-0.603516,0.454102,-6.21973,0.0005143,0.000547139,-0.00284602,0.0675284,-0.0601506,1.34337,-3.85721,0.623901,-0.147603,-0.556859,0.777054,-0.583974,0.8188,1.3434,0,0,168,6,168,6,292,-10,188,122,-0.480122,0.143901,0,-1.5,1.82784e-38,0,0,0,-0.556859,0.777054,0,0,0,0,-0.583974,0.8188,18744,0,0,0,0,0,0,0,0,0,1,-0.85476
7749,-0.603516,0.454102,6.88672,-0.00127742,-0.00157082,-0.00285233,0.0675239,-0.060162,1.34332,-3.85721,0.623901,-0.147603,-0.56624,0.790208,-0.587504,0.823848,1.34337,0,0,168,6,168,6,292,-10,188,122,-0.482093,0.148439,0,-1.5,1.82784e-38,0,0,0,-0.56624,0.790208,0,0,0,0,-0.587504,0.823848,18744,0,0,0,0,0,0,0,0,0,1,-0.869229
7765,-0.603516,0.454102,6.97656,-0.000455253,0.000456798,-0.00244188,0.0675307,-0.0601555,1.34328,-3.87822,0.62621,-0.146284,-0.575677,0.803442,-0.591006,0.828856,1.34328,0,0,170,8,170,8,291,-10,188,124,-0.484076,0.152967,0,-1.5,1.82784e-38,0,0,0,-0.575677,0.803442,0,0,0,0,-0.591006,0.828856,18760,0,0,0,0,0,0,0,0,0,1,-0.883787
7781,-0.603516,0.454102,-6.5,-0.000878802,-0.000694856,-0.00277094,0.0675332,-0.0601574,1.34324,-3.87822,0.62621,-0.146284,-0.585168,0.816755,-0.594479,0.833824,1.34324,0,0,170,8,170,8,291,-10,188,124,-0.486041,0.157527,0,-1.5,1.82784e-38,0,0,0,-0.585168,0.816755,0,0,0,0,-0.594479,0.833824,18760,0,0,0,0,0,0,0,0,0,1,-0.89843
7797,-0.603516,0.454102,-0.260742,-0.000978403,-0.0010545,-0.00305701,0.0675351,-0.0601678,1.3432,-3.87822,0.62621,-0.146284,-0.594716,0.830148,-0.597925,0.838753,1.3432,0,0,170,8,170,8,291,-10,188,124,-0.487631,0.160498,0,-1.5,1.82784e-38,0,0,0,-0.594716,0.830148,0,0,0,0,-0.597925,0.838753,18760,0,0,0,0,0,0,0,0,0,1,-0.913163
7813,-0.603516,0.454102,-0.260742,-0.000978403,-0.0010545,-0.00305701,0.0675351,-0.0601678,1.3432,-3.88354,0.626836,-0.144211,-0.604319,0.843619,-0.601343,0.843645,1.3432,0,0,170,8,170,8,291,-10,188,123,-0.488464,0.160305,0,-1.5,1.82784e-38,0,0,0,-0.604319,0.843619,0,0,0,0,-0.601343,0.843645,18620,0,0,0,0,0,0,0,0,0,1,-0.927981
7829,-0.603516,0.454102,0.499023,-0.000771657,-0.000481203,-0.00285571,0.0675364,-0.0601769,1.34309,-3.88354,0.626836,-0.144211,-0.613975,0.857167,-0.604733,0.848498,1.34312,0,0,170,8,170,8,291,-10,188,123,-0.489317,0.160075,0,-1.5,1.82784e-38,0,0,0,-0.613975,0.857167,0,0,0,0,-0.604733,0.848498,18620,0,0,0,0,0,0,0,0,0,1,-0.942884
7845,-0.603516,0.454102,6.62109,0.00103746,-0.000512596,-0.00277252,0.0675519,-0.060182,1.34305,-3.87824,0.626191,-0.146296,-0.623685,0.870792,-0.608096,0.853314,1.34309,0,0,170,8,170,8,291,-10,188,124,-0.490147,0.159868,0,-1.5,1.82784e-38,0,0,0,-0.623685,0.870792,0,0,0,0,-0.608096,0.853314,18760,0,0,0,0,0,0,0,0,0,1,-0.957871
7861,-0.603516,0.454102,-6.47266,-0.000542589,-0.00103223,-0.00229353,0.0675508,-0.0601938,1.34301,-3.87824,0.626191,-0.146296,-0.633449,0.884494,-0.611432,0.858093,1.34305,0,0,170,8,170,8,291,-10,188,124,-0.490973,0.159661,0,-1.5,1.82784e-38,0,0,0,-0.633449,0.884494,0,0,0,0,-0.611432,0.858093,18760,0,0,0,0,0,0,0,0,0,1,-0.972943
7876,-0.603516,0.454102,-6.47266,-0.000542589,-0.00103223,-0.00229353,0.0675508,-0.0601938,1.34301,-3.89464,0.624171,-0.140577,-0.64265,0.897408,-0.614536,0.86254,1.34301,0,0,170,8,170,8,291,-10,190,124,-0.491741,0.159466,0,-1.5,1.82784e-38,0,0,0,-0.64265,0.897408,0,0,0,0,-0.614536,0.86254,18760,0,0,0,0,0,0,0,0,0,1,-0.987149
7892,-0.603516,0.454102,-0.0253906,0.000241298,-0.000509461,-0.0032465,0.0675536,-0.0601842,1.34293,-3.89464,0.624171,-0.140577,-0.652517,0.911259,-0.61782,0.867248,1.34293,0,0,170,8,170,8,291,-10,190,124,-0.492569,0.159241,0,-1.5,1.82784e-38,0,0,0,-0.652517,0.911259,0,0,0,0,-0.61782,0.867248,18760,0,0,0,0,0,0,0,0,0,1,-1
7907,-0.603516,0.454102,-0.0253906,0.000241298,-0.000509461,-0.0032465,0.0675536,-0.0601842,1.34293,-3.86778,0.628684,-0.147888,-0.661814,0.92431,-0.620875,0.871626,1.34293,0,0,168,8,168,8,291,-10,188,123,-0.493313,0.159068,0,-1.5,1.82784e-38,0,0,0,-0.661814,0.92431,0,0,0,0,-0.620875,0.871626,18886,0,0,0,0,0,0,0,0,0,1,-1
7922,-0.603516,0.454102,6.87305,0.000566663,-1.48216e-05,-0.00360271,0.067572,-0.06018,1.34283,-3.86778,0.628684,-0.147888,-0.671157,0.937426,-0.623908,0.875972,1.34283,0,0,168,8,168,8,291,-10,188,123,-0.494082,0.158851,0,-1.5,1.82784e-38,0,0,0,-0.671157,0.937426,0,0,0,0,-0.623908,0.875972,18886,0,0,0,0,0,0,0,0,0,1,-1
7939,-0.603516,0.454102,6.96094,-0.000859897,0.000495505,-0.00341339,0.0675825,-0.0601784,1.34279,-3.85525,0.626066,-0.150695,-0.681801,0.952371,-0.627321,0.88086,1.34279,0,0,168,6,168,6,291,-10,188,123,-0.494928,0.158636,0,-1.5,1.82784e-38,0,0,0,-0.681801,0.952371,0,0,0,0,-0.627321,0.88086,18886,0,0,0,0,0,0,0,0,0,1,-1
7954,-0.603516,0.454102,-0.261719,-0.00141899,-0.000463193,-0.00279879,0.0675741,-0.0601885,1.34272,-3.85525,0.626066,-0.150695,-0.691239,0.965626,-0.630308,0.885138,1.34275,0,0,168,6,168,6,291,-10,188,123,-0.495667,0.15845,0,-1.5,1.82784e-38,0,0,0,-0.691239,0.965626,0,0,0,0,-0.630308,0.885138,18886,0,0,0,0,0,0,0,0,0,1,-1
7971,-0.603516,0.454102,-0.261719,-0.00141899,-0.000463193,-0.00279879,0.0675741,-0.0601885,1.34272,-3.88553,0.63071,-0.136648,-0.701357,0.979836,-0.633469,0.889668,1.34272,0,0,169,6,169,6,291,-10,188,122,-0.49645,0.158252,0,-1.5,1.82784e-38,0,0,0,-0.701357,0.979836,0,0,0,0,-0.633469,0.889668,18480,0,0,0,0,0,0,0,0,0,1,-1
7987,-0.603516,0.454102,1.95312,-0.00153455,-0.000524939,-0.00362664,0.0675522,-0.0601833,1.34261,-3.88553,0.63071,-0.136648,-0.711526,0.994118,-0.636602,0.894162,1.34261,0,0,169,6,169,6,291,-10,188,122,-0.497247,0.158024,0,-1.5,1.82784e-38,0,0,0,-0.711526,0.994118,0,0,0,0,-0.636602,0.894162,18480,0,0,0,0,0,0,0,0,0,1,-1
8002,-0.603516,0.454102,0.530273,-0.000686259,0.000168653,-0.00308015,0.0675459,-0.060178,1.34258,-3.88131,0.628909,-0.147755,-0.721744,1.00847,-0.639707,0.89862,1.34258,0,0,168,8,168,8,291,-10,190,124,-0.498014,0.157832,0,-1.5,1.82784e-38,0,0,0,-0.721744,1.00847,0,0,0,0,-0.639707,0.89862,18894,0,0,0,0,0,0,0,0,0,1,-1
8018,-0.603516,0.454102,6.61816,-0.00211973,-0.00113448,-0.00242001,0.0675356,-0.0601899,1.34254,-3.88131,0.628909,-0.147755,-0.732012,1.0229,-0.642785,0.903041,1.34254,0,0,168,8,168,8,291,-10,190,124,-0.498777,0.157637,0,-1.5,1.82784e-38,0,0,0,-0.732012,1.0229,0,0,0,0,-0.642785,0.903041,18894,0,0,0,0,0,0,0,0,0,1,-1
8034,-0.603516,0.454102,-6.47949,-0.00100948,-0.00060877,-0.0028023,0.0675305,-0.0601877,1.34249,-3.91563,0.629599,-0.130048,-0.742329,1.03739,-0.645836,0.907429,1.34249,0,0,170,8,170,8,291,-10,190,123,-0.499537,0.15744,0,-1.5,1.82784e-38,0,0,0,-0.742329,1.03739,0,0,0,0,-0.645836,0.907429,18487,0,0,0,0,0,0,0,0,0,1,-1
8050,-0.603516,0.454102,0.00195312,4.75445e-05,-0.000344937,-0.00175568,0.0675318,-0.0602009,1.34242,-3.91563,0.629599,-0.130048,-0.752694,1.05195,-0.648862,0.911781,1.34249,0,0,170,8,170,8,291,-10,190,123,-0.500274,0.157268,0,-1.5,1.82784e-38,0,0,0,-0.752694,1.05195,0,0,0,0,-0.648862,0.911781,18487,0,0,0,0,0,0,0,0,0,1,-1
8066,-0.603516,0.454102,-6.22266,-0.00113917,-0.000192366,-0.00307997,0.06752,-0.0601985,1.34237,-3.91562,0.629607,-0.130044,-0.763107,1.06659,-0.651864,0.916101,1.34242,0,0,170,8,170,8,291,-10,190,123,-0.501028,0.157063,0,-1.5,1.82784e-38,0,0,0,-0.763107,1.06659,0,0,0,0,-0.651864,0.916101,18487,0,0,0,0,0,0,0,0,0,1,-1
8082,-0.603516,0.454102,6.86719,-0.00188167,0.00069754,-0.00347171,0.0675044,-0.0601876,1.34233,-3.91562,0.629607,-0.130044,-0.773567,1.08129,-0.654839,0.920386,1.34237,0,0,170,8,170,8,291,-10,190,123,-0.501767,0.156872,0,-1.5,1.82784e-38,0,0,0,-0.773567,1.08129,0,0,0,0,-0.654839,0.920386,18487,0,0,0,0,0,0,0,0,0,1,-1
8099,-0.603516,0.454102,6.96289,0.000459623,-0.000527404,-0.00167922,0.0675176,-0.0601849,1.3423,-3.89711,0.622431,-0.141961,-0.784076,1.09606,-0.657788,0.924635,1.3423,0,0,170,9,170,9,292,-10,190,123,-0.50251,0.156668,0,-1.5,1.82784e-38,0,0,0,-0.784076,1.09606,0,0,0,0,-0.657788,0.924635,18620,0,0,0,0,0,0,0,0,0,1,-1
8113,-0.603516,0.454102,-6.50293,-0.000102297,-0.000483756,-0.0032446,0.0675116,-0.0601876,1.34226,-3.89711,0.622431,-0.141961,-0.793969,1.10997,-0.660531,0.928588,1.34226,0,0,170,9,170,9,292,-10,190,123,-0.503192,0.156492,0,-1.5,1.82784e-38,0,0,0,-0.793969,1.10997,0,0,0,0,-0.660531,0.928588,18620,0,0,0,0,0,0,0,0,0,1,-1
8129,-0.603516,0.454102,-0.261719,-0.00218811,-0.000492963,-0.00300718,0.0674957,-0.0601886,1.34222,-3.89711,0.622431,-0.141961,-0.804568,1.12487,-0.663434,0.932773,1.34222,0,0,170,9,170,9,292,-10,190,123,-0.503912,0.156306,0,-1.5,1.82784e-38,0,0,0,-0.804568,1.12487,0,0,0,0,-0.663434,0.932773,18620,0,0,0,0,0,0,0,0,0,1,-1
8145,-0.603516,0.454102,-0.261719,-0.00218811,-0.000492963,-0.00300718,0.0674957,-0.0601886,1.34222,-3.87261,0.626981,-0.146832,-0.815213,1.13984,-0.666311,0.936924,1.34222,0,0,168,6,168,6,291,-10,190,124,-0.504613,0.156143,0,-1.5,1.82784e-38,0,0,0,-0.815213,1.13984,0,0,0,0,-0.666311,0.936924,18894,0,0,0,0,0,0,0,0,0,1,-1
8162,-0.603516,0.454102,0.488281,-0.00115703,0.000579944,-0.00304405,0.0674616,-0.0601575,1.3421,-3.87261,0.626981,-0.146832,-0.826574,1.15581,-0.669342,0.941298,1.34214,0,0,168,6,168,6,291,-10,190,124,-0.505374,0.155936,0,-1.5,1.82784e-38,0,0,0,-0.826574,1.15581,0,0,0,0,-0.669342,0.941298,18894,0,0,0,0,0,0,0,0,0,1,-1
8178,-0.603516,0.454102,6.63281,-0.00172878,-0.00105503,-0.00300942,0.0674431,-0.0601631,1.34206,-3.86162,0.622927,-0.151203,-0.837312,1.17092,-0.672167,0.945377,1.3421,0,0,168,6,168,6,291,-10,190,124,-0.506076,0.155755,0,-1.5,1.82784e-38,0,0,0,-0.837312,1.17092,0,0,0,0,-0.672167,0.945377,19028,0,0,0,0,0,0,0,0,0,1,-1
8194,-0.603516,0.454102,-6.43262,-0.000779362,-0.000364551,-0.00238234,0.0674412,-0.0601734,1.34202,-3.86162,0.622927,-0.151203,-0.848096,1.18608,-0.674965,0.949423,1.34202,0,0,168,6,168,6,291,-10,190,124,-0.506783,0.155556,0,-1.5,1.82784e-38,0,0,0,-0.848096,1.18608,0,0,0,0,-0.674965,0.949423,19028,0,0,0,0,0,0,0,0,0,1,-1
8209,-0.603516,0.454102,-6.43262,-0.000779362,-0.000364551,-0.00238234,0.0674412,-0.0601734,1.34202,-3.88433,0.638674,-0.145813,-0.858245,1.20036,-0.677567,0.953188,1.34202,0,0,168,8,168,8,289,-10,188,123,-0.507417,0.155408,0,-1.5,1.82784e-38,0,0,0,-0.858245,1.20036,0,0,0,0,-0.677567,0.953188,18753,0,0,0,0,0,0,0,0,0,1,-1
8225,-0.603516,0.454102,-0.0185547,-0.000217707,-0.000137312,-0.00273783,0.067443,-0.0601759,1.34193,-3.88433,0.638674,-0.145813,-0.869115,1.21565,-0.680321,0.957174,1.34193,0,0,168,8,168,8,289,-10,188,123,-0.508118,0.155206,0,-1.5,1.82784e-38,0,0,0,-0.869115,1.21565,0,0,0,0,-0.680321,0.957174,18753,0,0,0,0,0,0,0,0,0,1,-1
8241,-0.603516,0.454102,-0.0185547,-0.000217707,-0.000137312,-0.00273783,0.067443,-0.0601759,1.34193,-3.87045,0.631784,-0.151413,-0.880029,1.23101,-0.683053,0.96113,1.34193,0,0,168,8,168,8,291,-10,188,123,-0.508783,0.155051,0,-1.5,1.82784e-38,0,0,0,-0.880029,1.23101,0,0,0,0,-0.683053,0.96113,18753,0,0,0,0,0,0,0,0,0,1,-1
8257,-0.603516,0.454102,6.88379,-0.00139356,0.00110061,-0.00269347,0.0674466,-0.0601675,1.34185,-3.87045,0.631784,-0.151413,-0.890986,1.24643,-0.685762,0.965053,1.34185,0,0,168,8,168,8,291,-10,188,123,-0.509469,0.154856,0,-1.5,1.82784e-38,0,0,0,-0.890986,1.24643,0,0,0,0,-0.685762,0.965053,18753,0,0,0,0,0,0,0,0,0,1,-1
8273,-0.603516,0.454102,7.00293,-0.00141772,0.000595418,-0.00241278,0.067429,-0.060163,1.34182,-3.88352,0.6312,-0.144643,-0.901296,1.26094,-0.688281,0.968701,1.34182,0,0,168,6,168,6,289,-9,190,124,-0.510092,0.154698,0,-1.5,1.82784e-38,0,0,0,-0.901296,1.26094,0,0,0,0,-0.688281,0.968701,18886,0,0,0,0,0,0,0,0,0,1,-1
8288,-0.603516,0.454102,-0.269531,-0.00138971,-0.000269869,-0.0026316,0.0674215,-0.060167,1.34174,-3.88352,0.6312,-0.144643,-0.912336,1.27648,-0.690946,0.972562,1.34182,0,0,168,6,168,6,289,-9,190,124,-0.510741,0.154547,0,-1.5,1.82784e-38,0,0,0,-0.912336,1.27648,0,0,0,0,-0.690946,0.972562,18886,0,0,0,0,0,0,0,0,0,1,-1
8305,-0.603516,0.454102,-0.269531,-0.00138971,-0.000269869,-0.0026316,0.0674215,-0.060167,1.34174,-3.88686,0.627786,-0.145145,-0.923419,1.29208,-0.693588,0.976394,1.34174,0,0,170,8,170,8,291,-9,188,124,-0.511411,0.154356,0,-1.5,1.82784e-38,0,0,0,-0.923419,1.29208,0,0,0,0,-0.693588,0.976394,18620,0,0,0,0,0,0,0,0,0,1,-1
8319,-0.551758,0.454102,1.92676,-0.000481991,8.80933e-05,-0.00374157,0.0674062,-0.0601622,1.34166,-3.88686,0.627786,-0.145145,-0.933847,1.30676,-0.696044,0.979958,1.34166,0,0,170,8,170,8,291,-9,188,124,-0.512036,0.154174,0,-1.5,1.82784e-38,0,0,0,-0.933847,1.30676,0,0,0,0,-0.696044,0.979958,18620,0,0,0,0,0,0,0,0,0,1,-1
8335,-0.518555,0.454102,0.500977,-0.000456791,-0.00106296,-0.00161182,0.0674023,-0.0601603,1.34162,-3.86564,0.623663,-0.147241,-0.945011,1.32248,-0.698642,0.98373,1.34162,0,0,168,6,168,6,291,-10,190,124,-0.51268,0.154008,0,-1.5,1.82784e-38,0,0,0,-0.945011,1.32248,0,0,0,0,-0.698642,0.98373,19028,0,0,0,0,0,0,0,0,0,1,-1
8351,-0.488281,0.454102,6.63574,-0.00135191,-0.000359708,-0.00283247,0.0673911,-0.0601647,1.34158,-3.86564,0.623663,-0.147241,-0.956216,1.33826,-0.701217,0.987472,1.34158,0,0,168,6,168,6,291,-10,190,124,-0.51332,0.153842,0,-1.5,1.82784e-38,0,0,0,-0.956216,1.33826,0,0,0,0,-0.701217,0.987472,19028,0,0,0,0,0,0,0,0,0,1,-1
8368,-0.488281,0.454102,-6.46387,-0.00167472,-0.000442041,-0.0027077,0.0673892,-0.0601698,1.34155,-3.88358,0.631915,-0.146798,-0.968167,1.35509,-0.703929,0.991417,1.34155,0,0,168,8,168,8,289,-10,190,124,-0.513992,0.153669,0,-1.5,1.82784e-38,0,0,0,-0.968167,1.35509,0,0,0,0,-0.703929,0.991417,19028,0,0,0,0,0,0,0,0,0,1,-1
8383,-0.541992,0.454102,0.0126953,-0.000961902,-0.000724299,-0.00320974,0.0673936,-0.0601679,1.34147,-3.88358,0.631915,-0.146798,-0.978749,1.36999,-0.706302,0.994869,1.34155,0,0,168,8,168,8,289,-10,190,124,-0.51457,0.153534,0,-1.5,1.82784e-38,0,0,0,-0.978749,1.36999,0,0,0,0,-0.706302,0.994869,19028,0,0,0,0,0,0,0,0,0,1,-1
8400,-0.575195,0.454102,-6.23926,-0.00226825,0.000706585,-0.00236628,0.0673755,-0.0601541,1.34144,-3.90577,0.628567,-0.136208,-0.990076,1.38595,-0.708814,0.998524,1.34144,0,0,170,8,170,8,291,-10,190,124,-0.515218,0.153335,0,-1.5,1.82784e-38,0,0,0,-0.990076,1.38595,0,0,0,0,-0.708814,0.998524,18626,0,0,0,0,0,0,0,0,0,1,-1
8415,-0.608398,0.454102,6.85742,-0.00172077,-0.000453824,-0.0029964,0.0673716,-0.0601556,1.34139,-3.90577,0.628567,-0.136208,-1.00144,1.40196,-0.711303,1.00215,1.34139,0,0,170,8,170,8,291,-10,190,124,-0.515839,0.153169,0,-1.5,1.82784e-38,0,0,0,-1.00144,1.40196,0,0,0,0,-0.711303,1.00215,18626,0,0,0,0,0,0,0,0,0,1,-1
8431,-0.641602,0.454102,6.95801,-0.000608681,-0.00133835,-0.00277304,0.0673678,-0.0601599,1.34135,-3.84992,0.625776,-0.152768,-1.01285,1.41804,-0.713771,1.00574,1.34135,0,0,168,6,168,6,291,-10,188,124,-0.516452,0.15301,0,-1.5,1.82784e-38,0,0,0,-1.01285,1.41804,0,0,0,0,-0.713771,1.00574,19028,0,0,0,0,0,0,0,0,0,1,-1
8447,-0.641602,0.454102,6.95801,-0.000608681,-0.00133835,-0.00277304,0.0673678,-0.0601599,1.34135,-3.84992,0.625776,-0.152768,-1.0243,1.43417,-0.716218,1.00931,1.34135,0,0,168,6,168,6,291,-10,188,124,-0.517048,0.152871,0,-1.5,1.82784e-38,0,0,0,-1.0243,1.43417,0,0,0,0,-0.716218,1.00931,19028,0,0,0,0,0,0,0,0,0,1,-1
8464,-0.59375,0.454102,-0.274414,-0.00210596,-0.00117808,-0.0037523,0.0673551,-0.0601704,1.34126,-3.84992,0.625776,-0.152768,-1.03578,1.45035,-0.718644,1.01285,1.34126,0,0,168,6,168,6,291,-10,188,124,-0.517669,0.152684,0,-1.5,1.82784e-38,0,0,0,-1.03578,1.45035,0,0,0,0,-0.718644,1.01285,19028,0,0,0,0,0,0,0,0,0,1,-1
8479,-0.495117,0.454102,1.94531,-0.00197635,-0.000498951,-0.00266818,0.0673235,-0.0601724,1.34118,-3.85513,0.626412,-0.150778,-1.0473,1.46659,-0.721049,1.01636,1.34126,0,0,168,6,168,6,291,-10,188,123,-0.518255,0.152547,0,-1.5,1.82784e-38,0,0,0,-1.0473,1.46659,0,0,0,0,-0.721049,1.01636,18886,0,0,0,0,0,0,0,0,0,1,-1
8496,-0.495117,0.454102,0.515625,-0.000721797,-9.16124e-05,-0.0028067,0.0673192,-0.0601707,1.34115,-3.85513,0.626412,-0.150778,-1.05959,1.48391,-0.72358,1.02006,1.34118,0,0,168,6,168,6,291,-10,188,123,-0.518897,0.152362,0,-1.5,1.82784e-38,0,0,0,-1.05959,1.48391,0,0,0,0,-0.72358,1.02006,18886,0,0,0,0,0,0,0,0,0,1,-1
8510,-0.495117,0.454102,0.515625,-0.000721797,-9.16124e-05,-0.0028067,0.0673192,-0.0601707,1.34115,-3.88257,0.626674,-0.143138,-1.06974,1.49822,-0.725644,1.02309,1.34115,0,0,169,6,169,6,291,-10,190,124,-0.519409,0.152228,0,-1.5,1.82784e-38,0,0,0,-1.06974,1.49822,0,0,0,0,-0.725644,1.02309,18760,0,0,0,0,0,0,0,0,0,1,-1
8525,-0.561523,0.454102,-6.4668,-0.000414992,0.000124464,-0.00219146,0.067328,-0.0601694,1.34108,-3.88257,0.626674,-0.143138,-1.08064,1.5136,-0.727841,1.0263,1.34108,0,0,169,6,169,6,291,-10,190,124,-0.519966,0.152069,0,-1.5,1.82784e-38,0,0,0,-1.08064,1.5136,0,0,0,0,-0.727841,1.0263,18760,0,0,0,0,0,0,0,0,0,1,-1
8541,-0.561523,0.454102,-6.4668,-0.000414992,0.000124464,-0.00219146,0.067328,-0.0601694,1.34108,-3.86576,0.626931,-0.153326,-1.09231,1.53005,-0.730166,1.02971,1.34108,0,0,170,8,170,8,291,-10,187,124,-0.520532,0.151937,0,-1.5,1.82784e-38,0,0,0,-1.09231,1.53005,0,0,0,0,-0.730166,1.02971,18760,0,0,0,0,0,0,0,0,0,1,-1
8557,-0.561523,0.454102,-6.4668,-0.000414992,0.000124464,-0.00219146,0.067328,-0.0601694,1.34108,-3.86576,0.626931,-0.153326,-1.10402,1.54656,-0.732472,1.03309,1.34108,0,0,170,8,170,8,291,-10,187,124,-0.521093,0.151805,0,-1.5,1.82784e-38,0,0,0,-1.10402,1.54656,0,0,0,0,-0.732472,1.03309,18760,0,0,0,0,0,0,0,0,0,1,-1
8573,-0.650391,0.454102,-6.24414,-0.000452006,0.00069513,-0.00248734,0.0673155,-0.0601735,1.34096,-3.85514,0.626481,-0.150844,-1.11576,1.56313,-0.734759,1.03644,1.34096,0,0,168,6,168,6,291,-10,188,123,-0.521691,0.15161,0,-1.5,1.82784e-38,0,0,0,-1.11576,1.56313,0,0,0,0,-0.734759,1.03644,18886,0,0,0,0,0,0,0,0,0,1,-1
8588,-0.617188,0.454102,6.87598,-0.000341774,0.000553598,-0.00401663,0.0673127,-0.0601655,1.34091,-3.85514,0.626481,-0.150844,-1.1268,1.5787,-0.736884,1.03956,1.34091,0,0,168,6,168,6,291,-10,188,123,-0.522224,0.151463,0,-1.5,1.82784e-38,0,0,0,-1.1268,1.5787,0,0,0,0,-0.736884,1.03956,18886,0,0,0,0,0,0,0,0,0,1,-1
8604,-0.583984,0.454102,6.97363,-0.000559515,-0.000228403,-0.00215029,0.0673102,-0.0601623,1.34087,-3.86149,0.623236,-0.151259,-1.13862,1.59537,-0.739133,1.04286,1.34087,0,0,168,6,168,6,291,-10,190,124,-0.522783,0.151317,0,-1.5,1.82784e-38,0,0,0,-1.13862,1.59537,0,0,0,0,-0.739133,1.04286,19028,0,0,0,0,0,0,0,0,0,1,-1
8621,-0.520508,0.454102,-0.267578,-0.00113709,-0.000118116,-0.00230942,0.0672965,-0.06016,1.3408,-3.86149,0.623236,-0.151259,-1.15121,1.61314,-0.741502,1.04633,1.3408,0,0,168,6,168,6,291,-10,190,124,-0.523382,0.151146,0,-1.5,1.82784e-38,0,0,0,-1.15121,1.61314,0,0,0,0,-0.741502,1.04633,19028,0,0,0,0,0,0,0,0,0,1,-1
8637,-0.520508,0.454102,7.07422,-0.00113419,-6.31643e-06,-0.0025233,0.0672984,-0.0601661,1.34077,-3.86149,0.62324,-0.15125,-1.1631,1.62991,-0.74371,1.04958,1.34077,0,0,168,6,168,6,291,-10,190,124,-0.52393,0.151003,0,-1.5,1.82784e-38,0,0,0,-1.1631,1.62991,0,0,0,0,-0.74371,1.04958,19028,0,0,0,0,0,0,0,0,0,1,-1
8653,-0.520508,0.454102,1.94727,-0.000457464,-0.000142674,-0.00202737,0.0672981,-0.0601691,1.34074,-3.86149,0.62324,-0.15125,-1.17502,1.64674,-0.7459,1.0528,1.34074,0,0,168,6,168,6,291,-10,190,124,-0.524334,0.150893,0,-1.5,1.82784e-38,0,0,0,-1.17502,1.64674,0,0,0,0,-0.7459,1.0528,19028,0,0,0,0,0,0,0,0,0,1,-1
8669,-0.520508,0.454102,0.492188,9.55834e-05,-0.000614609,-0.00267342,0.067304,-0.0601825,1.3407,-3.86575,0.626966,-0.153336,-1.18697,1.66362,-0.748073,1.056,1.3407,0,0,170,8,170,8,291,-10,187,124,-0.524348,0.150872,0,-1.5,1.82784e-38,0,0,0,-1.18697,1.66362,0,0,0,0,-0.748073,1.056,18760,0,0,0,0,0,0,0,0,0,1,-1
8684,-0.520508,0.454102,0.492188,9.55834e-05,-0.000614609,-0.00267342,0.067304,-0.0601825,1.3407,-3.86575,0.626966,-0.153336,-1.19821,1.67949,-0.750094,1.05897,1.3407,0,0,170,8,170,8,291,-10,187,124,-0.524348,0.150872,0,-1.5,1.82784e-38,0,0,0,-1.19821,1.67949,0,0,0,0,-0.750094,1.05897,18760,0,0,0,0,0,0,0,0,0,1,-1
8701,-0.520508,0.454102,-4.80664,-0.000477063,-0.000158387,-0.00438805,0.0673143,-0.0601911,1.34057,-3.86575,0.626966,-0.153336,-1.21099,1.69753,-0.752366,1.06232,1.34063,0,0,170,8,170,8,291,-10,187,124,-0.524371,0.150834,0,-1.5,1.82784e-38,0,0,0,-1.21099,1.69753,0,0,0,0,-0.752366,1.06232,18760,0,0,0,0,0,0,0,0,0,1,-1
8715,-0.520508,0.454102,-0.0244141,-0.000622838,6.9767e-06,-0.0038752,0.067312,-0.0601894,1.34053,-3.85833,0.627881,-0.153975,-1.22154,1.71242,-0.754223,1.06505,1.34057,0,0,168,8,168,8,291,-10,188,124,-0.524389,0.150805,0,-1.5,1.82784e-38,0,0,0,-1.22154,1.71242,0,0,0,0,-0.754223,1.06505,19028,0,0,0,0,0,0,0,0,0,1,-1
8731,-0.520508,0.454102,-6.25293,-0.00137567,-0.000466665,-0.00329272,0.0673047,-0.0601962,1.34048,-3.85833,0.627881,-0.153975,-1.23363,1.72949,-0.756328,1.06816,1.34053,0,0,168,8,168,8,291,-10,188,124,-0.524403,0.150782,0,-1.5,1.82784e-38,0,0,0,-1.23363,1.72949,0,0,0,0,-0.756328,1.06816,19028,0,0,0,0,0,0,0,0,0,1,-1
8746,-0.520508,0.454102,6.88379,-0.000442093,-0.000727834,-0.00297996,0.0673069,-0.0602017,1.34044,-3.92053,0.635617,-0.13284,-1.24499,1.74554,-0.758284,1.07104,1.34044,0,0,170,8,170,8,289,-10,190,123,-0.524432,0.150736,0,-1.5,1.82784e-38,0,0,0,-1.24499,1.74554,0,0,0,0,-0.758284,1.07104,18487,0,0,0,0,0,0,0,0,0,1,-1
8762,-0.520508,0.454102,6.97559,-0.000183135,-2.34588e-05,-0.00264302,0.0673116,-0.0602038,1.3404,-3.92053,0.635617,-0.13284,-1.25715,1.76271,-0.760355,1.0741,1.3404,0,0,170,8,170,8,289,-10,190,123,-0.524445,0.150716,0,-1.5,1.82784e-38,0,0,0,-1.25715,1.76271,0,0,0,0,-0.760355,1.0741,18487,0,0,0,0,0,0,0,0,0,1,-1
8778,-0.520508,0.454102,6.97559,-0.000183135,-2.34588e-05,-0.00264302,0.0673116,-0.0602038,1.3404,-3.86129,0.630811,-0.15749,-1.26934,1.77993,-0.762409,1.07714,1.3404,0,0,168,8,168,8,291,-10,188,124,-0.524445,0.150716,0,-1.5,1.82784e-38,0,0,0,-1.26934,1.77993,0,0,0,0,-0.762409,1.07714,18894,0,0,0,0,0,0,0,0,0,1,-1
8794,-0.520508,0.454102,-0.25,-0.00105691,-0.000431387,-0.00276729,0.0673144,-0.0601878,1.34032,-3.86129,0.630811,-0.15749,-1.28155,1.7972,-0.764447,1.08014,1.34032,0,0,168,8,168,8,291,-10,188,124,-0.524472,0.150671,0,-1.5,1.82784e-38,0,0,0,-1.28155,1.7972,0,0,0,0,-0.764447,1.08014,18894,0,0,0,0,0,0,0,0,0,1,-1
8810,-0.520508,0.454102,1.92773,0.000683222,0.000714096,-0.00310915,0.067318,-0.0601772,1.34023,-3.88633,0.629179,-0.137023,-1.29381,1.81451,-0.766468,1.08313,1.34032,0,0,168,6,168,6,291,-10,190,123,-0.524472,0.150671,0,-1.5,1.82784e-38,0,0,0,-1.29381,1.81451,0,0,0,0,-0.766468,1.08313,18753,0,0,0,0,0,0,0,0,0,1,-1
8825,-0.520508,0.454102,0.536133,-0.00109473,-0.000961875,-0.00293807,0.0673168,-0.0601803,1.34019,-3.88633,0.629179,-0.137023,-1.30532,1.83078,-0.768349,1.0859,1.34023,0,0,168,6,168,6,291,-10,190,123,-0.524498,0.150629,0,-1.5,1.82784e-38,0,0,0,-1.30532,1.83078,0,0,0,0,-0.768349,1.0859,18753,0,0,0,0,0,0,0,0,0,1,-1
8841,-0.520508,0.454102,0.536133,-0.00109473,-0.000961875,-0.00293807,0.0673168,-0.0601803,1.34019,-3.88075,0.636534,-0.151729,-1.31764,1.84819,-0.770339,1.08884,1.34019,0,0,168,9,168,9,289,-9,188,124,-0.524514,0.150604,0,-1.5,1.82784e-38,0,0,0,-1.31764,1.84819,0,0,0,0,-0.770339,1.08884,18886,0,0,0,0,0,0,0,0,0,1,-1
8857,-0.520508,0.454102,0.536133,-0.00109473,-0.000961875,-0.00293807,0.0673168,-0.0601803,1.34019,-3.88075,0.636534,-0.151729,-1.32998,1.86564,-0.772313,1.09176,1.34019,0,0,168,9,168,9,289,-9,188,124,-0.524514,0.150604,0,-1.5,1.82784e-38,0,0,0,-1.32998,1.86564,0,0,0,0,-0.772313,1.09176,18886,0,0,0,0,0,0,0,0,0,1,-1
8873,-0.520508,0.454102,0.536133,-0.00109473,-0.000961875,-0.00293807,0.0673168,-0.0601803,1.34019,-3.86711,0.622552,-0.153228,-1.34236,1.88314,-0.774271,1.09465,1.34019,0,0,170,8,170,8,292,-10,188,124,-0.524514,0.150604,0,-1.5,1.82784e-38,0,0,0,-1.34236,1.88314,0,0,0,0,-0.774271,1.09465,18760,0,0,0,0,0,0,0,0,0,1,-1
8889,-0.520508,0.454102,0.536133,-0.00109473,-0.000961875,-0.00293807,0.0673168,-0.0601803,1.34019,-3.86711,0.622552,-0.153228,-1.35399,1.89958,-0.776092,1.09734,1.34019,0,0,170,8,170,8,292,-10,188,124,-0.524514,0.150604,0,-1.5,1.82784e-38,0,0,0,-1.35399,1.89958,0,0,0,0,-0.776092,1.09734,18760,0,0,0,0,0,0,0,0,0,1,-1
8905,-0.520508,0.454102,-6.23145,-0.000425973,0.000504801,-0.00257347,0.0673112,-0.0601979,1.33997,-3.90425,0.632415,-0.131955,-1.36721,1.91827,-0.778139,1.10037,1.33997,0,0,168,8,168,8,291,-10,190,122,-0.524585,0.150489,0,-1.5,1.82784e-38,0,0,0,-1.36721,1.91827,0,0,0,0,-0.778139,1.10037,18612,0,0,0,0,0,0,0,0,0,1,-1
8920,-0.520508,0.454102,-6.23145,-0.000425973,0.000504801,-0.00257347,0.0673112,-0.0601979,1.33997,-3.90425,0.632415,-0.131955,-1.3789,1.9348,-0.779927,1.10302,1.33997,0,0,168,8,168,8,291,-10,190,122,-0.524585,0.150489,0,-1.5,1.82784e-38,0,0,0,-1.3789,1.9348,0,0,0,0,-0.779927,1.10302,18612,0,0,0,0,0,0,0,0,0,1,-1
8935,-0.520508,0.454102,6.9707,-0.000752764,-0.000477612,-0.00229754,0.067325,-0.060195,1.3399,-3.88506,0.624485,-0.140053,-1.39061,1.95137,-0.781703,1.10565,1.3399,0,0,169,6,169,6,292,-10,190,123,-0.524606,0.150455,0,-1.5,1.82784e-38,0,0,0,-1.39061,1.95137,0,0,0,0,-0.781703,1.10565,18620,0,0,0,0,0,0,0,0,0,1,-1
8951,-0.520508,0.454102,-0.272461,-0.000384511,-0.000311436,-0.00399182,0.0673268,-0.0602009,1.33981,-3.88506,0.624485,-0.140053,-1.40314,1.96909,-0.783583,1.10843,1.3399,0,0,169,6,169,6,292,-10,190,123,-0.524606,0.150455,0,-1.5,1.82784e-38,0,0,0,-1.40314,1.96909,0,0,0,0,-0.783583,1.10843,18620,0,0,0,0,0,0,0,0,0,1,-1
8967,-0.520508,0.454102,7.08203,-0.00130257,-0.000431122,-0.00397212,0.0673172,-0.0602016,1.33976,-3.85935,0.627087,-0.146991,-1.4157,1.98686,-0.785447,1.1112,1.33976,0,0,168,6,168,6,291,-10,188,123,-0.524653,0.150379,0,-1.5,1.82784e-38,0,0,0,-1.4157,1.98686,0,0,0,0,-0.785447,1.1112,18886,0,0,0,0,0,0,0,0,0,1,-1
8983,-0.520508,0.454102,1.94922,-0.000914321,-0.000589276,-0.00335809,0.0673217,-0.0602133,1.33971,-3.85935,0.627087,-0.146991,-1.42828,2.00466,-0.787295,1.11394,1.33971,0,0,168,6,168,6,291,-10,188,123,-0.524669,0.150353,0,-1.5,1.82784e-38,0,0,0,-1.42828,2.00466,0,0,0,0,-0.787295,1.11394,18886,0,0,0,0,0,0,0,0,0,1,-1
8999,-0.520508,0.454102,0.514648,-5.36281e-05,0.000287128,-0.00268699,0.067323,-0.0602056,1.33967,-3.8616,0.623226,-0.151428,-1.4409,2.02251,-0.789127,1.11666,1.33967,0,0,168,6,168,6,291,-10,190,124,-0.524682,0.150332,0,-1.5,1.82784e-38,0,0,0,-1.4409,2.02251,0,0,0,0,-0.789127,1.11666,19028,0,0,0,0,0,0,0,0,0,1,-1
9015,-0.520508,0.454102,0.514648,-5.36281e-05,0.000287128,-0.00268699,0.067323,-0.0602056,1.33967,-3.8616,0.623226,-0.151428,-1.45354,2.04041,-0.790945,1.11937,1.33967,0,0,168,6,168,6,291,-10,190,124,-0.524682,0.150332,0,-1.5,1.82784e-38,0,0,0,-1.45354,2.04041,0,0,0,0,-0.790945,1.11937,19028,0,0,0,0,0,0,0,0,0,1,-1
