timestamp,A_x,A_y,A_z,P,Q,R,Phi,Theta,Psi,poseX,poseY,poseZ,state_X,state_Y,state_Z,state_VzB,state_Bx,state_By,state_Bz,p1_x,p1_y,p2_x,p2_y,p3_x,p3_y,p4_x,p4_y,roll,pitch,yaw,alt,targetHeading,highLevelState,lowLevelState,gateNumber,filtered_x,filtered_y,x_OT,y_OT,vx_OT,vy_OT,filtered_vx,filtered_vygateArearansac_corr_x,ransac_corr_y,ransac_corr_vx,ransac_corr_vy,detectionTimeStamppTermX,dTermX,pTermY,dTermY,vxcmd,vycmd
6084,1.27051,1.26855,6.55078,-0.00409768,-0.0164611,-0.00985274,-0.150943,-0.152863,0.243737,0,0,0,7.84834e-05,-4.6374e-05,0.0145695,-0.00864068,0.244463,0,0,0,0,0,0,0,0,0,0,-0.057519,-0.414003,0,-1.5,2.93796e-38,0,0,0,7.84834e-05,-4.6374e-05,0,0,0,0,0.0145695,-0.00864068,1.9603e-19,0,0,0,0,0,0,0,0,0,1,5.10114e-05
6098,1.2959,1.41016,6.54004,0.0493232,0.0131907,-0.0100301,-0.150637,-0.155211,0.239893,0,0,0,0.00054847,-0.000325027,0.0419321,-0.0247558,0.239094,0,0,0,0,0,0,0,0,0,0,-0.0506233,-0.408635,0,-1.5,2.93796e-38,0,0,0,0.00054847,-0.000325027,0,0,0,0,0.0419321,-0.0247558,1.9603e-19,0,0,0,0,0,0,0,0,0,1,0.000357529
6116,1.70312,-0.286133,4.08203,0.345829,0.192389,-0.267069,-0.102656,-0.165771,0.202703,0,0,0,0.00168111,-0.000992624,0.0747624,-0.044068,0.24065,0,0,0,0,0,0,0,0,0,0,-0.0441643,-0.401779,0,-1.5,2.93796e-38,0,0,0,0.00168111,-0.000992624,0,0,0,0,0.0747624,-0.044068,1.9603e-19,0,0,0,0,0,0,0,0,0,1,0.00109189
6134,-0.333008,1.1123,-6.16602,-0.190627,-0.390076,-0.358428,-0.0184758,-0.0733634,-0.0514941,0,0,0,0.00336357,-0.00196819,0.0993026,-0.0580169,-0.065083,0,0,0,0,0,0,0,0,0,0,0.0296583,-0.398164,0,-1.5,2.93796e-38,0,0,0,0.00336357,-0.00196819,0,0,0,0,0.0993026,-0.0580169,1.9603e-19,0,0,0,0,0,0,0,0,0,1,0.00216501
6150,-0.277344,0.52832,6.00391,0.0479063,-0.0818303,-0.352551,-0.0177725,-0.075278,-0.0564961,0,0,0,0.00503345,-0.00291397,0.10819,-0.0602084,-0.0514941,0,0,0,0,0,0,0,0,0,0,0.0273081,-0.396285,0,-1.5,2.93796e-38,0,0,0,0.00503345,-0.00291397,0,0,0,0,0.10819,-0.0602084,1.9603e-19,0,0,0,0,0,0,0,0,0,1,0.00320536
6166,-0.18457,0.164062,1.97559,0.212612,0.238373,-0.191166,-0.0147253,-0.0724754,-0.059696,0,0,0,0.00675382,-0.00384392,0.118221,-0.0629329,-0.059696,0,0,0,0,0,0,0,0,0,0,0.0299123,-0.393495,0,-1.5,2.93796e-38,0,0,0,0.00675382,-0.00384392,0,0,0,0,0.118221,-0.0629329,1.9603e-19,0,0,0,0,0,0,0,0,0,1,0.00422831
6182,-0.118164,0.484375,1.83105,0.288777,0.483174,0.151496,-0.0106468,-0.066256,-0.0587398,0,0,0,0.00875179,-0.00487586,0.128124,-0.0651475,-0.0587398,0,0,0,0,0,0,0,0,0,0,0.0303934,-0.391003,0,-1.5,2.93796e-38,0,0,0,0.00875179,-0.00487586,0,0,0,0,0.128124,-0.0651475,1.9603e-19,0,0,0,0,0,0,0,0,0,1,0.00536345
6198,0.0595703,0.702148,-3.19141,0.165506,0.534684,0.533728,-0.00850554,-0.0587511,-0.0521726,0,0,0,0.0108972,-0.00593599,0.136935,-0.0667286,-0.0521726,0,0,0,0,0,0,0,0,0,0,0.0295416,-0.388962,0,-1.5,2.93796e-38,0,0,0,0.0108972,-0.00593599,0,0,0,0,0.136935,-0.0667286,1.9603e-19,0,0,0,0,0,0,0,0,0,1,0.00652958
6213,0.301758,0.637695,-3.60742,0.145414,0.395926,0.873312,-0.00724892,-0.0527792,-0.0407674,0,0,0,0.0131712,-0.00701658,0.144621,-0.0678797,-0.0407674,0,0,0,0,0,0,0,0,0,0,0.0275992,-0.387341,0,-1.5,2.93796e-38,0,0,0,0.0131712,-0.00701658,0,0,0,0,0.144621,-0.0678797,1.9603e-19,0,0,0,0,0,0,0,0,0,1,0.00771824
6229,0.107422,0.587891,-4.56836,0.203254,0.180039,1.03024,-0.00533691,-0.0497371,-0.0267563,0,0,0,0.0155587,-0.00811179,0.15151,-0.0686491,-0.0267563,0,0,0,0,0,0,0,0,0,0,0.025061,-0.385972,0,-1.5,2.93796e-38,0,0,0,0.0155587,-0.00811179,0,0,0,0,0.15151,-0.0686491,1.9603e-19,0,0,0,0,0,0,0,0,0,1,0.00892297
6245,-0.246094,0.651367,2.47754,-0.298323,-0.17461,0.170916,-0.00812829,-0.0521999,-0.0114138,0,0,0,0.0180519,-0.00921508,0.158085,-0.0690657,-0.0152517,0,0,0,0,0,0,0,0,0,0,0.0230083,-0.384597,0,-1.5,2.93796e-38,0,0,0,0.0180519,-0.00921508,0,0,0,0,0.158085,-0.0690657,1.9603e-19,0,0,0,0,0,0,0,0,0,1,0.0101366
6261,0.0146484,0.652344,-5.12402,-0.247618,-0.229654,-0.108166,-0.0119504,-0.0555354,-0.0130523,0,0,0,0.0206517,-0.0103286,0.165047,-0.0699589,-0.0130523,0,0,0,0,0,0,0,0,0,0,0.0230528,-0.3829,0,-1.5,2.93796e-38,0,0,0,0.0206517,-0.0103286,0,0,0,0,0.165047,-0.0699589,1.9603e-19,0,0,0,0,0,0,0,0,0,1,0.0113615
6289,0,0.498047,3.44434,-0.068344,-0.0329868,0.274131,-0.0148299,-0.0571885,-0.00813621,0,0,0,0.0253631,-0.0122673,0.177535,-0.0724683,-0.0118457,0,0,0,0,0,0,0,0,0,0,0.0239247,-0.379792,0,-1.5,2.93796e-38,0,0,0,0.0253631,-0.0122673,0,0,0,0,0.177535,-0.0724683,1.9603e-19,0,0,0,0,0,0,0,0,0,1,0.0134941
6314,0,0.152344,6.60742,-0.078107,-0.125128,-0.256147,-0.0179712,-0.059657,-0.00780609,0,0,0,0.0302185,-0.0142098,0.189805,-0.0755188,-0.00535579,0,0,0,0,0,0,0,0,0,0,0.0238719,-0.376868,0,-1.5,2.93796e-38,0,0,0,0.0302185,-0.0142098,0,0,0,0,0.189805,-0.0755188,1.9603e-19,0,0,0,0,0,0,0,0,0,1,0.0156307
6327,0.0898438,0.119141,6.4082,0.0259468,-0.154242,-0.67271,-0.0171886,-0.0618519,-0.0160601,0,0,0,0.0327373,-0.0152065,0.196151,-0.0773773,-0.00780609,0,0,0,0,0,0,0,0,0,0,0.0250941,-0.375217,0,-1.5,2.93796e-38,0,0,0,0.0327373,-0.0152065,0,0,0,0,0.196151,-0.0773773,1.9603e-19,0,0,0,0,0,0,0,0,0,1,0.0167272
6346,0.205078,-0.0234375,-5.45312,0.0364479,-0.174176,-1.00545,-0.0159239,-0.0643768,-0.0296909,0,0,0,0.0365823,-0.0167108,0.205585,-0.0800446,-0.0296909,0,0,0,0,0,0,0,0,0,0,0.0304916,-0.37223,0,-1.5,2.93796e-38,0,0,0,0.0365823,-0.0167108,0,0,0,0,0.205585,-0.0800446,1.9603e-19,0,0,0,0,0,0,0,0,0,1,0.0183819
6362,0.0595703,0.0458984,0.364258,0.0322794,-0.0242355,-0.808182,-0.014489,-0.0654555,-0.0421796,0,0,0,0.0399571,-0.0180134,0.213994,-0.0821709,-0.0421796,0,0,0,0,0,0,0,0,0,0,0.0337596,-0.369696,0,-1.5,2.93796e-38,0,0,0,0.0399571,-0.0180134,0,0,0,0,0.213994,-0.0821709,1.9603e-19,0,0,0,0,0,0,0,0,0,1,0.0198148
6375,0.0078125,0.103516,-5.29492,0.00197392,0.186036,-0.324549,-0.0141564,-0.0631962,-0.0476001,0,0,0,0.0427932,-0.0190948,0.220762,-0.08383,-0.0476001,0,0,0,0,0,0,0,0,0,0,0.0354483,-0.367786,0,-1.5,2.93796e-38,0,0,0,0.0427932,-0.0190948,0,0,0,0,0.220762,-0.08383,1.9603e-19,0,0,0,0,0,0,0,0,0,1,0.0210043
6391,-0.00976562,0.0478516,7.28418,0.0435403,0.252862,0.149323,-0.0135684,-0.0596624,-0.0464621,0,0,0,0.0461766,-0.0203704,0.228077,-0.0856739,-0.0464621,0,0,0,0,0,0,0,0,0,0,0.0359542,-0.365962,0,-1.5,2.93796e-38,0,0,0,0.0461766,-0.0203704,0,0,0,0,0.228077,-0.0856739,1.9603e-19,0,0,0,0,0,0,0,0,0,1,0.0224074
6407,-0.100586,0.365234,-7.00293,0.0404199,0.296633,0.299241,-0.0132841,-0.0557096,-0.04238,0,0,0,0.0501394,-0.0218486,0.235688,-0.0876174,-0.04238,0,0,0,0,0,0,0,0,0,0,0.0359831,-0.364168,0,-1.5,2.93796e-38,0,0,0,0.0501394,-0.0218486,0,0,0,0,0.235688,-0.0876174,1.9603e-19,0,0,0,0,0,0,0,0,0,1,0.0240334
6423,-0.15918,0.866211,-3.0625,0.155962,0.30914,0.224518,-0.0115803,-0.0512898,-0.0389883,0,0,0,0.0539779,-0.0232676,0.24214,-0.0892257,-0.0389883,0,0,0,0,0,0,0,0,0,0,0.0360682,-0.362646,0,-1.5,2.93796e-38,0,0,0,0.0539779,-0.0232676,0,0,0,0,0.24214,-0.0892257,1.9603e-19,0,0,0,0,0,0,0,0,0,1,0.0255944
6439,0.00390625,1.01855,-6.46191,0.101996,0.0673247,0.239631,-0.00652588,-0.0470717,-0.0331536,0,0,0,0.057664,-0.024618,0.247616,-0.0903392,-0.0363687,0,0,0,0,0,0,0,0,0,0,0.0361746,-0.361349,0,-1.5,2.93796e-38,0,0,0,0.057664,-0.024618,0,0,0,0,0.247616,-0.0903392,1.9603e-19,0,0,0,0,0,0,0,0,0,1,0.0270798
6462,0.00390625,1.01855,-6.46191,0.101996,0.0673247,0.239631,-0.00652588,-0.0470717,-0.0331536,-4.17255,0.505149,-0.206356,0.063753,-0.0268077,0.255815,-0.0914514,-0.0331536,-0.172548,0.505149,209,24,209,24,322,16,221,131,0.0363853,-0.359386,0,-1.5,2.93796e-38,0,0,0,0.063753,-0.0268077,0,0,0,0,0.255815,-0.0914514,14375,0,0,0,0,6454,0,0,0,0,1,0.0294885
6478,-0.160156,0.827148,-1.5127,0.0197417,-0.130762,0.209752,-0.00615378,-0.0495424,-0.0268876,-4.17255,0.505149,-0.206356,0.0679008,-0.0282762,0.261279,-0.0919466,-0.0268876,-0.172548,0.505149,209,24,209,24,322,16,221,131,0.0357165,-0.358231,0,-1.5,2.93796e-38,0,0,0,0.0679008,-0.0282762,0,0,0,0,0.261279,-0.0919466,14375,0,0,0,0,6454,0,0,0,0,1,0.0311038
6493,-0.109375,0.491211,6.49023,0.171093,0.00417231,0.266018,-0.00406122,-0.0512295,-0.021246,-4.17255,0.505149,-0.206356,0.0718716,-0.0296594,0.266655,-0.0923486,-0.0245725,-0.172548,0.505149,209,24,209,24,322,16,221,131,0.0357386,-0.356958,0,-1.5,2.93796e-38,0,0,0,0.0718716,-0.0296594,0,0,0,0,0.266655,-0.0923486,14375,0,0,0,0,6454,0,0,0,0,1,0.0326253
6509,-0.078125,0.513672,-6.67285,0.182621,0.172601,0.221864,-0.00165078,-0.0493329,-0.0177253,-4.17255,0.505149,-0.206356,0.0761995,-0.0311404,0.272507,-0.0925885,-0.021246,-0.172548,0.505149,209,24,209,24,322,16,221,131,0.0355674,-0.355603,0,-1.5,2.93796e-38,0,0,0,0.0761995,-0.0311404,0,0,0,0,0.272507,-0.0925885,14375,0,0,0,0,6454,0,0,0,0,1,0.0342544
6524,0.0751953,0.334961,6.52832,0.176001,0.244199,-0.103117,0.000891254,-0.0457993,-0.0183496,-4.17255,0.505149,-0.206356,0.0803373,-0.032526,0.277638,-0.0922162,-0.0183496,-0.172548,0.505149,209,24,209,24,322,16,221,131,0.0353069,-0.354417,0,-1.5,2.93796e-38,0,0,0,0.0803373,-0.032526,0,0,0,0,0.277638,-0.0922162,14375,0,0,0,0,6454,0,0,0,0,1,0.0357786
6540,0.0751953,0.334961,6.52832,0.176001,0.244199,-0.103117,0.000891254,-0.0457993,-0.0183496,-4.1031,0.507956,-0.262604,0.0848301,-0.0339939,0.282595,-0.0914726,-0.0183496,-0.103103,0.507956,206,28,206,28,321,19,217,137,0.0355019,-0.353174,0,-1.5,2.93796e-38,0,0,0,0.0848301,-0.0339939,0,0,0,0,0.282595,-0.0914726,14750,0,0,0,0,6533,0,0,0,0,1,0.0373933
6556,0.0751953,0.334961,6.52832,0.176001,0.244199,-0.103117,0.000891254,-0.0457993,-0.0183496,-4.1031,0.507956,-0.262604,0.0894017,-0.0354499,0.287512,-0.0907349,-0.0183496,-0.103103,0.507956,206,28,206,28,321,19,217,137,0.0356953,-0.351941,0,-1.5,2.93796e-38,0,0,0,0.0894017,-0.0354499,0,0,0,0,0.287512,-0.0907349,14750,0,0,0,0,6533,0,0,0,0,1,0.0389949
6572,-0.0595703,0.272461,6.36426,0.0900887,0.316151,-0.238057,0.00387242,-0.0350216,-0.0322429,-4.1031,0.507956,-0.262604,0.0940492,-0.0368936,0.291761,-0.0898449,-0.0322429,-0.103103,0.507956,206,28,206,28,321,19,217,137,0.0382979,-0.350361,0,-1.5,2.93796e-38,0,0,0,0.0940492,-0.0368936,0,0,0,0,0.291761,-0.0898449,14750,0,0,0,0,6533,0,0,0,0,1,0.0405829
6588,0.00195312,0.0361328,-3.2041,0.061669,0.278054,-0.131683,0.0048471,-0.0310444,-0.0341212,-4.1031,0.507956,-0.262604,0.0987498,-0.0383188,0.294702,-0.0886374,-0.0341212,-0.103103,0.507956,206,28,206,28,321,19,217,137,0.0386932,-0.349551,0,-1.5,2.93796e-38,0,0,0,0.0987498,-0.0383188,0,0,0,0,0.294702,-0.0886374,14750,0,0,0,0,6533,0,0,0,0,1,0.0421507
6605,-0.0078125,0.201172,-1.38672,0.124494,0.272478,-0.141596,0.00782087,-0.0239097,-0.0371008,-4.1031,0.507956,-0.262604,0.103788,-0.03981,0.297149,-0.0871732,-0.0352615,-0.103103,0.507956,206,28,206,28,321,19,217,137,0.0389153,-0.348894,0,-1.5,2.93796e-38,0,0,0,0.103788,-0.03981,0,0,0,0,0.297149,-0.0871732,14750,0,0,0,0,6533,0,0,0,0,1,0.043791
6621,-0.0791016,0.105469,-4.81152,0.124411,0.342152,-0.0617018,0.00955871,-0.0191592,-0.0381256,-4.1031,0.507956,-0.262604,0.108561,-0.0411887,0.298801,-0.0855249,-0.0371008,-0.103103,0.507956,206,28,206,28,321,19,217,137,0.0391879,-0.34841,0,-1.5,2.93796e-38,0,0,0,0.108561,-0.0411887,0,0,0,0,0.298801,-0.0855249,14750,0,0,0,0,6533,0,0,0,0,1,0.0453076
6637,-0.0791016,0.105469,-4.81152,0.124411,0.342152,-0.0617018,0.00955871,-0.0191592,-0.0381256,-4.1031,0.507956,-0.262604,0.113349,-0.0425354,0.299472,-0.0834616,-0.0381256,-0.103103,0.507956,206,28,206,28,321,19,217,137,0.0392144,-0.348208,0,-1.5,2.93796e-38,0,0,0,0.113349,-0.0425354,0,0,0,0,0.299472,-0.0834616,14750,0,0,0,0,6533,0,0,0,0,1,0.046789
6653,-0.108398,-0.162109,3.38184,0.0176268,0.154124,0.015454,0.0106385,-0.0127054,-0.0380143,-4.1031,0.507956,-0.262604,0.118146,-0.043849,0.29976,-0.0813367,-0.0380143,-0.103103,0.507956,206,28,206,28,321,19,217,137,0.0390224,-0.348147,0,-1.5,2.93796e-38,0,0,0,0.118146,-0.043849,0,0,0,0,0.29976,-0.0813367,14750,0,0,0,0,6533,0,0,0,0,1,0.0482339
6670,-0.0410156,-0.249023,2.42871,0.0944233,0.0161933,-0.00295898,0.0117442,-0.0121922,-0.0380054,-4.1031,0.507956,-0.262604,0.123238,-0.0452052,0.299365,-0.0788829,-0.0380054,-0.103103,0.507956,206,28,206,28,321,19,217,137,0.0387843,-0.348255,0,-1.5,2.93796e-38,0,0,0,0.123238,-0.0452052,0,0,0,0,0.299365,-0.0788829,14750,0,0,0,0,6533,0,0,0,0,1,0.0497257
6685,-0.0908203,-0.0527344,-4.0332,0.120579,-0.0620357,-0.0187777,0.0133405,-0.0128216,-0.0382876,-4.1031,0.507956,-0.262604,0.127724,-0.0463663,0.29902,-0.0765462,-0.0382876,-0.103103,0.507956,206,28,206,28,321,19,217,137,0.038572,-0.34834,0,-1.5,2.93796e-38,0,0,0,0.127724,-0.0463663,0,0,0,0,0.29902,-0.0765462,14750,0,0,0,0,6533,0,0,0,0,1,0.0510029
6702,-0.101562,-0.101562,-5.74316,0.11374,-0.192529,0.00581612,0.015239,-0.0151328,-0.0383194,-4.1885,0.554094,-0.252538,0.132805,-0.0476355,0.298842,-0.0736556,-0.0383194,-0.188497,0.554094,203,50,203,50,313,42,214,155,0.0382059,-0.348398,0,-1.5,2.93796e-38,0,0,0,0.132805,-0.0476355,0,0,0,0,0.298842,-0.0736556,13786,0,0,0,0,6698,0,0,0,0,1,0.0523991
6718,-0.101562,-0.101562,-5.74316,0.11374,-0.192529,0.00581612,0.015239,-0.0151328,-0.0383194,-4.1885,0.554094,-0.252538,0.137288,-0.0487142,0.298912,-0.0709547,-0.0383194,-0.188497,0.554094,203,50,203,50,313,42,214,155,0.0378269,-0.348395,0,-1.5,2.93796e-38,0,0,0,0.137288,-0.0487142,0,0,0,0,0.298912,-0.0709547,13786,0,0,0,0,6698,0,0,0,0,1,0.0535856
6734,0.230469,0.21875,-6.09961,-0.250706,-0.260684,-0.0269309,0.0103092,-0.0282883,-0.0356072,-4.1885,0.554094,-0.252538,0.142373,-0.049888,0.299624,-0.0681799,-0.0356072,-0.188497,0.554094,203,50,203,50,313,42,214,155,0.0369779,-0.348332,0,-1.5,2.93796e-38,0,0,0,0.142373,-0.049888,0,0,0,0,0.299624,-0.0681799,13786,0,0,0,0,6698,0,0,0,0,1,0.0548768
6750,-0.694336,1.14551,-1.49121,-0.328214,0.243407,0.00824476,0.00632787,-0.0267959,-0.035949,-4.1885,0.554094,-0.252538,0.147188,-0.0509597,0.301605,-0.0664508,-0.035949,-0.188497,0.554094,203,50,203,50,313,42,214,155,0.0368822,-0.34783,0,-1.5,2.93796e-38,0,0,0,0.147188,-0.0509597,0,0,0,0,0.301605,-0.0664508,13786,0,0,0,0,6698,0,0,0,0,1,0.0560557
6766,-0.62793,0.229492,6.00586,-0.748212,0.273449,-0.0545811,-0.00329707,-0.0220622,-0.0363006,-4.15692,0.572776,-0.285175,0.152031,-0.0520108,0.303128,-0.0656375,-0.0363006,-0.156919,0.572776,199,47,199,47,313,34,214,151,0.0370149,-0.347433,0,-1.5,2.93796e-38,0,0,0,0.152031,-0.0520108,0,0,0,0,0.303128,-0.0656375,14508,0,0,0,0,6766,0,0,0,0,1,0.0572118
6784,0.0449219,0.19043,-1.34277,-1.21728,-0.132739,0.0383206,-0.0334021,-0.0250128,-0.0355356,-4.15692,0.572776,-0.285175,0.157501,-0.0531981,0.30428,-0.0666876,-0.0363049,-0.156919,0.572776,199,47,199,47,313,34,214,151,0.0375939,-0.347124,0,-1.5,2.93796e-38,0,0,0,0.157501,-0.0531981,0,0,0,0,0.30428,-0.0666876,14508,0,0,0,0,6766,0,0,0,0,1,0.0585179
6800,0.139648,0.417969,-0.330078,-1.2793,-0.00255182,0.00979803,-0.050665,-0.0252283,-0.0354141,-4.1757,0.618117,-0.271522,0.162383,-0.0543167,0.305573,-0.0718607,-0.0354141,-0.175704,0.618117,203,44,203,44,313,33,215,149,0.0390285,-0.346777,0,-1.5,2.93796e-38,0,0,0,0.162383,-0.0543167,0,0,0,0,0.305573,-0.0718607,14152,0,0,0,0,6798,0,0,0,0,1,0.0597483
6817,0.139648,0.417969,-0.330078,-1.2793,-0.00255182,0.00979803,-0.050665,-0.0252283,-0.0354141,-4.1757,0.618117,-0.271522,0.167285,-0.0555453,0.306805,-0.0793577,-0.0354141,-0.175704,0.618117,203,44,203,44,313,33,215,149,0.0412283,-0.346391,0,-1.5,2.93796e-38,0,0,0,0.167285,-0.0555453,0,0,0,0,0.306805,-0.0793577,14152,0,0,0,0,6798,0,0,0,0,1,0.0610998
6833,0.681641,0.0410156,-1.31348,-1.14218,-0.0738946,0.00975085,-0.0848725,-0.0262775,-0.0349782,-4.17375,0.592256,-0.285817,0.172515,-0.0569925,0.308096,-0.0896101,-0.0349782,-0.173748,0.592256,209,43,209,43,321,36,217,147,0.0441013,-0.345983,0,-1.5,2.93796e-38,0,0,0,0.172515,-0.0569925,0,0,0,0,0.308096,-0.0896101,13320,0,0,0,0,6833,0,0,0,0,1,0.0626917
6849,0.681641,0.0410156,-1.31348,-1.14218,-0.0738946,0.00975085,-0.0848725,-0.0262775,-0.0349782,-4.17375,0.592256,-0.285817,0.177457,-0.058556,0.309293,-0.102332,-0.0349782,-0.173748,0.592256,209,43,209,43,321,36,217,147,0.0476991,-0.345558,0,-1.5,2.93796e-38,0,0,0,0.177457,-0.058556,0,0,0,0,0.309293,-0.102332,13320,0,0,0,0,6833,0,0,0,0,1,0.0644117
6865,1.3252,0.160156,-7.06641,-0.705997,-0.0235341,0.0133774,-0.108882,-0.0274345,-0.0345602,-4.17375,0.592256,-0.285817,0.182418,-0.0603318,0.310505,-0.116374,-0.0345602,-0.173748,0.592256,209,43,209,43,321,36,217,147,0.0516135,-0.345137,0,-1.5,2.93796e-38,0,0,0,0.182418,-0.0603318,0,0,0,0,0.310505,-0.116374,13320,0,0,0,0,6833,0,0,0,0,1,0.066365
6881,1.46387,0.0507812,-0.470703,-0.186046,-0.00854441,0.00384012,-0.118634,-0.0275339,-0.0343837,-4.17375,0.592256,-0.285817,0.187399,-0.0623615,0.311737,-0.133048,-0.0344899,-0.173748,0.592256,209,43,209,43,321,36,217,147,0.0563149,-0.34467,0,-1.5,2.93796e-38,0,0,0,0.187399,-0.0623615,0,0,0,0,0.311737,-0.133048,13320,0,0,0,0,6833,0,0,0,0,1,0.0685976
6898,1.39746,0.0107422,2.42188,0.0393312,-0.00130206,-0.00159579,-0.11859,-0.0275833,-0.0343959,-4.17375,0.592256,-0.285817,0.192713,-0.0648322,0.313017,-0.151561,-0.0343959,-0.173748,0.592256,209,43,209,43,321,36,217,147,0.0615923,-0.344173,0,-1.5,2.93796e-38,0,0,0,0.192713,-0.0648322,0,0,0,0,0.313017,-0.151561,13320,0,0,0,0,6833,0,0,0,0,1,0.0713155
6913,1.30371,0,5.05859,0.184598,0.0017185,-0.00559304,-0.116309,-0.0275733,-0.0344698,-4.17375,0.592256,-0.285817,0.197419,-0.0672647,0.314141,-0.167958,-0.0344698,-0.173748,0.592256,209,43,209,43,321,36,217,147,0.0663605,-0.343723,0,-1.5,2.93796e-38,0,0,0,0.197419,-0.0672647,0,0,0,0,0.314141,-0.167958,13320,0,0,0,0,6833,0,0,0,0,1,0.0739912
6929,1.10449,0,-2.86426,0.233824,0.00980964,-0.00648521,-0.113026,-0.0274555,-0.0345746,-4.17375,0.592256,-0.285817,0.202458,-0.0701305,0.315337,-0.18481,-0.0345746,-0.173748,0.592256,209,43,209,43,321,36,217,147,0.0713661,-0.343244,0,-1.5,2.93796e-38,0,0,0,0.202458,-0.0701305,0,0,0,0,0.315337,-0.18481,13320,0,0,0,0,6833,0,0,0,0,1,0.0771436
6945,1.10449,0,-2.86426,0.233824,0.00980964,-0.00648521,-0.113026,-0.0274555,-0.0345746,-4.17375,0.592256,-0.285817,0.207516,-0.0732547,0.316522,-0.201203,-0.0345746,-0.173748,0.592256,209,43,209,43,321,36,217,147,0.0763102,-0.342777,0,-1.5,2.93796e-38,0,0,0,0.207516,-0.0732547,0,0,0,0,0.316522,-0.201203,13320,0,0,0,0,6833,0,0,0,0,1,0.0805802
6961,0.714844,0,2.28125,0.0998182,0.00635974,-0.00340045,-0.108584,-0.0272612,-0.0347149,-4.17375,0.592256,-0.285817,0.212592,-0.076644,0.317693,-0.217204,-0.0347149,-0.173748,0.592256,209,43,209,43,321,36,217,147,0.0812531,-0.342302,0,-1.5,2.93796e-38,0,0,0,0.212592,-0.076644,0,0,0,0,0.317693,-0.217204,13320,0,0,0,0,6833,0,0,0,0,1,0.0843084
6977,0.703125,0.00488281,1.83105,-0.0894514,-0.000499528,-0.00210541,-0.109583,-0.0272835,-0.034784,-4.17375,0.592256,-0.285817,0.217688,-0.0802815,0.318849,-0.232634,-0.0347575,-0.173748,0.592256,209,43,209,43,321,36,217,147,0.086105,-0.341841,0,-1.5,2.93796e-38,0,0,0,0.217688,-0.0802815,0,0,0,0,0.318849,-0.232634,13320,0,0,0,0,6833,0,0,0,0,1,0.0883097
6993,0.835938,0.0380859,-1.65332,-0.108361,-0.00347285,-0.000854566,-0.111072,-0.0273038,-0.0347948,-4.17375,0.592256,-0.285817,0.222801,-0.084165,0.319995,-0.248017,-0.034784,-0.173748,0.592256,209,43,209,43,321,36,217,147,0.0910103,-0.341382,0,-1.5,2.93796e-38,0,0,0,0.222801,-0.084165,0,0,0,0,0.319995,-0.248017,13320,0,0,0,0,6833,0,0,0,0,1,0.0925815
7009,0.835938,0.0380859,-1.65332,-0.108361,-0.00347285,-0.000854566,-0.111072,-0.0273038,-0.0347948,-4.17375,0.592256,-0.285817,0.227933,-0.0882971,0.321125,-0.2636,-0.0347948,-0.173748,0.592256,209,43,209,43,321,36,217,147,0.0960314,-0.340923,0,-1.5,2.93796e-38,0,0,0,0.227933,-0.0882971,0,0,0,0,0.321125,-0.2636,13320,0,0,0,0,6833,0,0,0,0,1,0.0971268
7025,1.10156,0.104492,5.56152,-0.0251725,-0.000477828,-0.00118549,-0.112756,-0.0273771,-0.0348449,-4.17375,0.592256,-0.285817,0.233083,-0.0926775,0.322246,-0.279126,-0.0348449,-0.173748,0.592256,209,43,209,43,321,36,217,147,0.101113,-0.340461,0,-1.5,2.93796e-38,0,0,0,0.233083,-0.0926775,0,0,0,0,0.322246,-0.279126,13320,0,0,0,0,6833,0,0,0,0,1,0.101945
7047,1.03906,0.141602,-5.51855,0.0351203,-0.000688193,-0.00337714,-0.112009,-0.0273821,-0.0349234,-4.19353,0.528361,-0.264558,0.240196,-0.0991582,0.323777,-0.300569,-0.0348449,-0.193527,0.528361,230,32,230,32,341,37,228,139,-0.176754,-0.483386,0,-1.5,2.93796e-38,0,0,0,-0.220829,0.62763,0,0,0,0,-0.210385,0.0592442,12204,-0.449274,0.718873,-0.534162,0.359814,7033,0,0,0,0,1,-0.690393
7063,0.90625,0.141602,-4.00195,0.018077,-0.000620168,-0.00269517,-0.111702,-0.0273701,-0.0349563,-4.19353,0.528361,-0.264558,0.245388,-0.104128,0.324881,-0.315876,-0.0349563,-0.193527,0.528361,230,32,230,32,341,37,228,139,-0.173121,-0.483004,0,-1.5,2.93796e-38,0,0,0,-0.224184,0.628417,0,0,0,0,-0.209281,0.0439379,12204,-0.449274,0.718873,-0.534162,0.359814,7033,0,0,0,0,1,-0.691259
7081,0.802734,0.141602,-2.9541,-0.011761,-0.000227616,-0.00299672,-0.111793,-0.0273724,-0.034994,-4.19353,0.528361,-0.264558,0.251251,-0.110016,0.326112,-0.332911,-0.034994,-0.193527,0.528361,230,32,230,32,341,37,228,139,-0.169026,-0.482559,0,-1.5,2.93796e-38,0,0,0,-0.227936,0.629006,0,0,0,0,-0.20805,0.0269026,12204,-0.449274,0.718873,-0.534162,0.359814,7033,0,0,0,0,1,-0.691907
7096,0.835938,0.141602,3.49316,-0.0268774,-1.5798e-05,-0.00270199,-0.112142,-0.0273702,-0.0350232,-4.19353,0.528361,-0.264558,0.256152,-0.115142,0.327127,-0.347016,-0.0350232,-0.193527,0.528361,230,32,230,32,341,37,228,139,-0.165576,-0.48219,0,-1.5,2.93796e-38,0,0,0,-0.231047,0.629277,0,0,0,0,-0.207034,0.0127976,12204,-0.449274,0.718873,-0.534162,0.359814,7033,0,0,0,0,1,-0.692205
7112,0.835938,0.141602,3.49316,-0.0268774,-1.5798e-05,-0.00270199,-0.112142,-0.0273702,-0.0350232,-4.19353,0.528361,-0.264558,0.261069,-0.120483,0.328134,-0.361045,-0.0350232,-0.193527,0.528361,230,32,230,32,341,37,228,139,-0.162095,-0.481816,0,-1.5,2.93796e-38,0,0,0,-0.234143,0.629333,0,0,0,0,-0.206028,-0.00123137,12204,-0.449274,0.718873,-0.534162,0.359814,7033,0,0,0,0,1,-0.692267
7128,1.02051,0.141602,4.33301,0.00628412,6.67176e-05,-0.00164707,-0.11249,-0.0273511,-0.0351142,-4.19353,0.528361,-0.264558,0.26666,-0.126795,0.329264,-0.376849,-0.0350862,-0.193527,0.528361,230,32,230,32,341,37,228,139,-0.158084,-0.481403,0,-1.5,2.93796e-38,0,0,0,-0.237633,0.629138,0,0,0,0,-0.204898,-0.0170356,12204,-0.449274,0.718873,-0.534162,0.359814,7033,0,0,0,0,1,-0.692052
7144,1.00391,0.141602,2.82617,0.00452718,0.000157121,-0.00233555,-0.1124,-0.0273445,-0.0351562,-4.19353,0.528361,-0.264558,0.271939,-0.132975,0.330315,-0.391632,-0.0351142,-0.193527,0.528361,230,32,230,32,341,37,228,139,-0.154275,-0.481011,0,-1.5,2.93796e-38,0,0,0,-0.2409,0.628715,0,0,0,0,-0.203847,-0.0318181,12204,-0.449274,0.718873,-0.534162,0.359814,7033,0,0,0,0,1,-0.691586
7160,0.9375,0.124023,-2.15234,-0.0040285,0.000932698,-0.00224391,-0.112432,-0.0273324,-0.0351797,-4.19353,0.528361,-0.264558,0.277234,-0.139396,0.331355,-0.40628,-0.0351797,-0.193527,0.528361,230,32,230,32,341,37,228,139,-0.150421,-0.480626,0,-1.5,2.93796e-38,0,0,0,-0.244151,0.628052,0,0,0,0,-0.202807,-0.0464667,12204,-0.449274,0.718873,-0.534162,0.359814,7033,0,0,0,0,1,-0.690857
7176,0.9375,0.124023,-2.15234,-0.0040285,0.000932698,-0.00224391,-0.112432,-0.0273324,-0.0351797,-4.19353,0.528361,-0.264558,0.282547,-0.146044,0.332384,-0.420814,-0.0351797,-0.193527,0.528361,230,32,230,32,341,37,228,139,-0.146554,-0.480233,0,-1.5,2.93796e-38,0,0,0,-0.247385,0.62716,0,0,0,0,-0.201777,-0.0610006,12204,-0.449274,0.718873,-0.534162,0.359814,7033,0,0,0,0,1,-0.689876
7192,0.9375,0.124023,-2.15234,-0.0040285,0.000932698,-0.00224391,-0.112432,-0.0273324,-0.0351797,-4.19353,0.528361,-0.264558,0.287875,-0.152925,0.333406,-0.435232,-0.0351797,-0.193527,0.528361,230,32,230,32,341,37,228,139,-0.142652,-0.47984,0,-1.5,2.93796e-38,0,0,0,-0.250603,0.626037,0,0,0,0,-0.200756,-0.0754186,12204,-0.449274,0.718873,-0.534162,0.359814,7033,0,0,0,0,1,-0.68864
7208,0.9375,0.124023,-2.15234,-0.0040285,0.000932698,-0.00224391,-0.112432,-0.0273324,-0.0351797,-4.19353,0.528361,-0.264558,0.29322,-0.160039,0.334419,-0.449537,-0.0351797,-0.193527,0.528361,230,32,230,32,341,37,228,139,-0.138714,-0.479448,0,-1.5,2.93796e-38,0,0,0,-0.253805,0.62468,0,0,0,0,-0.199743,-0.0897238,12204,-0.449274,0.718873,-0.534162,0.359814,7033,0,0,0,0,1,-0.687148
7224,1.01758,0,4.66504,-0.00185437,-0.000951091,-0.00210243,-0.112756,-0.0273051,-0.035307,-4.19353,0.528361,-0.264558,0.298581,-0.167376,0.33542,-0.463749,-0.035307,-0.193527,0.528361,230,32,230,32,341,37,228,139,-0.134699,-0.479074,0,-1.5,2.93796e-38,0,0,0,-0.25699,0.623099,0,0,0,0,-0.198741,-0.103935,12204,-0.449274,0.718873,-0.534162,0.359814,7033,0,0,0,0,1,-0.685409
7240,0.969727,0.0244141,4.51562,-0.00513903,-0.00053949,-0.0023644,-0.112869,-0.0272936,-0.0353786,-4.19353,0.528361,-0.264558,0.303958,-0.17494,0.336409,-0.477875,-0.035307,-0.193527,0.528361,230,32,230,32,341,37,228,139,-0.130682,-0.478685,0,-1.5,2.93796e-38,0,0,0,-0.26016,0.621292,0,0,0,0,-0.197753,-0.118062,12204,-0.449274,0.718873,-0.534162,0.359814,7033,0,0,0,0,1,-0.683421
7257,0.936523,0.0576172,-5.53711,-0.0064945,-0.000264314,-0.00128216,-0.112945,-0.0272839,-0.0354015,-4.19353,0.528361,-0.264558,0.309689,-0.183233,0.337449,-0.492777,-0.0354015,-0.193527,0.528361,230,32,230,32,341,37,228,139,-0.126341,-0.478285,0,-1.5,2.93796e-38,0,0,0,-0.26351,0.619116,0,0,0,0,-0.196712,-0.132964,12204,-0.449274,0.718873,-0.534162,0.359814,7033,0,0,0,0,1,-0.681027
7272,0.90332,0.0908203,0.510742,-0.00746624,-0.000556694,-0.00301979,-0.113037,-0.0272783,-0.0354488,-4.19353,0.528361,-0.264558,0.314759,-0.190752,0.338355,-0.505839,-0.0354488,-0.193527,0.528361,230,32,230,32,341,37,228,139,-0.122488,-0.477928,0,-1.5,2.93796e-38,0,0,0,-0.266452,0.616995,0,0,0,0,-0.195807,-0.146025,12204,-0.449274,0.718873,-0.534162,0.359814,7033,0,0,0,0,1,-0.678694
7288,0.898438,0.124023,-6.00293,-0.00380623,-0.00131649,-0.00302646,-0.113091,-0.027277,-0.0354828,-4.19353,0.528361,-0.264558,0.320183,-0.198991,0.339312,-0.519679,-0.0354828,-0.193527,0.528361,230,32,230,32,341,37,228,139,-0.118347,-0.477546,0,-1.5,2.93796e-38,0,0,0,-0.269575,0.614513,0,0,0,0,-0.19485,-0.159865,12204,-0.449274,0.718873,-0.534162,0.359814,7033,0,0,0,0,1,-0.675964
7307,0.898438,0.123047,3.65137,-0.00426146,-0.00106859,-0.00209543,-0.113202,-0.0272923,-0.0355389,-4.1531,0.527355,-0.289171,0.326644,-0.209063,0.340438,-0.535983,-0.0355133,-0.153102,0.527355,230,32,230,32,342,37,227,139,-0.0555476,-0.411541,0,-1.5,2.93796e-38,0,0,0,-0.152443,0.523865,0,0,0,0,0.0601005,-0.320527,12880,-0.476003,0.730558,-0.280338,0.215456,7298,0,0,0,0,1,-0.576251
7324,0.898438,0.0898438,-2.56055,-0.00464295,-0.000327961,-0.00349907,-0.113258,-0.0272886,-0.0355842,-4.1531,0.527355,-0.289171,0.332101,-0.217782,0.341379,-0.549603,-0.0355389,-0.153102,0.527355,230,32,230,32,342,37,227,139,-0.0506983,-0.411135,0,-1.5,2.93796e-38,0,0,0,-0.151472,0.518593,0,0,0,0,0.061041,-0.334147,12880,-0.476003,0.730558,-0.280338,0.215456,7298,0,0,0,0,1,-0.570452
7343,0.898438,0.0898438,-2.56055,-0.00464295,-0.000327961,-0.00349907,-0.113258,-0.0272886,-0.0355842,-4.18488,0.527843,-0.268158,0.338945,-0.229011,0.342542,-0.566504,-0.0355842,-0.184877,0.527843,230,32,230,32,342,37,228,138,-0.0473795,-0.426795,0,-1.5,2.93796e-38,0,0,0,-0.184812,0.516666,0,0,0,0,-0.00201961,-0.343023,12426,-0.516866,0.741208,-0.344562,0.22348,7331,0,0,0,0,1,-0.568333
7359,0.898438,0.0234375,-0.5,-0.00748187,-0.000913072,-0.00276954,-0.113423,-0.027298,-0.0356448,-4.18488,0.527843,-0.268158,0.344435,-0.238216,0.343464,-0.579903,-0.0356448,-0.184877,0.527843,230,32,230,32,342,37,228,138,-0.0424778,-0.426393,0,-1.5,2.93796e-38,0,0,0,-0.184835,0.511037,0,0,0,0,-0.00109789,-0.356423,12426,-0.516866,0.741208,-0.344562,0.22348,7331,0,0,0,0,1,-0.562141
7375,0.898438,0.0234375,-0.5,-0.00748187,-0.000913072,-0.00276954,-0.113423,-0.027298,-0.0356448,-4.18488,0.527843,-0.268158,0.34994,-0.247634,0.344378,-0.593211,-0.0356448,-0.184877,0.527843,230,32,230,32,342,37,228,138,-0.0375552,-0.425989,0,-1.5,2.93796e-38,0,0,0,-0.184843,0.505194,0,0,0,0,-0.000183821,-0.369731,12426,-0.516866,0.741208,-0.344562,0.22348,7331,0,0,0,0,1,-0.555714
7391,0.898438,0,-1.80371,-0.00805179,0.000410099,-0.00229688,-0.11378,-0.0272955,-0.0357314,-4.18488,0.527843,-0.268158,0.35546,-0.257265,0.345285,-0.606427,-0.0357016,-0.184877,0.527843,230,32,230,32,342,37,228,138,-0.0325831,-0.425587,0,-1.5,2.93796e-38,0,0,0,-0.184836,0.49914,0,0,0,0,0.000722706,-0.382947,12426,-0.516866,0.741208,-0.344562,0.22348,7331,0,0,0,0,1,-0.549053
7411,0.898438,0,-1.80371,-0.00805179,0.000410099,-0.00229688,-0.11378,-0.0272955,-0.0357314,-4.17259,0.528074,-0.280348,0.362034,-0.268992,0.34635,-0.62203,-0.0357314,-0.172588,0.528074,230,32,230,32,342,37,228,138,-0.028544,-0.419846,0,-1.5,2.93796e-38,0,0,0,-0.172079,0.49666,0,0,0,0,0.0230982,-0.397156,12768,-0.527971,0.761379,-0.323252,0.224874,7399,0,0,0,0,1,-0.546326
7426,0.898438,0.0166016,0.956055,-0.00340991,0.000366149,-0.000239399,-0.113905,-0.027287,-0.0357823,-4.17259,0.528074,-0.280348,0.367585,-0.279081,0.347236,-0.635066,-0.0357823,-0.172588,0.528074,230,32,230,32,342,37,228,138,-0.0234985,-0.419446,0,-1.5,2.93796e-38,0,0,0,-0.1717,0.490169,0,0,0,0,0.0239843,-0.410193,12768,-0.527971,0.761379,-0.323252,0.224874,7399,0,0,0,0,1,-0.539186
7443,0.898438,0.0166016,0.956055,-0.00340991,0.000366149,-0.000239399,-0.113905,-0.027287,-0.0357823,-4.17259,0.528074,-0.280348,0.373498,-0.290029,0.348168,-0.648816,-0.0357823,-0.172588,0.528074,230,32,230,32,342,37,228,138,-0.0181134,-0.41902,0,-1.5,2.93796e-38,0,0,0,-0.171282,0.483044,0,0,0,0,0.0249162,-0.423943,12768,-0.527971,0.761379,-0.323252,0.224874,7399,0,0,0,0,1,-0.531348
7458,0.898438,0.0830078,-1.93555,-0.00554127,-0.000891118,-0.00225077,-0.114012,-0.0272758,-0.0358468,-4.17259,0.528074,-0.280348,0.378729,-0.299874,0.348982,-0.660856,-0.0358468,-0.172588,0.528074,230,32,230,32,342,37,228,138,-0.0133181,-0.418646,0,-1.5,2.93796e-38,0,0,0,-0.170901,0.476572,0,0,0,0,0.02573,-0.435983,12768,-0.527971,0.761379,-0.323252,0.224874,7399,0,0,0,0,1,-0.524229
7474,0.898438,0.119141,4.39746,-0.00654629,-0.000738459,-0.00270452,-0.114165,-0.0272713,-0.0359141,-4.17259,0.528074,-0.280348,0.384321,-0.310582,0.349842,-0.673612,-0.0358468,-0.172588,0.528074,230,32,230,32,342,37,228,138,-0.00818491,-0.418247,0,-1.5,2.93796e-38,0,0,0,-0.17048,0.469462,0,0,0,0,0.0265898,-0.448739,12768,-0.527971,0.761379,-0.323252,0.224874,7399,0,0,0,0,1,-0.516408
7490,0.898438,0.0859375,-2.96191,-0.00667416,-0.000711535,-0.00214394,-0.114235,-0.0272702,-0.0359459,-4.17259,0.528074,-0.280348,0.389928,-0.321493,0.350693,-0.686279,-0.0359141,-0.172588,0.528074,230,32,230,32,342,37,228,138,-0.0030018,-0.417849,0,-1.5,2.93796e-38,0,0,0,-0.170045,0.462149,0,0,0,0,0.0274414,-0.461405,12768,-0.527971,0.761379,-0.323252,0.224874,7399,0,0,0,0,1,-0.508364
7510,0.898438,0.0859375,-2.96191,-0.00667416,-0.000711535,-0.00214394,-0.114235,-0.0272702,-0.0359459,-4.16335,0.527835,-0.286208,0.396956,-0.335432,0.351746,-0.702007,-0.0359459,-0.163346,0.527835,230,32,230,32,342,37,228,139,-0.015702,-0.41736,0,-1.5,2.93796e-38,0,0,0,-0.167378,0.482248,0,0,0,0,0.0312233,-0.432786,12768,-0.557923,0.812296,-0.320522,0.269221,7498,0,0,0,0,1,-0.530473
7526,0.898438,0.0195312,-3.1543,-0.00553488,0.000485089,-0.00216633,-0.114359,-0.0272694,-0.0360162,-4.16335,0.527835,-0.286208,0.402592,-0.346791,0.352579,-0.714476,-0.0360162,-0.163346,0.527835,230,32,230,32,342,37,228,139,-0.0106394,-0.416971,0,-1.5,2.93796e-38,0,0,0,-0.16687,0.475196,0,0,0,0,0.0320562,-0.445254,12768,-0.557923,0.812296,-0.320522,0.269221,7498,0,0,0,0,1,-0.522716
7542,0.898438,0.0195312,-3.1543,-0.00553488,0.000485089,-0.00216633,-0.114359,-0.0272694,-0.0360162,-4.16335,0.527835,-0.286208,0.408242,-0.358353,0.353404,-0.726859,-0.0360162,-0.163346,0.527835,230,32,230,32,342,37,228,139,-0.00555932,-0.416581,0,-1.5,2.93796e-38,0,0,0,-0.166348,0.467942,0,0,0,0,0.0328814,-0.457638,12768,-0.557923,0.812296,-0.320522,0.269221,7498,0,0,0,0,1,-0.514736
7558,0.908203,0,6.76758,-0.00462641,-0.0015161,-0.00143456,-0.114548,-0.0272704,-0.0360908,-4.16335,0.527835,-0.286208,0.413905,-0.370112,0.354222,-0.739151,-0.0360669,-0.163346,0.527835,230,32,230,32,342,37,228,139,-0.000435424,-0.416193,0,-1.5,2.93796e-38,0,0,0,-0.165814,0.460491,0,0,0,0,0.0336991,-0.46993,12768,-0.557923,0.812296,-0.320522,0.269221,7498,0,0,0,0,1,-0.50654
7578,0.941406,0,4.00293,-0.00533562,0.000250066,-0.00163137,-0.114585,-0.0272584,-0.0361226,-4.19546,0.530725,-0.26789,0.421003,-0.385102,0.355233,-0.754417,-0.0361226,-0.195462,0.530725,230,32,230,32,341,37,229,139,0.00260877,-0.417251,0,-1.5,2.93796e-38,0,0,0,-0.167697,0.458152,0,0,0,0,0.0290299,-0.47932,12208,-0.582177,0.837753,-0.326203,0.275097,7566,0,0,0,0,1,-0.503967
7594,0.974609,0,6.89844,-0.00548463,0.00112106,-0.0022971,-0.114649,-0.0272475,-0.0361565,-4.19546,0.530725,-0.26789,0.426339,-0.396528,0.355981,-0.765766,-0.0361565,-0.195462,0.530725,230,32,230,32,341,37,229,139,0.00745175,-0.416889,0,-1.5,2.93796e-38,0,0,0,-0.167255,0.450852,0,0,0,0,0.0297781,-0.490669,12208,-0.582177,0.837753,-0.326203,0.275097,7566,0,0,0,0,1,-0.495938
7610,0.974609,0,6.89844,-0.00548463,0.00112106,-0.0022971,-0.114649,-0.0272475,-0.0361565,-4.19546,0.530725,-0.26789,0.4324,-0.409692,0.356821,-0.778536,-0.0361565,-0.195462,0.530725,230,32,230,32,341,37,229,139,0.012967,-0.416479,0,-1.5,2.93796e-38,0,0,0,-0.166739,0.442366,0,0,0,0,0.030618,-0.50344,12208,-0.582177,0.837753,-0.326203,0.275097,7566,0,0,0,0,1,-0.486602
7625,1.04102,0,1.72949,-0.00578416,-0.000908621,-0.00369479,-0.11481,-0.0272436,-0.0362397,-4.19546,0.530725,-0.26789,0.43776,-0.421475,0.357554,-0.789719,-0.0362397,-0.195462,0.530725,230,32,230,32,341,37,229,139,0.0178786,-0.416117,0,-1.5,2.93796e-38,0,0,0,-0.166273,0.434709,0,0,0,0,0.0313516,-0.514622,12208,-0.582177,0.837753,-0.326203,0.275097,7566,0,0,0,0,1,-0.47818
7644,1.06543,0.0292969,5.00293,-0.00304391,-0.00038654,-0.00314404,-0.1149,-0.0272362,-0.0363294,-4.18826,0.532628,-0.270513,0.444565,-0.436658,0.358473,-0.803795,-0.0363294,-0.188264,0.532628,230,32,230,32,342,37,228,138,0.00294497,-0.421867,0,-1.5,2.93796e-38,0,0,0,-0.184422,0.464213,0,0,0,0,0.0105349,-0.48646,12540,-0.622376,0.894842,-0.347938,0.317336,7632,0,0,0,0,1,-0.510635
7660,1,0.0625,-3.38086,-0.00389417,-0.00129562,-0.00342818,-0.114933,-0.0272345,-0.0363693,-4.18826,0.532628,-0.270513,0.450308,-0.449639,0.359237,-0.815552,-0.0363693,-0.188264,0.532628,230,32,230,32,342,37,228,138,0.00805705,-0.42149,0,-1.5,2.93796e-38,0,0,0,-0.184245,0.45631,0,0,0,0,0.0112988,-0.498216,12540,-0.622376,0.894842,-0.347938,0.317336,7632,0,0,0,0,1,-0.501941
7680,1,0.0625,-3.38086,-0.00389417,-0.00129562,-0.00342818,-0.114933,-0.0272345,-0.0363693,-4.2094,0.530658,-0.26303,0.457506,-0.466148,0.360183,-0.830131,-0.0363693,-0.209398,0.530658,232,32,232,32,342,37,228,138,-0.00134023,-0.423265,0,-1.5,2.93796e-38,0,0,0,-0.187326,0.476634,0,0,0,0,0.00557107,-0.48275,12540,-0.637739,0.935834,-0.354612,0.347381,7668,0,0,0,0,1,-0.524297
7696,0.893555,0.132812,-2.91602,-0.00450964,-0.000785898,-0.00229665,-0.11511,-0.0272229,-0.0364654,-4.2094,0.530658,-0.26303,0.463276,-0.479548,0.360931,-0.841689,-0.0364225,-0.209398,0.530658,232,32,232,32,342,37,228,138,0.00370907,-0.422894,0,-1.5,2.93796e-38,0,0,0,-0.187229,0.468792,0,0,0,0,0.0063192,-0.494309,12540,-0.637739,0.935834,-0.354612,0.347381,7668,0,0,0,0,1,-0.515671
7716,0.893555,0.132812,4.21582,-0.00339751,-0.00110041,-0.00265862,-0.115154,-0.0272208,-0.0365053,-4.1999,0.529316,-0.268746,0.470507,-0.496577,0.361855,-0.856039,-0.0365053,-0.199901,0.529316,232,32,232,32,342,37,228,139,0.01031,-0.423053,0,-1.5,2.93796e-38,0,0,0,-0.190179,0.458468,0,0,0,0,0.00472298,-0.509233,12540,-0.653544,0.948108,-0.357132,0.346806,7703,0,0,0,0,1,-0.504314
7733,0.893555,0.132812,-0.15332,-0.00363117,-0.000342018,-0.0031202,-0.115198,-0.027222,-0.0365343,-4.1999,0.529316,-0.268746,0.476668,-0.511267,0.362631,-0.868133,-0.0365343,-0.199901,0.529316,232,32,232,32,342,37,228,139,0.0157484,-0.42266,0,-1.5,2.93796e-38,0,0,0,-0.19009,0.449673,0,0,0,0,0.00549871,-0.521326,12540,-0.653544,0.948108,-0.357132,0.346806,7703,0,0,0,0,1,-0.49464
7750,0.893555,0.132812,-2.54395,-0.00686144,-0.000873722,-0.00130321,-0.115326,-0.0272134,-0.0365847,-4.1999,0.529316,-0.268746,0.482478,-0.525276,0.363354,-0.879427,-0.0365547,-0.199901,0.529316,232,32,232,32,342,37,228,139,0.0208935,-0.422291,0,-1.5,2.93796e-38,0,0,0,-0.189994,0.441213,0,0,0,0,0.00622213,-0.532621,12540,-0.653544,0.948108,-0.357132,0.346806,7703,0,0,0,0,1,-0.485334
7765,0.893555,0.108398,-0.136719,-0.00779251,-0.000305751,-0.00154831,-0.115427,-0.0272122,-0.0366206,-4.1999,0.529316,-0.268746,0.488299,-0.539464,0.36407,-0.890643,-0.0365847,-0.199901,0.529316,232,32,232,32,342,37,228,139,0.0260708,-0.421922,0,-1.5,2.93796e-38,0,0,0,-0.189887,0.432573,0,0,0,0,0.00693831,-0.543837,12540,-0.653544,0.948108,-0.357132,0.346806,7703,0,0,0,0,1,-0.475831
7781,0.893555,0.0751953,5.0459,-0.00921788,-0.00113739,-0.00223125,-0.115546,-0.027223,-0.0366544,-4.1999,0.529316,-0.268746,0.494131,-0.553828,0.364778,-0.901789,-0.0366206,-0.199901,0.529316,232,32,232,32,342,37,228,139,0.0312805,-0.421553,0,-1.5,2.93796e-38,0,0,0,-0.189769,0.423758,0,0,0,0,0.00764593,-0.554983,12540,-0.653544,0.948108,-0.357132,0.346806,7703,0,0,0,0,1,-0.466134
7798,0.893555,0.0419922,-1.26758,-0.00857212,-0.00166004,-0.00084801,-0.115655,-0.0272341,-0.0366659,-4.1999,0.529316,-0.268746,0.50034,-0.569289,0.365525,-0.913561,-0.0366659,-0.199901,0.529316,232,32,232,32,342,37,228,139,0.0368542,-0.421161,0,-1.5,2.93796e-38,0,0,0,-0.18963,0.414194,0,0,0,0,0.00839245,-0.566755,12540,-0.653544,0.948108,-0.357132,0.346806,7703,0,0,0,0,1,-0.455613
7813,0.893555,0.00878906,5.53711,-0.00627673,-0.00106126,-0.00292461,-0.115734,-0.027235,-0.0367054,-4.1999,0.529316,-0.268746,0.50583,-0.583089,0.366178,-0.923878,-0.0367054,-0.199901,0.529316,232,32,232,32,342,37,228,139,0.0417985,-0.420815,0,-1.5,2.93796e-38,0,0,0,-0.189498,0.405595,0,0,0,0,0.00904602,-0.577072,12540,-0.653544,0.948108,-0.357132,0.346806,7703,0,0,0,0,1,-0.446155
7829,0.893555,0,-3.78809,-0.00452574,0.000332906,-0.00150256,-0.11579,-0.0272288,-0.0367226,-4.1999,0.529316,-0.268746,0.511695,-0.597983,0.366869,-0.934812,-0.0367226,-0.199901,0.529316,232,32,232,32,342,37,228,139,0.0470961,-0.420447,0,-1.5,2.93796e-38,0,0,0,-0.189347,0.396251,0,0,0,0,0.00973651,-0.588006,12540,-0.653544,0.948108,-0.357132,0.346806,7703,0,0,0,0,1,-0.435876
7849,0.893555,0,6.7627,-0.00528076,-0.000498924,-0.00306848,-0.11591,-0.0272312,-0.0367863,-4.17854,0.532841,-0.276803,0.519044,-0.616863,0.367724,-0.948372,-0.0367226,-0.178539,0.532841,230,32,230,32,342,37,228,139,0.041735,-0.419325,0,-1.5,2.93796e-38,0,0,0,-0.185681,0.408059,0,0,0,0,0.0150087,-0.579729,12540,-0.697672,1.01755,-0.352715,0.368642,7836,0,0,0,0,1,-0.448865
7869,0.893555,0,-6.7168,-0.00549048,-2.63414e-05,-0.00279759,-0.115989,-0.0272294,-0.0368193,-4.19954,0.530756,-0.269369,0.52641,-0.636003,0.368568,-0.961817,-0.0368193,-0.199542,0.530756,232,32,232,32,342,37,228,139,0.0376862,-0.419703,0,-1.5,2.93796e-38,0,0,0,-0.187117,0.41783,0,0,0,0,0.0140817,-0.574142,12540,-0.710691,1.05073,-0.354486,0.387674,7863,0,0,0,0,1,-0.459613
7885,0.893555,0,-1.3623,-0.0111898,-0.000679903,-0.00200653,-0.116129,-0.027233,-0.0368399,-4.19954,0.530756,-0.269369,0.532314,-0.651504,0.369235,-0.972495,-0.0368399,-0.199542,0.530756,232,32,232,32,342,37,228,139,0.0429081,-0.419343,0,-1.5,2.93796e-38,0,0,0,-0.186885,0.408531,0,0,0,0,0.0147493,-0.58482,12540,-0.710691,1.05073,-0.354486,0.387674,7863,0,0,0,0,1,-0.449384
7905,0.893555,0,-6.57422,-0.0125326,-0.00100138,-0.00271165,-0.116283,-0.0272338,-0.0368722,-4.17838,0.533418,-0.277056,0.539709,-0.671124,0.370061,-0.985756,-0.0368722,-0.178384,0.533418,230,32,230,32,342,37,228,139,0.0438121,-0.41891,0,-1.5,2.93796e-38,0,0,0,-0.184404,0.407475,0,0,0,0,0.0163439,-0.587304,12540,-0.720576,1.07461,-0.353717,0.398452,7897,0,0,0,0,1,-0.448223
7921,0.953125,0,3.58496,-0.00464389,-0.000392208,-0.0020381,-0.116525,-0.0272155,-0.0369242,-4.17838,0.533418,-0.277056,0.545637,-0.687007,0.370714,-0.996291,-0.0369242,-0.178384,0.533418,230,32,230,32,342,37,228,139,0.0490634,-0.41855,0,-1.5,2.93796e-38,0,0,0,-0.184135,0.397967,0,0,0,0,0.0169967,-0.597839,12540,-0.720576,1.07461,-0.353717,0.398452,7897,0,0,0,0,1,-0.437764
7942,0.986328,0,4.5332,-0.00112716,-0.00014579,-0.00214287,-0.116533,-0.027214,-0.0369532,-4.22043,0.534945,-0.257891,0.553433,-0.708114,0.371558,-1.01003,-0.0369532,-0.220432,0.534945,232,32,232,32,341,36,229,138,0.0511451,-0.419156,0,-1.5,2.93796e-38,0,0,0,-0.185888,0.395061,0,0,0,0,0.0142619,-0.602844,12320,-0.734676,1.09788,-0.357296,0.407187,7931,0,0,0,0,1,-0.434567
7958,1.01367,0,1.07227,-0.00193548,-0.000873138,-0.00331754,-0.116546,-0.0272143,-0.0370239,-4.22043,0.534945,-0.257891,0.559385,-0.724381,0.372193,-1.0204,-0.0369895,-0.220432,0.534945,232,32,232,32,341,36,229,138,0.0564184,-0.418801,0,-1.5,2.93796e-38,0,0,0,-0.185653,0.385309,0,0,0,0,0.0148974,-0.613213,12320,-0.734676,1.09788,-0.357296,0.407187,7931,0,0,0,0,1,-0.42384
7978,1.01367,0,1.07227,-0.00193548,-0.000873138,-0.00331754,-0.116546,-0.0272143,-0.0370239,-4.2242,0.536225,-0.248702,0.566465,-0.743916,0.372941,-1.03261,-0.0370239,-0.224195,0.536225,232,32,232,32,341,36,228,136,0.0623398,-0.423413,0,-1.5,2.93796e-38,0,0,0,-0.200411,0.375401,0,0,0,0,-0.00442237,-0.625266,12317,-0.762348,1.11443,-0.377363,0.407344,7967,0,0,0,0,1,-0.412941
7994,1.01367,0,-4.14746,-0.00600357,-0.00170404,-0.00128674,-0.11665,-0.0272145,-0.03708,-4.2242,0.536225,-0.248702,0.572813,-0.761593,0.373603,-1.04345,-0.03708,-0.224195,0.536225,232,32,232,32,341,36,228,136,0.0680096,-0.423034,0,-1.5,2.93796e-38,0,0,0,-0.200479,0.364648,0,0,0,0,-0.00376022,-0.636102,12317,-0.762348,1.11443,-0.377363,0.407344,7967,0,0,0,0,1,-0.401113
8014,1.01367,0.0498047,3.38281,-0.00600305,-0.00127134,-0.00159643,-0.116807,-0.0272226,-0.0371384,-4.20545,0.533471,-0.260089,0.580296,-0.782634,0.374373,-1.05609,-0.03708,-0.205454,0.533471,232,32,232,32,341,36,228,138,0.0317978,-0.424138,0,-1.5,2.93796e-38,0,0,0,-0.201198,0.437919,0,0,0,0,-0.00280207,-0.571789,12317,-0.77395,1.21087,-0.377176,0.484305,8001,0,0,0,0,1,-0.481711
8030,1.01367,0.0830078,4.62012,-0.00455894,-0.000811691,-0.00363145,-0.116875,-0.0272244,-0.0371834,-4.20545,0.533471,-0.260089,0.586292,-0.799634,0.374983,-1.06614,-0.0371384,-0.205454,0.533471,232,32,232,32,341,36,228,138,0.0368587,-0.423796,0,-1.5,2.93796e-38,0,0,0,-0.201237,0.428668,0,0,0,0,-0.00219205,-0.581835,12317,-0.77395,1.21087,-0.377176,0.484305,8001,0,0,0,0,1,-0.471535
8050,1.01367,0.116211,-6.49512,-0.00164529,-0.000630536,-0.00243558,-0.116902,-0.0272232,-0.0372036,-4.20477,0.530832,-0.262579,0.593802,-0.821126,0.375738,-1.07861,-0.0372036,-0.204771,0.530832,232,32,232,32,342,37,228,138,0.0426158,-0.423761,0,-1.5,2.93796e-38,0,0,0,-0.201497,0.421729,0,0,0,0,-0.00291497,-0.597154,12426,-0.787725,1.23323,-0.378653,0.481454,8037,0,0,0,0,1,-0.463902
8071,1.01367,0.132812,2.3252,-0.00445172,-0.00034245,-0.00263054,-0.116948,-0.0272173,-0.0372425,-4.1833,0.533278,-0.270327,0.601703,-0.843952,0.37652,-1.09157,-0.0372425,-0.183298,0.533278,230,32,230,32,342,37,228,138,0.0412719,-0.423094,0,-1.5,2.93796e-38,0,0,0,-0.20027,0.420424,0,0,0,0,-5.55217e-05,-0.590407,12426,-0.798584,1.25987,-0.376576,0.501164,8064,0,0,0,0,1,-0.462467
8087,1.01367,0.132812,2.3252,-0.00445172,-0.00034245,-0.00263054,-0.116948,-0.0272173,-0.0372425,-4.1833,0.533278,-0.270327,0.607733,-0.86152,0.37711,-1.10136,-0.0372425,-0.183298,0.533278,230,32,230,32,342,37,228,138,0.0463356,-0.422758,0,-1.5,2.93796e-38,0,0,0,-0.200265,0.410875,0,0,0,0,0.000533938,-0.600193,12426,-0.798584,1.25987,-0.376576,0.501164,8064,0,0,0,0,1,-0.451962
8108,1.01367,0.132812,-2.71582,-0.00312622,-0.0012983,-0.00257753,-0.117107,-0.0272099,-0.0373888,-4.18327,0.533345,-0.270334,0.615663,-0.88482,0.377874,-1.1141,-0.0373461,-0.183268,0.533345,230,32,230,32,342,37,228,138,0.0430677,-0.422458,0,-1.5,2.93796e-38,0,0,0,-0.200199,0.420549,0,0,0,0,0.00220579,-0.597714,12426,-0.811729,1.29969,-0.375668,0.516387,8099,0,0,0,0,1,-0.462604
8124,1.01367,0.132812,3.20801,-0.00404759,-9.79167e-05,-0.00300437,-0.117155,-0.0272001,-0.0374312,-4.18327,0.533345,-0.270334,0.621715,-0.902744,0.378448,-1.12373,-0.0373888,-0.183268,0.533345,230,32,230,32,342,37,228,138,0.0481334,-0.422123,0,-1.5,2.93796e-38,0,0,0,-0.200158,0.410888,0,0,0,0,0.0027799,-0.607343,12426,-0.811729,1.29969,-0.375668,0.516387,8099,0,0,0,0,1,-0.451977
8145,1.01367,0.132812,3.20801,-0.00404759,-9.79167e-05,-0.00300437,-0.117155,-0.0272001,-0.0374312,-4.22319,0.534019,-0.251421,0.629673,-0.92653,0.379191,-1.13628,-0.0374312,-0.223187,0.534019,232,32,232,32,342,37,228,136,0.0523314,-0.421846,0,-1.5,2.93796e-38,0,0,0,-0.200995,0.404561,0,0,0,0,0.00325382,-0.617162,12426,-0.822773,1.32019,-0.375938,0.519115,8132,0,0,0,0,1,-0.445017
8161,1.01367,0.116211,-4.53418,-0.00423191,6.17174e-05,-0.00214421,-0.117251,-0.0272126,-0.0374963,-4.22319,0.534019,-0.251421,0.635746,-0.944807,0.379752,-1.14574,-0.0374963,-0.223187,0.534019,232,32,232,32,342,37,228,136,0.0574476,-0.421511,0,-1.5,2.93796e-38,0,0,0,-0.200937,0.39459,0,0,0,0,0.00381461,-0.62663,12426,-0.822773,1.32019,-0.375938,0.519115,8132,0,0,0,0,1,-0.434049
8181,1.01367,0.116211,-4.53418,-0.00423191,6.17174e-05,-0.00214421,-0.117251,-0.0272126,-0.0374963,-4.21502,0.530055,-0.259327,0.643351,-0.967887,0.380448,-1.1575,-0.0374963,-0.21502,0.530055,230,32,230,32,342,37,231,138,0.0605079,-0.42231,0,-1.5,2.93796e-38,0,0,0,-0.204453,0.389334,0,0,0,0,0.000160336,-0.632962,12208,-0.840198,1.34673,-0.380287,0.524534,8168,0,0,0,0,1,-0.428268
8203,1.01367,0.0166016,0.141602,-0.00495963,-0.000707607,-0.00188553,-0.117446,-0.0272478,-0.0376085,-4.20517,0.534514,-0.260554,0.651731,-0.993534,0.381206,-1.1703,-0.0376085,-0.205171,0.534514,232,32,232,32,341,36,228,138,0.06036,-0.422484,0,-1.5,2.93796e-38,0,0,0,-0.205229,0.38791,0,0,0,0,-0.000534326,-0.630665,12317,-0.854288,1.37767,-0.38174,0.539638,8198,0,0,0,0,1,-0.426701
8218,1.01367,0.0166016,0.141602,-0.00495963,-0.000707607,-0.00188553,-0.117446,-0.0272478,-0.0376085,-4.20517,0.534514,-0.260554,0.657454,-1.01117,0.381719,-1.17896,-0.0376085,-0.205171,0.534514,232,32,232,32,341,36,228,138,0.0651418,-0.422176,0,-1.5,2.93796e-38,0,0,0,-0.205232,0.378366,0,0,0,0,-2.11596e-05,-0.639327,12317,-0.854288,1.37767,-0.38174,0.539638,8198,0,0,0,0,1,-0.416203
8241,1.01367,0.00488281,-4.33008,-0.00534364,-2.22662e-06,-0.00155234,-0.117607,-0.0272431,-0.0376615,-4.22764,0.534665,-0.255682,0.666245,-1.03848,0.382497,-1.19214,-0.0376615,-0.227638,0.534665,232,32,232,32,342,37,229,138,0.0626036,-0.422501,0,-1.5,2.93796e-38,0,0,0,-0.20608,0.383463,0,0,0,0,-0.000950903,-0.634686,12317,-0.868107,1.41581,-0.383448,0.557458,8232,0,0,0,0,1,-0.421809
8257,1.01367,0.00488281,0.666016,-0.00683013,-0.00113569,-0.00174673,-0.117768,-0.027247,-0.0377101,-4.22764,0.534665,-0.255682,0.671988,-1.05644,0.382998,-1.20068,-0.0377101,-0.227638,0.534665,232,32,232,32,342,37,229,138,0.0673812,-0.422193,0,-1.5,2.93796e-38,0,0,0,-0.20609,0.37386,0,0,0,0,-0.000450343,-0.643218,12317,-0.868107,1.41581,-0.383448,0.557458,8232,0,0,0,0,1,-0.411246
8271,1.01367,0.00488281,-0.952148,-0.00659693,-0.000509413,-0.00180524,-0.117855,-0.0272522,-0.0377409,-4.22764,0.534665,-0.255682,0.677737,-1.07454,0.383494,-1.20916,-0.0377409,-0.227638,0.534665,232,32,232,32,342,37,229,138,0.0721785,-0.421886,0,-1.5,2.93796e-38,0,0,0,-0.206092,0.36413,0,0,0,0,4.57168e-05,-0.651706,12317,-0.868107,1.41581,-0.383448,0.557458,8232,0,0,0,0,1,-0.400543
8293,1.01367,0.0527344,5.05859,-0.00437975,-0.000987706,-0.00312739,-0.117979,-0.0272596,-0.0378268,-4.17361,0.533151,-0.276662,0.686185,-1.10133,0.384215,-1.22153,-0.0378268,-0.173605,0.533151,230,32,230,32,342,37,228,139,0.0375796,-0.422662,0,-1.5,2.93796e-38,0,0,0,-0.204545,0.391268,0,0,0,0,0.00215453,-0.543057,12426,-0.882325,1.47767,-0.382061,0.678469,8279,0,0,0,0,1,-0.430394
8318,1.01367,0.102539,-4.88965,-0.00388587,-0.000555344,-0.00184601,-0.118061,-0.0272546,-0.0378913,-4.21483,0.531092,-0.260012,0.695805,-1.13212,0.385024,-1.23544,-0.0378268,-0.214825,0.531092,230,32,230,32,342,37,231,138,0.0394067,-0.42219,0,-1.5,2.93796e-38,0,0,0,-0.204028,0.384462,0,0,0,0,0.00376517,-0.542945,12208,-0.890302,1.49927,-0.381259,0.692499,8304,0,0,0,0,1,-0.422908
8339,1.01367,0.102539,2.48242,-0.00628476,-0.000322629,-0.00322793,-0.118132,-0.0272535,-0.0379376,-4.21627,0.536588,-0.259959,0.7039,-1.15822,0.385691,-1.24701,-0.0379376,-0.216271,0.536588,232,32,232,32,342,37,228,138,0.0367083,-0.42225,0,-1.5,2.93796e-38,0,0,0,-0.20471,0.391552,0,0,0,0,0.00392368,-0.539839,12426,-0.905174,1.54341,-0.381768,0.707166,8332,0,0,0,0,1,-0.430707
8356,1.01367,0.102539,-2.7334,-0.00390988,-0.00161262,-0.00221811,-0.118178,-0.0272657,-0.0379605,-4.21627,0.536588,-0.259959,0.710076,-1.17826,0.386194,-1.25574,-0.0379605,-0.216271,0.536588,232,32,232,32,342,37,228,138,0.041291,-0.421949,0,-1.5,2.93796e-38,0,0,0,-0.204642,0.382823,0,0,0,0,0.00442657,-0.548578,12426,-0.905174,1.54341,-0.381768,0.707166,8332,0,0,0,0,1,-0.421105
8377,1.01367,0.102539,-3.98438,-0.00406978,-0.000842928,-0.00307441,-0.118231,-0.0272706,-0.0379966,-4.18522,0.53775,-0.273516,0.718582,-1.20606,0.38688,-1.26766,-0.0379966,-0.185225,0.53775,230,32,230,32,342,37,228,139,-1.02626e-05,-0.422926,0,-1.5,2.93796e-38,0,0,0,-0.203521,0.429793,0,0,0,0,0.00679168,-0.434974,12426,-0.916782,1.62419,-0.380089,0.832685,8365,0,0,0,0,1,-0.472772
8394,1.01367,0.102539,4.2793,-0.00525184,-0.000458422,-0.00214475,-0.11835,-0.0272722,-0.0380628,-4.18522,0.53775,-0.273516,0.725165,-1.22771,0.387404,-1.27679,-0.0380628,-0.185225,0.53775,230,32,230,32,342,37,228,139,0.00434155,-0.42263,0,-1.5,2.93796e-38,0,0,0,-0.2034,0.422298,0,0,0,0,0.00731564,-0.444104,12426,-0.916782,1.62419,-0.380089,0.832685,8365,0,0,0,0,1,-0.464528
8414,1.01367,0.102539,6.39551,-0.00646851,-0.000649577,-0.00279452,-0.118525,-0.0272767,-0.0381325,-4.19473,0.531523,-0.269451,0.732921,-1.25339,0.388014,-1.28745,-0.0380628,-0.194733,0.531523,232,32,232,32,342,37,228,139,-0.0029071,-0.423015,0,-1.5,2.93796e-38,0,0,0,-0.203766,0.433618,0,0,0,0,0.00688177,-0.427524,12426,-0.929064,1.66981,-0.381133,0.859926,8400,0,0,0,0,1,-0.47698
8429,1.01367,0.102539,3.67969,-0.00747054,5.6943e-05,-0.00226146,-0.118619,-0.0272628,-0.0381566,-4.19473,0.531523,-0.269451,0.738746,-1.27278,0.388466,-1.29539,-0.0381325,-0.194733,0.531523,232,32,232,32,342,37,228,139,0.000870953,-0.422758,0,-1.5,2.93796e-38,0,0,0,-0.203658,0.427131,0,0,0,0,0.00733393,-0.435459,12426,-0.929064,1.66981,-0.381133,0.859926,8400,0,0,0,0,1,-0.469844
8451,1.01367,0.102539,4.13379,-0.00455605,-0.000729515,-0.00233138,-0.118679,-0.0272676,-0.0381866,-4.22281,0.536139,-0.252626,0.746913,-1.30014,0.38909,-1.30645,-0.0381866,-0.222808,0.536139,232,32,232,32,342,37,228,136,-0.0124203,-0.423663,0,-1.5,2.93796e-38,0,0,0,-0.205144,0.435004,0,0,0,0,0.00575072,-0.390802,12426,-0.944007,1.71592,-0.383339,0.915645,8436,0,0,0,0,1,-0.478505
8472,1.01367,0.102539,6.75879,-0.00400731,-0.000172184,-0.00173291,-0.118729,-0.0272494,-0.0382164,-4.17877,0.524705,-0.274253,0.755482,-1.32905,0.389732,-1.31792,-0.0382164,-0.178772,0.524705,232,32,232,32,345,37,228,136,-0.0154927,-0.423786,0,-1.5,2.93796e-38,0,0,0,-0.204635,0.438241,0,0,0,0,0.00572875,-0.382033,13104,-0.956661,1.75886,-0.384003,0.935884,8465,0,0,0,0,1,-0.482065
8488,1.01367,0.102539,-5.24609,-0.00389853,-0.000774853,-0.00262273,-0.118808,-0.02727,-0.0382927,-4.17877,0.524705,-0.274253,0.761722,-1.35022,0.390193,-1.32619,-0.0382927,-0.178772,0.524705,232,32,232,32,345,37,228,136,-0.011709,-0.423528,0,-1.5,2.93796e-38,0,0,0,-0.204539,0.432042,0,0,0,0,0.00619003,-0.390301,13104,-0.956661,1.75886,-0.384003,0.935884,8465,0,0,0,0,1,-0.475246
8510,1.01367,0.102539,-5.5166,-0.00683192,-0.000779104,-0.00342458,-0.118928,-0.0272753,-0.0383774,-4.24394,0.539236,-0.245896,0.770316,-1.37957,0.390824,-1.33747,-0.0382927,-0.243945,0.539236,232,32,232,32,341,37,229,136,-0.0308719,-0.426664,0,-1.5,2.93796e-38,0,0,0,-0.21016,0.457515,0,0,0,0,-0.00341135,-0.341246,12208,-0.971803,1.81517,-0.394235,0.996224,8496,0,0,0,0,1,-0.503266
8526,1.01367,0.102539,6.98145,-0.00491717,3.58002e-05,-0.00421561,-0.118986,-0.0272776,-0.0384321,-4.24394,0.539236,-0.245896,0.776574,-1.40105,0.391276,-1.3456,-0.0383774,-0.243945,0.539236,232,32,232,32,341,37,229,136,-0.0272998,-0.426417,0,-1.5,2.93796e-38,0,0,0,-0.21021,0.45197,0,0,0,0,-0.00295851,-0.349377,12208,-0.971803,1.81517,-0.394235,0.996224,8496,0,0,0,0,1,-0.497167
8548,1.01367,0.102539,6.98145,-0.00491717,3.58002e-05,-0.00421561,-0.118986,-0.0272776,-0.0384321,-4.22165,0.541643,-0.253984,0.7848,-1.42947,0.391864,-1.35621,-0.0384321,-0.221649,0.541642,230,32,230,32,341,37,229,136,-0.0362293,-0.431042,0,-1.5,2.93796e-38,0,0,0,-0.220701,0.463662,0,0,0,0,-0.0200625,-0.325781,12208,-0.99685,1.87149,-0.411926,1.03043,8534,0,0,0,0,1,-0.510028
8564,1.01367,0.102539,-2.60449,-0.0047186,-0.000485447,-0.00373675,-0.119098,-0.0272709,-0.0385103,-4.22165,0.541643,-0.253984,0.791467,-1.45262,0.392333,-1.36472,-0.0385103,-0.221649,0.541642,230,32,230,32,341,37,229,136,-0.0325411,-0.430786,0,-1.5,2.93796e-38,0,0,0,-0.221037,0.45803,0,0,0,0,-0.0195935,-0.334288,12208,-0.99685,1.87149,-0.411926,1.03043,8534,0,0,0,0,1,-0.503833
8585,1.01367,0.102539,-3.16309,-0.0024157,0.000436222,-0.00188615,-0.119164,-0.0272558,-0.0385578,-4.24389,0.539504,-0.246047,0.799714,-1.48143,0.392904,-1.37515,-0.0385578,-0.243891,0.539504,232,32,232,32,341,37,229,136,-0.0321977,-0.430648,0,-1.5,2.93796e-38,0,0,0,-0.221971,0.455267,0,0,0,0,-0.0190883,-0.332593,12208,-1.01303,1.9148,-0.411992,1.04256,8571,0,0,0,0,1,-0.500793
8607,1.01367,0.102539,7.0625,-0.00258988,-0.000821804,-0.00279243,-0.119222,-0.0272539,-0.0386261,-4.21582,0.538345,-0.260731,0.808366,-1.51183,0.393489,-1.38597,-0.0385973,-0.215819,0.538345,232,32,232,32,342,37,228,138,-0.0501451,-0.431185,0,-1.5,2.93796e-38,0,0,0,-0.221914,0.476991,0,0,0,0,-0.0184563,-0.284631,12426,-1.02657,1.97891,-0.411945,1.10134,8600,0,0,0,0,1,-0.52469
8622,1.01367,0.102539,-6.56934,-0.00379741,-8.82043e-05,-0.0019463,-0.119257,-0.0272455,-0.0386563,-4.21582,0.538345,-0.260731,0.814272,-1.53269,0.393884,-1.39328,-0.0386261,-0.215819,0.538345,232,32,232,32,342,37,228,138,-0.0471223,-0.430971,0,-1.5,2.93796e-38,0,0,0,-0.222187,0.472652,0,0,0,0,-0.0180617,-0.291944,12426,-1.02657,1.97891,-0.411945,1.10134,8600,0,0,0,0,1,-0.519917
8643,1.01367,0.102539,-6.56934,-0.00379741,-8.82043e-05,-0.0019463,-0.119257,-0.0272455,-0.0386563,-4.1917,0.52574,-0.262186,0.822551,-1.56209,0.394429,-1.40344,-0.0386563,-0.191704,0.52574,232,32,232,32,345,37,228,136,-0.0516437,-0.430663,0,-1.5,2.93796e-38,0,0,0,-0.221781,0.4773,0,0,0,0,-0.0161255,-0.279001,12753,-1.03899,2.02477,-0.410554,1.12444,8632,0,0,0,0,1,-0.52503
8660,1.01367,0.102539,-5.61328,-0.00401496,-0.000644517,-0.00247745,-0.119372,-0.0272388,-0.038719,-4.1917,0.52574,-0.262186,0.829261,-1.58604,0.394865,-1.4116,-0.038719,-0.191704,0.52574,232,32,232,32,345,37,228,136,-0.0482673,-0.430427,0,-1.5,2.93796e-38,0,0,0,-0.22205,0.472467,0,0,0,0,-0.0156896,-0.287154,12753,-1.03899,2.02477,-0.410554,1.12444,8632,0,0,0,0,1,-0.519714
8676,1.01367,0.102539,6.77344,-0.00378787,0.00128317,-0.00194947,-0.119468,-0.0272263,-0.038792,-4.1917,0.52574,-0.262186,0.835583,-1.6087,0.39527,-1.41922,-0.038719,-0.191704,0.52574,232,32,232,32,345,37,228,136,-0.045084,-0.430202,0,-1.5,2.93796e-38,0,0,0,-0.222297,0.467795,0,0,0,0,-0.0152845,-0.294773,12753,-1.03899,2.02477,-0.410554,1.12444,8632,0,0,0,0,1,-0.514575
8692,1.01367,0.102539,2.21875,-0.00242017,0.000121613,-0.00163398,-0.119498,-0.0272124,-0.038819,-4.1917,0.52574,-0.262186,0.841911,-1.63149,0.395668,-1.42679,-0.038792,-0.191704,0.52574,232,32,232,32,345,37,228,136,-0.0418599,-0.429982,0,-1.5,2.93796e-38,0,0,0,-0.222538,0.463002,0,0,0,0,-0.0148866,-0.302347,12753,-1.03899,2.02477,-0.410554,1.12444,8632,0,0,0,0,1,-0.509302
8713,1.01367,0.102539,2.21875,-0.00242017,0.000121613,-0.00163398,-0.119498,-0.0272124,-0.038819,-4.17814,0.521929,-0.266261,0.850228,-1.6616,0.396182,-1.43666,-0.038819,-0.178143,0.521929,232,32,232,32,344,37,228,136,-0.0429849,-0.426624,0,-1.5,2.93796e-38,0,0,0,-0.215305,0.465293,0,0,0,0,-0.00128514,-0.300864,12644,-1.05719,2.10304,-0.397467,1.13579,8699,0,0,0,0,1,-0.511822
8730,1.01367,0.102539,5.79883,-0.00523375,0.000161922,-0.00221367,-0.119621,-0.0271907,-0.0388766,-4.17814,0.521929,-0.266261,0.856571,-1.68466,0.396568,-1.4441,-0.0388766,-0.178143,0.521929,232,32,232,32,344,37,228,136,-0.0397694,-0.426405,0,-1.5,2.93796e-38,0,0,0,-0.215322,0.460401,0,0,0,0,-0.000899196,-0.308312,12644,-1.05719,2.10304,-0.397467,1.13579,8699,0,0,0,0,1,-0.506441
8746,1.01367,0.102539,2.79004,-0.00495391,-0.000620413,-0.00265565,-0.119752,-0.0271797,-0.038936,-4.17814,0.521929,-0.266261,0.863317,-1.7093,0.396971,-1.45197,-0.0388766,-0.178143,0.521929,232,32,232,32,344,37,228,136,-0.0363454,-0.426171,0,-1.5,2.93796e-38,0,0,0,-0.215333,0.455073,0,0,0,0,-0.00049597,-0.316173,12644,-1.05719,2.10304,-0.397467,1.13579,8699,0,0,0,0,1,-0.500581
8762,1.01367,0.102539,-1.82031,-0.00472403,-0.00128237,-0.00177712,-0.119629,-0.0270996,-0.0388184,-4.17814,0.521929,-0.266261,0.869275,-1.73114,0.397321,-1.45886,-0.038936,-0.178143,0.521929,232,32,232,32,344,37,228,136,-0.0332889,-0.425967,0,-1.5,2.93796e-38,0,0,0,-0.215337,0.450264,0,0,0,0,-0.000146478,-0.323073,12644,-1.05719,2.10304,-0.397467,1.13579,8699,0,0,0,0,1,-0.495291
8783,1.01367,0.102539,-5.0459,-0.00564022,0.000313303,-0.00207927,-0.119876,-0.0271704,-0.0389903,-4.24339,0.540641,-0.24616,0.878024,-1.7634,0.397818,-1.46889,-0.0389903,-0.243391,0.540641,232,32,232,32,341,37,229,136,-0.0384573,-0.429594,0,-1.5,2.93796e-38,0,0,0,-0.224901,0.454828,0,0,0,0,-0.0138258,-0.306816,12208,-1.09387,2.19266,-0.411644,1.16208,8769,0,0,0,0,1,-0.500311
8800,1.01367,0.102539,6.70215,-0.00372296,-0.000735296,-0.0024373,-0.120002,-0.0271662,-0.0390565,-4.24339,0.540641,-0.24616,0.884791,-1.78846,0.398203,-1.47659,-0.0390153,-0.243391,0.540641,232,32,232,32,341,37,229,136,-0.0350738,-0.429367,0,-1.5,2.93796e-38,0,0,0,-0.225132,0.449525,0,0,0,0,-0.0134412,-0.314516,12208,-1.09387,2.19266,-0.411644,1.16208,8769,0,0,0,0,1,-0.494478
8815,1.01367,0.102539,-5.9502,-0.00241275,-0.00132308,-0.00276494,-0.120033,-0.0271752,-0.0390987,-4.24339,0.540641,-0.24616,0.890768,-1.81067,0.398538,-1.48334,-0.0390565,-0.243391,0.540641,232,32,232,32,341,37,229,136,-0.0320663,-0.429167,0,-1.5,2.93796e-38,0,0,0,-0.225331,0.444743,0,0,0,0,-0.0131063,-0.321266,12208,-1.09387,2.19266,-0.411644,1.16208,8769,0,0,0,0,1,-0.489217
8837,1.01367,0.102539,-3.18945,-0.00245831,-0.000594694,-0.00178847,-0.120065,-0.02717,-0.039123,-4.24339,0.540641,-0.24616,0.899542,-1.84344,0.399025,-1.49317,-0.039123,-0.243391,0.540641,232,32,232,32,341,37,229,136,-0.0428879,-0.42977,0,-1.5,2.93796e-38,0,0,0,-0.226703,0.462652,0,0,0,0,-0.0138108,-0.29755,12208,-1.12253,2.29533,-0.412836,1.19561,8830,0,0,0,0,1,-0.508917
8853,1.01367,0.102539,-3.18945,-0.00245831,-0.000594694,-0.00178847,-0.120065,-0.02717,-0.039123,-4.24339,0.540641,-0.24616,0.90593,-1.8674,0.399375,-1.50024,-0.039123,-0.243391,0.540641,232,32,232,32,341,37,229,136,-0.039795,-0.429561,0,-1.5,2.93796e-38,0,0,0,-0.22692,0.457819,0,0,0,0,-0.0134613,-0.304629,12208,-1.12253,2.29533,-0.412836,1.19561,8830,0,0,0,0,1,-0.503601
8875,1.01367,0.102539,-2.21289,-0.00383983,-0.00116316,-0.00383781,-0.120114,-0.0271701,-0.03919,-4.2324,0.537138,-0.249814,0.914723,-1.90055,0.39985,-1.5099,-0.03919,-0.232402,0.537138,230,32,230,32,342,37,231,136,-0.0501101,-0.430816,0,-1.5,2.93796e-38,0,0,0,-0.229207,0.471046,0,0,0,0,-0.0168462,-0.277685,12208,-1.13893,2.35681,-0.416696,1.23221,8865,0,0,0,0,1,-0.51815
8891,1.01367,0.102539,-1.29297,-0.00311117,-0.000250143,-0.00102537,-0.120186,-0.0271781,-0.0392488,-4.2324,0.537138,-0.249814,0.921124,-1.92478,0.400191,-1.51685,-0.0392488,-0.232402,0.537138,230,32,230,32,342,37,231,136,-0.0471201,-0.430617,0,-1.5,2.93796e-38,0,0,0,-0.229473,0.466532,0,0,0,0,-0.016505,-0.284643,12208,-1.13893,2.35681,-0.416696,1.23221,8865,0,0,0,0,1,-0.513185
