timestamp,A_x,A_y,A_z,P,Q,R,Phi,Theta,Psi,poseX,poseY,poseZ,state_X,state_Y,state_Z,state_VzB,state_Bx,state_By,state_Bz,p1_x,p1_y,p2_x,p2_y,p3_x,p3_y,p4_x,p4_y,roll,pitch,yaw,alt,targetHeading,highLevelState,lowLevelState,gateNumber,filtered_x,filtered_y,x_OT,y_OT,vx_OT,vy_OT,filtered_vx,filtered_vygateArearansac_corr_x,ransac_corr_y,ransac_corr_vx,ransac_corr_vy,detectionTimeStamppTermX,dTermX,pTermY,dTermY,vxcmd,vycmd
6073,0.694336,0.104492,3.92676,0.000161515,0.00207385,-0.00120837,-0.0691103,-0.0275259,-2.73993,0,0,0,-2.25868e-05,2.17555e-05,-0.00419102,0.00405547,-2.73965,0,0,0,0,0,0,0,0,0,0,0.099151,0.0561962,0.00780685,-1.5,0,0,0,1,-2.25868e-05,2.17555e-05,0,0,0,0,-0.00419102,0.00405547,1.9603e-19,0,0,0,0,0,0,0,0,0,1,-2.3931e-05
6087,0.694336,0.0683594,5.41602,-0.000746788,0.0021621,0.000738875,-0.0701735,-0.0255242,-2.74066,0,0,0,-0.000142158,0.000139954,-0.0113164,0.0113083,-2.74042,0,0,0,0,0,0,0,0,0,0,0.101367,0.057192,0.0187085,-1.5,0,0,0,2,-0.000142158,0.000139954,0,0,0,0,-0.0113164,0.0113083,1.9603e-19,0,0,0,0,0,0,0,0,0,1,-0.000153949
6102,0.694336,0.146484,7.2207,0.000664795,0.00135667,-0.000742461,-0.0707722,-0.0237001,-2.74145,0,0,0,-0.000401694,0.00040502,-0.0191672,0.019799,-2.74113,0,0,0,0,0,0,0,0,0,0,0.103991,0.0582149,0.0311343,-1.5,0,0,0,3,-0.000401694,0.00040502,0,0,0,0,-0.0191672,0.019799,1.9603e-19,0,0,0,0,0,0,0,0,0,1,-0.000445522
6119,0.694336,0.150391,6.75391,-0.000576015,0.00326721,-0.000673918,-0.0713061,-0.0223225,-2.74207,0,0,0,-0.000814126,0.000839453,-0.027208,0.0289587,-2.74191,0,0,0,0,0,0,0,0,0,0,0.10681,0.0592106,0.0247303,-1.5,0,0,0,0,-0.000814126,0.000839453,0,0,0,0,-0.027208,0.0289587,1.9603e-19,0,0,0,0,0,0,0,0,0,1,-0.000923399
6135,0.694336,0.110352,5.75586,-0.000586817,0.0022367,-0.000262296,-0.0713509,-0.0222663,-2.74208,0,0,0,-0.00132678,0.00139429,-0.0345596,0.0376602,-2.74207,0,0,0,0,0,0,0,0,0,0,0.109633,0.0600149,0.0273663,-1.5,0,0,0,1,-0.00132678,0.00139429,0,0,0,0,-0.0345596,0.0376602,1.9603e-19,0,0,0,0,0,0,0,0,0,1,-0.00153372
6151,0.694336,0.0771484,-2.5,0.000879496,0.00268767,-0.000893236,-0.0713577,-0.022237,-2.74209,0,0,0,-0.0019541,0.00208495,-0.0418482,0.0462969,-2.74208,0,0,0,0,0,0,0,0,0,0,0.112502,0.0607817,0.04135,-1.5,0,0,0,2,-0.0019541,0.00208495,0,0,0,0,-0.0418482,0.0462969,1.9603e-19,0,0,0,0,0,0,0,0,0,1,-0.00229345
6167,0.694336,0.0439453,7.08594,0.000427505,0.00218012,-0.00131219,-0.0713728,-0.0222097,-2.7421,0,0,0,-0.00269738,0.00291317,-0.0490733,0.0548704,-2.7421,0,0,0,0,0,0,0,0,0,0,0.115384,0.0615259,0.0568611,-1.5,0,0,0,3,-0.00269738,0.00291317,0,0,0,0,-0.0490733,0.0548704,1.9603e-19,0,0,0,0,0,0,0,0,0,1,-0.00320448
6182,0.694336,0.0263672,5.41406,-0.000864193,0.00141147,-0.000632718,-0.0713986,-0.0221813,-2.74211,0,0,0,-0.00349852,0.00381346,-0.0557914,0.0628503,-2.74211,0,0,0,0,0,0,0,0,0,0,0.118102,0.0622015,0.0488237,-1.5,0,0,0,0,-0.00349852,0.00381346,0,0,0,0,-0.0557914,0.0628503,1.9603e-19,0,0,0,0,0,0,0,0,0,1,-0.00419481
6198,0.694336,0.0263672,3.79199,-0.000278419,0.00285094,-0.000217507,-0.0714206,-0.0221503,-2.74211,0,0,0,-0.00446371,0.00490529,-0.062899,0.0713024,-2.74211,0,0,0,0,0,0,0,0,0,0,0.121015,0.0629005,0.0526411,-1.5,0,0,0,1,-0.00446371,0.00490529,0,0,0,0,-0.062899,0.0713024,1.9603e-19,0,0,0,0,0,0,0,0,0,1,-0.00539582
6216,0.694336,0.0263672,5.16211,-0.00112139,0.00228114,-0.0014079,-0.0714437,-0.0221142,-2.74213,0,0,0,-0.00561816,0.0062188,-0.0703876,0.0802174,-2.74213,0,0,0,0,0,0,0,0,0,0,0.124125,0.0636202,0.0696528,-1.5,0,0,0,2,-0.00561816,0.0062188,0,0,0,0,-0.0703876,0.0802174,1.9603e-19,0,0,0,0,0,0,0,0,0,1,-0.00684068
6231,0.694336,0.0263672,0.15625,0.000383012,0.00306684,-0.000916349,-0.0714794,-0.0220515,-2.74217,0,0,0,-0.00681783,0.00758982,-0.0773728,0.0885432,-2.74215,0,0,0,0,0,0,0,0,0,0,0.127065,0.0642749,0.0850444,-1.5,0,0,0,3,-0.00681783,0.00758982,0,0,0,0,-0.0773728,0.0885432,1.9603e-19,0,0,0,0,0,0,0,0,0,1,-0.0083488
6247,0.694336,0.0263672,-7.1377,0.00029981,0.00175663,-0.000697317,-0.0714956,-0.0220278,-2.74217,0,0,0,-0.00804129,0.00899297,-0.083866,0.0962921,-2.74217,0,0,0,0,0,0,0,0,0,0,0.129833,0.0648693,0.0768942,-1.5,0,0,0,0,-0.00804129,0.00899297,0,0,0,0,-0.083866,0.0962921,1.9603e-19,0,0,0,0,0,0,0,0,0,1,-0.00989227
6264,0.694336,0.0576172,5.19922,0.000159189,0.00224851,0.000450632,-0.0715123,-0.0219981,-2.74218,0,0,0,-0.00964548,0.0108393,-0.0915918,0.105526,-2.74218,0,0,0,0,0,0,0,0,0,0,0.133176,0.0655547,0.0781839,-1.5,0,0,0,1,-0.00964548,0.0108393,0,0,0,0,-0.0915918,0.105526,1.9603e-19,0,0,0,0,0,0,0,0,0,1,-0.0119232
6297,0.694336,0.124023,2.83203,0.000629195,0.00339243,-0.0012818,-0.0715458,-0.0219335,-2.74221,0,0,0,-0.0130272,0.0147513,-0.105609,0.1223,-2.74221,0,0,0,0,0,0,0,0,0,0,0.139386,0.066738,0.120126,-1.5,0,0,0,2,-0.0130272,0.0147513,0,0,0,0,-0.105609,0.1223,1.9603e-19,0,0,0,0,0,0,0,0,0,1,-0.0162265
6311,0.694336,0.157227,-3.03418,0.000254578,0.00231677,-0.00106133,-0.0715525,-0.0219079,-2.74222,0,0,0,-0.014444,0.0163939,-0.11104,0.128815,-2.74222,0,0,0,0,0,0,0,0,0,0,0.141827,0.0671827,0.130622,-1.5,0,0,0,3,-0.014444,0.0163939,0,0,0,0,-0.11104,0.128815,1.9603e-19,0,0,0,0,0,0,0,0,0,1,-0.0180333
6342,0.694336,0.0966797,0.966797,0.000622293,0.00133393,-0.000654619,-0.0715744,-0.0218226,-2.74225,0,0,0,-0.0183245,0.0209086,-0.1243,0.144732,-2.74224,0,0,0,0,0,0,0,0,0,0,0.147922,0.0682091,0.0988279,-1.5,0,0,0,0,-0.0183245,0.0209086,0,0,0,0,-0.1243,0.144732,1.9603e-19,0,0,0,0,0,0,0,0,0,1,-0.0229994
6355,0.694336,0.0966797,0.966797,0.000622293,0.00133393,-0.000654619,-0.0715744,-0.0218226,-2.74225,0,0,0,-0.0199824,0.0228406,-0.1296,0.151109,-2.74225,0,0,0,0,0,0,0,0,0,0,0.150392,0.0686051,0.102339,-1.5,0,0,0,1,-0.0199824,0.0228406,0,0,0,0,-0.1296,0.151109,1.9603e-19,0,0,0,0,0,0,0,0,0,1,-0.0251247
6370,0.694336,0.0361328,-2.39453,0.000200949,0.00171904,-0.000285195,-0.0715818,-0.0217716,-2.74227,0,0,0,-0.0219852,0.025178,-0.135674,0.158418,-2.74225,0,0,0,0,0,0,0,0,0,0,0.153258,0.0690438,0.116023,-1.5,0,0,0,2,-0.0219852,0.025178,0,0,0,0,-0.135674,0.158418,1.9603e-19,0,0,0,0,0,0,0,0,0,1,-0.0276958
6386,0.694336,0.0361328,-6.70605,0.000378012,0.00245113,-0.000174286,-0.0715925,-0.0217428,-2.74228,0,0,0,-0.0242215,0.0277917,-0.142096,0.166159,-2.74228,0,0,0,0,0,0,0,0,0,0,0.156321,0.0694953,0.131235,-1.5,0,0,0,3,-0.0242215,0.0277917,0,0,0,0,-0.142096,0.166159,1.9603e-19,0,0,0,0,0,0,0,0,0,1,-0.0305709
6402,0.694336,0.0361328,5.9502,0.000925701,0.000987679,-0.00112137,-0.0715823,-0.0217278,-2.74229,0,0,0,-0.0264107,0.0303538,-0.148066,0.173363,-2.74229,0,0,0,0,0,0,0,0,0,0,0.159208,0.0698975,0.1229,-1.5,0,0,0,0,-0.0264107,0.0303538,0,0,0,0,-0.148066,0.173363,1.9603e-19,0,0,0,0,0,0,0,0,0,1,-0.0333892
6416,0.694336,0.0361328,5.82617,0.00154572,0.00288473,-0.00170243,-0.0715853,-0.0217011,-2.74232,0,0,0,-0.0286874,0.0330215,-0.153987,0.180512,-2.74232,0,0,0,0,0,0,0,0,0,0,0.162097,0.0702871,0.123819,-1.5,0,0,0,1,-0.0286874,0.0330215,0,0,0,0,-0.153987,0.180512,1.9603e-19,0,0,0,0,0,0,0,0,0,1,-0.0363237
6438,0.694336,0.0361328,-2.0166,0.00064777,0.00281367,3.77729e-05,-0.0716071,-0.0216322,-2.74235,-3.48052,0.19719,-0.124214,-0.0322117,0.0371578,-0.162601,0.190918,-2.74232,0,0,242,-10,242,-10,378,-19,245,114,0.166379,0.0708177,0.148369,-1.5,0,0,0,2,-0.0322117,0.0371578,0,0,0,0,-0.162601,0.190918,18088,0,0,0,0,0,0,0,0,0,1,-0.0408735
6459,0.694336,0.0361328,-0.393555,0.00037973,0.00194374,-0.000756968,-0.0716167,-0.0216065,-2.74236,-3.48052,0.19719,-0.124214,-0.0357438,0.0413091,-0.170725,0.200745,-2.74236,0,0,242,-10,242,-10,378,-19,245,114,0.170475,0.0712961,0.169376,-1.5,0,0,0,3,-0.0357438,0.0413091,0,0,0,0,-0.170725,0.200745,18088,0,0,0,0,0,0,0,0,0,1,-0.04544
6560,0.694336,0.172852,6.76172,0.00113491,0.00192378,-0.000238318,-0.0716725,-0.0214166,-2.74244,-3.48052,0.19719,-0.124214,-0.0566049,0.06597,-0.209313,0.247541,-2.74244,0,0,242,-10,242,-10,378,-19,245,114,0.191233,0.0730156,0.0263401,-1.5,0,0,0,0,-0.0566049,0.06597,0,0,0,0,-0.209313,0.247541,18088,0,0,0,0,0,0,0,0,0,1,-0.0725669
6649,0.639648,0.0166016,3.65625,0.00067406,0.00257412,-4.79322e-05,-0.0717313,-0.0212212,-2.74255,-3.48212,0.194919,-0.117342,-0.0778344,0.0911761,-0.241456,0.286799,-2.74255,0,0,241,-12,241,-12,376,-17,246,112,0.209757,0.0739356,0.0267307,-1.5,0,0,0,1,-0.0778344,0.0911761,0,0,0,0,-0.241456,0.286799,18060,0,0,0,0,0,0,0,0,0,1,-0.100294
6666,0.606445,0.0244141,2.5498,-0.000811521,0.00224358,-0.000865992,-0.0717513,-0.0211894,-2.74256,-3.48212,0.194919,-0.117342,-0.0817556,0.0958361,-0.246961,0.293574,-2.74256,0,0,241,-12,241,-12,376,-17,246,112,0.213031,0.0740503,0.0422814,-1.5,0,0,0,2,-0.0817556,0.0958361,0,0,0,0,-0.246961,0.293574,18060,0,0,0,0,0,0,0,0,0,1,-0.10542
6681,0.591797,0.0576172,3.38281,-0.000905902,0.00318663,-0.000323683,-0.0717778,-0.0211581,-2.74257,-3.48212,0.194919,-0.117342,-0.0857626,0.100602,-0.252418,0.300301,-2.74257,0,0,241,-12,241,-12,376,-17,246,112,0.216316,0.0741463,0.0546536,-1.5,0,0,0,3,-0.0857626,0.100602,0,0,0,0,-0.252418,0.300301,18060,0,0,0,0,0,0,0,0,0,1,-0.110662
6696,0.591797,0.0908203,5.61719,-0.000378247,0.00248917,-0.00106178,-0.0717959,-0.0211222,-2.74259,-3.48212,0.194919,-0.117342,-0.0895967,0.105165,-0.25749,0.306563,-2.74259,0,0,241,-12,241,-12,376,-17,246,112,0.219403,0.0742233,0.0497602,-1.5,0,0,0,0,-0.0895967,0.105165,0,0,0,0,-0.25749,0.306563,18060,0,0,0,0,0,0,0,0,0,1,-0.115682
6712,0.591797,0.124023,-6.06934,-0.000231222,0.00265703,-0.000907608,-0.0718116,-0.0211014,-2.7426,-3.48212,0.194919,-0.117342,-0.0937729,0.11014,-0.262857,0.313197,-2.7426,0,0,241,-12,241,-12,376,-17,246,112,0.22271,0.0742862,0.0518973,-1.5,0,0,0,1,-0.0937729,0.11014,0,0,0,0,-0.262857,0.313197,18060,0,0,0,0,0,0,0,0,0,1,-0.121154
6728,0.663086,0.148438,-1.92285,0.000713671,0.00247698,-0.00156409,-0.0718466,-0.0210382,-2.74262,-3.48212,0.194919,-0.117342,-0.0980329,0.115218,-0.268177,0.319781,-2.7426,0,0,241,-12,241,-12,376,-17,246,112,0.226031,0.0743296,0.0642183,-1.5,0,0,0,2,-0.0980329,0.115218,0,0,0,0,-0.268177,0.319781,18060,0,0,0,0,0,0,0,0,0,1,-0.12674
6744,0.729492,0.148438,-5.20215,0.00180746,0.00212346,-1.50996e-05,-0.0718508,-0.0210164,-2.74263,-3.48212,0.194919,-0.117342,-0.102379,0.120404,-0.273451,0.326319,-2.74262,0,0,241,-12,241,-12,376,-17,246,112,0.229358,0.0743599,0.0796317,-1.5,0,0,0,3,-0.102379,0.120404,0,0,0,0,-0.273451,0.326319,18060,0,0,0,0,0,0,0,0,0,1,-0.132444
6760,0.734375,0.148438,-4.12793,0.000629692,0.00309165,-0.00152036,-0.0718545,-0.0209843,-2.74265,-3.48212,0.194919,-0.117342,-0.106809,0.125693,-0.278678,0.332809,-2.74265,0,0,241,-12,241,-12,376,-17,246,112,0.232694,0.0743758,0.0699387,-1.5,0,0,0,0,-0.106809,0.125693,0,0,0,0,-0.278678,0.332809,18060,0,0,0,0,0,0,0,0,0,1,-0.138262
6776,0.701172,0.12207,6.63574,0.00113912,0.000817743,-1.98979e-06,-0.0718509,-0.0209719,-2.74266,-3.48212,0.194919,-0.117342,-0.111323,0.131086,-0.283859,0.33925,-2.74266,0,0,241,-12,241,-12,376,-17,246,112,0.236046,0.0743692,0.0716734,-1.5,0,0,0,1,-0.111323,0.131086,0,0,0,0,-0.283859,0.33925,18060,0,0,0,0,0,0,0,0,0,1,-0.144194
6792,0.667969,0.0888672,-6.01465,-0.000440378,0.00214243,-0.00196703,-0.0718657,-0.0209556,-2.74268,-3.48212,0.194919,-0.117342,-0.115919,0.136581,-0.288997,0.34564,-2.74268,0,0,241,-12,241,-12,376,-17,246,112,0.239402,0.0743518,0.0870444,-1.5,0,0,0,2,-0.115919,0.136581,0,0,0,0,-0.288997,0.34564,18060,0,0,0,0,0,0,0,0,0,1,-0.150239
6808,0.634766,0.0556641,-4.93555,-0.000348842,0.0026803,-0.000605294,-0.0718729,-0.0209203,-2.74269,-3.48212,0.194919,-0.117342,-0.120596,0.142178,-0.294091,0.351983,-2.74269,0,0,241,-12,241,-12,376,-17,246,112,0.242775,0.0743133,0.102366,-1.5,0,0,0,3,-0.120596,0.142178,0,0,0,0,-0.294091,0.351983,18060,0,0,0,0,0,0,0,0,0,1,-0.156396
6824,0.634766,0.0556641,-4.93555,-0.000348842,0.0026803,-0.000605294,-0.0718729,-0.0209203,-2.74269,-3.48212,0.194919,-0.117342,-0.125353,0.147874,-0.29914,0.358277,-2.74269,0,0,241,-12,241,-12,376,-17,246,112,0.246158,0.074257,0.0939643,-1.5,0,0,0,0,-0.125353,0.147874,0,0,0,0,-0.29914,0.358277,18060,0,0,0,0,0,0,0,0,0,1,-0.162661
6839,0.569336,0.0751953,-6.43262,0.000366238,0.00178004,-0.000999297,-0.0719082,-0.0208525,-2.74272,-3.48212,0.194919,-0.117342,-0.129886,0.153305,-0.303836,0.364134,-2.74271,0,0,241,-12,241,-12,376,-17,246,112,0.249334,0.0741952,0.0954072,-1.5,0,0,0,1,-0.129886,0.153305,0,0,0,0,-0.303836,0.364134,18060,0,0,0,0,0,0,0,0,0,1,-0.168635
6855,0.582031,0.108398,2.71973,0.00104075,0.00252752,-0.00057496,-0.0719175,-0.0208335,-2.74273,-3.48212,0.194919,-0.117342,-0.134799,0.159196,-0.308802,0.370339,-2.74272,0,0,241,-12,241,-12,376,-17,246,112,0.252736,0.0741109,0.110683,-1.5,0,0,0,2,-0.134799,0.159196,0,0,0,0,-0.308802,0.370339,18060,0,0,0,0,0,0,0,0,0,1,-0.175116
6871,0.640625,0.141602,-1.85449,0.000352681,0.0030588,-0.000209034,-0.0719297,-0.0207999,-2.74274,-3.48212,0.194919,-0.117342,-0.139792,0.165186,-0.313724,0.3765,-2.74274,0,0,241,-12,241,-12,376,-17,246,112,0.256147,0.0740109,0.125911,-1.5,0,0,0,3,-0.139792,0.165186,0,0,0,0,-0.313724,0.3765,18060,0,0,0,0,0,0,0,0,0,1,-0.181705
6886,0.707031,0.174805,-3.06348,0.000295699,0.00153286,0.000734651,-0.0719404,-0.0207739,-2.74274,-3.48212,0.194919,-0.117342,-0.144542,0.170889,-0.318298,0.382233,-2.74274,0,0,241,-12,241,-12,376,-17,246,112,0.259357,0.0738997,0.117597,-1.5,0,0,0,0,-0.144542,0.170889,0,0,0,0,-0.318298,0.382233,18060,0,0,0,0,0,0,0,0,0,1,-0.187978
6901,0.75,0.208008,-1.38477,-0.000844201,0.00167573,-6.59521e-05,-0.0719628,-0.0207592,-2.74275,-3.48212,0.194919,-0.117342,-0.14936,0.176678,-0.322835,0.387927,-2.74275,0,0,241,-12,241,-12,376,-17,246,112,0.262574,0.0737759,0.118616,-1.5,0,0,0,1,-0.14936,0.176678,0,0,0,0,-0.322835,0.387927,18060,0,0,0,0,0,0,0,0,0,1,-0.194346
6917,0.755859,0.18457,2.7168,-0.000202243,0.0026197,-0.000801524,-0.07198,-0.0207266,-2.74276,-3.48212,0.194919,-0.117342,-0.154575,0.182946,-0.327635,0.393959,-2.74276,0,0,241,-12,241,-12,376,-17,246,112,0.266015,0.0736302,0.13067,-1.5,0,0,0,2,-0.154575,0.182946,0,0,0,0,-0.327635,0.393959,18060,0,0,0,0,0,0,0,0,0,1,-0.201241
6933,0.722656,0.151367,-6.88672,-0.000292663,0.00219577,0.000137947,-0.0719985,-0.0207049,-2.74276,-3.48212,0.194919,-0.117342,-0.159532,0.18891,-0.332098,0.399574,-2.74276,0,0,241,-12,241,-12,376,-17,246,112,0.269254,0.0734751,0.144253,-1.5,0,0,0,3,-0.159532,0.18891,0,0,0,0,-0.332098,0.399574,18060,0,0,0,0,0,0,0,0,0,1,-0.207801
6948,0.689453,0.118164,5.25293,0.000243646,0.00204866,-0.000852737,-0.0720028,-0.0206778,-2.74278,-3.48212,0.194919,-0.117342,-0.164896,0.195366,-0.336819,0.405522,-2.74278,0,0,241,-12,241,-12,376,-17,246,112,0.272715,0.0733003,0.134302,-1.5,0,0,0,0,-0.164896,0.195366,0,0,0,0,-0.336819,0.405522,18060,0,0,0,0,0,0,0,0,0,1,-0.214902
6964,0.623047,0.0517578,-4.4375,-0.00022891,0.00246578,-0.00141,-0.0720131,-0.0205946,-2.7428,-3.48212,0.194919,-0.117342,-0.170334,0.201916,-0.341499,0.411425,-2.74278,0,0,241,-12,241,-12,376,-17,246,112,0.276188,0.0731064,0.134753,-1.5,0,0,0,1,-0.170334,0.201916,0,0,0,0,-0.341499,0.411425,18060,0,0,0,0,0,0,0,0,0,1,-0.222108
6981,0.589844,0.0185547,3.08301,0.00139985,0.00278894,-0.000915532,-0.0720141,-0.0205631,-2.74281,-3.48212,0.194919,-0.117342,-0.176194,0.208979,-0.346422,0.417649,-2.74281,0,0,241,-12,241,-12,376,-17,246,112,0.279882,0.0728915,0.149577,-1.5,0,0,0,2,-0.176194,0.208979,0,0,0,0,-0.346422,0.417649,18060,0,0,0,0,0,0,0,0,0,1,-0.229877
6996,0.588867,0.0527344,0.344727,0.000616125,0.00188552,-0.0013004,-0.0720153,-0.0205426,-2.74283,-3.48212,0.194919,-0.117342,-0.181432,0.215296,-0.350723,0.4231,-2.74283,0,0,241,-12,241,-12,376,-17,246,112,0.283152,0.0726831,0.163085,-1.5,0,0,0,3,-0.181432,0.215296,0,0,0,0,-0.350723,0.4231,18060,0,0,0,0,0,0,0,0,0,1,-0.236826
7013,0.62207,0.119141,-2.39844,-0.000146811,0.00217887,-0.000750745,-0.072028,-0.0205251,-2.74283,-3.48212,0.194919,-0.117342,-0.187447,0.222557,-0.355557,0.429232,-2.74283,0,0,241,-12,241,-12,376,-17,246,112,0.286873,0.0724276,0.154629,-1.5,0,0,0,0,-0.187447,0.222557,0,0,0,0,-0.355557,0.429232,18060,0,0,0,0,0,0,0,0,0,1,-0.244812
7028,0.655273,0.165039,-2.40527,-0.00125983,0.00241713,-0.000278885,-0.0720557,-0.0204966,-2.74284,-3.48212,0.194919,-0.117342,-0.192822,0.229047,-0.359785,0.434603,-2.74284,0,0,241,-12,241,-12,376,-17,246,112,0.290163,0.07219,0.154983,-1.5,0,0,0,1,-0.192822,0.229047,0,0,0,0,-0.359785,0.434603,18060,0,0,0,0,0,0,0,0,0,1,-0.251952
7044,0.688477,0.175781,0.245117,-0.000656081,0.00121632,-0.000534013,-0.0720705,-0.0204795,-2.74286,-3.48212,0.194919,-0.117342,-0.198625,0.23606,-0.364259,0.440292,-2.74286,0,0,241,-12,241,-12,376,-17,246,112,0.293682,0.071924,0.170021,-1.5,0,0,0,2,-0.198625,0.23606,0,0,0,0,-0.364259,0.440292,18060,0,0,0,0,0,0,0,0,0,1,-0.259667
7061,0.729492,0.113281,-2.56836,-0.000194796,0.00244577,-0.000834563,-0.0721187,-0.0204295,-2.74289,-3.48212,0.194919,-0.117342,-0.2045,0.243165,-0.368696,0.445941,-2.74287,0,0,241,-12,241,-12,376,-17,246,112,0.29721,0.0716444,0.185011,-1.5,0,0,0,3,-0.2045,0.243165,0,0,0,0,-0.368696,0.445941,18060,0,0,0,0,0,0,0,0,0,1,-0.267481
7076,0.729492,0.0800781,-7.30176,0.000385751,0.00304514,1.79348e-06,-0.0721341,-0.020391,-2.7429,-3.48212,0.194919,-0.117342,-0.210444,0.250357,-0.373093,0.45155,-2.74289,0,0,241,-12,241,-12,376,-17,246,112,0.300747,0.0713513,0.178032,-1.5,0,0,0,0,-0.210444,0.250357,0,0,0,0,-0.373093,0.45155,18060,0,0,0,0,0,0,0,0,0,1,-0.275393
7092,0.729492,0.046875,4.97461,1.75728e-05,0.00230534,0.000305893,-0.0721548,-0.0203732,-2.74291,-3.48212,0.194919,-0.117342,-0.216459,0.25764,-0.377451,0.457122,-2.74291,0,0,241,-12,241,-12,376,-17,246,112,0.304296,0.071041,0.177612,-1.5,0,0,0,1,-0.216459,0.25764,0,0,0,0,-0.377451,0.457122,18060,0,0,0,0,0,0,0,0,0,1,-0.283404
7108,0.729492,0.0224609,2.38867,-0.000760711,0.00159953,0.000325046,-0.0721788,-0.020358,-2.7429,-3.48212,0.194919,-0.117342,-0.222544,0.265012,-0.381772,0.462654,-2.7429,0,0,241,-12,241,-12,376,-17,246,112,0.307861,0.0707097,0.192559,-1.5,0,0,0,2,-0.222544,0.265012,0,0,0,0,-0.381772,0.462654,18060,0,0,0,0,0,0,0,0,0,1,-0.291514
7124,0.729492,0.0224609,2.38867,-0.000760711,0.00159953,0.000325046,-0.0721788,-0.020358,-2.7429,-3.48038,0.195212,-0.12205,-0.228696,0.272471,-0.386057,0.468144,-2.7429,0,0,242,-10,242,-10,376,-17,245,112,0.311432,0.0703679,0.20433,-1.5,0,0,0,3,-0.228696,0.272471,0,0,0,0,-0.386057,0.468144,17931,0,0,0,0,0,0,0,0,0,1,-0.299718
7140,0.702148,0.0224609,-5.51953,-0.000608908,0.00208167,-9.5396e-05,-0.0722122,-0.0202945,-2.74291,-3.48038,0.195212,-0.12205,-0.234918,0.280018,-0.390307,0.473595,-2.74291,0,0,242,-10,242,-10,376,-17,245,112,0.31501,0.0700154,0.194138,-1.5,0,0,0,0,-0.234918,0.280018,0,0,0,0,-0.390307,0.473595,17931,0,0,0,0,0,0,0,0,0,1,-0.30802
7156,0.635742,0.0732422,-4.03613,-0.000103409,0.00235645,-0.000328189,-0.0722438,-0.020239,-2.74293,-3.50436,0.192836,-0.107062,-0.241207,0.287653,-0.394517,0.479008,-2.74291,0,0,242,-10,242,-10,376,-17,247,112,0.318601,0.0696452,0.193397,-1.5,0,0,0,1,-0.241207,0.287653,0,0,0,0,-0.394517,0.479008,17931,0,0,0,0,0,0,0,0,0,1,-0.316418
7172,0.602539,0.106445,-0.735352,-0.00035531,0.00160025,-0.00120253,-0.0722562,-0.0202126,-2.74294,-3.50436,0.192836,-0.107062,-0.247563,0.295373,-0.398692,0.484382,-2.74293,0,0,242,-10,242,-10,376,-17,247,112,0.322196,0.0692678,0.208281,-1.5,0,0,0,2,-0.247563,0.295373,0,0,0,0,-0.398692,0.484382,17931,0,0,0,0,0,0,0,0,0,1,-0.324911
7188,0.569336,0.139648,5.17773,0.000525745,0.00170846,-0.000507417,-0.0722663,-0.0201908,-2.74295,-3.50436,0.192836,-0.107062,-0.253985,0.30318,-0.402826,0.48972,-2.74295,0,0,242,-10,242,-10,376,-17,247,112,0.3258,0.0688756,0.223118,-1.5,0,0,0,3,-0.253985,0.30318,0,0,0,0,-0.402826,0.48972,17931,0,0,0,0,0,0,0,0,0,1,-0.333498
7204,0.587891,0.15625,0.0517578,-0.000159676,0.00222486,-0.000367992,-0.072288,-0.0201567,-2.74296,-3.50436,0.192836,-0.107062,-0.260474,0.311071,-0.406924,0.49502,-2.74296,0,0,242,-10,242,-10,376,-17,247,112,0.329417,0.0684656,0.212851,-1.5,0,0,0,0,-0.260474,0.311071,0,0,0,0,-0.406924,0.49502,17931,0,0,0,0,0,0,0,0,0,1,-0.342178
7220,0.587891,0.15625,0.0517578,-0.000159676,0.00222486,-0.000367992,-0.072288,-0.0201567,-2.74296,-3.47963,0.193835,-0.117081,-0.267026,0.319045,-0.410986,0.500281,-2.74296,0,0,242,-10,242,-10,376,-17,245,112,0.333044,0.0680398,0.210596,-1.5,0,0,0,1,-0.267026,0.319045,0,0,0,0,-0.410986,0.500281,18060,0,0,0,0,0,0,0,0,0,1,-0.350949
7235,0.654297,0.135742,-5.74023,-0.000870197,0.00282655,-0.000381341,-0.0723131,-0.0200933,-2.74296,-3.47963,0.193835,-0.117081,-0.273227,0.326596,-0.414761,0.505178,-2.74296,0,0,242,-10,242,-10,376,-17,245,112,0.336451,0.0676309,0.223847,-1.5,0,0,0,2,-0.273227,0.326596,0,0,0,0,-0.414761,0.505178,18060,0,0,0,0,0,0,0,0,0,1,-0.359256
7252,0.654297,0.135742,-5.74023,-0.000870197,0.00282655,-0.000381341,-0.0723131,-0.0200933,-2.74296,-3.47052,0.192851,-0.125222,-0.280325,0.335245,-0.419002,0.510689,-2.74296,0,0,242,-10,242,-10,376,-17,245,112,0.340324,0.06715,0.237057,-1.5,0,0,0,3,-0.280325,0.335245,0,0,0,0,-0.419002,0.510689,18060,0,0,0,0,0,0,0,0,0,1,-0.36877
7267,0.719727,0.0361328,-0.904297,0.000876828,0.00196921,-0.00175037,-0.0723342,-0.0200238,-2.74301,-3.47052,0.192851,-0.125222,-0.286645,0.342951,-0.42271,0.515514,-2.74299,0,0,242,-10,242,-10,376,-17,245,112,0.343742,0.0667233,0.228293,-1.5,0,0,0,0,-0.286645,0.342951,0,0,0,0,-0.42271,0.515514,18060,0,0,0,0,0,0,0,0,0,1,-0.377246
7282,0.719727,0.0361328,-0.904297,0.000876828,0.00196921,-0.00175037,-0.0723342,-0.0200238,-2.74301,-3.47052,0.192851,-0.125222,-0.293021,0.35073,-0.426387,0.520307,-2.74301,0,0,242,-10,242,-10,376,-17,245,112,0.347169,0.0662828,0.227325,-1.5,0,0,0,1,-0.293021,0.35073,0,0,0,0,-0.426387,0.520307,18060,0,0,0,0,0,0,0,0,0,1,-0.385803
7298,0.65332,0.078125,6.44336,-0.000594653,0.00243434,-0.000679573,-0.0723731,-0.0199738,-2.74304,-3.47052,0.192851,-0.125222,-0.299883,0.359107,-0.430277,0.525381,-2.74301,0,0,242,-10,242,-10,376,-17,245,112,0.350839,0.0657926,0.242074,-1.5,0,0,0,2,-0.299883,0.359107,0,0,0,0,-0.430277,0.525381,18060,0,0,0,0,0,0,0,0,0,1,-0.395017
7314,0.620117,0.111328,-3.08105,-0.000500634,0.00227298,-0.00012523,-0.0723983,-0.019946,-2.74304,-3.47052,0.192851,-0.125222,-0.306807,0.367564,-0.43413,0.530425,-2.74304,0,0,242,-10,242,-10,376,-17,245,112,0.354511,0.0652991,0.253647,-1.5,0,0,0,3,-0.306807,0.367564,0,0,0,0,-0.43413,0.530425,18060,0,0,0,0,0,0,0,0,0,1,-0.404321
7330,0.620117,0.111328,-3.08105,-0.000500634,0.00227298,-0.00012523,-0.0723983,-0.019946,-2.74304,-3.47052,0.192851,-0.125222,-0.313792,0.376102,-0.43795,0.535433,-2.74304,0,0,242,-10,242,-10,376,-17,245,112,0.358199,0.0647822,0.246393,-1.5,0,0,0,0,-0.313792,0.376102,0,0,0,0,-0.43795,0.535433,18060,0,0,0,0,0,0,0,0,0,1,-0.413712
7346,0.553711,0.162109,-0.350586,-0.000729561,0.0023867,-0.000865268,-0.072418,-0.0198966,-2.74307,-3.47052,0.192851,-0.125222,-0.320838,0.38472,-0.441737,0.540403,-2.74307,0,0,242,-10,242,-10,376,-17,245,112,0.36189,0.0642613,0.246665,-1.5,0,0,0,0,-0.320838,0.38472,0,0,0,0,-0.441737,0.540403,18060,0,0,0,0,0,0,0,0,0,1,-0.423192
7362,0.617188,0.162109,-4.13184,0.000363865,0.00254806,-0.00161876,-0.0724226,-0.0198649,-2.74309,-3.47052,0.192851,-0.125222,-0.327944,0.393417,-0.445489,0.545339,-2.74309,0,0,242,-10,242,-10,376,-17,245,112,0.365592,0.063725,0.238863,-1.5,0,0,0,0,-0.327944,0.393417,0,0,0,0,-0.445489,0.545339,18060,0,0,0,0,0,0,0,0,0,1,-0.432758
7378,0.683594,0.162109,-2.68164,0.00129822,0.00250142,-0.000752978,-0.0724165,-0.0198384,-2.74309,-3.47052,0.192851,-0.125222,-0.335111,0.402194,-0.449207,0.550237,-2.74309,0,0,242,-10,242,-10,376,-17,245,112,0.369304,0.0631727,0.231303,-1.5,0,0,0,0,-0.335111,0.402194,0,0,0,0,-0.449207,0.550237,18060,0,0,0,0,0,0,0,0,0,1,-0.442413
7394,0.711914,0.162109,4.97266,0.000870177,0.00175407,-0.00129305,-0.0724396,-0.0198028,-2.74311,-3.47052,0.192851,-0.125222,-0.342336,0.411047,-0.452892,0.555096,-2.74309,0,0,242,-10,242,-10,376,-17,245,112,0.373025,0.0626057,0.223987,-1.5,0,0,0,0,-0.342336,0.411047,0,0,0,0,-0.452892,0.555096,18060,0,0,0,0,0,0,0,0,0,1,-0.452152
7410,0.711914,0.139648,-1.37598,-0.00164355,0.00220004,-0.00102039,-0.0724651,-0.0197809,-2.74312,-3.47903,0.195656,-0.120289,-0.349619,0.419978,-0.456544,0.559923,-2.74312,0,0,242,-10,242,-10,376,-17,245,112,0.376748,0.0620364,0.216902,-1.5,0,0,0,0,-0.349619,0.419978,0,0,0,0,-0.456544,0.559923,17931,0,0,0,0,0,0,0,0,0,1,-0.461975
7425,0.711914,0.106445,5.42676,-0.00120319,0.00130264,-0.00163528,-0.0724816,-0.0197536,-2.74314,-3.47903,0.195656,-0.120289,-0.3565,0.42842,-0.459938,0.564418,-2.74314,0,0,242,-10,242,-10,376,-17,245,112,0.380249,0.0614882,0.210464,-1.5,0,0,0,0,-0.3565,0.42842,0,0,0,0,-0.459938,0.564418,17931,0,0,0,0,0,0,0,0,0,1,-0.471262
7441,0.711914,0.0732422,-3.87598,0.000237818,0.00246298,-0.000188991,-0.072487,-0.0197209,-2.74316,-3.47903,0.195656,-0.120289,-0.363897,0.437501,-0.463528,0.569181,-2.74316,0,0,242,-10,242,-10,376,-17,245,112,0.383991,0.060892,0.203803,-1.5,0,0,0,0,-0.363897,0.437501,0,0,0,0,-0.463528,0.569181,17931,0,0,0,0,0,0,0,0,0,1,-0.481251
7458,0.711914,0.0732422,-3.87598,0.000237818,0.00246298,-0.000188991,-0.072487,-0.0197209,-2.74316,-3.47903,0.195656,-0.120289,-0.371351,0.446657,-0.467086,0.573908,-2.74316,0,0,242,-10,242,-10,376,-17,245,112,0.387746,0.0602764,0.197353,-1.5,0,0,0,0,-0.371351,0.446657,0,0,0,0,-0.467086,0.573908,17931,0,0,0,0,0,0,0,0,0,1,-0.491323
7473,0.711914,0.00878906,0.338867,0.000556874,0.00268882,-0.00133152,-0.0724879,-0.0196707,-2.74318,-3.47903,0.195656,-0.120289,-0.37886,0.455888,-0.470613,0.578597,-2.74318,0,0,242,-10,242,-10,376,-17,245,112,0.391502,0.0596601,0.19111,-1.5,0,0,0,0,-0.37886,0.455888,0,0,0,0,-0.470613,0.578597,17931,0,0,0,0,0,0,0,0,0,1,-0.501477
7488,0.711914,0.0400391,-2.28906,0.000835026,0.0015189,-0.000578471,-0.0725194,-0.0196264,-2.74319,-3.49729,0.199348,-0.10789,-0.385951,0.464609,-0.473889,0.582962,-2.74318,0,0,242,-10,242,-10,376,-17,245,112,0.395036,0.0590612,0.185438,-1.5,0,0,0,0,-0.385951,0.464609,0,0,0,0,-0.473889,0.582962,17802,0,0,0,0,0,0,0,0,0,1,-0.51107
7505,0.711914,0.0732422,-1.50977,0.000869303,0.00198649,-0.000721148,-0.072518,-0.0195987,-2.7432,-3.49729,0.199348,-0.10789,-0.39357,0.473985,-0.477355,0.587585,-2.74319,0,0,242,-10,242,-10,376,-17,245,112,0.398814,0.0584116,0.179569,-1.5,0,0,0,0,-0.39357,0.473985,0,0,0,0,-0.477355,0.587585,17802,0,0,0,0,0,0,0,0,0,1,-0.521383
7520,0.711914,0.0732422,-1.50977,0.000869303,0.00198649,-0.000721148,-0.072518,-0.0195987,-2.7432,-3.49729,0.199348,-0.10789,-0.401244,0.483435,-0.480787,0.592177,-2.7432,0,0,242,-10,242,-10,376,-17,245,112,0.402595,0.0577563,0.173886,-1.5,0,0,0,0,-0.401244,0.483435,0,0,0,0,-0.480787,0.592177,17802,0,0,0,0,0,0,0,0,0,1,-0.531778
7536,0.711914,0.139648,-6.64062,0.00119712,0.00267906,0.000140984,-0.0725262,-0.0195483,-2.74322,-3.49729,0.199348,-0.10789,-0.408972,0.492957,-0.484189,0.596734,-2.74322,0,0,242,-10,242,-10,376,-17,245,112,0.406385,0.0570895,0.168382,-1.5,0,0,0,0,-0.408972,0.492957,0,0,0,0,-0.484189,0.596734,17802,0,0,0,0,0,0,0,0,0,1,-0.542253
7553,0.711914,0.139648,-6.64062,0.00119712,0.00267906,0.000140984,-0.0725262,-0.0195483,-2.74322,-3.47381,0.195253,-0.123877,-0.417243,0.503155,-0.487769,0.601539,-2.74322,0,0,242,-10,242,-10,376,-17,245,112,0.410424,0.0563606,0.162725,-1.5,0,0,0,0,-0.417243,0.503155,0,0,0,0,-0.487769,0.601539,17931,0,0,0,0,0,0,0,0,0,1,-0.55347
7569,0.711914,0.180664,-1.5459,0.000224877,0.00160559,-0.000578712,-0.0725377,-0.0194992,-2.74324,-3.47381,0.195253,-0.123877,-0.42459,0.512219,-0.4909,0.605746,-2.74324,0,0,242,-10,242,-10,376,-17,245,112,0.413989,0.0557166,0.157896,-1.5,0,0,0,0,-0.42459,0.512219,0,0,0,0,-0.4909,0.605746,17931,0,0,0,0,0,0,0,0,0,1,-0.56344
7584,0.711914,0.114258,6.56641,0.000997579,0.00168809,-0.00146391,-0.0725452,-0.0194626,-2.74328,-3.4839,0.196881,-0.110919,-0.432479,0.521957,-0.49421,0.610202,-2.74324,0,0,242,-10,242,-10,377,-18,245,112,0.417805,0.0550084,0.152898,-1.5,0,0,0,0,-0.432479,0.521957,0,0,0,0,-0.49421,0.610202,17940,0,0,0,0,0,0,0,0,0,1,-0.574153
7600,0.711914,0.0810547,-6.34375,0.000740644,0.00169903,-0.00138196,-0.072542,-0.0194508,-2.7433,-3.4839,0.196881,-0.110919,-0.440421,0.531767,-0.497491,0.614625,-2.74328,0,0,242,-10,242,-10,377,-18,245,112,0.42162,0.0543053,0.148059,-1.5,0,0,0,0,-0.440421,0.531767,0,0,0,0,-0.497491,0.614625,17940,0,0,0,0,0,0,0,0,0,1,-0.584944
7616,0.711914,0.0810547,-6.34375,0.000740644,0.00169903,-0.00138196,-0.072542,-0.0194508,-2.7433,-3.47825,0.195816,-0.119216,-0.448415,0.541647,-0.500741,0.619014,-2.7433,0,0,242,-10,242,-10,376,-17,245,112,0.425448,0.0535813,0.143373,-1.5,0,0,0,0,-0.448415,0.541647,0,0,0,0,-0.500741,0.619014,17931,0,0,0,0,0,0,0,0,0,1,-0.595812
7632,0.711914,0.0390625,-6.34863,-0.000886491,0.00199095,-0.000765079,-0.0725682,-0.0193957,-2.74332,-3.47825,0.195816,-0.119216,-0.455955,0.550972,-0.503762,0.623098,-2.74332,0,0,242,-10,242,-10,376,-17,245,112,0.42904,0.052897,0.139117,-1.5,0,0,0,0,-0.455955,0.550972,0,0,0,0,-0.503762,0.623098,17931,0,0,0,0,0,0,0,0,0,1,-0.606069
7648,0.711914,0.0390625,-2.58398,-1.51067e-06,0.00227202,-0.00222446,-0.07258,-0.0193743,-2.74335,-3.47825,0.195816,-0.119216,-0.464558,0.561617,-0.507155,0.627699,-2.74335,0,0,242,-10,242,-10,376,-17,245,112,0.433122,0.052108,0.134441,-1.5,0,0,0,0,-0.464558,0.561617,0,0,0,0,-0.507155,0.627699,17931,0,0,0,0,0,0,0,0,0,1,-0.617779
7663,0.711914,0.0390625,3.23926,0.000153931,0.00143307,-0.000255246,-0.0725837,-0.0193515,-2.74335,-3.47825,0.195816,-0.119216,-0.472193,0.57107,-0.510119,0.631727,-2.74335,0,0,242,-10,242,-10,376,-17,245,112,0.436733,0.0513948,0.130452,-1.5,0,0,0,0,-0.472193,0.57107,0,0,0,0,-0.510119,0.631727,17931,0,0,0,0,0,0,0,0,0,1,-0.628177
7678,0.711914,0.0390625,-4.37012,0.0014557,0.00230941,-0.00108361,-0.0725831,-0.0193327,-2.74337,-3.47825,0.195816,-0.119216,-0.479873,0.580585,-0.51306,0.635726,-2.74337,0,0,242,-10,242,-10,376,-17,245,112,0.440347,0.0506778,0.12658,-1.5,0,0,0,0,-0.479873,0.580585,0,0,0,0,-0.51306,0.635726,17931,0,0,0,0,0,0,0,0,0,1,-0.638643
7694,0.711914,0.0390625,4.94922,0.000820666,0.00241079,-0.000632182,-0.0725735,-0.0193073,-2.74338,-3.47825,0.195816,-0.119216,-0.488115,0.590801,-0.516169,0.639961,-2.74338,0,0,242,-10,242,-10,376,-17,245,112,0.444212,0.0498971,0.122574,-1.5,0,0,0,0,-0.488115,0.590801,0,0,0,0,-0.516169,0.639961,17931,0,0,0,0,0,0,0,0,0,1,-0.649881
7710,0.711914,0.0390625,2.62695,-0.000955507,0.00235604,4.27121e-05,-0.0725908,-0.0192866,-2.74339,-3.48322,0.189849,-0.116014,-0.496406,0.601085,-0.51925,0.644164,-2.74339,0,0,242,-10,242,-10,376,-17,247,112,0.448083,0.0491087,0.118695,-1.5,0,0,0,0,-0.496406,0.601085,0,0,0,0,-0.51925,0.644164,18060,0,0,0,0,0,0,0,0,0,1,-0.661193
7726,0.672852,0.0390625,5.44043,-0.000422567,0.00344299,-0.00148307,-0.0726099,-0.0192472,-2.74343,-3.48322,0.189849,-0.116014,-0.504746,0.611435,-0.522304,0.648336,-2.74343,0,0,242,-10,242,-10,376,-17,247,112,0.451955,0.0483236,0.114938,-1.5,0,0,0,0,-0.504746,0.611435,0,0,0,0,-0.522304,0.648336,18060,0,0,0,0,0,0,0,0,0,1,-0.672579
7742,0.639648,0.0390625,-4.59766,0.000270469,0.00275377,-0.000319802,-0.0726218,-0.0192176,-2.74342,-3.48491,0.192654,-0.110782,-0.513135,0.621852,-0.525329,0.65248,-2.74342,0,0,242,-10,242,-10,376,-17,246,112,0.455846,0.047505,0.1113,-1.5,0,0,0,0,-0.513135,0.621852,0,0,0,0,-0.525329,0.65248,18060,0,0,0,0,0,0,0,0,0,1,-0.684037
7758,0.606445,0.0390625,4.88477,0.000459941,0.00280867,-0.00142585,-0.0726211,-0.0191902,-2.74346,-3.48491,0.192654,-0.110782,-0.521571,0.632334,-0.528325,0.656594,-2.74346,0,0,242,-10,242,-10,376,-17,246,112,0.459734,0.0466941,0.10778,-1.5,0,0,0,0,-0.521571,0.632334,0,0,0,0,-0.528325,0.656594,18060,0,0,0,0,0,0,0,0,0,1,-0.695567
7775,0.59668,0.0390625,2.91406,0.00117904,0.000364653,-0.000962372,-0.0726296,-0.0191913,-2.74347,-3.48491,0.192654,-0.110782,-0.530055,0.642882,-0.531296,0.660677,-2.74347,0,0,242,-10,242,-10,376,-17,246,112,0.463633,0.0458653,0.104368,-1.5,0,0,0,0,-0.530055,0.642882,0,0,0,0,-0.531296,0.660677,18060,0,0,0,0,0,0,0,0,0,1,-0.707171
7791,0.59668,0.0390625,2.91406,0.00117904,0.000364653,-0.000962372,-0.0726296,-0.0191913,-2.74347,-3.47983,0.187918,-0.110757,-0.538587,0.653496,-0.534242,0.664729,-2.74347,0,0,245,-12,245,-12,377,-18,245,112,0.467543,0.0450202,0.101065,-1.5,0,0,0,0,-0.538587,0.653496,0,0,0,0,-0.534242,0.664729,17680,0,0,0,0,0,0,0,0,0,1,-0.718845
7806,0.688477,0.0869141,-4.30957,-0.000424135,0.00141247,-3.70859e-05,-0.0726822,-0.0191174,-2.74352,-3.47983,0.187918,-0.110757,-0.547165,0.664174,-0.537163,0.668751,-2.74351,0,0,245,-12,245,-12,377,-18,245,112,0.471451,0.0441835,0.0978665,-1.5,0,0,0,0,-0.547165,0.664174,0,0,0,0,-0.537163,0.668751,17680,0,0,0,0,0,0,0,0,0,1,-0.730591
7822,0.72168,0.120117,6.69434,0.000426194,0.00252077,-0.000616474,-0.0726866,-0.0190852,-2.74353,-3.51776,0.188021,-0.0916465,-0.555789,0.674915,-0.540054,0.672749,-2.74352,0,0,246,-12,246,-12,376,-17,246,112,0.475374,0.0433201,0.094771,-1.5,0,0,0,0,-0.555789,0.674915,0,0,0,0,-0.540054,0.672749,17415,0,0,0,0,0,0,0,0,0,1,-0.742406
7837,0.722656,0.15332,5.44141,-0.000657913,0.00128585,-0.000315107,-0.072694,-0.0190735,-2.74353,-3.51776,0.188021,-0.0916465,-0.563916,0.685042,-0.54274,0.676471,-2.74353,0,0,246,-12,246,-12,376,-17,246,112,0.479056,0.0425058,0.0919581,-1.5,0,0,0,0,-0.563916,0.685042,0,0,0,0,-0.54274,0.676471,17415,0,0,0,0,0,0,0,0,0,1,-0.753546
7854,0.722656,0.15332,5.44141,-0.000657913,0.00128585,-0.000315107,-0.072694,-0.0190735,-2.74353,-3.5175,0.188111,-0.0913163,-0.573177,0.69659,-0.545759,0.68066,-2.74353,0,0,246,-12,246,-12,376,-17,246,112,0.483241,0.0415647,0.0888666,-1.5,0,0,0,0,-0.573177,0.69659,0,0,0,0,-0.545759,0.68066,17415,0,0,0,0,0,0,0,0,0,1,-0.766249
7869,0.722656,0.170898,5.92383,0.00025595,0.00152639,-0.0014381,-0.0727205,-0.019028,-2.74356,-3.5175,0.188111,-0.0913163,-0.581389,0.706835,-0.548399,0.684328,-2.74356,0,0,246,-12,246,-12,376,-17,246,112,0.486933,0.0407395,0.0862289,-1.5,0,0,0,0,-0.581389,0.706835,0,0,0,0,-0.548399,0.684328,17415,0,0,0,0,0,0,0,0,0,1,-0.777518
7885,0.722656,0.170898,5.92383,0.00025595,0.00152639,-0.0014381,-0.0727205,-0.019028,-2.74356,-3.50132,0.193639,-0.103035,-0.590192,0.717824,-0.55119,0.688214,-2.74356,0,0,242,-10,242,-10,376,-17,247,112,0.490885,0.0398349,0.0835015,-1.5,0,0,0,0,-0.590192,0.717824,0,0,0,0,-0.55119,0.688214,17931,0,0,0,0,0,0,0,0,0,1,-0.789606
7901,0.722656,0.170898,1.80176,0.000426584,0.00300106,-0.00119527,-0.0727295,-0.018975,-2.74358,-3.50132,0.193639,-0.103035,-0.599039,0.728875,-0.553955,0.692071,-2.74358,0,0,242,-10,242,-10,376,-17,247,112,0.494838,0.038932,0.0808603,-1.5,0,0,0,0,-0.599039,0.728875,0,0,0,0,-0.553955,0.692071,17931,0,0,0,0,0,0,0,0,0,1,-0.801762
7917,0.722656,0.170898,0.974609,-3.41581e-05,0.00346715,-0.00121135,-0.072743,-0.018897,-2.74363,-3.49383,0.195408,-0.106206,-0.607931,0.739988,-0.556695,0.6959,-2.74358,0,0,242,-10,242,-10,376,-17,246,112,0.498804,0.0380078,0.0783011,-1.5,0,0,0,0,-0.607931,0.739988,0,0,0,0,-0.556695,0.6959,17931,0,0,0,0,0,0,0,0,0,1,-0.813987
7933,0.722656,0.170898,-6.66504,0.000159242,0.00159012,-0.00090234,-0.0727569,-0.0188814,-2.74364,-3.49383,0.195408,-0.106206,-0.616866,0.751161,-0.559406,0.699703,-2.74363,0,0,242,-10,242,-10,376,-17,246,112,0.502765,0.0370969,0.0758245,-1.5,0,0,0,0,-0.616866,0.751161,0,0,0,0,-0.559406,0.699703,17931,0,0,0,0,0,0,0,0,0,1,-0.826277
7949,0.722656,0.170898,1.28809,-0.00017884,0.00277318,-0.00125922,-0.0727672,-0.0188587,-2.74366,-3.49247,0.190483,-0.110577,-0.625844,0.762395,-0.562089,0.703482,-2.74366,0,0,245,-12,245,-12,375,-17,246,114,0.506739,0.0361639,0.0734261,-1.5,0,0,0,0,-0.625844,0.762395,0,0,0,0,-0.562089,0.703482,17816,0,0,0,0,0,0,0,0,0,1,-0.838634
7965,0.722656,0.130859,-2.85059,0.00114057,0.00302061,-0.00169892,-0.072773,-0.0188194,-2.74367,-3.49247,0.190483,-0.110577,-0.634865,0.773689,-0.564747,0.707234,-2.74367,0,0,245,-12,245,-12,375,-17,246,114,0.51072,0.0352191,0.0711037,-1.5,0,0,0,0,-0.634865,0.773689,0,0,0,0,-0.564747,0.707234,17816,0,0,0,0,0,0,0,0,0,1,-0.851058
7981,0.722656,0.0644531,-4.34961,-0.000429017,0.00312357,-0.00112417,-0.0727842,-0.0187866,-2.74369,-3.49247,0.190483,-0.110577,-0.643927,0.785043,-0.567378,0.710959,-2.74369,0,0,245,-12,245,-12,375,-17,246,114,0.514709,0.0342636,0.0688546,-1.5,0,0,0,0,-0.643927,0.785043,0,0,0,0,-0.567378,0.710959,17816,0,0,0,0,0,0,0,0,0,1,-0.863547
7997,0.722656,0.0195312,-4.07031,-0.000662397,0.0021376,-0.000582696,-0.0728066,-0.0187714,-2.74371,-3.49247,0.190483,-0.110577,-0.653032,0.796456,-0.569985,0.71466,-2.74371,0,0,245,-12,245,-12,375,-17,246,114,0.518704,0.0332993,0.0666768,-1.5,0,0,0,0,-0.653032,0.796456,0,0,0,0,-0.569985,0.71466,17816,0,0,0,0,0,0,0,0,0,1,-0.876102
8014,0.722656,0.0195312,-3.09473,-0.00112363,0.00183717,0.000146191,-0.0728304,-0.0187528,-2.74371,-3.49063,0.186314,-0.110458,-0.662752,0.808648,-0.572731,0.718564,-2.74371,0,0,246,-12,246,-12,375,-17,246,114,0.52296,0.0322557,0.0644368,-1.5,0,0,0,0,-0.662752,0.808648,0,0,0,0,-0.572731,0.718564,17816,0,0,0,0,0,0,0,0,0,1,-0.889513
8029,0.722656,0.0839844,-4.77051,0.00126525,0.00107503,-0.00106594,-0.0728339,-0.0187277,-2.74374,-3.49063,0.186314,-0.110458,-0.671366,0.81946,-0.575134,0.721984,-2.74371,0,0,246,-12,246,-12,375,-17,246,114,0.526722,0.0313262,0.0625242,-1.5,0,0,0,0,-0.671366,0.81946,0,0,0,0,-0.575134,0.721984,17816,0,0,0,0,0,0,0,0,0,1,-0.901406
8046,0.71875,0.117188,5.61816,-0.000542578,0.00272765,0.000206991,-0.0728552,-0.0187011,-2.74375,-3.52858,0.199533,-0.0860023,-0.681174,0.831777,-0.577834,0.725832,-2.74375,0,0,245,-12,245,-12,376,-17,245,112,0.530985,0.0302842,0.0604223,-1.5,0,0,0,0,-0.681174,0.831777,0,0,0,0,-0.577834,0.725832,17157,0,0,0,0,0,0,0,0,0,1,-0.914955
8061,0.685547,0.150391,4.19531,0.000357944,0.0024112,-5.6657e-05,-0.0728692,-0.0186698,-2.74375,-3.52858,0.199533,-0.0860023,-0.689864,0.842696,-0.580191,0.729204,-2.74375,0,0,245,-12,245,-12,376,-17,245,112,0.534758,0.0293386,0.0586298,-1.5,0,0,0,0,-0.689864,0.842696,0,0,0,0,-0.580191,0.729204,17157,0,0,0,0,0,0,0,0,0,1,-0.926966
8077,0.652344,0.170898,2.72949,-0.000891772,0.00194249,0.000551696,-0.0728949,-0.0186464,-2.74376,-3.51005,0.194403,-0.0933334,-0.699173,0.854401,-0.582684,0.732779,-2.74376,0,0,245,-12,245,-12,376,-17,245,112,0.53879,0.0283215,0.0567742,-1.5,0,0,0,0,-0.699173,0.854401,0,0,0,0,-0.582684,0.732779,17415,0,0,0,0,0,0,0,0,0,1,-0.939841
8093,0.652344,0.170898,2.72949,-0.000891772,0.00194249,0.000551696,-0.0728949,-0.0186464,-2.74376,-3.51005,0.194403,-0.0933334,-0.708521,0.866162,-0.585155,0.736329,-2.74376,0,0,245,-12,245,-12,376,-17,245,112,0.542829,0.0272943,0.055089,-1.5,0,0,0,0,-0.708521,0.866162,0,0,0,0,-0.585155,0.736329,17415,0,0,0,0,0,0,0,0,0,1,-0.952778
8109,0.574219,0.15918,-2.60938,-0.00102215,0.00251594,-0.00136259,-0.07293,-0.0185766,-2.7438,-3.54593,0.19846,-0.0818803,-0.717909,0.877979,-0.587604,0.739852,-2.74378,0,0,246,-10,246,-10,376,-17,245,112,0.54687,0.0262702,0.0533466,-1.5,0,0,0,0,-0.717909,0.877979,0,0,0,0,-0.587604,0.739852,17157,0,0,0,0,0,0,0,0,0,1,-0.965777
8125,0.583984,0.125977,0.287109,-0.000211101,0.00123226,-0.0016036,-0.0729403,-0.0185642,-2.74382,-3.54593,0.19846,-0.0818803,-0.727335,0.889852,-0.590028,0.743352,-2.7438,0,0,246,-10,246,-10,376,-17,245,112,0.550918,0.0252349,0.0516592,-1.5,0,0,0,0,-0.727335,0.889852,0,0,0,0,-0.590028,0.743352,17157,0,0,0,0,0,0,0,0,0,1,-0.978838
8141,0.617188,0.0927734,4.25195,-3.20566e-05,0.00223829,-0.000346614,-0.0729348,-0.018542,-2.74382,-3.54593,0.19846,-0.0818803,-0.736801,0.901783,-0.592431,0.74683,-2.74382,0,0,246,-10,246,-10,376,-17,245,112,0.554973,0.0241935,0.0500242,-1.5,0,0,0,0,-0.736801,0.901783,0,0,0,0,-0.592431,0.74683,17157,0,0,0,0,0,0,0,0,0,1,-0.991961
8157,0.650391,0.0595703,-4.58691,0.001402,0.00121264,0.000150906,-0.0729269,-0.0185267,-2.74382,-3.52409,0.195281,-0.0867022,-0.746304,0.913767,-0.59481,0.750279,-2.74382,0,0,246,-12,246,-12,375,-17,245,112,0.556709,0.0241108,0.048442,-1.5,0,0,0,0,-0.746304,0.913767,0,0,0,0,-0.59481,0.750279,17415,0,0,0,0,0,0,0,0,0,1,-1
8173,0.683594,0.0263672,2.61426,-0.000304178,0.00232233,-0.0006591,-0.0729447,-0.0185013,-2.74384,-3.52409,0.195281,-0.0867022,-0.755845,0.925806,-0.597168,0.753703,-2.74384,0,0,246,-12,246,-12,375,-17,245,112,0.556934,0.0246645,0.0469097,-1.5,0,0,0,0,-0.755845,0.925806,0,0,0,0,-0.597168,0.753703,17415,0,0,0,0,0,0,0,0,0,1,-1
8189,0.716797,0,0.529297,-0.00101201,0.00225456,-0.00112231,-0.0729661,-0.0184681,-2.74386,-3.49863,0.187088,-0.105617,-0.765424,0.9379,-0.599503,0.757104,-2.74386,0,0,245,-10,245,-10,376,-17,246,112,0.557155,0.025216,0.045426,-1.5,0,0,0,0,-0.765424,0.9379,0,0,0,0,-0.599503,0.757104,17673,0,0,0,0,0,0,0,0,0,1,-1
8205,0.744141,0.0234375,-1.0459,-0.00107344,0.000942894,-0.000248703,-0.072984,-0.0184597,-2.74387,-3.49863,0.187088,-0.105617,-0.774437,0.949288,-0.601673,0.760272,-2.74387,0,0,245,-10,245,-10,376,-17,246,112,0.557364,0.0257188,0.0440777,-1.5,0,0,0,0,-0.774437,0.949288,0,0,0,0,-0.601673,0.760272,17673,0,0,0,0,0,0,0,0,0,1,-1
8220,0.714844,0.0898438,4.94238,-5.8732e-06,0.000826474,-0.00145669,-0.0730022,-0.0184325,-2.74392,-3.47561,0.194919,-0.111715,-0.784088,0.961486,-0.60397,0.763627,-2.74387,0,0,242,-10,242,-10,376,-17,245,112,0.557587,0.0262483,0.0426835,-1.5,0,0,0,0,-0.784088,0.961486,0,0,0,0,-0.60397,0.763627,18060,0,0,0,0,0,0,0,0,0,1,-1
8237,0.681641,0.123047,6.32812,0.000384728,0.00290082,-0.00119107,-0.0730003,-0.018402,-2.74394,-3.47561,0.194919,-0.111715,-0.793775,0.973739,-0.606247,0.766959,-2.74392,0,0,242,-10,242,-10,376,-17,245,112,0.557798,0.0267999,0.0413326,-1.5,0,0,0,0,-0.793775,0.973739,0,0,0,0,-0.606247,0.766959,18060,0,0,0,0,0,0,0,0,0,1,-1
8251,0.681641,0.123047,6.32812,0.000384728,0.00290082,-0.00119107,-0.0730003,-0.018402,-2.74394,-3.48207,0.188327,-0.112977,-0.802889,0.985274,-0.60836,0.770061,-2.74394,0,0,245,-12,245,-12,375,-17,246,114,0.557997,0.0273008,0.0401057,-1.5,0,0,0,0,-0.802889,0.985274,0,0,0,0,-0.60836,0.770061,17947,0,0,0,0,0,0,0,0,0,1,-1
8266,0.615234,0.169922,0.370117,-0.00208352,0.00222435,-0.000404272,-0.0730358,-0.0183594,-2.74397,-3.48207,0.188327,-0.112977,-0.812035,0.996854,-0.610456,0.773141,-2.74397,0,0,245,-12,245,-12,375,-17,246,114,0.558195,0.0277971,0.0389153,-1.5,0,0,0,0,-0.812035,0.996854,0,0,0,0,-0.610456,0.773141,17947,0,0,0,0,0,0,0,0,0,1,-1
8282,0.615234,0.169922,0.370117,-0.00208352,0.00222435,-0.000404272,-0.0730358,-0.0183594,-2.74397,-3.52854,0.194779,-0.0908906,-0.821825,1.00926,-0.61267,0.776407,-2.74397,0,0,246,-12,246,-12,376,-17,246,112,0.55841,0.0283076,0.0377603,-1.5,0,0,0,0,-0.821825,1.00926,0,0,0,0,-0.61267,0.776407,17028,0,0,0,0,0,0,0,0,0,1,-1
8298,0.592773,0.169922,0.551758,-7.80707e-07,0.00256275,-9.31752e-06,-0.0730547,-0.0183105,-2.74398,-3.52854,0.194779,-0.0908906,-0.83165,1.02171,-0.614865,0.77965,-2.74398,0,0,246,-12,246,-12,376,-17,246,112,0.558619,0.028822,0.0365659,-1.5,0,0,0,0,-0.83165,1.02171,0,0,0,0,-0.614865,0.77965,17028,0,0,0,0,0,0,0,0,0,1,-1
8314,0.592773,0.169922,-4.44727,0.001436,0.00210229,-0.00100702,-0.073049,-0.0183021,-2.74399,-3.52854,0.194779,-0.0908906,-0.841511,1.03422,-0.617038,0.782871,-2.74399,0,0,246,-12,246,-12,376,-17,246,112,0.558828,0.0293275,0.0354086,-1.5,0,0,0,0,-0.841511,1.03422,0,0,0,0,-0.617038,0.782871,17028,0,0,0,0,0,0,0,0,0,1,-1
8330,0.592773,0.169922,-7.32422,-0.000291439,0.00202179,-0.000462669,-0.0730598,-0.0182795,-2.744,-3.52854,0.194779,-0.0908906,-0.851405,1.04678,-0.619191,0.786067,-2.744,0,0,246,-12,246,-12,376,-17,246,112,0.559033,0.0298319,0.0342886,-1.5,0,0,0,0,-0.851405,1.04678,0,0,0,0,-0.619191,0.786067,17028,0,0,0,0,0,0,0,0,0,1,-1
8355,0.592773,0.141602,-4.43457,-0.000924979,0.00155361,0.0001876,-0.0730767,-0.0182424,-2.744,-3.50743,0.188322,-0.0963872,-0.866947,1.06652,-0.622524,0.791023,-2.744,0,0,245,-10,245,-10,376,-17,246,112,0.559358,0.0305952,0.032596,-1.5,0,0,0,0,-0.866947,1.06652,0,0,0,0,-0.622524,0.791023,17673,0,0,0,0,0,0,0,0,0,1,-1
8371,0.592773,0.0751953,-7.34473,-0.000862396,0.00150684,-0.00155492,-0.0730885,-0.0182006,-2.74403,-3.50743,0.188322,-0.0963872,-0.87693,1.07921,-0.624628,0.794161,-2.744,0,0,245,-10,245,-10,376,-17,246,112,0.559561,0.0310802,0.0315644,-1.5,0,0,0,0,-0.87693,1.07921,0,0,0,0,-0.624628,0.794161,17673,0,0,0,0,0,0,0,0,0,1,-1
8386,0.592773,0.0576172,3.91895,0.000264572,0.00274184,-0.000392333,-0.0730957,-0.0181775,-2.74403,-3.50743,0.188322,-0.0963872,-0.886318,1.09115,-0.626582,0.797082,-2.74403,0,0,245,-10,245,-10,376,-17,246,112,0.559743,0.0315496,0.0306275,-1.5,0,0,0,0,-0.886318,1.09115,0,0,0,0,-0.626582,0.797082,17673,0,0,0,0,0,0,0,0,0,1,-1
8402,0.592773,0.0576172,6.08398,-0.000842054,0.00193984,-0.000850029,-0.0731176,-0.0181594,-2.74404,-3.50743,0.188322,-0.0963872,-0.896364,1.10394,-0.628646,0.800177,-2.74403,0,0,245,-10,245,-10,376,-17,246,112,0.559942,0.0320271,0.0296587,-1.5,0,0,0,0,-0.896364,1.10394,0,0,0,0,-0.628646,0.800177,17673,0,0,0,0,0,0,0,0,0,1,-1
8417,0.592773,0.0576172,-7.20508,-0.00024637,0.00269043,-0.000680389,-0.0731245,-0.0181315,-2.74406,-3.50743,0.188322,-0.0963872,-0.905813,1.11597,-0.630564,0.80306,-2.74404,0,0,245,-10,245,-10,376,-17,246,112,0.560127,0.0324712,0.0287784,-1.5,0,0,0,0,-0.905813,1.11597,0,0,0,0,-0.630564,0.80306,17673,0,0,0,0,0,0,0,0,0,1,-1
8432,0.592773,0.0576172,1.90527,-0.000698609,0.00301482,-0.00147976,-0.0731401,-0.0180978,-2.74407,-3.50743,0.188322,-0.0963872,-0.915289,1.12804,-0.632463,0.805927,-2.74407,0,0,245,-10,245,-10,376,-17,246,112,0.560303,0.0329299,0.0279242,-1.5,0,0,0,0,-0.915289,1.12804,0,0,0,0,-0.632463,0.805927,17673,0,0,0,0,0,0,0,0,0,1,-1
8449,0.592773,0.0576172,-1.50781,0.000350603,0.00252453,-0.00145179,-0.073142,-0.0180711,-2.7441,-3.51658,0.191007,-0.0919879,-0.926066,1.14178,-0.634593,0.809154,-2.7441,0,0,245,-10,245,-10,376,-17,246,112,0.560505,0.0334333,0.0269855,-1.5,0,0,0,0,-0.926066,1.14178,0,0,0,0,-0.634593,0.809154,17544,0,0,0,0,0,0,0,0,0,1,-1
8465,0.624023,0.0576172,-0.750977,0.000140044,0.00194398,-0.000414105,-0.0731478,-0.0180535,-2.74411,-3.51658,0.191007,-0.0919879,-0.936239,1.15476,-0.636578,0.812168,-2.74411,0,0,245,-10,245,-10,376,-17,246,112,0.560694,0.0338985,0.0261319,-1.5,0,0,0,0,-0.936239,1.15476,0,0,0,0,-0.636578,0.812168,17544,0,0,0,0,0,0,0,0,0,1,-1
8480,0.657227,0.0576172,0.22168,-0.000400044,0.00242704,-0.00163475,-0.0731549,-0.0180357,-2.74413,-3.50513,0.185703,-0.100729,-0.945806,1.16697,-0.638422,0.814974,-2.74413,0,0,245,-10,245,-10,376,-17,247,112,0.560869,0.0343333,0.0253563,-1.5,0,0,0,0,-0.945806,1.16697,0,0,0,0,-0.638422,0.814974,17673,0,0,0,0,0,0,0,0,0,1,-1
8496,0.723633,0.0576172,-5.26074,0.00087397,0.00188098,-0.000249164,-0.073158,-0.0179969,-2.74415,-3.50513,0.185703,-0.100729,-0.95604,1.18004,-0.640373,0.817945,-2.74413,0,0,245,-10,245,-10,376,-17,247,112,0.561058,0.0347829,0.0245538,-1.5,0,0,0,0,-0.95604,1.18004,0,0,0,0,-0.640373,0.817945,17673,0,0,0,0,0,0,0,0,0,1,-1
8512,0.723633,0.0576172,-5.26074,0.00087397,0.00188098,-0.000249164,-0.073158,-0.0179969,-2.74415,-3.50821,0.19695,-0.0959226,-0.966307,1.19316,-0.642305,0.820894,-2.74415,0,0,242,-10,242,-10,376,-17,247,112,0.56124,0.0352409,0.0237767,-1.5,0,0,0,0,-0.966307,1.19316,0,0,0,0,-0.642305,0.820894,17802,0,0,0,0,0,0,0,0,0,1,-1
8528,0.756836,0.0576172,-0.0332031,-0.000401931,0.00137676,-0.000874652,-0.0731935,-0.0179534,-2.74418,-3.50821,0.19695,-0.0959226,-0.976603,1.20632,-0.644218,0.823822,-2.74418,0,0,242,-10,242,-10,376,-17,247,112,0.561418,0.0357009,0.0230246,-1.5,0,0,0,0,-0.976603,1.20632,0,0,0,0,-0.644218,0.823822,17802,0,0,0,0,0,0,0,0,0,1,-1
8550,0.732422,0.0576172,-0.229492,0.000104619,0.000947168,-0.0012742,-0.0732054,-0.01794,-2.7442,-3.49313,0.200443,-0.102359,-0.990817,1.22451,-0.646822,0.827825,-2.7442,0,0,242,-10,242,-10,376,-17,245,112,0.561667,0.0363092,0.022024,-1.5,0,0,0,0,-0.990817,1.22451,0,0,0,0,-0.646822,0.827825,17802,0,0,0,0,0,0,0,0,0,1,-1
8566,0.610352,0.0576172,3.7334,-0.000301132,0.00368265,-0.00213332,-0.0732199,-0.0178843,-2.74424,-3.49313,0.200443,-0.102359,-1.00119,1.23778,-0.648694,0.830707,-2.7442,0,0,242,-10,242,-10,376,-17,245,112,0.561848,0.0367407,0.0213274,-1.5,0,0,0,0,-1.00119,1.23778,0,0,0,0,-0.648694,0.830707,17802,0,0,0,0,0,0,0,0,0,1,-1
8582,0.610352,0.0576172,3.7334,-0.000301132,0.00368265,-0.00213332,-0.0732199,-0.0178843,-2.74424,-5.97437,-4.88928,-0.0375379,-1.01158,1.2511,-0.650548,0.833569,-2.74424,0,0,637,114,637,114,692,97,637,190,0.562019,0.03719,0.0206523,-1.5,0,0,0,0,-1.01158,1.2511,0,0,0,0,-0.650548,0.833569,5208,0,0,0,0,0,0,0,0,0,1,-1
8598,0.610352,0.0576172,3.7334,-0.000301132,0.00368265,-0.00213332,-0.0732199,-0.0178843,-2.74424,-5.97437,-4.88928,-0.0375379,-1.02201,1.26447,-0.652383,0.836411,-2.74424,0,0,637,114,637,114,692,97,637,190,0.562197,0.037613,0.0199991,-1.5,0,0,0,0,-1.02201,1.26447,0,0,0,0,-0.652383,0.836411,5208,0,0,0,0,0,0,0,0,0,1,-1
8614,0.742188,0.0576172,4.57812,0.00042387,0.00196973,-0.00132109,-0.0732345,-0.0178405,-2.74429,-3.49524,0.192441,-0.0944577,-1.03247,1.27788,-0.654202,0.839232,-2.74429,0,0,245,-12,245,-12,377,-18,245,112,0.562361,0.0380642,0.0193661,-1.5,0,0,0,0,-1.03247,1.27788,0,0,0,0,-0.654202,0.839232,17550,0,0,0,0,0,0,0,0,0,1,-1
8630,0.762695,0.0576172,-3.94336,8.72843e-05,0.0012677,-0.000827411,-0.0732537,-0.0178199,-2.7443,-3.49524,0.192441,-0.0944577,-1.0423,1.2905,-0.655888,0.841861,-2.7443,0,0,245,-12,245,-12,377,-18,245,112,0.562522,0.0384584,0.0187913,-1.5,0,0,0,0,-1.0423,1.2905,0,0,0,0,-0.655888,0.841861,17550,0,0,0,0,0,0,0,0,0,1,-1
8645,0.729492,0.0576172,3.37109,0.00127159,0.0025485,-0.00197163,-0.0732473,-0.0177962,-2.74433,-3.51436,0.195386,-0.0918824,-1.05281,1.30399,-0.657672,0.844647,-2.74433,0,0,245,-10,245,-10,375,-17,245,112,0.562689,0.0388832,0.0181966,-1.5,0,0,0,0,-1.05281,1.30399,0,0,0,0,-0.657672,0.844647,17544,0,0,0,0,0,0,0,0,0,1,-1
8662,0.663086,0.0576172,-4.625,-0.000738782,0.00252868,-0.000410076,-0.0732646,-0.0177493,-2.74435,-3.51436,0.195386,-0.0918824,-1.06401,1.31839,-0.659548,0.847583,-2.74433,0,0,245,-10,245,-10,375,-17,245,112,0.562871,0.0393157,0.0175853,-1.5,0,0,0,0,-1.06401,1.31839,0,0,0,0,-0.659548,0.847583,17544,0,0,0,0,0,0,0,0,0,1,-1
8677,0.629883,0.0576172,-4.33301,0.000906894,0.00178661,-0.00106239,-0.073265,-0.0177207,-2.74436,-3.51436,0.195386,-0.0918824,-1.07392,1.33112,-0.661187,0.850155,-2.74435,0,0,245,-10,245,-10,375,-17,245,112,0.563025,0.0397046,0.0170633,-1.5,0,0,0,0,-1.07392,1.33112,0,0,0,0,-0.661187,0.850155,17544,0,0,0,0,0,0,0,0,0,1,-1
8693,0.59668,0.0576172,-1.71582,-2.73895e-05,0.00264185,-0.000921623,-0.0732782,-0.0176915,-2.74438,-3.51436,0.195386,-0.0918824,-1.08452,1.34475,-0.662917,0.852881,-2.74436,0,0,245,-10,245,-10,375,-17,245,112,0.563188,0.0401134,0.0165236,-1.5,0,0,0,0,-1.08452,1.34475,0,0,0,0,-0.662917,0.852881,17544,0,0,0,0,0,0,0,0,0,1,-1
8709,0.601562,0.0576172,4.29297,0.000541114,0.00234819,-0.00123067,-0.0732848,-0.0176734,-2.74438,-3.54294,0.201134,-0.0753765,-1.09514,1.35843,-0.664627,0.855591,-2.74438,0,0,245,-12,245,-12,376,-17,246,112,0.56335,0.0405169,0.0160006,-1.5,0,0,0,0,-1.09514,1.35843,0,0,0,0,-0.664627,0.855591,17028,0,0,0,0,0,0,0,0,0,1,-1
8725,0.634766,0.0576172,-5.28125,-0.000478272,0.00229302,-0.00154894,-0.0732978,-0.0176439,-2.7444,-3.54294,0.201134,-0.0753765,-1.10579,1.37215,-0.66632,0.858282,-2.7444,0,0,245,-12,245,-12,376,-17,246,112,0.56351,0.0409187,0.0155257,-1.5,0,0,0,0,-1.10579,1.37215,0,0,0,0,-0.66632,0.858282,17028,0,0,0,0,0,0,0,0,0,1,-1
8741,0.667969,0.0576172,0.506836,0.000306627,0.00213352,-0.000694422,-0.0733118,-0.0176191,-2.74441,-3.54294,0.201134,-0.0753765,-1.11647,1.38591,-0.667996,0.860955,-2.74441,0,0,245,-12,245,-12,376,-17,246,112,0.563669,0.0413127,0.0150346,-1.5,0,0,0,0,-1.11647,1.38591,0,0,0,0,-0.667996,0.860955,17028,0,0,0,0,0,0,0,0,0,1,-1
8757,0.667969,0.0576172,0.506836,0.000306627,0.00213352,-0.000694422,-0.0733118,-0.0176191,-2.74441,-3.54294,0.201134,-0.0753765,-1.12651,1.39884,-0.669554,0.863444,-2.74441,0,0,245,-12,245,-12,376,-17,246,112,0.56382,0.0416718,0.0145884,-1.5,0,0,0,0,-1.12651,1.39884,0,0,0,0,-0.669554,0.863444,17028,0,0,0,0,0,0,0,0,0,1,-1
8772,0.74707,0.0576172,-6.37402,-0.000423636,0.00270029,-0.00102179,-0.0733479,-0.0175666,-2.74447,-3.54294,0.201134,-0.0753765,-1.13724,1.41269,-0.671203,0.866078,-2.74441,0,0,245,-12,245,-12,376,-17,246,112,0.563979,0.042052,0.0141267,-1.5,0,0,0,0,-1.13724,1.41269,0,0,0,0,-0.671203,0.866078,17028,0,0,0,0,0,0,0,0,0,1,-1
8788,0.713867,0.0576172,5.75781,1.56196e-05,0.0015061,-0.000930371,-0.0733518,-0.0175494,-2.74449,-3.50603,0.190802,-0.0903974,-1.14799,1.42657,-0.672836,0.868697,-2.74447,0,0,245,-12,245,-12,376,-17,246,112,0.564126,0.0424582,0.0136796,-1.5,0,0,0,0,-1.14799,1.42657,0,0,0,0,-0.672836,0.868697,17544,0,0,0,0,0,0,0,0,0,1,-1
8804,0.680664,0.0576172,4.7334,-0.00101973,0.0014573,-0.000816771,-0.0733717,-0.0175322,-2.7445,-3.50603,0.190802,-0.0903974,-1.15878,1.4405,-0.67445,0.8713,-2.7445,0,0,245,-12,245,-12,376,-17,246,112,0.564274,0.0428497,0.0132466,-1.5,0,0,0,0,-1.15878,1.4405,0,0,0,0,-0.67445,0.8713,17544,0,0,0,0,0,0,0,0,0,1,-1
8820,0.680664,0.0576172,4.7334,-0.00101973,0.0014573,-0.000816771,-0.0733717,-0.0175322,-2.7445,-3.49304,0.188373,-0.0937224,-1.16958,1.45447,-0.67605,0.873886,-2.7445,0,0,245,-12,245,-12,377,-18,246,112,0.564429,0.0432185,0.0128276,-1.5,0,0,0,0,-1.16958,1.45447,0,0,0,0,-0.67605,0.873886,17680,0,0,0,0,0,0,0,0,0,1,-1
8835,0.614258,0.0576172,-5.66016,0.000276441,0.00264632,-0.000706227,-0.0733836,-0.01749,-2.74453,-3.49304,0.188373,-0.0937224,-1.17974,1.4676,-0.677537,0.876293,-2.74453,0,0,245,-12,245,-12,377,-18,246,112,0.564567,0.0435766,0.0124469,-1.5,0,0,0,0,-1.17974,1.4676,0,0,0,0,-0.677537,0.876293,17680,0,0,0,0,0,0,0,0,0,1,-1
8852,0.614258,0.0576172,-5.66016,0.000276441,0.00264632,-0.000706227,-0.0733836,-0.01749,-2.74453,-3.50976,0.189241,-0.0864301,-1.19128,1.48253,-0.679205,0.879004,-2.74453,0,0,245,-12,245,-12,377,-18,247,112,0.564728,0.0439611,0.0120284,-1.5,0,0,0,0,-1.19128,1.48253,0,0,0,0,-0.679205,0.879004,17550,0,0,0,0,0,0,0,0,0,1,-1
8867,0.581055,0.0576172,-6.07129,-0.000227297,0.0015008,-0.000632198,-0.0733956,-0.0174576,-2.74455,-3.50976,0.189241,-0.0864301,-1.20148,1.49573,-0.680662,0.881377,-2.74455,0,0,245,-12,245,-12,377,-18,247,112,0.564863,0.0443116,0.0116716,-1.5,0,0,0,0,-1.20148,1.49573,0,0,0,0,-0.680662,0.881377,17550,0,0,0,0,0,0,0,0,0,1,-1
8882,0.581055,0.0576172,6.21777,0.000144836,0.00248845,-0.000359575,-0.0734024,-0.0174385,-2.74456,-3.48696,0.19841,-0.104809,-1.2117,1.50898,-0.682106,0.883735,-2.74456,0,0,242,-9,242,-9,376,-17,245,112,0.565002,0.0446457,0.0113252,-1.5,0,0,0,0,-1.2117,1.50898,0,0,0,0,-0.682106,0.883735,17931,0,0,0,0,0,0,0,0,0,1,-1
8898,0.581055,0.0576172,-2.62988,-0.00131181,0.00193165,-0.00103455,-0.0734456,-0.0173962,-2.74459,-3.48696,0.19841,-0.104809,-1.22263,1.52314,-0.683633,0.886232,-2.74456,0,0,242,-9,242,-9,376,-17,245,112,0.56515,0.0449977,0.010967,-1.5,0,0,0,0,-1.22263,1.52314,0,0,0,0,-0.683633,0.886232,17931,0,0,0,0,0,0,0,0,0,1,-1
8914,0.581055,0.0576172,-2.62988,-0.00131181,0.00193165,-0.00103455,-0.0734456,-0.0173962,-2.74459,-3.47155,0.192861,-0.113476,-1.23359,1.53735,-0.685146,0.888715,-2.74459,0,0,242,-10,242,-10,376,-17,246,112,0.565289,0.0453652,0.0106198,-1.5,0,0,0,0,-1.23359,1.53735,0,0,0,0,-0.685146,0.888715,18060,0,0,0,0,0,0,0,0,0,1,-1
8931,0.613281,0.0576172,-5.23438,0.000321268,0.00250102,-0.00284052,-0.0734514,-0.0173589,-2.74465,-3.47155,0.192861,-0.113476,-1.24525,1.55248,-0.686736,0.891336,-2.74465,0,0,242,-10,242,-10,376,-17,246,112,0.565429,0.0457666,0.0102628,-1.5,0,0,0,0,-1.24525,1.55248,0,0,0,0,-0.686736,0.891336,18060,0,0,0,0,0,0,0,0,0,1,-1
8947,0.679688,0.0576172,-3.77246,-0.000211567,0.00329413,-0.00146105,-0.0734602,-0.0173328,-2.74467,-3.50541,0.191023,-0.0895923,-1.25625,1.56677,-0.688216,0.893787,-2.74467,0,0,245,-12,245,-12,376,-17,246,112,0.565568,0.0461191,0.00993801,-1.5,0,0,0,0,-1.25625,1.56677,0,0,0,0,-0.688216,0.893787,17544,0,0,0,0,0,0,0,0,0,1,-1
8963,0.743164,0.0576172,-1.37402,-0.0016196,0.00203609,-0.000572726,-0.0734872,-0.0173176,-2.74468,-3.50541,0.191023,-0.0895923,-1.26728,1.5811,-0.68968,0.896222,-2.74468,0,0,245,-12,245,-12,376,-17,246,112,0.565707,0.046462,0.00962367,-1.5,0,0,0,0,-1.26728,1.5811,0,0,0,0,-0.68968,0.896222,17544,0,0,0,0,0,0,0,0,0,1,-1
8979,0.776367,0.0576172,4.09375,-0.000662659,0.00222109,0.000206624,-0.0734987,-0.0173022,-2.74469,-3.48229,0.198311,-0.104256,-1.27833,1.59546,-0.691133,0.898642,-2.74469,0,0,242,-10,242,-10,376,-17,245,112,0.565845,0.0468038,0.00931909,-1.5,0,0,0,0,-1.27833,1.59546,0,0,0,0,-0.691133,0.898642,17931,0,0,0,0,0,0,0,0,0,1,-1
8995,0.71875,0.0576172,6.32129,-0.000872923,0.00173386,0.000526161,-0.0735177,-0.0172722,-2.74471,-3.48229,0.198311,-0.104256,-1.2894,1.60986,-0.692572,0.901043,-2.74469,0,0,242,-10,242,-10,376,-17,245,112,0.565984,0.0471357,0.00902432,-1.5,0,0,0,0,-1.2894,1.60986,0,0,0,0,-0.692572,0.901043,17931,0,0,0,0,0,0,0,0,0,1,-1
9011,0.685547,0.0576172,3.59863,-0.00157284,0.00202254,-0.000314198,-0.0735529,-0.0172465,-2.74473,-3.49708,0.194898,-0.0975309,-1.3005,1.62431,-0.693999,0.903429,-2.74473,0,0,242,-10,242,-10,376,-17,247,112,0.566114,0.0474847,0.00873871,-1.5,0,0,0,0,-1.3005,1.62431,0,0,0,0,-0.693999,0.903429,17931,0,0,0,0,0,0,0,0,0,1,-1
9027,0.652344,0.0576172,4.03223,0.000525908,0.00183804,-0.000389265,-0.0735551,-0.0172323,-2.74474,-3.49708,0.194898,-0.0975309,-1.31162,1.63879,-0.69541,0.905804,-2.74474,0,0,242,-10,242,-10,376,-17,247,112,0.566247,0.0478197,0.0084623,-1.5,0,0,0,0,-1.31162,1.63879,0,0,0,0,-0.69541,0.905804,17931,0,0,0,0,0,0,0,0,0,1,-1
9043,0.619141,0.0576172,6.62695,-0.00129121,0.00254114,-0.000496244,-0.073594,-0.0172107,-2.74476,-3.50659,0.193399,-0.0927028,-1.32206,1.65239,-0.696721,0.908016,-2.74476,0,0,245,-10,245,-10,376,-17,245,112,0.56637,0.0481299,0.00821113,-1.5,0,0,0,0,-1.32206,1.65239,0,0,0,0,-0.696721,0.908016,17544,0,0,0,0,0,0,0,0,0,1,-1
9059,0.619141,0.0576172,6.62695,-0.00129121,0.00254114,-0.000496244,-0.073594,-0.0172107,-2.74476,-3.50659,0.193399,-0.0927028,-1.33392,1.66786,-0.698194,0.91051,-2.74476,0,0,245,-10,245,-10,376,-17,245,112,0.566512,0.0484696,0.00793528,-1.5,0,0,0,0,-1.33392,1.66786,0,0,0,0,-0.698194,0.91051,17544,0,0,0,0,0,0,0,0,0,1,-1
9074,0.578125,0.0576172,-5.375,-0.00098476,0.00236332,-3.76425e-05,-0.0736132,-0.0171596,-2.74476,-3.50659,0.193399,-0.0927028,-1.34441,1.68154,-0.699481,0.912694,-2.74476,0,0,245,-10,245,-10,376,-17,245,112,0.566636,0.0487688,0.00769975,-1.5,0,0,0,0,-1.34441,1.68154,0,0,0,0,-0.699481,0.912694,17544,0,0,0,0,0,0,0,0,0,1,-1
9089,0.578125,0.0576172,-5.375,-0.00098476,0.00236332,-3.76425e-05,-0.0736132,-0.0171596,-2.74476,-3.48202,0.19848,-0.103947,-1.35491,1.69525,-0.700755,0.914864,-2.74476,0,0,242,-10,242,-10,376,-17,245,112,0.566759,0.0490625,0.00747133,-1.5,0,0,0,0,-1.35491,1.69525,0,0,0,0,-0.700755,0.914864,17931,0,0,0,0,0,0,0,0,0,1,-1
9105,0.59668,0.0576172,-3.80664,-0.000219466,0.00221458,-0.00116589,-0.0736751,-0.0171152,-2.74481,-3.48202,0.19848,-0.103947,-1.36614,1.70991,-0.702103,0.917166,-2.74479,0,0,242,-10,242,-10,376,-17,245,112,0.566883,0.049389,0.00723486,-1.5,0,0,0,0,-1.36614,1.70991,0,0,0,0,-0.702103,0.917166,17931,0,0,0,0,0,0,0,0,0,1,-1
9121,0.629883,0.0576172,5.12402,0.000636855,0.00137564,-0.0010166,-0.0736752,-0.0170979,-2.74481,-3.50635,0.195038,-0.097108,-1.37739,1.72461,-0.703437,0.919456,-2.74481,0,0,245,-10,245,-10,376,-17,245,112,0.567008,0.049706,0.00700602,-1.5,0,0,0,0,-1.37739,1.72461,0,0,0,0,-0.703437,0.919456,17415,0,0,0,0,0,0,0,0,0,1,-1
9137,0.663086,0.0576172,1.23242,0.000711349,0.00322828,-0.00100806,-0.073667,-0.017068,-2.74483,-3.50635,0.195038,-0.097108,-1.38865,1.73934,-0.704758,0.921731,-2.74483,0,0,245,-10,245,-10,376,-17,245,112,0.56713,0.0500245,0.00678442,-1.5,0,0,0,0,-1.38865,1.73934,0,0,0,0,-0.704758,0.921731,17415,0,0,0,0,0,0,0,0,0,1,-1
9152,0.663086,0.0576172,1.23242,0.000711349,0.00322828,-0.00100806,-0.073667,-0.017068,-2.74483,-3.50462,0.19084,-0.0973022,-1.39924,1.75319,-0.705983,0.923847,-2.74483,0,0,245,-10,245,-10,376,-17,246,112,0.567249,0.0503068,0.00658305,-1.5,0,0,0,0,-1.39924,1.75319,0,0,0,0,-0.705983,0.923847,17544,0,0,0,0,0,0,0,0,0,1,-1
