timestamp,A_x,A_y,A_z,P,Q,R,Phi,Theta,Psi,poseX,poseY,poseZ,state_X,state_Y,state_Z,state_VzB,state_Bx,state_By,state_Bz,p1_x,p1_y,p2_x,p2_y,p3_x,p3_y,p4_x,p4_y,roll,pitch,yaw,alt,targetHeading,highLevelState,lowLevelState,gateNumber,filtered_x,filtered_y,x_OT,y_OT,vx_OT,vy_OT,filtered_vx,filtered_vygateArearansac_corr_x,ransac_corr_y,ransac_corr_vx,ransac_corr_vy,detectionTimeStamppTermX,dTermX,pTermY,dTermY,vxcmd,vycmd
6089,0,0,6.5791,0.000835984,-0.00094178,-0.00746038,0.00146621,0.000370217,-0.397624,0,0,0,-3.40647e-08,4.95559e-07,-5.71804e-06,0.000104714,-0.39525,0,0,0,0,0,0,0,0,0,0,0.16798,-0.577146,0,-1.5,0,0,0,0,-3.40647e-08,4.95559e-07,-0.128906,0.628906,0,0,-5.71804e-06,0.000104714,1.9603e-19,0,0,0,0,0,0,0,0,0,2.5,-9.91118e-07
6105,0,0,5.18164,-0.000981495,-0.000856405,-0.00655805,0.00159921,-5.686e-05,-0.403495,0,0,0,2.07632e-07,4.88919e-06,3.91372e-05,0.000351772,-0.401234,0,0,0,0,0,0,0,0,0,0,0.170328,-0.576158,0,-1.5,0,0,0,0,2.07632e-07,4.88919e-06,-0.128906,0.628906,0,0,3.91372e-05,0.000351772,1.9603e-19,0,0,0,0,0,0,0,0,0,2.5,-9.77838e-06
6121,0,0,5.15527,-0.000935013,-0.00110781,-0.00700151,0.00178485,-0.000499032,-0.409518,0,0,0,1.67949e-06,1.21352e-05,0.000144671,0.000560805,-0.407065,0,0,0,0,0,0,0,0,0,0,0.172616,-0.57518,0,-1.5,0,0,0,0,1.67949e-06,1.21352e-05,-0.128906,0.628906,0,0,0.000144671,0.000560805,1.9603e-19,0,0,0,0,0,0,0,0,0,2.5,-2.42703e-05
6138,0,0,5.20215,-0.000628255,-0.000459729,-0.00730476,0.00192247,-0.000840295,-0.414267,0,0,0,6.55413e-06,2.50897e-05,0.000355934,0.000807107,-0.412962,0,0,0,0,0,0,0,0,0,0,0.174914,-0.574183,0,-1.5,0,0,0,0,6.55413e-06,2.50897e-05,-0.128906,0.628906,0,0,0.000355934,0.000807107,1.9603e-19,0,0,0,0,0,0,0,0,0,2.5,-5.01794e-05
6154,0,0,6.59668,-0.000278784,-0.00225234,-0.00692138,0.00192651,-0.000851867,-0.414358,0,0,0,1.46879e-05,4.01978e-05,0.000595043,0.00102252,-0.414358,0,0,0,0,0,0,0,0,0,0,0.175416,-0.573963,0,-1.5,0,0,0,0,1.46879e-05,4.01978e-05,-0.128906,0.628906,0,0,0.000595043,0.00102252,1.9603e-19,0,0,0,0,0,0,0,0,0,2.5,-8.03956e-05
6170,0,0,-4.80469,0.00018166,-0.00236463,-0.00774139,0.00192865,-0.000871024,-0.41447,0,0,0,2.66471e-05,5.8742e-05,0.000834632,0.00123639,-0.41447,0,0,0,0,0,0,0,0,0,0,0.175403,-0.573968,0,-1.5,0,0,0,0,2.66471e-05,5.8742e-05,-0.128906,0.628906,0,0,0.000834632,0.00123639,1.9603e-19,0,0,0,0,0,0,0,0,0,2.5,-0.000117484
6183,0,0,4.51465,-0.00136928,-0.0014731,-0.00653393,0.00192365,-0.000876767,-0.414563,0,0,0,3.90731e-05,7.62046e-05,0.00102959,0.00140806,-0.414563,0,0,0,0,0,0,0,0,0,0,0.175393,-0.573973,0,-1.5,0,0,0,0,3.90731e-05,7.62046e-05,-0.128906,0.628906,0,0,0.00102959,0.00140806,1.9603e-19,0,0,0,0,0,0,0,0,0,2.5,-0.000152409
6200,0,0,0.385742,-0.000223136,-0.00181747,-0.00792371,0.00192248,-0.000893494,-0.414664,0,0,0,5.80601e-05,0.000100931,0.00126915,0.00161668,-0.414664,0,0,0,0,0,0,0,0,0,0,0.175374,-0.573981,0,-1.5,0,0,0,0,5.80601e-05,0.000100931,-0.128906,0.628906,0,0,0.00126915,0.00161668,1.9603e-19,0,0,0,0,0,0,0,0,0,2.5,-0.000201861
6223,0,0,3.66504,-0.00156458,-0.00229723,-0.00685888,0.00191798,-0.000899582,-0.414855,0,0,0,9.46719e-05,0.000145036,0.00162753,0.00192573,-0.414855,0,0,0,0,0,0,0,0,0,0,0.17536,-0.573988,0,-1.5,0,0,0,0,9.46719e-05,0.000145036,-0.128906,0.628906,0,0,0.00162753,0.00192573,1.9603e-19,0,0,0,0,0,0,0,0,0,2.5,-0.000290073
6247,0,0,2.90918,0.000297176,-0.00158875,-0.00723459,0.00193116,-0.000920725,-0.415042,-8.1498,-5.67414,-0.290517,0.000139828,0.000196468,0.00198262,0.00222947,-0.414855,0,0,582,148,582,148,625,134,586,205,0.175267,-0.574029,0,-1.5,0,0,0,0,0.000139828,0.000196468,-0.128906,0.628906,0,0,0.00198262,0.00222947,3266,0,0,0,0,0,0,0,0,0,2.5,-0.000392936
6263,0,0,2.90918,0.000297176,-0.00158875,-0.00723459,0.00193116,-0.000920725,-0.415042,-8.14981,-5.67413,-0.290542,0.000174021,0.000234246,0.00221863,0.00242994,-0.415042,0,0,582,148,582,148,625,134,586,205,0.175278,-0.574024,0,-1.5,0,0,0,0,0.000174021,0.000234246,-0.128906,0.628906,0,0,0.00221863,0.00242994,3266,0,0,0,0,0,0,0,0,0,2.5,-0.000468492
6279,0,0,-0.838867,-0.0015504,-0.00170871,-0.00660963,0.00191469,-0.000916451,-0.415228,-8.14981,-5.67413,-0.290542,0.000212002,0.000275219,0.0024545,0.00262879,-0.415228,0,0,582,148,582,148,625,134,586,205,0.175288,-0.574019,0,-1.5,0,0,0,0,0.000212002,0.000275219,-0.128906,0.628906,0,0,0.0024545,0.00262879,3266,0,0,0,0,0,0,0,0,0,2.5,-0.000550437
6299,0,0,0.96875,-0.000901435,-0.000911094,-0.00679162,0.00190246,-0.000917853,-0.415327,-8.14984,-5.67413,-0.290661,0.000265036,0.000331106,0.00274488,0.00287222,-0.415327,0,0,582,148,582,148,625,134,586,205,0.175247,-0.574038,0,-1.5,0,0,0,0,0.000265036,0.000331106,-0.128906,0.628906,0,0,0.00274488,0.00287222,3266,0,0,0,0,0,0,0,0,0,2.5,-0.000662212
6311,0,0,5.17188,-0.00082947,-0.00145826,-0.00663218,0.00190085,-0.000920325,-0.415423,-8.14984,-5.67413,-0.290661,0.00029924,0.000366627,0.00291734,0.00301582,-0.415423,0,0,582,148,582,148,625,134,586,205,0.175236,-0.574043,0,-1.5,0,0,0,0,0.00029924,0.000366627,-0.128906,0.628906,0,0,0.00291734,0.00301582,3266,0,0,0,0,0,0,0,0,0,2.5,-0.000733255
6338,0,0,5.17188,-0.00082947,-0.00145826,-0.00663218,0.00190085,-0.000920325,-0.415423,-8.14982,-5.6741,-0.290616,0.000385695,0.000454444,0.00330281,0.00333624,-0.415423,0,0,582,148,582,148,625,134,586,205,0.175122,-0.574093,0,-1.5,0,0,0,0,0.000385695,0.000454444,-0.128906,0.628906,0,0,0.00330281,0.00333624,3266,0,0,0,0,0,0,0,0,0,2.5,-0.000908887
6363,0,0,5.17188,-0.00082947,-0.00145826,-0.00663218,0.00190085,-0.000920325,-0.415423,-8.14982,-5.6741,-0.290616,0.000474633,0.000543143,0.00365495,0.00362896,-0.415423,0,0,582,148,582,148,625,134,586,205,0.175015,-0.57414,0,-1.5,0,0,0,0,0.000474633,0.000543143,-0.128906,0.628906,0,0,0.00365495,0.00362896,3266,0,0,0,0,0,0,0,0,0,2.5,-0.00108629
6377,0,0,0.260742,-0.000932203,-0.00206455,-0.0075172,0.00190332,-0.000939054,-0.415923,-8.14982,-5.6741,-0.290616,0.00052749,0.00059535,0.00385022,0.00379085,-0.415923,0,0,582,148,582,148,625,134,586,205,0.175154,-0.57408,0,-1.5,0,0,0,0,0.00052749,0.00059535,-0.128906,0.628906,0,0,0.00385022,0.00379085,3266,0,0,0,0,0,0,0,0,0,2.5,-0.0011907
6390,0,0,3.97266,-9.18607e-05,-0.000985218,-0.00660122,0.00190836,-0.000940847,-0.416016,-8.14982,-5.6741,-0.290616,0.000578987,0.00064581,0.00403242,0.00393955,-0.416016,0,0,582,148,582,148,625,134,586,205,0.175134,-0.574088,0,-1.5,0,0,0,0,0.000578987,0.00064581,-0.128906,0.628906,0,0,0.00403242,0.00393955,3266,0,0,0,0,0,0,0,0,0,2.5,-0.00129162
6406,0,0,3.97266,-9.18607e-05,-0.000985218,-0.00660122,0.00190836,-0.000940847,-0.416016,-8.14986,-5.67411,-0.290782,0.000645854,0.00071076,0.00425568,0.00412184,-0.416016,0,0,582,148,582,148,625,134,586,205,0.175063,-0.57412,0,-1.5,0,0,0,0,0.000645854,0.00071076,-0.128906,0.628906,0,0,0.00425568,0.00412184,3266,0,0,0,0,0,0,0,0,0,2.5,-0.00142152
6422,0,0,2.85352,-0.000487228,-0.00132999,-0.00739413,0.00189792,-0.000954314,-0.416195,-8.14986,-5.67411,-0.290782,0.000716276,0.000778608,0.00447764,0.00430178,-0.416195,0,0,582,148,582,148,625,134,586,205,0.175062,-0.574121,0,-1.5,0,0,0,0,0.000716276,0.000778608,-0.128906,0.628906,0,0,0.00447764,0.00430178,3266,0,0,0,0,0,0,0,0,0,2.5,-0.00155722
6438,0,0,2.85352,-0.000487228,-0.00132999,-0.00739413,0.00189792,-0.000954314,-0.416195,-8.17375,-5.6858,-0.287052,0.000790242,0.000849298,0.00469865,0.00447879,-0.416195,0,0,582,148,582,148,625,134,586,205,0.174989,-0.574153,0,-1.5,0,0,0,0,0.000790242,0.000849298,-0.128906,0.628906,0,0,0.00469865,0.00447879,3195,0,0,0,0,0,0,0,0,0,2.5,-0.0016986
6455,0,0,1.00195,0.000724103,-0.00216305,-0.00754655,0.00191477,-0.000968754,-0.416504,-8.17375,-5.6858,-0.287052,0.000867726,0.000922805,0.00491789,0.00465439,-0.416195,0,0,582,148,582,148,625,134,586,205,0.174916,-0.574185,0,-1.5,0,0,0,0,0.000867726,0.000922805,-0.128906,0.628906,0,0,0.00491789,0.00465439,3195,0,0,0,0,0,0,0,0,0,2.5,-0.00184561
6471,0,0,5.21973,-0.000849574,-0.000901711,-0.00691392,0.00190616,-0.000963544,-0.416601,-8.14988,-5.6741,-0.290876,0.000948708,0.000999111,0.00513699,0.00482929,-0.416504,0,0,582,148,582,148,625,134,586,205,0.174964,-0.574164,0,-1.5,0,0,0,0,0.000948708,0.000999111,-0.128906,0.628906,0,0,0.00513699,0.00482929,3266,0,0,0,0,0,0,0,0,0,2.5,-0.00199822
6486,0,0,6.57129,-0.00230574,-0.000445409,-0.00687024,0.00189117,-0.000967013,-0.416698,-8.14988,-5.6741,-0.290876,0.00103319,0.0010782,0.00535461,0.00500228,-0.416698,0,0,582,148,582,148,625,134,586,205,0.174966,-0.574164,0,-1.5,0,0,0,0,0.00103319,0.0010782,-0.128906,0.628906,0,0,0.00535461,0.00500228,3266,0,0,0,0,0,0,0,0,0,2.5,-0.0021564
6503,0,0,6.57129,-0.00230574,-0.000445409,-0.00687024,0.00189117,-0.000967013,-0.416698,-8.14991,-5.67412,-0.290995,0.00112682,0.00116529,0.00558357,0.00518238,-0.416698,0,0,582,148,582,148,625,134,586,205,0.174885,-0.5742,0,-1.5,0,0,0,0,0.00112682,0.00116529,-0.128906,0.628906,0,0,0.00558357,0.00518238,3266,0,0,0,0,0,0,0,0,0,2.5,-0.00233058
6518,0,0,4.5293,-0.000939443,-0.00118923,-0.00682811,0.00189515,-0.000979255,-0.416889,-8.14991,-5.67412,-0.290995,0.00121252,0.00124455,0.00578468,0.00533988,-0.416889,0,0,582,148,582,148,625,134,586,205,0.174889,-0.574198,0,-1.5,0,0,0,0,0.00121252,0.00124455,-0.128906,0.628906,0,0,0.00578468,0.00533988,3266,0,0,0,0,0,0,0,0,0,2.5,-0.0024891
6534,0,0,0.398438,-0.000855517,-0.00145722,-0.00744535,0.00190406,-0.000983401,-0.416998,-8.2347,-5.7282,-0.271385,0.00130733,0.00133174,0.00599925,0.00550682,-0.416998,0,0,582,148,582,148,623,134,587,204,0.174855,-0.574214,0,-1.5,0,0,0,0,0.00130733,0.00133174,-0.128906,0.628906,0,0,0.00599925,0.00550682,3220,0,0,0,0,0,0,0,0,0,2.5,-0.00266348
6551,0,0,3.9502,-0.00140733,-0.00182666,-0.00730641,0.00190709,-0.000996876,-0.417205,-8.2347,-5.7282,-0.271385,0.00140556,0.0014216,0.00621333,0.00567337,-0.417101,0,0,582,148,582,148,623,134,587,204,0.174817,-0.574231,0,-1.5,0,0,0,0,0.00140556,0.0014216,-0.128906,0.628906,0,0,0.00621333,0.00567337,3220,0,0,0,0,0,0,0,0,0,2.5,-0.0028432
6567,0,0,3.9502,-0.00140733,-0.00182666,-0.00730641,0.00190709,-0.000996876,-0.417205,-5.49827,0.572839,-0.406936,0.00151369,0.00151998,0.00644027,0.00584868,-0.417205,0,0,234,104,234,104,318,113,234,184,0.174773,-0.574251,0,-1.5,0,0,0,0,0.00151369,0.00151998,-0.128906,0.628906,0,0,0.00644027,0.00584868,7304,0,0,0,0,0,0,0,0,0,2.5,-0.00303996
6580,0,0,2.87012,-0.000371904,-0.000774601,-0.00692182,0.00190229,-0.00100441,-0.417396,-5.49827,0.572839,-0.406936,0.0015988,0.00159709,0.00661277,0.00598118,-0.417205,0,0,234,104,234,104,318,113,234,184,0.174708,-0.57428,0,-1.5,0,0,0,0,0.0015988,0.00159709,-0.128906,0.628906,0,0,0.00661277,0.00598118,7304,0,0,0,0,0,0,0,0,0,2.5,-0.00319417
6596,0,0,0.761719,-0.000327096,-0.00211264,-0.00772868,0.00190877,-0.00102674,-0.417503,-5.49827,0.572839,-0.406936,0.00170676,0.00169443,0.00682405,0.00614243,-0.417396,0,0,234,104,234,104,318,113,234,184,0.174703,-0.574282,0,-1.5,0,0,0,0,0.00170676,0.00169443,-0.128906,0.628906,0,0,0.00682405,0.00614243,7304,0,0,0,0,0,0,0,0,0,2.5,-0.00338887
6612,0,0,-0.823242,-0.00151846,-0.00202125,-0.00692836,0.00188514,-0.00104117,-0.417606,-8.08641,-5.62021,-0.296516,0.00181813,0.00179433,0.00703778,0.00630026,-0.417606,0,0,582,148,582,148,623,133,586,205,0.174705,-0.574282,0,-1.5,0,0,0,0,0.00181813,0.00179433,-0.128906,0.628906,0,0,0.00703778,0.00630026,3312,0,0,0,0,0,0,0,0,0,2.5,-0.00358866
6628,0,0,0.96875,0.00029926,-0.00207819,-0.00564304,0.00189944,-0.0010513,-0.417686,-8.08645,-5.62018,-0.296719,0.00193297,0.00189675,0.00725117,0.00645414,-0.417686,0,0,582,148,582,148,623,133,586,205,0.174655,-0.574304,0,-1.5,0,0,0,0,0.00193297,0.00189675,-0.128906,0.628906,0,0,0.00725117,0.00645414,3312,0,0,0,0,0,0,0,0,0,2.5,-0.0037935
6644,0,0,5.18164,0.00030769,-0.00151408,-0.00757881,0.00190447,-0.00105932,-0.417783,-8.08645,-5.62018,-0.296719,0.00205123,0.00200163,0.00746489,0.00660772,-0.417783,0,0,582,148,582,148,623,133,586,205,0.174611,-0.574324,0,-1.5,0,0,0,0,0.00205123,0.00200163,-0.128906,0.628906,0,0,0.00746489,0.00660772,3312,0,0,0,0,0,0,0,0,0,2.5,-0.00400326
6660,0,0,6.58789,-0.00121169,-0.000714083,-0.00854463,0.00189746,-0.00105259,-0.417894,-8.08645,-5.62018,-0.296719,0.00217284,0.00210891,0.0076772,0.00675991,-0.417894,0,0,582,148,582,148,623,133,586,205,0.174571,-0.574342,0,-1.5,0,0,0,0,0.00217284,0.00210891,-0.128906,0.628906,0,0,0.0076772,0.00675991,3312,0,0,0,0,0,0,0,0,0,2.5,-0.00421782
6677,0,0,4.53027,-4.64407e-05,-0.0023333,-0.00725542,0.00190336,-0.00106389,-0.418084,-8.08651,-5.62024,-0.296969,0.00230581,0.00222559,0.00790013,0.00691993,-0.417894,0,0,582,148,582,148,623,133,586,205,0.174482,-0.574382,0,-1.5,0,0,0,0,0.00230581,0.00222559,-0.128906,0.628906,0,0,0.00790013,0.00691993,3312,0,0,0,0,0,0,0,0,0,2.5,-0.00445118
6691,0,0,0.386719,-0.00173475,-0.00184831,-0.00707469,0.0018972,-0.00107079,-0.41818,-8.08651,-5.62024,-0.296969,0.00241804,0.00232363,0.0080841,0.00705056,-0.41818,0,0,582,148,582,148,623,133,586,205,0.174521,-0.574365,0,-1.5,0,0,0,0,0.00241804,0.00232363,-0.128906,0.628906,0,0,0.0080841,0.00705056,3312,0,0,0,0,0,0,0,0,0,2.5,-0.00464726
6707,0,0,0.246094,-0.000631452,-0.000699748,-0.00654679,0.00190252,-0.00106831,-0.418273,-5.48251,0.561131,-0.410996,0.00254952,0.00243794,0.00829334,0.00719771,-0.418273,0,0,234,104,234,104,320,113,235,184,0.174473,-0.574387,0,-1.5,0,0,0,0,0.00254952,0.00243794,-0.128906,0.628906,0,0,0.00829334,0.00719771,7304,0,0,0,0,0,0,0,0,0,2.5,-0.00487587
6723,0,0,3.95215,-0.000762975,-0.000616876,-0.00757104,0.00190385,-0.00106315,-0.418377,-5.48251,0.561131,-0.410996,0.00268433,0.0025546,0.00850075,0.00734459,-0.418377,0,0,234,104,234,104,320,113,235,184,0.174427,-0.574407,0,-1.5,0,0,0,0,0.00268433,0.0025546,-0.128906,0.628906,0,0,0.00850075,0.00734459,7304,0,0,0,0,0,0,0,0,0,2.5,-0.0051092
6739,0,0,3.95215,-0.000762975,-0.000616876,-0.00757104,0.00190385,-0.00106315,-0.418377,-5.48251,0.561133,-0.41102,0.00282244,0.0026736,0.00870603,0.00749066,-0.418377,0,0,234,104,234,104,320,113,235,184,0.174339,-0.574446,0,-1.5,0,0,0,0,0.00282244,0.0026736,-0.128906,0.628906,0,0,0.00870603,0.00749066,7304,0,0,0,0,0,0,0,0,0,2.5,-0.0053472
6755,0,0,2.87402,0.000449559,-0.00223394,-0.00693574,0.00191369,-0.00106929,-0.418562,-5.48251,0.561133,-0.41102,0.00296381,0.00279493,0.00891026,0.00763594,-0.418562,0,0,234,104,234,104,320,113,235,184,0.174325,-0.574454,0,-1.5,0,0,0,0,0.00296381,0.00279493,-0.128906,0.628906,0,0,0.00891026,0.00763594,7304,0,0,0,0,0,0,0,0,0,2.5,-0.00558986
6773,0,0,-0.802734,-0.000519408,-0.00122505,-0.00756096,0.0019316,-0.0010823,-0.41877,-8.00502,-5.56861,-0.29591,0.00311775,0.00292649,0.00912656,0.00778971,-0.418562,0,0,582,148,582,148,623,131,587,204,0.17423,-0.574496,0,-1.5,0,0,0,0,0.00311775,0.00292649,-0.128906,0.628906,0,0,0.00912656,0.00778971,3358,0,0,0,0,0,0,0,0,0,2.5,-0.00585298
6788,0,0,0.967773,0.0003319,-0.00226548,-0.00800709,0.00194778,-0.00108926,-0.418883,-8.00502,-5.56861,-0.29591,0.00326593,0.00305265,0.00933172,0.00793513,-0.418883,0,0,582,148,582,148,623,131,587,204,0.174267,-0.574481,0,-1.5,0,0,0,0,0.00326593,0.00305265,-0.128906,0.628906,0,0,0.00933172,0.00793513,3358,0,0,0,0,0,0,0,0,0,2.5,-0.00610531
6805,0,0,0.967773,0.0003319,-0.00226548,-0.00800709,0.00194778,-0.00108926,-0.418883,-8.00507,-5.56866,-0.296109,0.00342697,0.00318926,0.00954982,0.00809008,-0.418883,0,0,582,148,582,148,623,131,587,204,0.174169,-0.574524,0,-1.5,0,0,0,0,0.00342697,0.00318926,-0.128906,0.628906,0,0,0.00954982,0.00809008,3358,0,0,0,0,0,0,0,0,0,2.5,-0.00637852
6821,0,0,0.967773,0.0003319,-0.00226548,-0.00800709,0.00194778,-0.00108926,-0.418883,-8.00507,-5.56866,-0.296109,0.00358185,0.00332018,0.00975337,0.00823469,-0.418883,0,0,582,148,582,148,623,131,587,204,0.174076,-0.574565,0,-1.5,0,0,0,0,0.00358185,0.00332018,-0.128906,0.628906,0,0,0.00975337,0.00823469,3358,0,0,0,0,0,0,0,0,0,2.5,-0.00664035
6837,0,0,0.967773,0.0003319,-0.00226548,-0.00800709,0.00194778,-0.00108926,-0.418883,-5.51876,0.578288,-0.402907,0.00374002,0.00345344,0.00995532,0.00837817,-0.418883,0,0,234,104,234,104,318,113,234,184,0.173983,-0.574607,0,-1.5,0,0,0,0,0.00374002,0.00345344,-0.128906,0.628906,0,0,0.00995532,0.00837817,7221,0,0,0,0,0,0,0,0,0,2.5,-0.00690688
6853,0,0,4.54199,-0.000258702,-0.00156975,-0.00735985,0.00196062,-0.00111907,-0.419275,-5.51876,0.578288,-0.402907,0.00390136,0.00358894,0.0101579,0.0085204,-0.419275,0,0,234,104,234,104,318,113,234,184,0.174045,-0.574581,0,-1.5,0,0,0,0,0.00390136,0.00358894,-0.128906,0.628906,0,0,0.0101579,0.0085204,7221,0,0,0,0,0,0,0,0,0,2.5,-0.00717788
6870,0,0,0.260742,-0.000823237,-0.00160834,-0.00697449,0.00195915,-0.00113487,-0.419471,-5.50067,0.579703,-0.407183,0.00407643,0.00373544,0.0103745,0.00867021,-0.419275,0,0,233,104,233,104,318,113,234,184,0.173944,-0.574626,0,-1.5,0,0,0,0,0.00407643,0.00373544,-0.128906,0.628906,0,0,0.0103745,0.00867021,7304,0,0,0,0,0,0,0,0,0,2.5,-0.00747088
6884,0,0,3.94238,-0.00038818,-0.00155113,-0.00806149,0.00194893,-0.00113737,-0.419575,-5.50067,0.579703,-0.407183,0.00422326,0.0038579,0.0105533,0.00879147,-0.419471,0,0,233,104,233,104,318,113,234,184,0.173939,-0.574629,0,-1.5,0,0,0,0,0.00422326,0.0038579,-0.128906,0.628906,0,0,0.0105533,0.00879147,7304,0,0,0,0,0,0,0,0,0,2.5,-0.0077158
6900,0,0,-4.35156,-0.000784665,-0.00152694,-0.00798319,0.0019436,-0.00114247,-0.419678,-8.1503,-5.6743,-0.292672,0.00439418,0.00399995,0.010756,0.00892724,-0.419678,0,0,582,148,582,148,625,134,586,205,0.173926,-0.574636,0,-1.5,0,0,0,0,0.00439418,0.00399995,-0.128906,0.628906,0,0,0.010756,0.00892724,3266,0,0,0,0,0,0,0,0,0,2.5,-0.0079999
6916,0,0,2.89355,-0.000133199,-0.00160999,-0.00812776,0.00194894,-0.00115403,-0.419789,-8.1503,-5.6743,-0.292672,0.00456834,0.00414415,0.010958,0.00906096,-0.419789,0,0,582,148,582,148,625,134,586,205,0.173874,-0.57466,0,-1.5,0,0,0,0,0.00456834,0.00414415,-0.128906,0.628906,0,0,0.010958,0.00906096,3266,0,0,0,0,0,0,0,0,0,2.5,-0.0082883
6932,0,0,0.800781,0.00100756,-0.0014162,-0.00721033,0.00196914,-0.00115547,-0.419891,-8.00522,-5.56872,-0.296772,0.00474579,0.00429052,0.0111604,0.00919467,-0.419891,0,0,582,148,582,148,623,131,587,204,0.173818,-0.574685,0,-1.5,0,0,0,0,0.00474579,0.00429052,-0.128906,0.628906,0,0,0.0111604,0.00919467,3358,0,0,0,0,0,0,0,0,0,2.5,-0.00858105
6948,0,0,-0.799805,0.000587971,-0.00152603,-0.00681834,0.00198668,-0.00116022,-0.419988,-8.00522,-5.56872,-0.296772,0.00492648,0.00443905,0.0113628,0.00932985,-0.419988,0,0,582,148,582,148,623,131,587,204,0.173758,-0.574712,0,-1.5,0,0,0,0,0.00492648,0.00443905,-0.128906,0.628906,0,0,0.0113628,0.00932985,3358,0,0,0,0,0,0,0,0,0,2.5,-0.00887811
6965,0,0,0.97168,-0.000410004,-0.00247743,-0.00700633,0.00199763,-0.00118107,-0.420089,-8.09673,-5.63721,-0.287139,0.00512202,0.00459925,0.0115788,0.00947382,-0.420089,0,0,582,148,582,148,625,132,587,204,0.173692,-0.574742,0,-1.5,0,0,0,0,0.00512202,0.00459925,-0.128906,0.628906,0,0,0.0115788,0.00947382,3240,0,0,0,0,0,0,0,0,0,2.5,-0.00919849
6985,0,0,0.97168,-0.000410004,-0.00247743,-0.00700633,0.00199763,-0.00118107,-0.420089,-8.09673,-5.63721,-0.287139,0.00535717,0.00479108,0.0118336,0.00964193,-0.420089,0,0,582,148,582,148,625,132,587,204,0.173566,-0.574799,0,-1.5,0,0,0,0,0.00535717,0.00479108,-0.128906,0.628906,0,0,0.0118336,0.00964193,3240,0,0,0,0,0,0,0,0,0,2.5,-0.00958216
7091,0,0,0.765625,-0.00218955,-0.00144541,-0.00650113,0.00200545,-0.00121214,-0.421102,-8.15043,-5.67441,-0.293257,0.00674227,0.00589935,0.0131717,0.0105235,-0.421,0,0,582,148,582,148,625,134,586,205,0.173224,-0.574957,0,-1.5,0,0,0,0,0.00674227,0.00589935,-0.128906,0.628906,0,0,0.0131717,0.0105235,3266,0,0,0,0,0,0,0,0,0,2.5,-0.0117987
7150,0,0,6.5918,-0.000581015,-0.00175908,-0.00673041,0.00201836,-0.00124742,-0.421469,-8.1505,-5.67444,-0.293551,0.00755692,0.00654411,0.013897,0.010984,-0.421469,0,0,582,148,582,148,625,134,586,205,0.173013,-0.575055,0,-1.5,0,0,0,0,0.00755692,0.00654411,-0.128906,0.628906,0,0,0.013897,0.010984,3266,0,0,0,0,0,0,0,0,0,2.5,-0.0130882
7167,0,0,-4.7627,-0.00100823,-0.00117366,-0.00734223,0.00201176,-0.00124704,-0.421572,-8.08702,-5.62057,-0.299095,0.00779547,0.00673225,0.0141056,0.0111118,-0.421572,0,0,582,148,582,148,623,133,586,205,0.172939,-0.575088,0,-1.5,0,0,0,0,0.00779547,0.00673225,-0.128906,0.628906,0,0,0.0141056,0.0111118,3312,0,0,0,0,0,0,0,0,0,2.5,-0.0134645
7182,0,0,4.53516,-0.000280214,-0.00142237,-0.00689576,0.00201506,-0.00124938,-0.421667,-8.08702,-5.62057,-0.299095,0.00800882,0.00690001,0.0142881,0.0112233,-0.421667,0,0,582,148,582,148,623,133,586,205,0.172875,-0.575117,0,-1.5,0,0,0,0,0.00800882,0.00690001,-0.128906,0.628906,0,0,0.0142881,0.0112233,3312,0,0,0,0,0,0,0,0,0,2.5,-0.0138
7200,0,0,0.386719,-3.18983e-05,-0.00246832,-0.00792594,0.00202983,-0.00126135,-0.421772,-8.08702,-5.62056,-0.299093,0.00825406,0.00709223,0.0144947,0.0113494,-0.421772,0,0,582,148,582,148,623,133,586,205,0.172801,-0.575152,0,-1.5,0,0,0,0,0.00825406,0.00709223,-0.128906,0.628906,0,0,0.0144947,0.0113494,3312,0,0,0,0,0,0,0,0,0,2.5,-0.0141845
7214,0,0,3.65332,0.00061121,-0.00155125,-0.00760076,0.00205876,-0.00126995,-0.421973,-8.08702,-5.62056,-0.299093,0.00847324,0.00726355,0.0146771,0.0114605,-0.421772,0,0,582,148,582,148,623,133,586,205,0.172697,-0.575198,0,-1.5,0,0,0,0,0.00847324,0.00726355,-0.128906,0.628906,0,0,0.0146771,0.0114605,3312,0,0,0,0,0,0,0,0,0,2.5,-0.0145271
7230,0,0,3.65332,0.00061121,-0.00155125,-0.00760076,0.00205876,-0.00126995,-0.421973,-8.15068,-5.67458,-0.294311,0.00871006,0.00744813,0.014872,0.0115801,-0.421973,0,0,582,148,582,148,625,134,586,205,0.172666,-0.575213,0,-1.5,0,0,0,0,0.00871006,0.00744813,-0.128906,0.628906,0,0,0.014872,0.0115801,3266,0,0,0,0,0,0,0,0,0,2.5,-0.0148963
7246,0,0,2.88867,-0.00118147,-0.00156116,-0.00621566,0.00205344,-0.00127766,-0.422166,-8.15068,-5.67458,-0.294311,0.00895,0.00763464,0.0150667,0.0117001,-0.422166,0,0,582,148,582,148,625,134,586,205,0.172631,-0.575231,0,-1.5,0,0,0,0,0.00895,0.00763464,-0.128906,0.628906,0,0,0.0150667,0.0117001,3266,0,0,0,0,0,0,0,0,0,2.5,-0.0152693
7262,0,0,0.755859,0.000277615,-0.000359152,-0.00562329,0.00195312,-0.0012207,-0.422119,-8.07737,-5.6039,-0.297378,0.00919303,0.00782303,0.015257,0.0118153,-0.422119,0,0,582,146,582,146,625,134,583,205,0.1725,-0.575289,0,-1.5,0,0,0,0,0.00919303,0.00782303,-0.128906,0.628906,0,0,0.015257,0.0118153,3195,0,0,0,0,0,0,0,0,0,2.5,-0.0156461
7278,0,0,-0.841797,-0.000152432,-0.00100353,-0.00737859,0.00208538,-0.00126847,-0.422354,-8.07737,-5.6039,-0.297378,0.00943898,0.00801319,0.0154405,0.0119276,-0.422354,0,0,582,146,582,146,625,134,583,205,0.172482,-0.575299,0,-1.5,0,0,0,0,0.00943898,0.00801319,-0.128906,0.628906,0,0,0.0154405,0.0119276,3195,0,0,0,0,0,0,0,0,0,2.5,-0.0160264
7294,0,0,0.952148,0.000729724,-0.00134969,-0.00722263,0.00210508,-0.00127458,-0.422453,-8.17834,-5.6737,-0.295491,0.00968805,0.0082053,0.0156331,0.0120497,-0.422453,0,0,582,149,582,149,625,134,583,205,0.172406,-0.575334,0,-1.5,0,0,0,0,0.00968805,0.0082053,-0.128906,0.628906,0,0,0.0156331,0.0120497,3195,0,0,0,0,0,0,0,0,0,2.5,-0.0164106
7310,0,0,6.58398,-0.000394275,-0.000358953,-0.00680056,0.00211301,-0.00128145,-0.42265,-8.17834,-5.6737,-0.295491,0.0099402,0.00839939,0.0158254,0.0121723,-0.422453,0,0,582,149,582,149,625,134,583,205,0.17229,-0.575386,0,-1.5,0,0,0,0,0.0099402,0.00839939,-0.128906,0.628906,0,0,0.0158254,0.0121723,3195,0,0,0,0,0,0,0,0,0,2.5,-0.0167988
7326,0,0,-4.79102,3.23703e-05,-0.00185909,-0.00518407,0.00195312,-0.0012207,-0.422607,-8.17834,-5.6737,-0.295491,0.0101954,0.00859543,0.016017,0.0122942,-0.42265,0,0,582,149,582,149,625,134,583,205,0.172252,-0.575405,0,-1.5,0,0,0,0,0.0101954,0.00859543,-0.128906,0.628906,0,0,0.016017,0.0122942,3195,0,0,0,0,0,0,0,0,0,2.5,-0.0171909
7342,0,0,4.51855,-0.00069623,-0.00177874,-0.00605069,0.00212069,-0.00130442,-0.422815,-8.17465,-5.68641,-0.290886,0.0104535,0.00879321,0.0161917,0.0123989,-0.422815,0,0,582,148,582,148,625,134,586,205,0.172204,-0.575428,0,-1.5,0,0,0,0,0.0104535,0.00879321,-0.128906,0.628906,0,0,0.0161917,0.0123989,3195,0,0,0,0,0,0,0,0,0,2.5,-0.0175864
7358,0,0,0.37207,-0.000367978,-0.00170406,-0.00742091,0.00211393,-0.0013177,-0.422923,-8.17465,-5.68641,-0.290886,0.0107146,0.00899286,0.0163853,0.0125185,-0.422923,0,0,582,148,582,148,625,134,586,205,0.172128,-0.575463,0,-1.5,0,0,0,0,0.0107146,0.00899286,-0.128906,0.628906,0,0,0.0163853,0.0125185,3195,0,0,0,0,0,0,0,0,0,2.5,-0.0179857
7374,0,0,0.37207,-0.000367978,-0.00170406,-0.00742091,0.00211393,-0.0013177,-0.422923,-8.17471,-5.68644,-0.291114,0.0109787,0.00919435,0.0165785,0.0126356,-0.422923,0,0,582,148,582,148,625,134,586,205,0.17201,-0.575516,0,-1.5,0,0,0,0,0.0109787,0.00919435,-0.128906,0.628906,0,0,0.0165785,0.0126356,3195,0,0,0,0,0,0,0,0,0,2.5,-0.0183887
7390,0,0,3.96289,0.000383362,-0.00166692,-0.00634352,0.00212592,-0.00133487,-0.423121,-8.17471,-5.68644,-0.291114,0.0112292,0.00938494,0.0167594,0.0127449,-0.423121,0,0,582,148,582,148,625,134,586,205,0.171978,-0.575532,0,-1.5,0,0,0,0,0.0112292,0.00938494,-0.128906,0.628906,0,0,0.0167594,0.0127449,3195,0,0,0,0,0,0,0,0,0,2.5,-0.0187699
7406,0,0,2.88379,-0.00164149,-0.00193726,-0.00639471,0.00212122,-0.00135666,-0.423316,-8.05342,-5.59217,-0.302114,0.0115164,0.009603,0.0169649,0.0128681,-0.423121,0,0,582,146,582,146,625,134,583,205,0.17185,-0.57559,0,-1.5,0,0,0,0,0.0115164,0.009603,-0.128906,0.628906,0,0,0.0169649,0.0128681,3266,0,0,0,0,0,0,0,0,0,2.5,-0.019206
7421,0,0,0.760742,0.000307226,-0.0012197,-0.00709072,0.00212674,-0.0013595,-0.423414,-8.05342,-5.59217,-0.302114,0.0117726,0.00979706,0.0171461,0.0129748,-0.423316,0,0,582,146,582,146,625,134,583,205,0.171816,-0.575607,0,-1.5,0,0,0,0,0.0117726,0.00979706,-0.128906,0.628906,0,0,0.0171461,0.0129748,3266,0,0,0,0,0,0,0,0,0,2.5,-0.0195941
7437,0,0,0.760742,0.000307226,-0.0012197,-0.00709072,0.00212674,-0.0013595,-0.423414,-5.57301,0.573612,-0.392437,0.012049,0.0100058,0.0173397,0.013087,-0.423414,0,0,234,104,234,104,317,113,237,184,0.171734,-0.575644,0,-1.5,0,0,0,0,0.012049,0.0100058,-0.128906,0.628906,0,0,0.0173397,0.013087,7304,0,0,0,0,0,0,0,0,0,2.5,-0.0200117
7453,0,0,0.964844,-0.000938001,-0.00178853,-0.00611504,0.00213044,-0.0013763,-0.423596,-5.57301,0.573612,-0.392437,0.0123285,0.0102164,0.0175325,0.0131986,-0.423596,0,0,234,104,234,104,317,113,237,184,0.171686,-0.575668,0,-1.5,0,0,0,0,0.0123285,0.0102164,-0.128906,0.628906,0,0,0.0175325,0.0131986,7304,0,0,0,0,0,0,0,0,0,2.5,-0.0204328
7470,0,0,0.964844,-0.000938001,-0.00178853,-0.00611504,0.00213044,-0.0013763,-0.423596,-8.08738,-5.62086,-0.300581,0.0126288,0.0104421,0.0177382,0.0133156,-0.423596,0,0,582,148,582,148,623,133,586,205,0.171556,-0.575726,0,-1.5,0,0,0,0,0.0126288,0.0104421,-0.128906,0.628906,0,0,0.0177382,0.0133156,3312,0,0,0,0,0,0,0,0,0,2.5,-0.0208841
7486,0,0,6.56738,-4.34064e-05,-0.00100128,-0.00701932,0.00214714,-0.00138091,-0.423784,-8.08738,-5.62086,-0.300581,0.0128966,0.0106428,0.0179188,0.0134188,-0.423784,0,0,582,148,582,148,623,133,586,205,0.171517,-0.575746,0,-1.5,0,0,0,0,0.0128966,0.0106428,-0.128906,0.628906,0,0,0.0179188,0.0134188,3312,0,0,0,0,0,0,0,0,0,2.5,-0.0212856
7502,0,0,-4.82031,0.000802444,-0.0022184,-0.00727906,0.00216458,-0.00139352,-0.423889,-8.00593,-5.56927,-0.299634,0.0132035,0.0108723,0.0181242,0.0135367,-0.423889,0,0,582,148,582,148,623,131,587,204,0.171427,-0.575787,0,-1.5,0,0,0,0,0.0132035,0.0108723,-0.128906,0.628906,0,0,0.0181242,0.0135367,3358,0,0,0,0,0,0,0,0,0,2.5,-0.0217445
7518,0,0,0.416016,-0.000947949,-0.00231922,-0.0072031,0.00217111,-0.00140373,-0.424095,-8.00593,-5.56927,-0.299634,0.0134956,0.01109,0.0183181,0.0136482,-0.423994,0,0,582,148,582,148,623,131,587,204,0.171345,-0.575826,0,-1.5,0,0,0,0,0.0134956,0.01109,-0.128906,0.628906,0,0,0.0183181,0.0136482,3358,0,0,0,0,0,0,0,0,0,2.5,-0.02218
7534,0,0,0.416016,-0.000947949,-0.00231922,-0.0072031,0.00217111,-0.00140373,-0.424095,-7.90587,-5.48977,-0.322623,0.0137907,0.0113096,0.0185115,0.013759,-0.424095,0,0,582,148,582,148,625,131,583,205,0.17126,-0.575865,0,-1.5,0,0,0,0,0.0137907,0.0113096,-0.128906,0.628906,0,0,0.0185115,0.013759,3404,0,0,0,0,0,0,0,0,0,2.5,-0.0226191
7550,0,0,3.94141,-2.6339e-05,-0.00122985,-0.00623303,0.00217486,-0.00141149,-0.424272,-7.90587,-5.48977,-0.322623,0.0140889,0.0115308,0.0187041,0.0138686,-0.424272,0,0,582,148,582,148,625,131,583,205,0.171205,-0.575891,0,-1.5,0,0,0,0,0.0140889,0.0115308,-0.128906,0.628906,0,0,0.0187041,0.0138686,3404,0,0,0,0,0,0,0,0,0,2.5,-0.0230617
7566,0,0,-4.33789,0.000390465,-0.0017187,-0.00639894,0.00218328,-0.00141957,-0.424366,-8.1511,-5.6749,-0.296091,0.0143902,0.0117539,0.0188968,0.0139774,-0.424366,0,0,582,148,582,148,625,134,586,205,0.171117,-0.575932,0,-1.5,0,0,0,0,0.0143902,0.0117539,-0.128906,0.628906,0,0,0.0188968,0.0139774,3266,0,0,0,0,0,0,0,0,0,2.5,-0.0235078
7582,0,0,2.8457,-0.000226612,-0.00100227,-0.00726264,0.00217743,-0.00142661,-0.424458,-8.1511,-5.6749,-0.296091,0.0146946,0.0119787,0.0190895,0.0140853,-0.424458,0,0,582,148,582,148,625,134,586,205,0.171027,-0.575974,0,-1.5,0,0,0,0,0.0146946,0.0119787,-0.128906,0.628906,0,0,0.0190895,0.0140853,3266,0,0,0,0,0,0,0,0,0,2.5,-0.0239573
7599,0,0,0.785156,-0.000549854,-0.000961345,-0.00753576,0.00216982,-0.0014296,-0.424565,-8.17501,-5.68661,-0.292417,0.0150214,0.0122194,0.019293,0.0141977,-0.424565,0,0,582,148,582,148,625,134,586,205,0.170934,-0.576017,0,-1.5,0,0,0,0,0.0150214,0.0122194,-0.128906,0.628906,0,0,0.019293,0.0141977,3195,0,0,0,0,0,0,0,0,0,2.5,-0.0244388
7614,0,0,0.953125,0.000144509,-0.00176186,-0.00762269,0.00218614,-0.00142968,-0.424752,-8.17501,-5.68661,-0.292417,0.0153125,0.0124333,0.0194711,0.0142953,-0.424565,0,0,582,148,582,148,625,134,586,205,0.170814,-0.576071,0,-1.5,0,0,0,0,0.0153125,0.0124333,-0.128906,0.628906,0,0,0.0194711,0.0142953,3195,0,0,0,0,0,0,0,0,0,2.5,-0.0248666
7630,0,0,0.953125,0.000144509,-0.00176186,-0.00762269,0.00218614,-0.00142968,-0.424752,-7.94798,-5.53859,-0.311177,0.015626,0.0126631,0.0196601,0.0143997,-0.424752,0,0,582,146,582,146,627,132,586,205,0.170761,-0.576097,0,-1.5,0,0,0,0,0.015626,0.0126631,-0.128906,0.628906,0,0,0.0196601,0.0143997,3285,0,0,0,0,0,0,0,0,0,2.5,-0.0253262
7646,0,0,6.58105,-0.00131378,-0.00140375,-0.00765353,0.00218404,-0.00143446,-0.424948,-7.94798,-5.53859,-0.311177,0.0159426,0.0128946,0.0198482,0.0145043,-0.424948,0,0,582,146,582,146,627,132,586,205,0.170711,-0.576122,0,-1.5,0,0,0,0,0.0159426,0.0128946,-0.128906,0.628906,0,0,0.0198482,0.0145043,3285,0,0,0,0,0,0,0,0,0,2.5,-0.0257892
7663,0,0,-4.78516,-0.00133728,-0.000991973,-0.00677076,0.00217551,-0.0014332,-0.425046,-8.112,-5.6331,-0.297581,0.0162621,0.0131278,0.0200352,0.0146072,-0.425046,0,0,582,148,582,148,623,133,586,205,0.17062,-0.576164,0,-1.5,0,0,0,0,0.0162621,0.0131278,-0.128906,0.628906,0,0,0.0200352,0.0146072,3240,0,0,0,0,0,0,0,0,0,2.5,-0.0262555
7678,0,0,4.52148,-0.000607832,-0.0011839,-0.00658015,0.00195312,-0.0012207,-0.425049,-8.112,-5.6331,-0.297581,0.0165846,0.0133625,0.0202034,0.0147016,-0.425049,0,0,582,148,582,148,623,133,586,205,0.170493,-0.576222,0,-1.5,0,0,0,0,0.0165846,0.0133625,-0.128906,0.628906,0,0,0.0202034,0.0147016,3240,0,0,0,0,0,0,0,0,0,2.5,-0.026725
7695,0,0,0.368164,-0.000725445,-0.00120269,-0.00655946,0.0021759,-0.00145461,-0.425221,-8.11128,-5.63248,-0.294609,0.0169297,0.0136134,0.0203719,0.0147964,-0.425221,0,0,582,148,582,148,623,133,586,205,0.170426,-0.576254,0,-1.5,0,0,0,0,0.0169297,0.0136134,-0.128906,0.628906,0,0,0.0203719,0.0147964,3240,0,0,0,0,0,0,0,0,0,2.5,-0.0272269
7710,0,0,0.368164,-0.000725445,-0.00120269,-0.00655946,0.0021759,-0.00145461,-0.425221,-8.11128,-5.63248,-0.294609,0.017237,0.0138363,0.0205457,0.0148886,-0.425221,0,0,582,148,582,148,623,133,586,205,0.170304,-0.576309,0,-1.5,0,0,0,0,0.017237,0.0138363,-0.128906,0.628906,0,0,0.0205457,0.0148886,3240,0,0,0,0,0,0,0,0,0,2.5,-0.0276726
7726,0,0,-4.33496,0.000487909,-0.00197097,-0.00599523,0.00220004,-0.0014939,-0.425509,-8.11128,-5.63248,-0.294609,0.0175677,0.0140755,0.0207317,0.0149863,-0.425422,0,0,582,148,582,148,623,133,586,205,0.170253,-0.576335,0,-1.5,0,0,0,0,0.0175677,0.0140755,-0.128906,0.628906,0,0,0.0207317,0.0149863,3240,0,0,0,0,0,0,0,0,0,2.5,-0.0281511
7743,0,0,2.87695,-0.0009075,-0.000436773,-0.00656886,0.00218531,-0.0014875,-0.4256,-8.08762,-5.62101,-0.301611,0.0179223,0.0143314,0.0209318,0.0150894,-0.4256,0,0,582,148,582,148,623,133,586,205,0.170185,-0.576368,0,-1.5,0,0,0,0,0.0179223,0.0143314,-0.128906,0.628906,0,0,0.0209318,0.0150894,3312,0,0,0,0,0,0,0,0,0,2.5,-0.0286629
7758,0,0,0.762695,-1.66914e-05,-0.000625863,-0.00722939,0.00219913,-0.00149074,-0.425699,-8.08762,-5.62101,-0.301611,0.018238,0.0145586,0.0211068,0.0151789,-0.425699,0,0,582,148,582,148,623,133,586,205,0.170101,-0.576407,0,-1.5,0,0,0,0,0.018238,0.0145586,-0.128906,0.628906,0,0,0.0211068,0.0151789,3312,0,0,0,0,0,0,0,0,0,2.5,-0.0291173
7774,0,0,0.762695,-1.66914e-05,-0.000625863,-0.00722939,0.00219913,-0.00149074,-0.425699,-5.46391,0.562127,-0.417386,0.0185776,0.0148025,0.0212931,0.0152749,-0.425699,0,0,234,104,234,104,320,113,234,184,0.169968,-0.576467,0,-1.5,0,0,0,0,0.0185776,0.0148025,-0.128906,0.628906,0,0,0.0212931,0.0152749,7304,0,0,0,0,0,0,0,0,0,2.5,-0.029605
7791,0,0,0.97168,-0.00112319,-0.00106754,-0.00768462,0.0022059,-0.00149701,-0.425897,-5.46391,0.562127,-0.417386,0.0189418,0.0150633,0.02149,0.0153764,-0.425897,0,0,234,104,234,104,320,113,234,184,0.169906,-0.576498,0,-1.5,0,0,0,0,0.0189418,0.0150633,-0.128906,0.628906,0,0,0.02149,0.0153764,7304,0,0,0,0,0,0,0,0,0,2.5,-0.0301266
7806,0,0,0.97168,-0.00112319,-0.00106754,-0.00768462,0.0022059,-0.00149701,-0.425897,-7.90608,-5.48987,-0.323506,0.0192658,0.0152948,0.021663,0.0154654,-0.425897,0,0,582,148,582,148,625,131,583,205,0.16978,-0.576555,0,-1.5,0,0,0,0,0.0192658,0.0152948,-0.128906,0.628906,0,0,0.021663,0.0154654,3404,0,0,0,0,0,0,0,0,0,2.5,-0.0305896
7821,0,0,6.57422,-0.00198502,-0.00217343,-0.00747119,0.00219242,-0.00151018,-0.426102,-7.90608,-5.48987,-0.323506,0.0195923,0.0155276,0.0218353,0.0155525,-0.426102,0,0,582,148,582,148,625,131,583,205,0.169736,-0.576577,0,-1.5,0,0,0,0,0.0195923,0.0155276,-0.128906,0.628906,0,0,0.0218353,0.0155525,3404,0,0,0,0,0,0,0,0,0,2.5,-0.0310552
7837,0,0,4.54004,-0.000159831,-0.00104095,-0.00782629,0.00219296,-0.00150979,-0.426299,-5.57673,0.573858,-0.392474,0.0199436,0.0157774,0.0220182,0.0156432,-0.426102,0,0,234,104,234,104,318,113,237,184,0.169602,-0.576638,0,-1.5,0,0,0,0,0.0199436,0.0157774,-0.128906,0.628906,0,0,0.0220182,0.0156432,7221,0,0,0,0,0,0,0,0,0,2.5,-0.0315548
7853,0,0,0.391602,-0.000293423,-0.00110032,-0.00703086,0.00220207,-0.00150604,-0.426399,-5.57673,0.573858,-0.392474,0.0202978,0.0160286,0.0221996,0.0157334,-0.426399,0,0,234,104,234,104,318,113,237,184,0.169587,-0.576649,0,-1.5,0,0,0,0,0.0202978,0.0160286,-0.128906,0.628906,0,0,0.0221996,0.0157334,7221,0,0,0,0,0,0,0,0,0,2.5,-0.0320572
7870,0,0,0.391602,-0.000293423,-0.00110032,-0.00703086,0.00220207,-0.00150604,-0.426399,-5.57673,0.573857,-0.392472,0.0206773,0.0162972,0.0223909,0.0158299,-0.426399,0,0,234,104,234,104,318,113,237,184,0.169443,-0.576715,0,-1.5,0,0,0,0,0.0206773,0.0162972,-0.128906,0.628906,0,0,0.0223909,0.0158299,7221,0,0,0,0,0,0,0,0,0,2.5,-0.0325943
7886,0,0,3.67285,-0.000228534,-0.00136449,-0.00732675,0.00220693,-0.00150741,-0.426616,-5.57673,0.573857,-0.392472,0.0210374,0.0165514,0.0225697,0.0159201,-0.426616,0,0,234,104,234,104,318,113,237,184,0.169394,-0.57674,0,-1.5,0,0,0,0,0.0210374,0.0165514,-0.128906,0.628906,0,0,0.0225697,0.0159201,7221,0,0,0,0,0,0,0,0,0,2.5,-0.0331027
7902,0,0,-4.2334,-0.000691013,-0.00138381,-0.0068854,0.0022154,-0.00151304,-0.42671,-5.57673,0.573857,-0.392472,0.0214004,0.016807,0.0227479,0.0160102,-0.42671,0,0,234,104,234,104,318,113,237,184,0.169295,-0.576786,0,-1.5,0,0,0,0,0.0214004,0.016807,-0.128906,0.628906,0,0,0.0227479,0.0160102,7221,0,0,0,0,0,0,0,0,0,2.5,-0.033614
7918,0,0,0.755859,-0.000241035,-0.00163971,-0.00644865,0.00220835,-0.00150869,-0.426902,-5.57673,0.573857,-0.392472,0.0217662,0.0170641,0.0229245,0.0161,-0.426805,0,0,234,104,234,104,318,113,237,184,0.169195,-0.576833,0,-1.5,0,0,0,0,0.0217662,0.0170641,-0.128906,0.628906,0,0,0.0229245,0.0161,7221,0,0,0,0,0,0,0,0,0,2.5,-0.0341283
7935,0,0,-0.814453,-0.000202989,-0.00181451,-0.00712865,0.00220798,-0.00151459,-0.427,-8.08774,-5.62109,-0.302125,0.022158,0.0173389,0.0231098,0.0161942,-0.426902,0,0,582,148,582,148,623,133,586,205,0.169088,-0.576883,0,-1.5,0,0,0,0,0.022158,0.0173389,-0.128906,0.628906,0,0,0.0231098,0.0161942,3312,0,0,0,0,0,0,0,0,0,2.5,-0.0346777
7951,0,0,0.966797,-0.00196036,-0.00146496,-0.00742052,0.00219667,-0.00150976,-0.427096,-8.08774,-5.62109,-0.302125,0.0225062,0.0175826,0.0232732,0.0162758,-0.427096,0,0,582,148,582,148,623,133,586,205,0.169036,-0.576909,0,-1.5,0,0,0,0,0.0225062,0.0175826,-0.128906,0.628906,0,0,0.0232732,0.0162758,3312,0,0,0,0,0,0,0,0,0,2.5,-0.0351651
7967,0,0,5.18457,-0.00154118,-0.00116279,-0.00579169,0.00219733,-0.00151098,-0.427184,-8.16249,-5.67293,-0.294732,0.0228804,0.0178439,0.0234451,0.016361,-0.427184,0,0,582,148,582,148,623,134,586,205,0.168934,-0.576957,0,-1.5,0,0,0,0,0.0228804,0.0178439,-0.128906,0.628906,0,0,0.0234451,0.016361,3266,0,0,0,0,0,0,0,0,0,2.5,-0.0356878
7983,0,0,6.59082,-0.000458123,-0.00064598,-0.00726527,0.00219421,-0.00151432,-0.427284,-8.16249,-5.67293,-0.294732,0.0232809,0.018123,0.0236266,0.0164505,-0.427284,0,0,582,148,582,148,623,134,586,205,0.168826,-0.577007,0,-1.5,0,0,0,0,0.0232809,0.018123,-0.128906,0.628906,0,0,0.0236266,0.0164505,3266,0,0,0,0,0,0,0,0,0,2.5,-0.036246
7998,0,0,-4.79199,0.000371849,-0.00140129,-0.00691371,0.00219376,-0.00151661,-0.427382,-8.08775,-5.62107,-0.30219,0.0236369,0.0183705,0.0237857,0.0165284,-0.427382,0,0,582,148,582,148,623,133,586,205,0.168736,-0.57705,0,-1.5,0,0,0,0,0.0236369,0.0183705,-0.128906,0.628906,0,0,0.0237857,0.0165284,3312,0,0,0,0,0,0,0,0,0,2.5,-0.036741
8013,0,0,-4.79199,0.000371849,-0.00140129,-0.00691371,0.00219376,-0.00151661,-0.427382,-8.08775,-5.62107,-0.30219,0.0239952,0.0186192,0.0239438,0.0166055,-0.427382,0,0,582,148,582,148,623,133,586,205,0.168605,-0.57711,0,-1.5,0,0,0,0,0.0239952,0.0186192,-0.128906,0.628906,0,0,0.0239438,0.0166055,3312,0,0,0,0,0,0,0,0,0,2.5,-0.0372384
8029,0,0,0.277344,0.000275913,-0.00173883,-0.0067464,0.00220774,-0.00152685,-0.427669,-8.02947,-5.58075,-0.297209,0.0243801,0.0188857,0.0241117,0.0166872,-0.427573,0,0,582,148,582,148,623,131,587,204,0.168542,-0.577141,0,-1.5,0,0,0,0,0.0243801,0.0188857,-0.128906,0.628906,0,0,0.0241117,0.0166872,3285,0,0,0,0,0,0,0,0,0,2.5,-0.0377715
8045,0,0,3.97266,0.00045096,-0.00189848,-0.00648132,0.00221738,-0.00153065,-0.42776,-8.02947,-5.58075,-0.297209,0.0247676,0.0191536,0.0242796,0.016769,-0.427669,0,0,582,148,582,148,623,131,587,204,0.16844,-0.577189,0,-1.5,0,0,0,0,0.0247676,0.0191536,-0.128906,0.628906,0,0,0.0242796,0.016769,3285,0,0,0,0,0,0,0,0,0,2.5,-0.0383072
8062,0,0,-4.30762,-0.00146565,-0.00181924,-0.00654594,0.00220832,-0.00153834,-0.427848,-8.02947,-5.58075,-0.297209,0.0251824,0.0194397,0.0244585,0.0168563,-0.427848,0,0,582,148,582,148,623,131,587,204,0.168362,-0.577227,0,-1.5,0,0,0,0,0.0251824,0.0194397,-0.128906,0.628906,0,0,0.0244585,0.0168563,3285,0,0,0,0,0,0,0,0,0,2.5,-0.0388793
8078,0,0,2.89062,-0.000866627,-0.00111951,-0.00644785,0.00220398,-0.00154008,-0.427944,-8.15976,-5.67607,-0.285387,0.0255754,0.0197102,0.0246259,0.0169362,-0.427944,0,0,582,148,582,148,623,133,587,204,0.16826,-0.577275,0,-1.5,0,0,0,0,0.0255754,0.0197102,-0.128906,0.628906,0,0,0.0246259,0.0169362,3266,0,0,0,0,0,0,0,0,0,2.5,-0.0394204
8094,0,0,0.760742,-7.40909e-05,-0.000461721,-0.00575921,0.00195312,-0.00146484,-0.427979,-8.09774,-5.63785,-0.291371,0.0259712,0.0199819,0.0247818,0.0170033,-0.427979,0,0,582,148,582,148,625,132,587,204,0.168135,-0.577333,0,-1.5,0,0,0,0,0.0259712,0.0199819,-0.128906,0.628906,0,0,0.0247818,0.0170033,3240,0,0,0,0,0,0,0,0,0,2.5,-0.0399639
8110,0,0,-0.816406,-0.000221991,-0.00145085,-0.00601,0.00222317,-0.00154429,-0.428123,-8.09774,-5.63785,-0.291371,0.0263692,0.0202545,0.0249304,0.0170631,-0.428123,0,0,582,148,582,148,625,132,587,204,0.168055,-0.577371,0,-1.5,0,0,0,0,0.0263692,0.0202545,-0.128906,0.628906,0,0,0.0249304,0.0170631,3240,0,0,0,0,0,0,0,0,0,2.5,-0.0405091
8126,0,0,5.16797,0.000402379,-0.00254518,-0.00698271,0.00223148,-0.00157654,-0.428326,-8.09774,-5.63785,-0.291371,0.0267698,0.0205284,0.0250965,0.0171426,-0.428227,0,0,582,148,582,148,625,132,587,204,0.167954,-0.577419,0,-1.5,0,0,0,0,0.0267698,0.0205284,-0.128906,0.628906,0,0,0.0250965,0.0171426,3240,0,0,0,0,0,0,0,0,0,2.5,-0.0410568
8142,0,0,6.56543,-0.000544209,-0.00214639,-0.0074925,0.00223747,-0.00158525,-0.428428,-8.08785,-5.62115,-0.302587,0.0271731,0.0208035,0.0252641,0.0172208,-0.428326,0,0,582,148,582,148,623,133,586,205,0.167852,-0.577468,0,-1.5,0,0,0,0,0.0271731,0.0208035,-0.128906,0.628906,0,0,0.0252641,0.0172208,3312,0,0,0,0,0,0,0,0,0,2.5,-0.041607
8158,0,0,-4.76953,0.000271633,-0.000868131,-0.00696582,0.00224794,-0.0015851,-0.428524,-8.08785,-5.62115,-0.302587,0.027579,0.0210798,0.0254338,0.017299,-0.428524,0,0,582,148,582,148,623,133,586,205,0.167788,-0.5775,0,-1.5,0,0,0,0,0.027579,0.0210798,-0.128906,0.628906,0,0,0.0254338,0.017299,3312,0,0,0,0,0,0,0,0,0,2.5,-0.0421597
8173,0,0,-4.76953,0.000271633,-0.000868131,-0.00696582,0.00224794,-0.0015851,-0.428524,-8.1847,-5.68847,-0.281951,0.0279621,0.02134,0.0255922,0.017373,-0.428524,0,0,582,148,582,148,623,133,587,204,0.167653,-0.577562,0,-1.5,0,0,0,0,0.0279621,0.02134,-0.128906,0.628906,0,0,0.0255922,0.017373,3195,0,0,0,0,0,0,0,0,0,2.5,-0.0426801
8190,0,0,0.387695,-0.00115968,-0.00108685,-0.007422,0.0022359,-0.00159357,-0.428723,-8.1847,-5.68847,-0.281951,0.0283991,0.0216363,0.0257705,0.0174554,-0.428723,0,0,582,148,582,148,623,133,587,204,0.167579,-0.577599,0,-1.5,0,0,0,0,0.0283991,0.0216363,-0.128906,0.628906,0,0,0.0257705,0.0174554,3195,0,0,0,0,0,0,0,0,0,2.5,-0.0432726
8205,0,0,0.387695,-0.00115968,-0.00108685,-0.007422,0.0022359,-0.00159357,-0.428723,-8.02967,-5.58087,-0.298048,0.0287872,0.0218988,0.0259269,0.017526,-0.428723,0,0,582,148,582,148,623,131,587,204,0.167444,-0.57766,0,-1.5,0,0,0,0,0.0287872,0.0218988,-0.128906,0.628906,0,0,0.0259269,0.017526,3285,0,0,0,0,0,0,0,0,0,2.5,-0.0437976
8221,0,0,3.98242,-0.000479115,-0.00238971,-0.00724979,0.00223538,-0.00161838,-0.428912,-8.02967,-5.58087,-0.298048,0.0292038,0.02218,0.0260937,0.0176002,-0.428912,0,0,582,148,582,148,623,131,587,204,0.167375,-0.577695,0,-1.5,0,0,0,0,0.0292038,0.02218,-0.128906,0.628906,0,0,0.0260937,0.0176002,3285,0,0,0,0,0,0,0,0,0,2.5,-0.04436
8238,0,0,2.88672,-0.000503763,-0.00097428,-0.00632131,0.00224233,-0.00162181,-0.429106,-8.088,-5.6212,-0.303249,0.0296493,0.02248,0.0262719,0.0176771,-0.428912,0,0,582,148,582,148,623,133,586,205,0.167221,-0.577765,0,-1.5,0,0,0,0,0.0296493,0.02248,-0.128906,0.628906,0,0,0.0262719,0.0176771,3312,0,0,0,0,0,0,0,0,0,2.5,-0.0449601
8254,0,0,0.764648,-0.000846291,-0.00210564,-0.00688898,0.00224999,-0.00163049,-0.429193,-8.088,-5.6212,-0.303249,0.0300714,0.0227636,0.0264389,0.0177494,-0.429193,0,0,582,148,582,148,623,133,586,205,0.16719,-0.577785,0,-1.5,0,0,0,0,0.0300714,0.0227636,-0.128906,0.628906,0,0,0.0264389,0.0177494,3312,0,0,0,0,0,0,0,0,0,2.5,-0.0455272
8270,0,0,0.764648,-0.000846291,-0.00210564,-0.00688898,0.00224999,-0.00163049,-0.429193,-8.08802,-5.62122,-0.303314,0.0304961,0.0230483,0.0266066,0.0178218,-0.429193,0,0,582,148,582,148,623,133,586,205,0.167044,-0.577852,0,-1.5,0,0,0,0,0.0304961,0.0230483,-0.128906,0.628906,0,0,0.0266066,0.0178218,3312,0,0,0,0,0,0,0,0,0,2.5,-0.0460967
8286,0,0,0.959961,0.000533834,-0.00190021,-0.00751458,0.00226191,-0.00163987,-0.429387,-8.08802,-5.62122,-0.303314,0.0309235,0.0233342,0.0267739,0.0178941,-0.429387,0,0,582,148,582,148,623,133,586,205,0.166975,-0.577886,0,-1.5,0,0,0,0,0.0309235,0.0233342,-0.128906,0.628906,0,0,0.0267739,0.0178941,3312,0,0,0,0,0,0,0,0,0,2.5,-0.0466685
8302,0,0,0.959961,0.000533834,-0.00190021,-0.00751458,0.00226191,-0.00163987,-0.429387,-8.08808,-5.62127,-0.303565,0.0313537,0.0236213,0.0269411,0.0179664,-0.429387,0,0,582,148,582,148,623,133,586,205,0.166828,-0.577954,0,-1.5,0,0,0,0,0.0313537,0.0236213,-0.128906,0.628906,0,0,0.0269411,0.0179664,3312,0,0,0,0,0,0,0,0,0,2.5,-0.0472426
8318,0,0,6.58203,0.000692522,-0.000764321,-0.00721874,0.0022614,-0.00164202,-0.429565,-8.08808,-5.62127,-0.303565,0.0317864,0.0239095,0.027107,0.018038,-0.429565,0,0,582,148,582,148,623,133,586,205,0.166753,-0.577991,0,-1.5,0,0,0,0,0.0317864,0.0239095,-0.128906,0.628906,0,0,0.027107,0.018038,3312,0,0,0,0,0,0,0,0,0,2.5,-0.047819
8335,0,0,-4.81934,-0.00103641,-0.00214677,-0.00705835,0.00226115,-0.00164984,-0.429659,-7.96079,-5.52817,-0.31513,0.0322491,0.024217,0.0272826,0.018113,-0.429659,0,0,582,148,582,148,623,131,586,205,0.166634,-0.578048,0,-1.5,0,0,0,0,0.0322491,0.024217,-0.128906,0.628906,0,0,0.0272826,0.018113,3330,0,0,0,0,0,0,0,0,0,2.5,-0.0484339
8350,0,0,0.383789,0.000123957,-0.00226241,-0.00744735,0.00227092,-0.00167301,-0.429858,-7.96079,-5.52817,-0.31513,0.0326599,0.0244893,0.0274374,0.0181783,-0.429858,0,0,582,148,582,148,623,131,586,205,0.166576,-0.578078,0,-1.5,0,0,0,0,0.0326599,0.0244893,-0.128906,0.628906,0,0,0.0274374,0.0181783,3330,0,0,0,0,0,0,0,0,0,2.5,-0.0489786
8366,0,0,0.283203,0.000847497,-0.000646205,-0.00660305,0.00228841,-0.00166249,-0.429947,-7.96079,-5.52817,-0.31513,0.0331006,0.0247809,0.0276046,0.0182481,-0.429947,0,0,582,148,582,148,623,131,586,205,0.166464,-0.578131,0,-1.5,0,0,0,0,0.0331006,0.0247809,-0.128906,0.628906,0,0,0.0276046,0.0182481,3330,0,0,0,0,0,0,0,0,0,2.5,-0.0495617
8383,0,0,3.96973,-0.00114871,-0.00191351,-0.00789054,0.0022782,-0.00166692,-0.430055,-7.96079,-5.52817,-0.31513,0.0335719,0.0250919,0.0277805,0.0183233,-0.430055,0,0,582,148,582,148,623,131,586,205,0.166349,-0.578186,0,-1.5,0,0,0,0,0.0335719,0.0250919,-0.128906,0.628906,0,0,0.0277805,0.0183233,3330,0,0,0,0,0,0,0,0,0,2.5,-0.0501838
8398,0,0,-4.32617,0.000161693,-0.00172196,-0.00722509,0.00228378,-0.00167663,-0.430146,-8.05421,-5.59262,-0.305593,0.0339901,0.0253674,0.0279351,0.0183882,-0.430146,0,0,582,146,582,146,625,134,583,205,0.166246,-0.578235,0,-1.5,0,0,0,0,0.0339901,0.0253674,-0.128906,0.628906,0,0,0.0279351,0.0183882,3266,0,0,0,0,0,0,0,0,0,2.5,-0.0507348
8413,0,0,-4.32617,0.000161693,-0.00172196,-0.00722509,0.00228378,-0.00167663,-0.430146,-8.05421,-5.59262,-0.305593,0.0344105,0.0256438,0.0280895,0.0184527,-0.430146,0,0,582,146,582,146,625,134,583,205,0.166105,-0.578299,0,-1.5,0,0,0,0,0.0344105,0.0256438,-0.128906,0.628906,0,0,0.0280895,0.0184527,3266,0,0,0,0,0,0,0,0,0,2.5,-0.0512877
8429,0,0,-4.32617,0.000161693,-0.00172196,-0.00722509,0.00228378,-0.00167663,-0.430146,-8.09581,-5.63661,-0.302357,0.0348617,0.0259398,0.0282531,0.0185209,-0.430146,0,0,582,148,582,148,623,133,588,205,0.165955,-0.578368,0,-1.5,0,0,0,0,0.0348617,0.0259398,-0.128906,0.628906,0,0,0.0282531,0.0185209,3312,0,0,0,0,0,0,0,0,0,2.5,-0.0518796
8445,0,0,0.974609,-0.000333629,-0.000670014,-0.00544296,0.00232452,-0.00171335,-0.430533,-8.09581,-5.63661,-0.302357,0.0353154,0.0262368,0.0284153,0.0185886,-0.430146,0,0,582,148,582,148,623,133,588,205,0.165805,-0.578437,0,-1.5,0,0,0,0,0.0353154,0.0262368,-0.128906,0.628906,0,0,0.0284153,0.0185886,3312,0,0,0,0,0,0,0,0,0,2.5,-0.0524737
8461,0,0,5.17969,-0.00018361,-0.000419509,-0.00829126,0.00232711,-0.00170649,-0.430629,-5.57366,0.573372,-0.394281,0.0357719,0.026535,0.028584,0.0186591,-0.430629,0,0,234,104,234,104,317,113,237,184,0.165848,-0.578426,0,-1.5,0,0,0,0,0.0357719,0.026535,-0.128906,0.628906,0,0,0.028584,0.0186591,7304,0,0,0,0,0,0,0,0,0,2.5,-0.05307
8477,0,0,6.57324,-0.000133487,-0.00188824,-0.00662543,0.00233172,-0.00171447,-0.430715,-5.57366,0.573372,-0.394281,0.0362309,0.0268343,0.0287511,0.0187298,-0.430715,0,0,234,104,234,104,317,113,237,184,0.165731,-0.578482,0,-1.5,0,0,0,0,0.0362309,0.0268343,-0.128906,0.628906,0,0,0.0287511,0.0187298,7304,0,0,0,0,0,0,0,0,0,2.5,-0.0536686
8493,0,0,-4.80078,-0.000279679,-0.00165884,-0.0071534,0.00233598,-0.00171452,-0.430812,-5.57366,0.573372,-0.394281,0.0366927,0.0271347,0.0289181,0.0188002,-0.430812,0,0,234,104,234,104,317,113,237,184,0.165618,-0.578536,0,-1.5,0,0,0,0,0.0366927,0.0271347,-0.128906,0.628906,0,0,0.0289181,0.0188002,7304,0,0,0,0,0,0,0,0,0,2.5,-0.0542694
8509,0,0,-4.80078,-0.000279679,-0.00165884,-0.0071534,0.00233598,-0.00171452,-0.430812,-8.03004,-5.58115,-0.299525,0.0371572,0.0274362,0.029084,0.0188704,-0.430812,0,0,582,148,582,148,623,131,587,204,0.165465,-0.578606,0,-1.5,0,0,0,0,0.0371572,0.0274362,-0.128906,0.628906,0,0,0.029084,0.0188704,3285,0,0,0,0,0,0,0,0,0,2.5,-0.0548725
8526,0,0,0.226562,0.000609798,-0.00109824,-0.00644126,0.00236139,-0.00173279,-0.431105,-8.03004,-5.58115,-0.299525,0.0376536,0.0277579,0.02926,0.0189445,-0.431018,0,0,582,148,582,148,623,131,587,204,0.165385,-0.578647,0,-1.5,0,0,0,0,0.0376536,0.0277579,-0.128906,0.628906,0,0,0.02926,0.0189445,3285,0,0,0,0,0,0,0,0,0,2.5,-0.0555158
8542,0,0,3.98438,-0.00154253,-0.00159465,-0.00758404,0.00235649,-0.00173611,-0.431204,-8.1899,-5.68699,-0.277782,0.0381234,0.0280617,0.029427,0.019015,-0.431105,0,0,582,148,582,148,623,133,586,205,0.165266,-0.578704,0,-1.5,0,0,0,0,0.0381234,0.0280617,-0.128906,0.628906,0,0,0.029427,0.019015,3240,0,0,0,0,0,0,0,0,0,2.5,-0.0561234
8558,0,0,-4.35352,-0.000903368,-0.00296045,-0.00754412,0.00235976,-0.00175919,-0.431307,-8.1899,-5.68699,-0.277782,0.0385663,0.0283476,0.0295833,0.0190803,-0.431307,0,0,582,148,582,148,623,133,586,205,0.165203,-0.578737,0,-1.5,0,0,0,0,0.0385663,0.0283476,-0.128906,0.628906,0,0,0.0295833,0.0190803,3240,0,0,0,0,0,0,0,0,0,2.5,-0.0566951
8574,0,0,2.89551,-0.000592497,-0.000767686,-0.0074876,0.00235937,-0.0017571,-0.431395,-8.1899,-5.68699,-0.277782,0.0390713,0.0286728,0.0297623,0.0191528,-0.431395,0,0,582,148,582,148,623,133,586,205,0.165075,-0.578798,0,-1.5,0,0,0,0,0.0390713,0.0286728,-0.128906,0.628906,0,0,0.0297623,0.0191528,3240,0,0,0,0,0,0,0,0,0,2.5,-0.0573455
8589,0,0,0.776367,-0.000126972,-0.00236,-0.00649564,0.00236092,-0.00176955,-0.431486,-8.1899,-5.68699,-0.277782,0.0395193,0.0289607,0.0299194,0.019216,-0.431486,0,0,582,148,582,148,623,133,586,205,0.164967,-0.57885,0,-1.5,0,0,0,0,0.0395193,0.0289607,-0.128906,0.628906,0,0,0.0299194,0.019216,3240,0,0,0,0,0,0,0,0,0,2.5,-0.0579213
8605,0,0,0.776367,-0.000126972,-0.00236,-0.00649564,0.00236092,-0.00176955,-0.431486,-8.21063,-5.7111,-0.28553,0.0399696,0.0292495,0.0300764,0.0192784,-0.431486,0,0,582,148,582,148,625,134,585,204,0.164821,-0.578916,0,-1.5,0,0,0,0,0.0399696,0.0292495,-0.128906,0.628906,0,0,0.0300764,0.0192784,3220,0,0,0,0,0,0,0,0,0,2.5,-0.058499
8621,0,0,0.978516,-0.000444827,-0.00145719,-0.00701767,0.00238004,-0.00176954,-0.431667,-8.21063,-5.7111,-0.28553,0.0404828,0.029578,0.0302535,0.0193497,-0.431667,0,0,582,148,582,148,625,134,585,204,0.164729,-0.578963,0,-1.5,0,0,0,0,0.0404828,0.029578,-0.128906,0.628906,0,0,0.0302535,0.0193497,3220,0,0,0,0,0,0,0,0,0,2.5,-0.059156
8637,0,0,6.57227,0.000747797,-0.00133013,-0.0071309,0.00240535,-0.00176806,-0.431845,-8.21065,-5.71115,-0.285635,0.0409686,0.0298883,0.0304196,0.0194178,-0.431667,0,0,582,148,582,148,625,134,585,204,0.164573,-0.579035,0,-1.5,0,0,0,0,0.0409686,0.0298883,-0.128906,0.628906,0,0,0.0304196,0.0194178,3220,0,0,0,0,0,0,0,0,0,2.5,-0.0597766
8653,0,0,-4.8291,0.000247146,-0.00172592,-0.00528849,0.00242045,-0.00177281,-0.431925,-8.21065,-5.71115,-0.285635,0.041457,0.0301997,0.0305852,0.0194874,-0.431845,0,0,582,148,582,148,625,134,585,204,0.164487,-0.579078,0,-1.5,0,0,0,0,0.041457,0.0301997,-0.128906,0.628906,0,0,0.0305852,0.0194874,3220,0,0,0,0,0,0,0,0,0,2.5,-0.0603994
8669,0,0,-4.8291,0.000247146,-0.00172592,-0.00528849,0.00242045,-0.00177281,-0.431925,-8.08852,-5.62165,-0.305369,0.0419481,0.0305122,0.0307518,0.0195598,-0.431925,0,0,582,148,582,148,623,133,586,205,0.164361,-0.579138,0,-1.5,0,0,0,0,0.0419481,0.0305122,-0.128906,0.628906,0,0,0.0307518,0.0195598,3312,0,0,0,0,0,0,0,0,0,2.5,-0.0610245
8685,0,0,0.370117,-0.00102356,-0.00131592,-0.00593965,0.00243254,-0.00178659,-0.432105,-8.08852,-5.62165,-0.305369,0.0424418,0.0308259,0.0309177,0.0196319,-0.432105,0,0,582,148,582,148,623,133,586,205,0.164275,-0.579182,0,-1.5,0,0,0,0,0.0424418,0.0308259,-0.128906,0.628906,0,0,0.0309177,0.0196319,3312,0,0,0,0,0,0,0,0,0,2.5,-0.0616519
8701,0,0,0.274414,-0.000465513,-0.00100578,-0.00771294,0.00242957,-0.0017943,-0.432207,-8.08859,-5.62172,-0.305665,0.0429382,0.0311408,0.0310848,0.0197035,-0.432207,0,0,582,148,582,148,623,133,586,205,0.164157,-0.579238,0,-1.5,0,0,0,0,0.0429382,0.0311408,-0.128906,0.628906,0,0,0.0310848,0.0197035,3312,0,0,0,0,0,0,0,0,0,2.5,-0.0622816
8718,0,0,0.274414,-0.000465513,-0.00100578,-0.00771294,0.00242957,-0.0017943,-0.432207,-8.08859,-5.62172,-0.305665,0.0434373,0.0314568,0.0312511,0.019774,-0.432207,0,0,582,148,582,148,623,133,586,205,0.163998,-0.579312,0,-1.5,0,0,0,0,0.0434373,0.0314568,-0.128906,0.628906,0,0,0.0312511,0.019774,3312,0,0,0,0,0,0,0,0,0,2.5,-0.0629136
8734,0,0,-4.31445,0.000138607,-0.00192397,-0.00665241,0.0024594,-0.00181183,-0.43241,-8.0886,-5.62172,-0.305711,0.0439705,0.0317938,0.0314284,0.0198496,-0.43241,0,0,582,148,582,148,623,133,586,205,0.16391,-0.579357,0,-1.5,0,0,0,0,0.0439705,0.0317938,-0.128906,0.628906,0,0,0.0314284,0.0198496,3312,0,0,0,0,0,0,0,0,0,2.5,-0.0635876
8749,0,0,0.768555,0.0010199,-0.00103849,-0.0076464,0.00247332,-0.00181055,-0.432602,-8.0886,-5.62172,-0.305711,0.0444435,0.0320922,0.031586,0.0199174,-0.43241,0,0,582,148,582,148,623,133,586,205,0.163759,-0.579427,0,-1.5,0,0,0,0,0.0444435,0.0320922,-0.128906,0.628906,0,0,0.031586,0.0199174,3312,0,0,0,0,0,0,0,0,0,2.5,-0.0641844
8765,0,0,-0.814453,-0.00010246,-0.000630724,-0.00784853,0.00247327,-0.00180277,-0.432711,-8.08869,-5.62183,-0.306078,0.0449506,0.0324116,0.0317535,0.0199913,-0.432711,0,0,582,148,582,148,623,133,586,205,0.163719,-0.579452,0,-1.5,0,0,0,0,0.0449506,0.0324116,-0.128906,0.628906,0,0,0.0317535,0.0199913,3312,0,0,0,0,0,0,0,0,0,2.5,-0.0648233
8782,0,0,0.942383,5.01165e-05,-0.00316781,-0.00724218,0.00247325,-0.00182438,-0.432816,-8.08869,-5.62183,-0.306078,0.0454924,0.0327524,0.0319297,0.0200691,-0.432816,0,0,582,148,582,148,623,133,586,205,0.163589,-0.579515,0,-1.5,0,0,0,0,0.0454924,0.0327524,-0.128906,0.628906,0,0,0.0319297,0.0200691,3312,0,0,0,0,0,0,0,0,0,2.5,-0.0655047
8797,0,0,5.15625,-0.000965028,-0.00154873,-0.00674652,0.00245946,-0.00183007,-0.432907,-8.15226,-5.67573,-0.301067,0.0459728,0.033054,0.0320861,0.0201353,-0.432907,0,0,582,148,582,148,625,134,586,205,0.163474,-0.57957,0,-1.5,0,0,0,0,0.0459728,0.033054,-0.128906,0.628906,0,0,0.0320861,0.0201353,3266,0,0,0,0,0,0,0,0,0,2.5,-0.0661081
8813,0,0,6.56836,0.000453281,-0.00135563,-0.0067447,0.00246663,-0.00182804,-0.433009,-8.15226,-5.67573,-0.301067,0.046488,0.0333769,0.0322518,0.0202044,-0.433009,0,0,582,148,582,148,625,134,586,205,0.163353,-0.579628,0,-1.5,0,0,0,0,0.046488,0.0333769,-0.128906,0.628906,0,0,0.0322518,0.0202044,3266,0,0,0,0,0,0,0,0,0,2.5,-0.0667539
8829,0,0,-4.80957,0.000314675,-0.00171623,-0.00776128,0.00247823,-0.00184061,-0.433115,-8.15226,-5.67571,-0.30106,0.0470057,0.0337009,0.0324172,0.0202739,-0.433115,0,0,582,148,582,148,625,134,586,205,0.163233,-0.579686,0,-1.5,0,0,0,0,0.0470057,0.0337009,-0.128906,0.628906,0,0,0.0324172,0.0202739,3266,0,0,0,0,0,0,0,0,0,2.5,-0.0674018
8845,0,0,0.397461,6.15517e-05,-0.00114232,-0.00556283,0.00249718,-0.00182362,-0.433306,-8.15226,-5.67571,-0.30106,0.0475262,0.034026,0.0325829,0.0203433,-0.433115,0,0,582,148,582,148,625,134,586,205,0.16307,-0.579762,0,-1.5,0,0,0,0,0.0475262,0.034026,-0.128906,0.628906,0,0,0.0325829,0.0203433,3266,0,0,0,0,0,0,0,0,0,2.5,-0.0680521
8861,0,0,0.245117,-2.57978e-05,-0.001665,-0.00540531,0.00250205,-0.00183304,-0.433377,-8.14412,-5.65538,-0.302225,0.0480492,0.0343523,0.0327469,0.020414,-0.433377,0,0,582,149,582,149,623,133,586,205,0.163012,-0.579795,0,-1.5,0,0,0,0,0.0480492,0.0343523,-0.128906,0.628906,0,0,0.0327469,0.020414,3240,0,0,0,0,0,0,0,0,0,2.5,-0.0687045
8877,0,0,3.66699,-0.000322594,-0.00119127,-0.0067612,0.00251436,-0.00183589,-0.433479,-8.14412,-5.65538,-0.302225,0.0485749,0.0346797,0.0329108,0.0204865,-0.433479,0,0,582,149,582,149,623,133,586,205,0.162889,-0.579855,0,-1.5,0,0,0,0,0.0485749,0.0346797,-0.128906,0.628906,0,0,0.0329108,0.0204865,3240,0,0,0,0,0,0,0,0,0,2.5,-0.0693593
8894,0,0,-4.25684,-0.00126684,-0.00140517,-0.00755522,0.002512,-0.00183674,-0.433573,-8.14412,-5.65538,-0.302225,0.0491032,0.0350082,0.0330743,0.0205594,-0.433573,0,0,582,149,582,149,623,133,586,205,0.162761,-0.579916,0,-1.5,0,0,0,0,0.0491032,0.0350082,-0.128906,0.628906,0,0,0.0330743,0.0205594,3240,0,0,0,0,0,0,0,0,0,2.5,-0.0700164
8909,0,0,-4.25684,-0.00126684,-0.00140517,-0.00755522,0.002512,-0.00183674,-0.433573,-8.16793,-5.66206,-0.297739,0.0496341,0.0353379,0.0332366,0.0206314,-0.433573,0,0,582,148,582,148,620,134,586,205,0.162595,-0.579993,0,-1.5,0,0,0,0,0.0496341,0.0353379,-0.128906,0.628906,0,0,0.0332366,0.0206314,3266,0,0,0,0,0,0,0,0,0,2.5,-0.0706758
8925,0,0,0.785156,-0.00125147,-0.00120643,-0.00648851,0.00251312,-0.00184724,-0.433767,-8.16793,-5.66206,-0.297739,0.0501675,0.0356688,0.0333981,0.0207026,-0.433767,0,0,582,148,582,148,620,134,586,205,0.162508,-0.580038,0,-1.5,0,0,0,0,0.0501675,0.0356688,-0.128906,0.628906,0,0,0.0333981,0.0207026,3266,0,0,0,0,0,0,0,0,0,2.5,-0.0713375
8941,0,0,0.97168,0.000316939,-0.000300102,-0.00687524,0.00252855,-0.00183825,-0.433944,-8.16793,-5.66206,-0.297739,0.0507036,0.0360007,0.0335593,0.0207728,-0.433767,0,0,582,148,582,148,620,134,586,205,0.162341,-0.580115,0,-1.5,0,0,0,0,0.0507036,0.0360007,-0.128906,0.628906,0,0,0.0335593,0.0207728,3266,0,0,0,0,0,0,0,0,0,2.5,-0.0720015
8957,0,0,5.15625,-0.000598183,-0.000696439,-0.00679438,0.00252418,-0.00183681,-0.434039,-8.16793,-5.66206,-0.297739,0.0512422,0.0363338,0.0337191,0.0208452,-0.433944,0,0,582,148,582,148,620,134,586,205,0.162246,-0.580164,0,-1.5,0,0,0,0,0.0512422,0.0363338,-0.128906,0.628906,0,0,0.0337191,0.0208452,3266,0,0,0,0,0,0,0,0,0,2.5,-0.0726677
8973,0,0,6.54688,-0.000784428,-0.00225082,-0.0053461,0.00251869,-0.0018411,-0.434118,-8.16793,-5.66206,-0.297739,0.0517834,0.0366681,0.0338771,0.0209163,-0.434118,0,0,582,148,582,148,620,134,586,205,0.162148,-0.580214,0,-1.5,0,0,0,0,0.0517834,0.0366681,-0.128906,0.628906,0,0,0.0338771,0.0209163,3266,0,0,0,0,0,0,0,0,0,2.5,-0.0733362
8988,0,0,-4.8125,-0.000860684,-0.00172187,-0.00571432,0.00251357,-0.00185043,-0.434203,-8.16793,-5.66206,-0.297739,0.0522929,0.0369825,0.0340245,0.0209812,-0.434203,0,0,582,148,582,148,620,134,586,205,0.162025,-0.580273,0,-1.5,0,0,0,0,0.0522929,0.0369825,-0.128906,0.628906,0,0,0.0340245,0.0209812,3266,0,0,0,0,0,0,0,0,0,2.5,-0.073965
9004,0,0,4.52148,-0.000290254,-0.000599348,-0.00638697,0.00252152,-0.00184705,-0.434294,-8.16793,-5.66206,-0.297739,0.052839,0.0373189,0.0341814,0.0210494,-0.434294,0,0,582,148,582,148,620,134,586,205,0.161894,-0.580336,0,-1.5,0,0,0,0,0.052839,0.0373189,-0.128906,0.628906,0,0,0.0341814,0.0210494,3266,0,0,0,0,0,0,0,0,0,2.5,-0.0746378
9021,0,0,0.376953,4.07534e-05,-0.00179925,-0.00771559,0.00253194,-0.00185428,-0.434397,-8.16793,-5.66206,-0.297739,0.0534219,0.0376775,0.0343475,0.0211226,-0.434397,0,0,582,148,582,148,620,134,586,205,0.161757,-0.580403,0,-1.5,0,0,0,0,0.0534219,0.0376775,-0.128906,0.628906,0,0,0.0343475,0.0211226,3266,0,0,0,0,0,0,0,0,0,2.5,-0.0753551
9037,0,0,3.9668,-0.000403816,-0.00194738,-0.00636741,0.00253264,-0.00186812,-0.43458,-8.16793,-5.66206,-0.297739,0.0539731,0.0380162,0.0345036,0.0211914,-0.434397,0,0,582,148,582,148,620,134,586,205,0.161588,-0.580481,0,-1.5,0,0,0,0,0.0539731,0.0380162,-0.128906,0.628906,0,0,0.0345036,0.0211914,3266,0,0,0,0,0,0,0,0,0,2.5,-0.0760325
9053,0,0,-4.35156,-0.00059447,-0.000899457,-0.00611087,0.00253626,-0.00186891,-0.434663,-8.16793,-5.66206,-0.297739,0.0545267,0.038356,0.0346595,0.0212592,-0.43458,0,0,582,148,582,148,620,134,586,205,0.161492,-0.58053,0,-1.5,0,0,0,0,0.0545267,0.038356,-0.128906,0.628906,0,0,0.0346595,0.0212592,3266,0,0,0,0,0,0,0,0,0,2.5,-0.076712
9069,0,0,-4.35156,-0.00059447,-0.000899457,-0.00611087,0.00253626,-0.00186891,-0.434663,-8.00739,-5.57036,-0.305567,0.0550829,0.0386968,0.0348155,0.0213265,-0.434663,0,0,582,148,582,148,623,131,587,204,0.161356,-0.580596,0,-1.5,0,0,0,0,0.0550829,0.0386968,-0.128906,0.628906,0,0,0.0348155,0.0213265,3358,0,0,0,0,0,0,0,0,0,2.5,-0.0773937
