timestamp,A_x,A_y,A_z,P,Q,R,Phi,Theta,Psi,poseX,poseY,poseZ,state_X,state_Y,state_Z,state_VzB,state_Bx,state_By,state_Bz,p1_x,p1_y,p2_x,p2_y,p3_x,p3_y,p4_x,p4_y,roll,pitch,yaw,alt,targetHeading,highLevelState,lowLevelState,gateNumber,filtered_x,filtered_y,x_OT,y_OT,vx_OT,vy_OT,filtered_vx,filtered_vygateArearansac_corr_x,ransac_corr_y,ransac_corr_vx,ransac_corr_vy,detectionTimeStamppTermX,dTermX,pTermY,dTermY,vxcmd,vycmd
6092,-0.548828,0.1875,5.27246,0.000423149,0.00320134,-0.00541023,0.0699852,0.00147158,0.530557,0,0,0,-6.84155e-06,1.10648e-05,-0.00179966,0.00291179,0.532089,0,0,0,0,0,0,0,0,0,0,-0.221998,-0.550081,0,-1.5,3.69241e-38,0,0,0,-6.84155e-06,1.10648e-05,0,0,0,0,-0.00179966,0.00291179,1.9603e-19,0,0,0,0,0,0,0,0,0,2.51,-2.21297e-05
6106,-0.548828,0.0488281,0.376953,0.000138277,0.00286729,-0.00608566,0.0701981,0.00133677,0.526737,0,0,0,-7.46718e-05,0.000121203,-0.00680769,0.0110745,0.528257,0,0,0,0,0,0,0,0,0,0,-0.222367,-0.549873,0,-1.5,3.69241e-38,0,0,0,-7.46718e-05,0.000121203,0,0,0,0,-0.00680769,0.0110745,1.9603e-19,0,0,0,0,0,0,0,0,0,2.51,-0.000242406
6121,-0.548828,0.0214844,-1.16504,0.00125302,0.00242209,-0.00391263,0.0705997,0.00118063,0.522979,0,0,0,-0.000239709,0.000391033,-0.012449,0.0203963,0.524498,0,0,0,0,0,0,0,0,0,0,-0.223088,-0.549471,0,-1.5,3.69241e-38,0,0,0,-0.000239709,0.000391033,0,0,0,0,-0.012449,0.0203963,1.9603e-19,0,0,0,0,0,0,0,0,0,2.51,-0.000782066
6139,-0.548828,0.161133,4.06348,-0.000130165,0.00248401,-0.00525636,0.0708267,0.000959251,0.519189,0,0,0,-0.000536155,0.000878907,-0.018723,0.0308894,0.520654,0,0,0,0,0,0,0,0,0,0,-0.224133,-0.5489,0,-1.5,3.69241e-38,0,0,0,-0.000536155,0.000878907,0,0,0,0,-0.018723,0.0308894,1.9603e-19,0,0,0,0,0,0,0,0,0,2.51,-0.00175781
6155,-0.548828,0.140625,4.68164,-0.00067188,0.00132759,-0.00464371,0.0708663,0.000919542,0.518639,0,0,0,-0.000893501,0.00147096,-0.0242128,0.0401981,0.518639,0,0,0,0,0,0,0,0,0,0,-0.225656,-0.54805,0,-1.5,3.69241e-38,0,0,0,-0.000893501,0.00147096,0,0,0,0,-0.0242128,0.0401981,1.9603e-19,0,0,0,0,0,0,0,0,0,2.51,-0.00294193
6171,-0.548828,0.149414,0.529297,-0.000305808,0.00142749,-0.00399538,0.070875,0.000912808,0.518582,0,0,0,-0.00133806,0.0022114,-0.0296475,0.0494477,0.518582,0,0,0,0,0,0,0,0,0,0,-0.227964,-0.546734,0,-1.5,3.69241e-38,0,0,0,-0.00133806,0.0022114,0,0,0,0,-0.0296475,0.0494477,1.9603e-19,0,0,0,0,0,0,0,0,0,2.51,-0.0044228
6187,-0.548828,0.149414,0.376953,-0.000259798,0.00171429,-0.00473387,0.0708736,0.000910286,0.518525,0,0,0,-0.00186911,0.00309908,-0.0350378,0.0586252,0.518525,0,0,0,0,0,0,0,0,0,0,-0.230322,-0.545389,0,-1.5,3.69241e-38,0,0,0,-0.00186911,0.00309908,0,0,0,0,-0.0350378,0.0586252,1.9603e-19,0,0,0,0,0,0,0,0,0,2.51,-0.00619816
6203,-0.548828,0.149414,4.09766,0.00125235,0.00192098,-0.00516615,0.0708884,0.000902922,0.518455,0,0,0,-0.00248594,0.00413283,-0.0403844,0.0677309,0.518455,0,0,0,0,0,0,0,0,0,0,-0.232722,-0.544021,0,-1.5,3.69241e-38,0,0,0,-0.00248594,0.00413283,0,0,0,0,-0.0403844,0.0677309,1.9603e-19,0,0,0,0,0,0,0,0,0,2.51,-0.00826567
6219,-0.548828,0.149414,-4.22461,-0.000630113,0.00320004,-0.00517626,0.0708826,0.000909359,0.518384,0,0,0,-0.00318619,0.00530869,-0.045687,0.0767639,0.518384,0,0,0,0,0,0,0,0,0,0,-0.235168,-0.542628,0,-1.5,3.69241e-38,0,0,0,-0.00318619,0.00530869,0,0,0,0,-0.045687,0.0767639,1.9603e-19,0,0,0,0,0,0,0,0,0,2.51,-0.0106174
6235,-0.548828,0.149414,0.899414,0.000830653,0.0020015,-0.00470277,0.0708897,0.0008956,0.518259,0,0,0,-0.00397251,0.00663116,-0.0509472,0.0857264,0.518321,0,0,0,0,0,0,0,0,0,0,-0.237665,-0.541205,0,-1.5,3.69241e-38,0,0,0,-0.00397251,0.00663116,0,0,0,0,-0.0509472,0.0857264,1.9603e-19,0,0,0,0,0,0,0,0,0,2.51,-0.0132623
6251,-0.548828,0.149414,-0.706055,0.000177579,0.00279797,-0.00399018,0.0708985,0.000894748,0.518204,0,0,0,-0.00484088,0.00809349,-0.0561631,0.0946176,0.518259,0,0,0,0,0,0,0,0,0,0,-0.240209,-0.539756,0,-1.5,3.69241e-38,0,0,0,-0.00484088,0.00809349,0,0,0,0,-0.0561631,0.0946176,1.9603e-19,0,0,0,0,0,0,0,0,0,2.51,-0.016187
6266,-0.548828,0.121094,1.10547,-7.94036e-05,0.00209101,-0.00429739,0.0708951,0.000891415,0.518149,0,0,0,-0.00573029,0.00959284,-0.0610149,0.102891,0.518149,0,0,0,0,0,0,0,0,0,0,-0.242616,-0.538387,0,-1.5,3.69241e-38,0,0,0,-0.00573029,0.00959284,0,0,0,0,-0.0610149,0.102891,1.9603e-19,0,0,0,0,0,0,0,0,0,2.51,-0.0191857
6281,-0.548828,0.0878906,5.26758,-0.000226663,0.00207569,-0.00458659,0.0708949,0.000883619,0.518089,0,0,0,-0.00669083,0.0112135,-0.0658285,0.111101,0.518089,0,0,0,0,0,0,0,0,0,0,-0.245082,-0.536984,0,-1.5,3.69241e-38,0,0,0,-0.00669083,0.0112135,0,0,0,0,-0.0658285,0.111101,1.9603e-19,0,0,0,0,0,0,0,0,0,2.51,-0.022427
6355,-0.548828,0.0507812,4.86133,-0.00056288,0.00197008,-0.00404836,0.0709263,0.000846366,0.517804,0,0,0,-0.0131138,0.0220824,-0.0893574,0.151254,0.517804,0,0,0,0,0,0,0,0,0,0,-0.258423,-0.529395,0,-1.5,3.69241e-38,0,0,0,-0.0131138,0.0220824,0,0,0,0,-0.0893574,0.151254,1.9603e-19,0,0,0,0,0,0,0,0,0,2.51,-0.0441648
6372,-0.548828,0.0507812,4.86133,-0.00056288,0.00197008,-0.00404836,0.0709263,0.000846366,0.517804,-5.03364,0.0253689,-0.128903,-0.0146921,0.024755,-0.0945652,0.160159,0.517804,0,0,259,79,259,79,350,69,268,165,-0.261518,-0.527632,0,-1.5,3.69241e-38,0,0,0,-0.0146921,0.024755,0,0,0,0,-0.0945652,0.160159,9696,0,0,0,0,0,0,0,0,0,2.51,-0.04951
6385,-0.548828,0.0507812,4.86133,-0.00056288,0.00197008,-0.00404836,0.0709263,0.000846366,0.517804,-5.03364,0.0253689,-0.128903,-0.0159533,0.0268917,-0.0985154,0.166913,0.517804,0,0,259,79,259,79,350,69,268,165,-0.263914,-0.526267,0,-1.5,3.69241e-38,0,0,0,-0.0159533,0.0268917,0,0,0,0,-0.0985154,0.166913,9696,0,0,0,0,0,0,0,0,0,2.51,-0.0537834
6401,-0.548828,0.15625,-5.45996,0.000537671,0.0033267,-0.00527223,0.0709165,0.000834031,0.517551,-5.03364,0.0253689,-0.128903,-0.0175788,0.0296465,-0.103342,0.175169,0.517612,0,0,259,79,259,79,350,69,268,165,-0.266837,-0.524615,0,-1.5,3.69241e-38,0,0,0,-0.0175788,0.0296465,0,0,0,0,-0.103342,0.175169,9696,0,0,0,0,0,0,0,0,0,2.51,-0.059293
6417,-0.548828,0.170898,-5.79102,0.000755058,0.00276104,-0.0043134,0.0709212,0.000843163,0.517485,-5.03364,0.0253689,-0.128903,-0.0192826,0.0325354,-0.108127,0.18336,0.517551,0,0,259,79,259,79,350,69,268,165,-0.26985,-0.522904,0,-1.5,3.69241e-38,0,0,0,-0.0192826,0.0325354,0,0,0,0,-0.108127,0.18336,9696,0,0,0,0,0,0,0,0,0,2.51,-0.0650707
6434,-0.548828,0.137695,-2.50391,1.11223e-05,0.00191671,-0.00408157,0.070922,0.000839836,0.51742,-5.03376,0.0253359,-0.129143,-0.0210626,0.0355546,-0.112875,0.191487,0.51742,0,0,259,79,259,79,350,69,268,165,-0.272882,-0.521187,0,-1.5,3.69241e-38,0,0,0,-0.0210626,0.0355546,0,0,0,0,-0.112875,0.191487,9696,0,0,0,0,0,0,0,0,0,2.51,-0.0711092
6449,-0.548828,0.104492,3.45312,0.000775388,0.00192509,-0.00476411,0.0709266,0.000835129,0.517355,-5.03376,0.0253359,-0.129143,-0.0229181,0.0387032,-0.117584,0.19955,0.517355,0,0,259,79,259,79,350,69,268,165,-0.27598,-0.519429,0,-1.5,3.69241e-38,0,0,0,-0.0229181,0.0387032,0,0,0,0,-0.117584,0.19955,9696,0,0,0,0,0,0,0,0,0,2.51,-0.0774064
6466,-0.548828,0.104492,3.45312,0.000775388,0.00192509,-0.00476411,0.0709266,0.000835129,0.517355,-4.99416,0.0212142,-0.132016,-0.0248486,0.0419801,-0.122255,0.20755,0.517355,0,0,257,78,257,78,350,69,269,163,-0.279142,-0.51763,0,-1.5,3.69241e-38,0,0,0,-0.0248486,0.0419801,0,0,0,0,-0.122255,0.20755,9870,0,0,0,0,0,0,0,0,0,2.51,-0.0839602
6482,-0.548828,0.0380859,-4.31445,0.000576086,0.00301562,-0.00520391,0.0709575,0.000840916,0.517234,-4.99416,0.0212142,-0.132016,-0.0269812,0.0456013,-0.127178,0.215982,0.517234,0,0,257,78,257,78,350,69,269,163,-0.282507,-0.515726,0,-1.5,3.69241e-38,0,0,0,-0.0269812,0.0456013,0,0,0,0,-0.127178,0.215982,9870,0,0,0,0,0,0,0,0,0,2.51,-0.0912027
6498,-0.548828,0.0566406,7.10449,-0.00119197,0.000713914,-0.00533602,0.0709536,0.000817432,0.517114,-5.01522,0.0253329,-0.134456,-0.0290629,0.0491374,-0.131773,0.223854,0.517234,0,0,257,81,257,81,351,69,268,163,-0.285754,-0.513878,0,-1.5,3.69241e-38,0,0,0,-0.0290629,0.0491374,0,0,0,0,-0.131773,0.223854,9776,0,0,0,0,0,0,0,0,0,2.51,-0.0982747
6514,-0.548828,0.0898438,-6.45801,-0.000358762,0.00337506,-0.00455147,0.070955,0.000825605,0.51705,-5.01522,0.0253329,-0.134456,-0.0312178,0.0527987,-0.13633,0.231664,0.517114,0,0,257,81,257,81,351,69,268,163,-0.289002,-0.512043,0,-1.5,3.69241e-38,0,0,0,-0.0312178,0.0527987,0,0,0,0,-0.13633,0.231664,9776,0,0,0,0,0,0,0,0,0,2.51,-0.105597
6530,-0.548828,0.123047,-0.780273,6.403e-05,0.00211459,-0.00513339,0.0709593,0.000812383,0.516978,-5.00982,0.0215411,-0.130458,-0.0334466,0.0565868,-0.140848,0.239414,0.516978,0,0,257,79,257,79,351,69,269,163,-0.292287,-0.510188,0,-1.5,3.69241e-38,0,0,0,-0.0334466,0.0565868,0,0,0,0,-0.140848,0.239414,9776,0,0,0,0,0,0,0,0,0,2.51,-0.113174
6545,-0.548828,0.15625,-6.45117,-0.000190457,0.00295757,-0.00434692,0.0709583,0.000812529,0.516919,-5.00982,0.0215411,-0.130458,-0.0356,0.0602478,-0.14505,0.246624,0.516919,0,0,257,79,257,79,351,69,269,163,-0.295426,-0.50841,0,-1.5,3.69241e-38,0,0,0,-0.0356,0.0602478,0,0,0,0,-0.14505,0.246624,9776,0,0,0,0,0,0,0,0,0,2.51,-0.120496
6561,-0.548828,0.15625,-6.45117,-0.000190457,0.00295757,-0.00434692,0.0709583,0.000812529,0.516919,-5.02913,0.015196,-0.122,-0.0379661,0.0642717,-0.149496,0.254256,0.516919,0,0,259,78,259,78,350,69,269,163,-0.298833,-0.506473,0,-1.5,3.69241e-38,0,0,0,-0.0379661,0.0642717,0,0,0,0,-0.149496,0.254256,9682,0,0,0,0,0,0,0,0,0,2.51,-0.128543
6577,-0.548828,0.151367,3.8125,-0.00129851,0.00314535,-0.00490517,0.0709597,0.000789916,0.516789,-5.02913,0.015196,-0.122,-0.040403,0.068417,-0.153905,0.261828,0.516789,0,0,259,78,259,78,350,69,269,163,-0.302238,-0.504552,0,-1.5,3.69241e-38,0,0,0,-0.040403,0.068417,0,0,0,0,-0.153905,0.261828,9682,0,0,0,0,0,0,0,0,0,2.51,-0.136834
6593,-0.548828,0.0849609,-6.49219,-0.000955633,0.00175409,-0.00464317,0.0709332,0.000770813,0.516668,-5.00112,0.0288284,-0.144936,-0.0429101,0.0726829,-0.158275,0.26934,0.516732,0,0,257,81,257,81,350,69,268,165,-0.305707,-0.502588,0,-1.5,3.69241e-38,0,0,0,-0.0429101,0.0726829,0,0,0,0,-0.158275,0.26934,9984,0,0,0,0,0,0,0,0,0,2.51,-0.145366
6609,-0.548828,0.0517578,1.2998,-0.000206824,0.00175718,-0.00465994,0.0709378,0.000762475,0.516612,-5.00112,0.0288284,-0.144936,-0.0454881,0.0770708,-0.162607,0.276793,0.516668,0,0,257,81,257,81,350,69,268,165,-0.309213,-0.500603,0,-1.5,3.69241e-38,0,0,0,-0.0454881,0.0770708,0,0,0,0,-0.162607,0.276793,9984,0,0,0,0,0,0,0,0,0,2.51,-0.154142
6626,-0.548828,0.0185547,6.15137,-0.000944988,0.00328007,-0.00514585,0.0709281,0.000768292,0.516545,-5.065,0.0163356,-0.120541,-0.0483027,0.0818628,-0.16717,0.284648,0.516545,0,0,259,81,259,81,351,69,269,163,-0.312964,-0.498488,0,-1.5,3.69241e-38,0,0,0,-0.0483027,0.0818628,0,0,0,0,-0.16717,0.284648,9588,0,0,0,0,0,0,0,0,0,2.51,-0.163726
6641,-0.548828,0.00195312,-3.93848,-0.000402028,0.00183763,-0.00502599,0.070924,0.000765956,0.516475,-5.065,0.0163356,-0.120541,-0.0508489,0.086199,-0.171162,0.291521,0.516475,0,0,259,81,259,81,351,69,269,163,-0.31632,-0.496591,0,-1.5,3.69241e-38,0,0,0,-0.0508489,0.086199,0,0,0,0,-0.171162,0.291521,9588,0,0,0,0,0,0,0,0,0,2.51,-0.172398
6658,-0.548828,0.00195312,-3.93848,-0.000402028,0.00183763,-0.00502599,0.070924,0.000765956,0.516475,-5.065,0.0163356,-0.120541,-0.0538081,0.09124,-0.175651,0.29925,0.516475,0,0,259,81,259,81,351,69,269,163,-0.320192,-0.494392,0,-1.5,3.69241e-38,0,0,0,-0.0538081,0.09124,0,0,0,0,-0.175651,0.29925,9588,0,0,0,0,0,0,0,0,0,2.51,-0.18248
6674,-0.548828,0.0341797,7.1123,-0.00056803,0.00265133,-0.0052836,0.0709027,0.000773282,0.516333,-5.065,0.0163356,-0.120541,-0.0566625,0.0961039,-0.179839,0.306463,0.516333,0,0,259,81,259,81,351,69,269,163,-0.32383,-0.492346,0,-1.5,3.69241e-38,0,0,0,-0.0566625,0.0961039,0,0,0,0,-0.179839,0.306463,9588,0,0,0,0,0,0,0,0,0,2.51,-0.192208
6690,-0.548828,0.100586,-0.766602,0.000200283,0.00194993,-0.00529562,0.0709036,0.000761275,0.516195,-5.065,0.0163356,-0.120541,-0.0595836,0.101083,-0.183993,0.313618,0.516259,0,0,259,81,259,81,351,69,269,163,-0.327527,-0.490258,0,-1.5,3.69241e-38,0,0,0,-0.0595836,0.101083,0,0,0,0,-0.183993,0.313618,9588,0,0,0,0,0,0,0,0,0,2.51,-0.202165
6706,-0.548828,0.133789,-6.42578,3.51212e-05,0.00211459,-0.00444125,0.070909,0.000756896,0.516139,-5.065,0.0163356,-0.120541,-0.0625695,0.106173,-0.18811,0.320716,0.516195,0,0,259,81,259,81,351,69,269,163,-0.331264,-0.488147,0,-1.5,3.69241e-38,0,0,0,-0.0625695,0.106173,0,0,0,0,-0.18811,0.320716,9588,0,0,0,0,0,0,0,0,0,2.51,-0.212346
6723,-0.548828,0.133789,-6.42578,3.51212e-05,0.00211459,-0.00444125,0.070909,0.000756896,0.516139,-5.02324,0.0223823,-0.132668,-0.0658168,0.11171,-0.19245,0.328199,0.516139,0,0,257,81,257,81,350,69,269,163,-0.335281,-0.485876,0,-1.5,3.69241e-38,0,0,0,-0.0658168,0.11171,0,0,0,0,-0.19245,0.328199,9870,0,0,0,0,0,0,0,0,0,2.51,-0.22342
6738,-0.548828,0.163086,3.78809,0.00118925,0.00249756,-0.00514312,0.0709254,0.000755172,0.51601,-5.02324,0.0223823,-0.132668,-0.0687392,0.116695,-0.196246,0.334747,0.51601,0,0,257,81,257,81,350,69,269,163,-0.338833,-0.483882,0,-1.5,3.69241e-38,0,0,0,-0.0687392,0.116695,0,0,0,0,-0.196246,0.334747,9870,0,0,0,0,0,0,0,0,0,2.51,-0.233389
6753,-0.548828,0.129883,4.75098,-0.000535002,0.00257914,-0.00351524,0.0709281,0.000749746,0.51595,-5.00972,0.0253349,-0.136488,-0.0717194,0.121779,-0.200014,0.341249,0.51595,0,0,257,81,257,81,350,69,268,163,-0.342439,-0.481846,0,-1.5,3.69241e-38,0,0,0,-0.0717194,0.121779,0,0,0,0,-0.200014,0.341249,9870,0,0,0,0,0,0,0,0,0,2.51,-0.243558
6770,-0.548828,0.0966797,-6.54199,0.000229498,0.00238003,-0.00548897,0.070927,0.00074946,0.515874,-5.00972,0.0253349,-0.136488,-0.0749616,0.127311,-0.204002,0.348133,0.515874,0,0,257,81,257,81,350,69,268,163,-0.346319,-0.479659,0,-1.5,3.69241e-38,0,0,0,-0.0749616,0.127311,0,0,0,0,-0.204002,0.348133,9870,0,0,0,0,0,0,0,0,0,2.51,-0.254623
6786,-0.548828,0.0302734,6.16797,0.000131195,0.00292267,-0.00528017,0.0709416,0.000747541,0.515736,-5.01276,0.0243191,-0.126731,-0.0784759,0.133309,-0.208204,0.355389,0.5158,0,0,257,78,257,78,350,69,269,163,-0.350483,-0.477311,0,-1.5,3.69241e-38,0,0,0,-0.0784759,0.133309,0,0,0,0,-0.208204,0.355389,9776,0,0,0,0,0,0,0,0,0,2.51,-0.266619
6802,-0.548828,0.0175781,-3.94141,-0.000943133,0.000753151,-0.00514365,0.0709376,0.000729318,0.515671,-5.01276,0.0243191,-0.126731,-0.0818472,0.139065,-0.212125,0.362162,0.515736,0,0,257,78,257,78,350,69,269,163,-0.35444,-0.475079,0,-1.5,3.69241e-38,0,0,0,-0.0818472,0.139065,0,0,0,0,-0.212125,0.362162,9776,0,0,0,0,0,0,0,0,0,2.51,-0.27813
6818,-0.548828,0.0507812,-6.81055,-0.000789716,0.00131409,-0.00386154,0.0709245,0.000719493,0.515619,-5.03652,0.0193242,-0.129131,-0.085282,0.14493,-0.216011,0.368883,0.515619,0,0,257,81,257,81,350,69,270,163,-0.358418,-0.472846,0,-1.5,3.69241e-38,0,0,0,-0.085282,0.14493,0,0,0,0,-0.216011,0.368883,9870,0,0,0,0,0,0,0,0,0,2.51,-0.28986
6835,-0.548828,0.0839844,7.11328,-0.000823174,0.00219587,-0.00423026,0.0709213,0.000717594,0.51556,-5.03652,0.0193242,-0.129131,-0.0890008,0.151282,-0.220104,0.375967,0.51556,0,0,257,81,257,81,350,69,270,163,-0.362704,-0.470428,0,-1.5,3.69241e-38,0,0,0,-0.0890008,0.151282,0,0,0,0,-0.220104,0.375967,9870,0,0,0,0,0,0,0,0,0,2.51,-0.302563
6852,-0.548828,0.117188,-6.45117,-0.000446016,0.00169582,-0.00490964,0.0709148,0.000720858,0.515499,-5.03652,0.0193242,-0.129131,-0.0927872,0.15775,-0.224161,0.382989,0.515499,0,0,257,81,257,81,350,69,270,163,-0.367028,-0.46799,0,-1.5,3.69241e-38,0,0,0,-0.0927872,0.15775,0,0,0,0,-0.224161,0.382989,9870,0,0,0,0,0,0,0,0,0,2.51,-0.315501
6868,-0.548828,0.117188,-6.45117,-0.000446016,0.00169582,-0.00490964,0.0709148,0.000720858,0.515499,-5.01057,0.0192364,-0.136939,-0.0964124,0.163945,-0.227947,0.389542,0.515499,0,0,257,81,257,81,351,69,269,163,-0.371148,-0.465656,0,-1.5,3.69241e-38,0,0,0,-0.0964124,0.163945,0,0,0,0,-0.227947,0.389542,9870,0,0,0,0,0,0,0,0,0,2.51,-0.32789
6884,-0.548828,0.164062,3.65918,0.00108814,0.00127044,-0.00485352,0.070916,0.000705411,0.515322,-5.01057,0.0192364,-0.136939,-0.100099,0.170246,-0.231702,0.396044,0.515383,0,0,257,81,257,81,351,69,269,163,-0.37527,-0.463345,0,-1.5,3.69241e-38,0,0,0,-0.100099,0.170246,0,0,0,0,-0.231702,0.396044,9870,0,0,0,0,0,0,0,0,0,2.51,-0.340492
6900,-0.548828,0.135742,3.79102,0.000592633,0.00164565,-0.00456693,0.070923,0.000699565,0.515261,-5.03768,0.0225282,-0.131545,-0.103844,0.176649,-0.235425,0.402494,0.515322,0,0,257,81,257,81,350,70,269,163,-0.379441,-0.460995,0,-1.5,3.69241e-38,0,0,0,-0.103844,0.176649,0,0,0,0,-0.235425,0.402494,9765,0,0,0,0,0,0,0,0,0,2.51,-0.353297
6917,-0.548828,0.102539,4.73828,0.000273285,0.00225597,-0.00352753,0.0709252,0.00069472,0.515207,-5.03768,0.0225282,-0.131545,-0.10789,0.183566,-0.239346,0.409295,0.515207,0,0,257,81,257,81,350,70,269,163,-0.383897,-0.458497,0,-1.5,3.69241e-38,0,0,0,-0.10789,0.183566,0,0,0,0,-0.239346,0.409295,9765,0,0,0,0,0,0,0,0,0,2.51,-0.367132
6932,-0.548828,0.102539,4.73828,0.000273285,0.00225597,-0.00352753,0.0709252,0.00069472,0.515207,-5.04505,0.0193782,-0.126588,-0.111269,0.189345,-0.242549,0.414852,0.515207,0,0,259,81,259,81,350,69,268,163,-0.387621,-0.456389,0,-1.5,3.69241e-38,0,0,0,-0.111269,0.189345,0,0,0,0,-0.242549,0.414852,9682,0,0,0,0,0,0,0,0,0,2.51,-0.378691
6947,-0.548828,0.0361328,1.31934,0.000896747,0.00277766,-0.00538434,0.0709405,0.000680161,0.515077,-5.04505,0.0193782,-0.126588,-0.115187,0.196047,-0.246181,0.421157,0.515077,0,0,259,81,259,81,350,69,268,163,-0.391872,-0.454012,0,-1.5,3.69241e-38,0,0,0,-0.115187,0.196047,0,0,0,0,-0.246181,0.421157,9682,0,0,0,0,0,0,0,0,0,2.51,-0.392095
6962,-0.548828,0.0361328,1.31934,0.000896747,0.00277766,-0.00538434,0.0709405,0.000680161,0.515077,-5.04505,0.0193782,-0.126588,-0.118912,0.202421,-0.24956,0.427025,0.515077,0,0,259,81,259,81,350,69,268,163,-0.395922,-0.451719,0,-1.5,3.69241e-38,0,0,0,-0.118912,0.202421,0,0,0,0,-0.24956,0.427025,9682,0,0,0,0,0,0,0,0,0,2.51,-0.404843
6979,-0.548828,0.0419922,-3.93848,-0.000803103,0.00295651,-0.00542975,0.0709247,0.000676286,0.514952,-5.04505,0.0193782,-0.126588,-0.122943,0.209319,-0.253134,0.433236,0.514952,0,0,259,81,259,81,350,69,268,163,-0.400241,-0.449306,0,-1.5,3.69241e-38,0,0,0,-0.122943,0.209319,0,0,0,0,-0.253134,0.433236,9682,0,0,0,0,0,0,0,0,0,2.51,-0.418638
6995,-0.548828,0.108398,-5.36621,0.000699746,0.00172832,-0.00427952,0.0709404,0.000661517,0.514827,-5.02343,0.0223258,-0.133059,-0.127288,0.216756,-0.2569,0.43978,0.514952,0,0,257,81,257,81,350,69,269,163,-0.404901,-0.446669,0,-1.5,3.69241e-38,0,0,0,-0.127288,0.216756,0,0,0,0,-0.2569,0.43978,9870,0,0,0,0,0,0,0,0,0,2.51,-0.433513
7011,-0.548828,0.141602,-2.68945,-0.000765406,0.000864265,-0.00464648,0.0709356,0.000640893,0.514766,-5.02343,0.0223258,-0.133059,-0.131173,0.223408,-0.260194,0.44551,0.514827,0,0,257,81,257,81,350,69,269,163,-0.409008,-0.444376,0,-1.5,3.69241e-38,0,0,0,-0.131173,0.223408,0,0,0,0,-0.260194,0.44551,9870,0,0,0,0,0,0,0,0,0,2.51,-0.446817
7027,-0.548828,0.141602,-2.68945,-0.000765406,0.000864265,-0.00464648,0.0709356,0.000640893,0.514766,-5.00993,0.025312,-0.136941,-0.135637,0.231053,-0.263893,0.451956,0.514766,0,0,257,81,257,81,350,69,268,163,-0.413722,-0.441726,0,-1.5,3.69241e-38,0,0,0,-0.135637,0.231053,0,0,0,0,-0.263893,0.451956,9870,0,0,0,0,0,0,0,0,0,2.51,-0.462106
7043,-0.548828,0.179688,-0.0234375,0.000744697,0.00238831,-0.00464937,0.0709462,0.000627836,0.514628,-5.00993,0.025312,-0.136941,-0.139895,0.238346,-0.267345,0.457972,0.514628,0,0,257,81,257,81,350,69,268,163,-0.418168,-0.439248,0,-1.5,3.69241e-38,0,0,0,-0.139895,0.238346,0,0,0,0,-0.267345,0.457972,9870,0,0,0,0,0,0,0,0,0,2.51,-0.476692
7059,-0.548828,0.179688,-3.78711,0.0011429,0.00135725,-0.00525359,0.0709557,0.000612707,0.514559,-5.04237,0.0254684,-0.127429,-0.144208,0.245736,-0.270767,0.463946,0.514559,0,0,257,81,257,81,350,69,269,163,-0.422666,-0.436723,0,-1.5,3.69241e-38,0,0,0,-0.144208,0.245736,0,0,0,0,-0.270767,0.463946,9776,0,0,0,0,0,0,0,0,0,2.51,-0.491472
7076,-0.548828,0.179688,-2.29004,-9.25026e-05,0.00238442,-0.00421023,0.0709544,0.000615094,0.514501,-5.04237,0.0254684,-0.127429,-0.148576,0.253222,-0.274161,0.469873,0.514501,0,0,257,81,257,81,350,69,269,163,-0.427199,-0.434177,0,-1.5,3.69241e-38,0,0,0,-0.148576,0.253222,0,0,0,0,-0.274161,0.469873,9776,0,0,0,0,0,0,0,0,0,2.51,-0.506443
7092,-0.548828,0.179688,0.118164,-0.00126784,0.00122214,-0.00495746,0.0709401,0.000605745,0.514444,-5.02358,0.0223045,-0.133375,-0.153276,0.261278,-0.277735,0.476118,0.514444,0,0,257,81,257,81,350,69,269,163,-0.432051,-0.431451,0,-1.5,3.69241e-38,0,0,0,-0.153276,0.261278,0,0,0,0,-0.277735,0.476118,9870,0,0,0,0,0,0,0,0,0,2.51,-0.522557
7108,-0.548828,0.119141,-1.05078,2.52329e-05,0.00169033,-0.00518891,0.0709443,0.000592777,0.514311,-5.02358,0.0223045,-0.133375,-0.157472,0.268473,-0.280862,0.481584,0.514444,0,0,257,81,257,81,350,69,269,163,-0.436372,-0.429008,0,-1.5,3.69241e-38,0,0,0,-0.157472,0.268473,0,0,0,0,-0.280862,0.481584,9870,0,0,0,0,0,0,0,0,0,2.51,-0.536946
7124,-0.548828,0.119141,-1.05078,2.52329e-05,0.00169033,-0.00518891,0.0709443,0.000592777,0.514311,-5.02359,0.0223264,-0.133422,-0.162287,0.27673,-0.284376,0.487733,0.514311,0,0,257,81,257,81,350,69,269,163,-0.441271,-0.426279,0,-1.5,3.69241e-38,0,0,0,-0.162287,0.27673,0,0,0,0,-0.284376,0.487733,9870,0,0,0,0,0,0,0,0,0,2.51,-0.55346
7140,-0.548828,0.0527344,-3.57324,-0.000268787,0.00258277,-0.00492065,0.0709556,0.00058895,0.514179,-5.02359,0.0223264,-0.133422,-0.166582,0.284098,-0.28745,0.493114,0.514179,0,0,257,81,257,81,350,69,269,163,-0.445616,-0.423864,0,-1.5,3.69241e-38,0,0,0,-0.166582,0.284098,0,0,0,0,-0.28745,0.493114,9870,0,0,0,0,0,0,0,0,0,2.51,-0.568196
7156,-0.548828,0.0195312,-5.68262,-0.000347773,0.00175825,-0.0052924,0.0709603,0.000575765,0.514102,-5.00504,0.0166795,-0.145653,-0.171507,0.292548,-0.290905,0.499168,0.514102,0,0,259,81,259,81,351,69,268,165,-0.450594,-0.421077,0,-1.5,3.69241e-38,0,0,0,-0.171507,0.292548,0,0,0,0,-0.290905,0.499168,9888,0,0,0,0,0,0,0,0,0,2.51,-0.585095
7172,-0.548828,0.000976562,-5.34277,0.000308823,0.00220423,-0.00484196,0.0709633,0.000573945,0.514034,-5.00504,0.0166795,-0.145653,-0.176194,0.300592,-0.294129,0.50482,0.514034,0,0,259,81,259,81,351,69,268,165,-0.45531,-0.418434,0,-1.5,3.69241e-38,0,0,0,-0.176194,0.300592,0,0,0,0,-0.294129,0.50482,9888,0,0,0,0,0,0,0,0,0,2.51,-0.601184
7188,-0.548828,0.0341797,-2.69043,0.000753109,0.0029354,-0.00530531,0.0709718,0.000587508,0.51396,-5.00508,0.0166678,-0.145725,-0.180934,0.308728,-0.297327,0.510428,0.51396,0,0,259,81,259,81,351,69,268,165,-0.460055,-0.415779,0,-1.5,3.69241e-38,0,0,0,-0.180934,0.308728,0,0,0,0,-0.297327,0.510428,9888,0,0,0,0,0,0,0,0,0,2.51,-0.617456
7204,-0.548828,0.100586,-0.0283203,0.000311818,0.00218408,-0.00478583,0.0709941,0.000579531,0.513845,-5.00508,0.0166678,-0.145725,-0.185725,0.316953,-0.300501,0.515992,0.51396,0,0,259,81,259,81,351,69,268,165,-0.464848,-0.413073,0,-1.5,3.69241e-38,0,0,0,-0.185725,0.316953,0,0,0,0,-0.300501,0.515992,9888,0,0,0,0,0,0,0,0,0,2.51,-0.633907
7221,-0.548828,0.133789,-3.79785,0.000927842,0.00118369,-0.00546632,0.0710096,0.000570157,0.513783,-5.00505,0.0166549,-0.145659,-0.19087,0.32579,-0.303845,0.52186,0.513783,0,0,259,81,259,81,351,69,268,165,-0.469931,-0.410263,0,-1.5,3.69241e-38,0,0,0,-0.19087,0.32579,0,0,0,0,-0.303845,0.52186,9888,0,0,0,0,0,0,0,0,0,2.51,-0.65158
7237,-0.548828,0.166016,-2.3125,0.000210638,0.00243568,-0.0050007,0.0710104,0.00056938,0.513725,-5.00505,0.0166549,-0.145659,-0.195763,0.334195,-0.306965,0.52734,0.513725,0,0,259,81,259,81,351,69,268,165,-0.474771,-0.407552,0,-1.5,3.69241e-38,0,0,0,-0.195763,0.334195,0,0,0,0,-0.306965,0.52734,9888,0,0,0,0,0,0,0,0,0,2.51,-0.668391
7253,-0.548828,0.155273,0.0878906,0.000198557,0.00187347,-0.00419241,0.0710069,0.000564528,0.513671,-4.9832,0.0256311,-0.151665,-0.200707,0.34269,-0.310059,0.532777,0.513671,0,0,257,81,257,81,350,69,268,165,-0.479641,-0.404822,0,-1.5,3.69241e-38,0,0,0,-0.200707,0.34269,0,0,0,0,-0.310059,0.532777,10080,0,0,0,0,0,0,0,0,0,2.51,-0.68538
7269,-0.548828,0.155273,0.0878906,0.000198557,0.00187347,-0.00419241,0.0710069,0.000564528,0.513671,-4.9832,0.0256311,-0.151665,-0.205701,0.351271,-0.313128,0.538171,0.513671,0,0,257,81,257,81,350,69,268,165,-0.484553,-0.402051,0,-1.5,3.69241e-38,0,0,0,-0.205701,0.351271,0,0,0,0,-0.313128,0.538171,10080,0,0,0,0,0,0,0,0,0,2.51,-0.702543
7285,-0.548828,0.0888672,-1.01465,0.00115154,0.00306693,-0.00462792,0.0710307,0.00054994,0.513552,-4.98321,0.0256365,-0.151689,-0.210743,0.359938,-0.316173,0.543523,0.513552,0,0,257,81,257,81,350,69,268,165,-0.489466,-0.399323,0,-1.5,3.69241e-38,0,0,0,-0.210743,0.359938,0,0,0,0,-0.316173,0.543523,10080,0,0,0,0,0,0,0,0,0,2.51,-0.719877
7302,-0.548828,0.0224609,-3.52148,0.000331439,0.00215988,-0.0048676,0.0710498,0.000538743,0.51343,-4.98321,0.0256365,-0.151689,-0.216154,0.369242,-0.31938,0.549168,0.51343,0,0,257,81,257,81,350,69,268,165,-0.49472,-0.396405,0,-1.5,3.69241e-38,0,0,0,-0.216154,0.369242,0,0,0,0,-0.31938,0.549168,10080,0,0,0,0,0,0,0,0,0,2.51,-0.738485
7319,-0.548828,0.00683594,-4.4873,-0.000560204,0.00192547,-0.00475701,0.0710483,0.000538082,0.513356,-4.95715,0.0254216,-0.159567,-0.22162,0.378642,-0.322559,0.55477,0.513356,0,0,257,81,257,81,351,69,267,165,-0.500017,-0.393445,0,-1.5,3.69241e-38,0,0,0,-0.22162,0.378642,0,0,0,0,-0.322559,0.55477,10080,0,0,0,0,0,0,0,0,0,2.51,-0.757284
7335,-0.548828,0.00683594,-4.4873,-0.000560204,0.00192547,-0.00475701,0.0710483,0.000538082,0.513356,-4.95715,0.0254216,-0.159567,-0.226485,0.387011,-0.32534,0.559671,0.513356,0,0,257,81,257,81,351,69,267,165,-0.50473,-0.390788,0,-1.5,3.69241e-38,0,0,0,-0.226485,0.387011,0,0,0,0,-0.32534,0.559671,10080,0,0,0,0,0,0,0,0,0,2.51,-0.774022
7351,-0.548828,0.0546875,1.41113,0.000978519,0.00243388,-0.00444387,0.0710692,0.000550555,0.513234,-4.95715,0.0254216,-0.159567,-0.23205,0.396586,-0.328467,0.565184,0.513234,0,0,257,81,257,81,351,69,267,165,-0.510074,-0.387823,0,-1.5,3.69241e-38,0,0,0,-0.23205,0.396586,0,0,0,0,-0.328467,0.565184,10080,0,0,0,0,0,0,0,0,0,2.51,-0.793172
7367,-0.548828,0.121094,6.92188,0.000190004,0.00270119,-0.00456223,0.0710929,0.000548937,0.513128,-5.02377,0.0221607,-0.13374,-0.237336,0.405682,-0.331388,0.57033,0.513234,0,0,257,81,257,81,350,69,269,163,-0.515157,-0.384958,0,-1.5,3.69241e-38,0,0,0,-0.237336,0.405682,0,0,0,0,-0.331388,0.57033,9870,0,0,0,0,0,0,0,0,0,2.51,-0.811363
7383,-0.548828,0.129883,4.19043,6.62629e-05,0.00162718,-0.00484561,0.071088,0.000544913,0.513057,-5.02377,0.0221607,-0.13374,-0.242668,0.414861,-0.334286,0.575438,0.513128,0,0,257,81,257,81,350,69,269,163,-0.520246,-0.382133,0,-1.5,3.69241e-38,0,0,0,-0.242668,0.414861,0,0,0,0,-0.334286,0.575438,9870,0,0,0,0,0,0,0,0,0,2.51,-0.829721
7399,-0.548828,0.129883,7.09473,0.000694714,0.00281044,-0.00564231,0.0711103,0.000546862,0.512987,-5.04261,0.025227,-0.127862,-0.248046,0.424119,-0.337159,0.580507,0.512987,0,0,257,81,257,81,350,69,269,163,-0.525354,-0.379312,0,-1.5,3.69241e-38,0,0,0,-0.248046,0.424119,0,0,0,0,-0.337159,0.580507,9776,0,0,0,0,0,0,0,0,0,2.51,-0.848238
7415,-0.548828,0.129883,-5.04297,3.70879e-05,0.0022123,-0.00437325,0.0711054,0.000534548,0.512927,-5.04261,0.025227,-0.127862,-0.253471,0.43346,-0.34001,0.58554,0.512927,0,0,257,81,257,81,350,69,269,163,-0.530508,-0.376434,0,-1.5,3.69241e-38,0,0,0,-0.253471,0.43346,0,0,0,0,-0.34001,0.58554,9776,0,0,0,0,0,0,0,0,0,2.51,-0.866921
7431,-0.548828,0.129883,-5.04297,3.70879e-05,0.0022123,-0.00437325,0.0711054,0.000534548,0.512927,-5.05967,0.0160705,-0.123325,-0.258941,0.442881,-0.342837,0.590532,0.512927,0,0,259,81,259,81,350,69,269,163,-0.5357,-0.37351,0,-1.5,3.69241e-38,0,0,0,-0.258941,0.442881,0,0,0,0,-0.342837,0.590532,9682,0,0,0,0,0,0,0,0,0,2.51,-0.885763
7447,-0.548828,0.129883,-3.62012,0.0014433,0.00259104,-0.004983,0.0711251,0.000524286,0.512799,-5.05967,0.0160705,-0.123325,-0.264455,0.452382,-0.34564,0.595487,0.512799,0,0,259,81,259,81,350,69,269,163,-0.540893,-0.37064,0,-1.5,3.69241e-38,0,0,0,-0.264455,0.452382,0,0,0,0,-0.34564,0.595487,9682,0,0,0,0,0,0,0,0,0,2.51,-0.904764
7463,-0.548828,0.129883,-3.14453,-0.000558048,0.00224974,-0.00554162,0.0711316,0.000497664,0.512661,-5.04264,0.0252077,-0.127932,-0.270015,0.461962,-0.348421,0.600404,0.512799,0,0,257,81,257,81,350,69,269,163,-0.546137,-0.367687,0,-1.5,3.69241e-38,0,0,0,-0.270015,0.461962,0,0,0,0,-0.348421,0.600404,9776,0,0,0,0,0,0,0,0,0,2.51,-0.923923
7479,-0.548828,0.129883,-4.45996,0.000171245,0.00241469,-0.0050299,0.0711396,0.000496655,0.512588,-5.04264,0.0252077,-0.127932,-0.275619,0.471619,-0.351177,0.605285,0.512661,0,0,257,81,257,81,350,69,269,163,-0.551382,-0.364796,0,-1.5,3.69241e-38,0,0,0,-0.275619,0.471619,0,0,0,0,-0.351177,0.605285,9776,0,0,0,0,0,0,0,0,0,2.51,-0.943239
7495,-0.548828,0.129883,-2.85254,0.00024816,0.00186519,-0.00421566,0.0711416,0.000485923,0.512528,-5.04273,0.0251675,-0.128109,-0.281266,0.481355,-0.353908,0.610129,0.512528,0,0,257,81,257,81,350,69,269,163,-0.556655,-0.361888,0,-1.5,3.69241e-38,0,0,0,-0.281266,0.481355,0,0,0,0,-0.353908,0.610129,9776,0,0,0,0,0,0,0,0,0,2.51,-0.96271
7512,-0.548828,0.129883,1.42871,0.000449522,0.00215052,-0.00462564,0.0711524,0.000479501,0.512462,-5.04273,0.0251675,-0.128109,-0.287314,0.491783,-0.356784,0.615237,0.512462,0,0,257,81,257,81,350,69,269,163,-0.5623,-0.358742,0,-1.5,3.69241e-38,0,0,0,-0.287314,0.491783,0,0,0,0,-0.356784,0.615237,9776,0,0,0,0,0,0,0,0,0,2.51,-0.983567
7527,-0.548828,0.129883,1.42871,0.000449522,0.00215052,-0.00462564,0.0711524,0.000479501,0.512462,-5.01036,0.025005,-0.137775,-0.29269,0.501055,-0.359301,0.619708,0.512462,0,0,257,81,257,81,350,69,268,163,-0.567314,-0.355921,0,-1.5,3.69241e-38,0,0,0,-0.29269,0.501055,0,0,0,0,-0.359301,0.619708,9870,0,0,0,0,0,0,0,0,0,2.51,-1.00211
7542,-0.548828,0.129883,6.94727,9.48258e-05,0.0016554,-0.00551976,0.071153,0.000469136,0.512316,-5.01036,0.025005,-0.137775,-0.298104,0.510394,-0.361798,0.624147,0.512316,0,0,257,81,257,81,350,69,268,163,-0.572325,-0.353171,0,-1.5,3.69241e-38,0,0,0,-0.298104,0.510394,0,0,0,0,-0.361798,0.624147,9870,0,0,0,0,0,0,0,0,0,2.51,-1.02079
7559,-0.548828,0.129883,4.22266,0.000615343,0.0025805,-0.00514854,0.071159,0.000470409,0.512247,-5.07886,0.0191395,-0.117833,-0.304286,0.521059,-0.364604,0.629139,0.512247,0,0,259,81,259,81,350,69,269,163,-0.578048,-0.349985,0,-1.5,3.69241e-38,0,0,0,-0.304286,0.521059,0,0,0,0,-0.364604,0.629139,9588,0,0,0,0,0,0,0,0,0,2.51,-1.04212
7575,-0.548828,0.129883,-5.02832,5.50184e-05,0.00143555,-0.00445505,0.0711761,0.000445994,0.512132,-5.07886,0.0191395,-0.117833,-0.309778,0.530539,-0.367044,0.63351,0.511963,0,0,259,81,259,81,350,69,269,163,-0.583083,-0.347292,0,-1.5,3.69241e-38,0,0,0,-0.309778,0.530539,0,0,0,0,-0.367044,0.63351,9588,0,0,0,0,0,0,0,0,0,2.51,-1.06108
7591,-0.548828,0.129883,-5.02832,5.50184e-05,0.00143555,-0.00445505,0.0711761,0.000445994,0.512132,-5.07886,0.0191395,-0.117833,-0.316049,0.541364,-0.36978,0.638429,0.512132,0,0,259,81,259,81,350,69,269,163,-0.588903,-0.343938,0,-1.5,3.69241e-38,0,0,0,-0.316049,0.541364,0,0,0,0,-0.36978,0.638429,9588,0,0,0,0,0,0,0,0,0,2.51,-1.08273
7607,-0.548828,0.129883,-3.6084,-0.000397305,0.00146629,-0.00416729,0.0711846,0.000425116,0.512019,-5.07886,0.0191395,-0.117833,-0.321993,0.551627,-0.372354,0.643022,0.512019,0,0,259,81,259,81,350,69,269,163,-0.594151,-0.341044,0,-1.5,3.69241e-38,0,0,0,-0.321993,0.551627,0,0,0,0,-0.372354,0.643022,9588,0,0,0,0,0,0,0,0,0,2.51,-1.10325
7623,-0.548828,0.129883,5.26855,0.000416326,0.00285404,-0.00528741,0.0711898,0.000426019,0.511954,-4.99683,0.0223953,-0.148655,-0.327977,0.561964,-0.374905,0.647581,0.511954,0,0,257,81,257,81,350,69,269,165,-0.59414,-0.341083,0,-1.5,3.69241e-38,0,0,0,-0.327977,0.561964,0,0,0,0,-0.374905,0.647581,10080,0,0,0,0,0,0,0,0,0,2.51,-1.12393
7640,-0.548828,0.129883,-3.14258,7.43507e-05,0.001876,-0.00476356,0.0711915,0.000416807,0.511884,-4.99683,0.0223953,-0.148655,-0.334002,0.572372,-0.377434,0.652104,0.511884,0,0,257,81,257,81,350,69,269,165,-0.594129,-0.341124,0,-1.5,3.69241e-38,0,0,0,-0.334002,0.572372,0,0,0,0,-0.377434,0.652104,10080,0,0,0,0,0,0,0,0,0,2.51,-1.14474
7656,-0.548828,0.129883,-4.42676,-0.000871817,0.00161283,-0.00503545,0.0711771,0.000405213,0.51182,-4.99685,0.0223849,-0.148695,-0.340449,0.583512,-0.380098,0.656872,0.51182,0,0,257,81,257,81,350,69,269,165,-0.594118,-0.341162,0,-1.5,3.69241e-38,0,0,0,-0.340449,0.583512,0,0,0,0,-0.380098,0.656872,10080,0,0,0,0,0,0,0,0,0,2.51,-1.16702
7672,-0.548828,0.129883,1.38281,0.000870833,0.00205491,-0.00462428,0.0711799,0.000400335,0.511693,-4.99685,0.0223849,-0.148695,-0.346556,0.594068,-0.382581,0.661321,0.51182,0,0,257,81,257,81,350,69,269,165,-0.594118,-0.341162,0,-1.5,3.69241e-38,0,0,0,-0.346556,0.594068,0,0,0,0,-0.382581,0.661321,10080,0,0,0,0,0,0,0,0,0,2.51,-1.18814
7688,-0.548828,0.129883,1.38281,0.000870833,0.00205491,-0.00462428,0.0711799,0.000400335,0.511693,-5.0241,0.0219637,-0.134375,-0.352703,0.604695,-0.385044,0.665736,0.511693,0,0,257,81,257,81,350,69,269,163,-0.594097,-0.341238,0,-1.5,3.69241e-38,0,0,0,-0.352703,0.604695,0,0,0,0,-0.385044,0.665736,9870,0,0,0,0,0,0,0,0,0,2.51,-1.20939
7705,-0.548828,0.129883,6.93555,-0.0001582,0.00141909,-0.00518615,0.0711743,0.000375546,0.511561,-5.0241,0.0219637,-0.134375,-0.359277,0.616064,-0.387638,0.670389,0.511561,0,0,257,81,257,81,350,69,269,163,-0.594075,-0.341316,0,-1.5,3.69241e-38,0,0,0,-0.359277,0.616064,0,0,0,0,-0.387638,0.670389,9870,0,0,0,0,0,0,0,0,0,2.51,-1.23213
7720,-0.548828,0.129883,4.20801,0.000659111,0.00162524,-0.00492087,0.0711857,0.000368121,0.5115,-5.04301,0.0251019,-0.128702,-0.365113,0.626158,-0.389903,0.674463,0.5115,0,0,257,81,257,81,350,69,269,163,-0.594065,-0.341352,0,-1.5,3.69241e-38,0,0,0,-0.365113,0.626158,0,0,0,0,-0.389903,0.674463,9776,0,0,0,0,0,0,0,0,0,2.51,-1.25232
7735,-0.548828,0.129883,7.08301,0.000133167,0.00244063,-0.00486281,0.0711875,0.000371567,0.511438,-5.04301,0.0251019,-0.128702,-0.370983,0.636313,-0.392151,0.678508,0.511438,0,0,257,81,257,81,350,69,269,163,-0.594054,-0.341389,0,-1.5,3.69241e-38,0,0,0,-0.370983,0.636313,0,0,0,0,-0.392151,0.678508,9776,0,0,0,0,0,0,0,0,0,2.51,-1.27263
7753,-0.548828,0.129883,-5.06055,0.000147263,0.00227501,-0.00494169,0.0711946,0.000361015,0.511374,-5.06164,0.0282396,-0.12297,-0.378075,0.648585,-0.394828,0.683326,0.511374,0,0,257,81,257,81,350,69,269,163,-0.594044,-0.341427,0,-1.5,3.69241e-38,0,0,0,-0.378075,0.648585,0,0,0,0,-0.394828,0.683326,9682,0,0,0,0,0,0,0,0,0,2.51,-1.29717
7769,-0.548828,0.129883,-3.61035,0.00134977,0.00266375,-0.00445869,0.0712075,0.000345957,0.511266,-5.06164,0.0282396,-0.12297,-0.384416,0.659562,-0.397184,0.687573,0.511322,0,0,257,81,257,81,350,69,269,163,-0.594035,-0.341458,0,-1.5,3.69241e-38,0,0,0,-0.384416,0.659562,0,0,0,0,-0.397184,0.687573,9682,0,0,0,0,0,0,0,0,0,2.51,-1.31912
7785,-0.548828,0.129883,5.2373,0.000437936,0.00195688,-0.00461954,0.0712136,0.000340895,0.511201,-5.03458,0.0280679,-0.131158,-0.390795,0.670608,-0.39952,0.691788,0.511201,0,0,257,81,257,81,351,69,268,163,-0.594015,-0.34153,0,-1.5,3.69241e-38,0,0,0,-0.390795,0.670608,0,0,0,0,-0.39952,0.691788,9682,0,0,0,0,0,0,0,0,0,2.51,-1.34122
7801,-0.548828,0.129883,-3.12012,0.000616499,0.00238252,-0.00429239,0.0712231,0.000339883,0.511143,-5.03458,0.0280679,-0.131158,-0.397212,0.68172,-0.401837,0.695973,0.511143,0,0,257,81,257,81,351,69,268,163,-0.594005,-0.341565,0,-1.5,3.69241e-38,0,0,0,-0.397212,0.68172,0,0,0,0,-0.401837,0.695973,9682,0,0,0,0,0,0,0,0,0,2.51,-1.36344
7818,-0.548828,0.129883,-3.1543,-0.000464242,0.00196555,-0.00463962,0.0712214,0.000327401,0.51108,-5.02034,0.031572,-0.141497,-0.40407,0.6936,-0.404277,0.700384,0.51108,0,0,257,81,257,81,350,69,268,165,-0.593994,-0.341602,0,-1.5,3.69241e-38,0,0,0,-0.40407,0.6936,0,0,0,0,-0.404277,0.700384,9888,0,0,0,0,0,0,0,0,0,2.51,-1.3872
7834,-0.548828,0.129883,-3.1543,-0.000464242,0.00196555,-0.00463962,0.0712214,0.000327401,0.51108,-5.02034,0.031572,-0.141497,-0.410562,0.704848,-0.406553,0.704502,0.51108,0,0,257,81,257,81,350,69,268,165,-0.593994,-0.341602,0,-1.5,3.69241e-38,0,0,0,-0.410562,0.704848,0,0,0,0,-0.406553,0.704502,9888,0,0,0,0,0,0,0,0,0,2.51,-1.4097
7850,-0.548828,0.129883,-0.124023,-0.00129723,0.00240986,-0.00389928,0.0712215,0.000308409,0.510898,-5.02034,0.031572,-0.141497,-0.41709,0.716162,-0.40881,0.708588,0.510953,0,0,257,81,257,81,350,69,268,165,-0.593973,-0.341677,0,-1.5,3.69241e-38,0,0,0,-0.41709,0.716162,0,0,0,0,-0.40881,0.708588,9888,0,0,0,0,0,0,0,0,0,2.51,-1.43232
7866,-0.548828,0.129883,-1.66602,-0.000101579,0.00203184,-0.00490489,0.0712259,0.00030462,0.510829,-5.02037,0.0315746,-0.141558,-0.423654,0.727542,-0.411046,0.712643,0.510898,0,0,257,81,257,81,350,69,268,165,-0.593964,-0.34171,0,-1.5,3.69241e-38,0,0,0,-0.423654,0.727542,0,0,0,0,-0.411046,0.712643,9888,0,0,0,0,0,0,0,0,0,2.51,-1.45508
7882,-0.548828,0.129883,-3.21289,-0.00119288,0.00178108,-0.00475349,0.0712182,0.000294888,0.510764,-5.02037,0.0315746,-0.141558,-0.430254,0.738985,-0.413263,0.716667,0.510764,0,0,257,81,257,81,350,69,268,165,-0.593942,-0.34179,0,-1.5,3.69241e-38,0,0,0,-0.430254,0.738985,0,0,0,0,-0.413263,0.716667,9888,0,0,0,0,0,0,0,0,0,2.51,-1.47797
7898,-0.548828,0.129883,1.17188,-9.82482e-05,0.00134816,-0.00513889,0.0712144,0.000283777,0.5107,-5.07569,0.022391,-0.125853,-0.436888,0.750493,-0.415459,0.720659,0.5107,0,0,259,81,259,81,350,69,269,163,-0.593931,-0.341827,0,-1.5,3.69241e-38,0,0,0,-0.436888,0.750493,0,0,0,0,-0.415459,0.720659,9494,0,0,0,0,0,0,0,0,0,2.51,-1.50099
7915,-0.548828,0.129883,5.44727,-0.00040305,0.000776468,-0.00409901,0.0712017,0.000268054,0.51064,-5.07569,0.022391,-0.125853,-0.443976,0.76279,-0.41777,0.724866,0.51064,0,0,259,81,259,81,350,69,269,163,-0.593921,-0.341864,0,-1.5,3.69241e-38,0,0,0,-0.443976,0.76279,0,0,0,0,-0.41777,0.724866,9494,0,0,0,0,0,0,0,0,0,2.51,-1.52558
7935,-0.548828,0.129883,-6.47168,-0.00115363,0.001238,-0.00524831,0.0711978,0.000262219,0.51051,-5.07569,0.022391,-0.125853,-0.45237,0.777357,-0.420463,0.729774,0.51064,0,0,259,81,259,81,350,69,269,163,-0.593921,-0.341864,0,-1.5,3.69241e-38,0,0,0,-0.45237,0.777357,0,0,0,0,-0.420463,0.729774,9494,0,0,0,0,0,0,0,0,0,2.51,-1.55471
8106,-0.548828,0.129883,6.53516,0.000145738,0.0022657,-0.00586075,0.0712212,0.000214738,0.509717,-5.04327,0.0250658,-0.129254,-0.527975,0.908911,-0.443198,0.771274,0.509717,0,0,257,81,257,81,350,69,269,163,-0.593766,-0.342411,0,-1.5,3.69241e-38,0,0,0,-0.527975,0.908911,0,0,0,0,-0.443198,0.771274,9776,0,0,0,0,0,0,0,0,0,2.51,-1.81782
8123,-0.548828,0.129883,3.87988,0.000402138,0.00202182,-0.00513741,0.0712233,0.00020593,0.509653,-5.01174,0.0187783,-0.139354,-0.535532,0.922065,-0.445255,0.775066,0.509653,0,0,257,81,257,81,351,69,269,163,-0.593755,-0.34245,0,-1.5,3.69241e-38,0,0,0,-0.535532,0.922065,0,0,0,0,-0.445255,0.775066,9870,0,0,0,0,0,0,0,0,0,2.51,-1.84413
8139,-0.548828,0.129883,-2.32227,-0.00024259,0.00193473,-0.00415634,0.071217,0.000196842,0.509595,-5.01174,0.0187783,-0.139354,-0.542676,0.934502,-0.447173,0.778605,0.509595,0,0,257,81,257,81,351,69,269,163,-0.593746,-0.342484,0,-1.5,3.69241e-38,0,0,0,-0.542676,0.934502,0,0,0,0,-0.447173,0.778605,9870,0,0,0,0,0,0,0,0,0,2.51,-1.869
8155,-0.548828,0.129883,-1.72363,-0.00102123,0.00310045,-0.00524611,0.0712104,0.000204758,0.509523,-5.01174,0.0187783,-0.139354,-0.54985,0.946996,-0.449074,0.782117,0.509523,0,0,257,81,257,81,351,69,269,163,-0.593733,-0.342527,0,-1.5,3.69241e-38,0,0,0,-0.54985,0.946996,0,0,0,0,-0.449074,0.782117,9870,0,0,0,0,0,0,0,0,0,2.51,-1.89399
8171,-0.548828,0.129883,-5.53418,0.000772756,0.00147438,-0.00460689,0.0712308,0.000186739,0.509381,-5.01174,0.0187783,-0.139354,-0.557055,0.959547,-0.450961,0.7856,0.509523,0,0,257,81,257,81,351,69,269,163,-0.593733,-0.342527,0,-1.5,3.69241e-38,0,0,0,-0.557055,0.959547,0,0,0,0,-0.450961,0.7856,9870,0,0,0,0,0,0,0,0,0,2.51,-1.91909
8188,-0.548828,0.129883,5.43262,-0.00038634,0.00218385,-0.00527286,0.071229,0.000179721,0.509314,-5.01176,0.0187947,-0.139404,-0.564744,0.972943,-0.452946,0.789275,0.509314,0,0,257,81,257,81,351,69,269,163,-0.593699,-0.342651,0,-1.5,3.69241e-38,0,0,0,-0.564744,0.972943,0,0,0,0,-0.452946,0.789275,9870,0,0,0,0,0,0,0,0,0,2.51,-1.94589
8204,-0.548828,0.129883,5.01758,-0.000532106,0.00305666,-0.00559855,0.0712271,0.000180216,0.509241,-5.01176,0.0187947,-0.139404,-0.57201,0.985606,-0.454797,0.792706,0.509241,0,0,257,81,257,81,351,69,269,163,-0.593686,-0.342694,0,-1.5,3.69241e-38,0,0,0,-0.57201,0.985606,0,0,0,0,-0.454797,0.792706,9870,0,0,0,0,0,0,0,0,0,2.51,-1.97121
8220,-0.548828,0.129883,4.7168,0.000252619,0.00236744,-0.00462252,0.0712302,0.000175462,0.509189,-5.04346,0.0250208,-0.129652,-0.579306,0.998325,-0.456632,0.79611,0.509189,0,0,257,81,257,81,350,69,269,163,-0.593677,-0.342725,0,-1.5,3.69241e-38,0,0,0,-0.579306,0.998325,0,0,0,0,-0.456632,0.79611,9776,0,0,0,0,0,0,0,0,0,2.51,-1.99665
8236,-0.548828,0.129883,4.7168,0.000252619,0.00236744,-0.00462252,0.0712302,0.000175462,0.509189,-5.04346,0.0250208,-0.129652,-0.586631,1.0111,-0.458452,0.799488,0.509189,0,0,257,81,257,81,350,69,269,163,-0.593677,-0.342725,0,-1.5,3.69241e-38,0,0,0,-0.586631,1.0111,0,0,0,0,-0.458452,0.799488,9776,0,0,0,0,0,0,0,0,0,2.51,-2.0222
8252,-0.548828,0.129883,0.737305,0.00116146,0.00259427,-0.00480054,0.0712493,0.000162454,0.509059,-4.98412,0.025299,-0.153547,-0.593985,1.02393,-0.460258,0.802841,0.509059,0,0,257,81,257,81,350,69,268,165,-0.593655,-0.342802,0,-1.5,3.69241e-38,0,0,0,-0.593985,1.02393,0,0,0,0,-0.460258,0.802841,10080,0,0,0,0,0,0,0,0,0,2.51,-2.04785
8269,-0.548828,0.129883,6.54102,0.000695708,0.00182977,-0.00485341,0.0712714,0.000149569,0.508937,-4.98412,0.025299,-0.153547,-0.601831,1.03761,-0.462159,0.806377,0.508937,0,0,257,81,257,81,350,69,268,165,-0.593635,-0.342874,0,-1.5,3.69241e-38,0,0,0,-0.601831,1.03761,0,0,0,0,-0.462159,0.806377,10080,0,0,0,0,0,0,0,0,0,2.51,-2.07522
8284,-0.548828,0.129883,3.93848,-0.000334202,0.00175674,-0.00461103,0.0712585,0.000148085,0.508885,-4.98412,0.025299,-0.153547,-0.608779,1.04974,-0.463821,0.809475,0.508885,0,0,257,81,257,81,350,69,268,165,-0.593626,-0.342905,0,-1.5,3.69241e-38,0,0,0,-0.608779,1.04974,0,0,0,0,-0.463821,0.809475,10080,0,0,0,0,0,0,0,0,0,2.51,-2.09948
8299,-0.548828,0.129883,-2.30273,0.00023778,0.00303201,-0.0047552,0.0712674,0.000153737,0.508825,-5.00259,0.028356,-0.14801,-0.615752,1.06191,-0.46547,0.81255,0.508825,0,0,257,81,257,81,350,69,268,165,-0.593616,-0.342941,0,-1.5,3.69241e-38,0,0,0,-0.615752,1.06191,0,0,0,0,-0.46547,0.81255,9984,0,0,0,0,0,0,0,0,0,2.51,-2.12382
8316,-0.548828,0.129883,-1.70117,-0.000538539,0.00190744,-0.00493486,0.0712688,0.000140028,0.508759,-5.00259,0.028356,-0.14801,-0.623686,1.07576,-0.467323,0.816009,0.508759,0,0,257,81,257,81,350,69,268,165,-0.593605,-0.34298,0,-1.5,3.69241e-38,0,0,0,-0.623686,1.07576,0,0,0,0,-0.467323,0.816009,9984,0,0,0,0,0,0,0,0,0,2.51,-2.15152
8332,-0.548828,0.129883,-1.70117,-0.000538539,0.00190744,-0.00493486,0.0712688,0.000140028,0.508759,-5.04559,0.0212243,-0.123253,-0.630711,1.08803,-0.468944,0.819037,0.508759,0,0,259,79,259,79,350,69,268,163,-0.593605,-0.34298,0,-1.5,3.69241e-38,0,0,0,-0.630711,1.08803,0,0,0,0,-0.468944,0.819037,9588,0,0,0,0,0,0,0,0,0,2.51,-2.17606
8348,-0.548828,0.129883,5.40527,0.000708543,0.00232092,-0.00485595,0.0712762,0.000125754,0.508569,-5.04559,0.0212243,-0.123253,-0.638703,1.10199,-0.470766,0.822442,0.508633,0,0,259,79,259,79,350,69,268,163,-0.593584,-0.343055,0,-1.5,3.69241e-38,0,0,0,-0.638703,1.10199,0,0,0,0,-0.470766,0.822442,9588,0,0,0,0,0,0,0,0,0,2.51,-2.20398
8364,-0.548828,0.129883,5.01367,0.000174989,0.00235764,-0.00552286,0.0712885,0.000119565,0.508496,-5.06534,0.0219838,-0.123445,-0.646253,1.11518,-0.472464,0.825623,0.508569,0,0,259,81,259,81,350,69,268,163,-0.593573,-0.343093,0,-1.5,3.69241e-38,0,0,0,-0.646253,1.11518,0,0,0,0,-0.472464,0.825623,9588,0,0,0,0,0,0,0,0,0,2.51,-2.23037
8380,-0.548828,0.129883,4.75684,0.000462105,0.00195137,-0.0047597,0.0712938,0.000117172,0.508428,-5.06534,0.0219838,-0.123445,-0.65383,1.12843,-0.474148,0.828781,0.508428,0,0,259,81,259,81,350,69,268,163,-0.593549,-0.343177,0,-1.5,3.69241e-38,0,0,0,-0.65383,1.12843,0,0,0,0,-0.474148,0.828781,9588,0,0,0,0,0,0,0,0,0,2.51,-2.25685
8396,-0.548828,0.129883,4.75684,0.000462105,0.00195137,-0.0047597,0.0712938,0.000117172,0.508428,-5.02435,0.0241522,-0.129706,-0.661433,1.14172,-0.475818,0.831915,0.508428,0,0,257,79,257,79,350,69,269,163,-0.593549,-0.343177,0,-1.5,3.69241e-38,0,0,0,-0.661433,1.14172,0,0,0,0,-0.475818,0.831915,9776,0,0,0,0,0,0,0,0,0,2.51,-2.28344
8412,-0.548828,0.129883,0.765625,0.000485628,0.00200613,-0.00543643,0.0713081,0.000123933,0.508289,-5.02435,0.0241522,-0.129706,-0.669064,1.15506,-0.477475,0.835026,0.508289,0,0,257,79,257,79,350,69,269,163,-0.593526,-0.343259,0,-1.5,3.69241e-38,0,0,0,-0.669064,1.15506,0,0,0,0,-0.477475,0.835026,9776,0,0,0,0,0,0,0,0,0,2.51,-2.31013
8428,-0.548828,0.129883,0.765625,0.000485628,0.00200613,-0.00543643,0.0713081,0.000123933,0.508289,-5.01198,0.0186674,-0.139822,-0.676721,1.16846,-0.479119,0.838113,0.508289,0,0,257,81,257,81,351,69,269,163,-0.593526,-0.343259,0,-1.5,3.69241e-38,0,0,0,-0.676721,1.16846,0,0,0,0,-0.479119,0.838113,9870,0,0,0,0,0,0,0,0,0,2.51,-2.33691
8444,-0.548828,0.129883,3.91895,0.00122096,0.00221705,-0.00442244,0.071352,0.000103988,0.508095,-5.01198,0.0186674,-0.139822,-0.684403,1.1819,-0.480749,0.841177,0.508159,0,0,257,81,257,81,351,69,269,163,-0.593504,-0.343336,0,-1.5,3.69241e-38,0,0,0,-0.684403,1.1819,0,0,0,0,-0.480749,0.841177,9870,0,0,0,0,0,0,0,0,0,2.51,-2.36379
8460,-0.548828,0.129883,3.91895,0.00122096,0.00221705,-0.00442244,0.071352,0.000103988,0.508095,-5.0112,0.0247508,-0.139518,-0.692112,1.19539,-0.482366,0.844222,0.508095,0,0,257,81,257,81,350,69,268,163,-0.593493,-0.343374,0,-1.5,3.69241e-38,0,0,0,-0.692112,1.19539,0,0,0,0,-0.482366,0.844222,9870,0,0,0,0,0,0,0,0,0,2.51,-2.39077
8475,-0.548828,0.129883,-0.225586,0.000140201,0.00283091,-0.00550799,0.0713749,9.8916e-05,0.507954,-5.0112,0.0247508,-0.139518,-0.699363,1.20808,-0.483869,0.847055,0.508095,0,0,257,81,257,81,350,69,268,163,-0.593493,-0.343374,0,-1.5,3.69241e-38,0,0,0,-0.699363,1.20808,0,0,0,0,-0.483869,0.847055,9870,0,0,0,0,0,0,0,0,0,2.51,-2.41616
8491,-0.548828,0.129883,5.93164,-0.000715293,0.00296952,-0.00411528,0.0713784,0.000103404,0.507889,-5.01125,0.0246838,-0.139611,-0.707121,1.22166,-0.485461,0.850059,0.507889,0,0,257,81,257,81,350,69,268,163,-0.593458,-0.343496,0,-1.5,3.69241e-38,0,0,0,-0.707121,1.22166,0,0,0,0,-0.485461,0.850059,9870,0,0,0,0,0,0,0,0,0,2.51,-2.44332
8507,-0.548828,0.129883,5.93164,-0.000715293,0.00296952,-0.00411528,0.0713784,0.000103404,0.507889,-5.01125,0.0246838,-0.139611,-0.714904,1.23529,-0.48704,0.853039,0.507889,0,0,257,81,257,81,350,69,268,163,-0.593458,-0.343496,0,-1.5,3.69241e-38,0,0,0,-0.714904,1.23529,0,0,0,0,-0.48704,0.853039,9870,0,0,0,0,0,0,0,0,0,2.51,-2.47059
8523,-0.548828,0.129883,-4.72559,0.00124959,0.00217333,-0.0044204,0.0713865,0.000105371,0.507752,-5.03007,0.0277797,-0.133808,-0.722713,1.24897,-0.488606,0.855996,0.507752,0,0,257,81,257,81,350,69,268,163,-0.593435,-0.343578,0,-1.5,3.69241e-38,0,0,0,-0.722713,1.24897,0,0,0,0,-0.488606,0.855996,9776,0,0,0,0,0,0,0,0,0,2.51,-2.49795
8539,-0.548828,0.129883,-3.82617,-0.00034184,0.00286866,-0.00425456,0.0713897,0.000112614,0.507692,-5.03007,0.0277797,-0.133808,-0.730547,1.2627,-0.49016,0.858931,0.507692,0,0,257,81,257,81,350,69,268,163,-0.593425,-0.343613,0,-1.5,3.69241e-38,0,0,0,-0.730547,1.2627,0,0,0,0,-0.49016,0.858931,9776,0,0,0,0,0,0,0,0,0,2.51,-2.51
8555,-0.548828,0.129883,-2.74316,-0.000249743,0.00355995,-0.00572052,0.0713895,0.000120558,0.507627,-5.02479,0.0216381,-0.135779,-0.738406,1.27647,-0.491702,0.861843,0.507627,0,0,257,81,257,81,350,69,269,163,-0.593414,-0.343652,0,-1.5,3.69241e-38,0,0,0,-0.738406,1.27647,0,0,0,0,-0.491702,0.861843,9870,0,0,0,0,0,0,0,0,0,2.51,-2.51
8572,-0.548828,0.129883,-4.4541,-0.000470049,0.00212811,-0.00437062,0.0713926,0.000114837,0.507497,-5.02479,0.0216381,-0.135779,-0.746783,1.29116,-0.493327,0.864911,0.507497,0,0,257,81,257,81,350,69,269,163,-0.593392,-0.343729,0,-1.5,3.69241e-38,0,0,0,-0.746783,1.29116,0,0,0,0,-0.493327,0.864911,9870,0,0,0,0,0,0,0,0,0,2.51,-2.51
8589,-0.548828,0.129883,5.9375,0.000424351,0.00230614,-0.00413666,0.0713974,0.000111075,0.507435,-5.02479,0.0216337,-0.135768,-0.755188,1.3059,-0.494936,0.867956,0.507435,0,0,257,81,257,81,350,69,269,163,-0.593381,-0.343766,0,-1.5,3.69241e-38,0,0,0,-0.755188,1.3059,0,0,0,0,-0.494936,0.867956,9870,0,0,0,0,0,0,0,0,0,2.51,-2.51
8605,-0.548828,0.129883,4.52148,0.000989483,0.0020086,-0.004665,0.071416,0.000107096,0.507368,-5.02479,0.0216337,-0.135768,-0.763123,1.31981,-0.496438,0.870799,0.507368,0,0,257,81,257,81,350,69,269,163,-0.59337,-0.343806,0,-1.5,3.69241e-38,0,0,0,-0.763123,1.31981,0,0,0,0,-0.496438,0.870799,9870,0,0,0,0,0,0,0,0,0,2.51,-2.51
8621,-0.548828,0.129883,3.04688,-0.000656104,0.00178621,-0.00464973,0.0714003,9.74539e-05,0.507309,-4.98987,0.0250173,-0.152262,-0.771081,1.33378,-0.497927,0.873621,0.507309,0,0,257,81,257,81,351,69,268,165,-0.59336,-0.343841,0,-1.5,3.69241e-38,0,0,0,-0.771081,1.33378,0,0,0,0,-0.497927,0.873621,9984,0,0,0,0,0,0,0,0,0,2.51,-2.51
8637,-0.548828,0.129883,1.38086,0.000207581,0.00123807,-0.00554359,0.0713961,7.58003e-05,0.507167,-4.98987,0.0250173,-0.152262,-0.779064,1.34778,-0.499401,0.87642,0.507309,0,0,257,81,257,81,351,69,268,165,-0.59336,-0.343841,0,-1.5,3.69241e-38,0,0,0,-0.779064,1.34778,0,0,0,0,-0.499401,0.87642,9984,0,0,0,0,0,0,0,0,0,2.51,-2.51
8653,-0.548828,0.129883,-6.81641,-0.000136295,0.00258543,-0.00644327,0.0714041,7.12874e-05,0.507094,-5.01128,0.0246102,-0.139638,-0.787069,1.36184,-0.500862,0.879198,0.507167,0,0,257,81,257,81,350,69,268,163,-0.593336,-0.343925,0,-1.5,3.69241e-38,0,0,0,-0.787069,1.36184,0,0,0,0,-0.500862,0.879198,9870,0,0,0,0,0,0,0,0,0,2.51,-2.51
8670,-0.548828,0.129883,2.21484,-0.000154475,0.00151003,-0.00439423,0.0714115,6.19258e-05,0.507032,-5.01128,0.0246102,-0.139638,-0.795601,1.37681,-0.502398,0.882128,0.507032,0,0,257,81,257,81,350,69,268,163,-0.593313,-0.344005,0,-1.5,3.69241e-38,0,0,0,-0.795601,1.37681,0,0,0,0,-0.502398,0.882128,9870,0,0,0,0,0,0,0,0,0,2.51,-2.51
8685,-0.548828,0.129883,0.367188,-0.000839847,0.00177923,-0.0040752,0.0714097,5.69469e-05,0.50698,-5.01212,0.0184878,-0.14008,-0.80315,1.39007,-0.503741,0.884694,0.50698,0,0,257,81,257,81,351,69,269,163,-0.593304,-0.344036,0,-1.5,3.69241e-38,0,0,0,-0.80315,1.39007,0,0,0,0,-0.503741,0.884694,9870,0,0,0,0,0,0,0,0,0,2.51,-2.51
8701,-0.548828,0.129883,2.57812,0.000179949,0.00106092,-0.00442661,0.0714137,3.562e-05,0.506921,-5.01212,0.0184878,-0.14008,-0.811225,1.40425,-0.50516,0.887412,0.506921,0,0,257,81,257,81,351,69,269,163,-0.593294,-0.344071,0,-1.5,3.69241e-38,0,0,0,-0.811225,1.40425,0,0,0,0,-0.50516,0.887412,9870,0,0,0,0,0,0,0,0,0,2.51,-2.51
8718,-0.548828,0.129883,5.2168,0.00041389,0.00143332,-0.00359921,0.071421,2.53511e-05,0.506869,-5.01212,0.0184878,-0.14008,-0.819322,1.41848,-0.506565,0.89011,0.506869,0,0,257,81,257,81,351,69,269,163,-0.593285,-0.344102,0,-1.5,3.69241e-38,0,0,0,-0.819322,1.41848,0,0,0,0,-0.506565,0.89011,9870,0,0,0,0,0,0,0,0,0,2.51,-2.51
8734,-0.548828,0.129883,5.2168,0.00041389,0.00143332,-0.00359921,0.071421,2.53511e-05,0.506869,-5.06244,0.0278911,-0.124596,-0.82795,1.43364,-0.508045,0.892955,0.506869,0,0,257,81,257,81,350,69,269,163,-0.593285,-0.344102,0,-1.5,3.69241e-38,0,0,0,-0.82795,1.43364,0,0,0,0,-0.508045,0.892955,9682,0,0,0,0,0,0,0,0,0,2.51,-2.51
8750,-0.548828,0.129883,2.51172,0.00144892,0.0019953,-0.00503457,0.0714577,1.50043e-05,0.506664,-5.06244,0.0278911,-0.124596,-0.836093,1.44796,-0.509426,0.895612,0.506731,0,0,257,81,257,81,350,69,269,163,-0.593262,-0.344184,0,-1.5,3.69241e-38,0,0,0,-0.836093,1.44796,0,0,0,0,-0.509426,0.895612,9682,0,0,0,0,0,0,0,0,0,2.51,-2.51
8766,-0.548828,0.129883,2.31445,0.00123159,0.00278623,-0.00479655,0.0714763,1.53858e-05,0.506592,-5.03026,0.0277145,-0.134185,-0.844257,1.46232,-0.510796,0.898252,0.506592,0,0,257,81,257,81,350,69,268,163,-0.593238,-0.344266,0,-1.5,3.69241e-38,0,0,0,-0.844257,1.46232,0,0,0,0,-0.510796,0.898252,9776,0,0,0,0,0,0,0,0,0,2.51,-2.51
8782,-0.548828,0.129883,2.06836,-0.000303846,0.00269907,-0.00487168,0.0714738,1.51448e-05,0.506527,-5.03026,0.0277145,-0.134185,-0.852444,1.47671,-0.512155,0.900875,0.506527,0,0,257,81,257,81,350,69,268,163,-0.593227,-0.344305,0,-1.5,3.69241e-38,0,0,0,-0.852444,1.47671,0,0,0,0,-0.512155,0.900875,9776,0,0,0,0,0,0,0,0,0,2.51,-2.51
8798,-0.548828,0.129883,2.06836,-0.000303846,0.00269907,-0.00487168,0.0714738,1.51448e-05,0.506527,-5.03029,0.0276299,-0.134228,-0.860652,1.49115,-0.513503,0.903477,0.506527,0,0,257,81,257,81,350,69,268,163,-0.593227,-0.344305,0,-1.5,3.69241e-38,0,0,0,-0.860652,1.49115,0,0,0,0,-0.513503,0.903477,9776,0,0,0,0,0,0,0,0,0,2.51,-2.51
8814,-0.548828,0.129883,3.0918,0.00014118,0.00131823,-0.00502787,0.0714824,-5.94601e-06,0.506397,-5.03029,0.0276299,-0.134228,-0.868882,1.50564,-0.514839,0.906059,0.506397,0,0,257,81,257,81,350,69,268,163,-0.593205,-0.344382,0,-1.5,3.69241e-38,0,0,0,-0.868882,1.50564,0,0,0,0,-0.514839,0.906059,9776,0,0,0,0,0,0,0,0,0,2.51,-2.51
8830,-0.548828,0.129883,3.0918,0.00014118,0.00131823,-0.00502787,0.0714824,-5.94601e-06,0.506397,-5.00341,0.0219534,-0.149001,-0.877133,1.52016,-0.516162,0.908623,0.506397,0,0,257,81,257,81,351,69,269,165,-0.593205,-0.344382,0,-1.5,3.69241e-38,0,0,0,-0.877133,1.52016,0,0,0,0,-0.516162,0.908623,9984,0,0,0,0,0,0,0,0,0,2.51,-2.51
8846,-0.548828,0.129883,5.80859,-0.000451241,0.00170377,-0.004913,0.0714783,-3.62443e-05,0.506208,-5.00341,0.0219534,-0.149001,-0.885405,1.53472,-0.517472,0.911167,0.50627,0,0,257,81,257,81,351,69,269,165,-0.593184,-0.344457,0,-1.5,3.69241e-38,0,0,0,-0.885405,1.53472,0,0,0,0,-0.517472,0.911167,9984,0,0,0,0,0,0,0,0,0,2.51,-2.51
8863,-0.548828,0.129883,5.80859,-0.000451241,0.00170377,-0.004913,0.0714783,-3.62443e-05,0.506208,-5.00346,0.0219402,-0.149102,-0.894217,1.55024,-0.51885,0.91385,0.506208,0,0,257,81,257,81,351,69,269,165,-0.593173,-0.344494,0,-1.5,3.69241e-38,0,0,0,-0.894217,1.55024,0,0,0,0,-0.51885,0.91385,9984,0,0,0,0,0,0,0,0,0,2.51,-2.51
8877,-0.548828,0.129883,-2.2998,-0.000608731,0.00098039,-0.00582122,0.071482,-5.90585e-05,0.506068,-5.00346,0.0219402,-0.149102,-0.901491,1.56306,-0.519974,0.916043,0.506068,0,0,257,81,257,81,351,69,269,165,-0.593149,-0.344577,0,-1.5,3.69241e-38,0,0,0,-0.901491,1.56306,0,0,0,0,-0.519974,0.916043,9984,0,0,0,0,0,0,0,0,0,2.51,-2.51
8893,-0.548828,0.129883,-2.2998,-0.000608731,0.00098039,-0.00582122,0.071482,-5.90585e-05,0.506068,-5.00352,0.0219465,-0.14925,-0.909824,1.57774,-0.521245,0.918533,0.506068,0,0,257,81,257,81,351,69,269,165,-0.593149,-0.344577,0,-1.5,3.69241e-38,0,0,0,-0.909824,1.57774,0,0,0,0,-0.521245,0.918533,9984,0,0,0,0,0,0,0,0,0,2.51,-2.51
8909,-0.548828,0.129883,-2.2998,-0.000608731,0.00098039,-0.00582122,0.071482,-5.90585e-05,0.506068,-5.00352,0.0219465,-0.14925,-0.918176,1.59246,-0.522506,0.921003,0.506068,0,0,257,81,257,81,351,69,269,165,-0.593149,-0.344577,0,-1.5,3.69241e-38,0,0,0,-0.918176,1.59246,0,0,0,0,-0.522506,0.921003,9984,0,0,0,0,0,0,0,0,0,2.51,-2.51
8925,-0.548828,0.129883,-1.25586,0.000671672,0.00196209,-0.00512368,0.0714906,-6.18482e-05,0.505864,-5.0031,0.0280368,-0.149,-0.92655,1.60722,-0.523757,0.923455,0.505864,0,0,257,81,257,81,350,69,268,165,-0.593114,-0.344698,0,-1.5,3.69241e-38,0,0,0,-0.92655,1.60722,0,0,0,0,-0.523757,0.923455,9984,0,0,0,0,0,0,0,0,0,2.51,-2.51
8941,-0.548828,0.129883,1.02051,-0.000217841,0.0020863,-0.00444117,0.0714958,-7.26662e-05,0.50574,-5.0031,0.0280368,-0.149,-0.934943,1.62202,-0.524996,0.92589,0.505802,0,0,257,81,257,81,350,69,268,165,-0.593104,-0.344735,0,-1.5,3.69241e-38,0,0,0,-0.934943,1.62202,0,0,0,0,-0.524996,0.92589,9984,0,0,0,0,0,0,0,0,0,2.51,-2.51
8957,-0.548828,0.129883,1.02051,-0.000217841,0.0020863,-0.00444117,0.0714958,-7.26662e-05,0.50574,-5.01167,0.0244588,-0.140441,-0.943356,1.63686,-0.526224,0.928306,0.50574,0,0,257,81,257,81,350,69,268,163,-0.593093,-0.344772,0,-1.5,3.69241e-38,0,0,0,-0.943356,1.63686,0,0,0,0,-0.526224,0.928306,9870,0,0,0,0,0,0,0,0,0,2.51,-2.51
8974,-0.548828,0.129883,4.88379,-0.000359453,0.00158531,-0.00493975,0.0715012,-9.20237e-05,0.505603,-5.01167,0.0244588,-0.140441,-0.951788,1.65174,-0.527442,0.930704,0.505603,0,0,257,81,257,81,350,69,268,163,-0.59307,-0.344853,0,-1.5,3.69241e-38,0,0,0,-0.951788,1.65174,0,0,0,0,-0.527442,0.930704,9870,0,0,0,0,0,0,0,0,0,2.51,-2.51
8990,-0.548828,0.129883,-2.29297,0.000661171,0.0010678,-0.00533058,0.071513,-0.000105165,0.505538,-5.00314,0.0280158,-0.149065,-0.960769,1.66759,-0.528721,0.933235,0.505538,0,0,257,81,257,81,350,69,268,165,-0.593059,-0.344892,0,-1.5,3.69241e-38,0,0,0,-0.960769,1.66759,0,0,0,0,-0.528721,0.933235,9984,0,0,0,0,0,0,0,0,0,2.51,-2.51
9006,-0.548828,0.129883,-4.93164,-0.000130351,0.00211717,-0.00548183,0.0715126,-0.000111856,0.505471,-5.00314,0.0280158,-0.149065,-0.969241,1.68255,-0.529913,0.935598,0.505471,0,0,257,81,257,81,350,69,268,165,-0.593048,-0.344931,0,-1.5,3.69241e-38,0,0,0,-0.969241,1.68255,0,0,0,0,-0.529913,0.935598,9984,0,0,0,0,0,0,0,0,0,2.51,-2.51
9022,-0.548828,0.129883,-4.39648,1.83144e-05,0.00236102,-0.00567521,0.0715047,-0.000115544,0.505399,-5.01253,0.0183334,-0.140915,-0.977732,1.69754,-0.531093,0.937944,0.505399,0,0,257,81,257,81,351,69,269,163,-0.593035,-0.344974,0,-1.5,3.69241e-38,0,0,0,-0.977732,1.69754,0,0,0,0,-0.531093,0.937944,9870,0,0,0,0,0,0,0,0,0,2.51,-2.51
9039,-0.548828,0.129883,5.54785,-0.000504685,0.00215832,-0.00480096,0.0715088,-0.000142783,0.505271,-5.01253,0.0183334,-0.140915,-0.986774,1.71352,-0.532336,0.940416,0.505399,0,0,257,81,257,81,351,69,269,163,-0.593035,-0.344974,0,-1.5,3.69241e-38,0,0,0,-0.986774,1.71352,0,0,0,0,-0.532336,0.940416,9870,0,0,0,0,0,0,0,0,0,2.51,-2.51
9055,-0.548828,0.129883,5.54785,-0.000504685,0.00215832,-0.00480096,0.0715088,-0.000142783,0.505271,-5.02157,0.0250259,-0.144139,-0.995304,1.72859,-0.533494,0.942724,0.505271,0,0,257,81,257,81,351,69,269,165,-0.593013,-0.34505,0,-1.5,3.69241e-38,0,0,0,-0.995304,1.72859,0,0,0,0,-0.533494,0.942724,9888,0,0,0,0,0,0,0,0,0,2.51,-2.51
9072,-0.548828,0.129883,-4.0498,0.000841595,0.00141327,-0.00474821,0.0715292,-0.000164932,0.505139,-5.02157,0.0250259,-0.144139,-1.00385,1.74369,-0.53464,0.945017,0.505139,0,0,257,81,257,81,351,69,269,165,-0.592991,-0.345128,0,-1.5,3.69241e-38,0,0,0,-1.00385,1.74369,0,0,0,0,-0.53464,0.945017,9888,0,0,0,0,0,0,0,0,0,2.51,-2.51
9087,-0.548828,0.129883,-5.44238,-2.12348e-05,0.00246208,-0.00443923,0.0715281,-0.000166676,0.505084,-4.98493,0.0248469,-0.155162,-1.01242,1.75884,-0.535774,0.947296,0.505084,0,0,257,81,257,81,350,69,268,165,-0.592982,-0.345161,0,-1.5,3.69241e-38,0,0,0,-1.01242,1.75884,0,0,0,0,-0.535774,0.947296,10080,0,0,0,0,0,0,0,0,0,2.51,-2.51
9103,-0.548828,0.129883,-2.94141,-0.000373589,0.00294785,-0.00532809,0.0715261,-0.000166219,0.505015,-4.98493,0.0248469,-0.155162,-1.021,1.77402,-0.536898,0.949557,0.505015,0,0,257,81,257,81,350,69,268,165,-0.59297,-0.345201,0,-1.5,3.69241e-38,0,0,0,-1.021,1.77402,0,0,0,0,-0.536898,0.949557,10080,0,0,0,0,0,0,0,0,0,2.51,-2.51
9119,-0.548828,0.129883,-0.255859,-0.000223986,0.00288967,-0.0047661,0.0715243,-0.000163712,0.504954,-4.99821,0.0218774,-0.151486,-1.0296,1.78923,-0.538013,0.951799,0.504954,0,0,257,81,257,81,350,69,269,165,-0.592959,-0.345238,0,-1.5,3.69241e-38,0,0,0,-1.0296,1.78923,0,0,0,0,-0.538013,0.951799,10080,0,0,0,0,0,0,0,0,0,2.51,-2.51
9136,-0.548828,0.129883,6.81543,-0.000218788,0.00228079,-0.00473052,0.0715196,-0.000178915,0.504817,-4.99821,0.0218774,-0.151486,-1.03822,1.80449,-0.539119,0.954024,0.504954,0,0,257,81,257,81,350,69,269,165,-0.592959,-0.345238,0,-1.5,3.69241e-38,0,0,0,-1.03822,1.80449,0,0,0,0,-0.539119,0.954024,10080,0,0,0,0,0,0,0,0,0,2.51,-2.51
9152,-0.548828,0.129883,0.265625,0.000650569,0.00158439,-0.00430495,0.0715286,-0.000186627,0.504761,-5.02544,0.021432,-0.137112,-1.0474,1.82073,-0.540282,0.95637,0.504817,0,0,257,81,257,81,350,69,269,163,-0.592936,-0.345319,0,-1.5,3.69241e-38,0,0,0,-1.0474,1.82073,0,0,0,0,-0.540282,0.95637,9870,0,0,0,0,0,0,0,0,0,2.51,-2.51
9168,-0.548828,0.129883,-1.3457,0.000708676,0.00307563,-0.00532719,0.0715419,-0.000175738,0.504697,-5.02544,0.021432,-0.137112,-1.05606,1.83605,-0.541364,0.958562,0.504697,0,0,257,81,257,81,350,69,269,163,-0.592915,-0.34539,0,-1.5,3.69241e-38,0,0,0,-1.05606,1.83605,0,0,0,0,-0.541364,0.958562,9870,0,0,0,0,0,0,0,0,0,2.51,-2.51
