timestamp,A_x,A_y,A_z,P,Q,R,Phi,Theta,Psi,poseX,poseY,poseZ,state_X,state_Y,state_Z,state_VzB,state_Bx,state_By,state_Bz,p1_x,p1_y,p2_x,p2_y,p3_x,p3_y,p4_x,p4_y,roll,pitch,yaw,alt,targetHeading,highLevelState,lowLevelState,gateNumber,filtered_x,filtered_y,x_OT,y_OT,vx_OT,vy_OT,filtered_vx,filtered_vygateArearansac_corr_x,ransac_corr_y,ransac_corr_vx,ransac_corr_vy,detectionTimeStamppTermX,dTermX,pTermY,dTermY,vxcmd,vycmd
6094,0.173828,0,6.40137,0.00100671,0.00042864,-0.0007225,-0.0229422,0.00636673,-0.0584106,0,0,0,-3.28395e-06,-9.45686e-06,-0.000609741,-0.00175941,-0.0580183,0,0,0,0,0,0,0,0,0,0,0.0257449,-0.610016,0,-1.5,3.21831e-38,0,0,0,-3.28395e-06,-9.45686e-06,0.457031,0.0195312,0,0,-0.000609741,-0.00175941,1.9603e-19,0,0,0,0,0,0,0,0,0,2.5,1.89137e-05
6109,0.0595703,0,-2.46973,0.00163395,0.0012898,-0.00120877,-0.0231261,0.00629726,-0.0594347,0,0,0,-2.49818e-05,-7.25687e-05,-0.00180728,-0.0052763,-0.059026,0,0,0,0,0,0,0,0,0,0,0.027093,-0.609937,0,-1.5,3.21831e-38,0,0,0,-2.49818e-05,-7.25687e-05,0.457031,0.0195312,0,0,-0.00180728,-0.0052763,1.9603e-19,0,0,0,0,0,0,0,0,0,2.5,0.000145137
6125,0.109375,0,-2.41504,0.000472099,-0.00106196,-0.00216409,-0.0234382,0.00616129,-0.060534,0,0,0,-6.23085e-05,-0.000182099,-0.00291519,-0.0085787,-0.0600325,0,0,0,0,0,0,0,0,0,0,0.0284101,-0.609856,0,-1.5,3.21831e-38,0,0,0,-6.23085e-05,-0.000182099,0.457031,0.0195312,0,0,-0.00291519,-0.0085787,1.9603e-19,0,0,0,0,0,0,0,0,0,2.5,0.000364199
6142,0.0419922,0,-6.61816,0.00047882,-4.82362e-05,-0.00103494,-0.0236765,0.00613326,-0.0612482,0,0,0,-0.000129854,-0.000382207,-0.00422287,-0.0125548,-0.061073,0,0,0,0,0,0,0,0,0,0,0.0299551,-0.60976,0,-1.5,3.21831e-38,0,0,0,-0.000129854,-0.000382207,0.488281,0.0390625,0,0,-0.00422287,-0.0125548,1.9603e-19,0,0,0,0,0,0,0,0,0,2.5,0.000764413
6158,0.0419922,0,-2.41211,0.000474239,0.000285986,-0.00238153,-0.0236814,0.00613249,-0.0612746,0,0,0,-0.000209531,-0.000620318,-0.00537446,-0.0160955,-0.0612746,0,0,0,0,0,0,0,0,0,0,0.0310453,-0.609692,0,-1.5,3.21831e-38,0,0,0,-0.000209531,-0.000620318,0.488281,0.0390625,0,0,-0.00537446,-0.0160955,1.9603e-19,0,0,0,0,0,0,0,0,0,2.5,0.00124064
6174,0.0419922,0,6.41895,-0.00154011,0.00133763,-0.00110248,-0.0237025,0.0061374,-0.0612933,0,0,0,-0.000307538,-0.000914795,-0.00651728,-0.0196098,-0.0612933,0,0,0,0,0,0,0,0,0,0,0.0320772,-0.609629,0,-1.5,3.21831e-38,0,0,0,-0.000307538,-0.000914795,0.488281,0.0390625,0,0,-0.00651728,-0.0196098,1.9603e-19,0,0,0,0,0,0,0,0,0,2.5,0.00182959
6190,0.0429688,0,1.0752,-2.4912e-05,0.000245228,-0.00198965,-0.0237049,0.00613465,-0.0613167,0,0,0,-0.000423385,-0.00126414,-0.00765133,-0.0230976,-0.0613167,0,0,0,0,0,0,0,0,0,0,0.0331321,-0.609564,0,-1.5,3.21831e-38,0,0,0,-0.000423385,-0.00126414,0.488281,0.0390625,0,0,-0.00765133,-0.0230976,1.9603e-19,0,0,0,0,0,0,0,0,0,2.5,0.00252827
6206,0.109375,0,-0.304688,-0.000199076,0.000237115,-0.000293231,-0.0236923,0.00612583,-0.0613517,0,0,0,-0.00055728,-0.001669,-0.00877546,-0.0265573,-0.0613366,0,0,0,0,0,0,0,0,0,0,0.0342061,-0.609498,0,-1.5,3.21831e-38,0,0,0,-0.00055728,-0.001669,0.488281,0.0390625,0,0,-0.00877546,-0.0265573,1.9603e-19,0,0,0,0,0,0,0,0,0,2.5,0.003338
6222,0.142578,0,0.835938,-0.000412527,-0.000444967,-0.00109577,-0.0236943,0.00612335,-0.0613622,0,0,0,-0.000709406,-0.00213001,-0.00988984,-0.0299889,-0.0613622,0,0,0,0,0,0,0,0,0,0,0.0353036,-0.60943,0,-1.5,3.21831e-38,0,0,0,-0.000709406,-0.00213001,0.488281,0.0390625,0,0,-0.00988984,-0.0299889,1.9603e-19,0,0,0,0,0,0,0,0,0,2.5,0.00426001
6238,0.175781,0,-1.11133,-0.000916663,-0.00164383,-0.00141626,-0.023699,0.00610726,-0.0613757,0,0,0,-0.000878918,-0.00264455,-0.0109945,-0.0333928,-0.0613757,0,0,0,0,0,0,0,0,0,0,0.0364156,-0.609362,0,-1.5,3.21831e-38,0,0,0,-0.000878918,-0.00264455,0.488281,0.0390625,0,0,-0.0109945,-0.0333928,1.9603e-19,0,0,0,0,0,0,0,0,0,2.5,0.00528911
6253,0.18457,0,3.00488,-0.000454272,0.000596372,-0.00121504,-0.0237083,0.00612141,-0.0613935,0,0,0,-0.00105377,-0.00317611,-0.012021,-0.0365602,-0.0613935,0,0,0,0,0,0,0,0,0,0,0.037479,-0.609296,0,-1.5,3.21831e-38,0,0,0,-0.00105377,-0.00317611,0.488281,0.0390625,0,0,-0.012021,-0.0365602,1.9603e-19,0,0,0,0,0,0,0,0,0,2.5,0.00635221
6270,0.152344,0,-4.78125,0.000551601,0.00156652,-0.0013275,-0.0237024,0.00613841,-0.0614154,0,0,0,-0.00125755,-0.00379634,-0.0131103,-0.0399137,-0.0614154,0,0,0,0,0,0,0,0,0,0,0.0386348,-0.609225,0,-1.5,3.21831e-38,0,0,0,-0.00125755,-0.00379634,0.488281,0.0390625,0,0,-0.0131103,-0.0399137,1.9603e-19,0,0,0,0,0,0,0,0,0,2.5,0.00759268
6282,0.0859375,0,6.34961,0.000687731,0.000424646,-0.00232066,-0.0236989,0.00614148,-0.0614417,0,0,0,-0.00143496,-0.00433665,-0.0139902,-0.0426164,-0.0614417,0,0,0,0,0,0,0,0,0,0,0.0395903,-0.609166,0,-1.5,3.21831e-38,0,0,0,-0.00143496,-0.00433665,0.488281,0.0390625,0,0,-0.0139902,-0.0426164,1.9603e-19,0,0,0,0,0,0,0,0,0,2.5,0.0086733
6355,0.172852,0,1.05371,0.000737787,0.000703707,-0.00127658,-0.0237277,0.0061628,-0.0615131,0,0,0,-0.0027788,-0.00843817,-0.0188955,-0.0576773,-0.0615131,0,0,0,0,0,0,0,0,0,0,0.0454264,-0.608805,0,-1.5,3.21831e-38,0,0,0,-0.0027788,-0.00843817,0.488281,0.0390625,0,0,-0.0188955,-0.0576773,1.9603e-19,0,0,0,0,0,0,0,0,0,2.5,0.0168763
6372,0.179688,0,-0.308594,0.000282836,-0.000229555,-0.00110561,-0.023724,0.00616708,-0.0615487,-4.84999,0.128425,-0.294718,-0.0031126,-0.0094572,-0.020001,-0.0610643,-0.0615131,-0.849987,0.128425,263,80,263,80,359,88,264,170,0.0467801,-0.608722,0,-1.5,3.21831e-38,0,0,0,-0.0031126,-0.0094572,0.488281,0.0390625,0,0,-0.020001,-0.0610643,9212,0,0,0,0,6364,0,0,0,0,2.5,0.0189144
6385,0.179688,0,0.865234,-0.00134835,-0.000202671,-0.00107479,-0.0237494,0.00617255,-0.0615579,-4.84999,0.128425,-0.294718,-0.00337939,-0.0102718,-0.0208402,-0.0636327,-0.0615487,-0.849987,0.128425,263,80,263,80,359,88,264,170,0.047843,-0.608656,0,-1.5,3.21831e-38,0,0,0,-0.00337939,-0.0102718,0.488281,0.0390625,0,0,-0.0208402,-0.0636327,9212,0,0,0,0,6364,0,0,0,0,2.5,0.0205436
6401,0.179688,0,-1.09668,0.00125421,0.000338478,-0.00029526,-0.023734,0.00617309,-0.0615686,-4.84999,0.128425,-0.294718,-0.00372363,-0.011323,-0.0218666,-0.0667744,-0.0615579,-0.849987,0.128425,263,80,263,80,359,88,264,170,0.0491555,-0.608575,0,-1.5,3.21831e-38,0,0,0,-0.00372363,-0.011323,0.488281,0.0390625,0,0,-0.0218666,-0.0667744,9212,0,0,0,0,6364,0,0,0,0,2.5,0.0226459
6417,0.179688,0,3.01758,0.000521157,5.45456e-05,-0.00133258,-0.0237305,0.00617143,-0.0615787,-4.84999,0.128425,-0.294718,-0.00408421,-0.0124241,-0.0228854,-0.0698906,-0.0615787,-0.849987,0.128425,263,80,263,80,359,88,264,170,0.0504916,-0.608492,0,-1.5,3.21831e-38,0,0,0,-0.00408421,-0.0124241,0.488281,0.0390625,0,0,-0.0228854,-0.0698906,9212,0,0,0,0,6364,0,0,0,0,2.5,0.0248482
6433,0.179688,0,-4.82227,-0.00118024,0.000128346,-0.00172002,-0.0237416,0.00616459,-0.0616004,-4.83621,0.125137,-0.29832,-0.004461,-0.0135749,-0.0238956,-0.0729818,-0.0616004,-0.836214,0.125137,263,80,263,80,360,88,264,170,0.0518467,-0.608408,0,-1.5,3.21831e-38,0,0,0,-0.004461,-0.0135749,0.488281,0.0390625,0,0,-0.0238956,-0.0729818,9212,0,0,0,0,6425,0,0,0,0,2.5,0.0271498
6450,0.179688,0,6.3584,0.000101733,-0.000139277,-0.00171286,-0.0237517,0.00616387,-0.0616259,-4.83621,0.125137,-0.29832,-0.00485386,-0.0147749,-0.024897,-0.0760503,-0.0616259,-0.836214,0.125137,263,80,263,80,360,88,264,170,0.0532222,-0.608322,0,-1.5,3.21831e-38,0,0,0,-0.00485386,-0.0147749,0.488281,0.0390625,0,0,-0.024897,-0.0760503,9212,0,0,0,0,6425,0,0,0,0,2.5,0.0295497
6466,0.179688,0,6.3584,0.000101733,-0.000139277,-0.00171286,-0.0237517,0.00616387,-0.0616259,-4.83623,0.125148,-0.298361,-0.00528874,-0.0161033,-0.0259524,-0.0792848,-0.0616259,-0.83623,0.125148,263,80,263,80,360,88,264,170,0.0546923,-0.608232,0,-1.5,3.21831e-38,0,0,0,-0.00528874,-0.0161033,0.488281,0.0390625,0,0,-0.0259524,-0.0792848,9212,0,0,0,0,6457,0,0,0,0,2.5,0.0322067
6488,0.0830078,0,-2.43652,-0.00161052,-0.000190208,-0.00132178,-0.0237604,0.00616746,-0.0616746,-4.83623,0.125148,-0.298361,-0.00588048,-0.0179113,-0.0273066,-0.083434,-0.0616746,-0.83623,0.125148,263,80,263,80,360,88,264,170,0.056651,-0.608109,0,-1.5,3.21831e-38,0,0,0,-0.00588048,-0.0179113,0.488281,0.0390625,0,0,-0.0273066,-0.083434,9212,0,0,0,0,6457,0,0,0,0,2.5,0.0358226
6503,0.0830078,0,-2.43652,-0.00161052,-0.000190208,-0.00132178,-0.0237604,0.00616746,-0.0616746,-4.92385,0.124301,-0.27736,-0.00629892,-0.0191899,-0.0282208,-0.0862348,-0.0616746,-0.923849,0.124301,263,80,263,80,359,88,268,170,0.057988,-0.608027,0,-1.5,3.21831e-38,0,0,0,-0.00629892,-0.0191899,0.488281,0.0390625,0,0,-0.0282208,-0.0862348,9120,0,0,0,0,6495,0,0,0,0,2.5,0.0383799
6520,0.0693359,0,1.04395,-0.00126776,-0.000151108,-0.0017428,-0.0237764,0.006167,-0.0617101,-4.92385,0.124301,-0.27736,-0.00679037,-0.0206917,-0.0292492,-0.0893858,-0.0617101,-0.923849,0.124301,263,80,263,80,359,88,268,170,0.0595391,-0.60793,0,-1.5,3.21831e-38,0,0,0,-0.00679037,-0.0206917,0.488281,0.0390625,0,0,-0.0292492,-0.0893858,9120,0,0,0,0,6495,0,0,0,0,2.5,0.0413835
6535,0.135742,0,-1.38281,-2.43998e-05,0.00081129,-0.00166169,-0.023787,0.00617297,-0.0617357,-4.92385,0.124301,-0.27736,-0.00723782,-0.0220592,-0.0301495,-0.0921451,-0.0617357,-0.923849,0.124301,263,80,263,80,359,88,268,170,0.0609212,-0.607843,0,-1.5,3.21831e-38,0,0,0,-0.00723782,-0.0220592,0.488281,0.0390625,0,0,-0.0301495,-0.0921451,9120,0,0,0,0,6495,0,0,0,0,2.5,0.0441185
6561,0.174805,0,-0.299805,0.000237086,-8.14942e-05,-0.00124416,-0.0237858,0.00616937,-0.0617583,-4.89316,0.114736,-0.282138,-0.00804822,-0.0245362,-0.0316964,-0.0968849,-0.0617583,-0.893157,0.114736,267,80,267,80,360,88,264,170,-0.00129077,-0.61169,0,-1.5,3.21831e-38,0,0,0,-0.897916,0.113484,0.488281,0.0390625,0,0,-0.432656,-0.113869,9118,-0.885457,0.138207,-0.40096,-0.0169843,6552,0,0,0,0,2.5,-0.226968
6574,0.178711,0,-1.10742,0.000201048,0.00066142,-0.00152016,-0.0237877,0.00617434,-0.0617835,-4.89316,0.114736,-0.282138,-0.00846634,-0.0258143,-0.0324614,-0.0992286,-0.0617835,-0.893157,0.114736,267,80,267,80,360,88,264,170,5.30811e-05,-0.611607,0,-1.5,3.21831e-38,0,0,0,-0.903546,0.111985,0.488281,0.0390625,0,0,-0.433421,-0.116213,9118,-0.885457,0.138207,-0.40096,-0.0169843,6552,0,0,0,0,2.5,-0.22397
6590,0.112305,0,3.02344,-0.000512184,-0.000284203,-0.00280799,-0.0237919,0.00617207,-0.0618167,-4.89316,0.114736,-0.282138,-0.00899557,-0.0274321,-0.0333971,-0.102094,-0.0618167,-0.893157,0.114736,267,80,267,80,360,88,264,170,0.00172561,-0.611505,0,-1.5,3.21831e-38,0,0,0,-0.910491,0.110096,0.488281,0.0390625,0,0,-0.434357,-0.119079,9118,-0.885457,0.138207,-0.40096,-0.0169843,6552,0,0,0,0,2.5,-0.220191
6604,0.0458984,0,-4.80762,-0.00102133,-0.000333355,-0.00207222,-0.0238018,0.00616614,-0.061841,-4.89316,0.114736,-0.282138,-0.00943583,-0.028778,-0.0341511,-0.104406,-0.061841,-0.893157,0.114736,267,80,267,80,360,88,264,170,0.00309481,-0.61142,0,-1.5,3.21831e-38,0,0,0,-0.916144,0.108529,0.488281,0.0390625,0,0,-0.435111,-0.12139,9118,-0.885457,0.138207,-0.40096,-0.0169843,6552,0,0,0,0,2.5,-0.217058
6623,0.0820312,0,5.03809,-0.000477313,0.000334134,-0.001505,-0.0238059,0.00616541,-0.0618805,-4.85086,0.122648,-0.294205,-0.0101338,-0.0309119,-0.0353016,-0.107935,-0.0618549,-0.850858,0.122648,264,80,264,80,360,88,264,170,-0.0253122,-0.61318,0,-1.5,3.21831e-38,0,0,0,-0.851253,0.121848,0.488281,0.0390625,0,0,-0.0789395,-0.0341577,9118,-0.840901,0.152391,-0.043638,0.0737776,6620,0,0,0,0,2.5,-0.243695
6639,0.155273,0,-6.62695,-0.00107471,0.0012217,-0.00117098,-0.0238234,0.00617549,-0.0618944,-4.85086,0.122648,-0.294205,-0.0107082,-0.0326683,-0.0362137,-0.110734,-0.0618944,-0.850858,0.122648,264,80,264,80,360,88,264,170,-0.0243092,-0.61312,0,-1.5,3.21831e-38,0,0,0,-0.852525,0.121272,0.488281,0.0390625,0,0,-0.0798517,-0.0369561,9118,-0.840901,0.152391,-0.043638,0.0737776,6620,0,0,0,0,2.5,-0.242544
6658,0.155273,0,-2.46191,0.000414211,-0.000560799,-0.00231458,-0.0238179,0.00617268,-0.0619189,-7.2722,-5.90693,-0.236876,-0.0114094,-0.0348124,-0.0372896,-0.114031,-0.0619189,-3.2722,-5.90693,627,147,627,147,679,130,632,208,-0.0231054,-0.613047,0,-1.5,3.21831e-38,0,0,0,-0.854055,0.12053,0.488281,0.0390625,0,0,-0.0809276,-0.0402533,4056,-0.842253,0.154678,-0.0436379,0.0737781,6651,0,0,0,0,2.5,-0.241059
6674,0.155273,0,6.42383,0.000274962,0.000384473,-0.000509983,-0.0238148,0.00617207,-0.0619257,-7.2722,-5.90693,-0.236876,-0.0120151,-0.036665,-0.0381872,-0.116783,-0.0619257,-3.2722,-5.90693,627,147,627,147,679,130,632,208,-0.0220805,-0.612983,0,-1.5,3.21831e-38,0,0,0,-0.855359,0.119857,0.488281,0.0390625,0,0,-0.0818252,-0.0430045,4056,-0.842253,0.154678,-0.0436379,0.0737781,6651,0,0,0,0,2.5,-0.239715
6694,0.155273,0,1.08789,-0.000130429,-0.000936239,-0.00169438,-0.0238107,0.00616448,-0.0619447,-7.16303,-5.81864,-0.266742,-0.0127933,-0.0390449,-0.039299,-0.120192,-0.0619447,-3.16303,-5.81864,627,147,627,147,679,130,632,210,-0.0207701,-0.612903,0,-1.5,3.21831e-38,0,0,0,-0.85701,0.118953,0.488281,0.0390625,0,0,-0.082937,-0.0464139,4160,-0.843737,0.157186,-0.043638,0.0737776,6685,0,0,0,0,2.5,-0.237906
6709,0.155273,0,-0.307617,0.000671047,-0.000670545,-0.00161929,-0.0238186,0.00615647,-0.0619775,-7.16303,-5.81864,-0.266742,-0.0133908,-0.0408723,-0.0401243,-0.122725,-0.0619775,-3.16303,-5.81864,627,147,627,147,679,130,632,210,-0.0197639,-0.612842,0,-1.5,3.21831e-38,0,0,0,-0.858262,0.118232,0.488281,0.0390625,0,0,-0.0837622,-0.0489473,4160,-0.843737,0.157186,-0.043638,0.0737776,6685,0,0,0,0,2.5,-0.236465
6726,0.155273,0,0.87793,-0.000363671,-0.000764098,-0.00114517,-0.0238217,0.00614881,-0.0620021,-7.16303,-5.81864,-0.266742,-0.014042,-0.0428641,-0.0409967,-0.125408,-0.0620021,-3.16303,-5.81864,627,147,627,147,679,130,632,210,-0.0186788,-0.612776,0,-1.5,3.21831e-38,0,0,0,-0.859612,0.117421,0.488281,0.0390625,0,0,-0.0846347,-0.0516302,4160,-0.843737,0.157186,-0.043638,0.0737776,6685,0,0,0,0,2.5,-0.234842
6741,0.155273,0,-1.1377,-0.000750629,0.000206848,-0.00145089,-0.0238371,0.00615002,-0.0620187,-7.16303,-5.81864,-0.266742,-0.014707,-0.0448986,-0.0418616,-0.128071,-0.0620187,-3.16303,-5.81864,627,147,627,147,679,130,632,210,-0.0175808,-0.612709,0,-1.5,3.21831e-38,0,0,0,-0.860975,0.116567,0.488281,0.0390625,0,0,-0.0854996,-0.0542929,4160,-0.843737,0.157186,-0.043638,0.0737776,6685,0,0,0,0,2.5,-0.233134
6761,0.155273,0,-4.82422,-0.000802154,-0.000296815,-0.00177313,-0.0238635,0.0061561,-0.0620732,-7.22156,-5.85648,-0.248172,-0.015558,-0.0475024,-0.0429343,-0.131372,-0.0620436,-3.22156,-5.85648,627,147,627,147,681,130,628,208,-0.0175605,-0.612709,0,-1.5,3.21831e-38,0,0,0,-0.863103,0.116535,0.488281,0.0390625,0,0,-0.0907788,-0.0542665,4212,-0.846971,0.163112,-0.0478446,0.0771057,6752,0,0,0,0,2.5,-0.23307
6777,0.155273,0,6.37305,7.58496e-05,0.00046063,-0.00105411,-0.0238567,0.00615903,-0.0620862,-7.22156,-5.85648,-0.248172,-0.0162539,-0.0496319,-0.0437855,-0.133993,-0.0620862,-3.22156,-5.85648,627,147,627,147,681,130,628,208,-0.016441,-0.612641,0,-1.5,3.21831e-38,0,0,0,-0.864564,0.115639,0.488281,0.0390625,0,0,-0.09163,-0.056887,4212,-0.846971,0.163112,-0.0478446,0.0771057,6752,0,0,0,0,2.5,-0.231278
6797,0.155273,0,6.37305,7.58496e-05,0.00046063,-0.00105411,-0.0238567,0.00615903,-0.0620862,-4.83625,0.125311,-0.298416,-0.0171444,-0.0523573,-0.0448412,-0.13724,-0.0620862,-0.836247,0.125311,263,80,263,80,360,88,264,170,-0.0150402,-0.612554,0,-1.5,3.21831e-38,0,0,0,-0.842291,0.114456,0.488281,0.0390625,0,0,-0.0144743,-0.0601345,9212,-0.825754,0.165271,0.0303669,0.0771057,6785,0,0,0,0,2.5,-0.228911
6813,0.155273,0,-2.4502,0.000197595,-0.000810521,-0.000854041,-0.023856,0.00615694,-0.0621354,-4.83625,0.125311,-0.298416,-0.0178707,-0.0545802,-0.0456778,-0.139813,-0.0621178,-0.836247,0.125311,263,80,263,80,360,88,264,170,-0.0138907,-0.612484,0,-1.5,3.21831e-38,0,0,0,-0.842532,0.113467,0.5,0.0390625,0,0,-0.0153109,-0.0627074,9212,-0.825754,0.165271,0.0303669,0.0771057,6785,0,0,0,0,2.5,-0.226933
6834,0.155273,0,6.375,-0.000458693,0.000445391,-0.0014494,-0.0238584,0.00615562,-0.0621563,-4.88155,0.11475,-0.282826,-0.0188456,-0.0575647,-0.0467666,-0.143161,-0.0621563,-0.881548,0.11475,263,80,263,80,360,87,268,170,-0.0139476,-0.612489,0,-1.5,3.21831e-38,0,0,0,-0.881813,0.113356,0.5,0.0390625,0,0,-0.127409,-0.0621899,9212,-0.861274,0.16922,-0.0806419,0.0809715,6822,0,0,0,0,2.5,-0.226711
6850,0.155273,0,1.02734,0.000120082,-0.00041475,-0.00150098,-0.023862,0.00614703,-0.062171,-4.88155,0.11475,-0.282826,-0.0196023,-0.059881,-0.0475868,-0.145687,-0.062171,-0.881548,0.11475,263,80,263,80,360,87,268,170,-0.0128016,-0.612418,0,-1.5,3.21831e-38,0,0,0,-0.88386,0.112335,0.5,0.0390625,0,0,-0.128229,-0.0647154,9212,-0.861274,0.16922,-0.0806419,0.0809715,6822,0,0,0,0,2.5,-0.22467
6867,0.155273,0,1.02734,0.000120082,-0.00041475,-0.00150098,-0.023862,0.00614703,-0.062171,-4.88155,0.11475,-0.282826,-0.0204208,-0.062387,-0.0484503,-0.148349,-0.062171,-0.881548,0.11475,263,80,263,80,360,87,268,170,-0.0115737,-0.612342,0,-1.5,3.21831e-38,0,0,0,-0.88605,0.111205,0.5,0.0390625,0,0,-0.129092,-0.0673775,9212,-0.861274,0.16922,-0.0806419,0.0809715,6822,0,0,0,0,2.5,-0.222411
6882,0.155273,0,-0.314453,-0.000397638,0.00155529,-0.000821588,-0.0238586,0.00616572,-0.0622119,-4.88155,0.11475,-0.282826,-0.0211546,-0.0646342,-0.0492073,-0.150678,-0.0622119,-0.881548,0.11475,263,80,263,80,360,87,268,170,-0.0104593,-0.612274,0,-1.5,3.21831e-38,0,0,0,-0.887993,0.110173,0.5,0.0390625,0,0,-0.129849,-0.0697067,9212,-0.861274,0.16922,-0.0806419,0.0809715,6822,0,0,0,0,2.5,-0.220345
6898,0.155273,0,-1.12598,-0.000676982,0.000351407,-0.00108406,-0.0238726,0.00614567,-0.0622386,-4.88155,0.11475,-0.282826,-0.0219,-0.0669167,-0.0499602,-0.15299,-0.0622119,-0.881548,0.11475,263,80,263,80,360,87,268,170,-0.00934953,-0.612205,0,-1.5,3.21831e-38,0,0,0,-0.889948,0.109105,0.5,0.0390625,0,0,-0.130602,-0.0720183,9212,-0.861274,0.16922,-0.0806419,0.0809715,6822,0,0,0,0,2.5,-0.218209
6914,0.155273,0,3.00293,0.00111125,0.000718111,-0.00106924,-0.0238588,0.00615564,-0.0622455,-4.88155,0.11475,-0.282826,-0.0227586,-0.0695462,-0.050804,-0.155591,-0.0622455,-0.881548,0.11475,263,80,263,80,360,87,268,170,-0.00806043,-0.612125,0,-1.5,3.21831e-38,0,0,0,-0.892178,0.107852,0.5,0.0390625,0,0,-0.131446,-0.07462,9212,-0.861274,0.16922,-0.0806419,0.0809715,6822,0,0,0,0,2.5,-0.215704
6934,0.155273,0,3.00293,0.00111125,0.000718111,-0.00106924,-0.0238588,0.00615564,-0.0622455,-7.28566,-5.90903,-0.233994,-0.0237881,-0.0726992,-0.0517896,-0.158623,-0.0622455,-3.28566,-5.90903,627,147,627,147,677,130,632,208,-0.00651155,-0.612029,0,-1.5,3.21831e-38,0,0,0,-0.89482,0.10621,0.5,0.0390625,0,0,-0.132432,-0.0775432,4056,-0.869419,0.177287,-0.0806425,0.0810799,6922,0,0,0,0,2.5,-0.212419
6950,0.155273,0,6.37793,7.72975e-05,-0.000732238,-0.00132011,-0.023874,0.00614482,-0.0623081,-7.28566,-5.90903,-0.233994,-0.0246247,-0.0752617,-0.05257,-0.161026,-0.0623081,-3.28566,-5.90903,627,147,627,147,677,130,632,208,-0.00525325,-0.611952,0,-1.5,3.21831e-38,0,0,0,-0.896947,0.104944,0.5,0.0390625,0,0,-0.133212,-0.079946,4056,-0.869419,0.177287,-0.0806425,0.0810799,6922,0,0,0,0,2.5,-0.209889
6966,0.155273,0,-6.65234,-0.000992869,0.000423559,-0.00132992,-0.0238875,0.00614467,-0.06234,-7.28566,-5.90903,-0.233994,-0.0254737,-0.0778624,-0.0533433,-0.163411,-0.0623081,-3.28566,-5.90903,627,147,627,147,677,130,632,208,-0.00400764,-0.611875,0,-1.5,3.21831e-38,0,0,0,-0.899086,0.103641,0.5,0.0390625,0,0,-0.133986,-0.0823311,4056,-0.869419,0.177287,-0.0806425,0.0810799,6922,0,0,0,0,2.5,-0.207282
6982,0.155273,0,-2.43848,0.000346569,0.000621539,-0.00123171,-0.0238883,0.00613812,-0.0623537,-7.28566,-5.90903,-0.233994,-0.0263353,-0.0805019,-0.0541108,-0.16578,-0.06234,-3.28566,-5.90903,627,147,627,147,677,130,632,208,-0.00273288,-0.611796,0,-1.5,3.21831e-38,0,0,0,-0.901238,0.102299,0.5,0.0390625,0,0,-0.134753,-0.0846997,4056,-0.869419,0.177287,-0.0806425,0.0810799,6922,0,0,0,0,2.5,-0.204597
7002,0.155273,0,6.44434,0.00189982,-0.00124643,-0.00194591,-0.0238738,0.00611623,-0.0623854,-7.40944,-6.00939,-0.21901,-0.0274304,-0.0838574,-0.0550594,-0.168715,-0.0623854,-3.40944,-6.00939,627,147,627,147,677,132,632,208,-0.00113894,-0.611698,0,-1.5,3.21831e-38,0,0,0,-0.903009,0.100666,0.5,0.0390625,0,0,-0.106329,-0.0877431,3952,-0.874553,0.182904,-0.0512697,0.0809715,6990,0,0,0,0,2.5,-0.201332
7018,0.155273,0,1.07227,0.00010313,-0.000636075,-0.000991728,-0.0238725,0.00612119,-0.0624012,-7.40944,-6.00939,-0.21901,-0.028319,-0.0865805,-0.0558091,-0.171038,-0.0624012,-3.40944,-6.00939,627,147,627,147,677,132,632,208,0.000160202,-0.611617,0,-1.5,3.21831e-38,0,0,0,-0.904718,0.0992385,0.5,0.0390625,0,0,-0.107079,-0.0900669,3952,-0.874553,0.182904,-0.0512697,0.0809715,6990,0,0,0,0,2.5,-0.198477
7038,0.155273,0,-0.293945,0.00076266,-0.000502138,-0.00132206,-0.0238685,0.00609539,-0.0624482,-4.85003,0.12866,-0.294861,-0.0294482,-0.0900417,-0.0567387,-0.17392,-0.0624482,-0.850035,0.12866,263,80,263,80,359,88,264,170,-0.0213718,-0.612965,0,-1.5,3.21831e-38,0,0,0,-0.851622,0.119142,0.5,0.0390625,0,0,-0.0164138,-0.0434948,9212,-0.82298,0.206575,0.0403249,0.130425,7026,0,0,0,0,2.5,-0.238283
7057,0.155273,0,0.871094,-0.000451947,0.000584249,-0.000390931,-0.0238695,0.00609566,-0.0624522,-4.85003,0.12866,-0.294861,-0.0305367,-0.0933788,-0.0576085,-0.176628,-0.0624522,-0.850035,0.12866,263,80,263,80,359,88,264,170,-0.0266145,-0.613293,0,-1.5,3.21831e-38,0,0,0,-0.852354,0.126921,0.5,0.0390625,0,0,-0.0362745,-0.0380352,9212,-0.821988,0.219191,0.0213339,0.138593,7051,0,0,0,0,2.5,-0.253843
7072,0.155273,0,0.871094,-0.000451947,0.000584249,-0.000390931,-0.0238695,0.00609566,-0.0624522,-4.85003,0.12866,-0.294861,-0.0314075,-0.0960488,-0.0582892,-0.178747,-0.0624522,-0.850035,0.12866,263,80,263,80,359,88,264,170,-0.0257907,-0.613241,0,-1.5,3.21831e-38,0,0,0,-0.852905,0.12633,0.5,0.0390625,0,0,-0.0369553,-0.0401547,9212,-0.821988,0.219191,0.0213339,0.138593,7051,0,0,0,0,2.5,-0.252661
7093,0.155273,0,3.01855,7.9598e-06,-0.000229932,-0.00181466,-0.0238896,0.00608792,-0.0625005,-4.85008,0.128654,-0.294957,-0.0326441,-0.0998416,-0.0592335,-0.181691,-0.0625005,-0.850075,0.128654,263,80,263,80,359,88,264,170,-0.0242748,-0.613149,0,-1.5,3.21831e-38,0,0,0,-0.852349,0.124991,0.5,0.0390625,0,0,-0.0178745,-0.0434666,9212,-0.820036,0.223727,0.041359,0.138224,7087,0,0,0,0,2.5,-0.249982
7109,0.155273,0,6.38672,0.000594166,-0.000113921,-0.00154911,-0.023887,0.0060683,-0.0625307,-4.85008,0.128654,-0.294957,-0.0335993,-0.102772,-0.059945,-0.183914,-0.0625307,-0.850075,0.128654,263,80,263,80,359,88,264,170,-0.0233481,-0.613093,0,-1.5,3.21831e-38,0,0,0,-0.852642,0.124272,0.5,0.0390625,0,0,-0.0185861,-0.04569,9212,-0.820036,0.223727,0.041359,0.138224,7087,0,0,0,0,2.5,-0.248544
7130,0.155273,0,5.6875,0.000805256,0.00095681,-0.0010552,-0.0238849,0.00607077,-0.0625349,-4.86866,0.134971,-0.293124,-0.0348705,-0.106673,-0.0608677,-0.186805,-0.0625349,-0.868657,0.134971,263,80,263,80,359,88,264,170,-0.02396,-0.613131,0,-1.5,3.21831e-38,0,0,0,-0.848365,0.125243,0.5,0.0390625,0,0,0.00209993,-0.045173,9120,-0.814313,0.230075,0.0629676,0.141632,7119,0,0,0,0,2.5,-0.250487
7146,0.155273,0,-2.4541,0.00216794,-0.000127838,-0.000784664,-0.0238769,0.00608099,-0.0625611,-4.86866,0.134971,-0.293124,-0.0358515,-0.109684,-0.0615653,-0.188987,-0.0625423,-0.868657,0.134971,263,80,263,80,359,88,264,170,-0.0230405,-0.613074,0,-1.5,3.21831e-38,0,0,0,-0.848338,0.124498,0.5,0.0390625,0,0,0.00140227,-0.047355,9120,-0.814313,0.230075,0.0629676,0.141632,7119,0,0,0,0,2.5,-0.248997
7166,0.155273,0,-2.4541,0.00216794,-0.000127838,-0.000784664,-0.0238769,0.00608099,-0.0625611,-4.85012,0.128675,-0.295077,-0.0370949,-0.113502,-0.0624317,-0.191692,-0.0625611,-0.850124,0.128675,263,80,263,80,359,88,264,170,-0.0247418,-0.613182,0,-1.5,3.21831e-38,0,0,0,-0.853541,0.126282,0.5,0.0390625,0,0,-0.0358466,-0.0440715,9212,-0.816978,0.236832,0.0265851,0.147621,7154,0,0,0,0,2.5,-0.252565
7183,0.155273,0,1.06836,-0.000565725,0.000234644,-0.00146003,-0.0238755,0.00609052,-0.0626052,-4.85012,0.128675,-0.295077,-0.0381643,-0.116785,-0.0631609,-0.193967,-0.0626052,-0.850124,0.128675,263,80,263,80,359,88,264,170,-0.0237685,-0.613123,0,-1.5,3.21831e-38,0,0,0,-0.854159,0.125508,0.5,0.0390625,0,0,-0.0365757,-0.0463463,9212,-0.816978,0.236832,0.0265851,0.147621,7154,0,0,0,0,2.5,-0.251016
7203,0.155273,0,1.06836,-0.000565725,0.000234644,-0.00146003,-0.0238755,0.00609052,-0.0626052,-4.8501,0.128664,-0.295028,-0.0394391,-0.120701,-0.0640124,-0.19662,-0.0626052,-0.850104,0.128664,263,80,263,80,359,88,264,170,-0.0227823,-0.613061,0,-1.5,3.21831e-38,0,0,0,-0.852669,0.123732,0.5,0.0390625,0,0,-0.0339593,-0.046747,9212,-0.81383,0.241436,0.0300532,0.149873,7190,0,0,0,0,2.5,-0.247465
7223,0.155273,0,0.855469,-0.000109881,0.00125661,-0.00144161,-0.0238723,0.00610514,-0.0626662,-4.85009,0.128662,-0.294983,-0.0407299,-0.124666,-0.064856,-0.199244,-0.0626662,-0.850085,0.128662,263,80,263,80,359,88,264,170,-0.0250008,-0.613203,0,-1.5,3.21831e-38,0,0,0,-0.857212,0.124926,0.5,0.0390625,0,0,-0.0366883,-0.0401347,9212,-0.816651,0.248637,0.0281677,0.15911,7219,0,0,0,0,2.5,-0.249851
7240,0.155273,0,-1.11621,-0.000145156,0.000811033,-0.000857908,-0.0238734,0.00610774,-0.0626786,-4.85009,0.128662,-0.294983,-0.0418403,-0.128078,-0.0655685,-0.201454,-0.0626786,-0.850085,0.128662,263,80,263,80,359,88,264,170,-0.0240914,-0.613147,0,-1.5,3.21831e-38,0,0,0,-0.857843,0.124219,0.5,0.0390625,0,0,-0.0374008,-0.0423446,9212,-0.816651,0.248637,0.0281677,0.15911,7219,0,0,0,0,2.5,-0.248438
7260,0.155273,0,3.0127,-0.00100436,0.000584163,-0.0025388,-0.0238861,0.00611223,-0.0627048,-7.25766,-5.8683,-0.24088,-0.0431621,-0.132139,-0.0664,-0.204032,-0.0627048,-3.25766,-5.8683,627,147,627,147,677,130,628,208,-0.0221149,-0.613024,0,-1.5,3.21831e-38,0,0,0,-0.858749,0.124061,0.5,0.0390625,0,0,-0.0474062,-0.0499038,4056,-0.815796,0.254505,0.0189938,0.154128,7251,0,0,0,0,2.5,-0.248122
7276,0.155273,0,6.33887,-0.00136823,0.000320638,-0.00146128,-0.0238949,0.00611624,-0.0627495,-7.25766,-5.8683,-0.24088,-0.0442313,-0.135425,-0.0670597,-0.206076,-0.0627495,-3.25766,-5.8683,627,147,627,147,677,130,628,208,-0.0211764,-0.612967,0,-1.5,3.21831e-38,0,0,0,-0.859514,0.123241,0.5,0.0390625,0,0,-0.0480659,-0.0519479,4056,-0.815796,0.254505,0.0189938,0.154128,7251,0,0,0,0,2.5,-0.246483
7297,0.155273,0,-6.62793,-0.000646218,-4.38917e-05,-0.00135515,-0.0239002,0.00612939,-0.0627796,-7.25598,-5.89398,-0.257054,-0.0455829,-0.139579,-0.0678789,-0.20861,-0.0627656,-3.25598,-5.89398,627,147,627,147,677,132,632,210,-0.0201223,-0.612902,0,-1.5,3.21831e-38,0,0,0,-0.842729,0.121515,0.5,0.0390625,0,0,0.039594,-0.0526922,4212,-0.798435,0.259223,0.107473,0.155917,7286,0,0,0,0,2.5,-0.243031
7313,0.155273,0,-2.43262,-8.3102e-07,0.000131194,-0.00241444,-0.0239012,0.00612224,-0.0628072,-7.25598,-5.89398,-0.257054,-0.0467445,-0.143148,-0.0685704,-0.210743,-0.0627796,-3.25598,-5.89398,627,147,627,147,677,132,632,210,-0.0191251,-0.61284,0,-1.5,3.21831e-38,0,0,0,-0.842063,0.120596,0.5,0.0390625,0,0,0.0389026,-0.0548259,4212,-0.798435,0.259223,0.107473,0.155917,7286,0,0,0,0,2.5,-0.241192
7335,0.155273,0,-2.43262,-8.3102e-07,0.000131194,-0.00241444,-0.0239012,0.00612224,-0.0628072,-7.25593,-5.89394,-0.25685,-0.0481971,-0.147613,-0.0694159,-0.213358,-0.0628072,-3.25593,-5.89394,627,147,627,147,677,132,632,210,-0.408085,-0.637303,0,-1.5,3.21831e-38,0,0,0,-0.861796,0.229567,0.5,0.0390625,0,0,-0.0332803,1.50132,4212,-0.814358,0.341172,0.0361356,1.71468,7322,0,0,0,0,2.5,-0.459133
7351,0.155273,0,1.08008,-0.000190151,0.000660782,-0.00110542,-0.0239244,0.0061365,-0.0628446,-7.25593,-5.89394,-0.25685,-0.0493849,-0.151264,-0.0700943,-0.215454,-0.0628446,-3.25593,-5.89394,627,147,627,147,677,132,632,210,-0.408068,-0.637318,0,-1.5,3.21831e-38,0,0,0,-0.862369,0.255065,0.5,0.0390625,0,0,-0.0339587,1.49922,4212,-0.814358,0.341172,0.0361356,1.71468,7322,0,0,0,0,2.5,-0.51013
7372,0.155273,0,-0.325195,-0.000115337,-0.000238561,-0.00119253,-0.0239172,0.0061287,-0.0628775,-4.8264,0.125291,-0.298423,-0.0508689,-0.155826,-0.0709268,-0.218023,-0.0628775,-0.826404,0.125291,263,80,263,80,360,87,264,170,-0.0135806,-0.612495,0,-1.5,3.21831e-38,0,0,0,-0.914287,0.115484,0.5,0.0390625,0,0,0.325237,-0.0666521,9212,-0.871737,0.268131,0.396164,0.151371,7359,0,0,0,0,2.5,-0.230969
7393,0.155273,0,0.807617,-0.000302757,0.000195509,-0.00122752,-0.0239216,0.00612159,-0.0628928,-7.16325,-5.80907,-0.254774,-0.0523695,-0.160438,-0.0717482,-0.220564,-0.0628928,-3.16325,-5.80907,627,147,627,147,681,129,628,208,-0.0128729,-0.612451,0,-1.5,3.21831e-38,0,0,0,-0.924376,0.114648,0.5,0.0390625,0,0,0.355792,-0.0677894,4266,-0.87671,0.273406,0.42754,0.152774,7384,0,0,0,0,2.5,-0.229297
7409,0.155273,0,3.04004,-0.000118082,7.25264e-06,-0.00106585,-0.0239313,0.00612025,-0.0629179,-7.16325,-5.80907,-0.254774,-0.0535237,-0.163987,-0.0723675,-0.222481,-0.0629046,-3.16325,-5.80907,627,147,627,147,681,129,628,208,-0.0118384,-0.612387,0,-1.5,3.21831e-38,0,0,0,-0.91869,0.113544,0.5,0.0390625,0,0,0.355173,-0.0697065,4266,-0.87671,0.273406,0.42754,0.152774,7384,0,0,0,0,2.5,-0.227088
7426,0.155273,0,-4.80273,0.000322951,0.00111747,-0.000989935,-0.023943,0.00613234,-0.0629256,-7.16325,-5.80907,-0.254774,-0.0547612,-0.167792,-0.0730204,-0.224502,-0.0629256,-3.16325,-5.80907,627,147,627,147,681,129,628,208,-0.0107224,-0.612317,0,-1.5,3.21831e-38,0,0,0,-0.912659,0.112337,0.5,0.0390625,0,0,0.35452,-0.071728,4266,-0.87671,0.273406,0.42754,0.152774,7384,0,0,0,0,2.5,-0.224674
7441,0.155273,0,6.37598,0.00091714,0.000441022,-0.000465174,-0.0239353,0.00613579,-0.0629383,-7.16325,-5.80907,-0.254774,-0.0558619,-0.171176,-0.0735936,-0.226273,-0.0629383,-3.16325,-5.80907,627,147,627,147,681,129,628,208,-0.00972978,-0.612255,0,-1.5,3.21831e-38,0,0,0,-0.907347,0.111244,0.5,0.0390625,0,0,0.353947,-0.0734988,4266,-0.87671,0.273406,0.42754,0.152774,7384,0,0,0,0,2.5,-0.222488
7462,0.130859,0,5.00684,0.000297851,0.00013795,-0.000798372,-0.023935,0.00613627,-0.0629538,-4.93449,0.110117,-0.261874,-0.0574181,-0.175961,-0.0743899,-0.22873,-0.0629538,-0.934487,0.110117,265,80,265,80,360,87,268,168,-0.0116168,-0.612375,0,-1.5,3.21831e-38,0,0,0,-0.843267,0.112055,0.5,0.0390625,0,0,0.00863782,-0.0675298,9024,-0.786763,0.286242,0.0830277,0.1612,7453,0,0,0,0,2.5,-0.22411
7478,0.0644531,0,-2.44824,5.37046e-05,0.000331435,-0.00114262,-0.0239517,0.00612917,-0.0629887,-4.93449,0.110117,-0.261874,-0.0586145,-0.179639,-0.0749904,-0.230585,-0.0629693,-0.934487,0.110117,265,80,265,80,360,87,268,168,-0.0105987,-0.612311,0,-1.5,3.21831e-38,0,0,0,-0.843135,0.110955,0.5,0.0390625,0,0,0.00803735,-0.0693843,9024,-0.786763,0.286242,0.0830277,0.1612,7453,0,0,0,0,2.5,-0.221911
7494,0.03125,0,6.44336,0.000421148,0.00141584,-0.000431314,-0.0239477,0.0061425,-0.0630009,-4.93449,0.110117,-0.261874,-0.0598206,-0.183348,-0.0755861,-0.232427,-0.0630009,-0.934487,0.110117,265,80,265,80,360,87,268,168,-0.00956159,-0.612247,0,-1.5,3.21831e-38,0,0,0,-0.843013,0.109826,0.5,0.0390625,0,0,0.00744167,-0.0712263,9024,-0.786763,0.286242,0.0830277,0.1612,7453,0,0,0,0,2.5,-0.219652
7511,0.0146484,0,1.05957,0.000317386,-0.000510108,-0.00167667,-0.0239433,0.00613179,-0.0630228,-4.93449,0.110117,-0.261874,-0.0611125,-0.187321,-0.0762152,-0.234367,-0.0630228,-0.934487,0.110117,265,80,265,80,360,87,268,168,-0.00845305,-0.612178,0,-1.5,3.21831e-38,0,0,0,-0.842893,0.108594,0.5,0.0390625,0,0,0.00681255,-0.0731664,9024,-0.786763,0.286242,0.0830277,0.1612,7453,0,0,0,0,2.5,-0.217187
7532,0.0810547,0,-0.326172,-0.000906992,-0.000110258,-0.000556021,-0.0239479,0.00613275,-0.0630419,-4.91869,0.112779,-0.26635,-0.062647,-0.19204,-0.0769476,-0.236629,-0.0630228,-0.918686,0.112779,264,80,264,80,360,87,268,168,-0.00471802,-0.611942,0,-1.5,3.21831e-38,0,0,0,-0.869335,0.105185,0.5,0.0273438,0,0,-0.0185353,-0.081318,9118,-0.807857,0.294118,0.0584123,0.155311,7518,0,0,0,0,2.5,-0.210369
7548,0.114258,0,0.834961,-0.000537832,0.000815599,-0.00186668,-0.0239569,0.0061431,-0.0630619,-4.91869,0.112779,-0.26635,-0.0639619,-0.196083,-0.0775641,-0.238534,-0.0630419,-0.918686,0.112779,264,80,264,80,360,87,268,168,-0.00353422,-0.611868,0,-1.5,3.21831e-38,0,0,0,-0.869657,0.103781,0.5,0.0273438,0,0,-0.0191518,-0.0832224,9118,-0.807857,0.294118,0.0584123,0.155311,7518,0,0,0,0,2.5,-0.207562
7564,0.147461,0,-1.13184,0.000995206,8.19231e-05,-0.0010899,-0.0239492,0.00613938,-0.0630724,-4.91869,0.112779,-0.26635,-0.065209,-0.199919,-0.0781414,-0.240313,-0.0630724,-0.918686,0.112779,264,80,264,80,360,87,268,168,-0.00240321,-0.611798,0,-1.5,3.21831e-38,0,0,0,-0.86997,0.102431,0.5,0.0273438,0,0,-0.0197291,-0.0850015,9118,-0.807857,0.294118,0.0584123,0.155311,7518,0,0,0,0,2.5,-0.204862
7580,0.180664,0,2.99023,0.000118171,0.000130488,-0.000948646,-0.0239486,0.00613877,-0.0630877,-4.91869,0.112779,-0.26635,-0.0664651,-0.203782,-0.0787135,-0.242076,-0.0630877,-0.918686,0.112779,264,80,264,80,360,87,268,168,-0.00126885,-0.611726,0,-1.5,3.21831e-38,0,0,0,-0.870291,0.101053,0.5,0.0273438,0,0,-0.0203011,-0.0867651,9118,-0.807857,0.294118,0.0584123,0.155311,7518,0,0,0,0,2.5,-0.202106
7602,0.152344,0,6.37402,0.000503311,3.56699e-05,-0.00177159,-0.0239699,0.00613088,-0.0631356,-4.85091,0.122846,-0.294349,-0.0681292,-0.208899,-0.0794582,-0.244372,-0.0630877,-0.850913,0.122846,264,80,264,80,360,88,264,170,-0.00210294,-0.611779,0,-1.5,3.21831e-38,0,0,0,-0.869409,0.103771,0.5,0.0273438,0,0,-0.0369675,-0.0888591,9118,-0.802172,0.309405,0.0424906,0.155513,7588,0,0,0,0,2.5,-0.207543
7617,0.119141,0,5.01465,9.36799e-05,0.000261917,-0.0016827,-0.0239724,0.00612999,-0.0631559,-4.85091,0.122846,-0.294349,-0.0694063,-0.212827,-0.0800192,-0.246105,-0.0631356,-0.850913,0.122846,264,80,264,80,360,88,264,170,-0.000931301,-0.611706,0,-1.5,3.21831e-38,0,0,0,-0.870006,0.102332,0.5,0.0273438,0,0,-0.0375286,-0.0905921,9118,-0.802172,0.309405,0.0424906,0.155513,7588,0,0,0,0,2.5,-0.204664
7637,0.0859375,0,-6.65137,0.000969918,-0.000378892,-0.000897348,-0.0239618,0.00612794,-0.0631824,-7.16474,-5.80233,-0.266205,-0.0710161,-0.217778,-0.080714,-0.248255,-0.0631824,-3.16474,-5.80233,627,147,627,147,677,130,630,210,0.463012,-0.582356,0,-1.5,3.21831e-38,0,0,0,-0.850671,-1.05584,0.5,0.0273438,0,0,0.335716,-1.13037,4160,-0.787984,-0.820419,0.41643,-0.882116,7623,0,0,0,0,2.5,2.11168
7658,0.0527344,0,-2.44043,-0.000612937,-6.2043e-05,-0.000903245,-0.0239657,0.00612684,-0.0631995,-7.28569,-5.90844,-0.229247,-0.0727208,-0.223022,-0.0814356,-0.250488,-0.0631995,-3.28569,-5.90844,627,147,627,147,677,130,630,207,-0.223277,-0.625779,0,-1.5,3.21831e-38,0,0,0,-0.852623,0.150008,0.5,0.0273438,0,0,0.273861,0.70533,4158,-0.782389,0.36634,0.355296,0.955818,7653,0,0,0,0,2.5,-0.300017
7675,0.107422,0,1.0332,7.11408e-05,-0.000179033,-0.00262911,-0.0239812,0.00612404,-0.0632363,-7.28569,-5.90844,-0.229247,-0.0740295,-0.227047,-0.0819802,-0.252173,-0.0632363,-3.28569,-5.90844,627,147,627,147,677,130,630,207,-0.228463,-0.626117,0,-1.5,3.21831e-38,0,0,0,-0.848247,0.161276,0.5,0.0273438,0,0,0.273316,0.703645,4158,-0.782389,0.36634,0.355296,0.955818,7653,0,0,0,0,2.5,-0.322552
7696,0.173828,0,-0.307617,0.000959748,0.000488675,-0.00134485,-0.0239687,0.00613577,-0.0632719,-7.13762,-5.79775,-0.270368,-0.0758436,-0.232628,-0.0827221,-0.254471,-0.0632574,-3.13762,-5.79775,627,147,627,147,677,130,632,210,0.463042,-0.582321,0,-1.5,3.21831e-38,0,0,0,-1.42494,-6.17152,0.5,0.0273438,0,0,-0.252361,-5.26973,4320,-1.3474,-5.88874,-0.169639,-5.01525,7689,0,0,0,0,2.5,2.5
7712,0.178711,0,0.875977,-0.000723131,-0.000552266,-0.00125494,-0.0239853,0.00612943,-0.0632896,-7.13762,-5.79775,-0.270368,-0.0771728,-0.236717,-0.0832573,-0.256125,-0.0632719,-3.13762,-5.79775,627,147,627,147,677,130,632,210,0.463048,-0.582314,0,-1.5,3.21831e-38,0,0,0,-1.42899,-6.25585,0.5,0.0273438,0,0,-0.252896,-5.27138,4320,-1.3474,-5.88874,-0.169639,-5.01525,7689,0,0,0,0,2.5,2.5
7734,0.178711,0,-1.12207,0.000361235,5.34719e-05,-0.00138633,-0.0239882,0.00612449,-0.063307,-4.81596,0.121924,-0.307179,-0.0790161,-0.242387,-0.0839876,-0.258382,-0.063307,-0.815964,0.121924,264,80,264,80,360,87,264,170,0.463062,-0.582298,0,-1.5,3.21831e-38,0,0,0,-1.20049,-1.96369,0.5,0.0273438,0,0,-0.299494,-2.52983,9312,-1.11673,-1.67133,-0.215507,-2.27145,7720,0,0,0,0,2.5,2.5
7757,0.178711,0,3.00684,-0.000317499,0.000440347,-0.00114486,-0.0239901,0.00612866,-0.0633317,-7.39609,-5.98925,-0.221728,-0.080874,-0.248104,-0.0847084,-0.260615,-0.0633317,-3.39609,-5.98925,627,147,627,147,677,132,630,208,0.463072,-0.582286,0,-1.5,3.21831e-38,0,0,0,-1.7194,-6.00369,0.5,0.0273438,0,0,-0.832195,-5.18947,3952,-1.63329,-5.72108,-0.747486,-4.92886,7751,0,0,0,0,2.5,2.5
7772,0.178711,0,6.35059,0.000100218,0.00085523,-0.0016428,-0.0239913,0.00611266,-0.0633628,-7.39609,-5.98925,-0.221728,-0.0822348,-0.25229,-0.0852272,-0.262223,-0.0633628,-3.39609,-5.98925,627,147,627,147,677,132,630,208,0.463085,-0.582272,0,-1.5,3.21831e-38,0,0,0,-1.73272,-6.08674,0.5,0.0273438,0,0,-0.832713,-5.19108,3952,-1.63329,-5.72108,-0.747486,-4.92886,7751,0,0,0,0,2.5,2.5
7794,0.178711,0,-6.67285,0.000679983,-0.000638438,-0.00143669,-0.0239896,0.00610226,-0.0633889,-7.24029,-5.88041,-0.243332,-0.0841198,-0.25809,-0.0859312,-0.264414,-0.0633785,-3.24029,-5.88041,627,147,627,147,681,130,630,208,0.463091,-0.582265,0,-1.5,3.21831e-38,0,0,0,-3.32893,-6.20417,0.5,0.0273438,0,0,-2.51778,-5.43317,4212,-3.21563,-5.88406,-2.43184,-5.16876,7784,0,0,0,0,2.5,2.5
7811,0.178711,0,-2.44238,0.000896815,0.000434101,-0.0010304,-0.0239915,0.00610592,-0.0634115,-7.24029,-5.88041,-0.243332,-0.0855866,-0.262604,-0.0864689,-0.26609,-0.0633889,-3.24029,-5.88041,627,147,627,147,681,130,630,208,0.463096,-0.58226,0,-1.5,3.21831e-38,0,0,0,-3.37174,-6.29656,0.5,0.0273438,0,0,-2.51831,-5.43485,4212,-3.21563,-5.88406,-2.43184,-5.16876,7784,0,0,0,0,2.5,2.5
7832,0.178711,0,-2.44238,0.000896815,0.000434101,-0.0010304,-0.0239915,0.00610592,-0.0634115,-4.81092,0.122082,-0.302724,-0.087324,-0.267951,-0.087096,-0.268044,-0.0634115,-0.810918,0.122082,263,80,263,80,360,87,264,170,0.463105,-0.58225,0,-1.5,3.21831e-38,0,0,0,-1.10024,-6.66497,0.5,0.0273438,0,0,0.177969,-6.51574,9306,-1.01636,-6.3158,0.265065,-6.24769,7820,0,0,0,0,2.5,2.5
7848,0.161133,0,1.02637,8.10054e-05,0.000396904,-0.00183092,-0.023981,0.00609095,-0.0634303,-4.81092,0.122082,-0.302724,-0.0888106,-0.272526,-0.0876233,-0.269689,-0.0634303,-0.810918,0.122082,263,80,263,80,360,87,264,170,0.463113,-0.582241,0,-1.5,3.21831e-38,0,0,0,-1.09722,-6.77575,0.5,0.0273438,0,0,0.177441,-6.51738,9306,-1.01636,-6.3158,0.265065,-6.24769,7820,0,0,0,0,2.5,2.5
7870,0.0947266,0,-0.30957,-8.0789e-05,-0.000390296,-0.00169253,-0.0239817,0.00607352,-0.0634687,-7.25909,-5.88699,-0.239536,-0.0907487,-0.278492,-0.0882968,-0.271798,-0.0634687,-3.25909,-5.88699,627,147,627,147,679,130,630,208,0.463128,-0.582223,0,-1.5,3.21831e-38,0,0,0,-3.59279,-6.99723,0.5,0.0273438,0,0,-3.13284,-6.46894,4056,-3.43506,-6.5824,-3.04455,-6.19714,7856,0,0,0,0,2.5,2.5
7892,0.0654297,0,0.849609,-0.000355929,-0.000162652,-0.00155923,-0.0239258,0.00585938,-0.0634766,-4.86542,0.120286,-0.290579,-0.0927004,-0.284501,-0.0889342,-0.273878,-0.0634766,-0.865419,0.120286,265,80,265,80,360,88,264,170,-0.409912,-0.603962,0,-1.5,3.21831e-38,0,0,0,-0.730653,0.557105,0.5,0.0273438,0,0,0.8894,1.33133,9118,-0.645779,0.828764,0.978334,1.60521,7886,0,0,0,0,2.5,-1.11421
7908,0.0654297,0,3.01758,0.000128685,2.09485e-06,-0.00128184,-0.023982,0.00607403,-0.0635307,-4.86542,0.120286,-0.290579,-0.094128,-0.288899,-0.089382,-0.275373,-0.0635307,-0.865419,0.120286,265,80,265,80,360,88,264,170,-0.409881,-0.604096,0,-1.5,3.21831e-38,0,0,0,-0.716427,0.57839,0.5,0.0273438,0,0,0.888952,1.32983,9118,-0.645779,0.828764,0.978334,1.60521,7886,0,0,0,0,2.5,-1.15678
7930,0.0654297,0,3.01758,0.000128685,2.09485e-06,-0.00128184,-0.023982,0.00607403,-0.0635307,-7.26761,-5.87637,-0.258225,-0.0961037,-0.294986,-0.0900334,-0.277419,-0.0635307,-3.26761,-5.87637,627,147,627,147,677,132,628,210,0.463154,-0.582194,0,-1.5,3.21831e-38,0,0,0,-3.27717,-2.23344,0.5,0.0273438,0,0,-2.76888,-2.66279,4056,-3.14356,-1.90506,-2.67885,-2.38537,7918,0,0,0,0,2.5,2.5
7946,0.0654297,0,5.67773,0.000116622,3.75846e-05,-0.00143086,-0.0239814,0.00607073,-0.0635974,-7.26761,-5.87637,-0.258225,-0.0975491,-0.29944,-0.0905023,-0.278892,-0.0635779,-3.26761,-5.87637,627,147,627,147,677,132,628,210,0.463173,-0.582172,0,-1.5,3.21831e-38,0,0,0,-3.32147,-2.27606,0.5,0.0273438,0,0,-2.76935,-2.66426,4056,-3.14356,-1.90506,-2.67885,-2.38537,7918,0,0,0,0,2.5,2.5
7962,0.0654297,0,-6.70117,-0.000128037,-0.00074014,-0.000710565,-0.023987,0.00605836,-0.0636091,-7.26761,-5.87637,-0.258225,-0.0990021,-0.303918,-0.0909673,-0.280353,-0.0635974,-3.26761,-5.87637,627,147,627,147,677,132,628,210,0.463181,-0.582163,0,-1.5,3.21831e-38,0,0,0,-3.36579,-2.31871,0.5,0.0273438,0,0,-2.76982,-2.66572,4056,-3.14356,-1.90506,-2.67885,-2.38537,7918,0,0,0,0,2.5,2.5
7978,0.0654297,0,-2.46777,0.000392547,-0.000108675,-0.000759206,-0.0239779,0.0060636,-0.0636294,-7.26761,-5.87637,-0.258225,-0.100462,-0.308419,-0.0914269,-0.281803,-0.0636294,-3.26761,-5.87637,627,147,627,147,677,132,628,210,0.463194,-0.582149,0,-1.5,3.21831e-38,0,0,0,-3.41011,-2.36137,0.5,0.0273438,0,0,-2.77028,-2.66717,4056,-3.14356,-1.90506,-2.67885,-2.38537,7918,0,0,0,0,2.5,2.5
8000,0.0654297,0,-2.46777,0.000392547,-0.000108675,-0.000759206,-0.0239779,0.0060636,-0.0636294,-7.26715,-5.87614,-0.256446,-0.102483,-0.314649,-0.0920544,-0.283778,-0.0636294,-3.26715,-5.87614,627,147,627,147,677,132,628,210,0.463194,-0.582149,0,-1.5,3.21831e-38,0,0,0,-3.59294,-2.15438,0.5,0.0273438,0,0,-2.84539,-2.09885,4056,-3.42989,-1.7998,-2.75333,-1.81507,7986,0,0,0,0,2.5,2.5
8017,0.0654297,0,-1.42188,-0.000130276,-0.000285771,-0.00178533,-0.0239699,0.00606152,-0.0636805,-7.26715,-5.87614,-0.256446,-0.103961,-0.319204,-0.0925056,-0.2852,-0.0636629,-3.26715,-5.87614,627,147,627,147,677,132,628,210,0.463207,-0.582133,0,-1.5,3.21831e-38,0,0,0,-3.63847,-2.18798,0.5,0.0273438,0,0,-2.84584,-2.10027,4056,-3.42989,-1.7998,-2.75333,-1.81507,7986,0,0,0,0,2.5,2.5
8037,0.0654297,0,-0.335938,-0.000520768,-0.00089044,-0.000863476,-0.0239828,0.00605819,-0.0636905,-7.20159,-5.84003,-0.251131,-0.105912,-0.32522,-0.0930922,-0.287049,-0.0636905,-3.20159,-5.84003,627,147,627,147,679,130,628,208,0.463219,-0.58212,0,-1.5,3.21831e-38,0,0,0,-3.77535,-5.37298,0.5,0.0273438,0,0,-3.10448,-0.0359385,4212,-3.60619,-5.05303,-3.01139,0.251111,8023,0,0,0,0,2.5,2.5
8059,0.0654297,0,0.836914,0.000356974,0.000242343,-0.000575688,-0.0239781,0.00606576,-0.0637087,-4.83644,0.125472,-0.298893,-0.107969,-0.331562,-0.0937012,-0.288967,-0.0637087,-0.836441,0.125472,263,80,263,80,360,88,264,170,0.463226,-0.582112,0,-1.5,3.21831e-38,0,0,0,-3.50208,-6.61646,0.5,0.0273438,0,0,-2.69147,-7.26626,9212,-3.36813,-6.21513,-2.59777,-6.97729,8051,0,0,0,0,2.5,2.5
8075,0.0654297,0,3.01758,-0.000207222,-0.000117852,-0.000936148,-0.0239752,0.00606106,-0.0637505,-4.83644,0.125472,-0.298893,-0.109473,-0.3362,-0.0941402,-0.290346,-0.0637505,-0.836441,0.125472,263,80,263,80,360,88,264,170,0.463243,-0.582093,0,-1.5,3.21831e-38,0,0,0,-3.54515,-6.73274,0.5,0.0273438,0,0,-2.69191,-7.26764,9212,-3.36813,-6.21513,-2.59777,-6.97729,8051,0,0,0,0,2.5,2.5
8091,0.0654297,0,3.01758,-0.000207222,-0.000117852,-0.000936148,-0.0239752,0.00606106,-0.0637505,-4.83644,0.125472,-0.298893,-0.110983,-0.34086,-0.0945753,-0.291715,-0.0637505,-0.836441,0.125472,263,80,263,80,360,88,264,170,0.463243,-0.582093,0,-1.5,3.21831e-38,0,0,0,-3.58822,-6.84904,0.5,0.0273438,0,0,-2.69235,-7.26901,9212,-3.36813,-6.21513,-2.59777,-6.97729,8051,0,0,0,0,2.5,2.5
8108,0.0654297,0,6.37109,-0.000786679,0.000210712,-0.000772126,-0.0239828,0.00606061,-0.0637795,-4.83644,0.125472,-0.298893,-0.112596,-0.345835,-0.0950337,-0.293158,-0.0637795,-0.836441,0.125472,263,80,263,80,360,88,264,170,0.463255,-0.582079,0,-1.5,3.21831e-38,0,0,0,-3.634,-6.97263,0.5,0.0273438,0,0,-2.6928,-7.27045,9212,-3.36813,-6.21513,-2.59777,-6.97729,8051,0,0,0,0,2.5,2.5
8130,0.0927734,0,5.68262,0.000496527,-0.00036156,-0.00204679,-0.0239755,0.00605494,-0.0638007,-4.89214,0.114978,-0.283366,-0.114599,-0.352015,-0.0955944,-0.294924,-0.0638007,-0.89214,0.114978,263,80,263,80,360,88,268,170,0.463264,-0.582069,0,-1.5,3.21831e-38,0,0,0,-3.78622,-6.77193,0.5,0.0273438,0,0,-2.86009,-6.62597,9212,-3.64674,-6.36294,-2.76449,-6.33105,8122,0,0,0,0,2.5,2.5
8145,0.15918,0,-2.43555,0.000755314,0.000909673,-0.00118372,-0.0239687,0.00607493,-0.0638242,-4.89214,0.114978,-0.283366,-0.116133,-0.356748,-0.0960178,-0.296256,-0.0638242,-0.89214,0.114978,263,80,263,80,360,88,268,170,0.463273,-0.582058,0,-1.5,3.21831e-38,0,0,0,-3.83199,-6.87797,0.5,0.0273438,0,0,-2.86051,-6.6273,9212,-3.64674,-6.36294,-2.76449,-6.33105,8122,0,0,0,0,2.5,2.5
8168,0.211914,0,1.0791,-0.000290839,-0.000888267,-0.00142601,-0.0239913,0.00606161,-0.0638629,-7.27401,-5.89034,-0.236922,-0.118255,-0.363294,-0.0965985,-0.298071,-0.0638242,-3.27401,-5.89034,627,147,627,147,677,130,630,208,0.463273,-0.582058,0,-1.5,3.21831e-38,0,0,0,-4.15727,-2.19732,0.5,0.0390625,0,0,-3.12592,-2.1962,4056,-3.97237,-1.79226,-3.02932,-1.89813,8153,0,0,0,0,2.5,2.5
8184,0.193359,0,-1.38672,-0.000927841,-0.000188605,-0.00145542,-0.0239954,0.00606203,-0.0638786,-7.27401,-5.89034,-0.236922,-0.119902,-0.368376,-0.0970413,-0.29946,-0.0638629,-3.27401,-5.89034,627,147,627,147,677,130,630,208,0.463289,-0.58204,0,-1.5,3.21831e-38,0,0,0,-4.21041,-2.23467,0.5,0.0390625,0,0,-3.12636,-2.19759,4056,-3.97237,-1.79226,-3.02932,-1.89813,8153,0,0,0,0,2.5,2.5
8206,0.160156,0,-0.291992,-0.000631383,0.000969219,-0.000747664,-0.024003,0.00606744,-0.0638863,-4.91864,0.106847,-0.266584,-0.122046,-0.374992,-0.0976088,-0.301245,-0.0638863,-0.91864,0.106847,265,80,265,80,360,87,268,168,0.463299,-0.58203,0,-1.5,3.21831e-38,0,0,0,-3.83763,-1.84977,0.5,0.0390625,0,0,-2.63407,-2.06323,9118,-3.65978,-1.43601,-2.53646,-1.76199,8192,0,0,0,0,2.5,2.5
8227,0.09375,0,-1.12402,-3.24708e-06,-3.22185e-05,-0.00166641,-0.023991,0.00606159,-0.0639458,-7.16481,-5.80227,-0.266472,-0.124103,-0.381341,-0.0981453,-0.30293,-0.0639213,-3.16481,-5.80227,627,147,627,147,677,130,630,210,0.463313,-0.582013,0,-1.5,3.21831e-38,0,0,0,-3.82324,-1.69732,0.5,0.0390625,0,0,-2.80146,-1.62917,4160,-3.67751,-1.30537,-2.70331,-1.32624,8221,0,0,0,0,2.5,2.5
8242,0.0605469,0,3,-0.000730232,6.99914e-05,-0.00219794,-0.0239903,0.00605736,-0.0639688,-7.16481,-5.80227,-0.266472,-0.125578,-0.385896,-0.0985243,-0.304121,-0.0639688,-3.16481,-5.80227,627,147,627,147,677,130,630,210,0.463332,-0.581991,0,-1.5,3.21831e-38,0,0,0,-3.86527,-1.72177,0.5,0.0390625,0,0,-2.80184,-1.63036,4160,-3.67751,-1.30537,-2.70331,-1.32624,8221,0,0,0,0,2.5,2.5
8264,0.0732422,0,6.37207,-0.0007877,-0.000678566,-0.000994661,-0.024,0.00604538,-0.0640033,-7.37804,-5.96541,-0.226261,-0.127754,-0.392611,-0.099074,-0.305853,-0.0639884,-3.37804,-5.96541,627,147,627,147,677,132,628,208,0.46334,-0.581982,0,-1.5,3.21831e-38,0,0,0,-4.02961,-5.96934,0.5,0.0390625,0,0,-2.9086,-5.52346,3952,-3.86252,-5.50368,-2.80953,-5.2176,8252,0,0,0,0,2.5,2.5
8280,0.106445,0,5.03223,0.000108356,-0.000434385,-0.00185351,-0.0240075,0.00603494,-0.0640279,-7.37804,-5.96541,-0.226261,-0.129343,-0.397517,-0.0994687,-0.307101,-0.0640279,-3.37804,-5.96541,627,147,627,147,677,132,628,208,0.463356,-0.581964,0,-1.5,3.21831e-38,0,0,0,-4.07615,-6.05773,0.5,0.0390625,0,0,-2.909,-5.5247,3952,-3.86252,-5.50368,-2.80953,-5.2176,8252,0,0,0,0,2.5,2.5
8301,0.106445,0,5.03223,0.000108356,-0.000434385,-0.00185351,-0.0240075,0.00603494,-0.0640279,-7.12615,-5.78734,-0.261592,-0.131439,-0.403991,-0.0999802,-0.308728,-0.0640279,-3.12615,-5.78734,627,147,627,147,681,129,628,208,0.463356,-0.581964,0,-1.5,3.21831e-38,0,0,0,-2.91936,-6.25905,0.5,0.0390625,0,0,-0.163491,-5.60423,4266,-2.78658,-5.74386,-0.063511,-5.29551,8287,0,0,0,0,2.5,2.5
8318,0.106445,0,5.03223,0.000108356,-0.000434385,-0.00185351,-0.0240075,0.00603494,-0.0640279,-7.12615,-5.78734,-0.261592,-0.133144,-0.409253,-0.10039,-0.310031,-0.0640279,-3.12615,-5.78734,627,147,627,147,681,129,628,208,0.463356,-0.581964,0,-1.5,3.21831e-38,0,0,0,-2.92214,-6.35434,0.5,0.0390625,0,0,-0.163901,-5.60554,4266,-2.78658,-5.74386,-0.063511,-5.29551,8287,0,0,0,0,2.5,2.5
8340,0.165039,0,1.06738,-0.00146474,0.00044328,-0.00148479,-0.0240561,0.00604177,-0.064101,-4.87287,0.117311,-0.28886,-0.13536,-0.4161,-0.100916,-0.311705,-0.064101,-0.872872,0.117311,263,80,263,80,360,88,267,168,0.463386,-0.58193,0,-1.5,3.21831e-38,0,0,0,-3.03535,-5.68928,0.5,0.0390625,0,0,-0.0150129,-0.485205,9408,-2.90188,-5.26937,0.0859031,-0.1735,8326,0,0,0,0,2.5,2.5
8362,0.0986328,0,-0.313477,0.000439484,0.000386842,-0.00121402,-0.0240665,0.00602671,-0.0641402,-4.84031,0.119514,-0.303765,-0.137588,-0.42298,-0.101437,-0.313368,-0.0641242,-0.840309,0.119514,265,80,265,80,360,88,264,170,0.463396,-0.581919,0,-1.5,3.21831e-38,0,0,0,-2.62919,-6.12872,0.5,0.0390625,0,0,0.396507,-2.11529,9312,-2.49758,-5.68411,0.497944,-1.80192,8352,0,0,0,0,2.5,2.5
8378,0.0654297,0,0.842773,0.000416602,-0.000691629,-0.00144713,-0.0240693,0.00602466,-0.0641584,-4.84031,0.119514,-0.303765,-0.139113,-0.427692,-0.101788,-0.314492,-0.0641402,-0.840309,0.119514,265,80,265,80,360,88,264,170,0.463402,-0.581912,0,-1.5,3.21831e-38,0,0,0,-2.62325,-6.16046,0.5,0.0390625,0,0,0.396156,-2.11641,9312,-2.49758,-5.68411,0.497944,-1.80192,8352,0,0,0,0,2.5,2.5
8394,0.0654297,0,0.842773,0.000416602,-0.000691629,-0.00144713,-0.0240693,0.00602466,-0.0641584,-4.84031,0.119514,-0.303765,-0.140847,-0.433053,-0.102182,-0.315757,-0.0641584,-0.840309,0.119514,265,80,265,80,360,88,264,170,0.463409,-0.581904,0,-1.5,3.21831e-38,0,0,0,-2.61651,-6.19645,0.5,0.0390625,0,0,0.395762,-2.11768,9312,-2.49758,-5.68411,0.497944,-1.80192,8352,0,0,0,0,2.5,2.5
8411,0.0341797,0,3.02051,-0.000659118,-0.000266055,-0.00129746,-0.0240773,0.0060184,-0.0641958,-4.84031,0.119514,-0.303765,-0.142589,-0.438435,-0.102572,-0.317012,-0.0641958,-0.840309,0.119514,265,80,265,80,360,88,264,170,0.463425,-0.581886,0,-1.5,3.21831e-38,0,0,0,-2.60979,-6.23247,0.5,0.0390625,0,0,0.395372,-2.11893,9312,-2.49758,-5.68411,0.497944,-1.80192,8352,0,0,0,0,2.5,2.5
8432,0.0341797,0,6.36426,0.000454027,-4.82462e-05,-0.00139885,-0.0240865,0.00601411,-0.0642414,-7.43259,-6.00917,-0.211073,-0.14475,-0.445114,-0.103049,-0.318549,-0.0641958,-3.43259,-6.00917,627,147,627,147,677,132,628,207,0.463425,-0.581886,0,-1.5,3.21831e-38,0,0,0,-3.44626,-5.96496,0.5,0.0390625,0,0,-0.573116,-0.158897,3900,-3.29164,-5.5232,-0.470067,0.159652,8418,0,0,0,0,2.5,2.5
8448,0.0341797,0,5.0293,0.000217629,0.000839228,-0.00136725,-0.0240805,0.00601958,-0.0642622,-7.43259,-6.00917,-0.211073,-0.146402,-0.450223,-0.103409,-0.31971,-0.0642622,-3.43259,-6.00917,627,147,627,147,677,132,628,207,0.463452,-0.581855,0,-1.5,3.21831e-38,0,0,0,-3.45544,-5.96752,0.5,0.0390625,0,0,-0.573475,-0.160058,3900,-3.29164,-5.5232,-0.470067,0.159652,8418,0,0,0,0,2.5,2.5
8470,0.0341797,0,-6.62207,-0.000327311,-0.000283293,-0.00095531,-0.0240741,0.00601939,-0.0642723,-7.27393,-5.89008,-0.23659,-0.148685,-0.457281,-0.1039,-0.321291,-0.0642723,-3.27393,-5.89008,627,147,627,147,677,130,630,208,0.463456,-0.581851,0,-1.5,3.21831e-38,0,0,0,-3.58668,-6.51131,0.5,0.0390625,0,0,-1.12017,-2.10992,4056,-3.41564,-6.01468,-1.01627,-1.78862,8456,0,0,0,0,2.5,2.5
8492,0.046875,0,6.42188,-0.00142937,-6.67724e-05,-0.000153636,-0.0241057,0.00602465,-0.064296,-7.2177,-5.85782,-0.242608,-0.150978,-0.464371,-0.104386,-0.322853,-0.0642908,-3.2177,-5.85782,627,147,627,147,678,129,632,208,0.463463,-0.581842,0,-1.5,3.21831e-38,0,0,0,-3.18382,-5.90358,0.5,0.0390625,0,0,-0.283969,-0.109488,4108,-3.03141,-5.44091,-0.179582,0.213365,8486,0,0,0,0,2.5,2.5
8508,0.0800781,0,1.0752,0.000252841,0.000884073,-0.00157767,-0.024111,0.00602958,-0.0643099,-7.2177,-5.85782,-0.242608,-0.152651,-0.469548,-0.104737,-0.323983,-0.0643099,-3.2177,-5.85782,627,147,627,147,678,129,632,208,0.463471,-0.581833,0,-1.5,3.21831e-38,0,0,0,-3.18837,-5.90534,0.5,0.0390625,0,0,-0.28432,-0.110618,4108,-3.03141,-5.44091,-0.179582,0.213365,8486,0,0,0,0,2.5,2.5
8530,0.146484,0,-0.34668,0.00048079,-5.01019e-05,-0.00232015,-0.0241263,0.00602904,-0.0643483,-7.27387,-5.89001,-0.23634,-0.154962,-0.476698,-0.105217,-0.325524,-0.0643178,-3.27387,-5.89001,627,147,627,147,677,130,630,208,0.463474,-0.58183,0,-1.5,3.21831e-38,0,0,0,-3.61924,-6.51936,0.5,0.0390625,0,0,-1.23478,-1.7628,4056,-3.44846,-6.02254,-1.12956,-1.43728,8518,0,0,0,0,2.5,2.5
8546,0.179688,0,0.867188,0.000433688,-9.11582e-05,-0.00148829,-0.0241227,0.00602453,-0.0643688,-7.27387,-5.89001,-0.23634,-0.156649,-0.481917,-0.105562,-0.326635,-0.0643688,-3.27387,-5.89001,627,147,627,147,677,130,630,208,0.463495,-0.581806,0,-1.5,3.21831e-38,0,0,0,-3.639,-6.54757,0.5,0.0390625,0,0,-1.23512,-1.76391,4056,-3.44846,-6.02254,-1.12956,-1.43728,8518,0,0,0,0,2.5,2.5
8568,0.196289,0,3.00684,0.00117957,0.000683958,-0.00117813,-0.024144,0.006031,-0.064387,-7.1647,-5.80197,-0.266061,-0.158979,-0.489127,-0.106032,-0.328149,-0.0643688,-3.1647,-5.80197,627,147,627,147,677,130,630,210,0.408243,-0.585367,0,-1.5,3.21831e-38,0,0,0,-3.33252,-4.85032,0.5,0.0390625,0,0,-0.672003,0.976141,4160,-3.16109,-4.38989,-0.565971,1.30429,8554,0,0,0,0,2.5,2.5
8584,0.163086,0,-4.7959,-0.000663572,0.00129953,-0.00132472,-0.0241543,0.00604338,-0.0644047,-7.1647,-5.80197,-0.266061,-0.160679,-0.494388,-0.106371,-0.32924,-0.064387,-3.1647,-5.80197,627,147,627,147,677,130,630,210,0.408522,-0.585342,0,-1.5,3.21831e-38,0,0,0,-3.34328,-4.83472,0.5,0.0390625,0,0,-0.672342,0.975049,4160,-3.16109,-4.38989,-0.565971,1.30429,8554,0,0,0,0,2.5,2.5
8605,0.129883,0,6.36426,0.000269846,-0.000271395,-0.00142551,-0.0241454,0.0060414,-0.0644262,-4.89945,0.118388,-0.27541,-0.162919,-0.501324,-0.106814,-0.330663,-0.0644262,-0.899451,0.118388,263,80,263,80,360,88,267,168,0.463519,-0.581779,0,-1.5,3.21831e-38,0,0,0,-3.14818,-6.78458,0.5,0.0390625,0,0,-0.472995,-2.30605,9212,-2.97757,-6.24177,-0.366182,-1.97538,8591,0,0,0,0,2.5,2.5
8628,0.0966797,0,5.71094,0.00152239,0.000270207,1.27577e-05,-0.0241326,0.00604512,-0.0644265,-7.3533,-5.98104,-0.228728,-0.165383,-0.508952,-0.107295,-0.332202,-0.0644265,-3.3533,-5.98104,627,147,627,147,679,132,632,208,0.463519,-0.581779,0,-1.5,3.21831e-38,0,0,0,-2.85731,-5.49453,0.5,0.0390625,0,0,0.325971,-0.251356,4104,-2.69626,-4.98639,0.433266,0.0808465,8620,0,0,0,0,2.5,2.5
8643,0.0332031,0,-2.44238,0.00031584,0.000485005,-0.000955319,-0.0241305,0.00604193,-0.0644433,-7.3533,-5.98104,-0.228728,-0.166996,-0.513945,-0.107606,-0.333195,-0.0644433,-3.3533,-5.98104,627,147,627,147,679,132,632,208,0.463525,-0.581771,0,-1.5,3.21831e-38,0,0,0,-2.85242,-5.49831,0.5,0.0390625,0,0,0.32566,-0.252348,4104,-2.69626,-4.98639,0.433266,0.0808465,8620,0,0,0,0,2.5,2.5
8660,0.0332031,0,-2.44238,0.00031584,0.000485005,-0.000955319,-0.0241305,0.00604193,-0.0644433,-7.3533,-5.98104,-0.228728,-0.168829,-0.519621,-0.107955,-0.334311,-0.0644433,-3.3533,-5.98104,627,147,627,147,679,132,632,208,0.463525,-0.581771,0,-1.5,3.21831e-38,0,0,0,-2.84689,-5.50261,0.5,0.0390625,0,0,0.325311,-0.253464,4104,-2.69626,-4.98639,0.433266,0.0808465,8620,0,0,0,0,2.5,2.5
8676,0.0996094,0,1.06055,-2.17721e-05,-0.000356057,-0.00127619,-0.0241256,0.00605738,-0.0644703,-7.3533,-5.98104,-0.228728,-0.170451,-0.524645,-0.108262,-0.335287,-0.0644703,-3.3533,-5.98104,627,147,627,147,679,132,632,208,0.463536,-0.581759,0,-1.5,3.21831e-38,0,0,0,-2.84201,-5.50643,0.5,0.0390625,0,0,0.325004,-0.254441,4104,-2.69626,-4.98639,0.433266,0.0808465,8620,0,0,0,0,2.5,2.5
8698,0.132812,0,-1.40332,-7.25531e-05,-0.000438807,-5.32264e-05,-0.0241251,0.00605756,-0.0644744,-7.25235,-5.88128,-0.239751,-0.172839,-0.532042,-0.108709,-0.336705,-0.0644744,-3.25235,-5.88128,627,147,627,147,677,130,630,207,0.463538,-0.581757,0,-1.5,3.21831e-38,0,0,0,-3.4473,-5.25438,0.5,0.0390625,0,0,-0.666426,0.235777,4158,-3.26665,-4.73035,-0.557716,0.572482,8686,0,0,0,0,2.5,2.5
8714,0.199219,0,0.839844,-0.000327827,-0.000723692,-0.000998387,-0.0241446,0.00605362,-0.0645161,-7.25235,-5.88128,-0.239751,-0.174691,-0.537778,-0.109052,-0.337792,-0.0645161,-3.25235,-5.88128,627,147,627,147,677,130,630,207,0.463555,-0.581738,0,-1.5,3.21831e-38,0,0,0,-3.45863,-5.25039,0.5,0.0390625,0,0,-0.666768,0.234691,4158,-3.26665,-4.73035,-0.557716,0.572482,8686,0,0,0,0,2.5,2.5
8736,0.0888672,0,3.00293,0.00155907,0.000569009,-0.000636568,-0.0241141,0.00605733,-0.0645522,-7.27379,-5.88996,-0.236059,-0.176987,-0.544891,-0.109471,-0.339125,-0.0645161,-3.2738,-5.88996,627,147,627,147,677,130,630,208,0.463555,-0.581738,0,-1.5,3.21831e-38,0,0,0,-3.27503,-6.08941,0.5,0.0390625,0,0,-0.0652723,-1.02961,4056,-3.09897,-5.53002,0.0441988,-0.690488,8721,0,0,0,0,2.5,2.5
8757,0.0292969,0,-4.79688,-0.000785088,-3.4562e-05,0.000145251,-0.024118,0.00604718,-0.0645612,-7.25743,-5.86773,-0.239887,-0.179402,-0.552371,-0.109905,-0.340499,-0.0645612,-3.25743,-5.86773,627,147,627,147,677,130,628,208,0.463573,-0.581717,0,-1.5,3.21831e-38,0,0,0,-3.20067,-6.15291,0.5,0.0390625,0,0,-0.232988,-1.19291,4056,-3.0204,-5.59458,-0.123083,-0.85241,8752,0,0,0,0,2.5,2.5
8773,0.0556641,0,6.3877,0.000886417,-0.000328911,-0.000107112,-0.0241089,0.00603947,-0.0645677,-7.25743,-5.86773,-0.239887,-0.181164,-0.55783,-0.110216,-0.341488,-0.0645677,-3.25743,-5.86773,627,147,627,147,677,130,628,208,0.463576,-0.581714,0,-1.5,3.21831e-38,0,0,0,-3.2044,-6.17201,0.5,0.0390625,0,0,-0.233299,-1.1939,4056,-3.0204,-5.59458,-0.123083,-0.85241,8752,0,0,0,0,2.5,2.5
8795,0.0888672,0,5.67871,-0.000110896,0.000209872,-0.000707122,-0.0241106,0.00604515,-0.0645837,-7.40721,-6.00668,-0.214493,-0.183594,-0.565361,-0.110639,-0.342836,-0.0645837,-3.40721,-6.00668,627,147,627,147,677,132,630,207,0.463583,-0.581706,0,-1.5,3.21831e-38,0,0,0,-3.23791,-5.9334,0.5,0.0390625,0,0,0.0314644,-0.124973,4050,-3.05602,-5.37066,0.142104,0.217863,8785,0,0,0,0,2.5,2.5
8812,0.155273,0,-2.49609,0.000433229,0.000444614,-0.00168559,-0.0241007,0.00603865,-0.0646313,-7.40721,-6.00668,-0.214493,-0.185479,-0.571201,-0.110963,-0.343866,-0.0646313,-3.40721,-6.00668,627,147,627,147,677,132,630,207,0.463602,-0.581684,0,-1.5,3.21831e-38,0,0,0,-3.23738,-5.93554,0.5,0.0390625,0,0,0.0311404,-0.126003,4050,-3.05602,-5.37066,0.142104,0.217863,8785,0,0,0,0,2.5,2.5
8832,0.152344,0,1.10449,1.43578e-05,0.000907111,-0.00187972,-0.0241026,0.00605184,-0.0646749,-4.87602,0.120929,-0.278776,-0.187703,-0.578095,-0.111341,-0.345066,-0.0646313,-0.876022,0.120929,265,80,265,80,360,87,264,168,0.463602,-0.581684,0,-1.5,3.21831e-38,0,0,0,-3.09104,-6.39074,0.5,0.0390625,0,0,-0.0333003,-1.61806,9118,-2.9049,-5.78718,0.0780403,-1.273,8818,0,0,0,0,2.5,2.5
8847,0.119141,0,-1.40625,0.000679376,-0.000321345,-0.00116398,-0.024098,0.00604991,-0.0646894,-4.87602,0.120929,-0.278776,-0.189376,-0.58328,-0.111623,-0.345958,-0.0646894,-0.876022,0.120929,265,80,265,80,360,87,264,168,0.463626,-0.581657,0,-1.5,3.21831e-38,0,0,0,-3.09154,-6.41502,0.5,0.0390625,0,0,-0.0335825,-1.61895,9118,-2.9049,-5.78718,0.0780403,-1.273,8818,0,0,0,0,2.5,2.5
8869,0.119141,0,-1.40625,0.000679376,-0.000321345,-0.00116398,-0.024098,0.00604991,-0.0646894,-4.85651,0.126174,-0.287308,-0.191838,-0.590911,-0.112033,-0.347254,-0.0646894,-0.856513,0.126174,263,80,263,80,360,88,264,168,0.402212,-0.585636,0,-1.5,3.21831e-38,0,0,0,-3.27645,-4.89253,0.5,0.0390625,0,0,-0.00309311,1.00084,9212,-3.08701,-4.33128,0.10894,1.3481,8855,0,0,0,0,2.5,2.5
8891,0.0527344,0,0.859375,6.73566e-05,0.000204942,-0.00130949,-0.0240995,0.00603889,-0.0647241,-4.83646,0.125626,-0.298947,-0.194309,-0.598569,-0.112437,-0.348536,-0.0647241,-0.836457,0.125626,263,80,263,80,360,88,264,170,0.46364,-0.581641,0,-1.5,3.21831e-38,0,0,0,-3.36941,-5.16669,0.5,0.0390625,0,0,-0.567355,0.345991,9212,-3.17147,-4.57368,-0.454917,0.694526,8886,0,0,0,0,2.5,2.5
8907,0.0927734,0,3.02832,0.00061918,0.00073878,-0.00146106,-0.0240722,0.00603727,-0.0647495,-4.83646,0.125626,-0.298947,-0.196111,-0.604155,-0.112728,-0.349457,-0.0647495,-0.836457,0.125626,263,80,263,80,360,88,264,170,0.46365,-0.58163,0,-1.5,3.21831e-38,0,0,0,-3.3785,-5.16116,0.5,0.0390625,0,0,-0.567645,0.345069,9212,-3.17147,-4.57368,-0.454917,0.694526,8886,0,0,0,0,2.5,2.5
