timestamp,A_x,A_y,A_z,P,Q,R,Phi,Theta,Psi,poseX,poseY,poseZ,state_X,state_Y,state_Z,state_VzB,state_Bx,state_By,state_Bz,p1_x,p1_y,p2_x,p2_y,p3_x,p3_y,p4_x,p4_y,roll,pitch,yaw,alt,targetHeading,highLevelState,lowLevelState,gateNumber,filtered_x,filtered_y,x_OT,y_OT,vx_OT,vy_OT,filtered_vx,filtered_vygateArearansac_corr_x,ransac_corr_y,ransac_corr_vx,ransac_corr_vy,detectionTimeStamppTermX,dTermX,pTermY,dTermY,vxcmd,vycmd
6099,0.617188,-0.202148,-7.38574,0.674549,0.130649,-0.223749,0.0208651,0.0328989,-0.672432,0,0,0,-2.15394e-05,3.04644e-05,-0.00375762,0.00493875,-0.636058,0,0,0,0,0,0,0,0,0,0,0.148065,-0.377049,0,-1.5,0,0,0,0,-2.15394e-05,3.04644e-05,0,0,0,0,-0.00375762,0.00493875,1.9603e-19,0,0,0,0,0,0,0,0,0,1,-3.35109e-05
6113,-0.34668,0.000976562,1.95703,-0.494359,-0.296454,-0.323432,-0.121861,0.0564881,-0.862425,0,0,0,-0.000138537,0.000120255,-0.0115728,0.00530383,-0.791386,0,0,0,0,0,0,0,0,0,0,0.178935,-0.35316,0,-1.5,0,0,0,0,-0.000138537,0.000120255,0,0,0,0,-0.0115728,0.00530383,1.9603e-19,0,0,0,0,0,0,0,0,0,1,-0.00013228
6129,-2.10547,-0.768555,-1.39551,-0.639529,-0.190921,0.0653656,0.164223,-0.0468408,-0.842068,0,0,0,-0.000464547,0.000196047,-0.0273394,0.00480662,-0.841735,0,0,0,0,0,0,0,0,0,0,0.190711,-0.346476,0,-1.5,0,0,0,0,-0.000464547,0.000196047,0,0,0,0,-0.0273394,0.00480662,1.9603e-19,0,0,0,0,0,0,0,0,0,1,-0.000215652
6146,1.1582,0,2.11816,-0.00364813,1.29866e-05,-0.00597102,-0.111361,-0.0151256,-0.836247,0,0,0,-0.000936571,0.000118358,-0.0289023,-0.00850448,-0.83509,0,0,0,0,0,0,0,0,0,0,0.192101,-0.345519,0,-1.5,0,0,0,0,-0.000936571,0.000118358,0,0,0,0,-0.0289023,-0.00850448,1.9603e-19,0,0,0,0,0,0,0,0,0,1,-0.000130194
6162,1.1582,0.00683594,0.262695,-0.000537275,0.000258426,-0.00614629,-0.111413,-0.0151362,-0.83633,0,0,0,-0.00151244,-0.000154259,-0.0400291,-0.0218963,-0.83633,0,0,0,0,0,0,0,0,0,0,0.196672,-0.344605,0,-1.5,0,0,0,0,-0.00151244,-0.000154259,0,0,0,0,-0.0400291,-0.0218963,1.9603e-19,0,0,0,0,0,0,0,0,0,1,0.000169685
6177,1.1582,0.0732422,5.14062,-0.000403176,0.000966594,-0.00617009,-0.111328,-0.0151367,-0.836426,0,0,0,-0.00221322,-0.000603438,-0.0503961,-0.034369,-0.836421,0,0,0,0,0,0,0,0,0,0,0.200783,-0.343917,0,-1.5,0,0,0,0,-0.00221322,-0.000603438,0,0,0,0,-0.0503961,-0.034369,1.9603e-19,0,0,0,0,0,0,0,0,0,1,0.000663782
6193,1.1582,0.106445,-2.66992,2.79371e-05,0.0010017,-0.00753454,-0.111527,-0.0151537,-0.836596,0,0,0,-0.00313497,-0.00129218,-0.0613666,-0.0475677,-0.836426,0,0,0,0,0,0,0,0,0,0,0.205158,-0.343165,0,-1.5,0,0,0,0,-0.00313497,-0.00129218,0,0,0,0,-0.0613666,-0.0475677,1.9603e-19,0,0,0,0,0,0,0,0,0,1,0.0014214
6209,1.1582,0.139648,5.9541,-0.0018693,-2.01594e-05,-0.00759626,-0.111599,-0.0151781,-0.836686,0,0,0,-0.00423147,-0.00219111,-0.0722668,-0.0606757,-0.836596,0,0,0,0,0,0,0,0,0,0,0.209571,-0.342339,0,-1.5,0,0,0,0,-0.00423147,-0.00219111,0,0,0,0,-0.0722668,-0.0606757,1.9603e-19,0,0,0,0,0,0,0,0,0,1,0.00241023
6224,1.1582,0.125,2.47168,-0.00293591,0.00106062,-0.00727597,-0.111676,-0.015191,-0.83677,0,0,0,-0.00541368,-0.00321936,-0.0824139,-0.0728784,-0.83677,0,0,0,0,0,0,0,0,0,0,0.213716,-0.341527,0,-1.5,0,0,0,0,-0.00541368,-0.00321936,0,0,0,0,-0.0824139,-0.0728784,1.9603e-19,0,0,0,0,0,0,0,0,0,1,0.0035413
6240,1.17383,0.0917969,2.25,-0.00416271,0.0004404,-0.00665765,-0.111786,-0.0151913,-0.836873,0,0,0,-0.00684536,-0.00452135,-0.0931673,-0.0858064,-0.836873,0,0,0,0,0,0,0,0,0,0,0.218134,-0.34064,0,-1.5,0,0,0,0,-0.00684536,-0.00452135,0,0,0,0,-0.0931673,-0.0858064,1.9603e-19,0,0,0,0,0,0,0,0,0,1,0.00497348
6256,1.20703,0.0585938,2.0459,-0.00363391,0.00195059,-0.00659085,-0.111875,-0.0151785,-0.836951,0,0,0,-0.00844496,-0.00602516,-0.103847,-0.0986385,-0.836951,0,0,0,0,0,0,0,0,0,0,0.222555,-0.339722,0,-1.5,0,0,0,0,-0.00844496,-0.00602516,0,0,0,0,-0.103847,-0.0986385,1.9603e-19,0,0,0,0,0,0,0,0,0,1,0.00662767
6272,1.24023,0.0253906,-1.49219,-0.00233197,0.000958855,-0.00580883,-0.11195,-0.0151769,-0.837025,0,0,0,-0.010218,-0.00773732,-0.114455,-0.111377,-0.837025,0,0,0,0,0,0,0,0,0,0,0.226985,-0.338766,0,-1.5,0,0,0,0,-0.010218,-0.00773732,0,0,0,0,-0.114455,-0.111377,1.9603e-19,0,0,0,0,0,0,0,0,0,1,0.00851105
6300,1.28418,0,-6.91016,-0.00191937,0.000751922,-0.00609954,-0.112104,-0.0151957,-0.837189,0,0,0,-0.0138072,-0.0113174,-0.132874,-0.133488,-0.837189,0,0,0,0,0,0,0,0,0,0,0.234793,-0.336975,0,-1.5,0,0,0,0,-0.0138072,-0.0113174,0,0,0,0,-0.132874,-0.133488,1.9603e-19,0,0,0,0,0,0,0,0,0,1,0.0124491
6337,1.28418,0,2.54004,-0.00419026,0.000471515,-0.00570362,-0.112343,-0.0152276,-0.837448,0,0,0,-0.0194486,-0.0171266,-0.156917,-0.162339,-0.837448,0,0,0,0,0,0,0,0,0,0,0.245198,-0.334392,0,-1.5,0,0,0,0,-0.0194486,-0.0171266,0,0,0,0,-0.156917,-0.162339,1.9603e-19,0,0,0,0,0,0,0,0,0,1,0.0188393
6379,1.23926,0,5.94434,-0.00470544,-0.000669687,-0.00607265,-0.1126,-0.0152682,-0.837704,0,0,0,-0.0269606,-0.0250499,-0.183768,-0.19454,-0.837704,0,0,0,0,0,0,0,0,0,0,0.257072,-0.33122,0,-1.5,0,0,0,0,-0.0269606,-0.0250499,0,0,0,0,-0.183768,-0.19454,1.9603e-19,0,0,0,0,0,0,0,0,0,1,0.0275549
6397,1.20605,0,2.44629,-0.0037925,0.000325678,-0.00599822,-0.112698,-0.015267,-0.837787,0,0,0,-0.0304068,-0.0287176,-0.19508,-0.208097,-0.837787,0,0,0,0,0,0,0,0,0,0,0.262129,-0.329823,0,-1.5,0,0,0,0,-0.0304068,-0.0287176,0,0,0,0,-0.19508,-0.208097,1.9603e-19,0,0,0,0,0,0,0,0,0,1,0.0315894
6413,1.13965,0,2.05859,-0.00335807,0.00181063,-0.0055977,-0.112874,-0.0152731,-0.837943,0,0,0,-0.033633,-0.0321728,-0.205058,-0.220051,-0.837858,0,0,0,0,0,0,0,0,0,0,0.266629,-0.328546,0,-1.5,0,0,0,0,-0.033633,-0.0321728,0,0,0,0,-0.205058,-0.220051,1.9603e-19,0,0,0,0,0,0,0,0,0,1,0.0353901
6429,1.17188,0,-1.4668,-0.00405917,0.00186989,-0.00604168,-0.112968,-0.0152648,-0.83803,0,0,0,-0.037015,-0.0358147,-0.214968,-0.231918,-0.837943,0,0,0,0,0,0,0,0,0,0,0.271139,-0.327231,0,-1.5,0,0,0,0,-0.037015,-0.0358147,0,0,0,0,-0.214968,-0.231918,1.9603e-19,0,0,0,0,0,0,0,0,0,1,0.0393962
6444,1.20508,0,1.39062,-0.00315347,0.000992503,-0.00608173,-0.113057,-0.0152615,-0.83812,0,0,0,-0.040329,-0.0394004,-0.224206,-0.242969,-0.83812,0,0,0,0,0,0,0,0,0,0,0.27539,-0.325941,0,-1.5,0,0,0,0,-0.040329,-0.0394004,0,0,0,0,-0.224206,-0.242969,1.9603e-19,0,0,0,0,0,0,0,0,0,1,0.0433405
6460,1.23828,0,-6.89648,-0.00428029,0.000120692,-0.00540663,-0.113149,-0.0152795,-0.838206,0,0,0,-0.0440192,-0.043411,-0.233997,-0.254677,-0.838206,0,0,0,0,0,0,0,0,0,0,0.279918,-0.324558,0,-1.5,0,0,0,0,-0.0440192,-0.043411,0,0,0,0,-0.233997,-0.254677,1.9603e-19,0,0,0,0,0,0,0,0,0,1,0.0477521
6484,1.30469,0,0.298828,-0.00372527,-7.30892e-05,-0.00577282,-0.113348,-0.0153092,-0.838378,-3.9013,-0.162464,-0.22595,-0.0498933,-0.0498319,-0.248573,-0.272104,-0.838206,0,0,303,21,303,21,421,35,291,137,0.286722,-0.322443,0,-1.5,0,0,0,0,-0.0498933,-0.0498319,0,0,0,0,-0.248573,-0.272104,16900,0,0,0,0,0,0,0,0,0,1,0.0548151
6500,1.32031,0.0273438,2.52441,-0.00311853,0.00153918,-0.00570512,-0.113415,-0.015311,-0.838465,-3.9013,-0.162464,-0.22595,-0.0539686,-0.0543029,-0.2582,-0.28361,-0.838465,0,0,303,21,303,21,421,35,291,137,0.291295,-0.320925,0,-1.5,0,0,0,0,-0.0539686,-0.0543029,0,0,0,0,-0.2582,-0.28361,16900,0,0,0,0,0,0,0,0,0,1,0.0597332
6515,1.32031,0.0605469,5.1582,-0.00275191,0.00116153,-0.0063149,-0.113494,-0.0153242,-0.838554,-3.9013,-0.162464,-0.22595,-0.0579284,-0.0586608,-0.267165,-0.29432,-0.838554,0,0,303,21,303,21,421,35,291,137,0.295566,-0.319515,0,-1.5,0,0,0,0,-0.0579284,-0.0586608,0,0,0,0,-0.267165,-0.29432,16900,0,0,0,0,0,0,0,0,0,1,0.0645268
6531,1.30176,0.09375,-2.65137,-0.00283214,0.00055022,-0.00651345,-0.113568,-0.015332,-0.838647,-3.9013,-0.162464,-0.22595,-0.0622999,-0.0634856,-0.276662,-0.305664,-0.838647,0,0,303,21,303,21,421,35,291,137,0.300128,-0.317979,0,-1.5,0,0,0,0,-0.0622999,-0.0634856,0,0,0,0,-0.276662,-0.305664,16900,0,0,0,0,0,0,0,0,0,1,0.0698342
6546,1.26855,0.126953,5.97559,-0.00247073,0.000368521,-0.00663822,-0.113636,-0.0153473,-0.838732,-3.9013,-0.162464,-0.22595,-0.0665355,-0.0681728,-0.285507,-0.316226,-0.838732,0,0,303,21,303,21,421,35,291,137,0.304412,-0.316509,0,-1.5,0,0,0,0,-0.0665355,-0.0681728,0,0,0,0,-0.285507,-0.316226,16900,0,0,0,0,0,0,0,0,0,1,0.0749901
6562,1.23535,0.149414,2.47363,-0.00118622,0.00113048,-0.00742202,-0.113696,-0.015355,-0.838832,-3.89347,-0.163597,-0.228717,-0.0712021,-0.07335,-0.294877,-0.327413,-0.838832,0,0,303,21,303,21,421,35,291,137,0.308989,-0.314904,0,-1.5,0,0,0,0,-0.0712021,-0.07335,0,0,0,0,-0.294877,-0.327413,16900,0,0,0,0,0,0,0,0,0,1,0.080685
6579,1.16895,0.149414,2.06152,-0.00329149,-7.56063e-06,-0.00552514,-0.113865,-0.0153741,-0.838989,-3.89347,-0.163597,-0.228717,-0.0763239,-0.079046,-0.304759,-0.33921,-0.838914,0,0,303,21,303,21,421,35,291,137,0.313856,-0.313171,0,-1.5,0,0,0,0,-0.0763239,-0.079046,0,0,0,0,-0.304759,-0.33921,16900,0,0,0,0,0,0,0,0,0,1,0.0869506
6600,1.14941,0.133789,-1.49805,-0.00433869,0.000605381,-0.00582605,-0.113955,-0.0153828,-0.839069,-3.89347,-0.163597,-0.228717,-0.0829047,-0.0863853,-0.316878,-0.353672,-0.839069,0,0,303,21,303,21,421,35,291,137,0.319896,-0.310955,0,-1.5,0,0,0,0,-0.0829047,-0.0863853,0,0,0,0,-0.316878,-0.353672,16900,0,0,0,0,0,0,0,0,0,1,0.0950239
6617,1.14941,0.133789,-1.49805,-0.00433869,0.000605381,-0.00582605,-0.113955,-0.0153828,-0.839069,-3.92047,-0.162158,-0.223645,-0.0883988,-0.0925256,-0.326603,-0.365272,-0.839069,0,0,302,24,302,24,421,35,291,137,0.324771,-0.309165,0,-1.5,0,0,0,0,-0.0883988,-0.0925256,0,0,0,0,-0.326603,-0.365272,16380,0,0,0,0,0,0,0,0,0,1,0.101778
6643,1.24902,0.0341797,2.1543,-0.00442927,0.000442339,-0.00660346,-0.114237,-0.0154054,-0.839331,-3.92047,-0.162158,-0.223645,-0.0971708,-0.102357,-0.341358,-0.382866,-0.839331,0,0,302,24,302,24,421,35,291,137,0.332295,-0.306259,0,-1.5,0,0,0,0,-0.0971708,-0.102357,0,0,0,0,-0.341358,-0.382866,16380,0,0,0,0,0,0,0,0,0,1,0.112593
6658,1.24902,0.0341797,2.1543,-0.00442927,0.000442339,-0.00660346,-0.114237,-0.0154054,-0.839331,-3.9025,-0.163141,-0.223139,-0.102371,-0.108194,-0.34979,-0.392913,-0.839331,0,0,303,21,303,21,421,35,291,137,0.336614,-0.304603,0,-1.5,0,0,0,0,-0.102371,-0.108194,0,0,0,0,-0.34979,-0.392913,16770,0,0,0,0,0,0,0,0,0,1,0.119014
6673,1.24902,0.0341797,2.1543,-0.00442927,0.000442339,-0.00660346,-0.114237,-0.0154054,-0.839331,-3.9025,-0.163141,-0.223139,-0.107698,-0.114185,-0.358159,-0.402885,-0.839331,0,0,303,21,303,21,421,35,291,137,0.340937,-0.302919,0,-1.5,0,0,0,0,-0.107698,-0.114185,0,0,0,0,-0.358159,-0.402885,16770,0,0,0,0,0,0,0,0,0,1,0.125603
6689,1.29199,0.0292969,-2.67676,-0.00218805,0.000445202,-0.00612698,-0.114621,-0.0154195,-0.839676,-3.9025,-0.163141,-0.223139,-0.113522,-0.120742,-0.367034,-0.413453,-0.839592,0,0,303,21,303,21,421,35,291,137,0.34559,-0.301003,0,-1.5,0,0,0,0,-0.113522,-0.120742,0,0,0,0,-0.367034,-0.413453,16770,0,0,0,0,0,0,0,0,0,1,0.132816
6704,1.29199,0.0625,5.9668,-0.00471662,0.00122306,-0.00616971,-0.114719,-0.015417,-0.839761,-3.9025,-0.163141,-0.223139,-0.119108,-0.127039,-0.375316,-0.423304,-0.839676,0,0,303,21,303,21,421,35,291,137,0.349943,-0.299234,0,-1.5,0,0,0,0,-0.119108,-0.127039,0,0,0,0,-0.375316,-0.423304,16770,0,0,0,0,0,0,0,0,0,1,0.139743
6720,1.29199,0.0957031,2.46094,-0.00361912,0.000790996,-0.00526127,-0.114798,-0.015414,-0.839841,-3.9025,-0.163141,-0.223139,-0.125205,-0.133922,-0.384093,-0.43374,-0.839761,0,0,303,21,303,21,421,35,291,137,0.354593,-0.297317,0,-1.5,0,0,0,0,-0.125205,-0.133922,0,0,0,0,-0.384093,-0.43374,16770,0,0,0,0,0,0,0,0,0,1,0.147314
6737,1.29199,0.0957031,2.46094,-0.00361912,0.000790996,-0.00526127,-0.114798,-0.015414,-0.839841,-3.9114,-0.162481,-0.222194,-0.131442,-0.14097,-0.392818,-0.444105,-0.839841,0,0,303,22,303,22,421,35,291,137,0.35925,-0.295373,0,-1.5,0,0,0,0,-0.131442,-0.14097,0,0,0,0,-0.392818,-0.444105,16640,0,0,0,0,0,0,0,0,0,1,0.155068
6752,1.29199,0.162109,2.05566,-0.00205248,0.000896205,-0.00593188,-0.114916,-0.0154265,-0.840014,-3.9114,-0.162481,-0.222194,-0.137819,-0.148184,-0.401479,-0.454391,-0.840014,0,0,303,22,303,22,421,35,291,137,0.363924,-0.293364,0,-1.5,0,0,0,0,-0.137819,-0.148184,0,0,0,0,-0.401479,-0.454391,16640,0,0,0,0,0,0,0,0,0,1,0.163003
6768,1.29199,0.174805,-1.43945,-0.00329963,0.000406804,-0.0059317,-0.114994,-0.015442,-0.840096,-3.90951,-0.157389,-0.223471,-0.144333,-0.155562,-0.410084,-0.464607,-0.840096,0,0,303,22,303,22,421,35,290,137,0.368594,-0.291357,0,-1.5,0,0,0,0,-0.144333,-0.155562,0,0,0,0,-0.410084,-0.464607,16768,0,0,0,0,0,0,0,0,0,1,0.171118
6784,1.29199,0.108398,3.04297,-0.002388,0.000610381,-0.00611559,-0.115063,-0.0154576,-0.840184,-3.90951,-0.157389,-0.223471,-0.150981,-0.163099,-0.418627,-0.474748,-0.840184,0,0,303,22,303,22,421,35,290,137,0.37327,-0.289318,0,-1.5,0,0,0,0,-0.150981,-0.163099,0,0,0,0,-0.418627,-0.474748,16768,0,0,0,0,0,0,0,0,0,1,0.179409
6799,1.29199,0.0419922,-4.68457,-0.00221543,0.000602372,-0.00619355,-0.115135,-0.0154731,-0.840266,-3.90788,-0.159241,-0.221379,-0.157335,-0.170309,-0.42658,-0.484188,-0.840266,0,0,303,22,303,22,421,35,290,136,0.377658,-0.287379,0,-1.5,0,0,0,0,-0.157335,-0.170309,0,0,0,0,-0.42658,-0.484188,16768,0,0,0,0,0,0,0,0,0,1,0.18734
6811,1.29199,0.0419922,-4.68457,-0.00221543,0.000602372,-0.00619355,-0.115135,-0.0154731,-0.840266,-3.90788,-0.159241,-0.221379,-0.1625,-0.176174,-0.432902,-0.491691,-0.840266,0,0,303,22,303,22,421,35,290,136,0.381163,-0.285835,0,-1.5,0,0,0,0,-0.1625,-0.176174,0,0,0,0,-0.432902,-0.491691,16768,0,0,0,0,0,0,0,0,0,1,0.193791
6827,1.29199,0,-6.61328,-0.00220698,0.000770785,-0.00616221,-0.115309,-0.0155108,-0.840526,-3.90788,-0.159241,-0.221379,-0.169515,-0.184145,-0.441281,-0.501636,-0.840437,0,0,303,22,303,22,421,35,290,136,0.385864,-0.283682,0,-1.5,0,0,0,0,-0.169515,-0.184145,0,0,0,0,-0.441281,-0.501636,16768,0,0,0,0,0,0,0,0,0,1,0.20256
6843,1.29199,0,-2.375,-0.00136395,7.19691e-06,-0.00647869,-0.115374,-0.0155326,-0.840614,-3.89468,-0.165819,-0.227708,-0.17666,-0.192272,-0.449604,-0.511512,-0.840526,0,0,303,22,303,22,421,35,291,137,0.390562,-0.281532,0,-1.5,0,0,0,0,-0.17666,-0.192272,0,0,0,0,-0.449604,-0.511512,16640,0,0,0,0,0,0,0,0,0,1,0.2115
6859,1.29199,0,6.50391,-0.000252505,0.000287923,-0.00662049,-0.115422,-0.0155416,-0.840699,-3.89468,-0.165819,-0.227708,-0.183941,-0.20056,-0.457873,-0.521323,-0.840699,0,0,303,22,303,22,421,35,291,137,0.395276,-0.279317,0,-1.5,0,0,0,0,-0.183941,-0.20056,0,0,0,0,-0.457873,-0.521323,16640,0,0,0,0,0,0,0,0,0,1,0.220616
6875,1.29199,0,1.13184,-0.00356054,0.000600619,-0.0054518,-0.115508,-0.0155423,-0.840784,-3.90974,-0.1567,-0.223791,-0.191351,-0.209,-0.466083,-0.53106,-0.840784,0,0,303,22,303,22,421,35,290,137,0.399986,-0.277109,0,-1.5,0,0,0,0,-0.191351,-0.209,0,0,0,0,-0.466083,-0.53106,16768,0,0,0,0,0,0,0,0,0,1,0.2299
6891,1.29199,0,-1.33398,-0.00248044,0.000334902,-0.00677114,-0.115573,-0.0155506,-0.840873,-3.90974,-0.1567,-0.223791,-0.198891,-0.217596,-0.474239,-0.540728,-0.840873,0,0,303,22,303,22,421,35,290,137,0.404703,-0.27487,0,-1.5,0,0,0,0,-0.198891,-0.217596,0,0,0,0,-0.474239,-0.540728,16768,0,0,0,0,0,0,0,0,0,1,0.239355
6906,1.29199,0,-1.33398,-0.00248044,0.000334902,-0.00677114,-0.115573,-0.0155506,-0.840873,-3.91167,-0.16129,-0.222531,-0.206078,-0.225794,-0.48183,-0.549726,-0.840873,0,0,303,22,303,22,421,35,291,137,0.40912,-0.272779,0,-1.5,0,0,0,0,-0.206078,-0.225794,0,0,0,0,-0.48183,-0.549726,16640,0,0,0,0,0,0,0,0,0,1,0.248373
6923,1.29199,0,0.938477,-0.00115854,0.000569055,-0.00468219,-0.115704,-0.0155603,-0.841035,-3.91167,-0.16129,-0.222531,-0.213872,-0.23469,-0.489872,-0.559255,-0.841035,0,0,303,22,303,22,421,35,291,137,0.413854,-0.270454,0,-1.5,0,0,0,0,-0.213872,-0.23469,0,0,0,0,-0.489872,-0.559255,16640,0,0,0,0,0,0,0,0,0,1,0.258159
6939,1.29199,0,3.11816,-0.0022444,0.00131361,-0.00603455,-0.11582,-0.015577,-0.841202,-3.91169,-0.161192,-0.222552,-0.222293,-0.244308,-0.498358,-0.569306,-0.841035,0,0,303,22,303,22,421,35,291,137,0.418873,-0.268025,0,-1.5,0,0,0,0,-0.222293,-0.244308,0,0,0,0,-0.498358,-0.569306,16640,0,0,0,0,0,0,0,0,0,1,0.268739
6954,1.29199,0,-4.74512,-0.00204829,6.69693e-05,-0.00556858,-0.11588,-0.015593,-0.84128,-3.91169,-0.161192,-0.222552,-0.229841,-0.252933,-0.505791,-0.578108,-0.841202,0,0,303,22,303,22,421,35,291,137,0.423322,-0.265785,0,-1.5,0,0,0,0,-0.229841,-0.252933,0,0,0,0,-0.505791,-0.578108,16640,0,0,0,0,0,0,0,0,0,1,0.278226
6970,1.29199,0,-4.74512,-0.00204829,6.69693e-05,-0.00556858,-0.11588,-0.015593,-0.84128,-3.91174,-0.160819,-0.222609,-0.238016,-0.26228,-0.513674,-0.587439,-0.84128,0,0,303,22,303,22,421,35,291,137,0.428066,-0.26341,0,-1.5,0,0,0,0,-0.238016,-0.26228,0,0,0,0,-0.513674,-0.587439,16640,0,0,0,0,0,0,0,0,0,1,0.288508
6988,1.23633,0,5.75391,-0.00228276,0.000698233,-0.00617701,-0.116002,-0.0156303,-0.841453,-3.91174,-0.160819,-0.222609,-0.246843,-0.272379,-0.521986,-0.597279,-0.841453,0,0,303,22,303,22,421,35,291,137,0.433121,-0.260816,0,-1.5,0,0,0,0,-0.246843,-0.272379,0,0,0,0,-0.521986,-0.597279,16640,0,0,0,0,0,0,0,0,0,1,0.299617
7003,1.16992,0,-6.625,-0.000655331,0.000566652,-0.00607693,-0.116041,-0.0156407,-0.841544,-3.91178,-0.160728,-0.222659,-0.255274,-0.282029,-0.529752,-0.606472,-0.841544,0,0,303,22,303,22,421,35,291,137,0.437876,-0.258377,0,-1.5,0,0,0,0,-0.255274,-0.282029,0,0,0,0,-0.529752,-0.606472,16640,0,0,0,0,0,0,0,0,0,1,0.310232
7018,1.16309,0,-2.38086,0.000401924,0.000650952,-0.00410584,-0.116077,-0.0156587,-0.841609,-3.91178,-0.160728,-0.222659,-0.263288,-0.291207,-0.53698,-0.615028,-0.841609,0,0,303,22,303,22,421,35,291,137,0.442336,-0.256076,0,-1.5,0,0,0,0,-0.263288,-0.291207,0,0,0,0,-0.53698,-0.615028,16640,0,0,0,0,0,0,0,0,0,1,0.320327
7034,1.19629,0,6.52344,-0.000661602,-0.000686321,-0.00617442,-0.116133,-0.0156761,-0.841704,-3.89505,-0.164402,-0.228247,-0.271958,-0.301139,-0.544636,-0.62409,-0.841704,0,0,303,22,303,22,421,35,291,137,0.4471,-0.253582,0,-1.5,0,0,0,0,-0.271958,-0.301139,0,0,0,0,-0.544636,-0.62409,16640,0,0,0,0,0,0,0,0,0,1,0.331253
7050,1.2627,0,-1.32812,-0.0031351,-0.000513024,-0.0072319,-0.116243,-0.0157083,-0.841884,-3.89505,-0.164402,-0.228247,-0.28075,-0.311217,-0.552234,-0.633084,-0.841704,0,0,303,22,303,22,421,35,291,137,0.451861,-0.251104,0,-1.5,0,0,0,0,-0.28075,-0.311217,0,0,0,0,-0.552234,-0.633084,16640,0,0,0,0,0,0,0,0,0,1,0.342338
7066,1.2627,0,-1.32812,-0.0031351,-0.000513024,-0.0072319,-0.116243,-0.0157083,-0.841884,-3.91195,-0.160347,-0.222929,-0.289665,-0.32144,-0.559779,-0.642014,-0.841884,0,0,303,22,303,22,421,35,291,137,0.456641,-0.248517,0,-1.5,0,0,0,0,-0.289665,-0.32144,0,0,0,0,-0.559779,-0.642014,16640,0,0,0,0,0,0,0,0,0,1,0.353584
7083,1.29883,0,0.911133,-0.00232448,8.5799e-05,-0.00760778,-0.116375,-0.0157389,-0.842046,-3.91195,-0.160347,-0.222929,-0.299269,-0.332458,-0.567739,-0.651435,-0.842046,0,0,303,22,303,22,421,35,291,137,0.461724,-0.245751,0,-1.5,0,0,0,0,-0.299269,-0.332458,0,0,0,0,-0.567739,-0.651435,16640,0,0,0,0,0,0,0,0,0,1,0.365704
7099,1.29883,0,-1.03613,-0.0022263,-0.000110899,-0.00640897,-0.116454,-0.0157527,-0.84214,-3.91127,-0.157961,-0.226201,-0.308431,-0.342973,-0.575184,-0.660244,-0.84214,0,0,303,22,303,22,421,35,291,137,0.466511,-0.243146,0,-1.5,0,0,0,0,-0.308431,-0.342973,0,0,0,0,-0.575184,-0.660244,16770,0,0,0,0,0,0,0,0,0,1,0.377271
7116,1.29883,0,3.13965,-0.00170862,0.00096049,-0.00663819,-0.116513,-0.0157571,-0.842235,-3.91127,-0.157961,-0.226201,-0.317712,-0.353629,-0.582578,-0.66899,-0.842235,0,0,303,22,303,22,421,35,291,137,0.471304,-0.240514,0,-1.5,0,0,0,0,-0.317712,-0.353629,0,0,0,0,-0.582578,-0.66899,16770,0,0,0,0,0,0,0,0,0,1,0.388992
7132,1.29492,0.00585938,-4.68945,-0.0070946,0.0128294,-0.00624473,-0.116627,-0.0156547,-0.842339,-3.92283,-0.157884,-0.21928,-0.32711,-0.364424,-0.589928,-0.67767,-0.842339,0,0,303,22,303,22,418,35,291,137,0.476103,-0.237854,0,-1.5,0,0,0,0,-0.32711,-0.364424,0,0,0,0,-0.589928,-0.67767,16256,0,0,0,0,0,0,0,0,0,1,0.400867
7148,1.22852,0.0722656,5.74707,-0.0131155,-0.0052322,-0.0056312,-0.117017,-0.0155914,-0.842498,-3.92283,-0.157884,-0.21928,-0.336626,-0.375358,-0.597235,-0.686279,-0.842339,0,0,303,22,303,22,418,35,291,137,0.4809,-0.235221,0,-1.5,0,0,0,0,-0.336626,-0.375358,0,0,0,0,-0.597235,-0.686279,16256,0,0,0,0,0,0,0,0,0,1,0.412893
7164,1.19531,0.105469,-6.64062,-0.00976809,0.00466435,-0.00608176,-0.1172,-0.0155743,-0.842588,-3.90833,-0.169153,-0.222809,-0.346864,-0.387125,-0.604997,-0.695388,-0.842588,0,0,305,21,305,21,421,36,291,137,0.486033,-0.232277,0,-1.5,0,0,0,0,-0.346864,-0.387125,0,0,0,0,-0.604997,-0.695388,16770,0,0,0,0,0,0,0,0,0,1,0.425837
7179,1.17578,0.131836,-2.38086,-0.00485846,0.00168432,-0.00636877,-0.117311,-0.0155528,-0.842678,-3.90833,-0.169153,-0.222809,-0.356005,-0.397633,-0.611813,-0.703375,-0.842678,0,0,305,21,305,21,421,36,291,137,0.490562,-0.22972,0,-1.5,0,0,0,0,-0.356005,-0.397633,0,0,0,0,-0.611813,-0.703375,16770,0,0,0,0,0,0,0,0,0,1,0.437396
7196,1.17676,0.131836,6.50488,-0.00093098,-0.000668487,-0.007146,-0.117375,-0.0155923,-0.842766,-3.9117,-0.15856,-0.222276,-0.366493,-0.409692,-0.619494,-0.712367,-0.842766,0,0,303,22,303,22,421,35,291,137,0.495703,-0.226801,0,-1.5,0,0,0,0,-0.366493,-0.409692,0,0,0,0,-0.619494,-0.712367,16640,0,0,0,0,0,0,0,0,0,1,0.450662
7211,1.17676,0.131836,6.50488,-0.00093098,-0.000668487,-0.007146,-0.117375,-0.0155923,-0.842766,-3.9117,-0.15856,-0.222276,-0.375849,-0.420452,-0.626217,-0.72024,-0.842766,0,0,303,22,303,22,421,35,291,137,0.500236,-0.224242,0,-1.5,0,0,0,0,-0.375849,-0.420452,0,0,0,0,-0.626217,-0.72024,16640,0,0,0,0,0,0,0,0,0,1,0.462497
7226,1.24316,0.131836,-1.3623,0.000439132,-0.000148796,-0.00584207,-0.117442,-0.0155853,-0.842956,-3.9117,-0.15856,-0.222276,-0.385307,-0.431331,-0.632895,-0.728057,-0.842956,0,0,303,22,303,22,421,35,291,137,0.504782,-0.221564,0,-1.5,0,0,0,0,-0.385307,-0.431331,0,0,0,0,-0.632895,-0.728057,16640,0,0,0,0,0,0,0,0,0,1,0.474465
7242,1.30273,0.131836,0.957031,-0.00446643,0.00215475,-0.00624079,-0.117584,-0.0155991,-0.843123,-3.90674,-0.163995,-0.228544,-0.395508,-0.443067,-0.639971,-0.736335,-0.842956,0,0,305,21,305,21,421,36,291,137,0.509627,-0.218787,0,-1.5,0,0,0,0,-0.395508,-0.443067,0,0,0,0,-0.639971,-0.736335,17030,0,0,0,0,0,0,0,0,0,1,0.487374
7258,1.30273,0.131836,-1.06055,-0.00440532,0.000391936,-0.00643105,-0.117672,-0.0156096,-0.843211,-3.90674,-0.163995,-0.228544,-0.405821,-0.454935,-0.646999,-0.744553,-0.843123,0,0,305,21,305,21,421,36,291,137,0.514483,-0.215899,0,-1.5,0,0,0,0,-0.405821,-0.454935,0,0,0,0,-0.646999,-0.744553,17030,0,0,0,0,0,0,0,0,0,1,0.500429
7274,1.30273,0.131836,3.09668,-0.00502897,0.00126743,-0.00556986,-0.11778,-0.0156121,-0.843293,-3.92406,-0.161692,-0.220232,-0.416247,-0.466934,-0.653994,-0.752726,-0.843293,0,0,305,21,305,21,421,36,291,137,0.519349,-0.212984,0,-1.5,0,0,0,0,-0.416247,-0.466934,0,0,0,0,-0.653994,-0.752726,16900,0,0,0,0,0,0,0,0,0,1,0.513627
7290,1.30273,0.129883,-4.69824,-0.00587757,0.000644678,-0.00598418,-0.1179,-0.0156206,-0.84337,-3.92406,-0.161692,-0.220232,-0.426784,-0.479063,-0.660947,-0.760844,-0.84337,0,0,305,21,305,21,421,36,291,137,0.524218,-0.210093,0,-1.5,0,0,0,0,-0.426784,-0.479063,0,0,0,0,-0.660947,-0.760844,16900,0,0,0,0,0,0,0,0,0,1,0.526969
7306,1.30273,0.129883,-4.69824,-0.00587757,0.000644678,-0.00598418,-0.1179,-0.0156206,-0.84337,-3.9326,-0.16663,-0.218795,-0.437431,-0.491321,-0.667855,-0.768907,-0.84337,0,0,306,22,306,22,421,36,291,137,0.52909,-0.207218,0,-1.5,0,0,0,0,-0.437431,-0.491321,0,0,0,0,-0.667855,-0.768907,16770,0,0,0,0,0,0,0,0,0,1,0.540453
7322,1.30273,0.0634766,5.76855,-0.00262269,0.00112347,-0.00619777,-0.118069,-0.0156318,-0.843524,-3.9326,-0.16663,-0.218795,-0.448187,-0.503705,-0.674714,-0.776911,-0.843524,0,0,306,22,306,22,421,36,291,137,0.533971,-0.204238,0,-1.5,0,0,0,0,-0.448187,-0.503705,0,0,0,0,-0.674714,-0.776911,16770,0,0,0,0,0,0,0,0,0,1,0.554076
7338,1.30273,0.0634766,5.76855,-0.00262269,0.00112347,-0.00619777,-0.118069,-0.0156318,-0.843524,-3.90951,-0.162546,-0.222911,-0.459052,-0.516217,-0.681532,-0.784862,-0.843524,0,0,305,21,305,21,421,35,291,137,0.538853,-0.201316,0,-1.5,0,0,0,0,-0.459052,-0.516217,0,0,0,0,-0.681532,-0.784862,16900,0,0,0,0,0,0,0,0,0,1,0.567839
7354,1.30273,0,6.53809,-0.00299677,-0.000198657,-0.00499206,-0.118267,-0.0156679,-0.843764,-3.90951,-0.162546,-0.222911,-0.470026,-0.528855,-0.688303,-0.792755,-0.84369,0,0,305,21,305,21,421,35,291,137,0.543744,-0.198281,0,-1.5,0,0,0,0,-0.470026,-0.528855,0,0,0,0,-0.688303,-0.792755,16900,0,0,0,0,0,0,0,0,0,1,0.581741
7369,1.30273,0,6.53809,-0.00299677,-0.000198657,-0.00499206,-0.118267,-0.0156679,-0.843764,-3.92754,-0.162814,-0.216238,-0.480411,-0.540818,-0.694613,-0.800109,-0.843764,0,0,305,22,305,22,421,35,291,137,0.548333,-0.195458,0,-1.5,0,0,0,0,-0.480411,-0.540818,0,0,0,0,-0.694613,-0.800109,16640,0,0,0,0,0,0,0,0,0,1,0.594899
7385,1.30273,0,-1.29688,-0.00338677,-0.000193389,-0.00553243,-0.118443,-0.0156933,-0.843935,-3.92754,-0.162814,-0.216238,-0.491593,-0.553699,-0.701301,-0.807902,-0.843935,0,0,305,22,305,22,421,35,291,137,0.553234,-0.192372,0,-1.5,0,0,0,0,-0.491593,-0.553699,0,0,0,0,-0.701301,-0.807902,16640,0,0,0,0,0,0,0,0,0,1,0.609069
7402,1.30273,0,-0.243164,-0.00335519,-7.96698e-06,-0.0061175,-0.118535,-0.0157068,-0.844019,-3.9185,-0.157527,-0.222526,-0.503593,-0.567524,-0.708369,-0.816134,-0.844019,0,0,303,22,303,22,421,36,291,137,0.55845,-0.189121,0,-1.5,0,0,0,0,-0.503593,-0.567524,0,0,0,0,-0.708369,-0.816134,16640,0,0,0,0,0,0,0,0,0,1,0.624276
7417,1.30273,0,0.90918,-0.00509303,0.000421146,-0.00617411,-0.118631,-0.0157141,-0.844109,-3.9185,-0.157527,-0.222526,-0.513562,-0.579009,-0.714154,-0.822869,-0.844109,0,0,303,22,303,22,421,36,291,137,0.562749,-0.186412,0,-1.5,0,0,0,0,-0.513562,-0.579009,0,0,0,0,-0.714154,-0.822869,16640,0,0,0,0,0,0,0,0,0,1,0.63691
7432,1.30273,0,-1.02734,-0.00192519,0.00105556,-0.00738055,-0.118693,-0.0157183,-0.844205,-3.92527,-0.16264,-0.222027,-0.525055,-0.592253,-0.720726,-0.830517,-0.844205,0,0,305,22,305,22,421,36,291,137,0.567668,-0.183298,0,-1.5,0,0,0,0,-0.525055,-0.592253,0,0,0,0,-0.720726,-0.830517,16770,0,0,0,0,0,0,0,0,0,1,0.651479
7448,1.30273,0,-1.02734,-0.00192519,0.00105556,-0.00738055,-0.118693,-0.0157183,-0.844205,-3.92527,-0.16264,-0.222027,-0.536653,-0.605619,-0.727251,-0.838107,-0.844205,0,0,305,22,305,22,421,36,291,137,0.57259,-0.180216,0,-1.5,0,0,0,0,-0.536653,-0.605619,0,0,0,0,-0.727251,-0.838107,16770,0,0,0,0,0,0,0,0,0,1,0.666181
7464,1.30273,0,-4.69727,-0.00231449,0.000905366,-0.00632604,-0.118817,-0.0157329,-0.844375,-3.94199,-0.165267,-0.213294,-0.548357,-0.619108,-0.733731,-0.845643,-0.844375,0,0,306,22,306,22,421,36,291,137,0.577517,-0.177014,0,-1.5,0,0,0,0,-0.548357,-0.619108,0,0,0,0,-0.733731,-0.845643,16640,0,0,0,0,0,0,0,0,0,1,0.681019
7480,1.30273,0,5.7793,-0.00274361,0.000412487,-0.00678582,-0.118933,-0.0157496,-0.844537,-3.94199,-0.165267,-0.213294,-0.560163,-0.632715,-0.740167,-0.853125,-0.844375,0,0,306,22,306,22,421,36,291,137,0.582448,-0.173887,0,-1.5,0,0,0,0,-0.560163,-0.632715,0,0,0,0,-0.740167,-0.853125,16640,0,0,0,0,0,0,0,0,0,1,0.695986
7496,1.30273,0,-6.62891,-0.00186061,0.00146256,-0.00575821,-0.118998,-0.0157506,-0.84462,-3.94207,-0.164902,-0.213369,-0.572073,-0.646443,-0.74657,-0.860563,-0.84462,0,0,306,22,306,22,421,36,291,137,0.587154,-0.170388,0,-1.5,0,0,0,0,-0.572073,-0.646443,0,0,0,0,-0.74657,-0.860563,16640,0,0,0,0,0,0,0,0,0,1,0.711087
7512,1.30273,0,-2.38379,-0.00295279,-0.00161523,-0.00564217,-0.119057,-0.0157818,-0.84469,-3.94207,-0.164902,-0.213369,-0.584083,-0.660287,-0.752929,-0.867948,-0.84469,0,0,306,22,306,22,421,36,291,137,0.590907,-0.166119,0,-1.5,0,0,0,0,-0.584083,-0.660287,0,0,0,0,-0.752929,-0.867948,16640,0,0,0,0,0,0,0,0,0,1,0.726316
7528,1.30273,0,6.50781,-0.00192408,0.0018047,-0.00532747,-0.119123,-0.0157821,-0.844775,-3.91217,-0.155922,-0.222858,-0.596196,-0.674252,-0.759245,-0.875283,-0.844775,0,0,303,22,303,22,421,35,291,137,0.594673,-0.161826,0,-1.5,0,0,0,0,-0.596196,-0.674252,0,0,0,0,-0.759245,-0.875283,16640,0,0,0,0,0,0,0,0,0,1,0.741677
7545,1.30273,0,6.50781,-0.00192408,0.0018047,-0.00532747,-0.119123,-0.0157821,-0.844775,-3.91217,-0.155922,-0.222858,-0.609177,-0.689217,-0.765906,-0.883016,-0.844775,0,0,303,22,303,22,421,35,291,137,0.598689,-0.157302,0,-1.5,0,0,0,0,-0.609177,-0.689217,0,0,0,0,-0.765906,-0.883016,16640,0,0,0,0,0,0,0,0,0,1,0.758138
7561,1.30273,0.0703125,-0.25293,-0.00154442,0.000853702,-0.00720549,-0.119338,-0.0158215,-0.845043,-3.91098,-0.165203,-0.221991,-0.621496,-0.703421,-0.772131,-0.890227,-0.844971,0,0,305,22,305,22,421,35,291,137,0.602475,-0.152915,0,-1.5,0,0,0,0,-0.621496,-0.703421,0,0,0,0,-0.772131,-0.890227,16640,0,0,0,0,0,0,0,0,0,1,0.773763
7577,1.30273,0.103516,0.924805,-0.00171256,0.000207803,-0.0067301,-0.119399,-0.0158351,-0.845134,-3.91098,-0.165203,-0.221991,-0.633914,-0.717738,-0.778324,-0.897411,-0.845134,0,0,305,22,305,22,421,35,291,137,0.606276,-0.148528,0,-1.5,0,0,0,0,-0.633914,-0.717738,0,0,0,0,-0.778324,-0.897411,16640,0,0,0,0,0,0,0,0,0,1,0.789511
7593,1.30273,0.132812,-1.04492,-0.0023048,0.000609203,-0.00678176,-0.119476,-0.0158401,-0.845219,-3.91098,-0.165203,-0.221991,-0.64643,-0.732169,-0.784477,-0.904547,-0.845219,0,0,305,22,305,22,421,35,291,137,0.610091,-0.144173,0,-1.5,0,0,0,0,-0.64643,-0.732169,0,0,0,0,-0.784477,-0.904547,16640,0,0,0,0,0,0,0,0,0,1,0.805386
7609,1.30273,0.132812,-1.04492,-0.0023048,0.000609203,-0.00678176,-0.119476,-0.0158401,-0.845219,-3.91955,-0.162856,-0.217103,-0.659046,-0.746716,-0.790588,-0.911632,-0.845219,0,0,306,21,306,21,422,36,290,136,0.613921,-0.139855,0,-1.5,0,0,0,0,-0.659046,-0.746716,0,0,0,0,-0.790588,-0.911632,17028,0,0,0,0,0,0,0,0,0,1,0.821388
7624,1.30273,0.132812,-4.70898,-0.00249754,0.00114249,-0.00550165,-0.119623,-0.0158598,-0.845386,-3.91955,-0.162856,-0.217103,-0.670959,-0.760455,-0.796278,-0.918227,-0.845386,0,0,306,21,306,21,422,36,290,136,0.615957,-0.13745,0,-1.5,0,0,0,0,-0.670959,-0.760455,0,0,0,0,-0.796278,-0.918227,17028,0,0,0,0,0,0,0,0,0,1,0.8365
7640,1.30273,0.132812,-4.70898,-0.00249754,0.00114249,-0.00550165,-0.119623,-0.0158598,-0.845386,-3.92275,-0.1614,-0.22335,-0.683763,-0.77522,-0.802313,-0.925219,-0.845386,0,0,305,22,305,22,421,36,291,136,0.615957,-0.13745,0,-1.5,0,0,0,0,-0.683763,-0.77522,0,0,0,0,-0.802313,-0.925219,16900,0,0,0,0,0,0,0,0,0,1,0.852742
7656,1.30273,0.105469,-6.60156,-0.00263995,0.00112318,-0.0066291,-0.119827,-0.0159026,-0.845645,-3.92275,-0.1614,-0.22335,-0.696663,-0.790096,-0.808306,-0.93216,-0.845558,0,0,305,22,305,22,421,36,291,136,0.61595,-0.137344,0,-1.5,0,0,0,0,-0.696663,-0.790096,0,0,0,0,-0.808306,-0.93216,16900,0,0,0,0,0,0,0,0,0,1,0.869106
7672,1.30273,0.105469,-6.60156,-0.00263995,0.00112318,-0.0066291,-0.119827,-0.0159026,-0.845645,-3.9048,-0.162385,-0.22696,-0.709657,-0.805081,-0.814264,-0.939059,-0.845645,0,0,305,22,305,22,421,36,290,136,0.615947,-0.137291,0,-1.5,0,0,0,0,-0.709657,-0.805081,0,0,0,0,-0.814264,-0.939059,16899,0,0,0,0,0,0,0,0,0,1,0.885589
7688,1.30273,0.0390625,6.52246,-0.00394258,-0.000340329,-0.00647996,-0.119997,-0.0159339,-0.845821,-3.9048,-0.162385,-0.22696,-0.722746,-0.820176,-0.82018,-0.945909,-0.845821,0,0,305,22,305,22,421,36,290,136,0.61594,-0.137182,0,-1.5,0,0,0,0,-0.722746,-0.820176,0,0,0,0,-0.82018,-0.945909,16899,0,0,0,0,0,0,0,0,0,1,0.902194
7704,1.30273,0.0390625,6.52246,-0.00394258,-0.000340329,-0.00647996,-0.119997,-0.0159339,-0.845821,-3.91536,-0.157532,-0.221816,-0.73593,-0.835382,-0.826066,-0.952722,-0.845821,0,0,305,21,305,21,421,36,290,137,0.61594,-0.137182,0,-1.5,0,0,0,0,-0.73593,-0.835382,0,0,0,0,-0.826066,-0.952722,16899,0,0,0,0,0,0,0,0,0,1,0.91892
7720,1.30273,0,-1.3252,-0.00264542,-0.000773801,-0.00563959,-0.120133,-0.0159675,-0.845982,-3.91536,-0.157532,-0.221816,-0.749207,-0.850695,-0.831912,-0.959486,-0.845982,0,0,305,21,305,21,421,36,290,137,0.615934,-0.137083,0,-1.5,0,0,0,0,-0.749207,-0.850695,0,0,0,0,-0.831912,-0.959486,16899,0,0,0,0,0,0,0,0,0,1,0.935764
7736,1.30273,0,-0.249023,-0.00151002,0.000656701,-0.00503686,-0.120197,-0.0159651,-0.846057,-3.90642,-0.168139,-0.224045,-0.762579,-0.866117,-0.837723,-0.966209,-0.846057,0,0,306,22,306,22,424,35,291,137,0.615932,-0.137037,0,-1.5,0,0,0,0,-0.762579,-0.866117,0,0,0,0,-0.837723,-0.966209,17024,0,0,0,0,0,0,0,0,0,1,0.952729
7752,1.30273,0.0175781,-1.03125,-0.00380273,0.000370609,-0.00531596,-0.120338,-0.0159966,-0.846217,-3.90642,-0.168139,-0.224045,-0.776043,-0.881647,-0.843496,-0.972885,-0.846138,0,0,306,22,306,22,424,35,291,137,0.615929,-0.136987,0,-1.5,0,0,0,0,-0.776043,-0.881647,0,0,0,0,-0.843496,-0.972885,17024,0,0,0,0,0,0,0,0,0,1,0.969811
7769,1.30273,0.0175781,-1.03125,-0.00380273,0.000370609,-0.00531596,-0.120338,-0.0159966,-0.846217,-3.91257,-0.154111,-0.223418,-0.79045,-0.898263,-0.849588,-0.979929,-0.846217,0,0,303,22,303,22,421,35,291,137,0.615926,-0.136938,0,-1.5,0,0,0,0,-0.79045,-0.898263,0,0,0,0,-0.849588,-0.979929,16640,0,0,0,0,0,0,0,0,0,1,0.98809
7784,1.30273,0.0839844,-4.69043,-0.00351558,0.000555658,-0.00567641,-0.120526,-0.0160278,-0.846386,-3.91257,-0.154111,-0.223418,-0.803245,-0.913022,-0.854927,-0.986101,-0.846386,0,0,303,22,303,22,421,35,291,137,0.615919,-0.136834,0,-1.5,0,0,0,0,-0.803245,-0.913022,0,0,0,0,-0.854927,-0.986101,16640,0,0,0,0,0,0,0,0,0,1,1
7801,1.30273,0.0839844,-4.69043,-0.00351558,0.000555658,-0.00567641,-0.120526,-0.0160278,-0.846386,-3.92833,-0.159375,-0.21723,-0.817847,-0.929865,-0.860951,-0.993061,-0.846386,0,0,305,22,305,22,421,35,291,137,0.615919,-0.136834,0,-1.5,0,0,0,0,-0.817847,-0.929865,0,0,0,0,-0.860951,-0.993061,16640,0,0,0,0,0,0,0,0,0,1,1
7816,1.30273,0.103516,5.75977,-0.00226807,0.000303477,-0.00605009,-0.120685,-0.0160415,-0.846557,-3.92833,-0.159375,-0.21723,-0.830811,-0.944818,-0.866229,-0.999157,-0.846557,0,0,305,22,305,22,421,35,291,137,0.615913,-0.136729,0,-1.5,0,0,0,0,-0.830811,-0.944818,0,0,0,0,-0.866229,-0.999157,16640,0,0,0,0,0,0,0,0,0,1,1
7832,1.30273,0.103516,-6.57422,-0.00313054,-0.000342845,-0.00616694,-0.120761,-0.0160554,-0.846634,-3.9127,-0.153462,-0.223581,-0.843856,-0.959864,-0.871482,-1.00522,-0.846634,0,0,303,22,303,22,421,35,291,137,0.61591,-0.136681,0,-1.5,0,0,0,0,-0.843856,-0.959864,0,0,0,0,-0.871482,-1.00522,16640,0,0,0,0,0,0,0,0,0,1,1
7847,1.30273,0.103516,-2.35352,-0.00232905,0.000502167,-0.00563596,-0.120835,-0.0160686,-0.846714,-3.9127,-0.153462,-0.223581,-0.857858,-0.976015,-0.877052,-1.01165,-0.846714,0,0,303,22,303,22,421,35,291,137,0.615907,-0.136632,0,-1.5,0,0,0,0,-0.857858,-0.976015,0,0,0,0,-0.877052,-1.01165,16640,0,0,0,0,0,0,0,0,0,1,1
7864,1.30273,0.103516,6.49121,-0.00125237,0.0006817,-0.00699299,-0.120894,-0.0160811,-0.846802,-3.92587,-0.153952,-0.218735,-0.872832,-0.993288,-0.88293,-1.01843,-0.846802,0,0,303,22,303,22,421,36,291,136,0.615904,-0.136578,0,-1.5,0,0,0,0,-0.872832,-0.993288,0,0,0,0,-0.88293,-1.01843,16640,0,0,0,0,0,0,0,0,0,1,1
7880,1.30273,0.103516,6.49121,-0.00125237,0.0006817,-0.00699299,-0.120894,-0.0160811,-0.846802,-3.92587,-0.153952,-0.218735,-0.887015,-1.00965,-0.88842,-1.02476,-0.846802,0,0,303,22,303,22,421,36,291,136,0.615904,-0.136578,0,-1.5,0,0,0,0,-0.887015,-1.00965,0,0,0,0,-0.88842,-1.02476,16640,0,0,0,0,0,0,0,0,0,1,1
7896,1.30273,0.103516,-0.222656,-0.00336714,0.00146818,-0.00656038,-0.121102,-0.0160745,-0.847071,-3.92583,-0.165922,-0.219659,-0.901286,-1.02611,-0.893869,-1.03105,-0.847071,0,0,306,22,306,22,421,36,291,137,0.615893,-0.136413,0,-1.5,0,0,0,0,-0.901286,-1.02611,0,0,0,0,-0.893869,-1.03105,16640,0,0,0,0,0,0,0,0,0,1,1
7912,1.30273,0.103516,0.935547,-0.00335334,0.00130725,-0.00654834,-0.12118,-0.0160731,-0.847161,-3.92583,-0.165922,-0.219659,-0.915643,-1.04267,-0.899304,-1.0373,-0.847161,0,0,306,22,306,22,421,36,291,137,0.61589,-0.136357,0,-1.5,0,0,0,0,-0.915643,-1.04267,0,0,0,0,-0.899304,-1.0373,16640,0,0,0,0,0,0,0,0,0,1,1
7928,1.30273,0.103516,-1.05371,-0.00349029,0.00138984,-0.00625712,-0.12126,-0.01608,-0.84724,-3.92583,-0.165922,-0.219659,-0.930087,-1.05933,-0.904707,-1.04351,-0.84724,0,0,306,22,306,22,421,36,291,137,0.615887,-0.136308,0,-1.5,0,0,0,0,-0.930087,-1.05933,0,0,0,0,-0.904707,-1.04351,16640,0,0,0,0,0,0,0,0,0,1,1
7944,1.30273,0.103516,-1.05371,-0.00349029,0.00138984,-0.00625712,-0.12126,-0.01608,-0.84724,-3.94957,-0.161545,-0.209295,-0.944617,-1.07609,-0.910073,-1.04967,-0.84724,0,0,306,22,306,22,421,36,291,136,0.615887,-0.136308,0,-1.5,0,0,0,0,-0.944617,-1.07609,0,0,0,0,-0.910073,-1.04967,16640,0,0,0,0,0,0,0,0,0,1,1
7960,1.30273,0.103516,6.4541,-0.00204689,-0.000689937,-0.00554594,-0.121455,-0.016139,-0.847478,-3.94957,-0.161545,-0.209295,-0.959232,-1.09294,-0.915402,-1.05579,-0.847406,0,0,306,22,306,22,421,36,291,136,0.615881,-0.136206,0,-1.5,0,0,0,0,-0.959232,-1.09294,0,0,0,0,-0.915402,-1.05579,16640,0,0,0,0,0,0,0,0,0,1,1
7976,1.30273,0.103516,5.76855,-0.0027819,0.000642783,-0.00583443,-0.121524,-0.0161456,-0.84756,-3.91642,-0.160608,-0.226193,-0.973933,-1.1099,-0.920701,-1.06188,-0.847478,0,0,305,22,305,22,422,36,291,137,0.615878,-0.136161,0,-1.5,0,0,0,0,-0.973933,-1.1099,0,0,0,0,-0.920701,-1.06188,16899,0,0,0,0,0,0,0,0,0,1,1
7991,1.30273,0.103516,-6.62012,-0.00244589,0.00091153,-0.00503304,-0.121591,-0.0161544,-0.847639,-3.91642,-0.160608,-0.226193,-0.987791,-1.12588,-0.925641,-1.06756,-0.847639,0,0,305,22,305,22,422,36,291,137,0.615872,-0.136063,0,-1.5,0,0,0,0,-0.987791,-1.12588,0,0,0,0,-0.925641,-1.06756,16899,0,0,0,0,0,0,0,0,0,1,1
8009,1.30273,0.103516,-6.62012,-0.00244589,0.00091153,-0.00503304,-0.121591,-0.0161544,-0.847639,-3.91098,-0.160142,-0.228349,-1.00452,-1.14518,-0.931531,-1.07432,-0.847639,0,0,306,22,306,22,422,36,290,136,0.615872,-0.136063,0,-1.5,0,0,0,0,-1.00452,-1.14518,0,0,0,0,-0.931531,-1.07432,17160,0,0,0,0,0,0,0,0,0,1,1
8024,1.30273,0.103516,6.55078,-0.00371509,0.00110987,-0.00674284,-0.121739,-0.0161614,-0.847819,-3.91098,-0.160142,-0.228349,-1.01854,-1.16135,-0.936404,-1.07991,-0.847819,0,0,306,22,306,22,422,36,290,136,0.615865,-0.135952,0,-1.5,0,0,0,0,-1.01854,-1.16135,0,0,0,0,-0.936404,-1.07991,17160,0,0,0,0,0,0,0,0,0,1,1
8039,1.30273,0.103516,6.55078,-0.00371509,0.00110987,-0.00674284,-0.121739,-0.0161614,-0.847819,-3.93387,-0.160862,-0.220155,-1.03264,-1.1776,-0.941252,-1.08547,-0.847819,0,0,306,22,306,22,421,36,291,137,0.615865,-0.135952,0,-1.5,0,0,0,0,-1.03264,-1.1776,0,0,0,0,-0.941252,-1.08547,16770,0,0,0,0,0,0,0,0,0,1,1
8055,1.30273,0.103516,-1.29102,-0.00372766,0.00074544,-0.00552895,-0.121894,-0.016164,-0.84799,-3.93387,-0.160862,-0.220155,-1.04775,-1.19503,-0.94639,-1.09136,-0.84799,0,0,306,22,306,22,421,36,291,137,0.615858,-0.135846,0,-1.5,0,0,0,0,-1.04775,-1.19503,0,0,0,0,-0.94639,-1.09136,16770,0,0,0,0,0,0,0,0,0,1,1
8071,1.30273,0.103516,-1.29102,-0.00372766,0.00074544,-0.00552895,-0.121894,-0.016164,-0.84799,-3.92628,-0.157946,-0.223177,-1.06295,-1.21255,-0.951501,-1.09721,-0.84799,0,0,305,22,305,22,421,36,291,137,0.615858,-0.135846,0,-1.5,0,0,0,0,-1.06295,-1.21255,0,0,0,0,-0.951501,-1.09721,16770,0,0,0,0,0,0,0,0,0,1,1
8087,1.30273,0.103516,-1.04004,-0.00204599,0.000758385,-0.0069823,-0.122093,-0.0161858,-0.848238,-3.92628,-0.157946,-0.223177,-1.07822,-1.23017,-0.956571,-1.10301,-0.84799,0,0,305,22,305,22,421,36,291,137,0.615858,-0.135846,0,-1.5,0,0,0,0,-1.07822,-1.23017,0,0,0,0,-0.956571,-1.10301,16770,0,0,0,0,0,0,0,0,0,1,1
8103,1.30273,0.103516,-1.04004,-0.00204599,0.000758385,-0.0069823,-0.122093,-0.0161858,-0.848238,-3.9339,-0.160404,-0.22014,-1.09358,-1.24788,-0.961625,-1.10879,-0.848238,0,0,306,22,306,22,421,36,291,137,0.615849,-0.135694,0,-1.5,0,0,0,0,-1.09358,-1.24788,0,0,0,0,-0.961625,-1.10879,16770,0,0,0,0,0,0,0,0,0,1,1
8119,1.30273,0.103516,-4.72168,-0.00233847,-0.000358724,-0.00542004,-0.122198,-0.0162278,-0.848395,-3.9339,-0.160404,-0.22014,-1.10902,-1.26568,-0.966642,-1.11453,-0.848395,0,0,306,22,306,22,421,36,291,137,0.615843,-0.135597,0,-1.5,0,0,0,0,-1.10902,-1.26568,0,0,0,0,-0.966642,-1.11453,16770,0,0,0,0,0,0,0,0,0,1,1
8135,1.30273,0.103516,6.44922,-0.00129964,0.000292759,-0.00715238,-0.122253,-0.0162404,-0.848485,-3.92427,-0.162044,-0.223424,-1.12454,-1.28357,-0.971629,-1.12023,-0.848485,0,0,306,22,306,22,422,36,291,137,0.615839,-0.135541,0,-1.5,0,0,0,0,-1.12454,-1.28357,0,0,0,0,-0.971629,-1.12023,16899,0,0,0,0,0,0,0,0,0,1,1
8151,1.30273,0.103516,5.74023,-0.00242534,-0.000705768,-0.00622766,-0.122316,-0.0162681,-0.848564,-3.92427,-0.162044,-0.223424,-1.14014,-1.30155,-0.976582,-1.12589,-0.848564,0,0,306,22,306,22,422,36,291,137,0.615836,-0.135493,0,-1.5,0,0,0,0,-1.14014,-1.30155,0,0,0,0,-0.976582,-1.12589,16899,0,0,0,0,0,0,0,0,0,1,1
8168,1.30273,0.103516,-6.62109,-0.00208111,-0.000480713,-0.00723758,-0.122378,-0.0162905,-0.848658,-3.91705,-0.162936,-0.221435,-1.1568,-1.32076,-0.981809,-1.13187,-0.848658,0,0,306,22,306,22,423,35,291,137,0.615832,-0.135435,0,-1.5,0,0,0,0,-1.1568,-1.32076,0,0,0,0,-0.981809,-1.13187,16896,0,0,0,0,0,0,0,0,0,1,1
8183,1.30273,0.103516,6.51074,-0.00130535,-4.08309e-05,-0.00572517,-0.122475,-0.0163173,-0.848808,-3.91705,-0.162936,-0.221435,-1.17157,-1.33779,-0.986386,-1.13711,-0.848658,0,0,306,22,306,22,423,35,291,137,0.615832,-0.135435,0,-1.5,0,0,0,0,-1.17157,-1.33779,0,0,0,0,-0.986386,-1.13711,16896,0,0,0,0,0,0,0,0,0,1,1
8199,1.30273,0.103516,6.51074,-0.00130535,-4.08309e-05,-0.00572517,-0.122475,-0.0163173,-0.848808,-3.92582,-0.158914,-0.221143,-1.1874,-1.35604,-0.991243,-1.14266,-0.848808,0,0,305,22,305,22,422,36,291,137,0.615826,-0.135342,0,-1.5,0,0,0,0,-1.1874,-1.35604,0,0,0,0,-0.991243,-1.14266,16768,0,0,0,0,0,0,0,0,0,1,1
8215,1.30273,0.103516,-1.28906,-0.00126588,-0.0009599,-0.00609049,-0.122589,-0.0163486,-0.848966,-3.92582,-0.158914,-0.221143,-1.20231,-1.37323,-0.995763,-1.14783,-0.848966,0,0,305,22,305,22,422,36,291,137,0.61582,-0.135245,0,-1.5,0,0,0,0,-1.20231,-1.37323,0,0,0,0,-0.995763,-1.14783,16768,0,0,0,0,0,0,0,0,0,1,1
8232,1.30273,0.103516,-0.217773,-0.00255734,0.000516662,-0.00586009,-0.122653,-0.0163582,-0.849055,-3.92595,-0.158596,-0.221327,-1.2203,-1.39397,-1.00116,-1.154,-0.849055,0,0,305,22,305,22,422,36,291,137,0.615817,-0.135191,0,-1.5,0,0,0,0,-1.2203,-1.39397,0,0,0,0,-1.00116,-1.154,16768,0,0,0,0,0,0,0,0,0,1,1
8247,1.30273,0.103516,0.894531,-0.00225192,0.000405478,-0.00780888,-0.122723,-0.0163726,-0.849142,-3.92595,-0.158596,-0.221327,-1.23536,-1.41132,-1.00562,-1.1591,-0.849142,0,0,305,22,305,22,422,36,291,137,0.615813,-0.135137,0,-1.5,0,0,0,0,-1.23536,-1.41132,0,0,0,0,-1.00562,-1.1591,16768,0,0,0,0,0,0,0,0,0,1,1
8263,1.30273,0.103516,-1.03711,-0.00303306,0.00111809,-0.00597212,-0.122794,-0.0163796,-0.849224,-3.93536,-0.161135,-0.22231,-1.2515,-1.42992,-1.01036,-1.16451,-0.849224,0,0,305,25,305,25,423,35,291,137,0.61581,-0.135086,0,-1.5,0,0,0,0,-1.2515,-1.42992,0,0,0,0,-1.01036,-1.16451,16500,0,0,0,0,0,0,0,0,0,1,1
8279,1.30273,0.0917969,-4.72559,-0.000874967,-0.00135991,-0.00505871,-0.122894,-0.0164242,-0.849377,-3.93536,-0.161135,-0.22231,-1.26771,-1.44861,-1.01506,-1.16988,-0.849224,0,0,305,25,305,25,423,35,291,137,0.61581,-0.135086,0,-1.5,0,0,0,0,-1.26771,-1.44861,0,0,0,0,-1.01506,-1.16988,16500,0,0,0,0,0,0,0,0,0,1,1
8295,1.30273,0.0585938,6.46484,-0.0018825,-0.000369731,-0.00630204,-0.122948,-0.0164419,-0.849466,-3.92167,-0.155725,-0.227564,-1.284,-1.46738,-1.01973,-1.17522,-0.849377,0,0,303,25,303,25,421,35,291,137,0.615804,-0.134992,0,-1.5,0,0,0,0,-1.284,-1.46738,0,0,0,0,-1.01973,-1.17522,16250,0,0,0,0,0,0,0,0,0,1,1
8311,1.30273,0.0253906,5.76367,-0.000911173,5.35686e-05,-0.00630907,-0.122996,-0.0164549,-0.849548,-3.92167,-0.155725,-0.227564,-1.30036,-1.48624,-1.02437,-1.18052,-0.849548,0,0,303,25,303,25,421,35,291,137,0.615797,-0.134887,0,-1.5,0,0,0,0,-1.30036,-1.48624,0,0,0,0,-1.02437,-1.18052,16250,0,0,0,0,0,0,0,0,0,1,1
8327,1.30273,0,-6.62305,-0.00221456,-0.00171728,-0.00485442,-0.123064,-0.0164791,-0.849614,-3.92167,-0.155725,-0.227564,-1.3168,-1.50519,-1.02899,-1.1858,-0.849614,0,0,303,25,303,25,421,35,291,137,0.615795,-0.134846,0,-1.5,0,0,0,0,-1.3168,-1.50519,0,0,0,0,-1.02899,-1.1858,16250,0,0,0,0,0,0,0,0,0,1,1
8343,1.30273,0,-6.62305,-0.00221456,-0.00171728,-0.00485442,-0.123064,-0.0164791,-0.849614,-3.94612,-0.1521,-0.222113,-1.33331,-1.52421,-1.03357,-1.19103,-0.849614,0,0,303,25,303,25,421,36,291,137,0.615795,-0.134846,0,-1.5,0,0,0,0,-1.33331,-1.52421,0,0,0,0,-1.03357,-1.19103,16250,0,0,0,0,0,0,0,0,0,1,1
8359,1.30273,0,6.49414,-0.001804,0.00101198,-0.00734117,-0.123183,-0.0164994,-0.849784,-3.94612,-0.1521,-0.222113,-1.3499,-1.54332,-1.03812,-1.19623,-0.849784,0,0,303,25,303,25,421,36,291,137,0.615788,-0.134742,0,-1.5,0,0,0,0,-1.3499,-1.54332,0,0,0,0,-1.03812,-1.19623,16250,0,0,0,0,0,0,0,0,0,1,1
8375,1.30273,0,-1.34961,-0.00351407,0.0002798,-0.00728807,-0.123323,-0.0165384,-0.849952,-6.67999,-5.96655,-0.28124,-1.36655,-1.56251,-1.04264,-1.20139,-0.849784,0,0,671,167,671,167,727,152,665,232,0.615788,-0.134742,0,-1.5,0,0,0,0,-1.36655,-1.56251,0,0,0,0,-1.04264,-1.20139,4960,0,0,0,0,0,0,0,0,0,1,1
8391,1.30273,0,-0.238281,-0.00224631,-0.000259353,-0.00586173,-0.123371,-0.0165591,-0.85003,-6.67999,-5.96655,-0.28124,-1.38328,-1.58179,-1.04713,-1.20653,-0.849952,0,0,671,167,671,167,727,152,665,232,0.615781,-0.134638,0,-1.5,0,0,0,0,-1.38328,-1.58179,0,0,0,0,-1.04713,-1.20653,4960,0,0,0,0,0,0,0,0,0,1,1
8406,1.30273,0,-0.238281,-0.00224631,-0.000259353,-0.00586173,-0.123371,-0.0165591,-0.85003,-3.92505,-0.16019,-0.224534,-1.39903,-1.59993,-1.05133,-1.21131,-0.85003,0,0,306,22,306,22,422,36,291,137,0.615778,-0.13459,0,-1.5,0,0,0,0,-1.39903,-1.59993,0,0,0,0,-1.05133,-1.21131,16899,0,0,0,0,0,0,0,0,0,1,1
8422,1.30273,0,-1.01953,-0.000720953,0.000760414,-0.00646263,-0.123478,-0.0165813,-0.850183,-3.92505,-0.16019,-0.224534,-1.4159,-1.61937,-1.05577,-1.21639,-0.850183,0,0,306,22,306,22,422,36,291,137,0.615772,-0.134496,0,-1.5,0,0,0,0,-1.4159,-1.61937,0,0,0,0,-1.05577,-1.21639,16899,0,0,0,0,0,0,0,0,0,1,1
8439,1.30273,0,-1.01953,-0.000720953,0.000760414,-0.00646263,-0.123478,-0.0165813,-0.850183,-3.91464,-0.157324,-0.228609,-1.4339,-1.64011,-1.06046,-1.22174,-0.850183,0,0,306,22,306,22,422,36,290,137,0.615772,-0.134496,0,-1.5,0,0,0,0,-1.4339,-1.64011,0,0,0,0,-1.06046,-1.22174,17028,0,0,0,0,0,0,0,0,0,1,1
8455,1.30273,0,-4.71191,-0.00260265,-0.000268456,-0.00596497,-0.123583,-0.0166113,-0.85035,-3.91464,-0.157324,-0.228609,-1.45091,-1.65971,-1.06484,-1.22674,-0.85035,0,0,306,22,306,22,422,36,290,137,0.615765,-0.134393,0,-1.5,0,0,0,0,-1.45091,-1.65971,0,0,0,0,-1.06484,-1.22674,17028,0,0,0,0,0,0,0,0,0,1,1
8470,1.30273,0.0390625,5.70605,-0.0017675,0.000489954,-0.00517283,-0.123684,-0.0166315,-0.850498,-3.89179,-0.149158,-0.237763,-1.46692,-1.67815,-1.06892,-1.2314,-0.85035,0,0,303,22,303,22,422,36,290,137,0.615765,-0.134393,0,-1.5,0,0,0,0,-1.46692,-1.67815,0,0,0,0,-1.06892,-1.2314,17028,0,0,0,0,0,0,0,0,0,1,1
8487,1.30273,0.0722656,-6.60645,-0.00318379,-3.36016e-05,-0.00572601,-0.123739,-0.0166431,-0.850583,-3.89179,-0.149158,-0.237763,-1.48407,-1.69791,-1.07325,-1.23634,-0.850498,0,0,303,22,303,22,422,36,290,137,0.615759,-0.134302,0,-1.5,0,0,0,0,-1.48407,-1.69791,0,0,0,0,-1.07325,-1.23634,17028,0,0,0,0,0,0,0,0,0,1,1
8503,1.30273,0.0722656,-6.60645,-0.00318379,-3.36016e-05,-0.00572601,-0.123739,-0.0166431,-0.850583,-3.94217,-0.155641,-0.223643,-1.50237,-1.71898,-1.07782,-1.24156,-0.850583,0,0,305,25,305,25,422,36,290,137,0.615756,-0.134249,0,-1.5,0,0,0,0,-1.50237,-1.71898,0,0,0,0,-1.07782,-1.24156,16500,0,0,0,0,0,0,0,0,0,1,1
8519,1.30273,0.133789,6.51758,-0.00236701,0.000230447,-0.00465062,-0.123854,-0.0166496,-0.850738,-3.94217,-0.155641,-0.223643,-1.51966,-1.7389,-1.08209,-1.24643,-0.850738,0,0,305,25,305,25,422,36,290,137,0.61575,-0.134154,0,-1.5,0,0,0,0,-1.51966,-1.7389,0,0,0,0,-1.08209,-1.24643,16500,0,0,0,0,0,0,0,0,0,1,1
8535,1.30273,0.133789,1.20117,-0.00148829,0.000256545,-0.00514503,-0.123907,-0.0166651,-0.85082,-3.90741,-0.157995,-0.226613,-1.53701,-1.75889,-1.08634,-1.25127,-0.85082,0,0,306,22,306,22,423,35,290,137,0.615746,-0.134104,0,-1.5,0,0,0,0,-1.53701,-1.75889,0,0,0,0,-1.08634,-1.25127,17024,0,0,0,0,0,0,0,0,0,1,1
8551,1.30273,0.133789,-1.27539,-0.00323102,0.000431795,-0.00555328,-0.123977,-0.0166789,-0.85091,-3.90741,-0.157995,-0.226613,-1.55444,-1.77896,-1.09057,-1.25608,-0.85091,0,0,306,22,306,22,423,35,290,137,0.615743,-0.134048,0,-1.5,0,0,0,0,-1.55444,-1.77896,0,0,0,0,-1.09057,-1.25608,17024,0,0,0,0,0,0,0,0,0,1,1
8567,1.30273,0.102539,-0.216797,-0.0024665,0.000688918,-0.00655839,-0.124034,-0.0166914,-0.850996,-3.93047,-0.156431,-0.218479,-1.57193,-1.79911,-1.09477,-1.26086,-0.850996,0,0,306,22,306,22,422,36,290,136,0.615739,-0.133995,0,-1.5,0,0,0,0,-1.57193,-1.79911,0,0,0,0,-1.09477,-1.26086,16896,0,0,0,0,0,0,0,0,0,1,1
8583,1.30273,0.102539,-0.216797,-0.0024665,0.000688918,-0.00655839,-0.124034,-0.0166914,-0.850996,-3.93047,-0.156431,-0.218479,-1.58949,-1.81933,-1.09894,-1.2656,-0.850996,0,0,306,22,306,22,422,36,290,136,0.615739,-0.133995,0,-1.5,0,0,0,0,-1.58949,-1.81933,0,0,0,0,-1.09894,-1.2656,16896,0,0,0,0,0,0,0,0,0,1,1
8599,1.30273,0.102539,-0.216797,-0.0024665,0.000688918,-0.00655839,-0.124034,-0.0166914,-0.850996,-3.9229,-0.153661,-0.221546,-1.60712,-1.83963,-1.10307,-1.27031,-0.850996,0,0,305,22,305,22,422,36,290,136,0.615739,-0.133995,0,-1.5,0,0,0,0,-1.60712,-1.83963,0,0,0,0,-1.10307,-1.27031,16896,0,0,0,0,0,0,0,0,0,1,1
8615,1.30273,0,-4.70996,-0.0038975,0.000686319,-0.00619527,-0.124276,-0.0167627,-0.851329,-3.9229,-0.153661,-0.221546,-1.62481,-1.86,-1.10718,-1.27499,-0.851329,0,0,305,22,305,22,422,36,290,136,0.615726,-0.13379,0,-1.5,0,0,0,0,-1.62481,-1.86,0,0,0,0,-1.10718,-1.27499,16896,0,0,0,0,0,0,0,0,0,1,1
8631,1.30273,0,6.43359,-0.00158958,-0.000157379,-0.00660718,-0.124338,-0.0167751,-0.851416,-3.91407,-0.15332,-0.227433,-1.64256,-1.88045,-1.11128,-1.27965,-0.851416,0,0,305,22,305,22,422,36,290,136,0.615722,-0.133737,0,-1.5,0,0,0,0,-1.64256,-1.88045,0,0,0,0,-1.11128,-1.27965,17028,0,0,0,0,0,0,0,0,0,1,1
8648,1.30273,0,5.73242,-0.00348461,5.01614e-05,-0.00536855,-0.12441,-0.0168017,-0.851485,-3.91407,-0.15332,-0.227433,-1.6615,-1.90226,-1.11561,-1.28458,-0.851485,0,0,305,22,305,22,422,36,290,136,0.61572,-0.133694,0,-1.5,0,0,0,0,-1.6615,-1.90226,0,0,0,0,-1.11561,-1.28458,17028,0,0,0,0,0,0,0,0,0,1,1
8663,1.30273,0,-6.64746,-0.00223322,-2.81144e-05,-0.00641355,-0.124459,-0.0168203,-0.851572,-3.92692,-0.155843,-0.222732,-1.67827,-1.92156,-1.1194,-1.28889,-0.851572,0,0,305,22,305,22,422,36,291,137,0.615716,-0.133641,0,-1.5,0,0,0,0,-1.67827,-1.92156,0,0,0,0,-1.1194,-1.28889,16768,0,0,0,0,0,0,0,0,0,1,1
8678,1.30273,0,6.52344,-0.00351812,0.000232345,-0.00626393,-0.124601,-0.0168393,-0.851736,-3.92692,-0.155843,-0.222732,-1.6951,-1.94094,-1.12317,-1.29318,-0.851572,0,0,305,22,305,22,422,36,291,137,0.615716,-0.133641,0,-1.5,0,0,0,0,-1.6951,-1.94094,0,0,0,0,-1.12317,-1.29318,16768,0,0,0,0,0,0,0,0,0,1,1
8694,1.30273,0,1.1377,-0.00308703,-0.000207696,-0.00563199,-0.124654,-0.0168423,-0.851813,-3.92692,-0.155843,-0.222732,-1.71311,-1.96168,-1.12717,-1.29773,-0.851736,0,0,305,22,305,22,422,36,291,137,0.615709,-0.13354,0,-1.5,0,0,0,0,-1.71311,-1.96168,0,0,0,0,-1.12717,-1.29773,16768,0,0,0,0,0,0,0,0,0,1,1
8710,1.30273,0,-1.31641,-0.00196275,0.00016115,-0.00526519,-0.124707,-0.0168433,-0.851889,-3.927,-0.155553,-0.222843,-1.73119,-1.98249,-1.13115,-1.30225,-0.851889,0,0,305,22,305,22,422,36,291,137,0.615703,-0.133445,0,-1.5,0,0,0,0,-1.73119,-1.98249,0,0,0,0,-1.13115,-1.30225,16768,0,0,0,0,0,0,0,0,0,1,1
8726,1.30273,0,-0.213867,-0.00217266,-0.000920477,-0.00569104,-0.124764,-0.0168673,-0.851976,-3.927,-0.155553,-0.222843,-1.74933,-2.00337,-1.13511,-1.30675,-0.851976,0,0,305,22,305,22,422,36,291,137,0.615699,-0.133392,0,-1.5,0,0,0,0,-1.74933,-2.00337,0,0,0,0,-1.13511,-1.30675,16768,0,0,0,0,0,0,0,0,0,1,1
8742,1.30273,0,0.958008,-0.00202023,0.000399257,-0.00754313,-0.124822,-0.0168745,-0.852079,-3.93262,-0.155617,-0.225171,-1.76753,-2.02433,-1.13904,-1.31121,-0.852079,0,0,303,25,303,25,421,35,292,137,0.615695,-0.133328,0,-1.5,0,0,0,0,-1.76753,-2.02433,0,0,0,0,-1.13904,-1.31121,16125,0,0,0,0,0,0,0,0,0,1,1
8758,1.30273,0,-1.00488,-0.0024657,0.00136644,-0.00607697,-0.124886,-0.0168737,-0.852169,-3.93262,-0.155617,-0.225171,-1.7858,-2.04535,-1.14295,-1.31565,-0.852169,0,0,303,25,303,25,421,35,292,137,0.615692,-0.133273,0,-1.5,0,0,0,0,-1.7858,-2.04535,0,0,0,0,-1.14295,-1.31565,16125,0,0,0,0,0,0,0,0,0,1,1
8774,1.30273,0,-1.00488,-0.0024657,0.00136644,-0.00607697,-0.124886,-0.0168737,-0.852169,-3.90284,-0.153812,-0.229162,-1.80412,-2.06645,-1.14683,-1.32005,-0.852169,0,0,305,22,305,22,421,35,290,137,0.615692,-0.133273,0,-1.5,0,0,0,0,-1.80412,-2.06645,0,0,0,0,-1.14683,-1.32005,16768,0,0,0,0,0,0,0,0,0,1,1
8790,1.30273,0,6.47363,-0.00284059,-0.000459058,-0.00656991,-0.1251,-0.0169217,-0.852424,-3.90284,-0.153812,-0.229162,-1.82251,-2.08761,-1.15069,-1.32442,-0.85233,0,0,305,22,305,22,421,35,290,137,0.615685,-0.133174,0,-1.5,0,0,0,0,-1.82251,-2.08761,0,0,0,0,-1.15069,-1.32442,16768,0,0,0,0,0,0,0,0,0,1,1
8806,1.30273,0,5.74805,-0.00385218,0.000171679,-0.00697103,-0.125178,-0.0169255,-0.85251,-3.92707,-0.155121,-0.222927,-1.84096,-2.10885,-1.15454,-1.32878,-0.852424,0,0,305,22,305,22,422,36,291,137,0.615681,-0.133116,0,-1.5,0,0,0,0,-1.84096,-2.10885,0,0,0,0,-1.15454,-1.32878,16768,0,0,0,0,0,0,0,0,0,1,1
8822,1.30273,0,-6.62988,-0.00218177,0.00043467,-0.00484452,-0.125235,-0.0169315,-0.852584,-3.92707,-0.155121,-0.222927,-1.85831,-2.12882,-1.15813,-1.33284,-0.852584,0,0,305,22,305,22,422,36,291,137,0.615674,-0.133018,0,-1.5,0,0,0,0,-1.85831,-2.12882,0,0,0,0,-1.15813,-1.33284,16768,0,0,0,0,0,0,0,0,0,1,1
8837,1.30273,0,-6.62988,-0.00218177,0.00043467,-0.00484452,-0.125235,-0.0169315,-0.852584,-3.92707,-0.155121,-0.222927,-1.87688,-2.15019,-1.16193,-1.33714,-0.852584,0,0,305,22,305,22,422,36,291,137,0.615674,-0.133018,0,-1.5,0,0,0,0,-1.87688,-2.15019,0,0,0,0,-1.16193,-1.33714,16768,0,0,0,0,0,0,0,0,0,1,1
8853,1.30273,0,6.49414,-0.0017794,0.00115302,-0.00627903,-0.12535,-0.0169585,-0.852752,-3.92707,-0.155121,-0.222927,-1.89551,-2.17163,-1.16571,-1.34142,-0.852752,0,0,305,22,305,22,422,36,291,137,0.615667,-0.132914,0,-1.5,0,0,0,0,-1.89551,-2.17163,0,0,0,0,-1.16571,-1.34142,16768,0,0,0,0,0,0,0,0,0,1,1
8870,1.30273,0,6.49414,-0.0017794,0.00115302,-0.00627903,-0.12535,-0.0169585,-0.852752,-3.92707,-0.155121,-0.222927,-1.91538,-2.19448,-1.1697,-1.34593,-0.852752,0,0,305,22,305,22,422,36,291,137,0.615667,-0.132914,0,-1.5,0,0,0,0,-1.91538,-2.19448,0,0,0,0,-1.1697,-1.34593,16768,0,0,0,0,0,0,0,0,0,1,1
8885,1.30273,0,-1.32324,-0.00184394,0.000640039,-0.00600647,-0.125462,-0.0169644,-0.85291,-3.92707,-0.155121,-0.222927,-1.93296,-2.21471,-1.1732,-1.34989,-0.85291,0,0,305,22,305,22,422,36,291,137,0.615661,-0.132817,0,-1.5,0,0,0,0,-1.93296,-2.21471,0,0,0,0,-1.1732,-1.34989,16768,0,0,0,0,0,0,0,0,0,1,1
8900,1.30273,0,-0.240234,-0.00171625,-0.000170228,-0.00544634,-0.125519,-0.0169741,-0.852987,-6.58086,-5.87495,-0.297885,-1.95059,-2.23499,-1.17669,-1.35382,-0.852987,0,0,669,167,669,167,727,152,667,234,0.615658,-0.132769,0,-1.5,0,0,0,0,-1.95059,-2.23499,0,0,0,0,-1.17669,-1.35382,4920,0,0,0,0,0,0,0,0,0,1,1
8917,1.30273,0,-1.03711,-0.00291336,0.000473944,-0.00624168,-0.125625,-0.0169943,-0.853144,-6.58086,-5.87495,-0.297885,-1.97064,-2.25806,-1.18061,-1.35825,-0.853144,0,0,669,167,669,167,727,152,667,234,0.615651,-0.132673,0,-1.5,0,0,0,0,-1.97064,-2.25806,0,0,0,0,-1.18061,-1.35825,4920,0,0,0,0,0,0,0,0,0,1,1
8933,1.30273,0,3.10254,-0.00161287,-0.000183716,-0.00644629,-0.125672,-0.0170063,-0.853227,-3.92447,-0.154059,-0.224179,-1.98956,-2.27984,-1.18429,-1.36239,-0.853227,0,0,306,22,306,22,422,36,290,137,0.615648,-0.132622,0,-1.5,0,0,0,0,-1.98956,-2.27984,0,0,0,0,-1.18429,-1.36239,16896,0,0,0,0,0,0,0,0,0,1,1
8949,1.30273,0,-4.70117,-0.00254563,7.52203e-05,-0.00565504,-0.125733,-0.0170153,-0.853299,-3.92447,-0.154059,-0.224179,-2.00855,-2.30168,-1.18794,-1.36651,-0.853299,0,0,306,22,306,22,422,36,290,137,0.615645,-0.132577,0,-1.5,0,0,0,0,-2.00855,-2.30168,0,0,0,0,-1.18794,-1.36651,16896,0,0,0,0,0,0,0,0,0,1,1
8965,1.30273,0,6.44141,-0.00297193,0.000240435,-0.00582919,-0.125797,-0.0170171,-0.853381,-3.93891,-0.152216,-0.224134,-2.0276,-2.32358,-1.19157,-1.3706,-0.853381,0,0,305,24,305,24,421,35,291,137,0.615641,-0.132527,0,-1.5,0,0,0,0,-2.0276,-2.32358,0,0,0,0,-1.19157,-1.3706,16510,0,0,0,0,0,0,0,0,0,1,1
8981,1.30273,0,6.44141,-0.00297193,0.000240435,-0.00582919,-0.125797,-0.0170171,-0.853381,-3.93891,-0.152216,-0.224134,-2.0467,-2.34556,-1.19518,-1.37466,-0.853381,0,0,305,24,305,24,421,35,291,137,0.615641,-0.132527,0,-1.5,0,0,0,0,-2.0467,-2.34556,0,0,0,0,-1.19518,-1.37466,16510,0,0,0,0,0,0,0,0,0,1,1
8998,1.30273,0.0117188,-2.39746,-0.000733398,-0.000873408,-0.00665099,-0.12597,-0.0170572,-0.853636,-3.93891,-0.152216,-0.224134,-2.06706,-2.36897,-1.19899,-1.37894,-0.853543,0,0,305,24,305,24,421,35,291,137,0.615634,-0.132427,0,-1.5,0,0,0,0,-2.06706,-2.36897,0,0,0,0,-1.19899,-1.37894,16510,0,0,0,0,0,0,0,0,0,1,1
9013,1.30273,0.0449219,6.54004,-0.0024092,0.000559709,-0.00393707,-0.126024,-0.0170596,-0.853701,-3.93891,-0.152216,-0.224134,-2.08508,-2.38969,-1.20234,-1.38271,-0.853701,0,0,305,24,305,24,421,35,291,137,0.615628,-0.13233,0,-1.5,0,0,0,0,-2.08508,-2.38969,0,0,0,0,-1.20234,-1.38271,16510,0,0,0,0,0,0,0,0,0,1,1
9030,1.30273,0.078125,1.16504,-0.0020821,0.000729961,-0.00623485,-0.126082,-0.0170692,-0.853788,-3.88883,-0.148714,-0.247601,-2.10556,-2.41325,-1.20611,-1.38694,-0.853788,0,0,305,22,305,22,422,36,290,137,0.615624,-0.132276,0,-1.5,0,0,0,0,-2.10556,-2.41325,0,0,0,0,-1.20611,-1.38694,17424,0,0,0,0,0,0,0,0,0,1,1
9046,1.30273,0.0996094,-1.32715,-0.00222712,2.46677e-05,-0.00577785,-0.126145,-0.0170776,-0.853877,-3.88883,-0.148714,-0.247601,-2.12489,-2.43548,-1.20964,-1.39091,-0.853877,0,0,305,22,305,22,422,36,290,137,0.61562,-0.132222,0,-1.5,0,0,0,0,-2.12489,-2.43548,0,0,0,0,-1.20964,-1.39091,17424,0,0,0,0,0,0,0,0,0,1,1
9062,1.30273,0.0996094,-0.239258,-0.00277163,0.000110087,-0.00677904,-0.126211,-0.0171095,-0.853965,-3.92371,-0.157364,-0.22184,-2.14428,-2.45777,-1.21315,-1.39485,-0.853965,0,0,305,22,305,22,421,35,292,137,0.615617,-0.132167,0,-1.5,0,0,0,0,-2.14428,-2.45777,0,0,0,0,-1.21315,-1.39485,16512,0,0,0,0,0,0,0,0,0,1,1
9079,1.30273,0.0996094,-1.00684,-0.0026028,-3.66549e-05,-0.00571557,-0.126342,-0.0171362,-0.854121,-3.92371,-0.157364,-0.22184,-2.16373,-2.48013,-1.21663,-1.39876,-0.853965,0,0,305,22,305,22,421,35,292,137,0.615617,-0.132167,0,-1.5,0,0,0,0,-2.16373,-2.48013,0,0,0,0,-1.21663,-1.39876,16512,0,0,0,0,0,0,0,0,0,1,1
9094,1.30273,0.09375,3.13281,-0.00172462,0.000526217,-0.00595804,-0.126388,-0.0171523,-0.854202,-3.92371,-0.157364,-0.22184,-2.18323,-2.50255,-1.2201,-1.40265,-0.854121,0,0,305,22,305,22,421,35,292,137,0.61561,-0.132071,0,-1.5,0,0,0,0,-2.18323,-2.50255,0,0,0,0,-1.2201,-1.40265,16512,0,0,0,0,0,0,0,0,0,1,1
9109,1.30273,0.0605469,-4.68652,-0.00232314,0.000686166,-0.00579829,-0.126439,-0.0171542,-0.854277,-6.64774,-5.93243,-0.276954,-2.20156,-2.52362,-1.22333,-1.40628,-0.854202,0,0,671,167,671,167,727,152,665,232,0.615607,-0.132021,0,-1.5,0,0,0,0,-2.20156,-2.52362,0,0,0,0,-1.22333,-1.40628,4960,0,0,0,0,0,0,0,0,0,1,1
9125,1.30273,0.0273438,6.44336,-0.00115985,0.000336731,-0.00711205,-0.126486,-0.0171621,-0.854372,-6.64774,-5.93243,-0.276954,-2.22117,-2.54616,-1.22676,-1.41013,-0.854372,0,0,671,167,671,167,727,152,665,232,0.615599,-0.131917,0,-1.5,0,0,0,0,-2.22117,-2.54616,0,0,0,0,-1.22676,-1.41013,4960,0,0,0,0,0,0,0,0,0,1,1
9141,1.30273,0,5.73242,-0.00158732,0.00102308,-0.0058106,-0.126531,-0.0171534,-0.854456,-6.64766,-5.93219,-0.276522,-2.2396,-2.56735,-1.22996,-1.41371,-0.854456,0,0,671,167,671,167,727,152,665,232,0.615596,-0.131865,0,-1.5,0,0,0,0,-2.2396,-2.56735,0,0,0,0,-1.22996,-1.41371,4960,0,0,0,0,0,0,0,0,0,1,1
9157,1.30273,0,-6.62402,-0.00308758,0.000463514,-0.00630911,-0.126588,-0.017162,-0.854541,-6.64766,-5.93219,-0.276522,-2.26055,-2.59143,-1.23356,-1.41774,-0.854541,0,0,671,167,671,167,727,152,665,232,0.615592,-0.131813,0,-1.5,0,0,0,0,-2.26055,-2.59143,0,0,0,0,-1.23356,-1.41774,4960,0,0,0,0,0,0,0,0,0,1,1
9172,1.30273,0,-6.62402,-0.00308758,0.000463514,-0.00630911,-0.126588,-0.017162,-0.854541,-3.92251,-0.152587,-0.225516,-2.27909,-2.61273,-1.23672,-1.42128,-0.854541,0,0,306,22,306,22,422,36,290,136,0.615592,-0.131813,0,-1.5,0,0,0,0,-2.27909,-2.61273,0,0,0,0,-1.23672,-1.42128,17028,0,0,0,0,0,0,0,0,0,1,1
9188,1.30273,0,6.52148,-0.00227044,0.00105804,-0.00645374,-0.126698,-0.0171609,-0.854727,-3.92251,-0.152587,-0.225516,-2.29891,-2.63551,-1.24007,-1.42502,-0.854727,0,0,306,22,306,22,422,36,290,136,0.615584,-0.131698,0,-1.5,0,0,0,0,-2.29891,-2.63551,0,0,0,0,-1.24007,-1.42502,17028,0,0,0,0,0,0,0,0,0,1,1
