timestamp,A_x,A_y,A_z,P,Q,R,Phi,Theta,Psi,poseX,poseY,poseZ,state_X,state_Y,state_Z,state_VzB,state_Bx,state_By,state_Bz,p1_x,p1_y,p2_x,p2_y,p3_x,p3_y,p4_x,p4_y,roll,pitch,yaw,alt,targetHeading,highLevelState,lowLevelState,gateNumber,filtered_x,filtered_y,x_OT,y_OT,vx_OT,vy_OT,filtered_vx,filtered_vygateArearansac_corr_x,ransac_corr_y,ransac_corr_vx,ransac_corr_vy,detectionTimeStamppTermX,dTermX,pTermY,dTermY,vxcmd,vycmd
6112,1.02051,-1.58789,0.415039,-0.00835986,0.00598114,-0.00476209,-0.0502198,-0.19986,-2.5608,0,0,0,-6.58783e-05,-2.73848e-05,-0.013921,-0.00569889,-2.5596,0,0,0,0,0,0,0,0,0,0,0.238645,0.190845,0,-1.5,0,0,0,0,-6.58783e-05,-2.73848e-05,0,0,0,0,-0.013921,-0.00569889,1.9603e-19,0,0,0,0,0,0,0,0,0,2.51,5.47696e-05
6127,1.02051,5.81738,6.65332,-0.0104641,0.00653582,-0.00472363,-0.0635713,-0.17871,-2.56393,0,0,0,-0.000539321,-0.000205179,-0.0424159,-0.015196,-2.56259,0,0,0,0,0,0,0,0,0,0,0.235492,0.192903,0,-1.5,0,0,0,0,-0.000539321,-0.000205179,0,0,0,0,-0.0424159,-0.015196,1.9603e-19,0,0,0,0,0,0,0,0,0,2.51,0.000410357
6145,1.14746,5.72363,-1.93066,-0.0100663,0.00768854,-0.00520795,-0.0766342,-0.158894,-2.56745,0,0,0,-0.00167688,-0.000571093,-0.0746297,-0.0225979,-2.56599,0,0,0,0,0,0,0,0,0,0,0.232533,0.19481,0,-1.5,0,0,0,0,-0.00167688,-0.000571093,0,0,0,0,-0.0746297,-0.0225979,1.9603e-19,0,0,0,0,0,0,0,0,0,2.51,0.00114219
6162,1.09473,5.76172,-4.16309,-0.0111103,0.00889353,-0.00500306,-0.086476,-0.143491,-2.57067,0,0,0,-0.00337136,-0.00102358,-0.104857,-0.0259903,-2.56969,0,0,0,0,0,0,0,0,0,0,0.230264,0.196249,0,-1.5,0,0,0,0,-0.00337136,-0.00102358,0,0,0,0,-0.104857,-0.0259903,1.9603e-19,0,0,0,0,0,0,0,0,0,2.51,0.00204717
6178,1.09473,-1.62891,3.04297,-0.0107351,0.0074428,-0.00402745,-0.0866702,-0.143205,-2.57073,0,0,0,-0.00531819,-0.0014461,-0.130424,-0.0265706,-2.57073,0,0,0,0,0,0,0,0,0,0,0.229579,0.19668,0,-1.5,0,0,0,0,-0.00531819,-0.0014461,0,0,0,0,-0.130424,-0.0265706,1.9603e-19,0,0,0,0,0,0,0,0,0,2.51,0.00289219
6194,1.09473,5.74316,0.963867,-0.0090335,0.00892015,-0.00533941,-0.0868509,-0.142893,-2.57081,0,0,0,-0.00766316,-0.00187589,-0.155724,-0.0270153,-2.57081,0,0,0,0,0,0,0,0,0,0,0.229275,0.196874,0,-1.5,0,0,0,0,-0.00766316,-0.00187589,0,0,0,0,-0.155724,-0.0270153,1.9603e-19,0,0,0,0,0,0,0,0,0,2.51,0.00375177
6211,1.09473,5.77637,1.16504,-0.00950138,0.00739091,-0.00481234,-0.0872176,-0.1423,-2.57094,0,0,0,-0.0104185,-0.00231235,-0.180801,-0.0274049,-2.57087,0,0,0,0,0,0,0,0,0,0,0.228987,0.197059,0,-1.5,0,0,0,0,-0.0104185,-0.00231235,0,0,0,0,-0.180801,-0.0274049,1.9603e-19,0,0,0,0,0,0,0,0,0,2.51,0.0046247
6234,1.09473,-1.58105,5.33887,-0.00953239,0.00745972,-0.00590226,-0.0873949,-0.142007,-2.57102,0,0,0,-0.0153974,-0.00297896,-0.218047,-0.0278891,-2.57102,0,0,0,0,0,0,0,0,0,0,0.228548,0.197339,0,-1.5,0,0,0,0,-0.0153974,-0.00297896,0,0,0,0,-0.218047,-0.0278891,1.9603e-19,0,0,0,0,0,0,0,0,0,2.51,0.00595793
6256,1.09473,-1.58105,5.33887,-0.00953239,0.00745972,-0.00590226,-0.0873949,-0.142007,-2.57102,0,0,0,-0.0207286,-0.00359795,-0.251746,-0.0282313,-2.57102,0,0,0,0,0,0,0,0,0,0,0.228216,0.197552,0,-1.5,0,0,0,0,-0.0207286,-0.00359795,0,0,0,0,-0.251746,-0.0282313,1.9603e-19,0,0,0,0,0,0,0,0,0,2.51,0.0071959
6273,1.09473,5.81934,6.95898,-0.0114857,0.00989576,-0.00468375,-0.0879495,-0.141112,-2.5712,0,0,0,-0.025292,-0.00408065,-0.277485,-0.0284544,-2.5712,0,0,0,0,0,0,0,0,0,0,0.227897,0.197755,0,-1.5,0,0,0,0,-0.025292,-0.00408065,0,0,0,0,-0.277485,-0.0284544,1.9603e-19,0,0,0,0,0,0,0,0,0,2.51,0.0081613
6289,1.09473,-1.57129,3.75488,-0.00899192,0.00743519,-0.00486436,-0.0881268,-0.140813,-2.57127,0,0,0,-0.0299838,-0.0045368,-0.301447,-0.0285261,-2.57127,0,0,0,0,0,0,0,0,0,0,0.227666,0.197902,0,-1.5,0,0,0,0,-0.0299838,-0.0045368,0,0,0,0,-0.301447,-0.0285261,1.9603e-19,0,0,0,0,0,0,0,0,0,2.51,0.00907359
6311,1.09473,-1.60449,-5.86523,-0.0101383,0.00775978,-0.0052113,-0.0885016,-0.140235,-2.57139,0,0,0,-0.0371332,-0.00516514,-0.334087,-0.0285545,-2.57139,0,0,0,0,0,0,0,0,0,0,0.227348,0.198105,0,-1.5,0,0,0,0,-0.0371332,-0.00516514,0,0,0,0,-0.334087,-0.0285545,1.9603e-19,0,0,0,0,0,0,0,0,0,2.51,0.0103303
6346,1.09473,-1.6377,-4.34082,-0.010388,0.00744172,-0.00404123,-0.0888687,-0.139662,-2.57152,0,0,0,-0.0502375,-0.00616065,-0.385314,-0.0283807,-2.57152,0,0,0,0,0,0,0,0,0,0,0.226917,0.19838,0,-1.5,0,0,0,0,-0.0502375,-0.00616065,0,0,0,0,-0.385314,-0.0283807,1.9603e-19,0,0,0,0,0,0,0,0,0,2.51,0.0123213
6372,1.09473,-1.54785,-5.7168,-0.00998261,0.0070607,-0.00577745,-0.0892415,-0.139087,-2.57166,0,0,0,-0.0609653,-0.00689336,-0.422633,-0.0280744,-2.57166,0,0,0,0,0,0,0,0,0,0,0.226625,0.198565,0,-1.5,0,0,0,0,-0.0609653,-0.00689336,0,0,0,0,-0.422633,-0.0280744,1.9603e-19,0,0,0,0,0,0,0,0,0,2.51,0.0137867
6391,1.09473,-1.54785,-5.7168,-0.00998261,0.0070607,-0.00577745,-0.0892415,-0.139087,-2.57166,0,0,0,-0.0693371,-0.00742285,-0.449523,-0.0277655,-2.57166,0,0,0,0,0,0,0,0,0,0,0.226467,0.198667,0,-1.5,0,0,0,0,-0.0693371,-0.00742285,0,0,0,0,-0.449523,-0.0277655,1.9603e-19,0,0,0,0,0,0,0,0,0,2.51,0.0148457
6407,1.09473,5.79297,6.49219,-0.00925865,0.00888838,-0.00466395,-0.0897968,-0.138228,-2.57187,0,0,0,-0.0762836,-0.00783699,-0.470561,-0.0275239,-2.57166,0,0,0,0,0,0,0,0,0,0,0.226343,0.198746,0,-1.5,0,0,0,0,-0.0762836,-0.00783699,0,0,0,0,-0.470561,-0.0275239,1.9603e-19,0,0,0,0,0,0,0,0,0,2.51,0.015674
6423,1.09473,5.79297,6.49219,-0.00925865,0.00888838,-0.00466395,-0.0897968,-0.138228,-2.57187,0,0,0,-0.084543,-0.00830013,-0.494146,-0.0270913,-2.57187,0,0,0,0,0,0,0,0,0,0,0.226161,0.19886,0,-1.5,0,0,0,0,-0.084543,-0.00830013,0,0,0,0,-0.494146,-0.0270913,1.9603e-19,0,0,0,0,0,0,0,0,0,2.51,0.0166003
6439,1.09473,5.75977,-6.7832,-0.00981031,0.00797509,-0.0054987,-0.0901552,-0.137655,-2.572,0,0,0,-0.0926738,-0.00872936,-0.516144,-0.0266565,-2.572,0,0,0,0,0,0,0,0,0,0,0.226021,0.198948,0,-1.5,0,0,0,0,-0.0926738,-0.00872936,0,0,0,0,-0.516144,-0.0266565,1.9603e-19,0,0,0,0,0,0,0,0,0,2.51,0.0174587
6455,1.09473,-1.63086,7.19922,-0.00985875,0.00809313,-0.00457578,-0.0903259,-0.137362,-2.57207,0,0,0,-0.101161,-0.00915053,-0.537929,-0.0261384,-2.57207,0,0,0,0,0,0,0,0,0,0,0.225927,0.199007,0,-1.5,0,0,0,0,-0.101161,-0.00915053,0,0,0,0,-0.537929,-0.0261384,1.9603e-19,0,0,0,0,0,0,0,0,0,2.51,0.0183011
6471,1.09473,5.75586,-6.36719,-0.0103152,0.00776048,-0.00415803,-0.0905093,-0.137079,-2.57213,0,0,0,-0.109995,-0.00956294,-0.559516,-0.0255751,-2.57213,0,0,0,0,0,0,0,0,0,0,0.225849,0.199056,0,-1.5,0,0,0,0,-0.109995,-0.00956294,0,0,0,0,-0.559516,-0.0255751,1.9603e-19,0,0,0,0,0,0,0,0,0,2.51,0.0191259
6487,1.09473,-1.60156,-0.691406,-0.0102103,0.00704846,-0.0050299,-0.0906935,-0.136794,-2.5722,0,0,0,-0.119173,-0.00996586,-0.580909,-0.0249664,-2.5722,0,0,0,0,0,0,0,0,0,0,0.225782,0.199098,0,-1.5,0,0,0,0,-0.119173,-0.00996586,0,0,0,0,-0.580909,-0.0249664,1.9603e-19,0,0,0,0,0,0,0,0,0,2.51,0.0199317
6503,1.09473,-1.56836,3.69336,-0.0101122,0.00782195,-0.00419014,-0.0910566,-0.136228,-2.57233,0,0,0,-0.12869,-0.0103586,-0.602118,-0.0243313,-2.5722,0,0,0,0,0,0,0,0,0,0,0.225751,0.199118,0,-1.5,0,0,0,0,-0.12869,-0.0103586,0,0,0,0,-0.602118,-0.0243313,1.9603e-19,0,0,0,0,0,0,0,0,0,2.51,0.0207173
6520,1.09473,-1.56836,3.69336,-0.0101122,0.00782195,-0.00419014,-0.0910566,-0.136228,-2.57233,0,0,0,-0.139172,-0.0107637,-0.624419,-0.0235566,-2.57233,0,0,0,0,0,0,0,0,0,0,0.225694,0.199153,0,-1.5,0,0,0,0,-0.139172,-0.0107637,0,0,0,0,-0.624419,-0.0235566,1.9603e-19,0,0,0,0,0,0,0,0,0,2.51,0.0215275
6536,1.09473,-1.53516,4.81152,-0.010403,0.00864122,-0.00367579,-0.0914245,-0.135635,-2.57248,0,0,0,-0.149375,-0.0111331,-0.645211,-0.0227887,-2.57248,0,0,0,0,0,0,0,0,0,0,0.225643,0.199183,0,-1.5,0,0,0,0,-0.149375,-0.0111331,0,0,0,0,-0.645211,-0.0227887,1.9603e-19,0,0,0,0,0,0,0,0,0,2.51,0.0222661
6552,1.09473,5.83203,-6.42871,-0.0084918,0.00732639,-0.00384255,-0.0915968,-0.135351,-2.57255,0,0,0,-0.159908,-0.0114892,-0.665802,-0.0219511,-2.57255,0,0,0,0,0,0,0,0,0,0,0.225646,0.199181,0,-1.5,0,0,0,0,-0.159908,-0.0114892,0,0,0,0,-0.665802,-0.0219511,1.9603e-19,0,0,0,0,0,0,0,0,0,2.51,0.0229785
6568,1.09473,-1.55859,1.35254,-0.00916745,0.00863821,-0.00601947,-0.0917655,-0.13506,-2.57263,0,0,0,-0.170081,-0.0118106,-0.684934,-0.0211252,-2.57263,0,0,0,0,0,0,0,0,0,0,0.225654,0.199174,0,-1.5,0,0,0,0,-0.170081,-0.0118106,0,0,0,0,-0.684934,-0.0211252,1.9603e-19,0,0,0,0,0,0,0,0,0,2.51,0.0236212
6585,1.09473,-1.5918,-3.85352,-0.0101426,0.00708073,-0.00556528,-0.0921144,-0.134513,-2.57277,0,0,0,-0.182679,-0.0121787,-0.707685,-0.0200882,-2.57269,0,0,0,0,0,0,0,0,0,0,0.225692,0.199149,0,-1.5,0,0,0,0,-0.182679,-0.0121787,0,0,0,0,-0.707685,-0.0200882,1.9603e-19,0,0,0,0,0,0,0,0,0,2.51,0.0243575
6599,1.09473,5.76562,-5.63379,-0.0111356,0.00827641,-0.00576044,-0.0922986,-0.13422,-2.57285,0,0,0,-0.192742,-0.0124523,-0.7252,-0.0192207,-2.57277,0,0,0,0,0,0,0,0,0,0,0.225732,0.199123,0,-1.5,0,0,0,0,-0.192742,-0.0124523,0,0,0,0,-0.7252,-0.0192207,1.9603e-19,0,0,0,0,0,0,0,0,0,2.51,0.0249046
6615,1.09473,-1.625,-5.27637,-0.01156,0.00726657,-0.00445161,-0.0925003,-0.133937,-2.57292,0,0,0,-0.2038,-0.0127312,-0.743808,-0.0182431,-2.57292,0,0,0,0,0,0,0,0,0,0,0.225764,0.1991,0,-1.5,0,0,0,0,-0.2038,-0.0127312,0,0,0,0,-0.743808,-0.0182431,1.9603e-19,0,0,0,0,0,0,0,0,0,2.51,0.0254623
6630,1.09473,5.73242,-2.62598,-0.0100129,0.00700175,-0.00384505,-0.0926773,-0.133673,-2.57298,0,0,0,-0.215908,-0.0130117,-0.763484,-0.0171513,-2.57298,0,0,0,0,0,0,0,0,0,0,0.225854,0.199042,0,-1.5,0,0,0,0,-0.215908,-0.0130117,0,0,0,0,-0.763484,-0.0171513,1.9603e-19,0,0,0,0,0,0,0,0,0,2.51,0.0260233
6646,1.09473,-1.64648,4.88379,-0.0103231,0.0078413,-0.00459199,-0.0928704,-0.133381,-2.57305,0,0,0,-0.228329,-0.0132742,-0.78298,-0.0160132,-2.57305,0,0,0,0,0,0,0,0,0,0,0.225956,0.198976,0,-1.5,0,0,0,0,-0.228329,-0.0132742,0,0,0,0,-0.78298,-0.0160132,1.9603e-19,0,0,0,0,0,0,0,0,0,2.51,0.0265485
6662,1.09473,5.74414,0,-0.0107511,0.00831362,-0.00397172,-0.0930532,-0.1331,-2.57311,0,0,0,-0.24106,-0.0135182,-0.802297,-0.0148333,-2.57311,0,0,0,0,0,0,0,0,0,0,0.226081,0.198895,0,-1.5,0,0,0,0,-0.24106,-0.0135182,0,0,0,0,-0.802297,-0.0148333,1.9603e-19,0,0,0,0,0,0,0,0,0,2.51,0.0270363
6678,1.09473,-1.61328,-3.74316,-0.0109634,0.00755769,-0.00451262,-0.0932364,-0.132825,-2.57318,0,0,0,-0.254092,-0.0137432,-0.821436,-0.0136136,-2.57318,0,0,0,0,0,0,0,0,0,0,0.226217,0.198807,0,-1.5,0,0,0,0,-0.254092,-0.0137432,0,0,0,0,-0.821436,-0.0136136,1.9603e-19,0,0,0,0,0,0,0,0,0,2.51,0.0274863
6694,1.09473,-1.58008,0.154297,-0.0096304,0.00669102,-0.00443354,-0.0935948,-0.132283,-2.5733,0,0,0,-0.267435,-0.0139479,-0.840412,-0.0123728,-2.57318,0,0,0,0,0,0,0,0,0,0,0.226392,0.198696,0,-1.5,0,0,0,0,-0.267435,-0.0139479,0,0,0,0,-0.840412,-0.0123728,1.9603e-19,0,0,0,0,0,0,0,0,0,2.51,0.0278959
6710,1.09473,5.81055,5.34668,-0.0103784,0.00815433,-0.00557963,-0.0937786,-0.132007,-2.57337,0,0,0,-0.281073,-0.014133,-0.85921,-0.011088,-2.5733,0,0,0,0,0,0,0,0,0,0,0.22654,0.1986,0,-1.5,0,0,0,0,-0.281073,-0.014133,0,0,0,0,-0.85921,-0.011088,1.9603e-19,0,0,0,0,0,0,0,0,0,2.51,0.0282661
6726,1.09473,-1.54688,-0.96875,-0.00927475,0.00831558,-0.00457279,-0.0939563,-0.131729,-2.57344,0,0,0,-0.295016,-0.0142961,-0.877819,-0.00971565,-2.57344,0,0,0,0,0,0,0,0,0,0,0.226707,0.198492,0,-1.5,0,0,0,0,-0.295016,-0.0142961,0,0,0,0,-0.877819,-0.00971565,1.9603e-19,0,0,0,0,0,0,0,0,0,2.51,0.0285921
6743,1.09473,5.83984,5.80176,-0.0104276,0.00774353,-0.00363648,-0.0941454,-0.13145,-2.57349,0,0,0,-0.310155,-0.0144447,-0.8974,-0.00820546,-2.57349,0,0,0,0,0,0,0,0,0,0,0.226942,0.198341,0,-1.5,0,0,0,0,-0.310155,-0.0144447,0,0,0,0,-0.8974,-0.00820546,1.9603e-19,0,0,0,0,0,0,0,0,0,2.51,0.0288895
6759,1.09473,5.83984,5.80176,-0.0104276,0.00774353,-0.00363648,-0.0941454,-0.13145,-2.57349,0,0,0,-0.324705,-0.0145609,-0.915663,-0.00676361,-2.57349,0,0,0,0,0,0,0,0,0,0,0.227197,0.198178,0,-1.5,0,0,0,0,-0.324705,-0.0145609,0,0,0,0,-0.915663,-0.00676361,1.9603e-19,0,0,0,0,0,0,0,0,0,2.51,0.0291217
6775,1.09473,5.80664,-4.44238,-0.00834411,0.00811518,-0.00409252,-0.0944882,-0.130881,-2.57363,0,0,0,-0.339541,-0.0146543,-0.93376,-0.00529717,-2.57363,0,0,0,0,0,0,0,0,0,0,0.227417,0.198036,0,-1.5,0,0,0,0,-0.339541,-0.0146543,0,0,0,0,-0.93376,-0.00529717,1.9603e-19,0,0,0,0,0,0,0,0,0,2.51,0.0293087
6791,1.09473,5.77344,1.49023,-0.0093504,0.00876873,-0.00484727,-0.0948373,-0.130312,-2.5738,0,0,0,-0.35371,-0.01472,-0.950568,-0.00387643,-2.57363,0,0,0,0,0,0,0,0,0,0,0.227689,0.197863,0,-1.5,0,0,0,0,-0.35371,-0.01472,0,0,0,0,-0.950568,-0.00387643,1.9603e-19,0,0,0,0,0,0,0,0,0,2.51,0.0294401
6808,1.09473,-1.61719,-5.17383,-0.00884684,0.00777897,-0.00348447,-0.0950037,-0.130034,-2.57384,0,0,0,-0.370084,-0.0147675,-0.969448,-0.00222931,-2.5738,0,0,0,0,0,0,0,0,0,0,0.227954,0.197692,0,-1.5,0,0,0,0,-0.370084,-0.0147675,0,0,0,0,-0.969448,-0.00222931,1.9603e-19,0,0,0,0,0,0,0,0,0,2.51,0.029535
6823,1.09473,-1.61719,-5.17383,-0.00884684,0.00777897,-0.00348447,-0.0950037,-0.130034,-2.57384,0,0,0,-0.385775,-0.0147865,-0.987017,-0.000593736,-2.57384,0,0,0,0,0,0,0,0,0,0,0.228272,0.197489,0,-1.5,0,0,0,0,-0.385775,-0.0147865,0,0,0,0,-0.987017,-0.000593736,1.9603e-19,0,0,0,0,0,0,0,0,0,2.51,0.029573
6838,1.09473,-1.65039,4.29492,-0.0103981,0.00857216,-0.00632157,-0.0953546,-0.129467,-2.57399,0,0,0,-0.399728,-0.0147822,-1.00227,0.000838716,-2.57399,0,0,0,0,0,0,0,0,0,0,0.228522,0.197328,0,-1.5,0,0,0,0,-0.399728,-0.0147822,0,0,0,0,-1.00227,0.000838716,1.9603e-19,0,0,0,0,0,0,0,0,0,2.51,0.0295644
6854,1.09473,5.72559,7.1543,-0.0117894,0.00901765,-0.00687168,-0.0955516,-0.129171,-2.57409,0,0,0,-0.416969,-0.0147479,-1.0206,0.002671,-2.57409,0,0,0,0,0,0,0,0,0,0,0.228887,0.197094,0,-1.5,0,0,0,0,-0.416969,-0.0147479,0,0,0,0,-1.0206,0.002671,1.9603e-19,0,0,0,0,0,0,0,0,0,2.51,0.0294957
6870,1.09473,-1.63184,-4.98145,-0.00882193,0.0076795,-0.00468301,-0.0957143,-0.128906,-2.57415,0,0,0,-0.433473,-0.0146872,-1.03768,0.00443856,-2.57415,0,0,0,0,0,0,0,0,0,0,0.229262,0.196855,0,-1.5,0,0,0,0,-0.433473,-0.0146872,0,0,0,0,-1.03768,0.00443856,1.9603e-19,0,0,0,0,0,0,0,0,0,2.51,0.0293744
6886,1.09473,5.75879,2.01953,-0.0082819,0.0082546,-0.00455864,-0.0958757,-0.128632,-2.57422,0,0,0,-0.450254,-0.0145974,-1.05461,0.00623516,-2.57422,0,0,0,0,0,0,0,0,0,0,0.229653,0.196606,0,-1.5,0,0,0,0,-0.450254,-0.0145974,0,0,0,0,-1.05461,0.00623516,1.9603e-19,0,0,0,0,0,0,0,0,0,2.51,0.0291948
6902,1.09473,5.79199,5.28418,-0.00939553,0.00839112,-0.00395005,-0.0962086,-0.128086,-2.57435,0,0,0,-0.467299,-0.0144791,-1.07138,0.00806698,-2.57429,0,0,0,0,0,0,0,0,0,0,0.230062,0.196345,0,-1.5,0,0,0,0,-0.467299,-0.0144791,0,0,0,0,-1.07138,0.00806698,1.9603e-19,0,0,0,0,0,0,0,0,0,2.51,0.0289582
6918,1.09473,5.79199,5.28418,-0.00939553,0.00839112,-0.00395005,-0.0962086,-0.128086,-2.57435,0,0,0,-0.484615,-0.0143305,-1.08799,0.00993417,-2.57435,0,0,0,0,0,0,0,0,0,0,0.230495,0.196068,0,-1.5,0,0,0,0,-0.484615,-0.0143305,0,0,0,0,-1.08799,0.00993417,1.9603e-19,0,0,0,0,0,0,0,0,0,2.51,0.028661
6934,1.09473,5.8252,-3.12402,-0.0108542,0.00723543,-0.00446558,-0.0965678,-0.127527,-2.57449,0,0,0,-0.502196,-0.0141518,-1.10445,0.0118337,-2.57449,0,0,0,0,0,0,0,0,0,0,0.23092,0.195797,0,-1.5,0,0,0,0,-0.502196,-0.0141518,0,0,0,0,-1.10445,0.0118337,1.9603e-19,0,0,0,0,0,0,0,0,0,2.51,0.0283035
6951,1.09473,-1.53223,-0.0419922,-0.00936933,0.00779475,-0.00407188,-0.0967207,-0.127265,-2.57454,0,0,0,-0.521163,-0.0139276,-1.12174,0.0139326,-2.57454,0,0,0,0,0,0,0,0,0,0,0.231438,0.195467,0,-1.5,0,0,0,0,-0.521163,-0.0139276,0,0,0,0,-1.12174,0.0139326,1.9603e-19,0,0,0,0,0,0,0,0,0,2.51,0.0278552
6966,1.09473,5.83887,5.87891,-0.00996218,0.00892051,-0.00266268,-0.0969011,-0.126975,-2.5746,0,0,0,-0.538135,-0.0137005,-1.13686,0.0158121,-2.5746,0,0,0,0,0,0,0,0,0,0,0.231907,0.195167,0,-1.5,0,0,0,0,-0.538135,-0.0137005,0,0,0,0,-1.13686,0.0158121,1.9603e-19,0,0,0,0,0,0,0,0,0,2.51,0.027401
6983,1.09473,-1.55176,-0.0693359,-0.00939074,0.0083276,-0.00431795,-0.0970669,-0.126699,-2.57467,0,0,0,-0.557649,-0.013408,-1.15383,0.0179778,-2.57467,0,0,0,0,0,0,0,0,0,0,0.232465,0.194813,0,-1.5,0,0,0,0,-0.557649,-0.013408,0,0,0,0,-1.15383,0.0179778,1.9603e-19,0,0,0,0,0,0,0,0,0,2.51,0.0268159
6998,1.09473,-1.58496,-3.18652,-0.0105208,0.0100113,-0.00438219,-0.0974226,-0.126154,-2.57481,0,0,0,-0.5751,-0.0131196,-1.16867,0.0199163,-2.57474,0,0,0,0,0,0,0,0,0,0,0.232969,0.194491,0,-1.5,0,0,0,0,-0.5751,-0.0131196,0,0,0,0,-1.16867,0.0199163,1.9603e-19,0,0,0,0,0,0,0,0,0,2.51,0.0262393
7014,1.09473,5.77246,1.23145,-0.0106453,0.00789727,-0.00431327,-0.0975904,-0.125891,-2.57488,0,0,0,-0.593964,-0.012779,-1.18435,0.0220212,-2.57481,0,0,0,0,0,0,0,0,0,0,0.233531,0.194134,0,-1.5,0,0,0,0,-0.593964,-0.012779,0,0,0,0,-1.18435,0.0220212,1.9603e-19,0,0,0,0,0,0,0,0,0,2.51,0.025558
7031,1.09473,-1.61816,5.53711,-0.0100198,0.00739218,-0.00468524,-0.0977605,-0.125619,-2.57494,0,0,0,-0.614279,-0.0123793,-1.20083,0.0243206,-2.57494,0,0,0,0,0,0,0,0,0,0,0.234136,0.193749,0,-1.5,0,0,0,0,-0.614279,-0.0123793,0,0,0,0,-1.20083,0.0243206,1.9603e-19,0,0,0,0,0,0,0,0,0,2.51,0.0247587
7046,1.09473,5.73926,-1.62402,-0.0101194,0.00917321,-0.00492082,-0.097943,-0.125327,-2.57501,0,0,0,-0.632427,-0.0119952,-1.21523,0.0263873,-2.57501,0,0,0,0,0,0,0,0,0,0,0.234707,0.193385,0,-1.5,0,0,0,0,-0.632427,-0.0119952,0,0,0,0,-1.21523,0.0263873,1.9603e-19,0,0,0,0,0,0,0,0,0,2.51,0.0239903
7061,1.09473,5.73926,-1.62402,-0.0101194,0.00917321,-0.00492082,-0.097943,-0.125327,-2.57501,0,0,0,-0.65079,-0.0115798,-1.22951,0.0284701,-2.57501,0,0,0,0,0,0,0,0,0,0,0.235322,0.192994,0,-1.5,0,0,0,0,-0.65079,-0.0115798,0,0,0,0,-1.22951,0.0284701,1.9603e-19,0,0,0,0,0,0,0,0,0,2.51,0.0231595
7077,1.09473,5.76758,4.6748,-0.00895463,0.00757352,-0.00501605,-0.0982542,-0.124798,-2.57517,0,0,0,-0.66937,-0.0111326,-1.24367,0.0305712,-2.57517,0,0,0,0,0,0,0,0,0,0,0.235894,0.19263,0,-1.5,0,0,0,0,-0.66937,-0.0111326,0,0,0,0,-1.24367,0.0305712,1.9603e-19,0,0,0,0,0,0,0,0,0,2.51,0.0222651
7093,1.09473,5.76758,4.6748,-0.00895463,0.00757352,-0.00501605,-0.0982542,-0.124798,-2.57517,0,0,0,-0.690687,-0.0105862,-1.25956,0.0329909,-2.57517,0,0,0,0,0,0,0,0,0,0,0.236635,0.192159,0,-1.5,0,0,0,0,-0.690687,-0.0105862,0,0,0,0,-1.25956,0.0329909,1.9603e-19,0,0,0,0,0,0,0,0,0,2.51,0.0211724
7109,1.09473,-1.59375,2.87207,-0.0109153,0.00824069,-0.00408138,-0.0987776,-0.123995,-2.57538,0,0,0,-0.710992,-0.0100351,-1.27437,0.0352841,-2.57531,0,0,0,0,0,0,0,0,0,0,0.2373,0.191737,0,-1.5,0,0,0,0,-0.710992,-0.0100351,0,0,0,0,-1.27437,0.0352841,1.9603e-19,0,0,0,0,0,0,0,0,0,2.51,0.0200703
7125,1.09473,5.76367,-5.46973,-0.0102271,0.00818179,-0.00548614,-0.0989364,-0.123744,-2.57546,0,0,0,-0.731536,-0.00944594,-1.28903,0.0376419,-2.57538,0,0,0,0,0,0,0,0,0,0,0.238021,0.191279,0,-1.5,0,0,0,0,-0.731536,-0.00944594,0,0,0,0,-1.28903,0.0376419,1.9603e-19,0,0,0,0,0,0,0,0,0,2.51,0.0188919
7142,1.09473,-1.60254,5.49121,-0.00985906,0.00849895,-0.00403466,-0.0991033,-0.123471,-2.57552,0,0,0,-0.752313,-0.00881832,-1.30354,0.0400611,-2.57552,0,0,0,0,0,0,0,0,0,0,0.238744,0.19082,0,-1.5,0,0,0,0,-0.752313,-0.00881832,0,0,0,0,-1.30354,0.0400611,1.9603e-19,0,0,0,0,0,0,0,0,0,2.51,0.0176366
7158,1.09473,-1.60254,5.49121,-0.00985906,0.00849895,-0.00403466,-0.0991033,-0.123471,-2.57552,0,0,0,-0.773321,-0.00815173,-1.31791,0.042496,-2.57552,0,0,0,0,0,0,0,0,0,0,0.239539,0.190315,0,-1.5,0,0,0,0,-0.773321,-0.00815173,0,0,0,0,-1.31791,0.042496,1.9603e-19,0,0,0,0,0,0,0,0,0,2.51,0.0163035
7174,1.09473,-1.56934,4.80371,-0.0102087,0.00792625,-0.00365204,-0.0994436,-0.122931,-2.57567,0,0,0,-0.795892,-0.00740084,-1.33304,0.045103,-2.57567,0,0,0,0,0,0,0,0,0,0,0.240352,0.1898,0,-1.5,0,0,0,0,-0.795892,-0.00740084,0,0,0,0,-1.33304,0.045103,1.9603e-19,0,0,0,0,0,0,0,0,0,2.51,0.0148017
7190,1.09473,-1.56934,4.80371,-0.0102087,0.00792625,-0.00365204,-0.0994436,-0.122931,-2.57567,0,0,0,-0.817365,-0.0066538,-1.34714,0.0475914,-2.57567,0,0,0,0,0,0,0,0,0,0,0.241193,0.189266,0,-1.5,0,0,0,0,-0.817365,-0.0066538,0,0,0,0,-1.34714,0.0475914,1.9603e-19,0,0,0,0,0,0,0,0,0,2.51,0.0133076
7207,1.09473,5.80566,-5.68848,-0.00898859,0.00869603,-0.0043373,-0.0999113,-0.122125,-2.57588,0,0,0,-0.84043,-0.00581567,-1.36197,0.0502529,-2.57582,0,0,0,0,0,0,0,0,0,0,0.242056,0.188719,0,-1.5,0,0,0,0,-0.84043,-0.00581567,0,0,0,0,-1.36197,0.0502529,1.9603e-19,0,0,0,0,0,0,0,0,0,2.51,0.0116313
7223,1.09473,-1.61816,6.60742,-0.00993157,0.00775296,-0.00517246,-0.100073,-0.121867,-2.57595,0,0,0,-0.862362,-0.00498527,-1.37576,0.0528405,-2.57595,0,0,0,0,0,0,0,0,0,0,0.242903,0.188183,0,-1.5,0,0,0,0,-0.862362,-0.00498527,0,0,0,0,-1.37576,0.0528405,1.9603e-19,0,0,0,0,0,0,0,0,0,2.51,0.00997054
7239,1.09473,5.7207,3.93945,-0.00955955,0.00881053,-0.00449591,-0.100232,-0.121591,-2.57602,0,0,0,-0.883122,-0.00416897,-1.38857,0.0552957,-2.57602,0,0,0,0,0,0,0,0,0,0,0.243741,0.187652,0,-1.5,0,0,0,0,-0.883122,-0.00416897,0,0,0,0,-1.38857,0.0552957,1.9603e-19,0,0,0,0,0,0,0,0,0,2.51,0.00833794
7256,1.09473,-1.66113,-2.24316,-0.00870472,0.00736732,-0.00472022,-0.100384,-0.121331,-2.57608,0,0,0,-0.908297,-0.00313846,-1.40379,0.0582757,-2.57608,0,0,0,0,0,0,0,0,0,0,0.244782,0.186992,0,-1.5,0,0,0,0,-0.908297,-0.00313846,0,0,0,0,-1.40379,0.0582757,1.9603e-19,0,0,0,0,0,0,0,0,0,2.51,0.00627692
7270,1.09473,5.73633,-0.181641,-0.00811485,0.0088601,-0.00514165,-0.100527,-0.121053,-2.57615,0,0,0,-0.928054,-0.00230195,-1.4155,0.0606135,-2.57615,0,0,0,0,0,0,0,0,0,0,0.245606,0.18647,0,-1.5,0,0,0,0,-0.928054,-0.00230195,0,0,0,0,-1.4155,0.0606135,1.9603e-19,0,0,0,0,0,0,0,0,0,2.51,0.0046039
7286,1.09473,-1.58789,5.9707,-0.0100193,0.00805261,-0.00471636,-0.100693,-0.120781,-2.57622,0,0,0,-0.950837,-0.00130472,-1.42877,0.0633112,-2.57622,0,0,0,0,0,0,0,0,0,0,0.246572,0.185858,0,-1.5,0,0,0,0,-0.950837,-0.00130472,0,0,0,0,-1.42877,0.0633112,1.9603e-19,0,0,0,0,0,0,0,0,0,2.51,0.00260944
7302,1.09473,-1.5332,-4.65527,-0.00996124,0.00850157,-0.00456196,-0.101022,-0.120231,-2.57636,0,0,0,-0.973832,-0.00026408,-1.44191,0.0660333,-2.57629,0,0,0,0,0,0,0,0,0,0,0.24756,0.185233,0,-1.5,0,0,0,0,-0.973832,-0.00026408,0,0,0,0,-1.44191,0.0660333,1.9603e-19,0,0,0,0,0,0,0,0,0,2.51,0.00052816
7318,1.09473,5.83008,-3.75098,-0.00949852,0.00804936,-0.00552765,-0.101185,-0.119971,-2.57643,0,0,0,-0.997039,0.000821243,-1.45492,0.0687835,-2.57636,0,0,0,0,0,0,0,0,0,0,0.248573,0.184592,0,-1.5,0,0,0,0,-0.997039,0.000821243,0,0,0,0,-1.45492,0.0687835,1.9603e-19,0,0,0,0,0,0,0,0,0,2.51,-0.00164249
7334,1.09473,-1.56055,-2.66699,-0.0111815,0.0091241,-0.00454893,-0.101366,-0.1197,-2.57649,0,0,0,-1.02045,0.00195033,-1.46779,0.0715864,-2.57649,0,0,0,0,0,0,0,0,0,0,0.249594,0.183947,0,-1.5,0,0,0,0,-1.02045,0.00195033,0,0,0,0,-1.46779,0.0715864,1.9603e-19,0,0,0,0,0,0,0,0,0,2.51,-0.00390065
7350,1.09473,5.79688,3.75195,-0.00965413,0.00793159,-0.00492246,-0.101531,-0.119432,-2.57656,0,0,0,-1.04406,0.00312454,-1.48053,0.0744207,-2.57656,0,0,0,0,0,0,0,0,0,0,0.250662,0.183272,0,-1.5,0,0,0,0,-1.04406,0.00312454,0,0,0,0,-1.48053,0.0744207,1.9603e-19,0,0,0,0,0,0,0,0,0,2.51,-0.00624909
7366,1.09473,-1.59375,-4.38867,-0.0110368,0.00782003,-0.00354619,-0.101699,-0.119177,-2.57663,0,0,0,-1.06788,0.00434438,-1.49314,0.0772838,-2.57663,0,0,0,0,0,0,0,0,0,0,0.251759,0.182578,0,-1.5,0,0,0,0,-1.06788,0.00434438,0,0,0,0,-1.49314,0.0772838,1.9603e-19,0,0,0,0,0,0,0,0,0,2.51,-0.00868876
7382,1.09473,5.76367,6.01074,-0.0106308,0.00834907,-0.00443925,-0.101878,-0.118907,-2.57671,0,0,0,-1.0919,0.00561029,-1.50564,0.0801735,-2.57671,0,0,0,0,0,0,0,0,0,0,0.252874,0.181873,0,-1.5,0,0,0,0,-1.0919,0.00561029,0,0,0,0,-1.50564,0.0801735,1.9603e-19,0,0,0,0,0,0,0,0,0,2.51,-0.0112206
7398,1.09473,-1.62695,4.58008,-0.00937975,0.00884328,-0.00364789,-0.10205,-0.118634,-2.57678,0,0,0,-1.11612,0.00692269,-1.51801,0.0830881,-2.57678,0,0,0,0,0,0,0,0,0,0,0.254018,0.18115,0,-1.5,0,0,0,0,-1.11612,0.00692269,0,0,0,0,-1.51801,0.0830881,1.9603e-19,0,0,0,0,0,0,0,0,0,2.51,-0.0138454
7414,1.09473,-1.65137,-1.80859,-0.00958189,0.00889091,-0.00380141,-0.102379,-0.118112,-2.57691,0,0,0,-1.14053,0.00828286,-1.53027,0.0860233,-2.57685,0,0,0,0,0,0,0,0,0,0,0.25519,0.18041,0,-1.5,0,0,0,0,-1.14053,0.00828286,0,0,0,0,-1.53027,0.0860233,1.9603e-19,0,0,0,0,0,0,0,0,0,2.51,-0.0165657
7430,1.09473,5.73926,1.45703,-0.0101724,0.00819492,-0.00518436,-0.10255,-0.117853,-2.57699,0,0,0,-1.16514,0.00968969,-1.54239,0.0890141,-2.57699,0,0,0,0,0,0,0,0,0,0,0.256367,0.179669,0,-1.5,0,0,0,0,-1.16514,0.00968969,0,0,0,0,-1.54239,0.0890141,1.9603e-19,0,0,0,0,0,0,0,0,0,2.51,-0.0193794
7445,1.09473,-1.61816,-6.77832,-0.0105989,0.00901579,-0.00467394,-0.102719,-0.117592,-2.57706,0,0,0,-1.18839,0.0110522,-1.55364,0.0918456,-2.57706,0,0,0,0,0,0,0,0,0,0,0.257515,0.178944,0,-1.5,0,0,0,0,-1.18839,0.0110522,0,0,0,0,-1.55364,0.0918456,1.9603e-19,0,0,0,0,0,0,0,0,0,2.51,-0.0221045
7461,1.09473,-1.61816,-6.77832,-0.0105989,0.00901579,-0.00467394,-0.102719,-0.117592,-2.57706,0,0,0,-1.21337,0.0125536,-1.56554,0.0948768,-2.57706,0,0,0,0,0,0,0,0,0,0,0.258789,0.178137,0,-1.5,0,0,0,0,-1.21337,0.0125536,0,0,0,0,-1.56554,0.0948768,1.9603e-19,0,0,0,0,0,0,0,0,0,2.51,-0.0251073
7478,1.09473,-1.58496,0.408203,-0.00976366,0.00808922,-0.00543255,-0.103052,-0.117065,-2.5772,0,0,0,-1.24013,0.014203,-1.57806,0.098106,-2.5772,0,0,0,0,0,0,0,0,0,0,0.260117,0.177301,0,-1.5,0,0,0,0,-1.24013,0.014203,0,0,0,0,-1.57806,0.098106,1.9603e-19,0,0,0,0,0,0,0,0,0,2.51,-0.028406
7493,1.09473,-1.58496,0.408203,-0.00976366,0.00808922,-0.00543255,-0.103052,-0.117065,-2.5772,0,0,0,-1.2639,0.0157025,-1.58899,0.100987,-2.5772,0,0,0,0,0,0,0,0,0,0,0.261359,0.176515,0,-1.5,0,0,0,0,-1.2639,0.0157025,0,0,0,0,-1.58899,0.100987,1.9603e-19,0,0,0,0,0,0,0,0,0,2.51,-0.031405
7508,1.09473,-1.55176,5.28418,-0.0104957,0.00814018,-0.00492499,-0.103377,-0.116537,-2.57736,0,0,0,-1.28784,0.0172451,-1.59982,0.103881,-2.57736,0,0,0,0,0,0,0,0,0,0,0.262569,0.175755,0,-1.5,0,0,0,0,-1.28784,0.0172451,0,0,0,0,-1.59982,0.103881,1.9603e-19,0,0,0,0,0,0,0,0,0,2.51,-0.0344903
7524,1.09473,-1.51855,6.03516,-0.0108097,0.00873631,-0.00525281,-0.103723,-0.116019,-2.5775,0,0,0,-1.31356,0.01894,-1.61126,0.106999,-2.57736,0,0,0,0,0,0,0,0,0,0,0.263943,0.174885,0,-1.5,0,0,0,0,-1.31356,0.01894,0,0,0,0,-1.61126,0.106999,1.9603e-19,0,0,0,0,0,0,0,0,0,2.51,-0.03788
7540,1.09473,5.85156,2.55566,-0.00976576,0.00811015,-0.00618731,-0.103883,-0.115756,-2.57759,0,0,0,-1.33946,0.0206848,-1.62259,0.110144,-2.57759,0,0,0,0,0,0,0,0,0,0,0.265262,0.174062,0,-1.5,0,0,0,0,-1.33946,0.0206848,0,0,0,0,-1.62259,0.110144,1.9603e-19,0,0,0,0,0,0,0,0,0,2.51,-0.0413695
7557,1.09473,5.85156,2.55566,-0.00976576,0.00811015,-0.00618731,-0.103883,-0.115756,-2.57759,0,0,0,-1.36717,0.0225947,-1.63448,0.113549,-2.57759,0,0,0,0,0,0,0,0,0,0,0.266788,0.173096,0,-1.5,0,0,0,0,-1.36717,0.0225947,0,0,0,0,-1.63448,0.113549,1.9603e-19,0,0,0,0,0,0,0,0,0,2.51,-0.0451894
7573,1.09473,5.81836,2.16504,-0.0102583,0.00925126,-0.00477411,-0.104213,-0.115231,-2.57774,0,0,0,-1.39179,0.0243269,-1.64488,0.116564,-2.57774,0,0,0,0,0,0,0,0,0,0,0.268107,0.172269,0,-1.5,0,0,0,0,-1.39179,0.0243269,0,0,0,0,-1.64488,0.116564,1.9603e-19,0,0,0,0,0,0,0,0,0,2.51,-0.0486539
7589,1.09473,-1.57227,-1.37598,-0.0104362,0.00666967,-0.0040179,-0.104378,-0.114992,-2.57779,0,0,0,-1.41988,0.0263466,-1.65653,0.120028,-2.57779,0,0,0,0,0,0,0,0,0,0,0.269674,0.171281,0,-1.5,0,0,0,0,-1.41988,0.0263466,0,0,0,0,-1.65653,0.120028,1.9603e-19,0,0,0,0,0,0,0,0,0,2.51,-0.0526932
7605,1.09473,5.78516,3.12109,-0.0116516,0.00952139,-0.00425278,-0.104539,-0.114714,-2.57787,0,0,0,-1.4465,0.0283004,-1.66738,0.123309,-2.57787,0,0,0,0,0,0,0,0,0,0,0.271166,0.170342,0,-1.5,0,0,0,0,-1.4465,0.0283004,0,0,0,0,-1.66738,0.123309,1.9603e-19,0,0,0,0,0,0,0,0,0,2.51,-0.0566008
7621,1.09473,5.75195,6.58496,-0.0102314,0.00850755,-0.00332614,-0.104848,-0.114196,-2.578,0,0,0,-1.47329,0.0303079,-1.67813,0.126608,-2.57794,0,0,0,0,0,0,0,0,0,0,0.272686,0.169385,0,-1.5,0,0,0,0,-1.47329,0.0303079,0,0,0,0,-1.67813,0.126608,1.9603e-19,0,0,0,0,0,0,0,0,0,2.51,-0.0606158
7637,1.09473,-1.61426,5.89062,-0.00985887,0.00868596,-0.00413403,-0.105015,-0.11393,-2.57806,0,0,0,-1.50025,0.0323677,-1.68875,0.12995,-2.578,0,0,0,0,0,0,0,0,0,0,0.274245,0.168403,0,-1.5,0,0,0,0,-1.50025,0.0323677,0,0,0,0,-1.68875,0.12995,1.9603e-19,0,0,0,0,0,0,0,0,0,2.51,-0.0647355
7653,1.09473,5.77637,-6.50586,-0.00943594,0.00764582,-0.00406115,-0.105167,-0.113681,-2.57813,0,0,0,-1.52738,0.0344823,-1.69927,0.133322,-2.57813,0,0,0,0,0,0,0,0,0,0,0.275808,0.167423,0,-1.5,0,0,0,0,-1.52738,0.0344823,0,0,0,0,-1.69927,0.133322,1.9603e-19,0,0,0,0,0,0,0,0,0,2.51,-0.0689647
7670,1.09473,-1.58105,-2.27441,-0.00914669,0.00776602,-0.00398933,-0.105329,-0.113429,-2.5782,0,0,0,-1.55639,0.0367884,-1.71032,0.136927,-2.5782,0,0,0,0,0,0,0,0,0,0,0.277519,0.166346,0,-1.5,0,0,0,0,-1.55639,0.0367884,0,0,0,0,-1.71032,0.136927,1.9603e-19,0,0,0,0,0,0,0,0,0,2.51,-0.0735768
7686,1.09473,5.80957,6.62793,-0.0109223,0.00902962,-0.00457985,-0.105512,-0.113155,-2.57827,0,0,0,-1.58386,0.0390139,-1.72061,0.140341,-2.57827,0,0,0,0,0,0,0,0,0,0,0.279157,0.165316,0,-1.5,0,0,0,0,-1.58386,0.0390139,0,0,0,0,-1.72061,0.140341,1.9603e-19,0,0,0,0,0,0,0,0,0,2.51,-0.0780279
7702,1.09473,5.81152,-1.19434,-0.0100083,0.00735698,-0.00345376,-0.10582,-0.112657,-2.57841,0,0,0,-1.6115,0.0412954,-1.73081,0.143771,-2.57834,0,0,0,0,0,0,0,0,0,0,0.280824,0.164268,0,-1.5,0,0,0,0,-1.6115,0.0412954,0,0,0,0,-1.73081,0.143771,1.9603e-19,0,0,0,0,0,0,0,0,0,2.51,-0.0825908
7717,1.09473,5.81152,-1.19434,-0.0100083,0.00735698,-0.00345376,-0.10582,-0.112657,-2.57841,0,0,0,-1.63755,0.0434832,-1.74027,0.147008,-2.57841,0,0,0,0,0,0,0,0,0,0,0.28241,0.163271,0,-1.5,0,0,0,0,-1.63755,0.0434832,0,0,0,0,-1.74027,0.147008,1.9603e-19,0,0,0,0,0,0,0,0,0,2.51,-0.0869663
7732,1.09473,5.77832,1.03125,-0.0101913,0.00928625,-0.00536498,-0.106158,-0.112131,-2.57855,0,0,0,-1.66374,0.0457196,-1.74965,0.15024,-2.57841,0,0,0,0,0,0,0,0,0,0,0.284039,0.162242,0,-1.5,0,0,0,0,-1.66374,0.0457196,0,0,0,0,-1.74965,0.15024,1.9603e-19,0,0,0,0,0,0,0,0,0,2.51,-0.0914392
7748,1.09473,-1.6123,-0.943359,-0.0112223,0.00917733,-0.00428668,-0.106337,-0.111851,-2.57863,0,0,0,-1.69184,0.0481604,-1.75953,0.15376,-2.57863,0,0,0,0,0,0,0,0,0,0,0.285741,0.161184,0,-1.5,0,0,0,0,-1.69184,0.0481604,0,0,0,0,-1.75953,0.15376,1.9603e-19,0,0,0,0,0,0,0,0,0,2.51,-0.0963208
7765,1.09473,5.75195,4.91797,-0.0102285,0.00682981,-0.00426751,-0.106483,-0.111616,-2.57869,0,0,0,-1.72187,0.0508157,-1.76992,0.157527,-2.57869,0,0,0,0,0,0,0,0,0,0,0.28764,0.159991,0,-1.5,0,0,0,0,-1.72187,0.0508157,0,0,0,0,-1.76992,0.157527,1.9603e-19,0,0,0,0,0,0,0,0,0,2.51,-0.101631
7781,1.09473,-1.60547,-2.24609,-0.0106196,0.00901358,-0.00425266,-0.106645,-0.111349,-2.57877,0,0,0,-1.7485,0.0532109,-1.77899,0.160868,-2.57877,0,0,0,0,0,0,0,0,0,0,0.289333,0.158928,0,-1.5,0,0,0,0,-1.7485,0.0532109,0,0,0,0,-1.77899,0.160868,1.9603e-19,0,0,0,0,0,0,0,0,0,2.51,-0.106422
7797,1.09473,5.78516,-4.89453,-0.0106506,0.00987893,-0.00449012,-0.106813,-0.111085,-2.57883,0,0,0,-1.77707,0.0558223,-1.78857,0.164449,-2.57883,0,0,0,0,0,0,0,0,0,0,0.291173,0.157772,0,-1.5,0,0,0,0,-1.77707,0.0558223,0,0,0,0,-1.78857,0.164449,1.9603e-19,0,0,0,0,0,0,0,0,0,2.51,-0.111645
7813,1.09473,5.81836,-0.422852,-0.0110774,0.00909051,-0.00530213,-0.107159,-0.110581,-2.57899,0,0,0,-1.80759,0.05866,-1.79864,0.168273,-2.5789,0,0,0,0,0,0,0,0,0,0,0.293157,0.156527,0,-1.5,0,0,0,0,-1.80759,0.05866,0,0,0,0,-1.79864,0.168273,1.9603e-19,0,0,0,0,0,0,0,0,0,2.51,-0.11732
7828,1.09473,-1.53906,5.61523,-0.0112091,0.00774504,-0.00407406,-0.107338,-0.110346,-2.57905,0,0,0,-1.83465,0.0612168,-1.80744,0.171667,-2.57899,0,0,0,0,0,0,0,0,0,0,0.294929,0.155417,0,-1.5,0,0,0,0,-1.83465,0.0612168,0,0,0,0,-1.80744,0.171667,1.9603e-19,0,0,0,0,0,0,0,0,0,2.51,-0.122434
7844,1.09473,5.82031,0.475586,-0.00955714,0.00848352,-0.00466661,-0.107485,-0.110095,-2.57913,0,0,0,-1.86367,0.064002,-1.81672,0.175333,-2.57913,0,0,0,0,0,0,0,0,0,0,0.296835,0.154227,0,-1.5,0,0,0,0,-1.86367,0.064002,0,0,0,0,-1.81672,0.175333,1.9603e-19,0,0,0,0,0,0,0,0,0,2.51,-0.128004
7860,1.09473,-1.57031,-3.99902,-0.00926081,0.00823248,-0.0050717,-0.107636,-0.109863,-2.5792,0,0,0,-1.89283,0.0668459,-1.8259,0.179016,-2.5792,0,0,0,0,0,0,0,0,0,0,0.298792,0.153001,0,-1.5,0,0,0,0,-1.89283,0.0668459,0,0,0,0,-1.8259,0.179016,1.9603e-19,0,0,0,0,0,0,0,0,0,2.51,-0.133692
7876,1.09473,5.78711,-5.37793,-0.00864687,0.00817431,-0.0042255,-0.107785,-0.109607,-2.57927,0,0,0,-1.92214,0.069749,-1.83499,0.182717,-2.57927,0,0,0,0,0,0,0,0,0,0,0.300782,0.151753,0,-1.5,0,0,0,0,-1.92214,0.069749,0,0,0,0,-1.83499,0.182717,1.9603e-19,0,0,0,0,0,0,0,0,0,2.51,-0.139498
7892,1.09473,5.78711,-5.37793,-0.00864687,0.00817431,-0.0042255,-0.107785,-0.109607,-2.57927,0,0,0,-1.9516,0.0727114,-1.84399,0.186416,-2.57927,0,0,0,0,0,0,0,0,0,0,0.302817,0.150471,0,-1.5,0,0,0,0,-1.9516,0.0727114,0,0,0,0,-1.84399,0.186416,1.9603e-19,0,0,0,0,0,0,0,0,0,2.51,-0.145423
7908,1.09473,5.75391,-0.231445,-0.0101583,0.00793311,-0.00434096,-0.10812,-0.109121,-2.57941,0,0,0,-1.98119,0.0757316,-1.85291,0.190117,-2.57941,0,0,0,0,0,0,0,0,0,0,0.304833,0.149214,0,-1.5,0,0,0,0,-1.98119,0.0757316,0,0,0,0,-1.85291,0.190117,1.9603e-19,0,0,0,0,0,0,0,0,0,2.51,-0.151463
7924,1.09473,5.72754,6.87793,-0.00914906,0.00814702,-0.00344103,-0.108427,-0.108629,-2.57954,0,0,0,-2.01093,0.0788127,-1.86173,0.193845,-2.57941,0,0,0,0,0,0,0,0,0,0,0.306924,0.147896,0,-1.5,0,0,0,0,-2.01093,0.0788127,0,0,0,0,-1.86173,0.193845,1.9603e-19,0,0,0,0,0,0,0,0,0,2.51,-0.157625
7941,1.09473,-1.62988,0.316406,-0.0109232,0.00872704,-0.00505205,-0.108598,-0.108379,-2.57962,0,0,0,-2.04268,0.0821516,-1.871,0.19782,-2.57954,0,0,0,0,0,0,0,0,0,0,0.309136,0.146517,0,-1.5,0,0,0,0,-2.04268,0.0821516,0,0,0,0,-1.871,0.19782,1.9603e-19,0,0,0,0,0,0,0,0,0,2.51,-0.164303
7956,1.09473,-1.62988,0.316406,-0.0109232,0.00872704,-0.00505205,-0.108598,-0.108379,-2.57962,0,0,0,-2.07083,0.0851533,-1.87908,0.20138,-2.57962,0,0,0,0,0,0,0,0,0,0,0.311133,0.145268,0,-1.5,0,0,0,0,-2.07083,0.0851533,0,0,0,0,-1.87908,0.20138,1.9603e-19,0,0,0,0,0,0,0,0,0,2.51,-0.170307
7972,1.09473,-1.62988,0.316406,-0.0109232,0.00872704,-0.00505205,-0.108598,-0.108379,-2.57962,0,0,0,-2.10098,0.0884139,-1.88763,0.205147,-2.57962,0,0,0,0,0,0,0,0,0,0,0.31331,0.143897,0,-1.5,0,0,0,0,-2.10098,0.0884139,0,0,0,0,-1.88763,0.205147,1.9603e-19,0,0,0,0,0,0,0,0,0,2.51,-0.176828
7988,1.09473,5.79395,6.25391,-0.00991283,0.00855849,-0.00572864,-0.109051,-0.107637,-2.57986,0,0,0,-2.13127,0.0917357,-1.8961,0.208933,-2.57986,0,0,0,0,0,0,0,0,0,0,0.315439,0.142585,0,-1.5,0,0,0,0,-2.13127,0.0917357,0,0,0,0,-1.8961,0.208933,1.9603e-19,0,0,0,0,0,0,0,0,0,2.51,-0.183471
8004,1.09473,-1.56348,-1.93945,-0.00984251,0.00980425,-0.00426558,-0.109199,-0.107379,-2.57994,0,0,0,-2.16169,0.0951178,-1.90444,0.212784,-2.57994,0,0,0,0,0,0,0,0,0,0,0.317661,0.141196,0,-1.5,0,0,0,0,-2.16169,0.0951178,0,0,0,0,-1.90444,0.212784,1.9603e-19,0,0,0,0,0,0,0,0,0,2.51,-0.190236
8021,1.09473,5.82715,-6.30176,-0.0103624,0.00871363,-0.0043134,-0.109352,-0.107132,-2.58,0,0,0,-2.19225,0.0985629,-1.9127,0.216647,-2.58,0,0,0,0,0,0,0,0,0,0,0.319916,0.139785,0,-1.5,0,0,0,0,-2.19225,0.0985629,0,0,0,0,-1.9127,0.216647,1.9603e-19,0,0,0,0,0,0,0,0,0,2.51,-0.197126
8036,1.09473,5.86035,6.20508,-0.0109548,0.00601617,-0.00510705,-0.109666,-0.106675,-2.58015,0,0,0,-2.22294,0.10207,-1.92088,0.220507,-2.58,0,0,0,0,0,0,0,0,0,0,0.322217,0.138337,0,-1.5,0,0,0,0,-2.22294,0.10207,0,0,0,0,-1.92088,0.220507,1.9603e-19,0,0,0,0,0,0,0,0,0,2.51,-0.20414
8053,1.09473,5.86035,6.20508,-0.0109548,0.00601617,-0.00510705,-0.109666,-0.106675,-2.58015,0,0,0,-2.25569,0.105864,-1.92946,0.224662,-2.58015,0,0,0,0,0,0,0,0,0,0,0.324657,0.136821,0,-1.5,0,0,0,0,-2.25569,0.105864,0,0,0,0,-1.92946,0.224662,1.9603e-19,0,0,0,0,0,0,0,0,0,2.51,-0.211728
8069,1.09473,5.78027,-1.61426,-0.00856105,0.00907379,-0.00432237,-0.10996,-0.106167,-2.58029,0,0,0,-2.2847,0.109269,-1.93696,0.228319,-2.58029,0,0,0,0,0,0,0,0,0,0,0.326827,0.135475,0,-1.5,0,0,0,0,-2.2847,0.109269,0,0,0,0,-1.93696,0.228319,1.9603e-19,0,0,0,0,0,0,0,0,0,2.51,-0.218539
8085,1.09473,-1.63867,-0.0078125,-0.00980016,0.00820762,-0.00425489,-0.11011,-0.105927,-2.58036,0,0,0,-2.31773,0.113198,-1.94535,0.232514,-2.58036,0,0,0,0,0,0,0,0,0,0,0.329358,0.133892,0,-1.5,0,0,0,0,-2.31773,0.113198,0,0,0,0,-1.94535,0.232514,1.9603e-19,0,0,0,0,0,0,0,0,0,2.51,-0.226397
8101,1.09473,5.71875,-7.22656,-0.00916265,0.00806698,-0.00431499,-0.110259,-0.105685,-2.58042,0,0,0,-2.34893,0.11696,-1.95316,0.236472,-2.58042,0,0,0,0,0,0,0,0,0,0,0.331768,0.132386,0,-1.5,0,0,0,0,-2.34893,0.11696,0,0,0,0,-1.95316,0.236472,1.9603e-19,0,0,0,0,0,0,0,0,0,2.51,-0.23392
8117,1.09473,5.73926,2.59473,-0.00866552,0.00831246,-0.00547884,-0.11056,-0.105191,-2.58057,0,0,0,-2.38027,0.120785,-1.96089,0.24044,-2.58049,0,0,0,0,0,0,0,0,0,0,0.334207,0.130862,0,-1.5,0,0,0,0,-2.38027,0.120785,0,0,0,0,-1.96089,0.24044,1.9603e-19,0,0,0,0,0,0,0,0,0,2.51,-0.241571
8134,1.09473,-1.61816,5.99219,-0.00957885,0.0091829,-0.00387349,-0.110725,-0.104942,-2.58063,0,0,0,-2.41369,0.124921,-1.96901,0.244671,-2.58057,0,0,0,0,0,0,0,0,0,0,0.336829,0.129225,0,-1.5,0,0,0,0,-2.41369,0.124921,0,0,0,0,-1.96901,0.244671,1.9603e-19,0,0,0,0,0,0,0,0,0,2.51,-0.249842
8150,1.09473,5.77246,-2.71387,-0.00985327,0.00739354,-0.00474418,-0.110883,-0.104717,-2.58071,0,0,0,-2.44527,0.128877,-1.97656,0.248695,-2.58071,0,0,0,0,0,0,0,0,0,0,0.339314,0.127685,0,-1.5,0,0,0,0,-2.44527,0.128877,0,0,0,0,-1.97656,0.248695,1.9603e-19,0,0,0,0,0,0,0,0,0,2.51,-0.257753
8167,1.09473,-1.58496,5.8418,-0.00894247,0.00895141,-0.00321808,-0.111032,-0.104453,-2.58077,0,0,0,-2.47698,0.132898,-1.98402,0.252736,-2.58077,0,0,0,0,0,0,0,0,0,0,0.341854,0.126098,0,-1.5,0,0,0,0,-2.47698,0.132898,0,0,0,0,-1.98402,0.252736,1.9603e-19,0,0,0,0,0,0,0,0,0,2.51,-0.265796
8181,1.09473,5.80566,2.40234,-0.0113933,0.00954538,-0.00471087,-0.111189,-0.104199,-2.58085,0,0,0,-2.50681,0.136726,-1.99094,0.256536,-2.58085,0,0,0,0,0,0,0,0,0,0,0.344254,0.124604,0,-1.5,0,0,0,0,-2.50681,0.136726,0,0,0,0,-1.99094,0.256536,1.9603e-19,0,0,0,0,0,0,0,0,0,2.51,-0.273452
8196,1.09473,-1.55176,1.44238,-0.0121255,0.00812514,-0.00431943,-0.111357,-0.103964,-2.58091,0,0,0,-2.53674,0.140611,-1.99779,0.260348,-2.58091,0,0,0,0,0,0,0,0,0,0,0.346687,0.123086,0,-1.5,0,0,0,0,-2.53674,0.140611,0,0,0,0,-1.99779,0.260348,1.9603e-19,0,0,0,0,0,0,0,0,0,2.51,-0.281221
8212,1.09473,5.83887,2.62109,-0.010126,0.00922573,-0.00364531,-0.111501,-0.103703,-2.58098,0,0,0,-2.56878,0.144819,-2.00502,0.264426,-2.58098,0,0,0,0,0,0,0,0,0,0,0.349312,0.12145,0,-1.5,0,0,0,0,-2.56878,0.144819,0,0,0,0,-2.00502,0.264426,1.9603e-19,0,0,0,0,0,0,0,0,0,2.51,-0.289638
8228,1.09473,5.78613,-3.17578,-0.0100451,0.00822745,-0.00521707,-0.111783,-0.103231,-2.58113,0,0,0,-2.60093,0.149093,-2.01218,0.268498,-2.58098,0,0,0,0,0,0,0,0,0,0,0.351984,0.119772,0,-1.5,0,0,0,0,-2.60093,0.149093,0,0,0,0,-2.01218,0.268498,1.9603e-19,0,0,0,0,0,0,0,0,0,2.51,-0.298185
8244,1.09473,-1.63281,0.421875,-0.0098382,0.0074872,-0.00498607,-0.111934,-0.102994,-2.58121,0,0,0,-2.6332,0.153432,-2.01924,0.272617,-2.58113,0,0,0,0,0,0,0,0,0,0,0.35465,0.118125,0,-1.5,0,0,0,0,-2.6332,0.153432,0,0,0,0,-2.01924,0.272617,1.9603e-19,0,0,0,0,0,0,0,0,0,2.51,-0.306864
8260,1.09473,5.75488,-6.4707,-0.0100568,0.00859134,-0.00317323,-0.112081,-0.10275,-2.58127,0,0,0,-2.66558,0.157837,-2.02622,0.276756,-2.58127,0,0,0,0,0,0,0,0,0,0,0.357353,0.116452,0,-1.5,0,0,0,0,-2.66558,0.157837,0,0,0,0,-2.02622,0.276756,1.9603e-19,0,0,0,0,0,0,0,0,0,2.51,-0.315674
8277,1.09473,-1.60254,6.04297,-0.0100384,0.00797309,-0.00503212,-0.112228,-0.102518,-2.58134,0,0,0,-2.69807,0.162309,-2.03313,0.280902,-2.58134,0,0,0,0,0,0,0,0,0,0,0.360105,0.114736,0,-1.5,0,0,0,0,-2.69807,0.162309,0,0,0,0,-2.03313,0.280902,1.9603e-19,0,0,0,0,0,0,0,0,0,2.51,-0.324618
8293,1.09473,-1.60254,6.04297,-0.0100384,0.00797309,-0.00503212,-0.112228,-0.102518,-2.58134,0,0,0,-2.73272,0.167133,-2.04039,0.285303,-2.58134,0,0,0,0,0,0,0,0,0,0,0.363081,0.11287,0,-1.5,0,0,0,0,-2.73272,0.167133,0,0,0,0,-2.04039,0.285303,1.9603e-19,0,0,0,0,0,0,0,0,0,2.51,-0.334265
8309,1.09473,-1.56934,-4.33203,-0.0106436,0.00878782,-0.00515564,-0.112517,-0.102041,-2.5815,0,0,0,-2.76543,0.17174,-2.04715,0.289447,-2.5815,0,0,0,0,0,0,0,0,0,0,0.365862,0.111156,0,-1.5,0,0,0,0,-2.76543,0.17174,0,0,0,0,-2.04715,0.289447,1.9603e-19,0,0,0,0,0,0,0,0,0,2.51,-0.343479
8325,1.09473,-1.53613,-1.77637,-0.00936178,0.00757487,-0.00413624,-0.1128,-0.101568,-2.58164,0,0,0,-2.79826,0.176413,-2.05383,0.293604,-2.5815,0,0,0,0,0,0,0,0,0,0,0.368723,0.109362,0,-1.5,0,0,0,0,-2.79826,0.176413,0,0,0,0,-2.05383,0.293604,1.9603e-19,0,0,0,0,0,0,0,0,0,2.51,-0.352826
8341,1.09473,5.85449,-4.2168,-0.00988802,0.00794163,-0.00609259,-0.112943,-0.101333,-2.58174,0,0,0,-2.83118,0.181153,-2.06043,0.297772,-2.58164,0,0,0,0,0,0,0,0,0,0,0.371573,0.107603,0,-1.5,0,0,0,0,-2.83118,0.181153,0,0,0,0,-2.06043,0.297772,1.9603e-19,0,0,0,0,0,0,0,0,0,2.51,-0.362306
8357,1.09473,5.85449,-4.2168,-0.00988802,0.00794163,-0.00609259,-0.112943,-0.101333,-2.58174,0,0,0,-2.86422,0.185962,-2.06695,0.301984,-2.58174,0,0,0,0,0,0,0,0,0,0,0.374476,0.105801,0,-1.5,0,0,0,0,-2.86422,0.185962,0,0,0,0,-2.06695,0.301984,1.9603e-19,0,0,0,0,0,0,0,0,0,2.51,-0.371924
8373,1.09473,5.83203,-1.29492,-0.00948515,0.00855127,-0.00508363,-0.113235,-0.100848,-2.58188,0,0,0,-2.89736,0.190836,-2.0734,0.306187,-2.58188,0,0,0,0,0,0,0,0,0,0,0.377391,0.104003,0,-1.5,0,0,0,0,-2.89736,0.190836,0,0,0,0,-2.0734,0.306187,1.9603e-19,0,0,0,0,0,0,0,0,0,2.51,-0.381672
8390,1.09473,5.83203,-1.29492,-0.00948515,0.00855127,-0.00508363,-0.113235,-0.100848,-2.58188,0,0,0,-2.93268,0.196092,-2.08017,0.310678,-2.58188,0,0,0,0,0,0,0,0,0,0,0.38057,0.102012,0,-1.5,0,0,0,0,-2.93268,0.196092,0,0,0,0,-2.08017,0.310678,1.9603e-19,0,0,0,0,0,0,0,0,0,2.51,-0.392185
8405,1.09473,5.73242,-4.86816,-0.011182,0.00930472,-0.00481322,-0.113527,-0.10037,-2.58203,0,0,0,-2.96394,0.20079,-2.08607,0.314643,-2.58203,0,0,0,0,0,0,0,0,0,0,0.38336,0.100295,0,-1.5,0,0,0,0,-2.96394,0.20079,0,0,0,0,-2.08607,0.314643,1.9603e-19,0,0,0,0,0,0,0,0,0,2.51,-0.40158
8420,1.09473,5.73926,-5.67773,-0.0104053,0.00866171,-0.00473733,-0.11377,-0.0996094,-2.58203,0,0,0,-2.99529,0.205548,-2.09191,0.318634,-2.58209,0,0,0,0,0,0,0,0,0,0,0.386206,0.0985252,0,-1.5,0,0,0,0,-2.99529,0.205548,0,0,0,0,-2.09191,0.318634,1.9603e-19,0,0,0,0,0,0,0,0,0,2.51,-0.411096
8436,1.09473,-1.61816,-6.96289,-0.00875633,0.00844575,-0.00370238,-0.113963,-0.099661,-2.58223,0,0,0,-3.02882,0.21069,-2.09804,0.322915,-2.58203,0,0,0,0,0,0,0,0,0,0,0.389306,0.0965711,0,-1.5,0,0,0,0,-3.02882,0.21069,0,0,0,0,-2.09804,0.322915,1.9603e-19,0,0,0,0,0,0,0,0,0,2.51,-0.421379
8453,1.09473,5.77246,-4.79492,-0.0100058,0.00937819,-0.00452296,-0.11412,-0.0994069,-2.5823,0,0,0,-3.06456,0.216229,-2.10447,0.327474,-2.5823,0,0,0,0,0,0,0,0,0,0,0.392549,0.0945997,0,-1.5,0,0,0,0,-3.06456,0.216229,0,0,0,0,-2.10447,0.327474,1.9603e-19,0,0,0,0,0,0,0,0,0,2.51,-0.432459
8468,1.09473,-1.58496,0.484375,-0.0104477,0.0100113,-0.00315544,-0.114263,-0.0991667,-2.58235,0,0,0,-3.09618,0.22118,-2.1101,0.331519,-2.58235,0,0,0,0,0,0,0,0,0,0,0.39549,0.0927711,0,-1.5,0,0,0,0,-3.09618,0.22118,0,0,0,0,-2.1101,0.331519,1.9603e-19,0,0,0,0,0,0,0,0,0,2.51,-0.442361
8485,1.09473,5.80566,-5.62109,-0.0104714,0.00799249,-0.00392652,-0.114417,-0.0989308,-2.58243,0,0,0,-3.13212,0.226867,-2.11639,0.336115,-2.58243,0,0,0,0,0,0,0,0,0,0,0.398854,0.0906831,0,-1.5,0,0,0,0,-3.13212,0.226867,0,0,0,0,-2.11639,0.336115,1.9603e-19,0,0,0,0,0,0,0,0,0,2.51,-0.453734
8501,1.09473,-1.55176,5.95117,-0.00927427,0.00728021,-0.00443109,-0.114562,-0.0986968,-2.58249,0,0,0,-3.16392,0.231948,-2.12189,0.340178,-2.58249,0,0,0,0,0,0,0,0,0,0,0.40185,0.0888244,0,-1.5,0,0,0,0,-3.16392,0.231948,0,0,0,0,-2.12189,0.340178,1.9603e-19,0,0,0,0,0,0,0,0,0,2.51,-0.463896
8517,1.09473,5.83887,4.63281,-0.0100249,0.00924493,-0.00487349,-0.114712,-0.0984442,-2.58257,0,0,0,-3.20006,0.237782,-2.12804,0.344791,-2.58257,0,0,0,0,0,0,0,0,0,0,0.405281,0.0866957,0,-1.5,0,0,0,0,-3.20006,0.237782,0,0,0,0,-2.12804,0.344791,1.9603e-19,0,0,0,0,0,0,0,0,0,2.51,-0.475563
8533,1.09473,5.82129,-5.6416,-0.00965336,0.0075395,-0.00483577,-0.115024,-0.0979936,-2.58272,0,0,0,-3.23417,0.243342,-2.13377,0.349139,-2.58264,0,0,0,0,0,0,0,0,0,0,0.408541,0.0846748,0,-1.5,0,0,0,0,-3.23417,0.243342,0,0,0,0,-2.13377,0.349139,1.9603e-19,0,0,0,0,0,0,0,0,0,2.51,-0.486685
8549,1.09473,-1.56934,2.20605,-0.00985768,0.00783059,-0.00548334,-0.115177,-0.0977623,-2.58281,0,0,0,-3.26836,0.248973,-2.13942,0.353522,-2.58281,0,0,0,0,0,0,0,0,0,0,0.411813,0.0826701,0,-1.5,0,0,0,0,-3.26836,0.248973,0,0,0,0,-2.13942,0.353522,1.9603e-19,0,0,0,0,0,0,0,0,0,2.51,-0.497947
8565,1.09473,5.78809,-6.76367,-0.0096936,0.00778341,-0.0040873,-0.115319,-0.0975342,-2.58288,0,0,0,-3.30265,0.254674,-2.145,0.357916,-2.58288,0,0,0,0,0,0,0,0,0,0,0.415144,0.0806049,0,-1.5,0,0,0,0,-3.30265,0.254674,0,0,0,0,-2.145,0.357916,1.9603e-19,0,0,0,0,0,0,0,0,0,2.51,-0.509349
8581,1.09473,-1.60254,1.43262,-0.0093115,0.00911895,-0.00400048,-0.115466,-0.097295,-2.58295,0,0,0,-3.33703,0.260446,-2.15051,0.362322,-2.58295,0,0,0,0,0,0,0,0,0,0,0.418507,0.0785217,0,-1.5,0,0,0,0,-3.33703,0.260446,0,0,0,0,-2.15051,0.362322,1.9603e-19,0,0,0,0,0,0,0,0,0,2.51,-0.520892
8597,1.09473,-1.60254,1.43262,-0.0093115,0.00911895,-0.00400048,-0.115466,-0.097295,-2.58295,0,0,0,-3.37149,0.266289,-2.15597,0.366717,-2.58295,0,0,0,0,0,0,0,0,0,0,0.421916,0.0763907,0,-1.5,0,0,0,0,-3.37149,0.266289,0,0,0,0,-2.15597,0.366717,1.9603e-19,0,0,0,0,0,0,0,0,0,2.51,-0.532579
8613,1.09473,-1.63086,-4.96582,-0.011313,0.0084364,-0.00316489,-0.115767,-0.0968265,-2.58309,0,0,0,-3.40604,0.272201,-2.16137,0.371113,-2.58309,0,0,0,0,0,0,0,0,0,0,0.425319,0.0743014,0,-1.5,0,0,0,0,-3.40604,0.272201,0,0,0,0,-2.16137,0.371113,1.9603e-19,0,0,0,0,0,0,0,0,0,2.51,-0.544403
8630,1.09473,-1.5459,5.71875,-0.00993935,0.00866746,-0.00390398,-0.116045,-0.0963387,-2.58324,0,0,0,-3.44285,0.278562,-2.16704,0.375794,-2.58309,0,0,0,0,0,0,0,0,0,0,0.429009,0.071996,0,-1.5,0,0,0,0,-3.44285,0.278562,0,0,0,0,-2.16704,0.375794,1.9603e-19,0,0,0,0,0,0,0,0,0,2.51,-0.557124
8644,1.09473,5.83105,0.364258,-0.0116278,0.00814248,-0.0044693,-0.116205,-0.0961106,-2.58331,0,0,0,-3.47323,0.283858,-2.17163,0.379689,-2.58324,0,0,0,0,0,0,0,0,0,0,0.432045,0.0701389,0,-1.5,0,0,0,0,-3.47323,0.283858,0,0,0,0,-2.17163,0.379689,1.9603e-19,0,0,0,0,0,0,0,0,0,2.51,-0.567715
8660,1.09473,5.83105,0.364258,-0.0116278,0.00814248,-0.0044693,-0.116205,-0.0961106,-2.58331,0,0,0,-3.50803,0.289978,-2.17682,0.384149,-2.58331,0,0,0,0,0,0,0,0,0,0,0.43557,0.0679569,0,-1.5,0,0,0,0,-3.50803,0.289978,0,0,0,0,-2.17682,0.384149,1.9603e-19,0,0,0,0,0,0,0,0,0,2.51,-0.579956
8676,1.09473,5.79785,-1.88281,-0.00910715,0.00769943,-0.00549253,-0.116489,-0.0956546,-2.58346,0,0,0,-3.54291,0.29617,-2.18196,0.388594,-2.58346,0,0,0,0,0,0,0,0,0,0,0.439101,0.065796,0,-1.5,0,0,0,0,-3.54291,0.29617,0,0,0,0,-2.18196,0.388594,1.9603e-19,0,0,0,0,0,0,0,0,0,2.51,-0.592339
8692,1.09473,5.79785,-1.88281,-0.00910715,0.00769943,-0.00549253,-0.116489,-0.0956546,-2.58346,0,0,0,-3.57787,0.302433,-2.18703,0.393062,-2.58346,0,0,0,0,0,0,0,0,0,0,0.442705,0.0635459,0,-1.5,0,0,0,0,-3.57787,0.302433,0,0,0,0,-2.18703,0.393062,1.9603e-19,0,0,0,0,0,0,0,0,0,2.51,-0.604865
8708,1.09473,5.76465,5.73633,-0.0114164,0.00955323,-0.00374827,-0.116803,-0.0951775,-2.58362,0,0,0,-3.61292,0.308767,-2.19205,0.397527,-2.58362,0,0,0,0,0,0,0,0,0,0,0.4463,0.0613486,0,-1.5,0,0,0,0,-3.61292,0.308767,0,0,0,0,-2.19205,0.397527,1.9603e-19,0,0,0,0,0,0,0,0,0,2.51,-0.617534
8724,1.09473,5.73145,7.2666,-0.00903752,0.00862926,-0.00505777,-0.117098,-0.0947144,-2.58378,0,0,0,-3.64804,0.315175,-2.197,0.402009,-2.58362,0,0,0,0,0,0,0,0,0,0,0.449969,0.0590589,0,-1.5,0,0,0,0,-3.64804,0.315175,0,0,0,0,-2.197,0.402009,1.9603e-19,0,0,0,0,0,0,0,0,0,2.51,-0.630349
8740,1.09473,-1.61426,1.88477,-0.00983707,0.00971337,-0.00359598,-0.117242,-0.0944816,-2.58384,0,0,0,-3.68324,0.321654,-2.20189,0.406497,-2.58378,0,0,0,0,0,0,0,0,0,0,0.453632,0.0568219,0,-1.5,0,0,0,0,-3.68324,0.321654,0,0,0,0,-2.20189,0.406497,1.9603e-19,0,0,0,0,0,0,0,0,0,2.51,-0.643308
8756,1.09473,5.80957,-3.91797,-0.0103848,0.00863906,-0.00535012,-0.117389,-0.0942541,-2.58392,0,0,0,-3.71853,0.328205,-2.20671,0.411034,-2.58392,0,0,0,0,0,0,0,0,0,0,0.457341,0.0545521,0,-1.5,0,0,0,0,-3.71853,0.328205,0,0,0,0,-2.20671,0.411034,1.9603e-19,0,0,0,0,0,0,0,0,0,2.51,-0.656411
8772,1.09473,-1.55762,-2.88867,-0.0105326,0.00866274,-0.00583694,-0.117546,-0.0940242,-2.584,0,0,0,-3.75388,0.33483,-2.21146,0.415581,-2.584,0,0,0,0,0,0,0,0,0,0,0.461097,0.052236,0,-1.5,0,0,0,0,-3.75388,0.33483,0,0,0,0,-2.21146,0.415581,1.9603e-19,0,0,0,0,0,0,0,0,0,2.51,-0.669659
8788,1.09473,5.7998,2.40332,-0.00924713,0.00761741,-0.00414932,-0.117681,-0.0938093,-2.58407,0,0,0,-3.78932,0.341527,-2.21616,0.420136,-2.58407,0,0,0,0,0,0,0,0,0,0,0.46489,0.0498935,0,-1.5,0,0,0,0,-3.78932,0.341527,0,0,0,0,-2.21616,0.420136,1.9603e-19,0,0,0,0,0,0,0,0,0,2.51,-0.683054
8804,1.09473,-1.59082,-4.78125,-0.00960728,0.00759655,-0.00474941,-0.117821,-0.0935898,-2.58414,0,0,0,-3.82482,0.348297,-2.22079,0.424693,-2.58414,0,0,0,0,0,0,0,0,0,0,0.468713,0.0475334,0,-1.5,0,0,0,0,-3.82482,0.348297,0,0,0,0,-2.22079,0.424693,1.9603e-19,0,0,0,0,0,0,0,0,0,2.51,-0.696594
8820,1.09473,5.7666,6.87988,-0.0108666,0.00838661,-0.00442336,-0.11798,-0.0933634,-2.58422,0,0,0,-3.8604,0.35514,-2.22538,0.429254,-2.58422,0,0,0,0,0,0,0,0,0,0,0.472567,0.0451569,0,-1.5,0,0,0,0,-3.8604,0.35514,0,0,0,0,-2.22538,0.429254,1.9603e-19,0,0,0,0,0,0,0,0,0,2.51,-0.71028
8836,1.09473,5.7334,7.06152,-0.0103296,0.00898812,-0.00389645,-0.118259,-0.0929206,-2.58437,0,0,0,-3.89606,0.362054,-2.22991,0.433817,-2.5843,0,0,0,0,0,0,0,0,0,0,0.476451,0.0427628,0,-1.5,0,0,0,0,-3.89606,0.362054,0,0,0,0,-2.22991,0.433817,1.9603e-19,0,0,0,0,0,0,0,0,0,2.51,-0.724109
8853,1.09473,-1.65723,-4.30078,-0.0103739,0.00845598,-0.00447505,-0.118396,-0.0926982,-2.58444,0,0,0,-3.93402,0.369484,-2.23466,0.438671,-2.58437,0,0,0,0,0,0,0,0,0,0,0.480619,0.0401913,0,-1.5,0,0,0,0,-3.93402,0.369484,0,0,0,0,-2.23466,0.438671,1.9603e-19,0,0,0,0,0,0,0,0,0,2.51,-0.738969
8868,1.09473,5.71777,1.95508,-0.0105386,0.00873732,-0.00286268,-0.118548,-0.0924636,-2.5845,0,0,0,-3.96758,0.376105,-2.23879,0.442982,-2.5845,0,0,0,0,0,0,0,0,0,0,0.484317,0.0379297,0,-1.5,0,0,0,0,-3.96758,0.376105,0,0,0,0,-2.23879,0.442982,1.9603e-19,0,0,0,0,0,0,0,0,0,2.51,-0.75221
8883,1.09473,-1.60645,-3.57129,-0.0111167,0.00893459,-0.00529051,-0.118701,-0.0922434,-2.58458,0,0,0,-4.0012,0.382791,-2.24287,0.447302,-2.58458,0,0,0,0,0,0,0,0,0,0,0.488053,0.0356338,0,-1.5,0,0,0,0,-4.0012,0.382791,0,0,0,0,-2.24287,0.447302,1.9603e-19,0,0,0,0,0,0,0,0,0,2.51,-0.765583
8899,1.09473,5.81738,6.36523,-0.0104542,0.00852223,-0.00376275,-0.118834,-0.0920198,-2.58465,0,0,0,-4.03713,0.389995,-2.24716,0.45192,-2.58465,0,0,0,0,0,0,0,0,0,0,0.492076,0.0331529,0,-1.5,0,0,0,0,-4.03713,0.389995,0,0,0,0,-2.24716,0.45192,1.9603e-19,0,0,0,0,0,0,0,0,0,2.51,-0.779991
8915,1.09473,-1.5459,2.30762,-0.0100616,0.00775276,-0.0036358,-0.118976,-0.0918046,-2.58472,0,0,0,-4.07313,0.397274,-2.25141,0.456538,-2.58472,0,0,0,0,0,0,0,0,0,0,0.496132,0.0306524,0,-1.5,0,0,0,0,-4.07313,0.397274,0,0,0,0,-2.25141,0.456538,1.9603e-19,0,0,0,0,0,0,0,0,0,2.51,-0.794549
8931,1.09473,5.81152,-2.92188,-0.0100808,0.00756815,-0.00336311,-0.119119,-0.0915895,-2.58479,0,0,0,-4.10919,0.404626,-2.2556,0.461159,-2.58479,0,0,0,0,0,0,0,0,0,0,0.50022,0.0281321,0,-1.5,0,0,0,0,-4.10919,0.404626,0,0,0,0,-2.2556,0.461159,1.9603e-19,0,0,0,0,0,0,0,0,0,2.51,-0.809252
8947,1.09473,5.77832,6.38086,-0.0109532,0.00929297,-0.00323358,-0.11941,-0.0911134,-2.58493,0,0,0,-4.14533,0.412052,-2.25974,0.46578,-2.58486,0,0,0,0,0,0,0,0,0,0,0.504338,0.0255951,0,-1.5,0,0,0,0,-4.14533,0.412052,0,0,0,0,-2.25974,0.46578,1.9603e-19,0,0,0,0,0,0,0,0,0,2.51,-0.824103
8963,1.09473,-1.6123,-0.0800781,-0.0103063,0.00846686,-0.00411184,-0.119565,-0.0908955,-2.585,0,0,0,-4.18152,0.419553,-2.26382,0.470409,-2.58493,0,0,0,0,0,0,0,0,0,0,0.508491,0.0230369,0,-1.5,0,0,0,0,-4.18152,0.419553,0,0,0,0,-2.26382,0.470409,1.9603e-19,0,0,0,0,0,0,0,0,0,2.51,-0.839106
8979,1.09473,5.74512,-2.19141,-0.00722304,0.00811141,-0.00499466,-0.11967,-0.0906758,-2.58508,0,0,0,-4.21779,0.427127,-2.26784,0.475073,-2.58508,0,0,0,0,0,0,0,0,0,0,0.512667,0.0204972,0,-1.5,0,0,0,0,-4.21779,0.427127,0,0,0,0,-2.26784,0.475073,1.9603e-19,0,0,0,0,0,0,0,0,0,2.51,-0.854254
8995,1.09473,5.74512,-2.19141,-0.00722304,0.00811141,-0.00499466,-0.11967,-0.0906758,-2.58508,0,0,0,-4.25411,0.434777,-2.27181,0.479724,-2.58508,0,0,0,0,0,0,0,0,0,0,0.516902,0.0178625,0,-1.5,0,0,0,0,-4.25411,0.434777,0,0,0,0,-2.27181,0.479724,1.9603e-19,0,0,0,0,0,0,0,0,0,2.51,-0.869554
9011,1.09473,5.75781,0.676758,-0.0114458,0.00804059,-0.00378235,-0.119969,-0.0902285,-2.58521,0,0,0,-4.2905,0.4425,-2.27574,0.484371,-2.58521,0,0,0,0,0,0,0,0,0,0,0.521142,0.0152796,0,-1.5,0,0,0,0,-4.2905,0.4425,0,0,0,0,-2.27574,0.484371,1.9603e-19,0,0,0,0,0,0,0,0,0,2.51,-0.885
9027,1.09473,5.75781,0.676758,-0.0114458,0.00804059,-0.00378235,-0.119969,-0.0902285,-2.58521,0,0,0,-4.32696,0.450299,-2.27961,0.489028,-2.58521,0,0,0,0,0,0,0,0,0,0,0.525442,0.0126055,0,-1.5,0,0,0,0,-4.32696,0.450299,0,0,0,0,-2.27961,0.489028,1.9603e-19,0,0,0,0,0,0,0,0,0,2.51,-0.900597
9043,1.09473,-1.56641,-6.93359,-0.0118041,0.00897177,-0.00298448,-0.12038,-0.0895397,-2.58544,0,0,0,-4.36347,0.45817,-2.28344,0.493675,-2.58538,0,0,0,0,0,0,0,0,0,0,0.52974,0.0100005,0,-1.5,0,0,0,0,-4.36347,0.45817,0,0,0,0,-2.28344,0.493675,1.9603e-19,0,0,0,0,0,0,0,0,0,2.51,-0.916341
9060,1.09473,5.82422,5.39453,-0.0129016,0.00915767,-0.00455258,-0.120554,-0.0893213,-2.58552,0,0,0,-4.40233,0.466617,-2.28743,0.498651,-2.58552,0,0,0,0,0,0,0,0,0,0,0.534358,0.00718921,0,-1.5,0,0,0,0,-4.40233,0.466617,0,0,0,0,-2.28743,0.498651,1.9603e-19,0,0,0,0,0,0,0,0,0,2.51,-0.933235
9075,1.09473,-1.5332,2.79297,-0.01018,0.00843624,-0.00489136,-0.120699,-0.0890967,-2.5856,0,0,0,-4.43667,0.47414,-2.2909,0.50307,-2.5856,0,0,0,0,0,0,0,0,0,0,0.538477,0.00466271,0,-1.5,0,0,0,0,-4.43667,0.47414,0,0,0,0,-2.2909,0.50307,1.9603e-19,0,0,0,0,0,0,0,0,0,2.51,-0.94828
9092,1.09473,-1.5332,2.79297,-0.01018,0.00843624,-0.00489136,-0.120699,-0.0890967,-2.5856,0,0,0,-4.47566,0.482749,-2.29478,0.50807,-2.5856,0,0,0,0,0,0,0,0,0,0,0.543195,0.00173105,0,-1.5,0,0,0,0,-4.47566,0.482749,0,0,0,0,-2.29478,0.50807,1.9603e-19,0,0,0,0,0,0,0,0,0,2.51,-0.965498
9107,1.09473,-1.54492,1.87012,-0.0113969,0.00727793,-0.00447827,-0.120969,-0.0886583,-2.58576,0,0,0,-4.51012,0.490413,-2.29817,0.512474,-2.58576,0,0,0,0,0,0,0,0,0,0,0.547355,-0.000780784,0,-1.5,0,0,0,0,-4.51012,0.490413,0,0,0,0,-2.29817,0.512474,1.9603e-19,0,0,0,0,0,0,0,0,0,2.51,-0.980825
9123,1.09473,-1.54492,1.87012,-0.0113969,0.00727793,-0.00447827,-0.120969,-0.0886583,-2.58576,0,0,0,-4.54693,0.498662,-2.30173,0.517181,-2.58576,0,0,0,0,0,0,0,0,0,0,0.551859,-0.00357804,0,-1.5,0,0,0,0,-4.54693,0.498662,0,0,0,0,-2.30173,0.517181,1.9603e-19,0,0,0,0,0,0,0,0,0,2.51,-0.997323
9139,1.09473,5.7793,4.00098,-0.00708356,0.00884843,-0.00498691,-0.121373,-0.0879999,-2.58599,0,0,0,-4.58379,0.506986,-2.30525,0.521881,-2.58591,0,0,0,0,0,0,0,0,0,0,0.556368,-0.00631357,0,-1.5,0,0,0,0,-4.58379,0.506986,0,0,0,0,-2.30525,0.521881,1.9603e-19,0,0,0,0,0,0,0,0,0,2.51,-1.01397
9156,1.09473,-1.61133,5.61328,-0.0109905,0.00892577,-0.00622852,-0.121519,-0.0877741,-2.58609,0,0,0,-4.62302,0.515913,-2.30893,0.526905,-2.58599,0,0,0,0,0,0,0,0,0,0,0.561213,-0.00928365,0,-1.5,0,0,0,0,-4.62302,0.515913,0,0,0,0,-2.30893,0.526905,1.9603e-19,0,0,0,0,0,0,0,0,0,2.51,-1.03183
9172,1.09473,5.76758,-6.36426,-0.0128243,0.00878985,-0.00555143,-0.121676,-0.0875634,-2.58617,0,0,0,-4.66,0.524392,-2.31233,0.531654,-2.58617,0,0,0,0,0,0,0,0,0,0,0.565795,-0.0120449,0,-1.5,0,0,0,0,-4.66,0.524392,0,0,0,0,-2.31233,0.531654,1.9603e-19,0,0,0,0,0,0,0,0,0,2.51,-1.04878
9188,1.09473,5.76758,-6.36426,-0.0128243,0.00878985,-0.00555143,-0.121676,-0.0875634,-2.58617,0,0,0,-4.69703,0.532947,-2.31568,0.536401,-2.58617,0,0,0,0,0,0,0,0,0,0,0.570437,-0.0149262,0,-1.5,0,0,0,0,-4.69703,0.532947,0,0,0,0,-2.31568,0.536401,1.9603e-19,0,0,0,0,0,0,0,0,0,2.51,-1.06589
9204,1.09473,5.76758,-6.36426,-0.0128243,0.00878985,-0.00555143,-0.121676,-0.0875634,-2.58617,0,0,0,-4.73412,0.541577,-2.31901,0.541111,-2.58617,0,0,0,0,0,0,0,0,0,0,0.575104,-0.0178225,0,-1.5,0,0,0,0,-4.73412,0.541577,0,0,0,0,-2.31901,0.541111,1.9603e-19,0,0,0,0,0,0,0,0,0,2.51,-1.08315
9220,1.09473,-1.51367,5.55469,-0.0111555,0.00894696,-0.00303092,-0.122092,-0.0868982,-2.58639,0,0,0,-4.77125,0.550284,-2.3223,0.545826,-2.58639,0,0,0,0,0,0,0,0,0,0,0.579771,-0.0206123,0,-1.5,0,0,0,0,-4.77125,0.550284,0,0,0,0,-2.3223,0.545826,1.9603e-19,0,0,0,0,0,0,0,0,0,2.51,-1.10057
9236,1.09473,-1.6084,3.25391,-0.00976629,0.00817401,-0.00384468,-0.122376,-0.0864492,-2.58654,0,0,0,-4.80844,0.559066,-2.32551,0.550591,-2.58647,0,0,0,0,0,0,0,0,0,0,0.584503,-0.0235088,0,-1.5,0,0,0,0,-4.80844,0.559066,0,0,0,0,-2.32551,0.550591,1.9603e-19,0,0,0,0,0,0,0,0,0,2.51,-1.11813
9253,1.09473,-1.6084,3.25391,-0.00976629,0.00817401,-0.00384468,-0.122376,-0.0864492,-2.58654,0,0,0,-4.84801,0.568482,-2.32888,0.55566,-2.58654,0,0,0,0,0,0,0,0,0,0,0.589571,-0.0266165,0,-1.5,0,0,0,0,-4.84801,0.568482,0,0,0,0,-2.32888,0.55566,1.9603e-19,0,0,0,0,0,0,0,0,0,2.51,-1.13696
9268,1.09473,-1.6582,4.47363,-0.0107326,0.0082594,-0.00376014,-0.122652,-0.0860188,-2.58668,0,0,0,-4.88298,0.57686,-2.3318,0.560132,-2.58668,0,0,0,0,0,0,0,0,0,0,0.59406,-0.0293283,0,-1.5,0,0,0,0,-4.88298,0.57686,0,0,0,0,-2.3318,0.560132,1.9603e-19,0,0,0,0,0,0,0,0,0,2.51,-1.15372
9284,1.09473,5.73242,-2.1582,-0.00989719,0.00845822,-0.0034652,-0.12279,-0.0858085,-2.58675,0,0,0,-4.92032,0.585873,-2.33487,0.564931,-2.58675,0,0,0,0,0,0,0,0,0,0,0.598901,-0.0322951,0,-1.5,0,0,0,0,-4.92032,0.585873,0,0,0,0,-2.33487,0.564931,1.9603e-19,0,0,0,0,0,0,0,0,0,2.51,-1.17175
9300,1.09473,-1.625,-5.66699,-0.00971035,0.00941032,-0.00360168,-0.122914,-0.0855824,-2.58682,0,0,0,-4.95771,0.594961,-2.33789,0.569732,-2.58682,0,0,0,0,0,0,0,0,0,0,0.600729,-0.0333904,0,-1.5,0,0,0,0,-4.95771,0.594961,0,0,0,0,-2.33789,0.569732,1.9603e-19,0,0,0,0,0,0,0,0,0,2.51,-1.18992
9317,1.09473,5.76562,-5.43164,-0.0108467,0.00726006,-0.00464094,-0.123057,-0.0853821,-2.58691,0,0,0,-4.99748,0.604702,-2.34106,0.574833,-2.58691,0,0,0,0,0,0,0,0,0,0,0.600717,-0.0333403,0,-1.5,0,0,0,0,-4.99748,0.604702,0,0,0,0,-2.34106,0.574833,1.9603e-19,0,0,0,0,0,0,0,0,0,2.51,-1.2094
9331,1.09473,-1.5918,-2.33301,-0.0116719,0.00881175,-0.00368643,-0.123214,-0.0851589,-2.58697,0,0,0,-5.03028,0.612787,-2.34363,0.579034,-2.58697,0,0,0,0,0,0,0,0,0,0,0.600707,-0.0332987,0,-1.5,0,0,0,0,-5.03028,0.612787,0,0,0,0,-2.34363,0.579034,1.9603e-19,0,0,0,0,0,0,0,0,0,2.51,-1.22557
9347,1.09473,-1.55859,-5.16016,-0.0105632,0.00896101,-0.00461791,-0.123487,-0.0847319,-2.58712,0,0,0,-5.06546,0.621516,-2.34634,0.583541,-2.58705,0,0,0,0,0,0,0,0,0,0,0.600697,-0.0332549,0,-1.5,0,0,0,0,-5.06546,0.621516,0,0,0,0,-2.34634,0.583541,1.9603e-19,0,0,0,0,0,0,0,0,0,2.51,-1.24303
9362,1.09473,5.82031,4.38379,-0.010814,0.00775471,-0.00371631,-0.12364,-0.0845198,-2.5872,0,0,0,-5.10303,0.630903,-2.3492,0.588353,-2.58712,0,0,0,0,0,0,0,0,0,0,0.600686,-0.0332091,0,-1.5,0,0,0,0,-5.10303,0.630903,0,0,0,0,-2.3492,0.588353,1.9603e-19,0,0,0,0,0,0,0,0,0,2.51,-1.26181
9378,1.09473,-1.57031,2.95508,-0.0103986,0.00847112,-0.00567184,-0.123779,-0.084312,-2.58729,0,0,0,-5.14065,0.640368,-2.35201,0.593188,-2.58729,0,0,0,0,0,0,0,0,0,0,0.600662,-0.033108,0,-1.5,0,0,0,0,-5.14065,0.640368,0,0,0,0,-2.35201,0.593188,1.9603e-19,0,0,0,0,0,0,0,0,0,2.51,-1.28074
9395,1.09473,-1.57031,2.95508,-0.0103986,0.00847112,-0.00567184,-0.123779,-0.084312,-2.58729,0,0,0,-5.17831,0.649909,-2.35478,0.598018,-2.58729,0,0,0,0,0,0,0,0,0,0,0.600662,-0.033108,0,-1.5,0,0,0,0,-5.17831,0.649909,0,0,0,0,-2.35478,0.598018,1.9603e-19,0,0,0,0,0,0,0,0,0,2.51,-1.29982
9410,1.09473,-1.60352,3.69824,-0.00956767,0.00828966,-0.00546618,-0.124051,-0.083895,-2.58746,0,0,0,-5.21602,0.659528,-2.35751,0.602837,-2.58746,0,0,0,0,0,0,0,0,0,0,0.600639,-0.0330079,0,-1.5,0,0,0,0,-5.21602,0.659528,0,0,0,0,-2.35751,0.602837,1.9603e-19,0,0,0,0,0,0,0,0,0,2.51,-1.31906
9426,1.09473,-1.60352,3.69824,-0.00956767,0.00828966,-0.00546618,-0.124051,-0.083895,-2.58746,0,0,0,-5.25377,0.669224,-2.3602,0.607664,-2.58746,0,0,0,0,0,0,0,0,0,0,0.600639,-0.0330079,0,-1.5,0,0,0,0,-5.25377,0.669224,0,0,0,0,-2.3602,0.607664,1.9603e-19,0,0,0,0,0,0,0,0,0,2.51,-1.33845
