timestamp,A_x,A_y,A_z,P,Q,R,Phi,Theta,Psi,poseX,poseY,poseZ,state_X,state_Y,state_Z,state_VzB,state_Bx,state_By,state_Bz,p1_x,p1_y,p2_x,p2_y,p3_x,p3_y,p4_x,p4_y,roll,pitch,yaw,alt,targetHeading,highLevelState,lowLevelState,gateNumber,filtered_x,filtered_y,x_OT,y_OT,vx_OT,vy_OT,filtered_vx,filtered_vygateArearansac_corr_x,ransac_corr_y,ransac_corr_vx,ransac_corr_vy,detectionTimeStamppTermX,dTermX,pTermY,dTermY,vxcmd,vycmd
6092,0,0.233398,-6.39551,-0.0017473,-4.55971e-05,-0.000844708,-0.0094174,-0.0354054,2.27258,0,0,0,-6.80864e-06,1.38671e-05,-0.00126234,0.00257987,2.27251,0,0,0,0,0,0,0,0,0,0,-0.190757,0.162081,0,0,0,0,0,2,-6.80864e-06,1.38671e-05,0,0,0,0,-0.00126234,0.00257987,1.9603e-19,0,0,0,0,0,0,0,0,0,1,-1.52538e-05
6107,0,0.233398,-3.08008,-0.000540799,0.000544416,0.000353819,-0.0100678,-0.0352505,2.27259,0,0,0,-4.68685e-05,9.71142e-05,-0.00354357,0.00742155,2.27259,0,0,0,0,0,0,0,0,0,0,-0.190382,0.163407,0,0,0,0,0,2,-4.68685e-05,9.71142e-05,0,0,0,0,-0.00354357,0.00742155,1.9603e-19,0,0,0,0,0,0,0,0,0,1,-0.000106826
6122,0,0.327148,-6.4834,-0.000190039,0.000409466,7.60963e-05,-0.0107299,-0.0351057,2.27263,0,0,0,-0.000126779,0.000267309,-0.00585946,0.0125996,2.27263,0,0,0,0,0,0,0,0,0,0,-0.189953,0.164812,0,0,0,0,0,2,-0.000126779,0.000267309,0,0,0,0,-0.00585946,0.0125996,1.9603e-19,0,0,0,0,0,0,0,0,0,1,-0.00029404
6140,0,0.301758,-4.65625,-0.00109827,0.000931847,-0.000233544,-0.0112748,-0.0350051,2.27261,0,0,0,-0.000251675,0.000540472,-0.00820548,0.0181062,2.27261,0,0,0,0,0,0,0,0,0,0,-0.189467,0.166295,0,0,0,0,0,2,-0.000251675,0.000540472,0,0,0,0,-0.00820548,0.0181062,1.9603e-19,0,0,0,0,0,0,0,0,0,1,-0.000594519
6156,0,0.301758,1.59375,-0.000470443,0.000522952,-5.22573e-05,-0.0112801,-0.0350029,2.27261,0,0,0,-0.000416081,0.000908873,-0.0104648,0.0236074,2.27261,0,0,0,0,0,0,0,0,0,0,-0.188944,0.167789,0,0,0,0,0,2,-0.000416081,0.000908873,0,0,0,0,-0.0104648,0.0236074,1.9603e-19,0,0,0,0,0,0,0,0,0,1,-0.00099976
6171,0,0.301758,-3.94043,0.000667983,0.000970162,0.000329099,-0.0112741,-0.0349966,2.27263,0,0,0,-0.000592165,0.00130961,-0.0124391,0.0284233,2.27263,0,0,0,0,0,0,0,0,0,0,-0.18847,0.169114,0,0,0,0,0,2,-0.000592165,0.00130961,0,0,0,0,-0.0124391,0.0284233,1.9603e-19,0,0,0,0,0,0,0,0,0,1,-0.00144057
6187,0,0.301758,1.96094,-0.00201959,0.00107672,-0.00111483,-0.0112917,-0.0349883,2.27262,0,0,0,-0.00081317,0.00181798,-0.014529,0.0335205,2.27263,0,0,0,0,0,0,0,0,0,0,-0.187956,0.170531,0,0,0,0,0,2,-0.00081317,0.00181798,0,0,0,0,-0.014529,0.0335205,1.9603e-19,0,0,0,0,0,0,0,0,0,1,-0.00199978
6204,0,0.301758,-4.95117,0.000101945,0.00137178,-0.000881232,-0.0112876,-0.0349818,2.2726,0,0,0,-0.00106743,0.00240749,-0.0166006,0.0385775,2.27262,0,0,0,0,0,0,0,0,0,0,-0.187432,0.171953,0,0,0,0,0,2,-0.00106743,0.00240749,0,0,0,0,-0.0166006,0.0385775,1.9603e-19,0,0,0,0,0,0,0,0,0,1,-0.00264824
6228,0,0.301758,7.33301,0.000250307,0.000822335,-0.00151097,-0.0112736,-0.0349791,2.27259,0,0,0,-0.00152037,0.00346652,-0.0196802,0.0460976,2.27259,0,0,0,0,0,0,0,0,0,0,-0.186623,0.174103,0,0,0,0,0,2,-0.00152037,0.00346652,0,0,0,0,-0.0196802,0.0460976,1.9603e-19,0,0,0,0,0,0,0,0,0,1,-0.00381318
6241,0,0.301758,5.20801,-0.000874863,0.000495216,-9.59447e-05,-0.0112868,-0.0349777,2.27259,0,0,0,-0.00181126,0.00414941,-0.0214563,0.0504333,2.27259,0,0,0,0,0,0,0,0,0,0,-0.186141,0.175361,0,0,0,0,0,2,-0.00181126,0.00414941,0,0,0,0,-0.0214563,0.0504333,1.9603e-19,0,0,0,0,0,0,0,0,0,1,-0.00456435
6257,0,0.301758,-6.81055,-0.000847492,0.000978384,0.000133486,-0.0113059,-0.0349703,2.27258,0,0,0,-0.00217511,0.00500654,-0.0234705,0.0553534,2.27259,0,0,0,0,0,0,0,0,0,0,-0.185579,0.176806,0,0,0,0,0,2,-0.00217511,0.00500654,0,0,0,0,-0.0234705,0.0553534,1.9603e-19,0,0,0,0,0,0,0,0,0,1,-0.00550719
6273,0,0.301758,-2.66406,6.59805e-05,0.00102737,0.000401533,-0.0113138,-0.0349669,2.27259,0,0,0,-0.00257102,0.00594199,-0.0254668,0.0602348,2.27258,0,0,0,0,0,0,0,0,0,0,-0.185008,0.178254,0,0,0,0,0,2,-0.00257102,0.00594199,0,0,0,0,-0.0254668,0.0602348,1.9603e-19,0,0,0,0,0,0,0,0,0,1,-0.00653619
6289,0,0.301758,6.23145,-0.00078212,0.00117443,-0.00056133,-0.0113196,-0.0349625,2.27259,0,0,0,-0.00299866,0.00695516,-0.0274446,0.0650781,2.27259,0,0,0,0,0,0,0,0,0,0,-0.184423,0.179712,0,0,0,0,0,2,-0.00299866,0.00695516,0,0,0,0,-0.0274446,0.0650781,1.9603e-19,0,0,0,0,0,0,0,0,0,1,-0.00765068
6311,0,0.301758,-1.57324,-0.00166155,0.000728773,0.000745771,-0.011355,-0.0349607,2.2726,0,0,0,-0.00364382,0.00848826,-0.0301396,0.0716817,2.27259,0,0,0,0,0,0,0,0,0,0,-0.1836,0.181729,0,0,0,0,0,2,-0.00364382,0.00848826,0,0,0,0,-0.0301396,0.0716817,1.9603e-19,0,0,0,0,0,0,0,0,0,1,-0.00933708
6346,0,0.301758,0.676758,-0.000402446,0.000951654,-0.000605477,-0.0113679,-0.0349522,2.27259,0,0,0,-0.00481836,0.0112904,-0.0343768,0.0820732,2.27259,0,0,0,0,0,0,0,0,0,0,-0.182233,0.184987,0,0,0,0,0,2,-0.00481836,0.0112904,0,0,0,0,-0.0343768,0.0820732,1.9603e-19,0,0,0,0,0,0,0,0,0,1,-0.0124194
6360,0,0.301758,-1.29883,-0.00103621,0.00109599,-9.85108e-05,-0.011376,-0.034951,2.27259,0,0,0,-0.00527774,0.012388,-0.0359199,0.0858718,2.27259,0,0,0,0,0,0,0,0,0,0,-0.181721,0.18619,0,0,0,0,0,2,-0.00527774,0.012388,0,0,0,0,-0.0359199,0.0858718,1.9603e-19,0,0,0,0,0,0,0,0,0,1,-0.0136268
6375,0,0.301758,1.20898,-0.00143989,0.00077529,-0.000149393,-0.0113814,-0.0349529,2.27258,0,0,0,-0.00583366,0.0137182,-0.0376877,0.0902262,2.27258,0,0,0,0,0,0,0,0,0,0,-0.18112,0.187586,0,0,0,0,0,2,-0.00583366,0.0137182,0,0,0,0,-0.0376877,0.0902262,1.9603e-19,0,0,0,0,0,0,0,0,0,1,-0.0150901
6388,0,0.301758,-7.19727,-0.000727008,0.000741522,-0.000255868,-0.0113958,-0.0349569,2.27258,0,0,0,-0.00637545,0.0150163,-0.0393245,0.0942611,2.27258,0,0,0,0,0,0,0,0,0,0,-0.180552,0.188892,0,0,0,0,0,2,-0.00637545,0.0150163,0,0,0,0,-0.0393245,0.0942611,1.9603e-19,0,0,0,0,0,0,0,0,0,1,-0.016518
6401,0,0.301758,1.83594,-0.000467145,0.000314242,0.000253446,-0.011387,-0.034958,2.27258,0,0,0,-0.00689887,0.0162718,-0.040834,0.0979829,2.27258,0,0,0,0,0,0,0,0,0,0,-0.180016,0.190111,0,0,0,0,0,2,-0.00689887,0.0162718,0,0,0,0,-0.040834,0.0979829,1.9603e-19,0,0,0,0,0,0,0,0,0,1,-0.017899
6417,0,0.301758,1.83594,-0.000467145,0.000314242,0.000253446,-0.011387,-0.034958,2.27258,0,0,0,-0.00757163,0.0178874,-0.0426798,0.102532,2.27258,0,0,0,0,0,0,0,0,0,0,-0.179347,0.191616,0,0,0,0,0,2,-0.00757163,0.0178874,0,0,0,0,-0.0426798,0.102532,1.9603e-19,0,0,0,0,0,0,0,0,0,1,-0.0196761
6434,0,0.301758,4.89844,0.000264378,0.00063229,9.29291e-05,-0.0114074,-0.0349572,2.27258,0,0,0,-0.00831931,0.019685,-0.0446246,0.107328,2.27259,0,0,0,0,0,0,0,0,0,0,-0.178625,0.193224,0,0,0,0,0,2,-0.00831931,0.019685,0,0,0,0,-0.0446246,0.107328,1.9603e-19,0,0,0,0,0,0,0,0,0,1,-0.0216535
6450,0,0.301758,4.89844,0.000264378,0.00063229,9.29291e-05,-0.0114074,-0.0349572,2.27258,0,0,0,-0.00905237,0.0214493,-0.046438,0.111805,2.27258,0,0,0,0,0,0,0,0,0,0,-0.177936,0.194741,0,0,0,0,0,2,-0.00905237,0.0214493,0,0,0,0,-0.046438,0.111805,1.9603e-19,0,0,0,0,0,0,0,0,0,1,-0.0235942
6466,0,0.301758,5.67383,-0.00141178,0.00122254,0.000299144,-0.011443,-0.0349256,2.27258,0,0,0,-0.00981429,0.0232849,-0.0482357,0.116246,2.27258,0,0,0,0,0,0,0,0,0,0,-0.177237,0.196265,0,0,0,0,0,2,-0.00981429,0.0232849,0,0,0,0,-0.0482357,0.116246,1.9603e-19,0,0,0,0,0,0,0,0,0,1,-0.0256134
6482,0,0.301758,5.67383,-0.00141178,0.00122254,0.000299144,-0.011443,-0.0349256,2.27258,0,0,0,-0.0106048,0.0251911,-0.0500125,0.120652,2.27258,0,0,0,0,0,0,0,0,0,0,-0.176527,0.197793,0,0,0,0,0,2,-0.0106048,0.0251911,0,0,0,0,-0.0500125,0.120652,1.9603e-19,0,0,0,0,0,0,0,0,0,1,-0.0277103
6498,0,0.301758,1.99121,-0.000187904,0.00116161,0.000319645,-0.011461,-0.0349116,2.27259,0,0,0,-0.0114229,0.0271662,-0.051774,0.125021,2.27259,0,0,0,0,0,0,0,0,0,0,-0.175806,0.199327,0,0,0,0,0,2,-0.0114229,0.0271662,0,0,0,0,-0.051774,0.125021,1.9603e-19,0,0,0,0,0,0,0,0,0,1,-0.0298828
6514,0,0.301758,1.99121,-0.000187904,0.00116161,0.000319645,-0.011461,-0.0349116,2.27259,0,0,0,-0.0122691,0.0292107,-0.0535189,0.129356,2.27259,0,0,0,0,0,0,0,0,0,0,-0.175076,0.200866,0,0,0,0,0,2,-0.0122691,0.0292107,0,0,0,0,-0.0535189,0.129356,1.9603e-19,0,0,0,0,0,0,0,0,0,1,-0.0321318
6529,0,0.301758,-1.74023,0.00027433,0.00130569,-0.000491456,-0.0114544,-0.0349055,2.27259,0,0,0,-0.0130876,0.0311901,-0.055142,0.133388,2.27259,0,0,0,0,0,0,0,0,0,0,-0.174383,0.202314,0,0,0,0,0,2,-0.0130876,0.0311901,0,0,0,0,-0.055142,0.133388,1.9603e-19,0,0,0,0,0,0,0,0,0,1,-0.0343091
6546,0,0.301758,0.170898,-0.00133149,0.00223131,0.00039124,-0.0114689,-0.034884,2.2726,0,0,0,-0.0140458,0.0335092,-0.0569676,0.137922,2.27259,0,0,0,0,0,0,0,0,0,0,-0.173588,0.203962,0,0,0,0,0,2,-0.0140458,0.0335092,0,0,0,0,-0.0569676,0.137922,1.9603e-19,0,0,0,0,0,0,0,0,0,1,-0.0368602
6561,0,0.301758,4.65137,-0.00011627,0.00121385,-7.10522e-05,-0.0114739,-0.0348778,2.27259,0,0,0,-0.0149153,0.0356154,-0.0585627,0.141887,2.2726,0,0,0,0,0,0,0,0,0,0,-0.172877,0.205419,0,0,0,0,0,2,-0.0149153,0.0356154,0,0,0,0,-0.0585627,0.141887,1.9603e-19,0,0,0,0,0,0,0,0,0,1,-0.0391769
6576,0,0.301758,-5.70605,-0.00111304,0.00171314,0.000857688,-0.011495,-0.0348677,2.2726,0,0,0,-0.0158091,0.0377818,-0.0601434,0.145824,2.27259,0,0,0,0,0,0,0,0,0,0,-0.17216,0.20688,0,0,0,0,0,2,-0.0158091,0.0377818,0,0,0,0,-0.0601434,0.145824,1.9603e-19,0,0,0,0,0,0,0,0,0,1,-0.04156
6592,0,0.301758,2.15039,-0.00120821,0.000840213,-6.04059e-05,-0.0115106,-0.0348627,2.27259,0,0,0,-0.0167884,0.0401575,-0.0618127,0.149991,2.27259,0,0,0,0,0,0,0,0,0,0,-0.171384,0.208444,0,0,0,0,0,2,-0.0167884,0.0401575,0,0,0,0,-0.0618127,0.149991,1.9603e-19,0,0,0,0,0,0,0,0,0,1,-0.0441733
6608,0,0.301758,-4.79785,-0.000606906,0.000800399,0.000534127,-0.0115166,-0.0348579,2.2726,0,0,0,-0.0177948,0.0426008,-0.0634666,0.154126,2.2726,0,0,0,0,0,0,0,0,0,0,-0.170598,0.210015,0,0,0,0,0,2,-0.0177948,0.0426008,0,0,0,0,-0.0634666,0.154126,1.9603e-19,0,0,0,0,0,0,0,0,0,1,-0.0468609
6625,0,0.301758,-5.7627,-0.000759459,0.00149954,-0.000673023,-0.0115232,-0.0348493,2.27259,0,0,0,-0.0188275,0.04511,-0.0651057,0.158229,2.27259,0,0,0,0,0,0,0,0,0,0,-0.169805,0.211588,0,0,0,0,0,2,-0.0188275,0.04511,0,0,0,0,-0.0651057,0.158229,1.9603e-19,0,0,0,0,0,0,0,0,0,1,-0.049621
6641,0,0.301758,-6.13086,-0.000340834,0.000615204,-0.000103823,-0.0115324,-0.0348505,2.27259,0,0,0,-0.0199533,0.0478475,-0.0668314,0.162552,2.27259,0,0,0,0,0,0,0,0,0,0,-0.16895,0.213267,0,0,0,0,0,2,-0.0199533,0.0478475,0,0,0,0,-0.0668314,0.162552,1.9603e-19,0,0,0,0,0,0,0,0,0,1,-0.0526323
6657,0,0.301758,3.07715,-0.00169325,0.00123522,-0.00112269,-0.0115362,-0.0348415,2.27257,0,0,0,-0.021039,0.0504895,-0.0684414,0.166587,2.27259,0,0,0,0,0,0,0,0,0,0,-0.168137,0.214852,0,0,0,0,0,2,-0.021039,0.0504895,0,0,0,0,-0.0684414,0.166587,1.9603e-19,0,0,0,0,0,0,0,0,0,1,-0.0555385
6673,0,0.301758,6.14941,-0.0010356,0.00109152,-3.59514e-05,-0.0115373,-0.0348469,2.27258,0,0,0,-0.0221504,0.0531957,-0.0700377,0.17059,2.27257,0,0,0,0,0,0,0,0,0,0,-0.167321,0.216439,0,0,0,0,0,2,-0.0221504,0.0531957,0,0,0,0,-0.0700377,0.17059,1.9603e-19,0,0,0,0,0,0,0,0,0,1,-0.0585153
6695,0,0.301758,6.14941,-0.0010356,0.00109152,-3.59514e-05,-0.0115373,-0.0348469,2.27258,0,0,0,-0.0237257,0.0570353,-0.0722145,0.176049,2.27258,0,0,0,0,0,0,0,0,0,0,-0.166172,0.21864,0,0,0,0,0,2,-0.0237257,0.0570353,0,0,0,0,-0.0722145,0.176049,1.9603e-19,0,0,0,0,0,0,0,0,0,1,-0.0627388
6712,0,0.301758,-5.40039,-0.00154016,0.000566707,-0.000727931,-0.0115411,-0.0348406,2.27256,0,0,0,-0.0248976,0.0598934,-0.0737813,0.179977,2.27257,0,0,0,0,0,0,0,0,0,0,-0.165331,0.220242,0,0,0,0,0,2,-0.0248976,0.0598934,0,0,0,0,-0.0737813,0.179977,1.9603e-19,0,0,0,0,0,0,0,0,0,1,-0.0658827
6728,0,0.301758,5.25781,-0.00192722,0.00124855,0.000288404,-0.0115591,-0.0348189,2.27256,0,0,0,-0.0261701,0.0629986,-0.0754318,0.184116,2.27256,0,0,0,0,0,0,0,0,0,0,-0.164429,0.221949,0,0,0,0,0,2,-0.0261701,0.0629986,0,0,0,0,-0.0754318,0.184116,1.9603e-19,0,0,0,0,0,0,0,0,0,1,-0.0692984
6744,0,0.301758,1.18359,0.000863162,0.000956211,-0.00080527,-0.0115448,-0.034813,2.27255,0,0,0,-0.0273927,0.0659838,-0.0769668,0.187978,2.27255,0,0,0,0,0,0,0,0,0,0,-0.163571,0.223559,0,0,0,0,0,2,-0.0273927,0.0659838,0,0,0,0,-0.0769668,0.187978,0,0,0,0,0,0,0,0,0,0,1,-0.0725822
6757,0,0.301758,-0.600586,0.000220506,0.000593316,4.87162e-05,-0.0115483,-0.0348206,2.27256,0,0,0,-0.0284033,0.0684527,-0.0782054,0.19109,2.27256,0,0,0,0,0,0,0,0,0,0,-0.162866,0.224873,0,0,0,0,0,2,-0.0284033,0.0684527,0,0,0,0,-0.0782054,0.19109,0,0,0,0,0,0,0,0,0,0,1,-0.075298
6774,0,0.301758,0.6875,-0.000841411,-0.000130844,-0.000830422,-0.0115602,-0.0348266,2.27255,0,0,0,-0.0297511,0.0717472,-0.0798141,0.195135,2.27255,0,0,0,0,0,0,0,0,0,0,-0.161937,0.226595,0,0,0,0,0,2,-0.0297511,0.0717472,0,0,0,0,-0.0798141,0.195135,0,0,0,0,0,0,0,0,0,0,1,-0.0789219
6789,0,0.301758,5.25488,-0.00187742,0.0010058,-0.000390806,-0.0115765,-0.0348183,2.27255,0,0,0,-0.0309619,0.0747085,-0.0812201,0.198676,2.27255,0,0,0,0,0,0,0,0,0,0,-0.161109,0.22812,0,0,0,0,0,2,-0.0309619,0.0747085,0,0,0,0,-0.0812201,0.198676,0,0,0,0,0,0,0,0,0,0,1,-0.0821794
6805,0,0.301758,-4.08496,-0.000595146,0.0012076,0.000303662,-0.0115769,-0.0348147,2.27255,0,0,0,-0.0321937,0.0777227,-0.0826138,0.20219,2.27255,0,0,0,0,0,0,0,0,0,0,-0.160272,0.22965,0,0,0,0,0,2,-0.0321937,0.0777227,0,0,0,0,-0.0826138,0.20219,0,0,0,0,0,0,0,0,0,0,1,-0.0854949
6820,0,0.301758,4.75977,-0.000964268,0.000243706,0.000240394,-0.0115941,-0.0348123,2.27256,0,0,0,-0.033531,0.0809968,-0.0840881,0.20591,2.27256,0,0,0,0,0,0,0,0,0,0,-0.15937,0.231287,0,0,0,0,0,2,-0.033531,0.0809968,0,0,0,0,-0.0840881,0.20591,0,0,0,0,0,0,0,0,0,0,1,-0.0890965
6836,0,0.301758,6.30176,-0.00048196,0.00098762,0.00104034,-0.0116182,-0.0348133,2.27257,0,0,0,-0.0348918,0.0843302,-0.0855493,0.209603,2.27256,0,0,0,0,0,0,0,0,0,0,-0.158461,0.232928,0,0,0,0,0,2,-0.0348918,0.0843302,0,0,0,0,-0.0855493,0.209603,0,0,0,0,0,0,0,0,0,0,1,-0.0927632
6852,0,0.301758,-6.94141,-0.000835028,0.000616897,-0.000989895,-0.0116301,-0.0348217,2.27256,-3.95504,-0.376554,-0.0835777,-0.0362758,0.0877224,-0.0869974,0.213267,2.27257,0,0,298,12,298,12,419,0,306,120,-0.15754,0.234576,0,0,0,0,0,2,-0.0362758,0.0877224,0,0,0,0,-0.0869974,0.213267,15240,0,0,0,0,0,0,0,0,0,1,-0.0964946
6868,0,0.301758,4.33887,0.000207332,0.000790397,-7.41482e-05,-0.0116322,-0.0348202,2.27257,-3.95504,-0.376554,-0.0835777,-0.0376829,0.0911729,-0.088432,0.216904,2.27257,0,0,298,12,298,12,419,0,306,120,-0.156616,0.236226,0,0,0,0,0,2,-0.0376829,0.0911729,0,0,0,0,-0.088432,0.216904,15240,0,0,0,0,0,0,0,0,0,1,-0.10029
6884,0,0.301758,2.02734,7.77707e-05,0.000197969,-0.000166274,-0.0116333,-0.0348182,2.27257,-3.95504,-0.376554,-0.0835777,-0.0391127,0.0946813,-0.0898547,0.220513,2.27257,0,0,298,12,298,12,419,0,306,120,-0.155683,0.237881,0,0,0,0,0,2,-0.0391127,0.0946813,0,0,0,0,-0.0898547,0.220513,15240,0,0,0,0,0,0,0,0,0,1,-0.104149
6902,0,0.301758,4.10156,-0.00119479,0.00141941,0.000120375,-0.0116544,-0.0348059,2.27257,-3.95504,-0.376554,-0.0835777,-0.0406573,0.0984733,-0.0913525,0.224317,2.27257,0,0,298,12,298,12,419,0,306,120,-0.154681,0.239646,0,0,0,0,0,2,-0.0406573,0.0984733,0,0,0,0,-0.0913525,0.224317,15240,0,0,0,0,0,0,0,0,0,1,-0.108321
6918,0,0.301758,4.10156,-0.00119479,0.00141941,0.000120375,-0.0116544,-0.0348059,2.27257,-3.95504,-0.376554,-0.0835777,-0.0422266,0.102328,-0.0928348,0.228088,2.27257,0,0,298,12,298,12,419,0,306,120,-0.153671,0.241414,0,0,0,0,0,2,-0.0422266,0.102328,0,0,0,0,-0.0928348,0.228088,15240,0,0,0,0,0,0,0,0,0,1,-0.112561
6934,0,0.301758,-3.40918,-0.000566868,0.00088378,0.000176862,-0.0116751,-0.0348135,2.27258,-3.95504,-0.376554,-0.0835777,-0.0436317,0.105782,-0.0941314,0.23139,2.27258,0,0,298,12,298,12,419,0,306,120,-0.15277,0.242981,0,0,0,0,0,2,-0.0436317,0.105782,0,0,0,0,-0.0941314,0.23139,15240,0,0,0,0,0,0,0,0,0,1,-0.11636
6950,0,0.301758,-1.09473,-0.00100371,0.000490752,-0.000253553,-0.0117032,-0.0348036,2.27258,-3.95504,-0.376554,-0.0835777,-0.045248,0.109756,-0.0955883,0.235104,2.27258,0,0,298,12,298,12,419,0,306,120,-0.151743,0.24476,0,0,0,0,0,2,-0.045248,0.109756,0,0,0,0,-0.0955883,0.235104,15240,0,0,0,0,0,0,0,0,0,1,-0.120732
6965,0,0.301758,-4.44238,-0.000289919,-0.000331978,0.000178258,-0.0117009,-0.0348087,2.27258,-3.95504,-0.376554,-0.0835777,-0.0466941,0.113314,-0.0968594,0.238356,2.27258,0,0,298,12,298,12,419,0,306,120,-0.15083,0.246333,0,0,0,0,0,2,-0.0466941,0.113314,0,0,0,0,-0.0968594,0.238356,15240,0,0,0,0,0,0,0,0,0,1,-0.124646
6981,0,0.301758,-4.44238,-0.000289919,-0.000331978,0.000178258,-0.0117009,-0.0348087,2.27258,-3.95504,-0.376554,-0.0835777,-0.0482576,0.117163,-0.0982054,0.241799,2.27258,0,0,298,12,298,12,419,0,306,120,-0.149848,0.248016,0,0,0,0,0,2,-0.0482576,0.117163,0,0,0,0,-0.0982054,0.241799,15240,0,0,0,0,0,0,0,0,0,1,-0.128879
6997,0,0.301758,-0.674805,-0.000405907,0.000752308,-0.000777716,-0.0117215,-0.0348064,2.27257,-3.95504,-0.376554,-0.0835777,-0.0498429,0.121068,-0.0995399,0.245216,2.27257,0,0,298,12,298,12,419,0,306,120,-0.148858,0.249703,0,0,0,0,0,2,-0.0498429,0.121068,0,0,0,0,-0.0995399,0.245216,15240,0,0,0,0,0,0,0,0,0,1,-0.133174
7012,0,0.301758,4.10938,-0.000642932,0.00205955,0.000630205,-0.0117216,-0.0347974,2.27258,-3.95504,-0.376554,-0.0835777,-0.051348,0.124777,-0.100779,0.248394,2.27258,0,0,298,12,298,12,419,0,306,120,-0.147923,0.251289,0,0,0,0,0,2,-0.051348,0.124777,0,0,0,0,-0.100779,0.248394,15240,0,0,0,0,0,0,0,0,0,1,-0.137254
7028,0,0.301758,0.353516,-0.000728348,0.00180642,-0.000739633,-0.011723,-0.0347979,2.27257,-3.95504,-0.376554,-0.0835777,-0.0528716,0.128533,-0.102009,0.251548,2.27257,0,0,298,12,298,12,419,0,306,120,-0.146983,0.252878,0,0,0,0,0,2,-0.0528716,0.128533,0,0,0,0,-0.102009,0.251548,15240,0,0,0,0,0,0,0,0,0,1,-0.141386
7044,0,0.301758,-7.27246,-0.000465533,0.000441585,2.13764e-05,-0.0117469,-0.0347875,2.27258,-3.95504,-0.376554,-0.0835777,-0.054621,0.132848,-0.103389,0.255095,2.27258,0,0,298,12,298,12,419,0,306,120,-0.145906,0.254686,0,0,0,0,0,2,-0.054621,0.132848,0,0,0,0,-0.103389,0.255095,15240,0,0,0,0,0,0,0,0,0,1,-0.146133
7060,0,0.301758,0.894531,-5.15528e-06,0.000786002,0.000420312,-0.0117477,-0.0347807,2.27259,-3.95504,-0.376554,-0.0835777,-0.0562883,0.136964,-0.104676,0.258406,2.27258,0,0,298,12,298,12,419,0,306,120,-0.144886,0.25639,0,0,0,0,0,2,-0.0562883,0.136964,0,0,0,0,-0.104676,0.258406,15240,0,0,0,0,0,0,0,0,0,1,-0.15066
7076,0,0.301758,-5.84863,-0.00150176,0.000272952,-0.000513225,-0.0117615,-0.0347845,2.27258,-3.95504,-0.376554,-0.0835777,-0.0579766,0.141133,-0.105951,0.26169,2.27258,0,0,298,12,298,12,419,0,306,120,-0.14386,0.258098,0,0,0,0,0,2,-0.0579766,0.141133,0,0,0,0,-0.105951,0.26169,15240,0,0,0,0,0,0,0,0,0,1,-0.155246
7092,0,0.301758,5.51855,-0.000944678,0.000357492,1.67717e-05,-0.011775,-0.0347822,2.27258,-3.95504,-0.376554,-0.0835777,-0.0596847,0.145353,-0.107214,0.264951,2.27258,0,0,298,12,298,12,419,0,306,120,-0.142825,0.259811,0,0,0,0,0,2,-0.0596847,0.145353,0,0,0,0,-0.107214,0.264951,15240,0,0,0,0,0,0,0,0,0,1,-0.159888
7109,0,0.301758,4.20508,-0.000352402,-0.000291018,-0.000910609,-0.0117823,-0.0347843,2.27257,-3.95504,-0.376554,-0.0835777,-0.0614133,0.149626,-0.108466,0.268186,2.27257,0,0,298,12,298,12,419,0,306,120,-0.141785,0.261527,0,0,0,0,0,2,-0.0614133,0.149626,0,0,0,0,-0.108466,0.268186,15240,0,0,0,0,0,0,0,0,0,1,-0.164589
7125,0,0.301758,5.92383,-0.00158561,0.00146384,0.000661395,-0.0117995,-0.0347726,2.27259,-3.95504,-0.376554,-0.0835777,-0.0631618,0.153951,-0.109706,0.271397,2.27259,0,0,298,12,298,12,419,0,306,120,-0.140733,0.26325,0,0,0,0,0,2,-0.0631618,0.153951,0,0,0,0,-0.109706,0.271397,15240,0,0,0,0,0,0,0,0,0,1,-0.169346
7141,0,0.301758,-6.02637,0.000813779,0.00117431,0.000632839,-0.0117872,-0.0347606,2.27258,-3.95504,-0.376554,-0.0835777,-0.0650412,0.158602,-0.111011,0.274779,2.27258,0,0,298,12,298,12,419,0,306,120,-0.139612,0.265083,0,0,0,0,0,2,-0.0650412,0.158602,0,0,0,0,-0.111011,0.274779,15240,0,0,0,0,0,0,0,0,0,1,-0.174462
7157,0,0.301758,-7.16699,-0.0002083,0.000751553,-0.000763701,-0.011803,-0.0347487,2.27258,-3.95504,-0.376554,-0.0835777,-0.0668298,0.163031,-0.112229,0.277935,2.27258,0,0,298,12,298,12,419,0,306,120,-0.138549,0.266812,0,0,0,0,0,2,-0.0668298,0.163031,0,0,0,0,-0.112229,0.277935,15240,0,0,0,0,0,0,0,0,0,1,-0.179334
7173,0,0.301758,1.02344,-0.001521,0.000123837,0.000915425,-0.0118205,-0.0347595,2.27259,-3.95504,-0.376554,-0.0835777,-0.0686377,0.16751,-0.113434,0.281065,2.27259,0,0,298,12,298,12,419,0,306,120,-0.137476,0.268546,0,0,0,0,0,2,-0.0686377,0.16751,0,0,0,0,-0.113434,0.281065,15240,0,0,0,0,0,0,0,0,0,1,-0.184261
7189,0,0.301758,-6.61328,-0.00186613,0.000193652,-0.000114975,-0.0118432,-0.0347631,2.27259,-3.95504,-0.376554,-0.0835777,-0.0703501,0.171754,-0.114554,0.28398,2.27259,0,0,298,12,298,12,419,0,306,120,-0.136466,0.270174,0,0,0,0,0,2,-0.0703501,0.171754,0,0,0,0,-0.114554,0.28398,15240,0,0,0,0,0,0,0,0,0,1,-0.188929
7205,0,0.301758,5.61133,0.000246897,0.00170986,-0.000155899,-0.0118449,-0.0347514,2.27259,-3.95504,-0.376554,-0.0835777,-0.0723118,0.176619,-0.115811,0.287261,2.27259,0,0,298,12,298,12,419,0,306,120,-0.135312,0.272025,0,0,0,0,0,2,-0.0723118,0.176619,0,0,0,0,-0.115811,0.287261,15240,0,0,0,0,0,0,0,0,0,1,-0.194281
7220,0,0.301758,6.44434,-0.000680788,0.000832501,-8.56621e-05,-0.0118527,-0.0347494,2.27259,-3.95504,-0.376554,-0.0835777,-0.0740596,0.180955,-0.116909,0.290131,2.27259,0,0,298,12,298,12,419,0,306,120,-0.13429,0.273661,0,0,0,0,0,2,-0.0740596,0.180955,0,0,0,0,-0.116909,0.290131,15240,0,0,0,0,0,0,0,0,0,1,-0.199051
7235,0,0.301758,-5.56348,-0.00141321,0.00182098,0.0010758,-0.0118636,-0.0347337,2.2726,-3.95504,-0.376554,-0.0835777,-0.0758238,0.185335,-0.117998,0.292979,2.2726,0,0,298,12,298,12,419,0,306,120,-0.133256,0.275302,0,0,0,0,0,2,-0.0758238,0.185335,0,0,0,0,-0.117998,0.292979,15240,0,0,0,0,0,0,0,0,0,1,-0.203869
7251,0,0.301758,-2.11914,0.000160091,0.0010989,-0.0010626,-0.0118594,-0.0347277,2.27258,-3.97876,-0.378459,-0.0763162,-0.0777238,0.190054,-0.119148,0.295994,2.2726,0,0,298,12,298,12,417,0,308,121,-0.132151,0.277055,0,0,0,0,0,2,-0.0777238,0.190054,0,0,0,0,-0.119148,0.295994,15367,0,0,0,0,0,0,0,0,0,1,-0.20906
7267,0,0.301758,-4.62695,-0.00167767,0.00110386,-0.000605608,-0.0118748,-0.0347223,2.27257,-3.97876,-0.378459,-0.0763162,-0.0796422,0.194822,-0.12029,0.298984,2.27258,0,0,298,12,298,12,417,0,308,121,-0.131047,0.278808,0,0,0,0,0,2,-0.0796422,0.194822,0,0,0,0,-0.12029,0.298984,15367,0,0,0,0,0,0,0,0,0,1,-0.214304
7283,0,0.301758,-4.62695,-0.00167767,0.00110386,-0.000605608,-0.0118748,-0.0347223,2.27257,-3.97876,-0.378459,-0.0763162,-0.0815787,0.199637,-0.121419,0.301951,2.27257,0,0,298,12,298,12,417,0,308,121,-0.12993,0.280567,0,0,0,0,0,2,-0.0815787,0.199637,0,0,0,0,-0.121419,0.301951,15367,0,0,0,0,0,0,0,0,0,1,-0.2196
7299,0,0.301758,-1.67285,-0.00131081,0.000982908,-0.000920698,-0.0118871,-0.0347101,2.27255,-3.97876,-0.378459,-0.0763162,-0.0835329,0.204498,-0.122539,0.304894,2.27255,0,0,298,12,298,12,417,0,308,121,-0.128812,0.282328,0,0,0,0,0,2,-0.0835329,0.204498,0,0,0,0,-0.122539,0.304894,15367,0,0,0,0,0,0,0,0,0,1,-0.224948
7315,0,0.301758,-1.67285,-0.00131081,0.000982908,-0.000920698,-0.0118871,-0.0347101,2.27255,-3.96209,-0.371993,-0.082718,-0.0855052,0.209407,-0.123648,0.307813,2.27255,0,0,298,12,298,12,417,0,306,121,-0.127681,0.284095,0,0,0,0,0,2,-0.0855052,0.209407,0,0,0,0,-0.123648,0.307813,15367,0,0,0,0,0,0,0,0,0,1,-0.230348
7331,0,0.301758,-5.2627,-0.0016201,0.000797409,-0.000170626,-0.0119043,-0.0347037,2.27255,-3.96209,-0.371993,-0.082718,-0.0874951,0.214362,-0.124748,0.31071,2.27255,0,0,298,12,298,12,417,0,306,121,-0.126546,0.285866,0,0,0,0,0,2,-0.0874951,0.214362,0,0,0,0,-0.124748,0.31071,15367,0,0,0,0,0,0,0,0,0,1,-0.235799
7347,0,0.301758,-7.37793,-0.000393635,0.00116828,-0.000419856,-0.011901,-0.0346986,2.27253,-3.96209,-0.371993,-0.082718,-0.0895022,0.219363,-0.125836,0.313584,2.27255,0,0,298,12,298,12,417,0,306,121,-0.125402,0.28764,0,0,0,0,0,2,-0.0895022,0.219363,0,0,0,0,-0.125836,0.313584,15367,0,0,0,0,0,0,0,0,0,1,-0.241299
7364,0,0.301758,2.66504,-0.00128386,0.000320986,0.000437731,-0.0119191,-0.0346995,2.27253,-3.96209,-0.371993,-0.082718,-0.091654,0.224727,-0.126983,0.316612,2.27253,0,0,298,12,298,12,417,0,306,121,-0.124185,0.289528,0,0,0,0,0,2,-0.091654,0.224727,0,0,0,0,-0.126983,0.316612,15367,0,0,0,0,0,0,0,0,0,1,-0.2472
7380,0,0.301758,2.21875,-0.00143656,0.000602529,-0.000145209,-0.0119359,-0.0346933,2.27253,-3.98698,-0.379201,-0.0703619,-0.0936966,0.229822,-0.128051,0.31944,2.27253,0,0,298,12,298,12,417,0,308,120,-0.123027,0.291311,0,0,0,0,0,2,-0.0936966,0.229822,0,0,0,0,-0.128051,0.31944,15240,0,0,0,0,0,0,0,0,0,1,-0.252804
7395,0,0.301758,4.79785,-0.00040685,0.000930653,-0.000696541,-0.0119416,-0.0346822,2.27252,-3.98698,-0.379201,-0.0703619,-0.095627,0.234639,-0.129042,0.322071,2.27252,0,0,298,12,298,12,417,0,308,120,-0.12194,0.292983,0,0,0,0,0,2,-0.095627,0.234639,0,0,0,0,-0.129042,0.322071,15240,0,0,0,0,0,0,0,0,0,1,-0.258103
7412,0,0.301758,-3.02051,-0.000412527,0.000779838,-0.000268739,-0.0119526,-0.0346758,2.27252,-3.98698,-0.379201,-0.0703619,-0.097833,0.240147,-0.130154,0.325029,2.27252,0,0,298,12,298,12,417,0,308,120,-0.120696,0.294885,0,0,0,0,0,2,-0.097833,0.240147,0,0,0,0,-0.130154,0.325029,15240,0,0,0,0,0,0,0,0,0,1,-0.264162
7427,0,0.301758,5.50781,-0.000318006,0.00133344,0.000174089,-0.0119558,-0.0346706,2.27252,-3.98698,-0.379201,-0.0703619,-0.0996632,0.244719,-0.131061,0.327445,2.27252,0,0,298,12,298,12,417,0,308,120,-0.119668,0.296453,0,0,0,0,0,2,-0.0996632,0.244719,0,0,0,0,-0.131061,0.327445,15240,0,0,0,0,0,0,0,0,0,1,-0.269191
7442,0,0.301758,1.99902,-0.000318655,0.000354634,8.48934e-05,-0.0119633,-0.034677,2.27252,-3.98698,-0.379201,-0.0703619,-0.101771,0.249986,-0.132089,0.330188,2.27252,0,0,298,12,298,12,417,0,308,120,-0.118488,0.298248,0,0,0,0,0,2,-0.101771,0.249986,0,0,0,0,-0.132089,0.330188,15240,0,0,0,0,0,0,0,0,0,1,-0.274984
7458,0,0.301758,2.27344,-0.00113055,0.000558742,-0.00065161,-0.0119906,-0.0346572,2.27254,-3.98698,-0.379201,-0.0703619,-0.103761,0.254963,-0.133045,0.332739,2.27255,0,0,298,12,298,12,417,0,308,120,-0.117367,0.299938,0,0,0,0,0,2,-0.103761,0.254963,0,0,0,0,-0.133045,0.332739,15240,0,0,0,0,0,0,0,0,0,1,-0.28046
7474,0,0.301758,6.53711,-0.000870835,0.00123714,-0.001195,-0.0119921,-0.0346503,2.27253,-3.98698,-0.379201,-0.0703619,-0.106035,0.260652,-0.134116,0.335608,2.27254,0,0,298,12,298,12,417,0,308,120,-0.116101,0.301852,0,0,0,0,0,2,-0.106035,0.260652,0,0,0,0,-0.134116,0.335608,15240,0,0,0,0,0,0,0,0,0,1,-0.286717
7490,0,0.301758,-3.54688,-0.00178457,0.00112767,9.50458e-05,-0.0120104,-0.0346503,2.27254,-3.98698,-0.379201,-0.0703619,-0.108191,0.266049,-0.135113,0.338286,2.27254,0,0,298,12,298,12,417,0,308,120,-0.114902,0.303658,0,0,0,0,0,2,-0.108191,0.266049,0,0,0,0,-0.135113,0.338286,15240,0,0,0,0,0,0,0,0,0,1,-0.292653
7506,0,0.301758,0.0810547,-0.000461997,0.000987847,-0.000944675,-0.0120135,-0.0346442,2.27253,-3.98698,-0.379201,-0.0703619,-0.110363,0.271489,-0.136101,0.340944,2.27253,0,0,298,12,298,12,417,0,308,120,-0.113698,0.305466,0,0,0,0,0,2,-0.110363,0.271489,0,0,0,0,-0.136101,0.340944,15240,0,0,0,0,0,0,0,0,0,1,-0.298638
7522,0,0.301758,5.39453,-0.000789496,0.000984905,0.000501571,-0.0120171,-0.0346429,2.27253,-3.98698,-0.379201,-0.0703619,-0.112551,0.276972,-0.13708,0.343581,2.27253,0,0,298,12,298,12,417,0,308,120,-0.112486,0.307279,0,0,0,0,0,2,-0.112551,0.276972,0,0,0,0,-0.13708,0.343581,15240,0,0,0,0,0,0,0,0,0,1,-0.304669
7539,0,0.301758,-3.86328,-0.00238208,0.00104683,0.000119798,-0.0120355,-0.0346418,2.27252,-3.98698,-0.379201,-0.0703619,-0.114754,0.282497,-0.138049,0.346198,2.27252,0,0,298,12,298,12,417,0,308,120,-0.111269,0.309095,0,0,0,0,0,2,-0.114754,0.282497,0,0,0,0,-0.138049,0.346198,15240,0,0,0,0,0,0,0,0,0,1,-0.310746
7554,0,0.301758,0.151367,-0.000649784,0.000803272,-0.000693811,-0.0120506,-0.034654,2.27252,-3.98698,-0.379201,-0.0703619,-0.116973,0.288063,-0.13901,0.348795,2.27252,0,0,298,12,298,12,417,0,308,120,-0.110046,0.310915,0,0,0,0,0,2,-0.116973,0.288063,0,0,0,0,-0.13901,0.348795,15240,0,0,0,0,0,0,0,0,0,1,-0.31687
7571,0,0.301758,-1.97559,-0.00067931,4.59965e-05,-0.000687228,-0.0120553,-0.0346588,2.27252,-3.98698,-0.379201,-0.0703619,-0.119348,0.294023,-0.140022,0.351534,2.27252,0,0,298,12,298,12,417,0,308,120,-0.10874,0.312853,0,0,0,0,0,2,-0.119348,0.294023,0,0,0,0,-0.140022,0.351534,15240,0,0,0,0,0,0,0,0,0,1,-0.323425
7587,0,0.301758,-3.57715,0.000369126,-0.000562712,0.000141732,-0.0120481,-0.0346751,2.27252,-3.98698,-0.379201,-0.0703619,-0.121457,0.299319,-0.140907,0.353933,2.27252,0,0,298,12,298,12,417,0,308,120,-0.107582,0.314566,0,0,0,0,0,2,-0.121457,0.299319,0,0,0,0,-0.140907,0.353933,15240,0,0,0,0,0,0,0,0,0,1,-0.329251
7602,0,0.301758,0.824219,-0.00130484,0.00101945,0.000234093,-0.012066,-0.0346753,2.27251,-3.98698,-0.379201,-0.0703619,-0.123721,0.305009,-0.141846,0.356474,2.27251,0,0,298,12,298,12,417,0,308,120,-0.106344,0.316397,0,0,0,0,0,2,-0.123721,0.305009,0,0,0,0,-0.141846,0.356474,15240,0,0,0,0,0,0,0,0,0,1,-0.33551
7619,0,0.301758,0.824219,-0.00130484,0.00101945,0.000234093,-0.012066,-0.0346753,2.27251,-3.98698,-0.379201,-0.0703619,-0.126143,0.311098,-0.142834,0.359153,2.27251,0,0,298,12,298,12,417,0,308,120,-0.105019,0.318347,0,0,0,0,0,2,-0.126143,0.311098,0,0,0,0,-0.142834,0.359153,15240,0,0,0,0,0,0,0,0,0,1,-0.342208
7634,0,0.301758,-2.02441,-0.00159141,0.000994469,-0.00106697,-0.0121051,-0.0346832,2.2725,-3.98698,-0.379201,-0.0703619,-0.12815,0.316146,-0.143639,0.361343,2.2725,0,0,298,12,298,12,417,0,308,120,-0.103927,0.319954,0,0,0,0,0,2,-0.12815,0.316146,0,0,0,0,-0.143639,0.361343,15240,0,0,0,0,0,0,0,0,0,1,-0.34776
7648,0,0.301758,-2.02441,-0.00159141,0.000994469,-0.00106697,-0.0121051,-0.0346832,2.2725,-3.98688,-0.378905,-0.0702335,-0.130313,0.321589,-0.144494,0.363676,2.2725,0,0,298,12,298,12,417,0,308,120,-0.102747,0.32168,0,0,0,0,0,2,-0.130313,0.321589,0,0,0,0,-0.144494,0.363676,15240,0,0,0,0,0,0,0,0,0,1,-0.353747
7664,0,0.301758,4.33105,0.000341432,0.00111929,0.000201801,-0.0121153,-0.0346687,2.27251,-3.98688,-0.378905,-0.0702335,-0.132634,0.327433,-0.145398,0.366145,2.27251,0,0,298,12,298,12,417,0,308,120,-0.101482,0.323526,0,0,0,0,0,2,-0.132634,0.327433,0,0,0,0,-0.145398,0.366145,15240,0,0,0,0,0,0,0,0,0,1,-0.360177
7681,0,0.301758,-4.69434,-0.00137044,-0.000402018,-0.000511511,-0.0121436,-0.0346796,2.27249,-3.98688,-0.378905,-0.0702335,-0.13497,0.333317,-0.146293,0.368594,2.27251,0,0,298,12,298,12,417,0,308,120,-0.100213,0.325374,0,0,0,0,0,2,-0.13497,0.333317,0,0,0,0,-0.146293,0.368594,15240,0,0,0,0,0,0,0,0,0,1,-0.366649
7697,0,0.301758,-3.18457,-5.9063e-05,0.000171635,-0.000273902,-0.0121434,-0.0346863,2.27249,-3.98688,-0.378905,-0.0702335,-0.137467,0.339612,-0.147234,0.371178,2.27249,0,0,298,12,298,12,417,0,308,120,-0.0988642,0.327339,0,0,0,0,0,2,-0.137467,0.339612,0,0,0,0,-0.147234,0.371178,15240,0,0,0,0,0,0,0,0,0,1,-0.373573
7713,0,0.301758,1.0957,-0.00129679,0.00120971,-0.000746031,-0.0121602,-0.0346825,2.27248,-3.97382,-0.375094,-0.0702976,-0.139832,0.345576,-0.148112,0.373592,2.27248,0,0,298,12,298,12,417,0,306,118,-0.0975853,0.329194,0,0,0,0,0,2,-0.139832,0.345576,0,0,0,0,-0.148112,0.373592,15104,0,0,0,0,0,0,0,0,0,1,-0.380134
7729,0,0.301758,-6.02148,0.000109954,0.000318206,-0.00140111,-0.0121601,-0.0346854,2.27247,-3.97382,-0.375094,-0.0702976,-0.142211,0.351579,-0.148982,0.375988,2.27247,0,0,298,12,298,12,417,0,306,118,-0.0963042,0.331051,0,0,0,0,0,2,-0.142211,0.351579,0,0,0,0,-0.148982,0.375988,15104,0,0,0,0,0,0,0,0,0,1,-0.386737
7745,0,0.301758,6.66016,-0.000684141,0.000165406,-0.00154798,-0.0121717,-0.0346919,2.27246,-3.97382,-0.375094,-0.0702976,-0.144604,0.35762,-0.149844,0.378366,2.27246,0,0,298,12,298,12,417,0,306,118,-0.0950159,0.332912,0,0,0,0,0,2,-0.144604,0.35762,0,0,0,0,-0.149844,0.378366,15104,0,0,0,0,0,0,0,0,0,1,-0.393382
7761,0,0.301758,6.79883,-0.000729914,0.000533451,-0.000763216,-0.0121863,-0.0346972,2.27245,-3.97382,-0.375094,-0.0702976,-0.147011,0.363698,-0.150698,0.380726,2.27246,0,0,298,12,298,12,417,0,306,118,-0.0937175,0.334778,0,0,0,0,0,2,-0.147011,0.363698,0,0,0,0,-0.150698,0.380726,15104,0,0,0,0,0,0,0,0,0,1,-0.400068
7778,0,0.301758,-5.33887,-0.00103122,-0.000352404,-0.00148605,-0.0122076,-0.0347017,2.27244,-3.97382,-0.375094,-0.0702976,-0.149582,0.370198,-0.151598,0.383215,2.27245,0,0,298,12,298,12,417,0,306,118,-0.0923374,0.336762,0,0,0,0,0,2,-0.149582,0.370198,0,0,0,0,-0.151598,0.383215,15104,0,0,0,0,0,0,0,0,0,1,-0.407218
7793,0,0.301758,1.64453,-0.000288037,-0.000345124,-0.00110859,-0.0122119,-0.0347161,2.27243,-3.97382,-0.375094,-0.0702976,-0.151864,0.375968,-0.152383,0.385397,2.27243,0,0,298,12,298,12,417,0,306,118,-0.0911173,0.338516,0,0,0,0,0,2,-0.151864,0.375968,0,0,0,0,-0.152383,0.385397,15104,0,0,0,0,0,0,0,0,0,1,-0.413564
7809,0,0.301758,-3.95801,-0.000994711,0.00032624,0.00142058,-0.0122311,-0.034711,2.27245,-3.98689,-0.378655,-0.070299,-0.154311,0.382158,-0.153215,0.387708,2.27245,0,0,298,12,298,12,417,0,308,120,-0.0898,0.340393,0,0,0,0,0,2,-0.154311,0.382158,0,0,0,0,-0.153215,0.387708,15240,0,0,0,0,0,0,0,0,0,1,-0.420374
7826,0,0.301758,4.90137,-0.000727469,0.000604244,0.000198784,-0.0122357,-0.03472,2.27245,-3.98689,-0.378655,-0.070299,-0.156925,0.388776,-0.154089,0.390145,2.27245,0,0,298,12,298,12,417,0,308,120,-0.0883975,0.34239,0,0,0,0,0,2,-0.156925,0.388776,0,0,0,0,-0.154089,0.390145,15240,0,0,0,0,0,0,0,0,0,1,-0.427654
7843,0,0.301758,-3.47656,-0.000904313,0.00147507,0.000302406,-0.0122418,-0.0347113,2.27245,-3.98689,-0.378655,-0.070299,-0.159554,0.395435,-0.154955,0.392563,2.27245,0,0,298,12,298,12,417,0,308,120,-0.0869899,0.34439,0,0,0,0,0,2,-0.159554,0.395435,0,0,0,0,-0.154955,0.392563,15240,0,0,0,0,0,0,0,0,0,1,-0.434979
7858,0,0.301758,-6.7998,-0.000789053,0.000747061,-0.000875445,-0.0122555,-0.0347099,2.27245,-3.98689,-0.378655,-0.070299,-0.161886,0.401343,-0.155711,0.394678,2.27245,0,0,298,12,298,12,417,0,308,120,-0.0857461,0.346156,0,0,0,0,0,2,-0.161886,0.401343,0,0,0,0,-0.155711,0.394678,15240,0,0,0,0,0,0,0,0,0,1,-0.441478
7874,0,0.28125,3.66895,-9.78317e-05,0.000293553,-0.00112549,-0.0122611,-0.034712,2.27244,-3.98689,-0.378655,-0.070299,-0.164385,0.407681,-0.156511,0.396919,2.27244,0,0,298,12,298,12,417,0,308,120,-0.0844153,0.348044,0,0,0,0,0,2,-0.164385,0.407681,0,0,0,0,-0.156511,0.396919,15240,0,0,0,0,0,0,0,0,0,1,-0.448449
7890,0,0.214844,3.4043,6.8029e-05,0.000944744,-0.00120199,-0.0122789,-0.0347125,2.27243,-3.98689,-0.378655,-0.070299,-0.166897,0.414054,-0.157303,0.399143,2.27243,0,0,298,12,298,12,417,0,308,120,-0.083079,0.349934,0,0,0,0,0,2,-0.166897,0.414054,0,0,0,0,-0.157303,0.399143,15240,0,0,0,0,0,0,0,0,0,1,-0.45546
7906,0,0.181641,5.62207,-0.000391186,0.00069031,-0.000607548,-0.0122851,-0.0347074,2.27243,-3.98689,-0.378655,-0.070299,-0.169422,0.420464,-0.158087,0.40135,2.27243,0,0,298,12,298,12,417,0,308,120,-0.0817353,0.351828,0,0,0,0,0,2,-0.169422,0.420464,0,0,0,0,-0.158087,0.40135,15240,0,0,0,0,0,0,0,0,0,1,-0.46251
7922,0,0.148438,-6.05176,-0.00142391,0.00200238,-0.000116113,-0.0123084,-0.0346867,2.27243,-3.98689,-0.378655,-0.070299,-0.17196,0.426909,-0.158862,0.40354,2.27243,0,0,298,12,298,12,417,0,308,120,-0.0803852,0.353725,0,0,0,0,0,2,-0.17196,0.426909,0,0,0,0,-0.158862,0.40354,15240,0,0,0,0,0,0,0,0,0,1,-0.469599
7939,0,0.170898,2.69531,-0.00215197,0.000524279,-2.59796e-05,-0.0123383,-0.0346954,2.27243,-3.96606,-0.374288,-0.0851688,-0.17467,0.433794,-0.159674,0.40585,2.27243,0,0,298,12,298,12,417,2,306,121,-0.0789465,0.355743,0,0,0,0,0,2,-0.17467,0.433794,0,0,0,0,-0.159674,0.40585,15232,0,0,0,0,0,0,0,0,0,1,-0.477174
7954,0,0.237305,-1.89453,-0.000527783,0.000401121,-0.000283504,-0.0123483,-0.0346937,2.27242,-3.96606,-0.374288,-0.0851688,-0.177072,0.439902,-0.160383,0.407874,2.27242,0,0,298,12,298,12,417,2,306,121,-0.0776737,0.357527,0,0,0,0,0,2,-0.177072,0.439902,0,0,0,0,-0.160383,0.407874,15232,0,0,0,0,0,0,0,0,0,1,-0.483892
7971,0,0.319336,-4.10645,-0.00118172,0.000305223,-0.000704182,-0.0123522,-0.0346988,2.27242,-3.96606,-0.374288,-0.0851688,-0.179807,0.446861,-0.16118,0.41015,2.27241,0,0,298,12,298,12,417,2,306,121,-0.076226,0.359551,0,0,0,0,0,2,-0.179807,0.446861,0,0,0,0,-0.16118,0.41015,15232,0,0,0,0,0,0,0,0,0,1,-0.491547
7987,0,0.319336,6.57031,-0.00124155,0.000611405,-0.000969216,-0.0123619,-0.0346993,2.27241,-3.96606,-0.374288,-0.0851688,-0.182393,0.453445,-0.161923,0.412275,2.27241,0,0,298,12,298,12,417,2,306,121,-0.0748561,0.36146,0,0,0,0,0,2,-0.182393,0.453445,0,0,0,0,-0.161923,0.412275,15232,0,0,0,0,0,0,0,0,0,1,-0.498789
8003,0,0.319336,-6.02246,-0.00137231,0.000843591,-0.00092893,-0.0123758,-0.0346962,2.27241,-3.96606,-0.374288,-0.0851688,-0.184992,0.460063,-0.162658,0.414385,2.27241,0,0,298,12,298,12,417,2,306,121,-0.073483,0.363371,0,0,0,0,0,2,-0.184992,0.460063,0,0,0,0,-0.162658,0.414385,15232,0,0,0,0,0,0,0,0,0,1,-0.506069
8019,0,0.319336,-6.02246,-0.00137231,0.000843591,-0.00092893,-0.0123758,-0.0346962,2.27241,-3.96606,-0.374288,-0.0851688,-0.187602,0.466714,-0.163386,0.416479,2.27241,0,0,298,12,298,12,417,2,306,121,-0.0721036,0.365285,0,0,0,0,0,2,-0.187602,0.466714,0,0,0,0,-0.163386,0.416479,15232,0,0,0,0,0,0,0,0,0,1,-0.513385
8035,0,0.319336,-3.42578,-0.000352326,0.000543329,-0.00062204,-0.012378,-0.0347031,2.2724,-3.96606,-0.374288,-0.0851688,-0.190059,0.47298,-0.164064,0.418427,2.2724,0,0,298,12,298,12,417,2,306,121,-0.0708114,0.367082,0,0,0,0,0,2,-0.190059,0.47298,0,0,0,0,-0.164064,0.418427,15232,0,0,0,0,0,0,0,0,0,1,-0.520278
8051,0,0.319336,-3.42578,-0.000352326,0.000543329,-0.00062204,-0.012378,-0.0347031,2.2724,-3.96187,-0.371107,-0.0824988,-0.192857,0.480118,-0.164826,0.420619,2.2724,0,0,298,12,298,12,417,0,306,121,-0.0693363,0.369123,0,0,0,0,0,2,-0.192857,0.480118,0,0,0,0,-0.164826,0.420619,15367,0,0,0,0,0,0,0,0,0,1,-0.52813
8161,0,0.319336,5.26465,-0.000941858,0.000595462,0.000187577,-0.0124401,-0.0346828,2.27233,-3.96188,-0.371104,-0.0825243,-0.211315,0.527382,-0.169664,0.434539,2.27233,0,0,298,12,298,12,417,0,306,121,-0.059651,0.382485,0,0,0,0,0,2,-0.211315,0.527382,0,0,0,0,-0.169664,0.434539,15367,0,0,0,0,0,0,0,0,0,1,-0.58012
8211,0,0.319336,3.09277,-0.00168101,0.000695235,0.000506027,-0.0124628,-0.0346719,2.27231,-3.9907,-0.381039,-0.0635489,-0.220059,0.54981,-0.171773,0.44071,2.27231,0,0,298,12,298,12,417,0,308,118,-0.0550842,0.388714,0,0,0,0,0,2,-0.220059,0.54981,0,0,0,0,-0.171773,0.44071,15104,0,0,0,0,0,0,0,0,0,1,-0.604791
8227,0,0.319336,-2.41211,-0.00136888,-1.40442e-05,7.32644e-05,-0.0124924,-0.034675,2.27231,-3.9907,-0.381039,-0.0635489,-0.222814,0.55688,-0.172414,0.442601,2.27231,0,0,298,12,298,12,417,0,308,118,-0.0536479,0.390663,0,0,0,0,0,2,-0.222814,0.55688,0,0,0,0,-0.172414,0.442601,15104,0,0,0,0,0,0,0,0,0,1,-0.612568
8243,0,0.319336,-2.39453,-0.000446739,-0.0010773,-0.000216123,-0.0125008,-0.0346956,2.27231,-3.9907,-0.381039,-0.0635489,-0.225579,0.563982,-0.173048,0.444481,2.27231,0,0,298,12,298,12,417,0,308,118,-0.052206,0.392616,0,0,0,0,0,2,-0.225579,0.563982,0,0,0,0,-0.173048,0.444481,15104,0,0,0,0,0,0,0,0,0,1,-0.62038
8259,0,0.319336,5.42773,-0.00141319,0.000361371,3.77272e-05,-0.0125058,-0.0346944,2.2723,-3.9907,-0.381039,-0.0635489,-0.228355,0.571113,-0.173678,0.446348,2.27231,0,0,298,12,298,12,417,0,308,118,-0.0507596,0.394573,0,0,0,0,0,2,-0.228355,0.571113,0,0,0,0,-0.173678,0.446348,15104,0,0,0,0,0,0,0,0,0,1,-0.628224
8276,0,0.319336,5.42773,-0.00141319,0.000361371,3.77272e-05,-0.0125058,-0.0346944,2.2723,-3.9907,-0.381039,-0.0635489,-0.231315,0.578722,-0.174342,0.448315,2.2723,0,0,298,12,298,12,417,0,308,118,-0.0492224,0.396653,0,0,0,0,0,2,-0.231315,0.578722,0,0,0,0,-0.174342,0.448315,15104,0,0,0,0,0,0,0,0,0,1,-0.636595
8292,0,0.319336,-7.29883,-0.00162818,0.00102071,-0.000549393,-0.0125335,-0.0346789,2.27229,-3.9907,-0.381039,-0.0635489,-0.233935,0.585464,-0.174922,0.450037,2.27229,0,0,298,12,298,12,417,0,308,118,-0.0478628,0.398491,0,0,0,0,0,2,-0.233935,0.585464,0,0,0,0,-0.174922,0.450037,15104,0,0,0,0,0,0,0,0,0,1,-0.64401
8308,0,0.319336,4.99805,-0.00111971,0.000258186,-0.00100807,-0.0125461,-0.0346759,2.27227,-3.9907,-0.381039,-0.0635489,-0.236916,0.593136,-0.175568,0.451974,2.27227,0,0,298,12,298,12,417,0,308,118,-0.0463165,0.400577,0,0,0,0,0,2,-0.236916,0.593136,0,0,0,0,-0.175568,0.451974,15104,0,0,0,0,0,0,0,0,0,1,-0.652449
8324,0,0.319336,2.4209,-0.000716912,0.00122927,-0.000239544,-0.0125639,-0.03467,2.27227,-3.9907,-0.381039,-0.0635489,-0.239731,0.600386,-0.17617,0.453783,2.27227,0,0,298,12,298,12,417,0,308,118,-0.044854,0.402542,0,0,0,0,0,2,-0.239731,0.600386,0,0,0,0,-0.17617,0.453783,15104,0,0,0,0,0,0,0,0,0,1,-0.660424
8340,0,0.319336,-4.04199,-0.00120573,0.000480558,-0.000426643,-0.0125759,-0.0346712,2.27227,-3.98278,-0.380293,-0.078455,-0.242556,0.607665,-0.176764,0.45558,2.27227,0,0,298,12,298,12,417,2,308,121,-0.043388,0.40451,0,0,0,0,0,2,-0.242556,0.607665,0,0,0,0,-0.176764,0.45558,15232,0,0,0,0,0,0,0,0,0,1,-0.668432
8356,0,0.319336,-6.4668,-0.00036846,0.000295936,0.000187802,-0.0126086,-0.0346776,2.27227,-3.98278,-0.380293,-0.078455,-0.245391,0.614973,-0.177351,0.457363,2.27227,0,0,298,12,298,12,417,2,308,121,-0.0419142,0.406481,0,0,0,0,0,2,-0.245391,0.614973,0,0,0,0,-0.177351,0.457363,15232,0,0,0,0,0,0,0,0,0,1,-0.67647
8372,0,0.319336,-3.96484,-0.00132571,0.00166764,-0.000446161,-0.0126271,-0.0346665,2.27227,-4.00699,-0.382655,-0.0615134,-0.248234,0.622309,-0.177932,0.459135,2.27227,0,0,298,12,298,12,417,2,308,118,-0.0404367,0.408454,0,0,0,0,0,2,-0.248234,0.622309,0,0,0,0,-0.177932,0.459135,14848,0,0,0,0,0,0,0,0,0,1,-0.68454
8389,0,0.319336,-0.694336,-0.000742412,0.000978564,-0.000126648,-0.0126398,-0.0346567,2.27226,-4.00699,-0.382655,-0.0615134,-0.251087,0.629674,-0.178504,0.460894,2.27226,0,0,298,12,298,12,417,2,308,118,-0.0389587,0.410429,0,0,0,0,0,2,-0.251087,0.629674,0,0,0,0,-0.178504,0.460894,14848,0,0,0,0,0,0,0,0,0,1,-0.692641
8404,0,0.319336,5.20508,-0.000334027,0.000814508,-0.000703329,-0.0126455,-0.034651,2.27225,-4.00699,-0.382655,-0.0615134,-0.253949,0.637066,-0.17907,0.462639,2.27225,0,0,298,12,298,12,417,2,308,118,-0.037479,0.412406,0,0,0,0,0,2,-0.253949,0.637066,0,0,0,0,-0.17907,0.462639,14848,0,0,0,0,0,0,0,0,0,1,-0.700773
8419,0,0.319336,5.20508,-0.000334027,0.000814508,-0.000703329,-0.0126455,-0.034651,2.27225,-4.00699,-0.382655,-0.0615134,-0.25664,0.644021,-0.179594,0.464262,2.27225,0,0,298,12,298,12,417,2,308,118,-0.0360831,0.414261,0,0,0,0,0,2,-0.25664,0.644021,0,0,0,0,-0.179594,0.464262,14848,0,0,0,0,0,0,0,0,0,1,-0.708423
8435,0,0.319336,-4.37988,-0.000913111,0.000735654,-0.000304866,-0.0126427,-0.0346428,2.27224,-4.00699,-0.382655,-0.0615134,-0.259519,0.651467,-0.180149,0.46598,2.27224,0,0,298,12,298,12,417,2,308,118,-0.0345962,0.416243,0,0,0,0,0,2,-0.259519,0.651467,0,0,0,0,-0.180149,0.46598,14848,0,0,0,0,0,0,0,0,0,1,-0.716613
8451,0,0.319336,-4.37988,-0.000913111,0.000735654,-0.000304866,-0.0126427,-0.0346428,2.27224,-4.00699,-0.382655,-0.0615134,-0.262226,0.658472,-0.180666,0.467577,2.27224,0,0,298,12,298,12,417,2,308,118,-0.033194,0.418103,0,0,0,0,0,2,-0.262226,0.658472,0,0,0,0,-0.180666,0.467577,14848,0,0,0,0,0,0,0,0,0,1,-0.724319
8467,0,0.319336,-0.587891,-0.00092665,0.00163185,0.00123755,-0.0126886,-0.0346341,2.27224,-4.00699,-0.382655,-0.0615134,-0.265304,0.66644,-0.181244,0.469374,2.27223,0,0,298,12,298,12,417,2,308,118,-0.0316022,0.420213,0,0,0,0,0,2,-0.265304,0.66644,0,0,0,0,-0.181244,0.469374,14848,0,0,0,0,0,0,0,0,0,1,-0.733084
8482,0,0.319336,-0.849609,-0.00119027,-0.000126069,0.000148525,-0.0127036,-0.0346381,2.27224,-3.97702,-0.369758,-0.0688042,-0.268028,0.673496,-0.181747,0.470949,2.27224,0,0,298,12,298,12,417,0,305,118,-0.0301869,0.422078,0,0,0,0,0,2,-0.268028,0.673496,0,0,0,0,-0.181747,0.470949,14986,0,0,0,0,0,0,0,0,0,1,-0.740846
8498,0,0.319336,2.91406,-0.00197621,6.95148e-05,0.000104183,-0.0127284,-0.0346426,2.27223,-3.97702,-0.369758,-0.0688042,-0.270941,0.681049,-0.182277,0.472619,2.27223,0,0,298,12,298,12,417,0,305,118,-0.0286826,0.424068,0,0,0,0,0,2,-0.270941,0.681049,0,0,0,0,-0.182277,0.472619,14986,0,0,0,0,0,0,0,0,0,1,-0.749154
8514,0,0.319336,2.91406,-0.00197621,6.95148e-05,0.000104183,-0.0127284,-0.0346426,2.27223,-3.97702,-0.369758,-0.0688042,-0.273863,0.688628,-0.1828,0.474278,2.27223,0,0,298,12,298,12,417,0,305,118,-0.0271698,0.426062,0,0,0,0,0,2,-0.273863,0.688628,0,0,0,0,-0.1828,0.474278,14986,0,0,0,0,0,0,0,0,0,1,-0.757491
8530,0,0.319336,6.17285,-0.000369336,0.000585833,-0.000853645,-0.0127453,-0.0346506,2.27221,-3.97702,-0.369758,-0.0688042,-0.276793,0.696234,-0.183319,0.475925,2.27221,0,0,298,12,298,12,417,0,305,118,-0.0256626,0.428057,0,0,0,0,0,2,-0.276793,0.696234,0,0,0,0,-0.183319,0.475925,14986,0,0,0,0,0,0,0,0,0,1,-0.765857
8546,0,0.319336,6.17285,-0.000369336,0.000585833,-0.000853645,-0.0127453,-0.0346506,2.27221,-3.97702,-0.369758,-0.0688042,-0.279732,0.703866,-0.183832,0.47756,2.27221,0,0,298,12,298,12,417,0,305,118,-0.0241426,0.430056,0,0,0,0,0,2,-0.279732,0.703866,0,0,0,0,-0.183832,0.47756,14986,0,0,0,0,0,0,0,0,0,1,-0.774252
8562,0,0.319336,-6.8252,-0.000659687,0.000299841,-0.000696471,-0.0127648,-0.0346578,2.27219,-3.97702,-0.369758,-0.0688042,-0.282678,0.711523,-0.184341,0.479183,2.27219,0,0,298,12,298,12,417,0,305,118,-0.0226286,0.432056,0,0,0,0,0,2,-0.282678,0.711523,0,0,0,0,-0.184341,0.479183,14986,0,0,0,0,0,0,0,0,0,1,-0.782676
8578,0,0.319336,6.22949,-0.000828121,-0.000874857,4.55559e-05,-0.0127822,-0.034675,2.2722,-3.97702,-0.369758,-0.0688042,-0.285633,0.719207,-0.184844,0.480796,2.27219,0,0,298,12,298,12,417,0,305,118,-0.0211002,0.434059,0,0,0,0,0,2,-0.285633,0.719207,0,0,0,0,-0.184844,0.480796,14986,0,0,0,0,0,0,0,0,0,1,-0.791127
8594,0,0.319336,0.868164,-0.000964078,9.25139e-05,0.000537179,-0.0127903,-0.0346775,2.2722,-3.97702,-0.369758,-0.0688042,-0.288596,0.726916,-0.185344,0.482398,2.2722,0,0,298,12,298,12,417,0,305,118,-0.0195661,0.436066,0,0,0,0,0,2,-0.288596,0.726916,0,0,0,0,-0.185344,0.482398,14986,0,0,0,0,0,0,0,0,0,1,-0.799608
8609,0,0.319336,-1.58203,-0.00157509,0.000669935,8.58193e-05,-0.0128005,-0.034678,2.2722,-3.97361,-0.373959,-0.0701204,-0.29138,0.734167,-0.185807,0.48389,2.2722,0,0,298,12,298,12,417,0,306,118,-0.0181256,0.437949,0,0,0,0,0,2,-0.29138,0.734167,0,0,0,0,-0.185807,0.48389,15104,0,0,0,0,0,0,0,0,0,1,-0.807583
8624,0,0.319336,-1.58203,-0.00157509,0.000669935,8.58193e-05,-0.0128005,-0.034678,2.2722,-3.97361,-0.373959,-0.0701204,-0.294172,0.741439,-0.186266,0.485372,2.2722,0,0,298,12,298,12,417,0,306,118,-0.0166837,0.439834,0,0,0,0,0,2,-0.294172,0.741439,0,0,0,0,-0.186266,0.485372,15104,0,0,0,0,0,0,0,0,0,1,-0.815583
8641,0,0.319336,-1.58203,-0.00157509,0.000669935,8.58193e-05,-0.0128005,-0.034678,2.2722,-3.99065,-0.377637,-0.0660734,-0.297344,0.749709,-0.186783,0.487039,2.2722,0,0,298,12,298,12,417,0,308,121,-0.015046,0.441973,0,0,0,0,0,2,-0.297344,0.749709,0,0,0,0,-0.186783,0.487039,15367,0,0,0,0,0,0,0,0,0,1,-0.82468
8657,0,0.319336,-1.58203,-0.00157509,0.000669935,8.58193e-05,-0.0128005,-0.034678,2.2722,-3.99065,-0.377637,-0.0660734,-0.300338,0.757518,-0.187265,0.488594,2.2722,0,0,298,12,298,12,417,0,308,121,-0.0135014,0.443988,0,0,0,0,0,2,-0.300338,0.757518,0,0,0,0,-0.187265,0.488594,15367,0,0,0,0,0,0,0,0,0,1,-0.83327
8674,0,0.262695,0.0517578,-0.00091697,0.000499733,0.000308873,-0.0128397,-0.0346715,2.27219,-3.99065,-0.377637,-0.0660734,-0.303527,0.765842,-0.187771,0.490235,2.27219,0,0,298,12,298,12,417,0,308,121,-0.011863,0.446131,0,0,0,0,0,2,-0.303527,0.765842,0,0,0,0,-0.187771,0.490235,15367,0,0,0,0,0,0,0,0,0,1,-0.842426
8689,0,0.208008,-6.75,-0.000927388,0.000651586,0.00032578,-0.0128621,-0.0346706,2.2722,-3.99065,-0.377637,-0.0660734,-0.306348,0.77321,-0.18821,0.491672,2.27219,0,0,298,12,298,12,417,0,308,121,-0.0104077,0.448025,0,0,0,0,0,2,-0.306348,0.77321,0,0,0,0,-0.18821,0.491672,15367,0,0,0,0,0,0,0,0,0,1,-0.850531
8706,0,0.208008,-0.506836,-0.000567556,0.000757879,-0.000378901,-0.0128717,-0.0346665,2.2722,-3.99065,-0.377637,-0.0660734,-0.309553,0.781586,-0.188701,0.493291,2.2722,0,0,298,12,298,12,417,0,308,121,-0.00874815,0.450173,0,0,0,0,0,2,-0.309553,0.781586,0,0,0,0,-0.188701,0.493291,15367,0,0,0,0,0,0,0,0,0,1,-0.859745
8722,0,0.208008,-6.72656,-0.00155588,0.000461406,-0.000337072,-0.0128922,-0.034665,2.27219,-3.99065,-0.377637,-0.0660734,-0.312577,0.789494,-0.189158,0.494803,2.27219,0,0,298,12,298,12,417,0,308,121,-0.00719269,0.452197,0,0,0,0,0,2,-0.312577,0.789494,0,0,0,0,-0.189158,0.494803,15367,0,0,0,0,0,0,0,0,0,1,-0.868443
8738,0,0.208008,3.26465,-0.00048178,0.00176256,-0.000954057,-0.0128966,-0.034656,2.27217,-3.99524,-0.382742,-0.0615617,-0.315608,0.797426,-0.189608,0.496304,2.27217,0,0,298,12,298,12,417,0,309,120,-0.00563554,0.454222,0,0,0,0,0,2,-0.315608,0.797426,0,0,0,0,-0.189608,0.496304,15360,0,0,0,0,0,0,0,0,0,1,-0.877169
8754,0,0.208008,3.45996,-0.000850483,4.91654e-05,-0.000536478,-0.0129042,-0.0346628,2.27217,-3.99524,-0.382742,-0.0615617,-0.318646,0.805383,-0.190053,0.497793,2.27217,0,0,298,12,298,12,417,0,309,120,-0.00407005,0.45625,0,0,0,0,0,2,-0.318646,0.805383,0,0,0,0,-0.190053,0.497793,15360,0,0,0,0,0,0,0,0,0,1,-0.885921
8770,0,0.208008,-6.80078,-0.0020827,0.000814827,-0.000317701,-0.0129551,-0.0346546,2.27219,-3.99524,-0.382742,-0.0615617,-0.321692,0.813363,-0.190494,0.499273,2.27218,0,0,298,12,298,12,417,0,309,120,-0.00249467,0.45828,0,0,0,0,0,2,-0.321692,0.813363,0,0,0,0,-0.190494,0.499273,15360,0,0,0,0,0,0,0,0,0,1,-0.894699
8786,0,0.208008,0.972656,-0.00209611,0.00143811,0.000567696,-0.0129685,-0.034653,2.27219,-3.97699,-0.369295,-0.0688142,-0.324744,0.821366,-0.190927,0.500742,2.27219,0,0,298,12,298,12,417,0,305,118,-0.000917907,0.460312,0,0,0,0,0,2,-0.324744,0.821366,0,0,0,0,-0.190927,0.500742,14986,0,0,0,0,0,0,0,0,0,1,-0.903503
8802,0,0.208008,5.83301,-0.00190198,0.00108342,-0.000527828,-0.0129838,-0.0346458,2.27217,-3.97699,-0.369295,-0.0688142,-0.327803,0.829394,-0.191353,0.502203,2.27217,0,0,298,12,298,12,417,0,305,118,0.000654168,0.462346,0,0,0,0,0,2,-0.327803,0.829394,0,0,0,0,-0.191353,0.502203,14986,0,0,0,0,0,0,0,0,0,1,-0.912333
8817,0,0.208008,-4.25684,-0.00195357,0.000353496,0.000710735,-0.0130025,-0.034654,2.27217,-3.97699,-0.369295,-0.0688142,-0.330677,0.83694,-0.191747,0.503562,2.27217,0,0,298,12,298,12,417,0,305,118,0.00213638,0.464255,0,0,0,0,0,2,-0.330677,0.83694,0,0,0,0,-0.191747,0.503562,14986,0,0,0,0,0,0,0,0,0,1,-0.920634
8832,0,0.208008,4.56934,-0.00113051,-7.00556e-05,0.000315512,-0.0130138,-0.0346578,2.27217,-3.97699,-0.369295,-0.0688142,-0.333557,0.844506,-0.192137,0.504913,2.27217,0,0,298,12,298,12,417,0,305,118,0.00362441,0.466165,0,0,0,0,0,2,-0.333557,0.844506,0,0,0,0,-0.192137,0.504913,14986,0,0,0,0,0,0,0,0,0,1,-0.928957
8848,0,0.208008,4.56934,-0.00113051,-7.00556e-05,0.000315512,-0.0130138,-0.0346578,2.27217,-3.97699,-0.369295,-0.0688142,-0.336636,0.852599,-0.192548,0.506345,2.27217,0,0,298,12,298,12,417,0,305,118,0.00521292,0.468206,0,0,0,0,0,2,-0.336636,0.852599,0,0,0,0,-0.192548,0.506345,14986,0,0,0,0,0,0,0,0,0,1,-0.937859
8864,0,0.208008,-5.81348,-0.000345502,0.000109431,-0.000211481,-0.0130261,-0.0346598,2.27217,-3.97699,-0.369295,-0.0688142,-0.339721,0.860715,-0.192956,0.507766,2.27217,0,0,298,12,298,12,417,0,305,118,0.00680168,0.470248,0,0,0,0,0,2,-0.339721,0.860715,0,0,0,0,-0.192956,0.507766,14986,0,0,0,0,0,0,0,0,0,1,-0.946787
8880,0,0.208008,-5.81348,-0.000345502,0.000109431,-0.000211481,-0.0130261,-0.0346598,2.27217,-3.97699,-0.369295,-0.0688142,-0.342812,0.868854,-0.19336,0.509177,2.27217,0,0,298,12,298,12,417,0,305,118,0.00839628,0.472292,0,0,0,0,0,2,-0.342812,0.868854,0,0,0,0,-0.19336,0.509177,14986,0,0,0,0,0,0,0,0,0,1,-0.955739
8896,0,0.208008,-6.71484,-0.00112179,0.000702307,0.000573505,-0.0130624,-0.0346694,2.27218,-3.97699,-0.369295,-0.0688142,-0.34591,0.877015,-0.193759,0.510578,2.27217,0,0,298,12,298,12,417,0,305,118,0.00999686,0.474339,0,0,0,0,0,2,-0.34591,0.877015,0,0,0,0,-0.193759,0.510578,14986,0,0,0,0,0,0,0,0,0,1,-0.964716
8912,0,0.208008,-0.417969,-0.00172896,0.00105306,0.000634145,-0.0130788,-0.0346642,2.27217,-3.99053,-0.37718,-0.0659793,-0.349014,0.885198,-0.194153,0.511971,2.27218,0,0,298,12,298,12,417,0,308,121,0.0116002,0.476388,0,0,0,0,0,2,-0.349014,0.885198,0,0,0,0,-0.194153,0.511971,15367,0,0,0,0,0,0,0,0,0,1,-0.973718
8928,0,0.208008,6.90625,-0.00135451,0.000158733,-0.000108856,-0.0130886,-0.034668,2.27217,-3.99053,-0.37718,-0.0659793,-0.352124,0.893404,-0.194542,0.513354,2.27217,0,0,298,12,298,12,417,0,308,121,0.0132028,0.478438,0,0,0,0,0,2,-0.352124,0.893404,0,0,0,0,-0.194542,0.513354,15367,0,0,0,0,0,0,0,0,0,1,-0.982745
8944,0,0.208008,1.77832,-0.000658218,-0.000851922,0.000106915,-0.0130911,-0.0346812,2.27216,-3.9735,-0.373414,-0.0700175,-0.355241,0.901632,-0.194926,0.514728,2.27216,0,0,298,12,298,12,417,0,306,118,0.0148068,0.480491,0,0,0,0,0,2,-0.355241,0.901632,0,0,0,0,-0.194926,0.514728,15104,0,0,0,0,0,0,0,0,0,1,-0.991795
8960,0,0.208008,0.354492,-0.000190693,0.000151913,0.000614329,-0.0130961,-0.0346901,2.27217,-3.9735,-0.373414,-0.0700175,-0.358364,0.909881,-0.195309,0.516093,2.27217,0,0,298,12,298,12,417,0,306,118,0.0162782,0.482381,0,0,0,0,0,2,-0.358364,0.909881,0,0,0,0,-0.195309,0.516093,15104,0,0,0,0,0,0,0,0,0,1,-1
8976,0,0.208008,6.47852,-0.000978478,-0.00104037,0.000458497,-0.0131,-0.0347025,2.27217,-3.94969,-0.371049,-0.0868531,-0.361493,0.918153,-0.195689,0.517449,2.27217,0,0,298,12,298,12,417,0,306,121,0.0164277,0.482701,0,0,0,0,0,2,-0.361493,0.918153,0,0,0,0,-0.195689,0.517449,15488,0,0,0,0,0,0,0,0,0,1,-1
8992,0,0.208008,6.94531,-0.00113674,0.0013367,-0.000361463,-0.0131219,-0.0346872,2.27216,-3.94969,-0.371049,-0.0868531,-0.364628,0.926446,-0.196065,0.518795,2.27217,0,0,298,12,298,12,417,0,306,121,0.0165703,0.483019,0,0,0,0,0,2,-0.364628,0.926446,0,0,0,0,-0.196065,0.518795,15488,0,0,0,0,0,0,0,0,0,1,-1
9008,0,0.208008,5.76855,-0.000735624,0.000455643,-0.000722173,-0.0131291,-0.0346819,2.27215,-3.98656,-0.377045,-0.0700525,-0.367768,0.934761,-0.196437,0.520131,2.27216,0,0,298,12,298,12,417,0,308,120,0.0167135,0.483334,0,0,0,0,0,2,-0.367768,0.934761,0,0,0,0,-0.196437,0.520131,15240,0,0,0,0,0,0,0,0,0,1,-1
9023,0,0.208008,-6.77246,-0.000841168,0.000369238,-0.00063544,-0.0131477,-0.0346806,2.27215,-3.98656,-0.377045,-0.0700525,-0.370718,0.942575,-0.19678,0.521374,2.27215,0,0,298,12,298,12,417,0,308,120,0.0168405,0.483627,0,0,0,0,0,2,-0.370718,0.942575,0,0,0,0,-0.19678,0.521374,15240,0,0,0,0,0,0,0,0,0,1,-1
9039,0,0.208008,-2.70898,-0.0011955,0.000428251,-0.000631526,-0.0131535,-0.0346856,2.27214,-3.96477,-0.37007,-0.073496,-0.373673,0.950407,-0.197118,0.522609,2.27214,0,0,298,12,298,12,417,0,305,118,0.01697,0.483918,0,0,0,0,0,2,-0.373673,0.950407,0,0,0,0,-0.197118,0.522609,15104,0,0,0,0,0,0,0,0,0,1,-1
9054,0,0.208008,3.86816,-0.00107476,0.000380229,-0.00132456,-0.0131652,-0.0346832,2.27212,-3.96477,-0.37007,-0.073496,-0.376831,0.958783,-0.197475,0.523918,2.27212,0,0,298,12,298,12,417,0,305,118,0.0171039,0.484226,0,0,0,0,0,2,-0.376831,0.958783,0,0,0,0,-0.197475,0.523918,15104,0,0,0,0,0,0,0,0,0,1,-1
9071,0,0.208008,-3.6416,-0.00128907,-0.00126518,-0.00113659,-0.013177,-0.0347041,2.27211,-3.96477,-0.37007,-0.073496,-0.380192,0.967705,-0.197851,0.525299,2.27211,0,0,298,12,298,12,417,0,305,118,0.0172499,0.48455,0,0,0,0,0,2,-0.380192,0.967705,0,0,0,0,-0.197851,0.525299,15104,0,0,0,0,0,0,0,0,0,1,-1
9087,0,0.208008,-3.6416,-0.00128907,-0.00126518,-0.00113659,-0.013177,-0.0347041,2.27211,-3.99045,-0.379744,-0.0633714,-0.383163,0.975596,-0.19818,0.52651,2.27211,0,0,298,12,298,12,417,0,308,118,0.0173824,0.484835,0,0,0,0,0,2,-0.383163,0.975596,0,0,0,0,-0.19818,0.52651,15104,0,0,0,0,0,0,0,0,0,1,-1
9103,0,0.208008,-6.88672,-0.000312653,-8.88729e-05,-0.000437384,-0.0131947,-0.0346928,2.2721,-3.99045,-0.379744,-0.0633714,-0.386536,0.984561,-0.198548,0.527871,2.2721,0,0,298,12,298,12,417,0,308,118,0.0175293,0.485154,0,0,0,0,0,2,-0.386536,0.984561,0,0,0,0,-0.198548,0.527871,15104,0,0,0,0,0,0,0,0,0,1,-1
9120,0,0.208008,-2.55176,-0.00222586,0.00107726,-0.000400775,-0.0132143,-0.0346942,2.2721,-4.00312,-0.378835,-0.0680688,-0.389717,0.993021,-0.198891,0.529143,2.2721,0,0,298,12,298,12,417,2,308,120,0.0176674,0.485452,0,0,0,0,0,2,-0.389717,0.993021,0,0,0,0,-0.198891,0.529143,14986,0,0,0,0,0,0,0,0,0,1,-1
9135,0,0.208008,4.52344,-0.00122887,-5.59498e-05,-0.000500796,-0.0132228,-0.0347002,2.2721,-4.00312,-0.378835,-0.0680688,-0.392902,1.0015,-0.199227,0.530407,2.2721,0,0,298,12,298,12,417,2,308,120,0.0178056,0.485748,0,0,0,0,0,2,-0.392902,1.0015,0,0,0,0,-0.199227,0.530407,14986,0,0,0,0,0,0,0,0,0,1,-1
9151,0,0.208008,4.52344,-0.00122887,-5.59498e-05,-0.000500796,-0.0132228,-0.0347002,2.2721,-4.01094,-0.381692,-0.0554541,-0.396094,1.01,-0.199561,0.531662,2.2721,0,0,298,12,298,12,417,0,309,118,0.0179442,0.486042,0,0,0,0,0,2,-0.396094,1.01,0,0,0,0,-0.199561,0.531662,14986,0,0,0,0,0,0,0,0,0,1,-1
9167,0,0.208008,6.86621,-0.000291591,0.000689465,0.000933358,-0.0132245,-0.0347033,2.2721,-4.01094,-0.381692,-0.0554541,-0.39929,1.01852,-0.199893,0.532907,2.2721,0,0,298,12,298,12,417,0,309,118,0.0180822,0.486333,0,0,0,0,0,2,-0.39929,1.01852,0,0,0,0,-0.199893,0.532907,14986,0,0,0,0,0,0,0,0,0,1,-1
9183,0,0.208008,6.86621,-0.000291591,0.000689465,0.000933358,-0.0132245,-0.0347033,2.2721,-4.00675,-0.376703,-0.0692225,-0.402492,1.02706,-0.200222,0.534143,2.2721,0,0,298,12,298,12,417,2,308,121,0.0182187,0.486622,0,0,0,0,0,2,-0.402492,1.02706,0,0,0,0,-0.200222,0.534143,14994,0,0,0,0,0,0,0,0,0,1,-1
9199,0,0.249023,0.191406,-0.00210378,0.000405321,-0.00014168,-0.0132723,-0.0346993,2.27208,-4.00675,-0.376703,-0.0692225,-0.405699,1.03562,-0.200547,0.535369,2.27208,0,0,298,12,298,12,417,2,308,121,0.0183461,0.486909,0,0,0,0,0,2,-0.405699,1.03562,0,0,0,0,-0.200547,0.535369,14994,0,0,0,0,0,0,0,0,0,1,-1
9215,0,0.282227,-2.18457,-0.00174135,0.00032506,-0.000157441,-0.0132841,-0.0347014,2.27207,-3.9952,-0.382149,-0.0616309,-0.408911,1.0442,-0.200865,0.536587,2.27208,0,0,298,12,298,12,417,0,309,120,0.018481,0.487193,0,0,0,0,0,2,-0.408911,1.0442,0,0,0,0,-0.200865,0.536587,15360,0,0,0,0,0,0,0,0,0,1,-1
9231,0,0.31543,-2.29395,-0.00104326,-0.000522888,-0.000672368,-0.01329,-0.0347079,2.27206,-3.9952,-0.382149,-0.0616309,-0.412128,1.05279,-0.201179,0.5378,2.27206,0,0,298,12,298,12,417,0,309,120,0.0186083,0.487476,0,0,0,0,0,2,-0.412128,1.05279,0,0,0,0,-0.201179,0.5378,15360,0,0,0,0,0,0,0,0,0,1,-1
9246,0,0.31543,-2.29395,-0.00104326,-0.000522888,-0.000672368,-0.01329,-0.0347079,2.27206,-3.9952,-0.382149,-0.0616309,-0.415148,1.06087,-0.201471,0.538929,2.27206,0,0,298,12,298,12,417,0,309,120,0.0187347,0.487738,0,0,0,0,0,2,-0.415148,1.06087,0,0,0,0,-0.201471,0.538929,15360,0,0,0,0,0,0,0,0,0,1,-1
9261,0,0.320312,5.40137,-0.00181317,0.000907943,-0.00019226,-0.0133055,-0.0347039,2.27205,-3.9952,-0.382149,-0.0616309,-0.418173,1.06897,-0.201759,0.540049,2.27205,0,0,298,12,298,12,417,0,309,120,0.0188565,0.487999,0,0,0,0,0,2,-0.418173,1.06897,0,0,0,0,-0.201759,0.540049,15360,0,0,0,0,0,0,0,0,0,1,-1
9277,0,0.287109,-0.921875,4.80067e-05,3.09435e-05,-0.000793333,-0.0132929,-0.0347102,2.27205,-4.00271,-0.378301,-0.058712,-0.421405,1.07762,-0.202064,0.541236,2.27205,0,0,298,12,298,12,417,0,308,118,0.0189853,0.488275,0,0,0,0,0,2,-0.421405,1.07762,0,0,0,0,-0.202064,0.541236,14986,0,0,0,0,0,0,0,0,0,1,-1
9293,0,0.253906,6.88184,-0.00202901,6.18751e-05,0.000384993,-0.0133039,-0.0347179,2.27204,-4.00271,-0.378301,-0.058712,-0.424641,1.08629,-0.202368,0.542414,2.27204,0,0,298,12,298,12,417,0,308,118,0.0191147,0.488549,0,0,0,0,0,2,-0.424641,1.08629,0,0,0,0,-0.202368,0.542414,14986,0,0,0,0,0,0,0,0,0,1,-1
9309,0,0.19043,-5.82715,-0.00120561,0.000595276,-0.000152134,-0.0133221,-0.0347219,2.27203,-4.00271,-0.378301,-0.058712,-0.427882,1.09498,-0.202668,0.543584,2.27203,0,0,298,12,298,12,417,0,308,118,0.0192428,0.488821,0,0,0,0,0,2,-0.427882,1.09498,0,0,0,0,-0.202668,0.543584,14986,0,0,0,0,0,0,0,0,0,1,-1
9325,0,0.19043,4.22559,-0.000852145,0.00125503,-0.00107307,-0.0133287,-0.0347184,2.27202,-4.00271,-0.378301,-0.058712,-0.431128,1.10369,-0.202964,0.544746,2.27203,0,0,298,12,298,12,417,0,308,118,0.0193706,0.489091,0,0,0,0,0,2,-0.431128,1.10369,0,0,0,0,-0.202964,0.544746,14986,0,0,0,0,0,0,0,0,0,1,-1
9342,0,0.19043,1.02441,-0.000564088,0.00135379,-0.00104993,-0.0133342,-0.0347088,2.27201,-3.96481,-0.369764,-0.0736081,-0.434581,1.11297,-0.203275,0.545971,2.27201,0,0,298,12,298,12,417,0,305,118,0.0194984,0.489376,0,0,0,0,0,2,-0.434581,1.11297,0,0,0,0,-0.203275,0.545971,15104,0,0,0,0,0,0,0,0,0,1,-1
