timestamp,A_x,A_y,A_z,P,Q,R,Phi,Theta,Psi,poseX,poseY,poseZ,state_X,state_Y,state_Z,state_VzB,state_Bx,state_By,state_Bz,p1_x,p1_y,p2_x,p2_y,p3_x,p3_y,p4_x,p4_y,roll,pitch,yaw,alt,targetHeading,highLevelState,lowLevelState,gateNumber,filtered_x,filtered_y,x_OT,y_OT,vx_OT,vy_OT,filtered_vx,filtered_vygateArearansac_corr_x,ransac_corr_y,ransac_corr_vx,ransac_corr_vy,detectionTimeStamppTermX,dTermX,pTermY,dTermY,vxcmd,vycmd
6112,-0.344727,0.0644531,-6.23828,-0.00210493,-0.00113765,0.00485325,0.0485826,-0.0232742,-0.0386762,0,0,0,1.00436e-05,2.07979e-05,0.00187909,0.00385404,-0.040094,0,0,0,0,0,0,0,0,0,0,0.0165165,-0.610465,0,-1.5,2.05094e-38,0,0,0,1.00436e-05,2.07979e-05,0,0,0,0,0.00187909,0.00385404,1.9603e-19,0,0,0,0,0,0,0,0,0,2.51,-4.15957e-05
6126,-0.313477,0.0644531,0.789062,-0.00184024,-0.0016646,0.00382898,0.0463364,-0.025313,-0.0351622,0,0,0,6.55593e-05,0.000130083,0.00534851,0.0103094,-0.0365085,0,0,0,0,0,0,0,0,0,0,0.0132856,-0.610582,0,-1.5,2.05094e-38,0,0,0,6.55593e-05,0.000130083,0,0,0,0,0.00534851,0.0103094,1.9603e-19,0,0,0,0,0,0,0,0,0,2.51,-0.000260167
6144,-0.342773,0.0644531,5.49707,-0.00204765,-0.00318166,0.00445877,0.044296,-0.0272862,-0.031426,0,0,0,0.000227961,0.000429311,0.0103279,0.0186264,-0.0328843,0,0,0,0,0,0,0,0,0,0,0.00947725,-0.610701,0,-1.5,2.05094e-38,0,0,0,0.000227961,0.000429311,0,0,0,0,0.0103279,0.0186264,1.9603e-19,0,0,0,0,0,0,0,0,0,2.51,-0.000858623
6161,-0.342773,0.0644531,4.33691,-0.00170431,-0.00305718,0.0041883,0.0428961,-0.028743,-0.0283996,0,0,0,0.000453503,0.000821971,0.0150288,0.0256694,-0.0291932,0,0,0,0,0,0,0,0,0,0,0.00591069,-0.61079,0,-1.5,2.05094e-38,0,0,0,0.000453503,0.000821971,0,0,0,0,0.0150288,0.0256694,1.9603e-19,0,0,0,0,0,0,0,0,0,2.51,-0.00164394
6177,-0.342773,0.0644531,-5.24316,-0.00171856,-0.00242832,0.00499622,0.0428677,-0.0287743,-0.028333,0,0,0,0.000742012,0.00129983,0.0195998,0.0320527,-0.028333,0,0,0,0,0,0,0,0,0,0,0.00370134,-0.610847,0,-1.5,2.05094e-38,0,0,0,0.000742012,0.00129983,0,0,0,0,0.0195998,0.0320527,1.9603e-19,0,0,0,0,0,0,0,0,0,2.51,-0.00259967
6193,-0.342773,0.0644531,-7.38574,-0.00156524,-0.00158112,0.0044677,0.0428217,-0.0288286,-0.0282124,0,0,0,0.00110192,0.00187722,0.0241403,0.0383783,-0.0282748,0,0,0,0,0,0,0,0,0,0,0.00180656,-0.6109,0,-1.5,2.05094e-38,0,0,0,0.00110192,0.00187722,0,0,0,0,0.0241403,0.0383783,1.9603e-19,0,0,0,0,0,0,0,0,0,2.51,-0.00375444
6209,-0.342773,0.0644531,2.6875,-0.00392443,-0.00219884,0.00507634,0.0427784,-0.0288502,-0.0281493,0,0,0,0.00153416,0.00255527,0.0286492,0.0446495,-0.0282124,0,0,0,0,0,0,0,0,0,0,-0.000126699,-0.610954,0,-1.5,2.05094e-38,0,0,0,0.00153416,0.00255527,0,0,0,0,0.0286492,0.0446495,1.9603e-19,0,0,0,0,0,0,0,0,0,2.51,-0.00511053
6225,-0.342773,0.0644531,2.24121,-0.00140773,-0.0023698,0.00478607,0.0427496,-0.0288753,-0.0280936,0,0,0,0.00200454,0.0032814,0.0328474,0.0504747,-0.0280936,0,0,0,0,0,0,0,0,0,0,-0.00199722,-0.611005,0,-1.5,2.05094e-38,0,0,0,0.00200454,0.0032814,0,0,0,0,0.0328474,0.0504747,1.9603e-19,0,0,0,0,0,0,0,0,0,2.51,-0.00656281
6240,-0.342773,0.0644531,4.80859,-0.00216048,-0.00229539,0.0039272,0.0427192,-0.0289034,-0.0280307,0,0,0,0.00257687,0.00415381,0.0372952,0.056637,-0.0280307,0,0,0,0,0,0,0,0,0,0,-0.0040007,-0.61106,0,-1.5,2.05094e-38,0,0,0,0.00257687,0.00415381,0,0,0,0,0.0372952,0.056637,1.9603e-19,0,0,0,0,0,0,0,0,0,2.51,-0.00830762
6256,-0.342773,0.0644531,-2.9873,-0.00241657,-0.00239648,0.00384753,0.0426887,-0.0289301,-0.0279714,0,0,0,0.00322003,0.00512424,0.0417117,0.0627449,-0.0279714,0,0,0,0,0,0,0,0,0,0,-0.00603798,-0.611116,0,-1.5,2.05094e-38,0,0,0,0.00322003,0.00512424,0,0,0,0,0.0417117,0.0627449,1.9603e-19,0,0,0,0,0,0,0,0,0,2.51,-0.0102485
6272,-0.342773,0.0644531,5.55078,-0.000371017,-0.00203406,0.0054045,0.0426742,-0.0289529,-0.0279037,0,0,0,0.00393214,0.00618993,0.0460965,0.0687988,-0.0279037,0,0,0,0,0,0,0,0,0,0,-0.00811308,-0.611173,0,-1.5,2.05094e-38,0,0,0,0.00393214,0.00618993,0,0,0,0,0.0460965,0.0687988,1.9603e-19,0,0,0,0,0,0,0,0,0,2.51,-0.0123799
6287,-0.342773,0.0644531,2.07422,-0.00123435,-0.00380027,0.00463647,0.0426474,-0.0289899,-0.0278374,0,0,0,0.0046631,0.00727641,0.0501789,0.0744278,-0.0278374,0,0,0,0,0,0,0,0,0,0,-0.0100917,-0.611227,0,-1.5,2.05094e-38,0,0,0,0.0046631,0.00727641,0,0,0,0,0.0501789,0.0744278,1.9603e-19,0,0,0,0,0,0,0,0,0,2.51,-0.0145528
6316,-0.342773,0.0644531,2.27832,-0.000759821,-0.00306863,0.00483023,0.042602,-0.0290487,-0.0277031,0,0,0,0.00628918,0.00967015,0.0580138,0.0852119,-0.0277031,0,0,0,0,0,0,0,0,0,0,-0.0140418,-0.611333,0,-1.5,2.05094e-38,0,0,0,0.00628918,0.00967015,0,0,0,0,0.0580138,0.0852119,1.9603e-19,0,0,0,0,0,0,0,0,0,2.51,-0.0193403
6349,-0.342773,0.0644531,0.109375,-0.00268564,-0.00298912,0.00404972,0.0425322,-0.0291307,-0.027524,0,0,0,0.008435,0.0127998,0.0668192,0.097295,-0.027524,0,0,0,0,0,0,0,0,0,0,-0.0187039,-0.611457,0,-1.5,2.05094e-38,0,0,0,0.008435,0.0127998,0,0,0,0,0.0668192,0.097295,1.9603e-19,0,0,0,0,0,0,0,0,0,2.51,-0.0255996
6377,-0.342773,0.0644531,-0.0839844,-0.00265181,-0.00329648,0.00509977,0.042458,-0.029193,-0.0274005,0,0,0,0.0104642,0.0157404,0.0741865,0.107363,-0.0274005,0,0,0,0,0,0,0,0,0,0,-0.0227436,-0.611564,0,-1.5,2.05094e-38,0,0,0,0.0104642,0.0157404,0,0,0,0,0.0741865,0.107363,1.9603e-19,0,0,0,0,0,0,0,0,0,2.51,-0.0314808
6390,-0.342773,0.0644531,-1.62793,-0.00180936,-0.0023031,0.0042513,0.0424377,-0.0292159,-0.0273382,0,0,0,0.011456,0.0171733,0.0775687,0.111967,-0.0274005,0,0,0,0,0,0,0,0,0,0,-0.0246104,-0.611615,0,-1.5,2.05094e-38,0,0,0,0.011456,0.0171733,0,0,0,0,0.0775687,0.111967,1.9603e-19,0,0,0,0,0,0,0,0,0,2.51,-0.0343467
6406,-0.342773,0.0644531,-0.478516,-0.00266238,-0.0035655,0.004657,0.0423994,-0.0292568,-0.0272697,0,0,0,0.0127393,0.0190222,0.0817062,0.117591,-0.0272697,0,0,0,0,0,0,0,0,0,0,-0.0269972,-0.611675,0,-1.5,2.05094e-38,0,0,0,0.0127393,0.0190222,0,0,0,0,0.0817062,0.117591,1.9603e-19,0,0,0,0,0,0,0,0,0,2.51,-0.0380444
6422,-0.342773,0.0644531,5.97363,-0.00379177,-0.00333672,0.00418478,0.0423501,-0.0292961,-0.02721,0,0,0,0.0140898,0.0209623,0.0858179,0.123164,-0.02721,0,0,0,0,0,0,0,0,0,0,-0.0293857,-0.611738,0,-1.5,2.05094e-38,0,0,0,0.0140898,0.0209623,0,0,0,0,0.0858179,0.123164,1.9603e-19,0,0,0,0,0,0,0,0,0,2.51,-0.0419245
6440,-0.342773,0.0644531,-2.27441,-0.001648,-0.00298101,0.00449429,0.0419922,-0.0290527,-0.0270996,0,0,0,0.015598,0.0231227,0.0901406,0.129011,-0.0270996,0,0,0,0,0,0,0,0,0,0,-0.031975,-0.611803,0,-1.5,2.05094e-38,0,0,0,0.015598,0.0231227,0,0,0,0,0.0901406,0.129011,1.9603e-19,0,0,0,0,0,0,0,0,0,2.51,-0.0462454
6456,-0.342773,0.0644531,-6.6709,-0.00255367,-0.00351582,0.00444283,0.0423043,-0.0293676,-0.0270996,0,0,0,0.0171774,0.0253794,0.0944204,0.134791,-0.0270996,0,0,0,0,0,0,0,0,0,0,-0.0345474,-0.611873,0,-1.5,2.05094e-38,0,0,0,0.0171774,0.0253794,0,0,0,0,0.0944204,0.134791,1.9603e-19,0,0,0,0,0,0,0,0,0,2.51,-0.0507588
6472,-0.342773,0.0644531,5.82324,-0.00258124,-0.00175419,0.00409577,0.0422438,-0.0294266,-0.0269932,0,0,0,0.0187292,0.0275914,0.0984444,0.140213,-0.0270996,0,0,0,0,0,0,0,0,0,0,-0.037008,-0.61194,0,-1.5,2.05094e-38,0,0,0,0.0187292,0.0275914,0,0,0,0,0.0984444,0.140213,1.9603e-19,0,0,0,0,0,0,0,0,0,2.51,-0.0551828
6488,-0.342773,0.0644531,5.82324,-0.00258124,-0.00175419,0.00409577,0.0422438,-0.0294266,-0.0269932,0,0,0,0.0203463,0.0298913,0.102445,0.145583,-0.0269932,0,0,0,0,0,0,0,0,0,0,-0.0395462,-0.612003,0,-1.5,2.05094e-38,0,0,0,0.0203463,0.0298913,0,0,0,0,0.102445,0.145583,1.9603e-19,0,0,0,0,0,0,0,0,0,2.51,-0.0597826
6504,-0.342773,0.0644531,5.82324,-0.00258124,-0.00175419,0.00409577,0.0422438,-0.0294266,-0.0269932,0,0,0,0.0220272,0.0322766,0.106414,0.150911,-0.0269932,0,0,0,0,0,0,0,0,0,0,-0.0420699,-0.612071,0,-1.5,2.05094e-38,0,0,0,0.0220272,0.0322766,0,0,0,0,0.106414,0.150911,1.9603e-19,0,0,0,0,0,0,0,0,0,2.51,-0.0645533
6520,-0.292969,0.0644531,-0.375977,-0.00207101,-0.00313052,0.00350231,0.042165,-0.0295097,-0.0268153,0,0,0,0.0237713,0.0347468,0.110356,0.156192,-0.0268153,0,0,0,0,0,0,0,0,0,0,-0.0447021,-0.612132,0,-1.5,2.05094e-38,0,0,0,0.0237713,0.0347468,0,0,0,0,0.110356,0.156192,1.9603e-19,0,0,0,0,0,0,0,0,0,2.51,-0.0694936
6536,-0.259766,0.0644531,4.78223,-0.00165043,-0.0034034,0.00400333,0.0421295,-0.029543,-0.0267628,0,0,0,0.0255769,0.0372992,0.114275,0.16142,-0.0267628,0,0,0,0,0,0,0,0,0,0,-0.0473074,-0.612199,0,-1.5,2.05094e-38,0,0,0,0.0255769,0.0372992,0,0,0,0,0.114275,0.16142,1.9603e-19,0,0,0,0,0,0,0,0,0,2.51,-0.0745984
6563,-0.207031,0.0644531,-5.24902,-0.00196632,-0.00281852,0.00597689,0.0420859,-0.0296059,-0.026632,0,0,0,0.0287932,0.0418319,0.120839,0.170158,-0.026632,0,0,0,0,0,0,0,0,0,0,-0.051814,-0.612311,0,-1.5,2.05094e-38,0,0,0,0.0287932,0.0418319,0,0,0,0,0.120839,0.170158,1.9603e-19,0,0,0,0,0,0,0,0,0,2.51,-0.0836637
6577,-0.207031,0.0644531,-5.39062,-0.00220555,-0.00294136,0.00403672,0.0420484,-0.0296315,-0.0265665,0,0,0,0.0305148,0.0442537,0.124207,0.174626,-0.0265665,0,0,0,0,0,0,0,0,0,0,-0.0541698,-0.61237,0,-1.5,2.05094e-38,0,0,0,0.0305148,0.0442537,0,0,0,0,0.124207,0.174626,1.9603e-19,0,0,0,0,0,0,0,0,0,2.51,-0.0885074
6592,-0.207031,0.0644531,-0.658203,-0.00315336,-0.00318068,0.00478282,0.0420185,-0.0296551,-0.0265052,0,0,0,0.0324116,0.0469178,0.127793,0.179374,-0.0265052,0,0,0,0,0,0,0,0,0,0,-0.0567148,-0.612433,0,-1.5,2.05094e-38,0,0,0,0.0324116,0.0469178,0,0,0,0,0.127793,0.179374,1.9603e-19,0,0,0,0,0,0,0,0,0,2.51,-0.0938356
6608,-0.207031,0.0644531,5.30957,-0.00180343,-0.00353058,0.00507112,0.0419912,-0.029696,-0.0264337,0,0,0,0.034363,0.049654,0.131356,0.184084,-0.0264337,0,0,0,0,0,0,0,0,0,0,-0.0592906,-0.612497,0,-1.5,2.05094e-38,0,0,0,0.034363,0.049654,0,0,0,0,0.131356,0.184084,1.9603e-19,0,0,0,0,0,0,0,0,0,2.51,-0.099308
6623,-0.253906,0.0644531,-4.37793,-0.00243246,-0.00248019,0.00447082,0.0419355,-0.0297432,-0.026311,0,0,0,0.0365032,0.0526502,0.135133,0.189064,-0.0263706,0,0,0,0,0,0,0,0,0,0,-0.0620605,-0.612565,0,-1.5,2.05094e-38,0,0,0,0.0365032,0.0526502,0,0,0,0,0.135133,0.189064,1.9603e-19,0,0,0,0,0,0,0,0,0,2.51,-0.1053
6639,-0.287109,0.0644531,-5.70117,-0.00206358,-0.00329884,0.00490729,0.041906,-0.0297796,-0.0262515,0,0,0,0.0387036,0.0557256,0.138883,0.194,-0.026311,0,0,0,0,0,0,0,0,0,0,-0.0648573,-0.612634,0,-1.5,2.05094e-38,0,0,0,0.0387036,0.0557256,0,0,0,0,0.138883,0.194,1.9603e-19,0,0,0,0,0,0,0,0,0,2.51,-0.111451
6655,-0.320312,0.0644531,-3.23535,-0.00172269,-0.00216549,0.00410262,0.0418846,-0.0298076,-0.026203,0,0,0,0.0409638,0.0588795,0.14261,0.198889,-0.026203,0,0,0,0,0,0,0,0,0,0,-0.067703,-0.612701,0,-1.5,2.05094e-38,0,0,0,0.0409638,0.0588795,0,0,0,0,0.14261,0.198889,1.9603e-19,0,0,0,0,0,0,0,0,0,2.51,-0.117759
6671,-0.34668,0.0644531,-0.56543,-0.00233321,-0.00292508,0.00385845,0.0418471,-0.0298412,-0.0261398,0,0,0,0.0432845,0.0621127,0.146313,0.203736,-0.0261398,0,0,0,0,0,0,0,0,0,0,-0.0705581,-0.61277,0,-1.5,2.05094e-38,0,0,0,0.0432845,0.0621127,0,0,0,0,0.146313,0.203736,1.9603e-19,0,0,0,0,0,0,0,0,0,2.51,-0.124225
6688,-0.34668,0.0644531,-0.826172,-0.0023011,-0.00296537,0.00440276,0.0418193,-0.0298714,-0.026075,0,0,0,0.0458148,0.0656324,0.15022,0.208838,-0.026075,0,0,0,0,0,0,0,0,0,0,-0.0736207,-0.612845,0,-1.5,2.05094e-38,0,0,0,0.0458148,0.0656324,0,0,0,0,0.15022,0.208838,1.9603e-19,0,0,0,0,0,0,0,0,0,2.51,-0.131265
6704,-0.34668,0.0644531,1.7334,-0.0040486,-0.0014474,0.00375024,0.0417741,-0.0298841,-0.026021,0,0,0,0.0482556,0.0690224,0.15387,0.213593,-0.026021,0,0,0,0,0,0,0,0,0,0,-0.0765272,-0.612916,0,-1.5,2.05094e-38,0,0,0,0.0482556,0.0690224,0,0,0,0,0.15387,0.213593,1.9603e-19,0,0,0,0,0,0,0,0,0,2.51,-0.138045
6721,-0.34668,0.0644531,-3.07031,-0.00202946,-0.00249108,0.00465843,0.0416999,-0.0299301,-0.0259048,0,0,0,0.0509138,0.0727086,0.157719,0.218598,-0.0259625,4,0,369098752,-534446081,369098752,-534446081,33554432,33554432,-1075088617,0,-0.0796463,-0.612992,0,-1.5,2.05094e-38,0,0,0,0.0509138,0.0727086,0,0,0,0,0.157719,0.218598,0,0,0,0,0,6719,0,0,0,0,2.51,-0.145417
6734,-0.34668,0.0644531,5.13281,-0.0020696,-0.00280787,0.0044252,0.041666,-0.0299607,-0.0258453,0,0,0,0.0529873,0.0755804,0.160643,0.222388,-0.0259048,4,0,369098752,-534446081,369098752,-534446081,33554432,33554432,-1075088617,0,-0.0820541,-0.613049,0,-1.5,2.05094e-38,0,0,0,0.0529873,0.0755804,0,0,0,0,0.160643,0.222388,0,0,0,0,0,6719,0,0,0,0,2.51,-0.151161
6750,-0.34668,0.0644531,-0.288086,-0.00233416,-0.0027046,0.00426673,0.0416319,-0.0299907,-0.0257812,0,0,0,0.0554294,0.0789583,0.163996,0.226729,-0.0258453,4,0,369098752,-534446081,369098752,-534446081,33554432,33554432,-1075088617,0,-0.0848535,-0.613116,0,-1.5,2.05094e-38,0,0,0,0.0554294,0.0789583,0,0,0,0,0.163996,0.226729,0,0,0,0,0,6719,0,0,0,0,2.51,-0.157917
6766,-0.34668,0.0644531,-4.12305,-0.00257856,-0.00305379,0.00478564,0.0416054,-0.0300268,-0.0257206,0,0,0,0.0582603,0.0828681,0.167775,0.231603,-0.0257206,4,0,369098752,-534446081,369098752,-534446081,33554432,33554432,-1075088617,0,-0.0880805,-0.613187,0,-1.5,2.05094e-38,0,0,0,0.0582603,0.0828681,0,0,0,0,0.167775,0.231603,0,0,0,0,0,6719,0,0,0,0,2.51,-0.165736
6782,-0.336914,0.0644531,-2.625,-0.0020913,-0.00253418,0.0039338,0.0415802,-0.0300524,-0.0256514,0,0,0,0.0608089,0.0863834,0.171086,0.235863,-0.0256514,4,0,369098752,-534446081,369098752,-534446081,33554432,33554432,-1075088617,0,-0.0909327,-0.613253,0,-1.5,2.05094e-38,0,0,0,0.0608089,0.0863834,0,0,0,0,0.171086,0.235863,0,0,0,0,0,6719,0,0,0,0,2.51,-0.172767
6797,-0.336914,0.0644531,-2.625,-0.0020913,-0.00253418,0.0039338,0.0415802,-0.0300524,-0.0256514,0,0,0,0.0635832,0.0902046,0.174594,0.240371,-0.0256514,4,0,369098752,-534446081,369098752,-534446081,33554432,33554432,-1075088617,0,-0.0939692,-0.613331,0,-1.5,2.05094e-38,0,0,0,0.0635832,0.0902046,0,0,0,0,0.174594,0.240371,0,0,0,0,0,6719,0,0,0,0,2.51,-0.180409
6814,-0.270508,0.0644531,5.01172,-0.00271487,-0.00274249,0.00413448,0.0415163,-0.0301155,-0.0255426,0,0,0,0.0664133,0.0940976,0.178077,0.244839,-0.0255426,4,0,369098752,-534446081,369098752,-534446081,33554432,33554432,-1075088617,0,-0.0970794,-0.613399,0,-1.5,2.05094e-38,0,0,0,0.0664133,0.0940976,0,0,0,0,0.178077,0.244839,0,0,0,0,0,6719,0,0,0,0,2.51,-0.188195
6830,-0.204102,0.0644531,5.44824,-0.00292061,-0.00228188,0.00464677,0.0414504,-0.0301505,-0.0254314,0,0,0,0.069299,0.0980616,0.181538,0.249265,-0.0255426,4,0,369098752,-534446081,369098752,-534446081,33554432,33554432,-1075088617,0,-0.100167,-0.613478,0,-1.5,2.05094e-38,0,0,0,0.069299,0.0980616,0,0,0,0,0.181538,0.249265,0,0,0,0,0,6719,0,0,0,0,2.51,-0.196123
6845,-0.19043,0.0644531,-3.84668,-0.0023687,-0.00222066,0.00317317,0.0414214,-0.0301806,-0.0253811,0,0,0,0.0722397,0.102096,0.184974,0.253651,-0.0254314,4,0,369098752,-534446081,369098752,-534446081,33554432,33554432,-1075088617,0,-0.103328,-0.613546,0,-1.5,2.05094e-38,0,0,0,0.0722397,0.102096,0,0,0,0,0.184974,0.253651,0,0,0,0,0,6719,0,0,0,0,2.51,-0.204192
6859,-0.19043,0.0644531,-3.84668,-0.0023687,-0.00222066,0.00317317,0.0414214,-0.0301806,-0.0253811,0,0,0,0.0746668,0.105422,0.187749,0.257179,-0.0253811,4,0,369098752,-534446081,369098752,-534446081,33554432,33554432,-1075088617,0,-0.105895,-0.613605,0,-1.5,2.05094e-38,0,0,0,0.0746668,0.105422,0,0,0,0,0.187749,0.257179,0,0,0,0,0,6719,0,0,0,0,2.51,-0.210844
6875,-0.25,0.0644531,6.80469,-0.00126055,-0.00191209,0.00413526,0.0412598,-0.0300293,-0.0251465,0,0,0,0.0778982,0.109844,0.191348,0.261757,-0.0251465,4,0,369098752,-534446081,369098752,-534446081,33554432,33554432,-1075088617,0,-0.109352,-0.613665,0,-1.5,2.05094e-38,0,0,0,0.0778982,0.109844,0,0,0,0,0.191348,0.261757,0,0,0,0,0,6719,0,0,0,0,2.51,-0.219689
6891,-0.25,0.0644531,6.80469,-0.00126055,-0.00191209,0.00413526,0.0412598,-0.0300293,-0.0251465,0,0,0,0.0809938,0.114076,0.194686,0.26601,-0.0251465,4,0,369098752,-534446081,369098752,-534446081,33554432,33554432,-1075088617,0,-0.11253,-0.613745,0,-1.5,2.05094e-38,0,0,0,0.0809938,0.114076,0,0,0,0,0.194686,0.26601,0,0,0,0,0,6719,0,0,0,0,2.51,-0.228152
6908,-0.316406,0.0644531,-1.43945,-0.00231945,-0.00235325,0.0054177,0.0413162,-0.0302761,-0.025126,0,0,0,0.0843423,0.118648,0.19822,0.270495,-0.025126,4,0,369098752,-534446081,369098752,-534446081,33554432,33554432,-1075088617,0,-0.115945,-0.613828,0,-1.5,2.05094e-38,0,0,0,0.0843423,0.118648,0,0,0,0,0.19822,0.270495,0,0,0,0,0,6719,0,0,0,0,2.51,-0.237295
6924,-0.349609,0.0644531,-6.64062,-0.00167273,-0.00202047,0.00546277,0.0412961,-0.0302972,-0.0250435,0,0,0,0.0875477,0.123018,0.201543,0.274685,-0.0250435,4,0,369098752,-534446081,369098752,-534446081,33554432,33554432,-1075088617,0,-0.119213,-0.613899,0,-1.5,2.05094e-38,0,0,0,0.0875477,0.123018,0,0,0,0,0.201543,0.274685,0,0,0,0,0,6719,0,0,0,0,2.51,-0.246036
6941,-0.375977,0.0644531,3.51074,-0.000988594,-0.00347437,0.00456589,0.0412642,-0.030348,-0.0249247,0,0,0,0.0908071,0.127457,0.204842,0.278839,-0.0249842,4,0,369098752,-534446081,369098752,-534446081,33554432,33554432,-1075088617,0,-0.122496,-0.613974,0,-1.5,2.05094e-38,0,0,0,0.0908071,0.127457,0,0,0,0,0.204842,0.278839,0,0,0,0,0,6719,0,0,0,0,2.51,-0.254914
6956,-0.342773,0.0644531,4.48828,-0.00146239,-0.00204832,0.00465539,0.0412314,-0.0303652,-0.0248669,0,0,0,0.094118,0.13196,0.208119,0.282957,-0.0249247,4,0,369098752,-534446081,369098752,-534446081,33554432,33554432,-1075088617,0,-0.125803,-0.614048,0,-1.5,2.05094e-38,0,0,0,0.094118,0.13196,0,0,0,0,0.208119,0.282957,0,0,0,0,0,6719,0,0,0,0,2.51,-0.263921
6971,-0.30957,0.0644531,-6.78418,-0.00224958,-0.00296161,0.00377973,0.0412015,-0.0304001,-0.0248097,0,0,0,0.0972685,0.136241,0.211171,0.286781,-0.0248669,4,0,369098752,-534446081,369098752,-534446081,33554432,33554432,-1075088617,0,-0.128923,-0.614118,0,-1.5,2.05094e-38,0,0,0,0.0972685,0.136241,0,0,0,0,0.211171,0.286781,0,0,0,0,0,6719,0,0,0,0,2.51,-0.272481
6987,-0.276367,0.0644531,1.03125,-0.00212379,-0.00393167,0.00414302,0.0411753,-0.0304403,-0.0247555,0,0,0,0.100681,0.140872,0.214407,0.290826,-0.0247555,4,0,369098752,-534446081,369098752,-534446081,33554432,33554432,-1075088617,0,-0.132298,-0.614186,0,-1.5,2.05094e-38,0,0,0,0.100681,0.140872,0,0,0,0,0.214407,0.290826,0,0,0,0,0,6719,0,0,0,0,2.51,-0.281743
7003,-0.243164,0.0644531,5.875,-0.00243342,-0.00322243,0.00521857,0.0411433,-0.0304711,-0.0246855,0,0,0,0.104145,0.145566,0.217623,0.294832,-0.0246855,4,0,369098752,-534446081,369098752,-534446081,33554432,33554432,-1075088617,0,-0.135676,-0.614259,0,-1.5,2.05094e-38,0,0,0,0.104145,0.145566,0,0,0,0,0.217623,0.294832,0,0,0,0,0,6719,0,0,0,0,2.51,-0.291132
7019,-0.209961,0.0644531,-4.2334,-0.00068014,-0.00210259,0.00455398,0.0411248,-0.0304906,-0.0246222,-5.00283,0.19868,-0.296655,0.10766,0.150325,0.220819,0.298803,-0.0246222,-1.00283,0.19868,248,76,248,76,342,69,255,163,-0.139075,-0.614334,0,-1.5,2.05094e-38,0,0,0,0.10766,0.150325,0,0,0,0,0.220819,0.298803,9494,0,0,0,0,7019,0,0,0,0,2.51,-0.30065
7036,-0.209961,0.0644531,-4.2334,-0.00068014,-0.00210259,0.00455398,0.0411248,-0.0304906,-0.0246222,-5.00283,0.19868,-0.296655,0.111227,0.155147,0.22399,0.30274,-0.0246222,-1.00283,0.19868,248,76,248,76,342,69,255,163,-0.14247,-0.614417,0,-1.5,2.05094e-38,0,0,0,0.111227,0.155147,0,0,0,0,0.22399,0.30274,9494,0,0,0,0,7019,0,0,0,0,2.51,-0.310294
7052,-0.209961,0.0644531,-4.2334,-0.00068014,-0.00210259,0.00455398,0.0411248,-0.0304906,-0.0246222,-5.00283,0.19868,-0.296655,0.115072,0.160341,0.227332,0.30689,-0.0246222,-1.00283,0.19868,248,76,248,76,342,69,255,163,-0.146103,-0.614507,0,-1.5,2.05094e-38,0,0,0,0.115072,0.160341,0,0,0,0,0.227332,0.30689,9494,0,0,0,0,7019,0,0,0,0,2.51,-0.320682
7068,-0.209961,0.0644531,-4.2334,-0.00068014,-0.00210259,0.00455398,0.0411248,-0.0304906,-0.0246222,-5.00283,0.19868,-0.296655,0.118742,0.165291,0.230451,0.310762,-0.0246222,-1.00283,0.19868,248,76,248,76,342,69,255,163,-0.149545,-0.614592,0,-1.5,2.05094e-38,0,0,0,0.118742,0.165291,0,0,0,0,0.230451,0.310762,9494,0,0,0,0,7019,0,0,0,0,2.51,-0.330581
7084,-0.371094,0.0644531,2.25293,-0.0023111,-0.00401426,0.00394313,0.0409786,-0.0306401,-0.0243299,-5.00283,0.19868,-0.296655,0.122461,0.170303,0.233551,0.314599,-0.0243299,-1.00283,0.19868,248,76,248,76,342,69,255,163,-0.153138,-0.614632,0,-1.5,2.05094e-38,0,0,0,0.122461,0.170303,0,0,0,0,0.233551,0.314599,9494,0,0,0,0,7019,0,0,0,0,2.51,-0.340607
7100,-0.404297,0.0644531,-4.70312,-0.00208561,-0.00329969,0.00419636,0.0409524,-0.0306728,-0.0242815,-5.00283,0.19868,-0.296655,0.126231,0.175377,0.236644,0.318387,-0.0242815,-1.00283,0.19868,248,76,248,76,342,69,255,163,-0.156642,-0.614709,0,-1.5,2.05094e-38,0,0,0,0.126231,0.175377,0,0,0,0,0.236644,0.318387,9494,0,0,0,0,7019,0,0,0,0,2.51,-0.350753
7116,-0.384766,0.0644531,-5.73633,-0.00118657,-0.00235423,0.00455673,0.0409291,-0.0306975,-0.0242159,-5.00283,0.19868,-0.296655,0.130048,0.180509,0.239715,0.32214,-0.0242159,-1.00283,0.19868,248,76,248,76,342,69,255,163,-0.160174,-0.614784,0,-1.5,2.05094e-38,0,0,0,0.130048,0.180509,0,0,0,0,0.239715,0.32214,9494,0,0,0,0,7019,0,0,0,0,2.51,-0.361018
7133,-0.318359,0.0644531,-2.82129,-0.00261698,-0.00279645,0.00383599,0.0408763,-0.0307409,-0.024089,-5.00319,0.198974,-0.297688,0.134159,0.186029,0.242955,0.326094,-0.0242159,-1.00319,0.198974,248,76,248,76,342,69,255,163,-0.163922,-0.614875,0,-1.5,2.05094e-38,0,0,0,0.134159,0.186029,0,0,0,0,0.242955,0.326094,9494,0,0,0,0,7124,0,0,0,0,2.51,-0.372058
7148,-0.285156,0.0644531,3.12695,-0.00162517,-0.00180691,0.00423338,0.0408532,-0.030762,-0.0240355,-5.00319,0.198974,-0.297688,0.137831,0.190954,0.245793,0.32955,-0.024089,-1.00319,0.198974,248,76,248,76,342,69,255,163,-0.167303,-0.614934,0,-1.5,2.05094e-38,0,0,0,0.137831,0.190954,0,0,0,0,0.245793,0.32955,9494,0,0,0,0,7124,0,0,0,0,2.51,-0.381908
7164,-0.251953,0.0644531,6.18066,-0.00191434,-0.00168708,0.00407984,0.0408316,-0.0307761,-0.0239774,-5.00319,0.198974,-0.297688,0.141794,0.196264,0.248801,0.333202,-0.0240355,-1.00319,0.198974,248,76,248,76,342,69,255,163,-0.170894,-0.615011,0,-1.5,2.05094e-38,0,0,0,0.141794,0.196264,0,0,0,0,0.248801,0.333202,9494,0,0,0,0,7124,0,0,0,0,2.51,-0.392528
7270,-0.385742,0.0644531,2.70312,-0.00189737,-0.00324616,0.00495082,0.0406636,-0.0309628,-0.0235766,-5.00338,0.199159,-0.298223,0.170119,0.233948,0.268582,0.357144,-0.0235766,-1.00338,0.199159,248,76,248,76,342,69,255,163,-0.195917,-0.615518,0,-1.5,2.05094e-38,0,0,0,0.170119,0.233948,0,0,0,0,0.268582,0.357144,9494,0,0,0,0,7262,0,0,0,0,2.51,-0.467897
7308,-0.304688,0.0644531,0.780273,-0.00192755,-0.00391452,0.00352092,0.040575,-0.0310423,-0.0234288,-5.00338,0.199159,-0.298223,0.180537,0.247771,0.275364,0.365216,-0.0234288,-1.00338,0.199159,248,76,248,76,342,69,255,163,-0.204909,-0.615698,0,-1.5,2.05094e-38,0,0,0,0.180537,0.247771,0,0,0,0,0.275364,0.365216,9494,0,0,0,0,7262,0,0,0,0,2.51,-0.495543
7322,-0.271484,0.0644531,5.0293,-0.00156409,-0.00229969,0.0042655,0.0405569,-0.0310569,-0.0233659,-5.00338,0.199159,-0.298223,0.184135,0.252541,0.277651,0.367918,-0.0233659,-1.00338,0.199159,248,76,248,76,342,69,255,163,-0.207996,-0.615756,0,-1.5,2.05094e-38,0,0,0,0.184135,0.252541,0,0,0,0,0.277651,0.367918,9494,0,0,0,0,7262,0,0,0,0,2.51,-0.505082
7344,-0.205078,0.0644531,-4.94531,-0.00225373,-0.00189803,0.00502505,0.0404987,-0.0311169,-0.0232287,-5.00338,0.199159,-0.298223,0.190586,0.26108,0.281671,0.372659,-0.0233001,-1.00338,0.199159,248,76,248,76,342,69,255,163,-0.213478,-0.61587,0,-1.5,2.05094e-38,0,0,0,0.190586,0.26108,0,0,0,0,0.281671,0.372659,9494,0,0,0,0,7262,0,0,0,0,2.51,-0.52216
7365,-0.205078,0.0644531,-4.94531,-0.00225373,-0.00189803,0.00502505,0.0404987,-0.0311169,-0.0232287,-5.00338,0.199159,-0.298223,0.196556,0.26897,0.285309,0.376929,-0.0232287,-1.00338,0.199159,248,76,248,76,342,69,255,163,-0.218521,-0.615971,0,-1.5,2.05094e-38,0,0,0,0.196556,0.26897,0,0,0,0,0.285309,0.376929,9494,0,0,0,0,7262,0,0,0,0,2.51,-0.53794
7381,-0.272461,0.0644531,-2.76367,-0.000897701,-0.00273784,0.00299948,0.0404555,-0.0311702,-0.0231196,-5.00338,0.199159,-0.298223,0.201149,0.275035,0.288056,0.380148,-0.0231196,-1.00338,0.199159,248,76,248,76,342,69,255,163,-0.222405,-0.616036,0,-1.5,2.05094e-38,0,0,0,0.201149,0.275035,0,0,0,0,0.288056,0.380148,9494,0,0,0,0,7262,0,0,0,0,2.51,-0.550069
7402,-0.369141,0.0644531,-2.06934,-0.00280422,-0.00303755,0.00507167,0.0403833,-0.0312168,-0.023004,-5.00338,0.199159,-0.298223,0.207252,0.28308,0.291639,0.384329,-0.023004,-1.00338,0.199159,248,76,248,76,342,69,255,163,-0.227523,-0.616127,0,-1.5,2.05094e-38,0,0,0,0.207252,0.28308,0,0,0,0,0.291639,0.384329,9494,0,0,0,0,7262,0,0,0,0,2.51,-0.56616
7424,-0.369141,0.0644531,-5.31738,-0.00184631,-0.00233476,0.00516111,0.0403385,-0.0312643,-0.0228851,-5.00338,0.199159,-0.298223,0.21343,0.291213,0.295192,0.388453,-0.0229504,-1.00338,0.199159,248,76,248,76,342,69,255,163,-0.232642,-0.616232,0,-1.5,2.05094e-38,0,0,0,0.21343,0.291213,0,0,0,0,0.295192,0.388453,9494,0,0,0,0,7262,0,0,0,0,2.51,-0.582425
7439,-0.335938,0.0644531,6.33789,-0.00138075,-0.00255729,0.00483338,0.0403151,-0.0312897,-0.0228225,-5.00338,0.199159,-0.298223,0.218181,0.29746,0.297875,0.391559,-0.0228851,-1.00338,0.199159,248,76,248,76,342,69,255,163,-0.236571,-0.616306,0,-1.5,2.05094e-38,0,0,0,0.218181,0.29746,0,0,0,0,0.297875,0.391559,9494,0,0,0,0,7262,0,0,0,0,2.51,-0.594921
7468,-0.269531,0.0644531,4.05469,-0.00257145,-0.00300942,0.0044965,0.0402566,-0.0313284,-0.0227133,-4.99588,0.197106,-0.311974,0.226622,0.30854,0.302541,0.39694,-0.0228225,-0.995879,0.197106,248,78,248,78,342,69,255,163,-0.0962268,-0.613087,0,-1.5,2.05094e-38,0,0,0,-0.994445,0.197885,0,0,0,0,0.0523282,0.0290774,9588,-1.21406,-0.100355,-0.250213,-0.367863,7453,0,0,0,0,2.51,-0.39577
7488,-0.236328,0.0644531,6.69043,-0.00159741,-0.00186751,0.00436067,0.040227,-0.0313527,-0.0226437,-4.99588,0.197106,-0.311974,0.233027,0.316935,0.306,0.400908,-0.0226437,-0.995879,0.197106,248,78,248,78,342,69,255,163,-0.0976317,-0.613099,0,-1.5,2.05094e-38,0,0,0,-0.993294,0.198555,0,0,0,0,0.0557874,0.0330449,9588,-1.21406,-0.100355,-0.250213,-0.367863,7453,0,0,0,0,2.51,-0.39711
7510,-0.232422,0.0644531,-5.31738,-0.00239247,-0.00342385,0.00527608,0.0401745,-0.031408,-0.0225013,-4.99588,0.197106,-0.311974,0.239814,0.325818,0.30959,0.405013,-0.0225706,-0.995879,0.197106,248,78,248,78,342,69,255,163,-0.0990849,-0.613124,0,-1.5,2.05094e-38,0,0,0,-0.992012,0.199345,0,0,0,0,0.0593772,0.0371507,9588,-1.21406,-0.100355,-0.250213,-0.367863,7453,0,0,0,0,2.51,-0.39869
7526,-0.232422,0.0644531,0.236328,-0.00167547,-0.00220862,0.00495983,0.0401444,-0.031423,-0.0224319,-4.99588,0.197106,-0.311974,0.244794,0.332328,0.31218,0.40796,-0.0224319,-0.995879,0.197106,248,78,248,78,342,69,255,163,-0.100194,-0.613134,0,-1.5,2.05094e-38,0,0,0,-0.991035,0.199969,0,0,0,0,0.0619672,0.0400977,9588,-1.21406,-0.100355,-0.250213,-0.367863,7453,0,0,0,0,2.51,-0.399939
7547,-0.232422,0.0644531,-5.48438,-0.00259394,-0.00375665,0.00593061,0.0401146,-0.0314617,-0.0223648,-4.99588,0.197106,-0.311974,0.2514,0.340952,0.315555,0.411791,-0.0223648,-0.995879,0.197106,248,78,248,78,342,69,255,163,-0.101631,-0.613159,0,-1.5,2.05094e-38,0,0,0,-0.989683,0.200869,0,0,0,0,0.0653428,0.0439281,9588,-1.21406,-0.100355,-0.250213,-0.367863,7453,0,0,0,0,2.51,-0.401737
7572,-0.232422,0.0644531,-7.25098,-0.00175925,-0.00366599,0.00602588,0.0400489,-0.0315272,-0.0222308,-5.01142,0.195112,-0.308964,0.259361,0.351329,0.31954,0.416292,-0.0222308,-1.01142,0.195112,248,78,248,78,343,69,256,164,-0.103404,-0.613183,0,-1.5,2.05094e-38,0,0,0,-0.987978,0.202048,0,0,0,0,0.0693279,0.0484293,9595,-1.24108,-0.140084,-0.250213,-0.367863,7560,0,0,0,0,2.51,-0.404097
7596,-0.250977,0.0644531,2.08008,-0.00153746,-0.00268644,0.00460395,0.0400063,-0.0315637,-0.0221076,-5.02515,0.198821,-0.305775,0.267097,0.361395,0.323331,0.420548,-0.0221076,-1.02515,0.198821,248,78,248,78,342,69,256,164,-0.101674,-0.613131,0,-1.5,2.05094e-38,0,0,0,-1.01046,0.199889,0,0,0,0,0.0226798,0.0456078,9595,-1.27034,-0.152508,-0.300651,-0.374941,7585,0,0,0,0,2.51,-0.399777
7612,-0.28418,0.0644531,-3.23926,-0.0033694,-0.00275848,0.00462863,0.0399638,-0.0315962,-0.0220488,-5.02515,0.198821,-0.305775,0.272296,0.368153,0.325834,0.423346,-0.0220488,-1.02515,0.198821,248,78,248,78,342,69,256,164,-0.102778,-0.613149,0,-1.5,2.05094e-38,0,0,0,-1.01007,0.200648,0,0,0,0,0.0251832,0.0484051,9595,-1.27034,-0.152508,-0.300651,-0.374941,7585,0,0,0,0,2.51,-0.401296
7637,-0.350586,0.0644531,7.03223,-0.00222505,-0.00329244,0.00469723,0.0399052,-0.0316472,-0.0219275,-5.01167,0.195323,-0.309688,0.280512,0.378815,0.329718,0.42767,-0.0219275,-1.01167,0.195323,248,78,248,78,343,69,256,164,-0.101351,-0.613104,0,-1.5,2.05094e-38,0,0,0,-1.01105,0.198665,0,0,0,0,0.0258412,0.0464501,9595,-1.28396,-0.17062,-0.303877,-0.38122,7625,0,0,0,0,2.51,-0.39733
7662,-0.383789,0.0644531,-6.61426,-0.00351855,-0.0025778,0.00384192,0.0398761,-0.0316693,-0.0218797,-5.01181,0.195477,-0.310123,0.28882,0.389578,0.333561,0.431924,-0.0218797,-1.01181,0.195477,248,78,248,78,343,69,256,164,-0.103166,-0.613138,0,-1.5,2.05094e-38,0,0,0,-1.01037,0.200118,0,0,0,0,0.0291468,0.0507181,9595,-1.29554,-0.184886,-0.304414,-0.381206,7652,0,0,0,0,2.51,-0.400236
7684,-0.259766,0.0644531,-5.63672,-0.00231564,-0.00369704,0.00473226,0.0398097,-0.0317354,-0.0217631,-5.01181,0.195477,-0.310123,0.295872,0.398701,0.336759,0.435449,-0.0217631,-1.01181,0.195477,248,78,248,78,343,69,256,164,-0.104656,-0.613158,0,-1.5,2.05094e-38,0,0,0,-1.00971,0.201236,0,0,0,0,0.032345,0.0542431,9595,-1.29554,-0.184886,-0.304414,-0.381206,7652,0,0,0,0,2.51,-0.402472
7702,-0.235352,0.0644531,6.79199,-0.00194344,-0.00160781,0.00465434,0.0397696,-0.0317706,-0.0216421,-4.97794,0.196729,-0.313238,0.302307,0.407015,0.33963,0.438596,-0.0217631,-0.977941,0.196729,248,76,248,76,343,69,255,164,-0.103296,-0.613128,0,-1.5,2.05094e-38,0,0,0,-1.00822,0.199476,0,0,0,0,0.0369214,0.0523222,9595,-1.30477,-0.2002,-0.302709,-0.386274,7690,0,0,0,0,2.51,-0.398951
7722,-0.235352,0.0644531,2.18066,-0.00185203,-0.00262267,0.0055783,0.0397453,-0.0317884,-0.0215753,-4.97794,0.196729,-0.313238,0.309142,0.415833,0.342631,0.441869,-0.0215753,-0.977941,0.196729,248,76,248,76,343,69,255,164,-0.104743,-0.613138,0,-1.5,2.05094e-38,0,0,0,-1.00744,0.200568,0,0,0,0,0.0399219,0.0555955,9595,-1.30477,-0.2002,-0.302709,-0.386274,7690,0,0,0,0,2.51,-0.401136
7744,-0.235352,0.0644531,5.7373,-0.00162388,-0.00194007,0.00404749,0.0397078,-0.031841,-0.0214458,-4.97794,0.196729,-0.313238,0.31673,0.425609,0.345901,0.445429,-0.0215108,-0.977941,0.196729,248,76,248,76,343,69,255,164,-0.1063,-0.613164,0,-1.5,2.05094e-38,0,0,0,-1.00651,0.201846,0,0,0,0,0.0431924,0.0591549,9595,-1.30477,-0.2002,-0.302709,-0.386274,7690,0,0,0,0,2.51,-0.403692
7769,-0.235352,0.0644531,2.74902,-0.00143375,-0.00248399,0.00488277,0.0396597,-0.031886,-0.0213039,-5.03937,0.199637,-0.300382,0.325446,0.436819,0.349587,0.449422,-0.0214458,-1.03937,0.199637,248,78,248,78,342,69,256,163,-0.107833,-0.61319,0,-1.5,2.05094e-38,0,0,0,-1.00631,0.203149,0,0,0,0,0.0451756,0.0625682,9494,-1.32415,-0.223999,-0.304412,-0.386854,7757,0,0,0,0,2.51,-0.406297
7789,-0.235352,0.0644531,-1.88086,-0.00164987,-0.00304145,0.00465938,0.039632,-0.0319175,-0.0212283,-5.03947,0.199695,-0.300651,0.332475,0.445848,0.352502,0.452571,-0.0213039,-1.03947,0.199695,248,78,248,78,342,69,256,163,-0.106194,-0.613138,0,-1.5,2.05094e-38,0,0,0,-1.00766,0.202075,0,0,0,0,0.0404029,0.0579107,9494,-1.33827,-0.241404,-0.312099,-0.39466,7785,0,0,0,0,2.51,-0.404151
7810,-0.280273,0.0644531,-4.06738,-0.00180003,-0.00294738,0.00507278,0.0396056,-0.0319676,-0.0211011,-5.03947,0.199695,-0.300651,0.339923,0.4554,0.355544,0.455836,-0.0211641,-1.03947,0.199695,248,78,248,78,342,69,256,163,-0.107704,-0.613154,0,-1.5,2.05094e-38,0,0,0,-1.00677,0.20334,0,0,0,0,0.0434449,0.0611761,9494,-1.33827,-0.241404,-0.312099,-0.39466,7785,0,0,0,0,2.51,-0.40668
7836,-0.280273,0.0644531,-4.06738,-0.00180003,-0.00294738,0.00507278,0.0396056,-0.0319676,-0.0211011,-4.9877,0.198008,-0.320923,0.349238,0.467328,0.359275,0.459832,-0.0211011,-0.987704,0.198008,248,78,248,78,343,69,255,164,-0.110581,-0.613207,0,-1.5,2.05094e-38,0,0,0,-1.00292,0.205462,0,0,0,0,0.0548638,0.0683343,9595,-1.34424,-0.251687,-0.304411,-0.391498,7824,0,0,0,0,2.51,-0.410924
7861,-0.34668,0.0986328,-5.97656,-0.00183593,-0.00221068,0.00441725,0.0395441,-0.0320081,-0.0209764,-4.97084,0.19437,-0.32574,0.35828,0.478888,0.36282,0.463617,-0.0209764,-0.97084,0.19437,248,78,248,78,343,69,255,164,-0.111612,-0.613214,0,-1.5,2.05094e-38,0,0,0,-0.999739,0.2066,0,0,0,0,0.0614967,0.0699637,9690,-1.3544,-0.267564,-0.301323,-0.393653,7851,0,0,0,0,2.51,-0.413199
7877,-0.379883,0.165039,3.19336,-0.00421609,-0.00275038,0.00442511,0.0394676,-0.0320602,-0.0208513,-4.97084,0.19437,-0.32574,0.364109,0.486331,0.36507,0.466,-0.0208513,-0.97084,0.19437,248,78,248,78,343,69,255,164,-0.112835,-0.613224,0,-1.5,2.05094e-38,0,0,0,-0.998732,0.207744,0,0,0,0,0.063747,0.0723474,9690,-1.3544,-0.267564,-0.301323,-0.393653,7851,0,0,0,0,2.51,-0.415489
7902,-0.282227,0.139648,-2.88086,-0.0015453,-0.00221941,0.00515392,0.0394228,-0.0321082,-0.0207205,-4.97091,0.194463,-0.325952,0.3733,0.498049,0.368566,0.46968,-0.0207205,-0.970905,0.194463,248,78,248,78,343,69,255,164,-0.114748,-0.613248,0,-1.5,2.05094e-38,0,0,0,-0.979577,0.209783,0,0,0,0,0.0938959,0.075693,9690,-1.34601,-0.278417,-0.274671,-0.393987,7890,0,0,0,0,2.51,-0.419566
7930,-0.217773,0.0732422,1.40527,-0.00181029,-0.00260641,0.00427841,0.0393877,-0.0321592,-0.0205982,-4.9841,0.194963,-0.31996,0.383704,0.511288,0.372444,0.473739,-0.0205982,-0.9841,0.194963,248,78,248,78,343,69,255,163,-0.116038,-0.613259,0,-1.5,2.05094e-38,0,0,0,-0.980922,0.21126,0,0,0,0,0.0900682,0.0776856,9588,-1.35672,-0.288939,-0.282376,-0.396053,7918,0,0,0,0,2.51,-0.422519
7951,-0.28418,0.0478516,2.74609,-0.00217338,-0.00255174,0.00384986,0.0393297,-0.0322069,-0.0204641,-4.9841,0.194963,-0.31996,0.391566,0.52128,0.375321,0.476733,-0.0205267,-0.9841,0.194963,248,78,248,78,343,69,255,163,-0.117655,-0.613284,0,-1.5,2.05094e-38,0,0,0,-0.978988,0.212934,0,0,0,0,0.0929448,0.0806801,9588,-1.35672,-0.288939,-0.282376,-0.396053,7918,0,0,0,0,2.51,-0.425869
7971,-0.317383,0.0478516,-1.49023,-0.0033743,-0.00249889,0.00428452,0.0392843,-0.0322287,-0.0204078,-5.00133,0.198711,-0.315597,0.39911,0.530852,0.37804,0.479544,-0.0204078,-1.00133,0.198711,248,78,248,78,343,69,255,163,-0.116001,-0.613235,0,-1.5,2.05094e-38,0,0,0,-0.989045,0.210557,0,0,0,0,0.0808461,0.0786111,9494,-1.38221,-0.312277,-0.297194,-0.400933,7958,0,0,0,0,2.51,-0.421114
7996,-0.321289,0.0478516,-1.7373,-0.00147938,-0.00310899,0.00463064,0.0392621,-0.0322529,-0.0203394,-4.98177,0.19761,-0.315351,0.408618,0.542899,0.381406,0.48301,-0.0203394,-0.981774,0.19761,248,76,248,76,343,69,255,163,-0.115914,-0.613225,0,-1.5,2.05094e-38,0,0,0,-0.980494,0.21036,0,0,0,0,0.0928608,0.0785365,9494,-1.38565,-0.327686,-0.288546,-0.404474,7986,0,0,0,0,2.51,-0.42072
8013,-0.321289,0.0478516,-6.31738,-0.00201164,-0.00412355,0.00390258,0.0391763,-0.0323154,-0.0202282,-4.98177,0.19761,-0.315351,0.414742,0.550651,0.383543,0.485197,-0.0202282,-0.981774,0.19761,248,76,248,76,343,69,255,163,-0.117149,-0.613236,0,-1.5,2.05094e-38,0,0,0,-0.978986,0.21164,0,0,0,0,0.0949971,0.0807233,9494,-1.38565,-0.327686,-0.288546,-0.404474,7986,0,0,0,0,2.51,-0.423279
8033,-0.321289,0.0478516,-0.170898,-0.00198769,-0.00234389,0.00392602,0.0391186,-0.0323441,-0.0201268,-4.99253,0.198011,-0.309553,0.422839,0.560882,0.386331,0.488033,-0.0202282,-0.992528,0.198011,248,76,248,76,343,69,255,163,-0.109414,-0.613079,0,-1.5,2.05094e-38,0,0,0,-0.984802,0.204431,0,0,0,0,0.0876538,0.0641925,9494,-1.40137,-0.347551,-0.298677,-0.42384,8021,0,0,0,0,2.51,-0.408862
8050,-0.321289,0.0478516,-6.37598,-0.00161016,-0.00255756,0.00271186,0.0391069,-0.0323601,-0.0200832,-4.99253,0.198011,-0.309553,0.429431,0.569204,0.388568,0.490295,-0.0200832,-0.992528,0.198011,248,76,248,76,343,69,255,163,-0.110601,-0.613086,0,-1.5,2.05094e-38,0,0,0,-0.983288,0.205547,0,0,0,0,0.0898915,0.0664547,9494,-1.40137,-0.347551,-0.298677,-0.42384,8021,0,0,0,0,2.51,-0.411094
8070,-0.321289,0.0478516,6.74902,-0.00116127,-0.00210386,0.00367523,0.0390965,-0.032373,-0.0200296,-5.00686,0.195767,-0.306433,0.437238,0.579045,0.391181,0.492931,-0.0200296,-1.00686,0.195767,248,76,248,76,343,69,256,163,-0.112187,-0.613111,0,-1.5,2.05094e-38,0,0,0,-0.985458,0.206887,0,0,0,0,0.0876245,0.0700261,9494,-1.41662,-0.3637,-0.303556,-0.422905,8057,0,0,0,0,2.51,-0.413775
8091,-0.321289,0.0478516,6.85156,-0.000408705,-0.00262935,0.00393113,0.0390822,-0.0323963,-0.0199843,-5.0017,0.199154,-0.316715,0.445489,0.589434,0.393899,0.495667,-0.0199843,-1.0017,0.199154,248,78,248,78,343,69,255,163,-0.111264,-0.613087,0,-1.5,2.05094e-38,0,0,0,-0.98555,0.206464,0,0,0,0,0.0869517,0.0671023,9494,-1.42828,-0.379113,-0.306947,-0.428565,8084,0,0,0,0,2.51,-0.412928
8107,-0.321289,0.0478516,6.85156,-0.000408705,-0.00262935,0.00393113,0.0390822,-0.0323963,-0.0199843,-5.0017,0.199154,-0.316715,0.451812,0.597386,0.395952,0.497731,-0.0199843,-1.0017,0.199154,248,78,248,78,343,69,255,163,-0.112327,-0.613109,0,-1.5,2.05094e-38,0,0,0,-0.984138,0.207559,0,0,0,0,0.0890044,0.0691659,9494,-1.42828,-0.379113,-0.306947,-0.428565,8084,0,0,0,0,2.51,-0.415117
8127,-0.321289,0.0478516,6.94922,-0.00387462,-0.00203861,0.00422971,0.0389827,-0.0324651,-0.0197974,-4.99882,0.193017,-0.317863,0.459764,0.607373,0.398502,0.500278,-0.0197974,-0.998817,0.193017,248,78,248,78,343,69,256,163,-0.113143,-0.613102,0,-1.5,2.05094e-38,0,0,0,-0.983003,0.20861,0,0,0,0,0.0905676,0.0699969,9588,-1.43938,-0.39403,-0.307934,-0.430281,8119,0,0,0,0,2.51,-0.41722
8144,-0.321289,0.0478516,0.387695,-0.00143056,-0.00186797,0.00480723,0.0389344,-0.0324993,-0.0196675,-4.99882,0.193017,-0.317863,0.466563,0.615902,0.400655,0.502414,-0.0197249,-0.998817,0.193017,248,78,248,78,343,69,256,163,-0.114315,-0.613116,0,-1.5,2.05094e-38,0,0,0,-0.981439,0.209824,0,0,0,0,0.0927207,0.0721329,9588,-1.43938,-0.39403,-0.307934,-0.430281,8119,0,0,0,0,2.51,-0.419648
8164,-0.321289,0.0478516,0.387695,-0.00143056,-0.00186797,0.00480723,0.0389344,-0.0324993,-0.0196675,-4.98864,0.198992,-0.323758,0.474608,0.625981,0.403168,0.504896,-0.0196675,-0.988641,0.198992,248,78,248,78,343,69,255,164,-0.111038,-0.613045,0,-1.5,2.05094e-38,0,0,0,-0.982502,0.207759,0,0,0,0,0.0908969,0.0630532,9595,-1.45305,-0.412479,-0.312272,-0.441843,8153,0,0,0,0,2.51,-0.415517
8180,-0.321289,0.0478516,-6.58984,-0.00133601,-0.0027845,0.00424402,0.0388966,-0.0325446,-0.019545,-4.98864,0.198992,-0.323758,0.481079,0.63408,0.405164,0.506863,-0.019545,-0.988641,0.198992,248,78,248,78,343,69,255,164,-0.112098,-0.613051,0,-1.5,2.05094e-38,0,0,0,-0.981027,0.208788,0,0,0,0,0.0928921,0.0650195,9595,-1.45305,-0.412479,-0.312272,-0.441843,8153,0,0,0,0,2.51,-0.417576
8201,-0.321289,0.0478516,-3.25781,-0.0019944,-0.00189298,0.00438183,0.0388481,-0.0325814,-0.0194218,-5.01617,0.196938,-0.313779,0.489217,0.644252,0.407643,0.509295,-0.0194779,-1.01617,0.196938,248,78,248,78,343,69,256,163,-0.11026,-0.613007,0,-1.5,2.05094e-38,0,0,0,-0.980904,0.207376,0,0,0,0,0.0939449,0.0603737,9494,-1.46385,-0.427897,-0.313698,-0.448921,8187,0,0,0,0,2.51,-0.414751
8217,-0.321289,0.0478516,4.63574,-0.00250045,-0.00374924,0.00435719,0.0388079,-0.0326187,-0.0193547,-5.01617,0.196938,-0.313779,0.49617,0.652932,0.409735,0.511334,-0.0193547,-1.01617,0.196938,248,78,248,78,343,69,256,163,-0.111348,-0.613014,0,-1.5,2.05094e-38,0,0,0,-0.979284,0.208424,0,0,0,0,0.0960369,0.0624127,9494,-1.46385,-0.427897,-0.313698,-0.448921,8187,0,0,0,0,2.51,-0.416849
8238,-0.321289,0.0478516,4.63574,-0.00250045,-0.00374924,0.00435719,0.0388079,-0.0326187,-0.0193547,-5.01235,0.196912,-0.315209,0.504399,0.663192,0.412181,0.513707,-0.0193547,-1.01235,0.196912,248,78,248,78,342,69,256,163,-0.114572,-0.613076,0,-1.5,2.05094e-38,0,0,0,-0.979332,0.211284,0,0,0,0,0.0959481,0.06959,9588,-1.47741,-0.443026,-0.316233,-0.444117,8224,0,0,0,0,2.51,-0.422567
8259,-0.321289,0.0478516,-0.458008,-0.00327205,-0.0022553,0.00415721,0.0387483,-0.0326434,-0.0192358,-5.01638,0.197132,-0.314397,0.513089,0.674013,0.414723,0.516166,-0.0192358,-1.01638,0.197132,248,78,248,78,343,69,256,163,-0.114433,-0.613059,0,-1.5,2.05094e-38,0,0,0,-0.980463,0.21155,0,0,0,0,0.0906881,0.0682941,9494,-1.49096,-0.45888,-0.324034,-0.447871,8252,0,0,0,0,2.51,-0.423099
8274,-0.321289,0.0478516,5.28027,-0.00330483,-0.00326167,0.00518262,0.0386932,-0.0326987,-0.0191082,-5.01638,0.197132,-0.314397,0.519745,0.682291,0.416645,0.518014,-0.0191082,-1.01638,0.197132,248,78,248,78,343,69,256,163,-0.115507,-0.613063,0,-1.5,2.05094e-38,0,0,0,-0.978992,0.212662,0,0,0,0,0.0926111,0.0701424,9494,-1.49096,-0.45888,-0.324034,-0.447871,8252,0,0,0,0,2.51,-0.425323
8295,-0.321289,0.0478516,4.7959,-0.00281843,-0.00297632,0.00520711,0.0386402,-0.0327514,-0.0189617,-5.01696,0.19448,-0.317962,0.528528,0.693202,0.419154,0.52041,-0.0190324,-1.01696,0.19448,248,78,248,78,343,69,257,164,-0.114791,-0.61304,0,-1.5,2.05094e-38,0,0,0,-0.98525,0.211858,0,0,0,0,0.0856552,0.0687531,9595,-1.50944,-0.475472,-0.333499,-0.451657,8284,0,0,0,0,2.51,-0.423715
8311,-0.321289,0.0478516,2.26465,-0.00184377,-0.00289705,0.00366391,0.0386228,-0.0327811,-0.0189103,-5.01696,0.19448,-0.317962,0.535254,0.701547,0.421054,0.522212,-0.0189617,-1.01696,0.19448,248,78,248,78,343,69,257,164,-0.115831,-0.613051,0,-1.5,2.05094e-38,0,0,0,-0.983859,0.212977,0,0,0,0,0.0875549,0.0705546,9595,-1.50944,-0.475472,-0.333499,-0.451657,8284,0,0,0,0,2.51,-0.425953
8333,-0.321289,0.0478516,2.26465,-0.00184377,-0.00289705,0.00366391,0.0386228,-0.0327811,-0.0189103,-5.0166,0.197387,-0.31509,0.544558,0.713073,0.423649,0.524664,-0.0189103,-1.0166,0.197387,248,78,248,78,343,69,256,163,-0.11578,-0.613044,0,-1.5,2.05094e-38,0,0,0,-0.98426,0.212614,0,0,0,0,0.0853378,0.0709852,9494,-1.52137,-0.490478,-0.338312,-0.453679,8320,0,0,0,0,2.51,-0.425228
8348,-0.321289,0.0478516,-6.875,-0.00151803,-0.00411303,0.00371961,0.0385837,-0.032831,-0.0187975,-5.0166,0.197387,-0.31509,0.550929,0.720959,0.425404,0.526317,-0.0187975,-1.0166,0.197387,248,78,248,78,343,69,256,163,-0.116783,-0.613049,0,-1.5,2.05094e-38,0,0,0,-0.982964,0.213694,0,0,0,0,0.0870921,0.0726374,9494,-1.52137,-0.490478,-0.338312,-0.453679,8320,0,0,0,0,2.51,-0.427388
8368,-0.321289,0.0478516,-6.875,-0.00151803,-0.00411303,0.00371961,0.0385837,-0.032831,-0.0187975,-5.0171,0.194588,-0.318384,0.559469,0.731515,0.427729,0.528498,-0.0187975,-1.0171,0.194588,248,78,248,78,343,69,257,164,-0.116929,-0.613052,0,-1.5,2.05094e-38,0,0,0,-0.980773,0.214153,0,0,0,0,0.0900659,0.0723024,9595,-1.53349,-0.508238,-0.337663,-0.456196,8354,0,0,0,0,2.51,-0.428306
8384,-0.321289,0.0478516,-6.875,-0.00151803,-0.00411303,0.00371961,0.0385837,-0.032831,-0.0187975,-5.0171,0.194588,-0.318384,0.566332,0.739989,0.429571,0.530227,-0.0187975,-1.0171,0.194588,248,78,248,78,343,69,257,164,-0.117948,-0.613071,0,-1.5,2.05094e-38,0,0,0,-0.979312,0.215328,0,0,0,0,0.0919084,0.0740311,9595,-1.53349,-0.508238,-0.337663,-0.456196,8354,0,0,0,0,2.51,-0.430656
8405,-0.321289,0.0478516,-7.18359,-0.00242204,-0.00296159,0.00457846,0.0384644,-0.0329486,-0.0184813,-5.00731,0.199787,-0.312017,0.575388,0.751157,0.43197,0.532477,-0.0187975,-1.00731,0.199787,248,76,248,76,342,69,256,164,-0.116509,-0.613044,0,-1.5,2.05094e-38,0,0,0,-0.983987,0.213334,0,0,0,0,0.085988,0.0722622,9595,-1.55211,-0.528159,-0.345982,-0.460215,8392,0,0,0,0,2.51,-0.426668
8427,-0.321289,0.0478516,-7.31055,-0.00202731,-0.00344501,0.00393954,0.0384362,-0.0329698,-0.0184223,-5.00731,0.199787,-0.312017,0.584927,0.762905,0.434468,0.534792,-0.0184223,-1.00731,0.199787,248,76,248,76,342,69,256,164,-0.115326,-0.612975,0,-1.5,2.05094e-38,0,0,0,-0.997649,0.21203,0,0,0,0,0.0689474,0.0694806,9595,-1.57819,-0.545291,-0.365521,-0.465312,8417,0,0,0,0,2.51,-0.42406
8443,-0.321289,0.0478516,-4.42773,-0.00218103,-0.00275586,0.0036152,0.0383998,-0.0329927,-0.0183636,-5.00731,0.199787,-0.312017,0.591898,0.771479,0.436277,0.536447,-0.0183636,-1.00731,0.199787,248,76,248,76,342,69,256,164,-0.11633,-0.612986,0,-1.5,2.05094e-38,0,0,0,-0.996527,0.213159,0,0,0,0,0.0707565,0.0711356,9595,-1.57819,-0.545291,-0.365521,-0.465312,8417,0,0,0,0,2.51,-0.426317
8466,-0.321289,0.0478516,-4.42773,-0.00218103,-0.00275586,0.0036152,0.0383998,-0.0329927,-0.0183636,-5.03718,0.201962,-0.313841,0.601974,0.783855,0.438858,0.538801,-0.0183636,-1.03718,0.201962,248,79,248,79,342,69,256,164,-0.114811,-0.612959,0,-1.5,2.05094e-38,0,0,0,-1.00074,0.211418,0,0,0,0,0.0647023,0.068539,9595,-1.5941,-0.561622,-0.374156,-0.470262,8452,0,0,0,0,2.51,-0.422835
8482,-0.321289,0.0478516,3.96387,-0.0036567,-0.00284395,0.00464639,0.0383399,-0.0330469,-0.0181712,-5.03718,0.201962,-0.313841,0.609014,0.792493,0.440637,0.540417,-0.0181712,-1.03718,0.201962,248,79,248,79,342,69,256,164,-0.115855,-0.612954,0,-1.5,2.05094e-38,0,0,0,-0.999683,0.212531,0,0,0,0,0.0664807,0.0701552,9595,-1.5941,-0.561622,-0.374156,-0.470262,8452,0,0,0,0,2.51,-0.425061
8503,-0.321289,0.0478516,-7.18457,-0.00227242,-0.00356523,0.00526194,0.0382958,-0.0330769,-0.018058,-5.00759,0.200068,-0.312856,0.618302,0.803873,0.442958,0.542514,-0.0181712,-1.00759,0.200068,248,76,248,76,342,69,256,164,-0.113229,-0.612906,0,-1.5,2.05094e-38,0,0,0,-1.00126,0.210189,0,0,0,0,0.0621381,0.064332,9595,-1.61156,-0.583642,-0.38082,-0.478182,8489,0,0,0,0,2.51,-0.420377
8525,-0.321289,0.0478516,1.91992,-0.00258372,-0.00146818,0.00405501,0.0382549,-0.0330832,-0.0180023,-5.0279,0.198281,-0.310851,0.628081,0.815839,0.445367,0.544675,-0.0180023,-1.0279,0.198281,248,78,248,78,343,69,256,163,-0.109647,-0.612821,0,-1.5,2.05094e-38,0,0,0,-1.00059,0.207078,0,0,0,0,0.064055,0.0559275,9494,-1.62562,-0.604851,-0.381312,-0.488747,8519,0,0,0,0,2.51,-0.414156
8542,-0.321289,0.0478516,-1.4375,-0.00149909,-0.00223986,0.00482114,0.0382362,-0.0331018,-0.0179423,-5.0279,0.198281,-0.310851,0.635225,0.82457,0.447104,0.546225,-0.0179423,-1.0279,0.198281,248,78,248,78,343,69,256,163,-0.110517,-0.61283,0,-1.5,2.05094e-38,0,0,0,-0.999546,0.207989,0,0,0,0,0.0657916,0.0574782,9494,-1.62562,-0.604851,-0.381312,-0.488747,8519,0,0,0,0,2.51,-0.415978
8562,-0.321289,0.0478516,-0.732422,-0.00265031,-0.00304525,0.00400151,0.0382025,-0.0331273,-0.0178811,-5.02794,0.198372,-0.310989,0.644644,0.836067,0.449367,0.548237,-0.0178811,-1.02794,0.198372,248,78,248,78,343,69,256,163,-0.110746,-0.612827,0,-1.5,2.05094e-38,0,0,0,-1.01441,0.208336,0,0,0,0,0.0140276,0.0575951,9494,-1.65427,-0.622334,-0.435339,-0.490642,8553,0,0,0,0,2.51,-0.416672
8578,-0.321289,0.0478516,-0.732422,-0.00265031,-0.00304525,0.00400151,0.0382025,-0.0331273,-0.0178811,-5.02794,0.198372,-0.310989,0.651852,0.844855,0.451077,0.549752,-0.0178811,-1.02794,0.198372,248,78,248,78,343,69,256,163,-0.111593,-0.612842,0,-1.5,2.05094e-38,0,0,0,-1.01417,0.209273,0,0,0,0,0.0157371,0.0591105,9494,-1.65427,-0.622334,-0.435339,-0.490642,8553,0,0,0,0,2.51,-0.418545
8600,-0.321289,0.0478516,4.41211,-0.00196373,-0.00275366,0.00405776,0.0380951,-0.0332078,-0.0176396,-5.02798,0.198424,-0.311123,0.661811,0.856981,0.453407,0.551818,-0.0178811,-1.02798,0.198424,248,78,248,78,343,69,256,163,-0.111653,-0.612843,0,-1.5,2.05094e-38,0,0,0,-1.01615,0.209432,0,0,0,0,0.0127716,0.0590301,9494,-1.66827,-0.636707,-0.440636,-0.492788,8586,0,0,0,0,2.51,-0.418864
8616,-0.321289,0.0478516,0.0136719,-0.00143771,-0.00236933,0.00559294,0.0380793,-0.0332315,-0.0175731,-5.02798,0.198424,-0.311123,0.669083,0.865825,0.455096,0.553289,-0.0175731,-1.02798,0.198424,248,78,248,78,343,69,256,163,-0.112635,-0.612823,0,-1.5,2.05094e-38,0,0,0,-1.01593,0.210392,0,0,0,0,0.0144605,0.0605012,9494,-1.66827,-0.636707,-0.440636,-0.492788,8586,0,0,0,0,2.51,-0.420784
8638,-0.321289,0.0478516,-0.225586,-0.00231475,-0.00385874,0.00483029,0.0380611,-0.033265,-0.0175062,-5.01374,0.204267,-0.318133,0.679131,0.878028,0.457404,0.555291,-0.0175062,-1.01374,0.204267,248,78,248,78,342,69,255,164,-0.11318,-0.612825,0,-1.5,2.05094e-38,0,0,0,-1.01517,0.211168,0,0,0,0,0.0180632,0.0610117,9595,-1.68463,-0.655987,-0.439341,-0.494279,8624,0,0,0,0,2.51,-0.422335
8659,-0.321289,0.0478516,1.03223,-0.00268039,-0.0014043,0.00508023,0.0380377,-0.033269,-0.0174397,-4.99402,0.203044,-0.317816,0.688765,0.889715,0.459587,0.557175,-0.0174397,-0.994023,0.203044,248,76,248,76,342,69,255,164,-0.111955,-0.612795,0,-1.5,2.05094e-38,0,0,0,-1.01557,0.209738,0,0,0,0,0.0181772,0.0588531,9595,-1.70036,-0.675492,-0.44141,-0.498321,8652,0,0,0,0,2.51,-0.419475
8675,-0.321289,0.078125,-0.818359,-0.00185926,-0.00282837,0.00249815,0.0379862,-0.0333077,-0.0173329,-4.99402,0.203044,-0.317816,0.696136,0.898644,0.461236,0.558592,-0.0173329,-0.994023,0.203044,248,76,248,76,342,69,255,164,-0.112834,-0.612798,0,-1.5,2.05094e-38,0,0,0,-1.01526,0.210694,0,0,0,0,0.0198265,0.0602707,9595,-1.70036,-0.675492,-0.44141,-0.498321,8652,0,0,0,0,2.51,-0.421388
8697,-0.321289,0.138672,-2.50391,-0.00151724,-0.00304302,0.00450827,0.0379542,-0.0333535,-0.0172282,-5.02199,0.201067,-0.307743,0.706315,0.910961,0.463484,0.560511,-0.0172282,-1.02199,0.201067,248,76,248,76,342,69,256,163,-0.11267,-0.612782,0,-1.5,2.05094e-38,0,0,0,-1.01694,0.210818,0,0,0,0,0.0179724,0.0591816,9494,-1.71701,-0.693124,-0.445512,-0.50133,8686,0,0,0,0,2.51,-0.421635
8713,-0.321289,0.138672,-7.15918,-0.00128379,-0.00316821,0.00390315,0.0379429,-0.0333757,-0.0171776,-5.02199,0.201067,-0.307743,0.713748,0.919943,0.465112,0.561893,-0.0171776,-1.02199,0.201067,248,76,248,76,342,69,256,163,-0.113517,-0.612791,0,-1.5,2.05094e-38,0,0,0,-1.01663,0.211778,0,0,0,0,0.0196005,0.0605629,9494,-1.71701,-0.693124,-0.445512,-0.50133,8686,0,0,0,0,2.51,-0.423557
8734,-0.321289,0.138672,-7.15918,-0.00128379,-0.00316821,0.00390315,0.0379429,-0.0333757,-0.0171776,-5.02191,0.19826,-0.311283,0.723545,0.931769,0.467235,0.563689,-0.0171776,-1.02191,0.19826,248,76,248,76,342,69,257,164,-0.111388,-0.612754,0,-1.5,2.05094e-38,0,0,0,-1.02102,0.210089,0,0,0,0,0.0103166,0.0554243,9595,-1.73497,-0.711006,-0.456918,-0.508264,8720,0,0,0,0,2.51,-0.420177
8751,-0.321289,0.138672,1.7334,-0.00177815,-0.0028966,0.00447689,0.0378595,-0.0334339,-0.0169992,-5.02191,0.19826,-0.311283,0.731507,0.941367,0.468938,0.565124,-0.0170566,-1.02191,0.19826,248,76,248,76,342,69,257,164,-0.112279,-0.612755,0,-1.5,2.05094e-38,0,0,0,-1.02082,0.211046,0,0,0,0,0.0120194,0.0568597,9595,-1.73497,-0.711006,-0.456918,-0.508264,8720,0,0,0,0,2.51,-0.422093
8771,-0.321289,0.138672,-5.48828,-0.00329441,-0.00278335,0.00400563,0.0378238,-0.033459,-0.0169443,-5.02212,0.201135,-0.308088,0.740913,0.952692,0.47093,0.566788,-0.0169443,-1.02212,0.201135,248,76,248,76,342,69,256,163,-0.110708,-0.612715,0,-1.5,2.05094e-38,0,0,0,-1.02241,0.209362,0,0,0,0,0.00734159,0.0537496,9494,-1.75405,-0.73307,-0.463588,-0.513039,8757,0,0,0,0,2.51,-0.418723
8793,-0.321289,0.138672,4.06543,-0.0031447,-0.00233469,0.003775,0.0377963,-0.0334725,-0.0168838,-5.00838,0.200949,-0.315289,0.751304,0.965187,0.473105,0.568588,-0.0168838,-1.00838,0.200949,248,76,248,76,342,69,256,164,-0.111705,-0.612725,0,-1.5,2.05094e-38,0,0,0,-1.02146,0.21057,0,0,0,0,0.00910568,0.0552132,9595,-1.76812,-0.749484,-0.464,-0.513375,8786,0,0,0,0,2.51,-0.421139
8809,-0.321289,0.138672,2.50977,-0.00157701,-0.00396886,0.00342138,0.037743,-0.033536,-0.0167801,-5.00838,0.200949,-0.315289,0.75889,0.974298,0.474674,0.569881,-0.0167801,-1.00838,0.200949,248,76,248,76,342,69,256,164,-0.112521,-0.612726,0,-1.5,2.05094e-38,0,0,0,-1.0213,0.211466,0,0,0,0,0.010674,0.0565061,9595,-1.76812,-0.749484,-0.464,-0.513375,8786,0,0,0,0,2.51,-0.422932
8831,-0.321289,0.138672,2.50977,-0.00157701,-0.00396886,0.00342138,0.037743,-0.033536,-0.0167801,-5.0084,0.20099,-0.315362,0.769363,0.98686,0.476822,0.571633,-0.0167801,-1.0084,0.20099,248,76,248,76,342,69,256,164,-0.112873,-0.612732,0,-1.5,2.05094e-38,0,0,0,-1.02117,0.211967,0,0,0,0,0.0106826,0.0569118,9595,-1.78401,-0.767686,-0.466139,-0.514721,8819,0,0,0,0,2.51,-0.423934
8847,-0.321289,0.138672,1.48633,-0.000269323,-0.00129862,0.00343528,0.0376946,-0.0335803,-0.016581,-5.0084,0.20099,-0.315362,0.777008,0.996019,0.47837,0.572892,-0.0166392,-1.0084,0.20099,248,76,248,76,342,69,256,164,-0.113711,-0.612729,0,-1.5,2.05094e-38,0,0,0,-1.02099,0.21289,0,0,0,0,0.012231,0.0581712,9595,-1.78401,-0.767686,-0.466139,-0.514721,8819,0,0,0,0,2.51,-0.42578
8869,-0.321289,0.138672,-5.74805,-0.00143919,-0.00273718,0.00498281,0.0376815,-0.0336029,-0.016514,-4.99477,0.200336,-0.316193,0.787084,1.00807,0.480391,0.574526,-0.016514,-0.994771,0.200336,248,76,248,76,343,69,255,163,-0.111801,-0.612682,0,-1.5,2.05094e-38,0,0,0,-1.02005,0.211052,0,0,0,0,0.0185256,0.0539861,9494,-1.79743,-0.78609,-0.461866,-0.52054,8855,0,0,0,0,2.51,-0.422104
8890,-0.321289,0.138672,3.53613,-0.00183395,-0.00311899,0.00442659,0.0376574,-0.0336264,-0.0164542,-4.9946,0.203624,-0.319565,0.797682,1.02074,0.482491,0.576213,-0.0164542,-0.994603,0.203624,248,76,248,76,342,69,255,164,-0.110336,-0.612651,0,-1.5,2.05094e-38,0,0,0,-1.00582,0.209929,0,0,0,0,0.0440946,0.0502647,9595,-1.80043,-0.807126,-0.438396,-0.525948,8885,0,0,0,0,2.51,-0.419858
8906,-0.321289,0.138672,5.2998,-0.000676875,-0.00233129,0.00484489,0.0376168,-0.0336752,-0.0163359,-4.9946,0.203624,-0.319565,0.805417,1.02997,0.484006,0.577425,-0.0163359,-0.994603,0.203624,248,76,248,76,342,69,255,164,-0.111099,-0.61265,0,-1.5,2.05094e-38,0,0,0,-1.0051,0.210746,0,0,0,0,0.0456092,0.0514774,9595,-1.80043,-0.807126,-0.438396,-0.525948,8885,0,0,0,0,2.51,-0.421492
8928,-0.321289,0.138672,-6.7207,-0.00262509,-0.00279648,0.00509409,0.0375879,-0.0336923,-0.016277,-4.99464,0.20366,-0.319686,0.815608,1.04212,0.485984,0.578995,-0.016277,-0.994643,0.20366,248,76,248,76,342,69,255,164,-0.109908,-0.612623,0,-1.5,2.05094e-38,0,0,0,-1.00265,0.209307,0,0,0,0,0.0497079,0.0494876,9595,-1.81346,-0.826984,-0.436276,-0.529507,8918,0,0,0,0,2.51,-0.418614
8944,-0.321289,0.138672,-7.10547,-0.00275856,-0.00197666,0.00536022,0.0375423,-0.0337272,-0.0161347,-4.99464,0.20366,-0.319686,0.823888,1.05197,0.487574,0.580249,-0.0162162,-0.994643,0.20366,248,76,248,76,342,69,255,164,-0.110676,-0.612629,0,-1.5,2.05094e-38,0,0,0,-1.00178,0.210162,0,0,0,0,0.0512975,0.0507415,9595,-1.81346,-0.826984,-0.436276,-0.529507,8918,0,0,0,0,2.51,-0.420325
8960,-0.321289,0.138672,5.18555,-0.00307198,-0.00309697,0.00427358,0.0375098,-0.0337489,-0.0160708,-4.99464,0.20366,-0.319686,0.831215,1.06069,0.488967,0.581343,-0.0161347,-0.994643,0.20366,248,76,248,76,342,69,255,164,-0.11137,-0.61263,0,-1.5,2.05094e-38,0,0,0,-1.001,0.210934,0,0,0,0,0.052691,0.0518351,9595,-1.81346,-0.826984,-0.436276,-0.529507,8918,0,0,0,0,2.51,-0.421868
8975,-0.321289,0.138672,3.86914,-0.00196066,-0.00410527,0.00442025,0.0374922,-0.033784,-0.0160166,-4.99464,0.20366,-0.319686,0.839054,1.07,0.490447,0.582493,-0.0160166,-0.994643,0.20366,248,76,248,76,342,69,255,164,-0.11213,-0.612628,0,-1.5,2.05094e-38,0,0,0,-1.00014,0.211775,0,0,0,0,0.0541704,0.0529855,9595,-1.81346,-0.826984,-0.436276,-0.529507,8918,0,0,0,0,2.51,-0.423549
8997,-0.321289,0.138672,2.92676,-0.00205035,-0.00207057,0.00410546,0.037465,-0.0337983,-0.0159547,-5.02276,0.2018,-0.310032,0.849872,1.08284,0.492469,0.584056,-0.0159547,-1.02276,0.2018,248,76,248,76,342,69,256,163,-0.111983,-0.612619,0,-1.5,2.05094e-38,0,0,0,-1.00161,0.211642,0,0,0,0,0.0524811,0.0525548,9494,-1.84576,-0.864286,-0.439988,-0.531501,8986,0,0,0,0,2.51,-0.423283
9013,-0.321289,0.138672,-0.987305,-0.0019018,-0.00248756,0.00373112,0.0374111,-0.0338322,-0.0158412,-5.02276,0.2018,-0.310032,0.857767,1.09219,0.493927,0.585179,-0.0159547,-1.02276,0.2018,248,76,248,76,342,69,256,163,-0.11269,-0.61263,0,-1.5,2.05094e-38,0,0,0,-1.00075,0.212494,0,0,0,0,0.0539388,0.0536778,9494,-1.84576,-0.864286,-0.439988,-0.531501,8986,0,0,0,0,2.51,-0.424989
9035,-0.321289,0.138672,6.05762,-0.00195517,-0.0029925,0.00451537,0.0373907,-0.0338456,-0.0157739,-5.0428,0.20314,-0.310892,0.868664,1.10509,0.495917,0.586704,-0.0157739,-1.0428,0.20314,248,78,248,78,342,69,256,163,-0.111824,-0.612595,0,-1.5,2.05094e-38,0,0,0,-1.01261,0.211536,0,0,0,0,0.0400017,0.0518116,9494,-1.87125,-0.881788,-0.455916,-0.534893,9021,0,0,0,0,2.51,-0.423072
9057,-0.321289,0.138672,-1.46973,-0.00253678,-0.00340091,0.0052688,0.0373697,-0.0338677,-0.0157092,-5.02292,0.201983,-0.310538,0.879602,1.11802,0.497892,0.588201,-0.0157092,-1.02292,0.201983,248,76,248,76,342,69,256,163,-0.112135,-0.612592,0,-1.5,2.05094e-38,0,0,0,-1.01331,0.211911,0,0,0,0,0.0400802,0.0521946,9494,-1.88925,-0.901822,-0.457812,-0.536006,9051,0,0,0,0,2.51,-0.423821
9073,-0.321289,0.138672,-2.20215,-0.00209342,-0.00260215,0.00449143,0.0373262,-0.0339157,-0.0155806,-5.02292,0.201983,-0.310538,0.887583,1.12744,0.499317,0.589276,-0.0155806,-1.02292,0.201983,248,76,248,76,342,69,256,163,-0.112883,-0.612588,0,-1.5,2.05094e-38,0,0,0,-1.01266,0.212757,0,0,0,0,0.0415044,0.0532697,9494,-1.88925,-0.901822,-0.457812,-0.536006,9051,0,0,0,0,2.51,-0.425513
9094,-0.321289,0.138672,5.41016,-0.00109988,-0.00259086,0.00517422,0.0373052,-0.0339503,-0.0154372,-5.02296,0.202015,-0.310652,0.898094,1.13984,0.501178,0.590665,-0.0155101,-1.02296,0.202015,248,76,248,76,342,69,256,163,-0.112782,-0.612578,0,-1.5,2.05094e-38,0,0,0,-1.01414,0.212897,0,0,0,0,0.0395813,0.0524595,9494,-1.90715,-0.921019,-0.461596,-0.538206,9085,0,0,0,0,2.51,-0.425794
9111,-0.321289,0.138672,-2.51562,-0.00190652,-0.00302989,0.00637954,0.0372844,-0.0339715,-0.0153705,-5.02296,0.202015,-0.310652,0.90663,1.14989,0.502672,0.591778,-0.0154372,-1.02296,0.202015,248,76,248,76,342,69,256,163,-0.113544,-0.612581,0,-1.5,2.05094e-38,0,0,0,-1.01345,0.213801,0,0,0,0,0.0410759,0.0535724,9494,-1.90715,-0.921019,-0.461596,-0.538206,9085,0,0,0,0,2.51,-0.427602
9132,-0.321289,0.138672,-2.51562,-0.00190652,-0.00302989,0.00637954,0.0372844,-0.0339715,-0.0153705,-5.02311,0.202115,-0.311074,0.917214,1.16234,0.504509,0.593137,-0.0153705,-1.02311,0.202115,248,76,248,76,342,69,256,163,-0.113311,-0.61257,0,-1.5,2.05094e-38,0,0,0,-1.01285,0.213995,0,0,0,0,0.0424426,0.052134,9494,-1.92036,-0.936981,-0.462066,-0.541003,9118,0,0,0,0,2.51,-0.427991
9149,-0.321289,0.138672,5.0459,-0.00304024,-0.00256323,0.0042235,0.0372232,-0.0340119,-0.0152548,-5.02311,0.202115,-0.311074,0.925806,1.17243,0.505982,0.594223,-0.0152548,-1.02311,0.202115,248,76,248,76,342,69,256,163,-0.114082,-0.612568,0,-1.5,2.05094e-38,0,0,0,-1.01211,0.214893,0,0,0,0,0.0439158,0.0532194,9494,-1.92036,-0.936981,-0.462066,-0.541003,9118,0,0,0,0,2.51,-0.429787
9169,-0.321289,0.138672,-3.98535,-0.00189441,-0.00290503,0.00500067,0.0371852,-0.0340585,-0.015118,-5.02315,0.202147,-0.311184,0.93595,1.18434,0.507706,0.595481,-0.015118,-1.02315,0.202147,248,76,248,76,342,69,256,163,-0.1095,-0.612482,0,-1.5,2.05094e-38,0,0,0,-1.01461,0.210724,0,0,0,0,0.0422951,0.0429891,9494,-1.94125,-0.962561,-0.465411,-0.552492,9155,0,0,0,0,2.51,-0.421448
9190,-0.321289,0.138672,-3.25586,-0.0018302,-0.00310416,0.0044657,0.0371548,-0.0340812,-0.0150682,-5.04324,0.20357,-0.31225,0.946636,1.19686,0.509506,0.596778,-0.0150682,-1.04324,0.20357,248,78,248,78,342,69,256,163,-0.108652,-0.612463,0,-1.5,2.05094e-38,0,0,0,-1.01577,0.209812,0,0,0,0,0.0414812,0.0413361,9494,-1.95913,-0.983158,-0.468024,-0.555442,9185,0,0,0,0,2.51,-0.419623
9206,-0.321289,0.138672,-6.08691,-0.00258051,-0.00182662,0.00441624,0.0371014,-0.0341197,-0.0149505,-5.04324,0.20357,-0.31225,0.954802,1.20642,0.510866,0.597755,-0.0150682,-1.04324,0.20357,248,78,248,78,342,69,256,163,-0.109232,-0.612472,0,-1.5,2.05094e-38,0,0,0,-1.01509,0.210483,0,0,0,0,0.0428414,0.042313,9494,-1.95913,-0.983158,-0.468024,-0.555442,9185,0,0,0,0,2.51,-0.420967
9228,-0.321289,0.138672,-6.08691,-0.00258051,-0.00182662,0.00441624,0.0371014,-0.0341197,-0.0149505,-4.99542,0.204428,-0.322039,0.966068,1.21959,0.512724,0.599079,-0.0149505,-0.995422,0.204428,248,76,248,76,342,69,255,164,-0.109307,-0.612459,0,-1.5,2.05094e-38,0,0,0,-1.01394,0.210576,0,0,0,0,0.0444825,0.0422205,9595,-1.97439,-1.00233,-0.468241,-0.556859,9218,0,0,0,0,2.51,-0.421153
9244,-0.321289,0.138672,5.6123,-0.00360878,-0.0032747,0.00540624,0.0370331,-0.03416,-0.0148315,-4.99542,0.204428,-0.322039,0.974285,1.22918,0.514066,0.600026,-0.0148315,-0.995422,0.204428,248,76,248,76,342,69,255,164,-0.109938,-0.612455,0,-1.5,2.05094e-38,0,0,0,-1.01322,0.211261,0,0,0,0,0.0458245,0.0431666,9595,-1.97439,-1.00233,-0.468241,-0.556859,9218,0,0,0,0,2.51,-0.422523
