timestamp,A_x,A_y,A_z,P,Q,R,Phi,Theta,Psi,poseX,poseY,poseZ,state_X,state_Y,state_Z,state_VzB,state_Bx,state_By,state_Bz,p1_x,p1_y,p2_x,p2_y,p3_x,p3_y,p4_x,p4_y,roll,pitch,yaw,alt,targetHeading,highLevelState,lowLevelState,gateNumber,filtered_x,filtered_y,x_OT,y_OT,vx_OT,vy_OT,filtered_vx,filtered_vygateArearansac_corr_x,ransac_corr_y,ransac_corr_vx,ransac_corr_vy,detectionTimeStamppTermX,dTermX,pTermY,dTermY,vxcmd,vycmd
6107,-0.152344,0,3.32031,0.00445841,0.0141411,-0.0022707,-2.89347,-0.573848,-0.795694,0,0,0,-0.000132716,0.000349487,-0.0248515,0.0656665,-0.790264,0,0,0,0,0,0,0,0,0,0,0.298356,-0.493261,0,-1.5,1.31052e-38,0,0,0,-0.000132716,0.000349487,0.0078125,0.867188,0,0,-0.0248515,0.0656665,1.9603e-19,0,0,0,0,0,0,0,0,0,2.5,-0.000698974
6122,-0.152344,0,-3.20996,0.00542651,0.0145256,-0.0029003,-2.86188,-0.63806,-0.812312,0,0,0,-0.0009577,0.00257162,-0.0745867,0.203173,-0.804927,0,0,0,0,0,0,0,0,0,0,0.2784,-0.514432,0,-1.5,1.31052e-38,0,0,0,-0.0009577,0.00257162,0.0078125,0.867188,0,0,-0.0745867,0.203173,1.9603e-19,0,0,0,0,0,0,0,0,0,2.5,-0.00514324
6137,-0.152344,0,-6.15625,0.00517252,0.0163399,-0.00239933,-2.82367,-0.707794,-0.834629,0,0,0,-0.00271152,0.00748792,-0.131473,0.375298,-0.825076,0,0,0,0,0,0,0,0,0,0,0.254329,-0.54217,0,-1.5,1.31052e-38,0,0,0,-0.00271152,0.00748792,0.0078125,0.867188,0,0,-0.131473,0.375298,1.9603e-19,0,0,0,0,0,0,0,0,0,2.5,-0.0149758
6155,-0.152344,0,-1.29492,0.00646671,0.0196667,-0.00253736,-2.78158,-0.775348,-0.861678,0,0,0,-0.00563329,0.0161632,-0.193972,0.590031,-0.852181,0,0,0,0,0,0,0,0,0,0,0.226004,-0.578815,0,-1.5,1.31052e-38,0,0,0,-0.00563329,0.0161632,0.0078125,0.867188,0,0,-0.193972,0.590031,1.9603e-19,0,0,0,0,0,0,0,0,0,2.5,-0.0323263
6171,-0.152344,0,1.52148,0.00670058,0.0197025,-0.00264903,-2.78067,-0.776684,-0.86229,0,0,0,-0.0096132,0.0289233,-0.255851,0.839094,-0.86229,0,0,0,0,0,0,0,0,0,0,0.185412,-0.628635,0,-1.5,1.31052e-38,0,0,0,-0.0096132,0.0289233,0.0078125,0.867188,0,0,-0.255851,0.839094,1.9603e-19,0,0,0,0,0,0,0,0,0,2.5,-0.0578466
6187,-0.152344,0,-6.43945,0.00817915,0.0190174,-0.00205197,-2.77976,-0.778021,-0.862898,0,0,0,-0.0142949,0.04475,-0.31349,1.07469,-0.862898,0,0,0,0,0,0,0,0,0,0,0.142245,-0.679281,0,-1.5,1.31052e-38,0,0,0,-0.0142949,0.04475,0.0078125,0.867188,0,0,-0.31349,1.07469,1.9603e-19,0,0,0,0,0,0,0,0,0,2.5,-0.0894999
6203,-0.152344,0,2.92676,0.00771102,0.0191972,-0.00307861,-2.7789,-0.77932,-0.863476,0,0,0,-0.0198941,0.0643376,-0.370664,1.30943,-0.863476,0,0,0,0,0,0,0,0,0,0,0.0980378,-0.731251,0,-1.5,1.31052e-38,0,0,0,-0.0198941,0.0643376,0.0078125,0.867188,0,0,-0.370664,1.30943,1.9603e-19,0,0,0,0,0,0,0,0,0,2.5,-0.128675
6219,-0.152344,0,-1.58008,0.00867931,0.0196953,-0.00322504,-2.77711,-0.78196,-0.864681,0,0,0,-0.0264034,0.0876724,-0.427378,1.54333,-0.864097,0,0,0,0,0,0,0,0,0,0,0.0528389,-0.784534,0,-1.5,1.31052e-38,0,0,0,-0.0264034,0.0876724,0.0078125,0.867188,0,0,-0.427378,1.54333,1.9603e-19,0,0,0,0,0,0,0,0,0,2.5,-0.175345
6234,-0.152344,0,6.72559,0.00795196,0.0192411,-0.00241252,-2.77623,-0.78325,-0.865271,0,0,0,-0.0333246,0.112937,-0.480119,1.76196,-0.864681,0,0,0,0,0,0,0,0,0,0,0.0488717,-0.789573,0,-1.5,1.31052e-38,0,0,0,-0.0333246,0.112937,0.0078125,0.867188,0,0,-0.480119,1.76196,1.9603e-19,0,0,0,0,0,0,0,0,0,2.5,-0.225873
6250,-0.152344,0,-6.15527,0.00631429,0.0189023,-0.00298695,-2.77532,-0.784592,-0.865888,0,0,0,-0.0415932,0.143576,-0.535907,1.99491,-0.865888,0,0,0,0,0,0,0,0,0,0,0.0496141,-0.789513,0,-1.5,1.31052e-38,0,0,0,-0.0415932,0.143576,0.0078125,0.867188,0,0,-0.535907,1.99491,1.9603e-19,0,0,0,0,0,0,0,0,0,2.5,-0.287153
6267,-0.152344,0,-3.19434,0.00720121,0.019181,-0.00290121,-2.77445,-0.785898,-0.866468,0,0,0,-0.0507495,0.177935,-0.59123,2.22716,-0.866468,0,0,0,0,0,0,0,0,0,0,0.0499708,-0.789484,0,-1.5,1.31052e-38,0,0,0,-0.0507495,0.177935,0.0078125,0.867188,0,0,-0.59123,2.22716,1.9603e-19,0,0,0,0,0,0,0,0,0,2.5,-0.355871
6283,-0.152344,0,3.32812,0.00816752,0.0193835,-0.00249411,-2.77352,-0.787241,-0.867097,0,0,0,-0.0607862,0.216002,-0.646093,2.4587,-0.867097,0,0,0,0,0,0,0,0,0,0,0.0503579,-0.789453,0,-1.5,1.31052e-38,0,0,0,-0.0607862,0.216002,0.0078125,0.867188,0,0,-0.646093,2.4587,1.9603e-19,0,0,0,0,0,0,0,0,0,2.5,-0.432005
6309,-0.152344,0,-2.70996,0.00658076,0.0202179,-0.00206145,-2.7717,-0.789894,-0.868344,0,0,0,-0.0800602,0.290136,-0.737821,2.84794,-0.868344,0,0,0,0,0,0,0,0,0,0,0.0511246,-0.789389,0,-1.5,1.31052e-38,0,0,0,-0.0800602,0.290136,0.0078125,0.867188,0,0,-0.737821,2.84794,1.9603e-19,0,0,0,0,0,0,0,0,0,2.5,-0.580273
6347,-0.152344,0,-6.45508,0.008674,0.0185328,-0.00295635,-2.76895,-0.793909,-0.870213,0,0,0,-0.112061,0.415312,-0.865063,3.39316,-0.870213,0,0,0,0,0,0,0,0,0,0,0.0522737,-0.789293,0,-1.5,1.31052e-38,0,0,0,-0.112061,0.415312,0.0078125,0.867188,0,0,-0.865063,3.39316,1.9603e-19,0,0,0,0,0,0,0,0,0,2.5,-0.830624
6375,-0.152344,0,-1.36328,0.00651151,0.0190619,-0.00248204,-2.76709,-0.796387,-0.871582,0,0,0,-0.138255,0.518893,-0.956878,3.79267,-0.871582,0,0,0,0,0,0,0,0,0,0,0.0531154,-0.789221,0,-1.5,1.31052e-38,0,0,0,-0.138255,0.518893,0.0078125,0.867188,0,0,-0.956878,3.79267,1.9603e-19,0,0,0,0,0,0,0,0,0,2.5,-1.03779
6389,-0.152344,0,-1.58105,0.00775777,0.0191468,-0.00251159,-2.76612,-0.797933,-0.87215,0,0,0,-0.152042,0.57371,-1.00207,3.9915,-0.87215,0,0,0,0,0,0,0,0,0,0,0.0534644,-0.78919,0,-1.5,1.31052e-38,0,0,0,-0.152042,0.57371,0.0078125,0.867188,0,0,-1.00207,3.9915,1.9603e-19,0,0,0,0,0,0,0,0,0,2.5,-1.14742
6406,-0.152344,0,6.71777,0.00740117,0.0201666,-0.0020075,-2.76516,-0.799303,-0.872811,0,0,0,-0.168615,0.639957,-1.05334,4.21832,-0.872811,0,0,0,0,0,0,0,0,0,0,0.0538707,-0.789155,0,-1.5,1.31052e-38,0,0,0,-0.168615,0.639957,0.0078125,0.867188,0,0,-1.05334,4.21832,1.9603e-19,0,0,0,0,0,0,0,0,0,2.5,-1.27991
6422,-0.152344,0,-6.18945,0.00811238,0.0198593,-0.00192484,-2.76422,-0.800617,-0.87346,0,0,0,-0.187116,0.714313,-1.10731,4.45866,-0.87346,0,0,0,0,0,0,0,0,0,0,0.05427,-0.78912,0,-1.5,1.31052e-38,0,0,0,-0.187116,0.714313,0.0078125,0.867188,0,0,-1.10731,4.45866,1.9603e-19,0,0,0,0,0,0,0,0,0,2.5,-1.42863
6438,-0.152344,0,-3.21875,0.00717154,0.0194842,-0.0027405,-2.76327,-0.80198,-0.87412,0,0,0,-0.205363,0.78802,-1.15764,4.68408,-0.87412,0,0,0,0,0,0,0,0,0,0,0.0546752,-0.789084,0,-1.5,1.31052e-38,0,0,0,-0.205363,0.78802,0.0078125,0.867188,0,0,-1.15764,4.68408,1.9603e-19,0,0,0,0,0,0,0,0,0,2.5,-1.57604
6454,-0.152344,0,-3.21875,0.00717154,0.0194842,-0.0027405,-2.76327,-0.80198,-0.87412,0,0,0,-0.22441,0.865324,-1.20756,4.90846,-0.87412,0,0,0,0,0,0,0,0,0,0,0.0546752,-0.789084,0,-1.5,1.31052e-38,0,0,0,-0.22441,0.865324,0.0078125,0.867188,0,0,-1.20756,4.90846,1.9603e-19,0,0,0,0,0,0,0,0,0,2.5,-1.73065
6471,-0.152344,0,-2.72461,0.00806592,0.0197334,-0.00238848,-2.76041,-0.805969,-0.876101,0,0,0,-0.245518,0.951375,-1.2602,5.14511,-0.87412,0,0,0,0,0,0,0,0,0,0,0.0546752,-0.789084,0,-1.5,1.31052e-38,0,0,0,-0.245518,0.951375,0.0078125,0.867188,0,0,-1.2602,5.14511,1.9603e-19,0,0,0,0,0,0,0,0,0,2.5,-1.90275
6487,-0.152344,0,-1.22559,0.0083482,0.019691,-0.00219469,-2.75947,-0.807293,-0.876751,0,0,0,-0.26618,1.03598,-1.30908,5.36906,-0.876751,0,0,0,0,0,0,0,0,0,0,0.0562924,-0.788938,0,-1.5,1.31052e-38,0,0,0,-0.26618,1.03598,0.0078125,0.867188,0,0,-1.30908,5.36906,1.9603e-19,0,0,0,0,0,0,0,0,0,2.5,-2.07196
6503,-0.152344,0,1.55371,0.00852471,0.0200288,-0.00120669,-2.75847,-0.808653,-0.87745,0,0,0,-0.287635,1.12423,-1.35749,5.5926,-0.87745,0,0,0,0,0,0,0,0,0,0,0.0567221,-0.788898,0,-1.5,1.31052e-38,0,0,0,-0.287635,1.12423,0.0078125,0.867188,0,0,-1.35749,5.5926,1.9603e-19,0,0,0,0,0,0,0,0,0,2.5,-2.24847
6519,-0.152344,0,-6.45801,0.00748965,0.0197171,-0.00115654,-2.75752,-0.809965,-0.878135,0,0,0,-0.309844,1.21599,-1.40544,5.81547,-0.878135,0,0,0,0,0,0,0,0,0,0,0.0571431,-0.788859,0,-1.5,1.31052e-38,0,0,0,-0.309844,1.21599,0.0078125,0.867188,0,0,-1.40544,5.81547,1.9603e-19,0,0,0,0,0,0,0,0,0,2.5,-2.43197
6535,-0.152344,0,2.89746,0.00753891,0.0206043,-0.00185554,-2.75651,-0.811342,-0.878837,0,0,0,-0.332816,1.3113,-1.45294,6.0377,-0.878837,0,0,0,0,0,0,0,0,0,0,0.0575739,-0.788819,0,-1.5,1.31052e-38,0,0,0,-0.332816,1.3113,0.0078125,0.867188,0,0,-1.45294,6.0377,1.9603e-19,0,0,0,0,0,0,0,0,0,2.5,-2.5
6551,-0.152344,0,-1.55176,0.00793836,0.0205626,-0.00207728,-2.75453,-0.814058,-0.880202,0,0,0,-0.356543,1.41016,-1.50002,6.25895,-0.878837,0,0,0,0,0,0,0,0,0,0,0.0575739,-0.788819,0,-1.5,1.31052e-38,0,0,0,-0.356543,1.41016,0.0078125,0.867188,0,0,-1.50002,6.25895,1.9603e-19,0,0,0,0,0,0,0,0,0,2.5,-2.5
6567,-0.152344,0,6.77734,0.00852007,0.0197556,-0.00235417,-2.7535,-0.815432,-0.880916,0,0,0,-0.381034,1.51262,-1.54666,6.47961,-0.880202,0,0,0,0,0,0,0,0,0,0,0.0584125,-0.78874,0,-1.5,1.31052e-38,0,0,0,-0.381034,1.51262,0.0078125,0.867188,0,0,-1.54666,6.47961,1.9603e-19,0,0,0,0,0,0,0,0,0,2.5,-2.5
6582,-0.152344,0,-6.15918,0.00770135,0.0202636,-0.00245796,-2.75253,-0.816764,-0.8816,0,0,0,-0.404652,1.61182,-1.58985,6.687,-0.8816,0,0,0,0,0,0,0,0,0,0,0.0592717,-0.788658,0,-1.5,1.31052e-38,0,0,0,-0.404652,1.61182,0.0078125,0.867188,0,0,-1.58985,6.687,1.9603e-19,0,0,0,0,0,0,0,0,0,2.5,-2.5
6598,-0.152344,0,-3.20898,0.00682786,0.0192733,-0.00226854,-2.75153,-0.818135,-0.882309,0,0,0,-0.43057,1.72113,-1.63547,6.9078,-0.882309,0,0,0,0,0,0,0,0,0,0,0.0597071,-0.788616,0,-1.5,1.31052e-38,0,0,0,-0.43057,1.72113,0.0078125,0.867188,0,0,-1.63547,6.9078,1.9603e-19,0,0,0,0,0,0,0,0,0,2.5,-2.5
6615,-0.152344,0,-3.20898,0.00682786,0.0192733,-0.00226854,-2.75153,-0.818135,-0.882309,0,0,0,-0.458902,1.84114,-1.68349,7.14146,-0.882309,0,0,0,0,0,0,0,0,0,0,0.0597071,-0.788616,0,-1.5,1.31052e-38,0,0,0,-0.458902,1.84114,0.0078125,0.867188,0,0,-1.68349,7.14146,1.9603e-19,0,0,0,0,0,0,0,0,0,2.5,-2.5
6631,-0.152344,0,-2.14844,0.00717518,0.020224,-0.00242585,-2.74954,-0.820849,-0.883714,0,0,0,-0.486295,1.95763,-1.72824,7.36059,-0.883714,0,0,0,0,0,0,0,0,0,0,0.0605699,-0.788531,0,-1.5,1.31052e-38,0,0,0,-0.486295,1.95763,0.0078125,0.867188,0,0,-1.72824,7.36059,1.9603e-19,0,0,0,0,0,0,0,0,0,2.5,-2.5
6647,-0.152344,0,-1.24219,0.00640093,0.0205775,-0.00344991,-2.74754,-0.823577,-0.885141,0,0,0,-0.514412,2.0777,-1.77253,7.5793,-0.883714,0,0,0,0,0,0,0,0,0,0,0.0605699,-0.788531,0,-1.5,1.31052e-38,0,0,0,-0.514412,2.0777,0.0078125,0.867188,0,0,-1.77253,7.5793,1.9603e-19,0,0,0,0,0,0,0,0,0,2.5,-2.5
6663,-0.152344,0,1.54883,0.00820109,0.0203988,-0.00248126,-2.74654,-0.824919,-0.885833,0,0,0,-0.543235,2.20126,-1.81638,7.79745,-0.885141,0,0,0,0,0,0,0,0,0,0,0.061446,-0.788444,0,-1.5,1.31052e-38,0,0,0,-0.543235,2.20126,0.0078125,0.867188,0,0,-1.81638,7.79745,1.9603e-19,0,0,0,0,0,0,0,0,0,2.5,-2.5
6680,-0.152344,0,1.54883,0.00820109,0.0203988,-0.00248126,-2.74654,-0.824919,-0.885833,0,0,0,-0.57462,2.33637,-1.86236,8.02965,-0.885833,0,0,0,0,0,0,0,0,0,0,0.061871,-0.788401,0,-1.5,1.31052e-38,0,0,0,-0.57462,2.33637,0.0078125,0.867188,0,0,-1.86236,8.02965,1.9603e-19,0,0,0,0,0,0,0,0,0,2.5,-2.5
6696,-0.152344,0,2.89551,0.00766671,0.0203031,-0.00321224,-2.7445,-0.827636,-0.887281,0,0,0,-0.604855,2.46706,-1.90523,8.24706,-0.887281,0,0,0,0,0,0,0,0,0,0,0.06276,-0.788311,0,-1.5,1.31052e-38,0,0,0,-0.604855,2.46706,0.0078125,0.867188,0,0,-1.90523,8.24706,1.9603e-19,0,0,0,0,0,0,0,0,0,2.5,-2.5
6712,-0.152344,0,2.89551,0.00766671,0.0203031,-0.00321224,-2.7445,-0.827636,-0.887281,0,0,0,-0.635785,2.6013,-1.9476,8.46448,-0.887281,0,0,0,0,0,0,0,0,0,0,0.06276,-0.788311,0,-1.5,1.31052e-38,0,0,0,-0.635785,2.6013,0.0078125,0.867188,0,0,-1.9476,8.46448,1.9603e-19,0,0,0,0,0,0,0,0,0,2.5,-2.5
6728,-0.152344,0,2.89551,0.00766671,0.0203031,-0.00321224,-2.7445,-0.827636,-0.887281,0,0,0,-0.667388,2.739,-1.98966,8.68034,-0.887281,0,0,0,0,0,0,0,0,0,0,0.06276,-0.788311,0,-1.5,1.31052e-38,0,0,0,-0.667388,2.739,0.0078125,0.867188,0,0,-1.98966,8.68034,1.9603e-19,0,0,0,0,0,0,0,0,0,2.5,-2.5
6745,-0.152344,0,-6.15234,0.00853319,0.0203896,-0.00167311,-2.74028,-0.833171,-0.890261,0,0,0,-0.7017,2.88908,-2.03383,8.90938,-0.889495,0,0,0,0,0,0,0,0,0,0,0.0641187,-0.788171,0,-1.5,1.31052e-38,0,0,0,-0.7017,2.88908,0.0078125,0.867188,0,0,-2.03383,8.90938,1.9603e-19,0,0,0,0,0,0,0,0,0,2.5,-2.5
6760,-0.152344,0,-3.23145,0.00874094,0.0210571,-0.0030541,-2.73925,-0.834531,-0.890997,0,0,0,-0.73258,3.02468,-2.07219,9.11229,-0.890261,0,0,0,0,0,0,0,0,0,0,0.064589,-0.788121,0,-1.5,1.31052e-38,0,0,0,-0.73258,3.02468,0.0078125,0.867188,0,0,-2.07219,9.11229,1.9603e-19,0,0,0,0,0,0,0,0,0,2.5,-2.5
6776,-0.152344,0,3.31152,0.00767138,0.0206895,-0.00332514,-2.73817,-0.835935,-0.891768,0,0,0,-0.766159,3.17276,-2.11258,9.32896,-0.891768,0,0,0,0,0,0,0,0,0,0,0.0655133,-0.788023,0,-1.5,1.31052e-38,0,0,0,-0.766159,3.17276,0.0078125,0.867188,0,0,-2.11258,9.32896,1.9603e-19,0,0,0,0,0,0,0,0,0,2.5,-2.5
6793,-0.152344,0,-2.11719,0.00722892,0.0209168,-0.00169503,-2.73709,-0.837329,-0.89255,0,0,0,-0.802541,3.33388,-2.15499,9.55876,-0.89255,0,0,0,0,0,0,0,0,0,0,0.0659932,-0.787972,0,-1.5,1.31052e-38,0,0,0,-0.802541,3.33388,0.0078125,0.867188,0,0,-2.15499,9.55876,1.9603e-19,0,0,0,0,0,0,0,0,0,2.5,-2.5
6809,-0.152344,0,-2.53809,0.00749758,0.020506,-0.00179686,-2.73605,-0.838678,-0.893298,0,0,0,-0.835224,3.47922,-2.19195,9.76122,-0.893298,0,0,0,0,0,0,0,0,0,0,0.0664522,-0.787922,0,-1.5,1.31052e-38,0,0,0,-0.835224,3.47922,0.0078125,0.867188,0,0,-2.19195,9.76122,1.9603e-19,0,0,0,0,0,0,0,0,0,2.5,-2.5
6826,-0.152344,0,-1.32617,0.00781767,0.0205115,-0.00152913,-2.73497,-0.840077,-0.894083,0,0,0,-0.875199,3.65779,-2.23579,10.0037,-0.894083,0,0,0,0,0,0,0,0,0,0,0.0669338,-0.78787,0,-1.5,1.31052e-38,0,0,0,-0.875199,3.65779,0.0078125,0.867188,0,0,-2.23579,10.0037,1.9603e-19,0,0,0,0,0,0,0,0,0,2.5,-2.5
6843,-0.152344,0,-6.44531,0.00795614,0.0216599,-0.00300013,-2.73285,-0.842851,-0.895626,0,0,0,-0.911377,3.8201,-2.2743,10.2186,-0.894841,0,0,0,0,0,0,0,0,0,0,0.067399,-0.787819,0,-1.5,1.31052e-38,0,0,0,-0.911377,3.8201,0.0078125,0.867188,0,0,-2.2743,10.2186,1.9603e-19,0,0,0,0,0,0,0,0,0,2.5,-2.5
6858,-0.152344,0,2.91016,0.00810301,0.0216131,-0.00148722,-2.73173,-0.844251,-0.896439,0,0,0,-0.948165,3.98586,-2.31222,10.4339,-0.896439,0,0,0,0,0,0,0,0,0,0,0.0683791,-0.787711,0,-1.5,1.31052e-38,0,0,0,-0.948165,3.98586,0.0078125,0.867188,0,0,-2.31222,10.4339,1.9603e-19,0,0,0,0,0,0,0,0,0,2.5,-2.5
6875,-0.152344,0,-1.30469,0.00822051,0.0203428,-0.0022622,-2.73067,-0.845604,-0.897201,0,0,0,-0.987925,4.16583,-2.35199,10.6623,-0.897201,0,0,0,0,0,0,0,0,0,0,0.0688459,-0.787658,0,-1.5,1.31052e-38,0,0,0,-0.987925,4.16583,0.0078125,0.867188,0,0,-2.35199,10.6623,1.9603e-19,0,0,0,0,0,0,0,0,0,2.5,-2.5
6891,-0.152344,0,-1.60352,0.0077653,0.020464,-0.00143926,-2.72956,-0.847012,-0.898018,0,0,0,-1.02595,4.33869,-2.38894,10.877,-0.898018,0,0,0,0,0,0,0,0,0,0,0.0693472,-0.787602,0,-1.5,1.31052e-38,0,0,0,-1.02595,4.33869,0.0078125,0.867188,0,0,-2.38894,10.877,1.9603e-19,0,0,0,0,0,0,0,0,0,2.5,-2.5
6908,-0.152344,0,6.70508,0.00846278,0.0215152,-0.00341369,-2.72843,-0.848428,-0.898827,0,0,0,-1.06455,4.51497,-2.42542,11.0912,-0.898827,0,0,0,0,0,0,0,0,0,0,0.0698434,-0.787546,0,-1.5,1.31052e-38,0,0,0,-1.06455,4.51497,0.0078125,0.867188,0,0,-2.42542,11.0912,1.9603e-19,0,0,0,0,0,0,0,0,0,2.5,-2.5
6924,-0.152344,0,-3.2041,0.00688706,0.0212117,-0.00209735,-2.72622,-0.851202,-0.900435,0,0,0,-1.10621,4.70602,-2.46367,11.3185,-0.899608,0,0,0,0,0,0,0,0,0,0,0.0703219,-0.787491,0,-1.5,1.31052e-38,0,0,0,-1.10621,4.70602,0.0078125,0.867188,0,0,-2.46367,11.3185,1.9603e-19,0,0,0,0,0,0,0,0,0,2.5,-2.5
6940,-0.152344,0,-3.2041,0.00688706,0.0212117,-0.00209735,-2.72622,-0.851202,-0.900435,0,0,0,-1.146,4.88936,-2.4992,11.532,-0.900435,0,0,0,0,0,0,0,0,0,0,0.0708288,-0.787433,0,-1.5,1.31052e-38,0,0,0,-1.146,4.88936,0.0078125,0.867188,0,0,-2.4992,11.532,1.9603e-19,0,0,0,0,0,0,0,0,0,2.5,-2.5
6956,-0.152344,0,-2.16895,0.00743864,0.0212538,-0.00210273,-2.72395,-0.853981,-0.902108,0,0,0,-1.18636,5.0761,-2.53431,11.7449,-0.902108,0,0,0,0,0,0,0,0,0,0,0.0718542,-0.787313,0,-1.5,1.31052e-38,0,0,0,-1.18636,5.0761,0.0078125,0.867188,0,0,-2.53431,11.7449,1.9603e-19,0,0,0,0,0,0,0,0,0,2.5,-2.5
6973,-0.152344,0,-2.71289,0.00817066,0.0214934,-0.0037858,-2.72283,-0.855405,-0.902927,0,0,0,-1.22984,5.27827,-2.57087,11.972,-0.902927,0,0,0,0,0,0,0,0,0,0,0.0723561,-0.787254,0,-1.5,1.31052e-38,0,0,0,-1.22984,5.27827,0.0078125,0.867188,0,0,-2.57087,11.972,1.9603e-19,0,0,0,0,0,0,0,0,0,2.5,-2.5
6989,-0.152344,0,-1.24219,0.00828587,0.0218589,-0.00257864,-2.72171,-0.856773,-0.903749,0,0,0,-1.26871,5.45978,-2.60267,12.1721,-0.903749,0,0,0,0,0,0,0,0,0,0,0.0728602,-0.787194,0,-1.5,1.31052e-38,0,0,0,-1.26871,5.45978,0.0078125,0.867188,0,0,-2.60267,12.1721,1.9603e-19,0,0,0,0,0,0,0,0,0,2.5,-2.5
7006,-0.152344,0,1.52441,0.0076928,0.0214031,-0.0016395,-2.72055,-0.858188,-0.904612,0,0,0,-1.31601,5.68172,-2.64031,12.4119,-0.904612,0,0,0,0,0,0,0,0,0,0,0.0733886,-0.787131,0,-1.5,1.31052e-38,0,0,0,-1.31601,5.68172,0.0078125,0.867188,0,0,-2.64031,12.4119,1.9603e-19,0,0,0,0,0,0,0,0,0,2.5,-2.5
7021,-0.152344,0,2.87695,0.00763514,0.0206502,-0.00152284,-2.71829,-0.86097,-0.906271,0,0,0,-1.35323,5.85713,-2.66915,12.598,-0.905425,0,0,0,0,0,0,0,0,0,0,0.0738868,-0.787071,0,-1.5,1.31052e-38,0,0,0,-1.35323,5.85713,0.0078125,0.867188,0,0,-2.66915,12.598,1.9603e-19,0,0,0,0,0,0,0,0,0,2.5,-2.5
7036,-0.152344,0,-1.37012,0.00748033,0.0217552,-0.00209066,-2.71713,-0.862401,-0.907138,0,0,0,-1.39627,6.06087,-2.70165,12.8107,-0.906271,0,0,0,0,0,0,0,0,0,0,0.0744052,-0.787009,0,-1.5,1.31052e-38,0,0,0,-1.39627,6.06087,0.0078125,0.867188,0,0,-2.70165,12.8107,1.9603e-19,0,0,0,0,0,0,0,0,0,2.5,-2.5
7052,-0.152344,0,-1.60352,0.00784951,0.021378,-0.00263981,-2.716,-0.863768,-0.907971,0,0,0,-1.43982,6.26801,-2.73352,13.0239,-0.907971,0,0,0,0,0,0,0,0,0,0,0.0754465,-0.786881,0,-1.5,1.31052e-38,0,0,0,-1.43982,6.26801,0.0078125,0.867188,0,0,-2.73352,13.0239,1.9603e-19,0,0,0,0,0,0,0,0,0,2.5,-2.5
7068,-0.152344,0,6.74805,0.00726224,0.0226181,-0.00345211,-2.71483,-0.865206,-0.908838,0,0,0,-1.48388,6.47856,-2.76492,13.2368,-0.908838,0,0,0,0,0,0,0,0,0,0,0.0759772,-0.786816,0,-1.5,1.31052e-38,0,0,0,-1.48388,6.47856,0.0078125,0.867188,0,0,-2.76492,13.2368,1.9603e-19,0,0,0,0,0,0,0,0,0,2.5,-2.5
7084,-0.152344,0,6.74805,0.00726224,0.0226181,-0.00345211,-2.71483,-0.865206,-0.908838,0,0,0,-1.52843,6.69252,-2.79591,13.4491,-0.908838,0,0,0,0,0,0,0,0,0,0,0.0759772,-0.786816,0,-1.5,1.31052e-38,0,0,0,-1.52843,6.69252,0.0078125,0.867188,0,0,-2.79591,13.4491,1.9603e-19,0,0,0,0,0,0,0,0,0,2.5,-2.5
7100,-0.152344,0,-3.24316,0.00813189,0.0214764,-0.00231434,-2.7125,-0.868015,-0.910569,0,0,0,-1.57349,6.90992,-2.82649,13.6609,-0.910569,0,0,0,0,0,0,0,0,0,0,0.0770371,-0.786683,0,-1.5,1.31052e-38,0,0,0,-1.57349,6.90992,0.0078125,0.867188,0,0,-2.82649,13.6609,1.9603e-19,0,0,0,0,0,0,0,0,0,2.5,-2.5
7117,-0.152344,0,-2.12109,0.0085848,0.0212404,-0.00223368,-2.71015,-0.870818,-0.912321,0,0,0,-1.61903,7.13072,-2.85654,13.8727,-0.910569,0,0,0,0,0,0,0,0,0,0,0.0770371,-0.786683,0,-1.5,1.31052e-38,0,0,0,-1.61903,7.13072,0.0078125,0.867188,0,0,-2.85654,13.8727,1.9603e-19,0,0,0,0,0,0,0,0,0,2.5,-2.5
7133,-0.152344,0,-2.53516,0.00930883,0.0216864,-0.00149906,-2.70891,-0.872249,-0.913236,0,0,0,-1.66505,7.35491,-2.88611,14.0843,-0.912321,0,0,0,0,0,0,0,0,0,0,0.0781099,-0.786547,0,-1.5,1.31052e-38,0,0,0,-1.66505,7.35491,0.0078125,0.867188,0,0,-2.88611,14.0843,1.9603e-19,0,0,0,0,0,0,0,0,0,2.5,-2.5
7149,-0.152344,0,-1.31738,0.0082541,0.0220446,-0.00320669,-2.70775,-0.873629,-0.914096,0,0,0,-1.71445,7.59683,-2.91668,14.3103,-0.914096,0,0,0,0,0,0,0,0,0,0,0.0791959,-0.786408,0,-1.5,1.31052e-38,0,0,0,-1.71445,7.59683,0.0078125,0.867188,0,0,-2.91668,14.3103,1.9603e-19,0,0,0,0,0,0,0,0,0,2.5,-2.5
7165,-0.152344,0,1.53516,0.0083209,0.0221856,-0.00256229,-2.70654,-0.875063,-0.914994,0,0,0,-1.7614,7.82796,-2.94491,14.5229,-0.914994,0,0,0,0,0,0,0,0,0,0,0.0797459,-0.786336,0,-1.5,1.31052e-38,0,0,0,-1.7614,7.82796,0.0078125,0.867188,0,0,-2.94491,14.5229,1.9603e-19,0,0,0,0,0,0,0,0,0,2.5,-2.5
7181,-0.152344,0,1.53516,0.0083209,0.0221856,-0.00256229,-2.70654,-0.875063,-0.914994,0,0,0,-1.80881,8.06249,-2.97275,14.7349,-0.914994,0,0,0,0,0,0,0,0,0,0,0.0797459,-0.786336,0,-1.5,1.31052e-38,0,0,0,-1.80881,8.06249,0.0078125,0.867188,0,0,-2.97275,14.7349,1.9603e-19,0,0,0,0,0,0,0,0,0,2.5,-2.5
7197,-0.152344,0,2.87891,0.00860924,0.021054,-0.00268324,-2.70413,-0.877869,-0.916802,0,0,0,-1.85665,8.3004,-3.00014,14.9465,-0.916802,0,0,0,0,0,0,0,0,0,0,0.0808519,-0.786191,0,-1.5,1.31052e-38,0,0,0,-1.85665,8.3004,0.0078125,0.867188,0,0,-3.00014,14.9465,1.9603e-19,0,0,0,0,0,0,0,0,0,2.5,-2.5
7213,-0.152344,0,2.87891,0.00860924,0.021054,-0.00268324,-2.70413,-0.877869,-0.916802,0,0,0,-1.90493,8.5417,-3.02701,15.158,-0.916802,0,0,0,0,0,0,0,0,0,0,0.0808519,-0.786191,0,-1.5,1.31052e-38,0,0,0,-1.90493,8.5417,0.0078125,0.867188,0,0,-3.02701,15.158,1.9603e-19,0,0,0,0,0,0,0,0,0,2.5,-2.5
7229,-0.152344,0,6.71777,0.00928278,0.0228244,-0.00288609,-2.70044,-0.882144,-0.919574,0,0,0,-1.95364,8.78644,-3.05347,15.3691,-0.918644,0,0,0,0,0,0,0,0,0,0,0.0819784,-0.786041,0,-1.5,1.31052e-38,0,0,0,-1.95364,8.78644,0.0078125,0.867188,0,0,-3.05347,15.3691,1.9603e-19,0,0,0,0,0,0,0,0,0,2.5,-2.5
7245,-0.152344,0,-6.18555,0.00797596,0.0229039,-0.00282618,-2.69919,-0.883592,-0.920524,0,0,0,-1.99967,9.0189,-3.07745,15.5684,-0.919574,0,0,0,0,0,0,0,0,0,0,0.0825472,-0.785965,0,-1.5,1.31052e-38,0,0,0,-1.99967,9.0189,0.0078125,0.867188,0,0,-3.07745,15.5684,1.9603e-19,0,0,0,0,0,0,0,0,0,2.5,-2.5
7260,-0.152344,0,-3.26172,0.00871928,0.0226751,-0.00277744,-2.69798,-0.884987,-0.921433,0,0,0,-2.04917,9.27017,-3.10244,15.7813,-0.921433,0,0,0,0,0,0,0,0,0,0,0.0836841,-0.78581,0,-1.5,1.31052e-38,0,0,0,-2.04917,9.27017,0.0078125,0.867188,0,0,-3.10244,15.7813,1.9603e-19,0,0,0,0,0,0,0,0,0,2.5,-2.5
7276,-0.152344,0,3.31934,0.00867542,0.0228517,-0.00260697,-2.69671,-0.886435,-0.922395,0,0,0,-2.09906,9.52484,-3.12697,15.994,-0.922395,0,0,0,0,0,0,0,0,0,0,0.0842718,-0.785729,0,-1.5,1.31052e-38,0,0,0,-2.09906,9.52484,0.0078125,0.867188,0,0,-3.12697,15.994,1.9603e-19,0,0,0,0,0,0,0,0,0,2.5,-2.5
7293,-0.152344,0,-2.15137,0.00922336,0.0214629,-0.00257963,-2.69543,-0.887877,-0.923352,0,0,0,-2.15251,9.7993,-3.15244,16.2199,-0.923352,0,0,0,0,0,0,0,0,0,0,0.0848572,-0.785649,0,-1.5,1.31052e-38,0,0,0,-2.15251,9.7993,0.0078125,0.867188,0,0,-3.15244,16.2199,1.9603e-19,0,0,0,0,0,0,0,0,0,2.5,-2.5
7310,-0.152344,0,-1.23438,0.0069973,0.0232048,-0.00265916,-2.69295,-0.890734,-0.925246,0,0,0,-2.20637,10.0775,-3.17738,16.4456,-0.92427,0,0,0,0,0,0,0,0,0,0,0.0854178,-0.78557,0,-1.5,1.31052e-38,0,0,0,-2.20637,10.0775,0.0078125,0.867188,0,0,-3.17738,16.4456,1.9603e-19,0,0,0,0,0,0,0,0,0,2.5,-2.5
7326,-0.152344,0,1.5498,0.00981172,0.0225337,-0.00236802,-2.69169,-0.892134,-0.926189,0,0,0,-2.25745,10.3428,-3.20027,16.6581,-0.925246,0,0,0,0,0,0,0,0,0,0,0.0860142,-0.785487,0,-1.5,1.31052e-38,0,0,0,-2.25745,10.3428,0.0078125,0.867188,0,0,-3.20027,16.6581,1.9603e-19,0,0,0,0,0,0,0,0,0,2.5,-2.5
7343,-0.152344,0,-6.46289,0.00845159,0.0221137,-0.00275996,-2.6904,-0.893575,-0.927163,0,0,0,-2.30888,10.6116,-3.22246,16.8712,-0.927163,0,0,0,0,0,0,0,0,0,0,0.0871858,-0.785321,0,-1.5,1.31052e-38,0,0,0,-2.30888,10.6116,0.0078125,0.867188,0,0,-3.22246,16.8712,1.9603e-19,0,0,0,0,0,0,0,0,0,2.5,-2.5
7358,-0.152344,0,2.90039,0.00875886,0.0219783,-0.00320763,-2.6891,-0.895021,-0.92814,0,0,0,-2.36067,10.8838,-3.24409,17.0845,-0.92814,0,0,0,0,0,0,0,0,0,0,0.0877821,-0.785235,0,-1.5,1.31052e-38,0,0,0,-2.36067,10.8838,0.0078125,0.867188,0,0,-3.24409,17.0845,1.9603e-19,0,0,0,0,0,0,0,0,0,2.5,-2.5
7375,-0.152344,0,-1.33008,0.00811581,0.0215042,-0.0031281,-2.6879,-0.896358,-0.929039,0,0,0,-2.41607,11.1767,-3.2665,17.311,-0.929039,0,0,0,0,0,0,0,0,0,0,0.0883318,-0.785156,0,-1.5,1.31052e-38,0,0,0,-2.41607,11.1767,0.0078125,0.867188,0,0,-3.2665,17.311,1.9603e-19,0,0,0,0,0,0,0,0,0,2.5,-2.5
7391,-0.152344,0,-1.58008,0.00915012,0.0228341,-0.00266666,-2.68657,-0.897813,-0.930052,0,0,0,-2.46854,11.4558,-3.28704,17.5242,-0.930052,0,0,0,0,0,0,0,0,0,0,0.0889504,-0.785066,0,-1.5,1.31052e-38,0,0,0,-2.46854,11.4558,0.0078125,0.867188,0,0,-3.28704,17.5242,1.9603e-19,0,0,0,0,0,0,0,0,0,2.5,-2.5
7408,-0.152344,0,-6.16895,0.00800863,0.0231307,-0.00200572,-2.68399,-0.900671,-0.932029,0,0,0,-2.52466,11.7562,-3.30832,17.7505,-0.931054,0,0,0,0,0,0,0,0,0,0,0.089562,-0.784977,0,-1.5,1.31052e-38,0,0,0,-2.52466,11.7562,0.0078125,0.867188,0,0,-3.30832,17.7505,1.9603e-19,0,0,0,0,0,0,0,0,0,2.5,-2.5
7423,-0.152344,0,-3.2041,0.00732745,0.0226043,-0.00207928,-2.68268,-0.902123,-0.933044,0,0,0,-2.57446,12.0244,-3.32656,17.9503,-0.932029,0,0,0,0,0,0,0,0,0,0,0.0901573,-0.784889,0,-1.5,1.31052e-38,0,0,0,-2.57446,12.0244,0.0078125,0.867188,0,0,-3.32656,17.9503,1.9603e-19,0,0,0,0,0,0,0,0,0,2.5,-2.5
7440,-0.152344,0,3.35254,0.00828286,0.0219986,-0.0022855,-2.68139,-0.903512,-0.934038,0,0,0,-2.63123,12.3321,-3.34641,18.1777,-0.934038,0,0,0,0,0,0,0,0,0,0,0.0913831,-0.784707,0,-1.5,1.31052e-38,0,0,0,-2.63123,12.3321,0.0078125,0.867188,0,0,-3.34641,18.1777,1.9603e-19,0,0,0,0,0,0,0,0,0,2.5,-2.5
7456,-0.152344,0,-2.16113,0.01013,0.0222955,-0.00268887,-2.68004,-0.904973,-0.935059,0,0,0,-2.68496,12.6252,-3.36448,18.3919,-0.935059,0,0,0,0,0,0,0,0,0,0,0.0920066,-0.784613,0,-1.5,1.31052e-38,0,0,0,-2.68496,12.6252,0.0078125,0.867188,0,0,-3.36448,18.3919,1.9603e-19,0,0,0,0,0,0,0,0,0,2.5,-2.5
7472,-0.152344,0,-2.74316,0.00853757,0.0234073,-0.00285299,-2.67868,-0.906437,-0.936108,0,0,0,-2.73898,12.9216,-3.38198,18.6062,-0.936108,0,0,0,0,0,0,0,0,0,0,0.0926464,-0.784516,0,-1.5,1.31052e-38,0,0,0,-2.73898,12.9216,0.0078125,0.867188,0,0,-3.38198,18.6062,1.9603e-19,0,0,0,0,0,0,0,0,0,2.5,-2.5
7487,-0.152344,0,-1.21289,0.00874767,0.0225783,-0.00294091,-2.67737,-0.907844,-0.937108,0,0,0,-2.78986,13.2026,-3.39787,18.8072,-0.937108,0,0,0,0,0,0,0,0,0,0,0.0932565,-0.784423,0,-1.5,1.31052e-38,0,0,0,-2.78986,13.2026,0.0078125,0.867188,0,0,-3.39787,18.8072,1.9603e-19,0,0,0,0,0,0,0,0,0,2.5,-2.5
7503,-0.152344,0,1.55273,0.00861137,0.0232328,-0.00246893,-2.67602,-0.909306,-0.938165,0,0,0,-2.84439,13.5057,-3.4143,19.0215,-0.938165,0,0,0,0,0,0,0,0,0,0,0.0939011,-0.784325,0,-1.5,1.31052e-38,0,0,0,-2.84439,13.5057,0.0078125,0.867188,0,0,-3.4143,19.0215,1.9603e-19,0,0,0,0,0,0,0,0,0,2.5,-2.5
7519,-0.152344,0,2.8623,0.00738418,0.0236961,-0.00197899,-2.67333,-0.912169,-0.940259,0,0,0,-2.89918,13.8122,-3.43037,19.2352,-0.938165,0,0,0,0,0,0,0,0,0,0,0.0939011,-0.784325,0,-1.5,1.31052e-38,0,0,0,-2.89918,13.8122,0.0078125,0.867188,0,0,-3.43037,19.2352,1.9603e-19,0,0,0,0,0,0,0,0,0,2.5,-2.5
7535,-0.152344,0,-1.35742,0.00888795,0.0238063,-0.00236611,-2.67194,-0.913636,-0.941329,0,0,0,-2.95423,14.1223,-3.44541,19.4507,-0.941329,0,0,0,0,0,0,0,0,0,0,0.0958302,-0.784024,0,-1.5,1.31052e-38,0,0,0,-2.95423,14.1223,0.0078125,0.867188,0,0,-3.44541,19.4507,1.9603e-19,0,0,0,0,0,0,0,0,0,2.5,-2.5
7551,-0.152344,0,-1.6084,0.00870868,0.0224396,-0.00172902,-2.6706,-0.915032,-0.942378,0,0,0,-3.00951,14.4357,-3.45987,19.6662,-0.942378,0,0,0,0,0,0,0,0,0,0,0.0964694,-0.783924,0,-1.5,1.31052e-38,0,0,0,-3.00951,14.4357,0.0078125,0.867188,0,0,-3.45987,19.6662,1.9603e-19,0,0,0,0,0,0,0,0,0,2.5,-2.5
7568,-0.152344,0,6.71387,0.00970507,0.0232333,-0.00269401,-2.66919,-0.916487,-0.943456,0,0,0,-3.06501,14.7527,-3.47367,19.8821,-0.943456,0,0,0,0,0,0,0,0,0,0,0.0971264,-0.783819,0,-1.5,1.31052e-38,0,0,0,-3.06501,14.7527,0.0078125,0.867188,0,0,-3.47367,19.8821,1.9603e-19,0,0,0,0,0,0,0,0,0,2.5,-2.5
7583,-0.152344,0,6.71387,0.00970507,0.0232333,-0.00269401,-2.66919,-0.916487,-0.943456,0,0,0,-3.12073,15.073,-3.48707,20.0975,-0.943456,0,0,0,0,0,0,0,0,0,0,0.0971264,-0.783819,0,-1.5,1.31052e-38,0,0,0,-3.12073,15.073,0.0078125,0.867188,0,0,-3.48707,20.0975,1.9603e-19,0,0,0,0,0,0,0,0,0,2.5,-2.5
7600,-0.152344,0,3.33105,0.00959084,0.0230946,-0.00203907,-2.66494,-0.920833,-0.946743,0,0,0,-3.18016,15.4172,-3.50078,20.3261,-0.945634,0,0,0,0,0,0,0,0,0,0,0.0984537,-0.783606,0,-1.5,1.31052e-38,0,0,0,-3.18016,15.4172,0.0078125,0.867188,0,0,-3.50078,20.3261,1.9603e-19,0,0,0,0,0,0,0,0,0,2.5,-2.5
7616,-0.152344,0,-2.18848,0.00860768,0.0233891,-0.00284485,-2.66333,-0.922119,-0.947754,0,0,0,-3.2363,15.7447,-3.51277,20.5424,-0.946743,0,0,0,0,0,0,0,0,0,0,0.0991292,-0.783497,0,-1.5,1.31052e-38,0,0,0,-3.2363,15.7447,0.0078125,0.867188,0,0,-3.51277,20.5424,1.9603e-19,0,0,0,0,0,0,0,0,0,2.5,-2.5
7632,-0.152344,0,-2.73145,0.00968722,0.0230685,-0.00295179,-2.66213,-0.923723,-0.948925,0,0,0,-3.29262,16.0756,-3.52382,20.7598,-0.948925,0,0,0,0,0,0,0,0,0,0,0.100458,-0.783279,0,-1.5,1.31052e-38,0,0,0,-3.29262,16.0756,0.0078125,0.867188,0,0,-3.52382,20.7598,1.9603e-19,0,0,0,0,0,0,0,0,0,2.5,-2.5
7648,-0.152344,0,-2.73145,0.00968722,0.0230685,-0.00295179,-2.66213,-0.923723,-0.948925,0,0,0,-3.34911,16.41,-3.53441,20.9771,-0.948925,0,0,0,0,0,0,0,0,0,0,0.100458,-0.783279,0,-1.5,1.31052e-38,0,0,0,-3.34911,16.41,0.0078125,0.867188,0,0,-3.53441,20.9771,1.9603e-19,0,0,0,0,0,0,0,0,0,2.5,-2.5
7664,-0.152344,0,1.54199,0.00964871,0.0227213,-0.0017252,-2.65934,-0.92654,-0.951097,0,0,0,-3.40222,16.7266,-3.54388,21.1806,-0.951097,0,0,0,0,0,0,0,0,0,0,0.10178,-0.783059,0,-1.5,1.31052e-38,0,0,0,-3.40222,16.7266,0.0078125,0.867188,0,0,-3.54388,21.1806,1.9603e-19,0,0,0,0,0,0,0,0,0,2.5,-2.5
7681,-0.152344,0,1.54199,0.00964871,0.0227213,-0.0017252,-2.65934,-0.92654,-0.951097,0,0,0,-3.46258,17.0893,-3.5539,21.4117,-0.951097,0,0,0,0,0,0,0,0,0,0,0.10178,-0.783059,0,-1.5,1.31052e-38,0,0,0,-3.46258,17.0893,0.0078125,0.867188,0,0,-3.5539,21.4117,1.9603e-19,0,0,0,0,0,0,0,0,0,2.5,-2.5
7695,-0.152344,0,2.92383,0.00793332,0.023075,-0.00208934,-2.65649,-0.929419,-0.95333,0,0,0,-3.51597,17.4124,-3.56227,21.6154,-0.95333,0,0,0,0,0,0,0,0,0,0,0.103139,-0.78283,0,-1.5,1.31052e-38,0,0,0,-3.51597,17.4124,0.0078125,0.867188,0,0,-3.56227,21.6154,1.9603e-19,0,0,0,0,0,0,0,0,0,2.5,-2.5
7711,-0.152344,0,-1.58691,0.00938302,0.0237156,-0.00176982,-2.65357,-0.932313,-0.955617,0,0,0,-3.57305,17.7605,-3.57031,21.8339,-0.954476,0,0,0,0,0,0,0,0,0,0,0.103836,-0.782712,0,-1.5,1.31052e-38,0,0,0,-3.57305,17.7605,0.0078125,0.867188,0,0,-3.57031,21.8339,1.9603e-19,0,0,0,0,0,0,0,0,0,2.5,-2.5
7727,-0.152344,0,6.75293,0.00918681,0.0242261,-0.00168726,-2.65206,-0.933785,-0.956806,0,0,0,-3.63026,18.1121,-3.57766,22.0527,-0.955617,0,0,0,0,0,0,0,0,0,0,0.10453,-0.782593,0,-1.5,1.31052e-38,0,0,0,-3.63026,18.1121,0.0078125,0.867188,0,0,-3.57766,22.0527,1.9603e-19,0,0,0,0,0,0,0,0,0,2.5,-2.5
7743,-0.152344,0,-6.125,0.00880985,0.0240822,-0.00256795,-2.65058,-0.935265,-0.957973,0,0,0,-3.68757,18.4673,-3.58402,22.2729,-0.957973,0,0,0,0,0,0,0,0,0,0,0.105963,-0.782345,0,-1.5,1.31052e-38,0,0,0,-3.68757,18.4673,0.0078125,0.867188,0,0,-3.58402,22.2729,1.9603e-19,0,0,0,0,0,0,0,0,0,2.5,-2.5
7761,-0.152344,0,-3.23145,0.00850035,0.0243244,-0.00274353,-2.64914,-0.936689,-0.959116,0,0,0,-3.75215,18.8711,-3.59035,22.5212,-0.959116,0,0,0,0,0,0,0,0,0,0,0.106657,-0.782223,0,-1.5,1.31052e-38,0,0,0,-3.75215,18.8711,0.0078125,0.867188,0,0,-3.59035,22.5212,1.9603e-19,0,0,0,0,0,0,0,0,0,2.5,-2.5
7777,-0.152344,0,3.33691,0.00898748,0.023972,-0.00211434,-2.64762,-0.93816,-0.960308,0,0,0,-3.80965,19.2338,-3.59532,22.7419,-0.960308,0,0,0,0,0,0,0,0,0,0,0.107382,-0.782096,0,-1.5,1.31052e-38,0,0,0,-3.80965,19.2338,0.0078125,0.867188,0,0,-3.59532,22.7419,1.9603e-19,0,0,0,0,0,0,0,0,0,2.5,-2.5
7793,-0.152344,0,-2.72754,0.00816072,0.0239325,-0.00192056,-2.64461,-0.941058,-0.96269,0,0,0,-3.86723,19.6,-3.59964,22.963,-0.961511,0,0,0,0,0,0,0,0,0,0,0.108113,-0.781966,0,-1.5,1.31052e-38,0,0,0,-3.86723,19.6,0.0078125,0.867188,0,0,-3.59964,22.963,1.9603e-19,0,0,0,0,0,0,0,0,0,2.5,-2.5
7810,-0.152344,0,-1.24316,0.00970343,0.0235817,-0.00260341,-2.64305,-0.942532,-0.963907,0,0,0,-3.92846,19.9929,-3.60345,23.1983,-0.96269,0,0,0,0,0,0,0,0,0,0,0.108829,-0.781838,0,-1.5,1.31052e-38,0,0,0,-3.92846,19.9929,0.0078125,0.867188,0,0,-3.60345,23.1983,1.9603e-19,0,0,0,0,0,0,0,0,0,2.5,-2.5
7826,-0.152344,0,1.58301,0.00876976,0.0232845,-0.00244837,-2.64158,-0.943941,-0.965086,0,0,0,-3.98615,20.3664,-3.60592,23.4213,-0.965086,0,0,0,0,0,0,0,0,0,0,0.110283,-0.781576,0,-1.5,1.31052e-38,0,0,0,-3.98615,20.3664,0.0078125,0.867188,0,0,-3.60592,23.4213,1.9603e-19,0,0,0,0,0,0,0,0,0,2.5,-2.5
7843,-0.152344,0,-6.43652,0.00915637,0.0247027,-0.00206491,-2.64002,-0.94542,-0.966334,0,0,0,-4.04747,20.7671,-3.60783,23.6586,-0.966334,0,0,0,0,0,0,0,0,0,0,0.111041,-0.781438,0,-1.5,1.31052e-38,0,0,0,-4.04747,20.7671,0.0078125,0.867188,0,0,-3.60783,23.6586,1.9603e-19,0,0,0,0,0,0,0,0,0,2.5,-2.5
7859,-0.152344,0,2.88086,0.00895024,0.0238526,-0.00239739,-2.63846,-0.946902,-0.967574,0,0,0,-4.1016,21.1241,-3.6088,23.8684,-0.967574,0,0,0,0,0,0,0,0,0,0,0.111794,-0.7813,0,-1.5,1.31052e-38,0,0,0,-4.1016,21.1241,0.0078125,0.867188,0,0,-3.6088,23.8684,1.9603e-19,0,0,0,0,0,0,0,0,0,2.5,-2.5
7875,-0.152344,0,-1.36621,0.00869836,0.0249519,-0.00183992,-2.63693,-0.948329,-0.968795,0,0,0,-4.16295,21.5324,-3.60918,24.1065,-0.968795,0,0,0,0,0,0,0,0,0,0,0.112535,-0.781163,0,-1.5,1.31052e-38,0,0,0,-4.16295,21.5324,0.0078125,0.867188,0,0,-3.60918,24.1065,1.9603e-19,0,0,0,0,0,0,0,0,0,2.5,-2.5
7891,-0.152344,0,6.72168,0.0089284,0.0236558,-0.00139192,-2.63375,-0.951291,-0.971334,0,0,0,-4.21709,21.8961,-3.60889,24.3168,-0.970056,0,0,0,0,0,0,0,0,0,0,0.1133,-0.78102,0,-1.5,1.31052e-38,0,0,0,-4.21709,21.8961,0.0078125,0.867188,0,0,-3.60889,24.3168,1.9603e-19,0,0,0,0,0,0,0,0,0,2.5,-2.5
7908,-0.152344,0,-6.16699,0.0094422,0.0246083,-0.0015797,-2.63221,-0.952716,-0.97258,0,0,0,-4.28204,22.3368,-3.60759,24.5701,-0.97258,0,0,0,0,0,0,0,0,0,0,0.11483,-0.780732,0,-1.5,1.31052e-38,0,0,0,-4.28204,22.3368,0.0078125,0.867188,0,0,-3.60759,24.5701,1.9603e-19,0,0,0,0,0,0,0,0,0,2.5,-2.5
7923,-0.152344,0,-3.23535,0.00973289,0.0246957,-0.00272681,-2.6306,-0.954208,-0.973861,0,0,0,-4.33613,22.7073,-3.60551,24.7823,-0.973861,0,0,0,0,0,0,0,0,0,0,0.115607,-0.780585,0,-1.5,1.31052e-38,0,0,0,-4.33613,22.7073,0.0078125,0.867188,0,0,-3.60551,24.7823,1.9603e-19,0,0,0,0,0,0,0,0,0,2.5,-2.5
7938,-0.152344,0,3.34473,0.00926003,0.0250471,-0.00158572,-2.62905,-0.955642,-0.975106,0,0,0,-4.39019,23.0811,-3.60267,24.9952,-0.975106,0,0,0,0,0,0,0,0,0,0,0.116362,-0.78044,0,-1.5,1.31052e-38,0,0,0,-4.39019,23.0811,0.0078125,0.867188,0,0,-3.60267,24.9952,1.9603e-19,0,0,0,0,0,0,0,0,0,2.5,-2.5
7955,-0.152344,0,-2.11426,0.00889498,0.0239308,-0.00230481,-2.62743,-0.957116,-0.976407,0,0,0,-4.45139,23.5087,-3.5986,25.2372,-0.976407,0,0,0,0,0,0,0,0,0,0,0.117149,-0.780289,0,-1.5,1.31052e-38,0,0,0,-4.45139,23.5087,0.0078125,0.867188,0,0,-3.5986,25.2372,1.9603e-19,0,0,0,0,0,0,0,0,0,2.5,-2.5
7971,-0.152344,0,-2.53223,0.00918921,0.0244775,-0.00217474,-2.62579,-0.958594,-0.977716,0,0,0,-4.50892,23.9149,-3.59406,25.4652,-0.977716,0,0,0,0,0,0,0,0,0,0,0.117943,-0.780135,0,-1.5,1.31052e-38,0,0,0,-4.50892,23.9149,0.0078125,0.867188,0,0,-3.59406,25.4652,1.9603e-19,0,0,0,0,0,0,0,0,0,2.5,-2.5
7987,-0.152344,0,1.56445,0.00941102,0.0251252,-0.00261561,-2.62258,-0.961524,-0.980295,0,0,0,-4.56638,24.3247,-3.58907,25.6929,-0.977716,0,0,0,0,0,0,0,0,0,0,0.117943,-0.780135,0,-1.5,1.31052e-38,0,0,0,-4.56638,24.3247,0.0078125,0.867188,0,0,-3.58907,25.6929,1.9603e-19,0,0,0,0,0,0,0,0,0,2.5,-2.5
8003,-0.152344,0,-6.4248,0.00911306,0.0242492,-0.0031439,-2.62101,-0.962953,-0.98156,0,0,0,-4.62374,24.7382,-3.58336,25.921,-0.980295,0,0,0,0,0,0,0,0,0,0,0.119505,-0.779828,0,-1.5,1.31052e-38,0,0,0,-4.62374,24.7382,0.0078125,0.867188,0,0,-3.58336,25.921,1.9603e-19,0,0,0,0,0,0,0,0,0,2.5,-2.5
8020,-0.152344,0,2.9043,0.00869843,0.0241416,-0.000948619,-2.61934,-0.964424,-0.982919,0,0,0,-4.681,25.1553,-3.57606,26.1517,-0.982919,0,0,0,0,0,0,0,0,0,0,0.121093,-0.779513,0,-1.5,1.31052e-38,0,0,0,-4.681,25.1553,0.0078125,0.867188,0,0,-3.57606,26.1517,1.9603e-19,0,0,0,0,0,0,0,0,0,2.5,-2.5
8036,-0.152344,0,-1.32227,0.00923091,0.0251816,-0.00274356,-2.61768,-0.965917,-0.984254,0,0,0,-4.73813,25.5762,-3.56789,26.3832,-0.984254,0,0,0,0,0,0,0,0,0,0,0.1219,-0.779351,0,-1.5,1.31052e-38,0,0,0,-4.73813,25.5762,0.0078125,0.867188,0,0,-3.56789,26.3832,1.9603e-19,0,0,0,0,0,0,0,0,0,2.5,-2.5
8052,-0.152344,0,-1.56152,0.00897856,0.0239972,-0.00198752,-2.61606,-0.967337,-0.985568,0,0,0,-4.79869,26.0274,-3.55827,26.6299,-0.985568,0,0,0,0,0,0,0,0,0,0,0.122695,-0.77919,0,-1.5,1.31052e-38,0,0,0,-4.79869,26.0274,0.0078125,0.867188,0,0,-3.55827,26.6299,1.9603e-19,0,0,0,0,0,0,0,0,0,2.5,-2.5
8068,-0.152344,0,6.72949,0.00869399,0.0251966,-0.00136265,-2.61435,-0.968826,-0.986956,0,0,0,-4.85552,26.4559,-3.54847,26.8625,-0.986956,0,0,0,0,0,0,0,0,0,0,0.123534,-0.779019,0,-1.5,1.31052e-38,0,0,0,-4.85552,26.4559,0.0078125,0.867188,0,0,-3.54847,26.8625,1.9603e-19,0,0,0,0,0,0,0,0,0,2.5,-2.5
8084,-0.152344,0,-3.25391,0.0107601,0.0247525,-0.00204432,-2.61108,-0.971712,-0.989609,0,0,0,-4.91218,26.8882,-3.53819,27.0947,-0.986956,0,0,0,0,0,0,0,0,0,0,0.123534,-0.779019,0,-1.5,1.31052e-38,0,0,0,-4.91218,26.8882,0.0078125,0.867188,0,0,-3.53819,27.0947,1.9603e-19,0,0,0,0,0,0,0,0,0,2.5,-2.5
8100,-0.152344,0,3.30566,0.00967426,0.0250007,-0.00307662,-2.60935,-0.973212,-0.991006,0,0,0,-4.96869,27.3241,-3.52705,27.3276,-0.989609,0,0,0,0,0,0,0,0,0,0,0.125138,-0.778689,0,-1.5,1.31052e-38,0,0,0,-4.96869,27.3241,0.0078125,0.867188,0,0,-3.52705,27.3276,1.9603e-19,0,0,0,0,0,0,0,0,0,2.5,-2.5
8116,-0.152344,0,-2.12402,0.00924179,0.0259692,-0.00251883,-2.60767,-0.97465,-0.992385,0,0,0,-5.02499,27.7637,-3.51418,27.5634,-0.992385,0,0,0,0,0,0,0,0,0,0,0.126815,-0.778339,0,-1.5,1.31052e-38,0,0,0,-5.02499,27.7637,0.0078125,0.867188,0,0,-3.51418,27.5634,1.9603e-19,0,0,0,0,0,0,0,0,0,2.5,-2.5
8132,-0.152344,0,-2.73438,0.0103793,0.0255564,-0.00214033,-2.60591,-0.976147,-0.993802,0,0,0,-5.08107,28.2072,-3.50044,27.7999,-0.993802,0,0,0,0,0,0,0,0,0,0,0.12767,-0.778159,0,-1.5,1.31052e-38,0,0,0,-5.08107,28.2072,0.0078125,0.867188,0,0,-3.50044,27.7999,1.9603e-19,0,0,0,0,0,0,0,0,0,2.5,-2.5
8148,-0.152344,0,-2.73438,0.0103793,0.0255564,-0.00214033,-2.60591,-0.976147,-0.993802,0,0,0,-5.13693,28.6544,-3.4861,28.0364,-0.993802,0,0,0,0,0,0,0,0,0,0,0.12767,-0.778159,0,-1.5,1.31052e-38,0,0,0,-5.13693,28.6544,0.0078125,0.867188,0,0,-3.4861,28.0364,1.9603e-19,0,0,0,0,0,0,0,0,0,2.5,-2.5
8164,-0.152344,0,1.54492,0.00985897,0.0244975,-0.00213697,-2.60248,-0.979069,-0.996601,0,0,0,-5.19256,29.1054,-3.47104,28.2731,-0.996601,0,0,0,0,0,0,0,0,0,0,0.129359,-0.777799,0,-1.5,1.31052e-38,0,0,0,-5.19256,29.1054,0.0078125,0.867188,0,0,-3.47104,28.2731,1.9603e-19,0,0,0,0,0,0,0,0,0,2.5,-2.5
8180,-0.152344,0,2.9082,0.00872775,0.0252908,-0.00145433,-2.59899,-0.981974,-0.999457,0,0,0,-5.24793,29.5603,-3.45504,28.5107,-0.996601,0,0,0,0,0,0,0,0,0,0,0.129359,-0.777799,0,-1.5,1.31052e-38,0,0,0,-5.24793,29.5603,0.0078125,0.867188,0,0,-3.45504,28.5107,1.9603e-19,0,0,0,0,0,0,0,0,0,2.5,-2.5
8196,-0.152344,0,-1.35645,0.0090726,0.024804,-0.00227079,-2.59722,-0.983461,-1.00091,0,0,0,-5.30304,30.0189,-3.43818,28.7489,-0.999457,0,0,0,0,0,0,0,0,0,0,0.131082,-0.777428,0,-1.5,1.31052e-38,0,0,0,-5.30304,30.0189,0.0078125,0.867188,0,0,-3.43818,28.7489,1.9603e-19,0,0,0,0,0,0,0,0,0,2.5,-2.5
8213,-0.152344,0,-1.58398,0.00965646,0.0256383,-0.00341935,-2.59551,-0.984901,-1.0023,0,0,0,-5.36127,30.5105,-3.41817,29.0054,-1.0023,0,0,0,0,0,0,0,0,0,0,0.132797,-0.777052,0,-1.5,1.31052e-38,0,0,0,-5.36127,30.5105,0.0078125,0.867188,0,0,-3.41817,29.0054,1.9603e-19,0,0,0,0,0,0,0,0,0,2.5,-2.5
8230,-0.152344,0,6.74121,0.0091078,0.0258918,-0.00276422,-2.59377,-0.986338,-1.00373,0,0,0,-5.41915,31.0064,-3.39709,29.2628,-1.00373,0,0,0,0,0,0,0,0,0,0,0.13366,-0.776861,0,-1.5,1.31052e-38,0,0,0,-5.41915,31.0064,0.0078125,0.867188,0,0,-3.39709,29.2628,1.9603e-19,0,0,0,0,0,0,0,0,0,2.5,-2.5
8246,-0.152344,0,6.74121,0.0091078,0.0258918,-0.00276422,-2.59377,-0.986338,-1.00373,0,0,0,-5.47329,31.4772,-3.37669,29.505,-1.00373,0,0,0,0,0,0,0,0,0,0,0.13366,-0.776861,0,-1.5,1.31052e-38,0,0,0,-5.47329,31.4772,0.0078125,0.867188,0,0,-3.37669,29.505,1.9603e-19,0,0,0,0,0,0,0,0,0,2.5,-2.5
8262,-0.152344,0,-3.2168,0.0104024,0.0252491,-0.00319727,-2.59021,-0.989281,-1.00664,0,0,0,-5.5271,31.9518,-3.35565,29.7472,-1.00664,0,0,0,0,0,0,0,0,0,0,0.135411,-0.77647,0,-1.5,1.31052e-38,0,0,0,-5.5271,31.9518,0.0078125,0.867188,0,0,-3.35565,29.7472,1.9603e-19,0,0,0,0,0,0,0,0,0,2.5,-2.5
8279,-0.152344,0,-2.14648,0.00982856,0.0251062,-0.00160889,-2.58651,-0.992243,-1.00971,0,0,0,-5.58388,32.4603,-3.33159,30.0069,-1.00817,0,0,0,0,0,0,0,0,0,0,0.136334,-0.776262,0,-1.5,1.31052e-38,0,0,0,-5.58388,32.4603,0.0078125,0.867188,0,0,-3.33159,30.0069,1.9603e-19,0,0,0,0,0,0,0,0,0,2.5,-2.5
8295,-0.152344,0,-2.73633,0.00941778,0.025809,-0.00330702,-2.58473,-0.993688,-1.01118,0,0,0,-5.63694,32.943,-3.3072,30.2538,-1.01118,0,0,0,0,0,0,0,0,0,0,0.138143,-0.775849,0,-1.5,1.31052e-38,0,0,0,-5.63694,32.943,0.0078125,0.867188,0,0,-3.3072,30.2538,1.9603e-19,0,0,0,0,0,0,0,0,0,2.5,-2.5
8311,-0.152344,0,-2.73633,0.00941778,0.025809,-0.00330702,-2.58473,-0.993688,-1.01118,0,0,0,-5.68959,33.4296,-3.28203,30.5011,-1.01118,0,0,0,0,0,0,0,0,0,0,0.138143,-0.775849,0,-1.5,1.31052e-38,0,0,0,-5.68959,33.4296,0.0078125,0.867188,0,0,-3.28203,30.5011,1.9603e-19,0,0,0,0,0,0,0,0,0,2.5,-2.5
8327,-0.152344,0,-2.73633,0.00941778,0.025809,-0.00330702,-2.58473,-0.993688,-1.01118,0,0,0,-5.74185,33.9201,-3.25705,30.7466,-1.01118,0,0,0,0,0,0,0,0,0,0,0.138143,-0.775849,0,-1.5,1.31052e-38,0,0,0,-5.74185,33.9201,0.0078125,0.867188,0,0,-3.25705,30.7466,1.9603e-19,0,0,0,0,0,0,0,0,0,2.5,-2.5
8343,-0.152344,0,-6.4375,0.00973684,0.0259471,-0.00210271,-2.57917,-0.998102,-1.01576,0,0,0,-5.7937,34.4147,-3.23094,30.9933,-1.01576,0,0,0,0,0,0,0,0,0,0,0.140894,-0.77521,0,-1.5,1.31052e-38,0,0,0,-5.7937,34.4147,0.0078125,0.867188,0,0,-3.23094,30.9933,1.9603e-19,0,0,0,0,0,0,0,0,0,2.5,-2.5
8360,-0.152344,0,-1.36914,0.00852916,0.0257836,-0.00223162,-2.57544,-1.00102,-1.01887,0,0,0,-5.84829,34.9445,-3.20064,31.2595,-1.01733,0,0,0,0,0,0,0,0,0,0,0.14184,-0.774988,0,-1.5,1.31052e-38,0,0,0,-5.84829,34.9445,0.0078125,0.867188,0,0,-3.20064,31.2595,1.9603e-19,0,0,0,0,0,0,0,0,0,2.5,-2.5
8376,-0.152344,0,-1.58203,0.010746,0.0249473,-0.00206353,-2.57351,-1.0025,-1.02046,0,0,0,-5.8992,35.4472,-3.17089,31.5113,-1.01887,0,0,0,0,0,0,0,0,0,0,0.142761,-0.77477,0,-1.5,1.31052e-38,0,0,0,-5.8992,35.4472,0.0078125,0.867188,0,0,-3.17089,31.5113,1.9603e-19,0,0,0,0,0,0,0,0,0,2.5,-2.5
8392,-0.152344,0,6.75586,0.00989836,0.0259527,-0.00256821,-2.57158,-1.00399,-1.02206,0,0,0,-5.94961,35.9539,-3.13933,31.7656,-1.02206,0,0,0,0,0,0,0,0,0,0,0.144679,-0.77431,0,-1.5,1.31052e-38,0,0,0,-5.94961,35.9539,0.0078125,0.867188,0,0,-3.13933,31.7656,1.9603e-19,0,0,0,0,0,0,0,0,0,2.5,-2.5
8500,-0.152344,0,-6.44336,0.0111627,0.0272725,-0.00265847,-2.55603,-1.01571,-1.03505,0,0,0,-6.26666,39.5577,-2.91747,33.4908,-1.03341,0,0,0,0,0,0,0,0,0,0,0.151477,-0.77263,0,-1.5,1.31052e-38,0,0,0,-6.26666,39.5577,0.0078125,0.867188,0,0,-2.91747,33.4908,1.9603e-19,0,0,0,0,0,0,0,0,0,2.5,-2.5
8589,-0.152344,0,-3.21094,0.0115415,0.0265007,-0.00316239,-2.54386,-1.02455,-1.04522,0,0,0,-6.50761,42.6573,-2.68267,34.9687,-1.04522,0,0,0,0,0,0,0,0,0,0,0.158528,-0.7708,0,-1.5,1.31052e-38,0,0,0,-6.50761,42.6573,0.0078125,0.867188,0,0,-2.68267,34.9687,1.9603e-19,0,0,0,0,0,0,0,0,0,2.5,-2.5
8606,-0.152344,0,3.31738,0.00987087,0.0268429,-0.00350606,-2.54177,-1.02605,-1.04698,0,0,0,-6.55264,43.2549,-2.62986,35.2593,-1.04698,0,0,0,0,0,0,0,0,0,0,0.159581,-0.770519,0,-1.5,1.31052e-38,0,0,0,-6.55264,43.2549,0.0078125,0.867188,0,0,-2.62986,35.2593,1.9603e-19,0,0,0,0,0,0,0,0,0,2.5,-2.5
8622,-0.152344,0,-2.16699,0.0098544,0.0262274,-0.00326033,-2.53974,-1.02749,-1.04869,0,0,0,-6.59163,43.7863,-2.5821,35.5166,-1.04869,0,0,0,0,0,0,0,0,0,0,0.160598,-0.770246,0,-1.5,1.31052e-38,0,0,0,-6.59163,43.7863,0.0078125,0.867188,0,0,-2.5821,35.5166,1.9603e-19,0,0,0,0,0,0,0,0,0,2.5,-2.5
8638,-0.152344,0,-1.2334,0.0108767,0.026744,-0.00305985,-2.53555,-1.03042,-1.05222,0,0,0,-6.6349,44.3934,-2.52669,35.8095,-1.05049,0,0,0,0,0,0,0,0,0,0,0.161667,-0.769957,0,-1.5,1.31052e-38,0,0,0,-6.6349,44.3934,0.0078125,0.867188,0,0,-2.52669,35.8095,1.9603e-19,0,0,0,0,0,0,0,0,0,2.5,-2.5
8654,-0.152344,0,1.55566,0.0114176,0.0265692,-0.00314022,-2.53339,-1.0319,-1.05403,0,0,0,-6.67475,44.9693,-2.47194,36.0887,-1.05403,0,0,0,0,0,0,0,0,0,0,0.163776,-0.76938,0,-1.5,1.31052e-38,0,0,0,-6.67475,44.9693,0.0078125,0.867188,0,0,-2.47194,36.0887,1.9603e-19,0,0,0,0,0,0,0,0,0,2.5,-2.5
8671,-0.152344,0,-6.43945,0.00974333,0.0278496,-0.00291169,-2.53123,-1.0334,-1.05586,0,0,0,-6.71612,45.5861,-2.41212,36.3871,-1.05586,0,0,0,0,0,0,0,0,0,0,0.164867,-0.769079,0,-1.5,1.31052e-38,0,0,0,-6.71612,45.5861,0.0078125,0.867188,0,0,-2.41212,36.3871,1.9603e-19,0,0,0,0,0,0,0,0,0,2.5,-2.5
8687,-0.152344,0,2.8877,0.0099353,0.027962,-0.0017152,-2.52912,-1.03484,-1.05767,0,0,0,-6.75411,46.1712,-2.3542,36.6697,-1.05767,0,0,0,0,0,0,0,0,0,0,0.165939,-0.768781,0,-1.5,1.31052e-38,0,0,0,-6.75411,46.1712,0.0078125,0.867188,0,0,-2.3542,36.6697,1.9603e-19,0,0,0,0,0,0,0,0,0,2.5,-2.5
8703,-0.152344,0,-1.3584,0.00991332,0.0266074,-0.00125628,-2.52689,-1.03631,-1.05955,0,0,0,-6.79116,46.7609,-2.29487,36.9536,-1.05955,0,0,0,0,0,0,0,0,0,0,0.167059,-0.768467,0,-1.5,1.31052e-38,0,0,0,-6.79116,46.7609,0.0078125,0.867188,0,0,-2.29487,36.9536,1.9603e-19,0,0,0,0,0,0,0,0,0,2.5,-2.5
8719,-0.152344,0,6.69531,0.0115013,0.0274461,-0.00180795,-2.5226,-1.03918,-1.06319,0,0,0,-6.82724,47.3552,-2.23411,37.2388,-1.06135,0,0,0,0,0,0,0,0,0,0,0.168125,-0.768166,0,-1.5,1.31052e-38,0,0,0,-6.82724,47.3552,0.0078125,0.867188,0,0,-2.23411,37.2388,1.9603e-19,0,0,0,0,0,0,0,0,0,2.5,-2.5
8735,-0.152344,0,-6.17773,0.0106457,0.0272241,-0.00204831,-2.52034,-1.04066,-1.06511,0,0,0,-6.86234,47.954,-2.17171,37.5258,-1.06319,0,0,0,0,0,0,0,0,0,0,0.169223,-0.767854,0,-1.5,1.31052e-38,0,0,0,-6.86234,47.954,0.0078125,0.867188,0,0,-2.17171,37.5258,1.9603e-19,0,0,0,0,0,0,0,0,0,2.5,-2.5
8752,-0.152344,0,-3.24121,0.0103062,0.0274156,-0.00179087,-2.51817,-1.04209,-1.06697,0,0,0,-6.89847,48.5955,-2.10253,37.8346,-1.06697,0,0,0,0,0,0,0,0,0,0,0.171462,-0.767211,0,-1.5,1.31052e-38,0,0,0,-6.89847,48.5955,0.0078125,0.867188,0,0,-2.10253,37.8346,1.9603e-19,0,0,0,0,0,0,0,0,0,2.5,-2.5
8767,-0.152344,0,3.34082,0.00997903,0.0276463,-0.00269095,-2.51592,-1.04357,-1.06888,0,0,0,-6.92942,49.1655,-2.03984,38.1087,-1.06888,0,0,0,0,0,0,0,0,0,0,0.172596,-0.766881,0,-1.5,1.31052e-38,0,0,0,-6.92942,49.1655,0.0078125,0.867188,0,0,-2.03984,38.1087,1.9603e-19,0,0,0,0,0,0,0,0,0,2.5,-2.5
8782,-0.152344,0,3.34082,0.00997903,0.0276463,-0.00269095,-2.51592,-1.04357,-1.06888,0,0,0,-6.9594,49.7398,-1.97618,38.3836,-1.06888,0,0,0,0,0,0,0,0,0,0,0.172596,-0.766881,0,-1.5,1.31052e-38,0,0,0,-6.9594,49.7398,0.0078125,0.867188,0,0,-1.97618,38.3836,1.9603e-19,0,0,0,0,0,0,0,0,0,2.5,-2.5
8798,-0.152344,0,-2.56641,0.00929479,0.0277989,-0.00172405,-2.51145,-1.04648,-1.07272,0,0,0,-6.99031,50.357,-1.9072,38.6774,-1.07272,0,0,0,0,0,0,0,0,0,0,0.174865,-0.766216,0,-1.5,1.31052e-38,0,0,0,-6.99031,50.357,0.0078125,0.867188,0,0,-1.9072,38.6774,1.9603e-19,0,0,0,0,0,0,0,0,0,2.5,-2.5
8815,-0.152344,0,-2.56641,0.00929479,0.0277989,-0.00172405,-2.51145,-1.04648,-1.07272,0,0,0,-7.02008,50.979,-1.83615,38.9737,-1.07272,0,0,0,0,0,0,0,0,0,0,0.174865,-0.766216,0,-1.5,1.31052e-38,0,0,0,-7.02008,50.979,0.0078125,0.867188,0,0,-1.83615,38.9737,1.9603e-19,0,0,0,0,0,0,0,0,0,2.5,-2.5
8831,-0.152344,0,-6.45312,0.0109048,0.027385,-0.00258316,-2.50457,-1.05086,-1.07861,0,0,0,-7.05046,51.645,-1.75935,39.2894,-1.0766,0,0,0,0,0,0,0,0,0,0,0.177164,-0.765532,0,-1.5,1.31052e-38,0,0,0,-7.05046,51.645,0.0078125,0.867188,0,0,-1.75935,39.2894,1.9603e-19,0,0,0,0,0,0,0,0,0,2.5,-2.5
8847,-0.152344,0,2.87988,0.010689,0.0278293,-0.00258998,-2.50221,-1.05235,-1.08062,0,0,0,-7.07784,52.2767,-1.68385,39.5909,-1.07861,0,0,0,0,0,0,0,0,0,0,0.178348,-0.765175,0,-1.5,1.31052e-38,0,0,0,-7.07784,52.2767,0.0078125,0.867188,0,0,-1.68385,39.5909,1.9603e-19,0,0,0,0,0,0,0,0,0,2.5,-2.5
8863,-0.152344,0,-1.32227,0.008994,0.0280323,-0.0027778,-2.49994,-1.05377,-1.08258,0,0,0,-7.10396,52.9134,-1.60506,39.8967,-1.08258,0,0,0,0,0,0,0,0,0,0,0.180694,-0.764462,0,-1.5,1.31052e-38,0,0,0,-7.10396,52.9134,0.0078125,0.867188,0,0,-1.60506,39.8967,1.9603e-19,0,0,0,0,0,0,0,0,0,2.5,-2.5
8879,-0.152344,0,-1.32227,0.008994,0.0280323,-0.0027778,-2.49994,-1.05377,-1.08258,0,0,0,-7.1288,53.5549,-1.52517,40.2033,-1.08258,0,0,0,0,0,0,0,0,0,0,0.180694,-0.764462,0,-1.5,1.31052e-38,0,0,0,-7.1288,53.5549,0.0078125,0.867188,0,0,-1.52517,40.2033,1.9603e-19,0,0,0,0,0,0,0,0,0,2.5,-2.5
8896,-0.152344,0,6.71191,0.00991959,0.0273557,-0.00099689,-2.49514,-1.05669,-1.08671,0,0,0,-7.15379,54.242,-1.43882,40.5301,-1.08671,0,0,0,0,0,0,0,0,0,0,0.183128,-0.763711,0,-1.5,1.31052e-38,0,0,0,-7.15379,54.242,0.0078125,0.867188,0,0,-1.43882,40.5301,1.9603e-19,0,0,0,0,0,0,0,0,0,2.5,-2.5
8912,-0.152344,0,-3.22949,0.0105821,0.0269415,-0.0034798,-2.49041,-1.05959,-1.09077,0,0,0,-7.17593,54.8937,-1.35533,40.8401,-1.08671,0,0,0,0,0,0,0,0,0,0,0.183128,-0.763711,0,-1.5,1.31052e-38,0,0,0,-7.17593,54.8937,0.0078125,0.867188,0,0,-1.35533,40.8401,1.9603e-19,0,0,0,0,0,0,0,0,0,2.5,-2.5
8928,-0.152344,0,3.30762,0.00957973,0.0287131,-0.00286998,-2.48808,-1.06102,-1.09278,0,0,0,-7.19674,55.5504,-1.27002,41.152,-1.09077,0,0,0,0,0,0,0,0,0,0,0.185518,-0.762963,0,-1.5,1.31052e-38,0,0,0,-7.19674,55.5504,0.0078125,0.867188,0,0,-1.27002,41.152,1.9603e-19,0,0,0,0,0,0,0,0,0,2.5,-2.5
8944,-0.152344,0,-2.1543,0.0115589,0.0277154,-0.00283313,-2.48565,-1.06249,-1.09487,0,0,0,-7.21613,56.2121,-1.18137,41.4682,-1.09487,0,0,0,0,0,0,0,0,0,0,0.18793,-0.762197,0,-1.5,1.31052e-38,0,0,0,-7.21613,56.2121,0.0078125,0.867188,0,0,-1.18137,41.4682,1.9603e-19,0,0,0,0,0,0,0,0,0,2.5,-2.5
8960,-0.152344,0,-2.70605,0.0109244,0.028332,-0.00278381,-2.48318,-1.06397,-1.097,0,0,0,-7.23407,56.879,-1.08925,41.7889,-1.097,0,0,0,0,0,0,0,0,0,0,0.189182,-0.761796,0,-1.5,1.31052e-38,0,0,0,-7.23407,56.879,0.0078125,0.867188,0,0,-1.08925,41.7889,1.9603e-19,0,0,0,0,0,0,0,0,0,2.5,-2.5
8977,-0.152344,0,-1.21875,0.0103387,0.0280316,-0.00166275,-2.48078,-1.06538,-1.09907,0,0,0,-7.25146,57.5933,-0.989014,42.1323,-1.09907,0,0,0,0,0,0,0,0,0,0,0.1904,-0.761402,0,-1.5,1.31052e-38,0,0,0,-7.25146,57.5933,0.0078125,0.867188,0,0,-0.989014,42.1323,1.9603e-19,0,0,0,0,0,0,0,0,0,2.5,-2.5
8992,-0.152344,0,1.55371,0.0109347,0.0284158,-0.00258071,-2.47829,-1.06685,-1.10122,0,0,0,-7.26542,58.2282,-0.898631,42.4371,-1.10122,0,0,0,0,0,0,0,0,0,0,0.19166,-0.760992,0,-1.5,1.31052e-38,0,0,0,-7.26542,58.2282,0.0078125,0.867188,0,0,-0.898631,42.4371,1.9603e-19,0,0,0,0,0,0,0,0,0,2.5,-2.5
9008,-0.152344,0,-6.49023,0.0102612,0.0282421,-0.002412,-2.47586,-1.06827,-1.10333,0,0,0,-7.2788,58.9105,-0.800075,42.7646,-1.10333,0,0,0,0,0,0,0,0,0,0,0.192898,-0.760586,0,-1.5,1.31052e-38,0,0,0,-7.2788,58.9105,0.0078125,0.867188,0,0,-0.800075,42.7646,1.9603e-19,0,0,0,0,0,0,0,0,0,2.5,-2.5
9024,-0.152344,0,-1.3252,0.0110147,0.0282893,-0.0029159,-2.4708,-1.0712,-1.10772,0,0,0,-7.29058,59.5981,-0.699466,43.0942,-1.10552,0,0,0,0,0,0,0,0,0,0,0.19418,-0.760162,0,-1.5,1.31052e-38,0,0,0,-7.29058,59.5981,0.0078125,0.867188,0,0,-0.699466,43.0942,1.9603e-19,0,0,0,0,0,0,0,0,0,2.5,-2.5
9040,-0.152344,0,-1.3252,0.0110147,0.0282893,-0.0029159,-2.4708,-1.0712,-1.10772,0,0,0,-7.3007,60.2911,-0.596527,43.4263,-1.10772,0,0,0,0,0,0,0,0,0,0,0.195466,-0.759734,0,-1.5,1.31052e-38,0,0,0,-7.3007,60.2911,0.0078125,0.867188,0,0,-0.596527,43.4263,1.9603e-19,0,0,0,0,0,0,0,0,0,2.5,-2.5
9057,-0.152344,0,6.73438,0.0102457,0.0281138,-0.0025413,-2.4658,-1.07407,-1.11205,0,0,0,-7.30959,61.0334,-0.48496,43.7813,-1.11205,0,0,0,0,0,0,0,0,0,0,0.198003,-0.758881,0,-1.5,1.31052e-38,0,0,0,-7.30959,61.0334,0.0078125,0.867188,0,0,-0.48496,43.7813,1.9603e-19,0,0,0,0,0,0,0,0,0,2.5,-2.5
9074,-0.152344,0,-6.18066,0.0109422,0.0280003,-0.00260403,-2.4633,-1.07548,-1.11422,0,0,0,-7.31655,61.7816,-0.368257,44.143,-1.11422,0,0,0,0,0,0,0,0,0,0,0.199268,-0.758451,0,-1.5,1.31052e-38,0,0,0,-7.31655,61.7816,0.0078125,0.867188,0,0,-0.368257,44.143,1.9603e-19,0,0,0,0,0,0,0,0,0,2.5,-2.5
9090,-0.152344,0,-3.25195,0.0110153,0.0286972,-0.00223784,-2.46069,-1.07694,-1.11648,0,0,0,-7.32131,62.4914,-0.256143,44.4857,-1.11648,0,0,0,0,0,0,0,0,0,0,0.20059,-0.757998,0,-1.5,1.31052e-38,0,0,0,-7.32131,62.4914,0.0078125,0.867188,0,0,-0.256143,44.4857,1.9603e-19,0,0,0,0,0,0,0,0,0,2.5,-2.5
9106,-0.152344,0,-2.13574,0.0105147,0.0289412,-0.00264875,-2.45551,-1.07979,-1.12101,0,0,0,-7.32421,63.2068,-0.141853,44.8305,-1.1188,0,0,0,0,0,0,0,0,0,0,0.201939,-0.757533,0,-1.5,1.31052e-38,0,0,0,-7.32421,63.2068,0.0078125,0.867188,0,0,-0.141853,44.8305,1.9603e-19,0,0,0,0,0,0,0,0,0,2.5,-2.5
9122,-0.152344,0,-2.74219,0.0101569,0.0283974,-0.0014478,-2.45284,-1.08123,-1.12335,0,0,0,-7.32526,63.9277,-0.0248037,45.1784,-1.12101,0,0,0,0,0,0,0,0,0,0,0.203232,-0.757083,0,-1.5,1.31052e-38,0,0,0,-7.32526,63.9277,0.0078125,0.867188,0,0,-0.0248037,45.1784,1.9603e-19,0,0,0,0,0,0,0,0,0,2.5,-2.5
9139,-0.152344,0,-1.24512,0.0103547,0.0288664,-0.00189934,-2.45026,-1.08264,-1.12561,0,0,0,-7.32422,64.7,0.10428,45.5539,-1.12561,0,0,0,0,0,0,0,0,0,0,0.205906,-0.756144,0,-1.5,1.31052e-38,0,0,0,-7.32422,64.7,0.0078125,0.867188,0,0,0.10428,45.5539,1.9603e-19,0,0,0,0,0,0,0,0,0,2.5,-2.5
9155,-0.152344,0,1.52441,0.0110301,0.0272505,-0.0032877,-2.44758,-1.0841,-1.12794,0,0,0,-7.32129,65.4325,0.228575,45.9102,-1.12794,0,0,0,0,0,0,0,0,0,0,0.207261,-0.755662,0,-1.5,1.31052e-38,0,0,0,-7.32129,65.4325,0.0078125,0.867188,0,0,0.228575,45.9102,1.9603e-19,0,0,0,0,0,0,0,0,0,2.5,-2.5
9171,-0.152344,0,-6.46973,0.010169,0.0285346,-0.00364534,-2.4449,-1.08555,-1.13028,0,0,0,-7.3163,66.1709,0.355877,46.2699,-1.13028,0,0,0,0,0,0,0,0,0,0,0.208621,-0.755175,0,-1.5,1.31052e-38,0,0,0,-7.3163,66.1709,0.0078125,0.867188,0,0,0.355877,46.2699,1.9603e-19,0,0,0,0,0,0,0,0,0,2.5,-2.5
9187,-0.152344,0,2.86914,0.0104411,0.0284588,-0.00144953,-2.44227,-1.08694,-1.13259,0,0,0,-7.30929,66.9148,0.485731,46.6322,-1.13259,0,0,0,0,0,0,0,0,0,0,0.209962,-0.754692,0,-1.5,1.31052e-38,0,0,0,-7.30929,66.9148,0.0078125,0.867188,0,0,0.485731,46.6322,1.9603e-19,0,0,0,0,0,0,0,0,0,2.5,-2.5
9204,-0.152344,0,-1.3623,0.0109145,0.0274083,-0.00247412,-2.43956,-1.08837,-1.13496,0,0,0,-7.29949,67.7119,0.62636,47.0198,-1.13496,0,0,0,0,0,0,0,0,0,0,0.211336,-0.754193,0,-1.5,1.31052e-38,0,0,0,-7.29949,67.7119,0.0078125,0.867188,0,0,0.62636,47.0198,1.9603e-19,0,0,0,0,0,0,0,0,0,2.5,-2.5
9219,-0.152344,0,6.72754,0.0102742,0.0281702,-0.00256422,-2.43413,-1.0912,-1.13973,0,0,0,-7.28892,68.4204,0.751711,47.3625,-1.13496,0,0,0,0,0,0,0,0,0,0,0.211336,-0.754193,0,-1.5,1.31052e-38,0,0,0,-7.28892,68.4204,0.0078125,0.867188,0,0,0.751711,47.3625,1.9603e-19,0,0,0,0,0,0,0,0,0,2.5,-2.5
9234,-0.152344,0,-6.20117,0.00919539,0.0285298,-0.00193283,-2.43134,-1.09264,-1.14219,0,0,0,-7.27641,69.1341,0.883665,47.7138,-1.14219,0,0,0,0,0,0,0,0,0,0,0.186193,-0.739247,0,-1.5,1.31052e-38,0,0,0,-7.27641,69.1341,0.0078125,0.867188,0,0,0.883665,47.7138,1.9603e-19,0,0,0,0,0,0,0,0,0,2.5,-2.5
9250,-0.152344,0,-3.18848,0.0102538,0.0279285,-0.00197581,-2.42866,-1.09402,-1.14454,0,0,0,-7.26076,69.9015,1.0278,48.0923,-1.14454,0,0,0,0,0,0,0,0,0,0,0.15471,-0.723908,0,-1.5,1.31052e-38,0,0,0,-7.26076,69.9015,0.0078125,0.867188,0,0,1.0278,48.0923,1.9603e-19,0,0,0,0,0,0,0,0,0,2.5,-2.5
9266,-0.152344,0,3.3623,0.0104307,0.0290403,-0.00312231,-2.42585,-1.09547,-1.14703,0,0,0,-7.24277,70.675,1.17527,48.4744,-1.14703,0,0,0,0,0,0,0,0,0,0,0.122469,-0.708363,0,-1.5,1.31052e-38,0,0,0,-7.24277,70.675,0.0078125,0.867188,0,0,1.17527,48.4744,1.9603e-19,0,0,0,0,0,0,0,0,0,2.5,-2.5
9282,-0.152344,0,3.3623,0.0104307,0.0290403,-0.00312231,-2.42585,-1.09547,-1.14703,0,0,0,-7.2224,71.4546,1.3242,48.8574,-1.14703,0,0,0,0,0,0,0,0,0,0,0.0885303,-0.693053,0,-1.5,1.31052e-38,0,0,0,-7.2224,71.4546,0.0078125,0.867188,0,0,1.3242,48.8574,1.9603e-19,0,0,0,0,0,0,0,0,0,2.5,-2.5
9298,-0.152344,0,3.3623,0.0104307,0.0290403,-0.00312231,-2.42585,-1.09547,-1.14703,0,0,0,-7.19966,72.2403,1.47206,49.2376,-1.14703,0,0,0,0,0,0,0,0,0,0,0.0548351,-0.677853,0,-1.5,1.31052e-38,0,0,0,-7.19966,72.2403,0.0078125,0.867188,0,0,1.47206,49.2376,1.9603e-19,0,0,0,0,0,0,0,0,0,2.5,-2.5
9315,-0.152344,0,1.5332,0.0117162,0.0293149,-0.00181749,-2.41455,-1.10109,-1.15698,0,0,0,-7.17292,73.0818,1.62799,49.6386,-1.14703,0,0,0,0,0,0,0,0,0,0,0.019299,-0.661823,0,-1.5,1.31052e-38,0,0,0,-7.17292,73.0818,0.0078125,0.867188,0,0,1.62799,49.6386,1.9603e-19,0,0,0,0,0,0,0,0,0,2.5,-2.5
9331,-0.152344,0,-6.47656,0.0103495,0.0294665,-0.00332024,-2.41166,-1.10252,-1.15954,0,0,0,-7.14521,73.8801,1.79103,50.0379,-1.15954,0,0,0,0,0,0,0,0,0,0,-0.011964,-0.645249,0,-1.5,1.31052e-38,0,0,0,-7.14521,73.8801,0.0078125,0.867188,0,0,1.79103,50.0379,1.9603e-19,0,0,0,0,0,0,0,0,0,2.5,-2.5
9347,-0.152344,0,-6.47656,0.0103495,0.0294665,-0.00332024,-2.41166,-1.10252,-1.15954,0,0,0,-7.11481,74.6849,1.95683,50.4399,-1.15954,0,0,0,0,0,0,0,0,0,0,-0.0499577,-0.62868,0,-1.5,1.31052e-38,0,0,0,-7.11481,74.6849,0.0078125,0.867188,0,0,1.95683,50.4399,1.9603e-19,0,0,0,0,0,0,0,0,0,2.5,-2.5
9363,-0.152344,0,-1.3418,0.0103281,0.0294373,-0.00133734,-2.40586,-1.10532,-1.16467,0,0,0,-7.08176,75.4961,2.12488,50.8438,-1.16467,0,0,0,0,0,0,0,0,0,0,-0.086224,-0.612332,0,-1.5,1.31052e-38,0,0,0,-7.08176,75.4961,0.0078125,0.867188,0,0,2.12488,50.8438,1.9603e-19,0,0,0,0,0,0,0,0,0,2.5,-2.5
9380,-0.152344,0,-1.3418,0.0103281,0.0294373,-0.00133734,-2.40586,-1.10532,-1.16467,0,0,0,-7.04362,76.3653,2.30818,51.2782,-1.16467,0,0,0,0,0,0,0,0,0,0,-0.128323,-0.594228,0,-1.5,1.31052e-38,0,0,0,-7.04362,76.3653,0.0078125,0.867188,0,0,2.30818,51.2782,1.9603e-19,0,0,0,0,0,0,0,0,0,2.5,-2.5
9396,-0.152344,0,-6.1543,0.0106488,0.0284724,-0.00253918,-2.39701,-1.10951,-1.17249,0,0,0,-7.00743,77.1381,2.47238,51.6637,-1.16993,0,0,0,0,0,0,0,0,0,0,-0.163907,-0.57888,0,-1.5,1.31052e-38,0,0,0,-7.00743,77.1381,0.0078125,0.867188,0,0,2.47238,51.6637,1.9603e-19,0,0,0,0,0,0,0,0,0,2.5,-2.5
9412,-0.152344,0,-3.22754,0.00988904,0.0296523,-0.00182849,-2.39398,-1.11092,-1.1752,0,0,0,-6.96328,78.0213,2.66606,52.1097,-1.17249,0,0,0,0,0,0,0,0,0,0,-0.207498,-0.560519,0,-1.5,1.31052e-38,0,0,0,-6.96328,78.0213,0.0078125,0.867188,0,0,2.66606,52.1097,1.9603e-19,0,0,0,0,0,0,0,0,0,2.5,-2.5
9428,-0.152344,0,3.33496,0.0106331,0.0288947,-0.00250569,-2.39115,-1.11223,-1.17771,0,0,0,-6.91864,78.8596,2.85502,52.5374,-1.17771,0,0,0,0,0,0,0,0,0,0,-0.24912,-0.5435,0,-1.5,1.31052e-38,0,0,0,-6.91864,78.8596,0.0078125,0.867188,0,0,2.85502,52.5374,1.9603e-19,0,0,0,0,0,0,0,0,0,2.5,-2.5
9444,-0.152344,0,3.33496,0.0106331,0.0288947,-0.00250569,-2.39115,-1.11223,-1.17771,0,0,0,-6.871,79.7045,3.04685,52.9676,-1.17771,0,0,0,0,0,0,0,0,0,0,-0.29342,-0.525131,0,-1.5,1.31052e-38,0,0,0,-6.871,79.7045,0.0078125,0.867188,0,0,3.04685,52.9676,1.9603e-19,0,0,0,0,0,0,0,0,0,2.5,-2.5
9459,-0.152344,0,3.33496,0.0106331,0.0288947,-0.00250569,-2.39115,-1.11223,-1.17771,0,0,0,-6.82362,80.5028,3.22541,53.3681,-1.17771,0,0,0,0,0,0,0,0,0,0,-0.334656,-0.508031,0,-1.5,1.31052e-38,0,0,0,-6.82362,80.5028,0.0078125,0.867188,0,0,3.22541,53.3681,1.9603e-19,0,0,0,0,0,0,0,0,0,2.5,-2.5
9475,-0.152344,0,-1.31641,0.00961601,0.0293111,-0.00199577,-2.38201,-1.1164,-1.18585,0,0,0,-6.77,81.3612,3.42071,53.8006,-1.18585,0,0,0,0,0,0,0,0,0,0,-0.37718,-0.492411,0,-1.5,1.31052e-38,0,0,0,-6.77,81.3612,0.0078125,0.867188,0,0,3.42071,53.8006,1.9603e-19,0,0,0,0,0,0,0,0,0,2.5,-2.5
9491,-0.152344,0,1.54688,0.0108838,0.0301406,-0.00208488,-2.37887,-1.1178,-1.18865,0,0,0,-6.71311,82.2267,3.62693,54.2465,-1.18865,0,0,0,0,0,0,0,0,0,0,-0.424123,-0.474241,0,-1.5,1.31052e-38,0,0,0,-6.71311,82.2267,0.0078125,0.867188,0,0,3.62693,54.2465,1.9603e-19,0,0,0,0,0,0,0,0,0,2.5,-2.5
9508,-0.152344,0,-6.4707,0.0111406,0.0289801,-0.00138541,-2.37581,-1.11914,-1.19138,0,0,0,-6.64901,83.1541,3.85039,54.7246,-1.19138,0,0,0,0,0,0,0,0,0,0,-0.475194,-0.454708,0,-1.5,1.31052e-38,0,0,0,-6.64901,83.1541,0.0078125,0.867188,0,0,3.85039,54.7246,1.9603e-19,0,0,0,0,0,0,0,0,0,2.5,-2.5
9525,-0.152344,0,-1.33203,0.0106038,0.0299106,-0.00124284,-2.36943,-1.12192,-1.19709,0,0,0,-6.58106,84.0897,4.07836,55.2072,-1.19709,0,0,0,0,0,0,0,0,0,0,-0.526646,-0.436611,0,-1.5,1.31052e-38,0,0,0,-6.58106,84.0897,0.0078125,0.867188,0,0,4.07836,55.2072,1.9603e-19,0,0,0,0,0,0,0,0,0,2.5,-2.5
9541,-0.152344,0,-1.56543,0.0111592,0.0296724,-0.0028752,-2.36636,-1.12326,-1.19984,0,0,0,-6.51345,84.9779,4.30292,55.6732,-1.19984,0,0,0,0,0,0,0,0,0,0,-0.564826,-0.422926,0,-1.5,1.31052e-38,0,0,0,-6.51345,84.9779,0.0078125,0.867188,0,0,4.30292,55.6732,1.9603e-19,0,0,0,0,0,0,0,0,0,2.5,-2.5
