timestamp,A_x,A_y,A_z,P,Q,R,Phi,Theta,Psi,poseX,poseY,poseZ,state_X,state_Y,state_Z,state_VzB,state_Bx,state_By,state_Bz,p1_x,p1_y,p2_x,p2_y,p3_x,p3_y,p4_x,p4_y,roll,pitch,yaw,alt,targetHeading,highLevelState,lowLevelState,gateNumber,filtered_x,filtered_y,x_OT,y_OT,vx_OT,vy_OT,filtered_vx,filtered_vygateArearansac_corr_x,ransac_corr_y,ransac_corr_vx,ransac_corr_vy,detectionTimeStamppTermX,dTermX,pTermY,dTermY,vxcmd,vycmd
6109,0.0839844,0.273438,1.78027,-0.000301009,-0.000237533,-0.00321898,-0.030141,-0.037113,-2.24478,0,0,0,-1.97424e-05,-4.3779e-06,-0.00367098,-0.000812666,-2.2438,0,0,0,0,0,0,0,0,0,0,0.196078,-0.0178773,0.00780685,-1.5,7.95191e-38,0,0,1,-1.97424e-05,-4.3779e-06,0.109375,-0.109375,0,0,-0.00367098,-0.000812666,1.9603e-19,0,0,0,0,0,0,0,0,0,1,8.7558e-06
6124,0.0839844,0.185547,2.2627,-0.00090026,0.000309447,-0.00236823,-0.0300868,-0.0370687,-2.24718,0,0,0,-0.000137656,-3.03442e-05,-0.0104983,-0.00230363,-2.24624,0,0,0,0,0,0,0,0,0,0,0.196786,-0.0160315,0.0187461,-1.5,7.95191e-38,0,0,2,-0.000137656,-3.03442e-05,0.109375,-0.109375,0,0,-0.0104983,-0.00230363,1.9603e-19,0,0,0,0,0,0,0,0,0,1,6.06884e-05
6139,0.180664,0.185547,-4.74414,-0.00108737,-0.000728786,-0.00376267,-0.0300157,-0.0370337,-2.24959,0,0,0,-0.000357525,-7.83516e-05,-0.0172732,-0.00376131,-2.24866,0,0,0,0,0,0,0,0,0,0,0.197478,-0.0141907,0.0296541,-1.5,7.95191e-38,0,0,3,-0.000357525,-7.83516e-05,0.109375,-0.109375,0,0,-0.0172732,-0.00376131,1.9603e-19,0,0,0,0,0,0,0,0,0,1,0.000156703
6156,0.168945,0.185547,5.00195,-0.00109434,0.000653487,-0.00244233,-0.030027,-0.0368809,-2.25151,0,0,0,-0.000761239,-0.000165881,-0.0253275,-0.00547634,-2.25102,0,0,0,0,0,0,0,0,0,0,0.198367,-0.0120915,0.0216976,-1.5,7.95191e-38,0,0,0,-0.000761239,-0.000165881,0.109375,-0.109375,0,0,-0.0253275,-0.00547634,1.9603e-19,0,0,0,0,0,0,0,0,0,1,0.000331762
6172,0.102539,0.185547,-1.34473,-0.000141015,-0.00100252,-0.00295368,-0.0300142,-0.0368863,-2.25154,0,0,0,-0.00124102,-0.000269134,-0.0324155,-0.00696229,-2.25151,0,0,0,0,0,0,0,0,0,0,0.199399,-0.0105503,0.024394,-1.5,7.95191e-38,0,0,1,-0.00124102,-0.000269134,0.109375,-0.109375,0,0,-0.0324155,-0.00696229,1.9603e-19,0,0,0,0,0,0,0,0,0,1,0.000538268
6188,0.0429688,0.185547,5.42188,-0.000273451,-0.00056642,-0.0030518,-0.0300172,-0.036884,-2.25159,0,0,0,-0.0018336,-0.000396042,-0.0394456,-0.00843712,-2.25159,0,0,0,0,0,0,0,0,0,0,0.200479,-0.00909232,0.0399541,-1.5,7.95191e-38,0,0,2,-0.0018336,-0.000396042,0.109375,-0.109375,0,0,-0.0394456,-0.00843712,1.9603e-19,0,0,0,0,0,0,0,0,0,1,0.000792083
6204,0.0273438,0.185547,-3.84961,-0.000232682,-0.00101199,-0.0021828,-0.0300112,-0.0368857,-2.25162,0,0,0,-0.00253588,-0.000545953,-0.0464186,-0.00989931,-2.25162,0,0,0,0,0,0,0,0,0,0,0.201551,-0.00764591,0.0523355,-1.5,7.95191e-38,0,0,3,-0.00253588,-0.000545953,0.109375,-0.109375,0,0,-0.0464186,-0.00989931,1.9603e-19,0,0,0,0,0,0,0,0,0,1,0.00109191
6220,0.0410156,0.185547,-7.08496,0.000841289,0.000135672,-0.00294343,-0.030004,-0.0368777,-2.25167,0,0,0,-0.00335132,-0.000719602,-0.053336,-0.0113502,-2.25167,0,0,0,0,0,0,0,0,0,0,0.202603,-0.00619777,0.0427517,-1.5,7.95191e-38,0,0,0,-0.00335132,-0.000719602,0.109375,-0.109375,0,0,-0.053336,-0.0113502,1.9603e-19,0,0,0,0,0,0,0,0,0,1,0.0014392
6239,0.107422,0.185547,-6.77344,-0.000127926,-0.000411463,-0.00206077,-0.0300082,-0.0368683,-2.25174,0,0,0,-0.00447167,-0.000957687,-0.0614824,-0.0130583,-2.25171,0,0,0,0,0,0,0,0,0,0,0.203836,-0.00448441,0.0447729,-1.5,7.95191e-38,0,0,1,-0.00447167,-0.000957687,0.109375,-0.109375,0,0,-0.0614824,-0.0130583,1.9603e-19,0,0,0,0,0,0,0,0,0,1,0.00191537
6252,0.140625,0.185547,-1.45898,-0.000804461,-0.000716281,-0.00248148,-0.0300008,-0.0368677,-2.25178,0,0,0,-0.00531561,-0.0011368,-0.067006,-0.0142155,-2.25174,0,0,0,0,0,0,0,0,0,0,0.204665,-0.00331419,0.055558,-1.5,7.95191e-38,0,0,2,-0.00531561,-0.0011368,0.109375,-0.109375,0,0,-0.067006,-0.0142155,1.9603e-19,0,0,0,0,0,0,0,0,0,1,0.00227361
6268,0.173828,0.185547,-6.67188,0.000905365,-0.000241624,-0.00305668,-0.0299882,-0.0368597,-2.25182,0,0,0,-0.0064587,-0.00137913,-0.0737567,-0.0156299,-2.25182,0,0,0,0,0,0,0,0,0,0,0.205664,-0.00186699,0.071006,-1.5,7.95191e-38,0,0,3,-0.0064587,-0.00137913,0.109375,-0.109375,0,0,-0.0737567,-0.0156299,1.9603e-19,0,0,0,0,0,0,0,0,0,1,0.00275825
6285,0.201172,0.185547,3.29785,1.43289e-05,0.000425787,-0.00279358,-0.0299794,-0.0368537,-2.25185,0,0,0,-0.00779091,-0.00166126,-0.0808677,-0.0171203,-2.25185,0,0,0,0,0,0,0,0,0,0,0.206717,-0.000342227,0.0597767,-1.5,7.95191e-38,0,0,0,-0.00779091,-0.00166126,0.109375,-0.109375,0,0,-0.0808677,-0.0171203,1.9603e-19,0,0,0,0,0,0,0,0,0,1,0.00332251
6300,0.201172,0.185547,3.48828,-0.00181535,-0.000828121,-0.002256,-0.0299965,-0.0368593,-2.25189,0,0,0,-0.00906249,-0.00193033,-0.08709,-0.018424,-2.25189,0,0,369098752,-534446081,369098752,-534446081,33554432,33554432,-1075088617,0,0.207628,0.00100297,0.0603876,-1.5,7.95191e-38,0,0,1,-0.00906249,-0.00193033,0.109375,-0.109375,0,0,-0.08709,-0.018424,0,0,0,0,0,0,0,0,0,0,1,0.00386067
6318,0.201172,0.185547,4.45996,-0.00209367,-0.00188947,-0.00257146,-0.0300203,-0.0368697,-2.25193,0,0,0,-0.010718,-0.00228035,-0.0945022,-0.0199749,-2.25193,0,0,369098752,-534446081,369098752,-534446081,33554432,33554432,-1075088617,0,0.208707,0.00261497,0.0789328,-1.5,7.95191e-38,0,0,2,-0.010718,-0.00228035,0.109375,-0.109375,0,0,-0.0945022,-0.0199749,0,0,0,0,0,0,0,0,0,0,1,0.00456071
6353,0.198242,0.185547,5.81445,0.00033098,-0.000147377,-0.00208927,-0.0299834,-0.0368577,-2.25203,-4.76135,0.0489623,-0.353599,-0.0144287,-0.00306374,-0.108785,-0.0229608,-2.25203,0,0,270,61,270,61,369,70,270,155,0.210746,0.00576899,0.124013,-1.5,7.95191e-38,0,0,3,-0.0144287,-0.00306374,0.109375,-0.109375,0,0,-0.108785,-0.0229608,9900,0,0,0,0,0,0,0,0,0,1,0.00612747
6379,0.131836,0.185547,4.58691,-0.00019439,-0.00043262,-0.00306752,-0.0299927,-0.0368567,-2.25211,-4.76135,0.0489623,-0.353599,-0.0174551,-0.00370218,-0.119201,-0.0251419,-2.25207,0,0,270,61,270,61,369,70,270,155,0.212216,0.00808937,0.101633,-1.5,7.95191e-38,0,0,0,-0.0174551,-0.00370218,0.109375,-0.109375,0,0,-0.119201,-0.0251419,9900,0,0,0,0,0,0,0,0,0,1,0.00740436
6392,0.0986328,0.185547,-2.60449,0.000925113,0.000432,-0.00329923,-0.0299828,-0.0368416,-2.25216,-4.76135,0.0489623,-0.353599,-0.0190463,-0.00403773,-0.124348,-0.0262182,-2.25211,0,0,270,61,270,61,369,70,270,155,0.212933,0.00924803,0.103343,-1.5,7.95191e-38,0,0,1,-0.0190463,-0.00403773,0.109375,-0.109375,0,0,-0.124348,-0.0262182,9900,0,0,0,0,0,0,0,0,0,1,0.00807545
6406,0.0654297,0.185547,-5.78613,0.00072924,-0.000602967,-0.00226933,-0.0299698,-0.0368473,-2.2522,-4.76135,0.0489623,-0.353599,-0.0208348,-0.00441473,-0.129851,-0.0273685,-2.25216,0,0,270,61,270,61,369,70,270,155,0.213693,0.0104942,0.113671,-1.5,7.95191e-38,0,0,2,-0.0208348,-0.00441473,0.109375,-0.109375,0,0,-0.129851,-0.0273685,9900,0,0,0,0,0,0,0,0,0,1,0.00882947
6422,0.0507812,0.185547,7.30664,-0.000536931,-0.000167479,-0.00127043,-0.029967,-0.0368387,-2.25223,-4.76747,0.0551328,-0.346381,-0.0229781,-0.00486637,-0.136096,-0.0286753,-2.25223,0,0,270,61,270,61,367,68,270,155,0.214545,0.0119215,0.128887,-1.5,7.95191e-38,0,0,3,-0.0229781,-0.00486637,0.109375,-0.109375,0,0,-0.136096,-0.0286753,9900,0,0,0,0,0,0,0,0,0,1,0.00973275
6439,0.0507812,0.185547,6.71191,-0.00153017,0.000456591,-0.00220831,-0.0299772,-0.0368299,-2.25226,-4.76747,0.0551328,-0.346381,-0.0252208,-0.0053388,-0.142289,-0.0299703,-2.25226,0,0,270,61,270,61,367,68,270,155,0.215389,0.0133384,0.118997,-1.5,7.95191e-38,0,0,0,-0.0252208,-0.0053388,0.109375,-0.109375,0,0,-0.142289,-0.0299703,9900,0,0,0,0,0,0,0,0,0,1,0.0106776
6455,0.0507812,0.185547,-6.67285,-0.000531424,-0.000947248,-0.00306593,-0.0299729,-0.0368334,-2.2523,-4.75397,0.0578064,-0.350136,-0.0277116,-0.00586331,-0.148816,-0.0313334,-2.2523,0,0,269,61,269,61,367,68,270,155,0.216268,0.0148439,0.118189,-1.5,7.95191e-38,0,0,1,-0.0277116,-0.00586331,0.109375,-0.109375,0,0,-0.148816,-0.0313334,10000,0,0,0,0,0,0,0,0,0,1,0.0117266
6471,0.0507812,0.185547,-0.363281,0.00045029,-0.000951427,-0.00189784,-0.0299601,-0.036842,-2.25233,-4.75397,0.0578064,-0.350136,-0.0299991,-0.00634487,-0.154528,-0.0325274,-2.25233,0,0,269,61,269,61,367,68,270,155,0.217031,0.0161692,0.131809,-1.5,7.95191e-38,0,0,2,-0.0299991,-0.00634487,0.109375,-0.109375,0,0,-0.154528,-0.0325274,10000,0,0,0,0,0,0,0,0,0,1,0.0126897
6487,0.113281,0.185547,1.79004,-0.000714485,-0.000761146,-0.00311932,-0.0299571,-0.0368461,-2.25243,-4.7613,0.0488724,-0.353467,-0.0326992,-0.00691312,-0.160952,-0.0338716,-2.25238,0,0,270,61,270,61,369,70,270,155,0.217879,0.0176728,0.148517,-1.5,7.95191e-38,0,0,3,-0.0326992,-0.00691312,0.109375,-0.109375,0,0,-0.160952,-0.0338716,9900,0,0,0,0,0,0,0,0,0,1,0.0138262
6502,0.146484,0.185547,0.355469,-0.000321139,-0.000437109,-0.00189799,-0.0299615,-0.0368363,-2.25246,-4.7613,0.0488724,-0.353467,-0.0351678,-0.00743258,-0.166573,-0.0350479,-2.25243,0,0,270,61,270,61,369,70,270,155,0.218612,0.0189983,0.140113,-1.5,7.95191e-38,0,0,0,-0.0351678,-0.00743258,0.109375,-0.109375,0,0,-0.166573,-0.0350479,9900,0,0,0,0,0,0,0,0,0,1,0.0148652
6518,0.179688,0.185547,6.45508,0.000984608,-0.00144262,-0.00272818,-0.0299413,-0.036839,-2.2525,-4.7613,0.0488724,-0.353467,-0.0378937,-0.00800603,-0.172521,-0.0362913,-2.2525,0,0,270,61,270,61,369,70,270,155,0.219377,0.0204148,0.139163,-1.5,7.95191e-38,0,0,1,-0.0378937,-0.00800603,0.109375,-0.109375,0,0,-0.172521,-0.0362913,9900,0,0,0,0,0,0,0,0,0,1,0.0160121
6535,0.195312,0.185547,-6.63379,-0.00135883,-0.000225815,-0.00302621,-0.029945,-0.0368372,-2.25254,-4.75399,0.0577916,-0.350169,-0.0408956,-0.00863744,-0.178789,-0.0376034,-2.25254,0,0,269,61,269,61,367,68,270,155,0.220179,0.0219117,0.1527,-1.5,7.95191e-38,0,0,2,-0.0408956,-0.00863744,0.109375,-0.109375,0,0,-0.178789,-0.0376034,10000,0,0,0,0,0,0,0,0,0,1,0.0172749
6551,0.195312,0.185547,-6.4873,-0.0010758,-0.00193217,-0.00310702,-0.0299564,-0.0368497,-2.25258,-4.76129,0.0488499,-0.353445,-0.0438178,-0.00925197,-0.18464,-0.0388275,-2.25258,0,0,270,61,270,61,369,70,270,155,0.220921,0.0233186,0.167759,-1.5,7.95191e-38,0,0,3,-0.0438178,-0.00925197,0.109375,-0.109375,0,0,-0.18464,-0.0388275,9900,0,0,0,0,0,0,0,0,0,1,0.0185039
6567,0.195312,0.185547,-3.29395,-0.000370143,-0.00139823,-0.00360502,-0.0299511,-0.0368619,-2.25263,-4.76129,0.0488499,-0.353445,-0.0468331,-0.00988598,-0.190447,-0.0400425,-2.25263,0,0,270,61,270,61,369,70,270,155,0.221647,0.0247266,0.157714,-1.5,7.95191e-38,0,0,0,-0.0468331,-0.00988598,0.109375,-0.109375,0,0,-0.190447,-0.0400425,9900,0,0,0,0,0,0,0,0,0,1,0.019772
6584,0.195312,0.185547,0.68457,-0.000627091,-0.00171248,-0.00285573,-0.0299631,-0.0368829,-2.25271,-4.74252,0.0490788,-0.353123,-0.0501381,-0.0105808,-0.196567,-0.0413242,-2.25268,0,0,270,61,270,61,369,68,270,155,0.222405,0.026219,0.159263,-1.5,7.95191e-38,0,0,1,-0.0501381,-0.0105808,0.109375,-0.109375,0,0,-0.196567,-0.0413242,9900,0,0,0,0,0,0,0,0,0,1,0.0211616
6600,0.195312,0.185547,-0.464844,-0.001311,-0.000606141,-0.00211601,-0.0299726,-0.0368889,-2.25275,-4.74252,0.0490788,-0.353123,-0.0533415,-0.0112542,-0.202281,-0.0425208,-2.25271,0,0,270,61,270,61,369,68,270,155,0.223106,0.0276215,0.174284,-1.5,7.95191e-38,0,0,2,-0.0533415,-0.0112542,0.109375,-0.109375,0,0,-0.202281,-0.0425208,9900,0,0,0,0,0,0,0,0,0,1,0.0225084
6616,0.195312,0.185547,0.743164,-0.000669362,0.000140683,-0.00394152,-0.0299635,-0.0368772,-2.25279,-4.74252,0.0490788,-0.353123,-0.0566376,-0.011947,-0.207953,-0.0437076,-2.25279,0,0,270,61,270,61,369,68,270,155,0.223785,0.0290324,0.189257,-1.5,7.95191e-38,0,0,3,-0.0566376,-0.011947,0.109375,-0.109375,0,0,-0.207953,-0.0437076,9900,0,0,0,0,0,0,0,0,0,1,0.0238941
6632,0.195312,0.185547,5.23242,8.776e-05,-0.000184121,-0.00310743,-0.0299559,-0.0368796,-2.25284,-4.74258,0.0491109,-0.35325,-0.060024,-0.0126587,-0.213577,-0.0448844,-2.25284,0,0,270,61,270,61,369,68,270,155,0.224458,0.0304326,0.179125,-1.5,7.95191e-38,0,0,0,-0.060024,-0.0126587,0.109375,-0.109375,0,0,-0.213577,-0.0448844,9900,0,0,0,0,0,0,0,0,0,1,0.0253175
6649,0.195312,0.185547,-4.08594,-0.000645773,-0.000547972,-0.00207564,-0.0299527,-0.0368904,-2.25287,-4.78592,0.043303,-0.341243,-0.0637201,-0.0134354,-0.219503,-0.0461256,-2.25287,0,0,270,60,270,60,369,70,272,154,0.225161,0.0319164,0.178324,-1.5,7.95191e-38,0,0,1,-0.0637201,-0.0134354,0.109375,-0.109375,0,0,-0.219503,-0.0461256,9999,0,0,0,0,0,0,0,0,0,1,0.0268709
6665,0.195312,0.185547,4.76074,-0.000265804,-0.000475338,-0.00186924,-0.0299499,-0.036882,-2.2529,-4.78592,0.043303,-0.341243,-0.0672903,-0.0141856,-0.225035,-0.0472846,-2.2529,0,0,270,60,270,60,369,70,272,154,0.225808,0.0333121,0.193269,-1.5,7.95191e-38,0,0,2,-0.0672903,-0.0141856,0.109375,-0.109375,0,0,-0.225035,-0.0472846,9999,0,0,0,0,0,0,0,0,0,1,0.0283713
6681,0.195312,0.185547,6.30371,0.000560734,-0.00102376,-0.002562,-0.0299394,-0.0368925,-2.25297,-4.78592,0.043303,-0.341243,-0.0707157,-0.0149053,-0.23018,-0.0483619,-2.25293,0,0,270,60,270,60,369,70,272,154,0.226405,0.0346169,0.208172,-1.5,7.95191e-38,0,0,3,-0.0707157,-0.0149053,0.109375,-0.109375,0,0,-0.23018,-0.0483619,9999,0,0,0,0,0,0,0,0,0,1,0.0298107
6696,0.180664,0.185547,-6.89551,-0.000184739,-0.00134544,-0.00245117,-0.0299322,-0.0368964,-2.253,-4.75726,0.0434291,-0.346422,-0.0742178,-0.0156411,-0.235287,-0.049432,-2.25297,0,0,270,60,270,60,369,68,272,155,0.226987,0.0359237,0.201094,-1.5,7.95191e-38,0,0,0,-0.0742178,-0.0156411,0.109375,-0.109375,0,0,-0.235287,-0.049432,9999,0,0,0,0,0,0,0,0,0,1,0.0312822
6712,0.147461,0.185547,6.89746,-2.22222e-05,0.000468563,-0.00289591,-0.0299236,-0.0368913,-2.25305,-4.75726,0.0434291,-0.346422,-0.0782809,-0.0164947,-0.241027,-0.0506374,-2.25305,0,0,270,60,270,60,369,68,272,155,0.227625,0.0374119,0.201779,-1.5,7.95191e-38,0,0,1,-0.0782809,-0.0164947,0.109375,-0.109375,0,0,-0.241027,-0.0506374,9999,0,0,0,0,0,0,0,0,0,1,0.0329895
6728,0.114258,0.185547,-6.1123,-0.000648831,-0.000656988,-0.00286565,-0.029927,-0.0368914,-2.25308,-4.7614,0.0488311,-0.35372,-0.082192,-0.0173164,-0.246384,-0.0517622,-2.25308,0,0,270,61,270,61,369,70,270,155,0.228222,0.0388002,0.216629,-1.5,7.95191e-38,0,0,2,-0.082192,-0.0173164,0.109375,-0.109375,0,0,-0.246384,-0.0517622,9900,0,0,0,0,0,0,0,0,0,1,0.0346328
6744,0.0810547,0.185547,-0.0439453,-0.000592246,-0.000954341,-0.0035278,-0.0299308,-0.0368957,-2.25312,-4.7614,0.0488311,-0.35372,-0.0861901,-0.0181563,-0.2517,-0.0528778,-2.25312,0,0,270,61,270,61,369,70,270,155,0.228804,0.0401902,0.231433,-1.5,7.95191e-38,0,0,3,-0.0861901,-0.0181563,0.109375,-0.109375,0,0,-0.2517,-0.0528778,9900,0,0,0,0,0,0,0,0,0,1,0.0363127
6765,0.0810547,0.185547,-0.0439453,-0.000592246,-0.000954341,-0.0035278,-0.0299308,-0.0368957,-2.25312,-4.77041,0.0487094,-0.354039,-0.0915758,-0.0192878,-0.258618,-0.0543293,-2.25312,0,0,270,61,270,61,369,71,270,155,0.229561,0.0420015,0.216446,-1.5,7.95191e-38,0,0,0,-0.0915758,-0.0192878,0.109375,-0.109375,0,0,-0.258618,-0.0543293,9900,0,0,0,0,0,0,0,0,0,1,0.0385755
6871,0.0683594,0.185547,-7.19336,-0.0010327,-0.000801026,-0.00257538,-0.0299163,-0.0369072,-2.25344,-4.78805,0.0433553,-0.346302,-0.122074,-0.0256939,-0.292829,-0.0615075,-2.25344,0,0,272,61,272,61,369,70,270,155,0.232974,0.0513492,0.176886,-1.5,7.95191e-38,0,0,1,-0.122074,-0.0256939,0.109375,-0.109375,0,0,-0.292829,-0.0615075,9900,0,0,0,0,0,0,0,0,0,1,0.0513878
7020,0.0556641,0.185547,3.73926,0.000299787,-0.00106197,-0.00367155,-0.0299003,-0.0369238,-2.25391,-4.79026,0.0548848,-0.346255,-0.172612,-0.0363083,-0.339141,-0.0712294,-2.25391,0,0,270,61,270,61,369,70,270,155,0.236965,0.0647671,0.401481,-1.5,7.95191e-38,0,0,2,-0.172612,-0.0363083,0.109375,-0.109375,0,0,-0.339141,-0.0712294,9900,0,0,0,0,0,0,0,0,0,1,0.0726165
7183,0.189453,0.185547,3.31152,-0.00148909,-0.00194955,-0.00175102,-0.0298428,-0.0369052,-2.25436,-4.7881,0.0433097,-0.346432,-0.235105,-0.049433,-0.385686,-0.081002,-2.25436,0,0,272,61,272,61,369,70,270,155,0.24019,0.0792059,0.6424,-1.5,7.95191e-38,0,0,3,-0.235105,-0.049433,0.109375,-0.109375,0,0,-0.385686,-0.081002,9900,0,0,0,0,0,0,0,0,0,1,0.0988661
7199,0.189453,0.185547,-1.92773,-0.000907625,-0.000461672,-0.00387609,-0.02984,-0.0369098,-2.25441,-4.7881,0.0433097,-0.346432,-0.241319,-0.0507381,-0.389882,-0.0818849,-2.25441,0,0,272,61,272,61,369,70,270,155,0.240438,0.0805585,0.630757,-1.5,7.95191e-38,0,0,0,-0.241319,-0.0507381,0.109375,-0.109375,0,0,-0.389882,-0.0818849,9900,0,0,0,0,0,0,0,0,0,1,0.101476
7215,0.189453,0.185547,1.48535,-0.00156712,-0.000980609,-0.0025895,-0.0298542,-0.0369099,-2.25445,-4.7881,0.0433097,-0.346432,-0.247599,-0.0520572,-0.394046,-0.0827605,-2.25445,0,0,272,61,272,61,369,70,270,155,0.240683,0.0819044,0.624132,-1.5,7.95191e-38,0,0,1,-0.247599,-0.0520572,0.109375,-0.109375,0,0,-0.394046,-0.0827605,9900,0,0,0,0,0,0,0,0,0,1,0.104114
7232,0.189453,0.185547,-5.72754,0.000314638,-0.000745503,-0.00218602,-0.0298403,-0.0369118,-2.25449,-4.7881,0.0433097,-0.346432,-0.254347,-0.0534743,-0.398435,-0.0836828,-2.25449,0,0,272,61,272,61,369,70,270,155,0.24093,0.0833353,0.638864,-1.5,7.95191e-38,0,0,2,-0.254347,-0.0534743,0.109375,-0.109375,0,0,-0.398435,-0.0836828,9900,0,0,0,0,0,0,0,0,0,1,0.106949
7247,0.12793,0.185547,3.68066,0.00108442,0.000762339,-0.00317604,-0.0298145,-0.0369056,-2.25458,-4.7881,0.0433097,-0.346432,-0.26036,-0.0547373,-0.402274,-0.0844913,-2.25454,0,0,272,61,272,61,369,70,270,155,0.241134,0.0846002,0.650415,-1.5,7.95191e-38,0,0,3,-0.26036,-0.0547373,0.109375,-0.109375,0,0,-0.402274,-0.0844913,9900,0,0,0,0,0,0,0,0,0,1,0.109475
7263,0.0947266,0.185547,5.26855,-0.000461183,-8.78659e-05,-0.00344538,-0.0298173,-0.0369077,-2.25462,-4.7881,0.0433097,-0.346432,-0.266839,-0.0560982,-0.406337,-0.0853478,-2.25458,0,0,272,61,272,61,369,70,270,155,0.241346,0.0859445,0.638438,-1.5,7.95191e-38,0,0,0,-0.266839,-0.0560982,0.109375,-0.109375,0,0,-0.406337,-0.0853478,9900,0,0,0,0,0,0,0,0,0,1,0.112196
7280,0.0615234,0.185547,-6.73828,-0.00108343,-0.000122782,-0.00221256,-0.0298211,-0.0368993,-2.25466,-4.7881,0.0433097,-0.346432,-0.273794,-0.057559,-0.410618,-0.0862495,-2.25466,0,0,272,61,272,61,369,70,270,155,0.241551,0.0873813,0.627577,-1.5,7.95191e-38,0,0,1,-0.273794,-0.057559,0.109375,-0.109375,0,0,-0.410618,-0.0862495,9900,0,0,0,0,0,0,0,0,0,1,0.115118
7296,0.0615234,0.185547,-6.73828,-0.00108343,-0.000122782,-0.00221256,-0.0298211,-0.0368993,-2.25466,-4.78807,0.0431853,-0.346355,-0.280405,-0.0589476,-0.414612,-0.0870898,-2.25466,0,0,272,61,272,61,369,70,270,155,0.241753,0.0887133,0.63916,-1.5,7.95191e-38,0,0,2,-0.280405,-0.0589476,0.109375,-0.109375,0,0,-0.414612,-0.0870898,9900,0,0,0,0,0,0,0,0,0,1,0.117895
7312,0.0322266,0.185547,-7.11914,-0.000206371,-0.00135031,-0.00198175,-0.0297991,-0.0368822,-2.25472,-4.78807,0.0431853,-0.346355,-0.28708,-0.0603498,-0.418574,-0.0879233,-2.25472,0,0,272,61,272,61,369,70,270,155,0.241931,0.0900582,0.652273,-1.5,7.95191e-38,0,0,3,-0.28708,-0.0603498,0.109375,-0.109375,0,0,-0.418574,-0.0879233,9900,0,0,0,0,0,0,0,0,0,1,0.1207
7328,0.0322266,0.185547,-7.11914,-0.000206371,-0.00135031,-0.00198175,-0.0297991,-0.0368822,-2.25472,-4.77042,0.0485516,-0.354072,-0.293819,-0.0617653,-0.422502,-0.08875,-2.25472,0,0,270,61,270,61,369,71,270,155,0.242114,0.0913873,0.64029,-1.5,7.95191e-38,0,0,0,-0.293819,-0.0617653,0.109375,-0.109375,0,0,-0.422502,-0.08875,9900,0,0,0,0,0,0,0,0,0,1,0.123531
7344,0.111328,0.185547,2.85254,-0.00024848,-0.000430448,-0.00434787,-0.0297819,-0.036885,-2.25485,-4.77042,0.0485516,-0.354072,-0.30062,-0.0631939,-0.426398,-0.0895704,-2.2548,0,0,270,61,270,61,369,71,270,155,0.242265,0.0927361,0.630654,-1.5,7.95191e-38,0,0,1,-0.30062,-0.0631939,0.109375,-0.109375,0,0,-0.426398,-0.0895704,9900,0,0,0,0,0,0,0,0,0,1,0.126388
7361,0.111328,0.185547,2.85254,-0.00024848,-0.000430448,-0.00434787,-0.0297819,-0.036885,-2.25485,-4.79612,0.0545713,-0.347188,-0.307483,-0.0646356,-0.430262,-0.0903849,-2.25485,0,0,270,61,270,61,367,71,270,155,0.242416,0.0940754,0.643789,-1.5,7.95191e-38,0,0,2,-0.307483,-0.0646356,0.109375,-0.109375,0,0,-0.430262,-0.0903849,9900,0,0,0,0,0,0,0,0,0,1,0.129271
7377,0.177734,0.185547,-3.36816,-0.00107049,-0.000637168,-0.00249865,-0.0297994,-0.0368794,-2.25493,-4.79612,0.0545713,-0.347188,-0.314407,-0.0660902,-0.434095,-0.0911923,-2.25493,0,0,270,61,270,61,367,71,270,155,0.242551,0.0954198,0.656884,-1.5,7.95191e-38,0,0,3,-0.314407,-0.0660902,0.109375,-0.109375,0,0,-0.434095,-0.0911923,9900,0,0,0,0,0,0,0,0,0,1,0.13218
7392,0.177734,0.185547,-3.36816,-0.00107049,-0.000637168,-0.00249865,-0.0297994,-0.0368794,-2.25493,-4.75552,0.0454759,-0.357877,-0.321393,-0.0675577,-0.437898,-0.0919909,-2.25493,0,0,270,61,270,61,369,71,270,155,0.242698,0.0967442,0.644882,-1.5,7.95191e-38,0,0,0,-0.321393,-0.0675577,0.109375,-0.109375,0,0,-0.437898,-0.0919909,10000,0,0,0,0,0,0,0,0,0,1,0.135115
7409,0.204102,0.185547,1.0127,-0.000721231,0.000122119,-0.0026584,-0.0297931,-0.0368644,-2.25502,-4.75552,0.0454759,-0.357877,-0.328881,-0.0691308,-0.441906,-0.0928317,-2.25502,0,0,270,61,270,61,369,71,270,155,0.242821,0.0981705,0.63359,-1.5,7.95191e-38,0,0,1,-0.328881,-0.0691308,0.109375,-0.109375,0,0,-0.441906,-0.0928317,10000,0,0,0,0,0,0,0,0,0,1,0.138262
7424,0.204102,0.185547,1.0127,-0.000721231,0.000122119,-0.0026584,-0.0297931,-0.0368644,-2.25502,-4.76755,0.0548585,-0.346547,-0.335544,-0.0705304,-0.445412,-0.0935666,-2.25502,0,0,270,61,270,61,367,68,270,155,0.242942,0.0994091,0.645149,-1.5,7.95191e-38,0,0,2,-0.335544,-0.0705304,0.109375,-0.109375,0,0,-0.445412,-0.0935666,9900,0,0,0,0,0,0,0,0,0,1,0.141061
7440,0.104492,0.185547,-6.66992,0.000205206,5.06087e-05,-0.00274838,-0.029795,-0.0368508,-2.25513,-4.76755,0.0548585,-0.346547,-0.342708,-0.0720354,-0.449123,-0.0943433,-2.2551,0,0,270,61,270,61,367,68,270,155,0.24304,0.100749,0.656674,-1.5,7.95191e-38,0,0,3,-0.342708,-0.0720354,0.109375,-0.109375,0,0,-0.449123,-0.0943433,9900,0,0,0,0,0,0,0,0,0,1,0.144071
7456,0.104492,0.185547,-6.66992,0.000205206,5.06087e-05,-0.00274838,-0.029795,-0.0368508,-2.25513,-4.78797,0.0431637,-0.346121,-0.349933,-0.073553,-0.452805,-0.0951125,-2.25513,0,0,272,61,272,61,369,70,270,155,0.243142,0.102076,0.644673,-1.5,7.95191e-38,0,0,0,-0.349933,-0.073553,0.109375,-0.109375,0,0,-0.452805,-0.0951125,9900,0,0,0,0,0,0,0,0,0,1,0.147106
7473,0.0556641,0.185547,5.83594,0.000344378,-1.9319e-05,-0.00251766,-0.0297963,-0.0368362,-2.25521,-4.78797,0.0431637,-0.346121,-0.357216,-0.0750828,-0.456456,-0.0958751,-2.25521,0,0,272,61,272,61,369,70,270,155,0.243225,0.103412,0.63495,-1.5,7.95191e-38,0,0,1,-0.357216,-0.0750828,0.109375,-0.109375,0,0,-0.456456,-0.0958751,9900,0,0,0,0,0,0,0,0,0,1,0.150166
7489,0.0556641,0.185547,5.83594,0.000344378,-1.9319e-05,-0.00251766,-0.0297963,-0.0368362,-2.25521,-4.78796,0.0431517,-0.346087,-0.365018,-0.0767215,-0.460302,-0.0966764,-2.25521,0,0,272,61,272,61,369,70,270,155,0.243325,0.10481,0.646773,-1.5,7.95191e-38,0,0,2,-0.365018,-0.0767215,0.109375,-0.109375,0,0,-0.460302,-0.0966764,9900,0,0,0,0,0,0,0,0,0,1,0.153443
7505,0.0556641,0.185547,5.83594,0.000344378,-1.9319e-05,-0.00251766,-0.0297963,-0.0368362,-2.25521,-4.78796,0.0431517,-0.346087,-0.37242,-0.078276,-0.463892,-0.0974243,-2.25521,0,0,272,61,272,61,369,70,270,155,0.243411,0.106124,0.656982,-1.5,7.95191e-38,0,0,3,-0.37242,-0.078276,0.109375,-0.109375,0,0,-0.463892,-0.0974243,9900,0,0,0,0,0,0,0,0,0,1,0.156552
7521,0.0556641,0.185547,-0.353516,0.000224603,0.00053982,-0.00297155,-0.0298091,-0.0368231,-2.25533,-4.78793,0.0431535,-0.346019,-0.37988,-0.0798425,-0.467454,-0.0981649,-2.25533,0,0,272,61,272,61,369,70,270,155,0.243455,0.107467,0.64498,-1.5,7.95191e-38,0,0,0,-0.37988,-0.0798425,0.109375,-0.109375,0,0,-0.467454,-0.0981649,9900,0,0,0,0,0,0,0,0,0,1,0.159685
7537,0.0556641,0.185547,-2.62012,-0.000355506,-0.000315205,-0.00165527,-0.0297965,-0.0368261,-2.25541,-4.78793,0.0431535,-0.346019,-0.387396,-0.0814209,-0.470988,-0.0988973,-2.25533,0,0,272,61,272,61,369,70,270,155,0.243524,0.108779,0.63525,-1.5,7.95191e-38,0,0,1,-0.387396,-0.0814209,0.109375,-0.109375,0,0,-0.470988,-0.0988973,9900,0,0,0,0,0,0,0,0,0,1,0.162842
7554,0.0556641,0.185547,-2.62012,-0.000355506,-0.000315205,-0.00165527,-0.0297965,-0.0368261,-2.25541,-4.77086,0.0549197,-0.345501,-0.395444,-0.0831107,-0.474711,-0.0996696,-2.25541,0,0,270,61,270,61,369,68,270,155,0.243566,0.110192,0.648367,-1.5,7.95191e-38,0,0,2,-0.395444,-0.0831107,0.109375,-0.109375,0,0,-0.474711,-0.0996696,9900,0,0,0,0,0,0,0,0,0,1,0.166221
7570,0.0556641,0.185547,-5.38281,-0.00138236,-0.000495624,-0.00270727,-0.0298208,-0.0368234,-2.2555,-4.77086,0.0549197,-0.345501,-0.402596,-0.0846122,-0.47797,-0.100345,-2.2555,0,0,270,61,270,61,369,68,270,155,0.243589,0.111441,0.659879,-1.5,7.95191e-38,0,0,3,-0.402596,-0.0846122,0.109375,-0.109375,0,0,-0.47797,-0.100345,9900,0,0,0,0,0,0,0,0,0,1,0.169224
7586,0.0556641,0.185547,-0.679688,-0.00100934,-0.000739355,-0.00282385,-0.0298246,-0.0368224,-2.25554,-4.76126,0.0486648,-0.353375,-0.410763,-0.0863267,-0.481637,-0.101102,-2.25554,0,0,270,61,270,61,369,70,270,155,0.243626,0.112842,0.646301,-1.5,7.95191e-38,0,0,0,-0.410763,-0.0863267,0.109375,-0.109375,0,0,-0.481637,-0.101102,9900,0,0,0,0,0,0,0,0,0,1,0.172653
7601,0.0556641,0.185547,5.27246,0.000385621,0.000516632,-0.00367958,-0.0298137,-0.0368107,-2.25559,-4.76126,0.0486648,-0.353375,-0.418019,-0.0878496,-0.484846,-0.101763,-2.25559,0,0,270,61,270,61,369,70,270,155,0.243647,0.114079,0.637833,-1.5,7.95191e-38,0,0,1,-0.418019,-0.0878496,0.109375,-0.109375,0,0,-0.484846,-0.101763,9900,0,0,0,0,0,0,0,0,0,1,0.175699
7617,0.0556641,0.185547,0.0742188,-0.000632383,-0.000751713,-0.00278832,-0.0298223,-0.0368129,-2.25562,-4.77026,0.0485402,-0.353658,-0.425811,-0.089485,-0.488241,-0.102463,-2.25562,0,0,270,61,270,61,369,71,270,155,0.243667,0.115393,0.649374,-1.5,7.95191e-38,0,0,2,-0.425811,-0.089485,0.109375,-0.109375,0,0,-0.488241,-0.102463,9900,0,0,0,0,0,0,0,0,0,1,0.17897
7633,0.0556641,0.185547,-5.69922,-0.000432658,0.000252411,-0.00320068,-0.0298219,-0.0367949,-2.2557,-4.77026,0.0485402,-0.353658,-0.433657,-0.0911315,-0.491609,-0.103156,-2.25562,0,0,270,61,270,61,369,71,270,155,0.243689,0.116697,0.659568,-1.5,7.95191e-38,0,0,3,-0.433657,-0.0911315,0.109375,-0.109375,0,0,-0.491609,-0.103156,9900,0,0,0,0,0,0,0,0,0,1,0.182263
7649,0.0556641,0.185547,-3.2373,0.00111216,7.84902e-05,-0.00336759,-0.0297996,-0.0367845,-2.25574,-4.79599,0.0546058,-0.346864,-0.441558,-0.0927892,-0.49495,-0.103842,-2.2557,0,0,270,61,270,61,367,71,270,155,0.243682,0.118018,0.647555,-1.5,7.95191e-38,0,0,0,-0.441558,-0.0927892,0.109375,-0.109375,0,0,-0.49495,-0.103842,9900,0,0,0,0,0,0,0,0,0,1,0.185578
7665,0.0556641,0.185547,-0.569336,-0.000372074,0.0004855,-0.00311813,-0.0298048,-0.036772,-2.25578,-4.79599,0.0546058,-0.346864,-0.449512,-0.0944578,-0.49826,-0.104523,-2.25578,0,0,270,61,270,61,367,71,270,155,0.243663,0.11934,0.637775,-1.5,7.95191e-38,0,0,1,-0.449512,-0.0944578,0.109375,-0.109375,0,0,-0.49826,-0.104523,9900,0,0,0,0,0,0,0,0,0,1,0.188916
7682,0.0556641,0.185547,-0.864258,-0.0012541,-0.000169657,-0.00257893,-0.0298064,-0.0367713,-2.25581,-4.79599,0.0546058,-0.346864,-0.458021,-0.0962426,-0.501748,-0.105237,-2.25581,0,0,270,61,270,61,367,71,270,155,0.24365,0.120729,0.652446,-1.5,7.95191e-38,0,0,2,-0.458021,-0.0962426,0.109375,-0.109375,0,0,-0.501748,-0.105237,9900,0,0,0,0,0,0,0,0,0,1,0.192485
7698,0.0556641,0.185547,-0.864258,-0.0012541,-0.000169657,-0.00257893,-0.0298064,-0.0367713,-2.25581,-4.78781,0.043166,-0.345719,-0.466082,-0.0979332,-0.505003,-0.105903,-2.25581,0,0,272,61,272,61,369,70,270,155,0.24364,0.122028,0.665513,-1.5,7.95191e-38,0,0,3,-0.466082,-0.0979332,0.109375,-0.109375,0,0,-0.505003,-0.105903,9900,0,0,0,0,0,0,0,0,0,1,0.195866
7714,0.0556641,0.185547,6.45312,-0.00125131,-0.00061995,-0.00389416,-0.0298085,-0.0367697,-2.2559,-4.78781,0.043166,-0.345719,-0.474196,-0.0996346,-0.508233,-0.106564,-2.2559,0,0,272,61,272,61,369,70,270,155,0.243596,0.123347,0.653476,-1.5,7.95191e-38,0,0,0,-0.474196,-0.0996346,0.109375,-0.109375,0,0,-0.508233,-0.106564,9900,0,0,0,0,0,0,0,0,0,1,0.199269
7731,0.0556641,0.185547,5.09668,-0.000932485,-0.000718855,-0.00374134,-0.0298223,-0.0367872,-2.25599,-4.77018,0.0485291,-0.353474,-0.482362,-0.101346,-0.511437,-0.107219,-2.2559,0,0,270,61,270,61,369,71,270,155,0.243571,0.124643,0.643577,-1.5,7.95191e-38,0,0,1,-0.482362,-0.101346,0.109375,-0.109375,0,0,-0.511437,-0.107219,9900,0,0,0,0,0,0,0,0,0,1,0.202693
7746,0.0556641,0.185547,-0.303711,-0.000555716,-0.000898533,-0.00326049,-0.0298241,-0.0367857,-2.25604,-4.77018,0.0485291,-0.353474,-0.490578,-0.103069,-0.514617,-0.107868,-2.25599,0,0,270,61,270,61,369,71,270,155,0.243513,0.12596,0.650905,-1.5,7.95191e-38,0,0,0,-0.490578,-0.103069,0.109375,-0.109375,0,0,-0.514617,-0.107868,9900,0,0,0,0,0,0,0,0,0,1,0.206138
7762,0.0830078,0.185547,-4.12207,-0.000772067,0.000505626,-0.00272475,-0.0298378,-0.0367722,-2.25608,-4.75533,0.0455356,-0.357424,-0.498844,-0.104801,-0.517773,-0.108511,-2.25608,0,0,270,61,270,61,369,71,270,155,0.243448,0.127275,0.630317,-1.5,7.95191e-38,0,0,0,-0.498844,-0.104801,0.109375,-0.109375,0,0,-0.517773,-0.108511,10000,0,0,0,0,0,0,0,0,0,1,0.209603
7785,0.149414,0.185547,-0.18457,-0.000952223,-0.000357574,-0.00309059,-0.0298383,-0.0367765,-2.25616,-4.75533,0.0455356,-0.357424,-0.510826,-0.107312,-0.522273,-0.109425,-2.25612,0,0,270,61,270,61,369,71,270,155,0.243368,0.129146,0.602924,-1.5,7.95191e-38,0,0,0,-0.510826,-0.107312,0.109375,-0.109375,0,0,-0.522273,-0.109425,10000,0,0,0,0,0,0,0,0,0,1,0.214624
7800,0.182617,0.185547,4.99805,0.000299202,-0.000660504,-0.00243149,-0.029832,-0.0367739,-2.25619,-4.77019,0.0485759,-0.353479,-0.518688,-0.108959,-0.525176,-0.110014,-2.25616,0,0,270,61,270,61,369,71,270,155,0.243303,0.130367,0.585028,-1.5,7.95191e-38,0,0,0,-0.518688,-0.108959,0.109375,-0.109375,0,0,-0.525176,-0.110014,9900,0,0,0,0,0,0,0,0,0,1,0.217918
7816,0.204102,0.185547,-1.32812,-0.000455487,-0.000729429,-0.00229127,-0.0298309,-0.036773,-2.25623,-4.77019,0.0485767,-0.353499,-0.527123,-0.110726,-0.528249,-0.110637,-2.25619,0,0,270,61,270,61,369,71,270,155,0.243229,0.131666,0.566512,-1.5,7.95191e-38,0,0,0,-0.527123,-0.110726,0.109375,-0.109375,0,0,-0.528249,-0.110637,9900,0,0,0,0,0,0,0,0,0,1,0.221451
7833,0.137695,0.185547,5.44824,-0.00115536,-0.000537774,-0.00303895,-0.0298318,-0.0367746,-2.25628,-4.77019,0.0485767,-0.353499,-0.535607,-0.112502,-0.531297,-0.111255,-2.25628,0,0,270,61,270,61,369,71,270,155,0.243133,0.132977,0.548582,-1.5,7.95191e-38,0,0,0,-0.535607,-0.112502,0.109375,-0.109375,0,0,-0.531297,-0.111255,9900,0,0,0,0,0,0,0,0,0,1,0.225005
7849,0.0712891,0.185547,-3.85449,-0.000702166,-0.000241859,-0.00296486,-0.0298425,-0.036776,-2.25632,-4.77019,0.0485669,-0.35349,-0.544675,-0.114401,-0.534509,-0.111906,-2.25632,0,0,270,61,270,61,369,71,270,155,0.243037,0.134356,0.53014,-1.5,7.95191e-38,0,0,0,-0.544675,-0.114401,0.109375,-0.109375,0,0,-0.534509,-0.111906,9900,0,0,0,0,0,0,0,0,0,1,0.228802
7865,0.0712891,0.185547,-3.85449,-0.000702166,-0.000241859,-0.00296486,-0.0298425,-0.036776,-2.25632,-4.77019,0.0485669,-0.35349,-0.553258,-0.116198,-0.537509,-0.112512,-2.25632,0,0,270,61,270,61,369,71,270,155,0.242953,0.135644,0.513372,-1.5,7.95191e-38,0,0,0,-0.553258,-0.116198,0.109375,-0.109375,0,0,-0.537509,-0.112512,9900,0,0,0,0,0,0,0,0,0,1,0.232395
7882,0.0869141,0.185547,6.79785,-0.0011209,-0.00188724,-0.002784,-0.02984,-0.0367735,-2.25637,-4.74748,0.0514045,-0.356962,-0.561889,-0.118004,-0.540484,-0.113114,-2.25637,0,0,269,61,269,61,369,70,270,155,0.242846,0.136943,0.497124,-1.5,7.95191e-38,0,0,0,-0.561889,-0.118004,0.109375,-0.109375,0,0,-0.540484,-0.113114,10000,0,0,0,0,0,0,0,0,0,1,0.236008
7898,0.15332,0.185547,-1.44238,-0.00122968,-0.000542185,-0.00239246,-0.0298416,-0.0367659,-2.25644,-4.74748,0.0514045,-0.356962,-0.571112,-0.119934,-0.54362,-0.113747,-2.25637,0,0,269,61,269,61,369,70,270,155,0.242742,0.138308,0.480423,-1.5,7.95191e-38,0,0,0,-0.571112,-0.119934,0.109375,-0.109375,0,0,-0.54362,-0.113747,10000,0,0,0,0,0,0,0,0,0,1,0.239868
7914,0.186523,0.185547,-6.66699,-0.00186667,-0.000780927,-0.00352437,-0.02986,-0.0367708,-2.25649,-4.74748,0.0514045,-0.356962,-0.57984,-0.12176,-0.546546,-0.114337,-2.25649,0,0,269,61,269,61,369,70,270,155,0.242599,0.139621,0.465218,-1.5,7.95191e-38,0,0,0,-0.57984,-0.12176,0.109375,-0.109375,0,0,-0.546546,-0.114337,10000,0,0,0,0,0,0,0,0,0,1,0.24352
7930,0.199219,0.185547,3.34668,0.000376543,-5.05736e-05,-0.00307167,-0.0298456,-0.0367669,-2.25654,-4.80755,0.0431625,-0.34034,-0.588616,-0.123596,-0.549451,-0.114921,-2.25654,0,0,270,61,270,61,369,71,272,154,0.242473,0.140916,0.450494,-1.5,7.95191e-38,0,0,0,-0.588616,-0.123596,0.109375,-0.109375,0,0,-0.549451,-0.114921,9900,0,0,0,0,0,0,0,0,0,1,0.247191
7946,0.199219,0.185547,3.50977,-0.000967744,-9.08892e-05,-0.00412661,-0.0298565,-0.036773,-2.25658,-4.80755,0.0431625,-0.34034,-0.597436,-0.12544,-0.552332,-0.1155,-2.25658,0,0,270,61,270,61,369,71,272,154,0.242342,0.142208,0.436245,-1.5,7.95191e-38,0,0,0,-0.597436,-0.12544,0.109375,-0.109375,0,0,-0.552332,-0.1155,9900,0,0,0,0,0,0,0,0,0,1,0.250881
7963,0.199219,0.185547,3.50977,-0.000967744,-9.08892e-05,-0.00412661,-0.0298565,-0.036773,-2.25658,-4.80755,0.0431685,-0.340345,-0.606859,-0.127411,-0.555369,-0.11611,-2.25658,0,0,270,61,270,61,369,71,272,154,0.242209,0.143569,0.421589,-1.5,7.95191e-38,0,0,0,-0.606859,-0.127411,0.109375,-0.109375,0,0,-0.555369,-0.11611,9900,0,0,0,0,0,0,0,0,0,1,0.254821
7978,0.199219,0.185547,-6.81738,-0.000595138,0.000548357,-0.00401338,-0.0298605,-0.0367686,-2.25667,-4.80755,0.0431685,-0.340345,-0.615215,-0.129157,-0.558027,-0.116643,-2.25667,0,0,270,61,270,61,369,71,272,154,0.242056,0.144792,0.409906,-1.5,7.95191e-38,0,0,0,-0.615215,-0.129157,0.109375,-0.109375,0,0,-0.558027,-0.116643,9900,0,0,0,0,0,0,0,0,0,1,0.258315
7993,0.171875,0.185547,5.86523,-0.000840142,-0.000197966,-0.00255608,-0.0298641,-0.0367629,-2.25675,-4.79783,0.0430793,-0.345958,-0.62361,-0.130912,-0.560665,-0.117171,-2.25667,0,0,270,61,270,61,369,71,272,155,0.241927,0.14599,0.397746,-1.5,7.95191e-38,0,0,0,-0.62361,-0.130912,0.109375,-0.109375,0,0,-0.560665,-0.117171,9900,0,0,0,0,0,0,0,0,0,1,0.261824
8009,0.138672,0.185547,-4.22559,-4.08543e-05,-1.16931e-05,-0.00247384,-0.0298737,-0.0367571,-2.25679,-4.79783,0.0430793,-0.345958,-0.632609,-0.132792,-0.563458,-0.117729,-2.25675,0,0,270,61,270,61,369,71,272,155,0.241759,0.147286,0.385165,-1.5,7.95191e-38,0,0,0,-0.632609,-0.132792,0.109375,-0.109375,0,0,-0.563458,-0.117729,9900,0,0,0,0,0,0,0,0,0,1,0.265585
8025,0.138672,0.185547,-4.22559,-4.08543e-05,-1.16931e-05,-0.00247384,-0.0298737,-0.0367571,-2.25679,-4.80755,0.0431963,-0.340327,-0.641653,-0.134682,-0.566229,-0.118281,-2.25679,0,0,270,61,270,61,369,71,272,154,0.241595,0.148574,0.372974,-1.5,7.95191e-38,0,0,0,-0.641653,-0.134682,0.109375,-0.109375,0,0,-0.566229,-0.118281,9900,0,0,0,0,0,0,0,0,0,1,0.269363
8041,0.0722656,0.185547,3.36426,0.000785403,-0.00171011,-0.00273907,-0.0298323,-0.0367727,-2.25688,-4.80755,0.0431963,-0.340327,-0.650742,-0.13658,-0.568977,-0.118829,-2.25688,0,0,270,61,270,61,369,71,272,154,0.241409,0.149872,0.36117,-1.5,7.95191e-38,0,0,0,-0.650742,-0.13658,0.109375,-0.109375,0,0,-0.568977,-0.118829,9900,0,0,0,0,0,0,0,0,0,1,0.27316
8058,0.0722656,0.185547,3.36426,0.000785403,-0.00171011,-0.00273907,-0.0298323,-0.0367727,-2.25688,-4.77016,0.0486294,-0.35341,-0.660446,-0.138606,-0.571871,-0.119411,-2.25688,0,0,270,61,270,61,369,71,270,155,0.241234,0.151227,0.349037,-1.5,7.95191e-38,0,0,0,-0.660446,-0.138606,0.109375,-0.109375,0,0,-0.571871,-0.119411,9900,0,0,0,0,0,0,0,0,0,1,0.277213
8073,0.0615234,0.185547,-6.56348,-0.00130671,-0.000862504,-0.0036027,-0.0298319,-0.0367722,-2.25698,-4.77016,0.0486294,-0.35341,-0.669049,-0.140402,-0.574404,-0.11992,-2.25698,0,0,270,61,270,61,369,71,270,155,0.241042,0.152445,0.338677,-1.5,7.95191e-38,0,0,0,-0.669049,-0.140402,0.109375,-0.109375,0,0,-0.574404,-0.11992,9900,0,0,0,0,0,0,0,0,0,1,0.280805
8091,0.102539,0.185547,-4.69922,0.000659635,-0.000827323,-0.00377003,-0.0298282,-0.0367653,-2.25709,-4.77019,0.0485672,-0.353479,-0.679424,-0.142568,-0.577419,-0.120525,-2.25698,0,0,270,61,270,61,369,71,270,155,0.240843,0.153877,0.326634,-1.5,7.95191e-38,0,0,0,-0.679424,-0.142568,0.109375,-0.109375,0,0,-0.577419,-0.120525,9900,0,0,0,0,0,0,0,0,0,1,0.285136
8107,0.135742,0.185547,-5.70703,-0.00019224,-4.06577e-05,-0.0024514,-0.0298187,-0.0367693,-2.25712,-4.77019,0.0485672,-0.353479,-0.688689,-0.144502,-0.580074,-0.121057,-2.25712,0,0,270,61,270,61,369,71,270,155,0.240614,0.155183,0.316302,-1.5,7.95191e-38,0,0,0,-0.688689,-0.144502,0.109375,-0.109375,0,0,-0.580074,-0.121057,9900,0,0,0,0,0,0,0,0,0,1,0.289004
8123,0.135742,0.185547,-5.70703,-0.00019224,-4.06577e-05,-0.0024514,-0.0298187,-0.0367693,-2.25712,-4.77017,0.0485615,-0.353447,-0.697998,-0.146444,-0.582708,-0.121587,-2.25712,0,0,270,61,270,61,369,71,270,155,0.240424,0.156454,0.306291,-1.5,7.95191e-38,0,0,0,-0.697998,-0.146444,0.109375,-0.109375,0,0,-0.582708,-0.121587,9900,0,0,0,0,0,0,0,0,0,1,0.292889
8139,0.181641,0.185547,-2.8125,5.81692e-05,-6.35758e-05,-0.00289784,-0.0297997,-0.0367664,-2.2572,-4.77017,0.0485615,-0.353447,-0.707348,-0.148395,-0.585319,-0.122112,-2.2572,0,0,270,61,270,61,369,71,270,155,0.240202,0.157742,0.296603,-1.5,7.95191e-38,0,0,0,-0.707348,-0.148395,0.109375,-0.109375,0,0,-0.585319,-0.122112,9900,0,0,0,0,0,0,0,0,0,1,0.29679
8156,0.148438,0.185547,3.13867,-0.000817599,0.000682,-0.00225253,-0.029802,-0.0367568,-2.25724,-4.77017,0.0485191,-0.353451,-0.717329,-0.150477,-0.58807,-0.122666,-2.25724,0,0,270,61,270,61,369,71,270,155,0.239973,0.1591,0.286639,-1.5,7.95191e-38,0,0,0,-0.717329,-0.150477,0.109375,-0.109375,0,0,-0.58807,-0.122666,9900,0,0,0,0,0,0,0,0,0,1,0.300954
8171,0.0820312,0.185547,-4.59668,-4.24795e-06,-0.000269186,-0.00292613,-0.0297801,-0.0367485,-2.25732,-4.77017,0.0485191,-0.353451,-0.726172,-0.152322,-0.590476,-0.123149,-2.25727,0,0,270,61,270,61,369,71,270,155,0.239766,0.160296,0.278136,-1.5,7.95191e-38,0,0,0,-0.726172,-0.152322,0.109375,-0.109375,0,0,-0.590476,-0.123149,9900,0,0,0,0,0,0,0,0,0,1,0.304644
8187,0.0488281,0.185547,4.37207,-0.0016293,0.000268904,-0.00257298,-0.029787,-0.0367355,-2.25735,-4.77015,0.0485011,-0.353402,-0.735647,-0.154298,-0.593021,-0.123662,-2.25732,0,0,270,61,270,61,369,71,270,155,0.239536,0.161573,0.269333,-1.5,7.95191e-38,0,0,0,-0.735647,-0.154298,0.109375,-0.109375,0,0,-0.593021,-0.123662,9900,0,0,0,0,0,0,0,0,0,1,0.308595
8203,0.0673828,0.185547,0.21875,-0.000138673,0.000534667,-0.00281705,-0.0297926,-0.0367306,-2.25739,-4.77015,0.0485011,-0.353402,-0.745162,-0.156281,-0.595545,-0.124168,-2.25739,0,0,270,61,270,61,369,71,270,155,0.239289,0.162856,0.260809,-1.5,7.95191e-38,0,0,0,-0.745162,-0.156281,0.109375,-0.109375,0,0,-0.595545,-0.124168,9900,0,0,0,0,0,0,0,0,0,1,0.312563
8220,0.100586,0.185547,0.0478516,0.00151054,0.000544489,-0.00231523,-0.0297611,-0.0367207,-2.25744,-4.77011,0.0485001,-0.353306,-0.755315,-0.158398,-0.598203,-0.1247,-2.25744,0,0,270,61,270,61,369,71,270,155,0.239034,0.164209,0.252554,-1.5,7.95191e-38,0,0,0,-0.755315,-0.158398,0.109375,-0.109375,0,0,-0.598203,-0.1247,9900,0,0,0,0,0,0,0,0,0,1,0.316796
8236,0.133789,0.185547,3.51855,-0.00197993,-0.000226076,-0.00240978,-0.0297677,-0.03672,-2.25748,-4.77011,0.0485001,-0.353306,-0.764912,-0.160398,-0.600681,-0.125197,-2.25748,0,0,270,61,270,61,369,71,270,155,0.238787,0.16548,0.245058,-1.5,7.95191e-38,0,0,0,-0.764912,-0.160398,0.109375,-0.109375,0,0,-0.600681,-0.125197,9900,0,0,0,0,0,0,0,0,0,1,0.320797
8252,0.166992,0.185547,-4.42969,-0.00123215,-0.00152274,-0.00330502,-0.0297715,-0.036724,-2.25752,-4.79468,0.0488028,-0.352115,-0.774549,-0.162407,-0.60314,-0.125689,-2.25752,0,0,270,63,270,63,369,71,270,155,0.238532,0.166753,0.237302,-1.5,7.95191e-38,0,0,0,-0.774549,-0.162407,0.109375,-0.109375,0,0,-0.60314,-0.125689,9702,0,0,0,0,0,0,0,0,0,1,0.324814
8268,0.224609,0.185547,0.573242,0.000293503,-0.000232683,-0.0021975,-0.0297731,-0.0367306,-2.2576,-4.79468,0.0488028,-0.352115,-0.784225,-0.164423,-0.605581,-0.126178,-2.25752,0,0,270,63,270,63,369,71,270,155,0.238287,0.168014,0.229791,-1.5,7.95191e-38,0,0,0,-0.784225,-0.164423,0.109375,-0.109375,0,0,-0.605581,-0.126178,9702,0,0,0,0,0,0,0,0,0,1,0.328846
8285,0.211914,0.185547,-1.00879,0.000552046,-0.000718812,-0.00271434,-0.0297571,-0.0367271,-2.25764,-4.75521,0.0454599,-0.357128,-0.794548,-0.166574,-0.608153,-0.126693,-2.2576,0,0,270,61,270,61,369,71,270,155,0.237993,0.169372,0.222072,-1.5,7.95191e-38,0,0,0,-0.794548,-0.166574,0.109375,-0.109375,-0.00999832,0,-0.608153,-0.126693,10000,0,0,0,0,0,0,0,0,0,1,0.333147
8301,0.178711,0.185547,0.762695,-4.06345e-06,-0.000482959,-0.00228403,-0.0297547,-0.0367245,-2.25767,-4.75521,0.0454599,-0.357128,-0.804303,-0.168606,-0.610551,-0.127174,-2.25767,0,0,270,61,270,61,369,71,270,155,0.237712,0.170647,0.215047,-1.5,7.95191e-38,0,0,0,-0.804303,-0.168606,0.109375,-0.109375,-0.00999832,0,-0.610551,-0.127174,10000,0,0,0,0,0,0,0,0,0,1,0.337211
8317,0.145508,0.185547,4.99902,-0.00072536,-0.000432044,-0.00287964,-0.0297468,-0.0367237,-2.25772,-4.77009,0.0484519,-0.353254,-0.814096,-0.170645,-0.61293,-0.127652,-2.25772,0,0,270,61,270,61,369,71,270,155,0.237434,0.171916,0.208246,-1.5,7.95191e-38,0,0,0,-0.814096,-0.170645,0.109375,-0.109375,-0.00999832,0,-0.61293,-0.127652,9900,0,0,0,0,0,0,0,0,0,1,0.341291
8333,0.112305,0.185547,6.37695,-0.000164549,-0.00162548,-0.00275941,-0.0297385,-0.0367344,-2.25776,-4.77009,0.0484519,-0.353254,-0.823928,-0.172693,-0.615289,-0.128126,-2.25776,0,0,270,61,270,61,369,71,270,155,0.23715,0.173184,0.201655,-1.5,7.95191e-38,0,0,0,-0.823928,-0.172693,0.109375,-0.109375,-0.00999832,0,-0.615289,-0.128126,9900,0,0,0,0,0,0,0,0,0,1,0.345385
8349,0.0791016,0.185547,-4.97852,-0.000800412,-0.000474741,-0.00230885,-0.029734,-0.0367352,-2.2578,-4.79471,0.0487591,-0.352182,-0.833796,-0.174748,-0.617629,-0.128598,-2.2578,0,0,270,63,270,63,369,71,270,155,0.236864,0.174449,0.195276,-1.5,7.95191e-38,0,0,0,-0.833796,-0.174748,0.109375,-0.109375,-0.00999832,0,-0.617629,-0.128598,9702,0,0,0,0,0,0,0,0,0,1,0.349495
8364,0.0820312,0.185547,2.24805,-0.00146677,0.000201854,-0.0031084,-0.0297286,-0.0367223,-2.25784,-4.79471,0.0487591,-0.352182,-0.842461,-0.176552,-0.619661,-0.129008,-2.25784,0,0,270,63,270,63,369,71,270,155,0.236606,0.175557,0.189865,-1.5,7.95191e-38,0,0,0,-0.842461,-0.176552,0.109375,-0.109375,-0.00999832,0,-0.619661,-0.129008,9702,0,0,0,0,0,0,0,0,0,1,0.353103
8380,0.148438,0.185547,-4.06934,-0.00050007,0.000276865,-0.00425875,-0.0297171,-0.0367263,-2.25794,-4.79471,0.0487591,-0.352182,-0.853022,-0.17875,-0.622107,-0.129501,-2.25789,0,0,270,63,270,63,369,71,270,155,0.236285,0.176902,0.183486,-1.5,7.95191e-38,0,0,0,-0.853022,-0.17875,0.109375,-0.109375,0,0,-0.622107,-0.129501,9702,0,0,0,0,0,0,0,0,0,1,0.3575
8396,0.181641,0.185547,-2.08203,0.000172193,0.000782706,-0.0028219,-0.0297141,-0.0367154,-2.25797,-4.76106,0.048527,-0.352901,-0.862999,-0.180827,-0.62439,-0.129962,-2.25794,0,0,270,61,270,61,369,70,270,155,0.235977,0.178168,0.177682,-1.5,7.95191e-38,0,0,0,-0.862999,-0.180827,0.109375,-0.109375,0,0,-0.62439,-0.129962,9900,0,0,0,0,0,0,0,0,0,1,0.361654
8412,0.214844,0.185547,4.2207,-0.000263307,-0.00070998,-0.0028606,-0.0297106,-0.0367225,-2.25801,-4.76106,0.048527,-0.352901,-0.873012,-0.182911,-0.626653,-0.130418,-2.25801,0,0,270,61,270,61,369,70,270,155,0.235655,0.179437,0.172062,-1.5,7.95191e-38,0,0,0,-0.873012,-0.182911,0.109375,-0.109375,0,0,-0.626653,-0.130418,9900,0,0,0,0,0,0,0,0,0,1,0.365822
8428,0.214844,0.185547,4.2207,-0.000263307,-0.00070998,-0.0028606,-0.0297106,-0.0367225,-2.25801,-4.77007,0.0483913,-0.35321,-0.883062,-0.185002,-0.628899,-0.130871,-2.25801,0,0,270,61,270,61,369,71,270,155,0.235354,0.18069,0.166617,-1.5,7.95191e-38,0,0,0,-0.883062,-0.185002,0.109375,-0.109375,0,0,-0.628899,-0.130871,9900,0,0,0,0,0,0,0,0,0,1,0.370005
8444,0.203125,0.185547,6.29492,-0.00134921,-2.24975e-05,-0.00246207,-0.0297357,-0.0367165,-2.25809,-4.77007,0.0483913,-0.35321,-0.893148,-0.187101,-0.631128,-0.131319,-2.25809,0,0,270,61,270,61,369,71,270,155,0.23502,0.18196,0.161343,-1.5,7.95191e-38,0,0,0,-0.893148,-0.187101,0.109375,-0.109375,0,0,-0.631128,-0.131319,9900,0,0,0,0,0,0,0,0,0,1,0.374202
8460,0.203125,0.185547,6.29492,-0.00134921,-2.24975e-05,-0.00246207,-0.0297357,-0.0367165,-2.25809,-4.77009,0.0483862,-0.353243,-0.90327,-0.189207,-0.63334,-0.131762,-2.25809,0,0,270,61,270,61,369,71,270,155,0.234709,0.18321,0.156237,-1.5,7.95191e-38,0,0,0,-0.90327,-0.189207,0.109375,-0.109375,0,0,-0.63334,-0.131762,9900,0,0,0,0,0,0,0,0,0,1,0.378414
8476,0.103516,0.185547,6.67285,0.000122496,0.000360814,-0.00318487,-0.0297078,-0.0367222,-2.2582,-4.77009,0.0483862,-0.353243,-0.913426,-0.19132,-0.635535,-0.132201,-2.25816,0,0,270,61,270,61,369,71,270,155,0.234367,0.184477,0.151292,-1.5,7.95191e-38,0,0,0,-0.913426,-0.19132,0.109375,-0.109375,0,0,-0.635535,-0.132201,9900,0,0,0,0,0,0,0,0,0,1,0.382639
8492,0.0703125,0.185547,6.54395,-0.000879157,0.000310407,-0.00234029,-0.0297164,-0.0367088,-2.25824,-4.77008,0.0484235,-0.353215,-0.923618,-0.193439,-0.637709,-0.132639,-2.2582,0,0,270,61,270,61,369,71,270,155,0.23403,0.185735,0.146504,-1.5,7.95191e-38,0,0,0,-0.923618,-0.193439,0.109375,-0.109375,0,0,-0.637709,-0.132639,9900,0,0,0,0,0,0,0,0,0,1,0.386879
8508,0.046875,0.185547,-5.35645,0.0011931,0.000228333,-0.00406502,-0.0297002,-0.0367085,-2.2583,-4.77008,0.0484235,-0.353215,-0.933843,-0.195566,-0.639866,-0.133071,-2.2583,0,0,270,61,270,61,369,71,270,155,0.233671,0.187004,0.14187,-1.5,7.95191e-38,0,0,0,-0.933843,-0.195566,0.109375,-0.109375,0,0,-0.639866,-0.133071,9900,0,0,0,0,0,0,0,0,0,1,0.391132
8524,0.046875,0.185547,-5.35645,0.0011931,0.000228333,-0.00406502,-0.0297002,-0.0367085,-2.2583,-4.77006,0.0483947,-0.353179,-0.944103,-0.1977,-0.642004,-0.1335,-2.2583,0,0,270,61,270,61,369,71,270,155,0.233339,0.18825,0.13738,-1.5,7.95191e-38,0,0,0,-0.944103,-0.1977,0.109375,-0.109375,0,0,-0.642004,-0.1335,9900,0,0,0,0,0,0,0,0,0,1,0.395399
8539,0.046875,0.185547,3.14746,-0.000759662,-0.00047128,-0.00282983,-0.0296976,-0.0366965,-2.25837,-4.77006,0.0483947,-0.353179,-0.953753,-0.199706,-0.643993,-0.133898,-2.25837,0,0,270,61,270,61,369,71,270,155,0.232997,0.189435,0.133302,-1.5,7.95191e-38,0,0,0,-0.953753,-0.199706,0.109375,-0.109375,0,0,-0.643993,-0.133898,9900,0,0,0,0,0,0,0,0,0,1,0.399412
8555,0.046875,0.185547,-3.76172,-0.00116246,-6.20963e-05,-0.00286559,-0.0297054,-0.0366837,-2.2584,-4.77006,0.0483947,-0.353179,-0.964079,-0.201853,-0.646096,-0.134318,-2.2584,0,0,270,61,270,61,369,71,270,155,0.232642,0.190688,0.129083,-1.5,7.95191e-38,0,0,0,-0.964079,-0.201853,0.109375,-0.109375,0,0,-0.646096,-0.134318,9900,0,0,0,0,0,0,0,0,0,1,0.403706
8575,0.046875,0.185547,1.31738,-0.000222131,-0.00135435,-0.00381887,-0.029675,-0.0366968,-2.2585,-6.96782,-5.80916,-0.407993,-0.977036,-0.204546,-0.648704,-0.134837,-2.2584,0,0,639,136,639,136,696,120,635,198,0.232209,0.192242,0.123986,-1.5,7.95191e-38,0,0,0,-0.977036,-0.204546,0.109375,-0.109375,0,0,-0.648704,-0.134837,4836,0,0,0,0,0,0,0,0,0,1,0.409093
8591,0.046875,0.185547,1.31738,-0.000222131,-0.00135435,-0.00381887,-0.029675,-0.0366968,-2.2585,-4.80739,0.0429574,-0.339949,-0.987437,-0.206708,-0.650768,-0.135252,-2.2585,0,0,270,61,270,61,369,71,272,154,0.231821,0.193507,0.120062,-1.5,7.95191e-38,0,0,0,-0.987437,-0.206708,0.109375,-0.109375,0,0,-0.650768,-0.135252,9900,0,0,0,0,0,0,0,0,0,1,0.413416
8607,0.124023,0.185547,1.50977,-0.000748143,0.00113557,-0.00439182,-0.0296778,-0.0366924,-2.25859,-4.80739,0.0429574,-0.339949,-0.99787,-0.208876,-0.652815,-0.135663,-2.25859,0,0,270,61,270,61,369,71,272,154,0.231429,0.194771,0.116264,-1.5,7.95191e-38,0,0,0,-0.99787,-0.208876,0.109375,-0.109375,0,0,-0.652815,-0.135663,9900,0,0,0,0,0,0,0,0,0,1,0.417752
8623,0.124023,0.185547,1.50977,-0.000748143,0.00113557,-0.00439182,-0.0296778,-0.0366924,-2.25859,-4.80741,0.0429116,-0.34001,-1.00834,-0.211051,-0.654846,-0.13607,-2.25859,0,0,270,61,270,61,369,71,272,154,0.231066,0.196012,0.112584,-1.5,7.95191e-38,0,0,0,-1.00834,-0.211051,0.109375,-0.109375,0,0,-0.654846,-0.13607,9900,0,0,0,0,0,0,0,0,0,1,0.422102
8640,0.207031,0.185547,-3.63867,-0.00135132,-0.000990558,-0.00231528,-0.0296964,-0.0366997,-2.25866,-4.80741,0.0429116,-0.34001,-1.01949,-0.213369,-0.656987,-0.136498,-2.25866,0,0,270,61,270,61,369,71,272,154,0.230652,0.197345,0.108802,-1.5,7.95191e-38,0,0,0,-1.01949,-0.213369,0.109375,-0.109375,0,0,-0.656987,-0.136498,9900,0,0,0,0,0,0,0,0,0,1,0.426738
8656,0.173828,0.185547,5.45508,-0.00122843,-0.000300671,-0.00211463,-0.0296952,-0.0366929,-2.25869,-4.77004,0.0483649,-0.353136,-1.03003,-0.215557,-0.658988,-0.136896,-2.25869,0,0,270,61,270,61,369,71,270,155,0.230267,0.198593,0.105359,-1.5,7.95191e-38,0,0,0,-1.03003,-0.215557,0.109375,-0.109375,0,0,-0.658988,-0.136896,9900,0,0,0,0,0,0,0,0,0,1,0.431114
8672,0.107422,0.185547,7.34277,0.00076312,-0.000628709,-0.00321842,-0.0296986,-0.0366985,-2.25876,-4.77004,0.0483649,-0.353136,-1.04059,-0.217752,-0.660972,-0.13729,-2.25869,0,0,270,61,270,61,369,71,270,155,0.229891,0.199832,0.102024,-1.5,7.95191e-38,0,0,0,-1.04059,-0.217752,0.109375,-0.109375,0,0,-0.660972,-0.13729,9900,0,0,0,0,0,0,0,0,0,1,0.435503
8688,0.107422,0.185547,7.34277,0.00076312,-0.000628709,-0.00321842,-0.0296986,-0.0366985,-2.25876,-4.75769,0.0480867,-0.359359,-1.05119,-0.219952,-0.662941,-0.137681,-2.25876,0,0,270,61,270,61,369,71,270,155,0.229485,0.201086,0.098795,-1.5,7.95191e-38,0,0,0,-1.05119,-0.219952,0.109375,-0.109375,0,0,-0.662941,-0.137681,9999,0,0,0,0,0,0,0,0,0,1,0.439905
8705,0.0517578,0.185547,2.25586,-0.000932288,-0.000540843,-0.00268717,-0.0297004,-0.036701,-2.25885,-4.75769,0.0480867,-0.359359,-1.06248,-0.222298,-0.665017,-0.138093,-2.25885,0,0,270,61,270,61,369,71,270,155,0.229042,0.202421,0.0954761,-1.5,7.95191e-38,0,0,0,-1.06248,-0.222298,0.109375,-0.109375,0,0,-0.665017,-0.138093,9999,0,0,0,0,0,0,0,0,0,1,0.444595
8720,0.0517578,0.185547,6.25195,0.0010267,0.000128213,-0.00237326,-0.0296809,-0.036693,-2.25889,-4.77005,0.0483709,-0.353142,-1.07247,-0.224372,-0.666832,-0.138454,-2.25889,0,0,270,61,270,61,369,71,270,155,0.228663,0.203589,0.0926422,-1.5,7.95191e-38,0,0,0,-1.07247,-0.224372,0.109375,-0.109375,0,0,-0.666832,-0.138454,9900,0,0,0,0,0,0,0,0,0,1,0.448745
8735,0.0517578,0.185547,-1.25195,-0.000378049,0.000417207,-0.00292917,-0.0296707,-0.0366796,-2.25892,-4.77005,0.0483709,-0.353142,-1.08249,-0.226453,-0.668631,-0.138812,-2.25892,0,0,270,61,270,61,369,71,270,155,0.22828,0.204755,0.0898939,-1.5,7.95191e-38,0,0,0,-1.08249,-0.226453,0.109375,-0.109375,-0.00999832,-0.00999832,-0.668631,-0.138812,9900,0,0,0,0,0,0,0,0,0,1,0.452905
8752,0.0654297,0.185547,-5.54297,-0.000603527,-0.000636659,-0.00250821,-0.029673,-0.0366775,-2.25895,-4.77,0.0483265,-0.353041,-1.09388,-0.228817,-0.670653,-0.139213,-2.25895,0,0,270,61,270,61,369,71,270,155,0.227844,0.206073,0.086874,-1.5,7.95191e-38,0,0,0,-1.09388,-0.228817,0.109375,-0.109375,-0.00999832,-0.00999832,-0.670653,-0.139213,9900,0,0,0,0,0,0,0,0,0,1,0.457634
8767,0.131836,0.185547,6.90137,-0.000659323,-0.000270392,-0.00290155,-0.029675,-0.0366684,-2.25904,-4.77,0.0483265,-0.353041,-1.10396,-0.230908,-0.672423,-0.139565,-2.25895,0,0,270,61,270,61,369,71,270,155,0.227466,0.20723,0.0842954,-1.5,7.95191e-38,0,0,0,-1.10396,-0.230908,0.109375,-0.109375,-0.00999832,-0.00999832,-0.672423,-0.139565,9900,0,0,0,0,0,0,0,0,0,1,0.461817
8784,0.165039,0.185547,-6.11426,-0.00151901,-0.00088703,-0.00244415,-0.029672,-0.0366797,-2.25909,-4.76998,0.0483329,-0.352989,-1.11541,-0.233285,-0.674412,-0.139957,-2.25909,0,0,270,61,270,61,369,71,270,155,0.22698,0.208571,0.0814636,-1.5,7.95191e-38,0,0,0,-1.11541,-0.233285,0.109375,-0.109375,-0.00999832,-0.00999832,-0.674412,-0.139957,9900,0,0,0,0,0,0,0,0,0,1,0.466571
8800,0.173828,0.185547,-0.287109,-0.00118862,0.000827396,-0.00262417,-0.0296736,-0.0366748,-2.25913,-4.76998,0.0483329,-0.352989,-1.12622,-0.235528,-0.676269,-0.140325,-2.25913,0,0,270,61,270,61,369,71,270,155,0.226553,0.209811,0.0788853,-1.5,7.95191e-38,0,0,0,-1.12622,-0.235528,0.109375,-0.109375,-0.00999832,-0.00999832,-0.676269,-0.140325,9900,0,0,0,0,0,0,0,0,0,1,0.471057
8817,0.173828,0.185547,6.7666,-0.00106179,-9.0436e-05,-0.00295242,-0.029684,-0.0366731,-2.25917,-4.79684,0.0428465,-0.345562,-1.13774,-0.237918,-0.678227,-0.140711,-2.25917,0,0,272,61,272,61,369,71,270,155,0.226094,0.21113,0.0762352,-1.5,7.95191e-38,0,0,0,-1.13774,-0.237918,0.109375,-0.109375,-0.00999832,-0.00999832,-0.678227,-0.140711,9900,0,0,0,0,0,0,0,0,0,1,0.475837
8832,0.173828,0.185547,6.7666,-0.00106179,-9.0436e-05,-0.00295242,-0.029684,-0.0366731,-2.25917,-4.79684,0.0428465,-0.345562,-1.14793,-0.240032,-0.67994,-0.141048,-2.25917,0,0,272,61,272,61,369,71,270,155,0.2257,0.212283,0.0739724,-1.5,7.95191e-38,0,0,0,-1.14793,-0.240032,0.109375,-0.109375,-0.00999832,-0.00999832,-0.67994,-0.141048,9900,0,0,0,0,0,0,0,0,0,1,0.480064
8849,0.173828,0.185547,5.78711,-0.00073452,-0.00080933,-0.00237921,-0.0296908,-0.0366676,-2.25924,-4.79684,0.042862,-0.345554,-1.15951,-0.242434,-0.681868,-0.141426,-2.25924,0,0,272,61,272,61,369,71,270,155,0.225223,0.213605,0.0714856,-1.5,7.95191e-38,0,0,0,-1.15951,-0.242434,0.109375,-0.109375,-0.00999832,-0.00999832,-0.681868,-0.141426,9900,0,0,0,0,0,0,0,0,0,1,0.484869
8865,0.173828,0.185547,7.11133,-0.000230537,0.000135648,-0.00309347,-0.0296835,-0.0366499,-2.25932,-4.79684,0.042862,-0.345554,-1.17044,-0.244701,-0.683667,-0.141778,-2.25924,0,0,272,61,272,61,369,71,270,155,0.224794,0.214834,0.0692245,-1.5,7.95191e-38,0,0,0,-1.17044,-0.244701,0.109375,-0.109375,-0.00999832,-0.00999832,-0.683667,-0.141778,9900,0,0,0,0,0,0,0,0,0,1,0.489401
8882,0.173828,0.185547,5.45605,-0.00247073,-0.000423738,-0.00306243,-0.0296869,-0.0366488,-2.25936,-4.79284,0.0456666,-0.343813,-1.18208,-0.247115,-0.685561,-0.142146,-2.25936,0,0,269,61,269,61,369,71,272,154,0.224286,0.216166,0.066899,-1.5,7.95191e-38,0,0,0,-1.18208,-0.247115,0.109375,-0.109375,-0.00999832,-0.00999832,-0.685561,-0.142146,10000,0,0,0,0,0,0,0,0,0,1,0.49423
8897,0.173828,0.185547,3.85938,-0.000262418,-0.000266655,-0.00253598,-0.0296692,-0.0366535,-2.2594,-4.79284,0.0456666,-0.343813,-1.19238,-0.24925,-0.687217,-0.142469,-2.2594,0,0,269,61,269,61,369,71,272,154,0.223861,0.217324,0.0649144,-1.5,7.95191e-38,0,0,0,-1.19238,-0.24925,0.109375,-0.109375,-0.00999832,-0.00999832,-0.687217,-0.142469,10000,0,0,0,0,0,0,0,0,0,1,0.4985
8912,0.173828,0.185547,5.19238,-0.000293353,-0.000119468,-0.00412431,-0.0296658,-0.0366548,-2.25946,-4.79284,0.0456666,-0.343813,-1.2027,-0.25139,-0.68886,-0.14279,-2.25946,0,0,269,61,269,61,369,71,272,154,0.223424,0.218487,0.0629886,-1.5,7.95191e-38,0,0,0,-1.2027,-0.25139,0.109375,-0.109375,-0.00999832,-0.00999832,-0.68886,-0.14279,10000,0,0,0,0,0,0,0,0,0,1,0.502781
8928,0.173828,0.185547,5.19238,-0.000293353,-0.000119468,-0.00412431,-0.0296658,-0.0366548,-2.25946,-4.79285,0.0456451,-0.34383,-1.21374,-0.253678,-0.6906,-0.14313,-2.25946,0,0,269,61,269,61,369,71,272,154,0.222979,0.219712,0.0609963,-1.5,7.95191e-38,0,0,0,-1.21374,-0.253678,0.109375,-0.109375,-0.00999832,-0.00999832,-0.6906,-0.14313,10000,0,0,0,0,0,0,0,0,0,1,0.507357
8944,0.173828,0.185547,0.233398,-0.000121354,0.000411373,-0.00187267,-0.0296705,-0.0366296,-2.25953,-4.79285,0.0456451,-0.34383,-1.22481,-0.255972,-0.692324,-0.143466,-2.25953,0,0,269,61,269,61,369,71,272,154,0.222504,0.220951,0.059067,-1.5,7.95191e-38,0,0,0,-1.22481,-0.255972,0.109375,-0.109375,-0.00999832,-0.00999832,-0.692324,-0.143466,10000,0,0,0,0,0,0,0,0,0,1,0.511944
8960,0.173828,0.185547,5.22949,0.000395581,-0.00108251,-0.00309995,-0.0296591,-0.0366357,-2.25961,-4.79285,0.0456401,-0.343836,-1.2359,-0.258271,-0.694034,-0.143797,-2.25953,0,0,269,61,269,61,369,71,272,154,0.222051,0.222174,0.0573138,-1.5,7.95191e-38,0,0,0,-1.2359,-0.258271,0.109375,-0.109375,-0.00999832,-0.00999832,-0.694034,-0.143797,10000,0,0,0,0,0,0,0,0,0,1,0.516541
8976,0.173828,0.185547,3.84668,0.000573794,-0.000729168,-0.00268443,-0.0296459,-0.036636,-2.25964,-4.79285,0.0456401,-0.343836,-1.24703,-0.260575,-0.69573,-0.144126,-2.25961,0,0,269,61,269,61,369,71,272,154,0.221562,0.223414,0.0554998,-1.5,7.95191e-38,0,0,0,-1.24703,-0.260575,0.109375,-0.109375,-0.00999832,-0.00999832,-0.69573,-0.144126,10000,0,0,0,0,0,0,0,0,0,1,0.52115
8992,0.173828,0.185547,3.84668,0.000573794,-0.000729168,-0.00268443,-0.0296459,-0.036636,-2.25964,-4.76992,0.048309,-0.352836,-1.25818,-0.262884,-0.697411,-0.144453,-2.25964,0,0,270,61,270,61,369,71,270,155,0.221085,0.224644,0.0537432,-1.5,7.95191e-38,0,0,0,-1.25818,-0.262884,0.109375,-0.109375,-0.00999832,-0.00999832,-0.697411,-0.144453,9900,0,0,0,0,0,0,0,0,0,1,0.525769
9009,0.173828,0.185547,-2.98047,-0.000820449,-0.000268603,-0.00342955,-0.0296339,-0.0366321,-2.25973,-4.76992,0.048309,-0.352836,-1.27005,-0.265344,-0.699181,-0.144799,-2.25973,0,0,270,61,270,61,369,71,270,155,0.220556,0.22596,0.0519378,-1.5,7.95191e-38,0,0,0,-1.27005,-0.265344,0.109375,-0.109375,0,0,-0.699181,-0.144799,9900,0,0,0,0,0,0,0,0,0,1,0.530688
9025,0.173828,0.185547,-2.98047,-0.000820449,-0.000268603,-0.00342955,-0.0296339,-0.0366321,-2.25973,-4.79677,0.0428048,-0.345379,-1.28126,-0.267664,-0.700833,-0.145122,-2.25973,0,0,272,61,272,61,369,71,270,155,0.220086,0.22718,0.050295,-1.5,7.95191e-38,0,0,0,-1.28126,-0.267664,0.109375,-0.109375,0,0,-0.700833,-0.145122,9900,0,0,0,0,0,0,0,0,0,1,0.535328
9041,0.173828,0.185547,6.05371,0.000488235,0.000201501,-0.00183164,-0.0296288,-0.036613,-2.25982,-4.79677,0.0428048,-0.345379,-1.29249,-0.269989,-0.70247,-0.145441,-2.25982,0,0,272,61,272,61,369,71,270,155,0.219577,0.228418,0.0487042,-1.5,7.95191e-38,0,0,0,-1.29249,-0.269989,0.109375,-0.109375,0,0,-0.70247,-0.145441,9900,0,0,0,0,0,0,0,0,0,1,0.539978
9056,0.173828,0.185547,-1.49609,0.00138991,0.000283534,-0.00300964,-0.0296102,-0.03661,-2.25986,-4.79676,0.0427869,-0.34536,-1.30304,-0.272174,-0.70399,-0.145737,-2.25986,0,0,272,61,272,61,369,71,270,155,0.219112,0.229569,0.0472585,-1.5,7.95191e-38,0,0,0,-1.30304,-0.272174,0.109375,-0.109375,0,0,-0.70399,-0.145737,9900,0,0,0,0,0,0,0,0,0,1,0.544347
9073,0.173828,0.185547,-2.2373,-0.000158173,-0.000364302,-0.00315923,-0.0295938,-0.0366075,-2.25994,-4.79676,0.0427869,-0.34536,-1.31502,-0.274655,-0.705699,-0.14607,-2.25986,0,0,272,61,272,61,369,71,270,155,0.2186,0.230863,0.0456709,-1.5,7.95191e-38,0,0,0,-1.31502,-0.274655,0.109375,-0.109375,0,0,-0.705699,-0.14607,9900,0,0,0,0,0,0,0,0,0,1,0.54931
9088,0.173828,0.185547,-2.2373,-0.000158173,-0.000364302,-0.00315923,-0.0295938,-0.0366075,-2.25994,-4.76987,0.0482361,-0.352714,-1.32562,-0.276849,-0.707192,-0.146363,-2.25994,0,0,270,61,270,61,369,71,270,155,0.21811,0.232022,0.0443153,-1.5,7.95191e-38,0,0,0,-1.32562,-0.276849,0.109375,-0.109375,0,0,-0.707192,-0.146363,9900,0,0,0,0,0,0,0,0,0,1,0.553698
9105,0.142578,0.185547,5.4541,-5.83889e-06,0.000656797,-0.00396467,-0.0295759,-0.0365962,-2.26004,-4.76987,0.0482361,-0.352714,-1.33696,-0.279194,-0.708771,-0.146672,-2.26004,0,0,270,61,270,61,369,71,270,155,0.217579,0.233259,0.0429128,-1.5,7.95191e-38,0,0,0,-1.33696,-0.279194,0.109375,-0.109375,0,0,-0.708771,-0.146672,9900,0,0,0,0,0,0,0,0,0,1,0.558388
9121,0.109375,0.185547,-2.52246,-0.000891221,0.000775437,-0.00336291,-0.0295827,-0.0365872,-2.26009,-4.8119,0.0631072,-0.341809,-1.34902,-0.281691,-0.710434,-0.146997,-2.26009,0,0,269,61,269,61,367,71,270,155,0.217034,0.234561,0.0414711,-1.5,7.95191e-38,0,0,0,-1.34902,-0.281691,0.109375,-0.109375,0,0,-0.710434,-0.146997,9800,0,0,0,0,0,0,0,0,0,1,0.563382
9137,0.0761719,0.185547,-7.25879,-0.000940123,0.00102089,-0.00293067,-0.0295886,-0.0365697,-2.26013,-4.8119,0.0631072,-0.341809,-1.36041,-0.284046,-0.711985,-0.147298,-2.26013,0,0,269,61,269,61,367,71,270,155,0.216521,0.235782,0.0401594,-1.5,7.95191e-38,0,0,0,-1.36041,-0.284046,0.109375,-0.109375,0,0,-0.711985,-0.147298,9800,0,0,0,0,0,0,0,0,0,1,0.568092
9153,0.0429688,0.185547,5.04492,-0.000982185,-0.00172846,-0.00287219,-0.0295947,-0.0365808,-2.26017,-4.81185,0.0631261,-0.341685,-1.37181,-0.286406,-0.713524,-0.147595,-2.26017,0,0,269,61,269,61,367,71,270,155,0.216002,0.237004,0.0388884,-1.5,7.95191e-38,0,0,0,-1.37181,-0.286406,0.109375,-0.109375,0,0,-0.713524,-0.147595,9800,0,0,0,0,0,0,0,0,0,1,0.572811
