timestamp,A_x,A_y,A_z,P,Q,R,Phi,Theta,Psi,poseX,poseY,poseZ,state_X,state_Y,state_Z,state_VzB,state_Bx,state_By,state_Bz,p1_x,p1_y,p2_x,p2_y,p3_x,p3_y,p4_x,p4_y,roll,pitch,yaw,alt,targetHeading,highLevelState,lowLevelState,gateNumber,filtered_x,filtered_y,x_OT,y_OT,vx_OT,vy_OT,filtered_vx,filtered_vygateArearansac_corr_x,ransac_corr_y,ransac_corr_vx,ransac_corr_vy,detectionTimeStamppTermX,dTermX,pTermY,dTermY,vxcmd,vycmd
6117,0,0.330078,-5.62793,-0.00122777,-0.0012329,-0.000540082,-0.0227989,-0.0438174,2.02387,0,0,0,3.83812e-07,1.58495e-05,8.31315e-05,0.00336305,2.02439,0,0,0,0,0,0,0,0,0,0,-0.22433,-0.064144,0,-1.5,1.68894e-38,0,0,0,3.83812e-07,1.58495e-05,0,0,0,0,8.31315e-05,0.00336305,1.9603e-19,0,0,0,0,0,0,0,0,0,1,-1.74345e-05
6132,0,0.389648,5.74902,-0.00193738,-0.000800731,-0.00117783,-0.023159,-0.0442811,2.02283,0,0,0,3.71237e-06,0.000144827,0.000289735,0.0110781,2.02323,0,0,0,0,0,0,0,0,0,0,-0.223553,-0.0626605,0,-1.5,1.68894e-38,0,0,0,3.71237e-06,0.000144827,0,0,0,0,0.000289735,0.0110781,1.9603e-19,0,0,0,0,0,0,0,0,0,1,-0.00015931
6150,0,0.242188,-1.99609,-0.000831538,-0.000922902,-0.00192026,-0.0234765,-0.0446859,2.02183,0,0,0,1.1852e-05,0.000444343,0.000548249,0.019783,2.02224,0,0,0,0,0,0,0,0,0,0,-0.22262,-0.0608781,0,-1.5,1.68894e-38,0,0,0,1.1852e-05,0.000444343,0,0,0,0,0.000548249,0.019783,1.9603e-19,0,0,0,0,0,0,0,0,0,1,-0.000488777
6167,0,0.338867,-6.69043,-0.0019103,-0.00033421,-0.00108591,-0.0235459,-0.0449828,2.02099,0,0,0,2.40218e-05,0.000868775,0.000814207,0.0280114,2.02125,0,0,0,0,0,0,0,0,0,0,-0.221727,-0.0591708,0,-1.5,1.68894e-38,0,0,0,2.40218e-05,0.000868775,0,0,0,0,0.000814207,0.0280114,1.9603e-19,0,0,0,0,0,0,0,0,0,1,-0.000955653
6183,0,0.338867,5.98535,-0.000880898,-0.00151001,-0.00023333,-0.0235432,-0.044993,2.02097,0,0,0,3.96716e-05,0.00139819,0.00106318,0.0357359,2.02097,0,0,0,0,0,0,0,0,0,0,-0.220799,-0.0573889,0,-1.5,1.68894e-38,0,0,0,3.96716e-05,0.00139819,0,0,0,0,0.00106318,0.0357359,1.9603e-19,0,0,0,0,0,0,0,0,0,1,-0.00153801
6199,0,0.338867,5.79102,-0.000680173,-8.92557e-05,-0.000721844,-0.0235399,-0.0449926,2.02095,0,0,0,5.9192e-05,0.00204814,0.00130908,0.0433983,2.02095,0,0,0,0,0,0,0,0,0,0,-0.219834,-0.0555347,0,-1.5,1.68894e-38,0,0,0,5.9192e-05,0.00204814,0,0,0,0,0.00130908,0.0433983,1.9603e-19,0,0,0,0,0,0,0,0,0,1,-0.00225296
6215,0,0.338867,-6.30469,-0.000714121,-0.00119639,-0.000801738,-0.023536,-0.0450051,2.02094,0,0,0,8.26218e-05,0.00282007,0.00155229,0.0510001,2.02094,0,0,0,0,0,0,0,0,0,0,-0.218862,-0.0536619,0,-1.5,1.68894e-38,0,0,0,8.26218e-05,0.00282007,0,0,0,0,0.00155229,0.0510001,1.9603e-19,0,0,0,0,0,0,0,0,0,1,-0.00310208
6231,0,0.338867,-0.387695,-0.00182896,3.09446e-05,-0.00258942,-0.0235633,-0.045021,2.0209,0,0,0,0.000109917,0.00371302,0.00179376,0.0585437,2.02093,0,0,0,0,0,0,0,0,0,0,-0.217882,-0.0517716,0,-1.5,1.68894e-38,0,0,0,0.000109917,0.00371302,0,0,0,0,0.00179376,0.0585437,1.9603e-19,0,0,0,0,0,0,0,0,0,1,-0.00408432
6246,0,0.338867,3.50195,-0.00306854,-0.00075497,-0.00170372,-0.0235836,-0.0450361,2.02088,0,0,0,0.000139011,0.00465913,0.00201999,0.0655633,2.0209,0,0,0,0,0,0,0,0,0,0,-0.216958,-0.049988,0,-1.5,1.68894e-38,0,0,0,0.000139011,0.00465913,0,0,0,0,0.00201999,0.0655633,1.9603e-19,0,0,0,0,0,0,0,0,0,1,-0.00512504
6262,0,0.338867,-6.18164,-0.000530014,-0.00157653,-0.0027627,-0.0235915,-0.0450522,2.02085,0,0,0,0.000173875,0.00578633,0.00226192,0.0729983,2.02085,0,0,0,0,0,0,0,0,0,0,-0.215965,-0.0480712,0,-1.5,1.68894e-38,0,0,0,0.000173875,0.00578633,0,0,0,0,0.00226192,0.0729983,1.9603e-19,0,0,0,0,0,0,0,0,0,1,-0.00636496
6278,0,0.338867,0.879883,-0.00282928,-0.000150602,-0.000288043,-0.0236058,-0.0450427,2.02084,0,0,0,0.000212518,0.00702957,0.00250279,0.0803751,2.02084,0,0,0,0,0,0,0,0,0,0,-0.214962,-0.0461314,0,-1.5,1.68894e-38,0,0,0,0.000212518,0.00702957,0,0,0,0,0.00250279,0.0803751,1.9603e-19,0,0,0,0,0,0,0,0,0,1,-0.00773252
6294,0,0.338867,-4.91602,-0.00201146,-0.000696292,-0.000801775,-0.023619,-0.045049,2.02083,0,0,0,0.000255025,0.00839023,0.00274446,0.0876936,2.02083,0,0,0,0,0,0,0,0,0,0,-0.21395,-0.0441759,0,-1.5,1.68894e-38,0,0,0,0.000255025,0.00839023,0,0,0,0,0.00274446,0.0876936,1.9603e-19,0,0,0,0,0,0,0,0,0,1,-0.00922925
6315,0,0.338867,3.84766,-0.00135402,0.000102545,-0.00126128,-0.023626,-0.0450356,2.0208,0,0,0,0.000317227,0.0103695,0.00306118,0.0972198,2.02082,0,0,0,0,0,0,0,0,0,0,-0.212608,-0.0415785,0,-1.5,1.68894e-38,0,0,0,0.000317227,0.0103695,0,0,0,0,0.00306118,0.0972198,1.9603e-19,0,0,0,0,0,0,0,0,0,1,-0.0114065
6332,0,0.338867,6.75098,-0.00139545,0.000426081,-0.00134067,-0.0236202,-0.0450341,2.02079,0,0,0,0.000372169,0.0121091,0.00331624,0.104853,2.02079,0,0,0,0,0,0,0,0,0,0,-0.211516,-0.0394632,0,-1.5,1.68894e-38,0,0,0,0.000372169,0.0121091,0,0,0,0,0.00331624,0.104853,1.9603e-19,0,0,0,0,0,0,0,0,0,1,-0.01332
6389,0,0.338867,-3.95898,-0.00159021,-0.00130068,-0.00155311,-0.0236388,-0.0450573,2.02072,0,0,0,0.000602676,0.0193293,0.00416213,0.130198,2.02072,0,0,0,0,0,0,0,0,0,0,-0.207716,-0.0320761,0,-1.5,1.68894e-38,0,0,0,0.000602676,0.0193293,0,0,0,0,0.00416213,0.130198,1.9603e-19,0,0,0,0,0,0,0,0,0,1,-0.0212623
6402,0,0.338867,-3.48242,-0.0011748,-0.00131164,-0.00230271,-0.0236528,-0.0450845,2.02066,0,0,0,0.000658312,0.0210674,0.00435127,0.135829,2.02066,0,0,0,0,0,0,0,0,0,0,-0.206862,-0.0304115,0,-1.5,1.68894e-38,0,0,0,0.000658312,0.0210674,0,0,0,0,0.00435127,0.135829,1.9603e-19,0,0,0,0,0,0,0,0,0,1,-0.0231742
6416,0,0.338867,-6.80762,-0.0020513,-0.000649747,-0.00124821,-0.0236631,-0.0451004,2.02064,0,0,0,0.000720984,0.0230212,0.00455412,0.141855,2.02064,0,0,369098752,-534446081,369098752,-534446081,33554432,33554432,-1075088617,0,-0.20593,-0.028597,0,-1.5,1.68894e-38,0,0,0,0.000720984,0.0230212,0,0,0,0,0.00455412,0.141855,0,0,0,0,0,0,0,0,0,0,1,-0.0253233
6434,0,0.338867,-6.80762,-0.0020513,-0.000649747,-0.00124821,-0.0236631,-0.0451004,2.02064,0,0,0,0.000806031,0.0256658,0.0048133,0.149548,2.02064,0,0,369098752,-534446081,369098752,-534446081,33554432,33554432,-1075088617,0,-0.20472,-0.0262384,0,-1.5,1.68894e-38,0,0,0,0.000806031,0.0256658,0,0,0,0,0.0048133,0.149548,0,0,0,0,0,0,0,0,0,0,1,-0.0282324
6450,0,0.338867,3.39941,-0.00169513,-0.00129956,-0.000591309,-0.0236562,-0.0451165,2.02059,0,0,0,0.00088544,0.0281298,0.00504042,0.156327,2.0206,0,0,369098752,-534446081,369098752,-534446081,33554432,33554432,-1075088617,0,-0.203642,-0.0241339,0,-1.5,1.68894e-38,0,0,0,0.00088544,0.0281298,0,0,0,0,0.00504042,0.156327,0,0,0,0,0,0,0,0,0,0,1,-0.0309428
6466,0,0.338867,5.5791,-0.00230361,-0.000809482,-0.00195983,-0.023664,-0.0451298,2.02058,0,0,0,0.000968438,0.0307018,0.00526446,0.163052,2.02059,0,0,369098752,-534446081,369098752,-534446081,33554432,33554432,-1075088617,0,-0.202555,-0.0220101,0,-1.5,1.68894e-38,0,0,0,0.000968438,0.0307018,0,0,0,0,0.00526446,0.163052,0,0,0,0,0,0,0,0,0,0,1,-0.033772
6482,0,0.338867,-6.04785,-0.00100145,-0.00115804,-0.00122185,-0.0236627,-0.0451373,2.02057,0,0,0,0.00105502,0.0333808,0.00548778,0.169728,2.02057,0,0,369098752,-534446081,369098752,-534446081,33554432,33554432,-1075088617,0,-0.201462,-0.0198721,0,-1.5,1.68894e-38,0,0,0,0.00105502,0.0333808,0,0,0,0,0.00548778,0.169728,0,0,0,0,0,0,0,0,0,0,1,-0.0367189
6498,0,0.338867,2.71777,-0.00145119,0.00067305,-0.000857588,-0.023662,-0.0451411,2.02055,0,0,0,0.00114508,0.036164,0.00570869,0.17635,2.02055,0,0,369098752,-534446081,369098752,-534446081,33554432,33554432,-1075088617,0,-0.200363,-0.0177194,0,-1.5,1.68894e-38,0,0,0,0.00114508,0.036164,0,0,0,0,0.00570869,0.17635,0,0,0,0,0,0,0,0,0,0,1,-0.0397805
6515,0,0.338867,-1.9248,-0.000567721,-0.00101737,-0.000475573,-0.0236531,-0.0451442,2.02053,-3.84965,0.140214,-0.116199,0.00124469,0.0392389,0.00594074,0.18333,2.02053,0,0,243,1,243,1,365,-8,254,118,-0.199187,-0.0154149,0,-1.5,1.68894e-38,0,0,0,0.00124469,0.0392389,0,0,0,0,0.00594074,0.18333,16758,0,0,0,0,0,0,0,0,0,1,-0.0431628
6530,0,0.338867,-5.16113,-0.00144577,-0.000371123,-0.00058698,-0.0236571,-0.0451464,2.02052,-3.84965,0.140214,-0.116199,0.00133576,0.042048,0.00614328,0.189438,2.02052,0,0,243,1,243,1,365,-8,254,118,-0.198143,-0.0133684,0,-1.5,1.68894e-38,0,0,0,0.00133576,0.042048,0,0,0,0,0.00614328,0.189438,16758,0,0,0,0,0,0,0,0,0,1,-0.0462528
6546,0,0.338867,6.59473,-0.00240112,-0.000757115,-0.00030044,-0.0236607,-0.0451636,2.02049,-3.84965,0.140214,-0.116199,0.00143624,0.045145,0.00635713,0.195905,2.02049,0,0,243,1,243,1,365,-8,254,118,-0.197027,-0.011175,0,-1.5,1.68894e-38,0,0,0,0.00143624,0.045145,0,0,0,0,0.00635713,0.195905,16758,0,0,0,0,0,0,0,0,0,1,-0.0496595
6562,0,0.338867,-6.05176,-0.00126553,-0.000407366,5.99209e-05,-0.0236624,-0.0451636,2.02048,-3.85094,0.142715,-0.109063,0.00154017,0.0483469,0.006569,0.202322,2.02049,0,0,243,1,243,1,365,-9,253,116,-0.1959,-0.00896104,0,-1.5,1.68894e-38,0,0,0,0.00154017,0.0483469,0,0,0,0,0.006569,0.202322,16625,0,0,0,0,0,0,0,0,0,1,-0.0531816
6578,0,0.338867,-4.91992,-0.0013829,-0.000324822,-0.00171477,-0.0236731,-0.0451575,2.02046,-3.85094,0.142715,-0.109063,0.00164743,0.051649,0.00678034,0.208687,2.02046,0,0,243,1,243,1,365,-9,253,116,-0.19477,-0.00673779,0,-1.5,1.68894e-38,0,0,0,0.00164743,0.051649,0,0,0,0,0.00678034,0.208687,16625,0,0,0,0,0,0,0,0,0,1,-0.0568139
6593,0,0.338867,-3.41797,-0.000596005,-0.00058682,-0.00198437,-0.0236739,-0.0451689,2.02044,-3.81086,0.141183,-0.127167,0.00175106,0.0548366,0.00697867,0.214609,2.02044,0,0,243,1,243,1,366,-9,251,116,-0.193704,-0.00464015,0,-1.5,1.68894e-38,0,0,0,0.00175106,0.0548366,0,0,0,0,0.00697867,0.214609,16750,0,0,0,0,0,0,0,0,0,1,-0.0603203
6609,0,0.338867,2.00977,-0.000806911,0.00023597,-0.00159497,-0.0236851,-0.0451691,2.02042,-3.81086,0.141183,-0.127167,0.00186492,0.0583363,0.00718863,0.22088,2.02042,0,0,243,1,243,1,366,-9,251,116,-0.192562,-0.00238989,0,-1.5,1.68894e-38,0,0,0,0.00186492,0.0583363,0,0,0,0,0.00718863,0.22088,16750,0,0,0,0,0,0,0,0,0,1,-0.06417
6622,0,0.338867,-6.43945,0.000135964,-0.00015199,-0.00132188,-0.0236718,-0.0451675,2.0204,-3.82746,0.137176,-0.120649,0.00195975,0.0612486,0.00735859,0.225935,2.0204,0,0,243,1,243,1,366,-9,253,116,-0.19163,-0.0005522,0,-1.5,1.68894e-38,0,0,0,0.00195975,0.0612486,0,0,0,0,0.00735859,0.225935,16750,0,0,0,0,0,0,0,0,0,1,-0.0673735
6638,0,0.338867,2.74512,-0.0010282,-0.000512331,-0.00150988,-0.023663,-0.0451684,2.02037,-3.82746,0.137176,-0.120649,0.00207959,0.0649266,0.00756481,0.232114,2.02037,0,0,243,1,243,1,366,-9,253,116,-0.190477,0.00172202,0,-1.5,1.68894e-38,0,0,0,0.00207959,0.0649266,0,0,0,0,0.00756481,0.232114,16750,0,0,0,0,0,0,0,0,0,1,-0.0714193
6654,0,0.338867,-1.87012,-0.00106611,-0.00087462,-0.000873252,-0.0236685,-0.045174,2.02035,-3.82746,0.137176,-0.120649,0.00220277,0.0687049,0.00776894,0.238244,2.02035,0,0,243,1,243,1,366,-9,253,116,-0.189317,0.00401219,0,-1.5,1.68894e-38,0,0,0,0.00220277,0.0687049,0,0,0,0,0.00776894,0.238244,16750,0,0,0,0,0,0,0,0,0,1,-0.0755754
6670,0,0.338867,-3.04102,-0.000569787,-0.0011203,-0.00104163,-0.0236535,-0.0451818,2.02034,-3.82746,0.137176,-0.120649,0.00232914,0.0725789,0.00797081,0.244325,2.02034,0,0,243,1,243,1,366,-9,253,116,-0.188151,0.00631639,0,-1.5,1.68894e-38,0,0,0,0.00232914,0.0725789,0,0,0,0,0.00797081,0.244325,16750,0,0,0,0,0,0,0,0,0,1,-0.0798368
6686,0,0.338867,2.70898,-0.00120532,-0.000129417,-0.00120378,-0.0236569,-0.0451852,2.0203,-3.83727,0.146646,-0.114587,0.0024587,0.0765496,0.00816899,0.250359,2.02033,0,0,243,1,243,1,365,-9,251,115,-0.186978,0.00863478,0,-1.5,1.68894e-38,0,0,0,0.0024587,0.0765496,0,0,0,0,0.00816899,0.250359,16492,0,0,0,0,0,0,0,0,0,1,-0.0842046
6702,0,0.338867,-6.8916,-0.000662319,-0.000399885,-0.00250571,-0.0236536,-0.045193,2.02028,-3.83727,0.146646,-0.114587,0.00259141,0.0806164,0.00836587,0.256344,2.0203,0,0,243,1,243,1,365,-9,251,115,-0.185802,0.0109644,0,-1.5,1.68894e-38,0,0,0,0.00259141,0.0806164,0,0,0,0,0.00836587,0.256344,16492,0,0,0,0,0,0,0,0,0,1,-0.0886781
6718,0,0.338867,5.23047,-0.000956772,-0.000973177,-0.00129953,-0.0236612,-0.0452043,2.02027,-3.85403,0.14262,-0.107986,0.00271867,0.0845155,0.00854902,0.261913,2.02027,0,0,243,1,243,1,365,-9,253,115,-0.184696,0.0131573,0,-1.5,1.68894e-38,0,0,0,0.00271867,0.0845155,0,0,0,0,0.00854902,0.261913,16492,0,0,0,0,0,0,0,0,0,1,-0.092967
6733,0,0.338867,4.31836,-0.00171089,-0.000269158,-0.00167079,-0.0236742,-0.045205,2.02025,-3.85403,0.14262,-0.107986,0.00285744,0.0887662,0.00874366,0.267809,2.02025,0,0,243,1,243,1,365,-9,253,115,-0.183507,0.0155135,0,-1.5,1.68894e-38,0,0,0,0.00285744,0.0887662,0,0,0,0,0.00874366,0.267809,16492,0,0,0,0,0,0,0,0,0,1,-0.0976429
6750,0,0.338867,-4.42188,-1.487e-05,-0.00044282,-0.00162185,-0.0236589,-0.0452127,2.02023,-3.85403,0.14262,-0.107986,0.00300835,0.0933875,0.00894925,0.274024,2.02023,0,0,243,1,243,1,365,-9,253,115,-0.182239,0.0180308,0,-1.5,1.68894e-38,0,0,0,0.00300835,0.0933875,0,0,0,0,0.00894925,0.274024,16492,0,0,0,0,0,0,0,0,0,1,-0.102726
6765,0,0.338867,3.10645,-0.00165839,-0.00156667,-0.00126427,-0.0236579,-0.0452264,2.0202,-3.85403,0.14262,-0.107986,0.00313512,0.0972689,0.00911559,0.279102,2.0202,0,0,243,1,243,1,365,-9,253,115,-0.181191,0.0201132,0,-1.5,1.68894e-38,0,0,0,0.00313512,0.0972689,0,0,0,0,0.00911559,0.279102,16492,0,0,0,0,0,0,0,0,0,1,-0.106996
6780,0,0.338867,0.358398,-0.000713533,-0.00158265,-0.00120579,-0.0236415,-0.0452441,2.02018,-3.86493,0.142844,-0.110902,0.00328294,0.101795,0.00930258,0.284865,2.02018,0,0,243,1,243,1,365,-8,254,117,-0.179986,0.0225079,0,-1.5,1.68894e-38,0,0,0,0.00328294,0.101795,0,0,0,0,0.00930258,0.284865,16500,0,0,0,0,0,0,0,0,0,1,-0.111975
6796,0,0.338867,0.358398,-0.000713533,-0.00158265,-0.00120579,-0.0236415,-0.0452441,2.02018,-3.86493,0.142844,-0.110902,0.00343365,0.106411,0.00948594,0.290583,2.02018,0,0,243,1,243,1,365,-8,254,117,-0.178772,0.0249188,0,-1.5,1.68894e-38,0,0,0,0.00343365,0.106411,0,0,0,0,0.00948594,0.290583,16500,0,0,0,0,0,0,0,0,0,1,-0.117052
6812,0,0.338867,0.251953,-0.000688766,-0.00115813,-0.000970805,-0.0236296,-0.0452682,2.02013,-3.86493,0.142844,-0.110902,0.00358728,0.111118,0.00966785,0.296254,2.02018,0,0,243,1,243,1,365,-8,254,117,-0.177553,0.0273421,0,-1.5,1.68894e-38,0,0,0,0.00358728,0.111118,0,0,0,0,0.00966785,0.296254,16500,0,0,0,0,0,0,0,0,0,1,-0.12223
6828,0,0.338867,5.37109,-0.001476,-0.000731107,-0.00317249,-0.0236339,-0.0452823,2.02009,-3.86493,0.142844,-0.110902,0.00374378,0.115916,0.00984539,0.301883,2.02009,0,0,243,1,243,1,365,-8,254,117,-0.176346,0.0297634,0,-1.5,1.68894e-38,0,0,0,0.00374378,0.115916,0,0,0,0,0.00984539,0.301883,16500,0,0,0,0,0,0,0,0,0,1,-0.127508
6844,0,0.338867,-2.5498,-0.0012976,-0.00163922,-0.00262377,-0.023637,-0.0452968,2.02006,-3.86493,0.142844,-0.110902,0.0039031,0.120803,0.0100214,0.30747,2.02006,0,0,243,1,243,1,365,-8,254,117,-0.175124,0.0322069,0,-1.5,1.68894e-38,0,0,0,0.0039031,0.120803,0,0,0,0,0.0100214,0.30747,16500,0,0,0,0,0,0,0,0,0,1,-0.132883
6859,0,0.338867,-2.5498,-0.0012976,-0.00163922,-0.00262377,-0.023637,-0.0452968,2.02006,-3.86493,0.142844,-0.110902,0.00405501,0.125465,0.0101849,0.312669,2.02006,0,0,243,1,243,1,365,-8,254,117,-0.173965,0.0345148,0,-1.5,1.68894e-38,0,0,0,0.00405501,0.125465,0,0,0,0,0.0101849,0.312669,16500,0,0,0,0,0,0,0,0,0,1,-0.138012
6875,0,0.338867,4.96289,-0.002803,-0.00155368,-0.00182605,-0.0236542,-0.0453174,2.02002,-3.86493,0.142844,-0.110902,0.00421979,0.130526,0.0103586,0.318174,2.02002,0,0,243,1,243,1,365,-8,254,117,-0.172733,0.036982,0,-1.5,1.68894e-38,0,0,0,0.00421979,0.130526,0,0,0,0,0.0103586,0.318174,16500,0,0,0,0,0,0,0,0,0,1,-0.143579
6891,0,0.338867,4.96289,-0.002803,-0.00155368,-0.00182605,-0.0236542,-0.0453174,2.02002,-3.84685,0.139867,-0.115793,0.00438735,0.135674,0.0105317,0.323638,2.02002,0,0,243,1,243,1,366,-8,253,116,-0.171486,0.0394689,0,-1.5,1.68894e-38,0,0,0,0.00438735,0.135674,0,0,0,0,0.0105317,0.323638,16492,0,0,0,0,0,0,0,0,0,1,-0.149242
6907,0,0.338867,-5.5166,-0.00131022,-0.000873098,-0.000964724,-0.0236395,-0.0453326,2.01998,-3.84685,0.139867,-0.115793,0.00455765,0.140909,0.0107023,0.329058,2.02,0,0,243,1,243,1,366,-8,253,116,-0.170238,0.0419648,0,-1.5,1.68894e-38,0,0,0,0.00455765,0.140909,0,0,0,0,0.0107023,0.329058,16492,0,0,0,0,0,0,0,0,0,1,-0.155
6923,0,0.338867,-6.46094,-0.00108812,-0.000344185,-0.000772743,-0.0236344,-0.0453408,2.01996,-3.84685,0.139867,-0.115793,0.0047306,0.146229,0.0108697,0.334435,2.01998,0,0,243,1,243,1,366,-8,253,116,-0.168985,0.0444726,0,-1.5,1.68894e-38,0,0,0,0.0047306,0.146229,0,0,0,0,0.0108697,0.334435,16492,0,0,0,0,0,0,0,0,0,1,-0.160852
6938,0,0.338867,-4.00195,-0.00104534,-0.00109155,-0.00158916,-0.0236302,-0.0453469,2.01994,-3.84685,0.139867,-0.115793,0.00489514,0.151294,0.0110244,0.339438,2.01994,0,0,243,1,243,1,366,-8,253,116,-0.167812,0.0468296,0,-1.5,1.68894e-38,0,0,0,0.00489514,0.151294,0,0,0,0,0.0110244,0.339438,16492,0,0,0,0,0,0,0,0,0,1,-0.166424
6955,0,0.338867,-4.00195,-0.00104534,-0.00109155,-0.00158916,-0.0236302,-0.0453469,2.01994,-3.84685,0.139867,-0.115793,0.00508446,0.157127,0.0111975,0.345064,2.01994,0,0,243,1,243,1,366,-8,253,116,-0.166466,0.0495226,0,-1.5,1.68894e-38,0,0,0,0.00508446,0.157127,0,0,0,0,0.0111975,0.345064,16492,0,0,0,0,0,0,0,0,0,1,-0.172839
6970,0,0.31543,5.19629,-0.00181379,-0.00080623,-0.000355126,-0.0236353,-0.0453529,2.01991,-3.84685,0.139867,-0.115793,0.00525385,0.162349,0.0113493,0.349988,2.01991,0,0,243,1,243,1,366,-8,253,116,-0.16528,0.0519037,0,-1.5,1.68894e-38,0,0,0,0.00525385,0.162349,0,0,0,0,0.0113493,0.349988,16492,0,0,0,0,0,0,0,0,0,1,-0.178584
6986,0,0.282227,0.0888672,-0.0019462,-0.000759362,-0.000845678,-0.0236442,-0.0453595,2.01989,-3.85406,0.142419,-0.113243,0.00543709,0.168002,0.0115107,0.355201,2.01989,0,0,243,1,243,1,365,-8,253,116,-0.164008,0.0544575,0,-1.5,1.68894e-38,0,0,0,0.00543709,0.168002,0,0,0,0,0.0115107,0.355201,16492,0,0,0,0,0,0,0,0,0,1,-0.184802
7002,0,0.282227,0.0888672,-0.0019462,-0.000759362,-0.000845678,-0.0236442,-0.0453595,2.01989,-3.85406,0.142419,-0.113243,0.0056229,0.173738,0.0116713,0.360373,2.01989,0,0,243,1,243,1,365,-8,253,116,-0.162725,0.057026,0,-1.5,1.68894e-38,0,0,0,0.0056229,0.173738,0,0,0,0,0.0116713,0.360373,16492,0,0,0,0,0,0,0,0,0,1,-0.191112
7019,0,0.228516,-5.72754,-0.00133952,-0.000591672,-0.000842495,-0.0236437,-0.0453716,2.01986,-3.86554,0.145138,-0.108862,0.00582323,0.179926,0.0118404,0.365827,2.01986,0,0,243,1,243,1,365,-8,253,116,-0.161363,0.0597642,0,-1.5,1.68894e-38,0,0,0,0.00582323,0.179926,0,0,0,0,0.0118404,0.365827,16368,0,0,0,0,0,0,0,0,0,1,-0.197919
7035,0,0.266602,-0.602539,-0.00192713,-0.000777751,-0.00116484,-0.023637,-0.0453762,2.01982,-3.86554,0.145138,-0.108862,0.00601428,0.185831,0.0119976,0.370916,2.01982,0,0,243,1,243,1,365,-8,253,116,-0.160081,0.0623494,0,-1.5,1.68894e-38,0,0,0,0.00601428,0.185831,0,0,0,0,0.0119976,0.370916,16368,0,0,0,0,0,0,0,0,0,1,-0.204415
7051,0,0.299805,-0.898438,-0.00239009,-0.000257501,-0.00203639,-0.0236367,-0.0453818,2.01979,-3.8519,0.137913,-0.114197,0.00620788,0.191819,0.0121528,0.375966,2.01979,0,0,243,1,243,1,366,-8,254,117,-0.15879,0.0649485,0,-1.5,1.68894e-38,0,0,0,0.00620788,0.191819,0,0,0,0,0.0121528,0.375966,16625,0,0,0,0,0,0,0,0,0,1,-0.211001
7067,0,0.333008,1.70703,-0.00180621,3.78308e-05,-0.00084901,-0.0236401,-0.045376,2.01977,-3.8519,0.137913,-0.114197,0.00640389,0.197886,0.012307,0.380975,2.01977,0,0,243,1,243,1,366,-8,254,117,-0.157492,0.0675604,0,-1.5,1.68894e-38,0,0,0,0.00640389,0.197886,0,0,0,0,0.012307,0.380975,16625,0,0,0,0,0,0,0,0,0,1,-0.217674
7083,0,0.366211,6.44141,-0.00138495,-7.10382e-05,-0.00113135,-0.0236499,-0.0453769,2.01975,-3.82965,0.146365,-0.120849,0.00660242,0.204034,0.012461,0.385945,2.01975,0,0,243,1,243,1,365,-9,251,116,-0.156188,0.0701833,0,-1.5,1.68894e-38,0,0,0,0.00660242,0.204034,0,0,0,0,0.012461,0.385945,16625,0,0,0,0,0,0,0,0,0,1,-0.224437
7099,0,0.364258,5.09473,-0.00189919,-0.000828409,-0.00184408,-0.0236568,-0.0453799,2.0197,-3.82965,0.146365,-0.120849,0.00680341,0.210261,0.0126148,0.390876,2.01975,0,0,243,1,243,1,365,-9,251,116,-0.154875,0.0728199,0,-1.5,1.68894e-38,0,0,0,0.00680341,0.210261,0,0,0,0,0.0126148,0.390876,16625,0,0,0,0,0,0,0,0,0,1,-0.231287
7116,0,0.331055,-0.356445,-0.000926521,0.000662757,-0.0015711,-0.0236571,-0.0453728,2.01968,-3.82965,0.146365,-0.120849,0.00700686,0.216566,0.012768,0.395768,2.0197,0,0,243,1,243,1,365,-9,251,116,-0.15357,0.0754598,0,-1.5,1.68894e-38,0,0,0,0.00700686,0.216566,0,0,0,0,0.012768,0.395768,16625,0,0,0,0,0,0,0,0,0,1,-0.238223
7131,0,0.297852,-4.1748,-0.00311269,-0.000583239,-0.00256241,-0.0236718,-0.0453795,2.01965,-3.82965,0.146365,-0.120849,0.00721271,0.222948,0.0129214,0.40062,2.01965,0,0,243,1,243,1,365,-9,251,116,-0.15226,0.0781094,0,-1.5,1.68894e-38,0,0,0,0.00721271,0.222948,0,0,0,0,0.0129214,0.40062,16625,0,0,0,0,0,0,0,0,0,1,-0.245243
7148,0,0.264648,-2.65918,-0.00156572,8.99718e-05,-0.00212828,-0.0236648,-0.0453734,2.01963,-3.85894,0.140254,-0.109186,0.00743423,0.229817,0.0130847,0.405736,2.01963,0,0,244,0,244,0,365,-8,253,116,-0.150855,0.0809415,0,-1.5,1.68894e-38,0,0,0,0.00743423,0.229817,0,0,0,0,0.0130847,0.405736,16368,0,0,0,0,0,0,0,0,0,1,-0.252798
7163,0,0.264648,-2.65918,-0.00156572,8.99718e-05,-0.00212828,-0.0236648,-0.0453734,2.01963,-3.85894,0.140254,-0.109186,0.00763184,0.235945,0.0132273,0.410211,2.01963,0,0,244,0,244,0,365,-8,253,116,-0.149607,0.0834523,0,-1.5,1.68894e-38,0,0,0,0.00763184,0.235945,0,0,0,0,0.0132273,0.410211,16368,0,0,0,0,0,0,0,0,0,1,-0.259539
7178,0,0.199219,4.94531,-0.000968881,-0.00105622,-0.00151026,-0.0236777,-0.0453813,2.01958,-3.85894,0.140254,-0.109186,0.00783159,0.24214,0.0133695,0.414653,2.01958,0,0,244,0,244,0,365,-8,253,116,-0.148365,0.0859659,0,-1.5,1.68894e-38,0,0,0,0.00783159,0.24214,0,0,0,0,0.0133695,0.414653,16368,0,0,0,0,0,0,0,0,0,1,-0.266354
7194,0,0.199219,4.94531,-0.000968881,-0.00105622,-0.00151026,-0.0236777,-0.0453813,2.01958,-3.84315,0.144318,-0.120355,0.00804705,0.248822,0.013521,0.419357,2.01958,0,0,243,0,243,0,365,-8,253,118,-0.147023,0.0886647,0,-1.5,1.68894e-38,0,0,0,0.00804705,0.248822,0,0,0,0,0.013521,0.419357,16632,0,0,0,0,0,0,0,0,0,1,-0.273704
7210,0,0.382812,-3.89648,-0.00226186,-0.000393167,-0.00262839,-0.0237024,-0.0454051,2.01952,-3.84315,0.144318,-0.120355,0.00826491,0.25558,0.0136711,0.424025,2.01955,0,0,243,0,243,0,365,-8,253,118,-0.145685,0.0913696,0,-1.5,1.68894e-38,0,0,0,0.00826491,0.25558,0,0,0,0,0.0136711,0.424025,16632,0,0,0,0,0,0,0,0,0,1,-0.281137
7226,0,0.349609,6.85742,-0.0015499,-0.000547174,-0.000418696,-0.0237075,-0.0454106,2.01951,-3.82763,0.144235,-0.119291,0.00848518,0.262411,0.0138214,0.428658,2.01952,0,0,243,1,243,1,366,-9,251,116,-0.144342,0.0940846,0,-1.5,1.68894e-38,0,0,0,0.00848518,0.262411,0,0,0,0,0.0138214,0.428658,16625,0,0,0,0,0,0,0,0,0,1,-0.288652
7241,0,0.316406,0.40625,-0.00104594,-0.000753496,-0.000688748,-0.0237232,-0.0454174,2.0195,-3.82763,0.144235,-0.119291,0.00869387,0.268883,0.0139627,0.43297,2.01951,0,0,243,1,243,1,366,-9,251,116,-0.143074,0.0966423,0,-1.5,1.68894e-38,0,0,0,0.00869387,0.268883,0,0,0,0,0.0139627,0.43297,16625,0,0,0,0,0,0,0,0,0,1,-0.295771
7257,0,0.316406,0.40625,-0.00104594,-0.000753496,-0.000688748,-0.0237232,-0.0454174,2.0195,-3.85416,0.142545,-0.113476,0.00891886,0.275858,0.0141142,0.437536,2.0195,0,0,243,1,243,1,365,-8,253,116,-0.141715,0.0993816,0,-1.5,1.68894e-38,0,0,0,0.00891886,0.275858,0,0,0,0,0.0141142,0.437536,16492,0,0,0,0,0,0,0,0,0,1,-0.303444
7273,0,0.263672,-2.27539,-0.000644323,-0.00104845,-0.00106844,-0.0237265,-0.0454322,2.01947,-3.85416,0.142545,-0.113476,0.00914627,0.282907,0.0142643,0.442067,2.01947,0,0,243,1,243,1,365,-8,253,116,-0.140358,0.102128,0,-1.5,1.68894e-38,0,0,0,0.00914627,0.282907,0,0,0,0,0.0142643,0.442067,16492,0,0,0,0,0,0,0,0,0,1,-0.311197
7289,0,0.263672,-2.27539,-0.000644323,-0.00104845,-0.00106844,-0.0237265,-0.0454322,2.01947,-3.85152,0.142834,-0.110073,0.00937601,0.290026,0.0144131,0.446562,2.01947,0,0,243,1,243,1,365,-9,253,116,-0.138988,0.104888,0,-1.5,1.68894e-38,0,0,0,0.00937601,0.290026,0,0,0,0,0.0144131,0.446562,16625,0,0,0,0,0,0,0,0,0,1,-0.319028
7305,0,0.263672,1.34277,-0.00176721,-0.00150175,-0.0011096,-0.0237452,-0.045453,2.01944,-3.85152,0.142834,-0.110073,0.00960813,0.297216,0.0145612,0.451023,2.01944,0,0,243,1,243,1,365,-9,253,116,-0.137621,0.107655,0,-1.5,1.68894e-38,0,0,0,0.00960813,0.297216,0,0,0,0,0.0145612,0.451023,16625,0,0,0,0,0,0,0,0,0,1,-0.326938
7321,0,0.263672,-6.65918,-0.00103499,9.7353e-05,-0.0010521,-0.023747,-0.0454537,2.01942,-3.86709,0.138594,-0.108618,0.00984262,0.304478,0.0147091,0.455451,2.01942,0,0,243,1,243,1,365,-8,255,117,-0.136245,0.110434,0,-1.5,1.68894e-38,0,0,0,0.00984262,0.304478,0,0,0,0,0.0147091,0.455451,16625,0,0,0,0,0,0,0,0,0,1,-0.334925
7336,0,0.263672,-1.5293,-9.09733e-05,-0.000494256,-0.00205238,-0.0237384,-0.0454598,2.01938,-3.86709,0.138594,-0.108618,0.0100646,0.311349,0.0148469,0.459571,2.01942,0,0,243,1,243,1,365,-8,255,117,-0.134948,0.11305,0,-1.5,1.68894e-38,0,0,0,0.0100646,0.311349,0,0,0,0,0.0148469,0.459571,16625,0,0,0,0,0,0,0,0,0,1,-0.342484
7353,0,0.263672,-1.5293,-9.09733e-05,-0.000494256,-0.00205238,-0.0237384,-0.0454598,2.01938,-3.83293,0.141987,-0.122486,0.0103187,0.319213,0.0150005,0.464204,2.01938,0,0,241,1,241,1,365,-9,255,117,-0.133485,0.116019,0,-1.5,1.68894e-38,0,0,0,0.0103187,0.319213,0,0,0,0,0.0150005,0.464204,17010,0,0,0,0,0,0,0,0,0,1,-0.351134
7368,0,0.263672,6.57715,-0.000937287,-0.000214392,-0.00140153,-0.0237429,-0.0454637,2.01934,-3.83293,0.141987,-0.122486,0.0105298,0.325745,0.0151261,0.467988,2.01934,0,0,241,1,241,1,365,-9,255,117,-0.132278,0.118472,0,-1.5,1.68894e-38,0,0,0,0.0105298,0.325745,0,0,0,0,0.0151261,0.467988,17010,0,0,0,0,0,0,0,0,0,1,-0.35832
7383,0,0.263672,-6.3291,-0.00311993,-0.000201589,-0.000673228,-0.0237455,-0.045462,2.01933,-3.85942,0.142961,-0.109284,0.0107733,0.333277,0.0152692,0.472282,2.01933,0,0,243,1,243,1,365,-8,253,116,-0.130887,0.121288,0,-1.5,1.68894e-38,0,0,0,0.0107733,0.333277,0,0,0,0,0.0152692,0.472282,16492,0,0,0,0,0,0,0,0,0,1,-0.366605
7399,0,0.263672,-6.46484,-0.000898083,-4.84591e-05,-0.00190321,-0.0237408,-0.0454697,2.0193,-3.85942,0.142961,-0.109284,0.011019,0.340877,0.0154113,0.476542,2.0193,0,0,243,1,243,1,365,-8,253,116,-0.129496,0.124112,0,-1.5,1.68894e-38,0,0,0,0.011019,0.340877,0,0,0,0,0.0154113,0.476542,16492,0,0,0,0,0,0,0,0,0,1,-0.374965
7415,0,0.263672,-6.375,-0.00131841,0.000380352,-0.00118599,-0.0237531,-0.0454538,2.01928,-3.86406,0.138415,-0.10762,0.0112671,0.348545,0.0155528,0.480768,2.01928,0,0,244,0,244,0,365,-8,254,117,-0.128096,0.126947,0,-1.5,1.68894e-38,0,0,0,0.0112671,0.348545,0,0,0,0,0.0155528,0.480768,16500,0,0,0,0,0,0,0,0,0,1,-0.383399
7431,0,0.263672,3.22461,-0.00154708,-0.000540309,-0.00131952,-0.0237441,-0.0454615,2.01927,-3.86406,0.138415,-0.10762,0.0115173,0.35628,0.015695,0.48496,2.01928,0,0,244,0,244,0,365,-8,254,117,-0.126687,0.129792,0,-1.5,1.68894e-38,0,0,0,0.0115173,0.35628,0,0,0,0,0.015695,0.48496,16500,0,0,0,0,0,0,0,0,0,1,-0.391908
7447,0,0.263672,-4.36914,-0.00074755,-0.000172037,-0.00073268,-0.0237409,-0.0454593,2.01925,-3.85426,0.142609,-0.113673,0.0117699,0.364083,0.0158353,0.489119,2.01927,0,0,243,1,243,1,365,-8,253,116,-0.125279,0.132646,0,-1.5,1.68894e-38,0,0,0,0.0117699,0.364083,0,0,0,0,0.0158353,0.489119,16492,0,0,0,0,0,0,0,0,0,1,-0.400491
7463,0,0.263672,4.95312,-0.00087698,-0.000558944,-0.00156451,-0.0237421,-0.0454674,2.01923,-3.85426,0.142609,-0.113673,0.0120247,0.371951,0.0159733,0.493244,2.01923,0,0,243,1,243,1,365,-8,253,116,-0.123874,0.135505,0,-1.5,1.68894e-38,0,0,0,0.0120247,0.371951,0,0,0,0,0.0159733,0.493244,16492,0,0,0,0,0,0,0,0,0,1,-0.409146
7480,0,0.263672,2.62305,-0.00175034,-0.00063434,-0.000991203,-0.023753,-0.0454688,2.01922,-3.85426,0.142609,-0.113673,0.0122979,0.380386,0.0161193,0.497594,2.01922,0,0,243,1,243,1,365,-8,253,116,-0.122369,0.138558,0,-1.5,1.68894e-38,0,0,0,0.0122979,0.380386,0,0,0,0,0.0161193,0.497594,16492,0,0,0,0,0,0,0,0,0,1,-0.418424
7496,0,0.263672,2.62305,-0.00175034,-0.00063434,-0.000991203,-0.023753,-0.0454688,2.01922,-3.84271,0.139914,-0.118138,0.0125572,0.388388,0.0162564,0.501653,2.01922,0,0,243,1,243,1,365,-8,253,116,-0.120944,0.14144,0,-1.5,1.68894e-38,0,0,0,0.0125572,0.388388,0,0,0,0,0.0162564,0.501653,16616,0,0,0,0,0,0,0,0,0,1,-0.427227
7512,0,0.263672,5.46777,-0.00161131,-3.09985e-05,-0.000955094,-0.0237607,-0.0454737,2.01919,-3.84271,0.139914,-0.118138,0.0128187,0.396456,0.016393,0.505681,2.01919,0,0,243,1,243,1,365,-8,253,116,-0.119524,0.144329,0,-1.5,1.68894e-38,0,0,0,0.0128187,0.396456,0,0,0,0,0.016393,0.505681,16616,0,0,0,0,0,0,0,0,0,1,-0.436102
7527,0,0.263672,4.91211,-0.00134285,-0.000365641,-0.000964941,-0.0237632,-0.0454777,2.01915,-3.84271,0.139914,-0.118138,0.0130659,0.404078,0.0165205,0.509428,2.01919,0,0,243,1,243,1,365,-8,253,116,-0.118181,0.147048,0,-1.5,1.68894e-38,0,0,0,0.0130659,0.404078,0,0,0,0,0.0165205,0.509428,16616,0,0,0,0,0,0,0,0,0,1,-0.444485
7543,0,0.263672,2.9375,-0.00230429,-0.000782653,-0.000909546,-0.0237618,-0.045483,2.01914,-3.84271,0.139914,-0.118138,0.0133316,0.412269,0.0166557,0.513394,2.01915,0,0,243,1,243,1,365,-8,253,116,-0.116754,0.149953,0,-1.5,1.68894e-38,0,0,0,0.0133316,0.412269,0,0,0,0,0.0166557,0.513394,16616,0,0,0,0,0,0,0,0,0,1,-0.453496
7560,0,0.263672,-6.23535,-0.00115513,-0.000425124,0.000595764,-0.02376,-0.0454836,2.01914,-3.84271,0.139914,-0.118138,0.0135995,0.420525,0.0167897,0.517331,2.01914,0,0,243,1,243,1,365,-8,253,116,-0.115319,0.152869,0,-1.5,1.68894e-38,0,0,0,0.0135995,0.420525,0,0,0,0,0.0167897,0.517331,16616,0,0,0,0,0,0,0,0,0,1,-0.462577
7575,0,0.263672,-0.666016,-0.00105025,-0.000858732,0.000492402,-0.023769,-0.0454905,2.01913,-3.84271,0.139914,-0.118138,0.0138525,0.42832,0.0169141,0.520992,2.01913,0,0,243,1,243,1,365,-8,253,116,-0.113966,0.155612,0,-1.5,1.68894e-38,0,0,0,0.0138525,0.42832,0,0,0,0,0.0169141,0.520992,16616,0,0,0,0,0,0,0,0,0,1,-0.471152
7590,0,0.263672,-0.666016,-0.00105025,-0.000858732,0.000492402,-0.023769,-0.0454905,2.01913,-3.83461,0.142034,-0.117156,0.0141245,0.436697,0.0170464,0.52487,2.01913,0,0,241,1,241,1,366,-9,254,115,-0.112518,0.158547,0,-1.5,1.68894e-38,0,0,0,0.0141245,0.436697,0,0,0,0,0.0170464,0.52487,16740,0,0,0,0,0,0,0,0,0,1,-0.480366
7607,0,0.263672,6.68359,0.000686687,-0.00138993,-0.00113147,-0.0237599,-0.0455136,2.01909,-3.83461,0.142034,-0.117156,0.0143986,0.445135,0.0171768,0.528717,2.01909,0,0,241,1,241,1,366,-9,254,115,-0.11108,0.161486,0,-1.5,1.68894e-38,0,0,0,0.0143986,0.445135,0,0,0,0,0.0171768,0.528717,16740,0,0,0,0,0,0,0,0,0,1,-0.489648
7623,0,0.263672,6.68359,0.000686687,-0.00138993,-0.00113147,-0.0237599,-0.0455136,2.01909,-3.80762,0.141145,-0.130206,0.0146748,0.453635,0.0173045,0.532536,2.01909,0,0,241,1,241,1,366,-9,253,116,-0.109624,0.164439,0,-1.5,1.68894e-38,0,0,0,0.0146748,0.453635,0,0,0,0,0.0173045,0.532536,17000,0,0,0,0,0,0,0,0,0,1,-0.498998
7639,0,0.263672,-4.66406,-0.00192718,-0.000212796,-0.00169464,-0.0237477,-0.045508,2.01902,-3.80762,0.141145,-0.130206,0.014953,0.462195,0.0174307,0.536323,2.01905,0,0,241,1,241,1,366,-9,253,116,-0.108178,0.167396,0,-1.5,1.68894e-38,0,0,0,0.014953,0.462195,0,0,0,0,0.0174307,0.536323,17000,0,0,0,0,0,0,0,0,0,1,-0.508415
7655,0,0.263672,-4.66406,-0.00192718,-0.000212796,-0.00169464,-0.0237477,-0.045508,2.01902,-3.85411,0.140299,-0.1163,0.0152508,0.471356,0.017563,0.540312,2.01902,0,0,243,1,243,1,365,-8,254,117,-0.106634,0.170548,0,-1.5,1.68894e-38,0,0,0,0.0152508,0.471356,0,0,0,0,0.017563,0.540312,16625,0,0,0,0,0,0,0,0,0,1,-0.518492
7671,0,0.263672,-3.96875,-0.00147164,-0.000727874,-0.00202762,-0.0237309,-0.0455071,2.01897,-3.85411,0.140299,-0.1163,0.0155154,0.479495,0.0176789,0.543804,2.01897,0,0,243,1,243,1,365,-8,254,117,-0.105279,0.173333,0,-1.5,1.68894e-38,0,0,0,0.0155154,0.479495,0,0,0,0,0.0176789,0.543804,16625,0,0,0,0,0,0,0,0,0,1,-0.527444
7687,0,0.263672,-3.96875,-0.00147164,-0.000727874,-0.00202762,-0.0237309,-0.0455071,2.01897,-3.85436,0.142616,-0.113844,0.0158173,0.488783,0.0178075,0.547729,2.01897,0,0,243,1,243,1,365,-8,253,116,-0.103718,0.176506,0,-1.5,1.68894e-38,0,0,0,0.0158173,0.488783,0,0,0,0,0.0178075,0.547729,16492,0,0,0,0,0,0,0,0,0,1,-0.537661
7703,0,0.263672,-3.96875,-0.00147164,-0.000727874,-0.00202762,-0.0237309,-0.0455071,2.01897,-3.85436,0.142616,-0.113844,0.0161035,0.497584,0.0179275,0.551392,2.01897,0,0,243,1,243,1,365,-8,253,116,-0.102246,0.179499,0,-1.5,1.68894e-38,0,0,0,0.0161035,0.497584,0,0,0,0,0.0179275,0.551392,16492,0,0,0,0,0,0,0,0,0,1,-0.547342
7719,0,0.263672,-4.9248,-0.000904543,-0.000753457,-0.00105431,-0.0237387,-0.0455384,2.01892,-3.8299,0.146523,-0.121353,0.0163915,0.506443,0.0180463,0.555028,2.01892,0,0,243,1,243,1,365,-9,251,116,-0.100785,0.182497,0,-1.5,1.68894e-38,0,0,0,0.0163915,0.506443,0,0,0,0,0.0180463,0.555028,16625,0,0,0,0,0,0,0,0,0,1,-0.557088
7735,0,0.263672,-1.71582,-0.00147613,-0.00044398,-0.00164027,-0.0237169,-0.0455477,2.0189,-3.8299,0.146523,-0.121353,0.0166633,0.514801,0.0181564,0.558413,2.01892,0,0,243,1,243,1,365,-9,251,116,-0.099398,0.185319,0,-1.5,1.68894e-38,0,0,0,0.0166633,0.514801,0,0,0,0,0.0181564,0.558413,16625,0,0,0,0,0,0,0,0,0,1,-0.566282
7751,0,0.263672,4.36816,-0.00132823,-0.000516484,-0.00161643,-0.023728,-0.0455544,2.01888,-3.85178,0.142863,-0.11052,0.0169733,0.524336,0.0182783,0.56222,2.0189,0,0,243,1,243,1,365,-9,253,116,-0.0978292,0.188525,0,-1.5,1.68894e-38,0,0,0,0.0169733,0.524336,0,0,0,0,0.0182783,0.56222,16625,0,0,0,0,0,0,0,0,0,1,-0.57677
7767,0,0.263672,0.0185547,0.000549929,-0.00111513,-0.00104331,-0.0237126,-0.0455768,2.01887,-3.85178,0.142863,-0.11052,0.0172669,0.533369,0.0183912,0.565775,2.01887,0,0,243,1,243,1,365,-9,253,116,-0.0963561,0.191549,0,-1.5,1.68894e-38,0,0,0,0.0172669,0.533369,0,0,0,0,0.0183912,0.565775,16625,0,0,0,0,0,0,0,0,0,1,-0.586706
7783,0,0.263672,-2.08887,-0.00116047,-0.000635874,-0.00100801,-0.0237069,-0.0455775,2.01885,-3.87645,0.138978,-0.0985433,0.0175623,0.542458,0.0184998,0.569303,2.01885,0,0,243,1,243,1,365,-9,255,115,-0.0948728,0.194583,0,-1.5,1.68894e-38,0,0,0,0.0175623,0.542458,0,0,0,0,0.0184998,0.569303,16492,0,0,0,0,0,0,0,0,0,1,-0.596704
7798,0,0.263672,-2.28906,0.000182784,-0.000899044,-0.000882091,-0.023708,-0.0455844,2.01883,-3.87645,0.138978,-0.0985433,0.0178408,0.551029,0.0186003,0.572585,2.01883,0,0,243,1,243,1,365,-9,255,115,-0.0934794,0.197435,0,-1.5,1.68894e-38,0,0,0,0.0178408,0.551029,0,0,0,0,0.0186003,0.572585,16492,0,0,0,0,0,0,0,0,0,1,-0.606132
7815,0,0.263672,0.890625,-0.00152071,-0.000260785,-0.000936146,-0.0237183,-0.0455914,2.01883,-3.85218,0.135468,-0.115141,0.0181582,0.560804,0.0187137,0.576277,2.01883,0,0,244,0,244,0,366,-8,254,117,-0.091891,0.200677,0,-1.5,1.68894e-38,0,0,0,0.0181582,0.560804,0,0,0,0,0.0187137,0.576277,16500,0,0,0,0,0,0,0,0,0,1,-0.616884
7831,0,0.263672,5.38086,-0.00117305,-0.00110666,-0.000839809,-0.0237149,-0.0456077,2.01881,-3.85218,0.135468,-0.115141,0.0184587,0.570059,0.0188195,0.579724,2.01881,0,0,244,0,244,0,366,-8,254,117,-0.0903986,0.203734,0,-1.5,1.68894e-38,0,0,0,0.0184587,0.570059,0,0,0,0,0.0188195,0.579724,16500,0,0,0,0,0,0,0,0,0,1,-0.627065
7847,0,0.263672,6.90234,0.000501344,-0.00068824,-0.0022598,-0.0236924,-0.045614,2.01875,-3.85218,0.135468,-0.115141,0.0187609,0.57937,0.0189234,0.583145,2.01878,0,0,244,0,244,0,366,-8,254,117,-0.0889067,0.206799,0,-1.5,1.68894e-38,0,0,0,0.0187609,0.57937,0,0,0,0,0.0189234,0.583145,16500,0,0,0,0,0,0,0,0,0,1,-0.637307
7863,0,0.263672,1.49121,-0.00198439,-0.000752025,-0.000831267,-0.02369,-0.0456206,2.01874,-3.83779,0.142026,-0.125583,0.0190647,0.588735,0.0190247,0.586539,2.01875,0,0,243,1,243,1,365,-8,253,118,-0.0874111,0.209871,0,-1.5,1.68894e-38,0,0,0,0.0190647,0.588735,0,0,0,0,0.0190247,0.586539,16758,0,0,0,0,0,0,0,0,0,1,-0.647608
7879,0,0.263672,-5.83398,-0.000796449,-0.000777074,-0.00150372,-0.0236781,-0.0456302,2.01871,-3.83779,0.142026,-0.125583,0.0193701,0.598154,0.0191227,0.589906,2.01871,0,0,243,1,243,1,365,-8,253,118,-0.0859196,0.21295,0,-1.5,1.68894e-38,0,0,0,0.0193701,0.598154,0,0,0,0,0.0191227,0.589906,16758,0,0,0,0,0,0,0,0,0,1,-0.657969
7892,0,0.263672,4.22559,-0.000467907,-0.000345527,-0.00162225,-0.0236713,-0.0456332,2.01868,-3.87532,0.140866,-0.10376,0.0196193,0.605844,0.0192004,0.592621,2.01868,0,0,243,1,243,1,366,-8,254,115,-0.0847026,0.215458,0,-1.5,1.68894e-38,0,0,0,0.0196193,0.605844,0,0,0,0,0.0192004,0.592621,16236,0,0,0,0,0,0,0,0,0,1,-0.666429
7908,0,0.263672,1.02441,-0.00327285,-0.00100294,-0.0023972,-0.0236827,-0.0456444,2.01865,-3.87532,0.140866,-0.10376,0.0199275,0.61536,0.019295,0.595941,2.01865,0,0,243,1,243,1,366,-8,254,115,-0.0832001,0.218552,0,-1.5,1.68894e-38,0,0,0,0.0199275,0.61536,0,0,0,0,0.019295,0.595941,16236,0,0,0,0,0,0,0,0,0,1,-0.676896
7924,0,0.263672,1.02441,-0.00327285,-0.00100294,-0.0023972,-0.0236827,-0.0456444,2.01865,-3.87536,0.140833,-0.103801,0.0202178,0.624329,0.0193836,0.59903,2.01865,0,0,243,1,243,1,366,-8,254,115,-0.0817776,0.221462,0,-1.5,1.68894e-38,0,0,0,0.0202178,0.624329,0,0,0,0,0.0193836,0.59903,16236,0,0,0,0,0,0,0,0,0,1,-0.686762
7940,0,0.263672,2.32031,-0.00180623,-0.000549042,0.000101735,-0.0236798,-0.0456546,2.01862,-3.87536,0.140833,-0.103801,0.0205484,0.634552,0.019483,0.602506,2.01862,0,0,243,1,243,1,366,-8,254,115,-0.0801768,0.224765,0,-1.5,1.68894e-38,0,0,0,0.0205484,0.634552,0,0,0,0,0.019483,0.602506,16236,0,0,0,0,0,0,0,0,0,1,-0.698007
7957,0,0.263672,-2.99219,-0.000541879,-0.000442089,-0.00118029,-0.0236687,-0.0456546,2.01857,-3.8148,0.143543,-0.127987,0.0208807,0.644834,0.0195811,0.605952,2.01862,0,0,241,1,241,1,365,-9,253,116,-0.0785573,0.22808,0,-1.5,1.68894e-38,0,0,0,0.0208807,0.644834,0,0,0,0,0.0195811,0.605952,17000,0,0,0,0,0,0,0,0,0,1,-0.709317
7972,0,0.263672,5.64551,-0.000631243,-0.000227031,-0.000698015,-0.0236555,-0.0456524,2.01856,-3.8148,0.143543,-0.127987,0.0211753,0.653952,0.0196661,0.608967,2.01857,0,0,241,1,241,1,365,-9,253,116,-0.0771431,0.231007,0,-1.5,1.68894e-38,0,0,0,0.0211753,0.653952,0,0,0,0,0.0196661,0.608967,17000,0,0,0,0,0,0,0,0,0,1,-0.719347
7987,0,0.263672,5.64551,-0.000631243,-0.000227031,-0.000698015,-0.0236555,-0.0456524,2.01856,-3.83965,0.137548,-0.120524,0.0214711,0.663115,0.0197486,0.611959,2.01856,0,0,243,1,243,1,366,-9,254,117,-0.0757154,0.233943,0,-1.5,1.68894e-38,0,0,0,0.0214711,0.663115,0,0,0,0,0.0197486,0.611959,16758,0,0,0,0,0,0,0,0,0,1,-0.729427
8003,0,0.263672,1.98926,-0.000530284,-0.000610629,-0.000624937,-0.0236486,-0.0456565,2.01852,-3.83965,0.137548,-0.120524,0.021788,0.67294,0.0198357,0.615126,2.01852,0,0,243,1,243,1,366,-9,254,117,-0.0742005,0.237079,0,-1.5,1.68894e-38,0,0,0,0.021788,0.67294,0,0,0,0,0.0198357,0.615126,16758,0,0,0,0,0,0,0,0,0,1,-0.740234
8019,0,0.263672,1.75781,-0.00190197,-0.000117518,-0.00158588,-0.0236628,-0.0456596,2.0185,-3.84661,0.140052,-0.117829,0.0221062,0.682815,0.0199222,0.618268,2.0185,0,0,243,1,243,1,365,-9,254,117,-0.0726744,0.240224,0,-1.5,1.68894e-38,0,0,0,0.0221062,0.682815,0,0,0,0,0.0199222,0.618268,16758,0,0,0,0,0,0,0,0,0,1,-0.751096
8035,0,0.263672,-1.80566,-0.000546889,0.000104808,-0.00116389,-0.0236565,-0.0456621,2.01847,-3.84661,0.140052,-0.117829,0.0224259,0.69274,0.0200088,0.621386,2.01847,0,0,243,1,243,1,365,-9,254,117,-0.071146,0.243376,0,-1.5,1.68894e-38,0,0,0,0.0224259,0.69274,0,0,0,0,0.0200088,0.621386,16758,0,0,0,0,0,0,0,0,0,1,-0.762014
8051,0,0.263672,-1.53613,-0.00138413,-0.00149909,-0.000775178,-0.0236606,-0.0456801,2.01845,-3.87447,0.136233,-0.0995256,0.0227469,0.702714,0.0200941,0.62448,2.01845,0,0,244,0,244,0,366,-8,254,115,-0.0696126,0.246536,0,-1.5,1.68894e-38,0,0,0,0.0227469,0.702714,0,0,0,0,0.0200941,0.62448,16236,0,0,0,0,0,0,0,0,0,1,-0.772986
8067,0,0.263672,4.6543,-0.0022761,-0.000327908,-0.00104528,-0.0236626,-0.0456903,2.01841,-3.87447,0.136233,-0.0995256,0.0230693,0.712738,0.0201784,0.627551,2.01845,0,0,244,0,244,0,366,-8,254,115,-0.068068,0.249704,0,-1.5,1.68894e-38,0,0,0,0.0230693,0.712738,0,0,0,0,0.0201784,0.627551,16236,0,0,0,0,0,0,0,0,0,1,-0.784012
8084,0,0.263672,4.6543,-0.0022761,-0.000327908,-0.00104528,-0.0236626,-0.0456903,2.01841,-3.84601,0.139895,-0.122679,0.0234133,0.723442,0.0202671,0.630788,2.01841,0,0,243,1,243,1,365,-8,254,118,-0.0664412,0.253075,0,-1.5,1.68894e-38,0,0,0,0.0234133,0.723442,0,0,0,0,0.0202671,0.630788,16758,0,0,0,0,0,0,0,0,0,1,-0.795786
8099,0,0.263672,4.6543,-0.0022761,-0.000327908,-0.00104528,-0.0236626,-0.0456903,2.01841,-3.84601,0.139895,-0.122679,0.0237181,0.732932,0.0203448,0.633622,2.01841,0,0,243,1,243,1,365,-8,254,118,-0.0649876,0.256057,0,-1.5,1.68894e-38,0,0,0,0.0237181,0.732932,0,0,0,0,0.0203448,0.633622,16758,0,0,0,0,0,0,0,0,0,1,-0.806225
8116,0,0.263672,-4.77832,-0.0018688,-0.000741003,-0.000879545,-0.0236641,-0.0456859,2.01836,-3.84601,0.139895,-0.122679,0.0240649,0.743738,0.0204324,0.636808,2.01836,0,0,243,1,243,1,365,-8,254,118,-0.0633604,0.259441,0,-1.5,1.68894e-38,0,0,0,0.0240649,0.743738,0,0,0,0,0.0204324,0.636808,16758,0,0,0,0,0,0,0,0,0,1,-0.818112
8132,0,0.263672,-5.7666,-0.00178215,7.33024e-05,-0.0019384,-0.0236736,-0.0456855,2.01834,-3.84601,0.139895,-0.122679,0.0243722,0.753317,0.0205103,0.639596,2.01834,0,0,243,1,243,1,365,-8,254,118,-0.0619091,0.262435,0,-1.5,1.68894e-38,0,0,0,0.0243722,0.753317,0,0,0,0,0.0205103,0.639596,16758,0,0,0,0,0,0,0,0,0,1,-0.828649
8147,0,0.263672,-6.1416,-0.00273029,-0.00196016,-0.00218995,-0.0236955,-0.045705,2.01832,-3.84601,0.139895,-0.122679,0.0247012,0.763582,0.0205944,0.64255,2.01832,0,0,243,1,243,1,365,-8,254,118,-0.0603584,0.265635,0,-1.5,1.68894e-38,0,0,0,0.0247012,0.763582,0,0,0,0,0.0205944,0.64255,16758,0,0,0,0,0,0,0,0,0,1,-0.83994
8164,0,0.263672,3.05566,-0.00159664,-0.000804965,-0.000304248,-0.0236946,-0.045707,2.0183,-3.83337,0.132678,-0.120776,0.0250523,0.77454,0.0206843,0.645665,2.01832,0,0,244,0,244,0,366,-9,254,117,-0.0586971,0.269044,0,-1.5,1.68894e-38,0,0,0,0.0250523,0.77454,0,0,0,0,0.0206843,0.645665,16758,0,0,0,0,0,0,0,0,0,1,-0.851994
8179,0,0.263672,6.13477,-0.000888518,0.000678145,-0.000763162,-0.0236865,-0.0456991,2.01828,-3.83337,0.132678,-0.120776,0.0253633,0.78425,0.0207629,0.648391,2.0183,0,0,244,0,244,0,366,-9,254,117,-0.0572388,0.272056,0,-1.5,1.68894e-38,0,0,0,0.0253633,0.78425,0,0,0,0,0.0207629,0.648391,16758,0,0,0,0,0,0,0,0,0,1,-0.862675
8194,0,0.263672,-4.67383,-0.00082882,-0.000572101,-0.00149758,-0.0236912,-0.0457105,2.01826,-3.85602,0.140612,-0.112068,0.0256755,0.794002,0.0208404,0.651096,2.01828,0,0,243,1,243,1,366,-9,254,117,-0.0557747,0.275074,0,-1.5,1.68894e-38,0,0,0,0.0256755,0.794002,0,0,0,0,0.0208404,0.651096,16632,0,0,0,0,0,0,0,0,0,1,-0.873402
8210,0,0.263672,2.39453,-0.00232883,-0.00061129,-0.000999654,-0.0236985,-0.0457133,2.01825,-3.85602,0.140612,-0.112068,0.0260098,0.804448,0.0209226,0.65396,2.01825,0,0,243,1,243,1,366,-9,254,117,-0.0542163,0.278299,0,-1.5,1.68894e-38,0,0,0,0.0260098,0.804448,0,0,0,0,0.0209226,0.65396,16632,0,0,0,0,0,0,0,0,0,1,-0.884893
8225,0,0.263672,2.39453,-0.00232883,-0.00061129,-0.000999654,-0.0236985,-0.0457133,2.01825,-3.84311,0.146911,-0.116816,0.0263243,0.814283,0.0209998,0.656626,2.01825,0,0,243,1,243,1,365,-8,251,116,-0.0527403,0.28133,0,-1.5,1.68894e-38,0,0,0,0.0263243,0.814283,0,0,0,0,0.0209998,0.656626,16492,0,0,0,0,0,0,0,0,0,1,-0.895712
8241,0,0.263672,5.24316,-0.000815588,-0.00145077,-0.00139694,-0.0236821,-0.0457369,2.01822,-3.84311,0.146911,-0.116816,0.0266612,0.824819,0.0210802,0.659449,2.01822,0,0,243,1,243,1,365,-8,251,116,-0.0511786,0.284568,0,-1.5,1.68894e-38,0,0,0,0.0266612,0.824819,0,0,0,0,0.0210802,0.659449,16492,0,0,0,0,0,0,0,0,0,1,-0.907301
8257,0,0.263672,5.24316,-0.000815588,-0.00145077,-0.00139694,-0.0236821,-0.0457369,2.01822,-3.8829,0.148032,-0.104085,0.0269993,0.8354,0.0211577,0.66225,2.01822,0,0,243,0,243,0,365,-8,254,117,-0.0495992,0.287814,0,-1.5,1.68894e-38,0,0,0,0.0269993,0.8354,0,0,0,0,0.0211577,0.66225,16250,0,0,0,0,0,0,0,0,0,1,-0.91894
8273,0,0.263672,-0.607422,-0.00215228,-0.000729283,0.000131151,-0.0237044,-0.0457375,2.01818,-3.8829,0.148032,-0.104085,0.0273386,0.846025,0.0212358,0.66503,2.01818,0,0,243,0,243,0,365,-8,254,117,-0.0480337,0.291065,0,-1.5,1.68894e-38,0,0,0,0.0273386,0.846025,0,0,0,0,0.0212358,0.66503,16250,0,0,0,0,0,0,0,0,0,1,-0.930628
8289,0,0.263672,0.679688,-0.00234338,-0.00125456,-0.000209934,-0.0237134,-0.0457442,2.01817,-3.85186,0.140497,-0.113777,0.0276792,0.856695,0.0213158,0.667789,2.01817,0,0,243,1,243,1,365,-9,254,117,-0.0464526,0.294323,0,-1.5,1.68894e-38,0,0,0,0.0276792,0.856695,0,0,0,0,0.0213158,0.667789,16758,0,0,0,0,0,0,0,0,0,1,-0.942364
8305,0,0.263672,-4.10156,-0.00159244,0.000623053,-0.00136384,-0.0237056,-0.0457382,2.01813,-3.85186,0.140497,-0.113777,0.0280211,0.867407,0.0213957,0.670527,2.01817,0,0,243,1,243,1,365,-9,254,117,-0.0448641,0.297588,0,-1.5,1.68894e-38,0,0,0,0.0280211,0.867407,0,0,0,0,0.0213957,0.670527,16758,0,0,0,0,0,0,0,0,0,1,-0.954148
8321,0,0.263672,4.74414,-0.0010479,-5.47715e-05,-0.000468381,-0.0236816,-0.0456543,2.01807,-3.85224,0.142823,-0.111264,0.0283642,0.878163,0.0214753,0.673238,2.01807,0,0,243,1,243,1,365,-9,253,116,-0.0433243,0.300852,0,-1.5,1.68894e-38,0,0,0,0.0283642,0.878163,0,0,0,0,0.0214753,0.673238,16625,0,0,0,0,0,0,0,0,0,1,-0.96598
8336,0,0.263672,2.22266,-0.000996503,-0.000114493,-0.000983423,-0.0237002,-0.0457326,2.01811,-3.85224,0.142823,-0.111264,0.0286871,0.888286,0.0215506,0.675754,2.01811,0,0,243,1,243,1,365,-9,253,116,-0.0418126,0.303923,0,-1.5,1.68894e-38,0,0,0,0.0286871,0.888286,0,0,0,0,0.0215506,0.675754,16625,0,0,0,0,0,0,0,0,0,1,-0.977115
8352,0,0.263672,6.30859,-0.00143512,-0.000153517,-0.000915689,-0.0237107,-0.0457265,2.01809,-3.87205,0.154724,-0.108206,0.0290327,0.899126,0.0216288,0.678426,2.01809,0,0,243,1,243,1,365,-8,251,116,-0.0402256,0.307204,0,-1.5,1.68894e-38,0,0,0,0.0290327,0.899126,0,0,0,0,0.0216288,0.678426,16120,0,0,0,0,0,0,0,0,0,1,-0.989039
8369,0,0.263672,-6.92773,-0.00125201,6.31801e-05,-0.00168042,-0.0237221,-0.0457308,2.01807,-3.87205,0.154724,-0.108206,0.0293796,0.910009,0.0217083,0.681077,2.01807,0,0,243,1,243,1,365,-8,251,116,-0.0387443,0.310263,0,-1.5,1.68894e-38,0,0,0,0.0293796,0.910009,0,0,0,0,0.0217083,0.681077,16120,0,0,0,0,0,0,0,0,0,1,-1
8384,0,0.263672,4.31934,-0.00160804,-0.000433422,-0.00160543,-0.0237267,-0.0457346,2.01805,-3.86602,0.142963,-0.112769,0.0297278,0.920933,0.0217882,0.683708,2.01805,0,0,243,1,243,1,365,-8,254,117,-0.0384504,0.310846,0,-1.5,1.68894e-38,0,0,0,0.0297278,0.920933,0,0,0,0,0.0217882,0.683708,16500,0,0,0,0,0,0,0,0,0,1,-1
8400,0,0.263672,4.0957,-0.000207465,-0.000299572,-0.000108372,-0.0237136,-0.0457236,2.01804,-3.86602,0.142963,-0.112769,0.0300553,0.931212,0.0218629,0.686155,2.01805,0,0,243,1,243,1,365,-8,254,117,-0.0381689,0.31139,0,-1.5,1.68894e-38,0,0,0,0.0300553,0.931212,0,0,0,0,0.0218629,0.686155,16500,0,0,0,0,0,0,0,0,0,1,-1
8416,0,0.263672,6.56543,-0.0017595,0.000359942,-0.000186439,-0.0237163,-0.0457162,2.01803,-3.85345,0.140462,-0.11947,0.0304279,0.942907,0.0219464,0.688906,2.01803,0,0,243,3,243,3,365,-8,253,116,-0.0378655,0.312,0,-1.5,1.68894e-38,0,0,0,0.0304279,0.942907,0,0,0,0,0.0219464,0.688906,16616,0,0,0,0,0,0,0,0,0,1,-1
8432,0,0.263672,-3.42285,-0.00157217,0.000291927,-0.000447557,-0.0237179,-0.0457229,2.01802,-3.85345,0.140462,-0.11947,0.0307578,0.953264,0.0220199,0.691312,2.01802,0,0,243,3,243,3,365,-8,253,116,-0.0375927,0.312534,0,-1.5,1.68894e-38,0,0,0,0.0307578,0.953264,0,0,0,0,0.0220199,0.691312,16616,0,0,0,0,0,0,0,0,0,1,-1
8448,0,0.263672,3.25391,-0.000956747,-4.74926e-05,-0.000644579,-0.0237301,-0.045716,2.018,-3.85926,0.14744,-0.108354,0.0311331,0.965046,0.0221032,0.694019,2.018,0,0,244,0,244,0,365,-8,251,116,-0.0372878,0.313135,0,-1.5,1.68894e-38,0,0,0,0.0311331,0.965046,0,0,0,0,0.0221032,0.694019,16244,0,0,0,0,0,0,0,0,0,1,-1
8464,0,0.263672,3.25391,-0.000956747,-4.74926e-05,-0.000644579,-0.0237301,-0.045716,2.018,-3.85926,0.14744,-0.108354,0.0314875,0.976177,0.0221824,0.696544,2.018,0,0,244,0,244,0,365,-8,251,116,-0.0369969,0.313695,0,-1.5,1.68894e-38,0,0,0,0.0314875,0.976177,0,0,0,0,0.0221824,0.696544,16244,0,0,0,0,0,0,0,0,0,1,-1
8480,0,0.263672,-4.44336,-0.00224215,-0.000841959,-0.000126845,-0.0237429,-0.0457155,2.01799,-3.85926,0.14744,-0.108354,0.0318433,0.987348,0.0222618,0.69905,2.01799,0,0,244,0,244,0,365,-8,251,116,-0.0367143,0.314251,0,-1.5,1.68894e-38,0,0,0,0.0318433,0.987348,0,0,0,0,0.0222618,0.69905,16244,0,0,0,0,0,0,0,0,0,1,-1
8496,0,0.263672,-0.6875,-0.00279371,-0.000831545,-0.000783255,-0.0237501,-0.0457204,2.01796,-3.85711,0.140627,-0.106953,0.0322003,0.998558,0.0223417,0.701537,2.01799,0,0,244,0,244,0,365,-9,253,116,-0.0364274,0.314803,0,-1.5,1.68894e-38,0,0,0,0.0322003,0.998558,0,0,0,0,0.0223417,0.701537,16500,0,0,0,0,0,0,0,0,0,1,-1
8512,0,0.263672,4.12598,-0.00188743,0.000792787,-0.00193198,-0.0237497,-0.0457139,2.01794,-3.85711,0.140627,-0.106953,0.0325586,1.00981,0.0224215,0.704004,2.01796,0,0,244,0,244,0,365,-9,253,116,-0.0361572,0.31535,0,-1.5,1.68894e-38,0,0,0,0.0325586,1.00981,0,0,0,0,0.0224215,0.704004,16500,0,0,0,0,0,0,0,0,0,1,-1
8528,0,0.263672,0.363281,-0.00023423,-0.000273815,-0.000382392,-0.0237348,-0.0457121,2.01792,-3.83805,0.146657,-0.121213,0.0329181,1.0211,0.0225011,0.70645,2.01792,0,0,243,1,243,1,365,-8,251,116,-0.0358939,0.315891,0,-1.5,1.68894e-38,0,0,0,0.0329181,1.0211,0,0,0,0,0.0225011,0.70645,16492,0,0,0,0,0,0,0,0,0,1,-1
8544,0,0.263672,4.01758,-0.00195176,-0.00011034,-0.00142535,-0.0237425,-0.0457099,2.0179,-3.83805,0.146657,-0.121213,0.0332789,1.03242,0.0225792,0.708877,2.0179,0,0,243,1,243,1,365,-8,251,116,-0.0356243,0.316429,0,-1.5,1.68894e-38,0,0,0,0.0332789,1.03242,0,0,0,0,0.0225792,0.708877,16492,0,0,0,0,0,0,0,0,0,1,-1
8559,0,0.263672,4.01758,-0.00195176,-0.00011034,-0.00142535,-0.0237425,-0.0457099,2.0179,-3.86622,0.141257,-0.112452,0.0336183,1.04308,0.0226528,0.711134,2.0179,0,0,243,3,243,3,366,-9,254,117,-0.0353637,0.31693,0,-1.5,1.68894e-38,0,0,0,0.0336183,1.04308,0,0,0,0,0.0226528,0.711134,16632,0,0,0,0,0,0,0,0,0,1,-1
8580,0,0.263672,-5.85352,-0.000701678,0.000231319,-0.00158068,-0.0237285,-0.0457084,2.01784,-3.86622,0.141257,-0.112452,0.0340956,1.05806,0.0227544,0.714269,2.01787,0,0,243,3,243,3,366,-9,254,117,-0.03502,0.317624,0,-1.5,1.68894e-38,0,0,0,0.0340956,1.05806,0,0,0,0,0.0227544,0.714269,16632,0,0,0,0,0,0,0,0,0,1,-1
8690,0,0.263672,-6.64648,-0.00118868,-0.00168221,-0.00226802,-0.0237386,-0.0457069,2.01769,-3.85179,0.140538,-0.113678,0.0366519,1.1383,0.0232748,0.730498,2.01772,0,0,243,1,243,1,365,-9,254,117,-0.0332219,0.321222,0,-1.5,1.68894e-38,0,0,0,0.0366519,1.1383,0,0,0,0,0.0232748,0.730498,16758,0,0,0,0,0,0,0,0,0,1,-1
8747,0,0.263672,-4.14648,-0.000983923,0.00019389,-0.00139352,-0.0237144,-0.0457217,2.01759,-3.84839,0.140513,-0.124112,0.0379918,1.18033,0.023538,0.73845,2.01759,0,0,243,3,243,3,365,-9,254,118,-0.0323673,0.322982,0,-1.5,1.68894e-38,0,0,0,0.0379918,1.18033,0,0,0,0,0.023538,0.73845,16891,0,0,0,0,0,0,0,0,0,1,-1
8763,0,0.263672,-3.14746,-0.00188375,-0.00037202,-0.00177973,-0.0236816,-0.0456543,2.01758,-3.83708,0.146559,-0.124156,0.0383691,1.19217,0.0236065,0.740619,2.01758,0,0,244,0,244,0,365,-8,251,118,-0.0321229,0.323463,0,-1.5,1.68894e-38,0,0,0,0.0383691,1.19217,0,0,0,0,0.0236065,0.740619,16506,0,0,0,0,0,0,0,0,0,1,-1
8779,0,0.263672,3.39062,-0.00161004,-0.000214437,-0.00131649,-0.0237123,-0.0457159,2.01754,-3.83708,0.146559,-0.124156,0.0387475,1.20404,0.0236747,0.742765,2.01754,0,0,244,0,244,0,365,-8,251,118,-0.0318957,0.323938,0,-1.5,1.68894e-38,0,0,0,0.0387475,1.20404,0,0,0,0,0.0236747,0.742765,16506,0,0,0,0,0,0,0,0,0,1,-1
8795,0,0.263672,3.39062,-0.00161004,-0.000214437,-0.00131649,-0.0237123,-0.0457159,2.01754,-3.82204,0.139207,-0.127555,0.039127,1.21595,0.0237427,0.7449,2.01754,0,0,241,1,241,1,365,-9,255,117,-0.0316497,0.324412,0,-1.5,1.68894e-38,0,0,0,0.039127,1.21595,0,0,0,0,0.0237427,0.7449,17136,0,0,0,0,0,0,0,0,0,1,-1
8811,0,0.263672,5.61523,-0.00116197,-0.000478133,-0.00247631,-0.0236956,-0.0457196,2.01749,-3.82204,0.139207,-0.127555,0.0395076,1.22789,0.0238093,0.747019,2.01749,0,0,241,1,241,1,365,-9,255,117,-0.0316137,0.3245,0,-1.5,1.68894e-38,0,0,0,0.0395076,1.22789,0,0,0,0,0.0238093,0.747019,17136,0,0,0,0,0,0,0,0,0,1,-1
8827,0,0.263672,2.74902,-0.00212059,0.000430163,-0.000221295,-0.0236969,-0.0457064,2.01746,-3.89321,0.146126,-0.0999541,0.0398892,1.23986,0.0238739,0.74912,2.01749,0,0,244,0,244,0,365,-8,254,117,-0.0315992,0.324493,0,-1.5,1.68894e-38,0,0,0,0.0398892,1.23986,0,0,0,0,0.0238739,0.74912,16125,0,0,0,0,0,0,0,0,0,1,-1
8843,0,0.263672,-2.21191,-0.0012932,-0.00194402,-0.00101097,-0.0236978,-0.0457172,2.01745,-3.89321,0.146126,-0.0999541,0.0402719,1.25187,0.0239388,0.751203,2.01746,0,0,244,0,244,0,365,-8,254,117,-0.0315998,0.324485,0,-1.5,1.68894e-38,0,0,0,0.0402719,1.25187,0,0,0,0,0.0239388,0.751203,16125,0,0,0,0,0,0,0,0,0,1,-1
8859,0,0.263672,-2.21191,-0.0012932,-0.00194402,-0.00101097,-0.0236978,-0.0457172,2.01745,-3.89321,0.146126,-0.0999541,0.0406555,1.26391,0.0240033,0.75327,2.01745,0,0,244,0,244,0,365,-8,254,117,-0.031591,0.324478,0,-1.5,1.68894e-38,0,0,0,0.0406555,1.26391,0,0,0,0,0.0240033,0.75327,16125,0,0,0,0,0,0,0,0,0,1,-1
8875,0,0.263672,-2.63379,-0.00136032,-0.000700164,-0.00163714,-0.0236986,-0.0457287,2.01742,-3.89321,0.146126,-0.0999541,0.0410402,1.27598,0.0240671,0.755322,2.01742,0,0,244,0,244,0,365,-8,254,117,-0.0315907,0.32447,0,-1.5,1.68894e-38,0,0,0,0.0410402,1.27598,0,0,0,0,0.0240671,0.755322,16125,0,0,0,0,0,0,0,0,0,1,-1
8891,0,0.263672,-2.63379,-0.00136032,-0.000700164,-0.00163714,-0.0236986,-0.0457287,2.01742,-3.89318,0.143934,-0.097835,0.041426,1.28809,0.0241301,0.757358,2.01742,0,0,244,0,244,0,365,-9,255,117,-0.0315765,0.324463,0,-1.5,1.68894e-38,0,0,0,0.041426,1.28809,0,0,0,0,0.0241301,0.757358,16254,0,0,0,0,0,0,0,0,0,1,-1
8906,0,0.263672,4.28125,-0.00150418,-0.00144059,-0.000632278,-0.0236936,-0.0457405,2.01741,-3.89318,0.143934,-0.097835,0.0417885,1.29947,0.0241881,0.759252,2.01741,0,0,244,0,244,0,365,-9,255,117,-0.0315672,0.324456,0,-1.5,1.68894e-38,0,0,0,0.0417885,1.29947,0,0,0,0,0.0241881,0.759252,16254,0,0,0,0,0,0,0,0,0,1,-1
8923,0,0.263672,2.65918,-0.0013789,-1.64118e-05,0.00012158,-0.02369,-0.0457416,2.01739,-3.86243,0.142984,-0.114256,0.0422004,1.3124,0.0242525,0.761384,2.01741,0,0,243,1,243,1,365,-8,254,118,-0.0315527,0.32445,0,-1.5,1.68894e-38,0,0,0,0.0422004,1.3124,0,0,0,0,0.0242525,0.761384,16632,0,0,0,0,0,0,0,0,0,1,-1
8938,0,0.263672,0.568359,-0.000197504,-0.00020123,-0.0001503,-0.0236847,-0.0457403,2.01738,-3.86243,0.142984,-0.114256,0.0425647,1.32384,0.0243087,0.763249,2.01739,0,0,243,1,243,1,365,-8,254,118,-0.0315523,0.324443,0,-1.5,1.68894e-38,0,0,0,0.0425647,1.32384,0,0,0,0,0.0243087,0.763249,16632,0,0,0,0,0,0,0,0,0,1,-1
8953,0,0.263672,0.568359,-0.000197504,-0.00020123,-0.0001503,-0.0236847,-0.0457403,2.01738,-3.84021,0.144596,-0.113732,0.0429299,1.33531,0.0243639,0.7651,2.01738,0,0,244,0,244,0,365,-9,251,116,-0.0315443,0.324436,0,-1.5,1.68894e-38,0,0,0,0.0429299,1.33531,0,0,0,0,0.0243639,0.7651,16500,0,0,0,0,0,0,0,0,0,1,-1
8969,0,0.263672,0.730469,-0.000522961,-0.000241552,4.57628e-05,-0.0236908,-0.0457504,2.01735,-3.84021,0.144596,-0.113732,0.0433203,1.34757,0.0244222,0.767059,2.01735,0,0,244,0,244,0,365,-9,251,116,-0.0315431,0.324429,0,-1.5,1.68894e-38,0,0,0,0.0433203,1.34757,0,0,0,0,0.0244222,0.767059,16500,0,0,0,0,0,0,0,0,0,1,-1
8985,0,0.263672,4.94824,-0.00137209,-0.000418716,0.00073931,-0.0236903,-0.0457477,2.01736,-3.84707,0.142419,-0.115639,0.0437117,1.35986,0.0244803,0.769005,2.01736,0,0,243,1,243,1,365,-9,253,116,-0.0315256,0.324423,0,-1.5,1.68894e-38,0,0,0,0.0437117,1.35986,0,0,0,0,0.0244803,0.769005,16625,0,0,0,0,0,0,0,0,0,1,-1
9001,0,0.263672,6.37207,-0.00119424,-0.000273766,-0.00167667,-0.0236829,-0.0457444,2.01734,-3.84707,0.142419,-0.115639,0.044104,1.37219,0.0245378,0.770934,2.01734,0,0,243,1,243,1,365,-9,253,116,-0.0315218,0.324417,0,-1.5,1.68894e-38,0,0,0,0.044104,1.37219,0,0,0,0,0.0245378,0.770934,16625,0,0,0,0,0,0,0,0,0,1,-1
9018,0,0.263672,-5.01172,-0.00215552,-0.000473847,-0.000597459,-0.0236924,-0.0457383,2.01733,-3.81942,0.143684,-0.126685,0.0445218,1.38531,0.0245987,0.772965,2.01733,0,0,241,1,241,1,366,-9,253,116,-0.0315157,0.32441,0,-1.5,1.68894e-38,0,0,0,0.0445218,1.38531,0,0,0,0,0.0245987,0.772965,16875,0,0,0,0,0,0,0,0,0,1,-1
9033,0,0.263672,6.7793,-0.000848789,-0.000141252,-0.00111716,-0.0237014,-0.045732,2.01731,-3.81942,0.143684,-0.126685,0.0448913,1.39693,0.024653,0.774744,2.01733,0,0,241,1,241,1,366,-9,253,116,-0.0315034,0.324404,0,-1.5,1.68894e-38,0,0,0,0.0448913,1.39693,0,0,0,0,0.024653,0.774744,16875,0,0,0,0,0,0,0,0,0,1,-1
9050,0,0.263672,0.551758,-0.000712567,-0.000250239,-0.00248951,-0.0236973,-0.0457323,2.01726,-3.84706,0.142432,-0.115634,0.0453111,1.41012,0.0247152,0.776743,2.01731,0,0,243,1,243,1,365,-9,253,116,-0.031498,0.324396,0,-1.5,1.68894e-38,0,0,0,0.0453111,1.41012,0,0,0,0,0.0247152,0.776743,16625,0,0,0,0,0,0,0,0,0,1,-1
9065,0,0.263672,-4.44922,-0.00177449,-2.79408e-05,-0.00218659,-0.0236959,-0.0457275,2.01723,-3.84706,0.142432,-0.115634,0.0456824,1.42179,0.0247702,0.778492,2.01723,0,0,243,1,243,1,365,-9,253,116,-0.0315241,0.324388,0,-1.5,1.68894e-38,0,0,0,0.0456824,1.42179,0,0,0,0,0.0247702,0.778492,16625,0,0,0,0,0,0,0,0,0,1,-1
9082,0,0.263672,-7.33594,-0.000783184,-0.000723595,-0.000172863,-0.0237039,-0.0457409,2.01723,-3.84706,0.142432,-0.115634,0.0461041,1.43504,0.0248325,0.780459,2.01723,0,0,243,1,243,1,365,-9,253,116,-0.0315127,0.324381,0,-1.5,1.68894e-38,0,0,0,0.0461041,1.43504,0,0,0,0,0.0248325,0.780459,16625,0,0,0,0,0,0,0,0,0,1,-1
9097,0,0.263672,-7.33594,-0.000783184,-0.000723595,-0.000172863,-0.0237039,-0.0457409,2.01723,-3.85458,0.147213,-0.108067,0.0464772,1.44677,0.0248872,0.782183,2.01723,0,0,244,0,244,0,365,-9,251,115,-0.0315003,0.324375,0,-1.5,1.68894e-38,0,0,0,0.0464772,1.44677,0,0,0,0,0.0248872,0.782183,16244,0,0,0,0,0,0,0,0,0,1,-1
9113,0,0.263672,-4.41504,-0.0018361,-0.000983885,-0.000943556,-0.0237206,-0.0457613,2.01721,-3.85458,0.147213,-0.108067,0.0468759,1.4593,0.0249455,0.784008,2.01721,0,0,244,0,244,0,365,-9,251,115,-0.0314965,0.324368,0,-1.5,1.68894e-38,0,0,0,0.0468759,1.4593,0,0,0,0,0.0249455,0.784008,16244,0,0,0,0,0,0,0,0,0,1,-1
9129,0,0.263672,-7.36133,-0.0015487,-0.000548341,-0.000515579,-0.0237246,-0.0457816,2.01719,-3.84317,0.146934,-0.116931,0.0472757,1.47186,0.0250041,0.785822,2.01721,0,0,243,1,243,1,365,-8,251,116,-0.0314833,0.324362,0,-1.5,1.68894e-38,0,0,0,0.0472757,1.47186,0,0,0,0,0.0250041,0.785822,16492,0,0,0,0,0,0,0,0,0,1,-1
9144,0,0.263672,3.91797,-0.00170729,-0.000216006,-0.000759404,-0.0237358,-0.045782,2.01717,-3.84317,0.146934,-0.116931,0.0476513,1.48367,0.0250583,0.78751,2.01719,0,0,243,1,243,1,365,-8,251,116,-0.0314824,0.324356,0,-1.5,1.68894e-38,0,0,0,0.0476513,1.48367,0,0,0,0,0.0250583,0.78751,16492,0,0,0,0,0,0,0,0,0,1,-1
9159,0,0.263672,6.08008,-0.00107792,0.000155608,-0.00122899,-0.0237346,-0.0457801,2.01715,-3.86644,0.145284,-0.110434,0.0480277,1.4955,0.0251126,0.789188,2.01717,0,0,243,1,243,1,365,-8,253,116,-0.0314772,0.324349,0,-1.5,1.68894e-38,0,0,0,0.0480277,1.4955,0,0,0,0,0.0251126,0.789188,16368,0,0,0,0,0,0,0,0,0,1,-1
9175,0,0.263672,-7.24121,-0.00179097,-0.00172672,-0.00112984,-0.0237447,-0.0457927,2.01713,-3.86644,0.145284,-0.110434,0.0484301,1.50814,0.025171,0.790964,2.01715,0,0,243,1,243,1,365,-8,253,116,-0.0314771,0.324342,0,-1.5,1.68894e-38,0,0,0,0.0484301,1.50814,0,0,0,0,0.025171,0.790964,16368,0,0,0,0,0,0,0,0,0,1,-1
9192,0,0.263672,-7.24121,-0.00179097,-0.00172672,-0.00112984,-0.0237447,-0.0457927,2.01713,-3.86643,0.145301,-0.110432,0.0488587,1.52161,0.0252333,0.792838,2.01713,0,0,243,1,243,1,365,-8,253,116,-0.0314687,0.324335,0,-1.5,1.68894e-38,0,0,0,0.0488587,1.52161,0,0,0,0,0.0252333,0.792838,16368,0,0,0,0,0,0,0,0,0,1,-1
9208,0,0.263672,-1.48535,-0.000946166,-2.33769e-05,-0.000986207,-0.0237563,-0.0457961,2.0171,-3.86643,0.145301,-0.110432,0.049263,1.53431,0.0252921,0.794587,2.0171,0,0,243,1,243,1,365,-8,253,116,-0.0314716,0.324328,0,-1.5,1.68894e-38,0,0,0,0.049263,1.53431,0,0,0,0,0.0252921,0.794587,16368,0,0,0,0,0,0,0,0,0,1,-1
9224,0,0.263672,-1.48535,-0.000946166,-2.33769e-05,-0.000986207,-0.0237563,-0.0457961,2.0171,-3.86643,0.145301,-0.110432,0.0496683,1.54704,0.0253514,0.796323,2.0171,0,0,243,1,243,1,365,-8,253,116,-0.0314582,0.324321,0,-1.5,1.68894e-38,0,0,0,0.0496683,1.54704,0,0,0,0,0.0253514,0.796323,16368,0,0,0,0,0,0,0,0,0,1,-1
