timestamp,A_x,A_y,A_z,P,Q,R,Phi,Theta,Psi,poseX,poseY,poseZ,state_X,state_Y,state_Z,state_VzB,state_Bx,state_By,state_Bz,p1_x,p1_y,p2_x,p2_y,p3_x,p3_y,p4_x,p4_y,roll,pitch,yaw,alt,targetHeading,highLevelState,lowLevelState,gateNumber,filtered_x,filtered_y,x_OT,y_OT,vx_OT,vy_OT,filtered_vx,filtered_vygateArearansac_corr_x,ransac_corr_y,ransac_corr_vx,ransac_corr_vy,detectionTimeStamppTermX,dTermX,pTermY,dTermY,vxcmd,vycmd
6128,0.870117,0,-1.17969,-0.0109596,0.00648144,-0.00121652,-0.11757,0.0372021,-1.55285,0,0,0,-4.78674e-05,1.47972e-05,-0.00894355,0.00275263,-1.55223,0,0,0,0,0,0,0,0,0,0,0.25218,-0.179819,0,-1.5,1.4295e-38,0,0,0,-4.78674e-05,1.47972e-05,0,0,0,0,-0.00894355,0.00275263,1.9603e-19,0,0,0,0,0,0,0,0,0,1,-1.62769e-05
6142,0.801758,0,-0.710938,-0.0115408,0.00537173,-0.00168563,-0.123854,0.0371767,-1.55424,0,0,0,-0.000341422,0.000103522,-0.026396,0.00790575,-1.5537,0,0,0,0,0,0,0,0,0,0,0.256527,-0.180837,0,-1.5,1.4295e-38,0,0,0,-0.000341422,0.000103522,0,0,0,0,-0.026396,0.00790575,1.9603e-19,0,0,0,0,0,0,0,0,0,1,-0.000113875
6160,0.783203,0,-5.0293,-0.0118178,0.00648157,-0.00117144,-0.129503,0.0370557,-1.55557,0,0,0,-0.00106589,0.000316561,-0.0482077,0.0140436,-1.55507,0,0,0,0,0,0,0,0,0,0,0.261963,-0.182163,0,-1.5,1.4295e-38,0,0,0,-0.00106589,0.000316561,0,0,0,0,-0.0482077,0.0140436,1.9603e-19,0,0,0,0,0,0,0,0,0,1,-0.000348218
6178,0.845703,0,2.80273,-0.0097272,0.00456187,-0.000914913,-0.134291,0.0367157,-1.55684,0,0,0,-0.00219223,0.000639366,-0.0708096,0.0201184,-1.5564,0,0,0,0,0,0,0,0,0,0,0.2676,-0.183502,0,-1.5,1.4295e-38,0,0,0,-0.00219223,0.000639366,0,0,0,0,-0.0708096,0.0201184,1.9603e-19,0,0,0,0,0,0,0,0,0,1,-0.000703303
6196,0.845703,0,-5.55762,-0.0105116,0.00540891,-0.00115032,-0.134375,0.0367096,-1.55687,0,0,0,-0.00374049,0.00107258,-0.0939298,0.0261128,-1.55687,0,0,0,0,0,0,0,0,0,0,0.273361,-0.185074,0,-1.5,1.4295e-38,0,0,0,-0.00374049,0.00107258,0,0,0,0,-0.0939298,0.0261128,1.9603e-19,0,0,0,0,0,0,0,0,0,1,-0.00117984
6211,0.845703,0,5.37598,-0.00867705,0.00394344,-0.000637231,-0.134443,0.0366849,-1.55689,0,0,0,-0.00533488,0.00151217,-0.113089,0.0310599,-1.55689,0,0,0,0,0,0,0,0,0,0,0.278131,-0.186495,0,-1.5,1.4295e-38,0,0,0,-0.00533488,0.00151217,0,0,0,0,-0.113089,0.0310599,1.9603e-19,0,0,0,0,0,0,0,0,0,1,-0.00166339
6227,0.794922,0,4.74609,-0.0101021,0.00449303,-0.000575682,-0.134601,0.0366716,-1.55693,0,0,0,-0.00735767,0.00206418,-0.133381,0.0362948,-1.5569,0,0,0,0,0,0,0,0,0,0,0.283184,-0.188021,0,-1.5,1.4295e-38,0,0,0,-0.00735767,0.00206418,0,0,0,0,-0.133381,0.0362948,1.9603e-19,0,0,0,0,0,0,0,0,0,1,-0.0022706
6244,0.761719,0,-5.30566,-0.0105404,0.00507759,-0.000229995,-0.134695,0.0366688,-1.55694,0,0,0,-0.00970359,0.00269951,-0.153527,0.0414871,-1.55694,0,0,0,0,0,0,0,0,0,0,0.2882,-0.189553,0,-1.5,1.4295e-38,0,0,0,-0.00970359,0.00269951,0,0,0,0,-0.153527,0.0414871,1.9603e-19,0,0,0,0,0,0,0,0,0,1,-0.00296946
6259,0.728516,0,0.756836,-0.0107426,0.00541235,-0.000738489,-0.134786,0.0366669,-1.55696,0,0,0,-0.0123704,0.00341746,-0.173536,0.0466369,-1.55696,0,0,0,0,0,0,0,0,0,0,0.293182,-0.191102,0,-1.5,1.4295e-38,0,0,0,-0.0123704,0.00341746,0,0,0,0,-0.173536,0.0466369,1.9603e-19,0,0,0,0,0,0,0,0,0,1,-0.00375921
6275,0.71875,0,-5.75977,-0.0109242,0.0057943,-0.000997895,-0.134887,0.036664,-1.55698,0,0,0,-0.0153559,0.00421738,-0.193401,0.0517455,-1.55698,0,0,0,0,0,0,0,0,0,0,0.298127,-0.192661,0,-1.5,1.4295e-38,0,0,0,-0.0153559,0.00421738,0,0,0,0,-0.193401,0.0517455,1.9603e-19,0,0,0,0,0,0,0,0,0,1,-0.00463911
6292,0.751953,0,6.53223,-0.0117608,0.00607868,-0.000407588,-0.13499,0.0366623,-1.557,0,0,0,-0.0188819,0.00515828,-0.214355,0.0571296,-1.557,0,0,0,0,0,0,0,0,0,0,0.303343,-0.194332,0,-1.5,1.4295e-38,0,0,0,-0.0188819,0.00515828,0,0,0,0,-0.214355,0.0571296,1.9603e-19,0,0,0,0,0,0,0,0,0,1,-0.0056741
6308,0.818359,0,-2.30176,-0.0107699,0.00529342,-0.00203604,-0.135162,0.036659,-1.55706,0,0,0,-0.0225174,0.00612519,-0.233925,0.0621547,-1.55703,0,0,0,0,0,0,0,0,0,0,0.308215,-0.195914,0,-1.5,1.4295e-38,0,0,0,-0.0225174,0.00612519,0,0,0,0,-0.233925,0.0621547,1.9603e-19,0,0,0,0,0,0,0,0,0,1,-0.00673771
6328,0.851562,0,-0.242188,-0.0112995,0.00543975,-0.000480762,-0.13525,0.0366525,-1.55708,0,0,0,-0.0275364,0.00745569,-0.258208,0.0683849,-1.55708,0,0,0,0,0,0,0,0,0,0,0.31426,-0.197903,0,-1.5,1.4295e-38,0,0,0,-0.0275364,0.00745569,0,0,0,0,-0.258208,0.0683849,1.9603e-19,0,0,0,0,0,0,0,0,0,1,-0.00820126
6382,0.885742,0,-3.82715,-0.0109212,0.004467,-0.00261575,-0.135611,0.0366141,-1.55721,0,0,0,-0.0445247,0.0119288,-0.323159,0.085024,-1.55721,0,0,0,0,0,0,0,0,0,0,0.330426,-0.203471,0,-1.5,1.4295e-38,0,0,0,-0.0445247,0.0119288,0,0,0,0,-0.323159,0.085024,1.9603e-19,0,0,0,0,0,0,0,0,0,1,-0.0131216
6394,0.885742,0,-2.75879,-0.0102667,0.00481258,-0.000440754,-0.135695,0.036614,-1.55722,0,0,0,-0.0485061,0.0129755,-0.337263,0.0886241,-1.55722,0,0,0,0,0,0,0,0,0,0,0.333936,-0.204704,0,-1.5,1.4295e-38,0,0,0,-0.0485061,0.0129755,0,0,0,0,-0.337263,0.0886241,1.9603e-19,0,0,0,0,0,0,0,0,0,1,-0.014273
6408,0.885742,0,3.74219,-0.0105691,0.00481608,-0.000787075,-0.13579,0.036617,-1.55725,0,0,0,-0.0533693,0.0142523,-0.353622,0.0927977,-1.55722,0,0,0,0,0,0,0,0,0,0,0.338006,-0.206154,0,-1.5,1.4295e-38,0,0,0,-0.0533693,0.0142523,0,0,0,0,-0.353622,0.0927977,1.9603e-19,0,0,0,0,0,0,0,0,0,1,-0.0156776
6424,0.885742,0,3.74219,-0.0105691,0.00481608,-0.000787075,-0.13579,0.036617,-1.55725,0,0,0,-0.0592227,0.0157869,-0.372202,0.0975348,-1.55725,0,0,0,0,0,0,0,0,0,0,0.34263,-0.207814,0,-1.5,1.4295e-38,0,0,0,-0.0592227,0.0157869,0,0,0,0,-0.372202,0.0975348,1.9603e-19,0,0,0,0,0,0,0,0,0,1,-0.0173656
6440,0.855469,0,5.93359,-0.0105273,0.00431746,-0.000736436,-0.135963,0.036594,-1.5573,0,0,0,-0.0653659,0.0173954,-0.390637,0.102233,-1.5573,0,0,0,0,0,0,0,0,0,0,0.347218,-0.209475,0,-1.5,1.4295e-38,0,0,0,-0.0653659,0.0173954,0,0,0,0,-0.390637,0.102233,1.9603e-19,0,0,0,0,0,0,0,0,0,1,-0.0191349
6456,0.855469,0,5.93359,-0.0105273,0.00431746,-0.000736436,-0.135963,0.036594,-1.5573,0,0,0,-0.0718087,0.0190801,-0.408948,0.106892,-1.5573,0,0,0,0,0,0,0,0,0,0,0.351774,-0.211165,0,-1.5,1.4295e-38,0,0,0,-0.0718087,0.0190801,0,0,0,0,-0.408948,0.106892,1.9603e-19,0,0,0,0,0,0,0,0,0,1,-0.0209881
6472,0.789062,0,3.03711,-0.0107198,0.00472796,-0.001184,-0.136133,0.0365803,-1.55735,0,0,0,-0.0785429,0.020839,-0.427123,0.111513,-1.55735,0,0,0,0,0,0,0,0,0,0,0.356297,-0.212849,0,-1.5,1.4295e-38,0,0,0,-0.0785429,0.020839,0,0,0,0,-0.427123,0.111513,1.9603e-19,0,0,0,0,0,0,0,0,0,1,-0.0229229
6489,0.755859,0,-1.8623,-0.0110995,0.00460059,-0.00154538,-0.13622,0.036564,-1.55737,0,0,0,-0.0860153,0.0227883,-0.446299,0.116381,-1.55737,0,0,0,0,0,0,0,0,0,0,0.361067,-0.214658,0,-1.5,1.4295e-38,0,0,0,-0.0860153,0.0227883,0,0,0,0,-0.446299,0.116381,1.9603e-19,0,0,0,0,0,0,0,0,0,1,-0.0250672
6502,0.795898,0,-6.83301,-0.00982113,0.00492422,-0.00139531,-0.13623,0.036377,-1.55737,0,0,0,-0.0919326,0.0243306,-0.460852,0.120072,-1.55737,0,0,0,0,0,0,0,0,0,0,0.364687,-0.216054,0,-1.5,1.4295e-38,0,0,0,-0.0919326,0.0243306,0,0,0,0,-0.460852,0.120072,1.9603e-19,0,0,0,0,0,0,0,0,0,1,-0.0267636
6518,0.795898,0,-6.83301,-0.00982113,0.00492422,-0.00139531,-0.13623,0.036377,-1.55737,0,0,0,-0.0994933,0.0262991,-0.478644,0.12457,-1.55737,0,0,0,0,0,0,0,0,0,0,0.369112,-0.217778,0,-1.5,1.4295e-38,0,0,0,-0.0994933,0.0262991,0,0,0,0,-0.478644,0.12457,1.9603e-19,0,0,0,0,0,0,0,0,0,1,-0.028929
6534,0.855469,0,0.370117,-0.00953005,0.00521495,7.62661e-05,-0.136547,0.0365178,-1.55745,0,0,0,-0.107337,0.028339,-0.4963,0.129021,-1.55745,0,0,0,0,0,0,0,0,0,0,0.373507,-0.219483,0,-1.5,1.4295e-38,0,0,0,-0.107337,0.028339,0,0,0,0,-0.4963,0.129021,1.9603e-19,0,0,0,0,0,0,0,0,0,1,-0.0311729
6551,0.855469,0,2.60156,-0.0100393,0.00478515,-0.000915568,-0.136621,0.0365109,-1.55747,0,0,0,-0.11598,0.0305843,-0.514956,0.133732,-1.55747,0,0,0,0,0,0,0,0,0,0,0.378148,-0.22133,0,-1.5,1.4295e-38,0,0,0,-0.11598,0.0305843,0,0,0,0,-0.514956,0.133732,1.9603e-19,0,0,0,0,0,0,0,0,0,1,-0.0336427
6566,0.855469,0,5.19922,-0.0105063,0.00500034,0.000206962,-0.136697,0.0365046,-1.55748,0,0,0,-0.123862,0.0326302,-0.531295,0.137855,-1.55748,0,0,0,0,0,0,0,0,0,0,0.382211,-0.222976,0,-1.5,1.4295e-38,0,0,0,-0.123862,0.0326302,0,0,0,0,-0.531295,0.137855,1.9603e-19,0,0,0,0,0,0,0,0,0,1,-0.0358932
6583,0.855469,0,-2.61719,-0.0104877,0.00535911,-7.73441e-05,-0.136781,0.0364986,-1.55749,0,0,0,-0.132545,0.0348817,-0.548604,0.142218,-1.55749,0,0,0,0,0,0,0,0,0,0,0.386516,-0.224737,0,-1.5,1.4295e-38,0,0,0,-0.132545,0.0348817,0,0,0,0,-0.548604,0.142218,1.9603e-19,0,0,0,0,0,0,0,0,0,1,-0.0383699
6599,0.855469,0,2.52734,-0.00964427,0.00585423,-0.000381696,-0.136923,0.0364976,-1.55754,0,0,0,-0.142079,0.0373517,-0.566855,0.146816,-1.55749,0,0,0,0,0,0,0,0,0,0,0.391054,-0.226626,0,-1.5,1.4295e-38,0,0,0,-0.142079,0.0373517,0,0,0,0,-0.566855,0.146816,1.9603e-19,0,0,0,0,0,0,0,0,0,1,-0.0410869
6615,0.855469,0,2.29395,-0.00916506,0.0043332,-0.000997403,-0.136988,0.036483,-1.55756,0,0,0,-0.151322,0.0397445,-0.583898,0.151106,-1.55754,0,0,0,0,0,0,0,0,0,0,0.395294,-0.228395,0,-1.5,1.4295e-38,0,0,0,-0.151322,0.0397445,0,0,0,0,-0.583898,0.151106,1.9603e-19,0,0,0,0,0,0,0,0,0,1,-0.043719
6632,0.855469,0,2.09961,-0.0113045,0.00466408,-0.00130363,-0.137072,0.0364739,-1.55758,0,0,0,-0.161453,0.0423648,-0.601888,0.155627,-1.55758,0,0,0,0,0,0,0,0,0,0,0.399769,-0.23029,0,-1.5,1.4295e-38,0,0,0,-0.161453,0.0423648,0,0,0,0,-0.601888,0.155627,1.9603e-19,0,0,0,0,0,0,0,0,0,1,-0.0466012
6649,0.855469,0,-1.42969,-0.0107219,0.00463084,-0.000523207,-0.137152,0.0364575,-1.55759,0,0,0,-0.171882,0.0450598,-0.619737,0.160107,-1.55759,0,0,369098752,-534446081,369098752,-534446081,33554432,33554432,-1075088617,0,0.404207,-0.232205,0,-1.5,1.4295e-38,0,0,0,-0.171882,0.0450598,0,0,0,0,-0.619737,0.160107,0,0,0,0,0,0,0,0,0,0,1,-0.0495658
6667,0.855469,0,-1.42969,-0.0107219,0.00463084,-0.000523207,-0.137152,0.0364575,-1.55759,0,0,0,-0.183267,0.0479993,-0.638488,0.164809,-1.55759,0,0,369098752,-534446081,369098752,-534446081,33554432,33554432,-1075088617,0,0.408868,-0.234251,0,-1.5,1.4295e-38,0,0,0,-0.183267,0.0479993,0,0,0,0,-0.638488,0.164809,0,0,0,0,0,0,0,0,0,0,1,-0.0527992
6684,0.855469,0,6.49805,-0.00961496,0.00412444,-0.000739117,-0.137396,0.036438,-1.55766,0,0,0,-0.194314,0.0508495,-0.656035,0.169209,-1.55759,0,0,369098752,-534446081,369098752,-534446081,33554432,33554432,-1075088617,0,0.413229,-0.236193,0,-1.5,1.4295e-38,0,0,0,-0.194314,0.0508495,0,0,0,0,-0.656035,0.169209,0,0,0,0,0,0,0,0,0,0,1,-0.0559345
6701,0.855469,0,5.79883,-0.00936324,0.00415461,-0.00128847,-0.137465,0.0364246,-1.55768,0,0,0,-0.205665,0.0537757,-0.673479,0.173571,-1.55768,0,0,369098752,-534446081,369098752,-534446081,33554432,33554432,-1075088617,0,0.417571,-0.238108,0,-1.5,1.4295e-38,0,0,0,-0.205665,0.0537757,0,0,0,0,-0.673479,0.173571,0,0,0,0,0,0,0,0,0,0,1,-0.0591533
6717,0.855469,0,-6.55859,-0.00970308,0.00534459,-0.000998685,-0.137536,0.0364277,-1.5577,0,0,0,-0.216612,0.0565956,-0.689773,0.17764,-1.5577,0,0,369098752,-534446081,369098752,-534446081,33554432,33554432,-1075088617,0,0.421622,-0.239945,0,-1.5,1.4295e-38,0,0,0,-0.216612,0.0565956,0,0,0,0,-0.689773,0.17764,0,0,0,0,0,0,0,0,0,0,1,-0.0622552
6734,0.855469,0,-2.34375,-0.0106296,0.00520902,-0.00116318,-0.137618,0.0364195,-1.55772,0,0,0,-0.227819,0.0594803,-0.705949,0.181677,-1.55772,0,0,369098752,-534446081,369098752,-534446081,33554432,33554432,-1075088617,0,0.425643,-0.24179,0,-1.5,1.4295e-38,0,0,0,-0.227819,0.0594803,0,0,0,0,-0.705949,0.181677,0,0,0,0,0,0,0,0,0,0,1,-0.0654283
6750,0.855469,0,6.55078,-0.00893868,0.00498172,-0.000424023,-0.137681,0.0364051,-1.55774,0,0,0,-0.240014,0.0626172,-0.723009,0.18593,-1.55774,0,0,369098752,-534446081,369098752,-534446081,33554432,33554432,-1075088617,0,0.429884,-0.243764,0,-1.5,1.4295e-38,0,0,0,-0.240014,0.0626172,0,0,0,0,-0.723009,0.18593,0,0,0,0,0,0,0,0,0,0,1,-0.0688789
6766,0.855469,0,-1.27637,-0.010443,0.00461378,-0.0016225,-0.137825,0.0363776,-1.55779,0,0,0,-0.251745,0.0656326,-0.738939,0.189897,-1.55777,0,0,369098752,-534446081,369098752,-534446081,33554432,33554432,-1075088617,0,0.433844,-0.245626,0,-1.5,1.4295e-38,0,0,0,-0.251745,0.0656326,0,0,0,0,-0.738939,0.189897,0,0,0,0,0,0,0,0,0,0,1,-0.0721958
6782,0.855469,0,-0.195312,-0.0109896,0.00488586,-0.00213598,-0.137907,0.0363634,-1.55783,0,0,0,-0.263734,0.0687123,-0.754759,0.193832,-1.55783,0,0,369098752,-534446081,369098752,-534446081,33554432,33554432,-1075088617,0,0.435422,-0.24745,0,-1.5,1.4295e-38,0,0,0,-0.263734,0.0687123,0,0,0,0,-0.754759,0.193832,0,0,0,0,0,0,0,0,0,0,1,-0.0755835
6799,0.855469,0,0.999023,-0.0105142,0.0047698,-0.00171072,-0.13798,0.0363564,-1.55786,0,0,0,-0.276749,0.0720531,-0.771449,0.197974,-1.55786,0,0,369098752,-534446081,369098752,-534446081,33554432,33554432,-1075088617,0,0.435399,-0.249393,0,-1.5,1.4295e-38,0,0,0,-0.276749,0.0720531,0,0,0,0,-0.771449,0.197974,0,0,0,0,0,0,0,0,0,0,1,-0.0792584
6814,0.855469,0,-0.976562,-0.0105443,0.00486796,-0.00119567,-0.138056,0.03635,-1.55789,0,0,0,-0.288462,0.0750578,-0.786069,0.201599,-1.55789,0,0,369098752,-534446081,369098752,-534446081,33554432,33554432,-1075088617,0,0.435378,-0.251112,0,-1.5,1.4295e-38,0,0,0,-0.288462,0.0750578,0,0,0,0,-0.786069,0.201599,0,0,0,0,0,0,0,0,0,0,1,-0.0825636
6829,0.855469,0,-0.976562,-0.0105443,0.00486796,-0.00119567,-0.138056,0.03635,-1.55789,0,0,0,-0.300393,0.0781166,-0.800585,0.205197,-1.55789,0,0,369098752,-534446081,369098752,-534446081,33554432,33554432,-1075088617,0,0.435356,-0.252853,0,-1.5,1.4295e-38,0,0,0,-0.300393,0.0781166,0,0,0,0,-0.800585,0.205197,0,0,0,0,0,0,0,0,0,0,1,-0.0859283
6846,0.826172,0,-2.27441,-0.0111361,0.00430839,-0.00158094,-0.138218,0.0363274,-1.55794,0,0,0,-0.314183,0.0816495,-0.81692,0.209241,-1.55794,0,0,369098752,-534446081,369098752,-534446081,33554432,33554432,-1075088617,0,0.435334,-0.254814,0,-1.5,1.4295e-38,0,0,0,-0.314183,0.0816495,0,0,0,0,-0.81692,0.209241,0,0,0,0,0,0,0,0,0,0,1,-0.0898145
6862,0.759766,0,-4.41113,-0.00868348,0.00570621,-0.000213369,-0.138345,0.0363046,-1.55796,0,0,0,-0.326576,0.0848224,-0.83123,0.212779,-1.55794,0,0,369098752,-534446081,369098752,-534446081,33554432,33554432,-1075088617,0,0.435312,-0.25657,0,-1.5,1.4295e-38,0,0,0,-0.326576,0.0848224,0,0,0,0,-0.83123,0.212779,0,0,0,0,0,0,0,0,0,0,1,-0.0933046
6878,0.733398,0,-0.467773,-0.0102597,0.00557878,-0.000904702,-0.138431,0.0362944,-1.55798,0,0,0,-0.340884,0.0884834,-0.847332,0.216755,-1.55796,0,0,369098752,-534446081,369098752,-534446081,33554432,33554432,-1075088617,0,0.435288,-0.258562,0,-1.5,1.4295e-38,0,0,0,-0.340884,0.0884834,0,0,0,0,-0.847332,0.216755,0,0,0,0,0,0,0,0,0,0,1,-0.0973318
6894,0.733398,0,-0.467773,-0.0102597,0.00557878,-0.000904702,-0.138431,0.0362944,-1.55798,0,0,0,-0.3546,0.0919905,-0.862385,0.220464,-1.55798,0,0,369098752,-534446081,369098752,-534446081,33554432,33554432,-1075088617,0,0.435265,-0.260444,0,-1.5,1.4295e-38,0,0,0,-0.3546,0.0919905,0,0,0,0,-0.862385,0.220464,0,0,0,0,0,0,0,0,0,0,1,-0.10119
6910,0.733398,0,-0.467773,-0.0102597,0.00557878,-0.000904702,-0.138431,0.0362944,-1.55798,0,0,0,-0.36855,0.0955555,-0.877316,0.224143,-1.55798,0,0,369098752,-534446081,369098752,-534446081,33554432,33554432,-1075088617,0,0.435241,-0.262344,0,-1.5,1.4295e-38,0,0,0,-0.36855,0.0955555,0,0,0,0,-0.877316,0.224143,0,0,0,0,0,0,0,0,0,0,1,-0.105111
6926,0.733398,0,-0.467773,-0.0102597,0.00557878,-0.000904702,-0.138431,0.0362944,-1.55798,0,0,0,-0.382743,0.0991802,-0.89213,0.227793,-1.55798,0,0,369098752,-534446081,369098752,-534446081,33554432,33554432,-1075088617,0,0.435216,-0.264253,0,-1.5,1.4295e-38,0,0,0,-0.382743,0.0991802,0,0,0,0,-0.89213,0.227793,0,0,0,0,0,0,0,0,0,0,1,-0.109098
6942,0.864258,0,-5.43164,-0.0103547,0.0047284,-0.00197956,-0.13872,0.0362702,-1.55809,0,0,0,-0.397172,0.102863,-0.906842,0.231413,-1.55809,0,0,369098752,-534446081,369098752,-534446081,33554432,33554432,-1075088617,0,0.435203,-0.26612,0,-1.5,1.4295e-38,0,0,0,-0.397172,0.102863,0,0,0,0,-0.906842,0.231413,0,0,0,0,0,0,0,0,0,0,1,-0.113149
6958,0.864258,0,-0.276367,-0.00962935,0.00435703,-0.00107501,-0.138883,0.0362504,-1.55814,-3.56585,-0.149467,-0.0303974,-0.411835,0.106603,-0.921466,0.235003,-1.55809,0,0,302,12,302,12,429,18,294,132,0.435178,-0.268046,0,-1.5,1.4295e-38,0,0,0,-0.411835,0.106603,0,0,0,0,-0.921466,0.235003,17415,0,0,0,0,0,0,0,0,0,1,-0.117264
6974,0.864258,0,-0.527344,-0.00922979,0.00428027,-0.00258171,-0.138949,0.0362363,-1.55818,-3.56585,-0.149467,-0.0303974,-0.426731,0.110401,-0.935985,0.238564,-1.55814,0,0,302,12,302,12,429,18,294,132,0.435158,-0.269961,0,-1.5,1.4295e-38,0,0,0,-0.426731,0.110401,0,0,0,0,-0.935985,0.238564,17415,0,0,0,0,0,0,0,0,0,1,-0.121441
6991,0.84668,0,6.78516,-0.00944865,0.00563957,-0.000873058,-0.138916,0.0361328,-1.55811,-3.56585,-0.149467,-0.0303974,-0.442811,0.114498,-0.951308,0.24231,-1.55811,0,0,302,12,302,12,429,18,294,132,0.435128,-0.272039,0,-1.5,1.4295e-38,0,0,0,-0.442811,0.114498,0,0,0,0,-0.951308,0.24231,17415,0,0,0,0,0,0,0,0,0,1,-0.125947
7006,0.813477,0,0.24707,-0.0103325,0.00515511,-0.000808091,-0.139086,0.0362324,-1.55822,-3.56585,-0.149467,-0.0303974,-0.457207,0.118163,-0.964721,0.24558,-1.55822,0,0,302,12,302,12,429,18,294,132,0.435117,-0.273813,0,-1.5,1.4295e-38,0,0,0,-0.457207,0.118163,0,0,0,0,-0.964721,0.24558,17415,0,0,0,0,0,0,0,0,0,1,-0.129979
7021,0.780273,0,-1.33105,-0.0101185,0.00480749,-0.000920227,-0.139155,0.0362308,-1.55824,-3.56585,-0.149467,-0.0303974,-0.471804,0.121877,-0.978053,0.248836,-1.55824,0,0,302,12,302,12,429,18,294,132,0.435095,-0.275642,0,-1.5,1.4295e-38,0,0,0,-0.471804,0.121877,0,0,0,0,-0.978053,0.248836,17415,0,0,0,0,0,0,0,0,0,1,-0.134065
7037,0.74707,0,0.521484,-0.0107085,0.00526271,-0.000930602,-0.139227,0.0362261,-1.55826,-3.56585,-0.149467,-0.0303974,-0.487596,0.125894,-0.992178,0.252283,-1.55826,0,0,302,12,302,12,429,18,294,132,0.435073,-0.277599,0,-1.5,1.4295e-38,0,0,0,-0.487596,0.125894,0,0,0,0,-0.992178,0.252283,17415,0,0,0,0,0,0,0,0,0,1,-0.138483
7053,0.738281,0,6.1709,-0.0108758,0.00533687,-0.000698671,-0.139309,0.0362223,-1.55828,-3.52835,-0.152827,-0.0423289,-0.503619,0.129966,-1.0062,0.255702,-1.55828,0,0,302,10,302,10,432,18,294,132,0.43505,-0.279565,0,-1.5,1.4295e-38,0,0,0,-0.503619,0.129966,0,0,0,0,-1.0062,0.255702,18078,0,0,0,0,0,0,0,0,0,1,-0.142963
7070,0.738281,0,-6.37305,-0.00987366,0.00461436,-0.000427208,-0.139438,0.0361927,-1.55832,-3.52835,-0.152827,-0.0423289,-0.520887,0.134353,-1.02099,0.259305,-1.55828,0,0,302,10,302,10,432,18,294,132,0.435024,-0.281671,0,-1.5,1.4295e-38,0,0,0,-0.520887,0.134353,0,0,0,0,-1.02099,0.259305,18078,0,0,0,0,0,0,0,0,0,1,-0.147788
7086,0.738281,0,-6.37305,-0.00987366,0.00461436,-0.000427208,-0.139438,0.0361927,-1.55832,-3.52835,-0.152827,-0.0423289,-0.537364,0.138536,-1.03481,0.262666,-1.55832,0,0,302,10,302,10,432,18,294,132,0.435003,-0.283645,0,-1.5,1.4295e-38,0,0,0,-0.537364,0.138536,0,0,0,0,-1.03481,0.262666,18078,0,0,0,0,0,0,0,0,0,1,-0.15239
7102,0.758789,0,6.14648,-0.00980263,0.00538853,-0.00162378,-0.13958,0.0361775,-1.55837,-3.52835,-0.152827,-0.0423289,-0.554065,0.142774,-1.04853,0.265998,-1.55837,0,0,302,10,302,10,432,18,294,132,0.434984,-0.28562,0,-1.5,1.4295e-38,0,0,0,-0.554065,0.142774,0,0,0,0,-1.04853,0.265998,18078,0,0,0,0,0,0,0,0,0,1,-0.157051
7119,0.791992,0,-5.95117,-0.00877895,0.00475246,-0.00213191,-0.139639,0.0361639,-1.5584,-3.56586,-0.147715,-0.030731,-0.57205,0.147335,-1.06301,0.269507,-1.5584,0,0,302,12,302,12,429,18,294,132,0.434961,-0.287739,0,-1.5,1.4295e-38,0,0,0,-0.57205,0.147335,0,0,0,0,-1.06301,0.269507,17415,0,0,0,0,0,0,0,0,0,1,-0.162068
7135,0.791992,0,-5.95117,-0.00877895,0.00475246,-0.00213191,-0.139639,0.0361639,-1.5584,-3.56586,-0.147715,-0.030731,-0.588117,0.151407,-1.07568,0.272578,-1.5584,0,0,302,12,302,12,429,18,294,132,0.434938,-0.289626,0,-1.5,1.4295e-38,0,0,0,-0.588117,0.151407,0,0,0,0,-1.07568,0.272578,17415,0,0,0,0,0,0,0,0,0,1,-0.166548
7151,0.858398,0,-0.0898438,-0.00944532,0.00511952,-0.0017625,-0.139772,0.0361474,-1.55846,-3.56587,-0.147626,-0.0307737,-0.606566,0.15608,-1.08995,0.276031,-1.55846,0,0,302,12,302,12,429,18,294,132,0.434918,-0.291749,0,-1.5,1.4295e-38,0,0,0,-0.606566,0.15608,0,0,0,0,-1.08995,0.276031,17415,0,0,0,0,0,0,0,0,0,1,-0.171688
7168,0.825195,0,0.240234,-0.00992421,0.0049279,-0.000763927,-0.13992,0.0361402,-1.55849,-3.56587,-0.147626,-0.0307737,-0.625251,0.16081,-1.1041,0.279453,-1.55846,0,0,302,12,302,12,429,18,294,132,0.434891,-0.293905,0,-1.5,1.4295e-38,0,0,0,-0.625251,0.16081,0,0,0,0,-1.1041,0.279453,17415,0,0,0,0,0,0,0,0,0,1,-0.176891
7184,0.758789,0,-1.37988,-0.0109195,0.00559124,8.0621e-05,-0.139992,0.0361389,-1.5585,-3.55966,-0.149082,-0.0289853,-0.643056,0.165315,-1.11734,0.282646,-1.5585,0,0,303,10,303,10,429,18,294,132,0.434871,-0.295923,0,-1.5,1.4295e-38,0,0,0,-0.643056,0.165315,0,0,0,0,-1.11734,0.282646,17685,0,0,0,0,0,0,0,0,0,1,-0.181847
7201,0.741211,0,0.52832,-0.0107513,0.00455672,-0.0010912,-0.140078,0.0361256,-1.55853,-3.55966,-0.149082,-0.0289853,-0.66221,0.170158,-1.13131,0.286011,-1.55853,0,0,303,10,303,10,429,18,294,132,0.434848,-0.298083,0,-1.5,1.4295e-38,0,0,0,-0.66221,0.170158,0,0,0,0,-1.13131,0.286011,17685,0,0,0,0,0,0,0,0,0,1,-0.187174
7216,0.774414,0,6.18652,-0.00948499,0.00572592,-0.000654056,-0.140147,0.0361213,-1.55855,-3.54652,-0.147186,-0.0307263,-0.679298,0.174477,-1.14354,0.288954,-1.55855,0,0,303,10,303,10,429,16,294,132,0.434827,-0.299998,0,-1.5,1.4295e-38,0,0,0,-0.679298,0.174477,0,0,0,0,-1.14354,0.288954,17685,0,0,0,0,0,0,0,0,0,1,-0.191925
7231,0.774414,0,6.18652,-0.00948499,0.00572592,-0.000654056,-0.140147,0.0361213,-1.55855,-3.54652,-0.147186,-0.0307263,-0.696569,0.17884,-1.15569,0.291875,-1.55855,0,0,303,10,303,10,429,16,294,132,0.434804,-0.301928,0,-1.5,1.4295e-38,0,0,0,-0.696569,0.17884,0,0,0,0,-1.15569,0.291875,17685,0,0,0,0,0,0,0,0,0,1,-0.196724
7248,0.860352,0,6.2627,-0.00992313,0.00536184,-0.00140405,-0.140359,0.0361046,-1.55862,-3.54652,-0.147186,-0.0307263,-0.716371,0.183839,-1.16936,0.29516,-1.55859,0,0,303,10,303,10,429,16,294,132,0.434781,-0.304108,0,-1.5,1.4295e-38,0,0,0,-0.716371,0.183839,0,0,0,0,-1.16936,0.29516,17685,0,0,0,0,0,0,0,0,0,1,-0.202223
7264,0.860352,0,6.12207,-0.00911315,0.00550862,-0.000538956,-0.14042,0.0361077,-1.55862,-3.56735,-0.146691,-0.0259832,-0.735211,0.188593,-1.18214,0.298225,-1.55862,0,0,303,10,303,10,429,18,294,132,0.43476,-0.306168,0,-1.5,1.4295e-38,0,0,0,-0.735211,0.188593,0,0,0,0,-1.18214,0.298225,17685,0,0,0,0,0,0,0,0,0,1,-0.207452
7280,0.860352,0,-5.97852,-0.0109326,0.0045795,-0.00123799,-0.140502,0.0360972,-1.55864,-3.56735,-0.146691,-0.0259832,-0.754259,0.193396,-1.19484,0.301265,-1.55864,0,0,303,10,303,10,429,18,294,132,0.434738,-0.308238,0,-1.5,1.4295e-38,0,0,0,-0.754259,0.193396,0,0,0,0,-1.19484,0.301265,17685,0,0,0,0,0,0,0,0,0,1,-0.212736
7296,0.860352,0,-1.65527,-0.0109216,0.00553674,-0.00224282,-0.140581,0.0360965,-1.55868,-3.56735,-0.146691,-0.0259832,-0.773509,0.198248,-1.20744,0.304281,-1.55868,0,0,303,10,303,10,429,18,294,132,0.434717,-0.310312,0,-1.5,1.4295e-38,0,0,0,-0.773509,0.198248,0,0,0,0,-1.20744,0.304281,17685,0,0,0,0,0,0,0,0,0,1,-0.218073
7312,0.860352,0,-0.0546875,-0.0108487,0.00587636,-0.000876011,-0.14067,0.0361004,-1.5587,-3.56735,-0.146691,-0.0259832,-0.792959,0.203148,-1.21996,0.307273,-1.5587,0,0,303,10,303,10,429,18,294,132,0.434695,-0.312398,0,-1.5,1.4295e-38,0,0,0,-0.792959,0.203148,0,0,0,0,-1.21996,0.307273,17685,0,0,0,0,0,0,0,0,0,1,-0.223463
7328,0.860352,0,6.87109,-0.0109209,0.00571061,-0.000393438,-0.140749,0.0360985,-1.55871,-3.56735,-0.146691,-0.0259832,-0.812609,0.208096,-1.2324,0.310241,-1.55871,0,0,303,10,303,10,429,18,294,132,0.434671,-0.314494,0,-1.5,1.4295e-38,0,0,0,-0.812609,0.208096,0,0,0,0,-1.2324,0.310241,17685,0,0,0,0,0,0,0,0,0,1,-0.228905
7344,0.860352,0,-1.33203,-0.0106707,0.00494823,-0.00172875,-0.140911,0.0360715,-1.55876,-3.56735,-0.146691,-0.0259832,-0.832458,0.213091,-1.24475,0.313185,-1.55873,0,0,303,10,303,10,429,18,294,132,0.434649,-0.316595,0,-1.5,1.4295e-38,0,0,0,-0.832458,0.213091,0,0,0,0,-1.24475,0.313185,17685,0,0,0,0,0,0,0,0,0,1,-0.2344
7358,0.860352,0,-1.33203,-0.0106707,0.00494823,-0.00172875,-0.140911,0.0360715,-1.55876,-3.56735,-0.146691,-0.0259832,-0.84872,0.217181,-1.25471,0.315557,-1.55876,0,0,303,10,303,10,429,18,294,132,0.434632,-0.318299,0,-1.5,1.4295e-38,0,0,0,-0.84872,0.217181,0,0,0,0,-1.25471,0.315557,17685,0,0,0,0,0,0,0,0,0,1,-0.238899
7373,0.860352,0,6.18555,-0.00990367,0.00465138,-0.00117276,-0.141049,0.0360457,-1.55882,-3.56735,-0.146691,-0.0259832,-0.868924,0.222261,-1.26691,0.318456,-1.5588,0,0,303,10,303,10,429,18,294,132,0.434612,-0.320405,0,-1.5,1.4295e-38,0,0,0,-0.868924,0.222261,0,0,0,0,-1.26691,0.318456,17685,0,0,0,0,0,0,0,0,0,1,-0.244487
7389,0.860352,0,-2.00195,-0.011032,0.00538656,-0.0016786,-0.141125,0.0360424,-1.55884,-3.56735,-0.146691,-0.0259832,-0.889321,0.227386,-1.27902,0.32133,-1.55882,0,0,303,10,303,10,429,18,294,132,0.434589,-0.322524,0,-1.5,1.4295e-38,0,0,0,-0.889321,0.227386,0,0,0,0,-1.27902,0.32133,17685,0,0,0,0,0,0,0,0,0,1,-0.250125
7406,0.860352,0,-6.35156,-0.0106687,0.00426564,-0.000909003,-0.141199,0.0360294,-1.55886,-3.56735,-0.146691,-0.0259832,-0.91121,0.232883,-1.2918,0.324357,-1.55886,0,0,303,10,303,10,429,18,294,132,0.434568,-0.324776,0,-1.5,1.4295e-38,0,0,0,-0.91121,0.232883,0,0,0,0,-1.2918,0.324357,17685,0,0,0,0,0,0,0,0,0,1,-0.256171
7422,0.860352,0,-6.35156,-0.0106687,0.00426564,-0.000909003,-0.141199,0.0360294,-1.55886,-3.58603,-0.147921,-0.0171084,-0.932001,0.238102,-1.30374,0.327181,-1.55886,0,0,302,12,302,12,429,18,295,130,0.434542,-0.326917,0,-1.5,1.4295e-38,0,0,0,-0.932001,0.238102,0,0,0,0,-1.30374,0.327181,17286,0,0,0,0,0,0,0,0,0,1,-0.261912
7438,0.860352,0,6.1416,-0.00976141,0.00457266,-0.000615992,-0.141344,0.0360115,-1.55891,-3.58603,-0.147921,-0.0171084,-0.952981,0.243365,-1.31559,0.329981,-1.55891,0,0,302,12,302,12,429,18,295,130,0.434525,-0.329042,0,-1.5,1.4295e-38,0,0,0,-0.952981,0.243365,0,0,0,0,-1.31559,0.329981,17286,0,0,0,0,0,0,0,0,0,1,-0.267702
7454,0.860352,0,-5.98438,-0.00998652,0.00444407,-0.000713541,-0.141423,0.035996,-1.55892,-3.58603,-0.147921,-0.0171084,-0.974155,0.248674,-1.32737,0.332757,-1.55892,0,0,302,12,302,12,429,18,295,130,0.434501,-0.33119,0,-1.5,1.4295e-38,0,0,0,-0.974155,0.248674,0,0,0,0,-1.32737,0.332757,17286,0,0,0,0,0,0,0,0,0,1,-0.273541
7470,0.84082,0,-0.0859375,-0.0104582,0.0057574,-0.00161818,-0.141549,0.035984,-1.55897,-3.58603,-0.147921,-0.0171084,-0.995512,0.254026,-1.33906,0.33551,-1.55894,0,0,302,12,302,12,429,18,295,130,0.434479,-0.33334,0,-1.5,1.4295e-38,0,0,0,-0.995512,0.254026,0,0,0,0,-1.33906,0.33551,17286,0,0,0,0,0,0,0,0,0,1,-0.279429
7486,0.84082,0,-0.0859375,-0.0104582,0.0057574,-0.00161818,-0.141549,0.035984,-1.55897,-3.58603,-0.147921,-0.0171084,-1.01706,0.259423,-1.35067,0.33824,-1.55897,0,0,302,12,302,12,429,18,295,130,0.434458,-0.335494,0,-1.5,1.4295e-38,0,0,0,-1.01706,0.259423,0,0,0,0,-1.35067,0.33824,17286,0,0,0,0,0,0,0,0,0,1,-0.285365
7503,0.774414,0,0.225586,-0.0107591,0.00523496,-0.00087824,-0.141674,0.0359593,-1.55901,-3.58603,-0.147921,-0.0171084,-1.03879,0.264863,-1.3622,0.340947,-1.55901,0,0,302,12,302,12,429,18,295,130,0.434439,-0.337649,0,-1.5,1.4295e-38,0,0,0,-1.03879,0.264863,0,0,0,0,-1.3622,0.340947,17286,0,0,0,0,0,0,0,0,0,1,-0.29135
7519,0.741211,0,-1.33789,-0.0104131,0.00584185,-0.00165425,-0.14175,0.035956,-1.55904,-3.56746,-0.148707,-0.0257265,-1.06208,0.270691,-1.37437,0.343797,-1.55904,0,0,303,10,303,10,429,18,295,132,0.434416,-0.339954,0,-1.5,1.4295e-38,0,0,0,-1.06208,0.270691,0,0,0,0,-1.37437,0.343797,17554,0,0,0,0,0,0,0,0,0,1,-0.29776
7535,0.710938,0,0.554688,-0.0107175,0.00429726,-0.00273443,-0.141826,0.0359441,-1.55907,-3.56746,-0.148707,-0.0257265,-1.08419,0.276219,-1.38574,0.346457,-1.55907,0,0,303,10,303,10,429,18,295,132,0.434396,-0.342123,0,-1.5,1.4295e-38,0,0,0,-1.08419,0.276219,0,0,0,0,-1.38574,0.346457,17554,0,0,0,0,0,0,0,0,0,1,-0.303841
7551,0.744141,0,6.1748,-0.00839812,0.00451319,-0.00189013,-0.14188,0.0359359,-1.5591,-3.56746,-0.148707,-0.0257265,-1.10648,0.28179,-1.39703,0.349095,-1.5591,0,0,303,10,303,10,429,18,295,132,0.434375,-0.344304,0,-1.5,1.4295e-38,0,0,0,-1.10648,0.28179,0,0,0,0,-1.39703,0.349095,17554,0,0,0,0,0,0,0,0,0,1,-0.309969
7567,0.810547,0,-6.38477,-0.0106311,0.00476247,-0.00063154,-0.142031,0.035911,-1.55915,-3.56746,-0.148707,-0.0257265,-1.12895,0.287403,-1.40824,0.351711,-1.55913,0,0,303,10,303,10,429,18,295,132,0.434355,-0.346486,0,-1.5,1.4295e-38,0,0,0,-1.12895,0.287403,0,0,0,0,-1.40824,0.351711,17554,0,0,0,0,0,0,0,0,0,1,-0.316143
7583,0.84375,0,6.25391,-0.0104315,0.00411504,-0.00170414,-0.142107,0.0358914,-1.55917,-3.56746,-0.148707,-0.0257265,-1.1516,0.293057,-1.41937,0.354304,-1.55915,0,0,303,10,303,10,429,18,295,132,0.434333,-0.348679,0,-1.5,1.4295e-38,0,0,0,-1.1516,0.293057,0,0,0,0,-1.41937,0.354304,17554,0,0,0,0,0,0,0,0,0,1,-0.322363
7599,0.876953,0,6.12402,-0.00950514,0.00416266,-0.000433024,-0.142173,0.0358728,-1.55919,-3.56746,-0.148707,-0.0257265,-1.17442,0.298752,-1.43044,0.356872,-1.55919,0,0,303,10,303,10,429,18,295,132,0.434314,-0.350871,0,-1.5,1.4295e-38,0,0,0,-1.17442,0.298752,0,0,0,0,-1.43044,0.356872,17554,0,0,0,0,0,0,0,0,0,1,-0.328628
7616,0.871094,0,-5.96777,-0.00924499,0.00501319,-0.000491155,-0.142228,0.0358653,-1.55921,-3.56746,-0.148707,-0.0257265,-1.19887,0.304849,-1.44211,0.359577,-1.55921,0,0,303,10,303,10,429,18,295,132,0.434289,-0.353218,0,-1.5,1.4295e-38,0,0,0,-1.19887,0.304849,0,0,0,0,-1.44211,0.359577,17554,0,0,0,0,0,0,0,0,0,1,-0.335334
7631,0.837891,0,-1.68652,-0.00935842,0.00408489,-0.00132557,-0.142286,0.0358557,-1.55923,-3.56746,-0.148707,-0.0257265,-1.22059,0.310265,-1.45233,0.361942,-1.55923,0,0,303,10,303,10,429,18,295,132,0.434269,-0.355288,0,-1.5,1.4295e-38,0,0,0,-1.22059,0.310265,0,0,0,0,-1.45233,0.361942,17554,0,0,0,0,0,0,0,0,0,1,-0.341292
7647,0.804688,0,-0.0644531,-0.00939195,0.00450596,-0.000417676,-0.142347,0.0358434,-1.55925,-3.56746,-0.148707,-0.0257265,-1.24395,0.316082,-1.46316,0.364445,-1.55925,0,0,303,10,303,10,429,18,295,132,0.434246,-0.357506,0,-1.5,1.4295e-38,0,0,0,-1.24395,0.316082,0,0,0,0,-1.46316,0.364445,17554,0,0,0,0,0,0,0,0,0,1,-0.347691
7663,0.738281,0,3.02441,-0.00877959,0.00562109,-0.00112161,-0.142469,0.0358144,-1.5593,-3.56749,-0.143398,-0.0267995,-1.26747,0.32194,-1.47391,0.366927,-1.55925,0,0,302,10,302,10,429,18,295,132,0.434221,-0.359737,0,-1.5,1.4295e-38,0,0,0,-1.26747,0.32194,0,0,0,0,-1.47391,0.366927,17554,0,0,0,0,0,0,0,0,0,1,-0.354134
7680,0.72168,0,2.54004,-0.0109503,0.00409397,-0.00288024,-0.142546,0.0357991,-1.55933,-3.56749,-0.143398,-0.0267995,-1.29265,0.328206,-1.48525,0.36954,-1.5593,0,0,302,10,302,10,429,18,295,132,0.434204,-0.36209,0,-1.5,1.4295e-38,0,0,0,-1.29265,0.328206,0,0,0,0,-1.48525,0.36954,17554,0,0,0,0,0,0,0,0,0,1,-0.361027
7692,0.754883,0,5.92188,-0.00951974,0.00520405,-0.00188297,-0.142605,0.0357967,-1.55937,-3.56749,-0.143398,-0.0267995,-1.31053,0.332654,-1.49321,0.371368,-1.55933,0,0,302,10,302,10,429,18,295,132,0.434191,-0.363755,0,-1.5,1.4295e-38,0,0,0,-1.31053,0.332654,0,0,0,0,-1.49321,0.371368,17554,0,0,0,0,0,0,0,0,0,1,-0.36592
7708,0.788086,0,-2.74609,-0.00932016,0.00488417,-0.000845313,-0.142666,0.0357916,-1.55939,-3.56749,-0.143398,-0.0267995,-1.33453,0.338621,-1.50376,0.37379,-1.55939,0,0,302,10,302,10,429,18,295,132,0.434175,-0.365978,0,-1.5,1.4295e-38,0,0,0,-1.33453,0.338621,0,0,0,0,-1.50376,0.37379,17554,0,0,0,0,0,0,0,0,0,1,-0.372484
7724,0.788086,0,-2.74609,-0.00932016,0.00488417,-0.000845313,-0.142666,0.0357916,-1.55939,-3.56749,-0.143398,-0.0267995,-1.3587,0.344627,-1.51424,0.376192,-1.55939,0,0,302,10,302,10,429,18,295,132,0.43415,-0.36823,0,-1.5,1.4295e-38,0,0,0,-1.3587,0.344627,0,0,0,0,-1.51424,0.376192,17554,0,0,0,0,0,0,0,0,0,1,-0.37909
7741,0.854492,0,2.35645,-0.00924517,0.00469867,-0.00022986,-0.142765,0.0357866,-1.55942,-3.56749,-0.143398,-0.0267995,-1.38457,0.351051,-1.52528,0.378723,-1.55942,0,0,302,10,302,10,429,18,295,132,0.434128,-0.370616,0,-1.5,1.4295e-38,0,0,0,-1.38457,0.351051,0,0,0,0,-1.52528,0.378723,17554,0,0,0,0,0,0,0,0,0,1,-0.386156
7758,0.887695,0,1.39941,-0.00907669,0.00507378,-0.000572834,-0.142829,0.0357802,-1.55943,-3.53428,-0.139672,-0.0441733,-1.41062,0.357517,-1.53625,0.381233,-1.55943,0,0,303,10,303,10,430,19,291,132,0.434104,-0.373016,0,-1.5,1.4295e-38,0,0,0,-1.41062,0.357517,0,0,0,0,-1.53625,0.381233,18209,0,0,0,0,0,0,0,0,0,1,-0.393269
7775,0.900391,0,6.81152,-0.00990457,0.00537074,-0.000333447,-0.142962,0.0357678,-1.55948,-3.53428,-0.139672,-0.0441733,-1.43531,0.363642,-1.54649,0.383575,-1.55943,0,0,303,10,303,10,430,19,291,132,0.434078,-0.375285,0,-1.5,1.4295e-38,0,0,0,-1.43531,0.363642,0,0,0,0,-1.54649,0.383575,18209,0,0,0,0,0,0,0,0,0,1,-0.400006
7791,0.900391,0,6.81152,-0.00990457,0.00537074,-0.000333447,-0.142962,0.0357678,-1.55948,-3.53427,-0.139427,-0.0442017,-1.46172,0.37019,-1.55731,0.386041,-1.55948,0,0,303,10,303,10,430,19,291,132,0.434059,-0.377683,0,-1.5,1.4295e-38,0,0,0,-1.46172,0.37019,0,0,0,0,-1.55731,0.386041,18209,0,0,0,0,0,0,0,0,0,1,-0.407209
7807,0.850586,0,0.396484,-0.00827102,0.00423452,0.000299996,-0.143089,0.0357498,-1.5595,-3.53427,-0.139427,-0.0442017,-1.48674,0.376391,-1.56741,0.388342,-1.5595,0,0,303,10,303,10,430,19,291,132,0.434039,-0.379952,0,-1.5,1.4295e-38,0,0,0,-1.48674,0.376391,0,0,0,0,-1.56741,0.388342,18209,0,0,0,0,0,0,0,0,0,1,-0.41403
7823,0.817383,0,-6.51953,-0.0109058,0.00551686,-0.00128685,-0.143165,0.0357479,-1.55952,-3.53427,-0.139427,-0.0442017,-1.51035,0.382237,-1.57683,0.390481,-1.55952,0,0,303,10,303,10,430,19,291,132,0.434019,-0.382085,0,-1.5,1.4295e-38,0,0,0,-1.51035,0.382237,0,0,0,0,-1.57683,0.390481,18209,0,0,0,0,0,0,0,0,0,1,-0.42046
7838,0.78418,0,5.96875,-0.00988906,0.00535325,-0.00191476,-0.143231,0.0357488,-1.55955,-3.53427,-0.139427,-0.0442017,-1.53409,0.388114,-1.58618,0.392605,-1.55955,0,0,303,10,303,10,430,19,291,132,0.434,-0.384222,0,-1.5,1.4295e-38,0,0,0,-1.53409,0.388114,0,0,0,0,-1.58618,0.392605,18209,0,0,0,0,0,0,0,0,0,1,-0.426926
7854,0.750977,0,6.77637,-0.00910886,0.00594716,-0.000475146,-0.143285,0.0357467,-1.55956,-3.5644,-0.148723,-0.033773,-1.56117,0.394815,-1.59671,0.394993,-1.55956,0,0,302,13,302,13,429,18,295,132,0.433975,-0.386655,0,-1.5,1.4295e-38,0,0,0,-1.56117,0.394815,0,0,0,0,-1.59671,0.394993,17152,0,0,0,0,0,0,0,0,0,1,-0.434296
7870,0.785156,0,3.57227,-0.00919403,0.00543585,-0.00140958,-0.143423,0.0357336,-1.55962,-3.5644,-0.148723,-0.033773,-1.58682,0.401157,-1.60654,0.397221,-1.55959,0,0,302,13,302,13,429,18,295,132,0.433955,-0.388945,0,-1.5,1.4295e-38,0,0,0,-1.58682,0.401157,0,0,0,0,-1.60654,0.397221,17152,0,0,0,0,0,0,0,0,0,1,-0.441273
7886,0.785156,0,3.57227,-0.00919403,0.00543585,-0.00140958,-0.143423,0.0357336,-1.55962,-3.54997,-0.150007,-0.0380912,-1.61262,0.407536,-1.61631,0.39943,-1.55962,0,0,303,12,303,12,432,18,294,132,0.433936,-0.391239,0,-1.5,1.4295e-38,0,0,0,-1.61262,0.407536,0,0,0,0,-1.61631,0.39943,17802,0,0,0,0,0,0,0,0,0,1,-0.44829
7902,0.851562,0,-4.31348,-0.0096262,0.00543607,-0.00105443,-0.143547,0.0357262,-1.55966,-3.54997,-0.150007,-0.0380912,-1.63858,0.413949,-1.62601,0.401623,-1.55966,0,0,303,12,303,12,432,18,294,132,0.43392,-0.39353,0,-1.5,1.4295e-38,0,0,0,-1.63858,0.413949,0,0,0,0,-1.62601,0.401623,17802,0,0,0,0,0,0,0,0,0,1,-0.455344
7919,0.884766,0,-4.02148,-0.00893009,0.00566592,-0.00257099,-0.143606,0.0357271,-1.5597,-3.58053,-0.14024,-0.0279863,-1.6647,0.420398,-1.63565,0.403798,-1.5597,0,0,302,13,302,13,428,18,294,132,0.433902,-0.395832,0,-1.5,1.4295e-38,0,0,0,-1.6647,0.420398,0,0,0,0,-1.63565,0.403798,17152,0,0,0,0,0,0,0,0,0,1,-0.462438
7934,0.901367,0,-1.37891,-0.00924607,0.00561447,-0.00144255,-0.143668,0.0357277,-1.55972,-3.58053,-0.14024,-0.0279863,-1.69097,0.426882,-1.64523,0.405956,-1.55972,0,0,302,13,302,13,428,18,294,132,0.433881,-0.398144,0,-1.5,1.4295e-38,0,0,0,-1.69097,0.426882,0,0,0,0,-1.64523,0.405956,17152,0,0,0,0,0,0,0,0,0,1,-0.46957
7951,0.838867,0,4.62793,-0.00739342,0.0044776,-0.00171152,-0.143698,0.0357194,-1.55975,-3.55667,-0.149901,-0.0369858,-1.71905,0.433808,-1.65532,0.408231,-1.55975,0,0,302,13,302,13,430,18,295,132,0.43386,-0.400607,0,-1.5,1.4295e-38,0,0,0,-1.71905,0.433808,0,0,0,0,-1.65532,0.408231,17280,0,0,0,0,0,0,0,0,0,1,-0.477189
7967,0.740234,0,0.876953,-0.00942736,0.00405804,-0.00104796,-0.143844,0.0357162,-1.5598,-3.55667,-0.149901,-0.0369858,-1.74563,0.440361,-1.66475,0.410353,-1.55975,0,0,302,13,302,13,430,18,295,132,0.433834,-0.402939,0,-1.5,1.4295e-38,0,0,0,-1.74563,0.440361,0,0,0,0,-1.66475,0.410353,17280,0,0,0,0,0,0,0,0,0,1,-0.484398
7983,0.733398,0,-5.74609,-0.00978349,0.00333898,-0.00143965,-0.143907,0.0356907,-1.55983,-3.55667,-0.149901,-0.0369858,-1.77237,0.446949,-1.67413,0.41246,-1.5598,0,0,302,13,302,13,430,18,295,132,0.433821,-0.405253,0,-1.5,1.4295e-38,0,0,0,-1.77237,0.446949,0,0,0,0,-1.67413,0.41246,17280,0,0,0,0,0,0,0,0,0,1,-0.491644
7999,0.733398,0,-7.04102,-0.0101032,0.00463612,-0.00166183,-0.143969,0.0356833,-1.55985,-3.55667,-0.149901,-0.0369858,-1.79925,0.45357,-1.68344,0.414545,-1.55985,0,0,302,13,302,13,430,18,295,132,0.433807,-0.407574,0,-1.5,1.4295e-38,0,0,0,-1.79925,0.45357,0,0,0,0,-1.68344,0.414545,17280,0,0,0,0,0,0,0,0,0,1,-0.498927
8016,0.766602,0,-4.86035,-0.00898257,0.00526721,-0.00179994,-0.144022,0.035678,-1.55989,-3.55667,-0.149901,-0.0369858,-1.82798,0.460641,-1.69326,0.416743,-1.55989,0,0,302,13,302,13,430,18,295,132,0.433787,-0.410053,0,-1.5,1.4295e-38,0,0,0,-1.82798,0.460641,0,0,0,0,-1.69326,0.416743,17280,0,0,0,0,0,0,0,0,0,1,-0.506705
8031,0.799805,0,0.427734,-0.00875231,0.00517631,0.000140646,-0.144075,0.0356772,-1.55989,-3.55667,-0.149901,-0.0369858,-1.85346,0.466911,-1.70187,0.418666,-1.55989,0,0,302,13,302,13,430,18,295,132,0.433765,-0.412255,0,-1.5,1.4295e-38,0,0,0,-1.85346,0.466911,0,0,0,0,-1.70187,0.418666,17280,0,0,0,0,0,0,0,0,0,1,-0.513602
8046,0.833008,0,-5.67676,-0.00879695,0.0045596,-0.00184884,-0.144131,0.0356636,-1.55992,-3.55667,-0.149901,-0.0369858,-1.87907,0.473209,-1.71042,0.420573,-1.55992,0,0,302,13,302,13,430,18,295,132,0.433747,-0.414452,0,-1.5,1.4295e-38,0,0,0,-1.87907,0.473209,0,0,0,0,-1.71042,0.420573,17280,0,0,0,0,0,0,0,0,0,1,-0.520529
8062,0.833008,0,-5.67676,-0.00879695,0.0045596,-0.00184884,-0.144131,0.0356636,-1.55992,-3.55667,-0.149901,-0.0369858,-1.9048,0.479535,-1.71891,0.422466,-1.55992,0,0,302,13,302,13,430,18,295,132,0.433723,-0.416665,0,-1.5,1.4295e-38,0,0,0,-1.9048,0.479535,0,0,0,0,-1.71891,0.422466,17280,0,0,0,0,0,0,0,0,0,1,-0.527489
8079,0.860352,0,6.21973,-0.0102212,0.00451234,-0.0010958,-0.144327,0.0356627,-1.55997,-3.55667,-0.149901,-0.0369858,-1.93586,0.487167,-1.72902,0.424719,-1.55992,0,0,302,13,302,13,430,18,295,132,0.433694,-0.419326,0,-1.5,1.4295e-38,0,0,0,-1.93586,0.487167,0,0,0,0,-1.72902,0.424719,17280,0,0,0,0,0,0,0,0,0,1,-0.535883
8095,0.827148,0,-5.70898,-0.00961591,0.00433248,-3.58223e-05,-0.144382,0.0356453,-1.55999,-3.55667,-0.149901,-0.0369858,-1.96362,0.493982,-1.73795,0.426705,-1.55999,0,0,302,13,302,13,430,18,295,132,0.433685,-0.421669,0,-1.5,1.4295e-38,0,0,0,-1.96362,0.493982,0,0,0,0,-1.73795,0.426705,17280,0,0,0,0,0,0,0,0,0,1,-0.543381
8111,0.793945,0,2.13672,-0.0104524,0.00446625,-0.00141182,-0.144441,0.0356433,-1.56001,-3.55667,-0.149901,-0.0369858,-1.99152,0.50083,-1.74683,0.428673,-1.56001,0,0,302,13,302,13,430,18,295,132,0.433666,-0.424032,0,-1.5,1.4295e-38,0,0,0,-1.99152,0.50083,0,0,0,0,-1.74683,0.428673,17280,0,0,0,0,0,0,0,0,0,1,-0.550913
8127,0.793945,0,2.13672,-0.0104524,0.00446625,-0.00141182,-0.144441,0.0356433,-1.56001,-3.58164,-0.145475,-0.0246612,-2.01956,0.507708,-1.75564,0.430626,-1.56001,0,0,303,12,303,12,429,18,295,132,0.43364,-0.426412,0,-1.5,1.4295e-38,0,0,0,-2.01956,0.507708,0,0,0,0,-1.75564,0.430626,17286,0,0,0,0,0,0,0,0,0,1,-0.558479
8143,0.727539,0,1.32031,-0.0111493,0.00554121,-0.00157805,-0.144578,0.0356371,-1.56008,-3.58164,-0.145475,-0.0246612,-2.04774,0.514619,-1.7644,0.432563,-1.56008,0,0,303,12,303,12,429,18,295,132,0.433632,-0.428766,0,-1.5,1.4295e-38,0,0,0,-2.04774,0.514619,0,0,0,0,-1.7644,0.432563,17286,0,0,0,0,0,0,0,0,0,1,-0.566081
8159,0.727539,0,1.32031,-0.0111493,0.00554121,-0.00157805,-0.144578,0.0356371,-1.56008,-3.58164,-0.145475,-0.0246612,-2.07606,0.521559,-1.77309,0.434485,-1.56008,0,0,303,12,303,12,429,18,295,132,0.433606,-0.431155,0,-1.5,1.4295e-38,0,0,0,-2.07606,0.521559,0,0,0,0,-1.77309,0.434485,17286,0,0,0,0,0,0,0,0,0,1,-0.573715
8175,0.716797,0,-1.41797,-0.00957589,0.00559034,-0.00118781,-0.14476,0.0356236,-1.56014,-3.58164,-0.145475,-0.0246612,-2.10452,0.52853,-1.78172,0.436391,-1.56012,0,0,303,12,303,12,429,18,295,132,0.43359,-0.433534,0,-1.5,1.4295e-38,0,0,0,-2.10452,0.52853,0,0,0,0,-1.78172,0.436391,17286,0,0,0,0,0,0,0,0,0,1,-0.581383
8191,0.716797,0,-1.41797,-0.00957589,0.00559034,-0.00118781,-0.14476,0.0356236,-1.56014,-3.55495,-0.149303,-0.0378923,-2.13311,0.535532,-1.7903,0.438282,-1.56014,0,0,302,10,302,10,430,21,295,132,0.433571,-0.43592,0,-1.5,1.4295e-38,0,0,0,-2.13311,0.535532,0,0,0,0,-1.7903,0.438282,17685,0,0,0,0,0,0,0,0,0,1,-0.589085
8207,0.761719,0,0.333984,-0.00994392,0.00467313,-0.00200719,-0.144884,0.0355967,-1.5602,-3.55495,-0.149303,-0.0378923,-2.16004,0.542123,-1.79829,0.44004,-1.5602,0,0,302,10,302,10,430,21,295,132,0.433562,-0.438147,0,-1.5,1.4295e-38,0,0,0,-2.16004,0.542123,0,0,0,0,-1.79829,0.44004,17685,0,0,0,0,0,0,0,0,0,1,-0.596336
8223,0.828125,0,-1.81934,-0.0105025,0.00301851,-0.00142857,-0.144959,0.0355724,-1.56022,-3.55495,-0.149303,-0.0378923,-2.19072,0.549626,-1.8073,0.442013,-1.56022,0,0,302,10,302,10,430,21,295,132,0.433541,-0.440693,0,-1.5,1.4295e-38,0,0,0,-2.19072,0.549626,0,0,0,0,-1.8073,0.442013,17685,0,0,0,0,0,0,0,0,0,1,-0.604589
8238,0.876953,0,-1.96289,-0.0105279,0.00384422,-0.0013178,-0.145021,0.0355568,-1.56025,-3.55495,-0.149303,-0.0378923,-2.2179,0.556273,-1.81519,0.443737,-1.56025,0,0,302,10,302,10,430,21,295,132,0.433524,-0.442941,0,-1.5,1.4295e-38,0,0,0,-2.2179,0.556273,0,0,0,0,-1.81519,0.443737,17685,0,0,0,0,0,0,0,0,0,1,-0.6119
8253,0.84375,0,1.21191,-0.0108356,0.00434287,-0.000822578,-0.145089,0.0355529,-1.56026,-3.57267,-0.144235,-0.0311863,-2.2452,0.562945,-1.82303,0.445446,-1.56026,0,0,302,13,302,13,430,18,295,132,0.433504,-0.445197,0,-1.5,1.4295e-38,0,0,0,-2.2452,0.562945,0,0,0,0,-1.82303,0.445446,17280,0,0,0,0,0,0,0,0,0,1,-0.61924
8269,0.84375,0,1.21191,-0.0108356,0.00434287,-0.000822578,-0.145089,0.0355529,-1.56026,-3.57267,-0.144235,-0.0311863,-2.27446,0.570091,-1.83134,0.447256,-1.56026,0,0,302,13,302,13,430,18,295,132,0.433478,-0.447615,0,-1.5,1.4295e-38,0,0,0,-2.27446,0.570091,0,0,0,0,-1.83134,0.447256,17280,0,0,0,0,0,0,0,0,0,1,-0.627101
8286,0.777344,0,-0.614258,-0.00907951,0.00520061,-0.00156602,-0.145194,0.0355405,-1.56032,-3.57383,-0.146247,-0.0281795,-2.30569,0.577716,-1.8401,0.449162,-1.56032,0,0,303,12,303,12,430,18,295,132,0.433466,-0.450165,0,-1.5,1.4295e-38,0,0,0,-2.30569,0.577716,0,0,0,0,-1.8401,0.449162,17415,0,0,0,0,0,0,0,0,0,1,-0.635487
8302,0.710938,0,1.78613,-0.00979642,0.00550081,-0.00154571,-0.145322,0.0355256,-1.56037,-3.57383,-0.146247,-0.0281795,-2.33521,0.584921,-1.84829,0.450941,-1.56037,0,0,303,12,303,12,430,18,295,132,0.433455,-0.452568,0,-1.5,1.4295e-38,0,0,0,-2.33521,0.584921,0,0,0,0,-1.84829,0.450941,17415,0,0,0,0,0,0,0,0,0,1,-0.643413
8318,0.726562,0,-4.77734,-0.0097581,0.00484586,-0.00236223,-0.14539,0.0355179,-1.5604,-3.57383,-0.146247,-0.0281795,-2.36487,0.592154,-1.85643,0.452704,-1.5604,0,0,303,12,303,12,430,18,295,132,0.43344,-0.454983,0,-1.5,1.4295e-38,0,0,0,-2.36487,0.592154,0,0,0,0,-1.85643,0.452704,17415,0,0,0,0,0,0,0,0,0,1,-0.651369
8334,0.759766,0,-5.10156,-0.0097162,0.0061077,-0.00190828,-0.145447,0.0355187,-1.56044,-3.57383,-0.146247,-0.0281795,-2.39465,0.599415,-1.86452,0.454454,-1.56044,0,0,303,12,303,12,430,18,295,132,0.433425,-0.457401,0,-1.5,1.4295e-38,0,0,0,-2.39465,0.599415,0,0,0,0,-1.86452,0.454454,17415,0,0,0,0,0,0,0,0,0,1,-0.659356
8351,0.792969,0,-1.42383,-0.0103996,0.00540931,-0.000452018,-0.145512,0.0355104,-1.56046,-3.57383,-0.146247,-0.0281795,-2.42457,0.606704,-1.87255,0.456189,-1.56046,0,0,303,12,303,12,430,18,295,132,0.433406,-0.459829,0,-1.5,1.4295e-38,0,0,0,-2.42457,0.606704,0,0,0,0,-1.87255,0.456189,17415,0,0,0,0,0,0,0,0,0,1,-0.667375
8366,0.826172,0,5.66602,-0.00942996,0.00435484,0.000308509,-0.145568,0.0354973,-1.56048,-3.57383,-0.146247,-0.0281795,-2.45462,0.614021,-1.88053,0.45791,-1.56048,0,0,303,12,303,12,430,18,295,132,0.433386,-0.462263,0,-1.5,1.4295e-38,0,0,0,-2.45462,0.614021,0,0,0,0,-1.88053,0.45791,17415,0,0,0,0,0,0,0,0,0,1,-0.675424
8383,0.873047,0,-1.83691,-0.00955386,0.00484934,-0.000516263,-0.14568,0.0354966,-1.56052,-3.58033,-0.141877,-0.0282707,-2.48668,0.621826,-1.88895,0.459722,-1.56051,0,0,303,12,303,12,430,19,294,132,0.433368,-0.46485,0,-1.5,1.4295e-38,0,0,0,-2.48668,0.621826,0,0,0,0,-1.88895,0.459722,17544,0,0,0,0,0,0,0,0,0,1,-0.684008
8399,0.873047,0,-1.99316,-0.00844166,0.00561935,-0.000768541,-0.145726,0.0354923,-1.56054,-3.58033,-0.141877,-0.0282707,-2.51698,0.629199,-1.89683,0.461414,-1.56054,0,0,303,12,303,12,430,19,294,132,0.433353,-0.467286,0,-1.5,1.4295e-38,0,0,0,-2.51698,0.629199,0,0,0,0,-1.89683,0.461414,17544,0,0,0,0,0,0,0,0,0,1,-0.692118
8415,0.842773,0,1.19434,-0.00862259,0.00439473,-0.00133531,-0.145777,0.0354821,-1.56058,-3.58033,-0.141877,-0.0282707,-2.54741,0.636598,-1.90464,0.463092,-1.56058,0,0,303,12,303,12,430,19,294,132,0.433337,-0.469726,0,-1.5,1.4295e-38,0,0,0,-2.54741,0.636598,0,0,0,0,-1.90464,0.463092,17544,0,0,0,0,0,0,0,0,0,1,-0.700258
8431,0.842773,0,1.19434,-0.00862259,0.00439473,-0.00133531,-0.145777,0.0354821,-1.56058,-3.56446,-0.14961,-0.0338356,-2.57797,0.644025,-1.91241,0.464756,-1.56058,0,0,303,12,303,12,430,19,295,132,0.433312,-0.472185,0,-1.5,1.4295e-38,0,0,0,-2.57797,0.644025,0,0,0,0,-1.91241,0.464756,17415,0,0,0,0,0,0,0,0,0,1,-0.708428
8447,0.776367,0,-0.623047,-0.00917978,0.00572514,-0.00147891,-0.145896,0.0354652,-1.56063,-3.56446,-0.14961,-0.0338356,-2.60864,0.651478,-1.92012,0.466406,-1.56063,0,0,303,12,303,12,430,19,295,132,0.433301,-0.474625,0,-1.5,1.4295e-38,0,0,0,-2.60864,0.651478,0,0,0,0,-1.92012,0.466406,17415,0,0,0,0,0,0,0,0,0,1,-0.716626
8462,0.776367,0,-0.623047,-0.00917978,0.00572514,-0.00147891,-0.145896,0.0354652,-1.56063,-3.56446,-0.14961,-0.0338356,-2.63751,0.658489,-1.92729,0.46794,-1.56063,0,0,303,12,303,12,430,19,295,132,0.433278,-0.476936,0,-1.5,1.4295e-38,0,0,0,-2.63751,0.658489,0,0,0,0,-1.92729,0.46794,17415,0,0,0,0,0,0,0,0,0,1,-0.724338
8478,0.852539,0,-3.96777,-0.00911578,0.00507532,-0.00144032,-0.146081,0.0354414,-1.56069,-3.56446,-0.14961,-0.0338356,-2.66843,0.665992,-1.9349,0.469562,-1.56066,0,0,303,12,303,12,430,19,295,132,0.433265,-0.479388,0,-1.5,1.4295e-38,0,0,0,-2.66843,0.665992,0,0,0,0,-1.9349,0.469562,17415,0,0,0,0,0,0,0,0,0,1,-0.732592
8494,0.886719,0,-2.92285,-0.0103021,0.00547546,-0.00105555,-0.146151,0.0354419,-1.56072,-3.58028,-0.14225,-0.0168549,-2.69946,0.673522,-1.94247,0.47117,-1.56069,0,0,303,10,303,10,429,18,295,130,0.433248,-0.481848,0,-1.5,1.4295e-38,0,0,0,-2.69946,0.673522,0,0,0,0,-1.94247,0.47117,17554,0,0,0,0,0,0,0,0,0,1,-0.740874
8510,0.886719,0,2.32324,-0.00907536,0.00510284,-0.000432608,-0.146204,0.0354425,-1.56074,-3.58028,-0.14225,-0.0168549,-2.73062,0.681077,-1.94999,0.472766,-1.56074,0,0,303,10,303,10,429,18,295,130,0.433237,-0.484306,0,-1.5,1.4295e-38,0,0,0,-2.73062,0.681077,0,0,0,0,-1.94999,0.472766,17554,0,0,0,0,0,0,0,0,0,1,-0.749185
8526,0.886719,0,2.32324,-0.00907536,0.00510284,-0.000432608,-0.146204,0.0354425,-1.56074,-3.55665,-0.146123,-0.0378633,-2.76189,0.688657,-1.95745,0.47435,-1.56074,0,0,302,13,302,13,430,18,295,132,0.433212,-0.486787,0,-1.5,1.4295e-38,0,0,0,-2.76189,0.688657,0,0,0,0,-1.95745,0.47435,17280,0,0,0,0,0,0,0,0,0,1,-0.757523
8543,0.886719,0,6.81348,-0.00930282,0.0041787,-0.000360515,-0.146311,0.0354047,-1.56078,-3.55665,-0.146123,-0.0378633,-2.79526,0.69674,-1.96533,0.476017,-1.56078,0,0,302,13,302,13,430,18,295,132,0.433199,-0.489407,0,-1.5,1.4295e-38,0,0,0,-2.79526,0.69674,0,0,0,0,-1.96533,0.476017,17280,0,0,0,0,0,0,0,0,0,1,-0.766414
8559,0.886719,0,6.81348,-0.00930282,0.0041787,-0.000360515,-0.146311,0.0354047,-1.56078,-3.58043,-0.145267,-0.0276656,-2.82678,0.704372,-1.97269,0.477569,-1.56078,0,0,303,12,303,12,430,19,295,132,0.433174,-0.491894,0,-1.5,1.4295e-38,0,0,0,-2.82678,0.704372,0,0,0,0,-1.97269,0.477569,17415,0,0,0,0,0,0,0,0,0,1,-0.774809
8575,0.813477,0,-4.3916,-0.00917761,0.00401845,-0.00106787,-0.146442,0.0353728,-1.56084,-3.58043,-0.145267,-0.0276656,-2.85842,0.712029,-1.98,0.479109,-1.56083,0,0,303,12,303,12,430,19,295,132,0.433164,-0.494364,0,-1.5,1.4295e-38,0,0,0,-2.85842,0.712029,0,0,0,0,-1.98,0.479109,17415,0,0,0,0,0,0,0,0,0,1,-0.783231
8591,0.780273,0,1.87402,-0.0087615,0.00431818,-0.000812772,-0.14649,0.0353698,-1.56086,-3.56432,-0.144027,-0.0348445,-2.89017,0.71971,-1.98726,0.480634,-1.56084,0,0,302,13,302,13,429,18,295,132,0.433143,-0.496852,0,-1.5,1.4295e-38,0,0,0,-2.89017,0.71971,0,0,0,0,-1.98726,0.480634,17152,0,0,0,0,0,0,0,0,0,1,-0.791681
8607,0.74707,0,-3.67383,-0.00974716,0.00525875,-0.000168586,-0.146547,0.0353657,-1.56088,-3.56432,-0.144027,-0.0348445,-2.92004,0.726933,-1.99402,0.482052,-1.56088,0,0,302,13,302,13,429,18,295,132,0.433134,-0.499174,0,-1.5,1.4295e-38,0,0,0,-2.92004,0.726933,0,0,0,0,-1.99402,0.482052,17152,0,0,0,0,0,0,0,0,0,1,-0.799626
8622,0.74707,0,-3.67383,-0.00974716,0.00525875,-0.000168586,-0.146547,0.0353657,-1.56088,-3.56432,-0.144027,-0.0348445,-2.95202,0.734662,-2.00119,0.483553,-1.56088,0,0,302,13,302,13,429,18,295,132,0.433109,-0.501675,0,-1.5,1.4295e-38,0,0,0,-2.95202,0.734662,0,0,0,0,-2.00119,0.483553,17152,0,0,0,0,0,0,0,0,0,1,-0.808128
8639,0.741211,0,2.2666,-0.0084604,0.00462557,-0.000888679,-0.146628,0.0353426,-1.56092,-3.56432,-0.144027,-0.0348445,-2.98613,0.7429,-2.00875,0.485133,-1.56092,0,0,302,13,302,13,429,18,295,132,0.433095,-0.504319,0,-1.5,1.4295e-38,0,0,0,-2.98613,0.7429,0,0,0,0,-2.00875,0.485133,17152,0,0,0,0,0,0,0,0,0,1,-0.81719
8654,0.774414,0,-3,-0.00833175,0.00481311,-0.00156278,-0.146673,0.0353367,-1.56094,-3.56432,-0.144027,-0.0348445,-3.01632,0.75019,-2.01538,0.486514,-1.56094,0,0,302,13,302,13,429,18,295,132,0.433079,-0.50666,0,-1.5,1.4295e-38,0,0,0,-3.01632,0.75019,0,0,0,0,-2.01538,0.486514,17152,0,0,0,0,0,0,0,0,0,1,-0.825209
8669,0.807617,0,-0.663086,-0.00913807,0.00501497,-0.00152155,-0.146721,0.0353314,-1.56097,-3.56432,-0.144027,-0.0348445,-3.04662,0.757501,-2.02196,0.487884,-1.56097,0,0,302,13,302,13,429,18,295,132,0.433065,-0.509,0,-1.5,1.4295e-38,0,0,0,-3.04662,0.757501,0,0,0,0,-2.02196,0.487884,17152,0,0,0,0,0,0,0,0,0,1,-0.833251
8686,0.84082,0,6.31738,-0.010753,0.00575802,-0.0007064,-0.146787,0.0353281,-1.56098,-3.5918,-0.14235,-0.0208437,-3.07904,0.765322,-2.02894,0.489335,-1.56098,0,0,302,13,302,13,430,19,295,130,0.433044,-0.511509,0,-1.5,1.4295e-38,0,0,0,-3.07904,0.765322,0,0,0,0,-2.02894,0.489335,17280,0,0,0,0,0,0,0,0,0,1,-0.841854
8701,0.835938,0,-2.25586,-0.00969337,0.00501066,-9.93059e-05,-0.146886,0.0353231,-1.56102,-3.5918,-0.14235,-0.0208437,-3.11158,0.773166,-2.03587,0.490773,-1.56098,0,0,302,13,302,13,430,19,295,130,0.433019,-0.514025,0,-1.5,1.4295e-38,0,0,0,-3.11158,0.773166,0,0,0,0,-2.03587,0.490773,17280,0,0,0,0,0,0,0,0,0,1,-0.850483
8718,0.802734,0,-2.03418,-0.00918989,0.00467734,-0.00122573,-0.146942,0.0353127,-1.56105,-3.5918,-0.14235,-0.0208437,-3.14627,0.781526,-2.04319,0.492289,-1.56105,0,0,302,13,302,13,430,19,295,130,0.433017,-0.516674,0,-1.5,1.4295e-38,0,0,0,-3.14627,0.781526,0,0,0,0,-2.04319,0.492289,17280,0,0,0,0,0,0,0,0,0,1,-0.859679
8734,0.769531,0,0.558594,-0.00909489,0.0046518,-0.000597479,-0.146997,0.0352938,-1.56107,-3.5918,-0.14235,-0.0208437,-3.17903,0.789417,-2.05003,0.493702,-1.56107,0,0,302,13,302,13,430,19,295,130,0.432998,-0.519189,0,-1.5,1.4295e-38,0,0,0,-3.17903,0.789417,0,0,0,0,-2.05003,0.493702,17280,0,0,0,0,0,0,0,0,0,1,-0.868359
8750,0.736328,0,5.72754,-0.00960416,0.00553974,-0.000374836,-0.147052,0.0352943,-1.56108,-3.57942,-0.141944,-0.0311513,-3.2119,0.797331,-2.05683,0.495103,-1.56108,0,0,302,13,302,13,430,19,295,132,0.43298,-0.521707,0,-1.5,1.4295e-38,0,0,0,-3.2119,0.797331,0,0,0,0,-2.05683,0.495103,17280,0,0,0,0,0,0,0,0,0,1,-0.877064
8766,0.75,0,-6.97363,-0.0108384,0.00389723,-0.0019935,-0.147185,0.0352664,-1.56113,-3.57942,-0.141944,-0.0311513,-3.24488,0.805268,-2.06357,0.496492,-1.56108,0,0,302,13,302,13,430,19,295,132,0.432955,-0.524237,0,-1.5,1.4295e-38,0,0,0,-3.24488,0.805268,0,0,0,0,-2.06357,0.496492,17280,0,0,0,0,0,0,0,0,0,1,-0.885794
8782,0.75,0,-6.97363,-0.0108384,0.00389723,-0.0019935,-0.147185,0.0352664,-1.56113,-3.56894,-0.144745,-0.028245,-3.27797,0.813226,-2.07028,0.497869,-1.56113,0,0,302,13,302,13,430,18,295,130,0.432947,-0.52675,0,-1.5,1.4295e-38,0,0,0,-3.27797,0.813226,0,0,0,0,-2.07028,0.497869,17280,0,0,0,0,0,0,0,0,0,1,-0.894549
8799,0.816406,0,2.70215,-0.00953533,0.00523902,-0.000657849,-0.147273,0.0352567,-1.56117,-3.56894,-0.144745,-0.028245,-3.31324,0.821706,-2.07735,0.499318,-1.56117,0,0,302,13,302,13,430,18,295,130,0.432933,-0.529429,0,-1.5,1.4295e-38,0,0,0,-3.31324,0.821706,0,0,0,0,-2.07735,0.499318,17280,0,0,0,0,0,0,0,0,0,1,-0.903876
8815,0.849609,0,-2.87988,-0.00897915,0.00430459,-0.000600937,-0.147315,0.0352353,-1.56119,-3.56894,-0.144745,-0.028245,-3.34654,0.829709,-2.08397,0.500668,-1.56119,0,0,302,13,302,13,430,18,295,130,0.432917,-0.531957,0,-1.5,1.4295e-38,0,0,0,-3.34654,0.829709,0,0,0,0,-2.08397,0.500668,17280,0,0,0,0,0,0,0,0,0,1,-0.912679
8830,0.849609,0,-2.87988,-0.00897915,0.00430459,-0.000600937,-0.147315,0.0352353,-1.56119,-3.59848,-0.141657,-0.0203449,-3.37786,0.837231,-2.09014,0.501923,-1.56119,0,0,302,15,302,15,430,18,295,130,0.432894,-0.534339,0,-1.5,1.4295e-38,0,0,0,-3.37786,0.837231,0,0,0,0,-2.09014,0.501923,17010,0,0,0,0,0,0,0,0,0,1,-0.920954
8847,0.916016,0,6.30957,-0.00946393,0.00476817,-0.000224484,-0.147422,0.0352246,-1.56123,-3.59848,-0.141657,-0.0203449,-3.41348,0.84578,-2.09707,0.503333,-1.56123,0,0,302,15,302,15,430,18,295,130,0.432882,-0.537027,0,-1.5,1.4295e-38,0,0,0,-3.41348,0.84578,0,0,0,0,-2.09707,0.503333,17010,0,0,0,0,0,0,0,0,0,1,-0.930358
8862,0.916016,0,6.30957,-0.00946393,0.00476817,-0.000224484,-0.147422,0.0352246,-1.56123,-3.59317,-0.143562,-0.0180524,-3.44499,0.853341,-2.10315,0.504567,-1.56123,0,0,303,12,303,12,430,19,295,130,0.432859,-0.539414,0,-1.5,1.4295e-38,0,0,0,-3.44499,0.853341,0,0,0,0,-2.10315,0.504567,17415,0,0,0,0,0,0,0,0,0,1,-0.938675
8877,0.798828,0,-2.21777,-0.00985221,0.00425717,-0.000779989,-0.147524,0.0352119,-1.56127,-3.59317,-0.143562,-0.0180524,-3.47659,0.860921,-2.10919,0.505791,-1.56127,0,0,303,12,303,12,430,19,295,130,0.432851,-0.541787,0,-1.5,1.4295e-38,0,0,0,-3.47659,0.860921,0,0,0,0,-2.10919,0.505791,17415,0,0,0,0,0,0,0,0,0,1,-0.947013
8893,0.71875,0,0.576172,-0.00851448,0.00509153,-0.0018438,-0.147608,0.0352061,-1.56132,-3.58393,-0.138747,-0.0250317,-3.51041,0.869027,-2.11559,0.507085,-1.56127,0,0,302,13,302,13,430,19,294,130,0.432827,-0.54434,0,-1.5,1.4295e-38,0,0,0,-3.51041,0.869027,0,0,0,0,-2.11559,0.507085,17408,0,0,0,0,0,0,0,0,0,1,-0.95593
8909,0.71875,0,5.71875,-0.0088462,0.0046827,-0.00128083,-0.147653,0.0352003,-1.56134,-3.58393,-0.138747,-0.0250317,-3.54432,0.877154,-2.12195,0.50837,-1.56132,0,0,302,13,302,13,430,19,294,130,0.432823,-0.546871,0,-1.5,1.4295e-38,0,0,0,-3.54432,0.877154,0,0,0,0,-2.12195,0.50837,17408,0,0,0,0,0,0,0,0,0,1,-0.964869
8925,0.753906,0,-2.25195,-0.00907257,0.00404366,0.000553035,-0.147703,0.0351814,-1.56135,-3.58393,-0.138747,-0.0250317,-3.57834,0.8853,-2.12827,0.509644,-1.56135,0,0,302,13,302,13,430,19,294,130,0.432809,-0.549419,0,-1.5,1.4295e-38,0,0,0,-3.57834,0.8853,0,0,0,0,-2.12827,0.509644,17408,0,0,0,0,0,0,0,0,0,1,-0.973831
8941,0.820312,0,-7.00684,-0.00986248,0.00459621,-0.00125408,-0.147761,0.0351683,-1.56137,-3.58393,-0.138747,-0.0250317,-3.61245,0.893468,-2.13455,0.510904,-1.56137,0,0,302,13,302,13,430,19,294,130,0.432793,-0.55197,0,-1.5,1.4295e-38,0,0,0,-3.61245,0.893468,0,0,0,0,-2.13455,0.510904,17408,0,0,0,0,0,0,0,0,0,1,-0.982814
8957,0.886719,0,5.28418,-0.00811118,0.00468604,0.000233475,-0.147802,0.0351646,-1.56138,-3.58393,-0.138747,-0.0250317,-3.64667,0.901655,-2.14079,0.512153,-1.56138,0,0,302,13,302,13,430,19,294,130,0.432772,-0.55453,0,-1.5,1.4295e-38,0,0,0,-3.64667,0.901655,0,0,0,0,-2.14079,0.512153,17408,0,0,0,0,0,0,0,0,0,1,-0.99182
8973,0.923828,0,2.72266,-0.00863506,0.00498672,-0.000928905,-0.147854,0.035159,-1.5614,-3.58393,-0.138747,-0.0250317,-3.68098,0.909862,-2.14699,0.513392,-1.5614,0,0,302,13,302,13,430,19,294,130,0.432758,-0.556875,0,-1.5,1.4295e-38,0,0,0,-3.68098,0.909862,0,0,0,0,-2.14699,0.513392,17408,0,0,0,0,0,0,0,0,0,1,-1
8989,0.889648,0,-2.86035,-0.00918619,0.00414031,-0.000786392,-0.147705,0.0351562,-1.56152,-3.57048,-0.145637,-0.0255264,-3.7154,0.918089,-2.15313,0.514622,-1.56152,0,0,303,12,303,12,430,18,295,130,0.432802,-0.55713,0,-1.5,1.4295e-38,0,0,0,-3.7154,0.918089,0,0,0,0,-2.15313,0.514622,17415,0,0,0,0,0,0,0,0,0,1,-1
9006,0.757812,0,6.33203,-0.00914612,0.00443649,-0.000669631,-0.148,0.0351292,-1.56145,-3.57048,-0.145637,-0.0255264,-3.75207,0.926852,-2.15959,0.515919,-1.56152,0,0,303,12,303,12,430,18,295,130,0.432799,-0.557454,0,-1.5,1.4295e-38,0,0,0,-3.75207,0.926852,0,0,0,0,-2.15959,0.515919,17415,0,0,0,0,0,0,0,0,0,1,-1
9022,0.757812,0,6.33203,-0.00914612,0.00443649,-0.000669631,-0.148,0.0351292,-1.56145,-3.57172,-0.138347,-0.0353858,-3.78669,0.935119,-2.16566,0.517124,-1.56145,0,0,302,13,302,13,430,19,294,132,0.432768,-0.557787,0,-1.5,1.4295e-38,0,0,0,-3.78669,0.935119,0,0,0,0,-2.16566,0.517124,17408,0,0,0,0,0,0,0,0,0,1,-1
9037,0.724609,0,-2.24805,-0.00936107,0.00562497,0.000153177,-0.148123,0.0351247,-1.56149,-3.57172,-0.138347,-0.0353858,-3.81923,0.942886,-2.17132,0.518245,-1.56149,0,0,302,13,302,13,430,19,294,132,0.432781,-0.55805,0,-1.5,1.4295e-38,0,0,0,-3.81923,0.942886,0,0,0,0,-2.17132,0.518245,17408,0,0,0,0,0,0,0,0,0,1,-1
9054,0.724609,0,-2.01074,-0.0103691,0.00484764,-0.000383226,-0.148182,0.0351124,-1.5615,-3.59324,-0.14232,-0.0183887,-3.85621,0.95171,-2.17769,0.519505,-1.5615,0,0,303,12,303,12,430,19,295,130,0.432781,-0.558361,0,-1.5,1.4295e-38,0,0,0,-3.85621,0.95171,0,0,0,0,-2.17769,0.519505,17415,0,0,0,0,0,0,0,0,0,1,-1
9069,0.731445,0,0.601562,-0.00912605,0.00473489,-0.000635383,-0.148224,0.0351091,-1.56152,-3.59324,-0.14232,-0.0183887,-3.88893,0.959513,-2.18328,0.520606,-1.56152,0,0,303,12,303,12,430,19,295,130,0.432785,-0.558629,0,-1.5,1.4295e-38,0,0,0,-3.88893,0.959513,0,0,0,0,-2.18328,0.520606,17415,0,0,0,0,0,0,0,0,0,1,-1
9084,0.764648,0,5.71777,-0.009277,0.00430303,-0.00181643,-0.148272,0.0350979,-1.56153,-3.5634,-0.143696,-0.0380929,-3.92173,0.967333,-2.18884,0.521698,-1.56153,0,0,302,13,302,13,430,19,295,132,0.432789,-0.558895,0,-1.5,1.4295e-38,0,0,0,-3.92173,0.967333,0,0,0,0,-2.18884,0.521698,17280,0,0,0,0,0,0,0,0,0,1,-1
9100,0.831055,0,-6.99414,-0.00900962,0.00337263,-0.00190151,-0.148366,0.0350623,-1.56158,-3.5634,-0.143696,-0.0380929,-3.95681,0.975692,-2.19472,0.522854,-1.56153,0,0,302,13,302,13,430,19,295,132,0.432786,-0.559184,0,-1.5,1.4295e-38,0,0,0,-3.95681,0.975692,0,0,0,0,-2.19472,0.522854,17280,0,0,0,0,0,0,0,0,0,1,-1
9116,0.864258,0,5.31641,-0.00905367,0.00431152,-0.000872942,-0.148421,0.03505,-1.56159,-3.58753,-0.137989,-0.0286288,-3.99199,0.98407,-2.20058,0.523995,-1.56159,0,0,302,13,302,13,429,19,295,132,0.432807,-0.559443,0,-1.5,1.4295e-38,0,0,0,-3.99199,0.98407,0,0,0,0,-2.20058,0.523995,17152,0,0,0,0,0,0,0,0,0,1,-1
9133,0.873047,0,2.73828,-0.00834854,0.00474358,-0.00124993,-0.148453,0.0350459,-1.56162,-3.58753,-0.137989,-0.0286288,-4.02726,0.992466,-2.20639,0.525126,-1.56162,0,0,302,13,302,13,429,19,295,132,0.432816,-0.559713,0,-1.5,1.4295e-38,0,0,0,-4.02726,0.992466,0,0,0,0,-2.20639,0.525126,17152,0,0,0,0,0,0,0,0,0,1,-1
9149,0.873047,0,-2.87207,-0.00932387,0.0054465,-0.00119648,-0.148505,0.0350392,-1.56164,-3.58753,-0.137989,-0.0286288,-4.06484,1.00141,-2.21253,0.526318,-1.56164,0,0,302,13,302,13,429,19,295,132,0.432821,-0.560001,0,-1.5,1.4295e-38,0,0,0,-4.06484,1.00141,0,0,0,0,-2.21253,0.526318,17152,0,0,0,0,0,0,0,0,0,1,-1
9165,0.873047,0,-2.87207,-0.00932387,0.0054465,-0.00119648,-0.148505,0.0350392,-1.56164,-3.57961,-0.139724,-0.0319392,-4.1003,1.00984,-2.21826,0.527429,-1.56164,0,0,302,13,302,13,430,19,295,132,0.432819,-0.560279,0,-1.5,1.4295e-38,0,0,0,-4.1003,1.00984,0,0,0,0,-2.21826,0.527429,17280,0,0,0,0,0,0,0,0,0,1,-1
