timestamp,A_x,A_y,A_z,P,Q,R,Phi,Theta,Psi,poseX,poseY,poseZ,state_X,state_Y,state_Z,state_VzB,state_Bx,state_By,state_Bz,p1_x,p1_y,p2_x,p2_y,p3_x,p3_y,p4_x,p4_y,roll,pitch,yaw,alt,targetHeading,highLevelState,lowLevelState,gateNumber,filtered_x,filtered_y,x_OT,y_OT,vx_OT,vy_OT,filtered_vx,filtered_vygateArearansac_corr_x,ransac_corr_y,ransac_corr_vx,ransac_corr_vy,detectionTimeStamppTermX,dTermX,pTermY,dTermY,vxcmd,vycmd
6127,1.5752,0.191406,-6.41113,-0.263365,-0.0318451,0.00592816,-0.194465,-0.0190934,-1.48188,0,0,0,-3.20128e-05,-2.12649e-06,-0.00722826,-0.000708729,-1.50734,0,0,0,0,0,0,0,0,0,0,0.37606,-0.19816,0,-1.5,1.83875e-38,0,0,0,-3.20128e-05,-2.12649e-06,0.199219,0.359375,-1.08,-0.15,-0.00722826,-0.000708729,1.9603e-19,0,0,0,0,0,0,0,0,0,1.5,4.25298e-06
6142,1.71289,0.263672,0.430664,0.66242,0.0840735,-0.00325167,-0.162555,-0.0159954,-1.44962,0,0,0,-0.000415047,-6.54423e-05,-0.0371125,-0.00665238,-1.45668,0,0,0,0,0,0,0,0,0,0,0.381972,-0.216518,0,-1.5,1.83875e-38,0,0,0,-0.000415047,-6.54423e-05,0.199219,0.359375,-1.08,-0.15,-0.0371125,-0.00665238,1.9603e-19,0,0,0,0,0,0,0,0,0,1.5,0.000130885
6157,0.0078125,0.0810547,-5.39648,-0.96192,0.0391637,0.0134033,-0.010498,0.00244141,-1.4541,0,0,0,-0.00115223,-0.000205941,-0.0511874,-0.00979511,-1.45244,0,0,0,0,0,0,0,0,0,0,0.385385,-0.2177,0,-1.5,1.83875e-38,0,0,0,-0.00115223,-0.000205941,0.199219,0.359375,-1.08,-0.15,-0.0511874,-0.00979511,1.9603e-19,0,0,0,0,0,0,0,0,0,1.5,0.000411881
6174,0,0,-5.31543,-0.0131777,0.00107609,-0.00422991,-0.00416971,0.00143496,-1.46114,0,0,0,-0.00198326,-0.000370702,-0.0457204,-0.00899794,-1.46062,0,0,0,0,0,0,0,0,0,0,0.384355,-0.214512,0,-1.5,1.83875e-38,0,0,0,-0.00198326,-0.000370702,0.199219,0.359375,-1.08,-0.15,-0.0457204,-0.00899794,1.9603e-19,0,0,0,0,0,0,0,0,0,1.5,0.000741404
6190,0,0,6.99609,-0.0122318,0.000262024,-0.00451776,-0.00433384,0.0014238,-1.46119,0,0,0,-0.00271836,-0.00051247,-0.0460766,-0.00878344,-1.46119,0,0,0,0,0,0,0,0,0,0,0.384468,-0.214285,0,-1.5,1.83875e-38,0,0,0,-0.00271836,-0.00051247,0.199219,0.359375,-1.08,-0.15,-0.0460766,-0.00878344,1.9603e-19,0,0,0,0,0,0,0,0,0,1.5,0.00102494
6206,0,0,-5.91602,-0.0126305,0.000895852,-0.0039804,-0.00467768,0.00141336,-1.46129,0,0,0,-0.0034594,-0.000650866,-0.0464568,-0.00857457,-1.46124,0,0,0,0,0,0,0,0,0,0,0.384566,-0.214261,0,-1.5,1.83875e-38,0,0,0,-0.0034594,-0.000650866,0.199219,0.359375,-1.08,-0.15,-0.0464568,-0.00857457,1.9603e-19,0,0,0,0,0,0,0,0,0,1.5,0.00130173
6222,0,0,-0.0996094,-0.00885613,0.00112566,-0.00394539,-0.00479804,0.00140627,-1.46134,0,0,0,-0.00415988,-0.00077763,-0.0468381,-0.00838394,-1.46129,0,0,0,0,0,0,0,0,0,0,0.384665,-0.214237,0,-1.5,1.83875e-38,0,0,0,-0.00415988,-0.00077763,0.199219,0.359375,-1.08,-0.15,-0.0468381,-0.00838394,1.9603e-19,0,0,0,0,0,0,0,0,0,1.5,0.00155526
6237,0,0,6.96191,-0.00728749,0.000808504,-0.00357638,-0.00488197,0.0013968,-1.46139,0,0,0,-0.00491386,-0.000909703,-0.0472741,-0.00818728,-1.46139,0,0,0,0,0,0,0,0,0,0,0.384779,-0.214195,0,-1.5,1.83875e-38,0,0,0,-0.00491386,-0.000909703,0.199219,0.359375,-1.08,-0.15,-0.0472741,-0.00818728,1.9603e-19,0,0,0,0,0,0,0,0,0,1.5,0.00181941
6253,0,0,5.75195,-0.00717187,0.000653903,-0.00488949,-0.00497125,0.00139263,-1.46145,0,0,0,-0.00567493,-0.00103867,-0.0477217,-0.00799508,-1.46145,0,0,0,0,0,0,0,0,0,0,0.384894,-0.214166,0,-1.5,1.83875e-38,0,0,0,-0.00567493,-0.00103867,0.199219,0.359375,-1.08,-0.15,-0.0477217,-0.00799508,1.9603e-19,0,0,0,0,0,0,0,0,0,1.5,0.00207735
6269,0,0,7.2627,-0.00718601,0.00109939,-0.00441123,-0.00506173,0.0013874,-1.46151,0,0,0,-0.00644328,-0.00116461,-0.0481818,-0.00780672,-1.46151,0,0,0,0,0,0,0,0,0,0,0.385013,-0.214142,0,-1.5,1.83875e-38,0,0,0,-0.00644328,-0.00116461,0.199219,0.359375,-1.08,-0.15,-0.0481818,-0.00780672,1.9603e-19,0,0,0,0,0,0,0,0,0,1.5,0.00232922
6285,0,0,2.12402,-0.00630207,0.000707513,-0.00377145,-0.00514014,0.00138012,-1.46156,0,0,0,-0.00717024,-0.00128003,-0.0486227,-0.00763366,-1.46156,0,0,0,0,0,0,0,0,0,0,0.385126,-0.214118,0,-1.5,1.83875e-38,0,0,0,-0.00717024,-0.00128003,0.199219,0.359375,-1.08,-0.15,-0.0486227,-0.00763366,1.9603e-19,0,0,0,0,0,0,0,0,0,1.5,0.00256006
6301,0,0,6.44434,-0.000261309,-0.000182015,-0.00394545,-0.00517089,0.00135104,-1.46166,0,0,0,-0.00800257,-0.00140761,-0.0491287,-0.00744115,-1.46161,0,0,0,0,0,0,0,0,0,0,0.385255,-0.214099,0,-1.5,1.83875e-38,0,0,0,-0.00800257,-0.00140761,0.199219,0.359375,-1.08,-0.15,-0.0491287,-0.00744115,1.9603e-19,0,0,0,0,0,0,0,0,0,1.5,0.00281521
6314,0,0,-1.08984,0.00493677,0.000453113,-0.00314027,-0.00510667,0.00134239,-1.4617,0,0,0,-0.00864437,-0.00150318,-0.049515,-0.00729754,-1.46166,0,0,0,0,0,0,0,0,0,0,0.385355,-0.214077,0,-1.5,1.83875e-38,0,0,0,-0.00864437,-0.00150318,0.199219,0.359375,-1.08,-0.15,-0.049515,-0.00729754,1.9603e-19,0,0,0,0,0,0,0,0,0,1.5,0.00300635
6354,0,0,6.99219,0.00106164,0.000213539,-0.00387125,-0.00502441,0.00132371,-1.4618,0,0,0,-0.0106631,-0.00178097,-0.0506829,-0.00686246,-1.4618,0,0,0,0,0,0,0,0,0,0,0.385654,-0.214024,0,-1.5,1.83875e-38,0,0,0,-0.0106631,-0.00178097,0.199219,0.359375,-1.08,-0.15,-0.0506829,-0.00686246,1.9603e-19,0,0,0,0,0,0,0,0,0,1.5,0.00356195
6384,0,0,-0.104492,0.000320141,0.000291926,-0.00348067,-0.00502541,0.00127617,-1.46194,0,0,0,-0.0122024,-0.00197962,-0.0515092,-0.00654647,-1.46189,0,0,0,0,0,0,0,0,0,0,0.385865,-0.213992,0,-1.5,1.83875e-38,0,0,0,-0.0122024,-0.00197962,0.199219,0.359375,-1.08,-0.15,-0.0515092,-0.00654647,1.9603e-19,0,0,0,0,0,0,0,0,0,1.5,0.00395924
6397,0,0,-0.104492,0.000320141,0.000291926,-0.00348067,-0.00502541,0.00127617,-1.46194,0,0,0,-0.0128748,-0.00206366,-0.0518627,-0.00641545,-1.46194,0,0,0,0,0,0,0,0,0,0,0.385956,-0.213974,0,-1.5,1.83875e-38,0,0,0,-0.0128748,-0.00206366,0.199219,0.359375,-1.08,-0.15,-0.0518627,-0.00641545,1.9603e-19,0,0,0,0,0,0,0,0,0,1.5,0.00412732
6410,0,0,6.97266,0.000659646,0.000258411,-0.0041049,-0.0050014,0.00125432,-1.462,0,0,0,-0.0135518,-0.00214604,-0.0522117,-0.00628716,-1.462,0,0,0,0,0,0,0,0,0,0,0.386046,-0.213952,0,-1.5,1.83875e-38,0,0,0,-0.0135518,-0.00214604,0.199219,0.359375,-1.08,-0.15,-0.0522117,-0.00628716,1.9603e-19,0,0,0,0,0,0,0,0,0,1.5,0.00429208
6425,0,0,7.22559,-0.000611144,0.000284333,-0.00399582,-0.00488281,0.0012207,-1.46216,0,0,0,-0.0143388,-0.00223894,-0.0526077,-0.00614255,-1.46206,0,0,0,0,0,0,0,0,0,0,0.386147,-0.21393,0,-1.5,1.83875e-38,0,0,0,-0.0143388,-0.00223894,0.199219,0.359375,-1.08,-0.15,-0.0526077,-0.00614255,1.9603e-19,0,0,0,0,0,0,0,0,0,1.5,0.00447789
6441,0,0,2.09668,-0.00192033,0.000456983,-0.00409051,-0.00495716,0.00120676,-1.46217,0,0,0,-0.0151849,-0.00233563,-0.053017,-0.00599116,-1.46216,0,0,0,0,0,0,0,0,0,0,0.386254,-0.213891,0,-1.5,1.83875e-38,0,0,0,-0.0151849,-0.00233563,0.199219,0.359375,-1.08,-0.15,-0.053017,-0.00599116,1.9603e-19,0,0,0,0,0,0,0,0,0,1.5,0.00467126
6458,0,0,2.09668,-0.00192033,0.000456983,-0.00409051,-0.00495716,0.00120676,-1.46217,0,0,0,-0.016091,-0.00243576,-0.0534539,-0.0058353,-1.46217,0,0,0,0,0,0,0,0,0,0,0.386365,-0.213887,0,-1.5,1.83875e-38,0,0,0,-0.016091,-0.00243576,0.199219,0.359375,-1.08,-0.15,-0.0534539,-0.0058353,1.9603e-19,0,0,0,0,0,0,0,0,0,1.5,0.00487153
6474,0,0,2.09668,-0.00192033,0.000456983,-0.00409051,-0.00495716,0.00120676,-1.46217,0,0,0,-0.0168965,-0.00252197,-0.0538366,-0.0056988,-1.46217,0,0,0,0,0,0,0,0,0,0,0.386461,-0.213889,0,-1.5,1.83875e-38,0,0,0,-0.0168965,-0.00252197,0.199219,0.359375,-1.08,-0.15,-0.0538366,-0.0056988,1.9603e-19,0,0,0,0,0,0,0,0,0,1.5,0.00504394
6490,0,0,2.09668,-0.00192033,0.000456983,-0.00409051,-0.00495716,0.00120676,-1.46217,0,0,0,-0.0178165,-0.00261716,-0.0542672,-0.00554518,-1.46217,0,0,0,0,0,0,0,0,0,0,0.386569,-0.213891,0,-1.5,1.83875e-38,0,0,0,-0.0178165,-0.00261716,0.199219,0.359375,-1.08,-0.15,-0.0542672,-0.00554518,1.9603e-19,0,0,0,0,0,0,0,0,0,1.5,0.00523432
6506,0,0,-5.3418,-0.00475223,0.000428096,-0.00316989,-0.00512327,0.00111823,-1.46238,0,0,0,-0.0186889,-0.00270445,-0.0546801,-0.00540888,-1.46238,0,0,0,0,0,0,0,0,0,0,0.386681,-0.21381,0,-1.5,1.83875e-38,0,0,0,-0.0186889,-0.00270445,0.199219,0.359375,-1.08,-0.15,-0.0546801,-0.00540888,1.9603e-19,0,0,0,0,0,0,0,0,0,1.5,0.0054089
6522,0,0,7.00586,-0.00425671,0.000550258,-0.00358392,-0.00516233,0.00110679,-1.46243,0,0,0,-0.0195681,-0.00278971,-0.0551063,-0.00528384,-1.46243,0,0,0,0,0,0,0,0,0,0,0.38679,-0.213792,0,-1.5,1.83875e-38,0,0,0,-0.0195681,-0.00278971,0.199219,0.359375,-1.08,-0.15,-0.0551063,-0.00528384,1.9603e-19,0,0,0,0,0,0,0,0,0,1.5,0.00557943
6539,0,0,-5.91504,-0.00251105,1.00985e-05,-0.00312932,-0.0052056,0.00107244,-1.46253,0,0,0,-0.0204543,-0.00287297,-0.0555343,-0.00516199,-1.46248,0,0,0,0,0,0,0,0,0,0,0.386899,-0.213773,0,-1.5,1.83875e-38,0,0,0,-0.0204543,-0.00287297,0.199219,0.359375,-1.08,-0.15,-0.0555343,-0.00516199,1.9603e-19,0,0,0,0,0,0,0,0,0,1.5,0.00574593
6554,0,0,-0.108398,-0.00146978,0.000734596,-0.00339122,-0.00521004,0.00106068,-1.46257,0,0,0,-0.0213474,-0.00295434,-0.0559639,-0.00504629,-1.46257,0,0,0,0,0,0,0,0,0,0,0.387011,-0.213738,0,-1.5,1.83875e-38,0,0,0,-0.0213474,-0.00295434,0.199219,0.359375,-1.08,-0.15,-0.0559639,-0.00504629,1.9603e-19,0,0,0,0,0,0,0,0,0,1.5,0.00590868
6570,0,0,6.9707,-0.00211919,0.00016251,-0.00383554,-0.00524324,0.0010419,-1.46262,0,0,0,-0.0222472,-0.00303393,-0.0563914,-0.0049335,-1.46262,0,0,0,0,0,0,0,0,0,0,0.387121,-0.213718,0,-1.5,1.83875e-38,0,0,0,-0.0222472,-0.00303393,0.199219,0.359375,-1.08,-0.15,-0.0563914,-0.0049335,1.9603e-19,0,0,0,0,0,0,0,0,0,1.5,0.00606785
6588,0,0,5.74707,-0.00147939,0.00038898,-0.00321275,-0.00526392,0.00102103,-1.46266,0,0,0,-0.0232679,-0.00312128,-0.0568749,-0.0048125,-1.46266,0,0,0,0,0,0,0,0,0,0,0.387244,-0.213703,0,-1.5,1.83875e-38,0,0,0,-0.0232679,-0.00312128,0.199219,0.359375,-1.08,-0.15,-0.0568749,-0.0048125,1.9603e-19,0,0,0,0,0,0,0,0,0,1.5,0.00624257
6604,0,0,7.26465,-0.000932139,0.000174593,-0.00342394,-0.00527495,0.00100019,-1.46271,0,0,0,-0.0241823,-0.00319722,-0.0573035,-0.00470945,-1.46271,0,0,0,0,0,0,0,0,0,0,0.387353,-0.213683,0,-1.5,1.83875e-38,0,0,0,-0.0241823,-0.00319722,0.199219,0.359375,-1.08,-0.15,-0.0573035,-0.00470945,1.9603e-19,0,0,0,0,0,0,0,0,0,1.5,0.00639445
6620,0,0,2.44531,-0.00148922,-0.000191526,-0.00294873,-0.00528602,0.000970954,-1.4628,0,0,0,-0.0251037,-0.00327152,-0.0577305,-0.00460974,-1.46275,0,0,0,0,0,0,0,0,0,0,0.387463,-0.213666,0,-1.5,1.83875e-38,0,0,0,-0.0251037,-0.00327152,0.199219,0.359375,-1.08,-0.15,-0.0577305,-0.00460974,1.9603e-19,0,0,0,0,0,0,0,0,0,1.5,0.00654305
6636,0,0,6.46094,-0.00105613,0.000333926,-0.00398044,-0.00528886,0.000956709,-1.46285,0,0,0,-0.0260318,-0.00334426,-0.0581552,-0.00451331,-1.4628,0,0,0,0,0,0,0,0,0,0,0.387571,-0.213646,0,-1.5,1.83875e-38,0,0,0,-0.0260318,-0.00334426,0.199219,0.359375,-1.08,-0.15,-0.0581552,-0.00451331,1.9603e-19,0,0,0,0,0,0,0,0,0,1.5,0.00668851
6652,0,0,-0.949219,-0.000787215,0.00113831,-0.00311094,-0.00529356,0.00094911,-1.4629,0,0,0,-0.0269667,-0.0034155,-0.058577,-0.00442133,-1.4629,0,0,0,0,0,0,0,0,0,0,0.387681,-0.213609,0,-1.5,1.83875e-38,0,0,0,-0.0269667,-0.0034155,0.199219,0.359375,-1.08,-0.15,-0.058577,-0.00442133,1.9603e-19,0,0,0,0,0,0,0,0,0,1.5,0.006831
6669,0,0,-5.39746,-0.00163363,0.00013336,-0.00291711,-0.00531059,0.000944228,-1.46293,0,0,0,-0.0279084,-0.00348529,-0.0589969,-0.00433135,-1.46293,0,0,0,0,0,0,0,0,0,0,0.387788,-0.213594,0,-1.5,1.83875e-38,0,0,0,-0.0279084,-0.00348529,0.199219,0.359375,-1.08,-0.15,-0.0589969,-0.00433135,1.9603e-19,0,0,0,0,0,0,0,0,0,1.5,0.00697059
6685,0,0,6.97754,-0.000965568,0.000950522,-0.00292886,-0.0053134,0.000933781,-1.46298,0,0,0,-0.0289162,-0.00355789,-0.0594419,-0.00423787,-1.46298,0,0,0,0,0,0,0,0,0,0,0.387902,-0.213573,0,-1.5,1.83875e-38,0,0,0,-0.0289162,-0.00355789,0.199219,0.359375,-1.08,-0.15,-0.0594419,-0.00423787,1.9603e-19,0,0,0,0,0,0,0,0,0,1.5,0.00711579
6701,0,0,7.06348,-0.00146467,-0.000320826,-0.00321751,-0.00532354,0.000915311,-1.46303,0,0,0,-0.0298715,-0.00362483,-0.0598583,-0.00415293,-1.46303,0,0,0,0,0,0,0,0,0,0,0.388009,-0.213555,0,-1.5,1.83875e-38,0,0,0,-0.0298715,-0.00362483,0.199219,0.359375,-1.08,-0.15,-0.0598583,-0.00415293,1.9603e-19,0,0,0,0,0,0,0,0,0,1.5,0.00724965
6717,0,0,-0.131836,-0.00156277,0.000793944,-0.00396977,-0.00533229,0.000892463,-1.46314,0,0,0,-0.0308335,-0.00369043,-0.0602726,-0.00407073,-1.46309,0,0,0,0,0,0,0,0,0,0,0.388115,-0.213532,0,-1.5,1.83875e-38,0,0,0,-0.0308335,-0.00369043,0.199219,0.359375,-1.08,-0.15,-0.0602726,-0.00407073,1.9603e-19,0,0,0,0,0,0,0,0,0,1.5,0.00738086
6734,0,0,6.91016,-0.00169818,0.000500245,-0.00437438,-0.00533735,0.000883863,-1.4632,0,0,0,-0.0318629,-0.0037587,-0.0607102,-0.00398619,-1.46314,0,0,0,0,0,0,0,0,0,0,0.388228,-0.21351,0,-1.5,1.83875e-38,0,0,0,-0.0318629,-0.0037587,0.199219,0.359375,-1.08,-0.15,-0.0607102,-0.00398619,1.9603e-19,0,0,0,0,0,0,0,0,0,1.5,0.00751739
6749,0,0,5.75879,-0.00219848,-0.000844351,-0.00316721,-0.00533795,0.000859183,-1.46325,0,0,0,-0.0327772,-0.00381781,-0.0610942,-0.00391498,-1.46325,0,0,0,0,0,0,0,0,0,0,0.388329,-0.213466,0,-1.5,1.83875e-38,0,0,0,-0.0327772,-0.00381781,0.199219,0.359375,-1.08,-0.15,-0.0610942,-0.00391498,1.9603e-19,0,0,0,0,0,0,0,0,0,1.5,0.00763563
6764,0,0,7.29199,-0.000657731,-0.00115301,-0.00374694,-0.00533671,0.000836423,-1.4633,0,0,0,-0.0336973,-0.00387589,-0.0614753,-0.0038482,-1.4633,0,0,0,0,0,0,0,0,0,0,0.388427,-0.213443,0,-1.5,1.83875e-38,0,0,0,-0.0336973,-0.00387589,0.199219,0.359375,-1.08,-0.15,-0.0614753,-0.0038482,1.9603e-19,0,0,0,0,0,0,0,0,0,1.5,0.00775177
6781,0,0,2.16016,-0.00177001,0.000846573,-0.0029575,-0.00534868,0.000832872,-1.46335,0,0,0,-0.0347471,-0.00394051,-0.0619045,-0.00377607,-1.46335,0,0,0,0,0,0,0,0,0,0,0.388537,-0.213423,0,-1.5,1.83875e-38,0,0,0,-0.0347471,-0.00394051,0.199219,0.359375,-1.08,-0.15,-0.0619045,-0.00377607,1.9603e-19,0,0,0,0,0,0,0,0,0,1.5,0.00788102
6796,0,0,2.46289,-0.000679032,-0.000947187,-0.00356875,-0.00535532,0.00080199,-1.4634,0,0,0,-0.0356793,-0.00399655,-0.0622816,-0.00371512,-1.4634,0,0,0,0,0,0,0,0,0,0,0.388634,-0.213401,0,-1.5,1.83875e-38,0,0,0,-0.0356793,-0.00399655,0.199219,0.359375,-1.08,-0.15,-0.0622816,-0.00371512,1.9603e-19,0,0,0,0,0,0,0,0,0,1.5,0.0079931
6813,0,0,-0.993164,-0.00247305,0.000883611,-0.00373734,-0.0053975,0.000773452,-1.4635,0,0,0,-0.0367428,-0.00405899,-0.0627075,-0.00365068,-1.46344,0,0,0,0,0,0,0,0,0,0,0.388743,-0.213379,0,-1.5,1.83875e-38,0,0,0,-0.0367428,-0.00405899,0.199219,0.359375,-1.08,-0.15,-0.0627075,-0.00365068,1.9603e-19,0,0,0,0,0,0,0,0,0,1.5,0.00811798
6828,0,0,-5.42383,-0.00191213,0.0012459,-0.0036789,-0.00541233,0.0007681,-1.46355,0,0,0,-0.037687,-0.00411323,-0.0630838,-0.0035969,-1.4635,0,0,0,0,0,0,0,0,0,0,0.38884,-0.213354,0,-1.5,1.83875e-38,0,0,0,-0.037687,-0.00411323,0.199219,0.359375,-1.08,-0.15,-0.0630838,-0.0035969,1.9603e-19,0,0,0,0,0,0,0,0,0,1.5,0.00822645
6845,0,0,7.01562,-0.00132225,0.000660384,-0.00411155,-0.00541694,0.000759148,-1.4636,0,0,0,-0.0387006,-0.0041702,-0.0634862,-0.00354238,-1.4636,0,0,0,0,0,0,0,0,0,0,0.388946,-0.21331,0,-1.5,1.83875e-38,0,0,0,-0.0387006,-0.0041702,0.199219,0.359375,-1.08,-0.15,-0.0634862,-0.00354238,1.9603e-19,0,0,0,0,0,0,0,0,0,1.5,0.0083404
6861,0,0,7.01562,-0.00132225,0.000660384,-0.00411155,-0.00541694,0.000759148,-1.4636,0,0,0,-0.0397846,-0.0042298,-0.0639112,-0.0034862,-1.4636,0,0,0,0,0,0,0,0,0,0,0.389053,-0.213306,0,-1.5,1.83875e-38,0,0,0,-0.0397846,-0.0042298,0.199219,0.359375,-1.08,-0.15,-0.0639112,-0.0034862,1.9603e-19,0,0,0,0,0,0,0,0,0,1.5,0.00845961
6877,0,0,-5.93359,0.000789453,0.000755262,-0.00248666,-0.0053907,0.000742355,-1.46369,0,0,0,-0.0407468,-0.00428162,-0.0642817,-0.00343779,-1.46369,0,0,0,0,0,0,0,0,0,0,0.38915,-0.213266,0,-1.5,1.83875e-38,0,0,0,-0.0407468,-0.00428162,0.199219,0.359375,-1.08,-0.15,-0.0642817,-0.00343779,1.9603e-19,0,0,0,0,0,0,0,0,0,1.5,0.00856324
6893,0,0,-5.93359,0.000789453,0.000755262,-0.00248666,-0.0053907,0.000742355,-1.46369,0,0,0,-0.0418442,-0.00433948,-0.0646959,-0.00338465,-1.46369,0,0,0,0,0,0,0,0,0,0,0.389255,-0.213262,0,-1.5,1.83875e-38,0,0,0,-0.0418442,-0.00433948,0.199219,0.359375,-1.08,-0.15,-0.0646959,-0.00338465,1.9603e-19,0,0,0,0,0,0,0,0,0,1.5,0.00867896
6908,0,0,6.91895,0.00106434,0.000573504,-0.00328655,-0.005356,0.000718507,-1.46378,0,0,0,-0.0428181,-0.0043898,-0.0650566,-0.00333924,-1.46378,0,0,0,0,0,0,0,0,0,0,0.389349,-0.213225,0,-1.5,1.83875e-38,0,0,0,-0.0428181,-0.0043898,0.199219,0.359375,-1.08,-0.15,-0.0650566,-0.00333924,1.9603e-19,0,0,0,0,0,0,0,0,0,1.5,0.00877961
6924,0,0,7.29395,-0.000372838,-0.000475421,-0.00373879,-0.00536645,0.000692182,-1.46388,0,0,0,-0.043863,-0.00444274,-0.0654351,-0.00329298,-1.46378,0,0,0,0,0,0,0,0,0,0,0.389445,-0.21322,0,-1.5,1.83875e-38,0,0,0,-0.043863,-0.00444274,0.199219,0.359375,-1.08,-0.15,-0.0654351,-0.00329298,1.9603e-19,0,0,0,0,0,0,0,0,0,1.5,0.00888549
6941,0,0,2.12012,0.000635045,-0.000542486,-0.00387782,-0.00535675,0.000669067,-1.46394,0,0,0,-0.0449798,-0.0044982,-0.0658348,-0.00324697,-1.46394,0,0,0,0,0,0,0,0,0,0,0.389552,-0.213152,0,-1.5,1.83875e-38,0,0,0,-0.0449798,-0.0044982,0.199219,0.359375,-1.08,-0.15,-0.0658348,-0.00324697,1.9603e-19,0,0,0,0,0,0,0,0,0,1.5,0.0089964
6956,0,0,2.47363,-0.000241337,0.000337519,-0.00264815,-0.00534998,0.000657583,-1.46399,0,0,0,-0.0459707,-0.00454656,-0.0661836,-0.00321173,-1.46399,0,0,0,0,0,0,0,0,0,0,0.389642,-0.213128,0,-1.5,1.83875e-38,0,0,0,-0.0459707,-0.00454656,0.199219,0.359375,-1.08,-0.15,-0.0661836,-0.00321173,1.9603e-19,0,0,0,0,0,0,0,0,0,1.5,0.00909313
6972,0,0,6.46191,-0.0015276,-0.000171974,-0.0028276,-0.00535603,0.000636592,-1.46403,0,0,0,-0.0470335,-0.00459757,-0.0665522,-0.00317642,-1.46403,0,0,0,0,0,0,0,0,0,0,0.389738,-0.213104,0,-1.5,1.83875e-38,0,0,0,-0.0470335,-0.00459757,0.199219,0.359375,-1.08,-0.15,-0.0665522,-0.00317642,1.9603e-19,0,0,0,0,0,0,0,0,0,1.5,0.00919515
6989,0,0,-1.01367,-0.000962732,-0.000354011,-0.00284878,-0.00537265,0.000620108,-1.46407,0,0,0,-0.0481692,-0.0046512,-0.0669425,-0.00314307,-1.46407,0,0,0,0,0,0,0,0,0,0,0.389838,-0.213079,0,-1.5,1.83875e-38,0,0,0,-0.0481692,-0.0046512,0.199219,0.359375,-1.08,-0.15,-0.0669425,-0.00314307,1.9603e-19,0,0,0,0,0,0,0,0,0,1.5,0.00930239
7005,0,0,-5.40137,0.000136475,0.000728843,-0.00239546,-0.00537426,0.000605296,-1.46411,0,0,0,-0.049244,-0.00470119,-0.0673084,-0.00311458,-1.46411,0,0,0,0,0,0,0,0,0,0,0.389933,-0.213055,0,-1.5,1.83875e-38,0,0,0,-0.049244,-0.00470119,0.199219,0.359375,-1.08,-0.15,-0.0673084,-0.00311458,1.9603e-19,0,0,0,0,0,0,0,0,0,1.5,0.00940238
7021,0,0,7.07129,-0.00234066,0.000403449,-0.00343227,-0.00537972,0.000557486,-1.46422,0,0,0,-0.0503248,-0.00475074,-0.0676709,-0.00308898,-1.46417,0,0,0,0,0,0,0,0,0,0,0.390027,-0.213022,0,-1.5,1.83875e-38,0,0,0,-0.0503248,-0.00475074,0.199219,0.359375,-1.08,-0.15,-0.0676709,-0.00308898,1.9603e-19,0,0,0,0,0,0,0,0,0,1.5,0.00950149
7037,0,0,-5.92773,-0.0032548,0.000729723,-0.00257156,-0.00540167,0.000542342,-1.46427,0,0,0,-0.0514113,-0.00479993,-0.0680306,-0.00306776,-1.46422,0,0,0,0,0,0,0,0,0,0,0.39012,-0.212994,0,-1.5,1.83875e-38,0,0,0,-0.0514113,-0.00479993,0.199219,0.359375,-1.08,-0.15,-0.0680306,-0.00306776,1.9603e-19,0,0,0,0,0,0,0,0,0,1.5,0.00959987
7055,0,0,-0.0976562,-0.00172339,0.000185807,-0.00339003,-0.00543431,0.00052547,-1.46432,0,0,0,-0.0525722,-0.00485189,-0.0684163,-0.00305135,-1.46432,0,0,0,0,0,0,0,0,0,0,0.390222,-0.212945,0,-1.5,1.83875e-38,0,0,0,-0.0525722,-0.00485189,0.199219,0.359375,-1.08,-0.15,-0.0684163,-0.00305135,1.9603e-19,0,0,0,0,0,0,0,0,0,1.5,0.00970378
7071,0,0,6.93359,-0.00309405,0.000473946,-0.00300792,-0.00546449,0.000513216,-1.46438,0,0,0,-0.0537395,-0.00490361,-0.0688043,-0.00303826,-1.46438,0,0,0,0,0,0,0,0,0,0,0.390323,-0.212911,0,-1.5,1.83875e-38,0,0,0,-0.0537395,-0.00490361,0.199219,0.359375,-1.08,-0.15,-0.0688043,-0.00303826,1.9603e-19,0,0,0,0,0,0,0,0,0,1.5,0.00980723
7087,0,0,5.75781,-0.00257893,0.000606587,-0.00360924,-0.00547993,0.000496346,-1.46442,0,0,0,-0.0548442,-0.00495212,-0.0691702,-0.00302849,-1.46442,0,0,0,0,0,0,0,0,0,0,0.390418,-0.212881,0,-1.5,1.83875e-38,0,0,0,-0.0548442,-0.00495212,0.199219,0.359375,-1.08,-0.15,-0.0691702,-0.00302849,1.9603e-19,0,0,0,0,0,0,0,0,0,1.5,0.00990423
7103,0,0,2.1377,-0.00512962,0.000100796,-0.00268645,-0.00556451,0.000488704,-1.46452,0,0,0,-0.0559547,-0.00500049,-0.0695368,-0.0030208,-1.46448,0,0,0,0,0,0,0,0,0,0,0.390514,-0.212847,0,-1.5,1.83875e-38,0,0,0,-0.0559547,-0.00500049,0.199219,0.359375,-1.08,-0.15,-0.0695368,-0.0030208,1.9603e-19,0,0,0,0,0,0,0,0,0,1.5,0.010001
7119,0,0,2.46875,-0.00482207,-0.000187255,-0.00337095,-0.00562857,0.000473492,-1.46457,0,0,0,-0.0570711,-0.00504875,-0.0699079,-0.00301451,-1.46452,0,0,0,0,0,0,0,0,0,0,0.39061,-0.212818,0,-1.5,1.83875e-38,0,0,0,-0.0570711,-0.00504875,0.199219,0.359375,-1.08,-0.15,-0.0699079,-0.00301451,1.9603e-19,0,0,0,0,0,0,0,0,0,1.5,0.0100975
7136,0,0,6.45215,-0.00163441,-0.000161017,-0.0031249,-0.00564294,0.000454353,-1.46461,0,0,0,-0.058264,-0.00509998,-0.070314,-0.00301286,-1.46461,0,0,0,0,0,0,0,0,0,0,0.390718,-0.212766,0,-1.5,1.83875e-38,0,0,0,-0.058264,-0.00509998,0.199219,0.359375,-1.08,-0.15,-0.070314,-0.00301286,1.9603e-19,0,0,0,0,0,0,0,0,0,1.5,0.0102
7151,0,0,-1.08887,-0.00107273,0.000246638,-0.00337885,-0.00564931,0.000436842,-1.46466,0,0,0,-0.0593222,-0.00514518,-0.0706715,-0.00301474,-1.46466,0,0,0,0,0,0,0,0,0,0,0.390811,-0.212734,0,-1.5,1.83875e-38,0,0,0,-0.0593222,-0.00514518,0.199219,0.359375,-1.08,-0.15,-0.0706715,-0.00301474,1.9603e-19,0,0,0,0,0,0,0,0,0,1.5,0.0102904
7167,0,0,-5.3584,0.00063699,5.59814e-05,-0.00460463,-0.00563582,0.00041642,-1.46473,0,0,0,-0.0603857,-0.00519045,-0.0710261,-0.00301962,-1.46473,0,0,0,0,0,0,0,0,0,0,0.390904,-0.212694,0,-1.5,1.83875e-38,0,0,0,-0.0603857,-0.00519045,0.199219,0.359375,-1.08,-0.15,-0.0710261,-0.00301962,1.9603e-19,0,0,0,0,0,0,0,0,0,1.5,0.0103809
7183,0,0,6.99609,0.00220847,-0.00141952,-0.00415046,-0.00559143,0.000388461,-1.46478,0,0,0,-0.0615977,-0.00524187,-0.0714209,-0.00302829,-1.46478,0,0,0,0,0,0,0,0,0,0,0.391007,-0.212655,0,-1.5,1.83875e-38,0,0,0,-0.0615977,-0.00524187,0.199219,0.359375,-1.08,-0.15,-0.0714209,-0.00302829,1.9603e-19,0,0,0,0,0,0,0,0,0,1.5,0.0104837
7199,0,0,7.0791,0.000587636,0.000753461,-0.00365558,-0.00556232,0.000374543,-1.46483,0,0,0,-0.0627441,-0.00529043,-0.0717828,-0.00303941,-1.46483,0,0,0,0,0,0,0,0,0,0,0.391102,-0.212619,0,-1.5,1.83875e-38,0,0,0,-0.0627441,-0.00529043,0.199219,0.359375,-1.08,-0.15,-0.0717828,-0.00303941,1.9603e-19,0,0,0,0,0,0,0,0,0,1.5,0.0105809
7215,0,0,-0.118164,-0.00160435,-0.000845338,-0.00315967,-0.00556757,0.000334443,-1.46493,0,0,0,-0.0638964,-0.00533919,-0.0721389,-0.00305267,-1.46488,0,0,0,0,0,0,0,0,0,0,0.391195,-0.21258,0,-1.5,1.83875e-38,0,0,0,-0.0638964,-0.00533919,0.199219,0.359375,-1.08,-0.15,-0.0721389,-0.00305267,1.9603e-19,0,0,0,0,0,0,0,0,0,1.5,0.0106784
7232,0,0,6.93066,-0.00216228,0.000392266,-0.0028102,-0.0055853,0.000322635,-1.46497,0,0,0,-0.0650543,-0.00538823,-0.0724935,-0.00307105,-1.46497,0,0,0,0,0,0,0,0,0,0,0.39129,-0.212526,0,-1.5,1.83875e-38,0,0,0,-0.0650543,-0.00538823,0.199219,0.359375,-1.08,-0.15,-0.0724935,-0.00307105,1.9603e-19,0,0,0,0,0,0,0,0,0,1.5,0.0107765
7248,0,0,5.79297,-0.00195699,-0.000555158,-0.00394907,-0.00560023,0.000300761,-1.46503,0,0,0,-0.0662909,-0.00544067,-0.0728703,-0.00309328,-1.46503,0,0,0,0,0,0,0,0,0,0,0.391389,-0.212482,0,-1.5,1.83875e-38,0,0,0,-0.0662909,-0.00544067,0.199219,0.359375,-1.08,-0.15,-0.0728703,-0.00309328,1.9603e-19,0,0,0,0,0,0,0,0,0,1.5,0.0108813
7264,0,0,5.79297,-0.00195699,-0.000555158,-0.00394907,-0.00560023,0.000300761,-1.46503,0,0,0,-0.0674604,-0.0054904,-0.0732238,-0.0031168,-1.46503,0,0,0,0,0,0,0,0,0,0,0.39148,-0.212461,0,-1.5,1.83875e-38,0,0,0,-0.0674604,-0.0054904,0.199219,0.359375,-1.08,-0.15,-0.0732238,-0.0031168,1.9603e-19,0,0,0,0,0,0,0,0,0,1.5,0.0109808
7280,0,0,2.10254,0.0387826,0.00317582,-0.00345246,-0.0052128,0.000314672,-1.46513,0,0,0,-0.0686354,-0.00554049,-0.0735484,-0.00313636,-1.46513,0,0,0,0,0,0,0,0,0,0,0.391568,-0.212402,0,-1.5,1.83875e-38,0,0,0,-0.0686354,-0.00554049,0.199219,0.359375,-1.08,-0.15,-0.0735484,-0.00313636,1.9603e-19,0,0,0,0,0,0,0,0,0,1.5,0.011081
7296,0,0,6.46973,0.202243,-0.00325875,-0.00661588,-0.00117172,0.000259622,-1.46529,0,0,0,-0.0698151,-0.00559082,-0.073837,-0.00315093,-1.46513,0,0,0,0,0,0,0,0,0,0,0.391642,-0.212381,0,-1.5,1.83875e-38,0,0,0,-0.0698151,-0.00559082,0.199219,0.359375,-1.08,-0.15,-0.073837,-0.00315093,1.9603e-19,0,0,0,0,0,0,0,0,0,1.5,0.0111816
7312,0,0,-0.982422,0.235639,-0.00598267,-0.00785719,0.00217507,0.000173891,-1.46539,0,0,0,-0.0709974,-0.0056412,-0.0737687,-0.00313262,-1.46529,0,0,0,0,0,0,0,0,0,0,0.391634,-0.212294,0,-1.5,1.83875e-38,0,0,0,-0.0709974,-0.0056412,0.199219,0.359375,-1.08,-0.15,-0.0737687,-0.00313262,1.9603e-19,0,0,0,0,0,0,0,0,0,1.5,0.0112824
7327,-0.0117188,0,-5.39062,0.186081,-0.00364778,-0.00590268,0.00490331,0.000115907,-1.46547,0,0,0,-0.0720961,-0.00568741,-0.0729571,-0.00305254,-1.46539,0,0,0,0,0,0,0,0,0,0,0.391436,-0.212232,0,-1.5,1.83875e-38,0,0,0,-0.0720961,-0.00568741,0.199219,0.359375,-1.08,-0.15,-0.0729571,-0.00305254,1.9603e-19,0,0,0,0,0,0,0,0,0,1.5,0.0113748
7344,-0.106445,0,7.00977,0.0765856,0.00104395,-0.00351898,0.00629163,7.67611e-05,-1.46552,0,0,0,-0.0733207,-0.00573784,-0.0715369,-0.00292014,-1.46552,0,0,0,0,0,0,0,0,0,0,0.391087,-0.21215,0,-1.5,1.83875e-38,0,0,0,-0.0733207,-0.00573784,0.199219,0.359375,-1.08,-0.15,-0.0715369,-0.00292014,1.9603e-19,0,0,0,0,0,0,0,0,0,1.5,0.0114757
7359,-0.106445,0,7.00977,0.0765856,0.00104395,-0.00351898,0.00629163,7.67611e-05,-1.46552,0,0,0,-0.0743802,-0.0057804,-0.0701379,-0.00279222,-1.46552,0,0,0,0,0,0,0,0,0,0,0.390738,-0.212124,0,-1.5,1.83875e-38,0,0,0,-0.0743802,-0.0057804,0.199219,0.359375,-1.08,-0.15,-0.0701379,-0.00279222,1.9603e-19,0,0,0,0,0,0,0,0,0,1.5,0.0115608
7375,-0.210938,0,-5.88379,-0.171315,-0.00614676,0.00478689,0.00427725,-1.91724e-05,-1.46547,0,0,0,-0.0754878,-0.00582377,-0.0687732,-0.00267476,-1.46547,0,0,0,0,0,0,0,0,0,0,0.390396,-0.212117,0,-1.5,1.83875e-38,0,0,0,-0.0754878,-0.00582377,0.199219,0.359375,-1.08,-0.15,-0.0687732,-0.00267476,1.9603e-19,0,0,0,0,0,0,0,0,0,1.5,0.0116475
7391,-0.210938,0,-5.88379,-0.171315,-0.00614676,0.00478689,0.00427725,-1.91724e-05,-1.46547,0,0,0,-0.0765759,-0.00586565,-0.0676129,-0.00258813,-1.46547,0,0,0,0,0,0,0,0,0,0,0.390108,-0.212087,0,-1.5,1.83875e-38,0,0,0,-0.0765759,-0.00586565,0.199219,0.359375,-1.08,-0.15,-0.0676129,-0.00258813,1.9603e-19,0,0,0,0,0,0,0,0,0,1.5,0.0117313
7408,-0.0166016,0,5.75781,-0.209223,-0.00245255,0.0754853,-0.00610119,-0.000244941,-1.46439,0,0,0,-0.0776474,-0.00590638,-0.0668952,-0.00255787,-1.46514,0,0,0,0,0,0,0,0,0,0,0.389918,-0.212182,0,-1.5,1.83875e-38,0,0,0,-0.0776474,-0.00590638,0.199219,0.359375,-1.08,-0.15,-0.0668952,-0.00255787,1.9603e-19,0,0,0,0,0,0,0,0,0,1.5,0.0118128
7424,0.00585938,0,7.27832,-0.160125,0.00785451,0.334196,-0.00848257,-0.000172529,-1.46049,0,0,0,-0.0787189,-0.00594811,-0.0671327,-0.00264984,-1.46439,0,0,0,0,0,0,0,0,0,0,0.389953,-0.212439,0,-1.5,1.83875e-38,0,0,0,-0.0787189,-0.00594811,0.199219,0.359375,-1.08,-0.15,-0.0671327,-0.00264984,1.9603e-19,0,0,0,0,0,0,0,0,0,1.5,0.0118962
7440,0.0517578,0,2.13184,-0.00908392,0.00954584,0.647156,-0.00897583,4.37796e-05,-1.45264,0,0,0,-0.07987,-0.00599496,-0.0680295,-0.00281168,-1.45264,0,0,0,0,0,0,0,0,0,0,0.38971,-0.216982,0,-1.5,1.83875e-38,0,0,0,-0.07987,-0.00599496,0.199219,0.359375,-1.08,-0.15,-0.0680295,-0.00281168,1.9603e-19,0,0,0,0,0,0,0,0,0,1.5,0.0119899
7456,0.146484,0,2.47363,0.25887,0.00885804,0.94131,-0.00576559,0.000277415,-1.44006,0,0,0,-0.0809672,-0.00604128,-0.0687511,-0.00291871,-1.44006,0,0,0,0,0,0,0,0,0,0,0.38933,-0.221854,0,-1.5,1.83875e-38,0,0,0,-0.0809672,-0.00604128,0.199219,0.359375,-1.08,-0.15,-0.0687511,-0.00291871,1.9603e-19,0,0,0,0,0,0,0,0,0,1.5,0.0120826
7472,-0.0546875,0,6.48633,0.414638,0.01459,1.19505,1.56789e-05,0.000416643,-1.42386,0,0,0,-0.0820701,-0.00608831,-0.0688224,-0.00291996,-1.42386,0,0,0,0,0,0,0,0,0,0,0.388532,-0.228133,0,-1.5,1.83875e-38,0,0,0,-0.0820701,-0.00608831,0.199219,0.359375,-1.08,-0.15,-0.0688224,-0.00291996,1.9603e-19,0,0,0,0,0,0,0,0,0,1.5,0.0121766
7489,0,0,-0.992188,0.531779,0.0143449,1.36362,0.00713139,0.000556428,-1.40571,0,0,0,-0.0831644,-0.00613382,-0.0679242,-0.00275727,-1.40571,0,0,0,0,0,0,0,0,0,0,0.387269,-0.235155,0,-1.5,1.83875e-38,0,0,0,-0.0831644,-0.00613382,0.199219,0.359375,-1.08,-0.15,-0.0679242,-0.00275727,1.9603e-19,0,0,0,0,0,0,0,0,0,1.5,0.0122676
7504,0,-0.015625,6.99805,0.815826,0.0634791,1.75016,0.0278079,0.000837492,-1.36105,0,0,0,-0.0842325,-0.00617442,-0.0658022,-0.00234976,-1.38431,0,0,0,0,0,0,0,0,0,0,0.385345,-0.24341,0,-1.5,1.83875e-38,0,0,0,-0.0842325,-0.00617442,0.199219,0.359375,-1.08,-0.15,-0.0658022,-0.00234976,1.9603e-19,0,0,0,0,0,0,0,0,0,1.5,0.0123488
7521,-0.0908203,0,7.08984,0.849595,0.0884135,1.87818,0.0400784,0.00111147,-1.33493,0,0,0,-0.08531,-0.00620583,-0.0615233,-0.00141013,-1.33493,0,0,0,0,0,0,0,0,0,0,0.38038,-0.26231,0,-1.5,1.83875e-38,0,0,0,-0.08531,-0.00620583,0.199219,0.359375,-1.08,-0.15,-0.0615233,-0.00141013,1.9603e-19,0,0,0,0,0,0,0,0,0,1.5,0.0124117
7538,-0.274414,0.0791016,-5.92285,0.886171,0.10283,1.9236,0.0527543,0.00106514,-1.30801,0,0,0,-0.0862769,-0.00620974,-0.0543783,0.000423003,-1.30801,0,0,0,0,0,0,0,0,0,0,0.376033,-0.272494,0,-1.5,1.83875e-38,0,0,0,-0.0862769,-0.00620974,0.199219,0.359375,-1.08,-0.15,-0.0543783,0.000423003,1.9603e-19,0,0,0,0,0,0,0,0,0,1.5,0.0124195
7554,-0.453125,0.154297,-0.0117188,0.852938,0.146691,1.90472,0.0647919,0.00142874,-1.28209,0,0,0,-0.0870144,-0.00618129,-0.0459212,0.00288324,-1.28209,0,0,0,0,0,0,0,0,0,0,0.37116,-0.282208,0,-1.5,1.83875e-38,0,0,0,-0.0870144,-0.00618129,0.199219,0.359375,-1.08,-0.15,-0.0459212,0.00288324,1.9603e-19,0,0,0,0,0,0,0,0,0,1.5,0.0123626
7569,-0.552734,0.126953,7.00391,0.757367,0.143692,1.7795,0.0761252,0.00169579,-1.25668,0,0,0,-0.0876438,-0.00610197,-0.035226,0.00633244,-1.25668,0,0,0,0,0,0,0,0,0,0,0.36548,-0.291637,0,-1.5,1.83875e-38,0,0,0,-0.0876438,-0.00610197,0.199219,0.359375,-1.08,-0.15,-0.035226,0.00633244,1.9603e-19,0,0,0,0,0,0,0,0,0,1.5,0.0122039
7585,-0.764648,0.15918,5.79199,0.630991,0.0510859,1.53586,0.0853713,0.00106196,-1.23528,0,0,0,-0.0880844,-0.00595878,-0.0232146,0.0104605,-1.23528,0,0,0,0,0,0,0,0,0,0,0.35969,-0.299482,0,-1.5,1.83875e-38,0,0,0,-0.0880844,-0.00595878,0.199219,0.359375,-1.08,-0.15,-0.0232146,0.0104605,1.9603e-19,0,0,0,0,0,0,0,0,0,1.5,0.0119176
7601,-0.856445,0.209961,2.20898,0.332544,0.054493,0.911555,0.0976075,-0.00033826,-1.20372,0,0,0,-0.0883243,-0.00574493,-0.0100853,0.0151223,-1.21725,0,0,0,0,0,0,0,0,0,0,0.353857,-0.306006,0,-1.5,1.83875e-38,0,0,0,-0.0883243,-0.00574493,0.199219,0.359375,-1.08,-0.15,-0.0100853,0.0151223,1.9603e-19,0,0,0,0,0,0,0,0,0,1.5,0.0114899
7618,-0.856445,0.209961,2.20898,0.332544,0.054493,0.911555,0.0976075,-0.00033826,-1.20372,0,0,0,-0.0883335,-0.00542897,0.00483608,0.0205814,-1.20372,0,0,0,0,0,0,0,0,0,0,0.348016,-0.310864,0,-1.5,1.83875e-38,0,0,0,-0.0883335,-0.00542897,0.199219,0.359375,-1.08,-0.15,0.00483608,0.0205814,1.9603e-19,0,0,0,0,0,0,0,0,0,1.5,0.0108579
7634,-0.932617,0.0820312,6.5625,0.0615675,0.0281222,0.351178,0.102279,-0.00112099,-1.18948,0,0,0,-0.0881098,-0.00504523,0.0193069,0.0259895,-1.18948,0,0,0,0,0,0,0,0,0,0,0.342107,-0.315889,0,-1.5,1.83875e-38,0,0,0,-0.0881098,-0.00504523,0.199219,0.359375,-1.08,-0.15,0.0193069,0.0259895,1.9603e-19,0,0,0,0,0,0,0,0,0,1.5,0.0100905
7650,-1.03125,-0.00292969,-0.869141,-0.10325,0.0375141,0.126836,0.101287,-0.000850566,-1.18731,0,0,0,-0.08765,-0.00457206,0.0340544,0.0316127,-1.18731,0,0,0,0,0,0,0,0,0,0,0.337765,-0.316776,0,-1.5,1.83875e-38,0,0,0,-0.08765,-0.00457206,0.199219,0.359375,-1.08,-0.15,0.0340544,0.0316127,1.9603e-19,0,0,0,0,0,0,0,0,0,1.5,0.00914413
7666,-1.00293,0.0625,-5.32227,-0.234237,0.0446382,-0.0489263,0.0982529,-0.00027931,-1.18764,0,0,0,-0.0869579,-0.00400943,0.04838,0.0371601,-1.18764,0,0,0,0,0,0,0,0,0,0,0.333867,-0.316874,0,-1.5,1.83875e-38,0,0,0,-0.0869579,-0.00400943,0.199219,0.359375,-1.08,-0.15,0.04838,0.0371601,1.9603e-19,0,0,0,0,0,0,0,0,0,1.5,0.00801886
7683,-0.835938,0.196289,7.12891,-0.291898,0.0397898,-0.168076,0.0904197,0.00107151,-1.19175,0,0,0,-0.0859733,-0.00331423,0.0629453,0.0428852,-1.18951,0,0,0,0,0,0,0,0,0,0,0.330091,-0.316544,0,-1.5,1.83875e-38,0,0,0,-0.0859733,-0.00331423,0.199219,0.359375,-1.08,-0.15,0.0629453,0.0428852,1.9603e-19,0,0,0,0,0,0,0,0,0,1.5,0.00662845
7698,-0.769531,0.162109,-5.86035,-0.283184,0.0387376,-0.157087,0.0863422,0.00177045,-1.19392,0,0,0,-0.0849103,-0.00262364,0.0750726,0.0477332,-1.19175,0,0,0,0,0,0,0,0,0,0,0.327015,-0.316132,0,-1.5,1.83875e-38,0,0,0,-0.0849103,-0.00262364,0.199219,0.359375,-1.08,-0.15,0.0750726,0.0477332,1.9603e-19,0,0,0,0,0,0,0,0,0,1.5,0.00524727
7715,-0.703125,0.0546875,-0.114258,-0.210545,0.0155774,-0.0833075,0.0831149,0.00224983,-1.19533,0,0,0,-0.0835787,-0.00180715,0.0872657,0.0526939,-1.19533,0,0,0,0,0,0,0,0,0,0,0.32408,-0.315374,0,-1.5,1.83875e-38,0,0,0,-0.0835787,-0.00180715,0.199219,0.359375,-1.08,-0.15,0.0872657,0.0526939,1.9603e-19,0,0,0,0,0,0,0,0,0,1.5,0.00361431
7730,-0.636719,0.0410156,6.98047,-0.132531,0.00472869,-0.000453056,0.081191,0.00217423,-1.19535,0,0,0,-0.0820632,-0.000914439,0.09856,0.0573904,-1.19535,0,0,0,0,0,0,0,0,0,0,0.320862,-0.315839,0,-1.5,1.83875e-38,0,0,0,-0.0820632,-0.000914439,0.199219,0.359375,-1.08,-0.15,0.09856,0.0573904,1.9603e-19,0,0,0,0,0,0,0,0,0,1.5,0.00182888
7747,-0.570312,0.0888672,5.83496,-0.0968134,0.00491784,-0.000523992,0.0797766,0.00224876,-1.19537,0,0,0,-0.0802592,0.000114586,0.110172,0.0622198,-1.19537,0,0,0,0,0,0,0,0,0,0,0.317533,-0.316371,0,-1.5,1.83875e-38,0,0,0,-0.0802592,0.000114586,0.199219,0.359375,-1.08,-0.15,0.110172,0.0622198,1.9603e-19,0,0,0,0,0,0,0,0,0,1.5,-0.000229171
7762,-0.570312,0.0888672,5.83496,-0.0968134,0.00491784,-0.000523992,0.0797766,0.00224876,-1.19537,0,0,0,-0.0785094,0.00108841,0.120215,0.0664068,-1.19537,0,0,0,0,0,0,0,0,0,0,0.314635,-0.316877,0,-1.5,1.83875e-38,0,0,0,-0.0785094,0.00108841,0.199219,0.359375,-1.08,-0.15,0.120215,0.0664068,1.9603e-19,0,0,0,0,0,0,0,0,0,1.5,-0.00217682
7778,-0.53418,0.108398,2.1875,-0.0623427,0.0130186,-0.00151243,0.0778163,0.00249817,-1.1954,0,0,0,-0.0764746,0.00219744,0.130741,0.0708137,-1.1954,0,0,0,0,0,0,0,0,0,0,0.311583,-0.317444,0,-1.5,1.83875e-38,0,0,0,-0.0764746,0.00219744,0.199219,0.359375,-1.08,-0.15,0.130741,0.0708137,1.9603e-19,0,0,0,0,0,0,0,0,0,1.5,-0.00439489
7794,-0.65332,0.108398,6.49805,-0.0751933,0.011688,-0.00401225,0.0757421,0.00278471,-1.19548,0,0,0,-0.0742748,0.00337596,0.141004,0.075141,-1.1954,0,0,0,0,0,0,0,0,0,0,0.308583,-0.318058,0,-1.5,1.83875e-38,0,0,0,-0.0742748,0.00337596,0.199219,0.359375,-1.08,-0.15,0.141004,0.075141,1.9603e-19,0,0,0,0,0,0,0,0,0,1.5,-0.00675192
7811,-0.62207,0.0742188,-0.932617,-0.0450118,0.0136926,-0.00339417,0.0750384,0.00291072,-1.19553,0,0,0,-0.0717595,0.00470338,0.151649,0.0796605,-1.19548,0,0,0,0,0,0,0,0,0,0,0.305461,-0.318728,0,-1.5,1.83875e-38,0,0,0,-0.0717595,0.00470338,0.199219,0.359375,-1.08,-0.15,0.151649,0.0796605,1.9603e-19,0,0,0,0,0,0,0,0,0,1.5,-0.00940676
7826,-0.62207,0.0742188,-0.932617,-0.0450118,0.0136926,-0.00339417,0.0750384,0.00291072,-1.19553,0,0,0,-0.0693969,0.00593606,0.160728,0.0835633,-1.19553,0,0,0,0,0,0,0,0,0,0,0.302773,-0.319361,0,-1.5,1.83875e-38,0,0,0,-0.0693969,0.00593606,0.199219,0.359375,-1.08,-0.15,0.160728,0.0835633,1.9603e-19,0,0,0,0,0,0,0,0,0,1.5,-0.0118721
7842,-0.775391,0.0234375,7.05176,-0.162648,0.0242868,-0.00134105,0.0717914,0.00348373,-1.19557,0,0,0,-0.0667245,0.00731647,0.17022,0.0876719,-1.19557,0,0,0,0,0,0,0,0,0,0,0.299941,-0.320077,0,-1.5,1.83875e-38,0,0,0,-0.0667245,0.00731647,0.199219,0.359375,-1.08,-0.15,0.17022,0.0876719,1.9603e-19,0,0,0,0,0,0,0,0,0,1.5,-0.0146329
7859,-0.775391,0.0234375,7.05176,-0.162648,0.0242868,-0.00134105,0.0717914,0.00348373,-1.19557,0,0,0,-0.0639059,0.0087613,0.179264,0.0916733,-1.19557,0,0,0,0,0,0,0,0,0,0,0.297206,-0.320852,0,-1.5,1.83875e-38,0,0,0,-0.0639059,0.0087613,0.199219,0.359375,-1.08,-0.15,0.179264,0.0916733,1.9603e-19,0,0,0,0,0,0,0,0,0,1.5,-0.0175226
7874,-0.71582,0.0263672,-5.90723,-0.328196,0.0210442,0.000674354,0.0643319,0.00393863,-1.19552,0,0,0,-0.0609449,0.0102693,0.187825,0.0955099,-1.19552,0,0,0,0,0,0,0,0,0,0,0.294581,-0.321674,0,-1.5,1.83875e-38,0,0,0,-0.0609449,0.0102693,0.199219,0.359375,-1.08,-0.15,0.187825,0.0955099,1.9603e-19,0,0,0,0,0,0,0,0,0,1.5,-0.0205386
7890,-0.583008,0.0263672,7.01758,-0.505001,0.0264016,0.00466674,0.0519091,0.00455359,-1.19537,0,0,0,-0.0578576,0.0118351,0.195627,0.0990927,-1.19552,0,0,0,0,0,0,0,0,0,0,0.292151,-0.322521,0,-1.5,1.83875e-38,0,0,0,-0.0578576,0.0118351,0.199219,0.359375,-1.08,-0.15,0.195627,0.0990927,1.9603e-19,0,0,0,0,0,0,0,0,0,1.5,-0.0236703
7906,-0.516602,0.0263672,5.81836,-0.595132,0.0282153,0.00850739,0.0440702,0.00488785,-1.19525,0,0,0,-0.0546508,0.0134565,0.202448,0.102338,-1.19537,0,0,0,0,0,0,0,0,0,0,0.289946,-0.323451,0,-1.5,1.83875e-38,0,0,0,-0.0546508,0.0134565,0.199219,0.359375,-1.08,-0.15,0.202448,0.102338,1.9603e-19,0,0,0,0,0,0,0,0,0,1.5,-0.0269129
7922,-0.44043,0.0263672,7.26367,-0.667699,0.0378488,0.00997763,0.0348861,0.00540244,-1.19509,0,0,0,-0.0513642,0.0151193,0.206962,0.10479,-1.19509,0,0,0,0,0,0,0,0,0,0,0.288326,-0.324459,0,-1.5,1.83875e-38,0,0,0,-0.0513642,0.0151193,0.199219,0.359375,-1.08,-0.15,0.206962,0.10479,1.9603e-19,0,0,0,0,0,0,0,0,0,1.5,-0.0302387
7939,-0.307617,0.0263672,2.13086,-0.705368,0.0354766,0.00854876,0.0254209,0.00585284,-1.19496,0,0,0,-0.047809,0.016924,0.210012,0.106806,-1.19496,0,0,0,0,0,0,0,0,0,0,0.287081,-0.325525,0,-1.5,1.83875e-38,0,0,0,-0.047809,0.016924,0.199219,0.359375,-1.08,-0.15,0.210012,0.106806,1.9603e-19,0,0,0,0,0,0,0,0,0,1.5,-0.0338481
7954,-0.174805,0.00195312,2.46875,-0.732923,0.0223828,0.0107608,0.0152454,0.00611371,-1.19482,0,0,0,-0.0446447,0.018539,0.211191,0.108051,-1.19482,0,0,0,0,0,0,0,0,0,0,0.286374,-0.326499,0,-1.5,1.83875e-38,0,0,0,-0.0446447,0.018539,0.199219,0.359375,-1.08,-0.15,0.211191,0.108051,1.9603e-19,0,0,0,0,0,0,0,0,0,1.5,-0.0370779
7970,-0.0419922,0,6.41113,-0.773888,0.0156786,0.0109086,0.00451288,0.00637717,-1.19468,0,0,0,-0.0412643,0.0202773,0.21095,0.108824,-1.19468,0,0,0,0,0,0,0,0,0,0,0.286018,-0.32755,0,-1.5,1.83875e-38,0,0,0,-0.0412643,0.0202773,0.199219,0.359375,-1.08,-0.15,0.21095,0.108824,1.9603e-19,0,0,0,0,0,0,0,0,0,1.5,-0.0405546
7987,0.0253906,0,-5.28418,-0.772556,0.0324084,0.0104212,-0.0169868,0.00708737,-1.19436,0,0,0,-0.0376957,0.0221309,0.208962,0.109012,-1.19451,0,0,0,0,0,0,0,0,0,0,0.286097,-0.328686,0,-1.5,1.83875e-38,0,0,0,-0.0376957,0.0221309,0.199219,0.359375,-1.08,-0.15,0.208962,0.109012,1.9603e-19,0,0,0,0,0,0,0,0,0,1.5,-0.0442619
8003,0.0371094,0,7.02539,-0.756055,0.0205512,0.0106937,-0.0272275,0.007375,-1.19423,0,0,0,-0.0343858,0.0238717,0.20528,0.108536,-1.19436,0,0,0,0,0,0,0,0,0,0,0.286654,-0.329765,0,-1.5,1.83875e-38,0,0,0,-0.0343858,0.0238717,0.199219,0.359375,-1.08,-0.15,0.20528,0.108536,1.9603e-19,0,0,0,0,0,0,0,0,0,1.5,-0.0477435
8019,0.455078,-0.234375,7.01367,-0.55669,-0.119965,0.00199681,-0.0362063,0.00646431,-1.19411,0,0,0,-0.031164,0.0255944,0.199101,0.1071,-1.19411,0,0,0,0,0,0,0,0,0,0,0.287866,-0.330874,0,-1.5,1.83875e-38,0,0,0,-0.031164,0.0255944,0.199219,0.359375,-1.08,-0.15,0.199101,0.1071,1.9603e-19,0,0,0,0,0,0,0,0,0,1.5,-0.0511889
8035,1.03516,0.139648,-5.83887,-0.0805573,-0.0398521,-0.000475994,-0.0387813,0.00592437,-1.19408,0,0,0,-0.0280533,0.0272876,0.191897,0.105101,-1.19408,0,0,0,0,0,0,0,0,0,0,0.289409,-0.331867,0,-1.5,1.83875e-38,0,0,0,-0.0280533,0.0272876,0.199219,0.359375,-1.08,-0.15,0.191897,0.105101,1.9603e-19,0,0,0,0,0,0,0,0,0,1.5,-0.0545752
8052,1.11621,0.147461,-0.0078125,0.407386,0.0699381,-0.0094695,-0.0344607,0.00681448,-1.19423,0,0,0,-0.0250595,0.0289474,0.184747,0.103117,-1.19423,0,0,0,0,0,0,0,0,0,0,0.290972,-0.332791,0,-1.5,1.83875e-38,0,0,0,-0.0250595,0.0289474,0.199219,0.359375,-1.08,-0.15,0.184747,0.103117,1.9603e-19,0,0,0,0,0,0,0,0,0,1.5,-0.0578948
8068,0.556641,-0.235352,6.91797,0.615799,-0.0491496,-0.0113879,-0.0257998,0.00720102,-1.19437,0,0,0,-0.0219951,0.0306813,0.178132,0.10152,-1.19437,0,0,0,0,0,0,0,0,0,0,0.29236,-0.333793,0,-1.5,1.83875e-38,0,0,0,-0.0219951,0.0306813,0.199219,0.359375,-1.08,-0.15,0.178132,0.10152,1.9603e-19,0,0,0,0,0,0,0,0,0,1.5,-0.0613626
8084,0.0117188,0.103516,7.28027,0.644203,-0.00366867,-0.016214,-0.00823417,0.00659037,-1.19485,0,0,0,-0.0191987,0.0322945,0.173153,0.100538,-1.1946,0,0,0,0,0,0,0,0,0,0,0.293349,-0.334704,0,-1.5,1.83875e-38,0,0,0,-0.0191987,0.0322945,0.199219,0.359375,-1.08,-0.15,0.173153,0.100538,1.9603e-19,0,0,0,0,0,0,0,0,0,1.5,-0.0645889
8100,-0.00292969,-0.00488281,2.16211,0.640069,-0.0365126,-0.0162954,0.000772406,0.00618437,-1.19506,0,0,0,-0.0164664,0.0338976,0.169747,0.100111,-1.19485,0,0,0,0,0,0,0,0,0,0,0.293926,-0.33559,0,-1.5,1.83875e-38,0,0,0,-0.0164664,0.0338976,0.199219,0.359375,-1.08,-0.15,0.169747,0.100111,1.9603e-19,0,0,0,0,0,0,0,0,0,1.5,-0.0677952
8116,0,0.0136719,2.4707,0.610795,-0.0162356,-0.0164273,0.00912646,0.0060717,-1.19528,0,0,0,-0.0137655,0.0355019,0.168439,0.100395,-1.19528,0,0,0,0,0,0,0,0,0,0,0.293978,-0.336398,0,-1.5,1.83875e-38,0,0,0,-0.0137655,0.0355019,0.199219,0.359375,-1.08,-0.15,0.168439,0.100395,1.9603e-19,0,0,0,0,0,0,0,0,0,1.5,-0.0710037
8132,-0.0136719,0.0488281,6.46875,0.559272,-0.0113212,-0.0152415,0.0170828,0.00581675,-1.19549,0,0,0,-0.0110719,0.0371155,0.168504,0.101188,-1.19549,0,0,0,0,0,0,0,0,0,0,0.293629,-0.337265,0,-1.5,1.83875e-38,0,0,0,-0.0110719,0.0371155,0.199219,0.359375,-1.08,-0.15,0.168504,0.101188,1.9603e-19,0,0,0,0,0,0,0,0,0,1.5,-0.074231
8149,-0.046875,0,-0.96875,0.51984,-0.0186154,-0.0145618,0.0244326,0.00549644,-1.19569,0,0,0,-0.00819434,0.0388496,0.169916,0.102498,-1.19569,0,0,0,0,0,0,0,0,0,0,0.292895,-0.338188,0,-1.5,1.83875e-38,0,0,0,-0.00819434,0.0388496,0.199219,0.359375,-1.08,-0.15,0.169916,0.102498,1.9603e-19,0,0,0,0,0,0,0,0,0,1.5,-0.0776992
8164,-0.117188,0,-5.3916,0.485541,-0.027239,-0.0137483,0.0310833,0.00519015,-1.19587,0,0,0,-0.00562574,0.0404009,0.172185,0.104,-1.19587,0,0,0,0,0,0,0,0,0,0,0.291975,-0.339,0,-1.5,1.83875e-38,0,0,0,-0.00562574,0.0404009,0.199219,0.359375,-1.08,-0.15,0.172185,0.104,1.9603e-19,0,0,0,0,0,0,0,0,0,1.5,-0.0808017
8181,-0.382812,0,7.11426,0.349508,-0.0191046,-0.010121,0.0421334,0.00453951,-1.19619,0,0,0,-0.00283791,0.0420842,0.175523,0.105905,-1.19605,0,0,0,0,0,0,0,0,0,0,0.290746,-0.339867,0,-1.5,1.83875e-38,0,0,0,-0.00283791,0.0420842,0.199219,0.359375,-1.08,-0.15,0.175523,0.105905,1.9603e-19,0,0,0,0,0,0,0,0,0,1.5,-0.0841683
8197,-0.515625,0,-5.89551,0.257916,-0.0129527,-0.00860489,0.0459855,0.00433086,-1.19632,0,0,0,0.000193797,0.0439096,0.180065,0.108247,-1.19619,0,0,0,0,0,0,0,0,0,0,0.289165,-0.340805,0,-1.5,1.83875e-38,0,0,0,0.000193797,0.0439096,0.199219,0.359375,-1.08,-0.15,0.180065,0.108247,1.9603e-19,0,0,0,0,0,0,0,0,0,1.5,-0.0878193
8213,-0.583984,0,-0.110352,0.15121,-0.00640066,-0.00589709,0.0483759,0.00420921,-1.19641,0,0,0,0.0029417,0.0455559,0.184949,0.110595,-1.19641,0,0,0,0,0,0,0,0,0,0,0.28755,-0.341606,0,-1.5,1.83875e-38,0,0,0,0.0029417,0.0455559,0.199219,0.359375,-1.08,-0.15,0.184949,0.110595,1.9603e-19,0,0,0,0,0,0,0,0,0,1.5,-0.0911119
8229,-0.566406,0,6.9707,0.0460153,-0.00150761,-0.00428228,0.0492321,0.00415065,-1.19649,0,0,0,0.00595862,0.0473527,0.190464,0.113196,-1.19649,0,0,0,0,0,0,0,0,0,0,0.285712,-0.342523,0,-1.5,1.83875e-38,0,0,0,0.00595862,0.0473527,0.199219,0.359375,-1.08,-0.15,0.190464,0.113196,1.9603e-19,0,0,0,0,0,0,0,0,0,1.5,-0.0947055
8245,-0.533203,0,5.78027,-0.062714,0.00218606,-0.00161318,0.0483398,0.00415039,-1.19653,0,0,0,0.00926143,0.0493075,0.196325,0.115948,-1.19653,0,0,0,0,0,0,0,0,0,0,0.283747,-0.343524,0,-1.5,1.83875e-38,0,0,0,0.00926143,0.0493075,0.199219,0.359375,-1.08,-0.15,0.196325,0.115948,1.9603e-19,0,0,0,0,0,0,0,0,0,1.5,-0.0986151
8261,-0.533203,0,5.78027,-0.062714,0.00218606,-0.00161318,0.0483398,0.00415039,-1.19653,0,0,0,0.0122553,0.0510698,0.201388,0.11833,-1.19653,0,0,0,0,0,0,0,0,0,0,0.28203,-0.344435,0,-1.5,1.83875e-38,0,0,0,0.0122553,0.0510698,0.199219,0.359375,-1.08,-0.15,0.201388,0.11833,1.9603e-19,0,0,0,0,0,0,0,0,0,1.5,-0.10214
8277,-0.433594,0,2.4834,-0.329253,0.0194649,0.0025473,0.0388984,0.00459299,-1.19647,0,0,0,0.0157401,0.0531104,0.206758,0.120898,-1.19651,0,0,0,0,0,0,0,0,0,0,0.280168,-0.345498,0,-1.5,1.83875e-38,0,0,0,0.0157401,0.0531104,0.199219,0.359375,-1.08,-0.15,0.206758,0.120898,1.9603e-19,0,0,0,0,0,0,0,0,0,1.5,-0.106221
8293,-0.396484,0,6.44629,-0.386429,0.0217044,0.00442897,0.0337933,0.00484165,-1.1964,0,0,0,0.0190929,0.055067,0.210967,0.123022,-1.19647,0,0,0,0,0,0,0,0,0,0,0.27863,-0.34653,0,-1.5,1.83875e-38,0,0,0,0.0190929,0.055067,0.199219,0.359375,-1.08,-0.15,0.210967,0.123022,1.9603e-19,0,0,0,0,0,0,0,0,0,1.5,-0.110134
8309,-0.330078,0,-1.04102,-0.42783,0.0223887,0.00403856,0.0278991,0.00513375,-1.19633,0,0,0,0.0222856,0.0569282,0.213795,0.124633,-1.19633,0,0,0,0,0,0,0,0,0,0,0.277461,-0.34755,0,-1.5,1.83875e-38,0,0,0,0.0222856,0.0569282,0.199219,0.359375,-1.08,-0.15,0.213795,0.124633,1.9603e-19,0,0,0,0,0,0,0,0,0,1.5,-0.113856
8324,-0.330078,0,-1.04102,-0.42783,0.0223887,0.00403856,0.0278991,0.00513375,-1.19633,0,0,0,0.0257298,0.0589376,0.216031,0.126084,-1.19633,0,0,0,0,0,0,0,0,0,0,0.276441,-0.348618,0,-1.5,1.83875e-38,0,0,0,0.0257298,0.0589376,0.199219,0.359375,-1.08,-0.15,0.216031,0.126084,1.9603e-19,0,0,0,0,0,0,0,0,0,1.5,-0.117875
8340,-0.197266,0,7.04883,-0.481448,0.0152459,0.00493009,0.0152154,0.00551094,-1.19619,0,0,0,0.0292076,0.0609691,0.217783,0.127356,-1.19619,0,0,0,0,0,0,0,0,0,0,0.275519,-0.34974,0,-1.5,1.83875e-38,0,0,0,0.0292076,0.0609691,0.199219,0.359375,-1.08,-0.15,0.217783,0.127356,1.9603e-19,0,0,0,0,0,0,0,0,0,1.5,-0.121938
8357,-0.197266,0,7.04883,-0.481448,0.0152459,0.00493009,0.0152154,0.00551094,-1.19619,0,0,0,0.0329139,0.0631434,0.218141,0.128164,-1.19619,0,0,0,0,0,0,0,0,0,0,0.274964,-0.350907,0,-1.5,1.83875e-38,0,0,0,0.0329139,0.0631434,0.199219,0.359375,-1.08,-0.15,0.218141,0.128164,1.9603e-19,0,0,0,0,0,0,0,0,0,1.5,-0.126287
8372,-0.046875,0,-5.95801,-0.556566,0.0158085,0.00737932,0.000532352,0.00583171,-1.196,0,0,0,0.0361858,0.0650715,0.217644,0.128573,-1.196,0,0,0,0,0,0,0,0,0,0,0.274656,-0.351996,0,-1.5,1.83875e-38,0,0,0,0.0361858,0.0650715,0.199219,0.359375,-1.08,-0.15,0.217644,0.128573,1.9603e-19,0,0,0,0,0,0,0,0,0,1.5,-0.130143
8388,0,0,6.95215,-0.543625,0.0219811,0.00837509,-0.0149982,0.00635397,-1.19581,0,0,0,0.0396473,0.0671275,0.215388,0.128373,-1.19592,0,0,0,0,0,0,0,0,0,0,0.274809,-0.353134,0,-1.5,1.83875e-38,0,0,0,0.0396473,0.0671275,0.199219,0.359375,-1.08,-0.15,0.215388,0.128373,1.9603e-19,0,0,0,0,0,0,0,0,0,1.5,-0.134255
8405,0.00488281,0,5.75293,-0.527645,0.0171866,0.00728589,-0.0221541,0.00655264,-1.19573,0,0,0,0.0430595,0.0691757,0.211856,0.127717,-1.19581,0,0,0,0,0,0,0,0,0,0,0.275297,-0.354287,0,-1.5,1.83875e-38,0,0,0,0.0430595,0.0691757,0.199219,0.359375,-1.08,-0.15,0.211856,0.127717,1.9603e-19,0,0,0,0,0,0,0,0,0,1.5,-0.138351
8421,0.00488281,0,5.75293,-0.527645,0.0171866,0.00728589,-0.0221541,0.00655264,-1.19573,0,0,0,0.046601,0.0713325,0.206412,0.126407,-1.19573,0,0,0,0,0,0,0,0,0,0,0.276273,-0.355507,0,-1.5,1.83875e-38,0,0,0,0.046601,0.0713325,0.199219,0.359375,-1.08,-0.15,0.206412,0.126407,1.9603e-19,0,0,0,0,0,0,0,0,0,1.5,-0.142665
8438,0.4375,-0.0820312,2.09668,-0.340547,-0.0739379,-0.00107541,-0.0348042,0.00610631,-1.19562,0,0,0,0.0498474,0.0733409,0.200643,0.124886,-1.19562,0,0,0,0,0,0,0,0,0,0,0.277366,-0.356648,0,-1.5,1.83875e-38,0,0,0,0.0498474,0.0733409,0.199219,0.359375,-1.08,-0.15,0.200643,0.124886,1.9603e-19,0,0,0,0,0,0,0,0,0,1.5,-0.146682
8454,0.979492,0.150391,2.53027,0.113183,0.00886369,-0.0051341,-0.0345751,0.00610237,-1.19566,0,0,0,0.0531755,0.0754398,0.193364,0.122761,-1.19566,0,0,0,0,0,0,0,0,0,0,0.278877,-0.357784,0,-1.5,1.83875e-38,0,0,0,0.0531755,0.0754398,0.199219,0.359375,-1.08,-0.15,0.193364,0.122761,1.9603e-19,0,0,0,0,0,0,0,0,0,1.5,-0.15088
8470,0.679688,-0.0380859,6.43359,0.387647,0.00445796,-0.00313831,-0.0293396,0.00672316,-1.19575,0,0,0,0.0562017,0.0773846,0.186907,0.120956,-1.19575,0,0,0,0,0,0,0,0,0,0,0.280205,-0.358836,0,-1.5,1.83875e-38,0,0,0,0.0562017,0.0773846,0.199219,0.359375,-1.08,-0.15,0.186907,0.120956,1.9603e-19,0,0,0,0,0,0,0,0,0,1.5,-0.154769
8486,0.0361328,0.0136719,-5.35254,0.42964,-0.012682,-0.0124004,-0.0176582,0.00617307,-1.19611,0,0,0,0.0591303,0.0793038,0.181219,0.119496,-1.19593,0,0,0,0,0,0,0,0,0,0,0.281344,-0.359859,0,-1.5,1.83875e-38,0,0,0,0.0591303,0.0793038,0.199219,0.359375,-1.08,-0.15,0.181219,0.119496,1.9603e-19,0,0,0,0,0,0,0,0,0,1.5,-0.158608
8502,0.00195312,0.00195312,7.04004,0.436706,-0.0260595,-0.0126008,-0.0117792,0.0059377,-1.19626,0,0,0,0.0619856,0.0812056,0.1771,0.118563,-1.19626,0,0,0,0,0,0,0,0,0,0,0.282101,-0.360811,0,-1.5,1.83875e-38,0,0,0,0.0619856,0.0812056,0.199219,0.359375,-1.08,-0.15,0.1771,0.118563,1.9603e-19,0,0,0,0,0,0,0,0,0,1.5,-0.162411
8519,0,0.0263672,7.06738,0.446406,-0.014052,-0.01217,-0.005549,0.00576042,-1.19642,0,0,0,0.0647849,0.0830959,0.174001,0.117985,-1.19642,0,0,0,0,0,0,0,0,0,0,0.282558,-0.361795,0,-1.5,1.83875e-38,0,0,0,0.0647849,0.0830959,0.199219,0.359375,-1.08,-0.15,0.174001,0.117985,1.9603e-19,0,0,0,0,0,0,0,0,0,1.5,-0.166192
8534,0,0,-5.92773,0.44029,-0.0117349,-0.0115977,0.000650664,0.0055164,-1.19658,0,0,0,0.0675452,0.0849807,0.171958,0.117779,-1.19658,0,0,0,0,0,0,0,0,0,0,0.282738,-0.362765,0,-1.5,1.83875e-38,0,0,0,0.0675452,0.0849807,0.199219,0.359375,-1.08,-0.15,0.171958,0.117779,1.9603e-19,0,0,0,0,0,0,0,0,0,1.5,-0.169961
8550,0,0,-0.15332,0.410229,-0.00979224,-0.0119744,0.00626407,0.00530146,-1.19674,0,0,0,0.0702825,0.0868656,0.170814,0.117883,-1.19674,0,0,0,0,0,0,0,0,0,0,0.282681,-0.363725,0,-1.5,1.83875e-38,0,0,0,0.0702825,0.0868656,0.199219,0.359375,-1.08,-0.15,0.170814,0.117883,1.9603e-19,0,0,0,0,0,0,0,0,0,1.5,-0.173731
8567,0,0,5.79102,0.305461,-0.00807849,-0.00904646,0.0158576,0.00502635,-1.19703,0,0,0,0.0731802,0.0888733,0.170446,0.118289,-1.1969,0,0,0,0,0,0,0,0,0,0,0.282392,-0.364744,0,-1.5,1.83875e-38,0,0,0,0.0731802,0.0888733,0.199219,0.359375,-1.08,-0.15,0.170446,0.118289,1.9603e-19,0,0,0,0,0,0,0,0,0,1.5,-0.177747
8583,-0.0419922,0,7.28027,0.26037,-0.0069977,-0.00979253,0.0194741,0.00487102,-1.19715,0,0,0,0.0757399,0.0906533,0.170912,0.118927,-1.19703,0,0,0,0,0,0,0,0,0,0,0.281925,-0.365642,0,-1.5,1.83875e-38,0,0,0,0.0757399,0.0906533,0.199219,0.359375,-1.08,-0.15,0.170912,0.118927,1.9603e-19,0,0,0,0,0,0,0,0,0,1.5,-0.181307
8598,-0.108398,0,2.12305,0.225446,-0.0100445,-0.00869213,0.0226943,0.00472291,-1.19727,0,0,0,0.0784885,0.0925663,0.172245,0.119896,-1.19715,0,0,0,0,0,0,0,0,0,0,0.281201,-0.366602,0,-1.5,1.83875e-38,0,0,0,0.0784885,0.0925663,0.199219,0.359375,-1.08,-0.15,0.172245,0.119896,1.9603e-19,0,0,0,0,0,0,0,0,0,1.5,-0.185133
8615,-0.174805,0,2.47168,0.198589,-0.00636619,-0.00702703,0.0254295,0.00462353,-1.19737,0,0,0,0.0814381,0.0946178,0.17426,0.121126,-1.19737,0,0,0,0,0,0,0,0,0,0,0.280287,-0.367599,0,-1.5,1.83875e-38,0,0,0,0.0814381,0.0946178,0.199219,0.359375,-1.08,-0.15,0.17426,0.121126,1.9603e-19,0,0,0,0,0,0,0,0,0,1.5,-0.189236
8631,-0.208008,0,6.45508,0.164272,-0.00613746,-0.00677043,0.0278254,0.00450298,-1.19746,0,0,0,0.0842493,0.0965689,0.176608,0.122434,-1.19746,0,0,0,0,0,0,0,0,0,0,0.279284,-0.368571,0,-1.5,1.83875e-38,0,0,0,0.0842493,0.0965689,0.199219,0.359375,-1.08,-0.15,0.176608,0.122434,1.9603e-19,0,0,0,0,0,0,0,0,0,1.5,-0.193138
8647,-0.241211,0,-0.946289,0.120118,-0.0053785,-0.00611228,0.0296235,0.00438872,-1.19755,0,0,0,0.0871014,0.0985419,0.179256,0.123838,-1.19755,0,0,0,0,0,0,0,0,0,0,0.278196,-0.369551,0,-1.5,1.83875e-38,0,0,0,0.0871014,0.0985419,0.199219,0.359375,-1.08,-0.15,0.179256,0.123838,1.9603e-19,0,0,0,0,0,0,0,0,0,1.5,-0.197084
8663,-0.241211,0,-0.946289,0.120118,-0.0053785,-0.00611228,0.0296235,0.00438872,-1.19755,0,0,0,0.0899979,0.100538,0.182037,0.12528,-1.19755,0,0,0,0,0,0,0,0,0,0,0.277053,-0.370563,0,-1.5,1.83875e-38,0,0,0,0.0899979,0.100538,0.199219,0.359375,-1.08,-0.15,0.182037,0.12528,1.9603e-19,0,0,0,0,0,0,0,0,0,1.5,-0.201076
8679,-0.34082,0,7.10254,-0.0277052,0.00266354,-0.00357762,0.0307617,0.00415039,-1.19775,0,0,0,0.0929391,0.102557,0.184896,0.126743,-1.19768,0,0,0,0,0,0,0,0,0,0,0.275913,-0.371545,0,-1.5,1.83875e-38,0,0,0,0.0929391,0.102557,0.199219,0.359375,-1.08,-0.15,0.184896,0.126743,1.9603e-19,0,0,0,0,0,0,0,0,0,1.5,-0.205115
8695,-0.314453,0,-5.91797,-0.074763,0.00310737,-0.002764,0.0299428,0.00429363,-1.19776,0,0,0,0.0959275,0.1046,0.187836,0.128211,-1.19775,0,0,0,0,0,0,0,0,0,0,0.274737,-0.37255,0,-1.5,1.83875e-38,0,0,0,0.0959275,0.1046,0.199219,0.359375,-1.08,-0.15,0.187836,0.128211,1.9603e-19,0,0,0,0,0,0,0,0,0,1.5,-0.209201
8711,-0.248047,0,-0.12207,-0.119199,0.00470603,-0.000944637,0.0283701,0.00434236,-1.19777,0,0,0,0.0989619,0.106666,0.19055,0.129605,-1.19777,0,0,0,0,0,0,0,0,0,0,0.273605,-0.373585,0,-1.5,1.83875e-38,0,0,0,0.0989619,0.106666,0.199219,0.359375,-1.08,-0.15,0.19055,0.129605,1.9603e-19,0,0,0,0,0,0,0,0,0,1.5,-0.213333
8727,-0.248047,0,-0.12207,-0.119199,0.00470603,-0.000944637,0.0283701,0.00434236,-1.19777,0,0,0,0.102036,0.108754,0.19307,0.130926,-1.19777,0,0,0,0,0,0,0,0,0,0,0.272518,-0.374635,0,-1.5,1.83875e-38,0,0,0,0.102036,0.108754,0.199219,0.359375,-1.08,-0.15,0.19307,0.130926,1.9603e-19,0,0,0,0,0,0,0,0,0,1.5,-0.217507
8743,-0.115234,0,5.75293,-0.174561,0.00672997,-0.000724061,0.0239628,0.00445545,-1.19781,0,0,0,0.104954,0.110729,0.195173,0.132068,-1.19781,0,0,0,0,0,0,0,0,0,0,0.271572,-0.375618,0,-1.5,1.83875e-38,0,0,0,0.104954,0.110729,0.199219,0.359375,-1.08,-0.15,0.195173,0.132068,1.9603e-19,0,0,0,0,0,0,0,0,0,1.5,-0.221458
8758,-0.115234,0,5.75293,-0.174561,0.00672997,-0.000724061,0.0239628,0.00445545,-1.19781,0,0,0,0.108096,0.112853,0.197011,0.133136,-1.19781,0,0,0,0,0,0,0,0,0,0,0.27066,-0.376688,0,-1.5,1.83875e-38,0,0,0,0.108096,0.112853,0.199219,0.359375,-1.08,-0.15,0.197011,0.133136,1.9603e-19,0,0,0,0,0,0,0,0,0,1.5,-0.225707
8775,-0.03125,0,2.48438,-0.26297,0.00808807,0.000876426,0.0146993,0.00466906,-1.19778,0,0,0,0.111466,0.115129,0.198635,0.134148,-1.1978,0,0,0,0,0,0,0,0,0,0,0.269773,-0.377838,0,-1.5,1.83875e-38,0,0,0,0.111466,0.115129,0.199219,0.359375,-1.08,-0.15,0.198635,0.134148,1.9603e-19,0,0,0,0,0,0,0,0,0,1.5,-0.230258
8791,-0.03125,0,6.50195,-0.308098,0.00997625,0.00302371,0.0106567,0.00475407,-1.19775,0,0,0,0.114653,0.117282,0.199315,0.134786,-1.19778,0,0,0,0,0,0,0,0,0,0,0.26916,-0.378932,0,-1.5,1.83875e-38,0,0,0,0.114653,0.117282,0.199219,0.359375,-1.08,-0.15,0.199315,0.134786,1.9603e-19,0,0,0,0,0,0,0,0,0,1.5,-0.234565
8806,-0.03125,0,-1.0166,-0.351632,0.00582775,0.00285933,0.00584305,0.00482629,-1.1977,0,0,0,0.117641,0.119307,0.199087,0.135066,-1.1977,0,0,0,0,0,0,0,0,0,0,0.268803,-0.379983,0,-1.5,1.83875e-38,0,0,0,0.117641,0.119307,0.199219,0.359375,-1.08,-0.15,0.199087,0.135066,1.9603e-19,0,0,0,0,0,0,0,0,0,1.5,-0.238614
8823,-0.03125,0,-1.0166,-0.351632,0.00582775,0.00285933,0.00584305,0.00482629,-1.1977,0,0,0,0.121015,0.121604,0.19818,0.135137,-1.1977,0,0,0,0,0,0,0,0,0,0,0.268588,-0.381151,0,-1.5,1.83875e-38,0,0,0,0.121015,0.121604,0.199219,0.359375,-1.08,-0.15,0.19818,0.135137,1.9603e-19,0,0,0,0,0,0,0,0,0,1.5,-0.243208
8839,0,0,7.02148,-0.392416,0.0128537,0.00294513,-0.00476811,0.00509922,-1.1976,0,0,0,0.124174,0.123766,0.196649,0.134955,-1.1976,0,0,0,0,0,0,0,0,0,0,0.268547,-0.382282,0,-1.5,1.83875e-38,0,0,0,0.124174,0.123766,0.199219,0.359375,-1.08,-0.15,0.196649,0.134955,1.9603e-19,0,0,0,0,0,0,0,0,0,1.5,-0.247532
8855,0,0,7.07617,-0.379026,0.0118834,0.00429775,-0.0101229,0.0052476,-1.19755,0,0,0,0.127294,0.125919,0.193954,0.134351,-1.19755,0,0,0,0,0,0,0,0,0,0,0.268826,-0.383404,0,-1.5,1.83875e-38,0,0,0,0.127294,0.125919,0.199219,0.359375,-1.08,-0.15,0.193954,0.134351,1.9603e-19,0,0,0,0,0,0,0,0,0,1.5,-0.251839
8871,0,0,-0.105469,-0.344345,0.0114628,0.00210032,-0.0199079,0.00554351,-1.19748,0,0,0,0.130363,0.12806,0.190512,0.133476,-1.19751,0,0,0,0,0,0,0,0,0,0,0.269308,-0.384521,0,-1.5,1.83875e-38,0,0,0,0.130363,0.12806,0.199219,0.359375,-1.08,-0.15,0.190512,0.133476,1.9603e-19,0,0,0,0,0,0,0,0,0,1.5,-0.256121
8887,0.0205078,0,6.96387,-0.326484,0.00972412,0.00261545,-0.0245295,0.00566432,-1.19745,0,0,0,0.133369,0.130185,0.186282,0.132318,-1.19748,0,0,0,0,0,0,0,0,0,0,0.270005,-0.385633,0,-1.5,1.83875e-38,0,0,0,0.133369,0.130185,0.199219,0.359375,-1.08,-0.15,0.186282,0.132318,1.9603e-19,0,0,0,0,0,0,0,0,0,1.5,-0.260369
8905,0.0869141,0,5.75977,-0.305379,0.0110499,0.00210534,-0.0287027,0.00578346,-1.19743,0,0,0,0.136472,0.132415,0.180563,0.130642,-1.19743,0,0,0,0,0,0,0,0,0,0,0.271071,-0.386818,0,-1.5,1.83875e-38,0,0,0,0.136472,0.132415,0.199219,0.359375,-1.08,-0.15,0.180563,0.130642,1.9603e-19,0,0,0,0,0,0,0,0,0,1.5,-0.264831
8921,0.0869141,0,5.75977,-0.305379,0.0110499,0.00210534,-0.0287027,0.00578346,-1.19743,0,0,0,0.139474,0.134616,0.174389,0.128799,-1.19743,0,0,0,0,0,0,0,0,0,0,0.272275,-0.387977,0,-1.5,1.83875e-38,0,0,0,0.139474,0.134616,0.199219,0.359375,-1.08,-0.15,0.174389,0.128799,1.9603e-19,0,0,0,0,0,0,0,0,0,1.5,-0.269232
8937,0.605469,0.152344,2.10742,-0.0236289,0.00726068,-0.00434967,-0.0337234,0.00553679,-1.19746,0,0,0,0.142203,0.136659,0.168307,0.126937,-1.19746,0,0,0,0,0,0,0,0,0,0,0.273494,-0.389041,0,-1.5,1.83875e-38,0,0,0,0.142203,0.136659,0.199219,0.359375,-1.08,-0.15,0.168307,0.126937,1.9603e-19,0,0,0,0,0,0,0,0,0,1.5,-0.273317
8953,0.526367,0.0546875,2.44824,0.197943,0.0287124,-0.0044615,-0.0311088,0.00590079,-1.19754,0,0,0,0.144831,0.138669,0.162024,0.124996,-1.19754,0,0,0,0,0,0,0,0,0,0,0.274784,-0.390077,0,-1.5,1.83875e-38,0,0,0,0.144831,0.138669,0.199219,0.359375,-1.08,-0.15,0.162024,0.124996,1.9603e-19,0,0,0,0,0,0,0,0,0,1.5,-0.277339
8968,0.0810547,0.00390625,-0.962891,0.253427,-0.0160324,-0.0100948,-0.0244355,0.00546534,-1.19778,0,0,0,0.147208,0.140528,0.156549,0.123352,-1.19767,0,0,0,0,0,0,0,0,0,0,0.275898,-0.391022,0,-1.5,1.83875e-38,0,0,0,0.147208,0.140528,0.199219,0.359375,-1.08,-0.15,0.156549,0.123352,1.9603e-19,0,0,0,0,0,0,0,0,0,1.5,-0.281056
8986,0,0.00585938,-5.41699,0.264534,-0.0154689,-0.0100421,-0.0207636,0.00537885,-1.19791,0,0,0,0.149804,0.142606,0.151021,0.121707,-1.19791,0,0,0,0,0,0,0,0,0,0,0.277008,-0.392044,0,-1.5,1.83875e-38,0,0,0,0.149804,0.142606,0.199219,0.359375,-1.08,-0.15,0.151021,0.121707,1.9603e-19,0,0,0,0,0,0,0,0,0,1.5,-0.285211
9000,0,0.0371094,6.97363,0.272478,-0.00637891,-0.00802875,-0.0169617,0.00526924,-1.19803,0,0,0,0.152029,0.14442,0.146948,0.120538,-1.19803,0,0,0,0,0,0,0,0,0,0,0.277759,-0.392954,0,-1.5,1.83875e-38,0,0,0,0.152029,0.14442,0.199219,0.359375,-1.08,-0.15,0.146948,0.120538,1.9603e-19,0,0,0,0,0,0,0,0,0,1.5,-0.288839
9016,0,0.0361328,7.04102,0.278232,-0.0061136,-0.00859424,-0.0132179,0.00508696,-1.19816,0,0,0,0.154342,0.146337,0.143258,0.11952,-1.19816,0,0,0,0,0,0,0,0,0,0,0.278389,-0.39391,0,-1.5,1.83875e-38,0,0,0,0.154342,0.146337,0.199219,0.359375,-1.08,-0.15,0.143258,0.11952,1.9603e-19,0,0,0,0,0,0,0,0,0,1.5,-0.292675
9032,0,0,-5.93457,0.287344,-0.0108414,-0.00980731,-0.00921825,0.0048959,-1.19829,0,0,0,0.156602,0.148241,0.140236,0.118726,-1.19829,0,0,0,0,0,0,0,0,0,0,0.27885,-0.394848,0,-1.5,1.83875e-38,0,0,0,0.156602,0.148241,0.199219,0.359375,-1.08,-0.15,0.140236,0.118726,1.9603e-19,0,0,0,0,0,0,0,0,0,1.5,-0.296482
9048,0,0,-0.131836,0.292392,-0.0108343,-0.0103889,-0.00527964,0.00475514,-1.19843,0,0,0,0.158819,0.150134,0.137824,0.118138,-1.19843,0,0,0,0,0,0,0,0,0,0,0.279149,-0.395776,0,-1.5,1.83875e-38,0,0,0,0.158819,0.150134,0.199219,0.359375,-1.08,-0.15,0.137824,0.118138,1.9603e-19,0,0,0,0,0,0,0,0,0,1.5,-0.300268
9064,0,0,5.78809,0.264431,-0.0072789,-0.00946335,0.00251492,0.00443782,-1.19868,0,0,0,0.161003,0.15202,0.136017,0.11776,-1.19855,0,0,0,0,0,0,0,0,0,0,0.279288,-0.396696,0,-1.5,1.83875e-38,0,0,0,0.161003,0.15202,0.199219,0.359375,-1.08,-0.15,0.136017,0.11776,1.9603e-19,0,0,0,0,0,0,0,0,0,1.5,-0.30404
9080,0,0,7.28906,0.22896,-0.00512766,-0.00815152,0.00569652,0.00433444,-1.1988,0,0,0,0.163166,0.153902,0.134876,0.117609,-1.19868,0,0,0,0,0,0,0,0,0,0,0.279255,-0.397604,0,-1.5,1.83875e-38,0,0,0,0.163166,0.153902,0.199219,0.359375,-1.08,-0.15,0.134876,0.117609,1.9603e-19,0,0,0,0,0,0,0,0,0,1.5,-0.307804
9097,0,0,2.11133,0.182004,-0.00487049,-0.00727053,0.00838398,0.00424407,-1.19891,0,0,0,0.16532,0.155785,0.134542,0.117739,-1.19891,0,0,0,0,0,0,0,0,0,0,0.27903,-0.398478,0,-1.5,1.83875e-38,0,0,0,0.16532,0.155785,0.199219,0.359375,-1.08,-0.15,0.134542,0.117739,1.9603e-19,0,0,0,0,0,0,0,0,0,1.5,-0.31157
