timestamp,A_x,A_y,A_z,P,Q,R,Phi,Theta,Psi,poseX,poseY,poseZ,state_X,state_Y,state_Z,state_VzB,state_Bx,state_By,state_Bz,p1_x,p1_y,p2_x,p2_y,p3_x,p3_y,p4_x,p4_y,roll,pitch,yaw,alt,targetHeading,highLevelState,lowLevelState,gateNumber,filtered_x,filtered_y,x_OT,y_OT,vx_OT,vy_OT,filtered_vx,filtered_vygateArearansac_corr_x,ransac_corr_y,ransac_corr_vx,ransac_corr_vy,detectionTimeStamppTermX,dTermX,pTermY,dTermY,vxcmd,vycmd
6132,-0.0996094,0,6.59863,-0.00225468,0.000706106,-0.00179508,0.013891,-0.0250987,-0.0877267,0,0,0,1.11678e-05,5.03404e-06,0.00207374,0.000934413,-0.0870296,0,0,0,0,0,0,0,0,0,0,0.0214508,-0.423002,0,-1.5,3.30785e-38,0,0,0,1.11678e-05,5.03404e-06,0,0,0,0,0.00207374,0.000934413,1.9603e-19,0,0,0,0,0,0,0,0,0,1,-5.53744e-06
6148,-0.0517578,0,6.60352,-0.00346267,-0.00104631,-0.00122083,0.0135114,-0.024685,-0.0893208,0,0,0,8.50115e-05,3.8083e-05,0.00615042,0.00274055,-0.0886733,0,0,0,0,0,0,0,0,0,0,0.0213102,-0.421992,0,-1.5,3.30785e-38,0,0,0,8.50115e-05,3.8083e-05,0,0,0,0,0.00615042,0.00274055,1.9603e-19,0,0,0,0,0,0,0,0,0,1,-4.18913e-05
6163,-0.146484,0,7.30078,-0.000915332,-0.00129556,-0.00312369,0.0131772,-0.0243851,-0.0909094,0,0,0,0.000211749,9.41873e-05,0.00988628,0.00435888,-0.0902953,0,0,0,0,0,0,0,0,0,0,0.0212092,-0.421065,0,-1.5,3.30785e-38,0,0,0,0.000211749,9.41873e-05,0,0,0,0,0.00988628,0.00435888,1.9603e-19,0,0,0,0,0,0,0,0,0,1,-0.000103606
6180,-0.193359,0,-1.64551,-0.00123124,-0.000959532,-0.001648,0.013,-0.0241383,-0.0922221,0,0,0,0.000440387,0.000194378,0.0142777,0.00623725,-0.0918389,0,0,0,0,0,0,0,0,0,0,0.0209941,-0.419984,0,-1.5,3.30785e-38,0,0,0,0.000440387,0.000194378,0,0,0,0,0.0142777,0.00623725,1.9603e-19,0,0,0,0,0,0,0,0,0,1,-0.000213816
6196,-0.193359,0,6.73242,-0.00146209,-0.000175402,-0.000664923,0.0130181,-0.02413,-0.0922322,0,0,0,0.000707965,0.000310784,0.0181134,0.00786578,-0.0922322,0,0,0,0,0,0,0,0,0,0,0.0205651,-0.419062,0,-1.5,3.30785e-38,0,0,0,0.000707965,0.000310784,0,0,0,0,0.0181134,0.00786578,1.9603e-19,0,0,0,0,0,0,0,0,0,1,-0.000341862
6212,-0.193359,0,2.14355,-0.00233746,-3.98474e-05,-0.00146865,0.0130092,-0.0241284,-0.0922581,0,0,0,0.00103659,0.000453146,0.0219174,0.00948368,-0.0922581,0,0,0,0,0,0,0,0,0,0,0.0200421,-0.418155,0,-1.5,3.30785e-38,0,0,0,0.00103659,0.000453146,0,0,0,0,0.0219174,0.00948368,1.9603e-19,0,0,0,0,0,0,0,0,0,1,-0.000498461
6228,-0.193359,0,2.73926,-0.000953011,-0.00101372,-0.00221789,0.0130173,-0.0241311,-0.0922856,0,0,0,0.00142577,0.000621254,0.0256911,0.0110884,-0.0922856,0,0,0,0,0,0,0,0,0,0,0.0195164,-0.417256,0,-1.5,3.30785e-38,0,0,0,0.00142577,0.000621254,0,0,0,0,0.0256911,0.0110884,1.9603e-19,0,0,0,0,0,0,0,0,0,1,-0.000683379
6244,-0.193359,0,5.68066,-0.00209989,-0.000425121,-0.00214825,0.013008,-0.0241245,-0.0923152,0,0,0,0.00184512,0.000802033,0.0292015,0.0125811,-0.0923152,0,0,0,0,0,0,0,0,0,0,0.0190216,-0.416421,0,-1.5,3.30785e-38,0,0,0,0.00184512,0.000802033,0,0,0,0,0.0292015,0.0125811,1.9603e-19,0,0,0,0,0,0,0,0,0,1,-0.000882236
6259,-0.193359,0,-6.02734,-0.00185617,-0.00107582,-0.00298199,0.0130172,-0.024125,-0.0923619,0,0,0,0.00235141,0.00101994,0.032917,0.0141609,-0.0923619,0,0,0,0,0,0,0,0,0,0,0.0184942,-0.415537,0,-1.5,3.30785e-38,0,0,0,0.00235141,0.00101994,0,0,0,0,0.032917,0.0141609,1.9603e-19,0,0,0,0,0,0,0,0,0,1,-0.00112194
6275,-0.193359,0,-1.89062,-0.00197937,-0.000514814,-0.00159931,0.0130266,-0.0241184,-0.0924132,0,0,0,0.00291685,0.00126301,0.0366029,0.0157293,-0.0923809,0,0,0,0,0,0,0,0,0,0,0.0179568,-0.414662,0,-1.5,3.30785e-38,0,0,0,0.00291685,0.00126301,0,0,0,0,0.0366029,0.0157293,1.9603e-19,0,0,0,0,0,0,0,0,0,1,-0.00138931
6292,-0.193359,0,-5.14746,-0.00101094,-0.00121063,-0.0017241,0.0130376,-0.0241228,-0.0924397,0,0,0,0.00358327,0.00154921,0.0404873,0.0173833,-0.0924397,0,0,0,0,0,0,0,0,0,0,0.0173912,-0.413739,0,-1.5,3.30785e-38,0,0,0,0.00358327,0.00154921,0,0,0,0,0.0404873,0.0173833,1.9603e-19,0,0,0,0,0,0,0,0,0,1,-0.00170413
6308,-0.193359,0,-4.0957,-0.0020852,-0.000132067,-0.00251531,0.0130328,-0.024108,-0.0924664,0,0,0,0.00426919,0.00184359,0.0441124,0.0189283,-0.0924664,0,0,0,0,0,0,0,0,0,0,0.0168487,-0.412879,0,-1.5,3.30785e-38,0,0,0,0.00426919,0.00184359,0,0,0,0,0.0441124,0.0189283,1.9603e-19,0,0,0,0,0,0,0,0,0,1,-0.00202795
6337,-0.193359,0,-6.02246,-0.00266711,-0.00128655,-0.00170312,0.0130259,-0.0240937,-0.0925115,0,0,0,0.00569455,0.00245479,0.050623,0.0217036,-0.0925115,0,0,0,0,0,0,0,0,0,0,0.0158509,-0.411337,0,-1.5,3.30785e-38,0,0,0,0.00569455,0.00245479,0,0,0,0,0.050623,0.0217036,1.9603e-19,0,0,0,0,0,0,0,0,0,1,-0.00270027
6374,-0.193359,0,2.06152,-0.00150349,-0.00099894,-0.00211458,0.0130514,-0.0240905,-0.0925683,-3.99655,0.0936269,-0.204721,0.00780861,0.00336056,0.0588007,0.0251907,-0.0925432,0,0,244,33,244,33,359,19,257,141,0.0145534,-0.409405,0,-1.5,3.30785e-38,0,0,0,0.00780861,0.00336056,0,0,0,0,0.0588007,0.0251907,15860,0,0,0,0,0,0,0,0,0,1,-0.00369662
6400,-0.193359,0,2.75195,-0.00227679,-0.000511992,-0.00190217,0.0130431,-0.0240839,-0.0926176,-3.97599,0.0956343,-0.209698,0.0094447,0.00406136,0.0644433,0.027602,-0.0925683,0,0,243,33,243,33,359,18,257,141,0.0136368,-0.408073,0,-1.5,3.30785e-38,0,0,0,0.0094447,0.00406136,0,0,0,0,0.0644433,0.027602,16113,0,0,0,0,0,0,0,0,0,1,-0.00446749
6414,-0.193359,0,-1.86426,-0.000773343,0.000314537,-0.00114867,0.0130525,-0.0240721,-0.0926368,-3.97599,0.0956343,-0.209698,0.0103735,0.00445915,0.0674442,0.0288836,-0.0926176,0,0,243,33,243,33,359,18,257,141,0.0131509,-0.407365,0,-1.5,3.30785e-38,0,0,0,0.0103735,0.00445915,0,0,0,0,0.0674442,0.0288836,16113,0,0,0,0,0,0,0,0,0,1,-0.00490507
6427,-0.193359,0,-3.07227,-0.00141599,-0.000103323,-0.00224161,0.0130553,-0.0240662,-0.0926696,-4.01025,0.0889983,-0.20229,0.0112727,0.0048442,0.0702102,0.0300667,-0.0926368,0,0,245,33,245,33,359,19,258,141,0.0126915,-0.406714,0,-1.5,3.30785e-38,0,0,0,0.0112727,0.0048442,0,0,0,0,0.0702102,0.0300667,15738,0,0,0,0,0,0,0,0,0,1,-0.00532863
6443,-0.193359,0,-1.40625,-0.00160043,-0.000957066,-0.00135586,0.0130459,-0.0240635,-0.0926907,-4.01025,0.0889983,-0.20229,0.0124316,0.00534048,0.073591,0.0315132,-0.0926696,0,0,245,33,245,33,359,19,258,141,0.012125,-0.405918,0,-1.5,3.30785e-38,0,0,0,0.0124316,0.00534048,0,0,0,0,0.073591,0.0315132,15738,0,0,0,0,0,0,0,0,0,1,-0.00587453
6459,-0.193359,0,-1.40625,-0.00160043,-0.000957066,-0.00135586,0.0130459,-0.0240635,-0.0926907,-4.01653,0.0869777,-0.197704,0.0136443,0.00585977,0.0769439,0.0329468,-0.0926907,0,0,244,34,244,34,359,18,260,141,0.0115532,-0.405129,0,-1.5,3.30785e-38,0,0,0,0.0136443,0.00585977,0,0,0,0,0.0769439,0.0329468,15990,0,0,0,0,0,0,0,0,0,1,-0.00644575
6475,-0.193359,0,-6.89258,-0.000587374,0.00118779,-0.00220645,0.0130574,-0.0240374,-0.0927588,-4.01653,0.0869777,-0.197704,0.0149104,0.00640188,0.0802692,0.0343695,-0.0927588,0,0,244,34,244,34,359,18,260,141,0.0109893,-0.404348,0,-1.5,3.30785e-38,0,0,0,0.0149104,0.00640188,0,0,0,0,0.0802692,0.0343695,15990,0,0,0,0,0,0,0,0,0,1,-0.00704207
6492,-0.193359,0,-6.89258,-0.000587374,0.00118779,-0.00220645,0.0130574,-0.0240374,-0.0927588,-4.02612,0.087096,-0.196545,0.0162293,0.00696665,0.0835651,0.0357822,-0.0927588,0,0,244,34,244,34,359,19,260,141,0.0104067,-0.403574,0,-1.5,3.30785e-38,0,0,0,0.0162293,0.00696665,0,0,0,0,0.0835651,0.0357822,15860,0,0,0,0,0,0,0,0,0,1,-0.00766331
6508,-0.193359,0,4.30469,-0.00224782,-0.00163585,-0.00208769,0.0130548,-0.0240421,-0.0928108,-4.02612,0.087096,-0.196545,0.0176882,0.00759135,0.0870385,0.0372706,-0.0928108,0,0,244,34,244,34,359,19,260,141,0.00979659,-0.40276,0,-1.5,3.30785e-38,0,0,0,0.0176882,0.00759135,0,0,0,0,0.0870385,0.0372706,15860,0,0,0,0,0,0,0,0,0,1,-0.00835048
6528,-0.193359,0,3.09375,-0.00277172,-0.0011048,-0.00196856,0.013025,-0.0240395,-0.0928667,-4.01158,0.0919003,-0.194193,0.019484,0.00836031,0.0910898,0.0390043,-0.0928667,0,0,244,34,244,34,359,18,258,141,0.00907332,-0.40181,0,-1.5,3.30785e-38,0,0,0,0.019484,0.00836031,0,0,0,0,0.0910898,0.0390043,15990,0,0,0,0,0,0,0,0,0,1,-0.00919634
6543,-0.193359,0,0.368164,-0.00227469,0.000811808,-0.000787451,0.0130237,-0.0240179,-0.0928873,-4.01158,0.0919003,-0.194193,0.0208795,0.00895781,0.0940982,0.040289,-0.0928873,0,0,244,34,244,34,359,18,258,141,0.00852483,-0.401106,0,-1.5,3.30785e-38,0,0,0,0.0208795,0.00895781,0,0,0,0,0.0940982,0.040289,15990,0,0,0,0,0,0,0,0,0,1,-0.00985359
6559,-0.193359,0,-2.40039,-0.00119493,-0.00114602,-0.00182535,0.013021,-0.0240186,-0.092919,-4.01158,0.0919003,-0.194193,0.0224185,0.00961674,0.0972805,0.0416488,-0.092919,0,0,244,34,244,34,359,18,258,141,0.0079393,-0.400362,0,-1.5,3.30785e-38,0,0,0,0.0224185,0.00961674,0,0,0,0,0.0972805,0.0416488,15990,0,0,0,0,0,0,0,0,0,1,-0.0105784
6574,-0.193359,0,-2.36328,-0.00154441,-0.000335769,-0.00226184,0.0130244,-0.0240171,-0.0929426,-4.01158,0.0919003,-0.194193,0.0239056,0.0102534,0.10024,0.0429133,-0.0929426,0,0,244,34,244,34,359,18,258,141,0.0073869,-0.399671,0,-1.5,3.30785e-38,0,0,0,0.0239056,0.0102534,0,0,0,0,0.10024,0.0429133,15990,0,0,0,0,0,0,0,0,0,1,-0.0112787
6588,-0.193359,0,0.250977,0.000582878,-0.000606841,-0.00288238,0.0130419,-0.0240099,-0.0929762,-4.01158,0.0919003,-0.194193,0.0253332,0.0108646,0.102982,0.0440861,-0.0929762,0,0,244,34,244,34,359,18,258,141,0.00687153,-0.399031,0,-1.5,3.30785e-38,0,0,0,0.0253332,0.0108646,0,0,0,0,0.102982,0.0440861,15990,0,0,0,0,0,0,0,0,0,1,-0.011951
6604,-0.193359,0,-2.54688,-0.00153347,-0.000377752,-0.00277178,0.0130554,-0.0239848,-0.0930354,-4.01158,0.0919003,-0.194193,0.0270136,0.0115839,0.106091,0.045419,-0.0929953,0,0,244,34,244,34,359,18,258,141,0.00627488,-0.398306,0,-1.5,3.30785e-38,0,0,0,0.0270136,0.0115839,0,0,0,0,0.106091,0.045419,15990,0,0,0,0,0,0,0,0,0,1,-0.0127423
6622,-0.193359,0,-7.31738,-0.0012026,-0.00065449,-0.00200394,0.0130545,-0.0239769,-0.093055,-4.02499,0.0896284,-0.19162,0.0289644,0.0124191,0.109558,0.0469074,-0.0930354,0,0,243,34,243,34,359,19,260,141,0.00560415,-0.397499,0,-1.5,3.30785e-38,0,0,0,0.0289644,0.0124191,0,0,0,0,0.109558,0.0469074,15982,0,0,0,0,0,0,0,0,0,1,-0.013661
6638,-0.193359,0,4.9834,-0.00188195,-0.000610773,-0.00224239,0.013054,-0.0239698,-0.0930855,-4.02499,0.0896284,-0.19162,0.0307485,0.013183,0.11261,0.0482192,-0.0930855,0,0,243,34,243,34,359,19,260,141,0.00500873,-0.396789,0,-1.5,3.30785e-38,0,0,0,0.0307485,0.013183,0,0,0,0,0.11261,0.0482192,15982,0,0,0,0,0,0,0,0,0,1,-0.0145013
6654,-0.193359,0,2.39355,-0.00290369,-0.0012717,-0.0017578,0.0130445,-0.0239759,-0.0931162,-4.03705,0.0874499,-0.187235,0.0325811,0.0139678,0.115638,0.0495197,-0.0931162,0,0,244,34,244,34,359,19,260,141,0.00440659,-0.396085,0,-1.5,3.30785e-38,0,0,0,0.0325811,0.0139678,0,0,0,0,0.115638,0.0495197,15860,0,0,0,0,0,0,0,0,0,1,-0.0153646
6670,-0.193359,0,-4.01855,-0.00332577,-0.000664004,-0.00229091,0.013034,-0.0239752,-0.093144,-4.03705,0.0874499,-0.187235,0.034462,0.0147733,0.118642,0.050808,-0.093144,0,0,244,34,244,34,359,19,260,141,0.00380165,-0.395388,0,-1.5,3.30785e-38,0,0,0,0.034462,0.0147733,0,0,0,0,0.118642,0.050808,15860,0,0,0,0,0,0,0,0,0,1,-0.0162506
6686,-0.193359,0,-5.51953,-0.00289874,-0.000372377,-0.0020891,0.0130221,-0.0239615,-0.0931724,-4.03704,0.0874822,-0.187234,0.0363916,0.0155996,0.121622,0.0520847,-0.0931724,0,0,244,34,244,34,359,19,260,141,0.00319458,-0.394697,0,-1.5,3.30785e-38,0,0,0,0.0363916,0.0155996,0,0,0,0,0.121622,0.0520847,15860,0,0,0,0,0,0,0,0,0,1,-0.0171596
6702,-0.193359,0,-3.98438,-0.00155199,-0.000183361,-0.00199056,0.0130145,-0.0239622,-0.0932309,-4.03704,0.0874822,-0.187234,0.0383677,0.0164459,0.124576,0.0533496,-0.0932,0,0,244,34,244,34,359,19,260,141,0.00258538,-0.394013,0,-1.5,3.30785e-38,0,0,0,0.0383677,0.0164459,0,0,0,0,0.124576,0.0533496,15860,0,0,0,0,0,0,0,0,0,1,-0.0180905
6721,-0.193359,0,-0.706055,-0.00169624,0.000243768,-0.00132448,0.0130193,-0.0239585,-0.0932519,-4.03704,0.0874822,-0.187234,0.0407788,0.0174785,0.128055,0.0548383,-0.0932519,0,0,244,34,244,34,359,19,260,141,0.00186248,-0.393208,0,-1.5,3.30785e-38,0,0,0,0.0407788,0.0174785,0,0,0,0,0.128055,0.0548383,15860,0,0,0,0,0,0,0,0,0,1,-0.0192263
6736,-0.193359,0,5.1543,-0.00259987,0.00107818,-0.00272369,0.0130104,-0.0239404,-0.0932837,-4.02324,0.0894108,-0.192526,0.042726,0.0183123,0.130775,0.0560032,-0.0932837,0,0,244,33,244,33,359,18,260,141,0.00128782,-0.392579,0,-1.5,3.30785e-38,0,0,0,0.042726,0.0183123,0,0,0,0,0.130775,0.0560032,15867,0,0,0,0,0,0,0,0,0,1,-0.0201435
6752,-0.193359,0,-2.61035,-0.00238328,-0.000931638,-0.00265234,0.0130089,-0.0239404,-0.0933227,-4.02028,0.0868558,-0.195725,0.0448487,0.0192213,0.133653,0.0572352,-0.0933227,0,0,244,33,244,33,359,19,260,141,0.000673732,-0.391915,0,-1.5,3.30785e-38,0,0,0,0.0448487,0.0192213,0,0,0,0,0.133653,0.0572352,15860,0,0,0,0,0,0,0,0,0,1,-0.0211434
6769,-0.193359,0,5.69824,-0.00236805,0.000712358,-0.00133124,0.0130051,-0.0239233,-0.0933426,-4.02028,0.0868558,-0.195725,0.0471553,0.0202091,0.136686,0.0585333,-0.0933426,0,0,244,33,244,33,359,19,260,141,1.38385e-05,-0.391215,0,-1.5,3.30785e-38,0,0,0,0.0471553,0.0202091,0,0,0,0,0.136686,0.0585333,15860,0,0,0,0,0,0,0,0,0,1,-0.02223
6785,-0.193359,0,1.9707,-0.00139519,-0.000736589,-0.00132939,0.012998,-0.023911,-0.0933955,-4.02028,0.0868558,-0.195725,0.0492312,0.0210981,0.139338,0.0596684,-0.0933677,0,0,244,33,244,33,359,19,260,141,-0.000568491,-0.390605,0,-1.5,3.30785e-38,0,0,0,0.0492312,0.0210981,0,0,0,0,0.139338,0.0596684,15860,0,0,0,0,0,0,0,0,0,1,-0.0232079
6801,-0.193359,0,1.9707,-0.00139519,-0.000736589,-0.00132939,0.012998,-0.023911,-0.0933955,-4.01075,0.0867629,-0.196782,0.0514901,0.0220654,0.142144,0.0608694,-0.0933955,0,0,244,33,244,33,359,18,260,141,-0.00119169,-0.389959,0,-1.5,3.30785e-38,0,0,0,0.0514901,0.0220654,0,0,0,0,0.142144,0.0608694,15990,0,0,0,0,0,0,0,0,0,1,-0.0242719
6817,-0.193359,0,1.9707,-0.00139519,-0.000736589,-0.00132939,0.012998,-0.023911,-0.0933955,-4.01075,0.0867629,-0.196782,0.0539402,0.0231146,0.1451,0.0621352,-0.0933955,0,0,244,33,244,33,359,18,260,141,-0.00186295,-0.389279,0,-1.5,3.30785e-38,0,0,0,0.0539402,0.0231146,0,0,0,0,0.1451,0.0621352,15990,0,0,0,0,0,0,0,0,0,1,-0.025426
6833,-0.193359,0,1.9707,-0.00139519,-0.000736589,-0.00132939,0.012998,-0.023911,-0.0933955,-4.01075,0.0867629,-0.196782,0.0562908,0.0241212,0.147859,0.0633165,-0.0933955,0,0,244,33,244,33,359,18,260,141,-0.00249693,-0.388646,0,-1.5,3.30785e-38,0,0,0,0.0562908,0.0241212,0,0,0,0,0.147859,0.0633165,15990,0,0,0,0,0,0,0,0,0,1,-0.0265333
6849,-0.193359,0,0.177734,-0.0024412,-0.00112162,-0.00111514,0.0129782,-0.0238981,-0.093494,-4.03688,0.0875385,-0.186995,0.0586853,0.0251465,0.150596,0.0644871,-0.093494,0,0,244,34,244,34,359,19,260,141,-0.00311182,-0.388019,0,-1.5,3.30785e-38,0,0,0,0.0586853,0.0251465,0,0,0,0,0.150596,0.0644871,15860,0,0,0,0,0,0,0,0,0,1,-0.0276612
6865,-0.193359,0,0.177734,-0.0024412,-0.00112162,-0.00111514,0.0129782,-0.0238981,-0.093494,-4.03688,0.0875385,-0.186995,0.0611234,0.0261905,0.153309,0.0656464,-0.093494,0,0,244,34,244,34,359,19,260,141,-0.00374953,-0.387397,0,-1.5,3.30785e-38,0,0,0,0.0611234,0.0261905,0,0,0,0,0.153309,0.0656464,15860,0,0,0,0,0,0,0,0,0,1,-0.0288096
6882,-0.193359,0,-5.73047,-0.00109386,0.000256788,-0.00206314,0.0129855,-0.0238862,-0.0935543,-4.00549,0.0917252,-0.198193,0.0637612,0.02732,0.156167,0.0668684,-0.0935543,0,0,244,33,244,33,359,19,258,142,-0.00441688,-0.386744,0,-1.5,3.30785e-38,0,0,0,0.0637612,0.02732,0,0,0,0,0.156167,0.0668684,15990,0,0,0,0,0,0,0,0,0,1,-0.030052
6898,-0.193359,0,-4.78613,-0.00258405,0.000456059,-0.00208599,0.0129788,-0.0238589,-0.0936162,-4.00549,0.0917252,-0.198193,0.0661279,0.0283334,0.158668,0.0679385,-0.0935543,0,0,244,33,244,33,359,19,258,142,-0.00501909,-0.386172,0,-1.5,3.30785e-38,0,0,0,0.0661279,0.0283334,0,0,0,0,0.158668,0.0679385,15990,0,0,0,0,0,0,0,0,0,1,-0.0311667
6914,-0.193359,0,-5.7373,-0.00210667,-0.000382329,-0.00193205,0.0129741,-0.0238605,-0.0936405,-4.00549,0.0917252,-0.198193,0.0688571,0.029502,0.161475,0.069141,-0.0936405,0,0,244,33,244,33,359,19,258,142,-0.00568574,-0.385532,0,-1.5,3.30785e-38,0,0,0,0.0688571,0.029502,0,0,0,0,0.161475,0.069141,15990,0,0,0,0,0,0,0,0,0,1,-0.0324522
6930,-0.193359,0,-6.09473,-0.00316826,-0.00160593,-0.00241064,0.0129616,-0.0238739,-0.0936756,-4.05076,0.0927706,-0.181694,0.0714675,0.0306197,0.164096,0.0702616,-0.0936756,0,0,244,34,244,34,357,19,260,141,-0.00632454,-0.384935,0,-1.5,3.30785e-38,0,0,0,0.0714675,0.0306197,0,0,0,0,0.164096,0.0702616,15860,0,0,0,0,0,0,0,0,0,1,-0.0336817
6945,-0.193359,0,-2.8584,-0.00267814,-0.000456853,-0.00169443,0.0129442,-0.023874,-0.0937067,-4.05076,0.0927706,-0.181694,0.0739525,0.0316837,0.166536,0.0713014,-0.0937067,0,0,244,34,244,34,357,19,260,141,-0.00692521,-0.38438,0,-1.5,3.30785e-38,0,0,0,0.0739525,0.0316837,0,0,0,0,0.166536,0.0713014,15860,0,0,0,0,0,0,0,0,0,1,-0.0348521
6962,-0.193359,0,-2.8584,-0.00267814,-0.000456853,-0.00169443,0.0129442,-0.023874,-0.0937067,-4.00424,0.0892857,-0.201224,0.0768149,0.0329091,0.169279,0.0724692,-0.0937067,0,0,243,34,243,34,359,18,260,141,-0.00761554,-0.383756,0,-1.5,3.30785e-38,0,0,0,0.0768149,0.0329091,0,0,0,0,0.169279,0.0724692,16113,0,0,0,0,0,0,0,0,0,1,-0.0362
6977,-0.193359,0,6.11621,-0.00141878,-0.000581276,-0.00182441,0.0129471,-0.0238735,-0.093761,-4.00424,0.0892857,-0.201224,0.0793773,0.034006,0.171679,0.073491,-0.093761,0,0,243,34,243,34,359,18,260,141,-0.00821503,-0.383211,0,-1.5,3.30785e-38,0,0,0,0.0793773,0.034006,0,0,0,0,0.171679,0.073491,16113,0,0,0,0,0,0,0,0,0,1,-0.0374066
6993,-0.193359,0,2.39453,-0.00279048,-0.000341164,-0.00238546,0.0129492,-0.0238529,-0.093832,-4.02568,0.0872542,-0.195841,0.0821501,0.0351929,0.17422,0.0745727,-0.093761,0,0,244,34,244,34,359,19,260,141,-0.0088687,-0.382634,0,-1.5,3.30785e-38,0,0,0,0.0821501,0.0351929,0,0,0,0,0.17422,0.0745727,15860,0,0,0,0,0,0,0,0,0,1,-0.0387122
7009,-0.193359,0,-5.41992,-0.00176065,-0.00176734,-0.00177811,0.0129456,-0.0238532,-0.0938549,-4.02568,0.0872542,-0.195841,0.0849633,0.036397,0.176739,0.075646,-0.093832,0,0,244,34,244,34,359,19,260,141,-0.00950974,-0.382064,0,-1.5,3.30785e-38,0,0,0,0.0849633,0.036397,0,0,0,0,0.176739,0.075646,15860,0,0,0,0,0,0,0,0,0,1,-0.0400367
7025,-0.193359,0,-5.41992,-0.00176065,-0.00176734,-0.00177811,0.0129456,-0.0238532,-0.0938549,-4.03819,0.0899258,-0.191295,0.0878166,0.0376182,0.179236,0.0767103,-0.0938549,0,0,244,34,244,34,359,19,260,141,-0.0101627,-0.381499,0,-1.5,3.30785e-38,0,0,0,0.0878166,0.0376182,0,0,0,0,0.179236,0.0767103,15738,0,0,0,0,0,0,0,0,0,1,-0.04138
7041,-0.193359,0,1.15137,-0.00223151,0.000113984,-0.00256681,0.0126953,-0.0236816,-0.09375,-4.03819,0.0899258,-0.191295,0.0907096,0.0388563,0.181706,0.077757,-0.09375,0,0,244,34,244,34,359,19,260,141,-0.0108418,-0.38094,0,-1.5,3.30785e-38,0,0,0,0.0907096,0.0388563,0,0,0,0,0.181706,0.077757,15738,0,0,0,0,0,0,0,0,0,1,-0.042742
7057,-0.193359,0,1.15137,-0.00223151,0.000113984,-0.00256681,0.0126953,-0.0236816,-0.09375,-4.0122,0.0944447,-0.195322,0.0936417,0.0401108,0.184133,0.0787683,-0.09375,0,0,244,34,244,34,359,19,257,141,-0.0114937,-0.380392,0,-1.5,3.30785e-38,0,0,0,0.0936417,0.0401108,0,0,0,0,0.184133,0.0787683,15860,0,0,0,0,0,0,0,0,0,1,-0.0441218
7073,-0.193359,0,0.674805,-0.00277876,8.68647e-05,-0.00086524,0.0129142,-0.0238207,-0.0939562,-4.0122,0.0944447,-0.195322,0.0966124,0.0413813,0.186552,0.0797852,-0.0939562,0,0,244,34,244,34,359,19,257,141,-0.012109,-0.379849,0,-1.5,3.30785e-38,0,0,0,0.0966124,0.0413813,0,0,0,0,0.186552,0.0797852,15860,0,0,0,0,0,0,0,0,0,1,-0.0455195
7090,-0.193359,0,5.21875,-0.00270063,-0.000474467,-0.00251004,0.0128972,-0.0238181,-0.093991,-4.01595,0.0871971,-0.196797,0.0998121,0.0427497,0.189116,0.0808746,-0.093991,0,0,244,34,244,34,359,18,260,141,-0.0128078,-0.379272,0,-1.5,3.30785e-38,0,0,0,0.0998121,0.0427497,0,0,0,0,0.189116,0.0808746,15990,0,0,0,0,0,0,0,0,0,1,-0.0470247
7106,-0.193359,0,4.75293,-0.00231782,-0.000956057,-0.00236337,0.0128948,-0.0238219,-0.0940241,-4.01595,0.0871971,-0.196797,0.102863,0.0440544,0.191509,0.0818898,-0.093991,0,0,244,34,244,34,359,18,260,141,-0.0134738,-0.378733,0,-1.5,3.30785e-38,0,0,0,0.102863,0.0440544,0,0,0,0,0.191509,0.0818898,15990,0,0,0,0,0,0,0,0,0,1,-0.0484598
7122,-0.193359,0,4.75293,-0.00231782,-0.000956057,-0.00236337,0.0128948,-0.0238219,-0.0940241,-4.02706,0.087593,-0.187813,0.105951,0.0453749,0.193883,0.0828961,-0.0940241,0,0,244,34,244,34,359,18,260,141,-0.0141347,-0.378201,0,-1.5,3.30785e-38,0,0,0,0.105951,0.0453749,0,0,0,0,0.193883,0.0828961,15990,0,0,0,0,0,0,0,0,0,1,-0.0499124
7138,-0.193359,0,6.25391,-0.00188576,-0.000905969,-0.00245667,0.0128967,-0.0238178,-0.0940736,-4.02706,0.087593,-0.187813,0.109078,0.0467114,0.196238,0.0838944,-0.0940736,0,0,244,34,244,34,359,18,260,141,-0.0147944,-0.377673,0,-1.5,3.30785e-38,0,0,0,0.109078,0.0467114,0,0,0,0,0.196238,0.0838944,15990,0,0,0,0,0,0,0,0,0,1,-0.0513825
7155,-0.193359,0,-6.95215,-0.00187242,-0.00116755,-0.000719702,0.0126953,-0.0236816,-0.0939941,-4.04443,0.0853915,-0.18395,0.112441,0.0481491,0.198711,0.0849358,-0.0939941,0,0,244,34,244,34,359,19,261,141,-0.0155214,-0.377118,0,-1.5,3.30785e-38,0,0,0,0.112441,0.0481491,0,0,0,0,0.198711,0.0849358,15860,0,0,0,0,0,0,0,0,0,1,-0.0529641
7170,-0.193359,0,4.35352,-0.0024003,-0.000190166,-0.00309973,0.0128806,-0.0238155,-0.0941348,-4.04443,0.0853915,-0.18395,0.115442,0.0494317,0.20087,0.0858409,-0.0941348,0,0,244,34,244,34,359,19,261,141,-0.01612,-0.376637,0,-1.5,3.30785e-38,0,0,0,0.115442,0.0494317,0,0,0,0,0.20087,0.0858409,15860,0,0,0,0,0,0,0,0,0,1,-0.0543748
7185,-0.193359,0,2.0127,-0.00241542,0.000708436,-0.00180035,0.0128777,-0.0237952,-0.0941594,-4.04443,0.0853915,-0.18395,0.118476,0.0507281,0.203024,0.0867525,-0.0941594,0,0,244,34,244,34,359,19,261,141,-0.0167475,-0.376157,0,-1.5,3.30785e-38,0,0,0,0.118476,0.0507281,0,0,0,0,0.203024,0.0867525,15860,0,0,0,0,0,0,0,0,0,1,-0.0558009
7201,-0.193359,0,6.56348,-0.00198497,-0.000955386,-0.00258118,0.0128915,-0.0237863,-0.0942041,-4.04443,0.0853915,-0.18395,0.121748,0.0521263,0.205303,0.0877174,-0.0941594,0,0,244,34,244,34,359,19,261,141,-0.017424,-0.375648,0,-1.5,3.30785e-38,0,0,0,0.121748,0.0521263,0,0,0,0,0.205303,0.0877174,15860,0,0,0,0,0,0,0,0,0,1,-0.0573389
7217,-0.193359,0,-3.41895,-0.00285088,-0.000803902,-0.0028425,0.0128827,-0.0237941,-0.0942385,-4.01205,0.0945506,-0.195117,0.125057,0.0535398,0.207563,0.0886754,-0.0942385,0,0,244,34,244,34,359,19,257,141,-0.0180867,-0.375146,0,-1.5,3.30785e-38,0,0,0,0.125057,0.0535398,0,0,0,0,0.207563,0.0886754,15860,0,0,0,0,0,0,0,0,0,1,-0.0588938
7233,-0.193359,0,3.25,-0.00149963,-0.000672993,-0.00205262,0.0128867,-0.0237979,-0.0942699,-4.01205,0.0945506,-0.195117,0.128401,0.0549686,0.209805,0.0896255,-0.0942699,0,0,244,34,244,34,359,19,257,141,-0.0187608,-0.374648,0,-1.5,3.30785e-38,0,0,0,0.128401,0.0549686,0,0,0,0,0.209805,0.0896255,15860,0,0,0,0,0,0,0,0,0,1,-0.0604655
7250,-0.193359,0,-1.08691,-0.00230764,-0.000223262,-0.0015989,0.0128963,-0.0237905,-0.0942888,-4.01205,0.0945506,-0.195117,0.131994,0.0565033,0.212168,0.0906276,-0.0942888,0,0,244,34,244,34,359,19,257,141,-0.0194822,-0.374124,0,-1.5,3.30785e-38,0,0,0,0.131994,0.0565033,0,0,0,0,0.212168,0.0906276,15860,0,0,0,0,0,0,0,0,0,1,-0.0621536
7266,-0.193359,0,-1.08691,-0.00230764,-0.000223262,-0.0015989,0.0128963,-0.0237905,-0.0942888,-4.04371,0.0901005,-0.181699,0.135197,0.0578712,0.214236,0.0915056,-0.0942888,0,0,244,33,244,33,359,19,260,141,-0.0201239,-0.373665,0,-1.5,3.30785e-38,0,0,0,0.135197,0.0578712,0,0,0,0,0.214236,0.0915056,15738,0,0,0,0,0,0,0,0,0,1,-0.0636583
7282,-0.193359,0,-3.43066,-0.00105864,-0.000810002,-0.00137164,0.0129151,-0.0237838,-0.094349,-4.02832,0.0899011,-0.197063,0.138865,0.059438,0.216561,0.0924941,-0.094349,0,0,244,34,244,34,359,19,260,142,-0.0208417,-0.373151,0,-1.5,3.30785e-38,0,0,0,0.138865,0.059438,0,0,0,0,0.216561,0.0924941,15867,0,0,0,0,0,0,0,0,0,1,-0.0653818
7298,-0.193359,0,4.1084,-0.00193261,-0.000750554,-0.00204875,0.0129306,-0.0237771,-0.0944197,-4.02832,0.0899011,-0.197063,0.142353,0.0609277,0.218731,0.0934184,-0.094349,0,0,244,34,244,34,359,19,260,142,-0.0215306,-0.372672,0,-1.5,3.30785e-38,0,0,0,0.142353,0.0609277,0,0,0,0,0.218731,0.0934184,15867,0,0,0,0,0,0,0,0,0,1,-0.0670204
7314,-0.193359,0,0.314453,0.000394285,-0.00132718,-0.00206046,0.0129447,-0.0237857,-0.0944474,-4.02832,0.0899011,-0.197063,0.145875,0.062432,0.220882,0.0943378,-0.0944474,0,0,244,34,244,34,359,19,260,142,-0.0222026,-0.372199,0,-1.5,3.30785e-38,0,0,0,0.145875,0.062432,0,0,0,0,0.220882,0.0943378,15867,0,0,0,0,0,0,0,0,0,1,-0.0686752
7330,-0.193359,0,4.00977,-0.000947166,-0.00167248,-0.00256242,0.0129593,-0.0237978,-0.0944817,-4.01098,0.0920974,-0.193226,0.149432,0.063951,0.223019,0.0952521,-0.0944817,0,0,244,34,244,34,359,18,258,141,-0.0228896,-0.371729,0,-1.5,3.30785e-38,0,0,0,0.149432,0.063951,0,0,0,0,0.223019,0.0952521,15990,0,0,0,0,0,0,0,0,0,1,-0.0703461
7346,-0.193359,0,-7.26172,-0.00272825,-0.000748659,-0.00231558,0.0129526,-0.023786,-0.0945102,-4.01098,0.0920974,-0.193226,0.153022,0.0654843,0.225139,0.09616,-0.0945102,0,0,244,34,244,34,359,18,258,141,-0.0235797,-0.371263,0,-1.5,3.30785e-38,0,0,0,0.153022,0.0654843,0,0,0,0,0.225139,0.09616,15990,0,0,0,0,0,0,0,0,0,1,-0.0720328
7362,-0.193359,0,-7.26172,-0.00272825,-0.000748659,-0.00231558,0.0129526,-0.023786,-0.0945102,-4.01592,0.0871316,-0.201489,0.156646,0.0670324,0.227241,0.0970603,-0.0945102,0,0,244,34,244,34,359,19,260,142,-0.0242772,-0.370801,0,-1.5,3.30785e-38,0,0,0,0.156646,0.0670324,0,0,0,0,0.227241,0.0970603,15990,0,0,0,0,0,0,0,0,0,1,-0.0737356
7378,-0.193359,0,-5.87891,-0.00155699,7.18405e-06,-0.00205285,0.0129644,-0.0237669,-0.0945748,-4.01592,0.0871316,-0.201489,0.160074,0.0684964,0.229195,0.0978983,-0.0945748,0,0,244,34,244,34,359,19,260,142,-0.02492,-0.370374,0,-1.5,3.30785e-38,0,0,0,0.160074,0.0684964,0,0,0,0,0.229195,0.0978983,15990,0,0,0,0,0,0,0,0,0,1,-0.075346
7393,-0.193359,0,4.23047,-0.00301237,-0.000979058,-0.00259622,0.0129435,-0.0237648,-0.094631,-4.02834,0.0898129,-0.197031,0.163762,0.0700721,0.231263,0.0987866,-0.0945748,0,0,244,34,244,34,359,19,260,142,-0.0256213,-0.369922,0,-1.5,3.30785e-38,0,0,0,0.163762,0.0700721,0,0,0,0,0.231263,0.0987866,15867,0,0,0,0,0,0,0,0,0,1,-0.0770793
7409,-0.193359,0,5.90625,-0.00231399,-2.42934e-05,-0.00175793,0.0129434,-0.0237537,-0.0946656,-4.02834,0.0898129,-0.197031,0.167484,0.0716619,0.233313,0.099666,-0.094631,0,0,244,34,244,34,359,19,260,142,-0.0263129,-0.369475,0,-1.5,3.30785e-38,0,0,0,0.167484,0.0716619,0,0,0,0,0.233313,0.099666,15867,0,0,0,0,0,0,0,0,0,1,-0.0788281
7425,-0.193359,0,5.90625,-0.00231399,-2.42934e-05,-0.00175793,0.0129434,-0.0237537,-0.0946656,-4.03237,0.0896338,-0.190622,0.171239,0.0732657,0.235345,0.100537,-0.0946656,0,0,244,33,244,33,359,19,260,141,-0.0270099,-0.369032,0,-1.5,3.30785e-38,0,0,0,0.171239,0.0732657,0,0,0,0,0.235345,0.100537,15738,0,0,0,0,0,0,0,0,0,1,-0.0805923
7441,-0.193359,0,1.8125,-0.000919149,-0.000277796,-0.00177146,0.0129381,-0.0237389,-0.0947253,-4.03237,0.0896338,-0.190622,0.175025,0.0748834,0.237361,0.1014,-0.0947253,0,0,244,33,244,33,359,19,260,141,-0.0277037,-0.368595,0,-1.5,3.30785e-38,0,0,0,0.175025,0.0748834,0,0,0,0,0.237361,0.1014,15738,0,0,0,0,0,0,0,0,0,1,-0.0823718
7457,-0.193359,0,1.8125,-0.000919149,-0.000277796,-0.00177146,0.0129381,-0.0237389,-0.0947253,-4.02752,0.0945771,-0.187132,0.178844,0.0765148,0.239358,0.102256,-0.0947253,0,0,244,33,244,33,359,19,258,141,-0.0284107,-0.36816,0,-1.5,3.30785e-38,0,0,0,0.178844,0.0765148,0,0,0,0,0.239358,0.102256,15738,0,0,0,0,0,0,0,0,0,1,-0.0841663
7473,-0.193359,0,0.998047,-0.00284818,0.000484971,-0.00146168,0.012938,-0.0237308,-0.0947844,-4.02752,0.0945771,-0.187132,0.182695,0.0781599,0.24134,0.103106,-0.0947844,0,0,244,33,244,33,359,19,258,141,-0.0291078,-0.367732,0,-1.5,3.30785e-38,0,0,0,0.182695,0.0781599,0,0,0,0,0.24134,0.103106,15738,0,0,0,0,0,0,0,0,0,1,-0.0859758
7489,-0.193359,0,1.30469,-0.00205318,0.000152527,-0.00202863,0.012951,-0.0237143,-0.0948283,-4.02344,0.0947698,-0.188559,0.186577,0.0798184,0.243305,0.103949,-0.0948034,0,0,244,34,244,34,359,18,258,141,-0.0298145,-0.367307,0,-1.5,3.30785e-38,0,0,0,0.186577,0.0798184,0,0,0,0,0.243305,0.103949,15867,0,0,0,0,0,0,0,0,0,1,-0.0878002
7505,-0.193359,0,-2.80371,-0.00166216,-0.000150843,-0.0034686,0.0129661,-0.0236987,-0.0948711,-4.02344,0.0947698,-0.188559,0.19049,0.0814904,0.245253,0.104786,-0.0948283,0,0,244,34,244,34,359,18,258,141,-0.030522,-0.366886,0,-1.5,3.30785e-38,0,0,0,0.19049,0.0814904,0,0,0,0,0.245253,0.104786,15867,0,0,0,0,0,0,0,0,0,1,-0.0896394
7521,-0.193359,0,-2.80371,-0.00166216,-0.000150843,-0.0034686,0.0129661,-0.0236987,-0.0948711,-4.01191,0.0944353,-0.194787,0.194434,0.0831757,0.247182,0.10562,-0.0948711,0,0,244,34,244,34,359,19,257,141,-0.0312283,-0.366471,0,-1.5,3.30785e-38,0,0,0,0.194434,0.0831757,0,0,0,0,0.247182,0.10562,15860,0,0,0,0,0,0,0,0,0,1,-0.0914933
7537,-0.193359,0,-4.15918,-0.00181939,-0.00100754,-0.00148762,0.0129749,-0.0236831,-0.0949101,-4.01191,0.0944353,-0.194787,0.198409,0.0848741,0.249095,0.106447,-0.0949101,0,0,244,34,244,34,359,19,257,141,-0.0319369,-0.36606,0,-1.5,3.30785e-38,0,0,0,0.198409,0.0848741,0,0,0,0,0.249095,0.106447,15860,0,0,0,0,0,0,0,0,0,1,-0.0933615
7554,-0.193359,0,-3.10742,-0.00204149,-0.000836721,-0.00280019,0.012972,-0.0236924,-0.0949428,-4.03639,0.0875736,-0.186121,0.202666,0.0866936,0.25111,0.107319,-0.0949428,0,0,244,34,244,34,359,19,260,141,-0.0326937,-0.365627,0,-1.5,3.30785e-38,0,0,0,0.202666,0.0866936,0,0,0,0,0.25111,0.107319,15860,0,0,0,0,0,0,0,0,0,1,-0.0953629
7569,-0.193359,0,3.35645,-0.00292977,-0.00094355,-0.00241857,0.0129671,-0.0237017,-0.0949703,-4.03639,0.0875736,-0.186121,0.20645,0.0883106,0.252874,0.108082,-0.0949703,0,0,244,34,244,34,359,19,260,141,-0.0333627,-0.365249,0,-1.5,3.30785e-38,0,0,0,0.20645,0.0883106,0,0,0,0,0.252874,0.108082,15860,0,0,0,0,0,0,0,0,0,1,-0.0971416
7584,-0.193359,0,-4.79395,-0.00202101,-0.000597471,-0.00106543,0.0129625,-0.0236977,-0.0949906,-4.01027,0.0868212,-0.195941,0.21026,0.0899391,0.254626,0.108838,-0.0949906,0,0,244,33,244,33,359,18,260,141,-0.0340344,-0.364875,0,-1.5,3.30785e-38,0,0,0,0.21026,0.0899391,0,0,0,0,0.254626,0.108838,15990,0,0,0,0,0,0,0,0,0,1,-0.098933
7601,-0.193359,0,4.21484,-0.0016719,-0.000339698,-0.00334449,0.012957,-0.0236926,-0.095063,-4.01027,0.0868212,-0.195941,0.21461,0.0917987,0.256596,0.109688,-0.0949906,0,0,244,33,244,33,359,18,260,141,-0.0348017,-0.364453,0,-1.5,3.30785e-38,0,0,0,0.21461,0.0917987,0,0,0,0,0.256596,0.109688,15990,0,0,0,0,0,0,0,0,0,1,-0.100979
7617,-0.193359,0,4.21484,-0.0016719,-0.000339698,-0.00334449,0.012957,-0.0236926,-0.095063,-4.00935,0.0917887,-0.20067,0.218734,0.0935618,0.258433,0.11048,-0.095063,0,0,244,34,244,34,359,19,258,141,-0.0355113,-0.364063,0,-1.5,3.30785e-38,0,0,0,0.218734,0.0935618,0,0,0,0,0.258433,0.11048,15860,0,0,0,0,0,0,0,0,0,1,-0.102918
7633,-0.193359,0,-2.18652,-0.0017009,-2.82794e-05,-0.00120878,0.0129477,-0.0236795,-0.0951146,-4.00935,0.0917887,-0.20067,0.222888,0.0953375,0.260255,0.111266,-0.0951146,0,0,244,34,244,34,359,19,258,141,-0.0362264,-0.363676,0,-1.5,3.30785e-38,0,0,0,0.222888,0.0953375,0,0,0,0,0.260255,0.111266,15860,0,0,0,0,0,0,0,0,0,1,-0.104871
7649,-0.193359,0,-2.97949,-0.00283016,0.000122043,-0.00262522,0.0129404,-0.0236665,-0.0951432,-4.04905,0.090303,-0.181586,0.227071,0.097126,0.262061,0.112044,-0.0951432,0,0,244,34,244,34,359,19,260,141,-0.0369471,-0.363293,0,-1.5,3.30785e-38,0,0,0,0.227071,0.097126,0,0,0,0,0.262061,0.112044,15738,0,0,0,0,0,0,0,0,0,1,-0.106839
7665,-0.193359,0,-2.97949,-0.00283016,0.000122043,-0.00262522,0.0129404,-0.0236665,-0.0951432,-4.04905,0.090303,-0.181586,0.231282,0.0989265,0.263851,0.112814,-0.0951432,0,0,244,34,244,34,359,19,260,141,-0.0376743,-0.362913,0,-1.5,3.30785e-38,0,0,0,0.231282,0.0989265,0,0,0,0,0.263851,0.112814,15738,0,0,0,0,0,0,0,0,0,1,-0.108819
7681,-0.193359,0,0.280273,-0.000342222,-0.00117713,-0.00280771,0.0129373,-0.0236556,-0.0952155,-4.04905,0.090303,-0.181586,0.235523,0.10074,0.265626,0.113579,-0.0952155,0,0,244,34,244,34,359,19,260,141,-0.0383895,-0.36254,0,-1.5,3.30785e-38,0,0,0,0.235523,0.10074,0,0,0,0,0.265626,0.113579,15738,0,0,0,0,0,0,0,0,0,1,-0.110814
7698,-0.193359,0,-4.52246,-0.00355586,-0.000389985,-0.00241358,0.012932,-0.0236439,-0.0952799,-4.02808,0.0898313,-0.196573,0.239791,0.102565,0.267386,0.114337,-0.0952155,0,0,244,34,244,34,359,19,260,142,-0.0391196,-0.362167,0,-1.5,3.30785e-38,0,0,0,0.239791,0.102565,0,0,0,0,0.267386,0.114337,15867,0,0,0,0,0,0,0,0,0,1,-0.112821
7714,-0.193359,0,2.62793,-0.000872225,-0.00166039,-0.00360124,0.0129409,-0.0236476,-0.0953089,-4.02808,0.0898313,-0.196573,0.244357,0.104517,0.26924,0.115135,-0.0952799,0,0,244,34,244,34,359,19,260,142,-0.0398848,-0.361779,0,-1.5,3.30785e-38,0,0,0,0.244357,0.104517,0,0,0,0,0.26924,0.115135,15867,0,0,0,0,0,0,0,0,0,1,-0.114969
7729,-0.193359,0,0.542969,-0.00130027,0.000348895,-0.00177116,0.0129465,-0.023638,-0.0953369,-4.02012,0.0922061,-0.191609,0.248411,0.106251,0.270861,0.115835,-0.0953369,0,0,244,34,244,34,359,19,258,141,-0.0405615,-0.361439,0,-1.5,3.30785e-38,0,0,0,0.248411,0.106251,0,0,0,0,0.270861,0.115835,15860,0,0,0,0,0,0,0,0,0,1,-0.116876
7746,-0.193359,0,-1.04785,-0.00299751,-0.000207748,-0.00298435,0.0129357,-0.0236325,-0.0953773,-4.02012,0.0922061,-0.191609,0.253037,0.108229,0.272684,0.116622,-0.0953773,0,0,244,34,244,34,359,19,258,141,-0.0413347,-0.361058,0,-1.5,3.30785e-38,0,0,0,0.253037,0.108229,0,0,0,0,0.272684,0.116622,15860,0,0,0,0,0,0,0,0,0,1,-0.119052
7761,-0.193359,0,-1.04785,-0.00299751,-0.000207748,-0.00298435,0.0129357,-0.0236325,-0.0953773,-4.00923,0.0918046,-0.200463,0.257142,0.109985,0.274278,0.11731,-0.0953773,0,0,244,34,244,34,359,19,258,141,-0.0420244,-0.360724,0,-1.5,3.30785e-38,0,0,0,0.257142,0.109985,0,0,0,0,0.274278,0.11731,15860,0,0,0,0,0,0,0,0,0,1,-0.120984
7776,-0.193359,0,4.98535,-0.00177086,0.000199792,-0.00183303,0.012952,-0.0236233,-0.0954158,-4.00923,0.0918046,-0.200463,0.261272,0.111751,0.27586,0.117993,-0.0954158,0,0,244,34,244,34,359,19,258,141,-0.0427085,-0.360394,0,-1.5,3.30785e-38,0,0,0,0.261272,0.111751,0,0,0,0,0.27586,0.117993,15860,0,0,0,0,0,0,0,0,0,1,-0.122927
7792,-0.193359,0,4.98535,-0.00177086,0.000199792,-0.00183303,0.012952,-0.0236233,-0.0954158,-4.03927,0.0902108,-0.182587,0.265703,0.113647,0.277534,0.118718,-0.0954158,0,0,244,34,244,34,359,18,260,141,-0.0434476,-0.360045,0,-1.5,3.30785e-38,0,0,0,0.265703,0.113647,0,0,0,0,0.277534,0.118718,15867,0,0,0,0,0,0,0,0,0,1,-0.125012
7808,-0.193359,0,0.383789,-0.00329455,-0.000853761,-0.00213302,0.012928,-0.0235959,-0.0954924,-4.03927,0.0902108,-0.182587,0.270161,0.115554,0.279194,0.119437,-0.0954158,0,0,244,34,244,34,359,18,260,141,-0.0441882,-0.359698,0,-1.5,3.30785e-38,0,0,0,0.270161,0.115554,0,0,0,0,0.279194,0.119437,15867,0,0,0,0,0,0,0,0,0,1,-0.127109
7824,-0.193359,0,0.383789,-0.00329455,-0.000853761,-0.00213302,0.012928,-0.0235959,-0.0954924,-4.02172,0.0944802,-0.195951,0.274645,0.117472,0.280839,0.120148,-0.0954924,0,0,244,34,244,34,359,19,258,141,-0.0449155,-0.35936,0,-1.5,3.30785e-38,0,0,0,0.274645,0.117472,0,0,0,0,0.280839,0.120148,15738,0,0,0,0,0,0,0,0,0,1,-0.12922
7840,-0.193359,0,0.527344,-0.00222217,-0.00143292,-0.00141883,0.0129109,-0.0235898,-0.0955257,-4.02172,0.0944802,-0.195951,0.279155,0.119402,0.282468,0.120852,-0.0955257,0,0,244,34,244,34,359,19,258,141,-0.0456514,-0.359023,0,-1.5,3.30785e-38,0,0,0,0.279155,0.119402,0,0,0,0,0.282468,0.120852,15738,0,0,0,0,0,0,0,0,0,1,-0.131342
7856,-0.193359,0,0.527344,-0.00222217,-0.00143292,-0.00141883,0.0129109,-0.0235898,-0.0955257,-4.03618,0.0876471,-0.185796,0.283692,0.121343,0.284083,0.121548,-0.0955257,0,0,244,34,244,34,359,19,260,141,-0.0463944,-0.358689,0,-1.5,3.30785e-38,0,0,0,0.283692,0.121343,0,0,0,0,0.284083,0.121548,15860,0,0,0,0,0,0,0,0,0,1,-0.133477
7872,-0.193359,0,-7.32129,-0.00334074,0.000410882,-0.00168622,0.0128768,-0.0235757,-0.0955853,-4.03618,0.0876471,-0.185796,0.288254,0.123295,0.285685,0.122236,-0.0955853,0,0,244,34,244,34,359,19,260,141,-0.0471273,-0.358361,0,-1.5,3.30785e-38,0,0,0,0.288254,0.123295,0,0,0,0,0.285685,0.122236,15860,0,0,0,0,0,0,0,0,0,1,-0.135624
7888,-0.193359,0,-7.31445,-0.00160282,1.33022e-05,-0.00230608,0.0128799,-0.0235647,-0.0956188,-4.03618,0.0876471,-0.185796,0.292842,0.125258,0.287272,0.122915,-0.0956188,0,0,244,34,244,34,359,19,260,141,-0.0478654,-0.358035,0,-1.5,3.30785e-38,0,0,0,0.292842,0.125258,0,0,0,0,0.287272,0.122915,15860,0,0,0,0,0,0,0,0,0,1,-0.137784
7904,-0.193359,0,0.577148,-0.0024017,-0.00156611,-0.0014773,0.0128759,-0.0235543,-0.0956712,-4.03618,0.0876471,-0.185796,0.297455,0.127232,0.288844,0.12359,-0.0956468,0,0,244,34,244,34,359,19,260,141,-0.0486059,-0.357713,0,-1.5,3.30785e-38,0,0,0,0.297455,0.127232,0,0,0,0,0.288844,0.12359,15860,0,0,0,0,0,0,0,0,0,1,-0.139955
7920,-0.193359,0,0.577148,-0.0024017,-0.00156611,-0.0014773,0.0128759,-0.0235543,-0.0956712,-4.04875,0.0904163,-0.181107,0.302092,0.129216,0.290402,0.124258,-0.0956712,0,0,244,34,244,34,359,19,260,141,-0.0493481,-0.357395,0,-1.5,3.30785e-38,0,0,0,0.302092,0.129216,0,0,0,0,0.290402,0.124258,15738,0,0,0,0,0,0,0,0,0,1,-0.142137
7936,-0.193359,0,3.9209,-0.00328928,-0.00100028,-0.00308072,0.0128493,-0.023547,-0.0957449,-4.04875,0.0904163,-0.181107,0.306462,0.131086,0.291851,0.124879,-0.0957449,0,0,244,34,244,34,359,19,260,141,-0.0500357,-0.357102,0,-1.5,3.30785e-38,0,0,0,0.306462,0.131086,0,0,0,0,0.291851,0.124879,15738,0,0,0,0,0,0,0,0,0,1,-0.144194
7952,-0.193359,0,3.9209,-0.00328928,-0.00100028,-0.00308072,0.0128493,-0.023547,-0.0957449,-4.00899,0.0919558,-0.200138,0.311442,0.133217,0.293481,0.125574,-0.0957449,0,0,244,34,244,34,359,19,258,141,-0.0508308,-0.356769,0,-1.5,3.30785e-38,0,0,0,0.311442,0.133217,0,0,0,0,0.293481,0.125574,15860,0,0,0,0,0,0,0,0,0,1,-0.146538
7967,-0.193359,0,-7.25488,-0.00252012,9.11236e-05,-0.00124364,0.012817,-0.0235324,-0.0957963,-4.00899,0.0919558,-0.200138,0.315858,0.135106,0.294905,0.12618,-0.0957963,0,0,244,34,244,34,359,19,258,141,-0.0515236,-0.356481,0,-1.5,3.30785e-38,0,0,0,0.315858,0.135106,0,0,0,0,0.294905,0.12618,15860,0,0,0,0,0,0,0,0,0,1,-0.148616
7982,-0.193359,0,1.91895,-0.00202233,-0.00079062,-0.00233235,0.0128145,-0.0235408,-0.0958298,-4.02641,0.0877177,-0.186733,0.320295,0.137004,0.296318,0.126778,-0.0958298,0,0,244,34,244,34,359,18,260,141,-0.0522199,-0.356195,0,-1.5,3.30785e-38,0,0,0,0.320295,0.137004,0,0,0,0,0.296318,0.126778,15990,0,0,0,0,0,0,0,0,0,1,-0.150705
7999,-0.193359,0,-1.4541,-0.00107748,0.000724943,-0.00255231,0.012813,-0.0235208,-0.0958671,-4.02641,0.0877177,-0.186733,0.325351,0.139167,0.297906,0.127451,-0.0958671,0,0,244,34,244,34,359,18,260,141,-0.0530105,-0.355875,0,-1.5,3.30785e-38,0,0,0,0.325351,0.139167,0,0,0,0,0.297906,0.127451,15990,0,0,0,0,0,0,0,0,0,1,-0.153084
8015,-0.193359,0.00488281,-0.791016,-0.00186005,-0.000901616,-0.00279905,0.0128126,-0.0235197,-0.0959067,-4.00277,0.0844899,-0.197858,0.330133,0.141213,0.299387,0.128078,-0.0959067,0,0,244,33,244,33,360,18,260,141,-0.0537549,-0.355578,0,-1.5,3.30785e-38,0,0,0,0.330133,0.141213,0,0,0,0,0.299387,0.128078,15990,0,0,0,0,0,0,0,0,0,1,-0.155334
8032,-0.193359,0.0712891,4.68164,-0.00445184,-0.00106202,-0.000637431,0.0127555,-0.0235462,-0.0959353,-4.00277,0.0844899,-0.197858,0.334938,0.143269,0.300856,0.128701,-0.0959067,0,0,244,33,244,33,360,18,260,141,-0.0545077,-0.355281,0,-1.5,3.30785e-38,0,0,0,0.334938,0.143269,0,0,0,0,0.300856,0.128701,15990,0,0,0,0,0,0,0,0,0,1,-0.157596
8048,-0.193359,0.104492,-5.25781,-0.0014943,-0.000492633,-0.000357082,0.0127603,-0.0235426,-0.0959429,-4.00277,0.0844899,-0.197858,0.34007,0.145464,0.302407,0.129347,-0.0959429,0,0,244,33,244,33,360,18,260,141,-0.0553,-0.35497,0,-1.5,3.30785e-38,0,0,0,0.34007,0.145464,0,0,0,0,0.302407,0.129347,15990,0,0,0,0,0,0,0,0,0,1,-0.160011
8064,-0.193359,0.137695,4.34961,-0.00253019,-1.35004e-05,-0.00235516,0.0127542,-0.0235422,-0.0959694,-4.00277,0.0844899,-0.197858,0.344924,0.14754,0.303854,0.12995,-0.0959694,0,0,244,33,244,33,360,18,260,141,-0.0560482,-0.354681,0,-1.5,3.30785e-38,0,0,0,0.344924,0.14754,0,0,0,0,0.303854,0.12995,15990,0,0,0,0,0,0,0,0,0,1,-0.162294
8080,-0.193359,0.106445,-0.0273438,-0.0023911,-0.000149665,-0.00225886,0.0127548,-0.0235346,-0.0960122,-4.00277,0.0844899,-0.197858,0.3498,0.149625,0.305289,0.130547,-0.0960122,0,0,244,33,244,33,360,18,260,141,-0.0567944,-0.354395,0,-1.5,3.30785e-38,0,0,0,0.3498,0.149625,0,0,0,0,0.305289,0.130547,15990,0,0,0,0,0,0,0,0,0,1,-0.164588
8096,-0.193359,0.106445,-0.0273438,-0.0023911,-0.000149665,-0.00225886,0.0127548,-0.0235346,-0.0960122,-4.03554,0.0881297,-0.195516,0.3547,0.15172,0.306713,0.13114,-0.0960122,0,0,244,36,244,36,359,19,260,141,-0.0575495,-0.354111,0,-1.5,3.30785e-38,0,0,0,0.3547,0.15172,0,0,0,0,0.306713,0.13114,15860,0,0,0,0,0,0,0,0,0,1,-0.166892
8112,-0.193359,0,3.75977,-0.00220619,0.000182532,-0.00298797,0.0127304,-0.023509,-0.0960978,-4.03554,0.0881297,-0.195516,0.359622,0.153825,0.308123,0.131728,-0.0960661,0,0,244,36,244,36,359,19,260,141,-0.0582959,-0.353832,0,-1.5,3.30785e-38,0,0,0,0.359622,0.153825,0,0,0,0,0.308123,0.131728,15860,0,0,0,0,0,0,0,0,0,1,-0.169207
8128,-0.193359,0,3.75977,-0.00220619,0.000182532,-0.00298797,0.0127304,-0.023509,-0.0960978,-4.03743,0.0902289,-0.190115,0.364566,0.155938,0.30952,0.132308,-0.0960978,0,0,244,34,244,34,359,19,260,141,-0.0590466,-0.353556,0,-1.5,3.30785e-38,0,0,0,0.364566,0.155938,0,0,0,0,0.30952,0.132308,15738,0,0,0,0,0,0,0,0,0,1,-0.171532
8144,-0.193359,0,1.36719,-0.00225677,-0.00122165,-0.000986711,0.012724,-0.0235116,-0.0961524,-4.03743,0.0902289,-0.190115,0.369533,0.158061,0.310905,0.132883,-0.0961524,0,0,244,34,244,34,359,19,260,141,-0.0597943,-0.353285,0,-1.5,3.30785e-38,0,0,0,0.369533,0.158061,0,0,0,0,0.310905,0.132883,15738,0,0,0,0,0,0,0,0,0,1,-0.173867
8159,-0.193359,0,1.36719,-0.00225677,-0.00122165,-0.000986711,0.012724,-0.0235116,-0.0961524,-4.02676,0.0883209,-0.193741,0.374209,0.160059,0.312194,0.133417,-0.0961524,0,0,244,36,244,36,359,18,260,142,-0.0605051,-0.35303,0,-1.5,3.30785e-38,0,0,0,0.374209,0.160059,0,0,0,0,0.312194,0.133417,16120,0,0,0,0,0,0,0,0,0,1,-0.176065
8174,-0.193359,0,-3.94922,-0.00275962,-0.000589002,-0.00163641,0.0127176,-0.0235023,-0.0962077,-4.02676,0.0883209,-0.193741,0.378904,0.162066,0.313473,0.133946,-0.0962077,0,0,244,36,244,36,359,18,260,142,-0.0612068,-0.35278,0,-1.5,3.30785e-38,0,0,0,0.378904,0.162066,0,0,0,0,0.313473,0.133946,16120,0,0,0,0,0,0,0,0,0,1,-0.178272
8190,-0.193359,0,-3.94922,-0.00275962,-0.000589002,-0.00163641,0.0127176,-0.0235023,-0.0962077,-4.03144,0.0878379,-0.187209,0.383934,0.164215,0.314825,0.134506,-0.0962077,0,0,243,34,243,34,359,19,261,141,-0.0619669,-0.352514,0,-1.5,3.30785e-38,0,0,0,0.383934,0.164215,0,0,0,0,0.314825,0.134506,15982,0,0,0,0,0,0,0,0,0,1,-0.180636
8206,-0.193359,0,-2.20801,-0.00126449,0.000422347,-0.0020311,0.0127296,-0.0235068,-0.0962673,-4.03144,0.0878379,-0.187209,0.388985,0.166373,0.316167,0.135062,-0.0962673,0,0,243,34,243,34,359,19,261,141,-0.0627175,-0.352254,0,-1.5,3.30785e-38,0,0,0,0.388985,0.166373,0,0,0,0,0.316167,0.135062,15982,0,0,0,0,0,0,0,0,0,1,-0.18301
8222,-0.193359,0,-4.61426,-0.00234168,0.00110844,-0.00177607,0.0127314,-0.0234866,-0.0962924,-4.04639,0.0885371,-0.186466,0.394058,0.168539,0.317498,0.135615,-0.0962924,0,0,244,36,244,36,359,19,260,141,-0.0634757,-0.351995,0,-1.5,3.30785e-38,0,0,0,0.394058,0.168539,0,0,0,0,0.317498,0.135615,15860,0,0,0,0,0,0,0,0,0,1,-0.185393
8238,-0.193359,0,-1.69531,-0.0010181,-0.000233992,-0.0014119,0.0127432,-0.0234771,-0.0963665,-4.04639,0.0885371,-0.186466,0.399152,0.170715,0.318817,0.136163,-0.0962924,0,0,244,36,244,36,359,19,260,141,-0.0642394,-0.351738,0,-1.5,3.30785e-38,0,0,0,0.399152,0.170715,0,0,0,0,0.318817,0.136163,15860,0,0,0,0,0,0,0,0,0,1,-0.187787
8255,-0.193359,0,-1.69531,-0.0010181,-0.000233992,-0.0014119,0.0127432,-0.0234771,-0.0963665,-4.03812,0.0853582,-0.182344,0.404587,0.173036,0.320205,0.136743,-0.0963665,0,0,244,33,244,33,359,19,261,141,-0.0650393,-0.351472,0,-1.5,3.30785e-38,0,0,0,0.404587,0.173036,0,0,0,0,0.320205,0.136743,15860,0,0,0,0,0,0,0,0,0,1,-0.19034
8271,-0.193359,0,-5.28223,-0.00243282,-0.00104465,-0.00151986,0.0127253,-0.0234721,-0.0964081,-4.03812,0.0853582,-0.182344,0.409723,0.17523,0.3215,0.137283,-0.0964081,0,0,244,33,244,33,359,19,261,141,-0.0657979,-0.351224,0,-1.5,3.30785e-38,0,0,0,0.409723,0.17523,0,0,0,0,0.3215,0.137283,15860,0,0,0,0,0,0,0,0,0,1,-0.192753
8287,-0.193359,0,0.526367,-0.00141302,-0.00083808,-0.0019543,0.0124512,-0.0234375,-0.0964355,-4.02473,0.0875947,-0.194348,0.41488,0.177432,0.32278,0.137799,-0.0964355,0,0,244,34,244,34,359,19,260,141,-0.0665549,-0.350978,0,-1.5,3.30785e-38,0,0,0,0.41488,0.177432,0,0,0,0,0.32278,0.137799,15860,0,0,0,0,0,0,0,0,0,1,-0.195175
8303,-0.193359,0,7.37988,-0.0023308,-0.0010121,-0.00209036,0.0127333,-0.0234758,-0.0964797,-4.02473,0.0875947,-0.194348,0.420058,0.179641,0.324048,0.138303,-0.0964797,0,0,244,34,244,34,359,19,260,141,-0.0673079,-0.350736,0,-1.5,3.30785e-38,0,0,0,0.420058,0.179641,0,0,0,0,0.324048,0.138303,15860,0,0,0,0,0,0,0,0,0,1,-0.197606
8319,-0.193359,0,-1.36426,-0.00105438,-9.75994e-05,-0.0029424,0.0127473,-0.0234768,-0.0965171,-4.03034,0.0876585,-0.185005,0.425255,0.18186,0.325313,0.13883,-0.0965171,0,0,244,33,244,33,359,19,260,141,-0.0680702,-0.350495,0,-1.5,3.30785e-38,0,0,0,0.425255,0.18186,0,0,0,0,0.325313,0.13883,15860,0,0,0,0,0,0,0,0,0,1,-0.200046
8335,-0.193359,0,5.75684,-0.00264179,-0.000902708,-0.00329969,0.0127493,-0.0234698,-0.0965773,-4.03034,0.0876585,-0.185005,0.430146,0.183947,0.32649,0.139322,-0.0965171,0,0,244,33,244,33,359,19,260,141,-0.0687923,-0.35027,0,-1.5,3.30785e-38,0,0,0,0.430146,0.183947,0,0,0,0,0.32649,0.139322,15860,0,0,0,0,0,0,0,0,0,1,-0.202341
8351,-0.193359,0,4.75098,-0.00297962,-0.00026878,-0.00118869,0.0127383,-0.0234638,-0.0965913,-4.03663,0.0906146,-0.187287,0.435712,0.186322,0.327812,0.139875,-0.0965913,0,0,245,35,245,35,359,19,258,141,-0.0695988,-0.350022,0,-1.5,3.30785e-38,0,0,0,0.435712,0.186322,0,0,0,0,0.327812,0.139875,15738,0,0,0,0,0,0,0,0,0,1,-0.204954
8366,-0.193359,0,4.36914,-0.00224687,-0.000403822,-0.000651356,0.0127388,-0.0234567,-0.0966043,-4.03663,0.0906146,-0.187287,0.44064,0.188424,0.328968,0.140358,-0.0966043,0,0,245,35,245,35,359,19,258,141,-0.0703201,-0.349803,0,-1.5,3.30785e-38,0,0,0,0.44064,0.188424,0,0,0,0,0.328968,0.140358,15738,0,0,0,0,0,0,0,0,0,1,-0.207267
8383,-0.193359,0,-5.6377,-0.0016534,-0.001319,-0.00293617,0.0127304,-0.0234603,-0.096641,-4.02128,0.0948125,-0.195364,0.445917,0.190675,0.330191,0.140869,-0.096641,0,0,244,34,244,34,359,19,258,141,-0.0710863,-0.349573,0,-1.5,3.30785e-38,0,0,0,0.445917,0.190675,0,0,0,0,0.330191,0.140869,15738,0,0,0,0,0,0,0,0,0,1,-0.209743
8399,-0.193359,0,-5.6377,-0.0016534,-0.001319,-0.00293617,0.0127304,-0.0234603,-0.096641,-4.02128,0.0948125,-0.195364,0.451212,0.192935,0.331405,0.141374,-0.096641,0,0,244,34,244,34,359,19,258,141,-0.0718598,-0.349343,0,-1.5,3.30785e-38,0,0,0,0.451212,0.192935,0,0,0,0,0.331405,0.141374,15738,0,0,0,0,0,0,0,0,0,1,-0.212228
8415,-0.193359,0,6.19238,-0.00359994,0.000423381,-0.00168939,0.012701,-0.0234326,-0.0967228,-4.02128,0.0948125,-0.195364,0.45686,0.195344,0.332683,0.141906,-0.0966958,0,0,244,34,244,34,359,19,258,141,-0.0726728,-0.349106,0,-1.5,3.30785e-38,0,0,0,0.45686,0.195344,0,0,0,0,0.332683,0.141906,15738,0,0,0,0,0,0,0,0,0,1,-0.214878
8431,-0.193359,0,3.55469,-0.00236464,-0.00132621,-0.00169457,0.0126987,-0.0234354,-0.0967501,-4.0247,0.0875866,-0.194301,0.462195,0.197619,0.333873,0.1424,-0.0967228,0,0,244,34,244,34,359,19,260,141,-0.0734426,-0.348884,0,-1.5,3.30785e-38,0,0,0,0.462195,0.197619,0,0,0,0,0.333873,0.1424,15860,0,0,0,0,0,0,0,0,0,1,-0.217381
8447,-0.193359,0,-2.65918,-0.00145266,-0.000616169,-0.00224305,0.0127056,-0.0234358,-0.0967834,-4.0247,0.0875866,-0.194301,0.46755,0.199903,0.335053,0.142888,-0.0967834,0,0,244,34,244,34,359,19,260,141,-0.0742071,-0.348667,0,-1.5,3.30785e-38,0,0,0,0.46755,0.199903,0,0,0,0,0.335053,0.142888,15860,0,0,0,0,0,0,0,0,0,1,-0.219893
8464,-0.193359,0,-4.36328,-0.00104338,-0.000507604,-0.00128125,0.012702,-0.0234294,-0.096797,-4.02583,0.0879007,-0.191315,0.473259,0.202338,0.336297,0.143404,-0.096797,0,0,244,34,244,34,359,19,260,142,-0.0750295,-0.348436,0,-1.5,3.30785e-38,0,0,0,0.473259,0.202338,0,0,0,0,0.336297,0.143404,15990,0,0,0,0,0,0,0,0,0,1,-0.222572
8480,-0.193359,0,-5.21875,-0.000982461,0.000900185,-0.0027821,0.012701,-0.0234068,-0.0968317,-4.02583,0.0879007,-0.191315,0.478652,0.204637,0.337455,0.143884,-0.0968317,0,0,244,34,244,34,359,19,260,142,-0.0758005,-0.348223,0,-1.5,3.30785e-38,0,0,0,0.478652,0.204637,0,0,0,0,0.337455,0.143884,15990,0,0,0,0,0,0,0,0,0,1,-0.225101
8496,-0.193359,0,-5.21875,-0.000982461,0.000900185,-0.0027821,0.012701,-0.0234068,-0.0968317,-4.03642,0.0884709,-0.187392,0.484064,0.206944,0.338602,0.144361,-0.0968317,0,0,244,36,244,36,359,18,260,141,-0.0765784,-0.348011,0,-1.5,3.30785e-38,0,0,0,0.484064,0.206944,0,0,0,0,0.338602,0.144361,15990,0,0,0,0,0,0,0,0,0,1,-0.227639
8512,-0.193359,0,4.07227,-0.00170703,-0.000597245,-0.00258308,0.0127102,-0.0233996,-0.0969073,-4.03642,0.0884709,-0.187392,0.489493,0.209259,0.33974,0.144835,-0.0968722,0,0,244,36,244,36,359,18,260,141,-0.0773503,-0.347804,0,-1.5,3.30785e-38,0,0,0,0.489493,0.209259,0,0,0,0,0.33974,0.144835,15990,0,0,0,0,0,0,0,0,0,1,-0.230185
8528,-0.193359,0,-5.40625,-0.00131135,-0.000390049,-0.00136206,0.0127229,-0.0233976,-0.096926,-4.00976,0.0924534,-0.19677,0.494941,0.211581,0.340868,0.145306,-0.0969073,0,0,244,34,244,34,359,19,258,142,-0.0781242,-0.347599,0,-1.5,3.30785e-38,0,0,0,0.494941,0.211581,0,0,0,0,0.340868,0.145306,15990,0,0,0,0,0,0,0,0,0,1,-0.23274
8544,-0.193359,0,6.30176,-0.00178793,-0.000184523,-0.00153708,0.012725,-0.0233802,-0.0969546,-4.00976,0.0924534,-0.19677,0.500406,0.213911,0.341986,0.145775,-0.0969546,0,0,244,34,244,34,359,19,258,142,-0.0788975,-0.347398,0,-1.5,3.30785e-38,0,0,0,0.500406,0.213911,0,0,0,0,0.341986,0.145775,15990,0,0,0,0,0,0,0,0,0,1,-0.235302
8559,-0.193359,0,6.30176,-0.00178793,-0.000184523,-0.00153708,0.012725,-0.0233802,-0.0969546,-4.0363,0.0884412,-0.192102,0.505546,0.216102,0.343025,0.146211,-0.0969546,0,0,244,36,244,36,359,19,260,142,-0.0796309,-0.347208,0,-1.5,3.30785e-38,0,0,0,0.505546,0.216102,0,0,0,0,0.343025,0.146211,15990,0,0,0,0,0,0,0,0,0,1,-0.237712
8574,-0.193359,0,4.0166,-0.00183758,-0.00232483,-0.00173254,0.012755,-0.0233883,-0.0970216,-4.0363,0.0884412,-0.192102,0.510701,0.218299,0.344056,0.146646,-0.0970216,0,0,244,36,244,36,359,19,260,142,-0.0803538,-0.347026,0,-1.5,3.30785e-38,0,0,0,0.510701,0.218299,0,0,0,0,0.344056,0.146646,15990,0,0,0,0,0,0,0,0,0,1,-0.240129
8590,-0.193359,0,6.64746,-0.00164662,-0.00107527,-0.00204747,0.0127464,-0.0233894,-0.0970569,-4.03013,0.0876712,-0.184639,0.516218,0.220651,0.345148,0.147108,-0.0970569,0,0,244,33,244,33,359,19,260,141,-0.0811327,-0.346831,0,-1.5,3.30785e-38,0,0,0,0.516218,0.220651,0,0,0,0,0.345148,0.147108,15860,0,0,0,0,0,0,0,0,0,1,-0.242716
8606,-0.193359,0,6.50879,-0.00261184,-0.000484329,-0.00161236,0.0127345,-0.0233816,-0.0970857,-4.03013,0.0876712,-0.184639,0.521752,0.223009,0.346232,0.147565,-0.0970857,0,0,244,33,244,33,359,19,260,141,-0.0819133,-0.346637,0,-1.5,3.30785e-38,0,0,0,0.521752,0.223009,0,0,0,0,0.346232,0.147565,15860,0,0,0,0,0,0,0,0,0,1,-0.24531
8623,-0.193359,0,-5.37305,-0.00259832,-0.000260752,-0.00228894,0.0127244,-0.0233689,-0.0971165,-4.03563,0.0879506,-0.18502,0.52765,0.225523,0.347372,0.148045,-0.0971165,0,0,244,34,244,34,359,19,260,141,-0.082743,-0.346435,0,-1.5,3.30785e-38,0,0,0,0.52765,0.225523,0,0,0,0,0.347372,0.148045,15860,0,0,0,0,0,0,0,0,0,1,-0.248075
8638,-0.193359,0,3.0918,-0.000443594,-0.000118137,-0.00219055,0.0127275,-0.0233559,-0.0971659,-4.03563,0.0879506,-0.18502,0.53287,0.227748,0.348369,0.148464,-0.0971165,0,0,244,34,244,34,359,19,260,141,-0.0834804,-0.346256,0,-1.5,3.30785e-38,0,0,0,0.53287,0.227748,0,0,0,0,0.348369,0.148464,15860,0,0,0,0,0,0,0,0,0,1,-0.250523
8655,-0.193359,0,3.0918,-0.000443594,-0.000118137,-0.00219055,0.0127275,-0.0233559,-0.0971659,-4.01491,0.0874915,-0.19511,0.538805,0.230277,0.349487,0.148935,-0.0971659,0,0,244,34,244,34,359,18,260,141,-0.0843086,-0.346061,0,-1.5,3.30785e-38,0,0,0,0.538805,0.230277,0,0,0,0,0.349487,0.148935,15990,0,0,0,0,0,0,0,0,0,1,-0.253305
8671,-0.193359,0,5.15918,-0.00196583,-0.00087297,-0.00164359,0.0127219,-0.0233403,-0.0972124,-4.01491,0.0874915,-0.19511,0.544407,0.232664,0.350531,0.149375,-0.0972124,0,0,244,34,244,34,359,18,260,141,-0.0850889,-0.34588,0,-1.5,3.30785e-38,0,0,0,0.544407,0.232664,0,0,0,0,0.350531,0.149375,15990,0,0,0,0,0,0,0,0,0,1,-0.255931
8687,-0.193359,0,1.29004,-0.00099653,-0.000558427,-0.00263537,0.0127271,-0.0233363,-0.0972447,-3.99801,0.0945709,-0.200677,0.550027,0.235059,0.351564,0.149812,-0.0972447,0,0,243,34,243,34,359,19,258,142,-0.0858723,-0.3457,0,-1.5,3.30785e-38,0,0,0,0.550027,0.235059,0,0,0,0,0.351564,0.149812,16113,0,0,0,0,0,0,0,0,0,1,-0.258565
8703,-0.193359,0,0.0224609,-0.00240925,-0.000890867,-0.00154416,0.0127113,-0.0233381,-0.0972694,-3.99801,0.0945709,-0.200677,0.555662,0.23746,0.352589,0.150244,-0.0972694,0,0,243,34,243,34,359,19,258,142,-0.0866578,-0.345522,0,-1.5,3.30785e-38,0,0,0,0.555662,0.23746,0,0,0,0,0.352589,0.150244,16113,0,0,0,0,0,0,0,0,0,1,-0.261206
8719,-0.193359,0,1.46484,-0.000968424,-0.000159303,-0.00122292,0.0127183,-0.0233268,-0.0972882,-4.02563,0.0878804,-0.190936,0.561314,0.239869,0.353605,0.150671,-0.0972882,0,0,244,34,244,34,359,19,260,142,-0.0874448,-0.345345,0,-1.5,3.30785e-38,0,0,0,0.561314,0.239869,0,0,0,0,0.353605,0.150671,15990,0,0,0,0,0,0,0,0,0,1,-0.263855
8735,-0.193359,0,-3.65527,-0.00136209,-0.000187747,-0.00254737,0.0126988,-0.0233041,-0.0973457,-4.02563,0.0878804,-0.190936,0.566982,0.242284,0.354611,0.151096,-0.0972882,0,0,244,34,244,34,359,19,260,142,-0.088236,-0.34517,0,-1.5,3.30785e-38,0,0,0,0.566982,0.242284,0,0,0,0,0.354611,0.151096,15990,0,0,0,0,0,0,0,0,0,1,-0.266512
8752,-0.193359,0,5.42773,-0.002304,0.000437286,-0.00192637,0.0126944,-0.0232883,-0.0973685,-4.01935,0.0925392,-0.190444,0.573022,0.244857,0.355668,0.151541,-0.0973685,0,0,244,34,244,34,359,19,258,141,-0.0890629,-0.344994,0,-1.5,3.30785e-38,0,0,0,0.573022,0.244857,0,0,0,0,0.355668,0.151541,15860,0,0,0,0,0,0,0,0,0,1,-0.269343
8766,-0.193359,0,5.84961,-0.00127609,-0.00047633,-0.00198783,0.0127019,-0.0232869,-0.0973963,-4.01935,0.0925392,-0.190444,0.578009,0.246982,0.356529,0.151904,-0.0973963,0,0,244,34,244,34,359,19,258,141,-0.089751,-0.344847,0,-1.5,3.30785e-38,0,0,0,0.578009,0.246982,0,0,0,0,0.356529,0.151904,15860,0,0,0,0,0,0,0,0,0,1,-0.27168
8782,-0.193359,0,7.32129,-0.00143849,-3.2747e-05,-0.000864376,0.0127069,-0.0232672,-0.0974119,-4.04302,0.0878313,-0.184619,0.583724,0.249417,0.357505,0.152317,-0.0974119,0,0,245,33,245,33,359,19,260,141,-0.0905412,-0.344681,0,-1.5,3.30785e-38,0,0,0,0.583724,0.249417,0,0,0,0,0.357505,0.152317,15616,0,0,0,0,0,0,0,0,0,1,-0.274358
8798,-0.193359,0,-0.354492,-0.00118478,0.000921397,-0.000666459,0.0127063,-0.0232508,-0.0974231,-4.04302,0.0878313,-0.184619,0.589453,0.251858,0.358471,0.152727,-0.0974231,0,0,245,33,245,33,359,19,260,141,-0.0913331,-0.344517,0,-1.5,3.30785e-38,0,0,0,0.589453,0.251858,0,0,0,0,0.358471,0.152727,15616,0,0,0,0,0,0,0,0,0,1,-0.277044
8814,-0.193359,0,-4.73145,-0.00270401,7.1067e-05,-0.00294424,0.0127033,-0.0232432,-0.0974595,-4.04302,0.0878313,-0.184619,0.595199,0.254306,0.359426,0.153135,-0.0974595,0,0,245,33,245,33,359,19,260,141,-0.0921214,-0.344358,0,-1.5,3.30785e-38,0,0,0,0.595199,0.254306,0,0,0,0,0.359426,0.153135,15616,0,0,0,0,0,0,0,0,0,1,-0.279736
8830,-0.193359,0,-5.60547,-0.00163205,0.000290344,-0.00244407,0.0127131,-0.0232225,-0.0975264,-4.02709,0.0901949,-0.195032,0.60096,0.25676,0.360374,0.153538,-0.0974595,0,0,244,34,244,34,359,19,260,142,-0.0929166,-0.344198,0,-1.5,3.30785e-38,0,0,0,0.60096,0.25676,0,0,0,0,0.360374,0.153538,15867,0,0,0,0,0,0,0,0,0,1,-0.282436
8847,-0.193359,0,-2.76758,-0.00172932,-0.00103183,-0.00182161,0.0127147,-0.0232246,-0.0975573,-4.02709,0.0901949,-0.195032,0.606736,0.259221,0.361312,0.153939,-0.0975264,0,0,244,34,244,34,359,19,260,142,-0.0937015,-0.344046,0,-1.5,3.30785e-38,0,0,0,0.606736,0.259221,0,0,0,0,0.361312,0.153939,15867,0,0,0,0,0,0,0,0,0,1,-0.285143
8862,-0.193359,0,-2.76758,-0.00172932,-0.00103183,-0.00182161,0.0127147,-0.0232246,-0.0975573,-4.03528,0.0879833,-0.184411,0.612526,0.261688,0.362242,0.154338,-0.0975573,0,0,244,34,244,34,359,19,260,141,-0.0944934,-0.343894,0,-1.5,3.30785e-38,0,0,0,0.612526,0.261688,0,0,0,0,0.362242,0.154338,15860,0,0,0,0,0,0,0,0,0,1,-0.287857
8970,-0.193359,0,0.601562,-0.00300462,-0.00130706,-0.00180803,0.0127116,-0.0231823,-0.0977758,-4.04578,0.0885589,-0.185377,0.652275,0.278625,0.368444,0.156992,-0.0976562,0,0,244,36,244,36,359,19,260,141,-0.0999237,-0.342879,0,-1.5,3.30785e-38,0,0,0,0.652275,0.278625,0,0,0,0,0.368444,0.156992,15860,0,0,0,0,0,0,0,0,0,1,-0.306488
9101,-0.193359,0,0.0869141,-0.00241854,-0.00209672,-0.00125071,0.0126459,-0.0231132,-0.0980092,-4.04788,0.0906726,-0.179723,0.701036,0.299407,0.375474,0.160023,-0.0980092,0,0,244,34,244,34,359,19,260,141,-0.106478,-0.341798,0,-1.5,3.30785e-38,0,0,0,0.701036,0.299407,0,0,0,0,0.375474,0.160023,15738,0,0,0,0,0,0,0,0,0,1,-0.329348
9120,-0.193359,0,-3.89258,-0.00174624,0.000366079,-0.00261351,0.0126524,-0.0231097,-0.0980508,-4.02393,0.087717,-0.192986,0.708559,0.302613,0.376473,0.160447,-0.0980204,0,0,244,34,244,34,359,19,260,141,-0.107483,-0.341647,0,-1.5,3.30785e-38,0,0,0,0.708559,0.302613,0,0,0,0,0.376473,0.160447,15860,0,0,0,0,0,0,0,0,0,1,-0.332875
9141,-0.193359,0,5.15527,-0.00186208,-0.00100338,-0.00214225,0.0126388,-0.0231042,-0.0980756,-4.02393,0.087717,-0.192986,0.71648,0.305989,0.377512,0.160888,-0.0980756,0,0,244,34,244,34,359,19,260,141,-0.108533,-0.341497,0,-1.5,3.30785e-38,0,0,0,0.71648,0.305989,0,0,0,0,0.377512,0.160888,15860,0,0,0,0,0,0,0,0,0,1,-0.336588
9164,-0.193359,0,-1.97461,-0.00275039,-0.000565181,-0.00262039,0.0126327,-0.023101,-0.0981586,-4.03648,0.0903871,-0.1885,0.724802,0.309536,0.378586,0.161343,-0.0980756,0,0,244,34,244,34,359,19,260,141,-0.109643,-0.341336,0,-1.5,3.30785e-38,0,0,0,0.724802,0.309536,0,0,0,0,0.378586,0.161343,15738,0,0,0,0,0,0,0,0,0,1,-0.340489
9178,-0.193359,0,-3.59277,-0.000710152,-0.00120138,-0.00242713,0.0126395,-0.0231065,-0.0981827,-4.03648,0.0903871,-0.1885,0.730488,0.311959,0.37931,0.16165,-0.0981586,0,0,244,34,244,34,359,19,260,141,-0.110386,-0.341238,0,-1.5,3.30785e-38,0,0,0,0.730488,0.311959,0,0,0,0,0.37931,0.16165,15738,0,0,0,0,0,0,0,0,0,1,-0.343155
9193,-0.193359,0,-3.59277,-0.000710152,-0.00120138,-0.00242713,0.0126395,-0.0231065,-0.0981827,-4.03053,0.0902237,-0.193096,0.736185,0.314387,0.38003,0.161954,-0.0981827,0,0,244,34,244,34,359,19,260,141,-0.11114,-0.341134,0,-1.5,3.30785e-38,0,0,0,0.736185,0.314387,0,0,0,0,0.38003,0.161954,15738,0,0,0,0,0,0,0,0,0,1,-0.345825
9209,-0.193359,0,5.13867,-0.00316224,-0.000781192,-0.0022453,0.0126299,-0.0230979,-0.0982432,-4.03053,0.0902237,-0.193096,0.742273,0.316981,0.380792,0.162277,-0.0982432,0,0,244,34,244,34,359,19,260,141,-0.111939,-0.341029,0,-1.5,3.30785e-38,0,0,0,0.742273,0.316981,0,0,0,0,0.380792,0.162277,15738,0,0,0,0,0,0,0,0,0,1,-0.348679
9226,-0.193359,0,5.13867,-0.00316224,-0.000781192,-0.0022453,0.0126299,-0.0230979,-0.0982432,-4.0205,0.0949653,-0.19404,0.748374,0.319581,0.381546,0.162595,-0.0982432,0,0,244,34,244,34,359,19,258,141,-0.112748,-0.34092,0,-1.5,3.30785e-38,0,0,0,0.748374,0.319581,0,0,0,0,0.381546,0.162595,15738,0,0,0,0,0,0,0,0,0,1,-0.351539
9242,-0.193359,0,-6.7959,-0.00144159,-0.000412534,-0.00143452,0.0126323,-0.0230995,-0.0982836,-4.0205,0.0949653,-0.19404,0.754869,0.322349,0.382342,0.162931,-0.0982836,0,0,244,34,244,34,359,19,258,141,-0.113602,-0.340809,0,-1.5,3.30785e-38,0,0,0,0.754869,0.322349,0,0,0,0,0.382342,0.162931,15738,0,0,0,0,0,0,0,0,0,1,-0.354584
9258,-0.193359,0,-3.06152,-0.00108607,5.16529e-05,-0.00241271,0.0126375,-0.0230839,-0.0983362,-4.03498,0.0881136,-0.183952,0.760994,0.324959,0.383084,0.163244,-0.0982836,0,0,244,34,244,34,359,19,260,141,-0.114413,-0.340703,0,-1.5,3.30785e-38,0,0,0,0.760994,0.324959,0,0,0,0,0.383084,0.163244,15860,0,0,0,0,0,0,0,0,0,1,-0.357455
9274,-0.193359,0,-5.62012,-0.00135522,-0.000305061,-0.00141569,0.0126463,-0.0230787,-0.098358,-4.03498,0.0881136,-0.183952,0.767131,0.327574,0.383819,0.163555,-0.0983362,0,0,244,34,244,34,359,19,260,141,-0.115215,-0.340604,0,-1.5,3.30785e-38,0,0,0,0.767131,0.327574,0,0,0,0,0.383819,0.163555,15860,0,0,0,0,0,0,0,0,0,1,-0.360331
