timestamp,A_x,A_y,A_z,P,Q,R,Phi,Theta,Psi,poseX,poseY,poseZ,state_X,state_Y,state_Z,state_VzB,state_Bx,state_By,state_Bz,p1_x,p1_y,p2_x,p2_y,p3_x,p3_y,p4_x,p4_y,roll,pitch,yaw,alt,targetHeading,highLevelState,lowLevelState,gateNumber,filtered_x,filtered_y,x_OT,y_OT,vx_OT,vy_OT,filtered_vx,filtered_vygateArearansac_corr_x,ransac_corr_y,ransac_corr_vx,ransac_corr_vy,detectionTimeStamppTermX,dTermX,pTermY,dTermY,vxcmd,vycmd
6147,-0.34375,0.0449219,-2.52637,9.65372e-05,0.000473442,-0.00166927,0.0422329,-0.0227619,-2.69738,0,0,0,-9.70962e-07,-2.01692e-05,-0.000181167,-0.00375099,-2.69714,0,0,0,0,0,0,0,0,0,0,0.106659,0.0517132,0,-1.5,6.58127e-38,0,0,0,-9.70962e-07,-2.01692e-05,0,0,0,0,-0.000181167,-0.00375099,1.9603e-19,0,0,0,0,0,0,0,0,0,1,2.21862e-05
6161,-0.250977,0.0839844,-5.66406,0.000457516,-0.000312067,-0.000913858,0.0423459,-0.0227401,-2.69803,0,0,0,-6.88705e-06,-0.000140915,-0.000527384,-0.0107575,-2.69774,0,0,0,0,0,0,0,0,0,0,0.104948,0.0526223,0,-1.5,6.58127e-38,0,0,0,-6.88705e-06,-0.000140915,0,0,0,0,-0.000527384,-0.0107575,1.9603e-19,0,0,0,0,0,0,0,0,0,1,0.000155007
6179,-0.280273,0.163086,3.61328,-0.000124279,0.000517582,-0.000376414,0.0423654,-0.0227445,-2.6987,0,0,0,-2.11164e-05,-0.000430746,-0.000940327,-0.0191101,-2.69843,0,0,0,0,0,0,0,0,0,0,0.102879,0.0537168,0,-1.5,6.58127e-38,0,0,0,-2.11164e-05,-0.000430746,0,0,0,0,-0.000940327,-0.0191101,1.9603e-19,0,0,0,0,0,0,0,0,0,1,0.00047382
6197,-0.280273,0.00390625,-2.39453,9.79348e-05,0.000512776,-0.00141319,0.0424078,-0.0227343,-2.69926,0,0,0,-4.13765e-05,-0.000841884,-0.00132966,-0.0269395,-2.69908,0,0,0,0,0,0,0,0,0,0,0.100901,0.0547582,0,-1.5,6.58127e-38,0,0,0,-4.13765e-05,-0.000841884,0,0,0,0,-0.00132966,-0.0269395,1.9603e-19,0,0,0,0,0,0,0,0,0,1,0.000926072
6213,-0.280273,0.0371094,-7.13086,0.0011079,0.000276649,-0.00219537,0.0424251,-0.0227306,-2.69928,0,0,0,-6.83031e-05,-0.00138538,-0.00171995,-0.0347039,-2.69928,0,0,0,0,0,0,0,0,0,0,0.0990058,0.0557621,0,-1.5,6.58127e-38,0,0,0,-6.83031e-05,-0.00138538,0,0,0,0,-0.00171995,-0.0347039,1.9603e-19,0,0,0,0,0,0,0,0,0,1,0.00152392
6229,-0.280273,0.0703125,5.16406,0.000757637,-0.000271569,-0.000833961,0.0424387,-0.0227352,-2.69929,0,0,0,-9.94972e-05,-0.00201462,-0.00208009,-0.0419551,-2.69929,0,0,0,0,0,0,0,0,0,0,0.0972484,0.056694,0,-1.5,6.58127e-38,0,0,0,-9.94972e-05,-0.00201462,0,0,0,0,-0.00208009,-0.0419551,1.9603e-19,0,0,0,0,0,0,0,0,0,1,0.00221608
6244,-0.280273,0.103516,2.54004,0.000324242,-0.000513824,-0.000431941,0.0424463,-0.0227324,-2.6993,0,0,0,-0.000133939,-0.00270926,-0.00241468,-0.0487021,-2.6993,0,0,0,0,0,0,0,0,0,0,0.0955849,0.0575742,0,-1.5,6.58127e-38,0,0,0,-0.000133939,-0.00270926,0,0,0,0,-0.00241468,-0.0487021,1.9603e-19,0,0,0,0,0,0,0,0,0,1,0.00298018
6262,-0.280273,0.136719,-3.05664,-0.000774108,-0.000831084,-0.00118377,0.0424488,-0.0227429,-2.69931,0,0,0,-0.000182121,-0.00368112,-0.00281298,-0.0567355,-2.69931,0,0,0,0,0,0,0,0,0,0,0.0935684,0.0586392,0,-1.5,6.58127e-38,0,0,0,-0.000182121,-0.00368112,0,0,0,0,-0.00281298,-0.0567355,1.9603e-19,0,0,0,0,0,0,0,0,0,1,0.00404923
6278,-0.280273,0.189453,6.15918,-0.000969426,0.000122352,-0.00118645,0.0424496,-0.0227389,-2.69934,0,0,0,-0.000230717,-0.00466111,-0.0031646,-0.0638144,-2.69932,0,0,0,0,0,0,0,0,0,0,0.0917601,0.0595926,0,-1.5,6.58127e-38,0,0,0,-0.000230717,-0.00466111,0,0,0,0,-0.0031646,-0.0638144,1.9603e-19,0,0,0,0,0,0,0,0,0,1,0.00512722
6294,-0.280273,0.15625,-1.40723,0.00114174,-0.000530008,-1.97807e-05,0.0424597,-0.022736,-2.69934,0,0,0,-0.000284907,-0.00575379,-0.00351319,-0.0708367,-2.69934,0,0,0,0,0,0,0,0,0,0,0.0899355,0.0605528,0,-1.5,6.58127e-38,0,0,0,-0.000284907,-0.00575379,0,0,0,0,-0.00351319,-0.0708367,1.9603e-19,0,0,0,0,0,0,0,0,0,1,0.00632916
6318,-0.280273,0.0898438,-2.13086,-0.000167341,0.000103234,-0.00121928,0.0424588,-0.0227364,-2.69937,0,0,0,-0.000377333,-0.00761769,-0.00403005,-0.0812742,-2.69935,0,0,0,0,0,0,0,0,0,0,0.087166,0.0620069,0,-1.5,6.58127e-38,0,0,0,-0.000377333,-0.00761769,0,0,0,0,-0.00403005,-0.0812742,1.9603e-19,0,0,0,0,0,0,0,0,0,1,0.00837946
6344,-0.280273,0.0566406,0.416016,-0.000703676,0.000766718,-0.000170114,0.04246,-0.0227309,-2.69938,0,0,0,-0.000492653,-0.00994332,-0.00458401,-0.092453,-2.69938,0,0,0,0,0,0,0,0,0,0,0.084115,0.063604,0,-1.5,6.58127e-38,0,0,0,-0.000492653,-0.00994332,0,0,0,0,-0.00458401,-0.092453,1.9603e-19,0,0,0,0,0,0,0,0,0,1,0.0109377
6380,-0.280273,0.0751953,-7.13086,0.00022813,0.000206667,-0.000736788,0.0424614,-0.0227457,-2.69942,0,0,0,-0.000679197,-0.013707,-0.00533977,-0.107728,-2.69942,0,0,0,0,0,0,0,0,0,0,0.0797985,0.0658554,0,-1.5,6.58127e-38,0,0,0,-0.000679197,-0.013707,0,0,0,0,-0.00533977,-0.107728,1.9603e-19,0,0,0,0,0,0,0,0,0,1,0.0150777
6393,-0.280273,0.108398,5.15625,0.000109718,0.00033584,-0.000770798,0.0424667,-0.0227375,-2.69943,0,0,0,-0.000750796,-0.0151513,-0.00560937,-0.113153,-2.69943,0,0,0,0,0,0,0,0,0,0,0.0782406,0.0666673,0,-1.5,6.58127e-38,0,0,0,-0.000750796,-0.0151513,0,0,0,0,-0.00560937,-0.113153,1.9603e-19,0,0,0,0,0,0,0,0,0,1,0.0166665
6407,-0.280273,0.141602,2.55469,-1.84588e-05,-0.000950064,-0.00180118,0.0424805,-0.0227474,-2.69945,0,0,0,-0.000831878,-0.0167869,-0.00589707,-0.118957,-2.69945,0,0,0,0,0,0,0,0,0,0,0.0765479,0.0675474,0,-1.5,6.58127e-38,0,0,0,-0.000831878,-0.0167869,0,0,0,0,-0.00589707,-0.118957,1.9603e-19,0,0,0,0,0,0,0,0,0,1,0.0184656
6421,-0.280273,0.174805,-3.05078,-0.000957233,0.000604026,4.02219e-06,0.0424782,-0.0227385,-2.69946,0,0,0,-0.000916911,-0.0185022,-0.0061828,-0.124722,-2.69946,0,0,0,0,0,0,0,0,0,0,0.0748478,0.0684309,0,-1.5,6.58127e-38,0,0,0,-0.000916911,-0.0185022,0,0,0,0,-0.0061828,-0.124722,1.9603e-19,0,0,0,0,0,0,0,0,0,1,0.0203524
6433,-0.280273,0.167969,-0.850586,-0.00104048,0.000365243,-0.00114922,0.0424796,-0.0227382,-2.69947,0,0,0,-0.000992887,-0.0200349,-0.00642557,-0.12963,-2.69947,0,0,0,0,0,0,0,0,0,0,0.0733808,0.069192,0,-1.5,6.58127e-38,0,0,0,-0.000992887,-0.0200349,0,0,0,0,-0.00642557,-0.12963,1.9603e-19,0,0,0,0,0,0,0,0,0,1,0.0220384
6449,-0.280273,0.134766,6.18066,0.000120015,0.00023998,0.000264702,0.0424895,-0.0227333,-2.69947,0,0,0,-0.00109908,-0.0221774,-0.00674682,-0.136132,-2.69947,0,0,0,0,0,0,0,0,0,0,0.0714143,0.070212,0,-1.5,6.58127e-38,0,0,0,-0.00109908,-0.0221774,0,0,0,0,-0.00674682,-0.136132,1.9603e-19,0,0,0,0,0,0,0,0,0,1,0.0243951
6466,-0.280273,0.101562,-1.40234,0.000159946,1.52219e-05,-0.000233295,0.0424878,-0.0227297,-2.69949,0,0,0,-0.00121749,-0.0245671,-0.00708414,-0.142985,-2.69949,0,0,0,0,0,0,0,0,0,0,0.0693032,0.0713037,0,-1.5,6.58127e-38,0,0,0,-0.00121749,-0.0245671,0,0,0,0,-0.00708414,-0.142985,1.9603e-19,0,0,0,0,0,0,0,0,0,1,0.0270238
6482,-0.280273,0.101562,-1.40234,0.000159946,1.52219e-05,-0.000233295,0.0424878,-0.0227297,-2.69949,0,0,0,-0.00133405,-0.0269201,-0.0073988,-0.14938,-2.69949,0,0,0,0,0,0,0,0,0,0,0.0673069,0.0723357,0,-1.5,6.58127e-38,0,0,0,-0.00133405,-0.0269201,0,0,0,0,-0.0073988,-0.14938,1.9603e-19,0,0,0,0,0,0,0,0,0,1,0.0296121
6498,-0.280273,0.101562,-1.40234,0.000159946,1.52219e-05,-0.000233295,0.0424878,-0.0227297,-2.69949,0,0,0,-0.00145561,-0.0293749,-0.00771095,-0.155725,-2.69949,0,0,0,0,0,0,0,0,0,0,0.0652965,0.0733737,0,-1.5,6.58127e-38,0,0,0,-0.00145561,-0.0293749,0,0,0,0,-0.00771095,-0.155725,1.9603e-19,0,0,0,0,0,0,0,0,0,1,0.0323124
6514,-0.280273,0.0771484,5.52734,-0.000775981,-0.000215961,-0.000930018,0.0424999,-0.0227445,-2.69954,0,0,0,-0.00158215,-0.0319307,-0.00802061,-0.162018,-2.69949,0,0,0,0,0,0,0,0,0,0,0.0632723,0.0744175,0,-1.5,6.58127e-38,0,0,0,-0.00158215,-0.0319307,0,0,0,0,-0.00802061,-0.162018,1.9603e-19,0,0,0,0,0,0,0,0,0,1,0.0351238
6530,-0.280273,0.110352,-2.41699,0.000449789,2.07831e-05,-0.0011686,0.0425055,-0.0227498,-2.69955,0,0,0,-0.00171373,-0.0345887,-0.00832962,-0.168265,-2.69955,0,0,0,0,0,0,0,0,0,0,0.0612159,0.0754725,0,-1.5,6.58127e-38,0,0,0,-0.00171373,-0.0345887,0,0,0,0,-0.00832962,-0.168265,1.9603e-19,0,0,0,0,0,0,0,0,0,1,0.0380476
6546,-0.280273,0.143555,-7.12695,-0.00146445,0.000444686,-0.000605432,0.042491,-0.0227414,-2.69956,0,0,0,-0.00185013,-0.0373442,-0.00863645,-0.174462,-2.69956,0,0,0,0,0,0,0,0,0,0,0.0591626,0.0765289,0,-1.5,6.58127e-38,0,0,0,-0.00185013,-0.0373442,0,0,0,0,-0.00863645,-0.174462,1.9603e-19,0,0,0,0,0,0,0,0,0,1,0.0410786
6562,-0.280273,0.176758,5.13672,0.000364528,0.000340095,0.000564568,0.0425012,-0.0227437,-2.69956,0,0,0,-0.00199142,-0.0401983,-0.00894056,-0.180608,-2.69956,0,0,0,0,0,0,0,0,0,0,0.0570964,0.0775908,0,-1.5,6.58127e-38,0,0,0,-0.00199142,-0.0401983,0,0,0,0,-0.00894056,-0.180608,1.9603e-19,0,0,0,0,0,0,0,0,0,1,0.0442181
6578,-0.280273,0.199219,2.56543,-0.000335617,-0.000532779,-0.000729461,0.0425074,-0.0227492,-2.69957,0,0,0,-0.00213764,-0.0431522,-0.00924225,-0.186707,-2.69957,0,0,0,0,0,0,0,0,0,0,0.0550141,0.0786592,0,-1.5,6.58127e-38,0,0,0,-0.00213764,-0.0431522,0,0,0,0,-0.00924225,-0.186707,1.9603e-19,0,0,0,0,0,0,0,0,0,1,0.0474674
6594,-0.280273,0.169922,-3.04199,-0.000328519,7.94927e-05,-0.000955311,0.0425107,-0.0227523,-2.69958,0,0,0,-0.00228857,-0.0462012,-0.00954191,-0.192758,-2.69958,0,0,0,0,0,0,0,0,0,0,0.0529166,0.0797335,0,-1.5,6.58127e-38,0,0,0,-0.00228857,-0.0462012,0,0,0,0,-0.00954191,-0.192758,1.9603e-19,0,0,0,0,0,0,0,0,0,1,0.0508213
6610,-0.280273,0.103516,6.1543,-0.000926115,-0.000316086,-0.00142935,0.0424992,-0.0227444,-2.6996,0,0,0,-0.0024344,-0.0491471,-0.00982084,-0.198387,-2.69958,0,0,0,0,0,0,0,0,0,0,0.0509421,0.0807451,0,-1.5,6.58127e-38,0,0,0,-0.0024344,-0.0491471,0,0,0,0,-0.00982084,-0.198387,1.9603e-19,0,0,0,0,0,0,0,0,0,1,0.0540618
6626,-0.280273,0.0703125,-1.36328,-0.0013671,0.000188143,8.62597e-05,0.0424892,-0.0227504,-2.6996,0,0,0,-0.00260492,-0.0525917,-0.0101346,-0.204717,-2.6996,0,0,0,0,0,0,0,0,0,0,0.0486856,0.0818987,0,-1.5,6.58127e-38,0,0,0,-0.00260492,-0.0525917,0,0,0,0,-0.0101346,-0.204717,1.9603e-19,0,0,0,0,0,0,0,0,0,1,0.0578508
6642,-0.280273,0.0371094,-2.34082,0.00010083,0.000487432,-0.000573463,0.0424856,-0.0227487,-2.69962,0,0,0,-0.00277007,-0.0559274,-0.0104287,-0.210621,-2.69962,0,0,0,0,0,0,0,0,0,0,0.0465489,0.0829898,0,-1.5,6.58127e-38,0,0,0,-0.00277007,-0.0559274,0,0,0,0,-0.0104287,-0.210621,1.9603e-19,0,0,0,0,0,0,0,0,0,1,0.0615201
6658,-0.280273,0.0166016,-2.13965,-0.000588796,-0.000230678,-2.31988e-05,0.04248,-0.0227504,-2.69962,0,0,0,-0.00294,-0.0593589,-0.0107207,-0.216479,-2.69962,0,0,0,0,0,0,0,0,0,0,0.0444039,0.0840857,0,-1.5,6.58127e-38,0,0,0,-0.00294,-0.0593589,0,0,0,0,-0.0107207,-0.216479,1.9603e-19,0,0,0,0,0,0,0,0,0,1,0.0652948
6674,-0.280273,0.0742188,0.394531,-0.0020246,0.000267257,-4.67435e-05,0.0424725,-0.0227561,-2.69962,0,0,0,-0.00311459,-0.0628837,-0.0110114,-0.222289,-2.69962,0,0,0,0,0,0,0,0,0,0,0.0422443,0.0851875,0,-1.5,6.58127e-38,0,0,0,-0.00311459,-0.0628837,0,0,0,0,-0.0110114,-0.222289,1.9603e-19,0,0,0,0,0,0,0,0,0,1,0.0691721
6690,-0.280273,0.140625,5.5498,-0.00141104,0.000284897,0.00024253,0.0424609,-0.0227582,-2.69962,0,0,0,-0.00329372,-0.0664991,-0.0113009,-0.22805,-2.69962,0,0,0,0,0,0,0,0,0,0,0.0400745,0.0862943,0,-1.5,6.58127e-38,0,0,0,-0.00329372,-0.0664991,0,0,0,0,-0.0113009,-0.22805,1.9603e-19,0,0,0,0,0,0,0,0,0,1,0.073149
6706,-0.280273,0.1875,-7.13281,-8.96481e-05,-6.41795e-05,-6.95112e-05,0.0424505,-0.022746,-2.69962,0,0,0,-0.00347747,-0.0702062,-0.0115882,-0.233764,-2.69963,0,0,0,0,0,0,0,0,0,0,0.0378911,0.0874065,0,-1.5,6.58127e-38,0,0,0,-0.00347747,-0.0702062,0,0,0,0,-0.0115882,-0.233764,1.9603e-19,0,0,0,0,0,0,0,0,0,1,0.0772268
6722,-0.280273,0.154297,5.14453,-0.00129503,0.00095819,-0.00010087,0.0424368,-0.0227404,-2.69963,0,0,0,-0.00366587,-0.0740061,-0.0118727,-0.239432,-2.69962,0,0,0,0,0,0,0,0,0,0,0.0356971,0.0885236,0,-1.5,6.58127e-38,0,0,0,-0.00366587,-0.0740061,0,0,0,0,-0.0118727,-0.239432,1.9603e-19,0,0,0,0,0,0,0,0,0,1,0.0814067
6738,-0.280273,0.121094,2.53613,-0.00101952,-0.000601306,-0.00120038,0.0424314,-0.022749,-2.69965,0,0,0,-0.00385872,-0.0778943,-0.0121554,-0.245052,-2.69965,0,0,0,0,0,0,0,0,0,0,0.0334851,0.0896465,0,-1.5,6.58127e-38,0,0,0,-0.00385872,-0.0778943,0,0,0,0,-0.0121554,-0.245052,1.9603e-19,0,0,0,0,0,0,0,0,0,1,0.0856837
6755,-0.280273,0.0878906,-3.02637,0.000670429,-0.000301238,-0.00108582,0.0424453,-0.0227481,-2.69966,0,0,0,-0.00406866,-0.0821254,-0.0124545,-0.250975,-2.69966,0,0,0,0,0,0,0,0,0,0,0.0311234,0.0908455,0,-1.5,6.58127e-38,0,0,0,-0.00406866,-0.0821254,0,0,0,0,-0.0124545,-0.250975,1.9603e-19,0,0,0,0,0,0,0,0,0,1,0.090338
6770,-0.280273,0.0878906,-3.02637,0.000670429,-0.000301238,-0.00108582,0.0424453,-0.0227481,-2.69966,0,0,0,-0.004258,-0.0859402,-0.0127157,-0.256159,-2.69966,0,0,0,0,0,0,0,0,0,0,0.0290314,0.0919075,0,-1.5,6.58127e-38,0,0,0,-0.004258,-0.0859402,0,0,0,0,-0.0127157,-0.256159,1.9603e-19,0,0,0,0,0,0,0,0,0,1,0.0945343
6787,-0.280273,0.0556641,6.1416,0.000639691,0.000291002,-0.000748693,0.0424533,-0.0227523,-2.69969,0,0,0,-0.0044774,-0.0903592,-0.0130095,-0.26199,-2.69969,0,0,0,0,0,0,0,0,0,0,0.0266382,0.0931179,0,-1.5,6.58127e-38,0,0,0,-0.0044774,-0.0903592,0,0,0,0,-0.0130095,-0.26199,1.9603e-19,0,0,0,0,0,0,0,0,0,1,0.0993951
6802,-0.280273,0.0556641,-2.40137,-0.00142241,-0.000599981,0.000163649,0.0424445,-0.0227535,-2.69971,0,0,0,-0.00467497,-0.0943371,-0.0132668,-0.267093,-2.69969,0,0,0,0,0,0,0,0,0,0,0.0245237,0.0941895,0,-1.5,6.58127e-38,0,0,0,-0.00467497,-0.0943371,0,0,0,0,-0.0132668,-0.267093,1.9603e-19,0,0,0,0,0,0,0,0,0,1,0.103771
6818,-0.280273,0.0556641,-2.14648,0.000146983,-0.000291219,0.000537547,0.0424465,-0.0227637,-2.69972,0,0,0,-0.00487645,-0.0983925,-0.0135227,-0.272158,-2.69971,0,0,0,0,0,0,0,0,0,0,0.0223921,0.0952662,0,-1.5,6.58127e-38,0,0,0,-0.00487645,-0.0983925,0,0,0,0,-0.0135227,-0.272158,1.9603e-19,0,0,0,0,0,0,0,0,0,1,0.108232
6834,-0.280273,0.0556641,-2.14648,0.000146983,-0.000291219,0.000537547,0.0424465,-0.0227637,-2.69972,0,0,0,-0.00510952,-0.103082,-0.0138124,-0.277853,-2.69972,0,0,0,0,0,0,0,0,0,0,0.0199686,0.0964922,0,-1.5,6.58127e-38,0,0,0,-0.00510952,-0.103082,0,0,0,0,-0.0138124,-0.277853,1.9603e-19,0,0,0,0,0,0,0,0,0,1,0.11339
6850,-0.280273,0.0556641,5.55273,-1.11116e-05,-0.000156037,-0.00160073,0.0424543,-0.022753,-2.69975,0,0,0,-0.00533328,-0.107582,-0.0140822,-0.283169,-2.69975,0,0,0,0,0,0,0,0,0,0,0.0176705,0.0976512,0,-1.5,6.58127e-38,0,0,0,-0.00533328,-0.107582,0,0,0,0,-0.0140822,-0.283169,1.9603e-19,0,0,0,0,0,0,0,0,0,1,0.11834
6866,-0.280273,0.0556641,5.55273,-1.11116e-05,-0.000156037,-0.00160073,0.0424543,-0.022753,-2.69975,0,0,0,-0.00556131,-0.112166,-0.0143485,-0.288443,-2.69975,0,0,0,0,0,0,0,0,0,0,0.0153675,0.0988142,0,-1.5,6.58127e-38,0,0,0,-0.00556131,-0.112166,0,0,0,0,-0.0143485,-0.288443,1.9603e-19,0,0,0,0,0,0,0,0,0,1,0.123383
6882,-0.280273,0.0556641,-7.15723,-0.000451524,0.000926372,-0.00056988,0.0424661,-0.0227587,-2.69976,0,0,0,-0.00579358,-0.116835,-0.0146128,-0.293675,-2.69976,0,0,0,0,0,0,0,0,0,0,0.0130496,0.0999824,0,-1.5,6.58127e-38,0,0,0,-0.00579358,-0.116835,0,0,0,0,-0.0146128,-0.293675,1.9603e-19,0,0,0,0,0,0,0,0,0,1,0.128518
6898,-0.280273,0.0556641,2.54297,0.000378857,0.000299996,-0.00107513,0.0424661,-0.0227514,-2.69979,0,0,0,-0.00603006,-0.121587,-0.014875,-0.298867,-2.69976,0,0,0,0,0,0,0,0,0,0,0.010723,0.101155,0,-1.5,6.58127e-38,0,0,0,-0.00603006,-0.121587,0,0,0,0,-0.014875,-0.298867,1.9603e-19,0,0,0,0,0,0,0,0,0,1,0.133745
6914,-0.280273,0.0556641,-3.05762,-0.000356582,0.000459682,-0.000481921,0.0424724,-0.0227484,-2.69981,0,0,0,-0.00627072,-0.126421,-0.0151347,-0.304018,-2.69979,0,0,0,0,0,0,0,0,0,0,0.0083759,0.102334,0,-1.5,6.58127e-38,0,0,0,-0.00627072,-0.126421,0,0,0,0,-0.0151347,-0.304018,1.9603e-19,0,0,0,0,0,0,0,0,0,1,0.139063
6937,-0.280273,0.0556641,-3.22461,-0.00058448,-0.000125911,0.000799513,0.0424731,-0.022753,-2.69981,0,0,0,-0.006625,-0.133537,-0.0155036,-0.311361,-2.69981,0,0,0,0,0,0,0,0,0,0,0.00498062,0.104039,0,-1.5,6.58127e-38,0,0,0,-0.006625,-0.133537,0,0,0,0,-0.0155036,-0.311361,1.9603e-19,0,0,0,0,0,0,0,0,0,1,0.14689
6953,-0.280273,0.0556641,2.13477,-0.000110941,0.000425109,-0.000692999,0.0424749,-0.0227494,-2.69982,0,0,0,-0.00687565,-0.13857,-0.0157576,-0.316413,-2.69982,0,0,0,0,0,0,0,0,0,0,0.00261258,0.105228,0,-1.5,6.58127e-38,0,0,0,-0.00687565,-0.13857,0,0,0,0,-0.0157576,-0.316413,1.9603e-19,0,0,0,0,0,0,0,0,0,1,0.152427
6968,-0.280273,0.0556641,6.69336,-0.000876723,0.00103649,-0.000698856,0.0424689,-0.0227364,-2.69985,0,0,0,-0.0071143,-0.143362,-0.0159933,-0.321112,-2.69983,0,0,0,0,0,0,0,0,0,0,0.000380627,0.106347,0,-1.5,6.58127e-38,0,0,0,-0.0071143,-0.143362,0,0,0,0,-0.0159933,-0.321112,1.9603e-19,0,0,0,0,0,0,0,0,0,1,0.157698
6983,-0.280273,0.0556641,5.68359,-0.00025151,0.000307698,-0.00120032,0.0424689,-0.0227335,-2.69987,0,0,0,-0.00735646,-0.148223,-0.0162266,-0.325775,-2.69985,0,0,0,0,0,0,0,0,0,0,-0.00186019,0.107469,0,-1.5,6.58127e-38,0,0,0,-0.00735646,-0.148223,0,0,0,0,-0.0162266,-0.325775,1.9603e-19,0,0,0,0,0,0,0,0,0,1,0.163046
7000,-0.280273,0.0556641,6.79785,-0.000210815,0.000496398,-0.00157223,0.0424651,-0.0227224,-2.69989,0,0,0,-0.00763519,-0.153819,-0.0164883,-0.331018,-2.69989,0,0,0,0,0,0,0,0,0,0,-0.00441966,0.108747,0,-1.5,6.58127e-38,0,0,0,-0.00763519,-0.153819,0,0,0,0,-0.0164883,-0.331018,1.9603e-19,0,0,0,0,0,0,0,0,0,1,0.169201
7014,-0.280273,0.0556641,-4.55566,-0.000118026,-0.000936132,2.63621e-06,0.0424688,-0.0227349,-2.6999,0,0,0,-0.00786792,-0.158492,-0.0167013,-0.335299,-2.6999,0,0,0,0,0,0,0,0,0,0,-0.00652904,0.109802,0,-1.5,6.58127e-38,0,0,0,-0.00786792,-0.158492,0,0,0,0,-0.0167013,-0.335299,1.9603e-19,0,0,0,0,0,0,0,0,0,1,0.174341
7031,-0.280273,0.0556641,-4.55566,-0.000118026,-0.000936132,2.63621e-06,0.0424688,-0.0227349,-2.6999,0,0,0,-0.00813769,-0.163907,-0.0169443,-0.340159,-2.6999,0,0,0,0,0,0,0,0,0,0,-0.00894776,0.111012,0,-1.5,6.58127e-38,0,0,0,-0.00813769,-0.163907,0,0,0,0,-0.0169443,-0.340159,1.9603e-19,0,0,0,0,0,0,0,0,0,1,0.180298
7047,-0.280273,0.0556641,-4.55566,-0.000118026,-0.000936132,2.63621e-06,0.0424688,-0.0227349,-2.6999,0,0,0,-0.00841134,-0.169401,-0.0171855,-0.34498,-2.6999,0,0,0,0,0,0,0,0,0,0,-0.0113772,0.112228,0,-1.5,6.58127e-38,0,0,0,-0.00841134,-0.169401,0,0,0,0,-0.0171855,-0.34498,1.9603e-19,0,0,0,0,0,0,0,0,0,1,0.186341
7063,-0.280273,0.0556641,6.13086,0.000359099,0.00177596,-0.000205077,0.0424656,-0.0227054,-2.69993,0,0,0,-0.00870628,-0.175321,-0.017438,-0.350058,-2.69993,0,0,0,0,0,0,0,0,0,0,-0.0139807,0.113523,0,-1.5,6.58127e-38,0,0,0,-0.00870628,-0.175321,0,0,0,0,-0.017438,-0.350058,1.9603e-19,0,0,0,0,0,0,0,0,0,1,0.192853
7079,-0.280273,0.0556641,-3.98926,-0.0014916,-0.0010103,-0.00101375,0.0424377,-0.0227187,-2.69996,0,0,0,-0.00898768,-0.180971,-0.0176721,-0.354796,-2.69995,0,0,0,0,0,0,0,0,0,0,-0.0164358,0.114746,0,-1.5,6.58127e-38,0,0,0,-0.00898768,-0.180971,0,0,0,0,-0.0176721,-0.354796,1.9603e-19,0,0,0,0,0,0,0,0,0,1,0.199068
7095,-0.280273,0.0556641,-3.12598,-0.000494507,0.000551859,-0.001508,0.0424419,-0.0227101,-2.69998,0,0,0,-0.00927289,-0.186697,-0.0179064,-0.359495,-2.69996,0,0,0,0,0,0,0,0,0,0,-0.0188992,0.115974,0,-1.5,6.58127e-38,0,0,0,-0.00927289,-0.186697,0,0,0,0,-0.0179064,-0.359495,1.9603e-19,0,0,0,0,0,0,0,0,0,1,0.205366
7111,-0.280273,0.0556641,2.125,-0.000983979,-0.000138117,0.000484315,0.0424395,-0.0227194,-2.69998,0,0,0,-0.00956177,-0.192496,-0.0181392,-0.364156,-2.69998,0,0,0,0,0,0,0,0,0,0,-0.0213742,0.117206,0,-1.5,6.58127e-38,0,0,0,-0.00956177,-0.192496,0,0,0,0,-0.0181392,-0.364156,1.9603e-19,0,0,0,0,0,0,0,0,0,1,0.211746
7127,-0.280273,0.0556641,-5.99023,-0.000133581,7.97744e-05,-0.000658985,0.0424449,-0.0227197,-2.69998,0,0,0,-0.00985443,-0.198371,-0.0183711,-0.36878,-2.69998,0,0,0,0,0,0,0,0,0,0,-0.0238557,0.118443,0,-1.5,6.58127e-38,0,0,0,-0.00985443,-0.198371,0,0,0,0,-0.0183711,-0.36878,1.9603e-19,0,0,0,0,0,0,0,0,0,1,0.218208
7143,-0.280273,0.0556641,6.74414,-0.000788457,-0.000172277,-0.00120478,0.0424368,-0.0227197,-2.7,0,0,0,-0.0101508,-0.20432,-0.0186012,-0.373367,-2.7,0,0,0,0,0,0,0,0,0,0,-0.0263531,0.119684,0,-1.5,6.58127e-38,0,0,0,-0.0101508,-0.20432,0,0,0,0,-0.0186012,-0.373367,1.9603e-19,0,0,0,0,0,0,0,0,0,1,0.224752
7160,-0.280273,0.0556641,5.6875,0.000552263,7.55125e-05,-0.000971166,0.042446,-0.0227232,-2.70001,0,0,0,-0.0104697,-0.210721,-0.0188441,-0.378202,-2.70001,0,0,0,0,0,0,0,0,0,0,-0.029013,0.121007,0,-1.5,6.58127e-38,0,0,0,-0.0104697,-0.210721,0,0,0,0,-0.0188441,-0.378202,1.9603e-19,0,0,0,0,0,0,0,0,0,1,0.231793
7175,-0.280273,0.0556641,-4.50195,-0.00125609,-5.41838e-05,-0.000918402,0.0424341,-0.0227227,-2.70004,0,0,0,-0.0107544,-0.216435,-0.0190566,-0.382432,-2.70003,0,0,0,0,0,0,0,0,0,0,-0.031373,0.122178,0,-1.5,6.58127e-38,0,0,0,-0.0107544,-0.216435,0,0,0,0,-0.0190566,-0.382432,1.9603e-19,0,0,0,0,0,0,0,0,0,1,0.238078
7191,-0.280273,0.0556641,-4.50195,-0.00125609,-5.41838e-05,-0.000918402,0.0424341,-0.0227227,-2.70004,0,0,0,-0.0110617,-0.222601,-0.0192821,-0.38691,-2.70004,0,0,0,0,0,0,0,0,0,0,-0.0338989,0.123432,0,-1.5,6.58127e-38,0,0,0,-0.0110617,-0.222601,0,0,0,0,-0.0192821,-0.38691,1.9603e-19,0,0,0,0,0,0,0,0,0,1,0.244861
7208,-0.280273,0.0556641,-3.83008,0.000428283,0.000483614,-0.001015,0.0424394,-0.0227319,-2.70006,0,0,0,-0.0113921,-0.22923,-0.0195203,-0.391628,-2.70006,0,0,0,0,0,0,0,0,0,0,-0.0365927,0.124768,0,-1.5,6.58127e-38,0,0,0,-0.0113921,-0.22923,0,0,0,0,-0.0195203,-0.391628,1.9603e-19,0,0,0,0,0,0,0,0,0,1,0.252153
7223,-0.280273,0.0556641,6.13086,-0.000126293,9.87754e-05,-0.00120234,0.0424416,-0.0227408,-2.70007,0,0,0,-0.0116869,-0.235144,-0.01973,-0.395759,-2.70007,0,0,0,0,0,0,0,0,0,0,-0.038979,0.125951,0,-1.5,6.58127e-38,0,0,0,-0.0116869,-0.235144,0,0,0,0,-0.01973,-0.395759,1.9603e-19,0,0,0,0,0,0,0,0,0,1,0.258659
7239,-0.280273,0.0556641,2.09082,-0.000727879,6.03127e-05,-0.000749528,0.0424273,-0.0227452,-2.70008,0,0,0,-0.0120049,-0.241521,-0.0199535,-0.400132,-2.70008,0,0,0,0,0,0,0,0,0,0,-0.0415315,0.127218,0,-1.5,6.58127e-38,0,0,0,-0.0120049,-0.241521,0,0,0,0,-0.0199535,-0.400132,1.9603e-19,0,0,0,0,0,0,0,0,0,1,0.265673
7255,-0.280273,0.0556641,-4.01855,0.000128838,0.000411794,-0.000704076,0.0424316,-0.0227394,-2.70009,0,0,0,-0.0123265,-0.247969,-0.0201759,-0.404469,-2.70009,0,0,0,0,0,0,0,0,0,0,-0.0440923,0.128489,0,-1.5,6.58127e-38,0,0,0,-0.0123265,-0.247969,0,0,0,0,-0.0201759,-0.404469,1.9603e-19,0,0,0,0,0,0,0,0,0,1,0.272766
7271,-0.280273,0.0556641,2.15234,0.000390485,0.000127346,-0.000376109,0.0424323,-0.0227196,-2.70009,0,0,0,-0.0126515,-0.254484,-0.0203958,-0.408771,-2.70009,0,0,0,0,0,0,0,0,0,0,-0.0466611,0.129764,0,-1.5,6.58127e-38,0,0,0,-0.0126515,-0.254484,0,0,0,0,-0.0203958,-0.408771,1.9603e-19,0,0,0,0,0,0,0,0,0,1,0.279933
7287,-0.280273,0.0556641,-5.99609,0.000162394,-0.000167406,-0.000129761,0.0424347,-0.0227224,-2.7001,0,0,0,-0.0129801,-0.261068,-0.0206123,-0.413037,-2.70009,0,0,0,0,0,0,0,0,0,0,-0.0492412,0.131042,0,-1.5,6.58127e-38,0,0,0,-0.0129801,-0.261068,0,0,0,0,-0.0206123,-0.413037,1.9603e-19,0,0,0,0,0,0,0,0,0,1,0.287175
7303,-0.280273,0.0556641,6.67383,-0.00130578,-9.41064e-05,-0.000296293,0.042421,-0.0227254,-2.7001,0,0,0,-0.0133121,-0.26772,-0.0208263,-0.41727,-2.7001,0,0,0,0,0,0,0,0,0,0,-0.0518326,0.132324,0,-1.5,6.58127e-38,0,0,0,-0.0133121,-0.26772,0,0,0,0,-0.0208263,-0.41727,1.9603e-19,0,0,0,0,0,0,0,0,0,1,0.294492
7319,-0.280273,0.0556641,5.66895,-0.00143633,0.00130124,-0.000504565,0.0424118,-0.0227231,-2.70011,0,0,0,-0.0136475,-0.274439,-0.02104,-0.421467,-2.70011,0,0,0,0,0,0,0,0,0,0,-0.0544313,0.133609,0,-1.5,6.58127e-38,0,0,0,-0.0136475,-0.274439,0,0,0,0,-0.02104,-0.421467,1.9603e-19,0,0,0,0,0,0,0,0,0,1,0.301883
7335,-0.280273,0.0556641,5.66895,-0.00143633,0.00130124,-0.000504565,0.0424118,-0.0227231,-2.70011,0,0,0,-0.0139863,-0.281225,-0.0212522,-0.425629,-2.70011,0,0,0,0,0,0,0,0,0,0,-0.0570366,0.134899,0,-1.5,6.58127e-38,0,0,0,-0.0139863,-0.281225,0,0,0,0,-0.0212522,-0.425629,1.9603e-19,0,0,0,0,0,0,0,0,0,1,0.309347
7350,-0.280273,0.0556641,-4.54492,0.00066312,-3.69014e-06,-0.00020283,0.0424298,-0.0227029,-2.70014,0,0,0,-0.014307,-0.287647,-0.0214481,-0.429502,-2.70014,0,0,0,0,0,0,0,0,0,0,-0.0594974,0.13611,0,-1.5,6.58127e-38,0,0,0,-0.014307,-0.287647,0,0,0,0,-0.0214481,-0.429502,1.9603e-19,0,0,0,0,0,0,0,0,0,1,0.316412
7367,-0.280273,0.0556641,-4.54492,0.00066312,-3.69014e-06,-0.00020283,0.0424298,-0.0227029,-2.70014,0,0,0,-0.014674,-0.294996,-0.021666,-0.433857,-2.70014,0,0,0,0,0,0,0,0,0,0,-0.062286,0.137488,0,-1.5,6.58127e-38,0,0,0,-0.014674,-0.294996,0,0,0,0,-0.021666,-0.433857,1.9603e-19,0,0,0,0,0,0,0,0,0,1,0.324496
7383,-0.280273,0.0556641,6.14551,-0.000728015,-0.00027189,-0.00188184,0.0424278,-0.0227054,-2.70018,0,0,0,-0.0150008,-0.301541,-0.0218568,-0.437669,-2.70016,0,0,0,0,0,0,0,0,0,0,-0.0647608,0.138706,0,-1.5,6.58127e-38,0,0,0,-0.0150008,-0.301541,0,0,0,0,-0.0218568,-0.437669,1.9603e-19,0,0,0,0,0,0,0,0,0,1,0.331695
7398,-0.280273,0.0556641,2.09375,0.000901893,-0.00092795,-0.000696123,0.0424449,-0.0227123,-2.7002,0,0,0,-0.0153527,-0.308586,-0.0220593,-0.441704,-2.70018,0,0,0,0,0,0,0,0,0,0,-0.0674099,0.140009,0,-1.5,6.58127e-38,0,0,0,-0.0153527,-0.308586,0,0,0,0,-0.0220593,-0.441704,1.9603e-19,0,0,0,0,0,0,0,0,0,1,0.339445
7415,-0.280273,0.0556641,-4.03223,0.000783025,0.00141379,-0.00165202,0.0424493,-0.0226936,-2.70021,0,0,0,-0.01573,-0.316142,-0.0222724,-0.445959,-2.70021,0,0,0,0,0,0,0,0,0,0,-0.070237,0.141397,0,-1.5,6.58127e-38,0,0,0,-0.01573,-0.316142,0,0,0,0,-0.0222724,-0.445959,1.9603e-19,0,0,0,0,0,0,0,0,0,1,0.347756
7430,-0.280273,0.0556641,-4.03223,0.000783025,0.00141379,-0.00165202,0.0424493,-0.0226936,-2.70021,0,0,0,-0.0160659,-0.322868,-0.0224566,-0.449682,-2.70021,0,0,0,0,0,0,0,0,0,0,-0.0727311,0.142626,0,-1.5,6.58127e-38,0,0,0,-0.0160659,-0.322868,0,0,0,0,-0.0224566,-0.449682,1.9603e-19,0,0,0,0,0,0,0,0,0,1,0.355154
7445,-0.280273,0.0556641,2.12695,-0.000823705,0.000512401,-0.00150998,0.0424337,-0.0226927,-2.70024,0,0,0,-0.0164045,-0.329648,-0.0226399,-0.453376,-2.70024,0,0,0,0,0,0,0,0,0,0,-0.075241,0.143857,0,-1.5,6.58127e-38,0,0,0,-0.0164045,-0.329648,0,0,0,0,-0.0226399,-0.453376,1.9603e-19,0,0,0,0,0,0,0,0,0,1,0.362612
7461,-0.280273,0.0556641,-6.02148,3.38117e-05,-0.000602083,-0.00129065,0.0424395,-0.0226992,-2.70026,0,0,0,-0.0167687,-0.336943,-0.0228349,-0.457286,-2.70026,0,0,0,0,0,0,0,0,0,0,-0.0779241,0.145174,0,-1.5,6.58127e-38,0,0,0,-0.0167687,-0.336943,0,0,0,0,-0.0228349,-0.457286,1.9603e-19,0,0,0,0,0,0,0,0,0,1,0.370637
7477,-0.280273,0.0556641,6.69629,-0.000214591,0.000762937,-0.000346288,0.0424305,-0.0226927,-2.70027,0,0,0,-0.0171361,-0.344299,-0.0230285,-0.461164,-2.70027,0,0,0,0,0,0,0,0,0,0,-0.0806122,0.146495,0,-1.5,6.58127e-38,0,0,0,-0.0171361,-0.344299,0,0,0,0,-0.0230285,-0.461164,1.9603e-19,0,0,0,0,0,0,0,0,0,1,0.378729
7493,-0.280273,0.0556641,6.83496,0.000848085,0.000314771,-0.00091761,0.0424427,-0.0226933,-2.70028,0,0,0,-0.0175066,-0.351718,-0.0232206,-0.465011,-2.70028,0,0,0,0,0,0,0,0,0,0,-0.0833087,0.14782,0,-1.5,6.58127e-38,0,0,0,-0.0175066,-0.351718,0,0,0,0,-0.0232206,-0.465011,1.9603e-19,0,0,0,0,0,0,0,0,0,1,0.38689
7509,-0.280273,0.0556641,-4.52344,-0.000551527,0.000203596,-0.000237019,0.0424459,-0.0226909,-2.7003,0,0,0,-0.0178801,-0.359198,-0.0234109,-0.468829,-2.70028,0,0,0,0,0,0,0,0,0,0,-0.0860127,0.149149,0,-1.5,6.58127e-38,0,0,0,-0.0178801,-0.359198,0,0,0,0,-0.0234109,-0.468829,1.9603e-19,0,0,0,0,0,0,0,0,0,1,0.395118
7526,-0.280273,0.0556641,1.71289,0.000129182,0.000589608,0.000392098,0.0424493,-0.0226912,-2.7003,0,0,0,-0.0182803,-0.367213,-0.0236104,-0.472852,-2.7003,0,0,0,0,0,0,0,0,0,0,-0.0889011,0.150563,0,-1.5,6.58127e-38,0,0,0,-0.0182803,-0.367213,0,0,0,0,-0.0236104,-0.472852,1.9603e-19,0,0,0,0,0,0,0,0,0,1,0.403934
7542,-0.280273,0.0556641,-3.83105,-0.000652254,-0.000887217,-0.000494352,0.0424477,-0.0227068,-2.70031,0,0,0,-0.0186599,-0.374817,-0.0237973,-0.476608,-2.70031,0,0,0,0,0,0,0,0,0,0,-0.0916235,0.151899,0,-1.5,6.58127e-38,0,0,0,-0.0186599,-0.374817,0,0,0,0,-0.0237973,-0.476608,1.9603e-19,0,0,0,0,0,0,0,0,0,1,0.412298
7558,-0.280273,0.0556641,6.1543,0.000574776,-0.000581517,0.000397473,0.0424603,-0.0227189,-2.70032,0,0,0,-0.0190426,-0.38248,-0.0239847,-0.480336,-2.70032,0,0,0,0,0,0,0,0,0,0,-0.094353,0.153239,0,-1.5,6.58127e-38,0,0,0,-0.0190426,-0.38248,0,0,0,0,-0.0239847,-0.480336,1.9603e-19,0,0,0,0,0,0,0,0,0,1,0.420728
7574,-0.280273,0.0556641,2.10645,-0.000752633,-0.000250568,-0.00212118,0.0424653,-0.0227173,-2.70034,0,0,0,-0.0194283,-0.390204,-0.0241709,-0.484035,-2.70034,0,0,0,0,0,0,0,0,0,0,-0.0970976,0.154581,0,-1.5,6.58127e-38,0,0,0,-0.0194283,-0.390204,0,0,0,0,-0.0241709,-0.484035,1.9603e-19,0,0,0,0,0,0,0,0,0,1,0.429224
7590,-0.280273,0.0556641,-3.99902,-0.00115568,-0.000419305,-0.000817663,0.0424607,-0.0227193,-2.70035,0,0,0,-0.0198169,-0.397986,-0.0243558,-0.487706,-2.70035,0,0,0,0,0,0,0,0,0,0,-0.0998458,0.155927,0,-1.5,6.58127e-38,0,0,0,-0.0198169,-0.397986,0,0,0,0,-0.0243558,-0.487706,1.9603e-19,0,0,0,0,0,0,0,0,0,1,0.437784
7605,-0.280273,0.0556641,2.12695,-0.000151983,-0.000684067,-0.000348233,0.0424583,-0.0227254,-2.70038,0,0,0,-0.0201839,-0.405334,-0.0245281,-0.49112,-2.70035,0,0,0,0,0,0,0,0,0,0,-0.102427,0.157194,0,-1.5,6.58127e-38,0,0,0,-0.0201839,-0.405334,0,0,0,0,-0.0245281,-0.49112,1.9603e-19,0,0,0,0,0,0,0,0,0,1,0.445868
7622,-0.280273,0.0556641,-6.01465,-0.000848985,-0.000469846,-0.000429655,0.042451,-0.0227306,-2.70039,0,0,0,-0.0206031,-0.413727,-0.0247233,-0.494959,-2.70039,0,0,0,0,0,0,0,0,0,0,-0.105372,0.15863,0,-1.5,6.58127e-38,0,0,0,-0.0206031,-0.413727,0,0,0,0,-0.0247233,-0.494959,1.9603e-19,0,0,0,0,0,0,0,0,0,1,0.4551
7637,-0.280273,0.0556641,6.69824,-0.00074963,-0.000851042,-0.000261121,0.0424597,-0.0227272,-2.70039,0,0,0,-0.0209756,-0.421183,-0.0248948,-0.498318,-2.70039,0,0,0,0,0,0,0,0,0,0,-0.107967,0.159903,0,-1.5,6.58127e-38,0,0,0,-0.0209756,-0.421183,0,0,0,0,-0.0248948,-0.498318,1.9603e-19,0,0,0,0,0,0,0,0,0,1,0.463301
7652,-0.280273,0.0556641,5.68359,-0.000655933,-0.00049855,-0.00217666,0.0424646,-0.0227332,-2.70042,0,0,0,-0.0213506,-0.428689,-0.0250647,-0.501653,-2.70042,0,0,0,0,0,0,0,0,0,0,-0.110581,0.161175,0,-1.5,6.58127e-38,0,0,0,-0.0213506,-0.428689,0,0,0,0,-0.0250647,-0.501653,1.9603e-19,0,0,0,0,0,0,0,0,0,1,0.471558
7669,-0.280273,0.0556641,5.68359,-0.000655933,-0.00049855,-0.00217666,0.0424646,-0.0227332,-2.70042,0,0,0,-0.0217788,-0.437258,-0.0252562,-0.505404,-2.70042,0,0,0,0,0,0,0,0,0,0,-0.113539,0.162625,0,-1.5,6.58127e-38,0,0,0,-0.0217788,-0.437258,0,0,0,0,-0.0252562,-0.505404,1.9603e-19,0,0,0,0,0,0,0,0,0,1,0.480984
7684,-0.280273,0.0556641,-4.50488,-0.000556856,-0.000555961,-0.00124681,0.042469,-0.0227395,-2.70044,0,0,0,-0.0221592,-0.444871,-0.0254241,-0.508687,-2.70044,0,0,0,0,0,0,0,0,0,0,-0.116162,0.163906,0,-1.5,6.58127e-38,0,0,0,-0.0221592,-0.444871,0,0,0,0,-0.0254241,-0.508687,1.9603e-19,0,0,0,0,0,0,0,0,0,1,0.489358
7701,-0.280273,0.0556641,-3.85449,-0.000516142,-0.000339449,0.000707646,0.042464,-0.0227362,-2.70044,0,0,0,-0.0225935,-0.45356,-0.0256134,-0.51238,-2.70044,0,0,0,0,0,0,0,0,0,0,-0.119137,0.165363,0,-1.5,6.58127e-38,0,0,0,-0.0225935,-0.45356,0,0,0,0,-0.0256134,-0.51238,1.9603e-19,0,0,0,0,0,0,0,0,0,1,0.498916
7717,-0.280273,0.0556641,6.13867,-0.000255516,-0.000820131,-0.000373428,0.0424725,-0.0227492,-2.70045,0,0,0,-0.0229793,-0.461277,-0.0257789,-0.515611,-2.70044,0,0,0,0,0,0,0,0,0,0,-0.121771,0.16665,0,-1.5,6.58127e-38,0,0,0,-0.0229793,-0.461277,0,0,0,0,-0.0257789,-0.515611,1.9603e-19,0,0,0,0,0,0,0,0,0,1,0.507404
7733,-0.280273,0.0556641,6.13867,-0.000255516,-0.000820131,-0.000373428,0.0424725,-0.0227492,-2.70045,0,0,0,-0.0234197,-0.470082,-0.0259666,-0.519246,-2.70045,0,0,0,0,0,0,0,0,0,0,-0.124767,0.168113,0,-1.5,6.58127e-38,0,0,0,-0.0234197,-0.470082,0,0,0,0,-0.0259666,-0.519246,1.9603e-19,0,0,0,0,0,0,0,0,0,1,0.51709
7749,-0.280273,0.0556641,-4.03223,-0.00139784,0.000106818,-0.000142645,0.042461,-0.0227685,-2.70046,0,0,0,-0.0238369,-0.478425,-0.026143,-0.522639,-2.70046,0,0,0,0,0,0,0,0,0,0,-0.127591,0.169494,0,-1.5,6.58127e-38,0,0,0,-0.0238369,-0.478425,0,0,0,0,-0.026143,-0.522639,1.9603e-19,0,0,0,0,0,0,0,0,0,1,0.526267
7765,-0.280273,0.0556641,-4.03223,-0.00139784,0.000106818,-0.000142645,0.042461,-0.0227685,-2.70046,0,0,0,-0.0242571,-0.486822,-0.0263203,-0.526005,-2.70046,0,0,0,0,0,0,0,0,0,0,-0.130421,0.17088,0,-1.5,6.58127e-38,0,0,0,-0.0242571,-0.486822,0,0,0,0,-0.0263203,-0.526005,1.9603e-19,0,0,0,0,0,0,0,0,0,1,0.535505
7781,-0.280273,0.0556641,2.14355,-0.000285174,0.000310551,-2.80526e-05,0.0424537,-0.0227544,-2.70047,0,0,0,-0.02468,-0.495274,-0.0264956,-0.529343,-2.70047,0,0,0,0,0,0,0,0,0,0,-0.133261,0.172267,0,-1.5,6.58127e-38,0,0,0,-0.02468,-0.495274,0,0,0,0,-0.0264956,-0.529343,1.9603e-19,0,0,0,0,0,0,0,0,0,1,0.544801
7797,-0.280273,0.0556641,6.70703,6.8359e-05,-0.000236293,-0.000415745,0.0424589,-0.0227555,-2.70048,0,0,0,-0.0251058,-0.503778,-0.0266687,-0.532653,-2.70048,0,0,0,0,0,0,0,0,0,0,-0.13611,0.173656,0,-1.5,6.58127e-38,0,0,0,-0.0251058,-0.503778,0,0,0,0,-0.0266687,-0.532653,1.9603e-19,0,0,0,0,0,0,0,0,0,1,0.554156
7813,-0.280273,0.0556641,5.68652,-0.000741068,0.00184787,-0.000593458,0.0424638,-0.0227396,-2.70049,0,0,0,-0.0255342,-0.512334,-0.0268404,-0.535936,-2.70048,0,0,0,0,0,0,0,0,0,0,-0.138962,0.17505,0,-1.5,6.58127e-38,0,0,0,-0.0255342,-0.512334,0,0,0,0,-0.0268404,-0.535936,1.9603e-19,0,0,0,0,0,0,0,0,0,1,0.563567
7830,-0.280273,0.0556641,6.79199,-0.00209162,0.00131189,-0.00145998,0.0424469,-0.0227289,-2.7005,0,0,0,-0.0259925,-0.521483,-0.0270184,-0.539396,-2.7005,0,0,0,0,0,0,0,0,0,0,-0.142009,0.17653,0,-1.5,6.58127e-38,0,0,0,-0.0259925,-0.521483,0,0,0,0,-0.0270184,-0.539396,1.9603e-19,0,0,0,0,0,0,0,0,0,1,0.573631
7845,-0.280273,0.0556641,-4.5293,-0.000663296,0.000589142,-0.00148531,0.0424503,-0.0227225,-2.70052,0,0,0,-0.0263992,-0.529602,-0.0271736,-0.542422,-2.70052,0,0,0,0,0,0,0,0,0,0,-0.144701,0.177839,0,-1.5,6.58127e-38,0,0,0,-0.0263992,-0.529602,0,0,0,0,-0.0271736,-0.542422,1.9603e-19,0,0,0,0,0,0,0,0,0,1,0.582562
7860,-0.280273,0.0556641,1.75391,-0.000768758,0.000699236,-4.55774e-05,0.0424536,-0.0227278,-2.70053,0,0,0,-0.0268083,-0.537767,-0.0273273,-0.545425,-2.70053,0,0,0,0,0,0,0,0,0,0,-0.147396,0.179152,0,-1.5,6.58127e-38,0,0,0,-0.0268083,-0.537767,0,0,0,0,-0.0273273,-0.545425,1.9603e-19,0,0,0,0,0,0,0,0,0,1,0.591543
7876,-0.280273,0.0556641,-3.7959,-0.00105591,8.54841e-05,6.93347e-05,0.0424436,-0.022728,-2.70054,0,0,0,-0.0272472,-0.546526,-0.0274907,-0.548604,-2.70054,0,0,0,0,0,0,0,0,0,0,-0.150281,0.180555,0,-1.5,6.58127e-38,0,0,0,-0.0272472,-0.546526,0,0,0,0,-0.0274907,-0.548604,1.9603e-19,0,0,0,0,0,0,0,0,0,1,0.601179
7892,-0.280273,0.0556641,6.1416,-0.00111857,0.00017349,-0.000639337,0.0424463,-0.0227174,-2.70055,0,0,0,-0.0276887,-0.555337,-0.0276526,-0.551758,-2.70055,0,0,0,0,0,0,0,0,0,0,-0.153171,0.18196,0,-1.5,6.58127e-38,0,0,0,-0.0276887,-0.555337,0,0,0,0,-0.0276526,-0.551758,1.9603e-19,0,0,0,0,0,0,0,0,0,1,0.610871
7908,-0.280273,0.0556641,-4.03613,-0.00120389,-0.000485191,-0.00236439,0.0424224,-0.0227207,-2.70059,0,0,0,-0.028105,-0.563642,-0.0278023,-0.55469,-2.70055,0,0,0,0,0,0,0,0,0,0,-0.155883,0.183282,0,-1.5,6.58127e-38,0,0,0,-0.028105,-0.563642,0,0,0,0,-0.0278023,-0.55469,1.9603e-19,0,0,0,0,0,0,0,0,0,1,0.620006
7924,-0.280273,0.0556641,-3.16113,-0.00132118,-0.000102282,-0.000816317,0.0424152,-0.0227203,-2.7006,0,0,0,-0.0285795,-0.573108,-0.027972,-0.557986,-2.70059,0,0,369098752,-534446081,369098752,-534446081,33554432,33554432,-1075088617,0,-0.158978,0.184777,0,-1.5,6.58127e-38,0,0,0,-0.0285795,-0.573108,0,0,0,0,-0.027972,-0.557986,0,0,0,0,0,0,0,0,0,0,1,0.630418
7943,-0.280273,0.0556641,-3.16113,-0.00132118,-0.000102282,-0.000816317,0.0424152,-0.0227203,-2.7006,0,0,0,-0.0290852,-0.583194,-0.0281519,-0.561444,-2.7006,0,0,369098752,-534446081,369098752,-534446081,33554432,33554432,-1075088617,0,-0.162254,0.186369,0,-1.5,6.58127e-38,0,0,0,-0.0290852,-0.583194,0,0,0,0,-0.0281519,-0.561444,0,0,0,0,0,0,0,0,0,0,1,0.641513
7959,-0.280273,0.0556641,-5.96777,-0.000687547,-0.000238206,-0.000766463,0.0424215,-0.0227073,-2.70063,-3.22922,0.321519,-0.117821,-0.0295657,-0.592775,-0.0283196,-0.564681,-2.70063,0,0,186,-19,186,-19,332,-41,210,111,-0.16536,0.187873,0,-1.5,6.58127e-38,0,0,0,-0.0295657,-0.592775,0,0,0,0,-0.0283196,-0.564681,25536,0,0,0,0,0,0,0,0,0,1,0.652053
7975,-0.280273,0.0556641,5.70996,-0.00030588,6.86182e-05,-0.000569906,0.0424199,-0.0227052,-2.70064,-3.22922,0.321519,-0.117821,-0.0300204,-0.601841,-0.0284748,-0.567701,-2.70063,0,0,186,-19,186,-19,332,-41,210,111,-0.168283,0.189293,0,-1.5,6.58127e-38,0,0,0,-0.0300204,-0.601841,0,0,0,0,-0.0284748,-0.567701,25536,0,0,0,0,0,0,0,0,0,1,0.662025
7991,-0.280273,0.0556641,6.84082,-0.00122522,0.000663318,-0.000932746,0.0424184,-0.0227024,-2.70066,-3.23474,0.320096,-0.115349,-0.0304776,-0.610956,-0.0286288,-0.570697,-2.70064,0,0,186,-19,186,-19,332,-41,211,111,-0.171215,0.190715,0,-1.5,6.58127e-38,0,0,0,-0.0304776,-0.610956,0,0,0,0,-0.0286288,-0.570697,25536,0,0,0,0,0,0,0,0,0,1,0.672051
8007,-0.280273,0.0556641,-4.51953,-0.00134968,0.000278138,-5.33006e-05,0.0424072,-0.0227035,-2.70067,-3.23474,0.320096,-0.115349,-0.0309372,-0.620117,-0.0287814,-0.573668,-2.70067,0,0,186,-19,186,-19,332,-41,211,111,-0.174157,0.192138,0,-1.5,6.58127e-38,0,0,0,-0.0309372,-0.620117,0,0,0,0,-0.0287814,-0.573668,25536,0,0,0,0,0,0,0,0,0,1,0.682129
8023,-0.280273,0.0556641,1.74902,-0.000864934,-0.000643629,-0.000812368,0.0424005,-0.0227103,-2.70068,-3.23474,0.320096,-0.115349,-0.0313992,-0.629326,-0.028934,-0.576614,-2.70068,0,0,186,-19,186,-19,332,-41,211,111,-0.177101,0.193566,0,-1.5,6.58127e-38,0,0,0,-0.0313992,-0.629326,0,0,0,0,-0.028934,-0.576614,25536,0,0,0,0,0,0,0,0,0,1,0.692258
8039,-0.280273,0.0556641,-3.7998,-0.000239981,-0.000104571,-0.00101656,0.0424072,-0.0227115,-2.7007,-3.2404,0.326673,-0.124219,-0.0318638,-0.638582,-0.0290864,-0.579537,-2.7007,0,0,186,-19,186,-19,332,-39,210,113,-0.180055,0.194995,0,-1.5,6.58127e-38,0,0,0,-0.0318638,-0.638582,0,0,0,0,-0.0290864,-0.579537,25232,0,0,0,0,0,0,0,0,0,1,0.702441
8055,-0.280273,0.0556641,6.15234,-0.000365705,-0.000334168,-0.000326642,0.0424044,-0.0227112,-2.70071,-3.2404,0.326673,-0.124219,-0.0323015,-0.647302,-0.0292282,-0.582257,-2.70071,0,0,186,-19,186,-19,332,-39,210,113,-0.182829,0.196338,0,-1.5,6.58127e-38,0,0,0,-0.0323015,-0.647302,0,0,0,0,-0.0292282,-0.582257,25232,0,0,0,0,0,0,0,0,0,1,0.712032
8070,-0.280273,0.0556641,2.1084,-0.00174697,2.88275e-05,-0.00063377,0.0423921,-0.0227167,-2.70073,-3.2404,0.326673,-0.124219,-0.0327707,-0.656648,-0.0293791,-0.585134,-2.70073,0,0,186,-19,186,-19,332,-39,210,113,-0.185794,0.197773,0,-1.5,6.58127e-38,0,0,0,-0.0327707,-0.656648,0,0,0,0,-0.0293791,-0.585134,25232,0,0,0,0,0,0,0,0,0,1,0.722313
8086,-0.280273,0.0556641,-3.15918,-0.00172426,-0.000183542,-0.000552743,0.0423821,-0.0227198,-2.70075,-3.2404,0.326673,-0.124219,-0.0332423,-0.66604,-0.0295299,-0.587988,-2.70074,0,0,186,-19,186,-19,332,-39,210,113,-0.188764,0.199211,0,-1.5,6.58127e-38,0,0,0,-0.0332423,-0.66604,0,0,0,0,-0.0295299,-0.587988,25232,0,0,0,0,0,0,0,0,0,1,0.732644
8102,-0.280273,0.0556641,2.13867,-0.000317783,4.43087e-05,-0.00108877,0.0423852,-0.0227249,-2.70076,-3.26057,0.322629,-0.113146,-0.0337164,-0.675478,-0.0296802,-0.590819,-2.70075,0,0,189,-20,189,-20,332,-39,210,113,-0.191739,0.200652,0,-1.5,6.58127e-38,0,0,0,-0.0337164,-0.675478,0,0,0,0,-0.0296802,-0.590819,24776,0,0,0,0,0,0,0,0,0,1,0.743026
8118,-0.280273,0.0556641,-6.02051,-3.39286e-05,0.000107179,-0.00141019,0.0423775,-0.0227271,-2.70077,-3.26057,0.322629,-0.113146,-0.0341928,-0.68496,-0.0298306,-0.593627,-2.70077,0,0,189,-20,189,-20,332,-39,210,113,-0.194725,0.202094,0,-1.5,6.58127e-38,0,0,0,-0.0341928,-0.68496,0,0,0,0,-0.0298306,-0.593627,24776,0,0,0,0,0,0,0,0,0,1,0.753456
8135,-0.280273,0.0556641,-6.02051,-3.39286e-05,0.000107179,-0.00141019,0.0423775,-0.0227271,-2.70077,-3.23036,0.326131,-0.121371,-0.0347017,-0.695085,-0.0299899,-0.596585,-2.70077,0,0,186,-19,186,-19,332,-41,210,114,-0.197895,0.203634,0,-1.5,6.58127e-38,0,0,0,-0.0347017,-0.695085,0,0,0,0,-0.0299899,-0.596585,25730,0,0,0,0,0,0,0,0,0,1,0.764594
8151,-0.280273,0.0556641,5.69434,0.000100574,0.000736741,-0.00187895,0.0423819,-0.0227188,-2.7008,-3.23036,0.326131,-0.121371,-0.0351831,-0.704659,-0.0301381,-0.599347,-2.7008,0,0,186,-19,186,-19,332,-41,210,114,-0.200895,0.20508,0,-1.5,6.58127e-38,0,0,0,-0.0351831,-0.704659,0,0,0,0,-0.0301381,-0.599347,25730,0,0,0,0,0,0,0,0,0,1,0.775125
8167,-0.280273,0.0556641,5.69434,0.000100574,0.000736741,-0.00187895,0.0423819,-0.0227188,-2.7008,-3.23036,0.326143,-0.121381,-0.0356669,-0.714278,-0.0302843,-0.602086,-2.7008,0,0,186,-19,186,-19,332,-41,210,114,-0.203891,0.206534,0,-1.5,6.58127e-38,0,0,0,-0.0356669,-0.714278,0,0,0,0,-0.0302843,-0.602086,25730,0,0,0,0,0,0,0,0,0,1,0.785706
8184,-0.280273,0.0556641,1.72656,-0.00121504,-7.42645e-05,-0.000365947,0.0423813,-0.0227107,-2.70083,-3.23036,0.326143,-0.121381,-0.036153,-0.72394,-0.0304293,-0.604803,-2.70082,0,0,186,-19,186,-19,332,-41,210,114,-0.2069,0.207986,0,-1.5,6.58127e-38,0,0,0,-0.036153,-0.72394,0,0,0,0,-0.0304293,-0.604803,25730,0,0,0,0,0,0,0,0,0,1,0.796334
8199,-0.280273,0.0556641,1.72656,-0.00121504,-7.42645e-05,-0.000365947,0.0423813,-0.0227107,-2.70083,-3.23034,0.326127,-0.121352,-0.0366413,-0.733645,-0.0305726,-0.607499,-2.70083,0,0,186,-19,186,-19,332,-41,210,114,-0.209911,0.209443,0,-1.5,6.58127e-38,0,0,0,-0.0366413,-0.733645,0,0,0,0,-0.0305726,-0.607499,25730,0,0,0,0,0,0,0,0,0,1,0.807009
8215,-0.280273,0.0556641,6.1543,0.00110391,-0.000848307,0.000294011,0.0423963,-0.0227111,-2.70085,-3.23034,0.326127,-0.121352,-0.037132,-0.743392,-0.0307144,-0.610172,-2.70085,0,0,186,-19,186,-19,332,-41,210,114,-0.212933,0.210899,0,-1.5,6.58127e-38,0,0,0,-0.037132,-0.743392,0,0,0,0,-0.0307144,-0.610172,25730,0,0,0,0,0,0,0,0,0,1,0.817731
8232,-0.280273,0.0556641,6.1543,0.00110391,-0.000848307,0.000294011,0.0423963,-0.0227111,-2.70085,-3.23032,0.326136,-0.12133,-0.0376558,-0.753797,-0.030863,-0.612992,-2.70085,0,0,186,-19,186,-19,332,-41,210,114,-0.216142,0.212454,0,-1.5,6.58127e-38,0,0,0,-0.0376558,-0.753797,0,0,0,0,-0.030863,-0.612992,25730,0,0,0,0,0,0,0,0,0,1,0.829177
8247,-0.280273,0.0556641,-4.00488,8.89356e-05,-0.000183329,-0.000975946,0.0424149,-0.022719,-2.70087,-3.23032,0.326136,-0.12133,-0.03812,-0.763015,-0.0309931,-0.615461,-2.70087,0,0,186,-19,186,-19,332,-41,210,114,-0.218988,0.213823,0,-1.5,6.58127e-38,0,0,0,-0.03812,-0.763015,0,0,0,0,-0.0309931,-0.615461,25730,0,0,0,0,0,0,0,0,0,1,0.839317
8266,-0.280273,0.0556641,-3.14746,-0.000940926,-3.21047e-05,0.000121421,0.0424045,-0.0227203,-2.70087,-3.27064,0.327326,-0.0944846,-0.038711,-0.77475,-0.031157,-0.618565,-2.70087,0,0,188,-20,188,-20,332,-41,210,111,-0.222592,0.215568,0,-1.5,6.58127e-38,0,0,0,-0.038711,-0.77475,0,0,0,0,-0.031157,-0.618565,24776,0,0,0,0,0,0,0,0,0,1,0.852225
8283,-0.280273,0.0556641,-5.98145,-0.000576052,0.00027707,-0.00128785,0.0424028,-0.0227127,-2.7009,-3.27064,0.327326,-0.0944846,-0.0392109,-0.784674,-0.0312943,-0.621154,-2.70087,0,0,188,-20,188,-20,332,-41,210,111,-0.225631,0.217039,0,-1.5,6.58127e-38,0,0,0,-0.0392109,-0.784674,0,0,0,0,-0.0312943,-0.621154,24776,0,0,0,0,0,0,0,0,0,1,0.863142
8299,-0.280273,0.0556641,-5.98145,-0.000576052,0.00027707,-0.00128785,0.0424028,-0.0227127,-2.7009,-3.24013,0.330583,-0.112384,-0.0397445,-0.795264,-0.0314382,-0.623882,-2.7009,0,0,188,-20,188,-20,332,-41,207,113,-0.228877,0.218599,0,-1.5,6.58127e-38,0,0,0,-0.0397445,-0.795264,0,0,0,0,-0.0314382,-0.623882,25102,0,0,0,0,0,0,0,0,0,1,0.87479
8315,-0.280273,0.0556641,5.65918,0.000158164,-0.000170103,-0.000306032,0.0424286,-0.0227054,-2.70092,-3.24013,0.330583,-0.112384,-0.0402489,-0.805272,-0.0315717,-0.626428,-2.70092,0,0,188,-20,188,-20,332,-41,207,113,-0.231936,0.220069,0,-1.5,6.58127e-38,0,0,0,-0.0402489,-0.805272,0,0,0,0,-0.0315717,-0.626428,25102,0,0,0,0,0,0,0,0,0,1,0.885799
8331,-0.280273,0.0556641,6.81152,-0.000174542,0.000489384,-0.000336362,0.0424334,-0.0227085,-2.70092,-3.24013,0.330583,-0.112384,-0.0407554,-0.815321,-0.0317025,-0.628957,-2.70092,0,0,188,-20,188,-20,332,-41,207,113,-0.234993,0.221548,0,-1.5,6.58127e-38,0,0,0,-0.0407554,-0.815321,0,0,0,0,-0.0317025,-0.628957,25102,0,0,0,0,0,0,0,0,0,1,0.896854
8347,-0.280273,0.0556641,-4.48535,-0.000839091,-0.00106759,-0.000404416,0.0424308,-0.0227246,-2.70092,-3.24013,0.330583,-0.112384,-0.041264,-0.82541,-0.0318331,-0.631467,-2.70092,0,0,188,-20,188,-20,332,-41,207,113,-0.238056,0.223029,0,-1.5,6.58127e-38,0,0,0,-0.041264,-0.82541,0,0,0,0,-0.0318331,-0.631467,25102,0,0,0,0,0,0,0,0,0,1,0.907951
8363,-0.280273,0.0556641,1.75586,-0.00013684,-0.000127357,-0.000539209,0.0424405,-0.0227245,-2.70093,-3.23126,0.321761,-0.122284,-0.0417747,-0.83554,-0.031964,-0.633957,-2.70093,0,0,189,-20,189,-20,332,-39,207,113,-0.241131,0.224509,0,-1.5,6.58127e-38,0,0,0,-0.0417747,-0.83554,0,0,0,0,-0.031964,-0.633957,25080,0,0,0,0,0,0,0,0,0,1,0.919094
8379,-0.280273,0.0556641,6.14648,0.000335894,0.000243921,-0.000653335,0.0424476,-0.0227128,-2.70096,-3.23126,0.321761,-0.122284,-0.0422875,-0.845709,-0.0320933,-0.636429,-2.70096,0,0,189,-20,189,-20,332,-39,207,113,-0.244216,0.225987,0,-1.5,6.58127e-38,0,0,0,-0.0422875,-0.845709,0,0,0,0,-0.0320933,-0.636429,25080,0,0,0,0,0,0,0,0,0,1,0.93028
8395,-0.280273,0.0556641,6.14648,0.000335894,0.000243921,-0.000653335,0.0424476,-0.0227128,-2.70096,-3.25443,0.325932,-0.111538,-0.0428023,-0.855918,-0.0322199,-0.638881,-2.70096,0,0,189,-20,189,-20,332,-39,208,113,-0.247296,0.227475,0,-1.5,6.58127e-38,0,0,0,-0.0428023,-0.855918,0,0,0,0,-0.0322199,-0.638881,24776,0,0,0,0,0,0,0,0,0,1,0.94151
8411,-0.280273,0.0556641,-4.02539,0.000294346,-0.000408278,-0.000927879,0.0424587,-0.0227143,-2.70099,-3.25443,0.325932,-0.111538,-0.0433191,-0.866165,-0.0323454,-0.641314,-2.70099,0,0,189,-20,189,-20,332,-39,208,113,-0.250394,0.228957,0,-1.5,6.58127e-38,0,0,0,-0.0433191,-0.866165,0,0,0,0,-0.0323454,-0.641314,24776,0,0,0,0,0,0,0,0,0,1,0.952781
8428,-0.280273,0.0556641,-3.13281,-0.00141101,-0.000798878,-0.0010638,0.0424496,-0.0227205,-2.70101,-3.2656,0.329001,-0.104249,-0.0438704,-0.877096,-0.032478,-0.643879,-2.70101,0,0,189,-20,189,-20,332,-39,208,113,-0.253684,0.230539,0,-1.5,6.58127e-38,0,0,0,-0.0438704,-0.877096,0,0,0,0,-0.032478,-0.643879,24624,0,0,0,0,0,0,0,0,0,1,0.964805
8443,-0.280273,0.0556641,-3.13281,-0.00141101,-0.000798878,-0.0010638,0.0424496,-0.0227205,-2.70101,-3.2656,0.329001,-0.104249,-0.0443587,-0.886775,-0.032595,-0.646123,-2.70101,0,0,189,-20,189,-20,332,-39,208,113,-0.256586,0.23194,0,-1.5,6.58127e-38,0,0,0,-0.0443587,-0.886775,0,0,0,0,-0.032595,-0.646123,24624,0,0,0,0,0,0,0,0,0,1,0.975452
8459,-0.280273,0.0556641,-5.98926,-0.000600573,0.00083576,-0.000460481,0.0424559,-0.0227207,-2.70103,-3.25802,0.330206,-0.107787,-0.0448815,-0.897137,-0.0327188,-0.648498,-2.70103,0,0,188,-20,188,-20,332,-39,208,113,-0.259697,0.233431,0,-1.5,6.58127e-38,0,0,0,-0.0448815,-0.897137,0,0,0,0,-0.0327188,-0.648498,24776,0,0,0,0,0,0,0,0,0,1,0.986851
8475,-0.280273,0.0556641,5.7207,-0.00213405,0.000340706,-0.00105701,0.0424492,-0.0227207,-2.70106,-3.25802,0.330206,-0.107787,-0.0454062,-0.907537,-0.0328414,-0.650856,-2.70103,0,0,188,-20,188,-20,332,-39,208,113,-0.262803,0.23493,0,-1.5,6.58127e-38,0,0,0,-0.0454062,-0.907537,0,0,0,0,-0.0328414,-0.650856,24776,0,0,0,0,0,0,0,0,0,1,0.998291
8492,-0.280273,0.0556641,6.79102,0.000140243,0.000466695,-0.000282736,0.0424582,-0.0227219,-2.70107,-3.25802,0.330206,-0.107787,-0.045933,-0.917975,-0.0329637,-0.653194,-2.70107,0,0,188,-20,188,-20,332,-39,208,113,-0.263722,0.235378,0,-1.5,6.58127e-38,0,0,0,-0.045933,-0.917975,0,0,0,0,-0.0329637,-0.653194,24776,0,0,0,0,0,0,0,0,0,1,1
8507,-0.280273,0.0556641,-4.54688,-0.000430769,0.000853423,-0.000715713,0.0424618,-0.0227151,-2.70107,-3.25802,0.330206,-0.107787,-0.0464617,-0.928451,-0.0330845,-0.655514,-2.70107,0,0,188,-20,188,-20,332,-39,208,113,-0.264237,0.235651,0,-1.5,6.58127e-38,0,0,0,-0.0464617,-0.928451,0,0,0,0,-0.0330845,-0.655514,24776,0,0,0,0,0,0,0,0,0,1,1
8523,-0.280273,0.0556641,1.73633,0.000969572,-0.000234613,-0.000883584,0.0424712,-0.0227228,-2.70109,-3.25802,0.330206,-0.107787,-0.0469923,-0.938963,-0.0332036,-0.657817,-2.70109,0,0,188,-20,188,-20,332,-39,208,113,-0.264751,0.23592,0,-1.5,6.58127e-38,0,0,0,-0.0469923,-0.938963,0,0,0,0,-0.0332036,-0.657817,24776,0,0,0,0,0,0,0,0,0,1,1
8540,-0.280273,0.0556641,1.73633,0.000969572,-0.000234613,-0.000883584,0.0424712,-0.0227228,-2.70109,-3.25802,0.330206,-0.107787,-0.0475248,-0.949512,-0.0333221,-0.660102,-2.70109,0,0,188,-20,188,-20,332,-39,208,113,-0.265255,0.23619,0,-1.5,6.58127e-38,0,0,0,-0.0475248,-0.949512,0,0,0,0,-0.0333221,-0.660102,24776,0,0,0,0,0,0,0,0,0,1,1
8555,-0.280273,0.0556641,2.08398,0.000790525,0.0008744,-0.00102077,0.0425031,-0.0227312,-2.7011,-3.25802,0.330206,-0.107787,-0.0480592,-0.960098,-0.03344,-0.66237,-2.7011,0,0,188,-20,188,-20,332,-39,208,113,-0.265758,0.236457,0,-1.5,6.58127e-38,0,0,0,-0.0480592,-0.960098,0,0,0,0,-0.03344,-0.66237,24776,0,0,0,0,0,0,0,0,0,1,1
8571,-0.280273,0.0556641,-4.0332,-0.000477196,-0.000374879,-0.000414479,0.042501,-0.0227384,-2.7011,-3.25802,0.330206,-0.107787,-0.0485954,-0.970719,-0.0335567,-0.664623,-2.7011,0,0,188,-20,188,-20,332,-39,208,113,-0.266259,0.236721,0,-1.5,6.58127e-38,0,0,0,-0.0485954,-0.970719,0,0,0,0,-0.0335567,-0.664623,24776,0,0,0,0,0,0,0,0,0,1,1
8587,-0.280273,0.0556641,-3.14453,-0.000334491,5.11893e-05,5.45404e-06,0.042505,-0.0227324,-2.70111,-3.25802,0.330206,-0.107787,-0.0491336,-0.981377,-0.0336726,-0.66686,-2.70111,0,0,188,-20,188,-20,332,-39,208,113,-0.266754,0.236985,0,-1.5,6.58127e-38,0,0,0,-0.0491336,-0.981377,0,0,0,0,-0.0336726,-0.66686,24776,0,0,0,0,0,0,0,0,0,1,1
8604,-0.280273,0.0556641,-3.14453,-0.000334491,5.11893e-05,5.45404e-06,0.042505,-0.0227324,-2.70111,-3.24165,0.330866,-0.119462,-0.0496735,-0.99207,-0.0337866,-0.669079,-2.70111,0,0,186,-19,186,-19,331,-39,209,114,-0.267243,0.237247,0,-1.5,6.58127e-38,0,0,0,-0.0496735,-0.99207,0,0,0,0,-0.0337866,-0.669079,25398,0,0,0,0,0,0,0,0,0,1,1
8620,-0.280273,0.0556641,-5.97852,-0.000845095,7.12224e-05,1.75569e-05,0.0425095,-0.0227243,-2.70113,-3.24165,0.330866,-0.119462,-0.0502493,-1.00347,-0.0339063,-0.671417,-2.70113,0,0,186,-19,186,-19,331,-39,209,114,-0.267769,0.237517,0,-1.5,6.58127e-38,0,0,0,-0.0502493,-1.00347,0,0,0,0,-0.0339063,-0.671417,25398,0,0,0,0,0,0,0,0,0,1,1
8635,-0.280273,0.0556641,-5.97852,-0.000845095,7.12224e-05,1.75569e-05,0.0425095,-0.0227243,-2.70113,-3.25532,0.324805,-0.113501,-0.0507589,-1.01356,-0.0340103,-0.673463,-2.70113,0,0,188,-17,188,-17,332,-41,210,113,-0.268221,0.237758,0,-1.5,6.58127e-38,0,0,0,-0.0507589,-1.01356,0,0,0,0,-0.0340103,-0.673463,25256,0,0,0,0,0,0,0,0,0,1,1
8651,-0.280273,0.0556641,5.69531,-0.0006859,0.000396689,8.78289e-05,0.0425075,-0.0227278,-2.70114,-3.25532,0.324805,-0.113501,-0.0513041,-1.02436,-0.0341206,-0.675629,-2.70114,0,0,188,-17,188,-17,332,-41,210,113,-0.268701,0.238012,0,-1.5,6.58127e-38,0,0,0,-0.0513041,-1.02436,0,0,0,0,-0.0341206,-0.675629,25256,0,0,0,0,0,0,0,0,0,1,1
8667,-0.280273,0.0556641,-4.52539,-0.000778715,-0.00030034,-0.000781676,0.0425086,-0.022741,-2.70115,-3.19982,0.326646,-0.140498,-0.0518512,-1.03519,-0.0342305,-0.677778,-2.70114,0,0,186,-19,186,-19,332,-39,206,114,-0.269176,0.238266,0,-1.5,6.58127e-38,0,0,0,-0.0518512,-1.03519,0,0,0,0,-0.0342305,-0.677778,25704,0,0,0,0,0,0,0,0,0,1,1
8683,-0.280273,0.0556641,1.72656,0.000672903,0.000189187,-0.000958757,0.0425198,-0.022741,-2.70116,-3.19982,0.326646,-0.140498,-0.0524001,-1.04606,-0.0343405,-0.67991,-2.70115,0,0,186,-19,186,-19,332,-39,206,114,-0.269651,0.238515,0,-1.5,6.58127e-38,0,0,0,-0.0524001,-1.04606,0,0,0,0,-0.0343405,-0.67991,25704,0,0,0,0,0,0,0,0,0,1,1
8699,-0.280273,0.0556641,1.72656,0.000672903,0.000189187,-0.000958757,0.0425198,-0.022741,-2.70116,-3.24276,0.336351,-0.110851,-0.0529507,-1.05696,-0.0344498,-0.682028,-2.70116,0,0,186,-19,186,-19,331,-41,207,111,-0.270124,0.238762,0,-1.5,6.58127e-38,0,0,0,-0.0529507,-1.05696,0,0,0,0,-0.0344498,-0.682028,25080,0,0,0,0,0,0,0,0,0,1,1
8715,-0.280273,0.0556641,6.17285,8.51381e-05,0.000190369,-0.000407389,0.0425323,-0.0227555,-2.7012,-3.24276,0.336351,-0.110851,-0.053503,-1.06789,-0.0345587,-0.684129,-2.7012,0,0,186,-19,186,-19,331,-41,207,111,-0.270601,0.239002,0,-1.5,6.58127e-38,0,0,0,-0.053503,-1.06789,0,0,0,0,-0.0345587,-0.684129,25080,0,0,0,0,0,0,0,0,0,1,1
8732,-0.280273,0.0556641,6.17285,8.51381e-05,0.000190369,-0.000407389,0.0425323,-0.0227555,-2.7012,-3.23424,0.331511,-0.119101,-0.0540918,-1.07955,-0.0346746,-0.686345,-2.7012,0,0,186,-19,186,-19,331,-41,208,111,-0.27109,0.239264,0,-1.5,6.58127e-38,0,0,0,-0.0540918,-1.07955,0,0,0,0,-0.0346746,-0.686345,25232,0,0,0,0,0,0,0,0,0,1,1
8748,-0.280273,0.0556641,-4.0127,-0.000773153,-0.00044214,-0.00124571,0.0425282,-0.0227601,-2.70122,-3.23424,0.331511,-0.119101,-0.0546129,-1.08986,-0.0347764,-0.688284,-2.70122,0,0,186,-19,186,-19,331,-41,208,111,-0.271528,0.239487,0,-1.5,6.58127e-38,0,0,0,-0.0546129,-1.08986,0,0,0,0,-0.0347764,-0.688284,25232,0,0,0,0,0,0,0,0,0,1,1
8764,-0.280273,0.0556641,-3.11035,-0.000137284,0.000593262,-0.001449,0.0425319,-0.0227635,-2.70124,-3.27502,0.325826,-0.10242,-0.0552054,-1.10159,-0.0348918,-0.690466,-2.70124,0,0,189,-20,189,-20,332,-39,210,113,-0.272016,0.239741,0,-1.5,6.58127e-38,0,0,0,-0.0552054,-1.10159,0,0,0,0,-0.0348918,-0.690466,24624,0,0,0,0,0,0,0,0,0,1,1
8780,-0.280273,0.0556641,-6.00488,-0.000390318,-6.36926e-07,-0.000282879,0.0425389,-0.0227602,-2.70126,-3.27502,0.325826,-0.10242,-0.0557647,-1.11266,-0.0349997,-0.692502,-2.70124,0,0,189,-20,189,-20,332,-39,210,113,-0.272465,0.239982,0,-1.5,6.58127e-38,0,0,0,-0.0557647,-1.11266,0,0,0,0,-0.0349997,-0.692502,24624,0,0,0,0,0,0,0,0,0,1,1
8796,-0.280273,0.0556641,-6.00488,-0.000390318,-6.36926e-07,-0.000282879,0.0425389,-0.0227602,-2.70126,-3.26925,0.323332,-0.103107,-0.0563258,-1.12376,-0.035106,-0.694522,-2.70126,0,0,189,-20,189,-20,332,-39,210,113,-0.272921,0.240215,0,-1.5,6.58127e-38,0,0,0,-0.0563258,-1.12376,0,0,0,0,-0.035106,-0.694522,24776,0,0,0,0,0,0,0,0,0,1,1
8812,-0.280273,0.0556641,5.6748,-0.000227879,0.000105113,-0.000751093,0.042529,-0.0227633,-2.7013,-3.26925,0.323332,-0.103107,-0.0568886,-1.13489,-0.0352118,-0.696527,-2.7013,0,0,189,-20,189,-20,332,-39,210,113,-0.273376,0.240444,0,-1.5,6.58127e-38,0,0,0,-0.0568886,-1.13489,0,0,0,0,-0.0352118,-0.696527,24776,0,0,0,0,0,0,0,0,0,1,1
8827,-0.280273,0.0556641,6.81543,-0.000722021,0.000549948,-0.000203246,0.0425261,-0.022763,-2.7013,-3.2349,0.319923,-0.115468,-0.0574178,-1.14536,-0.0353112,-0.69839,-2.7013,0,0,186,-19,186,-19,332,-41,211,111,-0.273791,0.240662,0,-1.5,6.58127e-38,0,0,0,-0.0574178,-1.14536,0,0,0,0,-0.0353112,-0.69839,25536,0,0,0,0,0,0,0,0,0,1,1
8842,-0.280273,0.0556641,-4.56348,-0.00184795,0.000146682,-0.00136252,0.0425145,-0.0227617,-2.70132,-3.2349,0.319923,-0.115468,-0.0579484,-1.15585,-0.0354103,-0.700238,-2.70132,0,0,186,-19,186,-19,332,-41,211,111,-0.274207,0.240876,0,-1.5,6.58127e-38,0,0,0,-0.0579484,-1.15585,0,0,0,0,-0.0354103,-0.700238,25536,0,0,0,0,0,0,0,0,0,1,1
8859,-0.280273,0.0556641,1.75195,0.000928702,0.00120366,-0.000890691,0.0425312,-0.022754,-2.70134,-3.22929,0.329049,-0.121569,-0.0585516,-1.16778,-0.0355212,-0.702317,-2.70134,0,0,186,-19,186,-19,332,-41,208,111,-0.274671,0.241118,0,-1.5,6.58127e-38,0,0,0,-0.0585516,-1.16778,0,0,0,0,-0.0355212,-0.702317,25232,0,0,0,0,0,0,0,0,0,1,1
8874,-0.280273,0.0556641,6.15039,-0.000884976,-0.000199843,-0.000386011,0.0425302,-0.0227595,-2.70136,-3.22929,0.329049,-0.121569,-0.0590853,-1.17833,-0.0356172,-0.704136,-2.70134,0,0,186,-19,186,-19,332,-41,208,111,-0.275072,0.241334,0,-1.5,6.58127e-38,0,0,0,-0.0590853,-1.17833,0,0,0,0,-0.0356172,-0.704136,25232,0,0,0,0,0,0,0,0,0,1,1
8891,-0.280273,0.0556641,2.08887,-9.40736e-05,0.000156964,-0.000964732,0.0425378,-0.0227526,-2.70138,-3.22793,0.323591,-0.128835,-0.059692,-1.19032,-0.0357257,-0.706183,-2.70136,0,0,186,-19,186,-19,332,-41,211,114,-0.275533,0.24157,0,-1.5,6.58127e-38,0,0,0,-0.059692,-1.19032,0,0,0,0,-0.0357257,-0.706183,25730,0,0,0,0,0,0,0,0,0,1,1
8907,-0.280273,0.0556641,-4.02051,-0.00099964,-0.000563103,-0.000179151,0.0425299,-0.0227538,-2.70138,-3.22793,0.323591,-0.128835,-0.0602647,-1.20164,-0.0358261,-0.708093,-2.70138,0,0,186,-19,186,-19,332,-41,211,114,-0.275963,0.241791,0,-1.5,6.58127e-38,0,0,0,-0.0602647,-1.20164,0,0,0,0,-0.0358261,-0.708093,25730,0,0,0,0,0,0,0,0,0,1,1
8923,-0.280273,0.0556641,-3.1084,-0.000468872,-0.000276636,-0.000872633,0.0425327,-0.0227636,-2.70139,-3.22793,0.323591,-0.128835,-0.0608389,-1.21299,-0.0359268,-0.709988,-2.70139,0,0,186,-19,186,-19,332,-41,211,114,-0.276385,0.242013,0,-1.5,6.58127e-38,0,0,0,-0.0608389,-1.21299,0,0,0,0,-0.0359268,-0.709988,25730,0,0,0,0,0,0,0,0,0,1,1
8939,-0.280273,0.0556641,-3.1084,-0.000468872,-0.000276636,-0.000872633,0.0425327,-0.0227636,-2.70139,-3.26923,0.323335,-0.103079,-0.0614148,-1.22437,-0.0360276,-0.711868,-2.70139,0,0,189,-20,189,-20,332,-39,210,113,-0.2768,0.242236,0,-1.5,6.58127e-38,0,0,0,-0.0614148,-1.22437,0,0,0,0,-0.0360276,-0.711868,24776,0,0,0,0,0,0,0,0,0,1,1
8955,-0.280273,0.0556641,-6.0166,-0.00100866,-0.000426897,-0.000695279,0.0425165,-0.022764,-2.70141,-3.26923,0.323335,-0.103079,-0.0619922,-1.23578,-0.036128,-0.713733,-2.70141,0,0,189,-20,189,-20,332,-39,210,113,-0.277216,0.242453,0,-1.5,6.58127e-38,0,0,0,-0.0619922,-1.23578,0,0,0,0,-0.036128,-0.713733,24776,0,0,0,0,0,0,0,0,0,1,1
8971,-0.280273,0.0556641,5.70215,-0.00119071,0.000595724,-0.000616288,0.0425096,-0.0227544,-2.70143,-3.22152,0.329625,-0.130715,-0.0625713,-1.24722,-0.0362284,-0.715581,-2.70141,0,0,188,-17,188,-17,332,-41,206,115,-0.277623,0.242673,0,-1.5,6.58127e-38,0,0,0,-0.0625713,-1.24722,0,0,0,0,-0.0362284,-0.715581,25584,0,0,0,0,0,0,0,0,0,1,1
8986,-0.280273,0.0556641,6.80664,-0.000377514,-0.000274826,-0.000592117,0.0425055,-0.0227621,-2.70144,-3.22152,0.329625,-0.130715,-0.0631156,-1.25797,-0.0363214,-0.717299,-2.70143,0,0,188,-17,188,-17,332,-41,206,115,-0.278013,0.24287,0,-1.5,6.58127e-38,0,0,0,-0.0631156,-1.25797,0,0,0,0,-0.0363214,-0.717299,25584,0,0,0,0,0,0,0,0,0,1,1
9003,-0.280273,0.0556641,-4.53125,-0.000387304,0.000102469,0.000446404,0.0424974,-0.0227693,-2.70145,-3.2679,0.325436,-0.099667,-0.0637343,-1.27018,-0.0364274,-0.719231,-2.70145,0,0,188,-18,188,-18,332,-41,210,111,-0.278445,0.243095,0,-1.5,6.58127e-38,0,0,0,-0.0637343,-1.27018,0,0,0,0,-0.0364274,-0.719231,24928,0,0,0,0,0,0,0,0,0,1,1
9018,-0.280273,0.0556641,1.72754,-0.000998708,0.000459624,-6.4048e-05,0.0424905,-0.0227647,-2.70145,-3.2679,0.325436,-0.099667,-0.0642816,-1.28099,-0.0365215,-0.72092,-2.70145,0,0,188,-18,188,-18,332,-41,210,111,-0.278818,0.243296,0,-1.5,6.58127e-38,0,0,0,-0.0642816,-1.28099,0,0,0,0,-0.0365215,-0.72092,24928,0,0,0,0,0,0,0,0,0,1,1
9033,-0.280273,0.0556641,1.72754,-0.000998708,0.000459624,-6.4048e-05,0.0424905,-0.0227647,-2.70145,-3.23419,0.328109,-0.125156,-0.0648303,-1.29182,-0.0366147,-0.722596,-2.70145,0,0,186,-19,186,-19,332,-39,209,114,-0.279188,0.243495,0,-1.5,6.58127e-38,0,0,0,-0.0648303,-1.29182,0,0,0,0,-0.0366147,-0.722596,25398,0,0,0,0,0,0,0,0,0,1,1
9050,-0.280273,0.0556641,6.14355,-0.000816155,0.000249845,-0.00199159,0.0424891,-0.0227637,-2.70149,-3.23419,0.328109,-0.125156,-0.0654539,-1.30412,-0.0367196,-0.72448,-2.70149,0,0,186,-19,186,-19,332,-39,209,114,-0.279618,0.243709,0,-1.5,6.58127e-38,0,0,0,-0.0654539,-1.30412,0,0,0,0,-0.0367196,-0.72448,25398,0,0,0,0,0,0,0,0,0,1,1
9066,-0.280273,0.0556641,6.14355,-0.000816155,0.000249845,-0.00199159,0.0424891,-0.0227637,-2.70149,-3.23418,0.328122,-0.125143,-0.0660424,-1.31573,-0.0368177,-0.726239,-2.70149,0,0,186,-19,186,-19,332,-39,209,114,-0.280005,0.243919,0,-1.5,6.58127e-38,0,0,0,-0.0660424,-1.31573,0,0,0,0,-0.0368177,-0.726239,25398,0,0,0,0,0,0,0,0,0,1,1
9082,-0.280273,0.0556641,-3.12305,-0.00141022,0.000559477,-0.000354429,0.0424822,-0.0227622,-2.70152,-3.23418,0.328122,-0.125143,-0.0666325,-1.32737,-0.0369153,-0.727983,-2.70151,0,0,186,-19,186,-19,332,-39,209,114,-0.280398,0.244121,0,-1.5,6.58127e-38,0,0,0,-0.0666325,-1.32737,0,0,0,0,-0.0369153,-0.727983,25398,0,0,0,0,0,0,0,0,0,1,1
9098,-0.280273,0.0556641,-3.12305,-0.00141022,0.000559477,-0.000354429,0.0424822,-0.0227622,-2.70152,-3.24904,0.331846,-0.119797,-0.0672241,-1.33904,-0.0370125,-0.729714,-2.70152,0,0,188,-18,188,-18,332,-39,207,114,-0.280785,0.244323,0,-1.5,6.58127e-38,0,0,0,-0.0672241,-1.33904,0,0,0,0,-0.0370125,-0.729714,24939,0,0,0,0,0,0,0,0,0,1,1
