timestamp,A_x,A_y,A_z,P,Q,R,Phi,Theta,Psi,poseX,poseY,poseZ,state_X,state_Y,state_Z,state_VzB,state_Bx,state_By,state_Bz,p1_x,p1_y,p2_x,p2_y,p3_x,p3_y,p4_x,p4_y,roll,pitch,yaw,alt,targetHeading,highLevelState,lowLevelState,gateNumber,filtered_x,filtered_y,x_OT,y_OT,vx_OT,vy_OT,filtered_vx,filtered_vygateArearansac_corr_x,ransac_corr_y,ransac_corr_vx,ransac_corr_vy,detectionTimeStamppTermX,dTermX,pTermY,dTermY,vxcmd,vycmd
6154,0.43457,0.244141,0.495117,-0.00153482,-0.000202265,-0.000751791,-0.0649901,-0.052317,-2.44901,0,0,0,-3.45196e-05,6.92944e-06,-0.0064187,0.00128989,-2.44874,0,0,0,0,0,0,0,0,0,0,0.160957,0.0189405,0,-1.5,0,0,0,0,-3.45196e-05,6.92944e-06,0,0,0,0,-0.0064187,0.00128989,1.9603e-19,0,0,0,0,0,0,0,0,0,1,-7.62238e-06
6169,0.306641,0.245117,1.93066,-0.00224216,-0.000730774,-0.00120629,-0.0650718,-0.0522402,-2.44982,0,0,0,-0.000241055,4.8643e-05,-0.0183901,0.00372483,-2.4495,0,0,0,0,0,0,0,0,0,0,0.163199,0.0209705,0,-1.5,0,0,0,0,-0.000241055,4.8643e-05,0,0,0,0,-0.0183901,0.00372483,1.9603e-19,0,0,0,0,0,0,0,0,0,1,-5.35073e-05
6187,0.306641,0.360352,1.89844,-0.00123814,-7.48104e-05,-0.000492306,-0.0649389,-0.0521248,-2.45063,0,0,0,-0.000736219,0.000149413,-0.0326363,0.0066528,-2.45033,0,0,0,0,0,0,0,0,0,0,0.165892,0.023366,0,-1.5,0,0,0,0,-0.000736219,0.000149413,0,0,0,0,-0.0326363,0.0066528,1.9603e-19,0,0,0,0,0,0,0,0,0,1,-0.000164354
6204,0.259766,0.352539,7.06836,-0.0015437,-0.00054987,-0.00170457,-0.0649218,-0.0520104,-2.45137,0,0,0,-0.001486,0.000302622,-0.0467229,0.00956061,-2.45116,0,0,0,0,0,0,0,0,0,0,0.168564,0.0257284,0,-1.5,0,0,0,0,-0.001486,0.000302622,0,0,0,0,-0.0467229,0.00956061,1.9603e-19,0,0,0,0,0,0,0,0,0,1,-0.000332884
6220,0.280273,0.352539,1.93164,-0.00245862,-0.000962145,-0.000694973,-0.0649339,-0.0520107,-2.45138,0,0,0,-0.00236002,0.000481902,-0.0591176,0.0121398,-2.45138,0,0,0,0,0,0,0,0,0,0,0.171029,0.0277122,0,-1.5,0,0,0,0,-0.00236002,0.000481902,0,0,0,0,-0.0591176,0.0121398,1.9603e-19,0,0,0,0,0,0,0,0,0,1,-0.000530092
6236,0.397461,0.352539,6.63379,-0.00171177,-0.000314843,-0.0011589,-0.0649524,-0.0519923,-2.4514,0,0,0,-0.0033584,0.000687238,-0.0706483,0.0145411,-2.45139,0,0,0,0,0,0,0,0,0,0,0.173367,0.0295197,0,-1.5,0,0,0,0,-0.0033584,0.000687238,0,0,0,0,-0.0706483,0.0145411,1.9603e-19,0,0,0,0,0,0,0,0,0,1,-0.000755962
6252,0.397461,0.352539,-6.49512,-0.00256066,-0.000264856,-0.00112228,-0.0649453,-0.0519869,-2.45142,0,0,0,-0.00461714,0.000946652,-0.0828545,0.0170856,-2.4514,0,0,0,0,0,0,0,0,0,0,0.175854,0.0314239,0,-1.5,0,0,0,0,-0.00461714,0.000946652,0,0,0,0,-0.0828545,0.0170856,1.9603e-19,0,0,0,0,0,0,0,0,0,1,-0.00104132
6267,0.397461,0.352539,-4.8584,-0.00104998,-0.000414634,-0.00189872,-0.0649315,-0.0519794,-2.45143,0,0,0,-0.00607014,0.00124657,-0.0949614,0.0196102,-2.45143,0,0,0,0,0,0,0,0,0,0,0.178325,0.033309,0,-1.5,0,0,0,0,-0.00607014,0.00124657,0,0,0,0,-0.0949614,0.0196102,1.9603e-19,0,0,0,0,0,0,0,0,0,1,-0.00137123
6283,0.397461,0.352539,-0.015625,-0.00235036,-0.000643901,-0.00102425,-0.064934,-0.0519802,-2.45145,0,0,0,-0.0077158,0.00158667,-0.10697,0.0221142,-2.45145,0,0,0,0,0,0,0,0,0,0,0.180788,0.0351686,0,-1.5,0,0,0,0,-0.0077158,0.00158667,0,0,0,0,-0.10697,0.0221142,1.9603e-19,0,0,0,0,0,0,0,0,0,1,-0.00174533
6299,0.397461,0.352539,-6.23047,-0.00309341,-0.000556038,-0.000511658,-0.0649513,-0.0519761,-2.45145,0,0,0,-0.0095526,0.00196662,-0.118883,0.0245994,-2.45145,0,0,0,0,0,0,0,0,0,0,0.183244,0.0370032,0,-1.5,0,0,0,0,-0.0095526,0.00196662,0,0,0,0,-0.118883,0.0245994,1.9603e-19,0,0,0,0,0,0,0,0,0,1,-0.00216329
6315,0.397461,0.352539,6.86914,-0.00146871,-0.000479161,-0.000579657,-0.0649388,-0.0519697,-2.45146,0,0,0,-0.0115753,0.00238538,-0.1307,0.0270657,-2.45146,0,0,0,0,0,0,0,0,0,0,0.185687,0.0388174,0,-1.5,0,0,0,0,-0.0115753,0.00238538,0,0,0,0,-0.1307,0.0270657,1.9603e-19,0,0,0,0,0,0,0,0,0,1,-0.00262392
6331,0.373047,0.352539,6.95215,-0.00171447,-0.000338271,9.15984e-05,-0.0649269,-0.0519678,-2.45146,0,0,0,-0.0137861,0.00284338,-0.14242,0.0295113,-2.45146,0,0,0,0,0,0,0,0,0,0,0.18812,0.0406082,0,-1.5,0,0,0,0,-0.0137861,0.00284338,0,0,0,0,-0.14242,0.0295113,1.9603e-19,0,0,0,0,0,0,0,0,0,1,-0.00312772
6344,0.339844,0.352539,-6.53027,-0.00309229,-0.000231423,-0.00145599,-0.0649311,-0.0519652,-2.45148,0,0,0,-0.0157139,0.00324297,-0.15187,0.0314832,-2.45148,0,0,0,0,0,0,0,0,0,0,0.190084,0.0420508,0,-1.5,0,0,0,0,-0.0157139,0.00324297,0,0,0,0,-0.15187,0.0314832,1.9603e-19,0,0,0,0,0,0,0,0,0,1,-0.00356727
6418,0.376953,0.352539,-6.4209,-0.00249383,8.97119e-05,-0.00117395,-0.0649673,-0.0519461,-2.45157,0,0,0,-0.0304705,0.00630704,-0.205225,0.0426215,-2.45157,0,0,0,0,0,0,0,0,0,0,0.201354,0.0500448,0,-1.5,0,0,0,0,-0.0304705,0.00630704,0,0,0,0,-0.205225,0.0426215,1.9603e-19,0,0,0,0,0,0,0,0,0,1,-0.00693774
6431,0.34375,0.352539,-4.83594,-0.00149078,0.000174952,-0.000447097,-0.0649541,-0.0519413,-2.45158,0,0,0,-0.0332116,0.00687643,-0.214269,0.0445147,-2.45158,0,0,0,0,0,0,0,0,0,0,0.203277,0.0513898,0,-1.5,0,0,0,0,-0.0332116,0.00687643,0,0,0,0,-0.214269,0.0445147,1.9603e-19,0,0,0,0,0,0,0,0,0,1,-0.00756407
6444,0.310547,0.352539,0,-0.000813603,-0.00166849,-0.00123382,-0.0649392,-0.0519409,-2.45159,0,0,0,-0.0360697,0.00747032,-0.223253,0.046395,-2.45158,0,0,0,0,0,0,0,0,0,0,0.205195,0.0527187,0,-1.5,0,0,0,0,-0.0360697,0.00747032,0,0,0,0,-0.223253,0.046395,1.9603e-19,0,0,0,0,0,0,0,0,0,1,-0.00821736
6460,0.28125,0.352539,-6.21582,-0.00233249,-0.000100056,-0.00153392,-0.0649395,-0.0519355,-2.45161,0,0,0,-0.0397572,0.0082368,-0.234233,0.0486921,-2.45161,0,0,0,0,0,0,0,0,0,0,0.20754,0.0543431,0,-1.5,0,0,0,0,-0.0397572,0.0082368,0,0,0,0,-0.234233,0.0486921,1.9603e-19,0,0,0,0,0,0,0,0,0,1,-0.00906048
6479,0.28125,0.352539,6.88281,-0.00270062,-0.000717495,-0.00102884,-0.0649558,-0.0519346,-2.45163,0,0,0,-0.044372,0.00919634,-0.247163,0.0513988,-2.45163,0,0,0,0,0,0,0,0,0,0,0.210318,0.0562419,0,-1.5,0,0,0,0,-0.044372,0.00919634,0,0,0,0,-0.247163,0.0513988,1.9603e-19,0,0,0,0,0,0,0,0,0,1,-0.010116
6501,0.28125,0.352539,-6.53906,-0.00224979,0.000255729,-0.00035966,-0.06495,-0.0519325,-2.45165,-4.74121,0.0508938,-0.225686,-0.0500372,0.0103748,-0.261991,0.0545047,-2.45165,0,0,278,40,278,40,378,51,273,136,0.213521,0.0584056,0,-1.5,0,0,0,0,-0.0500372,0.0103748,0,0,0,0,-0.261991,0.0545047,11025,0,0,0,0,0,0,0,0,0,1,-0.0114123
6517,0.28125,0.352539,-0.275391,-0.0025758,-0.000612362,-0.00100646,-0.0649548,-0.0519316,-2.45167,-4.74121,0.0508938,-0.225686,-0.0543379,0.0112697,-0.272661,0.0567399,-2.45167,0,0,278,40,278,40,378,51,273,136,0.215836,0.0599537,0,-1.5,0,0,0,0,-0.0543379,0.0112697,0,0,0,0,-0.272661,0.0567399,11025,0,0,0,0,0,0,0,0,0,1,-0.0123966
6532,0.28125,0.352539,7.05957,-0.00273284,-9.66091e-05,-0.00124307,-0.0649534,-0.0519346,-2.45169,-4.74121,0.0508938,-0.225686,-0.0585239,0.0121409,-0.282586,0.0588195,-2.45169,0,0,278,40,278,40,378,51,273,136,0.217997,0.061388,0,-1.5,0,0,0,0,-0.0585239,0.0121409,0,0,0,0,-0.282586,0.0588195,11025,0,0,0,0,0,0,0,0,0,1,-0.013355
6548,0.28125,0.352539,1.93164,-0.00181369,-0.000773512,5.07927e-05,-0.0649505,-0.0519436,-2.45169,-4.74121,0.0508938,-0.225686,-0.0631525,0.0131045,-0.293093,0.0610201,-2.45169,0,0,278,40,278,40,378,51,273,136,0.220296,0.0628968,0,-1.5,0,0,0,0,-0.0631525,0.0131045,0,0,0,0,-0.293093,0.0610201,11025,0,0,0,0,0,0,0,0,0,1,-0.0144149
6564,0.28125,0.352539,0.535156,-0.00115087,-0.00109314,-0.00107928,-0.0649338,-0.0519502,-2.45171,-4.74121,0.0508938,-0.225686,-0.0679516,0.0141037,-0.303517,0.0632019,-2.45171,0,0,278,40,278,40,378,51,273,136,0.222584,0.064388,0,-1.5,0,0,0,0,-0.0679516,0.0141037,0,0,0,0,-0.303517,0.0632019,11025,0,0,0,0,0,0,0,0,0,1,-0.0155141
6580,0.28125,0.352539,-6.44629,-0.00147682,-0.000669687,-0.00136357,-0.0649205,-0.0519402,-2.45174,-4.76809,0.0569018,-0.218086,-0.0729133,0.015137,-0.313856,0.0653643,-2.45171,0,0,278,40,278,40,377,51,273,136,0.224865,0.0658567,0,-1.5,0,0,0,0,-0.0729133,0.015137,0,0,0,0,-0.313856,0.0653643,10920,0,0,0,0,0,0,0,0,0,1,-0.0166507
6595,0.28125,0.352539,-4.83984,-0.00124154,0.00030095,-0.000290824,-0.064912,-0.0519402,-2.45175,-4.76809,0.0569018,-0.218086,-0.0777142,0.016137,-0.323472,0.0673758,-2.45174,0,0,278,40,278,40,377,51,273,136,0.226987,0.067224,0,-1.5,0,0,0,0,-0.0777142,0.016137,0,0,0,0,-0.323472,0.0673758,10920,0,0,0,0,0,0,0,0,0,1,-0.0177507
6612,0.28125,0.352539,-4.83984,-0.00124154,0.00030095,-0.000290824,-0.064912,-0.0519402,-2.45175,-4.76809,0.0569018,-0.218086,-0.0833362,0.0173081,-0.334285,0.0696371,-2.45175,0,0,278,40,278,40,377,51,273,136,0.229389,0.0687462,0,-1.5,0,0,0,0,-0.0833362,0.0173081,0,0,0,0,-0.334285,0.0696371,10920,0,0,0,0,0,0,0,0,0,1,-0.0190389
6627,0.28125,0.352539,-6.2373,-0.00193757,-0.000988792,-0.00111986,-0.064917,-0.0519308,-2.4518,-4.76809,0.0569018,-0.218086,-0.0884396,0.0183713,-0.343745,0.071616,-2.4518,0,0,278,40,278,40,377,51,273,136,0.231491,0.0700796,0,-1.5,0,0,0,0,-0.0884396,0.0183713,0,0,0,0,-0.343745,0.071616,10920,0,0,0,0,0,0,0,0,0,1,-0.0202084
6642,0.28125,0.352539,-6.2373,-0.00193757,-0.000988792,-0.00111986,-0.064917,-0.0519308,-2.4518,-4.77832,0.0567868,-0.223077,-0.0936866,0.0194645,-0.353135,0.0735818,-2.4518,0,0,277,43,277,43,377,51,273,136,0.233596,0.0713864,0,-1.5,0,0,0,0,-0.0936866,0.0194645,0,0,0,0,-0.353135,0.0735818,10608,0,0,0,0,0,0,0,0,0,1,-0.021411
6658,0.28125,0.352539,6.95605,-0.00376089,0.000144019,-0.000473002,-0.0649339,-0.0519133,-2.45182,-4.77832,0.0567868,-0.223077,-0.0994382,0.0206631,-0.363073,0.075664,-2.45182,0,0,277,43,277,43,377,51,273,136,0.235826,0.0727684,0,-1.5,0,0,0,0,-0.0994382,0.0206631,0,0,0,0,-0.363073,0.075664,10608,0,0,0,0,0,0,0,0,0,1,-0.0227294
6674,0.28125,0.352539,-6.50098,-0.00154641,-0.0012672,-0.000618749,-0.064926,-0.0519126,-2.45183,-4.76625,0.0511774,-0.218116,-0.105351,0.0218954,-0.372934,0.0777322,-2.45183,0,0,279,40,279,40,378,51,273,136,0.238054,0.0741267,0,-1.5,0,0,0,0,-0.105351,0.0218954,0,0,0,0,-0.372934,0.0777322,11025,0,0,0,0,0,0,0,0,0,1,-0.024085
6690,0.28125,0.352539,7.08203,-0.00186958,-0.000909886,-0.000452491,-0.0649145,-0.0519238,-2.45186,-4.76625,0.0511774,-0.218116,-0.111421,0.0231607,-0.382715,0.0797832,-2.45185,0,0,279,40,279,40,378,51,273,136,0.240268,0.0754703,0,-1.5,0,0,0,0,-0.111421,0.0231607,0,0,0,0,-0.382715,0.0797832,11025,0,0,0,0,0,0,0,0,0,1,-0.0254768
6707,0.28125,0.352539,7.08203,-0.00186958,-0.000909886,-0.000452491,-0.0649145,-0.0519238,-2.45186,-4.79905,0.0545736,-0.202677,-0.117646,0.0244586,-0.392418,0.0818166,-2.45186,0,0,279,40,279,40,377,51,273,134,0.242478,0.0767923,0,-1.5,0,0,0,0,-0.117646,0.0244586,0,0,0,0,-0.392418,0.0818166,10920,0,0,0,0,0,0,0,0,0,1,-0.0269045
6723,0.28125,0.352539,0.545898,-0.00166437,-0.000448471,-0.00158637,-0.0649205,-0.0519211,-2.45189,-4.79905,0.0545736,-0.202677,-0.12443,0.0258731,-0.402643,0.0839588,-2.45189,0,0,279,40,279,40,377,51,273,134,0.244808,0.078185,0,-1.5,0,0,0,0,-0.12443,0.0258731,0,0,0,0,-0.402643,0.0839588,10920,0,0,0,0,0,0,0,0,0,1,-0.0284604
6739,0.28125,0.352539,6.64062,-0.00222717,-0.00038995,-0.00081947,-0.0649154,-0.051926,-2.45191,-4.76804,0.0568505,-0.217981,-0.130973,0.0272375,-0.412187,0.0859594,-2.45191,0,0,278,40,278,40,377,51,273,136,0.246998,0.0794724,0,-1.5,0,0,0,0,-0.130973,0.0272375,0,0,0,0,-0.412187,0.0859594,10920,0,0,0,0,0,0,0,0,0,1,-0.0299613
6755,0.28125,0.352539,-6.44922,-0.00204935,-0.00135119,-0.00153459,-0.0649208,-0.0519365,-2.45193,-4.76804,0.0568505,-0.217981,-0.137664,0.0286331,-0.421654,0.087943,-2.45193,0,0,278,40,278,40,377,51,273,136,0.249178,0.0807432,0,-1.5,0,0,0,0,-0.137664,0.0286331,0,0,0,0,-0.421654,0.087943,10920,0,0,0,0,0,0,0,0,0,1,-0.0314964
6771,0.289062,0.352539,-4.84473,-0.00117985,-0.000497004,-0.000638599,-0.064915,-0.0519308,-2.45194,-4.6962,0.0532538,-0.239258,-0.14451,0.0300609,-0.431048,0.089911,-2.45194,0,0,278,40,278,40,380,51,271,136,0.251351,0.0819957,0,-1.5,0,0,0,0,-0.14451,0.0300609,0,0,0,0,-0.431048,0.089911,11445,0,0,0,0,0,0,0,0,0,1,-0.033067
6787,0.289062,0.352539,-4.84473,-0.00117985,-0.000497004,-0.000638599,-0.064915,-0.0519308,-2.45194,-4.6962,0.0532538,-0.239258,-0.151501,0.0315194,-0.440365,0.091863,-2.45194,0,0,278,40,278,40,380,51,271,136,0.253519,0.0832268,0,-1.5,0,0,0,0,-0.151501,0.0315194,0,0,0,0,-0.440365,0.091863,11445,0,0,0,0,0,0,0,0,0,1,-0.0346713
6803,0.388672,0.352539,6.87305,-0.00197312,1.37308e-05,-0.00111239,-0.0649227,-0.051936,-2.45199,-4.73852,0.062181,-0.227093,-0.158642,0.0330089,-0.449607,0.0937995,-2.45194,0,0,278,40,278,40,377,51,271,136,0.255679,0.0844407,0,-1.5,0,0,0,0,-0.158642,0.0330089,0,0,0,0,-0.449607,0.0937995,11130,0,0,0,0,0,0,0,0,0,1,-0.0363098
6819,0.411133,0.352539,6.97656,-0.000766421,-0.000497869,-6.10961e-05,-0.0649012,-0.0519429,-2.452,-4.73852,0.062181,-0.227093,-0.165932,0.03453,-0.458778,0.0957215,-2.452,0,0,278,40,278,40,377,51,271,136,0.257817,0.0856517,0,-1.5,0,0,0,0,-0.165932,0.03453,0,0,0,0,-0.458778,0.0957215,11130,0,0,0,0,0,0,0,0,0,1,-0.0379829
6835,0.411133,0.352539,-6.51367,-0.00226651,-0.000750387,-0.000617407,-0.064901,-0.0519411,-2.45201,-4.73852,0.062181,-0.227093,-0.172896,0.0359831,-0.467307,0.0975065,-2.45201,0,0,278,40,278,40,377,51,271,136,0.259822,0.0867625,0,-1.5,0,0,0,0,-0.172896,0.0359831,0,0,0,0,-0.467307,0.0975065,11130,0,0,0,0,0,0,0,0,0,1,-0.0395814
6849,0.411133,0.352539,-0.238281,-0.000945296,-0.000268836,-0.00157881,-0.0648897,-0.051947,-2.45203,-4.7991,0.0545342,-0.202786,-0.179987,0.0374628,-0.475772,0.099278,-2.45203,0,0,279,40,279,40,377,51,273,134,0.261818,0.0878601,0,-1.5,0,0,0,0,-0.179987,0.0374628,0,0,0,0,-0.475772,0.099278,10920,0,0,0,0,0,0,0,0,0,1,-0.0412091
6866,0.40918,0.352539,7.08496,-0.00198154,-0.00122715,-0.0010449,-0.064899,-0.051954,-2.45204,-4.7991,0.0545342,-0.202786,-0.18818,0.0391725,-0.485291,0.101269,-2.45204,0,0,279,40,279,40,377,51,273,134,0.264076,0.0890831,0,-1.5,0,0,0,0,-0.18818,0.0391725,0,0,0,0,-0.485291,0.101269,10920,0,0,0,0,0,0,0,0,0,1,-0.0430897
6882,0.40918,0.352539,7.08496,-0.00198154,-0.00122715,-0.0010449,-0.064899,-0.051954,-2.45204,-4.7157,0.0504223,-0.238973,-0.195541,0.0407084,-0.493622,0.103012,-2.45204,0,0,277,41,277,41,380,51,273,137,0.266063,0.0901442,0,-1.5,0,0,0,0,-0.195541,0.0407084,0,0,0,0,-0.493622,0.103012,11128,0,0,0,0,0,0,0,0,0,1,-0.0447792
6899,0.30957,0.352539,6.63477,-0.00169228,-0.000710374,-0.00075216,-0.064919,-0.0519361,-2.45208,-4.7157,0.0504223,-0.238973,-0.204543,0.0425872,-0.503541,0.105087,-2.45204,0,0,277,41,277,41,380,51,273,137,0.26844,0.0913987,0,-1.5,0,0,0,0,-0.204543,0.0425872,0,0,0,0,-0.503541,0.105087,11128,0,0,0,0,0,0,0,0,0,1,-0.0468459
6915,0.276367,0.352539,-6.43945,-0.00278535,-0.000924299,-0.00142047,-0.0649181,-0.0519308,-2.4521,-4.7157,0.0504223,-0.238973,-0.212692,0.0442878,-0.512282,0.106917,-2.45208,0,0,277,41,277,41,380,51,273,137,0.270534,0.0925054,0,-1.5,0,0,0,0,-0.212692,0.0442878,0,0,0,0,-0.512282,0.106917,11128,0,0,0,0,0,0,0,0,0,1,-0.0487166
6931,0.268555,0.352539,-4.8291,-0.00169461,-0.0015504,-0.0013377,-0.064913,-0.0519355,-2.45211,-4.7157,0.0504223,-0.238973,-0.220977,0.046017,-0.520951,0.108736,-2.45211,0,0,277,41,277,41,380,51,273,137,0.272622,0.0935948,0,-1.5,0,0,0,0,-0.220977,0.046017,0,0,0,0,-0.520951,0.108736,11128,0,0,0,0,0,0,0,0,0,1,-0.0506187
6947,0.268555,0.352539,-4.8291,-0.00169461,-0.0015504,-0.0013377,-0.064913,-0.0519355,-2.45211,-4.75578,0.0455837,-0.215209,-0.229402,0.0477758,-0.529551,0.110539,-2.45211,0,0,279,40,279,40,380,51,273,134,0.274711,0.0946593,0,-1.5,0,0,0,0,-0.229402,0.0477758,0,0,0,0,-0.529551,0.110539,11235,0,0,0,0,0,0,0,0,0,1,-0.0525533
6963,0.334961,0.352539,-6.24902,-0.00129209,-0.000205302,-0.00136943,-0.0649092,-0.0519224,-2.45214,-4.75578,0.0455837,-0.215209,-0.237965,0.0495632,-0.538083,0.112329,-2.45214,0,0,279,40,279,40,380,51,273,134,0.276783,0.0957169,0,-1.5,0,0,0,0,-0.237965,0.0495632,0,0,0,0,-0.538083,0.112329,11235,0,0,0,0,0,0,0,0,0,1,-0.0545195
6979,0.334961,0.352539,-6.24902,-0.00129209,-0.000205302,-0.00136943,-0.0649092,-0.0519224,-2.45214,-4.75578,0.0455837,-0.215209,-0.246661,0.0513786,-0.546543,0.114105,-2.45214,0,0,279,40,279,40,380,51,273,134,0.278856,0.096749,0,-1.5,0,0,0,0,-0.246661,0.0513786,0,0,0,0,-0.546543,0.114105,11235,0,0,0,0,0,0,0,0,0,1,-0.0565165
6995,0.43457,0.352539,-6.51172,-0.00102039,-0.000613837,-0.000166171,-0.0648999,-0.0519301,-2.45216,-4.75578,0.0455837,-0.215209,-0.254935,0.0531062,-0.554414,0.115756,-2.45216,0,0,279,40,279,40,380,51,273,134,0.28079,0.0977062,0,-1.5,0,0,0,0,-0.254935,0.0531062,0,0,0,0,-0.554414,0.115756,11235,0,0,0,0,0,0,0,0,0,1,-0.0584168
7010,0.43457,0.352539,-6.51172,-0.00102039,-0.000613837,-0.000166171,-0.0648999,-0.0519301,-2.45216,-4.71282,0.0450533,-0.228466,-0.263893,0.0549766,-0.562747,0.117504,-2.45216,0,0,279,38,279,38,380,51,273,136,0.282847,0.0987096,0,-1.5,0,0,0,0,-0.263893,0.0549766,0,0,0,0,-0.562747,0.117504,11449,0,0,0,0,0,0,0,0,0,1,-0.0604743
7027,0.443359,0.352539,7.08301,-0.00161523,1.12998e-05,-0.000804844,-0.0649089,-0.0519156,-2.45217,-4.71282,0.0450533,-0.228466,-0.273557,0.0569945,-0.571526,0.119345,-2.45217,0,0,279,38,279,38,380,51,273,136,0.285024,0.09976,0,-1.5,0,0,0,0,-0.273557,0.0569945,0,0,0,0,-0.571526,0.119345,11449,0,0,0,0,0,0,0,0,0,1,-0.0626939
7042,0.443359,0.352539,7.08301,-0.00161523,1.12998e-05,-0.000804844,-0.0649089,-0.0519156,-2.45217,-4.70073,0.0420955,-0.231889,-0.282204,0.0588003,-0.579209,0.120959,-2.45217,0,0,279,38,279,38,380,51,273,136,0.286941,0.10067,0,-1.5,0,0,0,0,-0.282204,0.0588003,0,0,0,0,-0.579209,0.120959,11449,0,0,0,0,0,0,0,0,0,1,-0.0646803
7058,0.443359,0.352539,7.08301,-0.00161523,1.12998e-05,-0.000804844,-0.0649089,-0.0519156,-2.45217,-4.70073,0.0420955,-0.231889,-0.291554,0.0607531,-0.587341,0.122667,-2.45217,0,0,279,38,279,38,380,51,273,136,0.288978,0.101625,0,-1.5,0,0,0,0,-0.291554,0.0607531,0,0,0,0,-0.587341,0.122667,11449,0,0,0,0,0,0,0,0,0,1,-0.0668284
7074,0.296875,0.352539,6.61621,-0.00214469,-0.00033693,-0.00158131,-0.064915,-0.0519082,-2.45223,-4.71456,0.0449021,-0.233023,-0.301037,0.0627336,-0.595409,0.124363,-2.45223,0,0,278,40,278,40,378,51,273,136,0.290991,0.102583,0,-1.5,0,0,0,0,-0.301037,0.0627336,0,0,0,0,-0.595409,0.124363,11025,0,0,0,0,0,0,0,0,0,1,-0.0690069
7091,0.296875,0.352539,-6.45117,-0.00120904,-0.000346201,0.000433448,-0.0649043,-0.0519049,-2.45223,-4.71456,0.0449021,-0.233023,-0.310647,0.0647411,-0.603411,0.126046,-2.45223,0,0,278,40,278,40,378,51,273,136,0.293014,0.103509,0,-1.5,0,0,0,0,-0.310647,0.0647411,0,0,0,0,-0.603411,0.126046,11025,0,0,0,0,0,0,0,0,0,1,-0.0712152
7107,0.296875,0.352539,-4.8418,-0.00221066,-0.00110291,0.000302011,-0.0649058,-0.0519108,-2.45224,-4.70702,0.0504256,-0.232657,-0.320998,0.0669034,-0.611844,0.127818,-2.45224,0,0,278,40,278,40,381,52,271,134,0.295154,0.104477,0,-1.5,0,0,0,0,-0.320998,0.0669034,0,0,0,0,-0.611844,0.127818,11550,0,0,0,0,0,0,0,0,0,1,-0.0735937
7123,0.296875,0.352539,-6.25098,-0.00212205,-0.000780052,-0.00192383,-0.0649143,-0.0519202,-2.45227,-4.70702,0.0504256,-0.232657,-0.330868,0.0689653,-0.619714,0.129473,-2.45227,0,0,278,40,278,40,381,52,271,134,0.297153,0.105381,0,-1.5,0,0,0,0,-0.330868,0.0689653,0,0,0,0,-0.619714,0.129473,11550,0,0,0,0,0,0,0,0,0,1,-0.0758619
7139,0.296875,0.352539,6.88379,-0.000917278,-0.000782557,-0.000412279,-0.0649055,-0.0519161,-2.45228,-4.7385,0.0621797,-0.227045,-0.340866,0.0710542,-0.627525,0.131114,-2.45228,0,0,278,40,278,40,377,51,271,136,0.299151,0.106265,0,-1.5,0,0,0,0,-0.340866,0.0710542,0,0,0,0,-0.627525,0.131114,11130,0,0,0,0,0,0,0,0,0,1,-0.0781596
7155,0.296875,0.352539,7.02051,-0.00145176,-0.000360659,-0.00150679,-0.0648995,-0.0519104,-2.4523,-4.7385,0.0621797,-0.227045,-0.350985,0.0731686,-0.63527,0.132743,-2.4523,0,0,278,40,278,40,377,51,271,136,0.301142,0.107135,0,-1.5,0,0,0,0,-0.350985,0.0731686,0,0,0,0,-0.63527,0.132743,11130,0,0,0,0,0,0,0,0,0,1,-0.0804855
7172,0.296875,0.352539,-6.4873,-0.00192375,-0.000950464,-0.000769072,-0.0649003,-0.051916,-2.45231,-4.77873,0.0484718,-0.216534,-0.361874,0.0754441,-0.643432,0.134458,-2.45231,0,0,278,43,278,43,380,51,273,134,0.303251,0.108042,0,-1.5,0,0,0,0,-0.361874,0.0754441,0,0,0,0,-0.643432,0.134458,10914,0,0,0,0,0,0,0,0,0,1,-0.0829885
7188,0.296875,0.352539,7.08984,-0.000925437,-0.000635269,-0.00119086,-0.0648877,-0.0519075,-2.45234,-4.77873,0.0484718,-0.216534,-0.371595,0.0774755,-0.650576,0.13596,-2.45231,0,0,278,43,278,43,380,51,273,134,0.305107,0.108826,0,-1.5,0,0,0,0,-0.371595,0.0774755,0,0,0,0,-0.650576,0.13596,10914,0,0,0,0,0,0,0,0,0,1,-0.0852231
7203,0.296875,0.352539,1.96875,-0.00298344,-0.00023429,-9.93451e-05,-0.0649061,-0.051908,-2.45233,-4.77873,0.0484718,-0.216534,-0.382084,0.0796676,-0.658137,0.137549,-2.45234,0,0,278,43,278,43,380,51,273,134,0.307074,0.109657,0,-1.5,0,0,0,0,-0.382084,0.0796676,0,0,0,0,-0.658137,0.137549,10914,0,0,0,0,0,0,0,0,0,1,-0.0876344
7220,0.296875,0.352539,0.49707,-0.00189198,-0.000512306,-0.00121386,-0.0649058,-0.0519024,-2.45236,-4.74115,0.0508279,-0.225571,-0.39336,0.0820244,-0.666106,0.139226,-2.45236,0,0,278,40,278,40,378,51,273,136,0.309158,0.110522,0,-1.5,0,0,0,0,-0.39336,0.0820244,0,0,0,0,-0.666106,0.139226,11025,0,0,0,0,0,0,0,0,0,1,-0.0902269
7235,0.296875,0.352539,6.63086,-0.00152346,-0.000627562,-0.000268681,-0.0648958,-0.0518976,-2.45236,-4.71277,0.0450473,-0.228374,-0.403419,0.084127,-0.673078,0.140694,-2.45236,0,0,279,38,279,38,380,51,273,136,0.310995,0.111268,0,-1.5,0,0,0,0,-0.403419,0.084127,0,0,0,0,-0.673078,0.140694,11449,0,0,0,0,0,0,0,0,0,1,-0.0925397
7250,0.296875,0.352539,-6.4668,0.000834434,-0.000630415,-0.000929056,-0.064875,-0.0519015,-2.45238,-4.71277,0.0450473,-0.228374,-0.41358,0.0862511,-0.679996,0.142149,-2.45238,0,0,279,38,279,38,380,51,273,136,0.312822,0.112004,0,-1.5,0,0,0,0,-0.41358,0.0862511,0,0,0,0,-0.679996,0.142149,11449,0,0,0,0,0,0,0,0,0,1,-0.0948762
7266,0.296875,0.352539,-4.83301,-0.00154459,-0.00168973,-0.000672286,-0.0648701,-0.0519135,-2.45239,-4.71277,0.0450473,-0.228374,-0.424537,0.0885417,-0.68732,0.143688,-2.45239,0,0,279,38,279,38,380,51,273,136,0.314766,0.112776,0,-1.5,0,0,0,0,-0.424537,0.0885417,0,0,0,0,-0.68732,0.143688,11449,0,0,0,0,0,0,0,0,0,1,-0.0973959
7282,0.296875,0.352539,-4.83301,-0.00154459,-0.00168973,-0.000672286,-0.0648701,-0.0519135,-2.45239,-4.75403,0.0537784,-0.221892,-0.435611,0.0908567,-0.694586,0.145213,-2.45239,0,0,278,40,278,40,378,51,273,136,0.316706,0.113531,0,-1.5,0,0,0,0,-0.435611,0.0908567,0,0,0,0,-0.694586,0.145213,11025,0,0,0,0,0,0,0,0,0,1,-0.0999424
7298,0.296875,0.352539,6.88379,-0.0014275,-0.000517453,-0.00118611,-0.0648642,-0.0519021,-2.45244,-4.75403,0.0537784,-0.221892,-0.4468,0.093196,-0.701793,0.146727,-2.45243,0,0,278,40,278,40,378,51,273,136,0.318629,0.114285,0,-1.5,0,0,0,0,-0.4468,0.093196,0,0,0,0,-0.701793,0.146727,11025,0,0,0,0,0,0,0,0,0,1,-0.102516
7314,0.296875,0.352539,6.88379,-0.0014275,-0.000517453,-0.00118611,-0.0648642,-0.0519021,-2.45244,-4.74252,0.0595314,-0.219864,-0.458104,0.0955595,-0.708942,0.148229,-2.45244,0,0,278,40,278,40,378,51,271,134,0.320554,0.115015,0,-1.5,0,0,0,0,-0.458104,0.0955595,0,0,0,0,-0.708942,0.148229,11235,0,0,0,0,0,0,0,0,0,1,-0.105115
7330,0.296875,0.352539,-6.5,-0.00237865,0.000163096,-0.000491109,-0.064871,-0.0518919,-2.45245,-4.74252,0.0595314,-0.219864,-0.469522,0.0979468,-0.716033,0.149719,-2.45245,0,0,278,40,278,40,378,51,271,134,0.322471,0.115734,0,-1.5,0,0,0,0,-0.469522,0.0979468,0,0,0,0,-0.716033,0.149719,11235,0,0,0,0,0,0,0,0,0,1,-0.107741
7346,0.296875,0.352539,-6.5,-0.00237865,0.000163096,-0.000491109,-0.064871,-0.0518919,-2.45245,-4.78659,0.0571807,-0.206509,-0.481052,0.100358,-0.723067,0.1512,-2.45245,0,0,278,40,278,40,377,51,273,134,0.324387,0.116434,0,-1.5,0,0,0,0,-0.481052,0.100358,0,0,0,0,-0.723067,0.1512,10920,0,0,0,0,0,0,0,0,0,1,-0.110394
7363,0.296875,0.352539,7.11035,-0.00091609,-0.000209986,-0.000319083,-0.0648525,-0.0518833,-2.45248,-4.78659,0.0571807,-0.206509,-0.493426,0.102945,-0.730478,0.152759,-2.45248,0,0,278,40,278,40,377,51,273,134,0.326408,0.117171,0,-1.5,0,0,0,0,-0.493426,0.102945,0,0,0,0,-0.730478,0.152759,10920,0,0,0,0,0,0,0,0,0,1,-0.11324
7379,0.296875,0.352539,7.11035,-0.00091609,-0.000209986,-0.000319083,-0.0648525,-0.0518833,-2.45248,-4.78018,0.0540643,-0.21401,-0.505186,0.105405,-0.737394,0.154214,-2.45248,0,0,279,40,279,40,377,51,273,136,0.32831,0.117844,0,-1.5,0,0,0,0,-0.505186,0.105405,0,0,0,0,-0.737394,0.154214,10920,0,0,0,0,0,0,0,0,0,1,-0.115945
7395,0.296875,0.352539,6.62012,-0.00210253,-0.000857965,-0.000539636,-0.0648346,-0.0518958,-2.45251,-4.78018,0.0540643,-0.21401,-0.517055,0.107887,-0.744253,0.155656,-2.4525,0,0,279,40,279,40,377,51,273,136,0.330198,0.118513,0,-1.5,0,0,0,0,-0.517055,0.107887,0,0,0,0,-0.744253,0.155656,10920,0,0,0,0,0,0,0,0,0,1,-0.118676
7410,0.296875,0.352539,6.62012,-0.00210253,-0.000857965,-0.000539636,-0.0648346,-0.0518958,-2.45251,-4.71303,0.0448397,-0.233466,-0.52828,0.110235,-0.750634,0.156995,-2.45251,0,0,278,40,278,40,380,51,273,136,0.331124,0.118098,0,-1.5,0,0,0,0,-0.52828,0.110235,0,0,0,0,-0.750634,0.156995,11235,0,0,0,0,0,0,0,0,0,1,-0.121258
7427,0.296875,0.352539,-4.85547,-0.000247707,6.37344e-05,-0.00239181,-0.0648081,-0.0518829,-2.45254,-4.71303,0.0448397,-0.233466,-0.54112,0.11292,-0.757809,0.158501,-2.45254,0,0,278,40,278,40,380,51,273,136,0.331975,0.117401,0,-1.5,0,0,0,0,-0.54112,0.11292,0,0,0,0,-0.757809,0.158501,11235,0,0,0,0,0,0,0,0,0,1,-0.124212
7442,0.296875,0.352539,-4.85547,-0.000247707,6.37344e-05,-0.00239181,-0.0648081,-0.0518829,-2.45254,-4.72542,0.0477676,-0.230072,-0.552548,0.115311,-0.764084,0.159818,-2.45254,0,0,278,40,278,40,380,51,273,136,0.332736,0.116774,0,-1.5,0,0,0,0,-0.552548,0.115311,0,0,0,0,-0.764084,0.159818,11235,0,0,0,0,0,0,0,0,0,1,-0.126842
7458,0.296875,0.352539,-6.21387,-0.00227182,-0.000342089,-0.00100235,-0.0648003,-0.0518806,-2.45255,-4.72542,0.0477676,-0.230072,-0.564841,0.117882,-0.770726,0.161212,-2.45255,0,0,278,40,278,40,380,51,273,136,0.333548,0.116106,0,-1.5,0,0,0,0,-0.564841,0.117882,0,0,0,0,-0.770726,0.161212,11235,0,0,0,0,0,0,0,0,0,1,-0.12967
7474,0.296875,0.352539,7.04297,-0.00126491,-0.000458746,-0.000182902,-0.0647983,-0.0518784,-2.45256,-4.7656,0.0510139,-0.220479,-0.577242,0.120476,-0.777315,0.162595,-2.45256,0,0,277,43,277,43,380,51,273,134,0.334364,0.115434,0,-1.5,0,0,0,0,-0.577242,0.120476,0,0,0,0,-0.777315,0.162595,10914,0,0,0,0,0,0,0,0,0,1,-0.132523
7490,0.296875,0.352539,6.89648,-0.00125375,-0.00159311,-0.000838701,-0.0647953,-0.0518804,-2.45257,-4.7656,0.0510139,-0.220479,-0.589748,0.123092,-0.783851,0.163966,-2.45257,0,0,277,43,277,43,380,51,273,134,0.335181,0.114762,0,-1.5,0,0,0,0,-0.589748,0.123092,0,0,0,0,-0.783851,0.163966,10914,0,0,0,0,0,0,0,0,0,1,-0.135401
7507,0.296875,0.352539,-6.49121,-0.00189576,-0.00102656,2.88144e-05,-0.0647945,-0.0518839,-2.45257,-4.72538,0.0507498,-0.224303,-0.602357,0.12573,-0.790334,0.165326,-2.45257,0,0,279,40,279,40,380,51,271,134,0.336002,0.114087,0,-1.5,0,0,0,0,-0.602357,0.12573,0,0,0,0,-0.790334,0.165326,11445,0,0,0,0,0,0,0,0,0,1,-0.138303
7523,0.296875,0.352539,7.08008,-0.00131958,-0.000403521,-0.00178905,-0.0647918,-0.0518886,-2.45259,-4.72538,0.0507498,-0.224303,-0.615868,0.128556,-0.797167,0.166758,-2.45259,0,0,279,40,279,40,380,51,271,134,0.336873,0.113371,0,-1.5,0,0,0,0,-0.615868,0.128556,0,0,0,0,-0.797167,0.166758,11445,0,0,0,0,0,0,0,0,0,1,-0.141411
7539,0.296875,0.352539,1.95508,-0.0017469,0.000365463,-0.000869406,-0.064785,-0.0518783,-2.45261,-4.79109,0.0538773,-0.218815,-0.628688,0.131238,-0.803544,0.168095,-2.45261,0,0,278,43,278,43,377,51,273,136,0.337694,0.112697,0,-1.5,0,0,0,0,-0.628688,0.131238,0,0,0,0,-0.803544,0.168095,10608,0,0,0,0,0,0,0,0,0,1,-0.144361
7555,0.296875,0.352539,0.53125,-0.000661036,-0.000502745,-0.000259614,-0.0647699,-0.0518733,-2.45262,-4.79109,0.0538773,-0.218815,-0.641609,0.133941,-0.809867,0.169421,-2.45262,0,0,278,43,278,43,377,51,273,136,0.338522,0.112016,0,-1.5,0,0,0,0,-0.641609,0.133941,0,0,0,0,-0.809867,0.169421,10608,0,0,0,0,0,0,0,0,0,1,-0.147335
7571,0.296875,0.352539,6.62305,-0.00179247,-0.000702195,-0.00153555,-0.0647704,-0.0518752,-2.45264,-4.79894,0.0543082,-0.202459,-0.654633,0.136665,-0.81614,0.170736,-2.45264,0,0,279,40,279,40,377,51,273,134,0.339349,0.111336,0,-1.5,0,0,0,0,-0.654633,0.136665,0,0,0,0,-0.81614,0.170736,10920,0,0,0,0,0,0,0,0,0,1,-0.150332
7587,0.296875,0.352539,6.62305,-0.00179247,-0.000702195,-0.00153555,-0.0647704,-0.0518752,-2.45264,-4.79894,0.0543082,-0.202459,-0.667757,0.139411,-0.822363,0.172041,-2.45264,0,0,279,40,279,40,377,51,273,134,0.340184,0.110649,0,-1.5,0,0,0,0,-0.667757,0.139411,0,0,0,0,-0.822363,0.172041,10920,0,0,0,0,0,0,0,0,0,1,-0.153352
7603,0.296875,0.352539,-4.81836,-0.00111408,0.000319746,-0.0017292,-0.0647611,-0.0518554,-2.45267,-4.74326,0.0480398,-0.218856,-0.680979,0.142177,-0.828534,0.173335,-2.45267,0,0,278,40,278,40,380,51,273,134,0.341011,0.109971,0,-1.5,0,0,0,0,-0.680979,0.142177,0,0,0,0,-0.828534,0.173335,11235,0,0,0,0,0,0,0,0,0,1,-0.156395
7619,0.296875,0.352539,-6.26367,-0.00120414,-0.00119678,-0.00203172,-0.0647568,-0.0518578,-2.4527,-4.74326,0.0480398,-0.218856,-0.694298,0.144963,-0.834654,0.17462,-2.45267,0,0,278,40,278,40,380,51,273,134,0.34185,0.10928,0,-1.5,0,0,0,0,-0.694298,0.144963,0,0,0,0,-0.834654,0.17462,11235,0,0,0,0,0,0,0,0,0,1,-0.15946
7636,0.3125,0.352539,6.88477,-0.00121702,-0.000408082,-0.00116583,-0.0647527,-0.0518441,-2.45272,-4.72533,0.0476361,-0.229897,-0.708559,0.147947,-0.841103,0.175974,-2.45272,0,0,278,40,278,40,380,51,273,136,0.342732,0.108559,0,-1.5,0,0,0,0,-0.708559,0.147947,0,0,0,0,-0.841103,0.175974,11235,0,0,0,0,0,0,0,0,0,1,-0.162742
7651,0.345703,0.352539,6.99316,-0.00122189,-0.00121951,-0.00155303,-0.0647391,-0.0518499,-2.45273,-4.72533,0.0476361,-0.229897,-0.721228,0.150598,-0.846744,0.177159,-2.45273,0,0,278,40,278,40,380,51,273,136,0.343519,0.107913,0,-1.5,0,0,0,0,-0.721228,0.150598,0,0,0,0,-0.846744,0.177159,11235,0,0,0,0,0,0,0,0,0,1,-0.165657
7667,0.378906,0.352539,-6.48535,-0.000757614,-0.000859441,0.000868818,-0.0647315,-0.0518494,-2.45274,-4.72533,0.0476361,-0.229897,-0.733984,0.153266,-0.852343,0.178333,-2.45274,0,0,278,40,278,40,380,51,273,136,0.344311,0.107261,0,-1.5,0,0,0,0,-0.733984,0.153266,0,0,0,0,-0.852343,0.178333,11235,0,0,0,0,0,0,0,0,0,1,-0.168593
7683,0.378906,0.352539,-6.48535,-0.000757614,-0.000859441,0.000868818,-0.0647315,-0.0518494,-2.45274,-4.75027,0.059185,-0.222884,-0.748543,0.156313,-0.858638,0.179654,-2.45274,0,0,279,40,279,40,376,51,271,136,0.345212,0.106519,0,-1.5,0,0,0,0,-0.748543,0.156313,0,0,0,0,-0.858638,0.179654,11025,0,0,0,0,0,0,0,0,0,1,-0.171944
7699,0.408203,0.352539,1.9502,-0.00250962,-0.000515952,-0.000767842,-0.0647294,-0.0518368,-2.45278,-4.75027,0.059185,-0.222884,-0.762341,0.1592,-0.864513,0.180886,-2.45277,0,0,279,40,279,40,376,51,271,136,0.346055,0.105828,0,-1.5,0,0,0,0,-0.762341,0.1592,0,0,0,0,-0.864513,0.180886,11025,0,0,0,0,0,0,0,0,0,1,-0.17512
7715,0.375,0.352539,0.495117,-0.00105474,-0.00109263,-0.000673671,-0.0647198,-0.0518455,-2.4528,-4.7704,0.0653274,-0.211496,-0.775361,0.161924,-0.869977,0.182033,-2.45278,0,0,278,40,278,40,376,51,271,134,0.34685,0.105175,0,-1.5,0,0,0,0,-0.775361,0.161924,0,0,0,0,-0.869977,0.182033,11025,0,0,0,0,0,0,0,0,0,1,-0.178117
7731,0.341797,0.352539,6.6084,-0.0018995,-0.000522253,-0.000463444,-0.0647229,-0.0518387,-2.4528,-4.7704,0.0653274,-0.211496,-0.790219,0.165033,-0.876121,0.183322,-2.4528,0,0,278,40,278,40,376,51,271,134,0.347753,0.104434,0,-1.5,0,0,0,0,-0.790219,0.165033,0,0,0,0,-0.876121,0.183322,11025,0,0,0,0,0,0,0,0,0,1,-0.181536
7746,0.341797,0.352539,6.6084,-0.0018995,-0.000522253,-0.000463444,-0.0647229,-0.0518387,-2.4528,-4.77973,0.0652855,-0.21683,-0.803413,0.167794,-0.881498,0.184451,-2.4528,0,0,277,43,277,43,377,51,271,134,0.348557,0.103772,0,-1.5,0,0,0,0,-0.803413,0.167794,0,0,0,0,-0.881498,0.184451,10812,0,0,0,0,0,0,0,0,0,1,-0.184573
7763,0.275391,0.352539,-4.82324,-0.001125,-0.000445672,0.00015439,-0.0647041,-0.0518425,-2.45283,-4.77973,0.0652855,-0.21683,-0.818465,0.170943,-0.887543,0.185719,-2.45283,0,0,277,43,277,43,377,51,271,134,0.349464,0.103029,0,-1.5,0,0,0,0,-0.818465,0.170943,0,0,0,0,-0.887543,0.185719,10812,0,0,0,0,0,0,0,0,0,1,-0.188038
7776,0.264648,0.352539,-0.0351562,-0.0019757,-0.000754881,-0.000560845,-0.0647035,-0.0518475,-2.45284,-4.7608,0.0477924,-0.227291,-0.830039,0.173365,-0.892128,0.18668,-2.45284,0,0,278,43,278,43,380,51,273,136,0.350159,0.102458,0,-1.5,0,0,0,0,-0.830039,0.173365,0,0,0,0,-0.892128,0.18668,10914,0,0,0,0,0,0,0,0,0,1,-0.190702
7792,0.264648,0.352539,-6.22852,-0.00156553,-0.000566494,-0.00173225,-0.0647014,-0.0518504,-2.45285,-4.7608,0.0477924,-0.227291,-0.84437,0.176364,-0.897734,0.187854,-2.45285,0,0,278,43,278,43,380,51,273,136,0.351019,0.101752,0,-1.5,0,0,0,0,-0.84437,0.176364,0,0,0,0,-0.897734,0.187854,10914,0,0,0,0,0,0,0,0,0,1,-0.194001
7808,0.269531,0.352539,6.86719,-0.0024179,-0.000224936,-0.00177715,-0.0647089,-0.051845,-2.45288,-4.72931,0.0562403,-0.223244,-0.858793,0.179382,-0.903295,0.189019,-2.45288,0,0,278,40,278,40,378,51,271,134,0.351878,0.101048,0,-1.5,0,0,0,0,-0.858793,0.179382,0,0,0,0,-0.903295,0.189019,11235,0,0,0,0,0,0,0,0,0,1,-0.19732
7826,0.401367,0.352539,-6.50781,-0.00162283,-0.0012932,-0.000884332,-0.0646961,-0.0518583,-2.45291,-4.72931,0.0562403,-0.223244,-0.874215,0.182609,-0.909156,0.190248,-2.45289,0,0,278,40,278,40,378,51,271,134,0.352797,0.100293,0,-1.5,0,0,0,0,-0.874215,0.182609,0,0,0,0,-0.909156,0.190248,11235,0,0,0,0,0,0,0,0,0,1,-0.20087
7841,0.407227,0.352539,-0.254883,-0.00169323,-0.000858453,-0.00269566,-0.0647004,-0.0518607,-2.45293,-4.71296,0.0445789,-0.233333,-0.888818,0.185665,-0.914626,0.191393,-2.45293,0,0,278,40,278,40,380,51,273,136,0.353657,0.0995903,0,-1.5,0,0,0,0,-0.888818,0.185665,0,0,0,0,-0.914626,0.191393,11235,0,0,0,0,0,0,0,0,0,1,-0.204231
7856,0.407227,0.352539,7.08691,-0.00115998,-0.000341726,-0.00108785,-0.064689,-0.0518567,-2.45294,-4.71296,0.0445789,-0.233333,-0.902585,0.188546,-0.919714,0.192458,-2.45294,0,0,278,40,278,40,380,51,273,136,0.354471,0.0989215,0,-1.5,0,0,0,0,-0.902585,0.188546,0,0,0,0,-0.919714,0.192458,11235,0,0,0,0,0,0,0,0,0,1,-0.2074
7872,0.407227,0.352539,1.95703,-0.00111314,0.000230888,-0.00130571,-0.0646837,-0.0518548,-2.45296,-4.74321,0.0479015,-0.21877,-0.917355,0.191637,-0.925098,0.193585,-2.45296,0,0,278,40,278,40,380,51,273,134,0.35534,0.0982079,0,-1.5,0,0,0,0,-0.917355,0.191637,0,0,0,0,-0.925098,0.193585,11235,0,0,0,0,0,0,0,0,0,1,-0.2108
7888,0.407227,0.352539,0.518555,-0.000866374,-0.00129457,-0.000595288,-0.0646778,-0.0518545,-2.45297,-4.74321,0.0479015,-0.21877,-0.932211,0.194745,-0.930438,0.194702,-2.45297,0,0,278,40,278,40,380,51,273,134,0.356212,0.0974925,0,-1.5,0,0,0,0,-0.932211,0.194745,0,0,0,0,-0.930438,0.194702,11235,0,0,0,0,0,0,0,0,0,1,-0.21422
7904,0.407227,0.352539,6.63379,-0.00180161,-0.002574,-0.000259475,-0.0646722,-0.0518615,-2.45298,-4.73748,0.0448032,-0.226056,-0.947154,0.197872,-0.935736,0.19581,-2.45298,0,0,279,40,279,40,380,51,273,136,0.357088,0.0967723,0,-1.5,0,0,0,0,-0.947154,0.197872,0,0,0,0,-0.935736,0.19581,11235,0,0,0,0,0,0,0,0,0,1,-0.21766
7920,0.407227,0.352539,-4.84473,-0.002028,3.00327e-05,-0.000420665,-0.0646708,-0.0518457,-2.453,-4.73748,0.0448032,-0.226056,-0.962179,0.201017,-0.940992,0.196908,-2.45298,0,0,279,40,279,40,380,51,273,136,0.357968,0.0960484,0,-1.5,0,0,0,0,-0.962179,0.201017,0,0,0,0,-0.940992,0.196908,11235,0,0,0,0,0,0,0,0,0,1,-0.221118
7936,0.407227,0.352539,-0.0400391,-0.00225071,-0.000492048,-0.0011164,-0.0646702,-0.0518501,-2.45301,-4.78649,0.0568516,-0.206316,-0.97729,0.204179,-0.946205,0.197998,-2.453,0,0,278,40,278,40,377,51,273,134,0.358844,0.0953295,0,-1.5,0,0,0,0,-0.97729,0.204179,0,0,0,0,-0.946205,0.197998,10920,0,0,0,0,0,0,0,0,0,1,-0.224596
7952,0.407227,0.352539,-6.26367,-0.000425297,-0.000562159,-0.00142746,-0.0646514,-0.0518405,-2.45303,-4.78649,0.0568516,-0.206316,-0.992484,0.207358,-0.951376,0.19908,-2.45303,0,0,278,40,278,40,377,51,273,134,0.359718,0.0946157,0,-1.5,0,0,0,0,-0.992484,0.207358,0,0,0,0,-0.951376,0.19908,10920,0,0,0,0,0,0,0,0,0,1,-0.228094
7969,0.407227,0.352539,6.90234,-0.00121854,0.000366058,2.31244e-05,-0.0646436,-0.0518335,-2.45304,-4.76785,0.0563928,-0.217599,-1.00776,0.210554,-0.956502,0.200153,-2.45304,0,0,278,40,278,40,377,51,273,136,0.360603,0.0938882,0,-1.5,0,0,0,0,-1.00776,0.210554,0,0,0,0,-0.956502,0.200153,10920,0,0,0,0,0,0,0,0,0,1,-0.23161
7985,0.407227,0.352539,6.90234,-0.00121854,0.000366058,2.31244e-05,-0.0646436,-0.0518335,-2.45304,-4.76785,0.0563928,-0.217599,-1.02408,0.213969,-0.961902,0.201282,-2.45304,0,0,278,40,278,40,377,51,273,136,0.361546,0.093112,0,-1.5,0,0,0,0,-1.02408,0.213969,0,0,0,0,-0.961902,0.201282,10920,0,0,0,0,0,0,0,0,0,1,-0.235366
8001,0.407227,0.352539,-6.49023,-0.000733306,-0.000570547,-0.000436173,-0.064624,-0.0518367,-2.45307,-4.76785,0.0563928,-0.217599,-1.03952,0.217201,-0.966942,0.202336,-2.45307,0,0,278,40,278,40,377,51,273,136,0.362427,0.092391,0,-1.5,0,0,0,0,-1.03952,0.217201,0,0,0,0,-0.966942,0.202336,10920,0,0,0,0,0,0,0,0,0,1,-0.238921
8017,0.407227,0.352539,7.07812,-0.00241603,-0.00157703,-0.00126135,-0.0646239,-0.0518441,-2.45311,-4.76785,0.0563928,-0.217599,-1.05504,0.220449,-0.97194,0.20338,-2.45307,0,0,278,40,278,40,377,51,273,136,0.363319,0.0916577,0,-1.5,0,0,0,0,-1.05504,0.220449,0,0,0,0,-0.97194,0.20338,10920,0,0,0,0,0,0,0,0,0,1,-0.242494
8033,0.407227,0.352539,1.95215,-0.00170563,-0.000388363,-0.00107484,-0.0646195,-0.0518378,-2.45313,-4.76785,0.0563928,-0.217599,-1.07065,0.223714,-0.9769,0.204415,-2.45311,0,0,278,40,278,40,377,51,273,136,0.3642,0.0909389,0,-1.5,0,0,0,0,-1.07065,0.223714,0,0,0,0,-0.9769,0.204415,10920,0,0,0,0,0,0,0,0,0,1,-0.246085
8048,0.407227,0.352539,0.496094,-0.0022427,-0.00104823,-0.00127924,-0.0646243,-0.0518422,-2.45314,-4.76833,0.0594326,-0.211725,-1.08535,0.226789,-0.981512,0.205379,-2.45314,0,0,279,40,279,40,377,51,271,134,0.365032,0.0902589,0,-1.5,0,0,0,0,-1.08535,0.226789,0,0,0,0,-0.981512,0.205379,11130,0,0,0,0,0,0,0,0,0,1,-0.249468
8063,0.407227,0.352539,6.63184,-0.00182024,-3.82335e-05,-0.00159083,-0.0646169,-0.0518335,-2.45316,-4.76833,0.0594326,-0.211725,-1.10011,0.229879,-0.986091,0.206335,-2.45316,0,0,279,40,279,40,377,51,271,134,0.365868,0.0895735,0,-1.5,0,0,0,0,-1.10011,0.229879,0,0,0,0,-0.986091,0.206335,11130,0,0,0,0,0,0,0,0,0,1,-0.252867
8079,0.407227,0.352539,6.63184,-0.00182024,-3.82335e-05,-0.00159083,-0.0646169,-0.0518335,-2.45316,-4.73831,0.061689,-0.226676,-1.11594,0.233191,-0.990936,0.207348,-2.45316,0,0,278,40,278,40,377,51,271,136,0.366767,0.088834,0,-1.5,0,0,0,0,-1.11594,0.233191,0,0,0,0,-0.990936,0.207348,11130,0,0,0,0,0,0,0,0,0,1,-0.25651
8095,0.407227,0.352539,-4.84668,-0.00182304,-0.00151671,-0.000800692,-0.0645956,-0.0518309,-2.45318,-4.73831,0.061689,-0.226676,-1.13184,0.236519,-0.995741,0.208351,-2.45318,0,0,278,40,278,40,377,51,271,136,0.367661,0.0881016,0,-1.5,0,0,0,0,-1.13184,0.236519,0,0,0,0,-0.995741,0.208351,11130,0,0,0,0,0,0,0,0,0,1,-0.260171
8111,0.407227,0.352539,-4.84668,-0.00182304,-0.00151671,-0.000800692,-0.0645956,-0.0518309,-2.45318,-4.80578,0.050857,-0.214024,-1.14783,0.239863,-1.00051,0.209346,-2.45318,0,0,278,43,278,43,377,51,274,136,0.368563,0.0873594,0,-1.5,0,0,0,0,-1.14783,0.239863,0,0,0,0,-1.00051,0.209346,10506,0,0,0,0,0,0,0,0,0,1,-0.263849
8127,0.407227,0.352539,6.85645,-0.00168565,-0.000807643,-0.000921877,-0.0645878,-0.0518187,-2.45324,-4.80578,0.050857,-0.214024,-1.16388,0.243223,-1.00523,0.210333,-2.45322,0,0,278,43,278,43,377,51,274,136,0.369459,0.0866281,0,-1.5,0,0,0,0,-1.16388,0.243223,0,0,0,0,-1.00523,0.210333,10506,0,0,0,0,0,0,0,0,0,1,-0.267545
8143,0.407227,0.352539,6.99707,-0.00216401,-0.00128549,-0.00125074,-0.0645867,-0.051825,-2.45325,-4.79879,0.0539942,-0.202186,-1.18001,0.246598,-1.00992,0.211312,-2.45324,0,0,279,40,279,40,377,51,273,134,0.370359,0.08589,0,-1.5,0,0,0,0,-1.18001,0.246598,0,0,0,0,-1.00992,0.211312,10920,0,0,0,0,0,0,0,0,0,1,-0.271258
8159,0.407227,0.352539,-6.50879,-0.000636832,0.000241749,-0.000456792,-0.0645743,-0.0518096,-2.45326,-4.79879,0.0539942,-0.202186,-1.19622,0.249989,-1.01457,0.212284,-2.45326,0,0,279,40,279,40,377,51,273,134,0.37126,0.0851539,0,-1.5,0,0,0,0,-1.19622,0.249989,0,0,0,0,-1.01457,0.212284,10920,0,0,0,0,0,0,0,0,0,1,-0.274988
8175,0.407227,0.352539,-6.50879,-0.000636832,0.000241749,-0.000456792,-0.0645743,-0.0518096,-2.45326,-4.71288,0.0443924,-0.233196,-1.2125,0.253396,-1.01918,0.213247,-2.45326,0,0,278,40,278,40,380,51,273,136,0.372169,0.0844057,0,-1.5,0,0,0,0,-1.2125,0.253396,0,0,0,0,-1.01918,0.213247,11235,0,0,0,0,0,0,0,0,0,1,-0.278735
8191,0.350586,0.352539,7.05664,-0.00147636,-0.000868179,-0.00186643,-0.0645617,-0.0518231,-2.4533,-4.71288,0.0443924,-0.233196,-1.22886,0.256817,-1.02375,0.214202,-2.4533,0,0,278,40,278,40,380,51,273,136,0.373072,0.0836691,0,-1.5,0,0,0,0,-1.22886,0.256817,0,0,0,0,-1.02375,0.214202,11235,0,0,0,0,0,0,0,0,0,1,-0.282499
8207,0.317383,0.352539,1.94238,-0.00182215,-0.00103062,-0.00140587,-0.0645581,-0.0518276,-2.45332,-4.83805,0.0542145,-0.198739,-1.24528,0.260254,-1.02829,0.215148,-2.45332,0,0,278,43,278,43,377,51,274,134,0.373978,0.0829274,0,-1.5,0,0,0,0,-1.24528,0.260254,0,0,0,0,-1.02829,0.215148,10506,0,0,0,0,0,0,0,0,0,1,-0.28628
8222,0.296875,0.333008,0.545898,-0.00161588,-0.000256267,-0.00153475,-0.0645539,-0.0518225,-2.45334,-4.83805,0.0542145,-0.198739,-1.26075,0.26349,-1.03251,0.216027,-2.45334,0,0,278,43,278,43,377,51,274,134,0.37483,0.0822306,0,-1.5,0,0,0,0,-1.26075,0.26349,0,0,0,0,-1.03251,0.216027,10506,0,0,0,0,0,0,0,0,0,1,-0.289839
8239,0.296875,0.299805,6.62402,-0.00165089,-0.00161599,-0.00139772,-0.0645514,-0.0518272,-2.45336,-4.7466,0.0419554,-0.217042,-1.27835,0.267173,-1.03725,0.217016,-2.45336,0,0,278,40,278,40,378,51,274,134,0.375797,0.0814384,0,-1.5,0,0,0,0,-1.27835,0.267173,0,0,0,0,-1.03725,0.217016,10920,0,0,0,0,0,0,0,0,0,1,-0.293891
8254,0.296875,0.299805,6.62402,-0.00165089,-0.00161599,-0.00139772,-0.0645514,-0.0518272,-2.45336,-4.7466,0.0419554,-0.217042,-1.29395,0.270437,-1.0414,0.217881,-2.45336,0,0,278,40,278,40,378,51,274,134,0.376658,0.0807311,0,-1.5,0,0,0,0,-1.29395,0.270437,0,0,0,0,-1.0414,0.217881,10920,0,0,0,0,0,0,0,0,0,1,-0.29748
8270,0.296875,0.299805,6.62402,-0.00165089,-0.00161599,-0.00139772,-0.0645514,-0.0518272,-2.45336,-4.75436,0.0533321,-0.215997,-1.31066,0.273932,-1.0458,0.218797,-2.45336,0,0,279,38,279,38,377,51,273,136,0.377577,0.0799751,0,-1.5,0,0,0,0,-1.31066,0.273932,0,0,0,0,-1.0458,0.218797,11128,0,0,0,0,0,0,0,0,0,1,-0.301325
8286,0.296875,0.299805,6.62402,-0.00165089,-0.00161599,-0.00139772,-0.0645514,-0.0518272,-2.45336,-4.75436,0.0533321,-0.215997,-1.32743,0.277442,-1.05016,0.219705,-2.45336,0,0,279,38,279,38,377,51,273,136,0.378498,0.0792177,0,-1.5,0,0,0,0,-1.32743,0.277442,0,0,0,0,-1.05016,0.219705,11128,0,0,0,0,0,0,0,0,0,1,-0.305186
8302,0.296875,0.326172,6.89062,-0.00222095,-0.000554996,-0.0011342,-0.0645381,-0.0518046,-2.45344,-4.77852,0.0478789,-0.216143,-1.34428,0.280967,-1.05448,0.220607,-2.45344,0,0,278,43,278,43,380,51,273,134,0.379402,0.0784863,0,-1.5,0,0,0,0,-1.34428,0.280967,0,0,0,0,-1.05448,0.220607,10914,0,0,0,0,0,0,0,0,0,1,-0.309064
8318,0.296875,0.326172,6.89062,-0.00222095,-0.000554996,-0.0011342,-0.0645381,-0.0518046,-2.45344,-4.77852,0.0478789,-0.216143,-1.3612,0.284506,-1.05877,0.221503,-2.45344,0,0,278,43,278,43,380,51,273,134,0.380327,0.077726,0,-1.5,0,0,0,0,-1.3612,0.284506,0,0,0,0,-1.05877,0.221503,10914,0,0,0,0,0,0,0,0,0,1,-0.312957
8335,0.296875,0.320312,-0.228516,-0.00149187,-0.000203546,-0.000882149,-0.0645352,-0.0517955,-2.45348,-4.77852,0.0478789,-0.216143,-1.37818,0.28806,-1.06302,0.222392,-2.45347,0,0,278,43,278,43,380,51,273,134,0.381246,0.0769761,0,-1.5,0,0,0,0,-1.37818,0.28806,0,0,0,0,-1.06302,0.222392,10914,0,0,0,0,0,0,0,0,0,1,-0.316865
8350,0.296875,0.253906,7.06934,-0.00195208,-0.000705066,-0.00131617,-0.0645478,-0.0517886,-2.4535,-4.82418,0.0511229,-0.202528,-1.39524,0.291627,-1.06724,0.223274,-2.45348,0,0,278,43,278,43,377,51,274,134,0.382172,0.0762161,0,-1.5,0,0,0,0,-1.39524,0.291627,0,0,0,0,-1.06724,0.223274,10506,0,0,0,0,0,0,0,0,0,1,-0.32079
8366,0.296875,0.197266,1.95117,-0.00349247,-0.000896697,0.000120093,-0.0645644,-0.0517767,-2.4535,-4.82418,0.0511229,-0.202528,-1.41236,0.295209,-1.07143,0.224153,-2.4535,0,0,278,43,278,43,377,51,274,134,0.383096,0.0754606,0,-1.5,0,0,0,0,-1.41236,0.295209,0,0,0,0,-1.07143,0.224153,10506,0,0,0,0,0,0,0,0,0,1,-0.32473
8382,0.296875,0.231445,0.548828,-0.00317145,-0.000176302,-0.000761556,-0.0645752,-0.0517735,-2.45351,-4.81707,0.0537714,-0.210612,-1.42954,0.298804,-1.07558,0.225027,-2.45351,0,0,279,43,279,43,377,51,273,136,0.384026,0.0746987,0,-1.5,0,0,0,0,-1.42954,0.298804,0,0,0,0,-1.07558,0.225027,10608,0,0,0,0,0,0,0,0,0,1,-0.328685
8398,0.296875,0.297852,6.62598,-0.00197478,-7.94982e-05,0.000258479,-0.0645751,-0.0517628,-2.45351,-4.81707,0.0537714,-0.210612,-1.4468,0.302414,-1.0797,0.225897,-2.45351,0,0,279,43,279,43,377,51,273,136,0.38496,0.07393,0,-1.5,0,0,0,0,-1.4468,0.302414,0,0,0,0,-1.0797,0.225897,10608,0,0,0,0,0,0,0,0,0,1,-0.332655
8414,0.296875,0.297852,6.62598,-0.00197478,-7.94982e-05,0.000258479,-0.0645751,-0.0517628,-2.45351,-4.81707,0.0537714,-0.210612,-1.46411,0.306037,-1.08378,0.22676,-2.45351,0,0,279,43,279,43,377,51,273,136,0.385897,0.0731602,0,-1.5,0,0,0,0,-1.46411,0.306037,0,0,0,0,-1.08378,0.22676,10608,0,0,0,0,0,0,0,0,0,1,-0.336641
8430,0.296875,0.382812,-4.84863,-0.00125639,-0.00119135,-0.00151117,-0.0645721,-0.0517765,-2.45354,-4.81707,0.0537714,-0.210612,-1.4815,0.309674,-1.08783,0.227615,-2.45354,0,0,279,43,279,43,377,51,273,136,0.386827,0.0724009,0,-1.5,0,0,0,0,-1.4815,0.309674,0,0,0,0,-1.08783,0.227615,10608,0,0,0,0,0,0,0,0,0,1,-0.340642
8446,0.296875,0.382812,-6.24902,-0.00134812,-0.000571235,-0.000708113,-0.0645708,-0.0517746,-2.45356,-4.71275,0.0443725,-0.232911,-1.49894,0.313325,-1.09185,0.228463,-2.45354,0,0,278,40,278,40,380,51,273,136,0.387766,0.0716288,0,-1.5,0,0,0,0,-1.49894,0.313325,0,0,0,0,-1.09185,0.228463,11235,0,0,0,0,0,0,0,0,0,1,-0.344658
8461,0.296875,0.382812,6.87891,-0.00217286,0.000431809,-0.0015765,-0.0645715,-0.0517627,-2.45358,-4.71275,0.0443725,-0.232911,-1.51536,0.31676,-1.09559,0.229252,-2.45356,0,0,278,40,278,40,380,51,273,136,0.388644,0.0709113,0,-1.5,0,0,0,0,-1.51536,0.31676,0,0,0,0,-1.09559,0.229252,11235,0,0,0,0,0,0,0,0,0,1,-0.348436
8477,0.296875,0.382812,6.87891,-0.00217286,0.000431809,-0.0015765,-0.0645715,-0.0517627,-2.45358,-4.77841,0.0479116,-0.215899,-1.53293,0.320436,-1.09955,0.230088,-2.45358,0,0,278,43,278,43,380,51,273,134,0.389582,0.0701437,0,-1.5,0,0,0,0,-1.53293,0.320436,0,0,0,0,-1.09955,0.230088,10914,0,0,0,0,0,0,0,0,0,1,-0.35248
8493,0.296875,0.382812,6.87891,-0.00217286,0.000431809,-0.0015765,-0.0645715,-0.0517627,-2.45358,-4.77841,0.0479116,-0.215899,-1.55056,0.324127,-1.10348,0.230918,-2.45358,0,0,278,43,278,43,380,51,273,134,0.390526,0.0693675,0,-1.5,0,0,0,0,-1.55056,0.324127,0,0,0,0,-1.10348,0.230918,10914,0,0,0,0,0,0,0,0,0,1,-0.356539
8509,0.296875,0.382812,6.87891,-0.00217286,0.000431809,-0.0015765,-0.0645715,-0.0517627,-2.45358,-4.73728,0.0446229,-0.225633,-1.56826,0.32783,-1.10737,0.231741,-2.45358,0,0,279,40,279,40,380,51,273,136,0.391472,0.0685901,0,-1.5,0,0,0,0,-1.56826,0.32783,0,0,0,0,-1.10737,0.231741,11235,0,0,0,0,0,0,0,0,0,1,-0.360613
8526,0.296875,0.331055,7.07324,-0.00174576,-0.00105206,-0.00115774,-0.0645483,-0.051759,-2.45363,-4.73728,0.0446229,-0.225633,-1.58602,0.331546,-1.11123,0.232558,-2.45363,0,0,279,40,279,40,380,51,273,136,0.392408,0.0678297,0,-1.5,0,0,0,0,-1.58602,0.331546,0,0,0,0,-1.11123,0.232558,11235,0,0,0,0,0,0,0,0,0,1,-0.364701
8542,0.296875,0.297852,1.93652,-0.00175929,-0.00212326,-0.00217537,-0.064549,-0.0517753,-2.45365,-4.73727,0.0445836,-0.225616,-1.60495,0.335509,-1.1153,0.233416,-2.45365,0,0,279,40,279,40,380,51,273,136,0.393411,0.0670088,0,-1.5,0,0,0,0,-1.60495,0.335509,0,0,0,0,-1.1153,0.233416,11235,0,0,0,0,0,0,0,0,0,1,-0.36906
8558,0.296875,0.260742,6.59277,-0.00238809,-0.000443573,-0.000785498,-0.064536,-0.0517568,-2.45367,-4.73727,0.0445836,-0.225616,-1.62284,0.339252,-1.1191,0.234216,-2.45365,0,0,279,40,279,40,380,51,273,136,0.39436,0.0662282,0,-1.5,0,0,0,0,-1.62284,0.339252,0,0,0,0,-1.1191,0.234216,11235,0,0,0,0,0,0,0,0,0,1,-0.373177
8574,0.296875,0.260742,6.59277,-0.00238809,-0.000443573,-0.000785498,-0.064536,-0.0517568,-2.45367,-4.82193,0.0511354,-0.202981,-1.64078,0.343008,-1.12287,0.235011,-2.45367,0,0,279,43,279,43,377,51,273,134,0.395307,0.065455,0,-1.5,0,0,0,0,-1.64078,0.343008,0,0,0,0,-1.12287,0.235011,10608,0,0,0,0,0,0,0,0,0,1,-0.377309
8590,0.296875,0.260742,-4.81348,0.000712323,-0.000399789,-0.00113094,-0.0645209,-0.0517611,-2.45369,-4.82193,0.0511354,-0.202981,-1.65879,0.346776,-1.1266,0.235798,-2.45369,0,0,279,43,279,43,377,51,273,134,0.396253,0.0646819,0,-1.5,0,0,0,0,-1.65879,0.346776,0,0,0,0,-1.1266,0.235798,10608,0,0,0,0,0,0,0,0,0,1,-0.381454
8606,0.296875,0.260742,0.000976562,-0.00159156,-0.000666727,-0.000796723,-0.0645206,-0.0517547,-2.4537,-4.7537,0.0531771,-0.221235,-1.67685,0.350557,-1.1303,0.236578,-2.4537,0,0,278,40,278,40,378,51,273,136,0.397205,0.063902,0,-1.5,0,0,0,0,-1.67685,0.350557,0,0,0,0,-1.1303,0.236578,11025,0,0,0,0,0,0,0,0,0,1,-0.385613
8622,0.296875,0.260742,-6.23926,-0.00109797,-0.00104882,-0.000437215,-0.0645058,-0.0517505,-2.45372,-4.7537,0.0531771,-0.221235,-1.69497,0.35435,-1.13398,0.237352,-2.45372,0,0,278,40,278,40,378,51,273,136,0.398157,0.0631229,0,-1.5,0,0,0,0,-1.69497,0.35435,0,0,0,0,-1.13398,0.237352,11025,0,0,0,0,0,0,0,0,0,1,-0.389785
8638,0.296875,0.263672,6.86328,-0.00044044,-0.000501911,-0.000846304,-0.0644821,-0.05175,-2.45373,-4.74155,0.055322,-0.230748,-1.71316,0.358156,-1.13762,0.238118,-2.45373,0,0,278,40,278,40,377,51,273,136,0.399111,0.0623403,0,-1.5,0,0,0,0,-1.71316,0.358156,0,0,0,0,-1.13762,0.238118,11128,0,0,0,0,0,0,0,0,0,1,-0.393972
8654,0.296875,0.330078,-6.49805,-0.00203606,-0.000573361,-0.00121584,-0.0644808,-0.0517453,-2.45377,-4.74155,0.055322,-0.230748,-1.7314,0.361974,-1.14123,0.238877,-2.45373,0,0,278,40,278,40,377,51,273,136,0.400069,0.0615533,0,-1.5,0,0,0,0,-1.7314,0.361974,0,0,0,0,-1.14123,0.238877,11128,0,0,0,0,0,0,0,0,0,1,-0.398171
8670,0.296875,0.363281,-0.237305,-0.00165642,0.00058393,-0.00194386,-0.0644782,-0.0517344,-2.45379,-4.80437,0.0563847,-0.214369,-1.74969,0.365804,-1.14481,0.23963,-2.45379,0,0,278,43,278,43,377,51,273,136,0.401014,0.0607896,0,-1.5,0,0,0,0,-1.74969,0.365804,0,0,0,0,-1.14481,0.23963,10608,0,0,0,0,0,0,0,0,0,1,-0.402384
8686,0.296875,0.396484,7.09473,-0.00242311,-0.000402142,-0.000934173,-0.0644851,-0.0517296,-2.4538,-4.80437,0.0563847,-0.214369,-1.7669,0.369405,-1.14814,0.240331,-2.4538,0,0,278,43,278,43,377,51,273,136,0.401911,0.0600555,0,-1.5,0,0,0,0,-1.7669,0.369405,0,0,0,0,-1.14814,0.240331,10608,0,0,0,0,0,0,0,0,0,1,-0.406345
8708,0.296875,0.375,0.513672,-0.0023696,-6.50935e-05,-0.00135418,-0.0644861,-0.0517228,-2.45383,-4.80437,0.0563847,-0.214369,-1.79339,0.37495,-1.1532,0.2414,-2.45382,0,0,278,43,278,43,377,51,273,136,0.403292,0.0589234,0,-1.5,0,0,0,0,-1.79339,0.37495,0,0,0,0,-1.1532,0.2414,10608,0,0,0,0,0,0,0,0,0,1,-0.412445
8724,0.296875,0.341797,6.59473,-0.00125123,-0.0010189,-0.00197815,-0.0644739,-0.051725,-2.45385,-4.83563,0.054075,-0.198895,-1.81187,0.37882,-1.15669,0.242136,-2.45383,0,0,279,43,279,43,377,51,273,134,0.404254,0.0581363,0,-1.5,0,0,0,0,-1.81187,0.37882,0,0,0,0,-1.15669,0.242136,10608,0,0,0,0,0,0,0,0,0,1,-0.416702
8741,0.296875,0.341797,6.59473,-0.00125123,-0.0010189,-0.00197815,-0.0644739,-0.051725,-2.45385,-4.75528,0.0448468,-0.21425,-1.83158,0.382945,-1.16036,0.242911,-2.45385,0,0,279,40,279,40,380,51,273,134,0.405276,0.0573001,0,-1.5,0,0,0,0,-1.83158,0.382945,0,0,0,0,-1.16036,0.242911,11235,0,0,0,0,0,0,0,0,0,1,-0.421239
8757,0.296875,0.275391,-4.81738,-0.00189412,-0.00102031,-0.00156781,-0.0644673,-0.0517203,-2.45388,-4.75528,0.0448468,-0.21425,-1.85018,0.386839,-1.16378,0.243634,-2.45388,0,0,279,40,279,40,380,51,273,134,0.406235,0.0565189,0,-1.5,0,0,0,0,-1.85018,0.386839,0,0,0,0,-1.16378,0.243634,11235,0,0,0,0,0,0,0,0,0,1,-0.425523
8773,0.296875,0.242188,-0.0126953,-0.00224522,-0.00114378,-0.000715229,-0.0644634,-0.0517303,-2.45389,-4.73048,0.0446754,-0.216332,-1.86884,0.390745,-1.16718,0.244351,-2.45389,0,0,279,38,279,38,380,51,273,134,0.407201,0.0557276,0,-1.5,0,0,0,0,-1.86884,0.390745,0,0,0,0,-1.16718,0.244351,11449,0,0,0,0,0,0,0,0,0,1,-0.429819
8789,0.296875,0.240234,-6.23145,-0.00191574,-0.000476341,-0.00169337,-0.0644549,-0.0517334,-2.45391,-4.73048,0.0446754,-0.216332,-1.88755,0.394662,-1.17055,0.245061,-2.45391,0,0,279,38,279,38,380,51,273,134,0.408166,0.0549403,0,-1.5,0,0,0,0,-1.88755,0.394662,0,0,0,0,-1.17055,0.245061,11449,0,0,0,0,0,0,0,0,0,1,-0.434128
8806,0.296875,0.256836,6.86426,-0.000204761,-0.000427995,-0.000288615,-0.0644492,-0.0517288,-2.45391,-4.78439,0.0507596,-0.2059,-1.90748,0.398836,-1.1741,0.245808,-2.45391,0,0,279,40,279,40,378,51,273,134,0.409197,0.0540937,0,-1.5,0,0,0,0,-1.90748,0.398836,0,0,0,0,-1.1741,0.245808,11025,0,0,0,0,0,0,0,0,0,1,-0.43872
8822,0.296875,0.323242,-6.50684,-0.00145024,-0.00088482,-0.00138691,-0.0644548,-0.0517349,-2.45396,-4.78439,0.0507596,-0.2059,-1.9263,0.402776,-1.17741,0.246506,-2.45396,0,0,279,40,279,40,378,51,273,134,0.410159,0.0533126,0,-1.5,0,0,0,0,-1.9263,0.402776,0,0,0,0,-1.17741,0.246506,11025,0,0,0,0,0,0,0,0,0,1,-0.443054
8838,0.296875,0.356445,-0.213867,-0.00170262,-0.000206826,-0.00189674,-0.0644492,-0.0517315,-2.45397,-4.77831,0.0477139,-0.215714,-1.94518,0.406727,-1.1807,0.247198,-2.45397,0,0,278,43,278,43,380,51,273,134,0.411129,0.0525192,0,-1.5,0,0,0,0,-1.94518,0.406727,0,0,0,0,-1.1807,0.247198,10914,0,0,0,0,0,0,0,0,0,1,-0.4474
8853,0.311523,0.368164,7.07031,-0.00281241,0.000137623,-0.000818959,-0.0644584,-0.0517229,-2.45398,-4.77831,0.0477139,-0.215714,-1.96292,0.410441,-1.18376,0.247843,-2.45398,0,0,278,43,278,43,380,51,273,134,0.412042,0.0517712,0,-1.5,0,0,0,0,-1.96292,0.410441,0,0,0,0,-1.18376,0.247843,10914,0,0,0,0,0,0,0,0,0,1,-0.451486
8870,0.344727,0.368164,1.90918,-0.00105447,-0.000527733,-0.000587252,-0.0644518,-0.0517234,-2.45399,-4.79858,0.0537724,-0.201753,-1.98308,0.414663,-1.1872,0.248569,-2.45399,0,0,279,40,279,40,377,51,273,134,0.413077,0.0509224,0,-1.5,0,0,0,0,-1.98308,0.414663,0,0,0,0,-1.1872,0.248569,10920,0,0,0,0,0,0,0,0,0,1,-0.456129
8885,0.344727,0.368164,1.90918,-0.00105447,-0.000527733,-0.000587252,-0.0644518,-0.0517234,-2.45399,-4.79858,0.0537724,-0.201753,-2.00092,0.418398,-1.1902,0.249204,-2.45399,0,0,279,40,279,40,377,51,273,134,0.413994,0.0501699,0,-1.5,0,0,0,0,-2.00092,0.418398,0,0,0,0,-1.1902,0.249204,10920,0,0,0,0,0,0,0,0,0,1,-0.460237
8901,0.411133,0.368164,6.6543,-0.00223191,-0.000240081,-0.00132902,-0.0644527,-0.0517285,-2.45401,-4.75743,0.0447873,-0.213669,-2.01999,0.422392,-1.19339,0.249876,-2.45401,0,0,278,40,278,40,380,51,274,134,0.414967,0.0493761,0,-1.5,0,0,0,0,-2.01999,0.422392,0,0,0,0,-1.19339,0.249876,11130,0,0,0,0,0,0,0,0,0,1,-0.464631
8918,0.355469,0.3125,-4.84082,-0.00282395,-0.000151382,-0.000691191,-0.0644645,-0.0517292,-2.45405,-4.75743,0.0447873,-0.213669,-2.04032,0.426648,-1.19675,0.250584,-2.45405,0,0,278,40,278,40,380,51,274,134,0.415998,0.0485388,0,-1.5,0,0,0,0,-2.04032,0.426648,0,0,0,0,-1.19675,0.250584,11130,0,0,0,0,0,0,0,0,0,1,-0.469313
8934,0.322266,0.279297,-0.0292969,-0.0022373,0.000910891,-0.000960038,-0.0644641,-0.0517123,-2.45407,-4.75743,0.0447873,-0.213669,-2.0595,0.430664,-1.19988,0.251247,-2.45407,0,0,278,40,278,40,380,51,274,134,0.416977,0.0477395,0,-1.5,0,0,0,0,-2.0595,0.430664,0,0,0,0,-1.19988,0.251247,11130,0,0,0,0,0,0,0,0,0,1,-0.47373
8954,0.322266,0.279297,-0.0292969,-0.0022373,0.000910891,-0.000960038,-0.0644641,-0.0517123,-2.45407,-4.72503,0.0471425,-0.229303,-2.08355,0.435701,-1.20376,0.252072,-2.45407,0,0,278,40,278,40,380,51,273,136,0.418206,0.0467298,0,-1.5,0,0,0,0,-2.08355,0.435701,0,0,0,0,-1.20376,0.252072,11235,0,0,0,0,0,0,0,0,0,1,-0.479271
9061,0.260742,0.356445,6.60449,-0.00079973,-0.00102236,-0.00161801,-0.0643908,-0.0517141,-2.45424,-4.82179,0.0509893,-0.202683,-2.21316,0.462847,-1.22412,0.25639,-2.45424,0,0,279,43,279,43,377,51,273,134,0.424773,0.0413798,0,-1.5,0,0,0,0,-2.21316,0.462847,0,0,0,0,-1.22412,0.25639,10608,0,0,0,0,0,0,0,0,0,1,-0.509131
9118,0.427734,0.356445,-6.26562,-0.00285834,-0.00150107,-0.00155899,-0.0643948,-0.0517035,-2.4543,-4.75524,0.0446846,-0.21421,-2.28469,0.477828,-1.23464,0.258605,-2.4543,0,0,279,40,279,40,380,51,273,134,0.428372,0.0384399,0,-1.5,0,0,0,0,-2.28469,0.477828,0,0,0,0,-1.23464,0.258605,11235,0,0,0,0,0,0,0,0,0,1,-0.525611
9135,0.370117,0.356445,6.98242,-0.0018204,-0.000739655,-0.00135545,-0.0643831,-0.0517172,-2.45435,-4.75524,0.0446846,-0.21421,-2.30571,0.482232,-1.23764,0.259237,-2.45433,0,0,279,40,279,40,380,51,273,134,0.429425,0.0375823,0,-1.5,0,0,0,0,-2.30571,0.482232,0,0,0,0,-1.23764,0.259237,11235,0,0,0,0,0,0,0,0,0,1,-0.530455
9151,0.336914,0.334961,-6.5,-0.00230857,-0.000758646,-0.00141974,-0.0643853,-0.051715,-2.45436,-4.78613,0.0563755,-0.205575,-2.32554,0.486386,-1.24043,0.259826,-2.45435,0,0,278,40,278,40,377,51,273,134,0.430418,0.0367726,0,-1.5,0,0,0,0,-2.32554,0.486386,0,0,0,0,-1.24043,0.259826,10920,0,0,0,0,0,0,0,0,0,1,-0.535024
9167,0.303711,0.301758,-0.243164,-0.00147709,-0.000553285,-0.000899469,-0.0643874,-0.0517101,-2.45438,-4.78613,0.0563755,-0.205575,-2.34542,0.490549,-1.24321,0.260411,-2.45438,0,0,278,40,278,40,377,51,273,134,0.431409,0.0359672,0,-1.5,0,0,0,0,-2.34542,0.490549,0,0,0,0,-1.24321,0.260411,10920,0,0,0,0,0,0,0,0,0,1,-0.539604
9183,0.270508,0.268555,7.09961,-0.000771936,-0.000973687,-0.00115917,-0.0643817,-0.0517198,-2.45439,-4.71314,0.0527402,-0.227282,-2.36534,0.494722,-1.24596,0.260992,-2.45439,0,0,278,40,278,40,380,51,271,134,0.432405,0.0351544,0,-1.5,0,0,0,0,-2.36534,0.494722,0,0,0,0,-1.24596,0.260992,11445,0,0,0,0,0,0,0,0,0,1,-0.544194
9199,0.253906,0.235352,1.93164,-0.000644685,-0.000170269,-0.00122429,-0.0643684,-0.0517181,-2.45441,-4.71314,0.0527402,-0.227282,-2.3853,0.498903,-1.24869,0.261567,-2.45441,0,0,278,40,278,40,380,51,271,134,0.433403,0.034339,0,-1.5,0,0,0,0,-2.3853,0.498903,0,0,0,0,-1.24869,0.261567,11445,0,0,0,0,0,0,0,0,0,1,-0.548794
9214,0.253906,0.235352,1.93164,-0.000644685,-0.000170269,-0.00122429,-0.0643684,-0.0517181,-2.45441,-4.69937,0.0579601,-0.237436,-2.40405,0.502832,-1.25123,0.2621,-2.45441,0,0,277,40,277,40,378,51,271,136,0.434341,0.033569,0,-1.5,0,0,0,0,-2.40405,0.502832,0,0,0,0,-1.25123,0.2621,11235,0,0,0,0,0,0,0,0,0,1,-0.553115
9229,0.296875,0.288086,6.62305,-0.00109273,-0.00065572,-0.0012736,-0.0643652,-0.0517177,-2.45443,-4.69937,0.0579601,-0.237436,-2.42285,0.506769,-1.25375,0.26263,-2.45443,0,0,277,40,277,40,378,51,271,136,0.435275,0.0328091,0,-1.5,0,0,0,0,-2.42285,0.506769,0,0,0,0,-1.25375,0.26263,11235,0,0,0,0,0,0,0,0,0,1,-0.557446
9245,0.296875,0.288086,6.62305,-0.00109273,-0.00065572,-0.0012736,-0.0643652,-0.0517177,-2.45443,-4.83781,0.053881,-0.198239,-2.44294,0.510977,-1.25642,0.263191,-2.45443,0,0,278,43,278,43,377,51,274,134,0.436278,0.0319861,0,-1.5,0,0,0,0,-2.44294,0.510977,0,0,0,0,-1.25642,0.263191,10506,0,0,0,0,0,0,0,0,0,1,-0.562074
9261,0.378906,0.387695,-0.0126953,-0.00312659,-0.000620995,-0.000573553,-0.064352,-0.0517246,-2.45448,-4.83781,0.053881,-0.198239,-2.46307,0.515194,-1.25906,0.263746,-2.45448,0,0,278,43,278,43,377,51,274,134,0.437272,0.031184,0,-1.5,0,0,0,0,-2.46307,0.515194,0,0,0,0,-1.25906,0.263746,10506,0,0,0,0,0,0,0,0,0,1,-0.566713
9277,0.378906,0.387695,-0.0126953,-0.00312659,-0.000620995,-0.000573553,-0.064352,-0.0517246,-2.45448,-4.7881,0.0417286,-0.21821,-2.48324,0.519419,-1.26169,0.264296,-2.45448,0,0,279,43,279,43,380,51,274,136,0.438276,0.0303594,0,-1.5,0,0,0,0,-2.48324,0.519419,0,0,0,0,-1.26169,0.264296,10812,0,0,0,0,0,0,0,0,0,1,-0.571361
9293,0.378906,0.386719,6.8916,-0.000976372,-0.00193961,-0.00076331,-0.0643523,-0.0517471,-2.4545,-4.7881,0.0417286,-0.21821,-2.50345,0.523654,-1.26429,0.264842,-2.4545,0,0,279,43,279,43,380,51,274,136,0.439277,0.0295443,0,-1.5,0,0,0,0,-2.50345,0.523654,0,0,0,0,-1.26429,0.264842,10812,0,0,0,0,0,0,0,0,0,1,-0.576019
9309,0.378906,0.320312,6.99121,-0.00160093,-0.000303035,-0.00142593,-0.0643559,-0.0517349,-2.45452,-4.74206,0.0586503,-0.218985,-2.52371,0.527897,-1.26687,0.265382,-2.45452,0,0,278,40,278,40,378,51,271,134,0.44028,0.0287271,0,-1.5,0,0,0,0,-2.52371,0.527897,0,0,0,0,-1.26687,0.265382,11235,0,0,0,0,0,0,0,0,0,1,-0.580687
