timestamp,A_x,A_y,A_z,P,Q,R,Phi,Theta,Psi,poseX,poseY,poseZ,state_X,state_Y,state_Z,state_VzB,state_Bx,state_By,state_Bz,p1_x,p1_y,p2_x,p2_y,p3_x,p3_y,p4_x,p4_y,roll,pitch,yaw,alt,targetHeading,highLevelState,lowLevelState,gateNumber,filtered_x,filtered_y,x_OT,y_OT,vx_OT,vy_OT,filtered_vx,filtered_vygateArearansac_corr_x,ransac_corr_y,ransac_corr_vx,ransac_corr_vy,detectionTimeStamppTermX,dTermX,pTermY,dTermY,vxcmd,vycmd
6218,-0.662109,0,-2.2832,0.00125667,-0.000223381,-0.0112925,0.0847452,-0.00978444,2.30981,0,0,0,-2.22668e-05,-1.62996e-05,-0.00472665,-0.00345432,2.31321,0,0,0,0,0,0,0,0,0,0,-0.185667,-0.0052676,0,-1.5,0,0,0,0,-2.22668e-05,-1.62996e-05,0,0,0,0,-0.00472665,-0.00345432,1.9603e-19,0,0,0,0,0,0,0,0,0,1,1.79296e-05
6238,-0.662109,0.0625,-2.27539,-0.000481827,-7.13054e-05,-0.011004,0.0847029,-0.0100333,2.30095,0,0,0,-0.000314814,-0.000228262,-0.0189086,-0.013647,2.30449,0,0,0,0,0,0,0,0,0,0,-0.191514,-0.00645468,0,-1.5,0,0,0,0,-0.000314814,-0.000228262,0,0,0,0,-0.0189086,-0.013647,1.9603e-19,0,0,0,0,0,0,0,0,0,1,0.000251089
6259,-0.743164,0.0625,-0.206055,0.000799301,-0.000542211,-0.0107099,0.0846907,-0.0102459,2.29228,0,0,0,-0.000870438,-0.000626117,-0.0323935,-0.0231034,2.29571,0,0,0,0,0,0,0,0,0,0,-0.197145,-0.00775938,0,-1.5,0,0,0,0,-0.000870438,-0.000626117,0,0,0,0,-0.0323935,-0.0231034,1.9603e-19,0,0,0,0,0,0,0,0,0,1,0.000688729
6276,-0.647461,0.0625,5.65723,7.58821e-06,-0.000838995,-0.0115092,0.0846948,-0.0105659,2.2846,0,0,0,-0.00159302,-0.00113758,-0.0445195,-0.0313796,2.28699,0,0,0,0,0,0,0,0,0,0,-0.202328,-0.00916068,0,-1.5,0,0,0,0,-0.00159302,-0.00113758,0,0,0,0,-0.0445195,-0.0313796,1.9603e-19,0,0,0,0,0,0,0,0,0,1,0.00125134
6297,-0.647461,0.0625,-7.02051,-0.00143031,0.000191438,-0.0104035,0.0846831,-0.0105736,2.28431,0,0,0,-0.00273872,-0.00193754,-0.0586354,-0.0408149,2.28431,0,0,0,0,0,0,0,0,0,0,-0.207127,-0.0093446,0,-1.5,0,0,0,0,-0.00273872,-0.00193754,0,0,0,0,-0.0586354,-0.0408149,1.9603e-19,0,0,0,0,0,0,0,0,0,1,0.0021313
6313,-0.647461,0.0625,5.27051,0.000958096,-0.000378375,-0.0107328,0.0846917,-0.010582,2.28416,0,0,0,-0.00378554,-0.00266306,-0.0692858,-0.0479189,2.28416,0,0,0,0,0,0,0,0,0,0,-0.210458,-0.00912689,0,-1.5,0,0,0,0,-0.00378554,-0.00266306,0,0,0,0,-0.0692858,-0.0479189,1.9603e-19,0,0,0,0,0,0,0,0,0,1,0.00292937
6335,-0.647461,0.0625,-2.89355,-0.000624047,-0.000614597,-0.0106939,0.0846788,-0.0105924,2.28386,0,0,0,-0.00554014,-0.00387083,-0.0838144,-0.0576045,2.28401,0,0,0,0,0,0,0,0,0,0,-0.21503,-0.00886387,0,-1.5,0,0,0,0,-0.00554014,-0.00387083,0,0,0,0,-0.0838144,-0.0576045,1.9603e-19,0,0,0,0,0,0,0,0,0,1,0.00425791
6362,-0.647461,0.0625,-0.72168,-0.000912932,-0.000542876,-0.00959483,0.0846692,-0.0105948,2.28372,0,0,0,-0.00805192,-0.00559019,-0.100796,-0.0689183,2.28372,0,0,0,0,0,0,0,0,0,0,-0.22045,-0.00864757,0,-1.5,0,0,0,0,-0.00805192,-0.00559019,0,0,0,0,-0.100796,-0.0689183,1.9603e-19,0,0,0,0,0,0,0,0,0,1,0.00614921
6379,-0.647461,0.0625,-0.175781,-0.00134551,-0.000225661,-0.0113306,0.08465,-0.0106056,2.28342,0,0,0,-0.0100038,-0.00692231,-0.112402,-0.0766442,2.28358,0,0,0,0,0,0,0,0,0,0,-0.224171,-0.00851937,0,-1.5,0,0,0,0,-0.0100038,-0.00692231,0,0,0,0,-0.112402,-0.0766442,1.9603e-19,0,0,0,0,0,0,0,0,0,1,0.00761454
6404,-0.647461,0.0625,-2.02637,-0.0012094,0.000397851,-0.0105867,0.0846395,-0.0106017,2.28313,-4.0127,0.0978746,-0.139401,-0.0131027,-0.00903049,-0.128372,-0.0872655,2.28342,0,0,232,31,232,31,348,21,248,142,-0.229334,-0.00839294,0,-1.5,0,0,0,0,-0.0131027,-0.00903049,0,0,0,0,-0.128372,-0.0872655,15246,0,0,0,0,0,0,0,0,0,1,0.00993354
6420,-0.647461,0.0625,0.553711,-0.000578447,-0.00108108,-0.0102946,0.0846385,-0.0106078,2.28299,-4.04694,0.0886927,-0.125056,-0.0152629,-0.0104974,-0.138473,-0.0939814,2.28313,0,0,236,30,236,30,348,21,248,142,-0.232654,-0.00838531,0,-1.5,0,0,0,0,-0.0152629,-0.0104974,0,0,0,0,-0.138473,-0.0939814,14762,0,0,0,0,0,0,0,0,0,1,0.0115471
6456,-0.647461,0.0625,-2.26758,-0.00159037,-0.000785742,-0.00873103,0.0846157,-0.0106212,2.28271,-4.04694,0.0886927,-0.125056,-0.02089,-0.0143073,-0.161001,-0.108943,2.28271,0,0,236,30,236,30,348,21,248,142,-0.240116,-0.0084288,0,-1.5,0,0,0,0,-0.02089,-0.0143073,0,0,0,0,-0.161001,-0.108943,14762,0,0,0,0,0,0,0,0,0,1,0.015738
6482,-0.647461,0.0625,5.25781,-0.000185287,-0.000403476,-0.0116865,0.0846048,-0.0106236,2.28241,-4.05994,0.101359,-0.121586,-0.0253799,-0.0173414,-0.176984,-0.119547,2.28241,0,0,234,30,234,30,345,22,248,142,-0.245467,-0.00853007,0,-1.5,0,0,0,0,-0.0253799,-0.0173414,0,0,0,0,-0.176984,-0.119547,14880,0,0,0,0,0,0,0,0,0,1,0.0190755
6500,-0.647461,0.0625,-2.93848,-0.000473505,-0.000135389,-0.00960663,0.0845921,-0.010645,2.28213,-4.05994,0.101359,-0.121586,-0.0286994,-0.019582,-0.187915,-0.126792,2.28227,0,0,234,30,234,30,345,22,248,142,-0.249146,-0.00861967,0,-1.5,0,0,0,0,-0.0286994,-0.019582,0,0,0,0,-0.187915,-0.126792,14880,0,0,0,0,0,0,0,0,0,1,0.0215401
6521,-0.647461,0.0625,-0.71875,0.000215523,-0.000471782,-0.0105044,0.0845869,-0.0106505,2.28199,-4.05994,0.101359,-0.121586,-0.0328283,-0.0223656,-0.200551,-0.135159,2.28199,0,0,234,30,234,30,345,22,248,142,-0.25345,-0.00879114,0,-1.5,0,0,0,0,-0.0328283,-0.0223656,0,0,0,0,-0.200551,-0.135159,14880,0,0,0,0,0,0,0,0,0,1,0.0246021
6542,-0.647461,0.0625,-0.213867,3.2182e-06,1.65973e-05,-0.0117452,0.0845664,-0.0106412,2.2817,-4.05128,0.0815669,-0.128667,-0.0372267,-0.0253275,-0.213059,-0.143436,2.28199,0,0,236,30,236,30,349,24,248,142,-0.257701,-0.00893473,0,-1.5,0,0,0,0,-0.0372267,-0.0253275,0,0,0,0,-0.213059,-0.143436,14632,0,0,0,0,0,0,0,0,0,1,0.0278603
6558,-0.651367,0.0625,-2.30176,-0.000290015,0.000480357,-0.0115822,0.0845679,-0.0106241,2.28154,-4.05128,0.0815669,-0.128667,-0.0407348,-0.0276881,-0.222491,-0.149676,2.2817,0,0,236,30,236,30,349,24,248,142,-0.260978,-0.00914579,0,-1.5,0,0,0,0,-0.0407348,-0.0276881,0,0,0,0,-0.222491,-0.149676,14632,0,0,0,0,0,0,0,0,0,1,0.030457
6580,-0.68457,0.0625,-2.05371,-3.3708e-05,0.000358439,-0.0100607,0.0845692,-0.0106236,2.28139,-4.02023,0.0981033,-0.13431,-0.045827,-0.0311116,-0.235348,-0.158179,2.28139,0,0,232,31,232,31,348,21,248,142,-0.265465,-0.00945286,0,-1.5,0,0,0,0,-0.045827,-0.0311116,0,0,0,0,-0.235348,-0.158179,15246,0,0,0,0,0,0,0,0,0,1,0.0342227
6601,-0.717773,0.0625,0.558594,-6.64125e-05,0.000303302,-0.0096371,0.0845673,-0.0106212,2.28126,-4.02023,0.0981033,-0.13431,-0.0509507,-0.0345532,-0.247492,-0.166208,2.28126,0,0,232,31,232,31,348,21,248,142,-0.269714,-0.00974651,0,-1.5,0,0,0,0,-0.0509507,-0.0345532,0,0,0,0,-0.247492,-0.166208,15246,0,0,0,0,0,0,0,0,0,1,0.0380086
6617,-0.759766,0.0625,-2.29102,0.00080337,-0.000636284,-0.0108731,0.0845616,-0.0106412,2.28096,-4.02023,0.0981033,-0.13431,-0.055004,-0.0372743,-0.256649,-0.172259,2.28096,0,0,232,31,232,31,348,21,248,142,-0.272974,-0.0100491,0,-1.5,0,0,0,0,-0.055004,-0.0372743,0,0,0,0,-0.256649,-0.172259,15246,0,0,0,0,0,0,0,0,0,1,0.0410018
6639,-0.693359,0.0625,5.25293,-6.66539e-05,-0.000404734,-0.0103841,0.0845603,-0.0106492,2.28067,-4.02023,0.0981033,-0.13431,-0.0608421,-0.0411906,-0.269139,-0.180503,2.28096,0,0,232,31,232,31,348,21,248,142,-0.277387,-0.0103928,0,-1.5,0,0,0,0,-0.0608421,-0.0411906,0,0,0,0,-0.269139,-0.180503,15246,0,0,0,0,0,0,0,0,0,1,0.0453096
6655,-0.660156,0.0625,2.66602,-0.0011176,-0.000155358,-0.0103631,0.0845549,-0.0106541,2.28052,-4.02023,0.0981033,-0.13431,-0.0649607,-0.043952,-0.277569,-0.186064,2.28067,0,0,232,31,232,31,348,21,248,142,-0.280435,-0.010732,0,-1.5,0,0,0,0,-0.0649607,-0.043952,0,0,0,0,-0.277569,-0.186064,15246,0,0,0,0,0,0,0,0,0,1,0.0483472
6678,-0.660156,0.0625,2.66602,-0.0011176,-0.000155358,-0.0103631,0.0845549,-0.0106541,2.28052,-4.07333,0.0870049,-0.12017,-0.0718521,-0.0485688,-0.290948,-0.194881,2.28052,0,0,236,30,236,30,349,24,248,142,-0.28526,-0.0112278,0,-1.5,0,0,0,0,-0.0718521,-0.0485688,0,0,0,0,-0.290948,-0.194881,14396,0,0,0,0,0,0,0,0,0,1,0.0534257
6699,-0.633789,0.0625,-0.694336,-0.000189021,-0.00068811,-0.0104999,0.0845763,-0.010666,2.28023,-4.07333,0.0870049,-0.12017,-0.0781348,-0.0527752,-0.302521,-0.202505,2.28023,0,0,236,30,236,30,349,24,248,142,-0.289498,-0.0117506,0,-1.5,0,0,0,0,-0.0781348,-0.0527752,0,0,0,0,-0.302521,-0.202505,14396,0,0,0,0,0,0,0,0,0,1,0.0580527
6715,-0.755859,0.0625,-0.192383,0.000835487,-0.000640966,-0.0108166,0.0846042,-0.0106855,2.27994,-4.07333,0.0870049,-0.12017,-0.0830642,-0.0560739,-0.311255,-0.208252,2.27994,0,0,236,30,236,30,349,24,248,142,-0.292728,-0.0121918,0,-1.5,0,0,0,0,-0.0830642,-0.0560739,0,0,0,0,-0.311255,-0.208252,14396,0,0,0,0,0,0,0,0,0,1,0.0616813
6737,-0.727539,0.0625,-2.0752,-0.000983771,-8.51042e-05,-0.0121052,0.0846058,-0.0107066,2.27963,-4.0842,0.0896468,-0.11613,-0.0897705,-0.0605589,-0.322631,-0.21573,2.27994,0,0,236,30,236,30,349,24,248,142,-0.296907,-0.0126947,0,-1.5,0,0,0,0,-0.0897705,-0.0605589,0,0,0,0,-0.322631,-0.21573,14278,0,0,0,0,0,0,0,0,0,1,0.0666148
6757,-0.694336,0.0625,0.55957,-0.000320996,-0.000889216,-0.0115539,0.0846106,-0.0107187,2.27947,-4.0842,0.0896468,-0.11613,-0.0967085,-0.0651962,-0.333889,-0.223125,2.27947,0,0,236,30,236,30,349,24,248,142,-0.301154,-0.0133753,0,-1.5,0,0,0,0,-0.0967085,-0.0651962,0,0,0,0,-0.333889,-0.223125,14278,0,0,0,0,0,0,0,0,0,1,0.0717158
6772,-0.694336,0.0625,0.55957,-0.000320996,-0.000889216,-0.0115539,0.0846106,-0.0107187,2.27947,-4.06523,0.0894112,-0.128081,-0.101794,-0.0685936,-0.341856,-0.228349,2.27947,0,0,236,30,236,30,349,25,247,142,-0.304124,-0.01378,0,-1.5,0,0,0,0,-0.101794,-0.0685936,0,0,0,0,-0.341856,-0.228349,14274,0,0,0,0,0,0,0,0,0,1,0.075453
6794,-0.618164,0.0625,-7.01855,0.000298262,-0.000763235,-0.00945222,0.0846349,-0.0107364,2.27903,-4.06523,0.0894112,-0.128081,-0.109493,-0.073734,-0.353448,-0.235949,2.27917,0,0,236,30,236,30,349,25,247,142,-0.308529,-0.0145014,0,-1.5,0,0,0,0,-0.109493,-0.073734,0,0,0,0,-0.353448,-0.235949,14274,0,0,0,0,0,0,0,0,0,1,0.0811074
6815,-0.647461,0.0625,5.24805,0.00100378,0.000544501,-0.0108783,0.0846419,-0.0107367,2.27888,-4.06523,0.0894112,-0.128081,-0.117079,-0.078796,-0.364404,-0.24312,2.27888,0,0,236,30,236,30,349,25,247,142,-0.312727,-0.0152291,0,-1.5,0,0,0,0,-0.117079,-0.078796,0,0,0,0,-0.364404,-0.24312,14274,0,0,0,0,0,0,0,0,0,1,0.0866757
6831,-0.680664,0.0625,2.66699,-0.000727809,0.00016241,-0.0107008,0.0846312,-0.0107297,2.27872,-4.06523,0.0894112,-0.128081,-0.122996,-0.0827428,-0.372667,-0.248526,2.27872,0,0,236,30,236,30,349,25,247,142,-0.315907,-0.0157879,0,-1.5,0,0,0,0,-0.122996,-0.0827428,0,0,0,0,-0.372667,-0.248526,14274,0,0,0,0,0,0,0,0,0,1,0.0910171
6852,-0.74707,0.0625,-0.703125,-0.000341056,8.18234e-05,-0.0117161,0.0846152,-0.010743,2.2784,-4.06523,0.0894112,-0.128081,-0.130983,-0.088067,-0.383424,-0.25556,2.2784,0,0,236,30,236,30,349,25,247,142,-0.320095,-0.0165876,0,-1.5,0,0,0,0,-0.130983,-0.088067,0,0,0,0,-0.383424,-0.25556,14274,0,0,0,0,0,0,0,0,0,1,0.0968736
6868,-0.780273,0.0625,6.27539,-6.24459e-05,-0.00020452,-0.0107539,0.0846255,-0.010741,2.27826,-4.06881,0.0921009,-0.126652,-0.137203,-0.0922116,-0.391537,-0.260859,2.27826,0,0,234,31,234,31,349,25,248,142,-0.323261,-0.0171894,0,-1.5,0,0,0,0,-0.137203,-0.0922116,0,0,0,0,-0.391537,-0.260859,14508,0,0,0,0,0,0,0,0,0,1,0.101433
6890,-0.720703,0.0625,-2.30664,-0.000753026,-0.000564532,-0.010664,0.0846355,-0.0107524,2.27795,-4.06881,0.0921009,-0.126652,-0.145583,-0.0977927,-0.402101,-0.267757,2.27811,0,0,234,31,234,31,349,25,248,142,-0.32741,-0.017999,0,-1.5,0,0,0,0,-0.145583,-0.0977927,0,0,0,0,-0.402101,-0.267757,14508,0,0,0,0,0,0,0,0,0,1,0.107572
6911,-0.6875,0.0625,-2.06445,0.000922778,-0.000844658,-0.0116449,0.0846436,-0.0107539,2.2778,-4.06881,0.0921009,-0.126652,-0.154603,-0.103797,-0.413058,-0.274901,2.2778,0,0,234,31,234,31,349,25,248,142,-0.331773,-0.018934,0,-1.5,0,0,0,0,-0.154603,-0.103797,0,0,0,0,-0.413058,-0.274901,14508,0,0,0,0,0,0,0,0,0,1,0.114176
6927,-0.654297,0.0625,0.52832,0.000251924,0.000381814,-0.0106446,0.0846348,-0.0107557,2.27764,-4.06881,0.0921009,-0.126652,-0.161295,-0.108249,-0.420944,-0.28004,2.27764,0,0,234,31,234,31,349,25,248,142,-0.334927,-0.019614,0,-1.5,0,0,0,0,-0.161295,-0.108249,0,0,0,0,-0.420944,-0.28004,14508,0,0,0,0,0,0,0,0,0,1,0.119074
6948,-0.624023,0.0625,-2.29785,0.000617213,-0.0006677,-0.0101413,0.0846537,-0.0107662,2.27734,-4.06719,0.0916819,-0.120394,-0.170288,-0.11423,-0.431209,-0.286726,2.27734,0,0,236,30,236,30,348,22,248,142,-0.339077,-0.0205696,0,-1.5,0,0,0,0,-0.170288,-0.11423,0,0,0,0,-0.431209,-0.286726,14520,0,0,0,0,0,0,0,0,0,1,0.125653
6970,-0.657227,0.0625,-7.00684,-0.000579665,-0.000427707,-0.0113526,0.0846569,-0.0107713,2.27719,-4.06235,0.0941681,-0.129146,-0.179938,-0.120644,-0.441855,-0.293651,2.27719,0,0,234,30,234,30,348,25,248,142,-0.343394,-0.0215526,0,-1.5,0,0,0,0,-0.179938,-0.120644,0,0,0,0,-0.441855,-0.293651,14508,0,0,0,0,0,0,0,0,0,1,0.132708
6985,-0.723633,0.0625,2.6709,-0.00101035,0.00041202,-0.0109577,0.0846503,-0.010782,2.2769,-4.06235,0.0941681,-0.129146,-0.186633,-0.125093,-0.44904,-0.298322,2.27705,0,0,234,30,234,30,348,25,248,142,-0.346334,-0.0222529,0,-1.5,0,0,0,0,-0.186633,-0.125093,0,0,0,0,-0.44904,-0.298322,14508,0,0,0,0,0,0,0,0,0,1,0.137602
7005,-0.756836,0.0625,-2.88574,0.000831309,-0.000362228,-0.00939715,0.0846648,-0.0107848,2.27677,-4.06235,0.0941681,-0.129146,-0.195747,-0.131146,-0.458549,-0.304499,2.27677,0,0,234,30,234,30,348,25,248,142,-0.350267,-0.0232508,0,-1.5,0,0,0,0,-0.195747,-0.131146,0,0,0,0,-0.458549,-0.304499,14508,0,0,0,0,0,0,0,0,0,1,0.144261
7027,-0.775391,0.0625,6.28516,-0.000280153,-0.000396329,-0.0104657,0.0846664,-0.0107976,2.27648,-4.06235,0.0941681,-0.129146,-0.205995,-0.137948,-0.468905,-0.311219,2.27663,0,0,234,30,234,30,348,25,248,142,-0.354563,-0.0243239,0,-1.5,0,0,0,0,-0.205995,-0.137948,0,0,0,0,-0.468905,-0.311219,14508,0,0,0,0,0,0,0,0,0,1,0.151743
7042,-0.742188,0.0625,-0.192383,-0.0012865,0.000288582,-0.0115841,0.0846594,-0.0107979,2.27633,-4.06235,0.0941681,-0.129146,-0.213096,-0.14266,-0.475896,-0.315751,2.27648,0,0,234,30,234,30,348,25,248,142,-0.357491,-0.025092,0,-1.5,0,0,0,0,-0.213096,-0.14266,0,0,0,0,-0.475896,-0.315751,14508,0,0,0,0,0,0,0,0,0,1,0.156926
7064,-0.708984,0.0625,-2.27832,0.000446214,-0.000856812,-0.0115857,0.0846675,-0.0108155,2.27618,-4.07366,0.0868485,-0.120738,-0.223727,-0.149711,-0.48607,-0.32234,2.27618,0,0,236,30,236,30,349,24,248,142,-0.361798,-0.0262815,0,-1.5,0,0,0,0,-0.223727,-0.149711,0,0,0,0,-0.48607,-0.32234,14396,0,0,0,0,0,0,0,0,0,1,0.164682
7080,-0.708984,0.0625,-2.27832,0.000446214,-0.000856812,-0.0115857,0.0846675,-0.0108155,2.27618,-4.07366,0.0868485,-0.120738,-0.231579,-0.154917,-0.493393,-0.327077,2.27618,0,0,236,30,236,30,349,24,248,142,-0.364887,-0.0270863,0,-1.5,0,0,0,0,-0.231579,-0.154917,0,0,0,0,-0.493393,-0.327077,14396,0,0,0,0,0,0,0,0,0,1,0.170409
7101,-0.642578,0.0625,0.546875,6.29745e-05,-0.000686997,-0.0119605,0.0846554,-0.0108283,2.27587,-4.03471,0.0835598,-0.133249,-0.242082,-0.161878,-0.502927,-0.333243,2.27587,0,0,236,30,236,30,348,22,248,142,-0.368987,-0.028285,0,-1.5,0,0,0,0,-0.242082,-0.161878,0,0,0,0,-0.502927,-0.333243,14880,0,0,0,0,0,0,0,0,0,1,0.178066
7123,-0.635742,0.0625,-7.00391,5.38599e-05,-0.00131179,-0.0107355,0.0846728,-0.010874,2.27542,-4.03471,0.0835598,-0.133249,-0.253298,-0.169307,-0.512813,-0.339623,2.27556,0,0,236,30,236,30,348,22,248,142,-0.373272,-0.0295684,0,-1.5,0,0,0,0,-0.253298,-0.169307,0,0,0,0,-0.512813,-0.339623,14880,0,0,0,0,0,0,0,0,0,1,0.186238
7138,-0.635742,0.0625,5.30273,-0.000362634,0.000601632,-0.0103297,0.0846666,-0.0108778,2.27528,-4.07373,0.0868553,-0.120856,-0.261055,-0.174443,-0.51949,-0.343924,2.27542,0,0,236,30,236,30,349,24,248,142,-0.376175,-0.0304339,0,-1.5,0,0,0,0,-0.261055,-0.174443,0,0,0,0,-0.51949,-0.343924,14396,0,0,0,0,0,0,0,0,0,1,0.191887
7160,-0.635742,0.0625,2.69727,0.000336529,-0.00038921,-0.011328,0.0846708,-0.0108755,2.27513,-4.07373,0.0868553,-0.120856,-0.272633,-0.182105,-0.529206,-0.350174,2.27513,0,0,236,30,236,30,349,24,248,142,-0.380444,-0.0317677,0,-1.5,0,0,0,0,-0.272633,-0.182105,0,0,0,0,-0.529206,-0.350174,14396,0,0,0,0,0,0,0,0,0,1,0.200316
7181,-0.635742,0.0625,-0.722656,-0.000664019,-7.03156e-05,-0.0129852,0.0846823,-0.0108757,2.27483,-4.04832,0.0814942,-0.133496,-0.283879,-0.189544,-0.538381,-0.356074,2.27483,0,0,236,30,236,30,351,24,248,142,-0.384515,-0.033083,0,-1.5,0,0,0,0,-0.283879,-0.189544,0,0,0,0,-0.538381,-0.356074,14396,0,0,0,0,0,0,0,0,0,1,0.208499
7197,-0.635742,0.0625,6.29785,-0.000607303,-0.000320696,-0.0103769,0.084674,-0.0108755,2.27467,-4.06888,0.0868356,-0.12553,-0.292564,-0.195287,-0.545304,-0.360521,2.27467,0,0,236,30,236,30,351,24,248,142,-0.387598,-0.0340743,0,-1.5,0,0,0,0,-0.292564,-0.195287,0,0,0,0,-0.545304,-0.360521,14160,0,0,0,0,0,0,0,0,0,1,0.214816
7219,-0.635742,0.0625,-0.189453,-0.00245598,-0.000252029,-0.0121506,0.084654,-0.0108778,2.2745,-4.06888,0.0868356,-0.12553,-0.304705,-0.203311,-0.554744,-0.36658,2.2745,0,0,236,30,236,30,351,24,248,142,-0.391829,-0.0354501,0,-1.5,0,0,0,0,-0.304705,-0.203311,0,0,0,0,-0.554744,-0.36658,14160,0,0,0,0,0,0,0,0,0,1,0.223643
7234,-0.635742,0.0625,-2.2666,0.00045171,-8.85469e-05,-0.0108014,0.0846719,-0.010882,2.27435,-4.05179,0.0814715,-0.12956,-0.313086,-0.208849,-0.561113,-0.370665,2.27435,0,0,236,30,236,30,349,24,248,142,-0.39471,-0.036419,0,-1.5,0,0,0,0,-0.313086,-0.208849,0,0,0,0,-0.561113,-0.370665,14632,0,0,0,0,0,0,0,0,0,1,0.229733
7254,-0.635742,0.0625,0.539062,6.59653e-05,-2.44649e-05,-0.00973371,0.0846737,-0.0108987,2.27406,-4.05179,0.0814715,-0.12956,-0.324427,-0.216338,-0.569545,-0.376068,2.27406,0,0,236,30,236,30,349,24,248,142,-0.398564,-0.0377728,0,-1.5,0,0,0,0,-0.324427,-0.216338,0,0,0,0,-0.569545,-0.376068,14632,0,0,0,0,0,0,0,0,0,1,0.237971
7276,-0.635742,0.0625,-2.29004,-0.000354138,0.000745594,-0.0105797,0.0846755,-0.0109073,2.27378,-4.02511,0.0884737,-0.141409,-0.337098,-0.224701,-0.578729,-0.381945,2.27406,0,0,232,31,232,31,349,24,249,142,-0.402753,-0.039163,0,-1.5,0,0,0,0,-0.337098,-0.224701,0,0,0,0,-0.578729,-0.381945,15104,0,0,0,0,0,0,0,0,0,1,0.247172
7292,-0.635742,0.0625,-7.03613,-0.000588604,-0.000184376,-0.0107076,0.0846678,-0.0109049,2.27363,-4.02511,0.0884737,-0.141409,-0.346425,-0.230856,-0.58534,-0.38617,2.27378,0,0,232,31,232,31,349,24,249,142,-0.405829,-0.0403048,0,-1.5,0,0,0,0,-0.346425,-0.230856,0,0,0,0,-0.58534,-0.38617,15104,0,0,0,0,0,0,0,0,0,1,0.253941
7313,-0.635742,0.0625,-7.03613,-0.000588604,-0.000184376,-0.0107076,0.0846678,-0.0109049,2.27363,-4.08263,0.0894988,-0.117705,-0.358846,-0.239047,-0.593947,-0.391668,2.27363,0,0,236,30,236,30,348,24,248,142,-0.409834,-0.0417402,0,-1.5,0,0,0,0,-0.358846,-0.239047,0,0,0,0,-0.593947,-0.391668,14396,0,0,0,0,0,0,0,0,0,1,0.262952
7335,-0.635742,0.0625,2.66797,0.000381389,-0.00157371,-0.0114875,0.0846652,-0.0109074,2.27332,-4.0335,0.0838026,-0.138722,-0.372054,-0.247754,-0.60287,-0.397365,2.27332,0,0,236,30,236,30,349,24,247,143,-0.414046,-0.0433408,0,-1.5,0,0,0,0,-0.372054,-0.247754,0,0,0,0,-0.60287,-0.397365,14756,0,0,0,0,0,0,0,0,0,1,0.27253
7351,-0.635742,0.0625,-0.697266,-0.00028623,-0.000733004,-0.0112917,0.0846712,-0.0109171,2.27303,-4.0335,0.0838026,-0.138722,-0.381766,-0.254154,-0.609292,-0.40146,2.27303,0,0,236,30,236,30,349,24,247,143,-0.417108,-0.04455,0,-1.5,0,0,0,0,-0.381766,-0.254154,0,0,0,0,-0.609292,-0.40146,14756,0,0,0,0,0,0,0,0,0,1,0.279569
7372,-0.643555,0.0625,-0.166992,-0.000379963,-0.000594174,-0.0110367,0.0846856,-0.0109283,2.27273,-4.05188,0.0814446,-0.12971,-0.394686,-0.262664,-0.617657,-0.406787,2.27303,0,0,236,30,236,30,349,24,248,142,-0.421076,-0.0460026,0,-1.5,0,0,0,0,-0.394686,-0.262664,0,0,0,0,-0.617657,-0.406787,14632,0,0,0,0,0,0,0,0,0,1,0.288931
7388,-0.676758,0.0625,-2.26465,-0.00114278,-0.00172603,-0.0100902,0.0846728,-0.0109408,2.27259,-4.05188,0.0814446,-0.12971,-0.404634,-0.269215,-0.623967,-0.410803,2.27273,0,0,236,30,236,30,349,24,248,142,-0.42413,-0.0472513,0,-1.5,0,0,0,0,-0.404634,-0.269215,0,0,0,0,-0.623967,-0.410803,14632,0,0,0,0,0,0,0,0,0,1,0.296136
7410,-0.676758,0.0625,-2.26465,-0.00114278,-0.00172603,-0.0100902,0.0846728,-0.0109408,2.27259,-4.06626,0.0867783,-0.126648,-0.418498,-0.278339,-0.632576,-0.416271,2.27259,0,0,236,30,236,30,349,24,248,142,-0.428294,-0.0488803,0,-1.5,0,0,0,0,-0.418498,-0.278339,0,0,0,0,-0.632576,-0.416271,14396,0,0,0,0,0,0,0,0,0,1,0.306173
7431,-0.753906,0.0625,5.67383,-0.000787115,-0.00144645,-0.0108706,0.0846722,-0.0109769,2.27215,-4.04952,0.0988225,-0.131867,-0.431904,-0.287158,-0.640707,-0.421431,2.27215,0,0,232,31,232,31,349,24,248,142,-0.4323,-0.0505983,0,-1.5,0,0,0,0,-0.431904,-0.287158,0,0,0,0,-0.640707,-0.421431,14750,0,0,0,0,0,0,0,0,0,1,0.315874
7447,-0.753906,0.0625,-2.30078,-0.000223752,-0.00130891,-0.0109499,0.0846741,-0.0109895,2.272,-4.04952,0.0988225,-0.131867,-0.442218,-0.293941,-0.646843,-0.425313,2.272,0,0,232,31,232,31,349,24,248,142,-0.43532,-0.0518405,0,-1.5,0,0,0,0,-0.442218,-0.293941,0,0,0,0,-0.646843,-0.425313,14750,0,0,0,0,0,0,0,0,0,1,0.323335
7469,-0.753906,0.0625,-7.01953,-0.000410545,-0.000375648,-0.0103632,0.0846763,-0.0109923,2.27184,-4.06629,0.0914012,-0.116928,-0.456577,-0.303379,-0.655213,-0.430603,2.27184,0,0,236,30,236,30,348,21,248,142,-0.439465,-0.0535516,0,-1.5,0,0,0,0,-0.456577,-0.303379,0,0,0,0,-0.655213,-0.430603,14641,0,0,0,0,0,0,0,0,0,1,0.333717
7489,-0.753906,0.0625,2.72266,0.000321694,-0.000132803,-0.0111237,0.0846865,-0.0109797,2.27154,-4.06629,0.0914012,-0.116928,-0.469783,-0.312055,-0.662741,-0.435357,2.27154,0,0,236,30,236,30,348,21,248,142,-0.443245,-0.0552015,0,-1.5,0,0,0,0,-0.469783,-0.312055,0,0,0,0,-0.662741,-0.435357,14641,0,0,0,0,0,0,0,0,0,1,0.343261
7505,-0.753906,0.0625,2.72266,0.000321694,-0.000132803,-0.0111237,0.0846865,-0.0109797,2.27154,-4.06641,0.086794,-0.126897,-0.480448,-0.319059,-0.668707,-0.439123,2.27154,0,0,236,30,236,30,349,24,248,142,-0.446234,-0.0564318,0,-1.5,0,0,0,0,-0.480448,-0.319059,0,0,0,0,-0.668707,-0.439123,14396,0,0,0,0,0,0,0,0,0,1,0.350965
7526,-0.753906,0.0625,6.28418,0.000121171,-0.000197844,-0.0109401,0.084677,-0.0109772,2.27112,-4.06641,0.086794,-0.126897,-0.494603,-0.328352,-0.676473,-0.444023,2.27126,0,0,236,30,236,30,349,24,248,142,-0.450188,-0.0581952,0,-1.5,0,0,0,0,-0.494603,-0.328352,0,0,0,0,-0.676473,-0.444023,14396,0,0,0,0,0,0,0,0,0,1,0.361187
7547,-0.753906,0.0625,-0.211914,-0.000873534,0.000820617,-0.0120616,0.0846685,-0.0109735,2.27096,-4.03368,0.0833033,-0.12953,-0.508924,-0.337749,-0.684161,-0.448867,2.27096,0,0,236,30,236,30,348,21,248,142,-0.454138,-0.0599943,0,-1.5,0,0,0,0,-0.508924,-0.337749,0,0,0,0,-0.684161,-0.448867,15004,0,0,0,0,0,0,0,0,0,1,0.371524
7563,-0.753906,0.0625,-2.2832,0.000572725,-0.000762613,-0.0116579,0.0846685,-0.0109753,2.27081,-4.06474,0.0890891,-0.124596,-0.519931,-0.344969,-0.689959,-0.452518,2.27081,0,0,236,30,236,30,349,24,247,142,-0.457131,-0.061348,0,-1.5,0,0,0,0,-0.519931,-0.344969,0,0,0,0,-0.689959,-0.452518,14396,0,0,0,0,0,0,0,0,0,1,0.379466
7585,-0.753906,0.0625,0.581055,0.000309514,7.81663e-05,-0.0104338,0.0846659,-0.010978,2.27052,-4.06474,0.0890891,-0.124596,-0.535232,-0.355001,-0.697865,-0.457493,2.27052,0,0,236,30,236,30,349,24,247,142,-0.461253,-0.0632681,0,-1.5,0,0,0,0,-0.535232,-0.355001,0,0,0,0,-0.697865,-0.457493,14396,0,0,0,0,0,0,0,0,0,1,0.390501
7601,-0.753906,0.0625,5.67773,0.000711911,-2.77826e-05,-0.0110502,0.0846758,-0.0109717,2.27037,-4.06784,0.0917667,-0.125854,-0.546456,-0.362357,-0.703557,-0.461069,2.27037,0,0,236,30,236,30,349,24,247,142,-0.464237,-0.0646544,0,-1.5,0,0,0,0,-0.546456,-0.362357,0,0,0,0,-0.703557,-0.461069,14278,0,0,0,0,0,0,0,0,0,1,0.398593
7622,-0.753906,0.0625,-7.0332,0.000952261,-0.00112696,-0.0101259,0.0846876,-0.0109855,2.27008,-4.06784,0.0917667,-0.125854,-0.561341,-0.372109,-0.710968,-0.465724,2.27022,0,0,236,30,236,30,349,24,247,142,-0.468147,-0.066473,0,-1.5,0,0,0,0,-0.561341,-0.372109,0,0,0,0,-0.710968,-0.465724,14278,0,0,0,0,0,0,0,0,0,1,0.40932
7644,-0.753906,0.0625,-7.0332,0.000952261,-0.00112696,-0.0101259,0.0846876,-0.0109855,2.27008,-4.052,0.0814381,-0.129921,-0.577104,-0.382432,-0.718657,-0.470546,2.27008,0,0,236,30,236,30,349,24,248,142,-0.472237,-0.0683979,0,-1.5,0,0,0,0,-0.577104,-0.382432,0,0,0,0,-0.718657,-0.470546,14632,0,0,0,0,0,0,0,0,0,1,0.420675
7660,-0.753906,0.0625,2.70996,-7.63039e-05,-0.000685584,-0.0111423,0.0846889,-0.0109967,2.26979,-4.052,0.0814381,-0.129921,-0.588661,-0.389997,-0.72419,-0.474013,2.26979,0,0,236,30,236,30,349,24,248,142,-0.475223,-0.0698998,0,-1.5,0,0,0,0,-0.588661,-0.389997,0,0,0,0,-0.72419,-0.474013,14632,0,0,0,0,0,0,0,0,0,1,0.428996
7681,-0.753906,0.0625,-0.717773,0.000268389,-0.000346051,-0.011003,0.0847039,-0.0110107,2.26951,-4.05126,0.0839172,-0.132334,-0.603977,-0.400018,-0.731397,-0.478522,2.26951,0,0,236,30,236,30,349,25,247,142,-0.47913,-0.0718485,0,-1.5,0,0,0,0,-0.603977,-0.400018,0,0,0,0,-0.731397,-0.478522,14508,0,0,0,0,0,0,0,0,0,1,0.44002
7703,-0.753906,0.0625,6.28516,0.000411451,0.000285349,-0.0106326,0.0847118,-0.0110099,2.26937,-4.05209,0.0813938,-0.130069,-0.620186,-0.41062,-0.738875,-0.483192,2.26937,0,0,236,30,236,30,349,24,248,142,-0.483201,-0.0738402,0,-1.5,0,0,0,0,-0.620186,-0.41062,0,0,0,0,-0.738875,-0.483192,14632,0,0,0,0,0,0,0,0,0,1,0.451682
7718,-0.698242,0.0625,-2.2832,0.000629821,-0.000144904,-0.010228,0.0847089,-0.0110207,2.2691,-4.05209,0.0813938,-0.130069,-0.631318,-0.417898,-0.74392,-0.486342,2.26937,0,0,236,30,236,30,349,24,248,142,-0.485961,-0.0751647,0,-1.5,0,0,0,0,-0.631318,-0.417898,0,0,0,0,-0.74392,-0.486342,14632,0,0,0,0,0,0,0,0,0,1,0.459688
7739,-0.698242,0.0625,-2.2832,0.000629821,-0.000144904,-0.010228,0.0847089,-0.0110207,2.2691,-4.03807,0.0882316,-0.127645,-0.647042,-0.428175,-0.750931,-0.49071,2.2691,0,0,236,30,236,30,349,21,247,142,-0.488776,-0.0780692,0,-1.5,0,0,0,0,-0.647042,-0.428175,0,0,0,0,-0.750931,-0.49071,14762,0,0,0,0,0,0,0,0,0,1,0.470992
7755,-0.631836,0.0625,0.517578,0.00141752,-0.000501624,-0.00955372,0.0847065,-0.0110382,2.26881,-4.03807,0.0882316,-0.127645,-0.65911,-0.43606,-0.75622,-0.494003,2.26881,0,0,236,30,236,30,349,21,247,142,-0.490726,-0.0804995,0,-1.5,0,0,0,0,-0.65911,-0.43606,0,0,0,0,-0.75622,-0.494003,14762,0,0,0,0,0,0,0,0,0,1,0.479666
7778,-0.603516,0.0625,-2.31055,0.000711787,-0.000106021,-0.0108069,0.084716,-0.0110333,2.2685,-4.03377,0.0832682,-0.129686,-0.676626,-0.447498,-0.763762,-0.49869,2.2685,0,0,236,30,236,30,348,21,248,142,-0.493529,-0.0839626,0,-1.5,0,0,0,0,-0.676626,-0.447498,0,0,0,0,-0.763762,-0.49869,15004,0,0,0,0,0,0,0,0,0,1,0.492248
7799,-0.611328,0.0625,-7.03613,0.00124863,-0.000253189,-0.010512,0.0847244,-0.0110368,2.26835,-4.07814,0.0971721,-0.12446,-0.692767,-0.458034,-0.770575,-0.50292,2.26835,0,0,236,30,236,30,348,24,247,143,-0.496083,-0.0870663,0,-1.5,0,0,0,0,-0.692767,-0.458034,0,0,0,0,-0.770575,-0.50292,14280,0,0,0,0,0,0,0,0,0,1,0.503837
7815,-0.677734,0.0625,2.69629,-5.35014e-06,-0.000548984,-0.0103621,0.0847317,-0.0110488,2.26805,-4.07814,0.0971721,-0.12446,-0.70515,-0.466114,-0.775716,-0.506109,2.26835,0,0,236,30,236,30,348,24,247,143,-0.498022,-0.0893803,0,-1.5,0,0,0,0,-0.70515,-0.466114,0,0,0,0,-0.775716,-0.506109,14280,0,0,0,0,0,0,0,0,0,1,0.512725
7837,-0.710938,0.0625,-2.91309,0.000964228,-0.00163425,-0.0105266,0.0847425,-0.0110649,2.2679,-4.08779,0.0921425,-0.118845,-0.722323,-0.477315,-0.782731,-0.510449,2.2679,0,0,236,30,236,30,349,24,248,142,-0.500735,-0.0928002,0,-1.5,0,0,0,0,-0.722323,-0.477315,0,0,0,0,-0.782731,-0.510449,14160,0,0,0,0,0,0,0,0,0,1,0.525046
7858,-0.762695,0.0625,6.30078,0.000161551,0.000136924,-0.0109528,0.084737,-0.0110734,2.26761,-4.08779,0.0921425,-0.118845,-0.73886,-0.488096,-0.789359,-0.514545,2.26775,0,0,236,30,236,30,349,24,248,142,-0.503307,-0.0959323,0,-1.5,0,0,0,0,-0.73886,-0.488096,0,0,0,0,-0.789359,-0.514545,14160,0,0,0,0,0,0,0,0,0,1,0.536905
7874,-0.762695,0.0625,6.30078,0.000161551,0.000136924,-0.0109528,0.084737,-0.0110734,2.26761,-4.04633,0.0886717,-0.127413,-0.75154,-0.49636,-0.79436,-0.517629,2.26761,0,0,236,30,236,30,348,21,248,143,-0.505272,-0.0983384,0,-1.5,0,0,0,0,-0.75154,-0.49636,0,0,0,0,-0.79436,-0.517629,14884,0,0,0,0,0,0,0,0,0,1,0.545996
7895,-0.762695,0.0625,-2.29688,0.00109613,-0.00101361,-0.0106906,0.084754,-0.0110746,2.2673,-4.04377,0.0759498,-0.13135,-0.768319,-0.50729,-0.800871,-0.521643,2.2673,0,0,236,30,236,30,351,24,248,141,-0.507867,-0.101569,0,-1.5,0,0,0,0,-0.768319,-0.50729,0,0,0,0,-0.800871,-0.521643,14508,0,0,0,0,0,0,0,0,0,1,0.558019
7911,-0.701172,0.0625,0.570312,-0.000331896,-0.000480522,-0.0115894,0.0847382,-0.0110864,2.267,-4.04377,0.0759498,-0.13135,-0.781185,-0.515668,-0.805784,-0.52467,2.2673,0,0,236,30,236,30,351,24,248,141,-0.509831,-0.103917,0,-1.5,0,0,0,0,-0.781185,-0.515668,0,0,0,0,-0.805784,-0.52467,14508,0,0,0,0,0,0,0,0,0,1,0.567235
7932,-0.667969,0.0625,5.66016,-0.000516012,-0.00108614,-0.0111985,0.0847348,-0.0110955,2.26686,-4.06651,0.0912999,-0.117296,-0.798202,-0.526745,-0.812181,-0.528604,2.26686,0,0,236,30,236,30,348,21,248,142,-0.512446,-0.107236,0,-1.5,0,0,0,0,-0.798202,-0.526745,0,0,0,0,-0.812181,-0.528604,14641,0,0,0,0,0,0,0,0,0,1,0.579419
7954,-0.604492,0.0625,-7.01172,-0.000421171,-0.00015474,-0.0101296,0.0847367,-0.0111013,2.26658,-4.06651,0.0912999,-0.117296,-0.816172,-0.538437,-0.818814,-0.532673,2.26673,0,0,236,30,236,30,348,21,248,142,-0.515168,-0.110551,0,-1.5,0,0,0,0,-0.816172,-0.538437,0,0,0,0,-0.818814,-0.532673,14641,0,0,0,0,0,0,0,0,0,1,0.59228
7969,-0.604492,0.0625,-7.01172,-0.000421171,-0.00015474,-0.0101296,0.0847367,-0.0111013,2.26658,-4.065,0.0888709,-0.120416,-0.828497,-0.546453,-0.823292,-0.535415,2.26658,0,0,236,30,236,30,348,22,248,142,-0.51703,-0.112843,0,-1.5,0,0,0,0,-0.828497,-0.546453,0,0,0,0,-0.823292,-0.535415,14640,0,0,0,0,0,0,0,0,0,1,0.601099
7989,-0.621094,0.0625,2.66602,0.000769705,-0.00120264,-0.0110164,0.08476,-0.0111225,2.26629,-4.065,0.0888709,-0.120416,-0.845046,-0.557213,-0.829218,-0.539042,2.26629,0,0,236,30,236,30,348,22,248,142,-0.519525,-0.11596,0,-1.5,0,0,0,0,-0.845046,-0.557213,0,0,0,0,-0.829218,-0.539042,14640,0,0,0,0,0,0,0,0,0,1,0.612934
8011,-0.6875,0.0625,-0.734375,0.000411567,0.000483637,-0.0111368,0.0847624,-0.0111316,2.266,-4.08623,0.08967,-0.122267,-0.863388,-0.569132,-0.835678,-0.542987,2.266,0,0,236,30,236,30,349,25,248,142,-0.522273,-0.119389,0,-1.5,0,0,0,0,-0.863388,-0.569132,0,0,0,0,-0.835678,-0.542987,14157,0,0,0,0,0,0,0,0,0,1,0.626045
8027,-0.720703,0.0625,6.2832,-0.00027272,7.53338e-05,-0.0107671,0.0847624,-0.0111384,2.26585,-4.08623,0.08967,-0.122267,-0.876806,-0.577849,-0.840329,-0.545821,2.26585,0,0,236,30,236,30,349,25,248,142,-0.52427,-0.121852,0,-1.5,0,0,0,0,-0.876806,-0.577849,0,0,0,0,-0.840329,-0.545821,14157,0,0,0,0,0,0,0,0,0,1,0.635634
8048,-0.746094,0.0625,-2.28516,-0.0013647,-0.0012321,-0.0100144,0.0847324,-0.0111605,2.26555,-4.07587,0.0916536,-0.121032,-0.894544,-0.589366,-0.846387,-0.549508,2.26585,0,0,236,30,236,30,349,24,247,142,-0.526889,-0.124992,0,-1.5,0,0,0,0,-0.894544,-0.589366,0,0,0,0,-0.846387,-0.549508,14278,0,0,0,0,0,0,0,0,0,1,0.648303
8064,-0.746094,0.0625,-2.28516,-0.0013647,-0.0012321,-0.0100144,0.0847324,-0.0111605,2.26555,-4.07587,0.0916536,-0.121032,-0.908134,-0.598188,-0.850955,-0.552284,2.26555,0,0,236,30,236,30,349,24,247,142,-0.528901,-0.127545,0,-1.5,0,0,0,0,-0.908134,-0.598188,0,0,0,0,-0.850955,-0.552284,14278,0,0,0,0,0,0,0,0,0,1,0.658006
8086,-0.746094,0.0625,0.563477,-0.00136989,-0.000879614,-0.0111557,0.0847254,-0.0111817,2.26526,-4.07587,0.0916536,-0.121032,-0.926951,-0.610396,-0.857185,-0.556059,2.26526,0,0,236,30,236,30,349,24,247,142,-0.531667,-0.131002,0,-1.5,0,0,0,0,-0.926951,-0.610396,0,0,0,0,-0.857185,-0.556059,14278,0,0,0,0,0,0,0,0,0,1,0.671435
8108,-0.746094,0.0625,-2.33105,-0.00110086,0.000137349,-0.0113007,0.0847153,-0.0111781,2.26498,-4.07587,0.0916536,-0.121032,-0.94504,-0.622126,-0.863072,-0.559618,2.26498,0,0,236,30,236,30,349,24,247,142,-0.534312,-0.134317,0,-1.5,0,0,0,0,-0.94504,-0.622126,0,0,0,0,-0.863072,-0.559618,14278,0,0,0,0,0,0,0,0,0,1,0.684339
8123,-0.746094,0.0625,-7.01074,-0.00203983,-1.91003e-05,-0.011748,0.0846936,-0.0111781,2.26482,-4.07587,0.0916536,-0.121032,-0.958895,-0.631108,-0.867511,-0.562298,2.26482,0,0,236,30,236,30,349,24,247,142,-0.536327,-0.136815,0,-1.5,0,0,0,0,-0.958895,-0.631108,0,0,0,0,-0.867511,-0.562298,14278,0,0,0,0,0,0,0,0,0,1,0.694219
8145,-0.746094,0.0625,2.71387,0.00120907,0.000370733,-0.0109876,0.0847233,-0.011184,2.26451,-4.06485,0.0949165,-0.132328,-0.978074,-0.643535,-0.873561,-0.565947,2.26482,0,0,233,33,233,33,349,24,248,142,-0.539096,-0.140143,0,-1.5,0,0,0,0,-0.978074,-0.643535,0,0,0,0,-0.873561,-0.565947,14750,0,0,0,0,0,0,0,0,0,1,0.707888
8166,-0.746094,0.0625,-2.92188,0.000749735,-0.00184828,-0.00960856,0.0847243,-0.0112058,2.26437,-4.09417,0.0897273,-0.117151,-0.996504,-0.655471,-0.879279,-0.569391,2.26437,0,0,236,30,236,30,349,25,248,142,-0.541761,-0.143571,0,-1.5,0,0,0,0,-0.996504,-0.655471,0,0,0,0,-0.879279,-0.569391,14157,0,0,0,0,0,0,0,0,0,1,0.721018
8182,-0.746094,0.0625,-0.72168,-0.00020171,4.71158e-05,-0.0105844,0.0847228,-0.0112026,2.26423,-4.09417,0.0897273,-0.117151,-1.01062,-0.664609,-0.883597,-0.571983,2.26423,0,0,236,30,236,30,349,25,248,142,-0.543786,-0.146079,0,-1.5,0,0,0,0,-1.01062,-0.664609,0,0,0,0,-0.883597,-0.571983,14157,0,0,0,0,0,0,0,0,0,1,0.73107
8204,-0.746094,0.0625,-0.72168,-0.00020171,4.71158e-05,-0.0105844,0.0847228,-0.0112026,2.26423,-4.09421,0.0897284,-0.117223,-1.03015,-0.677248,-0.889487,-0.575518,2.26423,0,0,236,30,236,30,349,25,248,142,-0.546572,-0.149432,0,-1.5,0,0,0,0,-1.03015,-0.677248,0,0,0,0,-0.889487,-0.575518,14157,0,0,0,0,0,0,0,0,0,1,0.744973
8219,-0.746094,0.0625,-2.27832,0.000273506,-0.000891401,-0.0115256,0.084718,-0.0112114,2.2638,-4.09421,0.0897284,-0.117223,-1.04353,-0.685904,-0.89346,-0.577901,2.2638,0,0,236,30,236,30,349,25,248,142,-0.548484,-0.151959,0,-1.5,0,0,0,0,-1.04353,-0.685904,0,0,0,0,-0.89346,-0.577901,14157,0,0,0,0,0,0,0,0,0,1,0.754494
8240,-0.746094,0.0625,-2.27832,0.000273506,-0.000891401,-0.0115256,0.084718,-0.0112114,2.2638,-4.08536,0.0894645,-0.118129,-1.06147,-0.697506,-0.89872,-0.581047,2.2638,0,0,236,30,236,30,349,24,248,142,-0.551025,-0.155019,0,-1.5,0,0,0,0,-1.06147,-0.697506,0,0,0,0,-0.89872,-0.581047,14278,0,0,0,0,0,0,0,0,0,1,0.767256
8261,-0.746094,0.0625,5.69727,0.000593628,-2.1834e-05,-0.0107499,0.0847414,-0.0112223,2.26335,-4.08536,0.0894645,-0.118129,-1.08133,-0.710341,-0.904449,-0.584471,2.26335,0,0,236,30,236,30,349,24,248,142,-0.553834,-0.158638,0,-1.5,0,0,0,0,-1.08133,-0.710341,0,0,0,0,-0.904449,-0.584471,14278,0,0,0,0,0,0,0,0,0,1,0.781376
8277,-0.746094,0.0625,5.69727,0.000593628,-2.1834e-05,-0.0107499,0.0847414,-0.0112223,2.26335,-4.09423,0.0897362,-0.117258,-1.09585,-0.719718,-0.908577,-0.586932,2.26335,0,0,236,30,236,30,349,25,248,142,-0.555873,-0.161096,0,-1.5,0,0,0,0,-1.09585,-0.719718,0,0,0,0,-0.908577,-0.586932,14157,0,0,0,0,0,0,0,0,0,1,0.79169
8298,-0.746094,0.0625,-7.01172,-0.000578044,-8.28318e-05,-0.0105646,0.0847151,-0.0112382,2.26307,-4.08333,0.0893978,-0.118923,-1.11501,-0.732091,-0.913951,-0.590132,2.26307,0,0,236,30,236,30,348,24,248,142,-0.558559,-0.164491,0,-1.5,0,0,0,0,-1.11501,-0.732091,0,0,0,0,-0.913951,-0.590132,14396,0,0,0,0,0,0,0,0,0,1,0.805301
8319,-0.746094,0.0625,2.68359,-0.000114357,-0.000771421,-0.0126022,0.084733,-0.0112467,2.26275,-4.08333,0.0893978,-0.118923,-1.13428,-0.744531,-0.919272,-0.593291,2.26275,0,0,236,30,236,30,348,24,248,142,-0.561249,-0.167909,0,-1.5,0,0,0,0,-1.13428,-0.744531,0,0,0,0,-0.919272,-0.593291,14396,0,0,0,0,0,0,0,0,0,1,0.818985
8336,-0.746094,0.0625,-2.90527,0.000234386,0.000268283,-0.0109342,0.0847373,-0.0112448,2.2626,-4.09547,0.0923697,-0.119319,-1.14995,-0.754646,-0.923539,-0.595819,2.2626,0,0,236,30,236,30,348,25,248,142,-0.563428,-0.170624,0,-1.5,0,0,0,0,-1.14995,-0.754646,0,0,0,0,-0.923539,-0.595819,14157,0,0,0,0,0,0,0,0,0,1,0.830111
8357,-0.746094,0.0625,6.28125,-0.000210575,0.000207596,-0.00997179,0.0847329,-0.0112366,2.26232,-4.09547,0.0923697,-0.119319,-1.16943,-0.767205,-0.928766,-0.598914,2.26232,0,0,236,30,236,30,348,25,248,142,-0.566124,-0.174036,0,-1.5,0,0,0,0,-1.16943,-0.767205,0,0,0,0,-0.928766,-0.598914,14157,0,0,0,0,0,0,0,0,0,1,0.843925
8373,-0.746094,0.0625,6.28125,-0.000210575,0.000207596,-0.00997179,0.0847329,-0.0112366,2.26232,-4.08677,0.0871399,-0.120651,-1.18433,-0.776812,-0.932709,-0.601245,2.26232,0,0,236,30,236,30,349,24,249,142,-0.568181,-0.17652,0,-1.5,0,0,0,0,-1.18433,-0.776812,0,0,0,0,-0.932709,-0.601245,14278,0,0,0,0,0,0,0,0,0,1,0.854493
8395,-0.746094,0.0625,-2.05078,0.000702697,-0.000418607,-0.0102123,0.0847397,-0.0112513,2.2619,-4.08677,0.0871399,-0.120651,-1.20493,-0.790088,-0.938084,-0.604422,2.26204,0,0,236,30,236,30,349,24,249,142,-0.571014,-0.180104,0,-1.5,0,0,0,0,-1.20493,-0.790088,0,0,0,0,-0.938084,-0.604422,14278,0,0,0,0,0,0,0,0,0,1,0.869097
8416,-0.746094,0.0625,0.548828,-0.000961604,-0.00156282,-0.0110153,0.0847263,-0.0112655,2.26175,-4.0522,0.0834943,-0.128272,-1.2247,-0.802824,-0.943163,-0.607414,2.26175,0,0,236,30,236,30,349,24,247,141,-0.573721,-0.183545,0,-1.5,0,0,0,0,-1.2247,-0.802824,0,0,0,0,-0.943163,-0.607414,14508,0,0,0,0,0,0,0,0,0,1,0.883107
8431,-0.746094,0.0625,5.67578,9.46433e-05,-0.0008979,-0.00997473,0.0847262,-0.0112751,2.26161,-4.08384,0.0844781,-0.119435,-1.23889,-0.811956,-0.946758,-0.609526,2.26161,0,0,236,30,236,30,349,24,249,142,-0.575656,-0.185966,0,-1.5,0,0,0,0,-1.23889,-0.811956,0,0,0,0,-0.946758,-0.609526,14396,0,0,0,0,0,0,0,0,0,1,0.893151
8453,-0.746094,0.0625,-7.0459,0.000268345,-0.00101705,-0.0107012,0.0847241,-0.0112934,2.26131,-4.08384,0.0844781,-0.119435,-1.2598,-0.825412,-0.951991,-0.612593,2.26131,0,0,236,30,236,30,349,24,249,142,-0.578498,-0.189584,0,-1.5,0,0,0,0,-1.2598,-0.825412,0,0,0,0,-0.951991,-0.612593,14396,0,0,0,0,0,0,0,0,0,1,0.907954
8473,-0.746094,0.0625,-7.0459,0.000268345,-0.00101705,-0.0107012,0.0847241,-0.0112934,2.26131,-4.08834,0.0921494,-0.119803,-1.2789,-0.837703,-0.956701,-0.615347,2.26131,0,0,236,30,236,30,349,24,248,142,-0.58109,-0.19272,0,-1.5,0,0,0,0,-1.2789,-0.837703,0,0,0,0,-0.956701,-0.615347,14160,0,0,0,0,0,0,0,0,0,1,0.921473
8489,-0.746094,0.0625,-2.92578,0.000524315,0.000291697,-0.0103805,0.0847137,-0.0112917,2.26088,-4.08834,0.0921494,-0.119803,-1.29425,-0.847571,-0.960433,-0.617526,2.26101,0,0,236,30,236,30,349,24,248,142,-0.583159,-0.195408,0,-1.5,0,0,0,0,-1.29425,-0.847571,0,0,0,0,-0.960433,-0.617526,14160,0,0,0,0,0,0,0,0,0,1,0.932329
8511,-0.746094,0.0625,-0.733398,-6.02194e-07,-0.00111686,-0.0108348,0.0847168,-0.0113059,2.26073,-4.09316,0.0843816,-0.113552,-1.31546,-0.861204,-0.965524,-0.620493,2.26073,0,0,236,30,236,30,349,24,249,141,-0.586011,-0.199037,0,-1.5,0,0,0,0,-1.31546,-0.861204,0,0,0,0,-0.965524,-0.620493,14274,0,0,0,0,0,0,0,0,0,1,0.947324
8527,-0.746094,0.0625,6.26855,0.000241034,-0.000779106,-0.00961602,0.0847167,-0.01131,2.26059,-4.09316,0.0843816,-0.113552,-1.33094,-0.871154,-0.96919,-0.622623,2.26059,0,0,236,30,236,30,349,24,249,141,-0.588088,-0.201641,0,-1.5,0,0,0,0,-1.33094,-0.871154,0,0,0,0,-0.96919,-0.622623,14274,0,0,0,0,0,0,0,0,0,1,0.95827
8549,-0.746094,0.0625,-2.2959,0.000388523,-5.45048e-05,-0.0100504,0.0847367,-0.0113127,2.26029,-4.07436,0.0921738,-0.127277,-1.35234,-0.884897,-0.974189,-0.625526,2.26029,0,0,236,31,236,31,348,24,247,142,-0.590946,-0.205288,0,-1.5,0,0,0,0,-1.35234,-0.884897,0,0,0,0,-0.974189,-0.625526,14396,0,0,0,0,0,0,0,0,0,1,0.973386
8570,-0.746094,0.0625,-2.2959,0.000388523,-5.45048e-05,-0.0100504,0.0847367,-0.0113127,2.26029,-4.09451,0.0921329,-0.115036,-1.37287,-0.898073,-0.978916,-0.628265,2.26029,0,0,236,30,236,30,348,24,248,142,-0.593686,-0.208612,0,-1.5,0,0,0,0,-1.37287,-0.898073,0,0,0,0,-0.978916,-0.628265,14278,0,0,0,0,0,0,0,0,0,1,0.987881
8586,-0.746094,0.0625,5.67188,0.00115519,0.0005132,-0.0110039,0.0847507,-0.0113217,2.25986,-4.09451,0.0921329,-0.115036,-1.38857,-0.908147,-0.982482,-0.630329,2.26002,0,0,236,30,236,30,348,24,248,142,-0.595767,-0.211312,0,-1.5,0,0,0,0,-1.38857,-0.908147,0,0,0,0,-0.982482,-0.630329,14278,0,0,0,0,0,0,0,0,0,1,0.998962
8603,-0.746094,0.0625,5.67188,0.00115519,0.0005132,-0.0110039,0.0847507,-0.0113217,2.25986,-4.07484,0.0867238,-0.122781,-1.40433,-0.918254,-0.986024,-0.632374,2.25986,0,0,236,30,236,30,349,24,248,142,-0.596251,-0.211999,0,-1.5,0,0,0,0,-1.40433,-0.918254,0,0,0,0,-0.986024,-0.632374,14396,0,0,0,0,0,0,0,0,0,1,1
8619,-0.746094,0.0625,-7.02441,-0.000238391,-7.18257e-05,-0.0113629,0.0847653,-0.0113393,2.25957,-4.07484,0.0867238,-0.122781,-1.42113,-0.929028,-0.989757,-0.634527,2.25957,0,0,236,30,236,30,349,24,248,142,-0.596582,-0.212588,0,-1.5,0,0,0,0,-1.42113,-0.929028,0,0,0,0,-0.989757,-0.634527,14396,0,0,0,0,0,0,0,0,0,1,1
8635,-0.746094,0.0625,-7.02441,-0.000238391,-7.18257e-05,-0.0113629,0.0847653,-0.0113393,2.25957,-4.07786,0.0893868,-0.12403,-1.437,-0.939201,-0.993246,-0.636534,2.25957,0,0,236,30,236,30,349,24,248,142,-0.596901,-0.212976,0,-1.5,0,0,0,0,-1.437,-0.939201,0,0,0,0,-0.993246,-0.636534,14278,0,0,0,0,0,0,0,0,0,1,1
8650,-0.746094,0.0625,2.67383,-0.000378958,-0.000768766,-0.0109616,0.0847682,-0.0113523,2.25929,-4.07786,0.0893868,-0.12403,-1.45193,-0.948767,-0.996493,-0.638399,2.25929,0,0,236,30,236,30,349,24,248,142,-0.597187,-0.213504,0,-1.5,0,0,0,0,-1.45193,-0.948767,0,0,0,0,-0.996493,-0.638399,14278,0,0,0,0,0,0,0,0,0,1,1
8666,-0.746094,0.0625,-2.90723,-0.00122933,-0.00149846,-0.0106667,0.0847619,-0.0113722,2.25914,-4.0857,0.0893939,-0.118707,-1.46791,-0.959002,-0.999933,-0.640369,2.25914,0,0,236,30,236,30,349,24,248,142,-0.597493,-0.213977,0,-1.5,0,0,0,0,-1.46791,-0.959002,0,0,0,0,-0.999933,-0.640369,14278,0,0,0,0,0,0,0,0,0,1,1
8683,-0.746094,0.0625,-2.90723,-0.00122933,-0.00149846,-0.0106667,0.0847619,-0.0113722,2.25914,-4.0857,0.0893939,-0.118707,-1.48495,-0.969911,-1.00356,-0.642442,2.25914,0,0,236,30,236,30,349,24,248,142,-0.597823,-0.214377,0,-1.5,0,0,0,0,-1.48495,-0.969911,0,0,0,0,-1.00356,-0.642442,14278,0,0,0,0,0,0,0,0,0,1,1
8698,-0.746094,0.0625,6.29883,0.000307992,-0.000679611,-0.00958508,0.0847542,-0.0113775,2.25885,-4.07494,0.0866928,-0.122956,-1.50004,-0.979566,-1.00673,-0.644254,2.25885,0,0,236,30,236,30,349,24,248,142,-0.598099,-0.2149,0,-1.5,0,0,0,0,-1.50004,-0.979566,0,0,0,0,-1.00673,-0.644254,14396,0,0,0,0,0,0,0,0,0,1,1
8714,-0.746094,0.0625,-2.32031,0.00078134,-0.0015894,-0.0102079,0.0847722,-0.0114053,2.25856,-4.07494,0.0866928,-0.122956,-1.51618,-0.989893,-1.0101,-0.646169,2.25885,0,0,236,30,236,30,349,24,248,142,-0.598403,-0.215269,0,-1.5,0,0,0,0,-1.51618,-0.989893,0,0,0,0,-1.0101,-0.646169,14396,0,0,0,0,0,0,0,0,0,1,1
8730,-0.746094,0.0625,-2.08105,-0.000510215,-0.000696022,-0.0120827,0.0847678,-0.0114125,2.25839,-4.06194,0.0811787,-0.125722,-1.53238,-1.00025,-1.01344,-0.648064,2.25839,0,0,236,30,236,30,349,24,248,141,-0.598685,-0.215911,0,-1.5,0,0,0,0,-1.53238,-1.00025,0,0,0,0,-1.01344,-0.648064,14508,0,0,0,0,0,0,0,0,0,1,1
8746,-0.746094,0.0625,0.541016,-0.000956021,-0.000859008,-0.0110939,0.0847605,-0.0114267,2.25824,-4.06194,0.0811787,-0.125722,-1.54863,-1.01064,-1.01676,-0.64994,2.25824,0,0,236,30,236,30,349,24,248,141,-0.598976,-0.216364,0,-1.5,0,0,0,0,-1.54863,-1.01064,0,0,0,0,-1.01676,-0.64994,14508,0,0,0,0,0,0,0,0,0,1,1
8763,-0.746094,0.0625,5.67969,0.000498678,-0.000116211,-0.0107647,0.0847631,-0.0114131,2.25809,-4.07924,0.0920456,-0.123692,-1.56595,-1.02171,-1.02025,-0.651913,2.25809,0,0,234,31,234,31,348,24,249,142,-0.599283,-0.216833,0,-1.5,0,0,0,0,-1.56595,-1.02171,0,0,0,0,-1.02025,-0.651913,14632,0,0,0,0,0,0,0,0,0,1,1
8779,-0.746094,0.0625,5.67969,0.000498678,-0.000116211,-0.0107647,0.0847631,-0.0114131,2.25809,-4.07924,0.0920456,-0.123692,-1.58231,-1.03216,-1.02352,-0.653755,2.25809,0,0,234,31,234,31,348,24,249,142,-0.599575,-0.217189,0,-1.5,0,0,0,0,-1.58231,-1.03216,0,0,0,0,-1.02352,-0.653755,14632,0,0,0,0,0,0,0,0,0,1,1
8795,-0.746094,0.0625,-7.04395,0.000346678,-0.000490665,-0.0111039,0.0847742,-0.0114265,2.25778,-4.10397,0.0895771,-0.112037,-1.59872,-1.04264,-1.02675,-0.655581,2.25778,0,0,236,30,236,30,349,25,248,141,-0.599851,-0.217726,0,-1.5,0,0,0,0,-1.59872,-1.04264,0,0,0,0,-1.02675,-0.655581,14036,0,0,0,0,0,0,0,0,0,1,1
8811,-0.746094,0.0625,2.66016,0.000266461,-0.000433458,-0.011056,0.0847821,-0.0114352,2.25748,-4.10397,0.0895771,-0.112037,-1.61518,-1.05315,-1.02997,-0.657389,2.25748,0,0,236,30,236,30,349,25,248,141,-0.600125,-0.218258,0,-1.5,0,0,0,0,-1.61518,-1.05315,0,0,0,0,-1.02997,-0.657389,14036,0,0,0,0,0,0,0,0,0,1,1
8827,-0.746094,0.0625,-2.85059,0.000522572,-0.00125024,-0.0108584,0.084797,-0.0114502,2.25733,-4.10397,0.0895771,-0.112037,-1.63169,-1.06368,-1.03317,-0.65918,2.25733,0,0,236,30,236,30,349,25,248,141,-0.600402,-0.218696,0,-1.5,0,0,0,0,-1.63169,-1.06368,0,0,0,0,-1.03317,-0.65918,14036,0,0,0,0,0,0,0,0,0,1,1
8844,-0.746094,0.0625,-2.85059,0.000522572,-0.00125024,-0.0108584,0.084797,-0.0114502,2.25733,-4.08532,0.0918938,-0.121328,-1.64929,-1.07491,-1.03654,-0.661065,2.25733,0,0,236,30,236,30,349,25,247,142,-0.6007,-0.21906,0,-1.5,0,0,0,0,-1.64929,-1.07491,0,0,0,0,-1.03654,-0.661065,14157,0,0,0,0,0,0,0,0,0,1,1
8860,-0.746094,0.0625,6.31445,0.000135891,-0.00085369,-0.0112177,0.0847909,-0.0114668,2.25704,-4.08532,0.0918938,-0.121328,-1.66591,-1.08551,-1.03969,-0.662822,2.25704,0,0,236,30,236,30,349,25,247,142,-0.600966,-0.219575,0,-1.5,0,0,0,0,-1.66591,-1.08551,0,0,0,0,-1.03969,-0.662822,14157,0,0,0,0,0,0,0,0,0,1,1
8876,-0.746094,0.0625,6.31445,0.000135891,-0.00085369,-0.0112177,0.0847909,-0.0114668,2.25704,-4.06576,0.0867294,-0.129266,-1.68258,-1.09613,-1.04281,-0.664562,2.25704,0,0,236,30,236,30,349,24,248,143,-0.601241,-0.219911,0,-1.5,0,0,0,0,-1.68258,-1.09613,0,0,0,0,-1.04281,-0.664562,14518,0,0,0,0,0,0,0,0,0,1,1
8893,-0.746094,0.0625,-2.05176,0.000466457,-0.000394382,-0.0106586,0.0848024,-0.0114813,2.25659,-4.06576,0.0867294,-0.129266,-1.70034,-1.10745,-1.04611,-0.666393,2.25673,0,0,236,30,236,30,349,24,248,143,-0.601517,-0.220451,0,-1.5,0,0,0,0,-1.70034,-1.10745,0,0,0,0,-1.04611,-0.666393,14518,0,0,0,0,0,0,0,0,0,1,1
8907,-0.746094,0.0625,0.53418,0.000778106,7.29193e-05,-0.0116037,0.0848167,-0.011481,2.25644,-4.07671,0.0911396,-0.112732,-1.71501,-1.11679,-1.0488,-0.667885,2.25659,0,0,236,30,236,30,348,21,248,141,-0.601747,-0.220823,0,-1.5,0,0,0,0,-1.71501,-1.11679,0,0,0,0,-1.0488,-0.667885,14520,0,0,0,0,0,0,0,0,0,1,1
8922,-0.746094,0.0625,5.64062,0.000788795,0.000295919,-0.0105652,0.0848221,-0.0114763,2.25629,-4.07671,0.0911396,-0.112732,-1.73077,-1.12682,-1.05167,-0.669473,2.25629,0,0,236,30,236,30,348,21,248,141,-0.601985,-0.221308,0,-1.5,0,0,0,0,-1.73077,-1.12682,0,0,0,0,-1.05167,-0.669473,14520,0,0,0,0,0,0,0,0,0,1,1
8939,-0.746094,0.0625,5.64062,0.000788795,0.000295919,-0.0105652,0.0848221,-0.0114763,2.25629,-4.08436,0.0865096,-0.117418,-1.74763,-1.13755,-1.05471,-0.671153,2.25629,0,0,236,30,236,30,349,24,248,141,-0.602251,-0.221633,0,-1.5,0,0,0,0,-1.74763,-1.13755,0,0,0,0,-1.05471,-0.671153,14274,0,0,0,0,0,0,0,0,0,1,1
8954,-0.746094,0.0625,-7.00684,-0.000248863,-0.00015942,-0.0102601,0.084828,-0.0114797,2.25599,-4.08436,0.0865096,-0.117418,-1.76454,-1.14831,-1.05773,-0.672818,2.25599,0,0,236,30,236,30,349,24,248,141,-0.6025,-0.222136,0,-1.5,0,0,0,0,-1.76454,-1.14831,0,0,0,0,-1.05773,-0.672818,14274,0,0,0,0,0,0,0,0,0,1,1
8971,-0.746094,0.0625,-7.00684,-0.000248863,-0.00015942,-0.0102601,0.084828,-0.0114797,2.25599,-4.05386,0.0959232,-0.130421,-1.78255,-1.15977,-1.06091,-0.674571,2.25599,0,0,234,30,234,30,348,24,247,142,-0.602777,-0.222475,0,-1.5,0,0,0,0,-1.78255,-1.15977,0,0,0,0,-1.06091,-0.674571,14632,0,0,0,0,0,0,0,0,0,1,1
8987,-0.746094,0.0625,2.64453,0.000921745,-7.93844e-07,-0.0100824,0.0848208,-0.0114776,2.25571,-4.05386,0.0959232,-0.130421,-1.79849,-1.1699,-1.06369,-0.676103,2.25571,0,0,234,30,234,30,348,24,247,142,-0.603006,-0.222943,0,-1.5,0,0,0,0,-1.79849,-1.1699,0,0,0,0,-1.06369,-0.676103,14632,0,0,0,0,0,0,0,0,0,1,1
9003,-0.746094,0.0625,-2.91211,-0.00111403,-0.000242989,-0.0103713,0.0848087,-0.011482,2.25557,-4.04871,0.0985573,-0.134612,-1.81661,-1.18141,-1.06682,-0.677823,2.25557,0,0,232,31,232,31,348,24,248,142,-0.603271,-0.223358,0,-1.5,0,0,0,0,-1.81661,-1.18141,0,0,0,0,-1.06682,-0.677823,14868,0,0,0,0,0,0,0,0,0,1,1
9019,-0.746094,0.0625,6.31934,-0.000277862,-0.000947272,-0.0105327,0.0848101,-0.0114941,2.25526,-4.04871,0.0985573,-0.134612,-1.83371,-1.19228,-1.06974,-0.679425,2.25526,0,0,232,31,232,31,348,24,248,142,-0.603509,-0.223855,0,-1.5,0,0,0,0,-1.83371,-1.19228,0,0,0,0,-1.06974,-0.679425,14868,0,0,0,0,0,0,0,0,0,1,1
9035,-0.746094,0.0625,6.31934,-0.000277862,-0.000947272,-0.0105327,0.0848101,-0.0114941,2.25526,-4.07774,0.0918139,-0.126913,-1.85086,-1.20316,-1.07265,-0.68101,2.25526,0,0,236,30,236,30,349,25,247,142,-0.60376,-0.224162,0,-1.5,0,0,0,0,-1.85086,-1.20316,0,0,0,0,-1.07265,-0.68101,14157,0,0,0,0,0,0,0,0,0,1,1
9051,-0.746094,0.0625,-2.30566,-0.000955944,-0.00179336,-0.0105321,0.0848014,-0.0115223,2.25497,-4.07774,0.0918139,-0.126913,-1.86805,-1.21408,-1.07553,-0.68258,2.25497,0,0,236,30,236,30,349,25,247,142,-0.603993,-0.224645,0,-1.5,0,0,0,0,-1.86805,-1.21408,0,0,0,0,-1.07553,-0.68258,14157,0,0,0,0,0,0,0,0,0,1,1
9068,-0.746094,0.0625,-2.04688,0.000139594,-0.00172873,-0.0107877,0.0848075,-0.011546,2.25482,-4.07674,0.0915972,-0.122544,-1.88529,-1.22501,-1.07839,-0.684131,2.25482,0,0,236,30,236,30,349,24,247,142,-0.604231,-0.225036,0,-1.5,0,0,0,0,-1.88529,-1.22501,0,0,0,0,-1.07839,-0.684131,14278,0,0,0,0,0,0,0,0,0,1,1
9083,-0.746094,0.0625,-2.04688,0.000139594,-0.00172873,-0.0107877,0.0848075,-0.011546,2.25482,-4.07674,0.0915972,-0.122544,-1.90257,-1.23598,-1.08123,-0.685668,2.25482,0,0,236,30,236,30,349,24,247,142,-0.604473,-0.225334,0,-1.5,0,0,0,0,-1.90257,-1.23598,0,0,0,0,-1.08123,-0.685668,14278,0,0,0,0,0,0,0,0,0,1,1
9100,-0.746094,0.0625,5.62988,-0.000847284,-0.000417911,-0.0102931,0.084794,-0.0115599,2.25452,-4.07469,0.0891358,-0.125948,-1.92099,-1.24765,-1.08423,-0.687284,2.25452,0,0,236,30,236,30,349,25,247,142,-0.604714,-0.225825,0,-1.5,0,0,0,0,-1.92099,-1.24765,0,0,0,0,-1.08423,-0.687284,14274,0,0,0,0,0,0,0,0,0,1,1
9115,-0.746094,0.0625,-7.02344,-2.0471e-05,0.000619246,-0.0105876,0.0847867,-0.0115512,2.25423,-4.07469,0.0891358,-0.125948,-1.93727,-1.25797,-1.08685,-0.688695,2.25452,0,0,236,30,236,30,349,25,247,142,-0.604936,-0.226098,0,-1.5,0,0,0,0,-1.93727,-1.25797,0,0,0,0,-1.08685,-0.688695,14274,0,0,0,0,0,0,0,0,0,1,1
9130,-0.746094,0.0625,5.22949,0.00030699,-0.00144091,-0.010951,0.0847845,-0.0115597,2.25408,-4.07088,0.0914868,-0.124805,-1.9536,-1.26832,-1.08945,-0.690091,2.25408,0,0,234,31,234,31,349,24,248,141,-0.605134,-0.226637,0,-1.5,0,0,0,0,-1.9536,-1.26832,0,0,0,0,-1.08945,-0.690091,14508,0,0,0,0,0,0,0,0,0,1,1
9146,-0.746094,0.0625,2.68652,0.000106911,-0.000282109,-0.0111607,0.0847873,-0.0115583,2.25392,-4.07088,0.0914868,-0.124805,-1.97106,-1.27937,-1.09221,-0.691567,2.25392,0,0,234,31,234,31,349,24,248,141,-0.605359,-0.227018,0,-1.5,0,0,0,0,-1.97106,-1.27937,0,0,0,0,-1.09221,-0.691567,14508,0,0,0,0,0,0,0,0,0,1,1
9162,-0.746094,0.0625,-2.89258,-0.000164708,-0.000287292,-0.0103126,0.084779,-0.0115456,2.25378,-4.06766,0.0866252,-0.129079,-1.98857,-1.29045,-1.09495,-0.69303,2.25378,0,0,236,30,236,30,349,24,248,142,-0.605582,-0.22739,0,-1.5,0,0,0,0,-1.98857,-1.29045,0,0,0,0,-1.09495,-0.69303,14396,0,0,0,0,0,0,0,0,0,1,1
9178,-0.746094,0.0625,-2.89258,-0.000164708,-0.000287292,-0.0103126,0.084779,-0.0115456,2.25378,-4.06766,0.0866252,-0.129079,-2.00611,-1.30156,-1.09766,-0.69448,2.25378,0,0,236,30,236,30,349,24,248,142,-0.605811,-0.227672,0,-1.5,0,0,0,0,-2.00611,-1.30156,0,0,0,0,-1.09766,-0.69448,14396,0,0,0,0,0,0,0,0,0,1,1
9195,-0.746094,0.0625,-0.196289,-0.000646985,-0.000282194,-0.0111378,0.0847887,-0.0115627,2.25335,-4.06766,0.0866252,-0.129079,-2.02481,-1.31338,-1.10052,-0.696007,2.25349,0,0,236,30,236,30,349,24,248,142,-0.606036,-0.228139,0,-1.5,0,0,0,0,-2.02481,-1.31338,0,0,0,0,-1.10052,-0.696007,14396,0,0,0,0,0,0,0,0,0,1,1
9211,-0.746094,0.0625,-2.25781,-0.000126383,-0.00071523,-0.0102416,0.0847905,-0.011574,2.25319,-4.07533,0.0866679,-0.123627,-2.04244,-1.32453,-1.10319,-0.697428,2.25335,0,0,236,30,236,30,349,24,248,142,-0.606252,-0.228504,0,-1.5,0,0,0,0,-2.04244,-1.32453,0,0,0,0,-1.10319,-0.697428,14396,0,0,0,0,0,0,0,0,0,1,1
9227,-0.746094,0.0625,-2.04688,-0.00217268,-0.00012335,-0.0104686,0.0847739,-0.0115748,2.25305,-4.07533,0.0866679,-0.123627,-2.06012,-1.3357,-1.10585,-0.698834,2.25305,0,0,236,30,236,30,349,24,248,142,-0.606458,-0.228955,0,-1.5,0,0,0,0,-2.06012,-1.3357,0,0,0,0,-1.10585,-0.698834,14396,0,0,0,0,0,0,0,0,0,1,1
9243,-0.746094,0.0625,0.549805,-0.000302669,-0.000470756,-0.00891425,0.0847681,-0.0115833,2.25293,-4.08457,0.0865529,-0.117782,-2.07784,-1.3469,-1.10848,-0.700225,2.25293,0,0,236,30,236,30,349,24,248,141,-0.606671,-0.2293,0,-1.5,0,0,0,0,-2.07784,-1.3469,0,0,0,0,-1.10848,-0.700225,14274,0,0,0,0,0,0,0,0,0,1,1
9259,-0.746094,0.0625,5.66406,-0.00100502,3.11305e-07,-0.00983327,0.0847608,-0.0115825,2.2528,-4.08457,0.0865529,-0.117782,-2.0956,-1.35812,-1.1111,-0.701602,2.2528,0,0,236,30,236,30,349,24,248,141,-0.60688,-0.229647,0,-1.5,0,0,0,0,-2.0956,-1.35812,0,0,0,0,-1.1111,-0.701602,14274,0,0,0,0,0,0,0,0,0,1,1
9275,-0.746094,0.0625,5.66406,-0.00100502,3.11305e-07,-0.00983327,0.0847608,-0.0115825,2.2528,-4.03498,0.083653,-0.141322,-2.11341,-1.36936,-1.11369,-0.702966,2.2528,0,0,236,30,236,30,349,24,247,143,-0.607095,-0.229912,0,-1.5,0,0,0,0,-2.11341,-1.36936,0,0,0,0,-1.11369,-0.702966,14756,0,0,0,0,0,0,0,0,0,1,1
9290,-0.746094,0.0625,-7.00293,-0.000626677,-0.00159653,-0.0103111,0.0847486,-0.0115945,2.2525,-4.03498,0.083653,-0.141322,-2.13014,-1.37991,-1.1161,-0.704233,2.2525,0,0,236,30,236,30,349,24,247,143,-0.607279,-0.230337,0,-1.5,0,0,0,0,-2.13014,-1.37991,0,0,0,0,-1.1161,-0.704233,14756,0,0,0,0,0,0,0,0,0,1,1
9308,-0.734375,0.0625,2.68359,-0.00174729,-0.000318296,-0.0110549,0.0847299,-0.0115983,2.25222,-4.06605,0.0867889,-0.129781,-2.15026,-1.39261,-1.11897,-0.705737,2.2525,0,0,236,30,236,30,349,24,248,143,-0.607516,-0.230629,0,-1.5,0,0,0,0,-2.15026,-1.39261,0,0,0,0,-1.11897,-0.705737,14518,0,0,0,0,0,0,0,0,0,1,1
9323,-0.701172,0.0625,-2.89844,-0.00101696,0.00015037,-0.011959,0.0847246,-0.0115935,2.25206,-4.06605,0.0867889,-0.129781,-2.16707,-1.40321,-1.12135,-0.706975,2.25206,0,0,236,30,236,30,349,24,248,143,-0.607685,-0.231137,0,-1.5,0,0,0,0,-2.16707,-1.40321,0,0,0,0,-1.12135,-0.706975,14518,0,0,0,0,0,0,0,0,0,1,1
9338,-0.701172,0.0625,-2.89844,-0.00101696,0.00015037,-0.011959,0.0847246,-0.0115935,2.25206,-4.07403,0.0965561,-0.123636,-2.18391,-1.41382,-1.1237,-0.708201,2.25206,0,0,234,30,234,30,348,24,248,142,-0.607879,-0.231376,0,-1.5,0,0,0,0,-2.18391,-1.41382,0,0,0,0,-1.1237,-0.708201,14514,0,0,0,0,0,0,0,0,0,1,1
9353,-0.634766,0.0625,6.28809,-0.0011055,0.000112331,-0.00983619,0.0846932,-0.011597,2.25178,-4.07403,0.0965561,-0.123636,-2.20079,-1.42446,-1.12604,-0.709417,2.25178,0,0,234,30,234,30,348,24,248,142,-0.608054,-0.231785,0,-1.5,0,0,0,0,-2.20079,-1.42446,0,0,0,0,-1.12604,-0.709417,14514,0,0,0,0,0,0,0,0,0,1,1
9370,-0.632812,0.0625,-0.191406,-0.00117857,0.000245807,-0.010371,0.0846868,-0.0116034,2.25163,-4.0769,0.0917213,-0.122827,-2.21996,-1.43653,-1.12867,-0.710778,2.25163,0,0,236,30,236,30,349,24,247,142,-0.608259,-0.232137,0,-1.5,0,0,0,0,-2.21996,-1.43653,0,0,0,0,-1.12867,-0.710778,14278,0,0,0,0,0,0,0,0,0,1,1
9386,-0.632812,0.0625,-2.27734,-0.00101112,-0.000694516,-0.0108356,0.084673,-0.0116088,2.25148,-4.0769,0.0917213,-0.122827,-2.23804,-1.44792,-1.13112,-0.712044,2.25148,0,0,236,30,236,30,349,24,247,142,-0.60845,-0.232477,0,-1.5,0,0,0,0,-2.23804,-1.44792,0,0,0,0,-1.13112,-0.712044,14278,0,0,0,0,0,0,0,0,0,1,1
9402,-0.632812,0.0625,-2.05957,-0.000432171,-0.000981378,-0.0111909,0.0846667,-0.0116147,2.25134,-4.08465,0.086742,-0.117927,-2.25617,-1.45932,-1.13356,-0.713297,2.25134,0,0,236,30,236,30,349,24,248,141,-0.608639,-0.232805,0,-1.5,0,0,0,0,-2.25617,-1.45932,0,0,0,0,-1.13356,-0.713297,14274,0,0,0,0,0,0,0,0,0,1,1
9418,-0.632812,0.0625,5.67969,-0.000839251,-0.000998575,-0.011524,0.0846539,-0.0116247,2.25103,-4.08465,0.086742,-0.117927,-2.27433,-1.47075,-1.13597,-0.714539,2.25134,0,0,236,30,236,30,349,24,248,141,-0.608834,-0.233046,0,-1.5,0,0,0,0,-2.27433,-1.47075,0,0,0,0,-1.13597,-0.714539,14274,0,0,0,0,0,0,0,0,0,1,1
9434,-0.632812,0.0625,5.67969,-0.000839251,-0.000998575,-0.011524,0.0846539,-0.0116247,2.25103,-4.05105,0.0864314,-0.135485,-2.29253,-1.48219,-1.13837,-0.715764,2.25103,0,0,236,30,236,30,351,24,247,142,-0.609009,-0.233472,0,-1.5,0,0,0,0,-2.29253,-1.48219,0,0,0,0,-1.13837,-0.715764,14278,0,0,0,0,0,0,0,0,0,1,1
9450,-0.632812,0.0625,-7.03809,0.000356666,-0.00113149,-0.0102744,0.0846514,-0.0116371,2.25073,-4.05105,0.0864314,-0.135485,-2.31077,-1.49366,-1.14075,-0.716978,2.25073,0,0,236,30,236,30,351,24,247,142,-0.609182,-0.233894,0,-1.5,0,0,0,0,-2.31077,-1.49366,0,0,0,0,-1.14075,-0.716978,14278,0,0,0,0,0,0,0,0,0,1,1
9467,-0.632812,0.0625,5.28125,-0.000686939,-0.000337166,-0.011036,0.084645,-0.0116404,2.25057,-4.08621,0.0917538,-0.117037,-2.33019,-1.50586,-1.14326,-0.718253,2.25057,0,0,236,30,236,30,349,24,247,141,-0.609373,-0.234234,0,-1.5,0,0,0,0,-2.33019,-1.50586,0,0,0,0,-1.14326,-0.718253,14157,0,0,0,0,0,0,0,0,0,1,1
9483,-0.632812,0.0625,2.68848,-0.000512014,-0.00133484,-0.0106801,0.0846473,-0.011654,2.25042,-4.08621,0.0917538,-0.117037,-2.34736,-1.51665,-1.14546,-0.719365,2.25042,0,0,236,30,236,30,349,24,247,141,-0.609539,-0.234541,0,-1.5,0,0,0,0,-2.34736,-1.51665,0,0,0,0,-1.14546,-0.719365,14157,0,0,0,0,0,0,0,0,0,1,1
9499,-0.632812,0.0625,-2.92773,2.05463e-05,-0.000448563,-0.0109773,0.0846402,-0.0116583,2.25027,-4.06562,0.0918879,-0.129792,-2.36571,-1.52817,-1.14778,-0.72054,2.25027,0,0,236,30,236,30,348,24,247,143,-0.609714,-0.234866,0,-1.5,0,0,0,0,-2.36571,-1.52817,0,0,0,0,-1.14778,-0.72054,14518,0,0,0,0,0,0,0,0,0,1,1
9514,-0.632812,0.0625,6.29883,-0.000539439,-0.000346546,-0.0116381,0.0846436,-0.0116699,2.24997,-4.06562,0.0918879,-0.129792,-2.3841,-1.53971,-1.15009,-0.721703,2.25027,0,0,236,30,236,30,348,24,247,143,-0.609897,-0.235092,0,-1.5,0,0,0,0,-2.3841,-1.53971,0,0,0,0,-1.15009,-0.721703,14518,0,0,0,0,0,0,0,0,0,1,1
9531,-0.652344,0.0625,-0.208008,0.000383739,-0.000120045,-0.0107326,0.0846471,-0.0116715,2.24983,-4.07558,0.0868915,-0.124077,-2.40368,-1.55199,-1.15253,-0.722924,2.24983,0,0,236,30,236,30,349,24,248,142,-0.610062,-0.235595,0,-1.5,0,0,0,0,-2.40368,-1.55199,0,0,0,0,-1.15253,-0.722924,14396,0,0,0,0,0,0,0,0,0,1,1
9546,-0.685547,0.0625,-2.27539,0.000440343,-0.000945103,-0.0110755,0.084651,-0.0116833,2.24968,-4.07558,0.0868915,-0.124077,-2.42098,-1.56285,-1.15467,-0.723991,2.24968,0,0,236,30,236,30,349,24,248,142,-0.61022,-0.235898,0,-1.5,0,0,0,0,-2.42098,-1.56285,0,0,0,0,-1.15467,-0.723991,14396,0,0,0,0,0,0,0,0,0,1,1
9562,-0.71875,0.0625,-2.04785,-0.00199202,-0.000680863,-0.0107554,0.0846388,-0.0116994,2.24953,-4.08753,0.0898156,-0.124538,-2.43948,-1.57444,-1.15693,-0.725116,2.24953,0,0,236,30,236,30,349,25,248,142,-0.610388,-0.236204,0,-1.5,0,0,0,0,-2.43948,-1.57444,0,0,0,0,-1.15693,-0.725116,14157,0,0,0,0,0,0,0,0,0,1,1
9578,-0.71875,0.0625,-2.04785,-0.00199202,-0.000680863,-0.0107554,0.0846388,-0.0116994,2.24953,-4.08753,0.0898156,-0.124538,-2.45802,-1.58605,-1.15918,-0.726229,2.24953,0,0,236,30,236,30,349,25,248,142,-0.610562,-0.23642,0,-1.5,0,0,0,0,-2.45802,-1.58605,0,0,0,0,-1.15918,-0.726229,14157,0,0,0,0,0,0,0,0,0,1,1
9595,-0.764648,0.0625,5.65039,0.000503164,-0.000629022,-0.0104248,0.0846294,-0.0116977,2.24924,-4.08753,0.0898156,-0.124538,-2.47659,-1.59769,-1.16141,-0.727332,2.24924,0,0,236,30,236,30,349,25,248,142,-0.610717,-0.236812,0,-1.5,0,0,0,0,-2.47659,-1.59769,0,0,0,0,-1.16141,-0.727332,14157,0,0,0,0,0,0,0,0,0,1,1
9611,-0.714844,0.0625,-7.00684,-0.00187465,0.000233421,-0.0110556,0.0846048,-0.0117061,2.24895,-4.08753,0.0898156,-0.124538,-2.49519,-1.60933,-1.16362,-0.728424,2.24924,0,0,236,30,236,30,349,25,248,142,-0.610889,-0.237024,0,-1.5,0,0,0,0,-2.49519,-1.60933,0,0,0,0,-1.16362,-0.728424,14157,0,0,0,0,0,0,0,0,0,1,1
9627,-0.681641,0.0625,5.29199,0.00134898,-0.000800597,-0.0110619,0.0846186,-0.0117177,2.24879,-4.08753,0.0898156,-0.124538,-2.515,-1.62173,-1.16595,-0.729566,2.24879,0,0,236,30,236,30,349,25,248,142,-0.61104,-0.237522,0,-1.5,0,0,0,0,-2.515,-1.62173,0,0,0,0,-1.16595,-0.729566,14157,0,0,0,0,0,0,0,0,0,1,1
