timestamp,A_x,A_y,A_z,P,Q,R,Phi,Theta,Psi,poseX,poseY,poseZ,state_X,state_Y,state_Z,state_VzB,state_Bx,state_By,state_Bz,p1_x,p1_y,p2_x,p2_y,p3_x,p3_y,p4_x,p4_y,roll,pitch,yaw,alt,targetHeading,highLevelState,lowLevelState,gateNumber,filtered_x,filtered_y,x_OT,y_OT,vx_OT,vy_OT,filtered_vx,filtered_vygateArearansac_corr_x,ransac_corr_y,ransac_corr_vx,ransac_corr_vy,detectionTimeStamppTermX,dTermX,pTermY,dTermY,vxcmd,vycmd
6312,0.37207,0,5.40332,0.00215141,0.000599043,-0.000983307,-0.043448,-0.0054068,-2.61919,0,0,0,-1.10126e-05,1.447e-05,-0.00204553,0.00269257,-2.61888,0,0,0,0,0,0,0,0,0,0,0.125653,0.0422761,0,-1.7,2.55799e-38,0,0,0,-1.10126e-05,1.447e-05,4.38672,-2.64844,-0.0999985,-0.389999,-0.00204553,0.00269257,1.9603e-19,0,0,0,0,0,0,0,0,0,1,-2.894e-05
6327,0.37207,0,-3.65039,-0.00117577,0.000204269,-0.00127561,-0.044378,-0.00528601,-2.62018,0,0,0,-7.71469e-05,0.000101892,-0.00590141,0.00782093,-2.61963,0,0,0,0,0,0,0,0,0,0,0.12712,0.0425447,0,-1.7,2.55799e-38,0,0,0,-7.71469e-05,0.000101892,4.38672,-2.64844,-0.0999985,-0.389999,-0.00590141,0.00782093,1.9603e-19,0,0,0,0,0,0,0,0,0,1,-0.000203783
6344,0.37207,0,-1.54688,-0.0027227,0.000682491,-0.000332174,-0.0452442,-0.00518137,-2.62113,0,0,0,-0.000224567,0.000297999,-0.0102994,0.0137303,-2.62072,0,0,0,0,0,0,0,0,0,0,0.128797,0.0428529,0,-1.7,2.55799e-38,0,0,0,-0.000224567,0.000297999,4.38672,-2.64844,-0.0999985,-0.389999,-0.0102994,0.0137303,1.9603e-19,0,0,0,0,0,0,0,0,0,1,-0.000595998
6359,0.37207,0,1.19629,-0.000291842,0.000530553,-0.000979778,-0.0452252,-0.00514823,-2.62118,0,0,0,-0.000431649,0.000575059,-0.0144461,0.0193622,-2.62118,0,0,0,0,0,0,0,0,0,0,0.130554,0.0430427,0,-1.7,2.55799e-38,0,0,0,-0.000431649,0.000575059,4.38672,-2.64844,-0.0999985,-0.389999,-0.0144461,0.0193622,1.9603e-19,0,0,0,0,0,0,0,0,0,1,-0.00115012
6374,0.37207,0,-7.19922,-0.00598063,-0.0019521,-0.000358986,-0.0453211,-0.00518433,-2.62119,0,0,0,-0.000685731,0.000916376,-0.0183118,0.0246216,-2.62119,0,0,0,0,0,0,0,0,0,0,0.132321,0.0431444,0,-1.7,2.55799e-38,0,0,0,-0.000685731,0.000916376,4.38672,-2.64844,-0.0999985,-0.389999,-0.0183118,0.0246216,1.9603e-19,0,0,0,0,0,0,0,0,0,1,-0.00183275
6390,0.37207,0,1.89258,0.00138118,0.000491663,-0.00122243,-0.0453548,-0.00519044,-2.62121,0,0,0,-0.00102057,0.00136722,-0.0224154,0.0302005,-2.62121,0,0,0,0,0,0,0,0,0,0,0.134234,0.0432304,0,-1.7,2.55799e-38,0,0,0,-0.00102057,0.00136722,4.38672,-2.64844,-0.0999985,-0.389999,-0.0224154,0.0302005,1.9603e-19,0,0,0,0,0,0,0,0,0,1,-0.00273444
6412,0.37207,0,2.37109,-0.00375978,-0.00256622,-0.000867893,-0.0453256,-0.00518714,-2.62123,0,0,0,-0.00160251,0.00215236,-0.0280155,0.0378159,-2.62122,0,0,0,0,0,0,0,0,0,0,0.13692,0.043305,0,-1.7,2.55799e-38,0,0,0,-0.00160251,0.00215236,4.38672,-2.64844,-0.0999985,-0.389999,-0.0280155,0.0378159,1.9603e-19,0,0,0,0,0,0,0,0,0,1,-0.00430472
6425,0.37207,0,2.37109,-0.00375978,-0.00256622,-0.000867893,-0.0453256,-0.00518714,-2.62123,0,0,0,-0.00199319,0.00267999,-0.0312916,0.0422716,-2.62123,0,0,0,0,0,0,0,0,0,0,0.13852,0.0433323,0,-1.7,2.55799e-38,0,0,0,-0.00199319,0.00267999,4.38672,-2.64844,-0.0999985,-0.389999,-0.0312916,0.0422716,1.9603e-19,0,0,0,0,0,0,0,0,0,1,-0.00535997
6441,0.37207,0,4.92383,-0.00522147,-0.00209273,-0.00150487,-0.0454419,-0.00522044,-2.62124,0,0,0,-0.00253478,0.00341196,-0.035307,0.0477283,-2.62124,0,0,0,0,0,0,0,0,0,0,0.140517,0.043345,0,-1.7,2.55799e-38,0,0,0,-0.00253478,0.00341196,4.38672,-2.64844,-0.0999985,-0.389999,-0.035307,0.0477283,1.9603e-19,0,0,0,0,0,0,0,0,0,1,-0.00682393
6455,0.37207,0,-2.94238,0.00749491,0.0012631,-0.00128123,-0.0453852,-0.00521334,-2.62127,0,0,0,-0.00306007,0.00412225,-0.0388008,0.052474,-2.62127,0,0,0,0,0,0,0,0,0,0,0.142284,0.0433396,0,-1.7,2.55799e-38,0,0,0,-0.00306007,0.00412225,4.38672,-2.64844,-0.0999985,-0.389999,-0.0388008,0.052474,1.9603e-19,0,0,0,0,0,0,0,0,0,1,-0.00824451
6471,0.37207,0,5.69629,0.00977366,0.00229727,-0.00113963,-0.045225,-0.00516688,-2.62127,0,0,0,-0.00367803,0.0049582,-0.0425103,0.0575157,-2.62127,0,0,0,0,0,0,0,0,0,0,0.1442,0.0433108,0,-1.7,2.55799e-38,0,0,0,-0.00367803,0.0049582,4.38672,-2.64844,-0.0999985,-0.389999,-0.0425103,0.0575157,1.9603e-19,0,0,0,0,0,0,0,0,0,1,-0.00991641
6486,0.37207,0,2.18359,-0.00512918,-0.00210707,-0.0019938,-0.0452564,-0.00518435,-2.6213,0,0,0,-0.00439816,0.00593282,-0.0464298,0.0628462,-2.6213,0,0,0,0,0,0,0,0,0,0,0.146261,0.0432595,0,-1.7,2.55799e-38,0,0,0,-0.00439816,0.00593282,4.38672,-2.64844,-0.0999985,-0.389999,-0.0464298,0.0628462,1.9603e-19,0,0,0,0,0,0,0,0,0,1,-0.0118656
6498,0.37207,0,1.98633,-0.00912478,-0.00343164,-0.00184949,-0.0454126,-0.00524257,-2.62133,0,0,0,-0.00497677,0.00671614,-0.0493522,0.066819,-2.6213,0,0,0,0,0,0,0,0,0,0,0.147826,0.043205,0,-1.7,2.55799e-38,0,0,0,-0.00497677,0.00671614,4.38672,-2.64844,-0.0999985,-0.389999,-0.0493522,0.066819,1.9603e-19,0,0,0,0,0,0,0,0,0,1,-0.0134323
6533,0.37207,0,-1.74219,0.00582292,0.000314245,-8.69674e-05,-0.0453614,-0.0052768,-2.62135,0,0,0,-0.0069443,0.00938069,-0.0578672,0.0783687,-2.62135,0,0,0,0,0,0,0,0,0,0,0.152533,0.042963,0,-1.7,2.55799e-38,0,0,0,-0.0069443,0.00938069,4.38672,-2.64844,-0.0999985,-0.389999,-0.0578672,0.0783687,1.9603e-19,0,0,0,0,0,0,0,0,0,1,-0.0187614
6560,0.37207,0,-0.414062,-0.00390407,-0.00180334,-0.00165658,-0.0453947,-0.0053037,-2.62137,0,0,0,-0.00857078,0.0115834,-0.0640961,0.0868012,-2.62137,0,0,0,0,0,0,0,0,0,0,0.156089,0.0427212,0,-1.7,2.55799e-38,0,0,0,-0.00857078,0.0115834,4.38672,-2.64844,-0.0999985,-0.389999,-0.0640961,0.0868012,1.9603e-19,0,0,0,0,0,0,0,0,0,1,-0.0231668
6573,0.37207,0,5.6123,-0.00581706,-0.00205753,-0.000308902,-0.0455283,-0.00534349,-2.62137,0,0,0,-0.00949689,0.0128375,-0.0674237,0.0912993,-2.62137,0,0,0,0,0,0,0,0,0,0,0.158021,0.0425731,0,-1.7,2.55799e-38,0,0,0,-0.00949689,0.0128375,4.38672,-2.64844,-0.0999985,-0.389999,-0.0674237,0.0912993,1.9603e-19,0,0,0,0,0,0,0,0,0,1,-0.025675
6586,0.375,0,-2.1084,0.0125689,0.00467595,-0.0109426,-0.0454672,-0.00530707,-2.62145,0,0,0,-0.0103983,0.014058,-0.0704986,0.0954555,-2.62145,0,0,0,0,0,0,0,0,0,0,0.159818,0.0424324,0,-1.7,2.55799e-38,0,0,0,-0.0103983,0.014058,4.38672,-2.64844,-0.0999985,-0.389999,-0.0704986,0.0954555,1.9603e-19,0,0,0,0,0,0,0,0,0,1,-0.028116
6601,0.822266,0.0488281,-5.54395,0.461315,0.0616722,-0.493838,-0.0408548,-0.00470205,-2.62624,0,0,0,-0.0114897,0.0155358,-0.0739602,0.100148,-2.62624,0,0,0,0,0,0,0,0,0,0,0.160867,0.0430063,0,-1.7,2.55799e-38,0,0,0,-0.0114897,0.0155358,4.38672,-2.64844,-0.0999985,-0.389999,-0.0739602,0.100148,1.9603e-19,0,0,0,0,0,0,0,0,0,1,-0.0310716
6616,-0.337891,-0.113281,-4.07031,-0.16215,-0.015899,-0.0234941,-0.0376568,-0.00399741,-2.63181,0,0,0,-0.0126279,0.0170776,-0.0770193,0.104353,-2.62624,0,0,0,0,0,0,0,0,0,0,0.162829,0.0427737,0,-1.7,2.55799e-38,0,0,0,-0.0126279,0.0170776,4.38672,-2.64844,-0.0999985,-0.389999,-0.0770193,0.104353,1.9603e-19,0,0,0,0,0,0,0,0,0,1,-0.0341552
6630,0.15918,-0.0683594,-3.07422,-0.508105,-0.154085,0.418475,-0.0478446,-0.00579255,-2.62469,0,0,0,-0.0137284,0.0185703,-0.079532,0.107934,-2.63181,0,0,0,0,0,0,0,0,0,0,0.163356,0.043425,0,-1.7,2.55799e-38,0,0,0,-0.0137284,0.0185703,4.38672,-2.64844,-0.0999985,-0.389999,-0.079532,0.107934,1.9603e-19,0,0,0,0,0,0,0,0,0,1,-0.0371406
6645,1.75781,0.162109,3.44922,0.594762,0.0594406,0.331236,-0.0415039,-0.00463867,-2.61963,0,0,0,-0.014957,0.0202373,-0.0832084,0.112895,-2.62469,0,0,0,0,0,0,0,0,0,0,0.16716,0.0420305,0,-1.7,2.55799e-38,0,0,0,-0.014957,0.0202373,4.38672,-2.64844,-0.0999985,-0.389999,-0.0832084,0.112895,1.9603e-19,0,0,0,0,0,0,0,0,0,1,-0.0404746
6660,1.75781,0.162109,3.44922,0.594762,0.0594406,0.331236,-0.0415039,-0.00463867,-2.61963,0,0,0,-0.0162375,0.0219746,-0.0865095,0.117375,-2.61963,0,0,0,0,0,0,0,0,0,0,0.17039,0.0409051,0,-1.7,2.55799e-38,0,0,0,-0.0162375,0.0219746,4.38672,-2.64844,-0.0999985,-0.389999,-0.0865095,0.117375,1.9603e-19,0,0,0,0,0,0,0,0,0,1,-0.0439491
6675,1.38086,-0.0703125,-4.71094,1.3811,0.108262,0.647353,-0.0227634,-0.00310842,-2.61115,0,0,0,-0.0175604,0.0237692,-0.0888339,0.120456,-2.61115,0,0,0,0,0,0,0,0,0,0,0.173942,0.0391097,0,-1.7,2.55799e-38,0,0,0,-0.0175604,0.0237692,4.38672,-2.64844,-0.0999985,-0.389999,-0.0888339,0.120456,1.9603e-19,0,0,0,0,0,0,0,0,0,1,-0.0475385
6689,-0.0576172,0.0439453,5.67578,1.67039,0.127227,1.16312,0.00330415,-0.000975457,-2.5949,0,0,0,-0.0188128,0.0254658,-0.0893341,0.120916,-2.5949,0,0,0,0,0,0,0,0,0,0,0.178277,0.0358618,0,-1.7,2.55799e-38,0,0,0,-0.0188128,0.0254658,4.38672,-2.64844,-0.0999985,-0.389999,-0.0893341,0.120916,1.9603e-19,0,0,0,0,0,0,0,0,0,1,-0.0509316
6704,-2.20312,0.446289,4.29785,2.13039,0.150413,1.46692,0.0370971,0.000663456,-2.56968,0,0,0,-0.0201411,0.0272605,-0.0874409,0.117995,-2.56968,0,0,0,0,0,0,0,0,0,0,0.183407,0.0308115,0,-1.7,2.55799e-38,0,0,0,-0.0201411,0.0272605,4.38672,-2.64844,-0.0999985,-0.389999,-0.0874409,0.117995,1.9603e-19,0,0,0,0,0,0,0,0,0,1,-0.054521
6718,-3.57031,0.22168,2.90234,2.49363,0.0921375,1.14296,0.078866,0.0015327,-2.55019,0,0,0,-0.0213325,0.0288644,-0.0830964,0.111701,-2.55019,0,0,0,0,0,0,0,0,0,0,0.186126,0.0267264,0,-1.7,2.55799e-38,0,0,0,-0.0213325,0.0288644,4.38672,-2.64844,-0.0999985,-0.389999,-0.0830964,0.111701,1.9603e-19,0,0,0,0,0,0,0,0,0,1,-0.0577288
6733,-5.06445,-0.166992,-1.86426,1.51353,-0.372283,0.556536,0.106062,-0.0049092,-2.53916,0,0,0,-0.0225101,0.0304412,-0.0755702,0.1007,-2.53916,0,0,0,0,0,0,0,0,0,0,0.185653,0.0242214,0,-1.7,2.55799e-38,0,0,0,-0.0225101,0.0304412,4.38672,-2.64844,-0.0999985,-0.389999,-0.0755702,0.1007,1.9603e-19,0,0,0,0,0,0,0,0,0,1,-0.0608824
6747,-6.05371,-0.0761719,3.41211,1.27743,-0.30569,-0.411635,0.127097,-0.00945194,-2.54336,0,0,0,-0.0234957,0.0317356,-0.0674021,0.0876894,-2.53916,0,0,0,0,0,0,0,0,0,0,0.182349,0.0240153,0,-1.7,2.55799e-38,0,0,0,-0.0234957,0.0317356,4.38672,-2.64844,-0.0999985,-0.389999,-0.0674021,0.0876894,1.9603e-19,0,0,0,0,0,0,0,0,0,1,-0.0634713
6762,-5.77246,-0.615234,-1.18359,1.74903,-0.431836,-0.877466,0.154838,-0.0126226,-2.55815,0,0,0,-0.0244115,0.0328881,-0.0575668,0.0708574,-2.54336,0,0,0,0,0,0,0,0,0,0,0.177126,0.0247943,0,-1.7,2.55799e-38,0,0,0,-0.0244115,0.0328881,4.38672,-2.64844,-0.0999985,-0.389999,-0.0575668,0.0708574,1.9603e-19,0,0,0,0,0,0,0,0,0,1,-0.0657761
6777,-5.77246,-0.615234,-1.18359,1.74903,-0.431836,-0.877466,0.154838,-0.0126226,-2.55815,0,0,0,-0.0251775,0.0337806,-0.0468206,0.0518418,-2.55815,0,0,0,0,0,0,0,0,0,0,0.169087,0.0275216,0,-1.7,2.55799e-38,0,0,0,-0.0251775,0.0337806,4.38672,-2.64844,-0.0999985,-0.389999,-0.0468206,0.0518418,1.9603e-19,0,0,0,0,0,0,0,0,0,1,-0.0675611
6792,-5.58887,-0.826172,-0.854492,2.87327,-0.621036,-1.27622,0.19621,-0.0181771,-2.57768,0,0,0,-0.0257684,0.0343531,-0.0344706,0.0286846,-2.57768,0,0,0,0,0,0,0,0,0,0,0.158808,0.0311181,0,-1.7,2.55799e-38,0,0,0,-0.0257684,0.0343531,4.38672,-2.64844,-0.0999985,-0.389999,-0.0344706,0.0286846,1.9603e-19,0,0,0,0,0,0,0,0,0,1,-0.0687063
6807,-6.49902,0.205078,1.11426,3.61701,-0.904671,-1.98382,0.252721,-0.0237784,-2.60831,0,0,0,-0.0261353,0.0345254,-0.0208155,0.00103194,-2.60831,0,0,0,0,0,0,0,0,0,0,0.144824,0.0364157,0,-1.7,2.55799e-38,0,0,0,-0.0261353,0.0345254,4.38672,-2.64844,-0.0999985,-0.389999,-0.0208155,0.00103194,1.9603e-19,0,0,0,0,0,0,0,0,0,1,-0.0690508
6821,-5.27148,1.33008,-0.0566406,2.93538,-1.87376,-2.25879,0.303312,-0.038691,-2.6493,0,0,0,-0.0262912,0.0341973,-0.00460518,-0.036466,-2.6493,0,0,0,0,0,0,0,0,0,0,0.125741,0.0431102,0,-1.7,2.55799e-38,0,0,0,-0.0262912,0.0341973,4.38672,-2.64844,-0.0999985,-0.389999,-0.00460518,-0.036466,1.9603e-19,0,0,0,0,0,0,0,0,0,1,-0.0683946
6836,-7.26367,2.19238,-6.3584,1.80548,-2.38936,-1.70946,0.337974,-0.0659508,-2.68995,0,0,0,-0.0262126,0.0332401,0.010355,-0.0817325,-2.68995,0,0,0,0,0,0,0,0,0,0,0.104549,0.0498239,0,-1.7,2.55799e-38,0,0,0,-0.0262126,0.0332401,4.38672,-2.64844,-0.0999985,-0.389999,0.010355,-0.0817325,1.9603e-19,0,0,0,0,0,0,0,0,0,1,-0.0664802
6851,6.1084,2.8125,7.18652,1.04496,-1.2596,-0.914298,0.359332,-0.0856157,-2.71546,0,0,0,-0.0259387,0.0315439,0.0224207,-0.132628,-2.71546,0,0,0,0,0,0,0,0,0,0,0.0851916,0.0552803,0,-1.7,2.55799e-38,0,0,0,-0.0259387,0.0315439,4.38672,-2.64844,-0.0999985,-0.389999,0.0224207,-0.132628,1.9603e-19,0,0,0,0,0,0,0,0,0,1,-0.0630878
6865,1.58105,2.49316,2.05664,0.787502,0.622864,-0.729025,0.373246,-0.0780554,-2.72463,0,0,0,-0.02554,0.0292425,0.032133,-0.182932,-2.72463,0,0,0,0,0,0,0,0,0,0,0.0695467,0.0593912,0,-1.7,2.55799e-38,0,0,0,-0.02554,0.0292425,4.38672,-2.64844,-0.0999985,-0.389999,0.032133,-0.182932,1.9603e-19,0,0,0,0,0,0,0,0,0,1,-0.058485
6880,-3.33496,1.62207,-4.74414,0.513161,1.60002,-1.04319,0.382887,-0.0506088,-2.72982,0,0,0,-0.0249463,0.0259668,0.0436707,-0.237868,-2.72463,0,0,0,0,0,0,0,0,0,0,0.0543237,0.0629793,0,-1.7,2.55799e-38,0,0,0,-0.0249463,0.0259668,4.38672,-2.64844,-0.0999985,-0.389999,0.0436707,-0.237868,1.9603e-19,0,0,0,0,0,0,0,0,0,1,-0.0519336
6894,-7.00391,0.749023,1.42969,-0.0458785,1.32393,-1.22119,0.38451,-0.0226885,-2.73884,0,0,0,-0.0242089,0.0221984,0.0582337,-0.288523,-2.72982,0,0,0,0,0,0,0,0,0,0,0.0383019,0.0657442,0,-1.7,2.55799e-38,0,0,0,-0.0242089,0.0221984,4.38672,-2.64844,-0.0999985,-0.389999,0.0582337,-0.288523,1.9603e-19,0,0,0,0,0,0,0,0,0,1,-0.0443967
6908,-7.00391,0.749023,1.42969,-0.0458785,1.32393,-1.22119,0.38451,-0.0226885,-2.73884,0,0,0,-0.0232564,0.0177281,0.0748291,-0.338053,-2.73884,0,0,0,0,0,0,0,0,0,0,0.0210606,0.0679923,0,-1.7,2.55799e-38,0,0,0,-0.0232564,0.0177281,4.38672,-2.64844,-0.0999985,-0.389999,0.0748291,-0.338053,1.9603e-19,0,0,0,0,0,0,0,0,0,1,-0.0354562
6923,-5.80469,0.267578,-4.4668,-0.40359,0.537514,-1.06726,0.378215,-0.00466203,-2.7521,0,0,0,-0.0220497,0.0125656,0.093086,-0.386138,-2.7521,0,0,0,0,0,0,0,0,0,0,0.00260047,0.0695728,0,-1.7,2.55799e-38,0,0,0,-0.0220497,0.0125656,4.38672,-2.64844,-0.0999985,-0.389999,0.093086,-0.386138,1.9603e-19,0,0,0,0,0,0,0,0,0,1,-0.0251312
6937,2.29492,-0.0810547,6.75977,-0.0880438,0.115878,-0.941307,0.375479,0.00300576,-2.76478,0,0,0,-0.0204568,0.00628852,0.113466,-0.436114,-2.76478,0,0,0,0,0,0,0,0,0,0,-0.0169031,0.0706008,0,-1.7,2.55799e-38,0,0,0,-0.0204568,0.00628852,4.38672,-2.64844,-0.0999985,-0.389999,0.113466,-0.436114,1.9603e-19,0,0,0,0,0,0,0,0,0,1,-0.012577
6952,-1.96777,-0.180664,5.33594,0.334174,-0.0460343,-1.13253,0.379567,0.00909933,-2.78092,0,0,0,-0.0185624,-0.000718044,0.133969,-0.485647,-2.78092,0,0,0,0,0,0,0,0,0,0,-0.0375299,0.0711063,0,-1.7,2.55799e-38,0,0,0,-0.0185624,-0.000718044,4.38672,-2.64844,-0.0999985,-0.389999,0.133969,-0.485647,1.9603e-19,0,0,0,0,0,0,0,0,0,1,0.00143609
6967,5.74219,-0.280273,-3.9668,0.527181,-0.17457,-1.30192,0.387187,0.014488,-2.80021,0,0,0,-0.0163596,-0.0084702,0.154534,-0.535545,-2.80021,0,0,0,0,0,0,0,0,0,0,-0.0593863,0.0709666,0,-1.7,2.55799e-38,0,0,0,-0.0163596,-0.0084702,4.38672,-2.64844,-0.0999985,-0.389999,0.154534,-0.535545,1.9603e-19,0,0,0,0,0,0,0,0,0,1,0.0169404
6981,-4.64551,-0.378906,6.90723,0.594537,-0.204815,-1.3077,0.396376,0.0194983,-2.82168,0,0,0,-0.014026,-0.0163862,0.173719,-0.582885,-2.82168,0,0,0,0,0,0,0,0,0,0,-0.0811416,0.0700487,0,-1.7,2.55799e-38,0,0,0,-0.014026,-0.0163862,4.38672,-2.64844,-0.0999985,-0.389999,0.173719,-0.582885,1.9603e-19,0,0,0,0,0,0,0,0,0,1,0.0327723
6996,-2.85059,-0.291992,7.35742,0.549918,0.0733783,-1.27494,0.40496,0.0274935,-2.84056,0,0,0,-0.0112223,-0.0256304,0.19417,-0.634642,-2.82168,0,0,0,0,0,0,0,0,0,0,-0.0994198,0.0707181,0,-1.7,2.55799e-38,0,0,0,-0.0112223,-0.0256304,4.38672,-2.64844,-0.0999985,-0.389999,0.19417,-0.634642,1.9603e-19,0,0,0,0,0,0,0,0,0,1,0.0512608
7011,-4.00684,-0.125977,-4.87598,0.424975,0.439672,-1.24227,0.411503,0.0404471,-2.85602,0,0,0,-0.00810791,-0.0356605,0.215024,-0.687385,-2.84056,0,0,0,0,0,0,0,0,0,0,-0.122958,0.0692156,0,-1.7,2.55799e-38,0,0,0,-0.00810791,-0.0356605,4.38672,-2.64844,-0.0999985,-0.389999,0.215024,-0.687385,1.9603e-19,0,0,0,0,0,0,0,0,0,1,0.071321
7026,-4.00684,-0.125977,-4.87598,0.424975,0.439672,-1.24227,0.411503,0.0404471,-2.85602,0,0,0,-0.00468305,-0.046467,0.236545,-0.740237,-2.85602,0,0,0,0,0,0,0,0,0,0,-0.146089,0.067367,0,-1.7,2.55799e-38,0,0,0,-0.00468305,-0.046467,4.38672,-2.64844,-0.0999985,-0.389999,0.236545,-0.740237,1.9603e-19,0,0,0,0,0,0,0,0,0,1,0.0929339
7041,5.17676,-0.170898,-4.69727,0.192025,0.603769,-1.19731,0.414642,0.0570832,-2.87002,0,0,0,-0.00118709,-0.0572676,0.257735,-0.789592,-2.87002,0,0,0,0,0,0,0,0,0,0,-0.16797,0.0649534,0,-1.7,2.55799e-38,0,0,0,-0.00118709,-0.0572676,4.38672,-2.64844,-0.0999985,-0.389999,0.257735,-0.789592,1.9603e-19,0,0,0,0,0,0,0,0,0,1,0.114535
7055,0.632812,-0.444336,3.43164,-0.120306,0.468103,-1.12142,0.412803,0.0714077,-2.88293,0,0,0,0.00290953,-0.0696201,0.281872,-0.842018,-2.88293,0,0,0,0,0,0,0,0,0,0,-0.191231,0.0618639,0,-1.7,2.55799e-38,0,0,0,0.00290953,-0.0696201,4.38672,-2.64844,-0.0999985,-0.389999,0.281872,-0.842018,1.9603e-19,0,0,0,0,0,0,0,0,0,1,0.13924
7070,-4.48828,-0.776367,5.74023,-0.452235,0.324848,-1.09453,0.404789,0.0842476,-2.89778,0,0,0,0.00737861,-0.0827494,0.306948,-0.893279,-2.89778,0,0,0,0,0,0,0,0,0,0,-0.21504,0.0575922,0,-1.7,2.55799e-38,0,0,0,0.00737861,-0.0827494,4.38672,-2.64844,-0.0999985,-0.389999,0.306948,-0.893279,1.9603e-19,0,0,0,0,0,0,0,0,0,1,0.165499
7084,5.20605,-1.1084,6.74316,-0.50592,0.261871,-1.1554,0.395345,0.0951382,-2.91241,0,0,0,0.0118865,-0.0956681,0.330803,-0.939523,-2.91241,0,0,0,0,0,0,0,0,0,0,-0.237316,0.0527071,0,-1.7,2.55799e-38,0,0,0,0.0118865,-0.0956681,4.38672,-2.64844,-0.0999985,-0.389999,0.330803,-0.939523,1.9603e-19,0,0,0,0,0,0,0,0,0,1,0.191336
7099,1.06934,-1.41992,4.69629,-0.416528,0.129301,-1.33123,0.386763,0.105225,-2.92991,0,0,0,0.0167302,-0.109222,0.354785,-0.984576,-2.92991,0,0,0,0,0,0,0,0,0,0,-0.260152,0.0464477,0,-1.7,2.55799e-38,0,0,0,0.0167302,-0.109222,4.38672,-2.64844,-0.0999985,-0.389999,0.354785,-0.984576,1.9603e-19,0,0,0,0,0,0,0,0,0,1,0.218444
7113,-5.77539,-1.55957,6.51953,-0.243168,-0.0834793,-1.54634,0.379649,0.113515,-2.95197,0,0,0,0.0223012,-0.124445,0.380535,-1.03157,-2.92991,0,0,0,0,0,0,0,0,0,0,-0.280432,0.0442215,0,-1.7,2.55799e-38,0,0,0,0.0223012,-0.124445,4.38672,-2.64844,-0.0999985,-0.389999,0.380535,-1.03157,1.9603e-19,0,0,0,0,0,0,0,0,0,1,0.248891
7128,5.37109,-1.33789,-4.72949,0.0138267,-0.224553,-1.72762,0.375286,0.120969,-2.98037,0,0,0,0.0282552,-0.140364,0.405947,-1.07755,-2.95197,0,0,0,0,0,0,0,0,0,0,-0.305489,0.0354107,0,-1.7,2.55799e-38,0,0,0,0.0282552,-0.140364,4.38672,-2.64844,-0.0999985,-0.389999,0.405947,-1.07755,1.9603e-19,0,0,0,0,0,0,0,0,0,1,0.280728
7143,5.37109,-1.33789,-4.72949,0.0138267,-0.224553,-1.72762,0.375286,0.120969,-2.98037,0,0,0,0.0345772,-0.156956,0.430684,-1.12315,-2.98037,0,0,0,0,0,0,0,0,0,0,-0.33176,0.0237086,0,-1.7,2.55799e-38,0,0,0,0.0345772,-0.156956,4.38672,-2.64844,-0.0999985,-0.389999,0.430684,-1.12315,1.9603e-19,0,0,0,0,0,0,0,0,0,1,0.313913
7158,-0.0839844,-1.10352,0.388672,0.173921,-0.178521,-1.68711,0.374023,0.127686,-3.00635,0,0,0,0.0412679,-0.174231,0.455077,-1.16863,-3.00635,0,0,0,0,0,0,0,0,0,0,-0.357441,0.011681,0,-1.7,2.55799e-38,0,0,0,0.0412679,-0.174231,4.38672,-2.64844,-0.0999985,-0.389999,0.455077,-1.16863,1.9603e-19,0,0,0,0,0,0,0,0,0,1,0.348462
7173,6.7959,-0.804688,-1.15332,0.161217,-0.0321018,-1.61089,0.373547,0.135978,-3.03046,0,0,0,0.0478378,-0.190968,0.477496,-1.21118,-3.03046,0,0,0,0,0,0,0,0,0,0,-0.381335,-0.000453703,0,-1.7,2.55799e-38,0,0,0,0.0478378,-0.190968,4.38672,-2.64844,-0.0999985,-0.389999,0.477496,-1.21118,1.9603e-19,0,0,0,0,0,0,0,0,0,1,0.381936
7187,6.29492,-0.631836,6.80469,0.0536778,0.117407,-1.46938,0.371717,0.145664,-3.05182,0,0,0,0.0552316,-0.209577,0.501476,-1.25682,-3.05182,0,0,0,0,0,0,0,0,0,0,-0.406131,-0.0127499,0,-1.7,2.55799e-38,0,0,0,0.0552316,-0.209577,4.38672,-2.64844,-0.0999985,-0.389999,0.501476,-1.25682,1.9603e-19,0,0,0,0,0,0,0,0,0,1,0.419154
7202,-1.54688,-0.78418,-6.55957,-0.0387009,0.197677,-1.3868,0.368196,0.15642,-3.07174,0,0,0,0.0629805,-0.228857,0.52569,-1.30223,-3.07174,0,0,0,0,0,0,0,0,0,0,-0.426991,-0.025701,0,-1.7,2.55799e-38,0,0,0,0.0629805,-0.228857,4.38672,-2.64844,-0.0999985,-0.389999,0.52569,-1.30223,1.9603e-19,0,0,0,0,0,0,0,0,0,1,0.457714
7216,-4.64648,-1.09863,-0.691406,0.00525576,0.27037,-1.43293,0.364727,0.168761,-3.0922,0,0,0,0.0705425,-0.247461,0.548643,-1.34429,-3.0922,0,0,0,0,0,0,0,0,0,0,-0.430228,-0.0401985,0,-1.7,2.55799e-38,0,0,0,0.0705425,-0.247461,4.38672,-2.64844,-0.0999985,-0.389999,0.548643,-1.34429,1.9603e-19,0,0,0,0,0,0,0,0,0,1,0.494922
7231,-4.43457,-1.43066,-1.73145,-0.0664735,0.118923,-1.6421,0.360264,0.180006,-3.11469,0,0,0,0.079014,-0.268059,0.573686,-1.38906,-3.11469,0,0,0,0,0,0,0,0,0,0,-0.433307,-0.0561673,0,-1.7,2.55799e-38,0,0,0,0.079014,-0.268059,4.38672,-2.64844,-0.0999985,-0.389999,0.573686,-1.38906,1.9603e-19,0,0,0,0,0,0,0,0,0,1,0.536117
7246,-3.76465,-1.75391,2.58203,-0.164911,-0.304862,-1.82175,0.352188,0.187128,3.13986,0,0,0,0.0878641,-0.289324,0.598979,-1.43348,-3.11469,0,0,0,0,0,0,0,0,0,0,-0.433477,-0.0624884,0,-1.7,2.55799e-38,0,0,0,0.0878641,-0.289324,4.38672,-2.64844,-0.0999985,-0.389999,0.598979,-1.43348,1.9603e-19,0,0,0,0,0,0,0,0,0,1,0.578649
7260,-2.87793,-1.84961,5.60059,0.0586374,-0.726575,-1.79447,0.345833,0.18725,3.1093,0,0,0,0.0964537,-0.309755,0.621966,-1.47428,3.13986,0,0,0,0,0,0,0,0,0,0,-0.436495,-0.0806902,0,-1.7,2.55799e-38,0,0,0,0.0964537,-0.309755,4.38672,-2.64844,-0.0999985,-0.389999,0.621966,-1.47428,1.9603e-19,0,0,0,0,0,0,0,0,0,1,0.61951
7274,-2.87793,-1.84961,5.60059,0.0586374,-0.726575,-1.79447,0.345833,0.18725,3.1093,0,0,0,0.105353,-0.330745,0.643825,-1.51473,3.1093,0,0,0,0,0,0,0,0,0,0,-0.43898,-0.0995361,0,-1.7,2.55799e-38,0,0,0,0.105353,-0.330745,4.38672,-2.64844,-0.0999985,-0.389999,0.643825,-1.51473,1.9603e-19,0,0,0,0,0,0,0,0,0,1,0.66149
7289,-2.53516,-1.91797,1.49121,0.569985,-0.914771,-1.60832,0.347327,0.182338,3.07711,0,0,0,0.114551,-0.352309,0.664006,-1.55528,3.07711,0,0,0,0,0,0,0,0,0,0,-0.440838,-0.118737,0,-1.7,2.55799e-38,0,0,0,0.114551,-0.352309,4.38672,-2.64844,-0.0999985,-0.389999,0.664006,-1.55528,1.9603e-19,0,0,0,0,0,0,0,0,0,1,0.704618
7303,-2.63379,-2.18164,2.41211,0.830968,-0.840636,-1.63994,0.354374,0.178438,3.04851,0,0,0,0.124701,-0.376064,0.683181,-1.5997,3.04851,0,0,0,0,0,0,0,0,0,0,-0.441805,-0.13614,0,-1.7,2.55799e-38,0,0,0,0.124701,-0.376064,4.38672,-2.64844,-0.0999985,-0.389999,0.683181,-1.5997,1.9603e-19,0,0,0,0,0,0,0,0,0,1,0.752128
7318,-2.50684,-2.52637,6.65234,0.688387,-0.714952,-1.81973,0.360388,0.177456,3.01707,0,0,0,0.135117,-0.400499,0.700097,-1.64548,3.01707,0,0,0,0,0,0,0,0,0,0,-0.442265,-0.15424,0,-1.7,2.55799e-38,0,0,0,0.135117,-0.400499,4.38672,-2.64844,-0.0999985,-0.389999,0.700097,-1.64548,1.9603e-19,0,0,0,0,0,0,0,0,0,1,0.800998
7333,-1.9707,-2.51074,-3.58887,0.142751,-0.575429,-1.9489,0.35837,0.179399,2.98404,0,0,0,0.145764,-0.425619,0.715172,-1.69204,2.98404,0,0,0,0,0,0,0,0,0,0,-0.4421,-0.172581,0,-1.7,2.55799e-38,0,0,0,0.145764,-0.425619,4.38672,-2.64844,-0.0999985,-0.389999,0.715172,-1.69204,1.9603e-19,0,0,0,0,0,0,0,0,0,1,0.851237
7347,-1.28613,-2.16211,0.291992,-0.51002,-0.380005,-1.87552,0.34557,0.18375,2.95131,0,0,0,0.155891,-0.449692,0.728043,-1.73528,2.95131,0,0,0,0,0,0,0,0,0,0,-0.441316,-0.190207,0,-1.7,2.55799e-38,0,0,0,0.155891,-0.449692,4.38672,-2.64844,-0.0999985,-0.389999,0.728043,-1.73528,1.9603e-19,0,0,0,0,0,0,0,0,0,1,0.899384
7362,-0.588867,-1.77832,-5.33789,-1.06039,-0.11255,-1.57922,0.324314,0.189998,2.92494,0,0,0,0.166936,-0.476156,0.740935,-1.78023,2.95131,0,0,0,0,0,0,0,0,0,0,-0.440706,-0.193371,0,-1.7,2.55799e-38,0,0,0,0.166936,-0.476156,4.38672,-2.64844,-0.0999985,-0.389999,0.740935,-1.78023,1.9603e-19,0,0,0,0,0,0,0,0,0,1,0.952312
7377,-0.0117188,-1.7998,-0.821289,-1.30083,0.105586,-1.20652,0.300123,0.197256,2.90595,0,0,0,0.178171,-0.503255,0.753759,-1.82229,2.92494,0,0,0,0,0,0,0,0,0,0,-0.439365,-0.208119,0,-1.7,2.55799e-38,0,0,0,0.178171,-0.503255,4.38672,-2.64844,-0.0999985,-0.389999,0.753759,-1.82229,1.9603e-19,0,0,0,0,0,0,0,0,0,1,1
7392,-0.0117188,-1.7998,-0.821289,-1.30083,0.105586,-1.20652,0.300123,0.197256,2.90595,0,0,0,0.188831,-0.529105,0.766069,-1.85966,2.90595,0,0,0,0,0,0,0,0,0,0,-0.437928,-0.219448,0,-1.7,2.55799e-38,0,0,0,0.188831,-0.529105,4.38672,-2.64844,-0.0999985,-0.389999,0.766069,-1.85966,1.9603e-19,0,0,0,0,0,0,0,0,0,1,1
7406,0.0673828,-2.1748,3.66699,-1.27733,0.198485,-0.90935,0.276779,0.204524,2.89215,0,0,0,0.200454,-0.557368,0.779962,-1.89694,2.89215,0,0,0,0,0,0,0,0,0,0,-0.436408,-0.228851,0,-1.7,2.55799e-38,0,0,0,0.200454,-0.557368,4.38672,-2.64844,-0.0999985,-0.389999,0.779962,-1.89694,1.9603e-19,0,0,0,0,0,0,0,0,0,1,1
7420,0.110352,-2.68848,6.4541,-0.998925,0.149544,-0.709522,0.256658,0.210583,2.88104,0,0,0,0.211495,-0.584213,0.793893,-1.92884,2.88104,0,0,0,0,0,0,0,0,0,0,-0.434879,-0.237063,0,-1.7,2.55799e-38,0,0,0,0.211495,-0.584213,4.38672,-2.64844,-0.0999985,-0.389999,0.793893,-1.92884,1.9603e-19,0,0,0,0,0,0,0,0,0,1,1
7436,0.209961,-3.22363,-5.64648,-0.399072,0.0450833,-0.561315,0.244813,0.214607,2.87135,0,0,0,0.224371,-0.615436,0.810577,-1.96296,2.87135,0,0,0,0,0,0,0,0,0,0,-0.433138,-0.245291,0,-1.7,2.55799e-38,0,0,0,0.224371,-0.615436,4.38672,-2.64844,-0.0999985,-0.389999,0.810577,-1.96296,1.9603e-19,0,0,0,0,0,0,0,0,0,1,1
7450,0.0488281,-3.75879,-0.333008,0.206739,-0.0543836,-0.572588,0.244153,0.216645,2.86267,0,0,0,0.235848,-0.643168,0.825379,-1.99187,2.86267,0,0,0,0,0,0,0,0,0,0,-0.431488,-0.252607,0,-1.7,2.55799e-38,0,0,0,0.235848,-0.643168,4.38672,-2.64844,-0.0999985,-0.389999,0.825379,-1.99187,1.9603e-19,0,0,0,0,0,0,0,0,0,1,1
7464,-0.227539,-3.92578,6.62402,0.575195,-0.211061,-0.759314,0.249262,0.217246,2.85084,0,0,0,0.24753,-0.671303,0.839971,-2.02083,2.85084,0,0,0,0,0,0,0,0,0,0,-0.429488,-0.2612,0,-1.7,2.55799e-38,0,0,0,0.24753,-0.671303,4.38672,-2.64844,-0.0999985,-0.389999,0.839971,-2.02083,1.9603e-19,0,0,0,0,0,0,0,0,0,1,1
7478,-0.276367,-3.70508,6.07422,0.74878,-0.42627,-0.860637,0.256956,0.215208,2.83618,0,0,0,0.259413,-0.699857,0.853962,-2.05044,2.85084,0,0,0,0,0,0,0,0,0,0,-0.428485,-0.264551,0,-1.7,2.55799e-38,0,0,0,0.259413,-0.699857,4.38672,-2.64844,-0.0999985,-0.389999,0.853962,-2.05044,1.9603e-19,0,0,0,0,0,0,0,0,0,1,1
7493,-0.0410156,-3.2627,2.90625,0.915399,-0.638737,-0.842771,0.26761,0.209391,2.81885,0,0,0,0.272355,-0.730932,0.86758,-2.0833,2.83618,0,0,0,0,0,0,0,0,0,0,-0.426094,-0.274071,0,-1.7,2.55799e-38,0,0,0,0.272355,-0.730932,4.38672,-2.64844,-0.0999985,-0.389999,0.86758,-2.0833,1.9603e-19,0,0,0,0,0,0,0,0,0,1,1
7508,-0.0351562,-2.79785,-5.4541,1.03908,-0.665553,-0.729351,0.280127,0.202574,2.8044,0,0,0,0.285489,-0.762494,0.879836,-2.11688,2.81885,0,0,0,0,0,0,0,0,0,0,-0.423332,-0.284345,0,-1.7,2.55799e-38,0,0,0,0.285489,-0.762494,4.38672,-2.64844,-0.0999985,-0.389999,0.879836,-2.11688,1.9603e-19,0,0,0,0,0,0,0,0,0,1,1
7522,-0.0351562,-2.79785,-5.4541,1.03908,-0.665553,-0.729351,0.280127,0.202574,2.8044,0,0,0,0.297894,-0.792416,0.889215,-2.14953,2.8044,0,0,0,0,0,0,0,0,0,0,-0.420923,-0.292665,0,-1.7,2.55799e-38,0,0,0,0.297894,-0.792416,4.38672,-2.64844,-0.0999985,-0.389999,0.889215,-2.14953,1.9603e-19,0,0,0,0,0,0,0,0,0,1,1
7537,-0.258789,-2.33301,6.64844,0.89978,-0.51909,-0.624511,0.292231,0.196968,2.79158,0,0,0,0.311316,-0.825005,0.89743,-2.18567,2.79158,0,0,0,0,0,0,0,0,0,0,-0.41867,-0.299977,0,-1.7,2.55799e-38,0,0,0,0.311316,-0.825005,4.38672,-2.64844,-0.0999985,-0.389999,0.89743,-2.18567,1.9603e-19,0,0,0,0,0,0,0,0,0,1,1
7552,-0.59082,-2.07812,-6.86133,0.620617,-0.278886,-0.458052,0.300883,0.194192,2.78214,0,0,0,0.32484,-0.85814,0.90377,-2.22313,2.78214,0,0,0,0,0,0,0,0,0,0,-0.416908,-0.305409,0,-1.7,2.55799e-38,0,0,0,0.32484,-0.85814,4.38672,-2.64844,-0.0999985,-0.389999,0.90377,-2.22313,1.9603e-19,0,0,0,0,0,0,0,0,0,1,1
7566,-0.922852,-1.97852,-2.84375,0.299837,0.0689612,-0.339392,0.305097,0.195777,2.77647,0,0,0,0.337539,-0.889579,0.908884,-2.25878,2.77647,0,0,0,0,0,0,0,0,0,0,-0.415702,-0.308965,0,-1.7,2.55799e-38,0,0,0,0.337539,-0.889579,4.38672,-2.64844,-0.0999985,-0.389999,0.908884,-2.25878,1.9603e-19,0,0,0,0,0,0,0,0,0,1,1
7581,-1.05176,-2.03418,3.99414,0.0196578,0.464184,-0.271757,0.305295,0.203444,2.77382,0,0,0,0.351224,-0.923833,0.914416,-2.29732,2.77382,0,0,0,0,0,0,0,0,0,0,-0.414847,-0.311358,0,-1.7,2.55799e-38,0,0,0,0.351224,-0.923833,4.38672,-2.64844,-0.0999985,-0.389999,0.914416,-2.29732,1.9603e-19,0,0,0,0,0,0,0,0,0,1,1
7596,-1.11816,-2.19434,1.64258,-0.129144,0.66458,-0.175989,0.303252,0.214212,2.77379,0,0,0,0.364999,-0.958656,0.920811,-2.33603,2.77379,0,0,0,0,0,0,0,0,0,0,-0.414268,-0.312862,0,-1.7,2.55799e-38,0,0,0,0.364999,-0.958656,4.38672,-2.64844,-0.0999985,-0.389999,0.920811,-2.33603,1.9603e-19,0,0,0,0,0,0,0,0,0,1,1
7611,-1.23145,-2.40625,-5.81445,-0.252746,0.727299,-0.135736,0.299708,0.22564,2.77511,0,0,0,0.377955,-0.991682,0.928057,-2.37222,2.77379,0,0,0,0,0,0,0,0,0,0,-0.413617,-0.314553,0,-1.7,2.55799e-38,0,0,0,0.377955,-0.991682,4.38672,-2.64844,-0.0999985,-0.389999,0.928057,-2.37222,1.9603e-19,0,0,0,0,0,0,0,0,0,1,1
7625,-1.4043,-2.64941,-6.74414,-0.241377,0.705518,-0.201618,0.295514,0.237587,2.77568,0,0,0,0.391966,-1.02763,0.937641,-2.4109,2.77511,0,0,0,0,0,0,0,0,0,0,-0.412943,-0.316242,0,-1.7,2.55799e-38,0,0,0,0.391966,-1.02763,4.38672,-2.64844,-0.0999985,-0.389999,0.937641,-2.4109,1.9603e-19,0,0,0,0,0,0,0,0,0,1,1
7640,-1.4043,-2.64941,-6.74414,-0.241377,0.705518,-0.201618,0.295514,0.237587,2.77568,0,0,0,0.406127,-1.06416,0.948196,-2.44938,2.77568,0,0,0,0,0,0,0,0,0,0,-0.41208,-0.31847,0,-1.7,2.55799e-38,0,0,0,0.406127,-1.06416,4.38672,-2.64844,-0.0999985,-0.389999,0.948196,-2.44938,1.9603e-19,0,0,0,0,0,0,0,0,0,1,1
7654,-1.50879,-2.67773,1.93945,-0.107786,0.595398,-0.296125,0.292511,0.249334,2.77413,0,0,0,0.419499,-1.09877,0.959519,-2.48523,2.77413,0,0,0,0,0,0,0,0,0,0,-0.410839,-0.32175,0,-1.7,2.55799e-38,0,0,0,0.419499,-1.09877,4.38672,-2.64844,-0.0999985,-0.389999,0.959519,-2.48523,1.9603e-19,0,0,0,0,0,0,0,0,0,1,1
7668,-1.48242,-2.44922,4.5332,0.0333969,0.434592,-0.299695,0.291797,0.257961,2.77143,0,0,0,0.433042,-1.13388,0.972142,-2.52122,2.77143,0,0,0,0,0,0,0,0,0,0,-0.409298,-0.325803,0,-1.7,2.55799e-38,0,0,0,0.433042,-1.13388,4.38672,-2.64844,-0.0999985,-0.389999,0.972142,-2.52122,1.9603e-19,0,0,0,0,0,0,0,0,0,1,1
7683,-1.53418,-2.08398,2.23535,0.161591,0.338468,-0.199221,0.293227,0.264165,2.76946,0,0,0,0.447762,-1.17208,0.986498,-2.56007,2.76946,0,0,0,0,0,0,0,0,0,0,-0.407694,-0.329952,0,-1.7,2.55799e-38,0,0,0,0.447762,-1.17208,4.38672,-2.64844,-0.0999985,-0.389999,0.986498,-2.56007,1.9603e-19,0,0,0,0,0,0,0,0,0,1,1
7698,-1.67969,-1.85742,6.2627,0.362725,0.384219,-0.0116865,0.298216,0.269735,2.77032,0,0,0,0.462698,-1.21085,1.00134,-2.59933,2.77032,0,0,0,0,0,0,0,0,0,0,-0.406482,-0.333058,0,-1.7,2.55799e-38,0,0,0,0.462698,-1.21085,4.38672,-2.64844,-0.0999985,-0.389999,1.00134,-2.59933,1.9603e-19,0,0,0,0,0,0,0,0,0,1,1
7713,-1.99023,-1.93164,4.83691,0.591763,0.54665,0.17644,0.308539,0.277064,2.77521,0,0,0,0.477861,-1.25021,1.01668,-2.63951,2.77521,0,0,0,0,0,0,0,0,0,0,-0.405878,-0.334649,0,-1.7,2.55799e-38,0,0,0,0.477861,-1.25021,4.38672,-2.64844,-0.0999985,-0.389999,1.01668,-2.63951,1.9603e-19,0,0,0,0,0,0,0,0,0,1,1
7727,-2.3877,-2.17188,-1.01172,0.893918,0.665237,0.286784,0.324566,0.285726,2.78319,0,0,0,0.492226,-1.28751,1.03152,-2.67817,2.77521,0,0,0,0,0,0,0,0,0,0,-0.404549,-0.338114,0,-1.7,2.55799e-38,0,0,0,0.492226,-1.28751,4.38672,-2.64844,-0.0999985,-0.389999,1.03152,-2.67817,1.9603e-19,0,0,0,0,0,0,0,0,0,1,1
7742,-2.7627,-2.28613,0.40332,1.08334,0.7882,0.376804,0.343474,0.295213,2.79259,0,0,0,0.507857,-1.32809,1.04829,-2.72212,2.78319,0,0,0,0,0,0,0,0,0,0,-0.404373,-0.338804,0,-1.7,2.55799e-38,0,0,0,0.507857,-1.32809,4.38672,-2.64844,-0.0999985,-0.389999,1.04829,-2.72212,1.9603e-19,0,0,0,0,0,0,0,0,0,1,1
7757,-2.83789,-2.47266,-3.44043,1.15657,0.842576,0.610843,0.365456,0.304491,2.80575,0,0,0,0.523742,-1.36935,1.06561,-2.76774,2.79259,0,0,0,0,0,0,0,0,0,0,-0.404419,-0.339066,0,-1.7,2.55799e-38,0,0,0,0.523742,-1.36935,4.38672,-2.64844,-0.0999985,-0.389999,1.06561,-2.76774,1.9603e-19,0,0,0,0,0,0,0,0,0,1,1
7772,-2.83789,-2.47266,-3.44043,1.15657,0.842576,0.610843,0.365456,0.304491,2.80575,0,0,0,0.5399,-1.41132,1.08394,-2.8163,2.80575,0,0,0,0,0,0,0,0,0,0,-0.40504,-0.338056,0,-1.7,2.55799e-38,0,0,0,0.5399,-1.41132,4.38672,-2.64844,-0.0999985,-0.389999,1.08394,-2.8163,1.9603e-19,0,0,0,0,0,0,0,0,0,1,1
7787,-3.4541,-2.77832,1.22168,1.19721,0.877462,0.899622,0.38967,0.311976,2.82379,0,0,0,0.556344,-1.45406,1.10332,-2.86776,2.82379,0,0,0,0,0,0,0,0,0,0,-0.406412,-0.335324,0,-1.7,2.55799e-38,0,0,0,0.556344,-1.45406,4.38672,-2.64844,-0.0999985,-0.389999,1.10332,-2.86776,1.9603e-19,0,0,0,0,0,0,0,0,0,1,1
7802,-4.91602,-2.80762,-2.31641,1.53239,1.02375,0.995746,0.42148,0.321072,2.84755,0,0,0,0.573087,-1.49759,1.12433,-2.92348,2.84755,0,0,0,0,0,0,0,0,0,0,-0.408597,-0.33065,0,-1.7,2.55799e-38,0,0,0,0.573087,-1.49759,4.38672,-2.64844,-0.0999985,-0.389999,1.12433,-2.92348,1.9603e-19,0,0,0,0,0,0,0,0,0,1,1
7816,-5.23633,-3.5332,0.0244141,2.24841,0.784354,0.885906,0.460836,0.327161,2.86731,0,0,0,0.589011,-1.53901,1.14531,-2.98011,2.86731,0,0,0,0,0,0,0,0,0,0,-0.410182,-0.327598,0,-1.7,2.55799e-38,0,0,0,0.589011,-1.53901,4.38672,-2.64844,-0.0999985,-0.389999,1.14531,-2.98011,1.9603e-19,0,0,0,0,0,0,0,0,0,1,1
7832,-4.95996,-4.44727,-5.57422,2.73118,0.270152,0.573086,0.506403,0.327976,2.87981,0,0,0,0.607587,-1.5874,1.16987,-3.05165,2.87981,0,0,0,0,0,0,0,0,0,0,-0.410475,-0.32839,0,-1.7,2.55799e-38,0,0,0,0.607587,-1.5874,4.38672,-2.64844,-0.0999985,-0.389999,1.16987,-3.05165,1.9603e-19,0,0,0,0,0,0,0,0,0,1,1
7845,-5.17773,-4.49707,-7.37988,2.65405,-0.178332,0.126016,0.549274,0.324828,2.8818,0,0,0,0.622954,-1.62757,1.18946,-3.11391,2.8818,0,0,0,0,0,0,0,0,0,0,-0.409522,-0.332307,0,-1.7,2.55799e-38,0,0,0,0.622954,-1.62757,4.38672,-2.64844,-0.0999985,-0.389999,1.18946,-3.11391,1.9603e-19,0,0,0,0,0,0,0,0,0,1,1
7859,-5.59375,-3.55664,7.00293,2.05808,0.0453783,-0.136671,0.585824,0.324476,2.87926,0,0,0,0.639783,-1.67181,1.2093,-3.18623,2.8818,0,0,0,0,0,0,0,0,0,0,-0.408248,-0.3371,0,-1.7,2.55799e-38,0,0,0,0.639783,-1.67181,4.38672,-2.64844,-0.0999985,-0.389999,1.2093,-3.18623,1.9603e-19,0,0,0,0,0,0,0,0,0,1,1
7874,-5.84473,-2.45117,4.41895,1.41912,1.0586,-0.00762214,0.611647,0.335421,2.88625,0,0,0,0.658115,-1.72041,1.22916,-3.26975,2.87926,0,0,0,0,0,0,0,0,0,0,-0.406547,-0.34293,0,-1.7,2.55799e-38,0,0,0,0.658115,-1.72041,4.38672,-2.64844,-0.0999985,-0.389999,1.22916,-3.26975,1.9603e-19,0,0,0,0,0,0,0,0,0,1,1
7889,-5.84473,-2.45117,4.41895,1.41912,1.0586,-0.00762214,0.611647,0.335421,2.88625,0,0,0,0.675491,-1.76688,1.2486,-3.34996,2.88625,0,0,0,0,0,0,0,0,0,0,-0.406486,-0.344789,0,-1.7,2.55799e-38,0,0,0,0.675491,-1.76688,4.38672,-2.64844,-0.0999985,-0.389999,1.2486,-3.34996,1.9603e-19,0,0,0,0,0,0,0,0,0,1,1
7903,-6.03906,-1.61523,5.05176,0.852286,2.03279,0.379928,0.634766,0.356689,2.90869,0,0,0,0.694438,-1.81799,1.27236,-3.43956,2.90869,0,0,0,0,0,0,0,0,0,0,-0.408836,-0.341402,0,-1.7,2.55799e-38,0,0,0,0.694438,-1.81799,4.38672,-2.64844,-0.0999985,-0.389999,1.27236,-3.43956,1.9603e-19,0,0,0,0,0,0,0,0,0,1,1
7918,-5.96387,-1.74316,4.97266,0.449404,2.18001,0.848314,0.654609,0.376949,2.94117,0,0,0,0.713788,-1.87045,1.30211,-3.53304,2.94117,0,0,0,0,0,0,0,0,0,0,-0.412561,-0.335327,0,-1.7,2.55799e-38,0,0,0,0.713788,-1.87045,4.38672,-2.64844,-0.0999985,-0.389999,1.30211,-3.53304,1.9603e-19,0,0,0,0,0,0,0,0,0,1,1
7933,-5.78906,-2.60254,0.367188,0.116553,1.59185,1.11853,0.670025,0.388231,2.97465,0,0,0,0.73365,-1.92435,1.33862,-3.62918,2.97465,0,0,0,0,0,0,0,0,0,0,-0.416198,-0.330429,0,-1.7,2.55799e-38,0,0,0,0.73365,-1.92435,4.38672,-2.64844,-0.0999985,-0.389999,1.33862,-3.62918,1.9603e-19,0,0,0,0,0,0,0,0,0,1,1
7948,-5.23535,-3.78711,6.47461,0.140101,0.666916,1.16619,0.681986,0.387301,3.00136,0,0,0,0.752722,-1.97596,1.37666,-3.71978,3.00136,0,0,0,0,0,0,0,0,0,0,-0.418887,-0.328672,0,-1.7,2.55799e-38,0,0,0,0.752722,-1.97596,4.38672,-2.64844,-0.0999985,-0.389999,1.37666,-3.71978,1.9603e-19,0,0,0,0,0,0,0,0,0,1,1
7962,-5.00586,-4.68848,-3.50586,0.456859,0.0867315,1.05753,0.694318,0.37845,3.01779,0,0,0,0.773781,-2.0327,1.41901,-3.81695,3.01779,0,0,0,0,0,0,0,0,0,0,-0.420056,-0.332278,0,-1.7,2.55799e-38,0,0,0,0.773781,-2.0327,4.38672,-2.64844,-0.0999985,-0.389999,1.41901,-3.81695,1.9603e-19,0,0,0,0,0,0,0,0,0,1,1
7982,-5.19922,-4.95117,1.71777,0.784117,-0.103385,0.779728,0.709685,0.368851,3.02793,0,0,0,0.801449,-2.10684,1.47271,-3.94123,3.02793,0,0,0,0,0,0,0,0,0,0,-0.420113,-0.341347,0,-1.7,2.55799e-38,0,0,0,0.801449,-2.10684,4.38672,-2.64844,-0.0999985,-0.389999,1.47271,-3.94123,1.9603e-19,0,0,0,0,0,0,0,0,0,1,1
7996,-5.41699,-4.79102,5.19141,0.875779,-0.116281,0.501138,0.725312,0.36202,3.03353,0,0,0,0.823944,-2.16692,1.51444,-4.04062,3.03353,0,0,0,0,0,0,0,0,0,0,-0.419916,-0.349364,0,-1.7,2.55799e-38,0,0,0,0.823944,-2.16692,4.38672,-2.64844,-0.0999985,-0.389999,1.51444,-4.04062,1.9603e-19,0,0,0,0,0,0,0,0,0,1,1
8011,-5.29395,-4.2959,6.2168,0.72558,-0.0690437,0.26089,0.739287,0.357613,3.03653,0,0,0,0.847048,-2.22847,1.55559,-4.14152,3.03653,0,0,0,0,0,0,0,0,0,0,-0.41936,-0.358334,0,-1.7,2.55799e-38,0,0,0,0.847048,-2.22847,4.38672,-2.64844,-0.0999985,-0.389999,1.55559,-4.14152,1.9603e-19,0,0,0,0,0,0,0,0,0,1,1
8025,-4.79297,-3.73145,2.12207,0.595475,0.0371407,0.241038,0.749542,0.355412,3.0394,0,0,0,0.869163,-2.2873,1.59355,-4.23708,3.03653,0,0,0,0,0,0,0,0,0,0,-0.418365,-0.367771,0,-1.7,2.55799e-38,0,0,0,0.869163,-2.2873,4.38672,-2.64844,-0.0999985,-0.389999,1.59355,-4.23708,1.9603e-19,0,0,0,0,0,0,0,0,0,1,1
8041,-4.32227,-3.11133,-2.44043,0.536352,0.107045,0.315203,0.759236,0.353376,3.04392,0,0,0,0.893458,-2.35186,1.63407,-4.34069,3.0394,0,0,0,0,0,0,0,0,0,0,-0.417884,-0.376649,0,-1.7,2.55799e-38,0,0,0,0.893458,-2.35186,4.38672,-2.64844,-0.0999985,-0.389999,1.63407,-4.34069,1.9603e-19,0,0,0,0,0,0,0,0,0,1,1
8054,-4.32227,-3.11133,-2.44043,0.536352,0.107045,0.315203,0.759236,0.353376,3.04392,0,0,0,0.916669,-2.41349,1.67183,-4.43764,3.04392,0,0,0,0,0,0,0,0,0,0,-0.417874,-0.384152,0,-1.7,2.55799e-38,0,0,0,0.916669,-2.41349,4.38672,-2.64844,-0.0999985,-0.389999,1.67183,-4.43764,1.9603e-19,0,0,0,0,0,0,0,0,0,1,1
8069,-4.11035,-2.72559,-2.80859,0.494251,0.11829,0.552667,0.769119,0.349428,3.05099,0,0,0,0.942127,-2.48103,1.71237,-4.54227,3.05099,0,0,0,0,0,0,0,0,0,0,-0.418429,-0.391284,0,-1.7,2.55799e-38,0,0,0,0.942127,-2.48103,4.38672,-2.64844,-0.0999985,-0.389999,1.71237,-4.54227,1.9603e-19,0,0,0,0,0,0,0,0,0,1,1
8084,-4.35547,-2.55078,-4.53418,0.409187,0.131197,0.855563,0.779868,0.34152,3.06239,0,0,0,0.968194,-2.55016,1.75296,-4.64762,3.06239,0,0,0,0,0,0,0,0,0,0,-0.420072,-0.396614,0,-1.7,2.55799e-38,0,0,0,0.968194,-2.55016,4.38672,-2.64844,-0.0999985,-0.389999,1.75296,-4.64762,1.9603e-19,0,0,0,0,0,0,0,0,0,1,1
8098,-4.82031,-2.57129,7.31543,0.273859,0.28048,1.07666,0.78943,0.332427,3.07767,0,0,0,0.993071,-2.6161,1.79095,-4.7463,3.07767,0,0,0,0,0,0,0,0,0,0,-0.42281,-0.399651,0,-1.7,2.55799e-38,0,0,0,0.993071,-2.6161,4.38672,-2.64844,-0.0999985,-0.389999,1.79095,-4.7463,1.9603e-19,0,0,0,0,0,0,0,0,0,1,1
8113,-5.33105,-2.7041,2.48047,0.155918,0.513552,1.18644,0.798275,0.324337,3.09657,0,0,0,1.02033,-2.68831,1.83208,-4.85197,3.09657,0,0,0,0,0,0,0,0,0,0,-0.426527,-0.401893,0,-1.7,2.55799e-38,0,0,0,1.02033,-2.68831,4.38672,-2.64844,-0.0999985,-0.389999,1.83208,-4.85197,1.9603e-19,0,0,0,0,0,0,0,0,0,1,1
8128,-5.81543,-2.63281,-3.65723,0.0237731,0.805208,1.16671,0.80596,0.319163,3.11861,0,0,0,1.04821,-2.76208,1.87416,-4.95736,3.11861,0,0,0,0,0,0,0,0,0,0,-0.431195,-0.402953,0,-1.7,2.55799e-38,0,0,0,1.04821,-2.76208,4.38672,-2.64844,-0.0999985,-0.389999,1.87416,-4.95736,1.9603e-19,0,0,0,0,0,0,0,0,0,1,1
8142,-5.83301,-2.5,-7.21582,0.0519493,1.09629,1.26216,0.814775,0.316444,-3.13841,0,0,0,1.07481,-2.83236,1.91503,-5.05529,3.11861,0,0,0,0,0,0,0,0,0,0,-0.43096,-0.413167,0,-1.7,2.55799e-38,0,0,0,1.07481,-2.83236,4.38672,-2.64844,-0.0999985,-0.389999,1.91503,-5.05529,1.9603e-19,0,0,0,0,0,0,0,0,0,1,1
8157,-5.83105,-2.53027,5.59766,0.190832,1.32408,1.59707,0.828766,0.312419,-3.10307,0,0,0,1.10399,-2.9092,1.96193,-5.15983,-3.13841,0,0,0,0,0,0,0,0,0,0,-0.437096,-0.413534,0,-1.7,2.55799e-38,0,0,0,1.10399,-2.9092,4.38672,-2.64844,-0.0999985,-0.389999,1.96193,-5.15983,1.9603e-19,0,0,0,0,0,0,0,0,0,1,1
8172,-6.37207,-2.77734,6.24316,0.196056,1.49122,1.81354,0.843664,0.30694,-3.0658,0,0,0,1.1339,-2.98758,2.01321,-5.26438,-3.10307,0,0,0,0,0,0,0,0,0,0,-0.445763,-0.410754,0,-1.7,2.55799e-38,0,0,0,1.1339,-2.98758,4.38672,-2.64844,-0.0999985,-0.389999,2.01321,-5.26438,1.9603e-19,0,0,0,0,0,0,0,0,0,1,1
8187,-6.37207,-2.77734,6.24316,0.196056,1.49122,1.81354,0.843664,0.30694,-3.0658,0,0,0,1.16459,-3.06752,2.06706,-5.36862,-3.0658,0,0,0,0,0,0,0,0,0,0,-0.455278,-0.407407,0,-1.7,2.55799e-38,0,0,0,1.16459,-3.06752,4.38672,-2.64844,-0.0999985,-0.389999,2.06706,-5.36862,1.9603e-19,0,0,0,0,0,0,0,0,0,1,1
8201,-6.99414,-3.14453,1.57129,0.138661,1.68499,1.81623,0.85827,0.302519,-3.02595,0,0,0,1.194,-3.14354,2.12104,-5.46563,-3.02595,0,0,0,0,0,0,0,0,0,0,-0.465755,-0.402489,0,-1.7,2.55799e-38,0,0,0,1.194,-3.14354,4.38672,-2.64844,-0.0999985,-0.389999,2.12104,-5.46563,1.9603e-19,0,0,0,0,0,0,0,0,0,1,1
8216,-7.37598,-3.48047,-6.09375,0.183697,1.80737,1.69407,0.873362,0.300251,-2.98538,0,0,0,1.2264,-3.2265,2.18462,-5.56911,-2.98538,0,0,0,0,0,0,0,0,0,0,-0.477094,-0.39911,0,-1.7,2.55799e-38,0,0,0,1.2264,-3.2265,4.38672,-2.64844,-0.0999985,-0.389999,2.18462,-5.56911,1.9603e-19,0,0,0,0,0,0,0,0,0,1,1
8231,3.38965,-3.29297,-6.35742,0.326135,1.73126,1.43618,0.891215,0.29978,-2.94402,0,0,0,1.25981,-3.31101,2.25397,-5.67214,-2.94402,0,0,0,0,0,0,0,0,0,0,-0.48938,-0.396188,0,-1.7,2.55799e-38,0,0,0,1.25981,-3.31101,4.38672,-2.64844,-0.0999985,-0.389999,2.25397,-5.67214,1.9603e-19,0,0,0,0,0,0,0,0,0,1,1
8244,-1.14453,-2.66211,3.92285,0.401558,1.49954,1.18106,0.907549,0.299802,-2.91181,0,0,0,1.28962,-3.38546,2.31901,-5.76126,-2.91181,0,0,0,0,0,0,0,0,0,0,-0.499969,-0.396151,0,-1.7,2.55799e-38,0,0,0,1.28962,-3.38546,4.38672,-2.64844,-0.0999985,-0.389999,2.31901,-5.76126,1.9603e-19,0,0,0,0,0,0,0,0,0,1,1
8258,7.37402,-1.74121,-6.50098,0.361104,1.28358,1.0748,0.922427,0.298887,-2.88321,0,0,0,1.32274,-3.46697,2.39325,-5.85716,-2.88321,0,0,0,0,0,0,0,0,0,0,-0.510849,-0.399702,0,-1.7,2.55799e-38,0,0,0,1.32274,-3.46697,4.38672,-2.64844,-0.0999985,-0.389999,2.39325,-5.85716,1.9603e-19,0,0,0,0,0,0,0,0,0,1,1
8273,-2.51074,-0.853516,-2.01758,0.282303,1.20857,1.28095,0.935602,0.29488,-2.85552,0,0,0,1.35943,-3.55579,2.47686,-5.95972,-2.88321,0,0,0,0,0,0,0,0,0,0,-0.516189,-0.41991,0,-1.7,2.55799e-38,0,0,0,1.35943,-3.55579,4.38672,-2.64844,-0.0999985,-0.389999,2.47686,-5.95972,1.9603e-19,0,0,0,0,0,0,0,0,0,1,1
8288,-2.51074,-0.853516,-2.01758,0.282303,1.20857,1.28095,0.935602,0.29488,-2.85552,0,0,0,1.39738,-3.64615,2.56262,-6.06172,-2.85552,0,0,0,0,0,0,0,0,0,0,-0.528836,-0.426096,0,-1.7,2.55799e-38,0,0,0,1.39738,-3.64615,4.38672,-2.64844,-0.0999985,-0.389999,2.56262,-6.06172,1.9603e-19,0,0,0,0,0,0,0,0,0,1,1
8302,-0.556641,-0.694336,-1.03613,0.2533,1.24451,1.8574,0.949832,0.283757,-2.82195,0,0,0,1.43398,-3.73185,2.64546,-6.15635,-2.82195,0,0,0,0,0,0,0,0,0,0,-0.543494,-0.427865,0,-1.7,2.55799e-38,0,0,0,1.43398,-3.73185,4.38672,-2.64844,-0.0999985,-0.389999,2.64546,-6.15635,1.9603e-19,0,0,0,0,0,0,0,0,0,1,1
8317,-0.831055,-1.04102,-1.29883,0.346713,1.40126,2.31585,0.967282,0.265821,-2.78014,0,0,0,1.47455,-3.82517,2.73776,-6.25709,-2.78014,0,0,0,0,0,0,0,0,0,0,-0.56177,-0.42651,0,-1.7,2.55799e-38,0,0,0,1.47455,-3.82517,4.38672,-2.64844,-0.0999985,-0.389999,2.73776,-6.25709,1.9603e-19,0,0,0,0,0,0,0,0,0,1,1
8332,6.15039,-1.51855,-3.43848,0.299663,1.49469,2.28417,0.984036,0.248231,-2.73816,0,0,0,1.51651,-3.91997,2.83417,-6.35706,-2.73816,0,0,0,0,0,0,0,0,0,0,-0.572597,-0.404453,0,-1.7,2.55799e-38,0,0,0,1.51651,-3.91997,4.38672,-2.64844,-0.0999985,-0.389999,2.83417,-6.35706,1.9603e-19,0,0,0,0,0,0,0,0,0,1,1
8346,4.77051,-2.12695,-3.33301,0.260416,1.50419,2.00006,0.998065,0.234112,-2.69962,0,0,0,1.55701,-4.00979,2.92767,-6.44943,-2.69962,0,0,0,0,0,0,0,0,0,0,-0.581034,-0.382219,0,-1.7,2.55799e-38,0,0,0,1.55701,-4.00979,4.38672,-2.64844,-0.0999985,-0.389999,2.92767,-6.44943,1.9603e-19,0,0,0,0,0,0,0,0,0,1,1
8361,-1.07422,-2.35059,-1.49023,0.329284,1.37953,1.52006,1.01154,0.224317,-2.6653,0,0,0,1.60192,-4.10748,3.03113,-6.54725,-2.6653,0,0,0,0,0,0,0,0,0,0,-0.587821,-0.362162,0,-1.7,2.55799e-38,0,0,0,1.60192,-4.10748,4.38672,-2.64844,-0.0999985,-0.389999,3.03113,-6.54725,1.9603e-19,0,0,0,0,0,0,0,0,0,1,1
8376,0.858398,-2.26758,1.53125,0.483626,1.00837,1.13599,1.02564,0.217388,-2.63797,0,0,0,1.64839,-4.2066,3.1381,-6.64398,-2.63797,0,0,0,0,0,0,0,0,0,0,-0.592731,-0.346027,0,-1.7,2.55799e-38,0,0,0,1.64839,-4.2066,4.38672,-2.64844,-0.0999985,-0.389999,3.1381,-6.64398,1.9603e-19,0,0,0,0,0,0,0,0,0,1,1
8390,2.25293,-2.35352,4.36133,0.751613,0.532458,1.29044,1.04095,0.205847,-2.61942,0,0,0,1.69323,-4.30041,3.24112,-6.73378,-2.63797,0,0,0,0,0,0,0,0,0,0,-0.592731,-0.346027,0,-1.7,2.55799e-38,0,0,0,1.69323,-4.30041,4.38672,-2.64844,-0.0999985,-0.389999,3.24112,-6.73378,1.9603e-19,0,0,0,0,0,0,0,0,0,1,1
8405,1.63281,-2.35449,3.64355,0.839953,0.351159,1.30417,1.05791,0.190342,-2.60356,0,0,0,1.74294,-4.40236,3.35366,-6.8313,-2.61942,0,0,0,0,0,0,0,0,0,0,-0.595813,-0.335,0,-1.7,2.55799e-38,0,0,0,1.74294,-4.40236,4.38672,-2.64844,-0.0999985,-0.389999,3.35366,-6.8313,1.9603e-19,0,0,0,0,0,0,0,0,0,1,1
8419,1.63281,-2.35449,3.64355,0.839953,0.351159,1.30417,1.05791,0.190342,-2.60356,0,0,0,1.79082,-4.49881,3.45912,-6.92336,-2.60356,0,0,0,0,0,0,0,0,0,0,-0.598284,-0.325532,0,-1.7,2.55799e-38,0,0,0,1.79082,-4.49881,4.38672,-2.64844,-0.0999985,-0.389999,3.45912,-6.92336,1.9603e-19,0,0,0,0,0,0,0,0,0,1,1
8435,-1.00586,-2.15039,0.74707,0.706928,0.516682,1.11417,1.07271,0.178245,-2.58829,0,0,0,1.8474,-4.61067,3.58097,-7.03043,-2.58829,0,0,0,0,0,0,0,0,0,0,-0.600521,-0.316382,0,-1.7,2.55799e-38,0,0,0,1.8474,-4.61067,4.38672,-2.64844,-0.0999985,-0.389999,3.58097,-7.03043,1.9603e-19,0,0,0,0,0,0,0,0,0,1,1
8448,4.87207,-2.07422,-3.34473,0.428346,0.688727,1.09689,1.08414,0.168037,-2.5699,0,0,0,1.89477,-4.70277,3.68161,-7.11847,-2.5699,0,0,0,0,0,0,0,0,0,0,-0.60303,-0.305311,0,-1.7,2.55799e-38,0,0,0,1.89477,-4.70277,4.38672,-2.64844,-0.0999985,-0.389999,3.68161,-7.11847,1.9603e-19,0,0,0,0,0,0,0,0,0,1,1
8462,-2.9248,-2.26465,-3.24219,0.174433,0.766463,1.27637,1.09144,0.156027,-2.54973,0,0,0,1.94728,-4.80327,3.79155,-7.21333,-2.54973,0,0,0,0,0,0,0,0,0,0,-0.605546,-0.293127,0,-1.7,2.55799e-38,0,0,0,1.94728,-4.80327,4.38672,-2.64844,-0.0999985,-0.389999,3.79155,-7.21333,1.9603e-19,0,0,0,0,0,0,0,0,0,1,1
8477,-1.75684,-2.43066,-2.82715,-0.228236,0.896231,1.25235,1.09274,0.144987,-2.52835,0,0,0,2.0053,-4.91245,3.91005,-7.31397,-2.52835,0,0,0,0,0,0,0,0,0,0,-0.607945,-0.28015,0,-1.7,2.55799e-38,0,0,0,2.0053,-4.91245,4.38672,-2.64844,-0.0999985,-0.389999,3.91005,-7.31397,1.9603e-19,0,0,0,0,0,0,0,0,0,1,1
8491,0.282227,-2.62988,-2.58203,-0.493297,0.961143,1.00519,1.08878,0.13711,-2.50658,0,0,0,2.06102,-5.01566,4.02086,-7.40582,-2.50658,0,0,0,0,0,0,0,0,0,0,-0.610102,-0.266893,0,-1.7,2.55799e-38,0,0,0,2.06102,-5.01566,4.38672,-2.64844,-0.0999985,-0.389999,4.02086,-7.40582,1.9603e-19,0,0,0,0,0,0,0,0,0,1,1
8506,1.08887,-2.82324,-2.4043,-0.285339,1.0201,0.837048,1.08598,0.133142,-2.48655,0,0,0,2.12248,-5.12767,4.13954,-7.50093,-2.50658,0,0,0,0,0,0,0,0,0,0,-0.610102,-0.266893,0,-1.7,2.55799e-38,0,0,0,2.12248,-5.12767,4.38672,-2.64844,-0.0999985,-0.389999,4.13954,-7.50093,1.9603e-19,0,0,0,0,0,0,0,0,0,1,1
8521,2.53027,-2.71777,-2.32129,0.231966,1.13303,1.01189,1.09191,0.127977,-2.46186,0,0,0,2.1857,-5.24105,4.25894,-7.59233,-2.48655,0,0,0,0,0,0,0,0,0,0,-0.611831,-0.254658,0,-1.7,2.55799e-38,0,0,0,2.1857,-5.24105,4.38672,-2.64844,-0.0999985,-0.389999,4.25894,-7.59233,1.9603e-19,0,0,0,0,0,0,0,0,0,1,1
8536,2.53027,-2.71777,-2.32129,0.231966,1.13303,1.01189,1.09191,0.127977,-2.46186,0,0,0,2.24632,-5.34809,4.37165,-7.67616,-2.46186,0,0,0,0,0,0,0,0,0,0,-0.613625,-0.239524,0,-1.7,2.55799e-38,0,0,0,2.24632,-5.34809,4.38672,-2.64844,-0.0999985,-0.389999,4.37165,-7.67616,1.9603e-19,0,0,0,0,0,0,0,0,0,1,1
8550,2.05566,-2.69824,-2.40039,0.437168,0.998858,1.37118,1.10194,0.117852,-2.4381,0,0,0,2.31307,-5.46408,4.49466,-7.76462,-2.4381,0,0,0,0,0,0,0,0,0,0,-0.614998,-0.22493,0,-1.7,2.55799e-38,0,0,0,2.31307,-5.46408,4.38672,-2.64844,-0.0999985,-0.389999,4.49466,-7.76462,1.9603e-19,0,0,0,0,0,0,0,0,0,1,1
8565,-2.10645,-2.8877,-2.86133,0.17814,0.602631,1.71702,1.10912,0.0996109,-2.41605,0,0,0,2.38166,-5.58138,4.61949,-7.85271,-2.41605,0,0,0,0,0,0,0,0,0,0,-0.615961,-0.21136,0,-1.7,2.55799e-38,0,0,0,2.38166,-5.58138,4.38672,-2.64844,-0.0999985,-0.389999,4.61949,-7.85271,1.9603e-19,0,0,0,0,0,0,0,0,0,1,1
8580,4.99902,-3.06445,-3.45898,-0.557266,0.400265,1.83777,1.10498,0.0764882,-2.39706,0,0,0,2.45213,-5.7,4.74312,-7.94044,-2.39706,0,0,0,0,0,0,0,0,0,0,-0.616551,-0.199656,0,-1.7,2.55799e-38,0,0,0,2.45213,-5.7,4.38672,-2.64844,-0.0999985,-0.389999,4.74312,-7.94044,1.9603e-19,0,0,0,0,0,0,0,0,0,1,1
8594,-4.53613,-2.83203,-3.97168,-1.2555,0.717415,1.48194,1.08739,0.0575278,-2.37523,0,0,0,2.51953,-5.81188,4.85546,-8.02047,-2.37523,0,0,0,0,0,0,0,0,0,0,-0.616955,-0.186192,0,-1.7,2.55799e-38,0,0,0,2.51953,-5.81188,4.38672,-2.64844,-0.0999985,-0.389999,4.85546,-8.02047,1.9603e-19,0,0,0,0,0,0,0,0,0,1,1
8609,6.39648,-2.29297,-4.45117,-1.34482,1.14055,0.977591,1.06686,0.0508572,-2.35216,0,0,0,2.59349,-5.93298,4.9718,-8.10186,-2.35216,0,0,0,0,0,0,0,0,0,0,-0.617062,-0.171953,0,-1.7,2.55799e-38,0,0,0,2.59349,-5.93298,4.38672,-2.64844,-0.0999985,-0.389999,4.9718,-8.10186,1.9603e-19,0,0,0,0,0,0,0,0,0,1,1
8624,3.37109,-1.66211,-5.19141,-0.930328,1.40892,0.957384,1.05251,0.0492811,-2.32674,0,0,0,2.66917,-6.05524,5.08526,-8.17624,-2.32674,0,0,0,0,0,0,0,0,0,0,-0.616799,-0.15627,0,-1.7,2.55799e-38,0,0,0,2.66917,-6.05524,4.38672,-2.64844,-0.0999985,-0.389999,5.08526,-8.17624,1.9603e-19,0,0,0,0,0,0,0,0,0,1,1
8638,-2.00879,-1.03223,-5.92871,-0.645309,1.56449,1.41573,1.04374,0.0436623,-2.29589,0,0,0,2.74127,-6.17026,5.1904,-8.24016,-2.32674,0,0,0,0,0,0,0,0,0,0,-0.616799,-0.15627,0,-1.7,2.55799e-38,0,0,0,2.74127,-6.17026,4.38672,-2.64844,-0.0999985,-0.389999,5.1904,-8.24016,1.9603e-19,0,0,0,0,0,0,0,0,0,1,1
8652,-2.00879,-1.03223,-5.92871,-0.645309,1.56449,1.41573,1.04374,0.0436623,-2.29589,0,0,0,2.81484,-6.28615,5.29548,-8.30053,-2.29589,0,0,0,0,0,0,0,0,0,0,-0.615945,-0.137254,0,-1.7,2.55799e-38,0,0,0,2.81484,-6.28615,4.38672,-2.64844,-0.0999985,-0.389999,5.29548,-8.30053,1.9603e-19,0,0,0,0,0,0,0,0,0,1,1
8666,1.33496,-0.87793,-6.4502,-0.370405,1.78082,1.83394,1.03839,0.0335197,-2.25784,0,0,0,2.88991,-6.40287,5.40096,-8.3568,-2.25784,0,0,0,0,0,0,0,0,0,0,-0.614084,-0.113848,0,-1.7,2.55799e-38,0,0,0,2.88991,-6.40287,4.38672,-2.64844,-0.0999985,-0.389999,5.40096,-8.3568,1.9603e-19,0,0,0,0,0,0,0,0,0,1,1
8682,2.60938,-1.24121,-6.88184,0.313172,2.15295,2.2111,1.04272,0.0200684,-2.20917,0,0,0,2.97757,-6.53719,5.52392,-8.41562,-2.20917,0,0,0,0,0,0,0,0,0,0,-0.610409,-0.0840461,0,-1.7,2.55799e-38,0,0,0,2.97757,-6.53719,4.38672,-2.64844,-0.0999985,-0.389999,5.52392,-8.41562,1.9603e-19,0,0,0,0,0,0,0,0,0,1,1
8696,-5.58496,-1.93848,-7.29199,0.955281,2.50307,2.43873,1.05714,0.00699386,-2.15763,0,0,0,3.05589,-6.65543,5.63602,-8.46303,-2.15763,0,0,0,0,0,0,0,0,0,0,-0.604941,-0.0527179,0,-1.7,2.55799e-38,0,0,0,3.05589,-6.65543,4.38672,-2.64844,-0.0999985,-0.389999,5.63602,-8.46303,1.9603e-19,0,0,0,0,0,0,0,0,0,1,1
8711,0.121094,-2.5752,-6.72949,0.962771,2.47589,2.34466,1.07391,-0.00656837,-2.10364,0,0,0,3.14159,-6.78283,5.7616,-8.51048,-2.10364,0,0,0,0,0,0,0,0,0,0,-0.597492,-0.0202559,0,-1.7,2.55799e-38,0,0,0,3.14159,-6.78283,4.38672,-2.64844,-0.0999985,-0.389999,5.7616,-8.51048,1.9603e-19,0,0,0,0,0,0,0,0,0,1,1
8726,-2.00879,-3.33105,3.99316,0.576943,1.98899,2.13956,1.08379,-0.0200573,-2.05902,0,0,0,3.22925,-6.9109,5.8937,-8.55386,-2.05902,0,0,0,0,0,0,0,0,0,0,-0.59002,0.00624339,0,-1.7,2.55799e-38,0,0,0,3.22925,-6.9109,4.38672,-2.64844,-0.0999985,-0.389999,5.8937,-8.55386,1.9603e-19,0,0,0,0,0,0,0,0,0,1,1
8740,2.41113,-3.84082,-0.295898,0.58464,1.62597,1.94063,1.09205,-0.0362935,-2.01817,0,0,0,3.31288,-7.03099,6.02056,-8.59126,-2.01817,0,0,0,0,0,0,0,0,0,0,-0.582149,0.0301869,0,-1.7,2.55799e-38,0,0,0,3.31288,-7.03099,4.38672,-2.64844,-0.0999985,-0.389999,6.02056,-8.59126,1.9603e-19,0,0,0,0,0,0,0,0,0,1,1
8755,-1.2168,-3.89453,-5.73633,0.938405,1.74515,1.65114,1.10424,-0.0471305,-1.98174,0,0,0,3.40454,-7.16022,6.15947,-8.62872,-2.01817,0,0,0,0,0,0,0,0,0,0,-0.582149,0.0301869,0,-1.7,2.55799e-38,0,0,0,3.40454,-7.16022,4.38672,-2.64844,-0.0999985,-0.389999,6.15947,-8.62872,1.9603e-19,0,0,0,0,0,0,0,0,0,1,1
8770,1.05664,-4.23438,1.71777,1.35213,2.21234,1.59687,1.12191,-0.0541565,-1.94153,0,0,0,3.49828,-7.28998,6.30317,-8.66321,-1.98174,0,0,0,0,0,0,0,0,0,0,-0.574309,0.0512548,0,-1.7,2.55799e-38,0,0,0,3.49828,-7.28998,4.38672,-2.64844,-0.0999985,-0.389999,6.30317,-8.66321,1.9603e-19,0,0,0,0,0,0,0,0,0,1,1
8784,1.05664,-4.23438,1.71777,1.35213,2.21234,1.59687,1.12191,-0.0541565,-1.94153,0,0,0,3.58773,-7.41154,6.44072,-8.69317,-1.94153,0,0,0,0,0,0,0,0,0,0,-0.564771,0.074161,0,-1.7,2.55799e-38,0,0,0,3.58773,-7.41154,4.38672,-2.64844,-0.0999985,-0.389999,6.44072,-8.69317,1.9603e-19,0,0,0,0,0,0,0,0,0,1,1
8799,-3.67871,-4.47363,3.16504,1.87662,2.80151,1.32965,1.14678,-0.0553931,-1.89447,0,0,0,3.68581,-7.54222,6.59516,-8.72101,-1.89447,0,0,0,0,0,0,0,0,0,0,-0.552452,0.100452,0,-1.7,2.55799e-38,0,0,0,3.68581,-7.54222,4.38672,-2.64844,-0.0999985,-0.389999,6.59516,-8.72101,1.9603e-19,0,0,0,0,0,0,0,0,0,1,1
8813,2.81152,-4.62109,1.52637,2.27833,3.12112,0.797384,1.18081,-0.0480983,-1.84135,0,0,0,3.77949,-7.6645,6.75095,-8.73977,-1.84135,0,0,0,0,0,0,0,0,0,0,-0.537076,0.129399,0,-1.7,2.55799e-38,0,0,0,3.77949,-7.6645,4.38672,-2.64844,-0.0999985,-0.389999,6.75095,-8.73977,1.9603e-19,0,0,0,0,0,0,0,0,0,1,1
8829,2.48633,-4.37598,-3.88574,2.43225,2.82082,0.221419,1.21772,-0.0348807,-1.79602,0,0,0,3.88945,-7.80447,6.94516,-8.75084,-1.79602,0,0,0,0,0,0,0,0,0,0,-0.522754,0.153426,0,-1.7,2.55799e-38,0,0,0,3.88945,-7.80447,4.38672,-2.64844,-0.0999985,-0.389999,6.94516,-8.75084,1.9603e-19,0,0,0,0,0,0,0,0,0,1,1
8842,2.52344,-4.00977,7.16797,2.33856,2.39422,-0.052758,1.25314,-0.0212516,-1.75996,0,0,0,3.98108,-7.91826,7.11447,-8.75248,-1.75996,0,0,0,0,0,0,0,0,0,0,-0.510596,0.172057,0,-1.7,2.55799e-38,0,0,0,3.98108,-7.91826,4.38672,-2.64844,-0.0999985,-0.389999,7.11447,-8.75248,1.9603e-19,0,0,0,0,0,0,0,0,0,1,1
8856,-3.24707,-3.37305,-1.16309,2.02604,2.18995,-0.297519,1.28474,-0.00690249,-1.72828,0,0,0,4.08239,-8.04076,7.30838,-8.74696,-1.72828,0,0,0,0,0,0,0,0,0,0,-0.499363,0.188058,0,-1.7,2.55799e-38,0,0,0,4.08239,-8.04076,4.38672,-2.64844,-0.0999985,-0.389999,7.30838,-8.74696,1.9603e-19,0,0,0,0,0,0,0,0,0,1,1
8871,-3.25391,-2.79004,1.1543,1.89859,2.25316,-0.474926,1.31455,0.0102444,-1.69605,0,0,0,4.19414,-8.17182,7.52805,-8.73274,-1.72828,0,0,0,0,0,0,0,0,0,0,-0.499363,0.188058,0,-1.7,2.55799e-38,0,0,0,4.19414,-8.17182,4.38672,-2.64844,-0.0999985,-0.389999,7.52805,-8.73274,1.9603e-19,0,0,0,0,0,0,0,0,0,1,1
8886,2.81055,-2.48828,2.09668,1.99353,2.48538,-0.475314,1.34839,0.028381,-1.65783,0,0,0,4.30926,-8.30257,7.76168,-8.70669,-1.69605,0,0,0,0,0,0,0,0,0,0,-0.487423,0.20396,0,-1.7,2.55799e-38,0,0,0,4.30926,-8.30257,4.38672,-2.64844,-0.0999985,-0.389999,7.76168,-8.70669,1.9603e-19,0,0,0,0,0,0,0,0,0,1,1
8900,2.81055,-2.48828,2.09668,1.99353,2.48538,-0.475314,1.34839,0.028381,-1.65783,0,0,0,4.41989,-8.42421,7.98814,-8.67443,-1.65783,0,0,0,0,0,0,0,0,0,0,-0.472609,0.222307,0,-1.7,2.55799e-38,0,0,0,4.41989,-8.42421,4.38672,-2.64844,-0.0999985,-0.389999,7.98814,-8.67443,1.9603e-19,0,0,0,0,0,0,0,0,0,1,1
8915,-2.73242,-2.16992,0.375977,1.91674,2.74702,-0.513865,1.37957,0.0449492,-1.61853,0,0,0,4.54209,-8.55391,8.24421,-8.62681,-1.61853,0,0,0,0,0,0,0,0,0,0,-0.456655,0.24057,0,-1.7,2.55799e-38,0,0,0,4.54209,-8.55391,4.38672,-2.64844,-0.0999985,-0.389999,8.24421,-8.62681,1.9603e-19,0,0,0,0,0,0,0,0,0,0.915829,1
8930,3.16504,-1.73828,-6.76855,1.57955,2.97899,-0.502038,1.40807,0.0614948,-1.57362,0,0,0,4.66828,-8.68273,8.51712,-8.55969,-1.57362,0,0,0,0,0,0,0,0,0,0,-0.437561,0.260655,0,-1.7,2.55799e-38,0,0,0,4.66828,-8.68273,4.38672,-2.64844,-0.0999985,-0.389999,8.51712,-8.55969,1.9603e-19,0,0,0,0,0,0,0,0,0,0.663441,1
8945,-0.582031,-1.30664,6.51172,1.16336,2.99824,-0.39935,1.43016,0.075284,-1.52836,0,0,0,4.78986,-8.80189,8.78376,-8.47852,-1.52836,0,0,0,0,0,0,0,0,0,0,-0.41743,0.280004,0,-1.7,2.55799e-38,0,0,0,4.78986,-8.80189,4.38672,-2.64844,-0.0999985,-0.389999,8.78376,-8.47852,1.9603e-19,0,0,0,0,0,0,0,0,0,0.420283,1
8959,2.3252,-1.13281,-3.94336,0.783396,2.66557,-0.072478,1.44763,0.0843623,-1.48199,0,0,0,4.92444,-8.92809,9.07755,-8.37407,-1.48199,0,0,0,0,0,0,0,0,0,0,-0.395916,0.298865,0,-1.7,2.55799e-38,0,0,0,4.92444,-8.92809,4.38672,-2.64844,-0.0999985,-0.389999,9.07755,-8.37407,1.9603e-19,0,0,0,0,0,0,0,0,0,0.151117,1
8974,4.125,-1.38184,-5.80273,0.782067,2.33518,0.320953,1.46221,0.0847455,-1.44488,0,0,0,5.0635,-9.05254,9.37736,-8.25251,-1.44488,0,0,0,0,0,0,0,0,0,0,-0.378081,0.313229,0,-1.7,2.55799e-38,0,0,0,5.0635,-9.05254,4.38672,-2.64844,-0.0999985,-0.389999,9.37736,-8.25251,1.9603e-19,0,0,0,0,0,0,0,0,0,-0.126998,1
8988,-3.61816,-1.65039,-4.65918,0.98193,2.30027,0.421158,1.47936,0.0819024,-1.40886,0,0,0,5.1973,-9.16697,9.66166,-8.12717,-1.44488,0,0,0,0,0,0,0,0,0,0,-0.378081,0.313229,0,-1.7,2.55799e-38,0,0,0,5.1973,-9.16697,4.38672,-2.64844,-0.0999985,-0.389999,9.66166,-8.12717,1.9603e-19,0,0,0,0,0,0,0,0,0,-0.394606,1
9003,-1.14844,-2.03906,-4.16211,1.22363,2.41618,0.278712,1.50121,0.0799952,-1.37023,0,0,0,5.34525,-9.28743,9.97426,-7.97846,-1.40886,0,0,0,0,0,0,0,0,0,0,-0.360274,0.326529,0,-1.7,2.55799e-38,0,0,0,5.34525,-9.28743,4.38672,-2.64844,-0.0999985,-0.389999,9.97426,-7.97846,1.9603e-19,0,0,0,0,0,0,0,0,0,-0.690506,1
9018,-7.11914,-1.97266,-3.86328,1.18597,2.46421,-0.104441,1.5246,0.082763,-1.3295,0,0,0,5.49791,-9.40563,10.2921,-7.82073,-1.37023,0,0,0,0,0,0,0,0,0,0,-0.340656,0.340069,0,-1.7,2.55799e-38,0,0,0,5.49791,-9.40563,4.38672,-2.64844,-0.0999985,-0.389999,10.2921,-7.82073,1.9603e-19,0,0,0,0,0,0,0,0,0,-0.995816,1
9032,-7.11914,-1.97266,-3.86328,1.18597,2.46421,-0.104441,1.5246,0.082763,-1.3295,0,0,0,5.6447,-9.51369,10.6007,-7.65369,-1.3295,0,0,0,0,0,0,0,0,0,0,-0.319425,0.353513,0,-1.7,2.55799e-38,0,0,0,5.6447,-9.51369,4.38672,-2.64844,-0.0999985,-0.389999,10.6007,-7.65369,1.9603e-19,0,0,0,0,0,0,0,0,0,-1,1
9046,6.76855,-1.58887,-3.53027,0.853584,2.21156,-0.499369,1.54291,0.0915239,-1.29175,0,0,0,5.79584,-9.61928,10.9178,-7.46803,-1.29175,0,0,0,0,0,0,0,0,0,0,-0.299271,0.365193,0,-1.7,2.55799e-38,0,0,0,5.79584,-9.61928,4.38672,-2.64844,-0.0999985,-0.389999,10.9178,-7.46803,1.9603e-19,0,0,0,0,0,0,0,0,0,-1,1
9060,5.30762,-1.33105,-3.17969,0.705232,1.73074,-0.594936,1.55635,0.101548,-1.26352,0,0,0,5.95154,-9.72204,11.2415,-7.26124,-1.26352,0,0,0,0,0,0,0,0,0,0,-0.283919,0.373425,0,-1.7,2.55799e-38,0,0,0,5.95154,-9.72204,4.38672,-2.64844,-0.0999985,-0.389999,11.2415,-7.26124,1.9603e-19,0,0,0,0,0,0,0,0,0,-1,1
9075,-5.49414,-1.09863,-3.14648,0.829004,1.36835,-0.501738,1.57057,0.110056,-1.24146,0,0,0,6.12355,-9.82869,11.5929,-7.02332,-1.24146,0,0,0,0,0,0,0,0,0,0,-0.271764,0.379555,0,-1.7,2.55799e-38,0,0,0,6.12355,-9.82869,4.38672,-2.64844,-0.0999985,-0.389999,11.5929,-7.02332,1.9603e-19,0,0,0,0,0,0,0,0,0,-1,1
9090,-2.17773,-0.902344,-3.44629,0.987957,1.27044,-0.319372,1.58739,0.115462,-1.22172,0,0,0,6.30089,-9.93161,11.9508,-6.76963,-1.22172,0,0,0,0,0,0,0,0,0,0,-0.26078,0.384809,0,-1.7,2.55799e-38,0,0,0,6.30089,-9.93161,4.38672,-2.64844,-0.0999985,-0.389999,11.9508,-6.76963,1.9603e-19,0,0,0,0,0,0,0,0,0,-1,1
9106,-5.63184,-0.719727,-3.81152,0.887728,1.45904,-0.316102,1.60539,0.119729,-1.19768,0,0,0,6.49623,-10.0369,12.3446,-6.47889,-1.19768,0,0,0,0,0,0,0,0,0,0,-0.247259,0.390918,0,-1.7,2.55799e-38,0,0,0,6.49623,-10.0369,4.38672,-2.64844,-0.0999985,-0.389999,12.3446,-6.47889,1.9603e-19,0,0,0,0,0,0,0,0,0,-1,1
9121,-4.89648,-0.487305,-4.00879,0.566808,1.73309,-0.502962,1.61811,0.125687,-1.17117,0,0,0,6.68507,-10.1313,12.7244,-6.18709,-1.19768,0,0,0,0,0,0,0,0,0,0,-0.247259,0.390918,0,-1.7,2.55799e-38,0,0,0,6.68507,-10.1313,4.38672,-2.64844,-0.0999985,-0.389999,12.7244,-6.18709,1.9603e-19,0,0,0,0,0,0,0,0,0,-1,1
