timestamp,A_x,A_y,A_z,P,Q,R,Phi,Theta,Psi,poseX,poseY,poseZ,state_X,state_Y,state_Z,state_VzB,state_Bx,state_By,state_Bz,p1_x,p1_y,p2_x,p2_y,p3_x,p3_y,p4_x,p4_y,roll,pitch,yaw,alt,targetHeading,highLevelState,lowLevelState,gateNumber,filtered_x,filtered_y
10,0,0,0,0,0,0,0,0,0,0,0,0,0,0,0,0,0,0,0,0,0,0,0,0,0,0,0,0,-0.261799,0,-1.5,nan,0,0,0,0,0
20,0,0,0,0,0,0,0,0,0,0,0,0,0,0,0,0,0,0,0,0,0,0,0,0,0,0,0,0,-0.261799,0,-1.5,nan,0,0,0,0,0
30,-3.21152e-12,2.84962e-38,-1.55412e-06,-3.27738e-12,2.84938e-38,-3.40902e-12,-1.06589e-13,0,0,0,0,0,0,0,0,0,0,0,0,0,0,0,0,0,0,0,0,0,-0.261799,0,-1.5,nan,0,0,0,0,0
40,-3.21152e-12,2.84962e-38,-1.55412e-06,-3.27738e-12,2.84938e-38,0,-1.0659e-13,0,0,0,0,0,0,0,0,0,0,0,0,0,0,0,0,0,0,0,0,0,-0.261799,0,-1.5,nan,0,0,0,0,0
50,-3.21152e-12,2.84962e-38,-1.55412e-06,-3.27738e-12,2.84938e-38,-3.40902e-12,-1.0659e-13,0,0,0,0,0,0,0,0,0,0,0,0,0,0,0,0,0,0,0,0,0,-0.261799,0,-1.5,nan,0,0,0,0,0
60,-3.21152e-12,2.84962e-38,-1.55412e-06,-3.27738e-12,2.84938e-38,0,-1.0659e-13,0,0,0,0,0,0,0,0,0,0,0,0,0,0,0,0,0,0,0,0,0,-0.261799,0,-1.5,nan,0,0,0,0,0
70,-3.21152e-12,2.84962e-38,-1.55412e-06,-3.27738e-12,2.84938e-38,-3.40902e-12,-1.0659e-13,0,0,0,0,0,0,0,0,0,0,0,0,0,0,0,0,0,0,0,0,0,-0.261799,0,-1.5,nan,0,0,0,0,0
80,-3.21152e-12,2.84962e-38,-1.55412e-06,-3.27738e-12,2.84938e-38,0,-1.06591e-13,0,0,0,0,0,0,0,0,0,0,0,0,0,0,0,0,0,0,0,0,0,-0.261799,0,-1.5,nan,0,0,0,0,0
90,-3.21152e-12,2.84962e-38,-1.55412e-06,-3.27738e-12,2.84938e-38,-3.40902e-12,-1.06591e-13,0,0,-3.28704,-0.336273,0.443797,0,0,0,0,0,1.35138,-0.295921,-1367821504,-1367821504,-1367821504,-1367821504,-1367821464,520561732,-423966206,-1367821464,0,-0.261799,0,-1.5,nan,0,0,0,0,0
100,-3.21152e-12,2.84962e-38,-1.55412e-06,-3.27738e-12,2.84938e-38,0,-1.06591e-13,0,0,-3.26956,-0.322915,0.43063,0,0,0,0,0,1.37079,-0.284165,-1367821504,-1367821504,-1367821504,-1367821504,-1367821464,520561732,-423966206,-1367821464,0,-0.261799,0,-1.5,nan,0,0,0,0,0
110,-3.21152e-12,2.84962e-38,-1.55412e-06,-3.27738e-12,2.84938e-38,-3.40902e-12,-1.06591e-13,0,0,-3.25371,-0.32048,0.431878,0,0,0,0,0,1.38838,-0.282022,-1367821504,-1367821504,-1367821504,-1367821504,-1367821464,520561732,-423966206,-1367821464,0,-0.261799,0,-1.5,nan,0,0,0,0,0
120,-3.21152e-12,2.84962e-38,-1.55412e-06,-3.27738e-12,2.84938e-38,0,-1.06592e-13,0,0,-3.24995,-0.318217,0.433715,0,0,0,0,0,1.39256,-0.280031,-1367821504,-1367821504,-1367821504,-1367821504,-1367821464,520561732,-423966206,-1367821464,0,-0.261799,0,-1.5,nan,0,0,0,0,0
130,-3.21152e-12,2.84962e-38,-1.55412e-06,-3.27738e-12,2.84938e-38,-3.40902e-12,-1.06592e-13,0,0,-3.22196,-0.322224,0.413573,0,0,0,0,0,1.42363,-0.283557,-1367821504,-1367821504,-1367821504,-1367821504,-1367821464,520561732,-423966206,-1367821464,0,-0.261799,0,-1.5,nan,0,0,0,0,0
140,-3.21152e-12,2.84962e-38,-1.55412e-06,-3.27738e-12,2.84938e-38,0,-1.06592e-13,0,0,-3.2473,-0.311056,0.426889,0,0,0,0,0,1.3955,-0.273729,-1367821504,-1367821504,-1367821504,-1367821504,-1367821464,520561732,-423966206,-1367821464,0,-0.261799,0,-1.5,nan,0,0,0,0,0
150,-3.21152e-12,2.84962e-38,-1.55412e-06,-3.27738e-12,2.84938e-38,-3.40902e-12,-1.06593e-13,0,0,-3.23523,-0.318933,0.422038,0,0,0,0,0,1.4089,-0.280661,-1367821504,-1367821504,-1367821504,-1367821504,-1367821464,520561732,-423966206,-1367821464,0.261799,-0.261799,0,-1.5,nan,0,0,0,1.41405,-0.280319
160,-3.21152e-12,2.84962e-38,-1.55412e-06,-3.27738e-12,2.84938e-38,0,-1.06593e-13,0,0,-3.24452,-0.312896,0.420632,0,0,0,0,0,1.39859,-0.275349,-1367821504,-1367821504,-1367821504,-1367821504,-1367821464,520561732,-423966206,-1367821464,0.261799,-0.261799,0,-1.5,nan,0,0,0,1.43369,-0.270714
170,-3.21152e-12,2.84962e-38,-1.55412e-06,-3.27738e-12,2.84938e-38,-3.40902e-12,-1.06593e-13,0,0,-3.24452,-0.312896,0.420632,0,0,0,0,0,1.39859,-0.275349,-1367821504,-1367821504,-1367821504,-1367821504,-1367821464,520561732,-423966206,-1367821464,0.261799,-0.261799,0,-1.5,nan,0,0,0,1.43486,-0.270422
180,-3.21152e-12,2.84962e-38,-1.55412e-06,-3.27738e-12,2.84938e-38,0,-1.06593e-13,0,0,-3.28695,-0.321152,0.432792,0,0,0,0,0,1.35149,-0.282614,-1367821504,-1367821504,-1367821504,-1367821504,-1367821464,520561732,-423966206,-1367821464,0.261799,-0.261799,0,-1.5,nan,0,0,0,1.40797,-0.278378
190,-3.21152e-12,2.84962e-38,-1.55412e-06,-3.27738e-12,2.84938e-38,-3.40902e-12,-1.06594e-13,0,0,-3.25362,-0.306584,0.426868,0,0,0,0,0,1.38849,-0.269794,-1367821504,-1367821504,-1367821504,-1367821504,-1367821464,520561732,-423966206,-1367821464,0.261799,-0.261799,0,-1.5,nan,0,0,0,1.38714,-0.266038
200,-3.21152e-12,2.84962e-38,-1.55412e-06,-3.27738e-12,2.84938e-38,0,-1.06594e-13,0,0,-3.29738,-0.261123,0.436782,0,0,0,0,0,1.33991,-0.229788,-1367821504,-1367821504,-1367821504,-1367821504,-1367821464,520561732,-423966206,-1367821464,0.261799,-0.261799,0,-1.5,nan,0,0,0,1.33129,-0.262455
210,-3.21152e-12,2.84962e-38,-1.55412e-06,-3.27738e-12,2.84938e-38,-3.40902e-12,-1.06594e-13,0,0,-3.25177,-0.315142,0.437082,0,0,0,0,0,1.39054,-0.277325,-1367821504,-1367821504,-1367821504,-1367821504,-1367821464,520561732,-423966206,-1367821464,0.261799,-0.261799,0,-1.5,nan,0,0,0,1.38118,-0.277792
220,-3.21152e-12,2.84962e-38,-1.55412e-06,-3.27738e-12,2.84938e-38,0,-1.06594e-13,0,0,-3.25658,-0.316542,0.43795,0,0,0,0,0,1.38519,-0.278557,-1367821504,-1367821504,-1367821504,-1367821504,-1367821464,520561732,-423966206,-1367821464,0.261799,-0.261799,0,-1.5,nan,0,0,0,1.38322,-0.277389
230,-3.21152e-12,2.84962e-38,-1.55412e-06,-3.27738e-12,2.84938e-38,-3.40902e-12,-1.06595e-13,0,0,-3.27405,-0.312196,0.446125,0,0,0,0,0,1.3658,-0.274733,-1367821504,-1367821504,-1367821504,-1367821504,-1367821464,520561732,-423966206,-1367821464,0.261799,-0.261799,0,-1.5,nan,0,0,0,1.39172,-0.273508
240,-3.21152e-12,2.84962e-38,-1.55412e-06,-3.27738e-12,2.84938e-38,0,-1.06595e-13,0,0,-3.18843,-0.29484,0.38985,0,0,0,0,0,1.46085,-0.25946,-1367821504,-1367821504,-1367821504,-1367821504,-1367821464,520561732,-423966206,-1367821464,0.261799,-0.261799,0,-1.5,nan,0,0,0,1.38361,-0.276809
250,-3.21152e-12,2.84962e-38,-1.55412e-06,-3.27738e-12,2.84938e-38,-3.40902e-12,-1.06595e-13,0,0,-3.1932,-0.289497,0.39141,0,0,0,0,0,1.45555,-0.254757,-1367821504,-1367821504,-1367821504,-1367821504,-1367821464,520561732,-423966206,-1367821464,0.261799,-0.261799,0,-1.5,nan,0,0,0,1.46782,-0.251392
260,-3.21152e-12,2.84962e-38,-1.55412e-06,-3.27738e-12,2.84938e-38,0,-1.06596e-13,0,0,-3.23256,-0.272903,0.405049,0,0,0,0,0,1.41186,-0.240154,-1367821504,-1367821504,-1367821504,-1367821504,-1367821464,520561732,-423966206,-1367821464,0.261799,-0.261799,0,-1.5,nan,0,0,0,1.45004,-0.242186
270,-3.21152e-12,2.84962e-38,-1.55412e-06,-3.27738e-12,2.84938e-38,-3.40902e-12,-1.06596e-13,0,0,-3.22893,-0.26549,0.368469,0,0,0,0,0,1.41589,-0.233631,-1367821504,-1367821504,-1367821504,-1367821504,-1367821464,520561732,-423966206,-1367821464,0.258984,-0.261799,0,-1.5,nan,0,0,0,1.42497,-0.222496
280,-3.21152e-12,2.84962e-38,-1.55412e-06,-3.27738e-12,2.84938e-38,0,-1.06596e-13,0,0,-3.25087,-0.268617,0.399486,0,0,0,0,0,1.39154,-0.236383,-1367821504,-1367821504,-1367821504,-1367821504,-1367821464,520561732,-423966206,-1367821464,0.240876,-0.261799,0,-1.5,nan,0,0,0,1.43488,-0.206939
290,-3.21152e-12,2.84962e-38,-1.55412e-06,-3.27738e-12,2.84938e-38,-3.40902e-12,-1.06596e-13,0,0,-3.30585,-0.318401,0.406483,0,0,0,0,0,1.33051,-0.280193,-1367821504,-1367821504,-1367821504,-1367821504,-1367821464,520561732,-423966206,-1367821464,0.260654,-0.261799,0,-1.5,nan,0,0,0,1.35413,-0.22393
300,-3.21152e-12,2.84962e-38,-1.55412e-06,-3.27738e-12,2.84938e-38,0,-1.06597e-13,0,0,-3.30585,-0.318401,0.406483,0,0,0,0,0,1.33051,-0.280193,-1367821504,-1367821504,-1367821504,-1367821504,-1367821464,520561732,-423966206,-1367821464,0.257692,-0.261799,0,-1.5,nan,0,0,0,1.34649,-0.221386
310,-3.21152e-12,2.84962e-38,-1.55412e-06,-3.27738e-12,2.84938e-38,-3.40902e-12,-1.06597e-13,0,0,-3.2043,-0.229733,0.351901,0,0,0,0,0,1.44323,-0.202165,-1367821504,-1367821504,-1367821504,-1367821504,-1367821464,520561732,-423966206,-1367821464,0.219722,-0.261799,0,-1.5,nan,0,0,0,1.36648,-0.188766
320,-3.21152e-12,2.84962e-38,-1.55412e-06,-3.27738e-12,2.84938e-38,0,-1.06597e-13,0,0,-3.2043,-0.229733,0.351901,0,0,0,0,0,1.44323,-0.202165,-1367821504,-1367821504,-1367821504,-1367821504,-1367821464,520561732,-423966206,-1367821464,0.212978,-0.261799,0,-1.5,nan,0,0,0,1.3616,-0.182972
330,-3.21152e-12,2.84962e-38,-1.55412e-06,-3.27738e-12,2.84938e-38,-3.40902e-12,-1.06597e-13,0,0,-3.2043,-0.229733,0.351901,0,0,0,0,0,1.44323,-0.202165,-1367821504,-1367821504,-1367821504,-1367821504,-1367821464,520561732,-423966206,-1367821464,0.211453,-0.261799,0,-1.5,nan,0,0,0,1.3605,-0.181661
340,-3.21152e-12,2.84962e-38,-1.55412e-06,-3.27738e-12,2.84938e-38,0,-1.06598e-13,0,0,-3.2043,-0.229733,0.351901,0,0,0,0,0,1.44323,-0.202165,-1367821504,-1367821504,-1367821504,-1367821504,-1367821464,520561732,-423966206,-1367821464,0.209847,-0.261799,0,-1.5,nan,0,0,0,1.35934,-0.180282
350,-3.21152e-12,2.84962e-38,-1.55412e-06,-3.27738e-12,2.84938e-38,-3.40902e-12,-1.06598e-13,0,0,-3.2043,-0.229733,0.351901,0,0,0,0,0,1.44323,-0.202165,-1367821504,-1367821504,-1367821504,-1367821504,-1367821464,520561732,-423966206,-1367821464,0.203585,-0.261799,0,-1.5,nan,0,0,0,1.35481,-0.174902
360,-3.21152e-12,2.84962e-38,-1.55412e-06,-3.27738e-12,2.84938e-38,0,-1.06598e-13,0,0,-3.2043,-0.229733,0.351901,0,0,0,0,0,1.44323,-0.202165,-1367821504,-1367821504,-1367821504,-1367821504,-1367821464,520561732,-423966206,-1367821464,0.201739,-0.261799,0,-1.5,nan,0,0,0,1.35347,-0.173316
370,-3.21152e-12,2.84962e-38,-1.55412e-06,-3.27738e-12,2.84938e-38,-3.40902e-12,-1.06599e-13,0,0,-3.2043,-0.229733,0.351901,1.34871,-0.16766,-0.0579744,0.0688347,0,1.44323,-0.202165,-1367821504,-1367821504,-1367821504,-1367821504,-1367821464,520561732,-423966206,-1367821464,0.126321,-0.261799,0,-1.5,nan,0,0,0,1.34871,-0.16766
380,-3.21152e-12,2.84962e-38,-1.55412e-06,-3.27738e-12,2.84938e-38,0,-1.06599e-13,0,0,-3.2043,-0.229733,0.351901,1.34397,-0.162036,-0.0555197,0.0659202,0,1.44323,-0.202165,-1367821504,-1367821504,-1367821504,-1367821504,-1367821464,520561732,-423966206,-1367821464,0.122689,-0.261799,0,-1.5,nan,0,0,0,1.34397,-0.162036
390,-3.21152e-12,2.84962e-38,-1.55412e-06,-3.27738e-12,2.84938e-38,-3.40902e-12,-1.06599e-13,0,0,-3.2043,-0.229733,0.351901,1.34287,-0.160727,-0.0549662,0.065263,0,1.44323,-0.202165,-1367821504,-1367821504,-1367821504,-1367821504,-1367821464,520561732,-423966206,-1367821464,0.121822,-0.261799,0,-1.5,nan,0,0,0,1.34287,-0.160727
400,-3.21152e-12,2.84962e-38,-1.55412e-06,-3.27738e-12,2.84938e-38,0,-1.06599e-13,0,0,-3.29246,-0.218481,0.391487,1.33848,-0.155514,-0.0526937,0.0625647,0,1.34537,-0.192264,-1367821504,-1367821504,-1367821504,-1367821504,-1367821464,520561732,-423966206,-1367821464,0.118453,-0.261799,0,-1.5,nan,0,0,0,1.33848,-0.155514
410,-3.21152e-12,2.84962e-38,-1.55412e-06,-3.27738e-12,2.84938e-38,-3.40902e-12,-1.066e-13,0,0,-3.27737,-0.315878,0.409116,1.33437,-0.150631,-0.0505685,0.0600414,0,1.36212,-0.277973,-1367821504,-1367821504,-1367821504,-1367821504,-1367821464,520561732,-423966206,-1367821464,0.115292,-0.261799,0,-1.5,nan,0,0,0,1.33437,-0.150631
420,-3.21152e-12,2.84962e-38,-1.55412e-06,-3.27738e-12,2.84938e-38,0,-1.066e-13,0,0,-3.20931,-0.336842,0.380136,1.33326,-0.14932,-0.050014,0.059383,0,1.43766,-0.296421,-1367821504,-1367821504,-1367821504,-1367821504,-1367821464,520561732,-423966206,-1367821464,0.114425,-0.261799,0,-1.5,nan,0,0,0,1.33326,-0.14932
430,-3.21152e-12,2.84962e-38,-1.55412e-06,-3.27738e-12,2.84938e-38,-3.40902e-12,-1.066e-13,0,0,-3.15755,-0.332859,0.354378,1.32922,-0.144523,-0.0479213,0.0568983,0,1.49512,-0.292916,-1367821504,-1367821504,-1367821504,-1367821504,-1367821464,520561732,-423966206,-1367821464,0.111325,-0.261799,0,-1.5,nan,0,0,0,1.32922,-0.144523
440,-3.21152e-12,2.84962e-38,-1.55412e-06,-3.27738e-12,2.84938e-38,0,-1.066e-13,0,0,-3.15582,-0.33195,0.34476,1.32813,-0.143225,-0.047372,0.0562462,0,1.49704,-0.292116,-1367821504,-1367821504,-1367821504,-1367821504,-1367821464,520561732,-423966206,-1367821464,0.110467,-0.261799,0,-1.5,nan,0,0,0,1.32813,-0.143225
450,-3.21152e-12,2.84962e-38,-1.55412e-06,-3.27738e-12,2.84938e-38,-3.40902e-12,-1.06601e-13,0,0,-3.23084,-0.325416,0.380558,1.32443,-0.138834,-0.0454615,0.0539777,0,1.41377,-0.286366,-1367821504,-1367821504,-1367821504,-1367821504,-1367821464,520561732,-423966206,-1367821464,0.107624,-0.261799,0,-1.5,nan,0,0,0,1.32443,-0.138834
460,-3.21152e-12,2.84962e-38,-1.55412e-06,-3.27738e-12,2.84938e-38,0,-1.06601e-13,0,0,-3.23084,-0.325416,0.380558,1.31908,-0.132483,-0.042631,0.050617,0,1.41377,-0.286366,-1367821504,-1367821504,-1367821504,-1367821504,-1367821464,520561732,-423966206,-1367821464,0.261799,-0.261799,0,-1.5,nan,0,0,0,1.40011,-0.282633
470,-3.21152e-12,2.84962e-38,-1.55412e-06,-3.27738e-12,2.84938e-38,-3.40902e-12,-1.06601e-13,0,0,-3.25385,-0.325946,0.388316,1.31399,-0.126438,-0.0399343,0.0474152,0,1.38823,-0.286833,-1367821504,-1367821504,-1367821504,-1367821504,-1367821464,520561732,-423966206,-1367821464,0.261799,-0.261799,0,-1.5,nan,0,0,0,1.38531,-0.285151
480,-3.21152e-12,2.84962e-38,-1.55412e-06,-3.27738e-12,2.84938e-38,0,-1.06602e-13,0,0,-3.21091,-0.322067,0.36293,1.30693,-0.118057,-0.0360559,0.0428102,0,1.43589,-0.283419,-1367821504,-1367821504,-1367821504,-1367821504,-1367821464,520561732,-423966206,-1367821464,0.261799,-0.261799,0,-1.5,nan,0,0,0,1.36569,-0.281387
490,-3.21152e-12,2.84962e-38,-1.55412e-06,-3.27738e-12,2.84938e-38,-3.40902e-12,-1.06602e-13,0,0,-3.24494,-0.197507,0.379919,1.30056,-0.11049,-0.0325541,0.0386525,0,1.39811,-0.173806,-1367821504,-1367821504,-1367821504,-1367821504,-1367821464,520561732,-423966206,-1367821464,0.261799,-0.261799,0,-1.5,nan,0,0,0,1.39259,-0.27111
500,-3.21152e-12,2.84962e-38,-1.55412e-06,-3.27738e-12,2.84938e-38,0,-1.06602e-13,0,0,-3.24494,-0.197507,0.379919,1.29975,-0.109533,-0.0321486,0.038171,0,1.39811,-0.173806,-1367821504,-1367821504,-1367821504,-1367821504,-1367821464,520561732,-423966206,-1367821464,0.261799,-0.261799,0,-1.5,nan,0,0,0,1.39189,-0.270665
510,-3.21152e-12,2.84962e-38,-1.55412e-06,-3.27738e-12,2.84938e-38,-3.40902e-12,-1.06602e-13,0,0,-3.24494,-0.197507,0.379919,1.29839,-0.107921,-0.0314599,0.0373532,0,1.39811,-0.173806,-1367821504,-1367821504,-1367821504,-1367821504,-1367821464,520561732,-423966206,-1367821464,0.261799,-0.261799,0,-1.5,nan,0,0,0,1.39072,-0.269935
520,-3.21152e-12,2.84962e-38,-1.55412e-06,-3.27738e-12,2.84938e-38,0,-1.06603e-13,0,0,-3.2016,-0.20093,0.419384,1.2927,-0.101157,-0.0284679,0.0338008,0,1.44622,-0.176819,-1367821504,-1367821504,-1367821504,-1367821504,-1367821464,520561732,-423966206,-1367821464,0.154548,-0.261799,0,-1.5,nan,0,0,0,1.45186,-0.161812
530,-3.21152e-12,2.84962e-38,-1.55412e-06,-3.27738e-12,2.84938e-38,-3.40902e-12,-1.06603e-13,0,0,-3.14831,-0.197942,0.401336,1.28895,-0.0967088,-0.0264687,0.031427,0,1.50537,-0.174189,-1367821504,-1367821504,-1367821504,-1367821504,-1367821464,520561732,-423966206,-1367821464,0.152639,-0.261799,0,-1.5,nan,0,0,0,1.45901,-0.158133
540,-3.21152e-12,2.84962e-38,-1.55412e-06,-3.27738e-12,2.84938e-38,0,-1.06603e-13,0,0,-3.14831,-0.197942,0.401336,1.28672,-0.0940545,-0.0253084,0.0300494,0,1.50537,-0.174189,-1367821504,-1367821504,-1367821504,-1367821504,-1367821464,520561732,-423966206,-1367821464,0.142495,-0.261799,0,-1.5,nan,0,0,0,1.46356,-0.148234
550,-3.21152e-12,2.84962e-38,-1.55412e-06,-3.27738e-12,2.84938e-38,-3.40902e-12,-1.06603e-13,0,0,-3.14831,-0.197942,0.401336,1.28614,-0.0933689,-0.0250184,0.029705,0,1.50537,-0.174189,-1367821504,-1367821504,-1367821504,-1367821504,-1367821464,520561732,-423966206,-1367821464,0.139837,-0.261799,0,-1.5,nan,0,0,0,1.46476,-0.145655
560,-3.21152e-12,2.84962e-38,-1.55412e-06,-3.27738e-12,2.84938e-38,0,-1.06604e-13,0,0,-3.18568,-0.197916,0.4595,1.28416,-0.0910228,-0.0239969,0.0284922,0,1.4639,-0.174166,-1367821504,-1367821504,-1367821504,-1367821504,-1367821464,520561732,-423966206,-1367821464,0.154609,-0.261799,0,-1.5,nan,0,0,0,1.44967,-0.157304
570,-3.21152e-12,2.84962e-38,-1.55412e-06,-3.27738e-12,2.84938e-38,-3.40902e-12,-1.06604e-13,0,0,-3.18568,-0.197916,0.4595,1.28222,-0.0887199,-0.0229933,0.0273006,0,1.4639,-0.174166,-1367821504,-1367821504,-1367821504,-1367821504,-1367821464,520561732,-423966206,-1367821464,0.145071,-0.261799,0,-1.5,nan,0,0,0,1.45421,-0.148086
580,-3.21152e-12,2.84962e-38,-1.55412e-06,-3.27738e-12,2.84938e-38,0,-1.06604e-13,0,0,-3.18568,-0.197916,0.4595,1.28177,-0.0881777,-0.022764,0.0270284,0,1.4639,-0.174166,-1367821504,-1367821504,-1367821504,-1367821504,-1367821464,520561732,-423966206,-1367821464,0.142795,-0.261799,0,-1.5,nan,0,0,0,1.45529,-0.145897
590,-3.21152e-12,2.84962e-38,-1.55412e-06,-3.27738e-12,2.84938e-38,-3.40902e-12,-1.06605e-13,0,0,-3.18568,-0.197916,0.4595,1.28131,-0.0876409,-0.0225371,0.0267589,0,1.4639,-0.174166,-1367821504,-1367821504,-1367821504,-1367821504,-1367821464,520561732,-423966206,-1367821464,0.140524,-0.261799,0,-1.5,nan,0,0,0,1.45639,-0.143714
600,-3.21152e-12,2.84962e-38,-1.55412e-06,-3.27738e-12,2.84938e-38,0,-1.06605e-13,0,0,-3.11862,-0.195205,0.424109,1.281,-0.0872679,-0.0223797,0.0265721,0,1.53833,-0.171781,-1367821504,-1367821504,-1367821504,-1367821504,-1367821464,520561732,-423966206,-1367821464,0.158674,-0.261799,0,-1.5,nan,0,0,0,1.44126,-0.159147
610,-3.21152e-12,2.84962e-38,-1.55412e-06,-3.27738e-12,2.84938e-38,-3.40902e-12,-1.06605e-13,0,0,-3.11862,-0.195205,0.424109,1.2794,-0.085367,-0.0215547,0.0255926,0,1.53833,-0.171781,-1367821504,-1367821504,-1367821504,-1367821504,-1367821464,520561732,-423966206,-1367821464,0.15035,-0.261799,0,-1.5,nan,0,0,0,1.44536,-0.151154
620,-3.21152e-12,2.84962e-38,-1.55412e-06,-3.27738e-12,2.84938e-38,0,-1.06605e-13,0,0,-3.18657,-0.187803,0.46384,1.27768,-0.0833229,-0.0206636,0.0245345,0,1.46291,-0.165267,-1367821504,-1367821504,-1367821504,-1367821504,-1367821464,520561732,-423966206,-1367821464,0.149508,-0.261799,0,-1.5,nan,0,0,0,1.44326,-0.149522
630,-3.21152e-12,2.84962e-38,-1.55412e-06,-3.27738e-12,2.84938e-38,-3.40902e-12,-1.06606e-13,0,0,-3.18657,-0.187803,0.46384,1.27727,-0.0828357,-0.0204576,0.0242899,0,1.46291,-0.165267,-1367821504,-1367821504,-1367821504,-1367821504,-1367821464,520561732,-423966206,-1367821464,0.147269,-0.261799,0,-1.5,nan,0,0,0,1.44439,-0.147388
640,-3.21152e-12,2.84962e-38,-1.55412e-06,-3.27738e-12,2.84938e-38,0,-1.06606e-13,0,0,-3.18657,-0.187803,0.46384,1.27561,-0.0808733,-0.0196016,0.0232735,0,1.46291,-0.165267,-1367821504,-1367821504,-1367821504,-1367821504,-1367821464,520561732,-423966206,-1367821464,0.137952,-0.261799,0,-1.5,nan,0,0,0,1.44922,-0.138511
650,-3.21152e-12,2.84962e-38,-1.55412e-06,-3.27738e-12,2.84938e-38,-3.40902e-12,-1.06606e-13,0,0,-3.18657,-0.187803,0.46384,1.27412,-0.0791004,-0.0188302,0.0223576,0,1.46291,-0.165267,-1367821504,-1367821504,-1367821504,-1367821504,-1367821464,520561732,-423966206,-1367821464,0.129234,-0.261799,0,-1.5,nan,0,0,0,1.45382,-0.130234
660,-3.21152e-12,2.84962e-38,-1.55412e-06,-3.27738e-12,2.84938e-38,0,-1.06606e-13,0,0,-3.18657,-0.187803,0.46384,1.27371,-0.0786125,-0.0186237,0.0221125,0,1.46291,-0.165267,-1367821504,-1367821504,-1367821504,-1367821504,-1367821464,520561732,-423966206,-1367821464,0.126804,-0.261799,0,-1.5,nan,0,0,0,1.45511,-0.127935
670,-3.21152e-12,2.84962e-38,-1.55412e-06,-3.27738e-12,2.84938e-38,-3.40902e-12,-1.06607e-13,0,0,-3.18657,-0.187803,0.46384,1.27224,-0.0768668,-0.017863,0.0212093,0,1.46291,-0.165267,-1367821504,-1367821504,-1367821504,-1367821504,-1367821464,520561732,-423966206,-1367821464,0.117817,-0.261799,0,-1.5,nan,0,0,0,1.45997,-0.119439
680,-3.21152e-12,2.84962e-38,-1.55412e-06,-3.27738e-12,2.84938e-38,0,-1.06607e-13,0,0,-3.18657,-0.187803,0.46384,1.27085,-0.0752119,-0.0171423,0.0203535,0,1.46291,-0.165267,-1367821504,-1367821504,-1367821504,-1367821504,-1367821464,520561732,-423966206,-1367821464,0.108985,-0.261799,0,-1.5,nan,0,0,0,1.46482,-0.111116
690,-3.21152e-12,2.84962e-38,-1.55412e-06,-3.27738e-12,2.84938e-38,-3.40902e-12,-1.06607e-13,0,0,-3.18657,-0.187803,0.46384,1.27047,-0.0747676,-0.0169543,0.0201304,0,1.46291,-0.165267,-1367821504,-1367821504,-1367821504,-1367821504,-1367821464,520561732,-423966206,-1367821464,0.106583,-0.261799,0,-1.5,nan,0,0,0,1.46615,-0.108861
700,-3.21152e-12,2.84962e-38,-1.55412e-06,-3.27738e-12,2.84938e-38,0,-1.06607e-13,0,0,-3.18657,-0.187803,0.46384,1.47101,-0.100725,0.0605439,0.101281,0,1.46291,-0.165267,-1367821504,-1367821504,-1367821504,-1367821504,-1367821464,520561732,-423966206,-1367821464,0.0159622,-0.261799,0,-1.5,nan,0,0,0,1.47101,-0.100725
710,-3.21152e-12,2.84962e-38,-1.55412e-06,-3.27738e-12,2.84938e-38,-3.40902e-12,-1.06608e-13,0,0,-3.18657,-0.187803,0.46384,1.47579,-0.0927287,0.0580709,0.0971438,0,1.46291,-0.165267,-1367821504,-1367821504,-1367821504,-1367821504,-1367821464,520561732,-423966206,-1367821464,0.010792,-0.261799,0,-1.5,nan,0,0,0,1.47579,-0.0927287
720,-3.21152e-12,2.84962e-38,-1.55412e-06,-3.27738e-12,2.84938e-38,0,-1.06608e-13,0,0,-3.18657,-0.187803,0.46384,1.47677,-0.0910864,0.0575788,0.0963205,0,1.46291,-0.165267,-1367821504,-1367821504,-1367821504,-1367821504,-1367821464,520561732,-423966206,-1367821464,0.00970356,-0.261799,0,-1.5,nan,0,0,0,1.47677,-0.0910864
730,-3.21152e-12,2.84962e-38,-1.55412e-06,-3.27738e-12,2.84938e-38,-3.40902e-12,-1.06608e-13,0,0,-3.18657,-0.187803,0.46384,1.48121,-0.0836566,0.0552852,0.0924838,0,1.46291,-0.165267,-1367821504,-1367821504,-1367821504,-1367821504,-1367821464,520561732,-423966206,-1367821464,0.00489211,-0.261799,0,-1.5,nan,0,0,0,1.48121,-0.0836566
740,-3.21152e-12,2.84962e-38,-1.55412e-06,-3.27738e-12,2.84938e-38,0,-1.06609e-13,0,0,-3.18657,-0.187803,0.46384,1.48242,-0.0816375,0.0546791,0.0914699,0,1.46291,-0.165267,-1367821504,-1367821504,-1367821504,-1367821504,-1367821464,520561732,-423966206,-1367821464,0.00355584,-0.261799,0,-1.5,nan,0,0,0,1.48242,-0.0816375
750,-3.21152e-12,2.84962e-38,-1.55412e-06,-3.27738e-12,2.84938e-38,-3.40902e-12,-1.06609e-13,0,0,-3.18657,-0.187803,0.46384,1.48654,-0.0747513,0.0525555,0.0879174,0,1.46291,-0.165267,-1367821504,-1367821504,-1367821504,-1367821504,-1367821464,520561732,-423966206,-1367821464,-0.000907287,-0.261799,0,-1.5,nan,0,0,0,1.48654,-0.0747513
760,-3.21152e-12,2.84962e-38,-1.55412e-06,-3.27738e-12,2.84938e-38,0,-1.06609e-13,0,0,-3.18657,-0.187803,0.46384,1.48876,-0.0710373,0.05143,0.0860346,0,1.46291,-0.165267,-1367821504,-1367821504,-1367821504,-1367821504,-1367821464,520561732,-423966206,-1367821464,-0.0033475,-0.261799,0,-1.5,nan,0,0,0,1.48876,-0.0710373
770,-3.21152e-12,2.84962e-38,-1.55412e-06,-3.27738e-12,2.84938e-38,-3.40902e-12,-1.06609e-13,0,0,-3.18657,-0.187803,0.46384,1.48988,-0.069159,0.0508661,0.0850914,0,1.46291,-0.165267,-1367821504,-1367821504,-1367821504,-1367821504,-1367821464,520561732,-423966206,-1367821464,-0.00459059,-0.261799,0,-1.5,nan,0,0,0,1.48988,-0.069159
780,-3.21152e-12,2.84962e-38,-1.55412e-06,-3.27738e-12,2.84938e-38,0,-1.0661e-13,0,0,-3.18657,-0.187803,0.46384,1.4939,-0.0624413,0.0487885,0.0816157,0,1.46291,-0.165267,-1367821504,-1367821504,-1367821504,-1367821504,-1367821464,520561732,-423966206,-1367821464,-0.00893428,-0.261799,0,-1.5,nan,0,0,0,1.4939,-0.0624413
790,-3.21152e-12,2.84962e-38,-1.55412e-06,-3.27738e-12,2.84938e-38,-3.40902e-12,-1.0661e-13,0,0,-3.18657,-0.187803,0.46384,1.4977,-0.0560733,0.0468199,0.0783227,0,1.46291,-0.165267,-1367821504,-1367821504,-1367821504,-1367821504,-1367821464,520561732,-423966206,-1367821464,-0.0130536,-0.261799,0,-1.5,nan,0,0,0,1.4977,-0.0560733
800,-3.21152e-12,2.84962e-38,-1.55412e-06,-3.27738e-12,2.84938e-38,0,-1.0661e-13,0,0,-3.18657,-0.187803,0.46384,1.49868,-0.0544408,0.0463298,0.0775028,0,1.46291,-0.165267,-1367821504,-1367821504,-1367821504,-1367821504,-1367821464,520561732,-423966206,-1367821464,-0.0141339,-0.261799,0,-1.5,nan,0,0,0,1.49868,-0.0544408
810,-3.21152e-12,2.84962e-38,-1.55412e-06,-3.27738e-12,2.84938e-38,-3.40902e-12,-1.0661e-13,0,0,-3.18657,-0.187803,0.46384,1.50229,-0.0483937,0.0444605,0.0743757,0,1.46291,-0.165267,-1367821504,-1367821504,-1367821504,-1367821504,-1367821464,520561732,-423966206,-1367821464,-0.0180456,-0.261799,0,-1.5,nan,0,0,0,1.50229,-0.0483937
820,-3.21152e-12,2.84962e-38,-1.55412e-06,-3.27738e-12,2.84938e-38,0,-1.06611e-13,0,0,-3.18657,-0.187803,0.46384,1.50593,-0.0423166,0.042578,0.0712266,0,1.46291,-0.165267,-1367821504,-1367821504,-1367821504,-1367821504,-1367821464,520561732,-423966206,-1367821464,-0.0219702,-0.261799,0,-1.5,nan,0,0,0,1.50593,-0.0423166
830,-3.21152e-12,2.84962e-38,-1.55412e-06,-3.27738e-12,2.84938e-38,-3.40902e-12,-1.06611e-13,0,0,-3.18657,-0.187803,0.46384,1.50681,-0.040832,0.0421323,0.070481,0,1.46291,-0.165267,-1367821504,-1367821504,-1367821504,-1367821504,-1367821464,520561732,-423966206,-1367821464,-0.0229527,-0.261799,0,-1.5,nan,0,0,0,1.50681,-0.040832
840,-3.21152e-12,2.84962e-38,-1.55412e-06,-3.27738e-12,2.84938e-38,0,-1.06611e-13,0,0,-3.18657,-0.187803,0.46384,1.51014,-0.0352677,0.0404114,0.0676021,0,1.46291,-0.165267,-1367821504,-1367821504,-1367821504,-1367821504,-1367821464,520561732,-423966206,-1367821464,-0.0265506,-0.261799,0,-1.5,nan,0,0,0,1.51014,-0.0352677
850,-3.21152e-12,2.84962e-38,-1.55412e-06,-3.27738e-12,2.84938e-38,-3.40902e-12,-1.06612e-13,0,0,-3.18657,-0.187803,0.46384,1.51078,-0.0341918,0.040089,0.0670628,0,1.46291,-0.165267,-1367821504,-1367821504,-1367821504,-1367821504,-1367821464,520561732,-423966206,-1367821464,-0.0272637,-0.261799,0,-1.5,nan,0,0,0,1.51078,-0.0341918
860,-3.21152e-12,2.84962e-38,-1.55412e-06,-3.27738e-12,2.84938e-38,0,-1.06612e-13,0,0,-3.18657,-0.187803,0.46384,1.51388,-0.0290189,0.0384921,0.0643915,0,1.46291,-0.165267,-1367821504,-1367821504,-1367821504,-1367821504,-1367821464,520561732,-423966206,-1367821464,-0.0306136,-0.261799,0,-1.5,nan,0,0,0,1.51388,-0.0290189
870,-3.21152e-12,2.84962e-38,-1.55412e-06,-3.27738e-12,2.84938e-38,-3.40902e-12,-1.06612e-13,0,0,-3.22866,-0.195614,0.468681,1.51691,-0.0239354,0.0369198,0.0617613,0,1.41619,-0.172141,-1367821504,-1367821504,-1367821504,-1367821504,-1367821464,520561732,-423966206,-1367821464,-0.0339007,-0.261799,0,-1.5,nan,0,0,0,1.51691,-0.0239354
880,-3.21152e-12,2.84962e-38,-1.55412e-06,-3.27738e-12,2.84938e-38,0,-1.06612e-13,0,0,-3.22866,-0.195614,0.468681,1.51768,-0.022648,0.0365334,0.0611148,0,1.41619,-0.172141,-1367821504,-1367821504,-1367821504,-1367821504,-1367821464,520561732,-423966206,-1367821464,-0.0347526,-0.261799,0,-1.5,nan,0,0,0,1.51768,-0.022648
890,-3.21152e-12,2.84962e-38,-1.55412e-06,-3.27738e-12,2.84938e-38,-3.40902e-12,-1.06613e-13,0,0,-3.22866,-0.195614,0.468681,1.52057,-0.0178232,0.0350411,0.0586185,0,1.41619,-0.172141,-1367821504,-1367821504,-1367821504,-1367821504,-1367821464,520561732,-423966206,-1367821464,-0.0378723,-0.261799,0,-1.5,nan,0,0,0,1.52057,-0.0178232
900,-3.21152e-12,2.84962e-38,-1.55412e-06,-3.27738e-12,2.84938e-38,0,-1.06613e-13,0,0,-3.22866,-0.195614,0.468681,1.52334,-0.0131934,0.0336104,0.0562252,0,1.41619,-0.172141,-1367821504,-1367821504,-1367821504,-1367821504,-1367821464,520561732,-423966206,-1367821464,-0.0408681,-0.261799,0,-1.5,nan,0,0,0,1.52334,-0.0131934
910,-3.21152e-12,2.84962e-38,-1.55412e-06,-3.27738e-12,2.84938e-38,-3.40902e-12,-1.06613e-13,0,0,-3.22866,-0.195614,0.468681,1.52404,-0.0120215,0.0332586,0.0556366,0,1.41619,-0.172141,-1367821504,-1367821504,-1367821504,-1367821504,-1367821464,520561732,-423966206,-1367821464,-0.0416437,-0.261799,0,-1.5,nan,0,0,0,1.52404,-0.0120215
920,-3.21152e-12,2.84962e-38,-1.55412e-06,-3.27738e-12,2.84938e-38,0,-1.06613e-13,0,0,-3.22866,-0.195614,0.468681,1.52706,-0.00696696,0.0316848,0.0530039,0,1.41619,-0.172141,-1367821504,-1367821504,-1367821504,-1367821504,-1367821464,520561732,-423966206,-1367821464,-0.0448944,-0.261799,0,-1.5,nan,0,0,0,1.52706,-0.00696696
930,-3.21152e-12,2.84962e-38,-1.55412e-06,-3.27738e-12,2.84938e-38,-3.40902e-12,-1.06614e-13,0,0,-3.22866,-0.195614,0.468681,1.52959,-0.00273363,0.0303748,0.0508125,0,1.41619,-0.172141,-1367821504,-1367821504,-1367821504,-1367821504,-1367821464,520561732,-423966206,-1367821464,-0.0476305,-0.261799,0,-1.5,nan,0,0,0,1.52959,-0.00273363
940,-3.21152e-12,2.84962e-38,-1.55412e-06,-3.27738e-12,2.84938e-38,0,-1.06614e-13,0,0,-3.22866,-0.195614,0.468681,1.53022,-0.00167451,0.0300568,0.0502806,0,1.41619,-0.172141,-1367821504,-1367821504,-1367821504,-1367821504,-1367821464,520561732,-423966206,-1367821464,-0.0483314,-0.261799,0,-1.5,nan,0,0,0,1.53022,-0.00167451
950,-3.21152e-12,2.84962e-38,-1.55412e-06,-3.27738e-12,2.84938e-38,-3.40902e-12,-1.06614e-13,0,0,-3.22866,-0.195614,0.468681,1.53265,0.00238944,0.0287997,0.0481776,0,1.41619,-0.172141,-1367821504,-1367821504,-1367821504,-1367821504,-1367821464,520561732,-423966206,-1367821464,-0.0509589,-0.261799,0,-1.5,nan,0,0,0,1.53265,0.00238944
960,-3.21152e-12,2.84962e-38,-1.55412e-06,-3.27738e-12,2.84938e-38,0,-1.06615e-13,0,0,-3.22866,-0.195614,0.468681,1.5349,0.00614846,0.0276377,0.0462337,0,1.41619,-0.172141,-1367821504,-1367821504,-1367821504,-1367821504,-1367821464,520561732,-423966206,-1367821464,-0.0533905,-0.261799,0,-1.5,nan,0,0,0,1.5349,0.00614846
970,-3.21152e-12,2.84962e-38,-1.55412e-06,-3.27738e-12,2.84938e-38,-3.40902e-12,-1.06615e-13,0,0,-3.22866,-0.195614,0.468681,1.53536,0.00692998,0.0274035,0.0458419,0,1.41619,-0.172141,-1367821504,-1367821504,-1367821504,-1367821504,-1367821464,520561732,-423966206,-1367821464,-0.0539083,-0.261799,0,-1.5,nan,0,0,0,1.53536,0.00692998
980,-3.21152e-12,2.84962e-38,-1.55412e-06,-3.27738e-12,2.84938e-38,0,-1.06615e-13,0,0,-3.22866,-0.195614,0.468681,1.53745,0.010422,0.0263251,0.0440379,0,1.41619,-0.172141,-1367821504,-1367821504,-1367821504,-1367821504,-1367821464,520561732,-423966206,-1367821464,-0.0561691,-0.261799,0,-1.5,nan,0,0,0,1.53745,0.010422
990,-3.21152e-12,2.84962e-38,-1.55412e-06,-3.27738e-12,2.84938e-38,-3.40902e-12,-1.06615e-13,0,0,-3.22866,-0.195614,0.468681,1.538,0.0113399,0.0260495,0.0435769,0,1.41619,-0.172141,-1367821504,-1367821504,-1367821504,-1367821504,-1367821464,520561732,-423966206,-1367821464,-0.0567765,-0.261799,0,-1.5,nan,0,0,0,1.538,0.0113399
1000,-3.21152e-12,2.84962e-38,-1.55412e-06,-3.27738e-12,2.84938e-38,0,-1.06616e-13,0,0,-3.22866,-0.195614,0.468681,1.54011,0.0148621,0.02496,0.0417543,0,1.41619,-0.172141,-1367821504,-1367821504,-1367821504,-1367821504,-1367821464,520561732,-423966206,-1367821464,-0.0590537,-0.261799,0,-1.5,nan,0,0,0,1.54011,0.0148621
1010,-3.21152e-12,2.84962e-38,-1.55412e-06,-3.27738e-12,2.84938e-38,-3.40902e-12,-1.06616e-13,0,0,-3.22866,-0.195614,0.468681,1.54182,0.0177337,0.0240776,0.0402782,0,1.41619,-0.172141,-1367821504,-1367821504,-1367821504,-1367821504,-1367821464,520561732,-423966206,-1367821464,-0.0609201,-0.261799,0,-1.5,nan,0,0,0,1.54182,0.0177337
1020,-3.21152e-12,2.84962e-38,-1.55412e-06,-3.27738e-12,2.84938e-38,0,-1.06616e-13,0,0,-3.22866,-0.195614,0.468681,1.54233,0.0185734,0.0238256,0.0398566,0,1.41619,-0.172141,-1367821504,-1367821504,-1367821504,-1367821504,-1367821464,520561732,-423966206,-1367821464,-0.061476,-0.261799,0,-1.5,nan,0,0,0,1.54233,0.0185734
1030,-3.21152e-12,2.84962e-38,-1.55412e-06,-3.27738e-12,2.84938e-38,-3.40902e-12,-1.06616e-13,0,0,-3.22866,-0.195614,0.468681,1.54331,0.0202182,0.023327,0.0390226,0,1.41619,-0.172141,-1367821504,-1367821504,-1367821504,-1367821504,-1367821464,520561732,-423966206,-1367821464,-0.0625565,-0.261799,0,-1.5,nan,0,0,0,1.54331,0.0202182
1040,-3.21152e-12,2.84962e-38,-1.55412e-06,-3.27738e-12,2.84938e-38,0,-1.06617e-13,0,0,-3.22866,-0.195614,0.468681,1.54519,0.0233722,0.0223514,0.0373905,0,1.41619,-0.172141,-1367821504,-1367821504,-1367821504,-1367821504,-1367821464,520561732,-423966206,-1367821464,-0.0645957,-0.261799,0,-1.5,nan,0,0,0,1.54519,0.0233722
1050,-3.21152e-12,2.84962e-38,-1.55412e-06,-3.27738e-12,2.84938e-38,-3.40902e-12,-1.06617e-13,0,0,-3.22866,-0.195614,0.468681,1.54566,0.0241516,0.0221174,0.0369991,0,1.41619,-0.172141,-1367821504,-1367821504,-1367821504,-1367821504,-1367821464,520561732,-423966206,-1367821464,-0.0651114,-0.261799,0,-1.5,nan,0,0,0,1.54566,0.0241516
1060,-3.21152e-12,2.84962e-38,-1.55412e-06,-3.27738e-12,2.84938e-38,0,-1.06617e-13,0,0,-3.22866,-0.195614,0.468681,1.54745,0.0271407,0.021192,0.035451,0,1.41619,-0.172141,-1367821504,-1367821504,-1367821504,-1367821504,-1367821464,520561732,-423966206,-1367821464,-0.0670426,-0.261799,0,-1.5,nan,0,0,0,1.54745,0.0271407
1070,-3.21152e-12,2.84962e-38,-1.55412e-06,-3.27738e-12,2.84938e-38,-3.40902e-12,-1.06618e-13,0,0,-3.22866,-0.195614,0.468681,1.54912,0.0299407,0.0203267,0.0340036,0,1.41619,-0.172141,-1367821504,-1367821504,-1367821504,-1367821504,-1367821464,520561732,-423966206,-1367821464,-0.0688544,-0.261799,0,-1.5,nan,0,0,0,1.54912,0.0299407
1080,-3.21152e-12,2.84962e-38,-1.55412e-06,-3.27738e-12,2.84938e-38,0,-1.06618e-13,0,0,-3.22866,-0.195614,0.468681,1.55008,0.0315395,0.0198406,0.0331904,0,1.41619,-0.172141,-1367821504,-1367821504,-1367821504,-1367821504,-1367821464,520561732,-423966206,-1367821464,-0.0699023,-0.261799,0,-1.5,nan,0,0,0,1.55008,0.0315395
1090,-3.21152e-12,2.84962e-38,-1.55412e-06,-3.27738e-12,2.84938e-38,-3.40902e-12,-1.06618e-13,0,0,-3.22866,-0.195614,0.468681,1.55168,0.0342222,0.0190108,0.0318023,0,1.41619,-0.172141,-1367821504,-1367821504,-1367821504,-1367821504,-1367821464,520561732,-423966206,-1367821464,-0.0716367,-0.261799,0,-1.5,nan,0,0,0,1.55168,0.0342222
1100,-3.21152e-12,2.84962e-38,-1.55412e-06,-3.27738e-12,2.84938e-38,0,-1.06618e-13,0,0,-3.22866,-0.195614,0.468681,1.55219,0.035072,0.018755,0.0313743,0,1.41619,-0.172141,-1367821504,-1367821504,-1367821504,-1367821504,-1367821464,520561732,-423966206,-1367821464,-0.072198,-0.261799,0,-1.5,nan,0,0,0,1.55219,0.035072
1110,-3.21152e-12,2.84962e-38,-1.55412e-06,-3.27738e-12,2.84938e-38,-3.40902e-12,-1.06619e-13,0,0,-3.22866,-0.195614,0.468681,1.55362,0.037462,0.018017,0.0301397,0,1.41619,-0.172141,-1367821504,-1367821504,-1367821504,-1367821504,-1367821464,520561732,-423966206,-1367821464,-0.0737453,-0.261799,0,-1.5,nan,0,0,0,1.55362,0.037462
1120,-3.21152e-12,2.84962e-38,-1.55412e-06,-3.27738e-12,2.84938e-38,0,-1.06619e-13,0,0,-3.22866,-0.195614,0.468681,1.55501,0.0397858,0.017299,0.0289386,0,1.41619,-0.172141,-1367821504,-1367821504,-1367821504,-1367821504,-1367821464,520561732,-423966206,-1367821464,-0.0752491,-0.261799,0,-1.5,nan,0,0,0,1.55501,0.0397858
1130,-3.21152e-12,2.84962e-38,-1.55412e-06,-3.27738e-12,2.84938e-38,-3.40902e-12,-1.06619e-13,0,0,-3.22866,-0.195614,0.468681,1.5554,0.040446,0.0171007,0.0286069,0,1.41619,-0.172141,-1367821504,-1367821504,-1367821504,-1367821504,-1367821464,520561732,-423966206,-1367821464,-0.0756859,-0.261799,0,-1.5,nan,0,0,0,1.5554,0.040446
1140,-3.21152e-12,2.84962e-38,-1.55412e-06,-3.27738e-12,2.84938e-38,0,-1.06619e-13,0,0,-3.22866,-0.195614,0.468681,1.55677,0.0427308,0.0163937,0.0274242,0,1.41619,-0.172141,-1367821504,-1367821504,-1367821504,-1367821504,-1367821464,520561732,-423966206,-1367821464,-0.0771626,-0.261799,0,-1.5,nan,0,0,0,1.55677,0.0427308
1150,-3.21152e-12,2.84962e-38,-1.55412e-06,-3.27738e-12,2.84938e-38,-3.40902e-12,-1.0662e-13,0,0,-3.22866,-0.195614,0.468681,1.55806,0.0448958,0.0157241,0.026304,0,1.41619,-0.172141,-1367821504,-1367821504,-1367821504,-1367821504,-1367821464,520561732,-423966206,-1367821464,-0.0785626,-0.261799,0,-1.5,nan,0,0,0,1.55806,0.0448958
1160,-3.21152e-12,2.84962e-38,-1.55412e-06,-3.27738e-12,2.84938e-38,0,-1.0662e-13,0,0,-3.22866,-0.195614,0.468681,1.55839,0.0454443,0.0155595,0.0260287,0,1.41619,-0.172141,-1367821504,-1367821504,-1367821504,-1367821504,-1367821464,520561732,-423966206,-1367821464,-0.0789256,-0.261799,0,-1.5,nan,0,0,0,1.55839,0.0454443
1170,-3.21152e-12,2.84962e-38,-1.55412e-06,-3.27738e-12,2.84938e-38,-3.40902e-12,-1.0662e-13,0,0,-3.22866,-0.195614,0.468681,1.55962,0.0474991,0.014924,0.0249656,0,1.41619,-0.172141,-1367821504,-1367821504,-1367821504,-1367821504,-1367821464,520561732,-423966206,-1367821464,-0.0802543,-0.261799,0,-1.5,nan,0,0,0,1.55962,0.0474991
1180,-3.21152e-12,2.84962e-38,-1.55412e-06,-3.27738e-12,2.84938e-38,0,-1.0662e-13,0,0,-3.22866,-0.195614,0.468681,1.56078,0.049447,0.0143218,0.0239582,0,1.41619,-0.172141,-1367821504,-1367821504,-1367821504,-1367821504,-1367821464,520561732,-423966206,-1367821464,-0.0815144,-0.261799,0,-1.5,nan,0,0,0,1.56078,0.049447
1190,-3.21152e-12,2.84962e-38,-1.55412e-06,-3.27738e-12,2.84938e-38,-3.40902e-12,-1.06621e-13,0,0,-3.22866,-0.195614,0.468681,1.56109,0.04997,0.0141648,0.0236955,0,1.41619,-0.172141,-1367821504,-1367821504,-1367821504,-1367821504,-1367821464,520561732,-423966206,-1367821464,-0.0818603,-0.261799,0,-1.5,nan,0,0,0,1.56109,0.04997
1200,-3.21152e-12,2.84962e-38,-1.55412e-06,-3.27738e-12,2.84938e-38,0,-1.06621e-13,0,0,-3.22866,-0.195614,0.468681,1.5622,0.0518188,0.0135932,0.0227395,0,1.41619,-0.172141,-1367821504,-1367821504,-1367821504,-1367821504,-1367821464,520561732,-423966206,-1367821464,-0.0830563,-0.261799,0,-1.5,nan,0,0,0,1.5622,0.0518188
1210,-3.21152e-12,2.84962e-38,-1.55412e-06,-3.27738e-12,2.84938e-38,-3.40902e-12,-1.06621e-13,0,0,-3.22866,-0.195614,0.468681,1.56251,0.0523376,0.0134375,0.0224788,0,1.41619,-0.172141,-1367821504,-1367821504,-1367821504,-1367821504,-1367821464,520561732,-423966206,-1367821464,-0.0833995,-0.261799,0,-1.5,nan,0,0,0,1.56251,0.0523376
1220,-3.21152e-12,2.84962e-38,-1.55412e-06,-3.27738e-12,2.84938e-38,0,-1.06622e-13,0,0,-3.22866,-0.195614,0.468681,1.56355,0.0540715,0.0129022,0.0215834,0,1.41619,-0.172141,-1367821504,-1367821504,-1367821504,-1367821504,-1367821464,520561732,-423966206,-1367821464,-0.0845224,-0.261799,0,-1.5,nan,0,0,0,1.56355,0.0540715
1230,-3.21152e-12,2.84962e-38,-1.55412e-06,-3.27738e-12,2.84938e-38,-3.40902e-12,-1.06622e-13,0,0,-3.22866,-0.195614,0.468681,1.56454,0.0557356,0.012388,0.0207233,0,1.41619,-0.172141,-1367821504,-1367821504,-1367821504,-1367821504,-1367821464,520561732,-423966206,-1367821464,-0.0855993,-0.261799,0,-1.5,nan,0,0,0,1.56454,0.0557356
1240,-3.21152e-12,2.84962e-38,-1.55412e-06,-3.27738e-12,2.84938e-38,0,-1.06622e-13,0,0,-3.22866,-0.195614,0.468681,1.56481,0.0561879,0.0122522,0.0204961,0,1.41619,-0.172141,-1367821504,-1367821504,-1367821504,-1367821504,-1367821464,520561732,-423966206,-1367821464,-0.0858985,-0.261799,0,-1.5,nan,0,0,0,1.56481,0.0561879
1250,-3.21152e-12,2.84962e-38,-1.55412e-06,-3.27738e-12,2.84938e-38,-3.40902e-12,-1.06622e-13,0,0,-3.22866,-0.195614,0.468681,1.56579,0.0578256,0.0117459,0.019649,0,1.41619,-0.172141,-1367821504,-1367821504,-1367821504,-1367821504,-1367821464,520561732,-423966206,-1367821464,-0.0869578,-0.261799,0,-1.5,nan,0,0,0,1.56579,0.0578256
1260,-3.21152e-12,2.84962e-38,-1.55412e-06,-3.27738e-12,2.84938e-38,0,-1.06623e-13,0,0,-3.22866,-0.195614,0.468681,1.56672,0.0593768,0.0112661,0.0188465,0,1.41619,-0.172141,-1367821504,-1367821504,-1367821504,-1367821504,-1367821464,520561732,-423966206,-1367821464,-0.0879608,-0.261799,0,-1.5,nan,0,0,0,1.56672,0.0593768
1270,-3.21152e-12,2.84962e-38,-1.55412e-06,-3.27738e-12,2.84938e-38,-3.40902e-12,-1.06623e-13,0,0,-3.22866,-0.195614,0.468681,1.56695,0.0597698,0.0111482,0.0186492,0,1.41619,-0.172141,-1367821504,-1367821504,-1367821504,-1367821504,-1367821464,520561732,-423966206,-1367821464,-0.0882209,-0.261799,0,-1.5,nan,0,0,0,1.56695,0.0597698
1280,-3.21152e-12,2.84962e-38,-1.55412e-06,-3.27738e-12,2.84938e-38,0,-1.06623e-13,0,0,-3.22866,-0.195614,0.468681,1.5677,0.0610169,0.010765,0.0180082,0,1.41619,-0.172141,-1367821504,-1367821504,-1367821504,-1367821504,-1367821464,520561732,-423966206,-1367821464,-0.0890316,-0.261799,0,-1.5,nan,0,0,0,1.5677,0.0610169
1290,-3.21152e-12,2.84962e-38,-1.55412e-06,-3.27738e-12,2.84938e-38,-3.40902e-12,-1.06623e-13,0,0,-3.22866,-0.195614,0.468681,1.56813,0.0617427,0.0105451,0.0176403,0,1.41619,-0.172141,-1367821504,-1367821504,-1367821504,-1367821504,-1367821464,520561732,-423966206,-1367821464,-0.0895086,-0.261799,0,-1.5,nan,0,0,0,1.56813,0.0617427
1300,-3.21152e-12,2.84962e-38,-1.55412e-06,-3.27738e-12,2.84938e-38,0,-1.06624e-13,0,0,-3.22866,-0.195614,0.468681,1.56837,0.0621451,0.0104242,0.0174381,0,1.41619,-0.172141,-1367821504,-1367821504,-1367821504,-1367821504,-1367821464,520561732,-423966206,-1367821464,-0.0897747,-0.261799,0,-1.5,nan,0,0,0,1.56837,0.0621451
1310,-3.21152e-12,2.84962e-38,-1.55412e-06,-3.27738e-12,2.84938e-38,-3.40902e-12,-1.06624e-13,0,0,-3.22866,-0.195614,0.468681,1.56919,0.0635218,0.0099984,0.0167258,0,1.41619,-0.172141,-1367821504,-1367821504,-1367821504,-1367821504,-1367821464,520561732,-423966206,-1367821464,-0.0906648,-0.261799,0,-1.5,nan,0,0,0,1.56919,0.0635218
1320,-3.21152e-12,2.84962e-38,-1.55412e-06,-3.27738e-12,2.84938e-38,0,-1.06624e-13,0,0,-3.22866,-0.195614,0.468681,1.56942,0.0639033,0.00988381,0.0165341,0,1.41619,-0.172141,-1367821504,-1367821504,-1367821504,-1367821504,-1367821464,520561732,-423966206,-1367821464,-0.0909173,-0.261799,0,-1.5,nan,0,0,0,1.56942,0.0639033
1330,-3.21152e-12,2.84962e-38,-1.55412e-06,-3.27738e-12,2.84938e-38,-3.40902e-12,-1.06625e-13,0,0,-3.22866,-0.195614,0.468681,1.5702,0.0652092,0.00948027,0.0158591,0,1.41619,-0.172141,-1367821504,-1367821504,-1367821504,-1367821504,-1367821464,520561732,-423966206,-1367821464,-0.0917623,-0.261799,0,-1.5,nan,0,0,0,1.5702,0.0652092
1340,-3.21152e-12,2.84962e-38,-1.55412e-06,-3.27738e-12,2.84938e-38,0,-1.06625e-13,0,0,-3.22866,-0.195614,0.468681,1.57096,0.0664759,0.00908831,0.0152034,0,1.41619,-0.172141,-1367821504,-1367821504,-1367821504,-1367821504,-1367821464,520561732,-423966206,-1367821464,-0.092581,-0.261799,0,-1.5,nan,0,0,0,1.57096,0.0664759
1350,-3.21152e-12,2.84962e-38,-1.55412e-06,-3.27738e-12,2.84938e-38,-3.40902e-12,-1.06625e-13,0,0,-3.22866,-0.195614,0.468681,1.57111,0.0667329,0.0090113,0.0150745,0,1.41619,-0.172141,-1367821504,-1367821504,-1367821504,-1367821504,-1367821464,520561732,-423966206,-1367821464,-0.0927513,-0.261799,0,-1.5,nan,0,0,0,1.57111,0.0667329
1360,-3.21152e-12,2.84962e-38,-1.55412e-06,-3.27738e-12,2.84938e-38,0,-1.06625e-13,0,0,-3.22866,-0.195614,0.468681,1.57179,0.0678673,0.00866117,0.0144888,0,1.41619,-0.172141,-1367821504,-1367821504,-1367821504,-1367821504,-1367821464,520561732,-423966206,-1367821464,-0.093486,-0.261799,0,-1.5,nan,0,0,0,1.57179,0.0678673
1370,-3.21152e-12,2.84962e-38,-1.55412e-06,-3.27738e-12,2.84938e-38,-3.40902e-12,-1.06626e-13,0,0,-3.22866,-0.195614,0.468681,1.57248,0.0690111,0.00830739,0.013897,0,1.41619,-0.172141,-1367821504,-1367821504,-1367821504,-1367821504,-1367821464,520561732,-423966206,-1367821464,-0.0942256,-0.261799,0,-1.5,nan,0,0,0,1.57248,0.0690111
1380,-3.21152e-12,2.84962e-38,-1.55412e-06,-3.27738e-12,2.84938e-38,0,-1.06626e-13,0,0,-3.22866,-0.195614,0.468681,1.57265,0.0693009,0.00822045,0.0137516,0,1.41619,-0.172141,-1367821504,-1367821504,-1367821504,-1367821504,-1367821464,520561732,-423966206,-1367821464,-0.0944175,-0.261799,0,-1.5,nan,0,0,0,1.57265,0.0693009
1390,-3.21152e-12,2.84962e-38,-1.55412e-06,-3.27738e-12,2.84938e-38,-3.40902e-12,-1.06626e-13,0,0,-3.22866,-0.195614,0.468681,1.57329,0.0703738,0.00788877,0.0131967,0,1.41619,-0.172141,-1367821504,-1367821504,-1367821504,-1367821504,-1367821464,520561732,-423966206,-1367821464,-0.0951115,-0.261799,0,-1.5,nan,0,0,0,1.57329,0.0703738
1400,-3.21152e-12,2.84962e-38,-1.55412e-06,-3.27738e-12,2.84938e-38,0,-1.06626e-13,0,0,-3.22866,-0.195614,0.468681,1.57391,0.0714157,0.00756655,0.0126577,0,1.41619,-0.172141,-1367821504,-1367821504,-1367821504,-1367821504,-1367821464,520561732,-423966206,-1367821464,-0.0957852,-0.261799,0,-1.5,nan,0,0,0,1.57391,0.0714157
1410,-3.21152e-12,2.84962e-38,-1.55412e-06,-3.27738e-12,2.84938e-38,-3.40902e-12,-1.06627e-13,0,0,-3.22866,-0.195614,0.468681,1.57409,0.0717044,0.00747982,0.0125126,0,1.41619,-0.172141,-1367821504,-1367821504,-1367821504,-1367821504,-1367821464,520561732,-423966206,-1367821464,-0.0959762,-0.261799,0,-1.5,nan,0,0,0,1.57409,0.0717044
1420,-3.21152e-12,2.84962e-38,-1.55412e-06,-3.27738e-12,2.84938e-38,0,-1.06627e-13,0,0,-3.22866,-0.195614,0.468681,1.57468,0.0726927,0.00717443,0.0120017,0,1.41619,-0.172141,-1367821504,-1367821504,-1367821504,-1367821504,-1367821464,520561732,-423966206,-1367821464,-0.0966157,-0.261799,0,-1.5,nan,0,0,0,1.57468,0.0726927
1430,-3.21152e-12,2.84962e-38,-1.55412e-06,-3.27738e-12,2.84938e-38,-3.40902e-12,-1.06627e-13,0,0,-3.22866,-0.195614,0.468681,1.57524,0.0736402,0.00688139,0.0115115,0,1.41619,-0.172141,-1367821504,-1367821504,-1367821504,-1367821504,-1367821464,520561732,-423966206,-1367821464,-0.0972284,-0.261799,0,-1.5,nan,0,0,0,1.57524,0.0736402
1440,-3.21152e-12,2.84962e-38,-1.55412e-06,-3.27738e-12,2.84938e-38,0,-1.06628e-13,0,0,-3.22866,-0.195614,0.468681,1.57539,0.0738802,0.00680937,0.011391,0,1.41619,-0.172141,-1367821504,-1367821504,-1367821504,-1367821504,-1367821464,520561732,-423966206,-1367821464,-0.0973872,-0.261799,0,-1.5,nan,0,0,0,1.57539,0.0738802
1450,-3.21152e-12,2.84962e-38,-1.55412e-06,-3.27738e-12,2.84938e-38,-3.40902e-12,-1.06628e-13,0,0,-3.22866,-0.195614,0.468681,1.57592,0.0747795,0.00653123,0.0109258,0,1.41619,-0.172141,-1367821504,-1367821504,-1367821504,-1367821504,-1367821464,520561732,-423966206,-1367821464,-0.0979687,-0.261799,0,-1.5,nan,0,0,0,1.57592,0.0747795
1460,-3.21152e-12,2.84962e-38,-1.55412e-06,-3.27738e-12,2.84938e-38,0,-1.06628e-13,0,0,-3.22866,-0.195614,0.468681,1.57606,0.0750073,0.00646288,0.0108114,0,1.41619,-0.172141,-1367821504,-1367821504,-1367821504,-1367821504,-1367821464,520561732,-423966206,-1367821464,-0.0981195,-0.261799,0,-1.5,nan,0,0,0,1.57606,0.0750073
1470,-3.21152e-12,2.84962e-38,-1.55412e-06,-3.27738e-12,2.84938e-38,-3.40902e-12,-1.06628e-13,0,0,-3.22866,-0.195614,0.468681,1.57658,0.0758807,0.00619246,0.010359,0,1.41619,-0.172141,-1367821504,-1367821504,-1367821504,-1367821504,-1367821464,520561732,-423966206,-1367821464,-0.0986838,-0.261799,0,-1.5,nan,0,0,0,1.57658,0.0758807
1480,-3.21152e-12,2.84962e-38,-1.55412e-06,-3.27738e-12,2.84938e-38,0,-1.06629e-13,0,0,-3.22866,-0.195614,0.468681,1.57706,0.0766794,0.00594569,0.00994623,0,1.41619,-0.172141,-1367821504,-1367821504,-1367821504,-1367821504,-1367821464,520561732,-423966206,-1367821464,-0.0992007,-0.261799,0,-1.5,nan,0,0,0,1.57706,0.0766794
1490,-3.21152e-12,2.84962e-38,-1.55412e-06,-3.27738e-12,2.84938e-38,-3.40902e-12,-1.06629e-13,0,0,-3.22866,-0.195614,0.468681,1.57718,0.0768769,0.00588641,0.00984707,0,1.41619,-0.172141,-1367821504,-1367821504,-1367821504,-1367821504,-1367821464,520561732,-423966206,-1367821464,-0.0993315,-0.261799,0,-1.5,nan,0,0,0,1.57718,0.0768769
1500,-3.21152e-12,2.84962e-38,-1.55412e-06,-3.27738e-12,2.84938e-38,0,-1.06629e-13,0,0,-3.22866,-0.195614,0.468681,1.57765,0.0776638,0.00564314,0.00944013,0,1.41619,-0.172141,-1367821504,-1367821504,-1367821504,-1367821504,-1367821464,520561732,-423966206,-1367821464,-0.0998404,-0.261799,0,-1.5,nan,0,0,0,1.57765,0.0776638
1510,-3.21152e-12,2.84962e-38,-1.55412e-06,-3.27738e-12,2.84938e-38,-3.40902e-12,-1.06629e-13,0,0,-3.22866,-0.195614,0.468681,1.57808,0.0783916,0.00541826,0.00906393,0,1.41619,-0.172141,-1367821504,-1367821504,-1367821504,-1367821504,-1367821464,520561732,-423966206,-1367821464,-0.100311,-0.261799,0,-1.5,nan,0,0,0,1.57808,0.0783916
1520,-3.21152e-12,2.84962e-38,-1.55412e-06,-3.27738e-12,2.84938e-38,0,-1.0663e-13,0,0,-3.22866,-0.195614,0.468681,1.5782,0.0785894,0.00535885,0.00896454,0,1.41619,-0.172141,-1367821504,-1367821504,-1367821504,-1367821504,-1367821464,520561732,-423966206,-1367821464,-0.100442,-0.261799,0,-1.5,nan,0,0,0,1.5782,0.0785894
1530,-3.21152e-12,2.84962e-38,-1.55412e-06,-3.27738e-12,2.84938e-38,-3.40902e-12,-1.0663e-13,0,0,-3.22866,-0.195614,0.468681,1.57862,0.0792971,0.00513996,0.00859837,0,1.41619,-0.172141,-1367821504,-1367821504,-1367821504,-1367821504,-1367821464,520561732,-423966206,-1367821464,-0.1009,-0.261799,0,-1.5,nan,0,0,0,1.57862,0.0792971
1540,-3.21152e-12,2.84962e-38,-1.55412e-06,-3.27738e-12,2.84938e-38,0,-1.0663e-13,0,0,-3.22866,-0.195614,0.468681,1.57896,0.0798644,0.00496592,0.00830723,0,1.41619,-0.172141,-1367821504,-1367821504,-1367821504,-1367821504,-1367821464,520561732,-423966206,-1367821464,-0.101269,-0.261799,0,-1.5,nan,0,0,0,1.57896,0.0798644
1550,-3.21152e-12,2.84962e-38,-1.55412e-06,-3.27738e-12,2.84938e-38,-3.40902e-12,-1.06631e-13,0,0,-3.22866,-0.195614,0.468681,1.57906,0.0800294,0.00491642,0.00822443,0,1.41619,-0.172141,-1367821504,-1367821504,-1367821504,-1367821504,-1367821464,520561732,-423966206,-1367821464,-0.101378,-0.261799,0,-1.5,nan,0,0,0,1.57906,0.0800294
1560,-3.21152e-12,2.84962e-38,-1.55412e-06,-3.27738e-12,2.84938e-38,0,-1.06631e-13,0,0,-3.22866,-0.195614,0.468681,1.57927,0.0803688,0.00481354,0.00805232,0,1.41619,-0.172141,-1367821504,-1367821504,-1367821504,-1367821504,-1367821464,520561732,-423966206,-1367821464,-0.101601,-0.261799,0,-1.5,nan,0,0,0,1.57927,0.0803688
1570,-3.21152e-12,2.84962e-38,-1.55412e-06,-3.27738e-12,2.84938e-38,-3.40902e-12,-1.06631e-13,0,0,-3.22866,-0.195614,0.468681,1.57937,0.0805367,0.00476316,0.00796805,0,1.41619,-0.172141,-1367821504,-1367821504,-1367821504,-1367821504,-1367821464,520561732,-423966206,-1367821464,-0.101712,-0.261799,0,-1.5,nan,0,0,0,1.57937,0.0805367
1580,-3.21152e-12,2.84962e-38,-1.55412e-06,-3.27738e-12,2.84938e-38,0,-1.06631e-13,0,0,-3.22866,-0.195614,0.468681,1.57947,0.0807106,0.00471094,0.00788069,0,1.41619,-0.172141,-1367821504,-1367821504,-1367821504,-1367821504,-1367821464,520561732,-423966206,-1367821464,-0.101828,-0.261799,0,-1.5,nan,0,0,0,1.57947,0.0807106
1590,-3.21152e-12,2.84962e-38,-1.55412e-06,-3.27738e-12,2.84938e-38,-3.40902e-12,-1.06632e-13,0,0,-3.22866,-0.195614,0.468681,1.57985,0.0813401,0.00451617,0.00755487,0,1.41619,-0.172141,-1367821504,-1367821504,-1367821504,-1367821504,-1367821464,520561732,-423966206,-1367821464,-0.102234,-0.261799,0,-1.5,nan,0,0,0,1.57985,0.0813401
1600,-3.21152e-12,2.84962e-38,-1.55412e-06,-3.27738e-12,2.84938e-38,0,-1.06632e-13,0,0,-3.22866,-0.195614,0.468681,1.57993,0.0814752,0.00447564,0.00748707,0,1.41619,-0.172141,-1367821504,-1367821504,-1367821504,-1367821504,-1367821464,520561732,-423966206,-1367821464,-0.102324,-0.261799,0,-1.5,nan,0,0,0,1.57993,0.0814752
1610,-3.21152e-12,2.84962e-38,-1.55412e-06,-3.27738e-12,2.84938e-38,-3.40902e-12,-1.06632e-13,0,0,-3.22866,-0.195614,0.468681,1.58031,0.0821144,0.00427723,0.00715515,0,1.41619,-0.172141,-1367821504,-1367821504,-1367821504,-1367821504,-1367821464,520561732,-423966206,-1367821464,-0.102736,-0.261799,0,-1.5,nan,0,0,0,1.58031,0.0821144
1620,-3.21152e-12,2.84962e-38,-1.55412e-06,-3.27738e-12,2.84938e-38,0,-1.06632e-13,0,0,-3.22866,-0.195614,0.468681,1.58065,0.0826793,0.00410252,0.00686289,0,1.41619,-0.172141,-1367821504,-1367821504,-1367821504,-1367821504,-1367821464,520561732,-423966206,-1367821464,-0.103101,-0.261799,0,-1.5,nan,0,0,0,1.58065,0.0826793
1630,-3.21152e-12,2.84962e-38,-1.55412e-06,-3.27738e-12,2.84938e-38,-3.40902e-12,-1.06633e-13,0,0,-3.22866,-0.195614,0.468681,1.58073,0.0828224,0.00405957,0.00679105,0,1.41619,-0.172141,-1367821504,-1367821504,-1367821504,-1367821504,-1367821464,520561732,-423966206,-1367821464,-0.103196,-0.261799,0,-1.5,nan,0,0,0,1.58073,0.0828224
1640,-3.21152e-12,2.84962e-38,-1.55412e-06,-3.27738e-12,2.84938e-38,0,-1.06633e-13,0,0,-3.22866,-0.195614,0.468681,1.58106,0.0833712,0.00388979,0.00650702,0,1.41619,-0.172141,-1367821504,-1367821504,-1367821504,-1367821504,-1367821464,520561732,-423966206,-1367821464,-0.103551,-0.261799,0,-1.5,nan,0,0,0,1.58106,0.0833712
1650,-3.21152e-12,2.84962e-38,-1.55412e-06,-3.27738e-12,2.84938e-38,-3.40902e-12,-1.06633e-13,0,0,-3.22866,-0.195614,0.468681,1.58136,0.0838729,0.00373478,0.00624772,0,1.41619,-0.172141,-1367821504,-1367821504,-1367821504,-1367821504,-1367821464,520561732,-423966206,-1367821464,-0.103875,-0.261799,0,-1.5,nan,0,0,0,1.58136,0.0838729
1660,-3.21152e-12,2.84962e-38,-1.55412e-06,-3.27738e-12,2.84938e-38,0,-1.06634e-13,0,0,-3.22866,-0.195614,0.468681,1.58144,0.0840093,0.00369383,0.00617922,0,1.41619,-0.172141,-1367821504,-1367821504,-1367821504,-1367821504,-1367821464,520561732,-423966206,-1367821464,-0.103966,-0.261799,0,-1.5,nan,0,0,0,1.58144,0.0840093
1670,-3.21152e-12,2.84962e-38,-1.55412e-06,-3.27738e-12,2.84938e-38,-3.40902e-12,-1.06634e-13,0,0,-3.22866,-0.195614,0.468681,1.58174,0.0845029,0.00354111,0.00592375,0,1.41619,-0.172141,-1367821504,-1367821504,-1367821504,-1367821504,-1367821464,520561732,-423966206,-1367821464,-0.104285,-0.261799,0,-1.5,nan,0,0,0,1.58174,0.0845029
1680,-3.21152e-12,2.84962e-38,-1.55412e-06,-3.27738e-12,2.84938e-38,0,-1.06634e-13,0,0,-3.22866,-0.195614,0.468681,1.58202,0.0849707,0.00339653,0.00568189,0,1.41619,-0.172141,-1367821504,-1367821504,-1367821504,-1367821504,-1367821464,520561732,-423966206,-1367821464,-0.104587,-0.261799,0,-1.5,nan,0,0,0,1.58202,0.0849707
1690,-3.21152e-12,2.84962e-38,-1.55412e-06,-3.27738e-12,2.84938e-38,-3.40902e-12,-1.06634e-13,0,0,-3.22866,-0.195614,0.468681,1.58208,0.0850836,0.00336267,0.00562524,0,1.41619,-0.172141,-1367821504,-1367821504,-1367821504,-1367821504,-1367821464,520561732,-423966206,-1367821464,-0.104662,-0.261799,0,-1.5,nan,0,0,0,1.58208,0.0850836
1700,-3.21152e-12,2.84962e-38,-1.55412e-06,-3.27738e-12,2.84938e-38,0,-1.06635e-13,0,0,-3.22866,-0.195614,0.468681,1.58235,0.0855279,0.00322538,0.00539557,0,1.41619,-0.172141,-1367821504,-1367821504,-1367821504,-1367821504,-1367821464,520561732,-423966206,-1367821464,-0.10495,-0.261799,0,-1.5,nan,0,0,0,1.58235,0.0855279
1710,-3.21152e-12,2.84962e-38,-1.55412e-06,-3.27738e-12,2.84938e-38,-3.40902e-12,-1.06635e-13,0,0,-3.22866,-0.195614,0.468681,1.58241,0.085635,0.00319322,0.00534178,0,1.41619,-0.172141,-1367821504,-1367821504,-1367821504,-1367821504,-1367821464,520561732,-423966206,-1367821464,-0.105021,-0.261799,0,-1.5,nan,0,0,0,1.58241,0.085635
1720,-3.21152e-12,2.84962e-38,-1.55412e-06,-3.27738e-12,2.84938e-38,0,-1.06635e-13,0,0,-3.22866,-0.195614,0.468681,1.58267,0.0860567,0.00306279,0.00512358,0,1.41619,-0.172141,-1367821504,-1367821504,-1367821504,-1367821504,-1367821464,520561732,-423966206,-1367821464,-0.105293,-0.261799,0,-1.5,nan,0,0,0,1.58267,0.0860567
1730,-3.21152e-12,2.84962e-38,-1.55412e-06,-3.27738e-12,2.84938e-38,-3.40902e-12,-1.06635e-13,0,0,-3.22866,-0.195614,0.468681,1.5829,0.086447,0.00294226,0.00492196,0,1.41619,-0.172141,-1367821504,-1367821504,-1367821504,-1367821504,-1367821464,520561732,-423966206,-1367821464,-0.105546,-0.261799,0,-1.5,nan,0,0,0,1.5829,0.086447
1740,-3.21152e-12,2.84962e-38,-1.55412e-06,-3.27738e-12,2.84938e-38,0,-1.06636e-13,0,0,-3.22866,-0.195614,0.468681,1.58296,0.0865448,0.00291293,0.00487289,0,1.41619,-0.172141,-1367821504,-1367821504,-1367821504,-1367821504,-1367821464,520561732,-423966206,-1367821464,-0.105611,-0.261799,0,-1.5,nan,0,0,0,1.58296,0.0865448
1750,-3.21152e-12,2.84962e-38,-1.55412e-06,-3.27738e-12,2.84938e-38,-3.40902e-12,-1.06636e-13,0,0,-3.22866,-0.195614,0.468681,1.58319,0.0869341,0.00279255,0.00467151,0,1.41619,-0.172141,-1367821504,-1367821504,-1367821504,-1367821504,-1367821464,520561732,-423966206,-1367821464,-0.105862,-0.261799,0,-1.5,nan,0,0,0,1.58319,0.0869341
1760,-3.21152e-12,2.84962e-38,-1.55412e-06,-3.27738e-12,2.84938e-38,0,-1.06636e-13,0,0,-3.22866,-0.195614,0.468681,1.5834,0.08729,0.00268265,0.00448768,0,1.41619,-0.172141,-1367821504,-1367821504,-1367821504,-1367821504,-1367821464,520561732,-423966206,-1367821464,-0.106093,-0.261799,0,-1.5,nan,0,0,0,1.5834,0.08729
1770,-3.21152e-12,2.84962e-38,-1.55412e-06,-3.27738e-12,2.84938e-38,-3.40902e-12,-1.06636e-13,0,0,-3.22866,-0.195614,0.468681,1.58346,0.0873924,0.0026519,0.00443623,0,1.41619,-0.172141,-1367821504,-1367821504,-1367821504,-1367821504,-1367821464,520561732,-423966206,-1367821464,-0.106161,-0.261799,0,-1.5,nan,0,0,0,1.58346,0.0873924
1780,-3.21152e-12,2.84962e-38,-1.55412e-06,-3.27738e-12,2.84938e-38,0,-1.06637e-13,0,0,-3.22866,-0.195614,0.468681,1.58367,0.0877387,0.00254495,0.00425731,0,1.41619,-0.172141,-1367821504,-1367821504,-1367821504,-1367821504,-1367821464,520561732,-423966206,-1367821464,-0.106385,-0.261799,0,-1.5,nan,0,0,0,1.58367,0.0877387
1790,-3.21152e-12,2.84962e-38,-1.55412e-06,-3.27738e-12,2.84938e-38,-3.40902e-12,-1.06637e-13,0,0,-3.22866,-0.195614,0.468681,1.58387,0.0880708,0.00244226,0.00408554,0,1.41619,-0.172141,-1367821504,-1367821504,-1367821504,-1367821504,-1367821464,520561732,-423966206,-1367821464,-0.1066,-0.261799,0,-1.5,nan,0,0,0,1.58387,0.0880708
1800,-3.21152e-12,2.84962e-38,-1.55412e-06,-3.27738e-12,2.84938e-38,0,-1.06637e-13,0,0,-3.22866,-0.195614,0.468681,1.58392,0.088152,0.00241791,0.0040448,0,1.41619,-0.172141,-1367821504,-1367821504,-1367821504,-1367821504,-1367821464,520561732,-423966206,-1367821464,-0.106653,-0.261799,0,-1.5,nan,0,0,0,1.58392,0.088152
1810,-3.21152e-12,2.84962e-38,-1.55412e-06,-3.27738e-12,2.84938e-38,-3.40902e-12,-1.06638e-13,0,0,-3.22866,-0.195614,0.468681,1.58411,0.0884713,0.00231915,0.00387959,0,1.41619,-0.172141,-1367821504,-1367821504,-1367821504,-1367821504,-1367821464,520561732,-423966206,-1367821464,-0.10686,-0.261799,0,-1.5,nan,0,0,0,1.58411,0.0884713
1820,-3.21152e-12,2.84962e-38,-1.55412e-06,-3.27738e-12,2.84938e-38,0,-1.06638e-13,0,0,-3.22866,-0.195614,0.468681,1.58429,0.0887813,0.00222331,0.00371926,0,1.41619,-0.172141,-1367821504,-1367821504,-1367821504,-1367821504,-1367821464,520561732,-423966206,-1367821464,-0.10706,-0.261799,0,-1.5,nan,0,0,0,1.58429,0.0887813
1830,-3.21152e-12,2.84962e-38,-1.55412e-06,-3.27738e-12,2.84938e-38,-3.40902e-12,-1.06638e-13,0,0,-3.22866,-0.195614,0.468681,1.58434,0.0888661,0.00219783,0.00367663,0,1.41619,-0.172141,-1367821504,-1367821504,-1367821504,-1367821504,-1367821464,520561732,-423966206,-1367821464,-0.107116,-0.261799,0,-1.5,nan,0,0,0,1.58434,0.0888661
1840,-3.21152e-12,2.84962e-38,-1.55412e-06,-3.27738e-12,2.84938e-38,0,-1.06638e-13,0,0,-3.22866,-0.195614,0.468681,1.58441,0.0889787,0.00216388,0.00361984,0,1.41619,-0.172141,-1367821504,-1367821504,-1367821504,-1367821504,-1367821464,520561732,-423966206,-1367821464,-0.107191,-0.261799,0,-1.5,nan,0,0,0,1.58441,0.0889787
1850,-3.21152e-12,2.84962e-38,-1.55412e-06,-3.27738e-12,2.84938e-38,-3.40902e-12,-1.06639e-13,0,0,-3.22866,-0.195614,0.468681,1.58445,0.0890364,0.00214661,0.00359096,0,1.41619,-0.172141,-1367821504,-1367821504,-1367821504,-1367821504,-1367821464,520561732,-423966206,-1367821464,-0.107229,-0.261799,0,-1.5,nan,0,0,0,1.58445,0.0890364
1860,-3.21152e-12,2.84962e-38,-1.55412e-06,-3.27738e-12,2.84938e-38,0,-1.06639e-13,0,0,-3.22866,-0.195614,0.468681,1.58453,0.0891707,0.00210597,0.00352297,0,1.41619,-0.172141,-1367821504,-1367821504,-1367821504,-1367821504,-1367821464,520561732,-423966206,-1367821464,-0.107317,-0.261799,0,-1.5,nan,0,0,0,1.58453,0.0891707
1870,-3.21152e-12,2.84962e-38,-1.55412e-06,-3.27738e-12,2.84938e-38,-3.40902e-12,-1.06639e-13,0,0,-3.22866,-0.195614,0.468681,1.58466,0.0893932,0.0020378,0.00340894,0,1.41619,-0.172141,-1367821504,-1367821504,-1367821504,-1367821504,-1367821464,520561732,-423966206,-1367821464,-0.107462,-0.261799,0,-1.5,nan,0,0,0,1.58466,0.0893932
1880,-3.21152e-12,2.84962e-38,-1.55412e-06,-3.27738e-12,2.84938e-38,0,-1.06639e-13,0,0,-3.22866,-0.195614,0.468681,1.58471,0.089471,0.00201445,0.00336987,0,1.41619,-0.172141,-1367821504,-1367821504,-1367821504,-1367821504,-1367821464,520561732,-423966206,-1367821464,-0.107514,-0.261799,0,-1.5,nan,0,0,0,1.58471,0.089471
1890,-3.21152e-12,2.84962e-38,-1.55412e-06,-3.27738e-12,2.84938e-38,-3.40902e-12,-1.0664e-13,0,0,-3.22866,-0.195614,0.468681,1.58484,0.0896901,0.00194724,0.00325744,0,1.41619,-0.172141,-1367821504,-1367821504,-1367821504,-1367821504,-1367821464,520561732,-423966206,-1367821464,-0.107656,-0.261799,0,-1.5,nan,0,0,0,1.58484,0.0896901
1900,-3.21152e-12,2.84962e-38,-1.55412e-06,-3.27738e-12,2.84938e-38,0,-1.0664e-13,0,0,-3.22866,-0.195614,0.468681,1.58503,0.0900155,0.0018454,0.00308708,0,1.41619,-0.172141,-1367821504,-1367821504,-1367821504,-1367821504,-1367821464,520561732,-423966206,-1367821464,-0.107865,-0.261799,0,-1.5,nan,0,0,0,1.58503,0.0900155
