timestamp,A_x,A_y,A_z,P,Q,R,Phi,Theta,Psi,poseX,poseY,poseZ,state_X,state_Y,state_Z,state_VzB,state_Bx,state_By,state_Bz,p1_x,p1_y,p2_x,p2_y,p3_x,p3_y,p4_x,p4_y,roll,pitch,yaw,alt,targetHeading,highLevelState,lowLevelState,gateNumber,filtered_x,filtered_y,x_OT,y_OT,vx_OT,vy_OT,filtered_vx,filtered_vygateArearansac_corr_x,ransac_corr_y,ransac_corr_vx,ransac_corr_vy,detectionTimeStamppTermX,dTermX,pTermY,dTermY,vxcmd,vycmd
6392,-0.714844,0.270508,-7.14355,-0.00457959,-7.93897e-05,-0.00207309,0.0939768,-0.021148,2.09396,0,0,0,1.89577e-05,3.34885e-05,0.000956682,0.00429309,2.09453,0,0,0,0,0,0,0,0,0,0,-0.377301,0.0447139,0,-1.5,8.0042e-38,0,0,0,1.89577e-05,3.34885e-05,0,0,0,0,0.000956682,0.00429309,1.9603e-19,0,0,0,0,0,0,0,0,0,2.51,-5.02328e-05
6406,-0.686523,0.291992,6.84863,0.00374155,-9.72963e-05,-0.0018387,0.0966797,-0.0217285,2.09277,0,0,0,-9.14007e-05,5.88194e-05,-0.012644,3.39783e-05,2.09315,0,0,0,0,0,0,0,0,0,0,-0.378131,0.0432776,0,-1.5,8.0042e-38,0,0,0,-9.14007e-05,5.88194e-05,0,0,0,0,-0.012644,3.39783e-05,1.9603e-19,0,0,0,0,0,0,0,0,0,2.51,-8.8229e-05
6421,-0.730469,0.148438,6.93457,0.00392582,0.000347199,-0.00191276,0.0996862,-0.0226843,2.09137,0,0,0,-0.000408504,1.95688e-05,-0.0265433,-0.00429607,2.09191,0,0,0,0,0,0,0,0,0,0,-0.378947,0.0418567,0,-1.5,8.0042e-38,0,0,0,-0.000408504,1.95688e-05,0,0,0,0,-0.0265433,-0.00429607,1.9603e-19,0,0,0,0,0,0,0,0,0,2.51,-2.93532e-05
6439,-0.842773,0.192383,-5.03906,0.00215677,0.000230629,-0.00178395,0.101412,-0.0234719,2.09035,0,0,0,-0.00108178,-0.000117942,-0.0435791,-0.00952353,2.09068,0,0,0,0,0,0,0,0,0,0,-0.379887,0.0402114,0,-1.5,8.0042e-38,0,0,0,-0.00108178,-0.000117942,0,0,0,0,-0.0435791,-0.00952353,1.9603e-19,0,0,0,0,0,0,0,0,0,2.51,0.000176913
6455,-0.842773,0.15918,4.61914,0.00313569,4.10933e-05,0.000650659,0.101437,-0.0234793,2.09035,0,0,0,-0.0019349,-0.000317434,-0.0588592,-0.0141421,2.09035,0,0,0,0,0,0,0,0,0,0,-0.380567,0.0390208,0,-1.5,8.0042e-38,0,0,0,-0.0019349,-0.000317434,0,0,0,0,-0.0588592,-0.0141421,1.9603e-19,0,0,0,0,0,0,0,0,0,2.51,0.000476151
6470,-0.842773,0.125977,0.488281,0.00492065,0.00105239,-0.000886408,0.101485,-0.0234777,2.09034,0,0,0,-0.00295547,-0.000571167,-0.0730822,-0.0184403,2.09034,0,0,0,0,0,0,0,0,0,0,-0.381151,0.0380011,0,-1.5,8.0042e-38,0,0,0,-0.00295547,-0.000571167,0,0,0,0,-0.0730822,-0.0184403,1.9603e-19,0,0,0,0,0,0,0,0,0,2.51,0.000856751
6486,-0.819336,0.116211,0.375977,0.00284756,-0.000869616,-0.00125581,0.101516,-0.023489,2.09032,0,0,0,-0.00428318,-0.000914091,-0.0881452,-0.0229933,2.09032,0,0,0,0,0,0,0,0,0,0,-0.381783,0.0368943,0,-1.5,8.0042e-38,0,0,0,-0.00428318,-0.000914091,0,0,0,0,-0.0881452,-0.0229933,1.9603e-19,0,0,0,0,0,0,0,0,0,2.51,0.00137114
6502,-0.786133,0.123047,4.08496,0.00320856,3.83676e-05,-0.00116292,0.101553,-0.0235073,2.0903,0,0,0,-0.00584598,-0.00132806,-0.103092,-0.0275097,2.0903,0,0,0,0,0,0,0,0,0,0,-0.382426,0.0357707,0,-1.5,8.0042e-38,0,0,0,-0.00584598,-0.00132806,0,0,0,0,-0.103092,-0.0275097,1.9603e-19,0,0,0,0,0,0,0,0,0,2.51,0.00199209
6518,-0.719727,0.189453,2.97949,0.0031208,0.000221894,-0.00156819,0.101604,-0.0235162,2.09026,0,0,0,-0.00764676,-0.00181393,-0.117924,-0.0319905,2.09028,0,0,0,0,0,0,0,0,0,0,-0.383076,0.0346328,0,-1.5,8.0042e-38,0,0,0,-0.00764676,-0.00181393,0,0,0,0,-0.117924,-0.0319905,1.9603e-19,0,0,0,0,0,0,0,0,0,2.51,0.0027209
6534,-0.730469,0.222656,0.888672,0.00190352,0.000351307,-0.000803263,0.101625,-0.0235319,2.09025,0,0,0,-0.00968369,-0.00237114,-0.132642,-0.0364368,2.09026,0,0,0,0,0,0,0,0,0,0,-0.383736,0.0334791,0,-1.5,8.0042e-38,0,0,0,-0.00968369,-0.00237114,0,0,0,0,-0.132642,-0.0364368,1.9603e-19,0,0,0,0,0,0,0,0,0,2.51,0.00355671
6549,-0.763672,0.255859,-0.723633,0.00266584,-0.000219562,-0.00141622,0.101644,-0.0235492,2.09023,0,0,0,-0.0118059,-0.00295773,-0.14634,-0.0405728,2.09025,0,0,0,0,0,0,0,0,0,0,-0.384361,0.0323867,0,-1.5,8.0042e-38,0,0,0,-0.0118059,-0.00295773,0,0,0,0,-0.14634,-0.0405728,1.9603e-19,0,0,0,0,0,0,0,0,0,2.51,0.00443659
6565,-0.796875,0.289062,1.0918,0.00131159,0.000907702,-0.00115223,0.101651,-0.0235516,2.09022,0,0,0,-0.0142953,-0.00365154,-0.160843,-0.0449493,2.09022,0,0,0,0,0,0,0,0,0,0,-0.38504,0.0311981,0,-1.5,8.0042e-38,0,0,0,-0.0142953,-0.00365154,0,0,0,0,-0.160843,-0.0449493,1.9603e-19,0,0,0,0,0,0,0,0,0,2.51,0.00547731
6580,-0.830078,0.266602,5.27344,0.00308402,-0.000130347,-0.00244723,0.101673,-0.0235687,2.0902,0,0,0,-0.0168349,-0.0043641,-0.174334,-0.0490197,2.0902,0,0,0,0,0,0,0,0,0,0,-0.385682,0.0300738,0,-1.5,8.0042e-38,0,0,0,-0.0168349,-0.0043641,0,0,0,0,-0.174334,-0.0490197,1.9603e-19,0,0,0,0,0,0,0,0,0,2.51,0.00654614
6613,-0.792969,0.200195,-4.6582,0.00522674,0.000400763,-0.00220258,0.10174,-0.0235978,2.09014,0,0,0,-0.0233422,-0.00620921,-0.203776,-0.057898,2.09014,0,0,0,0,0,0,0,0,0,0,-0.387139,0.0275247,0,-1.5,8.0042e-38,0,0,0,-0.0233422,-0.00620921,0,0,0,0,-0.203776,-0.057898,1.9603e-19,0,0,0,0,0,0,0,0,0,2.51,0.00931382
6644,-0.799805,0.161133,4.84961,0.00355763,0.000106156,-0.0017125,0.101844,-0.0236313,2.09006,0,0,0,-0.0303048,-0.00819859,-0.231004,-0.066103,2.09009,0,0,0,0,0,0,0,0,0,0,-0.388537,0.0250773,0,-1.5,8.0042e-38,0,0,0,-0.0303048,-0.00819859,0,0,0,0,-0.231004,-0.066103,1.9603e-19,0,0,0,0,0,0,0,0,0,2.51,0.0122979
6669,-0.833008,0.161133,-5.94141,0.00253257,0.000166729,-0.00174117,0.101862,-0.0236454,2.09004,0,0,0,-0.0364712,-0.00996905,-0.252646,-0.0726214,2.09004,0,0,0,0,0,0,0,0,0,0,-0.389685,0.0230661,0,-1.5,8.0042e-38,0,0,0,-0.0364712,-0.00996905,0,0,0,0,-0.252646,-0.0726214,1.9603e-19,0,0,0,0,0,0,0,0,0,2.51,0.0149536
6683,-0.833008,0.161133,-5.94141,0.00253257,0.000166729,-0.00174117,0.101862,-0.0236454,2.09004,0,0,0,-0.0401145,-0.0110177,-0.264631,-0.076229,2.09004,0,0,0,0,0,0,0,0,0,0,-0.390328,0.0219417,0,-1.5,8.0042e-38,0,0,0,-0.0401145,-0.0110177,0,0,0,0,-0.264631,-0.076229,1.9603e-19,0,0,0,0,0,0,0,0,0,2.51,0.0165266
6699,-0.75,0.161133,-5.41211,0.00256199,0.00055427,-0.0021663,0.101919,-0.0236942,2.08995,0,0,0,-0.0444917,-0.0122805,-0.278233,-0.0803209,2.08998,0,0,0,0,0,0,0,0,0,0,-0.391082,0.020619,0,-1.5,8.0042e-38,0,0,0,-0.0444917,-0.0122805,0,0,0,0,-0.278233,-0.0803209,1.9603e-19,0,0,0,0,0,0,0,0,0,2.51,0.0184207
6715,-0.716797,0.161133,-5.81934,0.00229976,-9.56243e-05,-0.00247448,0.101938,-0.023713,2.08993,0,0,0,-0.0490854,-0.0136082,-0.291734,-0.0843776,2.08993,0,0,0,0,0,0,0,0,0,0,-0.391842,0.0192869,0,-1.5,8.0042e-38,0,0,0,-0.0490854,-0.0136082,0,0,0,0,-0.291734,-0.0843776,1.9603e-19,0,0,0,0,0,0,0,0,0,2.51,0.0204124
6739,-0.726562,0.161133,3.37793,0.00239052,-0.000611347,-0.0020969,0.101983,-0.0237452,2.08988,-4.8615,0.0127197,-0.296295,-0.0564318,-0.0157368,-0.311819,-0.0904087,2.08993,0,0,253,77,253,77,349,66,263,166,-0.392986,0.0172847,0,-1.5,8.0042e-38,0,0,0,-0.0564318,-0.0157368,0,0,0,0,-0.311819,-0.0904087,10700,0,0,0,0,0,0,0,0,0,2.51,0.0236053
6755,-0.759766,0.171875,6.48633,0.00296549,-0.000965417,-0.00105441,0.102013,-0.0237707,2.08986,-4.8615,0.0127197,-0.296295,-0.0615559,-0.0172239,-0.325061,-0.0943826,2.08988,0,0,253,77,253,77,349,66,263,166,-0.393766,0.015917,0,-1.5,8.0042e-38,0,0,0,-0.0615559,-0.0172239,0,0,0,0,-0.325061,-0.0943826,10700,0,0,0,0,0,0,0,0,0,2.51,0.0258359
6770,-0.792969,0.205078,-4.30566,0.00131931,-5.81526e-06,-0.00135575,0.10202,-0.0237836,2.08984,-4.8615,0.0127197,-0.296295,-0.0665512,-0.0186754,-0.337388,-0.0980769,2.08984,0,0,253,77,253,77,349,66,263,166,-0.3945,0.0146287,0,-1.5,8.0042e-38,0,0,0,-0.0665512,-0.0186754,0,0,0,0,-0.337388,-0.0980769,10700,0,0,0,0,0,0,0,0,0,2.51,0.0280131
6786,-0.826172,0.238281,-6.84375,0.00160926,-0.000304196,-0.00253479,0.102032,-0.0238006,2.08982,-4.8615,0.0127197,-0.296295,-0.0720825,-0.0202845,-0.350439,-0.101986,2.08982,0,0,253,77,253,77,349,66,263,166,-0.39529,0.0132451,0,-1.5,8.0042e-38,0,0,0,-0.0720825,-0.0202845,0,0,0,0,-0.350439,-0.101986,10700,0,0,0,0,0,0,0,0,0,2.51,0.0304268
6801,-0.859375,0.271484,7.08887,0.00196949,-0.000264473,-0.000986211,0.102048,-0.0238159,2.0898,-4.8615,0.0127197,-0.296295,-0.0774534,-0.0218485,-0.36258,-0.10562,2.0898,0,0,253,77,253,77,349,66,263,166,-0.396035,0.011939,0,-1.5,8.0042e-38,0,0,0,-0.0774534,-0.0218485,0,0,0,0,-0.36258,-0.10562,10700,0,0,0,0,0,0,0,0,0,2.51,0.0327728
6817,-0.87207,0.28125,-6.49609,0.00177984,-0.000213991,-0.00186607,0.102067,-0.0238238,2.08978,-4.8615,0.0127197,-0.296295,-0.0833858,-0.0235777,-0.375437,-0.109465,2.08978,0,0,253,77,253,77,349,66,263,166,-0.396837,0.0105333,0,-1.5,8.0042e-38,0,0,0,-0.0833858,-0.0235777,0,0,0,0,-0.375437,-0.109465,10700,0,0,0,0,0,0,0,0,0,2.51,0.0353665
6834,-0.87207,0.28125,-6.49609,0.00177984,-0.000213991,-0.00186607,0.102067,-0.0238238,2.08978,-4.88584,0.0185007,-0.289592,-0.089527,-0.0253693,-0.388195,-0.113281,2.08978,0,0,253,77,253,77,347,66,263,166,-0.397644,0.00912156,0,-1.5,8.0042e-38,0,0,0,-0.089527,-0.0253693,0,0,0,0,-0.388195,-0.113281,10700,0,0,0,0,0,0,0,0,0,2.51,0.0380539
6849,-0.858398,0.22168,-6.4375,0.0029974,8.79749e-05,-0.00227852,0.102122,-0.0238526,2.08972,-4.88584,0.0185007,-0.289592,-0.0958672,-0.0272204,-0.400854,-0.117066,2.08972,0,0,253,77,253,77,347,66,263,166,-0.398468,0.00767481,0,-1.5,8.0042e-38,0,0,0,-0.0958672,-0.0272204,0,0,0,0,-0.400854,-0.117066,10700,0,0,0,0,0,0,0,0,0,2.51,0.0408305
6861,-0.825195,0.188477,3.63379,0.00306845,0.00115173,-0.00324579,0.102156,-0.0238609,2.08968,-4.87783,0.015925,-0.29495,-0.100747,-0.0286458,-0.410284,-0.119883,2.08968,0,0,253,78,253,78,347,66,263,166,-0.399089,0.00658413,0,-1.5,8.0042e-38,0,0,0,-0.100747,-0.0286458,0,0,0,0,-0.410284,-0.119883,10800,0,0,0,0,0,0,0,0,0,2.51,0.0429688
6877,-0.758789,0.124023,4.75586,0.00539899,0.000673689,-0.00221025,0.102243,-0.0238926,2.08964,-4.87783,0.015925,-0.29495,-0.107443,-0.0306032,-0.42278,-0.123617,2.08968,0,0,253,78,253,78,347,66,263,166,-0.399916,0.00513629,0,-1.5,8.0042e-38,0,0,0,-0.107443,-0.0306032,0,0,0,0,-0.42278,-0.123617,10800,0,0,0,0,0,0,0,0,0,2.51,0.0459048
6893,-0.758789,0.124023,4.75586,0.00539899,0.000673689,-0.00221025,0.102243,-0.0238926,2.08964,-4.87783,0.015925,-0.29495,-0.114338,-0.03262,-0.435184,-0.127321,2.08964,0,0,253,78,253,78,347,66,263,166,-0.400758,0.00365674,0,-1.5,8.0042e-38,0,0,0,-0.114338,-0.03262,0,0,0,0,-0.435184,-0.127321,10800,0,0,0,0,0,0,0,0,0,2.51,0.0489301
6909,-0.740234,0.19043,1.30078,0.0054259,-0.000305323,-0.00228261,0.102355,-0.0239304,2.0896,-4.87783,0.015925,-0.29495,-0.12143,-0.0346958,-0.447498,-0.130997,2.0896,0,0,253,78,253,78,347,66,263,166,-0.401607,0.00216646,0,-1.5,8.0042e-38,0,0,0,-0.12143,-0.0346958,0,0,0,0,-0.447498,-0.130997,10800,0,0,0,0,0,0,0,0,0,2.51,0.0520437
6925,-0.773438,0.223633,6.14551,0.00202041,0.00126387,-0.00145546,0.10238,-0.0239258,2.08957,-4.87783,0.015925,-0.29495,-0.128719,-0.0368301,-0.45973,-0.134646,2.08957,0,0,253,78,253,78,347,66,263,166,-0.40246,0.000670023,0,-1.5,8.0042e-38,0,0,0,-0.128719,-0.0368301,0,0,0,0,-0.45973,-0.134646,10800,0,0,0,0,0,0,0,0,0,2.51,0.0552452
6941,-0.806641,0.256836,-3.95508,0.00179492,0.000703613,-0.00140517,0.102408,-0.0239356,2.08956,-4.87783,0.015925,-0.29495,-0.136202,-0.0390226,-0.471869,-0.138269,2.08956,0,0,253,78,253,78,347,66,263,166,-0.403319,-0.000836261,0,-1.5,8.0042e-38,0,0,0,-0.136202,-0.0390226,0,0,0,0,-0.471869,-0.138269,10800,0,0,0,0,0,0,0,0,0,2.51,0.0585339
6957,-0.839844,0.290039,-6.81934,0.000202411,3.44904e-05,-0.00162545,0.102398,-0.0239557,2.08954,-4.87783,0.015925,-0.29495,-0.143878,-0.0412727,-0.483915,-0.141861,2.08954,0,0,253,78,253,78,347,66,263,166,-0.404187,-0.00235756,0,-1.5,8.0042e-38,0,0,0,-0.143878,-0.0412727,0,0,0,0,-0.483915,-0.141861,10800,0,0,0,0,0,0,0,0,0,2.51,0.061909
6973,-0.834961,0.279297,7.11035,0.00139105,0.000184905,-0.000899513,0.102398,-0.0239679,2.08952,-4.87783,0.015925,-0.29495,-0.151743,-0.0435788,-0.495863,-0.145421,2.08952,0,0,253,78,253,78,347,66,263,166,-0.405059,-0.00388645,0,-1.5,8.0042e-38,0,0,0,-0.151743,-0.0435788,0,0,0,0,-0.495863,-0.145421,10800,0,0,0,0,0,0,0,0,0,2.51,0.0653681
6989,-0.801758,0.246094,-6.46094,0.00156082,0.000214443,-0.00227805,0.102408,-0.0239821,2.08949,-4.88617,0.0179769,-0.290302,-0.159798,-0.0459415,-0.507717,-0.148951,2.08949,0,0,253,77,253,77,347,66,263,166,-0.405941,-0.00543528,0,-1.5,8.0042e-38,0,0,0,-0.159798,-0.0459415,0,0,0,0,-0.507717,-0.148951,10700,0,0,0,0,0,0,0,0,0,2.51,0.0689123
7004,-0.735352,0.179688,-6.41113,0.00296334,-0.000134204,-0.00184779,0.102478,-0.024015,2.08944,-4.88617,0.0179769,-0.290302,-0.16752,-0.0482076,-0.518746,-0.152234,2.08949,0,0,253,77,253,77,347,66,263,166,-0.406769,-0.00688601,0,-1.5,8.0042e-38,0,0,0,-0.16752,-0.0482076,0,0,0,0,-0.518746,-0.152234,10700,0,0,0,0,0,0,0,0,0,2.51,0.0723114
7021,-0.714844,0.157227,3.61621,0.00236338,-0.000605359,-0.00156323,0.102511,-0.0240405,2.08943,-4.86209,0.0119934,-0.297648,-0.17648,-0.0508375,-0.531164,-0.155926,2.08943,0,0,253,77,253,77,349,66,263,166,-0.407727,-0.00857165,0,-1.5,8.0042e-38,0,0,0,-0.17648,-0.0508375,0,0,0,0,-0.531164,-0.155926,10700,0,0,0,0,0,0,0,0,0,2.51,0.0762563
7036,-0.714844,0.19043,3.78809,0.00163533,0.000102216,-0.000604563,0.102525,-0.0240577,2.08941,-4.86209,0.0119934,-0.297648,-0.184553,-0.0532077,-0.542036,-0.159155,2.08941,0,0,253,77,253,77,349,66,263,166,-0.40857,-0.0100515,0,-1.5,8.0042e-38,0,0,0,-0.184553,-0.0532077,0,0,0,0,-0.542036,-0.159155,10700,0,0,0,0,0,0,0,0,0,2.51,0.0798115
7052,-0.714844,0.223633,4.76172,0.00147119,0.000123546,-0.00265634,0.102533,-0.0240752,2.08937,-4.80969,0.0233364,-0.308393,-0.193346,-0.0557901,-0.553549,-0.162572,2.08937,0,0,252,78,252,78,347,64,261,166,-0.409479,-0.0116486,0,-1.5,8.0042e-38,0,0,0,-0.193346,-0.0557901,0,0,0,0,-0.553549,-0.162572,11118,0,0,0,0,0,0,0,0,0,2.51,0.0836852
7068,-0.714844,0.223633,4.76172,0.00147119,0.000123546,-0.00265634,0.102533,-0.0240752,2.08937,-4.80969,0.0233364,-0.308393,-0.202323,-0.0584269,-0.564972,-0.16596,2.08937,0,0,252,78,252,78,347,64,261,166,-0.410389,-0.013243,0,-1.5,8.0042e-38,0,0,0,-0.202323,-0.0584269,0,0,0,0,-0.564972,-0.16596,11118,0,0,0,0,0,0,0,0,0,2.51,0.0876403
7085,-0.779297,0.290039,1.28418,0.00273322,6.70433e-05,-0.00237254,0.102593,-0.0241105,2.08933,-4.86905,0.0147809,-0.295852,-0.212061,-0.0612875,-0.577013,-0.169529,2.08933,0,0,253,77,253,77,347,66,263,166,-0.41137,-0.0149668,0,-1.5,8.0042e-38,0,0,0,-0.212061,-0.0612875,0,0,0,0,-0.577013,-0.169529,10800,0,0,0,0,0,0,0,0,0,2.51,0.0919313
7100,-0.879883,0.277344,-3.94043,0.00364507,0.000419982,-0.00147788,0.102639,-0.0241314,2.08929,-4.86905,0.0147809,-0.295852,-0.220818,-0.0638607,-0.587558,-0.172653,2.08933,0,0,253,77,253,77,347,66,263,166,-0.412235,-0.0164832,0,-1.5,8.0042e-38,0,0,0,-0.220818,-0.0638607,0,0,0,0,-0.587558,-0.172653,10800,0,0,0,0,0,0,0,0,0,2.51,0.095791
7117,-0.878906,0.244141,-6.83691,0.00337818,3.35864e-05,-0.00167804,0.102664,-0.0241488,2.08927,-4.86905,0.0147809,-0.295852,-0.230937,-0.0668345,-0.59942,-0.176165,2.08927,0,0,253,77,253,77,347,66,263,166,-0.413233,-0.0182411,0,-1.5,8.0042e-38,0,0,0,-0.230937,-0.0668345,0,0,0,0,-0.59942,-0.176165,10800,0,0,0,0,0,0,0,0,0,2.51,0.100252
7133,-0.845703,0.210938,7.09375,0.00249123,0.000179563,-0.0019643,0.102689,-0.0241692,2.08925,-4.86917,0.0146236,-0.296115,-0.240641,-0.0696866,-0.610501,-0.179442,2.08925,0,0,253,77,253,77,347,66,263,166,-0.414172,-0.0198911,0,-1.5,8.0042e-38,0,0,0,-0.240641,-0.0696866,0,0,0,0,-0.610501,-0.179442,10800,0,0,0,0,0,0,0,0,0,2.51,0.10453
7150,-0.8125,0.177734,-6.48926,0.0029138,-0.000481616,-0.00119139,0.102716,-0.0241913,2.08923,-4.86917,0.0146236,-0.296115,-0.251148,-0.0727751,-0.622184,-0.182894,2.08923,0,0,253,77,253,77,347,66,263,166,-0.415177,-0.0216547,0,-1.5,8.0042e-38,0,0,0,-0.251148,-0.0727751,0,0,0,0,-0.622184,-0.182894,10800,0,0,0,0,0,0,0,0,0,2.51,0.109163
7166,-0.8125,0.177734,-6.48926,0.0029138,-0.000481616,-0.00119139,0.102716,-0.0241913,2.08923,-4.8092,0.0251537,-0.30324,-0.261214,-0.0757343,-0.633092,-0.186115,2.08923,0,0,252,76,252,76,347,64,261,166,-0.416126,-0.023318,0,-1.5,8.0042e-38,0,0,0,-0.261214,-0.0757343,0,0,0,0,-0.633092,-0.186115,11016,0,0,0,0,0,0,0,0,0,2.51,0.113601
7182,-0.746094,0.111328,-6.43652,0.00314823,-0.00070444,-0.00201965,0.102782,-0.0242212,2.0892,-4.8092,0.0251537,-0.30324,-0.271454,-0.0787447,-0.643919,-0.189311,2.0892,0,0,252,76,252,76,347,64,261,166,-0.417086,-0.0250052,0,-1.5,8.0042e-38,0,0,0,-0.271454,-0.0787447,0,0,0,0,-0.643919,-0.189311,11016,0,0,0,0,0,0,0,0,0,2.51,0.118117
7197,-0.799805,0.15918,3.75977,0.00187951,0.000205167,-0.00173592,0.102836,-0.0242381,2.08916,-4.8092,0.0251537,-0.30324,-0.28121,-0.0816132,-0.653995,-0.192284,2.0892,0,0,252,76,252,76,347,64,261,166,-0.417987,-0.0265852,0,-1.5,8.0042e-38,0,0,0,-0.28121,-0.0816132,0,0,0,0,-0.653995,-0.192284,11016,0,0,0,0,0,0,0,0,0,2.51,0.12242
7214,-0.833008,0.192383,4.74414,0.000139323,0.000565472,-0.00137931,0.102836,-0.0242452,2.08914,-4.8092,0.0251537,-0.30324,-0.292457,-0.0849201,-0.665333,-0.195629,2.08914,0,0,252,76,252,76,347,64,261,166,-0.419023,-0.0284107,0,-1.5,8.0042e-38,0,0,0,-0.292457,-0.0849201,0,0,0,0,-0.665333,-0.195629,11016,0,0,0,0,0,0,0,0,0,2.51,0.12738
7229,-0.833008,0.192383,4.74414,0.000139323,0.000565472,-0.00137931,0.102836,-0.0242452,2.08914,-4.88054,0.0206499,-0.29586,-0.302533,-0.0878828,-0.675259,-0.198555,2.08914,0,0,252,78,252,78,347,66,263,166,-0.419936,-0.0300112,0,-1.5,8.0042e-38,0,0,0,-0.302533,-0.0878828,0,0,0,0,-0.675259,-0.198555,10800,0,0,0,0,0,0,0,0,0,2.51,0.131824
7244,-0.863281,0.258789,1.29785,0.00088474,4.53303e-06,-0.00148048,0.102851,-0.0242851,2.0891,-4.88054,0.0206499,-0.29586,-0.312758,-0.0908892,-0.685112,-0.201458,2.0891,0,0,252,78,252,78,347,66,263,166,-0.42086,-0.0316374,0,-1.5,8.0042e-38,0,0,0,-0.312758,-0.0908892,0,0,0,0,-0.685112,-0.201458,10800,0,0,0,0,0,0,0,0,0,2.51,0.136334
7260,-0.863281,0.258789,1.29785,0.00088474,4.53303e-06,-0.00148048,0.102851,-0.0242851,2.0891,-4.85911,0.0230661,-0.298515,-0.323829,-0.0941448,-0.695546,-0.204527,2.0891,0,0,253,77,253,77,347,66,261,166,-0.421845,-0.0333644,0,-1.5,8.0042e-38,0,0,0,-0.323829,-0.0941448,0,0,0,0,-0.695546,-0.204527,10700,0,0,0,0,0,0,0,0,0,2.51,0.141217
7276,-0.830078,0.233398,-3.95312,0.00211815,0.000107642,-0.00180869,0.102878,-0.0243046,2.08907,-4.85911,0.0230661,-0.298515,-0.335067,-0.0974493,-0.705898,-0.207571,2.08907,0,0,253,77,253,77,347,66,261,166,-0.422841,-0.0351161,0,-1.5,8.0042e-38,0,0,0,-0.335067,-0.0974493,0,0,0,0,-0.705898,-0.207571,10700,0,0,0,0,0,0,0,0,0,2.51,0.146174
7293,-0.796875,0.200195,-6.80176,0.0024009,0.000256571,-0.00123605,0.102894,-0.0243154,2.08906,-4.84676,0.0234063,-0.302453,-0.346469,-0.100802,-0.716173,-0.210591,2.08906,0,0,251,79,251,79,347,64,263,166,-0.42384,-0.0368705,0,-1.5,8.0042e-38,0,0,0,-0.346469,-0.100802,0,0,0,0,-0.716173,-0.210591,11118,0,0,0,0,0,0,0,0,0,2.51,0.151203
7309,-0.730469,0.133789,-6.4707,0.000922168,-9.27069e-05,-0.00189345,0.102907,-0.024358,2.08901,-4.84676,0.0234063,-0.302453,-0.358763,-0.104417,-0.727002,-0.213772,2.08906,0,0,251,79,251,79,347,64,263,166,-0.424905,-0.0387391,0,-1.5,8.0042e-38,0,0,0,-0.358763,-0.104417,0,0,0,0,-0.727002,-0.213772,11118,0,0,0,0,0,0,0,0,0,2.51,0.156626
7325,-0.730469,0.133789,-6.4707,0.000922168,-9.27069e-05,-0.00189345,0.102907,-0.024358,2.08901,-4.84746,0.0204105,-0.305361,-0.370499,-0.107868,-0.737114,-0.216736,2.08901,0,0,251,78,251,78,347,66,263,166,-0.425918,-0.040524,0,-1.5,8.0042e-38,0,0,0,-0.370499,-0.107868,0,0,0,0,-0.737114,-0.216736,11000,0,0,0,0,0,0,0,0,0,2.51,0.161802
7341,-0.770508,0.117188,-6.45508,0.00203227,-4.72863e-05,-0.00236133,0.102927,-0.0243903,2.08898,-4.84746,0.0204105,-0.305361,-0.382395,-0.111366,-0.747147,-0.219675,2.08898,0,0,251,78,251,78,347,66,263,166,-0.426937,-0.0423184,0,-1.5,8.0042e-38,0,0,0,-0.382395,-0.111366,0,0,0,0,-0.747147,-0.219675,11000,0,0,0,0,0,0,0,0,0,2.51,0.167048
7357,-0.803711,0.117188,3.59668,0.00211891,0.000537924,-0.00293731,0.102944,-0.0244054,2.08894,-4.84431,0.01742,-0.30681,-0.394454,-0.114911,-0.757107,-0.222588,2.08894,0,0,253,78,253,78,349,66,261,166,-0.427962,-0.0441232,0,-1.5,8.0042e-38,0,0,0,-0.394454,-0.114911,0,0,0,0,-0.757107,-0.222588,10700,0,0,0,0,0,0,0,0,0,2.51,0.172367
7373,-0.836914,0.117188,3.79785,0.00205695,-0.000159257,-0.00145162,0.102962,-0.0244257,2.08891,-4.84431,0.01742,-0.30681,-0.406668,-0.118502,-0.76699,-0.225475,2.08891,0,0,253,78,253,78,349,66,261,166,-0.428989,-0.045931,0,-1.5,8.0042e-38,0,0,0,-0.406668,-0.118502,0,0,0,0,-0.76699,-0.225475,10700,0,0,0,0,0,0,0,0,0,2.51,0.177753
7389,-0.859375,0.202148,-6.49805,0.00090726,0.000903047,-0.00222614,0.10298,-0.0244478,2.08887,-4.84431,0.01742,-0.30681,-0.41904,-0.122139,-0.776797,-0.228339,2.08889,0,0,253,78,253,78,349,66,261,166,-0.430022,-0.0477463,0,-1.5,8.0042e-38,0,0,0,-0.41904,-0.122139,0,0,0,0,-0.776797,-0.228339,10700,0,0,0,0,0,0,0,0,0,2.51,0.183208
7406,-0.826172,0.266602,1.29395,0.000643988,5.47459e-05,-0.00162508,0.102986,-0.0244611,2.08884,-4.84431,0.01742,-0.30681,-0.43236,-0.126054,-0.787136,-0.231355,2.08887,0,0,253,78,253,78,349,66,261,166,-0.431125,-0.0496862,0,-1.5,8.0042e-38,0,0,0,-0.43236,-0.126054,0,0,0,0,-0.787136,-0.231355,10700,0,0,0,0,0,0,0,0,0,2.51,0.189081
7421,-0.792969,0.292969,6.17871,0.0016893,-4.5159e-05,-0.00188852,0.102991,-0.0244759,2.08881,-4.84431,0.01742,-0.30681,-0.444254,-0.12955,-0.796187,-0.233992,2.08881,0,0,253,78,253,78,349,66,261,166,-0.432108,-0.051423,0,-1.5,8.0042e-38,0,0,0,-0.444254,-0.12955,0,0,0,0,-0.796187,-0.233992,10700,0,0,0,0,0,0,0,0,0,2.51,0.194324
7436,-0.759766,0.259766,-3.93555,0.00238508,-0.00100973,-0.00113576,0.103016,-0.0244981,2.08879,-4.84431,0.01742,-0.30681,-0.456282,-0.133084,-0.805172,-0.236607,2.08879,0,0,253,78,253,78,349,66,261,166,-0.43309,-0.0531514,0,-1.5,8.0042e-38,0,0,0,-0.456282,-0.133084,0,0,0,0,-0.805172,-0.236607,10700,0,0,0,0,0,0,0,0,0,2.51,0.199626
7453,-0.726562,0.226562,-6.81055,0.00188285,0.000308149,-0.00122212,0.103033,-0.024513,2.08878,-4.86888,0.0232638,-0.299993,-0.470081,-0.137139,-0.815283,-0.239547,2.08878,0,0,253,78,253,78,347,66,261,166,-0.434209,-0.0551172,0,-1.5,8.0042e-38,0,0,0,-0.470081,-0.137139,0,0,0,0,-0.815283,-0.239547,10700,0,0,0,0,0,0,0,0,0,2.51,0.205708
7468,-0.726562,0.226562,-6.81055,0.00188285,0.000308149,-0.00122212,0.103033,-0.024513,2.08878,-4.86888,0.0232638,-0.299993,-0.482396,-0.140757,-0.824133,-0.242119,2.08878,0,0,253,78,253,78,347,66,261,166,-0.435199,-0.0568547,0,-1.5,8.0042e-38,0,0,0,-0.482396,-0.140757,0,0,0,0,-0.824133,-0.242119,10700,0,0,0,0,0,0,0,0,0,2.51,0.211135
7485,-0.724609,0.160156,-6.47266,0.00236622,0.000259715,-0.000513331,0.103071,-0.0245369,2.08873,-4.86888,0.0232638,-0.299993,-0.496516,-0.144905,-0.834088,-0.245011,2.08873,0,0,253,78,253,78,347,66,261,166,-0.436333,-0.058855,0,-1.5,8.0042e-38,0,0,0,-0.496516,-0.144905,0,0,0,0,-0.834088,-0.245011,10700,0,0,0,0,0,0,0,0,0,2.51,0.217357
7501,-0.726562,0.19043,-6.42773,0.00354514,-0.000385022,-0.000791332,0.103122,-0.0245834,2.08869,-4.86888,0.0232638,-0.299993,-0.509956,-0.148853,-0.843384,-0.247709,2.08873,0,0,253,78,253,78,347,66,261,166,-0.4374,-0.0607273,0,-1.5,8.0042e-38,0,0,0,-0.509956,-0.148853,0,0,0,0,-0.843384,-0.247709,10700,0,0,0,0,0,0,0,0,0,2.51,0.223279
7517,-0.792969,0.223633,3.63184,0.00274508,0.000230842,-0.00220886,0.103153,-0.0245998,2.08866,-4.86888,0.0232638,-0.299993,-0.523547,-0.152844,-0.852617,-0.250383,2.08869,0,0,253,78,253,78,347,66,261,166,-0.438475,-0.0626239,0,-1.5,8.0042e-38,0,0,0,-0.523547,-0.152844,0,0,0,0,-0.852617,-0.250383,10700,0,0,0,0,0,0,0,0,0,2.51,0.229266
7533,-0.859375,0.256836,3.82812,0.00388848,0.000597641,-0.00137217,0.103197,-0.0246041,2.08864,-4.86888,0.0232638,-0.299993,-0.537286,-0.156878,-0.861785,-0.253036,2.08864,0,0,253,78,253,78,347,66,261,166,-0.439558,-0.064536,0,-1.5,8.0042e-38,0,0,0,-0.537286,-0.156878,0,0,0,0,-0.861785,-0.253036,10700,0,0,0,0,0,0,0,0,0,2.51,0.235317
7549,-0.902344,0.289062,4.81934,0.0016178,-0.000431881,-0.00254512,0.103228,-0.0246225,2.08861,-4.86888,0.0232638,-0.299993,-0.55117,-0.160954,-0.870886,-0.25567,2.08861,0,0,253,78,253,78,347,66,261,166,-0.440644,-0.0664494,0,-1.5,8.0042e-38,0,0,0,-0.55117,-0.160954,0,0,0,0,-0.870886,-0.25567,10700,0,0,0,0,0,0,0,0,0,2.51,0.241431
7565,-0.902344,0.289062,4.81934,0.0016178,-0.000431881,-0.00254512,0.103228,-0.0246225,2.08861,-4.81441,0.0226888,-0.315615,-0.565199,-0.165072,-0.879918,-0.258282,2.08861,0,0,251,78,251,78,349,66,261,166,-0.441732,-0.0683587,0,-1.5,8.0042e-38,0,0,0,-0.565199,-0.165072,0,0,0,0,-0.879918,-0.258282,10900,0,0,0,0,0,0,0,0,0,2.51,0.247609
7581,-0.850586,0.289062,1.25586,0.00119586,-4.73561e-05,-0.00279142,0.103248,-0.0246556,2.08855,-4.81441,0.0226888,-0.315615,-0.579369,-0.169231,-0.888879,-0.260872,2.08855,0,0,251,78,251,78,349,66,261,166,-0.44283,-0.0703038,0,-1.5,8.0042e-38,0,0,0,-0.579369,-0.169231,0,0,0,0,-0.888879,-0.260872,10900,0,0,0,0,0,0,0,0,0,2.51,0.253847
7597,-0.78418,0.269531,-3.94434,0.000913336,-0.000320656,-0.0019983,0.103257,-0.02469,2.08851,-4.84477,0.0169752,-0.307901,-0.593685,-0.173432,-0.897773,-0.263439,2.08855,0,0,253,78,253,78,349,66,261,166,-0.443928,-0.0722303,0,-1.5,8.0042e-38,0,0,0,-0.593685,-0.173432,0,0,0,0,-0.897773,-0.263439,10700,0,0,0,0,0,0,0,0,0,2.51,0.260149
7612,-0.750977,0.236328,-6.81934,0.000986235,0.000532092,-0.00110588,0.103267,-0.0247038,2.08849,-4.84477,0.0169752,-0.307901,-0.607231,-0.177407,-0.906047,-0.265824,2.08851,0,0,253,78,253,78,349,66,261,166,-0.444965,-0.0740644,0,-1.5,8.0042e-38,0,0,0,-0.607231,-0.177407,0,0,0,0,-0.906047,-0.265824,10700,0,0,0,0,0,0,0,0,0,2.51,0.266111
7627,-0.750977,0.236328,-6.81934,0.000986235,0.000532092,-0.00110588,0.103267,-0.0247038,2.08849,-4.87447,0.0233394,-0.302492,-0.620902,-0.181417,-0.914264,-0.268188,2.08849,0,0,251,79,251,79,347,66,263,166,-0.446004,-0.0758937,0,-1.5,8.0042e-38,0,0,0,-0.620902,-0.181417,0,0,0,0,-0.914264,-0.268188,10900,0,0,0,0,0,0,0,0,0,2.51,0.272126
7643,-0.733398,0.169922,-6.4668,0.00115024,0.000427406,-0.00249889,0.103284,-0.0247313,2.08843,-4.87447,0.0233394,-0.302492,-0.635621,-0.185735,-0.922964,-0.270689,2.08843,0,0,251,79,251,79,347,66,263,166,-0.44712,-0.0778676,0,-1.5,8.0042e-38,0,0,0,-0.635621,-0.185735,0,0,0,0,-0.922964,-0.270689,10900,0,0,0,0,0,0,0,0,0,2.51,0.278602
7659,-0.733398,0.15332,-0.788086,0.00295146,0.00068041,-0.00220367,0.103303,-0.0247432,2.08841,-4.87449,0.0233246,-0.302557,-0.650479,-0.190092,-0.931599,-0.273168,2.08841,0,0,251,79,251,79,347,66,263,166,-0.448237,-0.0798356,0,-1.5,8.0042e-38,0,0,0,-0.650479,-0.190092,0,0,0,0,-0.931599,-0.273168,10900,0,0,0,0,0,0,0,0,0,2.51,0.285138
7676,-0.733398,0.15332,-6.42383,0.00174529,-0.000912101,-0.00142873,0.103315,-0.0247653,2.08838,-4.87449,0.0233246,-0.302557,-0.666417,-0.194764,-0.940702,-0.275779,2.08838,0,0,251,79,251,79,347,66,263,166,-0.44943,-0.0819389,0,-1.5,8.0042e-38,0,0,0,-0.666417,-0.194764,0,0,0,0,-0.940702,-0.275779,10900,0,0,0,0,0,0,0,0,0,2.51,0.292147
7692,-0.763672,0.15332,3.61133,0.00128866,-0.000834517,-0.00192262,0.103322,-0.0247834,2.08835,-4.85437,0.025661,-0.30512,-0.681555,-0.199202,-0.949201,-0.278213,2.08835,0,0,252,78,252,78,347,66,261,166,-0.450557,-0.0839263,0,-1.5,8.0042e-38,0,0,0,-0.681555,-0.199202,0,0,0,0,-0.949201,-0.278213,10800,0,0,0,0,0,0,0,0,0,2.51,0.298802
7705,-0.763672,0.15332,3.61133,0.00128866,-0.000834517,-0.00192262,0.103322,-0.0247834,2.08835,-4.85437,0.025661,-0.30512,-0.693949,-0.202834,-0.956055,-0.280174,2.08835,0,0,252,78,252,78,347,66,261,166,-0.451473,-0.0855362,0,-1.5,8.0042e-38,0,0,0,-0.693949,-0.202834,0,0,0,0,-0.956055,-0.280174,10800,0,0,0,0,0,0,0,0,0,2.51,0.304251
7721,-0.830078,0.15332,4.75879,0.000490014,0.00073196,-0.00140269,0.103314,-0.0248039,2.0883,-4.8544,0.0256503,-0.305206,-0.709334,-0.207342,-0.964434,-0.282571,2.0883,0,0,252,78,252,78,347,66,261,166,-0.45261,-0.087548,0,-1.5,8.0042e-38,0,0,0,-0.709334,-0.207342,0,0,0,0,-0.964434,-0.282571,10800,0,0,0,0,0,0,0,0,0,2.51,0.311013
7737,-0.896484,0.15332,1.30371,0.00202192,-0.000413986,-0.00108843,0.103343,-0.0248441,2.08825,-4.8544,0.0256503,-0.305206,-0.72485,-0.211887,-0.972746,-0.284945,2.0883,0,0,252,78,252,78,347,66,261,166,-0.453747,-0.0895451,0,-1.5,8.0042e-38,0,0,0,-0.72485,-0.211887,0,0,0,0,-0.972746,-0.284945,10800,0,0,0,0,0,0,0,0,0,2.51,0.317831
7753,-0.864258,0.15332,6.16797,0.00278624,-0.000346469,-0.00189526,0.103372,-0.0248611,2.08823,-4.84794,0.0289138,-0.30986,-0.7405,-0.216471,-0.981001,-0.287297,2.08823,0,0,251,79,251,79,347,66,261,166,-0.454895,-0.0915855,0,-1.5,8.0042e-38,0,0,0,-0.7405,-0.216471,0,0,0,0,-0.981001,-0.287297,10900,0,0,0,0,0,0,0,0,0,2.51,0.324707
7769,-0.831055,0.199219,-3.94629,0.00180708,-0.000530729,-0.001558,0.103377,-0.0248797,2.0882,-4.84794,0.0289138,-0.30986,-0.75628,-0.221092,-0.989194,-0.289628,2.0882,0,0,251,79,251,79,347,66,261,166,-0.456042,-0.0936107,0,-1.5,8.0042e-38,0,0,0,-0.75628,-0.221092,0,0,0,0,-0.989194,-0.289628,10900,0,0,0,0,0,0,0,0,0,2.51,0.331638
7785,-0.797852,0.265625,-5.69629,0.000570545,0.00094845,-0.000730602,0.103371,-0.0248846,2.08819,-4.84794,0.0289138,-0.30986,-0.77219,-0.225749,-0.997323,-0.291939,2.08819,0,0,251,79,251,79,347,66,261,166,-0.457193,-0.0956334,0,-1.5,8.0042e-38,0,0,0,-0.77219,-0.225749,0,0,0,0,-0.997323,-0.291939,10900,0,0,0,0,0,0,0,0,0,2.51,0.338624
7802,-0.797852,0.265625,-5.69629,0.000570545,0.00094845,-0.000730602,0.103371,-0.0248846,2.08819,-4.86293,0.0189194,-0.298424,-0.788232,-0.230444,-1.00539,-0.29423,2.08819,0,0,252,76,252,76,347,66,263,166,-0.458347,-0.0976615,0,-1.5,8.0042e-38,0,0,0,-0.788232,-0.230444,0,0,0,0,-1.00539,-0.29423,10800,0,0,0,0,0,0,0,0,0,2.51,0.345667
7817,-0.754883,0.1875,4.80078,0.00231525,-0.000263894,-0.00217302,0.103431,-0.0249325,2.08812,-4.86293,0.0189194,-0.298424,-0.804402,-0.235176,-1.01339,-0.296503,2.08815,0,0,252,76,252,76,347,66,263,166,-0.459509,-0.0997184,0,-1.5,8.0042e-38,0,0,0,-0.804402,-0.235176,0,0,0,0,-1.01339,-0.296503,10800,0,0,0,0,0,0,0,0,0,2.51,0.352764
7833,-0.754883,0.145508,-0.0488281,0.00261943,-0.00053995,-0.00213834,0.103459,-0.024957,2.08809,-4.87324,0.0344703,-0.299769,-0.820698,-0.239943,-1.02134,-0.298755,2.08812,0,0,251,78,251,78,347,66,261,166,-0.460673,-0.101772,0,-1.5,8.0042e-38,0,0,0,-0.820698,-0.239943,0,0,0,0,-1.02134,-0.298755,10700,0,0,0,0,0,0,0,0,0,2.51,0.359915
7849,-0.754883,0.145508,-3.77246,0.00217397,-0.000906219,-0.00132241,0.103483,-0.0249805,2.08807,-4.87324,0.0344703,-0.299769,-0.83712,-0.244746,-1.02923,-0.300987,2.08807,0,0,251,78,251,78,347,66,261,166,-0.461844,-0.103849,0,-1.5,8.0042e-38,0,0,0,-0.83712,-0.244746,0,0,0,0,-1.02923,-0.300987,10700,0,0,0,0,0,0,0,0,0,2.51,0.367119
7865,-0.754883,0.145508,-3.77246,0.00217397,-0.000906219,-0.00132241,0.103483,-0.0249805,2.08807,-4.87324,0.0344703,-0.299769,-0.853667,-0.249584,-1.03706,-0.3032,2.08807,0,0,251,78,251,78,347,66,261,166,-0.463015,-0.105907,0,-1.5,8.0042e-38,0,0,0,-0.853667,-0.249584,0,0,0,0,-1.03706,-0.3032,10700,0,0,0,0,0,0,0,0,0,2.51,0.374377
7881,-0.754883,0.145508,0.0908203,0.00359443,-0.000582287,-0.002154,0.103542,-0.0250155,2.08802,-4.87324,0.0344703,-0.299769,-0.870339,-0.254458,-1.04484,-0.305395,2.08802,0,0,251,78,251,78,347,66,261,166,-0.464193,-0.107993,0,-1.5,8.0042e-38,0,0,0,-0.870339,-0.254458,0,0,0,0,-1.04484,-0.305395,10700,0,0,0,0,0,0,0,0,0,2.51,0.381687
7897,-0.754883,0.145508,0.0908203,0.00359443,-0.000582287,-0.002154,0.103542,-0.0250155,2.08802,-4.87506,0.0230037,-0.303862,-0.887136,-0.259366,-1.05256,-0.307571,2.08802,0,0,251,79,251,79,347,66,263,166,-0.465372,-0.110066,0,-1.5,8.0042e-38,0,0,0,-0.887136,-0.259366,0,0,0,0,-1.05256,-0.307571,10900,0,0,0,0,0,0,0,0,0,2.51,0.38905
7913,-0.754883,0.145508,-1.05762,0.00352653,-0.000831277,-0.00266132,0.103631,-0.0250573,2.08797,-4.87506,0.0230037,-0.303862,-0.904055,-0.26431,-1.06022,-0.30973,2.08797,0,0,251,79,251,79,347,66,263,166,-0.466559,-0.112171,0,-1.5,8.0042e-38,0,0,0,-0.904055,-0.26431,0,0,0,0,-1.06022,-0.30973,10900,0,0,0,0,0,0,0,0,0,2.51,0.396464
7928,-0.754883,0.145508,-3.53418,0.00266037,2.21777e-05,-0.00135316,0.103688,-0.0250725,2.08793,-4.8483,0.0286211,-0.310661,-0.920027,-0.268975,-1.06736,-0.311739,2.08797,0,0,251,79,251,79,347,66,261,166,-0.467672,-0.114129,0,-1.5,8.0042e-38,0,0,0,-0.920027,-0.268975,0,0,0,0,-1.06736,-0.311739,10900,0,0,0,0,0,0,0,0,0,2.51,0.403463
7944,-0.754883,0.164062,-4.45703,0.00357525,0.000431618,-0.00142244,0.103724,-0.0250926,2.08791,-4.8483,0.0286211,-0.310661,-0.937184,-0.273985,-1.07492,-0.313867,2.08793,0,0,251,79,251,79,347,66,261,166,-0.468866,-0.116242,0,-1.5,8.0042e-38,0,0,0,-0.937184,-0.273985,0,0,0,0,-1.07492,-0.313867,10900,0,0,0,0,0,0,0,0,0,2.51,0.410978
7960,-0.754883,0.164062,-4.45703,0.00357525,0.000431618,-0.00142244,0.103724,-0.0250926,2.08791,-4.82143,0.0269821,-0.309889,-0.95446,-0.279029,-1.08243,-0.315978,2.08791,0,0,251,76,251,76,347,66,261,166,-0.470063,-0.118354,0,-1.5,8.0042e-38,0,0,0,-0.95446,-0.279029,0,0,0,0,-1.08243,-0.315978,10900,0,0,0,0,0,0,0,0,0,2.51,0.418543
7976,-0.754883,0.288086,1.37305,0.00236143,-0.000705748,-0.00173199,0.103768,-0.0251264,2.08787,-4.82143,0.0269821,-0.309889,-0.970764,-0.283787,-1.08942,-0.317941,2.08787,0,0,251,76,251,76,347,66,261,166,-0.47119,-0.120352,0,-1.5,8.0042e-38,0,0,0,-0.970764,-0.283787,0,0,0,0,-1.08942,-0.317941,10900,0,0,0,0,0,0,0,0,0,2.51,0.425681
7992,-0.754883,0.273438,-5.28613,0.00306867,-0.000160782,-0.00120426,0.103793,-0.0251412,2.08785,-4.82215,0.0278327,-0.312641,-0.989373,-0.289217,-1.09729,-0.320147,2.08785,0,0,251,79,251,79,347,64,261,166,-0.472471,-0.12261,0,-1.5,8.0042e-38,0,0,0,-0.989373,-0.289217,0,0,0,0,-1.09729,-0.320147,11118,0,0,0,0,0,0,0,0,0,2.51,0.433826
8007,-0.754883,0.240234,6.91211,0.0021208,0.000447682,-0.00240645,0.103809,-0.0251549,2.08781,-4.82215,0.0278327,-0.312641,-1.0059,-0.294038,-1.10418,-0.322077,2.08781,0,0,251,79,251,79,347,64,261,166,-0.473605,-0.124618,0,-1.5,8.0042e-38,0,0,0,-1.0059,-0.294038,0,0,0,0,-1.10418,-0.322077,11118,0,0,0,0,0,0,0,0,0,2.51,0.441058
8023,-0.754883,0.207031,4.20312,0.00256354,0.000247639,-0.00123893,0.103833,-0.0251726,2.0878,-4.86656,0.0220529,-0.304268,-1.02364,-0.299213,-1.11148,-0.324119,2.0878,0,0,251,78,251,78,347,66,263,166,-0.474817,-0.126757,0,-1.5,8.0042e-38,0,0,0,-1.02364,-0.299213,0,0,0,0,-1.11148,-0.324119,10900,0,0,0,0,0,0,0,0,0,2.51,0.44882
8043,-0.754883,0.15918,-5.05566,0.00199826,0.000245978,-0.000973107,0.103857,-0.0252006,2.08774,-4.86656,0.0220529,-0.304268,-1.046,-0.30573,-1.12052,-0.326648,2.08774,0,0,251,78,251,78,347,66,263,166,-0.47634,-0.129456,0,-1.5,8.0042e-38,0,0,0,-1.046,-0.30573,0,0,0,0,-1.12052,-0.326648,10900,0,0,0,0,0,0,0,0,0,2.51,0.458595
8059,-0.754883,0.192383,1.9248,0.00158607,-0.000674341,-0.00207779,0.103869,-0.0252288,2.08771,-4.87549,0.0224839,-0.304756,-1.064,-0.310977,-1.1277,-0.328649,2.08771,0,0,251,79,251,79,347,66,263,166,-0.477561,-0.131619,0,-1.5,8.0042e-38,0,0,0,-1.064,-0.310977,0,0,0,0,-1.1277,-0.328649,10900,0,0,0,0,0,0,0,0,0,2.51,0.466465
8075,-0.754883,0.225586,-3.62598,0.000700121,-0.000267133,-0.00244501,0.103882,-0.0252428,2.08767,-4.87549,0.0224839,-0.304756,-1.08211,-0.316255,-1.13482,-0.330631,2.08767,0,0,251,79,251,79,347,66,263,166,-0.478786,-0.133788,0,-1.5,8.0042e-38,0,0,0,-1.08211,-0.316255,0,0,0,0,-1.13482,-0.330631,10900,0,0,0,0,0,0,0,0,0,2.51,0.474383
8091,-0.754883,0.258789,5.2334,-8.00316e-05,-0.0001092,-0.00192009,0.103874,-0.025253,2.08765,-4.84005,0.0276441,-0.311282,-1.10034,-0.321566,-1.14189,-0.332595,2.08765,0,0,251,78,251,78,347,66,261,166,-0.480013,-0.135957,0,-1.5,8.0042e-38,0,0,0,-1.10034,-0.321566,0,0,0,0,-1.14189,-0.332595,10900,0,0,0,0,0,0,0,0,0,2.51,0.482349
8107,-0.754883,0.257812,-3.14844,0.00130888,-0.000223917,-0.00106632,0.103892,-0.025303,2.0876,-4.84005,0.0276441,-0.311282,-1.11869,-0.326907,-1.1489,-0.334541,2.08763,0,0,251,78,251,78,347,66,261,166,-0.481244,-0.138132,0,-1.5,8.0042e-38,0,0,0,-1.11869,-0.326907,0,0,0,0,-1.1489,-0.334541,10900,0,0,0,0,0,0,0,0,0,2.51,0.490361
8123,-0.754883,0.257812,-3.14844,0.00130888,-0.000223917,-0.00106632,0.103892,-0.025303,2.0876,-4.84884,0.0281228,-0.311889,-1.13714,-0.33228,-1.15586,-0.336468,2.0876,0,0,251,79,251,79,347,66,261,166,-0.482478,-0.140313,0,-1.5,8.0042e-38,0,0,0,-1.13714,-0.33228,0,0,0,0,-1.15586,-0.336468,10900,0,0,0,0,0,0,0,0,0,2.51,0.49842
8139,-0.811523,0.191406,5.80566,0.00103816,-0.000138372,-0.000893008,0.103909,-0.0253509,2.08757,-4.84884,0.0281228,-0.311889,-1.15571,-0.337684,-1.16277,-0.338377,2.08757,0,0,251,79,251,79,347,66,261,166,-0.483717,-0.142506,0,-1.5,8.0042e-38,0,0,0,-1.15571,-0.337684,0,0,0,0,-1.16277,-0.338377,10900,0,0,0,0,0,0,0,0,0,2.51,0.506526
8155,-0.844727,0.158203,-0.149414,0.00159636,-0.00056754,-0.00184752,0.103928,-0.0253733,2.08755,-4.87419,0.0336708,-0.30196,-1.17438,-0.343118,-1.16963,-0.340266,2.08755,0,0,251,78,251,78,347,66,261,166,-0.484957,-0.144697,0,-1.5,8.0042e-38,0,0,0,-1.17438,-0.343118,0,0,0,0,-1.16963,-0.340266,10700,0,0,0,0,0,0,0,0,0,2.51,0.514677
8171,-0.87793,0.138672,-1.7041,-1.98013e-05,0.000582864,-0.000782153,0.103932,-0.0253833,2.08754,-4.87419,0.0336708,-0.30196,-1.19317,-0.348581,-1.17644,-0.342137,2.08754,0,0,251,78,251,78,347,66,261,166,-0.486201,-0.146892,0,-1.5,8.0042e-38,0,0,0,-1.19317,-0.348581,0,0,0,0,-1.17644,-0.342137,10700,0,0,0,0,0,0,0,0,0,2.51,0.522872
8188,-0.865234,0.140625,-3.23926,0.00151472,0.000480575,-0.00176896,0.103937,-0.0253888,2.08752,-6.93104,-5.68097,-0.399949,-1.21325,-0.35442,-1.18362,-0.344109,2.08752,0,0,614,98,614,98,668,76,626,161,-0.487527,-0.149234,0,-1.5,8.0042e-38,0,0,0,-1.21325,-0.35442,0,0,0,0,-1.18362,-0.344109,5610,0,0,0,0,0,0,0,0,0,2.51,0.53163
8203,-0.865234,0.140625,-3.23926,0.00151472,0.000480575,-0.00176896,0.103937,-0.0253888,2.08752,-6.93104,-5.68097,-0.399949,-1.23106,-0.359598,-1.1899,-0.345834,2.08752,0,0,614,98,614,98,668,76,626,161,-0.488699,-0.151297,0,-1.5,8.0042e-38,0,0,0,-1.23106,-0.359598,0,0,0,0,-1.1899,-0.345834,5610,0,0,0,0,0,0,0,0,0,2.51,0.539397
8218,-0.798828,0.207031,5.45215,0.00241633,0.0010024,-0.000447593,0.103963,-0.0254001,2.08748,-4.84034,0.0275638,-0.31197,-1.24897,-0.364802,-1.19613,-0.347545,2.08748,0,0,251,78,251,78,347,66,261,166,-0.489875,-0.153383,0,-1.5,8.0042e-38,0,0,0,-1.24897,-0.364802,0,0,0,0,-1.19613,-0.347545,10900,0,0,0,0,0,0,0,0,0,2.51,0.547203
8234,-0.736328,0.268555,-6.4668,0.00270961,-0.000397295,-0.00247831,0.104036,-0.0254267,2.08743,-4.84034,0.0275638,-0.31197,-1.26818,-0.370382,-1.20273,-0.349358,2.08748,0,0,251,78,251,78,347,66,261,166,-0.491133,-0.155597,0,-1.5,8.0042e-38,0,0,0,-1.26818,-0.370382,0,0,0,0,-1.20273,-0.349358,10900,0,0,0,0,0,0,0,0,0,2.51,0.555572
8251,-0.743164,0.235352,4.61621,0.00254413,0.000728583,-0.0015275,0.104065,-0.0254351,2.08741,-4.84034,0.0275638,-0.31197,-1.28749,-0.37599,-1.2093,-0.351157,2.08741,0,0,251,78,251,78,347,66,261,166,-0.492395,-0.157851,0,-1.5,8.0042e-38,0,0,0,-1.28749,-0.37599,0,0,0,0,-1.2093,-0.351157,10900,0,0,0,0,0,0,0,0,0,2.51,0.563985
8267,-0.776367,0.202148,-2.72363,0.00208426,0.000536965,-0.00141683,0.104096,-0.0254382,2.0874,-4.84042,0.0274168,-0.312144,-1.30691,-0.381628,-1.21582,-0.352942,2.0874,0,0,251,78,251,78,347,66,261,166,-0.49366,-0.160082,0,-1.5,8.0042e-38,0,0,0,-1.30691,-0.381628,0,0,0,0,-1.21582,-0.352942,10900,0,0,0,0,0,0,0,0,0,2.51,0.572441
8282,-0.80957,0.168945,-1.77051,0.00179027,0.000508272,-0.00176104,0.10412,-0.0254485,2.08738,-4.84042,0.0274168,-0.312144,-1.32643,-0.387293,-1.22229,-0.354715,2.08738,0,0,251,78,251,78,347,66,261,166,-0.494929,-0.162323,0,-1.5,8.0042e-38,0,0,0,-1.32643,-0.387293,0,0,0,0,-1.22229,-0.354715,10900,0,0,0,0,0,0,0,0,0,2.51,0.58094
8298,-0.80957,0.168945,-1.77051,0.00179027,0.000508272,-0.00176104,0.10412,-0.0254485,2.08738,-4.84045,0.0273285,-0.312195,-1.34605,-0.392987,-1.22871,-0.356474,2.08738,0,0,251,78,251,78,347,66,261,166,-0.4962,-0.164562,0,-1.5,8.0042e-38,0,0,0,-1.34605,-0.392987,0,0,0,0,-1.22871,-0.356474,10900,0,0,0,0,0,0,0,0,0,2.51,0.589481
8315,-0.889648,0.132812,5.41895,0.00160582,-0.000320215,-0.000868067,0.104184,-0.0255044,2.08733,-4.84045,0.0273285,-0.312195,-1.36578,-0.398709,-1.23508,-0.358218,2.08734,0,0,251,78,251,78,347,66,261,166,-0.497476,-0.166829,0,-1.5,8.0042e-38,0,0,0,-1.36578,-0.398709,0,0,0,0,-1.23508,-0.358218,10900,0,0,0,0,0,0,0,0,0,2.51,0.598064
8330,-0.889648,0.199219,5.01074,0.003448,0.000435299,-0.00179373,0.104213,-0.0255201,2.08731,-4.78395,0.0323435,-0.32166,-1.38561,-0.404459,-1.24141,-0.359946,2.08733,0,0,249,78,249,78,347,64,261,166,-0.498754,-0.169085,0,-1.5,8.0042e-38,0,0,0,-1.38561,-0.404459,0,0,0,0,-1.24141,-0.359946,11322,0,0,0,0,0,0,0,0,0,2.51,0.606688
8346,-0.873047,0.265625,4.72852,0.00321574,-0.000614841,-0.00121807,0.104248,-0.0255393,2.08729,-4.78395,0.0323435,-0.32166,-1.40554,-0.410236,-1.2477,-0.361659,2.08729,0,0,249,78,249,78,347,64,261,166,-0.500036,-0.171362,0,-1.5,8.0042e-38,0,0,0,-1.40554,-0.410236,0,0,0,0,-1.2477,-0.361659,11322,0,0,0,0,0,0,0,0,0,2.51,0.615354
8362,-0.873047,0.265625,4.72852,0.00321574,-0.000614841,-0.00121807,0.104248,-0.0255393,2.08729,-7.05451,-5.76591,-0.37494,-1.42556,-0.41604,-1.25394,-0.363358,2.08729,0,0,614,98,614,98,668,76,626,161,-0.50132,-0.173624,0,-1.5,8.0042e-38,0,0,0,-1.42556,-0.41604,0,0,0,0,-1.25394,-0.363358,5270,0,0,0,0,0,0,0,0,0,2.51,0.62406
8377,-0.806641,0.282227,0.75,0.00131562,-0.000599737,-0.00165456,0.104272,-0.0255748,2.08726,-7.05451,-5.76591,-0.37494,-1.44443,-0.421506,-1.25975,-0.364937,2.08726,0,0,614,98,614,98,668,76,626,161,-0.502527,-0.175766,0,-1.5,8.0042e-38,0,0,0,-1.44443,-0.421506,0,0,0,0,-1.25975,-0.364937,5270,0,0,0,0,0,0,0,0,0,2.51,0.632258
8394,-0.806641,0.282227,0.75,0.00131562,-0.000599737,-0.00165456,0.104272,-0.0255748,2.08726,-4.87458,0.0331666,-0.302839,-1.46592,-0.42773,-1.26629,-0.366711,2.08726,0,0,251,78,251,78,347,66,261,166,-0.503899,-0.178181,0,-1.5,8.0042e-38,0,0,0,-1.46592,-0.42773,0,0,0,0,-1.26629,-0.366711,10700,0,0,0,0,0,0,0,0,0,2.51,0.641595
8410,-0.740234,0.269531,6.56055,0.000804546,-7.08235e-05,-0.00138164,0.104293,-0.0256141,2.08722,-4.87458,0.0331666,-0.302839,-1.48497,-0.433245,-1.27201,-0.368262,2.08722,0,0,251,78,251,78,347,66,261,166,-0.505112,-0.180336,0,-1.5,8.0042e-38,0,0,0,-1.48497,-0.433245,0,0,0,0,-1.27201,-0.368262,10700,0,0,0,0,0,0,0,0,0,2.51,0.649868
8426,-0.783203,0.157227,-2.32422,0.00213776,0.000915411,-0.00173656,0.104334,-0.0256247,2.08718,-4.80892,0.0289035,-0.315794,-1.50666,-0.439525,-1.27845,-0.370003,2.08719,0,0,251,76,251,76,347,66,260,166,-0.506489,-0.182775,0,-1.5,8.0042e-38,0,0,0,-1.50666,-0.439525,0,0,0,0,-1.27845,-0.370003,10900,0,0,0,0,0,0,0,0,0,2.51,0.659288
8442,-0.816406,0.128906,-1.68066,0.0017878,-0.000243469,-0.000831967,0.104339,-0.0256375,2.08716,-4.80892,0.0289035,-0.315794,-1.52718,-0.445462,-1.28446,-0.371629,2.08718,0,0,251,76,251,76,347,66,260,166,-0.507789,-0.185072,0,-1.5,8.0042e-38,0,0,0,-1.52718,-0.445462,0,0,0,0,-1.28446,-0.371629,10900,0,0,0,0,0,0,0,0,0,2.51,0.668193
8458,-0.816406,0.128906,-1.68066,0.0017878,-0.000243469,-0.000831967,0.104339,-0.0256375,2.08716,-4.82706,0.029799,-0.316479,-1.54779,-0.451424,-1.29043,-0.37324,2.08716,0,0,251,78,251,78,347,66,260,166,-0.509091,-0.187374,0,-1.5,8.0042e-38,0,0,0,-1.54779,-0.451424,0,0,0,0,-1.29043,-0.37324,10900,0,0,0,0,0,0,0,0,0,2.51,0.677136
8474,-0.882812,0.195312,-5.55176,0.00173234,-0.000297267,-0.000198646,0.104385,-0.0256628,2.08712,-4.82706,0.029799,-0.316479,-1.5685,-0.457412,-1.29636,-0.374838,2.08712,0,0,251,78,251,78,347,66,260,166,-0.510397,-0.189694,0,-1.5,8.0042e-38,0,0,0,-1.5685,-0.457412,0,0,0,0,-1.29636,-0.374838,10900,0,0,0,0,0,0,0,0,0,2.51,0.686119
8490,-0.90918,0.228516,5.42188,0.00304181,0.000818769,-0.00248351,0.104421,-0.0256668,2.08709,-4.86098,0.035788,-0.306855,-1.5893,-0.463427,-1.30224,-0.376424,2.08709,0,0,251,78,251,78,347,66,260,166,-0.511705,-0.192015,0,-1.5,8.0042e-38,0,0,0,-1.5893,-0.463427,0,0,0,0,-1.30224,-0.376424,10700,0,0,0,0,0,0,0,0,0,2.51,0.69514
8507,-0.875977,0.245117,5.02539,0.00300165,0.00150224,-0.00158055,0.104443,-0.0256595,2.08708,-4.86098,0.035788,-0.306855,-1.61151,-0.469844,-1.30845,-0.378098,2.08708,0,0,251,78,251,78,347,66,260,166,-0.5131,-0.194478,0,-1.5,8.0042e-38,0,0,0,-1.61151,-0.469844,0,0,0,0,-1.30845,-0.378098,10700,0,0,0,0,0,0,0,0,0,2.51,0.704766
8523,-0.842773,0.245117,4.77051,0.00178414,0.00029297,-0.0019418,0.104457,-0.0256717,2.08706,-4.90168,0.0271641,-0.296774,-1.63251,-0.47591,-1.31424,-0.379661,2.08706,0,0,251,78,251,78,347,66,263,166,-0.514415,-0.196807,0,-1.5,8.0042e-38,0,0,0,-1.63251,-0.47591,0,0,0,0,-1.31424,-0.379661,10700,0,0,0,0,0,0,0,0,0,2.51,0.713865
8540,-0.776367,0.207031,0.736328,0.0014884,-0.000143889,-0.0014565,0.104471,-0.0256918,2.08701,-4.90168,0.0271641,-0.296774,-1.65359,-0.482001,-1.32,-0.381211,2.08701,0,0,251,78,251,78,347,66,263,166,-0.515733,-0.199155,0,-1.5,8.0042e-38,0,0,0,-1.65359,-0.482001,0,0,0,0,-1.32,-0.381211,10700,0,0,0,0,0,0,0,0,0,2.51,0.723002
8556,-0.775391,0.173828,-5.7793,0.00108218,-0.000817648,-0.00157278,0.104479,-0.025709,2.08699,-4.82715,0.0296175,-0.316695,-1.67477,-0.488117,-1.32571,-0.382746,2.08699,0,0,251,78,251,78,347,66,260,166,-0.517053,-0.201498,0,-1.5,8.0042e-38,0,0,0,-1.67477,-0.488117,0,0,0,0,-1.32571,-0.382746,10900,0,0,0,0,0,0,0,0,0,2.51,0.732175
8571,-0.775391,0.141602,6.53418,0.00207238,0.000301513,-0.00133245,0.104493,-0.0257183,2.08697,-4.82715,0.0296175,-0.316695,-1.69605,-0.494257,-1.33138,-0.384267,2.08697,0,0,251,78,251,78,347,66,260,166,-0.518377,-0.203837,0,-1.5,8.0042e-38,0,0,0,-1.69605,-0.494257,0,0,0,0,-1.33138,-0.384267,10900,0,0,0,0,0,0,0,0,0,2.51,0.741385
8588,-0.775391,0.141602,3.90625,0.00234015,-2.70975e-05,-0.000632647,0.104513,-0.0257295,2.08696,-4.82725,0.0295639,-0.316913,-1.71875,-0.500807,-1.33735,-0.38587,2.08696,0,0,251,78,251,78,347,66,260,166,-0.519787,-0.206331,0,-1.5,8.0042e-38,0,0,0,-1.71875,-0.500807,0,0,0,0,-1.33735,-0.38587,10900,0,0,0,0,0,0,0,0,0,2.51,0.751211
8603,-0.775391,0.141602,3.90625,0.00234015,-2.70975e-05,-0.000632647,0.104513,-0.0257295,2.08696,-4.82725,0.0295639,-0.316913,-1.73886,-0.506609,-1.34258,-0.387271,2.08696,0,0,251,78,251,78,347,66,260,166,-0.521033,-0.208528,0,-1.5,8.0042e-38,0,0,0,-1.73886,-0.506609,0,0,0,0,-1.34258,-0.387271,10900,0,0,0,0,0,0,0,0,0,2.51,0.759913
8618,-0.775391,0.141602,-1.7002,0.00257823,-0.000550666,-0.00217301,0.10456,-0.0257522,2.08691,-4.80286,0.0235794,-0.324278,-1.75905,-0.512431,-1.34778,-0.388663,2.08691,0,0,251,78,251,78,349,66,260,166,-0.522281,-0.210753,0,-1.5,8.0042e-38,0,0,0,-1.75905,-0.512431,0,0,0,0,-1.34778,-0.388663,10900,0,0,0,0,0,0,0,0,0,2.51,0.768647
8635,-0.775391,0.141602,-5.55469,0.00274028,0.000331893,-0.00168914,0.104601,-0.0257738,2.08687,-4.80286,0.0235794,-0.324278,-1.78067,-0.518665,-1.35329,-0.390136,2.08691,0,0,251,78,251,78,349,66,260,166,-0.523617,-0.213107,0,-1.5,8.0042e-38,0,0,0,-1.78067,-0.518665,0,0,0,0,-1.35329,-0.390136,10900,0,0,0,0,0,0,0,0,0,2.51,0.777998
8651,-0.775391,0.141602,5.40039,0.00271936,-0.000340362,-0.00153799,0.104626,-0.0257915,2.08685,-4.80286,0.0235794,-0.324278,-1.80374,-0.525315,-1.3591,-0.391688,2.08685,0,0,251,78,251,78,349,66,260,166,-0.525036,-0.215645,0,-1.5,8.0042e-38,0,0,0,-1.80374,-0.525315,0,0,0,0,-1.3591,-0.391688,10900,0,0,0,0,0,0,0,0,0,2.51,0.787972
8667,-0.775391,0.141602,5.01367,0.0010814,0.000464301,-0.00210856,0.104638,-0.025799,2.08683,-4.82736,0.0294057,-0.317169,-1.82554,-0.531596,-1.36452,-0.393135,2.08683,0,0,251,78,251,78,347,66,260,166,-0.526376,-0.218018,0,-1.5,8.0042e-38,0,0,0,-1.82554,-0.531596,0,0,0,0,-1.36452,-0.393135,10900,0,0,0,0,0,0,0,0,0,2.51,0.797395
8682,-0.775391,0.141602,4.75781,0.00190265,-0.000512763,-0.00122975,0.104649,-0.0258234,2.0868,-4.82736,0.0294057,-0.317169,-1.84606,-0.537507,-1.36958,-0.39448,2.0868,0,0,251,78,251,78,347,66,260,166,-0.527634,-0.220253,0,-1.5,8.0042e-38,0,0,0,-1.84606,-0.537507,0,0,0,0,-1.36958,-0.39448,10900,0,0,0,0,0,0,0,0,0,2.51,0.80626
8698,-0.775391,0.141602,4.75781,0.00190265,-0.000512763,-0.00122975,0.104649,-0.0258234,2.0868,-4.82741,0.0293507,-0.317287,-1.86802,-0.543833,-1.37493,-0.395902,2.0868,0,0,251,78,251,78,347,66,260,166,-0.52898,-0.222626,0,-1.5,8.0042e-38,0,0,0,-1.86802,-0.543833,0,0,0,0,-1.37493,-0.395902,10900,0,0,0,0,0,0,0,0,0,2.51,0.81575
8715,-0.775391,0.141602,-5.74219,0.00182292,-0.000137945,-0.00157554,0.10467,-0.0258697,2.08673,-4.82741,0.0293507,-0.317287,-1.89146,-0.55058,-1.38056,-0.397399,2.08676,0,0,251,78,251,78,347,66,260,166,-0.530411,-0.225177,0,-1.5,8.0042e-38,0,0,0,-1.89146,-0.55058,0,0,0,0,-1.38056,-0.397399,10900,0,0,0,0,0,0,0,0,0,2.51,0.82587
8730,-0.775391,0.141602,6.53711,0.00225179,0.00084145,-0.000324736,0.1047,-0.0258704,2.08672,-4.86796,0.0208048,-0.307401,-1.91222,-0.556554,-1.3855,-0.398705,2.08673,0,0,251,78,251,78,347,66,263,166,-0.531676,-0.227422,0,-1.5,8.0042e-38,0,0,0,-1.91222,-0.556554,0,0,0,0,-1.3855,-0.398705,10900,0,0,0,0,0,0,0,0,0,2.51,0.834831
8746,-0.775391,0.145508,3.88184,0.00320286,1.38447e-05,-0.000787927,0.104739,-0.0258744,2.0867,-4.86796,0.0208048,-0.307401,-1.93444,-0.562947,-1.39073,-0.400089,2.08672,0,0,251,78,251,78,347,66,263,166,-0.533029,-0.229813,0,-1.5,8.0042e-38,0,0,0,-1.93444,-0.562947,0,0,0,0,-1.39073,-0.400089,10900,0,0,0,0,0,0,0,0,0,2.51,0.844421
8762,-0.775391,0.145508,3.88184,0.00320286,1.38447e-05,-0.000787927,0.104739,-0.0258744,2.0867,-4.86796,0.0208048,-0.307401,-1.95674,-0.569363,-1.39593,-0.401464,2.0867,0,0,251,78,251,78,347,66,263,166,-0.534385,-0.232216,0,-1.5,8.0042e-38,0,0,0,-1.95674,-0.569363,0,0,0,0,-1.39593,-0.401464,10900,0,0,0,0,0,0,0,0,0,2.51,0.854044
8777,-0.775391,0.211914,-0.246094,0.00114938,0.000152348,-0.00126083,0.104766,-0.0258947,2.08665,-4.86796,0.0208048,-0.307401,-1.97773,-0.575397,-1.40077,-0.402743,2.08665,0,0,251,78,251,78,347,66,263,166,-0.535656,-0.234489,0,-1.5,8.0042e-38,0,0,0,-1.97773,-0.575397,0,0,0,0,-1.40077,-0.402743,10900,0,0,0,0,0,0,0,0,0,2.51,0.863096
8794,-0.775391,0.211914,-0.246094,0.00114938,0.000152348,-0.00126083,0.104766,-0.0258947,2.08665,-4.80195,0.0286782,-0.319086,-2.00161,-0.58226,-1.40621,-0.404181,2.08665,0,0,251,78,251,78,347,64,260,166,-0.537102,-0.23704,0,-1.5,8.0042e-38,0,0,0,-2.00161,-0.58226,0,0,0,0,-1.40621,-0.404181,11118,0,0,0,0,0,0,0,0,0,2.51,0.87339
8809,-0.775391,0.27832,-1.83691,0.00166334,4.91601e-05,-0.00176624,0.104815,-0.025906,2.08661,-4.80195,0.0286782,-0.319086,-2.02274,-0.588335,-1.41098,-0.405439,2.08661,0,0,251,78,251,78,347,64,260,166,-0.538378,-0.23932,0,-1.5,8.0042e-38,0,0,0,-2.02274,-0.588335,0,0,0,0,-1.41098,-0.405439,11118,0,0,0,0,0,0,0,0,0,2.51,0.882502
8826,-0.775391,0.279297,-4.73926,0.00131609,0.000197722,-0.000770461,0.104837,-0.0259214,2.0866,-6.98058,-5.71411,-0.399308,-2.04537,-0.594836,-1.41603,-0.406772,2.0866,0,0,614,98,614,98,668,76,626,161,-0.539744,-0.241738,0,-1.5,8.0042e-38,0,0,0,-2.04537,-0.594836,0,0,0,0,-1.41603,-0.406772,5440,0,0,0,0,0,0,0,0,0,2.51,0.892254
8842,-0.775391,0.212891,-2.70801,0.00251321,0.00033556,-0.00191412,0.104887,-0.0259453,2.08654,-6.98058,-5.71411,-0.399308,-2.0695,-0.601767,-1.42135,-0.408176,2.0866,0,0,614,98,614,98,668,76,626,161,-0.541199,-0.244304,0,-1.5,8.0042e-38,0,0,0,-2.0695,-0.601767,0,0,0,0,-1.42135,-0.408176,5440,0,0,0,0,0,0,0,0,0,2.51,0.90265
8858,-0.775391,0.212891,-2.70801,0.00251321,0.00033556,-0.00191412,0.104887,-0.0259453,2.08654,-7.21314,-5.89487,-0.365897,-2.0923,-0.608311,-1.42633,-0.409486,2.08654,0,0,614,98,614,98,668,79,626,161,-0.542568,-0.246751,0,-1.5,8.0042e-38,0,0,0,-2.0923,-0.608311,0,0,0,0,-1.42633,-0.409486,5084,0,0,0,0,0,0,0,0,0,2.51,0.912466
8874,-0.775391,0.146484,-4.45996,0.00258188,0.00054457,-0.00146736,0.104938,-0.0259477,2.0865,-7.21314,-5.89487,-0.365897,-2.11517,-0.614876,-1.43127,-0.410786,2.0865,0,0,614,98,614,98,668,79,626,161,-0.543938,-0.249202,0,-1.5,8.0042e-38,0,0,0,-2.11517,-0.614876,0,0,0,0,-1.43127,-0.410786,5084,0,0,0,0,0,0,0,0,0,2.51,0.922314
8890,-0.775391,0.192383,5.9502,0.00196592,0.00111231,-0.00191371,0.104959,-0.025951,2.08647,-4.87543,0.0321402,-0.30475,-2.13812,-0.621462,-1.43618,-0.412079,2.08647,0,0,251,78,251,78,347,66,261,166,-0.545314,-0.251645,0,-1.5,8.0042e-38,0,0,0,-2.13812,-0.621462,0,0,0,0,-1.43618,-0.412079,10700,0,0,0,0,0,0,0,0,0,2.51,0.932193
8906,-0.775391,0.258789,4.56641,0.00281462,-0.000655107,-0.000906767,0.10499,-0.0259747,2.08646,-4.87543,0.0321402,-0.30475,-2.16115,-0.628068,-1.44106,-0.413361,2.08646,0,0,251,78,251,78,347,66,261,166,-0.546693,-0.254085,0,-1.5,8.0042e-38,0,0,0,-2.16115,-0.628068,0,0,0,0,-1.44106,-0.413361,10700,0,0,0,0,0,0,0,0,0,2.51,0.942102
8922,-0.775391,0.304688,3.04785,0.00325188,-0.000400806,-0.00206608,0.105019,-0.0259888,2.08644,-4.82777,0.0288323,-0.318099,-2.18426,-0.634695,-1.4459,-0.414632,2.08644,0,0,251,78,251,78,347,66,260,166,-0.548073,-0.256535,0,-1.5,8.0042e-38,0,0,0,-2.18426,-0.634695,0,0,0,0,-1.4459,-0.414632,10900,0,0,0,0,0,0,0,0,0,2.51,0.952043
8938,-0.775391,0.238281,1.38184,0.00167436,-0.000513239,-0.00153715,0.10505,-0.026022,2.0864,-4.82777,0.0288323,-0.318099,-2.20744,-0.641343,-1.45071,-0.415894,2.08644,0,0,251,78,251,78,347,66,260,166,-0.549458,-0.258978,0,-1.5,8.0042e-38,0,0,0,-2.20744,-0.641343,0,0,0,0,-1.45071,-0.415894,10900,0,0,0,0,0,0,0,0,0,2.51,0.962014
8954,-0.775391,0.205078,-6.81738,0.00243029,0.00104078,-1.15e-05,0.105082,-0.0260287,2.0864,-4.82777,0.0288323,-0.318099,-2.2307,-0.64801,-1.45548,-0.417142,2.0864,0,0,251,78,251,78,347,66,260,166,-0.550841,-0.261448,0,-1.5,8.0042e-38,0,0,0,-2.2307,-0.64801,0,0,0,0,-1.45548,-0.417142,10900,0,0,0,0,0,0,0,0,0,2.51,0.972015
8971,-0.775391,0.171875,2.19629,0.00259498,0.000604272,-0.000443275,0.105106,-0.0260456,2.08639,-4.8226,0.0263382,-0.325885,-2.2555,-0.655116,-1.46052,-0.41846,2.08639,0,0,251,78,251,78,347,66,261,166,-0.552317,-0.264057,0,-1.5,8.0042e-38,0,0,0,-2.2555,-0.655116,0,0,0,0,-1.46052,-0.41846,10900,0,0,0,0,0,0,0,0,0,2.51,0.982674
8988,-0.775391,0.147461,0.358398,0.00210342,0.000323162,-0.000910325,0.105123,-0.0260552,2.08638,-4.86176,0.0347186,-0.308638,-2.28039,-0.662245,-1.46552,-0.419765,2.08638,0,0,251,78,251,78,347,66,260,166,-0.553795,-0.266672,0,-1.5,8.0042e-38,0,0,0,-2.28039,-0.662245,0,0,0,0,-1.46552,-0.419765,10700,0,0,0,0,0,0,0,0,0,2.51,0.993367
9003,-0.775391,0.147461,0.358398,0.00210342,0.000323162,-0.000910325,0.105123,-0.0260552,2.08638,-4.86176,0.0347186,-0.308638,-2.30241,-0.668552,-1.4699,-0.420907,2.08638,0,0,251,78,251,78,347,66,260,166,-0.555102,-0.268978,0,-1.5,8.0042e-38,0,0,0,-2.30241,-0.668552,0,0,0,0,-1.4699,-0.420907,10700,0,0,0,0,0,0,0,0,0,2.51,1.00283
9018,-0.775391,0.147461,5.21484,0.00100581,-0.000166915,-0.00110755,0.105124,-0.0260897,2.08634,-4.86176,0.0347186,-0.308638,-2.3245,-0.674877,-1.47424,-0.422039,2.08634,0,0,251,78,251,78,347,66,260,166,-0.556406,-0.271312,0,-1.5,8.0042e-38,0,0,0,-2.3245,-0.674877,0,0,0,0,-1.47424,-0.422039,10700,0,0,0,0,0,0,0,0,0,2.51,1.01231
9035,-0.775391,0.147461,6.01855,0.00145834,-0.000473077,-0.00119082,0.105143,-0.0261381,2.08631,-4.86178,0.0346935,-0.308683,-2.34814,-0.681642,-1.47885,-0.423234,2.08634,0,0,251,78,251,78,347,66,260,166,-0.557804,-0.27378,0,-1.5,8.0042e-38,0,0,0,-2.34814,-0.681642,0,0,0,0,-1.47885,-0.423234,10700,0,0,0,0,0,0,0,0,0,2.51,1.02246
9051,-0.775391,0.147461,2.49414,0.00280001,-4.5225e-05,-0.00245988,0.105166,-0.0261508,2.08629,-4.86178,0.0346935,-0.308683,-2.37333,-0.68885,-1.48371,-0.424487,2.08629,0,0,251,78,251,78,347,66,260,166,-0.559286,-0.276432,0,-1.5,8.0042e-38,0,0,0,-2.37333,-0.68885,0,0,0,0,-1.48371,-0.424487,10700,0,0,0,0,0,0,0,0,0,2.51,1.03328
9067,-0.775391,0.147461,2.29004,0.00140439,0.000369085,-0.00197372,0.105177,-0.0261528,2.08626,-4.8281,0.0286069,-0.318863,-2.39712,-0.695654,-1.48824,-0.425657,2.08626,0,0,251,78,251,78,347,66,260,166,-0.560686,-0.278918,0,-1.5,8.0042e-38,0,0,0,-2.39712,-0.695654,0,0,0,0,-1.48824,-0.425657,10900,0,0,0,0,0,0,0,0,0,2.51,1.04348
9083,-0.775391,0.147461,2.07129,0.00196578,-0.000270005,-0.00162639,0.105192,-0.0261662,2.08623,-4.8281,0.0286069,-0.318863,-2.42097,-0.702477,-1.49275,-0.426816,2.08623,0,0,251,78,251,78,347,66,260,166,-0.562087,-0.281413,0,-1.5,8.0042e-38,0,0,0,-2.42097,-0.702477,0,0,0,0,-1.49275,-0.426816,10900,0,0,0,0,0,0,0,0,0,2.51,1.05371
9099,-0.775391,0.147461,2.07129,0.00196578,-0.000270005,-0.00162639,0.105192,-0.0261662,2.08623,-4.86197,0.0346144,-0.309144,-2.44341,-0.708889,-1.49694,-0.427894,2.08623,0,0,251,78,251,78,347,66,260,166,-0.563405,-0.28374,0,-1.5,8.0042e-38,0,0,0,-2.44341,-0.708889,0,0,0,0,-1.49694,-0.427894,10700,0,0,0,0,0,0,0,0,0,2.51,1.06333
9115,-0.775391,0.168945,3.08496,0.000460403,-0.000676735,-0.00168496,0.105201,-0.0262012,2.0862,-4.86197,0.0346144,-0.309144,-2.46891,-0.716177,-1.50165,-0.429105,2.0862,0,0,251,78,251,78,347,66,260,166,-0.564897,-0.286399,0,-1.5,8.0042e-38,0,0,0,-2.46891,-0.716177,0,0,0,0,-1.50165,-0.429105,10700,0,0,0,0,0,0,0,0,0,2.51,1.07427
9130,-0.775391,0.235352,6.51074,0.000910626,3.06929e-05,-0.00254612,0.105208,-0.0262282,2.08613,-4.84195,0.0257101,-0.315586,-2.49147,-0.722624,-1.50578,-0.430161,2.0862,0,0,251,78,251,78,347,66,261,166,-0.566219,-0.288733,0,-1.5,8.0042e-38,0,0,0,-2.49147,-0.722624,0,0,0,0,-1.50578,-0.430161,10900,0,0,0,0,0,0,0,0,0,2.51,1.08394
9146,-0.775391,0.260742,5.80078,0.00239013,0.00011685,-0.00031468,0.105229,-0.0262289,2.08612,-4.84195,0.0257101,-0.315586,-2.51561,-0.729518,-1.51016,-0.431278,2.08613,0,0,251,78,251,78,347,66,261,166,-0.567623,-0.291264,0,-1.5,8.0042e-38,0,0,0,-2.51561,-0.729518,0,0,0,0,-1.51016,-0.431278,10900,0,0,0,0,0,0,0,0,0,2.51,1.09428
9162,-0.775391,0.260742,5.80078,0.00239013,0.00011685,-0.00031468,0.105229,-0.0262289,2.08612,-4.87599,0.0317399,-0.306073,-2.53982,-0.73643,-1.5145,-0.432385,2.08612,0,0,251,78,251,78,347,66,261,166,-0.569036,-0.293766,0,-1.5,8.0042e-38,0,0,0,-2.53982,-0.73643,0,0,0,0,-1.5145,-0.432385,10700,0,0,0,0,0,0,0,0,0,2.51,1.10465
9178,-0.775391,0.194336,-2.32422,0.00222539,-1.96627e-05,-0.00163155,0.10528,-0.0262627,2.08608,-4.87599,0.0317399,-0.306073,-2.56257,-0.742926,-1.51854,-0.433414,2.08608,0,0,251,78,251,78,347,66,261,166,-0.570358,-0.296133,0,-1.5,8.0042e-38,0,0,0,-2.56257,-0.742926,0,0,0,0,-1.51854,-0.433414,10700,0,0,0,0,0,0,0,0,0,2.51,1.11439
9195,-0.775391,0.194336,-2.32422,0.00222539,-1.96627e-05,-0.00163155,0.10528,-0.0262627,2.08608,-4.81088,0.0312496,-0.323864,-2.58844,-0.750307,-1.52309,-0.43457,2.08608,0,0,249,78,249,78,347,66,261,166,-0.571865,-0.298793,0,-1.5,8.0042e-38,0,0,0,-2.58844,-0.750307,0,0,0,0,-1.52309,-0.43457,11100,0,0,0,0,0,0,0,0,0,2.51,1.12546
9210,-0.775391,0.138672,1.22363,0.00222966,-8.9135e-05,-0.0030728,0.105315,-0.0262769,2.08604,-4.81088,0.0312496,-0.323864,-2.61133,-0.756835,-1.52708,-0.435582,2.08604,0,0,249,78,249,78,347,66,261,166,-0.57319,-0.30117,0,-1.5,8.0042e-38,0,0,0,-2.61133,-0.756835,0,0,0,0,-1.52708,-0.435582,11100,0,0,0,0,0,0,0,0,0,2.51,1.13525
9226,-0.780273,0.138672,-1.27441,0.00167305,-0.000509509,-0.00180174,0.105327,-0.026298,2.08601,-4.82386,0.0245776,-0.315496,-2.63734,-0.764253,-1.53157,-0.436719,2.08601,0,0,251,76,251,76,347,66,261,166,-0.574698,-0.30385,0,-1.5,8.0042e-38,0,0,0,-2.63734,-0.764253,0,0,0,0,-1.53157,-0.436719,10900,0,0,0,0,0,0,0,0,0,2.51,1.14638
9242,-0.84668,0.138672,0.992188,0.00196688,0.000458869,-0.00133145,0.105369,-0.0263117,2.08599,-4.82386,0.0245776,-0.315496,-2.66188,-0.771251,-1.53576,-0.437779,2.086,0,0,251,76,251,76,347,66,261,166,-0.57612,-0.30637,0,-1.5,8.0042e-38,0,0,0,-2.66188,-0.771251,0,0,0,0,-1.53576,-0.437779,10900,0,0,0,0,0,0,0,0,0,2.51,1.15688
9258,-0.879883,0.138672,-0.975586,0.00253156,-0.000110569,-0.00151892,0.105398,-0.0263177,2.08596,-4.80283,0.027777,-0.321056,-2.6865,-0.778267,-1.53992,-0.438832,2.08596,0,0,251,78,251,78,347,64,260,166,-0.57754,-0.308913,0,-1.5,8.0042e-38,0,0,0,-2.6865,-0.778267,0,0,0,0,-1.53992,-0.438832,11118,0,0,0,0,0,0,0,0,0,2.51,1.1674
9274,-0.913086,0.138672,4.88867,0.000174099,0.00053894,-0.00252063,0.105405,-0.0263256,2.08594,-4.80283,0.027777,-0.321056,-2.71118,-0.785299,-1.54406,-0.439876,2.08594,0,0,251,78,251,78,347,64,260,166,-0.578964,-0.31145,0,-1.5,8.0042e-38,0,0,0,-2.71118,-0.785299,0,0,0,0,-1.54406,-0.439876,11118,0,0,0,0,0,0,0,0,0,2.51,1.17795
9290,-0.923828,0.138672,-2.28125,0.000219112,0.000565093,-0.00183755,0.105398,-0.0263391,2.08591,-4.84474,0.0370417,-0.314577,-2.73593,-0.792347,-1.54816,-0.44091,2.08591,0,0,249,78,249,78,347,66,261,166,-0.580391,-0.31399,0,-1.5,8.0042e-38,0,0,0,-2.73593,-0.792347,0,0,0,0,-1.54816,-0.44091,10900,0,0,0,0,0,0,0,0,0,2.51,1.18852
