timestamp,A_x,A_y,A_z,P,Q,R,Phi,Theta,Psi,poseX,poseY,poseZ,state_X,state_Y,state_Z,state_VzB,state_Bx,state_By,state_Bz,p1_x,p1_y,p2_x,p2_y,p3_x,p3_y,p4_x,p4_y,roll,pitch,yaw,alt,targetHeading,highLevelState,lowLevelState,gateNumber,filtered_x,filtered_y,x_OT,y_OT,vx_OT,vy_OT,filtered_vx,filtered_vygateArearansac_corr_x,ransac_corr_y,ransac_corr_vx,ransac_corr_vy,detectionTimeStamp
10,0,0,0,0,0,0,0,0,0,0,0,0,0,0,0,0,0,0,0,0,0,0,0,0,0,0,0,0,-0.261799,0,-1.5,-nan,0,0,0,0,0,0,0,0,0,0,0,1.9603e-19,0,0,0,0,0
20,0,0,0,0,0,0,0,0,0,0,0,0,0,0,0,0,0,0,0,0,0,0,0,0,0,0,0,0,-0.261799,0,-1.5,-nan,0,0,0,0,0,0,0,0,0,0,0,1.9603e-19,0,0,0,0,0
30,-3.2133e-12,1.83379e-38,-1.53177e-06,-3.27827e-12,1.83367e-38,-3.40903e-12,-1.06589e-13,0,0,0,0,0,0,0,0,0,0,0,0,0,0,0,0,0,0,0,0,0,-0.261799,0,-1.5,-nan,0,0,0,0,0,0,0,0,0,0,0,1.9603e-19,0,0,0,0,0
40,-3.2133e-12,1.83379e-38,-1.53177e-06,-3.27827e-12,1.83367e-38,0,-1.0659e-13,0,0,0,0,0,0,0,0,0,0,0,0,0,0,0,0,0,0,0,0,0,-0.261799,0,-1.5,-nan,0,0,0,0,0,0,0,0,0,0,0,1.9603e-19,0,0,0,0,0
50,-3.2133e-12,1.83379e-38,-1.53177e-06,-3.27827e-12,1.83367e-38,-3.40903e-12,-1.0659e-13,0,0,0,0,0,0,0,0,0,0,0,0,0,0,0,0,0,0,0,0,0,-0.261799,0,-1.5,-nan,0,0,0,0,0,0,0,0,0,0,0,1.9603e-19,0,0,0,0,0
60,-3.2133e-12,1.83379e-38,-1.53177e-06,-3.27827e-12,1.83367e-38,0,-1.0659e-13,0,0,0,0,0,0,0,0,0,0,0,0,0,0,0,0,0,0,0,0,0,-0.261799,0,-1.5,-nan,0,0,0,0,0,0,0,0,0,0,0,1.9603e-19,0,0,0,0,0
70,-3.2133e-12,1.83379e-38,-1.53177e-06,-3.27827e-12,1.83367e-38,-3.40903e-12,-1.0659e-13,0,0,0,0,0,0,0,0,0,0,0,0,0,0,0,0,0,0,0,0,0,-0.261799,0,-1.5,-nan,0,0,0,0,0,0,0,0,0,0,0,1.9603e-19,0,0,0,0,0
80,-3.2133e-12,1.83379e-38,-1.53177e-06,-3.27827e-12,1.83367e-38,0,-1.06591e-13,0,0,0,0,0,0,0,0,0,0,0,0,0,0,0,0,0,0,0,0,0,-0.261799,0,-1.5,-nan,0,0,0,0,0,0,0,0,0,0,0,1.9603e-19,0,0,0,0,0
90,-3.2133e-12,1.83379e-38,-1.53177e-06,-3.27827e-12,1.83367e-38,-3.40903e-12,-1.06591e-13,0,0,0,0,0,0,0,0,0,0,0,0,0,0,0,0,0,0,0,0,0,-0.261799,0,-1.5,-nan,0,0,0,0,0,0,0,0,0,0,0,1.9603e-19,0,0,0,0,0
100,-3.2133e-12,1.83379e-38,-1.53177e-06,-3.27827e-12,1.83367e-38,0,-1.06591e-13,0,0,0,0,0,0,0,0,0,0,0,0,0,0,0,0,0,0,0,0,0,-0.261799,0,-1.5,-nan,0,0,0,0,0,0,0,0,0,0,0,1.9603e-19,0,0,0,0,0
110,-3.2133e-12,1.83379e-38,-1.53177e-06,-3.27827e-12,1.83367e-38,-3.40903e-12,-1.06591e-13,0,0,0,0,0,0,0,0,0,0,0,0,0,0,0,0,0,0,0,0,0,-0.261799,0,-1.5,-nan,0,0,0,0,0,0,0,0,0,0,0,1.9603e-19,0,0,0,0,0
120,-3.2133e-12,1.83379e-38,-1.53177e-06,-3.27827e-12,1.83367e-38,0,-1.06592e-13,0,0,0,0,0,0,0,0,0,0,0,0,0,0,0,0,0,0,0,0,0,-0.261799,0,-1.5,-nan,0,0,0,0,0,0,0,0,0,0,0,1.9603e-19,0,0,0,0,0
130,-3.2133e-12,1.83379e-38,-1.53177e-06,-3.27827e-12,1.83367e-38,-3.40903e-12,-1.06592e-13,0,0,0,0,0,0,0,0,0,0,0,0,0,0,0,0,0,0,0,0,0,-0.261799,0,-1.5,-nan,0,0,0,0,0,0,0,0,0,0,0,1.9603e-19,0,0,0,0,0
140,-3.2133e-12,1.83379e-38,-1.53177e-06,-3.27827e-12,1.83367e-38,0,-1.06592e-13,0,0,0,0,0,0,0,0,0,0,0,0,0,0,0,0,0,0,0,0,0,-0.261799,0,-1.5,-nan,0,0,0,0,0,0,0,0,0,0,0,1.9603e-19,0,0,0,0,0
150,-3.2133e-12,1.83379e-38,-1.53177e-06,-3.27827e-12,1.83367e-38,-3.40903e-12,-1.06593e-13,0,0,0,0,0,0,0,0,0,0,0,0,0,0,0,0,0,0,0,0,0,-0.261799,0,-1.5,-nan,0,0,0,0,0,0,0,0,0,0,0,1.9603e-19,0,0,0,0,0
160,-3.2133e-12,1.83379e-38,-1.53177e-06,-3.27827e-12,1.83367e-38,0,-1.06593e-13,0,0,0,0,0,0,0,0,0,0,0,0,0,0,0,0,0,0,0,0,0,-0.261799,0,-1.5,-nan,0,0,0,0,0,0,0,0,0,0,0,1.9603e-19,0,0,0,0,0
170,-3.2133e-12,1.83379e-38,-1.53177e-06,-3.27827e-12,1.83367e-38,-3.40903e-12,-1.06593e-13,0,0,0,0,0,0,0,0,0,0,0,0,0,0,0,0,0,0,0,0,0,-0.261799,0,-1.5,-nan,0,0,0,0,0,0,0,0,0,0,0,1.9603e-19,0,0,0,0,0
180,-3.2133e-12,1.83379e-38,-1.53177e-06,-3.27827e-12,1.83367e-38,0,-1.06593e-13,0,0,0,0,0,0,0,0,0,0,0,0,0,0,0,0,0,0,0,0,0,-0.261799,0,-1.5,-nan,0,0,0,0,0,0,0,0,0,0,0,1.9603e-19,0,0,0,0,0
190,-3.2133e-12,1.83379e-38,-1.53177e-06,-3.27827e-12,1.83367e-38,-3.40903e-12,-1.06594e-13,0,0,0,0,0,0,0,0,0,0,0,0,0,0,0,0,0,0,0,0,0,-0.261799,0,-1.5,-nan,0,0,0,0,0,0,0,0,0,0,0,1.9603e-19,0,0,0,0,0
200,-3.2133e-12,1.83379e-38,-1.53177e-06,-3.27827e-12,1.83367e-38,0,-1.06594e-13,0,0,0,0,0,0,0,0,0,0,0,0,0,0,0,0,0,0,0,0,0,-0.261799,0,-1.5,-nan,0,0,0,0,0,0,0,0,0,0,0,1.9603e-19,0,0,0,0,0
210,-3.2133e-12,1.83379e-38,-1.53177e-06,-3.27827e-12,1.83367e-38,-3.40903e-12,-1.06594e-13,0,0,0,0,0,0,0,0,0,0,0,0,0,0,0,0,0,0,0,0,0,-0.261799,0,-1.5,-nan,0,0,0,0,0,0,0,0,0,0,0,1.9603e-19,0,0,0,0,0
220,-3.2133e-12,1.83379e-38,-1.53177e-06,-3.27827e-12,1.83367e-38,0,-1.06594e-13,0,0,0,0,0,0,0,0,0,0,0,0,0,0,0,0,0,0,0,0,0,-0.261799,0,-1.5,-nan,0,0,0,0,0,0,0,0,0,0,0,1.9603e-19,0,0,0,0,0
230,-3.2133e-12,1.83379e-38,-1.53177e-06,-3.27827e-12,1.83367e-38,-3.40903e-12,-1.06595e-13,0,0,0,0,0,0,0,0,0,0,0,0,0,0,0,0,0,0,0,0,0,-0.261799,0,-1.5,-nan,0,0,0,0,0,0,0,0,0,0,0,1.9603e-19,0,0,0,0,0
240,-3.2133e-12,1.83379e-38,-1.53177e-06,-3.27827e-12,1.83367e-38,0,-1.06595e-13,0,0,0,0,0,0,0,0,0,0,0,0,0,0,0,0,0,0,0,0,0,-0.261799,0,-1.5,-nan,0,0,0,0,0,0,0,0,0,0,0,1.9603e-19,0,0,0,0,0
250,-3.2133e-12,1.83379e-38,-1.53177e-06,-3.27827e-12,1.83367e-38,-3.40903e-12,-1.06595e-13,0,0,0,0,0,0,0,0,0,0,0,0,0,0,0,0,0,0,0,0,0,-0.261799,0,-1.5,-nan,0,0,0,0,0,0,0,0,0,0,0,1.9603e-19,0,0,0,0,0
260,-3.2133e-12,1.83379e-38,-1.53177e-06,-3.27827e-12,1.83367e-38,0,-1.06596e-13,0,0,0,0,0,0,0,0,0,0,0,0,0,0,0,0,0,0,0,0,0,-0.261799,0,-1.5,-nan,0,0,0,0,0,0,0,0,0,0,0,1.9603e-19,0,0,0,0,0
270,-3.2133e-12,1.83379e-38,-1.53177e-06,-3.27827e-12,1.83367e-38,-3.40903e-12,-1.06596e-13,0,0,0,0,0,0,0,0,0,0,0,0,0,0,0,0,0,0,0,0,0,-0.261799,0,-1.5,-nan,0,0,0,0,0,0,0,0,0,0,0,1.9603e-19,0,0,0,0,0
280,-3.2133e-12,1.83379e-38,-1.53177e-06,-3.27827e-12,1.83367e-38,0,-1.06596e-13,0,0,0,0,0,0,0,0,0,0,0,0,0,0,0,0,0,0,0,0,0,-0.261799,0,-1.5,-nan,0,0,0,0,0,0,0,0,0,0,0,1.9603e-19,0,0,0,0,0
290,-3.2133e-12,1.83379e-38,-1.53177e-06,-3.27827e-12,1.83367e-38,-3.40903e-12,-1.06596e-13,0,0,0,0,0,0,0,0,0,0,0,0,0,0,0,0,0,0,0,0,0,-0.261799,0,-1.5,-nan,0,0,0,0,0,0,0,0,0,0,0,1.9603e-19,0,0,0,0,0
300,-3.2133e-12,1.83379e-38,-1.53177e-06,-3.27827e-12,1.83367e-38,0,-1.06597e-13,0,0,0,0,0,0,0,0,0,0,0,0,0,0,0,0,0,0,0,0,0,-0.261799,0,-1.5,-nan,0,0,0,0,0,0,0,0,0,0,0,1.9603e-19,0,0,0,0,0
310,-3.2133e-12,1.83379e-38,-1.53177e-06,-3.27827e-12,1.83367e-38,-3.40903e-12,-1.06597e-13,0,0,0,0,0,0,0,0,0,0,0,0,0,0,0,0,0,0,0,0,0,-0.261799,0,-1.5,-nan,0,0,0,0,0,0,0,0,0,0,0,1.9603e-19,0,0,0,0,0
320,-3.2133e-12,1.83379e-38,-1.53177e-06,-3.27827e-12,1.83367e-38,0,-1.06597e-13,0,0,0,0,0,0,0,0,0,0,0,0,0,0,0,0,0,0,0,0,0,-0.261799,0,-1.5,-nan,0,0,0,0,0,0,0,0,0,0,0,1.9603e-19,0,0,0,0,0
330,-3.2133e-12,1.83379e-38,-1.53177e-06,-3.27827e-12,1.83367e-38,-3.40903e-12,-1.06597e-13,0,0,0,0,0,0,0,0,0,0,0,0,0,0,0,0,0,0,0,0,0,-0.261799,0,-1.5,-nan,0,0,0,0,0,0,0,0,0,0,0,1.9603e-19,0,0,0,0,0
340,-3.2133e-12,1.83379e-38,-1.53177e-06,-3.27827e-12,1.83367e-38,0,-1.06598e-13,0,0,0,0,0,0,0,0,0,0,0,0,0,0,0,0,0,0,0,0,0,-0.261799,0,-1.5,-nan,0,0,0,0,0,0,0,0,0,0,0,1.9603e-19,0,0,0,0,0
350,-3.2133e-12,1.83379e-38,-1.53177e-06,-3.27827e-12,1.83367e-38,-3.40903e-12,-1.06598e-13,0,0,0,0,0,0,0,0,0,0,0,0,0,0,0,0,0,0,0,0,0,-0.261799,0,-1.5,-nan,0,0,0,0,0,0,0,0,0,0,0,1.9603e-19,0,0,0,0,0
360,-3.2133e-12,1.83379e-38,-1.53177e-06,-3.27827e-12,1.83367e-38,0,-1.06598e-13,0,0,0,0,0,0,0,0,0,0,0,0,0,0,0,0,0,0,0,0,0,-0.261799,0,-1.5,-nan,0,0,0,0,0,0,0,0,0,0,0,1.9603e-19,0,0,0,0,0
370,-3.2133e-12,1.83379e-38,-1.53177e-06,-3.27827e-12,1.83367e-38,-3.40903e-12,-1.06599e-13,0,0,0,0,0,0,0,0,0,0,0,0,0,0,0,0,0,0,0,0,0,-0.261799,0,-1.5,-nan,0,0,0,0,0,0,0,0,0,0,0,1.9603e-19,0,0,0,0,0
380,-3.2133e-12,1.83379e-38,-1.53177e-06,-3.27827e-12,1.83367e-38,0,-1.06599e-13,0,0,0,0,0,0,0,0,0,0,0,0,0,0,0,0,0,0,0,0,0,-0.261799,0,-1.5,-nan,0,0,0,0,0,0,0,0,0,0,0,1.9603e-19,0,0,0,0,0
390,-3.2133e-12,1.83379e-38,-1.53177e-06,-3.27827e-12,1.83367e-38,-3.40903e-12,-1.06599e-13,0,0,0,0,0,0,0,0,0,0,0,0,0,0,0,0,0,0,0,0,0,-0.261799,0,-1.5,-nan,0,0,0,0,0,0,0,0,0,0,0,1.9603e-19,0,0,0,0,0
400,-3.2133e-12,1.83379e-38,-1.53177e-06,-3.27827e-12,1.83367e-38,0,-1.06599e-13,0,0,0,0,0,0,0,0,0,0,0,0,0,0,0,0,0,0,0,0,0,-0.261799,0,-1.5,-nan,0,0,0,0,0,0,0,0,0,0,0,1.9603e-19,0,0,0,0,0
410,-3.2133e-12,1.83379e-38,-1.53177e-06,-3.27827e-12,1.83367e-38,-3.40903e-12,-1.066e-13,0,0,0,0,0,0,0,0,0,0,0,0,0,0,0,0,0,0,0,0,0,-0.261799,0,-1.5,-nan,0,0,0,0,0,0,0,0,0,0,0,1.9603e-19,0,0,0,0,0
420,-3.2133e-12,1.83379e-38,-1.53177e-06,-3.27827e-12,1.83367e-38,0,-1.066e-13,0,0,0,0,0,0,0,0,0,0,0,0,0,0,0,0,0,0,0,0,0,-0.261799,0,-1.5,-nan,0,0,0,0,0,0,0,0,0,0,0,1.9603e-19,0,0,0,0,0
430,-3.2133e-12,1.83379e-38,-1.53177e-06,-3.27827e-12,1.83367e-38,-3.40903e-12,-1.066e-13,0,0,0,0,0,0,0,0,0,0,0,0,0,0,0,0,0,0,0,0,0,-0.261799,0,-1.5,-nan,0,0,0,0,0,0,0,0,0,0,0,1.9603e-19,0,0,0,0,0
440,-3.2133e-12,1.83379e-38,-1.53177e-06,-3.27827e-12,1.83367e-38,0,-1.066e-13,0,0,0,0,0,0,0,0,0,0,0,0,0,0,0,0,0,0,0,0,0,-0.261799,0,-1.5,-nan,0,0,0,0,0,0,0,0,0,0,0,1.9603e-19,0,0,0,0,0
450,-3.2133e-12,1.83379e-38,-1.53177e-06,-3.27827e-12,1.83367e-38,-3.40903e-12,-1.06601e-13,0,0,0,0,0,0,0,0,0,0,0,0,0,0,0,0,0,0,0,0,0,-0.261799,0,-1.5,-nan,0,0,0,0,0,0,0,0,0,0,0,1.9603e-19,0,0,0,0,0
460,-3.2133e-12,1.83379e-38,-1.53177e-06,-3.27827e-12,1.83367e-38,0,-1.06601e-13,0,0,0,0,0,0,0,0,0,0,0,0,0,0,0,0,0,0,0,0,0,-0.261799,0,-1.5,-nan,0,0,0,0,0,0,0,0,0,0,0,1.9603e-19,0,0,0,0,0
470,-3.2133e-12,1.83379e-38,-1.53177e-06,-3.27827e-12,1.83367e-38,-3.40903e-12,-1.06601e-13,0,0,0,0,0,0,0,0,0,0,0,0,0,0,0,0,0,0,0,0,0,-0.261799,0,-1.5,-nan,0,0,0,0,0,0,0,0,0,0,0,1.9603e-19,0,0,0,0,0
480,-3.2133e-12,1.83379e-38,-1.53177e-06,-3.27827e-12,1.83367e-38,0,-1.06602e-13,0,0,0,0,0,0,0,0,0,0,0,0,0,0,0,0,0,0,0,0,0,-0.261799,0,-1.5,-nan,0,0,0,0,0,0,0,0,0,0,0,1.9603e-19,0,0,0,0,0
490,-3.2133e-12,1.83379e-38,-1.53177e-06,-3.27827e-12,1.83367e-38,-3.40903e-12,-1.06602e-13,0,0,0,0,0,0,0,0,0,0,0,0,0,0,0,0,0,0,0,0,0,-0.261799,0,-1.5,-nan,0,0,0,0,0,0,0,0,0,0,0,1.9603e-19,0,0,0,0,0
500,-3.2133e-12,1.83379e-38,-1.53177e-06,-3.27827e-12,1.83367e-38,0,-1.06602e-13,0,0,0,0,0,0,0,0,0,0,0,0,0,0,0,0,0,0,0,0,0,-0.261799,0,-1.5,-nan,0,0,0,0,0,0,0,0,0,0,0,1.9603e-19,0,0,0,0,0
510,-3.2133e-12,1.83379e-38,-1.53177e-06,-3.27827e-12,1.83367e-38,-3.40903e-12,-1.06602e-13,0,0,0,0,0,0,0,0,0,0,0,0,0,0,0,0,0,0,0,0,0,-0.261799,0,-1.5,-nan,0,0,0,0,0,0,0,0,0,0,0,1.9603e-19,0,0,0,0,0
520,-3.2133e-12,1.83379e-38,-1.53177e-06,-3.27827e-12,1.83367e-38,0,-1.06603e-13,0,0,0,0,0,0,0,0,0,0,0,0,0,0,0,0,0,0,0,0,0,-0.261799,0,-1.5,-nan,0,0,0,0,0,0,0,0,0,0,0,1.9603e-19,0,0,0,0,0
530,-3.2133e-12,1.83379e-38,-1.53177e-06,-3.27827e-12,1.83367e-38,-3.40903e-12,-1.06603e-13,0,0,0,0,0,0,0,0,0,0,0,0,0,0,0,0,0,0,0,0,0,-0.261799,0,-1.5,-nan,0,0,0,0,0,0,0,0,0,0,0,1.9603e-19,0,0,0,0,0
540,-3.2133e-12,1.83379e-38,-1.53177e-06,-3.27827e-12,1.83367e-38,0,-1.06603e-13,0,0,0,0,0,0,0,0,0,0,0,0,0,0,0,0,0,0,0,0,0,-0.261799,0,-1.5,-nan,0,0,0,0,0,0,0,0,0,0,0,1.9603e-19,0,0,0,0,0
550,-3.2133e-12,1.83379e-38,-1.53177e-06,-3.27827e-12,1.83367e-38,-3.40903e-12,-1.06603e-13,0,0,0,0,0,0,0,0,0,0,0,0,0,0,0,0,0,0,0,0,0,-0.261799,0,-1.5,-nan,0,0,0,0,0,0,0,0,0,0,0,1.9603e-19,0,0,0,0,0
560,-3.2133e-12,1.83379e-38,-1.53177e-06,-3.27827e-12,1.83367e-38,0,-1.06604e-13,0,0,0,0,0,0,0,0,0,0,0,0,0,0,0,0,0,0,0,0,0,-0.261799,0,-1.5,-nan,0,0,0,0,0,0,0,0,0,0,0,1.9603e-19,0,0,0,0,0
570,-3.2133e-12,1.83379e-38,-1.53177e-06,-3.27827e-12,1.83367e-38,-3.40903e-12,-1.06604e-13,0,0,0,0,0,0,0,0,0,0,0,0,0,0,0,0,0,0,0,0,0,-0.261799,0,-1.5,-nan,0,0,0,0,0,0,0,0,0,0,0,1.9603e-19,0,0,0,0,0
580,-3.2133e-12,1.83379e-38,-1.53177e-06,-3.27827e-12,1.83367e-38,0,-1.06604e-13,0,0,0,0,0,0,0,0,0,0,0,0,0,0,0,0,0,0,0,0,0,-0.261799,0,-1.5,-nan,0,0,0,0,0,0,0,0,0,0,0,1.9603e-19,0,0,0,0,0
590,-3.2133e-12,1.83379e-38,-1.53177e-06,-3.27827e-12,1.83367e-38,-3.40903e-12,-1.06605e-13,0,0,0,0,0,0,0,0,0,0,0,0,0,0,0,0,0,0,0,0,0,-0.261799,0,-1.5,-nan,0,0,0,0,0,0,0,0,0,0,0,1.9603e-19,0,0,0,0,0
600,-3.2133e-12,1.83379e-38,-1.53177e-06,-3.27827e-12,1.83367e-38,0,-1.06605e-13,0,0,0,0,0,0,0,0,0,0,0,0,0,0,0,0,0,0,0,0,0,-0.261799,0,-1.5,-nan,0,0,0,0,0,0,0,0,0,0,0,1.9603e-19,0,0,0,0,0
610,-3.2133e-12,1.83379e-38,-1.53177e-06,-3.27827e-12,1.83367e-38,-3.40903e-12,-1.06605e-13,0,0,0,0,0,0,0,0,0,0,0,0,0,0,0,0,0,0,0,0,0,-0.261799,0,-1.5,-nan,0,0,0,0,0,0,0,0,0,0,0,1.9603e-19,0,0,0,0,0
620,-3.2133e-12,1.83379e-38,-1.53177e-06,-3.27827e-12,1.83367e-38,0,-1.06605e-13,0,0,0,0,0,0,0,0,0,0,0,0,0,0,0,0,0,0,0,0,0,-0.261799,0,-1.5,-nan,0,0,0,0,0,0,0,0,0,0,0,1.9603e-19,0,0,0,0,0
630,-3.2133e-12,1.83379e-38,-1.53177e-06,-3.27827e-12,1.83367e-38,-3.40903e-12,-1.06606e-13,0,0,0,0,0,0,0,0,0,0,0,0,0,0,0,0,0,0,0,0,0,-0.261799,0,-1.5,-nan,0,0,0,0,0,0,0,0,0,0,0,1.9603e-19,0,0,0,0,0
640,-3.2133e-12,1.83379e-38,-1.53177e-06,-3.27827e-12,1.83367e-38,0,-1.06606e-13,0,0,0,0,0,0,0,0,0,0,0,0,0,0,0,0,0,0,0,0,0,-0.261799,0,-1.5,-nan,0,0,0,0,0,0,0,0,0,0,0,1.9603e-19,0,0,0,0,0
650,-3.2133e-12,1.83379e-38,-1.53177e-06,-3.27827e-12,1.83367e-38,-3.40903e-12,-1.06606e-13,0,0,0,0,0,0,0,0,0,0,0,0,0,0,0,0,0,0,0,0,0,-0.261799,0,-1.5,-nan,0,0,0,0,0,0,0,0,0,0,0,1.9603e-19,0,0,0,0,0
660,-3.2133e-12,1.83379e-38,-1.53177e-06,-3.27827e-12,1.83367e-38,0,-1.06606e-13,0,0,0,0,0,0,0,0,0,0,0,0,0,0,0,0,0,0,0,0,0,-0.261799,0,-1.5,-nan,0,0,0,0,0,0,0,0,0,0,0,1.9603e-19,0,0,0,0,0
670,-3.2133e-12,1.83379e-38,-1.53177e-06,-3.27827e-12,1.83367e-38,-3.40903e-12,-1.06607e-13,0,0,0,0,0,0,0,0,0,0,0,0,0,0,0,0,0,0,0,0,0,-0.261799,0,-1.5,-nan,0,0,0,0,0,0,0,0,0,0,0,1.9603e-19,0,0,0,0,0
680,-3.2133e-12,1.83379e-38,-1.53177e-06,-3.27827e-12,1.83367e-38,0,-1.06607e-13,0,0,0,0,0,0,0,0,0,0,0,0,0,0,0,0,0,0,0,0,0,-0.261799,0,-1.5,-nan,0,0,0,0,0,0,0,0,0,0,0,1.9603e-19,0,0,0,0,0
690,-3.2133e-12,1.83379e-38,-1.53177e-06,-3.27827e-12,1.83367e-38,-3.40903e-12,-1.06607e-13,0,0,0,0,0,0,0,0,0,0,0,0,0,0,0,0,0,0,0,0,0,-0.261799,0,-1.5,-nan,0,0,0,0,0,0,0,0,0,0,0,1.9603e-19,0,0,0,0,0
700,-3.2133e-12,1.83379e-38,-1.53177e-06,-3.27827e-12,1.83367e-38,0,-1.06607e-13,0,0,0,0,0,0,0,0,0,0,0,0,0,0,0,0,0,0,0,0,0,-0.261799,0,-1.5,-nan,0,0,0,0,0,0,0,0,0,0,0,1.9603e-19,0,0,0,0,0
710,-3.2133e-12,1.83379e-38,-1.53177e-06,-3.27827e-12,1.83367e-38,-3.40903e-12,-1.06608e-13,0,0,0,0,0,0,0,0,0,0,0,0,0,0,0,0,0,0,0,0,0,-0.261799,0,-1.5,-nan,0,0,0,0,0,0,0,0,0,0,0,1.9603e-19,0,0,0,0,0
720,-3.2133e-12,1.83379e-38,-1.53177e-06,-3.27827e-12,1.83367e-38,0,-1.06608e-13,0,0,0,0,0,0,0,0,0,0,0,0,0,0,0,0,0,0,0,0,0,-0.261799,0,-1.5,-nan,0,0,0,0,0,0,0,0,0,0,0,1.9603e-19,0,0,0,0,0
730,-3.2133e-12,1.83379e-38,-1.53177e-06,-3.27827e-12,1.83367e-38,-3.40903e-12,-1.06608e-13,0,0,0,0,0,0,0,0,0,0,0,0,0,0,0,0,0,0,0,0,0,-0.261799,0,-1.5,-nan,0,0,0,0,0,0,0,0,0,0,0,1.9603e-19,0,0,0,0,0
740,-3.2133e-12,1.83379e-38,-1.53177e-06,-3.27827e-12,1.83367e-38,0,-1.06609e-13,0,0,0,0,0,0,0,0,0,0,0,0,0,0,0,0,0,0,0,0,0,-0.261799,0,-1.5,-nan,0,0,0,0,0,0,0,0,0,0,0,1.9603e-19,0,0,0,0,0
750,-3.2133e-12,1.83379e-38,-1.53177e-06,-3.27827e-12,1.83367e-38,-3.40903e-12,-1.06609e-13,0,0,0,0,0,0,0,0,0,0,0,0,0,0,0,0,0,0,0,0,0,-0.261799,0,-1.5,-nan,0,0,0,0,0,0,0,0,0,0,0,1.9603e-19,0,0,0,0,0
760,-3.2133e-12,1.83379e-38,-1.53177e-06,-3.27827e-12,1.83367e-38,0,-1.06609e-13,0,0,0,0,0,0,0,0,0,0,0,0,0,0,0,0,0,0,0,0,0,-0.261799,0,-1.5,-nan,0,0,0,0,0,0,0,0,0,0,0,1.9603e-19,0,0,0,0,0
770,-3.2133e-12,1.83379e-38,-1.53177e-06,-3.27827e-12,1.83367e-38,-3.40903e-12,-1.06609e-13,0,0,0,0,0,0,0,0,0,0,0,0,0,0,0,0,0,0,0,0,0,-0.261799,0,-1.5,-nan,0,0,0,0,0,0,0,0,0,0,0,1.9603e-19,0,0,0,0,0
780,-3.2133e-12,1.83379e-38,-1.53177e-06,-3.27827e-12,1.83367e-38,0,-1.0661e-13,0,0,0,0,0,0,0,0,0,0,0,0,0,0,0,0,0,0,0,0,0,-0.261799,0,-1.5,-nan,0,0,0,0,0,0,0,0,0,0,0,1.9603e-19,0,0,0,0,0
790,-3.2133e-12,1.83379e-38,-1.53177e-06,-3.27827e-12,1.83367e-38,-3.40903e-12,-1.0661e-13,0,0,0,0,0,0,0,0,0,0,0,0,0,0,0,0,0,0,0,0,0,-0.261799,0,-1.5,-nan,0,0,0,0,0,0,0,0,0,0,0,1.9603e-19,0,0,0,0,0
800,-3.2133e-12,1.83379e-38,-1.53177e-06,-3.27827e-12,1.83367e-38,0,-1.0661e-13,0,0,0,0,0,0,0,0,0,0,0,0,0,0,0,0,0,0,0,0,0,-0.261799,0,-1.5,-nan,0,0,0,0,0,0,0,0,0,0,0,1.9603e-19,0,0,0,0,0
810,-3.2133e-12,1.83379e-38,-1.53177e-06,-3.27827e-12,1.83367e-38,-3.40903e-12,-1.0661e-13,0,0,0,0,0,0,0,0,0,0,0,0,0,0,0,0,0,0,0,0,0,-0.261799,0,-1.5,-nan,0,0,0,0,0,0,0,0,0,0,0,1.9603e-19,0,0,0,0,0
820,-3.2133e-12,1.83379e-38,-1.53177e-06,-3.27827e-12,1.83367e-38,0,-1.06611e-13,0,0,0,0,0,0,0,0,0,0,0,0,0,0,0,0,0,0,0,0,0,-0.261799,0,-1.5,-nan,0,0,0,0,0,0,0,0,0,0,0,1.9603e-19,0,0,0,0,0
830,-3.2133e-12,1.83379e-38,-1.53177e-06,-3.27827e-12,1.83367e-38,-3.40903e-12,-1.06611e-13,0,0,0,0,0,0,0,0,0,0,0,0,0,0,0,0,0,0,0,0,0,-0.261799,0,-1.5,-nan,0,0,0,0,0,0,0,0,0,0,0,1.9603e-19,0,0,0,0,0
840,-3.2133e-12,1.83379e-38,-1.53177e-06,-3.27827e-12,1.83367e-38,0,-1.06611e-13,0,0,0,0,0,0,0,0,0,0,0,0,0,0,0,0,0,0,0,0,0,-0.261799,0,-1.5,-nan,0,0,0,0,0,0,0,0,0,0,0,1.9603e-19,0,0,0,0,0
850,-3.2133e-12,1.83379e-38,-1.53177e-06,-3.27827e-12,1.83367e-38,-3.40903e-12,-1.06612e-13,0,0,0,0,0,0,0,0,0,0,0,0,0,0,0,0,0,0,0,0,0,-0.261799,0,-1.5,-nan,0,0,0,0,0,0,0,0,0,0,0,1.9603e-19,0,0,0,0,0
860,-3.2133e-12,1.83379e-38,-1.53177e-06,-3.27827e-12,1.83367e-38,0,-1.06612e-13,0,0,0,0,0,0,0,0,0,0,0,0,0,0,0,0,0,0,0,0,0,-0.261799,0,-1.5,-nan,0,0,0,0,0,0,0,0,0,0,0,1.9603e-19,0,0,0,0,0
870,-3.2133e-12,1.83379e-38,-1.53177e-06,-3.27827e-12,1.83367e-38,-3.40903e-12,-1.06612e-13,0,0,0,0,0,0,0,0,0,0,0,0,0,0,0,0,0,0,0,0,0,-0.261799,0,-1.5,-nan,0,0,0,0,0,0,0,0,0,0,0,1.9603e-19,0,0,0,0,0
880,-3.2133e-12,1.83379e-38,-1.53177e-06,-3.27827e-12,1.83367e-38,0,-1.06612e-13,0,0,0,0,0,0,0,0,0,0,4,0,-2023761780,-1368074696,-2023761780,-1368074696,-1368074656,-1368074656,-1368074616,340617169,0,-0.261799,0,-1.5,-nan,0,0,0,0,0,0,0,0,0,0,0,0,0,0,0,0,9071
890,-3.2133e-12,1.83379e-38,-1.53177e-06,-3.27827e-12,1.83367e-38,-3.40903e-12,-1.06613e-13,0,0,0,0,0,0,0,0,0,0,4,0,-2023761780,-1368074696,-2023761780,-1368074696,-1368074656,-1368074656,-1368074616,340617169,0,-0.261799,0,-1.5,-nan,0,0,0,0,0,0,0,0,0,0,0,0,0,0,0,0,9071
900,-3.2133e-12,1.83379e-38,-1.53177e-06,-3.27827e-12,1.83367e-38,0,-1.06613e-13,0,0,0,0,0,0,0,0,0,0,4,0,-2023761780,-1368074696,-2023761780,-1368074696,-1368074656,-1368074656,-1368074616,340617169,0,-0.261799,0,-1.5,-nan,0,0,0,0,0,0,0,0,0,0,0,0,0,0,0,0,9071
910,-3.2133e-12,1.83379e-38,-1.53177e-06,-3.27827e-12,1.83367e-38,-3.40903e-12,-1.06613e-13,0,0,0,0,0,0,0,0,0,0,4,0,-2023761780,-1368074696,-2023761780,-1368074696,-1368074656,-1368074656,-1368074616,340617169,0,-0.261799,0,-1.5,-nan,0,0,0,0,0,0,0,0,0,0,0,0,0,0,0,0,9071
920,-3.2133e-12,1.83379e-38,-1.53177e-06,-3.27827e-12,1.83367e-38,0,-1.06613e-13,0,0,-3.17051,-0.083475,0.255814,0,0,0,0,0,0.829487,-0.083475,262,-60,262,-60,399,-61,266,67,0,-0.261799,0,-1.5,-nan,0,0,0,0,0,0,0,0,0,0,0,17536,0,0,0,0,9172
930,-3.2133e-12,1.83379e-38,-1.53177e-06,-3.27827e-12,1.83367e-38,-3.40903e-12,-1.06614e-13,0,0,-3.16225,-0.089534,0.251011,0,0,0,0,0,0.837751,-0.089534,262,-60,262,-60,399,-61,267,67,0,-0.261799,0,-1.5,-nan,0,0,0,0,0,0,0,0,0,0,0,17536,0,0,0,0,9191
940,-3.2133e-12,1.83379e-38,-1.53177e-06,-3.27827e-12,1.83367e-38,0,-1.06614e-13,0,0,-3.18994,-0.0884461,0.265353,0,0,0,0,0,0.810064,-0.0884461,264,-60,264,-60,399,-60,266,67,0,-0.261799,0,-1.5,-nan,0,0,0,0,0,0,0,0,0,0,0,17145,0,0,0,0,9215
950,-3.2133e-12,1.83379e-38,-1.53177e-06,-3.27827e-12,1.83367e-38,-3.40903e-12,-1.06614e-13,0,0,-3.18994,-0.0884461,0.265353,0,0,0,0,0,0.810064,-0.0884461,264,-60,264,-60,399,-60,266,67,0,-0.261799,0,-1.5,-nan,0,0,0,0,0,0,0,0,0,0,0,17145,0,0,0,0,9215
960,-3.2133e-12,1.83379e-38,-1.53177e-06,-3.27827e-12,1.83367e-38,0,-1.06615e-13,0,0,-3.18994,-0.0884461,0.265353,0,0,0,0,0,0.810064,-0.0884461,264,-60,264,-60,399,-60,266,67,0,-0.261799,0,-1.5,-nan,0,0,0,0,0,0,0,0,0,0,0,17145,0,0,0,0,9249
970,-3.2133e-12,1.83379e-38,-1.53177e-06,-3.27827e-12,1.83367e-38,-3.40903e-12,-1.06615e-13,0,0,-3.14475,-0.0787281,0.238609,0,0,0,0,0,0.855253,-0.0787281,259,-60,259,-60,399,-60,266,67,0,-0.261799,0,-1.5,-nan,0,0,0,0,0,0,0,0,0,0,0,17780,0,0,0,0,9282
980,-3.2133e-12,1.83379e-38,-1.53177e-06,-3.27827e-12,1.83367e-38,0,-1.06615e-13,0,0,-3.14475,-0.0787281,0.238609,0,0,0,0,0,0.855253,-0.0787281,259,-60,259,-60,399,-60,266,67,0,-0.261799,0,-1.5,-nan,0,0,0,0,0,0,0,0,0,0,0,17780,0,0,0,0,9282
990,-3.2133e-12,1.83379e-38,-1.53177e-06,-3.27827e-12,1.83367e-38,-3.40903e-12,-1.06615e-13,0,0,-3.14791,-0.0765518,0.242375,0,0,0,0,0,0.852093,-0.0765518,259,-60,259,-60,399,-61,266,67,0,-0.261799,0,-1.5,-nan,0,0,0,0,0,0,0,0,0,0,0,17920,0,0,0,0,9320
1000,-3.2133e-12,1.83379e-38,-1.53177e-06,-3.27827e-12,1.83367e-38,0,-1.06616e-13,0,0,-3.19705,-0.0953375,0.256564,0,0,0,0,0,0.80295,-0.0953375,262,-59,262,-59,399,-58,270,68,0,-0.261799,0,-1.5,-nan,0,0,0,0,0,0,0,0,0,0,0,17399,0,0,0,0,9415
1010,-3.2133e-12,1.83379e-38,-1.53177e-06,-3.27827e-12,1.83367e-38,-3.40903e-12,-1.06616e-13,0,0,-3.19705,-0.0953375,0.256564,0,0,0,0,0,0.80295,-0.0953375,262,-59,262,-59,399,-58,270,68,0,-0.261799,0,-1.5,-nan,0,0,0,0,0,0,0,0,0,0,0,17399,0,0,0,0,9415
1020,-3.2133e-12,1.83379e-38,-1.53177e-06,-3.27827e-12,1.83367e-38,0,-1.06616e-13,0,0,-3.27225,-0.0948517,0.273837,0,0,0,0,0,0.727754,-0.0948517,262,-57,262,-57,398,-47,270,68,0,-0.261799,0,-1.5,-nan,0,0,0,0,0,0,0,0,0,0,0,17000,0,0,0,0,9452
1030,-3.2133e-12,1.83379e-38,-1.53177e-06,-3.27827e-12,1.83367e-38,-3.40903e-12,-1.06616e-13,0,0,-3.27225,-0.0948517,0.273837,0,0,0,0,0,0.727754,-0.0948517,262,-57,262,-57,398,-47,270,68,0,-0.261799,0,-1.5,-nan,0,0,0,0,0,0,0,0,0,0,0,17000,0,0,0,0,9452
1040,-3.2133e-12,1.83379e-38,-1.53177e-06,-3.27827e-12,1.83367e-38,0,-1.06617e-13,0,0,-3.20686,-0.0928192,0.236476,0,0,0,0,0,0.793138,-0.0928192,262,-57,262,-57,398,-47,266,68,0,-0.261799,0,-1.5,-nan,0,0,0,0,0,0,0,0,0,0,0,17375,0,0,0,0,9484
1050,-3.2133e-12,1.83379e-38,-1.53177e-06,-3.27827e-12,1.83367e-38,-3.40903e-12,-1.06617e-13,0,0,-3.20686,-0.0928192,0.236476,0,0,0,0,0,0.793138,-0.0928192,262,-57,262,-57,398,-47,266,68,0,-0.261799,0,-1.5,-nan,0,0,0,0,0,0,0,0,0,0,0,17375,0,0,0,0,9484
1060,-3.2133e-12,1.83379e-38,-1.53177e-06,-3.27827e-12,1.83367e-38,0,-1.06617e-13,0,0,-3.20686,-0.0928192,0.236476,0,0,0,0,0,0.793138,-0.0928192,262,-57,262,-57,398,-47,266,68,0.158932,-0.261799,0,-1.5,-nan,0,0,0,0.780882,-0.0944429,0,0,0,0,-0.0947804,-0.0137194,17375,0.792161,-0.0928103,-0.0947804,-0.0137194,9548
1070,-3.2133e-12,1.83379e-38,-1.53177e-06,-3.27827e-12,1.83367e-38,-3.40903e-12,-1.06618e-13,0,0,-3.20686,-0.0928192,0.236476,0,0,0,0,0,0.793138,-0.0928192,262,-57,262,-57,398,-47,266,68,0.159342,-0.261799,0,-1.5,-nan,0,0,0,0.778987,-0.0947173,0,0,0,0,-0.0947804,-0.0137194,17375,0.792161,-0.0928103,-0.0947804,-0.0137194,9548
1080,-3.2133e-12,1.83379e-38,-1.53177e-06,-3.27827e-12,1.83367e-38,0,-1.06618e-13,0,0,-3.19001,-0.0837827,0.226675,0,0,0,0,0,0.809987,-0.0837827,259,-57,259,-57,397,-47,266,68,0.163355,-0.261799,0,-1.5,-nan,0,0,0,0.766476,-0.0963899,0,0,0,0,-0.0947799,-0.0148838,17750,0.777376,-0.0946782,-0.0947799,-0.0148838,9703
1090,-3.2133e-12,1.83379e-38,-1.53177e-06,-3.27827e-12,1.83367e-38,-3.40903e-12,-1.06618e-13,0,0,-3.18285,-0.0857457,0.222494,0,0,0,0,0,0.817149,-0.0857456,259,-57,259,-57,398,-47,266,68,0.135095,-0.261799,0,-1.5,-nan,0,0,0,0.805699,-0.0893783,0,0,0,0,-0.019011,-0.00120313,17750,0.807924,-0.0892375,-0.019011,-0.00120313,9832
1100,-3.2133e-12,1.83379e-38,-1.53177e-06,-3.27827e-12,1.83367e-38,0,-1.06618e-13,0,0,-3.20686,-0.0928192,0.236476,0,0,0,0,0,0.793138,-0.0928192,262,-57,262,-57,398,-47,266,68,0.143369,-0.261799,0,-1.5,-nan,0,0,0,0.789534,-0.0922825,0,0,0,0,-0.0384249,-0.00423057,17375,0.795797,-0.0915929,-0.0384249,-0.00423057,9988
1110,-3.2133e-12,1.83379e-38,-1.53177e-06,-3.27827e-12,1.83367e-38,-3.40903e-12,-1.06619e-13,0,0,-3.18285,-0.0857457,0.222494,0,0,0,0,0,0.817149,-0.0857456,259,-57,259,-57,398,-47,266,68,0.129394,-0.261799,0,-1.5,-nan,0,0,0,0.809448,-0.0874878,0,0,0,0,-0.00158869,0.00100957,17750,0.809649,-0.087615,-0.00158869,0.00100957,10119
1120,-3.2133e-12,1.83379e-38,-1.53177e-06,-3.27827e-12,1.83367e-38,0,-1.06619e-13,0,0,-3.25311,-0.0814801,0.260564,0,0,0,0,0,0.746892,-0.0814801,262,-57,262,-57,398,-47,266,68,0.121289,-0.261799,0,-1.5,-nan,0,0,0,0.772164,-0.0843138,0,0,0,0,-0.0465064,0.0035961,17000,0.779885,-0.0849107,-0.0465064,0.0035961,10271
1130,-3.2133e-12,1.83379e-38,-1.53177e-06,-3.27827e-12,1.83367e-38,-3.40903e-12,-1.06619e-13,0,0,-3.15339,-0.0914492,0.227437,0,0,0,0,0,0.846614,-0.0914492,262,-57,262,-57,399,-58,266,68,0.137479,-0.261799,0,-1.5,-nan,0,0,0,0.807473,-0.09059,0,0,0,0,-0.0029236,-0.00164491,17514,0.807853,-0.0903761,-0.0029236,-0.00164491,10413
1140,-3.2133e-12,1.83379e-38,-1.53177e-06,-3.27827e-12,1.83367e-38,0,-1.06619e-13,0,0,-3.02633,-0.0721576,0.198198,0,0,0,0,0,0.973671,-0.0721576,259,-59,259,-59,397,-79,265,68,0.119583,-0.261799,0,-1.5,-nan,0,0,0,0.825486,-0.0831518,0,0,0,0,0.0089782,0.00357347,20874,0.824391,-0.0835877,0.0089782,0.00357347,10543
1150,-3.2133e-12,1.83379e-38,-1.53177e-06,-3.27827e-12,1.83367e-38,-3.40903e-12,-1.0662e-13,0,0,-3.02633,-0.0721576,0.198198,0,0,0,0,0,0.973671,-0.0721576,259,-59,259,-59,397,-79,265,68,0.112378,-0.261799,0,-1.5,-nan,0,0,0,0.840067,-0.0801575,0,0,0,0,0.0207488,0.00567421,20874,0.837329,-0.0809065,0.0207488,0.00567421,10682
1160,-3.2133e-12,1.83379e-38,-1.53177e-06,-3.27827e-12,1.83367e-38,0,-1.0662e-13,0,0,-3.00168,-0.0691081,0.170548,0,0,0,0,0,0.99832,-0.0691081,259,-59,259,-59,396,-79,265,73,0.103507,-0.261799,0,-1.5,-nan,0,0,0,0.879568,-0.0758926,0,0,0,0,0.0393778,0.00759682,21584,0.875,-0.0767738,0.0393778,0.00759682,10848
1170,-3.2133e-12,1.83379e-38,-1.53177e-06,-3.27827e-12,1.83367e-38,-3.40903e-12,-1.0662e-13,0,0,-3.14212,-0.0896821,0.220377,0,0,0,0,0,0.857879,-0.0896821,262,-59,262,-59,398,-58,266,68,0.110624,-0.261799,0,-1.5,-nan,0,0,0,0.861588,-0.0788747,0,0,0,0,0.0305017,0.00554972,17653,0.858172,-0.0794962,0.0305017,0.00554972,10980
1180,-3.2133e-12,1.83379e-38,-1.53177e-06,-3.27827e-12,1.83367e-38,0,-1.0662e-13,0,0,-3.14212,-0.0896821,0.220377,0,0,0,0,0,0.857879,-0.0896821,262,-59,262,-59,398,-58,266,68,0.110458,-0.261799,0,-1.5,-nan,0,0,0,0.862198,-0.0787637,0,0,0,0,0.0305017,0.00554972,17653,0.858172,-0.0794962,0.0305017,0.00554972,10980
1190,-3.2133e-12,1.83379e-38,-1.53177e-06,-3.27827e-12,1.83367e-38,-3.40903e-12,-1.06621e-13,0,0,-3.14212,-0.0896821,0.220377,0,0,0,0,0,0.857879,-0.0896821,262,-59,262,-59,398,-58,266,68,0.110284,-0.261799,0,-1.5,-nan,0,0,0,0.862839,-0.0786471,0,0,0,0,0.0305017,0.00554972,17653,0.858172,-0.0794962,0.0305017,0.00554972,10980
1200,-3.2133e-12,1.83379e-38,-1.53177e-06,-3.27827e-12,1.83367e-38,0,-1.06621e-13,0,0,-3.2257,-0.0747206,0.24672,0,0,0,0,0,0.774301,-0.0747206,261,-47,261,-47,399,-58,265,68,0.100748,-0.261799,0,-1.5,-nan,0,0,0,0.862353,-0.0739883,0,0,0,0,0.0260798,0.00753083,17388,0.859275,-0.0748769,0.0260798,0.00753083,11146
1210,-3.2133e-12,1.83379e-38,-1.53177e-06,-3.27827e-12,1.83367e-38,-3.40903e-12,-1.06621e-13,0,0,-3.2257,-0.0747206,0.24672,0,0,0,0,0,0.774301,-0.0747206,261,-47,261,-47,399,-58,265,68,0.100546,-0.261799,0,-1.5,-nan,0,0,0,0.862822,-0.0738527,0,0,0,0,0.0260798,0.00753083,17388,0.859275,-0.0748769,0.0260798,0.00753083,11146
1220,-3.2133e-12,1.83379e-38,-1.53177e-06,-3.27827e-12,1.83367e-38,0,-1.06622e-13,0,0,-3.20523,-0.0804357,0.237334,0,0,0,0,0,0.794766,-0.0804357,261,-47,261,-47,399,-58,265,68,0.0920976,-0.261799,0,-1.5,-nan,0,0,0,0.877022,-0.0712391,0,0,0,0,0.042831,0.0110257,17388,0.870169,-0.0730032,0.042831,0.0110257,11309
1230,-3.2133e-12,1.83379e-38,-1.53177e-06,-3.27827e-12,1.83367e-38,-3.40903e-12,-1.06622e-13,0,0,-3.20523,-0.0804357,0.237334,0,0,0,0,0,0.794766,-0.0804357,261,-47,261,-47,399,-58,265,68,0.0918176,-0.261799,0,-1.5,-nan,0,0,0,0.87775,-0.0710517,0,0,0,0,0.042831,0.0110257,17388,0.870169,-0.0730032,0.042831,0.0110257,11309
1240,-3.2133e-12,1.83379e-38,-1.53177e-06,-3.27827e-12,1.83367e-38,0,-1.06622e-13,0,0,-3.25633,-0.0841067,0.264237,0,0,0,0,0,0.743665,-0.0841067,261,-47,261,-47,399,-58,269,68,0.11091,-0.261799,0,-1.5,-nan,0,0,0,0.79217,-0.0784814,0,0,0,0,-0.0166758,0.00487792,17388,0.794321,-0.0791107,-0.0166758,0.00487792,11471
1250,-3.2133e-12,1.83379e-38,-1.53177e-06,-3.27827e-12,1.83367e-38,-3.40903e-12,-1.06622e-13,0,0,-3.25633,-0.0841067,0.264237,0,0,0,0,0,0.743665,-0.0841067,261,-47,261,-47,399,-58,269,68,0.110786,-0.261799,0,-1.5,-nan,0,0,0,0.791886,-0.0783985,0,0,0,0,-0.0166758,0.00487792,17388,0.794321,-0.0791107,-0.0166758,0.00487792,11471
1260,-3.2133e-12,1.83379e-38,-1.53177e-06,-3.27827e-12,1.83367e-38,0,-1.06623e-13,0,0,-3.23103,-0.0788833,0.245114,0,0,0,0,0,0.768974,-0.0788833,261,-47,261,-47,399,-58,267,70,0.112561,-0.261799,0,-1.5,-nan,0,0,0,0.782555,-0.0784588,0,0,0,0,-0.0184947,0.00358182,17664,0.785384,-0.0790068,-0.0184947,0.00358182,11619
1270,-3.2133e-12,1.83379e-38,-1.53177e-06,-3.27827e-12,1.83367e-38,-3.40903e-12,-1.06623e-13,0,0,-3.23103,-0.0788833,0.245114,0,0,0,0,0,0.768974,-0.0788833,261,-47,261,-47,399,-58,267,70,0.11113,-0.261799,0,-1.5,-nan,0,0,0,0.762978,-0.0778689,0,0,0,0,-0.039883,0.00400466,17664,0.770037,-0.0785777,-0.039883,0.00400466,11828
1280,-3.2133e-12,1.83379e-38,-1.53177e-06,-3.27827e-12,1.83367e-38,0,-1.06623e-13,0,0,-3.0255,-0.0736901,0.187301,0,0,0,0,0,0.974497,-0.0736901,259,-57,259,-57,397,-79,266,70,0.114616,-0.261799,0,-1.5,-nan,0,0,0,0.762346,-0.0783792,0,0,0,0,-0.0456755,0.00190966,21158,0.768238,-0.0786255,-0.0456755,0.00190966,11956
1290,-3.2133e-12,1.83379e-38,-1.53177e-06,-3.27827e-12,1.83367e-38,-3.40903e-12,-1.06623e-13,0,0,-3.11307,-0.0748514,0.194781,0,0,0,0,0,0.886926,-0.0748514,259,-57,259,-57,396,-59,265,73,0.109861,-0.261799,0,-1.5,-nan,0,0,0,0.762579,-0.0759355,0,0,0,0,-0.0458678,0.0027587,18744,0.770009,-0.0763825,-0.0458678,0.0027587,12116
1300,-3.2133e-12,1.83379e-38,-1.53177e-06,-3.27827e-12,1.83367e-38,0,-1.06624e-13,0,0,-3.13244,-0.0841,0.209995,0,0,0,0,0,0.867563,-0.0841,262,-59,262,-59,396,-59,266,73,0.131785,-0.261799,0,-1.5,-nan,0,0,0,0.849286,-0.0828978,0,0,0,0,-0.0158529,-0.00610459,18348,0.851109,-0.0821958,-0.0158529,-0.00610459,12247
1310,-3.2133e-12,1.83379e-38,-1.53177e-06,-3.27827e-12,1.83367e-38,-3.40903e-12,-1.06624e-13,0,0,-3.04286,-0.0701092,0.197274,0,0,0,0,0,0.957138,-0.0701092,259,-57,259,-57,399,-79,266,70,0.129261,-0.261799,0,-1.5,-nan,0,0,0,0.865585,-0.0820223,0,0,0,0,-0.00692121,-0.00516903,20860,0.866499,-0.08134,-0.00692121,-0.00516903,12373
1320,-3.2133e-12,1.83379e-38,-1.53177e-06,-3.27827e-12,1.83367e-38,0,-1.06624e-13,0,0,-3.06807,-0.0708038,0.212417,0,0,0,0,0,0.93193,-0.0708039,261,-57,261,-57,397,-79,266,70,0.101083,-0.261799,0,-1.5,-nan,0,0,0,0.917322,-0.0720529,0,0,0,0,0.0641374,0.00504866,20264,0.909625,-0.0726588,0.0641374,0.00504866,12503
1330,-3.2133e-12,1.83379e-38,-1.53177e-06,-3.27827e-12,1.83367e-38,-3.40903e-12,-1.06625e-13,0,0,-3.0452,-0.0803442,0.199034,0,0,0,0,0,0.954797,-0.0803442,261,-57,261,-57,397,-79,267,70,0.103167,-0.261799,0,-1.5,-nan,0,0,0,0.967183,-0.0733112,0,0,0,0,0.118766,0.00489215,20860,0.949962,-0.0740206,0.118766,0.00489215,12630
1340,-3.2133e-12,1.83379e-38,-1.53177e-06,-3.27827e-12,1.83367e-38,0,-1.06625e-13,0,0,-3.0255,-0.0736901,0.187301,0,0,0,0,0,0.974497,-0.0736901,259,-57,259,-57,397,-79,266,70,0.10367,-0.261799,0,-1.5,-nan,0,0,0,0.984301,-0.0731867,0,0,0,0,0.120206,0.00436177,21158,0.969035,-0.0737406,0.120206,0.00436177,12774
1350,-3.2133e-12,1.83379e-38,-1.53177e-06,-3.27827e-12,1.83367e-38,-3.40903e-12,-1.06625e-13,0,0,-3.01832,-0.0738838,0.18687,0,0,0,0,0,0.981678,-0.0738838,259,-59,259,-59,397,-79,266,70,0.102053,-0.261799,0,-1.5,-nan,0,0,0,1.0046,-0.0724238,0,0,0,0,0.122129,0.00472894,21158,0.98701,-0.0731048,0.122129,0.00472894,12919
1360,-3.2133e-12,1.83379e-38,-1.53177e-06,-3.27827e-12,1.83367e-38,0,-1.06625e-13,0,0,-3.0452,-0.0803442,0.199034,0,0,0,0,0,0.954797,-0.0803442,261,-57,261,-57,397,-79,267,70,0.102642,-0.261799,0,-1.5,-nan,0,0,0,1.04058,-0.0724143,0,0,0,0,0.164883,0.0042652,20860,1.02162,-0.0729048,0.164883,0.0042652,13051
1370,-3.2133e-12,1.83379e-38,-1.53177e-06,-3.27827e-12,1.83367e-38,-3.40903e-12,-1.06626e-13,0,0,-3.0452,-0.0803442,0.199034,0,0,0,0,0,0.954797,-0.0803442,261,-57,261,-57,397,-79,267,70,0.105448,-0.261799,0,-1.5,-nan,0,0,0,1.0637,-0.0734975,0,0,0,0,0.173528,0.00335127,20860,1.04374,-0.0738829,0.173528,0.00335127,13180
1380,-3.2133e-12,1.83379e-38,-1.53177e-06,-3.27827e-12,1.83367e-38,0,-1.06626e-13,0,0,-3.04425,-0.0762643,0.198555,0,0,0,0,0,0.955753,-0.0762643,261,-57,261,-57,396,-79,266,70,0.11245,-0.261799,0,-1.5,-nan,0,0,0,0.992891,-0.0762814,0,0,0,0,0.0785793,0.00116447,20860,0.984011,-0.076413,0.0785793,0.00116447,13309
1390,-3.2133e-12,1.83379e-38,-1.53177e-06,-3.27827e-12,1.83367e-38,-3.40903e-12,-1.06626e-13,0,0,-3.03891,-0.0781381,0.195338,0,0,0,0,0,0.96109,-0.0781382,261,-57,261,-57,397,-79,266,70,0.120325,-0.261799,0,-1.5,-nan,0,0,0,0.993953,-0.0785307,0,0,0,0,0.070019,-0.00230815,20860,0.98268,-0.0781591,0.070019,-0.00230815,13436
1400,-3.2133e-12,1.83379e-38,-1.53177e-06,-3.27827e-12,1.83367e-38,0,-1.06626e-13,0,0,-3.03891,-0.0781381,0.195338,0,0,0,0,0,0.96109,-0.0781382,261,-57,261,-57,397,-79,266,70,0.120366,-0.261799,0,-1.5,-nan,0,0,0,0.994793,-0.0785584,0,0,0,0,0.070019,-0.00230815,20860,0.98268,-0.0781591,0.070019,-0.00230815,13436
1410,-3.2133e-12,1.83379e-38,-1.53177e-06,-3.27827e-12,1.83367e-38,-3.40903e-12,-1.06627e-13,0,0,-2.98302,-0.0648686,0.165139,0,0,0,0,0,1.01698,-0.0648686,255,-61,255,-61,396,-79,267,73,0.117448,-0.261799,0,-1.5,-nan,0,0,0,0.967026,-0.0770688,0,0,0,0,0.016473,-0.00177539,22192,0.965197,-0.0768718,0.016473,-0.00177539,13620
1420,-3.2133e-12,1.83379e-38,-1.53177e-06,-3.27827e-12,1.83367e-38,0,-1.06627e-13,0,0,-3.03891,-0.0781381,0.195338,0,0,0,0,0,0.96109,-0.0781382,261,-57,261,-57,397,-79,266,70,0.120715,-0.261799,0,-1.5,-nan,0,0,0,0.963731,-0.0787322,0,0,0,0,0.00824054,-0.00237659,20860,0.962297,-0.0783187,0.00824054,-0.00237659,13772
1430,-3.2133e-12,1.83379e-38,-1.53177e-06,-3.27827e-12,1.83367e-38,-3.40903e-12,-1.06627e-13,0,0,-3.18611,-0.0796882,0.239394,0,0,0,0,0,0.813895,-0.0796882,262,-57,262,-57,399,-58,266,70,0.120419,-0.261799,0,-1.5,-nan,0,0,0,0.967667,-0.0788053,0,0,0,0,0.0125431,-0.00206477,17536,0.966062,-0.078541,0.0125431,-0.00206477,13912
1440,-3.2133e-12,1.83379e-38,-1.53177e-06,-3.27827e-12,1.83367e-38,0,-1.06628e-13,0,0,-3.20759,-0.0738017,0.252028,0,0,0,0,0,0.792411,-0.0738017,262,-57,262,-57,396,-58,266,70,0.128137,-0.261799,0,-1.5,-nan,0,0,0,0.961806,-0.0811346,0,0,0,0,0.00352862,-0.00532471,17152,0.961294,-0.0803626,0.00352862,-0.00532471,14057
1450,-3.2133e-12,1.83379e-38,-1.53177e-06,-3.27827e-12,1.83367e-38,-3.40903e-12,-1.06632e-13,0,0,-3.15938,-0.0788138,0.226038,0,0,0,0,0,0.840621,-0.0788138,259,-57,259,-57,399,-58,267,70,0.12568,-0.261799,0,-1.5,-nan,0,0,0,0.91738,-0.0803509,0,0,0,0,-0.0307874,-0.00433531,17920,0.921043,-0.079835,-0.0307874,-0.00433531,14187
1460,-3.2133e-12,1.83379e-38,-1.53177e-06,-3.27827e-12,1.83367e-38,0,-1.06632e-13,0,0,-3.03891,-0.0781381,0.195338,0,0,0,0,0,0.96109,-0.0781382,261,-57,261,-57,397,-79,266,70,0.122038,-0.261799,0,-1.5,-nan,0,0,0,0.963077,-0.0794595,0,0,0,0,0.00511306,-0.0025587,20860,0.962412,-0.0791269,0.00511306,-0.0025587,14314
1470,-3.2133e-12,1.83379e-38,-1.53177e-06,-3.27827e-12,1.83367e-38,-3.40903e-12,-1.06632e-13,0,0,-3.28,-0.0753908,0.257173,0,0,0,0,0,0.720002,-0.0753908,261,-48,261,-48,397,-49,266,70,0.114859,-0.261799,0,-1.5,-nan,0,0,0,0.803748,-0.0774978,0,0,0,0,-0.103868,0.000709383,16184,0.816939,-0.0775879,-0.103868,0.000709383,14443
1480,-3.2133e-12,1.83379e-38,-1.53177e-06,-3.27827e-12,1.83367e-38,0,-1.06632e-13,0,0,-3.04539,-0.0724648,0.204981,0,0,0,0,0,0.954608,-0.0724648,256,-59,256,-59,394,-79,271,70,0.11954,-0.261799,0,-1.5,-nan,0,0,0,0.894907,-0.0786372,0,0,0,0,-0.0426634,-0.00158176,21605,0.899813,-0.0784553,-0.0426634,-0.00158176,14576
1490,-3.2133e-12,1.83379e-38,-1.53177e-06,-3.27827e-12,1.83367e-38,-3.40903e-12,-1.06633e-13,0,0,-3.04539,-0.0724648,0.204981,0,0,0,0,0,0.954608,-0.0724648,256,-59,256,-59,394,-79,271,70,0.119582,-0.261799,0,-1.5,-nan,0,0,0,0.894139,-0.0786657,0,0,0,0,-0.0426634,-0.00158176,21605,0.899813,-0.0784553,-0.0426634,-0.00158176,14576
1500,-3.2133e-12,1.83379e-38,-1.53177e-06,-3.27827e-12,1.83367e-38,0,-1.06633e-13,0,0,-3.00646,-0.0712864,0.179504,0,0,0,0,0,0.993544,-0.0712864,255,-59,255,-59,397,-79,269,71,0.106359,-0.261799,0,-1.5,-nan,0,0,0,0.948878,-0.0738757,0,0,0,0,-0.00965593,0.00308547,21900,0.950095,-0.0742644,-0.00965593,0.00308547,14728
1510,-3.2133e-12,1.83379e-38,-1.53177e-06,-3.27827e-12,1.83367e-38,-3.40903e-12,-1.06633e-13,0,0,-3.10975,-0.0776969,0.178587,0,0,0,0,0,0.890253,-0.0776969,262,-33,262,-33,397,-77,266,73,0.106018,-0.261799,0,-1.5,-nan,0,0,0,0.909666,-0.0738791,0,0,0,0,-0.0267683,0.00335124,20850,0.912825,-0.0742746,-0.0267683,0.00335124,14871
1520,-3.2133e-12,1.83379e-38,-1.53177e-06,-3.27827e-12,1.83367e-38,0,-1.06633e-13,0,0,-3.03505,-0.0762307,0.198729,0,0,0,0,0,0.964946,-0.0762307,256,-59,256,-59,396,-79,271,70,0.111864,-0.261799,0,-1.5,-nan,0,0,0,0.936476,-0.0760053,0,0,0,0,-0.0138121,0.00129847,21605,0.938036,-0.076152,-0.0138121,0.00129847,15002
1530,-3.2133e-12,1.83379e-38,-1.53177e-06,-3.27827e-12,1.83367e-38,-3.40903e-12,-1.06634e-13,0,0,-3.01897,-0.0716261,0.187035,0,0,0,0,0,0.981034,-0.0716261,256,-59,256,-59,396,-79,269,71,0.106444,-0.261799,0,-1.5,-nan,0,0,0,0.957398,-0.073415,0,0,0,0,-0.00127117,0.00249091,21750,0.957543,-0.073699,-0.00127117,0.00249091,15129
1540,-3.2133e-12,1.83379e-38,-1.53177e-06,-3.27827e-12,1.83367e-38,0,-1.06634e-13,0,0,-3.00821,-0.0711374,0.176278,0,0,0,0,0,0.991793,-0.0711374,256,-59,256,-59,396,-79,269,73,0.0996452,-0.261799,0,-1.5,-nan,0,0,0,0.972559,-0.0704164,0,0,0,0,0.0119892,0.00427427,22040,0.969813,-0.0713952,0.0119892,0.00427427,15291
1550,-3.2133e-12,1.83379e-38,-1.53177e-06,-3.27827e-12,1.83367e-38,-3.40903e-12,-1.06634e-13,0,0,-3.00821,-0.0711374,0.176278,0,0,0,0,0,0.991793,-0.0711374,256,-59,256,-59,396,-79,269,73,0.0995621,-0.261799,0,-1.5,-nan,0,0,0,0.972715,-0.0703608,0,0,0,0,0.0119892,0.00427427,22040,0.969813,-0.0713952,0.0119892,0.00427427,15291
1560,-3.2133e-12,1.83379e-38,-1.53177e-06,-3.27827e-12,1.83367e-38,0,-1.06634e-13,0,0,-3.01932,-0.0717519,0.179256,0,0,0,0,0,0.980676,-0.0717519,256,-59,256,-59,396,-77,269,73,0.0997441,-0.261799,0,-1.5,-nan,0,0,0,1.0483,-0.0703589,0,0,0,0,0.134256,0.00413204,21750,1.0283,-0.0709745,0.134256,0.00413204,15517
1570,-3.2133e-12,1.83379e-38,-1.53177e-06,-3.27827e-12,1.83367e-38,-3.40903e-12,-1.06635e-13,0,0,-3.01932,-0.0717519,0.179256,0,0,0,0,0,0.980676,-0.0717519,256,-59,256,-59,396,-77,269,73,0.0996392,-0.261799,0,-1.5,-nan,0,0,0,1.05059,-0.0702886,0,0,0,0,0.134256,0.00413204,21750,1.0283,-0.0709745,0.134256,0.00413204,15517
1580,-3.2133e-12,1.83379e-38,-1.53177e-06,-3.27827e-12,1.83367e-38,0,-1.06635e-13,0,0,-3.01932,-0.0717519,0.179256,0,0,0,0,0,0.980676,-0.0717519,256,-59,256,-59,396,-77,269,73,0.0995404,-0.261799,0,-1.5,-nan,0,0,0,1.05273,-0.0702225,0,0,0,0,0.134256,0.00413204,21750,1.0283,-0.0709745,0.134256,0.00413204,15517
1590,-3.2133e-12,1.83379e-38,-1.53177e-06,-3.27827e-12,1.83367e-38,-3.40903e-12,-1.06635e-13,0,0,-3.01932,-0.0717519,0.179256,0,0,0,0,0,0.980676,-0.0717519,256,-59,256,-59,396,-77,269,73,0.0994108,-0.261799,0,-1.5,-nan,0,0,0,1.05555,-0.0701357,0,0,0,0,0.134256,0.00413204,21750,1.0283,-0.0709745,0.134256,0.00413204,15517
1600,-3.2133e-12,1.83379e-38,-1.53177e-06,-3.27827e-12,1.83367e-38,0,-1.06636e-13,0,0,-3.01932,-0.0717519,0.179256,0,0,0,0,0,0.980676,-0.0717519,256,-59,256,-59,396,-77,269,73,0.099312,-0.261799,0,-1.5,-nan,0,0,0,1.0577,-0.0700696,0,0,0,0,0.134256,0.00413204,21750,1.0283,-0.0709745,0.134256,0.00413204,15517
1610,-3.2133e-12,1.83379e-38,-1.53177e-06,-3.27827e-12,1.83367e-38,-3.40903e-12,-1.06636e-13,0,0,-3.20759,-0.0738017,0.252028,0,0,0,0,0,0.792411,-0.0738017,262,-57,262,-57,396,-58,266,70,0.0978484,-0.261799,0,-1.5,-nan,0,0,0,1.07267,-0.0697954,0,0,0,0,0.132536,0.00494271,17152,1.05412,-0.0704873,0.132536,0.00494271,15715
1620,-3.2133e-12,1.83379e-38,-1.53177e-06,-3.27827e-12,1.83367e-38,0,-1.06636e-13,0,0,-3.01872,-0.0692011,0.183015,0,0,0,0,0,0.981284,-0.0692011,255,-57,255,-57,396,-79,269,71,0.0991932,-0.261799,0,-1.5,-nan,0,0,0,1.01689,-0.0696706,0,0,0,0,0.0733481,0.00376495,21900,1.00823,-0.0701149,0.0733481,0.00376495,15852
1630,-3.2133e-12,1.83379e-38,-1.53177e-06,-3.27827e-12,1.83367e-38,-3.40903e-12,-1.06636e-13,0,0,-3.10279,-0.07545,0.174616,0,0,0,0,0,0.89721,-0.07545,262,-33,262,-33,397,-77,265,73,0.0972324,-0.261799,0,-1.5,-nan,0,0,0,0.974908,-0.0689761,0,0,0,0,0.0145884,0.0044751,20850,0.973055,-0.0695445,0.0145884,0.0044751,15978
1640,-3.2133e-12,1.83379e-38,-1.53177e-06,-3.27827e-12,1.83367e-38,0,-1.06637e-13,0,0,-3.10279,-0.07545,0.174616,0,0,0,0,0,0.89721,-0.07545,262,-33,262,-33,397,-77,265,73,0.0969984,-0.261799,0,-1.5,-nan,0,0,0,0.975419,-0.0688195,0,0,0,0,0.0145884,0.0044751,20850,0.973055,-0.0695445,0.0145884,0.0044751,15978
1650,-3.2133e-12,1.83379e-38,-1.53177e-06,-3.27827e-12,1.83367e-38,-3.40903e-12,-1.06637e-13,0,0,-3.10279,-0.07545,0.174616,0,0,0,0,0,0.89721,-0.07545,262,-33,262,-33,397,-77,265,73,0.0968848,-0.261799,0,-1.5,-nan,0,0,0,0.975666,-0.0687434,0,0,0,0,0.0145884,0.0044751,20850,0.973055,-0.0695445,0.0145884,0.0044751,15978
1660,-3.2133e-12,1.83379e-38,-1.53177e-06,-3.27827e-12,1.83367e-38,0,-1.06637e-13,0,0,-3.01369,-0.0734923,0.183849,0,0,0,0,0,0.986309,-0.0734923,256,-59,256,-59,397,-79,269,71,0.108356,-0.261799,0,-1.5,-nan,0,0,0,0.987501,-0.0732648,0,0,0,0,0.0162162,0.000847002,21750,0.985409,-0.073374,0.0162162,0.000847002,16160
1670,-3.2133e-12,1.83379e-38,-1.53177e-06,-3.27827e-12,1.83367e-38,-3.40903e-12,-1.06637e-13,0,0,-3.33625,-0.0913193,0.221528,0,0,0,0,0,0.663745,-0.0913193,262,-33,262,-33,398,-34,265,73,0.110743,-0.261799,0,-1.5,-nan,0,0,0,0.959874,-0.0736343,0,0,0,0,-0.000180415,-0.000564474,14873,0.959895,-0.0735694,-0.000180415,-0.000564474,16286
1680,-3.2133e-12,1.83379e-38,-1.53177e-06,-3.27827e-12,1.83367e-38,0,-1.06638e-13,0,0,-3.33625,-0.0913193,0.221528,0,0,0,0,0,0.663745,-0.0913193,262,-33,262,-33,398,-34,265,73,0.110757,-0.261799,0,-1.5,-nan,0,0,0,0.959871,-0.0736434,0,0,0,0,-0.000180415,-0.000564474,14873,0.959895,-0.0735694,-0.000180415,-0.000564474,16286
1690,-3.2133e-12,1.83379e-38,-1.53177e-06,-3.27827e-12,1.83367e-38,-3.40903e-12,-1.06638e-13,0,0,-3.33625,-0.0913193,0.221528,0,0,0,0,0,0.663745,-0.0913193,262,-33,262,-33,398,-34,265,73,0.110772,-0.261799,0,-1.5,-nan,0,0,0,0.959868,-0.0736535,0,0,0,0,-0.000180415,-0.000564474,14873,0.959895,-0.0735694,-0.000180415,-0.000564474,16286
1700,-3.2133e-12,1.83379e-38,-1.53177e-06,-3.27827e-12,1.83367e-38,0,-1.06638e-13,0,0,-3.33625,-0.0913193,0.221528,0,0,0,0,0,0.663745,-0.0913193,262,-33,262,-33,398,-34,265,73,0.110786,-0.261799,0,-1.5,-nan,0,0,0,0.959865,-0.0736631,0,0,0,0,-0.000180415,-0.000564474,14873,0.959895,-0.0735694,-0.000180415,-0.000564474,16286
1710,-3.2133e-12,1.83379e-38,-1.53177e-06,-3.27827e-12,1.83367e-38,-3.40903e-12,-1.06639e-13,0,0,-3.0893,-0.0747708,0.170453,0,0,0,0,0,0.910701,-0.0747708,262,-33,262,-33,397,-79,265,73,0.114994,-0.261799,0,-1.5,-nan,0,0,0,0.901526,-0.0751117,0,0,0,0,-0.0504381,-0.00213685,21128,0.910303,-0.0747399,-0.0504381,-0.00213685,16507
1720,-3.2133e-12,1.83379e-38,-1.53177e-06,-3.27827e-12,1.83367e-38,0,-1.06639e-13,0,0,-3.33625,-0.0913193,0.221528,0,0,0,0,0,0.663745,-0.0913193,262,-33,262,-33,398,-34,265,73,0.117528,-0.261799,0,-1.5,-nan,0,0,0,0.850827,-0.0764116,0,0,0,0,-0.0796963,-0.0025921,14873,0.862941,-0.0760176,-0.0796963,-0.0025921,16658
1730,-3.2133e-12,1.83379e-38,-1.53177e-06,-3.27827e-12,1.83367e-38,-3.40903e-12,-1.06639e-13,0,0,-3.33625,-0.0913193,0.221528,0,0,0,0,0,0.663745,-0.0913193,262,-33,262,-33,398,-34,265,73,0.117594,-0.261799,0,-1.5,-nan,0,0,0,0.849472,-0.0764556,0,0,0,0,-0.0796963,-0.0025921,14873,0.862941,-0.0760176,-0.0796963,-0.0025921,16658
1740,-3.2133e-12,1.83379e-38,-1.53177e-06,-3.27827e-12,1.83367e-38,0,-1.06639e-13,0,0,-3.03541,-0.0668599,0.202554,0,0,0,0,0,0.964586,-0.0668599,259,-62,259,-62,397,-79,266,70,0.117625,-0.261799,0,-1.5,-nan,0,0,0,0.888175,-0.0763788,0,0,0,0,-0.0495236,-0.00270393,20562,0.895505,-0.0759787,-0.0495236,-0.00270393,16801
1750,-3.2133e-12,1.83379e-38,-1.53177e-06,-3.27827e-12,1.83367e-38,-3.40903e-12,-1.0664e-13,0,0,-3.10748,-0.0780291,0.191709,0,0,0,0,0,0.892524,-0.0780291,262,-35,262,-35,397,-79,266,70,0.122391,-0.261799,0,-1.5,-nan,0,0,0,0.880956,-0.0784184,0,0,0,0,-0.0518884,-0.00402652,20711,0.886975,-0.0779514,-0.0518884,-0.00402652,16951
1760,-3.2133e-12,1.83379e-38,-1.53177e-06,-3.27827e-12,1.83367e-38,0,-1.0664e-13,0,0,-3.01464,-0.073978,0.186586,0,0,0,0,0,0.985364,-0.073978,259,-60,259,-60,397,-79,266,70,0.118537,-0.261799,0,-1.5,-nan,0,0,0,0.87214,-0.0769076,0,0,0,0,-0.0612879,-0.00279823,21158,0.880537,-0.0765242,-0.0612879,-0.00279823,17080
1770,-3.2133e-12,1.83379e-38,-1.53177e-06,-3.27827e-12,1.83367e-38,-3.40903e-12,-1.0664e-13,0,0,-3.01464,-0.073978,0.186586,0,0,0,0,0,0.985364,-0.073978,259,-60,259,-60,397,-79,266,70,0.118654,-0.261799,0,-1.5,-nan,0,0,0,0.870424,-0.0769859,0,0,0,0,-0.0612879,-0.00279823,21158,0.880537,-0.0765242,-0.0612879,-0.00279823,17080
1780,-3.2133e-12,1.83379e-38,-1.53177e-06,-3.27827e-12,1.83367e-38,0,-1.0664e-13,0,0,-2.97646,-0.0825146,0.167158,0,0,0,0,0,1.02354,-0.0825146,259,-60,259,-60,402,-81,266,70,0.123252,-0.261799,0,-1.5,-nan,0,0,0,1.00924,-0.0791112,0,0,0,0,0.084326,-0.00389239,21593,0.999207,-0.078648,0.084326,-0.00389239,17233
1790,-3.2133e-12,1.83379e-38,-1.53177e-06,-3.27827e-12,1.83367e-38,-3.40903e-12,-1.06641e-13,0,0,-3.01784,-0.0747776,0.188675,0,0,0,0,0,0.982158,-0.0747776,259,-62,259,-62,397,-77,266,70,0.116322,-0.261799,0,-1.5,-nan,0,0,0,0.992763,-0.0764942,0,0,0,0,0.0670557,-0.00156903,20874,0.984851,-0.076309,0.0670557,-0.00156903,17359
1800,-3.2133e-12,1.83379e-38,-1.53177e-06,-3.27827e-12,1.83367e-38,0,-1.06641e-13,0,0,-3.04326,-0.0666629,0.203397,0,0,0,0,0,0.95674,-0.0666629,259,-60,259,-60,397,-79,266,70,0.109289,-0.261799,0,-1.5,-nan,0,0,0,0.981599,-0.0738975,0,0,0,0,0.0516785,0.000856404,20562,0.975811,-0.0739934,0.0516785,0.000856404,17487
1810,-3.2133e-12,1.83379e-38,-1.53177e-06,-3.27827e-12,1.83367e-38,-3.40903e-12,-1.06641e-13,0,0,-3.04326,-0.0666629,0.203397,0,0,0,0,0,0.95674,-0.0666629,259,-60,259,-60,397,-79,266,70,0.108082,-0.261799,0,-1.5,-nan,0,0,0,0.963091,-0.0733852,0,0,0,0,0.0414173,0.00119584,20562,0.961807,-0.0734222,0.0414173,0.00119584,17615
1820,-3.2133e-12,1.83379e-38,-1.53177e-06,-3.27827e-12,1.83367e-38,0,-1.06642e-13,0,0,-3.04326,-0.0666629,0.203397,0,0,0,0,0,0.95674,-0.0666629,259,-60,259,-60,397,-79,266,70,0.108057,-0.261799,0,-1.5,-nan,0,0,0,0.963671,-0.0733684,0,0,0,0,0.0414173,0.00119584,20562,0.961807,-0.0734222,0.0414173,0.00119584,17615
1830,-3.2133e-12,1.83379e-38,-1.53177e-06,-3.27827e-12,1.83367e-38,-3.40903e-12,-1.06642e-13,0,0,-3.03541,-0.0668599,0.202554,0,0,0,0,0,0.964586,-0.0668599,259,-62,259,-62,397,-79,266,70,0.104474,-0.261799,0,-1.5,-nan,0,0,0,0.970758,-0.0717282,0,0,0,0,0.0404938,0.00206775,20562,0.963712,-0.072088,0.0404938,0.00206775,17671
1840,-3.2133e-12,1.83379e-38,-1.53177e-06,-3.27827e-12,1.83367e-38,0,-1.06642e-13,0,0,-3.03541,-0.0668599,0.202554,0,0,0,0,0,0.964586,-0.0668599,259,-62,259,-62,397,-79,266,70,0.104424,-0.261799,0,-1.5,-nan,0,0,0,0.971406,-0.0716952,0,0,0,0,0.0404938,0.00206775,20562,0.963712,-0.072088,0.0404938,0.00206775,17671
1850,-3.2133e-12,1.83379e-38,-1.53177e-06,-3.27827e-12,1.83367e-38,-3.40903e-12,-1.06642e-13,0,0,-3.041,-0.0649746,0.205936,0,0,0,0,0,0.958998,-0.0649746,259,-62,259,-62,396,-79,266,70,0.0873042,-0.261799,0,-1.5,-nan,0,0,0,0.977381,-0.0646748,0,0,0,0,0.0407704,0.0071689,20562,0.971795,-0.0656569,0.0407704,0.0071689,17877
1860,-3.2133e-12,1.83379e-38,-1.53177e-06,-3.27827e-12,1.83367e-38,0,-1.06643e-13,0,0,-3.041,-0.0649746,0.205936,0,0,0,0,0,0.958998,-0.0649746,259,-62,259,-62,396,-79,266,70,0.0871222,-0.261799,0,-1.5,-nan,0,0,0,0.978074,-0.0645529,0,0,0,0,0.0407704,0.0071689,20562,0.971795,-0.0656569,0.0407704,0.0071689,17877
1870,-3.2133e-12,1.83379e-38,-1.53177e-06,-3.27827e-12,1.83367e-38,-3.40903e-12,-1.06643e-13,0,0,-3.041,-0.0649746,0.205936,0,0,0,0,0,0.958998,-0.0649746,259,-62,259,-62,396,-79,266,70,0.0869508,-0.261799,0,-1.5,-nan,0,0,0,0.978726,-0.0644382,0,0,0,0,0.0407704,0.0071689,20562,0.971795,-0.0656569,0.0407704,0.0071689,17877
1880,-3.2133e-12,1.83379e-38,-1.53177e-06,-3.27827e-12,1.83367e-38,0,-1.06643e-13,0,0,-3.32809,-0.0907361,0.221264,0,0,0,0,0,0.671907,-0.0907362,262,-33,262,-33,398,-36,265,73,0.0727485,-0.261799,0,-1.5,-nan,0,0,0,0.977271,-0.0607105,0,0,0,0,0.0381615,0.0138097,15151,0.973226,-0.0621743,0.0381615,0.0138097,18035
1890,-3.2133e-12,1.83379e-38,-1.53177e-06,-3.27827e-12,1.83367e-38,-3.40903e-12,-1.06643e-13,0,0,-3.32809,-0.0907361,0.221264,0,0,0,0,0,0.671907,-0.0907362,262,-33,262,-33,398,-36,265,73,0.0725009,-0.261799,0,-1.5,-nan,0,0,0,0.977729,-0.0605448,0,0,0,0,0.0381615,0.0138097,15151,0.973226,-0.0621743,0.0381615,0.0138097,18035
1900,-3.2133e-12,1.83379e-38,-1.53177e-06,-3.27827e-12,1.83367e-38,0,-1.06644e-13,0,0,-3.32809,-0.0907361,0.221264,0,0,0,0,0,0.671907,-0.0907362,262,-33,262,-33,398,-36,265,73,0.0722534,-0.261799,0,-1.5,-nan,0,0,0,0.978187,-0.0603791,0,0,0,0,0.0381615,0.0138097,15151,0.973226,-0.0621743,0.0381615,0.0138097,18035
1910,-3.2133e-12,1.83379e-38,-1.53177e-06,-3.27827e-12,1.83367e-38,-3.40903e-12,-1.06644e-13,0,0,-3.02845,-0.0739053,0.192875,0,0,0,0,0,0.971547,-0.0739053,259,-59,259,-59,396,-79,267,71,0.104779,-0.261799,0,-1.5,-nan,0,0,0,0.977571,-0.071716,0,0,0,0,0.0263786,0.00181895,21300,0.973509,-0.0719961,0.0263786,0.00181895,18174
1920,-3.2133e-12,1.83379e-38,-1.53177e-06,-3.27827e-12,1.83367e-38,0,-1.06644e-13,0,0,-3.02845,-0.0739053,0.192875,0,0,0,0,0,0.971547,-0.0739053,259,-59,259,-59,396,-79,267,71,0.104743,-0.261799,0,-1.5,-nan,0,0,0,0.977914,-0.0716923,0,0,0,0,0.0263786,0.00181895,21300,0.973509,-0.0719961,0.0263786,0.00181895,18174
1930,-3.2133e-12,1.83379e-38,-1.53177e-06,-3.27827e-12,1.83367e-38,-3.40903e-12,-1.06645e-13,0,0,-3.02845,-0.0739053,0.192875,0,0,0,0,0,0.971547,-0.0739053,259,-59,259,-59,396,-79,267,71,0.110486,-0.261799,0,-1.5,-nan,0,0,0,0.969457,-0.0737887,0,0,0,0,0.00569881,-0.000188898,21300,0.969326,-0.0737844,0.00569881,-0.000188898,18338
1940,-3.2133e-12,1.83379e-38,-1.53177e-06,-3.27827e-12,1.83367e-38,0,-1.06645e-13,0,0,-3.01186,-0.0760466,0.188663,0,0,0,0,0,0.98814,-0.0760466,259,-62,259,-62,397,-79,267,71,0.108232,-0.261799,0,-1.5,-nan,0,0,0,0.973368,-0.0732072,0,0,0,0,0.0164204,0.000875934,21300,0.971233,-0.0733211,0.0164204,0.000875934,18368
1950,-3.2133e-12,1.83379e-38,-1.53177e-06,-3.27827e-12,1.83367e-38,-3.40903e-12,-1.06645e-13,0,0,-3.24969,-0.0764447,0.228951,0,0,0,0,0,0.750305,-0.0764447,260,-33,260,-33,399,-58,266,70,0.111674,-0.261799,0,-1.5,-nan,0,0,0,0.966255,-0.0743829,0,0,0,0,-0.000102713,-0.000420551,17792,0.966266,-0.0743362,-0.000102713,-0.000420551,18514
1960,-3.2133e-12,1.83379e-38,-1.53177e-06,-3.27827e-12,1.83367e-38,0,-1.06645e-13,0,0,-3.26322,-0.0726239,0.234236,0,0,0,0,0,0.736785,-0.0726239,260,-33,260,-33,399,-58,266,70,0.11093,-0.261799,0,-1.5,-nan,0,0,0,0.943663,-0.074058,0,0,0,0,-0.0216547,-0.000221088,17792,0.947994,-0.0740137,-0.0216547,-0.000221088,18711
1970,-3.2133e-12,1.83379e-38,-1.53177e-06,-3.27827e-12,1.83367e-38,-3.40903e-12,-1.06646e-13,0,0,-3.02925,-0.0678642,0.193249,0,0,0,0,0,0.970747,-0.0678642,256,-59,256,-59,394,-79,269,71,0.107029,-0.261799,0,-1.5,-nan,0,0,0,0.947741,-0.0724193,0,0,0,0,-0.0150246,0.000896602,21750,0.950115,-0.072561,-0.0150246,0.000896602,18866
1980,-3.2133e-12,1.83379e-38,-1.53177e-06,-3.27827e-12,1.83367e-38,0,-1.06646e-13,0,0,-3.02925,-0.0678642,0.193249,0,0,0,0,0,0.970747,-0.0678642,256,-59,256,-59,394,-79,269,71,0.107006,-0.261799,0,-1.5,-nan,0,0,0,0.947486,-0.0724041,0,0,0,0,-0.0150246,0.000896602,21750,0.950115,-0.072561,-0.0150246,0.000896602,18866
1990,-3.2133e-12,1.83379e-38,-1.53177e-06,-3.27827e-12,1.83367e-38,-3.40903e-12,-1.06646e-13,0,0,-3.04425,-0.0762643,0.198555,0,0,0,0,0,0.955753,-0.0762643,261,-57,261,-57,396,-79,266,70,0.115514,-0.261799,0,-1.5,-nan,0,0,0,0.953762,-0.0755671,0,0,0,0,-0.00906361,-0.0020128,20860,0.955148,-0.0752591,-0.00906361,-0.0020128,19016
2000,-3.2133e-12,1.83379e-38,-1.53177e-06,-3.27827e-12,1.83367e-38,0,-1.06646e-13,0,0,-3.07711,-0.0769298,0.194274,0,0,0,0,0,0.922886,-0.0769298,261,-45,261,-45,397,-79,266,70,0.124434,-0.261799,0,-1.5,-nan,0,0,0,0.945411,-0.0778741,0,0,0,0,-0.00921805,-0.00622382,20860,0.94648,-0.0771521,-0.00921805,-0.00622382,19182
2010,-3.2133e-12,1.83379e-38,-1.53177e-06,-3.27827e-12,1.83367e-38,-3.40903e-12,-1.06647e-13,0,0,-3.11102,-0.0777655,0.18963,0,0,0,0,0,0.888984,-0.0777655,262,-33,262,-33,397,-79,266,70,0.125802,-0.261799,0,-1.5,-nan,0,0,0,0.918749,-0.0788202,0,0,0,0,-0.0227027,-0.00618818,20711,0.921337,-0.0781148,-0.0227027,-0.00618818,19309
2020,-3.2133e-12,1.83379e-38,-1.53177e-06,-3.27827e-12,1.83367e-38,0,-1.06647e-13,0,0,-3.07711,-0.0769298,0.194274,0,0,0,0,0,0.922886,-0.0769298,261,-45,261,-45,397,-79,266,70,0.127183,-0.261799,0,-1.5,-nan,0,0,0,0.913298,-0.0793549,0,0,0,0,-0.025961,-0.00663613,20860,0.916543,-0.0785254,-0.025961,-0.00663613,19432
2030,-3.2133e-12,1.83379e-38,-1.53177e-06,-3.27827e-12,1.83367e-38,-3.40903e-12,-1.06647e-13,0,0,-3.01464,-0.073978,0.186586,0,0,0,0,0,0.985364,-0.073978,259,-60,259,-60,397,-79,266,70,0.121327,-0.261799,0,-1.5,-nan,0,0,0,0.92478,-0.0783896,0,0,0,0,-0.0214988,-0.00324072,21158,0.927382,-0.0779975,-0.0214988,-0.00324072,19555
2040,-3.2133e-12,1.83379e-38,-1.53177e-06,-3.27827e-12,1.83367e-38,0,-1.06647e-13,0,0,-3.0255,-0.0736901,0.187301,0,0,0,0,0,0.974497,-0.0736901,259,-57,259,-57,397,-79,266,70,0.113228,-0.261799,0,-1.5,-nan,0,0,0,0.938621,-0.0756992,0,0,0,0,-0.0200992,-0.000103099,21158,0.941153,-0.0756863,-0.0200992,-0.000103099,19676
2050,-3.2133e-12,1.83379e-38,-1.53177e-06,-3.27827e-12,1.83367e-38,-3.40903e-12,-1.06648e-13,0,0,-3.35491,-0.096369,0.231903,0,0,0,0,0,0.645091,-0.096369,264,-33,264,-33,398,-34,265,73,0.11985,-0.261799,0,-1.5,-nan,0,0,0,0.935747,-0.0781618,0,0,0,0,-0.0200992,-0.00236693,14659,0.938621,-0.0778233,-0.0200992,-0.00236693,19818
2060,-3.2133e-12,1.83379e-38,-1.53177e-06,-3.27827e-12,1.83367e-38,0,-1.06648e-13,0,0,-3.01725,-0.0693865,0.181478,0,0,0,0,0,0.982755,-0.0693865,256,-59,256,-59,397,-79,269,73,0.119006,-0.261799,0,-1.5,-nan,0,0,0,0.940831,-0.0778764,0,0,0,0,-0.0144212,-0.00204573,21736,0.943802,-0.077455,-0.0144212,-0.00204573,19970
2070,-3.2133e-12,1.83379e-38,-1.53177e-06,-3.27827e-12,1.83367e-38,-3.40903e-12,-1.06648e-13,0,0,-3.27948,-0.0851074,0.21481,0,0,0,0,0,0.720518,-0.0851074,262,-33,262,-33,397,-47,265,74,0.123993,-0.261799,0,-1.5,-nan,0,0,0,0.898124,-0.0802232,0,0,0,0,-0.0380162,-0.00318426,16819,0.904472,-0.0796915,-0.0380162,-0.00318426,20166
2080,-3.2133e-12,1.83379e-38,-1.53177e-06,-3.27827e-12,1.83367e-38,0,-1.06649e-13,0,0,-3.27948,-0.0851074,0.21481,0,0,0,0,0,0.720518,-0.0851074,262,-33,262,-33,397,-47,265,74,0.124069,-0.261799,0,-1.5,-nan,0,0,0,0.897515,-0.0802742,0,0,0,0,-0.0380162,-0.00318426,16819,0.904472,-0.0796915,-0.0380162,-0.00318426,20166
2090,-3.2133e-12,1.83379e-38,-1.53177e-06,-3.27827e-12,1.83367e-38,-3.40903e-12,-1.06649e-13,0,0,-3.32323,-0.0904631,0.216232,0,0,0,0,0,0.676775,-0.0904631,262,-33,262,-33,398,-36,265,74,0.135673,-0.261799,0,-1.5,-nan,0,0,0,0.817517,-0.085226,0,0,0,0,-0.0830144,-0.00641992,15290,0.829388,-0.0843079,-0.0830144,-0.00641992,20334
2100,-3.2133e-12,1.83379e-38,-1.53177e-06,-3.27827e-12,1.83367e-38,0,-1.06649e-13,0,0,-3.10279,-0.07545,0.174616,0,0,0,0,0,0.89721,-0.07545,262,-33,262,-33,397,-77,265,73,0.13657,-0.261799,0,-1.5,-nan,0,0,0,0.886821,-0.0857445,0,0,0,0,-0.0264853,-0.00651365,20850,0.891323,-0.0846372,-0.0264853,-0.00651365,20518
2110,-3.2133e-12,1.83379e-38,-1.53177e-06,-3.27827e-12,1.83367e-38,-3.40903e-12,-1.06649e-13,0,0,-3.00266,-0.068484,0.166964,0,0,0,0,0,0.997336,-0.068484,255,-57,255,-57,396,-79,269,74,0.11282,-0.261799,0,-1.5,-nan,0,0,0,0.889732,-0.0759577,0,0,0,0,-0.0242328,0.000507923,22338,0.893028,-0.0760267,-0.0242328,0.000507923,20655
2120,-3.2133e-12,1.83379e-38,-1.53177e-06,-3.27827e-12,1.83367e-38,0,-1.0665e-13,0,0,-3.00266,-0.068484,0.166964,0,0,0,0,0,0.997336,-0.068484,255,-57,255,-57,396,-79,269,74,0.11281,-0.261799,0,-1.5,-nan,0,0,0,0.889417,-0.0759511,0,0,0,0,-0.0242328,0.000507923,22338,0.893028,-0.0760267,-0.0242328,0.000507923,20655
2130,-3.2133e-12,1.83379e-38,-1.53177e-06,-3.27827e-12,1.83367e-38,-3.40903e-12,-1.0665e-13,0,0,-3.33625,-0.0913193,0.221528,0,0,0,0,0,0.663745,-0.0913193,262,-33,262,-33,398,-34,265,73,0.122481,-0.261799,0,-1.5,-nan,0,0,0,0.790108,-0.0802322,0,0,0,0,-0.0871835,-0.00201122,14873,0.799959,-0.080005,-0.0871835,-0.00201122,20805
2140,-3.2133e-12,1.83379e-38,-1.53177e-06,-3.27827e-12,1.83367e-38,0,-1.0665e-13,0,0,-3.32323,-0.0904631,0.216232,0,0,0,0,0,0.676775,-0.0904631,262,-33,262,-33,398,-36,265,74,0.147967,-0.261799,0,-1.5,-nan,0,0,0,0.667008,-0.0914836,0,0,0,0,-0.135892,-0.00868542,15290,0.685217,-0.0903198,-0.135892,-0.00868542,20932
2150,-3.21332e-12,1.83156e-38,1.83238e-38,-3.27827e-12,1.83367e-38,-3.40903e-12,-1.0665e-13,0,0,-3.00082,-0.0665297,0.168007,0,0,0,0,0,0.99918,-0.0665297,254,-57,254,-57,396,-79,269,73,0.116235,-0.261799,0,-1.5,-nan,0,0,0,0.850996,-0.0774632,0,0,0,0,-0.0391148,-0.000389027,22344,0.857528,-0.0773983,-0.0391148,-0.000389027,21066
2160,-3.2133e-12,1.83379e-38,-1.53177e-06,-3.27827e-12,1.83367e-38,0,-1.06651e-13,0,0,-3.00082,-0.0665297,0.168007,0,0,0,0,0,0.99918,-0.0665297,254,-57,254,-57,396,-79,269,73,0.116243,-0.261799,0,-1.5,-nan,0,0,0,0.850487,-0.0774683,0,0,0,0,-0.0391148,-0.000389027,22344,0.857528,-0.0773983,-0.0391148,-0.000389027,21066
2170,-3.2133e-12,1.83379e-38,-1.53177e-06,-3.27827e-12,1.83367e-38,-3.40903e-12,-1.06651e-13,0,0,-3.00266,-0.068484,0.166964,0,0,0,0,0,0.997336,-0.068484,255,-57,255,-57,396,-79,269,74,0.108811,-0.261799,0,-1.5,-nan,0,0,0,0.916892,-0.0740236,0,0,0,0,-0.00194671,0.00136919,22338,0.9171,-0.0741701,-0.00194671,0.00136919,21249
2180,-3.2133e-12,1.83379e-38,-1.53177e-06,-3.27827e-12,1.83367e-38,0,-1.06651e-13,0,0,-3.00266,-0.068484,0.166964,0,0,0,0,0,0.997336,-0.068484,255,-57,255,-57,396,-79,269,74,0.108784,-0.261799,0,-1.5,-nan,0,0,0,0.916867,-0.0740058,0,0,0,0,-0.00194671,0.00136919,22338,0.9171,-0.0741701,-0.00194671,0.00136919,21249
2190,-3.2133e-12,1.83379e-38,-1.53177e-06,-3.27827e-12,1.83367e-38,-3.40903e-12,-1.06652e-13,0,0,-3.00266,-0.068484,0.166964,0,0,0,0,0,0.997336,-0.068484,255,-57,255,-57,396,-79,269,74,0.108758,-0.261799,0,-1.5,-nan,0,0,0,0.916842,-0.073988,0,0,0,0,-0.00194671,0.00136919,22338,0.9171,-0.0741701,-0.00194671,0.00136919,21249
2200,-3.2133e-12,1.83379e-38,-1.53177e-06,-3.27827e-12,1.83367e-38,0,-1.06652e-13,0,0,-3.01932,-0.0717519,0.179256,0,0,0,0,0,0.980676,-0.0717519,256,-59,256,-59,396,-77,269,73,0.102423,-0.261799,0,-1.5,-nan,0,0,0,0.97931,-0.0713051,0,0,0,0,0.00845836,0.00315867,21750,0.978363,-0.0716589,0.00845836,0.00315867,21389
2210,-3.2133e-12,1.83379e-38,-1.53177e-06,-3.27827e-12,1.83367e-38,-3.40903e-12,-1.06652e-13,0,0,-3.01932,-0.0717519,0.179256,0,0,0,0,0,0.980676,-0.0717519,256,-59,256,-59,396,-77,269,73,0.102343,-0.261799,0,-1.5,-nan,0,0,0,0.979454,-0.0712515,0,0,0,0,0.00845836,0.00315867,21750,0.978363,-0.0716589,0.00845836,0.00315867,21389
2220,-3.2133e-12,1.83379e-38,-1.53177e-06,-3.27827e-12,1.83367e-38,0,-1.06652e-13,0,0,-3.02472,-0.0739989,0.192569,0,0,0,0,0,0.975277,-0.0739989,259,-60,259,-60,396,-79,267,71,0.101526,-0.261799,0,-1.5,-nan,0,0,0,1.00211,-0.0713532,0,0,0,0,0.096188,0.00390432,21300,0.992396,-0.0717476,0.096188,0.00390432,21524
2230,-3.2133e-12,1.83379e-38,-1.53177e-06,-3.27827e-12,1.83367e-38,-3.40903e-12,-1.06653e-13,0,0,-3.07676,-0.0790778,0.197996,0,0,0,0,0,0.923237,-0.0790778,261,-47,261,-47,397,-79,267,71,0.096464,-0.261799,0,-1.5,-nan,0,0,0,1.01906,-0.0720798,0,0,0,0,0.184631,0.00863298,21000,1.00041,-0.0729517,0.184631,0.00863298,21638
2240,-3.2133e-12,1.83379e-38,-1.53177e-06,-3.27827e-12,1.83367e-38,0,-1.06653e-13,0,0,-3.01707,-0.0741811,0.191822,0,0,0,0,0,0.982926,-0.0741811,259,-62,259,-62,396,-79,267,71,0.106816,-0.261799,0,-1.5,-nan,0,0,0,0.999667,-0.0730777,0,0,0,0,0.0761432,0.00181652,21300,0.989007,-0.073332,0.0761432,0.00181652,21753
