timestamp,A_x,A_y,A_z,P,Q,R,Phi,Theta,Psi,poseX,poseY,poseZ,state_X,state_Y,state_Z,state_VzB,state_Bx,state_By,state_Bz,p1_x,p1_y,p2_x,p2_y,p3_x,p3_y,p4_x,p4_y,roll,pitch,yaw,alt,targetHeading,highLevelState,lowLevelState,gateNumber,filtered_x,filtered_y,x_OT,y_OT,vx_OT,vy_OT,filtered_vx,filtered_vygateArearansac_corr_x,ransac_corr_y,ransac_corr_vx,ransac_corr_vy,detectionTimeStamppTermX,dTermX,pTermY,dTermY,vxcmd,vycmd
6416,0,0,-5.10742,0.000401753,-0.000833844,0.000406988,-3.13475,0.0172558,2.31949,0,0,0,-3.8779e-06,1.86944e-06,-0.00102003,0.000491837,2.31952,0,0,0,0,0,0,0,0,0,0,-0.319554,0.12266,0,0,0,0,0,2,-3.8779e-06,1.86944e-06,0,0,0,0,-0.00102003,0.000491837,1.9603e-19,0,0,0,0,0,0,0,0,0,2,-2.05638e-06
6430,0,0,-7.05469,0.00035181,0.000797202,-0.000549078,-3.13485,0.0171891,2.3196,0,0,0,-4.71995e-05,2.26467e-05,-0.00405992,0.00194742,2.31956,0,0,0,0,0,0,0,0,0,0,-0.319292,0.122941,0,0,0,0,0,2,-4.71995e-05,2.26467e-05,0,0,0,0,-0.00405992,0.00194742,1.9603e-19,0,0,0,0,0,0,0,0,0,2,-2.49113e-05
6445,0,0,2.32617,0.000539336,0.000297527,-0.000326128,-3.13481,0.0170554,2.31958,0,0,0,-0.00013574,6.5165e-05,-0.00705881,0.00338831,2.31952,0,0,0,0,0,0,0,0,0,0,-0.319051,0.123201,0,0,0,0,0,2,-0.00013574,6.5165e-05,0,0,0,0,-0.00705881,0.00338831,1.9603e-19,0,0,0,0,0,0,0,0,0,2,-7.16815e-05
6463,0,0,-2.96191,-0.00109919,0.000334101,-0.00107895,-3.13492,0.0170457,2.31956,0,0,0,-0.000303748,0.000145724,-0.0106123,0.00508672,2.31959,0,0,0,0,0,0,0,0,0,0,-0.318725,0.123551,0,0,0,0,0,2,-0.000303748,0.000145724,0,0,0,0,-0.0106123,0.00508672,1.9603e-19,0,0,0,0,0,0,0,0,0,2,-0.000160297
6479,0,0,6.44531,-0.000737906,0.000833505,-8.68639e-05,-3.13493,0.0170475,2.31956,0,0,0,-0.000491235,0.000235667,-0.0135362,0.00649582,2.31956,0,0,0,0,0,0,0,0,0,0,-0.318477,0.123819,0,0,0,0,0,2,-0.000491235,0.000235667,0,0,0,0,-0.0135362,0.00649582,1.9603e-19,0,0,0,0,0,0,0,0,0,2,-0.000259233
6494,0,0,-5.78125,0.000340175,0.000150648,0.000256088,-3.13492,0.0170462,2.31956,0,0,0,-0.000740365,0.000355288,-0.0166312,0.00798788,2.31956,0,0,0,0,0,0,0,0,0,0,-0.3182,0.124117,0,0,0,0,0,2,-0.000740365,0.000355288,0,0,0,0,-0.0166312,0.00798788,1.9603e-19,0,0,0,0,0,0,0,0,0,2,-0.000390816
6510,0,0,6.77832,-5.37391e-05,1.9035e-05,5.55122e-05,-3.13492,0.0170507,2.31956,0,0,0,-0.00103876,0.000498653,-0.0197019,0.0094675,2.31956,0,0,0,0,0,0,0,0,0,0,-0.317921,0.124416,0,0,0,0,0,2,-0.00103876,0.000498653,0,0,0,0,-0.0197019,0.0094675,1.9603e-19,0,0,0,0,0,0,0,0,0,2,-0.000548518
6526,0,0,2.07227,0.000239361,4.26158e-05,0.000245358,-3.13493,0.0170406,2.31956,0,0,0,-0.00136194,0.000653994,-0.0225578,0.0108442,2.31956,0,0,0,0,0,0,0,0,0,0,-0.317659,0.124698,0,0,0,0,0,2,-0.00136194,0.000653994,0,0,0,0,-0.0225578,0.0108442,1.9603e-19,0,0,0,0,0,0,0,0,0,2,-0.000719394
6541,0,0,6.49121,-0.000224423,2.79686e-05,0.000598237,-3.13493,0.01704,2.31956,0,0,0,-0.00175464,0.000842823,-0.0255794,0.0123011,2.31956,0,0,0,0,0,0,0,0,0,0,-0.317376,0.125004,0,0,0,0,0,2,-0.00175464,0.000842823,0,0,0,0,-0.0255794,0.0123011,1.9603e-19,0,0,0,0,0,0,0,0,0,2,-0.000927105
6557,0,0,-6.54199,-0.000942031,0.000894057,0.000303366,-3.13493,0.0170304,2.31956,0,0,0,-0.00219542,0.00105484,-0.0285758,0.0137463,2.31956,0,0,0,0,0,0,0,0,0,0,-0.31709,0.125311,0,0,0,0,0,2,-0.00219542,0.00105484,0,0,0,0,-0.0285758,0.0137463,1.9603e-19,0,0,0,0,0,0,0,0,0,2,-0.00116033
6573,0,0,6.09082,0.000493946,0.000811085,0.000369851,-3.13494,0.0170252,2.31956,0,0,0,-0.00268295,0.0012894,-0.0315464,0.015179,2.31956,0,0,0,0,0,0,0,0,0,0,-0.316803,0.12562,0,0,0,0,0,2,-0.00268295,0.0012894,0,0,0,0,-0.0315464,0.015179,1.9603e-19,0,0,0,0,0,0,0,0,0,2,-0.00141834
6588,0,0,5.31738,0.00091257,-8.3595e-05,-0.000380322,-3.13492,0.0170196,2.31956,0,0,0,-0.00318289,0.00152998,-0.0343092,0.0165102,2.31956,0,0,0,0,0,0,0,0,0,0,-0.316531,0.125912,0,0,0,0,0,2,-0.00318289,0.00152998,0,0,0,0,-0.0343092,0.0165102,1.9603e-19,0,0,0,0,0,0,0,0,0,2,-0.00168298
6604,0,0,-2.59375,0.00103008,0.000446737,-0.000527728,-3.13491,0.0170201,2.31957,0,0,0,-0.0037626,0.00180894,-0.0372346,0.0179178,2.31956,0,0,0,0,0,0,0,0,0,0,-0.316239,0.126227,0,0,0,0,0,2,-0.0037626,0.00180894,0,0,0,0,-0.0372346,0.0179178,1.9603e-19,0,0,0,0,0,0,0,0,0,2,-0.00198984
6637,0,0,7.14746,-0.000345671,7.68308e-05,0.000728143,-3.13491,0.0170319,2.31958,0,0,0,-0.00510109,0.00245291,-0.0430406,0.0207065,2.31958,0,0,0,0,0,0,0,0,0,0,-0.315639,0.126873,0,0,0,0,0,2,-0.00510109,0.00245291,0,0,0,0,-0.0430406,0.0207065,1.9603e-19,0,0,0,0,0,0,0,0,0,2,-0.0026982
6680,0,0,-4.45215,-0.000919656,0.000246953,0.000681923,-3.13494,0.0170219,2.31958,0,0,0,-0.00727991,0.00350092,-0.0508948,0.0244817,2.31958,0,0,0,0,0,0,0,0,0,0,-0.314799,0.127776,0,0,0,0,0,2,-0.00727991,0.00350092,0,0,0,0,-0.0508948,0.0244817,1.9603e-19,0,0,0,0,0,0,0,0,0,2,-0.00385101
6692,0,0,0.123047,-0.000140076,0.000149786,0.000277721,-3.13494,0.0170143,2.31957,0,0,0,-0.00790584,0.00380203,-0.0529888,0.025492,2.31957,0,0,0,0,0,0,0,0,0,0,-0.314574,0.128018,0,0,0,0,0,2,-0.00790584,0.00380203,0,0,0,0,-0.0529888,0.025492,1.9603e-19,0,0,0,0,0,0,0,0,0,2,-0.00418224
6705,0,0,3.54785,-0.00114227,0.000246878,-0.000412165,-3.13495,0.0170177,2.31958,0,0,0,-0.00855698,0.00411531,-0.0550694,0.0264964,2.31958,0,0,0,0,0,0,0,0,0,0,-0.314341,0.128269,0,0,0,0,0,2,-0.00855698,0.00411531,0,0,0,0,-0.0550694,0.0264964,1.9603e-19,0,0,0,0,0,0,0,0,0,2,-0.00452684
6720,0,0,-1.16992,0.000190401,-0.000215826,-0.000698887,-3.13495,0.0170158,2.31959,0,0,0,-0.00946707,0.00455326,-0.0578248,0.0278285,2.31959,0,0,0,0,0,0,0,0,0,0,-0.31403,0.128604,0,0,0,0,0,2,-0.00946707,0.00455326,0,0,0,0,-0.0578248,0.0278285,1.9603e-19,0,0,0,0,0,0,0,0,0,2,-0.00500859
6735,0,0,-5.71973,-0.000204311,0.000382503,5.64098e-06,-3.13496,0.0170155,2.31958,0,0,0,-0.0103592,0.00498268,-0.0603873,0.0290674,2.31958,0,0,0,0,0,0,0,0,0,0,-0.31374,0.128916,0,0,0,0,0,2,-0.0103592,0.00498268,0,0,0,0,-0.0603873,0.0290674,1.9603e-19,0,0,0,0,0,0,0,0,0,2,-0.00548095
6751,0,0,-2.31641,0.000950087,-0.00022472,-0.000485519,-3.13494,0.0170144,2.3196,0,0,0,-0.011354,0.00546155,-0.0631006,0.030378,2.3196,0,0,0,0,0,0,0,0,0,0,-0.313424,0.129256,0,0,0,0,0,2,-0.011354,0.00546155,0,0,0,0,-0.0631006,0.030378,1.9603e-19,0,0,0,0,0,0,0,0,0,2,-0.0060077
6768,0,0,-2.31641,0.000950087,-0.00022472,-0.000485519,-3.13494,0.0170144,2.3196,0,0,0,-0.0124582,0.00599317,-0.0659615,0.0317574,2.3196,0,0,0,0,0,0,0,0,0,0,-0.313089,0.129616,0,0,0,0,0,2,-0.0124582,0.00599317,0,0,0,0,-0.0659615,0.0317574,1.9603e-19,0,0,0,0,0,0,0,0,0,2,-0.00659249
6783,0,0,-1.29199,0.000429082,-0.000835922,1.13009e-06,-3.13491,0.0170475,2.31961,0,0,0,-0.0134719,0.00648122,-0.0684653,0.0329647,2.3196,0,0,0,0,0,0,0,0,0,0,-0.312792,0.129935,0,0,0,0,0,2,-0.0134719,0.00648122,0,0,0,0,-0.0684653,0.0329647,1.9603e-19,0,0,0,0,0,0,0,0,0,2,-0.00712934
6800,0,0,-1.77246,0.000196971,0.000675787,-4.63994e-05,-3.13491,0.017043,2.31961,0,0,0,-0.0146668,0.00705658,-0.0712852,0.0343227,2.31961,0,0,0,0,0,0,0,0,0,0,-0.312448,0.130306,0,0,0,0,0,2,-0.0146668,0.00705658,0,0,0,0,-0.0712852,0.0343227,1.9603e-19,0,0,0,0,0,0,0,0,0,2,-0.00776224
6815,0,0,4.42773,-0.00146659,0.000570194,-0.000140104,-3.13492,0.0170323,2.31962,0,0,0,-0.01576,0.00758292,-0.0737563,0.0355109,2.31962,0,0,0,0,0,0,0,0,0,0,-0.312147,0.13063,0,0,0,0,0,2,-0.01576,0.00758292,0,0,0,0,-0.0737563,0.0355109,1.9603e-19,0,0,0,0,0,0,0,0,0,2,-0.00834122
6832,0,0,4.42773,-0.00146659,0.000570194,-0.000140104,-3.13492,0.0170323,2.31962,0,0,0,-0.0170445,0.00820132,-0.0765327,0.0368464,2.31962,0,0,0,0,0,0,0,0,0,0,-0.311804,0.130999,0,0,0,0,0,2,-0.0170445,0.00820132,0,0,0,0,-0.0765327,0.0368464,1.9603e-19,0,0,0,0,0,0,0,0,0,2,-0.00902146
6850,0,0,-4.73633,0.00105421,-0.000182413,0.000519722,-3.13492,0.0170475,2.31962,0,0,0,-0.0184577,0.00888173,-0.0794484,0.0382497,2.31962,0,0,0,0,0,0,0,0,0,0,-0.311435,0.131395,0,0,0,0,0,2,-0.0184577,0.00888173,0,0,0,0,-0.0794484,0.0382497,1.9603e-19,0,0,0,0,0,0,0,0,0,2,-0.00976991
6868,0,0,-5.96582,0.00058506,-0.000179516,-0.00109141,-3.13491,0.0170406,2.31963,0,0,0,-0.0199221,0.00958673,-0.0823382,0.0396423,2.31962,0,0,0,0,0,0,0,0,0,0,-0.311066,0.131792,0,0,0,0,0,2,-0.0199221,0.00958673,0,0,0,0,-0.0823382,0.0396423,1.9603e-19,0,0,0,0,0,0,0,0,0,2,-0.0105454
6883,0,0,5.43945,0.00125698,-2.34875e-05,-0.000358833,-3.1349,0.0170443,2.31963,0,0,0,-0.0211803,0.0101925,-0.0847267,0.0407904,2.31963,0,0,0,0,0,0,0,0,0,0,-0.310754,0.132128,0,0,0,0,0,2,-0.0211803,0.0101925,0,0,0,0,-0.0847267,0.0407904,1.9603e-19,0,0,0,0,0,0,0,0,0,2,-0.0112117
6900,0,0,5.43945,0.00125698,-2.34875e-05,-0.000358833,-3.1349,0.0170443,2.31963,0,0,0,-0.0226512,0.0109006,-0.0874151,0.0420807,2.31963,0,0,0,0,0,0,0,0,0,0,-0.310402,0.132507,0,0,0,0,0,2,-0.0226512,0.0109006,0,0,0,0,-0.0874151,0.0420807,1.9603e-19,0,0,0,0,0,0,0,0,0,2,-0.0119907
6915,0,0,1.19238,4.8402e-05,0.000862461,-0.00119265,-3.13488,0.0170467,2.31964,0,0,0,-0.0239852,0.0115427,-0.0897685,0.0432091,2.31964,0,0,0,0,0,0,0,0,0,0,-0.310088,0.132844,0,0,0,0,0,2,-0.0239852,0.0115427,0,0,0,0,-0.0897685,0.0432091,1.9603e-19,0,0,0,0,0,0,0,0,0,2,-0.012697
6931,0,0,1.19238,4.8402e-05,0.000862461,-0.00119265,-3.13488,0.0170467,2.31964,0,0,0,-0.0254469,0.0122463,-0.092261,0.0444022,2.31964,0,0,0,0,0,0,0,0,0,0,-0.309753,0.133205,0,0,0,0,0,2,-0.0254469,0.0122463,0,0,0,0,-0.092261,0.0444022,1.9603e-19,0,0,0,0,0,0,0,0,0,2,-0.0134709
6947,0,0,1.19238,4.8402e-05,0.000862461,-0.00119265,-3.13488,0.0170467,2.31964,0,0,0,-0.0269483,0.0129688,-0.0947336,0.0455859,2.31964,0,0,0,0,0,0,0,0,0,0,-0.309416,0.133567,0,0,0,0,0,2,-0.0269483,0.0129688,0,0,0,0,-0.0947336,0.0455859,1.9603e-19,0,0,0,0,0,0,0,0,0,2,-0.0142656
6963,0,0,1.34863,-0.00111187,-0.00144713,-0.00101973,-3.1349,0.0170451,2.31966,0,0,0,-0.0284891,0.0137101,-0.097186,0.0467598,2.31965,0,0,0,0,0,0,0,0,0,0,-0.309074,0.133935,0,0,0,0,0,2,-0.0284891,0.0137101,0,0,0,0,-0.097186,0.0467598,1.9603e-19,0,0,0,0,0,0,0,0,0,2,-0.0150811
6979,0,0,6.14453,-0.000927717,0.000695804,-0.000529867,-3.1349,0.0170321,2.31967,0,0,0,-0.0300689,0.0144702,-0.0996174,0.0479255,2.31966,0,0,0,0,0,0,0,0,0,0,-0.308729,0.134305,0,0,0,0,0,2,-0.0300689,0.0144702,0,0,0,0,-0.0996174,0.0479255,1.9603e-19,0,0,0,0,0,0,0,0,0,2,-0.0159172
6995,0,0,6.92285,0.000215623,-4.11916e-05,-0.000202357,-3.13491,0.0170257,2.31968,0,0,0,-0.0316873,0.0152488,-0.102026,0.0490816,2.31968,0,0,0,0,0,0,0,0,0,0,-0.308383,0.134678,0,0,0,0,0,2,-0.0316873,0.0152488,0,0,0,0,-0.102026,0.0490816,1.9603e-19,0,0,0,0,0,0,0,0,0,2,-0.0167736
7011,0,0,0.807617,-8.26341e-05,0.000397113,-0.000694163,-3.13492,0.0170288,2.31968,0,0,0,-0.0333441,0.0160458,-0.104414,0.0502284,2.31968,0,0,0,0,0,0,0,0,0,0,-0.308036,0.135051,0,0,0,0,0,2,-0.0333441,0.0160458,0,0,0,0,-0.104414,0.0502284,1.9603e-19,0,0,0,0,0,0,0,0,0,2,-0.0176503
7027,0,0,1.14258,0.00104364,0.000653951,-0.0019347,-3.1349,0.0170165,2.31971,0,0,0,-0.0350389,0.016861,-0.106783,0.0513656,2.31971,0,0,0,0,0,0,0,0,0,0,-0.307683,0.13543,0,0,0,0,0,2,-0.0350389,0.016861,0,0,0,0,-0.106783,0.0513656,1.9603e-19,0,0,0,0,0,0,0,0,0,2,-0.0185471
7043,0,0,3.87402,-0.000284926,0.00112589,0.000994336,-3.13491,0.0169996,2.3197,0,0,0,-0.0367714,0.0176944,-0.109132,0.0524916,2.31971,0,0,0,0,0,0,0,0,0,0,-0.307334,0.135805,0,0,0,0,0,2,-0.0367714,0.0176944,0,0,0,0,-0.109132,0.0524916,1.9603e-19,0,0,0,0,0,0,0,0,0,2,-0.0194638
7059,0,0,-6.79004,0.000156909,0.00162219,-0.000110389,-3.13491,0.0169775,2.3197,0,0,0,-0.0385413,0.0185456,-0.11146,0.0536078,2.3197,0,0,0,0,0,0,0,0,0,0,-0.306987,0.136179,0,0,0,0,0,2,-0.0385413,0.0185456,0,0,0,0,-0.11146,0.0536078,1.9603e-19,0,0,0,0,0,0,0,0,0,2,-0.0204002
7075,0,0,-7.3457,-0.000358063,-0.000380491,-0.000628238,-3.13491,0.0169751,2.31971,0,0,0,-0.0403482,0.0194146,-0.113766,0.0547115,2.31971,0,0,0,0,0,0,0,0,0,0,-0.306633,0.136559,0,0,0,0,0,2,-0.0403482,0.0194146,0,0,0,0,-0.113766,0.0547115,1.9603e-19,0,0,0,0,0,0,0,0,0,2,-0.0213561
7091,0,0,4.43164,-0.000603463,-0.00174436,0.000382957,-3.13491,0.0169889,2.3197,0,0,0,-0.0421925,0.0203015,-0.116055,0.0558065,2.3197,0,0,0,0,0,0,0,0,0,0,-0.306284,0.136935,0,0,0,0,0,2,-0.0421925,0.0203015,0,0,0,0,-0.116055,0.0558065,1.9603e-19,0,0,0,0,0,0,0,0,0,2,-0.0223317
7107,0,0,-5.13379,-0.000288651,-0.000424359,-0.000627812,-3.13491,0.0169904,2.31971,0,0,0,-0.043954,0.0211485,-0.118185,0.0568266,2.31971,0,0,0,0,0,0,0,0,0,0,-0.305949,0.137296,0,0,0,0,0,2,-0.043954,0.0211485,0,0,0,0,-0.118185,0.0568266,1.9603e-19,0,0,0,0,0,0,0,0,0,2,-0.0232633
7122,0,0,-2.80273,0.000849934,-0.000639807,-3.52906e-05,-3.13492,0.017003,2.31972,0,0,0,-0.0458686,0.0220691,-0.12044,0.0579079,2.31972,0,0,0,0,0,0,0,0,0,0,-0.305591,0.13768,0,0,0,0,0,2,-0.0458686,0.0220691,0,0,0,0,-0.12044,0.0579079,1.9603e-19,0,0,0,0,0,0,0,0,0,2,-0.024276
7139,0,0,0.743164,-0.000940216,0.000744198,-0.00108951,-3.13493,0.0169961,2.31972,0,0,0,-0.0479423,0.0230661,-0.122816,0.059049,2.31972,0,0,0,0,0,0,0,0,0,0,-0.305209,0.138091,0,0,0,0,0,2,-0.0479423,0.0230661,0,0,0,0,-0.122816,0.059049,1.9603e-19,0,0,0,0,0,0,0,0,0,2,-0.0253727
7154,0,0,3.34766,0.000156188,-0.000279445,0.000396372,-3.13492,0.0169968,2.31972,0,0,0,-0.0498041,0.0239612,-0.124894,0.0600473,2.31972,0,0,0,0,0,0,0,0,0,0,-0.304873,0.138452,0,0,0,0,0,2,-0.0498041,0.0239612,0,0,0,0,-0.124894,0.0600473,1.9603e-19,0,0,0,0,0,0,0,0,0,2,-0.0263573
7170,0,0,6.53613,-0.00105689,0.000701947,0.000725073,-3.13492,0.0169828,2.31971,0,0,0,-0.0518249,0.0249327,-0.127095,0.0611033,2.31972,0,0,0,0,0,0,0,0,0,0,-0.304512,0.138841,0,0,0,0,0,2,-0.0518249,0.0249327,0,0,0,0,-0.127095,0.0611033,1.9603e-19,0,0,0,0,0,0,0,0,0,2,-0.027426
7186,0,0,6.40723,-0.00161075,0.000548887,0.0004651,-3.13492,0.0169829,2.31971,0,0,0,-0.0538807,0.0259211,-0.129277,0.0621487,2.31971,0,0,0,0,0,0,0,0,0,0,-0.30415,0.13923,0,0,0,0,0,2,-0.0538807,0.0259211,0,0,0,0,-0.129277,0.0621487,1.9603e-19,0,0,0,0,0,0,0,0,0,2,-0.0285132
7201,0,0,-0.651367,-0.00020034,-5.27869e-05,-0.0011284,-3.13493,0.0169824,2.31972,0,0,0,-0.0558394,0.0268627,-0.131305,0.0631223,2.31972,0,0,0,0,0,0,0,0,0,0,-0.303805,0.139602,0,0,0,0,0,2,-0.0558394,0.0268627,0,0,0,0,-0.131305,0.0631223,1.9603e-19,0,0,0,0,0,0,0,0,0,2,-0.029549
7217,0,0,2.59863,-0.000862196,-0.0010805,-0.000652099,-3.13493,0.016992,2.31973,0,0,0,-0.0579629,0.0278835,-0.133452,0.0641537,2.31973,0,0,0,0,0,0,0,0,0,0,-0.303434,0.14,0,0,0,0,0,2,-0.0579629,0.0278835,0,0,0,0,-0.133452,0.0641537,1.9603e-19,0,0,0,0,0,0,0,0,0,2,-0.0306719
7233,0,0,2.59863,-0.000862196,-0.0010805,-0.000652099,-3.13493,0.016992,2.31973,0,0,0,-0.0601205,0.0289207,-0.135582,0.0651781,2.31973,0,0,0,0,0,0,0,0,0,0,-0.303066,0.140396,0,0,0,0,0,2,-0.0601205,0.0289207,0,0,0,0,-0.135582,0.0651781,1.9603e-19,0,0,0,0,0,0,0,0,0,2,-0.0318128
7249,0,0,-1.76367,0.000323654,0.000861716,-0.000566519,-3.13494,0.0169973,2.31973,0,0,0,-0.0623114,0.029974,-0.137695,0.066195,2.31973,0,0,0,0,0,0,0,0,0,0,-0.302697,0.140794,0,0,0,0,0,2,-0.0623114,0.029974,0,0,0,0,-0.137695,0.066195,1.9603e-19,0,0,0,0,0,0,0,0,0,2,-0.0329714
7265,0,0,-1.76367,0.000323654,0.000861716,-0.000566519,-3.13494,0.0169973,2.31973,0,0,0,-0.0645359,0.0310434,-0.139791,0.067205,2.31973,0,0,0,0,0,0,0,0,0,0,-0.302324,0.141194,0,0,0,0,0,2,-0.0645359,0.0310434,0,0,0,0,-0.139791,0.067205,1.9603e-19,0,0,0,0,0,0,0,0,0,2,-0.0341477
7281,0,0,6.40234,-0.000231395,-0.0014388,-0.000270235,-3.13494,0.0170346,2.31973,0,0,0,-0.0667938,0.0321289,-0.14187,0.0682082,2.31972,0,0,0,0,0,0,0,0,0,0,-0.301954,0.141593,0,0,0,0,0,2,-0.0667938,0.0321289,0,0,0,0,-0.14187,0.0682082,1.9603e-19,0,0,0,0,0,0,0,0,0,2,-0.0353418
7297,0,0,1.93945,0.000232619,0.000457518,-7.98882e-05,-3.13494,0.0170429,2.31973,0,0,0,-0.0690848,0.0332304,-0.143936,0.0692062,2.31973,0,0,0,0,0,0,0,0,0,0,-0.301575,0.142,0,0,0,0,0,2,-0.0690848,0.0332304,0,0,0,0,-0.143936,0.0692062,1.9603e-19,0,0,0,0,0,0,0,0,0,2,-0.0365534
7313,0,0,-2.27832,0.000503893,-0.000308991,-0.000539627,-3.13494,0.0170461,2.31973,0,0,0,-0.0714087,0.0343478,-0.145988,0.0701986,2.31973,0,0,0,0,0,0,0,0,0,0,-0.301195,0.142409,0,0,0,0,0,2,-0.0714087,0.0343478,0,0,0,0,-0.145988,0.0701986,1.9603e-19,0,0,0,0,0,0,0,0,0,2,-0.0377826
7330,0,0,5.17969,-0.000947384,0.000570823,-0.00108572,-3.13495,0.0170357,2.31975,0,0,0,-0.0739143,0.0355527,-0.14815,0.0712451,2.31975,0,0,0,0,0,0,0,0,0,0,-0.300787,0.142847,0,0,0,0,0,2,-0.0739143,0.0355527,0,0,0,0,-0.14815,0.0712451,1.9603e-19,0,0,0,0,0,0,0,0,0,2,-0.039108
7345,0,0,-7.36914,-0.000918744,0.000567781,-0.000888968,-3.13495,0.0170498,2.31976,0,0,0,-0.0761549,0.0366303,-0.15004,0.0721619,2.31976,0,0,0,0,0,0,0,0,0,0,-0.300426,0.143235,0,0,0,0,0,2,-0.0761549,0.0366303,0,0,0,0,-0.15004,0.0721619,1.9603e-19,0,0,0,0,0,0,0,0,0,2,-0.0402933
7362,0,0,-1.10645,0.000985057,0.000228046,-0.000356802,-3.13495,0.0170613,2.31975,0,0,0,-0.0787297,0.0378688,-0.152168,0.0731949,2.31975,0,0,0,0,0,0,0,0,0,0,-0.30002,0.143671,0,0,0,0,0,2,-0.0787297,0.0378688,0,0,0,0,-0.152168,0.0731949,1.9603e-19,0,0,0,0,0,0,0,0,0,2,-0.0416557
7377,0,0,-0.65918,-0.000466578,-0.000452137,0.00013895,-3.13495,0.0170723,2.31975,0,0,0,-0.0810298,0.0389752,-0.154031,0.0740995,2.31975,0,0,0,0,0,0,0,0,0,0,-0.299659,0.14406,0,0,0,0,0,2,-0.0810298,0.0389752,0,0,0,0,-0.154031,0.0740995,1.9603e-19,0,0,0,0,0,0,0,0,0,2,-0.0428727
7393,0,0,-5.93066,-0.00088207,-0.000362353,0.000246792,-3.13496,0.0170784,2.31976,0,0,0,-0.0833581,0.0400954,-0.155881,0.074998,2.31975,0,0,0,0,0,0,0,0,0,0,-0.299296,0.144451,0,0,0,0,0,2,-0.0833581,0.0400954,0,0,0,0,-0.155881,0.074998,1.9603e-19,0,0,0,0,0,0,0,0,0,2,-0.0441049
7408,0,0,1.82617,0.00143684,-0.000465213,-0.0015422,-3.13494,0.0170873,2.31977,0,0,0,-0.0858729,0.0413054,-0.157841,0.0759516,2.31977,0,0,0,0,0,0,0,0,0,0,-0.298901,0.144875,0,0,0,0,0,2,-0.0858729,0.0413054,0,0,0,0,-0.157841,0.0759516,1.9603e-19,0,0,0,0,0,0,0,0,0,2,-0.045436
7425,0,0,4.44727,-4.17672e-05,0.000224871,-0.000405055,-3.13495,0.0170813,2.31977,0,0,0,-0.0885789,0.0426076,-0.159908,0.076956,2.31977,0,0,0,0,0,0,0,0,0,0,-0.298486,0.145321,0,0,0,0,0,2,-0.0885789,0.0426076,0,0,0,0,-0.159908,0.076956,1.9603e-19,0,0,0,0,0,0,0,0,0,2,-0.0468684
7440,0,0,3.74121,-0.000346883,-0.00108008,0.00015174,-3.13496,0.0170942,2.31977,0,0,0,-0.090995,0.0437705,-0.161716,0.0778365,2.31977,0,0,0,0,0,0,0,0,0,0,-0.298119,0.145716,0,0,0,0,0,2,-0.090995,0.0437705,0,0,0,0,-0.161716,0.0778365,1.9603e-19,0,0,0,0,0,0,0,0,0,2,-0.0481476
7457,0,0,-1.47949,-0.00128232,0.000177114,-0.00134328,-3.13497,0.0170956,2.31978,0,0,0,-0.0936026,0.0450257,-0.163629,0.0787708,2.31978,0,0,0,0,0,0,0,0,0,0,-0.29772,0.146144,0,0,0,0,0,2,-0.0936026,0.0450257,0,0,0,0,-0.163629,0.0787708,1.9603e-19,0,0,0,0,0,0,0,0,0,2,-0.0495283
7472,0,0,3.43555,0.00068428,-0.000496112,-0.00147231,-3.13496,0.0171049,2.31979,0,0,0,-0.0962407,0.0462958,-0.165528,0.0796985,2.31979,0,0,0,0,0,0,0,0,0,0,-0.297321,0.146573,0,0,0,0,0,2,-0.0962407,0.0462958,0,0,0,0,-0.165528,0.0796985,1.9603e-19,0,0,0,0,0,0,0,0,0,2,-0.0509254
7488,0,0,-2.82227,-0.000774981,9.27496e-05,-0.000622159,-3.13498,0.0171126,2.31981,0,0,0,-0.0989089,0.0475807,-0.167413,0.0806195,2.31981,0,0,0,0,0,0,0,0,0,0,-0.29692,0.147004,0,0,0,0,0,2,-0.0989089,0.0475807,0,0,0,0,-0.167413,0.0806195,1.9603e-19,0,0,0,0,0,0,0,0,0,2,-0.0523387
7504,0,0,6.70117,0.000614241,0.000868473,-0.000658272,-3.13497,0.0171087,2.31982,0,0,0,-0.101607,0.0488802,-0.169282,0.0815354,2.31981,0,0,0,0,0,0,0,0,0,0,-0.296518,0.147436,0,0,0,0,0,2,-0.101607,0.0488802,0,0,0,0,-0.169282,0.0815354,1.9603e-19,0,0,0,0,0,0,0,0,0,2,-0.0537682
7520,0,0,4.25879,-0.00129572,9.30294e-05,-0.000956331,-3.13498,0.0171137,2.31983,0,0,0,-0.104335,0.0501943,-0.171136,0.0824431,2.31983,0,0,0,0,0,0,0,0,0,0,-0.296112,0.147871,0,0,0,0,0,2,-0.104335,0.0501943,0,0,0,0,-0.171136,0.0824431,1.9603e-19,0,0,0,0,0,0,0,0,0,2,-0.0552137
7536,0,0,4.25879,-0.00129572,9.30294e-05,-0.000956331,-3.13498,0.0171137,2.31983,0,0,0,-0.107093,0.0515229,-0.172975,0.0833454,2.31983,0,0,0,0,0,0,0,0,0,0,-0.29571,0.148304,0,0,0,0,0,2,-0.107093,0.0515229,0,0,0,0,-0.172975,0.0833454,1.9603e-19,0,0,0,0,0,0,0,0,0,2,-0.0566752
7552,0,0,7.12207,0.000461777,-0.000799834,0.00139506,-3.13497,0.0171227,2.31982,0,0,0,-0.109879,0.0528656,-0.1748,0.0842404,2.31982,0,0,0,0,0,0,0,0,0,0,-0.295309,0.148735,0,0,0,0,0,2,-0.109879,0.0528656,0,0,0,0,-0.1748,0.0842404,1.9603e-19,0,0,0,0,0,0,0,0,0,2,-0.0581521
7568,0,0,7.12207,0.000461777,-0.000799834,0.00139506,-3.13497,0.0171227,2.31982,0,0,0,-0.112517,0.0541372,-0.176498,0.0850731,2.31982,0,0,0,0,0,0,0,0,0,0,-0.29493,0.149144,0,0,0,0,0,2,-0.112517,0.0541372,0,0,0,0,-0.176498,0.0850731,1.9603e-19,0,0,0,0,0,0,0,0,0,2,-0.0595509
7583,0,0,2.99609,-0.00141763,-0.000141227,9.34012e-05,-3.135,0.0171219,2.31985,0,0,0,-0.11536,0.0555077,-0.178296,0.0859541,2.31985,0,0,0,0,0,0,0,0,0,0,-0.294515,0.149588,0,0,0,0,0,2,-0.11536,0.0555077,0,0,0,0,-0.178296,0.0859541,1.9603e-19,0,0,0,0,0,0,0,0,0,2,-0.0610584
7600,0,0,-1.40332,-0.00149102,-0.000279955,0.000655637,-3.13501,0.0171116,2.31984,0,0,0,-0.118413,0.0569794,-0.180189,0.0868841,2.31985,0,0,0,0,0,0,0,0,0,0,-0.29408,0.150056,0,0,0,0,0,2,-0.118413,0.0569794,0,0,0,0,-0.180189,0.0868841,1.9603e-19,0,0,0,0,0,0,0,0,0,2,-0.0626774
7615,0,0,-6.05469,-7.05486e-05,0.000566182,-0.000126735,-3.13502,0.0171068,2.31984,0,0,0,-0.121131,0.0582904,-0.181841,0.0877002,2.31984,0,0,0,0,0,0,0,0,0,0,-0.293698,0.150467,0,0,0,0,0,2,-0.121131,0.0582904,0,0,0,0,-0.181841,0.0877002,1.9603e-19,0,0,0,0,0,0,0,0,0,2,-0.0641194
7630,0,0,-6.05469,-7.05486e-05,0.000566182,-0.000126735,-3.13502,0.0171068,2.31984,0,0,0,-0.123875,0.0596137,-0.183478,0.0885107,2.31984,0,0,0,0,0,0,0,0,0,0,-0.293313,0.150882,0,0,0,0,0,2,-0.123875,0.0596137,0,0,0,0,-0.183478,0.0885107,1.9603e-19,0,0,0,0,0,0,0,0,0,2,-0.0655751
7646,0,0,-2.52148,-0.000160552,2.83759e-05,-0.000278165,-3.13501,0.0171054,2.31983,0,0,0,-0.126828,0.0610386,-0.185212,0.0893682,2.31983,0,0,0,0,0,0,0,0,0,0,-0.292903,0.151323,0,0,0,0,0,2,-0.126828,0.0610386,0,0,0,0,-0.185212,0.0893682,1.9603e-19,0,0,0,0,0,0,0,0,0,2,-0.0671425
7662,0,0,-3.33496,-0.000430473,2.76236e-05,-7.83971e-05,-3.135,0.0171041,2.31984,0,0,0,-0.12981,0.0624775,-0.186934,0.0902172,2.31984,0,0,0,0,0,0,0,0,0,0,-0.292487,0.15177,0,0,0,0,0,2,-0.12981,0.0624775,0,0,0,0,-0.186934,0.0902172,1.9603e-19,0,0,0,0,0,0,0,0,0,2,-0.0687252
7678,0,0,-1.27441,-0.000227018,0.000630778,0.000565308,-3.13499,0.0170954,2.31983,0,0,0,-0.132818,0.0639298,-0.188642,0.0910577,2.31983,0,0,0,0,0,0,0,0,0,0,-0.292074,0.152214,0,0,0,0,0,2,-0.132818,0.0639298,0,0,0,0,-0.188642,0.0910577,1.9603e-19,0,0,0,0,0,0,0,0,0,2,-0.0703228
7695,0,0,4.45312,-0.000187894,0.000687974,-0.00104762,-3.135,0.0170916,2.31984,0,0,0,-0.136045,0.0654875,-0.190442,0.091942,2.31983,0,0,0,0,0,0,0,0,0,0,-0.291631,0.152691,0,0,0,0,0,2,-0.136045,0.0654875,0,0,0,0,-0.190442,0.091942,1.9603e-19,0,0,0,0,0,0,0,0,0,2,-0.0720363
7710,0,0,3.99121,-0.000388317,0.000193602,-0.000500008,-3.13501,0.0170897,2.31984,0,0,0,-0.138917,0.0668741,-0.192015,0.0927161,2.31984,0,0,0,0,0,0,0,0,0,0,-0.291239,0.153113,0,0,0,0,0,2,-0.138917,0.0668741,0,0,0,0,-0.192015,0.0927161,1.9603e-19,0,0,0,0,0,0,0,0,0,2,-0.0735616
7727,0,0,3.99121,-0.000388317,0.000193602,-0.000500008,-3.13501,0.0170897,2.31984,0,0,0,-0.142201,0.0684599,-0.193784,0.093588,2.31984,0,0,0,0,0,0,0,0,0,0,-0.290793,0.153592,0,0,0,0,0,2,-0.142201,0.0684599,0,0,0,0,-0.193784,0.093588,1.9603e-19,0,0,0,0,0,0,0,0,0,2,-0.0753059
7743,0,0,-2.78223,-0.000176312,0.000157839,-0.000424449,-3.13501,0.0170727,2.31983,0,0,0,-0.145123,0.0698711,-0.19533,0.0943505,2.31983,0,0,0,0,0,0,0,0,0,0,-0.2904,0.154015,0,0,0,0,0,2,-0.145123,0.0698711,0,0,0,0,-0.19533,0.0943505,1.9603e-19,0,0,0,0,0,0,0,0,0,2,-0.0768582
7759,0,0,-5.94727,0.000320794,0.000973276,-0.00117475,-3.13501,0.0170677,2.31984,0,0,0,-0.148462,0.0714845,-0.197068,0.0952058,2.31984,0,0,0,0,0,0,0,0,0,0,-0.289951,0.154497,0,0,0,0,0,2,-0.148462,0.0714845,0,0,0,0,-0.197068,0.0952058,1.9603e-19,0,0,0,0,0,0,0,0,0,2,-0.078633
7775,0,0,5.44629,0.000467554,0.000892044,-0.000956164,-3.13501,0.0170565,2.31985,0,0,0,-0.151632,0.0730159,-0.198688,0.0960025,2.31985,0,0,0,0,0,0,0,0,0,0,-0.289525,0.154955,0,0,0,0,0,2,-0.151632,0.0730159,0,0,0,0,-0.198688,0.0960025,1.9603e-19,0,0,0,0,0,0,0,0,0,2,-0.0803175
7792,0,0,-4.2334,6.89173e-05,0.000788819,-9.40466e-05,-3.135,0.0170522,2.31985,0,0,0,-0.155029,0.0746575,-0.200396,0.0968414,2.31985,0,0,0,0,0,0,0,0,0,0,-0.289074,0.15544,0,0,0,0,0,2,-0.155029,0.0746575,0,0,0,0,-0.200396,0.0968414,1.9603e-19,0,0,0,0,0,0,0,0,0,2,-0.0821233
7808,0,0,6.55957,0.000126856,-2.11755e-05,-0.000619927,-3.13499,0.0170462,2.31985,0,0,0,-0.158252,0.0762149,-0.20199,0.0976225,2.31985,0,0,0,0,0,0,0,0,0,0,-0.288649,0.155897,0,0,0,0,0,2,-0.158252,0.0762149,0,0,0,0,-0.20199,0.0976225,1.9603e-19,0,0,0,0,0,0,0,0,0,2,-0.0838364
7824,0,0,-1.56836,-0.000418949,0.000237979,0.000501628,-3.13499,0.0170566,2.31985,0,0,0,-0.1615,0.0777848,-0.203573,0.0983953,2.31985,0,0,0,0,0,0,0,0,0,0,-0.288223,0.156355,0,0,0,0,0,2,-0.1615,0.0777848,0,0,0,0,-0.203573,0.0983953,1.9603e-19,0,0,0,0,0,0,0,0,0,2,-0.0855633
7841,0,0,-7.04395,-0.000606718,0.00124685,-0.0004914,-3.135,0.0170421,2.31985,0,0,0,-0.164773,0.0793672,-0.205143,0.0991627,2.31985,0,0,0,0,0,0,0,0,0,0,-0.287796,0.156814,0,0,0,0,0,2,-0.164773,0.0793672,0,0,0,0,-0.205143,0.0991627,1.9603e-19,0,0,0,0,0,0,0,0,0,2,-0.0873039
7856,0,0,0.646484,-0.000251375,-0.000266268,0.000123902,-3.135,0.0170392,2.31986,0,0,0,-0.167865,0.0808615,-0.206601,0.0998761,2.31986,0,0,0,0,0,0,0,0,0,0,-0.287393,0.157247,0,0,0,0,0,2,-0.167865,0.0808615,0,0,0,0,-0.206601,0.0998761,1.9603e-19,0,0,0,0,0,0,0,0,0,2,-0.0889477
7870,0,0,4.50195,0.000426118,6.57554e-06,-0.000192833,-3.135,0.0170323,2.31986,0,0,0,-0.170978,0.0823665,-0.208047,0.100584,2.31986,0,0,0,0,0,0,0,0,0,0,-0.28699,0.15768,0,0,0,0,0,2,-0.170978,0.0823665,0,0,0,0,-0.208047,0.100584,1.9603e-19,0,0,0,0,0,0,0,0,0,2,-0.0906032
7886,0,0,2.94434,-0.000928679,1.24656e-05,0.000995523,-3.13501,0.0170309,2.31985,0,0,0,-0.174322,0.0839837,-0.209578,0.101332,2.31985,0,0,0,0,0,0,0,0,0,0,-0.286563,0.15814,0,0,0,0,0,2,-0.174322,0.0839837,0,0,0,0,-0.209578,0.101332,1.9603e-19,0,0,0,0,0,0,0,0,0,2,-0.0923821
7902,0,0,7.22363,1.70797e-05,5.49809e-05,-0.000339144,-3.13503,0.0170309,2.31985,0,0,0,-0.177692,0.0856129,-0.211094,0.102076,2.31985,0,0,0,0,0,0,0,0,0,0,-0.286132,0.158604,0,0,0,0,0,2,-0.177692,0.0856129,0,0,0,0,-0.211094,0.102076,1.9603e-19,0,0,0,0,0,0,0,0,0,2,-0.0941741
7918,0,0,1.375,-0.000193744,-0.000236702,0.000876903,-3.13503,0.017042,2.31985,0,0,0,-0.181084,0.0872536,-0.212596,0.102816,2.31985,0,0,0,0,0,0,0,0,0,0,-0.285699,0.15907,0,0,0,0,0,2,-0.181084,0.0872536,0,0,0,0,-0.212596,0.102816,1.9603e-19,0,0,0,0,0,0,0,0,0,2,-0.095979
7934,0,0,1.375,-0.000193744,-0.000236702,0.000876903,-3.13503,0.017042,2.31985,0,0,0,-0.184501,0.0889062,-0.214088,0.103551,2.31985,0,0,0,0,0,0,0,0,0,0,-0.285265,0.159537,0,0,0,0,0,2,-0.184501,0.0889062,0,0,0,0,-0.214088,0.103551,1.9603e-19,0,0,0,0,0,0,0,0,0,2,-0.0977968
7950,0,0,-7.38379,-0.00157368,0.00100655,-0.000688133,-3.13505,0.0170192,2.31984,0,0,0,-0.187726,0.0904661,-0.215474,0.104235,2.31984,0,0,0,0,0,0,0,0,0,0,-0.284859,0.159974,0,0,0,0,0,2,-0.187726,0.0904661,0,0,0,0,-0.215474,0.104235,1.9603e-19,0,0,0,0,0,0,0,0,0,2,-0.0995127
7966,0,0,-7.38379,-0.00157368,0.00100655,-0.000688133,-3.13505,0.0170192,2.31984,0,0,0,-0.191189,0.0921414,-0.216937,0.104959,2.31984,0,0,0,0,0,0,0,0,0,0,-0.284422,0.160444,0,0,0,0,0,2,-0.191189,0.0921414,0,0,0,0,-0.216937,0.104959,1.9603e-19,0,0,0,0,0,0,0,0,0,2,-0.101356
7982,0,0,4.44434,-0.000832818,-0.00101645,0.00016821,-3.13507,0.0170392,2.31984,0,0,0,-0.194894,0.0939341,-0.218478,0.105724,2.31984,0,0,0,0,0,0,0,0,0,0,-0.283954,0.160946,0,0,0,0,0,2,-0.194894,0.0939341,0,0,0,0,-0.218478,0.105724,1.9603e-19,0,0,0,0,0,0,0,0,0,2,-0.103328
7997,0,0,-2.79004,-0.000781744,-0.000647294,-0.000341521,-3.13509,0.0170382,2.31984,0,0,0,-0.198184,0.0955265,-0.219827,0.106396,2.31984,0,0,0,0,0,0,0,0,0,0,-0.283542,0.16139,0,0,0,0,0,2,-0.198184,0.0955265,0,0,0,0,-0.219827,0.106396,1.9603e-19,0,0,0,0,0,0,0,0,0,2,-0.105079
8023,0,0,0.697266,-0.000756803,-0.0007896,0.000571695,-3.1351,0.01706,2.31984,0,0,0,-0.203945,0.0983154,-0.222146,0.107555,2.31984,0,0,0,0,0,0,0,0,0,0,-0.282823,0.162163,0,0,0,0,0,2,-0.203945,0.0983154,0,0,0,0,-0.222146,0.107555,1.9603e-19,0,0,0,0,0,0,0,0,0,2,-0.108147
8069,0,0,6.3916,-0.000526795,-0.000936392,0.000737907,-3.13513,0.0170519,2.31984,0,0,0,-0.214321,0.103342,-0.226186,0.109596,2.31986,0,0,0,0,0,0,0,0,0,0,-0.281528,0.163554,0,0,0,0,0,2,-0.214321,0.103342,0,0,0,0,-0.226186,0.109596,1.9603e-19,0,0,0,0,0,0,0,0,0,2,-0.113677
8091,0,0,-0.68457,-0.00182117,-0.000111982,0.000372463,-3.13516,0.0170482,2.31985,0,0,0,-0.219327,0.105769,-0.228067,0.110554,2.31985,0,0,0,0,0,0,0,0,0,0,-0.280916,0.164214,0,0,0,0,0,2,-0.219327,0.105769,0,0,0,0,-0.228067,0.110554,1.9603e-19,0,0,0,0,0,0,0,0,0,2,-0.116346
8107,0,0,2.62207,-0.00100941,0.000996869,9.41767e-05,-3.13517,0.0170374,2.31985,0,0,0,-0.22299,0.107545,-0.229415,0.111246,2.31985,0,0,0,0,0,0,0,0,0,0,-0.280465,0.164699,0,0,0,0,0,2,-0.22299,0.107545,0,0,0,0,-0.229415,0.111246,1.9603e-19,0,0,0,0,0,0,0,0,0,2,-0.118299
8129,0,0,1.77539,-0.00122577,-0.000895493,-0.00107643,-3.13518,0.017043,2.31985,0,0,0,-0.227834,0.109894,-0.231168,0.112147,2.31985,0,0,0,0,0,0,0,0,0,0,-0.279869,0.16534,0,0,0,0,0,2,-0.227834,0.109894,0,0,0,0,-0.231168,0.112147,1.9603e-19,0,0,0,0,0,0,0,0,0,2,-0.120884
8143,0,0,5.01367,4.76411e-05,0.000237903,0.00056871,-3.13518,0.0170416,2.31987,0,0,0,-0.231313,0.111583,-0.232408,0.112786,2.31987,0,0,0,0,0,0,0,0,0,0,-0.279437,0.165802,0,0,0,0,0,2,-0.231313,0.111583,0,0,0,0,-0.232408,0.112786,1.9603e-19,0,0,0,0,0,0,0,0,0,2,-0.122741
8164,0,0,6.41113,-0.000436728,-0.0011244,-0.000885443,-3.13518,0.0170674,2.31988,0,0,0,-0.23622,0.113964,-0.23413,0.113672,2.31987,0,0,0,0,0,0,0,0,0,0,-0.27884,0.166444,0,0,0,0,0,2,-0.23622,0.113964,0,0,0,0,-0.23413,0.113672,1.9603e-19,0,0,0,0,0,0,0,0,0,2,-0.125361
8180,0,0,1.94141,-0.00158581,-0.000185808,0.00010753,-3.13519,0.0170736,2.31989,0,0,0,-0.239979,0.11579,-0.235432,0.114344,2.31988,0,0,0,0,0,0,0,0,0,0,-0.278382,0.166936,0,0,0,0,0,2,-0.239979,0.11579,0,0,0,0,-0.235432,0.114344,1.9603e-19,0,0,0,0,0,0,0,0,0,2,-0.127369
8202,0,0,-2.25586,-0.000405334,-0.000224115,-0.000444925,-3.1352,0.0170827,2.31988,0,0,0,-0.244948,0.118204,-0.237124,0.115223,2.31988,0,0,0,0,0,0,0,0,0,0,-0.277779,0.167584,0,0,0,0,0,2,-0.244948,0.118204,0,0,0,0,-0.237124,0.115223,1.9603e-19,0,0,0,0,0,0,0,0,0,2,-0.130025
8217,0,0,5.17969,0.0001717,0.000505074,-0.000717219,-3.1352,0.0170826,2.3199,0,0,0,-0.248756,0.120055,-0.238401,0.115888,2.3199,0,0,0,0,0,0,0,0,0,0,-0.277315,0.168082,0,0,0,0,0,2,-0.248756,0.120055,0,0,0,0,-0.238401,0.115888,1.9603e-19,0,0,0,0,0,0,0,0,0,2,-0.13206
8239,0,0,7.23242,-0.000220587,0.00118733,-0.000826977,-3.13519,0.017064,2.31991,0,0,0,-0.254028,0.122619,-0.240142,0.116794,2.31991,0,0,0,0,0,0,0,0,0,0,-0.276676,0.168768,0,0,0,0,0,2,-0.254028,0.122619,0,0,0,0,-0.240142,0.116794,1.9603e-19,0,0,0,0,0,0,0,0,0,2,-0.134881
8255,0,0,-1.12207,-0.000734279,0.000680086,0.000351592,-3.1352,0.0170588,2.31992,0,0,0,-0.257883,0.124494,-0.241392,0.117442,2.31992,0,0,0,0,0,0,0,0,0,0,-0.276212,0.169266,0,0,0,0,0,2,-0.257883,0.124494,0,0,0,0,-0.241392,0.117442,1.9603e-19,0,0,0,0,0,0,0,0,0,2,-0.136944
8276,0,0,-5.94727,-0.00109993,-0.000793051,-0.00119939,-3.13524,0.0170694,2.31993,0,0,0,-0.262977,0.126973,-0.243019,0.118286,2.31992,0,0,0,0,0,0,0,0,0,0,-0.275605,0.16992,0,0,0,0,0,2,-0.262977,0.126973,0,0,0,0,-0.243019,0.118286,1.9603e-19,0,0,0,0,0,0,0,0,0,2,-0.13967
8292,0,0,1.76465,-0.000686704,-0.00136776,9.6378e-05,-3.13525,0.017077,2.31993,0,0,0,-0.266878,0.128872,-0.244241,0.11893,2.31993,0,0,0,0,0,0,0,0,0,0,-0.275136,0.170423,0,0,0,0,0,2,-0.266878,0.128872,0,0,0,0,-0.244241,0.11893,1.9603e-19,0,0,0,0,0,0,0,0,0,2,-0.14176
8314,0,0,4.42871,-0.000787095,0.000282232,-0.00110429,-3.13526,0.0170775,2.31993,0,0,0,-0.272031,0.131382,-0.245831,0.119771,2.31993,0,0,0,0,0,0,0,0,0,0,-0.27452,0.171084,0,0,0,0,0,2,-0.272031,0.131382,0,0,0,0,-0.245831,0.119771,1.9603e-19,0,0,0,0,0,0,0,0,0,2,-0.144521
8330,0,0,-1.48535,-0.00062336,0.0017409,-0.000305676,-3.13528,0.0170479,2.31992,0,0,0,-0.276224,0.133426,-0.247102,0.120447,2.31993,0,0,0,0,0,0,0,0,0,0,-0.274024,0.171618,0,0,0,0,0,2,-0.276224,0.133426,0,0,0,0,-0.247102,0.120447,1.9603e-19,0,0,0,0,0,0,0,0,0,2,-0.146769
8351,0,0,3.41895,-0.000561664,4.60617e-05,-0.000959338,-3.13527,0.0170473,2.31993,0,0,0,-0.281436,0.135967,-0.248655,0.121273,2.31993,0,0,0,0,0,0,0,0,0,0,-0.273408,0.172281,0,0,0,0,0,2,-0.281436,0.135967,0,0,0,0,-0.248655,0.121273,1.9603e-19,0,0,0,0,0,0,0,0,0,2,-0.149564
8372,0,0,-2.79492,0.000232315,0.000203532,-0.000873789,-3.13527,0.0170406,2.31993,0,0,0,-0.28668,0.138526,-0.25019,0.122088,2.31993,0,0,0,0,0,0,0,0,0,0,-0.27279,0.172945,0,0,0,0,0,2,-0.28668,0.138526,0,0,0,0,-0.25019,0.122088,1.9603e-19,0,0,0,0,0,0,0,0,0,2,-0.152379
8388,0,0,6.71973,0.000453626,0.000879442,-0.000403186,-3.13527,0.017035,2.31994,0,0,0,-0.290695,0.140486,-0.251347,0.122701,2.31993,0,0,0,0,0,0,0,0,0,0,-0.272317,0.173453,0,0,0,0,0,2,-0.290695,0.140486,0,0,0,0,-0.251347,0.122701,1.9603e-19,0,0,0,0,0,0,0,0,0,2,-0.154535
8410,0,0,4.22656,6.70215e-05,-0.000578193,0.000570838,-3.13527,0.0170407,2.31994,0,0,0,-0.296249,0.143198,-0.252923,0.123537,2.31994,0,0,0,0,0,0,0,0,0,0,-0.271664,0.174155,0,0,0,0,0,2,-0.296249,0.143198,0,0,0,0,-0.252923,0.123537,1.9603e-19,0,0,0,0,0,0,0,0,0,2,-0.157518
8425,0,0,-6.26758,-0.000802608,-0.000705694,5.79674e-05,-3.13528,0.0170456,2.31994,0,0,0,-0.300053,0.145057,-0.253987,0.124101,2.31994,0,0,0,0,0,0,0,0,0,0,-0.271218,0.174634,0,0,0,0,0,2,-0.300053,0.145057,0,0,0,0,-0.253987,0.124101,1.9603e-19,0,0,0,0,0,0,0,0,0,2,-0.159562
8445,0,0,-6.26758,-0.000802608,-0.000705694,5.79674e-05,-3.13528,0.0170456,2.31994,0,0,0,-0.305152,0.147549,-0.255394,0.12485,2.31994,0,0,0,0,0,0,0,0,0,0,-0.270623,0.175273,0,0,0,0,0,2,-0.305152,0.147549,0,0,0,0,-0.255394,0.12485,1.9603e-19,0,0,0,0,0,0,0,0,0,2,-0.162304
8461,0,0,1.80566,0.000114809,-0.000200748,-0.000293415,-3.13526,0.0170485,2.31995,0,0,0,-0.30925,0.149553,-0.25651,0.125442,2.31995,0,0,0,0,0,0,0,0,0,0,-0.270145,0.175786,0,0,0,0,0,2,-0.30925,0.149553,0,0,0,0,-0.25651,0.125442,1.9603e-19,0,0,0,0,0,0,0,0,0,2,-0.164508
8483,0,0,-3.65625,0.000326523,-1.5839e-05,-0.000312704,-3.13525,0.0170399,2.31995,0,0,0,-0.314916,0.152325,-0.258033,0.126247,2.31995,0,0,0,0,0,0,0,0,0,0,-0.269488,0.176492,0,0,0,0,0,2,-0.314916,0.152325,0,0,0,0,-0.258033,0.126247,1.9603e-19,0,0,0,0,0,0,0,0,0,2,-0.167557
8499,0,0,-3.65625,0.000326523,-1.5839e-05,-0.000312704,-3.13525,0.0170399,2.31995,0,0,0,-0.319056,0.154351,-0.25913,0.126825,2.31995,0,0,0,0,0,0,0,0,0,0,-0.269013,0.177004,0,0,0,0,0,2,-0.319056,0.154351,0,0,0,0,-0.25913,0.126825,1.9603e-19,0,0,0,0,0,0,0,0,0,2,-0.169786
8520,0,0,5.72754,-0.000310189,0.000295092,-0.00200731,-3.13524,0.0170196,2.31996,0,0,0,-0.324518,0.157025,-0.260556,0.127575,2.31996,0,0,0,0,0,0,0,0,0,0,-0.268381,0.177683,0,0,0,0,0,2,-0.324518,0.157025,0,0,0,0,-0.260556,0.127575,1.9603e-19,0,0,0,0,0,0,0,0,0,2,-0.172727
8535,0,0,5.72754,-0.000310189,0.000295092,-0.00200731,-3.13524,0.0170196,2.31996,0,0,0,-0.328436,0.158943,-0.261564,0.128102,2.31996,0,0,0,0,0,0,0,0,0,0,-0.267932,0.178166,0,0,0,0,0,2,-0.328436,0.158943,0,0,0,0,-0.261564,0.128102,1.9603e-19,0,0,0,0,0,0,0,0,0,2,-0.174838
8557,0,0,-1.81543,6.81528e-06,0.000483286,-0.000479183,-3.13523,0.0170114,2.31996,0,0,0,-0.33395,0.161645,-0.262965,0.128834,2.31996,0,0,0,0,0,0,0,0,0,0,-0.267299,0.178846,0,0,0,0,0,2,-0.33395,0.161645,0,0,0,0,-0.262965,0.128834,1.9603e-19,0,0,0,0,0,0,0,0,0,2,-0.177809
8572,0,0,-4.39551,-0.000505508,-0.00034463,0.000473738,-3.13523,0.0170178,2.31996,0,0,0,-0.338169,0.163712,-0.264022,0.129385,2.31996,0,0,0,0,0,0,0,0,0,0,-0.26682,0.179361,0,0,0,0,0,2,-0.338169,0.163712,0,0,0,0,-0.264022,0.129385,1.9603e-19,0,0,0,0,0,0,0,0,0,2,-0.180083
8595,0,0,-2.47656,-0.00127252,0.000395317,-0.00041113,-3.13523,0.0169937,2.31996,0,0,0,-0.344266,0.1667,-0.265528,0.130169,2.31995,0,0,0,0,0,0,0,0,0,0,-0.266128,0.180106,0,0,0,0,0,2,-0.344266,0.1667,0,0,0,0,-0.265528,0.130169,1.9603e-19,0,0,0,0,0,0,0,0,0,2,-0.18337
8611,0,0,2.2959,-0.000176231,-0.000736,-8.23739e-05,-3.13522,0.0169971,2.31996,0,0,0,-0.348258,0.168658,-0.266498,0.130672,2.31996,0,0,0,0,0,0,0,0,0,0,-0.265675,0.180592,0,0,0,0,0,2,-0.348258,0.168658,0,0,0,0,-0.266498,0.130672,1.9603e-19,0,0,0,0,0,0,0,0,0,2,-0.185523
8632,0,0,2.2959,-0.000176231,-0.000736,-8.23739e-05,-3.13522,0.0169971,2.31996,0,0,0,-0.354143,0.171544,-0.26791,0.131403,2.31996,0,0,0,0,0,0,0,0,0,0,-0.26501,0.181307,0,0,0,0,0,2,-0.354143,0.171544,0,0,0,0,-0.26791,0.131403,1.9603e-19,0,0,0,0,0,0,0,0,0,2,-0.188698
8648,0,0,-4.41406,-0.00100569,-0.000667419,0.00049051,-3.13523,0.0170007,2.31995,0,0,0,-0.35844,0.173652,-0.268926,0.131931,2.31995,0,0,0,0,0,0,0,0,0,0,-0.264527,0.181827,0,0,0,0,0,2,-0.35844,0.173652,0,0,0,0,-0.268926,0.131931,1.9603e-19,0,0,0,0,0,0,0,0,0,2,-0.191017
8669,0,0,5.38574,-0.000290028,0.000213927,0.000349575,-3.13526,0.0169803,2.31996,0,0,0,-0.364107,0.176432,-0.270245,0.132618,2.31996,0,0,0,0,0,0,0,0,0,0,-0.263885,0.182516,0,0,0,0,0,2,-0.364107,0.176432,0,0,0,0,-0.270245,0.132618,1.9603e-19,0,0,0,0,0,0,0,0,0,2,-0.194076
8691,0,0,5.55762,-0.000610446,0.000299873,-0.00027731,-3.13525,0.0169796,2.31997,0,0,0,-0.370073,0.179361,-0.271607,0.133331,2.31997,0,0,0,0,0,0,0,0,0,0,-0.263214,0.183237,0,0,0,0,0,2,-0.370073,0.179361,0,0,0,0,-0.271607,0.133331,1.9603e-19,0,0,0,0,0,0,0,0,0,2,-0.197297
8706,0,0,3.38379,0.000490713,0.000512785,7.49259e-05,-3.13524,0.0169637,2.31996,0,0,0,-0.373883,0.181232,-0.272466,0.133779,2.31997,0,0,0,0,0,0,0,0,0,0,-0.262788,0.183695,0,0,0,0,0,2,-0.373883,0.181232,0,0,0,0,-0.272466,0.133779,1.9603e-19,0,0,0,0,0,0,0,0,0,2,-0.199355
8726,0,0,-6.22852,0.000888501,0.00135642,-0.000265632,-3.13523,0.0169508,2.31997,0,0,0,-0.379623,0.18405,-0.273743,0.134439,2.31997,0,0,0,0,0,0,0,0,0,0,-0.262145,0.184386,0,0,0,0,0,2,-0.379623,0.18405,0,0,0,0,-0.273743,0.134439,1.9603e-19,0,0,0,0,0,0,0,0,0,2,-0.202455
8741,0,0,-0.0488281,-0.00181686,-0.00103233,0.000978238,-3.13524,0.0169666,2.31996,0,0,0,-0.383738,0.186072,-0.274646,0.134906,2.31996,0,0,0,0,0,0,0,0,0,0,-0.26169,0.184876,0,0,0,0,0,2,-0.383738,0.186072,0,0,0,0,-0.274646,0.134906,1.9603e-19,0,0,0,0,0,0,0,0,0,2,-0.204679
8763,0,0,2.67871,0.000590747,-0.00078931,-0.000687193,-3.13523,0.0169727,2.31998,0,0,0,-0.389801,0.18905,-0.275961,0.135588,2.31998,0,0,0,0,0,0,0,0,0,0,-0.261011,0.185605,0,0,0,0,0,2,-0.389801,0.18905,0,0,0,0,-0.275961,0.135588,1.9603e-19,0,0,0,0,0,0,0,0,0,2,-0.207955
8779,0,0,1.83105,-0.00127095,-0.000151473,-0.00164238,-3.13524,0.016959,2.32,0,0,0,-0.394226,0.191224,-0.276908,0.136078,2.32,0,0,0,0,0,0,0,0,0,0,-0.260514,0.186137,0,0,0,0,0,2,-0.394226,0.191224,0,0,0,0,-0.276908,0.136078,1.9603e-19,0,0,0,0,0,0,0,0,0,2,-0.210347
8800,0,0,5.00195,0.000851682,0.00132677,-0.000840029,-3.13525,0.0169544,2.32002,0,0,0,-0.400059,0.194092,-0.278137,0.136716,2.32,0,0,0,0,0,0,0,0,0,0,-0.259868,0.186831,0,0,0,0,0,2,-0.400059,0.194092,0,0,0,0,-0.278137,0.136716,1.9603e-19,0,0,0,0,0,0,0,0,0,2,-0.213501
8816,0,0,6.88574,-0.000998407,0.00137211,-0.0006948,-3.13526,0.0169548,2.32002,0,0,0,-0.404519,0.196284,-0.279063,0.137197,2.32002,0,0,0,0,0,0,0,0,0,0,-0.259368,0.187366,0,0,0,0,0,2,-0.404519,0.196284,0,0,0,0,-0.279063,0.137197,1.9603e-19,0,0,0,0,0,0,0,0,0,2,-0.215912
8838,0,0,6.88574,-0.000998407,0.00137211,-0.0006948,-3.13526,0.0169548,2.32002,0,0,0,-0.410397,0.199174,-0.280266,0.137825,2.32002,0,0,0,0,0,0,0,0,0,0,-0.258718,0.188064,0,0,0,0,0,2,-0.410397,0.199174,0,0,0,0,-0.280266,0.137825,1.9603e-19,0,0,0,0,0,0,0,0,0,2,-0.219092
8853,0,0,3.87402,0.00107001,-0.000431606,0.000179151,-3.13525,0.0169574,2.32002,0,0,0,-0.414891,0.201385,-0.281174,0.138299,2.32002,0,0,0,0,0,0,0,0,0,0,-0.258225,0.188595,0,0,0,0,0,2,-0.414891,0.201385,0,0,0,0,-0.281174,0.138299,1.9603e-19,0,0,0,0,0,0,0,0,0,2,-0.221523
8875,0,0,1.26758,-0.000493509,-0.00076953,0.000179754,-3.13525,0.0169485,2.32003,0,0,0,-0.420813,0.204298,-0.282357,0.138913,2.32003,0,0,0,0,0,0,0,0,0,0,-0.25757,0.189297,0,0,0,0,0,2,-0.420813,0.204298,0,0,0,0,-0.282357,0.138913,1.9603e-19,0,0,0,0,0,0,0,0,0,2,-0.224728
8891,0,0,1.17969,-0.00108345,0.00103591,-4.05106e-05,-3.13526,0.0169418,2.32003,0,0,0,-0.425624,0.206665,-0.283303,0.139405,2.32003,0,0,0,0,0,0,0,0,0,0,-0.257044,0.189863,0,0,0,0,0,2,-0.425624,0.206665,0,0,0,0,-0.283303,0.139405,1.9603e-19,0,0,0,0,0,0,0,0,0,2,-0.227331
8912,0,0,2.69922,-0.00170085,0.000483734,0.00021916,-3.13528,0.016936,2.32002,0,0,0,-0.43159,0.209601,-0.284459,0.140007,2.32002,0,0,0,0,0,0,0,0,0,0,-0.256395,0.190562,0,0,0,0,0,2,-0.43159,0.209601,0,0,0,0,-0.284459,0.140007,1.9603e-19,0,0,0,0,0,0,0,0,0,2,-0.230561
8928,0,0,-3.50684,-0.00022148,-8.05722e-05,-0.000823314,-3.13528,0.0169355,2.32004,0,0,0,-0.43615,0.211846,-0.285327,0.140464,2.32004,0,0,0,0,0,0,0,0,0,0,-0.25589,0.191102,0,0,0,0,0,2,-0.43615,0.211846,0,0,0,0,-0.285327,0.140464,1.9603e-19,0,0,0,0,0,0,0,0,0,2,-0.233031
8949,0,0,2.05176,-0.000252649,0.000120746,0.000525846,-3.1353,0.0169339,2.32003,0,0,0,-0.442158,0.214804,-0.286455,0.141059,2.32003,0,0,0,0,0,0,0,0,0,0,-0.255237,0.191806,0,0,0,0,0,2,-0.442158,0.214804,0,0,0,0,-0.286455,0.141059,1.9603e-19,0,0,0,0,0,0,0,0,0,2,-0.236285
8965,0,0,4.58105,-0.000257314,0.000467957,-0.00112518,-3.13531,0.016932,2.32005,0,0,0,-0.44675,0.217066,-0.287305,0.141508,2.32003,0,0,0,0,0,0,0,0,0,0,-0.254737,0.192343,0,0,0,0,0,2,-0.44675,0.217066,0,0,0,0,-0.287305,0.141508,1.9603e-19,0,0,0,0,0,0,0,0,0,2,-0.238773
8987,0,0,5.88965,0.000472421,0.000688995,-0.000513575,-3.1353,0.0169234,2.32006,0,0,0,-0.453089,0.220189,-0.288463,0.142121,2.32006,0,0,0,0,0,0,0,0,0,0,-0.254038,0.193091,0,0,0,0,0,2,-0.453089,0.220189,0,0,0,0,-0.288463,0.142121,1.9603e-19,0,0,0,0,0,0,0,0,0,2,-0.242207
9001,0,0,5.88965,0.000472421,0.000688995,-0.000513575,-3.1353,0.0169234,2.32006,0,0,0,-0.457134,0.222182,-0.289191,0.142506,2.32006,0,0,0,0,0,0,0,0,0,0,-0.253599,0.193562,0,0,0,0,0,2,-0.457134,0.222182,0,0,0,0,-0.289191,0.142506,1.9603e-19,0,0,0,0,0,0,0,0,0,2,-0.2444
9021,0,0,0.550781,-0.0012617,0.000321628,0.000338701,-3.1353,0.0169271,2.32006,0,0,0,-0.462932,0.225039,-0.290224,0.143052,2.32006,0,0,0,0,0,0,0,0,0,0,-0.252969,0.194239,0,0,0,0,0,2,-0.462932,0.225039,0,0,0,0,-0.290224,0.143052,1.9603e-19,0,0,0,0,0,0,0,0,0,2,-0.247543
9037,0,0,1.6875,-0.00120261,0.00064763,0.000302772,-3.1353,0.0169244,2.32005,0,0,0,-0.467584,0.227333,-0.291044,0.143484,2.32006,0,0,0,0,0,0,0,0,0,0,-0.252466,0.19478,0,0,0,0,0,2,-0.467584,0.227333,0,0,0,0,-0.291044,0.143484,1.9603e-19,0,0,0,0,0,0,0,0,0,2,-0.250066
9058,0,0,-3.13184,0.000307092,-9.77848e-05,-0.000712904,-3.1353,0.016926,2.32007,0,0,0,-0.473712,0.230354,-0.292109,0.144048,2.32007,0,0,0,0,0,0,0,0,0,0,-0.251801,0.195493,0,0,0,0,0,2,-0.473712,0.230354,0,0,0,0,-0.292109,0.144048,1.9603e-19,0,0,0,0,0,0,0,0,0,2,-0.25339
9080,0,0,-1.5752,0.000916767,-0.000499002,0.000231588,-3.1353,0.0169323,2.32007,0,0,0,-0.480156,0.233532,-0.293212,0.144633,2.32007,0,0,0,0,0,0,0,0,0,0,-0.251107,0.19624,0,0,0,0,0,2,-0.480156,0.233532,0,0,0,0,-0.293212,0.144633,1.9603e-19,0,0,0,0,0,0,0,0,0,2,-0.256886
9095,0,0,-1.5752,0.000916767,-0.000499002,0.000231588,-3.1353,0.0169323,2.32007,0,0,0,-0.484561,0.235706,-0.293957,0.145029,2.32007,0,0,0,0,0,0,0,0,0,0,-0.250633,0.19675,0,0,0,0,0,2,-0.484561,0.235706,0,0,0,0,-0.293957,0.145029,1.9603e-19,0,0,0,0,0,0,0,0,0,2,-0.259276
9117,0,0,2.40039,-0.00125607,-0.000414483,0.000101701,-3.13533,0.0169282,2.32007,0,0,0,-0.491045,0.238905,-0.295041,0.145604,2.32007,0,0,0,0,0,0,0,0,0,0,-0.249936,0.197499,0,0,0,0,0,2,-0.491045,0.238905,0,0,0,0,-0.295041,0.145604,1.9603e-19,0,0,0,0,0,0,0,0,0,2,-0.262796
9134,0,0,6.16602,0.000752167,0.000833687,-0.000425637,-3.13532,0.0169195,2.32008,0,0,0,-0.49607,0.241385,-0.295868,0.146045,2.32007,0,0,0,0,0,0,0,0,0,0,-0.249393,0.198081,0,0,0,0,0,2,-0.49607,0.241385,0,0,0,0,-0.295868,0.146045,1.9603e-19,0,0,0,0,0,0,0,0,0,2,-0.265524
9155,0,0,4.09277,-0.000656938,0.000732428,-9.94567e-05,-3.13533,0.0169084,2.32008,0,0,0,-0.502297,0.24446,-0.296876,0.146584,2.32008,0,0,0,0,0,0,0,0,0,0,-0.248723,0.198801,0,0,0,0,0,2,-0.502297,0.24446,0,0,0,0,-0.296876,0.146584,1.9603e-19,0,0,0,0,0,0,0,0,0,2,-0.268906
9170,0,0,4.09277,-0.000656938,0.000732428,-9.94567e-05,-3.13533,0.0169084,2.32008,0,0,0,-0.506757,0.246663,-0.297587,0.146965,2.32008,0,0,0,0,0,0,0,0,0,0,-0.248246,0.199314,0,0,0,0,0,2,-0.506757,0.246663,0,0,0,0,-0.297587,0.146965,1.9603e-19,0,0,0,0,0,0,0,0,0,2,-0.271329
9192,0,0,2.16797,-0.00102907,0.00123771,-0.00110848,-3.13536,0.016892,2.32011,0,0,0,-0.51332,0.249904,-0.29862,0.147519,2.32011,0,0,0,0,0,0,0,0,0,0,-0.247532,0.200076,0,0,0,0,0,2,-0.51332,0.249904,0,0,0,0,-0.29862,0.147519,1.9603e-19,0,0,0,0,0,0,0,0,0,2,-0.274895
9207,0,0,-1.40918,0.000201294,-0.000186059,-0.000265192,-3.13535,0.0169026,2.32011,0,0,0,-0.517806,0.252121,-0.299313,0.147895,2.32011,0,0,0,0,0,0,0,0,0,0,-0.247052,0.200592,0,0,0,0,0,2,-0.517806,0.252121,0,0,0,0,-0.299313,0.147895,1.9603e-19,0,0,0,0,0,0,0,0,0,2,-0.277333
9228,0,0,-5.68945,-0.000680269,-0.000176733,-0.0003744,-3.13537,0.0169078,2.32014,0,0,0,-0.524106,0.255234,-0.300277,0.148418,2.32013,0,0,0,0,0,0,0,0,0,0,-0.246375,0.201317,0,0,0,0,0,2,-0.524106,0.255234,0,0,0,0,-0.300277,0.148418,1.9603e-19,0,0,0,0,0,0,0,0,0,2,-0.280758
9244,0,0,-4.43555,0.000249012,0.00179532,-0.000814111,-3.13537,0.0168915,2.32014,0,0,0,-0.528918,0.257613,-0.301002,0.148814,2.32014,0,0,0,0,0,0,0,0,0,0,-0.245858,0.201871,0,0,0,0,0,2,-0.528918,0.257613,0,0,0,0,-0.301002,0.148814,1.9603e-19,0,0,0,0,0,0,0,0,0,2,-0.283374
9266,0,0,-4.43555,0.000249012,0.00179532,-0.000814111,-3.13537,0.0168915,2.32014,0,0,0,-0.535555,0.260895,-0.301989,0.149351,2.32014,0,0,0,0,0,0,0,0,0,0,-0.245151,0.202631,0,0,0,0,0,2,-0.535555,0.260895,0,0,0,0,-0.301989,0.149351,1.9603e-19,0,0,0,0,0,0,0,0,0,2,-0.286985
9281,0,0,6.26074,-0.0011342,-0.000434253,-0.0016873,-3.13537,0.0168959,2.32015,0,0,0,-0.540091,0.263139,-0.302655,0.149714,2.32015,0,0,0,0,0,0,0,0,0,0,-0.244665,0.203151,0,0,0,0,0,2,-0.540091,0.263139,0,0,0,0,-0.302655,0.149714,1.9603e-19,0,0,0,0,0,0,0,0,0,2,-0.289453
9301,0,0,3.5791,-0.000261695,-0.000151174,-0.00158317,-3.13538,0.0168943,2.32016,0,0,0,-0.546157,0.26614,-0.303537,0.150194,2.32016,0,0,0,0,0,0,0,0,0,0,-0.244017,0.203847,0,0,0,0,0,2,-0.546157,0.26614,0,0,0,0,-0.303537,0.150194,1.9603e-19,0,0,0,0,0,0,0,0,0,2,-0.292754
9317,0,0,-0.65332,-0.000594487,-0.00106887,-0.000391482,-3.13539,0.0169035,2.32017,0,0,0,-0.55102,0.268547,-0.304233,0.150577,2.32017,0,0,0,0,0,0,0,0,0,0,-0.243497,0.204404,0,0,0,0,0,2,-0.55102,0.268547,0,0,0,0,-0.304233,0.150577,1.9603e-19,0,0,0,0,0,0,0,0,0,2,-0.295402
9339,0,0,4.01562,4.94068e-05,0.00030116,0.000650346,-3.13537,0.0169123,2.32019,0,0,0,-0.557423,0.271716,-0.305139,0.151077,2.32017,0,0,0,0,0,0,0,0,0,0,-0.242818,0.205133,0,0,0,0,0,2,-0.557423,0.271716,0,0,0,0,-0.305139,0.151077,1.9603e-19,0,0,0,0,0,0,0,0,0,2,-0.298888
9354,0,0,2.48535,0.000543868,-0.000188362,-0.000312807,-3.13537,0.0169203,2.32019,0,0,0,-0.562312,0.274138,-0.305824,0.151454,2.32019,0,0,0,0,0,0,0,0,0,0,-0.242294,0.205694,0,0,0,0,0,2,-0.562312,0.274138,0,0,0,0,-0.305824,0.151454,1.9603e-19,0,0,0,0,0,0,0,0,0,2,-0.301551
9376,0,0,-6.44824,-1.46988e-05,-0.00013924,0.00053617,-3.13536,0.0169207,2.32019,0,0,0,-0.569055,0.277478,-0.306764,0.151967,2.32019,0,0,0,0,0,0,0,0,0,0,-0.241582,0.206459,0,0,0,0,0,2,-0.569055,0.277478,0,0,0,0,-0.306764,0.151967,1.9603e-19,0,0,0,0,0,0,0,0,0,2,-0.305225
9392,0,0,-1.46387,-0.000340513,0.000344861,-0.00173454,-3.13535,0.0169217,2.3202,0,0,0,-0.57397,0.279913,-0.307442,0.152335,2.3202,0,0,0,0,0,0,0,0,0,0,-0.241056,0.207021,0,0,0,0,0,2,-0.57397,0.279913,0,0,0,0,-0.307442,0.152335,1.9603e-19,0,0,0,0,0,0,0,0,0,2,-0.307904
9408,0,0,-7.05371,-0.000481097,0.000445523,0.000459251,-3.13537,0.0169135,2.3202,0,0,0,-0.578587,0.282201,-0.308071,0.152678,2.32021,0,0,0,0,0,0,0,0,0,0,-0.240568,0.207546,0,0,0,0,0,2,-0.578587,0.282201,0,0,0,0,-0.308071,0.152678,1.9603e-19,0,0,0,0,0,0,0,0,0,2,-0.310421
9429,0,0,1.78516,-0.000754515,-0.00107482,-6.29119e-05,-3.13538,0.0169118,2.3202,0,0,0,-0.585379,0.285568,-0.308984,0.153177,2.3202,0,0,0,0,0,0,0,0,0,0,-0.239854,0.208314,0,0,0,0,0,2,-0.585379,0.285568,0,0,0,0,-0.308984,0.153177,1.9603e-19,0,0,0,0,0,0,0,0,0,2,-0.314125
9445,0,0,-2.23926,-0.00105405,0.000297258,0.000529985,-3.13538,0.0169078,2.32019,0,0,0,-0.59033,0.288022,-0.309639,0.153537,2.32019,0,0,0,0,0,0,0,0,0,0,-0.239337,0.208871,0,0,0,0,0,2,-0.59033,0.288022,0,0,0,0,-0.309639,0.153537,1.9603e-19,0,0,0,0,0,0,0,0,0,2,-0.316825
9466,0,0,-3.86523,-0.000529917,-0.000342438,-0.000356885,-3.1354,0.0169018,2.32019,0,0,0,-0.596845,0.291254,-0.31049,0.154006,2.32019,0,0,0,0,0,0,0,0,0,0,-0.238654,0.209606,0,0,0,0,0,2,-0.596845,0.291254,0,0,0,0,-0.31049,0.154006,1.9603e-19,0,0,0,0,0,0,0,0,0,2,-0.320379
9482,0,0,6.18457,-5.44645e-05,0.000376337,-0.00107395,-3.1354,0.0168987,2.3202,0,0,0,-0.60182,0.293722,-0.311129,0.154361,2.3202,0,0,0,0,0,0,0,0,0,0,-0.238127,0.210171,0,0,0,0,0,2,-0.60182,0.293722,0,0,0,0,-0.311129,0.154361,1.9603e-19,0,0,0,0,0,0,0,0,0,2,-0.323094
9503,0,0,6.35645,-0.00123874,0.000785646,-4.22641e-05,-3.13542,0.0168906,2.32018,0,0,0,-0.608366,0.29697,-0.311962,0.154822,2.3202,0,0,0,0,0,0,0,0,0,0,-0.23744,0.210909,0,0,0,0,0,2,-0.608366,0.29697,0,0,0,0,-0.311962,0.154822,1.9603e-19,0,0,0,0,0,0,0,0,0,2,-0.326667
9519,0,0,-2.38379,-0.000616327,1.64589e-05,-0.000148397,-3.13542,0.0168878,2.32019,0,0,0,-0.613363,0.299451,-0.312587,0.15517,2.32018,0,0,0,0,0,0,0,0,0,0,-0.236921,0.211469,0,0,0,0,0,2,-0.613363,0.299451,0,0,0,0,-0.312587,0.15517,1.9603e-19,0,0,0,0,0,0,0,0,0,2,-0.329396
9541,0,0,4.13672,-0.000114307,-0.000787715,-0.000250945,-3.13542,0.0168876,2.32018,0,0,0,-0.620254,0.302872,-0.313436,0.155647,2.32018,0,0,0,0,0,0,0,0,0,0,-0.236199,0.212245,0,0,0,0,0,2,-0.620254,0.302872,0,0,0,0,-0.313436,0.155647,1.9603e-19,0,0,0,0,0,0,0,0,0,2,-0.333159
9557,0,0,2.31152,0.000175047,7.37598e-05,-0.000316034,-3.13542,0.0168931,2.32019,0,0,0,-0.624961,0.30521,-0.314009,0.155968,2.32019,0,0,0,0,0,0,0,0,0,0,-0.235702,0.212777,0,0,0,0,0,2,-0.624961,0.30521,0,0,0,0,-0.314009,0.155968,1.9603e-19,0,0,0,0,0,0,0,0,0,2,-0.335731
9571,0,0,-0.31543,0.000637333,0.000607748,-0.000893319,-3.1354,0.0168825,2.32021,0,0,0,-0.629677,0.307552,-0.314578,0.156287,2.32021,0,0,0,0,0,0,0,0,0,0,-0.235203,0.213311,0,0,0,0,0,2,-0.629677,0.307552,0,0,0,0,-0.314578,0.156287,1.9603e-19,0,0,0,0,0,0,0,0,0,2,-0.338308
9587,0,0,-6.78906,-0.000222087,-0.000159475,0.000692769,-3.13541,0.0168726,2.32022,0,0,0,-0.634716,0.310056,-0.315181,0.15662,2.32023,0,0,0,0,0,0,0,0,0,0,-0.23467,0.21388,0,0,0,0,0,2,-0.634716,0.310056,0,0,0,0,-0.315181,0.15662,1.9603e-19,0,0,0,0,0,0,0,0,0,2,-0.341062
9603,0,0,-5.00879,-0.00109632,4.28546e-05,0.000116515,-3.13541,0.0168727,2.32023,0,0,0,-0.639765,0.312566,-0.315778,0.15695,2.32022,0,0,0,0,0,0,0,0,0,0,-0.234145,0.214445,0,0,0,0,0,2,-0.639765,0.312566,0,0,0,0,-0.315778,0.15695,1.9603e-19,0,0,0,0,0,0,0,0,0,2,-0.343822
9619,0,0,-0.661133,0.000471976,0.000426112,-0.000799459,-3.1354,0.0168585,2.32024,0,0,0,-0.644824,0.31508,-0.31637,0.157278,2.32024,0,0,0,0,0,0,0,0,0,0,-0.233612,0.215015,0,0,0,0,0,2,-0.644824,0.31508,0,0,0,0,-0.31637,0.157278,1.9603e-19,0,0,0,0,0,0,0,0,0,2,-0.346588
9635,0,0,0.545898,-0.000120564,-0.00051561,0.000346522,-3.13539,0.0168607,2.32024,0,0,0,-0.649892,0.3176,-0.316957,0.1576,2.32024,0,0,0,0,0,0,0,0,0,0,-0.233084,0.215582,0,0,0,0,0,2,-0.649892,0.3176,0,0,0,0,-0.316957,0.1576,1.9603e-19,0,0,0,0,0,0,0,0,0,2,-0.34936
9652,0,0,-6.98828,-0.000279886,-0.000475345,-0.000167718,-3.1354,0.0168632,2.32024,0,0,0,-0.654969,0.320125,-0.31754,0.15792,2.32024,0,0,0,0,0,0,0,0,0,0,-0.232557,0.216149,0,0,0,0,0,2,-0.654969,0.320125,0,0,0,0,-0.31754,0.15792,1.9603e-19,0,0,0,0,0,0,0,0,0,2,-0.352138
9668,0,0,-6.98828,-0.000279886,-0.000475345,-0.000167718,-3.1354,0.0168632,2.32024,0,0,0,-0.660056,0.322655,-0.318119,0.158237,2.32024,0,0,0,0,0,0,0,0,0,0,-0.232029,0.216716,0,0,0,0,0,2,-0.660056,0.322655,0,0,0,0,-0.318119,0.158237,1.9603e-19,0,0,0,0,0,0,0,0,0,2,-0.354921
9683,0,0,-6.63965,0.000211351,0.001138,-0.000549408,-3.1354,0.0168605,2.32026,0,0,0,-0.665152,0.32519,-0.318692,0.158553,2.32025,0,0,0,0,0,0,0,0,0,0,-0.231498,0.217285,0,0,0,0,0,2,-0.665152,0.32519,0,0,0,0,-0.318692,0.158553,1.9603e-19,0,0,0,0,0,0,0,0,0,2,-0.357709
9699,0,0,-7.11035,-0.000197845,0.000787054,-0.00120236,-3.13541,0.0168477,2.32026,0,0,0,-0.670257,0.32773,-0.319261,0.158866,2.32026,0,0,0,0,0,0,0,0,0,0,-0.230966,0.217856,0,0,0,0,0,2,-0.670257,0.32773,0,0,0,0,-0.319261,0.158866,1.9603e-19,0,0,0,0,0,0,0,0,0,2,-0.360503
9715,0,0,6.05371,-0.000336619,0.000665031,-0.00179248,-3.13541,0.016836,2.32027,0,0,0,-0.675371,0.330275,-0.319822,0.159175,2.32027,0,0,0,0,0,0,0,0,0,0,-0.230431,0.218428,0,0,0,0,0,2,-0.675371,0.330275,0,0,0,0,-0.319822,0.159175,1.9603e-19,0,0,0,0,0,0,0,0,0,2,-0.363303
9731,0,0,6.05371,-0.000336619,0.000665031,-0.00179248,-3.13541,0.016836,2.32027,0,0,0,-0.680494,0.332825,-0.320377,0.15948,2.32027,0,0,0,0,0,0,0,0,0,0,-0.229901,0.218997,0,0,0,0,0,2,-0.680494,0.332825,0,0,0,0,-0.320377,0.15948,1.9603e-19,0,0,0,0,0,0,0,0,0,2,-0.366108
9747,0,0,1.37012,5.04271e-05,0.000200667,0.000244878,-3.1354,0.0168466,2.32026,0,0,0,-0.685625,0.33538,-0.320928,0.159783,2.32026,0,0,0,0,0,0,0,0,0,0,-0.229376,0.219564,0,0,0,0,0,2,-0.685625,0.33538,0,0,0,0,-0.320928,0.159783,1.9603e-19,0,0,0,0,0,0,0,0,0,2,-0.368918
9762,0,0,-1.03125,-0.00156479,0.000934731,-0.000787042,-3.13542,0.0168271,2.32027,0,0,0,-0.690444,0.33778,-0.32144,0.160065,2.32027,0,0,0,0,0,0,0,0,0,0,-0.228875,0.220101,0,0,0,0,0,2,-0.690444,0.33778,0,0,0,0,-0.32144,0.160065,1.9603e-19,0,0,0,0,0,0,0,0,0,2,-0.371558
9779,0,0,-5.51367,0.000756105,0.00168405,-0.000551011,-3.13541,0.0168055,2.32028,0,0,0,-0.695915,0.340504,-0.322013,0.16038,2.32028,0,0,0,0,0,0,0,0,0,0,-0.228306,0.220709,0,0,0,0,0,2,-0.695915,0.340504,0,0,0,0,-0.322013,0.16038,1.9603e-19,0,0,0,0,0,0,0,0,0,2,-0.374555
9794,0,0,1.33789,0.000134669,0.00013281,-0.000618599,-3.13543,0.0167952,2.32028,0,0,0,-0.70075,0.342913,-0.322511,0.160655,2.32028,0,0,0,0,0,0,0,0,0,0,-0.227808,0.221244,0,0,0,0,0,2,-0.70075,0.342913,0,0,0,0,-0.322511,0.160655,1.9603e-19,0,0,0,0,0,0,0,0,0,2,-0.377204
9809,0,0,6.14941,-0.000276705,-0.000495336,-0.00103184,-3.13545,0.0167947,2.32029,0,0,0,-0.705593,0.345325,-0.323003,0.160928,2.32028,0,0,0,0,0,0,0,0,0,0,-0.227309,0.221781,0,0,0,0,0,2,-0.705593,0.345325,0,0,0,0,-0.323003,0.160928,1.9603e-19,0,0,0,0,0,0,0,0,0,2,-0.379858
9825,0,0,6.96582,0.000255993,0.00107568,-0.000662725,-3.13544,0.0167843,2.3203,0,0,0,-0.710766,0.347903,-0.323521,0.161218,2.3203,0,0,0,0,0,0,0,0,0,0,-0.226768,0.222358,0,0,0,0,0,2,-0.710766,0.347903,0,0,0,0,-0.323521,0.161218,1.9603e-19,0,0,0,0,0,0,0,0,0,2,-0.382693
9841,0,0,0.814453,-0.00028724,-0.000293513,4.89611e-05,-3.13545,0.0167775,2.3203,0,0,0,-0.715948,0.350485,-0.324035,0.161504,2.3203,0,0,0,0,0,0,0,0,0,0,-0.226236,0.222929,0,0,0,0,0,2,-0.715948,0.350485,0,0,0,0,-0.324035,0.161504,1.9603e-19,0,0,0,0,0,0,0,0,0,2,-0.385534
9858,0,0,1.14355,-0.00140943,0.000671026,-0.000492196,-3.13546,0.0167708,2.32031,0,0,0,-0.721462,0.353234,-0.324574,0.161805,2.32031,0,0,0,0,0,0,0,0,0,0,-0.225665,0.22354,0,0,0,0,0,2,-0.721462,0.353234,0,0,0,0,-0.324574,0.161805,1.9603e-19,0,0,0,0,0,0,0,0,0,2,-0.388558
9874,0,0,-2.80957,-0.0018297,0.000696196,0.000615425,-3.13548,0.0167615,2.32031,0,0,0,-0.726661,0.355826,-0.325073,0.162087,2.32031,0,0,0,0,0,0,0,0,0,0,-0.225132,0.224113,0,0,0,0,0,2,-0.726661,0.355826,0,0,0,0,-0.325073,0.162087,1.9603e-19,0,0,0,0,0,0,0,0,0,2,-0.391409
9890,0,0,3.88965,-0.00231645,-7.12531e-05,0.000528519,-3.13548,0.0167641,2.3203,0,0,0,-0.731867,0.358422,-0.325566,0.162368,2.3203,0,0,0,0,0,0,0,0,0,0,-0.2246,0.224686,0,0,0,0,0,2,-0.731867,0.358422,0,0,0,0,-0.325566,0.162368,1.9603e-19,0,0,0,0,0,0,0,0,0,2,-0.394265
9906,0,0,3.88965,-0.00231645,-7.12531e-05,0.000528519,-3.13548,0.0167641,2.3203,0,0,0,-0.737081,0.361023,-0.326054,0.162647,2.3203,0,0,0,0,0,0,0,0,0,0,-0.224065,0.225261,0,0,0,0,0,2,-0.737081,0.361023,0,0,0,0,-0.326054,0.162647,1.9603e-19,0,0,0,0,0,0,0,0,0,2,-0.397125
9922,0,0,-4.46875,-0.000930978,-0.000810668,-0.00012531,-3.13547,0.0167477,2.3203,0,0,0,-0.741976,0.363465,-0.326509,0.162907,2.3203,0,0,0,0,0,0,0,0,0,0,-0.223563,0.2258,0,0,0,0,0,2,-0.741976,0.363465,0,0,0,0,-0.326509,0.162907,1.9603e-19,0,0,0,0,0,0,0,0,0,2,-0.399812
9938,0,0,3.34766,-0.00177978,0.000279536,-0.00122405,-3.13549,0.0167469,2.32031,0,0,0,-0.747205,0.366075,-0.326989,0.163179,2.32031,0,0,0,0,0,0,0,0,0,0,-0.223025,0.226377,0,0,0,0,0,2,-0.747205,0.366075,0,0,0,0,-0.326989,0.163179,1.9603e-19,0,0,0,0,0,0,0,0,0,2,-0.402682
9953,0,0,-5.99902,-0.00104444,0.00104237,-0.00118727,-3.13551,0.0167352,2.32032,0,0,0,-0.752442,0.368688,-0.327463,0.16345,2.32032,0,0,0,0,0,0,0,0,0,0,-0.222486,0.226954,0,0,0,0,0,2,-0.752442,0.368688,0,0,0,0,-0.327463,0.16345,1.9603e-19,0,0,0,0,0,0,0,0,0,2,-0.405557
9969,0,0,-5.99902,-0.00104444,0.00104237,-0.00118727,-3.13551,0.0167352,2.32032,0,0,0,-0.757687,0.371306,-0.327929,0.16372,2.32032,0,0,0,0,0,0,0,0,0,0,-0.22195,0.227531,0,0,0,0,0,2,-0.757687,0.371306,0,0,0,0,-0.327929,0.16372,1.9603e-19,0,0,0,0,0,0,0,0,0,2,-0.408437
9985,0,0,-5.99902,-0.00104444,0.00104237,-0.00118727,-3.13551,0.0167352,2.32032,0,0,0,-0.762938,0.373929,-0.328392,0.163987,2.32032,0,0,0,0,0,0,0,0,0,0,-0.221413,0.228108,0,0,0,0,0,2,-0.762938,0.373929,0,0,0,0,-0.328392,0.163987,1.9603e-19,0,0,0,0,0,0,0,0,0,2,-0.411322
10001,0,0,-3.13574,-0.000537256,0.000716431,-0.00049799,-3.1355,0.0167278,2.3203,0,0,0,-0.768197,0.376555,-0.328851,0.164252,2.32032,0,0,0,0,0,0,0,0,0,0,-0.220876,0.228685,0,0,0,0,0,2,-0.768197,0.376555,0,0,0,0,-0.328851,0.164252,1.9603e-19,0,0,0,0,0,0,0,0,0,2,-0.414211
10016,0,0,-1.14844,-0.000601718,-0.00122201,-0.000155089,-3.13551,0.016744,2.32031,0,0,0,-0.773134,0.379021,-0.329278,0.164498,2.3203,0,0,0,0,0,0,0,0,0,0,-0.220378,0.229223,0,0,0,0,0,2,-0.773134,0.379021,0,0,0,0,-0.329278,0.164498,1.9603e-19,0,0,0,0,0,0,0,0,0,2,-0.416923
10033,0,0,-6.17773,-0.0013291,0.000147854,0.000161964,-3.13553,0.0167352,2.32031,0,0,0,-0.778737,0.381821,-0.329758,0.164778,2.32031,0,0,0,0,0,0,0,0,0,0,-0.219804,0.229838,0,0,0,0,0,2,-0.778737,0.381821,0,0,0,0,-0.329758,0.164778,1.9603e-19,0,0,0,0,0,0,0,0,0,2,-0.420003
10048,0,0,0.0195312,-0.00202379,-0.000226863,0.000323718,-3.13555,0.0167351,2.32031,0,0,0,-0.783688,0.384295,-0.330175,0.165024,2.32031,0,0,0,0,0,0,0,0,0,0,-0.219298,0.230382,0,0,0,0,0,2,-0.783688,0.384295,0,0,0,0,-0.330175,0.165024,1.9603e-19,0,0,0,0,0,0,0,0,0,2,-0.422725
10064,0,0,0.0195312,-0.00202379,-0.000226863,0.000323718,-3.13555,0.0167351,2.32031,0,0,0,-0.788975,0.386938,-0.330614,0.165286,2.32031,0,0,0,0,0,0,0,0,0,0,-0.218758,0.230962,0,0,0,0,0,2,-0.788975,0.386938,0,0,0,0,-0.330614,0.165286,1.9603e-19,0,0,0,0,0,0,0,0,0,2,-0.425632
10080,0,0,-0.367188,0.000680435,-0.000340131,0.000267785,-3.13554,0.0167259,2.32031,0,0,0,-0.79427,0.389585,-0.33105,0.165545,2.32031,0,0,0,0,0,0,0,0,0,0,-0.21822,0.231541,0,0,0,0,0,2,-0.79427,0.389585,0,0,0,0,-0.33105,0.165545,1.9603e-19,0,0,0,0,0,0,0,0,0,2,-0.428544
10096,0,0,-5.9248,5.29394e-05,-0.00142888,-0.000506129,-3.13555,0.0167468,2.32031,0,0,0,-0.799571,0.392237,-0.331482,0.165803,2.32031,0,0,0,0,0,0,0,0,0,0,-0.217677,0.232123,0,0,0,0,0,2,-0.799571,0.392237,0,0,0,0,-0.331482,0.165803,1.9603e-19,0,0,0,0,0,0,0,0,0,2,-0.431461
10113,0,0,-0.244141,-0.000982285,0.00118141,7.40325e-05,-3.13556,0.0167267,2.32031,0,0,0,-0.805211,0.395059,-0.331938,0.166077,2.32031,0,0,0,0,0,0,0,0,0,0,-0.217103,0.232741,0,0,0,0,0,2,-0.805211,0.395059,0,0,0,0,-0.331938,0.166077,1.9603e-19,0,0,0,0,0,0,0,0,0,2,-0.434565
10129,0,0,-1.58008,-0.00175199,0.00113021,0.000301501,-3.13557,0.0167191,2.32031,0,0,0,-0.810527,0.397719,-0.33236,0.166331,2.32031,0,0,0,0,0,0,0,0,0,0,-0.216559,0.233324,0,0,0,0,0,2,-0.810527,0.397719,0,0,0,0,-0.33236,0.166331,1.9603e-19,0,0,0,0,0,0,0,0,0,2,-0.43749
10145,0,0,-2.63281,-0.00118222,0.00108249,-5.22415e-05,-3.13558,0.0167103,2.32032,0,0,0,-0.815849,0.400383,-0.332775,0.166584,2.32032,0,0,0,0,0,0,0,0,0,0,-0.216016,0.233907,0,0,0,0,0,2,-0.815849,0.400383,0,0,0,0,-0.332775,0.166584,1.9603e-19,0,0,0,0,0,0,0,0,0,2,-0.440421
