timestamp,A_x,A_y,A_z,P,Q,R,Phi,Theta,Psi,poseX,poseY,poseZ,state_X,state_Y,state_Z,state_VzB,state_Bx,state_By,state_Bz,p1_x,p1_y,p2_x,p2_y,p3_x,p3_y,p4_x,p4_y,roll,pitch,yaw,alt,targetHeading,highLevelState,lowLevelState,gateNumber,filtered_x,filtered_y,x_OT,y_OT,vx_OT,vy_OT,filtered_vx,filtered_vygateArearansac_corr_x,ransac_corr_y,ransac_corr_vx,ransac_corr_vy,detectionTimeStamppTermX,dTermX,pTermY,dTermY,vxcmd,vycmd
6418,0,0,0,0,0,0,0,0,0,0,0,0,0,0,0,0,0,0,0,0,0,0,0,0,0,0,0,0,-0.610776,0.00469354,-1.5,0,0,0,1,0,0,0,0,0,0,0,0,1.67972e-19,0,0,0,0,0,0,0,0,0,2.5,0
6434,0,0,0,0,0,0,0,0,0,0,0,0,0,0,0,0,0,0,0,0,0,0,0,0,0,0,0,0,-0.610776,0.0203324,-1.5,0,0,0,2,0,0,0,0,0,0,0,0,1.67972e-19,0,0,0,0,0,0,0,0,0,2.5,0
6447,0,0,0,0,0,0,0,0,0,0,0,0,0,0,0,0,0,0,0,0,0,0,0,0,0,0,0,0,-0.610776,0.0312278,-1.5,0,0,0,3,0,0,0,0,0,0,0,0,1.67972e-19,0,0,0,0,0,0,0,0,0,2.5,0
6462,0,0,0,0,0,0,0,0,0,0,0,0,0,0,0,0,0,0,0,0,0,0,0,0,0,0,0,0,-0.610776,0.0232929,-1.5,0,0,0,0,0,0,0,0,0,0,0,0,1.67972e-19,0,0,0,0,0,0,0,0,0,2.5,0
6477,0,0,0,0,0,0,0,0,0,0,0,0,0,0,0,0,0,0,0,0,0,0,0,0,0,0,0,0,-0.610776,0.0244859,-1.5,0,0,0,1,0,0,0,0,0,0,0,0,1.67972e-19,0,0,0,0,0,0,0,0,0,2.5,0
6492,0,0,0,0,0,0,0,0,0,0,0,0,0,0,0,0,0,0,0,0,0,0,0,0,0,0,0,0,-0.610776,0.0384811,-1.5,0,0,0,2,0,0,0,0,0,0,0,0,1.67972e-19,0,0,0,0,0,0,0,0,0,2.5,0
6507,0,0,0,0,0,0,0,0,0,0,0,0,0,0,0,0,0,0,0,0,0,0,0,0,0,0,0,0,-0.610776,0.0524392,-1.5,0,0,0,3,0,0,0,0,0,0,0,0,1.67972e-19,0,0,0,0,0,0,0,0,0,2.5,0
6522,0,0,0,0,0,0,0,0,0,0,0,0,0,0,0,0,0,0,0,0,0,0,0,0,0,0,0,0,-0.610776,0.045984,-1.5,0,0,0,0,0,0,0,0,0,0,0,0,1.67972e-19,0,0,0,0,0,0,0,0,0,2.5,0
6537,0,0,0,0,0,0,0,0,0,0,0,0,0,0,0,0,0,0,0,0,0,0,0,0,0,0,0,0,-0.610776,0.0481962,-1.5,0,0,0,1,0,0,0,0,0,0,0,0,1.67972e-19,0,0,0,0,0,0,0,0,0,2.5,0
6557,0,0,0,0,0,0,0,0,0,0,0,0,0,0,0,0,0,0,0,0,0,0,0,0,0,0,0,0,-0.610776,0.0699192,-1.5,0,0,0,2,0,0,0,0,0,0,0,0,1.67972e-19,0,0,0,0,0,0,0,0,0,2.5,0
6570,0,0,0,0,0,0,0,0,0,0,0,0,0,0,0,0,0,0,0,0,0,0,0,0,0,0,0,0,-0.610776,0.0774872,-1.5,0,0,0,3,0,0,0,0,0,0,0,0,1.67972e-19,0,0,0,0,0,0,0,0,0,2.5,0
6585,0,0,0,0,0,0,0,0,0,-4.46354,-0.25038,0.0944638,0,0,0,0,0,-0.46354,-0.25038,299,24,299,24,399,37,286,124,0,-0.610776,0.0707956,-1.5,0,0,0,0,0,0,0,0,0,0,0,0,12430,0,0,0,0,6579,0,0,0,0,2.5,0
6601,0,0,0,0,0,0,0,0,0,-4.46354,-0.25038,0.0944638,0,0,0,0,0,-0.46354,-0.25038,299,24,299,24,399,37,286,124,0,-0.610776,0.0725133,-1.5,0,0,0,1,0,0,0,0,0,0,0,0,12430,0,0,0,0,6579,0,0,0,0,2.5,0
6623,0,0,0,0,0,0,0,0,0,-4.45484,-0.247173,0.0910947,0,0,0,0,0,5.24717,0.545158,298,24,298,24,399,37,286,124,0,-0.610776,0.097268,-1.5,0,0,0,2,0,0,0,0,0,0,0,0,12430,0,0,0,0,6615,0,0,0,0,2.5,0
6672,0,0,0,0,0,0,0,0,0,-4.46354,-0.25038,0.0944638,0,0,0,0,0,5.46354,6.25037,299,24,299,24,399,37,286,124,0,-0.610776,0.164184,-1.5,0,0,0,3,0,0,0,0,0,0,0,0,12430,0,0,0,0,6663,0,0,0,0,2.5,0
6689,0,0,0,0,0,0,0,0,0,-4.45484,-0.247173,0.0910947,0,0,0,0,0,-0.247156,5.45484,298,24,298,24,399,37,286,124,0,-0.610776,0.154153,-1.5,0,0,0,0,0,0,0,0,0,0,0,0,12430,0,0,0,0,6680,0,0,0,0,2.5,0
6714,0,0,0,0,0,0,0,0,0,-4.46065,-0.247562,0.0904583,0,0,0,0,0,5.24756,0.539347,299,24,299,24,399,37,286,124,-0.254586,-0.049657,0.172445,-1.5,0,0,0,1,5.24761,0.538525,0,0,0,0,0.00392772,-0.0587047,12543,5.24756,0.539347,0.00392772,-0.0587047,6702,0,0,0,0,-0.495222,-1.07705
6729,0,0,0,0,0,0,0,0,0,-4.46065,-0.247562,0.0904583,0,0,0,0,0,5.24756,0.539347,299,24,299,24,399,37,286,124,-0.254146,-0.0496274,0.196007,-1.5,0,0,0,1,5.24767,0.537644,0,0,0,0,0.00392772,-0.0587047,12543,5.24756,0.539347,0.00392772,-0.0587047,6702,0,0,0,0,-0.49534,-1.07529
6747,0,0,0,0,0,0,0,0,0,-4.45484,-0.247173,0.0910947,0,0,0,0,0,5.24717,0.545158,298,24,298,24,399,37,286,124,-0.272579,-0.0543336,0.224281,-1.5,0,0,0,1,5.24693,0.545158,0,0,0,0,-0.0134084,-5.29994e-07,12430,5.24717,0.545158,-0.0134084,-5.29994e-07,6736,0,0,0,0,-0.493852,-1.09032
6762,0,0,0,0,0,0,0,0,0,-4.45484,-0.247173,0.0910947,0,0,0,0,0,5.24717,0.545158,298,24,298,24,399,37,286,124,-0.272579,-0.0544342,0.247843,-1.5,0,0,0,1,5.24672,0.545158,0,0,0,0,-0.0134084,-5.29994e-07,12430,5.24717,0.545158,-0.0134084,-5.29994e-07,6736,0,0,0,0,-0.493449,-1.09032
6780,0,0,0,0,0,0,0,0,0,-4.46065,-0.247562,0.0904583,0,0,0,0,0,5.24756,0.539347,299,24,299,24,399,37,286,124,-0.260342,-0.0506687,0.274546,-1.5,0,0,0,1,5.24756,0.538733,0,0,0,0,-8.61356e-06,-0.0360974,12543,5.24756,0.539347,-8.61356e-06,-0.0360974,6768,0,0,0,0,-0.495111,-1.07747
6795,0,0,0,0,0,0,0,0,0,-4.46065,-0.247562,0.0904583,0,0,0,0,0,5.24756,0.539347,299,24,299,24,399,37,286,124,-0.260053,-0.050669,0.299679,-1.5,0,0,0,1,5.24756,0.538155,0,0,0,0,-8.61356e-06,-0.0360974,12543,5.24756,0.539347,-8.61356e-06,-0.0360974,6768,0,0,0,0,-0.495111,-1.07631
6812,0,0,0,0,0,0,0,0,0,-4.46756,-0.256148,0.093185,0,0,0,0,0,5.25614,0.532442,301,24,301,24,399,37,286,124,-0.25171,-0.0494646,0.326383,-1.5,0,0,0,1,5.248,0.532772,0,0,0,0,0.00392772,-0.0587047,12543,5.24795,0.533417,0.00392772,-0.0587047,6803,0,0,0,0,-0.495992,-1.06554
6827,0,0,0,0,0,0,0,0,0,-4.46756,-0.256148,0.093185,0,0,0,0,0,5.25614,0.532442,301,24,301,24,399,37,286,124,-0.251269,-0.0494353,0.349944,-1.5,0,0,0,1,5.24805,0.531891,0,0,0,0,0.00392772,-0.0587047,12543,5.24795,0.533417,0.00392772,-0.0587047,6803,0,0,0,0,-0.496109,-1.06378
6846,0,0,0,0,0,0,0,0,0,-4.45484,-0.247173,0.0910947,0,0,0,0,0,5.24717,0.545158,298,24,298,24,399,37,286,124,-0.263189,-0.0506522,0.379789,-1.5,0,0,0,1,5.24746,0.538436,0,0,0,0,0.000254918,-0.0241153,12430,5.24745,0.538894,0.000254918,-0.0241153,6834,0,0,0,0,-0.494914,-1.07687
6861,0,0,0,0,0,0,0,0,0,-4.45484,-0.247173,0.0910947,0,0,0,0,0,5.24717,0.545158,298,24,298,24,399,37,286,124,-0.263008,-0.0506503,0.403351,-1.5,0,0,0,1,5.24746,0.538074,0,0,0,0,0.000254918,-0.0241153,12430,5.24745,0.538894,0.000254918,-0.0241153,6834,0,0,0,0,-0.494922,-1.07615
6880,0,0,0,0,0,0,0,0,0,-4.4314,-0.254104,0.079326,0,0,0,0,0,5.2541,0.568604,299,24,299,24,399,37,286,124,-0.272579,-0.0498457,0.433196,-1.5,0,0,0,1,5.24792,0.545158,0,0,0,0,0.00255662,-9.73171e-08,12543,5.24787,0.545158,0.00255662,-9.73171e-08,6868,0,0,0,0,-0.495838,-1.09032
6895,0,0,0,0,0,0,0,0,0,-4.4314,-0.254104,0.079326,0,0,0,0,0,5.2541,0.568604,299,24,299,24,399,37,286,124,-0.272579,-0.0498267,0.456758,-1.5,0,0,0,1,5.24796,0.545158,0,0,0,0,0.00255662,-9.73171e-08,12543,5.24787,0.545158,0.00255662,-9.73171e-08,6868,0,0,0,0,-0.495914,-1.09032
6914,0,0,0,0,0,0,0,0,0,-4.46354,-0.25038,0.0944638,0,0,0,0,0,5.25037,0.53646,299,24,299,24,399,37,286,124,-0.261288,-0.0464981,0.486603,-1.5,0,0,0,1,5.25016,0.536457,0,0,0,0,0.0114631,-0.027764,12430,5.24994,0.536985,0.0114631,-0.027764,6902,0,0,0,0,-0.500322,-1.07291
6929,0,0,0,0,0,0,0,0,0,-4.46354,-0.25038,0.0944638,0,0,0,0,0,5.25037,0.53646,299,24,299,24,399,37,286,124,-0.261079,-0.0464123,0.510165,-1.5,0,0,0,1,5.25033,0.536041,0,0,0,0,0.0114631,-0.027764,12430,5.24994,0.536985,0.0114631,-0.027764,6902,0,0,0,0,-0.500666,-1.07208
6948,0,0,0,0,0,0,0,0,0,-4.46976,-0.250696,0.0968284,0,0,0,0,0,5.25069,0.530241,298,24,298,24,399,37,287,124,-0.260882,-0.0461229,0.53844,-1.5,0,0,0,1,5.25086,0.53532,0,0,0,0,0.0115598,-0.0271106,12320,5.25066,0.535808,0.0115598,-0.0271106,6936,0,0,0,0,-0.501726,-1.07064
6963,0,0,0,0,0,0,0,0,0,-4.46976,-0.250696,0.0968284,0,0,0,0,0,5.25069,0.530241,298,24,298,24,399,37,287,124,-0.260665,-0.0460304,0.563572,-1.5,0,0,0,1,5.25105,0.534886,0,0,0,0,0.0115598,-0.0271106,12320,5.25066,0.535808,0.0115598,-0.0271106,6936,0,0,0,0,-0.502096,-1.06977
6982,0,0,0,0,0,0,0,0,0,-4.46354,-0.25038,0.0944638,0,0,0,0,0,5.25037,0.53646,299,24,299,24,399,37,286,124,-0.260749,-0.045868,0.591847,-1.5,0,0,0,1,5.25116,0.534751,0,0,0,0,0.0119893,-0.0265076,12430,5.25094,0.535228,0.0119893,-0.0265076,6970,0,0,0,0,-0.502316,-1.0695
6997,0,0,0,0,0,0,0,0,0,-4.46354,-0.25038,0.0944638,0,0,0,0,0,5.25037,0.53646,299,24,299,24,399,37,286,124,-0.26055,-0.0457781,0.615409,-1.5,0,0,0,1,5.25134,0.534353,0,0,0,0,0.0119893,-0.0265076,12430,5.25094,0.535228,0.0119893,-0.0265076,6970,0,0,0,0,-0.502676,-1.06871
7016,0,0,0,0,0,0,0,0,0,-4.45116,-0.249771,0.0868459,0,0,0,0,0,5.24976,0.548842,299,24,299,24,399,37,286,124,-0.263627,-0.046789,0.645254,-1.5,0,0,0,1,5.25082,0.536016,0,0,0,0,0.00897572,-0.0175222,12543,5.25065,0.536349,0.00897572,-0.0175222,7003,0,0,0,0,-0.501646,-1.07203
7031,0,0,0,0,0,0,0,0,0,-4.45116,-0.249771,0.0868459,0,0,0,0,0,5.24976,0.548842,299,24,299,24,399,37,286,124,-0.263487,-0.0467172,0.670386,-1.5,0,0,0,1,5.25097,0.535735,0,0,0,0,0.00897572,-0.0175222,12543,5.25065,0.536349,0.00897572,-0.0175222,7003,0,0,0,0,-0.501933,-1.07147
7049,0,0,0,0,0,0,0,0,0,-4.46354,-0.25038,0.0944638,0,0,0,0,0,5.25037,0.53646,299,24,299,24,399,37,286,124,-0.262695,-0.047171,0.698661,-1.5,0,0,0,1,5.25064,0.53545,0,0,0,0,0.00780737,-0.0201203,12430,5.2505,0.535813,0.00780737,-0.0201203,7037,0,0,0,0,-0.501287,-1.0709
7063,0,0,0,0,0,0,0,0,0,-4.46354,-0.25038,0.0944638,0,0,0,0,0,5.25037,0.53646,299,24,299,24,399,37,286,124,-0.262554,-0.0471164,0.720652,-1.5,0,0,0,1,5.25075,0.535169,0,0,0,0,0.00780737,-0.0201203,12430,5.2505,0.535813,0.00780737,-0.0201203,7037,0,0,0,0,-0.501505,-1.07034
7082,0,0,0,0,0,0,0,0,0,-4.45116,-0.249771,0.0868459,0,0,0,0,0,5.24976,0.548842,299,24,299,24,399,37,286,124,-0.266753,-0.047345,0.750497,-1.5,0,0,0,1,5.25062,0.537103,0,0,0,0,0.00716759,-0.00719341,12543,5.25048,0.53724,0.00716759,-0.00719341,7070,0,0,0,0,-0.50123,-1.07421
7098,0,0,0,0,0,0,0,0,0,-4.45116,-0.249771,0.0868459,0,0,0,0,0,5.24976,0.548842,299,24,299,24,399,37,286,124,-0.266696,-0.0472878,0.775629,-1.5,0,0,0,1,5.25073,0.536988,0,0,0,0,0.00716759,-0.00719341,12543,5.25048,0.53724,0.00716759,-0.00719341,7070,0,0,0,0,-0.501459,-1.07398
7117,0,0,0,0,0,0,0,0,0,-4.46354,-0.25038,0.0944638,0,0,0,0,0,5.25037,0.53646,299,24,299,24,399,37,286,124,-0.266532,-0.046907,0.805274,-1.5,0,0,0,1,5.25109,0.536626,0,0,0,0,0.00797143,-0.00712361,12430,5.25094,0.536762,0.00797143,-0.00712361,7104,0,0,0,0,-0.502178,-1.07325
7132,0,0,0,0,0,0,0,0,0,-4.46354,-0.25038,0.0944638,0,0,0,0,0,5.25037,0.53646,299,24,299,24,399,37,286,124,-0.266479,-0.0468474,0.827996,-1.5,0,0,0,1,5.25121,0.53652,0,0,0,0,0.00797143,-0.00712361,12430,5.25094,0.536762,0.00797143,-0.00712361,7104,0,0,0,0,-0.502417,-1.07304
7151,0,0,0,0,0,0,0,0,0,-4.45116,-0.249771,0.0868459,0,0,0,0,0,5.24976,0.548842,299,24,299,24,399,37,286,124,-0.265822,-0.0476018,0.855892,-1.5,0,0,0,1,5.25067,0.53655,0,0,0,0,0.00602105,-0.00981095,12543,5.25056,0.536736,0.00602105,-0.00981095,7139,0,0,0,0,-0.501349,-1.0731
7171,0,0,0,0,0,0,0,0,0,-4.47314,-0.24817,0.0981214,0,0,0,0,0,5.24816,0.526864,299,24,299,24,399,37,286,124,-0.264804,-0.0475143,0.884065,-1.5,0,0,0,1,5.25082,0.535156,0,0,0,0,0.00608106,-0.0110961,12430,5.25078,0.535223,0.00608106,-0.0110961,7167,0,0,0,0,-0.501639,-1.07031
7186,0,0,0,0,0,0,0,0,0,-4.47314,-0.24817,0.0981214,0,0,0,0,0,5.24816,0.526864,299,24,299,24,399,37,286,124,-0.264721,-0.0474688,0.904437,-1.5,0,0,0,1,5.25091,0.53499,0,0,0,0,0.00608106,-0.0110961,12430,5.25078,0.535223,0.00608106,-0.0110961,7167,0,0,0,0,-0.501822,-1.06998
7206,0,0,0,0,0,0,0,0,0,-4.47314,-0.24817,0.0981214,0,0,0,0,0,5.24816,0.526864,299,24,299,24,399,37,286,124,-0.262266,-0.048582,0.930697,-1.5,0,0,0,1,5.25021,0.533646,0,0,0,0,0.00303601,-0.0182274,12430,5.25019,0.533755,0.00303601,-0.0182274,7202,0,0,0,0,-0.500414,-1.06729
7221,0,0,0,0,0,0,0,0,0,-4.47314,-0.24817,0.0981214,0,0,0,0,0,5.24816,0.526864,299,24,299,24,399,37,286,124,-0.262129,-0.0485591,0.949686,-1.5,0,0,0,1,5.25025,0.533372,0,0,0,0,0.00303601,-0.0182274,12430,5.25019,0.533755,0.00303601,-0.0182274,7202,0,0,0,0,-0.500505,-1.06674
7240,0,0,0,0,0,0,0,0,0,-4.46354,-0.25038,0.0944638,0,0,0,0,0,5.25037,0.53646,299,24,299,24,399,37,286,124,-0.263933,-0.048391,0.972962,-1.5,0,0,0,1,5.25038,0.534717,0,0,0,0,0.00344617,-0.0137032,12430,5.25036,0.534826,0.00344617,-0.0137032,7234,0,0,0,0,-0.500768,-1.06943
7255,0,0,0,0,0,0,0,0,0,-4.46354,-0.25038,0.0944638,0,0,0,0,0,5.25037,0.53646,299,24,299,24,399,37,286,124,-0.26383,-0.0483652,0.990707,-1.5,0,0,0,1,5.25044,0.534511,0,0,0,0,0.00344617,-0.0137032,12430,5.25036,0.534826,0.00344617,-0.0137032,7234,0,0,0,0,-0.500871,-1.06902
7275,0,0,0,0,0,0,0,0,0,-4.48014,-0.256784,0.10089,0,0,0,0,0,5.25678,0.519863,301,24,301,24,399,37,286,124,-0.260879,-0.0475198,1.01358,-1.5,0,0,0,1,5.25111,0.531442,0,0,0,0,0.00547172,-0.0193677,12430,5.25106,0.531616,0.00547172,-0.0193677,7268,0,0,0,0,-0.502227,-1.06288
7291,0,0,0,0,0,0,0,0,0,-4.48014,-0.256784,0.10089,0,0,0,0,0,5.25678,0.519863,301,24,301,24,399,37,286,124,-0.260724,-0.0474759,1.0312,-1.5,0,0,0,1,5.2512,0.531132,0,0,0,0,0.00547172,-0.0193677,12430,5.25106,0.531616,0.00547172,-0.0193677,7268,0,0,0,0,-0.502402,-1.06226
7309,0,0,0,0,0,0,0,0,0,-4.44256,-0.246576,0.0835218,0,0,0,0,0,5.24657,0.557439,298,24,298,24,399,37,286,124,-0.263699,-0.0485784,1.05036,-1.5,0,0,0,1,5.25037,0.533382,0,0,0,0,0.00273281,-0.011968,12543,5.25034,0.533502,0.00273281,-0.011968,7301,0,0,0,0,-0.500731,-1.06676
7323,0,0,0,0,0,0,0,0,0,-4.44256,-0.246576,0.0835218,0,0,0,0,0,5.24657,0.557439,298,24,298,24,399,37,286,124,-0.263615,-0.0485591,1.06479,-1.5,0,0,0,1,5.2504,0.533214,0,0,0,0,0.00273281,-0.011968,12543,5.25034,0.533502,0.00273281,-0.011968,7301,0,0,0,0,-0.500809,-1.06643
7343,0,0,0,0,0,0,0,0,0,-4.45116,-0.249771,0.0868459,0,0,0,0,0,5.24976,0.548842,299,24,299,24,399,37,286,124,-0.264239,-0.0493195,1.08473,-1.5,0,0,0,1,5.24993,0.533672,0,0,0,0,0.000637307,-0.0103873,12543,5.24992,0.533787,0.000637307,-0.0103873,7334,0,0,0,0,-0.499863,-1.06734
7358,0,0,0,0,0,0,0,0,0,-4.45116,-0.249771,0.0868459,0,0,0,0,0,5.24976,0.548842,299,24,299,24,399,37,286,124,-0.264161,-0.0493147,1.09916,-1.5,0,0,0,1,5.24994,0.533517,0,0,0,0,0.000637307,-0.0103873,12543,5.24992,0.533787,0.000637307,-0.0103873,7334,0,0,0,0,-0.499882,-1.06703
7378,0,0,0,0,0,0,0,0,0,-4.46354,-0.25038,0.0944638,0,0,0,0,0,5.25037,0.53646,299,24,299,24,399,37,286,124,-0.26758,-0.0488425,1.11775,-1.5,0,0,0,1,5.25041,0.536821,0,0,0,0,0.00158189,-0.00332308,12430,5.25039,0.536864,0.00158189,-0.00332308,7367,0,0,0,0,-0.500826,-1.07364
7394,0,0,0,0,0,0,0,0,0,-4.46354,-0.25038,0.0944638,0,0,0,0,0,5.25037,0.53646,299,24,299,24,399,37,286,124,-0.267555,-0.0488306,1.1312,-1.5,0,0,0,1,5.25044,0.536771,0,0,0,0,0.00158189,-0.00332308,12430,5.25039,0.536864,0.00158189,-0.00332308,7367,0,0,0,0,-0.500874,-1.07354
7414,0,0,0,0,0,0,0,0,0,-4.45116,-0.249771,0.0868459,0,0,0,0,0,5.24976,0.548842,299,24,299,24,399,37,286,124,-0.266493,-0.0496135,1.14938,-1.5,0,0,0,1,5.24974,0.535766,0,0,0,0,-0.000163042,-0.00556119,12543,5.24975,0.535844,-0.000163042,-0.00556119,7402,0,0,0,0,-0.499487,-1.07153
7429,0,0,0,0,0,0,0,0,0,-4.45116,-0.249771,0.0868459,0,0,0,0,0,5.24976,0.548842,299,24,299,24,399,37,286,124,-0.266451,-0.0496147,1.16189,-1.5,0,0,0,1,5.24974,0.535683,0,0,0,0,-0.000163042,-0.00556119,12543,5.24975,0.535844,-0.000163042,-0.00556119,7402,0,0,0,0,-0.499482,-1.07137
7449,0,0,0,0,0,0,0,0,0,-4.42421,-0.25356,0.0791849,0,0,0,0,0,5.25355,0.57579,299,24,299,24,399,36,286,124,-0.266511,-0.0484846,1.17804,-1.5,0,0,0,1,5.2507,0.535691,0,0,0,0,0.00244224,-0.00533716,12543,5.25065,0.535798,0.00244224,-0.00533716,7435,0,0,0,0,-0.501397,-1.07138
7464,0,0,0,0,0,0,0,0,0,-4.42421,-0.25356,0.0791849,0,0,0,0,0,5.25355,0.57579,299,24,299,24,399,36,286,124,-0.266471,-0.0484662,1.18969,-1.5,0,0,0,1,5.25074,0.535611,0,0,0,0,0.00244224,-0.00533716,12543,5.25065,0.535798,0.00244224,-0.00533716,7435,0,0,0,0,-0.501471,-1.07122
7484,0,0,0,0,0,0,0,0,0,-4.4314,-0.254104,0.079326,0,0,0,0,0,5.2541,0.568604,299,24,299,24,399,37,286,124,-0.278966,-0.0487127,1.20474,-1.5,0,0,0,1,5.25058,0.550541,0,0,0,0,0.00177129,0.0147811,12543,5.25054,0.550245,0.00177129,0.0147811,7470,0,0,0,0,-0.501156,-1.10108
7499,0,0,0,0,0,0,0,0,0,-4.4314,-0.254104,0.079326,0,0,0,0,0,5.2541,0.568604,299,24,299,24,399,37,286,124,-0.279077,-0.0486993,1.21561,-1.5,0,0,0,1,5.2506,0.550763,0,0,0,0,0.00177129,0.0147811,12543,5.25054,0.550245,0.00177129,0.0147811,7470,0,0,0,0,-0.501209,-1.10153
7519,0,0,0,0,0,0,0,0,0,-4.42575,-0.248513,0.0714067,0,0,0,0,0,5.24851,0.57425,299,24,299,24,399,37,286,124,-0.280229,-0.0488826,1.22964,-1.5,0,0,0,1,5.25041,0.552044,0,0,0,0,0.00143587,0.0168261,12769,5.25038,0.551708,0.00143587,0.0168261,7506,0,0,0,0,-0.500812,-1.10409
7540,0,0,0,0,0,0,0,0,0,-4.4314,-0.254104,0.079326,0,0,0,0,0,5.2541,0.568604,299,24,299,24,399,37,286,124,-0.278632,-0.0482322,1.24376,-1.5,0,0,0,1,5.25107,0.5505,0,0,0,0,0.00270708,0.0135269,12543,5.25105,0.550392,0.00270708,0.0135269,7535,0,0,0,0,-0.502142,-1.101
7555,0,0,0,0,0,0,0,0,0,-4.4314,-0.254104,0.079326,0,0,0,0,0,5.2541,0.568604,299,24,299,24,399,37,286,124,-0.278733,-0.0482117,1.25347,-1.5,0,0,0,1,5.25111,0.550703,0,0,0,0,0.00270708,0.0135269,12543,5.25105,0.550392,0.00270708,0.0135269,7535,0,0,0,0,-0.502224,-1.10141
7575,0,0,0,0,0,0,0,0,0,-4.4314,-0.254104,0.079326,0,0,0,0,0,5.2541,0.568604,299,24,299,24,399,37,286,124,-0.286601,-0.0470739,1.26598,-1.5,0,0,0,1,5.25227,0.559952,0,0,0,0,0.00493404,0.0265026,12543,5.25222,0.559687,0.00493404,0.0265026,7567,0,0,0,0,-0.504548,-1.1199
7589,0,0,0,0,0,0,0,0,0,-4.4314,-0.254104,0.079326,0,0,0,0,0,5.2541,0.568604,299,24,299,24,399,37,286,124,-0.286787,-0.0470394,1.27442,-1.5,0,0,0,1,5.25234,0.560323,0,0,0,0,0.00493404,0.0265026,12543,5.25222,0.559687,0.00493404,0.0265026,7567,0,0,0,0,-0.504686,-1.12065
7610,0,0,0,0,0,0,0,0,0,-4.45484,-0.247173,0.0910947,0,0,0,0,0,5.24717,0.545158,298,24,298,24,399,37,286,124,-0.281928,-0.048766,1.28669,-1.5,0,0,0,1,5.25071,0.554879,0,0,0,0,0.00130135,0.0179522,12430,5.25069,0.5547,0.00130135,0.0179522,7602,0,0,0,0,-0.501412,-1.10976
7625,0,0,0,0,0,0,0,0,0,-4.45484,-0.247173,0.0910947,0,0,0,0,0,5.24717,0.545158,298,24,298,24,399,37,286,124,-0.282062,-0.0487562,1.29512,-1.5,0,0,0,1,5.25073,0.555149,0,0,0,0,0.00130135,0.0179522,12430,5.25069,0.5547,0.00130135,0.0179522,7602,0,0,0,0,-0.501451,-1.1103
7646,0,0,0,0,0,0,0,0,0,-4.42575,-0.248513,0.0714067,0,0,0,0,0,5.24851,0.57425,299,24,299,24,399,37,286,124,-0.295968,-0.0488164,1.30652,-1.5,0,0,0,1,5.25062,0.570585,0,0,0,0,0.00127625,0.0427019,12769,5.2506,0.569987,0.00127625,0.0427019,7634,0,0,0,0,-0.501236,-1.14117
7662,0,0,0,0,0,0,0,0,0,-4.42575,-0.248513,0.0714067,0,0,0,0,0,5.24851,0.57425,299,24,299,24,399,37,286,124,-0.296288,-0.0488066,1.31437,-1.5,0,0,0,1,5.25064,0.571225,0,0,0,0,0.00127625,0.0427019,12769,5.2506,0.569987,0.00127625,0.0427019,7634,0,0,0,0,-0.501275,-1.14245
7682,0,0,0,0,0,0,0,0,0,-4.45116,-0.249771,0.0868459,0,0,0,0,0,5.24976,0.548842,299,24,299,24,399,37,286,124,-0.281363,-0.0494869,1.32501,-1.5,0,0,0,1,5.24983,0.554451,0,0,0,0,0.000168639,0.0165486,12543,5.24983,0.554104,0.000168639,0.0165486,7668,0,0,0,0,-0.499661,-1.1089
7698,0,0,0,0,0,0,0,0,0,-4.45116,-0.249771,0.0868459,0,0,0,0,0,5.24976,0.548842,299,24,299,24,399,37,286,124,-0.281487,-0.0494855,1.3323,-1.5,0,0,0,1,5.24983,0.5547,0,0,0,0,0.000168639,0.0165486,12543,5.24983,0.554104,0.000168639,0.0165486,7668,0,0,0,0,-0.499667,-1.1094
7718,0,0,0,0,0,0,0,0,0,-4.4314,-0.254104,0.079326,0,0,0,0,0,5.2541,0.568604,299,24,299,24,399,37,286,124,-0.294753,-0.0495761,1.3422,-1.5,0,0,0,1,5.24993,0.569465,0,0,0,0,-0.000377015,0.0400833,12543,5.24993,0.568623,-0.000377015,0.0400833,7704,0,0,0,0,-0.49985,-1.13893
7740,0,0,0,0,0,0,0,0,0,-4.44385,-0.249228,0.0866693,0,0,0,0,0,5.24922,0.556148,299,24,299,24,399,36,286,124,-0.287867,-0.0498917,1.3521,-1.5,0,0,0,1,5.24958,0.561124,0,0,0,0,-0.000948762,0.0292193,12543,5.24959,0.56089,-0.000948762,0.0292193,7734,0,0,0,0,-0.49916,-1.12225
7755,0,0,0,0,0,0,0,0,0,-4.44385,-0.249228,0.0866693,0,0,0,0,0,5.24922,0.556148,299,24,299,24,399,36,286,124,-0.288071,-0.0498984,1.35816,-1.5,0,0,0,1,5.24957,0.561533,0,0,0,0,-0.000948762,0.0292193,12543,5.24959,0.56089,-0.000948762,0.0292193,7734,0,0,0,0,-0.499133,-1.12307
7776,0,0,0,0,0,0,0,0,0,-4.4064,-0.252843,0.0640729,0,0,0,0,0,5.25284,0.593598,299,24,299,24,399,37,286,124,-0.295553,-0.0498763,1.36696,-1.5,0,0,0,1,5.24961,0.57124,0,0,0,0,-0.000937612,0.0397323,12769,5.24961,0.570882,-0.000937612,0.0397323,7768,0,0,0,0,-0.49921,-1.14248
7790,0,0,0,0,0,0,0,0,0,-4.4064,-0.252843,0.0640729,0,0,0,0,0,5.25284,0.593598,299,24,299,24,399,37,286,124,-0.295851,-0.0498832,1.37301,-1.5,0,0,0,1,5.24959,0.571836,0,0,0,0,-0.000937612,0.0397323,12769,5.24961,0.570882,-0.000937612,0.0397323,7768,0,0,0,0,-0.499183,-1.14367
7811,0,0,0,0,0,0,0,0,0,-4.4064,-0.252843,0.0640729,0,0,0,0,0,5.25284,0.593598,299,24,299,24,399,37,286,124,-0.303072,-0.0490401,1.38119,-1.5,0,0,0,1,5.25061,0.580297,0,0,0,0,0.000397426,0.051694,12769,5.25061,0.579677,0.000397426,0.051694,7801,0,0,0,0,-0.50122,-1.16059
7826,0,0,0,0,0,0,0,0,0,-4.4064,-0.252843,0.0640729,0,0,0,0,0,5.25284,0.593598,299,24,299,24,399,37,286,124,-0.30346,-0.049037,1.38682,-1.5,0,0,0,1,5.25062,0.581073,0,0,0,0,0.000397426,0.051694,12769,5.25061,0.579677,0.000397426,0.051694,7801,0,0,0,0,-0.501232,-1.16215
7847,0,0,0,0,0,0,0,0,0,-4.45116,-0.249771,0.0868459,0,0,0,0,0,5.24976,0.548842,299,24,299,24,399,37,286,124,-0.298627,-0.0493167,1.39443,-1.5,0,0,0,1,5.2503,0.575313,0,0,0,0,-8.61949e-05,0.0438804,12543,5.2503,0.574699,-8.61949e-05,0.0438804,7835,0,0,0,0,-0.500597,-1.15063
7862,0,0,0,0,0,0,0,0,0,-4.45116,-0.249771,0.0868459,0,0,0,0,0,5.24976,0.548842,299,24,299,24,399,37,286,124,-0.298956,-0.0493172,1.39966,-1.5,0,0,0,1,5.2503,0.575971,0,0,0,0,-8.61949e-05,0.0438804,12543,5.2503,0.574699,-8.61949e-05,0.0438804,7835,0,0,0,0,-0.500595,-1.15194
7882,0,0,0,0,0,0,0,0,0,-4.45116,-0.249771,0.0868459,0,0,0,0,0,5.24976,0.548842,299,24,299,24,399,37,286,124,-0.300736,-0.0497912,1.40642,-1.5,0,0,0,1,5.2497,0.57747,0,0,0,0,-0.000784319,0.0480047,12543,5.24971,0.57651,-0.000784319,0.0480047,7868,0,0,0,0,-0.499397,-1.15494
7897,0,0,0,0,0,0,0,0,0,-4.45116,-0.249771,0.0868459,0,0,0,0,0,5.24976,0.548842,299,24,299,24,399,37,286,124,-0.301096,-0.0497972,1.4113,-1.5,0,0,0,1,5.24969,0.57819,0,0,0,0,-0.000784319,0.0480047,12543,5.24971,0.57651,-0.000784319,0.0480047,7868,0,0,0,0,-0.499373,-1.15638
7916,0,0,0,0,0,0,0,0,0,-4.44256,-0.246576,0.0835218,0,0,0,0,0,5.24657,0.557439,298,24,298,24,399,37,286,124,-0.289543,-0.0496275,1.41728,-1.5,0,0,0,1,5.2497,0.564401,0,0,0,0,-0.000123855,0.0293712,12543,5.2497,0.564166,-0.000123855,0.0293712,7910,0,0,0,0,-0.499392,-1.1288
7931,0,0,0,0,0,0,0,0,0,-4.44256,-0.246576,0.0835218,0,0,0,0,0,5.24657,0.557439,298,24,298,24,399,37,286,124,-0.289764,-0.0496285,1.42184,-1.5,0,0,0,1,5.24969,0.564842,0,0,0,0,-0.000123855,0.0293712,12543,5.2497,0.564166,-0.000123855,0.0293712,7910,0,0,0,0,-0.499388,-1.12968
7952,0,0,0,0,0,0,0,0,0,-4.48097,-0.256847,0.0982862,0,0,0,0,0,5.25684,0.51903,299,24,299,24,399,37,288,124,-0.286221,-0.0496702,1.42772,-1.5,0,0,0,1,5.24965,0.561081,0,0,0,0,-0.000199083,0.0227208,12321,5.24965,0.560627,-0.000199083,0.0227208,7937,0,0,0,0,-0.499296,-1.12216
7967,0,0,0,0,0,0,0,0,0,-4.48097,-0.256847,0.0982862,0,0,0,0,0,5.25684,0.51903,299,24,299,24,399,37,288,124,-0.286403,-0.0496718,1.43225,-1.5,0,0,0,1,5.24964,0.561445,0,0,0,0,-0.000199083,0.0227208,12321,5.24965,0.560627,-0.000199083,0.0227208,7937,0,0,0,0,-0.49929,-1.12289
7987,0,0,0,0,0,0,0,0,0,-4.45116,-0.249771,0.0868459,0,0,0,0,0,5.24976,0.548842,299,24,299,24,399,37,286,124,-0.283233,-0.0496254,1.43773,-1.5,0,0,0,1,5.24968,0.558614,0,0,0,0,-8.96833e-05,0.0157027,12543,5.24968,0.5583,-8.96833e-05,0.0157027,7973,0,0,0,0,-0.499366,-1.11723
8008,0,0,0,0,0,0,0,0,0,-4.45116,-0.249771,0.0868459,0,0,0,0,0,5.24976,0.548842,299,24,299,24,399,37,286,124,-0.282802,-0.0495909,1.44323,-1.5,0,0,0,1,5.24982,0.558225,0,0,0,0,-0.00023409,0.0147564,12543,5.24983,0.558107,-0.00023409,0.0147564,8002,0,0,0,0,-0.499648,-1.11645
8023,0,0,0,0,0,0,0,0,0,-4.45116,-0.249771,0.0868459,0,0,0,0,0,5.24976,0.548842,299,24,299,24,399,37,286,124,-0.282912,-0.0495926,1.44702,-1.5,0,0,0,1,5.24982,0.558447,0,0,0,0,-0.00023409,0.0147564,12543,5.24983,0.558107,-0.00023409,0.0147564,8002,0,0,0,0,-0.499641,-1.11689
8044,0,0,0,0,0,0,0,0,0,-4.44792,-0.260487,0.0857146,0,0,0,0,0,5.26048,0.552077,301,24,301,24,399,37,286,124,-0.277484,-0.0496376,1.45213,-1.5,0,0,0,1,5.24971,0.552583,0,0,0,0,-0.000200315,0.00476759,12543,5.24972,0.552526,-0.000200315,0.00476759,8034,0,0,0,0,-0.499428,-1.10517
8058,0,0,0,0,0,0,0,0,0,-4.44792,-0.260487,0.0857146,0,0,0,0,0,5.26048,0.552077,301,24,301,24,399,37,286,124,-0.277517,-0.049639,1.45542,-1.5,0,0,0,1,5.24971,0.55265,0,0,0,0,-0.000200315,0.00476759,12543,5.24972,0.552526,-0.000200315,0.00476759,8034,0,0,0,0,-0.499422,-1.1053
8087,0,0,0,0,0,0,0,0,0,-4.45116,-0.249771,0.0868459,0,0,0,0,0,5.24976,0.548842,299,24,299,24,399,37,286,124,-0.276143,-0.0495327,1.4618,-1.5,0,0,0,1,5.24983,0.550887,0,0,0,0,-1.62944e-05,0.00279878,12543,5.24983,0.550809,-1.62944e-05,0.00279878,8072,0,0,0,0,-0.499663,-1.10177
8107,0,0,0,0,0,0,0,0,0,-4.4064,-0.252843,0.0640729,0,0,0,0,0,5.25284,0.593598,299,24,299,24,399,37,286,124,-0.277476,-0.0492157,1.46631,-1.5,0,0,0,1,5.25024,0.552542,0,0,0,0,0.000442903,0.00481927,12769,5.25023,0.552508,0.000442903,0.00481927,8102,0,0,0,0,-0.500472,-1.10508
8123,0,0,0,0,0,0,0,0,0,-4.4064,-0.252843,0.0640729,0,0,0,0,0,5.25284,0.593598,299,24,299,24,399,37,286,124,-0.277514,-0.0492124,1.46961,-1.5,0,0,0,1,5.25024,0.552619,0,0,0,0,0.000442903,0.00481927,12769,5.25023,0.552508,0.000442903,0.00481927,8102,0,0,0,0,-0.500485,-1.10524
8143,0,0,0,0,0,0,0,0,0,-4.46756,-0.256148,0.093185,0,0,0,0,0,5.25614,0.532442,301,24,301,24,399,37,286,124,-0.277056,-0.0493896,1.4736,-1.5,0,0,0,1,5.24992,0.551973,0,0,0,0,0.000380404,0.00427955,12543,5.24992,0.55193,0.000380404,0.00427955,8135,0,0,0,0,-0.499839,-1.10395
8158,0,0,0,0,0,0,0,0,0,-4.46756,-0.256148,0.093185,0,0,0,0,0,5.25614,0.532442,301,24,301,24,399,37,286,124,-0.277088,-0.0493868,1.47649,-1.5,0,0,0,1,5.24993,0.552037,0,0,0,0,0.000380404,0.00427955,12543,5.24992,0.55193,0.000380404,0.00427955,8135,0,0,0,0,-0.49985,-1.10407
8179,0,0,0,0,0,0,0,0,0,-4.4314,-0.254104,0.079326,0,0,0,0,0,5.2541,0.568604,299,24,299,24,399,37,286,124,-0.277149,-0.0468098,1.48039,-1.5,0,0,0,1,5.25322,0.552289,0,0,0,0,0.00410046,0.00401886,12543,5.25316,0.552233,0.00410046,0.00401886,8167,0,0,0,0,-0.506438,-1.10458
8195,0,0,0,0,0,0,0,0,0,-4.4314,-0.254104,0.079326,0,0,0,0,0,5.2541,0.568604,299,24,299,24,399,37,286,124,-0.27718,-0.046779,1.48307,-1.5,0,0,0,1,5.25328,0.55235,0,0,0,0,0.00410046,0.00401886,12543,5.25316,0.552233,0.00410046,0.00401886,8167,0,0,0,0,-0.506561,-1.1047
8216,0,0,0,0,0,0,0,0,0,-4.45116,-0.249771,0.0868459,0,0,0,0,0,5.24976,0.548842,299,24,299,24,399,37,286,124,-0.27316,-0.0487744,1.48671,-1.5,0,0,0,1,5.25096,0.550041,0,0,0,0,0.000755634,-0.0074409,12543,5.25095,0.550197,0.000755634,-0.0074409,8202,0,0,0,0,-0.501925,-1.10008
8231,0,0,0,0,0,0,0,0,0,-4.45116,-0.249771,0.0868459,0,0,0,0,0,5.24976,0.548842,299,24,299,24,399,37,286,124,-0.273101,-0.0487682,1.48937,-1.5,0,0,0,1,5.25097,0.549922,0,0,0,0,0.000755634,-0.0074409,12543,5.25095,0.550197,0.000755634,-0.0074409,8202,0,0,0,0,-0.501949,-1.09984
8252,0,0,0,0,0,0,0,0,0,-4.44385,-0.249228,0.0866693,0,0,0,0,0,5.24922,0.556148,299,24,299,24,399,36,286,124,-0.27313,-0.0488186,1.49259,-1.5,0,0,0,1,5.2508,0.549996,0,0,0,0,0.000909758,-0.00747322,12543,5.25078,0.550146,0.000909758,-0.00747322,8238,0,0,0,0,-0.501594,-1.09999
8267,0,0,0,0,0,0,0,0,0,-4.44385,-0.249228,0.0866693,0,0,0,0,0,5.24922,0.556148,299,24,299,24,399,36,286,124,-0.27307,-0.0488112,1.49491,-1.5,0,0,0,1,5.25081,0.549877,0,0,0,0,0.000909758,-0.00747322,12543,5.25078,0.550146,0.000909758,-0.00747322,8238,0,0,0,0,-0.501623,-1.09975
8287,0,0,0,0,0,0,0,0,0,-4.45116,-0.249771,0.0868459,0,0,0,0,0,5.24976,0.548842,299,24,299,24,399,37,286,124,-0.271323,-0.049752,1.49791,-1.5,0,0,0,1,5.24977,0.548809,0,0,0,0,-0.000777163,-0.0123242,12543,5.24979,0.549055,-0.000777163,-0.0123242,8274,0,0,0,0,-0.499547,-1.09762
8308,0,0,0,0,0,0,0,0,0,-4.46756,-0.256148,0.093185,0,0,0,0,0,5.25614,0.532442,301,24,301,24,399,37,286,124,-0.26776,-0.0494839,1.50092,-1.5,0,0,0,1,5.25006,0.546369,0,0,0,0,-0.000269483,-0.0217002,12543,5.25006,0.546586,-0.000269483,-0.0217002,8300,0,0,0,0,-0.500112,-1.09274
8323,0,0,0,0,0,0,0,0,0,-4.46756,-0.256148,0.093185,0,0,0,0,0,5.25614,0.532442,301,24,301,24,399,37,286,124,-0.267597,-0.0494858,1.503,-1.5,0,0,0,1,5.25005,0.546044,0,0,0,0,-0.000269483,-0.0217002,12543,5.25006,0.546586,-0.000269483,-0.0217002,8300,0,0,0,0,-0.500104,-1.09209
8344,0,0,0,0,0,0,0,0,0,-4.45116,-0.249771,0.0868459,0,0,0,0,0,5.24976,0.548842,299,24,299,24,399,37,286,124,-0.265618,-0.0498184,1.5058,-1.5,0,0,0,1,5.24951,0.544783,0,0,0,0,-0.000508732,-0.0270934,12543,5.24951,0.545108,-0.000508732,-0.0270934,8334,0,0,0,0,-0.499013,-1.08957
8359,0,0,0,0,0,0,0,0,0,-4.45116,-0.249771,0.0868459,0,0,0,0,0,5.24976,0.548842,299,24,299,24,399,37,286,124,-0.265415,-0.0498222,1.50773,-1.5,0,0,0,1,5.2495,0.544377,0,0,0,0,-0.000508732,-0.0270934,12543,5.24951,0.545108,-0.000508732,-0.0270934,8334,0,0,0,0,-0.498998,-1.08875
8381,0,0,0,0,0,0,0,0,0,-4.4064,-0.252843,0.0640729,0,0,0,0,0,5.25284,0.593598,299,24,299,24,399,37,286,124,-0.267044,-0.0496114,1.51034,-1.5,0,0,0,1,5.24984,0.546123,0,0,0,0,-0.000337686,-0.024069,12769,5.24984,0.546436,-0.000337686,-0.024069,8369,0,0,0,0,-0.49967,-1.09225
8395,0,0,0,0,0,0,0,0,0,-4.4064,-0.252843,0.0640729,0,0,0,0,0,5.25284,0.593598,299,24,299,24,399,37,286,124,-0.266864,-0.049614,1.51213,-1.5,0,0,0,1,5.24983,0.545762,0,0,0,0,-0.000337686,-0.024069,12769,5.24984,0.546436,-0.000337686,-0.024069,8369,0,0,0,0,-0.49966,-1.09152
8414,0,0,0,0,0,0,0,0,0,-4.4064,-0.252843,0.0640729,0,0,0,0,0,5.25284,0.593598,299,24,299,24,399,37,286,124,-0.264228,-0.0503263,1.51433,-1.5,0,0,0,1,5.2498,0.542923,0,0,0,0,-0.00312784,-0.0289326,12769,5.24984,0.543328,-0.00312784,-0.0289326,8403,0,0,0,0,-0.4996,-1.08585
8429,0,0,0,0,0,0,0,0,0,-4.4064,-0.252843,0.0640729,0,0,0,0,0,5.25284,0.593598,299,24,299,24,399,37,286,124,-0.264011,-0.0503497,1.51601,-1.5,0,0,0,1,5.24975,0.542489,0,0,0,0,-0.00312784,-0.0289326,12769,5.24984,0.543328,-0.00312784,-0.0289326,8403,0,0,0,0,-0.499507,-1.08498
8450,0,0,0,0,0,0,0,0,0,-4.45116,-0.249771,0.0868459,0,0,0,0,0,5.24976,0.548842,299,24,299,24,399,37,286,124,-0.266224,-0.0488773,1.51828,-1.5,0,0,0,1,5.25061,0.545077,0,0,0,0,0.00104216,-0.0252601,12543,5.25059,0.545608,0.00104216,-0.0252601,8436,0,0,0,0,-0.501226,-1.09015
8465,0,0,0,0,0,0,0,0,0,-4.45116,-0.249771,0.0868459,0,0,0,0,0,5.24976,0.548842,299,24,299,24,399,37,286,124,-0.266034,-0.0488694,1.51984,-1.5,0,0,0,1,5.25063,0.544698,0,0,0,0,0.00104216,-0.0252601,12543,5.25059,0.545608,0.00104216,-0.0252601,8436,0,0,0,0,-0.501258,-1.0894
8486,0,0,0,0,0,0,0,0,0,-4.45116,-0.249771,0.0868459,0,0,0,0,0,5.24976,0.548842,299,24,299,24,399,37,286,124,-0.268363,-0.048862,1.52195,-1.5,0,0,0,1,5.2506,0.546084,0,0,0,0,0.0011311,-0.0187167,12543,5.25058,0.546477,0.0011311,-0.0187167,8472,0,0,0,0,-0.501199,-1.09217
8506,0,0,0,0,0,0,0,0,0,-4.46756,-0.256148,0.093185,0,0,0,0,0,5.25614,0.532442,301,24,301,24,399,37,286,124,-0.270606,-0.0489335,1.52388,-1.5,0,0,0,1,5.25053,0.547582,0,0,0,0,0.000980327,-0.0127385,12543,5.25052,0.547684,0.000980327,-0.0127385,8501,0,0,0,0,-0.501063,-1.09516
8521,0,0,0,0,0,0,0,0,0,-4.46756,-0.256148,0.093185,0,0,0,0,0,5.25614,0.532442,301,24,301,24,399,37,286,124,-0.270511,-0.0489261,1.52527,-1.5,0,0,0,1,5.25055,0.547391,0,0,0,0,0.000980327,-0.0127385,12543,5.25052,0.547684,0.000980327,-0.0127385,8501,0,0,0,0,-0.501093,-1.09478
8541,0,0,0,0,0,0,0,0,0,-4.45116,-0.249771,0.0868459,0,0,0,0,0,5.24976,0.548842,299,24,299,24,399,37,286,124,-0.271823,-0.0486107,1.52706,-1.5,0,0,0,1,5.25092,0.547922,0,0,0,0,0.00149723,-0.00854933,12543,5.25091,0.547998,0.00149723,-0.00854933,8534,0,0,0,0,-0.501838,-1.09584
8557,0,0,0,0,0,0,0,0,0,-4.45116,-0.249771,0.0868459,0,0,0,0,0,5.24976,0.548842,299,24,299,24,399,37,286,124,-0.271755,-0.0485988,1.52845,-1.5,0,0,0,1,5.25094,0.547785,0,0,0,0,0.00149723,-0.00854933,12543,5.25091,0.547998,0.00149723,-0.00854933,8534,0,0,0,0,-0.501885,-1.09557
8577,0,0,0,0,0,0,0,0,0,-4.4314,-0.254104,0.079326,0,0,0,0,0,5.2541,0.568604,299,24,299,24,399,37,286,124,-0.273942,-0.0466553,1.53012,-1.5,0,0,0,1,5.25323,0.548502,0,0,0,0,0.00469358,-0.00123815,12543,5.25318,0.548517,0.00469358,-0.00123815,8567,0,0,0,0,-0.506463,-1.097
8592,0,0,0,0,0,0,0,0,0,-4.4314,-0.254104,0.079326,0,0,0,0,0,5.2541,0.568604,299,24,299,24,399,37,286,124,-0.273932,-0.04662,1.53132,-1.5,0,0,0,1,5.2533,0.548484,0,0,0,0,0.00469358,-0.00123815,12543,5.25318,0.548517,0.00469358,-0.00123815,8567,0,0,0,0,-0.506604,-1.09697
8613,0,0,0,0,0,0,0,0,0,-4.45116,-0.249771,0.0868459,0,0,0,0,0,5.24976,0.548842,299,24,299,24,399,37,286,124,-0.271176,-0.048917,1.53296,-1.5,0,0,0,1,5.25059,0.547085,0,0,0,0,0.000922492,-0.00946773,12543,5.25058,0.547218,0.000922492,-0.00946773,8601,0,0,0,0,-0.501187,-1.09417
8628,0,0,0,0,0,0,0,0,0,-4.45116,-0.249771,0.0868459,0,0,0,0,0,5.24976,0.548842,299,24,299,24,399,37,286,124,-0.271105,-0.0489101,1.53408,-1.5,0,0,0,1,5.25061,0.546943,0,0,0,0,0.000922492,-0.00946773,12543,5.25058,0.547218,0.000922492,-0.00946773,8601,0,0,0,0,-0.501215,-1.09389
8649,0,0,0,0,0,0,0,0,0,-4.42421,-0.25356,0.0791849,0,0,0,0,0,5.25355,0.57579,299,24,299,24,399,36,286,124,-0.273119,-0.0483144,1.5356,-1.5,0,0,0,1,5.25143,0.549232,0,0,0,0,0.00166883,-0.00598721,12543,5.25139,0.549358,0.00166883,-0.00598721,8635,0,0,0,0,-0.502851,-1.09846
8663,0,0,0,0,0,0,0,0,0,-4.42421,-0.25356,0.0791849,0,0,0,0,0,5.25355,0.57579,299,24,299,24,399,36,286,124,-0.273077,-0.0483027,1.53658,-1.5,0,0,0,1,5.25145,0.549148,0,0,0,0,0.00166883,-0.00598721,12543,5.25139,0.549358,0.00166883,-0.00598721,8635,0,0,0,0,-0.502898,-1.0983
8680,0,0,0,0,0,0,0,0,0,-4.45116,-0.249771,0.0868459,0,0,0,0,0,5.24976,0.548842,299,24,299,24,399,37,286,124,-0.272408,-0.0489136,1.53772,-1.5,0,0,0,1,5.25065,0.547798,0,0,0,0,0.000820696,-0.00596336,12543,5.25064,0.547876,0.000820696,-0.00596336,8669,0,0,0,0,-0.501303,-1.0956
8695,0,0,0,0,0,0,0,0,0,-4.45116,-0.249771,0.0868459,0,0,0,0,0,5.24976,0.548842,299,24,299,24,399,37,286,124,-0.272364,-0.0489074,1.53871,-1.5,0,0,0,1,5.25066,0.547709,0,0,0,0,0.000820696,-0.00596336,12543,5.25064,0.547876,0.000820696,-0.00596336,8669,0,0,0,0,-0.501328,-1.09542
8716,0,0,0,0,0,0,0,0,0,-4.45116,-0.249771,0.0868459,0,0,0,0,0,5.24976,0.548842,299,24,299,24,399,37,286,124,-0.273491,-0.0488414,1.54004,-1.5,0,0,0,1,5.25074,0.547991,0,0,0,0,0.000933139,-0.00201997,12543,5.25072,0.548034,0.000933139,-0.00201997,8702,0,0,0,0,-0.501479,-1.09598
8731,0,0,0,0,0,0,0,0,0,-4.45116,-0.249771,0.0868459,0,0,0,0,0,5.24976,0.548842,299,24,299,24,399,37,286,124,-0.273475,-0.0488345,1.54095,-1.5,0,0,0,1,5.25075,0.547961,0,0,0,0,0.000933139,-0.00201997,12543,5.25072,0.548034,0.000933139,-0.00201997,8702,0,0,0,0,-0.501507,-1.09592
8752,0,0,0,0,0,0,0,0,0,-4.4314,-0.254104,0.079326,0,0,0,0,0,5.2541,0.568604,299,24,299,24,399,37,286,124,-0.276588,-0.0493374,1.54219,-1.5,0,0,0,1,5.2504,0.5512,0,0,0,0,-0.000374031,0.00395286,12543,5.25041,0.551117,-0.000374031,0.00395286,8738,0,0,0,0,-0.500802,-1.1024
8767,0,0,0,0,0,0,0,0,0,-4.4314,-0.254104,0.079326,0,0,0,0,0,5.2541,0.568604,299,24,299,24,399,37,286,124,-0.276618,-0.0493403,1.54304,-1.5,0,0,0,1,5.2504,0.551259,0,0,0,0,-0.000374031,0.00395286,12543,5.25041,0.551117,-0.000374031,0.00395286,8738,0,0,0,0,-0.500791,-1.10252
8788,0,0,0,0,0,0,0,0,0,-4.4064,-0.252843,0.0640729,0,0,0,0,0,5.25284,0.593598,299,24,299,24,399,37,286,124,-0.275895,-0.0476022,1.54419,-1.5,0,0,0,1,5.25237,0.551204,0,0,0,0,0.00262363,0.00117098,12769,5.25232,0.55118,0.00262363,0.00117098,8774,0,0,0,0,-0.504745,-1.10241
8808,0,0,0,0,0,0,0,0,0,-4.4064,-0.252843,0.0640729,0,0,0,0,0,5.25284,0.593598,299,24,299,24,399,37,286,124,-0.275465,-0.0474075,1.54524,-1.5,0,0,0,1,5.25257,0.549931,0,0,0,0,0.00300173,0.0019969,12769,5.25254,0.549911,0.00300173,0.0019969,8800,0,0,0,0,-0.505146,-1.09986
8823,0,0,0,0,0,0,0,0,0,-4.4064,-0.252843,0.0640729,0,0,0,0,0,5.25284,0.593598,299,24,299,24,399,37,286,124,-0.275479,-0.0473851,1.54599,-1.5,0,0,0,1,5.25262,0.549961,0,0,0,0,0.00300173,0.0019969,12769,5.25254,0.549911,0.00300173,0.0019969,8800,0,0,0,0,-0.505236,-1.09992
8843,0,0,0,0,0,0,0,0,0,-4.45116,-0.249771,0.0868459,0,0,0,0,0,5.24976,0.548842,299,24,299,24,399,37,286,124,-0.277528,-0.0472052,1.54697,-1.5,0,0,0,1,5.25279,0.552346,0,0,0,0,0.00338003,0.00541804,12543,5.25275,0.552287,0.00338003,0.00541804,8834,0,0,0,0,-0.505577,-1.10469
8859,0,0,0,0,0,0,0,0,0,-4.45116,-0.249771,0.0868459,0,0,0,0,0,5.24976,0.548842,299,24,299,24,399,37,286,124,-0.277571,-0.0471782,1.54773,-1.5,0,0,0,1,5.25284,0.552433,0,0,0,0,0.00338003,0.00541804,12543,5.25275,0.552287,0.00338003,0.00541804,8834,0,0,0,0,-0.505685,-1.10487
8880,0,0,0,0,0,0,0,0,0,-4.4064,-0.252843,0.0640729,0,0,0,0,0,5.25284,0.593598,299,24,299,24,399,37,286,124,-0.276372,-0.0471779,1.54868,-1.5,0,0,0,1,5.25294,0.551234,0,0,0,0,0.00317711,0.00302204,12769,5.2529,0.551191,0.00317711,0.00302204,8868,0,0,0,0,-0.505889,-1.10247
8894,0,0,0,0,0,0,0,0,0,-4.4064,-0.252843,0.0640729,0,0,0,0,0,5.25284,0.593598,299,24,299,24,399,37,286,124,-0.276394,-0.0471555,1.54929,-1.5,0,0,0,1,5.25299,0.551276,0,0,0,0,0.00317711,0.00302204,12769,5.2529,0.551191,0.00317711,0.00302204,8868,0,0,0,0,-0.505979,-1.10255
8916,0,0,0,0,0,0,0,0,0,-4.45116,-0.249771,0.0868459,0,0,0,0,0,5.24976,0.548842,299,24,299,24,399,37,286,124,-0.278328,-0.0473142,1.55019,-1.5,0,0,0,1,5.2528,0.553309,0,0,0,0,0.00292119,0.00669528,12543,5.25274,0.553169,0.00292119,0.00669528,8902,0,0,0,0,-0.5056,-1.10662
8930,0,0,0,0,0,0,0,0,0,-4.45116,-0.249771,0.0868459,0,0,0,0,0,5.24976,0.548842,299,24,299,24,399,37,286,124,-0.278379,-0.0472922,1.5508,-1.5,0,0,0,1,5.25284,0.55341,0,0,0,0,0.00292119,0.00669528,12543,5.25274,0.553169,0.00292119,0.00669528,8902,0,0,0,0,-0.505688,-1.10682
8949,0,0,0,0,0,0,0,0,0,-4.45116,-0.249771,0.0868459,0,0,0,0,0,5.24976,0.548842,299,24,299,24,399,37,286,124,-0.275316,-0.0485563,1.55155,-1.5,0,0,0,1,5.25126,0.550328,0,0,0,0,0.00103283,0.000606922,12543,5.25124,0.550317,0.00103283,0.000606922,8935,0,0,0,0,-0.50252,-1.10066
8964,0,0,0,0,0,0,0,0,0,-4.45116,-0.249771,0.0868459,0,0,0,0,0,5.24976,0.548842,299,24,299,24,399,37,286,124,-0.275321,-0.0485485,1.55212,-1.5,0,0,0,1,5.25128,0.550338,0,0,0,0,0.00103283,0.000606922,12543,5.25124,0.550317,0.00103283,0.000606922,8935,0,0,0,0,-0.502551,-1.10068
8985,0,0,0,0,0,0,0,0,0,-4.4314,-0.254104,0.079326,0,0,0,0,0,5.2541,0.568604,299,24,299,24,399,37,286,124,-0.276675,-0.0470146,1.55289,-1.5,0,0,0,1,5.25322,0.551561,0,0,0,0,0.00328223,0.00357698,12543,5.25315,0.551485,0.00328223,0.00357698,8971,0,0,0,0,-0.506437,-1.10312
9000,0,0,0,0,0,0,0,0,0,-4.4314,-0.254104,0.079326,0,0,0,0,0,5.2541,0.568604,299,24,299,24,399,37,286,124,-0.276701,-0.04699,1.55342,-1.5,0,0,0,1,5.25327,0.551614,0,0,0,0,0.00328223,0.00357698,12543,5.25315,0.551485,0.00328223,0.00357698,8971,0,0,0,0,-0.506536,-1.10323
9021,0,0,0,0,0,0,0,0,0,-4.45116,-0.249771,0.0868459,0,0,0,0,0,5.24976,0.548842,299,24,299,24,399,37,286,124,-0.276424,-0.05036,1.55411,-1.5,0,0,0,1,5.2498,0.551663,0,0,0,0,-0.00326272,0.00237057,12543,5.24987,0.551615,-0.00326272,0.00237057,9007,0,0,0,0,-0.4996,-1.10333
9041,0,0,0,0,0,0,0,0,0,-4.44061,-0.259928,0.0855341,0,0,0,0,0,5.25992,0.559389,301,24,301,24,399,36,286,124,-0.277257,-0.0471326,1.5548,-1.5,0,0,0,1,5.25322,0.552711,0,0,0,0,0.00281195,0.00360871,12543,5.25319,0.552675,0.00281195,0.00360871,9033,0,0,0,0,-0.506435,-1.10542
9056,0,0,0,0,0,0,0,0,0,-4.44061,-0.259928,0.0855341,0,0,0,0,0,5.25992,0.559389,301,24,301,24,399,36,286,124,-0.277285,-0.0471116,1.55528,-1.5,0,0,0,1,5.25326,0.552765,0,0,0,0,0.00281195,0.00360871,12543,5.25319,0.552675,0.00281195,0.00360871,9033,0,0,0,0,-0.506519,-1.10553
9076,0,0,0,0,0,0,0,0,0,-4.45116,-0.249771,0.0868459,0,0,0,0,0,5.24976,0.548842,299,24,299,24,399,37,286,124,-0.278151,-0.0502209,1.55589,-1.5,0,0,0,1,5.24988,0.553751,0,0,0,0,-0.00287395,0.00510064,12543,5.24991,0.553705,-0.00287395,0.00510064,9069,0,0,0,0,-0.499768,-1.1075
9092,0,0,0,0,0,0,0,0,0,-4.45116,-0.249771,0.0868459,0,0,0,0,0,5.24976,0.548842,299,24,299,24,399,37,286,124,-0.278189,-0.0502426,1.55633,-1.5,0,0,0,1,5.24984,0.553828,0,0,0,0,-0.00287395,0.00510064,12543,5.24991,0.553705,-0.00287395,0.00510064,9069,0,0,0,0,-0.499681,-1.10766
9112,0,0,0,0,0,0,0,0,0,-4.43746,-0.251605,0.0843493,0,0,0,0,0,5.2516,0.56254,299,24,299,24,398,36,286,124,-0.283113,-0.0483788,1.55693,-1.5,0,0,0,1,5.25146,0.559508,0,0,0,0,0.00133657,0.0134374,12432,5.25145,0.559347,0.00133657,0.0134374,9102,0,0,0,0,-0.502926,-1.11902
9127,0,0,0,0,0,0,0,0,0,-4.43746,-0.251605,0.0843493,0,0,0,0,0,5.2516,0.56254,299,24,299,24,398,36,286,124,-0.283214,-0.0483688,1.55734,-1.5,0,0,0,1,5.25148,0.559709,0,0,0,0,0.00133657,0.0134374,12432,5.25145,0.559347,0.00133657,0.0134374,9102,0,0,0,0,-0.502966,-1.11942
9148,0,0,0,0,0,0,0,0,0,-4.43746,-0.251605,0.0843493,0,0,0,0,0,5.2516,0.56254,299,24,299,24,398,36,286,124,-0.283688,-0.0482756,1.5579,-1.5,0,0,0,1,5.25143,0.560945,0,0,0,0,0.00181228,0.0128624,12432,5.25139,0.560675,0.00181228,0.0128624,9134,0,0,0,0,-0.502863,-1.12189
9163,0,0,0,0,0,0,0,0,0,-4.43746,-0.251605,0.0843493,0,0,0,0,0,5.2516,0.56254,299,24,299,24,398,36,286,124,-0.283785,-0.0482621,1.55828,-1.5,0,0,0,1,5.25146,0.561138,0,0,0,0,0.00181228,0.0128624,12432,5.25139,0.560675,0.00181228,0.0128624,9134,0,0,0,0,-0.502917,-1.12228
9184,0,0,0,0,0,0,0,0,0,-4.46511,-0.250821,0.0869076,0,0,0,0,0,5.25081,0.534894,299,24,299,24,399,39,286,124,-0.277486,-0.0484035,1.5588,-1.5,0,0,0,1,5.25133,0.55307,0,0,0,0,0.00150002,0.0038024,12543,5.2513,0.55299,0.00150002,0.0038024,9170,0,0,0,0,-0.502664,-1.10614
9199,0,0,0,0,0,0,0,0,0,-4.46511,-0.250821,0.0869076,0,0,0,0,0,5.25081,0.534894,299,24,299,24,399,39,286,124,-0.277514,-0.0483923,1.55916,-1.5,0,0,0,1,5.25135,0.553127,0,0,0,0,0.00150002,0.0038024,12543,5.2513,0.55299,0.00150002,0.0038024,9170,0,0,0,0,-0.502708,-1.10625
9219,0,0,0,0,0,0,0,0,0,-4.42253,-0.259172,0.0702871,0,0,0,0,0,5.25917,0.577466,301,24,301,24,399,37,286,124,-0.286492,-0.0480817,1.55962,-1.5,0,0,0,1,5.25164,0.56439,0,0,0,0,0.00216469,0.0171897,12769,5.2516,0.564046,0.00216469,0.0171897,9205,0,0,0,0,-0.503286,-1.12878
9239,0,0,0,0,0,0,0,0,0,-4.45116,-0.249771,0.0868459,0,0,0,0,0,5.24976,0.548842,299,24,299,24,399,37,286,124,-0.280387,-0.0484149,1.56006,-1.5,0,0,0,1,5.2516,0.556601,0,0,0,0,0.000921472,0.00834589,12543,5.25159,0.556542,0.000921472,0.00834589,9234,0,0,0,0,-0.503197,-1.1132
9255,0,0,0,0,0,0,0,0,0,-4.45116,-0.249771,0.0868459,0,0,0,0,0,5.24976,0.548842,299,24,299,24,399,37,286,124,-0.280454,-0.0484077,1.5604,-1.5,0,0,0,1,5.25161,0.556734,0,0,0,0,0.000921472,0.00834589,12543,5.25159,0.556542,0.000921472,0.00834589,9234,0,0,0,0,-0.503225,-1.11347
9275,0,0,0,0,0,0,0,0,0,-4.45116,-0.249771,0.0868459,0,0,0,0,0,5.24976,0.548842,299,24,299,24,399,37,286,124,-0.273432,-0.0497029,1.56081,-1.5,0,0,0,1,5.25064,0.548291,0,0,0,0,-0.00231838,-0.00285199,12543,5.25066,0.548316,-0.00231838,-0.00285199,9268,0,0,0,0,-0.501285,-1.09658
9290,0,0,0,0,0,0,0,0,0,-4.45116,-0.249771,0.0868459,0,0,0,0,0,5.24976,0.548842,299,24,299,24,399,37,286,124,-0.273411,-0.0497203,1.5611,-1.5,0,0,0,1,5.25061,0.548248,0,0,0,0,-0.00231838,-0.00285199,12543,5.25066,0.548316,-0.00231838,-0.00285199,9268,0,0,0,0,-0.501215,-1.0965
9311,0,0,0,0,0,0,0,0,0,-4.42421,-0.25356,0.0791849,0,0,0,0,0,5.25355,0.57579,299,24,299,24,399,36,286,124,-0.284025,-0.0481847,1.5615,-1.5,0,0,0,1,5.25177,0.561159,0,0,0,0,0.00149887,0.0137843,12543,5.25175,0.560993,0.00149887,0.0137843,9302,0,0,0,0,-0.50354,-1.12232
9327,0,0,0,0,0,0,0,0,0,-4.42421,-0.25356,0.0791849,0,0,0,0,0,5.25355,0.57579,299,24,299,24,399,36,286,124,-0.284136,-0.0481728,1.5618,-1.5,0,0,0,1,5.25179,0.561379,0,0,0,0,0.00149887,0.0137843,12543,5.25175,0.560993,0.00149887,0.0137843,9302,0,0,0,0,-0.503588,-1.12276
9347,0,0,0,0,0,0,0,0,0,-4.45116,-0.249771,0.0868459,0,0,0,0,0,5.24976,0.548842,299,24,299,24,399,37,286,124,-0.27608,-0.0499374,1.56215,-1.5,0,0,0,1,5.25032,0.551106,0,0,0,0,-0.00261269,0.00210827,12543,5.25037,0.551064,-0.00261269,0.00210827,9333,0,0,0,0,-0.500641,-1.10221
9363,0,0,0,0,0,0,0,0,0,-4.45116,-0.249771,0.0868459,0,0,0,0,0,5.24976,0.548842,299,24,299,24,399,37,286,124,-0.276096,-0.0499569,1.56241,-1.5,0,0,0,1,5.25028,0.551138,0,0,0,0,-0.00261269,0.00210827,12543,5.25037,0.551064,-0.00261269,0.00210827,9333,0,0,0,0,-0.500563,-1.10228
9383,0,0,0,0,0,0,0,0,0,-4.44256,-0.246576,0.0835218,0,0,0,0,0,5.24657,0.557439,298,24,298,24,399,37,286,124,-0.279935,-0.0502892,1.56276,-1.5,0,0,0,1,5.24976,0.556123,0,0,0,0,-0.00290872,0.00749162,12543,5.24983,0.555966,-0.00290872,0.00749162,9369,0,0,0,0,-0.49953,-1.11225
9399,0,0,0,0,0,0,0,0,0,-4.44256,-0.246576,0.0835218,0,0,0,0,0,5.24657,0.557439,298,24,298,24,399,37,286,124,-0.279991,-0.0503111,1.563,-1.5,0,0,0,1,5.24972,0.556236,0,0,0,0,-0.00290872,0.00749162,12543,5.24983,0.555966,-0.00290872,0.00749162,9369,0,0,0,0,-0.499442,-1.11247
9419,0,0,0,0,0,0,0,0,0,-4.43658,-0.260255,0.0704039,0,0,0,0,0,5.26025,0.563416,301,24,301,24,399,39,286,124,-0.281919,-0.0486286,1.56332,-1.5,0,0,0,1,5.25113,0.558778,0,0,0,0,0.00100803,0.01012,12769,5.25111,0.558565,0.00100803,0.01012,9405,0,0,0,0,-0.502255,-1.11756
9440,0,0,0,0,0,0,0,0,0,-4.46756,-0.256148,0.093185,0,0,0,0,0,5.25614,0.532442,301,24,301,24,399,37,286,124,-0.280714,-0.0477132,1.56363,-1.5,0,0,0,1,5.25221,0.557361,0,0,0,0,0.00249519,0.00813452,12543,5.25219,0.557296,0.00249519,0.00813452,9434,0,0,0,0,-0.50443,-1.11472
9456,0,0,0,0,0,0,0,0,0,-4.46756,-0.256148,0.093185,0,0,0,0,0,5.25614,0.532442,301,24,301,24,399,37,286,124,-0.280775,-0.0476946,1.56384,-1.5,0,0,0,1,5.25225,0.557483,0,0,0,0,0.00249519,0.00813452,12543,5.25219,0.557296,0.00249519,0.00813452,9434,0,0,0,0,-0.504504,-1.11497
9475,0,0,0,0,0,0,0,0,0,-4.48176,-0.257226,0.0933238,0,0,0,0,0,5.25722,0.518244,301,24,301,24,399,39,286,124,-0.279227,-0.0486597,1.56411,-1.5,0,0,0,1,5.25161,0.55529,0,0,0,0,-8.71845e-05,0.00633017,12543,5.25161,0.555233,-8.71845e-05,0.00633017,9468,0,0,0,0,-0.503226,-1.11058
9489,0,0,0,0,0,0,0,0,0,-4.48176,-0.257226,0.0933238,0,0,0,0,0,5.25722,0.518244,301,24,301,24,399,39,286,124,-0.279272,-0.0486602,1.5643,-1.5,0,0,0,1,5.25161,0.555378,0,0,0,0,-8.71845e-05,0.00633017,12543,5.25161,0.555233,-8.71845e-05,0.00633017,9468,0,0,0,0,-0.503224,-1.11076
9510,0,0,0,0,0,0,0,0,0,-4.46065,-0.247562,0.0904583,0,0,0,0,0,5.24756,0.539347,299,24,299,24,399,37,286,124,-0.265056,-0.0476479,1.56457,-1.5,0,0,0,1,5.25247,0.543135,0,0,0,0,0.00225367,-0.0260441,12543,5.25244,0.543421,0.00225367,-0.0260441,9501,0,0,0,0,-0.504932,-1.08627
9526,0,0,0,0,0,0,0,0,0,-4.46065,-0.247562,0.0904583,0,0,0,0,0,5.24756,0.539347,299,24,299,24,399,37,286,124,-0.264861,-0.047631,1.56475,-1.5,0,0,0,1,5.2525,0.542744,0,0,0,0,0.00225367,-0.0260441,12543,5.25244,0.543421,0.00225367,-0.0260441,9501,0,0,0,0,-0.505,-1.08549
9546,0,0,0,0,0,0,0,0,0,-4.46363,-0.250333,0.089074,0,0,0,0,0,5.25033,0.536373,299,25,299,25,399,37,286,124,-0.263261,-0.0502036,1.565,-1.5,0,0,0,1,5.25013,0.540722,0,0,0,0,-0.00329331,-0.0283994,12430,5.25017,0.54112,-0.00329331,-0.0283994,9534,0,0,0,0,-0.500257,-1.08144
9561,0,0,0,0,0,0,0,0,0,-4.46363,-0.250333,0.089074,0,0,0,0,0,5.25033,0.536373,299,25,299,25,399,37,286,124,-0.263048,-0.0502282,1.56518,-1.5,0,0,0,1,5.25008,0.540296,0,0,0,0,-0.00329331,-0.0283994,12430,5.25017,0.54112,-0.00329331,-0.0283994,9534,0,0,0,0,-0.500158,-1.08059
9582,0,0,0,0,0,0,0,0,0,-4.46363,-0.250333,0.089074,0,0,0,0,0,5.25033,0.536373,299,25,299,25,399,37,286,124,-0.258411,-0.0494808,1.56541,-1.5,0,0,0,1,5.25038,0.536124,0,0,0,0,-0.000909292,-0.0386047,12430,5.2504,0.536935,-0.000909292,-0.0386047,9568,0,0,0,0,-0.500764,-1.07225
9598,0,0,0,0,0,0,0,0,0,-4.46363,-0.250333,0.089074,0,0,0,0,0,5.25033,0.536373,299,25,299,25,399,37,286,124,-0.258102,-0.0494882,1.56558,-1.5,0,0,0,1,5.25037,0.535507,0,0,0,0,-0.000909292,-0.0386047,12430,5.2504,0.536935,-0.000909292,-0.0386047,9568,0,0,0,0,-0.500734,-1.07101
9618,0,0,0,0,0,0,0,0,0,-4.46756,-0.256148,0.093185,0,0,0,0,0,5.25614,0.532442,301,24,301,24,399,37,286,124,-0.25643,-0.0498326,1.56579,-1.5,0,0,0,1,5.25039,0.533922,0,0,0,0,-0.00234042,-0.0421261,12543,5.25044,0.534765,-0.00234042,-0.0421261,9604,0,0,0,0,-0.500788,-1.06784
9634,0,0,0,0,0,0,0,0,0,-4.46756,-0.256148,0.093185,0,0,0,0,0,5.25614,0.532442,301,24,301,24,399,37,286,124,-0.256114,-0.0498503,1.56593,-1.5,0,0,0,1,5.25036,0.53329,0,0,0,0,-0.00234042,-0.0421261,12543,5.25044,0.534765,-0.00234042,-0.0421261,9604,0,0,0,0,-0.500717,-1.06658
9654,0,0,0,0,0,0,0,0,0,-4.46511,-0.250821,0.0869076,0,0,0,0,0,5.25081,0.534894,299,24,299,24,399,39,286,124,-0.257597,-0.0489177,1.56614,-1.5,0,0,0,1,5.25093,0.534107,0,0,0,0,0.000246165,-0.0378245,12543,5.25093,0.534901,0.000246165,-0.0378245,9640,0,0,0,0,-0.501861,-1.06821
9675,0,0,0,0,0,0,0,0,0,-4.48176,-0.257226,0.0933238,0,0,0,0,0,5.25722,0.518244,301,24,301,24,399,39,286,124,-0.254954,-0.049224,1.56633,-1.5,0,0,0,1,5.25094,0.531483,0,0,0,0,-0.00100282,-0.043149,12543,5.25095,0.531785,-0.00100282,-0.043149,9670,0,0,0,0,-0.501884,-1.06297
9690,0,0,0,0,0,0,0,0,0,-4.48176,-0.257226,0.0933238,0,0,0,0,0,5.25722,0.518244,301,24,301,24,399,39,286,124,-0.254631,-0.0492314,1.56646,-1.5,0,0,0,1,5.25093,0.530836,0,0,0,0,-0.00100282,-0.043149,12543,5.25095,0.531785,-0.00100282,-0.043149,9670,0,0,0,0,-0.501855,-1.06167
9711,0,0,0,0,0,0,0,0,0,-4.46756,-0.256148,0.093185,0,0,0,0,0,5.25614,0.532442,301,24,301,24,399,37,286,124,-0.254117,-0.049128,1.56664,-1.5,0,0,0,1,5.25109,0.529964,0,0,0,0,-0.000913587,-0.0434578,12543,5.2511,0.530485,-0.000913587,-0.0434578,9701,0,0,0,0,-0.502179,-1.05993
9726,0,0,0,0,0,0,0,0,0,-4.46756,-0.256148,0.093185,0,0,0,0,0,5.25614,0.532442,301,24,301,24,399,37,286,124,-0.253791,-0.049135,1.56676,-1.5,0,0,0,1,5.25108,0.529312,0,0,0,0,-0.000913587,-0.0434578,12543,5.2511,0.530485,-0.000913587,-0.0434578,9701,0,0,0,0,-0.502151,-1.05862
9746,0,0,0,0,0,0,0,0,0,-4.44792,-0.260487,0.0857146,0,0,0,0,0,5.26048,0.552077,301,24,301,24,399,37,286,124,-0.252498,-0.0444992,1.56692,-1.5,0,0,0,1,5.25629,0.527922,0,0,0,0,0.00720202,-0.0458527,12543,5.25619,0.528564,0.00720202,-0.0458527,9734,0,0,0,0,-0.512579,-1.05584
9760,0,0,0,0,0,0,0,0,0,-4.44792,-0.260487,0.0857146,0,0,0,0,0,5.26048,0.552077,301,24,301,24,399,37,286,124,-0.252177,-0.0444487,1.56703,-1.5,0,0,0,1,5.25639,0.52728,0,0,0,0,0.00720202,-0.0458527,12543,5.25619,0.528564,0.00720202,-0.0458527,9734,0,0,0,0,-0.512781,-1.05456
9781,0,0,0,0,0,0,0,0,0,-4.48176,-0.257226,0.0933238,0,0,0,0,0,5.25722,0.518244,301,24,301,24,399,39,286,124,-0.252786,-0.0442718,1.56719,-1.5,0,0,0,1,5.25669,0.526914,0,0,0,0,0.00731826,-0.0426836,12543,5.25658,0.527511,0.00731826,-0.0426836,9769,0,0,0,0,-0.513372,-1.05383
9797,0,0,0,0,0,0,0,0,0,-4.48176,-0.257226,0.0933238,0,0,0,0,0,5.25722,0.518244,301,24,301,24,399,39,286,124,-0.252444,-0.0442134,1.5673,-1.5,0,0,0,1,5.2568,0.526231,0,0,0,0,0.00731826,-0.0426836,12543,5.25658,0.527511,0.00731826,-0.0426836,9769,0,0,0,0,-0.513606,-1.05246
9817,0,0,0,0,0,0,0,0,0,-4.45116,-0.249771,0.0868459,0,0,0,0,0,5.24976,0.548842,299,24,299,24,399,37,286,124,-0.255509,-0.0440474,1.56744,-1.5,0,0,0,1,5.25695,0.528375,0,0,0,0,0.0076788,-0.0347121,12543,5.2568,0.529069,0.0076788,-0.0347121,9803,0,0,0,0,-0.513909,-1.05675
9833,0,0,0,0,0,0,0,0,0,-4.45116,-0.249771,0.0868459,0,0,0,0,0,5.24976,0.548842,299,24,299,24,399,37,286,124,-0.255232,-0.0439859,1.56754,-1.5,0,0,0,1,5.25708,0.527819,0,0,0,0,0.0076788,-0.0347121,12543,5.2568,0.529069,0.0076788,-0.0347121,9803,0,0,0,0,-0.514155,-1.05564
9854,0,0,0,0,0,0,0,0,0,-4.46511,-0.250821,0.0869076,0,0,0,0,0,5.25081,0.534894,299,24,299,24,399,39,286,124,-0.252478,-0.0444639,1.56768,-1.5,0,0,0,1,5.25656,0.525276,0,0,0,0,0.00680168,-0.0406393,12543,5.25642,0.52613,0.00680168,-0.0406393,9840,0,0,0,0,-0.513121,-1.05055
9875,0,0,0,0,0,0,0,0,0,-4.48176,-0.257226,0.0933238,0,0,0,0,0,5.25722,0.518244,301,24,301,24,399,39,286,124,-0.253986,-0.0435088,1.56781,-1.5,0,0,0,1,5.25769,0.526046,0,0,0,0,0.00835326,-0.0361478,12543,5.25763,0.526336,0.00835326,-0.0361478,9869,0,0,0,0,-0.515389,-1.05209
9890,0,0,0,0,0,0,0,0,0,-4.48176,-0.257226,0.0933238,0,0,0,0,0,5.25722,0.518244,301,24,301,24,399,39,286,124,-0.253715,-0.0434461,1.5679,-1.5,0,0,0,1,5.25782,0.525504,0,0,0,0,0.00835326,-0.0361478,12543,5.25763,0.526336,0.00835326,-0.0361478,9869,0,0,0,0,-0.51564,-1.05101
9911,0,0,0,0,0,0,0,0,0,-4.46756,-0.256148,0.093185,0,0,0,0,0,5.25614,0.532442,301,24,301,24,399,37,286,124,-0.252336,-0.0438045,1.56802,-1.5,0,0,0,1,5.25751,0.524154,0,0,0,0,0.00753563,-0.0389618,12543,5.25742,0.524621,0.00753563,-0.0389618,9901,0,0,0,0,-0.515024,-1.04831
9926,0,0,0,0,0,0,0,0,0,-4.46756,-0.256148,0.093185,0,0,0,0,0,5.25614,0.532442,301,24,301,24,399,37,286,124,-0.252044,-0.043748,1.5681,-1.5,0,0,0,1,5.25763,0.523569,0,0,0,0,0.00753563,-0.0389618,12543,5.25742,0.524621,0.00753563,-0.0389618,9901,0,0,0,0,-0.51525,-1.04714
9947,0,0,0,0,0,0,0,0,0,-4.46363,-0.250333,0.089074,0,0,0,0,0,5.25033,0.536373,299,25,299,25,399,37,286,124,-0.251616,-0.0447084,1.56821,-1.5,0,0,0,1,5.25644,0.522696,0,0,0,0,0.00606013,-0.0389281,12430,5.25636,0.523241,0.00606013,-0.0389281,9935,0,0,0,0,-0.512884,-1.04539
9962,0,0,0,0,0,0,0,0,0,-4.46363,-0.250333,0.089074,0,0,0,0,0,5.25033,0.536373,299,25,299,25,399,37,286,124,-0.251324,-0.0446628,1.56829,-1.5,0,0,0,1,5.25653,0.522112,0,0,0,0,0.00606013,-0.0389281,12430,5.25636,0.523241,0.00606013,-0.0389281,9935,0,0,0,0,-0.513066,-1.04422
9983,0,0,0,0,0,0,0,0,0,-4.47789,-0.2514,0.0892394,0,0,0,0,0,5.25139,0.522106,299,25,299,25,399,39,286,124,-0.250941,-0.0447261,1.56839,-1.5,0,0,0,1,5.25629,0.521205,0,0,0,0,0.00630216,-0.0386453,12430,5.25615,0.522017,0.00630216,-0.0386453,9969,0,0,0,0,-0.512571,-1.04241
9999,0,0,0,0,0,0,0,0,0,-4.47789,-0.2514,0.0892394,0,0,0,0,0,5.25139,0.522106,299,25,299,25,399,39,286,124,-0.250632,-0.0446758,1.56847,-1.5,0,0,0,1,5.25639,0.520587,0,0,0,0,0.00630216,-0.0386453,12430,5.25615,0.522017,0.00630216,-0.0386453,9969,0,0,0,0,-0.512773,-1.04117
10018,0,0,0,0,0,0,0,0,0,-4.49831,-0.26333,0.104989,0,0,0,0,0,5.26332,0.501687,301,24,301,24,399,37,288,124,-0.249915,-0.0445373,1.56855,-1.5,0,0,0,1,5.25686,0.519589,0,0,0,0,0.00590728,-0.0395202,12321,5.25675,0.52034,0.00590728,-0.0395202,10005,0,0,0,0,-0.513721,-1.03918
10033,0,0,0,0,0,0,0,0,0,-4.49831,-0.26333,0.104989,0,0,0,0,0,5.26332,0.501687,301,24,301,24,399,37,288,124,-0.249618,-0.0444929,1.56862,-1.5,0,0,0,1,5.25695,0.518997,0,0,0,0,0.00590728,-0.0395202,12321,5.25675,0.52034,0.00590728,-0.0395202,10005,0,0,0,0,-0.513899,-1.03799
10054,0,0,0,0,0,0,0,0,0,-4.46756,-0.256148,0.093185,0,0,0,0,0,5.25614,0.532442,301,24,301,24,399,37,286,124,-0.249967,-0.0441739,1.56871,-1.5,0,0,0,1,5.25715,0.518829,0,0,0,0,0.00678463,-0.0377909,12543,5.25701,0.519622,0.00678463,-0.0377909,10040,0,0,0,0,-0.514297,-1.03766
10075,0,0,0,0,0,0,0,0,0,-4.48176,-0.257226,0.0933238,0,0,0,0,0,5.25722,0.518244,301,24,301,24,399,39,286,124,-0.24827,-0.0443508,1.5688,-1.5,0,0,0,1,5.25728,0.516903,0,0,0,0,0.00582456,-0.0407265,12543,5.25722,0.51731,0.00582456,-0.0407265,10067,0,0,0,0,-0.51455,-1.03381
10090,0,0,0,0,0,0,0,0,0,-4.48176,-0.257226,0.0933238,0,0,0,0,0,5.25722,0.518244,301,24,301,24,399,39,286,124,-0.247964,-0.0443071,1.56886,-1.5,0,0,0,1,5.25736,0.516292,0,0,0,0,0.00582456,-0.0407265,12543,5.25722,0.51731,0.00582456,-0.0407265,10067,0,0,0,0,-0.514725,-1.03258
10111,0,0,0,0,0,0,0,0,0,-4.47323,-0.248122,0.092723,0,0,0,0,0,5.24812,0.526768,299,25,299,25,399,37,286,124,-0.248494,-0.0446309,1.56894,-1.5,0,0,0,1,5.25689,0.516442,0,0,0,0,0.0054744,-0.0389097,12430,5.25682,0.516909,0.0054744,-0.0389097,10101,0,0,0,0,-0.51378,-1.03288
10126,0,0,0,0,0,0,0,0,0,-4.47323,-0.248122,0.092723,0,0,0,0,0,5.24812,0.526768,299,25,299,25,399,37,286,124,-0.248202,-0.0445899,1.56899,-1.5,0,0,0,1,5.25697,0.515859,0,0,0,0,0.0054744,-0.0389097,12430,5.25682,0.516909,0.0054744,-0.0389097,10101,0,0,0,0,-0.513944,-1.03172
10147,0,0,0,0,0,0,0,0,0,-4.48176,-0.257226,0.0933238,0,0,0,0,0,5.25722,0.518244,301,24,301,24,399,39,286,124,-0.248677,-0.0442311,1.56907,-1.5,0,0,0,1,5.25726,0.515723,0,0,0,0,0.00632616,-0.0367362,12543,5.25717,0.516237,0.00632616,-0.0367362,10135,0,0,0,0,-0.514527,-1.03145
10162,0,0,0,0,0,0,0,0,0,-4.48176,-0.257226,0.0933238,0,0,0,0,0,5.25722,0.518244,301,24,301,24,399,39,286,124,-0.248402,-0.0441836,1.56912,-1.5,0,0,0,1,5.25736,0.515172,0,0,0,0,0.00632616,-0.0367362,12543,5.25717,0.516237,0.00632616,-0.0367362,10135,0,0,0,0,-0.514717,-1.03034
10183,0,0,0,0,0,0,0,0,0,-4.46602,-0.245404,0.0872023,0,0,0,0,0,5.2454,0.533978,298,24,298,24,399,39,286,124,-0.248766,-0.0445299,1.56919,-1.5,0,0,0,1,5.25726,0.515333,0,0,0,0,0.00513571,-0.0356018,12543,5.25715,0.51608,0.00513571,-0.0356018,10169,0,0,0,0,-0.514523,-1.03067
10198,0,0,0,0,0,0,0,0,0,-4.46602,-0.245404,0.0872023,0,0,0,0,0,5.2454,0.533978,298,24,298,24,399,39,286,124,-0.248499,-0.0444913,1.56924,-1.5,0,0,0,1,5.25734,0.514799,0,0,0,0,0.00513571,-0.0356018,12543,5.25715,0.51608,0.00513571,-0.0356018,10169,0,0,0,0,-0.514677,-1.0296
10219,0,0,0,0,0,0,0,0,0,-4.45767,-0.255738,0.0815758,0,0,0,0,0,5.25573,0.542327,299,25,299,25,399,39,286,124,-0.249162,-0.0436248,1.5693,-1.5,0,0,0,1,5.25763,0.515224,0,0,0,0,0.00801976,-0.0338023,12430,5.25746,0.515934,0.00801976,-0.0338023,10205,0,0,0,0,-0.515259,-1.03045
10240,0,0,0,0,0,0,0,0,0,-4.47366,-0.261782,0.0929846,0,0,0,0,0,5.26178,0.526336,299,25,299,25,399,37,288,124,-0.256509,-0.0432722,1.56936,-1.5,0,0,0,1,5.25808,0.523909,0,0,0,0,0.00852239,-0.0217803,12210,5.25802,0.524083,0.00852239,-0.0217803,10234,0,0,0,0,-0.516167,-1.04782
10255,0,0,0,0,0,0,0,0,0,-4.47366,-0.261782,0.0929846,0,0,0,0,0,5.26178,0.526336,299,25,299,25,399,37,288,124,-0.256346,-0.0432083,1.5694,-1.5,0,0,0,1,5.25821,0.523582,0,0,0,0,0.00852239,-0.0217803,12210,5.25802,0.524083,0.00852239,-0.0217803,10234,0,0,0,0,-0.516422,-1.04716
10277,0,0,0,0,0,0,0,0,0,-4.49743,-0.260832,0.0993216,0,0,0,0,0,5.26083,0.502572,301,24,301,24,399,39,287,124,-0.256841,-0.0441361,1.56946,-1.5,0,0,0,1,5.25816,0.522919,0,0,0,0,0.00490725,-0.0184744,12432,5.25811,0.523103,0.00490725,-0.0184744,10269,0,0,0,0,-0.516326,-1.04584
10291,0,0,0,0,0,0,0,0,0,-4.49743,-0.260832,0.0993216,0,0,0,0,0,5.26083,0.502572,301,24,301,24,399,39,287,124,-0.256711,-0.0441018,1.5695,-1.5,0,0,0,1,5.25823,0.52266,0,0,0,0,0.00490725,-0.0184744,12432,5.25811,0.523103,0.00490725,-0.0184744,10269,0,0,0,0,-0.516463,-1.04532
10311,0,0,0,0,0,0,0,0,0,-4.47594,-0.264686,0.0939055,0,0,0,0,0,5.26468,0.524056,301,25,301,25,399,37,287,124,-0.257558,-0.0420822,1.56955,-1.5,0,0,0,1,5.25971,0.523545,0,0,0,0,0.010037,-0.0168575,12320,5.25962,0.523696,0.010037,-0.0168575,10304,0,0,0,0,-0.519412,-1.04709
10326,0,0,0,0,0,0,0,0,0,-4.47594,-0.264686,0.0939055,0,0,0,0,0,5.26468,0.524056,301,25,301,25,399,37,287,124,-0.257431,-0.0420068,1.56959,-1.5,0,0,0,1,5.25986,0.523292,0,0,0,0,0.010037,-0.0168575,12320,5.25962,0.523696,0.010037,-0.0168575,10304,0,0,0,0,-0.519713,-1.04658
10347,0,0,0,0,0,0,0,0,0,-4.46756,-0.256148,0.093185,0,0,0,0,0,5.25614,0.532442,301,24,301,24,399,37,286,124,-0.25884,-0.0452832,1.56964,-1.5,0,0,0,1,5.25717,0.524783,0,0,0,0,0.00230453,-0.0142078,12543,5.25714,0.524954,0.00230453,-0.0142078,10338,0,0,0,0,-0.51434,-1.04957
10363,0,0,0,0,0,0,0,0,0,-4.46756,-0.256148,0.093185,0,0,0,0,0,5.25614,0.532442,301,24,301,24,399,37,286,124,-0.258733,-0.045266,1.56967,-1.5,0,0,0,1,5.2572,0.52457,0,0,0,0,0.00230453,-0.0142078,12543,5.25714,0.524954,0.00230453,-0.0142078,10338,0,0,0,0,-0.514409,-1.04914
10383,0,0,0,0,0,0,0,0,0,-4.46065,-0.247562,0.0904583,0,0,0,0,0,5.24756,0.539347,299,24,299,24,399,37,286,124,-0.259031,-0.0465944,1.56972,-1.5,0,0,0,1,5.25595,0.524635,0,0,0,0,-0.000491278,-0.0131456,12543,5.25596,0.524911,-0.000491278,-0.0131456,10369,0,0,0,0,-0.511891,-1.04927
10399,0,0,0,0,0,0,0,0,0,-4.46065,-0.247562,0.0904583,0,0,0,0,0,5.24756,0.539347,299,24,299,24,399,37,286,124,-0.258926,-0.0465982,1.56975,-1.5,0,0,0,1,5.25594,0.524425,0,0,0,0,-0.000491278,-0.0131456,12543,5.25596,0.524911,-0.000491278,-0.0131456,10369,0,0,0,0,-0.511876,-1.04885
10419,0,0,0,0,0,0,0,0,0,-4.42253,-0.259172,0.0702871,0,0,0,0,0,5.25917,0.577466,301,24,301,24,399,37,286,124,-0.264486,-0.045956,1.5698,-1.5,0,0,0,1,5.25658,0.53064,0,0,0,0,0.00078932,-0.00333691,12769,5.25657,0.530707,0.00078932,-0.00333691,10405,0,0,0,0,-0.513165,-1.06128
