timestamp,A_x,A_y,A_z,P,Q,R,Phi,Theta,Psi,poseX,poseY,poseZ,state_X,state_Y,state_Z,state_VzB,state_Bx,state_By,state_Bz,p1_x,p1_y,p2_x,p2_y,p3_x,p3_y,p4_x,p4_y,roll,pitch,yaw,alt,targetHeading,highLevelState,lowLevelState,gateNumber,filtered_x,filtered_y,x_OT,y_OT,vx_OT,vy_OT,filtered_vx,filtered_vygateArearansac_corr_x,ransac_corr_y,ransac_corr_vx,ransac_corr_vy,detectionTimeStamppTermX,dTermX,pTermY,dTermY,vxcmd,vycmd
6430,-0.550781,0,-4.28613,-0.00262579,0.000680822,-0.00121111,0.066142,-0.00715822,-0.800162,0,0,0,2.25857e-05,1.74518e-05,0.00419128,0.00324185,-0.799674,0,0,0,0,0,0,0,0,0,0,0.177963,-0.348534,0,-1.5,8.40368e-38,0,0,0,2.25857e-05,1.74518e-05,0,0,0,0,0.00419128,0.00324185,1.9603e-19,0,0,0,0,0,0,0,0,0,1,-1.9197e-05
6445,-0.550781,0,5.71973,-0.00144068,0.000598983,-0.000524973,0.0645646,-0.00643481,-0.801357,0,0,0,0.000156162,0.000121228,0.0118284,0.00921312,-0.800895,0,0,0,0,0,0,0,0,0,0,0.175745,-0.34808,0,-1.5,8.40368e-38,0,0,0,0.000156162,0.000121228,0,0,0,0,0.0118284,0.00921312,1.9603e-19,0,0,0,0,0,0,0,0,0,1,-0.000133351
6463,-0.550781,0,-1.02539,-0.00240693,0.000466004,-0.000865545,0.0631896,-0.00579862,-0.802522,0,0,0,0.000471267,0.000367912,0.0206619,0.0162165,-0.802024,0,0,0,0,0,0,0,0,0,0,0.17309,-0.347653,0,-1.5,8.40368e-38,0,0,0,0.000471267,0.000367912,0,0,0,0,0.0206619,0.0162165,1.9603e-19,0,0,0,0,0,0,0,0,0,1,-0.000404703
6480,-0.550781,0,2.04492,-0.00217297,0.00116637,-0.00118296,0.062229,-0.00534591,-0.803488,0,0,0,0.000941598,0.000738811,0.0291719,0.0230599,-0.80329,0,0,0,0,0,0,0,0,0,0,0.170519,-0.347261,0,-1.5,8.40368e-38,0,0,0,0.000941598,0.000738811,0,0,0,0,0.0291719,0.0230599,1.9603e-19,0,0,0,0,0,0,0,0,0,1,-0.000812692
6496,-0.550781,0,2.25879,-0.00224989,0.00115163,-0.000770673,0.0621885,-0.00532141,-0.803519,0,0,0,0.00148347,0.00116876,0.0365337,0.0290375,-0.803506,0,0,0,0,0,0,0,0,0,0,0.168112,-0.347108,0,-1.5,8.40368e-38,0,0,0,0.00148347,0.00116876,0,0,0,0,0.0365337,0.0290375,1.9603e-19,0,0,0,0,0,0,0,0,0,1,-0.00128564
6512,-0.550781,0,6.53516,-0.00228299,0.00036718,-0.00142489,0.062157,-0.00531324,-0.803534,0,0,0,0.00209774,0.00165814,0.0433781,0.034597,-0.803519,0,0,0,0,0,0,0,0,0,0,0.165824,-0.347015,0,-1.5,8.40368e-38,0,0,0,0.00209774,0.00165814,0,0,0,0,0.0433781,0.034597,1.9603e-19,0,0,0,0,0,0,0,0,0,1,-0.00182396
6527,-0.550781,0,-3.51953,-0.0015716,-0.000139501,-0.00199211,0.0621348,-0.00531134,-0.803563,0,0,0,0.00286792,0.00227356,0.0506173,0.0404792,-0.803563,0,0,0,0,0,0,0,0,0,0,0.163391,-0.346932,0,-1.5,8.40368e-38,0,0,0,0.00286792,0.00227356,0,0,0,0,0.0506173,0.0404792,1.9603e-19,0,0,0,0,0,0,0,0,0,1,-0.00250091
6543,-0.550781,0,0.104492,-0.00180177,0.001227,-0.00150163,0.0621184,-0.00530583,-0.80357,0,0,0,0.00375329,0.00298257,0.0577959,0.046312,-0.80357,0,0,0,0,0,0,0,0,0,0,0.160953,-0.346875,0,-1.5,8.40368e-38,0,0,0,0.00375329,0.00298257,0,0,0,0,0.0577959,0.046312,1.9603e-19,0,0,0,0,0,0,0,0,0,1,-0.00328082
6559,-0.550781,0,6.72754,-0.00222382,0.000100809,-0.00193683,0.0620922,-0.00529146,-0.803596,0,0,0,0.00475064,0.00378257,0.0649124,0.0520958,-0.803596,0,0,0,0,0,0,0,0,0,0,0.15852,-0.346835,0,-1.5,8.40368e-38,0,0,0,0.00475064,0.00378257,0,0,0,0,0.0649124,0.0520958,1.9603e-19,0,0,0,0,0,0,0,0,0,1,-0.00416083
6575,-0.550781,0,-0.0283203,-0.0012075,0.000900701,-0.000977016,0.0620836,-0.00528425,-0.803611,0,0,0,0.00586124,0.00467463,0.071969,0.0578326,-0.803611,0,0,0,0,0,0,0,0,0,0,0.156087,-0.346817,0,-1.5,8.40368e-38,0,0,0,0.00586124,0.00467463,0,0,0,0,0.071969,0.0578326,1.9603e-19,0,0,0,0,0,0,0,0,0,1,-0.00514209
6590,-0.550781,0,-1.61035,-0.00205831,0.00182847,-0.000121766,0.0620597,-0.00526598,-0.803612,0,0,0,0.00700431,0.00559378,0.0785307,0.0631689,-0.803612,0,0,0,0,0,0,0,0,0,0,0.153805,-0.346821,0,-1.5,8.40368e-38,0,0,0,0.00700431,0.00559378,0,0,0,0,0.0785307,0.0631689,1.9603e-19,0,0,0,0,0,0,0,0,0,1,-0.00615316
6606,-0.550781,0,5.9834,-0.00199849,0.000528175,-0.00142188,0.0620072,-0.00525476,-0.803656,0,0,0,0.00833161,0.00666209,0.085471,0.0688153,-0.803634,0,0,0,0,0,0,0,0,0,0,0.151376,-0.346841,0,-1.5,8.40368e-38,0,0,0,0.00833161,0.00666209,0,0,0,0,0.085471,0.0688153,1.9603e-19,0,0,0,0,0,0,0,0,0,1,-0.0073283
6622,-0.550781,0,-2.25391,-0.00303912,0.00162739,-0.000871663,0.061975,-0.00523712,-0.803678,0,0,0,0.00967615,0.00774515,0.0919236,0.0740654,-0.803656,0,0,0,0,0,0,0,0,0,0,0.149101,-0.346877,0,-1.5,8.40368e-38,0,0,0,0.00967615,0.00774515,0,0,0,0,0.0919236,0.0740654,1.9603e-19,0,0,0,0,0,0,0,0,0,1,-0.00851967
6694,-0.550781,0,-1.93066,-0.0022873,0.000732241,-0.000514692,0.0618509,-0.00520132,-0.803768,0,0,0,0.0184058,0.0147957,0.12301,0.0993723,-0.803768,0,0,0,0,0,0,0,0,0,0,0.137788,-0.347418,0,-1.5,8.40368e-38,0,0,0,0.0184058,0.0147957,0,0,0,0,0.12301,0.0993723,1.9603e-19,0,0,0,0,0,0,0,0,0,1,-0.0162753
6706,-0.550781,0,-0.350586,-0.00160072,0.000178311,-0.00158613,0.0618423,-0.00519352,-0.803788,0,0,0,0.0199181,0.0160176,0.127931,0.103381,-0.803788,0,0,0,0,0,0,0,0,0,0,0.135977,-0.347525,0,-1.5,8.40368e-38,0,0,0,0.0199181,0.0160176,0,0,0,0,0.127931,0.103381,1.9603e-19,0,0,0,0,0,0,0,0,0,1,-0.0176193
6719,-0.550781,0,4.74609,-0.0019197,0.000747864,-0.00133346,0.061815,-0.00518245,-0.803808,0,0,0,0.021624,0.0173964,0.133228,0.107698,-0.803808,0,0,0,0,0,0,0,0,0,0,0.134015,-0.347653,0,-1.5,8.40368e-38,0,0,0,0.021624,0.0173964,0,0,0,0,0.133228,0.107698,1.9603e-19,0,0,0,0,0,0,0,0,0,1,-0.0191361
6735,-0.550781,0,-2.64844,-0.0010109,0.00128356,-0.000769371,0.0618026,-0.00517585,-0.803824,0,0,0,0.0238217,0.0191734,0.139698,0.112971,-0.803824,0,0,0,0,0,0,0,0,0,0,0.131599,-0.34783,0,-1.5,8.40368e-38,0,0,0,0.0238217,0.0191734,0,0,0,0,0.139698,0.112971,1.9603e-19,0,0,0,0,0,0,0,0,0,1,-0.0210908
6751,-0.550781,0,-5.23633,-0.00139941,0.00105167,-0.00190042,0.0617782,-0.00516468,-0.803845,0,0,0,0.0259754,0.0209155,0.145714,0.117876,-0.803845,0,0,0,0,0,0,0,0,0,0,0.129336,-0.348011,0,-1.5,8.40368e-38,0,0,0,0.0259754,0.0209155,0,0,0,0,0.145714,0.117876,1.9603e-19,0,0,0,0,0,0,0,0,0,1,-0.023007
6766,-0.550781,0,-5.35059,-0.00303369,0.0014364,-0.000887806,0.061747,-0.00514855,-0.803855,0,0,0,0.0283737,0.0228561,0.152078,0.123067,-0.803855,0,0,0,0,0,0,0,0,0,0,0.126922,-0.348224,0,-1.5,8.40368e-38,0,0,0,0.0283737,0.0228561,0,0,0,0,0.152078,0.123067,1.9603e-19,0,0,0,0,0,0,0,0,0,1,-0.0251417
6782,-0.550781,0,-0.638672,-0.000673525,0.00186035,-0.00133219,0.0617353,-0.00512988,-0.803879,0,0,0,0.0308733,0.0248793,0.158387,0.128215,-0.803879,0,0,0,0,0,0,0,0,0,0,0.124511,-0.348454,0,-1.5,8.40368e-38,0,0,0,0.0308733,0.0248793,0,0,0,0,0.158387,0.128215,1.9603e-19,0,0,0,0,0,0,0,0,0,1,-0.0273672
6798,-0.550781,0,5.29395,-0.00217291,0.00141942,-0.0018839,0.0617175,-0.00511281,-0.803905,0,0,0,0.0334713,0.0269828,0.164641,0.133322,-0.803905,0,0,0,0,0,0,0,0,0,0,0.122102,-0.348702,0,-1.5,8.40368e-38,0,0,0,0.0334713,0.0269828,0,0,0,0,0.164641,0.133322,1.9603e-19,0,0,0,0,0,0,0,0,0,1,-0.0296811
6814,-0.550781,0,-4.34668,-0.00237681,0.000438279,-0.0019471,0.0616848,-0.00508292,-0.803953,0,0,0,0.0361689,0.0291677,0.170842,0.138388,-0.80393,0,0,0,0,0,0,0,0,0,0,0.119695,-0.348968,0,-1.5,8.40368e-38,0,0,0,0.0361689,0.0291677,0,0,0,0,0.170842,0.138388,1.9603e-19,0,0,0,0,0,0,0,0,0,1,-0.0320845
6839,-0.550781,0,-5.69434,-0.00224908,0.000127644,-0.00131793,0.0616673,-0.00508271,-0.803974,0,0,0,0.0406189,0.0327737,0.180441,0.146237,-0.803974,0,0,0,0,0,0,0,0,0,0,0.115925,-0.349425,0,-1.5,8.40368e-38,0,0,0,0.0406189,0.0327737,0,0,0,0,0.180441,0.146237,1.9603e-19,0,0,0,0,0,0,0,0,0,1,-0.0360511
6860,-0.550781,0,-5.69434,-0.00224908,0.000127644,-0.00131793,0.0616673,-0.00508271,-0.803974,-4.60138,0.922708,-0.257348,0.0445233,0.0359388,0.188402,0.152745,-0.803974,0,0,177,76,177,76,276,69,181,170,0.112759,-0.349842,0,-1.5,8.40368e-38,0,0,0,0.0445233,0.0359388,0,0,0,0,0.188402,0.152745,11009,0,0,0,0,0,0,0,0,0,1,-0.0395327
6875,-0.550781,0,-0.822266,-0.00249894,0.000844173,-0.000996018,0.0616166,-0.00505483,-0.804023,-4.60138,0.922708,-0.257348,0.0474038,0.0382745,0.19403,0.157347,-0.804023,0,0,177,76,177,76,276,69,181,170,0.11051,-0.350152,0,-1.5,8.40368e-38,0,0,0,0.0474038,0.0382745,0,0,0,0,0.19403,0.157347,11009,0,0,0,0,0,0,0,0,0,1,-0.042102
6890,-0.550781,0,2.9375,-0.00100959,0.000844405,-0.00129051,0.0616072,-0.00504778,-0.804043,-4.60138,0.922708,-0.257348,0.0503683,0.040679,0.199609,0.161913,-0.804043,0,0,177,76,177,76,276,69,181,170,0.108259,-0.35048,0,-1.5,8.40368e-38,0,0,0,0.0503683,0.040679,0,0,0,0,0.199609,0.161913,11009,0,0,0,0,0,0,0,0,0,1,-0.0447468
6907,-0.550781,0,-4.97363,-0.00291069,0.0011058,-0.000745088,0.0615875,-0.00504341,-0.804057,-4.60138,0.922708,-0.257348,0.0538307,0.043488,0.205881,0.167046,-0.804057,0,0,177,76,177,76,276,69,181,170,0.105706,-0.350871,0,-1.5,8.40368e-38,0,0,0,0.0538307,0.043488,0,0,0,0,0.205881,0.167046,11009,0,0,0,0,0,0,0,0,0,1,-0.0478368
6922,-0.550781,0,6.24707,-0.0018232,0.000915746,-0.00252849,0.0615609,-0.00504234,-0.804089,-4.60138,0.922708,-0.257348,0.0569706,0.046036,0.211366,0.171535,-0.804089,0,0,177,76,177,76,276,69,181,170,0.103459,-0.351229,0,-1.5,8.40368e-38,0,0,0,0.0569706,0.046036,0,0,0,0,0.211366,0.171535,11009,0,0,0,0,0,0,0,0,0,1,-0.0506396
6939,-0.550781,0,6.24707,-0.0018232,0.000915746,-0.00252849,0.0615609,-0.00504234,-0.804089,-4.60138,0.922708,-0.257348,0.0606317,0.0490077,0.217533,0.176583,-0.804089,0,0,177,76,177,76,276,69,181,170,0.100906,-0.351657,0,-1.5,8.40368e-38,0,0,0,0.0606317,0.0490077,0,0,0,0,0.217533,0.176583,11009,0,0,0,0,0,0,0,0,0,1,-0.0539085
6955,-0.550781,0,-2.58789,-0.00309897,0.000175699,-0.00219243,0.0614858,-0.00501,-0.804155,-4.60138,0.922708,-0.257348,0.064171,0.0518811,0.223288,0.181292,-0.804155,0,0,177,76,177,76,276,69,181,170,0.0985167,-0.352069,0,-1.5,8.40368e-38,0,0,0,0.064171,0.0518811,0,0,0,0,0.223288,0.181292,11009,0,0,0,0,0,0,0,0,0,1,-0.0570692
6971,-0.550781,0,6.2666,-0.00347462,-0.000421948,-0.00136505,0.0614479,-0.00501079,-0.804176,-4.57581,0.917026,-0.257112,0.067572,0.0546428,0.22863,0.185669,-0.804176,0,0,175,73,175,73,276,69,183,170,0.0962726,-0.352476,0,-1.5,8.40368e-38,0,0,0,0.067572,0.0546428,0,0,0,0,0.22863,0.185669,11211,0,0,0,0,0,0,0,0,0,1,-0.0601071
6987,-0.550781,0,0.946289,-0.00164589,0.00083979,-0.00145971,0.0614387,-0.00500144,-0.804198,-4.57581,0.917026,-0.257112,0.0715249,0.0578534,0.234634,0.190586,-0.804198,0,0,175,73,175,73,276,69,183,170,0.0937302,-0.352954,0,-1.5,8.40368e-38,0,0,0,0.0715249,0.0578534,0,0,0,0,0.234634,0.190586,11211,0,0,0,0,0,0,0,0,0,1,-0.0636387
7009,-0.550781,0,0.946289,-0.00164589,0.00083979,-0.00145971,0.0614387,-0.00500144,-0.804198,-4.57581,0.917026,-0.257112,0.076562,0.0619456,0.241985,0.196609,-0.804198,0,0,175,73,175,73,276,69,183,170,0.0905814,-0.353574,0,-1.5,8.40368e-38,0,0,0,0.076562,0.0619456,0,0,0,0,0.241985,0.196609,11211,0,0,0,0,0,0,0,0,0,1,-0.0681402
7024,-0.550781,0,0.685547,-0.00246298,0.00101549,-0.00229598,0.061367,-0.00498919,-0.80427,-4.57581,0.917026,-0.257112,0.080492,0.0651391,0.247528,0.20115,-0.80427,0,0,175,73,175,73,276,69,183,170,0.0881995,-0.354057,0,-1.5,8.40368e-38,0,0,0,0.080492,0.0651391,0,0,0,0,0.247528,0.20115,11211,0,0,0,0,0,0,0,0,0,1,-0.071653
7040,-0.550781,0,-1.2666,-0.00198393,0.00154474,-0.00202174,0.0613516,-0.00497378,-0.804288,-4.5654,0.92361,-0.262456,0.0845102,0.0684048,0.253018,0.205648,-0.804288,0,0,172,75,172,75,276,69,183,169,0.0858111,-0.35456,0,-1.5,8.40368e-38,0,0,0,0.0845102,0.0684048,0,0,0,0,0.253018,0.205648,11400,0,0,0,0,0,0,0,0,0,1,-0.0752453
7056,-0.550781,0,1.22559,-0.00220499,0.00169205,-0.00157695,0.0613266,-0.00495148,-0.804303,-4.5654,0.92361,-0.262456,0.0886158,0.0717421,0.25846,0.210111,-0.804303,0,0,172,75,172,75,276,69,183,169,0.0834233,-0.35508,0,-1.5,8.40368e-38,0,0,0,0.0886158,0.0717421,0,0,0,0,0.25846,0.210111,11400,0,0,0,0,0,0,0,0,0,1,-0.0789163
7072,-0.550781,0,-7.15332,-0.00101054,0.000832899,-0.00152871,0.0613137,-0.00494786,-0.804322,-4.57848,0.916347,-0.269932,0.0928062,0.0751491,0.263853,0.214537,-0.804322,0,0,174,78,174,78,277,69,183,170,0.0810381,-0.355615,0,-1.5,8.40368e-38,0,0,0,0.0928062,0.0751491,0,0,0,0,0.263853,0.214537,11413,0,0,0,0,0,0,0,0,0,1,-0.082664
7088,-0.550781,0,1.91113,-0.00330973,0.0011396,-0.000501772,0.0612856,-0.00492661,-0.804335,-4.57848,0.916347,-0.269932,0.0970824,0.0786264,0.269201,0.218926,-0.804335,0,0,174,78,174,78,277,69,183,170,0.0786531,-0.356166,0,-1.5,8.40368e-38,0,0,0,0.0970824,0.0786264,0,0,0,0,0.269201,0.218926,11413,0,0,0,0,0,0,0,0,0,1,-0.0864891
7104,-0.550781,0,2.37402,-0.00226194,0.00120889,-0.00114487,0.0612327,-0.00490085,-0.804375,-4.57411,0.917815,-0.265583,0.101445,0.0821751,0.274503,0.223281,-0.804335,0,0,174,76,174,76,276,69,183,170,0.0762662,-0.356734,0,-1.5,8.40368e-38,0,0,0,0.101445,0.0821751,0,0,0,0,0.274503,0.223281,11413,0,0,0,0,0,0,0,0,0,1,-0.0903926
7119,-0.550781,0,4.94531,-0.00166718,0.00103683,-0.000743929,0.0612167,-0.00489275,-0.804387,-4.57411,0.917815,-0.265583,0.105611,0.0855635,0.27943,0.22733,-0.804375,0,0,174,76,174,76,276,69,183,170,0.0740379,-0.357277,0,-1.5,8.40368e-38,0,0,0,0.105611,0.0855635,0,0,0,0,0.27943,0.22733,11413,0,0,0,0,0,0,0,0,0,1,-0.0941198
7134,-0.550781,0,-2.9248,-0.00353825,4.22392e-05,-0.0014499,0.0611826,-0.00488625,-0.804404,-4.61183,0.914281,-0.254752,0.109849,0.0890123,0.284315,0.231346,-0.804387,0,0,177,75,177,75,277,69,184,170,0.0718062,-0.357836,0,-1.5,8.40368e-38,0,0,0,0.109849,0.0890123,0,0,0,0,0.284315,0.231346,11009,0,0,0,0,0,0,0,0,0,1,-0.0979135
7150,-0.550781,0,5.69727,-0.00256752,0.00109456,-0.00118068,0.0611599,-0.00487619,-0.804423,-4.61183,0.914281,-0.254752,0.114451,0.0927572,0.289479,0.235593,-0.804423,0,0,177,75,177,75,277,69,184,170,0.0694321,-0.358445,0,-1.5,8.40368e-38,0,0,0,0.114451,0.0927572,0,0,0,0,0.289479,0.235593,11009,0,0,0,0,0,0,0,0,0,1,-0.102033
7166,-0.550781,0,2.24707,-0.00197293,0.000323464,5.76502e-05,0.0611441,-0.00487119,-0.804426,-4.61179,0.91435,-0.254734,0.119137,0.096571,0.294599,0.239806,-0.804426,0,0,177,75,177,75,277,69,184,170,0.0670527,-0.359071,0,-1.5,8.40368e-38,0,0,0,0.119137,0.096571,0,0,0,0,0.294599,0.239806,11009,0,0,0,0,0,0,0,0,0,1,-0.106228
7182,-0.550781,0,2.0332,-0.00325394,0.00190577,-0.0027844,0.0611131,-0.00485119,-0.804461,-4.61179,0.91435,-0.254734,0.123902,0.10045,0.299675,0.243983,-0.804461,0,0,177,75,177,75,277,69,184,170,0.0646809,-0.35971,0,-1.5,8.40368e-38,0,0,0,0.123902,0.10045,0,0,0,0,0.299675,0.243983,11009,0,0,0,0,0,0,0,0,0,1,-0.110496
7198,-0.550781,0,1.8291,-0.00158151,0.0014026,-0.00182767,0.0610978,-0.00484073,-0.80448,-4.62689,0.931523,-0.24936,0.128748,0.104396,0.304705,0.248126,-0.80448,0,0,175,75,175,75,277,69,184,170,0.0623074,-0.360365,0,-1.5,8.40368e-38,0,0,0,0.128748,0.104396,0,0,0,0,0.304705,0.248126,10908,0,0,0,0,0,0,0,0,0,1,-0.114836
7214,-0.550781,0,-0.399414,-0.00184326,0.00109737,-0.00188845,0.060791,-0.00463867,-0.804443,-4.62689,0.931523,-0.24936,0.133674,0.108408,0.309692,0.252234,-0.804506,0,0,175,75,175,75,277,69,184,170,0.0599367,-0.361033,0,-1.5,8.40368e-38,0,0,0,0.133674,0.108408,0,0,0,0,0.309692,0.252234,10908,0,0,0,0,0,0,0,0,0,1,-0.119249
7230,-0.550781,0,5.62598,-0.00243543,0.000585869,-0.00114975,0.0610321,-0.00480867,-0.804543,-4.59415,0.916417,-0.256768,0.138681,0.112487,0.314611,0.256306,-0.804443,0,0,175,75,175,75,277,69,184,170,0.0575554,-0.361726,0,-1.5,8.40368e-38,0,0,0,0.138681,0.112487,0,0,0,0,0.314611,0.256306,11211,0,0,0,0,0,0,0,0,0,1,-0.123736
7246,-0.550781,0,-2.1377,-0.00142023,0.0010313,-0.00193003,0.0610174,-0.00480172,-0.804576,-4.59415,0.916417,-0.256768,0.143765,0.116629,0.31951,0.260346,-0.804576,0,0,175,75,175,75,277,69,184,170,0.0552077,-0.362417,0,-1.5,8.40368e-38,0,0,0,0.143765,0.116629,0,0,0,0,0.31951,0.260346,11211,0,0,0,0,0,0,0,0,0,1,-0.128292
7262,-0.550781,0,-5.54102,-0.00115799,0.00113381,-0.00170423,0.0610077,-0.00479369,-0.8046,-4.5941,0.916488,-0.256718,0.148928,0.120837,0.324368,0.264353,-0.8046,0,0,175,75,175,75,277,69,184,170,0.05284,-0.363129,0,-1.5,8.40368e-38,0,0,0,0.148928,0.120837,0,0,0,0,0.324368,0.264353,11211,0,0,0,0,0,0,0,0,0,1,-0.13292
7278,-0.550781,0,-4.03027,-0.00176489,0.00091622,-0.00177083,0.0609901,-0.00478691,-0.804618,-4.5941,0.916488,-0.256718,0.154167,0.125107,0.329184,0.268327,-0.804618,0,0,175,75,175,75,277,69,184,170,0.0504728,-0.363856,0,-1.5,8.40368e-38,0,0,0,0.154167,0.125107,0,0,0,0,0.329184,0.268327,11211,0,0,0,0,0,0,0,0,0,1,-0.137618
7294,-0.550781,0,-2.99121,-0.00147888,0.0014353,-0.00133602,0.0609731,-0.0047623,-0.804641,-4.61158,0.914611,-0.254472,0.159483,0.12944,0.333958,0.272269,-0.804641,0,0,177,75,177,75,277,69,184,170,0.0481075,-0.364596,0,-1.5,8.40368e-38,0,0,0,0.159483,0.12944,0,0,0,0,0.333958,0.272269,11009,0,0,0,0,0,0,0,0,0,1,-0.142384
7310,-0.550781,0,-2.99121,-0.00147888,0.0014353,-0.00133602,0.0609731,-0.0047623,-0.804641,-4.61158,0.914611,-0.254472,0.164876,0.133838,0.338692,0.27618,-0.804641,0,0,177,75,177,75,277,69,184,170,0.0457381,-0.365351,0,-1.5,8.40368e-38,0,0,0,0.164876,0.133838,0,0,0,0,0.338692,0.27618,11009,0,0,0,0,0,0,0,0,0,1,-0.147222
7325,-0.550781,0,-2.99121,-0.00147888,0.0014353,-0.00133602,0.0609731,-0.0047623,-0.804641,-4.59402,0.916546,-0.256585,0.169999,0.138016,0.343096,0.279818,-0.804641,0,0,175,75,175,75,277,69,184,170,0.0435176,-0.366071,0,-1.5,8.40368e-38,0,0,0,0.169999,0.138016,0,0,0,0,0.343096,0.279818,11211,0,0,0,0,0,0,0,0,0,1,-0.151817
7340,-0.550781,0,4.26562,-0.00113502,0.00161808,-0.00166389,0.0609229,-0.00470661,-0.804728,-4.59402,0.916546,-0.256585,0.175188,0.142248,0.347466,0.283429,-0.804641,0,0,175,75,175,75,277,69,184,170,0.0412974,-0.366803,0,-1.5,8.40368e-38,0,0,0,0.175188,0.142248,0,0,0,0,0.347466,0.283429,11211,0,0,0,0,0,0,0,0,0,1,-0.156473
7356,-0.550781,0,2.78809,-0.00238491,0.000626307,-0.000716611,0.0609055,-0.00470017,-0.804738,-4.59402,0.916546,-0.256585,0.180796,0.146823,0.352081,0.287251,-0.804738,0,0,175,75,175,75,277,69,184,170,0.0389496,-0.367594,0,-1.5,8.40368e-38,0,0,0,0.180796,0.146823,0,0,0,0,0.352081,0.287251,11211,0,0,0,0,0,0,0,0,0,1,-0.161505
7372,-0.550781,0,-2.16406,-0.00267331,0.000581934,-0.000551561,0.0608809,-0.0046926,-0.804748,-4.5855,0.915063,-0.261774,0.186476,0.151458,0.356656,0.291041,-0.804748,0,0,175,75,175,75,277,69,184,170,0.036587,-0.368402,0,-1.5,8.40368e-38,0,0,0,0.186476,0.151458,0,0,0,0,0.356656,0.291041,11211,0,0,0,0,0,0,0,0,0,1,-0.166604
7388,-0.550781,0,-1.92285,-0.00235524,0.00195303,-0.00109364,0.0608573,-0.00468018,-0.804766,-4.5855,0.915063,-0.261774,0.19223,0.156154,0.36119,0.294799,-0.804766,0,0,175,75,175,75,277,69,184,170,0.0342268,-0.369223,0,-1.5,8.40368e-38,0,0,0,0.19223,0.156154,0,0,0,0,0.36119,0.294799,11211,0,0,0,0,0,0,0,0,0,1,-0.171769
7405,-0.550781,0,-1.92285,-0.00235524,0.00195303,-0.00109364,0.0608573,-0.00468018,-0.804766,-4.61263,0.91792,-0.253404,0.198425,0.161211,0.365967,0.298759,-0.804766,0,0,177,76,177,76,276,69,183,170,0.0317158,-0.370111,0,-1.5,8.40368e-38,0,0,0,0.198425,0.161211,0,0,0,0,0.365967,0.298759,11110,0,0,0,0,0,0,0,0,0,1,-0.177332
7421,-0.550781,0,4.63477,-0.00233034,0.000864497,-0.00203795,0.0608033,-0.00463816,-0.804839,-4.61263,0.91792,-0.253404,0.204327,0.16603,0.370422,0.302455,-0.804814,0,0,177,76,177,76,276,69,183,170,0.0293633,-0.370958,0,-1.5,8.40368e-38,0,0,0,0.204327,0.16603,0,0,0,0,0.370422,0.302455,11110,0,0,0,0,0,0,0,0,0,1,-0.182633
7437,-0.550781,0,4.81738,-0.00304764,0.000523578,-0.00158639,0.0607853,-0.00463052,-0.804854,-4.61942,0.929991,-0.245175,0.2103,0.170907,0.374835,0.306121,-0.804839,0,0,175,75,175,75,276,69,183,169,0.0270079,-0.37182,0,-1.5,8.40368e-38,0,0,0,0.2103,0.170907,0,0,0,0,0.374835,0.306121,11000,0,0,0,0,0,0,0,0,0,1,-0.187998
7453,-0.550781,0,4.45996,-0.00221387,0.00097653,-0.000767749,0.0607797,-0.00462149,-0.804861,-4.61942,0.929991,-0.245175,0.216343,0.175844,0.379209,0.309755,-0.804861,0,0,175,75,175,75,276,69,183,169,0.0246533,-0.372695,0,-1.5,8.40368e-38,0,0,0,0.216343,0.175844,0,0,0,0,0.379209,0.309755,11000,0,0,0,0,0,0,0,0,0,1,-0.193428
7469,-0.550781,0,4.45996,-0.00221387,0.00097653,-0.000767749,0.0607797,-0.00462149,-0.804861,-4.61942,0.929991,-0.245175,0.222456,0.180838,0.383546,0.313361,-0.804861,0,0,175,75,175,75,276,69,183,169,0.0222949,-0.373582,0,-1.5,8.40368e-38,0,0,0,0.222456,0.180838,0,0,0,0,0.383546,0.313361,11000,0,0,0,0,0,0,0,0,0,1,-0.198921
7485,-0.550781,0,0.429688,-0.00170941,0.000739266,-0.00281948,0.060753,-0.00459381,-0.804902,-4.61942,0.929991,-0.245175,0.228637,0.185888,0.387846,0.316937,-0.804902,0,0,175,75,175,75,276,69,183,169,0.0199457,-0.374482,0,-1.5,8.40368e-38,0,0,0,0.228637,0.185888,0,0,0,0,0.387846,0.316937,11000,0,0,0,0,0,0,0,0,0,1,-0.204477
7500,-0.550781,0,0.429688,-0.00170941,0.000739266,-0.00281948,0.060753,-0.00459381,-0.804902,-4.61942,0.929991,-0.245175,0.234493,0.190674,0.391843,0.320264,-0.804902,0,0,175,75,175,75,276,69,183,169,0.0177367,-0.375337,0,-1.5,8.40368e-38,0,0,0,0.234493,0.190674,0,0,0,0,0.391843,0.320264,11000,0,0,0,0,0,0,0,0,0,1,-0.209741
7517,-0.550781,0,3.63379,-0.00197627,0.0012763,-0.000961541,0.0606964,-0.00456987,-0.80495,-4.61942,0.929991,-0.245175,0.241204,0.19616,0.396334,0.324003,-0.804935,0,0,175,75,175,75,276,69,183,169,0.0152405,-0.37632,0,-1.5,8.40368e-38,0,0,0,0.241204,0.19616,0,0,0,0,0.396334,0.324003,11000,0,0,0,0,0,0,0,0,0,1,-0.215776
7532,-0.550781,0,3.63379,-0.00197627,0.0012763,-0.000961541,0.0606964,-0.00456987,-0.80495,-4.59259,0.922289,-0.255941,0.247187,0.201051,0.40026,0.327273,-0.80495,0,0,175,75,175,75,276,69,183,170,0.0130368,-0.377198,0,-1.5,8.40368e-38,0,0,0,0.247187,0.201051,0,0,0,0,0.40026,0.327273,11211,0,0,0,0,0,0,0,0,0,1,-0.221157
7548,-0.550781,0,-3.35547,-0.00311506,0.00128486,-0.00143543,0.0606449,-0.00454792,-0.804999,-4.59259,0.922289,-0.255941,0.253634,0.206323,0.404415,0.330735,-0.80495,0,0,175,75,175,75,276,69,183,170,0.0106835,-0.378147,0,-1.5,8.40368e-38,0,0,0,0.253634,0.206323,0,0,0,0,0.404415,0.330735,11211,0,0,0,0,0,0,0,0,0,1,-0.226955
7564,-0.550781,0,-0.442383,-0.00183506,0.00112582,-0.00103873,0.0606207,-0.00454204,-0.805006,-4.55094,0.925133,-0.265307,0.260148,0.211651,0.408528,0.334165,-0.805006,0,0,172,76,172,76,276,67,183,170,0.00834379,-0.379108,0,-1.5,8.40368e-38,0,0,0,0.260148,0.211651,0,0,0,0,0.408528,0.334165,11639,0,0,0,0,0,0,0,0,0,1,-0.232816
7580,-0.550781,0,5.55273,-0.00157851,-0.000783935,-0.000637474,0.0606025,-0.00454444,-0.805025,-4.55094,0.925133,-0.265307,0.266726,0.217032,0.412605,0.337565,-0.805025,0,0,172,76,172,76,276,67,183,170,0.00599819,-0.380081,0,-1.5,8.40368e-38,0,0,0,0.266726,0.217032,0,0,0,0,0.412605,0.337565,11639,0,0,0,0,0,0,0,0,0,1,-0.238736
7596,-0.550781,0,-0.874023,-0.00100626,4.29453e-06,-0.00196807,0.0605942,-0.00454832,-0.805046,-4.64814,0.933701,-0.238891,0.27337,0.222469,0.416648,0.340937,-0.805046,0,0,177,75,177,75,277,69,183,170,0.00365343,-0.381065,0,-1.5,8.40368e-38,0,0,0,0.27337,0.222469,0,0,0,0,0.416648,0.340937,10706,0,0,0,0,0,0,0,0,0,1,-0.244716
7612,-0.550781,0,-1.87891,-0.00138471,0.000801817,-0.00163627,0.0605782,-0.00454523,-0.805062,-4.64814,0.933701,-0.238891,0.280077,0.227958,0.420658,0.344279,-0.805062,0,0,177,75,177,75,277,69,183,170,0.00130877,-0.382061,0,-1.5,8.40368e-38,0,0,0,0.280077,0.227958,0,0,0,0,0.420658,0.344279,10706,0,0,0,0,0,0,0,0,0,1,-0.250754
7628,-0.550781,0,-3.49219,-0.00244307,0.0010429,-0.00150179,0.0605511,-0.00453794,-0.805076,-4.57844,0.913767,-0.25233,0.286848,0.2335,0.424633,0.347593,-0.805076,0,0,175,75,175,75,276,67,184,169,-0.00103525,-0.383068,0,-1.5,8.40368e-38,0,0,0,0.286848,0.2335,0,0,0,0,0.424633,0.347593,11424,0,0,0,0,0,0,0,0,0,1,-0.25685
7644,-0.550781,0,5.19043,-0.00183005,0.00126738,-0.00151489,0.0605276,-0.00449779,-0.80512,-4.57844,0.913767,-0.25233,0.293683,0.239095,0.428574,0.350879,-0.805076,0,0,175,75,175,75,276,67,184,169,-0.00338124,-0.384087,0,-1.5,8.40368e-38,0,0,0,0.293683,0.239095,0,0,0,0,0.428574,0.350879,11424,0,0,0,0,0,0,0,0,0,1,-0.263005
7660,-0.550781,0,-1.98828,-0.00348472,0.000527964,-0.000410764,0.0604934,-0.00449115,-0.805131,-4.60254,0.918718,-0.25028,0.300581,0.244744,0.432477,0.354141,-0.805131,0,0,175,75,175,75,276,69,184,169,-0.00571466,-0.385119,0,-1.5,8.40368e-38,0,0,0,0.300581,0.244744,0,0,0,0,0.432477,0.354141,11200,0,0,0,0,0,0,0,0,0,1,-0.269218
7676,-0.550781,0,-6.74023,-0.00282276,0.00152498,-0.00166313,0.0604636,-0.00448203,-0.805156,-4.60254,0.918718,-0.25028,0.30754,0.250443,0.436343,0.357373,-0.805156,0,0,175,75,175,75,276,69,184,169,-0.00805237,-0.386161,0,-1.5,8.40368e-38,0,0,0,0.30754,0.250443,0,0,0,0,0.436343,0.357373,11200,0,0,0,0,0,0,0,0,0,1,-0.275487
7692,-0.550781,0,4.33789,-0.0012521,0.000639682,-0.00162736,0.0604489,-0.00447564,-0.805174,-4.57636,0.917342,-0.263657,0.31456,0.256193,0.440174,0.360577,-0.805174,0,0,174,78,174,78,276,67,184,170,-0.01039,-0.387215,0,-1.5,8.40368e-38,0,0,0,0.31456,0.256193,0,0,0,0,0.440174,0.360577,11639,0,0,0,0,0,0,0,0,0,1,-0.281813
7709,-0.550781,0,4.33789,-0.0012521,0.000639682,-0.00162736,0.0604489,-0.00447564,-0.805174,-4.57636,0.917342,-0.263657,0.321643,0.261996,0.443974,0.363756,-0.805174,0,0,174,78,174,78,276,67,184,170,-0.0127314,-0.38828,0,-1.5,8.40368e-38,0,0,0,0.321643,0.261996,0,0,0,0,0.443974,0.363756,11639,0,0,0,0,0,0,0,0,0,1,-0.288196
7728,-0.550781,0,-3.1543,-0.00145302,0.000557293,-0.00201783,0.0604093,-0.00445611,-0.805233,-4.57636,0.917342,-0.263657,0.330589,0.269327,0.448683,0.367696,-0.805233,0,0,174,78,174,78,276,67,184,170,-0.0156469,-0.389629,0,-1.5,8.40368e-38,0,0,0,0.330589,0.269327,0,0,0,0,0.448683,0.367696,11639,0,0,0,0,0,0,0,0,0,1,-0.296259
7830,-0.550781,0,1.66602,-0.00272819,0.00160488,-0.00125619,0.0602873,-0.00438657,-0.805399,-4.60174,0.919258,-0.250303,0.378602,0.308713,0.472401,0.387556,-0.805399,0,0,177,76,177,76,276,67,183,170,-0.0308313,-0.396914,0,-1.5,8.40368e-38,0,0,0,0.378602,0.308713,0,0,0,0,0.472401,0.387556,11227,0,0,0,0,0,0,0,0,0,1,-0.339584
7891,-0.550781,0,-5.64062,-0.00223087,0.000185065,-0.00200682,0.0602044,-0.00435286,-0.805481,-4.58441,0.927733,-0.263157,0.408128,0.332951,0.485785,0.398802,-0.805459,0,0,174,78,174,78,276,67,183,170,-0.0397961,-0.401432,0,-1.5,8.40368e-38,0,0,0,0.408128,0.332951,0,0,0,0,0.485785,0.398802,11433,0,0,0,0,0,0,0,0,0,1,-0.366246
7907,-0.550781,0,-2.95801,-0.00176828,0.000756617,-0.00205942,0.0601915,-0.00434532,-0.805498,-4.61193,0.918721,-0.252607,0.415936,0.339361,0.489183,0.401661,-0.805481,0,0,177,76,177,76,276,69,183,170,-0.0421199,-0.402631,0,-1.5,8.40368e-38,0,0,0,0.415936,0.339361,0,0,0,0,0.489183,0.401661,11110,0,0,0,0,0,0,0,0,0,1,-0.373297
7923,-0.550781,0,4.16016,-0.00235306,0.000685705,-0.00124531,0.0601724,-0.00433485,-0.805515,-4.61193,0.918721,-0.252607,0.423797,0.345816,0.492549,0.404495,-0.805515,0,0,177,76,177,76,276,69,183,170,-0.0444399,-0.403841,0,-1.5,8.40368e-38,0,0,0,0.423797,0.345816,0,0,0,0,0.492549,0.404495,11110,0,0,0,0,0,0,0,0,0,1,-0.380398
7938,-0.550781,0,-0.199219,-0.00187107,0.00113701,-0.00203975,0.0601548,-0.0043302,-0.805538,-4.60148,0.919552,-0.25002,0.431215,0.351909,0.495678,0.407131,-0.805538,0,0,177,76,177,76,276,67,183,170,-0.0466159,-0.404984,0,-1.5,8.40368e-38,0,0,0,0.431215,0.351909,0,0,0,0,0.495678,0.407131,11227,0,0,0,0,0,0,0,0,0,1,-0.3871
7955,-0.550781,0,-4.05566,-0.00273346,0.00172649,-0.000979514,0.0601285,-0.00431588,-0.805551,-4.60148,0.919552,-0.25002,0.439181,0.358452,0.498986,0.409919,-0.805551,0,0,177,76,177,76,276,67,183,170,-0.0489387,-0.406212,0,-1.5,8.40368e-38,0,0,0,0.439181,0.358452,0,0,0,0,0.498986,0.409919,11227,0,0,0,0,0,0,0,0,0,1,-0.394298
7970,-0.550781,0,-4.05566,-0.00273346,0.00172649,-0.000979514,0.0601285,-0.00431588,-0.805551,-4.62843,0.922743,-0.252987,0.447199,0.36504,0.502266,0.412684,-0.805551,0,0,177,78,177,78,276,69,183,170,-0.0512638,-0.407449,0,-1.5,8.40368e-38,0,0,0,0.447199,0.36504,0,0,0,0,0.502266,0.412684,11110,0,0,0,0,0,0,0,0,0,1,-0.401544
7986,-0.550781,0,-0.200195,-0.00292116,0.000900417,-0.00158204,0.0600794,-0.0043006,-0.8056,-4.62843,0.922743,-0.252987,0.45527,0.371672,0.505516,0.415426,-0.8056,0,0,177,78,177,78,276,69,183,170,-0.0535767,-0.408699,0,-1.5,8.40368e-38,0,0,0,0.45527,0.371672,0,0,0,0,0.505516,0.415426,11110,0,0,0,0,0,0,0,0,0,1,-0.408839
8002,-0.550781,0,-1.30566,-0.00152265,0.000156592,-0.00143351,0.0600579,-0.0043019,-0.805634,-4.61538,0.927761,-0.244868,0.463392,0.378347,0.508737,0.418143,-0.8056,0,0,177,76,177,76,276,69,181,170,-0.0558994,-0.409955,0,-1.5,8.40368e-38,0,0,0,0.463392,0.378347,0,0,0,0,0.508737,0.418143,11009,0,0,0,0,0,0,0,0,0,1,-0.416182
8022,-0.550781,0,5.46094,-0.00099651,0.00086876,-0.00104735,0.0600484,-0.00429185,-0.805651,-4.61538,0.927761,-0.244868,0.473108,0.386334,0.512527,0.421341,-0.805651,0,0,177,76,177,76,276,69,181,170,-0.0586458,-0.411462,0,-1.5,8.40368e-38,0,0,0,0.473108,0.386334,0,0,0,0,0.512527,0.421341,11009,0,0,0,0,0,0,0,0,0,1,-0.424967
8037,-0.550781,0,5.46094,-0.00099651,0.00086876,-0.00104735,0.0600484,-0.00429185,-0.805651,-4.60208,0.919356,-0.249861,0.481341,0.393104,0.515687,0.424008,-0.805651,0,0,175,75,175,75,276,69,184,169,-0.0609669,-0.412739,0,-1.5,8.40368e-38,0,0,0,0.481341,0.393104,0,0,0,0,0.515687,0.424008,11200,0,0,0,0,0,0,0,0,0,1,-0.432414
8054,-0.550781,0,-6.77246,-0.000735691,0.00155843,-0.0023062,0.0600451,-0.00426822,-0.805703,-4.60208,0.919356,-0.249861,0.490145,0.400343,0.519016,0.42682,-0.805703,0,0,175,75,175,75,276,69,184,169,-0.0634203,-0.414108,0,-1.5,8.40368e-38,0,0,0,0.490145,0.400343,0,0,0,0,0.519016,0.42682,11200,0,0,0,0,0,0,0,0,0,1,-0.440377
8066,-0.550781,0,3.74316,-0.0019821,0.000506324,-0.00154159,0.0600235,-0.00426025,-0.805728,-4.58992,0.917205,-0.256339,0.495868,0.40505,0.521151,0.428625,-0.805728,0,0,175,75,175,75,276,69,184,170,-0.0650086,-0.415,0,-1.5,8.40368e-38,0,0,0,0.495868,0.40505,0,0,0,0,0.521151,0.428625,11312,0,0,0,0,0,0,0,0,0,1,-0.445555
8081,-0.550781,0,3.74316,-0.0019821,0.000506324,-0.00154159,0.0600235,-0.00426025,-0.805728,-4.58992,0.917205,-0.256339,0.503713,0.411503,0.524044,0.431072,-0.805728,0,0,175,75,175,75,276,69,184,170,-0.067183,-0.41622,0,-1.5,8.40368e-38,0,0,0,0.503713,0.411503,0,0,0,0,0.524044,0.431072,11312,0,0,0,0,0,0,0,0,0,1,-0.452653
8097,-0.550781,0,3.43457,-0.00155685,0.00128037,-0.00181623,0.0599902,-0.00424221,-0.805776,-4.62392,0.921263,-0.245735,0.512658,0.418861,0.527295,0.433822,-0.805776,0,0,177,76,177,76,276,69,183,169,-0.0696352,-0.417616,0,-1.5,8.40368e-38,0,0,0,0.512658,0.418861,0,0,0,0,0.527295,0.433822,11000,0,0,0,0,0,0,0,0,0,1,-0.460748
8112,-0.550781,0,-6.0127,-0.00188931,0.000847783,-0.000765967,0.05996,-0.00421483,-0.805808,-4.62392,0.921263,-0.245735,0.520595,0.425392,0.530137,0.436228,-0.805776,0,0,177,76,177,76,276,69,183,169,-0.0718081,-0.418854,0,-1.5,8.40368e-38,0,0,0,0.520595,0.425392,0,0,0,0,0.530137,0.436228,11000,0,0,0,0,0,0,0,0,0,1,-0.467931
8129,-0.550781,0,2.75684,-0.00220855,0.00115638,-0.00176284,0.0599504,-0.00420348,-0.805828,-4.56124,0.922746,-0.260951,0.529642,0.432838,0.533329,0.438934,-0.805828,0,0,174,78,174,78,276,67,181,168,-0.0742575,-0.42027,0,-1.5,8.40368e-38,0,0,0,0.529642,0.432838,0,0,0,0,0.533329,0.438934,11413,0,0,0,0,0,0,0,0,0,1,-0.476121
8145,-0.550781,0,-1.85645,-0.00168443,0.000587916,-0.000746883,0.0599322,-0.00419743,-0.805844,-4.56124,0.922746,-0.260951,0.538206,0.439886,0.536302,0.441458,-0.805844,0,0,174,78,174,78,276,67,181,168,-0.0765692,-0.42161,0,-1.5,8.40368e-38,0,0,0,0.538206,0.439886,0,0,0,0,0.536302,0.441458,11413,0,0,0,0,0,0,0,0,0,1,-0.483875
8161,-0.550781,0,-5.14941,-0.00182717,0.00103028,-0.0011292,0.059909,-0.00418642,-0.805856,-4.6126,0.925238,-0.254391,0.546817,0.446975,0.539248,0.443961,-0.805856,0,0,174,78,174,78,276,69,184,169,-0.0788807,-0.422958,0,-1.5,8.40368e-38,0,0,0,0.546817,0.446975,0,0,0,0,0.539248,0.443961,11300,0,0,0,0,0,0,0,0,0,1,-0.491673
8177,-0.550781,0,-4.04688,-0.0031022,-0.000223483,-0.00120628,0.0598741,-0.00419032,-0.80588,-4.6126,0.925238,-0.254391,0.554932,0.453657,0.541986,0.446286,-0.80588,0,0,174,78,174,78,276,69,184,169,-0.0810436,-0.424231,0,-1.5,8.40368e-38,0,0,0,0.554932,0.453657,0,0,0,0,0.541986,0.446286,11300,0,0,0,0,0,0,0,0,0,1,-0.499023
8193,-0.550781,0,6.67188,-0.00238006,0.000850093,-0.00193981,0.0598578,-0.00418276,-0.80591,-4.6126,0.925238,-0.254391,0.56418,0.461273,0.545061,0.448898,-0.80591,0,0,174,78,174,78,276,69,184,169,-0.0834932,-0.425684,0,-1.5,8.40368e-38,0,0,0,0.56418,0.461273,0,0,0,0,0.545061,0.448898,11300,0,0,0,0,0,0,0,0,0,1,-0.5074
8209,-0.550781,0,-3.3457,-0.00162927,0.0011082,-0.00161341,0.0598246,-0.00415899,-0.805941,-4.6126,0.925238,-0.254391,0.572382,0.468028,0.54775,0.451183,-0.805927,0,0,174,78,174,78,276,69,184,169,-0.0856559,-0.426972,0,-1.5,8.40368e-38,0,0,0,0.572382,0.468028,0,0,0,0,0.54775,0.451183,11300,0,0,0,0,0,0,0,0,0,1,-0.514831
8225,-0.550781,0,3.1709,-0.00133326,0.0010259,-0.00101916,0.0598148,-0.00415264,-0.80596,-4.6126,0.925238,-0.254391,0.581727,0.475727,0.550769,0.453752,-0.80596,0,0,174,78,174,78,276,69,184,169,-0.0881027,-0.428443,0,-1.5,8.40368e-38,0,0,0,0.581727,0.475727,0,0,0,0,0.550769,0.453752,11300,0,0,0,0,0,0,0,0,0,1,-0.5233
8240,-0.550781,0,-2.28711,-0.00148774,0.000747437,-0.00126853,0.059797,-0.0041365,-0.805973,-4.6126,0.925238,-0.254391,0.590014,0.482555,0.553408,0.455999,-0.805973,0,0,174,78,174,78,276,69,184,169,-0.0902644,-0.429748,0,-1.5,8.40368e-38,0,0,0,0.590014,0.482555,0,0,0,0,0.553408,0.455999,11300,0,0,0,0,0,0,0,0,0,1,-0.53081
8257,-0.550781,0,-2.84766,-0.00219553,0.000941735,-0.00255402,0.0597927,-0.00412448,-0.805995,-4.6126,0.925238,-0.254391,0.599455,0.490336,0.556372,0.458527,-0.805995,0,0,174,78,174,78,276,69,184,169,-0.0927125,-0.431236,0,-1.5,8.40368e-38,0,0,0,0.599455,0.490336,0,0,0,0,0.556372,0.458527,11300,0,0,0,0,0,0,0,0,0,1,-0.539369
8272,-0.550781,0,-1.38574,2.96146e-05,0.00194886,-0.000787552,0.0597967,-0.00411055,-0.80601,-4.62746,0.931263,-0.249572,0.607825,0.497234,0.558964,0.460739,-0.80601,0,0,174,78,174,78,276,69,184,169,-0.0948729,-0.432557,0,-1.5,8.40368e-38,0,0,0,0.607825,0.497234,0,0,0,0,0.558964,0.460739,11200,0,0,0,0,0,0,0,0,0,1,-0.546958
8288,-0.550781,0,1.39551,-0.00223263,0.000901845,-0.00239452,0.0597766,-0.00409663,-0.80604,-4.62746,0.931263,-0.249572,0.616797,0.50463,0.561706,0.463082,-0.80604,0,0,174,78,174,78,276,69,184,169,-0.0971735,-0.433975,0,-1.5,8.40368e-38,0,0,0,0.616797,0.50463,0,0,0,0,0.561706,0.463082,11200,0,0,0,0,0,0,0,0,0,1,-0.555093
8304,-0.550781,0,2.79199,-0.00101852,0.00152894,-0.00155552,0.0597605,-0.00406075,-0.806069,-4.54902,0.917626,-0.267719,0.625812,0.512063,0.564424,0.465406,-0.80604,0,0,172,75,172,75,276,69,184,170,-0.0994812,-0.435399,0,-1.5,8.40368e-38,0,0,0,0.625812,0.512063,0,0,0,0,0.564424,0.465406,11615,0,0,0,0,0,0,0,0,0,1,-0.563269
8321,-0.550781,0,-1.48633,-0.00230623,0.00155656,-0.000782792,0.0597456,-0.00405035,-0.806083,-4.54902,0.917626,-0.267719,0.634871,0.519534,0.567117,0.467713,-0.806069,0,0,172,75,172,75,276,69,184,170,-0.101781,-0.436834,0,-1.5,8.40368e-38,0,0,0,0.634871,0.519534,0,0,0,0,0.567117,0.467713,11615,0,0,0,0,0,0,0,0,0,1,-0.571487
8336,-0.550781,0,-1.7041,-0.0020728,-0.000247702,-0.00151859,0.0597225,-0.0040526,-0.806108,-4.6112,0.919425,-0.251658,0.643973,0.527041,0.569784,0.470001,-0.806108,0,0,177,76,177,76,276,69,183,170,-0.104077,-0.438279,0,-1.5,8.40368e-38,0,0,0,0.643973,0.527041,0,0,0,0,0.569784,0.470001,11110,0,0,0,0,0,0,0,0,0,1,-0.579746
8352,-0.550781,0,6.625,-0.00241419,0.000243001,-0.00168462,0.0596977,-0.00404876,-0.806127,-4.6112,0.919425,-0.251658,0.653117,0.534585,0.572427,0.472268,-0.806127,0,0,177,76,177,76,276,69,183,170,-0.106378,-0.43973,0,-1.5,8.40368e-38,0,0,0,0.653117,0.534585,0,0,0,0,0.572427,0.472268,11110,0,0,0,0,0,0,0,0,0,1,-0.588044
8368,-0.550781,0,6.625,-0.00241419,0.000243001,-0.00168462,0.0596977,-0.00404876,-0.806127,-4.64002,0.925494,-0.24562,0.662303,0.542164,0.575045,0.474515,-0.806127,0,0,177,78,177,78,276,69,183,169,-0.108682,-0.441186,0,-1.5,8.40368e-38,0,0,0,0.662303,0.542164,0,0,0,0,0.575045,0.474515,11000,0,0,0,0,0,0,0,0,0,1,-0.596381
8384,-0.500977,0,-4.99121,-0.00150888,0.000661185,-0.00135048,0.0596635,-0.00404017,-0.806162,-4.64002,0.925494,-0.24562,0.67153,0.549779,0.577641,0.476742,-0.806162,0,0,177,78,177,78,276,69,183,169,-0.110976,-0.442653,0,-1.5,8.40368e-38,0,0,0,0.67153,0.549779,0,0,0,0,0.577641,0.476742,11000,0,0,0,0,0,0,0,0,0,1,-0.604757
8400,-0.473633,0,-0.158203,-0.0022853,0.00196298,-0.000170822,0.0596512,-0.00401594,-0.806175,-4.58719,0.920472,-0.256072,0.680798,0.55743,0.580212,0.478951,-0.806175,0,0,174,78,174,78,276,67,184,169,-0.113275,-0.444127,0,-1.5,8.40368e-38,0,0,0,0.680798,0.55743,0,0,0,0,0.580212,0.478951,11526,0,0,0,0,0,0,0,0,0,1,-0.613173
8416,-0.478516,0,6.75098,-0.00243299,0.00168657,-0.0010948,0.0595944,-0.00398992,-0.806198,-4.58719,0.920472,-0.256072,0.689525,0.564634,0.5826,0.481005,-0.806184,0,0,174,78,174,78,276,67,184,169,-0.11543,-0.445515,0,-1.5,8.40368e-38,0,0,0,0.689525,0.564634,0,0,0,0,0.5826,0.481005,11526,0,0,0,0,0,0,0,0,0,1,-0.621098
8431,-0.511719,0,6.87109,-0.00144584,0.00091036,-0.000982568,0.0595866,-0.00398182,-0.806204,-4.61215,0.92565,-0.253841,0.698873,0.572353,0.585122,0.483178,-0.806204,0,0,174,78,174,78,276,69,184,169,-0.117726,-0.447005,0,-1.5,8.40368e-38,0,0,0,0.698873,0.572353,0,0,0,0,0.585122,0.483178,11300,0,0,0,0,0,0,0,0,0,1,-0.629588
8448,-0.544922,0,-6.64941,-0.00264074,0.0014984,-0.00171729,0.0595654,-0.00396226,-0.806224,-4.61215,0.92565,-0.253841,0.708849,0.580592,0.587775,0.485467,-0.806224,0,0,174,78,174,78,276,69,184,169,-0.120163,-0.448596,0,-1.5,8.40368e-38,0,0,0,0.708849,0.580592,0,0,0,0,0.587775,0.485467,11300,0,0,0,0,0,0,0,0,0,1,-0.638652
8463,-0.578125,0,-0.40625,-0.00236448,0.000682509,-0.000754828,0.059537,-0.00394787,-0.806243,-4.57966,0.922352,-0.268864,0.717688,0.587893,0.590092,0.48747,-0.806243,0,0,174,78,174,78,276,69,183,170,-0.122313,-0.450008,0,-1.5,8.40368e-38,0,0,0,0.717688,0.587893,0,0,0,0,0.590092,0.48747,11413,0,0,0,0,0,0,0,0,0,1,-0.646683
8478,-0.611328,0,6.93359,-0.00192739,0.000572432,-0.0016517,0.0595265,-0.00393825,-0.806273,-4.57966,0.922352,-0.268864,0.726561,0.595224,0.592388,0.489456,-0.806273,0,0,174,78,174,78,276,69,183,170,-0.124458,-0.451427,0,-1.5,8.40368e-38,0,0,0,0.726561,0.595224,0,0,0,0,0.592388,0.489456,11413,0,0,0,0,0,0,0,0,0,1,-0.654746
8494,-0.612305,0,1.81641,-0.00204517,0.0010868,-0.00215714,0.0595113,-0.00392904,-0.806304,-4.62321,0.921929,-0.24477,0.736063,0.603077,0.594816,0.491558,-0.806304,0,0,177,76,177,76,276,69,183,169,-0.126746,-0.452949,0,-1.5,8.40368e-38,0,0,0,0.736063,0.603077,0,0,0,0,0.594816,0.491558,11000,0,0,0,0,0,0,0,0,0,1,-0.663384
8510,-0.612305,0,1.81641,-0.00204517,0.0010868,-0.00215714,0.0595113,-0.00392904,-0.806304,-4.62321,0.921929,-0.24477,0.745008,0.610469,0.597073,0.493514,-0.806304,0,0,177,76,177,76,276,69,183,169,-0.128898,-0.454378,0,-1.5,8.40368e-38,0,0,0,0.745008,0.610469,0,0,0,0,0.597073,0.493514,11000,0,0,0,0,0,0,0,0,0,1,-0.671516
8526,-0.545898,0,6.49023,-0.00237798,0.000983564,-0.000928176,0.0594665,-0.00391289,-0.806336,-4.60076,0.93167,-0.253751,0.755186,0.618883,0.599609,0.495711,-0.806336,0,0,174,76,174,76,276,69,183,170,-0.131329,-0.45601,0,-1.5,8.40368e-38,0,0,0,0.755186,0.618883,0,0,0,0,0.599609,0.495711,11211,0,0,0,0,0,0,0,0,0,1,-0.680771
8542,-0.479492,0,-6.38574,-0.0034242,0.00124862,-0.00121,0.059082,-0.00366211,-0.806396,-4.60076,0.93167,-0.253751,0.764201,0.626337,0.601824,0.497632,-0.806336,0,0,174,76,174,76,276,69,183,170,-0.13348,-0.457453,0,-1.5,8.40368e-38,0,0,0,0.764201,0.626337,0,0,0,0,0.601824,0.497632,11211,0,0,0,0,0,0,0,0,0,1,-0.688971
8558,-0.449219,0,-6.27148,-0.00298246,0.000381634,-0.000486611,0.059386,-0.00390346,-0.806385,-4.56138,0.924793,-0.269883,0.774459,0.634821,0.604248,0.499778,-0.806385,0,0,174,78,174,78,276,69,181,170,-0.135889,-0.459111,0,-1.5,8.40368e-38,0,0,0,0.774459,0.634821,0,0,0,0,0.604248,0.499778,11413,0,0,0,0,0,0,0,0,0,1,-0.698303
8574,-0.475586,0,-2.50781,-0.00281495,0.00171028,-0.00080428,0.0593633,-0.00389511,-0.806399,-4.56138,0.924793,-0.269883,0.784151,0.642838,0.606562,0.501785,-0.806399,0,0,174,78,174,78,276,69,181,170,-0.138176,-0.460666,0,-1.5,8.40368e-38,0,0,0,0.784151,0.642838,0,0,0,0,0.606562,0.501785,11413,0,0,0,0,0,0,0,0,0,1,-0.707121
8590,-0.508789,0,3.2793,-0.00194277,0.00075791,-0.00191234,0.0593473,-0.00389185,-0.806418,-4.56138,0.924793,-0.269883,0.79327,0.650382,0.608712,0.503651,-0.806418,0,0,174,78,174,78,276,69,181,170,-0.140317,-0.462131,0,-1.5,8.40368e-38,0,0,0,0.79327,0.650382,0,0,0,0,0.608712,0.503651,11413,0,0,0,0,0,0,0,0,0,1,-0.715421
8606,-0.508789,0,3.2793,-0.00194277,0.00075791,-0.00191234,0.0593473,-0.00389185,-0.806418,-4.58748,0.924111,-0.263511,0.803033,0.658462,0.610987,0.505626,-0.806418,0,0,174,78,174,78,276,69,183,170,-0.142607,-0.463698,0,-1.5,8.40368e-38,0,0,0,0.803033,0.658462,0,0,0,0,0.610987,0.505626,11413,0,0,0,0,0,0,0,0,0,1,-0.724308
8621,-0.575195,0,4.98926,-0.00197893,0.000574931,-0.00199857,0.0593173,-0.0038832,-0.806459,-4.58748,0.924111,-0.263511,0.812833,0.666572,0.613242,0.507583,-0.806459,0,0,174,78,174,78,276,69,183,170,-0.144884,-0.465277,0,-1.5,8.40368e-38,0,0,0,0.812833,0.666572,0,0,0,0,0.613242,0.507583,11413,0,0,0,0,0,0,0,0,0,1,-0.733229
8637,-0.595703,0,2.96094,-0.00229071,0.000294858,-0.00103693,0.0593003,-0.00387513,-0.806497,-4.61444,0.92019,-0.244607,0.822667,0.674713,0.615476,0.509523,-0.806459,0,0,177,75,177,75,276,69,183,169,-0.147172,-0.466856,0,-1.5,8.40368e-38,0,0,0,0.822667,0.674713,0,0,0,0,0.615476,0.509523,11000,0,0,0,0,0,0,0,0,0,1,-0.742185
8653,-0.595703,0,5.4834,-0.00299909,0.000460909,-0.000324618,0.0592688,-0.00386757,-0.806504,-4.61444,0.92019,-0.244607,0.832538,0.682886,0.617691,0.511448,-0.806497,0,0,177,75,177,75,276,69,183,169,-0.149449,-0.468448,0,-1.5,8.40368e-38,0,0,0,0.832538,0.682886,0,0,0,0,0.617691,0.511448,11000,0,0,0,0,0,0,0,0,0,1,-0.751174
8668,-0.595703,0,5.4834,-0.00299909,0.000460909,-0.000324618,0.0592688,-0.00386757,-0.806504,-4.6144,0.920255,-0.244577,0.841823,0.690574,0.619746,0.513234,-0.806504,0,0,177,75,177,75,276,69,183,169,-0.15159,-0.469943,0,-1.5,8.40368e-38,0,0,0,0.841823,0.690574,0,0,0,0,0.619746,0.513234,11000,0,0,0,0,0,0,0,0,0,1,-0.759632
8683,-0.595703,0,4.93652,-0.00301456,0.00123267,-0.000996172,0.0592326,-0.00384666,-0.806536,-4.6144,0.920255,-0.244577,0.851138,0.698289,0.621785,0.515007,-0.806536,0,0,177,75,177,75,276,69,183,169,-0.153724,-0.471446,0,-1.5,8.40368e-38,0,0,0,0.851138,0.698289,0,0,0,0,0.621785,0.515007,11000,0,0,0,0,0,0,0,0,0,1,-0.768118
8699,-0.595703,0,4.93652,-0.00301456,0.00123267,-0.000996172,0.0592326,-0.00384666,-0.806536,-4.62303,0.922286,-0.244703,0.86111,0.706549,0.623938,0.516883,-0.806536,0,0,177,76,177,76,276,69,183,169,-0.156009,-0.473052,0,-1.5,8.40368e-38,0,0,0,0.86111,0.706549,0,0,0,0,0.623938,0.516883,11000,0,0,0,0,0,0,0,0,0,1,-0.777204
8715,-0.595703,0,4.93652,-0.00301456,0.00123267,-0.000996172,0.0592326,-0.00384666,-0.806536,-4.62303,0.922286,-0.244703,0.871114,0.714838,0.626074,0.518743,-0.806536,0,0,177,76,177,76,276,69,183,169,-0.158293,-0.474664,0,-1.5,8.40368e-38,0,0,0,0.871114,0.714838,0,0,0,0,0.626074,0.518743,11000,0,0,0,0,0,0,0,0,0,1,-0.786322
8731,-0.595703,0,4.93652,-0.00301456,0.00123267,-0.000996172,0.0592326,-0.00384666,-0.806536,-4.63616,0.922183,-0.240945,0.881153,0.723157,0.628192,0.520588,-0.806536,0,0,177,76,177,76,276,69,184,169,-0.160578,-0.476282,0,-1.5,8.40368e-38,0,0,0,0.881153,0.723157,0,0,0,0,0.628192,0.520588,11000,0,0,0,0,0,0,0,0,0,1,-0.795473
8747,-0.595703,0,-2.9707,-0.00174053,0.000721749,-0.00133939,0.0591627,-0.00382111,-0.806645,-4.63616,0.922183,-0.240945,0.891226,0.731505,0.630294,0.522419,-0.806536,0,0,177,76,177,76,276,69,184,169,-0.162863,-0.477906,0,-1.5,8.40368e-38,0,0,0,0.891226,0.731505,0,0,0,0,0.630294,0.522419,11000,0,0,0,0,0,0,0,0,0,1,-0.804656
8763,-0.595703,0,-2.9707,-0.00174053,0.000721749,-0.00133939,0.0591627,-0.00382111,-0.806645,-4.62299,0.922335,-0.244644,0.901332,0.739882,0.632374,0.524232,-0.806645,0,0,177,76,177,76,276,69,183,169,-0.165113,-0.479554,0,-1.5,8.40368e-38,0,0,0,0.901332,0.739882,0,0,0,0,0.632374,0.524232,11000,0,0,0,0,0,0,0,0,0,1,-0.813871
8780,-0.540039,0,-3.58887,-0.00202391,-4.61041e-06,-0.00164948,0.0591339,-0.00383185,-0.806685,-4.62299,0.922335,-0.244644,0.912106,0.748815,0.63456,0.52614,-0.806685,0,0,177,76,177,76,276,69,183,169,-0.167525,-0.481301,0,-1.5,8.40368e-38,0,0,0,0.912106,0.748815,0,0,0,0,0.63456,0.52614,11000,0,0,0,0,0,0,0,0,0,1,-0.823697
8796,-0.506836,0,-6.96777,-0.000946131,0.00103867,-0.00123502,0.0591303,-0.0038218,-0.806703,-4.59812,0.917433,-0.246645,0.92228,0.757252,0.636599,0.527917,-0.806703,0,0,177,76,177,76,276,67,183,169,-0.1698,-0.482947,0,-1.5,8.40368e-38,0,0,0,0.92228,0.757252,0,0,0,0,0.636599,0.527917,11220,0,0,0,0,0,0,0,0,0,1,-0.832978
8812,-0.473633,0,6.87305,-0.00185206,0.000812305,-0.00177991,0.0591168,-0.00381683,-0.806725,-4.59812,0.917433,-0.246645,0.932487,0.765717,0.63862,0.529679,-0.806725,0,0,177,76,177,76,276,67,183,169,-0.172073,-0.4846,0,-1.5,8.40368e-38,0,0,0,0.932487,0.765717,0,0,0,0,0.63862,0.529679,11220,0,0,0,0,0,0,0,0,0,1,-0.842289
8828,-0.46582,0,-6.82129,-0.00169681,0.00128118,-0.00233989,0.0591065,-0.00381516,-0.806754,-4.59976,0.924195,-0.259933,0.942725,0.77421,0.640623,0.531427,-0.806754,0,0,174,78,174,78,276,69,184,170,-0.174344,-0.48626,0,-1.5,8.40368e-38,0,0,0,0.942725,0.77421,0,0,0,0,0.640623,0.531427,11413,0,0,0,0,0,0,0,0,0,1,-0.851631
8843,-0.495117,0,4.55078,-0.00234778,0.000996507,-0.00149463,0.0590748,-0.00380225,-0.806798,-4.59976,0.924195,-0.259933,0.952352,0.782196,0.642485,0.533051,-0.806754,0,0,174,78,174,78,276,69,184,170,-0.176481,-0.487817,0,-1.5,8.40368e-38,0,0,0,0.952352,0.782196,0,0,0,0,0.642485,0.533051,11413,0,0,0,0,0,0,0,0,0,1,-0.860416
8860,-0.495117,0,4.55078,-0.00234778,0.000996507,-0.00149463,0.0590748,-0.00380225,-0.806798,-4.61145,0.91738,-0.248205,0.963298,0.791279,0.644578,0.534877,-0.806798,0,0,177,76,177,76,277,69,183,169,-0.178889,-0.489596,0,-1.5,8.40368e-38,0,0,0,0.963298,0.791279,0,0,0,0,0.644578,0.534877,11000,0,0,0,0,0,0,0,0,0,1,-0.870407
8875,-0.561523,0,-6.15527,-0.00146701,0.00129574,-0.00133016,0.0590371,-0.00378793,-0.806834,-4.61145,0.91738,-0.248205,0.972984,0.799317,0.646405,0.536474,-0.806834,0,0,177,76,177,76,277,69,183,169,-0.181012,-0.491171,0,-1.5,8.40368e-38,0,0,0,0.972984,0.799317,0,0,0,0,0.646405,0.536474,11000,0,0,0,0,0,0,0,0,0,1,-0.879249
8891,-0.594727,0,4.77441,-0.00152948,0.000829202,-0.00105374,0.0590262,-0.00378729,-0.806844,-4.61145,0.91738,-0.248205,0.983347,0.807919,0.648335,0.538161,-0.806844,0,0,177,76,177,76,277,69,183,169,-0.183286,-0.492852,0,-1.5,8.40368e-38,0,0,0,0.983347,0.807919,0,0,0,0,0.648335,0.538161,11000,0,0,0,0,0,0,0,0,0,1,-0.888711
8907,-0.594727,0,4.77441,-0.00152948,0.000829202,-0.00105374,0.0590262,-0.00378729,-0.806844,-4.62284,0.922605,-0.24457,0.993739,0.816546,0.650248,0.539834,-0.806844,0,0,177,76,177,76,276,69,183,169,-0.185562,-0.494536,0,-1.5,8.40368e-38,0,0,0,0.993739,0.816546,0,0,0,0,0.650248,0.539834,11000,0,0,0,0,0,0,0,0,0,1,-0.898201
8923,-0.591797,0,6.36035,-0.00152333,0.00126897,-0.0032872,0.0589873,-0.00377652,-0.806905,-4.62284,0.922605,-0.24457,1.00416,0.825201,0.652145,0.541492,-0.806905,0,0,177,76,177,76,276,69,183,169,-0.187818,-0.496238,0,-1.5,8.40368e-38,0,0,0,1.00416,0.825201,0,0,0,0,0.652145,0.541492,11000,0,0,0,0,0,0,0,0,0,1,-0.907721
8939,-0.591797,0,6.36035,-0.00152333,0.00126897,-0.0032872,0.0589873,-0.00377652,-0.806905,-4.61138,0.917491,-0.248158,1.01396,0.833338,0.653905,0.543033,-0.806905,0,0,177,76,177,76,277,69,183,169,-0.18995,-0.497828,0,-1.5,8.40368e-38,0,0,0,1.01396,0.833338,0,0,0,0,0.653905,0.543033,11000,0,0,0,0,0,0,0,0,0,1,-0.916672
8955,-0.492188,0,-1.04199,-0.00184124,0.00233699,-0.00162133,0.0589366,-0.00372774,-0.806961,-4.61138,0.917491,-0.248158,1.0251,0.842589,0.655882,0.544764,-0.806943,0,0,177,76,177,76,277,69,183,169,-0.192354,-0.499643,0,-1.5,8.40368e-38,0,0,0,1.0251,0.842589,0,0,0,0,0.655882,0.544764,11000,0,0,0,0,0,0,0,0,0,1,-0.926848
8970,-0.461914,0,-4.39648,-0.00137733,0.000569727,-0.00152986,0.0589363,-0.00371613,-0.806985,-4.63971,0.931992,-0.242004,1.03496,0.850775,0.657606,0.546279,-0.806961,0,0,177,76,177,76,276,69,183,170,-0.194478,-0.501247,0,-1.5,8.40368e-38,0,0,0,1.03496,0.850775,0,0,0,0,0.657606,0.546279,10908,0,0,0,0,0,0,0,0,0,1,-0.935853
8986,-0.495117,0,-3.37207,-0.000604329,0.00107326,-0.000788018,0.0589363,-0.00370403,-0.807003,-4.63971,0.931992,-0.242004,1.0455,0.859533,0.659429,0.547885,-0.807003,0,0,177,76,177,76,276,69,183,170,-0.196737,-0.50297,0,-1.5,8.40368e-38,0,0,0,1.0455,0.859533,0,0,0,0,0.659429,0.547885,10908,0,0,0,0,0,0,0,0,0,1,-0.945486
9002,-0.495117,0,-3.37207,-0.000604329,0.00107326,-0.000788018,0.0589363,-0.00370403,-0.807003,-4.63586,0.922587,-0.240646,1.05607,0.868315,0.661236,0.549479,-0.807003,0,0,177,76,177,76,276,69,184,169,-0.199009,-0.504689,0,-1.5,8.40368e-38,0,0,0,1.05607,0.868315,0,0,0,0,0.661236,0.549479,11000,0,0,0,0,0,0,0,0,0,1,-0.955147
9018,-0.561523,0,4.17285,-0.00105545,0.00137728,-0.00135039,0.0589178,-0.00368136,-0.807031,-4.63586,0.922587,-0.240646,1.06666,0.877123,0.663026,0.55106,-0.807031,0,0,177,76,177,76,276,69,184,169,-0.201272,-0.50642,0,-1.5,8.40368e-38,0,0,0,1.06666,0.877123,0,0,0,0,0.663026,0.55106,11000,0,0,0,0,0,0,0,0,0,1,-0.964836
9034,-0.561523,0,4.17285,-0.00105545,0.00137728,-0.00135039,0.0589178,-0.00368136,-0.807031,-4.63583,0.922586,-0.240592,1.07729,0.885956,0.664799,0.552629,-0.807031,0,0,177,76,177,76,276,69,184,169,-0.203543,-0.508151,0,-1.5,8.40368e-38,0,0,0,1.07729,0.885956,0,0,0,0,0.664799,0.552629,11000,0,0,0,0,0,0,0,0,0,1,-0.974552
9050,-0.587891,0,0.988281,-0.000590522,0.00170072,-0.000817062,0.0589146,-0.00365235,-0.807087,-4.63583,0.922586,-0.240592,1.08795,0.894815,0.666557,0.554186,-0.807075,0,0,177,76,177,76,276,69,184,169,-0.2058,-0.509897,0,-1.5,8.40368e-38,0,0,0,1.08795,0.894815,0,0,0,0,0.666557,0.554186,11000,0,0,0,0,0,0,0,0,0,1,-0.984296
9065,-0.587891,0,0.988281,-0.000590522,0.00170072,-0.000817062,0.0589146,-0.00365235,-0.807087,-4.60816,0.93476,-0.259105,1.09796,0.903141,0.668191,0.555635,-0.807087,0,0,174,78,174,78,276,69,183,170,-0.207926,-0.511532,0,-1.5,8.40368e-38,0,0,0,1.09796,0.903141,0,0,0,0,0.668191,0.555635,11211,0,0,0,0,0,0,0,0,0,1,-0.993456
9080,-0.521484,0,0.0507812,-0.00132015,0.00110115,-0.00215533,0.0588913,-0.00363425,-0.807136,-4.60816,0.93476,-0.259105,1.108,0.91149,0.669813,0.557074,-0.807087,0,0,174,78,174,78,276,69,183,170,-0.209599,-0.512693,0,-1.5,8.40368e-38,0,0,0,1.108,0.91149,0,0,0,0,0.669813,0.557074,11211,0,0,0,0,0,0,0,0,0,1,-1
9096,-0.521484,0,0.0507812,-0.00132015,0.00110115,-0.00215533,0.0588913,-0.00363425,-0.807136,-4.62242,0.925418,-0.244041,1.11873,0.920419,0.671525,0.558597,-0.807136,0,0,177,75,177,75,277,69,183,169,-0.210154,-0.512683,0,-1.5,8.40368e-38,0,0,0,1.11873,0.920419,0,0,0,0,0.671525,0.558597,10800,0,0,0,0,0,0,0,0,0,1,-1
9112,-0.455078,0,-5.22852,-0.00173135,0.00112607,-0.00117102,0.0588548,-0.00361227,-0.80717,-4.62242,0.925418,-0.244041,1.1295,0.929372,0.673221,0.560107,-0.80717,0,0,177,75,177,75,277,69,183,169,-0.21071,-0.512669,0,-1.5,8.40368e-38,0,0,0,1.1295,0.929372,0,0,0,0,0.673221,0.560107,10800,0,0,0,0,0,0,0,0,0,1,-1
9128,-0.46582,0,4.36914,-0.00253039,-0.000374886,-0.0020076,0.0588329,-0.00361181,-0.807186,-4.65197,0.934433,-0.234709,1.14028,0.93835,0.674899,0.561602,-0.807186,0,0,177,76,177,76,276,69,183,169,-0.211267,-0.512653,0,-1.5,8.40368e-38,0,0,0,1.14028,0.93835,0,0,0,0,0.674899,0.561602,10800,0,0,0,0,0,0,0,0,0,1,-1
9144,-0.499023,0,0.0380859,-0.000905608,0.000223983,-0.00191369,0.05883,-0.00360896,-0.807215,-4.65197,0.934433,-0.234709,1.1511,0.94735,0.676561,0.563085,-0.807215,0,0,177,76,177,76,276,69,183,169,-0.211813,-0.512639,0,-1.5,8.40368e-38,0,0,0,1.1511,0.94735,0,0,0,0,0.676561,0.563085,10800,0,0,0,0,0,0,0,0,0,1,-1
9160,-0.532227,0,-0.194336,-0.00204729,0.000821445,-0.00220012,0.0588205,-0.00361,-0.807237,-4.5868,0.924814,-0.262765,1.16194,0.956375,0.67821,0.564555,-0.807237,0,0,174,78,174,78,276,69,183,170,-0.212357,-0.512624,0,-1.5,8.40368e-38,0,0,0,1.16194,0.956375,0,0,0,0,0.67821,0.564555,11413,0,0,0,0,0,0,0,0,0,1,-1
9176,-0.598633,0,3.75098,-0.00223714,0.000782208,-0.000903437,0.0587749,-0.00359522,-0.807275,-4.5868,0.924814,-0.262765,1.17281,0.965423,0.679845,0.566012,-0.807237,0,0,174,78,174,78,276,69,183,170,-0.212905,-0.512605,0,-1.5,8.40368e-38,0,0,0,1.17281,0.965423,0,0,0,0,0.679845,0.566012,11413,0,0,0,0,0,0,0,0,0,1,-1
9192,-0.616211,0,-0.795898,-0.00276378,0.00199573,-0.00132447,0.0587517,-0.00358132,-0.807296,-4.56124,0.925148,-0.26991,1.18371,0.974495,0.681463,0.567456,-0.807275,0,0,174,78,174,78,276,69,181,170,-0.213434,-0.512594,0,-1.5,8.40368e-38,0,0,0,1.18371,0.974495,0,0,0,0,0.681463,0.567456,11413,0,0,0,0,0,0,0,0,0,1,-1
9208,-0.616211,0,4.10547,-0.00169678,0.000540642,-0.000323876,0.0587498,-0.0035733,-0.807304,-4.56124,0.925148,-0.26991,1.19463,0.983589,0.683062,0.568886,-0.807304,0,0,174,78,174,78,276,69,181,170,-0.21396,-0.512582,0,-1.5,8.40368e-38,0,0,0,1.19463,0.983589,0,0,0,0,0.683062,0.568886,11413,0,0,0,0,0,0,0,0,0,1,-1
9224,-0.605469,0,-2.53125,-0.00155425,0.00027,-0.00154258,0.0587341,-0.00357049,-0.807332,-4.56124,0.925148,-0.26991,1.20557,0.992706,0.684646,0.570304,-0.807332,0,0,174,78,174,78,276,69,181,170,-0.214482,-0.51257,0,-1.5,8.40368e-38,0,0,0,1.20557,0.992706,0,0,0,0,0.684646,0.570304,11413,0,0,0,0,0,0,0,0,0,1,-1
9241,-0.605469,0,-2.53125,-0.00155425,0.00027,-0.00154258,0.0587341,-0.00357049,-0.807332,-4.5986,0.923612,-0.250536,1.21723,1.00242,0.686314,0.571798,-0.807332,0,0,177,76,177,76,276,69,181,168,-0.215041,-0.512552,0,-1.5,8.40368e-38,0,0,0,1.21723,1.00242,0,0,0,0,0.686314,0.571798,10890,0,0,0,0,0,0,0,0,0,1,-1
9258,-0.539062,0,-5.7207,-0.0020842,0.000751467,-0.000842544,0.058689,-0.00356798,-0.80737,-4.61608,0.933416,-0.25079,1.22891,1.01215,0.687966,0.573277,-0.80737,0,0,174,78,174,78,277,69,183,169,-0.215582,-0.512541,0,-1.5,8.40368e-38,0,0,0,1.22891,1.01215,0,0,0,0,0.687966,0.573277,11100,0,0,0,0,0,0,0,0,0,1,-1
9273,-0.473633,0,1.74219,-0.00181414,0.0011451,-0.00148738,0.0586556,-0.00354214,-0.807406,-4.61608,0.933416,-0.25079,1.23925,1.02077,0.689408,0.574568,-0.80737,0,0,174,78,174,78,277,69,183,169,-0.216066,-0.512525,0,-1.5,8.40368e-38,0,0,0,1.23925,1.02077,0,0,0,0,0.689408,0.574568,11100,0,0,0,0,0,0,0,0,0,1,-1
9288,-0.473633,0,-5.49414,-9.82256e-06,0.000966536,-0.00144044,0.0586653,-0.00353203,-0.807424,-4.61608,0.933416,-0.25079,1.24891,1.02882,0.690741,0.575764,-0.807406,0,0,174,78,174,78,277,69,183,169,-0.216501,-0.512519,0,-1.5,8.40368e-38,0,0,0,1.24891,1.02882,0,0,0,0,0.690741,0.575764,11100,0,0,0,0,0,0,0,0,0,1,-1
9303,-0.473633,0,4.09277,-0.00284447,0.00140633,-0.00110488,0.0586459,-0.00351824,-0.80743,-4.61608,0.933416,-0.25079,1.25998,1.03805,0.692251,0.577123,-0.80743,0,0,174,78,174,78,277,69,183,169,-0.217001,-0.512508,0,-1.5,8.40368e-38,0,0,0,1.25998,1.03805,0,0,0,0,0.692251,0.577123,11100,0,0,0,0,0,0,0,0,0,1,-1
9319,-0.473633,0,4.09277,-0.00284447,0.00140633,-0.00110488,0.0586459,-0.00351824,-0.80743,-4.60539,0.939594,-0.253227,1.27107,1.0473,0.693745,0.57847,-0.80743,0,0,174,78,174,78,276,69,181,168,-0.217504,-0.512493,0,-1.5,8.40368e-38,0,0,0,1.27107,1.0473,0,0,0,0,0.693745,0.57847,10989,0,0,0,0,0,0,0,0,0,1,-1
9335,-0.473633,0,2.5918,-0.00146589,0.00168414,-0.000300644,0.0586206,-0.00351307,-0.807453,-4.60539,0.939594,-0.253227,1.28219,1.05656,0.695226,0.579805,-0.807453,0,0,174,78,174,78,276,69,181,168,-0.217994,-0.512484,0,-1.5,8.40368e-38,0,0,0,1.28219,1.05656,0,0,0,0,0.695226,0.579805,10989,0,0,0,0,0,0,0,0,0,1,-1
9350,-0.473633,0,3.35156,-0.00221621,0.00134259,-0.00275962,0.0586123,-0.00350337,-0.80748,-4.60539,0.939594,-0.253227,1.29263,1.06527,0.696601,0.581046,-0.80748,0,0,174,78,174,78,276,69,181,168,-0.218448,-0.512476,0,-1.5,8.40368e-38,0,0,0,1.29263,1.06527,0,0,0,0,0.696601,0.581046,10989,0,0,0,0,0,0,0,0,0,1,-1
9366,-0.473633,0,-1.90918,-0.0029022,0.00130463,-0.000912752,0.0585853,-0.00349414,-0.807493,-4.60539,0.939594,-0.253227,1.30379,1.07458,0.698054,0.582359,-0.807493,0,0,174,78,174,78,276,69,181,168,-0.218933,-0.512465,0,-1.5,8.40368e-38,0,0,0,1.30379,1.07458,0,0,0,0,0.698054,0.582359,10989,0,0,0,0,0,0,0,0,0,1,-1
9381,-0.473633,0,1.4873,-0.0029743,0.00111084,-0.00123889,0.0585558,-0.00349368,-0.807513,-4.60539,0.939594,-0.253227,1.31427,1.08333,0.699402,0.583577,-0.807513,0,0,174,78,174,78,276,69,181,168,-0.21938,-0.512457,0,-1.5,8.40368e-38,0,0,0,1.31427,1.08333,0,0,0,0,0.699402,0.583577,10989,0,0,0,0,0,0,0,0,0,1,-1
9397,-0.485352,0,-5.73633,-0.00184477,0.00137915,-0.00224821,0.0585447,-0.00348645,-0.807535,-4.62806,0.93897,-0.246838,1.32548,1.09268,0.700826,0.584865,-0.807535,0,0,174,78,174,78,276,69,183,169,-0.219853,-0.512448,0,-1.5,8.40368e-38,0,0,0,1.32548,1.09268,0,0,0,0,0.700826,0.584865,11100,0,0,0,0,0,0,0,0,0,1,-1
9413,-0.551758,0,3.6748,-0.00248703,0.00112292,-0.00166653,0.0585104,-0.00346763,-0.807577,-4.62806,0.93897,-0.246838,1.3367,1.10205,0.702237,0.586142,-0.807577,0,0,174,78,174,78,276,69,183,169,-0.220314,-0.512444,0,-1.5,8.40368e-38,0,0,0,1.3367,1.10205,0,0,0,0,0.702237,0.586142,11100,0,0,0,0,0,0,0,0,0,1,-1
9429,-0.584961,0,5.33398,-0.00254488,0.00144808,-0.00149087,0.058492,-0.00345407,-0.807603,-4.66267,0.936991,-0.231312,1.34795,1.11144,0.70363,0.587407,-0.807603,0,0,177,75,177,75,277,69,184,169,-0.220775,-0.512437,0,-1.5,8.40368e-38,0,0,0,1.34795,1.11144,0,0,0,0,0.70363,0.587407,10600,0,0,0,0,0,0,0,0,0,1,-1
9444,-0.584961,0,5.33398,-0.00254488,0.00144808,-0.00149087,0.058492,-0.00345407,-0.807603,-4.66267,0.936991,-0.231312,1.35852,1.12027,0.704924,0.588583,-0.807603,0,0,177,75,177,75,277,69,184,169,-0.221212,-0.512426,0,-1.5,8.40368e-38,0,0,0,1.35852,1.12027,0,0,0,0,0.704924,0.588583,10600,0,0,0,0,0,0,0,0,0,1,-1
9460,-0.608398,0,0.217773,-0.00238871,0.00119238,-0.00137003,0.0584544,-0.00343504,-0.807633,-4.62285,0.92097,-0.246518,1.36981,1.1297,0.706291,0.589827,-0.807633,0,0,177,76,177,76,276,69,184,170,-0.221664,-0.512421,0,-1.5,8.40368e-38,0,0,0,1.36981,1.1297,0,0,0,0,0.706291,0.589827,11110,0,0,0,0,0,0,0,0,0,1,-1
9476,-0.608398,0,0.217773,-0.00238871,0.00119238,-0.00137003,0.0584544,-0.00343504,-0.807633,-4.62285,0.92097,-0.246518,1.38113,1.13915,0.707644,0.591061,-0.807633,0,0,177,76,177,76,276,69,184,170,-0.222122,-0.51241,0,-1.5,8.40368e-38,0,0,0,1.38113,1.13915,0,0,0,0,0.707644,0.591061,11110,0,0,0,0,0,0,0,0,0,1,-1
9492,-0.475586,0,5.20508,-0.00355587,0.000111396,-0.000505707,0.0584174,-0.0034236,-0.807664,-4.62285,0.92097,-0.246518,1.39247,1.14862,0.708984,0.592283,-0.807664,0,0,177,76,177,76,276,69,184,170,-0.222564,-0.512407,0,-1.5,8.40368e-38,0,0,0,1.39247,1.14862,0,0,0,0,0.708984,0.592283,11110,0,0,0,0,0,0,0,0,0,1,-1
9507,-0.454102,0,2.89551,-0.00211104,0.000658227,-0.00127335,0.0583826,-0.00340697,-0.807704,-4.59818,0.927437,-0.255967,1.40311,1.15751,0.710227,0.593418,-0.807664,0,0,174,78,174,78,276,69,183,169,-0.222985,-0.512397,0,-1.5,8.40368e-38,0,0,0,1.40311,1.15751,0,0,0,0,0.710227,0.593418,11300,0,0,0,0,0,0,0,0,0,1,-1
9524,-0.487305,0,-2.96289,-0.00257901,-0.000188851,-0.00110627,0.0583572,-0.00341451,-0.807723,-4.59818,0.927437,-0.255967,1.4152,1.16761,0.711622,0.594693,-0.807704,0,0,174,78,174,78,276,69,183,169,-0.223444,-0.512395,0,-1.5,8.40368e-38,0,0,0,1.4152,1.16761,0,0,0,0,0.711622,0.594693,11300,0,0,0,0,0,0,0,0,0,1,-1
9540,-0.520508,0,-0.959961,-0.00321399,0.000332742,-0.000440287,0.0583283,-0.00341311,-0.807739,-4.62198,0.923485,-0.243496,1.4266,1.17714,0.712919,0.595877,-0.807739,0,0,177,76,177,76,276,69,183,169,-0.223871,-0.512393,0,-1.5,8.40368e-38,0,0,0,1.4266,1.17714,0,0,0,0,0.712919,0.595877,11000,0,0,0,0,0,0,0,0,0,1,-1
9555,-0.553711,0,6.08398,-0.00133667,0.000780819,0.000520837,0.0583237,-0.00340833,-0.807736,-4.62198,0.923485,-0.243496,1.43731,1.18609,0.714122,0.596977,-0.807736,0,0,177,76,177,76,276,69,183,169,-0.22428,-0.512383,0,-1.5,8.40368e-38,0,0,0,1.43731,1.18609,0,0,0,0,0.714122,0.596977,11000,0,0,0,0,0,0,0,0,0,1,-1
9571,-0.553711,0,6.08398,-0.00133667,0.000780819,0.000520837,0.0583237,-0.00340833,-0.807736,-4.59811,0.92761,-0.255994,1.44875,1.19565,0.715396,0.598141,-0.807736,0,0,174,78,174,78,276,69,183,169,-0.224711,-0.512373,0,-1.5,8.40368e-38,0,0,0,1.44875,1.19565,0,0,0,0,0.715396,0.598141,11300,0,0,0,0,0,0,0,0,0,1,-1
