timestamp,A_x,A_y,A_z,P,Q,R,Phi,Theta,Psi,poseX,poseY,poseZ,state_X,state_Y,state_Z,state_VzB,state_Bx,state_By,state_Bz,p1_x,p1_y,p2_x,p2_y,p3_x,p3_y,p4_x,p4_y,roll,pitch,yaw,alt,targetHeading,highLevelState,lowLevelState,gateNumber,filtered_x,filtered_y,x_OT,y_OT,vx_OT,vy_OT,filtered_vx,filtered_vygateArearansac_corr_x,ransac_corr_y,ransac_corr_vx,ransac_corr_vy,detectionTimeStamppTermX,dTermX,pTermY,dTermY,vxcmd,vycmd
6425,-0.15332,-0.104492,-7.25977,-0.00607478,-0.000306137,-0.00277154,0.0574295,0.0421157,0.286619,0,0,0,-2.2834e-05,1.0014e-05,-0.00436924,0.00246215,0.287198,0,0,0,0,0,0,0,0,0,0,-0.0717188,-0.415077,0.00312902,-1.5,0,0,0,1,-2.2834e-05,1.0014e-05,0,0,0,0,-0.00436924,0.00246215,1.9603e-19,0,0,0,0,0,0,0,0,0,1,-1.10154e-05
6440,-0.0322266,-0.104492,-7.2959,-0.0016355,-0.000991361,-0.00179744,0.0529333,0.0403331,0.285096,0,0,0,-0.000164795,0.00010535,-0.0125982,0.00871411,0.285721,0,0,0,0,0,0,0,0,0,0,-0.0734681,-0.416709,0.0140869,-1.5,0,0,0,2,-0.000164795,0.00010535,0,0,0,0,-0.0125982,0.00871411,1.9603e-19,0,0,0,0,0,0,0,0,0,1,-0.000115885
6455,-0.119141,-0.236328,4.55469,-0.00247313,-0.000706125,-0.00238898,0.0488034,0.0386216,0.283607,0,0,0,-0.000425565,0.000288997,-0.0203259,0.0143808,0.284203,0,0,0,0,0,0,0,0,0,0,-0.0750501,-0.418263,0.0250136,-1.5,0,0,0,3,-0.000425565,0.000288997,0,0,0,0,-0.0203259,0.0143808,1.9603e-19,0,0,0,0,0,0,0,0,0,1,-0.000317897
6472,-0.0537109,-0.0966797,-5.2334,-0.00247805,-0.000424212,-0.00317808,0.0455836,0.0372738,0.282322,0,0,0,-0.000892599,0.000619872,-0.0290318,0.0205422,0.282608,0,0,0,0,0,0,0,0,0,0,-0.0768347,-0.420018,0.015539,-1.5,0,0,0,0,-0.000892599,0.000619872,0,0,0,0,-0.0290318,0.0205422,1.9603e-19,0,0,0,0,0,0,0,0,0,1,-0.000681859
6488,-0.0537109,-0.0966797,-5.61914,-0.0014131,-0.00165751,-0.00218438,0.0455256,0.0372331,0.282295,0,0,0,-0.00143223,0.00100022,-0.0363928,0.0256056,0.282295,0,0,0,0,0,0,0,0,0,0,-0.0785869,-0.421427,0.0199537,-1.5,0,0,0,1,-0.00143223,0.00100022,0,0,0,0,-0.0363928,0.0256056,1.9603e-19,0,0,0,0,0,0,0,0,0,1,-0.00110025
6503,-0.0537109,-0.0966797,-2.78125,-0.00298302,-0.00245089,-0.00157952,0.0454396,0.0371902,0.282275,0,0,0,-0.00204435,0.00142985,-0.0432318,0.0303082,0.282275,0,0,0,0,0,0,0,0,0,0,-0.0803007,-0.422711,0.0339671,-1.5,0,0,0,2,-0.00204435,0.00142985,0,0,0,0,-0.0432318,0.0303082,1.9603e-19,0,0,0,0,0,0,0,0,0,1,-0.00157284
6519,-0.0537109,-0.0966797,1.66309,-0.00338859,-0.00206459,-0.00141032,0.0453656,0.03715,0.282256,0,0,0,-0.00281212,0.00196705,-0.0504619,0.0352763,0.282256,0,0,0,0,0,0,0,0,0,0,-0.082134,-0.424061,0.0495015,-1.5,0,0,0,3,-0.00281212,0.00196705,0,0,0,0,-0.0504619,0.0352763,1.9603e-19,0,0,0,0,0,0,0,0,0,1,-0.00216376
6535,-0.0537109,-0.0966797,4.03027,-0.00168655,-0.000603225,-0.00140326,0.045249,0.0370898,0.282204,0,0,0,-0.00369486,0.00258324,-0.0576258,0.0401966,0.282228,0,0,0,0,0,0,0,0,0,0,-0.08397,-0.425394,0.039929,-1.5,0,0,0,0,-0.00369486,0.00258324,0,0,0,0,-0.0576258,0.0401966,1.9603e-19,0,0,0,0,0,0,0,0,0,1,-0.00284156
6551,-0.0537109,-0.0966797,2.62012,-0.00192723,-0.00140869,-0.00155497,0.0451846,0.0370628,0.282182,0,0,0,-0.0046893,0.0032761,-0.0647229,0.0450682,0.282204,0,0,0,0,0,0,0,0,0,0,-0.0858109,-0.426708,0.043906,-1.5,0,0,0,1,-0.0046893,0.0032761,0,0,0,0,-0.0647229,0.0450682,1.9603e-19,0,0,0,0,0,0,0,0,0,1,-0.00360371
6567,-0.0537109,-0.0966797,2.49316,-0.00204586,-0.00226305,-0.00105705,0.0451189,0.0370336,0.282158,0,0,0,-0.00579659,0.00404638,-0.0717521,0.0498882,0.282158,0,0,0,0,0,0,0,0,0,0,-0.0876492,-0.428005,0.0577138,-1.5,0,0,0,2,-0.00579659,0.00404638,0,0,0,0,-0.0717521,0.0498882,1.9603e-19,0,0,0,0,0,0,0,0,0,1,-0.00445102
6582,-0.0537109,-0.105469,3.25,-0.00220658,-0.00201063,-0.000426512,0.0450507,0.037003,0.28214,0,0,0,-0.00693611,0.00483803,-0.0782831,0.0543627,0.28214,0,0,0,0,0,0,0,0,0,0,-0.089383,-0.429203,0.0715887,-1.5,0,0,0,3,-0.00693611,0.00483803,0,0,0,0,-0.0782831,0.0543627,1.9603e-19,0,0,0,0,0,0,0,0,0,1,-0.00532184
6598,-0.0537109,-0.171875,-1.99316,-0.00184251,-0.0014752,-0.002607,0.0449905,0.0369784,0.282097,0,0,0,-0.00817305,0.0056964,-0.0847583,0.0587959,0.282097,0,0,0,0,0,0,0,0,0,0,-0.0911137,-0.430387,0.0634923,-1.5,0,0,0,0,-0.00817305,0.0056964,0,0,0,0,-0.0847583,0.0587959,1.9603e-19,0,0,0,0,0,0,0,0,0,1,-0.00626604
6615,-0.0537109,-0.225586,-1.09766,-0.00232697,-0.00111162,-0.00184398,0.0449296,0.0369535,0.282074,0,0,0,-0.00979303,0.00681927,-0.0924608,0.0640654,0.282074,0,0,0,0,0,0,0,0,0,0,-0.0932056,-0.431786,0.0652291,-1.5,0,0,0,1,-0.00979303,0.00681927,0,0,0,0,-0.0924608,0.0640654,1.9603e-19,0,0,0,0,0,0,0,0,0,1,-0.0075012
6649,-0.0537109,-0.231445,-2.96875,-0.00180076,-0.0016073,-0.00190317,0.0447461,0.0368645,0.282001,0,0,0,-0.0133193,0.00925912,-0.106852,0.0739034,0.282037,0,0,0,0,0,0,0,0,0,0,-0.0972041,-0.434374,0.108793,-1.5,0,0,0,2,-0.0133193,0.00925912,0,0,0,0,-0.106852,0.0739034,1.9603e-19,0,0,0,0,0,0,0,0,0,1,-0.010185
6662,-0.0537109,-0.217773,5.44238,-0.00347449,0.00021897,-0.00132274,0.0446714,0.0368471,0.281978,0,0,0,-0.0147512,0.0102491,-0.112252,0.0775894,0.282001,0,0,0,0,0,0,0,0,0,0,-0.0987173,-0.435342,0.119335,-1.5,0,0,0,3,-0.0147512,0.0102491,0,0,0,0,-0.112252,0.0775894,1.9603e-19,0,0,0,0,0,0,0,0,0,1,-0.011274
6693,-0.0537109,-0.151367,1.06348,-0.00187031,-0.000662584,-0.00155068,0.0445651,0.0367945,0.28195,0,0,0,-0.0185421,0.0128664,-0.12502,0.0862909,0.28195,0,0,0,0,0,0,0,0,0,0,-0.102373,-0.437607,0.0860154,-1.5,0,0,0,0,-0.0185421,0.0128664,0,0,0,0,-0.12502,0.0862909,1.9603e-19,0,0,0,0,0,0,0,0,0,1,-0.014153
6706,-0.0537109,-0.118164,2.25293,-0.00156692,-0.00124506,-0.00183427,0.0445052,0.0367655,0.281925,0,0,0,-0.02021,0.0140172,-0.130286,0.0898756,0.281925,0,0,0,0,0,0,0,0,0,0,-0.103897,-0.438537,0.0879436,-1.5,0,0,0,1,-0.02021,0.0140172,0,0,0,0,-0.130286,0.0898756,1.9603e-19,0,0,0,0,0,0,0,0,0,1,-0.0154189
6722,-0.0537109,-0.0849609,6.55176,-0.00145085,-0.00134272,-0.00162782,0.0444476,0.036727,0.281903,0,0,0,-0.0223602,0.0154998,-0.136716,0.0942501,0.281903,0,0,0,0,0,0,0,0,0,0,-0.105781,-0.439666,0.10325,-1.5,0,0,0,2,-0.0223602,0.0154998,0,0,0,0,-0.136716,0.0942501,1.9603e-19,0,0,0,0,0,0,0,0,0,1,-0.0170498
6737,-0.0537109,-0.113281,-3.54004,-0.00172056,-0.0023816,-0.00186615,0.0443789,0.0367005,0.281872,0,0,0,-0.0244687,0.0169529,-0.142688,0.0983112,0.281872,0,0,0,0,0,0,0,0,0,0,-0.107547,-0.44071,0.116942,-1.5,0,0,0,3,-0.0244687,0.0169529,0,0,0,0,-0.142688,0.0983112,1.9603e-19,0,0,0,0,0,0,0,0,0,1,-0.0186482
6753,-0.0537109,-0.146484,0.0693359,-0.00297457,-0.00129542,-0.00127395,0.0443064,0.0366685,0.281855,0,0,0,-0.0268182,0.018571,-0.149003,0.102601,0.281855,0,0,0,0,0,0,0,0,0,0,-0.109439,-0.441806,0.1071,-1.5,0,0,0,0,-0.0268182,0.018571,0,0,0,0,-0.149003,0.102601,1.9603e-19,0,0,0,0,0,0,0,0,0,1,-0.0204281
6769,-0.0537109,-0.212891,-3.89258,-0.0027976,-0.00143394,-0.00176894,0.0441764,0.0366052,0.281795,0,0,0,-0.029268,0.0202573,-0.155262,0.106852,0.281855,0,0,0,0,0,0,0,0,0,0,-0.11134,-0.442884,0.108094,-1.5,0,0,0,1,-0.029268,0.0202573,0,0,0,0,-0.155262,0.106852,1.9603e-19,0,0,0,0,0,0,0,0,0,1,-0.0222831
6785,-0.0537109,-0.246094,5.125,-0.00189258,-0.000552366,-0.00192621,0.0441185,0.036579,0.281764,0,0,0,-0.0318155,0.0220099,-0.161462,0.111058,0.281795,0,0,0,0,0,0,0,0,0,0,-0.113228,-0.443953,0.123319,-1.5,0,0,0,2,-0.0318155,0.0220099,0,0,0,0,-0.161462,0.111058,1.9603e-19,0,0,0,0,0,0,0,0,0,1,-0.0242109
6798,-0.0576172,-0.224609,0.170898,-0.0020054,-0.00165224,-0.00106617,0.0440533,0.0365442,0.281746,0,0,0,-0.0339549,0.023481,-0.16645,0.114438,0.281764,0,0,0,0,0,0,0,0,0,0,-0.114767,-0.444807,0.133803,-1.5,0,0,0,3,-0.0339549,0.023481,0,0,0,0,-0.16645,0.114438,1.9603e-19,0,0,0,0,0,0,0,0,0,1,-0.0258291
6814,-0.0908203,-0.191406,-1.97754,-0.00272235,-0.00159862,-0.00086887,0.0439903,0.0365244,0.281724,0,0,0,-0.0366822,0.0253554,-0.172544,0.118566,0.281746,0,0,0,0,0,0,0,0,0,0,-0.116672,-0.445843,0.123893,-1.5,0,0,0,0,-0.0366822,0.0253554,0,0,0,0,-0.172544,0.118566,1.9603e-19,0,0,0,0,0,0,0,0,0,1,-0.027891
6830,-0.0908203,-0.191406,-1.97754,-0.00272235,-0.00159862,-0.00086887,0.0439903,0.0365244,0.281724,0,0,0,-0.0395064,0.0272954,-0.17858,0.122648,0.281724,0,0,0,0,0,0,0,0,0,0,-0.118578,-0.446863,0.124552,-1.5,0,0,0,1,-0.0395064,0.0272954,0,0,0,0,-0.17858,0.122648,1.9603e-19,0,0,0,0,0,0,0,0,0,1,-0.030025
6847,-0.157227,-0.125,0.828125,-0.00231365,-0.00051244,-0.00159801,0.0438524,0.0364731,0.281682,0,0,0,-0.0426123,0.0294278,-0.184934,0.126942,0.281682,0,0,0,0,0,0,0,0,0,0,-0.120603,-0.447932,0.141276,-1.5,0,0,0,2,-0.0426123,0.0294278,0,0,0,0,-0.184934,0.126942,1.9603e-19,0,0,0,0,0,0,0,0,0,1,-0.0323706
6862,-0.180664,-0.0917969,5.11523,-0.00236299,-0.00212488,-0.00197595,0.0437724,0.0364382,0.281655,0,0,0,-0.04544,0.0313682,-0.190483,0.130686,0.281655,0,0,0,0,0,0,0,0,0,0,-0.122393,-0.448859,0.154817,-1.5,0,0,0,3,-0.04544,0.0313682,0,0,0,0,-0.190483,0.130686,1.9603e-19,0,0,0,0,0,0,0,0,0,1,-0.034505
6877,-0.148438,-0.0830078,-2.04688,-0.0035578,-0.000578472,-0.00110474,0.0436814,0.0364182,0.281632,0,0,0,-0.0483505,0.0333644,-0.195983,0.134392,0.281632,0,0,0,0,0,0,0,0,0,0,-0.124186,-0.449773,0.146387,-1.5,0,0,0,0,-0.0483505,0.0333644,0,0,0,0,-0.195983,0.134392,1.9603e-19,0,0,0,0,0,0,0,0,0,1,-0.0367009
6893,-0.0820312,-0.149414,4.30176,-0.00211388,-0.00191302,-0.00193254,0.043565,0.0363629,0.281584,0,0,0,-0.0515474,0.0355558,-0.2018,0.138304,0.281614,0,0,0,0,0,0,0,0,0,0,-0.126104,-0.450733,0.146598,-1.5,0,0,0,1,-0.0515474,0.0355558,0,0,0,0,-0.2018,0.138304,1.9603e-19,0,0,0,0,0,0,0,0,0,1,-0.0391114
6915,-0.0820312,-0.149414,4.30176,-0.00211388,-0.00191302,-0.00193254,0.043565,0.0363629,0.281584,-3.61242,0.294761,-0.18202,-0.0561127,0.038683,-0.209722,0.143629,0.281584,0,0,216,35,216,35,341,31,220,155,-0.128751,-0.45203,0.171056,-1.5,0,0,0,2,-0.0561127,0.038683,0,0,0,0,-0.209722,0.143629,15996,0,0,0,0,0,0,0,0,0,1,-0.0425513
6931,-0.015625,-0.21582,-5.63574,-0.00305494,-0.000763193,-0.00157905,0.0434266,0.0363302,0.281528,-3.61242,0.294761,-0.18202,-0.0595281,0.0410212,-0.215413,0.147448,0.281528,0,0,216,35,216,35,341,31,220,155,-0.130665,-0.45296,0.186042,-1.5,0,0,0,3,-0.0595281,0.0410212,0,0,0,0,-0.215413,0.147448,15996,0,0,0,0,0,0,0,0,0,1,-0.0451234
6946,-0.000976562,-0.249023,7.12891,-0.00212423,-0.00187296,-0.00144871,0.043355,0.036302,0.281509,-3.61242,0.294761,-0.18202,-0.0628105,0.0432672,-0.220697,0.150986,0.281509,0,0,216,35,216,35,341,31,220,155,-0.13247,-0.453815,0.177488,-1.5,0,0,0,0,-0.0628105,0.0432672,0,0,0,0,-0.220697,0.150986,15996,0,0,0,0,0,0,0,0,0,1,-0.0475939
6962,-0.132812,-0.250977,-6.58789,-0.00334231,-0.000913524,-0.00220943,0.0431939,0.0362616,0.281448,-3.61242,0.294761,-0.18202,-0.0664004,0.0457223,-0.226283,0.154721,0.281482,0,0,216,35,216,35,341,31,220,155,-0.134396,-0.454713,0.177079,-1.5,0,0,0,1,-0.0664004,0.0457223,0,0,0,0,-0.226283,0.154721,15996,0,0,0,0,0,0,0,0,0,1,-0.0502945
6978,-0.192383,-0.217773,-2.82324,-0.0019918,-0.00172884,-0.00282971,0.0431293,0.0362251,0.281417,-3.61242,0.294761,-0.18202,-0.0700773,0.0482355,-0.231815,0.158412,0.281448,0,0,216,35,216,35,341,31,220,155,-0.136321,-0.455598,0.192035,-1.5,0,0,0,2,-0.0700773,0.0482355,0,0,0,0,-0.231815,0.158412,15996,0,0,0,0,0,0,0,0,0,1,-0.0530591
6994,-0.176758,-0.18457,1.97754,-0.00154713,-2.44579e-05,-0.00290851,0.0430559,0.0362059,0.281383,-3.61242,0.294761,-0.18202,-0.0738423,0.0508073,-0.237292,0.16206,0.281383,0,0,216,35,216,35,341,31,220,155,-0.138239,-0.456472,0.206943,-1.5,0,0,0,3,-0.0738423,0.0508073,0,0,0,0,-0.237292,0.16206,15996,0,0,0,0,0,0,0,0,0,1,-0.0558881
7010,-0.110352,-0.151367,-3.2998,-0.00282044,-0.00159451,-0.00121941,0.0429873,0.0361732,0.281359,-3.61242,0.294761,-0.18202,-0.0776943,0.0534371,-0.242717,0.165668,0.281359,0,0,216,35,216,35,341,31,220,155,-0.140169,-0.457327,0.199876,-1.5,0,0,0,0,-0.0776943,0.0534371,0,0,0,0,-0.242717,0.165668,15996,0,0,0,0,0,0,0,0,0,1,-0.0587809
7026,-0.0439453,-0.118164,-6.97949,-0.00151062,-0.00190592,-0.00178027,0.0429262,0.0361422,0.281335,-3.61242,0.294761,-0.18202,-0.0816326,0.0561243,-0.24809,0.169238,0.281335,0,0,216,35,216,35,341,31,220,155,-0.142103,-0.458168,0.200983,-1.5,0,0,0,1,-0.0816326,0.0561243,0,0,0,0,-0.24809,0.169238,15996,0,0,0,0,0,0,0,0,0,1,-0.0617367
7041,-0.0439453,-0.118164,-6.97949,-0.00151062,-0.00190592,-0.00178027,0.0429262,0.0361422,0.281335,-3.61242,0.294761,-0.18202,-0.0854023,0.0586949,-0.253084,0.172555,0.281335,0,0,216,35,216,35,341,31,220,155,-0.143925,-0.458941,0.214272,-1.5,0,0,0,2,-0.0854023,0.0586949,0,0,0,0,-0.253084,0.172555,15996,0,0,0,0,0,0,0,0,0,1,-0.0645644
7058,-0.0615234,-0.100586,6.55957,-0.00165496,-0.00133827,-0.00137121,0.0427683,0.036067,0.281246,-3.61242,0.294761,-0.18202,-0.0897686,0.0616708,-0.258697,0.17628,0.281271,0,0,216,35,216,35,341,31,220,155,-0.145977,-0.459813,0.23065,-1.5,0,0,0,3,-0.0897686,0.0616708,0,0,0,0,-0.258697,0.17628,15996,0,0,0,0,0,0,0,0,0,1,-0.0678378
7073,-0.0615234,-0.100586,6.55957,-0.00165496,-0.00133827,-0.00137121,0.0427683,0.036067,0.281246,-3.63043,0.295386,-0.179015,-0.0936965,0.0643464,-0.263597,0.179528,0.281246,0,0,215,36,215,36,341,30,223,155,-0.147798,-0.460564,0.221917,-1.5,0,0,0,0,-0.0936965,0.0643464,0,0,0,0,-0.263597,0.179528,16125,0,0,0,0,0,0,0,0,0,1,-0.0707811
7090,-0.12793,-0.166992,-3.26074,-0.000853936,-0.00177807,-0.00274177,0.0426675,0.0359994,0.281201,-3.63043,0.295386,-0.179015,-0.0982383,0.0674386,-0.269104,0.183178,0.281246,0,0,215,36,215,36,341,30,223,155,-0.149873,-0.461397,0.222187,-1.5,0,0,0,1,-0.0982383,0.0674386,0,0,0,0,-0.269104,0.183178,16125,0,0,0,0,0,0,0,0,0,1,-0.0741825
7106,-0.161133,-0.200195,-0.285156,-0.00277221,-0.00171078,-0.00255552,0.0425977,0.0359706,0.281175,-3.62215,0.297159,-0.182477,-0.102596,0.0704041,-0.274228,0.186571,0.281175,0,0,215,36,215,36,340,30,222,155,-0.151807,-0.462177,0.236956,-1.5,0,0,0,2,-0.102596,0.0704041,0,0,0,0,-0.274228,0.186571,16250,0,0,0,0,0,0,0,0,0,1,-0.0774445
7122,-0.191406,-0.233398,6.97559,-0.00334355,-0.00166748,-0.00173915,0.0425268,0.0359361,0.281148,-3.62215,0.297159,-0.182477,-0.107036,0.0734235,-0.279303,0.189927,0.281148,0,0,215,36,215,36,340,30,222,155,-0.153755,-0.462937,0.251684,-1.5,0,0,0,3,-0.107036,0.0734235,0,0,0,0,-0.279303,0.189927,16250,0,0,0,0,0,0,0,0,0,1,-0.0807658
7138,-0.191406,-0.233398,6.97559,-0.00334355,-0.00166748,-0.00173915,0.0425268,0.0359361,0.281148,-3.62939,0.286801,-0.180445,-0.111271,0.0763025,-0.284018,0.193042,0.281148,0,0,217,36,217,36,340,30,223,155,-0.155591,-0.463633,0.242868,-1.5,0,0,0,0,-0.111271,0.0763025,0,0,0,0,-0.284018,0.193042,16250,0,0,0,0,0,0,0,0,0,1,-0.0839328
7154,-0.157227,-0.211914,-5.64453,-0.00235862,5.99598e-06,-0.00157262,0.0423974,0.0359021,0.281109,-3.62939,0.286801,-0.180445,-0.116158,0.0796228,-0.289314,0.196538,0.281109,0,0,217,36,217,36,340,30,223,155,-0.157663,-0.464416,0.241153,-1.5,0,0,0,1,-0.116158,0.0796228,0,0,0,0,-0.289314,0.196538,16250,0,0,0,0,0,0,0,0,0,1,-0.0875851
7169,-0.157227,-0.211914,-5.64453,-0.00235862,5.99598e-06,-0.00157262,0.0423974,0.0359021,0.281109,-3.63967,0.287991,-0.180687,-0.120542,0.0826004,-0.293943,0.199587,0.281109,0,0,217,38,217,38,341,31,222,155,-0.159504,-0.465089,0.254282,-1.5,0,0,0,2,-0.120542,0.0826004,0,0,0,0,-0.293943,0.199587,16120,0,0,0,0,0,0,0,0,0,1,-0.0908604
7185,-0.0351562,-0.112305,-6.16895,-0.00150289,-0.00155119,-0.00026811,0.0421963,0.03581,0.281044,-3.63967,0.287991,-0.180687,-0.125297,0.0858277,-0.298838,0.202808,0.281057,0,0,217,38,217,38,341,31,222,155,-0.161454,-0.465803,0.268935,-1.5,0,0,0,3,-0.125297,0.0858277,0,0,0,0,-0.298838,0.202808,16120,0,0,0,0,0,0,0,0,0,1,-0.0944105
7201,-0.0351562,-0.112305,-6.16895,-0.00150289,-0.00155119,-0.00026811,0.0421963,0.03581,0.281044,-3.63784,0.301053,-0.17889,-0.130129,0.0891061,-0.30368,0.205989,0.281044,0,0,217,36,217,36,340,31,220,155,-0.163416,-0.466498,0.258485,-1.5,0,0,0,0,-0.130129,0.0891061,0,0,0,0,-0.30368,0.205989,15748,0,0,0,0,0,0,0,0,0,1,-0.0980167
7217,-0.101562,-0.117188,6.75586,-0.00148085,-0.000760396,-0.00176533,0.0420795,0.0357784,0.280989,-3.63784,0.301053,-0.17889,-0.135037,0.0924341,-0.308477,0.209135,0.280989,0,0,217,36,217,36,340,31,220,155,-0.165368,-0.467187,0.25854,-1.5,0,0,0,1,-0.135037,0.0924341,0,0,0,0,-0.308477,0.209135,15748,0,0,0,0,0,0,0,0,0,1,-0.101677
7233,-0.101562,-0.117188,6.75586,-0.00148085,-0.000760396,-0.00176533,0.0420795,0.0357784,0.280989,-3.59115,0.288845,-0.198663,-0.139707,0.0955993,-0.312932,0.212051,0.280989,0,0,215,36,215,36,341,30,222,156,-0.167214,-0.467813,0.271599,-1.5,0,0,0,2,-0.139707,0.0955993,0,0,0,0,-0.312932,0.212051,16632,0,0,0,0,0,0,0,0,0,1,-0.105159
7249,-0.157227,-0.183594,5.77148,-0.000936744,-0.000213482,-0.00290374,0.0419812,0.0357352,0.280926,-3.59115,0.288845,-0.198663,-0.145084,0.0992415,-0.317938,0.215326,0.280926,0,0,215,36,215,36,341,30,222,156,-0.169291,-0.468522,0.287748,-1.5,0,0,0,3,-0.145084,0.0992415,0,0,0,0,-0.317938,0.215326,16632,0,0,0,0,0,0,0,0,0,1,-0.109166
7264,-0.157227,-0.216797,-2.45312,-0.00165816,-0.000651635,-0.00257536,0.0419237,0.0357199,0.280905,-3.67131,0.304423,-0.166662,-0.149895,0.102499,-0.32231,0.218181,0.280905,0,0,217,36,217,36,341,31,222,155,-0.171134,-0.469129,0.278787,-1.5,0,0,0,0,-0.149895,0.102499,0,0,0,0,-0.32231,0.218181,15376,0,0,0,0,0,0,0,0,0,1,-0.112749
7279,-0.157227,-0.25,7.10547,-0.002854,-0.00121621,-0.00275207,0.0418618,0.03569,0.280873,-3.67131,0.304423,-0.166662,-0.154772,0.105799,-0.326644,0.221007,0.280873,0,0,217,36,217,36,341,31,222,155,-0.172976,-0.469728,0.276913,-1.5,0,0,0,1,-0.154772,0.105799,0,0,0,0,-0.326644,0.221007,15376,0,0,0,0,0,0,0,0,0,1,-0.116379
7296,-0.157227,-0.258789,5.41602,-0.00249821,-0.00175785,-0.000950074,0.0418049,0.0356608,0.280855,-3.63834,0.297131,-0.175591,-0.160379,0.109591,-0.331509,0.224177,0.280855,0,0,216,35,216,35,340,31,222,155,-0.175071,-0.470391,0.289899,-1.5,0,0,0,2,-0.160379,0.109591,0,0,0,0,-0.331509,0.224177,15996,0,0,0,0,0,0,0,0,0,1,-0.12055
7311,-0.157227,-0.197266,5.18555,-0.00231227,-0.0017556,-0.00209138,0.0416876,0.0356073,0.280809,-3.63834,0.297131,-0.175591,-0.165392,0.112981,-0.335763,0.226947,0.280855,0,0,216,35,216,35,340,31,222,155,-0.176927,-0.470963,0.302845,-1.5,0,0,0,3,-0.165392,0.112981,0,0,0,0,-0.335763,0.226947,15996,0,0,0,0,0,0,0,0,0,1,-0.124279
7337,-0.157227,-0.164062,-6.76367,-0.00343491,-0.00132507,-0.00193146,0.0416197,0.0355757,0.280787,-3.63834,0.297131,-0.175591,-0.174265,0.118974,-0.343053,0.231682,0.280787,0,0,216,35,216,35,340,31,222,155,-0.180133,-0.471942,0.276614,-1.5,0,0,0,0,-0.174265,0.118974,0,0,0,0,-0.343053,0.231682,15996,0,0,0,0,0,0,0,0,0,1,-0.130871
7353,-0.157227,-0.100586,-7.12988,-0.00166471,-0.000338467,-0.00158035,0.0414946,0.0355205,0.280725,-3.63834,0.297131,-0.175591,-0.179799,0.12271,-0.347477,0.234553,0.280787,0,0,216,35,216,35,340,31,222,155,-0.182116,-0.472521,0.273215,-1.5,0,0,0,1,-0.179799,0.12271,0,0,0,0,-0.347477,0.234553,15996,0,0,0,0,0,0,0,0,0,1,-0.134981
7368,-0.157227,-0.133789,5.18652,-0.00157361,-0.00118533,-0.00198631,0.0414423,0.0355011,0.280691,-3.63834,0.297131,-0.175591,-0.185051,0.126254,-0.351577,0.237207,0.280691,0,0,216,35,216,35,340,31,222,155,-0.183945,-0.473069,0.286215,-1.5,0,0,0,2,-0.185051,0.126254,0,0,0,0,-0.351577,0.237207,15996,0,0,0,0,0,0,0,0,0,1,-0.13888
7384,-0.157227,-0.166992,3.78418,-0.00179691,2.4334e-05,-0.00473052,0.0413782,0.0354887,0.280632,-3.63834,0.297131,-0.175591,-0.19072,0.130078,-0.355912,0.240008,0.280632,0,0,216,35,216,35,340,31,222,155,-0.185911,-0.473636,0.297611,-1.5,0,0,0,3,-0.19072,0.130078,0,0,0,0,-0.355912,0.240008,15996,0,0,0,0,0,0,0,0,0,1,-0.143086
7399,-0.157227,-0.200195,2.83984,-0.00188878,-0.00192603,-0.00333067,0.0413238,0.035456,0.28059,-3.63834,0.297131,-0.175591,-0.196098,0.133703,-0.359938,0.242606,0.28059,0,0,216,35,216,35,340,31,222,155,-0.187759,-0.474155,0.288611,-1.5,0,0,0,0,-0.196098,0.133703,0,0,0,0,-0.359938,0.242606,15996,0,0,0,0,0,0,0,0,0,1,-0.147074
7415,-0.157227,-0.233398,-3.03125,-0.00206092,-0.00169929,-0.00144421,0.0412701,0.0354304,0.280571,-3.63834,0.297131,-0.175591,-0.2019,0.137613,-0.364193,0.245349,0.280571,0,0,216,35,216,35,340,31,222,155,-0.189741,-0.474693,0.288126,-1.5,0,0,0,1,-0.2019,0.137613,0,0,0,0,-0.364193,0.245349,15996,0,0,0,0,0,0,0,0,0,1,-0.151374
7431,-0.157227,-0.226562,-3.40234,-0.0017373,-0.000249273,-0.00196495,0.0412073,0.0354213,0.280536,-3.63834,0.297131,-0.175591,-0.207772,0.141567,-0.368409,0.248063,0.280536,0,0,216,35,216,35,340,31,222,155,-0.191719,-0.475224,0.302631,-1.5,0,0,0,2,-0.207772,0.141567,0,0,0,0,-0.368409,0.248063,15996,0,0,0,0,0,0,0,0,0,1,-0.155724
7446,-0.157227,-0.160156,0.973633,-0.00188485,-0.000663515,-0.00223343,0.0411161,0.0353835,0.280474,-3.63834,0.297131,-0.175591,-0.213336,0.145313,-0.372325,0.25058,0.280503,0,0,216,35,216,35,340,31,222,155,-0.193574,-0.475712,0.315526,-1.5,0,0,0,3,-0.213336,0.145313,0,0,0,0,-0.372325,0.25058,15996,0,0,0,0,0,0,0,0,0,1,-0.159844
7463,-0.157227,-0.160156,0.973633,-0.00188485,-0.000663515,-0.00223343,0.0411161,0.0353835,0.280474,-3.62847,0.288471,-0.183446,-0.219716,0.149605,-0.376724,0.253404,0.280474,0,0,217,36,217,36,341,31,222,155,-0.195682,-0.476252,0.303325,-1.5,0,0,0,0,-0.219716,0.149605,0,0,0,0,-0.376724,0.253404,16120,0,0,0,0,0,0,0,0,0,1,-0.164565
7479,-0.157227,-0.100586,-2.40723,-0.00255883,-0.000713995,-0.00133302,0.0409973,0.0353434,0.280434,-3.62847,0.288471,-0.183446,-0.225404,0.15343,-0.38057,0.25587,0.280434,0,0,217,36,217,36,341,31,222,155,-0.19754,-0.476722,0.301011,-1.5,0,0,0,1,-0.225404,0.15343,0,0,0,0,-0.38057,0.25587,16120,0,0,0,0,0,0,0,0,0,1,-0.168772
7495,-0.157227,-0.100586,-6.71094,-0.00169851,-0.000586699,-0.00125194,0.040931,0.0353263,0.280417,-3.62847,0.288471,-0.183446,-0.231535,0.157551,-0.38463,0.258465,0.280417,0,0,217,36,217,36,341,31,222,155,-0.199528,-0.477207,0.315465,-1.5,0,0,0,2,-0.231535,0.157551,0,0,0,0,-0.38463,0.258465,16120,0,0,0,0,0,0,0,0,0,1,-0.173306
7511,-0.157227,-0.100586,5.98145,-0.00289718,-0.00156377,-0.00102884,0.0408662,0.0353077,0.280397,-3.62847,0.288471,-0.183446,-0.238121,0.161975,-0.388901,0.261188,0.280397,0,0,217,36,217,36,341,31,222,155,-0.20164,-0.477712,0.331444,-1.5,0,0,0,3,-0.238121,0.161975,0,0,0,0,-0.388901,0.261188,16120,0,0,0,0,0,0,0,0,0,1,-0.178172
7527,-0.157227,-0.100586,5.82227,-0.00148458,-0.000650252,-0.00140041,0.0408075,0.0352839,0.280371,-3.62866,0.288878,-0.183849,-0.244384,0.16618,-0.392881,0.263721,0.280371,0,0,217,36,217,36,341,31,222,155,-0.203628,-0.478178,0.321667,-1.5,0,0,0,0,-0.244384,0.16618,0,0,0,0,-0.392881,0.263721,16120,0,0,0,0,0,0,0,0,0,1,-0.182797
7543,-0.157227,-0.100586,-2.01953,-0.00258192,-0.00077222,-0.00195058,0.0406965,0.0352285,0.280314,-3.62866,0.288878,-0.183849,-0.250313,0.170158,-0.39658,0.266074,0.280371,0,0,217,36,217,36,341,31,222,155,-0.2055,-0.478602,0.319024,-1.5,0,0,0,1,-0.250313,0.170158,0,0,0,0,-0.39658,0.266074,16120,0,0,0,0,0,0,0,0,0,1,-0.187174
7560,-0.157227,-0.100586,-0.413086,-0.00258652,-0.00235888,-0.0022385,0.0406364,0.0351989,0.280284,-3.64452,0.29028,-0.177733,-0.257506,0.174982,-0.400978,0.268868,0.280314,0,0,217,36,217,36,340,31,223,155,-0.207733,-0.47911,0.336535,-1.5,0,0,0,2,-0.257506,0.174982,0,0,0,0,-0.400978,0.268868,16120,0,0,0,0,0,0,0,0,0,1,-0.19248
7576,-0.157227,-0.100586,3.46777,-0.00310136,-0.00271438,-0.00176893,0.0405735,0.0351594,0.280254,-3.64452,0.29028,-0.177733,-0.263961,0.179309,-0.404837,0.271313,0.280254,0,0,217,36,217,36,340,31,223,155,-0.209712,-0.479551,0.350865,-1.5,0,0,0,3,-0.263961,0.179309,0,0,0,0,-0.404837,0.271313,16120,0,0,0,0,0,0,0,0,0,1,-0.197239
7592,-0.157227,-0.100586,-6.17773,-0.0019319,-0.00110786,-0.00219014,0.0405192,0.035138,0.280216,-3.62904,0.291624,-0.182134,-0.270478,0.183675,-0.408656,0.27373,0.280216,0,0,217,36,217,36,340,30,222,155,-0.2117,-0.479977,0.340087,-1.5,0,0,0,0,-0.270478,0.183675,0,0,0,0,-0.408656,0.27373,16250,0,0,0,0,0,0,0,0,0,1,-0.202042
7608,-0.157227,-0.100586,-6.17773,-0.0019319,-0.00110786,-0.00219014,0.0405192,0.035138,0.280216,-3.62904,0.291624,-0.182134,-0.277057,0.18808,-0.41244,0.276123,0.280216,0,0,217,36,217,36,340,30,222,155,-0.2137,-0.480386,0.336436,-1.5,0,0,0,1,-0.277057,0.18808,0,0,0,0,-0.41244,0.276123,16250,0,0,0,0,0,0,0,0,0,1,-0.206888
7624,-0.157227,-0.100586,-4.98047,-0.00327955,-0.000794887,-0.00204345,0.0403819,0.0350994,0.280166,-3.62904,0.291624,-0.182134,-0.283695,0.192523,-0.41619,0.27849,0.280166,0,0,217,36,217,36,340,30,222,155,-0.215687,-0.480796,0.350748,-1.5,0,0,0,2,-0.283695,0.192523,0,0,0,0,-0.41619,0.27849,16250,0,0,0,0,0,0,0,0,0,1,-0.211775
7640,-0.157227,-0.100586,3.84766,-0.00283905,-0.00189505,-0.00154762,0.0402648,0.0350463,0.280108,-3.64482,0.290681,-0.178326,-0.290392,0.197002,-0.419901,0.280826,0.280166,0,0,217,36,217,36,340,31,223,155,-0.217688,-0.481186,0.361886,-1.5,0,0,0,3,-0.290392,0.197002,0,0,0,0,-0.419901,0.280826,16120,0,0,0,0,0,0,0,0,0,1,-0.216703
7657,-0.157227,-0.100586,6.74805,-0.00171425,-0.00176333,-0.00254027,0.0402211,0.0350168,0.280077,-3.64482,0.290681,-0.178326,-0.297573,0.201804,-0.423805,0.283279,0.280108,0,0,217,36,217,36,340,31,223,155,-0.219799,-0.481602,0.350366,-1.5,0,0,0,0,-0.297573,0.201804,0,0,0,0,-0.423805,0.283279,16120,0,0,0,0,0,0,0,0,0,1,-0.221984
7672,-0.157227,-0.100586,-5.36914,-0.00155825,-0.00126239,-0.00102275,0.0401617,0.03499,0.280056,-3.60384,0.294259,-0.1945,-0.303962,0.206073,-0.427209,0.285413,0.280056,0,0,217,36,217,36,341,31,219,155,-0.221659,-0.481959,0.347207,-1.5,0,0,0,1,-0.303962,0.206073,0,0,0,0,-0.427209,0.285413,16120,0,0,0,0,0,0,0,0,0,1,-0.22668
7687,-0.157227,-0.100586,1.6084,-0.00300432,-0.000488086,-0.00267415,0.0400951,0.0349695,0.280026,-3.60384,0.294259,-0.1945,-0.310402,0.210374,-0.430579,0.287523,0.280026,0,0,217,36,217,36,341,31,219,155,-0.223526,-0.482303,0.357634,-1.5,0,0,0,2,-0.310402,0.210374,0,0,0,0,-0.430579,0.287523,16120,0,0,0,0,0,0,0,0,0,1,-0.231411
7700,-0.157227,-0.100586,-3.95703,-0.00275075,-0.00236631,-0.00163211,0.0400272,0.0349393,0.280004,-3.60384,0.294259,-0.1945,-0.316023,0.214126,-0.433475,0.289332,0.280004,0,0,217,36,217,36,341,31,219,155,-0.225146,-0.482593,0.367186,-1.5,0,0,0,3,-0.316023,0.214126,0,0,0,0,-0.433475,0.289332,16120,0,0,0,0,0,0,0,0,0,1,-0.235539
7717,-0.157227,-0.100586,-3.95703,-0.00275075,-0.00236631,-0.00163211,0.0400272,0.0349393,0.280004,-3.65664,0.301111,-0.176387,-0.322996,0.218779,-0.43701,0.291537,0.280004,0,0,217,36,217,36,340,31,222,155,-0.22715,-0.482936,0.356343,-1.5,0,0,0,0,-0.322996,0.218779,0,0,0,0,-0.43701,0.291537,15748,0,0,0,0,0,0,0,0,0,1,-0.240656
7732,-0.157227,-0.100586,-3.46973,-0.00259832,-0.00144384,-0.00244644,0.0398952,0.0348841,0.279952,-3.65664,0.301111,-0.176387,-0.330025,0.223466,-0.44051,0.293717,0.279952,0,0,217,36,217,36,340,31,222,155,-0.229138,-0.483282,0.352368,-1.5,0,0,0,1,-0.330025,0.223466,0,0,0,0,-0.44051,0.293717,15748,0,0,0,0,0,0,0,0,0,1,-0.245813
7747,-0.157227,-0.100586,-6.79688,-0.00215624,-0.000664115,-0.00202543,0.0398418,0.034869,0.279922,-3.65664,0.301111,-0.176387,-0.336664,0.227891,-0.443756,0.295733,0.279922,0,0,217,36,217,36,340,31,222,155,-0.231007,-0.483594,0.365051,-1.5,0,0,0,2,-0.336664,0.227891,0,0,0,0,-0.443756,0.295733,15748,0,0,0,0,0,0,0,0,0,1,-0.250681
7763,-0.134766,-0.100586,3.63672,-0.00258642,-0.000494041,-0.000831453,0.0397739,0.0348501,0.279909,-3.65664,0.301111,-0.176387,-0.3438,0.232646,-0.447186,0.297858,0.279909,0,0,217,36,217,36,340,31,222,155,-0.233007,-0.483913,0.379261,-1.5,0,0,0,3,-0.3438,0.232646,0,0,0,0,-0.447186,0.297858,15748,0,0,0,0,0,0,0,0,0,1,-0.25591
7779,-0.0683594,-0.100586,3.39746,-0.00159433,-0.00149965,-0.00287933,0.0396591,0.0348108,0.279841,-3.65664,0.301111,-0.176387,-0.35099,0.237433,-0.450583,0.299957,0.27988,0,0,217,36,217,36,340,31,222,155,-0.235002,-0.484227,0.371505,-1.5,0,0,0,0,-0.35099,0.237433,0,0,0,0,-0.450583,0.299957,15748,0,0,0,0,0,0,0,0,0,1,-0.261176
7794,-0.0400391,-0.100586,5.59473,-0.00197913,-0.000943353,-0.00232838,0.0396024,0.0347852,0.279813,-3.62965,0.29047,-0.185827,-0.357779,0.241951,-0.453738,0.301902,0.279841,0,0,217,36,217,36,341,31,222,155,-0.236869,-0.484517,0.367968,-1.5,0,0,0,1,-0.357779,0.241951,0,0,0,0,-0.453738,0.301902,16120,0,0,0,0,0,0,0,0,0,1,-0.266146
7810,-0.0400391,-0.100586,-6.04395,-0.00320984,-4.13585e-05,-0.00129823,0.0395324,0.0347719,0.279798,-3.62965,0.29047,-0.185827,-0.365074,0.246803,-0.457067,0.303949,0.279798,0,0,217,36,217,36,341,31,222,155,-0.23886,-0.484817,0.382154,-1.5,0,0,0,2,-0.365074,0.246803,0,0,0,0,-0.457067,0.303949,16120,0,0,0,0,0,0,0,0,0,1,-0.271483
7826,-0.0400391,-0.100586,2.72656,-0.00306349,-0.00182838,-0.00165637,0.0394685,0.0347432,0.279775,-3.62103,0.296762,-0.189413,-0.372421,0.251687,-0.460363,0.305969,0.279775,0,0,215,36,215,36,340,31,222,155,-0.240857,-0.485105,0.396295,-1.5,0,0,0,3,-0.372421,0.251687,0,0,0,0,-0.460363,0.305969,16368,0,0,0,0,0,0,0,0,0,1,-0.276856
7842,-0.0400391,-0.100586,2.72656,-0.00306349,-0.00182838,-0.00165637,0.0394685,0.0347432,0.279775,-3.62103,0.296762,-0.189413,-0.379357,0.256295,-0.463424,0.307842,0.279775,0,0,215,36,215,36,340,31,222,155,-0.242736,-0.485361,0.3869,-1.5,0,0,0,0,-0.379357,0.256295,0,0,0,0,-0.463424,0.307842,16368,0,0,0,0,0,0,0,0,0,1,-0.281925
7858,-0.0400391,-0.100586,-5.16504,-0.00240585,-0.000771381,-0.00105837,0.0393537,0.0346949,0.279728,-3.67177,0.30096,-0.16935,-0.387274,0.261552,-0.466862,0.309943,0.279728,0,0,218,36,218,36,341,31,222,155,-0.244853,-0.485654,0.381545,-1.5,0,0,0,1,-0.387274,0.261552,0,0,0,0,-0.466862,0.309943,15500,0,0,0,0,0,0,0,0,0,1,-0.287707
7873,-0.0400391,-0.100586,-5.16504,-0.00240585,-0.000771381,-0.00105837,0.0393537,0.0346949,0.279728,-3.67177,0.30096,-0.16935,-0.394306,0.266219,-0.469863,0.311772,0.279728,0,0,218,36,218,36,341,31,222,155,-0.246733,-0.485894,0.394112,-1.5,0,0,0,2,-0.394306,0.266219,0,0,0,0,-0.469863,0.311772,15500,0,0,0,0,0,0,0,0,0,1,-0.292841
7889,-0.124023,-0.100586,-6.03418,-0.00333864,-0.000965512,-0.00149663,0.0391534,0.0346249,0.279662,-3.67177,0.30096,-0.16935,-0.401857,0.271228,-0.473035,0.313702,0.27968,0,0,218,36,218,36,341,31,222,155,-0.248725,-0.486155,0.408206,-1.5,0,0,0,3,-0.401857,0.271228,0,0,0,0,-0.473035,0.313702,15500,0,0,0,0,0,0,0,0,0,1,-0.298351
7905,-0.157227,-0.100586,-4.95117,-0.00172088,-0.00116485,-0.00227226,0.0391103,0.0345911,0.279626,-3.63623,0.29191,-0.190681,-0.409459,0.276267,-0.47617,0.315601,0.279662,0,0,217,38,217,38,341,31,222,155,-0.250724,-0.486399,0.397199,-1.5,0,0,0,0,-0.409459,0.276267,0,0,0,0,-0.47617,0.315601,16120,0,0,0,0,0,0,0,0,0,1,-0.303894
7921,-0.134766,-0.100586,-3.4209,-0.00164034,-0.00040291,-0.00218363,0.0390572,0.0345793,0.279602,-3.63623,0.29191,-0.190681,-0.41711,0.281336,-0.479269,0.317474,0.279602,0,0,217,38,217,38,341,31,222,155,-0.252709,-0.486645,0.40341,-1.5,0,0,0,2,-0.41711,0.281336,0,0,0,0,-0.479269,0.317474,16120,0,0,0,0,0,0,0,0,0,1,-0.30947
7937,-0.134766,-0.100586,-3.4209,-0.00164034,-0.00040291,-0.00218363,0.0390572,0.0345793,0.279602,-3.66606,0.301019,-0.174902,-0.424809,0.286435,-0.482339,0.319326,0.279602,0,0,217,36,217,36,341,31,223,155,-0.254713,-0.486868,0.428543,-1.5,0,0,0,2,-0.424809,0.286435,0,0,0,0,-0.482339,0.319326,15624,0,0,0,0,0,0,0,0,0,1,-0.315078
7953,-0.015625,-0.100586,-6.41113,-0.00411514,-0.00104256,-0.000973047,0.0389304,0.0345285,0.279548,-3.66606,0.301019,-0.174902,-0.432558,0.291563,-0.485379,0.321156,0.279548,0,0,217,36,217,36,341,31,223,155,-0.256701,-0.487097,0.453675,-1.5,0,0,0,2,-0.432558,0.291563,0,0,0,0,-0.485379,0.321156,15624,0,0,0,0,0,0,0,0,0,1,-0.320719
7968,-0.015625,-0.100586,-6.41113,-0.00411514,-0.00104256,-0.000973047,0.0389304,0.0345285,0.279548,-3.6241,0.29314,-0.189514,-0.439866,0.296396,-0.4882,0.32285,0.279548,0,0,216,35,216,35,340,31,223,156,-0.258581,-0.487291,0.477237,-1.5,0,0,0,2,-0.439866,0.296396,0,0,0,0,-0.4882,0.32285,16375,0,0,0,0,0,0,0,0,0,1,-0.326036
7985,-0.0556641,-0.100586,-1.85645,-0.00264128,-0.00118322,-0.00208159,0.0388092,0.0344769,0.279503,-3.6241,0.29314,-0.189514,-0.447709,0.301581,-0.491181,0.324637,0.279503,0,0,216,35,216,35,340,31,223,156,-0.260572,-0.487503,0.50237,-1.5,0,0,0,2,-0.447709,0.301581,0,0,0,0,-0.491181,0.324637,16375,0,0,0,0,0,0,0,0,0,1,-0.331739
8001,-0.0888672,-0.100586,-3.03906,-0.00258039,-0.00144224,-0.00151264,0.0387425,0.0344547,0.279477,-3.63033,0.293895,-0.184819,-0.455598,0.306794,-0.494127,0.326396,0.279477,0,0,217,36,217,36,340,30,222,155,-0.262568,-0.487701,0.527503,-1.5,0,0,0,2,-0.455598,0.306794,0,0,0,0,-0.494127,0.326396,16250,0,0,0,0,0,0,0,0,0,1,-0.337473
8017,-0.155273,-0.100586,2.72559,-0.00176873,-0.00109011,-0.00105842,0.0386359,0.0344003,0.279434,-3.63033,0.293895,-0.184819,-0.464034,0.312363,-0.497227,0.328243,0.279434,0,0,217,36,217,36,340,30,222,155,-0.264684,-0.487907,0.554206,-1.5,0,0,0,2,-0.464034,0.312363,0,0,0,0,-0.497227,0.328243,16250,0,0,0,0,0,0,0,0,0,1,-0.3436
8043,-0.115234,-0.100586,5.20801,-0.000783866,-0.000342719,-0.00157777,0.038548,0.0343587,0.279378,-3.63033,0.293895,-0.184819,-0.476548,0.320619,-0.501727,0.330916,0.279434,0,0,217,36,217,36,340,30,222,155,-0.267819,-0.488178,0.593476,-1.5,0,0,0,2,-0.476548,0.320619,0,0,0,0,-0.501727,0.330916,16250,0,0,0,0,0,0,0,0,0,1,-0.352681
8151,-0.186523,-0.100586,5.41699,-0.00229972,-0.000930444,-0.00206156,0.0380871,0.0341537,0.279134,-3.68739,0.306207,-0.171866,-0.533182,0.357841,-0.520991,0.342317,0.279155,0,0,218,38,218,38,340,31,222,155,-0.281638,-0.489276,0.764693,-1.5,0,0,0,2,-0.533182,0.357841,0,0,0,0,-0.520991,0.342317,15500,0,0,0,0,0,0,0,0,0,1,-0.393626
8220,-0.0214844,-0.228516,-4.0127,-0.00221133,-0.000461709,-0.00144482,0.037831,0.034019,0.279008,-3.67971,0.308451,-0.175901,-0.569831,0.38187,-0.532328,0.348927,0.279026,0,0,217,38,217,38,340,31,222,155,-0.290319,-0.489762,0.873077,-1.5,0,0,0,2,-0.569831,0.38187,0,0,0,0,-0.532328,0.348927,15624,0,0,0,0,0,0,0,0,0,1,-0.420058
8236,-0.0244141,-0.228516,-5.47168,-0.00108425,-0.00289162,-0.00137423,0.0377876,0.0339784,0.278992,-3.64251,0.307141,-0.186205,-0.577839,0.387118,-0.534681,0.350286,0.279008,0,0,215,36,215,36,341,31,222,155,-0.292189,-0.489842,0.896639,-1.5,0,0,0,2,-0.577839,0.387118,0,0,0,0,-0.534681,0.350286,15872,0,0,0,0,0,0,0,0,0,1,-0.425829
8251,-0.0820312,-0.228516,-6.46094,-0.0020542,-0.00168434,-0.00104668,0.0377321,0.0339507,0.278975,-3.64251,0.307141,-0.186205,-0.58642,0.392737,-0.53716,0.351714,0.278975,0,0,215,36,215,36,341,31,222,155,-0.294178,-0.489924,0.921772,-1.5,0,0,0,2,-0.58642,0.392737,0,0,0,0,-0.53716,0.351714,15872,0,0,0,0,0,0,0,0,0,1,-0.432011
8267,-0.0820312,-0.228516,-6.46094,-0.0020542,-0.00168434,-0.00104668,0.0377321,0.0339507,0.278975,-3.64107,0.293991,-0.187979,-0.59504,0.398379,-0.539614,0.353125,0.278975,0,0,217,36,217,36,340,31,223,155,-0.296178,-0.489989,0.946905,-1.5,0,0,0,2,-0.59504,0.398379,0,0,0,0,-0.539614,0.353125,16120,0,0,0,0,0,0,0,0,0,1,-0.438217
8284,-0.179688,-0.228516,-0.706055,-0.00189129,-0.000732398,-0.00162262,0.0376252,0.033919,0.278919,-3.64107,0.293991,-0.187979,-0.6037,0.404044,-0.542045,0.354519,0.278919,0,0,217,36,217,36,340,31,223,155,-0.29816,-0.490065,0.973608,-1.5,0,0,0,2,-0.6037,0.404044,0,0,0,0,-0.542045,0.354519,16120,0,0,0,0,0,0,0,0,0,1,-0.444448
8300,-0.179688,-0.228516,-0.706055,-0.00189129,-0.000732398,-0.00162262,0.0376252,0.033919,0.278919,-3.63839,0.292191,-0.191652,-0.612944,0.410087,-0.5446,0.355979,0.278919,0,0,217,38,217,38,341,30,223,155,-0.300285,-0.490121,0.998741,-1.5,0,0,0,2,-0.612944,0.410087,0,0,0,0,-0.5446,0.355979,16250,0,0,0,0,0,0,0,0,0,1,-0.451096
8316,-0.179688,-0.228516,-0.706055,-0.00189129,-0.000732398,-0.00162262,0.0376252,0.033919,0.278919,-3.63839,0.292191,-0.191652,-0.621682,0.415797,-0.546985,0.357341,0.278919,0,0,217,38,217,38,341,30,223,155,-0.302286,-0.490168,1.02387,-1.5,0,0,0,2,-0.621682,0.415797,0,0,0,0,-0.546985,0.357341,16250,0,0,0,0,0,0,0,0,0,1,-0.457377
8332,-0.179688,-0.228516,-0.706055,-0.00189129,-0.000732398,-0.00162262,0.0376252,0.033919,0.278919,-3.61634,0.298813,-0.197566,-0.630458,0.421529,-0.549351,0.358693,0.278919,0,0,217,36,217,36,340,31,220,155,-0.304289,-0.49021,1.04901,-1.5,0,0,0,2,-0.630458,0.421529,0,0,0,0,-0.549351,0.358693,16120,0,0,0,0,0,0,0,0,0,1,-0.463682
8348,-0.0185547,-0.150391,-3.28125,-0.00279319,-0.00114268,-0.000927694,0.0373356,0.0337871,0.278814,-3.61634,0.298813,-0.197566,-0.639272,0.427281,-0.551693,0.360029,0.278814,0,0,217,36,217,36,340,31,220,155,-0.306259,-0.490277,1.07414,-1.5,0,0,0,2,-0.639272,0.427281,0,0,0,0,-0.551693,0.360029,16120,0,0,0,0,0,0,0,0,0,1,-0.47001
8364,-0.0683594,-0.117188,-0.602539,-0.00211228,-0.000214636,-0.000836905,0.037279,0.0337767,0.278804,-3.64252,0.307682,-0.187076,-0.648123,0.433055,-0.553988,0.36132,0.278804,0,0,217,36,217,36,341,31,220,155,-0.30825,-0.490306,1.09927,-1.5,0,0,0,2,-0.648123,0.433055,0,0,0,0,-0.553988,0.36132,15624,0,0,0,0,0,0,0,0,0,1,-0.476361
8380,-0.134766,-0.0839844,-0.853516,-0.00275695,-0.00145353,-0.00167035,0.0372155,0.0337466,0.278779,-3.64252,0.307682,-0.187076,-0.65701,0.43885,-0.556257,0.362591,0.278779,0,0,217,36,217,36,341,31,220,155,-0.310236,-0.490333,1.12441,-1.5,0,0,0,2,-0.65701,0.43885,0,0,0,0,-0.556257,0.362591,15624,0,0,0,0,0,0,0,0,0,1,-0.482735
8396,-0.176758,-0.0654297,1.70117,-0.00312392,-0.000993453,-0.000872456,0.0371632,0.0337293,0.278765,-3.64252,0.307682,-0.187076,-0.665933,0.444664,-0.558502,0.363844,0.278765,0,0,217,36,217,36,341,31,220,155,-0.312224,-0.490351,1.14954,-1.5,0,0,0,2,-0.665933,0.444664,0,0,0,0,-0.558502,0.363844,15624,0,0,0,0,0,0,0,0,0,1,-0.48913
8413,-0.137695,-0.09375,6.41992,-0.00279729,-0.0012606,-0.00108275,0.0370988,0.0337116,0.278749,-3.64252,0.307682,-0.187076,-0.674893,0.450498,-0.560725,0.36508,0.278749,0,0,217,36,217,36,341,31,220,155,-0.314211,-0.490364,1.17624,-1.5,0,0,0,2,-0.674893,0.450498,0,0,0,0,-0.560725,0.36508,15624,0,0,0,0,0,0,0,0,0,1,-0.495548
8427,-0.0234375,-0.226562,5.07227,-0.00166169,-0.00199018,-0.00181763,0.0369993,0.0336653,0.278691,-3.64252,0.307682,-0.187076,-0.683323,0.455986,-0.562787,0.366222,0.278722,0,0,217,36,217,36,341,31,220,155,-0.31607,-0.490374,1.19823,-1.5,0,0,0,2,-0.683323,0.455986,0,0,0,0,-0.562787,0.366222,15624,0,0,0,0,0,0,0,0,0,1,-0.501584
8443,0,-0.253906,-0.358398,-0.00108212,-0.00148937,-0.000854605,0.0369501,0.0336408,0.27867,-3.62808,0.296519,-0.194362,-0.692351,0.461858,-0.564963,0.367424,0.278691,0,0,215,38,215,38,341,30,223,155,-0.318052,-0.49038,1.22337,-1.5,0,0,0,2,-0.692351,0.461858,0,0,0,0,-0.564963,0.367424,16500,0,0,0,0,0,0,0,0,0,1,-0.508044
8459,-0.0244141,-0.220703,-4.18066,-0.0011886,-0.00174269,-0.00089876,0.0368982,0.0336155,0.278649,-3.64788,0.295628,-0.184628,-0.701413,0.467749,-0.567113,0.368606,0.278649,0,0,217,36,217,36,340,31,223,155,-0.320028,-0.490383,1.2485,-1.5,0,0,0,2,-0.701413,0.467749,0,0,0,0,-0.567113,0.368606,16120,0,0,0,0,0,0,0,0,0,1,-0.514524
8475,-0.0576172,-0.1875,-2.66016,-0.00226881,-0.000500299,-0.00207914,0.0368441,0.0335981,0.278621,-3.64788,0.295628,-0.184628,-0.710509,0.473659,-0.569238,0.369771,0.278621,0,0,217,36,217,36,340,31,223,155,-0.322008,-0.490376,1.27363,-1.5,0,0,0,2,-0.710509,0.473659,0,0,0,0,-0.569238,0.369771,16120,0,0,0,0,0,0,0,0,0,1,-0.521025
8491,-0.0908203,-0.154297,-0.261719,-0.00194112,-0.00123637,-0.00122893,0.0367903,0.0335756,0.278602,-3.64788,0.295628,-0.184628,-0.719639,0.479587,-0.571341,0.370919,0.278602,0,0,217,36,217,36,340,31,223,155,-0.32399,-0.49036,1.29876,-1.5,0,0,0,2,-0.719639,0.479587,0,0,0,0,-0.571341,0.370919,16120,0,0,0,0,0,0,0,0,0,1,-0.527546
8507,-0.124023,-0.121094,4.93359,-0.00280439,-0.000909914,-0.00220966,0.0367258,0.0335591,0.27857,-3.6582,0.310204,-0.178289,-0.728802,0.485534,-0.573422,0.37205,0.27857,0,0,215,36,215,36,340,30,223,155,-0.325967,-0.490343,1.3239,-1.5,0,0,0,2,-0.728802,0.485534,0,0,0,0,-0.573422,0.37205,16000,0,0,0,0,0,0,0,0,0,1,-0.534087
8523,-0.151367,-0.0927734,5.38281,-0.00364121,-0.00152016,-0.000998491,0.0366052,0.0335086,0.278525,-3.6582,0.310204,-0.178289,-0.737999,0.491499,-0.57548,0.373164,0.278549,0,0,215,36,215,36,340,30,223,155,-0.327947,-0.490317,1.34903,-1.5,0,0,0,2,-0.737999,0.491499,0,0,0,0,-0.57548,0.373164,16000,0,0,0,0,0,0,0,0,0,1,-0.540648
8539,-0.151367,-0.0927734,-3.88379,-0.00223632,-0.000888747,-0.00177515,0.0365456,0.0334847,0.278499,-3.6582,0.310204,-0.178289,-0.747228,0.497481,-0.577515,0.374261,0.278525,0,0,215,36,215,36,340,30,223,155,-0.329924,-0.490286,1.37416,-1.5,0,0,0,2,-0.747228,0.497481,0,0,0,0,-0.577515,0.374261,16000,0,0,0,0,0,0,0,0,0,1,-0.547229
8555,-0.151367,-0.0927734,6.84082,-0.00307973,-0.000205375,-0.00194291,0.0364876,0.0334651,0.27847,-3.6582,0.310204,-0.178289,-0.756489,0.50348,-0.579526,0.375339,0.27847,0,0,215,36,215,36,340,30,223,155,-0.33189,-0.49026,1.3993,-1.5,0,0,0,2,-0.756489,0.50348,0,0,0,0,-0.579526,0.375339,16000,0,0,0,0,0,0,0,0,0,1,-0.553828
8571,-0.151367,-0.0927734,0.382812,-0.00164759,-0.00115386,-0.00236824,0.0364324,0.0334448,0.278438,-3.6599,0.310445,-0.178053,-0.765782,0.509497,-0.581512,0.376397,0.278438,0,0,216,35,216,35,340,31,222,155,-0.333862,-0.490221,1.42443,-1.5,0,0,0,2,-0.765782,0.509497,0,0,0,0,-0.581512,0.376397,15748,0,0,0,0,0,0,0,0,0,1,-0.560446
8587,-0.151367,-0.0927734,-1.80566,-0.00286667,-0.000943664,-0.00256167,0.0363798,0.0334231,0.278413,-3.6599,0.310445,-0.178053,-0.774522,0.515152,-0.583353,0.377374,0.278413,0,0,216,35,216,35,340,31,222,155,-0.33571,-0.490177,1.44799,-1.5,0,0,0,2,-0.774522,0.515152,0,0,0,0,-0.583353,0.377374,15748,0,0,0,0,0,0,0,0,0,1,-0.566667
8603,-0.151367,-0.0927734,-1.80566,-0.00286667,-0.000943664,-0.00256167,0.0363798,0.0334231,0.278413,-3.62194,0.298969,-0.202217,-0.784463,0.52158,-0.58542,0.378467,0.278413,0,0,217,38,217,38,341,31,220,155,-0.337815,-0.490113,1.47469,-1.5,0,0,0,2,-0.784463,0.52158,0,0,0,0,-0.58542,0.378467,16120,0,0,0,0,0,0,0,0,0,1,-0.573738
8618,-0.151367,-0.0927734,-1.54102,-0.00206609,-0.00103795,-0.00273314,0.036273,0.0333827,0.278352,-3.62194,0.298969,-0.202217,-0.793262,0.527266,-0.587224,0.379418,0.278352,0,0,217,38,217,38,341,31,220,155,-0.339652,-0.490072,1.49826,-1.5,0,0,0,2,-0.793262,0.527266,0,0,0,0,-0.587224,0.379418,16120,0,0,0,0,0,0,0,0,0,1,-0.579993
8634,-0.151367,-0.0927734,-1.54102,-0.00206609,-0.00103795,-0.00273314,0.036273,0.0333827,0.278352,-3.61032,0.297741,-0.202803,-0.802087,0.532966,-0.589008,0.380355,0.278352,0,0,215,36,215,36,341,31,222,155,-0.341507,-0.490006,1.52182,-1.5,0,0,0,2,-0.802087,0.532966,0,0,0,0,-0.589008,0.380355,16368,0,0,0,0,0,0,0,0,0,1,-0.586263
8651,-0.0996094,-0.0927734,2.72168,-0.00286059,-0.000934452,-0.00185667,0.036115,0.0333297,0.278261,-3.61032,0.297741,-0.202803,-0.812715,0.539826,-0.591128,0.381463,0.278284,0,0,215,36,215,36,341,31,222,155,-0.343711,-0.489945,1.55009,-1.5,0,0,0,2,-0.812715,0.539826,0,0,0,0,-0.591128,0.381463,16368,0,0,0,0,0,0,0,0,0,1,-0.593809
8667,-0.0996094,-0.0927734,2.72168,-0.00286059,-0.000934452,-0.00185667,0.036115,0.0333297,0.278261,-3.67671,0.307944,-0.176713,-0.822192,0.545939,-0.592985,0.382424,0.278261,0,0,217,36,217,36,340,31,223,155,-0.345679,-0.489871,1.57523,-1.5,0,0,0,2,-0.822192,0.545939,0,0,0,0,-0.592985,0.382424,15624,0,0,0,0,0,0,0,0,0,1,-0.600533
8683,-0.0332031,-0.0927734,-1.78711,-0.00321393,-0.000996188,-0.00128077,0.035988,0.0332787,0.278218,-3.67671,0.307944,-0.176713,-0.831698,0.552068,-0.594823,0.383373,0.278218,0,0,217,36,217,36,340,31,223,155,-0.34764,-0.4898,1.60036,-1.5,0,0,0,2,-0.831698,0.552068,0,0,0,0,-0.594823,0.383373,15624,0,0,0,0,0,0,0,0,0,1,-0.607274
8699,-0.0361328,-0.0927734,6.54102,-0.00349177,-0.000804663,-0.00168915,0.0359235,0.033262,0.278199,-3.62739,0.29288,-0.194573,-0.841234,0.558211,-0.596635,0.384299,0.278199,0,0,217,36,217,36,341,30,223,155,-0.349606,-0.489714,1.62549,-1.5,0,0,0,2,-0.841234,0.558211,0,0,0,0,-0.596635,0.384299,16250,0,0,0,0,0,0,0,0,0,1,-0.614033
8715,-0.0693359,-0.0927734,-6.31348,-0.00323712,-0.0005282,-0.00140664,0.0358601,0.0332451,0.278178,-3.62739,0.29288,-0.194573,-0.850799,0.564369,-0.598427,0.385208,0.278178,0,0,217,36,217,36,341,30,223,155,-0.351569,-0.489625,1.65062,-1.5,0,0,0,2,-0.850799,0.564369,0,0,0,0,-0.598427,0.385208,16250,0,0,0,0,0,0,0,0,0,1,-0.620806
8731,-0.102539,-0.123047,-4.99414,-0.00270586,-0.000847337,-0.00287994,0.035814,0.0332309,0.278142,-3.6832,0.307721,-0.18602,-0.860392,0.570542,-0.600199,0.386103,0.278142,0,0,217,41,217,41,341,31,222,155,-0.353527,-0.489536,1.67576,-1.5,0,0,0,2,-0.860392,0.570542,0,0,0,0,-0.600199,0.386103,15748,0,0,0,0,0,0,0,0,0,1,-0.627596
8747,-0.15918,-0.189453,-6.41797,-0.0026665,-0.00121632,-0.00133251,0.03568,0.0331846,0.27809,-3.6832,0.307721,-0.18602,-0.870013,0.576729,-0.601955,0.386987,0.278142,0,0,217,41,217,41,341,31,222,155,-0.355496,-0.489431,1.70089,-1.5,0,0,0,2,-0.870013,0.576729,0,0,0,0,-0.601955,0.386987,15748,0,0,0,0,0,0,0,0,0,1,-0.634401
8763,-0.15918,-0.189453,-6.41797,-0.0026665,-0.00121632,-0.00133251,0.03568,0.0331846,0.27809,-3.68167,0.311619,-0.179852,-0.879662,0.582929,-0.603684,0.387846,0.27809,0,0,217,38,217,38,340,31,222,155,-0.357444,-0.489338,1.72602,-1.5,0,0,0,2,-0.879662,0.582929,0,0,0,0,-0.603684,0.387846,15624,0,0,0,0,0,0,0,0,0,1,-0.641222
8778,-0.15918,-0.231445,6.79883,-0.00295773,-0.00121174,-0.00169162,0.0355592,0.0331497,0.278037,-3.68167,0.311619,-0.179852,-0.888733,0.588755,-0.60529,0.388641,0.278037,0,0,217,38,217,38,340,31,222,155,-0.359269,-0.489249,1.74958,-1.5,0,0,0,2,-0.888733,0.588755,0,0,0,0,-0.60529,0.388641,15624,0,0,0,0,0,0,0,0,0,1,-0.64763
8794,-0.15918,-0.231445,-6.67871,-0.0029658,-0.00158967,-0.00233912,0.0355006,0.0331302,0.278009,-3.63222,0.296699,-0.202368,-0.898435,0.594981,-0.60698,0.389468,0.278009,0,0,217,38,217,38,341,31,222,156,-0.361221,-0.489138,1.77472,-1.5,0,0,0,2,-0.898435,0.594981,0,0,0,0,-0.60698,0.389468,16250,0,0,0,0,0,0,0,0,0,1,-0.65448
8811,-0.15918,-0.231445,-6.67871,-0.0029658,-0.00158967,-0.00233912,0.0355006,0.0331302,0.278009,-3.63222,0.296699,-0.202368,-0.908773,0.601612,-0.608757,0.390334,0.278009,0,0,217,38,217,38,341,31,222,156,-0.363305,-0.489006,1.80142,-1.5,0,0,0,2,-0.908773,0.601612,0,0,0,0,-0.608757,0.390334,16250,0,0,0,0,0,0,0,0,0,1,-0.661773
8826,-0.108398,-0.231445,6.87891,-0.00187552,0.000341921,-0.000752405,0.0353971,0.0331051,0.277963,-3.63315,0.296287,-0.193009,-0.91792,0.607474,-0.610309,0.391086,0.277963,0,0,217,36,217,36,341,31,222,155,-0.365128,-0.488901,1.82498,-1.5,0,0,0,2,-0.91792,0.607474,0,0,0,0,-0.610309,0.391086,16120,0,0,0,0,0,0,0,0,0,1,-0.668222
8842,-0.0419922,-0.231445,0.34375,-0.00207484,-0.00217234,-0.00231199,0.035298,0.0330727,0.277907,-3.63315,0.296287,-0.193009,-0.927701,0.61374,-0.611947,0.391874,0.277963,0,0,217,36,217,36,341,31,222,155,-0.367087,-0.488768,1.85012,-1.5,0,0,0,2,-0.927701,0.61374,0,0,0,0,-0.611947,0.391874,16120,0,0,0,0,0,0,0,0,0,1,-0.675114
8858,-0.0371094,-0.231445,6.46387,-0.00262414,-0.000665759,-0.00209694,0.0352384,0.0330612,0.277876,-3.69031,0.31079,-0.177467,-0.93751,0.620018,-0.613567,0.392649,0.277907,0,0,217,38,217,38,340,31,223,155,-0.369027,-0.488652,1.87525,-1.5,0,0,0,2,-0.93751,0.620018,0,0,0,0,-0.613567,0.392649,15624,0,0,0,0,0,0,0,0,0,1,-0.68202
8874,-0.0371094,-0.231445,-6.66309,-0.00172979,-0.00124942,-0.00138089,0.0351891,0.0330425,0.277862,-3.69031,0.31079,-0.177467,-0.947343,0.626308,-0.615164,0.393403,0.277862,0,0,217,38,217,38,340,31,223,155,-0.370967,-0.488526,1.90038,-1.5,0,0,0,2,-0.947343,0.626308,0,0,0,0,-0.615164,0.393403,15624,0,0,0,0,0,0,0,0,0,1,-0.688939
8890,-0.0371094,-0.231445,6.9082,-0.00136462,-0.000429212,-0.00121838,0.0351438,0.0330243,0.277842,-3.69031,0.31079,-0.177467,-0.957203,0.63261,-0.616744,0.394143,0.277842,0,0,217,38,217,38,340,31,223,155,-0.372914,-0.488387,1.92551,-1.5,0,0,0,2,-0.957203,0.63261,0,0,0,0,-0.616744,0.394143,15624,0,0,0,0,0,0,0,0,0,1,-0.695871
8906,-0.0371094,-0.231445,6.9082,-0.00136462,-0.000429212,-0.00121838,0.0351438,0.0330243,0.277842,-3.66959,0.308866,-0.179134,-0.967087,0.638924,-0.618307,0.394873,0.277842,0,0,217,36,217,36,340,30,223,155,-0.374866,-0.488236,1.95065,-1.5,0,0,0,2,-0.967087,0.638924,0,0,0,0,-0.618307,0.394873,15750,0,0,0,0,0,0,0,0,0,1,-0.702817
8922,-0.0371094,-0.166992,-6.7998,-0.00183184,-0.00116332,-0.00247901,0.0350379,0.0329931,0.277785,-3.66959,0.308866,-0.179134,-0.976996,0.64525,-0.619854,0.395591,0.277785,0,0,217,36,217,36,340,30,223,155,-0.3768,-0.488103,1.97578,-1.5,0,0,0,2,-0.976996,0.64525,0,0,0,0,-0.619854,0.395591,15750,0,0,0,0,0,0,0,0,0,1,-0.709775
8938,-0.0371094,-0.100586,3.8584,-0.00130565,-0.00194883,-0.00271103,0.0349484,0.0329321,0.277733,-3.60983,0.299464,-0.205066,-0.986929,0.651587,-0.621382,0.396295,0.277785,0,0,215,36,215,36,341,31,222,156,-0.37875,-0.487945,2.00091,-1.5,0,0,0,2,-0.986929,0.651587,0,0,0,0,-0.621382,0.396295,16500,0,0,0,0,0,0,0,0,0,1,-0.716745
8954,-0.0371094,-0.0673828,-3.66602,-0.00284037,-0.000769221,-0.00199582,0.0348992,0.0329202,0.277706,-3.60983,0.299464,-0.205066,-0.996888,0.657935,-0.622892,0.396988,0.277733,0,0,215,36,215,36,341,31,222,156,-0.380682,-0.487802,2.02605,-1.5,0,0,0,2,-0.996888,0.657935,0,0,0,0,-0.622892,0.396988,16500,0,0,0,0,0,0,0,0,0,1,-0.723728
8970,-0.0371094,-0.0673828,-6.99707,-0.0037573,-0.00155425,-0.00107715,0.0348363,0.0329029,0.277678,-3.65339,0.301354,-0.190374,-1.00687,0.664293,-0.624378,0.397662,0.277678,0,0,217,38,217,38,340,31,222,155,-0.38261,-0.487654,2.05118,-1.5,0,0,0,2,-1.00687,0.664293,0,0,0,0,-0.624378,0.397662,16120,0,0,0,0,0,0,0,0,0,1,-0.730723
8985,-0.0371094,-0.0673828,6.81738,-0.00378508,-0.0013759,-0.0020652,0.0347718,0.0328791,0.277651,-3.65339,0.301354,-0.190374,-1.01625,0.670264,-0.625755,0.39828,0.277651,0,0,217,38,217,38,340,31,222,155,-0.384424,-0.487503,2.07474,-1.5,0,0,0,2,-1.01625,0.670264,0,0,0,0,-0.625755,0.39828,16120,0,0,0,0,0,0,0,0,0,1,-0.737291
9002,-0.0371094,-0.0673828,6.81738,-0.00378508,-0.0013759,-0.0020652,0.0347718,0.0328791,0.277651,-3.63577,0.295172,-0.195662,-1.0269,0.677043,-0.627298,0.398969,0.277651,0,0,217,36,217,36,341,31,223,155,-0.386488,-0.487316,2.10145,-1.5,0,0,0,2,-1.0269,0.677043,0,0,0,0,-0.627298,0.398969,16120,0,0,0,0,0,0,0,0,0,1,-0.744747
9017,-0.0371094,-0.185547,-2.55176,-0.0030118,-0.000135688,-0.00148422,0.0346576,0.0328343,0.277591,-3.63577,0.295172,-0.195662,-1.03633,0.683033,-0.628643,0.399565,0.277591,0,0,217,36,217,36,341,31,223,155,-0.388289,-0.48717,2.12501,-1.5,0,0,0,2,-1.03633,0.683033,0,0,0,0,-0.628643,0.399565,16120,0,0,0,0,0,0,0,0,0,1,-0.751337
9032,-0.0371094,-0.243164,4.50293,-0.00173671,-0.000605254,-0.00178731,0.0346103,0.0328209,0.277562,-3.59534,0.303133,-0.21142,-1.04577,0.689032,-0.62997,0.400147,0.277562,0,0,215,36,215,36,341,31,220,155,-0.390097,-0.487009,2.14857,-1.5,0,0,0,2,-1.04577,0.689032,0,0,0,0,-0.62997,0.400147,16368,0,0,0,0,0,0,0,0,0,1,-0.757936
9048,-0.0371094,-0.232422,6.86426,-0.00117193,-0.00122318,-0.00188472,0.034528,0.0327771,0.27749,-3.59534,0.303133,-0.21142,-1.05586,0.695441,-0.631371,0.400757,0.27752,0,0,215,36,215,36,341,31,220,155,-0.392022,-0.486837,2.1737,-1.5,0,0,0,2,-1.05586,0.695441,0,0,0,0,-0.631371,0.400757,16368,0,0,0,0,0,0,0,0,0,1,-0.764985
9064,-0.0371094,-0.232422,6.86426,-0.00117193,-0.00122318,-0.00188472,0.034528,0.0327771,0.27749,-3.64597,0.309999,-0.194313,-1.06598,0.70186,-0.632754,0.401355,0.27749,0,0,215,36,215,36,341,31,223,156,-0.393949,-0.486657,2.19884,-1.5,0,0,0,2,-1.06598,0.70186,0,0,0,0,-0.632754,0.401355,16000,0,0,0,0,0,0,0,0,0,1,-0.772045
9080,-0.0371094,-0.166016,6.13379,-0.00266713,-0.00206156,-0.00237464,0.0344303,0.0327328,0.277421,-3.64597,0.309999,-0.194313,-1.07612,0.708287,-0.634123,0.401946,0.277421,0,0,215,36,215,36,341,31,223,156,-0.395863,-0.486489,2.22397,-1.5,0,0,0,2,-1.07612,0.708287,0,0,0,0,-0.634123,0.401946,16000,0,0,0,0,0,0,0,0,0,1,-0.779116
9096,-0.0371094,-0.132812,0.194336,-0.00219327,-0.00104311,-0.00254619,0.0343858,0.0327187,0.277395,-3.65406,0.308378,-0.186541,-1.08628,0.714725,-0.63547,0.40252,0.277395,0,0,217,36,217,36,341,30,222,155,-0.397788,-0.486299,2.2491,-1.5,0,0,0,2,-1.08628,0.714725,0,0,0,0,-0.63547,0.40252,15750,0,0,0,0,0,0,0,0,0,1,-0.786197
9113,-0.0371094,-0.0996094,-2.19629,-0.000909931,0.00100065,-0.00227915,0.0343552,0.0327137,0.277365,-3.65406,0.308378,-0.186541,-1.0971,0.721574,-0.636886,0.403118,0.277365,0,0,217,36,217,36,341,30,222,155,-0.399831,-0.486094,2.2758,-1.5,0,0,0,2,-1.0971,0.721574,0,0,0,0,-0.636886,0.403118,15750,0,0,0,0,0,0,0,0,0,1,-0.793732
9130,-0.0371094,-0.104492,-2.31836,-0.000750221,-0.0016224,-0.00127726,0.034325,0.0326857,0.277347,-3.63259,0.29823,-0.199927,-1.10794,0.728434,-0.638285,0.403707,0.277347,0,0,217,38,217,38,341,30,222,155,-0.401877,-0.485881,2.30251,-1.5,0,0,0,2,-1.10794,0.728434,0,0,0,0,-0.638285,0.403707,16250,0,0,0,0,0,0,0,0,0,1,-0.801277
9145,-0.0371094,-0.170898,5.35938,-0.00204242,0.000109332,-0.00304874,0.0342226,0.0326563,0.277269,-3.63259,0.29823,-0.199927,-1.11753,0.734494,-0.639507,0.404221,0.277347,0,0,217,38,217,38,341,30,222,155,-0.403687,-0.485684,2.32607,-1.5,0,0,0,2,-1.11753,0.734494,0,0,0,0,-0.639507,0.404221,16250,0,0,0,0,0,0,0,0,0,1,-0.807944
9162,-0.0371094,-0.170898,5.35938,-0.00204242,0.000109332,-0.00304874,0.0342226,0.0326563,0.277269,-3.65418,0.30202,-0.186768,-1.12777,0.740968,-0.640796,0.404758,0.277269,0,0,217,38,217,38,340,30,222,153,-0.405592,-0.485501,2.3512,-1.5,0,0,0,2,-1.12777,0.740968,0,0,0,0,-0.640796,0.404758,15990,0,0,0,0,0,0,0,0,0,1,-0.815064
9177,-0.0371094,-0.237305,6.88867,-0.00190735,-0.000285021,-0.00246062,0.0341349,0.032617,0.277206,-3.65418,0.30202,-0.186768,-1.13804,0.747449,-0.642068,0.405282,0.277206,0,0,217,38,217,38,340,30,222,153,-0.4075,-0.485309,2.37614,-1.5,0,0,0,2,-1.13804,0.747449,0,0,0,0,-0.642068,0.405282,15990,0,0,0,0,0,0,0,0,0,1,-0.822194
9193,-0.0371094,-0.258789,1.48535,-0.00247539,-0.00104901,-0.00322379,0.0340905,0.0326004,0.277166,-3.66231,0.300931,-0.188629,-1.14832,0.753939,-0.643321,0.405791,0.277166,0,0,217,38,217,38,340,31,223,155,-0.409412,-0.485103,2.40035,-1.5,0,0,0,2,-1.14832,0.753939,0,0,0,0,-0.643321,0.405791,16120,0,0,0,0,0,0,0,0,0,1,-0.829333
9210,-0.0371094,-0.225586,-5.83105,-0.000569524,-0.00139819,-0.00193395,0.0340632,0.0325762,0.277148,-3.66231,0.300931,-0.188629,-1.15927,0.760843,-0.644635,0.406322,0.277148,0,0,217,38,217,38,340,31,223,155,-0.41145,-0.484871,2.42525,-1.5,0,0,0,2,-1.15927,0.760843,0,0,0,0,-0.644635,0.406322,16120,0,0,0,0,0,0,0,0,0,1,-0.836928
9225,-0.0371094,-0.192383,4.18359,-0.00106743,-0.00063206,-0.00118397,0.0340184,0.0325605,0.27713,-3.66231,0.300931,-0.188629,-1.16895,0.766942,-0.645781,0.406782,0.27713,0,0,217,38,217,38,340,31,223,155,-0.413247,-0.484663,2.44651,-1.5,0,0,0,2,-1.16895,0.766942,0,0,0,0,-0.645781,0.406782,16120,0,0,0,0,0,0,0,0,0,1,-0.843637
9241,-0.0371094,-0.192383,4.18359,-0.00106743,-0.00063206,-0.00118397,0.0340184,0.0325605,0.27713,-3.64876,0.297638,-0.196598,-1.1793,0.773456,-0.646991,0.407266,0.27713,0,0,217,38,217,38,341,31,223,155,-0.415169,-0.484431,2.4685,-1.5,0,0,0,2,-1.1793,0.773456,0,0,0,0,-0.646991,0.407266,16120,0,0,0,0,0,0,0,0,0,1,-0.850802
9257,-0.0712891,-0.117188,2.32129,-0.00213178,-0.00132499,-0.00124862,0.0339029,0.0325134,0.277066,-3.64876,0.297638,-0.196598,-1.18966,0.779977,-0.648188,0.407741,0.277083,0,0,217,38,217,38,341,31,223,155,-0.417075,-0.484216,2.48978,-1.5,0,0,0,2,-1.18966,0.779977,0,0,0,0,-0.648188,0.407741,16120,0,0,0,0,0,0,0,0,0,1,-0.857975
9273,-0.104492,-0.117188,4.80273,-0.0012216,0.000374284,-0.00224159,0.0338607,0.0325025,0.277034,-3.66654,0.308157,-0.189402,-1.20005,0.786506,-0.649368,0.408204,0.277066,0,0,217,38,217,38,341,31,222,155,-0.418989,-0.483983,2.5104,-1.5,0,0,0,2,-1.20005,0.786506,0,0,0,0,-0.649368,0.408204,15748,0,0,0,0,0,0,0,0,0,1,-0.865156
9288,-0.137695,-0.117188,-2.94141,-0.00242456,-0.00109779,-0.00153157,0.0338023,0.0324891,0.277013,-3.66654,0.308157,-0.189402,-1.2098,0.792633,-0.650461,0.408627,0.277013,0,0,217,38,217,38,341,31,222,155,-0.42077,-0.483779,2.52914,-1.5,0,0,0,2,-1.2098,0.792633,0,0,0,0,-0.650461,0.408627,15748,0,0,0,0,0,0,0,0,0,1,-0.871896
9304,-0.140625,-0.117188,5.66504,-0.00215159,-0.0013154,-0.000966338,0.0337464,0.0324691,0.276997,-3.65465,0.309306,-0.187705,-1.22022,0.799176,-0.651612,0.409066,0.276997,0,0,217,36,217,36,341,30,222,155,-0.42268,-0.48354,2.54852,-1.5,0,0,0,2,-1.22022,0.799176,0,0,0,0,-0.651612,0.409066,15750,0,0,0,0,0,0,0,0,0,1,-0.879093
9320,-0.140625,-0.117188,2.20508,-0.00241719,-0.00126419,-0.00243362,0.0336963,0.032454,0.276956,-3.65465,0.309306,-0.187705,-1.23065,0.805725,-0.652748,0.409493,0.276956,0,0,217,36,217,36,341,30,222,155,-0.42458,-0.483309,2.56729,-1.5,0,0,0,2,-1.23065,0.805725,0,0,0,0,-0.652748,0.409493,15750,0,0,0,0,0,0,0,0,0,1,-0.886298
9336,-0.140625,-0.117188,2.20508,-0.00241719,-0.00126419,-0.00243362,0.0336963,0.032454,0.276956,-3.64897,0.298072,-0.197072,-1.24111,0.812281,-0.653872,0.409912,0.276956,0,0,217,38,217,38,341,31,223,155,-0.426492,-0.483058,2.58547,-1.5,0,0,0,2,-1.24111,0.812281,0,0,0,0,-0.653872,0.409912,16120,0,0,0,0,0,0,0,0,0,1,-0.89351
9352,-0.140625,-0.117188,1.72852,-0.0029256,-0.00132028,-0.00275453,0.0335979,0.0324064,0.276889,-3.64897,0.298072,-0.197072,-1.25158,0.818844,-0.654983,0.410323,0.276889,0,0,217,38,217,38,341,31,223,155,-0.428382,-0.482832,2.60306,-1.5,0,0,0,2,-1.25158,0.818844,0,0,0,0,-0.654983,0.410323,16120,0,0,0,0,0,0,0,0,0,1,-0.900729
9368,-0.140625,-0.117188,-1.79395,-0.00176888,-0.00185054,-0.00127827,0.0335447,0.0323782,0.276879,-3.67518,0.311578,-0.186525,-1.26207,0.825413,-0.656075,0.41072,0.276879,0,0,217,38,217,38,341,31,222,155,-0.430287,-0.482578,2.62009,-1.5,0,0,0,2,-1.26207,0.825413,0,0,0,0,-0.656075,0.41072,15624,0,0,0,0,0,0,0,0,0,1,-0.907955
9383,-0.140625,-0.117188,0.183594,-0.00263136,-0.00172963,-0.00235206,0.0334225,0.0323303,0.276828,-3.67518,0.311578,-0.186525,-1.27192,0.831578,-0.657087,0.411087,0.276879,0,0,217,38,217,38,341,31,222,155,-0.432075,-0.482333,2.63557,-1.5,0,0,0,2,-1.27192,0.831578,0,0,0,0,-0.657087,0.411087,15624,0,0,0,0,0,0,0,0,0,1,-0.914736
9400,-0.140625,-0.117188,0.183594,-0.00263136,-0.00172963,-0.00235206,0.0334225,0.0323303,0.276828,-3.64734,0.298241,-0.193479,-1.28311,0.838571,-0.658212,0.411481,0.276828,0,0,218,38,218,38,341,30,222,155,-0.434081,-0.482073,2.65257,-1.5,0,0,0,2,-1.28311,0.838571,0,0,0,0,-0.658212,0.411481,16125,0,0,0,0,0,0,0,0,0,1,-0.922428
9415,-0.140625,-0.117188,-5.72461,-0.000939598,0.000441371,-0.00112911,0.0333355,0.0322951,0.276794,-3.64734,0.298241,-0.193479,-1.29299,0.844746,-0.659193,0.411823,0.276794,0,0,218,38,218,38,341,30,222,155,-0.435853,-0.481836,2.66708,-1.5,0,0,0,2,-1.29299,0.844746,0,0,0,0,-0.659193,0.411823,16125,0,0,0,0,0,0,0,0,0,1,-0.929221
9430,-0.140625,-0.117188,2.16797,-0.00337126,-0.0012131,-0.00221425,0.0332822,0.0322714,0.276762,-3.64909,0.300977,-0.195626,-1.30289,0.850927,-0.660159,0.412152,0.276762,0,0,217,38,217,38,340,30,223,155,-0.437623,-0.481596,2.68116,-1.5,0,0,0,2,-1.30289,0.850927,0,0,0,0,-0.660159,0.412152,16250,0,0,0,0,0,0,0,0,0,1,-0.936019
9446,-0.140625,-0.117188,-4.74023,-0.00258545,-0.000866443,-0.00140178,0.0332314,0.0322482,0.276732,-3.64909,0.300977,-0.195626,-1.31346,0.857525,-0.661176,0.412495,0.276732,0,0,217,38,217,38,340,30,223,155,-0.439511,-0.481334,2.69572,-1.5,0,0,0,2,-1.31346,0.857525,0,0,0,0,-0.661176,0.412495,16250,0,0,0,0,0,0,0,0,0,1,-0.943277
9462,-0.140625,-0.117188,-5.7832,-0.00338692,-0.00048002,-0.00294079,0.0331723,0.0322236,0.276697,-3.69207,0.318184,-0.180843,-1.32405,0.864128,-0.662179,0.412827,0.276697,0,0,217,38,217,38,341,31,222,155,-0.441396,-0.481072,2.70984,-1.5,0,0,0,2,-1.32405,0.864128,0,0,0,0,-0.662179,0.412827,15376,0,0,0,0,0,0,0,0,0,1,-0.950541
9478,-0.140625,-0.117188,-2.85547,-0.00246788,-0.000129366,-0.00160882,0.0330729,0.0321968,0.276663,-3.69207,0.318184,-0.180843,-1.33465,0.870736,-0.663169,0.413153,0.276697,0,0,217,38,217,38,341,31,222,155,-0.44329,-0.480791,2.72349,-1.5,0,0,0,2,-1.33465,0.870736,0,0,0,0,-0.663169,0.413153,15376,0,0,0,0,0,0,0,0,0,1,-0.95781
9494,-0.140625,-0.117188,-2.85547,-0.00246788,-0.000129366,-0.00160882,0.0330729,0.0321968,0.276663,-3.6244,0.303431,-0.207464,-1.34528,0.87735,-0.664148,0.413468,0.276663,0,0,217,38,217,38,341,31,220,155,-0.445172,-0.480523,2.73673,-1.5,0,0,0,2,-1.34528,0.87735,0,0,0,0,-0.664148,0.413468,16120,0,0,0,0,0,0,0,0,0,1,-0.965085
