timestamp,A_x,A_y,A_z,P,Q,R,Phi,Theta,Psi,poseX,poseY,poseZ,state_X,state_Y,state_Z,state_VzB,state_Bx,state_By,state_Bz,p1_x,p1_y,p2_x,p2_y,p3_x,p3_y,p4_x,p4_y,roll,pitch,yaw,alt,targetHeading,highLevelState,lowLevelState,gateNumber,filtered_x,filtered_y,x_OT,y_OT,vx_OT,vy_OT,filtered_vx,filtered_vygateArearansac_corr_x,ransac_corr_y,ransac_corr_vx,ransac_corr_vy,detectionTimeStamppTermX,dTermX,pTermY,dTermY,vxcmd,vycmd
6429,-0.314453,0.316406,5.77832,0.0204978,1.48472e-05,-0.000456491,0.0506994,-0.0542799,-2.99992,0,0,0,-4.3453e-06,7.79238e-06,-0.00187088,0.00046173,-2.99959,0,0,0,0,0,0,0,0,0,0,0.0355645,0.0734855,0.00469354,-1.5,0,0,0,1,-4.3453e-06,7.79238e-06,0,0,0,0,-0.00187088,0.00046173,1.67972e-19,0,0,0,0,0,0,0,0,0,1,-8.57161e-06
6444,-0.480469,0.288086,5.49902,0.0117784,-0.00161567,-0.00110481,0.0641635,-0.0532181,-3.00087,0,0,0,-9.5273e-05,-6.38906e-05,-0.00863122,-0.00835581,-3.00044,0,0,0,0,0,0,0,0,0,0,0.0333881,0.075502,0.0171752,-1.5,0,0,0,2,-9.5273e-05,-6.38906e-05,0,0,0,0,-0.00863122,-0.00835581,1.67972e-19,0,0,0,0,0,0,0,0,0,1,7.02796e-05
6466,-0.460938,0.320312,0.170898,0.0157751,0.00276411,-0.00217257,0.0728694,-0.0524711,-3.00215,0,0,0,-0.00042477,-0.00047088,-0.0179465,-0.0235769,-3.00157,0,0,0,0,0,0,0,0,0,0,0.0295526,0.0783922,0.0390411,-1.5,0,0,0,3,-0.00042477,-0.00047088,0,0,0,0,-0.0179465,-0.0235769,1.67972e-19,0,0,0,0,0,0,0,0,0,1,0.000517968
6483,-0.583008,0.334961,-6.77734,0.00582135,0.000501974,-0.00246885,0.0785901,-0.051794,-3.00327,0,0,0,-0.000831435,-0.00105122,-0.0251479,-0.0373775,-3.00295,0,0,0,0,0,0,0,0,0,0,0.0258785,0.0807146,0.0278867,-1.5,0,0,0,0,-0.000831435,-0.00105122,0,0,0,0,-0.0251479,-0.0373775,1.67972e-19,0,0,0,0,0,0,0,0,0,1,0.00115635
6499,-0.549805,0.301758,2.86914,0.00512378,0.000520805,-0.00198143,0.0786539,-0.0517773,-3.0033,0,0,0,-0.00129658,-0.00178201,-0.0312983,-0.0503961,-3.0033,0,0,0,0,0,0,0,0,0,0,0.0225779,0.082723,0.0320798,-1.5,0,0,0,1,-0.00129658,-0.00178201,0,0,0,0,-0.0312983,-0.0503961,1.67972e-19,0,0,0,0,0,0,0,0,0,1,0.00196021
6515,-0.535156,0.268555,-1.85254,0.00709414,0.000631469,-0.00207999,0.0787464,-0.0517608,-3.00332,0,0,0,-0.00182138,-0.00265537,-0.0370127,-0.062528,-3.00332,0,0,0,0,0,0,0,0,0,0,0.0195262,0.0845897,0.0460446,-1.5,0,0,0,2,-0.00182138,-0.00265537,0,0,0,0,-0.0370127,-0.062528,1.67972e-19,0,0,0,0,0,0,0,0,0,1,0.0029209
6530,-0.535156,0.249023,-3.02051,0.00883284,0.00146293,-0.00195748,0.0788559,-0.0517313,-3.00335,0,0,0,-0.00247716,-0.00379099,-0.043057,-0.0753852,-3.00335,0,0,0,0,0,0,0,0,0,0,0.0162353,0.0865727,0.0615307,-1.5,0,0,0,3,-0.00247716,-0.00379099,0,0,0,0,-0.043057,-0.0753852,1.67972e-19,0,0,0,0,0,0,0,0,0,1,0.00417009
6546,-0.535156,0.282227,-1.33496,0.00940338,3.21085e-05,-0.00115012,0.0789822,-0.0517255,-3.00337,0,0,0,-0.00322908,-0.00513142,-0.0490477,-0.0881572,-3.00337,0,0,0,0,0,0,0,0,0,0,0.0129079,0.0885473,0.0519101,-1.5,0,0,0,0,-0.00322908,-0.00513142,0,0,0,0,-0.0490477,-0.0881572,1.67972e-19,0,0,0,0,0,0,0,0,0,1,0.00564456
6562,-0.535156,0.348633,-6.86035,0.00888873,-0.000556204,-0.00238673,0.07921,-0.0517324,-3.00342,0,0,0,-0.00407444,-0.00667134,-0.054987,-0.100845,-3.0034,0,0,0,0,0,0,0,0,0,0,0.00954531,0.0905135,0.0525431,-1.5,0,0,0,1,-0.00407444,-0.00667134,0,0,0,0,-0.054987,-0.100845,1.67972e-19,0,0,0,0,0,0,0,0,0,1,0.00733847
6578,-0.586914,0.381836,5.26758,0.0110138,-6.65779e-05,-0.00334675,0.0793498,-0.0517223,-3.00346,0,0,0,-0.00501433,-0.00841341,-0.0608772,-0.113451,-3.00342,0,0,0,0,0,0,0,0,0,0,0.00614538,0.0924723,0.0679969,-1.5,0,0,0,2,-0.00501433,-0.00841341,0,0,0,0,-0.0608772,-0.113451,1.67972e-19,0,0,0,0,0,0,0,0,0,1,0.00925475
6593,-0.65332,0.415039,4.33496,0.0108819,-0.00010905,-0.00231,0.0794846,-0.0517035,-3.00348,0,0,0,-0.00598049,-0.010229,-0.0663513,-0.125208,-3.00348,0,0,0,0,0,0,0,0,0,0,0.00291106,0.0943016,0.0818307,-1.5,0,0,0,3,-0.00598049,-0.010229,0,0,0,0,-0.0663513,-0.125208,1.67972e-19,0,0,0,0,0,0,0,0,0,1,0.0112519
6608,-0.716797,0.425781,-2.41992,0.0109543,7.87142e-05,-0.00223927,0.0796319,-0.0516905,-3.00351,0,0,0,-0.00702831,-0.0122202,-0.0717789,-0.136899,-3.00351,0,0,0,0,0,0,0,0,0,0,-0.000347448,0.0961233,0.0736934,-1.5,0,0,0,0,-0.00702831,-0.0122202,0,0,0,0,-0.0717789,-0.136899,1.67972e-19,0,0,0,0,0,0,0,0,0,1,0.0134422
6625,-0.717773,0.392578,-4.39062,0.0107485,0.00103796,-0.00147157,0.0797828,-0.0516724,-3.00354,0,0,0,-0.00831792,-0.0146973,-0.0778774,-0.150074,-3.00354,0,0,0,0,0,0,0,0,0,0,-0.00408161,0.0981804,0.0752064,-1.5,0,0,0,1,-0.00831792,-0.0146973,0,0,0,0,-0.0778774,-0.150074,1.67972e-19,0,0,0,0,0,0,0,0,0,1,0.016167
6659,-0.618164,0.292969,-4.2334,0.00524738,0.0021194,-0.00184606,0.0800942,-0.0516325,-3.00362,0,0,0,-0.0112867,-0.0204945,-0.0899495,-0.176222,-3.0036,0,0,0,0,0,0,0,0,0,0,-0.011736,0.102288,0.118725,-1.5,0,0,0,2,-0.0112867,-0.0204945,0,0,0,0,-0.0899495,-0.176222,1.67972e-19,0,0,0,0,0,0,0,0,0,1,0.0225439
6672,-0.584961,0.259766,4.9873,0.00589875,0.00093942,-0.00255965,0.0801818,-0.0516084,-3.00365,0,0,0,-0.012492,-0.0228636,-0.0944852,-0.186093,-3.00362,0,0,0,0,0,0,0,0,0,0,-0.0146755,0.10384,0.129233,-1.5,0,0,0,3,-0.012492,-0.0228636,0,0,0,0,-0.0944852,-0.186093,1.67972e-19,0,0,0,0,0,0,0,0,0,1,0.02515
6686,-0.551758,0.257812,2.6582,0.00715846,-0.000495254,-0.00180254,0.0802704,-0.051603,-3.00367,0,0,0,-0.0138578,-0.0255627,-0.0993342,-0.196663,-3.00365,0,0,0,0,0,0,0,0,0,0,-0.0178701,0.105506,0.12247,-1.5,0,0,0,0,-0.0138578,-0.0255627,0,0,0,0,-0.0993342,-0.196663,1.67972e-19,0,0,0,0,0,0,0,0,0,1,0.0281189
6699,-0.544922,0.257812,2.93262,0.00692897,-0.00090868,-0.00152731,0.0803685,-0.051609,-3.00369,0,0,0,-0.0151846,-0.0281967,-0.103802,-0.206422,-3.00367,0,0,0,0,0,0,0,0,0,0,-0.0208565,0.107047,0.12389,-1.5,0,0,0,1,-0.0151846,-0.0281967,0,0,0,0,-0.103802,-0.206422,1.67972e-19,0,0,0,0,0,0,0,0,0,1,0.0310163
6715,-0.544922,0.279297,5.47949,0.0055108,-0.000410775,-0.00226494,0.080437,-0.0516013,-3.00371,0,0,0,-0.0169011,-0.0316212,-0.109263,-0.218363,-3.00369,0,0,0,0,0,0,0,0,0,0,-0.0245639,0.108938,0.137217,-1.5,0,0,0,2,-0.0169011,-0.0316212,0,0,0,0,-0.109263,-0.218363,1.67972e-19,0,0,0,0,0,0,0,0,0,1,0.0347833
6730,-0.544922,0.3125,-4.58398,0.00341014,0.00153396,-0.00163105,0.0804811,-0.0515681,-3.00373,0,0,0,-0.0185892,-0.0350043,-0.11434,-0.229488,-3.00371,0,0,0,0,0,0,0,0,0,0,-0.0280724,0.110705,0.150774,-1.5,0,0,0,3,-0.0185892,-0.0350043,0,0,0,0,-0.11434,-0.229488,1.67972e-19,0,0,0,0,0,0,0,0,0,1,0.0385048
6745,-0.544922,0.345703,4.93457,0.00350971,0.000870856,-0.0010529,0.0805188,-0.0515558,-3.00374,0,0,0,-0.020353,-0.0385536,-0.119373,-0.240535,-3.00374,0,0,0,0,0,0,0,0,0,0,-0.0316104,0.112464,0.142361,-1.5,0,0,0,0,-0.020353,-0.0385536,0,0,0,0,-0.119373,-0.240535,1.67972e-19,0,0,0,0,0,0,0,0,0,1,0.0424089
6761,-0.544922,0.378906,2.94336,0.00492504,0.000105769,-0.000741978,0.0805638,-0.0515404,-3.00376,0,0,0,-0.022319,-0.0425252,-0.124698,-0.252237,-3.00376,0,0,0,0,0,0,0,0,0,0,-0.0354124,0.114334,0.142652,-1.5,0,0,0,1,-0.022319,-0.0425252,0,0,0,0,-0.124698,-0.252237,1.67972e-19,0,0,0,0,0,0,0,0,0,1,0.0467777
6777,-0.572266,0.412109,-4.3457,0.0054944,0.00132779,-0.00139454,0.0806343,-0.0515263,-3.00377,0,0,0,-0.0243697,-0.0466831,-0.129977,-0.263853,-3.00377,0,0,0,0,0,0,0,0,0,0,-0.0392445,0.116197,0.157739,-1.5,0,0,0,2,-0.0243697,-0.0466831,0,0,0,0,-0.129977,-0.263853,1.67972e-19,0,0,0,0,0,0,0,0,0,1,0.0513514
6793,-0.605469,0.433594,-7.32715,0.00573737,0.00246456,-0.00200198,0.080702,-0.0514915,-3.0038,0,0,0,-0.0265044,-0.0510261,-0.135209,-0.275388,-3.0038,0,0,0,0,0,0,0,0,0,0,-0.0431111,0.118052,0.172778,-1.5,0,0,0,3,-0.0265044,-0.0510261,0,0,0,0,-0.135209,-0.275388,1.67972e-19,0,0,0,0,0,0,0,0,0,1,0.0561287
6808,-0.638672,0.400391,7.21777,0.00760468,0.000656561,-0.00179206,0.0808032,-0.0514633,-3.00383,0,0,0,-0.0285795,-0.0552608,-0.140069,-0.286127,-3.00383,0,0,0,0,0,0,0,0,0,0,-0.0467649,0.119783,0.164277,-1.5,0,0,0,0,-0.0285795,-0.0552608,0,0,0,0,-0.140069,-0.286127,1.67972e-19,0,0,0,0,0,0,0,0,0,1,0.0607869
6823,-0.705078,0.333984,4.00195,0.00953243,0.00236838,-0.00129236,0.0810499,-0.0514132,-3.00386,0,0,0,-0.0307272,-0.059656,-0.144888,-0.296801,-3.00384,0,0,0,0,0,0,0,0,0,0,-0.0504429,0.121508,0.164459,-1.5,0,0,0,1,-0.0307272,-0.059656,0,0,0,0,-0.144888,-0.296801,1.67972e-19,0,0,0,0,0,0,0,0,0,1,0.0656216
6840,-0.731445,0.300781,-3.58301,0.0110782,0.00125069,-3.71052e-05,0.081194,-0.0513865,-3.00388,0,0,0,-0.03325,-0.0648341,-0.150299,-0.308826,-3.00386,0,0,0,0,0,0,0,0,0,0,-0.0546524,0.123455,0.179104,-1.5,0,0,0,2,-0.03325,-0.0648341,0,0,0,0,-0.150299,-0.308826,1.67972e-19,0,0,0,0,0,0,0,0,0,1,0.0713175
6854,-0.698242,0.267578,-6.98926,0.0116191,-8.31275e-05,-0.00189473,0.0813473,-0.0513776,-3.0039,0,0,0,-0.0353933,-0.069245,-0.15471,-0.318676,-3.00388,0,0,0,0,0,0,0,0,0,0,-0.0581464,0.125051,0.190929,-1.5,0,0,0,3,-0.0353933,-0.069245,0,0,0,0,-0.15471,-0.318676,1.67972e-19,0,0,0,0,0,0,0,0,0,1,0.0761695
6869,-0.665039,0.258789,6.83496,0.00885485,0.000607575,-0.00178215,0.0814598,-0.0513626,-3.00392,0,0,0,-0.037758,-0.074124,-0.159397,-0.329178,-3.00392,0,0,0,0,0,0,0,0,0,0,-0.0619302,0.126753,0.185491,-1.5,0,0,0,0,-0.037758,-0.074124,0,0,0,0,-0.159397,-0.329178,1.67972e-19,0,0,0,0,0,0,0,0,0,1,0.0815364
6884,-0.631836,0.291992,-6.8623,0.0058485,0.000916756,-0.00159496,0.0815372,-0.0513333,-3.00395,0,0,0,-0.0401928,-0.0791599,-0.164045,-0.339617,-3.00395,0,0,0,0,0,0,0,0,0,0,-0.0657355,0.128451,0.187225,-1.5,0,0,0,1,-0.0401928,-0.0791599,0,0,0,0,-0.164045,-0.339617,1.67972e-19,0,0,0,0,0,0,0,0,0,1,0.0870759
6899,-0.611328,0.325195,-2.48145,0.0022085,-0.000500339,-0.00111578,0.0815717,-0.0513363,-3.00397,0,0,0,-0.0426981,-0.0843545,-0.168655,-0.349989,-3.00397,0,0,0,0,0,0,0,0,0,0,-0.0695672,0.130143,0.20057,-1.5,0,0,0,2,-0.0426981,-0.0843545,0,0,0,0,-0.168655,-0.349989,1.67972e-19,0,0,0,0,0,0,0,0,0,1,0.09279
6915,-0.611328,0.358398,4.58008,0.00314354,-0.000539007,-0.00181461,0.0816043,-0.0513329,-3.00399,0,0,0,-0.0454463,-0.0900664,-0.173533,-0.360974,-3.00399,0,0,0,0,0,0,0,0,0,0,-0.0736826,0.131941,0.212309,-1.5,0,0,0,3,-0.0454463,-0.0900664,0,0,0,0,-0.173533,-0.360974,1.67972e-19,0,0,0,0,0,0,0,0,0,1,0.0990731
6930,-0.611328,0.391602,1.64453,0.000948989,-0.000896227,-0.00158424,0.0816175,-0.0513371,-3.00402,0,0,0,-0.0480932,-0.09558,-0.178071,-0.371195,-3.00402,0,0,0,0,0,0,0,0,0,0,-0.0775676,0.133622,0.203649,-1.5,0,0,0,0,-0.0480932,-0.09558,0,0,0,0,-0.178071,-0.371195,1.67972e-19,0,0,0,0,0,0,0,0,0,1,0.105138
6946,-0.611328,0.424805,-6.15332,0.0023865,-0.000272123,-0.0011711,0.0816472,-0.0513328,-3.00403,0,0,0,-0.0508079,-0.101246,-0.182574,-0.381343,-3.00403,0,0,0,0,0,0,0,0,0,0,-0.0814748,0.135297,0.203124,-1.5,0,0,0,1,-0.0508079,-0.101246,0,0,0,0,-0.182574,-0.381343,1.67972e-19,0,0,0,0,0,0,0,0,0,1,0.111371
6961,-0.611328,0.418945,4.76172,0.00350773,-0.000158923,-0.00201543,0.0817035,-0.0513237,-3.00406,0,0,0,-0.0537777,-0.107457,-0.18734,-0.392091,-3.00406,0,0,0,0,0,0,0,0,0,0,-0.0856728,0.137078,0.215977,-1.5,0,0,0,2,-0.0537777,-0.107457,0,0,0,0,-0.18734,-0.392091,1.67972e-19,0,0,0,0,0,0,0,0,0,1,0.118203
6976,-0.666992,0.289062,6.34766,0.00529484,0.000631425,-0.00224926,0.0818605,-0.0513062,-3.00411,0,0,0,-0.0566307,-0.113435,-0.191771,-0.402098,-3.00408,0,0,0,0,0,0,0,0,0,0,-0.089633,0.138742,0.229218,-1.5,0,0,0,3,-0.0566307,-0.113435,0,0,0,0,-0.191771,-0.402098,1.67972e-19,0,0,0,0,0,0,0,0,0,1,0.124779
6991,-0.700195,0.279297,-3.27148,0.00526116,0.000131445,-0.00127294,0.0819371,-0.0512952,-3.00413,0,0,0,-0.0595498,-0.119563,-0.196167,-0.412042,-3.00411,0,0,0,0,0,0,0,0,0,0,-0.0936247,0.140399,0.220492,-1.5,0,0,0,0,-0.0595498,-0.119563,0,0,0,0,-0.196167,-0.412042,1.67972e-19,0,0,0,0,0,0,0,0,0,1,0.131519
7007,-0.725586,0.279297,3.31934,0.00370777,-0.00142592,-0.00222574,0.0819881,-0.0512988,-3.00417,0,0,0,-0.0627359,-0.126263,-0.200814,-0.422586,-3.00417,0,0,0,0,0,0,0,0,0,0,-0.0979198,0.142158,0.221229,-1.5,0,0,0,1,-0.0627359,-0.126263,0,0,0,0,-0.200814,-0.422586,1.67972e-19,0,0,0,0,0,0,0,0,0,1,0.13889
7022,-0.720703,0.279297,-1.03418,0.00307577,-0.000311644,-0.00202799,0.0820277,-0.0512891,-3.0042,0,0,0,-0.0657888,-0.132695,-0.205136,-0.4324,-3.0042,0,0,0,0,0,0,0,0,0,0,-0.101964,0.143804,0.234437,-1.5,0,0,0,2,-0.0657888,-0.132695,0,0,0,0,-0.205136,-0.4324,1.67972e-19,0,0,0,0,0,0,0,0,0,1,0.145964
7037,-0.6875,0.279297,-4.39648,0.00385129,0.000464526,-0.00116069,0.0820606,-0.0512755,-3.00422,0,0,0,-0.0689062,-0.139272,-0.209424,-0.442146,-3.00422,0,0,0,0,0,0,0,0,0,0,-0.106029,0.145445,0.244476,-1.5,0,0,0,3,-0.0689062,-0.139272,0,0,0,0,-0.209424,-0.442146,1.67972e-19,0,0,0,0,0,0,0,0,0,1,0.1532
7053,-0.654297,0.279297,-3.35352,0.00296059,-6.98747e-05,-0.000402693,0.0820935,-0.0512741,-3.00423,0,0,0,-0.0723047,-0.146455,-0.213961,-0.45247,-3.00423,0,0,0,0,0,0,0,0,0,0,-0.110392,0.147191,0.234123,-1.5,0,0,0,0,-0.0723047,-0.146455,0,0,0,0,-0.213961,-0.45247,1.67972e-19,0,0,0,0,0,0,0,0,0,1,0.161101
7068,-0.621094,0.310547,-0.642578,0.0042008,-0.000406172,-0.000168505,0.0821532,-0.0512731,-3.00425,0,0,0,-0.0755538,-0.153333,-0.21818,-0.462078,-3.00425,0,0,0,0,0,0,0,0,0,0,-0.114505,0.148822,0.231953,-1.5,0,0,0,1,-0.0755538,-0.153333,0,0,0,0,-0.21818,-0.462078,1.67972e-19,0,0,0,0,0,0,0,0,0,1,0.168666
7082,-0.597656,0.34375,4.17773,0.00501062,-0.000403233,-0.00136581,0.0822095,-0.0512646,-3.00426,0,0,0,-0.078643,-0.159881,-0.222088,-0.470988,-3.00426,0,0,0,0,0,0,0,0,0,0,-0.118367,0.150339,0.243554,-1.5,0,0,0,2,-0.078643,-0.159881,0,0,0,0,-0.222088,-0.470988,1.67972e-19,0,0,0,0,0,0,0,0,0,1,0.175869
7098,-0.597656,0.376953,0.382812,0.00596422,0.00132911,-0.00182312,0.0822752,-0.0512433,-3.00429,0,0,0,-0.0822416,-0.16752,-0.226518,-0.481105,-3.00429,0,0,0,0,0,0,0,0,0,0,-0.122809,0.152067,0.255121,-1.5,0,0,0,3,-0.0822416,-0.16752,0,0,0,0,-0.226518,-0.481105,1.67972e-19,0,0,0,0,0,0,0,0,0,1,0.184272
7113,-0.597656,0.408203,1.01855,0.00488092,0.000834942,-0.00176462,0.0824334,-0.0512143,-3.00433,0,0,0,-0.0856793,-0.174828,-0.230635,-0.490526,-3.00431,0,0,0,0,0,0,0,0,0,0,-0.126998,0.153682,0.246291,-1.5,0,0,0,0,-0.0856793,-0.174828,0,0,0,0,-0.230635,-0.490526,1.67972e-19,0,0,0,0,0,0,0,0,0,1,0.19231
7129,-0.597656,0.408203,-2.74121,0.00379617,0.000693957,-0.000980647,0.0824907,-0.0512065,-3.00434,0,0,0,-0.0894139,-0.182778,-0.234989,-0.500512,-3.00433,0,0,0,0,0,0,0,0,0,0,-0.131495,0.155398,0.244508,-1.5,0,0,0,1,-0.0894139,-0.182778,0,0,0,0,-0.234989,-0.500512,1.67972e-19,0,0,0,0,0,0,0,0,0,1,0.201056
7144,-0.597656,0.408203,0.0400391,0.00459119,-7.22952e-05,-0.000293523,0.0825452,-0.0512035,-3.00435,0,0,0,-0.0929768,-0.190373,-0.239035,-0.509809,-3.00434,0,0,0,0,0,0,0,0,0,0,-0.135732,0.157003,0.255551,-1.5,0,0,0,2,-0.0929768,-0.190373,0,0,0,0,-0.239035,-0.509809,1.67972e-19,0,0,0,0,0,0,0,0,0,1,0.20941
7159,-0.621094,0.408203,4.7793,0.00223026,0.000765217,-0.000536508,0.0825696,-0.0511873,-3.00437,0,0,0,-0.0966012,-0.19811,-0.24305,-0.51905,-3.00437,0,0,0,0,0,0,0,0,0,0,-0.14,0.1586,0.268635,-1.5,0,0,0,3,-0.0966012,-0.19811,0,0,0,0,-0.24305,-0.51905,1.67972e-19,0,0,0,0,0,0,0,0,0,1,0.21792
7175,-0.654297,0.387695,-5.24609,0.00359522,0.000354763,-0.00153035,0.0826232,-0.0511704,-3.00439,0,0,0,-0.100533,-0.206514,-0.247295,-0.528836,-3.00439,0,0,0,0,0,0,0,0,0,0,-0.144574,0.160299,0.261321,-1.5,0,0,0,0,-0.100533,-0.206514,0,0,0,0,-0.247295,-0.528836,1.67972e-19,0,0,0,0,0,0,0,0,0,1,0.227166
7190,-0.6875,0.354492,4.36914,0.00569592,-0.000231448,-0.00115559,0.0826859,-0.051162,-3.0044,0,0,0,-0.104281,-0.214535,-0.251242,-0.537946,-3.0044,0,0,0,0,0,0,0,0,0,0,-0.148885,0.161888,0.259761,-1.5,0,0,0,1,-0.104281,-0.214535,0,0,0,0,-0.251242,-0.537946,1.67972e-19,0,0,0,0,0,0,0,0,0,1,0.235988
7205,-0.720703,0.321289,0.0400391,0.00533943,0.000131416,-0.00186829,0.0827528,-0.0511599,-3.00442,0,0,0,-0.108087,-0.222692,-0.255156,-0.547,-3.00442,0,0,0,0,0,0,0,0,0,0,-0.153222,0.163471,0.272815,-1.5,0,0,0,2,-0.108087,-0.222692,0,0,0,0,-0.255156,-0.547,1.67972e-19,0,0,0,0,0,0,0,0,0,1,0.244961
7222,-0.739258,0.288086,-0.222656,0.00316429,0.000430288,-0.00171113,0.0828045,-0.0511417,-3.00444,0,0,0,-0.112474,-0.232103,-0.259556,-0.557189,-3.00444,0,0,0,0,0,0,0,0,0,0,-0.158166,0.165259,0.285829,-1.5,0,0,0,3,-0.112474,-0.232103,0,0,0,0,-0.259556,-0.557189,1.67972e-19,0,0,0,0,0,0,0,0,0,1,0.255313
7237,-0.739258,0.271484,1.0332,0.00228815,-8.9562e-05,-0.000294236,0.0828374,-0.0511309,-3.00445,0,0,0,-0.116404,-0.240547,-0.263403,-0.566113,-3.00445,0,0,0,0,0,0,0,0,0,0,-0.162549,0.166833,0.276876,-1.5,0,0,0,0,-0.116404,-0.240547,0,0,0,0,-0.263403,-0.566113,1.67972e-19,0,0,0,0,0,0,0,0,0,1,0.264602
7253,-0.739258,0.271484,-0.801758,0.00230066,-0.000574107,-0.00213905,0.0828745,-0.0511343,-3.00451,0,0,0,-0.120661,-0.249704,-0.267475,-0.575564,-3.00448,0,0,0,0,0,0,0,0,0,0,-0.167254,0.168504,0.274485,-1.5,0,0,0,1,-0.120661,-0.249704,0,0,0,0,-0.267475,-0.575564,1.67972e-19,0,0,0,0,0,0,0,0,0,1,0.274675
7268,-0.739258,0.271484,4.125,0.00283099,-0.000434098,0.000281667,0.0829086,-0.0511268,-3.00451,0,0,0,-0.124709,-0.258421,-0.271262,-0.584356,-3.00451,0,0,0,0,0,0,0,0,0,0,-0.171686,0.170065,0.287487,-1.5,0,0,0,2,-0.124709,-0.258421,0,0,0,0,-0.271262,-0.584356,1.67972e-19,0,0,0,0,0,0,0,0,0,1,0.284263
7282,-0.739258,0.271484,-2.51074,0.00267346,0.000223804,-0.00225656,0.0829502,-0.0511198,-3.00454,0,0,0,-0.128538,-0.266674,-0.274769,-0.592508,-3.00451,0,0,0,0,0,0,0,0,0,0,-0.175834,0.171522,0.298878,-1.5,0,0,0,3,-0.128538,-0.266674,0,0,0,0,-0.274769,-0.592508,1.67972e-19,0,0,0,0,0,0,0,0,0,1,0.293341
7297,-0.739258,0.271484,-7.16699,0.00358198,0.00030005,-0.00234607,0.083008,-0.0511025,-3.00456,0,0,0,-0.132696,-0.275646,-0.278499,-0.601187,-3.00456,0,0,0,0,0,0,0,0,0,0,-0.180319,0.173069,0.289872,-1.5,0,0,0,0,-0.132696,-0.275646,0,0,0,0,-0.278499,-0.601187,1.67972e-19,0,0,0,0,0,0,0,0,0,1,0.30321
7313,-0.739258,0.271484,-5.73926,0.00499747,-0.00056062,-0.0018758,0.0830759,-0.0510988,-3.00459,0,0,0,-0.137192,-0.285358,-0.282442,-0.610382,-3.00459,0,0,0,0,0,0,0,0,0,0,-0.185117,0.17472,0.289364,-1.5,0,0,0,1,-0.137192,-0.285358,0,0,0,0,-0.282442,-0.610382,1.67972e-19,0,0,0,0,0,0,0,0,0,1,0.313894
7328,-0.739258,0.271484,-2.64453,0.0035659,0.000976751,-0.000983048,0.0831167,-0.0510797,-3.00461,0,0,0,-0.141464,-0.294597,-0.286109,-0.618946,-3.00461,0,0,0,0,0,0,0,0,0,0,-0.189635,0.176264,0.3023,-1.5,0,0,0,2,-0.141464,-0.294597,0,0,0,0,-0.286109,-0.618946,1.67972e-19,0,0,0,0,0,0,0,0,0,1,0.324057
7343,-0.716797,0.271484,1.72754,0.00259963,-0.000845113,-0.0010392,0.0831512,-0.051081,-3.00462,0,0,0,-0.145791,-0.303963,-0.289745,-0.627451,-3.00462,0,0,0,0,0,0,0,0,0,0,-0.194174,0.177804,0.315197,-1.5,0,0,0,3,-0.145791,-0.303963,0,0,0,0,-0.289745,-0.627451,1.67972e-19,0,0,0,0,0,0,0,0,0,1,0.33436
7359,-0.683594,0.271484,-5.47266,0.0048524,0.00017198,-0.00179738,0.0832102,-0.0510711,-3.00465,0,0,0,-0.150467,-0.314097,-0.293594,-0.636461,-3.00465,0,0,0,0,0,0,0,0,0,0,-0.199043,0.179441,0.304561,-1.5,0,0,0,0,-0.150467,-0.314097,0,0,0,0,-0.293594,-0.636461,1.67972e-19,0,0,0,0,0,0,0,0,0,1,0.345507
7374,-0.650391,0.271484,4.05664,0.00892812,-0.000197327,-0.0017181,0.0833189,-0.0510643,-3.00467,0,0,0,-0.154906,-0.323725,-0.297171,-0.644853,-3.00467,0,0,0,0,0,0,0,0,0,0,-0.203632,0.180969,0.302225,-1.5,0,0,0,1,-0.154906,-0.323725,0,0,0,0,-0.297171,-0.644853,1.67972e-19,0,0,0,0,0,0,0,0,0,1,0.356098
7390,-0.611328,0.271484,2.53809,0.0069418,0.00127039,-0.00202162,0.0835164,-0.0510524,-3.00473,0,0,0,-0.159699,-0.334134,-0.300955,-0.653752,-3.00471,0,0,0,0,0,0,0,0,0,0,-0.208555,0.182593,0.31668,-1.5,0,0,0,2,-0.159699,-0.334134,0,0,0,0,-0.300955,-0.653752,1.67972e-19,0,0,0,0,0,0,0,0,0,1,0.367547
7405,-0.611328,0.28418,3.36133,0.00406922,-0.000352116,-0.00161665,0.0835815,-0.0510456,-3.00475,0,0,0,-0.164247,-0.344018,-0.304471,-0.662045,-3.00473,0,0,0,0,0,0,0,0,0,0,-0.21319,0.184113,0.327309,-1.5,0,0,0,3,-0.164247,-0.344018,0,0,0,0,-0.304471,-0.662045,1.67972e-19,0,0,0,0,0,0,0,0,0,1,0.37842
7420,-0.611328,0.350586,-1.91699,0.00374271,-0.0011695,-0.00162078,0.0836352,-0.0510501,-3.00477,0,0,0,-0.168847,-0.354029,-0.307959,-0.670288,-3.00475,0,0,0,0,0,0,0,0,0,0,-0.217848,0.185628,0.31819,-1.5,0,0,0,0,-0.168847,-0.354029,0,0,0,0,-0.307959,-0.670288,1.67972e-19,0,0,0,0,0,0,0,0,0,1,0.389432
7436,-0.611328,0.412109,1.49414,0.00201903,-0.00081004,-0.0010993,0.0836537,-0.0510469,-3.00479,0,0,0,-0.1735,-0.364162,-0.31142,-0.678482,-3.00479,0,0,0,0,0,0,0,0,0,0,-0.222534,0.187137,0.315609,-1.5,0,0,0,1,-0.1735,-0.364162,0,0,0,0,-0.31142,-0.678482,1.67972e-19,0,0,0,0,0,0,0,0,0,1,0.400578
7451,-0.611328,0.425781,-5.75098,0.00112949,0.000253889,-0.00171383,0.0836667,-0.0510403,-3.00481,0,0,0,-0.17852,-0.375107,-0.315082,-0.687157,-3.00481,0,0,0,0,0,0,0,0,0,0,-0.227547,0.188745,0.330011,-1.5,0,0,0,2,-0.17852,-0.375107,0,0,0,0,-0.315082,-0.687157,1.67972e-19,0,0,0,0,0,0,0,0,0,1,0.412617
7467,-0.629883,0.410156,3.51562,0.00126037,-2.98361e-05,-0.000777979,0.0836906,-0.0510375,-3.00483,0,0,0,-0.183599,-0.386189,-0.318714,-0.695766,-3.00483,0,0,0,0,0,0,0,0,0,0,-0.232582,0.190349,0.342121,-1.5,0,0,0,3,-0.183599,-0.386189,0,0,0,0,-0.318714,-0.695766,1.67972e-19,0,0,0,0,0,0,0,0,0,1,0.424808
7481,-0.663086,0.376953,3.66504,0.0011005,2.65959e-05,-0.00193868,0.0837127,-0.0510312,-3.00487,0,0,0,-0.188089,-0.395996,-0.321867,-0.703244,-3.00487,0,0,0,0,0,0,0,0,0,0,-0.237011,0.191744,0.334507,-1.5,0,0,0,0,-0.188089,-0.395996,0,0,0,0,-0.321867,-0.703244,1.67972e-19,0,0,0,0,0,0,0,0,0,1,0.435595
7496,-0.696289,0.34375,5.29395,0.00402586,-0.000897712,-0.00148905,0.0837652,-0.0510273,-3.00489,0,0,0,-0.192948,-0.406619,-0.32522,-0.711204,-3.00489,0,0,0,0,0,0,0,0,0,0,-0.241769,0.193239,0.330735,-1.5,0,0,0,1,-0.192948,-0.406619,0,0,0,0,-0.32522,-0.711204,1.67972e-19,0,0,0,0,0,0,0,0,0,1,0.447281
7511,-0.729492,0.310547,-6.71777,0.00349631,0.000478941,-0.00251899,0.0838103,-0.0510222,-3.00492,0,0,0,-0.197859,-0.417364,-0.328547,-0.719112,-3.00492,0,0,0,0,0,0,0,0,0,0,-0.246554,0.194727,0.343505,-1.5,0,0,0,2,-0.197859,-0.417364,0,0,0,0,-0.328547,-0.719112,1.67972e-19,0,0,0,0,0,0,0,0,0,1,0.4591
7526,-0.762695,0.277344,0.24707,0.00268829,1.10676e-05,-0.00111677,0.0838486,-0.0510127,-3.00494,0,0,0,-0.202819,-0.428227,-0.331847,-0.726966,-3.00494,0,0,0,0,0,0,0,0,0,0,-0.251355,0.196213,0.356237,-1.5,0,0,0,3,-0.202819,-0.428227,0,0,0,0,-0.331847,-0.726966,1.67972e-19,0,0,0,0,0,0,0,0,0,1,0.471049
7542,-0.736328,0.274414,5.1709,0.00540666,-0.000800369,-0.00115701,0.0839738,-0.0510233,-3.00497,0,0,0,-0.208164,-0.439943,-0.335339,-0.735286,-3.00495,0,0,0,0,0,0,0,0,0,0,-0.256491,0.197799,0.346312,-1.5,0,0,0,0,-0.208164,-0.439943,0,0,0,0,-0.335339,-0.735286,1.67972e-19,0,0,0,0,0,0,0,0,0,1,0.483937
7557,-0.703125,0.274414,3.84375,0.00447145,0.000208399,-0.00185708,0.0840256,-0.0510057,-3.005,0,0,0,-0.213226,-0.451047,-0.338588,-0.743036,-3.00497,0,0,0,0,0,0,0,0,0,0,-0.261332,0.199278,0.343226,-1.5,0,0,0,1,-0.213226,-0.451047,0,0,0,0,-0.338588,-0.743036,1.67972e-19,0,0,0,0,0,0,0,0,0,1,0.496152
7572,-0.669922,0.274414,2.88184,0.00380155,0.000432892,-0.00127673,0.0840765,-0.0509937,-3.00502,0,0,0,-0.218336,-0.462267,-0.34181,-0.750737,-3.005,0,0,0,0,0,0,0,0,0,0,-0.266198,0.20075,0.366788,-1.5,0,0,0,1,-0.218336,-0.462267,0,0,0,0,-0.34181,-0.750737,1.67972e-19,0,0,0,0,0,0,0,0,0,1,0.508494
7588,-0.636719,0.303711,-2.98633,0.00514323,-0.000212073,-0.00167386,0.0841465,-0.0509957,-3.00505,0,0,0,-0.223839,-0.474362,-0.345216,-0.758901,-3.00505,0,0,0,0,0,0,0,0,0,0,-0.271416,0.202312,0.391921,-1.5,0,0,0,1,-0.223839,-0.474362,0,0,0,0,-0.345216,-0.758901,1.67972e-19,0,0,0,0,0,0,0,0,0,1,0.521799
7603,-0.626953,0.336914,-0.988281,0.00411984,0.000156457,-0.00135868,0.0841979,-0.050993,-3.00506,0,0,0,-0.229048,-0.48582,-0.348383,-0.766506,-3.00506,0,0,0,0,0,0,0,0,0,0,-0.276318,0.203781,0.415483,-1.5,0,0,0,1,-0.229048,-0.48582,0,0,0,0,-0.348383,-0.766506,1.67972e-19,0,0,0,0,0,0,0,0,0,1,0.534402
7619,-0.626953,0.370117,6.06055,0.00215033,0.000546568,-0.00209481,0.0842354,-0.0509752,-3.00509,0,0,0,-0.234657,-0.498166,-0.351733,-0.774562,-3.00509,0,0,0,0,0,0,0,0,0,0,-0.281573,0.205339,0.440616,-1.5,0,0,0,1,-0.234657,-0.498166,0,0,0,0,-0.351733,-0.774562,1.67972e-19,0,0,0,0,0,0,0,0,0,1,0.547982
7634,-0.626953,0.40332,-1.47461,0.00405312,0.000800324,-0.00132586,0.0842976,-0.0509573,-3.0051,0,0,0,-0.239962,-0.509855,-0.354846,-0.782063,-3.0051,0,0,0,0,0,0,0,0,0,0,-0.286516,0.206798,0.464178,-1.5,0,0,0,1,-0.239962,-0.509855,0,0,0,0,-0.354846,-0.782063,1.67972e-19,0,0,0,0,0,0,0,0,0,1,0.56084
7649,-0.626953,0.436523,-2.47852,0.00542163,0.000345229,-0.0022974,0.0843698,-0.0509388,-3.00513,0,0,0,-0.245314,-0.521656,-0.357932,-0.789517,-3.00513,0,0,0,0,0,0,0,0,0,0,-0.291483,0.20825,0.487739,-1.5,0,0,0,1,-0.245314,-0.521656,0,0,0,0,-0.357932,-0.789517,1.67972e-19,0,0,0,0,0,0,0,0,0,1,0.573822
7665,-0.626953,0.421875,-2.22656,0.00575195,6.83567e-05,-0.000944693,0.0844418,-0.0509333,-3.00515,0,0,0,-0.251074,-0.534369,-0.361195,-0.797418,-3.00515,0,0,0,0,0,0,0,0,0,0,-0.296799,0.209797,0.512872,-1.5,0,0,0,1,-0.251074,-0.534369,0,0,0,0,-0.361195,-0.797418,1.67972e-19,0,0,0,0,0,0,0,0,0,1,0.587806
7681,-0.626953,0.355469,5.42188,0.00475285,0.000630264,-0.00158894,0.0845747,-0.0509087,-3.00519,0,0,0,-0.256887,-0.54721,-0.364431,-0.805267,-3.00517,0,0,0,0,0,0,0,0,0,0,-0.302141,0.211338,0.538005,-1.5,0,0,0,1,-0.256887,-0.54721,0,0,0,0,-0.364431,-0.805267,1.67972e-19,0,0,0,0,0,0,0,0,0,1,0.601931
7696,-0.632812,0.322266,-2.49707,0.00524431,0.0015642,-0.00100854,0.0846345,-0.0508775,-3.0052,0,0,0,-0.262382,-0.559358,-0.367437,-0.812578,-3.00519,0,0,0,0,0,0,0,0,0,0,-0.307168,0.212779,0.561567,-1.5,0,0,0,1,-0.262382,-0.559358,0,0,0,0,-0.367437,-0.812578,1.67972e-19,0,0,0,0,0,0,0,0,0,1,0.615294
7711,-0.666016,0.289062,-7.23828,0.00680239,0.000499782,-0.00153444,0.084725,-0.0508611,-3.00523,0,0,0,-0.267921,-0.571615,-0.370413,-0.819846,-3.0052,0,0,0,0,0,0,0,0,0,0,-0.312209,0.214219,0.583558,-1.5,0,0,0,1,-0.267921,-0.571615,0,0,0,0,-0.370413,-0.819846,1.67972e-19,0,0,0,0,0,0,0,0,0,1,0.628776
7726,-0.699219,0.261719,5.01758,0.00710918,0.000357824,-0.00267702,0.0848253,-0.0508604,-3.00526,0,0,0,-0.273506,-0.583983,-0.373364,-0.827076,-3.00526,0,0,0,0,0,0,0,0,0,0,-0.31729,0.215641,0.60712,-1.5,0,0,0,1,-0.273506,-0.583983,0,0,0,0,-0.373364,-0.827076,1.67972e-19,0,0,0,0,0,0,0,0,0,1,0.642381
7742,-0.732422,0.28418,2.40137,0.00635318,0.00010884,-0.00242264,0.084909,-0.0508561,-3.00528,0,0,0,-0.279512,-0.597294,-0.376485,-0.834745,-3.00528,0,0,0,0,0,0,0,0,0,0,-0.322719,0.217165,0.632252,-1.5,0,0,0,1,-0.279512,-0.597294,0,0,0,0,-0.376485,-0.834745,1.67972e-19,0,0,0,0,0,0,0,0,0,1,0.657023
7757,-0.765625,0.317383,-3.9834,0.00407234,-0.000286851,-0.00160293,0.0849701,-0.0508471,-3.0053,0,0,0,-0.285187,-0.609884,-0.379385,-0.841891,-3.0053,0,0,0,0,0,0,0,0,0,0,-0.32783,0.218588,0.655814,-1.5,0,0,0,1,-0.285187,-0.609884,0,0,0,0,-0.379385,-0.841891,1.67972e-19,0,0,0,0,0,0,0,0,0,1,0.670873
7773,-0.751953,0.350586,-3.25684,0.00427327,0.000479352,-0.0027836,0.0850199,-0.0508395,-3.00533,0,0,0,-0.290906,-0.622581,-0.382262,-0.848991,-3.00533,0,0,0,0,0,0,0,0,0,0,-0.332961,0.220008,0.679376,-1.5,0,0,0,1,-0.290906,-0.622581,0,0,0,0,-0.382262,-0.848991,1.67972e-19,0,0,0,0,0,0,0,0,0,1,0.684839
7788,-0.685547,0.366211,2.06641,0.00262722,0.000652449,-0.00183286,0.0850588,-0.050825,-3.00535,0,0,0,-0.297053,-0.636242,-0.385305,-0.856513,-3.00535,0,0,0,0,0,0,0,0,0,0,-0.33845,0.22152,0.704509,-1.5,0,0,0,1,-0.297053,-0.636242,0,0,0,0,-0.385305,-0.856513,1.67972e-19,0,0,0,0,0,0,0,0,0,1,0.699866
7803,-0.619141,0.333008,-6.09668,0.00258669,0.00135568,-0.00122071,0.085089,-0.0508021,-3.00537,0,0,0,-0.30286,-0.649157,-0.388133,-0.863515,-3.00537,0,0,0,0,0,0,0,0,0,0,-0.343616,0.222933,0.728071,-1.5,0,0,0,1,-0.30286,-0.649157,0,0,0,0,-0.388133,-0.863515,1.67972e-19,0,0,0,0,0,0,0,0,0,1,0.714073
7818,-0.610352,0.274414,5.58789,0.00460445,0.00155079,-0.00239673,0.0851966,-0.0507547,-3.00541,0,0,0,-0.308709,-0.662177,-0.390936,-0.87047,-3.00538,0,0,0,0,0,0,0,0,0,0,-0.348795,0.224346,0.751633,-1.5,0,0,0,1,-0.308709,-0.662177,0,0,0,0,-0.390936,-0.87047,1.67972e-19,0,0,0,0,0,0,0,0,0,1,0.728395
7834,-0.635742,0.274414,6.69922,0.00341196,0.00086884,-0.00164934,0.0852514,-0.0507447,-3.00543,0,0,0,-0.314994,-0.67618,-0.393897,-0.87784,-3.00541,0,0,0,0,0,0,0,0,0,0,-0.354345,0.225844,0.776765,-1.5,0,0,0,1,-0.314994,-0.67618,0,0,0,0,-0.393897,-0.87784,1.67972e-19,0,0,0,0,0,0,0,0,0,1,0.743798
7849,-0.668945,0.274414,-4.64355,0.00193121,0.000613273,-0.00137292,0.085288,-0.0507319,-3.00545,0,0,0,-0.320929,-0.689414,-0.396647,-0.884707,-3.00543,0,0,0,0,0,0,0,0,0,0,-0.359567,0.227244,0.800215,-1.5,0,0,0,1,-0.320929,-0.689414,0,0,0,0,-0.396647,-0.884707,1.67972e-19,0,0,0,0,0,0,0,0,0,1,0.758356
7864,-0.702148,0.274414,1.63965,0.00651736,-0.000122005,-0.000964994,0.0853588,-0.0507298,-3.00546,0,0,0,-0.326905,-0.702751,-0.399375,-0.891529,-3.00546,0,0,0,0,0,0,0,0,0,0,-0.36481,0.228638,0.823087,-1.5,0,0,0,1,-0.326905,-0.702751,0,0,0,0,-0.399375,-0.891529,1.67972e-19,0,0,0,0,0,0,0,0,0,1,0.773026
7880,-0.735352,0.274414,-3.91016,0.010206,0.0013384,-0.00107023,0.0854924,-0.050717,-3.00548,0,0,0,-0.333326,-0.717091,-0.402259,-0.898766,-3.00548,0,0,0,0,0,0,0,0,0,0,-0.37042,0.230126,0.846752,-1.5,0,0,0,1,-0.333326,-0.717091,0,0,0,0,-0.402259,-0.898766,1.67972e-19,0,0,0,0,0,0,0,0,0,1,0.7888
7895,-0.764648,0.274414,6.0625,0.0134978,-0.00115625,-0.00238284,0.0856591,-0.0507136,-3.0055,0,0,0,-0.339385,-0.730636,-0.404938,-0.905518,-3.0055,0,0,0,0,0,0,0,0,0,0,-0.375702,0.231515,0.868231,-1.5,0,0,0,1,-0.339385,-0.730636,0,0,0,0,-0.404938,-0.905518,1.67972e-19,0,0,0,0,0,0,0,0,0,1,0.8037
7909,-0.764648,0.274414,2.00195,0.0174279,-0.00113349,-0.00254999,0.0858969,-0.0507323,-3.00553,0,0,0,-0.345076,-0.743369,-0.407416,-0.911803,-3.00553,0,0,0,0,0,0,0,0,0,0,-0.380654,0.232807,0.887701,-1.5,0,0,0,1,-0.345076,-0.743369,0,0,0,0,-0.407416,-0.911803,1.67972e-19,0,0,0,0,0,0,0,0,0,1,0.817706
7924,-0.764648,0.274414,-4.0918,0.0188139,0.00134027,-0.00252371,0.0861421,-0.0507128,-3.00557,0,0,0,-0.351213,-0.757111,-0.41005,-0.918523,-3.00557,0,0,0,0,0,0,0,0,0,0,-0.384498,0.233981,0.907977,-1.5,0,0,0,1,-0.351213,-0.757111,0,0,0,0,-0.41005,-0.918523,1.67972e-19,0,0,0,0,0,0,0,0,0,1,0.832822
7940,-0.764648,0.293945,-5.43262,0.0168998,0.000710039,-0.00094547,0.0863788,-0.0506927,-3.00558,0,0,0,-0.357802,-0.771881,-0.412829,-0.925673,-3.00558,0,0,0,0,0,0,0,0,0,0,-0.38441,0.234665,0.928942,-1.5,0,0,0,1,-0.357802,-0.771881,0,0,0,0,-0.412829,-0.925673,1.67972e-19,0,0,0,0,0,0,0,0,0,1,0.849069
7955,-0.764648,0.327148,-6.41895,0.0158325,-0.000971939,-0.00204338,0.0865985,-0.050696,-3.0056,0,0,0,-0.364019,-0.78583,-0.415409,-0.932357,-3.0056,0,0,0,0,0,0,0,0,0,0,-0.384332,0.235295,0.947993,-1.5,0,0,0,1,-0.364019,-0.78583,0,0,0,0,-0.415409,-0.932357,1.67972e-19,0,0,0,0,0,0,0,0,0,1,0.864413
7971,-0.764648,0.393555,-0.647461,0.01048,-0.000114664,-0.00226011,0.086923,-0.050676,-3.00565,0,0,0,-0.370275,-0.79988,-0.417965,-0.939022,-3.00562,0,0,0,0,0,0,0,0,0,0,-0.384254,0.23592,0.966479,-1.5,0,0,0,1,-0.370275,-0.79988,0,0,0,0,-0.417965,-0.939022,1.67972e-19,0,0,0,0,0,0,0,0,0,1,0.879868
7986,-0.764648,0.426758,5.23926,0.00711664,0.00114494,-0.00132614,0.0870214,-0.0506616,-3.00567,0,0,0,-0.376991,-0.814979,-0.420666,-0.946104,-3.00565,0,0,0,0,0,0,0,0,0,0,-0.384172,0.236579,0.985605,-1.5,0,0,0,1,-0.376991,-0.814979,0,0,0,0,-0.420666,-0.946104,1.67972e-19,0,0,0,0,0,0,0,0,0,1,0.896477
8002,-0.764648,0.410156,0.110352,0.00597527,0.0027983,-0.000852328,0.0871095,-0.0506189,-3.00568,0,0,0,-0.383325,-0.829234,-0.423172,-0.952718,-3.00568,0,0,0,0,0,0,0,0,0,0,-0.384102,0.237186,1.00297,-1.5,0,0,0,1,-0.383325,-0.829234,0,0,0,0,-0.423172,-0.952718,1.67972e-19,0,0,0,0,0,0,0,0,0,1,0.912158
8017,-0.764648,0.376953,-4.3418,0.00647586,0.000130882,-0.00201912,0.0871948,-0.0506109,-3.00571,0,0,0,-0.390124,-0.844552,-0.425817,-0.959731,-3.00571,0,0,0,0,0,0,0,0,0,0,-0.384023,0.237831,1.02095,-1.5,0,0,0,1,-0.390124,-0.844552,0,0,0,0,-0.425817,-0.959731,1.67972e-19,0,0,0,0,0,0,0,0,0,1,0.929007
8032,-0.764648,0.34375,-5.71875,0.00605611,-0.000722796,-0.00194046,0.0872766,-0.050612,-3.00573,0,0,0,-0.396535,-0.859011,-0.428275,-0.966268,-3.00573,0,0,0,0,0,0,0,0,0,0,-0.38395,0.238431,1.03727,-1.5,0,0,0,1,-0.396535,-0.859011,0,0,0,0,-0.428275,-0.966268,1.67972e-19,0,0,0,0,0,0,0,0,0,1,0.944912
8048,-0.764648,0.310547,-3.21582,0.00665,0.000538996,-0.00207634,0.0873677,-0.050591,-3.00576,0,0,0,-0.403415,-0.874544,-0.430874,-0.973203,-3.00576,0,0,0,0,0,0,0,0,0,0,-0.383872,0.239065,1.05415,-1.5,0,0,0,1,-0.403415,-0.874544,0,0,0,0,-0.430874,-0.973203,1.67972e-19,0,0,0,0,0,0,0,0,0,1,0.961998
8063,-0.764648,0.277344,-0.566406,0.00587524,-4.81282e-05,-0.00183057,0.0874433,-0.0505813,-3.00579,0,0,0,-0.409901,-0.889204,-0.433287,-0.979665,-3.00579,0,0,0,0,0,0,0,0,0,0,-0.383803,0.239651,1.06949,-1.5,0,0,0,1,-0.409901,-0.889204,0,0,0,0,-0.433287,-0.979665,1.67972e-19,0,0,0,0,0,0,0,0,0,1,0.978125
8081,-0.764648,0.246094,2.9541,0.00611876,1.40517e-05,-0.00199832,0.0876232,-0.0505802,-3.00584,0,0,0,-0.417736,-0.906933,-0.436159,-0.987373,-3.00582,0,0,0,0,0,0,0,0,0,0,-0.383716,0.240353,1.08733,-1.5,0,0,0,1,-0.417736,-0.906933,0,0,0,0,-0.436159,-0.987373,1.67972e-19,0,0,0,0,0,0,0,0,0,1,0.997626
8099,-0.764648,0.249023,-4.98535,0.00564117,0.000283188,-0.00135349,0.0877032,-0.0505755,-3.00586,0,0,0,-0.42562,-0.924796,-0.439003,-0.99503,-3.00586,0,0,0,0,0,0,0,0,0,0,-0.383638,0.241041,1.10452,-1.5,0,0,0,1,-0.42562,-0.924796,0,0,0,0,-0.439003,-0.99503,1.67972e-19,0,0,0,0,0,0,0,0,0,1,1
8113,-0.764648,0.282227,6.20605,0.00402893,-0.000358741,-0.00177895,0.0877513,-0.0505709,-3.00588,0,0,0,-0.431786,-0.938779,-0.441192,-1.00095,-3.00588,0,0,0,0,0,0,0,0,0,0,-0.383574,0.241574,1.11744,-1.5,0,0,0,1,-0.431786,-0.938779,0,0,0,0,-0.441192,-1.00095,1.67972e-19,0,0,0,0,0,0,0,0,0,1,1
8128,-0.764648,0.31543,4.89062,0.00545895,-5.35785e-06,-0.00241512,0.0878273,-0.050569,-3.00591,0,0,0,-0.438425,-0.953853,-0.44352,-1.00726,-3.00591,0,0,0,0,0,0,0,0,0,0,-0.383507,0.242139,1.13089,-1.5,0,0,0,1,-0.438425,-0.953853,0,0,0,0,-0.44352,-1.00726,1.67972e-19,0,0,0,0,0,0,0,0,0,1,1
8143,-0.764648,0.348633,-6.77539,0.00530425,0.000242334,-0.00195939,0.0879001,-0.0505617,-3.00594,0,0,0,-0.4451,-0.969022,-0.44583,-1.01353,-3.00594,0,0,0,0,0,0,0,0,0,0,-0.383442,0.2427,1.14395,-1.5,0,0,0,1,-0.4451,-0.969022,0,0,0,0,-0.44583,-1.01353,1.67972e-19,0,0,0,0,0,0,0,0,0,1,1
8158,-0.764648,0.381836,-2.59961,0.00564777,-0.000303169,-0.00096468,0.0879792,-0.050552,-3.00596,0,0,0,-0.45181,-0.984286,-0.448119,-1.01977,-3.00596,0,0,0,0,0,0,0,0,0,0,-0.383371,0.243261,1.15662,-1.5,0,0,0,1,-0.45181,-0.984286,0,0,0,0,-0.448119,-1.01977,1.67972e-19,0,0,0,0,0,0,0,0,0,1,1
8174,-0.764648,0.415039,6.27637,0.00465916,0.000327712,-0.000709956,0.0880343,-0.0505471,-3.00598,0,0,0,-0.459005,-1.00067,-0.45054,-1.02638,-3.00598,0,0,0,0,0,0,0,0,0,0,-0.383297,0.243854,1.16972,-1.5,0,0,0,1,-0.459005,-1.00067,0,0,0,0,-0.45054,-1.02638,1.67972e-19,0,0,0,0,0,0,0,0,0,1,1
8189,-0.764648,0.427734,0.923828,0.00420858,-0.000170472,-0.00159693,0.0881038,-0.050548,-3.00599,0,0,0,-0.465785,-1.01612,-0.45279,-1.03254,-3.00599,0,0,0,0,0,0,0,0,0,0,-0.383229,0.244404,1.18162,-1.5,0,0,0,1,-0.465785,-1.01612,0,0,0,0,-0.45279,-1.03254,1.67972e-19,0,0,0,0,0,0,0,0,0,1,1
8205,-0.764648,0.401367,-0.470703,0.00365089,-0.000180309,0.000231608,0.0881729,-0.0505325,-3.00604,0,0,0,-0.473053,-1.03271,-0.455171,-1.03907,-3.00603,0,0,0,0,0,0,0,0,0,0,-0.383161,0.244981,1.19393,-1.5,0,0,0,1,-0.473053,-1.03271,0,0,0,0,-0.455171,-1.03907,1.67972e-19,0,0,0,0,0,0,0,0,0,1,1
8220,-0.764648,0.368164,0.677734,0.00309074,-0.0010876,-0.00158843,0.088208,-0.0505268,-3.00606,0,0,0,-0.479902,-1.04835,-0.457384,-1.04514,-3.00604,0,0,0,0,0,0,0,0,0,0,-0.383091,0.245525,1.20437,-1.5,0,0,0,1,-0.479902,-1.04835,0,0,0,0,-0.457384,-1.04514,1.67972e-19,0,0,0,0,0,0,0,0,0,1,1
8235,-0.764648,0.334961,-1.2832,0.00439916,0.000191405,-0.000803829,0.0882687,-0.0505205,-3.00608,0,0,0,-0.486784,-1.06409,-0.459579,-1.05118,-3.00606,0,0,0,0,0,0,0,0,0,0,-0.383028,0.246059,1.21525,-1.5,0,0,0,1,-0.486784,-1.06409,0,0,0,0,-0.459579,-1.05118,1.67972e-19,0,0,0,0,0,0,0,0,0,1,1
8340,-0.764648,0.275391,-2.87988,0.00585203,6.18134e-07,-0.00157556,0.0886884,-0.0504551,-3.0062,0,0,0,-0.536527,-1.17857,-0.474789,-1.09318,-3.0062,0,0,0,0,0,0,0,0,0,0,-0.382571,0.249775,1.28878,-1.5,0,0,0,1,-0.536527,-1.17857,0,0,0,0,-0.474789,-1.09318,1.67972e-19,0,0,0,0,0,0,0,0,0,1,1
8359,-0.764648,0.304688,2.25391,0.00419836,0.000447776,-0.000506813,0.0888017,-0.0504426,-3.00623,0,0,0,-0.545582,-1.19943,-0.47738,-1.10046,-3.00622,0,0,0,0,0,0,0,0,0,0,-0.382494,0.250408,1.29938,-1.5,0,0,0,1,-0.545582,-1.19943,0,0,0,0,-0.47738,-1.10046,1.67972e-19,0,0,0,0,0,0,0,0,0,1,1
8380,-0.764648,0.337891,2.01367,0.00301572,0.00109691,-0.000602452,0.0888371,-0.0504252,-3.00624,0,0,0,-0.555649,-1.22266,-0.48021,-1.10845,-3.00624,0,0,0,0,0,0,0,0,0,0,-0.382406,0.251103,1.31064,-1.5,0,0,0,1,-0.555649,-1.22266,0,0,0,0,-0.48021,-1.10845,1.67972e-19,0,0,0,0,0,0,0,0,0,1,1
8395,-0.764648,0.371094,1.80762,0.00247864,0.000535015,-0.00170289,0.0888695,-0.0504053,-3.00626,0,0,0,-0.562872,-1.23934,-0.482208,-1.11411,-3.00626,0,0,0,0,0,0,0,0,0,0,-0.382347,0.25159,1.31836,-1.5,0,0,0,1,-0.562872,-1.23934,0,0,0,0,-0.482208,-1.11411,1.67972e-19,0,0,0,0,0,0,0,0,0,1,1
8417,-0.764648,0.425781,-0.394531,0.00202417,0.00117384,-0.000710806,0.0889272,-0.050376,-3.00629,0,0,0,-0.573525,-1.26398,-0.48511,-1.12234,-3.00629,0,0,0,0,0,0,0,0,0,0,-0.38226,0.252299,1.32932,-1.5,0,0,0,1,-0.573525,-1.26398,0,0,0,0,-0.48511,-1.12234,1.67972e-19,0,0,0,0,0,0,0,0,0,1,1
8431,-0.764648,0.425781,5.58789,0.00489358,-4.78074e-05,-0.00125273,0.0889944,-0.0503703,-3.0063,0,0,0,-0.580333,-1.27974,-0.486934,-1.12754,-3.0063,0,0,0,0,0,0,0,0,0,0,-0.382207,0.252743,1.33601,-1.5,0,0,0,1,-0.580333,-1.27974,0,0,0,0,-0.486934,-1.12754,1.67972e-19,0,0,0,0,0,0,0,0,0,1,1
8451,-0.764648,0.425781,-2.13574,0.00418783,0.000528052,-0.00154095,0.0890555,-0.0503609,-3.00632,0,0,0,-0.590107,-1.30239,-0.489517,-1.13491,-3.00632,0,0,0,0,0,0,0,0,0,0,-0.382128,0.253376,1.34529,-1.5,0,0,0,1,-0.590107,-1.30239,0,0,0,0,-0.489517,-1.13491,1.67972e-19,0,0,0,0,0,0,0,0,0,1,1
8466,-0.764648,0.425781,-5.5625,0.00410016,0.00147966,-0.00199703,0.0891205,-0.0503343,-3.00634,0,0,0,-0.597469,-1.31947,-0.491432,-1.14041,-3.00634,0,0,0,0,0,0,0,0,0,0,-0.382072,0.253842,1.35198,-1.5,0,0,0,1,-0.597469,-1.31947,0,0,0,0,-0.491432,-1.14041,1.67972e-19,0,0,0,0,0,0,0,0,0,1,1
8487,-0.764648,0.321289,-3,0.0047984,-5.35737e-06,-0.000665111,0.0892765,-0.0503137,-3.00638,0,0,0,-0.607829,-1.34353,-0.494087,-1.14805,-3.00638,0,0,0,0,0,0,0,0,0,0,-0.381997,0.254487,1.36106,-1.5,0,0,0,1,-0.607829,-1.34353,0,0,0,0,-0.494087,-1.14805,1.67972e-19,0,0,0,0,0,0,0,0,0,1,1
8508,-0.764648,0.264648,3.46191,0.00308857,0.00134992,-0.00123595,0.0893275,-0.0502909,-3.0064,0,0,0,-0.618242,-1.36775,-0.496705,-1.15563,-3.0064,0,0,0,0,0,0,0,0,0,0,-0.381918,0.255128,1.36976,-1.5,0,0,0,1,-0.618242,-1.36775,0,0,0,0,-0.496705,-1.15563,1.67972e-19,0,0,0,0,0,0,0,0,0,1,1
8523,-0.764648,0.320312,5.71387,0.00434338,0.000997419,-0.00120865,0.0894479,-0.0502687,-3.00645,0,0,0,-0.625711,-1.38514,-0.498553,-1.16101,-3.00643,0,0,0,0,0,0,0,0,0,0,-0.381869,0.255573,1.37572,-1.5,0,0,0,1,-0.625711,-1.38514,0,0,0,0,-0.498553,-1.16101,1.67972e-19,0,0,0,0,0,0,0,0,0,1,1
8544,-0.764648,0.353516,4.25781,0.00371915,0.000110559,-0.000345433,0.0894961,-0.0502603,-3.00645,0,0,0,-0.636217,-1.40963,-0.501116,-1.16848,-3.00645,0,0,0,0,0,0,0,0,0,0,-0.381793,0.256199,1.38381,-1.5,0,0,0,1,-0.636217,-1.40963,0,0,0,0,-0.501116,-1.16848,1.67972e-19,0,0,0,0,0,0,0,0,0,1,1
8559,-0.764648,0.386719,2.77148,0.00286931,-0.00110644,-0.00248224,0.0895318,-0.0502683,-3.00648,0,0,0,-0.643752,-1.42721,-0.502925,-1.17378,-3.00648,0,0,0,0,0,0,0,0,0,0,-0.381745,0.256636,1.38936,-1.5,0,0,0,1,-0.643752,-1.42721,0,0,0,0,-0.502925,-1.17378,1.67972e-19,0,0,0,0,0,0,0,0,0,1,1
8580,-0.764648,0.385742,-1.91699,0.00474181,0.00080163,-0.00240264,0.0896422,-0.050226,-3.00651,0,0,0,-0.654349,-1.45196,-0.505436,-1.18115,-3.00648,0,0,0,0,0,0,0,0,0,0,-0.381661,0.257258,1.39688,-1.5,0,0,0,1,-0.654349,-1.45196,0,0,0,0,-0.505436,-1.18115,1.67972e-19,0,0,0,0,0,0,0,0,0,1,1
8595,-0.764648,0.352539,2.49609,0.00458878,0.00106549,-0.00114534,0.0897135,-0.0502075,-3.00653,0,0,0,-0.661948,-1.46973,-0.507206,-1.18637,-3.00651,0,0,0,0,0,0,0,0,0,0,-0.381611,0.257688,1.40204,-1.5,0,0,0,1,-0.661948,-1.46973,0,0,0,0,-0.507206,-1.18637,1.67972e-19,0,0,0,0,0,0,0,0,0,1,1
8616,-0.764648,0.319336,-5.84082,0.00552053,0.000873328,-0.000895487,0.0897875,-0.0501932,-3.00655,0,0,0,-0.672635,-1.49475,-0.509656,-1.19364,-3.00655,0,0,0,0,0,0,0,0,0,0,-0.381547,0.258278,1.40904,-1.5,0,0,0,1,-0.672635,-1.49475,0,0,0,0,-0.509656,-1.19364,1.67972e-19,0,0,0,0,0,0,0,0,0,1,1
8631,-0.764648,0.286133,4.63086,0.00301297,0.00163496,-0.00330802,0.089828,-0.0501721,-3.00659,0,0,0,-0.680296,-1.5127,-0.511385,-1.1988,-3.00659,0,0,0,0,0,0,0,0,0,0,-0.381505,0.258693,1.41384,-1.5,0,0,0,1,-0.680296,-1.5127,0,0,0,0,-0.511385,-1.1988,1.67972e-19,0,0,0,0,0,0,0,0,0,1,1
8651,-0.764648,0.272461,4.52637,0.00311412,-0.000181248,-0.00128736,0.0899644,-0.0501547,-3.00665,0,0,0,-0.690556,-1.53677,-0.513669,-1.20562,-3.00665,0,0,0,0,0,0,0,0,0,0,-0.381455,0.259235,1.42004,-1.5,0,0,0,1,-0.690556,-1.53677,0,0,0,0,-0.513669,-1.20562,1.67972e-19,0,0,0,0,0,0,0,0,0,1,1
8672,-0.764648,0.282227,-5.5752,0.0064366,0.00158568,-0.00177272,0.0900459,-0.0501225,-3.00666,0,0,0,-0.701378,-1.5622,-0.516037,-1.21274,-3.00666,0,0,0,0,0,0,0,0,0,0,-0.381382,0.259815,1.42629,-1.5,0,0,0,1,-0.701378,-1.5622,0,0,0,0,-0.516037,-1.21274,1.67972e-19,0,0,0,0,0,0,0,0,0,1,1
8687,-0.764648,0.31543,0.480469,0.0056112,0.000255845,-0.00184024,0.0901284,-0.0501133,-3.00669,0,0,0,-0.709134,-1.58044,-0.517705,-1.21779,-3.00669,0,0,0,0,0,0,0,0,0,0,-0.381337,0.260219,1.43058,-1.5,0,0,0,1,-0.709134,-1.58044,0,0,0,0,-0.517705,-1.21779,1.67972e-19,0,0,0,0,0,0,0,0,0,1,1
8706,-0.764648,0.381836,6.25488,0.00376564,-0.000766693,-0.00250375,0.0902586,-0.0501054,-3.00675,0,0,0,-0.718998,-1.60366,-0.519799,-1.22415,-3.00675,0,0,0,0,0,0,0,0,0,0,-0.381293,0.260714,1.43585,-1.5,0,0,0,1,-0.718998,-1.60366,0,0,0,0,-0.519799,-1.22415,1.67972e-19,0,0,0,0,0,0,0,0,0,1,1
8722,-0.764648,0.415039,3.59277,0.00447331,0.000880687,-0.00161408,0.0903275,-0.0500944,-3.00677,0,0,0,-0.727333,-1.6233,-0.521543,-1.22947,-3.00677,0,0,0,0,0,0,0,0,0,0,-0.381243,0.261139,1.44011,-1.5,0,0,0,1,-0.727333,-1.6233,0,0,0,0,-0.521543,-1.22947,1.67972e-19,0,0,0,0,0,0,0,0,0,1,1
8742,-0.764648,0.419922,-2.59375,0.00513419,0.000634787,-0.00084401,0.0903921,-0.0500832,-3.00678,0,0,0,-0.737794,-1.64798,-0.523701,-1.23608,-3.00678,0,0,0,0,0,0,0,0,0,0,-0.381176,0.261669,1.44528,-1.5,0,0,0,1,-0.737794,-1.64798,0,0,0,0,-0.523701,-1.23608,1.67972e-19,0,0,0,0,0,0,0,0,0,1,1
8758,-0.764648,0.419922,-0.441406,0.00287601,0.000804973,0.000535307,0.0905121,-0.0500632,-3.0068,0,0,0,-0.745665,-1.66657,-0.525302,-1.241,-3.0068,0,0,0,0,0,0,0,0,0,0,-0.381132,0.262057,1.44901,-1.5,0,0,0,1,-0.745665,-1.66657,0,0,0,0,-0.525302,-1.241,1.67972e-19,0,0,0,0,0,0,0,0,0,1,1
8778,-0.764648,0.419922,5.54199,0.00399902,-0.000191904,-0.000456021,0.0905684,-0.0500573,-3.00682,0,0,0,-0.75673,-1.69273,-0.527521,-1.24785,-3.00682,0,0,0,0,0,0,0,0,0,0,-0.381064,0.2626,1.45406,-1.5,0,0,0,1,-0.75673,-1.69273,0,0,0,0,-0.527521,-1.24785,1.67972e-19,0,0,0,0,0,0,0,0,0,1,1
8799,-0.764648,0.419922,-1.8623,0.00354734,-0.000229793,-0.00130204,0.0906662,-0.0500557,-3.00686,0,0,0,-0.767839,-1.71904,-0.529712,-1.25465,-3.00684,0,0,0,0,0,0,0,0,0,0,-0.381001,0.263134,1.4589,-1.5,0,0,0,1,-0.767839,-1.71904,0,0,0,0,-0.529712,-1.25465,1.67972e-19,0,0,0,0,0,0,0,0,0,1,1
8814,-0.764648,0.418945,-3.49121,0.00286335,0.000356669,-0.00168137,0.0907181,-0.0500439,-3.00688,0,0,0,-0.7758,-1.7379,-0.531261,-1.25946,-3.00686,0,0,0,0,0,0,0,0,0,0,-0.380957,0.263511,1.46222,-1.5,0,0,0,1,-0.7758,-1.7379,0,0,0,0,-0.531261,-1.25946,1.67972e-19,0,0,0,0,0,0,0,0,0,1,1
8835,-0.764648,0.385742,0.897461,0.00275727,0.00062178,-0.00024584,0.0907596,-0.0500278,-3.00689,0,0,0,-0.786987,-1.76445,-0.533408,-1.26616,-3.00689,0,0,0,0,0,0,0,0,0,0,-0.380899,0.264031,1.46672,-1.5,0,0,0,1,-0.786987,-1.76445,0,0,0,0,-0.533408,-1.26616,1.67972e-19,0,0,0,0,0,0,0,0,0,1,1
8850,-0.764648,0.352539,5.17969,0.00382102,-0.000154338,-0.00175183,0.0908055,-0.0500228,-3.00692,0,0,0,-0.795003,-1.78348,-0.534922,-1.2709,-3.00692,0,0,0,0,0,0,0,0,0,0,-0.380858,0.264397,1.46981,-1.5,0,0,0,1,-0.795003,-1.78348,0,0,0,0,-0.534922,-1.2709,1.67972e-19,0,0,0,0,0,0,0,0,0,1,1
8872,-0.764648,0.286133,-6.72461,0.00240088,-0.00040709,-0.00202134,0.0908961,-0.0500059,-3.00696,0,0,0,-0.806806,-1.81155,-0.537124,-1.27782,-3.00696,0,0,0,0,0,0,0,0,0,0,-0.380803,0.264927,1.4742,-1.5,0,0,0,1,-0.806806,-1.81155,0,0,0,0,-0.537124,-1.27782,1.67972e-19,0,0,0,0,0,0,0,0,0,1,1
8887,-0.764648,0.282227,4.35059,0.003463,-0.000935855,-0.00168542,0.0909375,-0.0500065,-3.00698,0,0,0,-0.814877,-1.83077,-0.538607,-1.2825,-3.00698,0,0,0,0,0,0,0,0,0,0,-0.380763,0.265285,1.47706,-1.5,0,0,0,1,-0.814877,-1.83077,0,0,0,0,-0.538607,-1.2825,1.67972e-19,0,0,0,0,0,0,0,0,0,1,1
8908,-0.764648,0.282227,-2.99512,0.00297249,0.000498178,-0.00235415,0.0909829,-0.0499855,-3.00701,0,0,0,-0.826218,-1.85779,-0.540663,-1.289,-3.00701,0,0,0,0,0,0,0,0,0,0,-0.380705,0.265785,1.48095,-1.5,0,0,0,1,-0.826218,-1.85779,0,0,0,0,-0.540663,-1.289,1.67972e-19,0,0,0,0,0,0,0,0,0,1,1
8929,-0.764648,0.282227,-3.1582,0.00260013,0.000564265,-0.00172841,0.0910667,-0.0499565,-3.00706,0,0,0,-0.837602,-1.88496,-0.542694,-1.29545,-3.00706,0,0,0,0,0,0,0,0,0,0,-0.380659,0.266269,1.48468,-1.5,0,0,0,1,-0.837602,-1.88496,0,0,0,0,-0.542694,-1.29545,1.67972e-19,0,0,0,0,0,0,0,0,0,1,1
8943,-0.764648,0.282227,1.13086,0.0015239,0.000547523,-0.00121011,0.0910834,-0.0499494,-3.00707,0,0,0,-0.845211,-1.90313,-0.54403,-1.29971,-3.00707,0,0,0,0,0,0,0,0,0,0,-0.380621,0.266594,1.48706,-1.5,0,0,0,1,-0.845211,-1.90313,0,0,0,0,-0.54403,-1.29971,1.67972e-19,0,0,0,0,0,0,0,0,0,1,1
8963,-0.764648,0.282227,-5.93848,0.00226186,0.000365615,-0.00209568,0.0911145,-0.0499437,-3.0071,0,0,0,-0.856119,-1.92921,-0.545923,-1.30577,-3.0071,0,0,0,0,0,0,0,0,0,0,-0.380571,0.267051,1.49037,-1.5,0,0,0,1,-0.856119,-1.92921,0,0,0,0,-0.545923,-1.30577,1.67972e-19,0,0,0,0,0,0,0,0,0,1,1
8978,-0.764648,0.282227,3.94238,0.00202055,-0.000197935,-0.00154213,0.0911777,-0.0499296,-3.00714,0,0,0,-0.864321,-1.94884,-0.547327,-1.31026,-3.00712,0,0,0,0,0,0,0,0,0,0,-0.380533,0.267391,1.49276,-1.5,0,0,0,1,-0.864321,-1.94884,0,0,0,0,-0.547327,-1.31026,1.67972e-19,0,0,0,0,0,0,0,0,0,1,1
8999,-0.764648,0.282227,6.83594,0.00221197,-0.000531231,-0.00229246,0.0912143,-0.0499244,-3.00717,0,0,0,-0.875843,-1.97645,-0.549276,-1.31652,-3.00717,0,0,0,0,0,0,0,0,0,0,-0.380488,0.267857,1.49599,-1.5,0,0,0,1,-0.875843,-1.97645,0,0,0,0,-0.549276,-1.31652,1.67972e-19,0,0,0,0,0,0,0,0,0,1,1
9014,-0.764648,0.282227,-5.28418,0.0029742,0.000396981,-0.001856,0.0912564,-0.0499138,-3.0072,0,0,0,-0.884096,-1.99624,-0.550652,-1.32095,-3.0072,0,0,0,0,0,0,0,0,0,0,-0.380454,0.268188,1.49821,-1.5,0,0,0,1,-0.884096,-1.99624,0,0,0,0,-0.550652,-1.32095,1.67972e-19,0,0,0,0,0,0,0,0,0,1,1
9035,-0.764648,0.282227,-3.90527,0.00238588,0.000550422,-0.00238581,0.0913202,-0.0498965,-3.00724,0,0,0,-0.895687,-2.02407,-0.55256,-1.32711,-3.00721,0,0,0,0,0,0,0,0,0,0,-0.380397,0.268654,1.50122,-1.5,0,0,0,1,-0.895687,-2.02407,0,0,0,0,-0.55256,-1.32711,1.67972e-19,0,0,0,0,0,0,0,0,0,1,1
9050,-0.764648,0.282227,4.9873,0.002067,0.000245781,-0.00128748,0.0913528,-0.0498872,-3.00726,0,0,0,-0.903988,-2.04402,-0.553908,-1.33148,-3.00724,0,0,0,0,0,0,0,0,0,0,-0.380362,0.26898,1.50329,-1.5,0,0,0,1,-0.903988,-2.04402,0,0,0,0,-0.553908,-1.33148,1.67972e-19,0,0,0,0,0,0,0,0,0,1,1
9071,-0.764648,0.282227,-3.40723,0.00215184,0.000908669,-0.00205217,0.0913773,-0.0498679,-3.00728,0,0,0,-0.915647,-2.07206,-0.555774,-1.33755,-3.00728,0,0,0,0,0,0,0,0,0,0,-0.38032,0.269424,1.50609,-1.5,0,0,0,1,-0.915647,-2.07206,0,0,0,0,-0.555774,-1.33755,1.67972e-19,0,0,0,0,0,0,0,0,0,1,1
9091,-0.764648,0.338867,-5.63379,0.0045243,-0.00011088,-0.00132798,0.0914814,-0.0498396,-3.00731,0,0,0,-0.926788,-2.0989,-0.55753,-1.34328,-3.00729,0,0,0,0,0,0,0,0,0,0,-0.380264,0.269857,1.50864,-1.5,0,0,0,1,-0.926788,-2.0989,0,0,0,0,-0.55753,-1.34328,1.67972e-19,0,0,0,0,0,0,0,0,0,1,1
9106,-0.764648,0.37207,-2.94238,0.00416122,0.0007394,-0.00111172,0.0915502,-0.0498217,-3.00733,0,0,0,-0.935163,-2.11909,-0.558829,-1.34754,-3.00733,0,0,0,0,0,0,0,0,0,0,-0.380239,0.270163,1.51049,-1.5,0,0,0,1,-0.935163,-2.11909,0,0,0,0,-0.558829,-1.34754,1.67972e-19,0,0,0,0,0,0,0,0,0,1,1
9127,-0.764648,0.40332,4.13574,0.00304166,-0.000612704,-0.000170002,0.0915975,-0.0498238,-3.00734,0,0,0,-0.946925,-2.14747,-0.560628,-1.35349,-3.00734,0,0,0,0,0,0,0,0,0,0,-0.380182,0.270606,1.51299,-1.5,0,0,0,1,-0.946925,-2.14747,0,0,0,0,-0.560628,-1.35349,1.67972e-19,0,0,0,0,0,0,0,0,0,1,1
9142,-0.764648,0.40332,-0.257812,0.00246846,-0.000474631,-0.00216045,0.0916302,-0.0498254,-3.00736,0,0,0,-0.955347,-2.16782,-0.5619,-1.3577,-3.00736,0,0,0,0,0,0,0,0,0,0,-0.38015,0.270912,1.51471,-1.5,0,0,0,1,-0.955347,-2.16782,0,0,0,0,-0.5619,-1.3577,1.67972e-19,0,0,0,0,0,0,0,0,0,1,1
9163,-0.764648,0.40332,-2.62012,0.00138575,-0.000324808,-0.0010003,0.0916606,-0.0498275,-3.00739,0,0,0,-0.967173,-2.19641,-0.563666,-1.36355,-3.00739,0,0,0,0,0,0,0,0,0,0,-0.380105,0.271337,1.51703,-1.5,0,0,0,1,-0.967173,-2.19641,0,0,0,0,-0.563666,-1.36355,1.67972e-19,0,0,0,0,0,0,0,0,0,1,1
9178,-0.764648,0.40332,-0.164062,0.00158645,-0.00104017,-0.00105062,0.0916838,-0.0498365,-3.00741,0,0,0,-0.975639,-2.2169,-0.564916,-1.36769,-3.00741,0,0,0,0,0,0,0,0,0,0,-0.38007,0.271641,1.51863,-1.5,0,0,0,1,-0.975639,-2.2169,0,0,0,0,-0.564916,-1.36769,1.67972e-19,0,0,0,0,0,0,0,0,0,1,1
9199,-0.764648,0.40332,5.01465,0.00266642,0.00101658,-0.00211536,0.0917181,-0.0498216,-3.00743,0,0,0,-0.987528,-2.24571,-0.566652,-1.37345,-3.00743,0,0,0,0,0,0,0,0,0,0,-0.380022,0.272063,1.52079,-1.5,0,0,0,1,-0.987528,-2.24571,0,0,0,0,-0.566652,-1.37345,1.67972e-19,0,0,0,0,0,0,0,0,0,1,1
9219,-0.764648,0.40332,5.48633,0.00257505,-9.96017e-05,-0.00200631,0.0917892,-0.0498188,-3.00747,0,0,0,-0.998884,-2.27325,-0.568284,-1.37888,-3.00747,0,0,0,0,0,0,0,0,0,0,-0.379984,0.272454,1.52276,-1.5,0,0,0,1,-0.998884,-2.27325,0,0,0,0,-0.568284,-1.37888,1.67972e-19,0,0,0,0,0,0,0,0,0,1,1
9234,-0.764648,0.40332,-3.80371,0.00249141,0.000464002,-0.00124671,0.0918253,-0.0498164,-3.00748,0,0,0,-1.00742,-2.29398,-0.569496,-1.38292,-3.00748,0,0,0,0,0,0,0,0,0,0,-0.379951,0.272747,1.52419,-1.5,0,0,0,1,-1.00742,-2.29398,0,0,0,0,-0.569496,-1.38292,1.67972e-19,0,0,0,0,0,0,0,0,0,1,1
9255,-0.764648,0.40332,6.78809,0.00114114,0.000768947,-0.00158939,0.0918711,-0.0498004,-3.00752,0,0,0,-1.0194,-2.3231,-0.571178,-1.38855,-3.0075,0,0,0,0,0,0,0,0,0,0,-0.379903,0.273156,1.52612,-1.5,0,0,0,1,-1.0194,-2.3231,0,0,0,0,-0.571178,-1.38855,1.67972e-19,0,0,0,0,0,0,0,0,0,1,1
9270,-0.764648,0.40332,-6.72363,0.00341363,0.000428518,-0.0014716,0.091917,-0.0497818,-3.00754,0,0,0,-1.02798,-2.34397,-0.572366,-1.39253,-3.00752,0,0,0,0,0,0,0,0,0,0,-0.379873,0.273443,1.52745,-1.5,0,0,0,1,-1.02798,-2.34397,0,0,0,0,-0.572366,-1.39253,1.67972e-19,0,0,0,0,0,0,0,0,0,1,1
9291,-0.764648,0.400391,-1.39551,0.00261401,-0.000129321,-0.00185421,0.0919497,-0.0497747,-3.00756,0,0,0,-1.04003,-2.37329,-0.574011,-1.39807,-3.00756,0,0,0,0,0,0,0,0,0,0,-0.379836,0.273835,1.52924,-1.5,0,0,0,1,-1.04003,-2.37329,0,0,0,0,-0.574011,-1.39807,1.67972e-19,0,0,0,0,0,0,0,0,0,1,1
9306,-0.764648,0.367188,-6.61035,0.00295863,-0.000222768,-0.00176962,0.0920018,-0.0497783,-3.00759,0,0,0,-1.04865,-2.3943,-0.575172,-1.40199,-3.00759,0,0,0,0,0,0,0,0,0,0,-0.379809,0.274113,1.53048,-1.5,0,0,0,1,-1.04865,-2.3943,0,0,0,0,-0.575172,-1.40199,1.67972e-19,0,0,0,0,0,0,0,0,0,1,1
9327,-0.764648,0.300781,3.51562,0.00250512,-1.61043e-05,-0.000587105,0.092078,-0.0497632,-3.00763,0,0,0,-1.06075,-2.42382,-0.576784,-1.40745,-3.00762,0,0,0,0,0,0,0,0,0,0,-0.379769,0.274501,1.53215,-1.5,0,0,0,1,-1.06075,-2.42382,0,0,0,0,-0.576784,-1.40745,1.67972e-19,0,0,0,0,0,0,0,0,0,1,1
9342,-0.764648,0.297852,4.46875,0.0045067,0.0033417,-0.00051781,0.0921315,-0.0497288,-3.00764,0,0,0,-1.06941,-2.44497,-0.57792,-1.41133,-3.00764,0,0,0,0,0,0,0,0,0,0,-0.379738,0.274776,1.5333,-1.5,0,0,0,1,-1.06941,-2.44497,0,0,0,0,-0.57792,-1.41133,1.67972e-19,0,0,0,0,0,0,0,0,0,1,1
9362,-0.764648,0.331055,-6.7627,0.00905852,0.000931486,-0.00177493,0.0922543,-0.0496929,-3.00767,0,0,0,-1.08099,-2.47327,-0.579414,-1.41646,-3.00767,0,0,0,0,0,0,0,0,0,0,-0.379702,0.275134,1.53478,-1.5,0,0,0,1,-1.08099,-2.47327,0,0,0,0,-0.579414,-1.41646,1.67972e-19,0,0,0,0,0,0,0,0,0,1,1
9383,-0.764648,0.397461,5.86914,0.00642076,0.00315286,-0.000961835,0.0924613,-0.0496488,-3.00769,0,0,0,-1.09318,-2.50309,-0.580958,-1.42183,-3.00769,0,0,0,0,0,0,0,0,0,0,-0.379663,0.275507,1.53627,-1.5,0,0,0,1,-1.09318,-2.50309,0,0,0,0,-0.580958,-1.42183,1.67972e-19,0,0,0,0,0,0,0,0,0,1,1
9400,-0.764648,0.412109,-4.22461,0.00720861,0.0012407,-0.0015502,0.0925575,-0.0496181,-3.00772,0,0,0,-1.10249,-2.52588,-0.582111,-1.4259,-3.00772,0,0,0,0,0,0,0,0,0,0,-0.379635,0.275783,1.53736,-1.5,0,0,0,1,-1.10249,-2.52588,0,0,0,0,-0.582111,-1.4259,1.67972e-19,0,0,0,0,0,0,0,0,0,1,1
9420,-0.764648,0.412109,6.66406,0.00599466,-1.48992e-05,-0.00159899,0.0926384,-0.0496139,-3.00774,0,0,0,-1.11474,-2.55591,-0.583605,-1.43122,-3.00774,0,0,0,0,0,0,0,0,0,0,-0.379594,0.276146,1.53875,-1.5,0,0,0,1,-1.11474,-2.55591,0,0,0,0,-0.583605,-1.43122,1.67972e-19,0,0,0,0,0,0,0,0,0,1,1
9435,-0.764648,0.412109,4.57227,0.00332665,-0.000330722,-0.00066624,0.0927485,-0.0495951,-3.00777,0,0,0,-1.1235,-2.57741,-0.584659,-1.435,-3.00776,0,0,0,0,0,0,0,0,0,0,-0.37957,0.276398,1.5397,-1.5,0,0,0,1,-1.1235,-2.57741,0,0,0,0,-0.584659,-1.435,1.67972e-19,0,0,0,0,0,0,0,0,0,1,1
9456,-0.764648,0.395508,-6.53809,0.00291538,-0.000528555,-0.000964462,0.0927918,-0.0495872,-3.00779,0,0,0,-1.1358,-2.60762,-0.586119,-1.44025,-3.00779,0,0,0,0,0,0,0,0,0,0,-0.379535,0.276748,1.54099,-1.5,0,0,0,1,-1.1358,-2.60762,0,0,0,0,-0.586119,-1.44025,1.67972e-19,0,0,0,0,0,0,0,0,0,1,1
9471,-0.764648,0.362305,2.26465,0.00360918,0.000627499,-0.000877803,0.0928377,-0.0495734,-3.00781,0,0,0,-1.1446,-2.62926,-0.587148,-1.44398,-3.00781,0,0,0,0,0,0,0,0,0,0,-0.379509,0.276996,1.54188,-1.5,0,0,0,1,-1.1446,-2.62926,0,0,0,0,-0.587148,-1.44398,1.67972e-19,0,0,0,0,0,0,0,0,0,1,1
9499,-0.764648,0.295898,-5.6875,0.00514384,0.000940444,-0.00195421,0.0929883,-0.0495373,-3.00786,0,0,0,-1.16108,-2.66984,-0.589047,-1.4509,-3.00786,0,0,0,0,0,0,0,0,0,0,-0.379466,0.277449,1.54347,-1.5,0,0,0,1,-1.16108,-2.66984,0,0,0,0,-0.589047,-1.4509,1.67972e-19,0,0,0,0,0,0,0,0,0,1,1
9514,-0.764648,0.262695,-6.05371,0.00425811,-0.000116171,-0.00120689,0.0930541,-0.0495305,-3.00787,0,0,0,-1.16993,-2.69163,-0.590044,-1.45458,-3.00787,0,0,0,0,0,0,0,0,0,0,-0.37944,0.27769,1.54428,-1.5,0,0,0,1,-1.16993,-2.69163,0,0,0,0,-0.590044,-1.45458,1.67972e-19,0,0,0,0,0,0,0,0,0,1,1
9529,-0.764648,0.28418,-2.77832,0.00402791,0.000526297,-0.00106374,0.0931153,-0.0495219,-3.00789,0,0,0,-1.17879,-2.71349,-0.591032,-1.45823,-3.00789,0,0,0,0,0,0,0,0,0,0,-0.379414,0.27793,1.54507,-1.5,0,0,0,1,-1.17879,-2.71349,0,0,0,0,-0.591032,-1.45823,1.67972e-19,0,0,0,0,0,0,0,0,0,1,1
9545,-0.764648,0.350586,6.19141,0.00286426,0.000552083,-0.00186037,0.0931909,-0.049505,-3.00793,0,0,0,-1.18825,-2.73686,-0.592075,-1.46211,-3.0079,0,0,0,0,0,0,0,0,0,0,-0.379386,0.278182,1.54588,-1.5,0,0,0,1,-1.18825,-2.73686,0,0,0,0,-0.592075,-1.46211,1.67972e-19,0,0,0,0,0,0,0,0,0,1,1
9560,-0.764648,0.383789,-4.59863,0.00106012,-3.2517e-05,-0.00214706,0.0932176,-0.0494895,-3.00797,0,0,0,-1.19714,-2.75883,-0.593044,-1.46573,-3.00793,0,0,0,0,0,0,0,0,0,0,-0.379367,0.278411,1.54662,-1.5,0,0,0,1,-1.19714,-2.75883,0,0,0,0,-0.593044,-1.46573,1.67972e-19,0,0,0,0,0,0,0,0,0,1,1
9575,-0.764648,0.416992,4.41895,0.00115269,0.000281463,-0.00149074,0.0932456,-0.049487,-3.00799,0,0,0,-1.20605,-2.78085,-0.594003,-1.46932,-3.00797,0,0,0,0,0,0,0,0,0,0,-0.37935,0.278636,1.54734,-1.5,0,0,0,1,-1.20605,-2.78085,0,0,0,0,-0.594003,-1.46932,1.67972e-19,0,0,0,0,0,0,0,0,0,1,1
9591,-0.764648,0.430664,0.241211,0.00179402,0.000276456,-0.000938145,0.0932786,-0.0494755,-3.00799,0,0,0,-1.21497,-2.80292,-0.594954,-1.47289,-3.00799,0,0,0,0,0,0,0,0,0,0,-0.379331,0.278861,1.54804,-1.5,0,0,0,1,-1.21497,-2.80292,0,0,0,0,-0.594954,-1.47289,1.67972e-19,0,0,0,0,0,0,0,0,0,1,1
9606,-0.764648,0.430664,0.102539,0.00238662,0.00175338,-0.00136984,0.0933319,-0.0494455,-3.00801,0,0,0,-1.2245,-2.82653,-0.595956,-1.47668,-3.00801,0,0,0,0,0,0,0,0,0,0,-0.379305,0.279103,1.54876,-1.5,0,0,0,1,-1.2245,-2.82653,0,0,0,0,-0.595956,-1.47668,1.67972e-19,0,0,0,0,0,0,0,0,0,1,1
9621,-0.764648,0.391602,3.5,0.00328074,-8.43075e-05,-0.0010805,0.0933765,-0.049438,-3.00803,0,0,0,-1.23345,-2.84871,-0.596885,-1.48021,-3.00803,0,0,0,0,0,0,0,0,0,0,-0.379285,0.279324,1.54941,-1.5,0,0,0,1,-1.23345,-2.84871,0,0,0,0,-0.596885,-1.48021,1.67972e-19,0,0,0,0,0,0,0,0,0,1,1
9637,-0.764648,0.325195,-4.37891,0.00320089,0.00111091,-0.00189158,0.0934345,-0.049422,-3.00805,0,0,0,-1.24301,-2.87243,-0.597864,-1.48396,-3.00805,0,0,0,0,0,0,0,0,0,0,-0.379258,0.279562,1.55009,-1.5,0,0,0,1,-1.24301,-2.87243,0,0,0,0,-0.597864,-1.48396,1.67972e-19,0,0,0,0,0,0,0,0,0,1,1
9652,-0.764648,0.258789,2.75293,0.00283663,0.00146123,-0.00147534,0.0934829,-0.0493971,-3.00807,0,0,0,-1.25198,-2.89473,-0.598772,-1.48745,-3.00807,0,0,0,0,0,0,0,0,0,0,-0.379239,0.279778,1.5507,-1.5,0,0,0,1,-1.25198,-2.89473,0,0,0,0,-0.598772,-1.48745,1.67972e-19,0,0,0,0,0,0,0,0,0,1,1
9667,-0.764648,0.231445,0.62207,0.00153519,4.84652e-05,-0.000825181,0.0935172,-0.0493915,-3.00808,0,0,0,-1.26097,-2.91707,-0.59967,-1.49092,-3.00808,0,0,0,0,0,0,0,0,0,0,-0.379213,0.279997,1.5513,-1.5,0,0,0,1,-1.26097,-2.91707,0,0,0,0,-0.59967,-1.49092,1.67972e-19,0,0,0,0,0,0,0,0,0,1,1
9683,-0.764648,0.283203,0.806641,0.00369938,0.00278602,-0.000693418,0.0935874,-0.0493456,-3.00812,0,0,0,-1.27058,-2.94096,-0.600619,-1.49459,-3.00811,0,0,0,0,0,0,0,0,0,0,-0.379195,0.280221,1.55191,-1.5,0,0,0,1,-1.27058,-2.94096,0,0,0,0,-0.600619,-1.49459,1.67972e-19,0,0,0,0,0,0,0,0,0,1,1
9697,-0.764648,0.316406,4.99902,0.00533059,0.00164682,-0.00105138,0.0936637,-0.0493019,-3.00813,0,0,0,-1.27899,-2.96192,-0.601439,-1.49779,-3.00812,0,0,0,0,0,0,0,0,0,0,-0.379173,0.280419,1.55244,-1.5,0,0,0,1,-1.27899,-2.96192,0,0,0,0,-0.601439,-1.49779,1.67972e-19,0,0,0,0,0,0,0,0,0,1,1
9712,-0.764648,0.349609,6.40234,0.00514803,0.000210544,-2.59398e-05,0.0937479,-0.0493022,-3.00813,0,0,0,-1.28802,-2.98441,-0.602304,-1.5012,-3.00813,0,0,0,0,0,0,0,0,0,0,-0.379147,0.280631,1.55298,-1.5,0,0,0,1,-1.28802,-2.98441,0,0,0,0,-0.602304,-1.5012,1.67972e-19,0,0,0,0,0,0,0,0,0,1,1
9727,-0.764648,0.382812,-4.92188,0.00527312,0.00101247,-0.0012509,0.0938196,-0.0492836,-3.00815,0,0,0,-1.29707,-3.00697,-0.603159,-1.5046,-3.00813,0,0,0,0,0,0,0,0,0,0,-0.379121,0.280841,1.55351,-1.5,0,0,0,1,-1.29707,-3.00697,0,0,0,0,-0.603159,-1.5046,1.67972e-19,0,0,0,0,0,0,0,0,0,1,1
9742,-0.764648,0.416016,2.46973,0.00251045,0.000513767,-0.00157065,0.093862,-0.0492687,-3.00817,0,0,0,-1.30612,-3.02957,-0.604002,-1.50798,-3.00817,0,0,0,0,0,0,0,0,0,0,-0.37911,0.281036,1.55402,-1.5,0,0,0,1,-1.30612,-3.02957,0,0,0,0,-0.604002,-1.50798,1.67972e-19,0,0,0,0,0,0,0,0,0,1,1
9758,-0.764648,0.423828,-5.34473,0.000619729,0.0019903,-0.00173762,0.0938814,-0.0492465,-3.00819,0,0,0,-1.31579,-3.05373,-0.604892,-1.51158,-3.00819,0,0,0,0,0,0,0,0,0,0,-0.379091,0.281248,1.55455,-1.5,0,0,0,1,-1.31579,-3.05373,0,0,0,0,-0.604892,-1.51158,1.67972e-19,0,0,0,0,0,0,0,0,0,1,1
9773,-0.764648,0.423828,5.29688,0.00116252,0.000453709,-0.00126674,0.0938957,-0.0492345,-3.00821,0,0,0,-1.32488,-3.07644,-0.605716,-1.51492,-3.00821,0,0,0,0,0,0,0,0,0,0,-0.379073,0.281444,1.55504,-1.5,0,0,0,1,-1.32488,-3.07644,0,0,0,0,-0.605716,-1.51492,1.67972e-19,0,0,0,0,0,0,0,0,0,1,1
9789,-0.774414,0.423828,1.24023,0.00157634,-0.00020387,-0.000930812,0.0939241,-0.0492349,-3.00823,0,0,0,-1.33397,-3.09919,-0.606533,-1.51824,-3.00823,0,0,0,0,0,0,0,0,0,0,-0.379053,0.281641,1.5555,-1.5,0,0,0,1,-1.33397,-3.09919,0,0,0,0,-0.606533,-1.51824,1.67972e-19,0,0,0,0,0,0,0,0,0,1,1
