timestamp,A_x,A_y,A_z,P,Q,R,Phi,Theta,Psi,poseX,poseY,poseZ,state_X,state_Y,state_Z,state_VzB,state_Bx,state_By,state_Bz,p1_x,p1_y,p2_x,p2_y,p3_x,p3_y,p4_x,p4_y,roll,pitch,yaw,alt,targetHeading,highLevelState,lowLevelState,gateNumber,filtered_x,filtered_y,x_OT,y_OT,vx_OT,vy_OT,filtered_vx,filtered_vygateArearansac_corr_x,ransac_corr_y,ransac_corr_vx,ransac_corr_vy,detectionTimeStamppTermX,dTermX,pTermY,dTermY,vxcmd,vycmd
6439,-4.87207,-0.352539,6.06543,0.00642197,0.00155705,-0.000685402,0.100996,0.0496323,-1.87719,0,0,0,3.62427e-05,5.3247e-06,0.00767956,0.00113271,-1.87715,0,0,0,0,0,0,0,0,0,0,0.416102,-0.0431266,0,-1.5,1.59755e-38,0,0,0,3.62427e-05,5.3247e-06,0,0,0,0,0.00767956,0.00113271,1.9603e-19,0,0,0,0,0,0,0,0,0,2.5,-1.06494e-05
6454,-4.83105,-0.352539,6.06445,-0.0082239,0.000925844,0.000572715,0.099734,0.0498976,-1.87733,0,0,0,0.000328692,4.93235e-05,0.0250307,0.00380121,-1.8773,0,0,0,0,0,0,0,0,0,0,0.41629,-0.0437187,0,-1.5,1.59755e-38,0,0,0,0.000328692,4.93235e-05,0,0,0,0,0.0250307,0.00380121,1.9603e-19,0,0,0,0,0,0,0,0,0,2.5,-9.86469e-05
6469,-4.89062,-0.352539,5.66406,-0.00887916,0.000890789,-0.000796579,0.0990521,0.0501498,-1.87745,0,0,0,0.000851938,0.000129869,0.0410539,0.00636588,-1.87745,0,0,0,0,0,0,0,0,0,0,0.416477,-0.0443084,0,-1.5,1.59755e-38,0,0,0,0.000851938,0.000129869,0,0,0,0,0.0410539,0.00636588,1.9603e-19,0,0,0,0,0,0,0,0,0,2.5,-0.000259738
6487,-4.82812,-0.352539,-7.22461,-0.0126942,0.000775187,8.88556e-05,0.097778,0.0504715,-1.87751,0,0,0,0.00174181,0.00026976,0.0589506,0.00933305,-1.87752,0,0,0,0,0,0,0,0,0,0,0.416713,-0.0450526,0,-1.5,1.59755e-38,0,0,0,0.00174181,0.00026976,0,0,0,0,0.0589506,0.00933305,1.9603e-19,0,0,0,0,0,0,0,0,0,2.5,-0.00053952
6502,-4.83008,-0.352539,4.56641,0.000742252,0.000800137,-0.00065295,0.097766,0.0504781,-1.87752,0,0,0,0.00286032,0.000448912,0.075597,0.0121775,-1.87751,0,0,0,0,0,0,0,0,0,0,0.416956,-0.0458196,0,-1.5,1.59755e-38,0,0,0,0.00286032,0.000448912,0,0,0,0,0.075597,0.0121775,1.9603e-19,0,0,0,0,0,0,0,0,0,2.5,-0.000897824
6518,-4.84277,-0.352539,6.19141,0.0155223,0.00190526,0.000509336,0.0979574,0.0504887,-1.87752,0,0,0,0.00424314,0.000673619,0.0920787,0.0150172,-1.87752,0,0,0,0,0,0,0,0,0,0,0.417202,-0.0465991,0,-1.5,1.59755e-38,0,0,0,0.00424314,0.000673619,0,0,0,0,0.0920787,0.0150172,1.9603e-19,0,0,0,0,0,0,0,0,0,2.5,-0.00134724
6534,-4.85938,-0.352539,-4.26953,0.0193259,0.00113898,-0.00014682,0.0982392,0.0504947,-1.87752,0,0,0,0.00588359,0.000942576,0.108476,0.0178266,-1.87752,0,0,0,0,0,0,0,0,0,0,0.417455,-0.0473973,0,-1.5,1.59755e-38,0,0,0,0.00588359,0.000942576,0,0,0,0,0.108476,0.0178266,1.9603e-19,0,0,0,0,0,0,0,0,0,2.5,-0.00188515
6550,-4.86914,-0.352539,5.03613,0.0120547,0.00196667,-0.000577694,0.098446,0.0505117,-1.87752,0,0,0,0.00778567,0.00125615,0.124801,0.0206034,-1.87752,0,0,0,0,0,0,0,0,0,0,0.417712,-0.0482078,0,-1.5,1.59755e-38,0,0,0,0.00778567,0.00125615,0,0,0,0,0.124801,0.0206034,1.9603e-19,0,0,0,0,0,0,0,0,0,2.5,-0.00251229
6565,-4.88574,-0.352539,1.54297,-0.00454936,0.00161487,0.000216046,0.0984501,0.0505219,-1.87752,0,0,0,0.00980496,0.00159018,0.140017,0.0231853,-1.87752,0,0,0,0,0,0,0,0,0,0,0.417958,-0.0489855,0,-1.5,1.59755e-38,0,0,0,0.00980496,0.00159018,0,0,0,0,0.140017,0.0231853,1.9603e-19,0,0,0,0,0,0,0,0,0,2.5,-0.00318037
6581,-4.86719,-0.352539,0.28418,-0.0208378,-0.000162821,-0.00128872,0.0981963,0.0505159,-1.87753,0,0,0,0.0122147,0.00198994,0.156123,0.0259255,-1.87753,0,0,0,0,0,0,0,0,0,0,0.418224,-0.049823,0,-1.5,1.59755e-38,0,0,0,0.0122147,0.00198994,0,0,0,0,0.156123,0.0259255,1.9603e-19,0,0,0,0,0,0,0,0,0,2.5,-0.00397987
6610,-4.83496,-0.352539,-3.44434,0.00444254,0.00210507,0.000358422,0.097586,0.0505384,-1.87754,0,0,0,0.0148754,0.00243259,0.172065,0.0286591,-1.87754,0,0,0,0,0,0,0,0,0,0,0.418496,-0.050682,0,-1.5,1.59755e-38,0,0,0,0.0148754,0.00243259,0,0,0,0,0.172065,0.0286591,1.9603e-19,0,0,0,0,0,0,0,0,0,2.5,-0.00486517
6627,-4.82617,-0.352539,5.64941,0.0223879,0.000508549,0.000127035,0.0978761,0.0505448,-1.87754,0,0,0,0.0207091,0.00340911,0.201592,0.0337885,-1.87754,0,0,0,0,0,0,0,0,0,0,0.41903,-0.0523692,0,-1.5,1.59755e-38,0,0,0,0.0207091,0.00340911,0,0,0,0,0.201592,0.0337885,1.9603e-19,0,0,0,0,0,0,0,0,0,2.5,-0.00681822
6672,-4.87207,-0.352539,4.52441,-0.0132656,-0.000445523,-0.00153603,0.0982124,0.0505467,-1.87752,0,0,0,0.0314459,0.00521681,0.245437,0.0413423,-1.87752,0,0,0,0,0,0,0,0,0,0,0.419875,-0.0550381,0,-1.5,1.59755e-38,0,0,0,0.0314459,0.00521681,0,0,0,0,0.245437,0.0413423,1.9603e-19,0,0,0,0,0,0,0,0,0,2.5,-0.0104336
6685,-4.84961,-0.352539,6.1582,-0.025121,0.000536479,-0.00094965,0.0978783,0.0505517,-1.87753,0,0,0,0.0347354,0.00577116,0.257882,0.043476,-1.87753,0,0,0,0,0,0,0,0,0,0,0.42012,-0.0558096,0,-1.5,1.59755e-38,0,0,0,0.0347354,0.00577116,0,0,0,0,0.257882,0.043476,1.9603e-19,0,0,0,0,0,0,0,0,0,2.5,-0.0115423
6698,-4.82812,-0.352539,-4.26172,-0.0196305,5.21614e-05,-0.000652697,0.0975701,0.0505493,-1.87754,0,0,0,0.0381876,0.00635358,0.27022,0.0456083,-1.87754,0,0,0,0,0,0,0,0,0,0,0.420367,-0.056591,0,-1.5,1.59755e-38,0,0,0,0.0381876,0.00635358,0,0,0,0,0.27022,0.0456083,1.9603e-19,0,0,0,0,0,0,0,0,0,2.5,-0.0127072
6712,-4.83789,-0.352539,5.05078,-0.00285694,0.000244858,0.000819621,0.097485,0.0505554,-1.87753,0,0,0,0.0417994,0.00696371,0.282453,0.0477384,-1.87753,0,0,0,0,0,0,0,0,0,0,0.420621,-0.0573904,0,-1.5,1.59755e-38,0,0,0,0.0417994,0.00696371,0,0,0,0,0.282453,0.0477384,1.9603e-19,0,0,0,0,0,0,0,0,0,2.5,-0.0139274
6725,-4.80664,-0.352539,1.54199,0.013395,0.00149859,0.000661135,0.0976415,0.050567,-1.87752,0,0,0,0.045867,0.0076518,0.295542,0.0500215,-1.87752,0,0,0,0,0,0,0,0,0,0,0.420898,-0.0582668,0,-1.5,1.59755e-38,0,0,0,0.045867,0.0076518,0,0,0,0,0.295542,0.0500215,1.9603e-19,0,0,0,0,0,0,0,0,0,2.5,-0.0153036
6741,-4.80664,-0.352539,1.54199,0.013395,0.00149859,0.000661135,0.0976415,0.050567,-1.87752,0,0,0,0.0507521,0.00847936,0.310426,0.0526095,-1.87752,0,0,0,0,0,0,0,0,0,0,0.421218,-0.0592781,0,-1.5,1.59755e-38,0,0,0,0.0507521,0.00847936,0,0,0,0,0.310426,0.0526095,1.9603e-19,0,0,0,0,0,0,0,0,0,2.5,-0.0169587
6757,-4.85352,-0.352539,1.68457,0.0112528,0.000506603,0.000821014,0.0981158,0.0505814,-1.8775,0,0,0,0.0558698,0.00934729,0.325223,0.0551724,-1.8775,0,0,0,0,0,0,0,0,0,0,0.421545,-0.0603128,0,-1.5,1.59755e-38,0,0,0,0.0558698,0.00934729,0,0,0,0,0.325223,0.0551724,1.9603e-19,0,0,0,0,0,0,0,0,0,2.5,-0.0186946
6773,-4.8623,-0.352539,5.03223,-0.00439942,0.000912705,-0.000396754,0.0980924,0.0505863,-1.87751,0,0,0,0.0612283,0.0102567,0.339964,0.0577044,-1.87751,0,0,0,0,0,0,0,0,0,0,0.421873,-0.0613473,0,-1.5,1.59755e-38,0,0,0,0.0612283,0.0102567,0,0,0,0,0.339964,0.0577044,1.9603e-19,0,0,0,0,0,0,0,0,0,2.5,-0.0205133
6789,-4.87207,-0.352539,-3.46484,-0.0157015,0.000829062,-0.000679868,0.0978892,0.050592,-1.87751,0,0,0,0.0668169,0.0112056,0.354583,0.0602234,-1.87751,0,0,0,0,0,0,0,0,0,0,0.422206,-0.0623972,0,-1.5,1.59755e-38,0,0,0,0.0668169,0.0112056,0,0,0,0,0.354583,0.0602234,1.9603e-19,0,0,0,0,0,0,0,0,0,2.5,-0.0224112
6806,-4.86035,-0.352539,6.08789,-0.00707408,-9.20674e-05,-0.00126383,0.0975464,0.0506,-1.87753,0,0,0,0.0730199,0.0122597,0.369974,0.0628914,-1.87752,0,0,0,0,0,0,0,0,0,0,0.422566,-0.0635334,0,-1.5,1.59755e-38,0,0,0,0.0730199,0.0122597,0,0,0,0,0.369974,0.0628914,1.9603e-19,0,0,0,0,0,0,0,0,0,2.5,-0.0245194
6822,-4.86621,-0.352539,-7.22852,-0.00137895,0.00159741,0.000655745,0.0975271,0.0506099,-1.87752,0,0,0,0.0790903,0.0132923,0.38431,0.0653966,-1.87752,0,0,0,0,0,0,0,0,0,0,0.422911,-0.0646218,0,-1.5,1.59755e-38,0,0,0,0.0790903,0.0132923,0,0,0,0,0.38431,0.0653966,1.9603e-19,0,0,0,0,0,0,0,0,0,2.5,-0.0265846
6838,-4.86621,-0.352539,-7.22852,-0.00137895,0.00159741,0.000655745,0.0975271,0.0506099,-1.87752,0,0,0,0.0853889,0.0143648,0.398541,0.0678861,-1.87752,0,0,0,0,0,0,0,0,0,0,0.42326,-0.0657264,0,-1.5,1.59755e-38,0,0,0,0.0853889,0.0143648,0,0,0,0,0.398541,0.0678861,1.9603e-19,0,0,0,0,0,0,0,0,0,2.5,-0.0287297
6854,-4.86621,-0.352539,-7.22852,-0.00137895,0.00159741,0.000655745,0.0975271,0.0506099,-1.87752,0,0,0,0.0919096,0.0154762,0.412668,0.0703573,-1.87752,0,0,0,0,0,0,0,0,0,0,0.423615,-0.0668451,0,-1.5,1.59755e-38,0,0,0,0.0919096,0.0154762,0,0,0,0,0.412668,0.0703573,1.9603e-19,0,0,0,0,0,0,0,0,0,2.5,-0.0309524
6870,-4.84863,-0.352539,-4.27832,0.00498715,0.00128918,0.000525479,0.0977756,0.0506329,-1.87751,0,0,0,0.0986555,0.0166269,0.426711,0.0728074,-1.87751,0,0,0,0,0,0,0,0,0,0,0.423975,-0.0679839,0,-1.5,1.59755e-38,0,0,0,0.0986555,0.0166269,0,0,0,0,0.426711,0.0728074,1.9603e-19,0,0,0,0,0,0,0,0,0,2.5,-0.0332539
6886,-4.86426,-0.352539,1.54785,-0.00321109,0.000809659,-0.000925932,0.0978039,0.0506467,-1.87752,0,0,0,0.10563,0.0178174,0.440679,0.0752355,-1.87751,0,0,0,0,0,0,0,0,0,0,0.424338,-0.0691297,0,-1.5,1.59755e-38,0,0,0,0.10563,0.0178174,0,0,0,0,0.440679,0.0752355,1.9603e-19,0,0,0,0,0,0,0,0,0,2.5,-0.0356348
6902,-4.85645,-0.352539,0.28125,-0.00710733,0.000255247,-0.00108599,0.0977139,0.0506462,-1.87752,0,0,0,0.112822,0.0190458,0.454548,0.0776461,-1.87752,0,0,0,0,0,0,0,0,0,0,0.424704,-0.070285,0,-1.5,1.59755e-38,0,0,0,0.112822,0.0190458,0,0,0,0,0.454548,0.0776461,1.9603e-19,0,0,0,0,0,0,0,0,0,2.5,-0.0380915
6917,-4.85938,-0.352539,1.72852,-0.00995505,0.00148306,-0.00121529,0.0975748,0.0506576,-1.87754,0,0,0,0.119765,0.0202322,0.467451,0.0798927,-1.87752,0,0,0,0,0,0,0,0,0,0,0.425052,-0.0713833,0,-1.5,1.59755e-38,0,0,0,0.119765,0.0202322,0,0,0,0,0.467451,0.0798927,1.9603e-19,0,0,0,0,0,0,0,0,0,2.5,-0.0404644
6934,-4.84473,-0.352539,5.05273,-0.0126673,0.000672407,-0.000900479,0.0974139,0.0506631,-1.87755,0,0,0,0.127388,0.0215356,0.481092,0.0822837,-1.87755,0,0,0,0,0,0,0,0,0,0,0.425426,-0.072561,0,-1.5,1.59755e-38,0,0,0,0.127388,0.0215356,0,0,0,0,0.481092,0.0822837,1.9603e-19,0,0,0,0,0,0,0,0,0,2.5,-0.0430712
6949,-4.82422,-0.352539,-3.42578,-0.00622425,0.00169355,-0.000414741,0.0973126,0.0506765,-1.87756,0,0,0,0.135228,0.0228772,0.49461,0.0846662,-1.87756,0,0,0,0,0,0,0,0,0,0,0.425808,-0.0737649,0,-1.5,1.59755e-38,0,0,0,0.135228,0.0228772,0,0,0,0,0.49461,0.0846662,1.9603e-19,0,0,0,0,0,0,0,0,0,2.5,-0.0457543
6965,-4.81836,-0.352539,5.64941,0.00320725,0.00131653,-0.000273721,0.0973275,0.050688,-1.87755,0,0,0,0.143282,0.0242568,0.508021,0.0870371,-1.87755,0,0,0,0,0,0,0,0,0,0,0.426196,-0.0749918,0,-1.5,1.59755e-38,0,0,0,0.143282,0.0242568,0,0,0,0,0.508021,0.0870371,1.9603e-19,0,0,0,0,0,0,0,0,0,2.5,-0.0485135
6981,-4.81836,-0.352539,5.64941,0.00320725,0.00131653,-0.000273721,0.0973275,0.050688,-1.87755,0,0,0,0.151551,0.0256741,0.521338,0.0893917,-1.87755,0,0,0,0,0,0,0,0,0,0,0.426588,-0.0762285,0,-1.5,1.59755e-38,0,0,0,0.151551,0.0256741,0,0,0,0,0.521338,0.0893917,1.9603e-19,0,0,0,0,0,0,0,0,0,2.5,-0.0513482
6997,-4.8457,-0.352539,4.55664,0.0102073,0.00143546,0.00138021,0.0978777,0.0507143,-1.87753,0,0,0,0.160027,0.0271282,0.534579,0.0917235,-1.87754,0,0,0,0,0,0,0,0,0,0,0.426985,-0.0774824,0,-1.5,1.59755e-38,0,0,0,0.160027,0.0271282,0,0,0,0,0.534579,0.0917235,1.9603e-19,0,0,0,0,0,0,0,0,0,2.5,-0.0542564
7013,-4.87402,-0.352539,6.19629,-0.00735661,0.000819651,-0.000597297,0.097832,0.0507175,-1.87753,0,0,0,0.168715,0.0286193,0.547776,0.0940255,-1.87753,0,0,0,0,0,0,0,0,0,0,0.427384,-0.0787464,0,-1.5,1.59755e-38,0,0,0,0.168715,0.0286193,0,0,0,0,0.547776,0.0940255,1.9603e-19,0,0,0,0,0,0,0,0,0,2.5,-0.0572385
7028,-4.86035,-0.352539,-4.26367,-0.0216726,-0.000456923,-0.00159844,0.0975499,0.0507207,-1.87755,0,0,0,0.17705,0.0300504,0.56006,0.09617,-1.87755,0,0,0,0,0,0,0,0,0,0,0.42776,-0.0799307,0,-1.5,1.59755e-38,0,0,0,0.17705,0.0300504,0,0,0,0,0.56006,0.09617,1.9603e-19,0,0,0,0,0,0,0,0,0,2.5,-0.0601008
7044,-4.83691,-0.352539,5.03027,-0.0252228,0.000370953,-0.00151552,0.0972072,0.0507095,-1.87756,0,0,0,0.186148,0.0316131,0.573025,0.098457,-1.87756,0,0,0,0,0,0,0,0,0,0,0.428168,-0.0812172,0,-1.5,1.59755e-38,0,0,0,0.186148,0.0316131,0,0,0,0,0.573025,0.098457,1.9603e-19,0,0,0,0,0,0,0,0,0,2.5,-0.0632263
7060,-4.82129,-0.352539,1.53125,-0.0121412,0.000910634,-0.000901713,0.0969952,0.0507075,-1.87757,0,0,0,0.195447,0.0332117,0.585848,0.10074,-1.87757,0,0,0,0,0,0,0,0,0,0,0.428581,-0.0825182,0,-1.5,1.59755e-38,0,0,0,0.195447,0.0332117,0,0,0,0,0.585848,0.10074,1.9603e-19,0,0,0,0,0,0,0,0,0,2.5,-0.0664235
7076,-4.82129,-0.352539,1.53125,-0.0121412,0.000910634,-0.000901713,0.0969952,0.0507075,-1.87757,0,0,0,0.20435,0.0347435,0.597763,0.102873,-1.87757,0,0,0,0,0,0,0,0,0,0,0.428973,-0.0837566,0,-1.5,1.59755e-38,0,0,0,0.20435,0.0347435,0,0,0,0,0.597763,0.102873,1.9603e-19,0,0,0,0,0,0,0,0,0,2.5,-0.069487
7092,-4.84277,-0.352539,1.69922,0.0242278,0.00105159,0.00112962,0.097373,0.0507088,-1.87754,0,0,0,0.214665,0.0365196,0.611196,0.105267,-1.87754,0,0,0,0,0,0,0,0,0,0,0.429425,-0.0851871,0,-1.5,1.59755e-38,0,0,0,0.214665,0.0365196,0,0,0,0,0.611196,0.105267,1.9603e-19,0,0,0,0,0,0,0,0,0,2.5,-0.0730392
7107,-4.8877,-0.352539,-3.44824,0.00866991,0.00162615,-0.000120154,0.0979213,0.0507353,-1.87751,0,0,0,0.223947,0.0381188,0.622993,0.107353,-1.87754,0,0,0,0,0,0,0,0,0,0,0.429824,-0.0864465,0,-1.5,1.59755e-38,0,0,0,0.223947,0.0381188,0,0,0,0,0.622993,0.107353,1.9603e-19,0,0,0,0,0,0,0,0,0,2.5,-0.0762376
7122,-4.88574,-0.352539,5.6582,-0.0131451,0.00171475,-0.000296668,0.0978008,0.0507493,-1.87752,0,0,0,0.233405,0.0397491,0.634753,0.109414,-1.87751,0,0,0,0,0,0,0,0,0,0,0.430228,-0.0877258,0,-1.5,1.59755e-38,0,0,0,0.233405,0.0397491,0,0,0,0,0.634753,0.109414,1.9603e-19,0,0,0,0,0,0,0,0,0,2.5,-0.0794981
7138,-4.8418,-0.352539,6.09961,-0.0279939,0.000986134,-0.00121792,0.0974317,0.0507533,-1.87754,0,0,0,0.243693,0.0415226,0.647242,0.111591,-1.87752,0,0,0,0,0,0,0,0,0,0,0.430659,-0.0890877,0,-1.5,1.59755e-38,0,0,0,0.243693,0.0415226,0,0,0,0,0.647242,0.111591,1.9603e-19,0,0,0,0,0,0,0,0,0,2.5,-0.0830451
7154,-4.83691,-0.352539,-7.2373,-0.0265163,0.000619275,-0.000499081,0.0970526,0.0507575,-1.87754,0,0,0,0.254178,0.043331,0.659563,0.113779,-1.87754,0,0,0,0,0,0,0,0,0,0,0.431096,-0.0904613,0,-1.5,1.59755e-38,0,0,0,0.254178,0.043331,0,0,0,0,0.659563,0.113779,1.9603e-19,0,0,0,0,0,0,0,0,0,2.5,-0.086662
7171,-4.81934,-0.352539,4.54297,-0.0120808,0.000946796,-0.00146142,0.0968379,0.0507691,-1.87756,0,0,0,0.265533,0.0452908,0.672503,0.116105,-1.87756,0,0,0,0,0,0,0,0,0,0,0.431566,-0.0919441,0,-1.5,1.59755e-38,0,0,0,0.265533,0.0452908,0,0,0,0,0.672503,0.116105,1.9603e-19,0,0,0,0,0,0,0,0,0,2.5,-0.0905817
7186,-4.80859,-0.352539,6.17676,0.00690168,0.00112145,0.000641413,0.0968942,0.0507673,-1.87755,0,0,0,0.27573,0.0470522,0.683818,0.118149,-1.87755,0,0,0,0,0,0,0,0,0,0,0.431987,-0.0932747,0,-1.5,1.59755e-38,0,0,0,0.27573,0.0470522,0,0,0,0,0.683818,0.118149,1.9603e-19,0,0,0,0,0,0,0,0,0,2.5,-0.0941044
7203,-4.82812,-0.352539,-4.29883,0.0237987,0.00151841,4.57881e-05,0.0971991,0.0507691,-1.87754,0,0,0,0.287496,0.049086,0.696578,0.120441,-1.87754,0,0,0,0,0,0,0,0,0,0,0.432468,-0.0947951,0,-1.5,1.59755e-38,0,0,0,0.287496,0.049086,0,0,0,0,0.696578,0.120441,1.9603e-19,0,0,0,0,0,0,0,0,0,2.5,-0.098172
7218,-4.89453,-0.352539,1.54883,0.0127477,0.000656227,0.000526006,0.0977977,0.0507954,-1.87752,0,0,0,0.298053,0.050912,0.7078,0.122435,-1.87752,0,0,0,0,0,0,0,0,0,0,0.432895,-0.0961463,0,-1.5,1.59755e-38,0,0,0,0.298053,0.050912,0,0,0,0,0.7078,0.122435,1.9603e-19,0,0,0,0,0,0,0,0,0,2.5,-0.101824
7235,-4.89648,-0.352539,0.329102,-0.00780875,0.00218717,-0.000506146,0.0977524,0.0508088,-1.87752,0,0,0,0.310225,0.053018,0.720485,0.124666,-1.87752,0,0,0,0,0,0,0,0,0,0,0.433382,-0.0976854,0,-1.5,1.59755e-38,0,0,0,0.310225,0.053018,0,0,0,0,0.720485,0.124666,1.9603e-19,0,0,0,0,0,0,0,0,0,2.5,-0.106036
7251,-4.86035,-0.352539,1.73633,-0.0261976,0.0012447,-0.000509664,0.0974161,0.0508168,-1.87753,0,0,0,0.321874,0.0550339,0.732334,0.126751,-1.87753,0,0,0,0,0,0,0,0,0,0,0.433843,-0.0991368,0,-1.5,1.59755e-38,0,0,0,0.321874,0.0550339,0,0,0,0,0.732334,0.126751,1.9603e-19,0,0,0,0,0,0,0,0,0,2.5,-0.110068
7268,-4.8418,-0.352539,5.04004,-0.0307005,0.00056119,-0.00106835,0.0969966,0.0508177,-1.87754,0,0,0,0.33446,0.0572131,0.744761,0.128975,-1.87754,0,0,0,0,0,0,0,0,0,0,0.434339,-0.100701,0,-1.5,1.59755e-38,0,0,0,0.33446,0.0572131,0,0,0,0,0.744761,0.128975,1.9603e-19,0,0,0,0,0,0,0,0,0,2.5,-0.114426
7283,-4.83691,-0.352539,-3.44922,-0.018155,0.00035494,-0.00109638,0.0966984,0.0508187,-1.87755,0,0,0,0.345737,0.0591667,0.755595,0.130938,-1.87755,0,0,0,0,0,0,0,0,0,0,0.434561,-0.102165,0,-1.5,1.59755e-38,0,0,0,0.345737,0.0591667,0,0,0,0,0.755595,0.130938,1.9603e-19,0,0,0,0,0,0,0,0,0,2.5,-0.118333
7299,-4.82031,-0.352539,5.63867,0.00420372,0.000706267,0.000471117,0.0967091,0.050813,-1.87755,0,0,0,0.357943,0.061283,0.767044,0.133026,-1.87755,0,0,0,0,0,0,0,0,0,0,0.43231,-0.104538,0,-1.5,1.59755e-38,0,0,0,0.357943,0.061283,0,0,0,0,0.767044,0.133026,1.9603e-19,0,0,0,0,0,0,0,0,0,2.5,-0.122566
7316,-4.84961,-0.352539,-7.22168,0.0270182,0.000839797,0.0018677,0.0974009,0.0508315,-1.87752,0,0,0,0.371116,0.0635687,0.779121,0.135227,-1.87755,0,0,0,0,0,0,0,0,0,0,0.429943,-0.107064,0,-1.5,1.59755e-38,0,0,0,0.371116,0.0635687,0,0,0,0,0.779121,0.135227,1.9603e-19,0,0,0,0,0,0,0,0,0,2.5,-0.127137
7331,-4.8916,-0.352539,4.54785,0.0145789,0.00113894,0.000307113,0.0976484,0.0508348,-1.87752,0,0,0,0.382903,0.0656151,0.789757,0.137138,-1.87752,0,0,0,0,0,0,0,0,0,0,0.427863,-0.109309,0,-1.5,1.59755e-38,0,0,0,0.382903,0.0656151,0,0,0,0,0.789757,0.137138,1.9603e-19,0,0,0,0,0,0,0,0,0,2.5,-0.13123
7345,-4.88965,-0.352539,6.17383,-0.00783599,0.000442946,-0.0001369,0.0976019,0.0508445,-1.87752,0,0,0,0.394047,0.0675506,0.799688,0.138891,-1.87752,0,0,0,0,0,0,0,0,0,0,0.425921,-0.111401,0,-1.5,1.59755e-38,0,0,0,0.394047,0.0675506,0,0,0,0,0.799688,0.138891,1.9603e-19,0,0,0,0,0,0,0,0,0,2.5,-0.135101
7361,-4.87695,-0.352539,-4.27441,-0.0234907,-0.000128621,-0.00145035,0.0973128,0.0508441,-1.87754,0,0,0,0.406961,0.0697938,0.810953,0.140885,-1.87754,0,0,0,0,0,0,0,0,0,0,0.423724,-0.113787,0,-1.5,1.59755e-38,0,0,0,0.406961,0.0697938,0,0,0,0,0.810953,0.140885,1.9603e-19,0,0,0,0,0,0,0,0,0,2.5,-0.139588
7377,-4.87695,-0.352539,-4.27441,-0.0234907,-0.000128621,-0.00145035,0.0973128,0.0508441,-1.87754,0,0,0,0.420053,0.0720689,0.822099,0.142878,-1.87754,0,0,0,0,0,0,0,0,0,0,0.421562,-0.116187,0,-1.5,1.59755e-38,0,0,0,0.420053,0.0720689,0,0,0,0,0.822099,0.142878,1.9603e-19,0,0,0,0,0,0,0,0,0,2.5,-0.144138
7393,-4.82812,-0.352539,1.58887,-0.0150052,0.000899584,-8.21551e-05,0.0966749,0.0508463,-1.87757,0,0,0,0.433323,0.0743758,0.833129,0.144867,-1.87757,0,0,0,0,0,0,0,0,0,0,0.419429,-0.118579,0,-1.5,1.59755e-38,0,0,0,0.433323,0.0743758,0,0,0,0,0.833129,0.144867,1.9603e-19,0,0,0,0,0,0,0,0,0,2.5,-0.148752
7409,-4.82812,-0.352539,1.58887,-0.0150052,0.000899584,-8.21551e-05,0.0966749,0.0508463,-1.87757,0,0,0,0.446768,0.0767146,0.84402,0.14686,-1.87757,0,0,0,0,0,0,0,0,0,0,0.417337,-0.120991,0,-1.5,1.59755e-38,0,0,0,0.446768,0.0767146,0,0,0,0,0.84402,0.14686,1.9603e-19,0,0,0,0,0,0,0,0,0,2.5,-0.153429
7425,-4.83301,-0.352539,5.06152,0.0214051,0.00140896,-0.000285044,0.0969238,0.0507812,-1.87744,0,0,0,0.460386,0.0790852,0.854846,0.148835,-1.87756,0,0,0,0,0,0,0,0,0,0,0.415265,-0.123413,0,-1.5,1.59755e-38,0,0,0,0.460386,0.0790852,0,0,0,0,0.854846,0.148835,1.9603e-19,0,0,0,0,0,0,0,0,0,2.5,-0.15817
7442,-4.86328,-0.352539,-3.42871,0.0140844,0.00103181,0.000362877,0.0974295,0.0508633,-1.87755,0,0,0,0.475044,0.0816382,0.866284,0.150906,-1.87744,0,0,0,0,0,0,0,0,0,0,0.413086,-0.126037,0,-1.5,1.59755e-38,0,0,0,0.475044,0.0816382,0,0,0,0,0.866284,0.150906,1.9603e-19,0,0,0,0,0,0,0,0,0,2.5,-0.163276
7457,-4.87402,-0.352539,5.6748,-0.00178423,0.000218127,-0.0014091,0.0974645,0.0508589,-1.87756,0,0,0,0.488136,0.0839192,0.87638,0.152704,-1.87756,0,0,0,0,0,0,0,0,0,0,0.411155,-0.128267,0,-1.5,1.59755e-38,0,0,0,0.488136,0.0839192,0,0,0,0,0.87638,0.152704,1.9603e-19,0,0,0,0,0,0,0,0,0,2.5,-0.167838
7474,-4.87402,-0.352539,5.6748,-0.00178423,0.000218127,-0.0014091,0.0974645,0.0508589,-1.87756,0,0,0,0.50316,0.0865374,0.887746,0.154724,-1.87756,0,0,0,0,0,0,0,0,0,0,0.408994,-0.130855,0,-1.5,1.59755e-38,0,0,0,0.50316,0.0865374,0,0,0,0,0.887746,0.154724,1.9603e-19,0,0,0,0,0,0,0,0,0,2.5,-0.173075
7489,-4.85254,-0.352539,-7.25293,-0.0216548,0.000696334,-0.00191479,0.0969901,0.0508715,-1.87759,0,0,0,0.516572,0.0888754,0.897674,0.156503,-1.87759,0,0,0,0,0,0,0,0,0,0,0.407114,-0.13313,0,-1.5,1.59755e-38,0,0,0,0.516572,0.0888754,0,0,0,0,0.897674,0.156503,1.9603e-19,0,0,0,0,0,0,0,0,0,2.5,-0.177751
7505,-4.83398,-0.352539,4.56055,-0.0165557,0.000719107,-0.00167433,0.0967437,0.0508815,-1.8776,0,0,0,0.531045,0.0913995,0.908137,0.158406,-1.8776,0,0,0,0,0,0,0,0,0,0,0.405144,-0.135571,0,-1.5,1.59755e-38,0,0,0,0.531045,0.0913995,0,0,0,0,0.908137,0.158406,1.9603e-19,0,0,0,0,0,0,0,0,0,2.5,-0.182799
7521,-4.81641,-0.352539,6.18359,-0.00459814,0.000827788,8.2842e-05,0.0966493,0.0508892,-1.8776,0,0,0,0.545681,0.0939533,0.918494,0.160306,-1.8776,0,0,0,0,0,0,0,0,0,0,0.403205,-0.138023,0,-1.5,1.59755e-38,0,0,0,0.545681,0.0939533,0,0,0,0,0.918494,0.160306,1.9603e-19,0,0,0,0,0,0,0,0,0,2.5,-0.187907
7538,-4.83984,-0.294922,4.94629,0.0168693,0.00104819,0.000398784,0.0969836,0.0508927,-1.87759,0,0,0,0.561416,0.0967006,0.929417,0.16231,-1.8776,0,0,0,0,0,0,0,0,0,0,0.401168,-0.140634,0,-1.5,1.59755e-38,0,0,0,0.561416,0.0967006,0,0,0,0,0.929417,0.16231,1.9603e-19,0,0,0,0,0,0,0,0,0,2.5,-0.193401
7553,-4.85742,-0.261719,1.625,0.0137611,0.00124314,0.00167273,0.0972099,0.0508992,-1.87757,0,0,0,0.575447,0.0991517,0.939025,0.164054,-1.87759,0,0,0,0,0,0,0,0,0,0,0.39938,-0.142947,0,-1.5,1.59755e-38,0,0,0,0.575447,0.0991517,0,0,0,0,0.939025,0.164054,1.9603e-19,0,0,0,0,0,0,0,0,0,2.5,-0.198303
7569,-4.86914,-0.290039,0.304688,0.00355133,0.00107665,3.70631e-05,0.0972994,0.0509085,-1.87756,0,0,0,0.590576,0.101795,0.94924,0.165891,-1.87756,0,0,0,0,0,0,0,0,0,0,0.397484,-0.145428,0,-1.5,1.59755e-38,0,0,0,0.590576,0.101795,0,0,0,0,0.94924,0.165891,1.9603e-19,0,0,0,0,0,0,0,0,0,2.5,-0.203591
7585,-4.85254,-0.323242,1.7041,-0.00689326,0.000606612,-0.00112548,0.0972216,0.0509095,-1.87757,0,0,0,0.605867,0.104468,0.959389,0.167715,-1.87757,0,0,0,0,0,0,0,0,0,0,0.395607,-0.1479,0,-1.5,1.59755e-38,0,0,0,0.605867,0.104468,0,0,0,0,0.959389,0.167715,1.9603e-19,0,0,0,0,0,0,0,0,0,2.5,-0.208936
7601,-4.84277,-0.356445,5.01758,-0.0159527,0.000562429,3.53022e-05,0.0970195,0.0509185,-1.87758,0,0,0,0.62132,0.10717,0.969446,0.169531,-1.87758,0,0,0,0,0,0,0,0,0,0,0.393755,-0.150379,0,-1.5,1.59755e-38,0,0,0,0.62132,0.10717,0,0,0,0,0.969446,0.169531,1.9603e-19,0,0,0,0,0,0,0,0,0,2.5,-0.21434
7617,-4.83691,-0.379883,-3.4375,-0.0174479,0.000392836,-0.00261815,0.0967774,0.0509146,-1.8776,0,0,0,0.636933,0.109901,0.979396,0.171346,-1.8776,0,0,0,0,0,0,0,0,0,0,0.391932,-0.152854,0,-1.5,1.59755e-38,0,0,0,0.636933,0.109901,0,0,0,0,0.979396,0.171346,1.9603e-19,0,0,0,0,0,0,0,0,0,2.5,-0.219802
7633,-4.8252,-0.379883,6.05859,-0.00049572,0.00163837,0.000927721,0.0965723,0.0509307,-1.8776,0,0,0,0.652704,0.112661,0.989245,0.173158,-1.8776,0,0,0,0,0,0,0,0,0,0,0.390139,-0.155346,0,-1.5,1.59755e-38,0,0,0,0.652704,0.112661,0,0,0,0,0.989245,0.173158,1.9603e-19,0,0,0,0,0,0,0,0,0,2.5,-0.225322
7649,-4.83887,-0.379883,-7.19434,0.0118931,0.000179231,0.000506362,0.0967187,0.0509319,-1.87759,0,0,0,0.667631,0.115275,0.998396,0.174851,-1.8776,0,0,0,0,0,0,0,0,0,0,0.38848,-0.157687,0,-1.5,1.59755e-38,0,0,0,0.667631,0.115275,0,0,0,0,0.998396,0.174851,1.9603e-19,0,0,0,0,0,0,0,0,0,2.5,-0.23055
7665,-4.85352,-0.379883,4.57715,0.0193155,1.97214e-05,0.000827658,0.0969902,0.0509256,-1.87758,0,0,0,0.684717,0.118268,1.00872,0.176748,-1.87758,0,0,0,0,0,0,0,0,0,0,0.386615,-0.160353,0,-1.5,1.59755e-38,0,0,0,0.684717,0.118268,0,0,0,0,1.00872,0.176748,1.9603e-19,0,0,0,0,0,0,0,0,0,2.5,-0.236536
7680,-4.8623,-0.379883,6.21191,0.0152757,0.00177284,-0.000596951,0.0972429,0.0509361,-1.87758,0,0,0,0.699936,0.120935,1.01781,0.178397,-1.87758,0,0,0,0,0,0,0,0,0,0,0.384976,-0.162704,0,-1.5,1.59755e-38,0,0,0,0.699936,0.120935,0,0,0,0,1.01781,0.178397,1.9603e-19,0,0,0,0,0,0,0,0,0,2.5,-0.241871
7696,-4.88965,-0.379883,-4.26074,0.00164322,0.00116083,4.53011e-05,0.0973088,0.0509394,-1.87758,0,0,0,0.716323,0.123808,1.02747,0.180135,-1.87758,0,0,0,0,0,0,0,0,0,0,0.383239,-0.165217,0,-1.5,1.59755e-38,0,0,0,0.716323,0.123808,0,0,0,0,1.02747,0.180135,1.9603e-19,0,0,0,0,0,0,0,0,0,2.5,-0.247616
7712,-4.88965,-0.379883,-4.26074,0.00164322,0.00116083,4.53011e-05,0.0973088,0.0509394,-1.87758,0,0,0,0.73286,0.126708,1.03706,0.181859,-1.87758,0,0,0,0,0,0,0,0,0,0,0.381521,-0.167734,0,-1.5,1.59755e-38,0,0,0,0.73286,0.126708,0,0,0,0,1.03706,0.181859,1.9603e-19,0,0,0,0,0,0,0,0,0,2.5,-0.253416
7728,-4.84863,-0.321289,1.56152,-0.0283209,-9.68805e-07,-0.00155853,0.0967566,0.0509292,-1.87761,0,0,0,0.749553,0.129636,1.04656,0.183579,-1.87761,0,0,0,0,0,0,0,0,0,0,0.37983,-0.170245,0,-1.5,1.59755e-38,0,0,0,0.749553,0.129636,0,0,0,0,1.04656,0.183579,1.9603e-19,0,0,0,0,0,0,0,0,0,2.5,-0.259271
7745,-4.80664,-0.254883,1.7041,-0.00384648,0.000421117,-0.00122772,0.0962622,0.0509185,-1.87765,0,0,0,0.767458,0.132777,1.05652,0.18541,-1.87761,0,0,0,0,0,0,0,0,0,0,0.378069,-0.17293,0,-1.5,1.59755e-38,0,0,0,0.767458,0.132777,0,0,0,0,1.05652,0.18541,1.9603e-19,0,0,0,0,0,0,0,0,0,2.5,-0.265555
7760,-4.82715,-0.22168,5.03516,0.0197961,0.00106366,0.000849616,0.0964937,0.0509301,-1.87763,0,0,0,0.783389,0.135574,1.06517,0.187033,-1.87765,0,0,0,0,0,0,0,0,0,0,0.376552,-0.175289,0,-1.5,1.59755e-38,0,0,0,0.783389,0.135574,0,0,0,0,1.06517,0.187033,1.9603e-19,0,0,0,0,0,0,0,0,0,2.5,-0.271148
7775,-4.82715,-0.22168,5.03516,0.0197961,0.00106366,0.000849616,0.0964937,0.0509301,-1.87763,0,0,0,0.79945,0.138395,1.0738,0.188637,-1.87763,0,0,0,0,0,0,0,0,0,0,0.375043,-0.177672,0,-1.5,1.59755e-38,0,0,0,0.79945,0.138395,0,0,0,0,1.0738,0.188637,1.9603e-19,0,0,0,0,0,0,0,0,0,2.5,-0.27679
7791,-4.85156,-0.260742,5.66992,0.0236504,0.00183128,9.39173e-05,0.0973101,0.0509525,-1.87761,0,0,0,0.816724,0.141431,1.08297,0.190327,-1.87761,0,0,0,0,0,0,0,0,0,0,0.373443,-0.180223,0,-1.5,1.59755e-38,0,0,0,0.816724,0.141431,0,0,0,0,1.08297,0.190327,1.9603e-19,0,0,0,0,0,0,0,0,0,2.5,-0.282861
7807,-4.85156,-0.260742,5.66992,0.0236504,0.00183128,9.39173e-05,0.0973101,0.0509525,-1.87761,0,0,0,0.834149,0.144493,1.09216,0.191979,-1.87761,0,0,0,0,0,0,0,0,0,0,0.371839,-0.182771,0,-1.5,1.59755e-38,0,0,0,0.834149,0.144493,0,0,0,0,1.09216,0.191979,1.9603e-19,0,0,0,0,0,0,0,0,0,2.5,-0.288987
7823,-4.89746,-0.393555,-7.2207,-0.0265577,-7.5725e-05,-0.00149769,0.0970691,0.0509511,-1.87762,0,0,0,0.851716,0.147582,1.10128,0.193624,-1.87762,0,0,0,0,0,0,0,0,0,0,0.370257,-0.185321,0,-1.5,1.59755e-38,0,0,0,0.851716,0.147582,0,0,0,0,1.10128,0.193624,1.9603e-19,0,0,0,0,0,0,0,0,0,2.5,-0.295163
7839,-4.82812,-0.350586,6.17773,-0.0222294,1.93244e-05,-0.00180284,0.0962205,0.0509508,-1.87768,0,0,0,0.869431,0.150697,1.11028,0.195272,-1.87765,0,0,0,0,0,0,0,0,0,0,0.368706,-0.187866,0,-1.5,1.59755e-38,0,0,0,0.869431,0.150697,0,0,0,0,1.11028,0.195272,1.9603e-19,0,0,0,0,0,0,0,0,0,2.5,-0.301394
7855,-4.82422,-0.317383,-4.2832,0.00241717,0.000590287,0.000547237,0.0962015,0.0509574,-1.87767,0,0,0,0.887289,0.153839,1.11915,0.196931,-1.87768,0,0,0,0,0,0,0,0,0,0,0.367194,-0.190419,0,-1.5,1.59755e-38,0,0,0,0.887289,0.153839,0,0,0,0,1.11915,0.196931,1.9603e-19,0,0,0,0,0,0,0,0,0,2.5,-0.307677
7871,-4.81055,-0.28418,5.04199,0.0253337,0.00152095,0.000368944,0.0965158,0.0509769,-1.87765,0,0,0,0.905288,0.157007,1.12792,0.198586,-1.87765,0,0,0,0,0,0,0,0,0,0,0.365705,-0.192994,0,-1.5,1.59755e-38,0,0,0,0.905288,0.157007,0,0,0,0,1.12792,0.198586,1.9603e-19,0,0,0,0,0,0,0,0,0,2.5,-0.314014
7887,-4.83691,-0.264648,1.5459,0.0307314,0.00205479,0.000257225,0.0969672,0.0509872,-1.87765,0,0,0,0.923424,0.160201,1.1367,0.200214,-1.87765,0,0,0,0,0,0,0,0,0,0,0.36422,-0.19557,0,-1.5,1.59755e-38,0,0,0,0.923424,0.160201,0,0,0,0,1.1367,0.200214,1.9603e-19,0,0,0,0,0,0,0,0,0,2.5,-0.320402
7903,-4.87793,-0.264648,0.275391,0.0158639,0.000532235,0.000401995,0.0972378,0.050992,-1.87764,0,0,0,0.941703,0.163421,1.14547,0.201812,-1.87764,0,0,0,0,0,0,0,0,0,0,0.362735,-0.198153,0,-1.5,1.59755e-38,0,0,0,0.941703,0.163421,0,0,0,0,1.14547,0.201812,1.9603e-19,0,0,0,0,0,0,0,0,0,2.5,-0.326843
7919,-4.88379,-0.264648,1.73242,-0.0103419,0.00101238,-0.000600465,0.0969238,0.0507812,-1.87769,0,0,0,0.96012,0.166666,1.15419,0.203384,-1.87769,0,0,0,0,0,0,0,0,0,0,0.361267,-0.200714,0,-1.5,1.59755e-38,0,0,0,0.96012,0.166666,0,0,0,0,1.15419,0.203384,1.9603e-19,0,0,0,0,0,0,0,0,0,2.5,-0.333333
7935,-4.8584,-0.264648,5.02637,-0.0284794,0.000541471,-0.000975124,0.0968133,0.0509894,-1.87766,0,0,0,0.978678,0.169937,1.16281,0.204947,-1.87766,0,0,0,0,0,0,0,0,0,0,0.359825,-0.203306,0,-1.5,1.59755e-38,0,0,0,0.978678,0.169937,0,0,0,0,1.16281,0.204947,1.9603e-19,0,0,0,0,0,0,0,0,0,2.5,-0.339874
7951,-4.8291,-0.264648,5.69043,-0.0098816,0.000769573,0.00030136,0.096233,0.0509956,-1.87768,0,0,0,0.99737,0.173232,1.17133,0.206531,-1.87767,0,0,0,0,0,0,0,0,0,0,0.358411,-0.205894,0,-1.5,1.59755e-38,0,0,0,0.99737,0.173232,0,0,0,0,1.17133,0.206531,1.9603e-19,0,0,0,0,0,0,0,0,0,2.5,-0.346464
7967,-4.8291,-0.264648,5.69043,-0.0098816,0.000769573,0.00030136,0.096233,0.0509956,-1.87768,0,0,0,1.0162,0.176553,1.17975,0.208118,-1.87768,0,0,0,0,0,0,0,0,0,0,0.357027,-0.208489,0,-1.5,1.59755e-38,0,0,0,1.0162,0.176553,0,0,0,0,1.17975,0.208118,1.9603e-19,0,0,0,0,0,0,0,0,0,2.5,-0.353106
7979,-4.84668,-0.264648,-7.24902,0.0234229,0.00162136,0.000817875,0.0966812,0.0510115,-1.87766,0,0,0,1.0304,0.179059,1.18601,0.209304,-1.87768,0,0,0,0,0,0,0,0,0,0,0.356003,-0.210438,0,-1.5,1.59755e-38,0,0,0,1.0304,0.179059,0,0,0,0,1.18601,0.209304,1.9603e-19,0,0,0,0,0,0,0,0,0,2.5,-0.358119
7994,-4.86719,-0.264648,4.55273,0.0179636,0.00109446,-7.50453e-05,0.0969775,0.0510196,-1.87766,0,0,0,1.04827,0.182213,1.19382,0.210768,-1.87766,0,0,0,0,0,0,0,0,0,0,0.354727,-0.212886,0,-1.5,1.59755e-38,0,0,0,1.04827,0.182213,0,0,0,0,1.19382,0.210768,1.9603e-19,0,0,0,0,0,0,0,0,0,2.5,-0.364426
8010,-4.85254,-0.264648,6.20898,0.000165085,0.000724712,0.000797114,0.0970273,0.0510134,-1.87765,0,0,0,1.06746,0.185602,1.20218,0.212298,-1.87765,0,0,0,0,0,0,0,0,0,0,0.353363,-0.215501,0,-1.5,1.59755e-38,0,0,0,1.06746,0.185602,0,0,0,0,1.20218,0.212298,1.9603e-19,0,0,0,0,0,0,0,0,0,2.5,-0.371203
8026,-4.87109,-0.264648,-4.2627,-0.0148844,-0.000409326,-0.000250016,0.0968599,0.0510051,-1.87765,0,0,0,1.08678,0.189014,1.21047,0.213816,-1.87765,0,0,0,0,0,0,0,0,0,0,0.352016,-0.218115,0,-1.5,1.59755e-38,0,0,0,1.08678,0.189014,0,0,0,0,1.21047,0.213816,1.9603e-19,0,0,0,0,0,0,0,0,0,2.5,-0.378028
8042,-4.87109,-0.264648,-4.2627,-0.0148844,-0.000409326,-0.000250016,0.0968599,0.0510051,-1.87765,0,0,0,1.10623,0.19245,1.21869,0.215328,-1.87765,0,0,0,0,0,0,0,0,0,0,0.350691,-0.220734,0,-1.5,1.59755e-38,0,0,0,1.10623,0.19245,0,0,0,0,1.21869,0.215328,1.9603e-19,0,0,0,0,0,0,0,0,0,2.5,-0.3849
8058,-4.83691,-0.264648,1.53711,-0.0135622,0.000483715,-0.000301056,0.0963574,0.0510002,-1.87765,0,0,0,1.12581,0.195911,1.22682,0.216837,-1.87765,0,0,0,0,0,0,0,0,0,0,0.349391,-0.223355,0,-1.5,1.59755e-38,0,0,0,1.12581,0.195911,0,0,0,0,1.22682,0.216837,1.9603e-19,0,0,0,0,0,0,0,0,0,2.5,-0.391823
8075,-4.83008,-0.313477,1.73047,0.0109531,0.000973173,0.00137375,0.09648,0.0509927,-1.87765,0,0,0,1.14553,0.199397,1.23484,0.21835,-1.87765,0,0,0,0,0,0,0,0,0,0,0.348119,-0.225983,0,-1.5,1.59755e-38,0,0,0,1.14553,0.199397,0,0,0,0,1.23484,0.21835,1.9603e-19,0,0,0,0,0,0,0,0,0,2.5,-0.398793
8090,-4.8584,-0.34668,5.04102,0.0138683,0.00136862,0.000929385,0.0966944,0.0510001,-1.87764,0,0,0,1.16537,0.202906,1.24282,0.219849,-1.87765,0,0,0,0,0,0,0,0,0,0,0.346862,-0.228616,0,-1.5,1.59755e-38,0,0,0,1.16537,0.202906,0,0,0,0,1.24282,0.219849,1.9603e-19,0,0,0,0,0,0,0,0,0,2.5,-0.405812
8106,-4.8584,-0.34668,5.04102,0.0138683,0.00136862,0.000929385,0.0966944,0.0510001,-1.87764,0,0,0,1.18534,0.206439,1.25078,0.221325,-1.87764,0,0,0,0,0,0,0,0,0,0,0.345609,-0.231258,0,-1.5,1.59755e-38,0,0,0,1.18534,0.206439,0,0,0,0,1.25078,0.221325,1.9603e-19,0,0,0,0,0,0,0,0,0,2.5,-0.412878
8122,-4.88867,-0.40625,5.65332,-0.00222971,0.000569582,0.000158298,0.0968267,0.0510095,-1.87764,0,0,0,1.20543,0.209995,1.25868,0.222789,-1.87764,0,0,0,0,0,0,0,0,0,0,0.344373,-0.233899,0,-1.5,1.59755e-38,0,0,0,1.20543,0.209995,0,0,0,0,1.25868,0.222789,1.9603e-19,0,0,0,0,0,0,0,0,0,2.5,-0.41999
8138,-4.88867,-0.40625,5.65332,-0.00222971,0.000569582,0.000158298,0.0968267,0.0510095,-1.87764,0,0,0,1.22565,0.213575,1.26655,0.224238,-1.87764,0,0,0,0,0,0,0,0,0,0,0.343148,-0.236544,0,-1.5,1.59755e-38,0,0,0,1.22565,0.213575,0,0,0,0,1.26655,0.224238,1.9603e-19,0,0,0,0,0,0,0,0,0,2.5,-0.42715
8154,-4.83984,-0.352539,-7.25293,-0.0143829,0.000605684,-0.000622531,0.0965015,0.0510056,-1.87764,0,0,0,1.246,0.217178,1.27433,0.225684,-1.87764,0,0,0,0,0,0,0,0,0,0,0.341946,-0.239194,0,-1.5,1.59755e-38,0,0,0,1.246,0.217178,0,0,0,0,1.27433,0.225684,1.9603e-19,0,0,0,0,0,0,0,0,0,2.5,-0.434355
8171,-4.8457,-0.286133,6.18262,-0.00225748,-0.000109159,-0.00015083,0.0963025,0.050999,-1.87765,0,0,0,1.26775,0.221032,1.28251,0.22722,-1.87764,0,0,0,0,0,0,0,0,0,0,0.340695,-0.242013,0,-1.5,1.59755e-38,0,0,0,1.26775,0.221032,0,0,0,0,1.28251,0.22722,1.9603e-19,0,0,0,0,0,0,0,0,0,2.5,-0.442063
8188,-4.85742,-0.25293,-4.28418,0.00655689,0.00128894,-0.000969676,0.0963873,0.0510126,-1.87766,0,0,0,1.28964,0.224911,1.2906,0.228749,-1.87765,0,0,0,0,0,0,0,0,0,0,0.339469,-0.244835,0,-1.5,1.59755e-38,0,0,0,1.28964,0.224911,0,0,0,0,1.2906,0.228749,1.9603e-19,0,0,0,0,0,0,0,0,0,2.5,-0.449823
8203,-4.85254,-0.241211,5.07617,0.00964246,0.0016354,0.0012014,0.0965262,0.0510238,-1.87766,0,0,0,1.30907,0.228355,1.2977,0.230087,-1.87766,0,0,0,0,0,0,0,0,0,0,0.338398,-0.24733,0,-1.5,1.59755e-38,0,0,0,1.30907,0.228355,0,0,0,0,1.2977,0.230087,1.9603e-19,0,0,0,0,0,0,0,0,0,2.5,-0.45671
8218,-4.87207,-0.269531,1.5498,0.00479618,0.00109468,0.000145881,0.096619,0.0510335,-1.87766,0,0,0,1.3286,0.231819,1.30477,0.231412,-1.87766,0,0,0,0,0,0,0,0,0,0,0.337336,-0.24983,0,-1.5,1.59755e-38,0,0,0,1.3286,0.231819,0,0,0,0,1.30477,0.231412,1.9603e-19,0,0,0,0,0,0,0,0,0,2.5,-0.463638
8234,-4.86914,-0.302734,0.311523,-0.00132233,0.00130285,0.000569147,0.0966257,0.0510367,-1.87764,0,0,0,1.34955,0.235536,1.31228,0.232813,-1.87764,0,0,0,0,0,0,0,0,0,0,0.336213,-0.252509,0,-1.5,1.59755e-38,0,0,0,1.34955,0.235536,0,0,0,0,1.31228,0.232813,1.9603e-19,0,0,0,0,0,0,0,0,0,2.5,-0.471072
8250,-4.86621,-0.335938,1.74121,-0.0055513,0.000520869,0.000798689,0.0965639,0.0510413,-1.87763,0,0,0,1.37063,0.239275,1.31972,0.234206,-1.87763,0,0,0,0,0,0,0,0,0,0,0.335108,-0.255187,0,-1.5,1.59755e-38,0,0,0,1.37063,0.239275,0,0,0,0,1.31972,0.234206,1.9603e-19,0,0,0,0,0,0,0,0,0,2.5,-0.47855
8266,-4.8457,-0.369141,5.04004,-0.00969337,0.000765515,-0.000290771,0.0964435,0.0510416,-1.87763,0,0,0,1.39182,0.243036,1.32711,0.235593,-1.87763,0,0,0,0,0,0,0,0,0,0,0.334022,-0.257867,0,-1.5,1.59755e-38,0,0,0,1.39182,0.243036,0,0,0,0,1.32711,0.235593,1.9603e-19,0,0,0,0,0,0,0,0,0,2.5,-0.486073
8282,-4.83301,-0.385742,5.63672,-0.00430798,0.00159299,-0.00101702,0.0962639,0.051057,-1.87764,0,0,0,1.41179,0.246583,1.33397,0.236888,-1.87763,0,0,0,0,0,0,0,0,0,0,0.33302,-0.260384,0,-1.5,1.59755e-38,0,0,0,1.41179,0.246583,0,0,0,0,1.33397,0.236888,1.9603e-19,0,0,0,0,0,0,0,0,0,2.5,-0.493166
8298,-4.83984,-0.385742,6.06543,-0.000550828,0.00100021,0.000175856,0.0962572,0.0510684,-1.87764,0,0,0,1.43455,0.250626,1.34167,0.238351,-1.87764,0,0,0,0,0,0,0,0,0,0,0.331905,-0.26324,0,-1.5,1.59755e-38,0,0,0,1.43455,0.250626,0,0,0,0,1.34167,0.238351,1.9603e-19,0,0,0,0,0,0,0,0,0,2.5,-0.501252
8314,-4.83984,-0.385742,6.06543,-0.000550828,0.00100021,0.000175856,0.0962572,0.0510684,-1.87764,0,0,0,1.45609,0.254454,1.34886,0.239724,-1.87764,0,0,0,0,0,0,0,0,0,0,0.330875,-0.265934,0,-1.5,1.59755e-38,0,0,0,1.45609,0.254454,0,0,0,0,1.34886,0.239724,1.9603e-19,0,0,0,0,0,0,0,0,0,2.5,-0.508907
8330,-4.83984,-0.385742,6.06543,-0.000550828,0.00100021,0.000175856,0.0962572,0.0510684,-1.87764,0,0,0,1.47775,0.258303,1.35599,0.241088,-1.87764,0,0,0,0,0,0,0,0,0,0,0.329859,-0.268632,0,-1.5,1.59755e-38,0,0,0,1.47775,0.258303,0,0,0,0,1.35599,0.241088,1.9603e-19,0,0,0,0,0,0,0,0,0,2.5,-0.516606
8345,-4.86328,-0.385742,6.17871,0.00246995,-0.000628206,-0.0012108,0.0964543,0.05107,-1.87764,0,0,0,1.49815,0.261932,1.36265,0.242354,-1.87764,0,0,0,0,0,0,0,0,0,0,0.328917,-0.271167,0,-1.5,1.59755e-38,0,0,0,1.49815,0.261932,0,0,0,0,1.36265,0.242354,1.9603e-19,0,0,0,0,0,0,0,0,0,2.5,-0.523863
8361,-4.86523,-0.385742,-4.27637,-0.00181177,0.00111729,-0.000731238,0.096458,0.0510705,-1.87765,0,0,0,1.52003,0.265823,1.36971,0.24369,-1.87765,0,0,0,0,0,0,0,0,0,0,0.327922,-0.273871,0,-1.5,1.59755e-38,0,0,0,1.52003,0.265823,0,0,0,0,1.36971,0.24369,1.9603e-19,0,0,0,0,0,0,0,0,0,2.5,-0.531647
8377,-4.86523,-0.385742,-4.27637,-0.00181177,0.00111729,-0.000731238,0.096458,0.0510705,-1.87765,0,0,0,1.54202,0.269736,1.37673,0.245016,-1.87765,0,0,0,0,0,0,0,0,0,0,0.326941,-0.276582,0,-1.5,1.59755e-38,0,0,0,1.54202,0.269736,0,0,0,0,1.37673,0.245016,1.9603e-19,0,0,0,0,0,0,0,0,0,2.5,-0.539473
8393,-4.8584,-0.385742,0.297852,-0.00651378,0.000179059,0.000704346,0.0961656,0.0510698,-1.87764,0,0,0,1.56412,0.27367,1.38369,0.246332,-1.87765,0,0,0,0,0,0,0,0,0,0,0.325975,-0.279297,0,-1.5,1.59755e-38,0,0,0,1.56412,0.27367,0,0,0,0,1.38369,0.246332,1.9603e-19,0,0,0,0,0,0,0,0,0,2.5,-0.54734
8410,-4.85938,-0.385742,1.73926,-0.00262104,0.00144262,-0.000247095,0.0961211,0.0510829,-1.87765,0,0,0,1.58772,0.277874,1.39102,0.247728,-1.87765,0,0,0,0,0,0,0,0,0,0,0.32497,-0.282186,0,-1.5,1.59755e-38,0,0,0,1.58772,0.277874,0,0,0,0,1.39102,0.247728,1.9603e-19,0,0,0,0,0,0,0,0,0,2.5,-0.555747
8425,-4.85938,-0.385742,5.06152,0.00279079,-9.47754e-06,0.000396096,0.0961569,0.0510844,-1.87764,0,0,0,1.60865,0.281601,1.3974,0.24896,-1.87764,0,0,0,0,0,0,0,0,0,0,0.324103,-0.28474,0,-1.5,1.59755e-38,0,0,0,1.60865,0.281601,0,0,0,0,1.3974,0.24896,1.9603e-19,0,0,0,0,0,0,0,0,0,2.5,-0.563202
8440,-4.85938,-0.385742,5.06152,0.00279079,-9.47754e-06,0.000396096,0.0961569,0.0510844,-1.87764,0,0,0,1.62967,0.285347,1.40375,0.250184,-1.87764,0,0,0,0,0,0,0,0,0,0,0.323248,-0.287297,0,-1.5,1.59755e-38,0,0,0,1.62967,0.285347,0,0,0,0,1.40375,0.250184,1.9603e-19,0,0,0,0,0,0,0,0,0,2.5,-0.570695
8456,-4.85938,-0.385742,5.06152,0.00279079,-9.47754e-06,0.000396096,0.0961569,0.0510844,-1.87764,0,0,0,1.6522,0.289364,1.41048,0.251479,-1.87764,0,0,0,0,0,0,0,0,0,0,0.322349,-0.290028,0,-1.5,1.59755e-38,0,0,0,1.6522,0.289364,0,0,0,0,1.41048,0.251479,1.9603e-19,0,0,0,0,0,0,0,0,0,2.5,-0.578727
8472,-4.85938,-0.385742,5.06152,0.00279079,-9.47754e-06,0.000396096,0.0961569,0.0510844,-1.87764,0,0,0,1.67484,0.293401,1.41716,0.252766,-1.87764,0,0,0,0,0,0,0,0,0,0,0.321465,-0.292763,0,-1.5,1.59755e-38,0,0,0,1.67484,0.293401,0,0,0,0,1.41716,0.252766,1.9603e-19,0,0,0,0,0,0,0,0,0,2.5,-0.586801
8488,-4.875,-0.280273,-7.22656,-0.00484146,0.00110547,0.000370236,0.0963539,0.0511053,-1.87763,0,0,0,1.69758,0.297458,1.4238,0.25404,-1.87763,0,0,0,0,0,0,0,0,0,0,0.320589,-0.295506,0,-1.5,1.59755e-38,0,0,0,1.69758,0.297458,0,0,0,0,1.4238,0.25404,1.9603e-19,0,0,0,0,0,0,0,0,0,2.5,-0.594916
8504,-4.83594,-0.280273,6.21387,-0.0104402,0.00127912,-0.00051323,0.0960796,0.0511185,-1.87765,0,0,0,1.72043,0.301536,1.43041,0.255305,-1.87764,0,0,0,0,0,0,0,0,0,0,0.319727,-0.298248,0,-1.5,1.59755e-38,0,0,0,1.72043,0.301536,0,0,0,0,1.43041,0.255305,1.9603e-19,0,0,0,0,0,0,0,0,0,2.5,-0.603072
8520,-4.84863,-0.280273,-4.28809,-0.00439907,0.00120293,-0.000288219,0.0960066,0.0511227,-1.87766,0,0,0,1.74339,0.305634,1.43694,0.256568,-1.87765,0,0,0,0,0,0,0,0,0,0,0.318885,-0.300992,0,-1.5,1.59755e-38,0,0,0,1.74339,0.305634,0,0,0,0,1.43694,0.256568,1.9603e-19,0,0,0,0,0,0,0,0,0,2.5,-0.611268
8536,-4.8418,-0.280273,5.03711,0.00148419,0.000559638,-0.000281163,0.0960228,0.0511251,-1.87765,0,0,0,1.76644,0.309752,1.44341,0.257831,-1.87765,0,0,0,0,0,0,0,0,0,0,0.318061,-0.303744,0,-1.5,1.59755e-38,0,0,0,1.76644,0.309752,0,0,0,0,1.44341,0.257831,1.9603e-19,0,0,0,0,0,0,0,0,0,2.5,-0.619505
8552,-4.84961,-0.280273,1.53125,0.00887179,0.000451567,4.3698e-05,0.0961425,0.0511238,-1.87765,0,0,0,1.7896,0.31389,1.44984,0.259082,-1.87765,0,0,0,0,0,0,0,0,0,0,0.317248,-0.306501,0,-1.5,1.59755e-38,0,0,0,1.7896,0.31389,0,0,0,0,1.44984,0.259082,1.9603e-19,0,0,0,0,0,0,0,0,0,2.5,-0.627781
8568,-4.86816,-0.280273,0.245117,0.00910547,0.00135517,0.00100215,0.0962856,0.0511256,-1.87763,0,0,0,1.81287,0.318049,1.45624,0.260318,-1.87763,0,0,0,0,0,0,0,0,0,0,0.316441,-0.309267,0,-1.5,1.59755e-38,0,0,0,1.81287,0.318049,0,0,0,0,1.45624,0.260318,1.9603e-19,0,0,0,0,0,0,0,0,0,2.5,-0.636098
8584,-4.87598,-0.280273,1.69141,0.00319978,0.000135525,0.00132262,0.0963552,0.0511214,-1.87762,0,0,0,1.83624,0.322227,1.46262,0.26154,-1.87762,0,0,0,0,0,0,0,0,0,0,0.315643,-0.312035,0,-1.5,1.59755e-38,0,0,0,1.83624,0.322227,0,0,0,0,1.46262,0.26154,1.9603e-19,0,0,0,0,0,0,0,0,0,2.5,-0.644453
8600,-4.86035,-0.280273,-3.42578,-0.0128124,5.05599e-05,-0.000719118,0.0961267,0.0511264,-1.87762,0,0,0,1.8597,0.326424,1.46895,0.262753,-1.87761,0,0,0,0,0,0,0,0,0,0,0.314859,-0.314804,0,-1.5,1.59755e-38,0,0,0,1.8597,0.326424,0,0,0,0,1.46895,0.262753,1.9603e-19,0,0,0,0,0,0,0,0,0,2.5,-0.652847
8615,-4.84668,-0.313477,5.68359,-0.0127728,0.000779173,-0.000175209,0.0959401,0.0511387,-1.87762,0,0,0,1.88179,0.330376,1.47482,0.263887,-1.87762,0,0,0,0,0,0,0,0,0,0,0.314142,-0.317401,0,-1.5,1.59755e-38,0,0,0,1.88179,0.330376,0,0,0,0,1.47482,0.263887,1.9603e-19,0,0,0,0,0,0,0,0,0,2.5,-0.660752
8633,-4.81836,-0.34668,6.06934,-0.0027634,0.00106744,0.000501509,0.0958759,0.0511417,-1.87762,0,0,0,1.90843,0.335143,1.48178,0.265256,-1.87762,0,0,0,0,0,0,0,0,0,0,0.313307,-0.320524,0,-1.5,1.59755e-38,0,0,0,1.90843,0.335143,0,0,0,0,1.48178,0.265256,1.9603e-19,0,0,0,0,0,0,0,0,0,2.5,-0.670285
8648,-4.84766,-0.379883,-7.21191,0.0075052,0.000956345,-0.000200124,0.0959706,0.0511519,-1.87761,0,0,0,1.93071,0.339133,1.48753,0.266389,-1.87761,0,0,0,0,0,0,0,0,0,0,0.312623,-0.323133,0,-1.5,1.59755e-38,0,0,0,1.93071,0.339133,0,0,0,0,1.48753,0.266389,1.9603e-19,0,0,0,0,0,0,0,0,0,2.5,-0.678265
8663,-4.8457,-0.390625,4.57031,0.0129308,0.000519987,0.000538582,0.0961672,0.0511539,-1.87761,0,0,0,1.95308,0.343139,1.49326,0.26751,-1.87761,0,0,0,0,0,0,0,0,0,0,0.311948,-0.325742,0,-1.5,1.59755e-38,0,0,0,1.95308,0.343139,0,0,0,0,1.49326,0.26751,1.9603e-19,0,0,0,0,0,0,0,0,0,2.5,-0.686278
8679,-4.8457,-0.390625,4.57031,0.0129308,0.000519987,0.000538582,0.0961672,0.0511539,-1.87761,0,0,0,1.97703,0.347431,1.49935,0.268692,-1.87761,0,0,0,0,0,0,0,0,0,0,0.311234,-0.328529,0,-1.5,1.59755e-38,0,0,0,1.97703,0.347431,0,0,0,0,1.49935,0.268692,1.9603e-19,0,0,0,0,0,0,0,0,0,2.5,-0.694863
8695,-4.88184,-0.324219,-4.27051,-0.00354921,0.000207226,0.000455205,0.0963386,0.0511525,-1.87759,0,0,0,2.00108,0.351742,1.5054,0.269861,-1.87759,0,0,0,0,0,0,0,0,0,0,0.310527,-0.331327,0,-1.5,1.59755e-38,0,0,0,2.00108,0.351742,0,0,0,0,1.5054,0.269861,1.9603e-19,0,0,0,0,0,0,0,0,0,2.5,-0.703485
8710,-4.84668,-0.257812,1.5166,-0.0202691,0.000408007,-0.00148997,0.0958706,0.0511429,-1.87759,0,0,0,2.02372,0.355801,1.51105,0.270946,-1.87759,0,0,0,0,0,0,0,0,0,0,0.309875,-0.333947,0,-1.5,1.59755e-38,0,0,0,2.02372,0.355801,0,0,0,0,1.51105,0.270946,1.9603e-19,0,0,0,0,0,0,0,0,0,2.5,-0.711602
8726,-4.83008,-0.224609,0.265625,-0.010042,0.000732287,-0.000191985,0.0956987,0.0511322,-1.87759,0,0,0,2.04796,0.360148,1.51697,0.272116,-1.87759,0,0,0,0,0,0,0,0,0,0,0.309211,-0.336742,0,-1.5,1.59755e-38,0,0,0,2.04796,0.360148,0,0,0,0,1.51697,0.272116,1.9603e-19,0,0,0,0,0,0,0,0,0,2.5,-0.720297
8742,-4.83008,-0.224609,0.265625,-0.010042,0.000732287,-0.000191985,0.0956987,0.0511322,-1.87759,0,0,0,2.07229,0.364514,1.52282,0.273284,-1.87759,0,0,0,0,0,0,0,0,0,0,0.308564,-0.339545,0,-1.5,1.59755e-38,0,0,0,2.07229,0.364514,0,0,0,0,1.52282,0.273284,1.9603e-19,0,0,0,0,0,0,0,0,0,2.5,-0.729029
8758,-4.84863,-0.272461,5.0127,0.0181069,0.00133755,0.000257831,0.0959569,0.0511439,-1.87756,0,0,0,2.09671,0.368899,1.52863,0.274441,-1.87756,0,0,0,0,0,0,0,0,0,0,0.307924,-0.342357,0,-1.5,1.59755e-38,0,0,0,2.09671,0.368899,0,0,0,0,1.52863,0.274441,1.9603e-19,0,0,0,0,0,0,0,0,0,2.5,-0.737798
8774,-4.84863,-0.272461,5.0127,0.0181069,0.00133755,0.000257831,0.0959569,0.0511439,-1.87756,0,0,0,2.12123,0.373302,1.53443,0.275582,-1.87756,0,0,0,0,0,0,0,0,0,0,0.307292,-0.345166,0,-1.5,1.59755e-38,0,0,0,2.12123,0.373302,0,0,0,0,1.53443,0.275582,1.9603e-19,0,0,0,0,0,0,0,0,0,2.5,-0.746604
8790,-4.85938,-0.404297,5.6709,0.00367448,0.00080121,-0.00074979,0.0963337,0.0511509,-1.87756,0,0,0,2.14584,0.377723,1.54022,0.276707,-1.87756,0,0,0,0,0,0,0,0,0,0,0.306666,-0.347978,0,-1.5,1.59755e-38,0,0,0,2.14584,0.377723,0,0,0,0,1.54022,0.276707,1.9603e-19,0,0,0,0,0,0,0,0,0,2.5,-0.755445
8806,-4.87109,-0.400391,6.06836,-0.013042,0.000359904,-0.00217147,0.0961847,0.0511502,-1.87759,0,0,0,2.17054,0.382161,1.54598,0.277818,-1.87759,0,0,0,0,0,0,0,0,0,0,0.30605,-0.350786,0,-1.5,1.59755e-38,0,0,0,2.17054,0.382161,0,0,0,0,1.54598,0.277818,1.9603e-19,0,0,0,0,0,0,0,0,0,2.5,-0.764323
8822,-4.82324,-0.333984,4.55273,-0.016145,-0.000237247,-0.000553295,0.0956314,0.0511384,-1.8776,0,0,0,2.19379,0.386339,1.55132,0.278861,-1.87759,0,0,0,0,0,0,0,0,0,0,0.305488,-0.353427,0,-1.5,1.59755e-38,0,0,0,2.19379,0.386339,0,0,0,0,1.55132,0.278861,1.9603e-19,0,0,0,0,0,0,0,0,0,2.5,-0.772677
8837,-4.84961,-0.300781,6.1748,0.00197931,0.000479541,-0.000333677,0.0956279,0.0511351,-1.87761,0,0,0,2.21867,0.390812,1.55693,0.279979,-1.8776,0,0,0,0,0,0,0,0,0,0,0.304913,-0.356246,0,-1.5,1.59755e-38,0,0,0,2.21867,0.390812,0,0,0,0,1.55693,0.279979,1.9603e-19,0,0,0,0,0,0,0,0,0,2.5,-0.781624
8854,-4.86426,-0.267578,-4.28027,0.0178952,0.00100085,0.00125926,0.0958627,0.0511405,-1.8776,0,0,0,2.2452,0.395585,1.56283,0.281161,-1.8776,0,0,0,0,0,0,0,0,0,0,0.304316,-0.359249,0,-1.5,1.59755e-38,0,0,0,2.2452,0.395585,0,0,0,0,1.56283,0.281161,1.9603e-19,0,0,0,0,0,0,0,0,0,2.5,-0.79117
8869,-4.86328,-0.267578,5.05664,0.0186724,0.00151226,0.00108969,0.0961382,0.0511518,-1.87758,0,0,0,2.26869,0.399812,1.56804,0.282186,-1.87758,0,0,0,0,0,0,0,0,0,0,0.303787,-0.361908,0,-1.5,1.59755e-38,0,0,0,2.26869,0.399812,0,0,0,0,1.56804,0.282186,1.9603e-19,0,0,0,0,0,0,0,0,0,2.5,-0.799624
8884,-4.88379,-0.267578,1.54004,0.00585096,0.00115736,0.000867561,0.0962691,0.0511536,-1.87757,0,0,0,2.29226,0.404054,1.57325,0.283194,-1.87757,0,0,0,0,0,0,0,0,0,0,0.30326,-0.364567,0,-1.5,1.59755e-38,0,0,0,2.29226,0.404054,0,0,0,0,1.57325,0.283194,1.9603e-19,0,0,0,0,0,0,0,0,0,2.5,-0.808108
8900,-4.87207,-0.267578,0.307617,-0.0120628,0.000607786,9.6301e-05,0.0961515,0.0511561,-1.87757,0,0,0,2.31591,0.408312,1.57843,0.284195,-1.87757,0,0,0,0,0,0,0,0,0,0,0.302745,-0.367225,0,-1.5,1.59755e-38,0,0,0,2.31591,0.408312,0,0,0,0,1.57843,0.284195,1.9603e-19,0,0,0,0,0,0,0,0,0,2.5,-0.816623
8916,-4.84766,-0.267578,1.70312,-0.0213339,0.00108566,-0.000920092,0.0958593,0.0511608,-1.87757,0,0,0,2.34122,0.41287,1.58388,0.285264,-1.87757,0,0,0,0,0,0,0,0,0,0,0.302214,-0.370064,0,-1.5,1.59755e-38,0,0,0,2.34122,0.41287,0,0,0,0,1.58388,0.285264,1.9603e-19,0,0,0,0,0,0,0,0,0,2.5,-0.82574
8931,-4.82227,-0.267578,-3.44727,-0.00158481,0.000655771,0.00114323,0.0955547,0.0511592,-1.87757,0,0,0,2.36662,0.417446,1.58926,0.286339,-1.87759,0,0,0,0,0,0,0,0,0,0,0.301706,-0.372903,0,-1.5,1.59755e-38,0,0,0,2.36662,0.417446,0,0,0,0,1.58926,0.286339,1.9603e-19,0,0,0,0,0,0,0,0,0,2.5,-0.834891
8947,-4.82715,-0.267578,5.67773,0.0142971,0.000634914,-0.000304999,0.0957299,0.0511681,-1.87757,0,0,0,2.3921,0.422038,1.59457,0.287415,-1.87757,0,0,0,0,0,0,0,0,0,0,0.301213,-0.375754,0,-1.5,1.59755e-38,0,0,0,2.3921,0.422038,0,0,0,0,1.59457,0.287415,1.9603e-19,0,0,0,0,0,0,0,0,0,2.5,-0.844077
8963,-4.83887,-0.267578,6.06934,0.0183708,0.00116775,0.000429483,0.0960012,0.0511763,-1.87756,0,0,0,2.41767,0.426648,1.59987,0.288476,-1.87756,0,0,0,0,0,0,0,0,0,0,0.300724,-0.378606,0,-1.5,1.59755e-38,0,0,0,2.41767,0.426648,0,0,0,0,1.59987,0.288476,1.9603e-19,0,0,0,0,0,0,0,0,0,2.5,-0.853296
8979,-4.86914,-0.267578,-7.23145,0.00969707,0.000471524,-0.00055362,0.0961691,0.0511683,-1.87756,0,0,0,2.44333,0.431274,1.60518,0.289516,-1.87756,0,0,0,0,0,0,0,0,0,0,0.300236,-0.38146,0,-1.5,1.59755e-38,0,0,0,2.44333,0.431274,0,0,0,0,1.60518,0.289516,1.9603e-19,0,0,0,0,0,0,0,0,0,2.5,-0.862549
8995,-4.8916,-0.267578,4.55664,-0.00651643,0.00121262,0.000162401,0.0961366,0.0511757,-1.87756,0,0,0,2.46906,0.435917,1.61046,0.290544,-1.87756,0,0,0,0,0,0,0,0,0,0,0.299755,-0.384319,0,-1.5,1.59755e-38,0,0,0,2.46906,0.435917,0,0,0,0,1.61046,0.290544,1.9603e-19,0,0,0,0,0,0,0,0,0,2.5,-0.871834
9011,-4.8916,-0.267578,4.55664,-0.00651643,0.00121262,0.000162401,0.0961366,0.0511757,-1.87756,0,0,0,2.49488,0.440576,1.6157,0.291566,-1.87756,0,0,0,0,0,0,0,0,0,0,0.299286,-0.387179,0,-1.5,1.59755e-38,0,0,0,2.49488,0.440576,0,0,0,0,1.6157,0.291566,1.9603e-19,0,0,0,0,0,0,0,0,0,2.5,-0.881153
9027,-4.84668,-0.267578,-4.24512,-0.0183081,-0.000392007,-0.000914909,0.0956708,0.0511654,-1.87759,0,0,0,2.52079,0.445252,1.62088,0.292588,-1.87759,0,0,0,0,0,0,0,0,0,0,0.298841,-0.390034,0,-1.5,1.59755e-38,0,0,0,2.52079,0.445252,0,0,0,0,1.62088,0.292588,1.9603e-19,0,0,0,0,0,0,0,0,0,2.5,-0.890503
9043,-4.81348,-0.267578,1.55469,0.00208174,0.000542651,-0.000507032,0.0955368,0.0511745,-1.87758,0,0,0,2.54677,0.449944,1.62598,0.293615,-1.87759,0,0,0,0,0,0,0,0,0,0,0.298412,-0.3929,0,-1.5,1.59755e-38,0,0,0,2.54677,0.449944,0,0,0,0,1.62598,0.293615,1.9603e-19,0,0,0,0,0,0,0,0,0,2.5,-0.899887
9058,-4.82227,-0.267578,0.311523,0.010247,0.00133309,0.000834996,0.0956757,0.0511692,-1.87757,0,0,0,2.57121,0.454357,1.63071,0.294578,-1.87758,0,0,0,0,0,0,0,0,0,0,0.298024,-0.395591,0,-1.5,1.59755e-38,0,0,0,2.57121,0.454357,0,0,0,0,1.63071,0.294578,1.9603e-19,0,0,0,0,0,0,0,0,0,2.5,-0.908714
9075,-4.82227,-0.267578,0.311523,0.010247,0.00133309,0.000834996,0.0956757,0.0511692,-1.87757,0,0,0,2.59899,0.459377,1.63605,0.295655,-1.87757,0,0,0,0,0,0,0,0,0,0,0.297587,-0.398648,0,-1.5,1.59755e-38,0,0,0,2.59899,0.459377,0,0,0,0,1.63605,0.295655,1.9603e-19,0,0,0,0,0,0,0,0,0,2.5,-0.918754
9090,-4.85742,-0.267578,5.05176,0.00672787,4.5436e-05,0.00110441,0.0959892,0.0511788,-1.87754,0,0,0,2.62358,0.463821,1.64074,0.296595,-1.87754,0,0,0,0,0,0,0,0,0,0,0.297204,-0.401353,0,-1.5,1.59755e-38,0,0,0,2.62358,0.463821,0,0,0,0,1.64074,0.296595,1.9603e-19,0,0,0,0,0,0,0,0,0,2.5,-0.927642
9106,-4.85547,-0.267578,-3.41797,-0.00434473,0.000580196,-0.00016679,0.0959611,0.0511777,-1.87754,0,0,0,2.64988,0.468577,1.64574,0.297581,-1.87754,0,0,0,0,0,0,0,0,0,0,0.296804,-0.404233,0,-1.5,1.59755e-38,0,0,0,2.64988,0.468577,0,0,0,0,1.64574,0.297581,1.9603e-19,0,0,0,0,0,0,0,0,0,2.5,-0.937153
9121,-4.88184,-0.267578,5.66602,-0.011433,0.0011991,-0.00116699,0.0958373,0.0511887,-1.87754,0,0,0,2.67461,0.473049,1.65039,0.298503,-1.87754,0,0,0,0,0,0,0,0,0,0,0.296443,-0.406934,0,-1.5,1.59755e-38,0,0,0,2.67461,0.473049,0,0,0,0,1.65039,0.298503,1.9603e-19,0,0,0,0,0,0,0,0,0,2.5,-0.946099
9138,-4.86426,-0.267578,-7.23438,-0.0093252,0.000168295,0.000292179,0.0955369,0.0511792,-1.87755,0,0,0,2.70273,0.478135,1.65559,0.299549,-1.87755,0,0,0,0,0,0,0,0,0,0,0.29605,-0.409999,0,-1.5,1.59755e-38,0,0,0,2.70273,0.478135,0,0,0,0,1.65559,0.299549,1.9603e-19,0,0,0,0,0,0,0,0,0,2.5,-0.956271
9153,-4.84375,-0.267578,4.56445,-0.000249824,0.000455926,-0.000740593,0.0955195,0.0511867,-1.87756,0,0,0,2.7276,0.482638,1.66013,0.300471,-1.87755,0,0,0,0,0,0,0,0,0,0,0.29572,-0.412706,0,-1.5,1.59755e-38,0,0,0,2.7276,0.482638,0,0,0,0,1.66013,0.300471,1.9603e-19,0,0,0,0,0,0,0,0,0,2.5,-0.965275
9170,-4.85645,-0.267578,6.19922,0.00823726,0.00132327,-0.000165751,0.095623,0.0511923,-1.87755,0,0,0,2.75588,0.487757,1.66523,0.301512,-1.87755,0,0,0,0,0,0,0,0,0,0,0.295357,-0.415778,0,-1.5,1.59755e-38,0,0,0,2.75588,0.487757,0,0,0,0,1.66523,0.301512,1.9603e-19,0,0,0,0,0,0,0,0,0,2.5,-0.975514
9186,-4.86523,-0.267578,-4.27148,0.0117859,5.63631e-05,0.0012533,0.0957883,0.0511916,-1.87754,0,0,0,2.7809,0.492288,1.66971,0.302419,-1.87754,0,0,0,0,0,0,0,0,0,0,0.295038,-0.418498,0,-1.5,1.59755e-38,0,0,0,2.7809,0.492288,0,0,0,0,1.66971,0.302419,1.9603e-19,0,0,0,0,0,0,0,0,0,2.5,-0.984577
9202,-4.86621,-0.267578,5.0498,0.00808972,0.0010742,0.000228279,0.0959137,0.0511938,-1.87753,0,0,0,2.80767,0.497137,1.67448,0.303373,-1.87753,0,0,0,0,0,0,0,0,0,0,0.294702,-0.421399,0,-1.5,1.59755e-38,0,0,0,2.80767,0.497137,0,0,0,0,1.67448,0.303373,1.9603e-19,0,0,0,0,0,0,0,0,0,2.5,-0.994274
9218,-4.86426,-0.267578,1.55664,-0.00248693,0.000593785,-0.000631817,0.0959221,0.0511939,-1.87752,0,0,0,2.83451,0.502001,1.67923,0.304317,-1.87752,0,0,0,0,0,0,0,0,0,0,0.294374,-0.424303,0,-1.5,1.59755e-38,0,0,0,2.83451,0.502001,0,0,0,0,1.67923,0.304317,1.9603e-19,0,0,0,0,0,0,0,0,0,2.5,-1.004
9234,-4.87012,-0.267578,0.325195,-0.0117252,0.0012304,-0.00136625,0.0957841,0.0512055,-1.87754,0,0,0,2.86143,0.50688,1.68394,0.305256,-1.87754,0,0,0,0,0,0,0,0,0,0,0.294063,-0.427203,0,-1.5,1.59755e-38,0,0,0,2.86143,0.50688,0,0,0,0,1.68394,0.305256,1.9603e-19,0,0,0,0,0,0,0,0,0,2.5,-1.01376
9251,-4.8584,-0.267578,5.0127,-0.00997562,0.000484501,-0.000167892,0.0954394,0.0512126,-1.87755,0,0,0,2.8918,0.512387,1.68919,0.30631,-1.87754,0,0,0,0,0,0,0,0,0,0,0.293724,-0.430475,0,-1.5,1.59755e-38,0,0,0,2.8918,0.512387,0,0,0,0,1.68919,0.30631,1.9603e-19,0,0,0,0,0,0,0,0,0,2.5,-1.02477
9267,-4.85059,-0.267578,-3.45605,0.000539414,0.000417116,-0.000287927,0.0954247,0.051208,-1.87756,0,0,0,2.91888,0.517298,1.69376,0.307258,-1.87756,0,0,0,0,0,0,0,0,0,0,0.293451,-0.433382,0,-1.5,1.59755e-38,0,0,0,2.91888,0.517298,0,0,0,0,1.69376,0.307258,1.9603e-19,0,0,0,0,0,0,0,0,0,2.5,-1.0346
9283,-4.83105,-0.267578,5.63086,0.00845146,0.00119064,-0.000207029,0.0955352,0.0512188,-1.87757,0,0,0,2.94432,0.521915,1.69802,0.308138,-1.87757,0,0,0,0,0,0,0,0,0,0,0.293201,-0.436112,0,-1.5,1.59755e-38,0,0,0,2.94432,0.521915,0,0,0,0,1.69802,0.308138,1.9603e-19,0,0,0,0,0,0,0,0,0,2.5,-1.04383
9300,-4.83789,-0.267578,6.05566,0.00948721,-0.000251551,0.000258207,0.0956758,0.0512105,-1.87756,0,0,0,2.97324,0.527165,1.70284,0.309124,-1.87756,0,0,0,0,0,0,0,0,0,0,0.29292,-0.439214,0,-1.5,1.59755e-38,0,0,0,2.97324,0.527165,0,0,0,0,1.70284,0.309124,1.9603e-19,0,0,0,0,0,0,0,0,0,2.5,-1.05433
9314,-4.85547,-0.267578,-7.23535,0.00467462,0.00158319,0.000213416,0.0957655,0.0512234,-1.87756,0,0,0,2.99883,0.53181,1.70707,0.309981,-1.87756,0,0,0,0,0,0,0,0,0,0,0.292676,-0.441952,0,-1.5,1.59755e-38,0,0,0,2.99883,0.53181,0,0,0,0,1.70707,0.309981,1.9603e-19,0,0,0,0,0,0,0,0,0,2.5,-1.06362
9329,-4.86328,-0.267578,4.55859,-0.00398754,0.000565899,-0.000896224,0.095742,0.0512252,-1.87757,0,0,0,3.02448,0.536468,1.71129,0.310832,-1.87757,0,0,0,0,0,0,0,0,0,0,0.292442,-0.44469,0,-1.5,1.59755e-38,0,0,0,3.02448,0.536468,0,0,0,0,1.71129,0.310832,1.9603e-19,0,0,0,0,0,0,0,0,0,2.5,-1.07294
9345,-4.85547,-0.267578,-4.25,-0.0094553,0.00125277,9.12213e-05,0.0955025,0.0512262,-1.87758,0,0,0,3.0519,0.541451,1.71575,0.311733,-1.87757,0,0,0,0,0,0,0,0,0,0,0.292199,-0.447617,0,-1.5,1.59755e-38,0,0,0,3.0519,0.541451,0,0,0,0,1.71575,0.311733,1.9603e-19,0,0,0,0,0,0,0,0,0,2.5,-1.0829
9361,-4.83594,-0.267578,5.05762,-0.00486416,-8.48639e-05,-0.00148308,0.0954226,0.0512224,-1.8776,0,0,0,3.0794,0.546448,1.72016,0.312635,-1.87758,0,0,0,0,0,0,0,0,0,0,0.291974,-0.450543,0,-1.5,1.59755e-38,0,0,0,3.0794,0.546448,0,0,0,0,1.72016,0.312635,1.9603e-19,0,0,0,0,0,0,0,0,0,2.5,-1.0929
9377,-4.83984,-0.267578,1.53711,0.00192441,0.00133111,0.000915791,0.095442,0.0512306,-1.87759,0,0,0,3.10697,0.551459,1.72451,0.313538,-1.87759,0,0,0,0,0,0,0,0,0,0,0.291763,-0.453475,0,-1.5,1.59755e-38,0,0,0,3.10697,0.551459,0,0,0,0,1.72451,0.313538,1.9603e-19,0,0,0,0,0,0,0,0,0,2.5,-1.10292
9393,-4.83594,-0.267578,0.335938,0.00547487,0.000932945,0.000624458,0.0955201,0.0512355,-1.87757,0,0,0,3.13287,0.55617,1.72856,0.314379,-1.87757,0,0,0,0,0,0,0,0,0,0,0.291567,-0.456231,0,-1.5,1.59755e-38,0,0,0,3.13287,0.55617,0,0,0,0,1.72856,0.314379,1.9603e-19,0,0,0,0,0,0,0,0,0,2.5,-1.11234
9409,-4.83594,-0.267578,0.335938,0.00547487,0.000932945,0.000624458,0.0955201,0.0512355,-1.87757,0,0,0,3.16057,0.561209,1.73287,0.315267,-1.87757,0,0,0,0,0,0,0,0,0,0,0.291369,-0.45917,0,-1.5,1.59755e-38,0,0,0,3.16057,0.561209,0,0,0,0,1.73287,0.315267,1.9603e-19,0,0,0,0,0,0,0,0,0,2.5,-1.12242
9424,-4.86523,-0.267578,5.00684,0.00149514,0.00102275,0.000363954,0.0956396,0.0512397,-1.87755,0,0,0,3.18835,0.566263,1.73715,0.316148,-1.87755,0,0,0,0,0,0,0,0,0,0,0.291171,-0.462118,0,-1.5,1.59755e-38,0,0,0,3.18835,0.566263,0,0,0,0,1.73715,0.316148,1.9603e-19,0,0,0,0,0,0,0,0,0,2.5,-1.13253
9440,-4.86523,-0.267578,5.00684,0.00149514,0.00102275,0.000363954,0.0956396,0.0512397,-1.87755,0,0,0,3.21618,0.57133,1.74141,0.317019,-1.87755,0,0,0,0,0,0,0,0,0,0,0.290986,-0.465063,0,-1.5,1.59755e-38,0,0,0,3.21618,0.57133,0,0,0,0,1.74141,0.317019,1.9603e-19,0,0,0,0,0,0,0,0,0,2.5,-1.14266
9456,-4.85449,-0.267578,6.08496,-0.00304117,0.000410737,0.000837415,0.0954791,0.0512482,-1.87756,0,0,0,3.24409,0.576412,1.74564,0.317886,-1.87757,0,0,0,0,0,0,0,0,0,0,0.29082,-0.468004,0,-1.5,1.59755e-38,0,0,0,3.24409,0.576412,0,0,0,0,1.74564,0.317886,1.9603e-19,0,0,0,0,0,0,0,0,0,2.5,-1.15282
9472,-4.8584,-0.267578,-7.23926,0.000710805,0.000156105,0.000507883,0.095494,0.0512537,-1.87756,0,0,0,3.27206,0.581507,1.74981,0.318752,-1.87756,0,0,0,0,0,0,0,0,0,0,0.290655,-0.470958,0,-1.5,1.59755e-38,0,0,0,3.27206,0.581507,0,0,0,0,1.74981,0.318752,1.9603e-19,0,0,0,0,0,0,0,0,0,2.5,-1.16301
9488,-4.85156,-0.267578,4.52637,0.00246038,-0.000177475,0.000158785,0.0955385,0.0512524,-1.87756,0,0,0,3.29835,0.586296,1.75371,0.31956,-1.87756,0,0,0,0,0,0,0,0,0,0,0.290512,-0.473726,0,-1.5,1.59755e-38,0,0,0,3.29835,0.586296,0,0,0,0,1.75371,0.31956,1.9603e-19,0,0,0,0,0,0,0,0,0,2.5,-1.17259
9503,-4.84766,-0.267578,6.19043,-0.00168639,-0.000204729,0.000160445,0.0955394,0.0512445,-1.87756,0,0,0,3.32645,0.591418,1.75783,0.320412,-1.87756,0,0,0,0,0,0,0,0,0,0,0.290365,-0.476683,0,-1.5,1.59755e-38,0,0,0,3.32645,0.591418,0,0,0,0,1.75783,0.320412,1.9603e-19,0,0,0,0,0,0,0,0,0,2.5,-1.18284
9520,-4.84668,-0.267578,-4.26367,-0.00614814,0.00047866,-0.000163303,0.0954723,0.0512523,-1.87756,0,0,0,3.35638,0.596875,1.76218,0.321312,-1.87756,0,0,0,0,0,0,0,0,0,0,0.290221,-0.479826,0,-1.5,1.59755e-38,0,0,0,3.35638,0.596875,0,0,0,0,1.76218,0.321312,1.9603e-19,0,0,0,0,0,0,0,0,0,2.5,-1.19375
9536,-4.85449,-0.267578,5.05957,-0.00735896,0.000197766,0.001111,0.0953818,0.05125,-1.87756,0,0,0,3.38462,0.602024,1.76624,0.322157,-1.87756,0,0,0,0,0,0,0,0,0,0,0.290095,-0.48279,0,-1.5,1.59755e-38,0,0,0,3.38462,0.602024,0,0,0,0,1.76624,0.322157,1.9603e-19,0,0,0,0,0,0,0,0,0,2.5,-1.20405
9551,-4.86035,-0.267578,1.54199,-0.00289073,0.000573041,-0.000755029,0.095344,0.0512616,-1.87756,0,0,0,3.41115,0.606865,1.77,0.322948,-1.87756,0,0,0,0,0,0,0,0,0,0,0.289991,-0.485568,0,-1.5,1.59755e-38,0,0,0,3.41115,0.606865,0,0,0,0,1.77,0.322948,1.9603e-19,0,0,0,0,0,0,0,0,0,2.5,-1.21373
9567,-4.85059,-0.267578,0.310547,0.00449794,0.00144195,0.000503554,0.0954044,0.0512771,-1.87755,0,0,0,3.43951,0.61204,1.77399,0.323787,-1.87755,0,0,0,0,0,0,0,0,0,0,0.289883,-0.488538,0,-1.5,1.59755e-38,0,0,0,3.43951,0.61204,0,0,0,0,1.77399,0.323787,1.9603e-19,0,0,0,0,0,0,0,0,0,2.5,-1.22408
9583,-4.86523,-0.385742,5.06152,0.00520647,0.000999902,-0.000377131,0.09562,0.0512804,-1.87754,0,0,0,3.46794,0.61723,1.77795,0.324618,-1.87754,0,0,0,0,0,0,0,0,0,0,0.289779,-0.491513,0,-1.5,1.59755e-38,0,0,0,3.46794,0.61723,0,0,0,0,1.77795,0.324618,1.9603e-19,0,0,0,0,0,0,0,0,0,2.5,-1.23446
9599,-4.87012,-0.385742,-3.43945,-0.00334025,-0.000170807,-0.000902932,0.0956145,0.0512709,-1.87755,0,0,0,3.49642,0.622432,1.78192,0.325435,-1.87755,0,0,0,0,0,0,0,0,0,0,0.289684,-0.494485,0,-1.5,1.59755e-38,0,0,0,3.49642,0.622432,0,0,0,0,1.78192,0.325435,1.9603e-19,0,0,0,0,0,0,0,0,0,2.5,-1.24486
9615,-4.85645,-0.385742,5.67285,-0.0127215,0.000681552,-0.000746392,0.0954607,0.0512752,-1.87755,0,0,0,3.52498,0.627647,1.78585,0.326248,-1.87755,0,0,0,0,0,0,0,0,0,0,0.289597,-0.49746,0,-1.5,1.59755e-38,0,0,0,3.52498,0.627647,0,0,0,0,1.78585,0.326248,1.9603e-19,0,0,0,0,0,0,0,0,0,2.5,-1.25529
9631,-4.84473,-0.385742,6.08008,-0.0142047,0.000748032,-0.00119672,0.0952727,0.0512699,-1.87757,0,0,0,3.55359,0.632875,1.78973,0.327063,-1.87757,0,0,0,0,0,0,0,0,0,0,0.289528,-0.500435,0,-1.5,1.59755e-38,0,0,0,3.55359,0.632875,0,0,0,0,1.78973,0.327063,1.9603e-19,0,0,0,0,0,0,0,0,0,2.5,-1.26575
9647,-4.84473,-0.385742,6.08008,-0.0142047,0.000748032,-0.00119672,0.0952727,0.0512699,-1.87757,0,0,0,3.58226,0.638117,1.79356,0.327877,-1.87757,0,0,0,0,0,0,0,0,0,0,0.289468,-0.503416,0,-1.5,1.59755e-38,0,0,0,3.58226,0.638117,0,0,0,0,1.79356,0.327877,1.9603e-19,0,0,0,0,0,0,0,0,0,2.5,-1.27623
