timestamp,A_x,A_y,A_z,P,Q,R,Phi,Theta,Psi,poseX,poseY,poseZ,state_X,state_Y,state_Z,state_VzB,state_Bx,state_By,state_Bz,p1_x,p1_y,p2_x,p2_y,p3_x,p3_y,p4_x,p4_y,roll,pitch,yaw,alt,targetHeading,highLevelState,lowLevelState,gateNumber,filtered_x,filtered_y,x_OT,y_OT,vx_OT,vy_OT,filtered_vx,filtered_vygateArearansac_corr_x,ransac_corr_y,ransac_corr_vx,ransac_corr_vy,detectionTimeStamppTermX,dTermX,pTermY,dTermY,vxcmd,vycmd
6439,-0.147461,0.277344,-0.182617,7.1569e-05,-0.000284615,-0.000140497,0.0538152,-0.045732,-2.96598,0,0,0,-1.51621e-05,-2.66086e-05,-0.00281692,-0.00493101,-2.96588,0,0,0,0,0,0,0,0,0,0,0.0426051,0.0726162,0,-1.5,1.77331e-38,0,0,0,-1.51621e-05,-2.66086e-05,0,0,0,0,-0.00281692,-0.00493101,1.9603e-19,0,0,0,0,0,0,0,0,0,1,2.92695e-05
6453,-0.147461,0.318359,-1.76855,-0.000325496,0.00031804,-0.000820538,0.0510254,-0.0447967,-2.96623,0,0,0,-9.59878e-05,-0.000166502,-0.00767218,-0.0131997,-2.96612,0,0,0,0,0,0,0,0,0,0,0.0406844,0.0741892,0,-1.5,1.77331e-38,0,0,0,-9.59878e-05,-0.000166502,0,0,0,0,-0.00767218,-0.0131997,1.9603e-19,0,0,0,0,0,0,0,0,0,1,0.000183152
6471,-0.147461,0.257812,-1.75488,-0.00132664,0.000879761,-0.00120788,0.0485342,-0.0439366,-2.96652,0,0,0,-0.000321776,-0.000549565,-0.0141456,-0.0238367,-2.96642,0,0,0,0,0,0,0,0,0,0,0.0381692,0.0762768,0,-1.5,1.77331e-38,0,0,0,-0.000321776,-0.000549565,0,0,0,0,-0.0141456,-0.0238367,1.9603e-19,0,0,0,0,0,0,0,0,0,1,0.000604521
6488,-0.147461,0.254883,6.77246,-0.00132742,-8.24959e-05,-0.000997226,0.0465036,-0.0432761,-2.9668,0,0,0,-0.000623154,-0.00105191,-0.0198172,-0.032828,-2.96671,0,0,0,0,0,0,0,0,0,0,0.0359942,0.0780992,0,-1.5,1.77331e-38,0,0,0,-0.000623154,-0.00105191,0,0,0,0,-0.0198172,-0.032828,1.9603e-19,0,0,0,0,0,0,0,0,0,1,0.0011571
6504,-0.147461,0.22168,0.164062,-0.00117836,0.000525816,-0.000608183,0.04646,-0.0432572,-2.96681,0,0,0,-0.000995465,-0.00166241,-0.025069,-0.0409276,-2.96681,0,0,0,0,0,0,0,0,0,0,0.034037,0.0797772,0,-1.5,1.77331e-38,0,0,0,-0.000995465,-0.00166241,0,0,0,0,-0.025069,-0.0409276,1.9603e-19,0,0,0,0,0,0,0,0,0,1,0.00182865
6520,-0.147461,0.155273,0.458984,-0.00199204,0.000368467,-0.00105217,0.0463896,-0.0432331,-2.96684,0,0,0,-0.00145134,-0.00240158,-0.0302773,-0.0489458,-2.96682,0,0,0,0,0,0,0,0,0,0,0.0320865,0.0814437,0,-1.5,1.77331e-38,0,0,0,-0.00145134,-0.00240158,0,0,0,0,-0.0302773,-0.0489458,1.9603e-19,0,0,0,0,0,0,0,0,0,1,0.00264174
6536,-0.147461,0.164062,6.10352,-0.000977545,-0.000860887,-0.00094512,0.0463464,-0.0432302,-2.96684,0,0,0,-0.00198847,-0.00326576,-0.0354419,-0.0568892,-2.96684,0,0,0,0,0,0,0,0,0,0,0.0301175,0.0831023,0,-1.5,1.77331e-38,0,0,0,-0.00198847,-0.00326576,0,0,0,0,-0.0354419,-0.0568892,1.9603e-19,0,0,0,0,0,0,0,0,0,1,0.00359234
6552,-0.147461,0.197266,-2.07812,-0.00200063,0.000354166,-0.000545492,0.0463085,-0.0432189,-2.96686,0,0,0,-0.00260782,-0.00425631,-0.040566,-0.0647617,-2.96686,0,0,0,0,0,0,0,0,0,0,0.028129,0.0847539,0,-1.5,1.77331e-38,0,0,0,-0.00260782,-0.00425631,0,0,0,0,-0.040566,-0.0647617,1.9603e-19,0,0,0,0,0,0,0,0,0,1,0.00468194
6567,-0.147461,0.230469,-6.47754,-0.00101302,8.24543e-05,0.000179439,0.0462647,-0.0432131,-2.96685,0,0,0,-0.00326245,-0.00529857,-0.0453322,-0.0720782,-2.96685,0,0,0,0,0,0,0,0,0,0,0.0262536,0.086295,0,-1.5,1.77331e-38,0,0,0,-0.00326245,-0.00529857,0,0,0,0,-0.0453322,-0.0720782,1.9603e-19,0,0,0,0,0,0,0,0,0,1,0.00582843
6583,-0.147461,0.263672,6.19043,-0.000416466,0.000398366,-5.62956e-05,0.0462299,-0.0431994,-2.96685,0,0,0,-0.00404083,-0.00653322,-0.0503775,-0.0798161,-2.96685,0,0,0,0,0,0,0,0,0,0,0.0242346,0.0879323,0,-1.5,1.77331e-38,0,0,0,-0.00404083,-0.00653322,0,0,0,0,-0.0503775,-0.0798161,1.9603e-19,0,0,0,0,0,0,0,0,0,1,0.00718654
6601,-0.147461,0.270508,6.08496,-0.000940248,-0.000651477,-0.00188162,0.046193,-0.0431938,-2.96686,0,0,0,-0.00501433,-0.00807218,-0.0560055,-0.0884424,-2.96686,0,0,0,0,0,0,0,0,0,0,0.0219343,0.0897668,0,-1.5,1.77331e-38,0,0,0,-0.00501433,-0.00807218,0,0,0,0,-0.0560055,-0.0884424,1.9603e-19,0,0,0,0,0,0,0,0,0,1,0.0088794
6614,-0.147461,0.270508,-6.02246,-0.000627038,0.000107852,-8.92724e-05,0.0461577,-0.0431884,-2.96686,0,0,0,-0.005775,-0.00927186,-0.0600364,-0.0946155,-2.96686,0,0,0,0,0,0,0,0,0,0,0.020266,0.0910847,0,-1.5,1.77331e-38,0,0,0,-0.005775,-0.00927186,0,0,0,0,-0.0600364,-0.0946155,1.9603e-19,0,0,0,0,0,0,0,0,0,1,0.010199
6628,-0.147461,0.270508,-1.75684,-0.00033702,0.000149114,-0.000546681,0.0461168,-0.043183,-2.96687,0,0,0,-0.00665282,-0.0106536,-0.0643485,-0.101213,-2.96687,0,0,0,0,0,0,0,0,0,0,0.0184532,0.0924992,0,-1.5,1.77331e-38,0,0,0,-0.00665282,-0.0106536,0,0,0,0,-0.0643485,-0.101213,1.9603e-19,0,0,0,0,0,0,0,0,0,1,0.0117189
6679,-0.147461,0.270508,-1.46875,0.00033956,0.00176319,-0.000289058,0.0459619,-0.0431113,-2.96689,0,0,0,-0.0106068,-0.0168435,-0.0799249,-0.12503,-2.96689,0,0,0,0,0,0,0,0,0,0,0.0115848,0.0976652,0,-1.5,1.77331e-38,0,0,0,-0.0106068,-0.0168435,0,0,0,0,-0.0799249,-0.12503,1.9603e-19,0,0,0,0,0,0,0,0,0,1,0.0185278
6707,-0.147461,0.270508,-1.46875,0.00033956,0.00176319,-0.000289058,0.0459619,-0.0431113,-2.96689,0,0,0,-0.0130237,-0.0206174,-0.0882548,-0.137742,-2.96689,0,0,0,0,0,0,0,0,0,0,0.00779513,0.100449,0,-1.5,1.77331e-38,0,0,0,-0.0130237,-0.0206174,0,0,0,0,-0.0882548,-0.137742,1.9603e-19,0,0,0,0,0,0,0,0,0,1,0.0226792
6720,-0.147461,0.270508,-2.12598,-0.000177793,-0.000174953,-0.000204558,0.0458529,-0.0430717,-2.9669,0,0,0,-0.0142018,-0.0224551,-0.0920707,-0.143562,-2.9669,0,0,0,0,0,0,0,0,0,0,0.00602607,0.101729,0,-1.5,1.77331e-38,0,0,0,-0.0142018,-0.0224551,0,0,0,0,-0.0920707,-0.143562,1.9603e-19,0,0,0,0,0,0,0,0,0,1,0.0247007
6736,-0.147461,0.270508,-6.47754,-0.000763309,0.000616967,-0.000920775,0.0458172,-0.0430511,-2.96691,0,0,0,-0.015724,-0.0248268,-0.0967325,-0.150661,-2.96691,0,0,0,0,0,0,0,0,0,0,0.0038355,0.103299,0,-1.5,1.77331e-38,0,0,0,-0.015724,-0.0248268,0,0,0,0,-0.0967325,-0.150661,1.9603e-19,0,0,0,0,0,0,0,0,0,1,0.0273095
6752,-0.147461,0.270508,6.18066,-0.00184434,0.000703718,0.00076204,0.0457748,-0.0430365,-2.9669,0,0,0,-0.0173189,-0.0273092,-0.101355,-0.157697,-2.9669,0,0,0,0,0,0,0,0,0,0,0.00163428,0.104861,0,-1.5,1.77331e-38,0,0,0,-0.0173189,-0.0273092,0,0,0,0,-0.101355,-0.157697,1.9603e-19,0,0,0,0,0,0,0,0,0,1,0.0300401
6768,-0.147461,0.270508,6.04883,-0.00114794,0.000268048,-0.00161201,0.0457371,-0.0430217,-2.96692,0,0,0,-0.0189888,-0.0299057,-0.105939,-0.164671,-2.96692,0,0,0,0,0,0,0,0,0,0,-0.000591314,0.106417,0,-1.5,1.77331e-38,0,0,0,-0.0189888,-0.0299057,0,0,0,0,-0.105939,-0.164671,1.9603e-19,0,0,0,0,0,0,0,0,0,1,0.0328963
6784,-0.147461,0.270508,-1.75586,-0.00151759,-0.000440033,0.000171381,0.0456657,-0.0430079,-2.96693,0,0,0,-0.0207316,-0.0326131,-0.110487,-0.171583,-2.96693,4,0,369098752,-534446081,369098752,-534446081,33554432,33554432,-1075088617,0,-0.00283021,0.107966,0,-1.5,1.77331e-38,0,0,0,-0.0207316,-0.0326131,0,0,0,0,-0.110487,-0.171583,0,0,0,0,0,6776,0,0,0,0,1,0.0358744
6801,-0.147461,0.270508,-0.169922,-0.00120296,0.000220817,-0.000993484,0.0456285,-0.042993,-2.96694,0,0,0,-0.0226627,-0.0356102,-0.115278,-0.178855,-2.96694,4,0,369098752,-534446081,369098752,-534446081,33554432,33554432,-1075088617,0,-0.00522838,0.109605,0,-1.5,1.77331e-38,0,0,0,-0.0226627,-0.0356102,0,0,0,0,-0.115278,-0.178855,0,0,0,0,0,6776,0,0,0,0,1,0.0391712
6817,-0.147461,0.270508,-0.169922,-0.00120296,0.000220817,-0.000993484,0.0456285,-0.042993,-2.96694,-3.75852,0.843971,-0.210103,-0.0245528,-0.038541,-0.119749,-0.185638,-2.96694,0.241479,0.843971,148,11,148,11,275,4,162,130,-0.00749771,0.11114,0,-1.5,1.77331e-38,0,0,0,-0.0245528,-0.038541,0,0,0,0,-0.119749,-0.185638,17640,0,0,0,0,6808,0,0,0,0,1,0.0423952
6833,-0.147461,0.270508,0.140625,-0.00101493,0.000375914,-0.000301913,0.0455463,-0.0429707,-2.96696,-3.75852,0.843971,-0.210103,-0.026514,-0.0415799,-0.124184,-0.19236,-2.96696,0.241479,0.843971,148,11,148,11,275,4,162,130,-0.00978739,0.112669,0,-1.5,1.77331e-38,0,0,0,-0.026514,-0.0415799,0,0,0,0,-0.124184,-0.19236,17640,0,0,0,0,6808,0,0,0,0,1,0.0457379
6848,-0.147461,0.270508,0.140625,-0.00101493,0.000375914,-0.000301913,0.0455463,-0.0429707,-2.96696,-3.80531,0.856874,-0.19021,-0.0284167,-0.0445257,-0.128309,-0.198607,-2.96696,0.194687,0.856874,148,11,148,11,273,4,164,130,-0.0119439,0.114097,0,-1.5,1.77331e-38,0,0,0,-0.0284167,-0.0445257,0,0,0,0,-0.128309,-0.198607,17514,0,0,0,0,6840,0,0,0,0,1,0.0489783
6865,-0.147461,0.270508,6.08301,-0.000877144,0.000547784,-0.00195365,0.0454463,-0.042923,-2.96696,-3.80531,0.856874,-0.19021,-0.0306491,-0.0479794,-0.132946,-0.205627,-2.96695,0.194687,0.856874,148,11,148,11,273,4,164,130,-0.0144049,0.115708,0,-1.5,1.77331e-38,0,0,0,-0.0306491,-0.0479794,0,0,0,0,-0.132946,-0.205627,17514,0,0,0,0,6840,0,0,0,0,1,0.0527774
6880,-0.147461,0.270508,-2.08984,-0.000216742,0.000415941,-0.00160452,0.045415,-0.042911,-2.96697,-3.78485,0.847885,-0.2004,-0.0326814,-0.0511216,-0.137001,-0.211761,-2.96696,0.215148,0.847885,148,11,148,11,275,4,164,130,-0.016593,0.117123,0,-1.5,1.77331e-38,0,0,0,-0.0326814,-0.0511216,0,0,0,0,-0.137001,-0.211761,17514,0,0,0,0,6871,0,0,0,0,1,0.0562337
6895,-0.147461,0.270508,-6.43262,-0.00183408,-0.000716564,-0.000233125,0.04537,-0.0429062,-2.96698,-3.78485,0.847885,-0.2004,-0.0347743,-0.0543552,-0.141024,-0.217841,-2.96697,0.215148,0.847885,148,11,148,11,275,4,164,130,-0.0187941,0.118532,0,-1.5,1.77331e-38,0,0,0,-0.0347743,-0.0543552,0,0,0,0,-0.141024,-0.217841,17514,0,0,0,0,6871,0,0,0,0,1,0.0597907
6911,-0.147461,0.270508,-6.43262,-0.00183408,-0.000716564,-0.000233125,0.04537,-0.0429062,-2.96698,-3.78998,0.849219,-0.195962,-0.0370741,-0.0579063,-0.145283,-0.22427,-2.96698,0.210016,0.849219,148,11,148,11,275,4,164,130,-0.0211554,0.120029,0,-1.5,1.77331e-38,0,0,0,-0.0370741,-0.0579063,0,0,0,0,-0.145283,-0.22427,17514,0,0,0,0,6902,0,0,0,0,1,0.0636969
6927,-0.147461,0.270508,6.01758,-0.0020447,0.000582706,0.000551533,0.0452673,-0.0428832,-2.96699,-3.78998,0.849219,-0.195962,-0.0394418,-0.0615596,-0.149509,-0.230642,-2.96699,0.210016,0.849219,148,11,148,11,275,4,164,130,-0.0235329,0.121521,0,-1.5,1.77331e-38,0,0,0,-0.0394418,-0.0615596,0,0,0,0,-0.149509,-0.230642,17514,0,0,0,0,6902,0,0,0,0,1,0.0677156
6943,-0.147461,0.270508,-6.06152,-0.00130822,-0.000173766,-0.00114801,0.0452238,-0.0428721,-2.96701,-3.76473,0.845271,-0.201189,-0.0418767,-0.0653143,-0.1537,-0.23695,-2.96701,0.235269,0.845271,146,10,146,10,275,4,164,129,-0.0259257,0.123006,0,-1.5,1.77331e-38,0,0,0,-0.0418767,-0.0653143,0,0,0,0,-0.1537,-0.23695,17750,0,0,0,0,6937,0,0,0,0,1,0.0718457
6959,-0.147461,0.270508,-1.72852,-0.000291719,-0.00142573,0.00072151,0.045194,-0.0428834,-2.967,-3.76473,0.845271,-0.201189,-0.0443783,-0.0691693,-0.157858,-0.243201,-2.967,0.235269,0.845271,146,10,146,10,275,4,164,129,-0.0283275,0.124485,0,-1.5,1.77331e-38,0,0,0,-0.0443783,-0.0691693,0,0,0,0,-0.157858,-0.243201,17750,0,0,0,0,6937,0,0,0,0,1,0.0760862
6981,-0.147461,0.270508,6.78027,-0.00105459,0.00050494,0.000205418,0.0451329,-0.0428588,-2.96702,-3.79813,0.851179,-0.190596,-0.0479317,-0.0746407,-0.163526,-0.251713,-2.96702,0.201867,0.851179,148,11,148,11,275,4,164,129,0.281094,0.0670503,0,-1.5,1.77331e-38,0,0,0,0.19983,0.850884,0,0,0,0,-0.146589,0.00353116,17375,0.247524,0.921951,0.016937,0.255244,6969,0,0,0,0,1,-0.935973
6997,-0.147461,0.270508,0.149414,-0.001323,0.000728569,-0.000665034,0.045091,-0.0428482,-2.96703,-3.79813,0.851179,-0.190596,-0.050591,-0.0787324,-0.167606,-0.257832,-2.96703,0.201867,0.851179,148,11,148,11,275,4,164,129,0.27976,0.0683238,0,-1.5,1.77331e-38,0,0,0,0.197441,0.850876,0,0,0,0,-0.150669,-0.00258791,17375,0.247524,0.921951,0.016937,0.255244,6969,0,0,0,0,1,-0.935964
7016,-0.147461,0.270508,0.149414,-0.001323,0.000728569,-0.000665034,0.045091,-0.0428482,-2.96703,-3.78809,0.844725,-0.197008,-0.0538366,-0.0837227,-0.17241,-0.265032,-2.96703,0.211913,0.844725,148,11,148,11,275,4,165,130,0.260118,0.0451763,0,-1.5,1.77331e-38,0,0,0,0.211072,0.843707,0,0,0,0,-0.0458406,-0.0559925,17640,0.262504,0.923458,0.126569,0.20904,7005,0,0,0,0,1,-0.928077
7032,-0.147461,0.270508,6.06152,-0.000414385,0.000736507,1.04689e-06,0.0449673,-0.0427891,-2.96704,-3.78809,0.844725,-0.197008,-0.056636,-0.0880245,-0.176416,-0.271033,-2.96705,0.211913,0.844725,148,11,148,11,275,4,165,130,0.258551,0.0464735,0,-1.5,1.77331e-38,0,0,0,0.210298,0.842749,0,0,0,0,-0.049847,-0.0619936,17640,0.262504,0.923458,0.126569,0.20904,7005,0,0,0,0,1,-0.927024
7051,-0.147461,0.270508,6.06152,-0.000414385,0.000736507,1.04689e-06,0.0449673,-0.0427891,-2.96704,-3.80487,0.857715,-0.190197,-0.0600478,-0.0932638,-0.181131,-0.278088,-2.96704,0.195129,0.857715,148,11,148,11,273,4,164,130,0.274092,0.0667993,0,-1.5,1.77331e-38,0,0,0,0.192266,0.850086,0,0,0,0,-0.140716,-0.0229703,17514,0.251546,0.938502,0.0404152,0.255117,7039,0,0,0,0,1,-0.935094
7068,-0.147461,0.270508,-6.46973,-0.00140156,-0.000389651,-2.44749e-05,0.0448973,-0.0427693,-2.96705,-3.80487,0.857715,-0.190197,-0.0629873,-0.0977751,-0.185064,-0.283967,-2.96705,0.195129,0.857715,148,11,148,11,273,4,164,130,0.272698,0.0680452,0,-1.5,1.77331e-38,0,0,0,0.189973,0.849656,0,0,0,0,-0.144649,-0.0288496,17514,0.251546,0.938502,0.0404152,0.255117,7039,0,0,0,0,1,-0.934622
7086,-0.147461,0.270508,6.02734,4.51868e-05,-1.19684e-05,0.000166887,0.0448359,-0.0427457,-2.96705,-3.80985,0.85679,-0.188414,-0.0665624,-0.103258,-0.189694,-0.29088,-2.96705,0.190149,0.85679,148,11,148,11,272,4,165,130,0.272546,0.0703316,0,-1.5,1.77331e-38,0,0,0,0.187213,0.849932,0,0,0,0,-0.153549,-0.0313399,17640,0.253088,0.94826,0.0361453,0.25954,7074,0,0,0,0,1,-0.934926
7106,-0.147461,0.270508,-6.0752,-0.000982552,-0.00038882,-0.000988539,0.0447995,-0.0427392,-2.96707,-3.78953,0.850077,-0.19592,-0.0704181,-0.109168,-0.194518,-0.298076,-2.96705,0.21047,0.850077,148,11,148,11,275,4,164,130,0.271409,0.0705205,0,-1.5,1.77331e-38,0,0,0,0.184248,0.849783,0,0,0,0,-0.153502,-0.0357808,17514,0.25442,0.957377,0.0410164,0.262295,7102,0,0,0,0,1,-0.934761
7122,-0.147461,0.270508,-1.74902,-0.00105723,0.000149402,-0.000403434,0.0447631,-0.0427215,-2.96707,-3.78953,0.850077,-0.19592,-0.0733706,-0.113691,-0.198103,-0.303416,-2.96707,0.21047,0.850077,148,11,148,11,275,4,164,130,0.270086,0.0716679,0,-1.5,1.77331e-38,0,0,0,0.18191,0.849194,0,0,0,0,-0.157087,-0.0411204,17514,0.25442,0.957377,0.0410164,0.262295,7102,0,0,0,0,1,-0.934114
7141,-0.147461,0.270508,6.77246,-0.00105847,-0.000177256,-0.000582761,0.0447007,-0.0426966,-2.96707,-3.81653,0.861671,-0.191985,-0.0773927,-0.119849,-0.202839,-0.310466,-2.96706,0.183467,0.861671,148,14,148,14,272,4,164,130,0.26776,0.070058,0,-1.5,1.77331e-38,0,0,0,0.181696,0.848283,0,0,0,0,-0.149136,-0.0481707,17640,0.25882,0.96682,0.0537035,0.262296,7138,0,0,0,0,1,-0.933111
7158,-0.147461,0.270508,0.136719,-0.000826102,0.000485072,0.000703345,0.0446603,-0.0426861,-2.96707,-3.81653,0.861671,-0.191985,-0.0806776,-0.124875,-0.206593,-0.316051,-2.96707,0.183467,0.861671,148,14,148,14,272,4,164,130,0.266321,0.0712669,0,-1.5,1.77331e-38,0,0,0,0.17927,0.847453,0,0,0,0,-0.15289,-0.0537551,17640,0.25882,0.96682,0.0537035,0.262296,7138,0,0,0,0,1,-0.932199
7177,-0.147461,0.270508,-1.45703,-0.000552058,0.000483256,9.48189e-05,0.04462,-0.0426677,-2.96707,-3.79085,0.861735,-0.192916,-0.0848683,-0.131283,-0.211243,-0.322957,-2.96707,0.209145,0.861735,146,10,146,10,273,4,164,130,0.273751,0.0689737,0,-1.5,1.77331e-38,0,0,0,0.179285,0.855565,0,0,0,0,-0.149021,-0.0318222,17640,0.263717,0.984811,0.0622219,0.291134,7172,0,0,0,0,1,-0.941122
7193,-0.147461,0.270508,0.47168,-0.0012707,0.000192553,3.9759e-05,0.0445784,-0.0426566,-2.96708,-3.79085,0.861735,-0.192916,-0.088287,-0.136508,-0.214926,-0.328423,-2.96708,0.209145,0.861735,146,10,146,10,273,4,164,130,0.27241,0.0701477,0,-1.5,1.77331e-38,0,0,0,0.176862,0.854998,0,0,0,0,-0.152705,-0.0372882,17640,0.263717,0.984811,0.0622219,0.291134,7172,0,0,0,0,1,-0.940498
7213,-0.147461,0.270508,6.09863,-0.000694893,0.00114405,-0.000632136,0.0445406,-0.0426399,-2.96709,-3.79085,0.861735,-0.192916,-0.092644,-0.143163,-0.219489,-0.335186,-2.96709,0.209145,0.861735,146,10,146,10,273,4,164,130,0.270948,0.0454332,0,-1.5,1.77331e-38,0,0,0,0.20471,0.857984,0,0,0,0,-0.0543215,-0.0291534,17640,0.295702,0.998087,0.165168,0.306032,7205,0,0,0,0,1,-0.943783
7229,-0.147461,0.270508,-6.43457,-0.000402208,0.000937516,-0.00118591,0.0444808,-0.0426067,-2.96711,-3.79085,0.861735,-0.192916,-0.0961927,-0.148581,-0.223105,-0.340541,-2.96711,0.209145,0.861735,146,10,146,10,273,4,164,130,0.269639,0.0465872,0,-1.5,1.77331e-38,0,0,0,0.203804,0.857463,0,0,0,0,-0.057937,-0.0345091,17640,0.295702,0.998087,0.165168,0.306032,7205,0,0,0,0,1,-0.94321
7250,-0.147461,0.270508,6.17773,0.000136035,0.000256392,-0.00052259,0.0444548,-0.0425937,-2.96712,-3.79892,0.857404,-0.194357,-0.10094,-0.155825,-0.227803,-0.347494,-2.96712,0.201082,0.857404,148,11,148,11,273,4,164,130,0.268284,0.048609,0,-1.5,1.77331e-38,0,0,0,0.202592,0.856844,0,0,0,0,-0.0649541,-0.0405657,17514,0.301416,1.00868,0.162849,0.306928,7240,0,0,0,0,1,-0.942528
7265,-0.147461,0.270508,6.01074,-0.00196435,0.00131921,-0.000544032,0.0444035,-0.0425721,-2.96713,-3.79892,0.857404,-0.194357,-0.104389,-0.161084,-0.231126,-0.352407,-2.96713,0.201082,0.857404,148,11,148,11,273,4,164,130,0.267039,0.0496744,0,-1.5,1.77331e-38,0,0,0,0.201587,0.856189,0,0,0,0,-0.0682771,-0.0454789,17514,0.301416,1.00868,0.162849,0.306928,7240,0,0,0,0,1,-0.941808
7284,-0.147461,0.270508,-1.75488,-0.00157371,0.00076608,-1.55285e-05,0.0443138,-0.0425474,-2.96713,-3.76045,0.848481,-0.206771,-0.108833,-0.167858,-0.235301,-0.358574,-2.96713,0.239554,0.848481,146,10,146,10,275,4,164,130,0.264362,0.0490104,0,-1.5,1.77331e-38,0,0,0,0.202559,0.854777,0,0,0,0,-0.0638019,-0.0540067,17766,0.308133,1.01685,0.171499,0.304567,7271,0,0,0,0,1,-0.940254
7300,-0.147461,0.270508,-0.166992,-0.00177706,0.000781531,0.000131878,0.0442619,-0.0425309,-2.96713,-3.76045,0.848481,-0.206771,-0.112634,-0.173647,-0.238783,-0.363704,-2.96713,0.239554,0.848481,146,10,146,10,275,4,164,130,0.263002,0.0501337,0,-1.5,1.77331e-38,0,0,0,0.201502,0.85386,0,0,0,0,-0.0672835,-0.0591372,17766,0.308133,1.01685,0.171499,0.304567,7271,0,0,0,0,1,-0.939246
7320,-0.147461,0.270508,-0.166992,-0.00177706,0.000781531,0.000131878,0.0442619,-0.0425309,-2.96713,-3.75905,0.855655,-0.211006,-0.117468,-0.181008,-0.243097,-0.370056,-2.96713,0.240953,0.855655,146,12,146,12,273,4,162,130,0.260785,0.0465883,0,-1.5,1.77331e-38,0,0,0,0.204261,0.85299,0,0,0,0,-0.0517779,-0.0644512,17892,0.317903,1.02789,0.19132,0.305605,7307,0,0,0,0,1,-0.938289
7340,-0.147461,0.270508,0.147461,-0.000671072,0.000712969,9.54661e-06,0.0441823,-0.0425132,-2.96715,-3.79887,0.855787,-0.19402,-0.122383,-0.188488,-0.247367,-0.376333,-2.96715,0.201132,0.855787,148,12,148,12,273,4,164,130,0.261453,0.0527539,0,-1.5,1.77331e-38,0,0,0,0.198277,0.853234,0,0,0,0,-0.0765135,-0.066351,17640,0.319635,1.03986,0.170853,0.309982,7336,0,0,0,0,1,-0.938558
7356,-0.147461,0.270508,0.419922,-0.000646596,0.00120687,0.000149555,0.0441041,-0.0424867,-2.96715,-3.79887,0.855787,-0.19402,-0.126376,-0.19456,-0.25075,-0.381299,-2.96715,0.201132,0.855787,148,12,148,12,273,4,164,130,0.260076,0.0538552,0,-1.5,1.77331e-38,0,0,0,0.197018,0.852122,0,0,0,0,-0.079897,-0.0713167,17640,0.319635,1.03986,0.170853,0.309982,7336,0,0,0,0,1,-0.937334
7376,-0.147461,0.270508,6.07324,5.5267e-05,0.000680196,-0.000562195,0.044075,-0.0424735,-2.96715,-3.79811,0.852036,-0.200785,-0.131443,-0.202263,-0.25494,-0.387437,-2.96715,0.20189,0.852036,148,15,148,15,275,4,164,130,0.25884,0.0548735,0,-1.5,1.77331e-38,0,0,0,0.196499,0.851124,0,0,0,0,-0.0830447,-0.0757856,17640,0.326911,1.05152,0.171895,0.311652,7372,0,0,0,0,1,-0.936236
7392,-0.147461,0.270508,6.07324,5.5267e-05,0.000680196,-0.000562195,0.044075,-0.0424735,-2.96715,-3.79811,0.852036,-0.200785,-0.135557,-0.208513,-0.258261,-0.392302,-2.96715,0.20189,0.852036,148,15,148,15,275,4,164,130,0.257445,0.0559625,0,-1.5,1.77331e-38,0,0,0,0.195135,0.84986,0,0,0,0,-0.0863657,-0.0806497,17640,0.326911,1.05152,0.171895,0.311652,7372,0,0,0,0,1,-0.934846
7412,-0.147461,0.270508,6.07324,5.5267e-05,0.000680196,-0.000562195,0.044075,-0.0424735,-2.96715,-3.79034,0.860925,-0.197026,-0.140774,-0.216435,-0.262375,-0.398327,-2.96715,0.209659,0.860925,146,12,146,12,273,4,164,130,0.255351,0.0537013,0,-1.5,1.77331e-38,0,0,0,0.197803,0.848618,0,0,0,0,-0.0760042,-0.0859625,17766,0.337087,1.06255,0.186371,0.312365,7406,0,0,0,0,1,-0.93348
7428,-0.147461,0.270508,6.07324,5.5267e-05,0.000680196,-0.000562195,0.044075,-0.0424735,-2.96715,-3.79034,0.860925,-0.197026,-0.145006,-0.222857,-0.265636,-0.403104,-2.96715,0.209659,0.860925,146,12,146,12,273,4,164,130,0.25393,0.0547794,0,-1.5,1.77331e-38,0,0,0,0.196554,0.847194,0,0,0,0,-0.0792654,-0.090739,17766,0.337087,1.06255,0.186371,0.312365,7406,0,0,0,0,1,-0.931913
7445,-0.147461,0.270508,6.07324,5.5267e-05,0.000680196,-0.000562195,0.044075,-0.0424735,-2.96715,-3.79034,0.860925,-0.197026,-0.14929,-0.229356,-0.268872,-0.407843,-2.96715,0.209659,0.860925,146,12,146,12,273,4,164,130,0.252497,0.0558533,0,-1.5,1.77331e-38,0,0,0,0.195252,0.845692,0,0,0,0,-0.082501,-0.0954782,17766,0.337087,1.06255,0.186371,0.312365,7406,0,0,0,0,1,-0.930261
7460,-0.147461,0.270508,-0.152344,-0.00184679,0.000977353,-0.000794387,0.0438198,-0.0423905,-2.96719,-3.79034,0.860925,-0.197026,-0.153625,-0.23593,-0.27208,-0.412529,-2.96718,0.209659,0.860925,146,12,146,12,273,4,164,130,0.25105,0.056928,0,-1.5,1.77331e-38,0,0,0,0.193899,0.844117,0,0,0,0,-0.085709,-0.100164,17766,0.337087,1.06255,0.186371,0.312365,7406,0,0,0,0,1,-0.928528
7480,-0.147461,0.270508,-0.152344,-0.00184679,0.000977353,-0.000794387,0.0438198,-0.0423905,-2.96719,-3.79684,0.853246,-0.190155,-0.159117,-0.244254,-0.276051,-0.418305,-2.96719,0.20316,0.853246,148,11,148,11,275,4,164,129,0.250063,0.0563277,0,-1.5,1.77331e-38,0,0,0,0.194312,0.8431,0,0,0,0,-0.0826516,-0.102511,17375,0.350914,1.08325,0.193399,0.315794,7469,0,0,0,0,1,-0.92741
7496,-0.147461,0.270508,0.160156,-0.000528146,-0.000111457,-0.000705611,0.0437449,-0.0423732,-2.9672,-3.79684,0.853246,-0.190155,-0.163566,-0.250994,-0.279197,-0.422876,-2.9672,0.20316,0.853246,148,11,148,11,275,4,164,129,0.248614,0.0573846,0,-1.5,1.77331e-38,0,0,0,0.192957,0.841413,0,0,0,0,-0.0857979,-0.107081,17375,0.350914,1.08325,0.193399,0.315794,7469,0,0,0,0,1,-0.925554
7512,-0.147461,0.270508,0.160156,-0.000528146,-0.000111457,-0.000705611,0.0437449,-0.0423732,-2.9672,-3.79684,0.853246,-0.190155,-0.168066,-0.257807,-0.282318,-0.427403,-2.9672,0.20316,0.853246,148,11,148,11,275,4,164,129,0.247157,0.0584335,0,-1.5,1.77331e-38,0,0,0,0.191551,0.839652,0,0,0,0,-0.0889191,-0.111609,17375,0.350914,1.08325,0.193399,0.315794,7469,0,0,0,0,1,-0.923617
7528,-0.147461,0.270508,6.08203,-0.00110053,0.00023438,-0.000443143,0.0436334,-0.0423299,-2.96722,-3.79684,0.853246,-0.190155,-0.172614,-0.264692,-0.285413,-0.431889,-2.96722,0.20316,0.853246,148,11,148,11,275,4,164,129,0.245687,0.0594817,0,-1.5,1.77331e-38,0,0,0,0.190097,0.83782,0,0,0,0,-0.0920138,-0.116095,17375,0.350914,1.08325,0.193399,0.315794,7469,0,0,0,0,1,-0.921603
7549,-0.147461,0.270508,6.08203,-0.00110053,0.00023438,-0.000443143,0.0436334,-0.0423299,-2.96722,-3.80169,0.864647,-0.196458,-0.178662,-0.273839,-0.289436,-0.437709,-2.96722,0.198306,0.864647,148,14,148,14,273,4,162,130,0.243678,0.0556532,0,-1.5,1.77331e-38,0,0,0,0.197623,0.83658,0,0,0,0,-0.0755342,-0.11998,17514,0.373932,1.10692,0.213901,0.317729,7540,0,0,0,0,1,-0.920238
7565,-0.147461,0.270508,-6.48145,7.40018e-05,-0.000612877,-6.39925e-05,0.043457,-0.0422363,-2.96704,-3.80169,0.864647,-0.196458,-0.183324,-0.280887,-0.292466,-0.442086,-2.96704,0.198306,0.864647,148,14,148,14,273,4,162,130,0.242242,0.0566388,0,-1.5,1.77331e-38,0,0,0,0.196384,0.834615,0,0,0,0,-0.0785649,-0.124358,17514,0.373932,1.10692,0.213901,0.317729,7540,0,0,0,0,1,-0.918077
7585,-0.147461,0.270508,6.03516,-0.00200456,-0.00103029,0.00018726,0.043486,-0.0423069,-2.96724,-3.77277,0.850402,-0.199515,-0.189225,-0.289804,-0.296216,-0.447494,-2.96704,0.227231,0.850402,146,10,146,10,275,4,165,130,0.247075,0.0578146,0,-1.5,1.77331e-38,0,0,0,0.193823,0.839981,0,0,0,0,-0.0865534,-0.112041,17766,0.378855,1.12308,0.209663,0.335453,7572,0,0,0,0,1,-0.923979
7615,-0.147461,0.270508,-1.74512,-0.00144441,0.000580776,4.59518e-05,0.0433995,-0.0422907,-2.96723,-3.79153,0.848641,-0.196797,-0.198227,-0.303396,-0.301785,-0.455512,-2.96723,0.208471,0.848641,148,12,148,12,275,4,165,130,0.245666,0.057562,0,-1.5,1.77331e-38,0,0,0,0.192244,0.838711,0,0,0,0,-0.0844249,-0.115808,17640,0.387646,1.13769,0.21736,0.339705,7604,0,0,0,0,1,-0.922582
7680,-0.147461,0.270508,0.428711,-0.0013494,-0.000284648,0.000298172,0.0432099,-0.042236,-2.96724,-3.79153,0.848641,-0.196797,-0.218533,-0.333992,-0.313708,-0.472595,-2.96724,0.208471,0.848641,148,12,148,12,275,4,165,130,0.239668,0.0616473,0,-1.5,1.77331e-38,0,0,0,0.186067,0.830195,0,0,0,0,-0.0963478,-0.132891,17640,0.387646,1.13769,0.21736,0.339705,7604,0,0,0,0,1,-0.913215
7697,-0.147461,0.270508,6.08594,-0.00157479,5.02262e-05,-0.000374372,0.0431711,-0.042229,-2.96724,-3.79153,0.848641,-0.196797,-0.2239,-0.342075,-0.316725,-0.476896,-2.96724,0.208471,0.848641,148,12,148,12,275,4,165,130,0.238116,0.0626864,0,-1.5,1.77331e-38,0,0,0,0.184395,0.827887,0,0,0,0,-0.0993648,-0.137191,17640,0.387646,1.13769,0.21736,0.339705,7604,0,0,0,0,1,-0.910676
7717,-0.147461,0.270508,6.08594,-0.00157479,5.02262e-05,-0.000374372,0.0431711,-0.042229,-2.96724,-3.80309,0.860638,-0.18978,-0.230282,-0.351681,-0.320243,-0.481898,-2.96724,0.196908,0.860638,148,11,148,11,273,4,164,130,0.238898,0.0644759,0,-1.5,1.77331e-38,0,0,0,0.18175,0.82881,0,0,0,0,-0.106957,-0.136368,17514,0.407767,1.17358,0.213286,0.34553,7704,0,0,0,0,1,-0.911691
7733,-0.147461,0.270508,-6.45996,-0.00150409,-0.000113832,-0.000387995,0.0431018,-0.0422287,-2.96726,-3.80309,0.860638,-0.18978,-0.235435,-0.359432,-0.323031,-0.485856,-2.96726,0.196908,0.860638,148,11,148,11,273,4,164,130,0.237438,0.0654444,0,-1.5,1.77331e-38,0,0,0,0.18001,0.826588,0,0,0,0,-0.109745,-0.140327,17514,0.407767,1.17358,0.213286,0.34553,7704,0,0,0,0,1,-0.909247
7753,-0.147461,0.270508,6.0459,-0.0015736,-0.000515154,-4.18037e-05,0.0430336,-0.0422086,-2.96726,-3.81233,0.871715,-0.183348,-0.241944,-0.369217,-0.326489,-0.490756,-2.96726,0.18767,0.871715,148,11,148,11,272,4,162,129,0.237705,0.0637042,0,-1.5,1.77331e-38,0,0,0,0.184456,0.827733,0,0,0,0,-0.103075,-0.139324,17250,0.421931,1.18992,0.223414,0.351432,7740,0,0,0,0,1,-0.910507
7769,-0.147461,0.270508,-6.04785,-0.0017805,0.000326624,-0.000733249,0.0429925,-0.0422035,-2.96726,-3.81233,0.871715,-0.183348,-0.247197,-0.37711,-0.329227,-0.494625,-2.96726,0.18767,0.871715,148,11,148,11,272,4,162,129,0.236256,0.0646548,0,-1.5,1.77331e-38,0,0,0,0.182778,0.825463,0,0,0,0,-0.105813,-0.143193,17250,0.421931,1.18992,0.223414,0.351432,7740,0,0,0,0,1,-0.90801
7786,-0.147461,0.270508,-6.04785,-0.0017805,0.000326624,-0.000733249,0.0429925,-0.0422035,-2.96726,-3.81233,0.871715,-0.183348,-0.252493,-0.385065,-0.331944,-0.498459,-2.96726,0.18767,0.871715,148,11,148,11,272,4,162,129,0.234799,0.0656011,0,-1.5,1.77331e-38,0,0,0,0.181056,0.823132,0,0,0,0,-0.10853,-0.147027,17250,0.421931,1.18992,0.223414,0.351432,7740,0,0,0,0,1,-0.905445
7801,-0.147461,0.270508,-0.158203,-0.00156413,0.000979376,-0.000382704,0.0429314,-0.0421721,-2.96728,-3.81233,0.871715,-0.183348,-0.257832,-0.39308,-0.334638,-0.502258,-2.96728,0.18767,0.871715,148,11,148,11,272,4,162,129,0.233329,0.0665466,0,-1.5,1.77331e-38,0,0,0,0.179291,0.82074,0,0,0,0,-0.111224,-0.150827,17250,0.421931,1.18992,0.223414,0.351432,7740,0,0,0,0,1,-0.902814
7822,-0.147461,0.270508,0.170898,-0.00157604,0.000199453,-0.000402211,0.0428453,-0.0421616,-2.96728,-3.7977,0.857497,-0.191877,-0.26491,-0.403699,-0.338141,-0.507192,-2.96728,0.202297,0.857497,148,11,148,11,275,4,164,130,0.232486,0.0671098,0,-1.5,1.77331e-38,0,0,0,0.179264,0.819376,0,0,0,0,-0.112858,-0.153035,17388,0.439444,1.21564,0.225283,0.354157,7809,0,0,0,0,1,-0.901314
7843,-0.147461,0.270508,-1.41113,-0.000617848,0.000230021,-0.000610323,0.0428168,-0.0421542,-2.96729,-3.83807,0.86875,-0.171866,-0.272058,-0.414415,-0.341607,-0.512054,-2.96729,0.161934,0.86875,148,11,148,11,273,4,165,128,0.231887,0.0684647,0,-1.5,1.77331e-38,0,0,0,0.174204,0.817441,0,0,0,0,-0.11777,-0.154191,17112,0.444695,1.22935,0.223837,0.357863,7838,0,0,0,0,1,-0.899185
7859,-0.147461,0.270508,-1.41113,-0.000617848,0.000230021,-0.000610323,0.0428168,-0.0421542,-2.96729,-3.83807,0.86875,-0.171866,-0.27755,-0.422646,-0.344221,-0.51572,-2.96729,0.161934,0.86875,148,11,148,11,273,4,165,128,0.23042,0.0693869,0,-1.5,1.77331e-38,0,0,0,0.172293,0.814937,0,0,0,0,-0.120385,-0.157857,17112,0.444695,1.22935,0.223837,0.357863,7838,0,0,0,0,1,-0.89643
7879,-0.147461,0.270508,6.05371,-0.00103261,0.000885893,-0.000948413,0.0427491,-0.0421236,-2.96732,-3.78777,0.853264,-0.195678,-0.284476,-0.433018,-0.34746,-0.520254,-2.96732,0.212228,0.853265,148,11,148,11,275,4,164,130,0.230472,0.069718,0,-1.5,1.77331e-38,0,0,0,0.171633,0.815869,0,0,0,0,-0.121707,-0.158881,17514,0.454077,1.24563,0.225753,0.361373,7872,0,0,0,0,1,-0.897456
7896,-0.147461,0.270508,-6.47461,-0.00178279,-0.000958286,-0.000757576,0.042683,-0.0421121,-2.96733,-3.78777,0.853264,-0.195678,-0.290413,-0.441904,-0.350186,-0.524063,-2.96733,0.212228,0.853265,148,11,148,11,275,4,164,130,0.228905,0.070689,0,-1.5,1.77331e-38,0,0,0,0.169534,0.813126,0,0,0,0,-0.124433,-0.16269,17514,0.454077,1.24563,0.225753,0.361373,7872,0,0,0,0,1,-0.894438
7918,-0.147461,0.270508,6.01465,-0.0031776,-0.000282995,0.000168301,0.0425808,-0.0420997,-2.96734,-3.80099,0.856372,-0.190379,-0.297817,-0.452979,-0.353524,-0.528719,-2.96733,0.199011,0.856372,148,12,148,12,275,4,164,129,0.235928,0.0699346,0,-1.5,1.77331e-38,0,0,0,0.167704,0.824975,0,0,0,0,-0.126332,-0.147531,17375,0.46075,1.26995,0.227192,0.381187,7904,0,0,0,0,1,-0.907472
7934,-0.147461,0.270508,-6.00195,-0.00151801,0.00116694,-0.00102959,0.0425373,-0.0420858,-2.96736,-3.80099,0.856372,-0.190379,-0.303856,-0.462008,-0.356199,-0.53243,-2.96736,0.199011,0.856372,148,12,148,12,275,4,164,129,0.234434,0.0708812,0,-1.5,1.77331e-38,0,0,0,0.165527,0.822426,0,0,0,0,-0.129007,-0.151242,17375,0.46075,1.26995,0.227192,0.381187,7904,0,0,0,0,1,-0.904668
7955,-0.147461,0.270508,-1.72363,-0.00119064,-0.00022403,0.000145197,0.0425097,-0.0420819,-2.96736,-3.79242,0.857012,-0.193868,-0.311384,-0.473255,-0.359474,-0.536965,-2.96736,0.207582,0.857012,148,11,148,11,273,4,164,130,0.238549,0.0684051,0,-1.5,1.77331e-38,0,0,0,0.171617,0.831095,0,0,0,0,-0.122107,-0.142854,17640,0.478016,1.29607,0.237368,0.394111,7941,0,0,0,0,1,-0.914205
7977,-0.147461,0.270508,-0.157227,-0.00259812,-2.2954e-05,-0.000926026,0.0424578,-0.042072,-2.96736,-3.77196,0.852151,-0.199691,-0.31934,-0.485135,-0.362867,-0.541652,-2.96736,0.228041,0.852151,146,10,146,10,275,4,165,130,0.241874,0.0672555,0,-1.5,1.77331e-38,0,0,0,0.173672,0.836821,0,0,0,0,-0.11988,-0.13525,17766,0.490583,1.31789,0.242987,0.406402,7969,0,0,0,0,1,-0.920503
7993,-0.147461,0.270508,0.164062,-0.0024978,0.00131391,-0.000253059,0.042367,-0.0420319,-2.96737,-3.77196,0.852151,-0.199691,-0.325171,-0.493836,-0.365308,-0.545018,-2.96737,0.228041,0.852151,146,10,146,10,275,4,165,130,0.240554,0.0681093,0,-1.5,1.77331e-38,0,0,0,0.171729,0.834623,0,0,0,0,-0.122322,-0.138616,17766,0.490583,1.31789,0.242987,0.406402,7969,0,0,0,0,1,-0.918085
8015,-0.147461,0.270508,-0.325195,-0.00116236,0.000292296,-0.00092879,0.0422992,-0.0420027,-2.9674,-3.79568,0.855596,-0.190182,-0.332885,-0.50534,-0.368481,-0.549383,-2.96739,0.204324,0.855596,148,11,148,11,275,4,164,129,0.240149,0.063394,0,-1.5,1.77331e-38,0,0,0,0.183689,0.834396,0,0,0,0,-0.103451,-0.136672,17375,0.513129,1.33437,0.26503,0.412711,8003,0,0,0,0,1,-0.917836
8031,-0.147461,0.270508,6.13281,-0.000447572,-0.000181682,-0.00110924,0.0422694,-0.041995,-2.96741,-3.79568,0.855596,-0.190182,-0.339177,-0.514718,-0.371022,-0.55287,-2.96741,0.204324,0.855596,148,11,148,11,275,4,164,129,0.238756,0.0642887,0,-1.5,1.77331e-38,0,0,0,0.181902,0.832034,0,0,0,0,-0.105992,-0.140159,17375,0.513129,1.33437,0.26503,0.412711,8003,0,0,0,0,1,-0.915238
8052,-0.147461,0.270508,6.13281,-0.000447572,-0.000181682,-0.00110924,0.0422694,-0.041995,-2.96741,-3.77174,0.852474,-0.199608,-0.347015,-0.526392,-0.374134,-0.557136,-2.96741,0.228262,0.852473,146,10,146,10,275,4,165,130,0.238192,0.0632367,0,-1.5,1.77331e-38,0,0,0,0.183882,0.831188,0,0,0,0,-0.101457,-0.14072,17766,0.525172,1.34884,0.272678,0.416416,8038,0,0,0,0,1,-0.914307
8068,-0.147461,0.270508,6.19727,-0.00204264,-0.000811976,-0.000445495,0.0421536,-0.0419692,-2.96743,-3.77174,0.852474,-0.199608,-0.353026,-0.53534,-0.376481,-0.560349,-2.96742,0.228262,0.852473,146,10,146,10,275,4,165,130,0.236881,0.0640652,0,-1.5,1.77331e-38,0,0,0,0.182234,0.828903,0,0,0,0,-0.103803,-0.143933,17766,0.525172,1.34884,0.272678,0.416416,8038,0,0,0,0,1,-0.911793
8084,-0.147461,0.270508,6.05371,-0.00105668,0.000462967,-0.000748282,0.042119,-0.0419521,-2.96744,-3.77174,0.852474,-0.199608,-0.359074,-0.544338,-0.378808,-0.563524,-2.96743,0.228262,0.852473,146,10,146,10,275,4,165,130,0.235565,0.0648889,0,-1.5,1.77331e-38,0,0,0,0.18055,0.826568,0,0,0,0,-0.10613,-0.147108,17766,0.525172,1.34884,0.272678,0.416416,8038,0,0,0,0,1,-0.909224
8100,-0.147461,0.270508,-6.06055,-0.000643926,-0.000938788,-0.000728567,0.0420905,-0.0419437,-2.96745,-3.77174,0.852474,-0.199608,-0.365159,-0.553387,-0.381115,-0.566665,-2.96745,0.228262,0.852473,146,10,146,10,275,4,165,130,0.234241,0.0657111,0,-1.5,1.77331e-38,0,0,0,0.178827,0.824181,0,0,0,0,-0.108437,-0.150249,17766,0.525172,1.34884,0.272678,0.416416,8038,0,0,0,0,1,-0.906599
8121,-0.147461,0.270508,-6.06055,-0.000643926,-0.000938788,-0.000728567,0.0420905,-0.0419437,-2.96745,-3.81882,0.863596,-0.181345,-0.373206,-0.565346,-0.384117,-0.570747,-2.96745,0.181175,0.863596,148,11,148,11,273,4,165,129,0.237772,0.0647198,0,-1.5,1.77331e-38,0,0,0,0.17914,0.829861,0,0,0,0,-0.106979,-0.141902,17375,0.546526,1.3862,0.277138,0.428845,8107,0,0,0,0,1,-0.912847
8143,-0.147461,0.270508,-0.152344,-0.00146631,0.00118325,-0.00170982,0.0420128,-0.0419147,-2.96746,-3.829,0.868268,-0.177365,-0.381312,-0.577386,-0.387085,-0.574776,-2.96746,0.170998,0.868268,148,11,148,11,273,4,165,129,0.237446,0.0660316,0,-1.5,1.77331e-38,0,0,0,0.175995,0.829375,0,0,0,0,-0.111911,-0.143543,17250,0.555381,1.40374,0.275174,0.431232,8137,0,0,0,0,1,-0.912313
8158,-0.147461,0.270508,0.133789,-0.00080395,-0.000177708,-0.000437453,0.0419336,-0.0419076,-2.96749,-3.829,0.868268,-0.177365,-0.387529,-0.586615,-0.389324,-0.577805,-2.96749,0.170998,0.868268,148,11,148,11,273,4,165,129,0.236161,0.0668309,0,-1.5,1.77331e-38,0,0,0,0.174181,0.827046,0,0,0,0,-0.11415,-0.146573,17250,0.555381,1.40374,0.275174,0.431232,8137,0,0,0,0,1,-0.909751
8180,-0.147461,0.270508,0.477539,-0.00175599,0.000290627,-0.000271611,0.0418582,-0.0418779,-2.96749,-3.76635,0.852149,-0.205678,-0.396138,-0.599385,-0.392374,-0.581917,-2.96749,0.233646,0.852149,146,12,146,12,275,4,164,129,0.237935,0.0655785,0,-1.5,1.77331e-38,0,0,0,0.17314,0.827579,0,0,0,0,-0.110445,-0.139302,17750,0.565895,1.42165,0.281929,0.442615,8171,0,0,0,0,1,-0.910337
8198,-0.147461,0.270508,6.07715,-0.00218064,-0.000132713,-0.00108073,0.0418163,-0.041874,-2.9675,-3.76635,0.852149,-0.205678,-0.40323,-0.6099,-0.394843,-0.585236,-2.9675,0.233646,0.852149,146,12,146,12,275,4,164,129,0.236532,0.066454,0,-1.5,1.77331e-38,0,0,0,0.171122,0.825031,0,0,0,0,-0.112914,-0.142621,17750,0.565895,1.42165,0.281929,0.442615,8171,0,0,0,0,1,-0.907534
8219,-0.147461,0.270508,-6.44629,-0.0014003,0.000254828,-8.85023e-05,0.0417371,-0.0418501,-2.96749,-3.79136,0.864825,-0.195936,-0.411565,-0.622247,-0.397698,-0.589067,-2.9675,0.208644,0.864825,146,12,146,12,273,4,164,129,0.241551,0.0652642,0,-1.5,1.77331e-38,0,0,0,0.171321,0.831401,0,0,0,0,-0.111704,-0.129031,17625,0.57688,1.44399,0.285994,0.460035,8205,0,0,0,0,1,-0.914541
8241,-0.147461,0.270508,6.16797,-0.00150321,0.000972398,-8.27421e-05,0.0417008,-0.041834,-2.9675,-3.81036,0.864486,-0.184268,-0.420356,-0.635262,-0.400654,-0.593022,-2.96749,0.189636,0.864486,148,11,148,11,273,4,164,129,0.239981,0.0616199,0,-1.5,1.77331e-38,0,0,0,0.184202,0.829345,0,0,0,0,-0.0962669,-0.130441,17375,0.602427,1.46137,0.304387,0.462581,8236,0,0,0,0,1,-0.91228
8257,-0.147461,0.270508,6.04492,-0.00138588,-3.73757e-05,-0.000246156,0.041667,-0.0418249,-2.9675,-3.81036,0.864486,-0.184268,-0.426788,-0.64478,-0.40278,-0.595858,-2.9675,0.189636,0.864486,148,11,148,11,273,4,164,129,0.238797,0.0623707,0,-1.5,1.77331e-38,0,0,0,0.182639,0.827228,0,0,0,0,-0.0983932,-0.133277,17375,0.602427,1.46137,0.304387,0.462581,8236,0,0,0,0,1,-0.909951
8278,-0.147461,0.270508,-6.05078,-0.00046955,-0.000181152,0.00043052,0.0416431,-0.0418157,-2.96749,-3.8153,0.863593,-0.182557,-0.435284,-0.657343,-0.405545,-0.59954,-2.96749,0.184704,0.863593,148,11,148,11,272,4,165,129,0.238499,0.0620238,0,-1.5,1.77331e-38,0,0,0,0.183091,0.825585,0,0,0,0,-0.0968253,-0.132413,17500,0.616214,1.47966,0.30872,0.467127,8273,0,0,0,0,1,-0.908143
8294,-0.147461,0.270508,-0.18457,-0.00243031,-0.000779036,0.00021945,0.0415568,-0.0417902,-2.96748,-3.8153,0.863593,-0.182557,-0.441795,-0.666965,-0.407631,-0.602313,-2.96748,0.184704,0.863593,148,11,148,11,272,4,165,129,0.237327,0.0627573,0,-1.5,1.77331e-38,0,0,0,0.18152,0.823437,0,0,0,0,-0.0989112,-0.135186,17500,0.616214,1.47966,0.30872,0.467127,8273,0,0,0,0,1,-0.905781
8317,-0.147461,0.270508,0.155273,-0.00277224,0.000465914,0.00045461,0.0414594,-0.0417829,-2.96749,-3.81019,0.864755,-0.184224,-0.450808,-0.680275,-0.410473,-0.60608,-2.96748,0.189805,0.864755,148,11,148,11,273,4,164,129,0.238071,0.0623376,0,-1.5,1.77331e-38,0,0,0,0.180543,0.825417,0,0,0,0,-0.0977733,-0.134144,17375,0.624471,1.49531,0.3127,0.471936,8303,0,0,0,0,1,-0.907958
8332,-0.147461,0.270508,-1.4707,-0.00118767,0.000833034,0.000198447,0.0414236,-0.0417712,-2.96749,-3.81019,0.864755,-0.184224,-0.457396,-0.69,-0.412519,-0.608782,-2.96749,0.189805,0.864755,148,11,148,11,273,4,164,129,0.236905,0.0630623,0,-1.5,1.77331e-38,0,0,0,0.178958,0.823243,0,0,0,0,-0.0998191,-0.136845,17375,0.624471,1.49531,0.3127,0.471936,8303,0,0,0,0,1,-0.905567
8353,-0.147461,0.270508,0.463867,0.000728573,-0.000565974,-0.000740917,0.0414044,-0.0417697,-2.96749,-3.76662,0.862275,-0.204827,-0.466098,-0.702835,-0.415182,-0.61228,-2.96749,0.233377,0.862275,146,12,146,12,275,4,162,130,0.243165,0.062936,0,-1.5,1.77331e-38,0,0,0,0.17768,0.832461,0,0,0,0,-0.103652,-0.122227,17640,0.637235,1.52501,0.311529,0.490054,8339,0,0,0,0,1,-0.915708
8374,-0.147461,0.270508,6.06934,-0.000835514,0.00038105,-0.00064862,0.0413711,-0.0417494,-2.9675,-3.82845,0.869347,-0.177395,-0.474852,-0.71574,-0.417814,-0.615734,-2.9675,0.171549,0.869347,148,11,148,11,273,4,165,129,0.243455,0.0626663,0,-1.5,1.77331e-38,0,0,0,0.175194,0.832695,0,0,0,0,-0.102786,-0.121149,17250,0.647841,1.54497,0.315028,0.494585,8369,0,0,0,0,1,-0.915965
8390,-0.147461,0.270508,-6.4375,-0.00129496,0.000618393,-0.000113716,0.0413061,-0.0417254,-2.96751,-3.82845,0.869347,-0.177395,-0.481558,-0.725619,-0.419799,-0.618334,-2.96751,0.171549,0.869347,148,11,148,11,273,4,165,129,0.242365,0.0633644,0,-1.5,1.77331e-38,0,0,0,0.173528,0.830729,0,0,0,0,-0.104771,-0.123749,17250,0.647841,1.54497,0.315028,0.494585,8369,0,0,0,0,1,-0.913802
8412,-0.147461,0.270508,6.19629,-0.00187699,0.000254882,-0.000444066,0.0412695,-0.041722,-2.96753,-3.79465,0.855191,-0.192676,-0.490832,-0.739272,-0.422502,-0.621863,-2.96753,0.205348,0.855191,148,11,148,11,275,4,165,130,0.252453,0.0617142,0,-1.5,1.77331e-38,0,0,0,0.172829,0.846402,0,0,0,0,-0.105249,-0.100089,17514,0.661123,1.5815,0.317253,0.521774,8407,0,0,0,0,1,-0.931042
8428,-0.147461,0.270508,-6.04004,-0.000370854,0.000573799,-0.00104123,0.0412144,-0.0416962,-2.96755,-3.79465,0.855191,-0.192676,-0.497612,-0.749248,-0.424448,-0.6244,-2.96753,0.205348,0.855191,148,11,148,11,275,4,165,130,0.251472,0.0623808,0,-1.5,1.77331e-38,0,0,0,0.171125,0.844775,0,0,0,0,-0.107195,-0.102627,17514,0.661123,1.5815,0.317253,0.521774,8407,0,0,0,0,1,-0.929252
8449,-0.147461,0.270508,-6.04004,-0.000370854,0.000573799,-0.00104123,0.0412144,-0.0416962,-2.96755,-3.81286,0.861436,-0.183329,-0.506559,-0.762405,-0.426977,-0.62769,-2.96755,0.187139,0.861436,148,11,148,11,275,4,165,129,0.250993,0.062603,0,-1.5,1.77331e-38,0,0,0,0.169324,0.843747,0,0,0,0,-0.10772,-0.103513,17250,0.671414,1.59881,0.319258,0.524177,8437,0,0,0,0,1,-0.928121
8465,-0.147461,0.270508,-0.146484,-0.000591936,0.000313764,0.000397435,0.0411662,-0.0416765,-2.96755,-3.81286,0.861436,-0.183329,-0.513411,-0.772474,-0.428886,-0.630169,-2.96755,0.187139,0.861436,148,11,148,11,275,4,165,129,0.250008,0.0632612,0,-1.5,1.77331e-38,0,0,0,0.167581,0.842065,0,0,0,0,-0.109628,-0.105992,17250,0.671414,1.59881,0.319258,0.524177,8437,0,0,0,0,1,-0.926271
8481,-0.147461,0.270508,-0.146484,-0.000591936,0.000313764,0.000397435,0.0411662,-0.0416765,-2.96755,-3.81286,0.861436,-0.183329,-0.520292,-0.782582,-0.430777,-0.632623,-2.96755,0.187139,0.861436,148,11,148,11,275,4,165,129,0.24902,0.0639152,0,-1.5,1.77331e-38,0,0,0,0.165807,0.840344,0,0,0,0,-0.111519,-0.108447,17250,0.671414,1.59881,0.319258,0.524177,8437,0,0,0,0,1,-0.924378
8497,-0.147461,0.270508,-1.46289,-0.00123206,0.00150786,-0.00118673,0.0410779,-0.0416313,-2.96759,-3.81286,0.861436,-0.183329,-0.526771,-0.792093,-0.432536,-0.634903,-2.96758,0.187139,0.861436,148,11,148,11,275,4,165,129,0.248083,0.0645313,0,-1.5,1.77331e-38,0,0,0,0.164118,0.838695,0,0,0,0,-0.113278,-0.110726,17250,0.671414,1.59881,0.319258,0.524177,8437,0,0,0,0,1,-0.922565
8519,-0.147461,0.270508,-0.324219,-0.00263517,0.00047683,0.000516611,0.041035,-0.0416194,-2.96759,-3.79098,0.855294,-0.200271,-0.536327,-0.806113,-0.435093,-0.638206,-2.96759,0.209015,0.855294,148,14,148,14,275,4,164,130,0.253015,0.0625852,0,-1.5,1.77331e-38,0,0,0,0.16765,0.843907,0,0,0,0,-0.109016,-0.095666,17640,0.696804,1.63808,0.326077,0.54254,8505,0,0,0,0,1,-0.928297
8534,-0.147461,0.270508,6.16797,-0.000784179,-0.000356318,0.000233153,0.0410098,-0.0416102,-2.96759,-3.79098,0.855294,-0.200271,-0.543308,-0.816349,-0.43693,-0.640572,-2.96759,0.209015,0.855294,148,14,148,14,275,4,164,130,0.252091,0.0632132,0,-1.5,1.77331e-38,0,0,0,0.165887,0.842352,0,0,0,0,-0.110852,-0.0980325,17640,0.696804,1.63808,0.326077,0.54254,8505,0,0,0,0,1,-0.926587
8555,-0.147461,0.270508,-6.47656,-0.00172375,0.000563344,-9.09272e-05,0.0409524,-0.0415786,-2.96759,-3.80437,0.862209,-0.186102,-0.552519,-0.829847,-0.43932,-0.643649,-2.96759,0.195635,0.862209,148,11,148,11,275,4,164,129,0.251135,0.0608994,0,-1.5,1.77331e-38,0,0,0,0.172937,0.841397,0,0,0,0,-0.101069,-0.0991353,17250,0.718353,1.65981,0.338251,0.544513,8541,0,0,0,0,1,-0.925537
8576,-0.147461,0.270508,6.22461,-0.00115822,0.000348437,-0.00163758,0.0409129,-0.04157,-2.96762,-3.83466,0.872526,-0.183429,-0.561776,-0.843404,-0.441679,-0.646675,-2.96762,0.165344,0.872526,148,14,148,14,273,4,165,130,0.250731,0.0621327,0,-1.5,1.77331e-38,0,0,0,0.168134,0.839834,0,0,0,0,-0.105628,-0.0998358,17388,0.727558,1.67941,0.336052,0.546839,8571,0,0,0,0,1,-0.923817
8593,-0.147461,0.270508,-6.04395,-0.00156084,0.000136897,-0.000343167,0.0408395,-0.0415655,-2.96763,-3.83466,0.872526,-0.183429,-0.568862,-0.853775,-0.44346,-0.648956,-2.96762,0.165344,0.872526,148,14,148,14,273,4,165,130,0.249808,0.062747,0,-1.5,1.77331e-38,0,0,0,0.166425,0.838213,0,0,0,0,-0.107408,-0.102116,17388,0.727558,1.67941,0.336052,0.546839,8571,0,0,0,0,1,-0.922034
8614,-0.147461,0.270508,-6.04395,-0.00156084,0.000136897,-0.000343167,0.0408395,-0.0415655,-2.96763,-3.79422,0.855795,-0.19249,-0.578653,-0.868096,-0.445887,-0.652053,-2.96763,0.205778,0.855795,148,11,148,11,275,4,165,130,0.251075,0.0595106,0,-1.5,1.77331e-38,0,0,0,0.171254,0.840441,0,0,0,0,-0.095528,-0.0973246,17514,0.745002,1.70077,0.350359,0.554728,8603,0,0,0,0,1,-0.924486
8630,-0.147461,0.270508,-0.175781,-0.000350414,0.00145256,-0.000996621,0.0407835,-0.0415373,-2.96764,-3.79422,0.855795,-0.19249,-0.585805,-0.878552,-0.447635,-0.654275,-2.96764,0.205778,0.855795,148,11,148,11,275,4,165,130,0.250172,0.0601153,0,-1.5,1.77331e-38,0,0,0,0.169707,0.838861,0,0,0,0,-0.0972754,-0.0995471,17514,0.745002,1.70077,0.350359,0.554728,8603,0,0,0,0,1,-0.922747
8646,-0.183594,0.270508,0.164062,-0.00105078,0.000957742,-0.000644063,0.0407336,-0.0415186,-2.96764,-3.79422,0.855795,-0.19249,-0.592985,-0.889043,-0.449366,-0.656474,-2.96764,0.205778,0.855795,148,11,148,11,275,4,165,130,0.249268,0.0607137,0,-1.5,1.77331e-38,0,0,0,0.168133,0.837246,0,0,0,0,-0.0990069,-0.101746,17514,0.745002,1.70077,0.350359,0.554728,8603,0,0,0,0,1,-0.92097
8662,-0.202148,0.270508,-1.45117,-0.00124639,-6.05473e-05,-0.000484297,0.0407055,-0.0415093,-2.96764,-3.79422,0.855795,-0.19249,-0.600192,-0.899569,-0.451083,-0.65865,-2.96764,0.205778,0.855795,148,11,148,11,275,4,165,130,0.24836,0.0613094,0,-1.5,1.77331e-38,0,0,0,0.166532,0.835596,0,0,0,0,-0.100724,-0.103922,17514,0.745002,1.70077,0.350359,0.554728,8603,0,0,0,0,1,-0.919155
8683,-0.202148,0.270508,-1.45117,-0.00124639,-6.05473e-05,-0.000484297,0.0407055,-0.0415093,-2.96764,-3.79572,0.861012,-0.191549,-0.609695,-0.913438,-0.453314,-0.66147,-2.96764,0.204283,0.861012,148,11,148,11,275,4,164,130,0.249237,0.0555851,0,-1.5,1.77331e-38,0,0,0,0.183485,0.837156,0,0,0,0,-0.0787767,-0.0982158,17388,0.787937,1.74271,0.374538,0.563255,8671,0,0,0,0,1,-0.920872
8700,-0.202148,0.270508,6.09668,-0.002236,0.000714459,0.000252943,0.0406289,-0.0414997,-2.96765,-3.79572,0.861012,-0.191549,-0.617421,-0.924708,-0.455104,-0.663726,-2.96765,0.204283,0.861012,148,11,148,11,275,4,164,130,0.248299,0.0562045,0,-1.5,1.77331e-38,0,0,0,0.182126,0.835462,0,0,0,0,-0.080566,-0.100472,17388,0.787937,1.74271,0.374538,0.563255,8671,0,0,0,0,1,-0.919008
8713,-0.202148,0.270508,-2.11035,-0.00130363,-0.000101926,-0.000162925,0.0405969,-0.0414867,-2.96765,-3.79572,0.861012,-0.191549,-0.623348,-0.93335,-0.456461,-0.66543,-2.96765,0.204283,0.861012,148,11,148,11,275,4,164,130,0.24758,0.0566763,0,-1.5,1.77331e-38,0,0,0,0.181068,0.834142,0,0,0,0,-0.0819233,-0.102175,17388,0.787937,1.74271,0.374538,0.563255,8671,0,0,0,0,1,-0.917556
8733,-0.202148,0.270508,6.15625,-0.00140297,0.000464799,3.31184e-05,0.0405164,-0.0414643,-2.96767,-3.80888,0.869825,-0.197587,-0.632506,-0.946695,-0.458534,-0.668025,-2.96767,0.191124,0.869825,148,14,148,14,273,4,164,132,0.249347,0.0556141,0,-1.5,1.77331e-38,0,0,0,0.181817,0.836278,0,0,0,0,-0.0789484,-0.0968102,17664,0.806731,1.77155,0.379585,0.571215,8720,0,0,0,0,1,-0.919905
8749,-0.202148,0.270508,5.98926,-0.00217091,0.000365109,-0.00122457,0.0404741,-0.0414523,-2.96768,-3.80888,0.869825,-0.197587,-0.63986,-0.957405,-0.460174,-0.67007,-2.96768,0.191124,0.869825,148,14,148,14,273,4,164,132,0.248486,0.0561846,0,-1.5,1.77331e-38,0,0,0,0.180536,0.834707,0,0,0,0,-0.0805892,-0.0988543,17664,0.806731,1.77155,0.379585,0.571215,8720,0,0,0,0,1,-0.918178
8765,-0.202148,0.270508,-6.05566,-0.00063046,2.69888e-05,-3.7717e-05,0.04045,-0.0414452,-2.96768,-3.80888,0.869825,-0.197587,-0.64724,-0.968147,-0.461801,-0.672091,-2.96768,0.191124,0.869825,148,14,148,14,273,4,164,132,0.247624,0.0567498,0,-1.5,1.77331e-38,0,0,0,0.179231,0.833105,0,0,0,0,-0.0822161,-0.100875,17664,0.806731,1.77155,0.379585,0.571215,8720,0,0,0,0,1,-0.916416
8780,-0.202148,0.270508,-1.79102,-0.00151994,0.000792075,-0.000194443,0.0404168,-0.0414414,-2.96768,-3.80888,0.869825,-0.197587,-0.654181,-0.978246,-0.463314,-0.673966,-2.96768,0.191124,0.869825,148,14,148,14,273,4,164,132,0.246814,0.0572753,0,-1.5,1.77331e-38,0,0,0,0.177983,0.831574,0,0,0,0,-0.0837291,-0.102751,17664,0.806731,1.77155,0.379585,0.571215,8720,0,0,0,0,1,-0.914732
8796,-0.202148,0.270508,-0.167969,-0.00235223,0.00119386,-0.000702721,0.0403792,-0.0414183,-2.96769,-3.80888,0.869825,-0.197587,-0.66161,-0.98905,-0.464915,-0.675945,-2.96769,0.191124,0.869825,148,14,148,14,273,4,164,132,0.245944,0.0578357,0,-1.5,1.77331e-38,0,0,0,0.176627,0.82991,0,0,0,0,-0.0853298,-0.10473,17664,0.806731,1.77155,0.379585,0.571215,8720,0,0,0,0,1,-0.912901
8817,-0.202148,0.270508,0.174805,-0.00172756,0.00171994,-0.00152272,0.0403109,-0.0413932,-2.9677,-3.79233,0.867375,-0.190012,-0.671405,-1.00328,-0.466997,-0.678516,-2.9677,0.207666,0.867375,148,11,148,11,273,4,162,129,0.253501,0.0555066,0,-1.5,1.77331e-38,0,0,0,0.179847,0.841171,0,0,0,0,-0.0813702,-0.0857159,17375,0.843154,1.832,0.385626,0.5928,8803,0,0,0,0,1,-0.925288
8833,-0.202148,0.270508,-1.48242,-0.000913972,0.00106628,-0.000647274,0.040287,-0.0413767,-2.96772,-3.79233,0.867375,-0.190012,-0.678893,-1.01416,-0.468564,-0.680443,-2.96772,0.207666,0.867375,148,11,148,11,273,4,162,129,0.252714,0.0560463,0,-1.5,1.77331e-38,0,0,0,0.17853,0.83978,0,0,0,0,-0.0829377,-0.0876429,17375,0.843154,1.832,0.385626,0.5928,8803,0,0,0,0,1,-0.923758
8854,-0.202148,0.270508,6.08008,-0.00190215,0.000621326,-5.62988e-07,0.0402159,-0.0413546,-2.96773,-3.79383,0.858795,-0.189827,-0.688763,-1.02849,-0.470603,-0.682947,-2.96772,0.20617,0.858795,148,11,148,11,275,4,164,129,0.252196,0.0541429,0,-1.5,1.77331e-38,0,0,0,0.182175,0.838784,0,0,0,0,-0.0750811,-0.0872679,17375,0.862632,1.85476,0.395522,0.595679,8840,0,0,0,0,1,-0.922663
8875,-0.202148,0.270508,-2.13281,-0.00156003,0.00184011,-0.000411476,0.0401904,-0.0413265,-2.96773,-3.81189,0.862965,-0.183016,-0.698672,-1.04286,-0.472618,-0.685413,-2.96773,0.188114,0.862965,148,11,148,11,275,4,165,129,0.254299,0.0518221,0,-1.5,1.77331e-38,0,0,0,0.187194,0.842975,0,0,0,0,-0.067385,-0.0819778,17250,0.88303,1.88161,0.405233,0.603435,8870,0,0,0,0,1,-0.927273
8892,-0.202148,0.270508,-6.4834,-0.00165029,0.00201384,-0.00153023,0.0401568,-0.0413051,-2.96775,-3.81189,0.862965,-0.183016,-0.706724,-1.05453,-0.474228,-0.687378,-2.96775,0.188114,0.862965,148,11,148,11,275,4,165,129,0.253498,0.0523749,0,-1.5,1.77331e-38,0,0,0,0.186031,0.84156,0,0,0,0,-0.0689949,-0.0839432,17250,0.88303,1.88161,0.405233,0.603435,8870,0,0,0,0,1,-0.925716
8912,-0.202148,0.270508,6.18164,-0.00100555,0.000900459,-0.000107313,0.0401276,-0.0412902,-2.96776,-3.826,0.873572,-0.179663,-0.716233,-1.06831,-0.476102,-0.689662,-2.96776,0.174,0.873572,148,11,148,11,272,4,165,130,0.256216,0.0535623,0,-1.5,1.77331e-38,0,0,0,0.180864,0.845449,0,0,0,0,-0.0755435,-0.0783232,17388,0.894293,1.90948,0.400558,0.611339,8907,0,0,0,0,1,-0.929994
8927,-0.202148,0.270508,-6.03516,-0.00219607,0.000481616,1.86083e-06,0.0400533,-0.0412664,-2.96776,-3.826,0.873572,-0.179663,-0.723388,-1.07867,-0.477494,-0.691355,-2.96776,0.174,0.873572,148,11,148,11,272,4,165,130,0.255536,0.0540349,0,-1.5,1.77331e-38,0,0,0,0.179717,0.844258,0,0,0,0,-0.0769356,-0.0800168,17388,0.894293,1.90948,0.400558,0.611339,8907,0,0,0,0,1,-0.928684
8949,-0.202148,0.270508,-6.03516,-0.00219607,0.000481616,1.86083e-06,0.0400533,-0.0412664,-2.96776,-3.81688,0.866693,-0.180869,-0.733921,-1.09392,-0.479516,-0.693803,-2.96776,0.183124,0.866693,148,11,148,11,273,4,165,129,0.259428,0.0531737,0,-1.5,1.77331e-38,0,0,0,0.180847,0.85017,0,0,0,0,-0.0762351,-0.0705921,17375,0.909122,1.93536,0.403281,0.623211,8937,0,0,0,0,1,-0.935187
8965,-0.202148,0.270508,6.80859,-0.00187599,0.000720346,-9.53594e-05,0.0399374,-0.0412184,-2.96777,-3.81688,0.866693,-0.180869,-0.741609,-1.10504,-0.480971,-0.695561,-2.96776,0.183124,0.866693,148,11,148,11,273,4,165,129,0.258746,0.0536638,0,-1.5,1.77331e-38,0,0,0,0.179612,0.849022,0,0,0,0,-0.07769,-0.0723498,17375,0.909122,1.93536,0.403281,0.623211,8937,0,0,0,0,1,-0.933925
8986,-0.202148,0.270508,6.80859,-0.00187599,0.000720346,-9.53594e-05,0.0399374,-0.0412184,-2.96777,-3.81595,0.871201,-0.180931,-0.751736,-1.11968,-0.482861,-0.697834,-2.96777,0.184054,0.871201,148,11,148,11,272,4,164,129,0.258552,0.0537143,0,-1.5,1.77331e-38,0,0,0,0.17914,0.849015,0,0,0,0,-0.0777489,-0.0731356,17375,0.922369,1.95557,0.405112,0.624698,8972,0,0,0,0,1,-0.933916
9008,-0.202148,0.270508,-1.43945,-0.00172353,-0.000138117,-3.5962e-05,0.0398612,-0.0412125,-2.96778,-3.78786,0.865857,-0.199991,-0.762387,-1.13506,-0.484819,-0.700175,-2.96778,0.212142,0.865857,148,14,148,14,273,4,162,130,0.262959,0.0533389,0,-1.5,1.77331e-38,0,0,0,0.178036,0.855679,0,0,0,0,-0.079311,-0.0628322,17640,0.937179,1.98564,0.405508,0.637343,9002,0,0,0,0,1,-0.941247
9024,-0.202148,0.270508,6.08789,-0.00103974,0.000399106,-0.000896927,0.0397917,-0.0411871,-2.96781,-3.78786,0.865857,-0.199991,-0.770159,-1.14628,-0.486229,-0.701855,-2.96781,0.212142,0.865857,148,14,148,14,273,4,162,130,0.262321,0.0538173,0,-1.5,1.77331e-38,0,0,0,0.176753,0.854657,0,0,0,0,-0.0807214,-0.0645112,17640,0.937179,1.98564,0.405508,0.637343,9002,0,0,0,0,1,-0.940123
9045,-0.202148,0.270508,-2.07715,0.000353282,0.000327772,-0.000944851,0.0397722,-0.0411664,-2.96782,-3.80316,0.86425,-0.188004,-0.780394,-1.16105,-0.488061,-0.704025,-2.96782,0.196837,0.86425,148,12,148,12,273,4,164,129,0.262011,0.0536821,0,-1.5,1.77331e-38,0,0,0,0.177524,0.854098,0,0,0,0,-0.0799699,-0.0650203,17500,0.953429,2.00812,0.408092,0.639004,9036,0,0,0,0,1,-0.939507
9061,-0.202148,0.270508,-6.43457,-0.0018732,-0.000142393,-0.000871751,0.0397443,-0.0411647,-2.96783,-3.80316,0.86425,-0.188004,-0.788218,-1.17233,-0.489442,-0.705658,-2.96783,0.196837,0.86425,148,12,148,12,273,4,164,129,0.26138,0.0541457,0,-1.5,1.77331e-38,0,0,0,0.17623,0.85304,0,0,0,0,-0.0813507,-0.0666534,17500,0.953429,2.00812,0.408092,0.639004,9036,0,0,0,0,1,-0.938344
9082,-0.202148,0.270508,6.02246,-0.00173593,0.000542087,-0.000372558,0.039661,-0.0411436,-2.96784,-3.81274,0.867061,-0.188541,-0.798523,-1.18718,-0.49124,-0.707776,-2.96784,0.187256,0.867061,148,14,148,14,273,4,164,129,0.261182,0.0544322,0,-1.5,1.77331e-38,0,0,0,0.174852,0.852576,0,0,0,0,-0.0823317,-0.0671061,17500,0.964788,2.0263,0.408908,0.64067,9069,0,0,0,0,1,-0.937833
9099,-0.202148,0.270508,-6.07031,-0.00209918,0.00102584,-0.00102621,0.0396252,-0.0411325,-2.96786,-3.81274,0.867061,-0.188541,-0.80689,-1.19923,-0.492679,-0.70946,-2.96786,0.187256,0.867061,148,14,148,14,273,4,164,129,0.260512,0.0549178,0,-1.5,1.77331e-38,0,0,0,0.173436,0.851416,0,0,0,0,-0.0837708,-0.0687899,17500,0.964788,2.0263,0.408908,0.64067,9069,0,0,0,0,1,-0.936558
9119,-0.202148,0.270508,-0.174805,-0.00173994,0.000442054,-0.000283146,0.0395399,-0.0411135,-2.96786,-3.81335,0.869228,-0.183911,-0.816767,-1.21345,-0.494357,-0.711419,-2.96786,0.186652,0.869228,148,12,148,12,273,4,164,129,0.263792,0.0494247,0,-1.5,1.77331e-38,0,0,0,0.182953,0.857314,0,0,0,0,-0.0643964,-0.0585594,17375,0.991121,2.05771,0.42996,0.65286,9105,0,0,0,0,1,-0.943045
9135,-0.202148,0.270508,6.82422,-0.00205891,0.000152086,0.000344696,0.0394992,-0.0411039,-2.96786,-3.81335,0.869228,-0.183911,-0.824691,-1.22485,-0.495685,-0.712956,-2.96786,0.186652,0.869228,148,12,148,12,273,4,164,129,0.263212,0.0498643,0,-1.5,1.77331e-38,0,0,0,0.181909,0.856361,0,0,0,0,-0.0657248,-0.0600962,17375,0.991121,2.05771,0.42996,0.65286,9105,0,0,0,0,1,-0.941997
9156,-0.202148,0.270508,0.161133,-0.00139424,-0.00020955,0.000140928,0.0394624,-0.0411012,-2.96785,-3.79646,0.870115,-0.189896,-0.835125,-1.23985,-0.497414,-0.714947,-2.96785,0.20354,0.870115,148,12,148,12,273,4,162,129,0.262295,0.0467748,0,-1.5,1.77331e-38,0,0,0,0.183807,0.855759,0,0,0,0,-0.0529253,-0.0609202,17375,1.0096,2.08187,0.444489,0.654027,9142,0,0,0,0,1,-0.941335
9177,-0.202148,0.270508,-1.41797,-0.00204234,0.000669141,-3.0563e-05,0.0394203,-0.041085,-2.96785,-3.80058,0.87579,-0.188412,-0.845594,-1.25489,-0.499123,-0.716906,-2.96785,0.199423,0.87579,148,11,148,11,272,4,162,130,0.262567,0.0463474,0,-1.5,1.77331e-38,0,0,0,0.183471,0.856538,0,0,0,0,-0.0514303,-0.0604063,17388,1.02593,2.10683,0.447693,0.6565,9172,0,0,0,0,1,-0.942192
9193,-0.202148,0.270508,6.08008,-0.00190094,0.000399436,8.04192e-05,0.0393364,-0.0410832,-2.96786,-3.80058,0.87579,-0.188412,-0.853593,-1.26637,-0.500413,-0.718378,-2.96786,0.199423,0.87579,148,11,148,11,272,4,162,130,0.261994,0.0467765,0,-1.5,1.77331e-38,0,0,0,0.182635,0.855557,0,0,0,0,-0.0527201,-0.0618781,17388,1.02593,2.10683,0.447693,0.6565,9172,0,0,0,0,1,-0.941112
9215,-0.202148,0.270508,-6.47949,-0.000247487,0.000338493,-0.000800596,0.0392609,-0.0410707,-2.96788,-3.83195,0.876642,-0.181217,-0.864124,-1.28149,-0.502094,-0.720275,-2.96786,0.168046,0.876642,147,14,147,14,273,4,165,129,0.26223,0.047224,0,-1.5,1.77331e-38,0,0,0,0.180709,0.85522,0,0,0,0,-0.054644,-0.0608846,17375,1.04081,2.13077,0.44745,0.659391,9207,0,0,0,0,1,-0.940742
9231,-0.202148,0.270508,6.18164,-0.00190286,0.000961535,-0.0006642,0.0392173,-0.0410525,-2.96788,-3.83195,0.876642,-0.181217,-0.872675,-1.29375,-0.503441,-0.72179,-2.96788,0.168046,0.876642,147,14,147,14,273,4,165,129,0.261627,0.0476758,0,-1.5,1.77331e-38,0,0,0,0.179765,0.854169,0,0,0,0,-0.0559913,-0.0623991,17375,1.04081,2.13077,0.44745,0.659391,9207,0,0,0,0,1,-0.939586
9253,-0.202148,0.270508,6.18164,-0.00190286,0.000961535,-0.0006642,0.0392173,-0.0410525,-2.96788,-3.78733,0.879786,-0.193073,-0.883778,-1.30966,-0.505167,-0.72372,-2.96788,0.212667,0.879786,146,12,146,12,272,4,161,129,0.263735,0.0472725,0,-1.5,1.77331e-38,0,0,0,0.181292,0.857376,0,0,0,0,-0.0558525,-0.0573346,17500,1.05518,2.15237,0.449314,0.666385,9239,0,0,0,0,1,-0.943114
9269,-0.202148,0.270508,-1.76953,-0.00137984,-0.000758289,-0.000104012,0.0391129,-0.0410181,-2.96791,-3.78733,0.879786,-0.193073,-0.891873,-1.32125,-0.506408,-0.725103,-2.9679,0.212667,0.879786,146,12,146,12,272,4,161,129,0.263191,0.047687,0,-1.5,1.77331e-38,0,0,0,0.180386,0.856445,0,0,0,0,-0.0570933,-0.058718,17500,1.05518,2.15237,0.449314,0.666385,9239,0,0,0,0,1,-0.942089
9290,-0.202148,0.270508,-0.162109,-0.00162047,0.000611496,-0.0010061,0.0390703,-0.0410081,-2.96792,-3.80462,0.871453,-0.198515,-0.902531,-1.3365,-0.50802,-0.726888,-2.96792,0.195376,0.871453,148,14,148,14,272,4,164,132,0.263571,0.046642,0,-1.5,1.77331e-38,0,0,0,0.18568,0.857214,0,0,0,0,-0.0532255,-0.0573314,17792,1.07866,2.17966,0.454794,0.669557,9276,0,0,0,0,1,-0.942936
9312,-0.202148,0.270508,0.146484,-0.000981077,-0.000153661,-0.000103166,0.0390156,-0.0409927,-2.96792,-3.80237,0.863176,-0.188403,-0.913731,-1.35252,-0.509691,-0.728725,-2.96793,0.197627,0.863176,148,11,148,11,275,4,165,130,0.266391,0.0435115,0,-1.5,1.77331e-38,0,0,0,0.192765,0.860332,0,0,0,0,-0.0428348,-0.0474765,17388,1.10136,2.20536,0.466856,0.681248,9303,0,0,0,0,1,-0.946365
9327,-0.202148,0.270508,-1.5,-0.000591942,-0.000152158,-0.0012745,0.0389868,-0.0409828,-2.96794,-3.80237,0.863176,-0.188403,-0.921388,-1.36347,-0.510818,-0.729958,-2.96792,0.197627,0.863176,148,11,148,11,275,4,165,130,0.26594,0.0438766,0,-1.5,1.77331e-38,0,0,0,0.192111,0.859608,0,0,0,0,-0.043962,-0.04871,17388,1.10136,2.20536,0.466856,0.681248,9303,0,0,0,0,1,-0.945569
9343,-0.202148,0.270508,-0.333984,-0.00243661,9.97488e-05,0.000299462,0.03895,-0.0409829,-2.96793,-3.80237,0.863176,-0.188403,-0.929573,-1.37516,-0.512011,-0.731259,-2.96793,0.197627,0.863176,148,11,148,11,275,4,165,130,0.265456,0.0442659,0,-1.5,1.77331e-38,0,0,0,0.191396,0.858816,0,0,0,0,-0.0451548,-0.0500103,17388,1.10136,2.20536,0.466856,0.681248,9303,0,0,0,0,1,-0.944697
9359,-0.202148,0.270508,6.14648,-0.0014515,0.000464079,-0.000417937,0.0389201,-0.040972,-2.96794,-3.80237,0.863176,-0.188403,-0.937778,-1.38687,-0.513194,-0.732542,-2.96794,0.197627,0.863176,148,11,148,11,275,4,165,130,0.264968,0.0446546,0,-1.5,1.77331e-38,0,0,0,0.190661,0.858002,0,0,0,0,-0.0463387,-0.0512941,17388,1.10136,2.20536,0.466856,0.681248,9303,0,0,0,0,1,-0.943802
9381,-0.202148,0.270508,-6.4668,-0.0015292,0.00145743,-0.000776671,0.038861,-0.0409448,-2.96797,-3.82612,0.873176,-0.176919,-0.949091,-1.40301,-0.514806,-0.734284,-2.96796,0.173884,0.873176,148,11,148,11,273,4,165,129,0.266575,0.0462938,0,-1.5,1.77331e-38,0,0,0,0.182728,0.859558,0,0,0,0,-0.0538963,-0.0477928,17250,1.12537,2.25296,0.46091,0.686491,9369,0,0,0,0,1,-0.945514
9397,-0.202148,0.270508,6.19922,-0.0014486,-0.000114693,-0.000718868,0.0388336,-0.04094,-2.96797,-3.82612,0.873176,-0.176919,-0.957339,-1.41477,-0.515965,-0.735531,-2.96797,0.173884,0.873176,148,11,148,11,273,4,165,129,0.266105,0.0466732,0,-1.5,1.77331e-38,0,0,0,0.181854,0.858781,0,0,0,0,-0.0550553,-0.0490406,17250,1.12537,2.25296,0.46091,0.686491,9369,0,0,0,0,1,-0.944659
