timestamp,A_x,A_y,A_z,P,Q,R,Phi,Theta,Psi,poseX,poseY,poseZ,state_X,state_Y,state_Z,state_VzB,state_Bx,state_By,state_Bz,p1_x,p1_y,p2_x,p2_y,p3_x,p3_y,p4_x,p4_y,roll,pitch,yaw,alt,targetHeading,highLevelState,lowLevelState,gateNumber,filtered_x,filtered_y,x_OT,y_OT,vx_OT,vy_OT,filtered_vx,filtered_vygateArearansac_corr_x,ransac_corr_y,ransac_corr_vx,ransac_corr_vy,detectionTimeStamppTermX,dTermX,pTermY,dTermY,vxcmd,vycmd
6446,1.50098,-0.244141,4.05762,-0.0029742,0.00104747,-0.00126809,-0.162604,0.0375154,-2.51532,0,0,0,-9.15414e-05,0.00021757,-0.00884223,0.0210114,-2.51509,0,0,0,0,0,0,0,0,0,0,0.260172,0.175877,0,-1.5,7.77444e-38,0,0,0,-9.15414e-05,0.00021757,0,0,0,0,-0.00884223,0.0210114,1.9603e-19,0,0,0,0,0,0,0,0,0,2.5,-0.000435139
6460,1.59277,-0.276367,5.40039,0.00464534,0.0025944,-0.000936509,-0.164256,0.037838,-2.51597,0,0,0,-0.000310347,0.000737445,-0.0183528,0.0436047,-2.51568,0,0,0,0,0,0,0,0,0,0,0.264752,0.17257,0,-1.5,7.77444e-38,0,0,0,-0.000310347,0.000737445,0,0,0,0,-0.0183528,0.0436047,1.9603e-19,0,0,0,0,0,0,0,0,0,2.5,-0.00147489
6476,1.60938,-0.167969,-6.87598,-0.00457136,0.00120953,-0.000933949,-0.166007,0.0380943,-2.51656,0,0,0,-0.000673532,0.00160022,-0.0279118,0.0663027,-2.51633,0,0,0,0,0,0,0,0,0,0,0.269478,0.169167,0,-1.5,7.77444e-38,0,0,0,-0.000673532,0.00160022,0,0,0,0,-0.0279118,0.0663027,1.9603e-19,0,0,0,0,0,0,0,0,0,2.5,-0.00320044
6494,1.58008,-0.287109,-6.90137,-0.00181835,0.000675584,4.80781e-05,-0.167356,0.0383351,-2.51729,0,0,0,-0.00130831,0.00310794,-0.0394207,0.0936317,-2.51704,0,0,0,0,0,0,0,0,0,0,0.27539,0.164921,0,-1.5,7.77444e-38,0,0,0,-0.00130831,0.00310794,0,0,0,0,-0.0394207,0.0936317,1.9603e-19,0,0,0,0,0,0,0,0,0,2.5,-0.00621589
6510,1.58008,-0.249023,-1.8877,-0.000788603,0.00147784,-0.000105848,-0.167444,0.0383567,-2.51734,0,0,0,-0.00209797,0.00498387,-0.0502769,0.119447,-2.51734,0,0,0,0,0,0,0,0,0,0,0.281283,0.160686,0,-1.5,7.77444e-38,0,0,0,-0.00209797,0.00498387,0,0,0,0,-0.0502769,0.119447,1.9603e-19,0,0,0,0,0,0,0,0,0,2.5,-0.00996774
6526,1.58008,-0.21582,1.71191,-0.00376879,0.000299824,0.000336649,-0.167486,0.0383651,-2.51734,0,0,0,-0.00294432,0.00699481,-0.0598044,0.142102,-2.51734,0,0,0,0,0,0,0,0,0,0,0.286695,0.156787,0,-1.5,7.77444e-38,0,0,0,-0.00294432,0.00699481,0,0,0,0,-0.0598044,0.142102,1.9603e-19,0,0,0,0,0,0,0,0,0,2.5,-0.0139896
6542,1.58008,-0.182617,-5.55957,-0.00674188,-0.000103779,-0.00142367,-0.167575,0.0383646,-2.51735,0,0,0,-0.00407922,0.00969165,-0.0705401,0.167627,-2.51735,0,0,0,0,0,0,0,0,0,0,0.292963,0.152272,0,-1.5,7.77444e-38,0,0,0,-0.00407922,0.00969165,0,0,0,0,-0.0705401,0.167627,1.9603e-19,0,0,0,0,0,0,0,0,0,2.5,-0.0193833
6563,1.58008,-0.116211,3.85645,0.00178647,0.00134075,0.00052525,-0.167612,0.0383635,-2.51736,0,0,0,-0.00575099,0.0136644,-0.0837172,0.198947,-2.51736,0,0,0,0,0,0,0,0,0,0,0.300927,0.146536,0,-1.5,7.77444e-38,0,0,0,-0.00575099,0.0136644,0,0,0,0,-0.0837172,0.198947,1.9603e-19,0,0,0,0,0,0,0,0,0,2.5,-0.0273289
6582,1.58008,-0.173828,5.45898,0.00177978,0.00185256,4.75237e-05,-0.167573,0.0383856,-2.51736,0,0,0,-0.00749685,0.0178134,-0.0955423,0.227057,-2.51736,0,0,0,0,0,0,0,0,0,0,0.308312,0.141216,0,-1.5,7.77444e-38,0,0,0,-0.00749685,0.0178134,0,0,0,0,-0.0955423,0.227057,1.9603e-19,0,0,0,0,0,0,0,0,0,2.5,-0.0356268
6599,1.58008,-0.306641,0.423828,-0.0036498,-2.01613e-05,-0.00286774,-0.167638,0.0383766,-2.51739,0,0,0,-0.00923666,0.0219483,-0.106038,0.252015,-2.51736,0,0,0,0,0,0,0,0,0,0,0.315053,0.136361,0,-1.5,7.77444e-38,0,0,0,-0.00923666,0.0219483,0,0,0,0,-0.106038,0.252015,1.9603e-19,0,0,0,0,0,0,0,0,0,2.5,-0.0438965
6615,1.58008,-0.335938,-6.89746,0.000491398,0.000125784,-0.000834395,-0.167643,0.0383741,-2.5174,0,0,0,-0.0110334,0.0262185,-0.115854,0.275352,-2.51739,0,0,0,0,0,0,0,0,0,0,0.32151,0.131713,0,-1.5,7.77444e-38,0,0,0,-0.0110334,0.0262185,0,0,0,0,-0.115854,0.275352,1.9603e-19,0,0,0,0,0,0,0,0,0,2.5,-0.052437
6631,1.57812,-0.302734,5.39941,0.00122138,0.00151248,-0.00108251,-0.167619,0.038395,-2.51742,0,0,0,-0.0129865,0.0308607,-0.125609,0.298543,-2.51742,0,0,0,0,0,0,0,0,0,0,0.328087,0.12698,0,-1.5,7.77444e-38,0,0,0,-0.0129865,0.0308607,0,0,0,0,-0.125609,0.298543,1.9603e-19,0,0,0,0,0,0,0,0,0,2.5,-0.0617214
6647,1.54492,-0.269531,4.05566,-0.000810241,0.00143318,-0.00111662,-0.167626,0.0384115,-2.51744,0,0,0,-0.0150951,0.0358724,-0.135296,0.321586,-2.51744,0,0,0,0,0,0,0,0,0,0,0.334789,0.122155,0,-1.5,7.77444e-38,0,0,0,-0.0150951,0.0358724,0,0,0,0,-0.135296,0.321586,1.9603e-19,0,0,0,0,0,0,0,0,0,2.5,-0.0717448
6660,1.51172,-0.236328,3.08691,-0.00451098,-0.000219701,-5.63222e-05,-0.167687,0.0384063,-2.51744,0,0,0,-0.016916,0.0402006,-0.14312,0.340198,-2.51744,0,0,0,0,0,0,0,0,0,0,0.340321,0.118171,0,-1.5,7.77444e-38,0,0,0,-0.016916,0.0402006,0,0,0,0,-0.14312,0.340198,1.9603e-19,0,0,0,0,0,0,0,0,0,2.5,-0.0804011
6690,1.45508,-0.178711,1.71191,-0.00138902,-8.77847e-05,-0.00022524,-0.167807,0.038389,-2.51744,0,0,0,-0.0216295,0.0514052,-0.161082,0.382912,-2.51744,0,0,0,0,0,0,0,0,0,0,0.353532,0.108656,0,-1.5,7.77444e-38,0,0,0,-0.0216295,0.0514052,0,0,0,0,-0.161082,0.382912,1.9603e-19,0,0,0,0,0,0,0,0,0,2.5,-0.10281
6717,1.48828,-0.178711,-5.55273,9.1474e-05,0.00139682,-4.35824e-05,-0.167806,0.0384045,-2.51745,0,0,0,-0.0262973,0.0625011,-0.177069,0.420908,-2.51745,0,0,0,0,0,0,0,0,0,0,0.365741,0.0998647,0,-1.5,7.77444e-38,0,0,0,-0.0262973,0.0625011,0,0,0,0,-0.177069,0.420908,1.9603e-19,0,0,0,0,0,0,0,0,0,2.5,-0.125002
6736,1.55469,-0.178711,3.83203,-0.00260012,0.000295752,-0.000732802,-0.167846,0.038405,-2.51746,0,0,0,-0.0298077,0.0708457,-0.188202,0.447373,-2.51746,0,0,0,0,0,0,0,0,0,0,0.374492,0.0935636,0,-1.5,7.77444e-38,0,0,0,-0.0298077,0.0708457,0,0,0,0,-0.188202,0.447373,1.9603e-19,0,0,0,0,0,0,0,0,0,2.5,-0.141691
6752,1.61621,-0.178711,-6.50879,-0.00267147,0.000289051,-0.000576431,-0.167946,0.0384003,-2.51748,0,0,0,-0.0329168,0.0782362,-0.19751,0.469498,-2.51746,0,0,0,0,0,0,0,0,0,0,0.381979,0.0881716,0,-1.5,7.77444e-38,0,0,0,-0.0329168,0.0782362,0,0,0,0,-0.19751,0.469498,1.9603e-19,0,0,0,0,0,0,0,0,0,2.5,-0.156472
6768,1.61621,-0.178711,0.43457,2.09866e-05,0.00182358,-0.000444512,-0.167945,0.0384125,-2.51749,0,0,0,-0.0361743,0.0859795,-0.206768,0.491495,-2.51749,0,0,0,0,0,0,0,0,0,0,0.389576,0.0827073,0,-1.5,7.77444e-38,0,0,0,-0.0361743,0.0859795,0,0,0,0,-0.206768,0.491495,1.9603e-19,0,0,0,0,0,0,0,0,0,2.5,-0.171959
6785,1.61621,-0.178711,0.43457,2.09866e-05,0.00182358,-0.000444512,-0.167945,0.0384125,-2.51749,0,0,0,-0.039797,0.0945906,-0.216538,0.514714,-2.51749,0,0,0,0,0,0,0,0,0,0,0.39778,0.0767992,0,-1.5,7.77444e-38,0,0,0,-0.039797,0.0945906,0,0,0,0,-0.216538,0.514714,1.9603e-19,0,0,0,0,0,0,0,0,0,2.5,-0.189181
6800,1.61133,-0.178711,5.43457,7.41825e-05,0.00165593,-0.00118417,-0.167879,0.0384506,-2.5175,0,0,0,-0.0431279,0.102508,-0.225098,0.535065,-2.5175,0,0,0,0,0,0,0,0,0,0,0.405118,0.0715173,0,-1.5,7.77444e-38,0,0,0,-0.0431279,0.102508,0,0,0,0,-0.225098,0.535065,1.9603e-19,0,0,0,0,0,0,0,0,0,2.5,-0.205017
6817,1.61133,-0.178711,5.43457,7.41825e-05,0.00165593,-0.00118417,-0.167879,0.0384506,-2.5175,0,0,0,-0.0470607,0.111857,-0.234732,0.557983,-2.5175,0,0,0,0,0,0,0,0,0,0,0.413561,0.0654377,0,-1.5,7.77444e-38,0,0,0,-0.0470607,0.111857,0,0,0,0,-0.234732,0.557983,1.9603e-19,0,0,0,0,0,0,0,0,0,2.5,-0.223714
6833,1.51172,-0.178711,-1.89648,-0.00208496,0.000678805,-0.000923645,-0.168064,0.038467,-2.51754,0,0,0,-0.0509083,0.121003,-0.243743,0.579417,-2.51752,0,0,0,0,0,0,0,0,0,0,0.421615,0.0596432,0,-1.5,7.77444e-38,0,0,0,-0.0509083,0.121003,0,0,0,0,-0.243743,0.579417,1.9603e-19,0,0,0,0,0,0,0,0,0,2.5,-0.242006
6849,1.47852,-0.178711,1.69727,0.00105214,0.00210556,0.00052268,-0.168044,0.0384931,-2.51754,0,0,0,-0.0548996,0.130491,-0.252704,0.600728,-2.51754,0,0,0,0,0,0,0,0,0,0,0.429784,0.053766,0,-1.5,7.77444e-38,0,0,0,-0.0548996,0.130491,0,0,0,0,-0.252704,0.600728,1.9603e-19,0,0,0,0,0,0,0,0,0,2.5,-0.260982
6865,1.45117,-0.178711,-5.58398,-0.000209565,0.000685126,0.000604843,-0.168046,0.0385048,-2.51753,0,0,0,-0.0587709,0.139694,-0.261049,0.620586,-2.51754,0,0,0,0,0,0,0,0,0,0,0.437548,0.0481753,0,-1.5,7.77444e-38,0,0,0,-0.0587709,0.139694,0,0,0,0,-0.261049,0.620586,1.9603e-19,0,0,0,0,0,0,0,0,0,2.5,-0.279388
6882,1.45117,-0.178711,4.80273,-0.00525624,-0.00129605,-0.00218361,-0.168104,0.0384827,-2.51756,0,0,0,-0.0635916,0.151155,-0.271004,0.644272,-2.51756,0,0,0,0,0,0,0,0,0,0,0.447,0.0413746,0,-1.5,7.77444e-38,0,0,0,-0.0635916,0.151155,0,0,0,0,-0.271004,0.644272,1.9603e-19,0,0,0,0,0,0,0,0,0,2.5,-0.302309
6899,1.45117,-0.178711,4.80273,-0.00525624,-0.00129605,-0.00218361,-0.168104,0.0384827,-2.51756,0,0,0,-0.0683015,0.162352,-0.280342,0.666484,-2.51756,0,0,0,0,0,0,0,0,0,0,0.456049,0.0348586,0,-1.5,7.77444e-38,0,0,0,-0.0683015,0.162352,0,0,0,0,-0.280342,0.666484,1.9603e-19,0,0,0,0,0,0,0,0,0,2.5,-0.324704
6915,1.5791,-0.178711,5.43262,0.000721707,0.00126555,-0.00079785,-0.168199,0.0384755,-2.51759,0,0,0,-0.0725859,0.172538,-0.288531,0.685959,-2.51759,0,0,0,0,0,0,0,0,0,0,0.464127,0.029053,0,-1.5,7.77444e-38,0,0,0,-0.0725859,0.172538,0,0,0,0,-0.288531,0.685959,1.9603e-19,0,0,0,0,0,0,0,0,0,2.5,-0.345075
6930,1.58984,-0.178711,0.431641,0.000733001,0.000654271,-0.0011359,-0.168149,0.038496,-2.51761,0,0,0,-0.0772937,0.18373,-0.297217,0.706613,-2.51759,0,0,0,0,0,0,0,0,0,0,0.472858,0.0227691,0,-1.5,7.77444e-38,0,0,0,-0.0772937,0.18373,0,0,0,0,-0.297217,0.706613,1.9603e-19,0,0,0,0,0,0,0,0,0,2.5,-0.36746
6947,1.58984,-0.178711,0.431641,0.000733001,0.000654271,-0.0011359,-0.168149,0.038496,-2.51761,0,0,0,-0.0824473,0.195983,-0.306381,0.728411,-2.51761,0,0,0,0,0,0,0,0,0,0,0.482249,0.0160118,0,-1.5,7.77444e-38,0,0,0,-0.0824473,0.195983,0,0,0,0,-0.306381,0.728411,1.9603e-19,0,0,0,0,0,0,0,0,0,2.5,-0.391965
6962,1.53027,-0.178711,5.43359,-0.00225655,0.000458472,-0.000849077,-0.168188,0.0384897,-2.51764,0,0,0,-0.0871208,0.207094,-0.314412,0.747518,-2.51764,0,0,0,0,0,0,0,0,0,0,0.490629,0.00998958,0,-1.5,7.77444e-38,0,0,0,-0.0871208,0.207094,0,0,0,0,-0.314412,0.747518,1.9603e-19,0,0,0,0,0,0,0,0,0,2.5,-0.414187
6979,1.49707,-0.178711,4.05273,-0.000888917,0.00103368,-0.000510871,-0.168198,0.0384981,-2.51765,0,0,0,-0.0925654,0.220039,-0.323461,0.769043,-2.51765,0,0,0,0,0,0,0,0,0,0,0.500248,0.00306834,0,-1.5,7.77444e-38,0,0,0,-0.0925654,0.220039,0,0,0,0,-0.323461,0.769043,1.9603e-19,0,0,0,0,0,0,0,0,0,2.5,-0.440077
6995,1.46387,-0.178711,3.08105,-0.00139609,-0.000245447,-0.00153649,-0.168213,0.0383301,-2.51758,0,0,0,-0.0974942,0.231757,-0.331402,0.787908,-2.51758,0,0,0,0,0,0,0,0,0,0,0.508842,-0.00314469,0,-1.5,7.77444e-38,0,0,0,-0.0974942,0.231757,0,0,0,0,-0.331402,0.787908,1.9603e-19,0,0,0,0,0,0,0,0,0,2.5,-0.463514
7011,1.43457,-0.178711,-1.91504,-0.00135033,0.000305821,-0.000999443,-0.168233,0.0384952,-2.51767,0,0,0,-0.10323,0.245393,-0.340355,0.809156,-2.51767,0,0,0,0,0,0,0,0,0,0,0.518671,-0.0101842,0,-1.5,7.77444e-38,0,0,0,-0.10323,0.245393,0,0,0,0,-0.340355,0.809156,1.9603e-19,0,0,0,0,0,0,0,0,0,2.5,-0.490786
7027,1.44336,-0.178711,-5.55176,-0.00150497,0.00131265,-0.000222545,-0.16825,0.0385072,-2.51768,0,0,0,-0.108763,0.258548,-0.34871,0.829032,-2.51768,0,0,0,0,0,0,0,0,0,0,0.52804,-0.0169239,0,-1.5,7.77444e-38,0,0,0,-0.108763,0.258548,0,0,0,0,-0.34871,0.829032,1.9603e-19,0,0,0,0,0,0,0,0,0,2.5,-0.517096
7043,1.47656,-0.178711,4.82031,-0.00322937,0.000808258,-0.00131305,-0.16828,0.0385159,-2.5177,0,0,0,-0.11443,0.27202,-0.357012,0.848783,-2.51768,0,0,0,0,0,0,0,0,0,0,0.537514,-0.0237425,0,-1.5,7.77444e-38,0,0,0,-0.11443,0.27202,0,0,0,0,-0.357012,0.848783,1.9603e-19,0,0,0,0,0,0,0,0,0,2.5,-0.544041
7059,1.50977,-0.178711,3.83789,-0.00658598,-0.000485946,-0.000893316,-0.168374,0.0385026,-2.51772,0,0,0,-0.120229,0.285807,-0.365263,0.868415,-2.51772,0,0,0,0,0,0,0,0,0,0,0.547087,-0.0306176,0,-1.5,7.77444e-38,0,0,0,-0.120229,0.285807,0,0,0,0,-0.365263,0.868415,1.9603e-19,0,0,0,0,0,0,0,0,0,2.5,-0.571614
7075,1.54297,-0.178711,5.48145,-0.00585228,-0.000249826,-0.00102999,-0.168466,0.0384916,-2.51773,0,0,0,-0.126159,0.299907,-0.373473,0.887934,-2.51773,0,0,0,0,0,0,0,0,0,0,0.556768,-0.0375803,0,-1.5,7.77444e-38,0,0,0,-0.126159,0.299907,0,0,0,0,-0.373473,0.887934,1.9603e-19,0,0,0,0,0,0,0,0,0,2.5,-0.599814
7088,1.54297,-0.178711,5.48145,-0.00585228,-0.000249826,-0.00102999,-0.168466,0.0384916,-2.51773,0,0,0,-0.131067,0.311575,-0.380107,0.903701,-2.51773,0,0,0,0,0,0,0,0,0,0,0.564703,-0.0432912,0,-1.5,7.77444e-38,0,0,0,-0.131067,0.311575,0,0,0,0,-0.380107,0.903701,1.9603e-19,0,0,0,0,0,0,0,0,0,2.5,-0.62315
7105,1.60156,-0.224609,0.448242,0.00535627,0.00185426,-0.000230208,-0.168394,0.0385171,-2.51775,0,0,0,-0.137624,0.327164,-0.38873,0.924202,-2.51775,0,0,0,0,0,0,0,0,0,0,0.575186,-0.0508285,0,-1.5,7.77444e-38,0,0,0,-0.137624,0.327164,0,0,0,0,-0.38873,0.924202,1.9603e-19,0,0,0,0,0,0,0,0,0,2.5,-0.654328
7120,1.60156,-0.224609,0.448242,0.00535627,0.00185426,-0.000230208,-0.168394,0.0385171,-2.51775,0,0,0,-0.143526,0.341196,-0.396283,0.942168,-2.51775,0,0,0,0,0,0,0,0,0,0,0.584526,-0.0575507,0,-1.5,7.77444e-38,0,0,0,-0.143526,0.341196,0,0,0,0,-0.396283,0.942168,1.9603e-19,0,0,0,0,0,0,0,0,0,2.5,-0.682392
7135,1.60156,-0.291016,5.43164,-0.00230777,0.000533796,-0.000133436,-0.168387,0.0385517,-2.51778,0,0,0,-0.149541,0.355497,-0.403788,0.960028,-2.51778,0,0,0,0,0,0,0,0,0,0,0.593951,-0.0643204,0,-1.5,7.77444e-38,0,0,0,-0.149541,0.355497,0,0,0,0,-0.403788,0.960028,1.9603e-19,0,0,0,0,0,0,0,0,0,2.5,-0.710993
7151,1.54297,-0.316406,3.09082,-0.0059884,0.000294414,-0.000502942,-0.168553,0.0385324,-2.51779,0,0,0,-0.156083,0.37105,-0.411742,0.978964,-2.51778,0,0,0,0,0,0,0,0,0,0,0.604105,-0.0716284,0,-1.5,7.77444e-38,0,0,0,-0.156083,0.37105,0,0,0,0,-0.411742,0.978964,1.9603e-19,0,0,0,0,0,0,0,0,0,2.5,-0.7421
7167,1.50977,-0.316406,-1.89355,-0.00348882,0.00117685,-0.00071093,-0.168614,0.0385322,-2.51781,0,0,0,-0.162751,0.386906,-0.419654,0.99779,-2.51779,0,0,0,0,0,0,0,0,0,0,0.609027,-0.0751609,0,-1.5,7.77444e-38,0,0,0,-0.162751,0.386906,0,0,0,0,-0.419654,0.99779,1.9603e-19,0,0,0,0,0,0,0,0,0,2.5,-0.773811
7183,1.47656,-0.254883,1.71484,0.00285915,0.00173592,0.000760042,-0.16859,0.0385507,-2.51781,0,0,0,-0.169548,0.403067,-0.42753,1.01651,-2.51781,0,0,0,0,0,0,0,0,0,0,0.609025,-0.0751501,0,-1.5,7.77444e-38,0,0,0,-0.169548,0.403067,0,0,0,0,-0.42753,1.01651,1.9603e-19,0,0,0,0,0,0,0,0,0,2.5,-0.806134
7199,1.45605,-0.188477,-5.54688,0.00426046,0.00170548,-0.000576941,-0.168537,0.0385734,-2.51782,0,0,0,-0.176469,0.419521,-0.435348,1.03511,-2.51782,0,0,0,0,0,0,0,0,0,0,0.609024,-0.0751448,0,-1.5,7.77444e-38,0,0,0,-0.176469,0.419521,0,0,0,0,-0.435348,1.03511,1.9603e-19,0,0,0,0,0,0,0,0,0,2.5,-0.839042
7216,1.52246,-0.125977,4.82031,-0.00133502,0.000992448,-6.30031e-05,-0.16854,0.0385867,-2.51782,0,0,0,-0.18396,0.437334,-0.443594,1.05475,-2.51782,0,0,0,0,0,0,0,0,0,0,0.609024,-0.075142,0,-1.5,7.77444e-38,0,0,0,-0.18396,0.437334,0,0,0,0,-0.443594,1.05475,1.9603e-19,0,0,0,0,0,0,0,0,0,2.5,-0.874668
7231,1.58887,-0.135742,3.84277,-0.00662959,-0.000849035,-0.00144256,-0.16862,0.0385628,-2.51785,0,0,0,-0.190684,0.453322,-0.450825,1.07196,-2.51785,0,0,0,0,0,0,0,0,0,0,0.609021,-0.0751256,0,-1.5,7.77444e-38,0,0,0,-0.190684,0.453322,0,0,0,0,-0.450825,1.07196,1.9603e-19,0,0,0,0,0,0,0,0,0,2.5,-0.906644
7248,1.61328,-0.202148,-6.53027,-0.00291134,0.000281863,-0.000334292,-0.16874,0.0385595,-2.51787,0,0,0,-0.198438,0.471759,-0.458978,1.09136,-2.51786,0,0,0,0,0,0,0,0,0,0,0.60902,-0.0751179,0,-1.5,7.77444e-38,0,0,0,-0.198438,0.471759,0,0,0,0,-0.458978,1.09136,1.9603e-19,0,0,0,0,0,0,0,0,0,2.5,-0.943518
7264,1.61328,-0.235352,0.412109,0.000196154,0.000445027,-0.00125228,-0.168733,0.0385646,-2.51788,0,0,0,-0.205392,0.488294,-0.466131,1.10837,-2.51787,0,0,0,0,0,0,0,0,0,0,0.609019,-0.0751119,0,-1.5,7.77444e-38,0,0,0,-0.205392,0.488294,0,0,0,0,-0.466131,1.10837,1.9603e-19,0,0,0,0,0,0,0,0,0,2.5,-0.976588
7279,1.61328,-0.268555,-6.8877,0.00219073,0.00192755,-0.000626649,-0.168706,0.0385888,-2.5179,0,0,0,-0.21293,0.506218,-0.473714,1.12641,-2.5179,0,0,0,0,0,0,0,0,0,0,0.609017,-0.0750969,0,-1.5,7.77444e-38,0,0,0,-0.21293,0.506218,0,0,0,0,-0.473714,1.12641,1.9603e-19,0,0,0,0,0,0,0,0,0,2.5,-1.01244
7295,1.61328,-0.301758,5.4375,0.000696884,0.00187019,3.1174e-05,-0.168692,0.0386104,-2.51791,0,0,0,-0.220586,0.524423,-0.481242,1.14433,-2.51791,0,0,0,0,0,0,0,0,0,0,0.609016,-0.0750916,0,-1.5,7.77444e-38,0,0,0,-0.220586,0.524423,0,0,0,0,-0.481242,1.14433,1.9603e-19,0,0,0,0,0,0,0,0,0,2.5,-1.04885
7311,1.61035,-0.28125,4.08789,-0.00214642,0.000225575,0.000172981,-0.168706,0.0386129,-2.51791,0,0,0,-0.228364,0.542919,-0.48872,1.16213,-2.51791,0,0,0,0,0,0,0,0,0,0,0.609016,-0.0750919,0,-1.5,7.77444e-38,0,0,0,-0.228364,0.542919,0,0,0,0,-0.48872,1.16213,1.9603e-19,0,0,0,0,0,0,0,0,0,2.5,-1.08584
7328,1.57715,-0.248047,3.08594,-0.00454148,-0.0014566,-0.000504375,-0.168773,0.0386017,-2.51792,0,0,0,-0.23676,0.562882,-0.496616,1.18094,-2.51792,0,0,0,0,0,0,0,0,0,0,0.609015,-0.0750865,0,-1.5,7.77444e-38,0,0,0,-0.23676,0.562882,0,0,0,0,-0.496616,1.18094,1.9603e-19,0,0,0,0,0,0,0,0,0,2.5,-1.12576
7343,1.54395,-0.214844,-1.89453,-0.00529761,-0.00188882,-0.00023747,-0.168839,0.038584,-2.51791,0,0,0,-0.244274,0.580752,-0.503545,1.19742,-2.51791,0,0,0,0,0,0,0,0,0,0,0.609015,-0.0750877,0,-1.5,7.77444e-38,0,0,0,-0.244274,0.580752,0,0,0,0,-0.503545,1.19742,1.9603e-19,0,0,0,0,0,0,0,0,0,2.5,-1.1615
7358,1.47754,-0.177734,-5.56738,0.00262891,0.00247464,9.64689e-05,-0.168838,0.038596,-2.51793,0,0,0,-0.251892,0.598867,-0.510438,1.21382,-2.51792,0,0,0,0,0,0,0,0,0,0,0.609014,-0.0750812,0,-1.5,7.77444e-38,0,0,0,-0.251892,0.598867,0,0,0,0,-0.510438,1.21382,1.9603e-19,0,0,0,0,0,0,0,0,0,2.5,-1.19773
7374,1.47559,-0.177734,4.83496,0.00136628,0.00179097,-0.000220141,-0.168801,0.0386184,-2.51794,0,0,0,-0.260136,0.618471,-0.517746,1.2312,-2.51793,0,0,0,0,0,0,0,0,0,0,0.609014,-0.0750783,0,-1.5,7.77444e-38,0,0,0,-0.260136,0.618471,0,0,0,0,-0.517746,1.2312,1.9603e-19,0,0,0,0,0,0,0,0,0,2.5,-1.23694
7390,1.50879,-0.177734,3.875,-0.00128428,0.0011805,-8.59905e-05,-0.168802,0.0386243,-2.51795,0,0,0,-0.268494,0.638346,-0.524997,1.24846,-2.51795,0,0,0,0,0,0,0,0,0,0,0.609012,-0.0750672,0,-1.5,7.77444e-38,0,0,0,-0.268494,0.638346,0,0,0,0,-0.524997,1.24846,1.9603e-19,0,0,0,0,0,0,0,0,0,2.5,-1.27669
7406,1.54199,-0.177734,5.45508,-0.0037101,-0.000459341,-0.000958114,-0.168844,0.0386058,-2.51796,0,0,0,-0.276967,0.658497,-0.532203,1.26562,-2.51796,0,0,0,0,0,0,0,0,0,0,0.609011,-0.0750607,0,-1.5,7.77444e-38,0,0,0,-0.276967,0.658497,0,0,0,0,-0.532203,1.26562,1.9603e-19,0,0,0,0,0,0,0,0,0,2.5,-1.31699
7422,1.54199,-0.177734,5.45508,-0.0037101,-0.000459341,-0.000958114,-0.168844,0.0386058,-2.51796,0,0,0,-0.285556,0.678921,-0.539367,1.28267,-2.51796,0,0,0,0,0,0,0,0,0,0,0.609011,-0.0750607,0,-1.5,7.77444e-38,0,0,0,-0.285556,0.678921,0,0,0,0,-0.539367,1.28267,1.9603e-19,0,0,0,0,0,0,0,0,0,2.5,-1.35784
7438,1.6084,-0.177734,0.418945,-0.00328053,0.000455705,-0.000694612,-0.168996,0.0386008,-2.51799,0,0,0,-0.294258,0.699616,-0.546491,1.29962,-2.51799,0,0,0,0,0,0,0,0,0,0,0.609008,-0.0750438,0,-1.5,7.77444e-38,0,0,0,-0.294258,0.699616,0,0,0,0,-0.546491,1.29962,1.9603e-19,0,0,0,0,0,0,0,0,0,2.5,-1.39923
7454,1.6084,-0.177734,0.418945,-0.00328053,0.000455705,-0.000694612,-0.168996,0.0386008,-2.51799,0,0,0,-0.303074,0.720582,-0.553578,1.31647,-2.51799,0,0,0,0,0,0,0,0,0,0,0.609008,-0.0750438,0,-1.5,7.77444e-38,0,0,0,-0.303074,0.720582,0,0,0,0,-0.553578,1.31647,1.9603e-19,0,0,0,0,0,0,0,0,0,2.5,-1.44116
7470,1.53027,-0.177734,4.05176,-0.000347482,0.00224674,-0.000381385,-0.168701,0.0385742,-2.51782,0,0,0,-0.312003,0.741816,-0.560614,1.33322,-2.51801,0,0,0,0,0,0,0,0,0,0,0.609006,-0.0750296,0,-1.5,7.77444e-38,0,0,0,-0.312003,0.741816,0,0,0,0,-0.560614,1.33322,1.9603e-19,0,0,0,0,0,0,0,0,0,2.5,-1.48363
7486,1.46387,-0.177734,3.11621,-0.00702323,-0.00123422,-0.00206678,-0.168963,0.0386398,-2.51802,0,0,0,-0.321046,0.763323,-0.567595,1.34983,-2.51782,0,0,0,0,0,0,0,0,0,0,0.609024,-0.075143,0,-1.5,7.77444e-38,0,0,0,-0.321046,0.763323,0,0,0,0,-0.567595,1.34983,1.9603e-19,0,0,0,0,0,0,0,0,0,2.5,-1.52665
7502,1.45117,-0.177734,-1.86035,-0.00841815,-0.000855324,-0.00127058,-0.169091,0.0386227,-2.51804,0,0,0,-0.330199,0.785088,-0.574542,1.36637,-2.51804,0,0,0,0,0,0,0,0,0,0,0.609003,-0.0750125,0,-1.5,7.77444e-38,0,0,0,-0.330199,0.785088,0,0,0,0,-0.574542,1.36637,1.9603e-19,0,0,0,0,0,0,0,0,0,2.5,-1.57018
7517,1.45117,-0.177734,-1.86035,-0.00841815,-0.000855324,-0.00127058,-0.169091,0.0386227,-2.51804,0,0,0,-0.33888,0.805733,-0.581024,1.38178,-2.51804,0,0,0,0,0,0,0,0,0,0,0.609003,-0.0750125,0,-1.5,7.77444e-38,0,0,0,-0.33888,0.805733,0,0,0,0,-0.581024,1.38178,1.9603e-19,0,0,0,0,0,0,0,0,0,2.5,-1.61147
7533,1.58398,-0.177734,-5.52051,0.0025968,0.0033601,-0.000240344,-0.169086,0.0386498,-2.51805,0,0,0,-0.348246,0.828008,-0.587893,1.39813,-2.51805,0,0,0,0,0,0,0,0,0,0,0.609001,-0.0750032,0,-1.5,7.77444e-38,0,0,0,-0.348246,0.828008,0,0,0,0,-0.587893,1.39813,1.9603e-19,0,0,0,0,0,0,0,0,0,2.5,-1.65602
7550,1.58398,-0.177734,-5.52051,0.0025968,0.0033601,-0.000240344,-0.169086,0.0386498,-2.51805,0,0,0,-0.35832,0.851967,-0.595142,1.41538,-2.51805,0,0,0,0,0,0,0,0,0,0,0.609001,-0.0750032,0,-1.5,7.77444e-38,0,0,0,-0.35832,0.851967,0,0,0,0,-0.595142,1.41538,1.9603e-19,0,0,0,0,0,0,0,0,0,2.5,-1.70393
7565,1.59375,-0.177734,3.82227,-0.00278731,0.000135865,-0.0004615,-0.169089,0.0386779,-2.51807,0,0,0,-0.367307,0.87334,-0.601494,1.43051,-2.51807,0,0,0,0,0,0,0,0,0,0,0.609,-0.0749932,0,-1.5,7.77444e-38,0,0,0,-0.367307,0.87334,0,0,0,0,-0.601494,1.43051,1.9603e-19,0,0,0,0,0,0,0,0,0,2.5,-1.74668
7581,1.52734,-0.177734,-6.50977,0.00119305,0.00131104,-0.0019691,-0.169124,0.0386873,-2.51809,0,0,0,-0.377002,0.896396,-0.608229,1.44655,-2.51808,0,0,0,0,0,0,0,0,0,0,0.608999,-0.0749887,0,-1.5,7.77444e-38,0,0,0,-0.377002,0.896396,0,0,0,0,-0.608229,1.44655,1.9603e-19,0,0,0,0,0,0,0,0,0,2.5,-1.79279
7597,1.49414,-0.177734,0.415039,-0.000592643,0.00112062,-0.000449756,-0.169126,0.0386968,-2.5181,0,0,0,-0.386804,0.919709,-0.614921,1.46249,-2.5181,0,0,0,0,0,0,0,0,0,0,0.608997,-0.0749758,0,-1.5,7.77444e-38,0,0,0,-0.386804,0.919709,0,0,0,0,-0.614921,1.46249,1.9603e-19,0,0,0,0,0,0,0,0,0,2.5,-1.83942
7613,1.46094,-0.177734,-6.86328,-0.00538639,-0.000778658,-0.00137531,-0.169198,0.03869,-2.51811,0,0,0,-0.396712,0.943275,-0.62157,1.47834,-2.51811,0,0,0,0,0,0,0,0,0,0,0.608995,-0.0749662,0,-1.5,7.77444e-38,0,0,0,-0.396712,0.943275,0,0,0,0,-0.62157,1.47834,1.9603e-19,0,0,0,0,0,0,0,0,0,2.5,-1.88655
7629,1.49023,-0.195312,5.40918,-0.00139237,-0.00271649,-0.00947716,-0.169252,0.0386722,-2.51817,0,0,0,-0.406727,0.967094,-0.628185,1.49409,-2.51817,0,0,0,0,0,0,0,0,0,0,0.60899,-0.0749337,0,-1.5,7.77444e-38,0,0,0,-0.406727,0.967094,0,0,0,0,-0.628185,1.49409,1.9603e-19,0,0,0,0,0,0,0,0,0,2.5,-1.93419
7646,2.11328,-1.47949,4.01855,1.07494,0.494786,-1.4182,-0.162053,0.0405193,-2.53169,0,0,0,-0.417481,0.992676,-0.634708,1.51048,-2.53169,0,0,0,0,0,0,0,0,0,0,0.607588,-0.0667064,0,-1.5,7.77444e-38,0,0,0,-0.417481,0.992676,0,0,0,0,-0.634708,1.51048,1.9603e-19,0,0,0,0,0,0,0,0,0,2.5,-1.98535
7662,-0.108398,-1.01953,-2.15234,0.904737,0.61467,-2.88344,-0.136846,0.0414745,-2.61347,0,0,0,-0.427687,1.01699,-0.639166,1.52441,-2.57292,0,0,0,0,0,0,0,0,0,0,0.602631,-0.0417545,0,-1.5,7.77444e-38,0,0,0,-0.427687,1.01699,0,0,0,0,-0.639166,1.52441,1.9603e-19,0,0,0,0,0,0,0,0,0,2.5,-2.03398
7678,0.0654297,-1.09375,-1.20605,1.71479,0.342663,-2.35918,-0.114535,0.039898,-2.64893,0,0,0,-0.437943,1.04151,-0.641393,1.53677,-2.61347,0,0,0,0,0,0,0,0,0,0,0.596756,-0.0174322,0,-1.5,7.77444e-38,0,0,0,-0.437943,1.04151,0,0,0,0,-0.641393,1.53677,1.9603e-19,0,0,0,0,0,0,0,0,0,2.5,-2.08303
7694,0.204102,-0.90332,0.55957,2.28733,0.161342,-1.5094,-0.0861041,0.0410797,-2.67187,0,0,0,-0.448193,1.06619,-0.639945,1.54529,-2.67187,0,0,0,0,0,0,0,0,0,0,0.586575,0.0171315,0,-1.5,7.77444e-38,0,0,0,-0.448193,1.06619,0,0,0,0,-0.639945,1.54529,1.9603e-19,0,0,0,0,0,0,0,0,0,2.5,-2.13238
7710,1.00977,-0.277344,6.44434,2.78672,-0.0156886,-0.780711,-0.0485938,0.0404449,-2.68421,0,0,0,-0.458391,1.09097,-0.635548,1.54905,-2.68421,0,0,0,0,0,0,0,0,0,0,0.584166,0.0243546,0,-1.5,7.77444e-38,0,0,0,-0.458391,1.09097,0,0,0,0,-0.635548,1.54905,1.9603e-19,0,0,0,0,0,0,0,0,0,2.5,-2.18193
7726,1.0498,0.929688,-0.335938,2.11706,-0.037354,0.167733,-0.0164516,0.0396682,-2.68387,0,0,0,-0.468492,1.11574,-0.628372,1.54708,-2.68387,0,0,0,0,0,0,0,0,0,0,0.584235,0.0241532,0,-1.5,7.77444e-38,0,0,0,-0.468492,1.11574,0,0,0,0,-0.628372,1.54708,1.9603e-19,0,0,0,0,0,0,0,0,0,2.5,-2.23148
7742,1.9375,1.71582,-1.48438,-0.535075,0.228583,0.0324015,-0.0154345,0.0388599,-2.68168,0,0,0,-0.47846,1.14045,-0.619948,1.54217,-2.68168,0,0,0,0,0,0,0,0,0,0,0.584667,0.022876,0,-1.5,7.77444e-38,0,0,0,-0.47846,1.14045,0,0,0,0,-0.619948,1.54217,1.9603e-19,0,0,0,0,0,0,0,0,0,2.5,-2.28089
7757,2.15625,0.988281,-2.34082,-0.0197156,-0.00598613,0.811425,-0.0229728,0.0404765,-2.67252,0,0,0,-0.487684,1.16353,-0.612261,1.53796,-2.67252,0,0,0,0,0,0,0,0,0,0,0.586452,0.0175076,0,-1.5,7.77444e-38,0,0,0,-0.487684,1.16353,0,0,0,0,-0.612261,1.53796,1.9603e-19,0,0,0,0,0,0,0,0,0,2.5,-2.32707
7774,-1.1748,-0.170898,5.58789,-0.0990962,0.00334746,0.400775,-0.0170532,0.0389471,-2.65332,0,0,0,-0.497996,1.18963,-0.603758,1.53364,-2.65973,0,0,0,0,0,0,0,0,0,0,0.588857,0.00999535,0,-1.5,7.77444e-38,0,0,0,-0.497996,1.18963,0,0,0,0,-0.603758,1.53364,1.9603e-19,0,0,0,0,0,0,0,0,0,2.5,-2.37927
7790,-2.51953,-0.398438,-0.617188,-1.06075,-0.0140324,0.418739,-0.027325,0.039366,-2.64862,0,0,0,-0.507572,1.21412,-0.595821,1.52922,-2.64862,0,0,0,0,0,0,0,0,0,0,0.59087,0.00344355,0,-1.5,7.77444e-38,0,0,0,-0.507572,1.21412,0,0,0,0,-0.595821,1.52922,1.9603e-19,0,0,0,0,0,0,0,0,0,2.5,-2.42825
7806,-3.7002,-1.30371,7.24707,-2.67753,-0.0023515,1.02288,-0.061574,0.0402626,-2.63562,0,0,0,-0.517031,1.23856,-0.589251,1.52735,-2.63562,0,0,0,0,0,0,0,0,0,0,0.593133,-0.00425527,0,-1.5,7.77444e-38,0,0,0,-0.517031,1.23856,0,0,0,0,-0.589251,1.52735,1.9603e-19,0,0,0,0,0,0,0,0,0,2.5,-2.47712
7823,-3.7002,-1.30371,7.24707,-2.67753,-0.0023515,1.02288,-0.061574,0.0402626,-2.63562,0,0,0,-0.52641,1.26302,-0.584643,1.5291,-2.63562,0,0,0,0,0,0,0,0,0,0,0.593133,-0.00425527,0,-1.5,7.77444e-38,0,0,0,-0.52641,1.26302,0,0,0,0,-0.584643,1.5291,1.9603e-19,0,0,0,0,0,0,0,0,0,2.5,-2.5
7838,1.85938,-0.611328,-5.79492,-2.26849,-0.251785,1.26635,-0.137657,0.0393316,-2.60033,0,0,0,-0.535727,1.28752,-0.582572,1.53469,-2.60033,0,0,0,0,0,0,0,0,0,0,0.598769,-0.0252914,0,-1.5,7.77444e-38,0,0,0,-0.535727,1.28752,0,0,0,0,-0.582572,1.53469,1.9603e-19,0,0,0,0,0,0,0,0,0,2.5,-2.5
7855,1.85938,-0.611328,-5.79492,-2.26849,-0.251785,1.26635,-0.137657,0.0393316,-2.60033,0,0,0,-0.545655,1.31375,-0.584817,1.54736,-2.60033,0,0,0,0,0,0,0,0,0,0,0.598769,-0.0252914,0,-1.5,7.77444e-38,0,0,0,-0.545655,1.31375,0,0,0,0,-0.584817,1.54736,1.9603e-19,0,0,0,0,0,0,0,0,0,2.5,-2.5
7871,3.19336,0.705078,0.417969,1.73411,-0.0162084,0.992203,-0.111507,0.0424276,-2.55434,0,0,0,-0.554447,1.33706,-0.586964,1.55839,-2.56772,0,0,0,0,0,0,0,0,0,0,0.603313,-0.0448901,0,-1.5,7.77444e-38,0,0,0,-0.554447,1.33706,0,0,0,0,-0.586964,1.55839,1.9603e-19,0,0,0,0,0,0,0,0,0,2.5,-2.5
7887,1.31055,-0.234375,-5.80273,1.07708,0.0223254,1.18051,-0.094149,0.0435867,-2.5388,0,0,0,-0.564448,1.36368,-0.588291,1.56857,-2.5388,0,0,0,0,0,0,0,0,0,0,0.606807,-0.06239,0,-1.5,7.77444e-38,0,0,0,-0.564448,1.36368,0,0,0,0,-0.588291,1.56857,1.9603e-19,0,0,0,0,0,0,0,0,0,2.5,-2.5
7903,1.17578,-0.327148,5.77539,0.487457,0.0183063,1.25958,-0.0860838,0.0454583,-2.5214,0,0,0,-0.57385,1.38884,-0.587095,1.57438,-2.5214,0,0,0,0,0,0,0,0,0,0,0.608665,-0.0729636,0,-1.5,7.77444e-38,0,0,0,-0.57385,1.38884,0,0,0,0,-0.587095,1.57438,1.9603e-19,0,0,0,0,0,0,0,0,0,2.5,-2.5
7919,1.17578,-0.327148,5.77539,0.487457,0.0183063,1.25958,-0.0860838,0.0454583,-2.5214,0,0,0,-0.583225,1.41408,-0.585387,1.57946,-2.5214,0,0,0,0,0,0,0,0,0,0,0.608665,-0.0729636,0,-1.5,7.77444e-38,0,0,0,-0.583225,1.41408,0,0,0,0,-0.585387,1.57946,1.9603e-19,0,0,0,0,0,0,0,0,0,2.5,-2.5
7935,0.463867,0.639648,5.88379,0.365992,0.22926,1.2609,-0.0751245,0.0521531,-2.48628,0,0,0,-0.592572,1.43941,-0.583183,1.58421,-2.48628,0,0,0,0,0,0,0,0,0,0,0.611853,-0.0943981,0,-1.5,7.77444e-38,0,0,0,-0.592572,1.43941,0,0,0,0,-0.583183,1.58421,1.9603e-19,0,0,0,0,0,0,0,0,0,2.5,-2.5
7951,0.463867,0.639648,5.88379,0.365992,0.22926,1.2609,-0.0751245,0.0521531,-2.48628,0,0,0,-0.601871,1.4648,-0.58015,1.58843,-2.48628,0,0,0,0,0,0,0,0,0,0,0.611853,-0.0943981,0,-1.5,7.77444e-38,0,0,0,-0.601871,1.4648,0,0,0,0,-0.58015,1.58843,1.9603e-19,0,0,0,0,0,0,0,0,0,2.5,-2.5
7967,0.668945,-0.046875,4.54883,-1.00266,-1.28406,-0.566228,-0.090592,0.0250212,-2.47274,0,0,0,-0.611125,1.49025,-0.577865,1.5923,-2.4678,0,0,0,0,0,0,0,0,0,0,0.613228,-0.10572,0,-1.5,7.77444e-38,0,0,0,-0.611125,1.49025,0,0,0,0,-0.577865,1.5923,1.9603e-19,0,0,0,0,0,0,0,0,0,2.5,-2.5
7983,1.73926,0.439453,-3.15723,-0.957701,-2.27849,-1.00097,-0.104169,-0.00544019,-2.48309,0,0,0,-0.62037,1.51577,-0.578549,1.59567,-2.47274,0,0,0,0,0,0,0,0,0,0,0.612881,-0.102691,0,-1.5,7.77444e-38,0,0,0,-0.62037,1.51577,0,0,0,0,-0.578549,1.59567,1.9603e-19,0,0,0,0,0,0,0,0,0,2.5,-2.5
8000,2.73242,0.992188,-6.03711,-0.601119,-1.53865,-0.792761,-0.113926,-0.0280729,-2.4929,0,0,0,-0.629703,1.54132,-0.586444,1.59767,-2.4929,0,0,0,0,0,0,0,0,0,0,0.61131,-0.0903509,0,-1.5,7.77444e-38,0,0,0,-0.629703,1.54132,0,0,0,0,-0.586444,1.59767,1.9603e-19,0,0,0,0,0,0,0,0,0,2.5,-2.5
8015,2.73242,0.992188,-6.03711,-0.601119,-1.53865,-0.792761,-0.113926,-0.0280729,-2.4929,0,0,0,-0.639194,1.5669,-0.59702,1.59905,-2.4929,0,0,0,0,0,0,0,0,0,0,0.61131,-0.0903509,0,-1.5,7.77444e-38,0,0,0,-0.639194,1.5669,0,0,0,0,-0.59702,1.59905,1.9603e-19,0,0,0,0,0,0,0,0,0,2.5,-2.5
8030,3.44434,1.58984,4.17871,0.221621,-0.558472,0.476194,-0.118256,-0.0550068,-2.48789,0,0,0,-0.64825,1.59089,-0.608558,1.59942,-2.48789,0,0,0,0,0,0,0,0,0,0,0.611723,-0.093416,0,-1.5,7.77444e-38,0,0,0,-0.64825,1.59089,0,0,0,0,-0.608558,1.59942,1.9603e-19,0,0,0,0,0,0,0,0,0,2.5,-2.5
8046,3.48438,1.41406,-4.32617,1.02655,0.0806121,0.838444,-0.106712,-0.0541749,-2.47648,0,0,0,-0.658131,1.61647,-0.622418,1.5981,-2.47648,0,0,0,0,0,0,0,0,0,0,0.612608,-0.100399,0,-1.5,7.77444e-38,0,0,0,-0.658131,1.61647,0,0,0,0,-0.622418,1.5981,1.9603e-19,0,0,0,0,0,0,0,0,0,2.5,-2.5
8062,3.40918,1.75,-1.20508,1.79974,0.694054,0.876034,-0.0839499,-0.044642,-2.46492,0,0,0,-0.668218,1.64201,-0.634236,1.59506,-2.46492,0,0,0,0,0,0,0,0,0,0,0.613423,-0.107487,0,-1.5,7.77444e-38,0,0,0,-0.668218,1.64201,0,0,0,0,-0.634236,1.59506,1.9603e-19,0,0,0,0,0,0,0,0,0,2.5,-2.5
8082,3.70801,1.94043,-2.7666,2.23326,0.97718,0.848206,-0.0550765,-0.0310962,-2.45432,0,0,0,-0.681066,1.67384,-0.644634,1.58881,-2.45432,0,0,0,0,0,0,0,0,0,0,0.614098,-0.113989,0,-1.5,7.77444e-38,0,0,0,-0.681066,1.67384,0,0,0,0,-0.644634,1.58881,1.9603e-19,0,0,0,0,0,0,0,0,0,2.5,-2.5
8098,5.58496,2.1543,-4.68945,2.04099,1.15542,0.984962,0.00414467,-0.000598873,-2.43009,0,0,0,-0.691418,1.69918,-0.646158,1.58069,-2.43009,0,0,0,0,0,0,0,0,0,0,0.615383,-0.12889,0,-1.5,7.77444e-38,0,0,0,-0.691418,1.69918,0,0,0,0,-0.646158,1.58069,1.9603e-19,0,0,0,0,0,0,0,0,0,2.5,-2.5
8115,5.93945,2.05664,-6.85254,1.64614,1.24708,1.16159,0.0270778,0.015947,-2.41402,0,0,0,-0.702341,1.72593,-0.639501,1.56897,-2.41402,0,0,0,0,0,0,0,0,0,0,0.616035,-0.138782,0,-1.5,7.77444e-38,0,0,0,-0.702341,1.72593,0,0,0,0,-0.639501,1.56897,1.9603e-19,0,0,0,0,0,0,0,0,0,2.5,-2.5
8130,5.51465,1.04297,3.90918,1.29277,1.21227,1.61423,0.0648011,0.0478202,-2.37207,0,0,0,-0.711848,1.74936,-0.629738,1.55801,-2.3944,0,0,0,0,0,0,0,0,0,0,0.616616,-0.150876,0,-1.5,7.77444e-38,0,0,0,-0.711848,1.74936,0,0,0,0,-0.629738,1.55801,1.9603e-19,0,0,0,0,0,0,0,0,0,2.5,-2.5
8147,5.51465,1.04297,3.90918,1.29277,1.21227,1.61423,0.0648011,0.0478202,-2.37207,0,0,0,-0.722391,1.7757,-0.614064,1.54532,-2.37207,0,0,0,0,0,0,0,0,0,0,0.616989,-0.16465,0,-1.5,7.77444e-38,0,0,0,-0.722391,1.7757,0,0,0,0,-0.614064,1.54532,1.9603e-19,0,0,0,0,0,0,0,0,0,2.5,-2.5
8163,5.51465,1.04297,3.90918,1.29277,1.21227,1.61423,0.0648011,0.0478202,-2.37207,0,0,0,-0.73205,1.80031,-0.597686,1.53337,-2.37207,0,0,0,0,0,0,0,0,0,0,0.616989,-0.16465,0,-1.5,7.77444e-38,0,0,0,-0.73205,1.80031,0,0,0,0,-0.597686,1.53337,1.9603e-19,0,0,0,0,0,0,0,0,0,2.5,-2.5
8179,5.51465,1.04297,3.90918,1.29277,1.21227,1.61423,0.0648011,0.0478202,-2.37207,0,0,0,-0.741441,1.82472,-0.581409,1.5215,-2.37207,0,0,0,0,0,0,0,0,0,0,0.616989,-0.16465,0,-1.5,7.77444e-38,0,0,0,-0.741441,1.82472,0,0,0,0,-0.581409,1.5215,1.9603e-19,0,0,0,0,0,0,0,0,0,2.5,-2.5
8195,5.51465,1.04297,3.90918,1.29277,1.21227,1.61423,0.0648011,0.0478202,-2.37207,0,0,0,-0.750574,1.84894,-0.565237,1.50971,-2.37207,0,0,0,0,0,0,0,0,0,0,0.616989,-0.16465,0,-1.5,7.77444e-38,0,0,0,-0.750574,1.84894,0,0,0,0,-0.565237,1.50971,1.9603e-19,0,0,0,0,0,0,0,0,0,2.5,-2.5
8211,5.51465,1.04297,3.90918,1.29277,1.21227,1.61423,0.0648011,0.0478202,-2.37207,0,0,0,-0.759449,1.87297,-0.549168,1.49799,-2.37207,0,0,0,0,0,0,0,0,0,0,0.616989,-0.16465,0,-1.5,7.77444e-38,0,0,0,-0.759449,1.87297,0,0,0,0,-0.549168,1.49799,1.9603e-19,0,0,0,0,0,0,0,0,0,2.5,-2.5
8227,4.29199,-0.806641,-3.39062,-1.39051,0.796994,2.03113,0.0491554,0.155206,-2.21483,0,0,0,-0.76806,1.89684,-0.530046,1.49271,-2.21483,0,0,0,0,0,0,0,0,0,0,0.610912,-0.261382,0,-1.5,7.77444e-38,0,0,0,-0.76806,1.89684,0,0,0,0,-0.530046,1.49271,1.9603e-19,0,0,0,0,0,0,0,0,0,2.5,-2.5
8244,3.1084,-2.50195,-3.16895,-1.3934,0.360949,2.3094,0.0184102,0.163956,-2.15204,0,0,0,-0.77679,1.92229,-0.505085,1.4994,-2.18355,0,0,0,0,0,0,0,0,0,0,0.607893,-0.280448,0,-1.5,7.77444e-38,0,0,0,-0.77679,1.92229,0,0,0,0,-0.505085,1.4994,1.9603e-19,0,0,0,0,0,0,0,0,0,2.5,-2.5
8259,2.72363,-3.16895,1.28906,-1.18824,0.686025,2.36212,0.006275,0.172427,-2.11858,0,0,0,-0.784192,1.94487,-0.486711,1.50947,-2.11858,0,0,0,0,0,0,0,0,0,0,0.599729,-0.319692,0,-1.5,7.77444e-38,0,0,0,-0.784192,1.94487,0,0,0,0,-0.486711,1.50947,1.9603e-19,0,0,0,0,0,0,0,0,0,2.5,-2.5
8275,2.70215,-3.15039,-4.56543,-0.972764,1.04063,2.3649,-0.00183259,0.186118,-2.08611,0,0,0,-0.791795,1.96916,-0.468826,1.52322,-2.08611,0,0,0,0,0,0,0,0,0,0,0.594697,-0.339087,0,-1.5,7.77444e-38,0,0,0,-0.791795,1.96916,0,0,0,0,-0.468826,1.52322,1.9603e-19,0,0,0,0,0,0,0,0,0,2.5,-2.5
8291,2.70215,-3.15039,-4.56543,-0.972764,1.04063,2.3649,-0.00183259,0.186118,-2.08611,0,0,0,-0.799116,1.99369,-0.451643,1.53914,-2.08611,0,0,0,0,0,0,0,0,0,0,0.594697,-0.339087,0,-1.5,7.77444e-38,0,0,0,-0.799116,1.99369,0,0,0,0,-0.451643,1.53914,1.9603e-19,0,0,0,0,0,0,0,0,0,2.5,-2.5
8307,1.27246,-2.79883,2.78809,-0.941851,0.809252,2.3366,-0.0164521,0.214232,-2.01942,0,0,0,-0.806166,2.0185,-0.435279,1.55718,-2.01942,0,0,0,0,0,0,0,0,0,0,0.582404,-0.378348,0,-1.5,7.77444e-38,0,0,0,-0.806166,2.0185,0,0,0,0,-0.435279,1.55718,1.9603e-19,0,0,0,0,0,0,0,0,0,2.5,-2.5
8323,1.27246,-2.79883,2.78809,-0.941851,0.809252,2.3366,-0.0164521,0.214232,-2.01942,0,0,0,-0.812972,2.04364,-0.420198,1.57882,-2.01942,0,0,0,0,0,0,0,0,0,0,0.582404,-0.378348,0,-1.5,7.77444e-38,0,0,0,-0.812972,2.04364,0,0,0,0,-0.420198,1.57882,1.9603e-19,0,0,0,0,0,0,0,0,0,2.5,-2.5
8339,0.618164,-2.88867,-5.27734,-0.759626,0.399224,2.40451,-0.0228169,0.238855,-1.91809,0,0,0,-0.81954,2.06913,-0.405842,1.60171,-1.95155,0,0,0,0,0,0,0,0,0,0,0.567233,-0.417381,0,-1.5,7.77444e-38,0,0,0,-0.81954,2.06913,0,0,0,0,-0.405842,1.60171,1.9603e-19,0,0,0,0,0,0,0,0,0,2.5,-2.5
8356,0.631836,-2.78809,-1.71191,-0.921753,0.317165,2.39649,-0.027039,0.244561,-1.88393,0,0,0,-0.825897,2.09503,-0.393225,1.6275,-1.91809,0,0,0,0,0,0,0,0,0,0,0.558789,-0.43622,0,-1.5,7.77444e-38,0,0,0,-0.825897,2.09503,0,0,0,0,-0.393225,1.6275,1.9603e-19,0,0,0,0,0,0,0,0,0,2.5,-2.5
8372,0.244141,-2.4043,6.7207,-1.02499,0.179596,2.5653,-0.0327188,0.248639,-1.84745,0,0,0,-0.832081,2.12136,-0.383172,1.65536,-1.84745,0,0,0,0,0,0,0,0,0,0,0.538918,-0.475007,0,-1.5,7.77444e-38,0,0,0,-0.832081,2.12136,0,0,0,0,-0.383172,1.65536,1.9603e-19,0,0,0,0,0,0,0,0,0,2.5,-2.5
8388,0.244141,-2.4043,6.7207,-1.02499,0.179596,2.5653,-0.0327188,0.248639,-1.84745,0,0,0,-0.838499,2.14983,-0.374504,1.68584,-1.84745,0,0,0,0,0,0,0,0,0,0,0.538918,-0.475007,0,-1.5,7.77444e-38,0,0,0,-0.838499,2.14983,0,0,0,0,-0.374504,1.68584,1.9603e-19,0,0,0,0,0,0,0,0,0,2.5,-2.5
8404,-1.0459,-1.6377,2.78906,-1.17301,-0.165871,2.57209,-0.0421566,0.249531,-1.77266,0,0,0,-0.844418,2.1771,-0.368327,1.71467,-1.77266,0,0,0,0,0,0,0,0,0,0,0.514953,-0.514436,0,-1.5,7.77444e-38,0,0,0,-0.844418,2.1771,0,0,0,0,-0.368327,1.71467,1.9603e-19,0,0,0,0,0,0,0,0,0,2.5,-2.5
8420,-1.24512,-1.43848,0.955078,-1.34319,-0.171896,2.36922,-0.0516967,0.248645,-1.73911,0,0,0,-0.850277,2.20484,-0.365737,1.74381,-1.73911,0,0,0,0,0,0,0,0,0,0,0.503261,-0.531515,0,-1.5,7.77444e-38,0,0,0,-0.850277,2.20484,0,0,0,0,-0.365737,1.74381,1.9603e-19,0,0,0,0,0,0,0,0,0,2.5,-2.5
8436,0.275391,-0.115234,-5.04785,-1.33096,-0.158521,2.4212,-0.0723251,0.248455,-1.67113,0,0,0,-0.856127,2.23304,-0.36627,1.77291,-1.70585,0,0,0,0,0,0,0,0,0,0,0.491108,-0.548054,0,-1.5,7.77444e-38,0,0,0,-0.856127,2.23304,0,0,0,0,-0.36627,1.77291,1.9603e-19,0,0,0,0,0,0,0,0,0,2.5,-2.5
8452,-0.155273,0.462891,-6.81445,-1.31025,-0.368166,2.55557,-0.0811086,0.24643,-1.63555,0,0,0,-0.862019,2.2617,-0.37018,1.80189,-1.67113,0,0,0,0,0,0,0,0,0,0,0.477845,-0.564874,0,-1.5,7.77444e-38,0,0,0,-0.862019,2.2617,0,0,0,0,-0.37018,1.80189,1.9603e-19,0,0,0,0,0,0,0,0,0,2.5,-2.5
8469,-1.67773,0.719727,-6.93652,-1.62573,-0.717878,2.61084,-0.0929204,0.240031,-1.59696,0,0,0,-0.868408,2.29266,-0.37916,1.83177,-1.59696,0,0,0,0,0,0,0,0,0,0,0.447598,-0.599212,0,-1.5,7.77444e-38,0,0,0,-0.868408,2.29266,0,0,0,0,-0.37916,1.83177,1.9603e-19,0,0,0,0,0,0,0,0,0,2.5,-2.5
8484,-3.03809,0.456055,0.738281,-1.81103,-0.967292,2.44766,-0.109302,0.229872,-1.55976,0,0,0,-0.874199,2.32037,-0.390871,1.85627,-1.55976,0,0,0,0,0,0,0,0,0,0,0.431491,-0.615565,0,-1.5,7.77444e-38,0,0,0,-0.874199,2.32037,0,0,0,0,-0.390871,1.85627,1.9603e-19,0,0,0,0,0,0,0,0,0,2.5,-2.5
8499,-3.03906,0.274414,-2.08691,-1.40253,-0.825292,2.20169,-0.121575,0.22117,-1.52746,0,0,0,-0.880202,2.34843,-0.406403,1.87837,-1.52746,0,0,0,0,0,0,0,0,0,0,0.41702,-0.629269,0,-1.5,7.77444e-38,0,0,0,-0.880202,2.34843,0,0,0,0,-0.406403,1.87837,1.9603e-19,0,0,0,0,0,0,0,0,0,2.5,-2.5
8515,-3.19141,0.241211,-1.08008,-1.14249,-0.428274,1.99932,-0.130576,0.21736,-1.49742,0,0,0,-0.8869,2.37872,-0.425597,1.90006,-1.49742,0,0,0,0,0,0,0,0,0,0,0.40317,-0.641591,0,-1.5,7.77444e-38,0,0,0,-0.8869,2.37872,0,0,0,0,-0.425597,1.90006,1.9603e-19,0,0,0,0,0,0,0,0,0,2.5,-2.5
8532,-2.98145,0.629883,-0.650391,-0.846932,0.00476794,1.6358,-0.137101,0.219271,-1.47385,0,0,0,-0.89438,2.41126,-0.448259,1.92194,-1.47385,0,0,0,0,0,0,0,0,0,0,0.392048,-0.650962,0,-1.5,7.77444e-38,0,0,0,-0.89438,2.41126,0,0,0,0,-0.448259,1.92194,1.9603e-19,0,0,0,0,0,0,0,0,0,2.5,-2.5
8548,-2.54688,1.12793,6.28809,0.067824,0.135333,1.35908,-0.134865,0.228094,-1.43567,0,0,0,-0.901788,2.44222,-0.47094,1.94227,-1.45455,0,0,0,0,0,0,0,0,0,0,0.382779,-0.65844,0,-1.5,7.77444e-38,0,0,0,-0.901788,2.44222,0,0,0,0,-0.47094,1.94227,1.9603e-19,0,0,0,0,0,0,0,0,0,2.5,-2.5
8564,-2.30078,1.52539,2.78809,0.497088,-0.0111632,1.52763,-0.123861,0.230304,-1.4158,0,0,0,-0.909567,2.47352,-0.494024,1.96287,-1.4158,0,0,0,0,0,0,0,0,0,0,0.363741,-0.672906,0,-1.5,7.77444e-38,0,0,0,-0.909567,2.47352,0,0,0,0,-0.494024,1.96287,1.9603e-19,0,0,0,0,0,0,0,0,0,2.5,-2.5
8581,-2.19141,1.38574,-5.66113,0.613977,-0.366108,1.66506,-0.109112,0.228365,-1.39138,0,0,0,-0.918222,2.50712,-0.517026,1.98453,-1.39138,0,0,0,0,0,0,0,0,0,0,0.351465,-0.681636,0,-1.5,7.77444e-38,0,0,0,-0.918222,2.50712,0,0,0,0,-0.517026,1.98453,1.9603e-19,0,0,0,0,0,0,0,0,0,2.5,-2.5
8597,-1.90234,0.821289,6.86914,0.654906,-0.498858,1.46617,-0.0946295,0.222699,-1.36884,0,0,0,-0.926697,2.53908,-0.536546,2.00392,-1.36884,0,0,0,0,0,0,0,0,0,0,0.339941,-0.689431,0,-1.5,7.77444e-38,0,0,0,-0.926697,2.53908,0,0,0,0,-0.536546,2.00392,1.9603e-19,0,0,0,0,0,0,0,0,0,2.5,-2.5
8613,-1.4707,0.318359,-3.54492,0.649496,-0.0861557,1.26916,-0.0814348,0.221534,-1.35084,0,0,0,-0.935473,2.57134,-0.554384,2.02257,-1.35084,0,0,0,0,0,0,0,0,0,0,0.330615,-0.695467,0,-1.5,7.77444e-38,0,0,0,-0.935473,2.57134,0,0,0,0,-0.554384,2.02257,1.9603e-19,0,0,0,0,0,0,0,0,0,2.5,-2.5
8629,-0.424805,1.01465,-1.49023,0.451975,0.20403,1.2283,-0.0591108,0.23036,-1.31681,0,0,0,-0.944518,2.60389,-0.570711,2.04132,-1.33352,0,0,0,0,0,0,0,0,0,0,0.321545,-0.701113,0,-1.5,7.77444e-38,0,0,0,-0.944518,2.60389,0,0,0,0,-0.570711,2.04132,1.9603e-19,0,0,0,0,0,0,0,0,0,2.5,-2.5
8646,0.189453,1.34082,-0.875977,0.361577,-0.236947,1.25156,-0.0496588,0.228597,-1.29876,0,0,0,-0.954405,2.63883,-0.586742,2.06201,-1.31681,0,0,0,0,0,0,0,0,0,0,0.3127,-0.706412,0,-1.5,7.77444e-38,0,0,0,-0.954405,2.63883,0,0,0,0,-0.586742,2.06201,1.9603e-19,0,0,0,0,0,0,0,0,0,2.5,-2.5
8662,0.491211,1.1084,-3.14941,0.105872,-0.573545,1.27501,-0.0431356,0.221339,-1.28013,0,0,0,-0.963931,2.67202,-0.600136,2.08122,-1.28013,0,0,0,0,0,0,0,0,0,0,0.292979,-0.717523,0,-1.5,7.77444e-38,0,0,0,-0.963931,2.67202,0,0,0,0,-0.600136,2.08122,1.9603e-19,0,0,0,0,0,0,0,0,0,2.5,-2.5
8678,0.198242,0.601562,6.25488,-0.278551,-0.606355,1.2236,-0.0424447,0.213195,-1.26271,0,0,0,-0.973667,2.70551,-0.612907,2.09907,-1.26271,0,0,0,0,0,0,0,0,0,0,0.283476,-0.722544,0,-1.5,7.77444e-38,0,0,0,-0.973667,2.70551,0,0,0,0,-0.612907,2.09907,1.9603e-19,0,0,0,0,0,0,0,0,0,2.5,-2.5
8694,0.198242,0.601562,6.25488,-0.278551,-0.606355,1.2236,-0.0424447,0.213195,-1.26271,0,0,0,-0.983603,2.73926,-0.625623,2.11568,-1.26271,0,0,0,0,0,0,0,0,0,0,0.283476,-0.722544,0,-1.5,7.77444e-38,0,0,0,-0.983603,2.73926,0,0,0,0,-0.625623,2.11568,1.9603e-19,0,0,0,0,0,0,0,0,0,2.5,-2.5
8711,0.198242,0.601562,6.25488,-0.278551,-0.606355,1.2236,-0.0424447,0.213195,-1.26271,0,0,0,-0.994387,2.77542,-0.639046,2.13321,-1.26271,0,0,0,0,0,0,0,0,0,0,0.283476,-0.722544,0,-1.5,7.77444e-38,0,0,0,-0.994387,2.77542,0,0,0,0,-0.639046,2.13321,1.9603e-19,0,0,0,0,0,0,0,0,0,2.5,-2.5
8726,0.270508,0.686523,2.42285,-0.227108,-0.0831758,1.0865,-0.0524076,0.204059,-1.20236,0,0,0,-1.00408,2.80756,-0.650812,2.14858,-1.26271,0,0,0,0,0,0,0,0,0,0,0.283476,-0.722544,0,-1.5,7.77444e-38,0,0,0,-1.00408,2.80756,0,0,0,0,-0.650812,2.14858,1.9603e-19,0,0,0,0,0,0,0,0,0,2.5,-2.5
8742,0.495117,0.611328,-4.90723,-0.147711,-0.275061,1.20524,-0.0512328,0.201093,-1.18573,0,0,0,-1.01463,2.8421,-0.664821,2.16319,-1.20236,0,0,0,0,0,0,0,0,0,0,0.249905,-0.738642,0,-1.5,7.77444e-38,0,0,0,-1.01463,2.8421,0,0,0,0,-0.664821,2.16319,1.9603e-19,0,0,0,0,0,0,0,0,0,2.5,-2.5
8758,0.19043,0.304688,4.58105,-0.172954,-0.311037,1.20538,-0.0498096,0.197079,-1.16813,0,0,0,-1.02543,2.87684,-0.680026,2.17561,-1.16813,0,0,0,0,0,0,0,0,0,0,0.230448,-0.746865,0,-1.5,7.77444e-38,0,0,0,-1.02543,2.87684,0,0,0,0,-0.680026,2.17561,1.9603e-19,0,0,0,0,0,0,0,0,0,2.5,-2.5
8774,-0.359375,-0.0585938,0.426758,-0.256569,-0.200937,1.13587,-0.0500357,0.194561,-1.15221,0,0,0,-1.03647,2.91177,-0.695199,2.18704,-1.15221,0,0,0,0,0,0,0,0,0,0,0.221303,-0.750462,0,-1.5,7.77444e-38,0,0,0,-1.03647,2.91177,0,0,0,0,-0.695199,2.18704,1.9603e-19,0,0,0,0,0,0,0,0,0,2.5,-2.5
8790,-0.359375,-0.0585938,0.426758,-0.256569,-0.200937,1.13587,-0.0500357,0.194561,-1.15221,0,0,0,-1.04775,2.94688,-0.710478,2.19787,-1.15221,0,0,0,0,0,0,0,0,0,0,0.221303,-0.750462,0,-1.5,7.77444e-38,0,0,0,-1.04775,2.94688,0,0,0,0,-0.710478,2.19787,1.9603e-19,0,0,0,0,0,0,0,0,0,2.5,-2.5
8806,-0.546875,0,1.28711,-0.136746,-0.153334,1.13295,-0.0482876,0.191613,-1.11982,0,0,0,-1.05928,2.98216,-0.725785,2.20828,-1.11982,0,0,0,0,0,0,0,0,0,0,0.202533,-0.757327,0,-1.5,7.77444e-38,0,0,0,-1.05928,2.98216,0,0,0,0,-0.725785,2.20828,1.9603e-19,0,0,0,0,0,0,0,0,0,2.5,-2.5
8822,-0.132812,0,0.373047,-0.120248,-0.18061,1.18793,-0.0452651,0.187909,-1.08715,0,0,0,-1.07106,3.01759,-0.741204,2.21802,-1.11982,0,0,0,0,0,0,0,0,0,0,0.202533,-0.757327,0,-1.5,7.77444e-38,0,0,0,-1.07106,3.01759,0,0,0,0,-0.741204,2.21802,1.9603e-19,0,0,0,0,0,0,0,0,0,2.5,-2.5
8838,0.0117188,0.00195312,6.78906,-0.167464,-0.150304,1.12,-0.0445531,0.186206,-1.07067,0,0,0,-1.08308,3.05318,-0.756556,2.22722,-1.08715,0,0,0,0,0,0,0,0,0,0,0.183387,-0.763631,0,-1.5,7.77444e-38,0,0,0,-1.08308,3.05318,0,0,0,0,-0.756556,2.22722,1.9603e-19,0,0,0,0,0,0,0,0,0,2.5,-2.5
8854,0,0,-4.16602,-0.0507932,-0.126193,0.957175,-0.0430364,0.184745,-1.05719,0,0,0,-1.09534,3.0889,-0.771984,2.23531,-1.05719,0,0,0,0,0,0,0,0,0,0,0.165654,-0.76886,0,-1.5,7.77444e-38,0,0,0,-1.09534,3.0889,0,0,0,0,-0.771984,2.23531,1.9603e-19,0,0,0,0,0,0,0,0,0,2.5,-2.5
8870,-0.0527344,0,6.21387,0.022604,-0.109936,0.849449,-0.0402396,0.183404,-1.04476,0,0,0,-1.10786,3.12475,-0.787235,2.24298,-1.04476,0,0,0,0,0,0,0,0,0,0,0.158256,-0.770872,0,-1.5,7.77444e-38,0,0,0,-1.10786,3.12475,0,0,0,0,-0.787235,2.24298,1.9603e-19,0,0,0,0,0,0,0,0,0,2.5,-2.5
8887,-0.0527344,0,6.21387,0.022604,-0.109936,0.849449,-0.0402396,0.183404,-1.04476,0,0,0,-1.12142,3.16297,-0.80316,2.25091,-1.04476,0,0,0,0,0,0,0,0,0,0,0.158256,-0.770872,0,-1.5,7.77444e-38,0,0,0,-1.12142,3.16297,0,0,0,0,-0.80316,2.25091,1.9603e-19,0,0,0,0,0,0,0,0,0,2.5,-2.5
8903,-0.364258,-0.157227,5.47754,-0.119055,-0.08054,0.491776,-0.0395347,0.181608,-1.02771,0,0,0,-1.13442,3.19906,-0.818099,2.25808,-1.02771,0,0,0,0,0,0,0,0,0,0,0.148066,-0.773483,0,-1.5,7.77444e-38,0,0,0,-1.13442,3.19906,0,0,0,0,-0.818099,2.25808,1.9603e-19,0,0,0,0,0,0,0,0,0,2.5,-2.5
8919,-0.113281,-0.0996094,0.430664,-0.0149261,-0.180251,0.357987,-0.03917,0.177678,-1.01633,0,0,0,-1.14766,3.23525,-0.833019,2.26478,-1.0214,0,0,0,0,0,0,0,0,0,0,0.144281,-0.774406,0,-1.5,7.77444e-38,0,0,0,-1.14766,3.23525,0,0,0,0,-0.833019,2.26478,1.9603e-19,0,0,0,0,0,0,0,0,0,2.5,-2.5
8936,0.0322266,-0.275391,-6.70996,0.051882,-0.212997,0.23671,-0.0377431,0.174694,-1.0126,0,0,0,-1.162,3.27383,-0.848692,2.2714,-1.01633,0,0,0,0,0,0,0,0,0,0,0.141237,-0.77513,0,-1.5,7.77444e-38,0,0,0,-1.162,3.27383,0,0,0,0,-0.848692,2.2714,1.9603e-19,0,0,0,0,0,0,0,0,0,2.5,-2.5
8951,0.166016,-0.686523,6.3125,-0.164243,-0.0655299,0.0788769,-0.0389389,0.17314,-1.01097,0,0,0,-1.17485,3.30795,-0.862022,2.27666,-1.01097,0,0,0,0,0,0,0,0,0,0,0.138017,-0.775878,0,-1.5,7.77444e-38,0,0,0,-1.17485,3.30795,0,0,0,0,-0.862022,2.27666,1.9603e-19,0,0,0,0,0,0,0,0,0,2.5,-2.5
8966,0.392578,-0.972656,7.08789,-0.333463,0.00317283,-0.0443583,-0.0433872,0.173064,-1.01149,0,0,0,-1.18791,3.34215,-0.875468,2.28152,-1.01149,0,0,0,0,0,0,0,0,0,0,0.138328,-0.775807,0,-1.5,7.77444e-38,0,0,0,-1.18791,3.34215,0,0,0,0,-0.875468,2.28152,1.9603e-19,0,0,0,0,0,0,0,0,0,2.5,-2.5
8982,0.501953,-0.87207,4.39453,-0.369781,-0.0699233,-0.013246,-0.0486521,0.172276,-1.01188,0,0,0,-1.20207,3.3787,-0.89031,2.28627,-1.01188,0,0,369098752,-534446081,369098752,-534446081,33554432,33554432,-1075088617,0,0.13856,-0.775753,0,-1.5,7.77444e-38,0,0,0,-1.20207,3.3787,0,0,0,0,-0.89031,2.28627,0,0,0,0,0,0,0,0,0,0,2.5,-2.5
8997,0.501953,-0.87207,4.39453,-0.369781,-0.0699233,-0.013246,-0.0486521,0.172276,-1.01188,0,0,0,-1.21556,3.41303,-0.904581,2.29032,-1.01188,0,0,369098752,-534446081,369098752,-534446081,33554432,33554432,-1075088617,0,0.13856,-0.775753,0,-1.5,7.77444e-38,0,0,0,-1.21556,3.41303,0,0,0,0,-0.904581,2.29032,0,0,0,0,0,0,0,0,0,0,2.5,-2.5
9013,0.658203,-0.780273,4.31934,-0.221224,-0.388846,0.0511306,-0.0558981,0.164041,-1.01009,-6.06213,-1.43917,-0.694267,-1.23019,3.44972,-0.919827,2.29396,-1.01009,0,0,377,216,377,216,453,216,380,287,0.137483,-0.776,0,-1.5,7.77444e-38,0,0,0,-1.23019,3.44972,0,0,0,0,-0.919827,2.29396,5472,0,0,0,0,0,0,0,0,0,2.5,-2.5
9029,0.973633,-1.31348,-2.94922,-0.12512,-0.315019,0.175125,-0.0599631,0.154312,-1.0061,-6.06213,-1.43917,-0.694267,-1.24507,3.48645,-0.935168,2.29648,-1.01009,0,0,377,216,377,216,453,216,380,287,0.137483,-0.776,0,-1.5,7.77444e-38,0,0,0,-1.24507,3.48645,0,0,0,0,-0.935168,2.29648,5472,0,0,0,0,0,0,0,0,0,2.5,-2.5
9046,0.857422,-1.28906,5.81445,-0.0558361,-0.235346,0.200213,-0.0604252,0.150938,-1.00305,-6.06213,-1.43917,-0.694267,-1.26115,3.52552,-0.951236,2.29817,-1.0061,0,0,377,216,377,216,453,216,380,287,0.135087,-0.776543,0,-1.5,7.77444e-38,0,0,0,-1.26115,3.52552,0,0,0,0,-0.951236,2.29817,5472,0,0,0,0,0,0,0,0,0,2.5,-2.5
9062,0.725586,-1.18945,-2.2959,-0.0210143,-0.185609,0.170205,-0.0604274,0.148501,-1.00048,-6.06213,-1.43917,-0.694267,-1.27652,3.56229,-0.965952,2.29834,-1.00048,0,0,377,216,377,216,453,216,380,287,0.131698,-0.777293,0,-1.5,7.77444e-38,0,0,0,-1.27652,3.56229,0,0,0,0,-0.965952,2.29834,5472,0,0,0,0,0,0,0,0,0,2.5,-2.5
9078,0.697266,-1.12598,6.02051,0.0299933,-0.168444,0.128651,-0.0598784,0.1462,-0.998458,-6.06213,-1.43917,-0.694267,-1.29212,3.59906,-0.980363,2.29811,-0.998458,0,0,377,216,377,216,453,216,380,287,0.13048,-0.777558,0,-1.5,7.77444e-38,0,0,0,-1.29212,3.59906,0,0,0,0,-0.980363,2.29811,5472,0,0,0,0,0,0,0,0,0,2.5,-2.5
9095,0.730469,-1.13184,-0.123047,0.038308,-0.110123,0.131104,-0.0590628,0.144499,-0.996576,-6.06213,-1.43917,-0.694267,-1.30796,3.63582,-0.994415,2.29757,-0.996576,0,0,377,216,377,216,453,216,380,287,0.129344,-0.777803,0,-1.5,7.77444e-38,0,0,0,-1.30796,3.63582,0,0,0,0,-0.994415,2.29757,5472,0,0,0,0,0,0,0,0,0,2.5,-2.5
9111,0.763672,-1.19141,-5.08203,0.044684,-0.0178088,0.153212,-0.0582636,0.144146,-0.994518,-6.06213,-1.43917,-0.694267,-1.32503,3.67488,-1.00905,2.29688,-0.994518,0,0,377,216,377,216,453,216,380,287,0.128103,-0.778068,0,-1.5,7.77444e-38,0,0,0,-1.32503,3.67488,0,0,0,0,-1.00905,2.29688,5472,0,0,0,0,0,0,0,0,0,2.5,-2.5
9127,0.707031,-1.16602,3.63867,0.137708,0.0948258,0.255552,-0.0550231,0.146673,-0.98853,-6.06213,-1.43917,-0.694267,-1.34028,3.70932,-1.02182,2.29625,-0.994518,0,0,377,216,377,216,453,216,380,287,0.128103,-0.778068,0,-1.5,7.77444e-38,0,0,0,-1.34028,3.70932,0,0,0,0,-1.02182,2.29625,5472,0,0,0,0,0,0,0,0,0,2.5,-2.5
9144,0.577148,-1.13281,-2.05762,0.235586,0.0721864,0.278312,-0.0514705,0.147896,-0.98484,-6.05329,-1.31631,-0.648558,-1.35782,3.74836,-1.03607,2.29607,-0.98853,0,0,371,203,371,203,445,202,371,273,0.124486,-0.778824,0,-1.5,7.77444e-38,0,0,0,-1.35782,3.74836,0,0,0,0,-1.03607,2.29607,5475,0,0,0,0,0,0,0,0,0,2.5,-2.5
9158,0.411133,-1.09375,3.56836,0.304159,0.018139,0.339121,-0.0466705,0.148562,-0.980228,-6.05329,-1.31631,-0.648558,-1.37348,3.7828,-1.04821,2.29634,-0.980228,0,0,371,203,371,203,445,202,371,273,0.119464,-0.779836,0,-1.5,7.77444e-38,0,0,0,-1.37348,3.7828,0,0,0,0,-1.04821,2.29634,5475,0,0,0,0,0,0,0,0,0,2.5,-2.5
9174,0.414062,-0.96582,0.243164,0.23744,-0.0905756,0.322803,-0.0424577,0.147671,-0.975612,-6.05329,-1.31631,-0.648558,-1.39038,3.81955,-1.0605,2.29702,-0.975612,0,0,371,203,371,203,445,202,371,273,0.116668,-0.780382,0,-1.5,7.77444e-38,0,0,0,-1.39038,3.81955,0,0,0,0,-1.0605,2.29702,5475,0,0,0,0,0,0,0,0,0,2.5,-2.5
9190,0.414062,-0.96582,0.243164,0.23744,-0.0905756,0.322803,-0.0424577,0.147671,-0.975612,-6.05329,-1.31631,-0.648558,-1.40747,3.85631,-1.07229,2.29782,-0.975612,0,0,371,203,371,203,445,202,371,273,0.116668,-0.780382,0,-1.5,7.77444e-38,0,0,0,-1.40747,3.85631,0,0,0,0,-1.07229,2.29782,5475,0,0,0,0,0,0,0,0,0,2.5,-2.5
9206,0.868164,-1.06738,-0.0693359,0.098604,-0.129849,0.290545,-0.0380235,0.144224,-0.967776,-6.05329,-1.31631,-0.648558,-1.42475,3.89308,-1.08372,2.29855,-0.967776,0,0,371,203,371,203,445,202,371,273,0.111916,-0.781277,0,-1.5,7.77444e-38,0,0,0,-1.42475,3.89308,0,0,0,0,-1.08372,2.29855,5475,0,0,0,0,0,0,0,0,0,2.5,-2.5
9223,0.554688,-1.14648,5.09082,-0.0413461,-0.0719636,0.265272,-0.0371847,0.142179,-0.95932,-6.05329,-1.31631,-0.648558,-1.4422,3.92987,-1.09459,2.29914,-0.967776,0,0,371,203,371,203,445,202,371,273,0.111916,-0.781277,0,-1.5,7.77444e-38,0,0,0,-1.4422,3.92987,0,0,0,0,-1.09459,2.29914,5475,0,0,0,0,0,0,0,0,0,2.5,-2.5
9238,0.416016,-1.04688,-4.78125,-0.0803306,-0.129284,0.234316,-0.0377436,0.140672,-0.956101,-6.05329,-1.31631,-0.648558,-1.45983,3.96666,-1.10532,2.29956,-0.95932,0,0,371,203,371,203,445,202,371,273,0.106781,-0.782202,0,-1.5,7.77444e-38,0,0,0,-1.45983,3.96666,0,0,0,0,-1.10532,2.29956,5475,0,0,0,0,0,0,0,0,0,2.5,-2.5
9255,0.336914,-0.947266,4.67773,-0.145889,-0.184936,0.263842,-0.0391062,0.138205,-0.952333,-6.08131,-1.1153,-0.685023,-1.47874,4.00575,-1.11653,2.29944,-0.952333,0,0,355,205,355,205,431,199,359,272,0.102532,-0.782933,0,-1.5,7.77444e-38,0,0,0,-1.47874,4.00575,0,0,0,0,-1.11653,2.29944,5694,0,0,0,0,0,0,0,0,0,2.5,-2.5
9275,0.179688,-0.938477,0.197266,-0.160261,-0.17058,0.260011,-0.04092,0.135853,-0.948551,-6.08131,-1.1153,-0.685023,-1.50125,4.05173,-1.12966,2.2985,-0.948551,0,0,355,205,355,205,431,199,359,272,0.10023,-0.783316,0,-1.5,7.77444e-38,0,0,0,-1.50125,4.05173,0,0,0,0,-1.12966,2.2985,5694,0,0,0,0,0,0,0,0,0,2.5,-2.5
9380,0.833984,-0.939453,-1.18164,0.0969849,-0.0637561,0.11226,-0.0321655,0.129737,-0.930091,-6.17573,-0.935281,-0.602466,-1.62657,4.29237,-1.19776,2.29125,-0.930091,0,0,345,195,345,195,418,194,346,265,0.0889736,-0.785063,0,-1.5,7.77444e-38,0,0,0,-1.62657,4.29237,0,0,0,0,-1.19776,2.29125,5183,0,0,0,0,0,0,0,0,0,2.5,-2.5
9510,0.275391,-0.651367,1.34668,-0.0512221,-0.0663775,0.0274353,-0.0410924,0.120113,-0.916044,-6.07826,-0.796017,-0.604823,-1.79083,4.58891,-1.26766,2.27965,-0.916044,0,0,334,191,334,191,410,189,339,261,0.0803877,-0.786252,0,-1.5,7.77444e-38,0,0,0,-1.79083,4.58891,0,0,0,0,-1.26766,2.27965,5544,0,0,0,0,0,0,0,0,0,2.5,-2.5
9649,0.3125,-0.756836,0.433594,0.0873099,-0.0746699,0.0550435,-0.0436724,0.113067,-0.914766,-6.02413,-0.754661,-0.619199,-1.97678,4.90174,-1.3415,2.24855,-0.914766,0,0,334,188,334,188,408,184,335,259,0.0796058,-0.786355,0,-1.5,7.77444e-38,0,0,0,-1.97678,4.90174,0,0,0,0,-1.3415,2.24855,5625,0,0,0,0,0,0,0,0,0,2.5,-2.5
9665,0.408203,-0.855469,2.8877,0.14403,0.00819863,0.0511624,-0.0394346,0.11259,-0.913542,-6.02413,-0.754661,-0.619199,-1.99832,4.93768,-1.34921,2.24407,-0.914766,0,0,334,188,334,188,408,184,335,259,0.0796058,-0.786355,0,-1.5,7.77444e-38,0,0,0,-1.99832,4.93768,0,0,0,0,-1.34921,2.24407,5625,0,0,0,0,0,0,0,0,0,2.5,-2.5
9682,0.408203,-0.855469,2.8877,0.14403,0.00819863,0.0511624,-0.0394346,0.11259,-0.913542,-5.9825,-0.740121,-0.66094,-2.02135,4.97577,-1.35702,2.23953,-0.913542,0,0,332,188,332,188,409,184,334,259,0.0788568,-0.786452,0,-1.5,7.77444e-38,0,0,0,-2.02135,4.97577,0,0,0,0,-1.35702,2.23953,5775,0,0,0,0,0,0,0,0,0,2.5,-2.5
9697,0.274414,-0.674805,6.08887,0.0238816,-0.0110875,0.0241437,-0.0373786,0.112865,-0.912264,-5.9825,-0.740121,-0.66094,-2.04176,5.00933,-1.3636,2.23571,-0.912264,0,0,332,188,332,188,409,184,334,259,0.0780747,-0.786552,0,-1.5,7.77444e-38,0,0,0,-2.04176,5.00933,0,0,0,0,-1.3636,2.23571,5775,0,0,0,0,0,0,0,0,0,2.5,-2.5
9712,0.141602,-0.59375,-2.55859,0.000980748,-0.0487336,-0.0417441,-0.037452,0.112206,-0.912735,-5.96847,-0.7402,-0.665469,-2.06228,5.04283,-1.36995,2.23207,-0.912735,0,0,332,187,332,187,409,184,334,259,0.0783634,-0.786515,0,-1.5,7.77444e-38,0,0,0,-2.06228,5.04283,0,0,0,0,-1.36995,2.23207,5775,0,0,0,0,0,0,0,0,0,2.5,-2.5
9728,0.182617,-0.648438,5.94043,0.0194843,-0.0921146,-0.0414906,-0.0373535,0.11084,-0.91333,-5.96847,-0.7402,-0.665469,-2.08427,5.0785,-1.37657,2.22809,-0.91333,0,0,332,187,332,187,409,184,334,259,0.0787274,-0.786468,0,-1.5,7.77444e-38,0,0,0,-2.08427,5.0785,0,0,0,0,-1.37657,2.22809,5775,0,0,0,0,0,0,0,0,0,2.5,-2.5
9745,0.407227,-0.78125,2.35547,0.0109086,-0.0768289,-0.0387573,-0.0371597,0.109665,-0.91381,-5.96847,-0.7402,-0.665469,-2.10775,5.11633,-1.38342,2.22375,-0.91381,0,0,332,187,332,187,409,184,334,259,0.0790208,-0.78643,0,-1.5,7.77444e-38,0,0,0,-2.10775,5.11633,0,0,0,0,-1.38342,2.22375,5775,0,0,0,0,0,0,0,0,0,2.5,-2.5
9761,0.738281,-0.826172,1.19531,-0.0446203,-0.0132404,-0.0386358,-0.0377652,0.109317,-0.914348,-5.96847,-0.7402,-0.665469,-2.12995,5.15187,-1.38974,2.21958,-0.914348,0,0,332,187,332,187,409,184,334,259,0.07935,-0.786388,0,-1.5,7.77444e-38,0,0,0,-2.12995,5.15187,0,0,0,0,-1.38974,2.21958,5775,0,0,0,0,0,0,0,0,0,2.5,-2.5
9777,0.911133,-0.792969,2.22754,-0.0895664,0.00143953,0.00400603,-0.0390661,0.10935,-0.914445,-6.11544,-0.749754,-0.644628,-2.15225,5.18734,-1.3961,2.21533,-0.914445,0,0,332,186,332,186,406,184,335,256,0.0794094,-0.78638,0,-1.5,7.77444e-38,0,0,0,-2.15225,5.18734,0,0,0,0,-1.3961,2.21533,5544,0,0,0,0,0,0,0,0,0,2.5,-2.5
9793,0.532227,-0.80957,5.57617,-0.120833,-0.00277683,0.0116379,-0.0424731,0.109089,-0.913841,-6.11544,-0.749754,-0.644628,-2.17465,5.22274,-1.40258,2.21099,-0.913841,0,0,332,186,332,186,406,184,335,256,0.0790398,-0.786428,0,-1.5,7.77444e-38,0,0,0,-2.17465,5.22274,0,0,0,0,-1.40258,2.21099,5544,0,0,0,0,0,0,0,0,0,2.5,-2.5
9809,0.53418,-0.842773,0.709961,-0.0453172,0.031722,-0.0068995,-0.0433945,0.109418,-0.913936,-6.11544,-0.749754,-0.644628,-2.19717,5.25807,-1.40941,2.20634,-0.913936,0,0,332,186,332,186,406,184,335,256,0.0790984,-0.78642,0,-1.5,7.77444e-38,0,0,0,-2.19717,5.25807,0,0,0,0,-1.40941,2.20634,5544,0,0,0,0,0,0,0,0,0,2.5,-2.5
9826,0.633789,-0.862305,-3.93848,0.0217852,0.0489513,0.0186835,-0.043211,0.110062,-0.913824,-5.96463,-0.736495,-0.653097,-2.21979,5.29332,-1.41632,2.20172,-0.913824,0,0,332,186,332,186,409,181,334,256,0.0790299,-0.786429,0,-1.5,7.77444e-38,0,0,0,-2.21979,5.29332,0,0,0,0,-1.41632,2.20172,5775,0,0,0,0,0,0,0,0,0,2.5,-2.5
9842,0.633789,-0.862305,-3.93848,0.0217852,0.0489513,0.0186835,-0.043211,0.110062,-0.913824,-5.96463,-0.736495,-0.653097,-2.24395,5.3307,-1.42363,2.19691,-0.913824,0,0,332,186,332,186,409,181,334,256,0.0790299,-0.786429,0,-1.5,7.77444e-38,0,0,0,-2.24395,5.3307,0,0,0,0,-1.42363,2.19691,5775,0,0,0,0,0,0,0,0,0,2.5,-2.5
9858,0.736328,-0.711914,-5.96875,0.0361014,-0.01132,0.062367,-0.04141,0.110122,-0.911744,-6.05192,-0.72504,-0.628068,-2.26679,5.3658,-1.43048,2.19242,-0.913824,0,0,332,184,332,184,406,181,334,256,0.0790299,-0.786429,0,-1.5,7.77444e-38,0,0,0,-2.26679,5.3658,0,0,0,0,-1.43048,2.19242,5550,0,0,0,0,0,0,0,0,0,2.5,-2.5
9874,0.647461,-0.745117,6.70703,-0.0363548,-0.00338742,0.0473868,-0.0416825,0.110063,-0.910978,-6.05192,-0.72504,-0.628068,-2.28975,5.40083,-1.43716,2.18803,-0.911744,0,0,332,184,332,184,406,181,334,256,0.0777564,-0.786592,0,-1.5,7.77444e-38,0,0,0,-2.28975,5.40083,0,0,0,0,-1.43716,2.18803,5550,0,0,0,0,0,0,0,0,0,2.5,-2.5
9890,0.547852,-0.751953,5.66016,-0.0777818,-0.00161979,0.0106034,-0.0427577,0.110008,-0.910794,-6.05949,-0.733983,-0.638635,-2.31281,5.4358,-1.44377,2.18368,-0.910794,0,0,332,187,332,187,405,181,334,256,0.077175,-0.786666,0,-1.5,7.77444e-38,0,0,0,-2.31281,5.4358,0,0,0,0,-1.44377,2.18368,5775,0,0,0,0,0,0,0,0,0,2.5,-2.5
9905,0.477539,-0.751953,6.74805,-0.0324066,-0.0076618,0.0123595,-0.0434166,0.109866,-0.910665,-6.05949,-0.733983,-0.638635,-2.33453,5.46851,-1.45005,2.17952,-0.910665,0,0,332,187,332,187,405,181,334,256,0.0770958,-0.786676,0,-1.5,7.77444e-38,0,0,0,-2.33453,5.46851,0,0,0,0,-1.45005,2.17952,5775,0,0,0,0,0,0,0,0,0,2.5,-2.5
9921,0.477539,-0.751953,6.74805,-0.0324066,-0.0076618,0.0123595,-0.0434166,0.109866,-0.910665,-6.06684,-0.711944,-0.630718,-2.3578,5.50334,-1.45676,2.17504,-0.910665,0,0,331,186,331,186,405,181,332,256,0.0770958,-0.786676,0,-1.5,7.77444e-38,0,0,0,-2.3578,5.50334,0,0,0,0,-1.45676,2.17504,5625,0,0,0,0,0,0,0,0,0,2.5,-2.5
9937,0.560547,-0.751953,1.70215,0.0915907,0.000985881,0.0403781,-0.0415537,0.109793,-0.909684,-6.06684,-0.711944,-0.630718,-2.38118,5.53809,-1.46332,2.17066,-0.909684,0,0,331,186,331,186,405,181,332,256,0.0764952,-0.786751,0,-1.5,7.77444e-38,0,0,0,-2.38118,5.53809,0,0,0,0,-1.46332,2.17066,5625,0,0,0,0,0,0,0,0,0,2.5,-2.5
9953,0.560547,-0.751953,1.70215,0.0915907,0.000985881,0.0403781,-0.0415537,0.109793,-0.909684,-6.09382,-0.708108,-0.632555,-2.40466,5.57278,-1.46972,2.16639,-0.909684,0,0,331,186,331,186,404,181,332,255,0.0764952,-0.786751,0,-1.5,7.77444e-38,0,0,0,-2.40466,5.57278,0,0,0,0,-1.46972,2.16639,5550,0,0,0,0,0,0,0,0,0,2.5,-2.5
9969,0.536133,-0.751953,2.26172,0.0102133,0.0133449,0.0266065,-0.0396037,0.109935,-0.908035,-6.09382,-0.708108,-0.632555,-2.42824,5.6074,-1.476,2.1622,-0.908509,0,0,331,186,331,186,404,181,332,255,0.075776,-0.786841,0,-1.5,7.77444e-38,0,0,0,-2.42824,5.6074,0,0,0,0,-1.476,2.1622,5550,0,0,0,0,0,0,0,0,0,2.5,-2.5
9985,0.536133,-0.751953,2.26172,0.0102133,0.0133449,0.0266065,-0.0396037,0.109935,-0.908035,-6.07239,-0.709988,-0.637148,-2.45192,5.64195,-1.48211,2.15815,-0.908035,0,0,331,186,331,186,405,181,332,256,0.0754853,-0.786877,0,-1.5,7.77444e-38,0,0,0,-2.45192,5.64195,0,0,0,0,-1.48211,2.15815,5550,0,0,0,0,0,0,0,0,0,2.5,-2.5
10002,0.536133,-0.751953,2.26172,0.0102133,0.0133449,0.0266065,-0.0396037,0.109935,-0.908035,-6.07239,-0.709988,-0.637148,-2.47718,5.67859,-1.48855,2.15389,-0.908035,0,0,331,186,331,186,405,181,332,256,0.0754853,-0.786877,0,-1.5,7.77444e-38,0,0,0,-2.47718,5.67859,0,0,0,0,-1.48855,2.15389,5550,0,0,0,0,0,0,0,0,0,2.5,-2.5
