timestamp,A_x,A_y,A_z,P,Q,R,Phi,Theta,Psi,poseX,poseY,poseZ,state_X,state_Y,state_Z,state_VzB,state_Bx,state_By,state_Bz,p1_x,p1_y,p2_x,p2_y,p3_x,p3_y,p4_x,p4_y,roll,pitch,yaw,alt,targetHeading,highLevelState,lowLevelState,gateNumber,filtered_x,filtered_y,x_OT,y_OT,vx_OT,vy_OT,filtered_vx,filtered_vygateArearansac_corr_x,ransac_corr_y,ransac_corr_vx,ransac_corr_vy,detectionTimeStamp
6574,0,0,0,0,0,0,0,0,0,0,0,0,0,0,0,0,0,0,0,0,0,0,0,0,0,0,0,0,-0.261799,0,-1.5,nan,0,0,0,0,0,0,0,0,0,0,0,1.9603e-19,0,0,0,0,0
6606,0,0,0,0,0,0,0,0,0,0,0,0,0,0,0,0,0,0,0,0,0,0,0,0,0,0,0,0,-0.261799,0,-1.5,nan,0,0,0,0,0,0,0,0,0,0,0,1.9603e-19,0,0,0,0,0
6621,0,0,0,0,0,0,0,0,0,0,0,0,0,0,0,0,0,0,0,0,0,0,0,0,0,0,0,0,-0.261799,0,-1.5,nan,0,0,0,0,0,0,0,0,0,0,0,1.9603e-19,0,0,0,0,0
7651,-3.34297e-12,2.78418e-38,-1.60627e-06,-3.40794e-12,2.78395e-38,0,-1.13703e-13,0,0,0,0,0,0,0,0,0,0,0,0,0,0,0,0,0,0,0,0,0,-0.261799,0,-1.5,nan,0,0,0,0,0,0,0,0,0,0,0,1.9603e-19,0,0,0,0,0
7696,-3.34297e-12,2.78418e-38,-1.60627e-06,-3.40794e-12,2.78395e-38,-3.92437e-12,-1.13703e-13,0,0,0,0,0,0,0,0,0,0,0,0,0,0,0,0,0,0,0,0,0,-0.261799,0,-1.5,nan,0,0,0,0,0,0,0,0,0,0,0,1.9603e-19,0,0,0,0,0
7800,-3.34297e-12,2.78418e-38,-1.60627e-06,-3.40794e-12,2.78395e-38,0,-1.13704e-13,0,0,0,0,0,0,0,0,0,0,0,0,0,0,0,0,0,0,0,0,0,-0.261799,0,-1.5,nan,0,0,0,0,0,0,0,0,0,0,0,1.9603e-19,0,0,0,0,0
8204,-3.34297e-12,2.78418e-38,-1.60627e-06,-3.40794e-12,2.78395e-38,-3.92437e-12,-1.13704e-13,0,0,0,0,0,0,0,0,0,0,0,0,0,0,0,0,0,0,0,0,0,-0.261799,0,-1.5,nan,0,0,0,0,0,0,0,0,0,0,0,1.9603e-19,0,0,0,0,0
8272,-3.34297e-12,2.78418e-38,-1.60627e-06,-3.40794e-12,2.78395e-38,0,-1.13705e-13,0,0,-3.24317,0.174395,0.0415463,0,0,0,0,0,-0.0526032,0.174395,232,-28,232,-28,364,-32,240,96,0,-0.261799,0,-1.5,nan,0,0,0,0,0,0,0,0,0,0,0,17408,0,0,0,0,8270
8380,-3.34297e-12,2.78418e-38,-1.60627e-06,-3.40794e-12,2.78395e-38,-3.92437e-12,-1.13705e-13,0,0,-3.24317,0.174395,0.0415463,0,0,0,0,0,-0.0526032,0.174395,232,-28,232,-28,364,-32,240,96,0,-0.261799,0,-1.5,nan,0,0,0,0,0,0,0,0,0,0,0,17408,0,0,0,0,8270
8449,-3.34297e-12,2.78418e-38,-1.60627e-06,-3.40794e-12,2.78395e-38,0,-1.13706e-13,0,0,-3.20112,0.16866,0.0281412,0,0,0,0,0,-0.00331306,0.16866,232,-28,232,-28,363,-36,240,96,0,-0.261799,0,-1.5,nan,0,0,0,0,0,0,0,0,0,0,0,18348,0,0,0,0,8440
8469,-3.34297e-12,2.78418e-38,-1.60627e-06,-3.40794e-12,2.78395e-38,-3.92437e-12,-1.13706e-13,0,0,-3.20112,0.16866,0.0281412,0,0,0,0,0,-0.00331306,0.16866,232,-28,232,-28,363,-36,240,96,0,-0.261799,0,-1.5,nan,0,0,0,0,0,0,0,0,0,0,0,18348,0,0,0,0,8440
8504,-3.34297e-12,2.78418e-38,-1.60627e-06,-3.40794e-12,2.78395e-38,0,-1.13707e-13,0,0,-3.20112,0.16866,0.0281412,0,0,0,0,0,-0.00331306,0.16866,232,-28,232,-28,363,-36,240,96,0,-0.261799,0,-1.5,nan,0,0,0,0,0,0,0,0,0,0,0,18348,0,0,0,0,8440
8610,-3.34297e-12,2.78418e-38,-1.60627e-06,-3.40794e-12,2.78395e-38,-3.92437e-12,-1.13708e-13,0,0,-3.20112,0.16866,0.0281412,0,0,0,0,0,-0.00331306,0.16866,232,-28,232,-28,363,-36,240,96,0,-0.261799,0,-1.5,nan,0,0,0,0,0,0,0,0,0,0,0,18348,0,0,0,0,8440
8670,-3.34297e-12,2.78418e-38,-1.60627e-06,-3.40794e-12,2.78395e-38,0,-1.13708e-13,0,0,-3.20112,0.16866,0.0281412,0,0,0,0,0,-0.00331306,0.16866,232,-28,232,-28,363,-36,240,96,0,-0.261799,0,-1.5,nan,0,0,0,0,0,0,0,0,0,0,0,18348,0,0,0,0,8440
8691,-3.34297e-12,2.78418e-38,-1.60627e-06,-3.40794e-12,2.78395e-38,-3.92437e-12,-1.13709e-13,0,0,-3.20112,0.16866,0.0281412,0,0,0,0,0,-0.00331306,0.16866,232,-28,232,-28,363,-36,240,96,0,-0.261799,0,-1.5,nan,0,0,0,0,0,0,0,0,0,0,0,18348,0,0,0,0,8440
8739,-3.34297e-12,2.78418e-38,-1.60627e-06,-3.40794e-12,2.78395e-38,0,-1.13709e-13,0,0,-3.20112,0.16866,0.0281412,0,0,0,0,0,-0.00331306,0.16866,232,-28,232,-28,363,-36,240,96,0,-0.261799,0,-1.5,nan,0,0,0,0,0,0,0,0,0,0,0,18348,0,0,0,0,8440
8850,-3.34297e-12,2.78418e-38,-1.60627e-06,-3.40794e-12,2.78395e-38,-3.92437e-12,-1.1371e-13,0,0,-3.20112,0.16866,0.0281412,0,0,0,0,0,-0.00331306,0.16866,232,-28,232,-28,363,-36,240,96,0,-0.261799,0,-1.5,nan,0,0,0,0,0,0,0,0,0,0,0,18348,0,0,0,0,8440
8890,-3.34297e-12,2.78418e-38,-1.60627e-06,-3.40794e-12,2.78395e-38,0,-1.1371e-13,0,0,-3.20112,0.16866,0.0281412,0,0,0,0,0,-0.00331306,0.16866,232,-28,232,-28,363,-36,240,96,0,-0.261799,0,-1.5,nan,0,0,0,0,0,0,0,0,0,0,0,18348,0,0,0,0,8440
8908,-3.34297e-12,2.78418e-38,-1.60627e-06,-3.40794e-12,2.78395e-38,-3.92437e-12,-1.13711e-13,0,0,-3.20112,0.16866,0.0281412,0,0,0,0,0,-0.00331306,0.16866,232,-28,232,-28,363,-36,240,96,0,-0.261799,0,-1.5,nan,0,0,0,0,0,0,0,0,0,0,0,18348,0,0,0,0,8440
9010,-3.34297e-12,2.78418e-38,-1.60627e-06,-3.40794e-12,2.78395e-38,0,-1.13711e-13,0,0,-3.20112,0.16866,0.0281412,0,0,0,0,0,-0.00331306,0.16866,232,-28,232,-28,363,-36,240,96,0,-0.261799,0,-1.5,nan,0,0,0,0,0,0,0,0,0,0,0,18348,0,0,0,0,8440
9116,-3.34297e-12,2.78418e-38,-1.60627e-06,-3.40794e-12,2.78395e-38,-3.92437e-12,-1.13712e-13,0,0,-3.20112,0.16866,0.0281412,0,0,0,0,0,-0.00331306,0.16866,232,-28,232,-28,363,-36,240,96,0,-0.261799,0,-1.5,nan,0,0,0,0,0,0,0,0,0,0,0,18348,0,0,0,0,8440
9133,-3.34297e-12,2.78418e-38,-1.60627e-06,-3.40794e-12,2.78395e-38,0,-1.13712e-13,0,0,-3.20112,0.16866,0.0281412,0,0,0,0,0,-0.00331306,0.16866,232,-28,232,-28,363,-36,240,96,0,-0.261799,0,-1.5,nan,0,0,0,0,0,0,0,0,0,0,0,18348,0,0,0,0,8440
9240,-3.34297e-12,2.78418e-38,-1.60627e-06,-3.40794e-12,2.78395e-38,-3.92437e-12,-1.13713e-13,0,0,-3.20112,0.16866,0.0281412,0,0,0,0,0,-0.00331306,0.16866,232,-28,232,-28,363,-36,240,96,0,-0.261799,0,-1.5,nan,0,0,0,0,0,0,0,0,0,0,0,18348,0,0,0,0,8440
9296,-3.34297e-12,2.78418e-38,-1.60627e-06,-3.40794e-12,2.78395e-38,0,-1.13714e-13,0,0,-3.20112,0.16866,0.0281412,0,0,0,0,0,-0.00331306,0.16866,232,-28,232,-28,363,-36,240,96,0,-0.261799,0,-1.5,nan,0,0,0,0,0,0,0,0,0,0,0,18348,0,0,0,0,8440
9317,-3.34297e-12,2.78418e-38,-1.60627e-06,-3.40794e-12,2.78395e-38,-3.92437e-12,-1.13714e-13,0,0,-3.20112,0.16866,0.0281412,0,0,0,0,0,-0.00331306,0.16866,232,-28,232,-28,363,-36,240,96,0,-0.261799,0,-1.5,nan,0,0,0,0,0,0,0,0,0,0,0,18348,0,0,0,0,8440
9353,-3.34297e-12,2.78418e-38,-1.60627e-06,-3.40794e-12,2.78395e-38,0,-1.13715e-13,0,0,-3.20112,0.16866,0.0281412,0,0,0,0,0,-0.00331306,0.16866,232,-28,232,-28,363,-36,240,96,0,-0.261799,0,-1.5,nan,0,0,0,0,0,0,0,0,0,0,0,18348,0,0,0,0,8440
9460,-3.34297e-12,2.78418e-38,-1.60627e-06,-3.40794e-12,2.78395e-38,-3.92437e-12,-1.13715e-13,0,0,-3.20112,0.16866,0.0281412,0,0,0,0,0,-0.00331306,0.16866,232,-28,232,-28,363,-36,240,96,0,-0.261799,0,-1.5,nan,0,0,0,0,0,0,0,0,0,0,0,18348,0,0,0,0,8440
9515,-3.34297e-12,2.78418e-38,-1.60627e-06,-3.40794e-12,2.78395e-38,0,-1.13716e-13,0,0,-3.20112,0.16866,0.0281412,0,0,0,0,0,-0.00331306,0.16866,232,-28,232,-28,363,-36,240,96,0,-0.261799,0,-1.5,nan,0,0,0,0,0,0,0,0,0,0,0,18348,0,0,0,0,8440
9536,-3.34297e-12,2.78418e-38,-1.60627e-06,-3.40794e-12,2.78395e-38,-3.92437e-12,-1.13716e-13,0,0,-3.20112,0.16866,0.0281412,0,0,0,0,0,-0.00331306,0.16866,232,-28,232,-28,363,-36,240,96,0,-0.261799,0,-1.5,nan,0,0,0,0,0,0,0,0,0,0,0,18348,0,0,0,0,8440
9554,-3.34297e-12,2.78418e-38,-1.60627e-06,-3.40794e-12,2.78395e-38,0,-1.13717e-13,0,0,-3.20112,0.16866,0.0281412,0,0,0,0,0,-0.00331306,0.16866,232,-28,232,-28,363,-36,240,96,0,-0.261799,0,-1.5,nan,0,0,0,0,0,0,0,0,0,0,0,18348,0,0,0,0,8440
9660,-3.34297e-12,2.78418e-38,-1.60627e-06,-3.40794e-12,2.78395e-38,-3.92437e-12,-1.13717e-13,0,0,-3.20112,0.16866,0.0281412,0,0,0,0,0,-0.00331306,0.16866,232,-28,232,-28,363,-36,240,96,0,-0.261799,0,-1.5,nan,0,0,0,0,0,0,0,0,0,0,0,18348,0,0,0,0,8440
9737,-3.34297e-12,2.78418e-38,-1.60627e-06,-3.40794e-12,2.78395e-38,0,-1.13718e-13,0,0,-3.20112,0.16866,0.0281412,0,0,0,0,0,-0.00331306,0.16866,232,-28,232,-28,363,-36,240,96,0,-0.261799,0,-1.5,nan,0,0,0,0,0,0,0,0,0,0,0,18348,0,0,0,0,8440
9754,-3.34297e-12,2.78418e-38,-1.60627e-06,-3.40794e-12,2.78395e-38,-3.92437e-12,-1.13718e-13,0,0,-3.20112,0.16866,0.0281412,0,0,0,0,0,-0.00331306,0.16866,232,-28,232,-28,363,-36,240,96,0,-0.261799,0,-1.5,nan,0,0,0,0,0,0,0,0,0,0,0,18348,0,0,0,0,8440
9805,-3.34297e-12,2.78418e-38,-1.60627e-06,-3.40794e-12,2.78395e-38,0,-1.13719e-13,0,0,-3.20112,0.16866,0.0281412,0,0,0,0,0,-0.00331306,0.16866,232,-28,232,-28,363,-36,240,96,0,-0.261799,0,-1.5,nan,0,0,0,0,0,0,0,0,0,0,0,18348,0,0,0,0,8440
9910,-3.34297e-12,2.78418e-38,-1.60627e-06,-3.40794e-12,2.78395e-38,-3.92437e-12,-1.13719e-13,0,0,-3.20112,0.16866,0.0281412,0,0,0,0,0,-0.00331306,0.16866,232,-28,232,-28,363,-36,240,96,0,-0.261799,0,-1.5,nan,0,0,0,0,0,0,0,0,0,0,0,18348,0,0,0,0,8440
9969,-3.34297e-12,2.78418e-38,-1.60627e-06,-3.40794e-12,2.78395e-38,0,-1.1372e-13,0,0,-3.20112,0.16866,0.0281412,0,0,0,0,0,-0.00331306,0.16866,232,-28,232,-28,363,-36,240,96,0,-0.261799,0,-1.5,nan,0,0,0,0,0,0,0,0,0,0,0,18348,0,0,0,0,8440
10000,-3.34297e-12,2.78418e-38,-1.60627e-06,-3.40794e-12,2.78395e-38,-3.92437e-12,-1.13721e-13,0,0,-3.20112,0.16866,0.0281412,0,0,0,0,0,-0.00331306,0.16866,232,-28,232,-28,363,-36,240,96,0,-0.261799,0,-1.5,nan,0,0,0,0,0,0,0,0,0,0,0,18348,0,0,0,0,8440
10019,-3.34297e-12,2.78418e-38,-1.60627e-06,-3.40794e-12,2.78395e-38,0,-1.13721e-13,0,0,-3.20112,0.16866,0.0281412,0,0,0,0,0,-0.00331306,0.16866,232,-28,232,-28,363,-36,240,96,0,-0.261799,0,-1.5,nan,0,0,0,0,0,0,0,0,0,0,0,18348,0,0,0,0,8440
10130,-3.34297e-12,2.78418e-38,-1.60627e-06,-3.40794e-12,2.78395e-38,-3.92437e-12,-1.13722e-13,0,0,-3.20112,0.16866,0.0281412,0,0,0,0,0,-0.00331306,0.16866,232,-28,232,-28,363,-36,240,96,0,-0.261799,0,-1.5,nan,0,0,0,0,0,0,0,0,0,0,0,18348,0,0,0,0,8440
10173,-3.34297e-12,2.78418e-38,-1.60627e-06,-3.40794e-12,2.78395e-38,0,-1.13722e-13,0,0,-3.20112,0.16866,0.0281412,0,0,0,0,0,-0.00331306,0.16866,232,-28,232,-28,363,-36,240,96,0,-0.261799,0,-1.5,nan,0,0,0,0,0,0,0,0,0,0,0,18348,0,0,0,0,8440
10190,-3.34297e-12,2.78418e-38,-1.60627e-06,-3.40794e-12,2.78395e-38,-3.92437e-12,-1.13723e-13,0,0,-3.20112,0.16866,0.0281412,0,0,0,0,0,-0.00331306,0.16866,232,-28,232,-28,363,-36,240,96,0,-0.261799,0,-1.5,nan,0,0,0,0,0,0,0,0,0,0,0,18348,0,0,0,0,8440
10211,-3.34297e-12,2.78418e-38,-1.60627e-06,-3.40794e-12,2.78395e-38,0,-1.13723e-13,0,0,-3.20112,0.16866,0.0281412,0,0,0,0,0,-0.00331306,0.16866,232,-28,232,-28,363,-36,240,96,0,-0.261799,0,-1.5,nan,0,0,0,0,0,0,0,0,0,0,0,18348,0,0,0,0,8440
10320,-3.34297e-12,2.78418e-38,-1.60627e-06,-3.40794e-12,2.78395e-38,-3.92437e-12,-1.13724e-13,0,0,-3.20112,0.16866,0.0281412,0,0,0,0,0,-0.00331306,0.16866,232,-28,232,-28,363,-36,240,96,0,-0.261799,0,-1.5,nan,0,0,0,0,0,0,0,0,0,0,0,18348,0,0,0,0,8440
10418,-3.34297e-12,2.78418e-38,-1.60627e-06,-3.40794e-12,2.78395e-38,0,-1.13724e-13,0,0,-3.20112,0.16866,0.0281412,0,0,0,0,0,-0.00331306,0.16866,232,-28,232,-28,363,-36,240,96,0,-0.261799,0,-1.5,nan,0,0,0,0,0,0,0,0,0,0,0,18348,0,0,0,0,8440
10434,-3.34297e-12,2.78418e-38,-1.60627e-06,-3.40794e-12,2.78395e-38,-3.92437e-12,-1.13725e-13,0,0,-3.20112,0.16866,0.0281412,0,0,0,0,0,-0.00331306,0.16866,232,-28,232,-28,363,-36,240,96,0,-0.261799,0,-1.5,nan,0,0,0,0,0,0,0,0,0,0,0,18348,0,0,0,0,8440
10456,-3.34297e-12,2.78418e-38,-1.60627e-06,-3.40794e-12,2.78395e-38,0,-1.13725e-13,0,0,-3.20112,0.16866,0.0281412,0,0,0,0,0,-0.00331306,0.16866,232,-28,232,-28,363,-36,240,96,0,-0.261799,0,-1.5,nan,0,0,0,0,0,0,0,0,0,0,0,18348,0,0,0,0,8440
10560,-3.34297e-12,2.78418e-38,-1.60627e-06,-3.40794e-12,2.78395e-38,-3.92437e-12,-1.13726e-13,0,0,-3.20112,0.16866,0.0281412,0,0,0,0,0,-0.00331306,0.16866,232,-28,232,-28,363,-36,240,96,0,-0.261799,0,-1.5,nan,0,0,0,0,0,0,0,0,0,0,0,18348,0,0,0,0,8440
10638,-3.34297e-12,2.78418e-38,-1.60627e-06,-3.40794e-12,2.78395e-38,0,-1.13727e-13,0,0,-3.20112,0.16866,0.0281412,0,0,0,0,0,-0.00331306,0.16866,232,-28,232,-28,363,-36,240,96,0,-0.261799,0,-1.5,nan,0,0,0,0,0,0,0,0,0,0,0,18348,0,0,0,0,8440
10655,-3.34297e-12,2.78418e-38,-1.60627e-06,-3.40794e-12,2.78395e-38,-3.92437e-12,-1.13727e-13,0,0,-3.20112,0.16866,0.0281412,0,0,0,0,0,-0.00331306,0.16866,232,-28,232,-28,363,-36,240,96,0,-0.261799,0,-1.5,nan,0,0,0,0,0,0,0,0,0,0,0,18348,0,0,0,0,8440
10676,-3.34297e-12,2.78418e-38,-1.60627e-06,-3.40794e-12,2.78395e-38,0,-1.13728e-13,0,0,-3.20112,0.16866,0.0281412,0,0,0,0,0,-0.00331306,0.16866,232,-28,232,-28,363,-36,240,96,0,-0.261799,0,-1.5,nan,0,0,0,0,0,0,0,0,0,0,0,18348,0,0,0,0,8440
10780,-3.34297e-12,2.78418e-38,-1.60627e-06,-3.40794e-12,2.78395e-38,-3.92437e-12,-1.13728e-13,0,0,-3.09422,0.0953227,0.487878,0,0,0,0,0,0.121203,0.0953227,240,-96,240,-96,375,-104,248,39,0,-0.261799,0,-1.5,nan,0,0,0,0,0,0,0,0,0,0,0,19448,0,0,0,0,10778
10837,-3.34297e-12,2.78418e-38,-1.60627e-06,-3.40794e-12,2.78395e-38,0,-1.13729e-13,0,0,-3.10322,0.110885,0.407572,0,0,0,0,0,0.110762,0.110885,241,-85,241,-85,373,-93,244,52,0,-0.261799,0,-1.5,nan,0,0,0,0,0,0,0,0,0,0,0,19285,0,0,0,0,10828
10851,-3.34297e-12,2.78418e-38,-1.60627e-06,-3.40794e-12,2.78395e-38,-3.92437e-12,-1.13729e-13,0,0,-3.08745,0.126917,0.338242,0,0,0,0,0,0.129048,0.126917,235,-74,235,-74,371,-87,243,55,0,-0.261799,0,-1.5,nan,0,0,0,0,0,0,0,0,0,0,0,19880,0,0,0,0,10846
10869,-3.34297e-12,2.78418e-38,-1.60627e-06,-3.40794e-12,2.78395e-38,0,-1.1373e-13,0,0,-3.08745,0.126917,0.338242,0,0,0,0,0,0.129048,0.126917,235,-74,235,-74,371,-87,243,55,0,-0.261799,0,-1.5,nan,0,0,0,0,0,0,0,0,0,0,0,19880,0,0,0,0,10846
11032,-3.34297e-12,2.78418e-38,-1.60627e-06,-3.40794e-12,2.78395e-38,-3.92437e-12,-1.1373e-13,0,0,-3.13402,0.139628,0.20904,0,0,0,0,0,0.0749817,0.139628,236,-60,236,-60,369,-63,242,75,0,-0.261799,0,-1.5,nan,0,0,0,0,0,0,0,0,0,0,0,18630,0,0,0,0,11024
11050,-3.34297e-12,2.78418e-38,-1.60627e-06,-3.40794e-12,2.78395e-38,0,-1.13731e-13,0,0,-3.15003,0.126433,0.197439,0,0,0,0,0,0.0563452,0.126433,236,-57,236,-57,372,-60,245,72,0,-0.261799,0,-1.5,nan,0,0,0,0,0,0,0,0,0,0,0,18088,0,0,0,0,11044
11072,-3.34297e-12,2.78418e-38,-1.60627e-06,-3.40794e-12,2.78395e-38,-3.92437e-12,-1.13731e-13,0,0,-3.15003,0.126433,0.197439,0,0,0,0,0,0.0563452,0.126433,236,-57,236,-57,372,-60,245,72,0,-0.261799,0,-1.5,nan,0,0,0,0,0,0,0,0,0,0,0,18088,0,0,0,0,11044
11341,-3.34297e-12,2.78418e-38,-1.60627e-06,-3.40794e-12,2.78395e-38,0,-1.13732e-13,0,0,-3.20898,0.11742,0.136292,0,0,0,0,0,-0.0125079,0.11742,240,-43,240,-43,371,-48,246,86,-0.261799,-0.261799,0,-1.5,nan,0,0,0,-0.134024,0.144176,0,0,0,0,-0.451733,0.059342,17822,-0.0125079,0.128213,-0.451733,0.059342,11172
11484,-3.34297e-12,2.78418e-38,-1.60627e-06,-3.40794e-12,2.78395e-38,-3.92437e-12,-1.13732e-13,0,0,-3.22951,0.093799,0.12196,0,0,0,0,0,-0.0365748,0.093799,243,-41,243,-41,374,-43,249,88,-0.0956952,-0.261799,0,-1.5,nan,0,0,0,-0.0762289,0.1003,0,0,0,0,-0.279256,-0.0416554,17292,-0.0365748,0.106215,-0.279256,-0.0416554,11359
12318,-3.34297e-12,2.78418e-38,-1.60627e-06,-3.40794e-12,2.78395e-38,0,-1.13733e-13,0,0,-3.23812,0.110214,0.122761,-0.239404,0.101694,-0.229861,-0.0111166,0,-0.0466776,0.110214,240,-37,240,-37,371,-44,248,88,-0.137478,-0.261799,0,-1.5,nan,0,0,0,-0.239404,0.101694,0,0,0,0,-0.229861,-0.0111166,17820,0,0,0,0,11582
12420,-3.34297e-12,2.78418e-38,-1.60627e-06,-3.40794e-12,2.78395e-38,-3.92437e-12,-1.13734e-13,0,0,-3.25393,0.101767,0.127139,-0.261743,0.100613,-0.218183,-0.0105518,0,-0.0652447,0.101767,243,-37,243,-37,371,-43,248,88,-0.136598,-0.261799,0,-1.5,nan,0,0,0,-0.261743,0.100613,0,0,0,0,-0.218183,-0.0105518,17423,0,0,0,0,12412
12491,-3.34297e-12,2.78418e-38,-1.60627e-06,-3.40794e-12,2.78395e-38,0,-1.13734e-13,0,0,-3.22635,0.105198,0.112104,-0.276749,0.0998875,-0.210469,-0.0101788,0,-0.0328584,0.105198,240,-37,240,-37,373,-43,248,88,-0.135999,-0.261799,0,-1.5,nan,0,0,0,-0.276749,0.0998875,0,0,0,0,-0.210469,-0.0101788,17685,0,0,0,0,12482
12504,-3.34297e-12,2.78418e-38,-1.60627e-06,-3.40794e-12,2.78395e-38,-3.92437e-12,-1.13735e-13,0,0,-3.22635,0.105198,0.112104,-0.279474,0.0997557,-0.209105,-0.0101128,0,-0.0328584,0.105198,240,-37,240,-37,373,-43,248,88,-0.135888,-0.261799,0,-1.5,nan,0,0,0,-0.279474,0.0997557,0,0,0,0,-0.209105,-0.0101128,17685,0,0,0,0,12482
12552,-3.34297e-12,2.78418e-38,-1.60627e-06,-3.40794e-12,2.78395e-38,0,-1.13735e-13,0,0,-3.23961,0.10996,0.119272,-0.28931,0.09928,-0.204106,-0.00987104,0,-0.0484281,0.10996,240,-37,240,-37,371,-43,248,88,-0.135491,-0.261799,0,-1.5,nan,0,0,0,-0.28931,0.09928,0,0,0,0,-0.204106,-0.00987104,17685,0,0,0,0,12548
12646,-3.34297e-12,2.78418e-38,-1.60627e-06,-3.40794e-12,2.78395e-38,-3.92437e-12,-1.13736e-13,0,0,-3.21833,0.102813,0.107856,-0.307676,0.0983918,-0.194554,-0.00940906,0,-0.023458,0.102813,240,-37,240,-37,373,-43,248,88,-0.134765,-0.261799,0,-1.5,nan,0,0,0,-0.307676,0.0983918,0,0,0,0,-0.194554,-0.00940906,17816,0,0,0,0,12637
12662,-3.34297e-12,2.78418e-38,-1.60627e-06,-3.40794e-12,2.78395e-38,0,-1.13736e-13,0,0,-3.21833,0.102813,0.107856,-0.310772,0.098242,-0.193002,-0.00933399,0,-0.023458,0.102813,240,-37,240,-37,373,-43,248,88,-0.134639,-0.261799,0,-1.5,nan,0,0,0,-0.310772,0.098242,0,0,0,0,-0.193002,-0.00933399,17816,0,0,0,0,12654
12679,-3.34297e-12,2.78418e-38,-1.60627e-06,-3.40794e-12,2.78395e-38,-3.92437e-12,-1.13737e-13,0,0,-3.21833,0.102813,0.107856,-0.314035,0.0980842,-0.191366,-0.00925488,0,-0.023458,0.102813,240,-37,240,-37,373,-43,248,88,-0.134506,-0.261799,0,-1.5,nan,0,0,0,-0.314035,0.0980842,0,0,0,0,-0.191366,-0.00925488,17816,0,0,0,0,12654
12801,-3.34297e-12,2.78418e-38,-1.60627e-06,-3.40794e-12,2.78395e-38,0,-1.13737e-13,0,0,-3.23136,0.10755,0.114898,-0.336047,0.0970197,-0.179737,-0.00869249,0,-0.0387416,0.10755,240,-37,240,-37,371,-43,248,88,-0.175723,-0.261799,0,-1.5,nan,0,0,0,-0.0388934,0.108785,0,0,0,0,-0.000552595,0.0101534,17816,0.275293,0.00946594,0.179185,0.0188459,12684
12928,-3.34297e-12,2.78418e-38,-1.60627e-06,-3.40794e-12,2.78395e-38,-3.92437e-12,-1.13738e-13,0,0,-3.23136,0.10755,0.114898,-0.357588,0.0959779,-0.168402,-0.00814431,0,-0.0387416,0.10755,240,-37,240,-37,371,-43,248,88,-0.171382,-0.261799,0,-1.5,nan,0,0,0,-0.037485,0.108391,0,0,0,0,0.0111618,0.00726597,17816,0.299273,0.0106257,0.179564,0.0154103,12814
13101,-3.34297e-12,2.78418e-38,-1.60627e-06,-3.40794e-12,2.78395e-38,0,-1.13738e-13,0,0,-3.20928,0.109702,0.104376,-0.384315,0.0946853,-0.153892,-0.00744256,0,-0.0128598,0.109702,240,-37,240,-37,371,-46,248,90,-0.179142,-0.261799,0,-1.5,nan,0,0,0,0.000480721,0.111268,0,0,0,0,0.0871348,0.00992942,18360,0.343098,0.013577,0.241027,0.017372,12972
13260,-3.34297e-12,2.78418e-38,-1.60627e-06,-3.40794e-12,2.78395e-38,-3.92437e-12,-1.13739e-13,0,0,-3.22635,0.105198,0.112104,-0.406933,0.0935915,-0.141705,-0.00685316,0,-0.0328584,0.105198,240,-37,240,-37,373,-43,248,88,-0.172325,-0.261799,0,-1.5,nan,0,0,0,-0.026783,0.109972,0,0,0,0,0.0387907,0.00617489,17685,0.351451,0.014309,0.180495,0.0130281,13146
13430,-3.34297e-12,2.78418e-38,-1.60627e-06,-3.40794e-12,2.78395e-38,0,-1.1374e-13,0,0,-3.2217,0.109887,0.115635,-0.429167,0.0925162,-0.12975,-0.00627499,0,-0.0274067,0.109887,240,-37,240,-37,371,-46,248,88,-0.174014,-0.261799,0,-1.5,nan,0,0,0,-0.0185727,0.110947,0,0,0,0,0.050262,0.00635393,18090,0.382332,0.016448,0.180012,0.0126289,13276
13558,-3.34297e-12,2.78418e-38,-1.60627e-06,-3.40794e-12,2.78395e-38,-3.92437e-12,-1.1374e-13,0,0,-3.2337,0.109938,0.118102,-0.444831,0.0917586,-0.121503,-0.00587615,0,-0.0414853,0.109938,240,-37,240,-37,371,-44,248,88,-0.172328,-0.261799,0,-1.5,nan,0,0,0,-0.0124358,0.110848,0,0,0,0,0.0572286,0.00517036,17820,0.411484,0.0177969,0.178731,0.0110465,13444
13585,-3.34297e-12,2.78418e-38,-1.60627e-06,-3.40794e-12,2.78395e-38,0,-1.13741e-13,0,0,-3.2337,0.109938,0.118102,-0.448083,0.0916013,-0.11987,-0.00579719,0,-0.0414853,0.109938,240,-37,240,-37,371,-44,248,88,-0.170863,-0.261799,0,-1.5,nan,0,0,0,-0.010862,0.110297,0,0,0,0,0.0588611,0.0046774,17820,0.434182,0.0185174,0.178731,0.0104746,13570
13727,-3.34297e-12,2.78418e-38,-1.60627e-06,-3.40794e-12,2.78395e-38,-3.92437e-12,-1.13741e-13,0,0,-3.23366,0.110053,0.12668,-0.464049,0.0908292,-0.111432,-0.0053891,0,-0.0414395,0.110053,240,-37,240,-37,371,-46,248,86,-0.171576,-0.261799,0,-1.5,nan,0,0,0,-0.0340802,0.110776,0,0,0,0,0.0351043,0.00467479,17820,0.411358,0.0186684,0.146536,0.0100639,13602
13858,-3.34297e-12,2.78418e-38,-1.60627e-06,-3.40794e-12,2.78395e-38,0,-1.13742e-13,0,0,-3.21358,0.107492,0.111325,-0.477819,0.0901632,-0.104195,-0.00503911,0,-0.0179024,0.107492,240,-37,240,-37,371,-46,248,88,-0.172538,-0.261799,0,-1.5,nan,0,0,0,-0.0129887,0.1113,0,0,0,0,0.0562046,0.004813,18224,0.445743,0.0199643,0.1604,0.00985211,13742
14003,-3.34297e-12,2.78418e-38,-1.60627e-06,-3.40794e-12,2.78395e-38,-3.92437e-12,-1.13742e-13,0,0,-3.21833,0.102813,0.107856,-0.49189,0.0894827,-0.0966701,-0.00467518,0,-0.023458,0.102813,240,-37,240,-37,373,-43,248,88,-0.173931,-0.261799,0,-1.5,nan,0,0,0,-0.0149271,0.111901,0,0,0,0,0.0540936,0.00519391,17816,0.455102,0.0209868,0.150764,0.0098691,13886
14183,-3.34297e-12,2.78418e-38,-1.60627e-06,-3.40794e-12,2.78395e-38,0,-1.13743e-13,0,0,-3.24567,0.110102,0.129146,-0.507801,0.0887132,-0.0880076,-0.00425625,0,-0.0555325,0.110102,240,-37,240,-37,371,-44,248,86,-0.172431,-0.261799,0,-1.5,nan,0,0,0,-0.00497804,0.111436,0,0,0,0,0.0623587,0.0045742,17550,0.475757,0.0211328,0.150366,0.00883045,14064
14199,-3.34297e-12,2.78418e-38,-1.60627e-06,-3.40794e-12,2.78395e-38,-3.92437e-12,-1.13743e-13,0,0,-3.24567,0.110102,0.129146,-0.509201,0.0886455,-0.0873055,-0.00422229,0,-0.0555325,0.110102,240,-37,240,-37,371,-44,248,86,-0.172585,-0.261799,0,-1.5,nan,0,0,0,-0.00397293,0.111509,0,0,0,0,0.0630608,0.00460815,17550,0.475757,0.0211328,0.150366,0.00883045,14064
14362,-3.34297e-12,2.78418e-38,-1.60627e-06,-3.40794e-12,2.78395e-38,0,-1.13744e-13,0,0,-3.2337,0.109938,0.118102,-0.522254,0.0880142,-0.0802611,-0.00388161,0,-0.0414853,0.109938,240,-37,240,-37,371,-44,248,88,-0.172718,-0.261799,0,-1.5,nan,0,0,0,-0.000212628,0.111663,0,0,0,0,0.0646996,0.00453391,17820,0.498558,0.0222853,0.144961,0.00841552,14224
14486,-3.34297e-12,2.78418e-38,-1.60627e-06,-3.40794e-12,2.78395e-38,-3.92437e-12,-1.13744e-13,0,0,-3.22635,0.105198,0.112104,-0.531719,0.0875565,-0.0752729,-0.00364037,0,-0.0328584,0.105198,240,-37,240,-37,373,-43,248,88,-0.169701,-0.261799,0,-1.5,nan,0,0,0,-0.0029773,0.110787,0,0,0,0,0.0598885,0.00322036,17685,0.513198,0.022441,0.135161,0.00686073,14373
14614,-3.34297e-12,2.78418e-38,-1.60627e-06,-3.40794e-12,2.78395e-38,0,-1.13745e-13,0,0,-3.22549,0.107533,0.113749,-0.540811,0.0871168,-0.0704904,-0.00340908,0,-0.0318594,0.107533,240,-37,240,-37,371,-44,248,88,-0.168715,-0.261799,0,-1.5,nan,0,0,0,-0.0133398,0.10996,0,0,0,0,0.0528322,0.0034121,17952,0.513412,0.0220655,0.123323,0.00682118,14502
14744,-3.34297e-12,2.78418e-38,-1.60627e-06,-3.40794e-12,2.78395e-38,-3.92437e-12,-1.13745e-13,0,0,-3.2337,0.109938,0.118102,-0.549387,0.086702,-0.0659769,-0.00319079,0,-0.0414853,0.109938,240,-37,240,-37,371,-44,248,88,-0.168494,-0.261799,0,-1.5,nan,0,0,0,-0.021777,0.11023,0,0,0,0,0.0396363,0.00293122,17820,0.515465,0.0228238,0.105613,0.00612201,14630
14871,-3.34297e-12,2.78418e-38,-1.60627e-06,-3.40794e-12,2.78395e-38,0,-1.13746e-13,0,0,-3.22128,0.109754,0.10684,-0.557356,0.0863166,-0.061785,-0.00298806,0,-0.026917,0.109754,240,-37,240,-37,371,-44,248,90,-0.166488,-0.261799,0,-1.5,nan,0,0,0,-0.0227582,0.109978,0,0,0,0,0.0369637,0.00167766,18090,0.523341,0.0231297,0.0987487,0.00466572,14760
15009,-3.34297e-12,2.78418e-38,-1.60627e-06,-3.40794e-12,2.78395e-38,-3.92437e-12,-1.13747e-13,0,0,-3.23705,0.101003,0.122439,-0.565391,0.085928,-0.0575673,-0.00278409,0,-0.0454173,0.101003,240,-37,240,-37,373,-43,249,86,-0.166935,-0.261799,0,-1.5,nan,0,0,0,-0.0180687,0.11023,0,0,0,0,0.0410699,0.00173253,17544,0.536176,0.0237913,0.0986372,0.00451662,14898
15140,-3.34297e-12,2.78418e-38,-1.60627e-06,-3.40794e-12,2.78395e-38,0,-1.13747e-13,0,0,-3.249,0.106026,0.133224,-0.572502,0.0855841,-0.0538272,-0.00260321,0,-0.0594511,0.106026,240,-37,240,-37,371,-44,249,86,-0.159371,-0.261799,0,-1.5,nan,0,0,0,-0.0270956,0.107022,0,0,0,0,0.0346198,-0.000400305,17680,0.535235,0.021185,0.088447,0.0022029,15027
15270,-3.34297e-12,2.78418e-38,-1.60627e-06,-3.40794e-12,2.78395e-38,-3.92437e-12,-1.13748e-13,0,0,-3.2337,0.109938,0.118102,-0.579101,0.085265,-0.0503554,-0.0024353,0,-0.0414853,0.109938,240,-37,240,-37,371,-44,248,88,-0.165972,-0.261799,0,-1.5,nan,0,0,0,-0.0218494,0.109903,0,0,0,0,0.0381864,0.00136679,17820,0.546981,0.0241973,0.0885418,0.00380209,15156
15422,-3.34297e-12,2.78418e-38,-1.60627e-06,-3.40794e-12,2.78395e-38,0,-1.13748e-13,0,0,-3.21833,0.102813,0.107856,-0.586234,0.08492,-0.0465567,-0.00225159,0,-0.023458,0.102813,240,-37,240,-37,373,-43,248,88,-0.158538,-0.261799,0,-1.5,nan,0,0,0,-0.0230539,0.106508,0,0,0,0,0.0325208,-0.000449137,17816,0.552426,0.0213428,0.0790775,0.00180245,15288
15554,-3.34297e-12,2.78418e-38,-1.60627e-06,-3.40794e-12,2.78395e-38,-3.92437e-12,-1.13749e-13,0,0,-3.23574,0.107823,0.119527,-0.592029,0.0846397,-0.04351,-0.00210424,0,-0.0438771,0.107823,240,-37,240,-37,371,-43,248,88,-0.161256,-0.261799,0,-1.5,nan,0,0,0,-0.0325895,0.107629,0,0,0,0,0.0243901,0.00035292,17816,0.551427,0.0226994,0.0679001,0.00245716,15438
15702,-3.34297e-12,2.78418e-38,-1.60627e-06,-3.40794e-12,2.78395e-38,0,-1.13749e-13,0,0,-3.22635,0.105198,0.112104,-0.598017,0.0843502,-0.0403027,-0.00194913,0,-0.0328584,0.105198,240,-37,240,-37,373,-43,248,88,-0.158558,-0.261799,0,-1.5,nan,0,0,0,-0.0330074,0.106377,0,0,0,0,0.0200716,-0.000283422,17685,0.556074,0.0217802,0.0603743,0.00166571,15579
15719,-3.34297e-12,2.78418e-38,-1.60627e-06,-3.40794e-12,2.78395e-38,-3.92437e-12,-1.1375e-13,0,0,-3.22635,0.105198,0.112104,-0.598698,0.0843172,-0.0399612,-0.00193261,0,-0.0328584,0.105198,240,-37,240,-37,373,-43,248,88,-0.158573,-0.261799,0,-1.5,nan,0,0,0,-0.0326624,0.106372,0,0,0,0,0.0204131,-0.000266904,17685,0.556074,0.0217802,0.0603743,0.00166571,15579
15868,-3.34297e-12,2.78418e-38,-1.60627e-06,-3.40794e-12,2.78395e-38,0,-1.1375e-13,0,0,-3.21833,0.102813,0.107856,-0.604198,0.0840512,-0.0370155,-0.00179015,0,-0.023458,0.102813,240,-37,240,-37,373,-43,248,88,-0.153831,-0.261799,0,-1.5,nan,0,0,0,-0.0257492,0.104367,0,0,0,0,0.0258009,-0.00160941,17816,0.569152,0.0202888,0.0628164,0.000180739,15744
16015,-3.34297e-12,2.78418e-38,-1.60627e-06,-3.40794e-12,2.78395e-38,-3.92437e-12,-1.13751e-13,0,0,-3.22635,0.105198,0.112104,-0.609292,0.0838049,-0.0342869,-0.00165819,0,-0.0328584,0.105198,240,-37,240,-37,373,-43,248,88,-0.154899,-0.261799,0,-1.5,nan,0,0,0,-0.0253912,0.104646,0,0,0,0,0.0258262,-0.00110803,17685,0.575004,0.0207592,0.0601131,0.000550159,15879
16144,-3.34297e-12,2.78418e-38,-1.60627e-06,-3.40794e-12,2.78395e-38,0,-1.13751e-13,0,0,-3.23961,0.10996,0.119272,-0.613447,0.0836039,-0.0320839,-0.00155165,0,-0.0484281,0.10996,240,-37,240,-37,371,-43,248,88,-0.156086,-0.261799,0,-1.5,nan,0,0,0,-0.0277116,0.105004,0,0,0,0,0.0218192,-0.000607552,17685,0.578781,0.0212785,0.0539031,0.000944097,16027
16268,-3.34297e-12,2.78418e-38,-1.60627e-06,-3.40794e-12,2.78395e-38,-3.92437e-12,-1.13752e-13,0,0,-3.2337,0.109938,0.118102,-0.617194,0.0834227,-0.0301023,-0.00145582,0,-0.0414853,0.109938,240,-37,240,-37,371,-44,248,88,-0.157535,-0.261799,0,-1.5,nan,0,0,0,-0.0261796,0.105634,0,0,0,0,0.0229475,-0.000217255,17820,0.584436,0.0220582,0.0530498,0.00123856,16153
16433,-3.34297e-12,2.78418e-38,-1.60627e-06,-3.40794e-12,2.78395e-38,0,-1.13753e-13,0,0,-3.23345,0.103388,0.124455,-0.62177,0.0832014,-0.0276285,-0.00133618,0,-0.041194,0.103388,240,-37,240,-37,373,-45,249,86,-0.154071,-0.261799,0,-1.5,nan,0,0,0,-0.0366043,0.104054,0,0,0,0,0.0157883,-0.00106591,17685,0.578002,0.0208084,0.0434168,0.000270268,16308
16558,-3.34297e-12,2.78418e-38,-1.60627e-06,-3.40794e-12,2.78395e-38,-3.92437e-12,-1.13753e-13,0,0,-3.23473,0.105289,0.121362,-0.625023,0.0830441,-0.0259091,-0.00125302,0,-0.0426936,0.105289,240,-37,240,-37,371,-43,248,86,-0.15209,-0.261799,0,-1.5,nan,0,0,0,-0.0355982,0.103725,0,0,0,0,0.0160763,-0.00221158,17673,0.584176,0.0208009,0.0419854,-0.000958553,16442
16700,-3.34297e-12,2.78418e-38,-1.60627e-06,-3.40794e-12,2.78395e-38,0,-1.13754e-13,0,0,-3.23136,0.10755,0.114898,-0.628456,0.082878,-0.0240775,-0.00116444,0,-0.0387416,0.10755,240,-37,240,-37,371,-43,248,88,-0.158327,-0.261799,0,-1.5,nan,0,0,0,-0.0362107,0.105567,0,0,0,0,0.0144425,0.000469103,17816,0.586776,0.0224571,0.03852,0.00163354,16580
16825,-3.34297e-12,2.78418e-38,-1.60627e-06,-3.40794e-12,2.78395e-38,-3.92437e-12,-1.13754e-13,0,0,-3.24191,0.108014,0.125132,-0.631302,0.0827404,-0.0225841,-0.00109222,0,-0.0511274,0.108014,240,-36,240,-36,371,-44,248,86,-0.164943,-0.261799,0,-1.5,nan,0,0,0,-0.0327547,0.108152,0,0,0,0,0.017762,0.00258779,17680,0.594029,0.0249995,0.0403461,0.00368001,16715
16957,-3.34297e-12,2.78418e-38,-1.60627e-06,-3.40794e-12,2.78395e-38,0,-1.13755e-13,0,0,-3.24276,0.11055,0.123205,-0.634114,0.0826044,-0.0211068,-0.00102077,0,-0.0521188,0.11055,240,-36,240,-36,371,-44,248,88,-0.164491,-0.261799,0,-1.5,nan,0,0,0,-0.0410415,0.108429,0,0,0,0,0.0051916,0.00192205,17820,0.589996,0.0254805,0.0262984,0.00294283,16842
17088,-3.34297e-12,2.78418e-38,-1.60627e-06,-3.40794e-12,2.78395e-38,-3.92437e-12,-1.13755e-13,0,0,-3.22635,0.105198,0.112104,-0.63671,0.0824789,-0.0197303,-0.0009542,0,-0.0328584,0.105198,240,-37,240,-37,373,-43,248,88,-0.165893,-0.261799,0,-1.5,nan,0,0,0,-0.0413893,0.108809,0,0,0,0,0.00434936,0.00256382,17685,0.592166,0.0258689,0.0240796,0.00351802,16970
17214,-3.34297e-12,2.78418e-38,-1.60627e-06,-3.40794e-12,2.78395e-38,0,-1.13756e-13,0,0,-3.22401,0.107781,0.108623,-0.639056,0.0823654,-0.0184953,-0.000894473,0,-0.0301261,0.107781,240,-36,240,-36,371,-44,248,89,-0.16484,-0.261799,0,-1.5,nan,0,0,0,-0.0422768,0.108184,0,0,0,0,0.00422137,0.00247244,18088,0.594099,0.0254211,0.0227166,0.00336691,17098
17365,-3.34297e-12,2.78418e-38,-1.60627e-06,-3.40794e-12,2.78395e-38,-3.92437e-12,-1.13756e-13,0,0,-3.21747,0.106713,0.100634,-0.641657,0.0822396,-0.017108,-0.000827381,0,-0.022459,0.106713,240,-37,240,-37,371,-43,248,88,-0.164634,-0.261799,0,-1.5,nan,0,0,0,-0.0251836,0.108294,0,0,0,0,0.0194779,0.00218763,17816,0.611315,0.0256289,0.0365859,0.00301501,17226
17525,-3.34297e-12,2.78418e-38,-1.60627e-06,-3.40794e-12,2.78395e-38,0,-1.13757e-13,0,0,-3.21833,0.102813,0.107856,-0.644186,0.0821173,-0.0157447,-0.000761447,0,-0.023458,0.102813,240,-37,240,-37,373,-43,248,88,-0.163344,-0.261799,0,-1.5,nan,0,0,0,-0.0224907,0.107716,0,0,0,0,0.0200135,0.00185861,17816,0.615974,0.0251798,0.0357581,0.00262006,17408
17705,-3.34297e-12,2.78418e-38,-1.60627e-06,-3.40794e-12,2.78395e-38,-3.92437e-12,-1.13757e-13,0,0,-3.21158,0.106696,0.0994752,-0.646776,0.081992,-0.0143331,-0.000693183,0,-0.0155606,0.106696,240,-37,240,-37,371,-44,248,88,-0.162115,-0.261799,0,-1.5,nan,0,0,0,-0.0180324,0.107336,0,0,0,0,0.0222862,0.00134956,17952,0.622152,0.0249767,0.0366194,0.00204275,17559
17844,-3.34297e-12,2.78418e-38,-1.60627e-06,-3.40794e-12,2.78395e-38,0,-1.13758e-13,0,0,-3.21833,0.102813,0.107856,-0.648638,0.081902,-0.0133413,-0.000645214,0,-0.023458,0.102813,240,-37,240,-37,373,-43,248,88,-0.157661,-0.261799,0,-1.5,nan,0,0,0,-0.014197,0.106239,0,0,0,0,0.0240702,-0.000815256,17816,0.629241,0.0243606,0.0374114,-0.000170042,17731
17988,-3.34297e-12,2.78418e-38,-1.60627e-06,-3.40794e-12,2.78395e-38,-3.92437e-12,-1.13759e-13,0,0,-3.24567,0.110102,0.129146,-0.650434,0.0818151,-0.012387,-0.000599061,0,-0.0555325,0.110102,240,-37,240,-37,371,-44,248,86,-0.154074,-0.261799,0,-1.5,nan,0,0,0,-0.0114365,0.104973,0,0,0,0,0.0242596,-0.00211938,17550,0.63416,0.0233586,0.0366466,-0.00152032,17858
18014,-3.34297e-12,2.78418e-38,-1.60627e-06,-3.40794e-12,2.78395e-38,0,-1.13759e-13,0,0,-3.2337,0.109938,0.118102,-0.650754,0.0817997,-0.0122267,-0.000591309,0,-0.0414853,0.109938,240,-37,240,-37,371,-44,248,88,-0.158907,-0.261799,0,-1.5,nan,0,0,0,-0.0156419,0.106577,0,0,0,0,0.0213117,-0.000244711,17820,0.634709,0.0247731,0.0335384,0.000346598,18004
18026,-3.34297e-12,2.78418e-38,-1.60627e-06,-3.40794e-12,2.78395e-38,-3.92437e-12,-1.1376e-13,0,0,-3.2337,0.109938,0.118102,-0.6509,0.0817926,-0.0121535,-0.00058777,0,-0.0414853,0.109938,240,-37,240,-37,371,-44,248,88,-0.158908,-0.261799,0,-1.5,nan,0,0,0,-0.0153856,0.106574,0,0,0,0,0.0213849,-0.000241172,17820,0.634709,0.0247731,0.0335384,0.000346598,18004
18181,-3.34297e-12,2.78418e-38,-1.60627e-06,-3.40794e-12,2.78395e-38,0,-1.1376e-13,0,0,-3.24567,0.110102,0.129146,-0.652646,0.0817081,-0.0112157,-0.000542415,0,-0.0555325,0.110102,240,-37,240,-37,371,-44,248,86,-0.169378,-0.261799,0,-1.5,nan,0,0,0,-0.0231546,0.110506,0,0,0,0,0.0163064,0.00329362,17550,0.625418,0.0282306,0.027522,0.00383603,18035
18193,-3.34297e-12,2.78418e-38,-1.60627e-06,-3.40794e-12,2.78395e-38,-3.92437e-12,-1.13761e-13,0,0,-3.24567,0.110102,0.129146,-0.652769,0.0817022,-0.0111541,-0.000539438,0,-0.0555325,0.110102,240,-37,240,-37,371,-44,248,86,-0.169436,-0.261799,0,-1.5,nan,0,0,0,-0.0229749,0.110543,0,0,0,0,0.0163679,0.0032966,17550,0.625418,0.0282306,0.027522,0.00383603,18035
18312,-3.34297e-12,2.78418e-38,-1.60627e-06,-3.40794e-12,2.78395e-38,0,-1.13761e-13,0,0,-3.22635,0.105198,0.112104,-0.654034,0.081641,-0.010488,-0.000507225,0,-0.0328584,0.105198,240,-37,240,-37,373,-43,248,88,-0.159204,-0.261799,0,-1.5,nan,0,0,0,-0.0307934,0.106594,0,0,0,0,0.0105379,-3.64766e-05,17685,0.620781,0.0248982,0.021026,0.000470748,18198
18432,-3.34297e-12,2.78418e-38,-1.60627e-06,-3.40794e-12,2.78395e-38,-3.92437e-12,-1.13762e-13,0,0,-3.21022,0.100438,0.103561,-0.655224,0.0815835,-0.00986228,-0.000476962,0,-0.0139599,0.100438,240,-37,240,-37,373,-43,248,88,-0.155532,-0.261799,0,-1.5,nan,0,0,0,-0.0308388,0.10518,0,0,0,0,0.00688259,-0.00123539,17947,0.622527,0.0236802,0.0167449,-0.000758426,18323
18555,-3.34297e-12,2.78418e-38,-1.60627e-06,-3.40794e-12,2.78395e-38,0,-1.13762e-13,0,0,-3.22285,0.103255,0.116822,-0.656372,0.081528,-0.0092599,-0.000447829,0,-0.0287647,0.103255,240,-36,240,-36,373,-45,248,86,-0.153781,-0.261799,0,-1.5,nan,0,0,0,-0.0276503,0.104525,0,0,0,0,0.00730251,-0.00183013,17816,0.626899,0.0231493,0.0165624,-0.0013823,18447
18736,-3.34297e-12,2.78418e-38,-1.60627e-06,-3.40794e-12,2.78395e-38,-3.92437e-12,-1.13763e-13,0,0,-3.23961,0.10996,0.119272,-0.657902,0.0814539,-0.00842513,-0.000407458,0,-0.0484281,0.10996,240,-37,240,-37,371,-43,248,88,-0.15513,-0.261799,0,-1.5,nan,0,0,0,-0.0294153,0.10495,0,0,0,0,0.00726684,-0.00128083,17685,0.625647,0.0236545,0.015692,-0.000873371,18614
18762,-3.34297e-12,2.78418e-38,-1.60627e-06,-3.40794e-12,2.78395e-38,0,-1.13763e-13,0,0,-3.23961,0.10996,0.119272,-0.658119,0.0814435,-0.00831596,-0.000402178,0,-0.0484281,0.10996,240,-37,240,-37,371,-43,248,88,-0.168059,-0.261799,0,-1.5,nan,0,0,0,-0.0484748,0.110046,0,0,0,0,-0.0131713,0.00280839,17685,0.609771,0.028519,-0.00485531,0.00321057,18745
18953,-3.34297e-12,2.78418e-38,-1.60627e-06,-3.40794e-12,2.78395e-38,-3.92437e-12,-1.13764e-13,0,0,-3.2337,0.109938,0.118102,-0.659569,0.0813734,-0.00752774,-0.000364058,0,-0.0414853,0.109938,240,-37,240,-37,371,-44,248,88,-0.168799,-0.261799,0,-1.5,nan,0,0,0,-0.0422069,0.110536,0,0,0,0,-0.00741072,0.00281359,17820,0.617341,0.0286007,0.000117014,0.00317765,18778
19077,-3.34297e-12,2.78418e-38,-1.60627e-06,-3.40794e-12,2.78395e-38,0,-1.13764e-13,0,0,-3.20801,0.104637,0.0955966,-0.660452,0.0813307,-0.0070644,-0.00034165,0,-0.0113769,0.104637,240,-36,240,-36,371,-44,248,88,-0.167581,-0.261799,0,-1.5,nan,0,0,0,-0.0433089,0.110262,0,0,0,0,-0.00730301,0.00219241,18084,0.617169,0.0286527,-0.000238614,0.00253406,18969
19202,-3.34297e-12,2.78418e-38,-1.60627e-06,-3.40794e-12,2.78395e-38,-3.92437e-12,-1.13765e-13,0,0,-3.2172,0.105138,0.10935,-0.661286,0.0812903,-0.00662607,-0.000320452,0,-0.0221381,0.105138,240,-37,240,-37,371,-44,248,88,-0.155881,-0.261799,0,-1.5,nan,0,0,0,-0.0400101,0.104923,0,0,0,0,-0.00457293,-0.000671796,18084,0.621052,0.023671,0.00205314,-0.000351344,19095
19325,-3.34297e-12,2.78418e-38,-1.60627e-06,-3.40794e-12,2.78395e-38,0,-1.13766e-13,0,0,-3.2337,0.109938,0.118102,-0.662052,0.0812533,-0.00622513,-0.000301061,0,-0.0414853,0.109938,240,-37,240,-37,371,-44,248,88,-0.166492,-0.261799,0,-1.5,nan,0,0,0,-0.0392275,0.109744,0,0,0,0,-0.00316282,0.00194998,17820,0.622506,0.0282567,0.00306231,0.00225104,19222
19500,-3.34297e-12,2.78418e-38,-1.60627e-06,-3.40794e-12,2.78395e-38,-3.92437e-12,-1.13766e-13,0,0,-3.2194,0.10745,0.108185,-0.663056,0.0812047,-0.00567944,-0.000274671,0,-0.0247192,0.10745,240,-37,240,-37,371,-44,248,89,-0.161335,-0.261799,0,-1.5,nan,0,0,0,-0.0236866,0.107513,0,0,0,0,0.00893563,0.00054664,18088,0.636797,0.0261641,0.0146151,0.000821311,19367
19624,-3.34297e-12,2.78418e-38,-1.60627e-06,-3.40794e-12,2.78395e-38,0,-1.13767e-13,0,0,-3.22549,0.107533,0.113749,-0.663722,0.0811725,-0.00532988,-0.000257765,0,-0.0318594,0.107533,240,-37,240,-37,371,-44,248,88,-0.157791,-0.261799,0,-1.5,nan,0,0,0,-0.0306864,0.107014,0,0,0,0,0.00956749,-0.00160532,17952,0.631352,0.0259934,0.0148974,-0.00134755,19513
19751,-3.34297e-12,2.78418e-38,-1.60627e-06,-3.40794e-12,2.78395e-38,-3.92437e-12,-1.13767e-13,0,0,-3.21996,0.105855,0.0915272,-0.664358,0.0811418,-0.00499273,-0.00024146,0,-0.0253711,0.105855,240,-32,240,-32,371,-44,248,89,-0.156733,-0.261799,0,-1.5,nan,0,0,0,-0.0241486,0.106532,0,0,0,0,0.0128514,-0.00186583,18221,0.637943,0.0255967,0.0178441,-0.00162437,19636
19890,-3.34297e-12,2.78418e-38,-1.60627e-06,-3.40794e-12,2.78395e-38,0,-1.13768e-13,0,0,-3.23961,0.10996,0.119272,-0.665007,0.0811104,-0.00464723,-0.000224751,0,-0.0484281,0.10996,240,-37,240,-37,371,-43,248,88,-0.157283,-0.261799,0,-1.5,nan,0,0,0,-0.0276775,0.10664,0,0,0,0,0.00981448,-0.00156658,17685,0.635319,0.025716,0.0144617,-0.00134183,19777
20014,-3.34297e-12,2.78418e-38,-1.60627e-06,-3.40794e-12,2.78395e-38,-3.92437e-12,-1.13768e-13,0,0,-3.2337,0.109938,0.118102,-0.665551,0.0810841,-0.00436096,-0.000210906,0,-0.0414853,0.109938,240,-37,240,-37,371,-44,248,88,-0.16664,-0.261799,0,-1.5,nan,0,0,0,-0.0294465,0.109407,0,0,0,0,0.00570268,0.00245116,17820,0.634978,0.0280248,0.0100636,0.00266206,19904
20148,-3.34297e-12,2.78418e-38,-1.60627e-06,-3.40794e-12,2.78395e-38,0,-1.13769e-13,0,0,-3.22645,0.105322,0.120745,-0.666097,0.0810577,-0.00407295,-0.000196977,0,-0.032979,0.105322,240,-37,240,-37,373,-45,248,86,-0.16642,-0.261799,0,-1.5,nan,0,0,0,-0.0327408,0.109378,0,0,0,0,0.00215577,0.00231571,17685,0.632609,0.0280185,0.00622872,0.00251268,20029
20159,-3.34297e-12,2.78418e-38,-1.60627e-06,-3.40794e-12,2.78395e-38,-3.92437e-12,-1.13769e-13,0,0,-3.22645,0.105322,0.120745,-0.666146,0.0810553,-0.00404857,-0.000195798,0,-0.032979,0.105322,240,-37,240,-37,373,-45,248,86,-0.166463,-0.261799,0,-1.5,nan,0,0,0,-0.0327147,0.109406,0,0,0,0,0.00218015,0.00231688,17685,0.632609,0.0280185,0.00622872,0.00251268,20029
20170,-3.34297e-12,2.78418e-38,-1.60627e-06,-3.40794e-12,2.78395e-38,0,-1.1377e-13,0,0,-3.22645,0.105322,0.120745,-0.66619,0.0810532,-0.00402635,-0.000194723,0,-0.032979,0.105322,240,-37,240,-37,373,-45,248,86,-0.166503,-0.261799,0,-1.5,nan,0,0,0,-0.0326906,0.109431,0,0,0,0,0.00220237,0.00231796,17685,0.632609,0.0280185,0.00622872,0.00251268,20029
20324,-3.34297e-12,2.78418e-38,-1.60627e-06,-3.40794e-12,2.78395e-38,-3.92437e-12,-1.1377e-13,0,0,-3.22635,0.105198,0.112104,-0.666765,0.0810254,-0.00371766,-0.000179795,0,-0.0328584,0.105198,240,-37,240,-37,373,-43,248,88,-0.152903,-0.261799,0,-1.5,nan,0,0,0,-0.0325357,0.104735,0,0,0,0,0.000646461,-0.0027462,17685,0.633557,0.0241048,0.00436413,-0.00256641,20178
20481,-3.34297e-12,2.78418e-38,-1.60627e-06,-3.40794e-12,2.78395e-38,0,-1.13771e-13,0,0,-3.22549,0.107533,0.113749,-0.667302,0.0809994,-0.00342881,-0.000165825,0,-0.0318594,0.107533,240,-37,240,-37,371,-44,248,88,-0.153148,-0.261799,0,-1.5,nan,0,0,0,-0.0302156,0.104848,0,0,0,0,0.0087355,-0.0026881,17952,0.635189,0.0242424,0.0121643,-0.00252227,20364
20498,-3.34297e-12,2.78418e-38,-1.60627e-06,-3.40794e-12,2.78395e-38,-3.92437e-12,-1.13772e-13,0,0,-3.22549,0.107533,0.113749,-0.66736,0.0809966,-0.00339975,-0.000164419,0,-0.0318594,0.107533,240,-37,240,-37,371,-44,248,88,-0.153082,-0.261799,0,-1.5,nan,0,0,0,-0.0300667,0.104803,0,0,0,0,0.00876457,-0.00268669,17952,0.635189,0.0242424,0.0121643,-0.00252227,20364
20630,-3.34297e-12,2.78418e-38,-1.60627e-06,-3.40794e-12,2.78395e-38,0,-1.13772e-13,0,0,-3.20675,0.102803,0.10562,-0.667784,0.0809761,-0.00317453,-0.000153527,0,-0.00990438,0.102803,240,-37,240,-37,373,-45,248,88,-0.149851,-0.261799,0,-1.5,nan,0,0,0,-0.0283642,0.103271,0,0,0,0,0.00897391,-0.00341123,18088,0.637804,0.022728,0.0121484,-0.0032577,20510
20814,-3.34297e-12,2.78418e-38,-1.60627e-06,-3.40794e-12,2.78395e-38,-3.92437e-12,-1.13773e-13,0,0,-3.21366,0.100873,0.109265,-0.668317,0.0809503,-0.00288375,-0.000139464,0,-0.0179882,0.100873,240,-37,240,-37,373,-45,249,88,-0.148573,-0.261799,0,-1.5,nan,0,0,0,-0.031458,0.102435,0,0,0,0,0.00232126,-0.00343414,18088,0.635901,0.0220907,0.005205,-0.00329468,20686
20939,-3.34297e-12,2.78418e-38,-1.60627e-06,-3.40794e-12,2.78395e-38,0,-1.13773e-13,0,0,-3.22645,0.105322,0.120745,-0.668657,0.0809339,-0.00270467,-0.000130804,0,-0.032979,0.105322,240,-37,240,-37,373,-45,248,86,-0.150471,-0.261799,0,-1.5,nan,0,0,0,-0.0325579,0.103097,0,0,0,0,0.000847918,-0.00273551,17685,0.635691,0.0224629,0.00355259,-0.00260471,20826
21068,-3.34297e-12,2.78418e-38,-1.60627e-06,-3.40794e-12,2.78395e-38,-3.92437e-12,-1.13774e-13,0,0,-3.22645,0.105322,0.120745,-0.668987,0.0809179,-0.00253169,-0.000122438,0,-0.032979,0.105322,240,-37,240,-37,373,-45,248,86,-0.154288,-0.261799,0,-1.5,nan,0,0,0,-0.0326827,0.104607,0,0,0,0,0.000543617,-0.00153487,17685,0.635953,0.0238506,0.00307531,-0.00141243,20956
21196,-3.34297e-12,2.78418e-38,-1.60627e-06,-3.40794e-12,2.78395e-38,0,-1.13774e-13,0,0,-3.22645,0.105322,0.120745,-0.669293,0.0809031,-0.00237097,-0.000114665,0,-0.032979,0.105322,240,-37,240,-37,373,-45,248,86,-0.154724,-0.261799,0,-1.5,nan,0,0,0,-0.0326417,0.10489,0,0,0,0,0.000727863,-0.00152385,17685,0.636292,0.02415,0.00309883,-0.00140918,21082
21317,-3.34297e-12,2.78418e-38,-1.60627e-06,-3.40794e-12,2.78395e-38,-3.92437e-12,-1.13775e-13,0,0,-3.22635,0.105198,0.112104,-0.669564,0.08089,-0.00222839,-0.00010777,0,-0.0328584,0.105198,240,-37,240,-37,373,-43,248,88,-0.155284,-0.261799,0,-1.5,nan,0,0,0,-0.0327451,0.104942,0,0,0,0,0.000882823,-0.00115305,17685,0.636477,0.0241669,0.00311121,-0.00104528,21210
21443,-3.34297e-12,2.78418e-38,-1.60627e-06,-3.40794e-12,2.78395e-38,0,-1.13775e-13,0,0,-3.21106,0.103067,0.110198,-0.669829,0.0808772,-0.00208902,-0.00010103,0,-0.0149426,0.103067,240,-37,240,-37,373,-45,248,88,-0.156766,-0.261799,0,-1.5,nan,0,0,0,-0.0325536,0.105114,0,0,0,0,0.00110288,-0.000210053,18088,0.636918,0.0242489,0.00319191,-0.000109024,21333
21569,-3.34297e-12,2.78418e-38,-1.60627e-06,-3.40794e-12,2.78395e-38,-3.92437e-12,-1.13776e-13,0,0,-3.23961,0.10996,0.119272,-0.670078,0.0808651,-0.00195842,-9.47137e-05,0,-0.0484281,0.10996,240,-37,240,-37,371,-43,248,88,-0.15689,-0.261799,0,-1.5,nan,0,0,0,-0.0324731,0.105156,0,0,0,0,0.000669218,-0.000163154,17685,0.637311,0.0242983,0.00262764,-6.84405e-05,21459
21717,-3.34297e-12,2.78418e-38,-1.60627e-06,-3.40794e-12,2.78395e-38,0,-1.13776e-13,0,0,-3.2337,0.109938,0.118102,-0.670349,0.0808521,-0.00181451,-8.77535e-05,0,-0.0414853,0.109938,240,-37,240,-37,371,-44,248,88,-0.157306,-0.261799,0,-1.5,nan,0,0,0,-0.0321983,0.105282,0,0,0,0,0.00137737,1.15092e-05,17820,0.637726,0.024417,0.00319188,9.92627e-05,21587
21731,-3.34297e-12,2.78418e-38,-1.60627e-06,-3.40794e-12,2.78395e-38,-3.92437e-12,-1.13777e-13,0,0,-3.2337,0.109938,0.118102,-0.670374,0.0808508,-0.00180184,-8.71409e-05,0,-0.0414853,0.109938,240,-37,240,-37,371,-44,248,88,-0.157307,-0.261799,0,-1.5,nan,0,0,0,-0.0321789,0.105282,0,0,0,0,0.00139004,1.21218e-05,17820,0.637726,0.024417,0.00319188,9.92627e-05,21587
21868,-3.34297e-12,2.78418e-38,-1.60627e-06,-3.40794e-12,2.78395e-38,0,-1.13777e-13,0,0,-3.24191,0.108014,0.125132,-0.670605,0.0808397,-0.001679,-8.12002e-05,0,-0.0511274,0.108014,240,-36,240,-36,371,-44,248,86,-0.159369,-0.261799,0,-1.5,nan,0,0,0,-0.0319437,0.105986,0,0,0,0,0.00157854,0.000789094,17680,0.638225,0.0250298,0.00325754,0.000870295,21736
22045,-3.34297e-12,2.78418e-38,-1.60627e-06,-3.40794e-12,2.78395e-38,-3.92437e-12,-1.13778e-13,0,0,-3.22285,0.103255,0.116822,-0.670877,0.0808265,-0.00153099,-7.40418e-05,0,-0.0287647,0.103255,240,-36,240,-36,373,-45,248,86,-0.15788,-0.261799,0,-1.5,nan,0,0,0,-0.0319887,0.105537,0,0,0,0,0.00127962,0.000159774,17816,0.638391,0.0246691,0.0028106,0.000233816,21910
22062,-3.34297e-12,2.78418e-38,-1.60627e-06,-3.40794e-12,2.78395e-38,0,-1.13779e-13,0,0,-3.22285,0.103255,0.116822,-0.670903,0.0808252,-0.00151801,-7.34143e-05,0,-0.0287647,0.103255,240,-36,240,-36,373,-45,248,86,-0.157884,-0.261799,0,-1.5,nan,0,0,0,-0.0319668,0.10554,0,0,0,0,0.00129259,0.000160401,17816,0.638391,0.0246691,0.0028106,0.000233816,21910
22202,-3.34297e-12,2.78418e-38,-1.60627e-06,-3.40794e-12,2.78395e-38,-3.92437e-12,-1.13786e-13,0,0,-3.20472,0.102006,0.0937676,-0.671101,0.0808157,-0.00141216,-6.82951e-05,0,-0.00751972,0.102006,240,-37,240,-37,373,-43,248,88,-0.155047,-0.261799,0,-1.5,nan,0,0,0,-0.0340407,0.104367,0,0,0,0,-0.000884401,-0.000673991,17816,0.636987,0.0236357,0.000527757,-0.000605696,22075
22326,-3.34297e-12,2.78418e-38,-1.60627e-06,-3.40794e-12,2.78395e-38,0,-1.13787e-13,0,0,-3.24567,0.110102,0.129146,-0.671266,0.0808077,-0.00132494,-6.4077e-05,0,-0.0555325,0.110102,240,-37,240,-37,371,-44,248,86,-0.170608,-0.261799,0,-1.5,nan,0,0,0,-0.0572604,0.110518,0,0,0,0,-0.0204567,0.00422669,17550,0.616378,0.0291781,-0.0191317,0.00429076,22211
22453,-3.34297e-12,2.78418e-38,-1.60627e-06,-3.40794e-12,2.78395e-38,-3.92437e-12,-1.13787e-13,0,0,-3.2337,0.109938,0.118102,-0.671424,0.0808001,-0.00124204,-6.00678e-05,0,-0.0414853,0.109938,240,-37,240,-37,371,-44,248,88,-0.169807,-0.261799,0,-1.5,nan,0,0,0,-0.0416904,0.110545,0,0,0,0,-0.00545841,0.00358004,17820,0.630227,0.0293186,-0.00421637,0.00364011,22337
22577,-3.34297e-12,2.78418e-38,-1.60627e-06,-3.40794e-12,2.78395e-38,0,-1.13788e-13,0,0,-3.21468,0.10518,0.109828,-0.671571,0.080793,-0.00116498,-5.63408e-05,0,-0.0191889,0.10518,240,-37,240,-37,373,-45,248,88,-0.166671,-0.261799,0,-1.5,nan,0,0,0,-0.0397804,0.109258,0,0,0,0,-0.0040338,0.00264623,17955,0.63212,0.028154,-0.00286882,0.00270257,22464
22801,-3.34297e-12,2.78418e-38,-1.60627e-06,-3.40794e-12,2.78395e-38,-3.92437e-12,-1.13789e-13,0,0,-3.23811,0.105338,0.123018,-0.671803,0.0807818,-0.00103559,-5.00833e-05,0,-0.0466561,0.105338,240,-37,240,-37,373,-43,248,86,-0.157864,-0.261799,0,-1.5,nan,0,0,0,-0.0443196,0.105546,0,0,0,0,-0.00553154,0.000137762,17415,0.628486,0.0247222,-0.00449595,0.000187845,22614
22827,-3.34297e-12,2.78418e-38,-1.60627e-06,-3.40794e-12,2.78395e-38,0,-1.13789e-13,0,0,-3.23811,0.105338,0.123018,-0.671829,0.0807805,-0.00102217,-4.94343e-05,0,-0.0466561,0.105338,240,-37,240,-37,373,-43,248,86,-0.15744,-0.261799,0,-1.5,nan,0,0,0,-0.0468449,0.105372,0,0,0,0,-0.00710995,1.15771e-05,17415,0.625143,0.0245895,-0.00608778,6.10114e-05,22809
22966,-3.34297e-12,2.78418e-38,-1.60627e-06,-3.40794e-12,2.78395e-38,-3.92437e-12,-1.1379e-13,0,0,-3.2337,0.109938,0.118102,-0.671963,0.080774,-0.000950925,-4.59889e-05,0,-0.0414853,0.109938,240,-37,240,-37,371,-44,248,88,-0.15753,-0.261799,0,-1.5,nan,0,0,0,-0.0465193,0.105397,0,0,0,0,-0.00704265,5.10215e-05,17820,0.626296,0.0246098,-0.00609173,9.70104e-05,22853
23087,-3.34297e-12,2.78418e-38,-1.60627e-06,-3.40794e-12,2.78395e-38,0,-1.1379e-13,0,0,-3.23811,0.105338,0.123018,-0.672072,0.0807687,-0.000893787,-4.32255e-05,0,-0.0466561,0.105338,240,-37,240,-37,373,-43,248,86,-0.157048,-0.261799,0,-1.5,nan,0,0,0,-0.047717,0.105253,0,0,0,0,-0.00589552,-0.000153761,17415,0.624915,0.0244971,-0.00500173,-0.000110536,22977
23214,-3.34297e-12,2.78418e-38,-1.60627e-06,-3.40794e-12,2.78395e-38,-3.92437e-12,-1.13791e-13,0,0,-3.2172,0.105138,0.10935,-0.672179,0.0807636,-0.000837466,-4.05017e-05,0,-0.0221381,0.105138,240,-37,240,-37,371,-44,248,88,-0.15421,-0.261799,0,-1.5,nan,0,0,0,-0.0433964,0.104905,0,0,0,0,-0.000601605,-0.00193625,18084,0.628756,0.0243574,0.000235861,-0.00189575,23102
23334,-3.34297e-12,2.78418e-38,-1.60627e-06,-3.40794e-12,2.78395e-38,0,-1.13791e-13,0,0,-3.20061,0.100057,0.0981171,-0.672273,0.080759,-0.000787996,-3.81092e-05,0,-0.00271368,0.100057,240,-36,240,-36,373,-45,248,86,-0.15083,-0.261799,0,-1.5,nan,0,0,0,-0.0373366,0.103667,0,0,0,0,0.00617946,-0.00311385,17947,0.634191,0.023237,0.00696745,-0.00307574,23228
23452,-3.34297e-12,2.78418e-38,-1.60627e-06,-3.40794e-12,2.78395e-38,-3.92437e-12,-1.13792e-13,0,0,-3.22635,0.105198,0.112104,-0.672362,0.0807547,-0.00074129,-3.58504e-05,0,-0.0328584,0.105198,240,-37,240,-37,373,-43,248,88,-0.152771,-0.261799,0,-1.5,nan,0,0,0,-0.0325194,0.104157,0,0,0,0,0.00820088,-0.00218386,17685,0.638778,0.0236579,0.00894217,-0.00214801,23346
23636,-3.34297e-12,2.78418e-38,-1.60627e-06,-3.40794e-12,2.78395e-38,0,-1.13792e-13,0,0,-3.23811,0.105338,0.123018,-0.672486,0.0807487,-0.000673388,-3.25665e-05,0,-0.0466561,0.105338,240,-37,240,-37,373,-43,248,86,-0.152941,-0.261799,0,-1.5,nan,0,0,0,-0.0407757,0.104073,0,0,0,0,0.000612454,-0.00195688,17415,0.631474,0.0236784,0.00128584,-0.00192431,23492
23823,-3.34297e-12,2.78418e-38,-1.60627e-06,-3.40794e-12,2.78395e-38,-3.92437e-12,-1.13793e-13,0,0,-3.23961,0.10996,0.119272,-0.672601,0.0807431,-0.000610701,-2.95348e-05,0,-0.0484281,0.10996,240,-37,240,-37,371,-43,248,88,-0.15754,-0.261799,0,-1.5,nan,0,0,0,-0.0507406,0.105354,0,0,0,0,-0.00910154,0.000109147,17685,0.623448,0.0245848,-0.00849084,0.000138682,23676
23965,-3.34297e-12,2.78418e-38,-1.60627e-06,-3.40794e-12,2.78395e-38,0,-1.13793e-13,0,0,-3.22539,0.101,0.120162,-0.672682,0.0807392,-0.00056766,-2.74533e-05,0,-0.0317335,0.101,240,-37,240,-37,373,-45,249,86,-0.157417,-0.261799,0,-1.5,nan,0,0,0,-0.0389312,0.105321,0,0,0,0,0.00192129,5.19051e-05,17816,0.63343,0.0245719,0.00248895,7.93583e-05,23838
24155,-3.34297e-12,2.78418e-38,-1.60627e-06,-3.40794e-12,2.78395e-38,-3.92437e-12,-1.13794e-13,0,0,-3.24191,0.108014,0.125132,-0.67278,0.0807344,-0.000513942,-2.48554e-05,0,-0.0511274,0.108014,240,-36,240,-36,371,-44,248,86,-0.156228,-0.261799,0,-1.5,nan,0,0,0,-0.0467465,0.10491,0,0,0,0,-0.00257372,-0.000389961,17680,0.626425,0.0242451,-0.00205978,-0.000365106,24023
24270,-3.34297e-12,2.78418e-38,-1.60627e-06,-3.40794e-12,2.78395e-38,0,-1.13794e-13,0,0,-3.23473,0.105289,0.121362,-0.672836,0.0807317,-0.000484568,-2.34348e-05,0,-0.0426936,0.105289,240,-37,240,-37,371,-43,248,86,-0.157203,-0.261799,0,-1.5,nan,0,0,0,-0.0431302,0.105252,0,0,0,0,-0.000641195,-3.36151e-05,17673,0.629723,0.0245216,-0.000156627,-1.01803e-05,24165
24392,-3.34297e-12,2.78418e-38,-1.60627e-06,-3.40794e-12,2.78395e-38,-3.92437e-12,-1.13795e-13,0,0,-3.22645,0.105322,0.120745,-0.672892,0.080729,-0.000455122,-2.20107e-05,0,-0.032979,0.105322,240,-37,240,-37,373,-45,248,86,-0.157322,-0.261799,0,-1.5,nan,0,0,0,-0.0417085,0.1053,0,0,0,0,0.000513459,3.10722e-06,17685,0.631065,0.0245681,0.000968581,2.51179e-05,24283
24510,-3.34297e-12,2.78418e-38,-1.60627e-06,-3.40794e-12,2.78395e-38,0,-1.13796e-13,0,0,-3.20675,0.102803,0.10562,-0.672943,0.0807266,-0.000428373,-2.07171e-05,0,-0.00990438,0.102803,240,-37,240,-37,373,-45,248,88,-0.157285,-0.261799,0,-1.5,nan,0,0,0,-0.0310918,0.105277,0,0,0,0,0.00843306,1.2425e-06,18088,0.640805,0.0245475,0.00886143,2.19596e-05,24401
24628,-3.34297e-12,2.78418e-38,-1.60627e-06,-3.40794e-12,2.78395e-38,-3.92437e-12,-1.13796e-13,0,0,-3.21468,0.10518,0.109828,-0.672991,0.0807243,-0.000403207,-1.95e-05,0,-0.0191889,0.10518,240,-37,240,-37,373,-45,248,88,-0.157174,-0.261799,0,-1.5,nan,0,0,0,-0.0298121,0.105244,0,0,0,0,0.0070851,-4.64361e-05,17955,0.642295,0.024523,0.00748831,-2.69361e-05,24519
25178,-3.34297e-12,2.78418e-38,-1.60627e-06,-3.40794e-12,2.78395e-38,0,-1.13797e-13,0,0,-3.2337,0.109938,0.118102,-0.0259469,0.105346,0.00715728,5.71087e-05,0,-0.0414853,0.109938,240,-37,240,-37,371,-44,248,88,-0.15746,-0.261799,0,-1.5,nan,0,0,0,-0.0259469,0.105346,0,0,0,0,0.00715728,5.71087e-05,17820,0,0,0,0,24722
25280,-3.34297e-12,2.78418e-38,-1.60627e-06,-3.40794e-12,2.78395e-38,-3.92437e-12,-1.13797e-13,0,0,-3.22645,0.105322,0.120745,-0.0252513,0.105351,0.00679364,5.42072e-05,0,-0.032979,0.105322,240,-37,240,-37,373,-45,248,86,-0.157465,-0.261799,0,-1.5,nan,0,0,0,-0.0252513,0.105351,0,0,0,0,0.00679364,5.42072e-05,17685,0,0,0,0,25278
25630,-3.34297e-12,2.78418e-38,-1.60627e-06,-3.40794e-12,2.78395e-38,0,-1.13798e-13,0,0,-3.22635,0.105198,0.112104,-0.0232803,0.105367,0.00560944,4.47583e-05,0,-0.0328584,0.105198,240,-37,240,-37,373,-43,248,88,-0.157476,-0.261799,0,-1.5,nan,0,0,0,-0.0232803,0.105367,0,0,0,0,0.00560944,4.47583e-05,17685,0,0,0,0,25622
25691,-3.34297e-12,2.78418e-38,-1.60627e-06,-3.40794e-12,2.78395e-38,-3.92437e-12,-1.13798e-13,0,0,-3.23473,0.105289,0.121362,-0.0229473,0.10537,0.00543898,4.33982e-05,0,-0.0426936,0.105289,240,-37,240,-37,371,-43,248,86,-0.157478,-0.261799,0,-1.5,nan,0,0,0,-0.0229473,0.10537,0,0,0,0,0.00543898,4.33982e-05,17673,0,0,0,0,25683
25711,-3.34297e-12,2.78418e-38,-1.60627e-06,-3.40794e-12,2.78395e-38,0,-1.13799e-13,0,0,-3.21468,0.10518,0.109828,-0.0228393,0.10537,0.00538475,4.29655e-05,0,-0.0191889,0.10518,240,-37,240,-37,373,-45,248,88,-0.157479,-0.261799,0,-1.5,nan,0,0,0,-0.0228393,0.10537,0,0,0,0,0.00538475,4.29655e-05,17955,0,0,0,0,25711
25729,-3.34297e-12,2.78418e-38,-1.60627e-06,-3.40794e-12,2.78395e-38,-3.92437e-12,-1.13799e-13,0,0,-3.21468,0.10518,0.109828,-0.0227429,0.105371,0.00533644,4.258e-05,0,-0.0191889,0.10518,240,-37,240,-37,373,-45,248,88,-0.157479,-0.261799,0,-1.5,nan,0,0,0,-0.0227429,0.105371,0,0,0,0,0.00533644,4.258e-05,17955,0,0,0,0,25711
25747,-3.34297e-12,2.78418e-38,-1.60627e-06,-3.40794e-12,2.78395e-38,0,-1.138e-13,0,0,-3.21468,0.10518,0.109828,-0.0226474,0.105372,0.00528856,4.2198e-05,0,-0.0191889,0.10518,240,-37,240,-37,373,-45,248,88,-0.15748,-0.261799,0,-1.5,nan,0,0,0,-0.0226474,0.105372,0,0,0,0,0.00528856,4.2198e-05,17955,0,0,0,0,25711
25764,-3.34297e-12,2.78418e-38,-1.60627e-06,-3.40794e-12,2.78395e-38,-3.92437e-12,-1.138e-13,0,0,-3.22635,0.105198,0.112104,-0.022558,0.105373,0.00524373,4.18403e-05,0,-0.0328584,0.105198,240,-37,240,-37,373,-43,248,88,-0.157481,-0.261799,0,-1.5,nan,0,0,0,-0.022558,0.105373,0,0,0,0,0.00524373,4.18403e-05,17685,0,0,0,0,25756
25885,-3.34297e-12,2.78418e-38,-1.60627e-06,-3.40794e-12,2.78395e-38,0,-1.13801e-13,0,0,-3.2301,0.107864,0.114181,-0.0219579,0.105377,0.0049284,3.93242e-05,0,-0.0372581,0.107864,240,-36,240,-36,371,-44,248,88,-0.156762,-0.261799,0,-1.5,nan,0,0,0,-0.0329044,0.105161,0,0,0,0,-0.00040151,-0.000268022,17952,-0.0103709,-0.000183044,-0.00532991,-0.000307346,25779
26006,-3.34297e-12,2.78418e-38,-1.60627e-06,-3.40794e-12,2.78395e-38,-3.92437e-12,-1.13802e-13,0,0,-3.22645,0.105322,0.120745,-0.0213926,0.105382,0.00463261,3.69641e-05,0,-0.032979,0.105322,240,-37,240,-37,373,-45,248,86,-0.157522,-0.261799,0,-1.5,nan,0,0,0,-0.0330631,0.105334,0,0,0,0,-0.000805596,0.000118035,17685,-0.0110995,-5.61774e-05,-0.00543821,8.1071e-05,25903
26126,-3.34297e-12,2.78418e-38,-1.60627e-06,-3.40794e-12,2.78395e-38,0,-1.13802e-13,0,0,-3.21085,0.104995,0.099379,-0.0208659,0.105386,0.00435666,3.47623e-05,0,-0.0147052,0.104995,240,-37,240,-37,371,-43,248,90,-0.156687,-0.261799,0,-1.5,nan,0,0,0,-0.0331596,0.10511,0,0,0,0,-0.00105613,-0.000266767,18221,-0.01172,-0.000244507,-0.00541279,-0.000301529,26022
26300,-3.34297e-12,2.78418e-38,-1.60627e-06,-3.40794e-12,2.78395e-38,-3.92437e-12,-1.13803e-13,0,0,-3.22549,0.107533,0.113749,-0.0201744,0.105392,0.00398127,3.1767e-05,0,-0.0318594,0.107533,240,-37,240,-37,371,-44,248,88,-0.157724,-0.261799,0,-1.5,nan,0,0,0,-0.031849,0.105406,0,0,0,0,4.34294e-05,0.000190501,17952,-0.0109933,-1.28749e-05,-0.00393784,0.000158734,26166
26435,-3.34297e-12,2.78418e-38,-1.60627e-06,-3.40794e-12,2.78395e-38,0,-1.13803e-13,0,0,-3.22988,0.107806,0.118381,-0.0196674,0.105396,0.00371171,2.96161e-05,0,-0.0370021,0.107806,240,-37,240,-37,371,-44,248,88,-0.157521,-0.261799,0,-1.5,nan,0,0,0,-0.03369,0.105364,0,0,0,0,-0.00179496,8.20002e-05,17952,-0.0132736,-3.83897e-05,-0.00550667,5.23841e-05,26327
26589,-3.34297e-12,2.78418e-38,-1.60627e-06,-3.40794e-12,2.78395e-38,-3.92437e-12,-1.13804e-13,0,0,-3.25158,0.110122,0.130315,-0.0191356,0.1054,0.0034279,2.73516e-05,0,-0.0624795,0.110122,240,-37,240,-37,371,-43,248,86,-0.166179,-0.261799,0,-1.5,nan,0,0,0,-0.0340062,0.108662,0,0,0,0,-0.00207877,0.00295217,17415,-0.0140941,0.00285004,-0.00550667,0.00292482,26451
26732,-3.34297e-12,2.78418e-38,-1.60627e-06,-3.40794e-12,2.78395e-38,0,-1.13804e-13,0,0,-3.23705,0.101003,0.122439,-0.0186767,0.105404,0.0031846,2.54103e-05,0,-0.0454173,0.101003,240,-37,240,-37,373,-43,249,86,-0.157309,-0.261799,0,-1.5,nan,0,0,0,-0.0397747,0.105284,0,0,0,0,-0.00595987,1.16488e-05,17544,-0.0199184,-0.000117502,-0.00914447,-1.37615e-05,26605
26743,-3.34297e-12,2.78418e-38,-1.60627e-06,-3.40794e-12,2.78395e-38,-3.92437e-12,-1.13805e-13,0,0,-3.23705,0.101003,0.122439,-0.0186418,0.105404,0.00316713,2.52708e-05,0,-0.0454173,0.101003,240,-37,240,-37,373,-43,249,86,-0.157309,-0.261799,0,-1.5,nan,0,0,0,-0.0398404,0.105284,0,0,0,0,-0.00597734,1.15093e-05,17544,-0.0199184,-0.000117502,-0.00914447,-1.37615e-05,26605
26875,-3.34297e-12,2.78418e-38,-1.60627e-06,-3.40794e-12,2.78395e-38,0,-1.13805e-13,0,0,-3.22645,0.105322,0.120745,-0.0182495,0.105407,0.002959,2.36101e-05,0,-0.032979,0.105322,240,-37,240,-37,373,-45,248,86,-0.157346,-0.261799,0,-1.5,nan,0,0,0,-0.0369921,0.1053,0,0,0,0,-0.00419032,2.25113e-05,17685,-0.0177989,-0.00010729,-0.00714932,-1.09888e-06,26760
27021,-3.34297e-12,2.78418e-38,-1.60627e-06,-3.40794e-12,2.78395e-38,-3.92437e-12,-1.13806e-13,0,0,-3.24567,0.110102,0.129146,-0.0178473,0.10541,0.00274382,2.18932e-05,0,-0.0555325,0.110102,240,-37,240,-37,371,-44,248,86,-0.160873,-0.261799,0,-1.5,nan,0,0,0,-0.0447022,0.106829,0,0,0,0,-0.00917415,0.000977936,17550,-0.0251148,0.00127877,-0.011918,0.000956043,26912
27142,-3.34297e-12,2.78418e-38,-1.60627e-06,-3.40794e-12,2.78395e-38,0,-1.13806e-13,0,0,-3.23811,0.105338,0.123018,-0.0175332,0.105413,0.00257889,2.05772e-05,0,-0.0466561,0.105338,240,-37,240,-37,373,-43,248,86,-0.157411,-0.261799,0,-1.5,nan,0,0,0,-0.0476421,0.105327,0,0,0,0,-0.00995379,4.0971e-05,17415,-0.028768,-8.78782e-05,-0.0125327,2.03938e-05,27037
27308,-3.34297e-12,2.78418e-38,-1.60627e-06,-3.40794e-12,2.78395e-38,-3.92437e-12,-1.13807e-13,0,0,-3.22549,0.107533,0.113749,-0.0171387,0.105416,0.00236577,1.88767e-05,0,-0.0318594,0.107533,240,-37,240,-37,371,-44,248,88,-0.159151,-0.261799,0,-1.5,nan,0,0,0,-0.0418022,0.106121,0,0,0,0,-0.00602303,0.000466812,17952,-0.0232709,0.000630506,-0.0083888,0.000447935,27171
27429,-3.34297e-12,2.78418e-38,-1.60627e-06,-3.40794e-12,2.78395e-38,0,-1.13808e-13,0,0,-3.2171,0.105247,0.117854,-0.0168702,0.105418,0.00222462,1.77505e-05,0,-0.0220218,0.105247,240,-37,240,-37,371,-46,248,86,-0.157393,-0.261799,0,-1.5,nan,0,0,0,-0.0410237,0.105293,0,0,0,0,-0.00603282,6.62753e-05,18084,-0.0232617,-0.000130387,-0.00825744,4.85248e-05,27322
27556,-3.34297e-12,2.78418e-38,-1.60627e-06,-3.40794e-12,2.78395e-38,-3.92437e-12,-1.13808e-13,0,0,-3.21468,0.10518,0.109828,-0.0166012,0.10542,0.00208339,1.66236e-05,0,-0.0191889,0.10518,240,-37,240,-37,373,-45,248,88,-0.15747,-0.261799,0,-1.5,nan,0,0,0,-0.0325863,0.105353,0,0,0,0,-0.000249627,5.6807e-05,17955,-0.0157237,-7.20659e-05,-0.00233302,4.01834e-05,27446
27682,-3.34297e-12,2.78418e-38,-1.60627e-06,-3.40794e-12,2.78395e-38,0,-1.13809e-13,0,0,-3.23811,0.105338,0.123018,-0.0163533,0.105422,0.00195309,1.55839e-05,0,-0.0466561,0.105338,240,-37,240,-37,373,-43,248,86,-0.157453,-0.261799,0,-1.5,nan,0,0,0,-0.0413108,0.105338,0,0,0,0,-0.00583435,6.02225e-05,17415,-0.0240853,-8.902e-05,-0.00778744,4.46386e-05,27572
27804,-3.34297e-12,2.78418e-38,-1.60627e-06,-3.40794e-12,2.78395e-38,-3.92437e-12,-1.13809e-13,0,0,-3.21106,0.103067,0.110198,-0.0161277,0.105424,0.00183481,1.46402e-05,0,-0.0149426,0.103067,240,-37,240,-37,373,-45,248,88,-0.15733,-0.261799,0,-1.5,nan,0,0,0,-0.0328959,0.10533,0,0,0,0,-0.000598359,-2.52453e-05,18088,-0.0165054,-8.94419e-05,-0.00243317,-3.98854e-05,27698
27930,-3.34297e-12,2.78418e-38,-1.60627e-06,-3.40794e-12,2.78395e-38,0,-1.1381e-13,0,0,-3.23811,0.105338,0.123018,-0.0159092,0.105426,0.00172011,1.37249e-05,0,-0.0466561,0.105338,240,-37,240,-37,373,-43,248,86,-0.154389,-0.261799,0,-1.5,nan,0,0,0,-0.0402514,0.104608,0,0,0,0,-0.00531312,-0.00145811,17415,-0.0235544,-0.000652532,-0.00703322,-0.00147183,27820
