timestamp,A_x,A_y,A_z,P,Q,R,Phi,Theta,Psi,poseX,poseY,poseZ,state_X,state_Y,state_Z,state_VzB,state_Bx,state_By,state_Bz,p1_x,p1_y,p2_x,p2_y,p3_x,p3_y,p4_x,p4_y,roll,pitch,yaw,alt,targetHeading,highLevelState,lowLevelState,gateNumber,filtered_x,filtered_y,x_OT,y_OT,vx_OT,vy_OT,filtered_vx,filtered_vygateArearansac_corr_x,ransac_corr_y,ransac_corr_vx,ransac_corr_vy,detectionTimeStamppTermX,dTermX,pTermY,dTermY,vxcmd,vycmd
6440,0.310547,0.279297,-2.93164,-0.00190902,-0.000658267,-0.00149163,-0.0485323,-0.0396073,1.48724,0,0,0,1.64138e-05,1.14744e-05,0.00348728,0.0024329,1.48804,0,0,0,0,0,0,0,0,0,0,-0.43489,-0.209899,0.00469354,-1.5,4.68194e-38,0,0,1,1.64138e-05,1.14744e-05,0.046875,0.0585938,0,0,0.00348728,0.0024329,1.9603e-19,0,0,0,0,0,0,0,0,0,2.5,-2.29489e-05
6455,0.310547,0.165039,6.45508,6.96566e-05,-0.00047021,-0.00225077,-0.0496399,-0.0398225,1.48516,0,0,0,0.000152484,0.000105453,0.0115868,0.00796551,1.48595,0,0,0,0,0,0,0,0,0,0,-0.434936,-0.209382,0.0172097,-1.5,4.68194e-38,0,0,2,0.000152484,0.000105453,0.046875,0.0585938,0,0,0.0115868,0.00796551,1.9603e-19,0,0,0,0,0,0,0,0,0,2.5,-0.000210906
6471,0.310547,0.167969,-5.49023,-0.00201264,-0.000746732,-0.00305786,-0.0506417,-0.0400059,1.48306,0,0,0,0.000397066,0.000272377,0.0192926,0.0131163,1.48388,0,0,0,0,0,0,0,0,0,0,-0.434981,-0.20892,0.0281239,-1.5,4.68194e-38,0,0,3,0.000397066,0.000272377,0.046875,0.0585938,0,0,0.0192926,0.0131163,1.9603e-19,0,0,0,0,0,0,0,0,0,2.5,-0.000544753
6488,0.310547,0.162109,3.47266,-0.0013866,0.000596072,-0.00144445,-0.0511826,-0.0401429,1.4815,0,0,0,0.000851836,0.000579169,0.0286522,0.0192543,1.48188,0,0,0,0,0,0,0,0,0,0,-0.435061,-0.208109,0.0186369,-1.5,4.68194e-38,0,0,0,0.000851836,0.000579169,0.0390625,0.0585938,-0.00999832,0.0299988,0.0286522,0.0192543,1.9603e-19,0,0,0,0,0,0,0,0,0,2.5,-0.00115834
6504,0.310547,0.162109,5.6875,-0.00220166,-0.00106134,-0.00193983,-0.0512015,-0.0401511,1.48146,0,0,0,0.00139538,0.000942466,0.0369963,0.024668,1.48146,0,0,0,0,0,0,0,0,0,0,-0.435184,-0.206761,0.0213884,-1.5,4.68194e-38,0,0,1,0.00139538,0.000942466,0.0390625,0.0585938,-0.00999832,0.0299988,0.0369963,0.024668,1.9603e-19,0,0,0,0,0,0,0,0,0,2.5,-0.00188493
6520,0.310547,0.162109,-5.97461,-0.0014014,0.000773897,-0.00205292,-0.0512047,-0.0401368,1.48143,0,0,0,0.00202553,0.00136126,0.0447669,0.0297067,1.48143,0,0,0,0,0,0,0,0,0,0,-0.435314,-0.205311,0.0353961,-1.5,4.68194e-38,0,0,2,0.00202553,0.00136126,0.0390625,0.0585938,-0.00999832,0.0299988,0.0447669,0.0297067,1.9603e-19,0,0,0,0,0,0,0,0,0,2.5,-0.00272252
6535,0.310547,0.162109,2.80762,-0.00207126,-0.000815084,-0.00244327,-0.0512317,-0.0401419,1.4814,0,0,0,0.00282837,0.00189268,0.0530011,0.0350433,1.4814,0,0,0,0,0,0,0,0,0,0,-0.435456,-0.203732,0.0509247,-1.5,4.68194e-38,0,0,3,0.00282837,0.00189268,0.0390625,0.0585938,-0.00999832,-0.00999832,0.0530011,0.0350433,1.9603e-19,0,0,0,0,0,0,0,0,0,2.5,-0.00378536
6551,0.310547,0.162109,-1.81055,-0.00247745,0.000680745,-0.00335019,-0.0512612,-0.0401347,1.48136,0,0,0,0.00376239,0.00250908,0.0611807,0.0403409,1.48136,0,0,0,0,0,0,0,0,0,0,-0.435601,-0.202121,0.0413465,-1.5,4.68194e-38,0,0,0,0.00376239,0.00250908,0.0390625,0.0585938,-0.00999832,-0.00999832,0.0611807,0.0403409,1.9603e-19,0,0,0,0,0,0,0,0,0,2.5,-0.00501816
6567,0.310547,0.162109,-4.03613,0.000161198,-0.000604252,-0.00227398,-0.0512607,-0.0401458,1.48129,0,0,0,0.00482414,0.00320817,0.069304,0.0455992,1.48132,0,0,0,0,0,0,0,0,0,0,-0.435749,-0.20048,0.0436513,-1.5,4.68194e-38,0,0,1,0.00482414,0.00320817,0.0390625,0.0585938,0,0,0.069304,0.0455992,1.9603e-19,0,0,0,0,0,0,0,0,0,2.5,-0.00641634
6583,0.310547,0.162109,6.67188,0.000141629,0.000423396,-0.0022161,-0.051247,-0.0401362,1.48125,0,0,0,0.00601528,0.00399102,0.0773692,0.0508205,1.48129,0,0,0,0,0,0,0,0,0,0,-0.435899,-0.198807,0.0591406,-1.5,4.68194e-38,0,0,2,0.00601528,0.00399102,0.0390625,0.0585938,0,0,0.0773692,0.0508205,1.9603e-19,0,0,0,0,0,0,0,0,0,2.5,-0.00798204
6598,0.310547,0.162109,-5.9502,0.000218566,-0.000591581,-0.0028865,-0.0512335,-0.0401508,1.48121,0,0,0,0.00724847,0.00480036,0.0848754,0.0556796,1.48125,0,0,0,0,0,0,0,0,0,0,-0.436043,-0.197209,0.0730098,-1.5,4.68194e-38,0,0,3,0.00724847,0.00480036,0.0390625,0.0585938,0,0,0.0848754,0.0556796,1.9603e-19,0,0,0,0,0,0,0,0,0,2.5,-0.00960072
6615,0.310547,0.162109,-3.19434,-0.00216134,-0.00137956,-0.00274648,-0.0512547,-0.0401561,1.48117,0,0,0,0.0087874,0.00580912,0.093323,0.061151,1.48117,0,0,0,0,0,0,0,0,0,0,-0.436209,-0.195379,0.0617787,-1.5,4.68194e-38,0,0,0,0.0087874,0.00580912,0.0390625,0.0585938,0,0,0.093323,0.061151,1.9603e-19,0,0,0,0,0,0,0,0,0,2.5,-0.0116182
6632,0.310547,0.162109,3.14258,-0.00209874,-0.000222442,-0.00293969,-0.0512749,-0.0401522,1.48112,0,0,0,0.0104663,0.00690849,0.101709,0.0665794,1.48112,0,0,0,0,0,0,0,0,0,0,-0.436379,-0.193501,0.0635531,-1.5,4.68194e-38,0,0,1,0.0104663,0.00690849,0.0390625,0.0585938,0,0,0.101709,0.0665794,1.9603e-19,0,0,0,0,0,0,0,0,0,2.5,-0.013817
6645,0.310547,0.162109,-2.2168,-0.00110897,0.00103904,-0.00297623,-0.0512814,-0.040135,1.48109,0,0,0,0.01184,0.00780734,0.108078,0.0706991,1.48109,0,0,0,0,0,0,0,0,0,0,-0.436511,-0.192043,0.074263,-1.5,4.68194e-38,0,0,2,0.01184,0.00780734,0.0390625,0.0585938,0,0,0.108078,0.0706991,1.9603e-19,0,0,0,0,0,0,0,0,0,2.5,-0.0156147
6659,0.310547,0.162109,-2.77734,-0.00103279,7.41398e-06,-0.00172058,-0.0512957,-0.0401498,1.48106,0,0,0,0.0134135,0.00883622,0.114898,0.0751086,1.48106,0,0,0,0,0,0,0,0,0,0,-0.436655,-0.190446,0.0865072,-1.5,4.68194e-38,0,0,3,0.0134135,0.00883622,0.0390625,0.0585938,0,0,0.114898,0.0751086,1.9603e-19,0,0,0,0,0,0,0,0,0,2.5,-0.0176724
6684,0.310547,0.170898,1.46777,-0.00227476,-0.000613285,-0.00165274,-0.0513347,-0.0401525,1.48098,0,0,0,0.0165115,0.0108597,0.126997,0.08293,1.48098,0,0,0,0,0,0,0,0,0,0,-0.43692,-0.187523,0.0627061,-1.5,4.68194e-38,0,0,0,0.0165115,0.0108597,0.0390625,0.0585938,0,0,0.126997,0.08293,1.9603e-19,0,0,0,0,0,0,0,0,0,2.5,-0.0217195
6698,0.310547,0.237305,-6.5166,-0.00194254,-0.00188502,-0.00294497,-0.0513531,-0.0401709,1.48094,0,0,0,0.0182128,0.0119704,0.133227,0.0869544,1.48094,0,0,0,0,0,0,0,0,0,0,-0.437059,-0.185985,0.0649597,-1.5,4.68194e-38,0,0,1,0.0182128,0.0119704,0.0390625,0.0585938,0,0,0.133227,0.0869544,1.9603e-19,0,0,0,0,0,0,0,0,0,2.5,-0.0239407
6713,0.310547,0.28418,2.80859,-0.0016248,-0.000914724,-0.00162389,-0.0513681,-0.040192,1.48092,0,0,0,0.0204246,0.0134134,0.140852,0.0918799,1.48092,0,0,0,0,0,0,0,0,0,0,-0.437234,-0.184051,0.0803576,-1.5,4.68194e-38,0,0,2,0.0204246,0.0134134,0.0390625,0.0585938,0,0,0.140852,0.0918799,1.9603e-19,0,0,0,0,0,0,0,0,0,2.5,-0.0268268
6729,0.310547,0.297852,-1.45508,-0.00099078,-0.00056922,-0.00251904,-0.051398,-0.0401948,1.48088,0,0,0,0.0227555,0.0149334,0.148424,0.096771,1.48088,0,0,0,0,0,0,0,0,0,0,-0.437412,-0.182093,0.0941419,-1.5,4.68194e-38,0,0,3,0.0227555,0.0149334,0.0390625,0.0585938,-0.00999832,-0.00999832,0.148424,0.096771,1.9603e-19,0,0,0,0,0,0,0,0,0,2.5,-0.0298668
6744,0.310547,0.297852,-1.69043,-0.00139352,-0.000450925,-0.00172113,-0.0514052,-0.0401977,1.48086,0,0,0,0.0250501,0.016429,0.155477,0.101324,1.48086,0,0,0,0,0,0,0,0,0,0,-0.437581,-0.180223,0.0859553,-1.5,4.68194e-38,0,0,0,0.0250501,0.016429,0.0390625,0.0585938,-0.00999832,-0.00999832,0.155477,0.101324,1.9603e-19,0,0,0,0,0,0,0,0,0,2.5,-0.032858
6760,0.310547,0.282227,-6.24316,-0.00228645,-9.11615e-05,-0.0023701,-0.0514118,-0.0401913,1.4808,0,0,0,0.027614,0.0180994,0.162949,0.106147,1.48083,0,0,0,0,0,0,0,0,0,0,-0.437765,-0.178204,0.0891065,-1.5,4.68194e-38,0,0,1,0.027614,0.0180994,0.0390625,0.0585938,0,0,0.162949,0.106147,1.9603e-19,0,0,0,0,0,0,0,0,0,2.5,-0.0361988
6775,0.310547,0.249023,-4.83203,-0.00127345,-0.000373208,-0.00333907,-0.0514297,-0.0401921,1.48077,0,0,0,0.0301255,0.0197351,0.169905,0.110637,1.4808,0,0,0,0,0,0,0,0,0,0,-0.437939,-0.176284,0.102843,-1.5,4.68194e-38,0,0,2,0.0301255,0.0197351,0.0390625,0.0585938,0,0,0.169905,0.110637,1.9603e-19,0,0,0,0,0,0,0,0,0,2.5,-0.0394702
6790,0.310547,0.21582,-0.189453,-0.0015004,0.000427249,-0.00253398,-0.0514393,-0.0401856,1.48073,0,0,0,0.032741,0.0214378,0.176819,0.115095,1.48073,0,0,0,0,0,0,0,0,0,0,-0.438116,-0.174359,0.116538,-1.5,4.68194e-38,0,0,3,0.032741,0.0214378,0.0390625,0.0585938,0,0,0.176819,0.115095,1.9603e-19,0,0,0,0,0,0,0,0,0,2.5,-0.0428756
6806,0.310547,0.182617,-6.33691,-0.00102152,-0.000681338,-0.00155093,-0.0514503,-0.0401929,1.4807,0,0,0,0.0356471,0.0233289,0.184145,0.119816,1.4807,0,0,0,0,0,0,0,0,0,0,-0.438307,-0.172255,0.106697,-1.5,4.68194e-38,0,0,0,0.0356471,0.0233289,0.0390625,0.0585938,0,0,0.184145,0.119816,1.9603e-19,0,0,0,0,0,0,0,0,0,2.5,-0.0466579
6821,0.310547,0.167969,6.80078,-0.000417094,-0.000550016,-0.00183369,-0.0514401,-0.0402051,1.48067,0,0,0,0.0384735,0.0251676,0.190964,0.124212,1.48067,0,0,0,0,0,0,0,0,0,0,-0.438489,-0.170256,0.109688,-1.5,4.68194e-38,0,0,1,0.0384735,0.0251676,0.0390625,0.0585938,0,0,0.190964,0.124212,1.9603e-19,0,0,0,0,0,0,0,0,0,2.5,-0.0503351
6835,0.310547,0.201172,6.89062,-8.59766e-05,-0.00118768,-0.00306535,-0.0514414,-0.0402228,1.48063,0,0,0,0.041203,0.0269427,0.197287,0.12829,1.48063,0,0,0,0,0,0,0,0,0,0,-0.43866,-0.168376,0.121778,-1.5,4.68194e-38,0,0,2,0.041203,0.0269427,0.0390625,0.0585938,0,0,0.197287,0.12829,1.9603e-19,0,0,0,0,0,0,0,0,0,2.5,-0.0538853
6851,0.310547,0.234375,-6.59277,-0.00182919,0.000113185,-0.0019789,-0.0514643,-0.0402184,1.4806,0,0,0,0.0444329,0.0290425,0.204467,0.13292,1.4806,0,0,0,0,0,0,0,0,0,0,-0.438859,-0.16619,0.136968,-1.5,4.68194e-38,0,0,3,0.0444329,0.0290425,0.0390625,0.0585938,0,0,0.204467,0.13292,1.9603e-19,0,0,0,0,0,0,0,0,0,2.5,-0.0580851
6866,0.310547,0.267578,-0.357422,-0.000291153,-0.000948971,-0.00209689,-0.0514605,-0.0402208,1.48056,0,0,0,0.0475646,0.0310781,0.211153,0.13723,1.48056,0,0,0,0,0,0,0,0,0,0,-0.439049,-0.164118,0.12861,-1.5,4.68194e-38,0,0,0,0.0475646,0.0310781,0.0390625,0.0585938,0,0,0.211153,0.13723,1.9603e-19,0,0,0,0,0,0,0,0,0,2.5,-0.0621561
6882,0.310547,0.300781,6.9707,-0.000448034,-0.00127404,-0.00254681,-0.0514688,-0.0402259,1.48053,0,0,0,0.0510175,0.0333218,0.218237,0.141797,1.48053,0,0,0,0,0,0,0,0,0,0,-0.439253,-0.161881,0.129175,-1.5,4.68194e-38,0,0,1,0.0510175,0.0333218,0.0390625,0.0585938,0,0,0.218237,0.141797,1.9603e-19,0,0,0,0,0,0,0,0,0,2.5,-0.0666435
6897,0.310547,0.302734,0.40332,-0.00235532,-0.000388475,-0.00321205,-0.0514933,-0.0402245,1.48045,0,0,0,0.0543549,0.0354899,0.224832,0.146048,1.48048,0,0,0,0,0,0,0,0,0,0,-0.439447,-0.159762,0.142751,-1.5,4.68194e-38,0,0,2,0.0543549,0.0354899,0.0390625,0.0585938,0,0,0.224832,0.146048,1.9603e-19,0,0,0,0,0,0,0,0,0,2.5,-0.0709797
6913,0.310547,0.295898,6.5127,-0.00147732,-0.000157892,-0.00276756,-0.0515107,-0.0402212,1.48041,0,0,0,0.0580257,0.037874,0.231821,0.15055,1.48045,0,0,0,0,0,0,0,0,0,0,-0.439657,-0.157469,0.157851,-1.5,4.68194e-38,0,0,3,0.0580257,0.037874,0.0390625,0.0585938,0,0,0.231821,0.15055,1.9603e-19,0,0,0,0,0,0,0,0,0,2.5,-0.0757479
6933,0.310547,0.262695,-6.54297,-0.000577638,1.52695e-05,-0.00253307,-0.0515169,-0.0402217,1.48039,0,0,0,0.0627839,0.0409633,0.2405,0.156135,1.48039,0,0,0,0,0,0,0,0,0,0,-0.439923,-0.154567,0.141587,-1.5,4.68194e-38,0,0,0,0.0627839,0.0409633,0.0390625,0.0585938,0,0,0.2405,0.156135,1.9603e-19,0,0,0,0,0,0,0,0,0,2.5,-0.0819266
7040,0.310547,0.276367,-4.02539,-0.00123753,-0.000778653,-0.00278518,-0.0515548,-0.0402645,1.48015,0,0,0,0.0931017,0.0606195,0.286485,0.185723,1.48015,0,0,0,0,0,0,0,0,0,0,-0.441487,-0.137517,0.116227,-1.5,4.68194e-38,0,0,1,0.0931017,0.0606195,0.0390625,0.0585938,0,0,0.286485,0.185723,1.9603e-19,0,0,0,0,0,0,0,0,0,2.5,-0.121239
7118,0.310547,0.300781,7.04297,-0.000923297,-0.000545665,-0.0019147,-0.051644,-0.0402858,1.48001,0,0,0,0.117708,0.0765597,0.318442,0.206277,1.48001,0,0,0,0,0,0,0,0,0,0,-0.442681,-0.124524,0.22842,-1.5,4.68194e-38,0,0,2,0.117708,0.0765597,0.0390625,0.0585938,-0.00999832,-0.00999832,0.318442,0.206277,1.9603e-19,0,0,0,0,0,0,0,0,0,2.5,-0.153119
7155,0.310547,0.285156,-4.87695,0.000900633,-0.000314943,-0.00270903,-0.0516884,-0.0402932,1.47991,0,0,0,0.129932,0.0844759,0.33311,0.215691,1.47991,0,0,0,0,0,0,0,0,0,0,-0.443259,-0.118283,0.276031,-1.5,4.68194e-38,0,0,3,0.129932,0.0844759,0.0390625,0.0585938,0,0,0.33311,0.215691,1.9603e-19,0,0,0,0,0,0,0,0,0,2.5,-0.168952
7171,0.310547,0.251953,-7.11914,-0.000446147,-0.0012067,-0.00342437,-0.0516991,-0.0403071,1.47987,0,0,0,0.135328,0.0879691,0.339358,0.219697,1.47987,0,0,0,0,0,0,0,0,0,0,-0.44351,-0.115564,0.265553,-1.5,4.68194e-38,0,0,0,0.135328,0.0879691,0.0390625,0.0585938,0,0,0.339358,0.219697,1.9603e-19,0,0,0,0,0,0,0,0,0,2.5,-0.175938
7280,0.310547,0.31543,4.41016,-0.00039673,-0.000810568,-0.00216797,-0.0517902,-0.0403461,1.4796,0,0,0,0.176613,0.11467,0.381595,0.246773,1.4796,0,0,0,0,0,0,0,0,0,0,-0.445359,-0.0956473,0.214192,-1.5,4.68194e-38,0,0,1,0.176613,0.11467,0.0390625,0.0585938,0,0,0.381595,0.246773,1.9603e-19,0,0,0,0,0,0,0,0,0,2.5,-0.229339
7400,0.310547,0.158203,5.50293,-0.00123569,-0.00131237,-0.00287153,-0.0518536,-0.0403645,1.47928,0,0,0,0.227402,0.14748,0.425941,0.275142,1.47928,0,0,369098752,-534446081,369098752,-534446081,33554432,33554432,-1075088617,0,-0.447531,-0.0723906,0.391703,-1.5,4.68194e-38,0,0,2,0.227402,0.14748,0.0390625,0.0585938,0,0,0.425941,0.275142,0,0,0,0,0,0,0,0,0,0,2.5,-0.294959
7533,0.310547,0.206055,-6.06641,-0.000897163,-5.53557e-06,-0.00283055,-0.0519589,-0.0403773,1.47892,0,0,0,0.289867,0.187785,0.472527,0.304873,1.47895,0,0,369098752,-534446081,369098752,-534446081,33554432,33554432,-1075088617,0,-0.450095,-0.045069,0.585725,-1.5,4.68194e-38,0,0,3,0.289867,0.187785,0.0390625,0.0585938,0,0,0.472527,0.304873,0,0,0,0,0,0,0,0,0,0,2.5,-0.375571
7555,0.310547,0.206055,-6.06641,-0.000897163,-5.53557e-06,-0.00283055,-0.0519589,-0.0403773,1.47892,0,0,0,0.300378,0.194566,0.479805,0.3095,1.47892,0,0,369098752,-534446081,369098752,-534446081,33554432,33554432,-1075088617,0,-0.450517,-0.0405571,0.56462,-1.5,4.68194e-38,0,0,0,0.300378,0.194566,0.0390625,0.0585938,0,0,0.479805,0.3095,0,0,0,0,0,0,0,0,0,0,2.5,-0.389132
7576,0.310547,0.305664,5.63672,-0.000647527,0.000210808,-0.00313093,-0.0519786,-0.0403846,1.47878,0,0,0,0.310557,0.201131,0.486686,0.313872,1.47884,0,0,369098752,-534446081,369098752,-534446081,33554432,33554432,-1075088617,0,-0.450929,-0.0362354,0.550869,-1.5,4.68194e-38,0,0,1,0.310557,0.201131,0.0390625,0.0585938,0,0,0.486686,0.313872,0,0,0,0,0,0,0,0,0,0,2.5,-0.402261
7592,0.310547,0.320312,5.85742,-0.00204695,8.2141e-05,-0.00251177,-0.0519954,-0.0403876,1.47875,-4.62585,-1.14424,0.348172,0.318398,0.206187,0.491883,0.317173,1.47878,0,0,387,-2,387,-2,489,-2,380,96,-0.451244,-0.0329204,0.564324,-1.5,4.68194e-38,0,0,2,0.318398,0.206187,0.0390625,0.0585938,0,0,0.491883,0.317173,11227,0,0,0,0,0,0,0,0,0,2.5,-0.412375
7614,0.310547,0.287109,-0.266602,-0.000918143,-0.000810955,-0.00263109,-0.0519916,-0.0403928,1.47871,-4.71534,-1.15474,0.392566,0.329329,0.213234,0.498978,0.321676,1.47871,0,0,385,-2,385,-2,486,0,381,95,-0.451682,-0.0283222,0.58713,-1.5,4.68194e-38,0,0,3,0.329329,0.213234,0.0390625,0.0585938,0,0,0.498978,0.321676,10500,0,0,0,0,0,0,0,0,0,2.5,-0.426469
7635,0.310547,0.220703,1.35547,-0.00283764,-0.00164041,-0.00256874,-0.052036,-0.0404008,1.47865,-4.71534,-1.15474,0.392566,0.339904,0.220051,0.505685,0.325934,1.47865,0,0,385,-2,385,-2,486,0,381,95,-0.452102,-0.0238964,0.568012,-1.5,4.68194e-38,0,0,0,0.339904,0.220051,0.0390625,0.0585938,0,0,0.505685,0.325934,10500,0,0,0,0,0,0,0,0,0,2.5,-0.440102
7651,0.310547,0.1875,-6.67871,-0.00151324,-0.000701843,-0.00277535,-0.0520462,-0.0404081,1.47862,-4.64062,-1.14551,0.352098,0.348048,0.2253,0.510757,0.329148,1.47862,0,0,385,-2,385,-2,489,0,381,95,-0.452423,-0.0204987,0.559817,-1.5,4.68194e-38,0,0,1,0.348048,0.2253,0.0390625,0.0585938,0,0,0.510757,0.329148,11124,0,0,0,0,0,0,0,0,0,2.5,-0.4506
7673,0.310547,0.121094,-1.77246,-0.00127593,-0.000768627,-0.00350625,-0.0520528,-0.0404028,1.47853,-4.64062,-1.14551,0.352098,0.358873,0.232274,0.517366,0.333336,1.47858,0,0,385,-2,385,-2,489,0,381,95,-0.452847,-0.0160024,0.581058,-1.5,4.68194e-38,0,0,2,0.358873,0.232274,0.0390625,0.0585938,0,0,0.517366,0.333336,11124,0,0,0,0,0,0,0,0,0,2.5,-0.464549
7694,0.310547,0.121094,-1.77246,-0.00127593,-0.000768627,-0.00350625,-0.0520528,-0.0404028,1.47853,-4.66634,-1.15736,0.36326,0.37036,0.239675,0.524223,0.337679,1.47853,0,0,387,-2,387,-2,489,0,381,95,-0.453296,-0.0112596,0.603798,-1.5,4.68194e-38,0,0,3,0.37036,0.239675,0.0390625,0.0585938,0,0,0.524223,0.337679,11124,0,0,0,0,0,0,0,0,0,2.5,-0.479349
7709,0.310547,0.121094,-1.77246,-0.00127593,-0.000768627,-0.00350625,-0.0520528,-0.0404028,1.47853,-4.66634,-1.15736,0.36326,0.378268,0.244768,0.528856,0.340613,1.47853,0,0,387,-2,387,-2,489,0,381,95,-0.453598,-0.0079933,0.593572,-1.5,4.68194e-38,0,0,0,0.378268,0.244768,0.0390625,0.0585938,0,0,0.528856,0.340613,11124,0,0,0,0,0,0,0,0,0,2.5,-0.489536
7731,0.310547,0.121094,-1.77246,-0.00127593,-0.000768627,-0.00350625,-0.0520528,-0.0404028,1.47853,-4.66634,-1.15736,0.36326,0.39001,0.252329,0.535603,0.344885,1.47853,0,0,387,-2,387,-2,489,0,381,95,-0.454045,-0.00316524,0.577774,-1.5,4.68194e-38,0,0,1,0.39001,0.252329,0.0390625,0.0585938,0,0,0.535603,0.344885,11124,0,0,0,0,0,0,0,0,0,2.5,-0.504659
7752,0.310547,0.121094,-1.77246,-0.00127593,-0.000768627,-0.00350625,-0.0520528,-0.0404028,1.47853,-4.66634,-1.15736,0.36326,0.40135,0.25963,0.541978,0.348922,1.47853,0,0,387,-2,387,-2,489,0,381,95,-0.454474,0.0014747,0.598943,-1.5,4.68194e-38,0,0,2,0.40135,0.25963,0.0390625,0.0585938,0,0,0.541978,0.348922,11124,0,0,0,0,0,0,0,0,0,2.5,-0.519261
7773,0.310547,0.294922,-2.33691,-0.00129879,-0.000838935,-0.00348337,-0.0521272,-0.0403966,1.47828,-4.66634,-1.15736,0.36326,0.412826,0.267017,0.548299,0.352921,1.47828,0,0,387,-2,387,-2,489,0,381,95,-0.454951,0.00603627,0.62004,-1.5,4.68194e-38,0,0,3,0.412826,0.267017,0.0390625,0.0585938,-0.00999832,-0.00999832,0.548299,0.352921,11124,0,0,0,0,0,0,0,0,0,2.5,-0.534035
7789,0.310547,0.294922,-2.33691,-0.00129879,-0.000838935,-0.00348337,-0.0521272,-0.0403966,1.47828,-4.66634,-1.15736,0.36326,0.421647,0.272695,0.553079,0.355936,1.47828,0,0,387,-2,387,-2,489,0,381,95,-0.455283,0.00961343,0.616033,-1.5,4.68194e-38,0,0,2,0.421647,0.272695,0.0390625,0.0585938,-0.00999832,-0.00999832,0.553079,0.355936,11124,0,0,0,0,0,0,0,0,0,2.5,-0.54539
7810,0.310547,0.195312,2.95996,-0.00199249,-0.000540715,-0.00275985,-0.0521514,-0.0404143,1.47819,-4.66634,-1.15736,0.36326,0.433355,0.280228,0.559309,0.359865,1.47823,0,0,387,-2,387,-2,489,0,381,95,-0.455731,0.0143189,0.649019,-1.5,4.68194e-38,0,0,2,0.433355,0.280228,0.0390625,0.0585938,0,0,0.559309,0.359865,11124,0,0,0,0,0,0,0,0,0,2.5,-0.560456
7831,0.310547,0.162109,-4.20508,-0.00196293,-0.000409873,-0.00178097,-0.0521676,-0.0404173,1.47817,-4.66634,-1.15736,0.36326,0.445193,0.287843,0.565484,0.363759,1.47817,0,0,387,-2,387,-2,489,0,381,95,-0.456185,0.0190505,0.682006,-1.5,4.68194e-38,0,0,2,0.445193,0.287843,0.0390625,0.0585938,0,0,0.565484,0.363759,11124,0,0,0,0,0,0,0,0,0,2.5,-0.575687
7847,0.310547,0.15332,5.0498,-0.00214945,-0.0011348,-0.00240527,-0.0521944,-0.0404207,1.47813,-4.66634,-1.15736,0.36326,0.45429,0.293695,0.570151,0.366699,1.47813,0,0,387,-2,387,-2,489,0,381,95,-0.456532,0.0226773,0.707139,-1.5,4.68194e-38,0,0,2,0.45429,0.293695,0.0390625,0.0585938,0,0,0.570151,0.366699,11124,0,0,0,0,0,0,0,0,0,2.5,-0.587389
7869,0.310547,0.219727,2.99805,-0.00121895,-0.000747225,-0.00280471,-0.0521904,-0.040436,1.47805,-4.66634,-1.15736,0.36326,0.466931,0.301823,0.576522,0.370709,1.47809,0,0,387,-2,387,-2,489,0,381,95,-0.457008,0.0277057,0.741696,-1.5,4.68194e-38,0,0,2,0.466931,0.301823,0.0390625,0.0585938,0,-0.00999832,0.576522,0.370709,11124,0,0,0,0,0,0,0,0,0,2.5,-0.603647
7891,0.310547,0.219727,2.99805,-0.00121895,-0.000747225,-0.00280471,-0.0521904,-0.040436,1.47805,-4.66634,-1.15736,0.36326,0.479128,0.309665,0.582545,0.374503,1.47805,0,0,387,-2,387,-2,489,0,381,95,-0.457466,0.0325374,0.774683,-1.5,4.68194e-38,0,0,2,0.479128,0.309665,0.0390625,0.0585938,0,-0.00999832,0.582545,0.374503,11124,0,0,0,0,0,0,0,0,0,2.5,-0.61933
7906,0.310547,0.302734,4.99707,-0.000910939,-0.00056225,-0.00156281,-0.0522345,-0.0404429,1.47795,-4.66634,-1.15736,0.36326,0.488496,0.315687,0.587095,0.377367,1.47798,0,0,387,-2,387,-2,489,0,381,95,-0.457827,0.0362142,0.799816,-1.5,4.68194e-38,0,0,2,0.488496,0.315687,0.0390625,0.0585938,0,0,0.587095,0.377367,11124,0,0,0,0,0,0,0,0,0,2.5,-0.631374
7927,0.310547,0.269531,4.18066,-0.00118222,0.000371378,-0.00246503,-0.0522347,-0.0404415,1.47792,-4.66634,-1.15736,0.36326,0.500914,0.323668,0.593027,0.381097,1.47792,0,0,387,-2,387,-2,489,0,381,95,-0.458297,0.0410874,0.832802,-1.5,4.68194e-38,0,0,2,0.500914,0.323668,0.0390625,0.0585938,0,0,0.593027,0.381097,11124,0,0,0,0,0,0,0,0,0,2.5,-0.647335
7955,0.310547,0.203125,-7.31641,-0.00154003,-0.000317217,-0.0013798,-0.0522537,-0.0404464,1.47786,-4.66634,-1.15736,0.36326,0.517682,0.334441,0.600861,0.38602,1.47786,0,0,387,-2,387,-2,489,0,381,95,-0.458922,0.0476523,0.876785,-1.5,4.68194e-38,0,0,2,0.517682,0.334441,0.0390625,0.0585938,0,0,0.600861,0.38602,11124,0,0,0,0,0,0,0,0,0,2.5,-0.668882
7967,0.310547,0.169922,7.25195,-0.00224349,-0.00116641,-0.00142926,-0.0522715,-0.0404569,1.47784,-4.66634,-1.15736,0.36326,0.524916,0.339088,0.604182,0.388106,1.47784,0,0,387,-2,387,-2,489,0,381,95,-0.459192,0.0504735,0.895634,-1.5,4.68194e-38,0,0,2,0.524916,0.339088,0.0390625,0.0585938,-0.00999832,-0.00999832,0.604182,0.388106,11124,0,0,0,0,0,0,0,0,0,2.5,-0.678177
7987,0.310547,0.169922,7.25195,-0.00224349,-0.00116641,-0.00142926,-0.0522715,-0.0404569,1.47784,-4.70319,-1.15774,0.378877,0.537077,0.346899,0.609688,0.391563,1.47784,0,0,387,-2,387,-2,486,0,381,95,-0.459635,0.0552224,0.92705,-1.5,4.68194e-38,0,0,2,0.537077,0.346899,0.0390625,0.0585938,-0.00999832,-0.00999832,0.609688,0.391563,10815,0,0,0,0,0,0,0,0,0,2.5,-0.693798
8004,0.310547,0.206055,-3.55469,-0.000714919,-0.00104675,-0.00273368,-0.0522984,-0.0404736,1.47776,-4.70319,-1.15774,0.378877,0.546878,0.353193,0.614056,0.394305,1.47779,0,0,387,-2,387,-2,486,0,381,95,-0.460003,0.0590147,0.952183,-1.5,4.68194e-38,0,0,2,0.546878,0.353193,0.0390625,0.0585938,0.00999832,0,0.614056,0.394305,10815,0,0,0,0,0,0,0,0,0,2.5,-0.706386
8022,0.310547,0.239258,-6.94531,-0.00132427,-0.000199315,-0.00310095,-0.0523085,-0.0404813,1.47772,-4.70319,-1.15774,0.378877,0.558613,0.360727,0.619208,0.397538,1.47772,0,0,387,-2,387,-2,486,0,381,95,-0.460443,0.0635395,0.982028,-1.5,4.68194e-38,0,0,2,0.558613,0.360727,0.0390625,0.0585938,0.00999832,0,0.619208,0.397538,10815,0,0,0,0,0,0,0,0,0,2.5,-0.721454
8039,0.310547,0.272461,6.90234,-0.0016874,0.000172821,-0.00256251,-0.0523263,-0.0404726,1.47768,-4.70319,-1.15774,0.378877,0.56919,0.367517,0.623781,0.400407,1.47768,0,0,387,-2,387,-2,486,0,381,95,-0.460835,0.0676165,1.00873,-1.5,4.68194e-38,0,0,2,0.56919,0.367517,0.0390625,0.0585938,0,0,0.623781,0.400407,10815,0,0,0,0,0,0,0,0,0,2.5,-0.735034
8055,0.310547,0.272461,6.90234,-0.0016874,0.000172821,-0.00256251,-0.0523263,-0.0404726,1.47768,-4.70319,-1.15774,0.378877,0.579215,0.373952,0.628056,0.403085,1.47768,0,0,387,-2,387,-2,486,0,381,95,-0.461196,0.0714865,1.03386,-1.5,4.68194e-38,0,0,2,0.579215,0.373952,0.0390625,0.0585938,0,0,0.628056,0.403085,10815,0,0,0,0,0,0,0,0,0,2.5,-0.747903
8071,0.310547,0.28418,-2.4541,0.000396065,0.000901265,-0.00192483,-0.0523334,-0.0404529,1.47762,-4.70319,-1.15774,0.378877,0.589307,0.380428,0.6323,0.405742,1.47762,0,0,387,-2,387,-2,486,0,381,95,-0.461574,0.0753446,1.05743,-1.5,4.68194e-38,0,0,2,0.589307,0.380428,0.0390625,0.0585938,0,0,0.6323,0.405742,10815,0,0,0,0,0,0,0,0,0,2.5,-0.760856
8087,0.310547,0.28418,2.7959,-0.00194571,0.000133475,-0.00172239,-0.0523732,-0.040452,1.47755,-4.70319,-1.15774,0.378877,0.599469,0.386948,0.636515,0.408379,1.47762,0,0,387,-2,387,-2,486,0,381,95,-0.461939,0.0792464,1.08256,-1.5,4.68194e-38,0,0,2,0.599469,0.386948,0.0390625,0.0585938,-0.00999832,-0.00999832,0.636515,0.408379,10815,0,0,0,0,0,0,0,0,0,2.5,-0.773895
8103,0.310547,0.28418,-6.13281,-0.00213871,4.29316e-05,-0.00241166,-0.0523853,-0.0404506,1.47752,-4.70319,-1.15774,0.378877,0.609695,0.393508,0.640703,0.410995,1.47755,0,0,387,-2,387,-2,486,0,381,95,-0.462323,0.0831304,1.10612,-1.5,4.68194e-38,0,0,2,0.609695,0.393508,0.0390625,0.0585938,0,0,0.640703,0.410995,10815,0,0,0,0,0,0,0,0,0,2.5,-0.787017
8119,0.310547,0.28418,4.74219,-0.00125394,0.000366923,-0.00146581,-0.0523986,-0.0404428,1.47749,-4.70319,-1.15774,0.378877,0.619989,0.400111,0.644865,0.413591,1.47749,0,0,387,-2,387,-2,486,0,381,95,-0.462706,0.0870364,1.12968,-1.5,4.68194e-38,0,0,2,0.619989,0.400111,0.0390625,0.0585938,0,0,0.644865,0.413591,10815,0,0,0,0,0,0,0,0,0,2.5,-0.800222
8135,0.310547,0.28418,2.08398,-0.001032,-0.000987736,-0.00280163,-0.0524103,-0.0404445,1.47745,-4.70319,-1.15774,0.378877,0.6297,0.406338,0.648743,0.416006,1.47745,0,0,387,-2,387,-2,486,0,381,95,-0.463063,0.0907191,1.15325,-1.5,4.68194e-38,0,0,2,0.6297,0.406338,0.0390625,0.0585938,0,0,0.648743,0.416006,10815,0,0,0,0,0,0,0,0,0,2.5,-0.812676
8152,0.310547,0.28418,6.37598,-0.00124782,-0.000161994,-0.00323539,-0.0524261,-0.0404479,1.47742,-4.70319,-1.15774,0.378877,0.640778,0.413441,0.65311,0.418724,1.47742,0,0,387,-2,387,-2,486,0,381,95,-0.463467,0.0949161,1.17995,-1.5,4.68194e-38,0,0,2,0.640778,0.413441,0.0390625,0.0585938,0,0,0.65311,0.418724,10815,0,0,0,0,0,0,0,0,0,2.5,-0.826882
8167,0.310547,0.28418,-3.21875,-0.000384495,-5.0503e-05,-0.00210206,-0.0524332,-0.0404478,1.47738,-4.70319,-1.15774,0.378877,0.651269,0.420167,0.657191,0.421263,1.47738,0,0,387,-2,387,-2,486,0,381,95,-0.463849,0.0988794,1.20351,-1.5,4.68194e-38,0,0,2,0.651269,0.420167,0.0390625,0.0585938,0,0,0.657191,0.421263,10815,0,0,0,0,0,0,0,0,0,2.5,-0.840333
8183,0.310547,0.28418,3.35059,-0.000511315,-0.000141145,-0.00252812,-0.0524322,-0.0404489,1.47735,-4.6351,-1.13981,0.354867,0.661826,0.426932,0.661243,0.423783,1.47735,0,0,385,-2,385,-2,489,-2,381,95,-0.464233,0.102859,1.22864,-1.5,4.68194e-38,0,0,2,0.661826,0.426932,0.0390625,0.0585938,0,0,0.661243,0.423783,11124,0,0,0,0,0,0,0,0,0,2.5,-0.853865
8199,0.337891,0.226562,-4.37012,-0.00141937,-0.000791298,-0.00231119,-0.0524723,-0.0404518,1.4773,-4.6351,-1.13981,0.354867,0.672447,0.433738,0.665266,0.426285,1.47735,0,0,385,-2,385,-2,489,-2,381,95,-0.464609,0.10687,1.25378,-1.5,4.68194e-38,0,0,2,0.672447,0.433738,0.0390625,0.0585938,-0.00999832,-0.00999832,0.665266,0.426285,11124,0,0,0,0,0,0,0,0,0,2.5,-0.867477
8215,0.371094,0.193359,-3.29883,-0.000477276,-0.000184558,-0.00207028,-0.0524691,-0.0404384,1.47727,-4.66038,-1.15165,0.365882,0.683133,0.440585,0.669268,0.428768,1.47727,0,0,387,-2,387,-2,489,-2,381,95,-0.46501,0.110858,1.27891,-1.5,4.68194e-38,0,0,2,0.683133,0.440585,0.0390625,0.0585938,-0.00999832,-0.00999832,0.669268,0.428768,11124,0,0,0,0,0,0,0,0,0,2.5,-0.88117
8231,0.404297,0.160156,-0.600586,0.000150581,-6.8096e-05,-0.00340778,-0.0524724,-0.0404371,1.47722,-4.66038,-1.15165,0.365882,0.693882,0.447471,0.67324,0.431231,1.47722,0,0,387,-2,387,-2,489,-2,381,95,-0.465401,0.114879,1.30404,-1.5,4.68194e-38,0,0,2,0.693882,0.447471,0.0390625,0.0585938,-0.00999832,-0.00999832,0.67324,0.431231,11124,0,0,0,0,0,0,0,0,0,2.5,-0.894941
8247,0.4375,0.126953,4.19336,-0.00159435,-0.00027,-0.00205297,-0.0524941,-0.0404424,1.4772,-4.63508,-1.13972,0.354958,0.704695,0.454396,0.677185,0.433677,1.4772,0,0,385,-2,385,-2,489,-2,381,95,-0.465789,0.118924,1.32918,-1.5,4.68194e-38,0,0,2,0.704695,0.454396,0.0390625,0.0585938,0,0,0.677185,0.433677,11124,0,0,0,0,0,0,0,0,0,2.5,-0.908792
8263,0.4375,0.126953,4.19336,-0.00159435,-0.00027,-0.00205297,-0.0524941,-0.0404424,1.4772,-4.63508,-1.13972,0.354958,0.71557,0.46136,0.681104,0.436104,1.4772,0,0,385,-2,385,-2,489,-2,381,95,-0.466171,0.122995,1.35431,-1.5,4.68194e-38,0,0,2,0.71557,0.46136,0.0390625,0.0585938,0,0,0.681104,0.436104,11124,0,0,0,0,0,0,0,0,0,2.5,-0.922719
8280,0.381836,0.198242,7.00684,0.000610123,-0.000721963,-0.00296683,-0.0524996,-0.0404435,1.47712,-4.72859,-1.15788,0.389723,0.726509,0.468363,0.684996,0.438514,1.47712,0,0,387,-2,387,-2,485,0,381,95,-0.466579,0.127043,1.37944,-1.5,4.68194e-38,0,0,2,0.726509,0.468363,0.0390625,0.0585938,0,0,0.684996,0.438514,10712,0,0,0,0,0,0,0,0,0,2.5,-0.936725
8295,0.317383,0.297852,-2.69043,-0.00109172,-0.000829506,-0.00288536,-0.0525368,-0.0404494,1.47704,-4.72859,-1.15788,0.389723,0.737509,0.475404,0.688861,0.440907,1.47712,0,0,387,-2,387,-2,485,0,381,95,-0.466965,0.131144,1.40457,-1.5,4.68194e-38,0,0,2,0.737509,0.475404,0.0390625,0.0585938,0,0,0.688861,0.440907,10712,0,0,0,0,0,0,0,0,0,2.5,-0.950808
8311,0.317383,0.297852,0.133789,-0.00100382,-0.000880323,-0.00274316,-0.0525323,-0.0404571,1.477,-4.68547,-1.15947,0.385609,0.748572,0.482483,0.692702,0.443282,1.477,0,0,387,-2,387,-2,489,-2,381,95,-0.467388,0.135204,1.42971,-1.5,4.68194e-38,0,0,2,0.748572,0.482483,0.0390625,0.0585938,0.00999832,0,0.692702,0.443282,10800,0,0,0,0,0,0,0,0,0,2.5,-0.964967
8328,0.317383,0.297852,4.86328,-0.000780919,-0.000766745,-0.0031342,-0.0525396,-0.0404595,1.47696,-4.68547,-1.15947,0.385609,0.760392,0.490047,0.696755,0.445788,1.47696,0,0,387,-2,387,-2,489,-2,381,95,-0.467813,0.139575,1.45641,-1.5,4.68194e-38,0,0,2,0.760392,0.490047,0.0390625,0.0585938,0.00999832,0,0.696755,0.445788,10800,0,0,0,0,0,0,0,0,0,2.5,-0.980094
8343,0.317383,0.273438,-5.18555,-0.00246946,-0.000678097,-0.0018431,-0.0525775,-0.0404562,1.47694,-4.68547,-1.15947,0.385609,0.770878,0.496755,0.700309,0.447982,1.47694,0,0,387,-2,387,-2,489,-2,381,95,-0.468186,0.143449,1.47997,-1.5,4.68194e-38,0,0,2,0.770878,0.496755,0.0390625,0.0585938,-0.00999832,-0.00999832,0.700309,0.447982,10800,0,0,0,0,0,0,0,0,0,2.5,-0.99351
8358,0.317383,0.273438,-5.18555,-0.00246946,-0.000678097,-0.0018431,-0.0525775,-0.0404562,1.47694,-4.65948,-1.1474,0.374174,0.781417,0.503496,0.703842,0.450161,1.47694,0,0,385,-2,385,-2,489,-2,381,95,-0.468553,0.147347,1.50353,-1.5,4.68194e-38,0,0,2,0.781417,0.503496,0.0390625,0.0585938,-0.00999832,-0.00999832,0.703842,0.450161,10800,0,0,0,0,0,0,0,0,0,2.5,-1.00699
8374,0.317383,0.207031,0.0693359,-0.00102298,4.00121e-05,-0.00230737,-0.0526111,-0.0404639,1.47687,-4.65948,-1.1474,0.374174,0.792717,0.510723,0.707587,0.452469,1.47687,0,0,385,-2,385,-2,489,-2,381,95,-0.468967,0.151487,1.52867,-1.5,4.68194e-38,0,0,2,0.792717,0.510723,0.0390625,0.0585938,0,0,0.707587,0.452469,10800,0,0,0,0,0,0,0,0,0,2.5,-1.02145
8390,0.317383,0.140625,1.09082,-0.00143071,-0.000228832,-0.00226998,-0.052624,-0.0404607,1.47679,-4.74092,-1.15969,0.403784,0.804077,0.517985,0.711308,0.454761,1.47687,0,0,387,-2,387,-2,485,0,380,95,-0.469362,0.155673,1.5538,-1.5,4.68194e-38,0,0,2,0.804077,0.517985,0.0390625,0.0585938,0,0,0.711308,0.454761,10500,0,0,0,0,0,0,0,0,0,2.5,-1.03597
8406,0.317383,0.129883,3.80273,-0.00162167,0.000607937,-0.00156414,-0.0526431,-0.0404545,1.47677,-4.74092,-1.15969,0.403784,0.815495,0.525285,0.715004,0.457035,1.47679,0,0,387,-2,387,-2,485,0,380,95,-0.469785,0.159835,1.57893,-1.5,4.68194e-38,0,0,2,0.815495,0.525285,0.0390625,0.0585938,0,0,0.715004,0.457035,10500,0,0,0,0,0,0,0,0,0,2.5,-1.05057
8422,0.317383,0.129883,3.80273,-0.00162167,0.000607937,-0.00156414,-0.0526431,-0.0404545,1.47677,-4.62268,-1.13906,0.349939,0.826973,0.53262,0.718677,0.459291,1.47677,0,0,385,-2,385,-2,489,-2,381,95,-0.470189,0.164037,1.60407,-1.5,4.68194e-38,0,0,2,0.826973,0.53262,0.0390625,0.0585938,0,0,0.718677,0.459291,11124,0,0,0,0,0,0,0,0,0,2.5,-1.06524
8438,0.317383,0.129883,4.17676,-0.00183086,-0.000981091,-0.00301795,-0.0526967,-0.0404526,1.4767,-4.62268,-1.13906,0.349939,0.838509,0.539992,0.722327,0.46153,1.4767,0,0,385,-2,385,-2,489,-2,381,95,-0.470609,0.168235,1.6292,-1.5,4.68194e-38,0,0,2,0.838509,0.539992,0.0390625,0.0585938,0,0,0.722327,0.46153,11124,0,0,0,0,0,0,0,0,0,2.5,-1.07998
8454,0.317383,0.129883,4.17676,-0.00183086,-0.000981091,-0.00301795,-0.0526967,-0.0404526,1.4767,-4.68931,-1.14504,0.373098,0.850103,0.547399,0.725956,0.463752,1.4767,0,0,385,-2,385,-2,485,0,381,95,-0.471009,0.172475,1.65433,-1.5,4.68194e-38,0,0,2,0.850103,0.547399,0.0390625,0.0585938,0,0,0.725956,0.463752,10712,0,0,0,0,0,0,0,0,0,2.5,-1.0948
8470,0.317383,0.132812,-7.13184,-0.00115582,-0.00107323,-0.00239241,-0.0527115,-0.0404615,1.47661,-4.68931,-1.14504,0.373098,0.861755,0.554842,0.729561,0.465958,1.47661,0,0,385,-2,385,-2,485,0,381,95,-0.471443,0.176686,1.67946,-1.5,4.68194e-38,0,0,2,0.861755,0.554842,0.0390625,0.0585938,0,0,0.729561,0.465958,10712,0,0,0,0,0,0,0,0,0,2.5,-1.10968
8485,0.317383,0.199219,-5.74414,-0.00171662,-0.000817632,-0.00368504,-0.052727,-0.0404604,1.47657,-4.67753,-1.14475,0.368158,0.872731,0.561851,0.732919,0.468012,1.47657,0,0,385,-2,385,-2,486,0,381,95,-0.471836,0.180665,1.70303,-1.5,4.68194e-38,0,0,2,0.872731,0.561851,0.0390625,0.0585938,0,0,0.732919,0.468012,10815,0,0,0,0,0,0,0,0,0,2.5,-1.1237
8502,0.382812,0.30957,1.79395,-0.00101405,-0.000494681,-0.00322298,-0.0527413,-0.0404658,1.47648,-4.67753,-1.14475,0.368158,0.885234,0.569833,0.736701,0.470322,1.47653,0,0,385,-2,385,-2,486,0,381,95,-0.472282,0.185193,1.72973,-1.5,4.68194e-38,0,0,2,0.885234,0.569833,0.0390625,0.0585938,-0.00999832,-0.00999832,0.736701,0.470322,10815,0,0,0,0,0,0,0,0,0,2.5,-1.13967
8519,0.382812,0.30957,1.79395,-0.00101405,-0.000494681,-0.00322298,-0.0527413,-0.0404658,1.47648,-4.70327,-1.15667,0.37938,0.897801,0.577855,0.740457,0.472616,1.47648,0,0,387,-2,387,-2,486,0,381,95,-0.472729,0.189737,1.75643,-1.5,4.68194e-38,0,0,2,0.897801,0.577855,0.0390625,0.0585938,-0.00999832,-0.00999832,0.740457,0.472616,10815,0,0,0,0,0,0,0,0,0,2.5,-1.15571
8534,0.382812,0.30957,1.79395,-0.00101405,-0.000494681,-0.00322298,-0.0527413,-0.0404658,1.47648,-4.70327,-1.15667,0.37938,0.908938,0.584963,0.743745,0.474624,1.47648,0,0,387,-2,387,-2,486,0,381,95,-0.473111,0.193775,1.78,-1.5,4.68194e-38,0,0,2,0.908938,0.584963,0.0390625,0.0585938,-0.00999832,-0.00999832,0.743745,0.474624,10815,0,0,0,0,0,0,0,0,0,2.5,-1.16993
8550,0.382812,0.30957,1.79395,-0.00101405,-0.000494681,-0.00322298,-0.0527413,-0.0404658,1.47648,-4.70327,-1.15667,0.37938,0.920875,0.592579,0.74723,0.476751,1.47648,0,0,387,-2,387,-2,486,0,381,95,-0.47352,0.198096,1.80513,-1.5,4.68194e-38,0,0,2,0.920875,0.592579,0.0390625,0.0585938,-0.00999832,-0.00999832,0.74723,0.476751,10815,0,0,0,0,0,0,0,0,0,2.5,-1.18516
8566,0.382812,0.30957,1.79395,-0.00101405,-0.000494681,-0.00322298,-0.0527413,-0.0404658,1.47648,-4.70327,-1.15667,0.37938,0.932866,0.600229,0.750689,0.478863,1.47648,0,0,387,-2,387,-2,486,0,381,95,-0.47393,0.202429,1.83026,-1.5,4.68194e-38,0,0,2,0.932866,0.600229,0.0390625,0.0585938,-0.00999832,-0.00999832,0.750689,0.478863,10815,0,0,0,0,0,0,0,0,0,2.5,-1.20046
8582,0.382812,0.30957,1.79395,-0.00101405,-0.000494681,-0.00322298,-0.0527413,-0.0404658,1.47648,-4.64089,-1.14387,0.352661,0.944913,0.607913,0.754124,0.48096,1.47648,0,0,385,-2,385,-2,489,0,381,95,-0.474341,0.206776,1.85539,-1.5,4.68194e-38,0,0,2,0.944913,0.607913,0.0390625,0.0585938,-0.00999832,-0.00999832,0.754124,0.48096,11124,0,0,0,0,0,0,0,0,0,2.5,-1.21583
8598,0.318359,0.286133,1.54785,-0.000562722,-0.00116605,-0.00100008,-0.0528142,-0.0404887,1.47627,-4.64089,-1.14387,0.352661,0.957015,0.61563,0.757533,0.483043,1.47648,0,0,385,-2,385,-2,489,0,381,95,-0.474041,0.211203,1.88053,-1.5,4.68194e-38,0,0,2,0.957015,0.61563,0.0390625,0.0585938,-0.00999832,-0.00999832,0.757533,0.483043,11124,0,0,0,0,0,0,0,0,0,2.5,-1.23126
8615,0.285156,0.319336,-5.68848,-0.00152072,-0.00150393,-0.00268669,-0.0528316,-0.040504,1.47623,-4.64089,-1.14387,0.352661,0.969932,0.623866,0.761137,0.485239,1.47623,0,0,385,-2,385,-2,489,0,381,95,-0.473682,0.215814,1.90723,-1.5,4.68194e-38,0,0,2,0.969932,0.623866,0.0390625,0.0585938,-0.00999832,-0.00999832,0.761137,0.485239,11124,0,0,0,0,0,0,0,0,0,2.5,-1.24773
8631,0.285156,0.319336,-5.68848,-0.00152072,-0.00150393,-0.00268669,-0.0528316,-0.040504,1.47623,-4.64089,-1.14387,0.352661,0.982145,0.631651,0.764513,0.487292,1.47623,0,0,385,-2,385,-2,489,0,381,95,-0.473134,0.218969,1.93236,-1.5,4.68194e-38,0,0,2,0.982145,0.631651,0.0390625,0.0585938,-0.00999832,-0.00999832,0.764513,0.487292,11124,0,0,0,0,0,0,0,0,0,2.5,-1.2633
8647,0.345703,0.275391,3.6875,-0.00118511,-0.000141256,-0.00369764,-0.0528552,-0.0405103,1.47616,-4.64089,-1.14387,0.352661,0.994413,0.639469,0.767866,0.489331,1.47616,0,0,385,-2,385,-2,489,0,381,95,-0.472328,0.219014,1.9575,-1.5,4.68194e-38,0,0,2,0.994413,0.639469,0.0390625,0.0585938,0,0,0.767866,0.489331,11124,0,0,0,0,0,0,0,0,0,2.5,-1.27894
8663,0.378906,0.242188,5.37207,-0.00231477,-0.00146748,-0.00293006,-0.0528716,-0.0405207,1.47612,-4.64089,-1.14387,0.352661,1.00673,0.647319,0.771198,0.491356,1.47612,0,0,385,-2,385,-2,489,0,381,95,-0.471514,0.219075,1.98263,-1.5,4.68194e-38,0,0,2,1.00673,0.647319,0.0390625,0.0585938,0,0,0.771198,0.491356,11124,0,0,0,0,0,0,0,0,0,2.5,-1.29464
8679,0.412109,0.208984,-6.68164,-0.00264776,-0.00129211,-0.00330745,-0.0528919,-0.0405061,1.47608,-4.65348,-1.14393,0.357835,1.01911,0.655201,0.774509,0.493366,1.47608,0,0,385,-2,385,-2,488,0,381,95,-0.470704,0.219136,2.00776,-1.5,4.68194e-38,0,0,2,1.01911,0.655201,0.0390625,0.0585938,0,0,0.774509,0.493366,11021,0,0,0,0,0,0,0,0,0,2.5,-1.3104
8696,0.429688,0.142578,-7.00391,-0.00124688,0.000617799,-0.0020951,-0.052908,-0.0405029,1.476,-4.65348,-1.14393,0.357835,1.03153,0.663116,0.777799,0.495359,1.47603,0,0,385,-2,385,-2,488,0,381,95,-0.469905,0.21919,2.03289,-1.5,4.68194e-38,0,0,2,1.03153,0.663116,0.0390625,0.0585938,0,0,0.777799,0.495359,11021,0,0,0,0,0,0,0,0,0,2.5,-1.32623
8711,0.429688,0.148438,5.27344,-0.00113058,-0.000477848,-0.000978854,-0.0529165,-0.0405007,1.47598,-4.65348,-1.14393,0.357835,1.04401,0.671062,0.781068,0.497337,1.476,0,0,385,-2,385,-2,488,0,381,95,-0.469105,0.219251,2.05803,-1.5,4.68194e-38,0,0,2,1.04401,0.671062,0.0390625,0.0585938,-0.00999832,-0.00999832,0.781068,0.497337,11021,0,0,0,0,0,0,0,0,0,2.5,-1.34212
8726,0.429688,0.181641,3.88965,-0.00132676,0.00017118,-0.00183266,-0.0529298,-0.0404921,1.47595,-4.65348,-1.14393,0.357835,1.05575,0.678539,0.784113,0.499177,1.47595,0,0,385,-2,385,-2,488,0,381,95,-0.468367,0.2193,2.08002,-1.5,4.68194e-38,0,0,2,1.05575,0.678539,0.0390625,0.0585938,-0.00999832,-0.00999832,0.784113,0.499177,11021,0,0,0,0,0,0,0,0,0,2.5,-1.35708
8742,0.429688,0.214844,2.92383,-0.00146615,-0.0019958,-0.00274388,-0.0529456,-0.0405164,1.47591,-4.65348,-1.14393,0.357835,1.06833,0.686546,0.78734,0.501125,1.47591,0,0,385,-2,385,-2,488,0,381,95,-0.467577,0.219361,2.10515,-1.5,4.68194e-38,0,0,2,1.06833,0.686546,0.0390625,0.0585938,0,0,0.78734,0.501125,11021,0,0,0,0,0,0,0,0,0,2.5,-1.37309
8757,0.429688,0.214844,2.92383,-0.00146615,-0.0019958,-0.00274388,-0.0529456,-0.0405164,1.47591,-4.65348,-1.14393,0.357835,1.08017,0.69408,0.790347,0.502941,1.47591,0,0,385,-2,385,-2,488,0,381,95,-0.466828,0.219432,2.12871,-1.5,4.68194e-38,0,0,2,1.08017,0.69408,0.0390625,0.0585938,0,0,0.790347,0.502941,11021,0,0,0,0,0,0,0,0,0,2.5,-1.38816
8774,0.370117,0.28125,-0.917969,-0.00147677,-9.06222e-05,-0.00264871,-0.0529871,-0.0405179,1.47584,-4.65348,-1.14393,0.357835,1.09285,0.702147,0.793536,0.504865,1.47584,0,0,385,-2,385,-2,488,0,381,95,-0.466063,0.219474,2.15385,-1.5,4.68194e-38,0,0,2,1.09285,0.702147,0.0390625,0.0585938,0,0,0.793536,0.504865,11021,0,0,0,0,0,0,0,0,0,2.5,-1.40429
8789,0.370117,0.28125,-0.917969,-0.00147677,-9.06222e-05,-0.00264871,-0.0529871,-0.0405179,1.47584,-4.65348,-1.14393,0.357835,1.10558,0.710245,0.796705,0.506774,1.47584,0,0,385,-2,385,-2,488,0,381,95,-0.465274,0.219549,2.17898,-1.5,4.68194e-38,0,0,2,1.10558,0.710245,0.0390625,0.0585938,0,0,0.796705,0.506774,11021,0,0,0,0,0,0,0,0,0,2.5,-1.42049
8805,0.300781,0.249023,-2.46289,-0.000286364,0.000231359,-0.00256798,-0.0530194,-0.0405043,1.47572,-4.65348,-1.14393,0.357835,1.11836,0.718374,0.799854,0.50867,1.47575,0,0,385,-2,385,-2,488,0,381,95,-0.464527,0.219581,2.20411,-1.5,4.68194e-38,0,0,2,1.11836,0.718374,0.0390625,0.0585938,0,0,0.799854,0.50867,11021,0,0,0,0,0,0,0,0,0,2.5,-1.43675
8822,0.300781,0.21582,-2.19043,-0.00233366,0.000134751,-0.00208173,-0.0530525,-0.0405123,1.47569,-4.65348,-1.14393,0.357835,1.13119,0.726532,0.802984,0.510549,1.47572,0,0,385,-2,385,-2,488,0,381,95,-0.46376,0.219642,2.22925,-1.5,4.68194e-38,0,0,2,1.13119,0.726532,0.0390625,0.0585938,0,0,0.802984,0.510549,11021,0,0,0,0,0,0,0,0,0,2.5,-1.45306
8838,0.300781,0.182617,0.364258,-0.00141375,0.00050097,-0.00381949,-0.0530578,-0.0405117,1.47564,-4.65348,-1.14393,0.357835,1.14407,0.73472,0.806097,0.512415,1.47564,0,0,385,-2,385,-2,488,0,381,95,-0.463017,0.219679,2.25438,-1.5,4.68194e-38,0,0,2,1.14407,0.73472,0.0390625,0.0585938,-0.00999832,-0.00999832,0.806097,0.512415,11021,0,0,0,0,0,0,0,0,0,2.5,-1.46944
8853,0.300781,0.182617,0.364258,-0.00141375,0.00050097,-0.00381949,-0.0530578,-0.0405117,1.47564,-4.65348,-1.14393,0.357835,1.157,0.742939,0.809188,0.514266,1.47564,0,0,385,-2,385,-2,488,0,381,95,-0.462247,0.219752,2.27951,-1.5,4.68194e-38,0,0,2,1.157,0.742939,0.0390625,0.0585938,-0.00999832,-0.00999832,0.809188,0.514266,11021,0,0,0,0,0,0,0,0,0,2.5,-1.48588
8869,0.300781,0.143555,-2.45312,-0.0018589,-0.00158245,-0.00304063,-0.0530915,-0.0405097,1.47557,-4.65348,-1.14393,0.357835,1.16998,0.751186,0.812259,0.516103,1.47557,0,0,385,-2,385,-2,488,0,381,95,-0.461512,0.219791,2.30464,-1.5,4.68194e-38,0,0,2,1.16998,0.751186,0.0390625,0.0585938,-0.00999832,-0.00999832,0.812259,0.516103,11021,0,0,0,0,0,0,0,0,0,2.5,-1.50237
8886,0.300781,0.143555,-7.19727,-0.00193373,-0.00189557,-0.00354964,-0.0531044,-0.0405255,1.47553,-4.65348,-1.14393,0.357835,1.18383,0.759981,0.815504,0.518041,1.47553,0,0,385,-2,385,-2,488,0,381,95,-0.460721,0.219849,2.33135,-1.5,4.68194e-38,0,0,2,1.18383,0.759981,0.0390625,0.0585938,0,0,0.815504,0.518041,11021,0,0,0,0,0,0,0,0,0,2.5,-1.51996
8901,0.300781,0.143555,5.07227,-0.00127951,-0.000244698,-0.00227124,-0.0531179,-0.0405243,1.4755,-4.65348,-1.14393,0.357835,1.19609,0.767768,0.818347,0.519739,1.4755,0,0,385,-2,385,-2,488,0,381,95,-0.460024,0.219904,2.35491,-1.5,4.68194e-38,0,0,2,1.19609,0.767768,0.0390625,0.0585938,0,0,0.818347,0.519739,11021,0,0,0,0,0,0,0,0,0,2.5,-1.53554
8916,0.359375,0.143555,-3.0752,-0.00130321,-0.000142926,-0.00325748,-0.0531511,-0.0405256,1.47541,-4.65348,-1.14393,0.357835,1.20839,0.77558,0.821174,0.521424,1.47546,0,0,385,-2,385,-2,488,0,381,95,-0.459338,0.219951,2.37824,-1.5,4.68194e-38,0,0,2,1.20839,0.77558,0.0390625,0.0585938,-0.00999832,-0.00999832,0.821174,0.521424,11021,0,0,0,0,0,0,0,0,0,2.5,-1.55116
8932,0.392578,0.143555,-3.26367,-0.00175775,-0.000590201,-0.00253928,-0.0531759,-0.0405239,1.47539,-4.65348,-1.14393,0.357835,1.22156,0.783942,0.824171,0.52321,1.47541,0,0,385,-2,385,-2,488,0,381,95,-0.458608,0.220004,2.4024,-1.5,4.68194e-38,0,0,2,1.22156,0.783942,0.0390625,0.0585938,-0.00999832,-0.00999832,0.824171,0.52321,11021,0,0,0,0,0,0,0,0,0,2.5,-1.56788
8950,0.425781,0.143555,2.05566,-0.0018425,7.19127e-05,-0.00397035,-0.0531853,-0.0405124,1.47535,-4.62766,-1.13556,0.354928,1.23561,0.792858,0.82734,0.525091,1.47535,0,0,385,-2,385,-2,489,-2,380,97,-0.457846,0.220048,2.42725,-1.5,4.68194e-38,0,0,2,1.23561,0.792858,0.0390625,0.0585938,0,0,0.82734,0.525091,10900,0,0,0,0,0,0,0,0,0,2.5,-1.58572
8965,0.445312,0.143555,-6.01758,-0.000482206,0.000423903,-0.00320462,-0.0531994,-0.0405017,1.47531,-4.62766,-1.13556,0.354928,1.24887,0.801278,0.830301,0.526846,1.47531,0,0,385,-2,385,-2,489,-2,380,97,-0.457124,0.220101,2.44986,-1.5,4.68194e-38,0,0,2,1.24887,0.801278,0.0390625,0.0585938,0,0,0.830301,0.526846,10900,0,0,0,0,0,0,0,0,0,2.5,-1.60256
8982,0.378906,0.152344,6.6709,-0.00163907,0.000535838,-0.00273754,-0.0532071,-0.0404836,1.47527,-4.69758,-1.14807,0.379433,1.26302,0.810255,0.833426,0.528694,1.47527,0,0,387,-2,387,-2,486,-1,380,96,-0.45636,0.22016,2.4731,-1.5,4.68194e-38,0,0,2,1.26302,0.810255,0.0390625,0.0585938,0,0,0.833426,0.528694,10812,0,0,0,0,0,0,0,0,0,2.5,-1.62051
8998,0.378906,0.152344,6.6709,-0.00163907,0.000535838,-0.00273754,-0.0532071,-0.0404836,1.47527,-4.69758,-1.14807,0.379433,1.27639,0.818731,0.836346,0.530419,1.47527,0,0,387,-2,387,-2,486,-1,380,96,-0.455634,0.22023,2.49424,-1.5,4.68194e-38,0,0,2,1.27639,0.818731,0.0390625,0.0585938,0,0,0.836346,0.530419,10812,0,0,0,0,0,0,0,0,0,2.5,-1.63746
9014,0.275391,0.275391,6.73535,-0.00272084,-0.000672116,-0.00231907,-0.053235,-0.0404827,1.47521,-4.66971,-1.14974,0.365168,1.2898,0.827236,0.839247,0.53213,1.47521,0,0,387,-2,387,-2,489,0,380,96,-0.454935,0.220271,2.51472,-1.5,4.68194e-38,0,0,2,1.2898,0.827236,0.0390625,0.0585938,0,0,0.839247,0.53213,11118,0,0,0,0,0,0,0,0,0,2.5,-1.65447
9030,0.30957,0.300781,1.68848,-0.000306476,-2.18578e-05,-0.00226061,-0.053259,-0.0404729,1.47516,-4.66971,-1.14974,0.365168,1.30326,0.835767,0.84213,0.533828,1.47516,0,0,387,-2,387,-2,489,0,380,96,-0.454238,0.220317,2.53455,-1.5,4.68194e-38,0,0,2,1.30326,0.835767,0.0390625,0.0585938,0,0,0.84213,0.533828,11118,0,0,0,0,0,0,0,0,0,2.5,-1.67153
9046,0.342773,0.28418,-3.85645,-0.00219862,9.40756e-05,-0.00165019,-0.0532804,-0.040466,1.47514,-4.63861,-1.14414,0.357422,1.31676,0.844325,0.844997,0.535512,1.47514,0,0,387,-2,387,-2,489,-2,380,96,-0.453534,0.220374,2.55375,-1.5,4.68194e-38,0,0,2,1.31676,0.844325,0.0390625,0.0585938,0,0,0.844997,0.535512,11118,0,0,0,0,0,0,0,0,0,2.5,-1.68865
9061,0.375977,0.250977,6.07715,-0.00224275,-0.000649135,-0.00133824,-0.0532957,-0.040466,1.47512,-4.63861,-1.14414,0.357422,1.32946,0.852373,0.847669,0.537078,1.47512,0,0,387,-2,387,-2,489,-2,380,96,-0.452876,0.22043,2.5712,-1.5,4.68194e-38,0,0,2,1.32946,0.852373,0.0390625,0.0585938,0,0,0.847669,0.537078,11118,0,0,0,0,0,0,0,0,0,2.5,-1.70475
9078,0.392578,0.217773,2.03027,-1.27249e-05,-0.000501926,-0.00266692,-0.0532972,-0.0404671,1.47508,-4.63861,-1.14414,0.357422,1.34391,0.861524,0.850678,0.53884,1.47508,0,0,387,-2,387,-2,489,-2,380,96,-0.452142,0.220485,2.59037,-1.5,4.68194e-38,0,0,2,1.34391,0.861524,0.0390625,0.0585938,0,0,0.850678,0.53884,11118,0,0,0,0,0,0,0,0,0,2.5,-1.72305
9093,0.359375,0.18457,-4.06738,-0.0018153,3.10791e-05,-0.00279841,-0.0533142,-0.0404572,1.47505,-4.63861,-1.14414,0.357422,1.35669,0.869621,0.853315,0.540383,1.47505,0,0,387,-2,387,-2,489,-2,380,96,-0.451499,0.220534,2.60673,-1.5,4.68194e-38,0,0,2,1.35669,0.869621,0.0390625,0.0585938,0,0,0.853315,0.540383,11118,0,0,0,0,0,0,0,0,0,2.5,-1.73924
9109,0.292969,0.186523,-1.71582,-0.00253934,-0.000166901,-0.00266946,-0.053339,-0.0404443,1.47498,-4.63861,-1.14414,0.357422,1.37037,0.878284,0.85611,0.542015,1.47502,0,0,387,-2,387,-2,489,-2,380,96,-0.450815,0.220587,2.62366,-1.5,4.68194e-38,0,0,2,1.37037,0.878284,0.0390625,0.0585938,-0.00999832,-0.00999832,0.85611,0.542015,11118,0,0,0,0,0,0,0,0,0,2.5,-1.75657
9125,0.271484,0.219727,4.46875,-0.00109062,-0.00112245,-0.00251606,-0.0533464,-0.0404423,1.47495,-4.63861,-1.14414,0.357422,1.3841,0.886974,0.858887,0.543634,1.47498,0,0,387,-2,387,-2,489,-2,380,96,-0.450139,0.220637,2.64005,-1.5,4.68194e-38,0,0,2,1.3841,0.886974,0.0390625,0.0585938,-0.00999832,-0.00999832,0.858887,0.543634,11118,0,0,0,0,0,0,0,0,0,2.5,-1.77395
9141,0.271484,0.25293,0.144531,-0.00150479,0.000139848,-0.00382022,-0.0533616,-0.0404345,1.47491,-4.63861,-1.14414,0.357422,1.39787,0.895689,0.861648,0.545239,1.47491,0,0,387,-2,387,-2,489,-2,380,96,-0.449482,0.220668,2.65593,-1.5,4.68194e-38,0,0,2,1.39787,0.895689,0.0390625,0.0585938,0,0,0.861648,0.545239,11118,0,0,0,0,0,0,0,0,0,2.5,-1.79138
9157,0.271484,0.286133,-1.99707,-0.00159042,-0.000285722,-0.00280223,-0.0533697,-0.040446,1.47487,-4.63861,-1.14414,0.357422,1.41169,0.904429,0.864391,0.546832,1.47487,0,0,387,-2,387,-2,489,-2,380,96,-0.448816,0.220715,2.67034,-1.5,4.68194e-38,0,0,2,1.41169,0.904429,0.0390625,0.0585938,0,0,0.864391,0.546832,11118,0,0,0,0,0,0,0,0,0,2.5,-1.80886
9173,0.277344,0.282227,-2.19043,-0.00136129,0.000887955,-0.00252665,-0.0533809,-0.0404277,1.47483,-4.63861,-1.14414,0.357422,1.42554,0.913194,0.867116,0.548413,1.47483,0,0,387,-2,387,-2,489,-2,380,96,-0.448151,0.220765,2.68525,-1.5,4.68194e-38,0,0,2,1.42554,0.913194,0.0390625,0.0585938,0,0,0.867116,0.548413,11118,0,0,0,0,0,0,0,0,0,2.5,-1.82639
9189,0.277344,0.282227,-2.19043,-0.00136129,0.000887955,-0.00252665,-0.0533809,-0.0404277,1.47483,-4.63861,-1.14414,0.357422,1.43945,0.921985,0.869823,0.54998,1.47483,0,0,387,-2,387,-2,489,-2,380,96,-0.447478,0.22083,2.69969,-1.5,4.68194e-38,0,0,2,1.43945,0.921985,0.0390625,0.0585938,0,0,0.869823,0.54998,11118,0,0,0,0,0,0,0,0,0,2.5,-1.84397
9205,0.376953,0.182617,-0.863281,-0.00148397,-0.000642625,-0.00330769,-0.0533857,-0.0404272,1.47473,-4.63861,-1.14414,0.357422,1.45339,0.930801,0.87251,0.551536,1.47477,0,0,387,-2,387,-2,489,-2,380,96,-0.446835,0.220865,2.71367,-1.5,4.68194e-38,0,0,2,1.45339,0.930801,0.0390625,0.0585938,0,0,0.87251,0.551536,11118,0,0,0,0,0,0,0,0,0,2.5,-1.8616
9221,0.410156,0.149414,6.97168,-0.00134296,-1.68246e-06,-0.00253492,-0.0534037,-0.0404141,1.4747,-4.63861,-1.14414,0.357422,1.46738,0.939641,0.875179,0.55308,1.47473,0,0,387,-2,387,-2,489,-2,380,96,-0.446186,0.220912,2.7272,-1.5,4.68194e-38,0,0,2,1.46738,0.939641,0.0390625,0.0585938,0,0,0.875179,0.55308,11118,0,0,0,0,0,0,0,0,0,2.5,-1.87928
9236,0.432617,0.179688,1.5752,-0.00146866,-0.00100798,-0.00240611,-0.0534157,-0.040416,1.47467,-4.63861,-1.14414,0.357422,1.48053,0.947951,0.877667,0.554515,1.47467,0,0,387,-2,387,-2,489,-2,380,96,-0.44559,0.220946,2.7395,-1.5,4.68194e-38,0,0,2,1.48053,0.947951,0.0390625,0.0585938,0,0,0.877667,0.554515,11118,0,0,0,0,0,0,0,0,0,2.5,-1.8959
9252,0.432617,0.179688,1.5752,-0.00146866,-0.00100798,-0.00240611,-0.0534157,-0.040416,1.47467,-4.63861,-1.14414,0.357422,1.4946,0.956839,0.880304,0.556035,1.47467,0,0,387,-2,387,-2,489,-2,380,96,-0.444933,0.221009,2.75222,-1.5,4.68194e-38,0,0,2,1.4946,0.956839,0.0390625,0.0585938,0,0,0.880304,0.556035,11118,0,0,0,0,0,0,0,0,0,2.5,-1.91368
9269,0.411133,0.246094,-7.36523,-0.00137107,-0.000495919,-0.00302815,-0.0534374,-0.04041,1.4746,-4.63861,-1.14414,0.357422,1.50871,0.965751,0.882923,0.557543,1.4746,0,0,387,-2,387,-2,489,-2,380,96,-0.44431,0.22104,2.76454,-1.5,4.68194e-38,0,0,2,1.50871,0.965751,0.0390625,0.0585938,0,0,0.882923,0.557543,11118,0,0,0,0,0,0,0,0,0,2.5,-1.9315
9284,0.37793,0.279297,-5.10645,-0.00144348,0.000494829,-0.00154375,-0.0534446,-0.0404075,1.47457,-4.63861,-1.14414,0.357422,1.52287,0.974687,0.885527,0.559039,1.47457,0,0,387,-2,387,-2,489,-2,380,96,-0.443672,0.221091,2.77647,-1.5,4.68194e-38,0,0,2,1.52287,0.974687,0.0390625,0.0585938,0,0,0.885527,0.559039,11118,0,0,0,0,0,0,0,0,0,2.5,-1.94937
9300,0.344727,0.282227,-0.698242,-0.00182692,-0.00153182,-0.00214792,-0.0534473,-0.0404207,1.47454,-4.63861,-1.14414,0.357422,1.53706,0.983647,0.888112,0.560524,1.47454,0,0,387,-2,387,-2,489,-2,380,96,-0.44304,0.22114,2.78802,-1.5,4.68194e-38,0,0,2,1.53706,0.983647,0.0390625,0.0585938,0,0,0.888112,0.560524,11118,0,0,0,0,0,0,0,0,0,2.5,-1.96729
9316,0.27832,0.282227,5.70215,-0.00118732,-0.000400102,-0.00190974,-0.0534833,-0.040433,1.47448,-4.63861,-1.14414,0.357422,1.5513,0.99263,0.890681,0.562001,1.4745,0,0,387,-2,387,-2,489,-2,380,96,-0.442418,0.221183,2.79921,-1.5,4.68194e-38,0,0,2,1.5513,0.99263,0.0390625,0.0585938,0.00999832,-0.0299988,0.890681,0.562001,11118,0,0,0,0,0,0,0,0,0,2.5,-1.98526
9332,0.25,0.282227,4.31836,-0.00125762,7.48485e-05,-0.00265948,-0.0534728,-0.0404222,1.47444,-4.63861,-1.14414,0.357422,1.56557,1.00164,0.893235,0.563467,1.47448,0,0,387,-2,387,-2,489,-2,380,96,-0.441792,0.221234,2.81004,-1.5,4.68194e-38,0,0,2,1.56557,1.00164,0.0390625,0.0585938,0.00999832,-0.0299988,0.893235,0.563467,11118,0,0,0,0,0,0,0,0,0,2.5,-2.00327
9348,0.275391,0.282227,5.9834,-0.00239291,-0.00116521,-0.00215268,-0.0534886,-0.0404271,1.47441,-4.63861,-1.14414,0.357422,1.57989,1.01067,0.895771,0.564921,1.47441,0,0,387,-2,387,-2,489,-2,380,96,-0.441186,0.221267,2.82053,-1.5,4.68194e-38,0,0,2,1.57989,1.01067,0.0390625,0.0585938,-0.0299988,0.0299988,0.895771,0.564921,11118,0,0,0,0,0,0,0,0,0,2.5,-2.02134
9364,0.308594,0.282227,-5.9248,-0.00115526,-0.000698895,-0.00267869,-0.0534975,-0.0404398,1.47437,-4.63861,-1.14414,0.357422,1.59425,1.01972,0.898292,0.566365,1.47437,0,0,387,-2,387,-2,489,-2,380,96,-0.440575,0.221309,2.83069,-1.5,4.68194e-38,0,0,2,1.59425,1.01972,0.0390625,0.0585938,-0.0299988,0.0299988,0.898292,0.566365,11118,0,0,0,0,0,0,0,0,0,2.5,-2.03944
9380,0.341797,0.282227,1.92578,-0.00154068,-0.00173166,-0.00354817,-0.0535201,-0.0404549,1.47432,-4.63861,-1.14414,0.357422,1.60865,1.0288,0.900797,0.5678,1.47432,0,0,387,-2,387,-2,489,-2,380,96,-0.439971,0.221348,2.84053,-1.5,4.68194e-38,0,0,2,1.60865,1.0288,0.0390625,0.0585938,0.0299988,0.0599995,0.900797,0.5678,11118,0,0,0,0,0,0,0,0,0,2.5,-2.0576
9396,0.375,0.282227,-7.10059,-0.000323758,-0.00029872,-0.00234388,-0.0535243,-0.0404568,1.47429,-4.63861,-1.14414,0.357422,1.62309,1.0379,0.903288,0.569226,1.47429,0,0,387,-2,387,-2,489,-2,380,96,-0.439366,0.221392,2.85006,-1.5,4.68194e-38,0,0,2,1.62309,1.0379,0.0390625,0.0585938,0.0299988,0.0599995,0.903288,0.569226,11118,0,0,0,0,0,0,0,0,0,2.5,-2.0758
9413,0.408203,0.282227,1.08789,-0.00238392,-8.93974e-05,-0.00190208,-0.0535573,-0.0404562,1.47425,-4.65949,-1.1452,0.375316,1.63847,1.04759,0.905917,0.57073,1.47425,0,0,385,-2,385,-2,489,-2,381,95,-0.438726,0.221439,2.85986,-1.5,4.68194e-38,0,0,2,1.63847,1.04759,0.0390625,0.0585938,0.0299988,0.0599995,0.905917,0.57073,10800,0,0,0,0,0,0,0,0,0,2.5,-2.09518
9429,0.422852,0.282227,5.60938,-0.000114717,-3.61554e-05,-0.00178911,-0.0535577,-0.0404554,1.47419,-4.65949,-1.1452,0.375316,1.65299,1.05674,0.908376,0.572133,1.47425,0,0,385,-2,385,-2,489,-2,381,95,-0.438114,0.221499,2.86877,-1.5,4.68194e-38,0,0,2,1.65299,1.05674,0.0390625,0.0585938,-0.0299988,-0.0999985,0.908376,0.572133,10800,0,0,0,0,0,0,0,0,0,2.5,-2.11348
9446,0.400391,0.282227,6.48535,-0.00109849,-0.000452896,-0.0017155,-0.0535626,-0.0404498,1.47416,-4.69438,-1.14359,0.381601,1.66847,1.06648,0.910971,0.573613,1.47416,0,0,385,-2,385,-2,486,-1,381,95,-0.437503,0.221523,2.87794,-1.5,4.68194e-38,0,0,2,1.66847,1.06648,0.0390625,0.0585938,0,0,0.910971,0.573613,10710,0,0,0,0,0,0,0,0,0,2.5,-2.13296
9461,0.367188,0.282227,-5.45117,-0.00183761,-0.00133193,-0.002233,-0.0535725,-0.0404593,1.47413,-4.69438,-1.14359,0.381601,1.68215,1.0751,0.913244,0.574908,1.47413,0,0,385,-2,385,-2,486,-1,381,95,-0.436952,0.221562,2.88576,-1.5,4.68194e-38,0,0,2,1.68215,1.0751,0.0390625,0.0585938,0,0,0.913244,0.574908,10710,0,0,0,0,0,0,0,0,0,2.5,-2.1502
9476,0.333984,0.270508,3.40137,-0.00202,0.000656473,-0.00177205,-0.0535856,-0.0404495,1.47411,-4.69438,-1.14359,0.381601,1.69587,1.08373,0.915504,0.576195,1.47411,0,0,385,-2,385,-2,486,-1,381,95,-0.436397,0.221607,2.89336,-1.5,4.68194e-38,0,0,2,1.69587,1.08373,0.0390625,0.0585938,0,-0.00999832,0.915504,0.576195,10710,0,0,0,0,0,0,0,0,0,2.5,-2.16747
9493,0.333984,0.270508,3.40137,-0.00202,0.000656473,-0.00177205,-0.0535856,-0.0404495,1.47411,-4.70683,-1.15505,0.387388,1.71055,1.09297,0.9179,0.577557,1.47411,0,0,387,-2,387,-2,486,-1,381,95,-0.435801,0.221665,2.90121,-1.5,4.68194e-38,0,0,2,1.71055,1.09297,0.0390625,0.0585938,0,-0.00999832,0.9179,0.577557,10710,0,0,0,0,0,0,0,0,0,2.5,-2.18593
9508,0.294922,0.204102,-4.51758,-0.00136819,-0.00125942,-0.00161382,-0.053605,-0.0404435,1.47405,-4.70683,-1.15505,0.387388,1.72526,1.10222,0.920279,0.578909,1.47405,0,0,387,-2,387,-2,486,-1,381,95,-0.435229,0.221701,2.90882,-1.5,4.68194e-38,0,0,2,1.72526,1.10222,0.0390625,0.0585938,0,-0.00999832,0.920279,0.578909,10710,0,0,0,0,0,0,0,0,0,2.5,-2.20444
9524,0.294922,0.137695,-1.59766,-0.00164473,-1.31954e-05,-0.00252104,-0.0536403,-0.0404495,1.47399,-4.63413,-1.13975,0.353383,1.74001,1.1115,0.922644,0.580249,1.47405,0,0,385,-1,385,-1,489,-2,381,95,-0.434641,0.221758,2.91619,-1.5,4.68194e-38,0,0,2,1.74001,1.1115,0.0390625,0.0585938,-0.0299988,0.0199986,0.922644,0.580249,11124,0,0,0,0,0,0,0,0,0,2.5,-2.223
9540,0.294922,0.137695,4.40723,-0.00262793,-0.000720332,-0.00182732,-0.0536638,-0.0404472,1.47396,-4.63413,-1.13975,0.353383,1.75479,1.1208,0.924995,0.58158,1.47399,0,0,385,-1,385,-1,489,-2,381,95,-0.434083,0.221785,2.92332,-1.5,4.68194e-38,0,0,2,1.75479,1.1208,0.0390625,0.0585938,-0.0299988,0.0199986,0.924995,0.58158,11124,0,0,0,0,0,0,0,0,0,2.5,-2.24159
9556,0.294922,0.137695,4.40723,-0.00262793,-0.000720332,-0.00182732,-0.0536638,-0.0404472,1.47396,-4.65947,-1.14493,0.37548,1.76962,1.13012,0.927335,0.582901,1.47396,0,0,385,-2,385,-2,489,-2,381,95,-0.433511,0.22183,2.93023,-1.5,4.68194e-38,0,0,2,1.76962,1.13012,0.0390625,0.0585938,-0.0299988,0.0199986,0.927335,0.582901,10800,0,0,0,0,0,0,0,0,0,2.5,-2.26023
9572,0.294922,0.199219,0.641602,-0.000537293,-0.000467514,-0.00232358,-0.0536687,-0.0404578,1.4739,-4.65947,-1.14493,0.37548,1.78448,1.13946,0.929659,0.584212,1.4739,0,0,385,-2,385,-2,489,-2,381,95,-0.432958,0.221858,2.93692,-1.5,4.68194e-38,0,0,2,1.78448,1.13946,0.0390625,0.0585938,0.0199986,-0.039999,0.929659,0.584212,10800,0,0,0,0,0,0,0,0,0,2.5,-2.27891
9588,0.294922,0.199219,0.641602,-0.000537293,-0.000467514,-0.00232358,-0.0536687,-0.0404578,1.4739,-4.72994,-1.15802,0.394573,1.79938,1.14882,0.931967,0.585515,1.4739,0,0,387,-2,387,-2,486,0,381,95,-0.432384,0.221914,2.9434,-1.5,4.68194e-38,0,0,2,1.79938,1.14882,0.0390625,0.0585938,0.0199986,-0.039999,0.931967,0.585515,10710,0,0,0,0,0,0,0,0,0,2.5,-2.29764
9604,0.294922,0.265625,2.64551,-0.000912209,-0.000769652,-0.00265594,-0.0536857,-0.0404665,1.47383,-4.72994,-1.15802,0.394573,1.81431,1.1582,0.93426,0.586808,1.47383,0,0,387,-2,387,-2,486,0,381,95,-0.431839,0.221941,2.94967,-1.5,4.68194e-38,0,0,2,1.81431,1.1582,0.0390625,0.0585938,0,0,0.93426,0.586808,10710,0,0,0,0,0,0,0,0,0,2.5,-2.3164
9620,0.294922,0.306641,4.88086,-0.000610375,-0.000789872,-0.00250598,-0.0537,-0.040468,1.47376,-4.69726,-1.15978,0.389262,1.82928,1.1676,0.936539,0.588092,1.4738,0,0,387,-1,387,-1,489,-2,381,95,-0.431286,0.221982,2.95574,-1.5,4.68194e-38,0,0,2,1.82928,1.1676,0.0390625,0.0585938,-0.00999832,0,0.936539,0.588092,10800,0,0,0,0,0,0,0,0,0,2.5,-2.3352
9636,0.294922,0.273438,-2.92871,-0.000986375,2.74515e-06,-0.000810693,-0.0537265,-0.0404636,1.47375,-4.69726,-1.15978,0.389262,1.84429,1.17702,0.938803,0.589366,1.47376,0,0,387,-1,387,-1,489,-2,381,95,-0.430736,0.222022,2.96162,-1.5,4.68194e-38,0,0,2,1.84429,1.17702,0.0390625,0.0585938,-0.00999832,0,0.938803,0.589366,10800,0,0,0,0,0,0,0,0,0,2.5,-2.35405
9652,0.294922,0.273438,-2.92871,-0.000986375,2.74515e-06,-0.000810693,-0.0537265,-0.0404636,1.47375,-4.71617,-1.16502,0.39214,1.85934,1.18647,0.941055,0.59063,1.47375,0,0,387,-1,387,-1,489,0,381,95,-0.430182,0.222069,2.96731,-1.5,4.68194e-38,0,0,2,1.85934,1.18647,0.0390625,0.0585938,-0.00999832,0,0.941055,0.59063,10692,0,0,0,0,0,0,0,0,0,2.5,-2.37293
9667,0.294922,0.207031,2.10352,-0.000717024,0.000482169,-0.0031857,-0.0537402,-0.0404538,1.47368,-4.71617,-1.16502,0.39214,1.87347,1.19534,0.943153,0.591806,1.47368,0,0,387,-1,387,-1,489,0,381,95,-0.429685,0.222093,2.97248,-1.5,4.68194e-38,0,0,2,1.87347,1.19534,0.0390625,0.0585938,0,0,0.943153,0.591806,10692,0,0,0,0,0,0,0,0,0,2.5,-2.39068
9684,0.294922,0.173828,1.13477,-0.00218728,0.000452098,-0.00244505,-0.0537612,-0.0404479,1.47364,-4.73458,-1.16057,0.405282,1.88953,1.20541,0.945516,0.593128,1.47364,0,0,387,-1,387,-1,486,-2,381,95,-0.429112,0.222134,2.97816,-1.5,4.68194e-38,0,0,2,1.88953,1.20541,0.0390625,0.0585938,0,0,0.945516,0.593128,10500,0,0,0,0,0,0,0,0,0,2.5,-2.41083
9700,0.294922,0.140625,2.33594,-0.00058607,0.00020466,-0.00299205,-0.0537576,-0.0404438,1.4736,-4.73458,-1.16057,0.405282,1.90468,1.21492,0.947726,0.59436,1.4736,0,0,387,-1,387,-1,486,-2,381,95,-0.42858,0.222169,2.98333,-1.5,4.68194e-38,0,0,2,1.90468,1.21492,0.0390625,0.0585938,0,0,0.947726,0.59436,10500,0,0,0,0,0,0,0,0,0,2.5,-2.42983
9716,0.294922,0.107422,6.59668,-0.00325458,-0.000615329,-0.00275269,-0.0537817,-0.0404385,1.47357,-4.73369,-1.16113,0.393859,1.91987,1.22444,0.949921,0.595583,1.47357,0,0,387,-1,387,-1,486,0,381,97,-0.428046,0.222209,2.98834,-1.5,4.68194e-38,0,0,2,1.91987,1.22444,0.0390625,0.0585938,0,0,0.949921,0.595583,10395,0,0,0,0,0,0,0,0,0,2.5,-2.44888
9732,0.294922,0.140625,0.145508,-0.00133254,-0.00106708,-0.00338146,-0.0538057,-0.0404494,1.47349,-4.73369,-1.16113,0.393859,1.93509,1.23398,0.952103,0.596796,1.47357,0,0,387,-1,387,-1,486,0,381,97,-0.427503,0.222262,2.99319,-1.5,4.68194e-38,0,0,2,1.93509,1.23398,0.0390625,0.0585938,-0.00999832,0.00999832,0.952103,0.596796,10395,0,0,0,0,0,0,0,0,0,2.5,-2.46796
