timestamp,A_x,A_y,A_z,P,Q,R,Phi,Theta,Psi,poseX,poseY,poseZ,state_X,state_Y,state_Z,state_VzB,state_Bx,state_By,state_Bz,p1_x,p1_y,p2_x,p2_y,p3_x,p3_y,p4_x,p4_y,roll,pitch,yaw,alt,targetHeading,highLevelState,lowLevelState,gateNumber,filtered_x,filtered_y,x_OT,y_OT,vx_OT,vy_OT,filtered_vx,filtered_vygateArearansac_corr_x,ransac_corr_y,ransac_corr_vx,ransac_corr_vy,detectionTimeStamppTermX,dTermX,pTermY,dTermY,vxcmd,vycmd
6443,-0.0341797,0.15918,4.84375,-0.00133918,-1.65348e-05,-0.00169979,0.0182309,-0.0295291,-2.50721,0,0,0,-5.3788e-06,-1.37438e-05,-0.00100228,-0.00255282,-2.50645,0,0,0,0,0,0,0,0,0,0,0.147954,0.0273854,0.00625805,-1.5,5.71273e-38,0,0,1,-5.3788e-06,-1.37438e-05,0,0,0,0,-0.00100228,-0.00255282,1.9603e-19,0,0,0,0,0,0,0,0,0,1,1.51181e-05
6458,-0.0341797,0.186523,2.83203,-0.00178808,-0.000594363,-0.00182699,0.0175234,-0.029409,-2.50896,0,0,0,-3.78891e-05,-9.53887e-05,-0.00290907,-0.00724302,-2.50825,0,0,0,0,0,0,0,0,0,0,0.14691,0.0287426,0.0156076,-1.5,5.71273e-38,0,0,2,-3.78891e-05,-9.53887e-05,0,0,0,0,-0.00290907,-0.00724302,1.9603e-19,0,0,0,0,0,0,0,0,0,1,0.000104928
6473,-0.0341797,0.155273,2.38379,-0.0016711,-0.00125358,-0.0015275,0.0168613,-0.0292766,-2.51077,0,0,0,-9.93814e-05,-0.000246159,-0.00485436,-0.0118003,-2.51009,0,0,0,0,0,0,0,0,0,0,0.14587,0.0301022,0.0265281,-1.5,5.71273e-38,0,0,3,-9.93814e-05,-0.000246159,0,0,0,0,-0.00485436,-0.0118003,1.9603e-19,0,0,0,0,0,0,0,0,0,1,0.000270775
6490,-0.0341797,0.0458984,3.27637,-0.00234343,0.000318574,-0.00319732,0.0163898,-0.0292782,-2.51218,0,0,0,-0.000213958,-0.000520106,-0.0072276,-0.0171268,-2.51182,0,0,0,0,0,0,0,0,0,0,0.144729,0.0316617,0.0170475,-1.5,5.71273e-38,0,0,0,-0.000213958,-0.000520106,0,0,0,0,-0.0072276,-0.0171268,1.9603e-19,0,0,0,0,0,0,0,0,0,1,0.000572117
6506,-0.0341797,0.112305,-1.10449,0.000349567,-0.000717819,-0.00194699,0.0163782,-0.0292838,-2.51224,0,0,0,-0.000351401,-0.000841426,-0.00936462,-0.0217619,-2.51221,0,0,0,0,0,0,0,0,0,0,0.143955,0.032884,0.0214352,-1.5,5.71273e-38,0,0,1,-0.000351401,-0.000841426,0,0,0,0,-0.00936462,-0.0217619,1.9603e-19,0,0,0,0,0,0,0,0,0,1,0.000925569
6522,-0.0341797,0.145508,0.59668,-0.000255268,-0.000337556,-0.00297684,0.0163844,-0.0292829,-2.51228,0,0,0,-0.000522871,-0.00123652,-0.0114858,-0.0263595,-2.51224,0,0,0,0,0,0,0,0,0,0,0.143243,0.0340581,0.0370134,-1.5,5.71273e-38,0,0,2,-0.000522871,-0.00123652,0,0,0,0,-0.0114858,-0.0263595,1.9603e-19,0,0,0,0,0,0,0,0,0,1,0.00136017
6537,-0.0341797,0.178711,6.38672,-0.00123871,-0.000433471,-0.0013521,0.0163808,-0.0292895,-2.51231,0,0,0,-0.00071426,-0.00167332,-0.0134593,-0.0306369,-2.51231,0,0,0,0,0,0,0,0,0,0,0.142559,0.0351665,0.0509711,-1.5,5.71273e-38,0,0,3,-0.00071426,-0.00167332,0,0,0,0,-0.0134593,-0.0306369,1.9603e-19,0,0,0,0,0,0,0,0,0,1,0.00184065
6553,-0.0341797,0.180664,-2.94043,-0.00164756,-0.000830391,-0.00229357,0.0163603,-0.0292886,-2.51234,0,0,0,-0.000950933,-0.0022097,-0.0155497,-0.0351636,-2.51234,0,0,0,0,0,0,0,0,0,0,0.141824,0.0363471,0.0428772,-1.5,5.71273e-38,0,0,0,-0.000950933,-0.0022097,0,0,0,0,-0.0155497,-0.0351636,1.9603e-19,0,0,0,0,0,0,0,0,0,1,0.00243067
6569,-0.0341797,0.180664,5.41211,-0.00148989,-0.00127397,-0.00294563,0.0163415,-0.0292995,-2.51238,0,0,0,-0.00122091,-0.00281811,-0.0176264,-0.0396515,-2.51238,0,0,0,0,0,0,0,0,0,0,0.141079,0.0375314,0.0468014,-1.5,5.71273e-38,0,0,1,-0.00122091,-0.00281811,0,0,0,0,-0.0176264,-0.0396515,1.9603e-19,0,0,0,0,0,0,0,0,0,1,0.00309992
6586,-0.0341797,0.180664,2.01758,-0.000831222,-0.00103025,-0.00144669,0.0163291,-0.0293019,-2.5124,0,0,0,-0.00154548,-0.00354597,-0.019818,-0.0443808,-2.5124,0,0,0,0,0,0,0,0,0,0,0.14028,0.0387903,0.0638364,-1.5,5.71273e-38,0,0,2,-0.00154548,-0.00354597,0,0,0,0,-0.019818,-0.0443808,1.9603e-19,0,0,0,0,0,0,0,0,0,1,0.00390057
6602,-0.0341797,0.180664,2.23926,-0.000265798,-0.000320175,-0.00244903,0.0163067,-0.0293059,-2.51246,0,0,0,-0.00186132,-0.00425173,-0.0217374,-0.0485175,-2.51243,0,0,0,0,0,0,0,0,0,0,0.139562,0.0399055,0.0776868,-1.5,5.71273e-38,0,0,3,-0.00186132,-0.00425173,0,0,0,0,-0.0217374,-0.0485175,1.9603e-19,0,0,0,0,0,0,0,0,0,1,0.0046769
6617,-0.0341797,0.180664,6.50879,-0.000112445,-0.000257669,-0.00123886,0.0162968,-0.0293038,-2.51248,0,0,0,-0.00222986,-0.00507267,-0.0237706,-0.0528943,-2.51246,0,0,0,0,0,0,0,0,0,0,0.138788,0.0410972,0.0694327,-1.5,5.71273e-38,0,0,0,-0.00222986,-0.00507267,0,0,0,0,-0.0237706,-0.0528943,1.9603e-19,0,0,0,0,0,0,0,0,0,1,0.00557993
6634,-0.0341797,0.180664,-3.5332,-0.00195471,0.000110482,-0.00259615,0.0162768,-0.0292974,-2.51253,0,0,0,-0.00265834,-0.00602433,-0.0259147,-0.0575066,-2.51253,0,0,0,0,0,0,0,0,0,0,0.137945,0.0423724,0.0710392,-1.5,5.71273e-38,0,0,1,-0.00265834,-0.00602433,0,0,0,0,-0.0259147,-0.0575066,1.9603e-19,0,0,0,0,0,0,0,0,0,1,0.00662676
6678,-0.0341797,0.146484,-3.89258,5.34763e-06,0.000150486,-0.0023139,0.0162543,-0.0292783,-2.51261,0,0,0,-0.00397021,-0.00892319,-0.0314017,-0.0692886,-2.51261,0,0,0,0,0,0,0,0,0,0,0.135708,0.045695,0.130219,-1.5,5.71273e-38,0,0,2,-0.00397021,-0.00892319,0,0,0,0,-0.0314017,-0.0692886,1.9603e-19,0,0,0,0,0,0,0,0,0,1,0.00981551
6727,-0.0341797,0.0390625,-3.64258,-0.000898375,-0.000215026,-0.00220265,0.0161975,-0.0292638,-2.51274,0,0,0,-0.00576033,-0.0128577,-0.0373967,-0.082144,-2.51272,0,0,0,0,0,0,0,0,0,0,0.133092,0.0494482,0.196997,-1.5,5.71273e-38,0,0,3,-0.00576033,-0.0128577,0,0,0,0,-0.0373967,-0.082144,1.9603e-19,0,0,0,0,0,0,0,0,0,1,0.0141435
6747,-0.0341797,0.0390625,-3.64258,-0.000898375,-0.000215026,-0.00220265,0.0161975,-0.0292638,-2.51274,-3.75327,0.601441,-0.177846,-0.00654074,-0.01457,-0.0397887,-0.0872563,-2.51274,0,0,183,15,183,15,307,-1,196,133,0.132023,0.0509645,0.18057,-1.5,5.71273e-38,0,0,0,-0.00654074,-0.01457,0,0,0,0,-0.0397887,-0.0872563,18090,0,0,0,0,0,0,0,0,0,1,0.016027
6763,-0.0341797,0.0390625,-0.283203,-0.00171573,-0.00010536,-0.00153449,0.0161593,-0.0292599,-2.5128,-3.75327,0.601441,-0.177846,-0.00715478,-0.0159156,-0.0415676,-0.0910513,-2.5128,0,0,183,15,183,15,307,-1,196,133,0.131205,0.0521073,0.180459,-1.5,5.71273e-38,0,0,1,-0.00715478,-0.0159156,0,0,0,0,-0.0415676,-0.0910513,18090,0,0,0,0,0,0,0,0,0,1,0.0175072
6779,-0.0341797,0.0390625,4.95898,-0.000979252,0.000297755,-0.00306585,0.0161405,-0.0292508,-2.51284,-3.75327,0.601441,-0.177846,-0.00783969,-0.0174146,-0.0434529,-0.0950643,-2.51284,0,0,183,15,183,15,307,-1,196,133,0.130328,0.0533265,0.195395,-1.5,5.71273e-38,0,0,2,-0.00783969,-0.0174146,0,0,0,0,-0.0434529,-0.0950643,18090,0,0,0,0,0,0,0,0,0,1,0.0191561
6795,-0.0341797,0.0917969,5.4043,0.000114119,-0.000805433,-0.00296228,0.0161324,-0.0292406,-2.51292,-3.70539,0.58957,-0.194383,-0.00855461,-0.0189775,-0.0453232,-0.0990428,-2.51289,0,0,182,15,182,15,307,-2,196,133,0.129441,0.0545479,0.210284,-1.5,5.71273e-38,0,0,3,-0.00855461,-0.0189775,0,0,0,0,-0.0453232,-0.0990428,18765,0,0,0,0,0,0,0,0,0,1,0.0208753
6811,-0.0341797,0.125,-3.86816,-0.00215437,-0.000495189,-0.00215436,0.0160956,-0.0292374,-2.51296,-3.70539,0.58957,-0.194383,-0.00934681,-0.0207074,-0.0472939,-0.103234,-2.51292,0,0,182,15,182,15,307,-2,196,133,0.12849,0.0558473,0.199673,-1.5,5.71273e-38,0,0,0,-0.00934681,-0.0207074,0,0,0,0,-0.0472939,-0.103234,18765,0,0,0,0,0,0,0,0,0,1,0.0227781
6827,-0.0341797,0.158203,6.83691,-0.00113938,-0.000462327,-0.00219208,0.0160774,-0.0292332,-2.513,-3.70642,0.59203,-0.198305,-0.010073,-0.0222914,-0.0490221,-0.106896,-2.513,0,0,180,16,180,16,307,-1,197,133,0.127635,0.0570003,0.199219,-1.5,5.71273e-38,0,0,1,-0.010073,-0.0222914,0,0,0,0,-0.0490221,-0.106896,18894,0,0,0,0,0,0,0,0,0,1,0.0245205
6843,-0.0341797,0.191406,0.395508,-0.000171466,-0.001764,-0.00268987,0.0160694,-0.0292332,-2.51303,-3.70642,0.59203,-0.198305,-0.0109278,-0.0241539,-0.050967,-0.111011,-2.51303,0,0,180,16,180,16,307,-1,197,133,0.126667,0.0583039,0.215651,-1.5,5.71273e-38,0,0,2,-0.0109278,-0.0241539,0,0,0,0,-0.050967,-0.111011,18894,0,0,0,0,0,0,0,0,0,1,0.0265693
6858,-0.0341797,0.191406,0.395508,-0.000171466,-0.001764,-0.00268987,0.0160694,-0.0292332,-2.51303,-3.70642,0.59203,-0.198305,-0.0117087,-0.025854,-0.0526696,-0.114612,-2.51303,0,0,180,16,180,16,307,-1,197,133,0.125811,0.0594524,0.228894,-1.5,5.71273e-38,0,0,3,-0.0117087,-0.025854,0,0,0,0,-0.0526696,-0.114612,18894,0,0,0,0,0,0,0,0,0,1,0.0284394
6874,-0.0341797,0.201172,-2.31641,-0.00249387,-0.00108105,-0.00195678,0.0160315,-0.0292371,-2.51308,-3.70642,0.59203,-0.198305,-0.0125698,-0.0277267,-0.0544736,-0.118422,-2.51308,0,0,180,16,180,16,307,-1,197,133,0.124878,0.0606861,0.218597,-1.5,5.71273e-38,0,0,0,-0.0125698,-0.0277267,0,0,0,0,-0.0544736,-0.118422,18894,0,0,0,0,0,0,0,0,0,1,0.0304993
6890,-0.0341797,0.201172,-2.31641,-0.00249387,-0.00108105,-0.00195678,0.0160315,-0.0292371,-2.51308,-3.71539,0.593544,-0.190426,-0.0134603,-0.0296611,-0.0562659,-0.122199,-2.51308,0,0,182,15,182,15,307,-2,196,133,0.123947,0.0619164,0.217368,-1.5,5.71273e-38,0,0,1,-0.0134603,-0.0296611,0,0,0,0,-0.0562659,-0.122199,18630,0,0,0,0,0,0,0,0,0,1,0.0326272
6905,-0.0341797,0.148438,-6.62109,-0.00128475,-0.00102188,-0.00347781,0.0160021,-0.0292425,-2.51319,-3.71539,0.593544,-0.190426,-0.0143204,-0.0315281,-0.0579335,-0.125711,-2.51314,0,0,182,15,182,15,307,-2,196,133,0.123051,0.0630798,0.230592,-1.5,5.71273e-38,0,0,2,-0.0143204,-0.0315281,0,0,0,0,-0.0579335,-0.125711,18630,0,0,0,0,0,0,0,0,0,1,0.0346809
6921,-0.0341797,0.115234,2.73438,-0.00254636,-0.000267083,-0.00227599,0.0159733,-0.0292319,-2.51322,-3.71348,0.586242,-0.187046,-0.0152659,-0.0335786,-0.059701,-0.129427,-2.51319,0,0,183,13,183,13,307,-2,197,133,0.122092,0.0643206,0.24534,-1.5,5.71273e-38,0,0,3,-0.0152659,-0.0335786,0,0,0,0,-0.059701,-0.129427,18630,0,0,0,0,0,0,0,0,0,1,0.0369364
6937,-0.0341797,0.0820312,-1.54004,-0.000199775,-0.00125115,-0.0023537,0.0159707,-0.029238,-2.51325,-3.71348,0.586242,-0.187046,-0.016239,-0.0356869,-0.0614568,-0.133107,-2.51325,0,0,183,13,183,13,307,-2,197,133,0.121121,0.0655651,0.23608,-1.5,5.71273e-38,0,0,0,-0.016239,-0.0356869,0,0,0,0,-0.0614568,-0.133107,18630,0,0,0,0,0,0,0,0,0,1,0.0392556
6953,-0.0341797,0.0634766,-1.78027,-0.000550234,-0.00132392,-0.0026535,0.0159579,-0.0292524,-2.51328,-3.70538,0.587668,-0.19208,-0.0172401,-0.0378539,-0.0632004,-0.136758,-2.51328,0,0,182,15,182,15,309,-2,196,133,0.12015,0.0668079,0.236537,-1.5,5.71273e-38,0,0,1,-0.0172401,-0.0378539,0,0,0,0,-0.0632004,-0.136758,18630,0,0,0,0,0,0,0,0,0,1,0.0416393
6969,-0.0341797,0.0634766,6.54297,0.000408825,0.000257169,-0.00134222,0.0159627,-0.0292542,-2.5133,-3.70538,0.587668,-0.19208,-0.018269,-0.040079,-0.0649323,-0.14038,-2.5133,0,0,182,15,182,15,309,-2,196,133,0.119173,0.0680522,0.251249,-1.5,5.71273e-38,0,0,2,-0.018269,-0.040079,0,0,0,0,-0.0649323,-0.14038,18630,0,0,0,0,0,0,0,0,0,1,0.0440869
6985,-0.0341797,0.0820312,-6.33887,-0.00121458,-0.000878139,-0.00201475,0.0159553,-0.0292479,-2.51333,-3.70151,0.587021,-0.195991,-0.0193255,-0.0423617,-0.0666504,-0.143973,-2.51333,0,0,182,15,182,15,309,-2,196,133,0.118184,0.0693,0.26592,-1.5,5.71273e-38,0,0,3,-0.0193255,-0.0423617,0,0,0,0,-0.0666504,-0.143973,18630,0,0,0,0,0,0,0,0,0,1,0.0465979
7001,-0.0341797,0.115234,-6.46777,-0.00110022,-0.000674593,-0.00125554,0.0159417,-0.0292445,-2.51334,-3.70151,0.587021,-0.195991,-0.0203407,-0.0445537,-0.068249,-0.147314,-2.51334,0,0,182,15,182,15,309,-2,196,133,0.117251,0.0704706,0.257047,-1.5,5.71273e-38,0,0,0,-0.0203407,-0.0445537,0,0,0,0,-0.068249,-0.147314,18630,0,0,0,0,0,0,0,0,0,1,0.049009
7017,-0.0341797,0.181641,-2.55469,5.5504e-05,-0.000275685,-0.00221561,0.0159131,-0.0292527,-2.5134,-3.72764,0.607072,-0.187967,-0.0214505,-0.0469479,-0.0699432,-0.150849,-2.51336,0,0,180,16,180,16,306,-2,196,133,0.116248,0.0717214,0.255051,-1.5,5.71273e-38,0,0,1,-0.0214505,-0.0469479,0,0,0,0,-0.0699432,-0.150849,18630,0,0,0,0,0,0,0,0,0,1,0.0516427
7032,-0.0341797,0.15918,3.25,-0.00112371,0.000715161,-0.00252181,0.0158982,-0.0292414,-2.51343,-3.72764,0.607072,-0.187967,-0.0225867,-0.0493972,-0.0716261,-0.154353,-2.5134,0,0,180,16,180,16,306,-2,196,133,0.115233,0.0729767,0.269689,-1.5,5.71273e-38,0,0,2,-0.0225867,-0.0493972,0,0,0,0,-0.0716261,-0.154353,18630,0,0,0,0,0,0,0,0,0,1,0.0543369
7048,-0.0341797,0.125977,-4.39551,0.000189706,-0.00119507,-0.00177156,0.0158999,-0.0292533,-2.51346,-3.72764,0.607072,-0.187967,-0.0237498,-0.0519023,-0.0732959,-0.157825,-2.51346,0,0,180,16,180,16,306,-2,196,133,0.114204,0.0742364,0.284286,-1.5,5.71273e-38,0,0,3,-0.0237498,-0.0519023,0,0,0,0,-0.0732959,-0.157825,18630,0,0,0,0,0,0,0,0,0,1,0.0570925
7064,-0.0341797,0.0927734,4.93945,-0.00153677,-0.00110748,-0.00195519,0.0158699,-0.0292501,-2.51349,-3.72764,0.607072,-0.187967,-0.02494,-0.0544637,-0.0749545,-0.161271,-2.51349,0,0,180,16,180,16,306,-2,196,133,0.113173,0.0754955,0.273775,-1.5,5.71273e-38,0,0,0,-0.02494,-0.0544637,0,0,0,0,-0.0749545,-0.161271,18630,0,0,0,0,0,0,0,0,0,1,0.0599101
7080,-0.0341797,0.0595703,2.60059,0.00012665,-0.000692802,-0.00131325,0.0158632,-0.0292538,-2.51351,-3.72542,0.595413,-0.189169,-0.0260792,-0.0569138,-0.0764995,-0.164472,-2.51351,0,0,182,15,182,15,306,-2,197,133,0.1122,0.0766772,0.271991,-1.5,5.71273e-38,0,0,1,-0.0260792,-0.0569138,0,0,0,0,-0.0764995,-0.164472,18630,0,0,0,0,0,0,0,0,0,1,0.0626052
7096,-0.0341797,0.0341797,2.88867,-0.000867777,-0.000178272,-0.00341949,0.0158699,-0.0292498,-2.51355,-3.72542,0.595413,-0.189169,-0.0273989,-0.0597495,-0.0782371,-0.168072,-2.51355,0,0,182,15,182,15,306,-2,197,133,0.111086,0.0780201,0.285992,-1.5,5.71273e-38,0,0,2,-0.0273989,-0.0597495,0,0,0,0,-0.0782371,-0.168072,18630,0,0,0,0,0,0,0,0,0,1,0.0657244
7112,-0.0341797,0.0341797,5.45605,-0.000743213,-0.00110383,-0.00137185,0.0158635,-0.0292545,-2.51357,-3.68937,0.5988,-0.200344,-0.0286677,-0.062474,-0.0798589,-0.171433,-2.51357,0,0,180,16,180,16,307,-2,194,133,0.110034,0.079284,0.300518,-1.5,5.71273e-38,0,0,3,-0.0286677,-0.062474,0,0,0,0,-0.0798589,-0.171433,18900,0,0,0,0,0,0,0,0,0,1,0.0687214
7128,-0.0341797,0.0341797,4.87305,-0.000185709,-0.000413317,-0.0015923,0.0158489,-0.0292532,-2.51362,-3.68937,0.5988,-0.200344,-0.0299619,-0.0652509,-0.0814688,-0.174765,-2.51361,0,0,180,16,180,16,307,-2,194,133,0.108969,0.0805516,0.293077,-1.5,5.71273e-38,0,0,0,-0.0299619,-0.0652509,0,0,0,0,-0.0814688,-0.174765,18900,0,0,0,0,0,0,0,0,0,1,0.071776
7144,-0.0341797,0.0351562,2.91309,-0.00125628,-0.000451684,-0.00248897,0.0158376,-0.0292524,-2.51366,-3.68937,0.5988,-0.200344,-0.0312822,-0.0680819,-0.083067,-0.17807,-2.51366,0,0,180,16,180,16,307,-2,194,133,0.107892,0.0818236,0.290363,-1.5,5.71273e-38,0,0,1,-0.0312822,-0.0680819,0,0,0,0,-0.083067,-0.17807,18900,0,0,0,0,0,0,0,0,0,1,0.0748901
7160,-0.0341797,0.0683594,-6.25781,-0.000886911,-0.00158406,-0.00287766,0.0158311,-0.0292651,-2.5137,-3.71201,0.598378,-0.196141,-0.032628,-0.0709655,-0.0846542,-0.181347,-2.5137,0,0,180,18,180,18,307,-2,196,133,0.10681,0.0830959,0.304859,-1.5,5.71273e-38,0,0,2,-0.032628,-0.0709655,0,0,0,0,-0.0846542,-0.181347,18900,0,0,0,0,0,0,0,0,0,1,0.078062
7176,-0.0341797,0.101562,-0.611328,-0.00183035,1.19032e-05,-0.00281147,0.0158092,-0.0292602,-2.51373,-3.71201,0.598378,-0.196141,-0.0339985,-0.0739002,-0.0862307,-0.184596,-2.51373,0,0,180,18,180,18,307,-2,196,133,0.105724,0.0843692,0.31712,-1.5,5.71273e-38,0,0,3,-0.0339985,-0.0739002,0,0,0,0,-0.0862307,-0.184596,18900,0,0,0,0,0,0,0,0,0,1,0.0812902
7192,-0.0341797,0.101562,-0.611328,-0.00183035,1.19032e-05,-0.00281147,0.0158092,-0.0292602,-2.51373,-3.71023,0.588599,-0.195006,-0.0353942,-0.0768866,-0.0877958,-0.187817,-2.51373,0,0,183,15,183,15,307,-2,196,133,0.104637,0.0856413,0.308042,-1.5,5.71273e-38,0,0,0,-0.0353942,-0.0768866,0,0,0,0,-0.0877958,-0.187817,18630,0,0,0,0,0,0,0,0,0,1,0.0845753
7208,-0.0341797,0.101562,-0.611328,-0.00183035,1.19032e-05,-0.00281147,0.0158092,-0.0292602,-2.51373,-3.71023,0.588599,-0.195006,-0.0368147,-0.0799243,-0.0893484,-0.191013,-2.51373,0,0,183,15,183,15,307,-2,196,133,0.103543,0.0869153,0.307208,-1.5,5.71273e-38,0,0,1,-0.0368147,-0.0799243,0,0,0,0,-0.0893484,-0.191013,18630,0,0,0,0,0,0,0,0,0,1,0.0879167
7223,-0.0341797,0.15918,6.65723,-0.00209467,4.31641e-05,-0.00285901,0.0157944,-0.0292606,-2.51387,-3.71023,0.588599,-0.195006,-0.0381689,-0.0828183,-0.0907927,-0.193985,-2.51373,0,0,183,15,183,15,307,-2,196,133,0.10251,0.0881116,0.320072,-1.5,5.71273e-38,0,0,2,-0.0381689,-0.0828183,0,0,0,0,-0.0907927,-0.193985,18630,0,0,0,0,0,0,0,0,0,1,0.0911001
7239,-0.0341797,0.125977,-4.6709,0.000270583,0.000152847,-0.00235712,0.0158017,-0.0292591,-2.5139,-3.71023,0.588599,-0.195006,-0.0396372,-0.0859541,-0.0923225,-0.19713,-2.51387,0,0,183,15,183,15,307,-2,196,133,0.101363,0.0894037,0.331333,-1.5,5.71273e-38,0,0,3,-0.0396372,-0.0859541,0,0,0,0,-0.0923225,-0.19713,18630,0,0,0,0,0,0,0,0,0,1,0.0945495
7256,-0.0341797,0.125977,-4.6709,0.000270583,0.000152847,-0.00235712,0.0158017,-0.0292591,-2.5139,-3.71533,0.593968,-0.190732,-0.0412245,-0.0893418,-0.093935,-0.200444,-2.5139,0,0,182,15,182,15,307,-2,196,133,0.100168,0.0907667,0.322204,-1.5,5.71273e-38,0,0,0,-0.0412245,-0.0893418,0,0,0,0,-0.093935,-0.200444,18630,0,0,0,0,0,0,0,0,0,1,0.098276
7271,-0.0341797,0.0595703,-3.96191,0.000645099,-0.000365525,-0.00264304,0.0158011,-0.029242,-2.51396,-3.71533,0.593968,-0.190732,-0.0426468,-0.0923758,-0.0953456,-0.203344,-2.51396,0,0,182,15,182,15,307,-2,196,133,0.0990946,0.0919745,0.321758,-1.5,5.71273e-38,0,0,1,-0.0426468,-0.0923758,0,0,0,0,-0.0953456,-0.203344,18630,0,0,0,0,0,0,0,0,0,1,0.101613
7287,-0.0341797,0.0537109,6.00293,-0.0014244,-0.00093819,-0.00224206,0.0157847,-0.0292431,-2.51399,-3.72056,0.603895,-0.19087,-0.0441876,-0.0956606,-0.0968383,-0.206412,-2.51399,0,0,180,16,180,16,307,-2,196,133,0.0979534,0.0932605,0.333898,-1.5,5.71273e-38,0,0,2,-0.0441876,-0.0956606,0,0,0,0,-0.0968383,-0.206412,18630,0,0,0,0,0,0,0,0,0,1,0.105227
7303,-0.0341797,0.0537109,1.94336,-0.000508269,-0.0010823,-0.00124827,0.0157921,-0.0292403,-2.51402,-3.72056,0.603895,-0.19087,-0.0457521,-0.0989942,-0.0983198,-0.209454,-2.51402,0,0,180,16,180,16,307,-2,196,133,0.0968064,0.0945476,0.348239,-1.5,5.71273e-38,0,0,3,-0.0457521,-0.0989942,0,0,0,0,-0.0983198,-0.209454,18630,0,0,0,0,0,0,0,0,0,1,0.108894
7319,-0.0341797,0.0537109,-4.93945,-0.000725511,-0.000640074,-0.00280809,0.0157814,-0.0292386,-2.51406,-3.68183,0.589222,-0.214708,-0.0473402,-0.102376,-0.0997892,-0.212471,-2.51406,0,0,180,18,180,18,309,-2,196,134,0.0956484,0.0958376,0.338362,-1.5,5.71273e-38,0,0,0,-0.0473402,-0.102376,0,0,0,0,-0.0997892,-0.212471,19040,0,0,0,0,0,0,0,0,0,1,0.112614
7335,-0.0341797,0.0537109,5.17383,-0.00171241,-0.00099679,-0.00283393,0.0157564,-0.0292472,-2.51413,-3.68183,0.589222,-0.214708,-0.0489517,-0.105806,-0.101247,-0.215464,-2.51406,0,0,180,18,180,18,309,-2,196,134,0.0944933,0.0971259,0.334746,-1.5,5.71273e-38,0,0,1,-0.0489517,-0.105806,0,0,0,0,-0.101247,-0.215464,19040,0,0,0,0,0,0,0,0,0,1,0.116387
7356,-0.0341797,0.0537109,6.17383,-0.000431415,-0.000852785,-0.00204572,0.0157531,-0.0292492,-2.51415,-3.68183,0.589222,-0.214708,-0.0511053,-0.110387,-0.103148,-0.219357,-2.51415,0,0,180,18,180,18,309,-2,196,134,0.0929406,0.0988298,0.356887,-1.5,5.71273e-38,0,0,2,-0.0511053,-0.110387,0,0,0,0,-0.103148,-0.219357,19040,0,0,0,0,0,0,0,0,0,1,0.121426
7372,-0.0341797,0.0537109,6.17383,-0.000431415,-0.000852785,-0.00204572,0.0157531,-0.0292492,-2.51415,-3.69498,0.586302,-0.198566,-0.0527704,-0.113927,-0.104584,-0.222291,-2.51415,0,0,182,15,182,15,307,-2,196,133,0.0917694,0.100123,0.371136,-1.5,5.71273e-38,0,0,3,-0.0527704,-0.113927,0,0,0,0,-0.104584,-0.222291,18900,0,0,0,0,0,0,0,0,0,1,0.12532
7387,-0.0341797,0.0537109,-2.69043,-5.50729e-05,0.000123108,-0.00178417,0.0157316,-0.0292438,-2.5142,-3.69498,0.586302,-0.198566,-0.054352,-0.117288,-0.10592,-0.22502,-2.5142,0,0,182,15,182,15,307,-2,196,133,0.0906507,0.101341,0.361841,-1.5,5.71273e-38,0,0,0,-0.054352,-0.117288,0,0,0,0,-0.10592,-0.22502,18900,0,0,0,0,0,0,0,0,0,1,0.129017
7403,-0.0341797,0.0537109,0.845703,-0.00154758,-0.000653104,-0.00288671,0.0157057,-0.0292448,-2.51426,-3.69498,0.586302,-0.198566,-0.0559537,-0.120689,-0.107247,-0.227726,-2.51423,0,0,182,15,182,15,307,-2,196,133,0.0895317,0.102558,0.358477,-1.5,5.71273e-38,0,0,1,-0.0559537,-0.120689,0,0,0,0,-0.107247,-0.227726,18900,0,0,0,0,0,0,0,0,0,1,0.132758
7418,-0.0341797,0.0537109,-1.57031,-0.00146063,-0.00186234,-0.0028992,0.0156927,-0.0292535,-2.5143,-3.69498,0.586302,-0.198566,-0.057684,-0.124362,-0.108653,-0.230588,-2.51426,0,0,182,15,182,15,307,-2,196,133,0.0883313,0.103859,0.372708,-1.5,5.71273e-38,0,0,2,-0.057684,-0.124362,0,0,0,0,-0.108653,-0.230588,18900,0,0,0,0,0,0,0,0,0,1,0.136798
7433,-0.0341797,0.0537109,-0.488281,-0.00190236,-0.000129506,-0.00196339,0.0156779,-0.0292515,-2.51433,-3.69498,0.586302,-0.198566,-0.0593261,-0.127846,-0.109964,-0.233249,-2.5143,0,0,182,15,182,15,307,-2,196,133,0.0871999,0.10508,0.383,-1.5,5.71273e-38,0,0,3,-0.0593261,-0.127846,0,0,0,0,-0.109964,-0.233249,18900,0,0,0,0,0,0,0,0,0,1,0.140631
7450,-0.0341797,0.0537109,0.612305,-0.00134212,0.00014261,-0.00338609,0.0156654,-0.0292453,-2.51438,-3.72867,0.600963,-0.187727,-0.0612123,-0.131845,-0.11144,-0.236238,-2.51438,0,0,182,16,182,16,304,-2,196,133,0.0858995,0.10647,0.370529,-1.5,5.71273e-38,0,0,0,-0.0612123,-0.131845,0,0,0,0,-0.11144,-0.236238,18765,0,0,0,0,0,0,0,0,0,1,0.14503
7465,-0.0341797,0.0537109,-1.34668,-0.00134865,-0.000399143,-0.00310775,0.015647,-0.0292438,-2.51442,-3.72867,0.600963,-0.187727,-0.0628961,-0.135413,-0.112733,-0.238852,-2.51442,0,0,182,16,182,16,304,-2,196,133,0.0847524,0.107695,0.369312,-1.5,5.71273e-38,0,0,1,-0.0628961,-0.135413,0,0,0,0,-0.112733,-0.238852,18765,0,0,0,0,0,0,0,0,0,1,0.148955
7481,-0.0341797,0.0537109,0.0546875,-0.00203527,-0.000170126,-0.00222144,0.0156308,-0.0292405,-2.51446,-3.72867,0.600963,-0.187727,-0.0647142,-0.139264,-0.114103,-0.241616,-2.51446,0,0,182,16,182,16,304,-2,196,133,0.0835256,0.109002,0.383492,-1.5,5.71273e-38,0,0,2,-0.0647142,-0.139264,0,0,0,0,-0.114103,-0.241616,18765,0,0,0,0,0,0,0,0,0,1,0.153191
7497,-0.0341797,0.0537109,3.18945,-0.00150728,-0.000543506,-0.0011731,0.0156143,-0.0292401,-2.51448,-3.72867,0.600963,-0.187727,-0.0665537,-0.143158,-0.115464,-0.244356,-2.51448,0,0,182,16,182,16,304,-2,196,133,0.0822977,0.11031,0.394499,-1.5,5.71273e-38,0,0,3,-0.0665537,-0.143158,0,0,0,0,-0.115464,-0.244356,18765,0,0,0,0,0,0,0,0,0,1,0.157474
7513,-0.0341797,0.0537109,-6.77734,-0.00095646,-0.000856354,-0.00272468,0.0156085,-0.0292476,-2.51452,-3.7272,0.600315,-0.183654,-0.0684154,-0.147096,-0.116816,-0.247072,-2.51452,0,0,182,15,182,15,306,-2,195,131,0.0810585,0.111621,0.383547,-1.5,5.71273e-38,0,0,0,-0.0684154,-0.147096,0,0,0,0,-0.116816,-0.247072,18354,0,0,0,0,0,0,0,0,0,1,0.161806
7529,-0.0341797,0.0537109,-6.76562,1.37049e-05,-0.000470544,-0.00156155,0.0155899,-0.0292415,-2.51457,-3.7272,0.600315,-0.183654,-0.0702981,-0.151077,-0.118157,-0.249766,-2.51452,0,0,182,15,182,15,306,-2,195,131,0.0798235,0.11293,0.381358,-1.5,5.71273e-38,0,0,1,-0.0702981,-0.151077,0,0,0,0,-0.118157,-0.249766,18354,0,0,0,0,0,0,0,0,0,1,0.166184
7545,-0.0341797,0.0537109,3.27148,-0.00236564,-0.000142954,-0.00264935,0.0155659,-0.0292327,-2.5146,-3.7272,0.600315,-0.183654,-0.0722026,-0.155101,-0.11949,-0.252436,-2.5146,0,0,182,15,182,15,306,-2,195,131,0.0785577,0.114247,0.39549,-1.5,5.71273e-38,0,0,2,-0.0722026,-0.155101,0,0,0,0,-0.11949,-0.252436,18354,0,0,0,0,0,0,0,0,0,1,0.170611
7563,-0.0341797,0.0537109,3.47363,-0.000623833,-0.00011099,-0.00439141,0.015556,-0.0292207,-2.51466,-3.68621,0.585481,-0.206853,-0.0743711,-0.15968,-0.120977,-0.25541,-2.51466,0,0,180,16,180,16,307,-2,198,134,0.0771396,0.115727,0.412714,-1.5,5.71273e-38,0,0,3,-0.0743711,-0.15968,0,0,0,0,-0.120977,-0.25541,19312,0,0,0,0,0,0,0,0,0,1,0.175648
7579,-0.0341797,0.0537109,4.44336,-0.00128328,-0.000418814,-0.00178341,0.0155439,-0.0292262,-2.51469,-3.70156,0.594947,-0.200232,-0.0761976,-0.163535,-0.122207,-0.257864,-2.51469,0,0,180,18,180,18,307,-2,196,133,0.0759534,0.116961,0.403253,-1.5,5.71273e-38,0,0,0,-0.0761976,-0.163535,0,0,0,0,-0.122207,-0.257864,19035,0,0,0,0,0,0,0,0,0,1,0.179889
7595,-0.0341797,0.0537109,0.959961,-0.00200804,0.000270082,-0.000650591,0.0154901,-0.0292211,-2.51475,-3.70156,0.594947,-0.200232,-0.0781667,-0.167688,-0.12351,-0.260462,-2.51469,0,0,180,18,180,18,307,-2,196,133,0.0746936,0.118276,0.398343,-1.5,5.71273e-38,0,0,1,-0.0781667,-0.167688,0,0,0,0,-0.12351,-0.260462,19035,0,0,0,0,0,0,0,0,0,1,0.184457
7610,-0.0341797,0.0537109,5.80566,-0.00128835,-0.000418787,-0.00188975,0.0154704,-0.0292205,-2.51478,-3.70156,0.594947,-0.200232,-0.0801564,-0.171883,-0.124805,-0.263036,-2.51475,0,0,180,18,180,18,307,-2,196,133,0.0734106,0.119596,0.412407,-1.5,5.71273e-38,0,0,2,-0.0801564,-0.171883,0,0,0,0,-0.124805,-0.263036,19035,0,0,0,0,0,0,0,0,0,1,0.189071
7626,-0.0341797,0.0537109,-4.29102,-0.000771964,-0.000369201,-0.00298648,0.0154707,-0.0292201,-2.51482,-3.6939,0.593723,-0.207833,-0.0821664,-0.176117,-0.126092,-0.265584,-2.51478,0,0,180,18,180,18,307,-2,196,133,0.0721335,0.120916,0.426434,-1.5,5.71273e-38,0,0,3,-0.0821664,-0.176117,0,0,0,0,-0.126092,-0.265584,19035,0,0,0,0,0,0,0,0,0,1,0.193729
7643,-0.0341797,0.0537109,4.56152,-0.00115283,-0.00015788,-0.00142616,0.0154557,-0.0292086,-2.51485,-3.6939,0.593723,-0.207833,-0.0841974,-0.180393,-0.127371,-0.26811,-2.51485,0,0,180,18,180,18,307,-2,196,133,0.0708366,0.122239,0.415354,-1.5,5.71273e-38,0,0,0,-0.0841974,-0.180393,0,0,0,0,-0.127371,-0.26811,19035,0,0,0,0,0,0,0,0,0,1,0.198433
7657,-0.0341797,0.0537109,-2.60645,-0.00060364,-0.000723015,-0.0027478,0.01544,-0.0292088,-2.51488,-3.68262,0.596445,-0.20964,-0.0861194,-0.184438,-0.12856,-0.270456,-2.51488,0,0,180,18,180,18,307,-2,194,133,0.0696252,0.123479,0.41103,-1.5,5.71273e-38,0,0,1,-0.0861194,-0.184438,0,0,0,0,-0.12856,-0.270456,19035,0,0,0,0,0,0,0,0,0,1,0.202881
7673,-0.0341797,0.0537109,-5.84473,-0.00043182,-0.00121816,-0.00371806,0.0154317,-0.0292151,-2.51493,-3.68262,0.596445,-0.20964,-0.0881897,-0.188791,-0.129821,-0.272938,-2.51493,0,0,180,18,180,18,307,-2,194,133,0.0683231,0.124804,0.425043,-1.5,5.71273e-38,0,0,2,-0.0881897,-0.188791,0,0,0,0,-0.129821,-0.272938,19035,0,0,0,0,0,0,0,0,0,1,0.20767
7689,-0.0341797,0.0537109,-5.84473,-0.00043182,-0.00121816,-0.00371806,0.0154317,-0.0292151,-2.51493,-3.74701,0.599307,-0.173854,-0.09028,-0.193184,-0.131073,-0.2754,-2.51493,0,0,182,15,182,15,306,-2,197,131,0.0670297,0.126127,0.439013,-1.5,5.71273e-38,0,0,3,-0.09028,-0.193184,0,0,0,0,-0.131073,-0.2754,18354,0,0,0,0,0,0,0,0,0,1,0.212502
7705,-0.0341797,0.0537109,6.68457,-0.000279353,-0.00149915,-0.00216936,0.015396,-0.0292195,-2.51498,-3.74701,0.599307,-0.173854,-0.0923898,-0.197615,-0.132317,-0.277841,-2.51498,0,0,182,15,182,15,306,-2,197,131,0.0657138,0.127455,0.428591,-1.5,5.71273e-38,0,0,0,-0.0923898,-0.197615,0,0,0,0,-0.132317,-0.277841,18354,0,0,0,0,0,0,0,0,0,1,0.217377
7721,-0.0341797,0.0537109,-6.7041,-9.35805e-05,-1.61386e-05,-0.0023546,0.0153942,-0.0292235,-2.51501,-3.73409,0.5928,-0.176612,-0.0945195,-0.202085,-0.133553,-0.280259,-2.51501,0,0,182,15,182,15,307,-2,197,131,0.0644007,0.128782,0.425594,-1.5,5.71273e-38,0,0,1,-0.0945195,-0.202085,0,0,0,0,-0.133553,-0.280259,18487,0,0,0,0,0,0,0,0,0,1,0.222294
7737,-0.0341797,0.0537109,6.85938,-0.00120591,-0.00117008,-0.00249154,0.0153592,-0.0292359,-2.51508,-3.73409,0.5928,-0.176612,-0.0966688,-0.206594,-0.13478,-0.282658,-2.51501,0,0,182,15,182,15,307,-2,197,131,0.0630904,0.130109,0.43642,-1.5,5.71273e-38,0,0,2,-0.0966688,-0.206594,0,0,0,0,-0.13478,-0.282658,18487,0,0,0,0,0,0,0,0,0,1,0.227253
7753,-0.0341797,0.0537109,6.85938,-0.00120591,-0.00117008,-0.00249154,0.0153592,-0.0292359,-2.51508,-3.71271,0.592455,-0.200591,-0.0988382,-0.211141,-0.136003,-0.285035,-2.51508,0,0,182,18,182,18,307,-2,196,133,0.0617545,0.131443,0.450345,-1.5,5.71273e-38,0,0,3,-0.0988382,-0.211141,0,0,0,0,-0.136003,-0.285035,18765,0,0,0,0,0,0,0,0,0,1,0.232256
7769,-0.0341797,0.0537109,0.336914,-0.00284101,-0.00207655,-0.00154116,0.0153057,-0.029248,-2.51514,-3.71271,0.592455,-0.200591,-0.101027,-0.215726,-0.137217,-0.28739,-2.51514,0,0,182,18,182,18,307,-2,196,133,0.060417,0.132777,0.442304,-1.5,5.71273e-38,0,0,0,-0.101027,-0.215726,0,0,0,0,-0.137217,-0.28739,18765,0,0,0,0,0,0,0,0,0,1,0.237299
7785,-0.0341797,0.0537109,6.43848,-0.00041415,-0.00102418,-0.00234437,0.0153011,-0.0292542,-2.51517,-3.73479,0.59625,-0.192114,-0.103235,-0.220349,-0.138428,-0.289724,-2.51517,0,0,182,19,182,19,306,-2,197,133,0.0590825,0.134111,0.436616,-1.5,5.71273e-38,0,0,1,-0.103235,-0.220349,0,0,0,0,-0.138428,-0.289724,18765,0,0,0,0,0,0,0,0,0,1,0.242384
7801,-0.0341797,0.0625,-6.62109,-0.00125489,-0.00019811,-0.00226542,0.0152902,-0.0292644,-2.5152,-3.73479,0.59625,-0.192114,-0.105322,-0.224716,-0.139555,-0.291893,-2.5152,0,0,182,19,182,19,306,-2,197,133,0.0578242,0.135364,0.448962,-1.5,5.71273e-38,0,0,2,-0.105322,-0.224716,0,0,0,0,-0.139555,-0.291893,18765,0,0,0,0,0,0,0,0,0,1,0.247187
7816,-0.0341797,0.0957031,6.90625,-0.00198241,-0.00202804,-0.00295002,0.0152657,-0.029274,-2.51525,-3.71513,0.594742,-0.19113,-0.107568,-0.22941,-0.140752,-0.294189,-2.51525,0,0,182,15,182,15,307,-2,196,133,0.0564758,0.136701,0.462837,-1.5,5.71273e-38,0,0,3,-0.107568,-0.22941,0,0,0,0,-0.140752,-0.294189,18630,0,0,0,0,0,0,0,0,0,1,0.252351
7833,-0.0341797,0.158203,-6.78711,-0.000309501,-0.000976965,-0.00326605,0.0152645,-0.0292777,-2.51531,-3.71513,0.594742,-0.19113,-0.109974,-0.234438,-0.142015,-0.296607,-2.51525,0,0,182,15,182,15,307,-2,196,133,0.055051,0.138122,0.453182,-1.5,5.71273e-38,0,0,0,-0.109974,-0.234438,0,0,0,0,-0.142015,-0.296607,18630,0,0,0,0,0,0,0,0,0,1,0.257882
7848,-0.0341797,0.158203,-6.78711,-0.000309501,-0.000976965,-0.00326605,0.0152645,-0.0292777,-2.51531,-3.70362,0.597589,-0.197529,-0.112115,-0.238908,-0.143121,-0.298723,-2.51531,0,0,182,16,182,16,307,-2,194,133,0.0537698,0.13938,0.448179,-1.5,5.71273e-38,0,0,1,-0.112115,-0.238908,0,0,0,0,-0.143121,-0.298723,18630,0,0,0,0,0,0,0,0,0,1,0.262798
7864,-0.0341797,0.158203,3.83887,-0.00058192,-6.62236e-05,-0.00249254,0.0152605,-0.0292692,-2.51536,-3.70362,0.597589,-0.197529,-0.114417,-0.24371,-0.144292,-0.300963,-2.51536,0,0,182,16,182,16,307,-2,194,133,0.0524017,0.140722,0.459561,-1.5,5.71273e-38,0,0,2,-0.114417,-0.24371,0,0,0,0,-0.144292,-0.300963,18630,0,0,0,0,0,0,0,0,0,1,0.268081
7880,-0.0341797,0.158203,-3.66211,-0.000475515,-0.000827279,-0.00299335,0.0152518,-0.0292731,-2.5154,-3.70362,0.597589,-0.197529,-0.116738,-0.248549,-0.145453,-0.303183,-2.5154,0,0,182,16,182,16,307,-2,194,133,0.0510306,0.142065,0.473393,-1.5,5.71273e-38,0,0,3,-0.116738,-0.248549,0,0,0,0,-0.145453,-0.303183,18630,0,0,0,0,0,0,0,0,0,1,0.273404
7896,-0.0341797,0.158203,-7.00488,-0.0010302,-0.00202554,-0.00258413,0.0152482,-0.0292912,-2.51543,-3.70362,0.597589,-0.197529,-0.119077,-0.253422,-0.146608,-0.305385,-2.51543,0,0,182,16,182,16,307,-2,194,133,0.049658,0.143408,0.462765,-1.5,5.71273e-38,0,0,0,-0.119077,-0.253422,0,0,0,0,-0.146608,-0.305385,18630,0,0,0,0,0,0,0,0,0,1,0.278764
7912,-0.0341797,0.158203,6.82812,-9.60082e-05,-0.000295452,-0.00183852,0.0152454,-0.0292903,-2.51545,-3.70362,0.597589,-0.197529,-0.121435,-0.258331,-0.147755,-0.307571,-2.51545,0,0,182,16,182,16,307,-2,194,133,0.0482821,0.144753,0.456668,-1.5,5.71273e-38,0,0,1,-0.121435,-0.258331,0,0,0,0,-0.147755,-0.307571,18630,0,0,0,0,0,0,0,0,0,1,0.284164
7928,-0.0341797,0.158203,-2.57324,0.000209576,0.00014112,-0.00216296,0.0152371,-0.0292868,-2.51551,-3.72275,0.595613,-0.185606,-0.12381,-0.263275,-0.148893,-0.309738,-2.51545,0,0,182,15,182,15,307,-1,195,131,0.0469082,0.146098,0.470499,-1.5,5.71273e-38,0,0,2,-0.12381,-0.263275,0,0,0,0,-0.148893,-0.309738,18348,0,0,0,0,0,0,0,0,0,1,0.289602
7944,-0.0341797,0.158203,4.50879,-0.00114508,-0.000754161,-0.00256803,0.0152129,-0.0292929,-2.51553,-3.72275,0.595613,-0.185606,-0.126205,-0.268253,-0.150022,-0.311888,-2.51551,0,0,182,15,182,15,307,-1,195,131,0.0455115,0.147446,0.484287,-1.5,5.71273e-38,0,0,3,-0.126205,-0.268253,0,0,0,0,-0.150022,-0.311888,18348,0,0,0,0,0,0,0,0,0,1,0.295078
7960,-0.0341797,0.158203,1.57422,-0.001733,-0.000723739,-0.00292592,0.0151951,-0.0292964,-2.51557,-3.70361,0.597345,-0.19086,-0.128616,-0.273265,-0.151146,-0.314017,-2.51557,0,0,180,16,180,16,307,-2,195,131,0.0441067,0.148796,0.476111,-1.5,5.71273e-38,0,0,0,-0.128616,-0.273265,0,0,0,0,-0.151146,-0.314017,18753,0,0,0,0,0,0,0,0,0,1,0.300591
7976,-0.0341797,0.158203,6.85156,-0.00131153,-0.000586791,-0.002932,0.0151777,-0.0292936,-2.51561,-3.70361,0.597345,-0.19086,-0.131046,-0.278311,-0.152263,-0.316126,-2.51561,0,0,180,16,180,16,307,-2,195,131,0.0427065,0.150146,0.472261,-1.5,5.71273e-38,0,0,1,-0.131046,-0.278311,0,0,0,0,-0.152263,-0.316126,18753,0,0,0,0,0,0,0,0,0,1,0.306142
7991,-0.0341797,0.158203,6.85156,-0.00131153,-0.000586791,-0.002932,0.0151777,-0.0292936,-2.51561,-3.71635,0.590809,-0.19754,-0.13334,-0.283072,-0.153303,-0.318086,-2.51561,0,0,182,16,182,16,307,-1,197,134,0.0414008,0.151411,0.484465,-1.5,5.71273e-38,0,0,2,-0.13334,-0.283072,0,0,0,0,-0.153303,-0.318086,18765,0,0,0,0,0,0,0,0,0,1,0.311379
8007,-0.0341797,0.158203,6.11133,-0.00156286,-0.00065439,-0.0026991,0.0151448,-0.0292941,-2.51569,-3.71635,0.590809,-0.19754,-0.135804,-0.288182,-0.154406,-0.320159,-2.51569,0,0,182,16,182,16,307,-1,197,134,0.0399771,0.152765,0.495068,-1.5,5.71273e-38,0,0,3,-0.135804,-0.288182,0,0,0,0,-0.154406,-0.320159,18765,0,0,0,0,0,0,0,0,0,1,0.317
8025,-0.0341797,0.158203,6.11133,-0.00156286,-0.00065439,-0.0026991,0.0151448,-0.0292941,-2.51569,-3.69281,0.600758,-0.206187,-0.138598,-0.293972,-0.155638,-0.32247,-2.51569,0,0,180,18,180,18,307,-2,194,133,0.038399,0.154286,0.481187,-1.5,5.71273e-38,0,0,0,-0.138598,-0.293972,0,0,0,0,-0.155638,-0.32247,18900,0,0,0,0,0,0,0,0,0,1,0.32337
8040,-0.0341797,0.158203,6.11133,-0.00156286,-0.00065439,-0.0026991,0.0151448,-0.0292941,-2.51569,-3.69281,0.600758,-0.206187,-0.140942,-0.298827,-0.156656,-0.324378,-2.51569,0,0,180,18,180,18,307,-2,194,133,0.0370793,0.155554,0.478205,-1.5,5.71273e-38,0,0,1,-0.140942,-0.298827,0,0,0,0,-0.156656,-0.324378,18900,0,0,0,0,0,0,0,0,0,1,0.32871
8055,-0.0341797,0.158203,6.11133,-0.00156286,-0.00065439,-0.0026991,0.0151448,-0.0292941,-2.51569,-3.72845,0.595047,-0.188303,-0.143302,-0.303711,-0.157667,-0.326273,-2.51569,0,0,183,16,183,16,307,-2,196,133,0.035755,0.156823,0.490385,-1.5,5.71273e-38,0,0,2,-0.143302,-0.303711,0,0,0,0,-0.157667,-0.326273,18495,0,0,0,0,0,0,0,0,0,1,0.334083
8071,-0.0341797,0.158203,5.33984,-0.000245665,-0.00106825,-0.00305567,0.0150948,-0.0292835,-2.51585,-3.72845,0.595047,-0.188303,-0.145836,-0.308953,-0.158738,-0.328277,-2.51585,0,0,183,16,183,16,307,-2,196,133,0.0342843,0.158183,0.504094,-1.5,5.71273e-38,0,0,3,-0.145836,-0.308953,0,0,0,0,-0.158738,-0.328277,18495,0,0,0,0,0,0,0,0,0,1,0.339848
8111,-0.0341797,0.158203,1.45996,-0.00149995,-0.00054732,-0.00255136,0.0150734,-0.0292853,-2.51594,-3.71749,0.59317,-0.194658,-0.152274,-0.322248,-0.1614,-0.333227,-2.51594,0,0,182,16,182,16,307,-1,196,133,0.0306772,0.161592,0.455155,-1.5,5.71273e-38,0,0,0,-0.152274,-0.322248,0,0,0,0,-0.1614,-0.333227,18626,0,0,0,0,0,0,0,0,0,1,0.354473
8127,-0.0341797,0.158203,-5.85254,-0.00158126,-0.00196238,-0.00214695,0.0150611,-0.029295,-2.51597,-3.68816,0.588676,-0.205947,-0.154867,-0.3276,-0.162447,-0.335167,-2.51597,0,0,183,16,183,16,307,-2,194,133,0.0292345,0.162951,0.44921,-1.5,5.71273e-38,0,0,1,-0.154867,-0.3276,0,0,0,0,-0.162447,-0.335167,18765,0,0,0,0,0,0,0,0,0,1,0.36036
8149,-0.0341797,0.158203,1.03809,-0.00118024,-0.00106806,-0.00268007,0.015027,-0.0293027,-2.51606,-3.69216,0.589414,-0.202172,-0.158463,-0.335015,-0.163878,-0.33781,-2.51602,0,0,183,16,183,16,307,-2,194,133,0.0272374,0.164823,0.472458,-1.5,5.71273e-38,0,0,2,-0.158463,-0.335015,0,0,0,0,-0.163878,-0.33781,18765,0,0,0,0,0,0,0,0,0,1,0.368517
8172,-0.0341797,0.158203,0.694336,-0.000952781,-0.00120172,-0.00267132,0.0150134,-0.0293012,-2.51609,-3.69216,0.589414,-0.202172,-0.162257,-0.342829,-0.165362,-0.340538,-2.51609,0,0,183,16,183,16,307,-2,194,133,0.0251376,0.166783,0.497196,-1.5,5.71273e-38,0,0,3,-0.162257,-0.342829,0,0,0,0,-0.165362,-0.340538,18765,0,0,0,0,0,0,0,0,0,1,0.377112
8187,-0.0341797,0.158203,0.694336,-0.000952781,-0.00120172,-0.00267132,0.0150134,-0.0293012,-2.51609,-3.70089,0.590601,-0.199293,-0.164746,-0.347954,-0.166321,-0.342295,-2.51609,0,0,182,15,182,15,307,-2,196,133,0.0237792,0.16806,0.487397,-1.5,5.71273e-38,0,0,0,-0.164746,-0.347954,0,0,0,0,-0.166321,-0.342295,18765,0,0,0,0,0,0,0,0,0,1,0.38275
8209,-0.0341797,0.158203,-2.95605,-0.00115623,-0.00078661,-0.00270588,0.014982,-0.0293108,-2.5162,-3.70089,0.590601,-0.199293,-0.168428,-0.355525,-0.167718,-0.344852,-2.5162,0,0,182,15,182,15,307,-2,196,133,0.0217395,0.169939,0.474984,-1.5,5.71273e-38,0,0,1,-0.168428,-0.355525,0,0,0,0,-0.167718,-0.344852,18765,0,0,0,0,0,0,0,0,0,1,0.391078
8231,-0.0341797,0.158203,-2.95605,-0.00115623,-0.00078661,-0.00270588,0.014982,-0.0293108,-2.5162,-3.72411,0.590043,-0.190395,-0.172139,-0.363152,-0.169105,-0.347377,-2.5162,0,0,182,16,182,16,307,-2,198,133,0.0197304,0.171817,0.498129,-1.5,5.71273e-38,0,0,2,-0.172139,-0.363152,0,0,0,0,-0.169105,-0.347377,18765,0,0,0,0,0,0,0,0,0,1,0.399467
8247,-0.0341797,0.158203,2.1748,-0.00181841,-0.000936442,-0.00258691,0.0149509,-0.0293117,-2.51626,-3.71721,0.602483,-0.192431,-0.174855,-0.368729,-0.170104,-0.349192,-2.51626,0,0,180,18,180,18,307,-2,195,131,0.0182442,0.173184,0.508678,-1.5,5.71273e-38,0,0,3,-0.174855,-0.368729,0,0,0,0,-0.170104,-0.349192,18620,0,0,0,0,0,0,0,0,0,1,0.405602
8272,-0.0341797,0.158203,1.76465,-0.00057449,-0.000976723,-0.00211114,0.0149342,-0.0293258,-2.51634,-3.71721,0.602483,-0.192431,-0.178964,-0.377157,-0.171595,-0.351888,-2.51634,0,0,180,18,180,18,307,-2,195,131,0.0160105,0.175239,0.484752,-1.5,5.71273e-38,0,0,0,-0.178964,-0.377157,0,0,0,0,-0.171595,-0.351888,18620,0,0,0,0,0,0,0,0,0,1,0.414873
8289,-0.0341797,0.158203,-1.52441,-0.00133072,-0.000869386,-0.00281825,0.0148995,-0.029335,-2.51641,-3.70795,0.599089,-0.200817,-0.182066,-0.383516,-0.172703,-0.353886,-2.51634,0,0,180,18,180,18,307,-2,196,133,0.01435,0.176779,0.476286,-1.5,5.71273e-38,0,0,1,-0.182066,-0.383516,0,0,0,0,-0.172703,-0.353886,18900,0,0,0,0,0,0,0,0,0,1,0.421867
8305,-0.0341797,0.158203,0.166992,-0.00164645,-0.00105933,-0.00290612,0.0148856,-0.0293502,-2.51645,-3.70795,0.599089,-0.200817,-0.18484,-0.389196,-0.173684,-0.355642,-2.51645,0,0,180,18,180,18,307,-2,196,133,0.0128321,0.178151,0.490039,-1.5,5.71273e-38,0,0,2,-0.18484,-0.389196,0,0,0,0,-0.173684,-0.355642,18900,0,0,0,0,0,0,0,0,0,1,0.428116
8328,-0.0341797,0.158203,0.166992,-0.00164645,-0.00105933,-0.00290612,0.0148856,-0.0293502,-2.51645,-3.69095,0.593695,-0.207604,-0.188682,-0.397058,-0.175026,-0.358036,-2.51645,0,0,180,16,180,16,306,-1,196,133,0.0107899,0.180039,0.513136,-1.5,5.71273e-38,0,0,3,-0.188682,-0.397058,0,0,0,0,-0.175026,-0.358036,19028,0,0,0,0,0,0,0,0,0,1,0.436764
8350,-0.0341797,0.158203,2.12109,-0.00167922,-0.00190801,-0.00267103,0.0148337,-0.0293457,-2.51655,-3.70504,0.591524,-0.19567,-0.192731,-0.405335,-0.176416,-0.360509,-2.51655,0,0,182,15,182,15,307,-2,196,133,0.00861063,0.182015,0.490757,-1.5,5.71273e-38,0,0,0,-0.192731,-0.405335,0,0,0,0,-0.176416,-0.360509,18765,0,0,0,0,0,0,0,0,0,1,0.445868
8366,-0.0341797,0.158203,-4.76855,-0.00116288,-8.75143e-05,-0.00157976,0.014821,-0.029339,-2.51658,-3.70504,0.591524,-0.19567,-0.195564,-0.41112,-0.177375,-0.362203,-2.51658,0,0,182,15,182,15,307,-2,196,133,0.00710526,0.183388,0.486644,-1.5,5.71273e-38,0,0,1,-0.195564,-0.41112,0,0,0,0,-0.177375,-0.362203,18765,0,0,0,0,0,0,0,0,0,1,0.452232
8388,-0.0341797,0.158203,-6.14258,-0.00157565,-0.00132691,-0.00216949,0.0147925,-0.0293462,-2.51666,-3.6844,0.593566,-0.203735,-0.199487,-0.419125,-0.178684,-0.364512,-2.51666,0,0,180,18,180,18,307,-4,196,133,0.00501566,0.18528,0.509743,-1.5,5.71273e-38,0,0,2,-0.199487,-0.419125,0,0,0,0,-0.178684,-0.364512,19317,0,0,0,0,0,0,0,0,0,1,0.461038
8410,-0.0341797,0.158203,-2.86523,-0.00118802,0.00125108,-0.00245211,0.0147799,-0.0293342,-2.51669,-3.6844,0.593566,-0.203735,-0.203438,-0.427181,-0.179984,-0.36679,-2.51669,0,0,180,18,180,18,307,-4,196,133,0.00293501,0.187173,0.532761,-1.5,5.71273e-38,0,0,3,-0.203438,-0.427181,0,0,0,0,-0.179984,-0.36679,19317,0,0,0,0,0,0,0,0,0,1,0.469899
8426,-0.0341797,0.158203,6.16992,-0.00111158,-0.000450406,-0.00192423,0.0147432,-0.0293273,-2.51676,-3.74209,0.602147,-0.187862,-0.206328,-0.433066,-0.180918,-0.368427,-2.51669,0,0,183,16,183,16,304,-1,196,133,0.00142718,0.188549,0.524391,-1.5,5.71273e-38,0,0,0,-0.206328,-0.433066,0,0,0,0,-0.180918,-0.368427,18492,0,0,0,0,0,0,0,0,0,1,0.476372
8448,-0.0341797,0.158203,-4.64258,-0.00139983,-0.00143309,-0.0015247,0.0147339,-0.0293299,-2.51678,-3.69762,0.592929,-0.200858,-0.210328,-0.441207,-0.182195,-0.370657,-2.51678,0,0,180,16,180,16,307,-2,197,133,-0.000687686,0.190443,0.510798,-1.5,5.71273e-38,0,0,1,-0.210328,-0.441207,0,0,0,0,-0.182195,-0.370657,19035,0,0,0,0,0,0,0,0,0,1,0.485327
8470,-0.0341797,0.158203,-5.40527,-0.00120482,-0.00110267,-0.00183974,0.0146984,-0.0293245,-2.51685,-3.69762,0.592929,-0.200858,-0.214356,-0.449395,-0.183461,-0.372855,-2.51678,0,0,180,16,180,16,307,-2,197,133,-0.00277472,0.192338,0.53067,-1.5,5.71273e-38,0,0,2,-0.214356,-0.449395,0,0,0,0,-0.183461,-0.372855,19035,0,0,0,0,0,0,0,0,0,1,0.494334
8486,-0.0341797,0.158203,5.21582,-0.00201346,-0.00117986,-0.00191311,0.0146821,-0.0293338,-2.51688,-3.69382,0.59269,-0.206497,-0.217301,-0.455377,-0.184376,-0.374432,-2.51688,0,0,180,18,180,18,309,-2,196,133,-0.00432869,0.193716,0.555803,-1.5,5.71273e-38,0,0,2,-0.217301,-0.455377,0,0,0,0,-0.184376,-0.374432,18900,0,0,0,0,0,0,0,0,0,1,0.500914
8508,-0.0341797,0.158203,-0.618164,-0.00108314,-0.00186922,-0.00240182,0.0146493,-0.0293599,-2.51694,-3.69382,0.59269,-0.206497,-0.221377,-0.463648,-0.185626,-0.376581,-2.51691,0,0,180,18,180,18,309,-2,196,133,-0.00643982,0.195614,0.590361,-1.5,5.71273e-38,0,0,2,-0.221377,-0.463648,0,0,0,0,-0.185626,-0.376581,18900,0,0,0,0,0,0,0,0,0,1,0.510013
8529,-0.0341797,0.158203,0.681641,-0.0014837,-0.000532643,-0.00266226,0.014624,-0.0293567,-2.51697,-3.70676,0.599037,-0.19677,-0.225105,-0.471207,-0.186756,-0.37851,-2.51697,0,0,180,18,180,18,307,-2,195,131,-0.00837508,0.19734,0.621776,-1.5,5.71273e-38,0,0,2,-0.225105,-0.471207,0,0,0,0,-0.186756,-0.37851,18753,0,0,0,0,0,0,0,0,0,1,0.518328
8545,-0.0341797,0.158203,5.2002,-0.00140404,-0.000460161,-0.00277539,0.0146072,-0.0293476,-2.51701,-3.68253,0.597735,-0.210774,-0.22829,-0.477659,-0.187711,-0.380129,-2.51701,0,0,180,18,180,18,307,-2,194,133,-0.0100163,0.198808,0.646909,-1.5,5.71273e-38,0,0,2,-0.22829,-0.477659,0,0,0,0,-0.187711,-0.380129,19035,0,0,0,0,0,0,0,0,0,1,0.525425
8567,-0.0341797,0.158203,4.77148,-0.0014225,-0.00104123,-0.00188769,0.0145816,-0.0293512,-2.51707,-3.68253,0.597735,-0.210774,-0.232439,-0.486054,-0.188938,-0.382202,-2.51707,0,0,180,18,180,18,307,-2,194,133,-0.0121527,0.200709,0.681467,-1.5,5.71273e-38,0,0,2,-0.232439,-0.486054,0,0,0,0,-0.188938,-0.382202,19035,0,0,0,0,0,0,0,0,0,1,0.53466
8589,-0.0341797,0.158203,4.77148,-0.0014225,-0.00104123,-0.00188769,0.0145816,-0.0293512,-2.51707,-3.6995,0.605005,-0.204193,-0.236615,-0.494495,-0.190155,-0.38425,-2.51707,0,0,180,18,180,18,306,-2,194,133,-0.0142732,0.202613,0.716024,-1.5,5.71273e-38,0,0,2,-0.236615,-0.494495,0,0,0,0,-0.190155,-0.38425,18900,0,0,0,0,0,0,0,0,0,1,0.543945
8605,-0.0341797,0.158203,-6.93945,-0.000307674,-0.00161043,-0.00235133,0.0145262,-0.0293534,-2.51716,-3.6995,0.605005,-0.204193,-0.239666,-0.500658,-0.191032,-0.38572,-2.51713,0,0,180,18,180,18,306,-2,194,133,-0.0158395,0.203996,0.741157,-1.5,5.71273e-38,0,0,2,-0.239666,-0.500658,0,0,0,0,-0.191032,-0.38572,18900,0,0,0,0,0,0,0,0,0,1,0.550724
8627,-0.0341797,0.158203,-6.93945,-0.000307674,-0.00161043,-0.00235133,0.0145262,-0.0293534,-2.51716,-3.69791,0.595415,-0.202558,-0.243888,-0.509176,-0.192232,-0.387721,-2.51716,0,0,182,16,182,16,306,-1,194,133,-0.0179829,0.2059,0.775714,-1.5,5.71273e-38,0,0,2,-0.243888,-0.509176,0,0,0,0,-0.192232,-0.387721,18760,0,0,0,0,0,0,0,0,0,1,0.560093
8650,-0.0341797,0.158203,1.98242,-0.00176581,-0.000861082,-0.00219568,0.0145062,-0.0293581,-2.51723,-3.69531,0.597025,-0.199407,-0.248136,-0.517737,-0.193422,-0.389697,-2.51723,0,0,180,16,180,16,307,-2,195,131,-0.0201478,0.207806,0.810272,-1.5,5.71273e-38,0,0,2,-0.248136,-0.517737,0,0,0,0,-0.193422,-0.389697,18753,0,0,0,0,0,0,0,0,0,1,0.569511
8672,-0.0341797,0.158203,6.57227,-0.000739344,-0.00142364,-0.00221289,0.0144883,-0.0293699,-2.5173,-3.69531,0.597025,-0.199407,-0.252605,-0.526733,-0.194656,-0.391738,-2.5173,0,0,180,16,180,16,307,-2,195,131,-0.0224163,0.209799,0.8464,-1.5,5.71273e-38,0,0,2,-0.252605,-0.526733,0,0,0,0,-0.194656,-0.391738,18753,0,0,0,0,0,0,0,0,0,1,0.579406
8688,-0.0341797,0.158203,3.2207,-0.00212597,-0.00121537,-0.00248569,0.0144574,-0.02937,-2.51737,-3.7267,0.595749,-0.189805,-0.255728,-0.533015,-0.195508,-0.393141,-2.5173,0,0,182,16,182,16,307,-2,197,133,-0.0239781,0.211186,0.871533,-1.5,5.71273e-38,0,0,2,-0.255728,-0.533015,0,0,0,0,-0.195508,-0.393141,18630,0,0,0,0,0,0,0,0,0,1,0.586317
8709,-0.0341797,0.158203,-1.06641,0.000163063,-0.00128994,-0.00145869,0.0144573,-0.0293744,-2.5174,-3.7267,0.595749,-0.189805,-0.25985,-0.541299,-0.196619,-0.394965,-2.5174,0,0,182,16,182,16,307,-2,197,133,-0.0260699,0.213007,0.904519,-1.5,5.71273e-38,0,0,2,-0.25985,-0.541299,0,0,0,0,-0.196619,-0.394965,18630,0,0,0,0,0,0,0,0,0,1,0.595428
8733,-0.0341797,0.158203,-3.41211,-0.00115465,-0.00147672,-0.00235739,0.0144397,-0.0293828,-2.51746,-3.69266,0.601855,-0.207015,-0.264392,-0.550416,-0.197826,-0.396939,-2.5174,0,0,180,18,180,18,307,-2,194,133,-0.0283284,0.215006,0.940648,-1.5,5.71273e-38,0,0,2,-0.264392,-0.550416,0,0,0,0,-0.197826,-0.396939,18900,0,0,0,0,0,0,0,0,0,1,0.605457
8748,-0.0341797,0.158203,-0.689453,-0.00188351,-0.00197946,-0.00290383,0.0144176,-0.0293924,-2.51749,-3.65523,0.586651,-0.215007,-0.267566,-0.556781,-0.19866,-0.398294,-2.51749,0,0,180,16,180,16,309,-2,194,133,-0.0299389,0.216393,0.96578,-1.5,5.71273e-38,0,0,2,-0.267566,-0.556781,0,0,0,0,-0.19866,-0.398294,19170,0,0,0,0,0,0,0,0,0,1,0.612459
8768,-0.0341797,0.158203,4.10352,-0.000404175,-0.00109925,-0.00288285,0.0144194,-0.029393,-2.51753,-3.65523,0.586651,-0.215007,-0.271553,-0.564769,-0.199697,-0.399973,-2.51753,0,0,180,16,180,16,309,-2,194,133,-0.031926,0.218131,0.997196,-1.5,5.71273e-38,0,0,2,-0.271553,-0.564769,0,0,0,0,-0.199697,-0.399973,19170,0,0,0,0,0,0,0,0,0,1,0.621246
8790,-0.0341797,0.158203,3.97656,-0.000212949,-0.000288469,-0.00285214,0.0144169,-0.0293984,-2.51759,-3.67862,0.595181,-0.212571,-0.275965,-0.573598,-0.200827,-0.401801,-2.51759,0,0,180,18,180,18,309,-2,194,133,-0.0341263,0.220044,1.03175,-1.5,5.71273e-38,0,0,2,-0.275965,-0.573598,0,0,0,0,-0.200827,-0.401801,18900,0,0,0,0,0,0,0,0,0,1,0.630958
8806,-0.0341797,0.158203,-7.2793,0.000123279,-0.000430739,-0.00272987,0.014422,-0.029399,-2.51763,-3.67862,0.595181,-0.212571,-0.279186,-0.58004,-0.201641,-0.403117,-2.51763,0,0,180,18,180,18,309,-2,194,133,-0.0357269,0.221436,1.05689,-1.5,5.71273e-38,0,0,2,-0.279186,-0.58004,0,0,0,0,-0.201641,-0.403117,18900,0,0,0,0,0,0,0,0,0,1,0.638044
8830,-0.0341797,0.158203,-5.87891,-0.00203512,-0.000313804,-0.00412313,0.0143982,-0.0293976,-2.51771,-3.69468,0.588513,-0.204614,-0.284047,-0.589749,-0.202852,-0.405074,-2.51771,0,0,182,16,182,16,307,-2,196,133,-0.0381451,0.223524,1.09459,-1.5,5.71273e-38,0,0,2,-0.284047,-0.589749,0,0,0,0,-0.202852,-0.405074,18900,0,0,0,0,0,0,0,0,0,1,0.648724
8852,-0.0341797,0.158203,5.52734,-0.00150971,-0.000575781,-0.0021569,0.0143859,-0.0293902,-2.51773,-3.67583,0.587624,-0.207244,-0.288527,-0.598688,-0.203952,-0.406842,-2.51773,0,0,182,15,182,15,309,-2,194,133,-0.0403492,0.22544,1.12914,-1.5,5.71273e-38,0,0,2,-0.288527,-0.598688,0,0,0,0,-0.203952,-0.406842,18765,0,0,0,0,0,0,0,0,0,1,0.658557
8868,-0.0341797,0.158203,5.89648,-0.0012182,-0.000530346,-0.00225785,0.0143664,-0.0293968,-2.5178,-3.67583,0.587624,-0.207244,-0.291798,-0.605211,-0.204744,-0.408111,-2.51776,0,0,182,15,182,15,309,-2,194,133,-0.0419581,0.226833,1.15428,-1.5,5.71273e-38,0,0,2,-0.291798,-0.605211,0,0,0,0,-0.204744,-0.408111,18765,0,0,0,0,0,0,0,0,0,1,0.665732
8890,-0.0341797,0.158203,5.89648,-0.0012182,-0.000530346,-0.00225785,0.0143664,-0.0293968,-2.5178,-3.69067,0.590736,-0.210038,-0.29632,-0.614217,-0.205826,-0.409842,-2.5178,0,0,182,19,182,19,309,-2,194,133,-0.0441756,0.228751,1.18883,-1.5,5.71273e-38,0,0,2,-0.29632,-0.614217,0,0,0,0,-0.205826,-0.409842,18765,0,0,0,0,0,0,0,0,0,1,0.675638
8913,-0.0341797,0.158203,-7.15234,-0.000969145,-0.000738631,-0.00229599,0.0143353,-0.0293879,-2.51788,-3.71663,0.605242,-0.189094,-0.301072,-0.623672,-0.206946,-0.411628,-2.51788,0,0,180,16,180,16,306,-2,195,131,-0.0465169,0.230754,1.22496,-1.5,5.71273e-38,0,0,2,-0.301072,-0.623672,0,0,0,0,-0.206946,-0.411628,18620,0,0,0,0,0,0,0,0,0,1,0.68604
8928,-0.0341797,0.158203,1.0166,-0.00219662,-0.00124179,-0.00341703,0.0143195,-0.0293926,-2.51792,-3.71663,0.605242,-0.189094,-0.304183,-0.629858,-0.207671,-0.412777,-2.51792,0,0,180,16,180,16,306,-2,195,131,-0.0480428,0.23206,1.24852,-1.5,5.71273e-38,0,0,2,-0.304183,-0.629858,0,0,0,0,-0.207671,-0.412777,18620,0,0,0,0,0,0,0,0,0,1,0.692843
8951,-0.0341797,0.158203,-6.66211,-0.000240608,-0.00084604,-0.00324313,0.0143201,-0.0293988,-2.51797,-3.71927,0.6059,-0.190385,-0.308769,-0.638965,-0.208729,-0.414446,-2.51797,0,0,182,15,182,15,307,-2,194,133,-0.0502802,0.233979,1.28308,-1.5,5.71273e-38,0,0,2,-0.308769,-0.638965,0,0,0,0,-0.208729,-0.414446,18360,0,0,0,0,0,0,0,0,0,1,0.702862
8973,-0.0341797,0.158203,-2.80566,-0.000544003,-0.00153307,-0.00239399,0.0143082,-0.029411,-2.51803,-3.71927,0.6059,-0.190385,-0.313588,-0.648526,-0.209824,-0.416172,-2.51803,0,0,182,15,182,15,307,-2,194,133,-0.0526295,0.235985,1.31921,-1.5,5.71273e-38,0,0,2,-0.313588,-0.648526,0,0,0,0,-0.209824,-0.416172,18360,0,0,0,0,0,0,0,0,0,1,0.713379
8988,-0.0341797,0.158203,-2.80566,-0.000544003,-0.00153307,-0.00239399,0.0143082,-0.029411,-2.51803,-3.73785,0.599805,-0.180804,-0.316742,-0.65478,-0.210533,-0.417285,-2.51803,0,0,183,16,183,16,307,-2,195,131,-0.054148,0.237296,1.34277,-1.5,5.71273e-38,0,0,2,-0.316742,-0.65478,0,0,0,0,-0.210533,-0.417285,18221,0,0,0,0,0,0,0,0,0,1,0.720258
9008,-0.0341797,0.158203,-3.10254,-0.000990017,-0.000158515,-0.00152097,0.0142716,-0.0293863,-2.51813,-3.73785,0.599805,-0.180804,-0.320966,-0.663146,-0.21147,-0.418758,-2.51803,0,0,183,16,183,16,307,-2,195,131,-0.0561778,0.239045,1.37419,-1.5,5.71273e-38,0,0,2,-0.320966,-0.663146,0,0,0,0,-0.21147,-0.418758,18221,0,0,0,0,0,0,0,0,0,1,0.729461
9031,-0.0341797,0.158203,3.37891,-0.000637947,-0.000299125,-0.00153626,0.0142665,-0.0293816,-2.51816,-3.71475,0.600262,-0.189995,-0.325634,-0.672384,-0.212492,-0.420351,-2.51816,0,0,183,13,183,13,306,-1,194,133,-0.058467,0.240961,1.40875,-1.5,5.71273e-38,0,0,2,-0.325634,-0.672384,0,0,0,0,-0.212492,-0.420351,18358,0,0,0,0,0,0,0,0,0,1,0.739622
9047,-0.0341797,0.158203,-4.75977,-0.00178395,-0.000734884,-0.00283317,0.0142581,-0.0293774,-2.51819,-3.65678,0.584308,-0.212504,-0.329042,-0.679122,-0.213228,-0.421496,-2.51819,0,0,181,13,181,13,309,-1,194,133,-0.060112,0.242357,1.43388,-1.5,5.71273e-38,0,0,2,-0.329042,-0.679122,0,0,0,0,-0.213228,-0.421496,18894,0,0,0,0,0,0,0,0,0,1,0.747034
9069,-0.0341797,0.158203,4.22852,0.000304423,-0.000150402,-0.00188392,0.0142344,-0.0293875,-2.51828,-3.65678,0.584308,-0.212504,-0.333963,-0.688843,-0.214278,-0.423126,-2.51828,0,0,181,13,181,13,309,-1,194,133,-0.0624943,0.244363,1.47001,-1.5,5.71273e-38,0,0,2,-0.333963,-0.688843,0,0,0,0,-0.214278,-0.423126,18894,0,0,0,0,0,0,0,0,0,1,0.757727
9121,-0.0341797,0.158203,-2.66504,-0.000344883,0.000506583,-0.00282529,0.0142024,-0.0293785,-2.51841,-3.71164,0.59857,-0.200285,-0.345211,-0.711008,-0.216633,-0.42676,-2.51841,0,0,180,18,180,18,306,-2,197,133,-0.0678925,0.248921,1.55169,-1.5,5.71273e-38,0,0,2,-0.345211,-0.711008,0,0,0,0,-0.216633,-0.42676,19035,0,0,0,0,0,0,0,0,0,1,0.782109
9137,-0.0341797,0.158203,0.232422,5.46987e-06,-0.000283477,-0.00201999,0.0141996,-0.0293706,-2.51843,-3.71164,0.59857,-0.200285,-0.348685,-0.717848,-0.217342,-0.427845,-2.51843,0,0,180,18,180,18,306,-2,197,133,-0.0695471,0.250319,1.57682,-1.5,5.71273e-38,0,0,2,-0.348685,-0.717848,0,0,0,0,-0.217342,-0.427845,19035,0,0,0,0,0,0,0,0,0,1,0.789633
9164,-0.0341797,0.141602,-4.56055,-0.00175094,-0.00101021,-0.00300501,0.0141624,-0.0293659,-2.51852,-3.71219,0.594221,-0.200182,-0.354358,-0.729006,-0.218483,-0.429591,-2.51852,0,0,180,18,180,18,307,-2,198,133,-0.0722652,0.25259,1.61766,-1.5,5.71273e-38,0,0,2,-0.354358,-0.729006,0,0,0,0,-0.218483,-0.429591,19035,0,0,0,0,0,0,0,0,0,1,0.801907
9186,-0.0341797,0.108398,2.63672,-0.00329004,0.000322353,-0.00202772,0.0141373,-0.0293648,-2.51855,-3.72444,0.59818,-0.190786,-0.3594,-0.738911,-0.219485,-0.431107,-2.51855,0,0,182,16,182,16,309,-2,196,133,-0.0746516,0.254602,1.65379,-1.5,5.71273e-38,0,0,2,-0.3594,-0.738911,0,0,0,0,-0.219485,-0.431107,18360,0,0,0,0,0,0,0,0,0,1,0.812803
9202,-0.0341797,0.123047,-1.02832,-0.00205199,-0.00152694,-0.00240664,0.0141165,-0.0293604,-2.51862,-3.72444,0.59818,-0.190786,-0.362918,-0.74582,-0.220175,-0.432148,-2.51855,0,0,182,16,182,16,309,-2,196,133,-0.076305,0.256002,1.67892,-1.5,5.71273e-38,0,0,2,-0.362918,-0.74582,0,0,0,0,-0.220175,-0.432148,18360,0,0,0,0,0,0,0,0,0,1,0.820402
9223,-0.0341797,0.123047,-1.02832,-0.00205199,-0.00152694,-0.00240664,0.0141165,-0.0293604,-2.51862,-3.71198,0.611864,-0.195408,-0.367556,-0.754915,-0.221077,-0.433498,-2.51862,0,0,180,16,180,16,306,-2,194,133,-0.0785103,0.257836,1.71191,-1.5,5.71273e-38,0,0,2,-0.367556,-0.754915,0,0,0,0,-0.221077,-0.433498,18630,0,0,0,0,0,0,0,0,0,1,0.830407
9246,-0.0341797,0.176758,6.36523,-0.00148315,-0.00156655,-0.00293276,0.0140836,-0.0293795,-2.51875,-3.6699,0.585357,-0.218529,-0.372657,-0.76491,-0.222055,-0.434961,-2.51875,0,0,180,18,180,18,309,-2,196,133,-0.0809527,0.259841,1.74804,-1.5,5.71273e-38,0,0,2,-0.372657,-0.76491,0,0,0,0,-0.222055,-0.434961,19170,0,0,0,0,0,0,0,0,0,1,0.841401
9261,-0.0341797,0.176758,-5.02051,-0.00251578,-0.00129969,-0.00255728,0.0140717,-0.0293833,-2.51878,-3.6699,0.585357,-0.218529,-0.375994,-0.771443,-0.222691,-0.435902,-2.51878,0,0,180,18,180,18,309,-2,196,133,-0.0825239,0.261153,1.7716,-1.5,5.71273e-38,0,0,2,-0.375994,-0.771443,0,0,0,0,-0.222691,-0.435902,19170,0,0,0,0,0,0,0,0,0,1,0.848588
9282,-0.0341797,0.176758,0.37207,-0.00144912,-3.2043e-05,-0.00233747,0.0140574,-0.0293827,-2.51882,-3.70755,0.597804,-0.19765,-0.380683,-0.780616,-0.223577,-0.437207,-2.51882,0,0,180,16,180,16,307,-2,197,133,-0.0847234,0.262992,1.80459,-1.5,5.71273e-38,0,0,2,-0.380683,-0.780616,0,0,0,0,-0.223577,-0.437207,18900,0,0,0,0,0,0,0,0,0,1,0.858678
9304,-0.0341797,0.154297,0.545898,-0.000501867,-0.00125173,-0.00333253,0.0140392,-0.0293741,-2.51889,-3.70755,0.597804,-0.19765,-0.385616,-0.790255,-0.224497,-0.438557,-2.51889,0,0,180,16,180,16,307,-2,197,133,-0.08705,0.264915,1.83915,-1.5,5.71273e-38,0,0,2,-0.385616,-0.790255,0,0,0,0,-0.224497,-0.438557,18900,0,0,0,0,0,0,0,0,0,1,0.869281
9320,-0.0341797,0.121094,-4.4502,-0.00074936,0.000172971,-0.00277102,0.0140284,-0.0293686,-2.51892,-3.7088,0.598118,-0.196695,-0.389214,-0.797282,-0.225159,-0.439525,-2.51892,0,0,183,16,183,16,306,-2,194,133,-0.0887337,0.266315,1.86428,-1.5,5.71273e-38,0,0,2,-0.389214,-0.797282,0,0,0,0,-0.225159,-0.439525,18630,0,0,0,0,0,0,0,0,0,1,0.87701
9342,-0.0341797,0.0546875,-7.35156,-0.00182265,-0.00142178,-0.0032179,0.014021,-0.0293878,-2.51901,-3.7088,0.598118,-0.196695,-0.394182,-0.806972,-0.226064,-0.440844,-2.51901,0,0,183,16,183,16,306,-2,194,133,-0.0910735,0.268237,1.89884,-1.5,5.71273e-38,0,0,2,-0.394182,-0.806972,0,0,0,0,-0.226064,-0.440844,18630,0,0,0,0,0,0,0,0,0,1,0.887669
9370,-0.0341797,0.0185547,0.547852,-0.000339782,-3.61216e-05,-0.00375364,0.0140195,-0.0293715,-2.5191,-3.70097,0.589991,-0.197843,-0.400535,-0.81935,-0.227207,-0.442503,-2.5191,0,0,182,15,182,15,309,-2,196,133,-0.0940471,0.270688,1.94282,-1.5,5.71273e-38,0,0,2,-0.400535,-0.81935,0,0,0,0,-0.227207,-0.442503,18630,0,0,0,0,0,0,0,0,0,1,0.901285
9386,-0.0341797,0.0517578,-7.32812,-0.00125409,-0.000222018,-0.00144335,0.0140061,-0.029367,-2.51912,-3.70945,0.600472,-0.194526,-0.404178,-0.82644,-0.227851,-0.443437,-2.51912,0,0,180,16,180,16,309,-2,196,133,-0.0957348,0.27209,1.96795,-1.5,5.71273e-38,0,0,2,-0.404178,-0.82644,0,0,0,0,-0.227851,-0.443437,18630,0,0,0,0,0,0,0,0,0,1,0.909084
9408,-0.0341797,0.118164,6.05371,-0.0015795,-0.000809493,-0.00106128,0.0139819,-0.0293673,-2.51916,-3.70945,0.600472,-0.194526,-0.409204,-0.836216,-0.22873,-0.444707,-2.51914,0,0,180,16,180,16,309,-2,196,133,-0.0980601,0.274018,2.00251,-1.5,5.71273e-38,0,0,2,-0.409204,-0.836216,0,0,0,0,-0.22873,-0.444707,18630,0,0,0,0,0,0,0,0,0,1,0.919837
9430,-0.0341797,0.151367,-7.24609,-0.00159016,-0.000697496,-0.0024079,0.0139703,-0.0293665,-2.51919,-3.70481,0.595601,-0.202973,-0.41425,-0.846019,-0.229602,-0.445959,-2.51919,0,0,180,18,180,18,307,-2,197,133,-0.100399,0.275945,2.03707,-1.5,5.71273e-38,0,0,2,-0.41425,-0.846019,0,0,0,0,-0.229602,-0.445959,19035,0,0,0,0,0,0,0,0,0,1,0.930621
9447,-0.0341797,0.165039,1.91309,-0.000432369,7.74408e-05,-0.00250319,0.0139644,-0.0293595,-2.51923,-3.70664,0.5933,-0.199587,-0.418161,-0.853611,-0.230269,-0.446914,-2.51923,0,0,183,16,183,16,309,-1,194,133,-0.102209,0.277433,2.06377,-1.5,5.71273e-38,0,0,2,-0.418161,-0.853611,0,0,0,0,-0.230269,-0.446914,18358,0,0,0,0,0,0,0,0,0,1,0.938972
9468,-0.0341797,0.165039,1.91309,-0.000432369,7.74408e-05,-0.00250319,0.0139644,-0.0293595,-2.51923,-3.70664,0.5933,-0.199587,-0.423009,-0.863014,-0.231087,-0.448083,-2.51923,0,0,183,16,183,16,309,-1,194,133,-0.104428,0.279277,2.09676,-1.5,5.71273e-38,0,0,2,-0.423009,-0.863014,0,0,0,0,-0.231087,-0.448083,18358,0,0,0,0,0,0,0,0,0,1,0.949315
9491,-0.0341797,0.165039,4.65234,-7.607e-06,9.49743e-05,-0.0025567,0.0139512,-0.0293436,-2.51935,-3.70596,0.601932,-0.193328,-0.428338,-0.873341,-0.231972,-0.449349,-2.51923,0,0,180,16,180,16,306,-2,195,131,-0.106864,0.281297,2.13289,-1.5,5.71273e-38,0,0,2,-0.428338,-0.873341,0,0,0,0,-0.231972,-0.449349,18753,0,0,0,0,0,0,0,0,0,1,0.960675
9506,-0.0341797,0.165039,-6.25977,-0.00103613,-0.000983123,-0.00342462,0.0139534,-0.029352,-2.51939,-3.70596,0.601932,-0.193328,-0.431823,-0.880089,-0.232544,-0.450163,-2.51939,0,0,180,16,180,16,306,-2,195,131,-0.10853,0.282595,2.15645,-1.5,5.71273e-38,0,0,2,-0.431823,-0.880089,0,0,0,0,-0.232544,-0.450163,18753,0,0,0,0,0,0,0,0,0,1,0.968098
9527,-0.0341797,0.165039,-6.25977,-0.00103613,-0.000983123,-0.00342462,0.0139534,-0.029352,-2.51939,-3.71709,0.599514,-0.195448,-0.436485,-0.889107,-0.2333,-0.45124,-2.51939,0,0,183,16,183,16,306,-1,194,133,-0.110654,0.284352,2.18786,-1.5,5.71273e-38,0,0,2,-0.436485,-0.889107,0,0,0,0,-0.2333,-0.45124,18492,0,0,0,0,0,0,0,0,0,1,0.978018
9549,-0.0341797,0.165039,5.15234,0.000651868,-0.00127016,-0.00163518,0.01395,-0.029371,-2.51949,-3.69325,0.60228,-0.204796,-0.441865,-0.899506,-0.234163,-0.452466,-2.51949,0,0,180,16,180,16,307,-1,194,133,-0.113147,0.286361,2.22399,-1.5,5.71273e-38,0,0,2,-0.441865,-0.899506,0,0,0,0,-0.234163,-0.452466,18760,0,0,0,0,0,0,0,0,0,1,0.989456
9564,-0.0341797,0.165039,3.81055,-0.00172651,-0.000701807,-0.00271986,0.0139268,-0.0293724,-2.51952,-3.69325,0.60228,-0.204796,-0.445383,-0.9063,-0.234722,-0.453258,-2.51952,0,0,180,16,180,16,307,-1,194,133,-0.114759,0.287675,2.24756,-1.5,5.71273e-38,0,0,2,-0.445383,-0.9063,0,0,0,0,-0.234722,-0.453258,18760,0,0,0,0,0,0,0,0,0,1,0.99693
9586,-0.0341797,0.165039,2.83984,-0.000591377,-0.000272432,-0.0019765,0.0139329,-0.0293755,-2.51954,-3.69178,0.604432,-0.203405,-0.45056,-0.91629,-0.235538,-0.454407,-2.51954,0,0,180,16,180,16,306,-2,194,133,-0.115507,0.288453,2.28211,-1.5,5.71273e-38,0,0,2,-0.45056,-0.91629,0,0,0,0,-0.235538,-0.454407,18900,0,0,0,0,0,0,0,0,0,1,1
9608,-0.0341797,0.165039,-3.40039,-0.000695084,-0.00150315,-0.00313974,0.0139062,-0.029368,-2.51962,-3.69178,0.604432,-0.203405,-0.455754,-0.926305,-0.236346,-0.455543,-2.51962,0,0,180,16,180,16,306,-2,194,133,-0.115653,0.288774,2.31667,-1.5,5.71273e-38,0,0,2,-0.455754,-0.926305,0,0,0,0,-0.236346,-0.455543,18900,0,0,0,0,0,0,0,0,0,1,1
