timestamp,A_x,A_y,A_z,P,Q,R,Phi,Theta,Psi,poseX,poseY,poseZ,state_X,state_Y,state_Z,state_VzB,state_Bx,state_By,state_Bz,p1_x,p1_y,p2_x,p2_y,p3_x,p3_y,p4_x,p4_y,roll,pitch,yaw,alt,targetHeading,highLevelState,lowLevelState,gateNumber,filtered_x,filtered_y,x_OT,y_OT,vx_OT,vy_OT,filtered_vx,filtered_vygateArearansac_corr_x,ransac_corr_y,ransac_corr_vx,ransac_corr_vy,detectionTimeStamppTermX,dTermX,pTermY,dTermY,vxcmd,vycmd
6448,-0.624023,0,0.189453,-0.00282719,0.000738169,-0.000268908,0.0674543,0.00170449,-0.923964,0,0,0,1.70091e-05,1.37029e-05,0.00360918,0.00290477,-0.923907,0,0,0,0,0,0,0,0,0,0,0.298074,-0.400501,0.00469354,-1.5,3.28145e-38,0,0,1,1.70091e-05,1.37029e-05,0,0,0,0,0.00360918,0.00290477,1.9603e-19,0,0,0,0,0,0,0,0,0,1.5,-2.74057e-05
6463,-0.612305,0,6.81543,-0.00073638,-0.000131904,-5.77335e-05,0.0678383,0.00132551,-0.924266,0,0,0,0.000142439,0.000114065,0.0113632,0.00906892,-0.924172,0,0,0,0,0,0,0,0,0,0,0.295628,-0.400524,0.0171752,-1.5,3.28145e-38,0,0,2,0.000142439,0.000114065,0,0,0,0,0.0113632,0.00906892,1.9603e-19,0,0,0,0,0,0,0,0,0,1.5,-0.000228129
6478,-0.449219,0,6.83398,-0.325741,-0.033598,-0.538242,0.0350342,0.00187902,-0.960867,0,0,0,0.000384394,0.000306303,0.0191344,0.015164,-0.924353,0,0,0,0,0,0,0,0,0,0,0.293143,-0.400593,0.0280895,-1.5,3.28145e-38,0,0,3,0.000384394,0.000306303,0,0,0,0,0.0191344,0.015164,1.9603e-19,0,0,0,0,0,0,0,0,0,1.5,-0.000612607
6495,0.21875,-0.3125,-0.680664,-0.328906,-0.13689,0.593781,-0.0685705,0.0431213,-0.904426,0,0,0,0.000772474,0.000622524,0.0170546,0.0156336,-1.04161,0,0,0,0,0,0,0,0,0,0,0.317896,-0.365246,0.0186026,-1.5,3.28145e-38,0,0,0,0.000772474,0.000622524,0,0,0,0,0.0170546,0.0156336,1.9603e-19,0,0,0,0,0,0,0,0,0,1.5,-0.00124505
6511,0.413086,-0.189453,4.7998,-0.00808149,0.0577335,0.260564,-0.0692092,0.0439643,-0.89983,0,0,0,0.000914943,0.000857932,0.00423464,0.0141857,-0.89983,0,0,0,0,0,0,0,0,0,0,0.290407,-0.410053,0.0229624,-1.5,3.28145e-38,0,0,1,0.000914943,0.000857932,0,0,0,0,0.00423464,0.0141857,1.9603e-19,0,0,0,0,0,0,0,0,0,1.5,-0.00171586
6527,0.213867,-0.235352,-5.23242,0.18939,0.0433933,-0.627407,-0.0618376,0.0436555,-0.910018,0,0,0,0.000862747,0.00105825,-0.00763361,0.0129951,-0.901759,0,0,0,0,0,0,0,0,0,0,0.293311,-0.411178,0.0369637,-1.5,3.28145e-38,0,0,2,0.000862747,0.00105825,0,0,0,0,-0.00763361,0.0129951,1.9603e-19,0,0,0,0,0,0,0,0,0,1.5,-0.0021165
6542,0.0712891,-0.113281,-5.26953,0.205644,0.0854247,-0.955782,-0.0602453,0.0444552,-0.922144,0,0,0,0.000612237,0.00125659,-0.0197015,0.0121783,-0.910018,0,0,0,0,0,0,0,0,0,0,0.297702,-0.410517,0.0524861,-1.5,3.28145e-38,0,0,3,0.000612237,0.00125659,0,0,0,0,-0.0197015,0.0121783,1.9603e-19,0,0,0,0,0,0,0,0,0,1.5,-0.00251319
6558,0.336914,-0.28418,-0.513672,0.400545,0.17439,-1.29029,-0.0558878,0.0452927,-0.939101,0,0,0,0.000175209,0.00144912,-0.0312375,0.0120292,-0.939101,0,0,0,0,0,0,0,0,0,0,0.306734,-0.40351,0.0429016,-1.5,3.28145e-38,0,0,0,0.000175209,0.00144912,0,0,0,0,-0.0312375,0.0120292,1.9603e-19,0,0,0,0,0,0,0,0,0,1.5,-0.00289825
6574,0.352539,-0.157227,5.4248,0.665996,0.304483,-1.50764,-0.0481272,0.0482347,-0.960083,0,0,0,-0.000436622,0.00164738,-0.0420875,0.0128285,-0.960083,0,0,0,0,0,0,0,0,0,0,0.313523,-0.398825,0.0468253,-1.5,3.28145e-38,0,0,1,-0.000436622,0.00164738,0,0,0,0,-0.0420875,0.0128285,1.9603e-19,0,0,0,0,0,0,0,0,0,1.5,-0.00329476
6590,0.213867,-0.192383,0.24707,0.765413,0.322884,-1.62851,-0.0388524,0.051868,-0.982076,0,0,0,-0.00121279,0.00187302,-0.0519473,0.0151713,-0.982076,0,0,0,0,0,0,0,0,0,0,0.320044,-0.393826,0.0622957,-1.5,3.28145e-38,0,0,2,-0.00121279,0.00187302,0,0,0,0,-0.0519473,0.0151713,1.9603e-19,0,0,0,0,0,0,0,0,0,1.5,-0.00374604
6605,-0.113281,-0.447266,-4.0498,0.496931,0.124078,-1.72186,-0.0318481,0.0532989,-1.00624,0,0,0,-0.00207419,0.00213177,-0.0602426,0.0186145,-1.00624,0,0,0,0,0,0,0,0,0,0,0.326474,-0.387974,0.0761523,-1.5,3.28145e-38,0,0,3,-0.00207419,0.00213177,0,0,0,0,-0.0602426,0.0186145,1.9603e-19,0,0,0,0,0,0,0,0,0,1.5,-0.00426354
6621,-0.416992,-0.287109,-5.55469,-0.102571,-0.029426,-1.67111,-0.0333221,0.0522965,-1.02973,0,0,0,-0.00312227,0.00247288,-0.0684987,0.0228459,-1.02973,0,0,0,0,0,0,0,0,0,0,0.332535,-0.382364,0.0679074,-1.5,3.28145e-38,0,0,0,-0.00312227,0.00247288,0,0,0,0,-0.0684987,0.0228459,1.9603e-19,0,0,0,0,0,0,0,0,0,1.5,-0.00494577
6637,0.230469,-0.00488281,-0.443359,-0.027609,0.0493233,-1.45579,-0.0371294,0.0507798,-1.07277,0,0,0,-0.00430478,0.00288194,-0.0767689,0.0269339,-1.05182,0,0,0,0,0,0,0,0,0,0,0.338234,-0.377058,0.0696826,-1.5,3.28145e-38,0,0,1,-0.00430478,0.00288194,0,0,0,0,-0.0767689,0.0269339,1.9603e-19,0,0,0,0,0,0,0,0,0,1.5,-0.00576388
6673,2.4043,0.738281,3.17578,-0.288118,-0.00846829,1.22707,-0.0444829,0.0467482,-1.06155,0,0,0,-0.00760298,0.0041006,-0.0958192,0.0352732,-1.06155,0,0,0,0,0,0,0,0,0,0,0.343033,-0.378433,0.113223,-1.5,3.28145e-38,0,0,2,-0.00760298,0.0041006,0,0,0,0,-0.0958192,0.0352732,1.9603e-19,0,0,0,0,0,0,0,0,0,1.5,-0.00820121
6686,1.31738,0.0322266,-4.81641,0.156502,0.0505788,1.60856,-0.0424604,0.0484117,-1.03963,0,0,0,-0.00890746,0.00457745,-0.103081,0.0375687,-1.03963,0,0,0,0,0,0,0,0,0,0,0.339635,-0.38752,0.123747,-1.5,3.28145e-38,0,0,3,-0.00890746,0.00457745,0,0,0,0,-0.103081,0.0375687,1.9603e-19,0,0,0,0,0,0,0,0,0,1.5,-0.0091549
6718,-0.491211,-0.642578,-6.61426,-0.160072,-0.0544261,1.21141,-0.0350138,0.0542858,-0.980004,0,0,0,-0.0126527,0.00592804,-0.120592,0.0437727,-0.99748,0,0,0,0,0,0,0,0,0,0,0.332824,-0.405889,0.0888449,-1.5,3.28145e-38,0,0,0,-0.0126527,0.00592804,0,0,0,0,-0.120592,0.0437727,1.9603e-19,0,0,0,0,0,0,0,0,0,1.5,-0.0118561
6733,-0.271484,-0.331055,-2.46484,-0.133278,-0.0602227,0.979731,-0.0362785,0.0540263,-0.966202,0,0,0,-0.0144057,0.0065708,-0.127917,0.0470958,-0.980004,0,0,0,0,0,0,0,0,0,0,0.329608,-0.413647,0.0905567,-1.5,3.28145e-38,0,0,1,-0.0144057,0.0065708,0,0,0,0,-0.127917,0.0470958,1.9603e-19,0,0,0,0,0,0,0,0,0,1.5,-0.0131416
6748,0.00390625,-0.520508,6.45996,-0.0618501,-0.0593623,0.564961,-0.0367769,0.0536249,-0.957021,0,0,0,-0.0165409,0.00736222,-0.136392,0.0506278,-0.966202,0,0,0,0,0,0,0,0,0,0,0.327291,-0.420429,0.105852,-1.5,3.28145e-38,0,0,2,-0.0165409,0.00736222,0,0,0,0,-0.136392,0.0506278,1.9603e-19,0,0,0,0,0,0,0,0,0,1.5,-0.0147244
6764,0,-0.769531,1.12402,0.00597664,-0.0734824,0.00713329,-0.0365688,0.0527732,-0.955951,0,0,0,-0.0188128,0.00820721,-0.144922,0.0538928,-0.955951,0,0,0,0,0,0,0,0,0,0,0.32578,-0.426013,0.121099,-1.5,3.28145e-38,0,0,3,-0.0188128,0.00820721,0,0,0,0,-0.144922,0.0538928,1.9603e-19,0,0,0,0,0,0,0,0,0,1.5,-0.0164144
6780,-0.0507812,-0.666016,-1.33691,-0.14303,-0.120349,-0.255216,-0.0381551,0.0511792,-0.95937,0,0,0,-0.0212174,0.00910035,-0.153348,0.0568557,-0.95937,0,0,0,0,0,0,0,0,0,0,0.327681,-0.427079,0.114375,-1.5,3.28145e-38,0,0,0,-0.0212174,0.00910035,0,0,0,0,-0.153348,0.0568557,1.9603e-19,0,0,0,0,0,0,0,0,0,1.5,-0.0182007
6796,0.388672,-0.365234,-0.259766,-0.348156,-0.20004,-0.0577523,-0.043472,0.0483367,-0.96075,0,0,0,-0.02376,0.0100375,-0.161906,0.0592703,-0.96075,0,0,0,0,0,0,0,0,0,0,0.329169,-0.428731,0.115224,-1.5,3.28145e-38,0,0,1,-0.02376,0.0100375,0,0,0,0,-0.161906,0.0592703,1.9603e-19,0,0,0,0,0,0,0,0,0,1.5,-0.0200749
6812,0.388672,-0.365234,-0.259766,-0.348156,-0.20004,-0.0577523,-0.043472,0.0483367,-0.96075,0,0,0,-0.0264398,0.011005,-0.170667,0.0611499,-0.96075,0,0,0,0,0,0,0,0,0,0,0.330418,-0.430768,0.130421,-1.5,3.28145e-38,0,0,2,-0.0264398,0.011005,0,0,0,0,-0.170667,0.0611499,1.9603e-19,0,0,0,0,0,0,0,0,0,1.5,-0.0220099
6829,0.0830078,-0.47168,3.06543,0.055099,0.0568899,0.120617,-0.0447194,0.0484807,-0.95417,0,0,0,-0.0294434,0.0120656,-0.180004,0.0629756,-0.956157,0,0,0,0,0,0,0,0,0,0,0.330575,-0.434435,0.14714,-1.5,3.28145e-38,0,0,3,-0.0294434,0.0120656,0,0,0,0,-0.180004,0.0629756,1.9603e-19,0,0,0,0,0,0,0,0,0,1.5,-0.0241312
6844,-0.0898438,-0.888672,-4.71777,0.086803,0.0512865,-0.125718,-0.0435636,0.0491804,-0.95522,0,0,0,-0.0322237,0.0130243,-0.188287,0.0644766,-0.95417,0,0,0,0,0,0,0,0,0,0,0.331253,-0.436986,0.138742,-1.5,3.28145e-38,0,0,0,-0.0322237,0.0130243,0,0,0,0,-0.188287,0.0644766,1.9603e-19,0,0,0,0,0,0,0,0,0,1.5,-0.0260486
6860,0.0195312,-0.522461,6.33984,0.118863,0.095734,-0.404637,-0.0423149,0.0500601,-0.960427,0,0,0,-0.0353282,0.0140741,-0.197003,0.0662616,-0.95522,0,0,0,0,0,0,0,0,0,0,0.332747,-0.438689,0.139105,-1.5,3.28145e-38,0,0,1,-0.0353282,0.0140741,0,0,0,0,-0.197003,0.0662616,1.9603e-19,0,0,0,0,0,0,0,0,0,1.5,-0.0281483
6877,0.213867,-0.268555,5.72363,0.213661,0.105746,-0.499887,-0.0399969,0.051225,-0.96731,0,0,0,-0.03878,0.0152269,-0.205998,0.0686537,-0.96731,0,0,0,0,0,0,0,0,0,0,0.337102,-0.43689,0.155771,-1.5,3.28145e-38,0,0,2,-0.03878,0.0152269,0,0,0,0,-0.205998,0.0686537,1.9603e-19,0,0,0,0,0,0,0,0,0,1.5,-0.0304538
6893,0.56543,-0.0458984,-6.7041,0.238787,0.106349,-0.34715,-0.0368902,0.0523242,-0.972938,0,0,0,-0.0421593,0.0163524,-0.214093,0.0714184,-0.972938,0,0,0,0,0,0,0,0,0,0,0.339541,-0.437164,0.170824,-1.5,3.28145e-38,0,0,3,-0.0421593,0.0163524,0,0,0,0,-0.214093,0.0714184,1.9603e-19,0,0,0,0,0,0,0,0,0,1.5,-0.0327049
6908,0.632812,0.0371094,-2.56738,0.207871,0.170655,-0.0565321,-0.0341655,0.0543724,-0.974318,0,0,0,-0.0454396,0.0174513,-0.221381,0.0744668,-0.974318,0,0,0,0,0,0,0,0,0,0,0.340674,-0.438804,0.165466,-1.5,3.28145e-38,0,0,0,-0.0454396,0.0174513,0,0,0,0,-0.221381,0.0744668,1.9603e-19,0,0,0,0,0,0,0,0,0,1.5,-0.0349027
6924,0.473633,-0.112305,6.3457,0.176109,0.196585,0.117482,-0.0310201,0.0571606,-0.973087,0,0,0,-0.0490617,0.0186806,-0.228949,0.0782081,-0.973087,0,0,0,0,0,0,0,0,0,0,0.34104,-0.441569,0.165296,-1.5,3.28145e-38,0,0,1,-0.0490617,0.0186806,0,0,0,0,-0.228949,0.0782081,1.9603e-19,0,0,0,0,0,0,0,0,0,1.5,-0.0373612
6940,0.244141,-0.0507812,-4.98828,-0.0627569,0.648585,0.306713,-0.031758,0.0708395,-0.966059,0,0,0,-0.0528005,0.0199738,-0.236364,0.0823134,-0.973087,0,0,0,0,0,0,0,0,0,0,0.341631,-0.443995,0.180293,-1.5,3.28145e-38,0,0,2,-0.0528005,0.0199738,0,0,0,0,-0.236364,0.0823134,1.9603e-19,0,0,0,0,0,0,0,0,0,1.5,-0.0399476
6957,0.422852,-0.488281,6.46191,-0.0576383,0.664462,0.349469,-0.032407,0.0805709,-0.96135,0,0,0,-0.0566631,0.0213378,-0.244402,0.0872081,-0.966059,0,0,0,0,0,0,0,0,0,0,0.340297,-0.4491,0.195242,-1.5,3.28145e-38,0,0,3,-0.0566631,0.0213378,0,0,0,0,-0.244402,0.0872081,1.9603e-19,0,0,0,0,0,0,0,0,0,1.5,-0.0426756
6972,0.161133,-0.961914,4.03027,-0.0439438,0.475715,0.300383,-0.0325366,0.0876844,-0.957397,0,0,0,-0.0606752,0.022805,-0.254134,0.0941359,-0.957397,0,0,0,0,0,0,0,0,0,0,0.336676,-0.454187,0.185087,-1.5,3.28145e-38,0,0,0,-0.0606752,0.022805,0,0,0,0,-0.254134,0.0941359,1.9603e-19,0,0,0,0,0,0,0,0,0,1.5,-0.0456101
6989,0.00878906,-1.01562,-1.97754,-0.0191483,0.237867,0.217268,-0.0326402,0.0916745,-0.954255,0,0,0,-0.0651159,0.0244949,-0.265141,0.102354,-0.954255,0,0,0,0,0,0,0,0,0,0,0.334119,-0.457608,0.18609,-1.5,3.28145e-38,0,0,1,-0.0651159,0.0244949,0,0,0,0,-0.265141,0.102354,1.9603e-19,0,0,0,0,0,0,0,0,0,1.5,-0.0489899
7005,0.130859,-0.866211,1.47363,0.00169482,0.107037,0.121871,-0.032525,0.0932535,-0.952486,0,0,0,-0.0694664,0.0262149,-0.275793,0.110467,-0.952486,0,0,0,0,0,0,0,0,0,0,0.331943,-0.460553,0.197874,-1.5,3.28145e-38,0,0,2,-0.0694664,0.0262149,0,0,0,0,-0.275793,0.110467,1.9603e-19,0,0,0,0,0,0,0,0,0,1.5,-0.0524298
7021,0.150391,-0.428711,-7.24219,-0.0405041,0.279637,0.150998,-0.0328453,0.0963041,-0.950715,0,0,0,-0.0739917,0.0280687,-0.286578,0.118758,-0.950715,0,0,0,0,0,0,0,0,0,0,0.329692,-0.463582,0.212753,-1.5,3.28145e-38,0,0,3,-0.0739917,0.0280687,0,0,0,0,-0.286578,0.118758,1.9603e-19,0,0,0,0,0,0,0,0,0,1.5,-0.0561375
7037,0.330078,-0.536133,-4.98633,-0.139643,0.802428,0.334159,-0.0348901,0.115568,-0.943271,0,0,0,-0.0786931,0.030059,-0.297818,0.127548,-0.947522,0,0,0,0,0,0,0,0,0,0,0.326904,-0.467225,0.202528,-1.5,3.28145e-38,0,0,0,-0.0786931,0.030059,0,0,0,0,-0.297818,0.127548,1.9603e-19,0,0,0,0,0,0,0,0,0,1.5,-0.0601181
7053,0.197266,-0.93457,6.80371,-0.218893,0.816716,0.338624,-0.0371249,0.126823,-0.939012,0,0,0,-0.0835843,0.0322007,-0.310143,0.137473,-0.943271,0,0,0,0,0,0,0,0,0,0,0.323571,-0.471487,0.201619,-1.5,3.28145e-38,0,0,1,-0.0835843,0.0322007,0,0,0,0,-0.310143,0.137473,1.9603e-19,0,0,0,0,0,0,0,0,0,1.5,-0.0644014
7069,0.125977,-1.1123,4.18262,-0.238307,0.768918,0.307199,-0.0399994,0.137861,-0.934985,0,0,0,-0.0886923,0.0345192,-0.324574,0.149236,-0.934985,0,0,0,0,0,0,0,0,0,0,0.318664,-0.477457,0.21647,-1.5,3.28145e-38,0,0,2,-0.0886923,0.0345192,0,0,0,0,-0.324574,0.149236,1.9603e-19,0,0,0,0,0,0,0,0,0,1.5,-0.0690384
7086,0.259766,-1.2793,7.13965,-0.220861,0.723999,0.230791,-0.0426884,0.14791,-0.932059,0,0,0,-0.0943936,0.0372045,-0.341481,0.162877,-0.932059,0,0,0,0,0,0,0,0,0,0,0.314942,-0.482204,0.230823,-1.5,3.28145e-38,0,0,3,-0.0943936,0.0372045,0,0,0,0,-0.341481,0.162877,1.9603e-19,0,0,0,0,0,0,0,0,0,1.5,-0.0744091
7101,0.259766,-1.2793,7.13965,-0.220861,0.723999,0.230791,-0.0426884,0.14791,-0.932059,0,0,0,-0.0996642,0.0397666,-0.357244,0.175516,-0.932059,0,0,0,0,0,0,0,0,0,0,0.312295,-0.485769,0.225225,-1.5,3.28145e-38,0,0,0,-0.0996642,0.0397666,0,0,0,0,-0.357244,0.175516,1.9603e-19,0,0,0,0,0,0,0,0,0,1.5,-0.0795333
7116,0.230469,-1.36328,4.74316,-0.134091,0.571441,0.134665,-0.047287,0.164613,-0.928158,0,0,0,-0.105174,0.0425199,-0.37374,0.188673,-0.928158,0,0,0,0,0,0,0,0,0,0,0.308282,-0.49072,0.226326,-1.5,3.28145e-38,0,0,1,-0.105174,0.0425199,0,0,0,0,-0.37374,0.188673,1.9603e-19,0,0,0,0,0,0,0,0,0,1.5,-0.0850399
7133,0.230469,-1.36328,4.74316,-0.134091,0.571441,0.134665,-0.047287,0.164613,-0.928158,0,0,0,-0.111754,0.0459074,-0.393734,0.204504,-0.928158,0,0,0,0,0,0,0,0,0,0,0.304895,-0.495245,0.242643,-1.5,3.28145e-38,0,0,2,-0.111754,0.0459074,0,0,0,0,-0.393734,0.204504,1.9603e-19,0,0,0,0,0,0,0,0,0,1.5,-0.0918148
7149,-0.0839844,-2.18066,-0.135742,-0.477579,0.368086,0.212144,-0.0550866,0.190635,-0.922779,0,0,0,-0.118254,0.0493381,-0.413233,0.22007,-0.925585,0,0,0,0,0,0,0,0,0,0,0.300696,-0.500508,0.257342,-1.5,3.28145e-38,0,0,3,-0.118254,0.0493381,0,0,0,0,-0.413233,0.22007,1.9603e-19,0,0,0,0,0,0,0,0,0,1.5,-0.0986761
7165,0.0683594,-2.62891,-0.130859,-0.41526,-0.258563,-0.0405147,-0.0612442,0.188471,-0.92245,0,0,0,-0.125087,0.053036,-0.434734,0.236889,-0.92245,0,0,0,0,0,0,0,0,0,0,0.296017,-0.506274,0.246938,-1.5,3.28145e-38,0,0,0,-0.125087,0.053036,0,0,0,0,-0.434734,0.236889,1.9603e-19,0,0,0,0,0,0,0,0,0,1.5,-0.106072
7181,0.345703,-2.06348,-4.01953,-0.144119,-0.528282,-0.292281,-0.0643371,0.180974,-0.925805,0,0,0,-0.13228,0.0569948,-0.457189,0.252717,-0.925805,0,0,0,0,0,0,0,0,0,0,0.29356,-0.510023,0.245144,-1.5,3.28145e-38,0,0,1,-0.13228,0.0569948,0,0,0,0,-0.457189,0.252717,1.9603e-19,0,0,0,0,0,0,0,0,0,1.5,-0.11399
7197,0.345703,-2.06348,-4.01953,-0.144119,-0.528282,-0.292281,-0.0643371,0.180974,-0.925805,0,0,0,-0.139826,0.0611944,-0.479189,0.267565,-0.925805,0,0,0,0,0,0,0,0,0,0,0.290066,-0.514667,0.259822,-1.5,3.28145e-38,0,0,2,-0.139826,0.0611944,0,0,0,0,-0.479189,0.267565,1.9603e-19,0,0,0,0,0,0,0,0,0,1.5,-0.122389
7213,0.532227,-0.936523,1.31445,-0.0496047,0.093245,-0.0531974,-0.0618305,0.177233,-0.931379,0,0,0,-0.147722,0.0656303,-0.500741,0.28227,-0.931379,0,0,0,0,0,0,0,0,0,0,0.288441,-0.517775,0.274453,-1.5,3.28145e-38,0,0,3,-0.147722,0.0656303,0,0,0,0,-0.500741,0.28227,1.9603e-19,0,0,0,0,0,0,0,0,0,1.5,-0.131261
7229,0.805664,-1.41309,-6.50293,0.127343,0.168189,-0.0140039,-0.0610176,0.179423,-0.931574,0,0,0,-0.155954,0.0703,-0.521695,0.296942,-0.931574,0,0,0,0,0,0,0,0,0,0,0.284926,-0.522536,0.26398,-1.5,3.28145e-38,0,0,0,-0.155954,0.0703,0,0,0,0,-0.521695,0.296942,1.9603e-19,0,0,0,0,0,0,0,0,0,1.5,-0.1406
7246,0.517578,-1.39746,-3.05078,0.254636,0.499152,0.122537,-0.0518406,0.190685,-0.931703,0,0,0,-0.165066,0.0755231,-0.543769,0.313082,-0.932501,0,0,0,0,0,0,0,0,0,0,0.281289,-0.52761,0.261321,-1.5,3.28145e-38,0,0,1,-0.165066,0.0755231,0,0,0,0,-0.543769,0.313082,1.9603e-19,0,0,0,0,0,0,0,0,0,1.5,-0.151046
7261,0.256836,-2.1582,-1.11914,0.158034,0.197949,0.159346,-0.0495079,0.194679,-0.929459,0,0,0,-0.173409,0.0803647,-0.563044,0.328416,-0.931703,0,0,0,0,0,0,0,0,0,0,0.277276,-0.532854,0.274369,-1.5,3.28145e-38,0,0,2,-0.173409,0.0803647,0,0,0,0,-0.563044,0.328416,1.9603e-19,0,0,0,0,0,0,0,0,0,1.5,-0.160729
7277,0.0078125,-2.375,-6.69434,0.223122,-0.299371,-0.0290979,-0.0463603,0.191625,-0.929086,0,0,0,-0.182634,0.0858036,-0.583475,0.345923,-0.929086,0,0,0,0,0,0,0,0,0,0,0.27209,-0.539263,0.288941,-1.5,3.28145e-38,0,0,3,-0.182634,0.0858036,0,0,0,0,-0.583475,0.345923,1.9603e-19,0,0,0,0,0,0,0,0,0,1.5,-0.171607
7293,0.0322266,-2.06152,-7.05371,0.243114,-0.570058,-0.201064,-0.0433547,0.183914,-0.931395,0,0,0,-0.19217,0.0915144,-0.602948,0.363065,-0.931395,0,0,0,0,0,0,0,0,0,0,0.26867,-0.544364,0.27942,-1.5,3.28145e-38,0,0,0,-0.19217,0.0915144,0,0,0,0,-0.602948,0.363065,1.9603e-19,0,0,0,0,0,0,0,0,0,1.5,-0.183029
7310,0.0927734,-1.72461,-3.20898,0.146192,-0.719036,-0.218523,-0.0415526,0.17443,-0.934074,0,0,0,-0.202634,0.097878,-0.62204,0.380205,-0.934074,0,0,0,0,0,0,0,0,0,0,0.265221,-0.549647,0.278543,-1.5,3.28145e-38,0,0,1,-0.202634,0.097878,0,0,0,0,-0.62204,0.380205,1.9603e-19,0,0,0,0,0,0,0,0,0,1.5,-0.195756
7325,0.0615234,-1.61914,2.59961,0.00998795,-0.878211,-0.222519,-0.0414561,0.162355,-0.936575,0,0,0,-0.212118,0.103719,-0.637659,0.394123,-0.936575,0,0,0,0,0,0,0,0,0,0,0.262366,-0.554138,0.291522,-1.5,3.28145e-38,0,0,2,-0.212118,0.103719,0,0,0,0,-0.637659,0.394123,1.9603e-19,0,0,0,0,0,0,0,0,0,1.5,-0.207438
7341,0.584961,-0.613281,-4.97949,0.231857,-0.477429,-0.109043,-0.0382933,0.140719,-0.941205,0,0,0,-0.222485,0.110168,-0.653014,0.407358,-0.939508,0,0,0,0,0,0,0,0,0,0,0.259623,-0.55864,0.306026,-1.5,3.28145e-38,0,0,3,-0.222485,0.110168,0,0,0,0,-0.653014,0.407358,1.9603e-19,0,0,0,0,0,0,0,0,0,1.5,-0.220336
7358,0.584961,-0.613281,-4.97949,0.231857,-0.477429,-0.109043,-0.0382933,0.140719,-0.941205,0,0,0,-0.233752,0.117233,-0.66767,0.419811,-0.941205,0,0,0,0,0,0,0,0,0,0,0.256361,-0.563571,0.296998,-1.5,3.28145e-38,0,0,0,-0.233752,0.117233,0,0,0,0,-0.66767,0.419811,1.9603e-19,0,0,0,0,0,0,0,0,0,1.5,-0.234465
7373,0.456055,-0.658203,-3.86426,-0.435127,0.675446,0.358755,-0.0440074,0.152375,-0.934699,0,0,0,-0.243886,0.123632,-0.680195,0.430511,-0.934699,0,0,0,0,0,0,0,0,0,0,0.250334,-0.569956,0.294798,-1.5,3.28145e-38,0,0,1,-0.243886,0.123632,0,0,0,0,-0.680195,0.430511,1.9603e-19,0,0,0,0,0,0,0,0,0,1.5,-0.247265
7390,0.459961,-1.52344,6.9209,-0.442306,0.51128,0.365508,-0.0498446,0.160629,-0.929772,0,0,0,-0.255625,0.131093,-0.696459,0.443417,-0.929772,0,0,0,0,0,0,0,0,0,0,0.244223,-0.57676,0.310841,-1.5,3.28145e-38,0,0,2,-0.255625,0.131093,0,0,0,0,-0.696459,0.443417,1.9603e-19,0,0,0,0,0,0,0,0,0,1.5,-0.262185
7406,0.317383,-1.7666,-7.34375,-0.231342,0.270628,0.221958,-0.0528427,0.164921,-0.926539,0,0,0,-0.266937,0.138314,-0.713192,0.455848,-0.926539,0,0,0,0,0,0,0,0,0,0,0.238885,-0.582919,0.322139,-1.5,3.28145e-38,0,0,3,-0.266937,0.138314,0,0,0,0,-0.713192,0.455848,1.9603e-19,0,0,0,0,0,0,0,0,0,1.5,-0.276627
7422,0.151367,-1.73926,-5.86133,-0.0959465,0.0828366,0.0580326,-0.0541558,0.166465,-0.925535,0,0,0,-0.278529,0.145738,-0.730458,0.468328,-0.925535,0,0,0,0,0,0,0,0,0,0,0.234366,-0.588618,0.311476,-1.5,3.28145e-38,0,0,0,-0.278529,0.145738,0,0,0,0,-0.730458,0.468328,1.9603e-19,0,0,0,0,0,0,0,0,0,1.5,-0.291476
7439,0.457031,-1.77051,-1.01172,0.0476585,-0.344622,-0.0748858,-0.0549966,0.160759,-0.926572,0,0,0,-0.290399,0.153362,-0.747807,0.48075,-0.925535,0,0,0,0,0,0,0,0,0,0,0.230206,-0.594144,0.308395,-1.5,3.28145e-38,0,0,1,-0.290399,0.153362,0,0,0,0,-0.747807,0.48075,1.9603e-19,0,0,0,0,0,0,0,0,0,1.5,-0.306724
7455,0.392578,-1.56934,0.787109,0.0842951,-0.366943,-0.0729778,-0.053987,0.155324,-0.927306,0,0,0,-0.303312,0.161677,-0.765763,0.49334,-0.927306,0,0,0,0,0,0,0,0,0,0,0.226566,-0.59958,0.321255,-1.5,3.28145e-38,0,0,2,-0.303312,0.161677,0,0,0,0,-0.765763,0.49334,1.9603e-19,0,0,0,0,0,0,0,0,0,1.5,-0.323353
7471,0.219727,-0.980469,4.93066,-0.0764757,-0.220704,-0.00392618,-0.054568,0.151583,-0.927366,0,0,0,-0.315727,0.169681,-0.781702,0.504163,-0.927366,0,0,0,0,0,0,0,0,0,0,0.222568,-0.604933,0.333417,-1.5,3.28145e-38,0,0,3,-0.315727,0.169681,0,0,0,0,-0.781702,0.504163,1.9603e-19,0,0,0,0,0,0,0,0,0,1.5,-0.339362
7487,0.237305,-0.920898,6.17773,-0.277382,-0.0298115,0.0646571,-0.0578668,0.150853,-0.926509,0,0,0,-0.328393,0.177852,-0.797368,0.514342,-0.926509,0,0,0,0,0,0,0,0,0,0,0.218216,-0.610425,0.324273,-1.5,3.28145e-38,0,0,0,-0.328393,0.177852,0,0,0,0,-0.797368,0.514342,1.9603e-19,0,0,0,0,0,0,0,0,0,1.5,-0.355704
7503,0.237305,-0.920898,6.17773,-0.277382,-0.0298115,0.0646571,-0.0578668,0.150853,-0.926509,0,0,0,-0.341312,0.186181,-0.813192,0.524133,-0.926509,0,0,0,0,0,0,0,0,0,0,0.214244,-0.615711,0.320938,-1.5,3.28145e-38,0,0,1,-0.341312,0.186181,0,0,0,0,-0.813192,0.524133,1.9603e-19,0,0,0,0,0,0,0,0,0,1.5,-0.372363
7520,0.455078,-1.89844,7.34863,0.0655552,-0.0906474,-0.295886,-0.06153,0.150313,-0.929705,0,0,0,-0.355321,0.195205,-0.830044,0.53431,-0.929705,0,0,0,0,0,0,0,0,0,0,0.211434,-0.620679,0.336883,-1.5,3.28145e-38,0,0,2,-0.355321,0.195205,0,0,0,0,-0.830044,0.53431,1.9603e-19,0,0,0,0,0,0,0,0,0,1.5,-0.39041
7535,0.0810547,-1.10059,1.22559,0.392419,-0.570491,-0.642529,-0.0531473,0.137809,-0.946403,0,0,0,-0.367066,0.202757,-0.844013,0.542454,-0.929705,0,0,0,0,0,0,0,0,0,0,0.207957,-0.625337,0.348076,-1.5,3.28145e-38,0,0,3,-0.367066,0.202757,0,0,0,0,-0.844013,0.542454,1.9603e-19,0,0,0,0,0,0,0,0,0,1.5,-0.405515
7550,0.648438,-0.495117,-0.469727,0.287033,-0.513813,-0.426164,-0.0500488,0.129883,-0.952393,0,0,0,-0.380724,0.211529,-0.858484,0.551437,-0.946403,0,0,0,0,0,0,0,0,0,0,0.21158,-0.627183,0.337303,-1.5,3.28145e-38,0,0,0,-0.380724,0.211529,0,0,0,0,-0.858484,0.551437,1.9603e-19,0,0,0,0,0,0,0,0,0,1.5,-0.423059
7566,0.827148,-0.317383,2.03711,0.139258,-0.208678,-0.118434,-0.0479466,0.125933,-0.954599,0,0,0,-0.394591,0.220439,-0.871095,0.559803,-0.952393,0,0,0,0,0,0,0,0,0,0,0.210493,-0.631242,0.332815,-1.5,3.28145e-38,0,0,1,-0.394591,0.220439,0,0,0,0,-0.871095,0.559803,1.9603e-19,0,0,0,0,0,0,0,0,0,1.5,-0.440879
7582,0.543945,-0.43457,4.17383,-0.0264634,0.0920934,0.0919752,-0.0478748,0.126667,-0.953666,0,0,0,-0.407761,0.228907,-0.88174,0.567099,-0.953666,0,0,0,0,0,0,0,0,0,0,0.207569,-0.635913,0.345577,-1.5,3.28145e-38,0,0,2,-0.407761,0.228907,0,0,0,0,-0.88174,0.567099,1.9603e-19,0,0,0,0,0,0,0,0,0,1.5,-0.457814
7599,0.543945,-0.43457,4.17383,-0.0264634,0.0920934,0.0919752,-0.0478748,0.126667,-0.953666,0,0,0,-0.423783,0.239218,-0.89448,0.575862,-0.953666,0,0,0,0,0,0,0,0,0,0,0.203318,-0.641905,0.360716,-1.5,3.28145e-38,0,0,3,-0.423783,0.239218,0,0,0,0,-0.89448,0.575862,1.9603e-19,0,0,0,0,0,0,0,0,0,1.5,-0.478437
7615,0.435547,-1.15234,0.819336,-0.0713251,0.231158,0.210751,-0.0499852,0.133295,-0.94872,0,0,0,-0.437304,0.247927,-0.905369,0.583321,-0.94872,0,0,0,0,0,0,0,0,0,0,0.197379,-0.647959,0.357747,-1.5,3.28145e-38,0,0,2,-0.437304,0.247927,0,0,0,0,-0.905369,0.583321,1.9603e-19,0,0,0,0,0,0,0,0,0,1.5,-0.495855
7631,0.435547,-1.15234,0.819336,-0.0713251,0.231158,0.210751,-0.0499852,0.133295,-0.94872,0,0,0,-0.452837,0.25794,-0.918223,0.592077,-0.94872,0,0,0,0,0,0,0,0,0,0,0.193186,-0.653807,0.38445,-1.5,3.28145e-38,0,0,2,-0.452837,0.25794,0,0,0,0,-0.918223,0.592077,1.9603e-19,0,0,0,0,0,0,0,0,0,1.5,-0.515881
7647,-0.0458984,-1.25879,3.57422,0.123062,0.209759,-0.0106099,-0.0430124,0.140313,-0.94439,0,0,0,-0.46765,0.267499,-0.930174,0.600642,-0.944287,0,0,0,0,0,0,0,0,0,0,0.187001,-0.660264,0.409583,-1.5,3.28145e-38,0,0,2,-0.46765,0.267499,0,0,0,0,-0.930174,0.600642,1.9603e-19,0,0,0,0,0,0,0,0,0,1.5,-0.534997
7663,0.176758,-1.09863,-2.57422,0.00901087,0.276315,-0.0759376,-0.0430261,0.143954,-0.945527,0,0,0,-0.482653,0.277207,-0.94195,0.610276,-0.945527,0,0,0,0,0,0,0,0,0,0,0.183352,-0.665921,0.434716,-1.5,3.28145e-38,0,0,2,-0.482653,0.277207,0,0,0,0,-0.94195,0.610276,1.9603e-19,0,0,0,0,0,0,0,0,0,1.5,-0.554414
7679,0.374023,-1.24023,-1.68066,0.0124871,0.252073,-0.0872865,-0.0430971,0.147509,-0.946923,0,0,0,-0.497846,0.287073,-0.954006,0.620384,-0.946923,0,0,0,0,0,0,0,0,0,0,0.17968,-0.671719,0.459848,-1.5,3.28145e-38,0,0,2,-0.497846,0.287073,0,0,0,0,-0.954006,0.620384,1.9603e-19,0,0,0,0,0,0,0,0,0,1.5,-0.574147
7695,0.349609,-1.31445,2.93066,0.000815194,0.167849,-0.050874,-0.043213,0.149957,-0.947886,0,0,0,-0.513236,0.297106,-0.966314,0.630916,-0.947886,0,0,0,0,0,0,0,0,0,0,0.175696,-0.677759,0.484981,-1.5,3.28145e-38,0,0,2,-0.513236,0.297106,0,0,0,0,-0.966314,0.630916,1.9603e-19,0,0,0,0,0,0,0,0,0,1.5,-0.594213
7710,0.298828,-1.40039,-5.5625,-0.0439039,0.176463,-0.0441777,-0.0438043,0.152141,-0.948518,0,0,0,-0.527843,0.306667,-0.977994,0.64098,-0.948518,0,0,0,0,0,0,0,0,0,0,0.171761,-0.683576,0.508543,-1.5,3.28145e-38,0,0,2,-0.527843,0.306667,0,0,0,0,-0.977994,0.64098,1.9603e-19,0,0,0,0,0,0,0,0,0,1.5,-0.613334
7726,0.167969,-1.45801,4.35156,-0.0792817,0.470414,-0.128847,-0.0448548,0.157684,-0.950386,0,0,0,-0.543623,0.317037,-0.990762,0.65203,-0.950386,0,0,0,0,0,0,0,0,0,0,0.168092,-0.689721,0.533675,-1.5,3.28145e-38,0,0,2,-0.543623,0.317037,0,0,0,0,-0.990762,0.65203,1.9603e-19,0,0,0,0,0,0,0,0,0,1.5,-0.634074
7743,0.332031,-1.31055,-4.2373,-0.444293,0.953339,-0.125135,-0.0569841,0.180402,-0.955318,0,0,0,-0.560621,0.328256,-1.00522,0.664424,-0.952765,0,0,0,0,0,0,0,0,0,0,0.164272,-0.696417,0.560379,-1.5,3.28145e-38,0,0,2,-0.560621,0.328256,0,0,0,0,-1.00522,0.664424,1.9603e-19,0,0,0,0,0,0,0,0,0,1.5,-0.656512
7759,0.332031,-1.31055,-4.2373,-0.444293,0.953339,-0.125135,-0.0569841,0.180402,-0.955318,0,0,0,-0.575836,0.338335,-1.01984,0.676335,-0.955318,0,0,0,0,0,0,0,0,0,0,0.160975,-0.702542,0.583941,-1.5,3.28145e-38,0,0,2,-0.575836,0.338335,0,0,0,0,-1.01984,0.676335,1.9603e-19,0,0,0,0,0,0,0,0,0,1.5,-0.67667
7774,0.738281,-2.68457,5.50977,-0.222706,0.502587,-0.227907,-0.0684799,0.20205,-0.960384,0,0,0,-0.592327,0.349295,-1.03671,0.68971,-0.960384,0,0,0,0,0,0,0,0,0,0,0.15859,-0.70895,0.609074,-1.5,3.28145e-38,0,0,2,-0.592327,0.349295,0,0,0,0,-1.03671,0.68971,1.9603e-19,0,0,0,0,0,0,0,0,0,1.5,-0.69859
7791,0.560547,-2.68164,-5.74023,0.235325,-0.115603,-0.462581,-0.0671789,0.201255,-0.966478,0,0,0,-0.610182,0.361195,-1.05759,0.705625,-0.966478,0,0,0,0,0,0,0,0,0,0,0.156203,-0.716144,0.635777,-1.5,3.28145e-38,0,0,2,-0.610182,0.361195,0,0,0,0,-1.05759,0.705625,1.9603e-19,0,0,0,0,0,0,0,0,0,1.5,-0.72239
7807,0.522461,-2.1084,3.05859,0.27744,-0.231099,-0.585656,-0.0647473,0.197241,-0.974254,0,0,0,-0.626219,0.371916,-1.07529,0.719653,-0.974254,0,0,0,0,0,0,0,0,0,0,0.155429,-0.722248,0.659339,-1.5,3.28145e-38,0,0,2,-0.626219,0.371916,0,0,0,0,-1.07529,0.719653,1.9603e-19,0,0,0,0,0,0,0,0,0,1.5,-0.743831
7823,0.681641,-1.81641,-1.38379,0.196463,-0.081561,-0.602826,-0.0636898,0.195294,-0.982774,0,0,0,-0.644719,0.384328,-1.0945,0.735395,-0.982774,0,0,0,0,0,0,0,0,0,0,0.154465,-0.729343,0.686043,-1.5,3.28145e-38,0,0,2,-0.644719,0.384328,0,0,0,0,-1.0945,0.735395,1.9603e-19,0,0,0,0,0,0,0,0,0,1.5,-0.768657
7839,0.37793,-1.44043,-7.28906,0.512525,-0.717299,-0.482412,-0.0550265,0.181431,-0.996786,0,0,0,-0.662415,0.39625,-1.11178,0.750089,-0.990558,0,0,0,0,0,0,0,0,0,0,0.153498,-0.736181,0.711175,-1.5,3.28145e-38,0,0,2,-0.662415,0.39625,0,0,0,0,-1.11178,0.750089,1.9603e-19,0,0,0,0,0,0,0,0,0,1.5,-0.792499
7855,0.0976562,-0.748047,7.26074,0.446865,-0.946421,-0.295656,-0.0489923,0.168126,-1.00089,0,0,0,-0.680373,0.408402,-1.12749,0.764285,-0.996786,0,0,0,0,0,0,0,0,0,0,0.151767,-0.743297,0.736308,-1.5,3.28145e-38,0,0,2,-0.680373,0.408402,0,0,0,0,-1.12749,0.764285,1.9603e-19,0,0,0,0,0,0,0,0,0,1.5,-0.816804
7872,0.28125,-0.725586,-4.00781,0.353275,-0.859923,-0.143109,-0.0444577,0.155531,-1.0023,0,0,0,-0.698546,0.420763,-1.13997,0.776737,-1.0023,0,0,0,0,0,0,0,0,0,0,0.1499,-0.750282,0.761441,-1.5,3.28145e-38,0,0,2,-0.698546,0.420763,0,0,0,0,-1.13997,0.776737,1.9603e-19,0,0,0,0,0,0,0,0,0,1.5,-0.841526
7888,0.204102,-0.455078,1.7832,0.186543,-0.323926,-0.0457827,-0.0414748,0.149379,-1.00295,0,0,0,-0.718052,0.434099,-1.15131,0.788553,-1.00295,0,0,0,0,0,0,0,0,0,0,0.145096,-0.758297,0.788144,-1.5,3.28145e-38,0,0,2,-0.718052,0.434099,0,0,0,0,-1.15131,0.788553,1.9603e-19,0,0,0,0,0,0,0,0,0,1.5,-0.868197
7904,0.204102,-0.455078,1.7832,0.186543,-0.323926,-0.0457827,-0.0414748,0.149379,-1.00295,0,0,0,-0.736574,0.446824,-1.16118,0.799166,-1.00295,0,0,0,0,0,0,0,0,0,0,0.140247,-0.765898,0.813277,-1.5,3.28145e-38,0,0,2,-0.736574,0.446824,0,0,0,0,-1.16118,0.799166,1.9603e-19,0,0,0,0,0,0,0,0,0,1.5,-0.893647
7920,0.211914,-1.00488,1.31543,-0.191004,0.45128,0.0480864,-0.0433673,0.156703,-1.00215,0,0,0,-0.755255,0.45972,-1.17138,0.810054,-1.00215,0,0,0,0,0,0,0,0,0,0,0.134838,-0.773736,0.83841,-1.5,3.28145e-38,0,0,2,-0.755255,0.45972,0,0,0,0,-1.17138,0.810054,1.9603e-19,0,0,0,0,0,0,0,0,0,1.5,-0.919439
7935,0.352539,-1.52637,-2.59766,-0.150383,0.522991,-0.101968,-0.049255,0.171288,-1.00419,0,0,0,-0.772922,0.471973,-1.18134,0.820612,-1.00215,0,0,0,0,0,0,0,0,0,0,0.132707,-0.777072,0.861972,-1.5,3.28145e-38,0,0,2,-0.772922,0.471973,0,0,0,0,-1.18134,0.820612,1.9603e-19,0,0,0,0,0,0,0,0,0,1.5,-0.943945
7952,0.325195,-1.47949,-1.05371,-0.125265,0.529476,-0.124117,-0.0513579,0.178308,-1.0063,0,0,0,-0.793137,0.486062,-1.19355,0.83324,-1.00419,0,0,0,0,0,0,0,0,0,0,0.133933,-0.776801,0.888675,-1.5,3.28145e-38,0,0,2,-0.793137,0.486062,0,0,0,0,-1.19355,0.83324,1.9603e-19,0,0,0,0,0,0,0,0,0,1.5,-0.972124
7967,0.325195,-1.54004,3.11719,-0.0931022,0.485227,-0.0787852,-0.0530326,0.185254,-1.00802,0,0,0,-0.811161,0.498682,-1.20614,0.845898,-1.00802,0,0,0,0,0,0,0,0,0,0,0.136238,-0.776284,0.912237,-1.5,3.28145e-38,0,0,2,-0.811161,0.498682,0,0,0,0,-1.20614,0.845898,1.9603e-19,0,0,0,0,0,0,0,0,0,1.5,-0.997364
7982,0.325195,-1.60645,-6.37402,-0.0719464,0.425078,-0.0209456,-0.0540898,0.190888,-1.00865,0,0,0,-0.829381,0.511499,-1.21943,0.859315,-1.00865,0,0,0,0,0,0,0,0,0,0,0.13662,-0.776197,0.935799,-1.5,3.28145e-38,0,0,2,-0.829381,0.511499,0,0,0,0,-1.21943,0.859315,1.9603e-19,0,0,0,0,0,0,0,0,0,1.5,-1.023
7998,0.325195,-1.60645,-6.37402,-0.0719464,0.425078,-0.0209456,-0.0540898,0.190888,-1.00865,0,0,0,-0.849045,0.525403,-1.23396,0.874029,-1.00865,0,0,0,0,0,0,0,0,0,0,0.13662,-0.776197,0.960932,-1.5,3.28145e-38,0,0,2,-0.849045,0.525403,0,0,0,0,-1.23396,0.874029,1.9603e-19,0,0,0,0,0,0,0,0,0,1.5,-1.05081
8014,0.388672,-1.69434,5.78223,-0.166828,0.593846,0.0172424,-0.0581119,0.206498,-1.00957,0,0,0,-0.868942,0.539544,-1.24908,0.889308,-1.00957,0,0,0,0,0,0,0,0,0,0,0.137172,-0.776071,0.986064,-1.5,3.28145e-38,0,0,2,-0.868942,0.539544,0,0,0,0,-1.24908,0.889308,1.9603e-19,0,0,0,0,0,0,0,0,0,1.5,-1.07909
8030,0.388672,-1.69434,5.78223,-0.166828,0.593846,0.0172424,-0.0581119,0.206498,-1.00957,0,0,0,-0.889098,0.553944,-1.26527,0.905592,-1.00957,0,0,0,0,0,0,0,0,0,0,0.137172,-0.776071,1.0112,-1.5,3.28145e-38,0,0,2,-0.889098,0.553944,0,0,0,0,-1.26527,0.905592,1.9603e-19,0,0,0,0,0,0,0,0,0,1.5,-1.10789
8046,0.439453,-1.99609,2.07129,0.095787,0.0579598,-0.00837906,-0.0573915,0.215319,-1.00996,0,0,0,-0.909512,0.568605,-1.28164,0.922153,-1.0097,0,0,0,0,0,0,0,0,0,0,0.137251,-0.776053,1.03633,-1.5,3.28145e-38,0,0,2,-0.909512,0.568605,0,0,0,0,-1.28164,0.922153,1.9603e-19,0,0,0,0,0,0,0,0,0,1.5,-1.13721
8063,0.349609,-1.78027,3.00977,-0.0632412,0.127894,0.0486328,-0.0578455,0.216976,-1.00948,0,0,0,-0.931502,0.584489,-1.2994,0.940445,-1.00948,0,0,0,0,0,0,0,0,0,0,0.13712,-0.776083,1.06303,-1.5,3.28145e-38,0,0,2,-0.931502,0.584489,0,0,0,0,-1.2994,0.940445,1.9603e-19,0,0,0,0,0,0,0,0,0,1.5,-1.16898
8079,0.375977,-1.97852,6.25098,-0.0452576,0.0619721,0.0461619,-0.0585755,0.218305,-1.00878,0,0,0,-0.952468,0.599718,-1.31614,0.957819,-1.00878,0,0,0,0,0,0,0,0,0,0,0.136697,-0.77618,1.08817,-1.5,3.28145e-38,0,0,2,-0.952468,0.599718,0,0,0,0,-1.31614,0.957819,1.9603e-19,0,0,0,0,0,0,0,0,0,1.5,-1.19944
8096,0.402344,-2.22461,-5.16113,0.0376784,-0.129641,-0.00725853,-0.0581722,0.217021,-1.00867,0,0,0,-0.973703,0.615225,-1.33288,0.97509,-1.00867,0,0,0,0,0,0,0,0,0,0,0.13663,-0.776195,1.1133,-1.5,3.28145e-38,0,0,2,-0.973703,0.615225,0,0,0,0,-1.33288,0.97509,1.9603e-19,0,0,0,0,0,0,0,0,0,1.5,-1.23045
8112,0.342773,-2.14258,6.81445,0.0253492,-0.268526,-0.0416595,-0.0577057,0.213416,-1.00903,0,0,0,-0.996555,0.632001,-1.35026,0.993018,-1.00903,0,0,0,0,0,0,0,0,0,0,0.136847,-0.776145,1.14,-1.5,3.28145e-38,0,0,2,-0.996555,0.632001,0,0,0,0,-1.35026,0.993018,1.9603e-19,0,0,0,0,0,0,0,0,0,1.5,-1.264
8128,0.276367,-1.97656,4.05371,-0.0706246,-0.301844,-0.0279386,-0.0584846,0.209346,-1.00922,0,0,0,-1.01695,0.647045,-1.36518,1.00825,-1.00922,0,0,0,0,0,0,0,0,0,0,0.13696,-0.77612,1.16357,-1.5,3.28145e-38,0,0,2,-1.01695,0.647045,0,0,0,0,-1.36518,1.00825,1.9603e-19,0,0,0,0,0,0,0,0,0,1.5,-1.29409
8143,0.280273,-2.06738,-4.4375,-0.0432314,-0.624126,-0.0385613,-0.0605694,0.196155,-1.00914,0,0,0,-1.03896,0.663341,-1.38073,1.02372,-1.00919,0,0,0,0,0,0,0,0,0,0,0.136943,-0.776124,1.1887,-1.5,3.28145e-38,0,0,2,-1.03896,0.663341,0,0,0,0,-1.38073,1.02372,1.9603e-19,0,0,0,0,0,0,0,0,0,1.5,-1.32668
8159,0.280273,-2.06738,-4.4375,-0.0432314,-0.624126,-0.0385613,-0.0605694,0.196155,-1.00914,0,0,0,-1.0612,0.679861,-1.39542,1.03743,-1.00914,0,0,0,0,0,0,0,0,0,0,0.136912,-0.776131,1.21226,-1.5,3.28145e-38,0,0,2,-1.0612,0.679861,0,0,0,0,-1.39542,1.03743,1.9603e-19,0,0,0,0,0,0,0,0,0,1.5,-1.35972
8176,0.425781,-1.92383,1.00977,0.260885,-1.43804,-0.134082,-0.0567093,0.165605,-1.01021,0,0,0,-1.08509,0.697655,-1.41051,1.05142,-1.01021,0,0,0,0,0,0,0,0,0,0,0.137558,-0.775983,1.23896,-1.5,3.28145e-38,0,0,2,-1.08509,0.697655,0,0,0,0,-1.41051,1.05142,1.9603e-19,0,0,0,0,0,0,0,0,0,1.5,-1.39531
8191,0.666992,-1.55469,5.86914,0.571041,-2.15687,-0.145527,-0.0494475,0.137806,-1.01079,0,0,0,-1.10635,0.713513,-1.42029,1.0598,-1.01079,0,0,0,0,0,0,0,0,0,0,0.137907,-0.775903,1.26253,-1.5,3.28145e-38,0,0,2,-1.10635,0.713513,0,0,0,0,-1.42029,1.0598,1.9603e-19,0,0,0,0,0,0,0,0,0,1.5,-1.42703
8206,0.586914,-0.884766,6.94043,0.690721,-2.80974,-0.0163598,-0.0399412,0.0999118,-1.01001,0,0,0,-1.12772,0.729463,-1.42602,1.06438,-1.01001,0,0,0,0,0,0,0,0,0,0,0.137438,-0.776011,1.28609,-1.5,3.28145e-38,0,0,2,-1.12772,0.729463,0,0,0,0,-1.42602,1.06438,1.9603e-19,0,0,0,0,0,0,0,0,0,1.5,-1.45893
8223,0.454102,-0.361328,2.23047,0.573099,-3.55866,0.103539,-0.0309898,0.0518917,-1.00682,0,0,0,-1.15199,0.747573,-1.42737,1.06433,-1.00682,0,0,0,0,0,0,0,0,0,0,0.135518,-0.776446,1.31279,-1.5,3.28145e-38,0,0,2,-1.15199,0.747573,0,0,0,0,-1.42737,1.06433,1.9603e-19,0,0,0,0,0,0,0,0,0,1.5,-1.49515
8239,-0.0146484,2.06348,-6.69629,-0.487461,-0.117015,-0.0882603,-0.0416229,-0.00046063,-1.00868,0,0,0,-1.17338,0.763498,-1.42462,1.05893,-1.00702,0,0,0,0,0,0,0,0,0,0,0.135639,-0.776419,1.33635,-1.5,3.28145e-38,0,0,2,-1.17338,0.763498,0,0,0,0,-1.42462,1.05893,1.9603e-19,0,0,0,0,0,0,0,0,0,1.5,-1.5
8255,1.00586,1.57617,-1.65625,-0.136079,0.497188,0.5449,-0.0434914,0.00775289,-1.00284,0,0,0,-1.19755,0.781383,-1.41964,1.04814,-1.00868,0,0,0,0,0,0,0,0,0,0,0.136639,-0.776193,1.36306,-1.5,3.28145e-38,0,0,2,-1.19755,0.781383,0,0,0,0,-1.41964,1.04814,1.9603e-19,0,0,0,0,0,0,0,0,0,1.5,-1.5
8271,0.915039,-0.490234,6.48633,-0.11872,0.322501,0.680193,-0.0450714,0.0133366,-0.993536,0,0,0,-1.22022,0.79805,-1.41593,1.03804,-0.993536,0,0,0,0,0,0,0,0,0,0,0.127509,-0.778193,1.38819,-1.5,3.28145e-38,0,0,2,-1.22022,0.79805,0,0,0,0,-1.41593,1.03804,1.9603e-19,0,0,0,0,0,0,0,0,0,1.5,-1.5
8288,0.732422,-0.780273,1.41797,-0.00293293,-0.156825,0.591662,-0.0452051,0.0129207,-0.985039,0,0,0,-1.24426,0.815585,-1.41261,1.02785,-0.985039,0,0,0,0,0,0,0,0,0,0,0.122375,-0.779255,1.41489,-1.5,3.28145e-38,0,0,2,-1.24426,0.815585,0,0,0,0,-1.41261,1.02785,1.9603e-19,0,0,0,0,0,0,0,0,0,1.5,-1.5
8303,0.0195312,-0.580078,2.12402,-0.110045,-0.582618,0.480082,-0.0461627,0.00604356,-0.977868,0,0,0,-1.26542,0.830914,-1.40949,1.01845,-0.977868,0,0,0,0,0,0,0,0,0,0,0.118035,-0.780117,1.43846,-1.5,3.28145e-38,0,0,2,-1.26542,0.830914,0,0,0,0,-1.40949,1.01845,1.9603e-19,0,0,0,0,0,0,0,0,0,1.5,-1.5
8324,0.331055,0.416992,5.75098,-0.0961854,-0.103725,0.216294,-0.0511391,-0.000107422,-0.97177,0,0,0,-1.29494,0.852092,-1.40466,1.00415,-0.973947,0,0,0,0,0,0,0,0,0,0,0.115659,-0.780575,1.47144,-1.5,3.28145e-38,0,0,2,-1.29494,0.852092,0,0,0,0,-1.40466,1.00415,1.9603e-19,0,0,0,0,0,0,0,0,0,1.5,-1.5
8430,0.248047,0,5.75195,-0.0226657,-0.0138517,0.209371,-0.0518885,0.000484281,-0.942383,0,0,0,-1.44156,0.950861,-1.38161,0.926363,-0.942383,0,0,0,0,0,0,0,0,0,0,0.0964729,-0.783923,1.63795,-1.5,3.28145e-38,0,0,2,-1.44156,0.950861,0,0,0,0,-1.38161,0.926363,1.9603e-19,0,0,0,0,0,0,0,0,0,1.5,-1.5
8506,0.433594,0,2.17188,0.241257,0.00612989,0.370371,-0.048543,0.000535068,-0.920926,0,0,0,-1.54549,1.01756,-1.3658,0.872434,-0.920926,0,0,0,0,0,0,0,0,0,0,0.083374,-0.785853,1.75733,-1.5,3.28145e-38,0,0,2,-1.54549,1.01756,0,0,0,0,-1.3658,0.872434,1.9603e-19,0,0,0,0,0,0,0,0,0,1.5,-1.5
8523,0.245117,-0.00488281,-3.9873,0.111065,0.0115398,0.263349,-0.0468163,0.000931862,-0.916736,0,0,0,-1.56866,1.03226,-1.36179,0.861032,-0.916736,0,0,0,0,0,0,0,0,0,0,0.0808116,-0.786197,1.78403,-1.5,3.28145e-38,0,0,2,-1.56866,1.03226,0,0,0,0,-1.36179,0.861032,1.9603e-19,0,0,0,0,0,0,0,0,0,1.5,-1.5
8539,0.459961,0.0332031,-3.04102,0.24463,-0.00234859,0.012189,-0.0438792,0.000775709,-0.916104,0,0,0,-1.58905,1.04508,-1.35801,0.851256,-0.916104,0,0,0,0,0,0,0,0,0,0,0.0804246,-0.786247,1.80916,-1.5,3.28145e-38,0,0,2,-1.58905,1.04508,0,0,0,0,-1.35801,0.851256,1.9603e-19,0,0,0,0,0,0,0,0,0,1.5,-1.5
8566,0.587891,0.0478516,-4.9082,0.669413,0.0276081,-0.00363033,-0.029534,0.00126309,-0.916386,0,0,0,-1.62557,1.06771,-1.35023,0.834585,-0.916386,0,0,0,0,0,0,0,0,0,0,0.080597,-0.786225,1.85001,-1.5,3.28145e-38,0,0,2,-1.62557,1.06771,0,0,0,0,-1.35023,0.834585,1.9603e-19,0,0,0,0,0,0,0,0,0,1.5,-1.5
8581,0.488281,-0.0146484,6.73828,0.865835,-0.0162654,-0.00739361,-0.0178971,0.00121021,-0.916483,0,0,0,-1.64577,1.08016,-1.34415,0.826888,-0.916483,0,0,0,0,0,0,0,0,0,0,0.0806566,-0.786217,1.87357,-1.5,3.28145e-38,0,0,2,-1.64577,1.08016,0,0,0,0,-1.34415,0.826888,1.9603e-19,0,0,0,0,0,0,0,0,0,1.5,-1.5
8596,0.488281,-0.0146484,6.73828,0.865835,-0.0162654,-0.00739361,-0.0178971,0.00121021,-0.916483,0,0,0,-1.6672,1.09331,-1.33683,0.819395,-0.916483,0,0,0,0,0,0,0,0,0,0,0.0806566,-0.786217,1.8987,-1.5,3.28145e-38,0,0,2,-1.6672,1.09331,0,0,0,0,-1.33683,0.819395,1.9603e-19,0,0,0,0,0,0,0,0,0,1.5,-1.5
8612,-0.03125,0,-4.45898,1.3477,-0.0128728,-0.0119229,0.0307585,0.00174298,-0.917034,0,0,0,-1.68851,1.10635,-1.32816,0.813084,-0.916866,0,0,0,0,0,0,0,0,0,0,0.0808906,-0.786186,1.92226,-1.5,3.28145e-38,0,0,2,-1.68851,1.10635,0,0,0,0,-1.32816,0.813084,1.9603e-19,0,0,0,0,0,0,0,0,0,1.5,-1.5
8628,-0.161133,0,1.7627,1.38153,-0.0421143,-0.012668,0.0501541,0.00103568,-0.917244,0,0,0,-1.70964,1.11932,-1.31608,0.809542,-0.917034,0,0,0,0,0,0,0,0,0,0,0.080994,-0.786172,1.94739,-1.5,3.28145e-38,0,0,2,-1.70964,1.11932,0,0,0,0,-1.31608,0.809542,1.9603e-19,0,0,0,0,0,0,0,0,0,1.5,-1.5
8644,-0.426758,-0.0478516,-3.69141,1.38737,-0.00687183,-0.0178727,0.0695336,0.00114209,-0.917496,0,0,0,-1.73053,1.13226,-1.30019,0.808866,-0.917496,0,0,0,0,0,0,0,0,0,0,0.0812763,-0.786135,1.97253,-1.5,3.28145e-38,0,0,2,-1.73053,1.13226,0,0,0,0,-1.30019,0.808866,1.9603e-19,0,0,0,0,0,0,0,0,0,1.5,-1.5
8660,-0.912109,-0.393555,6.18164,1.2607,-0.268747,0.0115701,0.0873159,-0.00164762,-0.917629,0,0,0,-1.75115,1.14521,-1.28169,0.810159,-0.917629,0,0,0,0,0,0,0,0,0,0,0.0813577,-0.786124,1.99766,-1.5,3.28145e-38,0,0,2,-1.75115,1.14521,0,0,0,0,-1.28169,0.810159,1.9603e-19,0,0,0,0,0,0,0,0,0,1.5,-1.5
8676,-1.34375,0.0292969,2.25488,0.964301,-0.218105,0.00181086,0.101787,-0.00446657,-0.917969,0,0,0,-1.77144,1.1582,-1.26067,0.812838,-0.917969,0,0,0,0,0,0,0,0,0,0,0.0815655,-0.786097,2.02279,-1.5,3.28145e-38,0,0,2,-1.77144,1.1582,0,0,0,0,-1.26067,0.812838,1.9603e-19,0,0,0,0,0,0,0,0,0,1.5,-1.5
8692,-1.46191,0.0693359,-2.91895,0.648075,-0.144035,-0.00290057,0.111718,-0.00646587,-0.918261,0,0,0,-1.79137,1.17124,-1.23797,0.8164,-0.918261,0,0,0,0,0,0,0,0,0,0,0.0817442,-0.786073,2.04793,-1.5,3.28145e-38,0,0,2,-1.79137,1.17124,0,0,0,0,-1.23797,0.8164,1.9603e-19,0,0,0,0,0,0,0,0,0,1.5,-1.5
8708,-1.53125,0.0830078,6.43262,0.064063,-0.0132255,-0.000761574,0.11889,-0.00788795,-0.918448,0,0,0,-1.81093,1.18435,-1.21424,0.820517,-0.918409,0,0,0,0,0,0,0,0,0,0,0.0818347,-0.786061,2.07306,-1.5,3.28145e-38,0,0,2,-1.81093,1.18435,0,0,0,0,-1.21424,0.820517,1.9603e-19,0,0,0,0,0,0,0,0,0,1.5,-1.5
8725,-1.56445,0.149414,-0.0517578,-0.220358,0.0455297,-0.00131706,0.116563,-0.00742423,-0.918404,0,0,0,-1.83129,1.19835,-1.18855,0.825183,-0.918448,0,0,0,0,0,0,0,0,0,0,0.0818587,-0.786057,2.09976,-1.5,3.28145e-38,0,0,2,-1.83129,1.19835,0,0,0,0,-1.18855,0.825183,1.9603e-19,0,0,0,0,0,0,0,0,0,1.5,-1.5
8741,-1.56445,0.155273,-2.19141,-0.51827,0.103722,-0.00443611,0.110068,-0.0061406,-0.918307,0,0,0,-1.8489,1.21076,-1.16637,0.829109,-0.918307,0,0,0,0,0,0,0,0,0,0,0.0817722,-0.786069,2.12333,-1.5,3.28145e-38,0,0,2,-1.8489,1.21076,0,0,0,0,-1.16637,0.829109,1.9603e-19,0,0,0,0,0,0,0,0,0,1.5,-1.5
8757,-1.52539,0.09375,-1.92773,-0.830811,0.166807,-0.00541757,0.0992518,-0.00397414,-0.918155,0,0,0,-1.86733,1.22407,-1.14408,0.83268,-0.918155,0,0,0,0,0,0,0,0,0,0,0.0816794,-0.786081,2.14846,-1.5,3.28145e-38,0,0,2,-1.86733,1.22407,0,0,0,0,-1.14408,0.83268,1.9603e-19,0,0,0,0,0,0,0,0,0,1.5,-1.5
8772,-1.39941,0.0273438,0.602539,-1.13094,0.220184,-0.00599815,0.0846254,-0.00111903,-0.917978,0,0,0,-1.88542,1.23742,-1.12391,0.835265,-0.917978,0,0,0,0,0,0,0,0,0,0,0.0815712,-0.786096,2.17359,-1.5,3.28145e-38,0,0,2,-1.88542,1.23742,0,0,0,0,-1.12391,0.835265,1.9603e-19,0,0,0,0,0,0,0,0,0,1.5,-1.5
8789,-0.939453,-0.207031,5.54004,-1.27169,0.0916646,-0.000471715,0.066783,0.00127923,-0.917906,0,0,0,-1.90431,1.25164,-1.10495,0.836776,-0.917906,0,0,0,0,0,0,0,0,0,0,0.0815273,-0.786102,2.20029,-1.5,3.28145e-38,0,0,2,-1.90431,1.25164,0,0,0,0,-1.10495,0.836776,1.9603e-19,0,0,0,0,0,0,0,0,0,1.5,-1.5
8804,-0.470703,0.0419922,-2.28809,-1.25264,0.00677576,0.0147778,0.0491837,0.000496476,-0.91763,0,0,0,-1.92074,1.26419,-1.09063,0.836585,-0.91763,0,0,0,0,0,0,0,0,0,0,0.0813582,-0.786124,2.22386,-1.5,3.28145e-38,0,0,2,-1.92074,1.26419,0,0,0,0,-1.09063,0.836585,1.9603e-19,0,0,0,0,0,0,0,0,0,1.5,-1.5
8820,-0.0517578,0.0439453,5.2041,-1.14794,0.0223436,0.0106014,0.015905,0.00153943,-0.91732,0,0,0,-1.93805,1.27756,-1.07754,0.834759,-0.917475,0,0,0,0,0,0,0,0,0,0,0.0812632,-0.786137,2.24899,-1.5,3.28145e-38,0,0,2,-1.93805,1.27756,0,0,0,0,-1.07754,0.834759,1.9603e-19,0,0,0,0,0,0,0,0,0,1.5,-1.5
8836,0.0429688,-0.0351562,2.65137,-1.0061,-0.0498919,0.011475,0.00198073,0.00102595,-0.917184,0,0,0,-1.95517,1.29089,-1.06694,0.831241,-0.91732,0,0,0,0,0,0,0,0,0,0,0.0811687,-0.786149,2.27412,-1.5,3.28145e-38,0,0,2,-1.95517,1.29089,0,0,0,0,-1.06694,0.831241,1.9603e-19,0,0,0,0,0,0,0,0,0,1.5,-1.5
8852,0.0986328,0.0966797,-2.92676,-0.830725,-0.00239829,0.0120263,-0.0101651,0.000790014,-0.917001,0,0,0,-1.97216,1.30413,-1.05951,0.82529,-0.917001,0,0,0,0,0,0,0,0,0,0,0.0809735,-0.786175,2.29926,-1.5,3.28145e-38,0,0,2,-1.97216,1.30413,0,0,0,0,-1.05951,0.82529,1.9603e-19,0,0,0,0,0,0,0,0,0,1.5,-1.5
8868,0.285156,0.0166016,-0.745117,-0.611333,-0.0063688,0.007434,-0.0192675,0.000682192,-0.916894,0,0,0,-1.98905,1.31726,-1.05352,0.818272,-0.916894,0,0,0,0,0,0,0,0,0,0,0.0809078,-0.786184,2.32439,-1.5,3.28145e-38,0,0,2,-1.98905,1.31726,0,0,0,0,-1.05352,0.818272,1.9603e-19,0,0,0,0,0,0,0,0,0,1.5,-1.5
8884,0.458008,0.0410156,6.24707,-0.411909,0.0126753,0.00621082,-0.0252505,0.000850797,-0.916819,0,0,0,-2.00585,1.33027,-1.04869,0.81044,-0.916819,0,0,0,0,0,0,0,0,0,0,0.080862,-0.78619,2.34952,-1.5,3.28145e-38,0,0,2,-2.00585,1.33027,0,0,0,0,-1.04869,0.81044,1.9603e-19,0,0,0,0,0,0,0,0,0,1.5,-1.5
8900,0.458008,0.0410156,6.24707,-0.411909,0.0126753,0.00621082,-0.0252505,0.000850797,-0.916819,0,0,0,-2.02259,1.34316,-1.04438,0.802321,-0.916819,0,0,0,0,0,0,0,0,0,0,0.080862,-0.78619,2.37448,-1.5,3.28145e-38,0,0,2,-2.02259,1.34316,0,0,0,0,-1.04438,0.802321,1.9603e-19,0,0,0,0,0,0,0,0,0,1.5,-1.5
8916,0.495117,0,-2.0752,0.186786,-0.00160079,-0.00303269,-0.0271918,0.00073564,-0.916817,0,0,0,-2.03925,1.35591,-1.04032,0.794085,-0.916785,0,0,0,0,0,0,0,0,0,0,0.0808412,-0.786193,2.39725,-1.5,3.28145e-38,0,0,2,-2.03925,1.35591,0,0,0,0,-1.04032,0.794085,1.9603e-19,0,0,0,0,0,0,0,0,0,1.5,-1.5
8932,0.495117,0,0.482422,0.381073,0.00197291,-0.00299277,-0.0223365,0.000766612,-0.916857,0,0,0,-2.05586,1.36853,-1.03641,0.785796,-0.916817,0,0,0,0,0,0,0,0,0,0,0.0808609,-0.78619,2.4208,-1.5,3.28145e-38,0,0,2,-2.05586,1.36853,0,0,0,0,-1.03641,0.785796,1.9603e-19,0,0,0,0,0,0,0,0,0,1.5,-1.5
8948,0.454102,0,5.60059,0.574669,-0.0104765,-0.00759045,-0.0150368,0.000620636,-0.91695,0,0,0,-2.0724,1.38103,-1.0317,0.778206,-0.91695,0,0,0,0,0,0,0,0,0,0,0.0809424,-0.786179,2.44359,-1.5,3.28145e-38,0,0,2,-2.0724,1.38103,0,0,0,0,-1.0317,0.778206,1.9603e-19,0,0,0,0,0,0,0,0,0,1.5,-1.5
8964,0.454102,0,5.60059,0.574669,-0.0104765,-0.00759045,-0.0150368,0.000620636,-0.91695,0,0,0,-2.08885,1.3934,-1.02622,0.771262,-0.91695,0,0,0,0,0,0,0,0,0,0,0.0809424,-0.786179,2.46569,-1.5,3.28145e-38,0,0,2,-2.08885,1.3934,0,0,0,0,-1.02622,0.771262,1.9603e-19,0,0,0,0,0,0,0,0,0,1.5,-1.5
8981,0.189453,0,-7.06348,0.946311,0.0252634,-0.00911895,0.00786572,0.0011675,-0.917228,0,0,0,-2.10622,1.40644,-1.01922,0.764924,-0.917228,0,0,0,0,0,0,0,0,0,0,0.0811127,-0.786157,2.48839,-1.5,3.28145e-38,0,0,2,-2.10622,1.40644,0,0,0,0,-1.01922,0.764924,1.9603e-19,0,0,0,0,0,0,0,0,0,1.5,-1.5
8997,0.189453,0,-7.06348,0.946311,0.0252634,-0.00911895,0.00786572,0.0011675,-0.917228,0,0,0,-2.12245,1.41863,-1.01103,0.760325,-0.917228,0,0,0,0,0,0,0,0,0,0,0.0811127,-0.786157,2.50905,-1.5,3.28145e-38,0,0,2,-2.12245,1.41863,0,0,0,0,-1.01103,0.760325,1.9603e-19,0,0,0,0,0,0,0,0,0,1.5,-1.5
9014,-0.257812,0,-2.95703,1.18531,-0.00162957,-0.0131458,0.0551233,0.000720818,-0.917719,0,0,0,-2.13853,1.43075,-1.00143,0.756863,-0.917536,0,0,0,0,0,0,0,0,0,0,0.0813006,-0.786132,2.52907,-1.5,3.28145e-38,0,0,2,-2.13853,1.43075,0,0,0,0,-1.00143,0.756863,1.9603e-19,0,0,0,0,0,0,0,0,0,1.5,-1.5
9029,-0.490234,0,-0.704102,1.19936,-0.0379825,-0.00825956,0.0718609,0.000484972,-0.917904,0,0,0,-2.15442,1.44285,-0.988459,0.756015,-0.917719,0,0,0,0,0,0,0,0,0,0,0.0814125,-0.786117,2.54846,-1.5,3.28145e-38,0,0,2,-2.15442,1.44285,0,0,0,0,-0.988459,0.756015,1.9603e-19,0,0,0,0,0,0,0,0,0,1.5,-1.5
9045,-0.947266,-0.307617,6.21582,1.06157,-0.235033,0.00597979,0.0869869,-0.00196983,-0.91806,0,0,0,-2.17007,1.45496,-0.972198,0.757628,-0.91806,0,0,0,0,0,0,0,0,0,0,0.0816215,-0.786089,2.56722,-1.5,3.28145e-38,0,0,2,-2.17007,1.45496,0,0,0,0,-0.972198,0.757628,1.9603e-19,0,0,0,0,0,0,0,0,0,1.5,-1.5
9061,-1.33105,0.0253906,-0.176758,0.771079,-0.17348,0.00469016,0.0987436,-0.0041945,-0.918324,0,0,0,-2.18544,1.46711,-0.953774,0.760434,-0.918324,0,0,0,0,0,0,0,0,0,0,0.0817828,-0.786067,2.5854,-1.5,3.28145e-38,0,0,2,-2.18544,1.46711,0,0,0,0,-0.953774,0.760434,1.9603e-19,0,0,0,0,0,0,0,0,0,1.5,-1.5
9077,-1.47461,0.0302734,-2.17285,0.452622,-0.0989343,0.00152125,0.105952,-0.00562004,-0.91846,0,0,0,-2.20049,1.47931,-0.93383,0.764041,-0.91846,0,0,0,0,0,0,0,0,0,0,0.0818657,-0.786056,2.603,-1.5,3.28145e-38,0,0,2,-2.20049,1.47931,0,0,0,0,-0.93383,0.764041,1.9603e-19,0,0,0,0,0,0,0,0,0,1.5,-1.5
9094,-1.44238,0.078125,-1.94727,0.14812,-0.0303133,0.000172045,0.108654,-0.00613431,-0.918507,0,0,0,-2.21613,1.49235,-0.911939,0.768266,-0.918507,0,0,0,0,0,0,0,0,0,0,0.0818944,-0.786053,2.62109,-1.5,3.28145e-38,0,0,2,-2.21613,1.49235,0,0,0,0,-0.911939,0.768266,1.9603e-19,0,0,0,0,0,0,0,0,0,1.5,-1.5
9110,-1.37598,0.126953,5.78418,-0.481317,0.0997221,-0.00328482,0.101171,-0.00461312,-0.918397,0,0,0,-2.22962,1.50391,-0.892635,0.772034,-0.918477,0,0,0,0,0,0,0,0,0,0,0.0818763,-0.786055,2.63654,-1.5,3.28145e-38,0,0,2,-2.22962,1.50391,0,0,0,0,-0.892635,0.772034,1.9603e-19,0,0,0,0,0,0,0,0,0,1.5,-1.5
9126,-1.37598,0.126953,5.78418,-0.481317,0.0997221,-0.00328482,0.101171,-0.00461312,-0.918397,0,0,0,-2.24455,1.51708,-0.87148,0.775998,-0.918397,0,0,0,0,0,0,0,0,0,0,0.0818272,-0.786062,2.65352,-1.5,3.28145e-38,0,0,2,-2.24455,1.51708,0,0,0,0,-0.87148,0.775998,1.9603e-19,0,0,0,0,0,0,0,0,0,1.5,-1.5
9142,-1.19238,0.0253906,-7.03418,-1.05808,0.206184,-0.00966671,0.0769199,0.00013665,-0.918139,0,0,0,-2.2583,1.52953,-0.852613,0.779265,-0.918139,0,0,0,0,0,0,0,0,0,0,0.0816694,-0.786083,2.66896,-1.5,3.28145e-38,0,0,2,-2.2583,1.52953,0,0,0,0,-0.852613,0.779265,1.9603e-19,0,0,0,0,0,0,0,0,0,1.5,-1.5
9158,-0.708008,-0.367188,5.14844,-1.0861,-0.0412079,0.0213378,0.0621509,0.000375874,-0.917969,0,0,0,-2.27178,1.54202,-0.837393,0.780661,-0.917969,0,0,0,0,0,0,0,0,0,0,0.0815655,-0.786097,2.68392,-1.5,3.28145e-38,0,0,2,-2.27178,1.54202,0,0,0,0,-0.837393,0.780661,1.9603e-19,0,0,0,0,0,0,0,0,0,1.5,-1.5
9174,-0.404297,0.236328,2.66699,-1.0644,0.0642199,0.00597436,0.0472266,0.000822756,-0.917819,0,0,0,-2.28503,1.55451,-0.824394,0.780503,-0.917819,0,0,0,0,0,0,0,0,0,0,0.0814741,-0.786109,2.6984,-1.5,3.28145e-38,0,0,2,-2.28503,1.55451,0,0,0,0,-0.824394,0.780503,1.9603e-19,0,0,0,0,0,0,0,0,0,1.5,-1.5
9191,-0.286133,-0.0380859,-2.96094,-1.05175,-0.00218391,0.0165592,0.032427,0.000820348,-0.917633,0,0,0,-2.29892,1.56776,-0.812753,0.778814,-0.917633,0,0,0,0,0,0,0,0,0,0,0.0813603,-0.786124,2.71243,-1.5,3.28145e-38,0,0,2,-2.29892,1.56776,0,0,0,0,-0.812753,0.778814,1.9603e-19,0,0,0,0,0,0,0,0,0,1.5,-1.5
9206,0.0332031,0.0410156,6.25293,-0.820554,-0.0195622,0.00845149,0.00708008,0.000732422,-0.91748,0,0,0,-2.31102,1.57942,-0.804213,0.776114,-0.917542,0,0,0,0,0,0,0,0,0,0,0.0813043,-0.786131,2.72517,-1.5,3.28145e-38,0,0,2,-2.31102,1.57942,0,0,0,0,-0.804213,0.776114,1.9603e-19,0,0,0,0,0,0,0,0,0,1.5,-1.5
9224,0.0664062,-0.0253906,-0.205078,-0.662813,-0.0275647,0.00952726,-0.00233133,0.000744802,-0.917309,0,0,0,-2.3246,1.59257,-0.796552,0.77159,-0.917309,0,0,0,0,0,0,0,0,0,0,0.0811618,-0.78615,2.73917,-1.5,3.28145e-38,0,0,2,-2.3246,1.59257,0,0,0,0,-0.796552,0.77159,1.9603e-19,0,0,0,0,0,0,0,0,0,1.5,-1.5
9238,0.132812,0.0966797,-2.37012,-0.474615,-7.63957e-05,0.00562331,-0.0092174,0.000493178,-0.91722,0,0,0,-2.3365,1.60409,-0.791631,0.766187,-0.91722,0,0,0,0,0,0,0,0,0,0,0.0811077,-0.786157,2.75111,-1.5,3.28145e-38,0,0,2,-2.3365,1.60409,0,0,0,0,-0.791631,0.766187,1.9603e-19,0,0,0,0,0,0,0,0,0,1.5,-1.5
9254,0.232422,0,-2.12305,-0.251739,-0.013222,0.00343553,-0.0133003,0.000452222,-0.917154,0,0,0,-2.34912,1.61629,-0.787265,0.75977,-0.917154,0,0,0,0,0,0,0,0,0,0,0.0810672,-0.786163,2.76346,-1.5,3.28145e-38,0,0,2,-2.34912,1.61629,0,0,0,0,-0.787265,0.75977,1.9603e-19,0,0,0,0,0,0,0,0,0,1.5,-1.5
9270,0.232422,0,-2.12305,-0.251739,-0.013222,0.00343553,-0.0133003,0.000452222,-0.917154,0,0,0,-2.36168,1.62837,-0.783307,0.753104,-0.917154,0,0,0,0,0,0,0,0,0,0,0.0810672,-0.786163,2.77469,-1.5,3.28145e-38,0,0,2,-2.36168,1.62837,0,0,0,0,-0.783307,0.753104,1.9603e-19,0,0,0,0,0,0,0,0,0,1.5,-1.5
9286,0.412109,0,5.63379,0.183492,-0.00540206,-0.00259224,-0.0122564,0.000453838,-0.917183,0,0,0,-2.37417,1.64036,-0.77933,0.746523,-0.917183,0,0,0,0,0,0,0,0,0,0,0.0810848,-0.78616,2.78629,-1.5,3.28145e-38,0,0,2,-2.37417,1.64036,0,0,0,0,-0.77933,0.746523,1.9603e-19,0,0,0,0,0,0,0,0,0,1.5,-1.5
9302,0.412109,0,5.63379,0.183492,-0.00540206,-0.00259224,-0.0122564,0.000453838,-0.917183,0,0,0,-2.3866,1.65224,-0.7753,0.740052,-0.917183,0,0,0,0,0,0,0,0,0,0,0.0810848,-0.78616,2.79753,-1.5,3.28145e-38,0,0,2,-2.3866,1.65224,0,0,0,0,-0.7753,0.740052,1.9603e-19,0,0,0,0,0,0,0,0,0,1.5,-1.5
9318,0.412109,0,5.63379,0.183492,-0.00540206,-0.00259224,-0.0122564,0.000453838,-0.917183,0,0,0,-2.39896,1.66401,-0.771299,0.733627,-0.917183,0,0,0,0,0,0,0,0,0,0,0.0810848,-0.78616,2.80841,-1.5,3.28145e-38,0,0,2,-2.39896,1.66401,0,0,0,0,-0.771299,0.733627,1.9603e-19,0,0,0,0,0,0,0,0,0,1.5,-1.5
9334,0.412109,0,5.63379,0.183492,-0.00540206,-0.00259224,-0.0122564,0.000453838,-0.917183,0,0,0,-2.41126,1.67568,-0.767326,0.727249,-0.917183,0,0,0,0,0,0,0,0,0,0,0.0810848,-0.78616,2.81896,-1.5,3.28145e-38,0,0,2,-2.41126,1.67568,0,0,0,0,-0.767326,0.727249,1.9603e-19,0,0,0,0,0,0,0,0,0,1.5,-1.5
9350,-0.00976562,0,-3.00293,0.972167,-0.0299721,-0.00756383,0.035222,0.000952374,-0.91773,0,0,0,-2.42349,1.68726,-0.761915,0.722063,-0.91773,0,0,0,0,0,0,0,0,0,0,0.0814192,-0.786116,2.82916,-1.5,3.28145e-38,0,0,2,-2.42349,1.68726,0,0,0,0,-0.761915,0.722063,1.9603e-19,0,0,0,0,0,0,0,0,0,1.5,-1.5
9366,-0.00976562,0,-3.00293,0.972167,-0.0299721,-0.00756383,0.035222,0.000952374,-0.91773,0,0,0,-2.43558,1.69879,-0.752154,0.720348,-0.91773,0,0,0,0,0,0,0,0,0,0,0.0814192,-0.786116,2.83904,-1.5,3.28145e-38,0,0,2,-2.43558,1.69879,0,0,0,0,-0.752154,0.720348,1.9603e-19,0,0,0,0,0,0,0,0,0,1.5,-1.5
9382,-0.446289,0,6.2627,0.999312,-0.00695531,-0.0111539,0.0626024,0.000634909,-0.918058,0,0,0,-2.44751,1.71031,-0.740956,0.719768,-0.918058,0,0,0,0,0,0,0,0,0,0,0.0816198,-0.786089,2.84802,-1.5,3.28145e-38,0,0,2,-2.44751,1.71031,0,0,0,0,-0.740956,0.719768,1.9603e-19,0,0,0,0,0,0,0,0,0,1.5,-1.5
9398,-0.446289,0,6.2627,0.999312,-0.00695531,-0.0111539,0.0626024,0.000634909,-0.918058,0,0,0,-2.45923,1.72183,-0.727905,0.720635,-0.918058,0,0,0,0,0,0,0,0,0,0,0.0816198,-0.786089,2.85731,-1.5,3.28145e-38,0,0,2,-2.45923,1.72183,0,0,0,0,-0.727905,0.720635,1.9603e-19,0,0,0,0,0,0,0,0,0,1.5,-1.5
9414,-1.33789,0.0908203,-2.01562,0.519842,-0.0859753,-1.3401e-05,0.0966214,-0.00376528,-0.918531,0,0,0,-2.47074,1.73338,-0.713408,0.722423,-0.918407,0,0,0,0,0,0,0,0,0,0,0.0818333,-0.786061,2.8663,-1.5,3.28145e-38,0,0,2,-2.47074,1.73338,0,0,0,0,-0.713408,0.722423,1.9603e-19,0,0,0,0,0,0,0,0,0,1.5,-1.5
9429,-1.39844,0.0722656,0.604492,0.191345,-0.0292492,0.00199275,0.100089,-0.00448844,-0.918569,0,0,0,-2.48129,1.74424,-0.697483,0.72549,-0.918531,0,0,0,0,0,0,0,0,0,0,0.0819091,-0.786051,2.87447,-1.5,3.28145e-38,0,0,2,-2.48129,1.74424,0,0,0,0,-0.697483,0.72549,1.9603e-19,0,0,0,0,0,0,0,0,0,1.5,-1.5
9447,-1.39844,0.0878906,5.76562,-0.130735,0.0297954,-0.00157571,0.0990219,-0.00429827,-0.918564,0,0,0,-2.4936,1.75735,-0.677374,0.729695,-0.918564,0,0,0,0,0,0,0,0,0,0,0.0819296,-0.786048,2.88398,-1.5,3.28145e-38,0,0,2,-2.4936,1.75735,0,0,0,0,-0.677374,0.729695,1.9603e-19,0,0,0,0,0,0,0,0,0,1.5,-1.5
9463,-1.39844,0.0556641,-2.19824,-0.452745,0.0898691,-0.00443179,0.0934855,-0.00321664,-0.918513,0,0,0,-2.5036,1.76833,-0.661157,0.732967,-0.918513,0,0,0,0,0,0,0,0,0,0,0.0818984,-0.786052,2.89162,-1.5,3.28145e-38,0,0,2,-2.5036,1.76833,0,0,0,0,-0.661157,0.732967,1.9603e-19,0,0,0,0,0,0,0,0,0,1.5,-1.5
9478,-1.31055,0.0478516,-6.95996,-0.751891,0.146944,-0.00429388,0.0836613,-0.00131712,-0.918393,0,0,0,-2.51401,1.78009,-0.645074,0.735892,-0.918393,0,0,0,0,0,0,0,0,0,0,0.0818249,-0.786062,2.89953,-1.5,3.28145e-38,0,0,2,-2.51401,1.78009,0,0,0,0,-0.645074,0.735892,1.9603e-19,0,0,0,0,0,0,0,0,0,1.5,-1.5
9494,-0.950195,-0.103516,5.18652,-0.903009,0.112764,-0.00500845,0.0714745,0.000682578,-0.918337,0,0,0,-2.52418,1.79189,-0.630647,0.738003,-0.918337,0,0,0,0,0,0,0,0,0,0,0.0817908,-0.786066,2.90719,-1.5,3.28145e-38,0,0,2,-2.52418,1.79189,0,0,0,0,-0.630647,0.738003,1.9603e-19,0,0,0,0,0,0,0,0,0,1.5,-1.5
9510,-0.496094,-0.0429688,2.6543,-0.886994,0.00130684,0.0105557,0.0589597,0.000210602,-0.918135,0,0,0,-2.53414,1.80371,-0.617855,0.739118,-0.918135,0,0,0,0,0,0,0,0,0,0,0.0816671,-0.786083,2.9146,-1.5,3.28145e-38,0,0,2,-2.53414,1.80371,0,0,0,0,-0.617855,0.739118,1.9603e-19,0,0,0,0,0,0,0,0,0,1.5,-1.5
9527,-0.320312,-0.0322266,-2.94824,-0.870015,0.011308,0.00759275,0.0471863,0.000782952,-0.918041,0,0,0,-2.5439,1.81554,-0.606671,0.739051,-0.918041,0,0,0,0,0,0,0,0,0,0,0.0816098,-0.786091,2.92178,-1.5,3.28145e-38,0,0,2,-2.5439,1.81554,0,0,0,0,-0.606671,0.739051,1.9603e-19,0,0,0,0,0,0,0,0,0,1.5,-1.5
9542,-0.119141,-0.111328,6.22168,-0.784868,-0.0126557,0.00802924,0.0237986,0.00106198,-0.917766,0,0,0,-2.5535,1.82735,-0.596885,0.738055,-0.917766,0,0,0,0,0,0,0,0,0,0,0.0814417,-0.786113,2.92874,-1.5,3.28145e-38,0,0,2,-2.5535,1.82735,0,0,0,0,-0.596885,0.738055,1.9603e-19,0,0,0,0,0,0,0,0,0,1.5,-1.5
9559,0.0214844,0.078125,-0.237305,-0.660583,0.0158633,0.00531452,0.0145991,0.00112258,-0.917688,0,0,0,-2.56357,1.83986,-0.589583,0.734752,-0.917688,0,0,0,0,0,0,0,0,0,0,0.0813936,-0.786119,2.93589,-1.5,3.28145e-38,0,0,2,-2.56357,1.83986,0,0,0,0,-0.589583,0.734752,1.9603e-19,0,0,0,0,0,0,0,0,0,1.5,-1.5
9575,0.0253906,0.0146484,-2.35156,-0.517874,-0.0273279,0.00520345,0.00696725,0.000824135,-0.917627,0,0,0,-2.57236,1.85085,-0.584356,0.730951,-0.917627,0,0,0,0,0,0,0,0,0,0,0.0813563,-0.786124,2.942,-1.5,3.28145e-38,0,0,2,-2.57236,1.85085,0,0,0,0,-0.584356,0.730951,1.9603e-19,0,0,0,0,0,0,0,0,0,1.5,-1.5
9591,0.0253906,0.0341797,-2.09863,-0.373761,0.00177519,0.00456008,0.0015916,0.000799761,-0.917575,0,0,0,-2.58223,1.86322,-0.57931,0.725993,-0.917575,0,0,0,0,0,0,0,0,0,0,0.0813244,-0.786129,2.94871,-1.5,3.28145e-38,0,0,2,-2.58223,1.86322,0,0,0,0,-0.57931,0.725993,1.9603e-19,0,0,0,0,0,0,0,0,0,1.5,-1.5
9607,0.0615234,0.0117188,5.625,-0.0375429,0.00157723,0.000999469,-0.00275792,0.000636417,-0.91751,0,0,0,-2.59146,1.87479,-0.575203,0.720878,-0.91753,0,0,0,0,0,0,0,0,0,0,0.0812974,-0.786132,2.95481,-1.5,3.28145e-38,0,0,2,-2.59146,1.87479,0,0,0,0,-0.575203,0.720878,1.9603e-19,0,0,0,0,0,0,0,0,0,1.5,-1.5
9623,0.0947266,0.046875,-2.3418,0.133251,0.00386748,-0.00185762,-0.00132832,0.000607268,-0.917533,0,0,0,-2.60062,1.88626,-0.571411,0.71556,-0.91751,0,0,0,0,0,0,0,0,0,0,0.0812851,-0.786134,2.96072,-1.5,3.28145e-38,0,0,2,-2.60062,1.88626,0,0,0,0,-0.571411,0.71556,1.9603e-19,0,0,0,0,0,0,0,0,0,1.5,-1.5
9639,0.12793,0.0244141,-7.06152,0.291507,0.00703612,-0.00233223,0.00238108,0.000740418,-0.917569,0,0,0,-2.60973,1.89766,-0.567475,0.710416,-0.917569,0,0,0,0,0,0,0,0,0,0,0.0813207,-0.786129,2.96644,-1.5,3.28145e-38,0,0,2,-2.60973,1.89766,0,0,0,0,-0.567475,0.710416,1.9603e-19,0,0,0,0,0,0,0,0,0,1.5,-1.5
9655,0.126953,0,5.22559,0.438152,0.0149965,-0.00453402,0.00817294,0.000910592,-0.917633,0,0,0,-2.61876,1.90898,-0.562997,0.705776,-0.917633,0,0,0,0,0,0,0,0,0,0,0.0813602,-0.786124,2.97198,-1.5,3.28145e-38,0,0,2,-2.61876,1.90898,0,0,0,0,-0.562997,0.705776,1.9603e-19,0,0,0,0,0,0,0,0,0,1.5,-1.5
9672,0.0273438,0,2.64551,0.571654,0.00677754,-0.00575355,0.0156181,0.00103989,-0.917709,0,0,0,-2.62827,1.92093,-0.557314,0.701655,-0.917709,0,0,0,0,0,0,0,0,0,0,0.0814068,-0.786118,2.97768,-1.5,3.28145e-38,0,0,2,-2.62827,1.92093,0,0,0,0,-0.557314,0.701655,1.9603e-19,0,0,0,0,0,0,0,0,0,1.5,-1.5
9687,0,0,-2.94336,0.696153,0.000559905,-0.00722246,0.025058,0.00108252,-0.917805,0,0,0,-2.63658,1.93142,-0.551393,0.698784,-0.917805,0,0,0,0,0,0,0,0,0,0,0.081465,-0.78611,2.98255,-1.5,3.28145e-38,0,0,2,-2.63658,1.93142,0,0,0,0,-0.551393,0.698784,1.9603e-19,0,0,0,0,0,0,0,0,0,1.5,-1.5
9702,0,0,-2.94336,0.696153,0.000559905,-0.00722246,0.025058,0.00108252,-0.917805,0,0,0,-2.64478,1.94188,-0.544855,0.69644,-0.917805,0,0,0,0,0,0,0,0,0,0,0.081465,-0.78611,2.98727,-1.5,3.28145e-38,0,0,2,-2.64478,1.94188,0,0,0,0,-0.544855,0.69644,1.9603e-19,0,0,0,0,0,0,0,0,0,1.5,-1.5
9718,-0.373047,0,-0.242188,0.800947,0.00305866,-0.00931331,0.0580603,0.000537203,-0.918167,0,0,0,-2.65342,1.953,-0.536887,0.694708,-0.918031,0,0,0,0,0,0,0,0,0,0,0.0816033,-0.786091,2.99215,-1.5,3.28145e-38,0,0,2,-2.65342,1.953,0,0,0,0,-0.536887,0.694708,1.9603e-19,0,0,0,0,0,0,0,0,0,1.5,-1.5
9734,-0.530273,0,-2.31348,0.816791,-0.0223061,-0.00617954,0.0690431,0.000203558,-0.918263,0,0,0,-2.66191,1.96412,-0.52655,0.694773,-0.918167,0,0,0,0,0,0,0,0,0,0,0.081687,-0.78608,2.99688,-1.5,3.28145e-38,0,0,2,-2.66191,1.96412,0,0,0,0,-0.52655,0.694773,1.9603e-19,0,0,0,0,0,0,0,0,0,1.5,-1.5
9751,-0.742188,-0.158203,-2.06348,0.784316,-0.121322,0.00402445,0.08042,-0.000665767,-0.918371,0,0,0,-2.6702,1.97525,-0.513816,0.696622,-0.918371,0,0,0,0,0,0,0,0,0,0,0.0818117,-0.786064,3.00146,-1.5,3.28145e-38,0,0,2,-2.6702,1.97525,0,0,0,0,-0.513816,0.696622,1.9603e-19,0,0,0,0,0,0,0,0,0,1.5,-1.5
9766,-0.742188,-0.158203,-2.06348,0.784316,-0.121322,0.00402445,0.08042,-0.000665767,-0.918371,0,0,0,-2.67828,1.98642,-0.500047,0.699187,-0.918371,0,0,0,0,0,0,0,0,0,0,0.0818117,-0.786064,3.0059,-1.5,3.28145e-38,0,0,2,-2.67828,1.98642,0,0,0,0,-0.500047,0.699187,1.9603e-19,0,0,0,0,0,0,0,0,0,1.5,-1.5
9782,-1.29883,0.0292969,5.71875,0.251992,-0.0541081,0.00157537,0.0929756,-0.00326341,-0.918596,0,0,0,-2.68613,1.99764,-0.485694,0.702062,-0.918596,0,0,0,0,0,0,0,0,0,0,0.081949,-0.786045,3.01019,-1.5,3.28145e-38,0,0,2,-2.68613,1.99764,0,0,0,0,-0.485694,0.702062,1.9603e-19,0,0,0,0,0,0,0,0,0,1.5,-1.5
