timestamp,A_x,A_y,A_z,P,Q,R,Phi,Theta,Psi,poseX,poseY,poseZ,state_X,state_Y,state_Z,state_VzB,state_Bx,state_By,state_Bz,p1_x,p1_y,p2_x,p2_y,p3_x,p3_y,p4_x,p4_y,roll,pitch,yaw,alt,targetHeading,highLevelState,lowLevelState,gateNumber,filtered_x,filtered_y,x_OT,y_OT,vx_OT,vy_OT,filtered_vx,filtered_vygateArearansac_corr_x,ransac_corr_y,ransac_corr_vx,ransac_corr_vy,detectionTimeStamppTermX,dTermX,pTermY,dTermY,vxcmd,vycmd
6463,0,0,-2.9375,-0.00204832,-0.00122163,-0.00194848,0.0302297,0.00375013,-1.97952,0,0,0,1.03092e-05,-2.6732e-06,0.00216865,-0.000567732,-1.97875,0,0,0,0,0,0,0,0,0,0,0.22893,-0.0753468,0.0140806,-1.5,0,0,0,1,1.03092e-05,-2.6732e-06,0,0,0,0,0.00216865,-0.000567732,1.9603e-19,0,0,0,0,0,0,0,0,0,1,2.94052e-06
6478,0,0,-1.48242,-0.00158441,-0.00196167,-0.00230363,0.0268809,0.00207685,-1.98138,0,0,0,8.23699e-05,-2.27012e-05,0.00637722,-0.00182459,-1.98063,0,0,0,0,0,0,0,0,0,0,0.22765,-0.0750417,0.0327514,-1.5,0,0,0,2,8.23699e-05,-2.27012e-05,0,0,0,0,0.00637722,-0.00182459,1.9603e-19,0,0,0,0,0,0,0,0,0,1,2.49714e-05
6493,0,0,0.0703125,-0.00282141,-0.00163207,-0.00204979,0.0236432,0.000472863,-1.98324,0,0,0,0.000222902,-6.52476e-05,0.0102327,-0.00319587,-1.98249,0,0,0,0,0,0,0,0,0,0,0.22644,-0.0746796,0.0528998,-1.5,0,0,0,3,0.000222902,-6.52476e-05,0,0,0,0,0.0102327,-0.00319587,1.9603e-19,0,0,0,0,0,0,0,0,0,1,7.17724e-05
6510,0,0,-2.32422,-0.00181731,-0.00143024,-0.00168934,0.0211299,-0.000712497,-1.98475,0,0,0,0.000435322,-0.000135322,0.0137259,-0.00466942,-1.98437,0,0,0,0,0,0,0,0,0,0,0.225296,-0.0742489,0.0745076,-1.5,0,0,0,0,0.000435322,-0.000135322,0,0,0,0,0.0137259,-0.00466942,1.9603e-19,0,0,0,0,0,0,0,0,0,1,0.000148855
6526,0,0,-1.38965,-0.00144384,-0.0020688,-0.000963432,0.0210176,-0.000772071,-1.98478,0,0,0,0.000685142,-0.000224707,0.0165957,-0.00606479,-1.98477,0,0,0,0,0,0,0,0,0,0,0.224449,-0.074106,0.0824093,-1.5,0,0,0,1,0.000685142,-0.000224707,0,0,0,0,0.0165957,-0.00606479,1.9603e-19,0,0,0,0,0,0,0,0,0,1,0.000247178
6542,0,0,1.42383,-0.00316064,-0.00175321,-0.00223627,0.0209544,-0.000800942,-1.98481,0,0,0,0.000979615,-0.000335869,0.0194303,-0.00744972,-1.98478,0,0,0,0,0,0,0,0,0,0,0.223648,-0.0740441,0.104002,-1.5,0,0,0,2,0.000979615,-0.000335869,0,0,0,0,0.0194303,-0.00744972,1.9603e-19,0,0,0,0,0,0,0,0,0,1,0.000369456
6558,0,0,-6.59961,-0.00180207,-0.000351783,-0.00175076,0.0209136,-0.000808107,-1.98484,0,0,0,0.00129646,-0.000460094,0.0220525,-0.00873865,-1.98484,0,0,0,0,0,0,0,0,0,0,0.222898,-0.0739674,0.123949,-1.5,0,0,0,3,0.00129646,-0.000460094,0,0,0,0,0.0220525,-0.00873865,1.9603e-19,0,0,0,0,0,0,0,0,0,1,0.000506104
6573,0,0,2.74414,-0.00126482,-0.0020591,-0.00257697,0.020872,-0.000835453,-1.98488,0,0,0,0.00167843,-0.00061425,0.0248209,-0.0101022,-1.98488,0,0,0,0,0,0,0,0,0,0,0.222107,-0.0738877,0.145395,-1.5,0,0,0,0,0.00167843,-0.00061425,0,0,0,0,0.0248209,-0.0101022,1.9603e-19,0,0,0,0,0,0,0,0,0,1,0.000675675
6589,0,0,-1.50586,-0.0020988,-0.00208368,-0.00235762,0.0208272,-0.000857184,-1.98491,0,0,0,0.0021035,-0.000789695,0.027558,-0.0114559,-1.98491,0,0,0,0,0,0,0,0,0,0,0.221322,-0.0738017,0.153737,-1.5,0,0,0,1,0.0021035,-0.000789695,0,0,0,0,0.027558,-0.0114559,1.9603e-19,0,0,0,0,0,0,0,0,0,1,0.000868665
6605,0,0,-1.74121,-0.000735804,-0.00265688,-0.00178854,0.0207862,-0.000888483,-1.98495,0,0,0,0.00257207,-0.000986696,0.0302655,-0.0127997,-1.98495,0,0,0,0,0,0,0,0,0,0,0.220541,-0.0737083,0.175038,-1.5,0,0,0,2,0.00257207,-0.000986696,0,0,0,0,0.0302655,-0.0127997,1.9603e-19,0,0,0,0,0,0,0,0,0,1,0.00108537
6620,0,0,-6.26758,-0.00147563,-0.00205652,-0.00147727,0.0207171,-0.00094159,-1.985,0,0,0,0.00305038,-0.0011908,0.0327765,-0.0140511,-1.98497,0,0,0,0,0,0,0,0,0,0,0.219815,-0.0736177,0.194702,-1.5,0,0,0,3,0.00305038,-0.0011908,0,0,0,0,0.0327765,-0.0140511,1.9603e-19,0,0,0,0,0,0,0,0,0,1,0.00130989
6636,0,0,-4.83008,-0.0027658,-0.00175433,-0.00302443,0.0206692,-0.000970388,-1.98504,0,0,0,0.00360186,-0.00142915,0.0354266,-0.0153775,-1.985,0,0,0,0,0,0,0,0,0,0,0.219046,-0.0735141,0.21587,-1.5,0,0,0,0,0.00360186,-0.00142915,0,0,0,0,0.0354266,-0.0153775,1.9603e-19,0,0,0,0,0,0,0,0,0,1,0.00157206
6654,0,0,-3.37793,-0.00357693,-0.0016177,-0.00303129,0.0206137,-0.000994233,-1.98508,0,0,0,0.00427444,-0.00172352,0.0383697,-0.0168605,-1.98508,0,0,0,0,0,0,0,0,0,0,0.218183,-0.0733794,0.222088,-1.5,0,0,0,1,0.00427444,-0.00172352,0,0,0,0,0.0383697,-0.0168605,1.9603e-19,0,0,0,0,0,0,0,0,0,1,0.00189587
6698,0,0,2.73633,-0.00101234,-0.00230944,-0.00173978,0.020503,-0.00107827,-1.98517,0,0,0,0.0061809,-0.00257571,0.0454439,-0.0204422,-1.98517,0,0,0,0,0,0,0,0,0,0,0.2161,-0.0730383,0.286922,-1.5,0,0,0,2,0.0061809,-0.00257571,0,0,0,0,0.0454439,-0.0204422,1.9603e-19,0,0,0,0,0,0,0,0,0,1,0.00283328
6730,0,0,-2.93164,-0.00211161,-0.0014627,-0.00119784,0.0204076,-0.00113131,-1.98522,0,0,0,0.00775863,-0.00329312,0.0504463,-0.0230077,-1.98522,0,0,0,0,0,0,0,0,0,0,0.214612,-0.072763,0.330518,-1.5,0,0,0,3,0.00775863,-0.00329312,0,0,0,0,0.0504463,-0.0230077,1.9603e-19,0,0,0,0,0,0,0,0,0,1,0.00362243
6743,0,0,-1.32617,-0.00210544,-0.0017725,-0.00188051,0.0203617,-0.00115888,-1.98525,0,0,0,0.00843021,-0.00360038,0.052434,-0.0240362,-1.98525,0,0,0,0,0,0,0,0,0,0,0.214017,-0.0726446,0.346449,-1.5,0,0,0,0,0.00843021,-0.00360038,0,0,0,0,0.052434,-0.0240362,1.9603e-19,0,0,0,0,0,0,0,0,0,1,0.00396042
6756,0,0,2.77344,-0.000983088,-0.00259818,-0.00132859,0.0203319,-0.00118787,-1.98527,0,0,0,0.00912748,-0.00392096,0.054403,-0.0250594,-1.98527,0,0,0,0,0,0,0,0,0,0,0.213426,-0.0725237,0.353254,-1.5,0,0,0,1,0.00912748,-0.00392096,0,0,0,0,0.054403,-0.0250594,1.9603e-19,0,0,0,0,0,0,0,0,0,1,0.00431306
6771,0,0,-6.82715,-0.00163692,-0.000209995,-0.00344648,0.0202875,-0.00120335,-1.98531,0,0,0,0.00996534,-0.00430821,0.0566545,-0.0262331,-1.98531,0,0,0,0,0,0,0,0,0,0,0.212746,-0.0723762,0.372193,-1.5,0,0,0,2,0.00996534,-0.00430821,0,0,0,0,0.0566545,-0.0262331,1.9603e-19,0,0,0,0,0,0,0,0,0,1,0.00473903
6787,0,0,4.3623,-0.00216122,-0.00279546,-0.00194218,0.0201963,-0.00125214,-1.98537,0,0,0,0.0108961,-0.00474061,0.0590297,-0.0274751,-1.98534,0,0,0,0,0,0,0,0,0,0,0.212026,-0.0722146,0.392638,-1.5,0,0,0,3,0.0108961,-0.00474061,0,0,0,0,0.0590297,-0.0274751,1.9603e-19,0,0,0,0,0,0,0,0,0,1,0.00521468
6803,0,0,-2.42871,-0.00184962,-0.000722141,-0.00273057,0.0201502,-0.00126919,-1.9854,0,0,0,0.0118652,-0.00519318,0.0613776,-0.0287082,-1.98537,0,0,0,0,0,0,0,0,0,0,0.211311,-0.0720493,0.413009,-1.5,0,0,0,0,0.0118652,-0.00519318,0,0,0,0,0.0613776,-0.0287082,1.9603e-19,0,0,0,0,0,0,0,0,0,1,0.0057125
6819,0,0,-4.37012,-0.0021535,-0.000342593,-0.00280728,0.0200901,-0.00127029,-1.98544,0,0,0,0.012871,-0.00566499,0.0636969,-0.0299312,-1.98544,0,0,0,0,0,0,0,0,0,0,0.210598,-0.07187,0.416549,-1.5,0,0,0,1,0.012871,-0.00566499,0,0,0,0,0.0636969,-0.0299312,1.9603e-19,0,0,0,0,0,0,0,0,0,1,0.00623149
6841,0,0,-3.29883,-0.00407157,-0.00108115,-0.00222599,0.0200274,-0.00128687,-1.98547,0,0,0,0.0143222,-0.00634985,0.0668409,-0.031594,-1.98547,0,0,0,0,0,0,0,0,0,0,0.209632,-0.0716269,0.446186,-1.5,0,0,0,2,0.0143222,-0.00634985,0,0,0,0,0.0668409,-0.031594,1.9603e-19,0,0,0,0,0,0,0,0,0,1,0.00698483
6857,0,0,-4.19922,-0.00205343,-0.00179255,-0.00157123,0.0199256,-0.00132233,-1.98553,0,0,0,0.0154147,-0.00686755,0.0690955,-0.0327893,-1.98547,0,0,0,0,0,0,0,0,0,0,0.208939,-0.0714502,0.466336,-1.5,0,0,0,3,0.0154147,-0.00686755,0,0,0,0,0.0690955,-0.0327893,1.9603e-19,0,0,0,0,0,0,0,0,0,1,0.0075543
6872,0,0,5.02832,-0.000584699,-0.0036826,-0.00264884,0.0198912,-0.00136442,-1.98556,0,0,0,0.0164714,-0.00737015,0.0711843,-0.0339005,-1.98553,0,0,0,0,0,0,0,0,0,0,0.208287,-0.0712668,0.484847,-1.5,0,0,0,0,0.0164714,-0.00737015,0,0,0,0,0.0711843,-0.0339005,1.9603e-19,0,0,0,0,0,0,0,0,0,1,0.00810716
6888,0,0,2.65332,-0.00272885,-0.00260738,-0.00166231,0.0198327,-0.00139464,-1.98559,0,0,0,0.017559,-0.00788936,0.0732417,-0.0350068,-1.98559,0,0,0,0,0,0,0,0,0,0,0.207641,-0.0710783,0.485534,-1.5,0,0,0,1,0.017559,-0.00788936,0,0,0,0,0.0732417,-0.0350068,1.9603e-19,0,0,0,0,0,0,0,0,0,1,0.0086783
6903,0,0,2.97559,-0.00194047,-0.000883235,-0.00221184,0.0197914,-0.00140645,-1.98562,0,0,0,0.018753,-0.00846142,0.0754083,-0.036178,-1.98562,0,0,0,0,0,0,0,0,0,0,0.206961,-0.0708791,0.505513,-1.5,0,0,0,2,0.018753,-0.00846142,0,0,0,0,0.0754083,-0.036178,1.9603e-19,0,0,0,0,0,0,0,0,0,1,0.00930756
6919,0,0,5.49121,-0.00149978,-0.00130757,-0.00109596,0.0197641,-0.00141988,-1.98564,0,0,0,0.0199814,-0.00905212,0.0775512,-0.0373394,-1.98564,0,0,0,0,0,0,0,0,0,0,0.206286,-0.0706754,0.52542,-1.5,0,0,0,3,0.0199814,-0.00905212,0,0,0,0,0.0775512,-0.0373394,1.9603e-19,0,0,0,0,0,0,0,0,0,1,0.00995733
6934,0,0,-4.57324,-0.00111696,-0.00196048,-0.00243701,0.0197274,-0.00143474,-1.98567,0,0,0,0.021164,-0.00962267,0.0795394,-0.0384199,-1.98567,0,0,0,0,0,0,0,0,0,0,0.205655,-0.0704786,0.543694,-1.5,0,0,0,0,0.021164,-0.00962267,0,0,0,0,0.0795394,-0.0384199,1.9603e-19,0,0,0,0,0,0,0,0,0,1,0.0105849
6949,0,0,4.93555,-0.00222748,-0.00115192,-0.00139908,0.0196691,-0.00145732,-1.98569,0,0,0,0.0223761,-0.0102093,0.0815056,-0.0394922,-1.98569,0,0,0,0,0,0,0,0,0,0,0.20503,-0.0702793,0.543325,-1.5,0,0,0,1,0.0223761,-0.0102093,0,0,0,0,0.0815056,-0.0394922,1.9603e-19,0,0,0,0,0,0,0,0,0,1,0.0112303
6966,0,0,-4.37207,-0.00218975,-0.00102655,-0.00158626,0.0195859,-0.00149085,-1.98575,0,0,0,0.023786,-0.010894,0.0837074,-0.0406976,-1.98572,0,0,0,0,0,0,0,0,0,0,0.204326,-0.0700468,0.563068,-1.5,0,0,0,2,0.023786,-0.010894,0,0,0,0,0.0837074,-0.0406976,1.9603e-19,0,0,0,0,0,0,0,0,0,1,0.0119834
6990,0,0,-4.37207,-0.00218975,-0.00102655,-0.00158626,0.0195859,-0.00149085,-1.98575,-3.70353,0.233984,-0.199479,0.0257607,-0.0118572,0.0866512,-0.0423142,-1.98575,0,0,228,22,228,22,351,15,232,142,0.20338,-0.0697258,0.593695,-1.5,0,0,0,3,0.0257607,-0.0118572,0,0,0,0,0.0866512,-0.0423142,15875,0,0,0,0,0,0,0,0,0,1,0.0130429
7005,0,0,-4.37207,-0.00218975,-0.00102655,-0.00158626,0.0195859,-0.00149085,-1.98575,-3.70353,0.233984,-0.199479,0.0271683,-0.0125459,0.0886716,-0.0434263,-1.98575,0,0,228,22,228,22,351,15,232,142,0.202729,-0.0695017,0.613261,-1.5,0,0,0,0,0.0271683,-0.0125459,0,0,0,0,0.0886716,-0.0434263,15875,0,0,0,0,0,0,0,0,0,1,0.0138005
7021,0,0,4.00586,-0.0021609,-0.0011455,-0.000812296,0.019404,-0.00158639,-1.98585,-3.70353,0.233984,-0.199479,0.0286075,-0.013252,0.0906755,-0.0445293,-1.98575,0,0,228,22,228,22,351,15,232,142,0.202081,-0.0692736,0.610416,-1.5,0,0,0,1,0.0286075,-0.013252,0,0,0,0,0.0906755,-0.0445293,15875,0,0,0,0,0,0,0,0,0,1,0.0145772
7036,0,0,-3.62012,-0.00226642,-0.00105114,-0.0022966,0.0193663,-0.00160693,-1.98589,-3.70353,0.233984,-0.199479,0.0299856,-0.0139298,0.0925235,-0.0455565,-1.98585,0,0,228,22,228,22,351,15,232,142,0.201469,-0.0690335,0.628326,-1.5,0,0,0,2,0.0299856,-0.0139298,0,0,0,0,0.0925235,-0.0455565,15875,0,0,0,0,0,0,0,0,0,1,0.0153228
7052,0,0,-7.01172,-0.00165125,-0.000741569,-0.00219849,0.0193259,-0.00161647,-1.98591,-3.70353,0.233984,-0.199479,0.0313911,-0.0146231,0.0943402,-0.0465776,-1.98589,0,0,228,22,228,22,351,15,232,142,0.20087,-0.0688021,0.646176,-1.5,0,0,0,3,0.0313911,-0.0146231,0,0,0,0,0.0943402,-0.0465776,15875,0,0,0,0,0,0,0,0,0,1,0.0160854
7068,0,0,6.87891,-0.00108598,-0.00170969,-0.00202872,0.0192888,-0.00164868,-1.98594,-3.678,0.232681,-0.212202,0.0330173,-0.0154275,0.096372,-0.0477251,-1.98594,0,0,226,22,226,22,351,16,232,142,0.200195,-0.0685313,0.667103,-1.5,0,0,0,0,0.0330173,-0.0154275,0,0,0,0,0.096372,-0.0477251,16254,0,0,0,0,0,0,0,0,0,1,0.0169703
7084,0,0,-6.81934,-0.00206179,-0.00224086,-0.0026174,0.0192375,-0.00167869,-1.98598,-3.678,0.232681,-0.212202,0.0345785,-0.0162021,0.0982588,-0.0487985,-1.98598,0,0,226,22,226,22,351,16,232,142,0.199565,-0.0682733,0.666084,-1.5,0,0,0,1,0.0345785,-0.0162021,0,0,0,0,0.0982588,-0.0487985,16254,0,0,0,0,0,0,0,0,0,1,0.0178223
7100,0,0,-2.47461,-0.00225601,-0.0019276,-0.00162483,0.0191947,-0.00171003,-1.98601,-3.67813,0.232872,-0.212487,0.0361696,-0.0169937,0.100121,-0.049865,-1.98601,0,0,226,22,226,22,351,16,232,142,0.198941,-0.0680126,0.685335,-1.5,0,0,0,2,0.0361696,-0.0169937,0,0,0,0,0.100121,-0.049865,16254,0,0,0,0,0,0,0,0,0,1,0.0186931
7115,0,0,4.58789,-0.0026838,-0.00190202,-0.00209735,0.0191533,-0.00173976,-1.98605,-3.67813,0.232872,-0.212487,0.0376882,-0.0177513,0.101845,-0.0508587,-1.98605,0,0,226,22,226,22,351,16,232,142,0.198358,-0.0677606,0.702958,-1.5,0,0,0,3,0.0376882,-0.0177513,0,0,0,0,0.101845,-0.0508587,16254,0,0,0,0,0,0,0,0,0,1,0.0195265
7133,0,0,-6.16895,-3.14339e-05,-0.00120823,-0.00270642,0.0190722,-0.00176992,-1.9861,-3.67813,0.232872,-0.212487,0.0394415,-0.0186286,0.103777,-0.051977,-1.98607,0,0,226,22,226,22,351,16,232,142,0.197704,-0.0674749,0.723651,-1.5,0,0,0,0,0.0394415,-0.0186286,0,0,0,0,0.103777,-0.051977,16254,0,0,0,0,0,0,0,0,0,1,0.0204915
7149,0,0,4.72461,-0.00188782,-0.00295615,-0.00139744,0.019035,-0.00180606,-1.98612,-3.66574,0.231846,-0.213136,0.0412267,-0.0195245,0.105683,-0.0530852,-1.9861,0,0,227,20,227,20,351,16,231,142,0.197053,-0.0671818,0.720176,-1.5,0,0,0,1,0.0412267,-0.0195245,0,0,0,0,0.105683,-0.0530852,16128,0,0,0,0,0,0,0,0,0,1,0.0214769
7164,0,0,2.07227,-0.00251433,-0.000459957,-0.00265329,0.0189782,-0.00182451,-1.98615,-3.66574,0.231846,-0.213136,0.042828,-0.0203302,0.107341,-0.0540577,-1.98615,0,0,227,20,227,20,351,16,231,142,0.196481,-0.0669137,0.737647,-1.5,0,0,0,2,0.042828,-0.0203302,0,0,0,0,0.107341,-0.0540577,16128,0,0,0,0,0,0,0,0,0,1,0.0223632
7180,0,0,6.38086,-0.00194276,-0.00181217,-0.00263366,0.0189394,-0.00185184,-1.98618,-3.68657,0.231452,-0.20983,0.0445633,-0.0212056,0.109085,-0.0550868,-1.98618,0,0,227,22,227,22,351,16,232,142,0.195878,-0.0666283,0.753556,-1.5,0,0,0,3,0.0445633,-0.0212056,0,0,0,0,0.109085,-0.0550868,16128,0,0,0,0,0,0,0,0,0,1,0.0233261
7196,0,0,-3.26465,-0.000692607,-0.00146918,-0.00313012,0.0189114,-0.00187296,-1.98622,-3.68657,0.231452,-0.20983,0.0463263,-0.0220974,0.110808,-0.0561093,-1.98622,0,0,227,22,227,22,351,16,232,142,0.195277,-0.0663354,0.769389,-1.5,0,0,0,0,0.0463263,-0.0220974,0,0,0,0,0.110808,-0.0561093,16128,0,0,0,0,0,0,0,0,0,1,0.0243071
7212,0,0,-3.26465,-0.000692607,-0.00146918,-0.00313012,0.0189114,-0.00187296,-1.98622,-3.704,0.237203,-0.20333,0.0481166,-0.0230055,0.112514,-0.0571245,-1.98622,0,0,227,22,227,22,351,16,232,142,0.194683,-0.0660468,0.766535,-1.5,0,0,0,1,0.0481166,-0.0230055,0,0,0,0,0.112514,-0.0571245,15876,0,0,0,0,0,0,0,0,0,1,0.025306
7228,0,0,-3.26465,-0.000692607,-0.00146918,-0.00313012,0.0189114,-0.00187296,-1.98622,-3.704,0.237203,-0.20333,0.0499341,-0.0239298,0.114207,-0.0581316,-1.98622,0,0,227,22,227,22,351,16,232,142,0.194092,-0.0657546,0.785391,-1.5,0,0,0,2,0.0499341,-0.0239298,0,0,0,0,0.114207,-0.0581316,15876,0,0,0,0,0,0,0,0,0,1,0.0263227
7244,0,0,-3.26465,-0.000692607,-0.00146918,-0.00313012,0.0189114,-0.00187296,-1.98622,-3.70404,0.237246,-0.203411,0.0516624,-0.0248108,0.115781,-0.0590685,-1.98622,0,0,227,22,227,22,351,16,232,142,0.19354,-0.0654775,0.802582,-1.5,0,0,0,3,0.0516624,-0.0248108,0,0,0,0,0.115781,-0.0590685,15876,0,0,0,0,0,0,0,0,0,1,0.0272919
7260,0,0,-3.26465,-0.000692607,-0.00146918,-0.00313012,0.0189114,-0.00187296,-1.98622,-3.70404,0.237246,-0.203411,0.0535325,-0.0257663,0.117447,-0.0600602,-1.98622,0,0,227,22,227,22,351,16,232,142,0.192952,-0.0651784,0.820921,-1.5,0,0,0,0,0.0535325,-0.0257663,0,0,0,0,0.117447,-0.0600602,15876,0,0,0,0,0,0,0,0,0,1,0.028343
7275,0,0,-3.26465,-0.000692607,-0.00146918,-0.00313012,0.0189114,-0.00187296,-1.98622,-3.70367,0.237214,-0.203433,0.055429,-0.0267376,0.119101,-0.061044,-1.98622,0,0,228,22,228,22,351,16,231,142,0.192367,-0.0648757,0.81443,-1.5,0,0,0,1,0.055429,-0.0267376,0,0,0,0,0.119101,-0.061044,15750,0,0,0,0,0,0,0,0,0,1,0.0294114
7291,0,0,0.394531,-0.0019015,-0.00209856,-0.00303619,0.0186137,-0.00199196,-1.98647,-3.70367,0.237214,-0.203433,0.0573518,-0.0277246,0.120728,-0.0620198,-1.98647,0,0,228,22,228,22,351,16,231,142,0.19176,-0.064521,0.832461,-1.5,0,0,0,2,0.0573518,-0.0277246,0,0,0,0,0.120728,-0.0620198,15750,0,0,0,0,0,0,0,0,0,1,0.0304971
7307,0,0,0.394531,-0.0019015,-0.00209856,-0.00303619,0.0186137,-0.00199196,-1.98647,-3.69571,0.238952,-0.206503,0.0592995,-0.0287268,0.122304,-0.0629867,-1.98647,0,0,227,22,227,22,351,16,231,142,0.19119,-0.0642069,0.847712,-1.5,0,0,0,3,0.0592995,-0.0287268,0,0,0,0,0.122304,-0.0629867,15876,0,0,0,0,0,0,0,0,0,1,0.0315995
7322,0,0,0.394531,-0.0019015,-0.00209856,-0.00303619,0.0186137,-0.00199196,-1.98647,-3.69571,0.238952,-0.206503,0.0611483,-0.0296803,0.12377,-0.0638861,-1.98647,0,0,227,22,227,22,351,16,231,142,0.190658,-0.0639093,0.86354,-1.5,0,0,0,0,0.0611483,-0.0296803,0,0,0,0,0.12377,-0.0638861,15876,0,0,0,0,0,0,0,0,0,1,0.0326483
7339,0,0,0.394531,-0.0019015,-0.00209856,-0.00303619,0.0186137,-0.00199196,-1.98647,-3.69594,0.239396,-0.206999,0.0632712,-0.0307779,0.12542,-0.0648978,-1.98647,0,0,227,22,227,22,351,16,231,142,0.190057,-0.0635683,0.85515,-1.5,0,0,0,1,0.0632712,-0.0307779,0,0,0,0,0.12542,-0.0648978,15876,0,0,0,0,0,0,0,0,0,1,0.0338557
7354,0,0,4.81348,-0.0028236,-0.0015527,-0.0030715,0.0183895,-0.00207207,-1.98662,-3.69594,0.239396,-0.206999,0.065166,-0.0317596,0.126851,-0.0657821,-1.98659,0,0,227,22,227,22,351,16,231,142,0.189518,-0.0632415,0.870928,-1.5,0,0,0,2,0.065166,-0.0317596,0,0,0,0,0.126851,-0.0657821,15876,0,0,0,0,0,0,0,0,0,1,0.0349356
7369,0,0,4.81348,-0.0028236,-0.0015527,-0.0030715,0.0183895,-0.00207207,-1.98662,-3.70403,0.237921,-0.20419,0.0670823,-0.0327549,0.128252,-0.0666586,-1.98662,0,0,228,22,228,22,351,16,231,142,0.188995,-0.062925,0.887436,-1.5,0,0,0,3,0.0670823,-0.0327549,0,0,0,0,0.128252,-0.0666586,15750,0,0,0,0,0,0,0,0,0,1,0.0360304
7385,0,0,4.81348,-0.0028236,-0.0015527,-0.0030715,0.0183895,-0.00207207,-1.98662,-3.70403,0.237921,-0.20419,0.0691499,-0.0338312,0.129731,-0.0675863,-1.98662,0,0,228,22,228,22,351,16,231,142,0.188443,-0.0625914,0.903751,-1.5,0,0,0,0,0.0691499,-0.0338312,0,0,0,0,0.129731,-0.0675863,15750,0,0,0,0,0,0,0,0,0,1,0.0372143
7401,0,0,4.81348,-0.0028236,-0.0015527,-0.0030715,0.0183895,-0.00207207,-1.98662,-3.70406,0.237994,-0.204269,0.0712411,-0.0349222,0.131199,-0.0685067,-1.98662,0,0,228,22,228,22,351,16,231,142,0.187893,-0.0622546,0.896598,-1.5,0,0,0,1,0.0712411,-0.0349222,0,0,0,0,0.131199,-0.0685067,15750,0,0,0,0,0,0,0,0,0,1,0.0384144
7417,0,0,-0.198242,-0.00183963,-0.00063652,-0.0027112,0.0181852,-0.00214404,-1.98674,-3.70406,0.237994,-0.204269,0.0733555,-0.0360279,0.132642,-0.0694188,-1.98674,0,0,228,22,228,22,351,16,231,142,0.187335,-0.0618914,0.91267,-1.5,0,0,0,2,0.0733555,-0.0360279,0,0,0,0,0.132642,-0.0694188,15750,0,0,0,0,0,0,0,0,0,1,0.0396307
7443,0,0,3.73535,-0.00210845,-0.000949975,-0.0027928,0.0181083,-0.00217974,-1.98681,-3.69624,0.240034,-0.207647,0.0768477,-0.0378607,0.134927,-0.0708859,-1.98681,0,0,227,22,227,22,351,16,231,142,0.186453,-0.0613124,0.942863,-1.5,0,0,0,3,0.0768477,-0.0378607,0,0,0,0,0.134927,-0.0708859,15876,0,0,0,0,0,0,0,0,0,1,0.0416468
7459,0,0,-0.833984,-0.00177933,-0.00247087,-0.00158001,0.018067,-0.00221423,-1.98684,-3.69624,0.240034,-0.207647,0.0790206,-0.039004,0.136302,-0.071779,-1.98684,0,0,227,22,227,22,351,16,231,142,0.185918,-0.0609545,0.958174,-1.5,0,0,0,0,0.0790206,-0.039004,0,0,0,0,0.136302,-0.071779,15876,0,0,0,0,0,0,0,0,0,1,0.0429044
7474,0,0,4.15137,-0.00310409,-0.00251715,-0.00179434,0.018016,-0.00225073,-1.98687,-3.69624,0.240034,-0.207647,0.0810774,-0.0400887,0.137572,-0.0726117,-1.98687,0,0,227,22,227,22,351,16,231,142,0.18542,-0.0606149,0.952145,-1.5,0,0,0,1,0.0810774,-0.0400887,0,0,0,0,0.137572,-0.0726117,15876,0,0,0,0,0,0,0,0,0,1,0.0440976
7490,0,0,-2.48535,-0.004358,-0.00113646,-0.00352414,0.017954,-0.00226504,-1.98691,-3.69624,0.240034,-0.207647,0.0832922,-0.0412595,0.138908,-0.0734936,-1.98691,0,0,227,22,227,22,351,16,231,142,0.184891,-0.0602464,0.964099,-1.5,0,0,0,2,0.0832922,-0.0412595,0,0,0,0,0.138908,-0.0734936,15876,0,0,0,0,0,0,0,0,0,1,0.0453855
7505,0,0,-5.7627,-0.00229057,-0.000991818,-0.00173678,0.017855,-0.00229943,-1.98696,-3.69624,0.240034,-0.207647,0.0853878,-0.0423699,0.14014,-0.0743127,-1.98693,0,0,227,22,227,22,351,16,231,142,0.184399,-0.0598989,0.979863,-1.5,0,0,0,3,0.0853878,-0.0423699,0,0,0,0,0.14014,-0.0743127,15876,0,0,0,0,0,0,0,0,0,1,0.0466068
7521,0,0,-2.62402,-0.00211602,-0.00125246,-0.00169946,0.0178186,-0.00231321,-1.98699,-3.69624,0.240034,-0.207647,0.0875017,-0.0434924,0.141355,-0.075125,-1.98696,0,0,227,22,227,22,351,16,231,142,0.183912,-0.0595488,0.992801,-1.5,0,0,0,0,0.0875017,-0.0434924,0,0,0,0,0.141355,-0.075125,15876,0,0,0,0,0,0,0,0,0,1,0.0478417
7536,0,0,-2.62402,-0.00211602,-0.00125246,-0.00169946,0.0178186,-0.00231321,-1.98699,-3.69655,0.240528,-0.208281,0.0897768,-0.0447035,0.142635,-0.0759847,-1.98699,0,0,227,22,227,22,351,16,231,142,0.183394,-0.0591708,0.984937,-1.5,0,0,0,1,0.0897768,-0.0447035,0,0,0,0,0.142635,-0.0759847,15876,0,0,0,0,0,0,0,0,0,1,0.0491738
7553,0,0,-2.62402,-0.00211602,-0.00125246,-0.00169946,0.0178186,-0.00231321,-1.98699,-3.69655,0.240528,-0.208281,0.0922164,-0.0460052,0.143981,-0.0768904,-1.98699,0,0,227,22,227,22,351,16,231,142,0.18285,-0.0587723,1.00006,-1.5,0,0,0,2,0.0922164,-0.0460052,0,0,0,0,0.143981,-0.0768904,15876,0,0,0,0,0,0,0,0,0,1,0.0506057
7568,0,0,-2.62402,-0.00211602,-0.00125246,-0.00169946,0.0178186,-0.00231321,-1.98699,-3.697,0.236108,-0.208342,0.0943876,-0.0471662,0.145158,-0.0776831,-1.98699,0,0,227,22,227,22,352,16,232,142,0.182371,-0.058418,1.01554,-1.5,0,0,0,3,0.0943876,-0.0471662,0,0,0,0,0.145158,-0.0776831,15876,0,0,0,0,0,0,0,0,0,1,0.0518828
7583,0,0,2.68066,-0.00244469,-0.00136872,-0.00100157,0.0176263,-0.00240458,-1.98711,-3.697,0.236108,-0.208342,0.0965762,-0.0483391,0.146315,-0.0784702,-1.98711,0,0,227,22,227,22,352,16,232,142,0.181884,-0.0580396,1.0277,-1.5,0,0,0,0,0.0965762,-0.0483391,0,0,0,0,0.146315,-0.0784702,15876,0,0,0,0,0,0,0,0,0,1,0.053173
7599,0,0,2.56445,-0.0020375,-0.00197829,-0.00215114,0.0175867,-0.00242309,-1.98713,-3.697,0.236108,-0.208342,0.0989299,-0.0496034,0.147516,-0.0793043,-1.98713,0,0,227,22,227,22,352,16,232,142,0.181381,-0.0576481,1.01955,-1.5,0,0,0,1,0.0989299,-0.0496034,0,0,0,0,0.147516,-0.0793043,15876,0,0,0,0,0,0,0,0,0,1,0.0545637
7616,0,0,-1.91602,-0.00411433,-0.00124523,-0.00254425,0.0174557,-0.00247658,-1.98718,-3.697,0.236108,-0.208342,0.101452,-0.0509615,0.148774,-0.080184,-1.98715,0,0,227,22,227,22,352,16,232,142,0.180852,-0.0572294,1.03379,-1.5,0,0,0,2,0.101452,-0.0509615,0,0,0,0,0.148774,-0.080184,15876,0,0,0,0,0,0,0,0,0,1,0.0560577
7633,0,0,1.48438,-0.00279332,-0.0012713,-0.0023972,0.0174091,-0.00249455,-1.98721,-3.69697,0.241024,-0.208999,0.103995,-0.0523343,0.150007,-0.0810559,-1.98718,0,0,226,22,226,22,351,16,232,142,0.180325,-0.0568038,1.05055,-1.5,0,0,0,3,0.103995,-0.0523343,0,0,0,0,0.150007,-0.0810559,16002,0,0,0,0,0,0,0,0,0,1,0.0575677
7649,0,0,-5.75781,-0.00150317,-0.00170482,-0.00300719,0.0173762,-0.00250901,-1.98725,-3.69697,0.241024,-0.208999,0.106406,-0.0536395,0.151143,-0.0818686,-1.98725,0,0,226,22,226,22,351,16,232,142,0.17983,-0.0563915,1.06297,-1.5,0,0,0,0,0.106406,-0.0536395,0,0,0,0,0.151143,-0.0818686,16002,0,0,0,0,0,0,0,0,0,1,0.0590034
7665,0,0,3.52539,-0.00234463,-0.00204402,-0.00322916,0.0173249,-0.00253762,-1.98729,-3.69697,0.241024,-0.208999,0.108836,-0.0549576,0.152263,-0.0826751,-1.98729,0,0,226,22,226,22,351,16,232,142,0.17934,-0.0559813,1.05453,-1.5,0,0,0,1,0.108836,-0.0549576,0,0,0,0,0.152263,-0.0826751,16002,0,0,0,0,0,0,0,0,0,1,0.0604534
7681,0,0,3.68359,-0.00113502,-0.00320178,-0.00371758,0.0172977,-0.00257172,-1.98734,-3.69697,0.241024,-0.208999,0.11113,-0.056205,0.153297,-0.0834272,-1.98734,0,0,226,22,226,22,351,16,232,142,0.178884,-0.0555924,1.06581,-1.5,0,0,0,2,0.11113,-0.056205,0,0,0,0,0.153297,-0.0834272,16002,0,0,0,0,0,0,0,0,0,1,0.0618255
7696,0,0,5.32227,-0.00218525,-0.00310604,-0.0031027,0.017257,-0.00260808,-1.98739,-3.69697,0.241024,-0.208999,0.113594,-0.0575482,0.154384,-0.0842263,-1.98739,0,0,226,22,226,22,351,16,232,142,0.178399,-0.0551731,1.08232,-1.5,0,0,0,3,0.113594,-0.0575482,0,0,0,0,0.154384,-0.0842263,16002,0,0,0,0,0,0,0,0,0,1,0.0633031
7712,0,0,0.216797,-0.00178632,-0.000684412,-0.000318353,0.0171766,-0.00263916,-1.98743,-3.70248,0.232352,-0.213925,0.116076,-0.0589042,0.155457,-0.0850208,-1.98739,0,0,227,22,227,22,352,19,232,142,0.177923,-0.054759,1.09398,-1.5,0,0,0,0,0.116076,-0.0589042,0,0,0,0,0.155457,-0.0850208,15744,0,0,0,0,0,0,0,0,0,1,0.0647946
7728,0,0,-7.06543,-0.00192946,-0.0003441,-0.00256487,0.0171383,-0.0026504,-1.98747,-3.70248,0.232352,-0.213925,0.118574,-0.0602726,0.156514,-0.0858086,-1.98743,0,0,227,22,227,22,352,19,232,142,0.177443,-0.0543332,1.08531,-1.5,0,0,0,1,0.118574,-0.0602726,0,0,0,0,0.156514,-0.0858086,15744,0,0,0,0,0,0,0,0,0,1,0.0662998
7744,0,0,5.23242,-0.00214097,-0.00191056,-0.00180704,0.0170905,-0.00267393,-1.9875,-3.67929,0.231411,-0.216654,0.120931,-0.0615668,0.157489,-0.0865407,-1.98747,0,0,227,22,227,22,351,16,232,142,0.176998,-0.0539332,1.09687,-1.5,0,0,0,2,0.120931,-0.0615668,0,0,0,0,0.157489,-0.0865407,16254,0,0,0,0,0,0,0,0,0,1,0.0677235
7760,0,0,3.85742,-0.00216805,-0.00126417,-0.00298809,0.0170443,-0.00269282,-1.98753,-3.67929,0.231411,-0.216654,0.123621,-0.0630473,0.158571,-0.0873642,-1.98753,0,0,227,22,227,22,351,16,232,142,0.176495,-0.0534705,1.11313,-1.5,0,0,0,3,0.123621,-0.0630473,0,0,0,0,0.158571,-0.0873642,16254,0,0,0,0,0,0,0,0,0,1,0.0693521
7775,0,0,3.85742,-0.00216805,-0.00126417,-0.00298809,0.0170443,-0.00269282,-1.98753,-3.69541,0.232314,-0.214971,0.126008,-0.0643648,0.159512,-0.0880847,-1.98753,0,0,227,22,227,22,352,18,232,142,0.17606,-0.0530698,1.12316,-1.5,0,0,0,0,0.126008,-0.0643648,0,0,0,0,0.159512,-0.0880847,15872,0,0,0,0,0,0,0,0,0,1,0.0708013
7790,0,0,3.85742,-0.00216805,-0.00126417,-0.00298809,0.0170443,-0.00269282,-1.98753,-3.69541,0.232314,-0.214971,0.12841,-0.0656928,0.160447,-0.0887997,-1.98753,0,0,227,22,227,22,352,18,232,142,0.175626,-0.0526669,1.11828,-1.5,0,0,0,1,0.12841,-0.0656928,0,0,0,0,0.160447,-0.0887997,15872,0,0,0,0,0,0,0,0,0,1,0.0722621
7806,0,0,3.85742,-0.00216805,-0.00126417,-0.00298809,0.0170443,-0.00269282,-1.98753,-3.68007,0.236127,-0.21663,0.130987,-0.0671215,0.161436,-0.0895567,-1.98753,0,0,226,22,226,22,351,16,232,142,0.175165,-0.0522347,1.12906,-1.5,0,0,0,2,0.130987,-0.0671215,0,0,0,0,0.161436,-0.0895567,16254,0,0,0,0,0,0,0,0,0,1,0.0738337
7822,0,0,6.1084,-0.00243457,-0.00180057,-0.00223198,0.0168323,-0.00276286,-1.98763,-3.68007,0.236127,-0.21663,0.13358,-0.0685621,0.162401,-0.0903061,-1.98763,0,0,226,22,226,22,351,16,232,142,0.174696,-0.0517819,1.14195,-1.5,0,0,0,3,0.13358,-0.0685621,0,0,0,0,0.162401,-0.0903061,16254,0,0,0,0,0,0,0,0,0,1,0.0754183
7838,0,0,-1.44434,-0.00217579,-0.00231272,-0.00169373,0.0167807,-0.0027829,-1.98766,-3.6884,0.234726,-0.213774,0.136189,-0.0700148,0.163337,-0.0910478,-1.98766,0,0,227,22,227,22,351,16,232,142,0.174241,-0.0513357,1.15219,-1.5,0,0,0,0,0.136189,-0.0700148,0,0,0,0,0.163337,-0.0910478,16128,0,0,0,0,0,0,0,0,0,1,0.0770163
7854,0,0,-1.44434,-0.00217579,-0.00231272,-0.00169373,0.0167807,-0.0027829,-1.98766,-3.6884,0.234726,-0.213774,0.138811,-0.0714791,0.164259,-0.0917832,-1.98766,0,0,227,22,227,22,351,16,232,142,0.173793,-0.0508927,1.14547,-1.5,0,0,0,1,0.138811,-0.0714791,0,0,0,0,0.164259,-0.0917832,16128,0,0,0,0,0,0,0,0,0,1,0.078627
7870,0,0,-1.44434,-0.00217579,-0.00231272,-0.00169373,0.0167807,-0.0027829,-1.98766,-3.6884,0.234726,-0.213774,0.141449,-0.072955,0.165174,-0.0925127,-1.98766,0,0,227,22,227,22,351,16,232,142,0.173345,-0.0504474,1.1556,-1.5,0,0,0,2,0.141449,-0.072955,0,0,0,0,0.165174,-0.0925127,16128,0,0,0,0,0,0,0,0,0,1,0.0802505
7886,0,0,5.43555,-0.00199544,-0.0018131,-0.00249188,0.0166093,-0.00285814,-1.98781,-3.6884,0.234726,-0.213774,0.144101,-0.0744426,0.166074,-0.0932365,-1.98781,0,0,227,22,227,22,351,16,232,142,0.172883,-0.0499742,1.16827,-1.5,0,0,0,3,0.144101,-0.0744426,0,0,0,0,0.166074,-0.0932365,16128,0,0,0,0,0,0,0,0,0,1,0.0818869
7902,0,0,-2.51855,-0.00233503,-0.00153707,-0.00108117,0.016554,-0.00287613,-1.98782,-3.71283,0.243158,-0.209179,0.146767,-0.0759417,0.166941,-0.0939544,-1.98782,0,0,226,22,226,22,351,18,232,142,0.172443,-0.0495185,1.17553,-1.5,0,0,0,0,0.146767,-0.0759417,0,0,0,0,0.166941,-0.0939544,15748,0,0,0,0,0,0,0,0,0,1,0.0835359
7918,0,0,-2.51855,-0.00233503,-0.00153707,-0.00108117,0.016554,-0.00287613,-1.98782,-3.71283,0.243158,-0.209179,0.149447,-0.0774523,0.167796,-0.0946659,-1.98782,0,0,226,22,226,22,351,18,232,142,0.172007,-0.0490626,1.16933,-1.5,0,0,0,1,0.149447,-0.0774523,0,0,0,0,0.167796,-0.0946659,15748,0,0,0,0,0,0,0,0,0,1,0.0851975
7934,0,0,-2.51855,-0.00233503,-0.00153707,-0.00108117,0.016554,-0.00287613,-1.98782,-3.69063,0.234977,-0.222437,0.15214,-0.0789741,0.168644,-0.0953718,-1.98782,0,0,227,22,227,22,351,18,232,142,0.171573,-0.0486045,1.17653,-1.5,0,0,0,2,0.15214,-0.0789741,0,0,0,0,0.168644,-0.0953718,15872,0,0,0,0,0,0,0,0,0,1,0.0868715
7949,0,0,-2.51855,-0.00233503,-0.00153707,-0.00108117,0.016554,-0.00287613,-1.98782,-3.69063,0.234977,-0.222437,0.154677,-0.0804111,0.169433,-0.0960285,-1.98782,0,0,227,22,227,22,351,18,232,142,0.171166,-0.048173,1.1906,-1.5,0,0,0,3,0.154677,-0.0804111,0,0,0,0,0.169433,-0.0960285,15872,0,0,0,0,0,0,0,0,0,1,0.0884522
7966,0,0,-2.51855,-0.00233503,-0.00153707,-0.00108117,0.016554,-0.00287613,-1.98782,-3.67345,0.232039,-0.217986,0.157568,-0.0820519,0.17032,-0.096767,-1.98782,0,0,227,22,227,22,352,15,232,142,0.170705,-0.0476814,1.20044,-1.5,0,0,0,0,0.157568,-0.0820519,0,0,0,0,0.17032,-0.096767,16256,0,0,0,0,0,0,0,0,0,1,0.0902571
7981,0,0,-2.51855,-0.00233503,-0.00153707,-0.00108117,0.016554,-0.00287613,-1.98782,-3.67345,0.232039,-0.217986,0.16013,-0.0835097,0.171097,-0.0974132,-1.98782,0,0,227,22,227,22,352,15,232,142,0.1703,-0.0472458,1.19248,-1.5,0,0,0,1,0.16013,-0.0835097,0,0,0,0,0.171097,-0.0974132,16256,0,0,0,0,0,0,0,0,0,1,0.0918607
7997,0,0,-6.11914,-0.00106307,-0.000986418,-0.00203326,0.0162359,-0.00298257,-1.98803,-3.67345,0.232039,-0.217986,0.162876,-0.0850755,0.171899,-0.0980956,-1.98803,0,0,227,22,227,22,352,15,232,142,0.169847,-0.0467428,1.20149,-1.5,0,0,0,2,0.162876,-0.0850755,0,0,0,0,0.171899,-0.0980956,16256,0,0,0,0,0,0,0,0,0,1,0.093583
8019,0,0,-6.11914,-0.00106307,-0.000986418,-0.00203326,0.0162359,-0.00298257,-1.98803,-3.65251,0.232865,-0.230563,0.166674,-0.0872478,0.172947,-0.0990219,-1.98803,0,0,227,22,227,22,352,15,231,142,0.169272,-0.0460912,1.2254,-1.5,0,0,0,3,0.166674,-0.0872478,0,0,0,0,0.172947,-0.0990219,16256,0,0,0,0,0,0,0,0,0,1,0.0959726
8039,0,0,-6.11914,-0.00106307,-0.000986418,-0.00203326,0.0162359,-0.00298257,-1.98803,-3.68532,0.242053,-0.220668,0.170146,-0.0892399,0.17389,-0.0998551,-1.98803,0,0,227,22,227,22,352,16,231,142,0.16875,-0.0454954,1.23639,-1.5,0,0,0,0,0.170146,-0.0892399,0,0,0,0,0.17389,-0.0998551,15750,0,0,0,0,0,0,0,0,0,1,0.0981639
8150,0,0,-1.70898,-0.00442944,-0.00152891,-0.0026773,0.0156901,-0.00317421,-1.98839,-3.71119,0.241489,-0.21253,0.189985,-0.100798,0.179032,-0.104427,-1.98839,0,0,227,23,227,23,352,18,231,142,0.165775,-0.0420045,1.07855,-1.5,0,0,0,1,0.189985,-0.100798,0,0,0,0,0.179032,-0.104427,15624,0,0,0,0,0,0,0,0,0,1,0.110878
8277,0,0,1.53613,-0.0016714,-0.00227498,-0.00331136,0.0152834,-0.00333888,-1.98866,-3.70731,0.244483,-0.20644,0.213302,-0.114642,0.183877,-0.109318,-1.98866,0,0,227,22,227,22,351,15,232,142,0.162591,-0.0378548,1.19845,-1.5,0,0,0,2,0.213302,-0.114642,0,0,0,0,0.183877,-0.109318,15875,0,0,0,0,0,0,0,0,0,1,0.126106
8293,0,0,4.21484,-0.00344573,-0.000936688,-0.00205509,0.0151823,-0.00336299,-1.98872,-3.70731,0.244483,-0.20644,0.216249,-0.116397,0.184381,-0.109893,-1.98869,0,0,227,22,227,22,351,15,232,142,0.162218,-0.0373284,1.21307,-1.5,0,0,0,3,0.216249,-0.116397,0,0,0,0,0.184381,-0.109893,15875,0,0,0,0,0,0,0,0,0,1,0.128037
8309,0,0,1.07812,-0.00296567,-0.00249163,-0.0029363,0.0151427,-0.00339165,-1.98875,-3.68839,0.245665,-0.220627,0.219019,-0.118051,0.184841,-0.110427,-1.98872,0,0,227,22,227,22,352,18,229,142,0.16187,-0.0368327,1.22091,-1.5,0,0,0,0,0.219019,-0.118051,0,0,0,0,0.184841,-0.110427,15624,0,0,0,0,0,0,0,0,0,1,0.129856
8325,0,0,0.753906,-0.00231134,-0.00161186,-0.00252798,0.0151017,-0.00341747,-1.98879,-3.68839,0.245665,-0.220627,0.221981,-0.119823,0.185316,-0.110994,-1.98879,0,0,227,22,227,22,352,18,229,142,0.161497,-0.0362954,1.21278,-1.5,0,0,0,1,0.221981,-0.119823,0,0,0,0,0.185316,-0.110994,15624,0,0,0,0,0,0,0,0,0,1,0.131806
8341,0,0,0.753906,-0.00231134,-0.00161186,-0.00252798,0.0151017,-0.00341747,-1.98879,-3.69018,0.250729,-0.21589,0.225137,-0.121717,0.18581,-0.111592,-1.98879,0,0,227,22,227,22,351,16,229,142,0.161112,-0.035733,1.22287,-1.5,0,0,0,2,0.225137,-0.121717,0,0,0,0,0.18581,-0.111592,15750,0,0,0,0,0,0,0,0,0,1,0.133889
8356,0,0,0.753906,-0.00231134,-0.00161186,-0.00252798,0.0151017,-0.00341747,-1.98879,-3.69018,0.250729,-0.21589,0.227929,-0.123396,0.186242,-0.112115,-1.98879,0,0,227,22,227,22,351,16,229,142,0.160773,-0.0352353,1.23657,-1.5,0,0,0,3,0.227929,-0.123396,0,0,0,0,0.186242,-0.112115,15750,0,0,0,0,0,0,0,0,0,1,0.135735
8372,0,0,0.753906,-0.00231134,-0.00161186,-0.00252798,0.0151017,-0.00341747,-1.98879,-3.69107,0.241871,-0.215978,0.230913,-0.125196,0.186699,-0.112669,-1.98879,0,0,227,22,227,22,353,16,231,142,0.160411,-0.0347028,1.24455,-1.5,0,0,0,0,0.230913,-0.125196,0,0,0,0,0.186699,-0.112669,15876,0,0,0,0,0,0,0,0,0,1,0.137715
8389,0,0,2.2207,-0.0020726,-0.00142991,-0.00205618,0.014887,-0.00351511,-1.98894,-3.69107,0.241871,-0.215978,0.234093,-0.127118,0.18717,-0.113253,-1.98891,0,0,227,22,227,22,353,16,231,142,0.160012,-0.0341142,1.23312,-1.5,0,0,0,1,0.234093,-0.127118,0,0,0,0,0.18717,-0.113253,15876,0,0,0,0,0,0,0,0,0,1,0.139829
8405,0,0,2.2207,-0.0020726,-0.00142991,-0.00205618,0.014887,-0.00351511,-1.98894,-3.67902,0.227806,-0.227606,0.237092,-0.128935,0.187585,-0.113799,-1.98894,0,0,227,23,227,23,355,18,232,142,0.159655,-0.0335701,1.23893,-1.5,0,0,0,2,0.237092,-0.128935,0,0,0,0,0.187585,-0.113799,15872,0,0,0,0,0,0,0,0,0,1,0.141829
8420,0,0,2.2207,-0.0020726,-0.00142991,-0.00205618,0.014887,-0.00351511,-1.98894,-3.67902,0.227806,-0.227606,0.239909,-0.130647,0.187969,-0.114307,-1.98894,0,0,227,23,227,23,355,18,232,142,0.159324,-0.033063,1.2525,-1.5,0,0,0,3,0.239909,-0.130647,0,0,0,0,0.187969,-0.114307,15872,0,0,0,0,0,0,0,0,0,1,0.143712
8437,0,0,2.2207,-0.0020726,-0.00142991,-0.00205618,0.014887,-0.00351511,-1.98894,-3.70477,0.238345,-0.215508,0.243109,-0.132597,0.188401,-0.114877,-1.98894,0,0,227,22,227,22,351,18,232,142,0.15895,-0.0324865,1.26167,-1.5,0,0,0,0,0.243109,-0.132597,0,0,0,0,0.188401,-0.114877,15872,0,0,0,0,0,0,0,0,0,1,0.145856
8452,0,0,-0.401367,-0.00334033,-0.00187373,-0.00202067,0.0147225,-0.00360328,-1.98904,-3.70477,0.238345,-0.215508,0.245939,-0.134325,0.188768,-0.115377,-1.98904,0,0,227,22,227,22,351,18,232,142,0.158608,-0.0319595,1.25322,-1.5,0,0,0,1,0.245939,-0.134325,0,0,0,0,0.188768,-0.115377,15872,0,0,0,0,0,0,0,0,0,1,0.147757
8469,0,0,5.59473,-0.00202324,-0.00137112,-0.00136581,0.0146886,-0.00361912,-1.98907,-3.72926,0.233358,-0.206539,0.248963,-0.136176,0.189136,-0.115908,-1.98907,0,0,230,22,230,22,351,18,232,142,0.15826,-0.0314062,1.26078,-1.5,0,0,0,2,0.248963,-0.136176,0,0,0,0,0.189136,-0.115908,15500,0,0,0,0,0,0,0,0,0,1,0.149794
8484,0,0,5.59473,-0.00202324,-0.00137112,-0.00136581,0.0146886,-0.00361912,-1.98907,-3.72926,0.233358,-0.206539,0.251993,-0.138036,0.189498,-0.116435,-1.98907,0,0,230,22,230,22,351,18,232,142,0.157916,-0.0308551,1.27574,-1.5,0,0,0,3,0.251993,-0.138036,0,0,0,0,0.189498,-0.116435,15500,0,0,0,0,0,0,0,0,0,1,0.15184
8500,0,0,5.59473,-0.00202324,-0.00137112,-0.00136581,0.0146886,-0.00361912,-1.98907,-3.72926,0.233358,-0.206539,0.255029,-0.139905,0.189858,-0.116958,-1.98907,0,0,230,22,230,22,351,18,232,142,0.157572,-0.0303027,1.28279,-1.5,0,0,0,0,0.255029,-0.139905,0,0,0,0,0.189858,-0.116958,15500,0,0,0,0,0,0,0,0,0,1,0.153895
8516,0,0,-2.96777,-0.00170313,-0.00253745,-0.00242295,0.0145389,-0.00371122,-1.9892,-3.72926,0.233358,-0.206539,0.25807,-0.141782,0.190214,-0.117477,-1.98907,0,0,230,22,230,22,351,18,232,142,0.157228,-0.0297487,1.27261,-1.5,0,0,0,1,0.25807,-0.141782,0,0,0,0,0.190214,-0.117477,15500,0,0,0,0,0,0,0,0,0,1,0.15596
8532,0,0,3.46387,-0.00284329,-0.00240562,-0.00203575,0.0145089,-0.00373817,-1.98923,-3.70035,0.236232,-0.222807,0.261117,-0.143667,0.190539,-0.117995,-1.98923,0,0,228,22,228,22,351,18,232,142,0.156868,-0.0291646,1.27971,-1.5,0,0,0,2,0.261117,-0.143667,0,0,0,0,0.190539,-0.117995,15748,0,0,0,0,0,0,0,0,0,1,0.158033
8548,0,0,-4.70117,-0.00206436,-0.00189847,-0.00303665,0.0144719,-0.00376159,-1.98926,-3.70035,0.236232,-0.222807,0.264169,-0.14556,0.190855,-0.118512,-1.98926,0,0,228,22,228,22,351,18,232,142,0.156526,-0.0285972,1.29451,-1.5,0,0,0,3,0.264169,-0.14556,0,0,0,0,0.190855,-0.118512,15748,0,0,0,0,0,0,0,0,0,1,0.160116
8564,0,0,5.65332,-0.00182447,-0.00203239,-0.00211883,0.0144298,-0.00379065,-1.98928,-3.70035,0.236232,-0.222807,0.267226,-0.147462,0.19116,-0.119025,-1.98928,0,0,228,22,228,22,351,18,232,142,0.156189,-0.0280302,1.30112,-1.5,0,0,0,0,0.267226,-0.147462,0,0,0,0,0.19116,-0.119025,15748,0,0,0,0,0,0,0,0,0,1,0.162208
8580,0,0,5.65332,-0.00182447,-0.00203239,-0.00211883,0.0144298,-0.00379065,-1.98928,-3.70772,0.243877,-0.211265,0.270287,-0.149371,0.191457,-0.119536,-1.98928,0,0,227,22,227,22,351,16,232,142,0.155856,-0.027464,1.29078,-1.5,0,0,0,1,0.270287,-0.149371,0,0,0,0,0.191457,-0.119536,15876,0,0,0,0,0,0,0,0,0,1,0.164308
8596,0,0,5.65332,-0.00182447,-0.00203239,-0.00211883,0.0144298,-0.00379065,-1.98928,-3.70772,0.243877,-0.211265,0.273354,-0.151289,0.191752,-0.120042,-1.98928,0,0,227,22,227,22,351,16,232,142,0.155523,-0.0268964,1.29745,-1.5,0,0,0,2,0.273354,-0.151289,0,0,0,0,0.191752,-0.120042,15876,0,0,0,0,0,0,0,0,0,1,0.166418
8611,0,0,-1.92773,-0.00274096,-0.00135094,-0.00184459,0.0142416,-0.00385606,-1.98941,-3.67959,0.228535,-0.228734,0.276233,-0.153094,0.192027,-0.120513,-1.98928,0,0,227,23,227,23,355,18,232,142,0.15521,-0.0263631,1.31055,-1.5,0,0,0,3,0.276233,-0.153094,0,0,0,0,0.192027,-0.120513,15872,0,0,0,0,0,0,0,0,0,1,0.168404
8626,0,0,2.46582,-0.00230541,-0.00156754,-0.00178671,0.0141962,-0.00387347,-1.98943,-3.67959,0.228535,-0.228734,0.279116,-0.154906,0.192284,-0.120979,-1.98941,0,0,227,23,227,23,355,18,232,142,0.154883,-0.0258074,1.31625,-1.5,0,0,0,0,0.279116,-0.154906,0,0,0,0,0.192284,-0.120979,15872,0,0,0,0,0,0,0,0,0,1,0.170397
8642,0,0,2.46582,-0.00230541,-0.00156754,-0.00178671,0.0141962,-0.00387347,-1.98943,-3.6965,0.239132,-0.21817,0.282195,-0.156847,0.192534,-0.121472,-1.98943,0,0,227,23,227,23,351,16,232,142,0.154556,-0.0252296,1.30581,-1.5,0,0,0,1,0.282195,-0.156847,0,0,0,0,0.192534,-0.121472,16128,0,0,0,0,0,0,0,0,0,1,0.172532
8658,0,0,2.46582,-0.00230541,-0.00156754,-0.00178671,0.0141962,-0.00387347,-1.98943,-3.6965,0.239132,-0.21817,0.285278,-0.158796,0.192781,-0.12196,-1.98943,0,0,227,23,227,23,351,16,232,142,0.154232,-0.0246537,1.31003,-1.5,0,0,0,2,0.285278,-0.158796,0,0,0,0,0.192781,-0.12196,16128,0,0,0,0,0,0,0,0,0,1,0.174675
8674,0,0,2.46582,-0.00230541,-0.00156754,-0.00178671,0.0141962,-0.00387347,-1.98943,-3.68264,0.249315,-0.221087,0.288365,-0.160752,0.193027,-0.122444,-1.98943,0,0,227,22,227,22,351,16,229,142,0.153908,-0.0240766,1.32353,-1.5,0,0,0,3,0.288365,-0.160752,0,0,0,0,0.193027,-0.122444,15876,0,0,0,0,0,0,0,0,0,1,0.176827
8690,0,0,4.47852,-0.00261297,-0.00066395,-0.0030467,0.014013,-0.00393702,-1.98957,-3.68264,0.249315,-0.221087,0.291456,-0.162716,0.193258,-0.122923,-1.98957,0,0,227,22,227,22,351,16,229,142,0.153565,-0.0234755,1.32944,-1.5,0,0,0,0,0.291456,-0.162716,0,0,0,0,0.193258,-0.122923,15876,0,0,0,0,0,0,0,0,0,1,0.178988
8706,0,0,0.454102,-0.00259699,-0.00164702,-0.00168577,0.0139349,-0.003973,-1.98964,-3.70806,0.244562,-0.212011,0.29455,-0.164688,0.193466,-0.123398,-1.98961,0,0,227,22,227,22,351,16,232,142,0.153243,-0.0228866,1.32201,-1.5,0,0,0,1,0.29455,-0.164688,0,0,0,0,0.193466,-0.123398,15876,0,0,0,0,0,0,0,0,0,1,0.181157
8722,0,0,-6.03809,-0.00166318,-0.00242211,-0.00323522,0.0139125,-0.00400047,-1.98968,-3.70806,0.244562,-0.212011,0.297648,-0.166667,0.193666,-0.123869,-1.98964,0,0,227,22,227,22,351,16,232,142,0.152923,-0.0222969,1.32587,-1.5,0,0,0,2,0.297648,-0.166667,0,0,0,0,0.193666,-0.123869,15876,0,0,0,0,0,0,0,0,0,1,0.183334
8739,0,0,-6.03809,-0.00166318,-0.00242211,-0.00323522,0.0139125,-0.00400047,-1.98968,-3.67551,0.235919,-0.22253,0.300942,-0.168778,0.19387,-0.124367,-1.98968,0,0,227,22,227,22,352,15,232,142,0.152584,-0.0216679,1.34077,-1.5,0,0,0,3,0.300942,-0.168778,0,0,0,0,0.19387,-0.124367,16256,0,0,0,0,0,0,0,0,0,1,0.185656
8755,0,0,-6.03809,-0.00166318,-0.00242211,-0.00323522,0.0139125,-0.00400047,-1.98968,-3.67551,0.235919,-0.22253,0.304046,-0.170773,0.194058,-0.124833,-1.98968,0,0,227,22,227,22,352,15,232,142,0.15227,-0.0210796,1.34426,-1.5,0,0,0,0,0.304046,-0.170773,0,0,0,0,0.194058,-0.124833,16256,0,0,0,0,0,0,0,0,0,1,0.18785
8771,0,0,-6.03809,-0.00166318,-0.00242211,-0.00323522,0.0139125,-0.00400047,-1.98968,-3.70332,0.243899,-0.213608,0.307153,-0.172775,0.194245,-0.125294,-1.98968,0,0,226,22,226,22,351,18,231,140,0.151957,-0.0204901,1.33561,-1.5,0,0,0,1,0.307153,-0.172775,0,0,0,0,0.194245,-0.125294,15738,0,0,0,0,0,0,0,0,0,1,0.190052
8786,0,0,-3.32617,-0.0032945,-0.00175437,-0.00200833,0.0137282,-0.00408548,-1.98983,-3.70332,0.243899,-0.213608,0.310068,-0.174658,0.194406,-0.125724,-1.98983,0,0,226,22,226,22,351,18,231,140,0.151642,-0.0199125,1.34074,-1.5,0,0,0,2,0.310068,-0.174658,0,0,0,0,0.194406,-0.125724,15738,0,0,0,0,0,0,0,0,0,1,0.192124
8803,0,0,-0.416016,-0.00124715,-0.000440511,-0.00197652,0.0136979,-0.0040933,-1.98986,-3.71555,0.242953,-0.214202,0.313375,-0.176801,0.194566,-0.126208,-1.98986,0,0,227,22,227,22,352,18,232,142,0.151312,-0.0192754,1.35662,-1.5,0,0,0,3,0.313375,-0.176801,0,0,0,0,0.194566,-0.126208,15624,0,0,0,0,0,0,0,0,0,1,0.194481
8818,0,0,-0.416016,-0.00124715,-0.000440511,-0.00197652,0.0136979,-0.0040933,-1.98986,-3.71555,0.242953,-0.214202,0.316295,-0.178698,0.194702,-0.126631,-1.98986,0,0,227,22,227,22,352,18,232,142,0.151026,-0.0187163,1.36132,-1.5,0,0,0,0,0.316295,-0.178698,0,0,0,0,0.194702,-0.126631,15624,0,0,0,0,0,0,0,0,0,1,0.196568
8833,0,0,-0.416016,-0.00124715,-0.000440511,-0.00197652,0.0136979,-0.0040933,-1.98986,-3.71522,0.247501,-0.214345,0.319217,-0.180602,0.194838,-0.12705,-1.98986,0,0,226,22,226,22,351,18,232,142,0.150739,-0.018156,1.35207,-1.5,0,0,0,1,0.319217,-0.180602,0,0,0,0,0.194838,-0.12705,15748,0,0,0,0,0,0,0,0,0,1,0.198662
8849,0,0,-3.48145,-0.00340483,-0.00152533,-0.000252824,0.0135634,-0.00414455,-1.98995,-3.71522,0.247501,-0.214345,0.322336,-0.182639,0.194981,-0.127495,-1.98986,0,0,226,22,226,22,351,18,232,142,0.150433,-0.0175574,1.35727,-1.5,0,0,0,2,0.322336,-0.182639,0,0,0,0,0.194981,-0.127495,15748,0,0,0,0,0,0,0,0,0,1,0.200903
8865,0,0,0.928711,-0.00372805,-0.000345765,-0.00238738,0.013517,-0.00414845,-1.98999,-3.71522,0.247501,-0.214345,0.325457,-0.184684,0.195099,-0.127934,-1.98999,0,0,226,22,226,22,351,18,232,142,0.150113,-0.0169367,1.37146,-1.5,0,0,0,3,0.325457,-0.184684,0,0,0,0,0.195099,-0.127934,15748,0,0,0,0,0,0,0,0,0,1,0.203152
8881,0,0,0.928711,-0.00372805,-0.000345765,-0.00238738,0.013517,-0.00414845,-1.98999,-3.67327,0.236333,-0.228419,0.328579,-0.186735,0.195211,-0.128367,-1.98999,0,0,227,23,227,23,353,16,231,142,0.149814,-0.0163337,1.37623,-1.5,0,0,0,0,0.328579,-0.186735,0,0,0,0,0.195211,-0.128367,16128,0,0,0,0,0,0,0,0,0,1,0.205409
8897,0,0,0.928711,-0.00372805,-0.000345765,-0.00238738,0.013517,-0.00414845,-1.98999,-3.67327,0.236333,-0.228419,0.331704,-0.188794,0.195322,-0.128798,-1.98999,0,0,227,23,227,23,353,16,231,142,0.149514,-0.0157297,1.3653,-1.5,0,0,0,1,0.331704,-0.188794,0,0,0,0,0.195322,-0.128798,16128,0,0,0,0,0,0,0,0,0,1,0.207673
8913,0,0,0.928711,-0.00372805,-0.000345765,-0.00238738,0.013517,-0.00414845,-1.98999,-3.697,0.235439,-0.223874,0.33483,-0.190859,0.195432,-0.129224,-1.98999,0,0,227,23,227,23,355,18,232,142,0.149215,-0.0151247,1.37134,-1.5,0,0,0,2,0.33483,-0.190859,0,0,0,0,0.195432,-0.129224,15872,0,0,0,0,0,0,0,0,0,1,0.209945
8929,0,0,-3.02832,-0.00238675,-0.000725458,-0.00198693,0.0132797,-0.00423881,-1.99011,-3.697,0.235439,-0.223874,0.337958,-0.192931,0.195529,-0.129647,-1.99008,0,0,227,23,227,23,355,18,232,142,0.148903,-0.0145034,1.38541,-1.5,0,0,0,3,0.337958,-0.192931,0,0,0,0,0.195529,-0.129647,15872,0,0,0,0,0,0,0,0,0,1,0.212224
8945,0,0,-4.6416,-0.00209256,-0.00153746,-0.00222499,0.0132365,-0.00425204,-1.99014,-3.69099,0.239649,-0.219552,0.341087,-0.19501,0.195601,-0.130066,-1.99011,0,0,227,22,227,22,351,16,232,142,0.148607,-0.013889,1.38984,-1.5,0,0,0,0,0.341087,-0.19501,0,0,0,0,0.195601,-0.130066,16128,0,0,0,0,0,0,0,0,0,1,0.214511
8961,0,0,-3.13867,-0.00296793,-0.00175399,-0.00278208,0.0131931,-0.00427385,-1.99018,-3.69099,0.239649,-0.219552,0.344218,-0.197095,0.19566,-0.130479,-1.99018,0,0,227,22,227,22,351,16,232,142,0.148306,-0.0132662,1.38193,-1.5,0,0,0,1,0.344218,-0.197095,0,0,0,0,0.19566,-0.130479,16128,0,0,0,0,0,0,0,0,0,1,0.216804
8976,0,0,-3.13867,-0.00296793,-0.00175399,-0.00278208,0.0131931,-0.00427385,-1.99018,-3.70836,0.245695,-0.213331,0.347153,-0.199056,0.19571,-0.130865,-1.99018,0,0,228,22,228,22,351,16,231,142,0.148036,-0.0126907,1.38605,-1.5,0,0,0,2,0.347153,-0.199056,0,0,0,0,0.19571,-0.130865,15750,0,0,0,0,0,0,0,0,0,1,0.218961
8992,0,0,-3.13867,-0.00296793,-0.00175399,-0.00278208,0.0131931,-0.00427385,-1.99018,-3.70836,0.245695,-0.213331,0.350285,-0.201154,0.195762,-0.131273,-1.99018,0,0,228,22,228,22,351,16,231,142,0.147747,-0.012076,1.40002,-1.5,0,0,0,3,0.350285,-0.201154,0,0,0,0,0.195762,-0.131273,15750,0,0,0,0,0,0,0,0,0,1,0.221269
9008,0,0,-3.13867,-0.00296793,-0.00175399,-0.00278208,0.0131931,-0.00427385,-1.99018,-3.71372,0.246023,-0.217911,0.353418,-0.203258,0.195814,-0.131677,-1.99018,0,0,227,23,227,23,352,18,231,142,0.147458,-0.0114602,1.4041,-1.5,0,0,0,0,0.353418,-0.203258,0,0,0,0,0.195814,-0.131677,15624,0,0,0,0,0,0,0,0,0,1,0.223584
9023,0,0,3.96289,-0.00153016,-0.00245234,-0.00303619,0.0130497,-0.00433962,-1.9903,-3.71372,0.246023,-0.217911,0.356355,-0.205237,0.195853,-0.132054,-1.9903,0,0,227,23,227,23,352,18,231,142,0.14717,-0.0108635,1.39451,-1.5,0,0,0,1,0.356355,-0.205237,0,0,0,0,0.195853,-0.132054,15624,0,0,0,0,0,0,0,0,0,1,0.225761
9039,0,0,6.83594,-0.00199302,-0.00273606,-0.00121128,0.0130096,-0.00437346,-1.99032,-3.69738,0.236132,-0.224667,0.359293,-0.207222,0.195875,-0.132429,-1.99032,0,0,227,23,227,23,355,18,232,142,0.146901,-0.0102787,1.39836,-1.5,0,0,0,2,0.359293,-0.207222,0,0,0,0,0.195875,-0.132429,15872,0,0,0,0,0,0,0,0,0,1,0.227944
9054,0,0,6.83594,-0.00199302,-0.00273606,-0.00121128,0.0130096,-0.00437346,-1.99032,-3.69738,0.236132,-0.224667,0.362428,-0.209345,0.195893,-0.132827,-1.99032,0,0,227,23,227,23,355,18,232,142,0.146619,-0.00965642,1.41221,-1.5,0,0,0,3,0.362428,-0.209345,0,0,0,0,0.195893,-0.132827,15872,0,0,0,0,0,0,0,0,0,1,0.230279
9070,0,0,6.83594,-0.00199302,-0.00273606,-0.00121128,0.0130096,-0.00437346,-1.99032,-3.69827,0.240141,-0.219608,0.365562,-0.211474,0.195912,-0.133222,-1.99032,0,0,230,20,230,20,351,19,229,142,0.146336,-0.00903327,1.41601,-1.5,0,0,0,0,0.365562,-0.211474,0,0,0,0,0.195912,-0.133222,15498,0,0,0,0,0,0,0,0,0,1,0.232621
9086,0,0,6.83594,-0.00199302,-0.00273606,-0.00121128,0.0130096,-0.00437346,-1.99032,-3.69827,0.240141,-0.219608,0.368697,-0.21361,0.19593,-0.133614,-1.99032,0,0,230,20,230,20,351,19,229,142,0.146052,-0.00840925,1.40476,-1.5,0,0,0,1,0.368697,-0.21361,0,0,0,0,0.19593,-0.133614,15498,0,0,0,0,0,0,0,0,0,1,0.234971
9102,0,0,6.83594,-0.00199302,-0.00273606,-0.00121128,0.0130096,-0.00437346,-1.99032,-3.69746,0.24096,-0.22034,0.371832,-0.215752,0.195947,-0.134003,-1.99032,0,0,227,23,227,23,351,16,232,142,0.145769,-0.00778436,1.40871,-1.5,0,0,0,2,0.371832,-0.215752,0,0,0,0,0.195947,-0.134003,16128,0,0,0,0,0,0,0,0,0,1,0.237327
9118,0,0,6.83594,-0.00199302,-0.00273606,-0.00121128,0.0130096,-0.00437346,-1.99032,-3.69746,0.24096,-0.22034,0.374967,-0.2179,0.195965,-0.134388,-1.99032,0,0,227,23,227,23,351,16,232,142,0.145485,-0.00715864,1.42123,-1.5,0,0,0,3,0.374967,-0.2179,0,0,0,0,0.195965,-0.134388,16128,0,0,0,0,0,0,0,0,0,1,0.23969
9134,0,0,-5.63281,-0.00319935,-0.00332444,-0.00233542,0.0126897,-0.00455537,-1.99054,-3.66636,0.23179,-0.234471,0.378103,-0.220054,0.195961,-0.134773,-1.99054,0,0,226,22,226,22,355,18,232,142,0.145168,-0.00649744,1.42481,-1.5,0,0,0,0,0.378103,-0.220054,0,0,0,0,0.195961,-0.134773,15996,0,0,0,0,0,0,0,0,0,1,0.242059
9150,0,0,-5.63281,-0.00319935,-0.00332444,-0.00233542,0.0126897,-0.00455537,-1.99054,-3.66636,0.23179,-0.234471,0.381238,-0.222214,0.195921,-0.135158,-1.99054,0,0,226,22,226,22,355,18,232,142,0.144896,-0.00586285,1.41537,-1.5,0,0,0,1,0.381238,-0.222214,0,0,0,0,0.195921,-0.135158,15996,0,0,0,0,0,0,0,0,0,1,0.244436
9166,0,0,-5.63281,-0.00319935,-0.00332444,-0.00233542,0.0126897,-0.00455537,-1.99054,-3.67218,0.246209,-0.233323,0.384372,-0.224381,0.195881,-0.135541,-1.99054,0,0,226,22,226,22,352,16,231,142,0.144624,-0.00522742,1.41906,-1.5,0,0,0,2,0.384372,-0.224381,0,0,0,0,0.195881,-0.135541,16002,0,0,0,0,0,0,0,0,0,1,0.246819
9182,0,0,-4.06445,-0.00117506,-0.0028304,-0.00258305,0.0125463,-0.00461671,-1.99067,-3.67218,0.246209,-0.233323,0.387506,-0.226553,0.195839,-0.13592,-1.99067,0,0,226,22,226,22,352,16,231,142,0.144329,-0.00457176,1.43148,-1.5,0,0,0,3,0.387506,-0.226553,0,0,0,0,0.195839,-0.13592,16002,0,0,0,0,0,0,0,0,0,1,0.249209
9198,0,0,-2.60742,-0.00235153,-0.00173197,-0.00190197,0.012514,-0.00463457,-1.9907,-3.67218,0.246209,-0.233323,0.390639,-0.228732,0.195774,-0.136296,-1.9907,0,0,226,22,226,22,352,16,231,142,0.144057,-0.00392889,1.43482,-1.5,0,0,0,0,0.390639,-0.228732,0,0,0,0,0.195774,-0.136296,16002,0,0,0,0,0,0,0,0,0,1,0.251605
9215,0,0,-2.60742,-0.00235153,-0.00173197,-0.00190197,0.012514,-0.00463457,-1.9907,-3.68363,0.24279,-0.224634,0.393966,-0.231053,0.1957,-0.136693,-1.9907,0,0,226,22,226,22,351,16,232,142,0.143773,-0.00324789,1.42372,-1.5,0,0,0,1,0.393966,-0.231053,0,0,0,0,0.1957,-0.136693,16254,0,0,0,0,0,0,0,0,0,1,0.254159
9230,0,0,-2.60742,-0.00235153,-0.00173197,-0.00190197,0.012514,-0.00463457,-1.9907,-3.68363,0.24279,-0.224634,0.396901,-0.233107,0.195636,-0.137041,-1.9907,0,0,226,22,226,22,351,16,232,142,0.143522,-0.00264633,1.42692,-1.5,0,0,0,2,0.396901,-0.233107,0,0,0,0,0.195636,-0.137041,16254,0,0,0,0,0,0,0,0,0,1,0.256418
9245,0,0,-2.60742,-0.00235153,-0.00173197,-0.00190197,0.012514,-0.00463457,-1.9907,-3.67894,0.239943,-0.235492,0.399835,-0.235166,0.195573,-0.137385,-1.9907,0,0,227,22,227,22,355,18,231,142,0.143271,-0.00204413,1.43899,-1.5,0,0,0,3,0.399835,-0.235166,0,0,0,0,0.195573,-0.137385,15872,0,0,0,0,0,0,0,0,0,1,0.258683
9261,0,0,-3.83008,-0.00238208,-0.000478976,-0.00187161,0.0123248,-0.00471329,-1.99082,-3.67894,0.239943,-0.235492,0.402963,-0.237368,0.195496,-0.137751,-1.99079,0,0,227,22,227,22,355,18,231,142,0.142988,-0.00138625,1.44215,-1.5,0,0,0,0,0.402963,-0.237368,0,0,0,0,0.195496,-0.137751,15872,0,0,0,0,0,0,0,0,0,1,0.261105
9277,0,0,-7.0625,-0.0021158,-0.00195575,-0.00159044,0.0122837,-0.0047351,-1.99085,-3.70533,0.239671,-0.222912,0.40609,-0.239576,0.195399,-0.138113,-1.99082,0,0,227,23,227,23,352,18,232,142,0.142719,-0.000734784,1.43253,-1.5,0,0,0,1,0.40609,-0.239576,0,0,0,0,0.195399,-0.138113,15872,0,0,0,0,0,0,0,0,0,1,0.263533
9293,0,0,6.78418,-0.00190619,-0.00142279,-0.00221439,0.012247,-0.00475031,-1.99088,-3.70533,0.239671,-0.222912,0.409215,-0.241789,0.195293,-0.138472,-1.99088,0,0,227,23,227,23,352,18,232,142,0.14245,-7.86259e-05,1.43581,-1.5,0,0,0,2,0.409215,-0.241789,0,0,0,0,0.195293,-0.138472,15872,0,0,0,0,0,0,0,0,0,1,0.265968
9308,0,0,6.78418,-0.00190619,-0.00142279,-0.00221439,0.012247,-0.00475031,-1.99088,-3.7254,0.243905,-0.2201,0.412144,-0.243869,0.195189,-0.138806,-1.99088,0,0,227,25,227,25,351,18,232,142,0.142206,0.000530519,1.44781,-1.5,0,0,0,3,0.412144,-0.243869,0,0,0,0,0.195189,-0.138806,15872,0,0,0,0,0,0,0,0,0,1,0.268256
9324,0,0,6.78418,-0.00190619,-0.00142279,-0.00221439,0.012247,-0.00475031,-1.99088,-3.7254,0.243905,-0.2201,0.415266,-0.246094,0.195079,-0.139159,-1.99088,0,0,227,25,227,25,351,18,232,142,0.141946,0.001181,1.45076,-1.5,0,0,0,0,0.415266,-0.246094,0,0,0,0,0.195079,-0.139159,15872,0,0,0,0,0,0,0,0,0,1,0.270703
9340,0,0,6.78418,-0.00190619,-0.00142279,-0.00221439,0.012247,-0.00475031,-1.99088,-3.66851,0.246648,-0.230815,0.418386,-0.248324,0.194969,-0.13951,-1.99088,0,0,227,22,227,22,353,16,229,142,0.141685,0.00183214,1.43924,-1.5,0,0,0,1,0.418386,-0.248324,0,0,0,0,0.194969,-0.13951,15876,0,0,0,0,0,0,0,0,0,1,0.273157
9356,0,0,3.3291,-0.00208385,-0.00124169,-0.00174787,0.012088,-0.00478457,-1.991,-3.66851,0.246648,-0.230815,0.421504,-0.25056,0.19485,-0.139855,-1.991,0,0,227,22,227,22,353,16,229,142,0.141404,0.00250242,1.44054,-1.5,0,0,0,2,0.421504,-0.25056,0,0,0,0,0.19485,-0.139855,15876,0,0,0,0,0,0,0,0,0,1,0.275616
9372,0,0,3.49512,-0.00242168,-0.00127087,-0.00211541,0.0120548,-0.00480651,-1.99103,-3.68767,0.248094,-0.23002,0.42462,-0.252801,0.194715,-0.140196,-1.99103,0,0,227,23,227,23,351,18,229,142,0.141143,0.00316047,1.45093,-1.5,0,0,0,3,0.42462,-0.252801,0,0,0,0,0.194715,-0.140196,15872,0,0,0,0,0,0,0,0,0,1,0.278081
9387,0,0,3.49512,-0.00242168,-0.00127087,-0.00211541,0.0120548,-0.00480651,-1.99103,-3.68767,0.248094,-0.23002,0.42754,-0.254907,0.194586,-0.140513,-1.99103,0,0,227,23,227,23,351,18,229,142,0.140904,0.00377478,1.45357,-1.5,0,0,0,0,0.42754,-0.254907,0,0,0,0,0.194586,-0.140513,15872,0,0,0,0,0,0,0,0,0,1,0.280398
9403,0,0,3.49512,-0.00242168,-0.00127087,-0.00211541,0.0120548,-0.00480651,-1.99103,-3.66865,0.238022,-0.231355,0.430652,-0.257159,0.194449,-0.140849,-1.99103,0,0,226,22,226,22,353,16,232,142,0.140649,0.00443064,1.45277,-1.5,0,0,0,2,0.430652,-0.257159,0,0,0,0,0.194449,-0.140849,16254,0,0,0,0,0,0,0,0,0,1,0.282875
9419,0,0,5.86035,-0.00336392,-0.00117525,-0.00325967,0.011895,-0.00486547,-1.99116,-3.66865,0.238022,-0.231355,0.433761,-0.259416,0.194307,-0.141181,-1.99116,0,0,226,22,226,22,353,16,232,142,0.14037,0.00510655,1.4779,-1.5,0,0,0,2,0.433761,-0.259416,0,0,0,0,0.194307,-0.141181,16254,0,0,0,0,0,0,0,0,0,1,0.285358
9435,0,0,-4.20898,-0.00222072,-0.00170875,-0.00223074,0.011863,-0.00488167,-1.99119,-3.68393,0.238985,-0.230183,0.436869,-0.261678,0.194144,-0.14151,-1.99119,0,0,226,22,226,22,355,18,232,142,0.140116,0.00576947,1.50303,-1.5,0,0,0,2,0.436869,-0.261678,0,0,0,0,0.194144,-0.14151,15996,0,0,0,0,0,0,0,0,0,1,0.287846
9450,0,0,-4.20898,-0.00222072,-0.00170875,-0.00223074,0.011863,-0.00488167,-1.99119,-3.68393,0.238985,-0.230183,0.439585,-0.263662,0.193999,-0.141796,-1.99119,0,0,226,22,226,22,355,18,232,142,0.139897,0.00634748,1.52502,-1.5,0,0,0,2,0.439585,-0.263662,0,0,0,0,0.193999,-0.141796,15996,0,0,0,0,0,0,0,0,0,1,0.290028
9466,0,0,-4.20898,-0.00222072,-0.00170875,-0.00223074,0.011863,-0.00488167,-1.99119,-3.68411,0.2438,-0.225761,0.442881,-0.266076,0.193824,-0.14214,-1.99119,0,0,226,22,226,22,351,16,232,142,0.139631,0.00705003,1.55173,-1.5,0,0,0,2,0.442881,-0.266076,0,0,0,0,0.193824,-0.14214,16254,0,0,0,0,0,0,0,0,0,1,0.292684
9482,0,0,-4.20898,-0.00222072,-0.00170875,-0.00223074,0.011863,-0.00488167,-1.99119,-3.68411,0.2438,-0.225761,0.445787,-0.268211,0.193671,-0.142442,-1.99119,0,0,226,22,226,22,351,16,232,142,0.139395,0.00767042,1.57529,-1.5,0,0,0,2,0.445787,-0.268211,0,0,0,0,0.193671,-0.142442,16254,0,0,0,0,0,0,0,0,0,1,0.295032
9498,0,0,-4.20898,-0.00222072,-0.00170875,-0.00223074,0.011863,-0.00488167,-1.99119,-3.68411,0.2438,-0.225761,0.449078,-0.270636,0.1935,-0.142781,-1.99119,0,0,226,22,226,22,351,16,232,142,0.139128,0.00837416,1.60199,-1.5,0,0,0,2,0.449078,-0.270636,0,0,0,0,0.1935,-0.142781,16254,0,0,0,0,0,0,0,0,0,1,0.2977
9514,0,0,-4.20898,-0.00222072,-0.00170875,-0.00223074,0.011863,-0.00488167,-1.99119,-3.67568,0.23178,-0.233351,0.451979,-0.272781,0.193349,-0.143077,-1.99119,0,0,227,22,227,22,355,18,232,142,0.138891,0.0089956,1.62555,-1.5,0,0,0,2,0.451979,-0.272781,0,0,0,0,0.193349,-0.143077,15872,0,0,0,0,0,0,0,0,0,1,0.300059
9530,0,0,-5.72461,-0.00291597,-0.00146904,-0.00189902,0.0116377,-0.00500409,-1.99139,-3.67568,0.23178,-0.233351,0.455264,-0.275217,0.193168,-0.143412,-1.99139,0,0,227,22,227,22,355,18,232,142,0.138587,0.00973058,1.65069,-1.5,0,0,0,2,0.455264,-0.275217,0,0,0,0,0.193168,-0.143412,15872,0,0,0,0,0,0,0,0,0,1,0.302739
9545,0,0,-5.72461,-0.00291597,-0.00146904,-0.00189902,0.0116377,-0.00500409,-1.99139,-3.71674,0.232136,-0.217708,0.45816,-0.277371,0.192982,-0.143707,-1.99139,0,0,230,22,230,22,355,18,232,142,0.138357,0.0103576,1.67425,-1.5,0,0,0,2,0.45816,-0.277371,0,0,0,0,0.192982,-0.143707,15500,0,0,0,0,0,0,0,0,0,1,0.305108
9561,0,0,-5.72461,-0.00291597,-0.00146904,-0.00189902,0.0116377,-0.00500409,-1.99139,-3.71674,0.232136,-0.217708,0.461245,-0.279674,0.192786,-0.144019,-1.99139,0,0,230,22,230,22,355,18,232,142,0.138112,0.011027,1.69938,-1.5,0,0,0,2,0.461245,-0.279674,0,0,0,0,0.192786,-0.144019,15500,0,0,0,0,0,0,0,0,0,1,0.307641
9577,0,0,6.16504,-0.00204755,-0.00160164,-0.00145474,0.0114757,-0.00506874,-1.9915,-3.68577,0.242064,-0.232518,0.464328,-0.281981,0.192591,-0.144329,-1.99139,0,0,227,23,227,23,351,16,232,142,0.137866,0.0116969,1.72451,-1.5,0,0,0,2,0.464328,-0.281981,0,0,0,0,0.192591,-0.144329,16128,0,0,0,0,0,0,0,0,0,1,0.310179
9593,0,0,-4.62207,-0.00244692,-0.00180256,-0.000714298,0.0114406,-0.00509168,-1.99151,-3.68577,0.242064,-0.232518,0.467407,-0.284294,0.192382,-0.144636,-1.9915,0,0,227,23,227,23,351,16,232,142,0.137602,0.0123836,1.74965,-1.5,0,0,0,2,0.467407,-0.284294,0,0,0,0,0.192382,-0.144636,16128,0,0,0,0,0,0,0,0,0,1,0.312723
9608,0,0,4.38477,-0.00294665,-0.00153437,-0.0018762,0.0113974,-0.00510662,-1.99155,-3.68577,0.242064,-0.232518,0.470291,-0.286466,0.192173,-0.144922,-1.99151,0,0,227,23,227,23,351,16,232,142,0.137374,0.0130172,1.77321,-1.5,0,0,0,2,0.470291,-0.286466,0,0,0,0,0.192173,-0.144922,16128,0,0,0,0,0,0,0,0,0,1,0.315112
9625,0,0,0.204102,-0.00268974,-0.00105968,-0.00206541,0.0113559,-0.00511743,-1.99158,-3.68577,0.242064,-0.232518,0.473555,-0.288933,0.191926,-0.145242,-1.99158,0,0,227,23,227,23,351,16,232,142,0.137108,0.0137444,1.79991,-1.5,0,0,0,2,0.473555,-0.288933,0,0,0,0,0.191926,-0.145242,16128,0,0,0,0,0,0,0,0,0,1,0.317826
9641,0,0,0.204102,-0.00268974,-0.00105968,-0.00206541,0.0113559,-0.00511743,-1.99158,-3.73187,0.249823,-0.215148,0.476623,-0.29126,0.19169,-0.145541,-1.99158,0,0,227,23,227,23,351,18,232,142,0.13687,0.0144207,1.82505,-1.5,0,0,0,2,0.476623,-0.29126,0,0,0,0,0.19169,-0.145541,15624,0,0,0,0,0,0,0,0,0,1,0.320386
9656,0,0,0.204102,-0.00268974,-0.00105968,-0.00206541,0.0113559,-0.00511743,-1.99158,-3.73187,0.249823,-0.215148,0.479497,-0.293446,0.19147,-0.145818,-1.99158,0,0,227,23,227,23,351,18,232,142,0.136646,0.0150552,1.84861,-1.5,0,0,0,2,0.479497,-0.293446,0,0,0,0,0.19147,-0.145818,15624,0,0,0,0,0,0,0,0,0,1,0.322791
9672,0,0,0.204102,-0.00268974,-0.00105968,-0.00206541,0.0113559,-0.00511743,-1.99158,-3.70832,0.239112,-0.221957,0.482558,-0.295782,0.191238,-0.146112,-1.99158,0,0,228,22,228,22,352,18,232,142,0.136406,0.0157323,1.87217,-1.5,0,0,0,2,0.482558,-0.295782,0,0,0,0,0.191238,-0.146112,15748,0,0,0,0,0,0,0,0,0,1,0.32536
9688,0,0,0.577148,-0.00252396,-0.00200531,-0.0017512,0.0112094,-0.00516726,-1.99172,-3.70832,0.239112,-0.221957,0.485615,-0.298123,0.191,-0.146403,-1.9917,0,0,228,22,228,22,352,18,232,142,0.136146,0.0164262,1.8973,-1.5,0,0,0,2,0.485615,-0.298123,0,0,0,0,0.191,-0.146403,15748,0,0,0,0,0,0,0,0,0,1,0.327935
9704,0,0,0.577148,-0.00252396,-0.00200531,-0.0017512,0.0112094,-0.00516726,-1.99172,-3.69285,0.238247,-0.228132,0.488669,-0.300468,0.190751,-0.14669,-1.99172,0,0,227,22,227,22,355,18,232,142,0.135905,0.0171092,1.92244,-1.5,0,0,0,2,0.488669,-0.300468,0,0,0,0,0.190751,-0.14669,15872,0,0,0,0,0,0,0,0,0,1,0.330515
9720,0,0,0.577148,-0.00252396,-0.00200531,-0.0017512,0.0112094,-0.00516726,-1.99172,-3.69285,0.238247,-0.228132,0.491718,-0.302818,0.1905,-0.146974,-1.99172,0,0,227,22,227,22,355,18,232,142,0.135669,0.0177897,1.94757,-1.5,0,0,0,2,0.491718,-0.302818,0,0,0,0,0.1905,-0.146974,15872,0,0,0,0,0,0,0,0,0,1,0.3331
9736,0,0,0.577148,-0.00252396,-0.00200531,-0.0017512,0.0112094,-0.00516726,-1.99172,-3.69285,0.238247,-0.228132,0.494764,-0.305173,0.190251,-0.147257,-1.99172,0,0,227,22,227,22,355,18,232,142,0.135432,0.0184706,1.97113,-1.5,0,0,0,2,0.494764,-0.305173,0,0,0,0,0.190251,-0.147257,15872,0,0,0,0,0,0,0,0,0,1,0.33569
