timestamp,A_x,A_y,A_z,P,Q,R,Phi,Theta,Psi,poseX,poseY,poseZ,state_X,state_Y,state_Z,state_VzB,state_Bx,state_By,state_Bz,p1_x,p1_y,p2_x,p2_y,p3_x,p3_y,p4_x,p4_y,roll,pitch,yaw,alt,targetHeading,highLevelState,lowLevelState,gateNumber,filtered_x,filtered_y,x_OT,y_OT,vx_OT,vy_OT,filtered_vx,filtered_vygateArearansac_corr_x,ransac_corr_y,ransac_corr_vx,ransac_corr_vy,detectionTimeStamppTermX,dTermX,pTermY,dTermY,vxcmd,vycmd
6482,-0.740234,0.249023,1.93555,-0.00187558,4.68632e-07,-0.00445811,0.0941711,-0.0505173,-1.37451,0,0,0,4.35938e-05,-1.32598e-05,0.00809776,-0.00246424,-1.37332,0,0,0,0,0,0,0,0,0,0,0.243278,-0.222488,0,-1.5,2.96117e-38,0,0,0,4.35938e-05,-1.32598e-05,0,0,0,0,0.00809776,-0.00246424,1.9603e-19,0,0,0,0,0,0,0,0,0,1,1.45857e-05
6496,-0.740234,0.249023,1.97168,-0.000352427,0.000250321,-0.00473369,0.0928981,-0.0497055,-1.37768,0,0,0,0.000302947,-9.23281e-05,0.0230332,-0.00703123,-1.37639,0,0,0,0,0,0,0,0,0,0,0.239985,-0.219878,0,-1.5,2.96117e-38,0,0,0,0.000302947,-9.23281e-05,0,0,0,0,0.0230332,-0.00703123,1.9603e-19,0,0,0,0,0,0,0,0,0,1,0.000101561
6512,-0.830078,0.249023,-5.83887,-0.00148521,0.000462824,-0.00493164,0.0918141,-0.0490065,-1.3808,0,0,0,0.000783329,-0.000239314,0.0376495,-0.0115359,-1.37955,0,0,0,0,0,0,0,0,0,0,0.236762,-0.217279,0,-1.5,2.96117e-38,0,0,0,0.000783329,-0.000239314,0,0,0,0,0.0376495,-0.0115359,1.9603e-19,0,0,0,0,0,0,0,0,0,1,0.000263245
6529,-0.827148,0.249023,6.06055,-0.00128151,-0.00132828,-0.0036405,0.0909244,-0.0484991,-1.38329,0,0,0,0.00160264,-0.000491006,0.0538836,-0.0165767,-1.3827,0,0,0,0,0,0,0,0,0,0,0.233157,-0.214469,0,-1.5,2.96117e-38,0,0,0,0.00160264,-0.000491006,0,0,0,0,0.0538836,-0.0165767,1.9603e-19,0,0,0,0,0,0,0,0,0,1,0.000540107
6545,-0.835938,0.249023,1.95996,-0.00140729,-0.000189756,-0.00364468,0.0909081,-0.0484711,-1.3834,0,0,0,0.00262253,-0.000805557,0.0688834,-0.0212667,-1.38335,0,0,0,0,0,0,0,0,0,0,0.229734,-0.212383,0,-1.5,2.96117e-38,0,0,0,0.00262253,-0.000805557,0,0,0,0,0.0688834,-0.0212667,1.9603e-19,0,0,0,0,0,0,0,0,0,1,0.000886112
6560,-0.832031,0.249023,-7.02734,-0.00240746,-5.9673e-05,-0.00327175,0.0908848,-0.0484584,-1.38345,0,0,0,0.00388113,-0.00119474,0.0837612,-0.0259181,-1.3834,0,0,0,0,0,0,0,0,0,0,0.226318,-0.210429,0,-1.5,2.96117e-38,0,0,0,0.00388113,-0.00119474,0,0,0,0,0.0837612,-0.0259181,1.9603e-19,0,0,0,0,0,0,0,0,0,1,0.00131422
6576,-0.798828,0.249023,1.15332,-0.00160667,-0.000659075,-0.00362772,0.0908656,-0.0484526,-1.38349,0,0,0,0.00537647,-0.00165794,0.098515,-0.0305312,-1.38349,0,0,0,0,0,0,0,0,0,0,0.222936,-0.208463,0,-1.5,2.96117e-38,0,0,0,0.00537647,-0.00165794,0,0,0,0,0.098515,-0.0305312,1.9603e-19,0,0,0,0,0,0,0,0,0,1,0.00182374
6592,-0.765625,0.249023,-5.81055,-0.00176149,-0.000244112,-0.00436138,0.0908436,-0.0484434,-1.38355,0,0,0,0.00710198,-0.00219313,0.113145,-0.0351071,-1.38355,0,0,0,0,0,0,0,0,0,0,0.219584,-0.206502,0,-1.5,2.96117e-38,0,0,0,0.00710198,-0.00219313,0,0,0,0,0.113145,-0.0351071,1.9603e-19,0,0,0,0,0,0,0,0,0,1,0.00241244
6608,-0.732422,0.249023,-7.20996,-0.00118441,-0.000232648,-0.00333067,0.0908385,-0.0484262,-1.3836,0,0,0,0.00893087,-0.00276094,0.126751,-0.0393632,-1.3836,0,0,0,0,0,0,0,0,0,0,0.216471,-0.204658,0,-1.5,2.96117e-38,0,0,0,0.00893087,-0.00276094,0,0,0,0,0.126751,-0.0393632,1.9603e-19,0,0,0,0,0,0,0,0,0,1,0.00303703
6623,-0.713867,0.249023,-5.03906,-0.00139807,-0.000608349,-0.00452375,0.090823,-0.0484077,-1.38365,0,0,0,0.0111103,-0.00343812,0.141152,-0.0438671,-1.38365,0,0,0,0,0,0,0,0,0,0,0.213179,-0.202688,0,-1.5,2.96117e-38,0,0,0,0.0111103,-0.00343812,0,0,0,0,0.141152,-0.0438671,1.9603e-19,0,0,0,0,0,0,0,0,0,1,0.00378193
6639,-0.780273,0.249023,-0.644531,-0.00100545,-0.00109265,-0.00308321,0.0908135,-0.0484027,-1.3837,0,0,0,0.0135145,-0.00418556,0.155433,-0.0483335,-1.3837,0,0,0,0,0,0,0,0,0,0,0.209919,-0.200715,0,-1.5,2.96117e-38,0,0,0,0.0135145,-0.00418556,0,0,0,0,0.155433,-0.0483335,1.9603e-19,0,0,0,0,0,0,0,0,0,1,0.00460412
6656,-0.842773,0.249023,5.79883,-0.00186162,-0.000593847,-0.00436476,0.0907787,-0.048388,-1.3838,0,0,0,0.016328,-0.00506077,0.170485,-0.0530418,-1.38375,0,0,0,0,0,0,0,0,0,0,0.206486,-0.198612,0,-1.5,2.96117e-38,0,0,0,0.016328,-0.00506077,0,0,0,0,0.170485,-0.0530418,1.9603e-19,0,0,0,0,0,0,0,0,0,1,0.00556685
6673,-0.842773,0.249023,4.37988,-0.00231706,-7.91527e-05,-0.00388127,0.0907576,-0.0483756,-1.38386,0,0,0,0.0193959,-0.00601558,0.185403,-0.0577104,-1.38386,0,0,0,0,0,0,0,0,0,0,0.20309,-0.196491,0,-1.5,2.96117e-38,0,0,0,0.0193959,-0.00601558,0,0,0,0,0.185403,-0.0577104,1.9603e-19,0,0,0,0,0,0,0,0,0,1,0.00661714
6686,-0.842773,0.249023,6.02441,-0.000362069,-0.00020824,-0.00462183,0.0907475,-0.048364,-1.38391,0,0,0,0.0218977,-0.00679444,0.196715,-0.0612511,-1.38391,0,0,0,0,0,0,0,0,0,0,0.200517,-0.194874,0,-1.5,2.96117e-38,0,0,0,0.0218977,-0.00679444,0,0,0,0,0.196715,-0.0612511,1.9603e-19,0,0,0,0,0,0,0,0,0,1,0.00747389
6701,-0.820312,0.249023,-5.8584,-0.0012062,-0.00113078,-0.00386988,0.0907315,-0.0483553,-1.38396,0,0,0,0.0249704,-0.0077514,0.209677,-0.0653081,-1.38396,0,0,0,0,0,0,0,0,0,0,0.197571,-0.193007,0,-1.5,2.96117e-38,0,0,0,0.0249704,-0.0077514,0,0,0,0,0.209677,-0.0653081,1.9603e-19,0,0,0,0,0,0,0,0,0,1,0.00852653
6744,-0.688477,0.249023,1.13965,-0.00128435,-0.00110751,-0.00403122,0.090697,-0.04832,-1.3841,0,0,0,0.0353144,-0.0109753,0.246519,-0.0768417,-1.3841,0,0,0,0,0,0,0,0,0,0,0.189223,-0.187566,0,-1.5,2.96117e-38,0,0,0,0.0353144,-0.0109753,0,0,0,0,0.246519,-0.0768417,1.9603e-19,0,0,0,0,0,0,0,0,0,1,0.0120729
6762,-0.667969,0.249023,-5.81152,-0.00224635,-0.000302865,-0.00437487,0.0906707,-0.0483057,-1.38416,0,0,0,0.0399306,-0.0124145,0.261609,-0.0815659,-1.38416,0,0,0,0,0,0,0,0,0,0,0.185809,-0.185305,0,-1.5,2.96117e-38,0,0,0,0.0399306,-0.0124145,0,0,0,0,0.261609,-0.0815659,1.9603e-19,0,0,0,0,0,0,0,0,0,1,0.0136559
6778,-0.667969,0.249023,-5.81152,-0.00224635,-0.000302865,-0.00437487,0.0906707,-0.0483057,-1.38416,0,0,0,0.044252,-0.013762,0.274901,-0.0857279,-1.38416,0,0,0,0,0,0,0,0,0,0,0.182806,-0.183302,0,-1.5,2.96117e-38,0,0,0,0.044252,-0.013762,0,0,0,0,0.274901,-0.0857279,1.9603e-19,0,0,0,0,0,0,0,0,0,1,0.0151382
6793,-0.841797,0.249023,-0.641602,-0.000900591,0.000467005,-0.00342656,0.0906119,-0.0482614,-1.38433,0,0,0,0.0484952,-0.0150854,0.287263,-0.0895994,-1.38427,0,0,0,0,0,0,0,0,0,0,0.180017,-0.1814,0,-1.5,2.96117e-38,0,0,0,0.0484952,-0.0150854,0,0,0,0,0.287263,-0.0895994,1.9603e-19,0,0,0,0,0,0,0,0,0,1,0.0165939
6810,-0.841797,0.249023,-5.79004,-0.00160039,-3.1256e-05,-0.00442678,0.0906031,-0.0482523,-1.38439,0,0,0,0.0535317,-0.0166565,0.301157,-0.0939512,-1.38433,0,0,0,0,0,0,0,0,0,0,0.176886,-0.179252,0,-1.5,2.96117e-38,0,0,0,0.0535317,-0.0166565,0,0,0,0,0.301157,-0.0939512,1.9603e-19,0,0,0,0,0,0,0,0,0,1,0.0183222
6826,-0.841797,0.249023,5.74707,-0.00255326,0.00095704,-0.00328443,0.0905803,-0.0482281,-1.38443,0,0,0,0.0584825,-0.0182012,0.314119,-0.0980112,-1.38443,0,0,0,0,0,0,0,0,0,0,0.173968,-0.177219,0,-1.5,2.96117e-38,0,0,0,0.0584825,-0.0182012,0,0,0,0,0.314119,-0.0980112,1.9603e-19,0,0,0,0,0,0,0,0,0,1,0.0200213
6845,-0.841797,0.249023,4.35547,-0.000912878,9.81698e-05,-0.00463844,0.0905666,-0.0482127,-1.38448,0,0,0,0.0646512,-0.0201262,0.329384,-0.102791,-1.38448,0,0,0,0,0,0,0,0,0,0,0.170538,-0.174808,0,-1.5,2.96117e-38,0,0,0,0.0646512,-0.0201262,0,0,0,0,0.329384,-0.102791,1.9603e-19,0,0,0,0,0,0,0,0,0,1,0.0221388
6861,-0.80957,0.249023,-5.87695,-0.00212019,-0.000445387,-0.00362638,0.0905414,-0.0482013,-1.38459,0,0,0,0.0700552,-0.0218128,0.342117,-0.106778,-1.38454,0,0,0,0,0,0,0,0,0,0,0.16768,-0.172774,0,-1.5,2.96117e-38,0,0,0,0.0700552,-0.0218128,0,0,0,0,0.342117,-0.106778,1.9603e-19,0,0,0,0,0,0,0,0,0,1,0.023994
6877,-0.776367,0.249023,1.97754,-0.00142486,0.000173903,-0.00423255,0.0905387,-0.0481765,-1.38465,0,0,0,0.0756619,-0.0235628,0.354746,-0.110733,-1.38459,0,0,0,0,0,0,0,0,0,0,0.16485,-0.170736,0,-1.5,2.96117e-38,0,0,0,0.0756619,-0.0235628,0,0,0,0,0.354746,-0.110733,1.9603e-19,0,0,0,0,0,0,0,0,0,1,0.0259191
6893,-0.743164,0.249023,-7.00879,-0.00146117,-0.000377392,-0.0039956,0.0905126,-0.0481611,-1.3847,0,0,0,0.0814656,-0.0253745,0.367269,-0.114654,-1.38465,0,0,0,0,0,0,0,0,0,0,0.162046,-0.168694,0,-1.5,2.96117e-38,0,0,0,0.0814656,-0.0253745,0,0,0,0,0.367269,-0.114654,1.9603e-19,0,0,0,0,0,0,0,0,0,1,0.027912
6910,-0.709961,0.249023,1.17188,-0.00205802,0.000101216,-0.00307621,0.0904849,-0.0481432,-1.38474,0,0,0,0.0878546,-0.0273692,0.380461,-0.118785,-1.38474,0,0,0,0,0,0,0,0,0,0,0.159097,-0.166515,0,-1.5,2.96117e-38,0,0,0,0.0878546,-0.0273692,0,0,0,0,0.380461,-0.118785,1.9603e-19,0,0,0,0,0,0,0,0,0,1,0.0301061
6932,-0.704102,0.249023,-5.7998,-0.0013564,-0.000813402,-0.00356446,0.0904741,-0.0481468,-1.38479,0,0,0,0.0964929,-0.0300664,0.39738,-0.124084,-1.38479,0,0,369098752,-534446081,369098752,-534446081,33554432,33554432,-1075088617,0,0.155322,-0.163694,0,-1.5,2.96117e-38,0,0,0,0.0964929,-0.0300664,0,0,0,0,0.39738,-0.124084,0,0,0,0,0,0,0,0,0,0,1,0.0330731
6944,-0.704102,0.249023,-5.7998,-0.0013564,-0.000813402,-0.00356446,0.0904741,-0.0481468,-1.38479,0,0,0,0.101329,-0.0315764,0.406514,-0.126946,-1.38479,0,0,369098752,-534446081,369098752,-534446081,33554432,33554432,-1075088617,0,0.153287,-0.16216,0,-1.5,2.96117e-38,0,0,0,0.101329,-0.0315764,0,0,0,0,0.406514,-0.126946,0,0,0,0,0,0,0,0,0,0,1,0.0347341
6960,-0.739258,0.249023,-0.65918,-0.00219853,-2.73047e-05,-0.00381777,0.0904266,-0.048099,-1.38494,0,0,0,0.107956,-0.0336462,0.41861,-0.130736,-1.38488,0,0,369098752,-534446081,369098752,-534446081,33554432,33554432,-1075088617,0,0.150595,-0.160097,0,-1.5,2.96117e-38,0,0,0,0.107956,-0.0336462,0,0,0,0,0.41861,-0.130736,0,0,0,0,0,0,0,0,0,0,1,0.0370109
6975,-0.772461,0.249023,-5.82227,-0.00163681,0.000505303,-0.00267809,0.0904112,-0.048077,-1.38498,0,0,0,0.114344,-0.0356414,0.429857,-0.134259,-1.38494,0,0,369098752,-534446081,369098752,-534446081,33554432,33554432,-1075088617,0,0.148095,-0.158164,0,-1.5,2.96117e-38,0,0,0,0.114344,-0.0356414,0,0,0,0,0.429857,-0.134259,0,0,0,0,0,0,0,0,0,0,1,0.0392055
6991,-0.805664,0.249023,5.75098,-0.0017629,-0.00134526,-0.00386886,0.0903936,-0.0480752,-1.38503,0,0,0,0.121343,-0.0378275,0.441756,-0.137985,-1.38503,0,0,369098752,-534446081,369098752,-534446081,33554432,33554432,-1075088617,0,0.145453,-0.156094,0,-1.5,2.96117e-38,0,0,0,0.121343,-0.0378275,0,0,0,0,0.441756,-0.137985,0,0,0,0,0,0,0,0,0,0,1,0.0416103
7007,-0.838867,0.249023,4.36328,-0.0024481,-1.76537e-05,-0.00486385,0.0903721,-0.0480651,-1.3851,0,0,0,0.128532,-0.040073,0.453556,-0.141683,-1.3851,0,0,369098752,-534446081,369098752,-534446081,33554432,33554432,-1075088617,0,0.142837,-0.154024,0,-1.5,2.96117e-38,0,0,0,0.128532,-0.040073,0,0,0,0,0.453556,-0.141683,0,0,0,0,0,0,0,0,0,0,1,0.0440803
7022,-0.865234,0.249023,6.05469,-0.00155136,-0.00104997,-0.00382464,0.0903606,-0.0480678,-1.38515,-3.66298,0.316128,-0.124207,0.135441,-0.0422316,0.46453,-0.145123,-1.38515,0,0,191,1,191,1,318,-23,216,122,0.140408,-0.152082,0,-1.5,2.96117e-38,0,0,0,0.135441,-0.0422316,0,0,0,0,0.46453,-0.145123,21895,0,0,0,0,0,0,0,0,0,1,0.0464547
7038,-0.851562,0.249023,-5.88965,-0.00153883,-0.000509141,-0.0039467,0.0903391,-0.0480627,-1.3852,-3.66298,0.316128,-0.124207,0.142996,-0.0445919,0.476144,-0.148767,-1.3852,0,0,191,1,191,1,318,-23,216,122,0.137841,-0.150006,0,-1.5,2.96117e-38,0,0,0,0.142996,-0.0445919,0,0,0,0,0.476144,-0.148767,21895,0,0,0,0,0,0,0,0,0,1,0.049051
7054,-0.851562,0.249023,-5.88965,-0.00153883,-0.000509141,-0.0039467,0.0903391,-0.0480627,-1.3852,-3.6695,0.314549,-0.121782,0.150735,-0.0470101,0.487663,-0.152381,-1.3852,0,0,191,1,191,1,318,-23,217,122,0.1353,-0.147933,0,-1.5,2.96117e-38,0,0,0,0.150735,-0.0470101,0,0,0,0,0.487663,-0.152381,21895,0,0,0,0,0,0,0,0,0,1,0.0517111
7070,-0.751953,0.249023,1.16895,-0.0026225,0.000396344,-0.00410436,0.090283,-0.0480263,-1.38537,-3.6695,0.314549,-0.121782,0.158658,-0.0494859,0.499089,-0.155966,-1.38531,0,0,191,1,191,1,318,-23,217,122,0.132781,-0.145841,0,-1.5,2.96117e-38,0,0,0,0.158658,-0.0494859,0,0,0,0,0.499089,-0.155966,21895,0,0,0,0,0,0,0,0,0,1,0.0544345
7086,-0.71875,0.249023,-5.77246,-0.00163016,-0.000791325,-0.00404427,0.0902653,-0.048021,-1.38542,-3.66948,0.314585,-0.121775,0.166759,-0.0520177,0.510415,-0.159522,-1.38537,0,0,191,1,191,1,318,-23,217,122,0.130288,-0.143754,0,-1.5,2.96117e-38,0,0,0,0.166759,-0.0520177,0,0,0,0,0.510415,-0.159522,21895,0,0,0,0,0,0,0,0,0,1,0.0572194
7101,-0.708008,0.249023,-7.21973,-0.00192831,-0.000317177,-0.00366471,0.0902505,-0.0480108,-1.38548,-3.66948,0.314585,-0.121775,0.174517,-0.0544425,0.520946,-0.162829,-1.38548,0,0,191,1,191,1,318,-23,217,122,0.127972,-0.141786,0,-1.5,2.96117e-38,0,0,0,0.174517,-0.0544425,0,0,0,0,0.520946,-0.162829,21895,0,0,0,0,0,0,0,0,0,1,0.0598868
7118,-0.708008,0.249023,-7.21973,-0.00192831,-0.000317177,-0.00366471,0.0902505,-0.0480108,-1.38548,-3.66968,0.317648,-0.125361,0.183508,-0.0572529,0.532787,-0.166549,-1.38548,0,0,191,3,191,3,318,-23,216,122,0.125377,-0.139567,0,-1.5,2.96117e-38,0,0,0,0.183508,-0.0572529,0,0,0,0,0.532787,-0.166549,21895,0,0,0,0,0,0,0,0,0,1,0.0629782
7133,-0.708008,0.249023,-0.633789,-0.000912221,-0.000632249,-0.00401075,0.0902163,-0.0479945,-1.38559,-3.66968,0.317648,-0.125361,0.191597,-0.0597818,0.543144,-0.169803,-1.38559,0,0,191,3,191,3,318,-23,216,122,0.123105,-0.137593,0,-1.5,2.96117e-38,0,0,0,0.191597,-0.0597818,0,0,0,0,0.543144,-0.169803,21895,0,0,0,0,0,0,0,0,0,1,0.06576
7149,-0.708008,0.249023,-5.79102,-0.00145143,7.8843e-05,-0.00340187,0.0901983,-0.0479817,-1.38564,-3.67124,0.316847,-0.118246,0.200403,-0.0625349,0.554104,-0.173249,-1.38564,0,0,191,1,191,1,318,-23,216,121,0.120708,-0.135492,0,-1.5,2.96117e-38,0,0,0,0.200403,-0.0625349,0,0,0,0,0.554104,-0.173249,21744,0,0,0,0,0,0,0,0,0,1,0.0687884
7165,-0.708008,0.249023,5.74316,-0.00106379,-0.000801593,-0.0034513,0.0901717,-0.047974,-1.38569,-3.67124,0.316847,-0.118246,0.20938,-0.0653417,0.564972,-0.176666,-1.38569,0,0,191,1,191,1,318,-23,216,121,0.118335,-0.133388,0,-1.5,2.96117e-38,0,0,0,0.20938,-0.0653417,0,0,0,0,0.564972,-0.176666,21744,0,0,0,0,0,0,0,0,0,1,0.0718759
7181,-0.708008,0.249023,4.36426,-0.000724089,-0.000352922,-0.00386906,0.0901621,-0.0479637,-1.38574,-3.67779,0.315288,-0.115756,0.218533,-0.068204,0.575751,-0.180056,-1.38574,0,0,191,1,191,1,318,-23,217,121,0.115985,-0.131279,0,-1.5,2.96117e-38,0,0,0,0.218533,-0.068204,0,0,0,0,0.575751,-0.180056,21744,0,0,0,0,0,0,0,0,0,1,0.0750244
7197,-0.745117,0.249023,-5.87305,-0.00100517,-0.000320957,-0.00493274,0.0901407,-0.0479394,-1.38584,-3.67779,0.315288,-0.115756,0.227854,-0.0711192,0.586441,-0.183418,-1.38574,0,0,191,1,191,1,318,-23,217,121,0.11366,-0.129173,0,-1.5,2.96117e-38,0,0,0,0.227854,-0.0711192,0,0,0,0,0.586441,-0.183418,21744,0,0,0,0,0,0,0,0,0,1,0.0782311
7213,-0.745117,0.249023,-5.87305,-0.00100517,-0.000320957,-0.00493274,0.0901407,-0.0479394,-1.38584,-3.67779,0.315288,-0.115756,0.237348,-0.074089,0.597043,-0.186753,-1.38584,0,0,191,1,191,1,318,-23,217,121,0.111354,-0.127051,0,-1.5,2.96117e-38,0,0,0,0.237348,-0.074089,0,0,0,0,0.597043,-0.186753,21744,0,0,0,0,0,0,0,0,0,1,0.0814979
7229,-0.745117,0.249023,-5.87305,-0.00100517,-0.000320957,-0.00493274,0.0901407,-0.0479394,-1.38584,-3.67779,0.315288,-0.115756,0.247011,-0.0771118,0.60756,-0.190061,-1.38584,0,0,191,1,191,1,318,-23,217,121,0.109074,-0.124938,0,-1.5,2.96117e-38,0,0,0,0.247011,-0.0771118,0,0,0,0,0.60756,-0.190061,21744,0,0,0,0,0,0,0,0,0,1,0.084823
7245,-0.830078,0.249023,1.17871,-0.00115005,-0.00081713,-0.00406577,0.0900864,-0.047911,-1.38601,-3.6777,0.315339,-0.115651,0.256842,-0.0801873,0.61799,-0.193342,-1.38601,0,0,191,1,191,1,318,-23,217,121,0.106809,-0.122803,0,-1.5,2.96117e-38,0,0,0,0.256842,-0.0801873,0,0,0,0,0.61799,-0.193342,21744,0,0,0,0,0,0,0,0,0,1,0.088206
7262,-0.830078,0.249023,1.17871,-0.00115005,-0.00081713,-0.00406577,0.0900864,-0.047911,-1.38601,-3.6777,0.315339,-0.115651,0.266839,-0.083315,0.62833,-0.196597,-1.38601,0,0,191,1,191,1,318,-23,217,121,0.104576,-0.120683,0,-1.5,2.96117e-38,0,0,0,0.266839,-0.083315,0,0,0,0,0.62833,-0.196597,21744,0,0,0,0,0,0,0,0,0,1,0.0916465
7277,-0.830078,0.249023,-5,-0.00124115,0.000591408,-0.00464493,0.0900305,-0.0478744,-1.38617,-3.6777,0.315339,-0.115651,0.277,-0.0864945,0.638585,-0.199826,-1.3861,0,0,191,1,191,1,318,-23,217,121,0.10236,-0.118549,0,-1.5,2.96117e-38,0,0,0,0.277,-0.0864945,0,0,0,0,0.638585,-0.199826,21744,0,0,0,0,0,0,0,0,0,1,0.095144
7293,-0.830078,0.249023,-0.658203,-0.000979797,-0.000689359,-0.00290005,0.0900198,-0.0478689,-1.38621,-3.6777,0.315339,-0.115651,0.287321,-0.0897244,0.64875,-0.203029,-1.38617,0,0,191,1,191,1,318,-23,217,121,0.100168,-0.116416,0,-1.5,2.96117e-38,0,0,0,0.287321,-0.0897244,0,0,0,0,0.64875,-0.203029,21744,0,0,0,0,0,0,0,0,0,1,0.0986969
7310,-0.830078,0.249023,-5.76367,-0.00123376,2.15058e-05,-0.00383316,0.0900093,-0.0478524,-1.38627,-3.65728,0.32038,-0.122955,0.298472,-0.0932143,0.659462,-0.206403,-1.38627,0,0,191,1,191,1,318,-23,214,121,0.0978606,-0.114142,0,-1.5,2.96117e-38,0,0,0,0.298472,-0.0932143,0,0,0,0,0.659462,-0.206403,21744,0,0,0,0,0,0,0,0,0,1,0.102536
7325,-0.830078,0.249023,5.76855,-0.00139555,-0.000248734,-0.00300056,0.0899961,-0.0478417,-1.38631,-3.65728,0.32038,-0.122955,0.308454,-0.0963389,0.668832,-0.209354,-1.38631,0,0,191,1,191,1,318,-23,214,121,0.0958484,-0.112138,0,-1.5,2.96117e-38,0,0,0,0.308454,-0.0963389,0,0,0,0,0.668832,-0.209354,21744,0,0,0,0,0,0,0,0,0,1,0.105973
7341,-0.830078,0.249023,4.35156,-0.00160636,-0.00149208,-0.00287832,0.0899755,-0.0478388,-1.38635,-3.65728,0.32038,-0.122955,0.31926,-0.0997214,0.678748,-0.212478,-1.38635,0,0,191,1,191,1,318,-23,214,121,0.0937227,-0.109998,0,-1.5,2.96117e-38,0,0,0,0.31926,-0.0997214,0,0,0,0,0.678748,-0.212478,21744,0,0,0,0,0,0,0,0,0,1,0.109694
7357,-0.830078,0.249023,4.35156,-0.00160636,-0.00149208,-0.00287832,0.0899755,-0.0478388,-1.38635,-3.67742,0.315581,-0.115382,0.330223,-0.103154,0.688582,-0.215578,-1.38635,0,0,191,1,191,1,318,-23,217,121,0.091621,-0.107857,0,-1.5,2.96117e-38,0,0,0,0.330223,-0.103154,0,0,0,0,0.688582,-0.215578,21744,0,0,0,0,0,0,0,0,0,1,0.113469
7373,-0.830078,0.249023,-5.86816,-0.00182303,3.10723e-05,-0.00417846,0.0899276,-0.0478284,-1.38646,-3.67742,0.315581,-0.115382,0.34134,-0.106634,0.698334,-0.218653,-1.38646,0,0,191,1,191,1,318,-23,217,121,0.0895331,-0.105703,0,-1.5,2.96117e-38,0,0,0,0.34134,-0.106634,0,0,0,0,0.698334,-0.218653,21744,0,0,0,0,0,0,0,0,0,1,0.117298
7389,-0.830078,0.249023,-7.02441,-0.00183544,0.000630542,-0.00456571,0.089909,-0.0477997,-1.38657,-3.65797,0.321148,-0.126928,0.352612,-0.110164,0.708002,-0.221704,-1.38646,0,0,189,3,189,3,318,-23,216,121,0.0874746,-0.103556,0,-1.5,2.96117e-38,0,0,0,0.352612,-0.110164,0,0,0,0,0.708002,-0.221704,22032,0,0,0,0,0,0,0,0,0,1,0.12118
7405,-0.830078,0.249023,1.15234,7.17823e-05,-0.000457043,-0.00395052,0.0899056,-0.0477887,-1.38662,-3.65797,0.321148,-0.126928,0.364038,-0.113742,0.717591,-0.22473,-1.38662,0,0,189,3,189,3,318,-23,216,121,0.0854258,-0.101392,0,-1.5,2.96117e-38,0,0,0,0.364038,-0.113742,0,0,0,0,0.717591,-0.22473,22032,0,0,0,0,0,0,0,0,0,1,0.125116
7421,-0.830078,0.249023,-5.83008,-0.00166938,-0.00148817,-0.00373342,0.0898916,-0.0477922,-1.38667,-3.67729,0.315728,-0.115279,0.374888,-0.11714,0.726508,-0.227543,-1.38667,0,0,191,1,191,1,318,-23,217,121,0.08353,-0.0993693,0,-1.5,2.96117e-38,0,0,0,0.374888,-0.11714,0,0,0,0,0.726508,-0.227543,21744,0,0,0,0,0,0,0,0,0,1,0.128854
7437,-0.830078,0.249023,-7.20605,-0.00212444,-0.000103797,-0.0048798,0.089872,-0.0477851,-1.38673,-3.67729,0.315728,-0.115279,0.387349,-0.121043,0.736532,-0.230708,-1.38673,0,0,191,1,191,1,318,-23,217,121,0.0814032,-0.0970726,0,-1.5,2.96117e-38,0,0,0,0.387349,-0.121043,0,0,0,0,0.736532,-0.230708,21744,0,0,0,0,0,0,0,0,0,1,0.133148
7453,-0.830078,0.249023,-7.20605,-0.00212444,-0.000103797,-0.0048798,0.089872,-0.0477851,-1.38673,-3.67727,0.315757,-0.115262,0.399229,-0.124765,0.745885,-0.233662,-1.38673,0,0,191,1,191,1,318,-23,217,121,0.079427,-0.0949125,0,-1.5,2.96117e-38,0,0,0,0.399229,-0.124765,0,0,0,0,0.745885,-0.233662,21744,0,0,0,0,0,0,0,0,0,1,0.137241
7468,-0.830078,0.249023,-7.20605,-0.00212444,-0.000103797,-0.0048798,0.089872,-0.0477851,-1.38673,-3.67727,0.315757,-0.115262,0.410501,-0.128296,0.754585,-0.23641,-1.38673,0,0,191,1,191,1,318,-23,217,121,0.0775922,-0.0928842,0,-1.5,2.96117e-38,0,0,0,0.410501,-0.128296,0,0,0,0,0.754585,-0.23641,21744,0,0,0,0,0,0,0,0,0,1,0.141126
7484,-0.830078,0.249023,5.77441,-0.00126296,-0.000414909,-0.00254698,0.0898048,-0.0477574,-1.38691,-3.67727,0.315757,-0.115262,0.422672,-0.132109,0.763795,-0.239319,-1.38673,0,0,191,1,191,1,318,-23,217,121,0.0756536,-0.0907169,0,-1.5,2.96117e-38,0,0,0,0.422672,-0.132109,0,0,0,0,0.763795,-0.239319,21744,0,0,0,0,0,0,0,0,0,1,0.14532
7501,-0.830078,0.249023,4.36621,-0.000659717,-0.000946229,-0.00354147,0.0898011,-0.0477579,-1.38696,-3.67727,0.315757,-0.115262,0.435763,-0.136212,0.773494,-0.242385,-1.38691,0,0,191,1,191,1,318,-23,217,121,0.073601,-0.0883972,0,-1.5,2.96117e-38,0,0,0,0.435763,-0.136212,0,0,0,0,0.773494,-0.242385,21744,0,0,0,0,0,0,0,0,0,1,0.149833
7516,-0.830078,0.249023,4.36621,-0.000659717,-0.000946229,-0.00354147,0.0898011,-0.0477579,-1.38696,-3.67055,0.317537,-0.117625,0.447448,-0.139873,0.781976,-0.245069,-1.38696,0,0,191,1,191,1,318,-23,216,121,0.0718188,-0.0863562,0,-1.5,2.96117e-38,0,0,0,0.447448,-0.139873,0,0,0,0,0.781976,-0.245069,21744,0,0,0,0,0,0,0,0,0,1,0.153861
7531,-0.830078,0.249023,-5.83008,-0.00114232,-9.22339e-05,-0.00379824,0.0897828,-0.0477378,-1.38707,-3.67055,0.317537,-0.117625,0.459256,-0.143574,0.790392,-0.247733,-1.38707,0,0,191,1,191,1,318,-23,216,121,0.0700483,-0.0843088,0,-1.5,2.96117e-38,0,0,0,0.459256,-0.143574,0,0,0,0,0.790392,-0.247733,21744,0,0,0,0,0,0,0,0,0,1,0.157932
7547,-0.830078,0.249023,1.97266,-0.00221341,-8.36574e-05,-0.00302898,0.0897631,-0.0477288,-1.38711,-3.68329,0.314369,-0.115059,0.471996,-0.147568,0.799299,-0.250552,-1.38711,0,0,192,1,192,1,318,-23,217,121,0.0681847,-0.0821266,0,-1.5,2.96117e-38,0,0,0,0.471996,-0.147568,0,0,0,0,0.799299,-0.250552,21600,0,0,0,0,0,0,0,0,0,1,0.162325
7563,-0.830078,0.249023,-7.02148,-0.000809713,-0.000654404,-0.00434197,0.0897544,-0.0477176,-1.38716,-3.68329,0.314369,-0.115059,0.484875,-0.151605,0.80813,-0.253347,-1.38716,0,0,192,1,192,1,318,-23,217,121,0.0663395,-0.0799411,0,-1.5,2.96117e-38,0,0,0,0.484875,-0.151605,0,0,0,0,0.80813,-0.253347,21600,0,0,0,0,0,0,0,0,0,1,0.166766
7579,-0.830078,0.249023,1.17285,-0.00132779,-0.000866236,-0.00369526,0.0895996,-0.0476074,-1.38721,-3.65931,0.30791,-0.122916,0.497897,-0.155688,0.81688,-0.256116,-1.38721,0,0,191,1,191,1,321,-23,217,121,0.0645159,-0.0777543,0,-1.5,2.96117e-38,0,0,0,0.497897,-0.155688,0,0,0,0,0.81688,-0.256116,21744,0,0,0,0,0,0,0,0,0,1,0.171257
7596,-0.789062,0.249023,-7.20117,-0.00161759,-0.00180703,-0.00416851,0.0897212,-0.0477141,-1.38734,-3.65931,0.30791,-0.122916,0.511889,-0.160075,0.826085,-0.259027,-1.38721,0,0,191,1,191,1,321,-23,217,121,0.0626065,-0.0754327,0,-1.5,2.96117e-38,0,0,0,0.511889,-0.160075,0,0,0,0,0.826085,-0.259027,21744,0,0,0,0,0,0,0,0,0,1,0.176082
7612,-0.755859,0.249023,-5.03906,-0.00187467,-0.000623155,-0.00300947,0.089703,-0.0477052,-1.38739,-3.69248,0.317699,-0.112286,0.525197,-0.164248,0.834696,-0.261758,-1.38739,0,0,191,1,191,1,318,-21,217,121,0.0608058,-0.073229,0,-1.5,2.96117e-38,0,0,0,0.525197,-0.164248,0,0,0,0,0.834696,-0.261758,21442,0,0,0,0,0,0,0,0,0,1,0.180673
7628,-0.722656,0.249023,-0.660156,-0.00166663,-0.000881665,-0.00351915,0.0896871,-0.0477007,-1.38743,-3.69248,0.317699,-0.112286,0.538642,-0.168465,0.843234,-0.264467,-1.38743,0,0,191,1,191,1,318,-21,217,121,0.0590373,-0.0710309,0,-1.5,2.96117e-38,0,0,0,0.538642,-0.168465,0,0,0,0,0.843234,-0.264467,21442,0,0,0,0,0,0,0,0,0,1,0.185311
7645,-0.700195,0.249023,-5.7832,-0.00136363,0.000172917,-0.00320771,0.0896779,-0.0476823,-1.38748,-3.67997,0.316403,-0.113672,0.553076,-0.172992,0.852229,-0.267322,-1.38748,0,0,192,1,192,1,318,-23,216,121,0.0571783,-0.0686922,0,-1.5,2.96117e-38,0,0,0,0.553076,-0.172992,0,0,0,0,0.852229,-0.267322,21600,0,0,0,0,0,0,0,0,0,1,0.190291
7660,-0.706055,0.249023,5.76562,-0.000282239,-0.000369071,-0.00473926,0.089677,-0.047674,-1.38753,-3.67997,0.316403,-0.113672,0.565936,-0.177026,0.860099,-0.269819,-1.38753,0,0,192,1,192,1,318,-23,216,121,0.0555542,-0.0666261,0,-1.5,2.96117e-38,0,0,0,0.565936,-0.177026,0,0,0,0,0.860099,-0.269819,21600,0,0,0,0,0,0,0,0,0,1,0.194729
7676,-0.805664,0.249023,4.37598,-0.00142015,-0.00147275,-0.00341431,0.0896544,-0.0476835,-1.38758,-3.66105,0.315512,-0.12526,0.579785,-0.181371,0.868429,-0.272463,-1.38758,0,0,192,3,192,3,320,-23,214,121,0.0538395,-0.0644192,0,-1.5,2.96117e-38,0,0,0,0.579785,-0.181371,0,0,0,0,0.868429,-0.272463,21600,0,0,0,0,0,0,0,0,0,1,0.199508
7692,-0.850586,0.249023,-5.8457,-0.000883767,-0.00054481,-0.00400751,0.0896438,-0.0476668,-1.38768,-3.66105,0.315512,-0.12526,0.593764,-0.185757,0.876689,-0.275088,-1.38758,0,0,192,3,192,3,320,-23,214,121,0.0521483,-0.0622118,0,-1.5,2.96117e-38,0,0,0,0.593764,-0.185757,0,0,0,0,0.876689,-0.275088,21600,0,0,0,0,0,0,0,0,0,1,0.204333
7709,-0.817383,0.249023,1.98242,-0.00128063,-0.000585367,-0.00357943,0.0896297,-0.0476603,-1.38774,-3.67689,0.316174,-0.114948,0.608767,-0.190465,0.885394,-0.277854,-1.38774,0,0,191,1,191,1,318,-23,217,121,0.0503522,-0.0598543,0,-1.5,2.96117e-38,0,0,0,0.608767,-0.190465,0,0,0,0,0.885394,-0.277854,21744,0,0,0,0,0,0,0,0,0,1,0.209512
7724,-0.78418,0.249023,-6.99219,-0.00201539,2.20068e-05,-0.00311496,0.0896109,-0.0476522,-1.38779,-3.67689,0.316174,-0.114948,0.622121,-0.194656,0.893007,-0.280274,-1.38779,0,0,191,1,191,1,318,-23,217,121,0.0487952,-0.0577773,0,-1.5,2.96117e-38,0,0,0,0.622121,-0.194656,0,0,0,0,0.893007,-0.280274,21744,0,0,0,0,0,0,0,0,0,1,0.214122
7740,-0.750977,0.249023,1.17871,-0.00150571,-0.000770044,-0.00246663,0.0895932,-0.0476448,-1.38783,-3.67689,0.316174,-0.114948,0.636492,-0.199167,0.901061,-0.282836,-1.38783,0,0,191,1,191,1,318,-23,217,121,0.0471521,-0.0555593,0,-1.5,2.96117e-38,0,0,0,0.636492,-0.199167,0,0,0,0,0.901061,-0.282836,21744,0,0,0,0,0,0,0,0,0,1,0.219084
7756,-0.750977,0.249023,1.17871,-0.00150571,-0.000770044,-0.00246663,0.0895932,-0.0476448,-1.38783,-3.65246,0.30978,-0.125219,0.65099,-0.203718,0.909049,-0.285377,-1.38783,0,0,191,1,191,1,321,-23,216,121,0.0455318,-0.0533405,0,-1.5,2.96117e-38,0,0,0,0.65099,-0.203718,0,0,0,0,0.909049,-0.285377,21744,0,0,0,0,0,0,0,0,0,1,0.22409
7778,-0.712891,0.249023,-5.03906,-0.00244665,-0.000273472,-0.00351923,0.0895596,-0.0476214,-1.38797,-3.65246,0.30978,-0.125219,0.671162,-0.210051,0.919941,-0.288843,-1.38797,0,0,191,1,191,1,321,-23,216,121,0.0433117,-0.0502747,0,-1.5,2.96117e-38,0,0,0,0.671162,-0.210051,0,0,0,0,0.919941,-0.288843,21744,0,0,0,0,0,0,0,0,0,1,0.231057
7794,-0.712891,0.249023,-0.65332,-0.00132192,-0.000409967,-0.0040337,0.0895499,-0.0476038,-1.38803,-3.6585,0.312508,-0.122524,0.685961,-0.214698,0.927772,-0.291335,-1.38803,0,0,191,1,191,1,320,-23,216,121,0.041725,-0.048047,0,-1.5,2.96117e-38,0,0,0,0.685961,-0.214698,0,0,0,0,0.927772,-0.291335,21744,0,0,0,0,0,0,0,0,0,1,0.236168
7810,-0.712891,0.249023,-5.80469,-0.00161007,-0.00021476,-0.0045397,0.0895356,-0.047604,-1.38809,-3.66814,0.315905,-0.120573,0.700884,-0.219385,0.935537,-0.293807,-1.38809,0,0,191,1,191,1,318,-23,217,122,0.0401551,-0.0458168,0,-1.5,2.96117e-38,0,0,0,0.700884,-0.219385,0,0,0,0,0.935537,-0.293807,21895,0,0,0,0,0,0,0,0,0,1,0.241323
7826,-0.712891,0.249023,-5.80469,-0.00161007,-0.00021476,-0.0045397,0.0895356,-0.047604,-1.38809,-3.66814,0.315905,-0.120573,0.715932,-0.224111,0.943238,-0.29626,-1.38809,0,0,191,1,191,1,318,-23,217,122,0.0386093,-0.0435859,0,-1.5,2.96117e-38,0,0,0,0.715932,-0.224111,0,0,0,0,0.943238,-0.29626,21895,0,0,0,0,0,0,0,0,0,1,0.246522
7842,-0.712891,0.249023,-5.80469,-0.00161007,-0.00021476,-0.0045397,0.0895356,-0.047604,-1.38809,-3.66814,0.315905,-0.120573,0.731101,-0.228876,0.950878,-0.298693,-1.38809,0,0,191,1,191,1,318,-23,217,122,0.0370797,-0.0413521,0,-1.5,2.96117e-38,0,0,0,0.731101,-0.228876,0,0,0,0,0.950878,-0.298693,21895,0,0,0,0,0,0,0,0,0,1,0.251763
7858,-0.789062,0.249023,-5.85254,-0.00199454,0.000175126,-0.00345285,0.089472,-0.0475397,-1.3883,-3.66814,0.31593,-0.120581,0.746393,-0.23368,0.958457,-0.301107,-1.38809,0,0,191,1,191,1,318,-23,217,122,0.0355661,-0.0391153,0,-1.5,2.96117e-38,0,0,0,0.746393,-0.23368,0,0,0,0,0.958457,-0.301107,21895,0,0,0,0,0,0,0,0,0,1,0.257048
7874,-0.822266,0.249023,1.94434,-0.00162962,-0.000355799,-0.00359596,0.089458,-0.0475302,-1.38835,-3.66814,0.31593,-0.120581,0.760838,-0.238218,0.965501,-0.30335,-1.3883,0,0,191,1,191,1,318,-23,217,122,0.0341344,-0.0370096,0,-1.5,2.96117e-38,0,0,0,0.760838,-0.238218,0,0,0,0,0.965501,-0.30335,21895,0,0,0,0,0,0,0,0,0,1,0.26204
7889,-0.84082,0.249023,-6.97559,-0.000559716,-0.000797854,-0.00383781,0.0894516,-0.0475219,-1.38841,-3.64881,0.321566,-0.131812,0.776362,-0.243096,0.972948,-0.305722,-1.38841,0,0,189,3,189,3,318,-23,216,122,0.0326394,-0.034766,0,-1.5,2.96117e-38,0,0,0,0.776362,-0.243096,0,0,0,0,0.972948,-0.305722,22185,0,0,0,0,0,0,0,0,0,1,0.267405
7906,-0.84082,0.249023,1.19043,-0.00151557,0.0012299,-0.00436784,0.0894395,-0.0475012,-1.38846,-3.64881,0.321566,-0.131812,0.792988,-0.24832,0.980795,-0.308221,-1.38846,0,0,189,3,189,3,318,-23,216,122,0.0310764,-0.0323812,0,-1.5,2.96117e-38,0,0,0,0.792988,-0.24832,0,0,0,0,0.980795,-0.308221,22185,0,0,0,0,0,0,0,0,0,1,0.273153
7921,-0.84082,0.249023,1.19043,-0.00151557,0.0012299,-0.00436784,0.0894395,-0.0475012,-1.38846,-3.68644,0.318103,-0.114428,0.807765,-0.252964,0.987659,-0.310406,-1.38846,0,0,192,3,192,3,318,-23,216,121,0.0297194,-0.0302769,0,-1.5,2.96117e-38,0,0,0,0.807765,-0.252964,0,0,0,0,0.987659,-0.310406,21600,0,0,0,0,0,0,0,0,0,1,0.278261
7936,-0.84082,0.249023,-7.20898,-0.00131728,-0.000386151,-0.00342348,0.0894368,-0.0474879,-1.38856,-3.68644,0.318103,-0.114428,0.822644,-0.257641,0.994471,-0.312574,-1.38856,0,0,192,3,192,3,318,-23,216,121,0.0283616,-0.0281674,0,-1.5,2.96117e-38,0,0,0,0.822644,-0.257641,0,0,0,0,0.994471,-0.312574,21600,0,0,0,0,0,0,0,0,0,1,0.283405
7952,-0.84082,0.249023,-7.20898,-0.00131728,-0.000386151,-0.00342348,0.0894368,-0.0474879,-1.38856,-3.67644,0.316515,-0.114474,0.838629,-0.262665,1.00168,-0.314869,-1.38856,0,0,191,1,191,1,318,-23,217,121,0.0269432,-0.0259175,0,-1.5,2.96117e-38,0,0,0,0.838629,-0.262665,0,0,0,0,1.00168,-0.314869,21744,0,0,0,0,0,0,0,0,0,1,0.288932
7967,-0.788086,0.249023,-5.80566,0.00054746,3.77666e-05,-0.00407031,0.0894176,-0.047462,-1.38873,-3.67644,0.316515,-0.114474,0.853719,-0.267409,1.00839,-0.317005,-1.38868,0,0,191,1,191,1,318,-23,217,121,0.0256098,-0.0238027,0,-1.5,2.96117e-38,0,0,0,0.853719,-0.267409,0,0,0,0,1.00839,-0.317005,21744,0,0,0,0,0,0,0,0,0,1,0.29415
7980,-0.788086,0.249023,-5.80566,0.00054746,3.77666e-05,-0.00407031,0.0894176,-0.047462,-1.38873,-3.67641,0.316519,-0.114429,0.866875,-0.271545,1.01415,-0.318841,-1.38873,0,0,191,1,191,1,318,-23,217,121,0.0244732,-0.0219702,0,-1.5,2.96117e-38,0,0,0,0.866875,-0.271545,0,0,0,0,1.01415,-0.318841,21744,0,0,0,0,0,0,0,0,0,1,0.2987
7997,-0.72168,0.249023,4.38477,-0.000737249,-0.000203128,-0.0035156,0.0894083,-0.0474554,-1.38884,-3.67641,0.316519,-0.114429,0.883175,-0.27667,1.0212,-0.321086,-1.38873,0,0,191,1,191,1,318,-23,217,121,0.0230966,-0.0197131,0,-1.5,2.96117e-38,0,0,0,0.883175,-0.27667,0,0,0,0,1.0212,-0.321086,21744,0,0,0,0,0,0,0,0,0,1,0.304337
8012,-0.72168,0.249023,4.38477,-0.000737249,-0.000203128,-0.0035156,0.0894083,-0.0474554,-1.38884,-3.68606,0.315221,-0.110482,0.899588,-0.281831,1.0282,-0.323314,-1.38884,0,0,192,1,192,1,318,-23,217,121,0.0217183,-0.0174508,0,-1.5,2.96117e-38,0,0,0,0.899588,-0.281831,0,0,0,0,1.0282,-0.323314,21600,0,0,0,0,0,0,0,0,0,1,0.310014
8028,-0.754883,0.249023,-5.88184,-0.00246878,-0.000958732,-0.00451377,0.0893838,-0.0474406,-1.38895,-3.68606,0.315221,-0.110482,0.91611,-0.287027,1.03513,-0.325523,-1.38895,0,0,192,1,192,1,318,-23,217,121,0.0203539,-0.0151864,0,-1.5,2.96117e-38,0,0,0,0.91611,-0.287027,0,0,0,0,1.03513,-0.325523,21600,0,0,0,0,0,0,0,0,0,1,0.315729
8045,-0.788086,0.249023,1.95898,-0.00169602,-0.000552476,-0.00350396,0.0893669,-0.0474327,-1.389,-3.67628,0.316607,-0.114292,0.93379,-0.292587,1.04244,-0.327852,-1.389,0,0,191,1,191,1,318,-23,217,121,0.0189322,-0.0127786,0,-1.5,2.96117e-38,0,0,0,0.93379,-0.292587,0,0,0,0,1.04244,-0.327852,21744,0,0,0,0,0,0,0,0,0,1,0.321846
8061,-0.821289,0.249023,-6.99707,-0.000775628,0.000333921,-0.00387959,0.0893542,-0.047423,-1.38905,-3.67628,0.316607,-0.114292,0.950539,-0.297855,1.04925,-0.330026,-1.38905,0,0,191,1,191,1,318,-23,217,121,0.0176082,-0.0105106,0,-1.5,2.96117e-38,0,0,0,0.950539,-0.297855,0,0,0,0,1.04925,-0.330026,21744,0,0,0,0,0,0,0,0,0,1,0.32764
8076,-0.854492,0.249023,1.1875,-0.00131036,-0.00109122,-0.00537731,0.0893393,-0.0474293,-1.38913,-3.67628,0.316607,-0.114292,0.966339,-0.302825,1.05558,-0.332048,-1.38913,0,0,191,1,191,1,318,-23,217,121,0.0163767,-0.0083816,0,-1.5,2.96117e-38,0,0,0,0.966339,-0.302825,0,0,0,0,1.05558,-0.332048,21744,0,0,0,0,0,0,0,0,0,1,0.333107
8094,-0.855469,0.249023,-7.18457,-0.00059276,-0.000481991,-0.00461199,0.089328,-0.0474112,-1.38924,-3.67628,0.316607,-0.114292,0.984364,-0.308495,1.06271,-0.334325,-1.38913,0,0,191,1,191,1,318,-23,217,121,0.0150098,-0.00596636,0,-1.5,2.96117e-38,0,0,0,0.984364,-0.308495,0,0,0,0,1.06271,-0.334325,21744,0,0,0,0,0,0,0,0,0,1,0.339345
8109,-0.855469,0.249023,-5.02148,-0.0015945,-0.000914458,-0.00326479,0.0893062,-0.0474009,-1.38929,-3.67628,0.316607,-0.114292,1.00144,-0.313867,1.06935,-0.336448,-1.38929,0,0,191,1,191,1,318,-23,217,121,0.0137118,-0.00368909,0,-1.5,2.96117e-38,0,0,0,1.00144,-0.313867,0,0,0,0,1.06935,-0.336448,21744,0,0,0,0,0,0,0,0,0,1,0.345253
8124,-0.855469,0.249023,-0.629883,-0.00114996,0.000936266,-0.00389911,0.0892968,-0.0473754,-1.38934,-3.67619,0.3167,-0.114217,1.01754,-0.318933,1.07553,-0.338423,-1.38934,0,0,191,1,191,1,318,-23,217,121,0.0125241,-0.0015539,0,-1.5,2.96117e-38,0,0,0,1.01754,-0.318933,0,0,0,0,1.07553,-0.338423,21744,0,0,0,0,0,0,0,0,0,1,0.350826
8140,-0.855469,0.249023,-5.79004,-0.00133911,5.52959e-05,-0.0044246,0.089286,-0.0473625,-1.3894,-3.67619,0.3167,-0.114217,1.03481,-0.324369,1.08206,-0.34051,-1.3894,0,0,191,1,191,1,318,-23,217,121,0.0112712,0.000725456,0,-1.5,2.96117e-38,0,0,0,1.03481,-0.324369,0,0,0,0,1.08206,-0.34051,21744,0,0,0,0,0,0,0,0,0,1,0.356806
8156,-0.855469,0.249023,-5.79004,-0.00133911,5.52959e-05,-0.0044246,0.089286,-0.0473625,-1.3894,-3.67132,0.323036,-0.119231,1.0522,-0.329839,1.08854,-0.34258,-1.3894,0,0,191,1,191,1,318,-21,214,121,0.010042,0.00300642,0,-1.5,2.96117e-38,0,0,0,1.0522,-0.329839,0,0,0,0,1.08854,-0.34258,21442,0,0,0,0,0,0,0,0,0,1,0.362823
8172,-0.805664,0.249023,4.4082,-0.00255619,-0.000525976,-0.00503399,0.089242,-0.0473542,-1.3895,-3.67132,0.323036,-0.119231,1.06968,-0.335342,1.09497,-0.344635,-1.3895,0,0,191,1,191,1,318,-21,214,121,0.00880951,0.0052908,0,-1.5,2.96117e-38,0,0,0,1.06968,-0.335342,0,0,0,0,1.09497,-0.344635,21442,0,0,0,0,0,0,0,0,0,1,0.368876
8188,-0.805664,0.249023,4.4082,-0.00255619,-0.000525976,-0.00503399,0.089242,-0.0473542,-1.3895,-3.66753,0.320212,-0.117022,1.08726,-0.340877,1.10134,-0.346673,-1.3895,0,0,191,1,191,1,318,-23,215,120,0.00760937,0.00757637,0,-1.5,2.96117e-38,0,0,0,1.08726,-0.340877,0,0,0,0,1.10134,-0.346673,21593,0,0,0,0,0,0,0,0,0,1,0.374965
8204,-0.706055,0.249023,1.99219,-0.00270454,6.12743e-05,-0.00343218,0.0891698,-0.0473191,-1.38966,-3.66753,0.320212,-0.117022,1.10495,-0.346445,1.10766,-0.348696,-1.3895,0,0,191,1,191,1,318,-23,215,120,0.0064226,0.00986446,0,-1.5,2.96117e-38,0,0,0,1.10495,-0.346445,0,0,0,0,1.10766,-0.348696,21593,0,0,0,0,0,0,0,0,0,1,0.381089
8220,-0.709961,0.249023,-7.0293,-0.00140322,-0.000562142,-0.00310134,0.0891613,-0.0473113,-1.38971,-3.66746,0.316417,-0.119862,1.12274,-0.352044,1.11392,-0.350701,-1.38971,0,0,191,1,191,1,318,-23,217,122,0.0052116,0.0121556,0,-1.5,2.96117e-38,0,0,0,1.12274,-0.352044,0,0,0,0,1.11392,-0.350701,21895,0,0,0,0,0,0,0,0,0,1,0.387248
8236,-0.776367,0.249023,1.15039,-0.00123728,5.64541e-05,-0.00331413,0.0891545,-0.0473007,-1.38976,-3.66746,0.316417,-0.119862,1.1395,-0.357323,1.11974,-0.352566,-1.38976,0,0,191,1,191,1,318,-23,217,122,0.0041169,0.0143043,0,-1.5,2.96117e-38,0,0,0,1.1395,-0.357323,0,0,0,0,1.11974,-0.352566,21895,0,0,0,0,0,0,0,0,0,1,0.393055
8252,-0.776367,0.249023,1.15039,-0.00123728,5.64541e-05,-0.00331413,0.0891545,-0.0473007,-1.38976,-3.69646,0.323274,-0.107278,1.15861,-0.363339,1.12628,-0.354663,-1.38976,0,0,192,1,192,1,318,-23,216,121,0.00290078,0.0167418,0,-1.5,2.96117e-38,0,0,0,1.15861,-0.363339,0,0,0,0,1.12628,-0.354663,21312,0,0,0,0,0,0,0,0,0,1,0.399673
8267,-0.866211,0.249023,-7.21582,-0.000568532,-0.00135877,-0.00377753,0.0891432,-0.0472934,-1.38986,-3.69646,0.323274,-0.107278,1.17556,-0.368677,1.132,-0.356498,-1.38986,0,0,192,1,192,1,318,-23,216,121,0.0018207,0.0188947,0,-1.5,2.96117e-38,0,0,0,1.17556,-0.368677,0,0,0,0,1.132,-0.356498,21312,0,0,0,0,0,0,0,0,0,1,0.405545
8283,-0.833008,0.249023,-5.01172,-0.0025996,-0.00146749,-0.00324705,0.0891214,-0.0472922,-1.3899,-3.68911,0.319552,-0.11674,1.19374,-0.374401,1.13806,-0.358441,-1.3899,0,0,191,5,191,5,318,-23,217,121,0.000693362,0.0211936,0,-1.5,2.96117e-38,0,0,0,1.19374,-0.374401,0,0,0,0,1.13806,-0.358441,21744,0,0,0,0,0,0,0,0,0,1,0.411842
8300,-0.766602,0.249023,-5.79688,-0.00106274,3.00977e-05,-0.00403573,0.0890921,-0.0472834,-1.39,-3.68911,0.319552,-0.11674,1.21315,-0.380518,1.14444,-0.36049,-1.38996,0,0,191,5,191,5,318,-23,217,121,-0.000491082,0.0236389,0,-1.5,2.96117e-38,0,0,0,1.21315,-0.380518,0,0,0,0,1.14444,-0.36049,21744,0,0,0,0,0,0,0,0,0,1,0.418569
8315,-0.766602,0.249023,-5.79688,-0.00106274,3.00977e-05,-0.00403573,0.0890921,-0.0472834,-1.39,-3.69197,0.321493,-0.115118,1.23037,-0.385942,1.15002,-0.362284,-1.39,0,0,191,3,191,3,318,-21,216,121,-0.00152352,0.0257983,0,-1.5,2.96117e-38,0,0,0,1.23037,-0.385942,0,0,0,0,1.15002,-0.362284,21442,0,0,0,0,0,0,0,0,0,1,0.424536
8330,-0.700195,0.249023,4.36523,-0.000580974,-1.66196e-05,-0.00417875,0.0890731,-0.04727,-1.39011,-3.69197,0.321493,-0.115118,1.24768,-0.391394,1.15555,-0.364065,-1.39,0,0,191,3,191,3,318,-21,216,121,-0.00253536,0.0279597,0,-1.5,2.96117e-38,0,0,0,1.24768,-0.391394,0,0,0,0,1.15555,-0.364065,21442,0,0,0,0,0,0,0,0,0,1,0.430533
8346,-0.786133,0.249023,6.03613,-0.00231491,-0.001242,-0.00336646,0.0890503,-0.047273,-1.39015,-3.64723,0.321499,-0.127105,1.26623,-0.397238,1.16141,-0.36595,-1.39015,0,0,191,1,191,1,318,-23,214,122,-0.00363205,0.0302671,0,-1.5,2.96117e-38,0,0,0,1.26623,-0.397238,0,0,0,0,1.16141,-0.36595,21895,0,0,0,0,0,0,0,0,0,1,0.436962
8362,-0.848633,0.249023,-5.89941,-0.00198409,6.0925e-05,-0.00410378,0.0890322,-0.0472557,-1.3902,-3.64723,0.321499,-0.127105,1.28487,-0.403113,1.16721,-0.367821,-1.3902,0,0,191,1,191,1,318,-23,214,122,-0.0046951,0.0325771,0,-1.5,2.96117e-38,0,0,0,1.28487,-0.403113,0,0,0,0,1.16721,-0.367821,21895,0,0,0,0,0,0,0,0,0,1,0.443425
8379,-0.855469,0.249023,1.95703,-0.00236648,-0.000526087,-0.0034725,0.0890031,-0.0472507,-1.39025,-3.66542,0.321306,-0.117768,1.30361,-0.409018,1.17297,-0.369676,-1.39025,0,0,191,3,191,3,317,-25,216,121,-0.00574658,0.0348889,0,-1.5,2.96117e-38,0,0,0,1.30361,-0.409018,0,0,0,0,1.17297,-0.369676,22046,0,0,0,0,0,0,0,0,0,1,0.44992
8395,-0.855469,0.249023,1.95703,-0.00236648,-0.000526087,-0.0034725,0.0890031,-0.0472507,-1.39025,-3.66542,0.321306,-0.117768,1.32243,-0.414952,1.17867,-0.371517,-1.39025,0,0,191,3,191,3,317,-25,216,121,-0.00677408,0.0372032,0,-1.5,2.96117e-38,0,0,0,1.32243,-0.414952,0,0,0,0,1.17867,-0.371517,22046,0,0,0,0,0,0,0,0,0,1,0.456447
8411,-0.755859,0.249023,-5.81152,-0.00224989,-0.00103561,-0.00301441,0.0889527,-0.0472301,-1.39041,-3.64712,0.321649,-0.127035,1.34135,-0.420916,1.18433,-0.373344,-1.39037,0,0,191,1,191,1,318,-23,214,122,-0.00781336,0.0395188,0,-1.5,2.96117e-38,0,0,0,1.34135,-0.420916,0,0,0,0,1.18433,-0.373344,21895,0,0,0,0,0,0,0,0,0,1,0.463007
8427,-0.722656,0.249023,-7.22363,-0.000852165,-0.00033471,-0.00358825,0.088943,-0.0472232,-1.39046,-3.64712,0.321649,-0.127035,1.36036,-0.426908,1.18994,-0.375156,-1.39046,0,0,191,1,191,1,318,-23,214,122,-0.00883523,0.0418364,0,-1.5,2.96117e-38,0,0,0,1.36036,-0.426908,0,0,0,0,1.18994,-0.375156,21895,0,0,0,0,0,0,0,0,0,1,0.469599
8443,-0.709961,0.249023,-4.99805,-0.00105701,-0.000981697,-0.00332032,0.0889327,-0.0472307,-1.39051,-3.68557,0.318957,-0.11364,1.38065,-0.433307,1.19584,-0.377067,-1.39051,0,0,192,3,192,3,318,-23,216,121,-0.00989814,0.0443016,0,-1.5,2.96117e-38,0,0,0,1.38065,-0.433307,0,0,0,0,1.19584,-0.377067,21600,0,0,0,0,0,0,0,0,0,1,0.476638
8459,-0.709961,0.249023,-0.639648,-0.00102405,-0.00033351,-0.00472751,0.0889153,-0.0472163,-1.39058,-3.68557,0.318957,-0.11364,1.39864,-0.438979,1.20101,-0.37874,-1.39058,0,0,192,3,192,3,318,-23,216,121,-0.0108273,0.0464786,0,-1.5,2.96117e-38,0,0,0,1.39864,-0.438979,0,0,0,0,1.20101,-0.37874,21600,0,0,0,0,0,0,0,0,0,1,0.482877
8475,-0.709961,0.249023,-5.79199,-0.00181477,-1.1268e-05,-0.0039646,0.088889,-0.0472053,-1.39062,-3.68557,0.318957,-0.11364,1.41792,-0.445058,1.20647,-0.380511,-1.39062,0,0,192,3,192,3,318,-23,216,121,-0.0118032,0.0488028,0,-1.5,2.96117e-38,0,0,0,1.41792,-0.445058,0,0,0,0,1.20647,-0.380511,21600,0,0,0,0,0,0,0,0,0,1,0.489563
8490,-0.709961,0.249023,-5.79199,-0.00181477,-1.1268e-05,-0.0039646,0.088889,-0.0472053,-1.39062,-3.68173,0.315856,-0.113605,1.43727,-0.451164,1.21189,-0.382267,-1.39062,0,0,192,1,192,1,318,-23,217,121,-0.0127559,0.0511294,0,-1.5,2.96117e-38,0,0,0,1.43727,-0.451164,0,0,0,0,1.21189,-0.382267,21600,0,0,0,0,0,0,0,0,0,1,0.49628
8505,-0.746094,0.249023,4.37012,-0.0010892,-0.000890611,-0.00517209,0.0888594,-0.0472015,-1.39074,-3.68173,0.315856,-0.113605,1.4555,-0.456914,1.21692,-0.383901,-1.39074,0,0,192,1,192,1,318,-23,217,121,-0.0136654,0.0533111,0,-1.5,2.96117e-38,0,0,0,1.4555,-0.456914,0,0,0,0,1.21692,-0.383901,21600,0,0,0,0,0,0,0,0,0,1,0.502605
8517,-0.779297,0.249023,6.00098,-0.00102866,-0.000545283,-0.00387193,0.0888411,-0.0471835,-1.3908,-3.66126,0.320725,-0.121168,1.47013,-0.46153,1.22092,-0.3852,-1.3908,0,0,192,1,192,1,318,-23,214,121,-0.0143763,0.0550576,0,-1.5,2.96117e-38,0,0,0,1.47013,-0.46153,0,0,0,0,1.22092,-0.3852,21600,0,0,0,0,0,0,0,0,0,1,0.507683
8533,-0.8125,0.249023,-5.88965,-0.00190162,-0.000846466,-0.00260211,0.0888231,-0.0471898,-1.39084,-3.66126,0.320725,-0.121168,1.48972,-0.467711,1.22621,-0.38692,-1.39084,0,0,192,1,192,1,318,-23,214,121,-0.0153055,0.0573891,0,-1.5,2.96117e-38,0,0,0,1.48972,-0.467711,0,0,0,0,1.22621,-0.38692,21600,0,0,0,0,0,0,0,0,0,1,0.514482
8549,-0.845703,0.249023,1.95801,-0.00221949,-0.000812608,-0.00439608,0.0887976,-0.0471896,-1.3909,-3.66039,0.318752,-0.121915,1.5094,-0.473919,1.23146,-0.388629,-1.3909,0,0,191,1,191,1,318,-23,216,122,-0.0162281,0.059723,0,-1.5,2.96117e-38,0,0,0,1.5094,-0.473919,0,0,0,0,1.23146,-0.388629,21895,0,0,0,0,0,0,0,0,0,1,0.521311
8565,-0.830078,0.249023,1.18652,-0.0015658,-0.000517335,-0.00389908,0.0887752,-0.0471735,-1.391,-3.66039,0.318752,-0.121915,1.52916,-0.480155,1.23666,-0.390325,-1.391,0,0,191,1,191,1,318,-23,216,122,-0.0171486,0.0620583,0,-1.5,2.96117e-38,0,0,0,1.52916,-0.480155,0,0,0,0,1.23666,-0.390325,21895,0,0,0,0,0,0,0,0,0,1,0.528171
8581,-0.796875,0.249023,-5.78223,-0.00126626,0.000495412,-0.0043815,0.0887702,-0.0471498,-1.39106,-3.69191,0.325632,-0.106404,1.549,-0.486418,1.24182,-0.392006,-1.39106,0,0,191,1,191,1,315,-23,217,121,-0.0180471,0.0643959,0,-1.5,2.96117e-38,0,0,0,1.549,-0.486418,0,0,0,0,1.24182,-0.392006,21744,0,0,0,0,0,0,0,0,0,1,0.53506
8597,-0.763672,0.249023,-7.19043,-0.00146522,-0.00103953,-0.00349266,0.0887548,-0.0471465,-1.39111,-3.69191,0.325632,-0.106404,1.56892,-0.492707,1.24693,-0.393672,-1.39111,0,0,191,1,191,1,315,-23,217,121,-0.0189327,0.0667348,0,-1.5,2.96117e-38,0,0,0,1.56892,-0.492707,0,0,0,0,1.24693,-0.393672,21744,0,0,0,0,0,0,0,0,0,1,0.541978
8613,-0.730469,0.249023,-4.99805,-0.00262988,-0.00132194,-0.00390435,0.0887273,-0.0471412,-1.39117,-3.66371,0.312282,-0.118747,1.58892,-0.499023,1.252,-0.395326,-1.39117,0,0,191,1,191,1,320,-23,217,121,-0.0198089,0.0690759,0,-1.5,2.96117e-38,0,0,0,1.58892,-0.499023,0,0,0,0,1.252,-0.395326,21744,0,0,0,0,0,0,0,0,0,1,0.548926
8629,-0.697266,0.249023,-0.645508,-0.000788059,-0.000442909,-0.00459395,0.0887188,-0.0471253,-1.39122,-3.66371,0.312282,-0.118747,1.60901,-0.505366,1.25702,-0.396966,-1.39122,0,0,191,1,191,1,320,-23,217,121,-0.0206741,0.0714187,0,-1.5,2.96117e-38,0,0,0,1.60901,-0.505366,0,0,0,0,1.25702,-0.396966,21744,0,0,0,0,0,0,0,0,0,1,0.555902
8646,-0.676758,0.249023,-5.78418,-0.00212354,0.000127336,-0.00426015,0.0886884,-0.0471062,-1.39128,-3.64933,0.315625,-0.126143,1.62917,-0.511734,1.262,-0.398592,-1.39128,0,0,192,1,192,1,320,-23,214,121,-0.0215279,0.0737631,0,-1.5,2.96117e-38,0,0,0,1.62917,-0.511734,0,0,0,0,1.262,-0.398592,21600,0,0,0,0,0,0,0,0,0,1,0.562908
8661,-0.736328,0.249023,4.37793,-0.00120658,0.000116724,-0.00402451,0.0886483,-0.0470738,-1.39138,-3.64933,0.315625,-0.126143,1.64942,-0.518129,1.26694,-0.400204,-1.39128,0,0,192,1,192,1,320,-23,214,121,-0.0223565,0.0761103,0,-1.5,2.96117e-38,0,0,0,1.64942,-0.518129,0,0,0,0,1.26694,-0.400204,21600,0,0,0,0,0,0,0,0,0,1,0.569942
8677,-0.769531,0.249023,6.05273,-0.000787549,-0.000324318,-0.00340455,0.0886425,-0.0470649,-1.39142,-3.68017,0.312351,-0.116059,1.66974,-0.524549,1.27183,-0.401801,-1.39142,0,0,192,3,192,3,320,-23,217,121,-0.0232083,0.0784553,0,-1.5,2.96117e-38,0,0,0,1.66974,-0.524549,0,0,0,0,1.27183,-0.401801,21600,0,0,0,0,0,0,0,0,0,1,0.577004
8694,-0.802734,0.249023,-5.83008,-0.0020151,-0.000577635,-0.00332156,0.088622,-0.0470607,-1.39147,-3.68017,0.312351,-0.116059,1.69142,-0.531398,1.27698,-0.403484,-1.39147,0,0,192,3,192,3,320,-23,217,121,-0.0240779,0.0809509,0,-1.5,2.96117e-38,0,0,0,1.69142,-0.531398,0,0,0,0,1.27698,-0.403484,21600,0,0,0,0,0,0,0,0,0,1,0.584538
8709,-0.818359,0.249023,1.95801,-0.00161014,0.000815521,-0.00394234,0.0886111,-0.0470403,-1.39153,-3.67512,0.317888,-0.113349,1.71061,-0.537464,1.28148,-0.404956,-1.39153,0,0,191,1,191,1,318,-23,217,121,-0.0248359,0.083154,0,-1.5,2.96117e-38,0,0,0,1.71061,-0.537464,0,0,0,0,1.28148,-0.404956,21744,0,0,0,0,0,0,0,0,0,1,0.59121
8724,-0.818359,0.249023,-6.99121,-0.000398224,-5.89782e-05,-0.00376169,0.0886063,-0.0470307,-1.39158,-3.67512,0.317888,-0.113349,1.72988,-0.543552,1.28595,-0.406415,-1.39158,0,0,191,1,191,1,318,-23,217,121,-0.0255862,0.0853581,0,-1.5,2.96117e-38,0,0,0,1.72988,-0.543552,0,0,0,0,1.28595,-0.406415,21744,0,0,0,0,0,0,0,0,0,1,0.597907
8740,-0.818359,0.249023,1.16602,-0.00160511,-0.000529806,-0.00463083,0.0885989,-0.0470216,-1.39165,-3.67512,0.317888,-0.113349,1.7505,-0.550071,1.29068,-0.40796,-1.39165,0,0,191,1,191,1,318,-23,217,121,-0.0263799,0.0877111,0,-1.5,2.96117e-38,0,0,0,1.7505,-0.550071,0,0,0,0,1.29068,-0.40796,21744,0,0,0,0,0,0,0,0,0,1,0.605078
8756,-0.818359,0.249023,-7.2168,-0.00224914,-0.000348471,-0.0040292,0.0885575,-0.0470069,-1.39176,-3.66907,0.323547,-0.125534,1.7712,-0.556614,1.29537,-0.409493,-1.39165,0,0,192,5,192,5,318,-23,214,122,-0.0271447,0.0900674,0,-1.5,2.96117e-38,0,0,0,1.7712,-0.556614,0,0,0,0,1.29537,-0.409493,21750,0,0,0,0,0,0,0,0,0,1,0.612275
8772,-0.818359,0.249023,-5.02637,-0.00147459,-0.000130237,-0.00450126,0.0885483,-0.0469998,-1.39183,-3.66907,0.323547,-0.125534,1.79197,-0.563181,1.30002,-0.411013,-1.39176,0,0,192,5,192,5,318,-23,214,122,-0.027928,0.0924226,0,-1.5,2.96117e-38,0,0,0,1.79197,-0.563181,0,0,0,0,1.30002,-0.411013,21750,0,0,0,0,0,0,0,0,0,1,0.6195
8788,-0.818359,0.249023,-0.663086,-0.000519341,-0.00118106,-0.00433428,0.0885445,-0.046996,-1.39188,-3.66839,0.319627,-0.115636,1.81282,-0.569773,1.30463,-0.412522,-1.39188,0,0,191,1,191,1,318,-23,216,121,-0.0287035,0.0947791,0,-1.5,2.96117e-38,0,0,0,1.81282,-0.569773,0,0,0,0,1.30463,-0.412522,21744,0,0,0,0,0,0,0,0,0,1,0.62675
8804,-0.818359,0.249023,-5.7832,-0.00265014,8.00588e-05,-0.00380822,0.0885202,-0.0469904,-1.39193,-3.66839,0.319627,-0.115636,1.83243,-0.575974,1.30891,-0.413926,-1.39193,0,0,191,1,191,1,318,-23,216,121,-0.0294049,0.0969917,0,-1.5,2.96117e-38,0,0,0,1.83243,-0.575974,0,0,0,0,1.30891,-0.413926,21744,0,0,0,0,0,0,0,0,0,1,0.633572
8819,-0.818359,0.249023,-5.7832,-0.00265014,8.00588e-05,-0.00380822,0.0885202,-0.0469904,-1.39193,-3.66154,0.324142,-0.121979,1.85342,-0.582613,1.31344,-0.415412,-1.39193,0,0,191,3,191,3,318,-23,214,121,-0.0301286,0.0993553,0,-1.5,2.96117e-38,0,0,0,1.85342,-0.582613,0,0,0,0,1.31344,-0.415412,21744,0,0,0,0,0,0,0,0,0,1,0.640874
8836,-0.818359,0.249023,4.36621,-0.00257442,-0.000462176,-0.00482592,0.0884822,-0.0469694,-1.39204,-3.66154,0.324142,-0.121979,1.87448,-0.589275,1.31793,-0.416887,-1.39204,0,0,191,3,191,3,318,-23,214,121,-0.0308718,0.101717,0,-1.5,2.96117e-38,0,0,0,1.87448,-0.589275,0,0,0,0,1.31793,-0.416887,21744,0,0,0,0,0,0,0,0,0,1,0.648202
8851,-0.818359,0.249023,-5.84473,-0.00158097,-0.00215232,-0.00546794,0.0884406,-0.0469769,-1.39215,-3.67398,0.322376,-0.113096,1.89562,-0.59596,1.32238,-0.418349,-1.39204,0,0,191,1,191,1,317,-23,216,121,-0.0315751,0.104084,0,-1.5,2.96117e-38,0,0,0,1.89562,-0.59596,0,0,0,0,1.32238,-0.418349,21744,0,0,0,0,0,0,0,0,0,1,0.655556
8867,-0.818359,0.249023,1.95605,-0.00128722,-0.000759244,-0.00355568,0.0884234,-0.0469696,-1.3922,-3.67398,0.322376,-0.113096,1.91682,-0.602669,1.32679,-0.419801,-1.39215,0,0,191,1,191,1,317,-23,216,121,-0.0322998,0.106449,0,-1.5,2.96117e-38,0,0,0,1.91682,-0.602669,0,0,0,0,1.32679,-0.419801,21744,0,0,0,0,0,0,0,0,0,1,0.662936
8882,-0.818359,0.249023,1.95605,-0.00128722,-0.000759244,-0.00355568,0.0884234,-0.0469696,-1.3922,-3.66629,0.31776,-0.118952,1.93676,-0.608979,1.33089,-0.421154,-1.3922,0,0,191,1,191,1,318,-23,217,122,-0.0329529,0.108671,0,-1.5,2.96117e-38,0,0,0,1.93676,-0.608979,0,0,0,0,1.33089,-0.421154,21895,0,0,0,0,0,0,0,0,0,1,0.669877
8899,-0.818359,0.249023,1.16504,-0.00235818,-0.000432059,-0.00380796,0.0883791,-0.0469486,-1.3923,-3.66629,0.31776,-0.118952,1.95944,-0.616155,1.3355,-0.422676,-1.3923,0,0,191,1,191,1,318,-23,217,122,-0.0336974,0.111188,0,-1.5,2.96117e-38,0,0,0,1.95944,-0.616155,0,0,0,0,1.3355,-0.422676,21895,0,0,0,0,0,0,0,0,0,1,0.677771
8914,-0.818359,0.249023,1.16504,-0.00235818,-0.000432059,-0.00380796,0.0883791,-0.0469486,-1.3923,-3.66826,0.319854,-0.115573,1.97951,-0.622508,1.33953,-0.424007,-1.3923,0,0,191,1,191,1,318,-23,216,121,-0.0343187,0.113414,0,-1.5,2.96117e-38,0,0,0,1.97951,-0.622508,0,0,0,0,1.33953,-0.424007,21744,0,0,0,0,0,0,0,0,0,1,0.684759
8930,-0.818359,0.249023,-7.21777,-0.00146373,1.60118e-06,-0.00326257,0.0883604,-0.0469355,-1.3924,-3.66826,0.319854,-0.115573,2.00099,-0.629307,1.34379,-0.425416,-1.3924,0,0,191,1,191,1,318,-23,216,121,-0.0349996,0.115786,0,-1.5,2.96117e-38,0,0,0,2.00099,-0.629307,0,0,0,0,1.34379,-0.425416,21744,0,0,0,0,0,0,0,0,0,1,0.692237
8947,-0.818359,0.249023,-5.03809,-0.00177427,-0.000458586,-0.00420653,0.0883519,-0.046929,-1.39246,-3.69532,0.324629,-0.106356,2.02388,-0.636556,1.34827,-0.426901,-1.39246,0,0,192,1,192,1,318,-23,216,121,-0.0357012,0.11831,0,-1.5,2.96117e-38,0,0,0,2.02388,-0.636556,0,0,0,0,1.34827,-0.426901,21312,0,0,0,0,0,0,0,0,0,1,0.700211
8963,-0.818359,0.249023,-5.79688,-0.00114893,-0.000459399,-0.00377933,0.0883229,-0.0469014,-1.39255,-3.69532,0.324629,-0.106356,2.0455,-0.643401,1.35246,-0.428286,-1.39246,0,0,192,1,192,1,318,-23,216,121,-0.0363359,0.120689,0,-1.5,2.96117e-38,0,0,0,2.0455,-0.643401,0,0,0,0,1.35246,-0.428286,21312,0,0,0,0,0,0,0,0,0,1,0.707741
8979,-0.818359,0.249023,-5.79688,-0.00114893,-0.000459399,-0.00377933,0.0883229,-0.0469014,-1.39255,-3.69142,0.318324,-0.110407,2.06718,-0.650268,1.35661,-0.42966,-1.39255,0,0,192,3,192,3,318,-23,217,121,-0.0369891,0.123066,0,-1.5,2.96117e-38,0,0,0,2.06718,-0.650268,0,0,0,0,1.35661,-0.42966,21600,0,0,0,0,0,0,0,0,0,1,0.715295
8995,-0.818359,0.249023,4.41602,-0.00150521,-0.000146355,-0.00429317,0.0883116,-0.0468879,-1.39266,-3.69142,0.318324,-0.110407,2.08893,-0.657157,1.36072,-0.431022,-1.39266,0,0,192,3,192,3,318,-23,217,121,-0.0376366,0.125444,0,-1.5,2.96117e-38,0,0,0,2.08893,-0.657157,0,0,0,0,1.36072,-0.431022,21600,0,0,0,0,0,0,0,0,0,1,0.722872
9012,-0.818359,0.249023,6.04492,-0.000872796,-0.00153832,-0.00221672,0.088309,-0.0468848,-1.3927,-3.6612,0.324532,-0.121721,2.11211,-0.6645,1.36506,-0.432457,-1.3927,0,0,191,3,191,3,318,-23,214,121,-0.0382936,0.127975,0,-1.5,2.96117e-38,0,0,0,2.11211,-0.6645,0,0,0,0,1.36506,-0.432457,21744,0,0,0,0,0,0,0,0,0,1,0.73095
9027,-0.818359,0.249023,-5.88672,-0.0011678,-0.0011703,-0.00433129,0.0883029,-0.0468722,-1.39275,-3.6612,0.324532,-0.121721,2.13262,-0.670999,1.36885,-0.433713,-1.39275,0,0,191,3,191,3,318,-23,214,121,-0.0388707,0.130209,0,-1.5,2.96117e-38,0,0,0,2.13262,-0.670999,0,0,0,0,1.36885,-0.433713,21744,0,0,0,0,0,0,0,0,0,1,0.738099
9044,-0.818359,0.249023,2,-0.00094474,-0.000216316,-0.00307302,0.0882923,-0.0468633,-1.3928,-3.66984,0.324704,-0.117967,2.15594,-0.678388,1.37311,-0.435124,-1.3928,0,0,191,1,191,1,318,-21,214,121,-0.0395099,0.132743,0,-1.5,2.96117e-38,0,0,0,2.15594,-0.678388,0,0,0,0,1.37311,-0.435124,21442,0,0,0,0,0,0,0,0,0,1,0.746226
9060,-0.818359,0.249023,1.19727,-0.000786621,-0.000652461,-0.00369712,0.0882831,-0.0468508,-1.39291,-3.66984,0.324704,-0.117967,2.17657,-0.684926,1.37684,-0.436359,-1.3928,0,0,191,1,191,1,318,-21,214,121,-0.040054,0.134981,0,-1.5,2.96117e-38,0,0,0,2.17657,-0.684926,0,0,0,0,1.37684,-0.436359,21442,0,0,0,0,0,0,0,0,0,1,0.753419
9076,-0.818359,0.249023,-5.80762,-0.000219312,-8.37563e-05,-0.00428089,0.0882808,-0.0468365,-1.39298,-3.66984,0.324704,-0.117967,2.19864,-0.691922,1.38078,-0.437666,-1.39291,0,0,191,1,191,1,318,-21,214,121,-0.0406621,0.137366,0,-1.5,2.96117e-38,0,0,0,2.19864,-0.691922,0,0,0,0,1.38078,-0.437666,21442,0,0,0,0,0,0,0,0,0,1,0.761114
9092,-0.818359,0.249023,-7.2002,-0.000599995,0.000169131,-0.00415396,0.088281,-0.0468175,-1.39304,-3.65023,0.311983,-0.12312,2.22217,-0.699378,1.38494,-0.439042,-1.39304,0,0,191,1,191,1,321,-23,216,121,-0.0413001,0.139901,0,-1.5,2.96117e-38,0,0,0,2.22217,-0.699378,0,0,0,0,1.38494,-0.439042,21744,0,0,0,0,0,0,0,0,0,1,0.769316
9108,-0.818359,0.249023,-5.01758,-0.00213066,0.000491209,-0.00413149,0.0882648,-0.0467966,-1.39309,-3.65023,0.311983,-0.12312,2.24297,-0.705975,1.38857,-0.440244,-1.39309,0,0,191,1,191,1,321,-23,216,121,-0.0418377,0.142141,0,-1.5,2.96117e-38,0,0,0,2.24297,-0.705975,0,0,0,0,1.38857,-0.440244,21744,0,0,0,0,0,0,0,0,0,1,0.776573
9122,-0.818359,0.249023,-5.01758,-0.00213066,0.000491209,-0.00413149,0.0882648,-0.0467966,-1.39309,-3.68129,0.319756,-0.113974,2.26384,-0.71259,1.39217,-0.441435,-1.39309,0,0,191,3,191,3,318,-23,217,121,-0.0423504,0.144384,0,-1.5,2.96117e-38,0,0,0,2.26384,-0.71259,0,0,0,0,1.39217,-0.441435,21744,0,0,0,0,0,0,0,0,0,1,0.783849
9139,-0.818359,0.249023,-5.82129,-0.00151581,-0.000372828,-0.00500207,0.088248,-0.0467849,-1.39319,-3.68129,0.319756,-0.113974,2.28755,-0.720109,1.39623,-0.442775,-1.39319,0,0,191,3,191,3,318,-23,217,121,-0.0429557,0.146924,0,-1.5,2.96117e-38,0,0,0,2.28755,-0.720109,0,0,0,0,1.39623,-0.442775,21744,0,0,0,0,0,0,0,0,0,1,0.79212
9154,-0.818359,0.249023,-5.82129,-0.00151581,-0.000372828,-0.00500207,0.088248,-0.0467849,-1.39319,-3.66781,0.320115,-0.115053,2.30853,-0.726762,1.39977,-0.443948,-1.39319,0,0,191,1,191,1,318,-23,216,121,-0.0434528,0.14917,0,-1.5,2.96117e-38,0,0,0,2.30853,-0.726762,0,0,0,0,1.39977,-0.443948,21744,0,0,0,0,0,0,0,0,0,1,0.799439
9170,-0.818359,0.249023,6.08398,-0.00075234,-0.00066236,-0.00425181,0.0882405,-0.0467549,-1.39337,-3.66781,0.320115,-0.115053,2.33096,-0.733879,1.40352,-0.445189,-1.39331,0,0,191,1,191,1,318,-23,216,121,-0.0440142,0.151562,0,-1.5,2.96117e-38,0,0,0,2.33096,-0.733879,0,0,0,0,1.40352,-0.445189,21744,0,0,0,0,0,0,0,0,0,1,0.807266
9186,-0.818359,0.249023,-5.86621,0.000144586,-4.57786e-05,-0.00332179,0.0882539,-0.046742,-1.39342,-3.66778,0.320143,-0.115021,2.35346,-0.741015,1.40724,-0.446419,-1.39337,0,0,191,1,191,1,318,-23,216,121,-0.0445473,0.153958,0,-1.5,2.96117e-38,0,0,0,2.35346,-0.741015,0,0,0,0,1.40724,-0.446419,21744,0,0,0,0,0,0,0,0,0,1,0.815116
9202,-0.818359,0.249023,1.92969,-0.00165206,-0.000523922,-0.00367033,0.0882351,-0.0467381,-1.39347,-3.66778,0.320143,-0.115021,2.37601,-0.74817,1.41093,-0.447638,-1.39347,0,0,191,1,191,1,318,-23,216,121,-0.0450884,0.156352,0,-1.5,2.96117e-38,0,0,0,2.37601,-0.74817,0,0,0,0,1.41093,-0.447638,21744,0,0,0,0,0,0,0,0,0,1,0.822987
9218,-0.818359,0.249023,1.92969,-0.00165206,-0.000523922,-0.00367033,0.0882351,-0.0467381,-1.39347,-3.64438,0.318473,-0.126487,2.39863,-0.755345,1.41459,-0.448847,-1.39347,0,0,192,1,192,1,318,-23,214,122,-0.0455872,0.158754,0,-1.5,2.96117e-38,0,0,0,2.39863,-0.755345,0,0,0,0,1.41459,-0.448847,21895,0,0,0,0,0,0,0,0,0,1,0.83088
9234,-0.818359,0.249023,1.17676,-0.001038,-0.000781676,-0.00358808,0.0882204,-0.0467027,-1.39358,-3.64438,0.318473,-0.126487,2.4213,-0.762539,1.41822,-0.450045,-1.39358,0,0,192,1,192,1,318,-23,214,122,-0.0461156,0.16115,0,-1.5,2.96117e-38,0,0,0,2.4213,-0.762539,0,0,0,0,1.41822,-0.450045,21895,0,0,0,0,0,0,0,0,0,1,0.838793
9250,-0.818359,0.249023,-5.78711,-0.000965885,-0.000316562,-0.00364604,0.0882161,-0.0466975,-1.39364,-3.64438,0.318473,-0.126487,2.44403,-0.769752,1.42181,-0.451232,-1.39364,0,0,192,1,192,1,318,-23,214,122,-0.0466185,0.163551,0,-1.5,2.96117e-38,0,0,0,2.44403,-0.769752,0,0,0,0,1.42181,-0.451232,21895,0,0,0,0,0,0,0,0,0,1,0.846727
9266,-0.818359,0.249023,-5.00684,-0.00149783,-0.000237796,-0.00249994,0.0881894,-0.0466876,-1.39374,-3.64438,0.318473,-0.126487,2.46681,-0.776984,1.42538,-0.45241,-1.3937,0,0,192,1,192,1,318,-23,214,122,-0.0471119,0.165953,0,-1.5,2.96117e-38,0,0,0,2.46681,-0.776984,0,0,0,0,1.42538,-0.45241,21895,0,0,0,0,0,0,0,0,0,1,0.854682
9281,-0.818359,0.249023,-5.00684,-0.00149783,-0.000237796,-0.00249994,0.0881894,-0.0466876,-1.39374,-3.66206,0.317948,-0.126142,2.48822,-0.783781,1.42869,-0.453506,-1.39374,0,0,192,1,192,1,318,-23,216,121,-0.0475653,0.168206,0,-1.5,2.96117e-38,0,0,0,2.48822,-0.783781,0,0,0,0,1.42869,-0.453506,21600,0,0,0,0,0,0,0,0,0,1,0.862159
9298,-0.818359,0.249023,-5.79688,-0.00157365,-8.71388e-05,-0.00414653,0.0881629,-0.0466686,-1.39384,-3.66206,0.317948,-0.126142,2.51255,-0.791504,1.43242,-0.454738,-1.39384,0,0,192,1,192,1,318,-23,216,121,-0.0480882,0.170759,0,-1.5,2.96117e-38,0,0,0,2.51255,-0.791504,0,0,0,0,1.43242,-0.454738,21600,0,0,0,0,0,0,0,0,0,1,0.870655
9313,-0.818359,0.249023,5.76074,-0.00138094,-0.000544316,-0.00286999,0.0881435,-0.0466677,-1.39389,-3.70012,0.321704,-0.109552,2.53407,-0.798336,1.43567,-0.455816,-1.39389,0,0,192,3,192,3,318,-21,216,121,-0.0485277,0.173015,0,-1.5,2.96117e-38,0,0,0,2.53407,-0.798336,0,0,0,0,1.43567,-0.455816,21300,0,0,0,0,0,0,0,0,0,1,0.878169
9329,-0.818359,0.249023,4.36621,-0.00129951,-0.000372406,-0.00369237,0.088138,-0.0466563,-1.39395,-3.70012,0.321704,-0.109552,2.55708,-0.80564,1.43911,-0.456958,-1.39395,0,0,192,3,192,3,318,-21,216,121,-0.0489923,0.175422,0,-1.5,2.96117e-38,0,0,0,2.55708,-0.80564,0,0,0,0,1.43911,-0.456958,21300,0,0,0,0,0,0,0,0,0,1,0.886204
9345,-0.818359,0.249023,6.01855,-0.00280502,-0.000303831,-0.00475283,0.0881149,-0.0466408,-1.39402,-3.67995,0.324317,-0.113419,2.58014,-0.812964,1.44252,-0.45809,-1.39402,0,0,191,3,191,3,317,-23,216,121,-0.0494505,0.17783,0,-1.5,2.96117e-38,0,0,0,2.58014,-0.812964,0,0,0,0,1.44252,-0.45809,21744,0,0,0,0,0,0,0,0,0,1,0.89426
9361,-0.818359,0.249023,6.01855,-0.00280502,-0.000303831,-0.00475283,0.0881149,-0.0466408,-1.39402,-3.67995,0.324317,-0.113419,2.60326,-0.820305,1.44591,-0.459212,-1.39402,0,0,191,3,191,3,317,-23,216,121,-0.0498785,0.180242,0,-1.5,2.96117e-38,0,0,0,2.60326,-0.820305,0,0,0,0,1.44591,-0.459212,21744,0,0,0,0,0,0,0,0,0,1,0.902335
9378,-0.818359,0.249023,-7.01953,-0.000551852,0.000223256,-0.00374405,0.0878906,-0.0463867,-1.39404,-3.65889,0.319927,-0.12037,2.62643,-0.827664,1.44926,-0.460325,-1.39412,0,0,191,1,191,1,318,-23,216,122,-0.0503378,0.18265,0,-1.5,2.96117e-38,0,0,0,2.62643,-0.827664,0,0,0,0,1.44926,-0.460325,21895,0,0,0,0,0,0,0,0,0,1,0.91043
9393,-0.818359,0.249023,1.16113,-0.0022497,0.000127061,-0.00298989,0.0880665,-0.0465991,-1.39422,-3.65889,0.319927,-0.12037,2.64965,-0.83504,1.45255,-0.461401,-1.39422,0,0,191,1,191,1,318,-23,216,122,-0.0507774,0.185052,0,-1.5,2.96117e-38,0,0,0,2.64965,-0.83504,0,0,0,0,1.45255,-0.461401,21895,0,0,0,0,0,0,0,0,0,1,0.918544
