timestamp,A_x,A_y,A_z,P,Q,R,Phi,Theta,Psi,poseX,poseY,poseZ,state_X,state_Y,state_Z,state_VzB,state_Bx,state_By,state_Bz,p1_x,p1_y,p2_x,p2_y,p3_x,p3_y,p4_x,p4_y,roll,pitch,yaw,alt,targetHeading,highLevelState,lowLevelState,gateNumber,filtered_x,filtered_y,x_OT,y_OT,vx_OT,vy_OT,filtered_vx,filtered_vygateArearansac_corr_x,ransac_corr_y,ransac_corr_vx,ransac_corr_vy,detectionTimeStamppTermX,dTermX,pTermY,dTermY,vxcmd,vycmd
6477,-2.23242,2.4541,5.87402,-1.10658,-0.05927,-1.09143,0.115538,0.143187,-2.90567,0,0,0,-0.000926309,0.000765423,-0.0973711,0.0773188,-2.68598,0,0,0,0,0,0,0,0,0,0,0.138261,0.0633154,0.00469354,-1.5,3.21602e-38,0,0,1,-0.000926309,0.000765423,0,0,0,0,-0.0973711,0.0773188,1.9603e-19,0,0,0,0,0,0,0,0,0,1,-0.000841965
6492,-0.115234,0.136719,0.147461,-0.0552972,0.000144682,-0.00100591,0.0385924,-0.0240858,3.08996,0,0,0,-0.00215845,0.00173304,-0.0788522,0.0642575,3.05343,0,0,0,0,0,0,0,0,0,0,-0.00727135,0.0956775,0.0156452,-1.5,3.21602e-38,0,0,2,-0.00215845,0.00173304,0,0,0,0,-0.0788522,0.0642575,1.9603e-19,0,0,0,0,0,0,0,0,0,1,-0.00190634
6507,0,0.174805,4.2998,-0.00469308,-0.00120274,-0.00160844,0.0338622,-0.0254912,3.08892,0,0,0,-0.00337194,0.00263416,-0.0821696,0.0578841,3.08933,0,0,0,0,0,0,0,0,0,0,0.00104124,0.0965224,0.0265656,-1.5,3.21602e-38,0,0,3,-0.00337194,0.00263416,0,0,0,0,-0.0821696,0.0578841,1.9603e-19,0,0,0,0,0,0,0,0,0,1,-0.00289758
6524,0,0.226562,-0.556641,-0.00218317,0.000127745,-0.0012223,0.0303702,-0.026601,3.08816,0,0,0,-0.00489759,0.0036035,-0.0862517,0.0517164,3.08829,0,0,0,0,0,0,0,0,0,0,-0.000566647,0.0974744,0.0170848,-1.5,3.21602e-38,0,0,0,-0.00489759,0.0036035,0,0,0,0,-0.0862517,0.0517164,1.9603e-19,0,0,0,0,0,0,0,0,0,1,-0.00396385
6540,0,0.226562,-6.7666,-0.000791659,-0.000263062,-0.00158177,0.0303185,-0.0266149,3.08814,0,0,0,-0.00631561,0.00438052,-0.0899762,0.0467751,3.08814,0,0,0,0,0,0,0,0,0,0,-0.00167853,0.0983495,0.0214718,-1.5,3.21602e-38,0,0,1,-0.00631561,0.00438052,0,0,0,0,-0.0899762,0.0467751,1.9603e-19,0,0,0,0,0,0,0,0,0,1,-0.00481857
6555,0,0.226562,3.26465,-0.00177188,-0.00181976,-0.00116928,0.0302559,-0.0266425,3.08813,0,0,0,-0.00769881,0.00503775,-0.0934434,0.0421905,3.08813,0,0,0,0,0,0,0,0,0,0,-0.00269292,0.0991635,0.0354791,-1.5,3.21602e-38,0,0,2,-0.00769881,0.00503775,0,0,0,0,-0.0934434,0.0421905,1.9603e-19,0,0,0,0,0,0,0,0,0,1,-0.00554153
6571,0,0.226562,3.44727,-0.00294128,-0.000307796,-0.000758582,0.0301899,-0.0266514,3.0881,0,0,0,-0.00923254,0.00566186,-0.0971174,0.0373486,3.0881,0,0,0,0,0,0,0,0,0,0,-0.00378526,0.100025,0.0510074,-1.5,3.21602e-38,0,0,3,-0.00923254,0.00566186,0,0,0,0,-0.0971174,0.0373486,1.9603e-19,0,0,0,0,0,0,0,0,0,1,-0.00622805
6587,0,0.226562,4.40039,-0.00450415,-0.00112243,-0.00108916,0.0300975,-0.0266699,3.08808,0,0,0,-0.0108248,0.00620903,-0.100764,0.0325587,3.08808,0,0,0,0,0,0,0,0,0,0,-0.00488475,0.100879,0.0414289,-1.5,3.21602e-38,0,0,0,-0.0108248,0.00620903,0,0,0,0,-0.100764,0.0325587,1.9603e-19,0,0,0,0,0,0,0,0,0,1,-0.00682993
6603,0,0.226562,-6.82031,-0.004203,-0.00131618,-0.00157465,0.030012,-0.0267013,3.08806,0,0,0,-0.0124739,0.00668162,-0.104383,0.0278229,3.08806,0,0,0,0,0,0,0,0,0,0,-0.00599312,0.101726,0.04225,-1.5,3.21602e-38,0,0,1,-0.0124739,0.00668162,0,0,0,0,-0.104383,0.0278229,1.9603e-19,0,0,0,0,0,0,0,0,0,1,-0.00734978
6619,0,0.226562,5.77441,-0.00248531,-0.00109158,-0.00137461,0.0298688,-0.0267367,3.08801,0,0,0,-0.0141807,0.00707896,-0.107977,0.0231381,3.08803,0,0,0,0,0,0,0,0,0,0,-0.00710843,0.102567,0.0560677,-1.5,3.21602e-38,0,0,2,-0.0141807,0.00707896,0,0,0,0,-0.107977,0.0231381,1.9603e-19,0,0,0,0,0,0,0,0,0,1,-0.00778686
6634,0,0.226562,-4.26855,-0.00310198,-0.000303943,-0.000769724,0.0297963,-0.0267469,3.088,0,0,0,-0.0158327,0.00738393,-0.111322,0.0187917,3.08801,0,0,0,0,0,0,0,0,0,0,-0.00816056,0.103348,0.0699492,-1.5,3.21602e-38,0,0,3,-0.0158327,0.00738393,0,0,0,0,-0.111322,0.0187917,1.9603e-19,0,0,0,0,0,0,0,0,0,1,-0.00812233
6650,0,0.226562,4.55859,-0.00335249,-0.000600628,-0.00166015,0.0297215,-0.0267553,3.08798,0,0,0,-0.01765,0.00763784,-0.114866,0.0142079,3.088,0,0,0,0,0,0,0,0,0,0,-0.00928519,0.104175,0.0634302,-1.5,3.21602e-38,0,0,0,-0.01765,0.00763784,0,0,0,0,-0.114866,0.0142079,1.9603e-19,0,0,0,0,0,0,0,0,0,1,-0.00840162
6667,0,0.226562,-2.625,-0.0034493,-0.000609503,-0.00149502,0.0296503,-0.0267753,3.08796,0,0,0,-0.0196452,0.00782458,-0.118603,0.00939288,3.08796,0,0,0,0,0,0,0,0,0,0,-0.0104968,0.105045,0.0651683,-1.5,3.21602e-38,0,0,1,-0.0196452,0.00782458,0,0,0,0,-0.118603,0.00939288,1.9603e-19,0,0,0,0,0,0,0,0,0,1,-0.00860704
6700,0,0.226562,7.27148,-0.0031886,-0.00121632,-0.00117445,0.0294941,-0.0268316,3.08792,0,0,0,-0.0236171,0.00789815,-0.12558,0.000435227,3.08792,0,0,0,0,0,0,0,0,0,0,-0.0128173,0.106668,0.105597,-1.5,3.21602e-38,0,0,2,-0.0236171,0.00789815,0,0,0,0,-0.12558,0.000435227,1.9603e-19,0,0,0,0,0,0,0,0,0,1,-0.00868797
6743,0,0.226562,6.86816,-0.00423683,-0.000443513,-0.00191461,0.0292089,-0.0269008,3.08786,0,0,0,-0.0294856,0.00747992,-0.135036,-0.0116081,3.08789,0,0,0,0,0,0,0,0,0,0,-0.0160749,0.10886,0.162772,-1.5,3.21602e-38,0,0,3,-0.0294856,0.00747992,0,0,0,0,-0.135036,-0.0116081,1.9603e-19,0,0,0,0,0,0,0,0,0,1,-0.00822791
6761,0,0.226562,6.86816,-0.00423683,-0.000443513,-0.00191461,0.0292089,-0.0269008,3.08786,0,0,0,-0.0319613,0.00721422,-0.138832,-0.0163927,3.08786,0,0,0,0,0,0,0,0,0,0,-0.0174012,0.109739,0.152753,-1.5,3.21602e-38,0,0,0,-0.0319613,0.00721422,0,0,0,0,-0.138832,-0.0163927,1.9603e-19,0,0,0,0,0,0,0,0,0,1,-0.00793564
6773,0,0.226562,0.332031,-0.00282103,-0.00040702,-0.00100103,0.0290666,-0.0269402,3.08785,0,0,0,-0.0336456,0.00699432,-0.141341,-0.0195516,3.08786,0,0,0,0,0,0,0,0,0,0,-0.0182838,0.11032,0.154054,-1.5,3.21602e-38,0,0,1,-0.0336456,0.00699432,0,0,0,0,-0.141341,-0.0195516,1.9603e-19,0,0,0,0,0,0,0,0,0,1,-0.00769375
6789,0,0.226562,6.44922,-0.00222612,-0.000308058,-0.00246153,0.0290075,-0.026957,3.08783,0,0,0,-0.0359411,0.00663903,-0.14467,-0.023712,3.08783,0,0,0,0,0,0,0,0,0,0,-0.0194739,0.111089,0.169095,-1.5,3.21602e-38,0,0,2,-0.0359411,0.00663903,0,0,0,0,-0.14467,-0.023712,1.9603e-19,0,0,0,0,0,0,0,0,0,1,-0.00730294
6804,0,0.226562,-6.64258,-0.00169536,-0.0022546,-0.000458074,0.0289532,-0.0269799,3.08783,0,0,0,-0.0381411,0.00624597,-0.147769,-0.0275723,3.08783,0,0,0,0,0,0,0,0,0,0,-0.0205875,0.111805,0.182525,-1.5,3.21602e-38,0,0,3,-0.0381411,0.00624597,0,0,0,0,-0.147769,-0.0275723,1.9603e-19,0,0,0,0,0,0,0,0,0,1,-0.00687057
6820,0,0.226562,6.91895,-0.00130034,-0.000807955,-0.000448416,0.0289019,-0.0269947,3.08782,0,0,0,-0.04054,0.00576192,-0.151053,-0.0316493,3.08782,0,0,0,0,0,0,0,0,0,0,-0.0217861,0.112563,0.17242,-1.5,3.21602e-38,0,0,0,-0.04054,0.00576192,0,0,0,0,-0.151053,-0.0316493,1.9603e-19,0,0,0,0,0,0,0,0,0,1,-0.00633811
6836,0,0.226562,5.75488,-0.00328316,-0.0010295,-0.000733941,0.028831,-0.0270145,3.08781,0,0,0,-0.0429911,0.00521307,-0.154313,-0.0356844,3.08781,0,0,0,0,0,0,0,0,0,0,-0.0229891,0.113314,0.172112,-1.5,3.21602e-38,0,0,1,-0.0429911,0.00521307,0,0,0,0,-0.154313,-0.0356844,1.9603e-19,0,0,0,0,0,0,0,0,0,1,-0.00573437
6852,0,0.226562,-6.78125,-0.00183918,-0.00133585,-0.0014523,0.0287666,-0.0270429,3.0878,0,0,0,-0.0454941,0.00460011,-0.15755,-0.0396764,3.0878,0,0,0,0,0,0,0,0,0,0,-0.0242022,0.114059,0.187081,-1.5,3.21602e-38,0,0,2,-0.0454941,0.00460011,0,0,0,0,-0.15755,-0.0396764,1.9603e-19,0,0,0,0,0,0,0,0,0,1,-0.00506012
6868,0,0.226562,-6.78125,-0.00183918,-0.00133585,-0.0014523,0.0287666,-0.0270429,3.0878,0,0,0,-0.0480487,0.00392371,-0.160764,-0.0436301,3.0878,0,0,0,0,0,0,0,0,0,0,-0.0254181,0.114798,0.202003,-1.5,3.21602e-38,0,0,3,-0.0480487,0.00392371,0,0,0,0,-0.160764,-0.0436301,1.9603e-19,0,0,0,0,0,0,0,0,0,1,-0.00431608
6884,0,0.226562,-3.65527,-0.00138193,-0.00026649,-0.00205294,0.0285934,-0.0271146,3.08774,0,0,0,-0.0506545,0.00318438,-0.163952,-0.0475523,3.0878,0,0,0,0,0,0,0,0,0,0,-0.0266431,0.115531,0.19182,-1.5,3.21602e-38,0,0,0,-0.0506545,0.00318438,0,0,0,0,-0.163952,-0.0475523,1.9603e-19,0,0,0,0,0,0,0,0,0,1,-0.00350282
6900,0,0.226562,-7.03125,-0.00309683,-0.00130843,-0.001714,0.0285283,-0.0271365,3.08772,0,0,0,-0.0533101,0.00238414,-0.167125,-0.0514126,3.08772,0,0,0,0,0,0,0,0,0,0,-0.0278909,0.116257,0.191123,-1.5,3.21602e-38,0,0,1,-0.0533101,0.00238414,0,0,0,0,-0.167125,-0.0514126,1.9603e-19,0,0,0,0,0,0,0,0,0,1,-0.00262256
6917,0,0.226562,6.81738,-0.00186907,-0.00159999,-0.00194244,0.0284727,-0.0271556,3.0877,0,0,0,-0.0561881,0.00146542,-0.170472,-0.0554693,3.0877,0,0,0,0,0,0,0,0,0,0,-0.0292071,0.117023,0.205609,-1.5,3.21602e-38,0,0,2,-0.0561881,0.00146542,0,0,0,0,-0.170472,-0.0554693,1.9603e-19,0,0,0,0,0,0,0,0,0,1,-0.00161196
6931,0,0.226562,-6.8584,-0.00362635,-0.00255591,-0.00095008,0.0283966,-0.0271869,3.08769,0,0,0,-0.058599,0.000659524,-0.17321,-0.0587731,3.08769,0,0,0,0,0,0,0,0,0,0,-0.0302926,0.11765,0.217328,-1.5,3.21602e-38,0,0,3,-0.058599,0.000659524,0,0,0,0,-0.17321,-0.0587731,1.9603e-19,0,0,0,0,0,0,0,0,0,1,-0.000725476
6947,0,0.226562,-2.54004,-0.00337879,-0.00173047,0.000295736,0.0283288,-0.0272207,3.08769,0,0,0,-0.0612253,-0.000256017,-0.176126,-0.0622772,3.08769,0,0,0,0,0,0,0,0,0,0,-0.0314598,0.118317,0.208648,-1.5,3.21602e-38,0,0,0,-0.0612253,-0.000256017,0,0,0,0,-0.176126,-0.0622772,1.9603e-19,0,0,0,0,0,0,0,0,0,1,0.000281619
6962,0,0.226562,-2.54004,-0.00337879,-0.00173047,0.000295736,0.0283288,-0.0272207,3.08769,0,0,0,-0.0640758,-0.00129139,-0.179216,-0.0659801,3.08769,0,0,0,0,0,0,0,0,0,0,-0.0327101,0.119023,0.207618,-1.5,3.21602e-38,0,0,1,-0.0640758,-0.00129139,0,0,0,0,-0.179216,-0.0659801,1.9603e-19,0,0,0,0,0,0,0,0,0,1,0.00142053
6978,0,0.226562,6.82812,-0.00271471,-0.000791906,-0.00173275,0.0281391,-0.0272886,3.0876,0,0,0,-0.0669755,-0.00238567,-0.182284,-0.0696457,3.08763,0,0,0,0,0,0,0,0,0,0,-0.0339823,0.119722,0.222445,-1.5,3.21602e-38,0,0,2,-0.0669755,-0.00238567,0,0,0,0,-0.182284,-0.0696457,1.9603e-19,0,0,0,0,0,0,0,0,0,1,0.00262424
6994,0,0.226562,-4.07812,-0.00453085,-0.000901746,-0.00066718,0.0280674,-0.0273088,3.0876,0,0,0,-0.0699241,-0.00353809,-0.185333,-0.0732643,3.0876,0,0,0,0,0,0,0,0,0,0,-0.0352517,0.120416,0.237225,-1.5,3.21602e-38,0,0,3,-0.0699241,-0.00353809,0,0,0,0,-0.185333,-0.0732643,1.9603e-19,0,0,0,0,0,0,0,0,0,1,0.0038919
7010,0,0.226562,6.13086,-0.00272688,-0.000772723,-0.0019744,0.0280077,-0.0273274,3.08758,0,0,0,-0.0729204,-0.00474676,-0.188361,-0.0768358,3.08758,0,0,0,0,0,0,0,0,0,0,-0.0365224,0.121105,0.228014,-1.5,3.21602e-38,0,0,0,-0.0729204,-0.00474676,0,0,0,0,-0.188361,-0.0768358,1.9603e-19,0,0,0,0,0,0,0,0,0,1,0.00522144
7025,0,0.226562,0.155273,-0.00247941,-0.000124491,-0.000436721,0.0279494,-0.0273455,3.08758,0,0,0,-0.0757723,-0.00593049,-0.19118,-0.0801487,3.08758,0,0,0,0,0,0,0,0,0,0,-0.0377129,0.121747,0.22907,-1.5,3.21602e-38,0,0,1,-0.0757723,-0.00593049,0,0,0,0,-0.19118,-0.0801487,1.9603e-19,0,0,0,0,0,0,0,0,0,1,0.00652354
7041,0,0.226562,-2.20801,-0.00274776,-0.00094235,-0.000922835,0.0278889,-0.0273706,3.08757,0,0,0,-0.0788617,-0.00724856,-0.194167,-0.0836446,3.08757,0,0,0,0,0,0,0,0,0,0,-0.0389921,0.122425,0.243818,-1.5,3.21602e-38,0,0,2,-0.0788617,-0.00724856,0,0,0,0,-0.194167,-0.0836446,1.9603e-19,0,0,0,0,0,0,0,0,0,1,0.00797341
7057,0,0.226562,-2.29395,-0.0031043,-0.0017939,-0.000255122,0.027819,-0.0274008,3.08756,0,0,0,-0.0819986,-0.00862216,-0.197135,-0.087101,3.08756,0,0,0,0,0,0,0,0,0,0,-0.0402758,0.123098,0.256445,-1.5,3.21602e-38,0,0,3,-0.0819986,-0.00862216,0,0,0,0,-0.197135,-0.087101,1.9603e-19,0,0,0,0,0,0,0,0,0,1,0.00948438
7073,0,0.226562,0.866211,-0.00296875,-0.000994288,-0.00132991,0.0277621,-0.0274253,3.08753,0,0,0,-0.0851828,-0.0100507,-0.200083,-0.0905195,3.08753,0,0,0,0,0,0,0,0,0,0,-0.0415673,0.123766,0.24918,-1.5,3.21602e-38,0,0,0,-0.0851828,-0.0100507,0,0,0,0,-0.200083,-0.0905195,1.9603e-19,0,0,0,0,0,0,0,0,0,1,0.0110557
7089,0,0.226562,5.34961,-0.00180816,-0.00101716,-0.00296956,0.027708,-0.0274428,3.08749,0,0,0,-0.088414,-0.0115335,-0.20301,-0.0939017,3.08749,0,0,0,0,0,0,0,0,0,0,-0.0428708,0.124427,0.24734,-1.5,3.21602e-38,0,0,1,-0.088414,-0.0115335,0,0,0,0,-0.20301,-0.0939017,1.9603e-19,0,0,0,0,0,0,0,0,0,1,0.0126869
7104,0,0.226562,6.83496,-0.00338717,-0.000781603,-0.000629163,0.0275889,-0.0274841,3.08746,0,0,0,-0.0914855,-0.0129725,-0.205735,-0.0970433,3.08749,0,0,0,0,0,0,0,0,0,0,-0.0440871,0.125043,0.260444,-1.5,3.21602e-38,0,0,2,-0.0914855,-0.0129725,0,0,0,0,-0.205735,-0.0970433,1.9603e-19,0,0,0,0,0,0,0,0,0,1,0.0142697
7121,0,0.226562,1.45801,-0.00169674,-0.00174548,-0.00145241,0.0275448,-0.0275184,3.08744,0,0,0,-0.095018,-0.0146621,-0.208806,-0.100555,3.08744,0,0,0,0,0,0,0,0,0,0,-0.045484,0.125735,0.276637,-1.5,3.21602e-38,0,0,3,-0.095018,-0.0146621,0,0,0,0,-0.208806,-0.100555,1.9603e-19,0,0,0,0,0,0,0,0,0,1,0.0161284
7138,0,0.226562,1.45801,-0.00169674,-0.00174548,-0.00145241,0.0275448,-0.0275184,3.08744,-3.59521,-0.281499,-0.130563,-0.0986023,-0.0164111,-0.211855,-0.104031,3.08744,-0.281486,4.59521,278,-4,278,-4,411,-17,288,118,-0.0468732,0.126423,0.264591,-1.5,3.21602e-38,0,0,0,-0.0986023,-0.0164111,0,0,0,0,-0.211855,-0.104031,18225,0,0,0,0,7130,0,0,0,0,1,0.0180522
7153,0,0.226562,4.17676,-0.00363642,-0.000801249,-0.00372671,0.0274212,-0.0275526,3.0874,-3.59521,-0.281499,-0.130563,-0.101806,-0.018001,-0.214525,-0.107065,3.0874,-0.281486,4.59521,278,-4,278,-4,411,-17,288,118,-0.0481178,0.127023,0.262973,-1.5,3.21602e-38,0,0,1,-0.101806,-0.018001,0,0,0,0,-0.214525,-0.107065,18225,0,0,0,0,7130,0,0,0,0,1,0.0198011
7169,0,0.226562,1.02539,-0.00308151,-0.00108419,-0.00110523,0.027354,-0.0275725,3.08738,-3.59521,-0.281499,-0.130563,-0.10505,-0.019636,-0.217178,-0.11006,3.08738,-0.281486,4.59521,278,-4,278,-4,411,-17,288,118,-0.0493541,0.12762,0.276014,-1.5,3.21602e-38,0,0,2,-0.10505,-0.019636,0,0,0,0,-0.217178,-0.11006,18225,0,0,0,0,7130,0,0,0,0,1,0.0215996
7184,0,0.226562,0.727539,-0.00359133,-0.00146508,-0.00133798,0.0272881,-0.0275904,3.08736,-3.59521,-0.281499,-0.130563,-0.108554,-0.0214302,-0.21999,-0.113221,3.08736,-0.281486,4.59521,278,-4,278,-4,411,-17,288,118,-0.0506805,0.128251,0.29058,-1.5,3.21602e-38,0,0,3,-0.108554,-0.0214302,0,0,0,0,-0.21999,-0.113221,18225,0,0,0,0,7130,0,0,0,0,1,0.0235732
7200,0,0.226562,4.82617,-0.00238033,-0.000567196,-0.00121053,0.0271662,-0.0276399,3.08735,-3.59521,-0.281499,-0.130563,-0.112102,-0.0232736,-0.222782,-0.116346,3.08736,-0.281486,4.59521,278,-4,278,-4,411,-17,288,118,-0.0520057,0.128878,0.283179,-1.5,3.21602e-38,0,0,0,-0.112102,-0.0232736,0,0,0,0,-0.222782,-0.116346,18225,0,0,0,0,7130,0,0,0,0,1,0.025601
7217,0,0.226562,-2.94531,-0.00228815,0.000574521,-0.00187074,0.0271068,-0.0276443,3.08732,-3.59521,-0.281499,-0.130563,-0.115923,-0.0252889,-0.225728,-0.119627,3.08732,-0.281486,4.59521,278,-4,278,-4,411,-17,288,118,-0.0534287,0.129537,0.280098,-1.5,3.21602e-38,0,0,1,-0.115923,-0.0252889,0,0,0,0,-0.225728,-0.119627,18225,0,0,0,0,7130,0,0,0,0,1,0.0278178
7233,0,0.226562,5.69434,-0.00247475,-0.000523756,-0.0012295,0.0270596,-0.0276595,3.0873,-3.6071,-0.281409,-0.12179,-0.119563,-0.027234,-0.22848,-0.122674,3.0873,-0.281486,4.59521,278,-4,278,-4,411,-17,288,118,-0.0547673,0.130152,0.294635,-1.5,3.21602e-38,0,0,2,-0.119563,-0.027234,0,0,0,0,-0.22848,-0.122674,18225,0,0,0,0,7130,0,0,0,0,1,0.0299574
7249,0,0.226562,2.17871,-0.00251307,-0.00183008,-0.00139427,0.0269963,-0.0276824,3.08729,-3.6071,-0.281409,-0.12179,-0.123247,-0.0292285,-0.231213,-0.125687,3.08729,-0.281486,4.59521,278,-4,278,-4,411,-17,288,118,-0.0561078,0.130763,0.309127,-1.5,3.21602e-38,0,0,3,-0.123247,-0.0292285,0,0,0,0,-0.231213,-0.125687,18225,0,0,0,0,7130,0,0,0,0,1,0.0321514
7265,0,0.226562,2.17871,-0.00251307,-0.00183008,-0.00139427,0.0269963,-0.0276824,3.08729,-3.6071,-0.281409,-0.12179,-0.126975,-0.0312709,-0.233926,-0.12867,3.08729,-0.281486,4.59521,278,-4,278,-4,411,-17,288,118,-0.0574501,0.13137,0.298516,-1.5,3.21602e-38,0,0,0,-0.126975,-0.0312709,0,0,0,0,-0.233926,-0.12867,18225,0,0,0,0,7130,0,0,0,0,1,0.034398
7281,0,0.226562,1.73633,-0.0032006,-0.00167856,-0.00171064,0.0268766,-0.0277224,3.08725,-3.6071,-0.281409,-0.12179,-0.130745,-0.0333598,-0.236619,-0.131622,3.08725,-0.281486,4.59521,278,-4,278,-4,411,-17,288,118,-0.0588081,0.131969,0.297853,-1.5,3.21602e-38,0,0,1,-0.130745,-0.0333598,0,0,0,0,-0.236619,-0.131622,18225,0,0,0,0,7130,0,0,0,0,1,0.0366957
7297,0,0.226562,-1.49512,-0.00456149,-0.00099994,-0.00193716,0.0267457,-0.0277672,3.0872,-3.60718,-0.281128,-0.121894,-0.134559,-0.0354955,-0.239294,-0.134538,3.08725,-0.281486,4.59521,278,-4,278,-4,411,-17,288,118,-0.0601588,0.132565,0.312325,-1.5,3.21602e-38,0,0,2,-0.134559,-0.0354955,0,0,0,0,-0.239294,-0.134538,18225,0,0,0,0,7130,0,0,0,0,1,0.039045
7313,0,0.226562,0.200195,-0.00256449,-0.000936695,-0.000270127,0.0266779,-0.0277875,3.08719,-3.60718,-0.281128,-0.121894,-0.138415,-0.0376784,-0.241951,-0.137419,3.08719,-0.281486,4.59521,278,-4,278,-4,411,-17,288,118,-0.0615338,0.133152,0.326746,-1.5,3.21602e-38,0,0,3,-0.138415,-0.0376784,0,0,0,0,-0.241951,-0.137419,18225,0,0,0,0,7130,0,0,0,0,1,0.0414463
7328,0,0.226562,0.200195,-0.00256449,-0.000936695,-0.000270127,0.0266779,-0.0277875,3.08719,-3.60718,-0.281128,-0.121894,-0.142068,-0.0397655,-0.244428,-0.14008,3.08719,-0.281486,4.59521,278,-4,278,-4,411,-17,288,118,-0.0628048,0.133703,0.317629,-1.5,3.21602e-38,0,0,0,-0.142068,-0.0397655,0,0,0,0,-0.244428,-0.14008,18225,0,0,0,0,7130,0,0,0,0,1,0.043742
7343,0,0.226562,-5.69922,-0.00311213,-0.00185198,-0.00075374,0.0265521,-0.0278399,3.08715,-3.60718,-0.281128,-0.121894,-0.145759,-0.0418922,-0.246888,-0.142716,3.08715,-0.281486,4.59521,278,-4,278,-4,411,-17,288,118,-0.0640915,0.134247,0.315059,-1.5,3.21602e-38,0,0,1,-0.145759,-0.0418922,0,0,0,0,-0.246888,-0.142716,18225,0,0,0,0,7130,0,0,0,0,1,0.0460814
7359,0,0.226562,2.12793,-0.0043401,-0.00143303,-0.00118022,0.0264763,-0.0278667,3.08714,-3.60718,-0.281128,-0.121894,-0.149736,-0.0442048,-0.249498,-0.145487,3.08714,-0.281486,4.59521,278,-4,278,-4,411,-17,288,118,-0.0654577,0.134826,0.329456,-1.5,3.21602e-38,0,0,2,-0.149736,-0.0442048,0,0,0,0,-0.249498,-0.145487,18225,0,0,0,0,7130,0,0,0,0,1,0.0486253
7375,0,0.226562,-4.79785,-0.00412091,-0.00149317,-0.00012115,0.0264076,-0.0278982,3.08713,-3.60718,-0.281128,-0.121894,-0.153756,-0.0465614,-0.252092,-0.148224,3.08713,-0.281486,4.59521,278,-4,278,-4,411,-17,288,118,-0.0668263,0.1354,0.343809,-1.5,3.21602e-38,0,0,3,-0.153756,-0.0465614,0,0,0,0,-0.252092,-0.148224,18225,0,0,0,0,7130,0,0,0,0,1,0.0512176
7392,0,0.226562,6.51758,-0.00273129,0.000326073,-0.0014526,0.0263509,-0.0279045,3.08711,-3.59608,-0.279368,-0.131793,-0.158071,-0.0491129,-0.254828,-0.151098,3.08711,-0.281486,4.59521,278,-4,278,-4,411,-17,288,118,-0.0682876,0.136005,0.33463,-1.5,3.21602e-38,0,0,0,-0.158071,-0.0491129,0,0,0,0,-0.254828,-0.151098,18225,0,0,0,0,7130,0,0,0,0,1,0.0540242
7408,0,0.226562,4.04785,-0.00330343,-0.000434023,-0.00185537,0.0262225,-0.0279367,3.08709,-3.59608,-0.279368,-0.131793,-0.162175,-0.0515578,-0.257383,-0.153774,3.08711,-0.281486,4.59521,278,-4,278,-4,411,-17,288,118,-0.0696618,0.136569,0.33019,-1.5,3.21602e-38,0,0,1,-0.162175,-0.0515578,0,0,0,0,-0.257383,-0.153774,18225,0,0,0,0,7130,0,0,0,0,1,0.0567136
7424,0,0.226562,4.04785,-0.00330343,-0.000434023,-0.00185537,0.0262225,-0.0279367,3.08709,-3.60029,-0.277305,-0.125454,-0.166319,-0.0540461,-0.259919,-0.156419,3.08709,-0.277291,4.60029,278,-4,278,-4,411,-17,287,118,-0.0710473,0.137127,0.344527,-1.5,3.21602e-38,0,0,2,-0.166319,-0.0540461,0,0,0,0,-0.259919,-0.156419,18225,0,0,0,0,7420,0,0,0,0,1,0.0594507
7440,0,0.226562,6.5293,-0.00453856,-0.00106943,-0.001115,0.0260697,-0.027977,3.08707,-3.60029,-0.277305,-0.125454,-0.170504,-0.0565754,-0.262438,-0.159025,3.08707,-0.277291,4.60029,278,-4,278,-4,411,-17,287,118,-0.0724321,0.137681,0.358825,-1.5,3.21602e-38,0,0,3,-0.170504,-0.0565754,0,0,0,0,-0.262438,-0.159025,18225,0,0,0,0,7420,0,0,0,0,1,0.0622329
7456,0,0.226562,-5.3457,-0.00344346,-0.000601671,-0.0015662,0.0259989,-0.0279838,3.08705,-3.60029,-0.277305,-0.125454,-0.174729,-0.0591468,-0.264941,-0.161589,3.08705,-0.277291,4.60029,278,-4,278,-4,411,-17,287,118,-0.073817,0.138232,0.348015,-1.5,3.21602e-38,0,0,0,-0.174729,-0.0591468,0,0,0,0,-0.264941,-0.161589,18225,0,0,0,0,7420,0,0,0,0,1,0.0650615
7472,0,0.226562,-1.49512,-0.00215615,-0.00163568,-0.00113943,0.0259393,-0.0280109,3.08704,-3.60029,-0.277305,-0.125454,-0.178993,-0.0617581,-0.267426,-0.164121,3.08704,-0.277291,4.60029,278,-4,278,-4,411,-17,287,118,-0.0752043,0.138777,0.346464,-1.5,3.21602e-38,0,0,1,-0.178993,-0.0617581,0,0,0,0,-0.267426,-0.164121,18225,0,0,0,0,7420,0,0,0,0,1,0.0679339
7488,0,0.226562,3.11621,-0.00358261,-0.002112,-0.00109608,0.0258764,-0.0280407,3.08702,-3.60642,-0.281539,-0.127797,-0.183297,-0.0644096,-0.269894,-0.166624,3.08702,-0.277291,4.60029,281,-4,281,-4,411,-17,286,118,-0.0765966,0.139318,0.360736,-1.5,3.21602e-38,0,0,2,-0.183297,-0.0644096,0,0,0,0,-0.269894,-0.166624,17820,0,0,0,0,7420,0,0,0,0,1,0.0708505
7505,0,0.226562,5.1582,-0.00358081,-0.00131696,-0.000147172,0.0257451,-0.028099,3.087,-3.60642,-0.281539,-0.127797,-0.187914,-0.0672712,-0.272499,-0.169255,3.08702,-0.277291,4.60029,281,-4,281,-4,411,-17,286,118,-0.0780747,0.13989,0.376534,-1.5,3.21602e-38,0,0,3,-0.187914,-0.0672712,0,0,0,0,-0.272499,-0.169255,17820,0,0,0,0,7420,0,0,0,0,1,0.0739983
7520,0,0.226562,1.28613,-0.00421051,-0.00136797,-0.000266401,0.0256767,-0.0281215,3.08699,-3.58914,-0.275754,-0.135053,-0.192024,-0.0698321,-0.274786,-0.171538,3.087,-0.27574,4.58914,278,-4,278,-4,411,-17,287,118,-0.0793861,0.140389,0.367218,-1.5,3.21602e-38,0,0,0,-0.192024,-0.0698321,0,0,0,0,-0.274786,-0.171538,18225,0,0,0,0,7520,0,0,0,0,1,0.0768153
7536,0,0.226562,0.0253906,-0.00402417,-0.00115006,-0.000755959,0.0255976,-0.0281472,3.08698,-3.58914,-0.275754,-0.135053,-0.196445,-0.0726012,-0.27721,-0.173942,3.08698,-0.27574,4.58914,278,-4,278,-4,411,-17,287,118,-0.080786,0.140918,0.362193,-1.5,3.21602e-38,0,0,1,-0.196445,-0.0726012,0,0,0,0,-0.27721,-0.173942,18225,0,0,0,0,7520,0,0,0,0,1,0.0798614
7552,0,0.226562,1.46191,-0.00348017,-0.0016386,-0.00132745,0.0255342,-0.0281743,3.08696,-3.60074,-0.276063,-0.126103,-0.200906,-0.0754093,-0.279619,-0.176313,3.08696,-0.27574,4.58914,278,-4,278,-4,411,-17,287,118,-0.0821878,0.141444,0.376402,-1.5,3.21602e-38,0,0,2,-0.200906,-0.0754093,0,0,0,0,-0.279619,-0.176313,18225,0,0,0,0,7520,0,0,0,0,1,0.0829502
7568,0,0.226562,1.46191,-0.00348017,-0.0016386,-0.00132745,0.0255342,-0.0281743,3.08696,-3.60074,-0.276063,-0.126103,-0.205405,-0.0782549,-0.282011,-0.178658,3.08696,-0.27574,4.58914,278,-4,278,-4,411,-17,287,118,-0.0835871,0.141966,0.390566,-1.5,3.21602e-38,0,0,3,-0.205405,-0.0782549,0,0,0,0,-0.282011,-0.178658,18225,0,0,0,0,7520,0,0,0,0,1,0.0860804
7585,0,0.226562,-4.99609,-0.003519,0.000175398,-0.000890275,0.0253945,-0.028196,3.08694,-3.60074,-0.276063,-0.126103,-0.209942,-0.0811379,-0.284385,-0.180976,3.08694,-0.27574,4.58914,278,-4,278,-4,411,-17,287,118,-0.0849954,0.142482,0.37963,-1.5,3.21602e-38,0,0,0,-0.209942,-0.0811379,0,0,0,0,-0.284385,-0.180976,18225,0,0,0,0,7520,0,0,0,0,1,0.0892517
7601,0,0.226562,3.87793,-0.00403061,-0.00124347,-0.000819725,0.0252605,-0.0282227,3.08692,-3.60074,-0.276063,-0.126103,-0.214517,-0.0840575,-0.286742,-0.183261,3.08694,-0.27574,4.58914,278,-4,278,-4,411,-17,287,118,-0.0863998,0.142996,0.37519,-1.5,3.21602e-38,0,0,1,-0.214517,-0.0840575,0,0,0,0,-0.286742,-0.183261,18225,0,0,0,0,7520,0,0,0,0,1,0.0924633
7617,0,0.226562,-6.43652,-0.00344275,-0.00163511,-0.00256735,0.0252031,-0.0282542,3.08689,-3.60074,-0.276063,-0.126103,-0.219419,-0.0871993,-0.289229,-0.185647,3.08692,-0.27574,4.58914,278,-4,278,-4,411,-17,287,118,-0.0878994,0.143535,0.389347,-1.5,3.21602e-38,0,0,2,-0.219419,-0.0871993,0,0,0,0,-0.289229,-0.185647,18225,0,0,0,0,7520,0,0,0,0,1,0.0959192
7633,0,0.226562,-4.86523,-0.00366779,-0.00144577,-0.000983163,0.0251348,-0.028272,3.08688,-3.61374,-0.283164,-0.125611,-0.224071,-0.0901922,-0.291555,-0.187861,3.08688,-0.27574,4.58914,280,-4,280,-4,411,-17,288,118,-0.089319,0.144036,0.403466,-1.5,3.21602e-38,0,0,3,-0.224071,-0.0901922,0,0,0,0,-0.291555,-0.187861,17955,0,0,0,0,7520,0,0,0,0,1,0.0992115
7649,0,0.226562,-0.206055,-0.00435467,-0.00160073,-0.00168152,0.0250571,-0.0283054,3.08686,-3.61374,-0.283164,-0.125611,-0.228465,-0.09303,-0.293721,-0.18991,3.08686,-0.27574,4.58914,280,-4,280,-4,411,-17,288,118,-0.0906441,0.144505,0.394043,-1.5,3.21602e-38,0,0,0,-0.228465,-0.09303,0,0,0,0,-0.293721,-0.18991,17955,0,0,0,0,7520,0,0,0,0,1,0.102333
7664,0,0.226562,-0.206055,-0.00435467,-0.00160073,-0.00168152,0.0250571,-0.0283054,3.08686,-3.60825,-0.278051,-0.123468,-0.233189,-0.0960913,-0.296018,-0.19207,3.08686,-0.27574,4.58914,278,-4,278,-4,411,-17,288,118,-0.0920553,0.145003,0.389316,-1.5,3.21602e-38,0,0,1,-0.233189,-0.0960913,0,0,0,0,-0.296018,-0.19207,18225,0,0,0,0,7520,0,0,0,0,1,0.1057
7682,0,0.226562,-0.206055,-0.00435467,-0.00160073,-0.00168152,0.0250571,-0.0283054,3.08686,-3.60825,-0.278051,-0.123468,-0.238548,-0.0995781,-0.298581,-0.19448,3.08686,-0.27574,4.58914,278,-4,278,-4,411,-17,288,118,-0.0936495,0.145557,0.406545,-1.5,3.21602e-38,0,0,2,-0.238548,-0.0995781,0,0,0,0,-0.298581,-0.19448,18225,0,0,0,0,7520,0,0,0,0,1,0.109536
7697,0,0.226562,-0.206055,-0.00435467,-0.00160073,-0.00168152,0.0250571,-0.0283054,3.08686,-3.60825,-0.278051,-0.123468,-0.243047,-0.102514,-0.300698,-0.196471,3.08686,-0.27574,4.58914,278,-4,278,-4,411,-17,288,118,-0.0949816,0.146014,0.419031,-1.5,3.21602e-38,0,0,3,-0.243047,-0.102514,0,0,0,0,-0.300698,-0.196471,18225,0,0,0,0,7520,0,0,0,0,1,0.112765
7712,0,0.226562,-0.441406,-0.00465053,-0.00152622,-0.00144582,0.0247156,-0.0283647,3.0868,-3.60825,-0.278051,-0.123468,-0.247577,-0.10548,-0.302798,-0.198447,3.08686,-0.27574,4.58914,278,-4,278,-4,411,-17,288,118,-0.0963179,0.146467,0.41268,-1.5,3.21602e-38,0,0,0,-0.247577,-0.10548,0,0,0,0,-0.302798,-0.198447,18225,0,0,0,0,7520,0,0,0,0,1,0.116028
7728,0,0.226562,6.87793,-0.00289126,-0.000607294,-0.00187442,0.0246693,-0.0283943,3.08678,-3.60825,-0.278051,-0.123468,-0.252445,-0.108677,-0.305027,-0.200511,3.08678,-0.27574,4.58914,278,-4,278,-4,411,-17,288,118,-0.0977673,0.146939,0.407582,-1.5,3.21602e-38,0,0,1,-0.252445,-0.108677,0,0,0,0,-0.305027,-0.200511,18225,0,0,0,0,7520,0,0,0,0,1,0.119544
7744,0,0.214844,1.7207,-0.00299646,-0.00258626,-0.00171243,0.0246053,-0.0284193,3.08677,-3.60825,-0.278051,-0.123468,-0.257348,-0.111905,-0.307245,-0.202521,3.08677,-0.27574,4.58914,278,-4,278,-4,411,-17,288,118,-0.0991903,0.147415,0.419208,-1.5,3.21602e-38,0,0,2,-0.257348,-0.111905,0,0,0,0,-0.307245,-0.202521,18225,0,0,0,0,7520,0,0,0,0,1,0.123096
7760,0,0.214844,1.7207,-0.00299646,-0.00258626,-0.00171243,0.0246053,-0.0284193,3.08677,-3.60825,-0.278051,-0.123468,-0.262287,-0.115166,-0.309447,-0.204509,3.08677,-0.27574,4.58914,278,-4,278,-4,411,-17,288,118,-0.100612,0.147888,0.430072,-1.5,3.21602e-38,0,0,3,-0.262287,-0.115166,0,0,0,0,-0.309447,-0.204509,18225,0,0,0,0,7520,0,0,0,0,1,0.126683
7776,0,0.148438,3.50488,-0.00208952,-0.0020343,-0.00107853,0.0244842,-0.0284625,3.08674,-3.60825,-0.278051,-0.123468,-0.26726,-0.118458,-0.311635,-0.206471,3.08674,-0.27574,4.58914,278,-4,278,-4,411,-17,288,118,-0.102045,0.148355,0.419704,-1.5,3.21602e-38,0,0,0,-0.26726,-0.118458,0,0,0,0,-0.311635,-0.206471,18225,0,0,0,0,7520,0,0,0,0,1,0.130304
7792,0,0.115234,-5.57129,-0.00404586,-0.000247413,-0.0012416,0.0244253,-0.0284759,3.08673,-3.60825,-0.278051,-0.123468,-0.272268,-0.121781,-0.313809,-0.208404,3.08673,-0.27574,4.58914,278,-4,278,-4,411,-17,288,118,-0.103474,0.14882,0.416866,-1.5,3.21602e-38,0,0,1,-0.272268,-0.121781,0,0,0,0,-0.313809,-0.208404,18225,0,0,0,0,7520,0,0,0,0,1,0.13396
7808,0,0.0888672,-5.49121,-0.00328507,-0.00025323,-0.00216792,0.0243035,-0.028504,3.08669,-3.60825,-0.278051,-0.123468,-0.277311,-0.125135,-0.315968,-0.210312,3.08671,-0.27574,4.58914,278,-4,278,-4,411,-17,288,118,-0.104906,0.14928,0.430856,-1.5,3.21602e-38,0,0,2,-0.277311,-0.125135,0,0,0,0,-0.315968,-0.210312,18225,0,0,0,0,7520,0,0,0,0,1,0.137649
7824,0,0.0888672,-5.49121,-0.00328507,-0.00025323,-0.00216792,0.0243035,-0.028504,3.08669,-3.57189,-0.273597,-0.150327,-0.282389,-0.12852,-0.318113,-0.212195,3.08669,-0.273584,4.57189,277,-3,277,-3,411,-17,288,120,-0.106342,0.149737,0.444803,-1.5,3.21602e-38,0,0,3,-0.282389,-0.12852,0,0,0,0,-0.318113,-0.212195,18769,0,0,0,0,7818,0,0,0,0,1,0.141372
7840,0,0.155273,-7.33301,-0.00246638,-0.00123594,-0.000981275,0.0242069,-0.028542,3.08666,-3.57189,-0.273597,-0.150327,-0.287501,-0.131934,-0.320241,-0.214052,3.08666,-0.273584,4.57189,277,-3,277,-3,411,-17,288,120,-0.107783,0.150187,0.434346,-1.5,3.21602e-38,0,0,0,-0.287501,-0.131934,0,0,0,0,-0.320241,-0.214052,18769,0,0,0,0,7818,0,0,0,0,1,0.145128
7856,0,0.188477,-2.73828,-0.00288197,-0.00147094,-0.00174866,0.0241512,-0.0285635,3.08664,-3.58511,-0.280916,-0.145324,-0.292647,-0.135378,-0.322357,-0.215882,3.08664,-0.273584,4.57189,280,-4,280,-4,411,-17,288,121,-0.10922,0.150637,0.428816,-1.5,3.21602e-38,0,0,1,-0.292647,-0.135378,0,0,0,0,-0.322357,-0.215882,18492,0,0,0,0,7818,0,0,0,0,1,0.148916
7873,0,0.22168,1.98926,-0.00254597,-0.000883782,-0.00159847,0.0241028,-0.0285857,3.08662,-3.58511,-0.280916,-0.145324,-0.298152,-0.13907,-0.324591,-0.217799,3.08662,-0.273584,4.57189,280,-4,280,-4,411,-17,288,121,-0.11075,0.15111,0.441194,-1.5,3.21602e-38,0,0,2,-0.298152,-0.13907,0,0,0,0,-0.324591,-0.217799,18492,0,0,0,0,7818,0,0,0,0,1,0.152977
7888,0,0.254883,-3.32617,-0.00375758,-0.000353081,-0.000881741,0.024037,-0.0285908,3.08661,-3.57204,-0.273159,-0.150555,-0.303039,-0.142353,-0.326548,-0.219468,3.08661,-0.273584,4.57189,277,-3,277,-3,411,-17,288,120,-0.112099,0.151524,0.453535,-1.5,3.21602e-38,0,0,3,-0.303039,-0.142353,0,0,0,0,-0.326548,-0.219468,18769,0,0,0,0,7818,0,0,0,0,1,0.156588
7903,0,0.254883,-3.32617,-0.00375758,-0.000353081,-0.000881741,0.024037,-0.0285908,3.08661,-3.57204,-0.273159,-0.150555,-0.307957,-0.145661,-0.32849,-0.22112,3.08661,-0.273584,4.57189,277,-3,277,-3,411,-17,288,120,-0.113446,0.151936,0.443911,-1.5,3.21602e-38,0,0,0,-0.307957,-0.145661,0,0,0,0,-0.32849,-0.22112,18769,0,0,0,0,7818,0,0,0,0,1,0.160227
7920,0,0.254883,-3.32617,-0.00375758,-0.000353081,-0.000881741,0.024037,-0.0285908,3.08661,-3.5995,-0.279081,-0.143387,-0.313234,-0.149217,-0.330546,-0.222868,3.08661,-0.273584,4.57189,279,-1,279,-1,411,-17,288,120,-0.114887,0.152372,0.43819,-1.5,3.21602e-38,0,0,1,-0.313234,-0.149217,0,0,0,0,-0.330546,-0.222868,18495,0,0,0,0,7818,0,0,0,0,1,0.164139
7936,0,0.238281,6.58301,-0.00399383,-0.000944264,-0.00111357,0.0238017,-0.0286815,3.08654,-3.5995,-0.279081,-0.143387,-0.318544,-0.152801,-0.332587,-0.224597,3.08654,-0.273584,4.57189,279,-1,279,-1,411,-17,288,120,-0.116353,0.152795,0.450531,-1.5,3.21602e-38,0,0,2,-0.318544,-0.152801,0,0,0,0,-0.332587,-0.224597,18495,0,0,0,0,7818,0,0,0,0,1,0.168081
7952,0,0.205078,-5.71582,-0.0036876,0.000304775,-0.000855477,0.0237484,-0.0286921,3.08653,-3.5995,-0.279081,-0.143387,-0.323887,-0.156412,-0.334623,-0.226278,3.08653,-0.273584,4.57189,279,-1,279,-1,411,-17,288,120,-0.117794,0.153225,0.464399,-1.5,3.21602e-38,0,0,3,-0.323887,-0.156412,0,0,0,0,-0.334623,-0.226278,18495,0,0,0,0,7818,0,0,0,0,1,0.172054
7968,0,0.205078,-5.71582,-0.0036876,0.000304775,-0.000855477,0.0237484,-0.0286921,3.08653,-3.5995,-0.279081,-0.143387,-0.329262,-0.16005,-0.336644,-0.227939,3.08653,-0.273584,4.57189,279,-1,279,-1,411,-17,288,120,-0.119236,0.153652,0.454731,-1.5,3.21602e-38,0,0,0,-0.329262,-0.16005,0,0,0,0,-0.336644,-0.227939,18495,0,0,0,0,7818,0,0,0,0,1,0.176055
7984,0,0.138672,-0.262695,-0.0036483,-0.00111428,-0.000675288,0.0236371,-0.028729,3.08651,-3.5995,-0.279081,-0.143387,-0.335009,-0.163945,-0.338775,-0.229682,3.08651,-0.273584,4.57189,279,-1,279,-1,411,-17,288,120,-0.120776,0.154098,0.450359,-1.5,3.21602e-38,0,0,1,-0.335009,-0.163945,0,0,0,0,-0.338775,-0.229682,18495,0,0,0,0,7818,0,0,0,0,1,0.180339
8000,0,0.0966797,-0.896484,-0.0039235,-6.91008e-05,-0.00160679,0.0235023,-0.0287515,3.08648,-3.58649,-0.275929,-0.138447,-0.340449,-0.167636,-0.340767,-0.231297,3.08651,-0.273584,4.57189,278,-4,278,-4,411,-17,288,120,-0.12222,0.154518,0.464222,-1.5,3.21602e-38,0,0,2,-0.340449,-0.167636,0,0,0,0,-0.340767,-0.231297,18632,0,0,0,0,7818,0,0,0,0,1,0.1844
8016,0,0.0966797,-5.65918,-0.00341973,-0.000978657,-0.001307,0.0234384,-0.028769,3.08646,-3.58649,-0.275929,-0.138447,-0.345922,-0.171353,-0.342745,-0.232887,3.08648,-0.273584,4.57189,278,-4,278,-4,411,-17,288,120,-0.123675,0.154929,0.474906,-1.5,3.21602e-38,0,0,3,-0.345922,-0.171353,0,0,0,0,-0.342745,-0.232887,18632,0,0,0,0,7818,0,0,0,0,1,0.188488
8037,0,0.0966797,6.7998,-0.00367855,-0.00196429,-0.00149711,0.0233743,-0.028792,3.08644,-3.5831,-0.272883,-0.142044,-0.353157,-0.176273,-0.345325,-0.234927,3.08644,-0.272869,4.5831,277,-3,277,-3,411,-17,288,120,-0.125583,0.155466,0.457374,-1.5,3.21602e-38,0,0,0,-0.353157,-0.176273,0,0,0,0,-0.345325,-0.234927,18769,0,0,0,0,8028,0,0,0,0,1,0.1939
8053,0,0.110352,6.86523,-0.00359354,-0.0018644,-0.000783787,0.0233054,-0.0288158,3.08643,-3.57572,-0.274594,-0.147715,-0.358702,-0.180048,-0.347273,-0.236454,3.08643,-0.272869,4.5831,278,-4,278,-4,411,-17,288,120,-0.127033,0.155872,0.45386,-1.5,3.21602e-38,0,0,1,-0.358702,-0.180048,0,0,0,0,-0.347273,-0.236454,18632,0,0,0,0,8028,0,0,0,0,1,0.198052
8070,0,0.176758,-0.333984,-0.00428062,-0.00149225,-0.00198307,0.0231803,-0.0288629,3.08639,-3.57572,-0.274594,-0.147715,-0.364628,-0.184085,-0.34933,-0.238057,3.08643,-0.272869,4.5831,278,-4,278,-4,411,-17,288,120,-0.12857,0.156302,0.469273,-1.5,3.21602e-38,0,0,2,-0.364628,-0.184085,0,0,0,0,-0.34933,-0.238057,18632,0,0,0,0,8028,0,0,0,0,1,0.202493
8085,0,0.209961,6.72949,-0.0013505,-0.00107801,0.000223157,0.0231358,-0.028882,3.08639,-3.57572,-0.274594,-0.147715,-0.369885,-0.187669,-0.351132,-0.239449,3.08639,-0.272869,4.5831,278,-4,278,-4,411,-17,288,120,-0.129939,0.156674,0.481502,-1.5,3.21602e-38,0,0,3,-0.369885,-0.187669,0,0,0,0,-0.351132,-0.239449,18632,0,0,0,0,8028,0,0,0,0,1,0.206436
8101,0,0.243164,5.5332,-0.00290462,-3.88867e-05,0.00044453,0.0230812,-0.0288864,3.08638,-3.57572,-0.274594,-0.147715,-0.375523,-0.191515,-0.353046,-0.240904,3.08638,-0.272869,4.5831,278,-4,278,-4,411,-17,288,120,-0.131388,0.157072,0.470195,-1.5,3.21602e-38,0,0,0,-0.375523,-0.191515,0,0,0,0,-0.353046,-0.240904,18632,0,0,0,0,8028,0,0,0,0,1,0.210667
8119,0,0.262695,5.78516,-0.00295491,-0.000824013,-0.00182734,0.0230287,-0.0288999,3.08637,-3.57572,-0.274594,-0.147715,-0.381903,-0.195871,-0.355182,-0.242517,3.08637,-0.272869,4.5831,278,-4,278,-4,411,-17,288,120,-0.13302,0.157515,0.462084,-1.5,3.21602e-38,0,0,1,-0.381903,-0.195871,0,0,0,0,-0.355182,-0.242517,18632,0,0,0,0,8028,0,0,0,0,1,0.215458
8135,0,0.262695,5.78516,-0.00295491,-0.000824013,-0.00182734,0.0230287,-0.0288999,3.08637,-3.57572,-0.274594,-0.147715,-0.387605,-0.199765,-0.357065,-0.243932,3.08637,-0.272869,4.5831,278,-4,278,-4,411,-17,288,120,-0.134469,0.157906,0.4759,-1.5,3.21602e-38,0,0,2,-0.387605,-0.199765,0,0,0,0,-0.357065,-0.243932,18632,0,0,0,0,8028,0,0,0,0,1,0.219742
8151,0,0.202148,7.12109,-0.00384095,-6.56764e-05,-0.00165723,0.0229113,-0.0289233,3.08633,-3.57572,-0.274594,-0.147715,-0.393338,-0.203683,-0.358935,-0.24533,3.08633,-0.272869,4.5831,278,-4,278,-4,411,-17,288,120,-0.135932,0.158289,0.486537,-1.5,3.21602e-38,0,0,3,-0.393338,-0.203683,0,0,0,0,-0.358935,-0.24533,18632,0,0,0,0,8028,0,0,0,0,1,0.224051
8167,0,0.135742,3.7959,-0.003099,-0.00163862,-0.00135758,0.0228012,-0.028968,3.0863,-3.57572,-0.274594,-0.147715,-0.399099,-0.207622,-0.360792,-0.246701,3.08632,-0.272869,4.5831,278,-4,278,-4,411,-17,288,120,-0.137385,0.158672,0.47583,-1.5,3.21602e-38,0,0,0,-0.399099,-0.207622,0,0,0,0,-0.360792,-0.246701,18632,0,0,0,0,8028,0,0,0,0,1,0.228384
8183,0,0.102539,5.15234,-0.00372162,-0.000381239,-0.00194103,0.022749,-0.0289733,3.08628,-3.57572,-0.274594,-0.147715,-0.404891,-0.211583,-0.362639,-0.248051,3.0863,-0.272869,4.5831,278,-4,278,-4,411,-17,288,120,-0.13884,0.159052,0.469473,-1.5,3.21602e-38,0,0,1,-0.404891,-0.211583,0,0,0,0,-0.362639,-0.248051,18632,0,0,0,0,8028,0,0,0,0,1,0.232742
8199,0,0.108398,-6.76953,-0.00303947,-0.000861546,-0.00103253,0.0226838,-0.0289921,3.08627,-3.62609,-0.277726,-0.120407,-0.410712,-0.215566,-0.364473,-0.249377,3.08627,-0.272869,4.5831,280,-4,280,-4,411,-16,287,118,-0.140302,0.159426,0.480727,-1.5,3.21602e-38,0,0,2,-0.410712,-0.215566,0,0,0,0,-0.364473,-0.249377,17822,0,0,0,0,8028,0,0,0,0,1,0.237122
8215,0,0.141602,0.196289,-0.00272638,-0.000547029,-0.000680666,0.0226342,-0.029012,3.08625,-3.62609,-0.277726,-0.120407,-0.416563,-0.219569,-0.366294,-0.25068,3.08625,-0.272869,4.5831,280,-4,280,-4,411,-16,287,118,-0.141758,0.159799,0.491345,-1.5,3.21602e-38,0,0,3,-0.416563,-0.219569,0,0,0,0,-0.366294,-0.25068,17822,0,0,0,0,8028,0,0,0,0,1,0.241526
8231,0,0.141602,0.196289,-0.00272638,-0.000547029,-0.000680666,0.0226342,-0.029012,3.08625,-3.62609,-0.277726,-0.120407,-0.422073,-0.223341,-0.36799,-0.251888,3.08625,-0.272869,4.5831,280,-4,280,-4,411,-16,287,118,-0.143119,0.160148,0.48157,-1.5,3.21602e-38,0,0,0,-0.422073,-0.223341,0,0,0,0,-0.36799,-0.251888,17822,0,0,0,0,8028,0,0,0,0,1,0.245675
8246,0,0.208008,5.15137,-0.0025981,-0.00148567,-0.00184944,0.022521,-0.0290525,3.08622,-3.62609,-0.277726,-0.120407,-0.42798,-0.227385,-0.369788,-0.253159,3.08622,-0.272869,4.5831,280,-4,280,-4,411,-16,287,118,-0.144582,0.160514,0.475099,-1.5,3.21602e-38,0,0,1,-0.42798,-0.227385,0,0,0,0,-0.369788,-0.253159,17822,0,0,0,0,8028,0,0,0,0,1,0.250123
8263,0,0.249023,2.86621,-0.00290897,0.000259829,-0.00155465,0.0224018,-0.0290845,3.08617,-3.63336,-0.27583,-0.117436,-0.434287,-0.231703,-0.371686,-0.254486,3.08622,-0.272869,4.5831,280,-4,280,-4,410,-16,287,118,-0.146125,0.160903,0.49042,-1.5,3.21602e-38,0,0,2,-0.434287,-0.231703,0,0,0,0,-0.371686,-0.254486,17822,0,0,0,0,8028,0,0,0,0,1,0.254873
8278,0,0.249023,-3.03809,-0.00205604,-4.57932e-05,-0.000745478,0.0223472,-0.0290936,3.08616,-3.63336,-0.27583,-0.117436,-0.439878,-0.235531,-0.37335,-0.255637,3.08617,-0.272869,4.5831,280,-4,280,-4,410,-16,287,118,-0.147501,0.161238,0.500006,-1.5,3.21602e-38,0,0,3,-0.439878,-0.235531,0,0,0,0,-0.37335,-0.255637,17822,0,0,0,0,8028,0,0,0,0,1,0.259084
8294,0,0.249023,-3.03809,-0.00205604,-4.57932e-05,-0.000745478,0.0223472,-0.0290936,3.08616,-3.63336,-0.27583,-0.117436,-0.44587,-0.239634,-0.375113,-0.256843,3.08616,-0.275816,4.63336,280,-4,280,-4,410,-16,287,118,-0.148957,0.161597,0.474874,-1.5,3.21602e-38,0,0,3,-0.44587,-0.239634,0,0,0,0,-0.375113,-0.256843,17822,0,0,0,0,8286,0,0,0,0,1,0.263597
8310,0,0.249023,-3.08887,-0.00232611,-0.000910564,-0.000983022,0.0222474,-0.0291163,3.08614,-3.63336,-0.27583,-0.117436,-0.45189,-0.243756,-0.376863,-0.258031,3.08614,-0.275816,4.63336,280,-4,280,-4,410,-16,287,118,-0.150417,0.161951,0.449741,-1.5,3.21602e-38,0,0,3,-0.45189,-0.243756,0,0,0,0,-0.376863,-0.258031,17822,0,0,0,0,8286,0,0,0,0,1,0.268131
8326,0,0.249023,0.993164,-0.00177455,-0.00166871,-0.000909951,0.0222084,-0.0291376,3.08613,-3.63336,-0.27583,-0.117436,-0.457938,-0.247896,-0.378602,-0.259196,3.08613,-0.275816,4.63336,280,-4,280,-4,410,-16,287,118,-0.151873,0.162305,0.424608,-1.5,3.21602e-38,0,0,3,-0.457938,-0.247896,0,0,0,0,-0.378602,-0.259196,17822,0,0,0,0,8286,0,0,0,0,1,0.272686
8342,0,0.21582,5.95312,-0.00175558,-0.00168332,-0.00068882,0.0221615,-0.0291669,3.08611,-3.63336,-0.27583,-0.117436,-0.464014,-0.252056,-0.380331,-0.260344,3.08611,-0.275816,4.63336,280,-4,280,-4,410,-16,287,118,-0.153332,0.162654,0.399476,-1.5,3.21602e-38,0,0,3,-0.464014,-0.252056,0,0,0,0,-0.380331,-0.260344,17822,0,0,0,0,8286,0,0,0,0,1,0.277261
8358,0,0.182617,-2.36426,-0.00286147,-0.00038269,-2.12179e-06,0.0221122,-0.0291765,3.0861,-3.62434,-0.27425,-0.130923,-0.470117,-0.256233,-0.38205,-0.261476,3.0861,-0.275816,4.63336,280,-4,280,-4,410,-16,288,120,-0.154786,0.163003,0.374343,-1.5,3.21602e-38,0,0,3,-0.470117,-0.256233,0,0,0,0,-0.38205,-0.261476,17952,0,0,0,0,8286,0,0,0,0,1,0.281856
8374,0,0.116211,5.94922,-0.0023116,-0.000937831,-0.0011416,0.022,-0.0292134,3.08608,-3.62434,-0.27425,-0.130923,-0.476248,-0.260428,-0.383755,-0.262593,3.0861,-0.275816,4.63336,280,-4,280,-4,410,-16,288,120,-0.156241,0.163349,0.34921,-1.5,3.21602e-38,0,0,3,-0.476248,-0.260428,0,0,0,0,-0.383755,-0.262593,17952,0,0,0,0,8286,0,0,0,0,1,0.286471
8391,0,0.138672,5.82227,-0.00276491,-0.0021984,-0.00181889,0.0219568,-0.0292403,3.08605,-3.62434,-0.27425,-0.130923,-0.482406,-0.264641,-0.385449,-0.263692,3.08605,-0.275816,4.63336,280,-4,280,-4,410,-16,288,120,-0.157712,0.163685,0.324078,-1.5,3.21602e-38,0,0,3,-0.482406,-0.264641,0,0,0,0,-0.385449,-0.263692,17952,0,0,0,0,8286,0,0,0,0,1,0.291105
8406,0,0.171875,-6.29102,-0.00293186,-0.00083947,-0.000819682,0.0218962,-0.0292552,3.08604,-3.62434,-0.27425,-0.130923,-0.48859,-0.268871,-0.387136,-0.264766,3.08604,-0.275816,4.63336,280,-4,280,-4,410,-16,288,120,-0.159171,0.164024,0.298945,-1.5,3.21602e-38,0,0,3,-0.48859,-0.268871,0,0,0,0,-0.387136,-0.264766,17952,0,0,0,0,8286,0,0,0,0,1,0.295759
8422,0,0.205078,-1.99707,-0.00292321,0.000124882,-0.0016078,0.0218469,-0.0292609,3.08602,-3.57993,-0.268042,-0.149407,-0.494802,-0.273119,-0.388812,-0.26582,3.08602,-0.275816,4.63336,277,-3,277,-3,410,-17,288,120,-0.160629,0.16436,0.273812,-1.5,3.21602e-38,0,0,3,-0.494802,-0.273119,0,0,0,0,-0.388812,-0.26582,18769,0,0,0,0,8286,0,0,0,0,1,0.300431
8439,0,0.238281,-0.414062,-0.00398719,-0.000320473,-0.00111454,0.0217825,-0.0292757,3.08601,-3.57993,-0.268042,-0.149407,-0.501432,-0.27765,-0.390578,-0.266921,3.08601,-0.275816,4.63336,277,-3,277,-3,410,-17,288,120,-0.162177,0.164714,0.24868,-1.5,3.21602e-38,0,0,3,-0.501432,-0.27765,0,0,0,0,-0.390578,-0.266921,18769,0,0,0,0,8286,0,0,0,0,1,0.305415
8454,0,0.261719,3.5,-0.00276821,-0.00034649,-3.99763e-06,0.0217282,-0.0292849,3.086,-3.57993,-0.268042,-0.149407,-0.507305,-0.281663,-0.392126,-0.267875,3.086,-0.275816,4.63336,277,-3,277,-3,410,-17,288,120,-0.16354,0.165025,0.225118,-1.5,3.21602e-38,0,0,3,-0.507305,-0.281663,0,0,0,0,-0.392126,-0.267875,18769,0,0,0,0,8286,0,0,0,0,1,0.309829
8469,0,0.261719,3.5,-0.00276821,-0.00034649,-3.99763e-06,0.0217282,-0.0292849,3.086,-3.57993,-0.268042,-0.149407,-0.513201,-0.28569,-0.393662,-0.268817,3.086,-0.275816,4.63336,277,-3,277,-3,410,-17,288,120,-0.164902,0.165334,0.201556,-1.5,3.21602e-38,0,0,3,-0.513201,-0.28569,0,0,0,0,-0.393662,-0.268817,18769,0,0,0,0,8286,0,0,0,0,1,0.314259
8485,0,0.206055,-4.99023,-0.00345975,-0.00235341,-0.0012455,0.0215552,-0.0293461,3.08595,-3.57993,-0.268042,-0.149407,-0.519517,-0.290001,-0.39529,-0.269808,3.08596,-0.275816,4.63336,277,-3,277,-3,410,-17,288,120,-0.166369,0.165654,0.176423,-1.5,3.21602e-38,0,0,3,-0.519517,-0.290001,0,0,0,0,-0.39529,-0.269808,18769,0,0,0,0,8286,0,0,0,0,1,0.319001
8501,0,0.112305,6.62695,-0.00316103,-0.00130032,-0.000483393,0.0214953,-0.0293709,3.08594,-3.57993,-0.268042,-0.149407,-0.525858,-0.294328,-0.39691,-0.270775,3.08595,-0.275816,4.63336,277,-3,277,-3,410,-17,288,120,-0.167827,0.165976,0.15129,-1.5,3.21602e-38,0,0,3,-0.525858,-0.294328,0,0,0,0,-0.39691,-0.270775,18769,0,0,0,0,8286,0,0,0,0,1,0.323761
8517,0,0.102539,3.82715,-0.00394471,-0.000403968,-0.0015539,0.0214282,-0.029378,3.08592,-3.57993,-0.268042,-0.149407,-0.532225,-0.29867,-0.398522,-0.271716,3.08592,-0.275816,4.63336,277,-3,277,-3,410,-17,288,120,-0.169285,0.166295,0.126157,-1.5,3.21602e-38,0,0,3,-0.532225,-0.29867,0,0,0,0,-0.398522,-0.271716,18769,0,0,0,0,8286,0,0,0,0,1,0.328537
8533,0,0.102539,3.82715,-0.00394471,-0.000403968,-0.0015539,0.0214282,-0.029378,3.08592,-3.58014,-0.267287,-0.149755,-0.538619,-0.303028,-0.400122,-0.272643,3.08592,-0.275816,4.63336,277,-3,277,-3,410,-17,288,120,-0.170735,0.166615,0.101025,-1.5,3.21602e-38,0,0,3,-0.538619,-0.303028,0,0,0,0,-0.400122,-0.272643,18769,0,0,0,0,8286,0,0,0,0,1,0.33333
8549,0,0.235352,-5.33301,-0.00409428,-0.00109147,-0.00235795,0.0213183,-0.0294194,3.08589,-3.58014,-0.267287,-0.149755,-0.545037,-0.3074,-0.401712,-0.273555,3.08589,-0.275816,4.63336,277,-3,277,-3,410,-17,288,120,-0.172197,0.166926,0.075892,-1.5,3.21602e-38,0,0,3,-0.545037,-0.3074,0,0,0,0,-0.401712,-0.273555,18769,0,0,0,0,8286,0,0,0,0,1,0.33814
8565,0,0.235352,-5.33301,-0.00409428,-0.00109147,-0.00235795,0.0213183,-0.0294194,3.08589,-3.59101,-0.267859,-0.140792,-0.551481,-0.311786,-0.403292,-0.274449,3.08589,-0.275816,4.63336,277,-3,277,-3,410,-17,288,120,-0.173647,0.16724,0.0507593,-1.5,3.21602e-38,0,0,3,-0.551481,-0.311786,0,0,0,0,-0.403292,-0.274449,18769,0,0,0,0,8286,0,0,0,0,1,0.342964
8583,0,0.259766,4.86523,-0.00301709,-0.00156139,-0.00103276,0.0211488,-0.0294546,3.08583,-3.59101,-0.267859,-0.140792,-0.558761,-0.316738,-0.405055,-0.275438,3.08584,-0.275816,4.63336,277,-3,277,-3,410,-17,288,120,-0.175293,0.167583,0.022485,-1.5,3.21602e-38,0,0,3,-0.558761,-0.316738,0,0,0,0,-0.405055,-0.275438,18769,0,0,0,0,8286,0,0,0,0,1,0.348412
8598,0,0.259766,-3.48438,-0.00323251,-0.000672426,-0.00322001,0.0211026,-0.0294667,3.0858,-3.59109,-0.267678,-0.140911,-0.564851,-0.320877,-0.406516,-0.276236,3.0858,-0.275816,4.63336,277,-3,277,-3,410,-17,288,120,-0.176665,0.167865,-0.00107691,-1.5,3.21602e-38,0,0,3,-0.564851,-0.320877,0,0,0,0,-0.406516,-0.276236,18769,0,0,0,0,8286,0,0,0,0,1,0.352965
8614,0,0.230469,-5.95312,-0.00297828,-0.00088322,-0.000389476,0.02105,-0.0294868,3.08579,-3.59109,-0.267678,-0.140911,-0.571371,-0.325305,-0.408064,-0.277072,3.08579,-0.275816,4.63336,277,-3,277,-3,410,-17,288,120,-0.178113,0.168171,-0.0262096,-1.5,3.21602e-38,0,0,3,-0.571371,-0.325305,0,0,0,0,-0.408064,-0.277072,18769,0,0,0,0,8286,0,0,0,0,1,0.357836
8631,0,0.230469,-5.95312,-0.00297828,-0.00088322,-0.000389476,0.02105,-0.0294868,3.08579,-3.6346,-0.277691,-0.118647,-0.577917,-0.329747,-0.409602,-0.277895,3.08579,-0.275816,4.63336,280,-4,280,-4,411,-16,288,118,-0.17956,0.168475,-0.0513423,-1.5,3.21602e-38,0,0,3,-0.577917,-0.329747,0,0,0,0,-0.409602,-0.277895,17822,0,0,0,0,8286,0,0,0,0,1,0.362722
8646,0,0.164062,7.28809,-0.00241913,-0.00106493,-0.00165697,0.0209332,-0.0295111,3.08576,-3.6346,-0.277691,-0.118647,-0.584486,-0.334202,-0.411129,-0.278703,3.08576,-0.275816,4.63336,280,-4,280,-4,411,-16,288,118,-0.181016,0.168771,-0.0764751,-1.5,3.21602e-38,0,0,3,-0.584486,-0.334202,0,0,0,0,-0.411129,-0.278703,17822,0,0,0,0,8286,0,0,0,0,1,0.367622
8661,0,0.164062,7.28809,-0.00241913,-0.00106493,-0.00165697,0.0209332,-0.0295111,3.08576,-3.60051,-0.274789,-0.139778,-0.590666,-0.33839,-0.41255,-0.279445,3.08576,-0.275816,4.63336,280,-4,280,-4,410,-17,288,120,-0.182371,0.169051,-0.100037,-1.5,3.21602e-38,0,0,3,-0.590666,-0.33839,0,0,0,0,-0.41255,-0.279445,18358,0,0,0,0,8286,0,0,0,0,1,0.372228
8677,0,0.0966797,1.95215,-0.00366581,-0.000904473,-0.00110054,0.0207706,-0.0295383,3.0857,-3.60051,-0.274789,-0.139778,-0.597283,-0.342869,-0.414056,-0.280224,3.08572,-0.275816,4.63336,280,-4,280,-4,410,-17,288,120,-0.183831,0.16934,-0.12517,-1.5,3.21602e-38,0,0,3,-0.597283,-0.342869,0,0,0,0,-0.414056,-0.280224,18358,0,0,0,0,8286,0,0,0,0,1,0.377156
8693,0,0.0966797,1.95215,-0.00366581,-0.000904473,-0.00110054,0.0207706,-0.0295383,3.0857,-3.59303,-0.267176,-0.140514,-0.603924,-0.34736,-0.415551,-0.280982,3.0857,-0.275816,4.63336,277,-3,277,-3,411,-17,288,120,-0.185281,0.16963,-0.150302,-1.5,3.21602e-38,0,0,3,-0.603924,-0.34736,0,0,0,0,-0.415551,-0.280982,18632,0,0,0,0,8286,0,0,0,0,1,0.382097
8709,0,0.110352,2.66895,-0.00445643,-0.00119427,-0.000959492,0.0206494,-0.029576,3.08567,-3.59303,-0.267176,-0.140514,-0.610588,-0.351864,-0.417036,-0.281727,3.08567,-0.275816,4.63336,277,-3,277,-3,411,-17,288,120,-0.186733,0.169916,-0.175435,-1.5,3.21602e-38,0,0,3,-0.610588,-0.351864,0,0,0,0,-0.417036,-0.281727,18632,0,0,0,0,8286,0,0,0,0,1,0.38705
8725,0,0.110352,2.66895,-0.00445643,-0.00119427,-0.000959492,0.0206494,-0.029576,3.08567,-3.58435,-0.2684,-0.144152,-0.617275,-0.356379,-0.418513,-0.282448,3.08567,-0.275816,4.63336,277,-3,277,-3,411,-17,288,120,-0.188174,0.170205,-0.200568,-1.5,3.21602e-38,0,0,3,-0.617275,-0.356379,0,0,0,0,-0.418513,-0.282448,18769,0,0,0,0,8286,0,0,0,0,1,0.392017
8741,0,0.176758,-1.78516,-0.00446771,-0.00234187,0.000162109,0.0205144,-0.0296208,3.08565,-3.58435,-0.2684,-0.144152,-0.623987,-0.360905,-0.41998,-0.283156,3.08565,-0.275816,4.63336,277,-3,277,-3,411,-17,288,120,-0.189622,0.170487,-0.225701,-1.5,3.21602e-38,0,0,3,-0.623987,-0.360905,0,0,0,0,-0.41998,-0.283156,18769,0,0,0,0,8286,0,0,0,0,1,0.396996
8757,0,0.209961,6.55273,-0.00277434,-0.00165504,-0.0016694,0.0204634,-0.0296474,3.08563,-3.61538,-0.268495,-0.131567,-0.630721,-0.365443,-0.421441,-0.283841,3.08563,-0.275816,4.63336,280,-3,280,-3,411,-17,286,118,-0.191067,0.170768,-0.250833,-1.5,3.21602e-38,0,0,3,-0.630721,-0.365443,0,0,0,0,-0.421441,-0.283841,17820,0,0,0,0,8286,0,0,0,0,1,0.401987
8773,0,0.243164,-6.38672,-0.00358408,-0.000289461,-0.000812607,0.0204043,-0.0296609,3.08561,-3.61538,-0.268495,-0.131567,-0.637479,-0.369991,-0.422893,-0.284512,3.08561,-0.275816,4.63336,280,-3,280,-3,411,-17,286,118,-0.192508,0.171049,-0.275966,-1.5,3.21602e-38,0,0,3,-0.637479,-0.369991,0,0,0,0,-0.422893,-0.284512,17820,0,0,0,0,8286,0,0,0,0,1,0.40699
8788,0,0.276367,-6.47559,-0.00323217,-0.00201165,-0.000543187,0.0203435,-0.0296936,3.0856,-3.59205,-0.272818,-0.145896,-0.643835,-0.374265,-0.424247,-0.285128,3.0856,-0.275816,4.63336,280,-3,280,-3,411,-17,287,120,-0.193858,0.17131,-0.299528,-1.5,3.21602e-38,0,0,3,-0.643835,-0.374265,0,0,0,0,-0.424247,-0.285128,18358,0,0,0,0,8286,0,0,0,0,1,0.411691
8804,0,0.172852,-2.55957,-0.00387129,-0.00229649,-0.00134714,0.0202281,-0.0297463,3.08558,-3.59205,-0.272818,-0.145896,-0.650638,-0.378833,-0.425682,-0.285773,3.0856,-0.275816,4.63336,280,-3,280,-3,411,-17,287,120,-0.195294,0.171589,-0.324661,-1.5,3.21602e-38,0,0,3,-0.650638,-0.378833,0,0,0,0,-0.425682,-0.285773,18358,0,0,0,0,8286,0,0,0,0,1,0.416717
8821,0,0.120117,3.2168,-0.00306221,-0.00159029,-0.00199704,0.0201811,-0.029775,3.08556,-3.567,-0.26415,-0.156455,-0.657464,-0.383412,-0.427114,-0.286394,3.08556,-0.275816,4.63336,277,-3,277,-3,411,-17,287,120,-0.196739,0.17186,-0.349793,-1.5,3.21602e-38,0,0,3,-0.657464,-0.383412,0,0,0,0,-0.427114,-0.286394,18769,0,0,0,0,8286,0,0,0,0,1,0.421754
8836,0,0.0947266,-4.40039,-0.00318644,-0.00105011,-0.000867187,0.020129,-0.0297912,3.08555,-3.567,-0.26415,-0.156455,-0.663884,-0.387714,-0.428449,-0.286963,3.08555,-0.275816,4.63336,277,-3,277,-3,411,-17,287,120,-0.198085,0.172117,-0.373355,-1.5,3.21602e-38,0,0,3,-0.663884,-0.387714,0,0,0,0,-0.428449,-0.286963,18769,0,0,0,0,8286,0,0,0,0,1,0.426485
8852,0,0.12793,4.92773,-0.0032905,-0.00192547,-0.00176339,0.0200877,-0.0298158,3.08553,-3.567,-0.26415,-0.156455,-0.670754,-0.392311,-0.429866,-0.287556,3.08553,-0.275816,4.63336,277,-3,277,-3,411,-17,287,120,-0.199521,0.172388,-0.398488,-1.5,3.21602e-38,0,0,3,-0.670754,-0.392311,0,0,0,0,-0.429866,-0.287556,18769,0,0,0,0,8286,0,0,0,0,1,0.431543
8868,0,0.12793,4.92773,-0.0032905,-0.00192547,-0.00176339,0.0200877,-0.0298158,3.08553,-3.58267,-0.265186,-0.150263,-0.677646,-0.396919,-0.431274,-0.288141,3.08553,-0.275816,4.63336,277,-3,277,-3,411,-17,288,120,-0.200952,0.17266,-0.423621,-1.5,3.21602e-38,0,0,3,-0.677646,-0.396919,0,0,0,0,-0.431274,-0.288141,18632,0,0,0,0,8286,0,0,0,0,1,0.43661
8884,0,0.227539,5.4248,-0.00269456,-0.000745101,0.000191209,0.0199442,-0.0298873,3.08551,-3.58267,-0.265186,-0.150263,-0.684994,-0.401824,-0.43276,-0.288752,3.08551,-0.275816,4.63336,277,-3,277,-3,411,-17,288,120,-0.202479,0.172942,-0.448753,-1.5,3.21602e-38,0,0,3,-0.684994,-0.401824,0,0,0,0,-0.43276,-0.288752,18632,0,0,0,0,8286,0,0,0,0,1,0.442006
8900,0,0.256836,-4.61816,-0.00270456,-0.00133994,-0.000639819,0.0198962,-0.029908,3.0855,-3.58272,-0.265119,-0.150337,-0.691498,-0.40616,-0.434066,-0.289273,3.08551,-0.275816,4.63336,277,-3,277,-3,411,-17,288,120,-0.203819,0.173194,-0.472315,-1.5,3.21602e-38,0,0,3,-0.691498,-0.40616,0,0,0,0,-0.434066,-0.289273,18632,0,0,0,0,8286,0,0,0,0,1,0.446776
8916,0,0.256836,4.92676,-0.00131414,-0.000591691,-0.000844982,0.0198548,-0.0299184,3.08548,-3.58272,-0.265119,-0.150337,-0.698894,-0.411084,-0.435538,-0.28985,3.08548,-0.275816,4.63336,277,-3,277,-3,411,-17,288,120,-0.205345,0.173472,-0.497448,-1.5,3.21602e-38,0,0,3,-0.698894,-0.411084,0,0,0,0,-0.435538,-0.28985,18632,0,0,0,0,8286,0,0,0,0,1,0.452192
8932,0,0.256836,2.91504,-0.00418319,-0.00167075,4.61916e-05,0.0197887,-0.0299468,3.08548,-3.59372,-0.265475,-0.141654,-0.705876,-0.415727,-0.436915,-0.290376,3.08548,-0.275816,4.63336,277,-3,277,-3,411,-17,288,120,-0.206772,0.173736,-0.522581,-1.5,3.21602e-38,0,0,3,-0.705876,-0.415727,0,0,0,0,-0.436915,-0.290376,18632,0,0,0,0,8286,0,0,0,0,1,0.4573
8948,0,0.256836,-6.27246,-0.00297656,-0.000519655,-0.00196179,0.0197479,-0.0299561,3.08545,-3.59372,-0.265475,-0.141654,-0.712881,-0.420378,-0.438285,-0.290888,3.08545,-0.275816,4.63336,277,-3,277,-3,411,-17,288,120,-0.208206,0.173993,-0.547713,-1.5,3.21602e-38,0,0,3,-0.712881,-0.420378,0,0,0,0,-0.438285,-0.290888,18632,0,0,0,0,8286,0,0,0,0,1,0.462416
8964,0,0.256836,-6.27246,-0.00297656,-0.000519655,-0.00196179,0.0197479,-0.0299561,3.08545,-3.5829,-0.26031,-0.150581,-0.719468,-0.424746,-0.43956,-0.29136,3.08545,-0.275816,4.63336,277,-3,277,-3,410,-17,287,120,-0.209541,0.174237,-0.571275,-1.5,3.21602e-38,0,0,3,-0.719468,-0.424746,0,0,0,0,-0.43956,-0.29136,18632,0,0,0,0,8286,0,0,0,0,1,0.467221
8979,0,0.19043,-4.33008,-0.00239203,-0.00193986,-0.0014017,0.0196499,-0.0300026,3.08543,-3.5829,-0.26031,-0.150581,-0.726515,-0.429413,-0.440912,-0.291853,3.08543,-0.275816,4.63336,277,-3,277,-3,410,-17,287,120,-0.210971,0.174491,-0.596408,-1.5,3.21602e-38,0,0,3,-0.726515,-0.429413,0,0,0,0,-0.440912,-0.291853,18632,0,0,0,0,8286,0,0,0,0,1,0.472354
8996,0,0.124023,5.45215,-0.00223378,-0.000802149,-0.00110393,0.019546,-0.0300356,3.08541,-3.5829,-0.26031,-0.150581,-0.734027,-0.43438,-0.442341,-0.292363,3.08543,-0.275816,4.63336,277,-3,277,-3,410,-17,287,120,-0.212482,0.174764,-0.623111,-1.5,3.21602e-38,0,0,3,-0.734027,-0.43438,0,0,0,0,-0.442341,-0.292363,18632,0,0,0,0,8286,0,0,0,0,1,0.477818
9011,0,0.0908203,6.66602,-0.00186904,-0.00113549,-0.000329426,0.0195104,-0.0300491,3.08541,-3.5829,-0.26031,-0.150581,-0.740674,-0.43877,-0.443595,-0.292794,3.08541,-0.275816,4.63336,277,-3,277,-3,410,-17,287,120,-0.21382,0.174999,-0.646673,-1.5,3.21602e-38,0,0,3,-0.740674,-0.43877,0,0,0,0,-0.443595,-0.292794,18632,0,0,0,0,8286,0,0,0,0,1,0.482647
9035,0,0.0908203,6.66602,-0.00186904,-0.00113549,-0.000329426,0.0195104,-0.0300491,3.08541,-3.58311,-0.264236,-0.150971,-0.751354,-0.445809,-0.445589,-0.293468,3.08541,-0.275816,4.63336,277,-3,277,-3,411,-17,288,120,-0.21595,0.175378,-0.684372,-1.5,3.21602e-38,0,0,3,-0.751354,-0.445809,0,0,0,0,-0.445589,-0.293468,18632,0,0,0,0,8286,0,0,0,0,1,0.490389
9131,0,0.191406,-1.73926,-0.00274956,-0.00216283,-0.0021571,0.0191232,-0.0301909,3.08527,-3.61448,-0.262341,-0.130879,-0.794829,-0.474218,-0.453472,-0.29611,3.08527,-0.275816,4.63336,277,-3,277,-3,410,-16,287,118,-0.224568,0.176839,-0.834502,-1.5,3.21602e-38,0,0,3,-0.794829,-0.474218,0,0,0,0,-0.453472,-0.29611,18224,0,0,0,0,8286,0,0,0,0,1,0.52164
9147,0,0.106445,0.0117188,-0.00363562,-0.00092038,-0.00135393,0.0190238,-0.0302385,3.08525,-3.61448,-0.262341,-0.130879,-0.802098,-0.47896,-0.454743,-0.296469,3.08526,-0.275816,4.63336,277,-3,277,-3,410,-16,287,118,-0.22598,0.177076,-0.857805,-1.5,3.21602e-38,0,0,3,-0.802098,-0.47896,0,0,0,0,-0.454743,-0.296469,18224,0,0,0,0,8286,0,0,0,0,1,0.526855
9169,0,0.139648,-2.14062,-0.00271225,-0.0015248,-0.00199568,0.0189694,-0.0302525,3.08523,-3.58338,-0.263547,-0.15141,-0.812129,-0.485489,-0.456482,-0.296944,3.08523,-0.275816,4.63336,277,-3,277,-3,411,-17,288,120,-0.227929,0.177394,-0.88876,-1.5,3.21602e-38,0,0,3,-0.812129,-0.485489,0,0,0,0,-0.456482,-0.296944,18632,0,0,0,0,8286,0,0,0,0,1,0.534038
9191,0,0.172852,-2.30762,-0.00209141,-0.00128565,0.000562226,0.0189234,-0.0302632,3.08523,-3.6298,-0.271033,-0.134038,-0.82174,-0.491731,-0.458128,-0.297374,3.08523,-0.275816,4.63336,279,-1,279,-1,410,-16,288,118,-0.229772,0.177703,-0.917058,-1.5,3.21602e-38,0,0,3,-0.82174,-0.491731,0,0,0,0,-0.458128,-0.297374,18090,0,0,0,0,8286,0,0,0,0,1,0.540905
9206,0,0.239258,5.35547,-0.00331585,-0.00168896,-0.000877835,0.0188188,-0.0303101,3.08521,-3.6298,-0.271033,-0.134038,-0.829083,-0.496493,-0.459372,-0.297691,3.08521,-0.275816,4.63336,279,-1,279,-1,410,-16,288,118,-0.231183,0.177931,-0.937749,-1.5,3.21602e-38,0,0,3,-0.829083,-0.496493,0,0,0,0,-0.459372,-0.297691,18090,0,0,0,0,8286,0,0,0,0,1,0.546142
9228,0,0.239258,5.35547,-0.00331585,-0.00168896,-0.000877835,0.0188188,-0.0303101,3.08521,-3.62101,-0.272776,-0.131584,-0.839216,-0.503048,-0.461075,-0.298103,3.08521,-0.275816,4.63336,280,-3,280,-3,410,-17,288,118,-0.23311,0.178248,-0.965233,-1.5,3.21602e-38,0,0,3,-0.839216,-0.503048,0,0,0,0,-0.461075,-0.298103,18090,0,0,0,0,8286,0,0,0,0,1,0.553353
9249,0,0.193359,1.45996,-0.00186002,-0.000787668,-0.000620362,0.0186821,-0.0303434,3.08518,-3.62101,-0.272776,-0.131584,-0.848921,-0.509314,-0.462684,-0.298485,3.08518,-0.275816,4.63336,280,-3,280,-3,410,-17,288,118,-0.234958,0.178541,-0.990334,-1.5,3.21602e-38,0,0,3,-0.848921,-0.509314,0,0,0,0,-0.462684,-0.298485,18090,0,0,0,0,8286,0,0,0,0,1,0.560245
9265,0,0.193359,1.45996,-0.00186002,-0.000787668,-0.000620362,0.0186821,-0.0303434,3.08518,-3.61966,-0.26172,-0.134306,-0.856337,-0.514093,-0.463901,-0.298756,3.08518,-0.275816,4.63336,277,-3,277,-3,410,-16,288,118,-0.236355,0.178767,-1.00869,-1.5,3.21602e-38,0,0,3,-0.856337,-0.514093,0,0,0,0,-0.463901,-0.298756,18090,0,0,0,0,8286,0,0,0,0,1,0.565502
9286,0,0.193359,1.45996,-0.00186002,-0.000787668,-0.000620362,0.0186821,-0.0303434,3.08518,-3.61966,-0.26172,-0.134306,-0.865636,-0.520073,-0.465409,-0.299093,3.08518,-0.275816,4.63336,277,-3,277,-3,410,-16,288,118,-0.238102,0.179046,-1.03091,-1.5,3.21602e-38,0,0,3,-0.865636,-0.520073,0,0,0,0,-0.465409,-0.299093,18090,0,0,0,0,8286,0,0,0,0,1,0.57208
9307,0,0.166992,0.714844,-0.00293697,-8.05824e-05,-0.00202153,0.0184668,-0.0303848,3.08511,-3.64191,-0.269505,-0.120613,-0.875901,-0.526658,-0.467054,-0.299447,3.08511,-0.275816,4.63336,281,-3,281,-3,410,-16,286,118,-0.240047,0.179332,-1.05437,-1.5,3.21602e-38,0,0,3,-0.875901,-0.526658,0,0,0,0,-0.467054,-0.299447,17688,0,0,0,0,8286,0,0,0,0,1,0.579324
9323,0,0.200195,2.33691,-0.00274997,-0.00159288,-0.00219305,0.0184258,-0.0304028,3.08509,-3.61342,-0.270636,-0.139324,-0.882918,-0.531152,-0.468167,-0.299659,3.08509,-0.275816,4.63336,279,-1,279,-1,411,-17,288,120,-0.241358,0.179532,-1.0697,-1.5,3.21602e-38,0,0,3,-0.882918,-0.531152,0,0,0,0,-0.468167,-0.299659,18495,0,0,0,0,8286,0,0,0,0,1,0.584267
9343,0,0.266602,-2.96582,-0.00264677,-0.000752259,-0.000918565,0.0183393,-0.030424,3.08506,-3.61342,-0.270636,-0.139324,-0.892771,-0.537449,-0.469716,-0.299946,3.08507,-0.275816,4.63336,279,-1,279,-1,411,-17,288,120,-0.243186,0.179813,-1.09047,-1.5,3.21602e-38,0,0,3,-0.892771,-0.537449,0,0,0,0,-0.469716,-0.299946,18495,0,0,0,0,8286,0,0,0,0,1,0.591194
9364,0,0.266602,-2.96582,-0.00264677,-0.000752259,-0.000918565,0.0183393,-0.030424,3.08506,-3.61766,-0.256493,-0.135185,-0.902659,-0.543752,-0.471252,-0.300215,3.08506,-0.275816,4.63336,277,-3,277,-3,408,-16,287,118,-0.245009,0.180091,-1.1104,-1.5,3.21602e-38,0,0,3,-0.902659,-0.543752,0,0,0,0,-0.471252,-0.300215,18224,0,0,0,0,8286,0,0,0,0,1,0.598127
9386,0,0.167969,1.99414,-0.00230335,-0.00128028,-0.00157713,0.0181871,-0.0304782,3.08502,-3.59752,-0.261239,-0.14829,-0.912578,-0.550061,-0.472775,-0.300474,3.08502,-0.275816,4.63336,277,-3,277,-3,410,-16,288,120,-0.246842,0.18036,-1.1295,-1.5,3.21602e-38,0,0,3,-0.912578,-0.550061,0,0,0,0,-0.472775,-0.300474,18496,0,0,0,0,8286,0,0,0,0,1,0.605067
9401,0,0.134766,1.7793,-0.00262493,-0.00137215,-0.000792853,0.0181369,-0.0304967,3.08501,-3.59752,-0.261239,-0.14829,-0.920154,-0.55487,-0.473929,-0.300648,3.08501,-0.275816,4.63336,277,-3,277,-3,410,-16,288,120,-0.248225,0.180568,-1.14347,-1.5,3.21602e-38,0,0,3,-0.920154,-0.55487,0,0,0,0,-0.473929,-0.300648,18496,0,0,0,0,8286,0,0,0,0,1,0.610357
9423,0,0.124023,-1.51855,-0.00227668,-0.00137921,-0.000653803,0.018048,-0.030534,3.08499,-3.59752,-0.261239,-0.14829,-0.930605,-0.561488,-0.475505,-0.300874,3.085,-0.275816,4.63336,277,-3,277,-3,410,-16,288,120,-0.250123,0.180854,-1.16202,-1.5,3.21602e-38,0,0,3,-0.930605,-0.561488,0,0,0,0,-0.475505,-0.300874,18496,0,0,0,0,8286,0,0,0,0,1,0.617637
