timestamp,A_x,A_y,A_z,P,Q,R,Phi,Theta,Psi,poseX,poseY,poseZ,state_X,state_Y,state_Z,state_VzB,state_Bx,state_By,state_Bz,p1_x,p1_y,p2_x,p2_y,p3_x,p3_y,p4_x,p4_y,roll,pitch,yaw,alt,targetHeading,highLevelState,lowLevelState,gateNumber,filtered_x,filtered_y,x_OT,y_OT,vx_OT,vy_OT,filtered_vx,filtered_vygateArearansac_corr_x,ransac_corr_y,ransac_corr_vx,ransac_corr_vy,detectionTimeStamppTermX,dTermX,pTermY,dTermY,vxcmd,vycmd
6485,0.00390625,0,-4.70605,0.349535,-0.0135351,-0.00506709,-0.0217579,0.00277084,-1.31897,0,0,0,-7.53572e-06,-1.14576e-06,-0.0014503,-0.000188679,-1.31888,0,0,0,0,0,0,0,0,0,0,0.242472,-0.0623595,0,0,2.34097e-38,0,0,2,-7.53572e-06,-1.14576e-06,0,0,0,0,-0.0014503,-0.000188679,1.9603e-19,0,0,0,0,0,0,0,0,0,1,1.26033e-06
6501,0.113281,0.0205078,-4.75586,-0.0850847,0.00172779,0.00134866,-0.0370237,0.00214404,-1.31864,0,0,0,-6.92207e-05,-8.76382e-06,-0.00567526,-0.000804257,-1.31863,0,0,0,0,0,0,0,0,0,0,0.243518,-0.0625326,0,0,2.34097e-38,0,0,2,-6.92207e-05,-8.76382e-06,0,0,0,0,-0.00567526,-0.000804257,1.9603e-19,0,0,0,0,0,0,0,0,0,1,9.6402e-06
6517,0.426758,0,0.0253906,-0.00886202,-7.20641e-05,-0.000925953,-0.0452613,0.0011985,-1.31864,0,0,0,-0.000211789,-3.25192e-05,-0.0118825,-0.00209091,-1.31864,0,0,0,0,0,0,0,0,0,0,0.245103,-0.0625999,0,0,2.34097e-38,0,0,2,-0.000211789,-3.25192e-05,0,0,0,0,-0.0118825,-0.00209091,1.9603e-19,0,0,0,0,0,0,0,0,0,1,3.57712e-05
6534,0.379883,0,-7.13965,0.00471277,0.000366383,-0.000326228,-0.0447119,0.000372097,-1.31865,0,0,0,-0.000512157,-8.98962e-05,-0.0193817,-0.00383149,-1.31865,0,0,0,0,0,0,0,0,0,0,0.247032,-0.062627,0,0,2.34097e-38,0,0,2,-0.000512157,-8.98962e-05,0,0,0,0,-0.0193817,-0.00383149,1.9603e-19,0,0,0,0,0,0,0,0,0,1,9.88858e-05
6550,0.34668,0,-4.22168,0.00177897,0.000847581,0.000386661,-0.0446844,0.000359848,-1.31865,0,0,0,-0.000892336,-0.000168677,-0.0260361,-0.00549269,-1.31865,0,0,0,0,0,0,0,0,0,0,0.248752,-0.0626205,0,0,2.34097e-38,0,0,2,-0.000892336,-0.000168677,0,0,0,0,-0.0260361,-0.00549269,1.9603e-19,0,0,0,0,0,0,0,0,0,1,0.000185545
6566,0.313477,0,0.754883,0.000565982,-0.000436363,-4.84901e-05,-0.0446809,0.000343258,-1.31865,0,0,0,-0.00137605,-0.000273365,-0.0326164,-0.00714017,-1.31865,0,0,0,0,0,0,0,0,0,0,0.250455,-0.0626042,0,0,2.34097e-38,0,0,2,-0.00137605,-0.000273365,0,0,0,0,-0.0326164,-0.00714017,1.9603e-19,0,0,0,0,0,0,0,0,0,1,0.000300701
6582,0.289062,0,-7.16797,-0.002878,-0.000522362,-0.0011751,-0.0447225,0.000336853,-1.31866,0,0,0,-0.00196452,-0.000404304,-0.0391457,-0.00877722,-1.31866,0,0,0,0,0,0,0,0,0,0,0.252148,-0.0625765,0,0,2.34097e-38,0,0,2,-0.00196452,-0.000404304,0,0,0,0,-0.0391457,-0.00877722,1.9603e-19,0,0,0,0,0,0,0,0,0,1,0.000444734
6598,0.289062,0,4.10352,-0.00668961,-0.000880567,0.000686781,-0.044812,0.00030823,-1.31865,0,0,0,-0.00265699,-0.000561336,-0.0456313,-0.0104057,-1.31865,0,0,0,0,0,0,0,0,0,0,0.25383,-0.0625474,0,0,2.34097e-38,0,0,2,-0.00265699,-0.000561336,0,0,0,0,-0.0456313,-0.0104057,1.9603e-19,0,0,0,0,0,0,0,0,0,1,0.00061747
6614,0.289062,0,6.24316,-0.00797814,-0.00110855,-0.000248668,-0.0449218,0.000283629,-1.31865,0,0,0,-0.00345284,-0.000744377,-0.0520798,-0.0120297,-1.31865,0,0,0,0,0,0,0,0,0,0,0.255505,-0.0625076,0,0,2.34097e-38,0,0,2,-0.00345284,-0.000744377,0,0,0,0,-0.0520798,-0.0120297,1.9603e-19,0,0,0,0,0,0,0,0,0,1,0.000818815
6630,0.289062,0,7.0791,-0.00500464,-0.000272181,6.46911e-05,-0.0451053,0.000249724,-1.31866,0,0,0,-0.00435151,-0.00095335,-0.0584921,-0.0136484,-1.31867,0,0,0,0,0,0,0,0,0,0,0.257173,-0.062457,0,0,2.34097e-38,0,0,2,-0.00435151,-0.00095335,0,0,0,0,-0.0584921,-0.0136484,1.9603e-19,0,0,0,0,0,0,0,0,0,1,0.00104869
6645,0.289062,0,-5.98145,-0.00193608,0.000371252,-4.4826e-05,-0.0451459,0.000233493,-1.31867,0,0,0,-0.00528674,-0.0011727,-0.0644715,-0.015161,-1.31867,0,0,0,0,0,0,0,0,0,0,0.25873,-0.0624045,0,0,2.34097e-38,0,0,2,-0.00528674,-0.0011727,0,0,0,0,-0.0644715,-0.015161,1.9603e-19,0,0,0,0,0,0,0,0,0,1,0.00128997
6661,0.289062,0,0.0400391,-0.00104302,-0.000830049,0.000160617,-0.0451674,0.00021124,-1.31867,0,0,0,-0.00638496,-0.00143218,-0.0708122,-0.0167692,-1.31867,0,0,0,0,0,0,0,0,0,0,0.260383,-0.0623417,0,0,2.34097e-38,0,0,2,-0.00638496,-0.00143218,0,0,0,0,-0.0708122,-0.0167692,1.9603e-19,0,0,0,0,0,0,0,0,0,1,0.0015754
6676,0.289062,0,-4.76367,0.0019096,-0.000531598,-0.00037878,-0.0451516,0.000184052,-1.31867,0,0,0,-0.00750265,-0.00169783,-0.0767095,-0.0182687,-1.31867,0,0,0,0,0,0,0,0,0,0,0.261923,-0.0622751,0,0,2.34097e-38,0,0,2,-0.00750265,-0.00169783,0,0,0,0,-0.0767095,-0.0182687,1.9603e-19,0,0,0,0,0,0,0,0,0,1,0.00186761
6716,0.289062,0,-4.24707,0.0059297,-0.000993016,-0.00031762,-0.0449804,0.000112501,-1.31867,0,0,0,-0.0110871,-0.00256005,-0.0922921,-0.0222422,-1.31867,0,0,0,0,0,0,0,0,0,0,0.266002,-0.0620554,0,0,2.34097e-38,0,0,2,-0.0110871,-0.00256005,0,0,0,0,-0.0922921,-0.0222422,1.9603e-19,0,0,0,0,0,0,0,0,0,1,0.00281606
6746,0.289062,0,-4.24707,0.0059297,-0.000993016,-0.00031762,-0.0449804,0.000112501,-1.31867,0,0,0,-0.0141155,-0.00329394,-0.103697,-0.0251691,-1.31867,0,0,0,0,0,0,0,0,0,0,0.268996,-0.0618627,0,0,2.34097e-38,0,0,2,-0.0141155,-0.00329394,0,0,0,0,-0.103697,-0.0251691,1.9603e-19,0,0,0,0,0,0,0,0,0,1,0.00362334
6761,0.289062,0,-4.24707,0.0059297,-0.000993016,-0.00031762,-0.0449804,0.000112501,-1.31867,0,0,0,-0.0157238,-0.00368506,-0.10932,-0.026612,-1.31867,0,0,0,0,0,0,0,0,0,0,0.270474,-0.0617599,0,0,2.34097e-38,0,0,2,-0.0157238,-0.00368506,0,0,0,0,-0.10932,-0.026612,1.9603e-19,0,0,0,0,0,0,0,0,0,1,0.00405357
6774,0.289062,0,-4.24707,0.0059297,-0.000993016,-0.00031762,-0.0449804,0.000112501,-1.31867,0,0,0,-0.0171834,-0.00404086,-0.114157,-0.0278534,-1.31867,0,0,0,0,0,0,0,0,0,0,0.271747,-0.0616663,0,0,2.34097e-38,0,0,2,-0.0171834,-0.00404086,0,0,0,0,-0.114157,-0.0278534,1.9603e-19,0,0,0,0,0,0,0,0,0,1,0.00444495
6790,0.289062,0,-4.24707,0.0059297,-0.000993016,-0.00031762,-0.0449804,0.000112501,-1.31867,0,0,0,-0.0190721,-0.00450248,-0.120071,-0.0293711,-1.31867,0,0,0,0,0,0,0,0,0,0,0.273305,-0.0615447,0,0,2.34097e-38,0,0,2,-0.0190721,-0.00450248,0,0,0,0,-0.120071,-0.0293711,1.9603e-19,0,0,0,0,0,0,0,0,0,1,0.00495273
6806,0.289062,0,-4.24707,0.0059297,-0.000993016,-0.00031762,-0.0449804,0.000112501,-1.31867,0,0,0,-0.021053,-0.00498777,-0.125937,-0.0308764,-1.31867,0,0,0,0,0,0,0,0,0,0,0.274853,-0.0614169,0,0,2.34097e-38,0,0,2,-0.021053,-0.00498777,0,0,0,0,-0.125937,-0.0308764,1.9603e-19,0,0,0,0,0,0,0,0,0,1,0.00548655
6823,0.296875,0,0.0449219,-0.00406193,0.000410175,-0.000624373,-0.0452312,-3.24999e-05,-1.31868,0,0,0,-0.0232621,-0.00553015,-0.132119,-0.0324629,-1.31867,0,0,0,0,0,0,0,0,0,0,0.276485,-0.0612739,0,0,2.34097e-38,0,0,2,-0.0232621,-0.00553015,0,0,0,0,-0.132119,-0.0324629,1.9603e-19,0,0,0,0,0,0,0,0,0,1,0.00608317
6839,0.330078,0,-4.73145,-0.00243742,0.000396908,-0.000492007,-0.045281,-5.10915e-05,-1.31869,0,0,0,-0.025435,-0.00606477,-0.137908,-0.033962,-1.31869,0,0,0,0,0,0,0,0,0,0,0.278018,-0.0611252,0,0,2.34097e-38,0,0,2,-0.025435,-0.00606477,0,0,0,0,-0.137908,-0.033962,1.9603e-19,0,0,0,0,0,0,0,0,0,1,0.00667124
6855,0.363281,0,-7.0127,-0.000227142,-0.000711865,-0.000213653,-0.0452957,-6.93602e-05,-1.31869,0,0,0,-0.0277021,-0.00662399,-0.143672,-0.0354683,-1.31869,0,0,0,0,0,0,0,0,0,0,0.279546,-0.0609712,0,0,2.34097e-38,0,0,2,-0.0277021,-0.00662399,0,0,0,0,-0.143672,-0.0354683,1.9603e-19,0,0,0,0,0,0,0,0,0,1,0.00728639
6872,0.356445,0,-7.1123,4.32892e-05,-0.00104061,0.0010255,-0.0453007,-9.09618e-05,-1.31867,0,0,0,-0.030061,-0.00720723,-0.149391,-0.0369663,-1.31867,0,0,0,0,0,0,0,0,0,0,0.281063,-0.060813,0,0,2.34097e-38,0,0,2,-0.030061,-0.00720723,0,0,0,0,-0.149391,-0.0369663,1.9603e-19,0,0,0,0,0,0,0,0,0,1,0.00792795
6888,0.323242,0,-4.22461,0.00258605,0.000330617,-0.00028642,-0.0452792,-0.000108391,-1.31868,0,0,0,-0.032667,-0.00785308,-0.155416,-0.038548,-1.31868,0,0,0,0,0,0,0,0,0,0,0.282665,-0.0606326,0,0,2.34097e-38,0,0,2,-0.032667,-0.00785308,0,0,0,0,-0.155416,-0.038548,1.9603e-19,0,0,0,0,0,0,0,0,0,1,0.00863839
6904,0.290039,0,0.755859,0.0026343,-0.000491457,-0.000786229,-0.0452518,-0.000131752,-1.31868,0,0,0,-0.0350493,-0.00844471,-0.160684,-0.0399342,-1.31868,0,0,0,0,0,0,0,0,0,0,0.284068,-0.0604663,0,0,2.34097e-38,0,0,2,-0.0350493,-0.00844471,0,0,0,0,-0.160684,-0.0399342,1.9603e-19,0,0,0,0,0,0,0,0,0,1,0.00928918
6921,0.270508,0,-7.14453,0.000897644,0.00128063,-0.000518301,-0.0452451,-0.00013139,-1.3187,0,0,0,-0.0380159,-0.00918311,-0.166953,-0.041586,-1.3187,0,0,0,0,0,0,0,0,0,0,0.28574,-0.0602561,0,0,2.34097e-38,0,0,2,-0.0380159,-0.00918311,0,0,0,0,-0.166953,-0.041586,1.9603e-19,0,0,0,0,0,0,0,0,0,1,0.0101014
6936,0.270508,0,6.28711,-0.000709398,0.000620707,0.000167704,-0.0452217,-0.000145644,-1.31871,0,0,0,-0.0405689,-0.00981974,-0.172131,-0.0429502,-1.3187,0,0,0,0,0,0,0,0,0,0,0.287122,-0.0600791,0,0,2.34097e-38,0,0,2,-0.0405689,-0.00981974,0,0,0,0,-0.172131,-0.0429502,1.9603e-19,0,0,0,0,0,0,0,0,0,1,0.0108017
6951,0.270508,0,-7.02051,-0.000233387,-0.00104489,-0.000999748,-0.0452298,-0.00017855,-1.31872,0,0,0,-0.0432006,-0.0104771,-0.177267,-0.0443062,-1.31872,0,0,0,0,0,0,0,0,0,0,0.288497,-0.0598901,0,0,2.34097e-38,0,0,2,-0.0432006,-0.0104771,0,0,0,0,-0.177267,-0.0443062,1.9603e-19,0,0,0,0,0,0,0,0,0,1,0.0115248
6967,0.270508,0,7.03809,-0.00283914,-0.000392047,-0.000190342,-0.045275,-0.000199911,-1.31872,0,0,0,-0.0460941,-0.0112012,-0.182705,-0.0457474,-1.31872,0,0,0,0,0,0,0,0,0,0,0.289953,-0.0596868,0,0,2.34097e-38,0,0,2,-0.0460941,-0.0112012,0,0,0,0,-0.182705,-0.0457474,1.9603e-19,0,0,0,0,0,0,0,0,0,1,0.0123213
6984,0.270508,0,-5.98926,-0.00339087,0.000227527,-3.56229e-05,-0.0453271,-0.000212913,-1.31872,0,0,0,-0.0490742,-0.0119482,-0.188108,-0.0471823,-1.31872,0,0,0,0,0,0,0,0,0,0,0.291401,-0.0594782,0,0,2.34097e-38,0,0,2,-0.0490742,-0.0119482,0,0,0,0,-0.188108,-0.0471823,1.9603e-19,0,0,0,0,0,0,0,0,0,1,0.013143
7000,0.270508,0,-5.98926,-0.00339087,0.000227527,-3.56229e-05,-0.0453271,-0.000212913,-1.31872,0,0,0,-0.0523348,-0.012767,-0.193806,-0.0486971,-1.31872,0,0,0,0,0,0,0,0,0,0,0.292931,-0.0592487,0,0,2.34097e-38,0,0,2,-0.0523348,-0.012767,0,0,0,0,-0.193806,-0.0486971,1.9603e-19,0,0,0,0,0,0,0,0,0,1,0.0140437
7016,0.270508,0,-7.06055,-0.00268139,-0.00125798,0.000615088,-0.0454683,-0.000253392,-1.31871,0,0,0,-0.0554899,-0.0135606,-0.199123,-0.0501108,-1.31872,0,0,0,0,0,0,0,0,0,0,0.294361,-0.0590267,0,0,2.34097e-38,0,0,2,-0.0554899,-0.0135606,0,0,0,0,-0.199123,-0.0501108,1.9603e-19,0,0,0,0,0,0,0,0,0,1,0.0149166
7032,0.270508,0,-7.15137,-0.00124654,6.53551e-06,-0.0016559,-0.0454941,-0.00026875,-1.31873,0,0,0,-0.0587298,-0.0143767,-0.20441,-0.0515199,-1.31871,0,0,0,0,0,0,0,0,0,0,0.295784,-0.0588018,0,0,2.34097e-38,0,0,2,-0.0587298,-0.0143767,0,0,0,0,-0.20441,-0.0515199,1.9603e-19,0,0,0,0,0,0,0,0,0,1,0.0158144
7048,0.279297,0,-4.24512,-0.000100338,0.000912257,-8.30101e-05,-0.0455137,-0.000268944,-1.31872,0,0,0,-0.0620539,-0.0152153,-0.209666,-0.0529262,-1.31872,0,0,0,0,0,0,0,0,0,0,0.297203,-0.0585624,0,0,2.34097e-38,0,0,2,-0.0620539,-0.0152153,0,0,0,0,-0.209666,-0.0529262,1.9603e-19,0,0,0,0,0,0,0,0,0,1,0.0167369
7064,0.279297,0,-4.24512,-0.000100338,0.000912257,-8.30101e-05,-0.0455137,-0.000268944,-1.31872,0,0,0,-0.0654635,-0.0160768,-0.214884,-0.0543222,-1.31872,0,0,0,0,0,0,0,0,0,0,0.298612,-0.0583204,0,0,2.34097e-38,0,0,2,-0.0654635,-0.0160768,0,0,0,0,-0.214884,-0.0543222,1.9603e-19,0,0,0,0,0,0,0,0,0,1,0.0176845
7080,0.345703,0,-7.15332,0.00162391,-0.000387402,0.00106677,-0.0454991,-0.000300574,-1.31871,0,0,0,-0.0689561,-0.0169606,-0.220059,-0.0557087,-1.31871,0,0,0,0,0,0,0,0,0,0,0.300012,-0.0580751,0,0,2.34097e-38,0,0,2,-0.0689561,-0.0169606,0,0,0,0,-0.220059,-0.0557087,1.9603e-19,0,0,0,0,0,0,0,0,0,1,0.0186566
7096,0.345703,0,-7.15332,0.00162391,-0.000387402,0.00106677,-0.0454991,-0.000300574,-1.31871,0,0,0,-0.072531,-0.0178664,-0.225191,-0.0570868,-1.31871,0,0,0,0,0,0,0,0,0,0,0.301402,-0.0578202,0,0,2.34097e-38,0,0,2,-0.072531,-0.0178664,0,0,0,0,-0.225191,-0.0570868,1.9603e-19,0,0,0,0,0,0,0,0,0,1,0.019653
7112,0.388672,0,-7.00684,0.00036664,5.18751e-05,-7.58692e-05,-0.045493,-0.000345612,-1.31871,0,0,0,-0.0761876,-0.0187942,-0.230282,-0.0584539,-1.31871,0,0,0,0,0,0,0,0,0,0,0.302783,-0.0575596,0,0,2.34097e-38,0,0,2,-0.0761876,-0.0187942,0,0,0,0,-0.230282,-0.0584539,1.9603e-19,0,0,0,0,0,0,0,0,0,1,0.0206736
7128,0.388672,0,7.08105,-0.00160622,0.000216867,-0.000766785,-0.04551,-0.00036054,-1.31872,0,0,0,-0.0799236,-0.0197433,-0.235329,-0.0598136,-1.31871,0,0,0,0,0,0,0,0,0,0,0.304156,-0.0572909,0,0,2.34097e-38,0,0,2,-0.0799236,-0.0197433,0,0,0,0,-0.235329,-0.0598136,1.9603e-19,0,0,0,0,0,0,0,0,0,1,0.0217176
7145,0.388672,0,-5.96387,-0.00207137,0.000635626,0.000462933,-0.0455431,-0.000369128,-1.31872,0,0,0,-0.0839828,-0.020776,-0.240651,-0.0612532,-1.31872,0,0,0,0,0,0,0,0,0,0,0.305605,-0.0569984,0,0,2.34097e-38,0,0,2,-0.0839828,-0.020776,0,0,0,0,-0.240651,-0.0612532,1.9603e-19,0,0,0,0,0,0,0,0,0,1,0.0228536
7160,0.388672,0,0.0996094,-0.00132798,-0.000910838,0.000217738,-0.0455611,-0.000395786,-1.31872,0,0,0,-0.0876364,-0.0217067,-0.245312,-0.0625161,-1.31872,0,0,0,0,0,0,0,0,0,0,0.306876,-0.0567335,0,0,2.34097e-38,0,0,2,-0.0876364,-0.0217067,0,0,0,0,-0.245312,-0.0625161,1.9603e-19,0,0,0,0,0,0,0,0,0,1,0.0238773
7175,0.388672,0,-4.63086,-0.00206888,0.000609403,0.000440281,-0.0455965,-0.000405265,-1.31871,0,0,0,-0.0913597,-0.0226562,-0.24994,-0.0637736,-1.31871,0,0,0,0,0,0,0,0,0,0,0.30814,-0.0564681,0,0,2.34097e-38,0,0,2,-0.0913597,-0.0226562,0,0,0,0,-0.24994,-0.0637736,1.9603e-19,0,0,0,0,0,0,0,0,0,1,0.0249218
7191,0.362305,0,-7.10156,-0.00199391,0.000963679,0.000852728,-0.0456205,-0.00041466,-1.3187,0,0,0,-0.0954103,-0.0236906,-0.254846,-0.0651079,-1.3187,0,0,0,0,0,0,0,0,0,0,0.309481,-0.0561783,0,0,2.34097e-38,0,0,2,-0.0954103,-0.0236906,0,0,0,0,-0.254846,-0.0651079,1.9603e-19,0,0,0,0,0,0,0,0,0,1,0.0260597
7207,0.329102,0,-7.14355,-0.0015402,0.000144562,-0.000317677,-0.0456529,-0.000422615,-1.3187,0,0,0,-0.099539,-0.0247463,-0.259715,-0.066434,-1.3187,0,0,0,0,0,0,0,0,0,0,0.310815,-0.0558796,0,0,2.34097e-38,0,0,2,-0.099539,-0.0247463,0,0,0,0,-0.259715,-0.066434,1.9603e-19,0,0,0,0,0,0,0,0,0,1,0.0272209
7224,0.302734,0,0.742188,-0.00140538,0.000139944,0.000848536,-0.0457114,-0.00044364,-1.31871,0,0,0,-0.104013,-0.0258916,-0.264853,-0.0678343,-1.31872,0,0,0,0,0,0,0,0,0,0,0.312226,-0.0555499,0,0,2.34097e-38,0,0,2,-0.104013,-0.0258916,0,0,0,0,-0.264853,-0.0678343,1.9603e-19,0,0,0,0,0,0,0,0,0,1,0.0284807
7240,0.335938,0,-7.18066,-0.000450301,0.00108248,-0.000749451,-0.0457372,-0.00044325,-1.31872,0,0,0,-0.108299,-0.0269903,-0.269652,-0.0691441,-1.31871,0,0,0,0,0,0,0,0,0,0,0.313543,-0.0552445,0,0,2.34097e-38,0,0,2,-0.108299,-0.0269903,0,0,0,0,-0.269652,-0.0691441,1.9603e-19,0,0,0,0,0,0,0,0,0,1,0.0296893
7257,0.369141,0,4.1377,-0.000647039,-0.000308871,4.02604e-05,-0.0457476,-0.000463736,-1.31872,0,0,0,-0.112939,-0.028181,-0.274715,-0.070528,-1.31872,0,0,0,0,0,0,0,0,0,0,0.314938,-0.0549051,0,0,2.34097e-38,0,0,2,-0.112939,-0.028181,0,0,0,0,-0.274715,-0.070528,1.9603e-19,0,0,0,0,0,0,0,0,0,1,0.0309991
7273,0.402344,0,6.29492,-0.000970354,0.000996829,0.000333153,-0.0457568,-0.000476394,-1.31872,0,0,0,-0.117383,-0.0293226,-0.279442,-0.0718231,-1.31872,0,0,0,0,0,0,0,0,0,0,0.316241,-0.054582,0,0,2.34097e-38,0,0,2,-0.117383,-0.0293226,0,0,0,0,-0.279442,-0.0718231,1.9603e-19,0,0,0,0,0,0,0,0,0,1,0.0322549
7289,0.413086,0,-6.99219,-0.00108953,-0.000198335,-0.00071117,-0.0457664,-0.000483959,-1.31873,0,0,0,-0.121903,-0.0304853,-0.284132,-0.0731098,-1.31873,0,0,0,0,0,0,0,0,0,0,0.317538,-0.0542487,0,0,2.34097e-38,0,0,2,-0.121903,-0.0304853,0,0,0,0,-0.284132,-0.0731098,1.9603e-19,0,0,0,0,0,0,0,0,0,1,0.0335339
7305,0.34668,0,-6.00293,-0.00140908,0.000839842,-0.000316023,-0.0457991,-0.000520165,-1.31873,0,0,0,-0.126498,-0.0316685,-0.288786,-0.0743888,-1.31874,0,0,0,0,0,0,0,0,0,0,0.318826,-0.0539126,0,0,2.34097e-38,0,0,2,-0.126498,-0.0316685,0,0,0,0,-0.288786,-0.0743888,1.9603e-19,0,0,0,0,0,0,0,0,0,1,0.0348354
7322,0.313477,0,0.046875,-0.00248307,4.91483e-05,0.000334531,-0.045827,-0.000533032,-1.31872,0,0,0,-0.131462,-0.032948,-0.293693,-0.0757408,-1.31873,0,0,0,0,0,0,0,0,0,0,0.320185,-0.0535511,0,0,2.34097e-38,0,0,2,-0.131462,-0.032948,0,0,0,0,-0.293693,-0.0757408,1.9603e-19,0,0,0,0,0,0,0,0,0,1,0.0362428
7338,0.28418,0,-4.72266,-0.000485176,0.000231294,-0.000333049,-0.0458358,-0.000542638,-1.31872,0,0,0,-0.135909,-0.0340956,-0.297992,-0.0769283,-1.31872,0,0,0,0,0,0,0,0,0,0,0.321378,-0.0532292,0,0,2.34097e-38,0,0,2,-0.135909,-0.0340956,0,0,0,0,-0.297992,-0.0769283,1.9603e-19,0,0,0,0,0,0,0,0,0,1,0.0375052
7355,0.28418,0,-7.00098,-0.000191003,0.000523623,0.00109138,-0.0458442,-0.000547613,-1.31871,0,0,0,-0.141333,-0.0354971,-0.303111,-0.0783442,-1.31871,0,0,0,0,0,0,0,0,0,0,0.322801,-0.0528372,0,0,2.34097e-38,0,0,2,-0.141333,-0.0354971,0,0,0,0,-0.303111,-0.0783442,1.9603e-19,0,0,0,0,0,0,0,0,0,1,0.0390468
7370,0.28418,0,-7.16406,-0.00139298,0.000177706,0.000188155,-0.0458744,-0.000563885,-1.31871,0,0,0,-0.14592,-0.0366833,-0.307342,-0.0795162,-1.31871,0,0,0,0,0,0,0,0,0,0,0.32398,-0.0525016,0,0,2.34097e-38,0,0,2,-0.14592,-0.0366833,0,0,0,0,-0.307342,-0.0795162,1.9603e-19,0,0,0,0,0,0,0,0,0,1,0.0403516
7385,0.28418,0,-4.21191,-0.00151311,-0.000965491,-7.81055e-05,-0.0459051,-0.000580505,-1.31871,0,0,0,-0.15057,-0.0378873,-0.311546,-0.0806828,-1.31871,0,0,0,0,0,0,0,0,0,0,0.325153,-0.0521612,0,0,2.34097e-38,0,0,2,-0.15057,-0.0378873,0,0,0,0,-0.311546,-0.0806828,1.9603e-19,0,0,0,0,0,0,0,0,0,1,0.0416761
7401,0.28418,0,0.771484,-0.000509481,0.00103189,-3.29498e-05,-0.0459132,-0.000591616,-1.3187,0,0,0,-0.155602,-0.0391913,-0.315999,-0.0819207,-1.3187,0,0,0,0,0,0,0,0,0,0,0.326397,-0.0517933,0,0,2.34097e-38,0,0,2,-0.155602,-0.0391913,0,0,0,0,-0.315999,-0.0819207,1.9603e-19,0,0,0,0,0,0,0,0,0,1,0.0431104
7418,0.28418,0,4.1084,-0.000635293,-0.000145067,6.29608e-05,-0.0459386,-0.000632478,-1.3187,0,0,0,-0.161026,-0.0405983,-0.320692,-0.0832285,-1.31871,0,0,0,0,0,0,0,0,0,0,0.327712,-0.0513929,0,0,2.34097e-38,0,0,2,-0.161026,-0.0405983,0,0,0,0,-0.320692,-0.0832285,1.9603e-19,0,0,0,0,0,0,0,0,0,1,0.0446582
7434,0.28418,0,6.28613,0.000409322,6.26495e-05,-0.000837744,-0.0459422,-0.000648517,-1.31871,0,0,0,-0.166203,-0.0419429,-0.325074,-0.0844549,-1.31871,0,0,0,0,0,0,0,0,0,0,0.328942,-0.0510099,0,0,2.34097e-38,0,0,2,-0.166203,-0.0419429,0,0,0,0,-0.325074,-0.0844549,1.9603e-19,0,0,0,0,0,0,0,0,0,1,0.0461372
7450,0.28418,0,-7.01855,0.000406649,-0.00088846,0.00125861,-0.0459427,-0.000668538,-1.3187,0,0,0,-0.17145,-0.043307,-0.329422,-0.0856745,-1.3187,0,0,0,0,0,0,0,0,0,0,0.330164,-0.0506251,0,0,2.34097e-38,0,0,2,-0.17145,-0.043307,0,0,0,0,-0.329422,-0.0856745,1.9603e-19,0,0,0,0,0,0,0,0,0,1,0.0476377
7466,0.28418,0,-7.01855,0.000406649,-0.00088846,0.00125861,-0.0459427,-0.000668538,-1.3187,0,0,0,-0.176766,-0.0446905,-0.333734,-0.0868867,-1.3187,0,0,0,0,0,0,0,0,0,0,0.331378,-0.050232,0,0,2.34097e-38,0,0,2,-0.176766,-0.0446905,0,0,0,0,-0.333734,-0.0868867,1.9603e-19,0,0,0,0,0,0,0,0,0,1,0.0491596
7483,0.28418,0,-6.00488,-0.00182675,0.000802011,0.000138797,-0.0459735,-0.000699141,-1.31869,0,0,0,-0.182151,-0.0460934,-0.338013,-0.0880915,-1.31869,0,0,0,0,0,0,0,0,0,0,0.332585,-0.0498369,0,0,2.34097e-38,0,0,2,-0.182151,-0.0460934,0,0,0,0,-0.338013,-0.0880915,1.9603e-19,0,0,0,0,0,0,0,0,0,1,0.0507027
7499,0.28418,0,-4.7334,-0.00165794,-0.000263856,-0.000495704,-0.0460275,-0.000730244,-1.3187,0,0,0,-0.187946,-0.0476049,-0.342524,-0.089365,-1.31869,0,0,0,0,0,0,0,0,0,0,0.33386,-0.0494074,0,0,2.34097e-38,0,0,2,-0.187946,-0.0476049,0,0,0,0,-0.342524,-0.089365,1.9603e-19,0,0,0,0,0,0,0,0,0,1,0.0523654
7515,0.28418,0,-7.03223,-0.00190472,2.86972e-05,-0.00186736,-0.0460448,-0.000746045,-1.31871,0,0,0,-0.19347,-0.0490469,-0.346738,-0.0905573,-1.3187,0,0,0,0,0,0,0,0,0,0,0.335054,-0.0489952,0,0,2.34097e-38,0,0,2,-0.19347,-0.0490469,0,0,0,0,-0.346738,-0.0905573,1.9603e-19,0,0,0,0,0,0,0,0,0,1,0.0539516
7531,0.28418,0,-7.1123,-0.00104987,-0.00058821,6.00901e-05,-0.0460673,-0.000763087,-1.31871,0,0,0,-0.19906,-0.050508,-0.350924,-0.0917465,-1.31871,0,0,0,0,0,0,0,0,0,0,0.336242,-0.0485766,0,0,2.34097e-38,0,0,2,-0.19906,-0.050508,0,0,0,0,-0.350924,-0.0917465,1.9603e-19,0,0,0,0,0,0,0,0,0,1,0.0555588
7547,0.292969,0,-4.23242,0.000427704,0.00108984,0.000250484,-0.0460688,-0.000772694,-1.31871,0,0,0,-0.204718,-0.051988,-0.355079,-0.0929296,-1.31871,0,0,0,0,0,0,0,0,0,0,0.337423,-0.0481547,0,0,2.34097e-38,0,0,2,-0.204718,-0.051988,0,0,0,0,-0.355079,-0.0929296,1.9603e-19,0,0,0,0,0,0,0,0,0,1,0.0571868
7563,0.292969,0,-4.23242,0.000427704,0.00108984,0.000250484,-0.0460688,-0.000772694,-1.31871,0,0,0,-0.210081,-0.0533926,-0.358944,-0.0940313,-1.31871,0,0,0,0,0,0,0,0,0,0,0.338524,-0.0477549,0,0,2.34097e-38,0,0,2,-0.210081,-0.0533926,0,0,0,0,-0.358944,-0.0940313,1.9603e-19,0,0,0,0,0,0,0,0,0,1,0.0587319
7579,0.359375,0,-7.13379,-0.000969972,-0.000237865,-6.70354e-05,-0.046086,-0.000817273,-1.31871,0,0,0,-0.216233,-0.0550052,-0.363292,-0.0952732,-1.31871,0,0,0,0,0,0,0,0,0,0,0.339765,-0.0472972,0,0,2.34097e-38,0,0,2,-0.216233,-0.0550052,0,0,0,0,-0.363292,-0.0952732,1.9603e-19,0,0,0,0,0,0,0,0,0,1,0.0605058
7595,0.359375,0,-7.13379,-0.000969972,-0.000237865,-6.70354e-05,-0.046086,-0.000817273,-1.31871,0,0,0,-0.222087,-0.0565415,-0.367349,-0.0964368,-1.31871,0,0,0,0,0,0,0,0,0,0,0.340925,-0.0468594,0,0,2.34097e-38,0,0,2,-0.222087,-0.0565415,0,0,0,0,-0.367349,-0.0964368,1.9603e-19,0,0,0,0,0,0,0,0,0,1,0.0621956
7610,0.37207,0,-7.00781,-0.000604973,0.000703297,-0.000513386,-0.0460862,-0.000868797,-1.31872,0,0,0,-0.227632,-0.0579982,-0.371122,-0.0975215,-1.31872,0,0,0,0,0,0,0,0,0,0,0.342006,-0.0464407,0,0,2.34097e-38,0,0,2,-0.227632,-0.0579982,0,0,0,0,-0.371122,-0.0975215,1.9603e-19,0,0,0,0,0,0,0,0,0,1,0.0637981
7627,0.338867,0,7.06543,-0.00385218,0.000700892,-0.000590608,-0.0461403,-0.000880851,-1.31873,0,0,0,-0.23399,-0.05967,-0.375365,-0.0987464,-1.31873,0,0,0,0,0,0,0,0,0,0,0.343225,-0.0459591,0,0,2.34097e-38,0,0,2,-0.23399,-0.05967,0,0,0,0,-0.375365,-0.0987464,1.9603e-19,0,0,0,0,0,0,0,0,0,1,0.065637
7643,0.305664,0,-5.99121,-0.00329906,-0.000330913,-0.000820269,-0.0461826,-0.000890865,-1.31874,0,0,0,-0.240037,-0.061262,-0.379334,-0.0998949,-1.31874,0,0,0,0,0,0,0,0,0,0,0.344367,-0.0455013,0,0,2.34097e-38,0,0,2,-0.240037,-0.061262,0,0,0,0,-0.379334,-0.0998949,1.9603e-19,0,0,0,0,0,0,0,0,0,1,0.0673882
7660,0.272461,0,0.0244141,-0.00243488,-0.00013378,-0.000126016,-0.0462212,-0.000906554,-1.31873,0,0,0,-0.246532,-0.0629736,-0.383523,-0.101109,-1.31873,0,0,0,0,0,0,0,0,0,0,0.345574,-0.0450154,0,0,2.34097e-38,0,0,2,-0.246532,-0.0629736,0,0,0,0,-0.383523,-0.101109,1.9603e-19,0,0,0,0,0,0,0,0,0,1,0.069271
7676,0.270508,0,-4.74023,-0.00116696,-0.000594561,-0.000202672,-0.0462459,-0.000933274,-1.31873,0,0,0,-0.252708,-0.064603,-0.387437,-0.102247,-1.31873,0,0,0,0,0,0,0,0,0,0,0.346704,-0.0445497,0,0,2.34097e-38,0,0,2,-0.252708,-0.064603,0,0,0,0,-0.387437,-0.102247,1.9603e-19,0,0,0,0,0,0,0,0,0,1,0.0710633
7692,0.310547,0,-7.14648,0.000996404,0.000224451,-3.9569e-05,-0.0462475,-0.000978941,-1.31875,0,0,0,-0.258948,-0.0662508,-0.391322,-0.103381,-1.31874,0,0,0,0,0,0,0,0,0,0,0.347829,-0.0440753,0,0,2.34097e-38,0,0,2,-0.258948,-0.0662508,0,0,0,0,-0.391322,-0.103381,1.9603e-19,0,0,0,0,0,0,0,0,0,1,0.0728759
7709,0.34375,0,-4.25,0.000900078,-0.000645337,-5.04433e-05,-0.0462325,-0.00100266,-1.31875,0,0,0,-0.265646,-0.0680215,-0.395415,-0.104579,-1.31875,0,0,0,0,0,0,0,0,0,0,0.349016,-0.0435665,0,0,2.34097e-38,0,0,2,-0.265646,-0.0680215,0,0,0,0,-0.395415,-0.104579,1.9603e-19,0,0,0,0,0,0,0,0,0,1,0.0748236
7725,0.34375,0,-4.25,0.000900078,-0.000645337,-5.04433e-05,-0.0462325,-0.00100266,-1.31875,0,0,0,-0.272011,-0.0697062,-0.399231,-0.105702,-1.31875,0,0,0,0,0,0,0,0,0,0,0.350126,-0.0430822,0,0,2.34097e-38,0,0,2,-0.272011,-0.0697062,0,0,0,0,-0.399231,-0.105702,1.9603e-19,0,0,0,0,0,0,0,0,0,1,0.0766768
7741,0.410156,0,-7.18652,0.000348236,-0.000769638,-0.000787251,-0.0462098,-0.00105455,-1.31877,0,0,0,-0.278439,-0.0714092,-0.403015,-0.106818,-1.31877,0,0,0,0,0,0,0,0,0,0,0.351229,-0.0425881,0,0,2.34097e-38,0,0,2,-0.278439,-0.0714092,0,0,0,0,-0.403015,-0.106818,1.9603e-19,0,0,0,0,0,0,0,0,0,1,0.0785501
7758,0.412109,0,4.14648,0.000354931,-0.000630675,-0.000796736,-0.0462074,-0.00107588,-1.31877,0,0,0,-0.284927,-0.07313,-0.406765,-0.107931,-1.31877,0,0,0,0,0,0,0,0,0,0,0.352325,-0.0420939,0,0,2.34097e-38,0,0,2,-0.284927,-0.07313,0,0,0,0,-0.406765,-0.107931,1.9603e-19,0,0,0,0,0,0,0,0,0,1,0.080443
7773,0.412109,0,6.29199,0.0015271,-0.000894119,0.000729914,-0.0461921,-0.00109143,-1.31876,0,0,0,-0.291474,-0.0748685,-0.410484,-0.109038,-1.31876,0,0,0,0,0,0,0,0,0,0,0.353413,-0.0415975,0,0,2.34097e-38,0,0,2,-0.291474,-0.0748685,0,0,0,0,-0.410484,-0.109038,1.9603e-19,0,0,0,0,0,0,0,0,0,1,0.0823554
7790,0.379883,0,7.08594,0.00319192,-0.000272442,-0.000369163,-0.0461488,-0.00113469,-1.31877,0,0,0,-0.298495,-0.076735,-0.414399,-0.110207,-1.31876,0,0,0,0,0,0,0,0,0,0,0.354562,-0.0410614,0,0,2.34097e-38,0,0,2,-0.298495,-0.076735,0,0,0,0,-0.414399,-0.110207,1.9603e-19,0,0,0,0,0,0,0,0,0,1,0.0844085
7807,0.34668,0,-5.95996,-0.00299706,-0.00123067,0.000603548,-0.046145,-0.00116909,-1.31875,0,0,0,-0.305583,-0.0786214,-0.418276,-0.11137,-1.31875,0,0,0,0,0,0,0,0,0,0,0.355702,-0.0405223,0,0,2.34097e-38,0,0,2,-0.305583,-0.0786214,0,0,0,0,-0.418276,-0.11137,1.9603e-19,0,0,0,0,0,0,0,0,0,1,0.0864835
7822,0.313477,0,0.0654297,-0.0160439,-0.000162425,-0.000550097,-0.0463465,-0.0011785,-1.31876,0,0,0,-0.31189,-0.0803018,-0.421673,-0.112395,-1.31876,0,0,0,0,0,0,0,0,0,0,0.356704,-0.0400355,0,0,2.34097e-38,0,0,2,-0.31189,-0.0803018,0,0,0,0,-0.421673,-0.112395,1.9603e-19,0,0,0,0,0,0,0,0,0,1,0.088332
7838,0.280273,0,-4.72656,-0.0139328,0.00079762,0.000299507,-0.0465658,-0.00119083,-1.31876,0,0,0,-0.318674,-0.0821113,-0.425298,-0.11349,-1.31876,0,0,0,0,0,0,0,0,0,0,0.357774,-0.039514,0,0,2.34097e-38,0,0,2,-0.318674,-0.0821113,0,0,0,0,-0.425298,-0.11349,1.9603e-19,0,0,0,0,0,0,0,0,0,1,0.0903224
7855,0.253906,0,-7.00586,-0.000350829,-0.000807407,-0.000126893,-0.0466075,-0.00121226,-1.31876,0,0,0,-0.325946,-0.0840534,-0.429147,-0.114653,-1.31876,0,0,0,0,0,0,0,0,0,0,0.358911,-0.0389579,0,0,2.34097e-38,0,0,2,-0.325946,-0.0840534,0,0,0,0,-0.429147,-0.114653,1.9603e-19,0,0,0,0,0,0,0,0,0,1,0.0924588
7871,0.274414,0,-7.13281,0.00637274,-0.000777773,0.00122255,-0.0465246,-0.00122469,-1.31873,0,0,0,-0.332416,-0.0857831,-0.432514,-0.115674,-1.31873,0,0,0,0,0,0,0,0,0,0,0.359907,-0.0384683,0,0,2.34097e-38,0,0,2,-0.332416,-0.0857831,0,0,0,0,-0.432514,-0.115674,1.9603e-19,0,0,0,0,0,0,0,0,0,1,0.0943614
7887,0.34082,0,0.780273,-0.000377957,-0.000275692,-0.000300689,-0.0464925,-0.00128302,-1.31875,0,0,0,-0.339812,-0.0877626,-0.436289,-0.116822,-1.31874,0,0,0,0,0,0,0,0,0,0,0.361029,-0.0378962,0,0,2.34097e-38,0,0,2,-0.339812,-0.0877626,0,0,0,0,-0.436289,-0.116822,1.9603e-19,0,0,0,0,0,0,0,0,0,1,0.0965389
7903,0.374023,0,-7.13574,0.00161184,0.000713529,0.000703274,-0.0464851,-0.00129675,-1.31873,0,0,0,-0.346829,-0.0896431,-0.439808,-0.117898,-1.31873,0,0,0,0,0,0,0,0,0,0,0.362077,-0.0373567,0,0,2.34097e-38,0,0,2,-0.346829,-0.0896431,0,0,0,0,-0.439808,-0.117898,1.9603e-19,0,0,0,0,0,0,0,0,0,1,0.0986074
7920,0.407227,0,4.1123,0.00610318,1.33166e-05,0.000404588,-0.0464006,-0.00130662,-1.31873,0,0,0,-0.354347,-0.0916599,-0.443511,-0.119035,-1.31873,0,0,0,0,0,0,0,0,0,0,0.363182,-0.0367752,0,0,2.34097e-38,0,0,2,-0.354347,-0.0916599,0,0,0,0,-0.443511,-0.119035,1.9603e-19,0,0,0,0,0,0,0,0,0,1,0.100826
7936,0.426758,0,6.27832,0.00702273,0.000888243,0.0011054,-0.0463125,-0.00130646,-1.31873,0,0,0,-0.361478,-0.0935753,-0.446951,-0.120094,-1.31873,0,0,0,0,0,0,0,0,0,0,0.364212,-0.0362254,0,0,2.34097e-38,0,0,2,-0.361478,-0.0935753,0,0,0,0,-0.446951,-0.120094,1.9603e-19,0,0,0,0,0,0,0,0,0,1,0.102933
7952,0.397461,0,-7.02441,0.00139528,0.000802118,-0.000597662,-0.0462894,-0.00131372,-1.31874,0,0,0,-0.368665,-0.0955078,-0.450355,-0.121143,-1.31874,0,0,0,0,0,0,0,0,0,0,0.365235,-0.0356661,0,0,2.34097e-38,0,0,2,-0.368665,-0.0955078,0,0,0,0,-0.450355,-0.121143,1.9603e-19,0,0,0,0,0,0,0,0,0,1,0.105059
7968,0.276367,0,-5.99512,-0.00453471,-0.000952994,0.000285531,-0.046392,-0.00135015,-1.31872,0,0,0,-0.375906,-0.097457,-0.453732,-0.122185,-1.31873,0,0,0,0,0,0,0,0,0,0,0.366251,-0.0351087,0,0,2.34097e-38,0,0,2,-0.375906,-0.097457,0,0,0,0,-0.453732,-0.122185,1.9603e-19,0,0,0,0,0,0,0,0,0,1,0.107203
7985,0.243164,0,0.0800781,-0.00525044,0.00015166,-0.000190936,-0.046462,-0.00136562,-1.31872,0,0,0,-0.383659,-0.0995463,-0.457299,-0.123288,-1.31872,0,0,0,0,0,0,0,0,0,0,0.367326,-0.0345094,0,0,2.34097e-38,0,0,2,-0.383659,-0.0995463,0,0,0,0,-0.457299,-0.123288,1.9603e-19,0,0,0,0,0,0,0,0,0,1,0.109501
8001,0.222656,0,-4.63184,-0.0041009,-0.000177636,0.000275748,-0.0465251,-0.00138136,-1.31872,0,0,0,-0.390549,-0.101405,-0.460435,-0.124262,-1.31872,0,0,0,0,0,0,0,0,0,0,0.368274,-0.0339733,0,0,2.34097e-38,0,0,2,-0.390549,-0.101405,0,0,0,0,-0.460435,-0.124262,1.9603e-19,0,0,0,0,0,0,0,0,0,1,0.111546
8018,0.255859,0,-7.11719,-0.00216618,0.00038403,-6.10749e-05,-0.046561,-0.00138835,-1.31872,0,0,0,-0.398416,-0.10353,-0.463971,-0.125362,-1.31872,0,0,0,0,0,0,0,0,0,0,0.369344,-0.0333614,0,0,2.34097e-38,0,0,2,-0.398416,-0.10353,0,0,0,0,-0.463971,-0.125362,1.9603e-19,0,0,0,0,0,0,0,0,0,1,0.113883
8033,0.255859,0,-7.11719,-0.00216618,0.00038403,-6.10749e-05,-0.046561,-0.00138835,-1.31872,0,0,0,-0.405406,-0.10542,-0.467069,-0.126327,-1.31872,0,0,0,0,0,0,0,0,0,0,0.370284,-0.0328177,0,0,2.34097e-38,0,0,2,-0.405406,-0.10542,0,0,0,0,-0.467069,-0.126327,1.9603e-19,0,0,0,0,0,0,0,0,0,1,0.115962
8048,0.322266,0,-4.22461,-0.00553148,0.000509106,0.00157877,-0.0466493,-0.00141381,-1.3187,0,0,0,-0.412913,-0.107451,-0.470354,-0.127351,-1.3187,0,0,0,0,0,0,0,0,0,0,0.371282,-0.0322411,0,0,2.34097e-38,0,0,2,-0.412913,-0.107451,0,0,0,0,-0.470354,-0.127351,1.9603e-19,0,0,0,0,0,0,0,0,0,1,0.118197
8064,0.322266,0,-4.22461,-0.00553148,0.000509106,0.00157877,-0.0466493,-0.00141381,-1.3187,0,0,0,-0.419997,-0.109371,-0.473416,-0.128308,-1.3187,0,0,0,0,0,0,0,0,0,0,0.372214,-0.0316892,0,0,2.34097e-38,0,0,2,-0.419997,-0.109371,0,0,0,0,-0.473416,-0.128308,1.9603e-19,0,0,0,0,0,0,0,0,0,1,0.120308
8083,0.397461,0,4.10156,0.00304135,0.0005522,0.000245358,-0.0468476,-0.00146376,-1.31869,0,0,0,-0.429521,-0.111954,-0.477477,-0.129578,-1.31869,0,0,0,0,0,0,0,0,0,0,0.373454,-0.0309523,0,0,2.34097e-38,0,0,2,-0.429521,-0.111954,0,0,0,0,-0.477477,-0.129578,1.9603e-19,0,0,0,0,0,0,0,0,0,1,0.12315
8099,0.397461,0,6.28223,0.0119237,0.00131524,0.000496286,-0.0466996,-0.00147038,-1.31869,0,0,0,-0.437194,-0.114038,-0.480708,-0.130595,-1.31869,0,0,0,0,0,0,0,0,0,0,0.374442,-0.0303531,0,0,2.34097e-38,0,0,2,-0.437194,-0.114038,0,0,0,0,-0.480708,-0.130595,1.9603e-19,0,0,0,0,0,0,0,0,0,1,0.125442
8115,0.397461,0,-7.00098,0.010667,0.000336082,-0.000320433,-0.0465458,-0.00147804,-1.3187,0,0,0,-0.444919,-0.116138,-0.483888,-0.131599,-1.3187,0,0,0,0,0,0,0,0,0,0,0.375419,-0.0297468,0,0,2.34097e-38,0,0,2,-0.444919,-0.116138,0,0,0,0,-0.483888,-0.131599,1.9603e-19,0,0,0,0,0,0,0,0,0,1,0.127752
8132,0.397461,0,-7.00098,0.010667,0.000336082,-0.000320433,-0.0465458,-0.00147804,-1.3187,0,0,0,-0.453182,-0.118387,-0.487223,-0.132653,-1.3187,0,0,0,0,0,0,0,0,0,0,0.376446,-0.0291007,0,0,2.34097e-38,0,0,2,-0.453182,-0.118387,0,0,0,0,-0.487223,-0.132653,1.9603e-19,0,0,0,0,0,0,0,0,0,1,0.130226
8148,0.321289,0,0.0810547,-0.00379536,-0.00028608,0.000792747,-0.0465405,-0.00154425,-1.3187,0,0,0,-0.46101,-0.12052,-0.490331,-0.133638,-1.31871,0,0,0,0,0,0,0,0,0,0,0.377407,-0.0284828,0,0,2.34097e-38,0,0,2,-0.46101,-0.12052,0,0,0,0,-0.490331,-0.133638,1.9603e-19,0,0,0,0,0,0,0,0,0,1,0.132572
8164,0.288086,0,-4.62891,-0.00123719,0.000175915,-6.70546e-05,-0.0465609,-0.00156235,-1.3187,0,0,0,-0.468887,-0.122668,-0.493413,-0.134621,-1.3187,0,0,0,0,0,0,0,0,0,0,0.378361,-0.0278675,0,0,2.34097e-38,0,0,2,-0.468887,-0.122668,0,0,0,0,-0.493413,-0.134621,1.9603e-19,0,0,0,0,0,0,0,0,0,1,0.134935
8180,0.259766,0,-7.12402,-0.000548716,-7.86933e-05,0.000343211,-0.0465691,-0.00157677,-1.31871,0,0,0,-0.476813,-0.124832,-0.496475,-0.135603,-1.31871,0,0,0,0,0,0,0,0,0,0,0.379313,-0.0272428,0,0,2.34097e-38,0,0,2,-0.476813,-0.124832,0,0,0,0,-0.496475,-0.135603,1.9603e-19,0,0,0,0,0,0,0,0,0,1,0.137315
8196,0.259766,0,-7.12402,-0.000548716,-7.86933e-05,0.000343211,-0.0465691,-0.00157677,-1.31871,0,0,0,-0.484789,-0.127012,-0.499514,-0.136579,-1.31871,0,0,0,0,0,0,0,0,0,0,0.380259,-0.0266154,0,0,2.34097e-38,0,0,2,-0.484789,-0.127012,0,0,0,0,-0.499514,-0.136579,1.9603e-19,0,0,0,0,0,0,0,0,0,1,0.139713
8212,0.259766,0,-4.29297,-0.00443037,0.000209293,0.000250133,-0.0466684,-0.00160847,-1.31871,0,0,0,-0.492812,-0.129207,-0.502534,-0.13755,-1.31871,0,0,0,0,0,0,0,0,0,0,0.381201,-0.0259832,0,0,2.34097e-38,0,0,2,-0.492812,-0.129207,0,0,0,0,-0.502534,-0.13755,1.9603e-19,0,0,0,0,0,0,0,0,0,1,0.142128
8228,0.259766,0,-4.29297,-0.00443037,0.000209293,0.000250133,-0.0466684,-0.00160847,-1.31871,0,0,0,-0.500883,-0.131418,-0.505538,-0.138519,-1.31871,0,0,0,0,0,0,0,0,0,0,0.38214,-0.0253472,0,0,2.34097e-38,0,0,2,-0.500883,-0.131418,0,0,0,0,-0.505538,-0.138519,1.9603e-19,0,0,0,0,0,0,0,0,0,1,0.14456
8245,0.333984,0,4.12402,-0.00209039,-8.67362e-06,-0.000705509,-0.0468545,-0.00164342,-1.31872,0,0,0,-0.509512,-0.133784,-0.508713,-0.139545,-1.3187,0,0,0,0,0,0,0,0,0,0,0.383135,-0.0246693,0,0,2.34097e-38,0,0,2,-0.509512,-0.133784,0,0,0,0,-0.508713,-0.139545,1.9603e-19,0,0,0,0,0,0,0,0,0,1,0.147162
8260,0.367188,0,6.24121,-0.000811798,0.000226631,-0.00121391,-0.0468765,-0.00166201,-1.31872,0,0,0,-0.517169,-0.135886,-0.511507,-0.140449,-1.31872,0,0,0,0,0,0,0,0,0,0,0.384012,-0.0240593,0,0,2.34097e-38,0,0,2,-0.517169,-0.135886,0,0,0,0,-0.511507,-0.140449,1.9603e-19,0,0,0,0,0,0,0,0,0,1,0.149474
8275,0.400391,0,-7.00879,-0.00147232,-0.000688129,0.000339368,-0.0469094,-0.0016877,-1.31871,0,0,0,-0.524868,-0.138001,-0.514283,-0.14135,-1.31872,0,0,0,0,0,0,0,0,0,0,0.384886,-0.0234505,0,0,2.34097e-38,0,0,2,-0.524868,-0.138001,0,0,0,0,-0.514283,-0.14135,1.9603e-19,0,0,0,0,0,0,0,0,0,1,0.151801
8291,0.428711,0,7.05957,-0.00220984,-0.000206811,0.000338524,-0.0469351,-0.0017017,-1.31871,0,0,0,-0.533127,-0.140273,-0.517225,-0.142308,-1.31871,0,0,0,0,0,0,0,0,0,0,0.385813,-0.0227985,0,0,2.34097e-38,0,0,2,-0.533127,-0.140273,0,0,0,0,-0.517225,-0.142308,1.9603e-19,0,0,0,0,0,0,0,0,0,1,0.1543
8307,0.416992,0,-5.96387,0.00101021,0.000271092,-0.000364004,-0.0469352,-0.00171717,-1.31873,0,0,0,-0.541433,-0.14256,-0.520149,-0.143265,-1.31873,0,0,0,0,0,0,0,0,0,0,0.386738,-0.022135,0,0,2.34097e-38,0,0,2,-0.541433,-0.14256,0,0,0,0,-0.520149,-0.143265,1.9603e-19,0,0,0,0,0,0,0,0,0,1,0.156815
8324,0.383789,0,0.0566406,0.00426169,0.000552443,-3.30781e-05,-0.046893,-0.00173745,-1.31873,0,0,0,-0.550311,-0.145007,-0.523227,-0.144275,-1.31873,0,0,0,0,0,0,0,0,0,0,0.387714,-0.0214312,0,0,2.34097e-38,0,0,2,-0.550311,-0.145007,0,0,0,0,-0.523227,-0.144275,1.9603e-19,0,0,0,0,0,0,0,0,0,1,0.159507
8340,0.350586,0,-4.72949,0.00459252,0.00131627,0.000900587,-0.0468241,-0.00174786,-1.31872,0,0,0,-0.558712,-0.147325,-0.526091,-0.145218,-1.31872,0,0,0,0,0,0,0,0,0,0,0.388625,-0.0207653,0,0,2.34097e-38,0,0,2,-0.558712,-0.147325,0,0,0,0,-0.526091,-0.145218,1.9603e-19,0,0,0,0,0,0,0,0,0,1,0.162057
8357,0.317383,0,-7.04785,0.00287747,-0.00129056,-0.000379046,-0.0467858,-0.00176967,-1.31872,0,0,0,-0.567159,-0.149658,-0.528923,-0.146154,-1.31872,0,0,0,0,0,0,0,0,0,0,0.389529,-0.0200932,0,0,2.34097e-38,0,0,2,-0.567159,-0.149658,0,0,0,0,-0.528923,-0.146154,1.9603e-19,0,0,0,0,0,0,0,0,0,1,0.164624
8372,0.259766,0,-4.25195,-0.0027349,-0.000974544,0.00037909,-0.0468195,-0.00179498,-1.31873,0,0,0,-0.575651,-0.152006,-0.531728,-0.147083,-1.31872,0,0,0,0,0,0,0,0,0,0,0.390427,-0.0194178,0,0,2.34097e-38,0,0,2,-0.575651,-0.152006,0,0,0,0,-0.531728,-0.147083,1.9603e-19,0,0,0,0,0,0,0,0,0,1,0.167207
8389,0.326172,0,0.762695,-0.0034996,-0.000419161,-8.4733e-06,-0.0468697,-0.00181226,-1.31872,0,0,0,-0.584724,-0.154518,-0.534691,-0.14807,-1.31872,0,0,0,0,0,0,0,0,0,0,0.391378,-0.0186958,0,0,2.34097e-38,0,0,2,-0.584724,-0.154518,0,0,0,0,-0.534691,-0.14807,1.9603e-19,0,0,0,0,0,0,0,0,0,1,0.169969
8405,0.378906,0,-7.17969,-0.00306863,0.000266879,0.000186022,-0.0469046,-0.00181893,-1.31873,0,0,0,-0.593309,-0.156897,-0.537463,-0.148995,-1.31873,0,0,0,0,0,0,0,0,0,0,0.39227,-0.0180091,0,0,2.34097e-38,0,0,2,-0.593309,-0.156897,0,0,0,0,-0.537463,-0.148995,1.9603e-19,0,0,0,0,0,0,0,0,0,1,0.172586
8422,0.453125,0.0205078,4.11914,0.0476188,0.0102435,-0.00621491,-0.0466383,-0.00177444,-1.31877,0,0,0,-0.602478,-0.15944,-0.540371,-0.149963,-1.31877,0,0,0,0,0,0,0,0,0,0,0.39321,-0.0172638,0,0,2.34097e-38,0,0,2,-0.602478,-0.15944,0,0,0,0,-0.540371,-0.149963,1.9603e-19,0,0,0,0,0,0,0,0,0,1,0.175384
8437,1.5625,0.00683594,6.3623,0.94836,0.027532,-0.288934,-0.0374966,-0.00158134,-1.32132,0,0,0,-0.610606,-0.161697,-0.542378,-0.150651,-1.32132,0,0,0,0,0,0,0,0,0,0,0.393935,-0.0156168,0,0,2.34097e-38,0,0,2,-0.610606,-0.161697,0,0,0,0,-0.542378,-0.150651,1.9603e-19,0,0,0,0,0,0,0,0,0,1,0.177867
8454,1.53906,-0.551758,-6.93652,2.89731,-0.166649,-0.684083,-0.000739976,-0.00317742,-1.33115,0,0,0,-0.619289,-0.164111,-0.541562,-0.150695,-1.33115,0,0,0,0,0,0,0,0,0,0,0.394031,-0.0110384,0,0,2.34097e-38,0,0,2,-0.619289,-0.164111,0,0,0,0,-0.541562,-0.150695,1.9603e-19,0,0,0,0,0,0,0,0,0,1,0.180522
8470,-1.46875,-0.739258,-6.04102,3.11112,-0.202043,0.678321,0.0864157,-0.00748485,-1.32225,0,0,0,-0.62844,-0.166664,-0.535285,-0.149622,-1.32225,0,0,0,0,0,0,0,0,0,0,0.392503,-0.0137367,0,0,2.34097e-38,0,0,2,-0.62844,-0.166664,0,0,0,0,-0.535285,-0.149622,1.9603e-19,0,0,0,0,0,0,0,0,0,1,0.18333
8486,-2.65137,-1.25586,0.121094,2.67981,-0.381465,0.941624,0.125184,-0.0147174,-1.31054,0,0,0,-0.636817,-0.169022,-0.515673,-0.14604,-1.31054,0,0,0,0,0,0,0,0,0,0,0.387514,-0.0173106,0,0,2.34097e-38,0,0,2,-0.636817,-0.169022,0,0,0,0,-0.515673,-0.14604,1.9603e-19,0,0,0,0,0,0,0,0,0,1,0.185925
8501,-3.00879,0.105469,-2.87109,1.27017,-0.118516,0.658938,0.145506,-0.0174194,-1.30018,0,0,0,-0.644339,-0.171177,-0.492468,-0.142104,-1.30018,0,0,0,0,0,0,0,0,0,0,0.381619,-0.0201511,0,0,2.34097e-38,0,0,2,-0.644339,-0.171177,0,0,0,0,-0.492468,-0.142104,1.9603e-19,0,0,0,0,0,0,0,0,0,1,0.188295
8517,-2.0957,1.125,-1.25781,0.745995,0.0278611,0.121532,0.157269,-0.0181219,-1.29796,0,0,0,-0.651943,-0.173403,-0.465106,-0.137341,-1.29796,0,0,0,0,0,0,0,0,0,0,0.37483,-0.0197122,0,0,2.34097e-38,0,0,2,-0.651943,-0.173403,0,0,0,0,-0.465106,-0.137341,1.9603e-19,0,0,0,0,0,0,0,0,0,1,0.190743
8533,-2.0957,1.125,-1.25781,0.745995,0.0278611,0.121532,0.157269,-0.0181219,-1.29796,0,0,0,-0.659097,-0.17555,-0.43683,-0.13234,-1.29796,0,0,0,0,0,0,0,0,0,0,0.367844,-0.0184428,0,0,2.34097e-38,0,0,2,-0.659097,-0.17555,0,0,0,0,-0.43683,-0.13234,1.9603e-19,0,0,0,0,0,0,0,0,0,1,0.193105
8550,0.855469,0.163086,-7.11523,0.279503,-0.0623984,-0.392501,0.157907,-0.0188518,-1.30714,0,0,0,-0.666185,-0.17774,-0.407235,-0.127201,-1.30147,0,0,0,0,0,0,0,0,0,0,0.360593,-0.0158388,0,0,2.34097e-38,0,0,2,-0.666185,-0.17774,0,0,0,0,-0.407235,-0.127201,1.9603e-19,0,0,0,0,0,0,0,0,0,1,0.195514
8566,-1.44922,0.0400391,-7.34961,-0.068728,0.0181242,0.0571773,0.157578,-0.0188742,-1.30709,0,0,0,-0.672406,-0.179727,-0.379253,-0.122591,-1.30714,0,0,0,0,0,0,0,0,0,0,0.353766,-0.0125584,0,0,2.34097e-38,0,0,2,-0.672406,-0.179727,0,0,0,0,-0.379253,-0.122591,1.9603e-19,0,0,0,0,0,0,0,0,0,1,0.197699
8583,-1.48828,-0.374023,-6.42969,0.182739,-0.0495645,-0.0706762,0.159817,-0.0189795,-1.30852,0,0,0,-0.678182,-0.18164,-0.351456,-0.118024,-1.30852,0,0,0,0,0,0,0,0,0,0,0.346911,-0.0108626,0,0,2.34097e-38,0,0,2,-0.678182,-0.18164,0,0,0,0,-0.351456,-0.118024,1.9603e-19,0,0,0,0,0,0,0,0,0,1,0.199804
8598,-1.48828,-0.374023,-6.42969,0.182739,-0.0495645,-0.0706762,0.159817,-0.0189795,-1.30852,0,0,0,-0.683513,-0.183481,-0.323617,-0.113463,-1.30852,0,0,0,0,0,0,0,0,0,0,0.340025,-0.00967054,0,0,2.34097e-38,0,0,2,-0.683513,-0.183481,0,0,0,0,-0.323617,-0.113463,1.9603e-19,0,0,0,0,0,0,0,0,0,1,0.201829
8615,-1.78125,0.610352,-5.59766,0.62165,-0.172432,0.292703,0.169474,-0.0208032,-1.30381,0,0,0,-0.688688,-0.185356,-0.293608,-0.108551,-1.30381,0,0,0,0,0,0,0,0,0,0,0.332552,-0.0099781,0,0,2.34097e-38,0,0,2,-0.688688,-0.185356,0,0,0,0,-0.293608,-0.108551,1.9603e-19,0,0,0,0,0,0,0,0,0,1,0.203892
8631,-1.78125,0.610352,-5.59766,0.62165,-0.172432,0.292703,0.169474,-0.0208032,-1.30381,0,0,0,-0.693091,-0.187045,-0.264698,-0.103825,-1.30381,0,0,0,0,0,0,0,0,0,0,0.325391,-0.00876296,0,0,2.34097e-38,0,0,2,-0.693091,-0.187045,0,0,0,0,-0.264698,-0.103825,1.9603e-19,0,0,0,0,0,0,0,0,0,1,0.205749
8647,-4.0957,0.960938,7.20801,0.585228,-2.46973,-0.00631549,0.199683,-0.0880511,-1.30753,0,0,0,-0.697023,-0.188668,-0.233814,-0.101346,-1.30216,0,0,0,0,0,0,0,0,0,0,0.317886,-0.00741785,0,0,2.34097e-38,0,0,2,-0.697023,-0.188668,0,0,0,0,-0.233814,-0.101346,1.9603e-19,0,0,0,0,0,0,0,0,0,1,0.207535
8663,-3.29199,0.966797,-3.41699,0.685642,-3.01885,0.00639497,0.209513,-0.128539,-1.31602,0,0,0,-0.700415,-0.190307,-0.198957,-0.104033,-1.30753,0,0,0,0,0,0,0,0,0,0,0.309799,-0.00235799,0,0,2.34097e-38,0,0,2,-0.700415,-0.190307,0,0,0,0,-0.198957,-0.104033,1.9603e-19,0,0,0,0,0,0,0,0,0,1,0.209338
8678,-3.05469,1.69629,-4.22461,0.68476,-3.42609,0.164046,0.220573,-0.175806,-1.32467,0,0,0,-0.703044,-0.191969,-0.161605,-0.115789,-1.32467,0,0,0,0,0,0,0,0,0,0,0.301565,0.00851885,0,0,2.34097e-38,0,0,2,-0.703044,-0.191969,0,0,0,0,-0.161605,-0.115789,1.9603e-19,0,0,0,0,0,0,0,0,0,1,0.211166
8695,-3.05469,1.69629,-4.22461,0.68476,-3.42609,0.164046,0.220573,-0.175806,-1.32467,0,0,0,-0.705281,-0.194152,-0.116763,-0.134653,-1.32467,0,0,0,0,0,0,0,0,0,0,0.291988,0.0164065,0,0,2.34097e-38,0,0,2,-0.705281,-0.194152,0,0,0,0,-0.116763,-0.134653,1.9603e-19,0,0,0,0,0,0,0,0,0,1,0.213567
8710,-3.81055,2.53711,-5.7207,0.115853,-1.78129,0.0746518,0.232546,-0.243758,-1.33557,0,0,0,-0.706646,-0.196348,-0.0757978,-0.155181,-1.33557,0,0,0,0,0,0,0,0,0,0,0.283169,0.0275532,0,0,2.34097e-38,0,0,2,-0.706646,-0.196348,0,0,0,0,-0.0757978,-0.155181,1.9603e-19,0,0,0,0,0,0,0,0,0,1,0.215982
8726,-3.14648,2.12109,-4.0293,-0.34583,-0.284713,-0.00671144,0.228891,-0.250457,-1.33718,0,0,0,-0.707389,-0.19912,-0.0298322,-0.183871,-1.33718,0,0,0,0,0,0,0,0,0,0,0.273782,0.0383887,0,0,2.34097e-38,0,0,2,-0.707389,-0.19912,0,0,0,0,-0.0298322,-0.183871,1.9603e-19,0,0,0,0,0,0,0,0,0,1,0.219032
8742,-2.54492,1.93848,7.11133,-0.0359847,0.930488,0.0853225,0.218786,-0.225824,-1.33086,0,0,0,-0.707405,-0.202357,0.0149743,-0.212432,-1.33496,0,0,0,0,0,0,0,0,0,0,0.264852,0.0482053,0,0,2.34097e-38,0,0,2,-0.707405,-0.202357,0,0,0,0,0.0149743,-0.212432,1.9603e-19,0,0,0,0,0,0,0,0,0,1,0.222593
8758,-2.43164,1.7168,6.47949,0.348304,0.371918,0.0476114,0.22252,-0.219601,-1.32865,0,0,0,-0.706711,-0.206038,0.0579754,-0.238657,-1.33086,0,0,0,0,0,0,0,0,0,0,0.256403,0.0570275,0,0,2.34097e-38,0,0,2,-0.706711,-0.206038,0,0,0,0,0.0579754,-0.238657,1.9603e-19,0,0,0,0,0,0,0,0,0,1,0.226642
8774,-1.79395,0.754883,-0.0888672,0.401312,0.10306,0.0652618,0.227844,-0.218196,-1.32754,0,0,0,-0.705335,-0.210106,0.10066,-0.262309,-1.32754,0,0,0,0,0,0,0,0,0,0,0.247928,0.0655706,0,0,2.34097e-38,0,0,2,-0.705335,-0.210106,0,0,0,0,0.10066,-0.262309,1.9603e-19,0,0,0,0,0,0,0,0,0,1,0.231117
8791,-1.21777,-0.137695,-2.72656,0.314362,0.319495,0.126948,0.231596,-0.214507,-1.32504,0,0,0,-0.703119,-0.214834,0.14655,-0.286559,-1.32504,0,0,0,0,0,0,0,0,0,0,0.238754,0.0748829,0,0,2.34097e-38,0,0,2,-0.703119,-0.214834,0,0,0,0,0.14655,-0.286559,1.9603e-19,0,0,0,0,0,0,0,0,0,1,0.236318
8807,-0.606445,-0.875977,-4.55176,0.132036,0.415707,0.265257,0.232616,-0.208844,-1.32034,0,0,0,-0.700334,-0.219642,0.189738,-0.30812,-1.32034,0,0,0,0,0,0,0,0,0,0,0.230307,0.0829385,0,0,2.34097e-38,0,0,2,-0.700334,-0.219642,0,0,0,0,0.189738,-0.30812,1.9603e-19,0,0,0,0,0,0,0,0,0,1,0.241606
8823,0.179688,-1.71582,-4.36035,-0.346906,0.308246,0.534482,0.226991,-0.204968,-1.31232,0,0,0,-0.696849,-0.224789,0.232266,-0.328595,-1.31232,0,0,0,0,0,0,0,0,0,0,0.222357,0.0901225,0,0,2.34097e-38,0,0,2,-0.696849,-0.224789,0,0,0,0,0.232266,-0.328595,1.9603e-19,0,0,0,0,0,0,0,0,0,1,0.247268
8839,0.667969,-3.03125,-7.08105,-1.2015,0.202608,0.977192,0.193731,-0.202995,-1.28752,0,0,0,-0.692698,-0.230255,0.273199,-0.348391,-1.30148,0,0,0,0,0,0,0,0,0,0,0.215172,0.0966512,0,0,2.34097e-38,0,0,2,-0.692698,-0.230255,0,0,0,0,0.273199,-0.348391,1.9603e-19,0,0,0,0,0,0,0,0,0,1,0.253281
8856,0.667969,-3.03125,-7.08105,-1.2015,0.202608,0.977192,0.193731,-0.202995,-1.28752,0,0,0,-0.687584,-0.236414,0.313651,-0.369222,-1.28752,0,0,0,0,0,0,0,0,0,0,0.20872,0.10309,0,0,2.34097e-38,0,0,2,-0.687584,-0.236414,0,0,0,0,0.313651,-0.369222,1.9603e-19,0,0,0,0,0,0,0,0,0,1,0.260056
8872,0.831055,-3.60352,7.35742,-0.642852,0.52041,1.30526,0.160352,-0.197031,-1.25299,0,0,0,-0.6822,-0.24252,0.348685,-0.388537,-1.25299,0,0,0,0,0,0,0,0,0,0,0.205868,0.104743,0,0,2.34097e-38,0,0,2,-0.6822,-0.24252,0,0,0,0,0.348685,-0.388537,1.9603e-19,0,0,0,0,0,0,0,0,0,1,0.266772
8888,1.59277,-3.77734,0.905273,-0.424533,1.28354,1.44721,0.149411,-0.18324,-1.23027,0,0,0,-0.676295,-0.248929,0.379182,-0.406319,-1.23027,0,0,0,0,0,0,0,0,0,0,0.203082,0.108435,0,0,2.34097e-38,0,0,2,-0.676295,-0.248929,0,0,0,0,0.379182,-0.406319,1.9603e-19,0,0,0,0,0,0,0,0,0,1,0.273822
8904,2.32129,-3.67578,1.11328,-0.615689,1.91401,1.66759,0.136763,-0.160714,-1.20445,0,0,0,-0.669938,-0.255589,0.407008,-0.420998,-1.20445,0,0,0,0,0,0,0,0,0,0,0.201289,0.110785,0,0,2.34097e-38,0,0,2,-0.669938,-0.255589,0,0,0,0,0.407008,-0.420998,1.9603e-19,0,0,0,0,0,0,0,0,0,1,0.281147
8921,1.90137,-2.30176,-5.61133,-1.27754,2.06261,2.10826,0.0962142,-0.106076,-1.14163,0,0,0,-0.66271,-0.262892,0.433167,-0.432922,-1.17323,0,0,0,0,0,0,0,0,0,0,0.200551,0.11158,0,0,2.34097e-38,0,0,2,-0.66271,-0.262892,0,0,0,0,0.433167,-0.432922,1.9603e-19,0,0,0,0,0,0,0,0,0,1,0.289181
8936,2.31348,-2.50781,-3.01953,-0.580732,1.66472,2.22398,0.0816748,-0.0845459,-1.10862,0,0,0,-0.656035,-0.269452,0.451031,-0.439189,-1.14163,0,0,0,0,0,0,0,0,0,0,0.201318,0.110112,0,0,2.34097e-38,0,0,2,-0.656035,-0.269452,0,0,0,0,0.451031,-0.439189,1.9603e-19,0,0,0,0,0,0,0,0,0,1,0.296397
8952,3.76172,-2.80469,-4.77832,0.496041,1.96046,2.33006,0.0830835,-0.0606775,-1.07411,0,0,0,-0.649122,-0.276081,0.465416,-0.442866,-1.10862,0,0,0,0,0,0,0,0,0,0,0.202846,0.107466,0,0,2.34097e-38,0,0,2,-0.649122,-0.276081,0,0,0,0,0.465416,-0.442866,1.9603e-19,0,0,0,0,0,0,0,0,0,1,0.303689
8967,4.63379,-2.82324,4.37793,1.01641,2.42056,2.4596,0.0940664,-0.0311221,-1.03836,0,0,0,-0.641547,-0.283151,0.477599,-0.440814,-1.03836,0,0,0,0,0,0,0,0,0,0,0.207993,0.0957381,0,0,2.34097e-38,0,0,2,-0.641547,-0.283151,0,0,0,0,0.477599,-0.440814,1.9603e-19,0,0,0,0,0,0,0,0,0,1,0.311467
8984,4.78613,-2.65039,-5.26172,0.681256,2.60453,2.42218,0.104,0.00196713,-1.00056,0,0,0,-0.633296,-0.290559,0.489174,-0.431785,-1.00056,0,0,0,0,0,0,0,0,0,0,0.208907,0.0891877,0,0,2.34097e-38,0,0,2,-0.633296,-0.290559,0,0,0,0,0.489174,-0.431785,1.9603e-19,0,0,0,0,0,0,0,0,0,1,0.319615
9000,4.78613,-2.65039,-5.26172,0.681256,2.60453,2.42218,0.104,0.00196713,-1.00056,0,0,0,-0.625371,-0.29734,0.498829,-0.41928,-1.00056,0,0,0,0,0,0,0,0,0,0,0.206194,0.0894288,0,0,2.34097e-38,0,0,2,-0.625371,-0.29734,0,0,0,0,0.498829,-0.41928,1.9603e-19,0,0,0,0,0,0,0,0,0,1,0.327074
9017,2.46777,-0.103516,-6.58496,-1.28577,2.46953,2.52274,0.0872528,0.0662924,-0.928944,0,0,0,-0.616797,-0.304307,0.505139,-0.402825,-0.928944,0,0,0,0,0,0,0,0,0,0,0.209486,0.0736288,0,0,2.34097e-38,0,0,2,-0.616797,-0.304307,0,0,0,0,0.505139,-0.402825,1.9603e-19,0,0,0,0,0,0,0,0,0,1,0.334738
9033,1.55078,-1.45801,5.61816,-1.66999,0.970914,2.69027,0.0454068,0.103256,-0.850616,0,0,0,-0.608708,-0.310551,0.505845,-0.383079,-0.928944,0,0,0,0,0,0,0,0,0,0,0.207417,0.0711558,0,0,2.34097e-38,0,0,2,-0.608708,-0.310551,0,0,0,0,0.505845,-0.383079,1.9603e-19,0,0,0,0,0,0,0,0,0,1,0.341606
9049,1.30957,-1.46582,-4.61426,-1.12782,0.712364,2.5733,0.0318458,0.111856,-0.813788,0,0,0,-0.60071,-0.316477,0.496489,-0.363144,-0.850616,0,0,0,0,0,0,0,0,0,0,0.211895,0.0506438,0,0,2.34097e-38,0,0,2,-0.60071,-0.316477,0,0,0,0,0.496489,-0.363144,1.9603e-19,0,0,0,0,0,0,0,0,0,1,0.348124
9065,0.665039,-1.36035,-3.23633,-0.501872,0.743386,2.33528,0.0272411,0.121334,-0.779809,0,0,0,-0.592896,-0.322086,0.48385,-0.344024,-0.779809,0,0,0,0,0,0,0,0,0,0,0.214866,0.0310027,0,0,2.34097e-38,0,0,2,-0.592896,-0.322086,0,0,0,0,0.48385,-0.344024,1.9603e-19,0,0,0,0,0,0,0,0,0,1,0.354295
9081,-0.199219,-0.521484,-3.61426,-0.000393108,0.79342,1.93617,0.0299591,0.131177,-0.752152,0,0,0,-0.585307,-0.327388,0.469142,-0.324574,-0.752152,0,0,0,0,0,0,0,0,0,0,0.215668,0.0200379,0,0,2.34097e-38,0,0,2,-0.585307,-0.327388,0,0,0,0,0.469142,-0.324574,1.9603e-19,0,0,0,0,0,0,0,0,0,1,0.360127
9097,-0.199219,-0.521484,-3.61426,-0.000393108,0.79342,1.93617,0.0299591,0.131177,-0.752152,0,0,0,-0.577964,-0.33237,0.453583,-0.304471,-0.752152,0,0,0,0,0,0,0,0,0,0,0.215656,0.0147001,0,0,2.34097e-38,0,0,2,-0.577964,-0.33237,0,0,0,0,0.453583,-0.304471,1.9603e-19,0,0,0,0,0,0,0,0,0,1,0.365607
9113,-0.793945,0.836914,-5.7998,0.458906,0.355232,1.28046,0.0453579,0.145034,-0.711887,0,0,0,-0.570871,-0.337027,0.43786,-0.283482,-0.711887,0,0,0,0,0,0,0,0,0,0,0.215637,0.000439856,0,0,2.34097e-38,0,0,2,-0.570871,-0.337027,0,0,0,0,0.43786,-0.283482,1.9603e-19,0,0,0,0,0,0,0,0,0,1,0.37073
9129,-0.602539,1.91016,-1.24023,0.962106,-0.286451,1.21094,0.0723138,0.139408,-0.676965,0,0,0,-0.564034,-0.341326,0.421782,-0.260918,-0.711887,0,0,0,0,0,0,0,0,0,0,0.214887,-0.00551616,0,0,2.34097e-38,0,0,2,-0.564034,-0.341326,0,0,0,0,0.421782,-0.260918,1.9603e-19,0,0,0,0,0,0,0,0,0,1,0.375458
9146,-1.07129,2.09277,3.8877,0.985305,-0.112126,1.07336,0.088204,0.135275,-0.662255,0,0,0,-0.557019,-0.345472,0.407641,-0.23468,-0.676965,0,0,0,0,0,0,0,0,0,0,0.212554,-0.019166,0,0,2.34097e-38,0,0,2,-0.557019,-0.345472,0,0,0,0,0.407641,-0.23468,1.9603e-19,0,0,0,0,0,0,0,0,0,1,0.38002
9161,-1.07129,2.09277,3.8877,0.985305,-0.112126,1.07336,0.088204,0.135275,-0.662255,0,0,0,-0.551009,-0.348757,0.396868,-0.210372,-0.662255,0,0,0,0,0,0,0,0,0,0,0.209825,-0.0275957,0,0,2.34097e-38,0,0,2,-0.551009,-0.348757,0,0,0,0,0.396868,-0.210372,1.9603e-19,0,0,0,0,0,0,0,0,0,1,0.383633
9176,-2.04102,3.36914,-5.27246,-0.0298605,0.538618,0.425573,0.102219,0.142409,-0.641399,0,0,0,-0.545159,-0.351677,0.386154,-0.185671,-0.641399,0,0,0,0,0,0,0,0,0,0,0.206502,-0.0373259,0,0,2.34097e-38,0,0,2,-0.545159,-0.351677,0,0,0,0,0.386154,-0.185671,1.9603e-19,0,0,0,0,0,0,0,0,0,1,0.386845
9193,-1.96387,3.93359,-5.03418,-0.447049,0.248208,0.119378,0.0972525,0.146033,-0.638861,0,0,0,-0.539102,-0.354356,0.374377,-0.157957,-0.638861,0,0,0,0,0,0,0,0,0,0,0.203192,-0.0439055,0,0,2.34097e-38,0,0,2,-0.539102,-0.354356,0,0,0,0,0.374377,-0.157957,1.9603e-19,0,0,0,0,0,0,0,0,0,1,0.389792
9209,-0.417969,3.68848,3.35547,-0.717147,-0.062327,0.00360606,0.0875994,0.144374,-0.638972,0,0,0,-0.532883,-0.356725,0.361009,-0.129569,-0.638972,0,0,0,0,0,0,0,0,0,0,0.200016,-0.0504096,0,0,2.34097e-38,0,0,2,-0.532883,-0.356725,0,0,0,0,0.361009,-0.129569,1.9603e-19,0,0,0,0,0,0,0,0,0,1,0.392397
9225,0.484375,3.86816,3.89648,-1.30629,0.612123,0.143527,0.0580334,0.150873,-0.636065,0,0,0,-0.527244,-0.35853,0.347678,-0.104482,-0.638234,0,0,0,0,0,0,0,0,0,0,0.197326,-0.0566747,0,0,2.34097e-38,0,0,2,-0.527244,-0.35853,0,0,0,0,0.347678,-0.104482,1.9603e-19,0,0,0,0,0,0,0,0,0,1,0.394383
9241,-0.181641,3.88184,3.15625,-1.65085,0.877808,0.274652,0.0360209,0.162068,-0.631823,0,0,0,-0.521835,-0.359954,0.33248,-0.081388,-0.636065,0,0,0,0,0,0,0,0,0,0,0.19513,-0.0633559,0,0,2.34097e-38,0,0,2,-0.521835,-0.359954,0,0,0,0,0.33248,-0.081388,1.9603e-19,0,0,0,0,0,0,0,0,0,1,0.39595
9258,-1.1416,2.99121,2.74609,-1.46074,0.806869,0.328288,0.0160237,0.172559,-0.627052,0,0,0,-0.516416,-0.361101,0.310977,-0.0600456,-0.627052,0,0,0,0,0,0,0,0,0,0,0.19364,-0.0724111,0,0,2.34097e-38,0,0,2,-0.516416,-0.361101,0,0,0,0,0.310977,-0.0600456,1.9603e-19,0,0,0,0,0,0,0,0,0,1,0.397211
9274,-2.1123,2.42676,3.73242,-0.689982,0.576157,0.23443,0.00551854,0.180711,-0.623055,0,0,0,-0.511676,-0.361874,0.287487,-0.0417651,-0.623055,0,0,0,0,0,0,0,0,0,0,0.193237,-0.0804961,0,0,2.34097e-38,0,0,2,-0.511676,-0.361874,0,0,0,0,0.287487,-0.0417651,1.9603e-19,0,0,0,0,0,0,0,0,0,1,0.398061
9290,-3.1416,2.64844,4.92383,0.0376917,0.0715353,-0.125698,0.00517479,0.182362,-0.623739,0,0,0,-0.507338,-0.362357,0.262528,-0.0240869,-0.623739,0,0,0,0,0,0,0,0,0,0,0.193457,-0.0879325,0,0,2.34097e-38,0,0,2,-0.507338,-0.362357,0,0,0,0,0.262528,-0.0240869,1.9603e-19,0,0,0,0,0,0,0,0,0,1,0.398592
9306,-3.02051,2.57227,3.76953,0.542481,-0.447709,-0.410562,0.0115377,0.176246,-0.629162,0,0,0,-0.503397,-0.362556,0.238175,-0.00633479,-0.629162,0,0,0,0,0,0,0,0,0,0,0.19397,-0.094384,0,0,2.34097e-38,0,0,2,-0.503397,-0.362556,0,0,0,0,0.238175,-0.00633479,1.9603e-19,0,0,0,0,0,0,0,0,0,1,0.398812
9323,-0.980469,1.62695,1.52246,0.505821,-0.0339351,-0.48448,0.0254692,0.168169,-0.64341,0,0,0,-0.499627,-0.362448,0.214131,0.0128175,-0.636667,0,0,0,0,0,0,0,0,0,0,0.194372,-0.100623,0,0,2.34097e-38,0,0,2,-0.499627,-0.362448,0,0,0,0,0.214131,0.0128175,1.9603e-19,0,0,0,0,0,0,0,0,0,1,0.398692
9339,-1.3584,1.70508,-1.6377,0.529267,0.0822398,-0.469497,0.0314941,0.168945,-0.649902,0,0,0,-0.496415,-0.362054,0.193301,0.0314626,-0.64341,0,0,0,0,0,0,0,0,0,0,0.194355,-0.106338,0,0,2.34097e-38,0,0,2,-0.496415,-0.362054,0,0,0,0,0.193301,0.0314626,1.9603e-19,0,0,0,0,0,0,0,0,0,1,0.39826
9355,-2.38867,1.76953,-2.5957,0.483376,-0.144878,-0.589115,0.0379341,0.167562,-0.657871,0,0,0,-0.493529,-0.361343,0.173736,0.0513532,-0.657871,0,0,0,0,0,0,0,0,0,0,0.194773,-0.110547,0,0,2.34097e-38,0,0,2,-0.493529,-0.361343,0,0,0,0,0.173736,0.0513532,1.9603e-19,0,0,0,0,0,0,0,0,0,1,0.397477
9372,-2.92578,1.72363,-1.31641,0.400527,-0.387108,-0.712238,0.0422025,0.162365,-0.667659,0,0,0,-0.490791,-0.36023,0.154479,0.0731416,-0.667659,0,0,0,0,0,0,0,0,0,0,0.194309,-0.115978,0,0,2.34097e-38,0,0,2,-0.490791,-0.36023,0,0,0,0,0.154479,0.0731416,1.9603e-19,0,0,0,0,0,0,0,0,0,1,0.396253
9387,-2.48047,1.76465,1.28418,0.258374,-0.375371,-0.813448,0.0447811,0.156871,-0.678994,0,0,0,-0.488628,-0.358947,0.138833,0.0923029,-0.678994,0,0,0,0,0,0,0,0,0,0,0.194065,-0.120042,0,0,2.34097e-38,0,0,2,-0.488628,-0.358947,0,0,0,0,0.138833,0.0923029,1.9603e-19,0,0,0,0,0,0,0,0,0,1,0.394842
9402,-1.88281,1.5752,3.01367,0.229068,-0.280367,-0.94622,0.0458735,0.152856,-0.69183,0,0,0,-0.486688,-0.357379,0.124286,0.111259,-0.69183,0,0,0,0,0,0,0,0,0,0,0.193928,-0.12364,0,0,2.34097e-38,0,0,2,-0.486688,-0.357379,0,0,0,0,0.124286,0.111259,1.9603e-19,0,0,0,0,0,0,0,0,0,1,0.393117
9419,-0.689453,1.66602,-0.982422,0.672615,-0.280765,-1.01822,0.0561482,0.147357,-0.721373,0,0,0,-0.484747,-0.355253,0.108883,0.132681,-0.706499,0,0,0,0,0,0,0,0,0,0,0.193702,-0.127567,0,0,2.34097e-38,0,0,2,-0.484747,-0.355253,0,0,0,0,0.108883,0.132681,1.9603e-19,0,0,0,0,0,0,0,0,0,1,0.390778
9435,-0.351562,1.74219,0.982422,0.346444,-0.373597,-0.989421,0.060158,0.142496,-0.735183,0,0,0,-0.483142,-0.352921,0.0958469,0.153272,-0.721373,0,0,0,0,0,0,0,0,0,0,0.193384,-0.130942,0,0,2.34097e-38,0,0,2,-0.483142,-0.352921,0,0,0,0,0.0958469,0.153272,1.9603e-19,0,0,0,0,0,0,0,0,0,1,0.388214
9451,-0.338867,1.9834,2.76855,-0.207646,-0.181842,-0.924537,0.05631,0.139554,-0.74861,0,0,0,-0.481724,-0.35025,0.0848564,0.174029,-0.74861,0,0,0,0,0,0,0,0,0,0,0.194408,-0.131672,0,0,2.34097e-38,0,0,2,-0.481724,-0.35025,0,0,0,0,0.0848564,0.174029,1.9603e-19,0,0,0,0,0,0,0,0,0,1,0.385275
9468,-0.757812,1.50586,6.19922,-0.368902,-0.0035603,-0.877609,0.0494797,0.139367,-0.761048,0,0,0,-0.480479,-0.347255,0.074038,0.193898,-0.761048,0,0,0,0,0,0,0,0,0,0,0.193703,-0.135196,0,0,2.34097e-38,0,0,2,-0.480479,-0.347255,0,0,0,0,0.074038,0.193898,1.9603e-19,0,0,0,0,0,0,0,0,0,1,0.381981
9485,-0.830078,0.916992,0.805664,0.0485074,-0.0955786,-0.906839,0.0473534,0.138952,-0.77328,0,0,0,-0.479294,-0.34351,0.0616141,0.215431,-0.77328,0,0,0,0,0,0,0,0,0,0,0.192922,-0.139519,0,0,2.34097e-38,0,0,2,-0.479294,-0.34351,0,0,0,0,0.0616141,0.215431,1.9603e-19,0,0,0,0,0,0,0,0,0,1,0.37786
9501,-0.603516,0.558594,5.35449,0.798704,-0.311017,-0.929585,0.0552151,0.135478,-0.786471,0,0,0,-0.478421,-0.339863,0.051287,0.234535,-0.786471,0,0,0,0,0,0,0,0,0,0,0.192491,-0.142876,0,0,2.34097e-38,0,0,2,-0.478421,-0.339863,0,0,0,0,0.051287,0.234535,1.9603e-19,0,0,0,0,0,0,0,0,0,1,0.37385
9518,0.22168,0.600586,1.09277,1.05291,-0.509559,-0.735264,0.0820596,0.121716,-0.810068,0,0,0,-0.477654,-0.335649,0.0423284,0.255383,-0.798735,0,0,0,0,0,0,0,0,0,0,0.191389,-0.146632,0,0,2.34097e-38,0,0,2,-0.477654,-0.335649,0,0,0,0,0.0423284,0.255383,1.9603e-19,0,0,0,0,0,0,0,0,0,1,0.369213
9534,-0.0380859,0.235352,-0.890625,0.850051,-0.128076,-0.652621,0.0929857,0.119619,-0.819482,0,0,0,-0.477019,-0.331351,0.0383673,0.276233,-0.819482,0,0,0,0,0,0,0,0,0,0,0.190749,-0.147979,0,0,2.34097e-38,0,0,2,-0.477019,-0.331351,0,0,0,0,0.0383673,0.276233,1.9603e-19,0,0,0,0,0,0,0,0,0,1,0.364486
9550,0.0693359,-0.149414,7.05176,0.733291,0.129374,-0.701022,0.101788,0.121675,-0.828703,0,0,0,-0.47643,-0.326704,0.0361718,0.298077,-0.828703,0,0,0,0,0,0,0,0,0,0,0.187955,-0.151552,0,0,2.34097e-38,0,0,2,-0.47643,-0.326704,0,0,0,0,0.0361718,0.298077,1.9603e-19,0,0,0,0,0,0,0,0,0,1,0.359374
9566,0.0693359,-0.149414,7.05176,0.733291,0.129374,-0.701022,0.101788,0.121675,-0.828703,0,0,0,-0.475866,-0.321697,0.0347573,0.320652,-0.828703,0,0,0,0,0,0,0,0,0,0,0.183471,-0.156965,0,0,2.34097e-38,0,0,2,-0.475866,-0.321697,0,0,0,0,0.0347573,0.320652,1.9603e-19,0,0,0,0,0,0,0,0,0,1,0.353867
9582,0.729492,-0.112305,-6.33984,0.154139,0.187961,-0.739041,0.109325,0.129485,-0.848681,0,0,0,-0.475323,-0.316335,0.0335713,0.343699,-0.848681,0,0,0,0,0,0,0,0,0,0,0.18201,-0.158895,0,0,2.34097e-38,0,0,2,-0.475323,-0.316335,0,0,0,0,0.0335713,0.343699,1.9603e-19,0,0,0,0,0,0,0,0,0,1,0.347969
9598,0.729492,-0.112305,-6.33984,0.154139,0.187961,-0.739041,0.109325,0.129485,-0.848681,0,0,0,-0.474795,-0.310592,0.0327551,0.367654,-0.848681,0,0,0,0,0,0,0,0,0,0,0.177161,-0.164709,0,0,2.34097e-38,0,0,2,-0.474795,-0.310592,0,0,0,0,0.0327551,0.367654,1.9603e-19,0,0,0,0,0,0,0,0,0,1,0.341651
9615,1.56641,-1.7998,2.1084,-0.233517,0.30312,-0.950198,0.097319,0.143217,-0.882734,0,0,0,-0.474249,-0.304063,0.0314225,0.393064,-0.870197,0,0,0,0,0,0,0,0,0,0,0.175665,-0.167303,0,0,2.34097e-38,0,0,2,-0.474249,-0.304063,0,0,0,0,0.0314225,0.393064,1.9603e-19,0,0,0,0,0,0,0,0,0,1,0.334469
9630,1.28906,-1.4248,6.34277,-0.169238,0.332113,-0.9542,0.0925799,0.149278,-0.895693,0,0,0,-0.473802,-0.297955,0.0288792,0.4156,-0.882734,0,0,0,0,0,0,0,0,0,0,0.173595,-0.171141,0,0,2.34097e-38,0,0,2,-0.473802,-0.297955,0,0,0,0,0.0288792,0.4156,1.9603e-19,0,0,0,0,0,0,0,0,0,1,0.32775
9646,0.308594,-1.14551,-3.00488,-0.062759,0.143021,-1.02514,0.0891229,0.152987,-0.909293,0,0,0,-0.473376,-0.291059,0.0252867,0.439801,-0.909293,0,0,0,0,0,0,0,0,0,0,0.173906,-0.173293,0,0,2.34097e-38,0,0,2,-0.473376,-0.291059,0,0,0,0,0.0252867,0.439801,1.9603e-19,0,0,0,0,0,0,0,0,0,1,0.320164
9662,-0.508789,-0.407227,3.78711,0.126416,-0.0418484,-0.877382,0.0884593,0.153473,-0.92213,0,0,0,-0.473012,-0.283768,0.0214446,0.46396,-0.92213,0,0,0,0,0,0,0,0,0,0,0.172022,-0.178037,0,0,2.34097e-38,0,0,2,-0.473012,-0.283768,0,0,0,0,0.0214446,0.46396,1.9603e-19,0,0,0,0,0,0,0,0,0,1,0.312145
9678,-0.481445,0.654297,0.610352,0.117259,-0.200588,-0.492862,0.0893037,0.151569,-0.929895,0,0,0,-0.472706,-0.2761,0.0179909,0.487903,-0.929895,0,0,0,0,0,0,0,0,0,0,0.169251,-0.183701,0,0,2.34097e-38,0,0,2,-0.472706,-0.2761,0,0,0,0,0.0179909,0.487903,1.9603e-19,0,0,0,0,0,0,0,0,0,1,0.30371
9695,-0.481445,0.654297,0.610352,0.117259,-0.200588,-0.492862,0.0893037,0.151569,-0.929895,0,0,0,-0.472436,-0.267528,0.0146827,0.513047,-0.929895,0,0,0,0,0,0,0,0,0,0,0.164746,-0.191123,0,0,2.34097e-38,0,0,2,-0.472436,-0.267528,0,0,0,0,0.0146827,0.513047,1.9603e-19,0,0,0,0,0,0,0,0,0,1,0.294281
9711,0.55957,-0.804688,-6.96094,-0.158817,-0.360532,-0.167189,0.0843022,0.137569,-0.942612,0,0,0,-0.472243,-0.259622,0.0120928,0.534537,-0.939707,0,0,0,0,0,0,0,0,0,0,0.162683,-0.195973,0,0,2.34097e-38,0,0,2,-0.472243,-0.259622,0,0,0,0,0.0120928,0.534537,1.9603e-19,0,0,0,0,0,0,0,0,0,1,0.285584
9727,0.379883,-0.671875,4.99219,-0.205928,-0.321,-0.109631,0.0809496,0.133105,-0.944666,0,0,0,-0.472064,-0.250272,0.00979735,0.557287,-0.944666,0,0,0,0,0,0,0,0,0,0,0.159278,-0.202192,0,0,2.34097e-38,0,0,2,-0.472064,-0.250272,0,0,0,0,0.00979735,0.557287,1.9603e-19,0,0,0,0,0,0,0,0,0,1,0.275299
