timestamp,A_x,A_y,A_z,P,Q,R,Phi,Theta,Psi,poseX,poseY,poseZ,state_X,state_Y,state_Z,state_VzB,state_Bx,state_By,state_Bz,p1_x,p1_y,p2_x,p2_y,p3_x,p3_y,p4_x,p4_y,roll,pitch,yaw,alt,targetHeading,highLevelState,lowLevelState,gateNumber,filtered_x,filtered_y
10,0,0,0,0,0,0,0,0,0,0,0,0,0,0,0,0,0,0,0,0,0,0,0,0,0,0,0,0,-0.261799,0.0141372,-1.5,0,0,0,0,0,0
20,-3.20974e-12,6.13552e-38,-1.5448e-06,-3.27649e-12,6.13504e-38,0,-1.06589e-13,0,0,0,0,0,0,0,0,0,0,0,0,0,0,0,0,0,0,0,0,0,-0.261799,0.63146,-1.5,0,0,0,0,0,0
30,-3.20974e-12,6.13552e-38,-1.5448e-06,-3.27649e-12,6.13504e-38,-3.40902e-12,-1.0659e-13,0,0,0,0,0,0,0,0,0,0,0,0,0,0,0,0,0,0,0,0,0,-0.261799,0.655021,-1.5,0,0,0,0,0,0
40,-3.20974e-12,6.13552e-38,-1.5448e-06,-3.27649e-12,6.13504e-38,0,-1.0659e-13,0,0,0,0,0,0,0,0,0,0,0,0,0,0,0,0,0,0,0,0,0,-0.261799,0.700575,-1.5,0,0,0,0,0,0
50,-3.20974e-12,6.13552e-38,-1.5448e-06,-3.27649e-12,6.13504e-38,-3.40902e-12,-1.0659e-13,0,0,0,0,0,0,0,0,0,0,0,0,0,0,0,0,0,0,0,0,0,-0.261799,0.733561,-1.5,0,0,0,0,0,0
60,-3.20974e-12,6.13552e-38,-1.5448e-06,-3.27649e-12,6.13504e-38,0,-1.0659e-13,0,0,0,0,0,0,0,0,0,0,0,0,0,0,0,0,0,0,0,0,0,-0.261799,0.799535,-1.5,0,0,0,0,0,0
70,-3.20974e-12,6.13552e-38,-1.5448e-06,-3.27649e-12,6.13504e-38,-3.40902e-12,-1.06591e-13,0,0,0,0,0,0,0,0,0,0,0,0,0,0,0,0,0,0,0,0,0,-0.261799,0.832521,-1.5,0,0,0,0,0,0
80,-3.20974e-12,6.13552e-38,-1.5448e-06,-3.27649e-12,6.13504e-38,0,-1.06591e-13,0,0,0,0,0,0,0,0,0,0,0,0,0,0,0,0,0,0,0,0,0,-0.261799,0.863937,-1.5,0,0,0,0,0,0
90,-3.20974e-12,6.13552e-38,-1.5448e-06,-3.27649e-12,6.13504e-38,-3.40902e-12,-1.06591e-13,0,0,0,0,0,0,0,0,0,0,0,0,0,0,0,0,0,0,0,0,0,-0.261799,0.896924,-1.5,0,0,0,0,0,0
100,-3.20974e-12,6.13552e-38,-1.5448e-06,-3.27649e-12,6.13504e-38,0,-1.06591e-13,0,0,0,0,0,0,0,0,0,0,0,0,0,0,0,0,0,0,0,0,0,-0.261799,0.92991,-1.5,0,0,0,0,0,0
110,-3.20974e-12,6.13552e-38,-1.5448e-06,-3.27649e-12,6.13504e-38,-3.40902e-12,-1.06592e-13,0,0,0,0,0,0,0,0,0,0,0,0,0,0,0,0,0,0,0,0,0,-0.261799,0.961326,-1.5,0,0,0,0,0,0
120,-3.20974e-12,6.13552e-38,-1.5448e-06,-3.27649e-12,6.13504e-38,0,-1.06592e-13,0,0,0,0,0,0,0,0,0,0,0,0,0,0,0,0,0,0,0,0,0,-0.261799,0.994313,-1.5,0,0,0,0,0,0
130,-3.20974e-12,6.13552e-38,-1.5448e-06,-3.27649e-12,6.13504e-38,-3.40902e-12,-1.06592e-13,0,0,0,0,0,0,0,0,0,0,0,0,0,0,0,0,0,0,0,0,0,-0.261799,1.02887,-1.5,0,0,0,0,0,0
140,-3.20974e-12,6.13552e-38,-1.5448e-06,-3.27649e-12,6.13504e-38,0,-1.06593e-13,0,0,0,0,0,0,0,0,0,0,0,0,0,0,0,0,0,0,0,0,0,-0.261799,1.06657,-1.5,0,0,0,0,0,0
150,-3.20974e-12,6.13552e-38,-1.5448e-06,-3.27649e-12,6.13504e-38,-3.40902e-12,-1.06593e-13,0,0,0,0,0,0,0,0,0,0,0,0,0,0,0,0,0,0,0,0,0,-0.261799,1.10113,-1.5,0,0,0,0,0,0
160,-3.20974e-12,6.13552e-38,-1.5448e-06,-3.27649e-12,6.13504e-38,0,-1.06593e-13,0,0,0,0,0,0,0,0,0,0,0,0,0,0,0,0,0,0,0,0,0,-0.261799,1.13254,-1.5,0,0,0,0,0,0
170,-3.20974e-12,6.13552e-38,-1.5448e-06,-3.27649e-12,6.13504e-38,-3.40902e-12,-1.06593e-13,0,0,0,0,0,0,0,0,0,0,0,0,0,0,0,0,0,0,0,0,0,-0.261799,1.16553,-1.5,0,0,0,0,0,0
180,-3.20974e-12,6.13552e-38,-1.5448e-06,-3.27649e-12,6.13504e-38,0,-1.06594e-13,0,0,0,0,0,0,0,0,0,0,0,0,0,0,0,0,0,0,0,0,0,-0.261799,1.20009,-1.5,0,0,0,0,0,0
190,-3.20974e-12,6.13552e-38,-1.5448e-06,-3.27649e-12,6.13504e-38,-3.40902e-12,-1.06594e-13,0,0,0,0,0,0,0,0,0,0,0,0,0,0,0,0,0,0,0,0,0,-0.261799,1.24878,-1.5,0,0,0,0,0,0
200,-3.20974e-12,6.13552e-38,-1.5448e-06,-3.27649e-12,6.13504e-38,0,-1.06594e-13,0,0,0,0,0,0,0,0,0,0,0,0,0,0,0,0,0,0,0,0,0,-0.261799,1.28334,-1.5,0,0,0,0,0,0
210,-3.20974e-12,6.13552e-38,-1.5448e-06,-3.27649e-12,6.13504e-38,-3.40902e-12,-1.06594e-13,0,0,0,0,0,0,0,0,0,0,0,0,0,0,0,0,0,0,0,0,0,-0.261799,1.31476,-1.5,0,0,0,0,0,0
220,-3.20974e-12,6.13552e-38,-1.5448e-06,-3.27649e-12,6.13504e-38,0,-1.06595e-13,0,0,0,0,0,0,0,0,0,0,0,0,0,0,0,0,0,0,0,0,0,-0.261799,1.34774,-1.5,0,0,0,0,0,0
230,-3.20974e-12,6.13552e-38,-1.5448e-06,-3.27649e-12,6.13504e-38,-3.40902e-12,-1.06595e-13,0,0,0,0,0,0,0,0,0,0,0,0,0,0,0,0,0,0,0,0,0,-0.261799,1.38073,-1.5,0,0,0,0,0,0
240,-3.20974e-12,6.13552e-38,-1.5448e-06,-3.27649e-12,6.13504e-38,0,-1.06595e-13,0,0,0,0,0,0,0,0,0,0,0,0,0,0,0,0,0,0,0,0,0,-0.261799,1.41529,-1.5,0,0,0,0,0,0
250,-3.20974e-12,6.13552e-38,-1.5448e-06,-3.27649e-12,6.13504e-38,-3.40902e-12,-1.06596e-13,0,0,0,0,0,0,0,0,0,0,0,0,0,0,0,0,0,0,0,0,0,-0.261799,1.44513,-1.5,0,0,0,0,0,0
260,-3.20974e-12,6.13552e-38,-1.5448e-06,-3.27649e-12,6.13504e-38,0,-1.06596e-13,0,0,0,0,0,0,0,0,0,0,0,0,0,0,0,0,0,0,0,0,0,-0.261799,1.4687,-1.5,0,0,0,0,0,0
270,-3.20974e-12,6.13552e-38,-1.5448e-06,-3.27649e-12,6.13504e-38,-3.40902e-12,-1.06596e-13,0,0,0,0,0,0,0,0,0,0,0,0,0,0,0,0,0,0,0,0,0,-0.261799,1.48912,-1.5,0,0,0,0,0,0
280,-3.20974e-12,6.13552e-38,-1.5448e-06,-3.27649e-12,6.13504e-38,0,-1.06596e-13,0,0,0,0,0,0,0,0,0,0,0,0,0,0,0,0,0,0,0,0,0,-0.261799,1.51425,-1.5,0,0,0,0,0,0
290,-3.20974e-12,6.13552e-38,-1.5448e-06,-3.27649e-12,6.13504e-38,-3.40902e-12,-1.06597e-13,0,0,0,0,0,0,0,0,0,0,0,0,0,0,0,0,0,0,0,0,0,-0.261799,1.54095,-1.5,0,0,0,0,0,0
300,-3.20976e-12,6.12659e-38,6.12987e-38,-3.27649e-12,6.13504e-38,0,-1.06597e-13,0,0,0,0,0,0,0,0,0,0,0,0,0,0,0,0,0,0,0,0,0,-0.261799,1.57394,-1.5,0,0,0,0,0,0
310,-3.20974e-12,6.13552e-38,-1.5448e-06,-3.27649e-12,6.13504e-38,-3.40902e-12,-1.06597e-13,0,0,0,0,0,0,0,0,0,0,0,0,0,0,0,0,0,0,0,0,0,-0.261799,1.60693,-1.5,0,0,0,0,0,0
320,-3.20974e-12,6.13552e-38,-1.5448e-06,-3.27649e-12,6.13504e-38,0,-1.06597e-13,0,0,0,0,0,0,0,0,0,0,0,0,0,0,0,0,0,0,0,0,0,-0.261799,1.63991,-1.5,0,0,0,0,0,0
330,-3.20974e-12,6.13552e-38,-1.5448e-06,-3.27649e-12,6.13504e-38,-3.40902e-12,-1.06598e-13,0,0,0,0,0,0,0,0,0,0,0,0,0,0,0,0,0,0,0,0,0,-0.261799,1.6729,-1.5,0,0,0,0,0,0
340,-3.20974e-12,6.13552e-38,-1.5448e-06,-3.27649e-12,6.13504e-38,0,-1.06598e-13,0,0,0,0,0,0,0,0,0,0,0,0,0,0,0,0,0,0,0,0,0,-0.261799,1.70746,-1.5,0,0,0,0,0,0
350,-3.20974e-12,6.13552e-38,-1.5448e-06,-3.27649e-12,6.13504e-38,-3.40902e-12,-1.06598e-13,0,0,0,0,0,0,0,0,0,0,0,0,0,0,0,0,0,0,0,0,0,-0.261799,1.74044,-1.5,0,0,0,0,0,0
360,-3.20974e-12,6.13552e-38,-1.5448e-06,-3.27649e-12,6.13504e-38,0,-1.06599e-13,0,0,0,0,0,0,0,0,0,0,0,0,0,0,0,0,0,0,0,0,0,-0.261799,1.775,-1.5,0,0,0,0,0,0
370,-3.20974e-12,6.13552e-38,-1.5448e-06,-3.27649e-12,6.13504e-38,-3.40902e-12,-1.06599e-13,0,0,0,0,0,0,0,0,0,0,0,0,0,0,0,0,0,0,0,0,0,-0.261799,1.80956,-1.5,0,0,0,0,0,0
380,-3.20974e-12,6.13552e-38,-1.5448e-06,-3.27649e-12,6.13504e-38,0,-1.06599e-13,0,0,0,0,0,0,0,0,0,0,0,0,0,0,0,0,0,0,0,0,0,-0.261799,1.84255,-1.5,0,0,0,0,0,0
390,-3.20974e-12,6.13552e-38,-1.5448e-06,-3.27649e-12,6.13504e-38,-3.40902e-12,-1.06599e-13,0,0,0,0,0,0,0,0,0,0,0,0,0,0,0,0,0,0,0,0,0,-0.261799,1.87553,-1.5,0,0,0,0,0,0
400,-3.20974e-12,6.13552e-38,-1.5448e-06,-3.27649e-12,6.13504e-38,0,-1.066e-13,0,0,0,0,0,0,0,0,0,0,0,0,0,0,0,0,0,0,0,0,0,-0.261799,1.91009,-1.5,0,0,0,0,0,0
410,-3.20974e-12,6.13552e-38,-1.5448e-06,-3.27649e-12,6.13504e-38,-3.40902e-12,-1.066e-13,0,0,0,0,0,0,0,0,0,0,0,0,0,0,0,0,0,0,0,0,0,-0.261799,1.94308,-1.5,0,0,0,0,0,0
420,-3.20974e-12,6.13552e-38,-1.5448e-06,-3.27649e-12,6.13504e-38,0,-1.066e-13,0,0,0,0,0,0,0,0,0,0,0,0,0,0,0,0,0,0,0,0,0,-0.261799,1.97763,-1.5,0,0,0,0,0,0
430,-3.20974e-12,6.13552e-38,-1.5448e-06,-3.27649e-12,6.13504e-38,-3.40902e-12,-1.066e-13,0,0,0,0,0,0,0,0,0,0,0,0,0,0,0,0,0,0,0,0,0,-0.261799,2.01219,-1.5,0,0,0,0,0,0
440,-3.20974e-12,6.13552e-38,-1.5448e-06,-3.27649e-12,6.13504e-38,0,-1.06601e-13,0,0,0,0,0,0,0,0,0,0,0,0,0,0,0,0,0,0,0,0,0,-0.261799,2.04675,-1.5,0,0,0,0,0,0
450,-3.20974e-12,6.13552e-38,-1.5448e-06,-3.27649e-12,6.13504e-38,-3.40902e-12,-1.06601e-13,0,0,0,0,0,0,0,0,0,0,0,0,0,0,0,0,0,0,0,0,0,-0.261799,2.07974,-1.5,0,0,0,0,0,0
460,-3.20974e-12,6.13552e-38,-1.5448e-06,-3.27649e-12,6.13504e-38,0,-1.06601e-13,0,0,0,0,0,0,0,0,0,0,0,0,0,0,0,0,0,0,0,0,0,-0.261799,2.11272,-1.5,0,0,0,0,0,0
470,-3.20974e-12,6.13552e-38,-1.5448e-06,-3.27649e-12,6.13504e-38,-3.40902e-12,-1.06602e-13,0,0,0,0,0,0,0,0,0,0,0,0,0,0,0,0,0,0,0,0,0,-0.261799,2.14571,-1.5,0,0,0,0,0,0
480,-3.20974e-12,6.13552e-38,-1.5448e-06,-3.27649e-12,6.13504e-38,0,-1.06602e-13,0,0,0,0,0,0,0,0,0,0,0,0,0,0,0,0,0,0,0,0,0,-0.261799,2.18027,-1.5,0,0,0,0,0,0
490,-3.20974e-12,6.13552e-38,-1.5448e-06,-3.27649e-12,6.13504e-38,-3.40902e-12,-1.06602e-13,0,0,0,0,0,0,0,0,0,0,0,0,0,0,0,0,0,0,0,0,0,-0.261799,2.21326,-1.5,0,0,0,0,0,0
500,-3.20974e-12,6.13552e-38,-1.5448e-06,-3.27649e-12,6.13504e-38,0,-1.06602e-13,0,0,0,0,0,0,0,0,0,0,0,0,0,0,0,0,0,0,0,0,0,-0.261799,2.24781,-1.5,0,0,0,0,0,0
510,-3.20974e-12,6.13552e-38,-1.5448e-06,-3.27649e-12,6.13504e-38,-3.40902e-12,-1.06603e-13,0,0,0,0,0,0,0,0,0,0,0,0,0,0,0,0,0,0,0,0,0,-0.261799,2.28551,-1.5,0,0,0,0,0,0
520,-3.20974e-12,6.13552e-38,-1.5448e-06,-3.27649e-12,6.13504e-38,0,-1.06603e-13,0,0,0,0,0,0,0,0,0,0,0,0,0,0,0,0,0,0,0,0,0,-0.261799,2.31222,-1.5,0,0,0,0,0,0
530,-3.20974e-12,6.13552e-38,-1.5448e-06,-3.27649e-12,6.13504e-38,-3.40902e-12,-1.06603e-13,0,0,0,0,0,0,0,0,0,0,0,0,0,0,0,0,0,0,0,0,0,-0.261799,2.33735,-1.5,0,0,0,0,0,0
540,-3.20974e-12,6.13552e-38,-1.5448e-06,-3.27649e-12,6.13504e-38,0,-1.06603e-13,0,0,0,0,0,0,0,0,0,0,0,0,0,0,0,0,0,0,0,0,0,-0.261799,2.36403,-1.5,0,0,0,0,0,0
550,-3.20974e-12,6.13552e-38,-1.5448e-06,-3.27649e-12,6.13504e-38,-3.40902e-12,-1.06604e-13,0,0,0,0,0,0,0,0,0,0,0,0,0,0,0,0,0,0,0,0,0,-0.261799,2.39476,-1.5,0,0,0,0,0,0
560,-3.20974e-12,6.13552e-38,-1.5448e-06,-3.27649e-12,6.13504e-38,0,-1.06604e-13,0,0,0,0,0,0,0,0,0,0,0,0,0,0,0,0,0,0,0,0,0,-0.261799,2.42866,-1.5,0,0,0,0,0,0
570,-3.20974e-12,6.13552e-38,-1.5448e-06,-3.27649e-12,6.13504e-38,-3.40902e-12,-1.06604e-13,0,0,0,0,0,0,0,0,0,0,0,0,0,0,0,0,0,0,0,0,0,-0.261799,2.45681,-1.5,0,0,0,0,0,0
580,-3.20974e-12,6.13552e-38,-1.5448e-06,-3.27649e-12,6.13504e-38,0,-1.06605e-13,0,0,0,0,0,0,0,0,0,0,0,0,0,0,0,0,0,0,0,0,0,-0.261799,2.48788,-1.5,0,0,0,0,0,0
590,-3.20974e-12,6.13552e-38,-1.5448e-06,-3.27649e-12,6.13504e-38,-3.40902e-12,-1.06605e-13,0,0,0,0,0,0,0,0,0,0,0,0,0,0,0,0,0,0,0,0,0,-0.261799,2.5137,-1.5,0,0,0,0,0,0
600,-3.20974e-12,6.13552e-38,-1.5448e-06,-3.27649e-12,6.13504e-38,0,-1.06605e-13,0,0,0,0,0,0,0,0,0,0,0,0,0,0,0,0,0,0,0,0,0,-0.261799,2.54219,-1.5,0,0,0,0,0,0
610,-3.20974e-12,6.13552e-38,-1.5448e-06,-3.27649e-12,6.13504e-38,-3.40902e-12,-1.06605e-13,0,0,0,0,0,0,0,0,0,0,0,0,0,0,0,0,0,0,0,0,0,-0.261799,2.56588,-1.5,0,0,0,0,0,0
620,-3.20974e-12,6.13552e-38,-1.5448e-06,-3.27649e-12,6.13504e-38,0,-1.06606e-13,0,0,0,0,0,0,0,0,0,0,0,0,0,0,0,0,0,0,0,0,0,-0.261799,2.592,-1.5,0,0,0,0,0,0
630,-3.20974e-12,6.13552e-38,-1.5448e-06,-3.27649e-12,6.13504e-38,-3.40902e-12,-1.06606e-13,0,0,0,0,0,0,0,0,0,0,0,0,0,0,0,0,0,0,0,0,0,-0.261799,2.61479,-1.5,0,0,0,0,0,0
640,-3.20974e-12,6.13552e-38,-1.5448e-06,-3.27649e-12,6.13504e-38,0,-1.06606e-13,0,0,0,0,0,0,0,0,0,0,0,0,0,0,0,0,0,0,0,0,0,-0.261799,2.63768,-1.5,0,0,0,0,0,0
650,-3.20974e-12,6.13552e-38,-1.5448e-06,-3.27649e-12,6.13504e-38,-3.40902e-12,-1.06606e-13,0,0,0,0,0,0,0,0,0,0,0,0,0,0,0,0,0,0,0,0,0,-0.261799,2.65857,-1.5,0,0,0,0,0,0
660,-3.20974e-12,6.13552e-38,-1.5448e-06,-3.27649e-12,6.13504e-38,0,-1.06607e-13,0,0,0,0,0,0,0,0,0,0,0,0,0,0,0,0,0,0,0,0,0,-0.261799,2.67956,-1.5,0,0,0,0,0,0
670,-3.20974e-12,6.13552e-38,-1.5448e-06,-3.27649e-12,6.13504e-38,-3.40902e-12,-1.06607e-13,0,0,0,0,0,0,0,0,0,0,0,0,0,0,0,0,0,0,0,0,0,-0.261799,2.69873,-1.5,0,0,0,0,0,0
680,-3.20974e-12,6.13552e-38,-1.5448e-06,-3.27649e-12,6.13504e-38,0,-1.06607e-13,0,0,0,0,0,0,0,0,0,0,0,0,0,0,0,0,0,0,0,0,0,-0.261799,2.71797,-1.5,0,0,0,0,0,0
690,-3.20974e-12,6.13552e-38,-1.5448e-06,-3.27649e-12,6.13504e-38,-3.40902e-12,-1.06607e-13,0,0,0,0,0,0,0,0,0,0,0,0,0,0,0,0,0,0,0,0,0,-0.261799,2.73555,-1.5,0,0,0,0,0,0
700,-3.20974e-12,6.13552e-38,-1.5448e-06,-3.27649e-12,6.13504e-38,0,-1.06608e-13,0,0,0,0,0,0,0,0,0,0,0,0,0,0,0,0,0,0,0,0,0,-0.261799,2.75398,-1.5,0,0,0,0,0,0
710,-3.20974e-12,6.13552e-38,-1.5448e-06,-3.27649e-12,6.13504e-38,-3.40902e-12,-1.06608e-13,0,0,0,0,0,0,0,0,0,0,0,0,0,0,0,0,0,0,0,0,0,-0.261799,2.7693,-1.5,0,0,0,0,0,0
720,-3.20974e-12,6.13552e-38,-1.5448e-06,-3.27649e-12,6.13504e-38,0,-1.06608e-13,0,0,0,0,0,0,0,0,0,0,0,0,0,0,0,0,0,0,0,0,0,-0.261799,2.78621,-1.5,0,0,0,0,0,0
730,-3.20974e-12,6.13552e-38,-1.5448e-06,-3.27649e-12,6.13504e-38,-3.40902e-12,-1.06609e-13,0,0,0,0,0,0,0,0,0,0,0,0,0,0,0,0,0,0,0,0,0,-0.261799,2.80025,-1.5,0,0,0,0,0,0
740,-3.20974e-12,6.13552e-38,-1.5448e-06,-3.27649e-12,6.13504e-38,0,-1.06609e-13,0,0,0,0,0,0,0,0,0,0,0,0,0,0,0,0,0,0,0,0,0,-0.261799,2.81509,-1.5,0,0,0,0,0,0
750,-3.20974e-12,6.13552e-38,-1.5448e-06,-3.27649e-12,6.13504e-38,-3.40902e-12,-1.06609e-13,0,0,0,0,0,0,0,0,0,0,0,0,0,0,0,0,0,0,0,0,0,-0.261799,2.82863,-1.5,0,0,0,0,0,0
760,-3.20974e-12,6.13552e-38,-1.5448e-06,-3.27649e-12,6.13504e-38,0,-1.06609e-13,0,0,0,0,0,0,0,0,0,0,0,0,0,0,0,0,0,0,0,0,0,-0.261799,2.84224,-1.5,0,0,0,0,0,0
770,-3.20974e-12,6.13552e-38,-1.5448e-06,-3.27649e-12,6.13504e-38,-3.40902e-12,-1.0661e-13,0,0,0,0,0,0,0,0,0,0,0,0,0,0,0,0,0,0,0,0,0,-0.261799,2.85288,-1.5,0,0,0,0,0,0
780,-3.20974e-12,6.13552e-38,-1.5448e-06,-3.27649e-12,6.13504e-38,0,-1.0661e-13,0,0,0,0,0,0,0,0,0,0,0,0,0,0,0,0,0,0,0,0,0,-0.261799,2.86145,-1.5,0,0,0,0,0,0
790,-3.20974e-12,6.13552e-38,-1.5448e-06,-3.27649e-12,6.13504e-38,-3.40902e-12,-1.0661e-13,0,0,0,0,0,0,0,0,0,0,0,0,0,0,0,0,0,0,0,0,0,-0.261799,2.87087,-1.5,0,0,0,0,0,0
800,-3.20974e-12,6.13552e-38,-1.5448e-06,-3.27649e-12,6.13504e-38,0,-1.0661e-13,0,0,0,0,0,0,0,0,0,0,0,0,0,0,0,0,0,0,0,0,0,-0.261799,2.88157,-1.5,0,0,0,0,0,0
810,-3.20974e-12,6.13552e-38,-1.5448e-06,-3.27649e-12,6.13504e-38,-3.40902e-12,-1.06611e-13,0,0,0,0,0,0,0,0,0,0,0,0,0,0,0,0,0,0,0,0,0,-0.261799,2.89337,-1.5,0,0,0,0,0,0
820,-3.20974e-12,6.13552e-38,-1.5448e-06,-3.27649e-12,6.13504e-38,0,-1.06611e-13,0,0,0,0,0,0,0,0,0,0,0,0,0,0,0,0,0,0,0,0,0,-0.261799,2.90318,-1.5,0,0,0,0,0,0
830,-3.20974e-12,6.13552e-38,-1.5448e-06,-3.27649e-12,6.13504e-38,-3.40902e-12,-1.06611e-13,0,0,0,0,0,0,0,0,0,0,0,0,0,0,0,0,0,0,0,0,0,-0.261799,2.914,-1.5,0,0,0,0,0,0
840,-3.20974e-12,6.13552e-38,-1.5448e-06,-3.27649e-12,6.13504e-38,0,-1.06612e-13,0,0,0,0,0,0,0,0,0,0,0,0,0,0,0,0,0,0,0,0,0,-0.261799,2.92298,-1.5,0,0,0,0,0,0
850,-3.20974e-12,6.13552e-38,-1.5448e-06,-3.27649e-12,6.13504e-38,-3.40902e-12,-1.06612e-13,0,0,0,0,0,0,0,0,0,0,0,0,0,0,0,0,0,0,0,0,0,-0.261799,2.9329,-1.5,0,0,0,0,0,0
860,-3.20974e-12,6.13552e-38,-1.5448e-06,-3.27649e-12,6.13504e-38,0,-1.06612e-13,0,0,0,0,0,0,0,0,0,0,0,0,0,0,0,0,0,0,0,0,0,-0.261799,2.94114,-1.5,0,0,0,0,0,0
870,-3.20974e-12,6.13552e-38,-1.5448e-06,-3.27649e-12,6.13504e-38,-3.40902e-12,-1.06612e-13,0,0,0,0,0,0,0,0,0,0,0,0,0,0,0,0,0,0,0,0,0,-0.261799,2.94986,-1.5,0,0,0,0,0,0
880,-3.20974e-12,6.13552e-38,-1.5448e-06,-3.27649e-12,6.13504e-38,0,-1.06613e-13,0,0,0,0,0,0,0,0,0,0,0,0,0,0,0,0,0,0,0,0,0,-0.261799,2.95781,-1.5,0,0,0,0,0,0
890,-3.20974e-12,6.13552e-38,-1.5448e-06,-3.27649e-12,6.13504e-38,-3.40902e-12,-1.06613e-13,0,0,0,0,0,0,0,0,0,0,0,0,0,0,0,0,0,0,0,0,0,-0.261799,2.96615,-1.5,0,0,0,0,0,0
900,-3.20974e-12,6.13552e-38,-1.5448e-06,-3.27649e-12,6.13504e-38,0,-1.06613e-13,0,0,0,0,0,0,0,0,0,0,0,0,0,0,0,0,0,0,0,0,0,-0.261799,2.97308,-1.5,0,0,0,0,0,0
910,-3.20974e-12,6.13552e-38,-1.5448e-06,-3.27649e-12,6.13504e-38,-3.40902e-12,-1.06613e-13,0,0,0,0,0,0,0,0,0,0,0,0,0,0,0,0,0,0,0,0,0,-0.261799,2.98074,-1.5,0,0,0,0,0,0
920,-3.20974e-12,6.13552e-38,-1.5448e-06,-3.27649e-12,6.13504e-38,0,-1.06614e-13,0,0,0,0,0,0,0,0,0,0,0,0,0,0,0,0,0,0,0,0,0,-0.261799,2.9871,-1.5,0,0,0,0,0,0
930,-3.20974e-12,6.13552e-38,-1.5448e-06,-3.27649e-12,6.13504e-38,-3.40902e-12,-1.06614e-13,0,0,0,0,0,0,0,0,0,0,0,0,0,0,0,0,0,0,0,0,0,-0.261799,2.99411,-1.5,0,0,0,0,0,0
940,-3.20974e-12,6.13552e-38,-1.5448e-06,-3.27649e-12,6.13504e-38,0,-1.06614e-13,0,0,0,0,0,0,0,0,0,0,0,0,0,0,0,0,0,0,0,0,0,-0.261799,2.99994,-1.5,0,0,0,0,0,0
950,-3.20974e-12,6.13552e-38,-1.5448e-06,-3.27649e-12,6.13504e-38,-3.40902e-12,-1.06615e-13,0,0,0,0,0,0,0,0,0,0,0,0,0,0,0,0,0,0,0,0,0,-0.261799,3.00609,-1.5,0,0,0,0,0,0
960,-3.20974e-12,6.13552e-38,-1.5448e-06,-3.27649e-12,6.13504e-38,0,-1.06615e-13,0,0,0,0,0,0,0,0,0,0,0,0,0,0,0,0,0,0,0,0,0,-0.261799,3.01171,-1.5,0,0,0,0,0,0
970,-3.20974e-12,6.13552e-38,-1.5448e-06,-3.27649e-12,6.13504e-38,-3.40902e-12,-1.06615e-13,0,0,0,0,0,0,0,0,0,0,0,0,0,0,0,0,0,0,0,0,0,-0.261799,3.01736,-1.5,0,0,0,0,0,0
980,-3.20974e-12,6.13552e-38,-1.5448e-06,-3.27649e-12,6.13504e-38,0,-1.06615e-13,0,0,0,0,0,0,0,0,0,0,0,0,0,0,0,0,0,0,0,0,0,-0.261799,3.02227,-1.5,0,0,0,0,0,0
990,-3.20974e-12,6.13552e-38,-1.5448e-06,-3.27649e-12,6.13504e-38,-3.40902e-12,-1.06616e-13,0,0,0,0,0,0,0,0,0,0,0,0,0,0,0,0,0,0,0,0,0,-0.261799,3.02769,-1.5,0,0,0,0,0,0
1000,-3.20974e-12,6.13552e-38,-1.5448e-06,-3.27649e-12,6.13504e-38,0,-1.06616e-13,0,0,0,0,0,0,0,0,0,0,0,0,0,0,0,0,0,0,0,0,0,-0.261799,3.03219,-1.5,0,0,0,0,0,0
1010,-3.20974e-12,6.13552e-38,-1.5448e-06,-3.27649e-12,6.13504e-38,-3.40902e-12,-1.06616e-13,0,0,0,0,0,0,0,0,0,0,0,0,0,0,0,0,0,0,0,0,0,-0.261799,3.03716,-1.5,0,0,0,0,0,0
1020,-3.20974e-12,6.13552e-38,-1.5448e-06,-3.27649e-12,6.13504e-38,0,-1.06616e-13,0,0,0,0,0,0,0,0,0,0,0,0,0,0,0,0,0,0,0,0,0,-0.261799,3.04087,-1.5,0,0,0,0,0,0
1030,-3.20974e-12,6.13552e-38,-1.5448e-06,-3.27649e-12,6.13504e-38,-3.40902e-12,-1.06617e-13,0,0,0,0,0,0,0,0,0,0,0,0,0,0,0,0,0,0,0,0,0,-0.261799,3.04386,-1.5,0,0,0,0,0,0
1040,-3.20974e-12,6.13552e-38,-1.5448e-06,-3.27649e-12,6.13504e-38,0,-1.06617e-13,0,0,0,0,0,0,0,0,0,0,0,0,0,0,0,0,0,0,0,0,0,-0.261799,3.04734,-1.5,0,0,0,0,0,0
1050,-3.20974e-12,6.13552e-38,-1.5448e-06,-3.27649e-12,6.13504e-38,-3.40902e-12,-1.06617e-13,0,0,0,0,0,0,0,0,0,0,0,0,0,0,0,0,0,0,0,0,0,-0.261799,3.05273,-1.5,0,0,0,0,0,0
1060,-3.20974e-12,6.13552e-38,-1.5448e-06,-3.27649e-12,6.13504e-38,0,-1.06618e-13,0,0,0,0,0,0,0,0,0,0,0,0,0,0,0,0,0,0,0,0,0,-0.261799,3.05658,-1.5,0,0,0,0,0,0
1070,-3.20974e-12,6.13552e-38,-1.5448e-06,-3.27649e-12,6.13504e-38,-3.40902e-12,-1.06618e-13,0,0,0,0,0,0,0,0,0,0,0,0,0,0,0,0,0,0,0,0,0,-0.261799,3.06011,-1.5,0,0,0,0,0,0
1080,-3.20974e-12,6.13552e-38,-1.5448e-06,-3.27649e-12,6.13504e-38,0,-1.06618e-13,0,0,0,0,0,0,0,0,0,0,0,0,0,0,0,0,0,0,0,0,0,-0.261799,3.06365,-1.5,0,0,0,0,0,0
1090,-3.20974e-12,6.13552e-38,-1.5448e-06,-3.27649e-12,6.13504e-38,-3.40902e-12,-1.06618e-13,0,0,0,0,0,0,0,0,0,0,0,0,0,0,0,0,0,0,0,0,0,-0.261799,3.06688,-1.5,0,0,0,0,0,0
1100,-3.20974e-12,6.13552e-38,-1.5448e-06,-3.27649e-12,6.13504e-38,0,-1.06619e-13,0,0,0,0,0,0,0,0,0,0,0,0,0,0,0,0,0,0,0,0,0,-0.261799,3.07013,-1.5,0,0,0,0,0,0
1110,-3.20974e-12,6.13552e-38,-1.5448e-06,-3.27649e-12,6.13504e-38,-3.40902e-12,-1.06619e-13,0,0,0,0,0,0,0,0,0,0,0,0,0,0,0,0,0,0,0,0,0,-0.261799,3.07309,-1.5,0,0,0,0,0,0
1120,-3.20974e-12,6.13552e-38,-1.5448e-06,-3.27649e-12,6.13504e-38,0,-1.06619e-13,0,0,0,0,0,0,0,0,0,0,0,0,0,0,0,0,0,0,0,0,0,-0.261799,3.07607,-1.5,0,0,0,0,0,0
1130,-3.20974e-12,6.13552e-38,-1.5448e-06,-3.27649e-12,6.13504e-38,-3.40902e-12,-1.06619e-13,0,0,0,0,0,0,0,0,0,0,0,0,0,0,0,0,0,0,0,0,0,-0.261799,3.07891,-1.5,0,0,0,0,0,0
1140,-3.20974e-12,6.13552e-38,-1.5448e-06,-3.27649e-12,6.13504e-38,0,-1.0662e-13,0,0,0,0,0,0,0,0,0,0,0,0,0,0,0,0,0,0,0,0,0,-0.261799,3.08151,-1.5,0,0,0,0,0,0
1150,-3.20974e-12,6.13552e-38,-1.5448e-06,-3.27649e-12,6.13504e-38,-3.40902e-12,-1.0662e-13,0,0,0,0,0,0,0,0,0,0,0,0,0,0,0,0,0,0,0,0,0,-0.261799,3.08436,-1.5,0,0,0,0,0,0
1160,-3.20974e-12,6.13552e-38,-1.5448e-06,-3.27649e-12,6.13504e-38,0,-1.0662e-13,0,0,0,0,0,0,0,0,0,0,0,0,0,0,0,0,0,0,0,0,0,-0.261799,3.08685,-1.5,0,0,0,0,0,0
1170,-3.20974e-12,6.13552e-38,-1.5448e-06,-3.27649e-12,6.13504e-38,-3.40902e-12,-1.0662e-13,0,0,0,0,0,0,0,0,0,0,0,0,0,0,0,0,0,0,0,0,0,-0.261799,3.08912,-1.5,0,0,0,0,0,0
1180,-3.20974e-12,6.13552e-38,-1.5448e-06,-3.27649e-12,6.13504e-38,0,-1.06621e-13,0,0,0,0,0,0,0,0,0,0,0,0,0,0,0,0,0,0,0,0,0,-0.261799,3.09139,-1.5,0,0,0,0,0,0
1190,-3.20974e-12,6.13552e-38,-1.5448e-06,-3.27649e-12,6.13504e-38,-3.40902e-12,-1.06621e-13,0,0,0,0,0,0,0,0,0,0,0,0,0,0,0,0,0,0,0,0,0,-0.261799,3.09357,-1.5,0,0,0,0,0,0
1200,-3.20974e-12,6.13552e-38,-1.5448e-06,-3.27649e-12,6.13504e-38,0,-1.06621e-13,0,0,0,0,0,0,0,0,0,0,0,0,0,0,0,0,0,0,0,0,0,-0.261799,3.09556,-1.5,0,0,0,0,0,0
1210,-3.20974e-12,6.13552e-38,-1.5448e-06,-3.27649e-12,6.13504e-38,-3.40902e-12,-1.06622e-13,0,0,0,0,0,0,0,0,0,0,0,0,0,0,0,0,0,0,0,0,0,-0.261799,3.09747,-1.5,0,0,0,0,0,0
1220,-3.20974e-12,6.13552e-38,-1.5448e-06,-3.27649e-12,6.13504e-38,0,-1.06622e-13,0,0,0,0,0,0,0,0,0,0,0,0,0,0,0,0,0,0,0,0,0,-0.261799,3.09939,-1.5,0,0,0,0,0,0
1230,-3.20974e-12,6.13552e-38,-1.5448e-06,-3.27649e-12,6.13504e-38,-3.40902e-12,-1.06622e-13,0,0,0,0,0,0,0,0,0,0,0,0,0,0,0,0,0,0,0,0,0,-0.261799,3.10114,-1.5,0,0,0,0,0,0
1240,-3.20974e-12,6.13552e-38,-1.5448e-06,-3.27649e-12,6.13504e-38,0,-1.06622e-13,0,0,0,0,0,0,0,0,0,0,0,0,0,0,0,0,0,0,0,0,0,-0.261799,3.10282,-1.5,0,0,0,0,0,0
1250,-3.20974e-12,6.13552e-38,-1.5448e-06,-3.27649e-12,6.13504e-38,-3.40902e-12,-1.06623e-13,0,0,0,0,0,0,0,0,0,0,0,0,0,0,0,0,0,0,0,0,0,-0.261799,3.1045,-1.5,0,0,0,0,0,0
1260,-3.20974e-12,6.13552e-38,-1.5448e-06,-3.27649e-12,6.13504e-38,0,-1.06623e-13,0,0,0,0,0,0,0,0,0,0,0,0,0,0,0,0,0,0,0,0,0,-0.261799,3.10604,-1.5,0,0,0,0,0,0
1270,-3.20974e-12,6.13552e-38,-1.5448e-06,-3.27649e-12,6.13504e-38,-3.40902e-12,-1.06623e-13,0,0,0,0,0,0,0,0,0,0,0,0,0,0,0,0,0,0,0,0,0,-0.261799,3.10716,-1.5,0,0,0,0,0,0
1280,-3.20974e-12,6.13552e-38,-1.5448e-06,-3.27649e-12,6.13504e-38,0,-1.06623e-13,0,0,0,0,0,0,0,0,0,0,0,0,0,0,0,0,0,0,0,0,0,-0.261799,3.10832,-1.5,0,0,0,0,0,0
1290,-3.20974e-12,6.13552e-38,-1.5448e-06,-3.27649e-12,6.13504e-38,-3.40902e-12,-1.06624e-13,0,0,0,0,0,0,0,0,0,0,0,0,0,0,0,0,0,0,0,0,0,-0.261799,3.10937,-1.5,0,0,0,0,0,0
1300,-3.20974e-12,6.13552e-38,-1.5448e-06,-3.27649e-12,6.13504e-38,0,-1.06624e-13,0,0,0,0,0,0,0,0,0,0,0,0,0,0,0,0,0,0,0,0,0,-0.261799,3.11071,-1.5,0,0,0,0,0,0
1310,-3.20974e-12,6.13552e-38,-1.5448e-06,-3.27649e-12,6.13504e-38,-3.40902e-12,-1.06624e-13,0,0,0,0,0,0,0,0,0,0,0,0,0,0,0,0,0,0,0,0,0,-0.261799,3.11199,-1.5,0,0,0,0,0,0
1320,-3.20974e-12,6.13552e-38,-1.5448e-06,-3.27649e-12,6.13504e-38,0,-1.06625e-13,0,0,0,0,0,0,0,0,0,0,0,0,0,0,0,0,0,0,0,0,0,-0.261799,3.11322,-1.5,0,0,0,0,0,0
1330,-3.20974e-12,6.13552e-38,-1.5448e-06,-3.27649e-12,6.13504e-38,-3.40902e-12,-1.06625e-13,0,0,0,0,0,0,0,0,0,0,0,0,0,0,0,0,0,0,0,0,0,-0.261799,3.11439,-1.5,0,0,0,0,0,0
1340,-3.20974e-12,6.13552e-38,-1.5448e-06,-3.27649e-12,6.13504e-38,0,-1.06625e-13,0,0,0,0,0,0,0,0,0,0,0,0,0,0,0,0,0,0,0,0,0,-0.261799,3.11552,-1.5,0,0,0,0,0,0
1350,-3.20974e-12,6.13552e-38,-1.5448e-06,-3.27649e-12,6.13504e-38,-3.40902e-12,-1.06625e-13,0,0,0,0,0,0,0,0,0,0,0,0,0,0,0,0,0,0,0,0,0,-0.261799,3.11665,-1.5,0,0,0,0,0,0
1360,-3.20974e-12,6.13552e-38,-1.5448e-06,-3.27649e-12,6.13504e-38,0,-1.06626e-13,0,0,0,0,0,0,0,0,0,0,0,0,0,0,0,0,0,0,0,0,0,-0.261799,3.11769,-1.5,0,0,0,0,0,0
1370,-3.20974e-12,6.13552e-38,-1.5448e-06,-3.27649e-12,6.13504e-38,-3.40902e-12,-1.06626e-13,0,0,0,0,0,0,0,0,0,0,0,0,0,0,0,0,0,0,0,0,0,-0.261799,3.11873,-1.5,0,0,0,0,0,0
1380,-3.20974e-12,6.13552e-38,-1.5448e-06,-3.27649e-12,6.13504e-38,0,-1.06626e-13,0,0,0,0,0,0,0,0,0,0,0,0,0,0,0,0,0,0,0,0,0,-0.261799,3.11963,-1.5,0,0,0,0,0,0
1390,-3.20974e-12,6.13552e-38,-1.5448e-06,-3.27649e-12,6.13504e-38,-3.40902e-12,-1.06626e-13,0,0,0,0,0,0,0,0,0,0,0,0,0,0,0,0,0,0,0,0,0,-0.261799,3.12054,-1.5,0,0,0,0,0,0
1400,-3.20974e-12,6.13552e-38,-1.5448e-06,-3.27649e-12,6.13504e-38,0,-1.06627e-13,0,0,0,0,0,0,0,0,0,0,0,0,0,0,0,0,0,0,0,0,0,-0.261799,3.12146,-1.5,0,0,0,0,0,0
1410,-3.20974e-12,6.13552e-38,-1.5448e-06,-3.27649e-12,6.13504e-38,-3.40902e-12,-1.06627e-13,0,0,0,0,0,0,0,0,0,0,0,0,0,0,0,0,0,0,0,0,0,-0.261799,3.12229,-1.5,0,0,0,0,0,0
1420,-3.20974e-12,6.13552e-38,-1.5448e-06,-3.27649e-12,6.13504e-38,0,-1.06627e-13,0,0,0,0,0,0,0,0,0,0,0,0,0,0,0,0,0,0,0,0,0,-0.261799,3.12313,-1.5,0,0,0,0,0,0
1430,-3.20974e-12,6.13552e-38,-1.5448e-06,-3.27649e-12,6.13504e-38,-3.40902e-12,-1.06628e-13,0,0,0,0,0,0,0,0,0,0,0,0,0,0,0,0,0,0,0,0,0,-0.261799,3.1239,-1.5,0,0,0,0,0,0
1440,-3.20974e-12,6.13552e-38,-1.5448e-06,-3.27649e-12,6.13504e-38,0,-1.06628e-13,0,0,0,0,0,0,0,0,0,0,0,0,0,0,0,0,0,0,0,0,0,-0.261799,3.12463,-1.5,0,0,0,0,0,0
1450,-3.20974e-12,6.13552e-38,-1.5448e-06,-3.27649e-12,6.13504e-38,-3.40902e-12,-1.06632e-13,0,0,0,0,0,0,0,0,0,0,0,0,0,0,0,0,0,0,0,0,0,-0.261799,3.12537,-1.5,0,0,0,0,0,0
1460,-3.20974e-12,6.13552e-38,-1.5448e-06,-3.27649e-12,6.13504e-38,0,-1.06632e-13,0,0,0,0,0,0,0,0,0,0,0,0,0,0,0,0,0,0,0,0,0,-0.261799,3.12604,-1.5,0,0,0,0,0,0
1470,-3.20974e-12,6.13552e-38,-1.5448e-06,-3.27649e-12,6.13504e-38,-3.40902e-12,-1.06632e-13,0,0,0,0,0,0,0,0,0,0,0,0,0,0,0,0,0,0,0,0,0,-0.261799,3.12669,-1.5,0,0,0,0,0,0
1480,-3.20974e-12,6.13552e-38,-1.5448e-06,-3.27649e-12,6.13504e-38,0,-1.06633e-13,0,0,0,0,0,0,0,0,0,0,0,0,0,0,0,0,0,0,0,0,0,-0.261799,3.1273,-1.5,0,0,0,0,0,0
1490,-3.20974e-12,6.13552e-38,-1.5448e-06,-3.27649e-12,6.13504e-38,-3.40902e-12,-1.06633e-13,0,0,0,0,0,0,0,0,0,0,0,0,0,0,0,0,0,0,0,0,0,-0.261799,3.1279,-1.5,0,0,0,0,0,0
1500,-3.20974e-12,6.13552e-38,-1.5448e-06,-3.27649e-12,6.13504e-38,0,-1.06633e-13,0,0,0,0,0,0,0,0,0,0,0,0,0,0,0,0,0,0,0,0,0,-0.261799,3.12849,-1.5,0,0,0,0,0,0
1510,-3.20974e-12,6.13552e-38,-1.5448e-06,-3.27649e-12,6.13504e-38,-3.40902e-12,-1.06633e-13,0,0,0,0,0,0,0,0,0,0,0,0,0,0,0,0,0,0,0,0,0,-0.261799,3.12911,-1.5,0,0,0,0,0,0
1520,-3.20974e-12,6.13552e-38,-1.5448e-06,-3.27649e-12,6.13504e-38,0,-1.06634e-13,0,0,0,0,0,0,0,0,0,0,0,0,0,0,0,0,0,0,0,0,0,-0.261799,3.12951,-1.5,0,0,0,0,0,0
1530,-3.20974e-12,6.13552e-38,-1.5448e-06,-3.27649e-12,6.13504e-38,-3.40902e-12,-1.06634e-13,0,0,0,0,0,0,0,0,0,0,0,0,0,0,0,0,0,0,0,0,0,-0.261799,3.12989,-1.5,0,0,0,0,0,0
1540,-3.20974e-12,6.13552e-38,-1.5448e-06,-3.27649e-12,6.13504e-38,0,-1.06634e-13,0,0,0,0,0,0,0,0,0,0,0,0,0,0,0,0,0,0,0,0,0,-0.261799,3.13028,-1.5,0,0,0,0,0,0
1550,-3.20974e-12,6.13552e-38,-1.5448e-06,-3.27649e-12,6.13504e-38,-3.40902e-12,-1.06634e-13,0,0,0,0,0,0,0,0,0,0,0,0,0,0,0,0,0,0,0,0,0,-0.261799,3.13073,-1.5,0,0,0,0,0,0
1560,-3.20974e-12,6.13552e-38,-1.5448e-06,-3.27649e-12,6.13504e-38,0,-1.06635e-13,0,0,0,0,0,0,0,0,0,0,0,0,0,0,0,0,0,0,0,0,0,-0.261799,3.1312,-1.5,0,0,0,0,0,0
1570,-3.20974e-12,6.13552e-38,-1.5448e-06,-3.27649e-12,6.13504e-38,-3.40902e-12,-1.06635e-13,0,0,0,0,0,0,0,0,0,0,0,0,0,0,0,0,0,0,0,0,0,-0.261799,3.13163,-1.5,0,0,0,0,0,0
1580,-3.20974e-12,6.13552e-38,-1.5448e-06,-3.27649e-12,6.13504e-38,0,-1.06635e-13,0,0,0,0,0,0,0,0,0,0,0,0,0,0,0,0,0,0,0,0,0,-0.261799,3.13206,-1.5,0,0,0,0,0,0
1590,-3.20974e-12,6.13552e-38,-1.5448e-06,-3.27649e-12,6.13504e-38,-3.40902e-12,-1.06636e-13,0,0,0,0,0,0,0,0,0,0,0,0,0,0,0,0,0,0,0,0,0,-0.261799,3.13244,-1.5,0,0,0,0,0,0
1600,-3.20974e-12,6.13552e-38,-1.5448e-06,-3.27649e-12,6.13504e-38,0,-1.06636e-13,0,0,0,0,0,0,0,0,0,0,0,0,0,0,0,0,0,0,0,0,0,-0.261799,3.13286,-1.5,0,0,0,0,0,0
1610,-3.20974e-12,6.13552e-38,-1.5448e-06,-3.27649e-12,6.13504e-38,-3.40902e-12,-1.06636e-13,0,0,0,0,0,0,0,0,0,0,0,0,0,0,0,0,0,0,0,0,0,-0.261799,3.1332,-1.5,0,0,0,0,0,0
1620,-3.20974e-12,6.13552e-38,-1.5448e-06,-3.27649e-12,6.13504e-38,0,-1.06636e-13,0,0,0,0,0,0,0,0,0,0,0,0,0,0,0,0,0,0,0,0,0,-0.261799,3.13358,-1.5,0,0,0,0,0,0
1630,-3.20974e-12,6.13552e-38,-1.5448e-06,-3.27649e-12,6.13504e-38,-3.40902e-12,-1.06637e-13,0,0,0,0,0,0,0,0,0,0,0,0,0,0,0,0,0,0,0,0,0,-0.261799,3.1341,-1.5,0,0,0,0,0,0
1640,-3.20974e-12,6.13552e-38,-1.5448e-06,-3.27649e-12,6.13504e-38,0,-1.06637e-13,0,0,0,0,0,0,0,0,0,0,0,0,0,0,0,0,0,0,0,0,0,-0.261799,3.13459,-1.5,0,0,0,0,0,0
1650,-3.20974e-12,6.13552e-38,-1.5448e-06,-3.27649e-12,6.13504e-38,-3.40902e-12,-1.06637e-13,0,0,0,0,0,0,0,0,0,0,0,0,0,0,0,0,0,0,0,0,0,-0.261799,3.13487,-1.5,0,0,0,0,0,0
1660,-3.20974e-12,6.13552e-38,-1.5448e-06,-3.27649e-12,6.13504e-38,0,-1.06637e-13,0,0,0,0,0,0,0,0,0,0,0,0,0,0,0,0,0,0,0,0,0,-0.261799,3.13517,-1.5,0,0,0,0,0,0
1670,-3.20974e-12,6.13552e-38,-1.5448e-06,-3.27649e-12,6.13504e-38,-3.40902e-12,-1.06638e-13,0,0,0,0,0,0,0,0,0,0,0,0,0,0,0,0,0,0,0,0,0,-0.261799,3.13543,-1.5,0,0,0,0,0,0
1680,-3.20974e-12,6.13552e-38,-1.5448e-06,-3.27649e-12,6.13504e-38,0,-1.06638e-13,0,0,0,0,0,0,0,0,0,0,0,0,0,0,0,0,0,0,0,0,0,-0.261799,3.13569,-1.5,0,0,0,0,0,0
1690,-3.20974e-12,6.13552e-38,-1.5448e-06,-3.27649e-12,6.13504e-38,-3.40902e-12,-1.06638e-13,0,0,0,0,0,0,0,0,0,0,0,0,0,0,0,0,0,0,0,0,0,-0.261799,3.13594,-1.5,0,0,0,0,0,0
1700,-3.20974e-12,6.13552e-38,-1.5448e-06,-3.27649e-12,6.13504e-38,0,-1.06639e-13,0,0,0,0,0,0,0,0,0,0,0,0,0,0,0,0,0,0,0,0,0,-0.261799,3.13618,-1.5,0,0,0,0,0,0
1710,-3.20974e-12,6.13552e-38,-1.5448e-06,-3.27649e-12,6.13504e-38,-3.40902e-12,-1.06639e-13,0,0,0,0,0,0,0,0,0,0,0,0,0,0,0,0,0,0,0,0,0,-0.261799,3.1364,-1.5,0,0,0,0,0,0
1720,-3.20974e-12,6.13552e-38,-1.5448e-06,-3.27649e-12,6.13504e-38,0,-1.06639e-13,0,0,0,0,0,0,0,0,0,0,0,0,0,0,0,0,0,0,0,0,0,-0.261799,3.13663,-1.5,0,0,0,0,0,0
1730,-3.20974e-12,6.13552e-38,-1.5448e-06,-3.27649e-12,6.13504e-38,-3.40902e-12,-1.06639e-13,0,0,0,0,0,0,0,0,0,0,0,0,0,0,0,0,0,0,0,0,0,-0.261799,3.13683,-1.5,0,0,0,0,0,0
1740,-3.20974e-12,6.13552e-38,-1.5448e-06,-3.27649e-12,6.13504e-38,0,-1.0664e-13,0,0,0,0,0,0,0,0,0,0,0,0,0,0,0,0,0,0,0,0,0,-0.261799,3.13704,-1.5,0,0,0,0,0,0
1750,-3.20974e-12,6.13552e-38,-1.5448e-06,-3.27649e-12,6.13504e-38,-3.40902e-12,-1.0664e-13,0,0,0,0,0,0,0,0,0,0,0,0,0,0,0,0,0,0,0,0,0,-0.261799,3.13722,-1.5,0,0,0,0,0,0
1760,-3.20974e-12,6.13552e-38,-1.5448e-06,-3.27649e-12,6.13504e-38,0,-1.0664e-13,0,0,0,0,0,0,0,0,0,0,0,0,0,0,0,0,0,0,0,0,0,-0.261799,3.13742,-1.5,0,0,0,0,0,0
1770,-3.20974e-12,6.13552e-38,-1.5448e-06,-3.27649e-12,6.13504e-38,-3.40902e-12,-1.0664e-13,0,0,0,0,0,0,0,0,0,0,0,0,0,0,0,0,0,0,0,0,0,-0.261799,3.13756,-1.5,0,0,0,0,0,0
1780,-3.20974e-12,6.13552e-38,-1.5448e-06,-3.27649e-12,6.13504e-38,0,-1.06641e-13,0,0,0,0,0,0,0,0,0,0,0,0,0,0,0,0,0,0,0,0,0,-0.261799,3.13768,-1.5,0,0,0,0,0,0
1790,-3.20974e-12,6.13552e-38,-1.5448e-06,-3.27649e-12,6.13504e-38,-3.40902e-12,-1.06641e-13,0,0,0,0,0,0,0,0,0,0,0,0,0,0,0,0,0,0,0,0,0,-0.261799,3.13781,-1.5,0,0,0,0,0,0
1800,-3.20974e-12,6.13552e-38,-1.5448e-06,-3.27649e-12,6.13504e-38,0,-1.06641e-13,0,0,0,0,0,0,0,0,0,0,0,0,0,0,0,0,0,0,0,0,0,-0.261799,3.13796,-1.5,0,0,0,0,0,0
1810,-3.20974e-12,6.13552e-38,-1.5448e-06,-3.27649e-12,6.13504e-38,-3.40902e-12,-1.06642e-13,0,0,0,0,0,0,0,0,0,0,0,0,0,0,0,0,0,0,0,0,0,-0.261799,3.13812,-1.5,0,0,0,0,0,0
1820,-3.20974e-12,6.13552e-38,-1.5448e-06,-3.27649e-12,6.13504e-38,0,-1.06642e-13,0,0,0,0,0,0,0,0,0,0,0,0,0,0,0,0,0,0,0,0,0,-0.261799,3.13826,-1.5,0,0,0,0,0,0
1830,-3.20974e-12,6.13552e-38,-1.5448e-06,-3.27649e-12,6.13504e-38,-3.40902e-12,-1.06642e-13,0,0,0,0,0,0,0,0,0,0,0,0,0,0,0,0,0,0,0,0,0,-0.261799,3.13841,-1.5,0,0,0,0,0,0
1840,-3.20974e-12,6.13552e-38,-1.5448e-06,-3.27649e-12,6.13504e-38,0,-1.06642e-13,0,0,0,0,0,0,0,0,0,0,0,0,0,0,0,0,0,0,0,0,0,-0.261799,3.13853,-1.5,0,0,0,0,0,0
1850,-3.20974e-12,6.13552e-38,-1.5448e-06,-3.27649e-12,6.13504e-38,-3.40902e-12,-1.06643e-13,0,0,0,0,0,0,0,0,0,0,0,0,0,0,0,0,0,0,0,0,0,-0.261799,3.13867,-1.5,0,0,0,0,0,0
1860,-3.20974e-12,6.13552e-38,-1.5448e-06,-3.27649e-12,6.13504e-38,0,-1.06643e-13,0,0,0,0,0,0,0,0,0,0,0,0,0,0,0,0,0,0,0,0,0,-0.261799,3.13879,-1.5,0,0,0,0,0,0
1870,-3.20974e-12,6.13552e-38,-1.5448e-06,-3.27649e-12,6.13504e-38,-3.40902e-12,-1.06643e-13,0,0,0,0,0,0,0,0,0,0,0,0,0,0,0,0,0,0,0,0,0,-0.261799,3.13892,-1.5,0,0,0,0,0,0
1880,-3.20974e-12,6.13552e-38,-1.5448e-06,-3.27649e-12,6.13504e-38,0,-1.06643e-13,0,0,0,0,0,0,0,0,0,0,0,0,0,0,0,0,0,0,0,0,0,-0.261799,3.13902,-1.5,0,0,0,0,0,0
1890,-3.20974e-12,6.13552e-38,-1.5448e-06,-3.27649e-12,6.13504e-38,-3.40902e-12,-1.06644e-13,0,0,0,0,0,0,0,0,0,0,0,0,0,0,0,0,0,0,0,0,0,-0.261799,3.13913,-1.5,0,0,0,0,0,0
1900,-3.20974e-12,6.13552e-38,-1.5448e-06,-3.27649e-12,6.13504e-38,0,-1.06644e-13,0,0,0,0,0,0,0,0,0,0,0,0,0,0,0,0,0,0,0,0,0,-0.261799,3.13923,-1.5,0,0,0,0,0,0
1910,-3.20974e-12,6.13552e-38,-1.5448e-06,-3.27649e-12,6.13504e-38,-3.40902e-12,-1.06644e-13,0,0,0,0,0,0,0,0,0,0,0,0,0,0,0,0,0,0,0,0,0,-0.261799,3.13934,-1.5,0,0,0,0,0,0
1920,-3.20974e-12,6.13552e-38,-1.5448e-06,-3.27649e-12,6.13504e-38,0,-1.06645e-13,0,0,0,0,0,0,0,0,0,0,0,0,0,0,0,0,0,0,0,0,0,-0.261799,3.13943,-1.5,0,0,0,0,0,0
1930,-3.20974e-12,6.13552e-38,-1.5448e-06,-3.27649e-12,6.13504e-38,-3.40902e-12,-1.06645e-13,0,0,0,0,0,0,0,0,0,0,0,0,0,0,0,0,0,0,0,0,0,-0.261799,3.13952,-1.5,0,0,0,0,0,0
1940,-3.20974e-12,6.13552e-38,-1.5448e-06,-3.27649e-12,6.13504e-38,0,-1.06645e-13,0,0,0,0,0,0,0,0,0,0,0,0,0,0,0,0,0,0,0,0,0,-0.261799,3.13961,-1.5,0,0,0,0,0,0
1950,-3.20974e-12,6.13552e-38,-1.5448e-06,-3.27649e-12,6.13504e-38,-3.40902e-12,-1.06645e-13,0,0,0,0,0,0,0,0,0,0,0,0,0,0,0,0,0,0,0,0,0,-0.261799,3.13969,-1.5,0,0,0,0,0,0
1960,-3.20974e-12,6.13552e-38,-1.5448e-06,-3.27649e-12,6.13504e-38,0,-1.06646e-13,0,0,0,0,0,0,0,0,0,0,0,0,0,0,0,0,0,0,0,0,0,-0.261799,3.13977,-1.5,0,0,0,0,0,0
1970,-3.20974e-12,6.13552e-38,-1.5448e-06,-3.27649e-12,6.13504e-38,-3.40902e-12,-1.06646e-13,0,0,0,0,0,0,0,0,0,0,0,0,0,0,0,0,0,0,0,0,0,-0.261799,3.13985,-1.5,0,0,0,0,0,0
1980,-3.20974e-12,6.13552e-38,-1.5448e-06,-3.27649e-12,6.13504e-38,0,-1.06646e-13,0,0,0,0,0,0,0,0,0,0,0,0,0,0,0,0,0,0,0,0,0,-0.261799,3.13992,-1.5,0,0,0,0,0,0
1990,-3.20974e-12,6.13552e-38,-1.5448e-06,-3.27649e-12,6.13504e-38,-3.40902e-12,-1.06646e-13,0,0,0,0,0,0,0,0,0,0,0,0,0,0,0,0,0,0,0,0,0,-0.261799,3.13999,-1.5,0,0,0,0,0,0
2000,-3.20974e-12,6.13552e-38,-1.5448e-06,-3.27649e-12,6.13504e-38,0,-1.06647e-13,0,0,0,0,0,0,0,0,0,0,0,0,0,0,0,0,0,0,0,0,0,-0.261799,3.14006,-1.5,0,0,0,0,0,0
2010,-3.20974e-12,6.13552e-38,-1.5448e-06,-3.27649e-12,6.13504e-38,-3.40902e-12,-1.06647e-13,0,0,0,0,0,0,0,0,0,0,0,0,0,0,0,0,0,0,0,0,0,-0.261799,3.14011,-1.5,0,0,0,0,0,0
2020,-3.20974e-12,6.13552e-38,-1.5448e-06,-3.27649e-12,6.13504e-38,0,-1.06647e-13,0,0,0,0,0,0,0,0,0,0,0,0,0,0,0,0,0,0,0,0,0,-0.261799,3.14016,-1.5,0,0,0,0,0,0
2030,-3.20974e-12,6.13552e-38,-1.5448e-06,-3.27649e-12,6.13504e-38,-3.40902e-12,-1.06647e-13,0,0,0,0,0,0,0,0,0,0,0,0,0,0,0,0,0,0,0,0,0,-0.261799,3.1402,-1.5,0,0,0,0,0,0
2040,-3.20974e-12,6.13552e-38,-1.5448e-06,-3.27649e-12,6.13504e-38,0,-1.06648e-13,0,0,0,0,0,0,0,0,0,0,0,0,0,0,0,0,0,0,0,0,0,-0.261799,3.14025,-1.5,0,0,0,0,0,0
2050,-3.20974e-12,6.13552e-38,-1.5448e-06,-3.27649e-12,6.13504e-38,-3.40902e-12,-1.06648e-13,0,0,0,0,0,0,0,0,0,0,0,0,0,0,0,0,0,0,0,0,0,-0.261799,3.1403,-1.5,0,0,0,0,0,0
2060,-3.20974e-12,6.13552e-38,-1.5448e-06,-3.27649e-12,6.13504e-38,0,-1.06648e-13,0,0,0,0,0,0,0,0,0,0,0,0,0,0,0,0,0,0,0,0,0,-0.261799,3.14036,-1.5,0,0,0,0,0,0
2070,-3.20974e-12,6.13552e-38,-1.5448e-06,-3.27649e-12,6.13504e-38,-3.40902e-12,-1.06649e-13,0,0,0,0,0,0,0,0,0,0,0,0,0,0,0,0,0,0,0,0,0,-0.261799,3.14041,-1.5,0,0,0,0,0,0
2080,-3.20974e-12,6.13552e-38,-1.5448e-06,-3.27649e-12,6.13504e-38,0,-1.06649e-13,0,0,0,0,0,0,0,0,0,0,0,0,0,0,0,0,0,0,0,0,0,-0.261799,3.14046,-1.5,0,0,0,0,0,0
2090,-3.20974e-12,6.13552e-38,-1.5448e-06,-3.27649e-12,6.13504e-38,-3.40902e-12,-1.06649e-13,0,0,0,0,0,0,0,0,0,0,0,0,0,0,0,0,0,0,0,0,0,-0.261799,3.1405,-1.5,0,0,0,0,0,0
2100,-3.20974e-12,6.13552e-38,-1.5448e-06,-3.27649e-12,6.13504e-38,0,-1.06649e-13,0,0,0,0,0,0,0,0,0,0,0,0,0,0,0,0,0,0,0,0,0,-0.261799,3.14055,-1.5,0,0,0,0,0,0
2110,-3.20974e-12,6.13552e-38,-1.5448e-06,-3.27649e-12,6.13504e-38,-3.40902e-12,-1.0665e-13,0,0,0,0,0,0,0,0,0,0,0,0,0,0,0,0,0,0,0,0,0,-0.261799,3.14059,-1.5,0,0,0,0,0,0
2120,-3.20974e-12,6.13552e-38,-1.5448e-06,-3.27649e-12,6.13504e-38,0,-1.0665e-13,0,0,0,0,0,0,0,0,0,0,0,0,0,0,0,0,0,0,0,0,0,-0.261799,3.14064,-1.5,0,0,0,0,0,0
2130,-3.20974e-12,6.13552e-38,-1.5448e-06,-3.27649e-12,6.13504e-38,-3.40902e-12,-1.0665e-13,0,0,0,0,0,0,0,0,0,0,0,0,0,0,0,0,0,0,0,0,0,-0.261799,3.14068,-1.5,0,0,0,0,0,0
2140,-3.20974e-12,6.13552e-38,-1.5448e-06,-3.27649e-12,6.13504e-38,0,-1.0665e-13,0,0,0,0,0,0,0,0,0,0,0,0,0,0,0,0,0,0,0,0,0,-0.261799,3.14072,-1.5,0,0,0,0,0,0
2150,-3.20974e-12,6.13552e-38,-1.5448e-06,-3.27649e-12,6.13504e-38,-3.40902e-12,-1.06651e-13,0,0,0,0,0,0,0,0,0,0,0,0,0,0,0,0,0,0,0,0,0,-0.261799,3.14075,-1.5,0,0,0,0,0,0
2160,-3.20974e-12,6.13552e-38,-1.5448e-06,-3.27649e-12,6.13504e-38,0,-1.06651e-13,0,0,0,0,0,0,0,0,0,0,0,0,0,0,0,0,0,0,0,0,0,-0.261799,3.14079,-1.5,0,0,0,0,0,0
2170,-3.20974e-12,6.13552e-38,-1.5448e-06,-3.27649e-12,6.13504e-38,-3.40902e-12,-1.06651e-13,0,0,0,0,0,0,0,0,0,0,0,0,0,0,0,0,0,0,0,0,0,-0.261799,3.14082,-1.5,0,0,0,0,0,0
2180,-3.20974e-12,6.13552e-38,-1.5448e-06,-3.27649e-12,6.13504e-38,0,-1.06652e-13,0,0,0,0,0,0,0,0,0,0,0,0,0,0,0,0,0,0,0,0,0,-0.261799,3.14085,-1.5,0,0,0,0,0,0
2190,-3.20974e-12,6.13552e-38,-1.5448e-06,-3.27649e-12,6.13504e-38,-3.40902e-12,-1.06652e-13,0,0,0,0,0,0,0,0,0,0,0,0,0,0,0,0,0,0,0,0,0,-0.261799,3.14088,-1.5,0,0,0,0,0,0
2200,-3.20974e-12,6.13552e-38,-1.5448e-06,-3.27649e-12,6.13504e-38,0,-1.06652e-13,0,0,0,0,0,0,0,0,0,0,0,0,0,0,0,0,0,0,0,0,0,-0.261799,3.14091,-1.5,0,0,0,0,0,0
2210,-3.20974e-12,6.13552e-38,-1.5448e-06,-3.27649e-12,6.13504e-38,-3.40902e-12,-1.06652e-13,0,0,0,0,0,0,0,0,0,0,0,0,0,0,0,0,0,0,0,0,0,-0.261799,3.14094,-1.5,0,0,0,0,0,0
2220,-3.20974e-12,6.13552e-38,-1.5448e-06,-3.27649e-12,6.13504e-38,0,-1.06653e-13,0,0,0,0,0,0,0,0,0,0,0,0,0,0,0,0,0,0,0,0,0,-0.261799,3.14097,-1.5,0,0,0,0,0,0
2230,-3.20974e-12,6.13552e-38,-1.5448e-06,-3.27649e-12,6.13504e-38,-3.40902e-12,-1.06653e-13,0,0,0,0,0,0,0,0,0,0,0,0,0,0,0,0,0,0,0,0,0,-0.261799,3.14099,-1.5,0,0,0,0,0,0
2240,-3.20974e-12,6.13552e-38,-1.5448e-06,-3.27649e-12,6.13504e-38,0,-1.06653e-13,0,0,0,0,0,0,0,0,0,0,0,0,0,0,0,0,0,0,0,0,0,-0.261799,3.14104,-1.5,0,0,0,0,0,0
2250,-3.20974e-12,6.13552e-38,-1.5448e-06,-3.27649e-12,6.13504e-38,-3.40902e-12,-1.06653e-13,0,0,0,0,0,0,0,0,0,0,0,0,0,0,0,0,0,0,0,0,0,-0.261799,3.14107,-1.5,0,0,0,0,0,0
2260,-3.20974e-12,6.13552e-38,-1.5448e-06,-3.27649e-12,6.13504e-38,0,-1.06654e-13,0,0,0,0,0,0,0,0,0,0,0,0,0,0,0,0,0,0,0,0,0,-0.261799,3.14109,-1.5,0,0,0,0,0,0
2270,-3.20974e-12,6.13552e-38,-1.5448e-06,-3.27649e-12,6.13504e-38,-3.40902e-12,-1.06654e-13,0,0,0,0,0,0,0,0,0,0,0,0,0,0,0,0,0,0,0,0,0,-0.261799,3.14111,-1.5,0,0,0,0,0,0
2280,-3.20974e-12,6.13552e-38,-1.5448e-06,-3.27649e-12,6.13504e-38,0,-1.06654e-13,0,0,0,0,0,0,0,0,0,0,0,0,0,0,0,0,0,0,0,0,0,-0.261799,3.14112,-1.5,0,0,0,0,0,0
2290,-3.20974e-12,6.13552e-38,-1.5448e-06,-3.27649e-12,6.13504e-38,-3.40902e-12,-1.06655e-13,0,0,0,0,0,0,0,0,0,0,0,0,0,0,0,0,0,0,0,0,0,-0.261799,3.14114,-1.5,0,0,0,0,0,0
2300,-3.20974e-12,6.13552e-38,-1.5448e-06,-3.27649e-12,6.13504e-38,0,-1.06655e-13,0,0,0,0,0,0,0,0,0,0,0,0,0,0,0,0,0,0,0,0,0,-0.261799,3.14116,-1.5,0,0,0,0,0,0
2310,-3.20974e-12,6.13552e-38,-1.5448e-06,-3.27649e-12,6.13504e-38,-3.40902e-12,-1.06655e-13,0,0,0,0,0,0,0,0,0,0,0,0,0,0,0,0,0,0,0,0,0,-0.261799,3.14118,-1.5,0,0,0,0,0,0
2320,-3.20974e-12,6.13552e-38,-1.5448e-06,-3.27649e-12,6.13504e-38,0,-1.06655e-13,0,0,0,0,0,0,0,0,0,0,0,0,0,0,0,0,0,0,0,0,0,-0.261799,3.1412,-1.5,0,0,0,0,0,0
2330,-3.20974e-12,6.13552e-38,-1.5448e-06,-3.27649e-12,6.13504e-38,-3.40902e-12,-1.06656e-13,0,0,0,0,0,0,0,0,0,0,0,0,0,0,0,0,0,0,0,0,0,-0.261799,3.14121,-1.5,0,0,0,0,0,0
2340,-3.20974e-12,6.13552e-38,-1.5448e-06,-3.27649e-12,6.13504e-38,0,-1.06656e-13,0,0,0,0,0,0,0,0,0,0,0,0,0,0,0,0,0,0,0,0,0,-0.261799,3.14123,-1.5,0,0,0,0,0,0
2350,-3.20974e-12,6.13552e-38,-1.5448e-06,-3.27649e-12,6.13504e-38,-3.40902e-12,-1.06656e-13,0,0,0,0,0,0,0,0,0,0,0,0,0,0,0,0,0,0,0,0,0,-0.261799,3.14124,-1.5,0,0,0,0,0,0
2360,-3.20974e-12,6.13552e-38,-1.5448e-06,-3.27649e-12,6.13504e-38,0,-1.06656e-13,0,0,0,0,0,0,0,0,0,0,0,0,0,0,0,0,0,0,0,0,0,-0.261799,3.14126,-1.5,0,0,0,0,0,0
2370,-3.20974e-12,6.13552e-38,-1.5448e-06,-3.27649e-12,6.13504e-38,-3.40902e-12,-1.06657e-13,0,0,0,0,0,0,0,0,0,0,0,0,0,0,0,0,0,0,0,0,0,-0.261799,3.14127,-1.5,0,0,0,0,0,0
2380,-3.20974e-12,6.13552e-38,-1.5448e-06,-3.27649e-12,6.13504e-38,0,-1.06657e-13,0,0,0,0,0,0,0,0,0,0,0,0,0,0,0,0,0,0,0,0,0,-0.261799,3.14129,-1.5,0,0,0,0,0,0
2390,-3.20974e-12,6.13552e-38,-1.5448e-06,-3.27649e-12,6.13504e-38,-3.40902e-12,-1.06657e-13,0,0,0,0,0,0,0,0,0,0,0,0,0,0,0,0,0,0,0,0,0,-0.261799,3.1413,-1.5,0,0,0,0,0,0
2400,-3.20974e-12,6.13552e-38,-1.5448e-06,-3.27649e-12,6.13504e-38,0,-1.06658e-13,0,0,0,0,0,0,0,0,0,0,0,0,0,0,0,0,0,0,0,0,0,-0.261799,3.14131,-1.5,0,0,0,0,0,0
2410,-3.20974e-12,6.13552e-38,-1.5448e-06,-3.27649e-12,6.13504e-38,-3.40902e-12,-1.06658e-13,0,0,0,0,0,0,0,0,0,0,0,0,0,0,0,0,0,0,0,0,0,-0.261799,3.14133,-1.5,0,0,0,0,0,0
2420,-3.20974e-12,6.13552e-38,-1.5448e-06,-3.27649e-12,6.13504e-38,0,-1.06658e-13,0,0,0,0,0,0,0,0,0,0,0,0,0,0,0,0,0,0,0,0,0,-0.261799,3.14134,-1.5,0,0,0,0,0,0
2430,-3.20974e-12,6.13552e-38,-1.5448e-06,-3.27649e-12,6.13504e-38,-3.40902e-12,-1.06658e-13,0,0,0,0,0,0,0,0,0,0,0,0,0,0,0,0,0,0,0,0,0,-0.261799,3.14135,-1.5,0,0,0,0,0,0
2440,-3.20974e-12,6.13552e-38,-1.5448e-06,-3.27649e-12,6.13504e-38,0,-1.06659e-13,0,0,0,0,0,0,0,0,0,0,0,0,0,0,0,0,0,0,0,0,0,-0.261799,3.14136,-1.5,0,0,0,0,0,0
2450,-3.20974e-12,6.13552e-38,-1.5448e-06,-3.27649e-12,6.13504e-38,-3.40902e-12,-1.06659e-13,0,0,0,0,0,0,0,0,0,0,0,0,0,0,0,0,0,0,0,0,0,-0.261799,3.14137,-1.5,0,0,0,0,0,0
2460,-3.20974e-12,6.13552e-38,-1.5448e-06,-3.27649e-12,6.13504e-38,0,-1.06659e-13,0,0,0,0,0,0,0,0,0,0,0,0,0,0,0,0,0,0,0,0,0,-0.261799,3.14138,-1.5,0,0,0,0,0,0
2470,-3.20974e-12,6.13552e-38,-1.5448e-06,-3.27649e-12,6.13504e-38,-3.40902e-12,-1.06659e-13,0,0,0,0,0,0,0,0,0,0,0,0,0,0,0,0,0,0,0,0,0,-0.261799,3.14139,-1.5,0,0,0,0,0,0
2480,-3.20974e-12,6.13552e-38,-1.5448e-06,-3.27649e-12,6.13504e-38,0,-1.0666e-13,0,0,0,0,0,0,0,0,0,0,0,0,0,0,0,0,0,0,0,0,0,-0.261799,3.1414,-1.5,0,0,0,0,0,0
2490,-3.20974e-12,6.13552e-38,-1.5448e-06,-3.27649e-12,6.13504e-38,-3.40902e-12,-1.0666e-13,0,0,0,0,0,0,0,0,0,0,0,0,0,0,0,0,0,0,0,0,0,-0.261799,3.14141,-1.5,0,0,0,0,0,0
2500,-3.20974e-12,6.13552e-38,-1.5448e-06,-3.27649e-12,6.13504e-38,0,-1.0666e-13,0,0,0,0,0,0,0,0,0,0,0,0,0,0,0,0,0,0,0,0,0,-0.261799,3.14142,-1.5,0,0,0,0,0,0
2510,-3.20974e-12,6.13552e-38,-1.5448e-06,-3.27649e-12,6.13504e-38,-3.40902e-12,-1.06661e-13,0,0,0,0,0,0,0,0,0,0,0,0,0,0,0,0,0,0,0,0,0,-0.261799,3.14142,-1.5,0,0,0,0,0,0
2520,-3.20974e-12,6.13552e-38,-1.5448e-06,-3.27649e-12,6.13504e-38,0,-1.06661e-13,0,0,0,0,0,0,0,0,0,0,0,0,0,0,0,0,0,0,0,0,0,-0.261799,3.14143,-1.5,0,0,0,0,0,0
2530,-3.20974e-12,6.13552e-38,-1.5448e-06,-3.27649e-12,6.13504e-38,-3.40902e-12,-1.06661e-13,0,0,0,0,0,0,0,0,0,0,0,0,0,0,0,0,0,0,0,0,0,-0.261799,3.14143,-1.5,0,0,0,0,0,0
2540,-3.20974e-12,6.13552e-38,-1.5448e-06,-3.27649e-12,6.13504e-38,0,-1.06661e-13,0,0,0,0,0,0,0,0,0,0,0,0,0,0,0,0,0,0,0,0,0,-0.261799,3.14144,-1.5,0,0,0,0,0,0
2550,-3.20974e-12,6.13552e-38,-1.5448e-06,-3.27649e-12,6.13504e-38,-3.40902e-12,-1.06662e-13,0,0,0,0,0,0,0,0,0,0,0,0,0,0,0,0,0,0,0,0,0,-0.261799,3.14145,-1.5,0,0,0,0,0,0
2560,-3.20974e-12,6.13552e-38,-1.5448e-06,-3.27649e-12,6.13504e-38,0,-1.06662e-13,0,0,0,0,0,0,0,0,0,0,0,0,0,0,0,0,0,0,0,0,0,-0.261799,3.14145,-1.5,0,0,0,0,0,0
2570,-3.20974e-12,6.13552e-38,-1.5448e-06,-3.27649e-12,6.13504e-38,-3.40902e-12,-1.06662e-13,0,0,0,0,0,0,0,0,0,0,0,0,0,0,0,0,0,0,0,0,0,-0.261799,3.14146,-1.5,0,0,0,0,0,0
2580,-3.20974e-12,6.13552e-38,-1.5448e-06,-3.27649e-12,6.13504e-38,0,-1.06662e-13,0,0,0,0,0,0,0,0,0,0,0,0,0,0,0,0,0,0,0,0,0,-0.261799,3.14146,-1.5,0,0,0,0,0,0
2590,-3.20974e-12,6.13552e-38,-1.5448e-06,-3.27649e-12,6.13504e-38,-3.40902e-12,-1.06663e-13,0,0,0,0,0,0,0,0,0,0,0,0,0,0,0,0,0,0,0,0,0,-0.261799,3.14147,-1.5,0,0,0,0,0,0
2600,-3.20974e-12,6.13552e-38,-1.5448e-06,-3.27649e-12,6.13504e-38,0,-1.06663e-13,0,0,0,0,0,0,0,0,0,0,0,0,0,0,0,0,0,0,0,0,0,-0.261799,3.14147,-1.5,0,0,0,0,0,0
2610,-3.20974e-12,6.13552e-38,-1.5448e-06,-3.27649e-12,6.13504e-38,-3.40902e-12,-1.06663e-13,0,0,0,0,0,0,0,0,0,0,0,0,0,0,0,0,0,0,0,0,0,-0.261799,3.14148,-1.5,0,0,0,0,0,0
2620,-3.20974e-12,6.13552e-38,-1.5448e-06,-3.27649e-12,6.13504e-38,0,-1.06663e-13,0,0,0,0,0,0,0,0,0,0,0,0,0,0,0,0,0,0,0,0,0,-0.261799,3.14148,-1.5,0,0,0,0,0,0
2630,-3.20974e-12,6.13552e-38,-1.5448e-06,-3.27649e-12,6.13504e-38,-3.40902e-12,-1.06664e-13,0,0,0,0,0,0,0,0,0,0,0,0,0,0,0,0,0,0,0,0,0,-0.261799,3.14149,-1.5,0,0,0,0,0,0
2640,-3.20974e-12,6.13552e-38,-1.5448e-06,-3.27649e-12,6.13504e-38,0,-1.06664e-13,0,0,0,0,0,0,0,0,0,0,0,0,0,0,0,0,0,0,0,0,0,-0.261799,3.14149,-1.5,0,0,0,0,0,0
2650,-3.20974e-12,6.13552e-38,-1.5448e-06,-3.27649e-12,6.13504e-38,-3.40902e-12,-1.06664e-13,0,0,0,0,0,0,0,0,0,0,0,0,0,0,0,0,0,0,0,0,0,-0.261799,3.1415,-1.5,0,0,0,0,0,0
2660,-3.20974e-12,6.13552e-38,-1.5448e-06,-3.27649e-12,6.13504e-38,0,-1.06665e-13,0,0,0,0,0,0,0,0,0,0,0,0,0,0,0,0,0,0,0,0,0,-0.261799,3.1415,-1.5,0,0,0,0,0,0
2670,-3.20974e-12,6.13552e-38,-1.5448e-06,-3.27649e-12,6.13504e-38,-3.40902e-12,-1.06665e-13,0,0,0,0,0,0,0,0,0,0,0,0,0,0,0,0,0,0,0,0,0,-0.261799,3.1415,-1.5,0,0,0,0,0,0
2680,-3.20974e-12,6.13552e-38,-1.5448e-06,-3.27649e-12,6.13504e-38,0,-1.06665e-13,0,0,0,0,0,0,0,0,0,0,0,0,0,0,0,0,0,0,0,0,0,-0.261799,3.14151,-1.5,0,0,0,0,0,0
2690,-3.20974e-12,6.13552e-38,-1.5448e-06,-3.27649e-12,6.13504e-38,-3.40902e-12,-1.06665e-13,0,0,0,0,0,0,0,0,0,0,0,0,0,0,0,0,0,0,0,0,0,-0.261799,3.14151,-1.5,0,0,0,0,0,0
2700,-3.20974e-12,6.13552e-38,-1.5448e-06,-3.27649e-12,6.13504e-38,0,-1.06666e-13,0,0,0,0,0,0,0,0,0,0,0,0,0,0,0,0,0,0,0,0,0,-0.261799,3.14151,-1.5,0,0,0,0,0,0
2710,-3.20974e-12,6.13552e-38,-1.5448e-06,-3.27649e-12,6.13504e-38,-3.40902e-12,-1.06666e-13,0,0,0,0,0,0,0,0,0,0,0,0,0,0,0,0,0,0,0,0,0,-0.261799,3.14152,-1.5,0,0,0,0,0,0
2720,-3.20974e-12,6.13552e-38,-1.5448e-06,-3.27649e-12,6.13504e-38,0,-1.06666e-13,0,0,0,0,0,0,0,0,0,0,0,0,0,0,0,0,0,0,0,0,0,-0.261799,3.14152,-1.5,0,0,0,0,0,0
2730,-3.20974e-12,6.13552e-38,-1.5448e-06,-3.27649e-12,6.13504e-38,-3.40902e-12,-1.06666e-13,0,0,0,0,0,0,0,0,0,0,0,0,0,0,0,0,0,0,0,0,0,-0.261799,3.14152,-1.5,0,0,0,0,0,0
2740,-3.20974e-12,6.13552e-38,-1.5448e-06,-3.27649e-12,6.13504e-38,0,-1.06667e-13,0,0,0,0,0,0,0,0,0,0,0,0,0,0,0,0,0,0,0,0,0,-0.261799,3.14153,-1.5,0,0,0,0,0,0
2750,-3.20974e-12,6.13552e-38,-1.5448e-06,-3.27649e-12,6.13504e-38,-3.40902e-12,-1.06667e-13,0,0,0,0,0,0,0,0,0,0,0,0,0,0,0,0,0,0,0,0,0,-0.261799,3.14153,-1.5,0,0,0,0,0,0
2760,-3.20974e-12,6.13552e-38,-1.5448e-06,-3.27649e-12,6.13504e-38,0,-1.06667e-13,0,0,0,0,0,0,0,0,0,0,0,0,0,0,0,0,0,0,0,0,0,-0.261799,3.14153,-1.5,0,0,0,0,0,0
2770,-3.20974e-12,6.13552e-38,-1.5448e-06,-3.27649e-12,6.13504e-38,-3.40902e-12,-1.06668e-13,0,0,0,0,0,0,0,0,0,0,0,0,0,0,0,0,0,0,0,0,0,-0.261799,3.14153,-1.5,0,0,0,0,0,0
2780,-3.20974e-12,6.13552e-38,-1.5448e-06,-3.27649e-12,6.13504e-38,0,-1.06668e-13,0,0,0,0,0,0,0,0,0,0,0,0,0,0,0,0,0,0,0,0,0,-0.261799,3.14153,-1.5,0,0,0,0,0,0
2790,-3.20974e-12,6.13552e-38,-1.5448e-06,-3.27649e-12,6.13504e-38,-3.40902e-12,-1.06668e-13,0,0,0,0,0,0,0,0,0,0,0,0,0,0,0,0,0,0,0,0,0,-0.261799,3.14154,-1.5,0,0,0,0,0,0
2800,-3.20974e-12,6.13552e-38,-1.5448e-06,-3.27649e-12,6.13504e-38,0,-1.06668e-13,0,0,0,0,0,0,0,0,0,0,0,0,0,0,0,0,0,0,0,0,0,-0.261799,3.14154,-1.5,0,0,0,0,0,0
2810,-3.20974e-12,6.13552e-38,-1.5448e-06,-3.27649e-12,6.13504e-38,-3.40902e-12,-1.06669e-13,0,0,0,0,0,0,0,0,0,0,0,0,0,0,0,0,0,0,0,0,0,-0.261799,3.14154,-1.5,0,0,0,0,0,0
2820,-3.20974e-12,6.13552e-38,-1.5448e-06,-3.27649e-12,6.13504e-38,0,-1.06669e-13,0,0,0,0,0,0,0,0,0,0,0,0,0,0,0,0,0,0,0,0,0,-0.261799,3.14154,-1.5,0,0,0,0,0,0
2830,-3.20974e-12,6.13552e-38,-1.5448e-06,-3.27649e-12,6.13504e-38,-3.40902e-12,-1.06669e-13,0,0,0,0,0,0,0,0,0,0,0,0,0,0,0,0,0,0,0,0,0,-0.261799,3.14155,-1.5,0,0,0,0,0,0
2840,-3.20974e-12,6.13552e-38,-1.5448e-06,-3.27649e-12,6.13504e-38,0,-1.06669e-13,0,0,0,0,0,0,0,0,0,0,0,0,0,0,0,0,0,0,0,0,0,-0.261799,3.14155,-1.5,0,0,0,0,0,0
2850,-3.20974e-12,6.13552e-38,-1.5448e-06,-3.27649e-12,6.13504e-38,-3.40902e-12,-1.0667e-13,0,0,0,0,0,0,0,0,0,0,0,0,0,0,0,0,0,0,0,0,0,-0.261799,3.14155,-1.5,0,0,0,0,0,0
2860,-3.20974e-12,6.13552e-38,-1.5448e-06,-3.27649e-12,6.13504e-38,0,-1.0667e-13,0,0,0,0,0,0,0,0,0,0,0,0,0,0,0,0,0,0,0,0,0,-0.261799,3.14155,-1.5,0,0,0,0,0,0
2870,-3.20974e-12,6.13552e-38,-1.5448e-06,-3.27649e-12,6.13504e-38,-3.40902e-12,-1.0667e-13,0,0,0,0,0,0,0,0,0,0,0,0,0,0,0,0,0,0,0,0,0,-0.261799,3.14155,-1.5,0,0,0,0,0,0
2880,-3.20974e-12,6.13552e-38,-1.5448e-06,-3.27649e-12,6.13504e-38,0,-1.06671e-13,0,0,0,0,0,0,0,0,0,0,0,0,0,0,0,0,0,0,0,0,0,-0.261799,3.14156,-1.5,0,0,0,0,0,0
2890,-3.20974e-12,6.13552e-38,-1.5448e-06,-3.27649e-12,6.13504e-38,-3.40902e-12,-1.06671e-13,0,0,0,0,0,0,0,0,0,0,0,0,0,0,0,0,0,0,0,0,0,-0.261799,3.14156,-1.5,0,0,0,0,0,0
2900,-3.20974e-12,6.13552e-38,-1.5448e-06,-3.27649e-12,6.13504e-38,0,-1.06671e-13,0,0,0,0,0,0,0,0,0,0,0,0,0,0,0,0,0,0,0,0,0,-0.261799,3.14156,-1.5,0,0,0,0,0,0
2910,-3.20974e-12,6.13552e-38,-1.5448e-06,-3.27649e-12,6.13504e-38,-3.40902e-12,-1.06671e-13,0,0,0,0,0,0,0,0,0,0,0,0,0,0,0,0,0,0,0,0,0,-0.261799,3.14156,-1.5,0,0,0,0,0,0
2920,-3.20974e-12,6.13552e-38,-1.5448e-06,-3.27649e-12,6.13504e-38,0,-1.06672e-13,0,0,0,0,0,0,0,0,0,0,0,0,0,0,0,0,0,0,0,0,0,-0.261799,3.14156,-1.5,0,0,0,0,0,0
2930,-3.20974e-12,6.13552e-38,-1.5448e-06,-3.27649e-12,6.13504e-38,-3.40902e-12,-1.06672e-13,0,0,0,0,0,0,0,0,0,0,0,0,0,0,0,0,0,0,0,0,0,-0.261799,3.14156,-1.5,0,0,0,0,0,0
2940,-3.20974e-12,6.13552e-38,-1.5448e-06,-3.27649e-12,6.13504e-38,0,-1.06672e-13,0,0,0,0,0,0,0,0,0,0,0,0,0,0,0,0,0,0,0,0,0,-0.261799,3.14156,-1.5,0,0,0,0,0,0
2950,-3.20974e-12,6.13552e-38,-1.5448e-06,-3.27649e-12,6.13504e-38,-3.40902e-12,-1.06672e-13,0,0,0,0,0,0,0,0,0,0,0,0,0,0,0,0,0,0,0,0,0,-0.261799,3.14156,-1.5,0,0,0,0,0,0
2960,-3.20974e-12,6.13552e-38,-1.5448e-06,-3.27649e-12,6.13504e-38,0,-1.06673e-13,0,0,0,0,0,0,0,0,0,0,0,0,0,0,0,0,0,0,0,0,0,-0.261799,3.14156,-1.5,0,0,0,0,0,0
2970,-3.20974e-12,6.13552e-38,-1.5448e-06,-3.27649e-12,6.13504e-38,-3.40902e-12,-1.06673e-13,0,0,0,0,0,0,0,0,0,0,0,0,0,0,0,0,0,0,0,0,0,-0.261799,3.14157,-1.5,0,0,0,0,0,0
2980,-3.20974e-12,6.13552e-38,-1.5448e-06,-3.27649e-12,6.13504e-38,0,-1.06673e-13,0,0,0,0,0,0,0,0,0,0,0,0,0,0,0,0,0,0,0,0,0,-0.261799,3.14157,-1.5,0,0,0,0,0,0
2990,-3.20974e-12,6.13552e-38,-1.5448e-06,-3.27649e-12,6.13504e-38,-3.40902e-12,-1.06674e-13,0,0,0,0,0,0,0,0,0,0,0,0,0,0,0,0,0,0,0,0,0,-0.261799,3.14157,-1.5,0,0,0,0,0,0
3000,-3.20974e-12,6.13552e-38,-1.5448e-06,-3.27649e-12,6.13504e-38,0,-1.06674e-13,0,0,0,0,0,0,0,0,0,0,0,0,0,0,0,0,0,0,0,0,0,-0.261799,3.14157,-1.5,0,0,0,0,0,0
3010,-3.20974e-12,6.13552e-38,-1.5448e-06,-3.27649e-12,6.13504e-38,-3.40902e-12,-1.06674e-13,0,0,0,0,0,0,0,0,0,0,0,0,0,0,0,0,0,0,0,0,0,-0.261799,3.14157,-1.5,0,0,0,0,0,0
3020,-3.20974e-12,6.13552e-38,-1.5448e-06,-3.27649e-12,6.13504e-38,0,-1.06674e-13,0,0,0,0,0,0,0,0,0,0,0,0,0,0,0,0,0,0,0,0,0,-0.261799,3.14157,-1.5,0,0,0,0,0,0
3030,-3.20974e-12,6.13552e-38,-1.5448e-06,-3.27649e-12,6.13504e-38,-3.40902e-12,-1.06675e-13,0,0,0,0,0,0,0,0,0,0,0,0,0,0,0,0,0,0,0,0,0,-0.261799,3.14157,-1.5,0,0,0,0,0,0
3040,-3.20974e-12,6.13552e-38,-1.5448e-06,-3.27649e-12,6.13504e-38,0,-1.06675e-13,0,0,0,0,0,0,0,0,0,0,0,0,0,0,0,0,0,0,0,0,0,-0.261799,3.14157,-1.5,0,0,0,0,0,0
3050,-3.20974e-12,6.13552e-38,-1.5448e-06,-3.27649e-12,6.13504e-38,-3.40902e-12,-1.06675e-13,0,0,0,0,0,0,0,0,0,0,0,0,0,0,0,0,0,0,0,0,0,-0.261799,3.14157,-1.5,0,0,0,0,0,0
3060,-3.20974e-12,6.13552e-38,-1.5448e-06,-3.27649e-12,6.13504e-38,0,-1.06675e-13,0,0,0,0,0,0,0,0,0,0,0,0,0,0,0,0,0,0,0,0,0,-0.261799,3.14157,-1.5,0,0,0,0,0,0
3070,-3.20974e-12,6.13552e-38,-1.5448e-06,-3.27649e-12,6.13504e-38,-3.40902e-12,-1.06676e-13,0,0,0,0,0,0,0,0,0,0,0,0,0,0,0,0,0,0,0,0,0,-0.261799,3.14157,-1.5,0,0,0,0,0,0
3080,-3.20974e-12,6.13552e-38,-1.5448e-06,-3.27649e-12,6.13504e-38,0,-1.06676e-13,0,0,0,0,0,0,0,0,0,0,0,0,0,0,0,0,0,0,0,0,0,-0.261799,3.14157,-1.5,0,0,0,0,0,0
3090,-3.20974e-12,6.13552e-38,-1.5448e-06,-3.27649e-12,6.13504e-38,-3.40902e-12,-1.06676e-13,0,0,0,0,0,0,0,0,0,0,0,0,0,0,0,0,0,0,0,0,0,-0.261799,3.14157,-1.5,0,0,0,0,0,0
3100,-3.20974e-12,6.13552e-38,-1.5448e-06,-3.27649e-12,6.13504e-38,0,-1.06676e-13,0,0,0,0,0,0,0,0,0,0,0,0,0,0,0,0,0,0,0,0,0,-0.261799,3.14157,-1.5,0,0,0,0,0,0
3110,-3.20974e-12,6.13552e-38,-1.5448e-06,-3.27649e-12,6.13504e-38,-3.40902e-12,-1.06677e-13,0,0,0,0,0,0,0,0,0,0,0,0,0,0,0,0,0,0,0,0,0,-0.261799,3.14157,-1.5,0,0,0,0,0,0
3120,-3.20974e-12,6.13552e-38,-1.5448e-06,-3.27649e-12,6.13504e-38,0,-1.06677e-13,0,0,0,0,0,0,0,0,0,0,0,0,0,0,0,0,0,0,0,0,0,-0.261799,3.14157,-1.5,0,0,0,0,0,0
3130,-3.20974e-12,6.13552e-38,-1.5448e-06,-3.27649e-12,6.13504e-38,-3.40902e-12,-1.06677e-13,0,0,0,0,0,0,0,0,0,0,0,0,0,0,0,0,0,0,0,0,0,-0.261799,3.14157,-1.5,0,0,0,0,0,0
3140,-3.20974e-12,6.13552e-38,-1.5448e-06,-3.27649e-12,6.13504e-38,0,-1.06678e-13,0,0,0,0,0,0,0,0,0,0,0,0,0,0,0,0,0,0,0,0,0,-0.261799,3.14157,-1.5,0,0,0,0,0,0
3150,-3.20974e-12,6.13552e-38,-1.5448e-06,-3.27649e-12,6.13504e-38,-3.40902e-12,-1.06678e-13,0,0,0,0,0,0,0,0,0,0,0,0,0,0,0,0,0,0,0,0,0,-0.261799,3.14157,-1.5,0,0,0,0,0,0
3160,-3.20974e-12,6.13552e-38,-1.5448e-06,-3.27649e-12,6.13504e-38,0,-1.06678e-13,0,0,0,0,0,0,0,0,0,0,0,0,0,0,0,0,0,0,0,0,0,-0.261799,3.14158,-1.5,0,0,0,0,0,0
3170,-3.20974e-12,6.13552e-38,-1.5448e-06,-3.27649e-12,6.13504e-38,-3.40902e-12,-1.06628e-13,0,0,0,0,0,0,0,0,0,0,0,0,0,0,0,0,0,0,0,0,0,-0.261799,3.14158,-1.5,0,0,0,0,0,0
3180,-3.20974e-12,6.13552e-38,-1.5448e-06,-3.27649e-12,6.13504e-38,0,-1.06628e-13,0,0,0,0,0,0,0,0,0,0,0,0,0,0,0,0,0,0,0,0,0,-0.261799,3.14158,-1.5,0,0,0,0,0,0
3190,-3.20974e-12,6.13552e-38,-1.5448e-06,-3.27649e-12,6.13504e-38,-3.40902e-12,-1.06629e-13,0,0,0,0,0,0,0,0,0,0,0,0,0,0,0,0,0,0,0,0,0,-0.261799,3.14158,-1.5,0,0,0,0,0,0
3200,-3.20974e-12,6.13552e-38,-1.5448e-06,-3.27649e-12,6.13504e-38,0,-1.06629e-13,0,0,0,0,0,0,0,0,0,0,0,0,0,0,0,0,0,0,0,0,0,-0.261799,3.14158,-1.5,0,0,0,0,0,0
3210,-3.20974e-12,6.13552e-38,-1.5448e-06,-3.27649e-12,6.13504e-38,-3.40902e-12,-1.06629e-13,0,0,0,0,0,0,0,0,0,0,0,0,0,0,0,0,0,0,0,0,0,-0.261799,3.14158,-1.5,0,0,0,0,0,0
3220,-3.20974e-12,6.13552e-38,-1.5448e-06,-3.27649e-12,6.13504e-38,0,-1.06629e-13,0,0,0,0,0,0,0,0,0,0,0,0,0,0,0,0,0,0,0,0,0,-0.261799,3.14158,-1.5,0,0,0,0,0,0
3230,-3.20974e-12,6.13552e-38,-1.5448e-06,-3.27649e-12,6.13504e-38,-3.40902e-12,-1.0663e-13,0,0,0,0,0,0,0,0,0,0,0,0,0,0,0,0,0,0,0,0,0,-0.261799,3.14158,-1.5,0,0,0,0,0,0
3240,-3.20974e-12,6.13552e-38,-1.5448e-06,-3.27649e-12,6.13504e-38,0,-1.0663e-13,0,0,0,0,0,0,0,0,0,0,0,0,0,0,0,0,0,0,0,0,0,-0.261799,3.14158,-1.5,0,0,0,0,0,0
3250,-3.20974e-12,6.13552e-38,-1.5448e-06,-3.27649e-12,6.13504e-38,-3.40902e-12,-1.0663e-13,0,0,0,0,0,0,0,0,0,0,0,0,0,0,0,0,0,0,0,0,0,-0.261799,3.14158,-1.5,0,0,0,0,0,0
3260,-3.20974e-12,6.13552e-38,-1.5448e-06,-3.27649e-12,6.13504e-38,0,-1.06631e-13,0,0,0,0,0,0,0,0,0,0,0,0,0,0,0,0,0,0,0,0,0,-0.261799,3.14158,-1.5,0,0,0,0,0,0
3270,-3.20974e-12,6.13552e-38,-1.5448e-06,-3.27649e-12,6.13504e-38,-3.40902e-12,-1.06631e-13,0,0,0,0,0,0,0,0,0,0,0,0,0,0,0,0,0,0,0,0,0,-0.261799,3.14158,-1.5,0,0,0,0,0,0
3280,-3.20974e-12,6.13552e-38,-1.5448e-06,-3.27649e-12,6.13504e-38,0,-1.06631e-13,0,0,0,0,0,0,0,0,0,0,0,0,0,0,0,0,0,0,0,0,0,-0.261799,3.14158,-1.5,0,0,0,0,0,0
3290,-3.20974e-12,6.13552e-38,-1.5448e-06,-3.27649e-12,6.13504e-38,-3.40902e-12,-1.06631e-13,0,0,0,0,0,0,0,0,0,0,0,0,0,0,0,0,0,0,0,0,0,-0.261799,3.14158,-1.5,0,0,0,0,0,0
3300,-3.20974e-12,6.13552e-38,-1.5448e-06,-3.27649e-12,6.13504e-38,0,-1.06678e-13,0,0,0,0,0,0,0,0,0,0,0,0,0,0,0,0,0,0,0,0,0,-0.261799,3.14158,-1.5,0,0,0,0,0,0
3310,-3.20974e-12,6.13552e-38,-1.5448e-06,-3.27649e-12,6.13504e-38,-3.40902e-12,-1.06679e-13,0,0,0,0,0,0,0,0,0,0,0,0,0,0,0,0,0,0,0,0,0,-0.261799,3.14158,-1.5,0,0,0,0,0,0
3320,-3.20974e-12,6.13552e-38,-1.5448e-06,-3.27649e-12,6.13504e-38,0,-1.06679e-13,0,0,0,0,0,0,0,0,0,0,0,0,0,0,0,0,0,0,0,0,0,-0.261799,3.14158,-1.5,0,0,0,0,0,0
3330,-3.20974e-12,6.13552e-38,-1.5448e-06,-3.27649e-12,6.13504e-38,-3.40902e-12,-1.06679e-13,0,0,0,0,0,0,0,0,0,0,0,0,0,0,0,0,0,0,0,0,0,-0.261799,3.14158,-1.5,0,0,0,0,0,0
3340,-3.20974e-12,6.13552e-38,-1.5448e-06,-3.27649e-12,6.13504e-38,0,-1.06679e-13,0,0,0,0,0,0,0,0,0,0,0,0,0,0,0,0,0,0,0,0,0,-0.261799,3.14158,-1.5,0,0,0,0,0,0
3350,-3.20974e-12,6.13552e-38,-1.5448e-06,-3.27649e-12,6.13504e-38,-3.40902e-12,-1.0668e-13,0,0,0,0,0,0,0,0,0,0,0,0,0,0,0,0,0,0,0,0,0,-0.261799,3.14158,-1.5,0,0,0,0,0,0
3360,-3.20974e-12,6.13552e-38,-1.5448e-06,-3.27649e-12,6.13504e-38,0,-1.0668e-13,0,0,0,0,0,0,0,0,0,0,0,0,0,0,0,0,0,0,0,0,0,-0.261799,3.14158,-1.5,0,0,0,0,0,0
3370,-3.20974e-12,6.13552e-38,-1.5448e-06,-3.27649e-12,6.13504e-38,-3.40902e-12,-1.0668e-13,0,0,0,0,0,0,0,0,0,0,0,0,0,0,0,0,0,0,0,0,0,-0.261799,3.14158,-1.5,0,0,0,0,0,0
3380,-3.20974e-12,6.13552e-38,-1.5448e-06,-3.27649e-12,6.13504e-38,0,-1.06681e-13,0,0,0,0,0,0,0,0,0,0,0,0,0,0,0,0,0,0,0,0,0,-0.261799,3.14158,-1.5,0,0,0,0,0,0
3390,-3.20974e-12,6.13552e-38,-1.5448e-06,-3.27649e-12,6.13504e-38,-3.40902e-12,-1.06681e-13,0,0,0,0,0,0,0,0,0,0,0,0,0,0,0,0,0,0,0,0,0,-0.261799,3.14158,-1.5,0,0,0,0,0,0
3400,-3.20974e-12,6.13552e-38,-1.5448e-06,-3.27649e-12,6.13504e-38,0,-1.06681e-13,0,0,0,0,0,0,0,0,0,0,0,0,0,0,0,0,0,0,0,0,0,-0.261799,3.14158,-1.5,0,0,0,0,0,0
3410,-3.20974e-12,6.13552e-38,-1.5448e-06,-3.27649e-12,6.13504e-38,-3.40902e-12,-1.06681e-13,0,0,0,0,0,0,0,0,0,0,0,0,0,0,0,0,0,0,0,0,0,-0.261799,3.14158,-1.5,0,0,0,0,0,0
3420,-3.20974e-12,6.13552e-38,-1.5448e-06,-3.27649e-12,6.13504e-38,0,-1.06682e-13,0,0,0,0,0,0,0,0,0,0,0,0,0,0,0,0,0,0,0,0,0,-0.261799,3.14158,-1.5,0,0,0,0,0,0
3430,-3.20974e-12,6.13552e-38,-1.5448e-06,-3.27649e-12,6.13504e-38,-3.40902e-12,-1.06682e-13,0,0,0,0,0,0,0,0,0,0,0,0,0,0,0,0,0,0,0,0,0,-0.261799,3.14158,-1.5,0,0,0,0,0,0
3440,-3.20974e-12,6.13552e-38,-1.5448e-06,-3.27649e-12,6.13504e-38,0,-1.06682e-13,0,0,0,0,0,0,0,0,0,0,0,0,0,0,0,0,0,0,0,0,0,-0.261799,3.14158,-1.5,0,0,0,0,0,0
3450,-3.20974e-12,6.13552e-38,-1.5448e-06,-3.27649e-12,6.13504e-38,-3.40902e-12,-1.06682e-13,0,0,0,0,0,0,0,0,0,0,0,0,0,0,0,0,0,0,0,0,0,-0.261799,3.14158,-1.5,0,0,0,0,0,0
3460,-3.20974e-12,6.13552e-38,-1.5448e-06,-3.27649e-12,6.13504e-38,0,-1.06683e-13,0,0,0,0,0,0,0,0,0,0,0,0,0,0,0,0,0,0,0,0,0,-0.261799,3.14158,-1.5,0,0,0,0,0,0
3470,-3.20974e-12,6.13552e-38,-1.5448e-06,-3.27649e-12,6.13504e-38,-3.40902e-12,-1.06683e-13,0,0,0,0,0,0,0,0,0,0,0,0,0,0,0,0,0,0,0,0,0,-0.261799,3.14158,-1.5,0,0,0,0,0,0
3480,-3.20974e-12,6.13552e-38,-1.5448e-06,-3.27649e-12,6.13504e-38,0,-1.06683e-13,0,0,0,0,0,0,0,0,0,0,0,0,0,0,0,0,0,0,0,0,0,-0.261799,3.14158,-1.5,0,0,0,0,0,0
3490,-3.20974e-12,6.13552e-38,-1.5448e-06,-3.27649e-12,6.13504e-38,-3.40902e-12,-1.06684e-13,0,0,0,0,0,0,0,0,0,0,0,0,0,0,0,0,0,0,0,0,0,-0.261799,3.14158,-1.5,0,0,0,0,0,0
3500,-3.20974e-12,6.13552e-38,-1.5448e-06,-3.27649e-12,6.13504e-38,0,-1.06684e-13,0,0,0,0,0,0,0,0,0,0,0,0,0,0,0,0,0,0,0,0,0,-0.261799,3.14158,-1.5,0,0,0,0,0,0
3510,-3.20974e-12,6.13552e-38,-1.5448e-06,-3.27649e-12,6.13504e-38,-3.40902e-12,-1.06684e-13,0,0,0,0,0,0,0,0,0,0,0,0,0,0,0,0,0,0,0,0,0,-0.261799,3.14158,-1.5,0,0,0,0,0,0
3520,-3.20974e-12,6.13552e-38,-1.5448e-06,-3.27649e-12,6.13504e-38,0,-1.06684e-13,0,0,0,0,0,0,0,0,0,0,0,0,0,0,0,0,0,0,0,0,0,-0.261799,3.14158,-1.5,0,0,0,0,0,0
3530,-3.20974e-12,6.13552e-38,-1.5448e-06,-3.27649e-12,6.13504e-38,-3.40902e-12,-1.06685e-13,0,0,0,0,0,0,0,0,0,0,0,0,0,0,0,0,0,0,0,0,0,-0.261799,3.14158,-1.5,0,0,0,0,0,0
3540,-3.20974e-12,6.13552e-38,-1.5448e-06,-3.27649e-12,6.13504e-38,0,-1.06685e-13,0,0,0,0,0,0,0,0,0,0,0,0,0,0,0,0,0,0,0,0,0,-0.261799,3.14158,-1.5,0,0,0,0,0,0
3550,-3.20974e-12,6.13552e-38,-1.5448e-06,-3.27649e-12,6.13504e-38,-3.40902e-12,-1.06685e-13,0,0,0,0,0,0,0,0,0,0,0,0,0,0,0,0,0,0,0,0,0,-0.261799,3.14159,-1.5,0,0,0,0,0,0
3560,-3.20974e-12,6.13552e-38,-1.5448e-06,-3.27649e-12,6.13504e-38,0,-1.06685e-13,0,0,0,0,0,0,0,0,0,0,0,0,0,0,0,0,0,0,0,0,0,-0.261799,3.14159,-1.5,0,0,0,0,0,0
3570,-3.20974e-12,6.13552e-38,-1.5448e-06,-3.27649e-12,6.13504e-38,-3.40902e-12,-1.06686e-13,0,0,0,0,0,0,0,0,0,0,0,0,0,0,0,0,0,0,0,0,0,-0.261799,3.14159,-1.5,0,0,0,0,0,0
3580,-3.20974e-12,6.13552e-38,-1.5448e-06,-3.27649e-12,6.13504e-38,0,-1.06686e-13,0,0,0,0,0,0,0,0,0,0,0,0,0,0,0,0,0,0,0,0,0,-0.261799,3.14159,-1.5,0,0,0,0,0,0
3590,-3.20974e-12,6.13552e-38,-1.5448e-06,-3.27649e-12,6.13504e-38,-3.40902e-12,-1.06686e-13,0,0,0,0,0,0,0,0,0,0,0,0,0,0,0,0,0,0,0,0,0,-0.261799,3.14159,-1.5,0,0,0,0,0,0
3600,-3.20974e-12,6.13552e-38,-1.5448e-06,-3.27649e-12,6.13504e-38,0,-1.06687e-13,0,0,0,0,0,0,0,0,0,0,0,0,0,0,0,0,0,0,0,0,0,-0.261799,3.14159,-1.5,0,0,0,0,0,0
3610,-3.20974e-12,6.13552e-38,-1.5448e-06,-3.27649e-12,6.13504e-38,-3.40902e-12,-1.06687e-13,0,0,0,0,0,0,0,0,0,0,0,0,0,0,0,0,0,0,0,0,0,-0.261799,3.14159,-1.5,0,0,0,0,0,0
3620,-3.20974e-12,6.13552e-38,-1.5448e-06,-3.27649e-12,6.13504e-38,0,-1.06687e-13,0,0,0,0,0,0,0,0,0,0,0,0,0,0,0,0,0,0,0,0,0,-0.261799,3.14159,-1.5,0,0,0,0,0,0
3630,-3.20974e-12,6.13552e-38,-1.5448e-06,-3.27649e-12,6.13504e-38,-3.40902e-12,-1.06687e-13,0,0,0,0,0,0,0,0,0,0,0,0,0,0,0,0,0,0,0,0,0,-0.261799,3.14159,-1.5,0,0,0,0,0,0
3640,-3.20974e-12,6.13552e-38,-1.5448e-06,-3.27649e-12,6.13504e-38,0,-1.06688e-13,0,0,0,0,0,0,0,0,0,0,0,0,0,0,0,0,0,0,0,0,0,-0.261799,3.14159,-1.5,0,0,0,0,0,0
