timestamp,A_x,A_y,A_z,P,Q,R,Phi,Theta,Psi,poseX,poseY,poseZ,state_X,state_Y,state_Z,state_VzB,state_Bx,state_By,state_Bz,p1_x,p1_y,p2_x,p2_y,p3_x,p3_y,p4_x,p4_y,roll,pitch,yaw,alt,targetHeading,highLevelState,lowLevelState,gateNumber,filtered_x,filtered_y,x_OT,y_OT,vx_OT,vy_OT,filtered_vx,filtered_vygateArearansac_corr_x,ransac_corr_y,ransac_corr_vx,ransac_corr_vy,detectionTimeStamppTermX,dTermX,pTermY,dTermY,vxcmd,vycmd
6982,0,0,0,0,0,0,0,0,0,0,0,0,0,0,0,0,0,0,0,0,0,0,0,0,0,0,0,0,-0.375,0.0188495,-1.5,3.94113e+12,0,0,2,0,0,0,0,0,0,0,0,1.9603e-19,0,0,0,0,0,0,0,0,0,2.5,0
9047,-3.72163e-12,0,-1.58625e-06,-3.85292e-12,0,0,-1.13703e-13,0,0,0,0,0,0,0,0,0,0,0,0,0,0,0,0,0,0,0,0,0,-0.375,3.24649,-1.5,3.94113e+12,0,0,2,0,0,0,0,0,0,0,0,1.9603e-19,0,0,0,0,0,0,0,0,0,2.5,0
9061,-3.72163e-12,0,-1.58625e-06,-3.85292e-12,0,0,-1.13703e-13,0,0,0,0,0,0,0,0,0,0,0,0,0,0,0,0,0,0,0,0,0,-0.375,3.24379,-1.5,3.94113e+12,0,0,2,0,0,0,0,0,0,0,0,1.9603e-19,0,0,0,0,0,0,0,0,0,2.5,0
9076,-3.72163e-12,0,-1.58625e-06,-3.85292e-12,0,0,-1.13704e-13,0,0,0,0,0,0,0,0,0,0,0,0,0,0,0,0,0,0,0,0,0,-0.375,3.24056,-1.5,3.94113e+12,0,0,2,0,0,0,0,0,0,0,0,1.9603e-19,0,0,0,0,0,0,0,0,0,2.5,0
9091,-3.72163e-12,0,-1.58625e-06,-3.85292e-12,0,0,-1.13704e-13,0,0,0,0,0,0,0,0,0,0,0,0,0,0,0,0,0,0,0,0,0,-0.375,3.23762,-1.5,3.94113e+12,0,0,2,0,0,0,0,0,0,0,0,1.9603e-19,0,0,0,0,0,0,0,0,0,2.5,0
9107,-3.72163e-12,0,-1.58625e-06,-3.85292e-12,0,0,-1.13705e-13,0,0,0,0,0,0,0,0,0,0,0,0,0,0,0,0,0,0,0,0,0,-0.375,3.23458,-1.5,3.94113e+12,0,0,2,0,0,0,0,0,0,0,0,1.9603e-19,0,0,0,0,0,0,0,0,0,2.5,0
9123,-3.72163e-12,0,-1.58625e-06,-3.85292e-12,0,0,-1.13705e-13,0,0,0,0,0,0,0,0,0,0,0,0,0,0,0,0,0,0,0,0,0,-0.375,3.23164,-1.5,3.94113e+12,0,0,2,0,0,0,0,0,0,0,0,1.9603e-19,0,0,0,0,0,0,0,0,0,2.5,0
9138,-3.72163e-12,0,-1.58625e-06,-3.85292e-12,0,0,-1.13706e-13,0,0,0,0,0,0,0,0,0,0,0,0,0,0,0,0,0,0,0,0,0,-0.375,3.22897,-1.5,3.94113e+12,0,0,2,0,0,0,0,0,0,0,0,1.9603e-19,0,0,0,0,0,0,0,0,0,2.5,0
9154,-3.72163e-12,0,-1.58625e-06,-3.85292e-12,0,0,-1.13706e-13,0,0,0,0,0,0,0,0,0,0,0,0,0,0,0,0,0,0,0,0,0,-0.375,3.22621,-1.5,3.94113e+12,0,0,2,0,0,0,0,0,0,0,0,1.9603e-19,0,0,0,0,0,0,0,0,0,2.5,0
9171,-3.72163e-12,0,-1.58625e-06,-3.85292e-12,0,0,-1.13707e-13,0,0,0,0,0,0,0,0,0,0,0,0,0,0,0,0,0,0,0,0,0,-0.375,3.22336,-1.5,3.94113e+12,0,0,2,0,0,0,0,0,0,0,0,1.9603e-19,0,0,0,0,0,0,0,0,0,2.5,0
9191,-3.72163e-12,0,-1.58625e-06,-3.85292e-12,0,0,-1.13708e-13,0,0,0,0,0,0,0,0,0,0,0,0,0,0,0,0,0,0,0,0,0,-0.375,3.22013,-1.5,3.94113e+12,0,0,2,0,0,0,0,0,0,0,0,1.9603e-19,0,0,0,0,0,0,0,0,0,2.5,0
9206,-3.72163e-12,0,-1.58625e-06,-3.85292e-12,0,0,-1.13708e-13,0,0,0,0,0,0,0,0,0,0,0,0,0,0,0,0,0,0,0,0,0,-0.375,3.2178,-1.5,3.94113e+12,0,0,2,0,0,0,0,0,0,0,0,1.9603e-19,0,0,0,0,0,0,0,0,0,2.5,0
9222,-3.72163e-12,0,-1.58625e-06,-3.85292e-12,0,0,-1.13709e-13,0,0,0,0,0,0,0,0,0,0,0,0,0,0,0,0,0,0,0,0,0,-0.375,3.21539,-1.5,3.94113e+12,0,0,2,0,0,0,0,0,0,0,0,1.9603e-19,0,0,0,0,0,0,0,0,0,2.5,0
9238,-3.72163e-12,0,-1.58625e-06,-3.85292e-12,0,0,-1.13709e-13,0,0,0,0,0,0,0,0,0,0,0,0,0,0,0,0,0,0,0,0,0,-0.375,3.21306,-1.5,3.94113e+12,0,0,2,0,0,0,0,0,0,0,0,1.9603e-19,0,0,0,0,0,0,0,0,0,2.5,0
9255,-3.72163e-12,0,-1.58625e-06,-3.85292e-12,0,0,-1.1371e-13,0,0,0,0,0,0,0,0,0,0,0,0,0,0,0,0,0,0,0,0,0,-0.375,3.21079,-1.5,3.94113e+12,0,0,2,0,0,0,0,0,0,0,0,1.9603e-19,0,0,0,0,0,0,0,0,0,2.5,0
9325,-3.72163e-12,0,-1.58625e-06,-3.85292e-12,0,0,-1.1371e-13,0,0,0,0,0,0,0,0,0,0,0,0,0,0,0,0,0,0,0,0,0,-0.375,3.20126,-1.5,3.94113e+12,0,0,2,0,0,0,0,0,0,0,0,1.9603e-19,0,0,0,0,0,0,0,0,0,2.5,0
9341,-3.72163e-12,0,-1.58625e-06,-3.85292e-12,0,0,-1.13711e-13,0,0,0,0,0,0,0,0,0,0,0,0,0,0,0,0,0,0,0,0,0,-0.375,3.19938,-1.5,3.94113e+12,0,0,2,0,0,0,0,0,0,0,0,1.9603e-19,0,0,0,0,0,0,0,0,0,2.5,0
9357,-3.72163e-12,0,-1.58625e-06,-3.85292e-12,0,0,-1.13711e-13,0,0,0,0,0,0,0,0,0,0,0,0,0,0,0,0,0,0,0,0,0,-0.375,3.19755,-1.5,3.94113e+12,0,0,2,0,0,0,0,0,0,0,0,1.9603e-19,0,0,0,0,0,0,0,0,0,2.5,0
9374,-3.72163e-12,0,-1.58625e-06,-3.85292e-12,0,0,-1.13712e-13,0,0,0,0,0,0,0,0,0,0,0,0,0,0,0,0,0,0,0,0,0,-0.375,3.19567,-1.5,3.94113e+12,0,0,2,0,0,0,0,0,0,0,0,1.9603e-19,0,0,0,0,0,0,0,0,0,2.5,0
9389,-3.72163e-12,0,-1.58625e-06,-3.85292e-12,0,0,-1.13712e-13,0,0,0,0,0,0,0,0,0,0,0,0,0,0,0,0,0,0,0,0,0,-0.375,3.19406,-1.5,3.94113e+12,0,0,2,0,0,0,0,0,0,0,0,1.9603e-19,0,0,0,0,0,0,0,0,0,2.5,0
9406,-3.72163e-12,0,-1.58625e-06,-3.85292e-12,0,0,-1.13713e-13,0,0,0,0,0,0,0,0,0,0,0,0,0,0,0,0,0,0,0,0,0,-0.375,3.1923,-1.5,3.94113e+12,0,0,2,0,0,0,0,0,0,0,0,1.9603e-19,0,0,0,0,0,0,0,0,0,2.5,0
9420,-3.72163e-12,0,-1.58625e-06,-3.85292e-12,0,0,-1.13714e-13,0,0,0,0,0,0,0,0,0,0,0,0,0,0,0,0,0,0,0,0,0,-0.375,3.19099,-1.5,3.94113e+12,0,0,2,0,0,0,0,0,0,0,0,1.9603e-19,0,0,0,0,0,0,0,0,0,2.5,0
9434,-3.72163e-12,0,-1.58625e-06,-3.85292e-12,0,0,-1.13714e-13,0,0,0,0,0,0,0,0,0,0,0,0,0,0,0,0,0,0,0,0,0,-0.375,3.18953,-1.5,3.94113e+12,0,0,2,0,0,0,0,0,0,0,0,1.9603e-19,0,0,0,0,0,0,0,0,0,2.5,0
9449,-3.72163e-12,0,-1.58625e-06,-3.85292e-12,0,0,-1.13715e-13,0,0,0,0,0,0,0,0,0,0,0,0,0,0,0,0,0,0,0,0,0,-0.375,3.1881,-1.5,3.94113e+12,0,0,2,0,0,0,0,0,0,0,0,1.9603e-19,0,0,0,0,0,0,0,0,0,2.5,0
9466,-3.72163e-12,0,-1.58625e-06,-3.85292e-12,0,0,-1.13715e-13,0,0,0,0,0,0,0,0,0,0,0,0,0,0,0,0,0,0,0,0,0,-0.375,3.18654,-1.5,3.94113e+12,0,0,2,0,0,0,0,0,0,0,0,1.9603e-19,0,0,0,0,0,0,0,0,0,2.5,0
9482,-3.72163e-12,0,-1.58625e-06,-3.85292e-12,0,0,-1.13716e-13,0,0,0,0,0,0,0,0,0,0,0,0,0,0,0,0,0,0,0,0,0,-0.375,3.18521,-1.5,3.94113e+12,0,0,2,0,0,0,0,0,0,0,0,1.9603e-19,0,0,0,0,0,0,0,0,0,2.5,0
9497,-3.72163e-12,0,-1.58625e-06,-3.85292e-12,0,0,-1.13716e-13,0,0,0,0,0,0,0,0,0,0,0,0,0,0,0,0,0,0,0,0,0,-0.375,3.18383,-1.5,3.94113e+12,0,0,2,0,0,0,0,0,0,0,0,1.9603e-19,0,0,0,0,0,0,0,0,0,2.5,0
9513,-3.72163e-12,0,-1.58625e-06,-3.85292e-12,0,0,-1.13717e-13,0,0,0,0,0,0,0,0,0,0,0,0,0,0,0,0,0,0,0,0,0,-0.375,3.18249,-1.5,3.94113e+12,0,0,2,0,0,0,0,0,0,0,0,1.9603e-19,0,0,0,0,0,0,0,0,0,2.5,0
9529,-3.72163e-12,0,-1.58625e-06,-3.85292e-12,0,0,-1.13717e-13,0,0,0,0,0,0,0,0,0,0,0,0,0,0,0,0,0,0,0,0,0,-0.375,3.1812,-1.5,3.94113e+12,0,0,2,0,0,0,0,0,0,0,0,1.9603e-19,0,0,0,0,0,0,0,0,0,2.5,0
9545,-3.72163e-12,0,-1.58625e-06,-3.85292e-12,0,0,-1.13718e-13,0,0,0,0,0,0,0,0,0,0,0,0,0,0,0,0,0,0,0,0,0,-0.375,3.17994,-1.5,3.94113e+12,0,0,2,0,0,0,0,0,0,0,0,1.9603e-19,0,0,0,0,0,0,0,0,0,2.5,0
9562,-3.72163e-12,0,-1.58625e-06,-3.85292e-12,0,0,-1.13718e-13,0,0,0,0,0,0,0,0,0,0,0,0,0,0,0,0,0,0,0,0,0,-0.375,3.17865,-1.5,3.94113e+12,0,0,2,0,0,0,0,0,0,0,0,1.9603e-19,0,0,0,0,0,0,0,0,0,2.5,0
9590,-3.72163e-12,0,-1.58625e-06,-3.85292e-12,0,0,-1.13719e-13,0,0,0,0,0,0,0,0,0,0,0,0,0,0,0,0,0,0,0,0,0,-0.375,3.17668,-1.5,3.94113e+12,0,0,2,0,0,0,0,0,0,0,0,1.9603e-19,0,0,0,0,0,0,0,0,0,2.5,0
9606,-3.72163e-12,0,-1.58625e-06,-3.85292e-12,0,0,-1.13719e-13,0,0,0,0,0,0,0,0,0,0,0,0,0,0,0,0,0,0,0,0,0,-0.375,3.17557,-1.5,3.94113e+12,0,0,2,0,0,0,0,0,0,0,0,1.9603e-19,0,0,0,0,0,0,0,0,0,2.5,0
9623,-3.72163e-12,0,-1.58625e-06,-3.85292e-12,0,0,-1.1372e-13,0,0,0,0,0,0,0,0,0,0,0,0,0,0,0,0,0,0,0,0,0,-0.375,3.17443,-1.5,3.94113e+12,0,0,2,0,0,0,0,0,0,0,0,1.9603e-19,0,0,0,0,0,0,0,0,0,2.5,0
9639,-3.72163e-12,0,-1.58625e-06,-3.85292e-12,0,0,-1.13721e-13,0,0,0,0,0,0,0,0,0,0,0,0,0,0,0,0,0,0,0,0,0,-0.375,3.17339,-1.5,3.94113e+12,0,0,2,0,0,0,0,0,0,0,0,1.9603e-19,0,0,0,0,0,0,0,0,0,2.5,0
9655,-3.72163e-12,0,-1.58625e-06,-3.85292e-12,0,0,-1.13721e-13,0,0,0,0,0,0,0,0,0,0,0,0,0,0,0,0,0,0,0,0,0,-0.375,3.17238,-1.5,3.94113e+12,0,0,2,0,0,0,0,0,0,0,0,1.9603e-19,0,0,0,0,0,0,0,0,0,2.5,0
9673,-3.72163e-12,0,-1.58625e-06,-3.85292e-12,0,0,-1.13722e-13,0,0,0,0,0,0,0,0,0,0,0,0,0,0,0,0,0,0,0,0,0,-0.375,3.17135,-1.5,3.94113e+12,0,0,2,0,0,0,0,0,0,0,0,1.9603e-19,0,0,0,0,0,0,0,0,0,2.5,0
9688,-3.72163e-12,0,-1.58625e-06,-3.85292e-12,0,0,-1.13722e-13,0,0,0,0,0,0,0,0,0,0,0,0,0,0,0,0,0,0,0,0,0,-0.375,3.17041,-1.5,3.94113e+12,0,0,2,0,0,0,0,0,0,0,0,1.9603e-19,0,0,0,0,0,0,0,0,0,2.5,0
9705,-3.72163e-12,0,-1.58625e-06,-3.85292e-12,0,0,-1.13723e-13,0,0,0,0,0,0,0,0,0,0,0,0,0,0,0,0,0,0,0,0,0,-0.375,3.16944,-1.5,3.94113e+12,0,0,2,0,0,0,0,0,0,0,0,1.9603e-19,0,0,0,0,0,0,0,0,0,2.5,0
9721,-3.72163e-12,0,-1.58625e-06,-3.85292e-12,0,0,-1.13723e-13,0,0,0,0,0,0,0,0,0,0,0,0,0,0,0,0,0,0,0,0,0,-0.375,3.16856,-1.5,3.94113e+12,0,0,2,0,0,0,0,0,0,0,0,1.9603e-19,0,0,0,0,0,0,0,0,0,2.5,0
9737,-3.72163e-12,0,-1.58625e-06,-3.85292e-12,0,0,-1.13724e-13,0,0,0,0,0,0,0,0,0,0,0,0,0,0,0,0,0,0,0,0,0,-0.375,3.1677,-1.5,3.94113e+12,0,0,2,0,0,0,0,0,0,0,0,1.9603e-19,0,0,0,0,0,0,0,0,0,2.5,0
9754,-3.72163e-12,0,-1.58625e-06,-3.85292e-12,0,0,-1.13724e-13,0,0,0,0,0,0,0,0,0,0,0,0,0,0,0,0,0,0,0,0,0,-0.375,3.16683,-1.5,3.94113e+12,0,0,2,0,0,0,0,0,0,0,0,1.9603e-19,0,0,0,0,0,0,0,0,0,2.5,0
9768,-3.72163e-12,0,-1.58625e-06,-3.85292e-12,0,0,-1.13725e-13,0,0,0,0,0,0,0,0,0,0,0,0,0,0,0,0,0,0,0,0,0,-0.375,3.16613,-1.5,3.94113e+12,0,0,2,0,0,0,0,0,0,0,0,1.9603e-19,0,0,0,0,0,0,0,0,0,2.5,0
9782,-3.72163e-12,0,-1.58625e-06,-3.85292e-12,0,0,-1.13725e-13,0,0,0,0,0,0,0,0,0,0,0,0,0,0,0,0,0,0,0,0,0,-0.375,3.16549,-1.5,3.94113e+12,0,0,2,0,0,0,0,0,0,0,0,1.9603e-19,0,0,0,0,0,0,0,0,0,2.5,0
9798,-3.72163e-12,0,-1.58625e-06,-3.85292e-12,0,0,-1.13726e-13,0,0,0,0,0,0,0,0,0,0,0,0,0,0,0,0,0,0,0,0,0,-0.375,3.16474,-1.5,3.94113e+12,0,0,2,0,0,0,0,0,0,0,0,1.9603e-19,0,0,0,0,0,0,0,0,0,2.5,0
9814,-3.72163e-12,0,-1.58625e-06,-3.85292e-12,0,0,-1.13727e-13,0,0,0,0,0,0,0,0,0,0,0,0,0,0,0,0,0,0,0,0,0,-0.375,3.16405,-1.5,3.94113e+12,0,0,2,0,0,0,0,0,0,0,0,1.9603e-19,0,0,0,0,0,0,0,0,0,2.5,0
9831,-3.72163e-12,0,-1.58625e-06,-3.85292e-12,0,0,-1.13727e-13,0,0,0,0,0,0,0,0,0,0,0,0,0,0,0,0,0,0,0,0,0,-0.375,3.16325,-1.5,3.94113e+12,0,0,2,0,0,0,0,0,0,0,0,1.9603e-19,0,0,0,0,0,0,0,0,0,2.5,0
9846,-3.72163e-12,0,-1.58625e-06,-3.85292e-12,0,0,-1.13728e-13,0,0,0,0,0,0,0,0,0,0,0,0,0,0,0,0,0,0,0,0,0,-0.375,3.16261,-1.5,3.94113e+12,0,0,2,0,0,0,0,0,0,0,0,1.9603e-19,0,0,0,0,0,0,0,0,0,2.5,0
9862,-3.72163e-12,0,-1.58625e-06,-3.85292e-12,0,0,-1.13728e-13,0,0,0,0,0,0,0,0,0,0,0,0,0,0,0,0,0,0,0,0,0,-0.375,3.16194,-1.5,3.94113e+12,0,0,2,0,0,0,0,0,0,0,0,1.9603e-19,0,0,0,0,0,0,0,0,0,2.5,0
9879,-3.72163e-12,0,-1.58625e-06,-3.85292e-12,0,0,-1.13729e-13,0,0,0,0,0,0,0,0,0,0,0,0,0,0,0,0,0,0,0,0,0,-0.375,3.16126,-1.5,3.94113e+12,0,0,2,0,0,0,0,0,0,0,0,1.9603e-19,0,0,0,0,0,0,0,0,0,2.5,0
9895,-3.72163e-12,0,-1.58625e-06,-3.85292e-12,0,0,-1.13729e-13,0,0,0,0,0,0,0,0,0,0,0,0,0,0,0,0,0,0,0,0,0,-0.375,3.16064,-1.5,3.94113e+12,0,0,2,0,0,0,0,0,0,0,0,1.9603e-19,0,0,0,0,0,0,0,0,0,2.5,0
9911,-3.72163e-12,0,-1.58625e-06,-3.85292e-12,0,0,-1.1373e-13,0,0,0,0,0,0,0,0,0,0,0,0,0,0,0,0,0,0,0,0,0,-0.375,3.16004,-1.5,3.94113e+12,0,0,2,0,0,0,0,0,0,0,0,1.9603e-19,0,0,0,0,0,0,0,0,0,2.5,0
9927,-3.72163e-12,0,-1.58625e-06,-3.85292e-12,0,0,-1.1373e-13,0,0,0,0,0,0,0,0,0,0,0,0,0,0,0,0,0,0,0,0,0,-0.375,3.15945,-1.5,3.94113e+12,0,0,2,0,0,0,0,0,0,0,0,1.9603e-19,0,0,0,0,0,0,0,0,0,2.5,0
9943,-3.72163e-12,0,-1.58625e-06,-3.85292e-12,0,0,-1.13731e-13,0,0,0,0,0,0,0,0,0,0,0,0,0,0,0,0,0,0,0,0,0,-0.375,3.15889,-1.5,3.94113e+12,0,0,2,0,0,0,0,0,0,0,0,1.9603e-19,0,0,0,0,0,0,0,0,0,2.5,0
9971,-3.72163e-12,0,-1.58625e-06,-3.85292e-12,0,0,-1.13731e-13,0,0,-3.67701,0.217607,0.794905,0,0,0,0,0,0,0,236,-91,236,-91,360,-100,236,33,0,-0.375,3.15793,-1.5,3.94113e+12,0,0,2,0,0,0,0,0,0,0,0,16492,0,0,0,0,0,0,0,0,0,2.5,0
9994,-3.72163e-12,0,-1.58625e-06,-3.85292e-12,0,0,-1.13732e-13,0,0,-3.67701,0.217607,0.794905,0,0,0,0,0,0,0,236,-91,236,-91,360,-100,236,33,0,-0.375,3.15719,-1.5,3.94113e+12,0,0,2,0,0,0,0,0,0,0,0,16492,0,0,0,0,0,0,0,0,0,2.5,0
10012,-3.72163e-12,0,-1.58625e-06,-3.85292e-12,0,0,-1.13732e-13,0,0,-3.73167,0.268031,0.802438,0,0,0,0,0,0,0,230,-88,230,-88,348,-93,232,35,0,-0.375,3.15663,-1.5,3.94113e+12,0,0,2,0,0,0,0,0,0,0,0,15744,0,0,0,0,0,0,0,0,0,2.5,0
10028,-3.72163e-12,0,-1.58625e-06,-3.85292e-12,0,0,-1.13733e-13,0,0,-3.73167,0.268031,0.802438,0,0,0,0,0,0,0,230,-88,230,-88,348,-93,232,35,0,-0.375,3.15616,-1.5,3.94113e+12,0,0,2,0,0,0,0,0,0,0,0,15744,0,0,0,0,0,0,0,0,0,2.5,0
10044,-3.72163e-12,0,-1.58625e-06,-3.85292e-12,0,0,-1.13734e-13,0,0,-3.73167,0.268031,0.802438,0,0,0,0,0,0,0,230,-88,230,-88,348,-93,232,35,0,-0.375,3.1557,-1.5,3.94113e+12,0,0,2,0,0,0,0,0,0,0,0,15744,0,0,0,0,0,0,0,0,0,2.5,0
10096,-3.72163e-12,0,-1.58625e-06,-3.85292e-12,0,0,-1.13734e-13,0,0,-3.73167,0.268031,0.802438,0,0,0,0,0,0,0,230,-88,230,-88,348,-93,232,35,0,-0.375,3.15428,-1.5,3.94113e+12,0,0,2,0,0,0,0,0,0,0,0,15744,0,0,0,0,0,0,0,0,0,2.5,0
10111,-3.72163e-12,0,-1.58625e-06,-3.85292e-12,0,0,-1.13735e-13,0,0,-3.78891,0.0356329,0.510004,0,0,0,0,0,0,0,256,-52,256,-52,374,-55,258,68,0,-0.375,3.15388,-1.5,3.94113e+12,0,0,2,0,0,0,0,0,0,0,0,14883,0,0,0,0,0,0,0,0,0,2.5,0
10129,-3.72163e-12,0,-1.58625e-06,-3.85292e-12,0,0,-1.13735e-13,0,0,-3.78891,0.0356329,0.510004,0,0,0,0,0,0,0,256,-52,256,-52,374,-55,258,68,0,-0.375,3.15344,-1.5,3.94113e+12,0,0,2,0,0,0,0,0,0,0,0,14883,0,0,0,0,0,0,0,0,0,2.5,0
10143,-3.72163e-12,0,-1.58625e-06,-3.85292e-12,0,0,-1.13736e-13,0,0,-3.95638,-0.00872345,0.512338,0,0,0,0,0,0,0,264,-38,264,-38,375,-42,263,73,0,-0.375,3.15311,-1.5,3.94113e+12,0,0,2,0,0,0,0,0,0,0,0,13685,0,0,0,0,0,0,0,0,0,2.5,0
10156,-3.72163e-12,0,-1.58625e-06,-3.85292e-12,0,0,-1.13736e-13,0,0,-3.95638,-0.00872345,0.512338,0,0,0,0,0,0,0,264,-38,264,-38,375,-42,263,73,0,-0.375,3.15281,-1.5,3.94113e+12,0,0,2,0,0,0,0,0,0,0,0,13685,0,0,0,0,0,0,0,0,0,2.5,0
10172,-3.72163e-12,0,-1.58625e-06,-3.85292e-12,0,0,-1.13737e-13,0,0,-3.88785,-0.034265,0.461948,0,0,0,0,0,0,0,264,-38,264,-38,381,-44,268,77,0,-0.375,3.15246,-1.5,3.94113e+12,0,0,2,0,0,0,0,0,0,0,0,14278,0,0,0,0,0,0,0,0,0,2.5,0
10187,-3.72163e-12,0,-1.58625e-06,-3.85292e-12,0,0,-1.13737e-13,0,0,-3.88785,-0.034265,0.461948,0,0,0,0,0,0,0,264,-38,264,-38,381,-44,268,77,0,-0.375,3.15214,-1.5,3.94113e+12,0,0,2,0,0,0,0,0,0,0,0,14278,0,0,0,0,0,0,0,0,0,2.5,0
10203,-3.72163e-12,0,-1.58625e-06,-3.85292e-12,0,0,-1.13738e-13,0,0,-3.89431,-0.0132908,0.432485,0,0,0,0,0,0,0,264,-35,264,-35,381,-39,263,80,0,-0.375,3.15182,-1.5,3.94113e+12,0,0,2,0,0,0,0,0,0,0,0,14042,0,0,0,0,0,0,0,0,0,2.5,0
10218,-3.72163e-12,0,-1.58625e-06,-3.85292e-12,0,0,-1.13738e-13,0,0,-3.89431,-0.0132908,0.432485,0,0,0,0,0,0,0,264,-35,264,-35,381,-39,263,80,0,-0.375,3.1515,-1.5,3.94113e+12,0,0,2,0,0,0,0,0,0,0,0,14042,0,0,0,0,0,0,0,0,0,2.5,0
10235,-3.72163e-12,0,-1.58625e-06,-3.85292e-12,0,0,-1.13739e-13,0,0,-3.91294,-0.0206581,0.439878,0,0,0,0,0,0,0,267,-35,267,-35,381,-39,263,80,0,-0.375,3.15117,-1.5,3.94113e+12,0,0,2,0,0,0,0,0,0,0,0,14042,0,0,0,0,0,0,0,0,0,2.5,0
10250,-3.72163e-12,0,-1.58625e-06,-3.85292e-12,0,0,-1.1374e-13,0,0,-3.91294,-0.0206581,0.439878,0,0,0,0,0,0,0,267,-35,267,-35,381,-39,263,80,0,-0.375,3.15088,-1.5,3.94113e+12,0,0,2,0,0,0,0,0,0,0,0,14042,0,0,0,0,0,0,0,0,0,2.5,0
10266,-3.72163e-12,0,-1.58625e-06,-3.85292e-12,0,0,-1.1374e-13,0,0,-3.91294,-0.0206581,0.439878,0,0,0,0,0,0,0,267,-35,267,-35,381,-39,263,80,0,-0.375,3.15059,-1.5,3.94113e+12,0,0,2,0,0,0,0,0,0,0,0,14042,0,0,0,0,0,0,0,0,0,2.5,0
10281,-3.72163e-12,0,-1.58625e-06,-3.85292e-12,0,0,-1.13741e-13,0,0,-3.91294,-0.0206581,0.439878,0,0,0,0,0,0,0,267,-35,267,-35,381,-39,263,80,0,-0.375,3.15032,-1.5,3.94113e+12,0,0,2,0,0,0,0,0,0,0,0,14042,0,0,0,0,0,0,0,0,0,2.5,0
10390,-3.72163e-12,0,-1.58625e-06,-3.85292e-12,0,0,-1.13741e-13,0,0,-3.93315,-0.0232119,0.427121,0,0,0,0,0,0,0,267,-32,267,-32,381,-35,263,82,0,-0.375,3.14845,-1.5,3.94113e+12,0,0,2,0,0,0,0,0,0,0,0,13806,0,0,0,0,0,0,0,0,0,2.5,0
10442,-3.72163e-12,0,-1.58625e-06,-3.85292e-12,0,0,-1.13742e-13,0,0,-3.83298,-0.0250771,0.367034,0,0,0,0,0,0,0,267,-33,267,-33,384,-36,261,84,0,-0.375,3.14774,-1.5,3.94113e+12,0,0,2,0,0,0,0,0,0,0,0,14760,0,0,0,0,0,0,0,0,0,2.5,0
10463,-3.72163e-12,0,-1.58625e-06,-3.85292e-12,0,0,-1.13742e-13,0,0,-3.83298,-0.0250771,0.367034,0,0,0,0,0,0,0,267,-33,267,-33,384,-36,261,84,0,-0.375,3.14749,-1.5,3.94113e+12,0,0,2,0,0,0,0,0,0,0,0,14760,0,0,0,0,0,0,0,0,0,2.5,0
10475,-3.72163e-12,0,-1.58625e-06,-3.85292e-12,0,0,-1.13743e-13,0,0,-3.9451,-0.0221207,0.426367,0,0,0,0,0,0,0,269,-33,269,-33,381,-32,261,80,0,-0.375,3.14735,-1.5,3.94113e+12,0,0,2,0,0,0,0,0,0,0,0,13800,0,0,0,0,0,0,0,0,0,2.5,0
10487,-3.72163e-12,0,-1.58625e-06,-3.85292e-12,0,0,-1.13743e-13,0,0,-3.9451,-0.0221207,0.426367,0,0,0,0,0,0,0,269,-33,269,-33,381,-32,261,80,0,-0.375,3.14721,-1.5,3.94113e+12,0,0,2,0,0,0,0,0,0,0,0,13800,0,0,0,0,0,0,0,0,0,2.5,0
10549,-3.72163e-12,0,-1.58625e-06,-3.85292e-12,0,0,-1.13744e-13,0,0,-3.88871,-0.0254447,0.378235,0,0,0,0,0,0,0,267,-29,267,-29,381,-32,261,84,0,-0.375,3.14653,-1.5,3.94113e+12,0,0,2,0,0,0,0,0,0,0,0,14036,0,0,0,0,0,0,0,0,0,2.5,0
10565,-3.72163e-12,0,-1.58625e-06,-3.85292e-12,0,0,-1.13744e-13,0,0,-3.92761,-0.0331778,0.403366,0,0,0,0,0,0,0,270,-29,270,-29,381,-32,261,82,0,-0.375,3.14638,-1.5,3.94113e+12,0,0,2,0,0,0,0,0,0,0,0,13794,0,0,0,0,0,0,0,0,0,2.5,0
10580,-3.72163e-12,0,-1.58625e-06,-3.85292e-12,0,0,-1.13745e-13,0,0,-3.92761,-0.0331778,0.403366,0,0,0,0,0,0,0,270,-29,270,-29,381,-32,261,82,0,-0.375,3.14623,-1.5,3.94113e+12,0,0,2,0,0,0,0,0,0,0,0,13794,0,0,0,0,0,0,0,0,0,2.5,0
10593,-3.72163e-12,0,-1.58625e-06,-3.85292e-12,0,0,-1.13745e-13,0,0,-3.95991,-0.0505256,0.424827,0,0,0,0,0,0,0,270,-29,270,-29,384,-32,265,80,0,-0.375,3.14611,-1.5,3.94113e+12,0,0,2,0,0,0,0,0,0,0,0,13566,0,0,0,0,0,0,0,0,0,2.5,0
10607,-3.72163e-12,0,-1.58625e-06,-3.85292e-12,0,0,-1.13746e-13,0,0,-3.87614,-0.0326485,0.364139,0,0,0,0,0,0,0,270,-30,270,-30,381,-32,261,86,0,-0.375,3.14598,-1.5,3.94113e+12,0,0,2,0,0,0,0,0,0,0,0,14278,0,0,0,0,0,0,0,0,0,2.5,0
10622,-3.72163e-12,0,-1.58625e-06,-3.85292e-12,0,0,-1.13747e-13,0,0,-3.87614,-0.0326485,0.364139,0,0,0,0,0,0,0,270,-30,270,-30,381,-32,261,86,0,-0.375,3.14585,-1.5,3.94113e+12,0,0,2,0,0,0,0,0,0,0,0,14278,0,0,0,0,0,0,0,0,0,2.5,0
10638,-3.72163e-12,0,-1.58625e-06,-3.85292e-12,0,0,-1.13747e-13,0,0,-3.9042,-0.0327139,0.385895,0,0,0,0,0,0,0,268,-30,268,-30,381,-32,263,85,0,-0.375,3.14572,-1.5,3.94113e+12,0,0,2,0,0,0,0,0,0,0,0,13923,0,0,0,0,0,0,0,0,0,2.5,0
10653,-3.72163e-12,0,-1.58625e-06,-3.85292e-12,0,0,-1.13748e-13,0,0,-3.9042,-0.0327139,0.385895,0,0,0,0,0,0,0,268,-30,268,-30,381,-32,263,85,0,-0.375,3.1456,-1.5,3.94113e+12,0,0,2,0,0,0,0,0,0,0,0,13923,0,0,0,0,0,0,0,0,0,2.5,0
10669,-3.72163e-12,0,-1.58625e-06,-3.85292e-12,0,0,-1.13748e-13,0,0,-4.03081,-0.0395564,0.468242,0,0,0,0,0,0,0,269,-32,269,-32,381,-32,268,80,0,-0.375,3.14547,-1.5,3.94113e+12,0,0,2,0,0,0,0,0,0,0,0,12882,0,0,0,0,0,0,0,0,0,2.5,0
10686,-3.72163e-12,0,-1.58625e-06,-3.85292e-12,0,0,-1.13749e-13,0,0,-4.03081,-0.0395564,0.468242,0,0,0,0,0,0,0,269,-32,269,-32,381,-32,268,80,0,-0.375,3.14534,-1.5,3.94113e+12,0,0,2,0,0,0,0,0,0,0,0,12882,0,0,0,0,0,0,0,0,0,2.5,0
10707,-3.72163e-12,0,-1.58625e-06,-3.85292e-12,0,0,-1.13749e-13,0,0,-3.90474,-0.0329462,0.405222,0,0,0,0,0,0,0,268,-32,268,-32,381,-34,263,82,0,-0.375,3.14518,-1.5,3.94113e+12,0,0,2,0,0,0,0,0,0,0,0,13804,0,0,0,0,0,0,0,0,0,2.5,0
10722,-3.72163e-12,0,-1.58625e-06,-3.85292e-12,0,0,-1.1375e-13,0,0,-3.90474,-0.0329462,0.405222,0,0,0,0,0,0,0,268,-32,268,-32,381,-34,263,82,0,-0.375,3.14508,-1.5,3.94113e+12,0,0,2,0,0,0,0,0,0,0,0,13804,0,0,0,0,0,0,0,0,0,2.5,0
10738,-3.72163e-12,0,-1.58625e-06,-3.85292e-12,0,0,-1.1375e-13,0,0,-3.90841,-0.0327237,0.416144,0,0,0,0,0,0,0,269,-33,269,-33,384,-36,263,82,0,-0.375,3.14497,-1.5,3.94113e+12,0,0,2,0,0,0,0,0,0,0,0,14278,0,0,0,0,0,0,0,0,0,2.5,0
10753,-3.72163e-12,0,-1.58625e-06,-3.85292e-12,0,0,-1.13751e-13,0,0,-3.90841,-0.0327237,0.416144,0,0,0,0,0,0,0,269,-33,269,-33,384,-36,263,82,0,-0.375,3.14487,-1.5,3.94113e+12,0,0,2,0,0,0,0,0,0,0,0,14278,0,0,0,0,0,0,0,0,0,2.5,0
10769,-3.72163e-12,0,-1.58625e-06,-3.85292e-12,0,0,-1.13751e-13,0,0,-4.00091,-0.0435395,0.47777,0,0,0,0,0,0,0,267,-32,267,-32,381,-35,268,77,0,-0.375,3.14476,-1.5,3.94113e+12,0,0,2,0,0,0,0,0,0,0,0,12995,0,0,0,0,0,0,0,0,0,2.5,0
10784,-3.72163e-12,0,-1.58625e-06,-3.85292e-12,0,0,-1.13752e-13,0,0,-4.00091,-0.0435395,0.47777,0,0,0,0,0,0,0,267,-32,267,-32,381,-35,268,77,0,-0.375,3.14467,-1.5,3.94113e+12,0,0,2,0,0,0,0,0,0,0,0,12995,0,0,0,0,0,0,0,0,0,2.5,0
10800,-3.72163e-12,0,-1.58625e-06,-3.85292e-12,0,0,-1.13753e-13,0,0,-3.89056,-0.0151053,0.426183,0,0,0,0,0,0,0,267,-33,267,-33,377,-40,261,81,0,-0.375,3.14457,-1.5,3.94113e+12,0,0,2,0,0,0,0,0,0,0,0,14641,0,0,0,0,0,0,0,0,0,2.5,0
10816,-3.72163e-12,0,-1.58625e-06,-3.85292e-12,0,0,-1.13753e-13,0,0,-3.89056,-0.0151053,0.426183,0,0,0,0,0,0,0,267,-33,267,-33,377,-40,261,81,0,-0.375,3.14448,-1.5,3.94113e+12,0,0,2,0,0,0,0,0,0,0,0,14641,0,0,0,0,0,0,0,0,0,2.5,0
10833,-3.72163e-12,0,-1.58625e-06,-3.85292e-12,0,0,-1.13754e-13,0,0,-3.84853,-0.0180108,0.418242,0,0,0,0,0,0,0,264,-35,264,-35,381,-40,261,77,0,-0.375,3.14439,-1.5,3.94113e+12,0,0,2,0,0,0,0,0,0,0,0,14157,0,0,0,0,0,0,0,0,0,2.5,0
10848,-3.72163e-12,0,-1.58625e-06,-3.85292e-12,0,0,-1.13754e-13,0,0,-3.84853,-0.0180108,0.418242,0,0,0,0,0,0,0,264,-35,264,-35,381,-40,261,77,0,-0.375,3.1443,-1.5,3.94113e+12,0,0,2,0,0,0,0,0,0,0,0,14157,0,0,0,0,0,0,0,0,0,2.5,0
10871,-3.72163e-12,0,-1.58625e-06,-3.85292e-12,0,0,-1.13755e-13,0,0,-3.84853,-0.0180108,0.418242,0,0,0,0,0,0,0,264,-35,264,-35,381,-40,261,77,0,-0.375,3.14418,-1.5,3.94113e+12,0,0,2,0,0,0,0,0,0,0,0,14157,0,0,0,0,0,0,0,0,0,2.5,0
10884,-3.72163e-12,0,-1.58625e-06,-3.85292e-12,0,0,-1.13755e-13,0,0,-3.84853,-0.0180108,0.418242,0,0,0,0,0,0,0,264,-35,264,-35,381,-40,261,77,0,-0.375,3.14411,-1.5,3.94113e+12,0,0,2,0,0,0,0,0,0,0,0,14157,0,0,0,0,0,0,0,0,0,2.5,0
10898,-3.72163e-12,0,-1.58625e-06,-3.85292e-12,0,0,-1.13756e-13,0,0,-3.84853,-0.0180108,0.418242,0,0,0,0,0,0,0,264,-35,264,-35,381,-40,261,77,0,-0.375,3.14405,-1.5,3.94113e+12,0,0,2,0,0,0,0,0,0,0,0,14157,0,0,0,0,0,0,0,0,0,2.5,0
10913,-3.72163e-12,0,-1.58625e-06,-3.85292e-12,0,0,-1.13756e-13,0,0,-3.9078,0.00555385,0.446405,0,0,0,0,0,0,0,264,-37,264,-37,378,-40,261,80,0,-0.375,3.14397,-1.5,3.94113e+12,0,0,2,0,0,0,0,0,0,0,0,14040,0,0,0,0,0,0,0,0,0,2.5,0
10929,-3.72163e-12,0,-1.58625e-06,-3.85292e-12,0,0,-1.13757e-13,0,0,-3.9078,0.00555385,0.446405,0,0,0,0,0,0,0,264,-37,264,-37,378,-40,261,80,0,-0.375,3.1439,-1.5,3.94113e+12,0,0,2,0,0,0,0,0,0,0,0,14040,0,0,0,0,0,0,0,0,0,2.5,0
10944,-3.72163e-12,0,-1.58625e-06,-3.85292e-12,0,0,-1.13757e-13,0,0,-3.83573,-0.0152565,0.404085,0,0,0,0,0,0,0,264,-35,264,-35,380,-40,261,80,0,-0.375,3.14383,-1.5,3.94113e+12,0,0,2,0,0,0,0,0,0,0,0,14520,0,0,0,0,0,0,0,0,0,2.5,0
10960,-3.72163e-12,0,-1.58625e-06,-3.85292e-12,0,0,-1.13758e-13,0,0,-3.83573,-0.0152565,0.404085,0,0,0,0,0,0,0,264,-35,264,-35,380,-40,261,80,0,-0.375,3.14376,-1.5,3.94113e+12,0,0,2,0,0,0,0,0,0,0,0,14520,0,0,0,0,0,0,0,0,0,2.5,0
10977,-3.72163e-12,0,-1.58625e-06,-3.85292e-12,0,0,-1.13759e-13,0,0,-3.83968,-0.0203124,0.41352,0,0,0,0,0,0,0,264,-35,264,-35,382,-40,261,77,0,-0.375,3.14369,-1.5,3.94113e+12,0,0,2,0,0,0,0,0,0,0,0,14157,0,0,0,0,0,0,0,0,0,2.5,0
10992,-3.72163e-12,0,-1.58625e-06,-3.85292e-12,0,0,-1.13759e-13,0,0,-3.83968,-0.0203124,0.41352,0,0,0,0,0,0,0,264,-35,264,-35,382,-40,261,77,0,-0.375,3.14362,-1.5,3.94113e+12,0,0,2,0,0,0,0,0,0,0,0,14157,0,0,0,0,0,0,0,0,0,2.5,0
11008,-3.72163e-12,0,-1.58625e-06,-3.85292e-12,0,0,-1.1376e-13,0,0,-3.91805,-0.00852522,0.442527,0,0,0,0,0,0,0,267,-35,267,-35,381,-39,261,81,0,-0.375,3.14356,-1.5,3.94113e+12,0,0,2,0,0,0,0,0,0,0,0,14400,0,0,0,0,0,0,0,0,0,2.5,0
11023,-3.72163e-12,0,-1.58625e-06,-3.85292e-12,0,0,-1.1376e-13,0,0,-3.91805,-0.00852522,0.442527,0,0,0,0,0,0,0,267,-35,267,-35,381,-39,261,81,0,-0.375,3.1435,-1.5,3.94113e+12,0,0,2,0,0,0,0,0,0,0,0,14400,0,0,0,0,0,0,0,0,0,2.5,0
11039,-3.72163e-12,0,-1.58625e-06,-3.85292e-12,0,0,-1.13761e-13,0,0,-3.91602,-0.00641719,0.453767,0,0,0,0,0,0,0,265,-35,265,-35,381,-40,261,77,0,-0.375,3.14344,-1.5,3.94113e+12,0,0,2,0,0,0,0,0,0,0,0,14040,0,0,0,0,0,0,0,0,0,2.5,0
11054,-3.72163e-12,0,-1.58625e-06,-3.85292e-12,0,0,-1.13761e-13,0,0,-3.91602,-0.00641719,0.453767,0,0,0,0,0,0,0,265,-35,265,-35,381,-40,261,77,0,-0.375,3.14339,-1.5,3.94113e+12,0,0,2,0,0,0,0,0,0,0,0,14040,0,0,0,0,0,0,0,0,0,2.5,0
11070,-3.72163e-12,0,-1.58625e-06,-3.85292e-12,0,0,-1.13762e-13,0,0,-3.97068,-0.00170628,0.482911,0,0,0,0,0,0,0,267,-35,267,-35,377,-40,261,77,0,-0.375,3.14333,-1.5,3.94113e+12,0,0,2,0,0,0,0,0,0,0,0,13572,0,0,0,0,0,0,0,0,0,2.5,0
11085,-3.72163e-12,0,-1.58625e-06,-3.85292e-12,0,0,-1.13762e-13,0,0,-3.97068,-0.00170628,0.482911,0,0,0,0,0,0,0,267,-35,267,-35,377,-40,261,77,0,-0.375,3.14328,-1.5,3.94113e+12,0,0,2,0,0,0,0,0,0,0,0,13572,0,0,0,0,0,0,0,0,0,2.5,0
11101,-3.72163e-12,0,-1.58625e-06,-3.85292e-12,0,0,-1.13763e-13,0,0,-3.98346,-0.00746359,0.475618,0,0,0,0,0,0,0,267,-35,267,-35,379,-35,261,77,0,-0.375,3.14322,-1.5,3.94113e+12,0,0,2,0,0,0,0,0,0,0,0,13334,0,0,0,0,0,0,0,0,0,2.5,0
11118,-3.72163e-12,0,-1.58625e-06,-3.85292e-12,0,0,-1.13763e-13,0,0,-3.98346,-0.00746359,0.475618,0,0,0,0,0,0,0,267,-35,267,-35,379,-35,261,77,0,-0.375,3.14317,-1.5,3.94113e+12,0,0,2,0,0,0,0,0,0,0,0,13334,0,0,0,0,0,0,0,0,0,2.5,0
11133,-3.72163e-12,0,-1.58625e-06,-3.85292e-12,0,0,-1.13764e-13,0,0,-3.85845,-0.0246631,0.404483,0,0,0,0,0,0,0,267,-33,267,-33,381,-39,261,81,0,-0.375,3.14312,-1.5,3.94113e+12,0,0,2,0,0,0,0,0,0,0,0,14520,0,0,0,0,0,0,0,0,0,2.5,0
11149,-3.72163e-12,0,-1.58625e-06,-3.85292e-12,0,0,-1.13764e-13,0,0,-3.85845,-0.0246631,0.404483,0,0,0,0,0,0,0,267,-33,267,-33,381,-39,261,81,0,-0.375,3.14307,-1.5,3.94113e+12,0,0,2,0,0,0,0,0,0,0,0,14520,0,0,0,0,0,0,0,0,0,2.5,0
11163,-3.72163e-12,0,-1.58625e-06,-3.85292e-12,0,0,-1.13765e-13,0,0,-3.85845,-0.0246631,0.404483,0,0,0,0,0,0,0,267,-33,267,-33,381,-39,261,81,0,-0.375,3.14304,-1.5,3.94113e+12,0,0,2,0,0,0,0,0,0,0,0,14520,0,0,0,0,0,0,0,0,0,2.5,0
11176,-3.72163e-12,0,-1.58625e-06,-3.85292e-12,0,0,-1.13766e-13,0,0,-3.88449,-0.00368243,0.424808,0,0,0,0,0,0,0,264,-35,264,-35,381,-39,261,81,0,-0.375,3.143,-1.5,3.94113e+12,0,0,2,0,0,0,0,0,0,0,0,14400,0,0,0,0,0,0,0,0,0,2.5,0
11191,-3.72163e-12,0,-1.58625e-06,-3.85292e-12,0,0,-1.13766e-13,0,0,-3.88449,-0.00368243,0.424808,0,0,0,0,0,0,0,264,-35,264,-35,381,-39,261,81,0,-0.375,3.14295,-1.5,3.94113e+12,0,0,2,0,0,0,0,0,0,0,0,14400,0,0,0,0,0,0,0,0,0,2.5,0
11207,-3.72163e-12,0,-1.58625e-06,-3.85292e-12,0,0,-1.13767e-13,0,0,-3.86726,-0.00585888,0.417912,0,0,0,0,0,0,0,264,-35,264,-35,382,-40,261,81,0,-0.375,3.14291,-1.5,3.94113e+12,0,0,2,0,0,0,0,0,0,0,0,14641,0,0,0,0,0,0,0,0,0,2.5,0
11222,-3.72163e-12,0,-1.58625e-06,-3.85292e-12,0,0,-1.13767e-13,0,0,-3.86726,-0.00585888,0.417912,0,0,0,0,0,0,0,264,-35,264,-35,382,-40,261,81,0,-0.375,3.14287,-1.5,3.94113e+12,0,0,2,0,0,0,0,0,0,0,0,14641,0,0,0,0,0,0,0,0,0,2.5,0
11238,-3.72163e-12,0,-1.58625e-06,-3.85292e-12,0,0,-1.13768e-13,0,0,-3.87681,-0.00351572,0.422978,0,0,0,0,0,0,0,264,-35,264,-35,381,-40,261,81,0,-0.375,3.14283,-1.5,3.94113e+12,0,0,2,0,0,0,0,0,0,0,0,14520,0,0,0,0,0,0,0,0,0,2.5,0
11254,-3.72163e-12,0,-1.58625e-06,-3.85292e-12,0,0,-1.13768e-13,0,0,-3.87681,-0.00351572,0.422978,0,0,0,0,0,0,0,264,-35,264,-35,381,-40,261,81,0,-0.375,3.14279,-1.5,3.94113e+12,0,0,2,0,0,0,0,0,0,0,0,14520,0,0,0,0,0,0,0,0,0,2.5,0
11270,-3.72163e-12,0,-1.58625e-06,-3.85292e-12,0,0,-1.13769e-13,0,0,-3.88481,-0.0154954,0.430173,0,0,0,0,0,0,0,267,-35,267,-35,377,-40,261,80,0,-0.375,3.14275,-1.5,3.94113e+12,0,0,2,0,0,0,0,0,0,0,0,14520,0,0,0,0,0,0,0,0,0,2.5,0
11286,-3.72163e-12,0,-1.58625e-06,-3.85292e-12,0,0,-1.13769e-13,0,0,-3.88481,-0.0154954,0.430173,0,0,0,0,0,0,0,267,-35,267,-35,377,-40,261,80,0,-0.375,3.14272,-1.5,3.94113e+12,0,0,2,0,0,0,0,0,0,0,0,14520,0,0,0,0,0,0,0,0,0,2.5,0
11301,-3.72163e-12,0,-1.58625e-06,-3.85292e-12,0,0,-1.1377e-13,0,0,-3.83882,-0.0246211,0.405567,0,0,0,0,0,0,0,264,-35,264,-35,382,-40,263,80,0,-0.375,3.14268,-1.5,3.94113e+12,0,0,2,0,0,0,0,0,0,0,0,14280,0,0,0,0,0,0,0,0,0,2.5,0
11317,-3.72163e-12,0,-1.58625e-06,-3.85292e-12,0,0,-1.1377e-13,0,0,-3.83882,-0.0246211,0.405567,0,0,0,0,0,0,0,264,-35,264,-35,382,-40,263,80,0,-0.375,3.14265,-1.5,3.94113e+12,0,0,2,0,0,0,0,0,0,0,0,14280,0,0,0,0,0,0,0,0,0,2.5,0
11332,-3.72163e-12,0,-1.58625e-06,-3.85292e-12,0,0,-1.13771e-13,0,0,-3.83882,-0.0246211,0.405567,0,0,0,0,0,0,0,264,-35,264,-35,382,-40,263,80,0,-0.375,3.14262,-1.5,3.94113e+12,0,0,2,0,0,0,0,0,0,0,0,14280,0,0,0,0,0,0,0,0,0,2.5,0
11348,-3.72163e-12,0,-1.58625e-06,-3.85292e-12,0,0,-1.13772e-13,0,0,-3.85189,-0.00553002,0.414355,0,0,0,0,0,0,0,264,-35,264,-35,380,-42,261,81,0,-0.375,3.14259,-1.5,3.94113e+12,0,0,2,0,0,0,0,0,0,0,0,14637,0,0,0,0,0,0,0,0,0,2.5,0
11363,-3.72163e-12,0,-1.58625e-06,-3.85292e-12,0,0,-1.13772e-13,0,0,-3.85189,-0.00553002,0.414355,0,0,0,0,0,0,0,264,-35,264,-35,380,-42,261,81,0,-0.375,3.14256,-1.5,3.94113e+12,0,0,2,0,0,0,0,0,0,0,0,14637,0,0,0,0,0,0,0,0,0,2.5,0
11379,-3.72163e-12,0,-1.58625e-06,-3.85292e-12,0,0,-1.13773e-13,0,0,-3.83156,-0.00822438,0.410799,0,0,0,0,0,0,0,264,-37,264,-37,377,-42,261,80,0,-0.375,3.14253,-1.5,3.94113e+12,0,0,2,0,0,0,0,0,0,0,0,14762,0,0,0,0,0,0,0,0,0,2.5,0
11394,-3.72163e-12,0,-1.58625e-06,-3.85292e-12,0,0,-1.13773e-13,0,0,-3.83156,-0.00822438,0.410799,0,0,0,0,0,0,0,264,-37,264,-37,377,-42,261,80,0,-0.375,3.1425,-1.5,3.94113e+12,0,0,2,0,0,0,0,0,0,0,0,14762,0,0,0,0,0,0,0,0,0,2.5,0
11410,-3.72163e-12,0,-1.58625e-06,-3.85292e-12,0,0,-1.13774e-13,0,0,-3.8655,0.00121564,0.425899,0,0,0,0,0,0,0,264,-37,264,-37,380,-42,261,81,0,-0.375,3.14247,-1.5,3.94113e+12,0,0,2,0,0,0,0,0,0,0,0,14637,0,0,0,0,0,0,0,0,0,2.5,0
11428,-3.72163e-12,0,-1.58625e-06,-3.85292e-12,0,0,-1.13774e-13,0,0,-3.8655,0.00121564,0.425899,0,0,0,0,0,0,0,264,-37,264,-37,380,-42,261,81,0,-0.375,3.14244,-1.5,3.94113e+12,0,0,2,0,0,0,0,0,0,0,0,14637,0,0,0,0,0,0,0,0,0,2.5,0
11443,-3.72163e-12,0,-1.58625e-06,-3.85292e-12,0,0,-1.13775e-13,0,0,-3.80017,-0.0149986,0.391619,0,0,0,0,0,0,0,264,-37,264,-37,380,-42,261,81,0,-0.375,3.14241,-1.5,3.94113e+12,0,0,2,0,0,0,0,0,0,0,0,14883,0,0,0,0,0,0,0,0,0,2.5,0
11456,-3.72163e-12,0,-1.58625e-06,-3.85292e-12,0,0,-1.13775e-13,0,0,-3.80017,-0.0149986,0.391619,0,0,0,0,0,0,0,264,-37,264,-37,380,-42,261,81,0,-0.375,3.14239,-1.5,3.94113e+12,0,0,2,0,0,0,0,0,0,0,0,14883,0,0,0,0,0,0,0,0,0,2.5,0
11471,-3.72163e-12,0,-1.58625e-06,-3.85292e-12,0,0,-1.13776e-13,0,0,-3.97968,-0.00239751,0.495046,0,0,0,0,0,0,0,267,-37,267,-37,378,-39,261,75,0,-0.375,3.14237,-1.5,3.94113e+12,0,0,2,0,0,0,0,0,0,0,0,13572,0,0,0,0,0,0,0,0,0,2.5,0
11487,-3.72163e-12,0,-1.58625e-06,-3.85292e-12,0,0,-1.13776e-13,0,0,-3.97968,-0.00239751,0.495046,0,0,0,0,0,0,0,267,-37,267,-37,378,-39,261,75,0,-0.375,3.14234,-1.5,3.94113e+12,0,0,2,0,0,0,0,0,0,0,0,13572,0,0,0,0,0,0,0,0,0,2.5,0
11502,-3.72163e-12,0,-1.58625e-06,-3.85292e-12,0,0,-1.13777e-13,0,0,-3.87512,-0.0060355,0.419985,0,0,0,0,0,0,0,264,-35,264,-35,380,-39,261,81,0,-0.375,3.14232,-1.5,3.94113e+12,0,0,2,0,0,0,0,0,0,0,0,14280,0,0,0,0,0,0,0,0,0,2.5,0
11518,-3.72163e-12,0,-1.58625e-06,-3.85292e-12,0,0,-1.13777e-13,0,0,-3.87512,-0.0060355,0.419985,0,0,0,0,0,0,0,264,-35,264,-35,380,-39,261,81,0,-0.375,3.1423,-1.5,3.94113e+12,0,0,2,0,0,0,0,0,0,0,0,14280,0,0,0,0,0,0,0,0,0,2.5,0
11535,-3.72163e-12,0,-1.58625e-06,-3.85292e-12,0,0,-1.13778e-13,0,0,-3.82824,-0.0151106,0.397663,0,0,0,0,0,0,0,264,-35,264,-35,380,-40,261,81,0,-0.375,3.14227,-1.5,3.94113e+12,0,0,2,0,0,0,0,0,0,0,0,14641,0,0,0,0,0,0,0,0,0,2.5,0
11550,-3.72163e-12,0,-1.58625e-06,-3.85292e-12,0,0,-1.13779e-13,0,0,-3.82824,-0.0151106,0.397663,0,0,0,0,0,0,0,264,-35,264,-35,380,-40,261,81,0,-0.375,3.14225,-1.5,3.94113e+12,0,0,2,0,0,0,0,0,0,0,0,14641,0,0,0,0,0,0,0,0,0,2.5,0
11566,-3.72163e-12,0,-1.58625e-06,-3.85292e-12,0,0,-1.13779e-13,0,0,-3.82824,-0.0151106,0.397663,0,0,0,0,0,0,0,264,-35,264,-35,380,-40,261,81,0,-0.375,3.14223,-1.5,3.94113e+12,0,0,2,0,0,0,0,0,0,0,0,14641,0,0,0,0,0,0,0,0,0,2.5,0
11581,-3.72163e-12,0,-1.58625e-06,-3.85292e-12,0,0,-1.1378e-13,0,0,-3.88646,-0.0294072,0.426321,0,0,0,0,0,0,0,267,-33,267,-33,381,-40,263,80,0,-0.375,3.14221,-1.5,3.94113e+12,0,0,2,0,0,0,0,0,0,0,0,14280,0,0,0,0,0,0,0,0,0,2.5,0
11597,-3.72163e-12,0,-1.58625e-06,-3.85292e-12,0,0,-1.1378e-13,0,0,-3.88646,-0.0294072,0.426321,0,0,0,0,0,0,0,267,-33,267,-33,381,-40,263,80,0,-0.375,3.14219,-1.5,3.94113e+12,0,0,2,0,0,0,0,0,0,0,0,14280,0,0,0,0,0,0,0,0,0,2.5,0
11612,-3.72163e-12,0,-1.58625e-06,-3.85292e-12,0,0,-1.13781e-13,0,0,-3.89475,-0.0253927,0.417096,0,0,0,0,0,0,0,267,-33,267,-33,381,-35,261,81,0,-0.375,3.14218,-1.5,3.94113e+12,0,0,2,0,0,0,0,0,0,0,0,14036,0,0,0,0,0,0,0,0,0,2.5,0
11627,-3.72163e-12,0,-1.58625e-06,-3.85292e-12,0,0,-1.13781e-13,0,0,-3.89475,-0.0253927,0.417096,0,0,0,0,0,0,0,267,-33,267,-33,381,-35,261,81,0,-0.375,3.14216,-1.5,3.94113e+12,0,0,2,0,0,0,0,0,0,0,0,14036,0,0,0,0,0,0,0,0,0,2.5,0
11643,-3.72163e-12,0,-1.58625e-06,-3.85292e-12,0,0,-1.13782e-13,0,0,-3.91066,-0.0229145,0.441159,0,0,0,0,0,0,0,267,-35,267,-35,382,-39,263,80,0,-0.375,3.14214,-1.5,3.94113e+12,0,0,2,0,0,0,0,0,0,0,0,14161,0,0,0,0,0,0,0,0,0,2.5,0
11658,-3.72163e-12,0,-1.58625e-06,-3.85292e-12,0,0,-1.13782e-13,0,0,-3.91066,-0.0229145,0.441159,0,0,0,0,0,0,0,267,-35,267,-35,382,-39,263,80,0,-0.375,3.14212,-1.5,3.94113e+12,0,0,2,0,0,0,0,0,0,0,0,14161,0,0,0,0,0,0,0,0,0,2.5,0
11675,-3.72163e-12,0,-1.58625e-06,-3.85292e-12,0,0,-1.13783e-13,0,0,-3.93346,-0.0328376,0.472131,0,0,0,0,0,0,0,269,-37,269,-37,381,-42,265,77,0,-0.375,3.14211,-1.5,3.94113e+12,0,0,2,0,0,0,0,0,0,0,0,13804,0,0,0,0,0,0,0,0,0,2.5,0
11690,-3.72163e-12,0,-1.58625e-06,-3.85292e-12,0,0,-1.13783e-13,0,0,-3.93346,-0.0328376,0.472131,0,0,0,0,0,0,0,269,-37,269,-37,381,-42,265,77,0,-0.375,3.14209,-1.5,3.94113e+12,0,0,2,0,0,0,0,0,0,0,0,13804,0,0,0,0,0,0,0,0,0,2.5,0
11706,-3.72163e-12,0,-1.58625e-06,-3.85292e-12,0,0,-1.13784e-13,0,0,-3.89462,-0.048774,0.458745,0,0,0,0,0,0,0,267,-38,267,-38,382,-42,268,78,0,-0.375,3.14208,-1.5,3.94113e+12,0,0,2,0,0,0,0,0,0,0,0,14040,0,0,0,0,0,0,0,0,0,2.5,0
11719,-3.72163e-12,0,-1.58625e-06,-3.85292e-12,0,0,-1.13785e-13,0,0,-3.89462,-0.048774,0.458745,0,0,0,0,0,0,0,267,-38,267,-38,382,-42,268,78,0,-0.375,3.14206,-1.5,3.94113e+12,0,0,2,0,0,0,0,0,0,0,0,14040,0,0,0,0,0,0,0,0,0,2.5,0
11733,-3.72163e-12,0,-1.58625e-06,-3.85292e-12,0,0,-1.13785e-13,0,0,-3.89462,-0.048774,0.458745,0,0,0,0,0,0,0,267,-38,267,-38,382,-42,268,78,0,-0.375,3.14205,-1.5,3.94113e+12,0,0,2,0,0,0,0,0,0,0,0,14040,0,0,0,0,0,0,0,0,0,2.5,0
11748,-3.72163e-12,0,-1.58625e-06,-3.85292e-12,0,0,-1.13786e-13,0,0,-3.93409,-0.0521486,0.4868,0,0,0,0,0,0,0,271,-40,271,-40,384,-42,267,77,0,-0.375,3.14204,-1.5,3.94113e+12,0,0,2,0,0,0,0,0,0,0,0,13923,0,0,0,0,0,0,0,0,0,2.5,0
11763,-3.72163e-12,0,-1.58625e-06,-3.85292e-12,0,0,-1.13786e-13,0,0,-3.93409,-0.0521486,0.4868,0,0,0,0,0,0,0,271,-40,271,-40,384,-42,267,77,0,-0.375,3.14202,-1.5,3.94113e+12,0,0,2,0,0,0,0,0,0,0,0,13923,0,0,0,0,0,0,0,0,0,2.5,0
11779,-3.72163e-12,0,-1.58625e-06,-3.85292e-12,0,0,-1.13787e-13,0,0,-3.8797,-0.0505972,0.466925,0,0,0,0,0,0,0,269,-40,269,-40,383,-45,267,78,0,-0.375,3.14201,-1.5,3.94113e+12,0,0,2,0,0,0,0,0,0,0,0,14268,0,0,0,0,0,0,0,0,0,2.5,0
11794,-3.72163e-12,0,-1.58625e-06,-3.85292e-12,0,0,-1.13787e-13,0,0,-3.8797,-0.0505972,0.466925,0,0,0,0,0,0,0,269,-40,269,-40,383,-45,267,78,0,-0.375,3.142,-1.5,3.94113e+12,0,0,2,0,0,0,0,0,0,0,0,14268,0,0,0,0,0,0,0,0,0,2.5,0
11810,-3.72163e-12,0,-1.58625e-06,-3.85292e-12,0,0,-1.13788e-13,0,0,-3.91481,-0.0724788,0.462677,0,0,0,0,0,0,0,272,-35,272,-35,387,-42,268,78,0,-0.375,3.14198,-1.5,3.94113e+12,0,0,2,0,0,0,0,0,0,0,0,14280,0,0,0,0,0,0,0,0,0,2.5,0
11826,-3.72163e-12,0,-1.58625e-06,-3.85292e-12,0,0,-1.13788e-13,0,0,-3.91481,-0.0724788,0.462677,0,0,0,0,0,0,0,272,-35,272,-35,387,-42,268,78,0,-0.375,3.14197,-1.5,3.94113e+12,0,0,2,0,0,0,0,0,0,0,0,14280,0,0,0,0,0,0,0,0,0,2.5,0
11841,-3.72163e-12,0,-1.58625e-06,-3.85292e-12,0,0,-1.13789e-13,0,0,-3.95849,-0.0791485,0.500305,0,0,0,0,0,0,0,272,-38,272,-38,387,-42,271,74,0,-0.375,3.14196,-1.5,3.94113e+12,0,0,2,0,0,0,0,0,0,0,0,13572,0,0,0,0,0,0,0,0,0,2.5,0
11857,-3.72163e-12,0,-1.58625e-06,-3.85292e-12,0,0,-1.13789e-13,0,0,-3.95849,-0.0791485,0.500305,0,0,0,0,0,0,0,272,-38,272,-38,387,-42,271,74,0,-0.375,3.14195,-1.5,3.94113e+12,0,0,2,0,0,0,0,0,0,0,0,13572,0,0,0,0,0,0,0,0,0,2.5,0
11872,-3.72163e-12,0,-1.58625e-06,-3.85292e-12,0,0,-1.1379e-13,0,0,-3.91396,-0.0848187,0.453887,0,0,0,0,0,0,0,272,-37,272,-37,388,-42,273,80,0,-0.375,3.14194,-1.5,3.94113e+12,0,0,2,0,0,0,0,0,0,0,0,14152,0,0,0,0,0,0,0,0,0,2.5,0
11888,-3.72163e-12,0,-1.58625e-06,-3.85292e-12,0,0,-1.1379e-13,0,0,-3.91396,-0.0848187,0.453887,0,0,0,0,0,0,0,272,-37,272,-37,388,-42,273,80,0,-0.375,3.14193,-1.5,3.94113e+12,0,0,2,0,0,0,0,0,0,0,0,14152,0,0,0,0,0,0,0,0,0,2.5,0
11904,-3.72163e-12,0,-1.58625e-06,-3.85292e-12,0,0,-1.13791e-13,0,0,-3.84692,-0.0810532,0.413969,0,0,0,0,0,0,0,272,-37,272,-37,388,-41,269,81,0,-0.375,3.14192,-1.5,3.94113e+12,0,0,2,0,0,0,0,0,0,0,0,14518,0,0,0,0,0,0,0,0,0,2.5,0
11919,-3.72163e-12,0,-1.58625e-06,-3.85292e-12,0,0,-1.13792e-13,0,0,-3.84692,-0.0810532,0.413969,0,0,0,0,0,0,0,272,-37,272,-37,388,-41,269,81,0,-0.375,3.14191,-1.5,3.94113e+12,0,0,2,0,0,0,0,0,0,0,0,14518,0,0,0,0,0,0,0,0,0,2.5,0
11935,-3.72163e-12,0,-1.58625e-06,-3.85292e-12,0,0,-1.13792e-13,0,0,-3.97809,-0.101743,0.477508,0,0,0,0,0,0,0,275,-35,275,-35,389,-36,272,77,0,-0.375,3.1419,-1.5,3.94113e+12,0,0,2,0,0,0,0,0,0,0,0,13221,0,0,0,0,0,0,0,0,0,2.5,0
11951,-3.72163e-12,0,-1.58625e-06,-3.85292e-12,0,0,-1.13793e-13,0,0,-3.97809,-0.101743,0.477508,0,0,0,0,0,0,0,275,-35,275,-35,389,-36,272,77,0,-0.375,3.14189,-1.5,3.94113e+12,0,0,2,0,0,0,0,0,0,0,0,13221,0,0,0,0,0,0,0,0,0,2.5,0
11967,-3.72163e-12,0,-1.58625e-06,-3.85292e-12,0,0,-1.13793e-13,0,0,-3.97809,-0.101743,0.477508,0,0,0,0,0,0,0,275,-35,275,-35,389,-36,272,77,0,-0.375,3.14188,-1.5,3.94113e+12,0,0,2,0,0,0,0,0,0,0,0,13221,0,0,0,0,0,0,0,0,0,2.5,0
11982,-3.72163e-12,0,-1.58625e-06,-3.85292e-12,0,0,-1.13794e-13,0,0,-3.93452,-0.100213,0.437405,0,0,0,0,0,0,0,275,-33,275,-33,389,-36,271,80,0,-0.375,3.14187,-1.5,3.94113e+12,0,0,2,0,0,0,0,0,0,0,0,13688,0,0,0,0,0,0,0,0,0,2.5,0
11995,-3.72163e-12,0,-1.58625e-06,-3.85292e-12,0,0,-1.13794e-13,0,0,-3.93452,-0.100213,0.437405,0,0,0,0,0,0,0,275,-33,275,-33,389,-36,271,80,0,-0.375,3.14186,-1.5,3.94113e+12,0,0,2,0,0,0,0,0,0,0,0,13688,0,0,0,0,0,0,0,0,0,2.5,0
12008,-3.72163e-12,0,-1.58625e-06,-3.85292e-12,0,0,-1.13795e-13,0,0,-3.9439,-0.0978226,0.442263,0,0,0,0,0,0,0,275,-33,275,-33,389,-36,271,81,0,-0.375,3.14186,-1.5,3.94113e+12,0,0,2,0,0,0,0,0,0,0,0,13806,0,0,0,0,0,0,0,0,0,2.5,0
12024,-3.72163e-12,0,-1.58625e-06,-3.85292e-12,0,0,-1.13795e-13,0,0,-3.9439,-0.0978226,0.442263,0,0,0,0,0,0,0,275,-33,275,-33,389,-36,271,81,0,-0.375,3.14185,-1.5,3.94113e+12,0,0,2,0,0,0,0,0,0,0,0,13806,0,0,0,0,0,0,0,0,0,2.5,0
12039,-3.72163e-12,0,-1.58625e-06,-3.85292e-12,0,0,-1.13796e-13,0,0,-3.99237,-0.115995,0.467627,0,0,0,0,0,0,0,275,-32,275,-32,391,-36,276,80,0,-0.375,3.14184,-1.5,3.94113e+12,0,0,2,0,0,0,0,0,0,0,0,13456,0,0,0,0,0,0,0,0,0,2.5,0
12055,-3.72163e-12,0,-1.58625e-06,-3.85292e-12,0,0,-1.13796e-13,0,0,-3.99237,-0.115995,0.467627,0,0,0,0,0,0,0,275,-32,275,-32,391,-36,276,80,0,-0.375,3.14183,-1.5,3.94113e+12,0,0,2,0,0,0,0,0,0,0,0,13456,0,0,0,0,0,0,0,0,0,2.5,0
12071,-3.72163e-12,0,-1.58625e-06,-3.85292e-12,0,0,-1.13797e-13,0,0,-3.95379,-0.107804,0.449831,0,0,0,0,0,0,0,275,-33,275,-33,391,-36,273,80,0,-0.375,3.14182,-1.5,3.94113e+12,0,0,2,0,0,0,0,0,0,0,0,13688,0,0,0,0,0,0,0,0,0,2.5,0
12087,-3.72163e-12,0,-1.58625e-06,-3.85292e-12,0,0,-1.13798e-13,0,0,-3.95379,-0.107804,0.449831,0,0,0,0,0,0,0,275,-33,275,-33,391,-36,273,80,0,-0.375,3.14182,-1.5,3.94113e+12,0,0,2,0,0,0,0,0,0,0,0,13688,0,0,0,0,0,0,0,0,0,2.5,0
12103,-3.72163e-12,0,-1.58625e-06,-3.85292e-12,0,0,-1.13798e-13,0,0,-3.93466,-0.102345,0.451206,0,0,0,0,0,0,0,275,-35,275,-35,389,-39,273,80,0,-0.375,3.14181,-1.5,3.94113e+12,0,0,2,0,0,0,0,0,0,0,0,13804,0,0,0,0,0,0,0,0,0,2.5,0
12118,-3.72163e-12,0,-1.58625e-06,-3.85292e-12,0,0,-1.13799e-13,0,0,-3.93466,-0.102345,0.451206,0,0,0,0,0,0,0,275,-35,275,-35,389,-39,273,80,0,-0.375,3.1418,-1.5,3.94113e+12,0,0,2,0,0,0,0,0,0,0,0,13804,0,0,0,0,0,0,0,0,0,2.5,0
12134,-3.72163e-12,0,-1.58625e-06,-3.85292e-12,0,0,-1.13799e-13,0,0,-3.8845,-0.122448,0.413785,0,0,0,0,0,0,0,275,-33,275,-33,392,-36,273,80,0,-0.375,3.1418,-1.5,3.94113e+12,0,0,2,0,0,0,0,0,0,0,0,13804,0,0,0,0,0,0,0,0,0,2.5,0
12149,-3.72163e-12,0,-1.58625e-06,-3.85292e-12,0,0,-1.138e-13,0,0,-3.8845,-0.122448,0.413785,0,0,0,0,0,0,0,275,-33,275,-33,392,-36,273,80,0,-0.375,3.14179,-1.5,3.94113e+12,0,0,2,0,0,0,0,0,0,0,0,13804,0,0,0,0,0,0,0,0,0,2.5,0
12165,-3.72163e-12,0,-1.58625e-06,-3.85292e-12,0,0,-1.138e-13,0,0,-3.8845,-0.122448,0.413785,0,0,0,0,0,0,0,275,-33,275,-33,392,-36,273,80,0,-0.375,3.14178,-1.5,3.94113e+12,0,0,2,0,0,0,0,0,0,0,0,13804,0,0,0,0,0,0,0,0,0,2.5,0
12181,-3.72163e-12,0,-1.58625e-06,-3.85292e-12,0,0,-1.13801e-13,0,0,-3.99107,-0.130579,0.467068,0,0,0,0,0,0,0,278,-32,278,-32,392,-36,276,80,0,-0.375,3.14178,-1.5,3.94113e+12,0,0,2,0,0,0,0,0,0,0,0,13456,0,0,0,0,0,0,0,0,0,2.5,0
12196,-3.72163e-12,0,-1.58625e-06,-3.85292e-12,0,0,-1.13801e-13,0,0,-3.99107,-0.130579,0.467068,0,0,0,0,0,0,0,278,-32,278,-32,392,-36,276,80,0,-0.375,3.14177,-1.5,3.94113e+12,0,0,2,0,0,0,0,0,0,0,0,13456,0,0,0,0,0,0,0,0,0,2.5,0
12212,-3.72163e-12,0,-1.58625e-06,-3.85292e-12,0,0,-1.13802e-13,0,0,-3.91699,-0.149047,0.433203,0,0,0,0,0,0,0,281,-31,281,-31,392,-39,275,80,0,-0.375,3.14177,-1.5,3.94113e+12,0,0,2,0,0,0,0,0,0,0,0,14280,0,0,0,0,0,0,0,0,0,2.5,0
12228,-3.72163e-12,0,-1.58625e-06,-3.85292e-12,0,0,-1.13802e-13,0,0,-3.91699,-0.149047,0.433203,0,0,0,0,0,0,0,281,-31,281,-31,392,-39,275,80,0,-0.375,3.14176,-1.5,3.94113e+12,0,0,2,0,0,0,0,0,0,0,0,14280,0,0,0,0,0,0,0,0,0,2.5,0
12244,-3.72163e-12,0,-1.58625e-06,-3.85292e-12,0,0,-1.13803e-13,0,0,-3.97299,-0.134401,0.442611,0,0,0,0,0,0,0,281,-31,281,-31,392,-36,275,84,0,-0.375,3.14176,-1.5,3.94113e+12,0,0,2,0,0,0,0,0,0,0,0,14040,0,0,0,0,0,0,0,0,0,2.5,0
12259,-3.72163e-12,0,-1.58625e-06,-3.85292e-12,0,0,-1.13803e-13,0,0,-3.97299,-0.134401,0.442611,0,0,0,0,0,0,0,281,-31,281,-31,392,-36,275,84,0,-0.375,3.14175,-1.5,3.94113e+12,0,0,2,0,0,0,0,0,0,0,0,14040,0,0,0,0,0,0,0,0,0,2.5,0
12273,-3.72163e-12,0,-1.58625e-06,-3.85292e-12,0,0,-1.13804e-13,0,0,-3.97299,-0.134401,0.442611,0,0,0,0,0,0,0,281,-31,281,-31,392,-36,275,84,0,-0.375,3.14175,-1.5,3.94113e+12,0,0,2,0,0,0,0,0,0,0,0,14040,0,0,0,0,0,0,0,0,0,2.5,0
12286,-3.72163e-12,0,-1.58625e-06,-3.85292e-12,0,0,-1.13805e-13,0,0,-3.97299,-0.134401,0.442611,0,0,0,0,0,0,0,281,-31,281,-31,392,-36,275,84,0,-0.375,3.14174,-1.5,3.94113e+12,0,0,2,0,0,0,0,0,0,0,0,14040,0,0,0,0,0,0,0,0,0,2.5,0
12302,-3.72163e-12,0,-1.58625e-06,-3.85292e-12,0,0,-1.13805e-13,0,0,-3.86648,-0.140082,0.401197,0,0,0,0,0,0,0,278,-33,278,-33,391,-39,276,83,0,-0.375,3.14174,-1.5,3.94113e+12,0,0,2,0,0,0,0,0,0,0,0,14518,0,0,0,0,0,0,0,0,0,2.5,0
12317,-3.72163e-12,0,-1.58625e-06,-3.85292e-12,0,0,-1.13806e-13,0,0,-3.86648,-0.140082,0.401197,0,0,0,0,0,0,0,278,-33,278,-33,391,-39,276,83,0,-0.375,3.14173,-1.5,3.94113e+12,0,0,2,0,0,0,0,0,0,0,0,14518,0,0,0,0,0,0,0,0,0,2.5,0
12333,-3.72163e-12,0,-1.58625e-06,-3.85292e-12,0,0,-1.13806e-13,0,0,-4.0008,-0.158639,0.460439,0,0,0,0,0,0,0,282,-31,282,-31,395,-33,277,78,0,-0.375,3.14173,-1.5,3.94113e+12,0,0,2,0,0,0,0,0,0,0,0,13452,0,0,0,0,0,0,0,0,0,2.5,0
12348,-3.72163e-12,0,-1.58625e-06,-3.85292e-12,0,0,-1.13807e-13,0,0,-4.0008,-0.158639,0.460439,0,0,0,0,0,0,0,282,-31,282,-31,395,-33,277,78,0,-0.375,3.14173,-1.5,3.94113e+12,0,0,2,0,0,0,0,0,0,0,0,13452,0,0,0,0,0,0,0,0,0,2.5,0
12365,-3.72163e-12,0,-1.58625e-06,-3.85292e-12,0,0,-1.13807e-13,0,0,-4.0008,-0.158639,0.460439,0,0,0,0,0,0,0,282,-31,282,-31,395,-33,277,78,0,-0.375,3.14172,-1.5,3.94113e+12,0,0,2,0,0,0,0,0,0,0,0,13452,0,0,0,0,0,0,0,0,0,2.5,0
12380,-3.72163e-12,0,-1.58625e-06,-3.85292e-12,0,0,-1.13808e-13,0,0,-3.91619,-0.149168,0.422121,0,0,0,0,0,0,0,281,-33,281,-33,394,-38,277,84,0,-0.375,3.14172,-1.5,3.94113e+12,0,0,2,0,0,0,0,0,0,0,0,14274,0,0,0,0,0,0,0,0,0,2.5,0
12395,-3.72163e-12,0,-1.58625e-06,-3.85292e-12,0,0,-1.13808e-13,0,0,-3.91619,-0.149168,0.422121,0,0,0,0,0,0,0,281,-33,281,-33,394,-38,277,84,0,-0.375,3.14171,-1.5,3.94113e+12,0,0,2,0,0,0,0,0,0,0,0,14274,0,0,0,0,0,0,0,0,0,2.5,0
12410,-3.72163e-12,0,-1.58625e-06,-3.85292e-12,0,0,-1.13809e-13,0,0,-3.91977,-0.172991,0.422071,0,0,0,0,0,0,0,283,-31,283,-31,396,-38,279,83,0,-0.375,3.14171,-1.5,3.94113e+12,0,0,2,0,0,0,0,0,0,0,0,14157,0,0,0,0,0,0,0,0,0,2.5,0
12426,-3.72163e-12,0,-1.58625e-06,-3.85292e-12,0,0,-1.13809e-13,0,0,-3.91977,-0.172991,0.422071,0,0,0,0,0,0,0,283,-31,283,-31,396,-38,279,83,0,-0.375,3.14171,-1.5,3.94113e+12,0,0,2,0,0,0,0,0,0,0,0,14157,0,0,0,0,0,0,0,0,0,2.5,0
12442,-3.72163e-12,0,-1.58625e-06,-3.85292e-12,0,0,-1.1381e-13,0,0,-3.87133,-0.166273,0.389843,0,0,0,0,0,0,0,281,-31,281,-31,398,-36,277,84,0,-0.375,3.1417,-1.5,3.94113e+12,0,0,2,0,0,0,0,0,0,0,0,14520,0,0,0,0,0,0,0,0,0,2.5,0
12457,-3.72163e-12,0,-1.58625e-06,-3.85292e-12,0,0,-1.13811e-13,0,0,-3.87133,-0.166273,0.389843,0,0,0,0,0,0,0,281,-31,281,-31,398,-36,277,84,0,-0.375,3.1417,-1.5,3.94113e+12,0,0,2,0,0,0,0,0,0,0,0,14520,0,0,0,0,0,0,0,0,0,2.5,0
12473,-3.72163e-12,0,-1.58625e-06,-3.85292e-12,0,0,-1.13811e-13,0,0,-3.86373,-0.170797,0.385194,0,0,0,0,0,0,0,281,-31,281,-31,399,-38,279,83,0,-0.375,3.1417,-1.5,3.94113e+12,0,0,2,0,0,0,0,0,0,0,0,14520,0,0,0,0,0,0,0,0,0,2.5,0
12489,-3.72163e-12,0,-1.58625e-06,-3.85292e-12,0,0,-1.13812e-13,0,0,-3.86373,-0.170797,0.385194,0,0,0,0,0,0,0,281,-31,281,-31,399,-38,279,83,0,-0.375,3.14169,-1.5,3.94113e+12,0,0,2,0,0,0,0,0,0,0,0,14520,0,0,0,0,0,0,0,0,0,2.5,0
12505,-3.72163e-12,0,-1.58625e-06,-3.85292e-12,0,0,-1.13812e-13,0,0,-3.96926,-0.189542,0.445268,0,0,0,0,0,0,0,283,-30,283,-30,398,-38,284,83,0,-0.375,3.14169,-1.5,3.94113e+12,0,0,2,0,0,0,0,0,0,0,0,13915,0,0,0,0,0,0,0,0,0,2.5,0
12521,-3.72163e-12,0,-1.58625e-06,-3.85292e-12,0,0,-1.13813e-13,0,0,-3.96926,-0.189542,0.445268,0,0,0,0,0,0,0,283,-30,283,-30,398,-38,284,83,0,-0.375,3.14169,-1.5,3.94113e+12,0,0,2,0,0,0,0,0,0,0,0,13915,0,0,0,0,0,0,0,0,0,2.5,0
12539,-3.72163e-12,0,-1.58625e-06,-3.85292e-12,0,0,-1.13813e-13,0,0,-3.9184,-0.175151,0.418945,0,0,0,0,0,0,0,283,-30,283,-30,398,-38,279,83,0,-0.375,3.14168,-1.5,3.94113e+12,0,0,2,0,0,0,0,0,0,0,0,14399,0,0,0,0,0,0,0,0,0,2.5,0
12553,-3.72163e-12,0,-1.58625e-06,-3.85292e-12,0,0,-1.13814e-13,0,0,-3.9184,-0.175151,0.418945,0,0,0,0,0,0,0,283,-30,283,-30,398,-38,279,83,0,-0.375,3.14168,-1.5,3.94113e+12,0,0,2,0,0,0,0,0,0,0,0,14399,0,0,0,0,0,0,0,0,0,2.5,0
12566,-3.72163e-12,0,-1.58625e-06,-3.85292e-12,0,0,-1.13814e-13,0,0,-3.9184,-0.175151,0.418945,0,0,0,0,0,0,0,283,-30,283,-30,398,-38,279,83,0,-0.375,3.14168,-1.5,3.94113e+12,0,0,2,0,0,0,0,0,0,0,0,14399,0,0,0,0,0,0,0,0,0,2.5,0
12581,-3.72163e-12,0,-1.58625e-06,-3.85292e-12,0,0,-1.13815e-13,0,0,-3.97397,-0.189574,0.43877,0,0,0,0,0,0,0,286,-28,286,-28,398,-36,280,84,0,-0.375,3.14167,-1.5,3.94113e+12,0,0,2,0,0,0,0,0,0,0,0,14160,0,0,0,0,0,0,0,0,0,2.5,0
12597,-3.72163e-12,0,-1.58625e-06,-3.85292e-12,0,0,-1.13815e-13,0,0,-3.97397,-0.189574,0.43877,0,0,0,0,0,0,0,286,-28,286,-28,398,-36,280,84,0,-0.375,3.14167,-1.5,3.94113e+12,0,0,2,0,0,0,0,0,0,0,0,14160,0,0,0,0,0,0,0,0,0,2.5,0
12612,-3.72163e-12,0,-1.58625e-06,-3.85292e-12,0,0,-1.13816e-13,0,0,-3.91812,-0.199216,0.43308,0,0,0,0,0,0,0,286,-31,286,-31,401,-40,281,80,0,-0.375,3.14167,-1.5,3.94113e+12,0,0,2,0,0,0,0,0,0,0,0,14400,0,0,0,0,0,0,0,0,0,2.5,0
12627,-3.72163e-12,0,-1.58625e-06,-3.85292e-12,0,0,-1.13817e-13,0,0,-3.91812,-0.199216,0.43308,0,0,0,0,0,0,0,286,-31,286,-31,401,-40,281,80,0,-0.375,3.14167,-1.5,3.94113e+12,0,0,2,0,0,0,0,0,0,0,0,14400,0,0,0,0,0,0,0,0,0,2.5,0
12644,-3.72163e-12,0,-1.58625e-06,-3.85292e-12,0,0,-1.13817e-13,0,0,-3.91317,-0.206283,0.444787,0,0,0,0,0,0,0,286,-35,286,-35,399,-40,283,81,0,-0.375,3.14167,-1.5,3.94113e+12,0,0,2,0,0,0,0,0,0,0,0,14036,0,0,0,0,0,0,0,0,0,2.5,0
12659,-3.72163e-12,0,-1.58625e-06,-3.85292e-12,0,0,-1.13818e-13,0,0,-3.91317,-0.206283,0.444787,0,0,0,0,0,0,0,286,-35,286,-35,399,-40,283,81,0,-0.375,3.14166,-1.5,3.94113e+12,0,0,2,0,0,0,0,0,0,0,0,14036,0,0,0,0,0,0,0,0,0,2.5,0
12674,-3.72163e-12,0,-1.58625e-06,-3.85292e-12,0,0,-1.13818e-13,0,0,-3.90316,-0.222223,0.458491,0,0,0,0,0,0,0,286,-35,286,-35,404,-43,285,77,0,-0.375,3.14166,-1.5,3.94113e+12,0,0,2,0,0,0,0,0,0,0,0,14280,0,0,0,0,0,0,0,0,0,2.5,0
12689,-3.72163e-12,0,-1.58625e-06,-3.85292e-12,0,0,-1.13819e-13,0,0,-3.90316,-0.222223,0.458491,0,0,0,0,0,0,0,286,-35,286,-35,404,-43,285,77,0,-0.375,3.14166,-1.5,3.94113e+12,0,0,2,0,0,0,0,0,0,0,0,14280,0,0,0,0,0,0,0,0,0,2.5,0
12705,-3.72163e-12,0,-1.58625e-06,-3.85292e-12,0,0,-1.13819e-13,0,0,-3.89473,-0.221358,0.46571,0,0,0,0,0,0,0,286,-36,286,-36,404,-45,285,77,0,-0.375,3.14166,-1.5,3.94113e+12,0,0,2,0,0,0,0,0,0,0,0,14518,0,0,0,0,0,0,0,0,0,2.5,0
12720,-3.72163e-12,0,-1.58625e-06,-3.85292e-12,0,0,-1.1382e-13,0,0,-3.89473,-0.221358,0.46571,0,0,0,0,0,0,0,286,-36,286,-36,404,-45,285,77,0,-0.375,3.14166,-1.5,3.94113e+12,0,0,2,0,0,0,0,0,0,0,0,14518,0,0,0,0,0,0,0,0,0,2.5,0
12737,-3.72163e-12,0,-1.58625e-06,-3.85292e-12,0,0,-1.1382e-13,0,0,-3.86316,-0.246066,0.449287,0,0,0,0,0,0,0,289,-38,289,-38,404,-43,286,77,0,-0.375,3.14165,-1.5,3.94113e+12,0,0,2,0,0,0,0,0,0,0,0,14400,0,0,0,0,0,0,0,0,0,2.5,0
12753,-3.72163e-12,0,-1.58625e-06,-3.85292e-12,0,0,-1.13821e-13,0,0,-3.86316,-0.246066,0.449287,0,0,0,0,0,0,0,289,-38,289,-38,404,-43,286,77,0,-0.375,3.14165,-1.5,3.94113e+12,0,0,2,0,0,0,0,0,0,0,0,14400,0,0,0,0,0,0,0,0,0,2.5,0
12769,-3.72163e-12,0,-1.58625e-06,-3.85292e-12,0,0,-1.13821e-13,0,0,-3.88994,-0.2484,0.458244,0,0,0,0,0,0,0,292,-39,292,-39,404,-43,286,77,0,-0.375,3.14165,-1.5,3.94113e+12,0,0,2,0,0,0,0,0,0,0,0,14160,0,0,0,0,0,0,0,0,0,2.5,0
12784,-3.72163e-12,0,-1.58625e-06,-3.85292e-12,0,0,-1.13822e-13,0,0,-3.88994,-0.2484,0.458244,0,0,0,0,0,0,0,292,-39,292,-39,404,-43,286,77,0,-0.375,3.14165,-1.5,3.94113e+12,0,0,2,0,0,0,0,0,0,0,0,14160,0,0,0,0,0,0,0,0,0,2.5,0
12800,-3.72163e-12,0,-1.58625e-06,-3.85292e-12,0,0,-1.13822e-13,0,0,-3.88994,-0.2484,0.458244,0,0,0,0,0,0,0,292,-39,292,-39,404,-43,286,77,0,-0.375,3.14165,-1.5,3.94113e+12,0,0,2,0,0,0,0,0,0,0,0,14160,0,0,0,0,0,0,0,0,0,2.5,0
12815,-3.72163e-12,0,-1.58625e-06,-3.85292e-12,0,0,-1.13823e-13,0,0,-3.81229,-0.261135,0.417092,0,0,0,0,0,0,0,289,-38,289,-38,407,-43,288,79,0,-0.375,3.14164,-1.5,3.94113e+12,0,0,2,0,0,0,0,0,0,0,0,14762,0,0,0,0,0,0,0,0,0,2.5,0
12828,-3.72163e-12,0,-1.58625e-06,-3.85292e-12,0,0,-1.13824e-13,0,0,-3.81229,-0.261135,0.417092,0,0,0,0,0,0,0,289,-38,289,-38,407,-43,288,79,0,-0.375,3.14164,-1.5,3.94113e+12,0,0,2,0,0,0,0,0,0,0,0,14762,0,0,0,0,0,0,0,0,0,2.5,0
12841,-3.72163e-12,0,-1.58625e-06,-3.85292e-12,0,0,-1.13824e-13,0,0,-4.95303,-5.88358,0.728621,0,0,0,0,0,0,0,769,16,769,16,848,-23,768,99,0,-0.375,3.14164,-1.5,3.94113e+12,0,0,2,0,0,0,0,0,0,0,0,9760,0,0,0,0,0,0,0,0,0,2.5,0
12856,-3.72163e-12,0,-1.58625e-06,-3.85292e-12,0,0,-1.13825e-13,0,0,-4.95303,-5.88358,0.728621,0,0,0,0,0,0,0,769,16,769,16,848,-23,768,99,0,-0.375,3.14164,-1.5,3.94113e+12,0,0,2,0,0,0,0,0,0,0,0,9760,0,0,0,0,0,0,0,0,0,2.5,0
12872,-3.72163e-12,0,-1.58625e-06,-3.85292e-12,0,0,-1.13825e-13,0,0,-3.84333,-0.345052,0.43805,0,0,0,0,0,0,0,297,-38,297,-38,414,-45,300,79,0,-0.375,3.14164,-1.5,3.94113e+12,0,0,2,0,0,0,0,0,0,0,0,14880,0,0,0,0,0,0,0,0,0,2.5,0
12889,-3.72163e-12,0,-1.58625e-06,-3.85292e-12,0,0,-1.13826e-13,0,0,-3.84333,-0.345052,0.43805,0,0,0,0,0,0,0,297,-38,297,-38,414,-45,300,79,0,-0.375,3.14164,-1.5,3.94113e+12,0,0,2,0,0,0,0,0,0,0,0,14880,0,0,0,0,0,0,0,0,0,2.5,0
12905,-3.72163e-12,0,-1.58625e-06,-3.85292e-12,0,0,-1.13826e-13,0,0,-3.90288,-0.359858,0.461232,0,0,0,0,0,0,0,303,-34,303,-34,415,-44,297,77,0,-0.375,3.14163,-1.5,3.94113e+12,0,0,2,0,0,0,0,0,0,0,0,14520,0,0,0,0,0,0,0,0,0,2.5,0
12920,-3.72163e-12,0,-1.58625e-06,-3.85292e-12,0,0,-1.13827e-13,0,0,-3.90288,-0.359858,0.461232,0,0,0,0,0,0,0,303,-34,303,-34,415,-44,297,77,0,-0.375,3.14163,-1.5,3.94113e+12,0,0,2,0,0,0,0,0,0,0,0,14520,0,0,0,0,0,0,0,0,0,2.5,0
12936,-3.72163e-12,0,-1.58625e-06,-3.85292e-12,0,0,-1.13827e-13,0,0,-3.91083,-0.360833,0.448962,0,0,0,0,0,0,0,303,-34,303,-34,415,-40,297,80,0,-0.375,3.14163,-1.5,3.94113e+12,0,0,2,0,0,0,0,0,0,0,0,14400,0,0,0,0,0,0,0,0,0,2.5,0
12951,-3.72163e-12,0,-1.58625e-06,-3.85292e-12,0,0,-1.13828e-13,0,0,-3.91083,-0.360833,0.448962,0,0,0,0,0,0,0,303,-34,303,-34,415,-40,297,80,0,-0.375,3.14163,-1.5,3.94113e+12,0,0,2,0,0,0,0,0,0,0,0,14400,0,0,0,0,0,0,0,0,0,2.5,0
12967,-3.72163e-12,0,-1.58625e-06,-3.85292e-12,0,0,-1.13828e-13,0,0,-3.80524,-0.334367,0.396882,0,0,0,0,0,0,0,297,-34,297,-34,415,-44,296,80,0,-0.375,3.14163,-1.5,3.94113e+12,0,0,2,0,0,0,0,0,0,0,0,15004,0,0,0,0,0,0,0,0,0,2.5,0
12982,-3.72163e-12,0,-1.58625e-06,-3.85292e-12,0,0,-1.13829e-13,0,0,-3.80524,-0.334367,0.396882,0,0,0,0,0,0,0,297,-34,297,-34,415,-44,296,80,0,-0.375,3.14163,-1.5,3.94113e+12,0,0,2,0,0,0,0,0,0,0,0,15004,0,0,0,0,0,0,0,0,0,2.5,0
12997,-3.72163e-12,0,-1.58625e-06,-3.85292e-12,0,0,-1.1383e-13,0,0,-3.80524,-0.334367,0.396882,0,0,0,0,0,0,0,297,-34,297,-34,415,-44,296,80,0,-0.375,3.14163,-1.5,3.94113e+12,0,0,2,0,0,0,0,0,0,0,0,15004,0,0,0,0,0,0,0,0,0,2.5,0
13013,-3.72163e-12,0,-1.58625e-06,-3.85292e-12,0,0,-1.1383e-13,0,0,-3.91937,-0.335492,0.445918,0,0,0,0,0,0,0,299,-34,299,-34,411,-40,297,81,0,-0.375,3.14162,-1.5,3.94113e+12,0,0,2,0,0,0,0,0,0,0,0,14157,0,0,0,0,0,0,0,0,0,2.5,0
13029,-3.72163e-12,0,-1.58625e-06,-3.85292e-12,0,0,-1.13831e-13,0,0,-3.91937,-0.335492,0.445918,0,0,0,0,0,0,0,299,-34,299,-34,411,-40,297,81,0,-0.375,3.14162,-1.5,3.94113e+12,0,0,2,0,0,0,0,0,0,0,0,14157,0,0,0,0,0,0,0,0,0,2.5,0
13044,-3.72163e-12,0,-1.58625e-06,-3.85292e-12,0,0,-1.13831e-13,0,0,-3.94956,-0.299347,0.442717,0,0,0,0,0,0,0,297,-31,297,-31,411,-37,291,83,0,-0.375,3.14162,-1.5,3.94113e+12,0,0,2,0,0,0,0,0,0,0,0,14400,0,0,0,0,0,0,0,0,0,2.5,0
13060,-3.72163e-12,0,-1.58625e-06,-3.85292e-12,0,0,-1.13832e-13,0,0,-3.94956,-0.299347,0.442717,0,0,0,0,0,0,0,297,-31,297,-31,411,-37,291,83,0,-0.375,3.14162,-1.5,3.94113e+12,0,0,2,0,0,0,0,0,0,0,0,14400,0,0,0,0,0,0,0,0,0,2.5,0
13076,-3.72163e-12,0,-1.58625e-06,-3.85292e-12,0,0,-1.13832e-13,0,0,-3.86888,-0.267405,0.419416,0,0,0,0,0,0,0,292,-34,292,-34,405,-40,288,81,0,-0.375,3.14162,-1.5,3.94113e+12,0,0,2,0,0,0,0,0,0,0,0,14641,0,0,0,0,0,0,0,0,0,2.5,0
13091,-3.72163e-12,0,-1.58625e-06,-3.85292e-12,0,0,-1.13833e-13,0,0,-3.86888,-0.267405,0.419416,0,0,0,0,0,0,0,292,-34,292,-34,405,-40,288,81,0,-0.375,3.14162,-1.5,3.94113e+12,0,0,2,0,0,0,0,0,0,0,0,14641,0,0,0,0,0,0,0,0,0,2.5,0
13105,-3.72163e-12,0,-1.58625e-06,-3.85292e-12,0,0,-1.13833e-13,0,0,-3.93549,-0.269015,0.45408,0,0,0,0,0,0,0,293,-31,293,-31,409,-42,289,80,0,-0.375,3.14162,-1.5,3.94113e+12,0,0,2,0,0,0,0,0,0,0,0,14640,0,0,0,0,0,0,0,0,0,2.5,0
13118,-3.72163e-12,0,-1.58625e-06,-3.85292e-12,0,0,-1.13834e-13,0,0,-3.93549,-0.269015,0.45408,0,0,0,0,0,0,0,293,-31,293,-31,409,-42,289,80,0,-0.375,3.14162,-1.5,3.94113e+12,0,0,2,0,0,0,0,0,0,0,0,14640,0,0,0,0,0,0,0,0,0,2.5,0
13133,-3.72163e-12,0,-1.58625e-06,-3.85292e-12,0,0,-1.13834e-13,0,0,-3.88374,-0.245071,0.443476,0,0,0,0,0,0,0,289,-35,289,-35,407,-42,286,77,0,-0.375,3.14162,-1.5,3.94113e+12,0,0,2,0,0,0,0,0,0,0,0,14399,0,0,0,0,0,0,0,0,0,2.5,0
13149,-3.72163e-12,0,-1.58625e-06,-3.85292e-12,0,0,-1.13835e-13,0,0,-3.88374,-0.245071,0.443476,0,0,0,0,0,0,0,289,-35,289,-35,407,-42,286,77,0,-0.375,3.14162,-1.5,3.94113e+12,0,0,2,0,0,0,0,0,0,0,0,14399,0,0,0,0,0,0,0,0,0,2.5,0
13166,-3.72163e-12,0,-1.58625e-06,-3.85292e-12,0,0,-1.13835e-13,0,0,-3.85646,-0.252694,0.417354,0,0,0,0,0,0,0,289,-35,289,-35,406,-40,287,80,0,-0.375,3.14162,-1.5,3.94113e+12,0,0,2,0,0,0,0,0,0,0,0,14280,0,0,0,0,0,0,0,0,0,2.5,0
13182,-3.72163e-12,0,-1.58625e-06,-3.85292e-12,0,0,-1.13836e-13,0,0,-3.85646,-0.252694,0.417354,0,0,0,0,0,0,0,289,-35,289,-35,406,-40,287,80,0,-0.375,3.14162,-1.5,3.94113e+12,0,0,2,0,0,0,0,0,0,0,0,14280,0,0,0,0,0,0,0,0,0,2.5,0
13197,-3.72163e-12,0,-1.58625e-06,-3.85292e-12,0,0,-1.13837e-13,0,0,-3.85646,-0.252694,0.417354,0,0,0,0,0,0,0,289,-35,289,-35,406,-40,287,80,0,-0.375,3.14162,-1.5,3.94113e+12,0,0,2,0,0,0,0,0,0,0,0,14280,0,0,0,0,0,0,0,0,0,2.5,0
13212,-3.72163e-12,0,-1.58625e-06,-3.85292e-12,0,0,-1.13837e-13,0,0,-3.89442,-0.25996,0.437385,0,0,0,0,0,0,0,289,-35,289,-35,405,-40,290,80,0,-0.375,3.14162,-1.5,3.94113e+12,0,0,2,0,0,0,0,0,0,0,0,14040,0,0,0,0,0,0,0,0,0,2.5,0
13227,-3.72163e-12,0,-1.58625e-06,-3.85292e-12,0,0,-1.13838e-13,0,0,-3.89442,-0.25996,0.437385,0,0,0,0,0,0,0,289,-35,289,-35,405,-40,290,80,0,-0.375,3.14162,-1.5,3.94113e+12,0,0,2,0,0,0,0,0,0,0,0,14040,0,0,0,0,0,0,0,0,0,2.5,0
13243,-3.72163e-12,0,-1.58625e-06,-3.85292e-12,0,0,-1.13838e-13,0,0,-3.83897,-0.256216,0.408019,0,0,0,0,0,0,0,289,-35,289,-35,408,-40,287,80,0,-0.375,3.14161,-1.5,3.94113e+12,0,0,2,0,0,0,0,0,0,0,0,14520,0,0,0,0,0,0,0,0,0,2.5,0
13258,-3.72163e-12,0,-1.58625e-06,-3.85292e-12,0,0,-1.13839e-13,0,0,-3.83897,-0.256216,0.408019,0,0,0,0,0,0,0,289,-35,289,-35,408,-40,287,80,0,-0.375,3.14161,-1.5,3.94113e+12,0,0,2,0,0,0,0,0,0,0,0,14520,0,0,0,0,0,0,0,0,0,2.5,0
13274,-3.72163e-12,0,-1.58625e-06,-3.85292e-12,0,0,-1.13839e-13,0,0,-3.91296,-0.25856,0.439682,0,0,0,0,0,0,0,289,-35,289,-35,402,-40,292,83,0,-0.375,3.14161,-1.5,3.94113e+12,0,0,2,0,0,0,0,0,0,0,0,14391,0,0,0,0,0,0,0,0,0,2.5,0
13290,-3.72163e-12,0,-1.58625e-06,-3.85292e-12,0,0,-1.1384e-13,0,0,-3.91296,-0.25856,0.439682,0,0,0,0,0,0,0,289,-35,289,-35,402,-40,292,83,0,-0.375,3.14161,-1.5,3.94113e+12,0,0,2,0,0,0,0,0,0,0,0,14391,0,0,0,0,0,0,0,0,0,2.5,0
13307,-3.72163e-12,0,-1.58625e-06,-3.85292e-12,0,0,-1.1384e-13,0,0,-3.89316,-0.255125,0.43679,0,0,0,0,0,0,0,289,-35,289,-35,404,-40,289,80,0,-0.375,3.14161,-1.5,3.94113e+12,0,0,2,0,0,0,0,0,0,0,0,14040,0,0,0,0,0,0,0,0,0,2.5,0
13322,-3.72163e-12,0,-1.58625e-06,-3.85292e-12,0,0,-1.13841e-13,0,0,-3.89316,-0.255125,0.43679,0,0,0,0,0,0,0,289,-35,289,-35,404,-40,289,80,0,-0.375,3.14161,-1.5,3.94113e+12,0,0,2,0,0,0,0,0,0,0,0,14040,0,0,0,0,0,0,0,0,0,2.5,0
13338,-3.72163e-12,0,-1.58625e-06,-3.85292e-12,0,0,-1.13841e-13,0,0,-3.88756,-0.264142,0.431177,0,0,0,0,0,0,0,289,-35,289,-35,406,-40,291,81,0,-0.375,3.14161,-1.5,3.94113e+12,0,0,2,0,0,0,0,0,0,0,0,14157,0,0,0,0,0,0,0,0,0,2.5,0
13353,-3.72163e-12,0,-1.58625e-06,-3.85292e-12,0,0,-1.13842e-13,0,0,-3.88756,-0.264142,0.431177,0,0,0,0,0,0,0,289,-35,289,-35,406,-40,291,81,0,-0.375,3.14161,-1.5,3.94113e+12,0,0,2,0,0,0,0,0,0,0,0,14157,0,0,0,0,0,0,0,0,0,2.5,0
13369,-3.72163e-12,0,-1.58625e-06,-3.85292e-12,0,0,-1.13843e-13,0,0,-3.88189,-0.244806,0.428472,0,0,0,0,0,0,0,289,-35,289,-35,402,-40,287,81,0,-0.375,3.14161,-1.5,3.94113e+12,0,0,2,0,0,0,0,0,0,0,0,14399,0,0,0,0,0,0,0,0,0,2.5,0
13382,-3.72163e-12,0,-1.58625e-06,-3.85292e-12,0,0,-1.13843e-13,0,0,-3.88189,-0.244806,0.428472,0,0,0,0,0,0,0,289,-35,289,-35,402,-40,287,81,0,-0.375,3.14161,-1.5,3.94113e+12,0,0,2,0,0,0,0,0,0,0,0,14399,0,0,0,0,0,0,0,0,0,2.5,0
13396,-3.72163e-12,0,-1.58625e-06,-3.85292e-12,0,0,-1.13844e-13,0,0,-3.88189,-0.244806,0.428472,0,0,0,0,0,0,0,289,-35,289,-35,402,-40,287,81,0,-0.375,3.14161,-1.5,3.94113e+12,0,0,2,0,0,0,0,0,0,0,0,14399,0,0,0,0,0,0,0,0,0,2.5,0
13410,-3.72163e-12,0,-1.58625e-06,-3.85292e-12,0,0,-1.13844e-13,0,0,-3.89316,-0.255125,0.43679,0,0,0,0,0,0,0,289,-35,289,-35,404,-40,289,80,0,-0.375,3.14161,-1.5,3.94113e+12,0,0,2,0,0,0,0,0,0,0,0,14040,0,0,0,0,0,0,0,0,0,2.5,0
13426,-3.72163e-12,0,-1.58625e-06,-3.85292e-12,0,0,-1.13845e-13,0,0,-3.89316,-0.255125,0.43679,0,0,0,0,0,0,0,289,-35,289,-35,404,-40,289,80,0,-0.375,3.14161,-1.5,3.94113e+12,0,0,2,0,0,0,0,0,0,0,0,14040,0,0,0,0,0,0,0,0,0,2.5,0
13442,-3.72163e-12,0,-1.58625e-06,-3.85292e-12,0,0,-1.13845e-13,0,0,-3.86929,-0.258388,0.421602,0,0,0,0,0,0,0,289,-35,289,-35,406,-40,289,80,0,-0.375,3.14161,-1.5,3.94113e+12,0,0,2,0,0,0,0,0,0,0,0,14040,0,0,0,0,0,0,0,0,0,2.5,0
13457,-3.72163e-12,0,-1.58625e-06,-3.85292e-12,0,0,-1.13846e-13,0,0,-3.86929,-0.258388,0.421602,0,0,0,0,0,0,0,289,-35,289,-35,406,-40,289,80,0,-0.375,3.14161,-1.5,3.94113e+12,0,0,2,0,0,0,0,0,0,0,0,14040,0,0,0,0,0,0,0,0,0,2.5,0
13473,-3.72163e-12,0,-1.58625e-06,-3.85292e-12,0,0,-1.13846e-13,0,0,-3.86855,-0.258111,0.421194,0,0,0,0,0,0,0,289,-35,289,-35,406,-40,289,81,0,-0.375,3.14161,-1.5,3.94113e+12,0,0,2,0,0,0,0,0,0,0,0,14157,0,0,0,0,0,0,0,0,0,2.5,0
13488,-3.72163e-12,0,-1.58625e-06,-3.85292e-12,0,0,-1.13847e-13,0,0,-3.86855,-0.258111,0.421194,0,0,0,0,0,0,0,289,-35,289,-35,406,-40,289,81,0,-0.375,3.14161,-1.5,3.94113e+12,0,0,2,0,0,0,0,0,0,0,0,14157,0,0,0,0,0,0,0,0,0,2.5,0
13504,-3.72163e-12,0,-1.58625e-06,-3.85292e-12,0,0,-1.13847e-13,0,0,-3.87196,-0.251543,0.41865,0,0,0,0,0,0,0,289,-35,289,-35,405,-38,287,81,0,-0.375,3.14161,-1.5,3.94113e+12,0,0,2,0,0,0,0,0,0,0,0,14161,0,0,0,0,0,0,0,0,0,2.5,0
13519,-3.72163e-12,0,-1.58625e-06,-3.85292e-12,0,0,-1.13848e-13,0,0,-3.87196,-0.251543,0.41865,0,0,0,0,0,0,0,289,-35,289,-35,405,-38,287,81,0,-0.375,3.14161,-1.5,3.94113e+12,0,0,2,0,0,0,0,0,0,0,0,14161,0,0,0,0,0,0,0,0,0,2.5,0
