timestamp,A_x,A_y,A_z,P,Q,R,Phi,Theta,Psi,poseX,poseY,poseZ,state_X,state_Y,state_Z,state_VzB,state_Bx,state_By,state_Bz,p1_x,p1_y,p2_x,p2_y,p3_x,p3_y,p4_x,p4_y,roll,pitch,yaw,alt,targetHeading,highLevelState,lowLevelState,gateNumber,filtered_x,filtered_y
10,0,0,0,0,0,0,0,0,0,0,0,0,0,0,0,0,0,0,0,0,0,0,0,0,0,0,0,0,-0.261799,0.0141372,-1.5,3.94113e+12,0,0,0,0,0
20,-3.34119e-12,6.01386e-38,-1.59277e-06,-3.40794e-12,6.01338e-38,0,-1.13703e-13,0,0,0,0,0,0,0,0,0,0,0,0,0,0,0,0,0,0,0,0,0,-0.261799,0.579623,-1.5,3.94113e+12,0,0,0,0,0
30,-3.34119e-12,6.01386e-38,-1.59277e-06,-3.40794e-12,6.01338e-38,-3.90305e-12,-1.13703e-13,0,0,0,0,0,0,0,0,0,0,0,0,0,0,0,0,0,0,0,0,0,-0.261799,0.601615,-1.5,3.94113e+12,0,0,0,0,0
40,-3.34119e-12,6.01386e-38,-1.59277e-06,-3.40794e-12,6.01338e-38,0,-1.13704e-13,0,0,0,0,0,0,0,0,0,0,0,0,0,0,0,0,0,0,0,0,0,-0.261799,0.636172,-1.5,3.94113e+12,0,0,0,0,0
50,-3.34119e-12,6.01386e-38,-1.59277e-06,-3.40794e-12,6.01338e-38,-3.90305e-12,-1.13704e-13,0,0,0,0,0,0,0,0,0,0,0,0,0,0,0,0,0,0,0,0,0,-0.261799,0.703716,-1.5,3.94113e+12,0,0,0,0,0
60,-3.34119e-12,6.01386e-38,-1.59277e-06,-3.40794e-12,6.01338e-38,0,-1.13705e-13,0,0,0,0,0,0,0,0,0,0,0,0,0,0,0,0,0,0,0,0,0,-0.261799,0.738274,-1.5,3.94113e+12,0,0,0,0,0
70,-3.34119e-12,6.01386e-38,-1.59277e-06,-3.40794e-12,6.01338e-38,-3.90305e-12,-1.13705e-13,0,0,0,0,0,0,0,0,0,0,0,0,0,0,0,0,0,0,0,0,0,-0.261799,0.76969,-1.5,3.94113e+12,0,0,0,0,0
80,-3.34119e-12,6.01386e-38,-1.59277e-06,-3.40794e-12,6.01338e-38,0,-1.13706e-13,0,0,0,0,0,0,0,0,0,0,0,0,0,0,0,0,0,0,0,0,0,-0.261799,0.805818,-1.5,3.94113e+12,0,0,0,0,0
90,-3.34119e-12,6.01386e-38,-1.59277e-06,-3.40794e-12,6.01338e-38,-3.90305e-12,-1.13706e-13,0,0,0,0,0,0,0,0,0,0,0,0,0,0,0,0,0,0,0,0,0,-0.261799,0.845088,-1.5,3.94113e+12,0,0,0,0,0
100,-3.34119e-12,6.01386e-38,-1.59277e-06,-3.40794e-12,6.01338e-38,0,-1.13707e-13,0,0,0,0,0,0,0,0,0,0,0,0,0,0,0,0,0,0,0,0,0,-0.261799,0.914203,-1.5,3.94113e+12,0,0,0,0,0
110,-3.34119e-12,6.01386e-38,-1.59277e-06,-3.40794e-12,6.01338e-38,-3.90305e-12,-1.13708e-13,0,0,0,0,0,0,0,0,0,0,0,0,0,0,0,0,0,0,0,0,0,-0.261799,0.947189,-1.5,3.94113e+12,0,0,0,0,0
120,-3.34119e-12,6.01386e-38,-1.59277e-06,-3.40794e-12,6.01338e-38,0,-1.13708e-13,0,0,0,0,0,0,0,0,0,0,0,0,0,0,0,0,0,0,0,0,0,-0.261799,0.981747,-1.5,3.94113e+12,0,0,0,0,0
130,-3.34119e-12,6.01386e-38,-1.59277e-06,-3.40794e-12,6.01338e-38,-3.90305e-12,-1.13709e-13,0,0,0,0,0,0,0,0,0,0,0,0,0,0,0,0,0,0,0,0,0,-0.261799,1.01316,-1.5,3.94113e+12,0,0,0,0,0
140,-3.34119e-12,6.01386e-38,-1.59277e-06,-3.40794e-12,6.01338e-38,0,-1.13709e-13,0,0,0,0,0,0,0,0,0,0,0,0,0,0,0,0,0,0,0,0,0,-0.261799,1.04929,-1.5,3.94113e+12,0,0,0,0,0
150,-3.34119e-12,6.01386e-38,-1.59277e-06,-3.40794e-12,6.01338e-38,-3.90305e-12,-1.1371e-13,0,0,0,0,0,0,0,0,0,0,0,0,0,0,0,0,0,0,0,0,0,-0.261799,1.08071,-1.5,3.94113e+12,0,0,0,0,0
160,-3.34119e-12,6.01386e-38,-1.59277e-06,-3.40794e-12,6.01338e-38,0,-1.1371e-13,0,0,0,0,0,0,0,0,0,0,0,0,0,0,0,0,0,0,0,0,0,-0.261799,1.11527,-1.5,3.94113e+12,0,0,0,0,0
170,-3.34119e-12,6.01386e-38,-1.59277e-06,-3.40794e-12,6.01338e-38,-3.90305e-12,-1.13711e-13,0,0,0,0,0,0,0,0,0,0,0,0,0,0,0,0,0,0,0,0,0,-0.261799,1.14825,-1.5,3.94113e+12,0,0,0,0,0
180,-3.34119e-12,6.01386e-38,-1.59277e-06,-3.40794e-12,6.01338e-38,0,-1.13711e-13,0,0,0,0,0,0,0,0,0,0,0,0,0,0,0,0,0,0,0,0,0,-0.261799,1.18438,-1.5,3.94113e+12,0,0,0,0,0
190,-3.34119e-12,6.01386e-38,-1.59277e-06,-3.40794e-12,6.01338e-38,-3.90305e-12,-1.13712e-13,0,0,0,0,0,0,0,0,0,0,0,0,0,0,0,0,0,0,0,0,0,-0.261799,1.2158,-1.5,3.94113e+12,0,0,0,0,0
200,-3.34119e-12,6.01386e-38,-1.59277e-06,-3.40794e-12,6.01338e-38,0,-1.13712e-13,0,0,0,0,0,0,0,0,0,0,0,0,0,0,0,0,0,0,0,0,0,-0.261799,1.25035,-1.5,3.94113e+12,0,0,0,0,0
210,-3.34119e-12,6.01386e-38,-1.59277e-06,-3.40794e-12,6.01338e-38,-3.90305e-12,-1.13713e-13,0,0,0,0,0,0,0,0,0,0,0,0,0,0,0,0,0,0,0,0,0,-0.261799,1.28177,-1.5,3.94113e+12,0,0,0,0,0
220,-3.34119e-12,6.01386e-38,-1.59277e-06,-3.40794e-12,6.01338e-38,0,-1.13714e-13,0,0,0,0,0,0,0,0,0,0,0,0,0,0,0,0,0,0,0,0,0,-0.261799,1.31633,-1.5,3.94113e+12,0,0,0,0,0
230,-3.34119e-12,6.01386e-38,-1.59277e-06,-3.40794e-12,6.01338e-38,-3.90305e-12,-1.13714e-13,0,0,0,0,0,0,0,0,0,0,0,0,0,0,0,0,0,0,0,0,0,-0.261799,1.34931,-1.5,3.94113e+12,0,0,0,0,0
240,-3.34119e-12,6.01386e-38,-1.59277e-06,-3.40794e-12,6.01338e-38,0,-1.13715e-13,0,0,0,0,0,0,0,0,0,0,0,0,0,0,0,0,0,0,0,0,0,-0.261799,1.37916,-1.5,3.94113e+12,0,0,0,0,0
250,-3.34119e-12,6.01386e-38,-1.59277e-06,-3.40794e-12,6.01338e-38,-3.90305e-12,-1.13715e-13,0,0,0,0,0,0,0,0,0,0,0,0,0,0,0,0,0,0,0,0,0,-0.261799,1.40115,-1.5,3.94113e+12,0,0,0,0,0
260,-3.34119e-12,6.01386e-38,-1.59277e-06,-3.40794e-12,6.01338e-38,0,-1.13716e-13,0,0,0,0,0,0,0,0,0,0,0,0,0,0,0,0,0,0,0,0,0,-0.261799,1.42157,-1.5,3.94113e+12,0,0,0,0,0
270,-3.34119e-12,6.01386e-38,-1.59277e-06,-3.40794e-12,6.01338e-38,-3.90305e-12,-1.13716e-13,0,0,0,0,0,0,0,0,0,0,0,0,0,0,0,0,0,0,0,0,0,-0.261799,1.44828,-1.5,3.94113e+12,0,0,0,0,0
280,-3.34119e-12,6.01386e-38,-1.59277e-06,-3.40794e-12,6.01338e-38,0,-1.13717e-13,0,0,0,0,0,0,0,0,0,0,0,0,0,0,0,0,0,0,0,0,0,-0.261799,1.47969,-1.5,3.94113e+12,0,0,0,0,0
290,-3.34119e-12,6.01386e-38,-1.59277e-06,-3.40794e-12,6.01338e-38,-3.90305e-12,-1.13717e-13,0,0,0,0,0,0,0,0,0,0,0,0,0,0,0,0,0,0,0,0,0,-0.261799,1.52367,-1.5,3.94113e+12,0,0,0,0,0
300,-3.34119e-12,6.01386e-38,-1.59277e-06,-3.40794e-12,6.01338e-38,0,-1.13718e-13,0,0,0,0,0,0,0,0,0,0,0,0,0,0,0,0,0,0,0,0,0,-0.261799,1.55666,-1.5,3.94113e+12,0,0,0,0,0
310,-3.34119e-12,6.01386e-38,-1.59277e-06,-3.40794e-12,6.01338e-38,-3.90305e-12,-1.13718e-13,0,0,0,0,0,0,0,0,0,0,0,0,0,0,0,0,0,0,0,0,0,-0.261799,1.59122,-1.5,3.94113e+12,0,0,0,0,0
320,-3.34119e-12,6.01386e-38,-1.59277e-06,-3.40794e-12,6.01338e-38,0,-1.13719e-13,0,0,0,0,0,0,0,0,0,0,0,0,0,0,0,0,0,0,0,0,0,-0.261799,1.62263,-1.5,3.94113e+12,0,0,0,0,0
330,-3.34119e-12,6.01386e-38,-1.59277e-06,-3.40794e-12,6.01338e-38,-3.90305e-12,-1.13719e-13,0,0,0,0,0,0,0,0,0,0,0,0,0,0,0,0,0,0,0,0,0,-0.261799,1.65876,-1.5,3.94113e+12,0,0,0,0,0
340,-3.34119e-12,6.01386e-38,-1.59277e-06,-3.40794e-12,6.01338e-38,0,-1.1372e-13,0,0,0,0,0,0,0,0,0,0,0,0,0,0,0,0,0,0,0,0,0,-0.261799,1.69018,-1.5,3.94113e+12,0,0,0,0,0
350,-3.34119e-12,6.01386e-38,-1.59277e-06,-3.40794e-12,6.01338e-38,-3.90305e-12,-1.13721e-13,0,0,0,0,0,0,0,0,0,0,0,0,0,0,0,0,0,0,0,0,0,-0.261799,1.72474,-1.5,3.94113e+12,0,0,0,0,0
360,-3.34119e-12,6.01386e-38,-1.59277e-06,-3.40794e-12,6.01338e-38,0,-1.13721e-13,0,0,0,0,0,0,0,0,0,0,0,0,0,0,0,0,0,0,0,0,0,-0.261799,1.75772,-1.5,3.94113e+12,0,0,0,0,0
370,-3.34119e-12,-3.41561e-12,-1.59277e-06,-3.40794e-12,-3.41542e-12,-3.90305e-12,-2.84302e-13,0,0,0,0,0,0,0,0,0,0,0,0,0,0,0,0,0,0,0,0,0,-0.261799,2.23053,-1.5,3.94113e+12,0,0,0,0,0
380,-3.34119e-12,-3.41561e-12,-1.59277e-06,-3.40794e-12,-3.41542e-12,0,-2.8426e-13,0,0,0,0,0,0,0,0,0,0,0,0,0,0,0,0,0,0,0,0,0,-0.261799,2.2541,-1.5,3.94113e+12,0,0,0,0,0
390,-3.34119e-12,-3.41561e-12,-1.59277e-06,-3.40794e-12,-3.41542e-12,-3.90305e-12,-2.84248e-13,0,0,0,0,0,0,0,0,0,0,0,0,0,0,0,0,0,0,0,0,0,-0.261799,2.28237,-1.5,3.94113e+12,0,0,0,0,0
400,-3.34119e-12,-3.41561e-12,-1.59277e-06,-3.40794e-12,-3.41542e-12,0,-2.84252e-13,0,0,0,0,0,0,0,0,0,0,0,0,0,0,0,0,0,0,0,0,0,-0.261799,2.31536,-1.5,3.94113e+12,0,0,0,0,0
410,-3.34119e-12,-3.41561e-12,-1.59277e-06,-3.40794e-12,-3.41542e-12,-3.90305e-12,-2.84253e-13,0,0,0,0,0,0,0,0,0,0,0,0,0,0,0,0,0,0,0,0,0,-0.261799,2.36869,-1.5,3.94113e+12,0,0,0,0,0
420,-3.34119e-12,-3.41561e-12,-1.59277e-06,-3.40794e-12,-3.41542e-12,0,-2.84254e-13,0,0,0,0,0,0,0,0,0,0,0,0,0,0,0,0,0,0,0,0,0,-0.261799,2.40076,-1.5,3.94113e+12,0,0,0,0,0
430,-3.34119e-12,-3.41561e-12,-1.59277e-06,-3.40794e-12,-3.41542e-12,-3.90305e-12,-2.86278e-13,0,0,0,0,0,0,0,0,0,0,0,0,0,0,0,0,0,0,0,0,0,-0.261799,2.45337,-1.5,3.94113e+12,0,0,0,0,0
440,-3.34119e-12,-3.41561e-12,-1.59277e-06,-3.40794e-12,-3.41542e-12,0,-2.86279e-13,0,0,0,0,0,0,0,0,0,0,0,0,0,0,0,0,0,0,0,0,0,-0.261799,2.49541,-1.5,3.94113e+12,0,0,0,0,0
450,-3.34119e-12,-3.41561e-12,-1.59277e-06,-3.40794e-12,-3.41542e-12,-3.90305e-12,-2.8628e-13,0,0,0,0,0,0,0,0,0,0,0,0,0,0,0,0,0,0,0,0,0,-0.261799,2.52349,-1.5,3.94113e+12,0,0,0,0,0
460,-3.34119e-12,-3.41561e-12,-1.59277e-06,-3.40794e-12,-3.41542e-12,0,-2.84257e-13,0,0,0,0,0,0,0,0,0,0,0,0,0,0,0,0,0,0,0,0,0,-0.261799,2.56374,-1.5,3.94113e+12,0,0,0,0,0
470,-3.34119e-12,-3.41561e-12,-1.59277e-06,-3.40794e-12,-3.41542e-12,-3.90305e-12,-2.85912e-13,0,0,0,0,0,0,0,0,0,0,0,0,0,0,0,0,0,0,0,0,0,-0.261799,2.58544,-1.5,3.94113e+12,0,0,0,0,0
480,-3.34119e-12,-3.41561e-12,-1.59277e-06,-3.40794e-12,-3.41542e-12,0,-2.85913e-13,0,0,0,0,0,0,0,0,0,0,0,0,0,0,0,0,0,0,0,0,0,-0.261799,2.60085,-1.5,3.94113e+12,0,0,0,0,0
490,-3.34119e-12,-3.41561e-12,-1.59277e-06,-3.40794e-12,-3.41542e-12,-3.90305e-12,-2.85915e-13,0,0,0,0,0,0,0,0,0,0,0,0,0,0,0,0,0,0,0,0,0,-0.261799,2.63925,-1.5,3.94113e+12,0,0,0,0,0
500,-3.34119e-12,-3.41561e-12,-1.59277e-06,-3.40794e-12,-3.41542e-12,0,-2.86281e-13,0,0,0,0,0,0,0,0,0,0,0,0,0,0,0,0,0,0,0,0,0,-0.261799,2.6581,-1.5,3.94113e+12,0,0,0,0,0
510,-3.34119e-12,-3.41561e-12,-1.59277e-06,-3.40794e-12,-3.41542e-12,-3.90305e-12,-2.84294e-13,0,0,0,0,0,0,0,0,0,0,0,0,0,0,0,0,0,0,0,0,0,-0.261799,2.67719,-1.5,3.94113e+12,0,0,0,0,0
520,-3.34119e-12,-3.41561e-12,-1.59277e-06,-3.40794e-12,-3.41542e-12,0,-2.84295e-13,0,0,0,0,0,0,0,0,0,0,0,0,0,0,0,0,0,0,0,0,0,-0.261799,2.70286,-1.5,3.94113e+12,0,0,0,0,0
530,-3.34119e-12,-3.41561e-12,-1.59277e-06,-3.40794e-12,-3.41542e-12,-3.90305e-12,-2.84296e-13,0,0,0,0,0,0,0,0,0,0,0,0,0,0,0,0,0,0,0,0,0,-0.261799,2.72106,-1.5,3.94113e+12,0,0,0,0,0
540,-3.34119e-12,-3.41561e-12,-1.59277e-06,-3.40794e-12,-3.41542e-12,0,-2.84297e-13,0,0,0,0,0,0,0,0,0,0,0,0,0,0,0,0,0,0,0,0,0,-0.261799,2.73851,-1.5,3.94113e+12,0,0,0,0,0
550,-3.34119e-12,-3.41561e-12,-1.59277e-06,-3.40794e-12,-3.41542e-12,-3.90305e-12,-2.84298e-13,0,0,0,0,0,0,0,0,0,0,0,0,0,0,0,0,0,0,0,0,0,-0.261799,2.75523,-1.5,3.94113e+12,0,0,0,0,0
560,-3.34119e-12,-3.41561e-12,-1.59277e-06,-3.40794e-12,-3.41542e-12,0,-2.84286e-13,0,0,0,0,0,0,0,0,0,0,0,0,0,0,0,0,0,0,0,0,0,-0.261799,2.77277,-1.5,3.94113e+12,0,0,0,0,0
570,-3.34119e-12,-3.41561e-12,-1.59277e-06,-3.40794e-12,-3.41542e-12,-3.90305e-12,-2.84287e-13,0,0,0,0,0,0,0,0,0,0,0,0,0,0,0,0,0,0,0,0,0,-0.261799,2.78878,-1.5,3.94113e+12,0,0,0,0,0
580,-3.34119e-12,-3.41561e-12,-1.59277e-06,-3.40794e-12,-3.41542e-12,0,-2.84288e-13,0,0,0,0,0,0,0,0,0,0,0,0,0,0,0,0,0,0,0,0,0,-0.261799,2.8034,-1.5,3.94113e+12,0,0,0,0,0
590,-3.34119e-12,-3.41561e-12,-1.59277e-06,-3.40794e-12,-3.41542e-12,-3.90305e-12,-2.84289e-13,0,0,0,0,0,0,0,0,0,0,0,0,0,0,0,0,0,0,0,0,0,-0.261799,2.81809,-1.5,3.94113e+12,0,0,0,0,0
600,-3.34119e-12,-3.41561e-12,-1.59277e-06,-3.40794e-12,-3.41542e-12,0,-2.8429e-13,0,0,0,0,0,0,0,0,0,0,0,0,0,0,0,0,0,0,0,0,0,-0.261799,2.83278,-1.5,3.94113e+12,0,0,0,0,0
610,-3.34119e-12,-3.41561e-12,-1.59277e-06,-3.40794e-12,-3.41542e-12,-3.90305e-12,-2.84388e-13,0,0,0,0,0,0,0,0,0,0,0,0,0,0,0,0,0,0,0,0,0,-0.261799,2.8468,-1.5,3.94113e+12,0,0,0,0,0
620,-3.34121e-12,-3.41568e-12,-3.41772e-12,-3.40794e-12,-3.41542e-12,0,-2.84389e-13,0,0,0,0,0,0,0,0,0,0,0,0,0,0,0,0,0,0,0,0,0,-0.261799,2.85903,-1.5,3.94113e+12,0,0,0,0,0
630,-3.34119e-12,-3.41561e-12,-1.59277e-06,-3.40794e-12,-3.41542e-12,-3.90305e-12,-2.8439e-13,0,0,0,0,0,0,0,0,0,0,0,0,0,0,0,0,0,0,0,0,0,-0.261799,2.87075,-1.5,3.94113e+12,0,0,0,0,0
640,-3.34119e-12,-3.41561e-12,-1.59277e-06,-3.40794e-12,-3.41542e-12,0,-2.84391e-13,0,0,0,0,0,0,0,0,0,0,0,0,0,0,0,0,0,0,0,0,0,-0.261799,2.88199,-1.5,3.94113e+12,0,0,0,0,0
650,-3.34119e-12,-3.41561e-12,-1.59277e-06,-3.40794e-12,-3.41542e-12,-3.90305e-12,-2.84393e-13,0,0,0,0,0,0,0,0,0,0,0,0,0,0,0,0,0,0,0,0,0,-0.261799,2.89326,-1.5,3.94113e+12,0,0,0,0,0
660,-3.34119e-12,-3.41561e-12,-1.59277e-06,-3.40794e-12,-3.41542e-12,0,-2.84394e-13,0,0,0,0,0,0,0,0,0,0,0,0,0,0,0,0,0,0,0,0,0,-0.261799,2.90404,-1.5,3.94113e+12,0,0,0,0,0
670,-3.34119e-12,-3.41561e-12,-1.59277e-06,-3.40794e-12,-3.41542e-12,-3.90305e-12,-2.84395e-13,0,0,0,0,0,0,0,0,0,0,0,0,0,0,0,0,0,0,0,0,0,-0.261799,2.91435,-1.5,3.94113e+12,0,0,0,0,0
680,-3.34119e-12,-3.41561e-12,-1.59277e-06,-3.40794e-12,-3.41542e-12,0,-2.85916e-13,0,0,0,0,0,0,0,0,0,0,0,0,0,0,0,0,0,0,0,0,0,-0.261799,2.92423,-1.5,3.94113e+12,0,0,0,0,0
690,-3.34119e-12,-3.41561e-12,-1.59277e-06,-3.40794e-12,-3.41542e-12,-3.90305e-12,-2.84262e-13,0,0,0,0,0,0,0,0,0,0,0,0,0,0,0,0,0,0,0,0,0,-0.261799,2.93324,-1.5,3.94113e+12,0,0,0,0,0
700,-3.34119e-12,-3.41561e-12,-1.59277e-06,-3.40794e-12,-3.41542e-12,0,-2.84263e-13,0,0,0,0,0,0,0,0,0,0,0,0,0,0,0,0,0,0,0,0,0,-0.261799,2.94147,-1.5,3.94113e+12,0,0,0,0,0
710,-3.34119e-12,-3.41561e-12,-1.59277e-06,-3.40794e-12,-3.41542e-12,-3.90305e-12,-2.84264e-13,0,0,0,0,0,0,0,0,0,0,0,0,0,0,0,0,0,0,0,0,0,-0.261799,2.95134,-1.5,3.94113e+12,0,0,0,0,0
720,-3.34119e-12,-3.41561e-12,-1.59277e-06,-3.40794e-12,-3.41542e-12,0,-2.84265e-13,0,0,0,0,0,0,0,0,0,0,0,0,0,0,0,0,0,0,0,0,0,-0.261799,2.95773,-1.5,3.94113e+12,0,0,0,0,0
730,-3.34119e-12,-3.41561e-12,-1.59277e-06,-3.40794e-12,-3.41542e-12,-3.90305e-12,-2.84267e-13,0,0,0,0,0,0,0,0,0,0,0,0,0,0,0,0,0,0,0,0,0,-0.261799,2.96355,-1.5,3.94113e+12,0,0,0,0,0
740,-3.34119e-12,-3.41561e-12,-1.59277e-06,-3.40794e-12,-3.41542e-12,0,-2.84268e-13,0,0,0,0,0,0,0,0,0,0,0,0,0,0,0,0,0,0,0,0,0,-0.261799,2.97094,-1.5,3.94113e+12,0,0,0,0,0
750,-3.34119e-12,-3.41561e-12,-1.59277e-06,-3.40794e-12,-3.41542e-12,-3.90305e-12,-2.84269e-13,0,0,0,0,0,0,0,0,0,0,0,0,0,0,0,0,0,0,0,0,0,-0.261799,2.97869,-1.5,3.94113e+12,0,0,0,0,0
760,-3.34119e-12,-3.41561e-12,-1.59277e-06,-3.40794e-12,-3.41542e-12,0,-2.8427e-13,0,0,0,0,0,0,0,0,0,0,0,0,0,0,0,0,0,0,0,0,0,-0.261799,2.98513,-1.5,3.94113e+12,0,0,0,0,0
770,-3.34119e-12,-3.41561e-12,-1.59277e-06,-3.40794e-12,-3.41542e-12,-3.90305e-12,-2.86751e-13,0,0,0,0,0,0,0,0,0,0,0,0,0,0,0,0,0,0,0,0,0,-0.261799,2.99223,-1.5,3.94113e+12,0,0,0,0,0
780,-3.34119e-12,-3.41561e-12,-1.59277e-06,-3.40794e-12,-3.41542e-12,0,-2.86752e-13,0,0,0,0,0,0,0,0,0,0,0,0,0,0,0,0,0,0,0,0,0,-0.261799,2.99842,-1.5,3.94113e+12,0,0,0,0,0
790,-3.34119e-12,-3.41561e-12,-1.59277e-06,-3.40794e-12,-3.41542e-12,-3.90305e-12,-2.86753e-13,0,0,0,0,0,0,0,0,0,0,0,0,0,0,0,0,0,0,0,0,0,-0.261799,3.00464,-1.5,3.94113e+12,0,0,0,0,0
800,-3.34119e-12,-3.41561e-12,-1.59277e-06,-3.40794e-12,-3.41542e-12,0,-2.86754e-13,0,0,0,0,0,0,0,0,0,0,0,0,0,0,0,0,0,0,0,0,0,-0.261799,3.01059,-1.5,3.94113e+12,0,0,0,0,0
810,-3.34119e-12,-3.41561e-12,-1.59277e-06,-3.40794e-12,-3.41542e-12,-3.90305e-12,-2.86755e-13,0,0,0,0,0,0,0,0,0,0,0,0,0,0,0,0,0,0,0,0,0,-0.261799,3.01653,-1.5,3.94113e+12,0,0,0,0,0
820,-3.34119e-12,-3.41561e-12,-1.59277e-06,-3.40794e-12,-3.41542e-12,0,-2.86756e-13,0,0,0,0,0,0,0,0,0,0,0,0,0,0,0,0,0,0,0,0,0,-0.261799,3.02148,-1.5,3.94113e+12,0,0,0,0,0
830,-3.34119e-12,-3.41561e-12,-1.59277e-06,-3.40794e-12,-3.41542e-12,-3.90305e-12,-2.86757e-13,0,0,0,0,0,0,0,0,0,0,0,0,0,0,0,0,0,0,0,0,0,-0.261799,3.02693,-1.5,3.94113e+12,0,0,0,0,0
840,-3.34119e-12,-3.41561e-12,-1.59277e-06,-3.40794e-12,-3.41542e-12,0,-2.86758e-13,0,0,0,0,0,0,0,0,0,0,0,0,0,0,0,0,0,0,0,0,0,-0.261799,3.03145,-1.5,3.94113e+12,0,0,0,0,0
850,-3.34119e-12,-3.41561e-12,-1.59277e-06,-3.40794e-12,-3.41542e-12,-3.90305e-12,-2.86759e-13,0,0,0,0,0,0,0,0,0,0,0,0,0,0,0,0,0,0,0,0,0,-0.261799,3.03624,-1.5,3.94113e+12,0,0,0,0,0
860,-3.34119e-12,-3.41561e-12,-1.59277e-06,-3.40794e-12,-3.41542e-12,0,-2.8676e-13,0,0,0,0,0,0,0,0,0,0,0,0,0,0,0,0,0,0,0,0,0,-0.261799,3.04102,-1.5,3.94113e+12,0,0,0,0,0
870,-3.34119e-12,-3.41561e-12,-1.59277e-06,-3.40794e-12,-3.41542e-12,-3.90305e-12,-2.86761e-13,0,0,0,0,0,0,0,0,0,0,0,0,0,0,0,0,0,0,0,0,0,-0.261799,3.04558,-1.5,3.94113e+12,0,0,0,0,0
880,-3.34119e-12,-3.41561e-12,-1.59277e-06,-3.40794e-12,-3.41542e-12,0,-2.86763e-13,0,0,0,0,0,0,0,0,0,0,0,0,0,0,0,0,0,0,0,0,0,-0.261799,3.04975,-1.5,3.94113e+12,0,0,0,0,0
890,-3.34119e-12,-3.41561e-12,-1.59277e-06,-3.40794e-12,-3.41542e-12,-3.90305e-12,-2.86764e-13,0,0,0,0,0,0,0,0,0,0,0,0,0,0,0,0,0,0,0,0,0,-0.261799,3.05374,-1.5,3.94113e+12,0,0,0,0,0
900,-3.34119e-12,-3.41561e-12,-1.59277e-06,-3.40794e-12,-3.41542e-12,0,-2.86765e-13,0,0,0,0,0,0,0,0,0,0,0,0,0,0,0,0,0,0,0,0,0,-0.261799,3.05722,-1.5,3.94113e+12,0,0,0,0,0
910,-3.34119e-12,-3.41561e-12,-1.59277e-06,-3.40794e-12,-3.41542e-12,-3.90305e-12,-2.86766e-13,0,0,0,0,0,0,0,0,0,0,0,0,0,0,0,0,0,0,0,0,0,-0.261799,3.06088,-1.5,3.94113e+12,0,0,0,0,0
920,-3.34119e-12,-3.41561e-12,-1.59277e-06,-3.40794e-12,-3.41542e-12,0,-2.86767e-13,0,0,0,0,0,0,0,0,0,0,0,0,0,0,0,0,0,0,0,0,0,-0.261799,3.06486,-1.5,3.94113e+12,0,0,0,0,0
930,-3.34119e-12,-3.41561e-12,-1.59277e-06,-3.40794e-12,-3.41542e-12,-3.90305e-12,-2.86768e-13,0,0,0,0,0,0,0,0,0,0,0,0,0,0,0,0,0,0,0,0,0,-0.261799,3.06834,-1.5,3.94113e+12,0,0,0,0,0
940,-3.34119e-12,-3.41561e-12,-1.59277e-06,-3.40794e-12,-3.41542e-12,0,-2.86769e-13,0,0,0,0,0,0,0,0,0,0,0,0,0,0,0,0,0,0,0,0,0,-0.261799,3.07152,-1.5,3.94113e+12,0,0,0,0,0
950,-3.34119e-12,-3.41561e-12,-1.59277e-06,-3.40794e-12,-3.41542e-12,-3.90305e-12,-2.8677e-13,0,0,0,0,0,0,0,0,0,0,0,0,0,0,0,0,0,0,0,0,0,-0.261799,3.07374,-1.5,3.94113e+12,0,0,0,0,0
960,-3.34119e-12,-3.41561e-12,-1.59277e-06,-3.40794e-12,-3.41542e-12,0,-2.86771e-13,0,0,0,0,0,0,0,0,0,0,0,0,0,0,0,0,0,0,0,0,0,-0.261799,3.07602,-1.5,3.94113e+12,0,0,0,0,0
970,-3.34119e-12,-3.41561e-12,-1.59277e-06,-3.40794e-12,-3.41542e-12,-3.90305e-12,-2.86772e-13,0,0,0,0,0,0,0,0,0,0,0,0,0,0,0,0,0,0,0,0,0,-0.261799,3.07771,-1.5,3.94113e+12,0,0,0,0,0
980,-3.34119e-12,-3.41561e-12,-1.59277e-06,-3.40794e-12,-3.41542e-12,0,-2.86773e-13,0,0,0,0,0,0,0,0,0,0,0,0,0,0,0,0,0,0,0,0,0,-0.261799,3.08048,-1.5,3.94113e+12,0,0,0,0,0
990,-3.34119e-12,-3.41561e-12,-1.59277e-06,-3.40794e-12,-3.41542e-12,-3.90305e-12,-2.86775e-13,0,0,0,0,0,0,0,0,0,0,0,0,0,0,0,0,0,0,0,0,0,-0.261799,3.0829,-1.5,3.94113e+12,0,0,0,0,0
1000,-3.34119e-12,-3.41561e-12,-1.59277e-06,-3.40794e-12,-3.41542e-12,0,-2.86776e-13,0,0,0,0,0,0,0,0,0,0,0,0,0,0,0,0,0,0,0,0,0,-0.261799,3.08568,-1.5,3.94113e+12,0,0,0,0,0
1010,-3.34119e-12,-3.41561e-12,-1.59277e-06,-3.40794e-12,-3.41542e-12,-3.90305e-12,-2.86777e-13,0,0,0,0,0,0,0,0,0,0,0,0,0,0,0,0,0,0,0,0,0,-0.261799,3.08811,-1.5,3.94113e+12,0,0,0,0,0
1020,-3.34119e-12,-3.41561e-12,-1.59277e-06,-3.40794e-12,-3.41542e-12,0,-2.86778e-13,0,0,0,0,0,0,0,0,0,0,0,0,0,0,0,0,0,0,0,0,0,-0.261799,3.09053,-1.5,3.94113e+12,0,0,0,0,0
1030,-3.34119e-12,-3.41561e-12,-1.59277e-06,-3.40794e-12,-3.41542e-12,-3.90305e-12,-2.86779e-13,0,0,0,0,0,0,0,0,0,0,0,0,0,0,0,0,0,0,0,0,0,-0.261799,3.09265,-1.5,3.94113e+12,0,0,0,0,0
1040,-3.34119e-12,-3.41561e-12,-1.59277e-06,-3.40794e-12,-3.41542e-12,0,-2.8678e-13,0,0,0,0,0,0,0,0,0,0,0,0,0,0,0,0,0,0,0,0,0,-0.261799,3.09478,-1.5,3.94113e+12,0,0,0,0,0
1050,-3.34119e-12,-3.41561e-12,-1.59277e-06,-3.40794e-12,-3.41542e-12,-3.90305e-12,-2.86781e-13,0,0,0,0,0,0,0,0,0,0,0,0,0,0,0,0,0,0,0,0,0,-0.261799,3.09653,-1.5,3.94113e+12,0,0,0,0,0
1060,-3.34119e-12,-3.41561e-12,-1.59277e-06,-3.40794e-12,-3.41542e-12,0,-2.86782e-13,0,0,0,0,0,0,0,0,0,0,0,0,0,0,0,0,0,0,0,0,0,-0.261799,3.09858,-1.5,3.94113e+12,0,0,0,0,0
1070,-3.34119e-12,-3.41561e-12,-1.59277e-06,-3.40794e-12,-3.41542e-12,-3.90305e-12,-2.86783e-13,0,0,0,0,0,0,0,0,0,0,0,0,0,0,0,0,0,0,0,0,0,-0.261799,3.10036,-1.5,3.94113e+12,0,0,0,0,0
1080,-3.34119e-12,-3.41561e-12,-1.59277e-06,-3.40794e-12,-3.41542e-12,0,-2.86784e-13,0,0,0,0,0,0,0,0,0,0,0,0,0,0,0,0,0,0,0,0,0,-0.261799,3.10248,-1.5,3.94113e+12,0,0,0,0,0
1090,-3.34121e-12,-3.41568e-12,-3.41772e-12,-3.40794e-12,-3.41542e-12,-3.90305e-12,-2.86785e-13,0,0,0,0,0,0,0,0,0,0,0,0,0,0,0,0,0,0,0,0,0,-0.261799,3.10402,-1.5,3.94113e+12,0,0,0,0,0
1100,-3.34119e-12,-3.41561e-12,-1.59277e-06,-3.40794e-12,-3.41542e-12,0,-2.86786e-13,0,0,0,0,0,0,0,0,0,0,0,0,0,0,0,0,0,0,0,0,0,-0.261799,3.10565,-1.5,3.94113e+12,0,0,0,0,0
1110,-3.34119e-12,-3.41561e-12,-1.59277e-06,-3.40794e-12,-3.41542e-12,-3.90305e-12,-2.86788e-13,0,0,0,0,0,0,0,0,0,0,0,0,0,0,0,0,0,0,0,0,0,-0.261799,3.10707,-1.5,3.94113e+12,0,0,0,0,0
1120,-3.34119e-12,-3.41561e-12,-1.59277e-06,-3.40794e-12,-3.41542e-12,0,-2.86789e-13,0,0,0,0,0,0,0,0,0,0,0,0,0,0,0,0,0,0,0,0,0,-0.261799,3.10864,-1.5,3.94113e+12,0,0,0,0,0
1130,-3.34119e-12,-3.41561e-12,-1.59277e-06,-3.40794e-12,-3.41542e-12,-3.90305e-12,-2.8679e-13,0,0,0,0,0,0,0,0,0,0,0,0,0,0,0,0,0,0,0,0,0,-0.261799,3.11007,-1.5,3.94113e+12,0,0,0,0,0
1140,-3.34119e-12,-3.41561e-12,-1.59277e-06,-3.40794e-12,-3.41542e-12,0,-2.86791e-13,0,0,0,0,0,0,0,0,0,0,0,0,0,0,0,0,0,0,0,0,0,-0.261799,3.1115,-1.5,3.94113e+12,0,0,0,0,0
1150,-3.34119e-12,-3.41561e-12,-1.59277e-06,-3.40794e-12,-3.41542e-12,-3.90305e-12,-2.86792e-13,0,0,0,0,0,0,0,0,0,0,0,0,0,0,0,0,0,0,0,0,0,-0.261799,3.11275,-1.5,3.94113e+12,0,0,0,0,0
1160,-3.34119e-12,-3.41561e-12,-1.59277e-06,-3.40794e-12,-3.41542e-12,0,-2.86793e-13,0,0,0,0,0,0,0,0,0,0,0,0,0,0,0,0,0,0,0,0,0,-0.261799,3.114,-1.5,3.94113e+12,0,0,0,0,0
1170,-3.34119e-12,-3.41561e-12,-1.59277e-06,-3.40794e-12,-3.41542e-12,-3.90305e-12,-2.86794e-13,0,0,0,0,0,0,0,0,0,0,0,0,0,0,0,0,0,0,0,0,0,-0.261799,3.11509,-1.5,3.94113e+12,0,0,0,0,0
1180,-3.34119e-12,-3.41561e-12,-1.59277e-06,-3.40794e-12,-3.41542e-12,0,-2.86795e-13,0,0,0,0,0,0,0,0,0,0,0,0,0,0,0,0,0,0,0,0,0,-0.261799,3.11593,-1.5,3.94113e+12,0,0,0,0,0
1190,-3.34119e-12,-3.41561e-12,-1.59277e-06,-3.40794e-12,-3.41542e-12,-3.90305e-12,-2.86796e-13,0,0,0,0,0,0,0,0,0,0,0,0,0,0,0,0,0,0,0,0,0,-0.261799,3.11679,-1.5,3.94113e+12,0,0,0,0,0
1200,-3.34119e-12,-3.41561e-12,-1.59277e-06,-3.40794e-12,-3.41542e-12,0,-2.86797e-13,0,0,0,0,0,0,0,0,0,0,0,0,0,0,0,0,0,0,0,0,0,-0.261799,3.11758,-1.5,3.94113e+12,0,0,0,0,0
1210,-3.34119e-12,-3.41561e-12,-1.59277e-06,-3.40794e-12,-3.41542e-12,-3.90305e-12,-2.86798e-13,0,0,0,0,0,0,0,0,0,0,0,0,0,0,0,0,0,0,0,0,0,-0.261799,3.11871,-1.5,3.94113e+12,0,0,0,0,0
1220,-3.34119e-12,-3.41561e-12,-1.59277e-06,-3.40794e-12,-3.41542e-12,0,-2.86799e-13,0,0,0,0,0,0,0,0,0,0,0,0,0,0,0,0,0,0,0,0,0,-0.261799,3.11962,-1.5,3.94113e+12,0,0,0,0,0
1230,-3.34119e-12,-3.41561e-12,-1.59277e-06,-3.40794e-12,-3.41542e-12,-3.90305e-12,-2.86801e-13,0,0,0,0,0,0,0,0,0,0,0,0,0,0,0,0,0,0,0,0,0,-0.261799,3.1207,-1.5,3.94113e+12,0,0,0,0,0
1240,-3.34119e-12,-3.41561e-12,-1.59277e-06,-3.40794e-12,-3.41542e-12,0,-2.86802e-13,0,0,0,0,0,0,0,0,0,0,0,0,0,0,0,0,0,0,0,0,0,-0.261799,3.12153,-1.5,3.94113e+12,0,0,0,0,0
1250,-3.34119e-12,-3.41561e-12,-1.59277e-06,-3.40794e-12,-3.41542e-12,-3.90305e-12,-2.86803e-13,0,0,0,0,0,0,0,0,0,0,0,0,0,0,0,0,0,0,0,0,0,-0.261799,3.1224,-1.5,3.94113e+12,0,0,0,0,0
1260,-3.34119e-12,-3.41561e-12,-1.59277e-06,-3.40794e-12,-3.41542e-12,0,-2.86804e-13,0,0,0,0,0,0,0,0,0,0,0,0,0,0,0,0,0,0,0,0,0,-0.261799,3.12316,-1.5,3.94113e+12,0,0,0,0,0
1270,-3.34119e-12,-3.41561e-12,-1.59277e-06,-3.40794e-12,-3.41542e-12,-3.90305e-12,-2.86805e-13,0,0,0,0,0,0,0,0,0,0,0,0,0,0,0,0,0,0,0,0,0,-0.261799,3.1241,-1.5,3.94113e+12,0,0,0,0,0
1280,-3.34119e-12,-3.41561e-12,-1.59277e-06,-3.40794e-12,-3.41542e-12,0,-2.86806e-13,0,0,0,0,0,0,0,0,0,0,0,0,0,0,0,0,0,0,0,0,0,-0.261799,3.12483,-1.5,3.94113e+12,0,0,0,0,0
1290,-3.34119e-12,-3.41561e-12,-1.59277e-06,-3.40794e-12,-3.41542e-12,-3.90305e-12,-2.86807e-13,0,0,0,0,0,0,0,0,0,0,0,0,0,0,0,0,0,0,0,0,0,-0.261799,3.12559,-1.5,3.94113e+12,0,0,0,0,0
1300,-3.34119e-12,-3.41561e-12,-1.59277e-06,-3.40794e-12,-3.41542e-12,0,-2.86808e-13,0,0,0,0,0,0,0,0,0,0,0,0,0,0,0,0,0,0,0,0,0,-0.261799,3.12622,-1.5,3.94113e+12,0,0,0,0,0
1310,-3.34119e-12,-3.41561e-12,-1.59277e-06,-3.40794e-12,-3.41542e-12,-3.90305e-12,-2.86809e-13,0,0,0,0,0,0,0,0,0,0,0,0,0,0,0,0,0,0,0,0,0,-0.261799,3.12692,-1.5,3.94113e+12,0,0,0,0,0
1320,-3.34119e-12,-3.41561e-12,-1.59277e-06,-3.40794e-12,-3.41542e-12,0,-2.8681e-13,0,0,0,0,0,0,0,0,0,0,0,0,0,0,0,0,0,0,0,0,0,-0.261799,3.1275,-1.5,3.94113e+12,0,0,0,0,0
1330,-3.34119e-12,-3.41561e-12,-1.59277e-06,-3.40794e-12,-3.41542e-12,-3.90305e-12,-2.86811e-13,0,0,0,0,0,0,0,0,0,0,0,0,0,0,0,0,0,0,0,0,0,-0.261799,3.12889,-1.5,3.94113e+12,0,0,0,0,0
1340,-3.34119e-12,-3.41561e-12,-1.59277e-06,-3.40794e-12,-3.41542e-12,0,-2.86812e-13,0,0,0,0,0,0,0,0,0,0,0,0,0,0,0,0,0,0,0,0,0,-0.261799,3.12969,-1.5,3.94113e+12,0,0,0,0,0
1350,-3.34119e-12,-3.41561e-12,-1.59277e-06,-3.40794e-12,-3.41542e-12,-3.90305e-12,-2.86814e-13,0,0,0,0,0,0,0,0,0,0,0,0,0,0,0,0,0,0,0,0,0,-0.261799,3.13021,-1.5,3.94113e+12,0,0,0,0,0
1360,-3.34119e-12,-3.41561e-12,-1.59277e-06,-3.40794e-12,-3.41542e-12,0,-2.86815e-13,0,0,0,0,0,0,0,0,0,0,0,0,0,0,0,0,0,0,0,0,0,-0.261799,3.13072,-1.5,3.94113e+12,0,0,0,0,0
1370,-3.34119e-12,-3.41561e-12,-1.59277e-06,-3.40794e-12,-3.41542e-12,-3.90305e-12,-2.86816e-13,0,0,0,0,0,0,0,0,0,0,0,0,0,0,0,0,0,0,0,0,0,-0.261799,3.13122,-1.5,3.94113e+12,0,0,0,0,0
1380,-3.34119e-12,-3.41561e-12,-1.59277e-06,-3.40794e-12,-3.41542e-12,0,-2.86817e-13,0,0,0,0,0,0,0,0,0,0,0,0,0,0,0,0,0,0,0,0,0,-0.261799,3.1316,-1.5,3.94113e+12,0,0,0,0,0
1390,-3.34119e-12,-3.41561e-12,-1.59277e-06,-3.40794e-12,-3.41542e-12,-3.90305e-12,-2.86818e-13,0,0,0,0,0,0,0,0,0,0,0,0,0,0,0,0,0,0,0,0,0,-0.261799,3.13206,-1.5,3.94113e+12,0,0,0,0,0
1400,-3.34119e-12,-3.41561e-12,-1.59277e-06,-3.40794e-12,-3.41542e-12,0,-2.86819e-13,0,0,0,0,0,0,0,0,0,0,0,0,0,0,0,0,0,0,0,0,0,-0.261799,3.13249,-1.5,3.94113e+12,0,0,0,0,0
1410,-3.34119e-12,-3.41561e-12,-1.59277e-06,-3.40794e-12,-3.41542e-12,-3.90305e-12,-2.8682e-13,0,0,0,0,0,0,0,0,0,0,0,0,0,0,0,0,0,0,0,0,0,-0.261799,3.13278,-1.5,3.94113e+12,0,0,0,0,0
1420,-3.34119e-12,-3.41561e-12,-1.59277e-06,-3.40794e-12,-3.41542e-12,0,-2.86821e-13,0,0,0,0,0,0,0,0,0,0,0,0,0,0,0,0,0,0,0,0,0,-0.261799,3.13309,-1.5,3.94113e+12,0,0,0,0,0
1430,-3.34119e-12,-3.41561e-12,-1.59277e-06,-3.40794e-12,-3.41542e-12,-3.90305e-12,-2.86822e-13,0,0,0,0,0,0,0,0,0,0,0,0,0,0,0,0,0,0,0,0,0,-0.261799,3.13336,-1.5,3.94113e+12,0,0,0,0,0
1440,-3.34119e-12,-3.41561e-12,-1.59277e-06,-3.40794e-12,-3.41542e-12,0,-2.86823e-13,0,0,0,0,0,0,0,0,0,0,0,0,0,0,0,0,0,0,0,0,0,-0.261799,3.13367,-1.5,3.94113e+12,0,0,0,0,0
1450,-3.34119e-12,-3.41561e-12,-1.59277e-06,-3.40794e-12,-3.41542e-12,-3.90305e-12,-2.86824e-13,0,0,0,0,0,0,0,0,0,0,0,0,0,0,0,0,0,0,0,0,0,-0.261799,3.13398,-1.5,3.94113e+12,0,0,0,0,0
1460,-3.34119e-12,-3.41561e-12,-1.59277e-06,-3.40794e-12,-3.41542e-12,0,-2.86825e-13,0,0,0,0,0,0,0,0,0,0,0,0,0,0,0,0,0,0,0,0,0,-0.261799,3.13433,-1.5,3.94113e+12,0,0,0,0,0
1470,-3.34119e-12,-3.41561e-12,-1.59277e-06,-3.40794e-12,-3.41542e-12,-3.90305e-12,-2.86827e-13,0,0,0,0,0,0,0,0,0,0,0,0,0,0,0,0,0,0,0,0,0,-0.261799,3.13464,-1.5,3.94113e+12,0,0,0,0,0
1480,-3.34119e-12,-3.41561e-12,-1.59277e-06,-3.40794e-12,-3.41542e-12,0,-2.86828e-13,0,0,0,0,0,0,0,0,0,0,0,0,0,0,0,0,0,0,0,0,0,-0.261799,3.13496,-1.5,3.94113e+12,0,0,0,0,0
1490,-3.34119e-12,-3.41561e-12,-1.59277e-06,-3.40794e-12,-3.41542e-12,-3.90305e-12,-2.86829e-13,0,0,0,0,0,0,0,0,0,0,0,0,0,0,0,0,0,0,0,0,0,-0.261799,3.13525,-1.5,3.94113e+12,0,0,0,0,0
1500,-3.34119e-12,-3.41561e-12,-1.59277e-06,-3.40794e-12,-3.41542e-12,0,-2.8683e-13,0,0,0,0,0,0,0,0,0,0,0,0,0,0,0,0,0,0,0,0,0,-0.261799,3.13553,-1.5,3.94113e+12,0,0,0,0,0
1510,-3.34119e-12,-3.41561e-12,-1.59277e-06,-3.40794e-12,-3.41542e-12,-3.90305e-12,-2.86831e-13,0,0,0,0,0,0,0,0,0,0,0,0,0,0,0,0,0,0,0,0,0,-0.261799,3.13577,-1.5,3.94113e+12,0,0,0,0,0
1520,-3.34119e-12,-3.41561e-12,-1.59277e-06,-3.40794e-12,-3.41542e-12,0,-2.86832e-13,0,0,0,0,0,0,0,0,0,0,0,0,0,0,0,0,0,0,0,0,0,-0.261799,3.13604,-1.5,3.94113e+12,0,0,0,0,0
1530,-3.34119e-12,-3.41561e-12,-1.59277e-06,-3.40794e-12,-3.41542e-12,-3.90305e-12,-2.86833e-13,0,0,0,0,0,0,0,0,0,0,0,0,0,0,0,0,0,0,0,0,0,-0.261799,3.13639,-1.5,3.94113e+12,0,0,0,0,0
1540,-3.34119e-12,-3.41561e-12,-1.59277e-06,-3.40794e-12,-3.41542e-12,0,-2.86834e-13,0,0,0,0,0,0,0,0,0,0,0,0,0,0,0,0,0,0,0,0,0,-0.261799,3.13662,-1.5,3.94113e+12,0,0,0,0,0
1550,-3.34119e-12,-3.41561e-12,-1.59277e-06,-3.40794e-12,-3.41542e-12,-3.90305e-12,-2.86835e-13,0,0,0,0,0,0,0,0,0,0,0,0,0,0,0,0,0,0,0,0,0,-0.261799,3.13681,-1.5,3.94113e+12,0,0,0,0,0
1560,-3.34119e-12,-3.41561e-12,-1.59277e-06,-3.40794e-12,-3.41542e-12,0,-2.86836e-13,0,0,0,0,0,0,0,0,0,0,0,0,0,0,0,0,0,0,0,0,0,-0.261799,3.13702,-1.5,3.94113e+12,0,0,0,0,0
1570,-3.34119e-12,-3.41561e-12,-1.59277e-06,-3.40794e-12,-3.41542e-12,-3.90305e-12,-2.86837e-13,0,0,0,0,0,0,0,0,0,0,0,0,0,0,0,0,0,0,0,0,0,-0.261799,3.13722,-1.5,3.94113e+12,0,0,0,0,0
1580,-3.34119e-12,-3.41561e-12,-1.59277e-06,-3.40794e-12,-3.41542e-12,0,-2.86838e-13,0,0,0,0,0,0,0,0,0,0,0,0,0,0,0,0,0,0,0,0,0,-0.261799,3.13741,-1.5,3.94113e+12,0,0,0,0,0
1590,-3.34119e-12,-3.41561e-12,-1.59277e-06,-3.40794e-12,-3.41542e-12,-3.90305e-12,-2.8684e-13,0,0,0,0,0,0,0,0,0,0,0,0,0,0,0,0,0,0,0,0,0,-0.261799,3.13758,-1.5,3.94113e+12,0,0,0,0,0
1600,-3.34119e-12,-3.41561e-12,-1.59277e-06,-3.40794e-12,-3.41542e-12,0,-2.86841e-13,0,0,0,0,0,0,0,0,0,0,0,0,0,0,0,0,0,0,0,0,0,-0.261799,3.13776,-1.5,3.94113e+12,0,0,0,0,0
1610,-3.34119e-12,-3.41561e-12,-1.59277e-06,-3.40794e-12,-3.41542e-12,-3.90305e-12,-2.86842e-13,0,0,0,0,0,0,0,0,0,0,0,0,0,0,0,0,0,0,0,0,0,-0.261799,3.13793,-1.5,3.94113e+12,0,0,0,0,0
1620,-3.34119e-12,-3.41561e-12,-1.59277e-06,-3.40794e-12,-3.41542e-12,0,-2.86843e-13,0,0,0,0,0,0,0,0,0,0,0,0,0,0,0,0,0,0,0,0,0,-0.261799,3.13809,-1.5,3.94113e+12,0,0,0,0,0
1630,-3.34119e-12,-3.41561e-12,-1.59277e-06,-3.40794e-12,-3.41542e-12,-3.90305e-12,-2.86844e-13,0,0,0,0,0,0,0,0,0,0,0,0,0,0,0,0,0,0,0,0,0,-0.261799,3.13824,-1.5,3.94113e+12,0,0,0,0,0
1640,-3.34119e-12,-3.41561e-12,-1.59277e-06,-3.40794e-12,-3.41542e-12,0,-2.86845e-13,0,0,0,0,0,0,0,0,0,0,0,0,0,0,0,0,0,0,0,0,0,-0.261799,3.13834,-1.5,3.94113e+12,0,0,0,0,0
1650,-3.34119e-12,-3.41561e-12,-1.59277e-06,-3.40794e-12,-3.41542e-12,-3.90305e-12,-2.86846e-13,0,0,0,0,0,0,0,0,0,0,0,0,0,0,0,0,0,0,0,0,0,-0.261799,3.13845,-1.5,3.94113e+12,0,0,0,0,0
1660,-3.34119e-12,-3.41561e-12,-1.59277e-06,-3.40794e-12,-3.41542e-12,0,-2.86847e-13,0,0,0,0,0,0,0,0,0,0,0,0,0,0,0,0,0,0,0,0,0,-0.261799,3.13856,-1.5,3.94113e+12,0,0,0,0,0
1670,-3.34119e-12,-3.41561e-12,-1.59277e-06,-3.40794e-12,-3.41542e-12,-3.90305e-12,-2.86848e-13,0,0,0,0,0,0,0,0,0,0,0,0,0,0,0,0,0,0,0,0,0,-0.261799,3.13869,-1.5,3.94113e+12,0,0,0,0,0
1680,-3.34119e-12,-3.41561e-12,-1.59277e-06,-3.40794e-12,-3.41542e-12,0,-2.86849e-13,0,0,0,0,0,0,0,0,0,0,0,0,0,0,0,0,0,0,0,0,0,-0.261799,3.13882,-1.5,3.94113e+12,0,0,0,0,0
1690,-3.34119e-12,-3.41561e-12,-1.59277e-06,-3.40794e-12,-3.41542e-12,-3.90305e-12,-2.8685e-13,0,0,0,0,0,0,0,0,0,0,0,0,0,0,0,0,0,0,0,0,0,-0.261799,3.13895,-1.5,3.94113e+12,0,0,0,0,0
1700,-3.34119e-12,-3.41561e-12,-1.59277e-06,-3.40794e-12,-3.41542e-12,0,-2.86851e-13,0,0,0,0,0,0,0,0,0,0,0,0,0,0,0,0,0,0,0,0,0,-0.261799,3.13906,-1.5,3.94113e+12,0,0,0,0,0
1710,-3.34119e-12,-3.41561e-12,-1.59277e-06,-3.40794e-12,-3.41542e-12,-3.90305e-12,-2.86853e-13,0,0,0,0,0,0,0,0,0,0,0,0,0,0,0,0,0,0,0,0,0,-0.261799,3.13917,-1.5,3.94113e+12,0,0,0,0,0
1720,-3.34119e-12,-3.41561e-12,-1.59277e-06,-3.40794e-12,-3.41542e-12,0,-2.86854e-13,0,0,0,0,0,0,0,0,0,0,0,0,0,0,0,0,0,0,0,0,0,-0.261799,3.13927,-1.5,3.94113e+12,0,0,0,0,0
1730,-3.34119e-12,-3.41561e-12,-1.59277e-06,-3.40794e-12,-3.41542e-12,-3.90305e-12,-2.86855e-13,0,0,0,0,0,0,0,0,0,0,0,0,0,0,0,0,0,0,0,0,0,-0.261799,3.13938,-1.5,3.94113e+12,0,0,0,0,0
1740,-3.34119e-12,-3.41561e-12,-1.59277e-06,-3.40794e-12,-3.41542e-12,0,-2.86856e-13,0,0,0,0,0,0,0,0,0,0,0,0,0,0,0,0,0,0,0,0,0,-0.261799,3.13947,-1.5,3.94113e+12,0,0,0,0,0
1750,-3.34119e-12,-3.41561e-12,-1.59277e-06,-3.40794e-12,-3.41542e-12,-3.90305e-12,-2.86857e-13,0,0,0,0,0,0,0,0,0,0,0,0,0,0,0,0,0,0,0,0,0,-0.261799,3.13957,-1.5,3.94113e+12,0,0,0,0,0
1760,-3.34119e-12,-3.41561e-12,-1.59277e-06,-3.40794e-12,-3.41542e-12,0,-2.86858e-13,0,0,0,0,0,0,0,0,0,0,0,0,0,0,0,0,0,0,0,0,0,-0.261799,3.13966,-1.5,3.94113e+12,0,0,0,0,0
1770,-3.34119e-12,-3.41561e-12,-1.59277e-06,-3.40794e-12,-3.41542e-12,-3.90305e-12,-2.86859e-13,0,0,0,0,0,0,0,0,0,0,0,0,0,0,0,0,0,0,0,0,0,-0.261799,3.13974,-1.5,3.94113e+12,0,0,0,0,0
1780,-3.34119e-12,-3.41561e-12,-1.59277e-06,-3.40794e-12,-3.41542e-12,0,-2.8686e-13,0,0,0,0,0,0,0,0,0,0,0,0,0,0,0,0,0,0,0,0,0,-0.261799,3.13981,-1.5,3.94113e+12,0,0,0,0,0
1790,-3.34119e-12,-3.41561e-12,-1.59277e-06,-3.40794e-12,-3.41542e-12,-3.90305e-12,-2.86861e-13,0,0,0,0,0,0,0,0,0,0,0,0,0,0,0,0,0,0,0,0,0,-0.261799,3.13989,-1.5,3.94113e+12,0,0,0,0,0
1800,-3.34119e-12,-3.41561e-12,-1.59277e-06,-3.40794e-12,-3.41542e-12,0,-2.86862e-13,0,0,0,0,0,0,0,0,0,0,0,0,0,0,0,0,0,0,0,0,0,-0.261799,3.13997,-1.5,3.94113e+12,0,0,0,0,0
1810,-3.34119e-12,-3.41561e-12,-1.59277e-06,-3.40794e-12,-3.41542e-12,-3.90305e-12,-2.86863e-13,0,0,0,0,0,0,0,0,0,0,0,0,0,0,0,0,0,0,0,0,0,-0.261799,3.14004,-1.5,3.94113e+12,0,0,0,0,0
1820,-3.34119e-12,-3.41561e-12,-1.59277e-06,-3.40794e-12,-3.41542e-12,0,-2.84396e-13,0,0,0,0,0,0,0,0,0,0,0,0,0,0,0,0,0,0,0,0,0,-0.261799,3.14011,-1.5,3.94113e+12,0,0,0,0,0
1830,-3.34119e-12,-3.41561e-12,-1.59277e-06,-3.40794e-12,-3.41542e-12,-3.90305e-12,-2.86143e-13,0,0,0,0,0,0,0,0,0,0,0,0,0,0,0,0,0,0,0,0,0,-0.261799,3.14017,-1.5,3.94113e+12,0,0,0,0,0
1840,-3.34119e-12,-3.41561e-12,-1.59277e-06,-3.40794e-12,-3.41542e-12,0,-2.86144e-13,0,0,0,0,0,0,0,0,0,0,0,0,0,0,0,0,0,0,0,0,0,-0.261799,3.14023,-1.5,3.94113e+12,0,0,0,0,0
1850,-3.34119e-12,-3.41561e-12,-1.59277e-06,-3.40794e-12,-3.41542e-12,-3.90305e-12,-2.86145e-13,0,0,0,0,0,0,0,0,0,0,0,0,0,0,0,0,0,0,0,0,0,-0.261799,3.14029,-1.5,3.94113e+12,0,0,0,0,0
1860,-3.34119e-12,-3.41561e-12,-1.59277e-06,-3.40794e-12,-3.41542e-12,0,-2.86147e-13,0,0,0,0,0,0,0,0,0,0,0,0,0,0,0,0,0,0,0,0,0,-0.261799,3.14034,-1.5,3.94113e+12,0,0,0,0,0
1870,-3.34119e-12,-3.41561e-12,-1.59277e-06,-3.40794e-12,-3.41542e-12,-3.90305e-12,-2.86148e-13,0,0,0,0,0,0,0,0,0,0,0,0,0,0,0,0,0,0,0,0,0,-0.261799,3.14038,-1.5,3.94113e+12,0,0,0,0,0
1880,-3.34119e-12,-3.41561e-12,-1.59277e-06,-3.40794e-12,-3.41542e-12,0,-2.86149e-13,0,0,0,0,0,0,0,0,0,0,0,0,0,0,0,0,0,0,0,0,0,-0.261799,3.14042,-1.5,3.94113e+12,0,0,0,0,0
1890,-3.34119e-12,-3.41561e-12,-1.59277e-06,-3.40794e-12,-3.41542e-12,-3.90305e-12,-2.8615e-13,0,0,0,0,0,0,0,0,0,0,0,0,0,0,0,0,0,0,0,0,0,-0.261799,3.14046,-1.5,3.94113e+12,0,0,0,0,0
1900,-3.34119e-12,-3.41561e-12,-1.59277e-06,-3.40794e-12,-3.41542e-12,0,-2.86151e-13,0,0,0,0,0,0,0,0,0,0,0,0,0,0,0,0,0,0,0,0,0,-0.261799,3.14051,-1.5,3.94113e+12,0,0,0,0,0
1910,-3.34119e-12,-3.41561e-12,-1.59277e-06,-3.40794e-12,-3.41542e-12,-3.90305e-12,-2.86152e-13,0,0,0,0,0,0,0,0,0,0,0,0,0,0,0,0,0,0,0,0,0,-0.261799,3.14062,-1.5,3.94113e+12,0,0,0,0,0
1920,-3.34119e-12,-3.41561e-12,-1.59277e-06,-3.40794e-12,-3.41542e-12,0,-2.86153e-13,0,0,0,0,0,0,0,0,0,0,0,0,0,0,0,0,0,0,0,0,0,-0.261799,3.14067,-1.5,3.94113e+12,0,0,0,0,0
1930,-3.34119e-12,-3.41561e-12,-1.59277e-06,-3.40794e-12,-3.41542e-12,-3.90305e-12,-2.86154e-13,0,0,0,0,0,0,0,0,0,0,0,0,0,0,0,0,0,0,0,0,0,-0.261799,3.14071,-1.5,3.94113e+12,0,0,0,0,0
1940,-3.34119e-12,-3.41561e-12,-1.59277e-06,-3.40794e-12,-3.41542e-12,0,-2.86155e-13,0,0,0,0,0,0,0,0,0,0,0,0,0,0,0,0,0,0,0,0,0,-0.261799,3.14075,-1.5,3.94113e+12,0,0,0,0,0
1950,-3.34119e-12,-3.41561e-12,-1.59277e-06,-3.40794e-12,-3.41542e-12,-3.90305e-12,-2.86156e-13,0,0,0,0,0,0,0,0,0,0,0,0,0,0,0,0,0,0,0,0,0,-0.261799,3.14079,-1.5,3.94113e+12,0,0,0,0,0
1960,-3.34119e-12,-3.41561e-12,-1.59277e-06,-3.40794e-12,-3.41542e-12,0,-2.86157e-13,0,0,0,0,0,0,0,0,0,0,0,0,0,0,0,0,0,0,0,0,0,-0.261799,3.14082,-1.5,3.94113e+12,0,0,0,0,0
1970,-3.34119e-12,-3.41561e-12,-1.59277e-06,-3.40794e-12,-3.41542e-12,-3.90305e-12,-2.86158e-13,0,0,0,0,0,0,0,0,0,0,0,0,0,0,0,0,0,0,0,0,0,-0.261799,3.14085,-1.5,3.94113e+12,0,0,0,0,0
1980,-3.34119e-12,-3.41561e-12,-1.59277e-06,-3.40794e-12,-3.41542e-12,0,-2.8616e-13,0,0,0,0,0,0,0,0,0,0,0,0,0,0,0,0,0,0,0,0,0,-0.261799,3.14088,-1.5,3.94113e+12,0,0,0,0,0
1990,-3.34119e-12,-3.41561e-12,-1.59277e-06,-3.40794e-12,-3.41542e-12,-3.90305e-12,-2.86161e-13,0,0,0,0,0,0,0,0,0,0,0,0,0,0,0,0,0,0,0,0,0,-0.261799,3.14091,-1.5,3.94113e+12,0,0,0,0,0
2000,-3.34119e-12,-3.41561e-12,-1.59277e-06,-3.40794e-12,-3.41542e-12,0,-2.86162e-13,0,0,0,0,0,0,0,0,0,0,0,0,0,0,0,0,0,0,0,0,0,-0.261799,3.14094,-1.5,3.94113e+12,0,0,0,0,0
2010,-3.34119e-12,-3.41561e-12,-1.59277e-06,-3.40794e-12,-3.41542e-12,-3.90305e-12,-2.86163e-13,0,0,0,0,0,0,0,0,0,0,0,0,0,0,0,0,0,0,0,0,0,-0.261799,3.14097,-1.5,3.94113e+12,0,0,0,0,0
2020,-3.34119e-12,-3.41561e-12,-1.59277e-06,-3.40794e-12,-3.41542e-12,0,-2.86164e-13,0,0,0,0,0,0,0,0,0,0,0,0,0,0,0,0,0,0,0,0,0,-0.261799,3.141,-1.5,3.94113e+12,0,0,0,0,0
2030,-3.34119e-12,-3.41561e-12,-1.59277e-06,-3.40794e-12,-3.41542e-12,-3.90305e-12,-2.86165e-13,0,0,0,0,0,0,0,0,0,0,0,0,0,0,0,0,0,0,0,0,0,-0.261799,3.14103,-1.5,3.94113e+12,0,0,0,0,0
2040,-3.34119e-12,-3.41561e-12,-1.59277e-06,-3.40794e-12,-3.41542e-12,0,-2.86166e-13,0,0,0,0,0,0,0,0,0,0,0,0,0,0,0,0,0,0,0,0,0,-0.261799,3.14105,-1.5,3.94113e+12,0,0,0,0,0
2050,-3.34119e-12,-3.41561e-12,-1.59277e-06,-3.40794e-12,-3.41542e-12,-3.90305e-12,-2.86167e-13,0,0,0,0,0,0,0,0,0,0,0,0,0,0,0,0,0,0,0,0,0,-0.261799,3.14107,-1.5,3.94113e+12,0,0,0,0,0
2060,-3.34119e-12,-3.41561e-12,-1.59277e-06,-3.40794e-12,-3.41542e-12,0,-2.86168e-13,0,0,0,0,0,0,0,0,0,0,0,0,0,0,0,0,0,0,0,0,0,-0.261799,3.14109,-1.5,3.94113e+12,0,0,0,0,0
2070,-3.34119e-12,-3.41561e-12,-1.59277e-06,-3.40794e-12,-3.41542e-12,-3.90305e-12,-2.86169e-13,0,0,0,0,0,0,0,0,0,0,0,0,0,0,0,0,0,0,0,0,0,-0.261799,3.14111,-1.5,3.94113e+12,0,0,0,0,0
2080,-3.34119e-12,-3.41561e-12,-1.59277e-06,-3.40794e-12,-3.41542e-12,0,-2.8617e-13,0,0,0,0,0,0,0,0,0,0,0,0,0,0,0,0,0,0,0,0,0,-0.261799,3.14114,-1.5,3.94113e+12,0,0,0,0,0
2090,-3.34119e-12,-3.41561e-12,-1.59277e-06,-3.40794e-12,-3.41542e-12,-3.90305e-12,-2.86171e-13,0,0,0,0,0,0,0,0,0,0,0,0,0,0,0,0,0,0,0,0,0,-0.261799,3.14116,-1.5,3.94113e+12,0,0,0,0,0
2100,-3.34119e-12,-3.41561e-12,-1.59277e-06,-3.40794e-12,-3.41542e-12,0,-2.86173e-13,0,0,0,0,0,0,0,0,0,0,0,0,0,0,0,0,0,0,0,0,0,-0.261799,3.14117,-1.5,3.94113e+12,0,0,0,0,0
2110,-3.34119e-12,-3.41561e-12,-1.59277e-06,-3.40794e-12,-3.41542e-12,-3.90305e-12,-2.86174e-13,0,0,0,0,0,0,0,0,0,0,0,0,0,0,0,0,0,0,0,0,0,-0.261799,3.14118,-1.5,3.94113e+12,0,0,0,0,0
2120,-3.34119e-12,-3.41561e-12,-1.59277e-06,-3.40794e-12,-3.41542e-12,0,-2.86175e-13,0,0,0,0,0,0,0,0,0,0,0,0,0,0,0,0,0,0,0,0,0,-0.261799,3.1412,-1.5,3.94113e+12,0,0,0,0,0
2130,-3.34119e-12,-3.41561e-12,-1.59277e-06,-3.40794e-12,-3.41542e-12,-3.90305e-12,-2.86176e-13,0,0,0,0,0,0,0,0,0,0,0,0,0,0,0,0,0,0,0,0,0,-0.261799,3.14121,-1.5,3.94113e+12,0,0,0,0,0
2140,-3.34119e-12,-3.41561e-12,-1.59277e-06,-3.40794e-12,-3.41542e-12,0,-2.86177e-13,0,0,0,0,0,0,0,0,0,0,0,0,0,0,0,0,0,0,0,0,0,-0.261799,3.14123,-1.5,3.94113e+12,0,0,0,0,0
2150,-3.34119e-12,-3.41561e-12,-1.59277e-06,-3.40794e-12,-3.41542e-12,-3.90305e-12,-2.86178e-13,0,0,0,0,0,0,0,0,0,0,0,0,0,0,0,0,0,0,0,0,0,-0.261799,3.14124,-1.5,3.94113e+12,0,0,0,0,0
2160,-3.34119e-12,-3.41561e-12,-1.59277e-06,-3.40794e-12,-3.41542e-12,0,-2.86179e-13,0,0,0,0,0,0,0,0,0,0,0,0,0,0,0,0,0,0,0,0,0,-0.261799,3.14126,-1.5,3.94113e+12,0,0,0,0,0
2170,-3.34119e-12,-3.41561e-12,-1.59277e-06,-3.40794e-12,-3.41542e-12,-3.90305e-12,-2.8618e-13,0,0,0,0,0,0,0,0,0,0,0,0,0,0,0,0,0,0,0,0,0,-0.261799,3.14127,-1.5,3.94113e+12,0,0,0,0,0
2180,-3.34119e-12,-3.41561e-12,-1.59277e-06,-3.40794e-12,-3.41542e-12,0,-2.86181e-13,0,0,0,0,0,0,0,0,0,0,0,0,0,0,0,0,0,0,0,0,0,-0.261799,3.14129,-1.5,3.94113e+12,0,0,0,0,0
2190,-3.34119e-12,-3.41561e-12,-1.59277e-06,-3.40794e-12,-3.41542e-12,-3.90305e-12,-2.86182e-13,0,0,0,0,0,0,0,0,0,0,0,0,0,0,0,0,0,0,0,0,0,-0.261799,3.1413,-1.5,3.94113e+12,0,0,0,0,0
2200,-3.34119e-12,-3.41561e-12,-1.59277e-06,-3.40794e-12,-3.41542e-12,0,-2.86183e-13,0,0,0,0,0,0,0,0,0,0,0,0,0,0,0,0,0,0,0,0,0,-0.261799,3.14131,-1.5,3.94113e+12,0,0,0,0,0
2210,-3.34119e-12,-3.41561e-12,-1.59277e-06,-3.40794e-12,-3.41542e-12,-3.90305e-12,-2.86184e-13,0,0,0,0,0,0,0,0,0,0,0,0,0,0,0,0,0,0,0,0,0,-0.261799,3.14132,-1.5,3.94113e+12,0,0,0,0,0
2220,-3.34119e-12,-3.41561e-12,-1.59277e-06,-3.40794e-12,-3.41542e-12,0,-2.86186e-13,0,0,0,0,0,0,0,0,0,0,0,0,0,0,0,0,0,0,0,0,0,-0.261799,3.14134,-1.5,3.94113e+12,0,0,0,0,0
2230,-3.34119e-12,-3.41561e-12,-1.59277e-06,-3.40794e-12,-3.41542e-12,-3.90305e-12,-2.86187e-13,0,0,0,0,0,0,0,0,0,0,0,0,0,0,0,0,0,0,0,0,0,-0.261799,3.14135,-1.5,3.94113e+12,0,0,0,0,0
2240,-3.34119e-12,-3.41561e-12,-1.59277e-06,-3.40794e-12,-3.41542e-12,0,-2.86188e-13,0,0,0,0,0,0,0,0,0,0,0,0,0,0,0,0,0,0,0,0,0,-0.261799,3.14136,-1.5,3.94113e+12,0,0,0,0,0
2250,-3.34119e-12,-3.41561e-12,-1.59277e-06,-3.40794e-12,-3.41542e-12,-3.90305e-12,-2.86189e-13,0,0,0,0,0,0,0,0,0,0,0,0,0,0,0,0,0,0,0,0,0,-0.261799,3.14137,-1.5,3.94113e+12,0,0,0,0,0
2260,-3.34119e-12,-3.41561e-12,-1.59277e-06,-3.40794e-12,-3.41542e-12,0,-2.8619e-13,0,0,0,0,0,0,0,0,0,0,0,0,0,0,0,0,0,0,0,0,0,-0.261799,3.14138,-1.5,3.94113e+12,0,0,0,0,0
2270,-3.34119e-12,-3.41561e-12,-1.59277e-06,-3.40794e-12,-3.41542e-12,-3.90305e-12,-2.86191e-13,0,0,0,0,0,0,0,0,0,0,0,0,0,0,0,0,0,0,0,0,0,-0.261799,3.14138,-1.5,3.94113e+12,0,0,0,0,0
2280,-3.34119e-12,-3.41561e-12,-1.59277e-06,-3.40794e-12,-3.41542e-12,0,-2.86192e-13,0,0,0,0,0,0,0,0,0,0,0,0,0,0,0,0,0,0,0,0,0,-0.261799,3.14139,-1.5,3.94113e+12,0,0,0,0,0
2290,-3.34119e-12,-3.41561e-12,-1.59277e-06,-3.40794e-12,-3.41542e-12,-3.90305e-12,-2.86193e-13,0,0,0,0,0,0,0,0,0,0,0,0,0,0,0,0,0,0,0,0,0,-0.261799,3.1414,-1.5,3.94113e+12,0,0,0,0,0
2300,-3.34119e-12,-3.41561e-12,-1.59277e-06,-3.40794e-12,-3.41542e-12,0,-2.86194e-13,0,0,0,0,0,0,0,0,0,0,0,0,0,0,0,0,0,0,0,0,0,-0.261799,3.14141,-1.5,3.94113e+12,0,0,0,0,0
2310,-3.34119e-12,-3.41561e-12,-1.59277e-06,-3.40794e-12,-3.41542e-12,-3.90305e-12,-2.86195e-13,0,0,0,0,0,0,0,0,0,0,0,0,0,0,0,0,0,0,0,0,0,-0.261799,3.14142,-1.5,3.94113e+12,0,0,0,0,0
2320,-3.34119e-12,-3.41561e-12,-1.59277e-06,-3.40794e-12,-3.41542e-12,0,-2.86196e-13,0,0,0,0,0,0,0,0,0,0,0,0,0,0,0,0,0,0,0,0,0,-0.261799,3.14142,-1.5,3.94113e+12,0,0,0,0,0
2330,-3.34119e-12,-3.41561e-12,-1.59277e-06,-3.40794e-12,-3.41542e-12,-3.90305e-12,-2.86197e-13,0,0,0,0,0,0,0,0,0,0,0,0,0,0,0,0,0,0,0,0,0,-0.261799,3.14143,-1.5,3.94113e+12,0,0,0,0,0
2340,-3.34119e-12,-3.41561e-12,-1.59277e-06,-3.40794e-12,-3.41542e-12,0,-2.86199e-13,0,0,0,0,0,0,0,0,0,0,0,0,0,0,0,0,0,0,0,0,0,-0.261799,3.14144,-1.5,3.94113e+12,0,0,0,0,0
2350,-3.34119e-12,-3.41561e-12,-1.59277e-06,-3.40794e-12,-3.41542e-12,-3.90305e-12,-2.862e-13,0,0,0,0,0,0,0,0,0,0,0,0,0,0,0,0,0,0,0,0,0,-0.261799,3.14144,-1.5,3.94113e+12,0,0,0,0,0
2360,-3.34119e-12,-3.41561e-12,-1.59277e-06,-3.40794e-12,-3.41542e-12,0,-2.86201e-13,0,0,0,0,0,0,0,0,0,0,0,0,0,0,0,0,0,0,0,0,0,-0.261799,3.14145,-1.5,3.94113e+12,0,0,0,0,0
2370,-3.34119e-12,-3.41561e-12,-1.59277e-06,-3.40794e-12,-3.41542e-12,-3.90305e-12,-2.86202e-13,0,0,0,0,0,0,0,0,0,0,0,0,0,0,0,0,0,0,0,0,0,-0.261799,3.14145,-1.5,3.94113e+12,0,0,0,0,0
2380,-3.34119e-12,-3.41561e-12,-1.59277e-06,-3.40794e-12,-3.41542e-12,0,-2.86203e-13,0,0,0,0,0,0,0,0,0,0,0,0,0,0,0,0,0,0,0,0,0,-0.261799,3.14146,-1.5,3.94113e+12,0,0,0,0,0
2390,-3.34119e-12,-3.41561e-12,-1.59277e-06,-3.40794e-12,-3.41542e-12,-3.90305e-12,-2.86204e-13,0,0,0,0,0,0,0,0,0,0,0,0,0,0,0,0,0,0,0,0,0,-0.261799,3.14147,-1.5,3.94113e+12,0,0,0,0,0
2400,-3.34119e-12,-3.41561e-12,-1.59277e-06,-3.40794e-12,-3.41542e-12,0,-2.86205e-13,0,0,0,0,0,0,0,0,0,0,0,0,0,0,0,0,0,0,0,0,0,-0.261799,3.14147,-1.5,3.94113e+12,0,0,0,0,0
2410,-3.34119e-12,-3.41561e-12,-1.59277e-06,-3.40794e-12,-3.41542e-12,-3.90305e-12,-2.86206e-13,0,0,0,0,0,0,0,0,0,0,0,0,0,0,0,0,0,0,0,0,0,-0.261799,3.14148,-1.5,3.94113e+12,0,0,0,0,0
2420,-3.34119e-12,-3.41561e-12,-1.59277e-06,-3.40794e-12,-3.41542e-12,0,-2.86207e-13,0,0,0,0,0,0,0,0,0,0,0,0,0,0,0,0,0,0,0,0,0,-0.261799,3.14148,-1.5,3.94113e+12,0,0,0,0,0
2430,-3.34119e-12,-3.41561e-12,-1.59277e-06,-3.40794e-12,-3.41542e-12,-3.90305e-12,-2.86208e-13,0,0,0,0,0,0,0,0,0,0,0,0,0,0,0,0,0,0,0,0,0,-0.261799,3.14149,-1.5,3.94113e+12,0,0,0,0,0
2440,-3.34119e-12,-3.41561e-12,-1.59277e-06,-3.40794e-12,-3.41542e-12,0,-2.86209e-13,0,0,0,0,0,0,0,0,0,0,0,0,0,0,0,0,0,0,0,0,0,-0.261799,3.14149,-1.5,3.94113e+12,0,0,0,0,0
2450,-3.34119e-12,-3.41561e-12,-1.59277e-06,-3.40794e-12,-3.41542e-12,-3.90305e-12,-2.86211e-13,0,0,0,0,0,0,0,0,0,0,0,0,0,0,0,0,0,0,0,0,0,-0.261799,3.14149,-1.5,3.94113e+12,0,0,0,0,0
2460,-3.34119e-12,-3.41561e-12,-1.59277e-06,-3.40794e-12,-3.41542e-12,0,-2.86212e-13,0,0,0,0,0,0,0,0,0,0,0,0,0,0,0,0,0,0,0,0,0,-0.261799,3.1415,-1.5,3.94113e+12,0,0,0,0,0
2470,-3.34119e-12,-3.41561e-12,-1.59277e-06,-3.40794e-12,-3.41542e-12,-3.90305e-12,-2.86213e-13,0,0,0,0,0,0,0,0,0,0,0,0,0,0,0,0,0,0,0,0,0,-0.261799,3.1415,-1.5,3.94113e+12,0,0,0,0,0
2480,-3.34119e-12,-3.41561e-12,-1.59277e-06,-3.40794e-12,-3.41542e-12,0,-2.86214e-13,0,0,0,0,0,0,0,0,0,0,0,0,0,0,0,0,0,0,0,0,0,-0.261799,3.14151,-1.5,3.94113e+12,0,0,0,0,0
2490,-3.34119e-12,-3.41561e-12,-1.59277e-06,-3.40794e-12,-3.41542e-12,-3.90305e-12,-2.86215e-13,0,0,0,0,0,0,0,0,0,0,0,0,0,0,0,0,0,0,0,0,0,-0.261799,3.14151,-1.5,3.94113e+12,0,0,0,0,0
2500,-3.34119e-12,-3.41561e-12,-1.59277e-06,-3.40794e-12,-3.41542e-12,0,-2.86216e-13,0,0,0,0,0,0,0,0,0,0,0,0,0,0,0,0,0,0,0,0,0,-0.261799,3.14152,-1.5,3.94113e+12,0,0,0,0,0
2510,-3.34119e-12,-3.41561e-12,-1.59277e-06,-3.40794e-12,-3.41542e-12,-3.90305e-12,-2.86217e-13,0,0,0,0,0,0,0,0,0,0,0,0,0,0,0,0,0,0,0,0,0,-0.261799,3.14152,-1.5,3.94113e+12,0,0,0,0,0
2520,-3.34119e-12,-3.41561e-12,-1.59277e-06,-3.40794e-12,-3.41542e-12,0,-2.86218e-13,0,0,0,0,0,0,0,0,0,0,0,0,0,0,0,0,0,0,0,0,0,-0.261799,3.14152,-1.5,3.94113e+12,0,0,0,0,0
2530,-3.34119e-12,-3.41561e-12,-1.59277e-06,-3.40794e-12,-3.41542e-12,-3.90305e-12,-2.86219e-13,0,0,0,0,0,0,0,0,0,0,0,0,0,0,0,0,0,0,0,0,0,-0.261799,3.14153,-1.5,3.94113e+12,0,0,0,0,0
2540,-3.34119e-12,-3.41561e-12,-1.59277e-06,-3.40794e-12,-3.41542e-12,0,-2.8622e-13,0,0,0,0,0,0,0,0,0,0,0,0,0,0,0,0,0,0,0,0,0,-0.261799,3.14153,-1.5,3.94113e+12,0,0,0,0,0
2550,-3.34119e-12,-3.41561e-12,-1.59277e-06,-3.40794e-12,-3.41542e-12,-3.90305e-12,-2.86221e-13,0,0,0,0,0,0,0,0,0,0,0,0,0,0,0,0,0,0,0,0,0,-0.261799,3.14153,-1.5,3.94113e+12,0,0,0,0,0
2560,-3.34119e-12,-3.41561e-12,-1.59277e-06,-3.40794e-12,-3.41542e-12,0,-2.86222e-13,0,0,0,0,0,0,0,0,0,0,0,0,0,0,0,0,0,0,0,0,0,-0.261799,3.14153,-1.5,3.94113e+12,0,0,0,0,0
2570,-3.34119e-12,-3.41561e-12,-1.59277e-06,-3.40794e-12,-3.41542e-12,-3.90305e-12,-2.86224e-13,0,0,0,0,0,0,0,0,0,0,0,0,0,0,0,0,0,0,0,0,0,-0.261799,3.14154,-1.5,3.94113e+12,0,0,0,0,0
2580,-3.34119e-12,-3.41561e-12,-1.59277e-06,-3.40794e-12,-3.41542e-12,0,-2.86225e-13,0,0,0,0,0,0,0,0,0,0,0,0,0,0,0,0,0,0,0,0,0,-0.261799,3.14154,-1.5,3.94113e+12,0,0,0,0,0
2590,-3.34119e-12,-3.41561e-12,-1.59277e-06,-3.40794e-12,-3.41542e-12,-3.90305e-12,-2.86226e-13,0,0,0,0,0,0,0,0,0,0,0,0,0,0,0,0,0,0,0,0,0,-0.261799,3.14154,-1.5,3.94113e+12,0,0,0,0,0
2600,-3.34119e-12,-3.41561e-12,-1.59277e-06,-3.40794e-12,-3.41542e-12,0,-2.86227e-13,0,0,0,0,0,0,0,0,0,0,0,0,0,0,0,0,0,0,0,0,0,-0.261799,3.14154,-1.5,3.94113e+12,0,0,0,0,0
2610,-3.34119e-12,-3.41561e-12,-1.59277e-06,-3.40794e-12,-3.41542e-12,-3.90305e-12,-2.86228e-13,0,0,0,0,0,0,0,0,0,0,0,0,0,0,0,0,0,0,0,0,0,-0.261799,3.14154,-1.5,3.94113e+12,0,0,0,0,0
2620,-3.34119e-12,-3.41561e-12,-1.59277e-06,-3.40794e-12,-3.41542e-12,0,-2.86229e-13,0,0,0,0,0,0,0,0,0,0,0,0,0,0,0,0,0,0,0,0,0,-0.261799,3.14155,-1.5,3.94113e+12,0,0,0,0,0
2630,-3.34119e-12,-3.41561e-12,-1.59277e-06,-3.40794e-12,-3.41542e-12,-3.90305e-12,-2.8623e-13,0,0,0,0,0,0,0,0,0,0,0,0,0,0,0,0,0,0,0,0,0,-0.261799,3.14155,-1.5,3.94113e+12,0,0,0,0,0
2640,-3.34119e-12,-3.41561e-12,-1.59277e-06,-3.40794e-12,-3.41542e-12,0,-2.86231e-13,0,0,0,0,0,0,0,0,0,0,0,0,0,0,0,0,0,0,0,0,0,-0.261799,3.14155,-1.5,3.94113e+12,0,0,0,0,0
2650,-3.34119e-12,-3.41561e-12,-1.59277e-06,-3.40794e-12,-3.41542e-12,-3.90305e-12,-2.86232e-13,0,0,0,0,0,0,0,0,0,0,0,0,0,0,0,0,0,0,0,0,0,-0.261799,3.14155,-1.5,3.94113e+12,0,0,0,0,0
2660,-3.34119e-12,-3.41561e-12,-1.59277e-06,-3.40794e-12,-3.41542e-12,0,-2.86233e-13,0,0,0,0,0,0,0,0,0,0,0,0,0,0,0,0,0,0,0,0,0,-0.261799,3.14155,-1.5,3.94113e+12,0,0,0,0,0
2670,-3.34119e-12,-3.41561e-12,-1.59277e-06,-3.40794e-12,-3.41542e-12,-3.90305e-12,-2.86234e-13,0,0,0,0,0,0,0,0,0,0,0,0,0,0,0,0,0,0,0,0,0,-0.261799,3.14156,-1.5,3.94113e+12,0,0,0,0,0
2680,-3.34119e-12,-3.41561e-12,-1.59277e-06,-3.40794e-12,-3.41542e-12,0,-2.86235e-13,0,0,0,0,0,0,0,0,0,0,0,0,0,0,0,0,0,0,0,0,0,-0.261799,3.14156,-1.5,3.94113e+12,0,0,0,0,0
2690,-3.34119e-12,-3.41561e-12,-1.59277e-06,-3.40794e-12,-3.41542e-12,-3.90305e-12,-2.86237e-13,0,0,0,0,0,0,0,0,0,0,0,0,0,0,0,0,0,0,0,0,0,-0.261799,3.14156,-1.5,3.94113e+12,0,0,0,0,0
2700,-3.34119e-12,-3.41561e-12,-1.59277e-06,-3.40794e-12,-3.41542e-12,0,-2.86238e-13,0,0,0,0,0,0,0,0,0,0,0,0,0,0,0,0,0,0,0,0,0,-0.261799,3.14156,-1.5,3.94113e+12,0,0,0,0,0
2710,-3.34119e-12,-3.41561e-12,-1.59277e-06,-3.40794e-12,-3.41542e-12,-3.90305e-12,-2.86239e-13,0,0,0,0,0,0,0,0,0,0,0,0,0,0,0,0,0,0,0,0,0,-0.261799,3.14156,-1.5,3.94113e+12,0,0,0,0,0
2720,-3.34119e-12,-3.41561e-12,-1.59277e-06,-3.40794e-12,-3.41542e-12,0,-2.8624e-13,0,0,0,0,0,0,0,0,0,0,0,0,0,0,0,0,0,0,0,0,0,-0.261799,3.14156,-1.5,3.94113e+12,0,0,0,0,0
2730,-3.34119e-12,-3.41561e-12,-1.59277e-06,-3.40794e-12,-3.41542e-12,-3.90305e-12,-2.86241e-13,0,0,0,0,0,0,0,0,0,0,0,0,0,0,0,0,0,0,0,0,0,-0.261799,3.14156,-1.5,3.94113e+12,0,0,0,0,0
2740,-3.34119e-12,-3.41561e-12,-1.59277e-06,-3.40794e-12,-3.41542e-12,0,-2.86242e-13,0,0,0,0,0,0,0,0,0,0,0,0,0,0,0,0,0,0,0,0,0,-0.261799,3.14156,-1.5,3.94113e+12,0,0,0,0,0
2750,-3.34119e-12,-3.41561e-12,-1.59277e-06,-3.40794e-12,-3.41542e-12,-3.90305e-12,-2.86243e-13,0,0,0,0,0,0,0,0,0,0,0,0,0,0,0,0,0,0,0,0,0,-0.261799,3.14157,-1.5,3.94113e+12,0,0,0,0,0
2760,-3.34119e-12,-3.41561e-12,-1.59277e-06,-3.40794e-12,-3.41542e-12,0,-2.86244e-13,0,0,0,0,0,0,0,0,0,0,0,0,0,0,0,0,0,0,0,0,0,-0.261799,3.14157,-1.5,3.94113e+12,0,0,0,0,0
2770,-3.34119e-12,-3.41561e-12,-1.59277e-06,-3.40794e-12,-3.41542e-12,-3.90305e-12,-2.86245e-13,0,0,0,0,0,0,0,0,0,0,0,0,0,0,0,0,0,0,0,0,0,-0.261799,3.14157,-1.5,3.94113e+12,0,0,0,0,0
2780,-3.34119e-12,-3.41561e-12,-1.59277e-06,-3.40794e-12,-3.41542e-12,0,-2.86246e-13,0,0,0,0,0,0,0,0,0,0,0,0,0,0,0,0,0,0,0,0,0,-0.261799,3.14157,-1.5,3.94113e+12,0,0,0,0,0
2790,-3.34119e-12,-3.41561e-12,-1.59277e-06,-3.40794e-12,-3.41542e-12,-3.90305e-12,-2.86247e-13,0,0,0,0,0,0,0,0,0,0,0,0,0,0,0,0,0,0,0,0,0,-0.261799,3.14157,-1.5,3.94113e+12,0,0,0,0,0
2800,-3.34119e-12,-3.41561e-12,-1.59277e-06,-3.40794e-12,-3.41542e-12,0,-2.86248e-13,0,0,0,0,0,0,0,0,0,0,0,0,0,0,0,0,0,0,0,0,0,-0.261799,3.14157,-1.5,3.94113e+12,0,0,0,0,0
2810,-3.34119e-12,-3.41561e-12,-1.59277e-06,-3.40794e-12,-3.41542e-12,-3.90305e-12,-2.8625e-13,0,0,0,0,0,0,0,0,0,0,0,0,0,0,0,0,0,0,0,0,0,-0.261799,3.14157,-1.5,3.94113e+12,0,0,0,0,0
2820,-3.34119e-12,-3.41561e-12,-1.59277e-06,-3.40794e-12,-3.41542e-12,0,-2.86251e-13,0,0,0,0,0,0,0,0,0,0,0,0,0,0,0,0,0,0,0,0,0,-0.261799,3.14157,-1.5,3.94113e+12,0,0,0,0,0
2830,-3.34119e-12,-3.41561e-12,-1.59277e-06,-3.40794e-12,-3.41542e-12,-3.90305e-12,-2.86252e-13,0,0,0,0,0,0,0,0,0,0,0,0,0,0,0,0,0,0,0,0,0,-0.261799,3.14157,-1.5,3.94113e+12,0,0,0,0,0
2840,-3.34119e-12,-3.41561e-12,-1.59277e-06,-3.40794e-12,-3.41542e-12,0,-2.86253e-13,0,0,0,0,0,0,0,0,0,0,0,0,0,0,0,0,0,0,0,0,0,-0.261799,3.14157,-1.5,3.94113e+12,0,0,0,0,0
2850,-3.34119e-12,-3.41561e-12,-1.59277e-06,-3.40794e-12,-3.41542e-12,-3.90305e-12,-2.86254e-13,0,0,0,0,0,0,0,0,0,0,0,0,0,0,0,0,0,0,0,0,0,-0.261799,3.14157,-1.5,3.94113e+12,0,0,0,0,0
2860,-3.34119e-12,-3.41561e-12,-1.59277e-06,-3.40794e-12,-3.41542e-12,0,-2.86255e-13,0,0,0,0,0,0,0,0,0,0,0,0,0,0,0,0,0,0,0,0,0,-0.261799,3.14157,-1.5,3.94113e+12,0,0,0,0,0
2870,-3.34119e-12,-3.41561e-12,-1.59277e-06,-3.40794e-12,-3.41542e-12,-3.90305e-12,-2.86256e-13,0,0,0,0,0,0,0,0,0,0,0,0,0,0,0,0,0,0,0,0,0,-0.261799,3.14157,-1.5,3.94113e+12,0,0,0,0,0
2880,-3.34119e-12,-3.41561e-12,-1.59277e-06,-3.40794e-12,-3.41542e-12,0,-2.86257e-13,0,0,0,0,0,0,0,0,0,0,0,0,0,0,0,0,0,0,0,0,0,-0.261799,3.14157,-1.5,3.94113e+12,0,0,0,0,0
2890,-3.34119e-12,-3.41561e-12,-1.59277e-06,-3.40794e-12,-3.41542e-12,-3.90305e-12,-2.86258e-13,0,0,0,0,0,0,0,0,0,0,0,0,0,0,0,0,0,0,0,0,0,-0.261799,3.14157,-1.5,3.94113e+12,0,0,0,0,0
2900,-3.34119e-12,-3.41561e-12,-1.59277e-06,-3.40794e-12,-3.41542e-12,0,-2.86259e-13,0,0,0,0,0,0,0,0,0,0,0,0,0,0,0,0,0,0,0,0,0,-0.261799,3.14157,-1.5,3.94113e+12,0,0,0,0,0
2910,-3.34119e-12,-3.41561e-12,-1.59277e-06,-3.40794e-12,-3.41542e-12,-3.90305e-12,-2.8626e-13,0,0,0,0,0,0,0,0,0,0,0,0,0,0,0,0,0,0,0,0,0,-0.261799,3.14157,-1.5,3.94113e+12,0,0,0,0,0
2920,-3.34119e-12,-3.41561e-12,-1.59277e-06,-3.40794e-12,-3.41542e-12,0,-2.86261e-13,0,0,0,0,0,0,0,0,0,0,0,0,0,0,0,0,0,0,0,0,0,-0.261799,3.14157,-1.5,3.94113e+12,0,0,0,0,0
2930,-3.34119e-12,-3.41561e-12,-1.59277e-06,-3.40794e-12,-3.41542e-12,-3.90305e-12,-2.86263e-13,0,0,0,0,0,0,0,0,0,0,0,0,0,0,0,0,0,0,0,0,0,-0.261799,3.14158,-1.5,3.94113e+12,0,0,0,0,0
2940,-3.34119e-12,-3.41561e-12,-1.59277e-06,-3.40794e-12,-3.41542e-12,0,-2.86264e-13,0,0,0,0,0,0,0,0,0,0,0,0,0,0,0,0,0,0,0,0,0,-0.261799,3.14158,-1.5,3.94113e+12,0,0,0,0,0
2950,-3.34119e-12,-3.41561e-12,-1.59277e-06,-3.40794e-12,-3.41542e-12,-3.90305e-12,-2.86265e-13,0,0,0,0,0,0,0,0,0,0,0,0,0,0,0,0,0,0,0,0,0,-0.261799,3.14158,-1.5,3.94113e+12,0,0,0,0,0
2960,-3.34119e-12,-3.41561e-12,-1.59277e-06,-3.40794e-12,-3.41542e-12,0,-2.86266e-13,0,0,0,0,0,0,0,0,0,0,0,0,0,0,0,0,0,0,0,0,0,-0.261799,3.14158,-1.5,3.94113e+12,0,0,0,0,0
2970,-3.34119e-12,-3.41561e-12,-1.59277e-06,-3.40794e-12,-3.41542e-12,-3.90305e-12,-2.86267e-13,0,0,0,0,0,0,0,0,0,0,0,0,0,0,0,0,0,0,0,0,0,-0.261799,3.14158,-1.5,3.94113e+12,0,0,0,0,0
2980,-3.34119e-12,-3.41561e-12,-1.59277e-06,-3.40794e-12,-3.41542e-12,0,-2.85918e-13,0,0,0,0,0,0,0,0,0,0,0,0,0,0,0,0,0,0,0,0,0,-0.261799,3.14158,-1.5,3.94113e+12,0,0,0,0,0
2990,-3.34119e-12,-3.41561e-12,-1.59277e-06,-3.40794e-12,-3.41542e-12,-3.90305e-12,-2.85919e-13,0,0,0,0,0,0,0,0,0,0,0,0,0,0,0,0,0,0,0,0,0,-0.261799,3.14158,-1.5,3.94113e+12,0,0,0,0,0
3000,-3.34119e-12,-3.41561e-12,-1.59277e-06,-3.40794e-12,-3.41542e-12,0,-2.8592e-13,0,0,0,0,0,0,0,0,0,0,0,0,0,0,0,0,0,0,0,0,0,-0.261799,3.14158,-1.5,3.94113e+12,0,0,0,0,0
3010,-3.34119e-12,-3.41561e-12,-1.59277e-06,-3.40794e-12,-3.41542e-12,-3.90305e-12,-2.85921e-13,0,0,0,0,0,0,0,0,0,0,0,0,0,0,0,0,0,0,0,0,0,-0.261799,3.14158,-1.5,3.94113e+12,0,0,0,0,0
3020,-3.34119e-12,-3.41561e-12,-1.59277e-06,-3.40794e-12,-3.41542e-12,0,-2.85922e-13,0,0,0,0,0,0,0,0,0,0,0,0,0,0,0,0,0,0,0,0,0,-0.261799,3.14158,-1.5,3.94113e+12,0,0,0,0,0
3030,-3.34119e-12,-3.41561e-12,-1.59277e-06,-3.40794e-12,-3.41542e-12,-3.90305e-12,-2.85923e-13,0,0,0,0,0,0,0,0,0,0,0,0,0,0,0,0,0,0,0,0,0,-0.261799,3.14158,-1.5,3.94113e+12,0,0,0,0,0
3040,-3.34119e-12,-3.41561e-12,-1.59277e-06,-3.40794e-12,-3.41542e-12,0,-2.85924e-13,0,0,0,0,0,0,0,0,0,0,0,0,0,0,0,0,0,0,0,0,0,-0.261799,3.14158,-1.5,3.94113e+12,0,0,0,0,0
3050,-3.34119e-12,-3.41561e-12,-1.59277e-06,-3.40794e-12,-3.41542e-12,-3.90305e-12,-2.85925e-13,0,0,0,0,0,0,0,0,0,0,0,0,0,0,0,0,0,0,0,0,0,-0.261799,3.14158,-1.5,3.94113e+12,0,0,0,0,0
3060,-3.34119e-12,-3.41561e-12,-1.59277e-06,-3.40794e-12,-3.41542e-12,0,-2.85926e-13,0,0,0,0,0,0,0,0,0,0,0,0,0,0,0,0,0,0,0,0,0,-0.261799,3.14158,-1.5,3.94113e+12,0,0,0,0,0
3070,-3.34119e-12,-3.41561e-12,-1.59277e-06,-3.40794e-12,-3.41542e-12,-3.90305e-12,-2.85927e-13,0,0,0,0,0,0,0,0,0,0,0,0,0,0,0,0,0,0,0,0,0,-0.261799,3.14158,-1.5,3.94113e+12,0,0,0,0,0
3080,-3.34119e-12,-3.41561e-12,-1.59277e-06,-3.40794e-12,-3.41542e-12,0,-2.85928e-13,0,0,0,0,0,0,0,0,0,0,0,0,0,0,0,0,0,0,0,0,0,-0.261799,3.14158,-1.5,3.94113e+12,0,0,0,0,0
3090,-3.34119e-12,-3.41561e-12,-1.59277e-06,-3.40794e-12,-3.41542e-12,-3.90305e-12,-2.85929e-13,0,0,0,0,0,0,0,0,0,0,0,0,0,0,0,0,0,0,0,0,0,-0.261799,3.14158,-1.5,3.94113e+12,0,0,0,0,0
3100,-3.34119e-12,-3.41561e-12,-1.59277e-06,-3.40794e-12,-3.41542e-12,0,-2.85931e-13,0,0,0,0,0,0,0,0,0,0,0,0,0,0,0,0,0,0,0,0,0,-0.261799,3.14158,-1.5,3.94113e+12,0,0,0,0,0
3110,-3.34119e-12,-3.41561e-12,-1.59277e-06,-3.40794e-12,-3.41542e-12,-3.90305e-12,-2.85932e-13,0,0,0,0,0,0,0,0,0,0,0,0,0,0,0,0,0,0,0,0,0,-0.261799,3.14158,-1.5,3.94113e+12,0,0,0,0,0
3120,-3.34119e-12,-3.41561e-12,-1.59277e-06,-3.40794e-12,-3.41542e-12,0,-2.85933e-13,0,0,0,0,0,0,0,0,0,0,0,0,0,0,0,0,0,0,0,0,0,-0.261799,3.14158,-1.5,3.94113e+12,0,0,0,0,0
3130,-3.34119e-12,-3.41561e-12,-1.59277e-06,-3.40794e-12,-3.41542e-12,-3.90305e-12,-2.85934e-13,0,0,0,0,0,0,0,0,0,0,0,0,0,0,0,0,0,0,0,0,0,-0.261799,3.14158,-1.5,3.94113e+12,0,0,0,0,0
3140,-3.34119e-12,-3.41561e-12,-1.59277e-06,-3.40794e-12,-3.41542e-12,0,-2.85935e-13,0,0,0,0,0,0,0,0,0,0,0,0,0,0,0,0,0,0,0,0,0,-0.261799,3.14158,-1.5,3.94113e+12,0,0,0,0,0
3150,-3.34119e-12,-3.41561e-12,-1.59277e-06,-3.40794e-12,-3.41542e-12,-3.90305e-12,-2.85936e-13,0,0,0,0,0,0,0,0,0,0,0,0,0,0,0,0,0,0,0,0,0,-0.261799,3.14158,-1.5,3.94113e+12,0,0,0,0,0
3160,-3.34119e-12,-3.41561e-12,-1.59277e-06,-3.40794e-12,-3.41542e-12,0,-2.85937e-13,0,0,0,0,0,0,0,0,0,0,0,0,0,0,0,0,0,0,0,0,0,-0.261799,3.14158,-1.5,3.94113e+12,0,0,0,0,0
3170,-3.34119e-12,-3.41561e-12,-1.59277e-06,-3.40794e-12,-3.41542e-12,-3.90305e-12,-2.85938e-13,0,0,0,0,0,0,0,0,0,0,0,0,0,0,0,0,0,0,0,0,0,-0.261799,3.14158,-1.5,3.94113e+12,0,0,0,0,0
3180,-3.34119e-12,-3.41561e-12,-1.59277e-06,-3.40794e-12,-3.41542e-12,0,-2.85939e-13,0,0,0,0,0,0,0,0,0,0,0,0,0,0,0,0,0,0,0,0,0,-0.261799,3.14158,-1.5,3.94113e+12,0,0,0,0,0
3190,-3.34119e-12,-3.41561e-12,-1.59277e-06,-3.40794e-12,-3.41542e-12,-3.90305e-12,-2.8594e-13,0,0,0,0,0,0,0,0,0,0,0,0,0,0,0,0,0,0,0,0,0,-0.261799,3.14158,-1.5,3.94113e+12,0,0,0,0,0
3200,-3.34119e-12,-3.41561e-12,-1.59277e-06,-3.40794e-12,-3.41542e-12,0,-2.85941e-13,0,0,0,0,0,0,0,0,0,0,0,0,0,0,0,0,0,0,0,0,0,-0.261799,3.14158,-1.5,3.94113e+12,0,0,0,0,0
3210,-3.34119e-12,-3.41561e-12,-1.59277e-06,-3.40794e-12,-3.41542e-12,-3.90305e-12,-2.85942e-13,0,0,0,0,0,0,0,0,0,0,0,0,0,0,0,0,0,0,0,0,0,-0.261799,3.14158,-1.5,3.94113e+12,0,0,0,0,0
3220,-3.34119e-12,-3.41561e-12,-1.59277e-06,-3.40794e-12,-3.41542e-12,0,-2.85944e-13,0,0,0,0,0,0,0,0,0,0,0,0,0,0,0,0,0,0,0,0,0,-0.261799,3.14158,-1.5,3.94113e+12,0,0,0,0,0
3230,-3.34119e-12,-3.41561e-12,-1.59277e-06,-3.40794e-12,-3.41542e-12,-3.90305e-12,-2.85945e-13,0,0,0,0,0,0,0,0,0,0,0,0,0,0,0,0,0,0,0,0,0,-0.261799,3.14158,-1.5,3.94113e+12,0,0,0,0,0
3240,-3.34119e-12,-3.41561e-12,-1.59277e-06,-3.40794e-12,-3.41542e-12,0,-2.85946e-13,0,0,0,0,0,0,0,0,0,0,0,0,0,0,0,0,0,0,0,0,0,-0.261799,3.14158,-1.5,3.94113e+12,0,0,0,0,0
3250,-3.34119e-12,-3.41561e-12,-1.59277e-06,-3.40794e-12,-3.41542e-12,-3.90305e-12,-2.85947e-13,0,0,0,0,0,0,0,0,0,0,0,0,0,0,0,0,0,0,0,0,0,-0.261799,3.14158,-1.5,3.94113e+12,0,0,0,0,0
3260,-3.34119e-12,-3.41561e-12,-1.59277e-06,-3.40794e-12,-3.41542e-12,0,-2.85948e-13,0,0,0,0,0,0,0,0,0,0,0,0,0,0,0,0,0,0,0,0,0,-0.261799,3.14158,-1.5,3.94113e+12,0,0,0,0,0
3270,-3.34119e-12,-3.41561e-12,-1.59277e-06,-3.40794e-12,-3.41542e-12,-3.90305e-12,-2.85949e-13,0,0,0,0,0,0,0,0,0,0,0,0,0,0,0,0,0,0,0,0,0,-0.261799,3.14158,-1.5,3.94113e+12,0,0,0,0,0
3280,-3.34119e-12,-3.41561e-12,-1.59277e-06,-3.40794e-12,-3.41542e-12,0,-2.8595e-13,0,0,0,0,0,0,0,0,0,0,0,0,0,0,0,0,0,0,0,0,0,-0.261799,3.14158,-1.5,3.94113e+12,0,0,0,0,0
3290,-3.34119e-12,-3.41561e-12,-1.59277e-06,-3.40794e-12,-3.41542e-12,-3.90305e-12,-2.85951e-13,0,0,0,0,0,0,0,0,0,0,0,0,0,0,0,0,0,0,0,0,0,-0.261799,3.14158,-1.5,3.94113e+12,0,0,0,0,0
3300,-3.34119e-12,-3.41561e-12,-1.59277e-06,-3.40794e-12,-3.41542e-12,0,-2.85952e-13,0,0,0,0,0,0,0,0,0,0,0,0,0,0,0,0,0,0,0,0,0,-0.261799,3.14158,-1.5,3.94113e+12,0,0,0,0,0
3310,-3.34119e-12,-3.41561e-12,-1.59277e-06,-3.40794e-12,-3.41542e-12,-3.90305e-12,-2.85953e-13,0,0,0,0,0,0,0,0,0,0,0,0,0,0,0,0,0,0,0,0,0,-0.261799,3.14158,-1.5,3.94113e+12,0,0,0,0,0
3320,-3.34119e-12,-3.41561e-12,-1.59277e-06,-3.40794e-12,-3.41542e-12,0,-2.85954e-13,0,0,0,0,0,0,0,0,0,0,0,0,0,0,0,0,0,0,0,0,0,-0.261799,3.14158,-1.5,3.94113e+12,0,0,0,0,0
3330,-3.34119e-12,-3.41561e-12,-1.59277e-06,-3.40794e-12,-3.41542e-12,-3.90305e-12,-2.85956e-13,0,0,0,0,0,0,0,0,0,0,0,0,0,0,0,0,0,0,0,0,0,-0.261799,3.14159,-1.5,3.94113e+12,0,0,0,0,0
3340,-3.34119e-12,-3.41561e-12,-1.59277e-06,-3.40794e-12,-3.41542e-12,0,-2.85957e-13,0,0,0,0,0,0,0,0,0,0,0,0,0,0,0,0,0,0,0,0,0,-0.261799,3.14159,-1.5,3.94113e+12,0,0,0,0,0
3350,-3.34119e-12,-3.41561e-12,-1.59277e-06,-3.40794e-12,-3.41542e-12,-3.90305e-12,-2.85958e-13,0,0,0,0,0,0,0,0,0,0,0,0,0,0,0,0,0,0,0,0,0,-0.261799,3.14159,-1.5,3.94113e+12,0,0,0,0,0
3360,-3.34119e-12,-3.41561e-12,-1.59277e-06,-3.40794e-12,-3.41542e-12,0,-2.85959e-13,0,0,0,0,0,0,0,0,0,0,0,0,0,0,0,0,0,0,0,0,0,-0.261799,3.14159,-1.5,3.94113e+12,0,0,0,0,0
3370,-3.34119e-12,-3.41561e-12,-1.59277e-06,-3.40794e-12,-3.41542e-12,-3.90305e-12,-2.8596e-13,0,0,0,0,0,0,0,0,0,0,0,0,0,0,0,0,0,0,0,0,0,-0.261799,3.14159,-1.5,3.94113e+12,0,0,0,0,0
3380,-3.34119e-12,-3.41561e-12,-1.59277e-06,-3.40794e-12,-3.41542e-12,0,-2.85961e-13,0,0,0,0,0,0,0,0,0,0,0,0,0,0,0,0,0,0,0,0,0,-0.261799,3.14159,-1.5,3.94113e+12,0,0,0,0,0
