timestamp,A_x,A_y,A_z,P,Q,R,Phi,Theta,Psi,poseX,poseY,poseZ,state_X,state_Y,state_Z,state_VzB,state_Bx,state_By,state_Bz,p1_x,p1_y,p2_x,p2_y,p3_x,p3_y,p4_x,p4_y,roll,pitch,yaw,alt,targetHeading,highLevelState,lowLevelState,gateNumber,filtered_x,filtered_y,x_OT,y_OT,vx_OT,vy_OT,filtered_vx,filtered_vygateArearansac_corr_x,ransac_corr_y,ransac_corr_vx,ransac_corr_vy,detectionTimeStamppTermX,dTermX,pTermY,dTermY,vxcmd,vycmd
6596,0,0,0,0,0,59.0134,-28.5963,2.57317,2.21044,59.0134,-28.5963,5,0,-1.5,0,0,0.030426,0.179605,-2.26547,-0.0783488,-0.860334,25635,0,0,0,0
6613,0,0,0,0,0,61.6749,-26.3125,2.64186,2.26473,61.6749,-26.3125,5,0,-1.5,0,0,0.0299789,0.181213,-2.26885,-0.0755818,-0.860581,25635,0,0,0,0
6628,0,0,0,0,0,64.394,-23.98,2.68513,2.30729,64.394,-23.98,5,0,-1.5,0,0,0.0284622,0.182331,-2.27327,-0.0717947,-0.860905,25635,0,0,0,0
6644,0,0,0,0,0,66.2268,-22.4034,2.70646,2.32901,66.2268,-22.4034,5,0,-1.5,0,0,0.0282455,0.182911,-2.2752,-0.0701156,-0.861044,25635,0,0,0,0
6660,0,0,0,0,0,66.2268,-22.4034,2.70646,2.32901,66.2268,-22.4034,5,0,-1.5,0,0,0.0282366,0.182926,-2.27525,-0.0701156,-0.861044,25635,0,0,0,0
6675,0,0,0,0,0,66.2268,-22.4034,2.70646,2.32901,66.2268,-22.4034,5,0,-1.5,0,0,0.0281711,0.18295,-2.27535,-0.0701156,-0.861044,25635,0,0,0,0
6690,0,0,0,0,0,66.2268,-22.4034,2.70646,2.32901,66.2268,-22.4034,5,0,-1.5,0,0,0.0281681,0.182949,-2.27537,-0.0701156,-0.861044,25635,0,0,0,0
6705,0,0,0,0,0,66.6875,-22.007,2.71107,2.33372,66.6875,-22.007,5,0,-1.5,0,0,0.0281752,0.182947,-2.27542,-0.069744,-0.861074,25635,0,0,0,0
6721,0,0,0,0,0,66.6875,-22.007,2.71107,2.33372,66.6875,-22.007,5,0,-1.5,0,0,0.0281981,0.182951,-2.27546,-0.069744,-0.861074,25635,0,0,0,0
6736,0,0,0,0,0,66.6875,-22.007,2.71107,2.33372,66.6875,-22.007,5,0,-1.5,0,0,0.028169,0.182982,-2.27553,-0.069744,-0.861074,25635,0,0,0,0
6751,0,0,0,0,0,66.6875,-22.007,2.71107,2.33372,66.6875,-22.007,5,0,-1.5,0,0,0.0281374,0.183,-2.27558,-0.069744,-0.861074,25635,0,0,0,0
6766,0,0,0,0,0,66.6875,-22.007,2.71107,2.33372,66.6875,-22.007,5,0,-1.5,0,0,0.0281126,0.183,-2.27564,-0.069744,-0.861074,25635,0,0,0,0
6782,0,0,0,0,0,66.6875,-22.007,2.71107,2.33372,66.6875,-22.007,5,0,-1.5,0,0,0.0280932,0.183,-2.2757,-0.069744,-0.861074,25635,0,0,0,0
6797,0,0,0,0,0,66.6875,-22.007,2.71107,2.33372,66.6875,-22.007,5,0,-1.5,0,0,0.0280602,0.183016,-2.27577,-0.069744,-0.861074,25635,0,0,0,0
6812,0,0,0,0,0,66.6875,-22.007,2.71107,2.33372,66.6875,-22.007,5,0,-1.5,0,0,0.0279863,0.183007,-2.27592,-0.069744,-0.861074,25635,0,0,0,0
6827,0,0,0,0,0,66.6875,-22.007,2.71107,2.33372,66.6875,-22.007,5,0,-1.5,0,0,0.02796,0.183014,-2.27598,-0.069744,-0.861074,25635,0,0,0,0
6842,0,0,0,0,0,67.1492,-21.6099,2.71534,2.33818,67.1492,-21.6099,5,0,-1.5,0,0,0.0279255,0.183015,-2.27607,-0.0692186,-0.861116,25635,0,0,0,0
6858,0,0,0,0,0,67.1492,-21.6099,2.71534,2.33818,67.1492,-21.6099,5,0,-1.5,0,0,0.0278818,0.18304,-2.27614,-0.0692186,-0.861116,25635,0,0,0,0
6873,0,0,0,0,0,67.1492,-21.6099,2.71534,2.33818,67.1492,-21.6099,5,0,-1.5,0,0,0.0278256,0.183047,-2.27622,-0.0692186,-0.861116,25635,0,0,0,0
6888,0,0,0,0,0,67.1492,-21.6099,2.71534,2.33818,67.1492,-21.6099,5,0,-1.5,0,0,0.0277899,0.183073,-2.27632,-0.0692186,-0.861116,25635,0,0,0,0
6903,0,0,0,0,0,67.1492,-21.6099,2.71534,2.33818,67.1492,-21.6099,5,0,-1.5,0,0,0.0277452,0.183094,-2.27638,-0.0692186,-0.861116,25635,0,0,0,0
6918,0,0,0,0,0,67.1492,-21.6099,2.71534,2.33818,67.1492,-21.6099,5,0,-1.5,0,0,0.0277344,0.183098,-2.27645,-0.0692186,-0.861116,25635,0,0,0,0
6935,0,0,0,0,0,67.1492,-21.6099,2.71534,2.33818,67.1492,-21.6099,5,0,-1.5,0,0,0.0277335,0.183117,-2.2765,-0.0692186,-0.861116,25635,0,0,0,0
6950,0,0,0,0,0,67.1492,-21.6099,2.71534,2.33818,67.1492,-21.6099,5,0,-1.5,0,0,0.0277335,0.183117,-2.2765,-0.0692186,-0.861116,25635,0,0,0,0
6965,0,0,0,0,0,67.1492,-21.6099,2.71534,2.33818,67.1492,-21.6099,5,0,-1.5,0,0,0.0277335,0.183117,-2.2765,-0.0692186,-0.861116,25635,0,0,0,0
6980,0,0,0,0,0,67.6109,-21.212,2.71914,2.34255,67.6109,-21.212,5,0,-1.5,0,0,0.0277468,0.183185,-2.2767,-0.0686411,-0.861163,25635,0,0,0,0
6996,0,0,0,0,0,67.6109,-21.212,2.71914,2.34255,67.6109,-21.212,5,0,-1.5,0,0,0.0277076,0.183192,-2.27676,-0.0686411,-0.861163,25635,0,0,0,0
7012,0,0,0,0,0,67.6109,-21.212,2.71914,2.34255,67.6109,-21.212,5,0,-1.5,0,0,0.0276996,0.183212,-2.27681,-0.0686411,-0.861163,25635,0,0,0,0
7027,0,0,0,0,0,67.6109,-21.212,2.71914,2.34255,67.6109,-21.212,5,0,-1.5,0,0,0.0277115,0.18322,-2.27685,-0.0686411,-0.861163,25635,0,0,0,0
7041,0,0,0,0,0,67.6109,-21.212,2.71914,2.34255,67.6109,-21.212,5,0,-1.5,0,0,0.0277371,0.183224,-2.27688,-0.0686411,-0.861163,25635,0,0,0,0
7055,0,0,0,0,0,67.6109,-21.212,2.71914,2.34255,67.6109,-21.212,5,0,-1.5,0,0,0.0277544,0.183238,-2.27693,-0.0686411,-0.861163,25635,0,0,0,0
7075,0,0,0,0,0,67.6109,-21.212,2.71914,2.34255,67.6109,-21.212,5,0,-1.5,0,0,0.027708,0.183261,-2.27702,-0.0686411,-0.861163,25635,0,0,0,0
7088,0,0,0,0,0,67.6109,-21.212,2.71914,2.34255,67.6109,-21.212,5,0,-1.5,0,0,0.0276895,0.183284,-2.27707,-0.0686411,-0.861163,25635,0,0,0,0
7112,0,0,0,0,0,68.0727,-20.8134,2.72277,2.3467,68.0727,-20.8134,5,0,-1.5,0,0,0.0277035,0.183304,-2.27711,-0.0682471,-0.861194,25635,0,0,0,0
7131,0,0,0,0,0,68.0727,-20.8134,2.72277,2.3467,68.0727,-20.8134,5,0,-1.5,0,0,0.0277269,0.183318,-2.2772,-0.0682471,-0.861194,25635,0,0,0,0
7160,0,0,0,0,0,68.0727,-20.8134,2.72277,2.3467,68.0727,-20.8134,5,0,-1.5,0,0,0.0277234,0.183335,-2.27729,-0.0682471,-0.861194,25635,0,0,0,0
7186,0,0,0,0,0,68.0727,-20.8134,2.72277,2.3467,68.0727,-20.8134,5,0,-1.5,0,0,0.0277338,0.183362,-2.27738,-0.0682471,-0.861194,25635,0,0,0,0
7210,0,0,0,0,0,68.0727,-20.8134,2.72277,2.3467,68.0727,-20.8134,5,0,-1.5,0,0,0.0277375,0.183383,-2.27742,-0.0682471,-0.861194,25635,0,0,0,0
7223,0,0,0,0,0,68.0727,-20.8134,2.72277,2.3467,68.0727,-20.8134,5,0,-1.5,0,0,0.0277252,0.183403,-2.27745,-0.0682471,-0.861194,25635,0,0,0,0
7239,0,0,0,0,0,68.0727,-20.8134,2.72277,2.3467,68.0727,-20.8134,5,0,-1.5,0,0,0.0277087,0.183415,-2.2775,-0.0682471,-0.861194,25635,0,0,0,0
7255,0,0,0,0,0,68.5363,-20.4142,2.72633,2.35058,68.5363,-20.4142,5,0,-1.5,0,0,0.0276971,0.183437,-2.27753,-0.0678855,-0.861223,25635,0,0,0,0
7271,0,0,0,0,0,68.5363,-20.4142,2.72633,2.35058,68.5363,-20.4142,5,0,-1.5,0,0,0.0276958,0.183447,-2.27756,-0.0678855,-0.861223,25635,0,0,0,0
7287,0,0,0,0,0,68.5363,-20.4142,2.72633,2.35058,68.5363,-20.4142,5,0,-1.5,0,0,0.0276958,0.183447,-2.27756,-0.0678855,-0.861223,25635,0,0,0,0
7303,0,0,0,0,0,68.5363,-20.4142,2.72633,2.35058,68.5363,-20.4142,5,0,-1.5,0,0,0.0276901,0.183463,-2.27771,-0.0678855,-0.861223,25635,0,0,0,0
7318,0,0,0,0,0,68.5363,-20.4142,2.72633,2.35058,68.5363,-20.4142,5,0,-1.5,0,0,0.0276861,0.183487,-2.27775,-0.0678855,-0.861223,25635,0,0,0,0
7335,0,0,0,0,0,68.5363,-20.4142,2.72633,2.35058,68.5363,-20.4142,5,0,-1.5,0,0,0.0276826,0.183511,-2.2778,-0.0678855,-0.861223,25635,0,0,0,0
7350,0,0,0,0,0,68.5363,-20.4142,2.72633,2.35058,68.5363,-20.4142,5,0,-1.5,0,0,0.0276567,0.18352,-2.27785,-0.0678855,-0.861223,25635,0,0,0,0
7366,0,0,0,0,0,68.5363,-20.4142,2.72633,2.35058,68.5363,-20.4142,5,0,-1.5,0,0,0.0276456,0.183539,-2.27793,-0.0678855,-0.861223,25635,0,0,0,0
7382,0,0,0,0,0,68.5363,-20.4142,2.72633,2.35058,68.5363,-20.4142,5,0,-1.5,0,0,0.0276473,0.183555,-2.27797,-0.0678855,-0.861223,25635,0,0,0,0
7398,0,0,0,0,0,69.0006,-20.0142,2.72978,2.35425,69.0006,-20.0142,5,0,-1.5,0,0,0.0276413,0.183565,-2.27801,-0.0675109,-0.861252,25635,0,0,0,0
7413,0,0,0,0,0,69.0006,-20.0142,2.72978,2.35425,69.0006,-20.0142,5,0,-1.5,0,0,0.0276413,0.183565,-2.27801,-0.0675109,-0.861252,25635,0,0,0,0
7429,0,0,0,0,0,69.0006,-20.0142,2.72978,2.35425,69.0006,-20.0142,5,0,-1.5,0,0,0.0276355,0.183574,-2.27809,-0.0675109,-0.861252,25635,0,0,0,0
7446,0,0,0,0,0,69.0006,-20.0142,2.72978,2.35425,69.0006,-20.0142,5,0,-1.5,0,0,0.0276355,0.183574,-2.27809,-0.0675109,-0.861252,25635,0,0,0,0
7461,0,0,0,0,0,69.0006,-20.0142,2.72978,2.35425,69.0006,-20.0142,5,0,-1.5,0,0,0.0275922,0.183633,-2.27823,-0.0675109,-0.861252,25635,0,0,0,0
7477,0,0,0,0,0,69.0006,-20.0142,2.72978,2.35425,69.0006,-20.0142,5,0,-1.5,0,0,0.0275938,0.183613,-2.27828,-0.0675109,-0.861252,25635,0,0,0,0
7493,0,0,0,0,0,69.0006,-20.0142,2.72978,2.35425,69.0006,-20.0142,5,0,-1.5,0,0,0.027604,0.183601,-2.27832,-0.0675109,-0.861252,25635,0,0,0,0
7509,0,0,0,0,0,69.0006,-20.0142,2.72978,2.35425,69.0006,-20.0142,5,0,-1.5,0,0,0.027604,0.183601,-2.27832,-0.0675109,-0.861252,25635,0,0,0,0
7524,0,0,0,0,0,69.0006,-20.0142,2.72978,2.35425,69.0006,-20.0142,5,0,-1.5,0,0,0.0275257,0.183626,-2.27848,-0.0675109,-0.861252,25635,0,0,0,0
7539,0,0,0,0,0,69.465,-19.6137,2.73306,2.35773,69.465,-19.6137,5,0,-1.5,0,0,0.0274183,0.18362,-2.27856,-0.0670715,-0.861286,25635,0,0,0,0
7554,0,0,0,0,0,69.465,-19.6137,2.73306,2.35773,69.465,-19.6137,5,0,-1.5,0,0,0.0273064,0.18358,-2.27867,-0.0670715,-0.861286,25635,0,0,0,0
7569,0,0,0,0,0,69.465,-19.6137,2.73306,2.35773,69.465,-19.6137,5,0,-1.5,0,0,0.0272125,0.183575,-2.27874,-0.0670715,-0.861286,25635,0,0,0,0
7585,0,0,0,0,0,69.465,-19.6137,2.73306,2.35773,69.465,-19.6137,5,0,-1.5,0,0,0.0272126,0.183613,-2.27881,-0.0670715,-0.861286,25635,0,0,0,0
7601,0,0,0,0,0,69.465,-19.6137,2.73306,2.35773,69.465,-19.6137,5,0,-1.5,0,0,0.0273727,0.183665,-2.27886,-0.0670715,-0.861286,25635,0,0,0,0
7617,0,0,0,0,0,69.465,-19.6137,2.73306,2.35773,69.465,-19.6137,5,0,-1.5,0,0,0.0273886,0.183682,-2.2789,-0.0670715,-0.861286,25635,0,0,0,0
7633,0,0,0,0,0,69.465,-19.6137,2.73306,2.35773,69.465,-19.6137,5,0,-1.5,0,0,0.0273333,0.183703,-2.27897,-0.0670715,-0.861286,25635,0,0,0,0
7648,0,0,0,0,0,69.465,-19.6137,2.73306,2.35773,69.465,-19.6137,5,0,-1.5,0,0,0.0272451,0.183712,-2.27905,-0.0670715,-0.861286,25635,0,0,0,0
7664,0,0,0,0,0,69.465,-19.6137,2.73306,2.35773,69.465,-19.6137,5,0,-1.5,0,0,0.0272323,0.183719,-2.2791,-0.0670715,-0.861286,25635,0,0,0,0
7680,0,0,0,0,0,69.465,-19.6137,2.73306,2.35773,69.465,-19.6137,5,0,-1.5,0,0,0.0272323,0.183719,-2.2791,-0.0670715,-0.861286,25635,0,0,0,0
7696,0,0,0,0,0,69.465,-19.6137,2.73306,2.35773,69.465,-19.6137,5,0,-1.5,0,0,0.0273434,0.183769,-2.27914,-0.0670715,-0.861286,25635,0,0,0,0
7711,0,0,0,0,0,69.465,-19.6137,2.73306,2.35773,69.465,-19.6137,5,0,-1.5,0,0,0.0273434,0.183769,-2.27914,-0.0670715,-0.861286,25635,0,0,0,0
7727,0,0,0,0,0,69.465,-19.6137,2.73306,2.35773,69.465,-19.6137,5,0,-1.5,0,0,0.0272366,0.183819,-2.27931,-0.0670715,-0.861286,25635,0,0,0,0
7743,0,0,0,0,0,69.465,-19.6137,2.73306,2.35773,69.465,-19.6137,5,0,-1.5,0,0,0.0272031,0.18382,-2.27937,-0.0670715,-0.861286,25635,0,0,0,0
7759,0,0,0,0,0,69.465,-19.6137,2.73306,2.35773,69.465,-19.6137,5,0,-1.5,0,0,0.0272474,0.183837,-2.2794,-0.0670715,-0.861286,25635,0,0,0,0
7775,0,0,0,0,0,69.465,-19.6137,2.73306,2.35773,69.465,-19.6137,5,0,-1.5,0,0,0.0272988,0.183866,-2.27941,-0.0670715,-0.861286,25635,0,0,0,0
7790,0,0,0,0,0,69.465,-19.6137,2.73306,2.35773,69.465,-19.6137,5,0,-1.5,0,0,0.0273288,0.183884,-2.27943,-0.0670715,-0.861286,25635,0,0,0,0
7807,0,0,0,0,0,69.465,-19.6137,2.73306,2.35773,69.465,-19.6137,5,0,-1.5,0,0,0.027306,0.183896,-2.27947,-0.0670715,-0.861286,25635,0,0,0,0
7822,0,0,0,0,0,70.3936,-18.8109,2.73871,2.36442,70.3936,-18.8109,5,0,-1.5,0,0,0.0272098,0.183923,-2.27961,-0.0662132,-0.861353,25635,0,0,0,0
7838,0,0,0,0,0,70.3936,-18.8109,2.73871,2.36442,70.3936,-18.8109,5,0,-1.5,0,0,0.0272233,0.18393,-2.27966,-0.0662132,-0.861353,25635,0,0,0,0
7854,0,0,0,0,0,70.3936,-18.8109,2.73871,2.36442,70.3936,-18.8109,5,0,-1.5,0,0,0.0272738,0.183945,-2.27968,-0.0662132,-0.861353,25635,0,0,0,0
7870,0,0,0,0,0,70.3936,-18.8109,2.73871,2.36442,70.3936,-18.8109,5,0,-1.5,0,0,0.0273011,0.183953,-2.2797,-0.0662132,-0.861353,25635,0,0,0,0
7886,0,0,0,0,0,70.3936,-18.8109,2.73871,2.36442,70.3936,-18.8109,5,0,-1.5,0,0,0.0272799,0.183966,-2.27977,-0.0662132,-0.861353,25635,0,0,0,0
7902,0,0,0,0,0,70.3936,-18.8109,2.73871,2.36442,70.3936,-18.8109,5,0,-1.5,0,0,0.0272288,0.183989,-2.27982,-0.0662132,-0.861353,25635,0,0,0,0
7918,0,0,0,0,0,70.3936,-18.8109,2.73871,2.36442,70.3936,-18.8109,5,0,-1.5,0,0,0.0271668,0.184011,-2.27991,-0.0662132,-0.861353,25635,0,0,0,0
7934,0,0,0,0,0,70.3936,-18.8109,2.73871,2.36442,70.3936,-18.8109,5,0,-1.5,0,0,0.0271668,0.184011,-2.27991,-0.0662132,-0.861353,25635,0,0,0,0
7950,0,0,0,0,0,70.8603,-18.4087,2.74148,2.36756,70.8603,-18.4087,5,0,-1.5,0,0,0.0272592,0.184047,-2.27994,-0.0658275,-0.861382,25635,0,0,0,0
7965,0,0,0,0,0,70.8603,-18.4087,2.74148,2.36756,70.8603,-18.4087,5,0,-1.5,0,0,0.0272517,0.184066,-2.27998,-0.0658275,-0.861382,25635,0,0,0,0
7982,0,0,0,0,0,70.8603,-18.4087,2.74148,2.36756,70.8603,-18.4087,5,0,-1.5,0,0,0.0272242,0.18407,-2.28003,-0.0658275,-0.861382,25635,0,0,0,0
7996,0,0,0,0,0,70.8603,-18.4087,2.74148,2.36756,70.8603,-18.4087,5,0,-1.5,0,0,0.0271805,0.184083,-2.28009,-0.0658275,-0.861382,25635,0,0,0,0
8011,0,0,0,0,0,70.8603,-18.4087,2.74148,2.36756,70.8603,-18.4087,5,0,-1.5,0,0,0.0271805,0.184083,-2.28009,-0.0658275,-0.861382,25635,0,0,0,0
8026,0,0,0,0,0,70.8603,-18.4087,2.74148,2.36756,70.8603,-18.4087,5,0,-1.5,0,0,0.0271593,0.184122,-2.28016,-0.0658275,-0.861382,25635,0,0,0,0
8042,0,0,0,0,0,70.8603,-18.4087,2.74148,2.36756,70.8603,-18.4087,5,0,-1.5,0,0,0.0272164,0.184137,-2.28023,-0.0658275,-0.861382,25635,0,0,0,0
8057,0,0,0,0,0,70.8603,-18.4087,2.74148,2.36756,70.8603,-18.4087,5,0,-1.5,0,0,0.0272082,0.184153,-2.28027,-0.0658275,-0.861382,25635,0,0,0,0
8073,0,0,0,0,0,70.8603,-18.4087,2.74148,2.36756,70.8603,-18.4087,5,0,-1.5,0,0,0.0272082,0.184153,-2.28027,-0.0658275,-0.861382,25635,0,0,0,0
8089,0,0,0,0,0,71.3272,-18.006,2.74422,2.37056,71.3272,-18.006,5,0,-1.5,0,0,0.027151,0.184192,-2.28037,-0.0654828,-0.861409,25635,0,0,0,0
8105,0,0,0,0,0,71.3272,-18.006,2.74422,2.37056,71.3272,-18.006,5,0,-1.5,0,0,0.0271396,0.184191,-2.28041,-0.0654828,-0.861409,25635,0,0,0,0
8121,0,0,0,0,0,71.3272,-18.006,2.74422,2.37056,71.3272,-18.006,5,0,-1.5,0,0,0.0271509,0.18419,-2.28045,-0.0654828,-0.861409,25635,0,0,0,0
8137,0,0,0,0,0,71.3272,-18.006,2.74422,2.37056,71.3272,-18.006,5,0,-1.5,0,0,0.0271675,0.184211,-2.2805,-0.0654828,-0.861409,25635,0,0,0,0
8153,0,0,0,0,0,71.3272,-18.006,2.74422,2.37056,71.3272,-18.006,5,0,-1.5,0,0,0.0271614,0.184209,-2.2806,-0.0654828,-0.861409,25635,0,0,0,0
8169,0,0,0,0,0,71.3272,-18.006,2.74422,2.37056,71.3272,-18.006,5,0,-1.5,0,0,0.027166,0.184216,-2.28063,-0.0654828,-0.861409,25635,0,0,0,0
8184,0,0,0,0,0,71.3272,-18.006,2.74422,2.37056,71.3272,-18.006,5,0,-1.5,0,0,0.0271586,0.184213,-2.28068,-0.0654828,-0.861409,25635,0,0,0,0
8201,0,0,0,0,0,71.3272,-18.006,2.74422,2.37056,71.3272,-18.006,5,0,-1.5,0,0,0.0271699,0.184235,-2.28072,-0.0654828,-0.861409,25635,0,0,0,0
8216,0,0,0,0,0,71.3272,-18.006,2.74422,2.37056,71.3272,-18.006,5,0,-1.5,0,0,0.0271531,0.184256,-2.28077,-0.0654828,-0.861409,25635,0,0,0,0
8232,0,0,0,0,0,71.7942,-17.6027,2.74687,2.3734,71.7942,-17.6027,5,0,-1.5,0,0,0.0271057,0.184252,-2.28082,-0.0650943,-0.861438,25635,0,0,0,0
8248,0,0,0,0,0,71.7942,-17.6027,2.74687,2.3734,71.7942,-17.6027,5,0,-1.5,0,0,0.0271057,0.184252,-2.28082,-0.0650943,-0.861438,25635,0,0,0,0
8264,0,0,0,0,0,71.7942,-17.6027,2.74687,2.3734,71.7942,-17.6027,5,0,-1.5,0,0,0.0271233,0.184269,-2.28093,-0.0650943,-0.861438,25635,0,0,0,0
8279,0,0,0,0,0,71.7942,-17.6027,2.74687,2.3734,71.7942,-17.6027,5,0,-1.5,0,0,0.027158,0.184286,-2.28095,-0.0650943,-0.861438,25635,0,0,0,0
8295,0,0,0,0,0,71.7942,-17.6027,2.74687,2.3734,71.7942,-17.6027,5,0,-1.5,0,0,0.0271734,0.184299,-2.28098,-0.0650943,-0.861438,25635,0,0,0,0
8311,0,0,0,0,0,71.7942,-17.6027,2.74687,2.3734,71.7942,-17.6027,5,0,-1.5,0,0,0.0271522,0.184319,-2.28102,-0.0650943,-0.861438,25635,0,0,0,0
8327,0,0,0,0,0,71.7942,-17.6027,2.74687,2.3734,71.7942,-17.6027,5,0,-1.5,0,0,0.0271034,0.184324,-2.28108,-0.0650943,-0.861438,25635,0,0,0,0
8343,0,0,0,0,0,71.7942,-17.6027,2.74687,2.3734,71.7942,-17.6027,5,0,-1.5,0,0,0.0270552,0.18433,-2.28114,-0.0650943,-0.861438,25635,0,0,0,0
8358,0,0,0,0,0,71.7942,-17.6027,2.74687,2.3734,71.7942,-17.6027,5,0,-1.5,0,0,0.0270434,0.184339,-2.28119,-0.0650943,-0.861438,25635,0,0,0,0
8374,0,0,0,0,0,72.2611,-17.199,2.74942,2.37607,72.2611,-17.199,5,0,-1.5,0,0,0.0271282,0.184355,-2.28124,-0.0647348,-0.861465,25635,0,0,0,0
8390,0,0,0,0,0,72.2611,-17.199,2.74942,2.37607,72.2611,-17.199,5,0,-1.5,0,0,0.0268555,0.184326,-2.28125,-0.0647348,-0.861465,25635,0,0,0,0
8406,0,0,0,0,0,72.2611,-17.199,2.74942,2.37607,72.2611,-17.199,5,0,-1.5,0,0,0.0268555,0.184326,-2.28125,-0.0647348,-0.861465,25635,0,0,0,0
8422,0,0,0,0,0,72.2611,-17.199,2.74942,2.37607,72.2611,-17.199,5,0,-1.5,0,0,0.0268555,0.184326,-2.28125,-0.0647348,-0.861465,25635,0,0,0,0
8438,0,0,0,0,0,72.2611,-17.199,2.74942,2.37607,72.2611,-17.199,5,0,-1.5,0,0,0.0270549,0.184386,-2.28144,-0.0647348,-0.861465,25635,0,0,0,0
8453,0,0,0,0,0,72.2611,-17.199,2.74942,2.37607,72.2611,-17.199,5,0,-1.5,0,0,0.0270352,0.184404,-2.2815,-0.0647348,-0.861465,25635,0,0,0,0
8468,0,0,0,0,0,72.2611,-17.199,2.74942,2.37607,72.2611,-17.199,5,0,-1.5,0,0,0.0270103,0.184404,-2.28153,-0.0647348,-0.861465,25635,0,0,0,0
8483,0,0,0,0,0,72.2611,-17.199,2.74942,2.37607,72.2611,-17.199,5,0,-1.5,0,0,0.0269641,0.184406,-2.28159,-0.0647348,-0.861465,25635,0,0,0,0
8498,0,0,0,0,0,72.728,-16.795,2.75186,2.37859,72.728,-16.795,5,0,-1.5,0,0,0.0269334,0.184407,-2.28163,-0.0643546,-0.861494,25635,0,0,0,0
8513,0,0,0,0,0,72.728,-16.795,2.75186,2.37859,72.728,-16.795,5,0,-1.5,0,0,0.0269334,0.184407,-2.28163,-0.0643546,-0.861494,25635,0,0,0,0
8529,0,0,0,0,0,72.728,-16.795,2.75186,2.37859,72.728,-16.795,5,0,-1.5,0,0,0.026924,0.184459,-2.28177,-0.0643546,-0.861494,25635,0,0,0,0
8545,0,0,0,0,0,72.728,-16.795,2.75186,2.37859,72.728,-16.795,5,0,-1.5,0,0,0.026937,0.184465,-2.28181,-0.0643546,-0.861494,25635,0,0,0,0
8560,0,0,0,0,0,72.728,-16.795,2.75186,2.37859,72.728,-16.795,5,0,-1.5,0,0,0.0269411,0.184476,-2.28185,-0.0643546,-0.861494,25635,0,0,0,0
8576,0,0,0,0,0,72.728,-16.795,2.75186,2.37859,72.728,-16.795,5,0,-1.5,0,0,0.0269265,0.184489,-2.2819,-0.0643546,-0.861494,25635,0,0,0,0
8592,0,0,0,0,0,72.728,-16.795,2.75186,2.37859,72.728,-16.795,5,0,-1.5,0,0,0.0268957,0.184502,-2.28197,-0.0643546,-0.861494,25635,0,0,0,0
8608,0,0,0,0,0,72.728,-16.795,2.75186,2.37859,72.728,-16.795,5,0,-1.5,0,0,0.0269032,0.184514,-2.28204,-0.0643546,-0.861494,25635,0,0,0,0
8623,0,0,0,0,0,72.728,-16.795,2.75186,2.37859,72.728,-16.795,5,0,-1.5,0,0,0.0269032,0.184514,-2.28204,-0.0643546,-0.861494,25635,0,0,0,0
8639,0,0,0,0,0,73.1949,-16.3903,2.75413,2.38106,73.1949,-16.3903,5,0,-1.5,0,0,0.0269176,0.184539,-2.28209,-0.0639607,-0.861523,25635,0,0,0,0
8655,0,0,0,0,0,73.1949,-16.3903,2.75413,2.38106,73.1949,-16.3903,5,0,-1.5,0,0,0.0269205,0.184575,-2.28217,-0.0639607,-0.861523,25635,0,0,0,0
8671,0,0,0,0,0,73.1949,-16.3903,2.75413,2.38106,73.1949,-16.3903,5,0,-1.5,0,0,0.0268835,0.184568,-2.28223,-0.0639607,-0.861523,25635,0,0,0,0
8686,0,0,0,0,0,73.1949,-16.3903,2.75413,2.38106,73.1949,-16.3903,5,0,-1.5,0,0,0.0268752,0.184588,-2.28227,-0.0639607,-0.861523,25635,0,0,0,0
8702,0,0,0,0,0,73.1949,-16.3903,2.75413,2.38106,73.1949,-16.3903,5,0,-1.5,0,0,0.026874,0.184609,-2.28232,-0.0639607,-0.861523,25635,0,0,0,0
8718,0,0,0,0,0,73.1949,-16.3903,2.75413,2.38106,73.1949,-16.3903,5,0,-1.5,0,0,0.0269043,0.184616,-2.28238,-0.0639607,-0.861523,25635,0,0,0,0
8734,0,0,0,0,0,73.1949,-16.3903,2.75413,2.38106,73.1949,-16.3903,5,0,-1.5,0,0,0.0269131,0.184632,-2.28242,-0.0639607,-0.861523,25635,0,0,0,0
8749,0,0,0,0,0,73.1949,-16.3903,2.75413,2.38106,73.1949,-16.3903,5,0,-1.5,0,0,0.0268938,0.184661,-2.28246,-0.0639607,-0.861523,25635,0,0,0,0
8765,0,0,0,0,0,73.1949,-16.3903,2.75413,2.38106,73.1949,-16.3903,5,0,-1.5,0,0,0.0268654,0.184679,-2.2825,-0.0639607,-0.861523,25635,0,0,0,0
8784,0,0,0,0,0,73.1949,-16.3903,2.75413,2.38106,73.1949,-16.3903,5,0,-1.5,0,0,0.0268654,0.184679,-2.2825,-0.0639607,-0.861523,25635,0,0,0,0
8799,0,0,0,0,0,73.1949,-16.3903,2.75413,2.38106,73.1949,-16.3903,5,0,-1.5,0,0,0.0268452,0.184678,-2.28259,-0.0639607,-0.861523,25635,0,0,0,0
8815,0,0,0,0,0,73.1949,-16.3903,2.75413,2.38106,73.1949,-16.3903,5,0,-1.5,0,0,0.0268452,0.184678,-2.28259,-0.0639607,-0.861523,25635,0,0,0,0
8831,0,0,0,0,0,73.1949,-16.3903,2.75413,2.38106,73.1949,-16.3903,5,0,-1.5,0,0,0.0268452,0.184678,-2.28259,-0.0639607,-0.861523,25635,0,0,0,0
8846,0,0,0,0,0,73.1949,-16.3903,2.75413,2.38106,73.1949,-16.3903,5,0,-1.5,0,0,0.0268693,0.184732,-2.28273,-0.0639607,-0.861523,25635,0,0,0,0
8862,0,0,0,0,0,73.1949,-16.3903,2.75413,2.38106,73.1949,-16.3903,5,0,-1.5,0,0,0.0268454,0.184747,-2.28277,-0.0639607,-0.861523,25635,0,0,0,0
8878,0,0,0,0,0,73.1949,-16.3903,2.75413,2.38106,73.1949,-16.3903,5,0,-1.5,0,0,0.0268455,0.184745,-2.28279,-0.0639607,-0.861523,25635,0,0,0,0
8894,0,0,0,0,0,73.1949,-16.3903,2.75413,2.38106,73.1949,-16.3903,5,0,-1.5,0,0,0.0268656,0.184753,-2.28281,-0.0639607,-0.861523,25635,0,0,0,0
8909,0,0,0,0,0,73.1949,-16.3903,2.75413,2.38106,73.1949,-16.3903,5,0,-1.5,0,0,0.0269103,0.184778,-2.28284,-0.0639607,-0.861523,25635,0,0,0,0
8924,0,0,0,0,0,74.1339,-15.5799,2.75869,2.38564,74.1339,-15.5799,5,0,-1.5,0,0,0.0269209,0.184807,-2.28288,-0.0633159,-0.861571,25635,0,0,0,0
8939,0,0,0,0,0,74.1339,-15.5799,2.75869,2.38564,74.1339,-15.5799,5,0,-1.5,0,0,0.0268569,0.184826,-2.28293,-0.0633159,-0.861571,25635,0,0,0,0
8954,0,0,0,0,0,74.1339,-15.5799,2.75869,2.38564,74.1339,-15.5799,5,0,-1.5,0,0,0.0267453,0.184837,-2.28305,-0.0633159,-0.861571,25635,0,0,0,0
8970,0,0,0,0,0,74.1339,-15.5799,2.75869,2.38564,74.1339,-15.5799,5,0,-1.5,0,0,0.0267881,0.184845,-2.28309,-0.0633159,-0.861571,25635,0,0,0,0
8985,0,0,0,0,0,74.1339,-15.5799,2.75869,2.38564,74.1339,-15.5799,5,0,-1.5,0,0,0.0268772,0.184869,-2.2831,-0.0633159,-0.861571,25635,0,0,0,0
9001,0,0,0,0,0,74.1339,-15.5799,2.75869,2.38564,74.1339,-15.5799,5,0,-1.5,0,0,0.0269304,0.1849,-2.28312,-0.0633159,-0.861571,25635,0,0,0,0
9017,0,0,0,0,0,74.1339,-15.5799,2.75869,2.38564,74.1339,-15.5799,5,0,-1.5,0,0,0.0269548,0.18496,-2.28317,-0.0633159,-0.861571,25635,0,0,0,0
9033,0,0,0,0,0,74.1339,-15.5799,2.75869,2.38564,74.1339,-15.5799,5,0,-1.5,0,0,0.0269235,0.184976,-2.28323,-0.0633159,-0.861571,25635,0,0,0,0
9049,0,0,0,0,0,74.6034,-15.1742,2.76101,2.3878,74.6034,-15.1742,5,0,-1.5,0,0,0.0268517,0.18496,-2.28327,-0.06294,-0.861598,25635,0,0,0,0
9065,0,0,0,0,0,74.6034,-15.1742,2.76101,2.3878,74.6034,-15.1742,5,0,-1.5,0,0,0.0268194,0.184982,-2.28336,-0.06294,-0.861598,25635,0,0,0,0
9080,0,0,0,0,0,74.6034,-15.1742,2.76101,2.3878,74.6034,-15.1742,5,0,-1.5,0,0,0.0268742,0.185009,-2.2834,-0.06294,-0.861598,25635,0,0,0,0
9096,0,0,0,0,0,74.6034,-15.1742,2.76101,2.3878,74.6034,-15.1742,5,0,-1.5,0,0,0.0269193,0.185026,-2.28343,-0.06294,-0.861598,25635,0,0,0,0
9112,0,0,0,0,0,74.6034,-15.1742,2.76101,2.3878,74.6034,-15.1742,5,0,-1.5,0,0,0.0269075,0.185033,-2.28347,-0.06294,-0.861598,25635,0,0,0,0
9128,0,0,0,0,0,74.6034,-15.1742,2.76101,2.3878,74.6034,-15.1742,5,0,-1.5,0,0,0.0268466,0.185044,-2.28353,-0.06294,-0.861598,25635,0,0,0,0
9144,0,0,0,0,0,74.6034,-15.1742,2.76101,2.3878,74.6034,-15.1742,5,0,-1.5,0,0,0.0268466,0.185044,-2.28353,-0.06294,-0.861598,25635,0,0,0,0
9159,0,0,0,0,0,74.6034,-15.1742,2.76101,2.3878,74.6034,-15.1742,5,0,-1.5,0,0,0.0268019,0.185052,-2.28361,-0.06294,-0.861598,25635,0,0,0,0
9175,0,0,0,0,0,74.6034,-15.1742,2.76101,2.3878,74.6034,-15.1742,5,0,-1.5,0,0,0.0268417,0.185063,-2.28363,-0.06294,-0.861598,25635,0,0,0,0
9191,0,0,0,0,0,75.0729,-14.7681,2.76334,2.3899,75.0729,-14.7681,5,0,-1.5,0,0,0.0268655,0.185088,-2.28371,-0.0626027,-0.861623,25635,0,0,0,0
9207,0,0,0,0,0,75.0729,-14.7681,2.76334,2.3899,75.0729,-14.7681,5,0,-1.5,0,0,0.0268655,0.185088,-2.28371,-0.0626027,-0.861623,25635,0,0,0,0
9223,0,0,0,0,0,75.0729,-14.7681,2.76334,2.3899,75.0729,-14.7681,5,0,-1.5,0,0,0.0268655,0.185088,-2.28371,-0.0626027,-0.861623,25635,0,0,0,0
9239,0,0,0,0,0,75.0729,-14.7681,2.76334,2.3899,75.0729,-14.7681,5,0,-1.5,0,0,0.0267904,0.185104,-2.28383,-0.0626027,-0.861623,25635,0,0,0,0
9255,0,0,0,0,0,75.0729,-14.7681,2.76334,2.3899,75.0729,-14.7681,5,0,-1.5,0,0,0.0268505,0.185108,-2.28385,-0.0626027,-0.861623,25635,0,0,0,0
9271,0,0,0,0,0,75.0729,-14.7681,2.76334,2.3899,75.0729,-14.7681,5,0,-1.5,0,0,0.0268818,0.185135,-2.2839,-0.0626027,-0.861623,25635,0,0,0,0
9287,0,0,0,0,0,75.0729,-14.7681,2.76334,2.3899,75.0729,-14.7681,5,0,-1.5,0,0,0.0268346,0.185164,-2.28395,-0.0626027,-0.861623,25635,0,0,0,0
9302,0,0,0,0,0,75.0729,-14.7681,2.76334,2.3899,75.0729,-14.7681,5,0,-1.5,0,0,0.0267772,0.185178,-2.28401,-0.0626027,-0.861623,25635,0,0,0,0
9318,0,0,0,0,0,75.0729,-14.7681,2.76334,2.3899,75.0729,-14.7681,5,0,-1.5,0,0,0.0267628,0.185174,-2.28405,-0.0626027,-0.861623,25635,0,0,0,0
9335,0,0,0,0,0,75.5424,-14.3616,2.76566,2.39188,75.5424,-14.3616,5,0,-1.5,0,0,0.0267706,0.185179,-2.28407,-0.062275,-0.861646,25635,0,0,0,0
9350,0,0,0,0,0,75.5424,-14.3616,2.76566,2.39188,75.5424,-14.3616,5,0,-1.5,0,0,0.02681,0.185204,-2.28411,-0.062275,-0.861646,25635,0,0,0,0
9367,0,0,0,0,0,75.5424,-14.3616,2.76566,2.39188,75.5424,-14.3616,5,0,-1.5,0,0,0.0268273,0.185223,-2.28416,-0.062275,-0.861646,25635,0,0,0,0
9381,0,0,0,0,0,75.5424,-14.3616,2.76566,2.39188,75.5424,-14.3616,5,0,-1.5,0,0,0.0267806,0.185228,-2.28424,-0.062275,-0.861646,25635,0,0,0,0
9396,0,0,0,0,0,75.5424,-14.3616,2.76566,2.39188,75.5424,-14.3616,5,0,-1.5,0,0,0.0267517,0.185239,-2.28428,-0.062275,-0.861646,25635,0,0,0,0
9411,0,0,0,0,0,75.5424,-14.3616,2.76566,2.39188,75.5424,-14.3616,5,0,-1.5,0,0,0.0267532,0.185256,-2.28433,-0.062275,-0.861646,25635,0,0,0,0
9426,0,0,0,0,0,75.5424,-14.3616,2.76566,2.39188,75.5424,-14.3616,5,0,-1.5,0,0,0.0267817,0.185272,-2.28436,-0.062275,-0.861646,25635,0,0,0,0
9442,0,0,0,0,0,75.5424,-14.3616,2.76566,2.39188,75.5424,-14.3616,5,0,-1.5,0,0,0.026802,0.185286,-2.28439,-0.062275,-0.861646,25635,0,0,0,0
9458,0,0,0,0,0,75.5424,-14.3616,2.76566,2.39188,75.5424,-14.3616,5,0,-1.5,0,0,0.0268079,0.185308,-2.28443,-0.062275,-0.861646,25635,0,0,0,0
9474,0,0,0,0,0,76.0119,-13.9548,2.76792,2.3938,76.0119,-13.9548,5,0,-1.5,0,0,0.0267804,0.185329,-2.28447,-0.0619476,-0.86167,25635,0,0,0,0
9490,0,0,0,0,0,76.0119,-13.9548,2.76792,2.3938,76.0119,-13.9548,5,0,-1.5,0,0,0.0267536,0.185339,-2.28453,-0.0619476,-0.86167,25635,0,0,0,0
9506,0,0,0,0,0,76.0119,-13.9548,2.76792,2.3938,76.0119,-13.9548,5,0,-1.5,0,0,0.0267653,0.185339,-2.28459,-0.0619476,-0.86167,25635,0,0,0,0
9521,0,0,0,0,0,76.0119,-13.9548,2.76792,2.3938,76.0119,-13.9548,5,0,-1.5,0,0,0.0267753,0.185352,-2.28463,-0.0619476,-0.86167,25635,0,0,0,0
9538,0,0,0,0,0,76.0119,-13.9548,2.76792,2.3938,76.0119,-13.9548,5,0,-1.5,0,0,0.026759,0.185369,-2.28468,-0.0619476,-0.86167,25635,0,0,0,0
9553,0,0,0,0,0,76.0119,-13.9548,2.76792,2.3938,76.0119,-13.9548,5,0,-1.5,0,0,0.0267383,0.185381,-2.28473,-0.0619476,-0.86167,25635,0,0,0,0
9569,0,0,0,0,0,76.0119,-13.9548,2.76792,2.3938,76.0119,-13.9548,5,0,-1.5,0,0,0.0267125,0.185376,-2.28478,-0.0619476,-0.86167,25635,0,0,0,0
9585,0,0,0,0,0,76.0119,-13.9548,2.76792,2.3938,76.0119,-13.9548,5,0,-1.5,0,0,0.0267077,0.185388,-2.28481,-0.0619476,-0.86167,25635,0,0,0,0
9601,0,0,0,0,0,76.4822,-13.5477,2.77017,2.39566,76.4822,-13.5477,5,0,-1.5,0,0,0.026715,0.185414,-2.28486,-0.06157,-0.861697,25635,0,0,0,0
9617,0,0,0,0,0,76.4822,-13.5477,2.77017,2.39566,76.4822,-13.5477,5,0,-1.5,0,0,0.026715,0.185414,-2.28486,-0.06157,-0.861697,25635,0,0,0,0
9633,0,0,0,0,0,76.4822,-13.5477,2.77017,2.39566,76.4822,-13.5477,5,0,-1.5,0,0,0.0267597,0.185407,-2.28494,-0.06157,-0.861697,25635,0,0,0,0
9648,0,0,0,0,0,76.4822,-13.5477,2.77017,2.39566,76.4822,-13.5477,5,0,-1.5,0,0,0.0267711,0.185434,-2.28497,-0.06157,-0.861697,25635,0,0,0,0
9664,0,0,0,0,0,76.4822,-13.5477,2.77017,2.39566,76.4822,-13.5477,5,0,-1.5,0,0,0.0267191,0.185447,-2.28504,-0.06157,-0.861697,25635,0,0,0,0
9680,0,0,0,0,0,76.4822,-13.5477,2.77017,2.39566,76.4822,-13.5477,5,0,-1.5,0,0,0.0266433,0.185453,-2.28509,-0.06157,-0.861697,25635,0,0,0,0
9695,0,0,0,0,0,76.4822,-13.5477,2.77017,2.39566,76.4822,-13.5477,5,0,-1.5,0,0,0.0265914,0.185451,-2.28514,-0.06157,-0.861697,25635,0,0,0,0
9712,0,0,0,0,0,76.4822,-13.5477,2.77017,2.39566,76.4822,-13.5477,5,0,-1.5,0,0,0.0265914,0.185451,-2.28514,-0.06157,-0.861697,25635,0,0,0,0
9727,0,0,0,0,0,76.4822,-13.5477,2.77017,2.39566,76.4822,-13.5477,5,0,-1.5,0,0,0.026688,0.18549,-2.2852,-0.06157,-0.861697,25635,0,0,0,0
9743,0,0,0,0,0,76.9544,-13.1403,2.77234,2.39744,76.9544,-13.1403,5,0,-1.5,0,0,0.0267725,0.185487,-2.28523,-0.0612731,-0.861718,25635,0,0,0,0
9759,0,0,0,0,0,76.9544,-13.1403,2.77234,2.39744,76.9544,-13.1403,5,0,-1.5,0,0,0.0267349,0.185497,-2.28527,-0.0612731,-0.861718,25635,0,0,0,0
9775,0,0,0,0,0,76.9544,-13.1403,2.77234,2.39744,76.9544,-13.1403,5,0,-1.5,0,0,0.0267349,0.185497,-2.28527,-0.0612731,-0.861718,25635,0,0,0,0
9790,0,0,0,0,0,76.9544,-13.1403,2.77234,2.39744,76.9544,-13.1403,5,0,-1.5,0,0,0.0267349,0.185497,-2.28527,-0.0612731,-0.861718,25635,0,0,0,0
9807,0,0,0,0,0,76.9544,-13.1403,2.77234,2.39744,76.9544,-13.1403,5,0,-1.5,0,0,0.0267349,0.185497,-2.28527,-0.0612731,-0.861718,25635,0,0,0,0
9823,0,0,0,0,0,76.9544,-13.1403,2.77234,2.39744,76.9544,-13.1403,5,0,-1.5,0,0,0.0267407,0.185563,-2.28545,-0.0612731,-0.861718,25635,0,0,0,0
9838,0,0,0,0,0,76.9544,-13.1403,2.77234,2.39744,76.9544,-13.1403,5,0,-1.5,0,0,0.0267432,0.185592,-2.28549,-0.0612731,-0.861718,25635,0,0,0,0
9853,0,0,0,0,0,76.9544,-13.1403,2.77234,2.39744,76.9544,-13.1403,5,0,-1.5,0,0,0.0267015,0.185606,-2.28554,-0.0612731,-0.861718,25635,0,0,0,0
9868,0,0,0,0,0,76.9544,-13.1403,2.77234,2.39744,76.9544,-13.1403,5,0,-1.5,0,0,0.0267015,0.185606,-2.28554,-0.0612731,-0.861718,25635,0,0,0,0
9883,0,0,0,0,0,77.4265,-12.7326,2.77452,2.3991,77.4265,-12.7326,5,0,-1.5,0,0,0.0266474,0.185613,-2.28563,-0.0609467,-0.861741,25635,0,0,0,0
9898,0,0,0,0,0,77.4265,-12.7326,2.77452,2.3991,77.4265,-12.7326,5,0,-1.5,0,0,0.0266886,0.185626,-2.28566,-0.0609467,-0.861741,25635,0,0,0,0
10001,0,0,0,0,0,77.4265,-12.7326,2.77452,2.3991,77.4265,-12.7326,5,0,-1.5,0,0,0.0267293,0.185678,-2.28593,-0.0609467,-0.861741,25635,0,0,0,0
10031,0,0,0,0,0,77.8986,-12.3246,2.77672,2.40067,77.8986,-12.3246,5,0,-1.5,0,0,0.0266992,0.185717,-2.28604,-0.0606311,-0.861764,25635,0,0,0,0
10074,0,0,0,0,0,77.8986,-12.3246,2.77672,2.40067,77.8986,-12.3246,5,0,-1.5,0,0,0.0266715,0.185758,-2.28615,-0.0606311,-0.861764,25635,0,0,0,0
10089,0,0,0,0,0,77.8986,-12.3246,2.77672,2.40067,77.8986,-12.3246,5,0,-1.5,0,0,0.0267099,0.18579,-2.28619,-0.0606311,-0.861764,25635,0,0,0,0
10105,0,0,0,0,0,77.8986,-12.3246,2.77672,2.40067,77.8986,-12.3246,5,0,-1.5,0,0,0.0267321,0.185809,-2.28619,-0.0606311,-0.861764,25635,0,0,0,0
10121,0,0,0,0,0,77.8986,-12.3246,2.77672,2.40067,77.8986,-12.3246,5,0,-1.5,0,0,0.0267018,0.185816,-2.28623,-0.0606311,-0.861764,25635,0,0,0,0
10137,0,0,0,0,0,77.8986,-12.3246,2.77672,2.40067,77.8986,-12.3246,5,0,-1.5,0,0,0.0266611,0.185822,-2.28626,-0.0606311,-0.861764,25635,0,0,0,0
10152,0,0,0,0,0,78.3707,-11.9164,2.77891,2.40219,78.3707,-11.9164,5,0,-1.5,0,0,0.0266532,0.18583,-2.28629,-0.0603393,-0.861784,25635,0,0,0,0
10168,0,0,0,0,0,78.3707,-11.9164,2.77891,2.40219,78.3707,-11.9164,5,0,-1.5,0,0,0.0266627,0.185841,-2.28631,-0.0603393,-0.861784,25635,0,0,0,0
10184,0,0,0,0,0,78.3707,-11.9164,2.77891,2.40219,78.3707,-11.9164,5,0,-1.5,0,0,0.0267055,0.18585,-2.28637,-0.0603393,-0.861784,25635,0,0,0,0
10200,0,0,0,0,0,78.3707,-11.9164,2.77891,2.40219,78.3707,-11.9164,5,0,-1.5,0,0,0.0266825,0.185849,-2.28642,-0.0603393,-0.861784,25635,0,0,0,0
10215,0,0,0,0,0,78.3707,-11.9164,2.77891,2.40219,78.3707,-11.9164,5,0,-1.5,0,0,0.0266713,0.185862,-2.28647,-0.0603393,-0.861784,25635,0,0,0,0
10231,0,0,0,0,0,78.3707,-11.9164,2.77891,2.40219,78.3707,-11.9164,5,0,-1.5,0,0,0.0266534,0.185868,-2.28651,-0.0603393,-0.861784,25635,0,0,0,0
10247,0,0,0,0,0,78.3707,-11.9164,2.77891,2.40219,78.3707,-11.9164,5,0,-1.5,0,0,0.0266529,0.18588,-2.28654,-0.0603393,-0.861784,25635,0,0,0,0
10263,0,0,0,0,0,78.3707,-11.9164,2.77891,2.40219,78.3707,-11.9164,5,0,-1.5,0,0,0.0266733,0.185892,-2.28657,-0.0603393,-0.861784,25635,0,0,0,0
10278,0,0,0,0,0,78.3707,-11.9164,2.77891,2.40219,78.3707,-11.9164,5,0,-1.5,0,0,0.0266733,0.185892,-2.28657,-0.0603393,-0.861784,25635,0,0,0,0
10294,0,0,0,0,0,78.8428,-11.5079,2.78108,2.40366,78.8428,-11.5079,5,0,-1.5,0,0,0.0266873,0.185926,-2.28663,-0.0600475,-0.861804,25635,0,0,0,0
10310,0,0,0,0,0,78.8428,-11.5079,2.78108,2.40366,78.8428,-11.5079,5,0,-1.5,0,0,0.0266873,0.185926,-2.28663,-0.0600475,-0.861804,25635,0,0,0,0
10326,0,0,0,0,0,78.8428,-11.5079,2.78108,2.40366,78.8428,-11.5079,5,0,-1.5,0,0,0.0266581,0.185978,-2.28674,-0.0600475,-0.861804,25635,0,0,0,0
10341,0,0,0,0,0,78.8428,-11.5079,2.78108,2.40366,78.8428,-11.5079,5,0,-1.5,0,0,0.0266581,0.185978,-2.28674,-0.0600475,-0.861804,25635,0,0,0,0
10357,0,0,0,0,0,78.8428,-11.5079,2.78108,2.40366,78.8428,-11.5079,5,0,-1.5,0,0,0.0266658,0.186029,-2.28683,-0.0600475,-0.861804,25635,0,0,0,0
10372,0,0,0,0,0,78.8428,-11.5079,2.78108,2.40366,78.8428,-11.5079,5,0,-1.5,0,0,0.0266779,0.186046,-2.28685,-0.0600475,-0.861804,25635,0,0,0,0
10388,0,0,0,0,0,78.8428,-11.5079,2.78108,2.40366,78.8428,-11.5079,5,0,-1.5,0,0,0.0266935,0.186045,-2.28688,-0.0600475,-0.861804,25635,0,0,0,0
10404,0,0,0,0,0,78.8428,-11.5079,2.78108,2.40366,78.8428,-11.5079,5,0,-1.5,0,0,0.0266823,0.186105,-2.28698,-0.0600475,-0.861804,25635,0,0,0,0
10419,0,0,0,0,0,78.8428,-11.5079,2.78108,2.40366,78.8428,-11.5079,5,0,-1.5,0,0,0.0266823,0.186105,-2.28698,-0.0600475,-0.861804,25635,0,0,0,0
10434,0,0,0,0,0,79.3149,-11.0991,2.7833,2.40512,79.3149,-11.0991,5,0,-1.5,0,0,0.0266059,0.186133,-2.2871,-0.0596896,-0.861829,25635,0,0,0,0
10449,0,0,0,0,0,79.3149,-11.0991,2.7833,2.40512,79.3149,-11.0991,5,0,-1.5,0,0,0.026634,0.186133,-2.28712,-0.0596896,-0.861829,25635,0,0,0,0
10464,0,0,0,0,0,79.3149,-11.0991,2.7833,2.40512,79.3149,-11.0991,5,0,-1.5,0,0,0.0266948,0.186142,-2.28713,-0.0596896,-0.861829,25635,0,0,0,0
10479,0,0,0,0,0,79.3149,-11.0991,2.7833,2.40512,79.3149,-11.0991,5,0,-1.5,0,0,0.026743,0.186154,-2.28715,-0.0596896,-0.861829,25635,0,0,0,0
10495,0,0,0,0,0,79.3149,-11.0991,2.7833,2.40512,79.3149,-11.0991,5,0,-1.5,0,0,0.0267579,0.18615,-2.28718,-0.0596896,-0.861829,25635,0,0,0,0
10511,0,0,0,0,0,79.3149,-11.0991,2.7833,2.40512,79.3149,-11.0991,5,0,-1.5,0,0,0.0267579,0.18615,-2.28718,-0.0596896,-0.861829,25635,0,0,0,0
10527,0,0,0,0,0,79.3149,-11.0991,2.7833,2.40512,79.3149,-11.0991,5,0,-1.5,0,0,0.0267579,0.18615,-2.28718,-0.0596896,-0.861829,25635,0,0,0,0
10543,0,0,0,0,0,79.3149,-11.0991,2.7833,2.40512,79.3149,-11.0991,5,0,-1.5,0,0,0.0266296,0.186202,-2.28736,-0.0596896,-0.861829,25635,0,0,0,0
10561,0,0,0,0,0,79.3149,-11.0991,2.7833,2.40512,79.3149,-11.0991,5,0,-1.5,0,0,0.0266775,0.186202,-2.28738,-0.0596896,-0.861829,25635,0,0,0,0
10577,0,0,0,0,0,79.788,-10.6902,2.78556,2.40653,79.788,-10.6902,5,0,-1.5,0,0,0.0267519,0.186213,-2.28739,-0.0594042,-0.861849,25635,0,0,0,0
10593,0,0,0,0,0,79.788,-10.6902,2.78556,2.40653,79.788,-10.6902,5,0,-1.5,0,0,0.0267552,0.186229,-2.28743,-0.0594042,-0.861849,25635,0,0,0,0
10609,0,0,0,0,0,79.788,-10.6902,2.78556,2.40653,79.788,-10.6902,5,0,-1.5,0,0,0.0267107,0.186236,-2.28749,-0.0594042,-0.861849,25635,0,0,0,0
10625,0,0,0,0,0,79.788,-10.6902,2.78556,2.40653,79.788,-10.6902,5,0,-1.5,0,0,0.026648,0.186235,-2.28756,-0.0594042,-0.861849,25635,0,0,0,0
10641,0,0,0,0,0,79.788,-10.6902,2.78556,2.40653,79.788,-10.6902,5,0,-1.5,0,0,0.0266731,0.186255,-2.28759,-0.0594042,-0.861849,25635,0,0,0,0
10657,0,0,0,0,0,79.788,-10.6902,2.78556,2.40653,79.788,-10.6902,5,0,-1.5,0,0,0.0267087,0.186284,-2.28762,-0.0594042,-0.861849,25635,0,0,0,0
10673,0,0,0,0,0,79.788,-10.6902,2.78556,2.40653,79.788,-10.6902,5,0,-1.5,0,0,0.0267134,0.186292,-2.28765,-0.0594042,-0.861849,25635,0,0,0,0
10689,0,0,0,0,0,79.788,-10.6902,2.78556,2.40653,79.788,-10.6902,5,0,-1.5,0,0,0.0266896,0.18629,-2.28769,-0.0594042,-0.861849,25635,0,0,0,0
10705,0,0,0,0,0,80.2627,-10.281,2.78782,2.40783,80.2627,-10.281,5,0,-1.5,0,0,0.026654,0.186285,-2.28773,-0.0590976,-0.86187,25635,0,0,0,0
10720,0,0,0,0,0,80.2627,-10.281,2.78782,2.40783,80.2627,-10.281,5,0,-1.5,0,0,0.0266369,0.186315,-2.28777,-0.0590976,-0.86187,25635,0,0,0,0
10736,0,0,0,0,0,80.2627,-10.281,2.78782,2.40783,80.2627,-10.281,5,0,-1.5,0,0,0.0266492,0.186333,-2.2878,-0.0590976,-0.86187,25635,0,0,0,0
10752,0,0,0,0,0,80.2627,-10.281,2.78782,2.40783,80.2627,-10.281,5,0,-1.5,0,0,0.0266492,0.186333,-2.2878,-0.0590976,-0.86187,25635,0,0,0,0
10768,0,0,0,0,0,80.2627,-10.281,2.78782,2.40783,80.2627,-10.281,5,0,-1.5,0,0,0.0266978,0.186345,-2.28788,-0.0590976,-0.86187,25635,0,0,0,0
10784,0,0,0,0,0,80.2627,-10.281,2.78782,2.40783,80.2627,-10.281,5,0,-1.5,0,0,0.0266549,0.186361,-2.28793,-0.0590976,-0.86187,25635,0,0,0,0
10799,0,0,0,0,0,80.2627,-10.281,2.78782,2.40783,80.2627,-10.281,5,0,-1.5,0,0,0.0266038,0.186361,-2.28799,-0.0590976,-0.86187,25635,0,0,0,0
10815,0,0,0,0,0,80.2627,-10.281,2.78782,2.40783,80.2627,-10.281,5,0,-1.5,0,0,0.0266146,0.186355,-2.28801,-0.0590976,-0.86187,25635,0,0,0,0
10831,0,0,0,0,0,80.2627,-10.281,2.78782,2.40783,80.2627,-10.281,5,0,-1.5,0,0,0.0266439,0.186367,-2.28802,-0.0590976,-0.86187,25635,0,0,0,0
10846,0,0,0,0,0,80.2627,-10.281,2.78782,2.40783,80.2627,-10.281,5,0,-1.5,0,0,0.0266816,0.186386,-2.28805,-0.0590976,-0.86187,25635,0,0,0,0
10862,0,0,0,0,0,80.7374,-9.87148,2.79003,2.4091,80.7374,-9.87148,5,0,-1.5,0,0,0.026663,0.186388,-2.28813,-0.0588223,-0.861889,25635,0,0,0,0
10877,0,0,0,0,0,80.7374,-9.87148,2.79003,2.4091,80.7374,-9.87148,5,0,-1.5,0,0,0.0266246,0.186393,-2.28818,-0.0588223,-0.861889,25635,0,0,0,0
10892,0,0,0,0,0,80.7374,-9.87148,2.79003,2.4091,80.7374,-9.87148,5,0,-1.5,0,0,0.0266104,0.186404,-2.28821,-0.0588223,-0.861889,25635,0,0,0,0
10907,0,0,0,0,0,80.7374,-9.87148,2.79003,2.4091,80.7374,-9.87148,5,0,-1.5,0,0,0.0266266,0.186428,-2.28827,-0.0588223,-0.861889,25635,0,0,0,0
10922,0,0,0,0,0,80.7374,-9.87148,2.79003,2.4091,80.7374,-9.87148,5,0,-1.5,0,0,0.0266412,0.186429,-2.28831,-0.0588223,-0.861889,25635,0,0,0,0
10938,0,0,0,0,0,80.7374,-9.87148,2.79003,2.4091,80.7374,-9.87148,5,0,-1.5,0,0,0.0266534,0.186427,-2.28833,-0.0588223,-0.861889,25635,0,0,0,0
10953,0,0,0,0,0,80.7374,-9.87148,2.79003,2.4091,80.7374,-9.87148,5,0,-1.5,0,0,0.0266474,0.186437,-2.28838,-0.0588223,-0.861889,25635,0,0,0,0
10969,0,0,0,0,0,80.7374,-9.87148,2.79003,2.4091,80.7374,-9.87148,5,0,-1.5,0,0,0.0266288,0.186446,-2.28843,-0.0588223,-0.861889,25635,0,0,0,0
10985,0,0,0,0,0,81.2121,-9.46185,2.7922,2.41029,81.2121,-9.46185,5,0,-1.5,0,0,0.0265572,0.186444,-2.28852,-0.058454,-0.861914,25635,0,0,0,0
11002,0,0,0,0,0,81.2121,-9.46185,2.7922,2.41029,81.2121,-9.46185,5,0,-1.5,0,0,0.0265724,0.186448,-2.28855,-0.058454,-0.861914,25635,0,0,0,0
11015,0,0,0,0,0,81.2121,-9.46185,2.7922,2.41029,81.2121,-9.46185,5,0,-1.5,0,0,0.0265967,0.18647,-2.28858,-0.058454,-0.861914,25635,0,0,0,0
11031,0,0,0,0,0,81.2121,-9.46185,2.7922,2.41029,81.2121,-9.46185,5,0,-1.5,0,0,0.0266054,0.186476,-2.28861,-0.058454,-0.861914,25635,0,0,0,0
11046,0,0,0,0,0,81.2121,-9.46185,2.7922,2.41029,81.2121,-9.46185,5,0,-1.5,0,0,0.0265869,0.186489,-2.28865,-0.058454,-0.861914,25635,0,0,0,0
11062,0,0,0,0,0,81.2121,-9.46185,2.7922,2.41029,81.2121,-9.46185,5,0,-1.5,0,0,0.0265723,0.186484,-2.28869,-0.058454,-0.861914,25635,0,0,0,0
11078,0,0,0,0,0,81.2121,-9.46185,2.7922,2.41029,81.2121,-9.46185,5,0,-1.5,0,0,0.0265723,0.186484,-2.28869,-0.058454,-0.861914,25635,0,0,0,0
11094,0,0,0,0,0,81.2121,-9.46185,2.7922,2.41029,81.2121,-9.46185,5,0,-1.5,0,0,0.0265795,0.186506,-2.28875,-0.058454,-0.861914,25635,0,0,0,0
11109,0,0,0,0,0,81.2121,-9.46185,2.7922,2.41029,81.2121,-9.46185,5,0,-1.5,0,0,0.026601,0.186531,-2.28879,-0.058454,-0.861914,25635,0,0,0,0
11125,0,0,0,0,0,81.6868,-9.052,2.79426,2.41144,81.6868,-9.052,5,0,-1.5,0,0,0.0265396,0.186558,-2.2889,-0.0581324,-0.861936,25635,0,0,0,0
11141,0,0,0,0,0,81.6868,-9.052,2.79426,2.41144,81.6868,-9.052,5,0,-1.5,0,0,0.0265283,0.186545,-2.28895,-0.0581324,-0.861936,25635,0,0,0,0
11157,0,0,0,0,0,81.6868,-9.052,2.79426,2.41144,81.6868,-9.052,5,0,-1.5,0,0,0.0265504,0.186556,-2.28899,-0.0581324,-0.861936,25635,0,0,0,0
11173,0,0,0,0,0,81.6868,-9.052,2.79426,2.41144,81.6868,-9.052,5,0,-1.5,0,0,0.0265992,0.186565,-2.289,-0.0581324,-0.861936,25635,0,0,0,0
11189,0,0,0,0,0,81.6868,-9.052,2.79426,2.41144,81.6868,-9.052,5,0,-1.5,0,0,0.0266546,0.186584,-2.28901,-0.0581324,-0.861936,25635,0,0,0,0
11205,0,0,0,0,0,81.6868,-9.052,2.79426,2.41144,81.6868,-9.052,5,0,-1.5,0,0,0.0265913,0.186605,-2.2891,-0.0581324,-0.861936,25635,0,0,0,0
11221,0,0,0,0,0,81.6868,-9.052,2.79426,2.41144,81.6868,-9.052,5,0,-1.5,0,0,0.0265197,0.186623,-2.28916,-0.0581324,-0.861936,25635,0,0,0,0
11237,0,0,0,0,0,81.6868,-9.052,2.79426,2.41144,81.6868,-9.052,5,0,-1.5,0,0,0.0264994,0.186632,-2.2892,-0.0581324,-0.861936,25635,0,0,0,0
11252,0,0,0,0,0,81.6868,-9.052,2.79426,2.41144,81.6868,-9.052,5,0,-1.5,0,0,0.0265307,0.186627,-2.28922,-0.0581324,-0.861936,25635,0,0,0,0
11268,0,0,0,0,0,82.1615,-8.64194,2.79632,2.41255,82.1615,-8.64194,5,0,-1.5,0,0,0.0265933,0.186631,-2.28922,-0.0578192,-0.861957,25635,0,0,0,0
11284,0,0,0,0,0,82.1615,-8.64194,2.79632,2.41255,82.1615,-8.64194,5,0,-1.5,0,0,0.0266221,0.186654,-2.28924,-0.0578192,-0.861957,25635,0,0,0,0
11299,0,0,0,0,0,82.1615,-8.64194,2.79632,2.41255,82.1615,-8.64194,5,0,-1.5,0,0,0.0263672,0.186523,-2.28906,-0.0578192,-0.861957,25635,0,0,0,0
11315,0,0,0,0,0,82.1615,-8.64194,2.79632,2.41255,82.1615,-8.64194,5,0,-1.5,0,0,0.0263672,0.186523,-2.28906,-0.0578192,-0.861957,25635,0,0,0,0
11331,0,0,0,0,0,82.1615,-8.64194,2.79632,2.41255,82.1615,-8.64194,5,0,-1.5,0,0,0.0265746,0.186672,-2.2894,-0.0578192,-0.861957,25635,0,0,0,0
11346,0,0,0,0,0,82.1615,-8.64194,2.79632,2.41255,82.1615,-8.64194,5,0,-1.5,0,0,0.0265999,0.186695,-2.28944,-0.0578192,-0.861957,25635,0,0,0,0
11360,0,0,0,0,0,82.1615,-8.64194,2.79632,2.41255,82.1615,-8.64194,5,0,-1.5,0,0,0.026627,0.186703,-2.28948,-0.0578192,-0.861957,25635,0,0,0,0
11375,0,0,0,0,0,82.1615,-8.64194,2.79632,2.41255,82.1615,-8.64194,5,0,-1.5,0,0,0.0266002,0.18671,-2.28951,-0.0578192,-0.861957,25635,0,0,0,0
11391,0,0,0,0,0,82.1615,-8.64194,2.79632,2.41255,82.1615,-8.64194,5,0,-1.5,0,0,0.0265556,0.186704,-2.28957,-0.0578192,-0.861957,25635,0,0,0,0
11407,0,0,0,0,0,82.6362,-8.23176,2.79839,2.41357,82.6362,-8.23176,5,0,-1.5,0,0,0.0265442,0.186705,-2.28962,-0.0575146,-0.861977,25635,0,0,0,0
11423,0,0,0,0,0,82.6362,-8.23176,2.79839,2.41357,82.6362,-8.23176,5,0,-1.5,0,0,0.0265713,0.186705,-2.28966,-0.0575146,-0.861977,25635,0,0,0,0
11439,0,0,0,0,0,82.6362,-8.23176,2.79839,2.41357,82.6362,-8.23176,5,0,-1.5,0,0,0.0266049,0.186711,-2.28969,-0.0575146,-0.861977,25635,0,0,0,0
11455,0,0,0,0,0,82.6362,-8.23176,2.79839,2.41357,82.6362,-8.23176,5,0,-1.5,0,0,0.0266095,0.186743,-2.28976,-0.0575146,-0.861977,25635,0,0,0,0
11471,0,0,0,0,0,82.6362,-8.23176,2.79839,2.41357,82.6362,-8.23176,5,0,-1.5,0,0,0.0265691,0.186766,-2.28982,-0.0575146,-0.861977,25635,0,0,0,0
11487,0,0,0,0,0,82.6362,-8.23176,2.79839,2.41357,82.6362,-8.23176,5,0,-1.5,0,0,0.0265341,0.186756,-2.28988,-0.0575146,-0.861977,25635,0,0,0,0
11503,0,0,0,0,0,82.6362,-8.23176,2.79839,2.41357,82.6362,-8.23176,5,0,-1.5,0,0,0.0265395,0.18675,-2.28991,-0.0575146,-0.861977,25635,0,0,0,0
11519,0,0,0,0,0,82.6362,-8.23176,2.79839,2.41357,82.6362,-8.23176,5,0,-1.5,0,0,0.0265723,0.186754,-2.28995,-0.0575146,-0.861977,25635,0,0,0,0
11535,0,0,0,0,0,83.1114,-7.82134,2.80043,2.41451,83.1114,-7.82134,5,0,-1.5,0,0,0.026613,0.186779,-2.28997,-0.0571663,-0.862,25635,0,0,0,0
11551,0,0,0,0,0,83.1114,-7.82134,2.80043,2.41451,83.1114,-7.82134,5,0,-1.5,0,0,0.0265669,0.186798,-2.29004,-0.0571663,-0.862,25635,0,0,0,0
11567,0,0,0,0,0,83.1114,-7.82134,2.80043,2.41451,83.1114,-7.82134,5,0,-1.5,0,0,0.0265232,0.186796,-2.29008,-0.0571663,-0.862,25635,0,0,0,0
11582,0,0,0,0,0,83.1114,-7.82134,2.80043,2.41451,83.1114,-7.82134,5,0,-1.5,0,0,0.0264929,0.186815,-2.29012,-0.0571663,-0.862,25635,0,0,0,0
11598,0,0,0,0,0,83.1114,-7.82134,2.80043,2.41451,83.1114,-7.82134,5,0,-1.5,0,0,0.0264982,0.186819,-2.29017,-0.0571663,-0.862,25635,0,0,0,0
11614,0,0,0,0,0,83.1114,-7.82134,2.80043,2.41451,83.1114,-7.82134,5,0,-1.5,0,0,0.0265364,0.186823,-2.2902,-0.0571663,-0.862,25635,0,0,0,0
11630,0,0,0,0,0,83.1114,-7.82134,2.80043,2.41451,83.1114,-7.82134,5,0,-1.5,0,0,0.0265657,0.186834,-2.29023,-0.0571663,-0.862,25635,0,0,0,0
11645,0,0,0,0,0,83.1114,-7.82134,2.80043,2.41451,83.1114,-7.82134,5,0,-1.5,0,0,0.0265657,0.186834,-2.29023,-0.0571663,-0.862,25635,0,0,0,0
11661,0,0,0,0,0,83.1114,-7.82134,2.80043,2.41451,83.1114,-7.82134,5,0,-1.5,0,0,0.0265454,0.186883,-2.29031,-0.0571663,-0.862,25635,0,0,0,0
11677,0,0,0,0,0,83.5887,-7.41079,2.80244,2.41543,83.5887,-7.41079,5,0,-1.5,0,0,0.0265093,0.186887,-2.29039,-0.0568319,-0.862023,25635,0,0,0,0
11693,0,0,0,0,0,83.5887,-7.41079,2.80244,2.41543,83.5887,-7.41079,5,0,-1.5,0,0,0.0265376,0.186902,-2.29042,-0.0568319,-0.862023,25635,0,0,0,0
11709,0,0,0,0,0,83.5887,-7.41079,2.80244,2.41543,83.5887,-7.41079,5,0,-1.5,0,0,0.0265376,0.186902,-2.29042,-0.0568319,-0.862023,25635,0,0,0,0
11724,0,0,0,0,0,83.5887,-7.41079,2.80244,2.41543,83.5887,-7.41079,5,0,-1.5,0,0,0.0265616,0.186919,-2.2905,-0.0568319,-0.862023,25635,0,0,0,0
11740,0,0,0,0,0,83.5887,-7.41079,2.80244,2.41543,83.5887,-7.41079,5,0,-1.5,0,0,0.0265537,0.186918,-2.29054,-0.0568319,-0.862023,25635,0,0,0,0
11756,0,0,0,0,0,83.5887,-7.41079,2.80244,2.41543,83.5887,-7.41079,5,0,-1.5,0,0,0.0265531,0.186912,-2.29057,-0.0568319,-0.862023,25635,0,0,0,0
11771,0,0,0,0,0,83.5887,-7.41079,2.80244,2.41543,83.5887,-7.41079,5,0,-1.5,0,0,0.0265535,0.186956,-2.29065,-0.0568319,-0.862023,25635,0,0,0,0
11788,0,0,0,0,0,83.5887,-7.41079,2.80244,2.41543,83.5887,-7.41079,5,0,-1.5,0,0,0.0265762,0.186943,-2.29068,-0.0568319,-0.862023,25635,0,0,0,0
11803,0,0,0,0,0,83.5887,-7.41079,2.80244,2.41543,83.5887,-7.41079,5,0,-1.5,0,0,0.0266168,0.186938,-2.29068,-0.0568319,-0.862023,25635,0,0,0,0
11817,0,0,0,0,0,84.066,-7.0001,2.80446,2.41629,84.066,-7.0001,5,0,-1.5,0,0,0.0266335,0.186953,-2.29071,-0.0565543,-0.862041,25635,0,0,0,0
11833,0,0,0,0,0,84.066,-7.0001,2.80446,2.41629,84.066,-7.0001,5,0,-1.5,0,0,0.026622,0.18698,-2.29077,-0.0565543,-0.862041,25635,0,0,0,0
11848,0,0,0,0,0,84.066,-7.0001,2.80446,2.41629,84.066,-7.0001,5,0,-1.5,0,0,0.0265607,0.186989,-2.29084,-0.0565543,-0.862041,25635,0,0,0,0
11864,0,0,0,0,0,84.066,-7.0001,2.80446,2.41629,84.066,-7.0001,5,0,-1.5,0,0,0.0265194,0.186986,-2.29087,-0.0565543,-0.862041,25635,0,0,0,0
11879,0,0,0,0,0,84.066,-7.0001,2.80446,2.41629,84.066,-7.0001,5,0,-1.5,0,0,0.0265194,0.186986,-2.29087,-0.0565543,-0.862041,25635,0,0,0,0
11895,0,0,0,0,0,84.066,-7.0001,2.80446,2.41629,84.066,-7.0001,5,0,-1.5,0,0,0.0266203,0.187021,-2.29093,-0.0565543,-0.862041,25635,0,0,0,0
11911,0,0,0,0,0,84.066,-7.0001,2.80446,2.41629,84.066,-7.0001,5,0,-1.5,0,0,0.0266371,0.187016,-2.29096,-0.0565543,-0.862041,25635,0,0,0,0
11927,0,0,0,0,0,84.066,-7.0001,2.80446,2.41629,84.066,-7.0001,5,0,-1.5,0,0,0.0266212,0.187004,-2.291,-0.0565543,-0.862041,25635,0,0,0,0
11943,0,0,0,0,0,84.066,-7.0001,2.80446,2.41629,84.066,-7.0001,5,0,-1.5,0,0,0.0265958,0.18702,-2.29106,-0.0565543,-0.862041,25635,0,0,0,0
11959,0,0,0,0,0,84.5433,-6.58927,2.80651,2.41705,84.5433,-6.58927,5,0,-1.5,0,0,0.0265366,0.187034,-2.29112,-0.056232,-0.862062,25635,0,0,0,0
11975,0,0,0,0,0,84.5433,-6.58927,2.80651,2.41705,84.5433,-6.58927,5,0,-1.5,0,0,0.0265195,0.18704,-2.29116,-0.056232,-0.862062,25635,0,0,0,0
11990,0,0,0,0,0,84.5433,-6.58927,2.80651,2.41705,84.5433,-6.58927,5,0,-1.5,0,0,0.0265404,0.187038,-2.29118,-0.056232,-0.862062,25635,0,0,0,0
12006,0,0,0,0,0,84.5433,-6.58927,2.80651,2.41705,84.5433,-6.58927,5,0,-1.5,0,0,0.0266352,0.187073,-2.29124,-0.056232,-0.862062,25635,0,0,0,0
12022,0,0,0,0,0,84.5433,-6.58927,2.80651,2.41705,84.5433,-6.58927,5,0,-1.5,0,0,0.0266434,0.187089,-2.29127,-0.056232,-0.862062,25635,0,0,0,0
12038,0,0,0,0,0,84.5433,-6.58927,2.80651,2.41705,84.5433,-6.58927,5,0,-1.5,0,0,0.0266169,0.187086,-2.29132,-0.056232,-0.862062,25635,0,0,0,0
12053,0,0,0,0,0,84.5433,-6.58927,2.80651,2.41705,84.5433,-6.58927,5,0,-1.5,0,0,0.0266055,0.187082,-2.29135,-0.056232,-0.862062,25635,0,0,0,0
12069,0,0,0,0,0,84.5433,-6.58927,2.80651,2.41705,84.5433,-6.58927,5,0,-1.5,0,0,0.0265946,0.187097,-2.29139,-0.056232,-0.862062,25635,0,0,0,0
12085,0,0,0,0,0,85.0206,-6.1783,2.80854,2.41776,85.0206,-6.1783,5,0,-1.5,0,0,0.0265832,0.187124,-2.29143,-0.0559132,-0.862083,25635,0,0,0,0
12101,0,0,0,0,0,85.0206,-6.1783,2.80854,2.41776,85.0206,-6.1783,5,0,-1.5,0,0,0.0265826,0.187138,-2.29147,-0.0559132,-0.862083,25635,0,0,0,0
12116,0,0,0,0,0,85.0206,-6.1783,2.80854,2.41776,85.0206,-6.1783,5,0,-1.5,0,0,0.0263672,0.187012,-2.2915,-0.0559132,-0.862083,25635,0,0,0,0
12132,0,0,0,0,0,85.0206,-6.1783,2.80854,2.41776,85.0206,-6.1783,5,0,-1.5,0,0,0.0265644,0.18718,-2.29158,-0.0559132,-0.862083,25635,0,0,0,0
12148,0,0,0,0,0,85.0206,-6.1783,2.80854,2.41776,85.0206,-6.1783,5,0,-1.5,0,0,0.0265024,0.187181,-2.29164,-0.0559132,-0.862083,25635,0,0,0,0
12164,0,0,0,0,0,85.0206,-6.1783,2.80854,2.41776,85.0206,-6.1783,5,0,-1.5,0,0,0.0265062,0.187145,-2.29164,-0.0559132,-0.862083,25635,0,0,0,0
12179,0,0,0,0,0,85.0206,-6.1783,2.80854,2.41776,85.0206,-6.1783,5,0,-1.5,0,0,0.0265062,0.187145,-2.29164,-0.0559132,-0.862083,25635,0,0,0,0
12195,0,0,0,0,0,85.0206,-6.1783,2.80854,2.41776,85.0206,-6.1783,5,0,-1.5,0,0,0.0266608,0.187199,-2.29168,-0.0559132,-0.862083,25635,0,0,0,0
12210,0,0,0,0,0,85.0206,-6.1783,2.80854,2.41776,85.0206,-6.1783,5,0,-1.5,0,0,0.0266608,0.187199,-2.29168,-0.0559132,-0.862083,25635,0,0,0,0
12226,0,0,0,0,0,85.0206,-6.1783,2.80854,2.41776,85.0206,-6.1783,5,0,-1.5,0,0,0.0266312,0.187251,-2.29177,-0.0559132,-0.862083,25635,0,0,0,0
12243,0,0,0,0,0,85.4979,-5.76721,2.81059,2.41845,85.4979,-5.76721,5,0,-1.5,0,0,0.0265839,0.187215,-2.29182,-0.0556164,-0.862102,25635,0,0,0,0
12257,0,0,0,0,0,85.4979,-5.76721,2.81059,2.41845,85.4979,-5.76721,5,0,-1.5,0,0,0.0266049,0.187265,-2.29188,-0.0556164,-0.862102,25635,0,0,0,0
12272,0,0,0,0,0,85.4979,-5.76721,2.81059,2.41845,85.4979,-5.76721,5,0,-1.5,0,0,0.0266225,0.18729,-2.29192,-0.0556164,-0.862102,25635,0,0,0,0
12287,0,0,0,0,0,85.4979,-5.76721,2.81059,2.41845,85.4979,-5.76721,5,0,-1.5,0,0,0.026639,0.187257,-2.29194,-0.0556164,-0.862102,25635,0,0,0,0
12302,0,0,0,0,0,85.4979,-5.76721,2.81059,2.41845,85.4979,-5.76721,5,0,-1.5,0,0,0.0266808,0.187222,-2.29195,-0.0556164,-0.862102,25635,0,0,0,0
12318,0,0,0,0,0,85.4979,-5.76721,2.81059,2.41845,85.4979,-5.76721,5,0,-1.5,0,0,0.0267421,0.187256,-2.29199,-0.0556164,-0.862102,25635,0,0,0,0
12334,0,0,0,0,0,85.4979,-5.76721,2.81059,2.41845,85.4979,-5.76721,5,0,-1.5,0,0,0.0267369,0.187312,-2.29206,-0.0556164,-0.862102,25635,0,0,0,0
12350,0,0,0,0,0,85.4979,-5.76721,2.81059,2.41845,85.4979,-5.76721,5,0,-1.5,0,0,0.0266461,0.187315,-2.29211,-0.0556164,-0.862102,25635,0,0,0,0
12365,0,0,0,0,0,85.9752,-5.35605,2.81271,2.41905,85.9752,-5.35605,5,0,-1.5,0,0,0.0265437,0.187262,-2.29215,-0.0552912,-0.862123,25635,0,0,0,0
12381,0,0,0,0,0,85.9752,-5.35605,2.81271,2.41905,85.9752,-5.35605,5,0,-1.5,0,0,0.0265437,0.187262,-2.29215,-0.0552912,-0.862123,25635,0,0,0,0
12398,0,0,0,0,0,85.9752,-5.35605,2.81271,2.41905,85.9752,-5.35605,5,0,-1.5,0,0,0.0266745,0.187346,-2.29223,-0.0552912,-0.862123,25635,0,0,0,0
12414,0,0,0,0,0,85.9752,-5.35605,2.81271,2.41905,85.9752,-5.35605,5,0,-1.5,0,0,0.0267142,0.187359,-2.29226,-0.0552912,-0.862123,25635,0,0,0,0
12429,0,0,0,0,0,85.9752,-5.35605,2.81271,2.41905,85.9752,-5.35605,5,0,-1.5,0,0,0.0266996,0.187338,-2.2923,-0.0552912,-0.862123,25635,0,0,0,0
12445,0,0,0,0,0,85.9752,-5.35605,2.81271,2.41905,85.9752,-5.35605,5,0,-1.5,0,0,0.0266996,0.187338,-2.2923,-0.0552912,-0.862123,25635,0,0,0,0
12460,0,0,0,0,0,85.9752,-5.35605,2.81271,2.41905,85.9752,-5.35605,5,0,-1.5,0,0,0.0266156,0.18737,-2.29239,-0.0552912,-0.862123,25635,0,0,0,0
12477,0,0,0,0,0,85.9752,-5.35605,2.81271,2.41905,85.9752,-5.35605,5,0,-1.5,0,0,0.0266156,0.18737,-2.29239,-0.0552912,-0.862123,25635,0,0,0,0
12492,0,0,0,0,0,85.9752,-5.35605,2.81271,2.41905,85.9752,-5.35605,5,0,-1.5,0,0,0.0266156,0.18737,-2.29239,-0.0552912,-0.862123,25635,0,0,0,0
12508,0,0,0,0,0,86.4525,-4.94474,2.81478,2.41963,86.4525,-4.94474,5,0,-1.5,0,0,0.0267222,0.187399,-2.29247,-0.0550259,-0.86214,25635,0,0,0,0
12524,0,0,0,0,0,86.4525,-4.94474,2.81478,2.41963,86.4525,-4.94474,5,0,-1.5,0,0,0.0267132,0.187439,-2.29252,-0.0550259,-0.86214,25635,0,0,0,0
12540,0,0,0,0,0,86.4525,-4.94474,2.81478,2.41963,86.4525,-4.94474,5,0,-1.5,0,0,0.0266395,0.187418,-2.29257,-0.0550259,-0.86214,25635,0,0,0,0
12556,0,0,0,0,0,86.4525,-4.94474,2.81478,2.41963,86.4525,-4.94474,5,0,-1.5,0,0,0.02655,0.187375,-2.29261,-0.0550259,-0.86214,25635,0,0,0,0
12572,0,0,0,0,0,86.4525,-4.94474,2.81478,2.41963,86.4525,-4.94474,5,0,-1.5,0,0,0.0265208,0.187359,-2.29264,-0.0550259,-0.86214,25635,0,0,0,0
12588,0,0,0,0,0,86.4525,-4.94474,2.81478,2.41963,86.4525,-4.94474,5,0,-1.5,0,0,0.0266832,0.187464,-2.2927,-0.0550259,-0.86214,25635,0,0,0,0
12604,0,0,0,0,0,86.4525,-4.94474,2.81478,2.41963,86.4525,-4.94474,5,0,-1.5,0,0,0.0267235,0.18747,-2.29271,-0.0550259,-0.86214,25635,0,0,0,0
12619,0,0,0,0,0,86.4525,-4.94474,2.81478,2.41963,86.4525,-4.94474,5,0,-1.5,0,0,0.0266741,0.187449,-2.29274,-0.0550259,-0.86214,25635,0,0,0,0
12635,0,0,0,0,0,86.4525,-4.94474,2.81478,2.41963,86.4525,-4.94474,5,0,-1.5,0,0,0.0265757,0.187441,-2.29281,-0.0550259,-0.86214,25635,0,0,0,0
12651,0,0,0,0,0,86.9318,-4.53336,2.81686,2.42018,86.9318,-4.53336,5,0,-1.5,0,0,0.0264806,0.187448,-2.29288,-0.0547214,-0.862159,25635,0,0,0,0
12667,0,0,0,0,0,86.9318,-4.53336,2.81686,2.42018,86.9318,-4.53336,5,0,-1.5,0,0,0.0264686,0.187461,-2.29292,-0.0547214,-0.862159,25635,0,0,0,0
12682,0,0,0,0,0,86.9318,-4.53336,2.81686,2.42018,86.9318,-4.53336,5,0,-1.5,0,0,0.0264686,0.187461,-2.29292,-0.0547214,-0.862159,25635,0,0,0,0
12699,0,0,0,0,0,86.9318,-4.53336,2.81686,2.42018,86.9318,-4.53336,5,0,-1.5,0,0,0.0267652,0.187554,-2.29294,-0.0547214,-0.862159,25635,0,0,0,0
12713,0,0,0,0,0,86.9318,-4.53336,2.81686,2.42018,86.9318,-4.53336,5,0,-1.5,0,0,0.0267098,0.187529,-2.29298,-0.0547214,-0.862159,25635,0,0,0,0
12728,0,0,0,0,0,86.9318,-4.53336,2.81686,2.42018,86.9318,-4.53336,5,0,-1.5,0,0,0.0265398,0.187472,-2.29307,-0.0547214,-0.862159,25635,0,0,0,0
12743,0,0,0,0,0,86.9318,-4.53336,2.81686,2.42018,86.9318,-4.53336,5,0,-1.5,0,0,0.0263775,0.187442,-2.29315,-0.0547214,-0.862159,25635,0,0,0,0
12758,0,0,0,0,0,86.9318,-4.53336,2.81686,2.42018,86.9318,-4.53336,5,0,-1.5,0,0,0.0263697,0.187477,-2.2932,-0.0547214,-0.862159,25635,0,0,0,0
12774,0,0,0,0,0,86.9318,-4.53336,2.81686,2.42018,86.9318,-4.53336,5,0,-1.5,0,0,0.0263697,0.187477,-2.2932,-0.0547214,-0.862159,25635,0,0,0,0
12789,0,0,0,0,0,86.9318,-4.53336,2.81686,2.42018,86.9318,-4.53336,5,0,-1.5,0,0,0.026737,0.187622,-2.2932,-0.0547214,-0.862159,25635,0,0,0,0
12806,0,0,0,0,0,86.9318,-4.53336,2.81686,2.42018,86.9318,-4.53336,5,0,-1.5,0,0,0.0268277,0.187625,-2.2932,-0.0547214,-0.862159,25635,0,0,0,0
12821,0,0,0,0,0,86.9318,-4.53336,2.81686,2.42018,86.9318,-4.53336,5,0,-1.5,0,0,0.0265906,0.187515,-2.29332,-0.0547214,-0.862159,25635,0,0,0,0
12837,0,0,0,0,0,86.9318,-4.53336,2.81686,2.42018,86.9318,-4.53336,5,0,-1.5,0,0,0.0265906,0.187515,-2.29332,-0.0547214,-0.862159,25635,0,0,0,0
12853,0,0,0,0,0,86.9318,-4.53336,2.81686,2.42018,86.9318,-4.53336,5,0,-1.5,0,0,0.0263601,0.187587,-2.2935,-0.0547214,-0.862159,25635,0,0,0,0
12870,0,0,0,0,0,86.9318,-4.53336,2.81686,2.42018,86.9318,-4.53336,5,0,-1.5,0,0,0.0264569,0.187603,-2.29352,-0.0547214,-0.862159,25635,0,0,0,0
12885,0,0,0,0,0,86.9318,-4.53336,2.81686,2.42018,86.9318,-4.53336,5,0,-1.5,0,0,0.0266383,0.187607,-2.29347,-0.0547214,-0.862159,25635,0,0,0,0
12901,0,0,0,0,0,86.9318,-4.53336,2.81686,2.42018,86.9318,-4.53336,5,0,-1.5,0,0,0.0267656,0.187615,-2.29346,-0.0547214,-0.862159,25635,0,0,0,0
12917,0,0,0,0,0,87.8916,-3.71033,2.82087,2.42129,87.8916,-3.71033,5,0,-1.5,0,0,0.0267717,0.187636,-2.2935,-0.0541261,-0.862197,25635,0,0,0,0
12933,0,0,0,0,0,87.8916,-3.71033,2.82087,2.42129,87.8916,-3.71033,5,0,-1.5,0,0,0.0264671,0.187613,-2.29365,-0.0541261,-0.862197,25635,0,0,0,0
12949,0,0,0,0,0,87.8916,-3.71033,2.82087,2.42129,87.8916,-3.71033,5,0,-1.5,0,0,0.0263638,0.18759,-2.29371,-0.0541261,-0.862197,25635,0,0,0,0
12964,0,0,0,0,0,87.8916,-3.71033,2.82087,2.42129,87.8916,-3.71033,5,0,-1.5,0,0,0.0264224,0.187595,-2.29375,-0.0541261,-0.862197,25635,0,0,0,0
12980,0,0,0,0,0,87.8916,-3.71033,2.82087,2.42129,87.8916,-3.71033,5,0,-1.5,0,0,0.0265103,0.187548,-2.29387,-0.0541261,-0.862197,25635,0,0,0,0
12996,0,0,0,0,0,87.8916,-3.71033,2.82087,2.42129,87.8916,-3.71033,5,0,-1.5,0,0,0.0264022,0.187509,-2.29394,-0.0541261,-0.862197,25635,0,0,0,0
13012,0,0,0,0,0,87.8916,-3.71033,2.82087,2.42129,87.8916,-3.71033,5,0,-1.5,0,0,0.0264022,0.187509,-2.29394,-0.0541261,-0.862197,25635,0,0,0,0
13027,0,0,0,0,0,87.8916,-3.71033,2.82087,2.42129,87.8916,-3.71033,5,0,-1.5,0,0,0.0261141,0.187554,-2.29418,-0.0541261,-0.862197,25635,0,0,0,0
13044,0,0,0,0,0,87.8916,-3.71033,2.82087,2.42129,87.8916,-3.71033,5,0,-1.5,0,0,0.0261141,0.187554,-2.29418,-0.0541261,-0.862197,25635,0,0,0,0
13059,0,0,0,0,0,88.3715,-3.29866,2.82254,2.42188,88.3715,-3.29866,5,0,-1.5,0,0,0.0260951,0.187551,-2.29437,-0.0534428,-0.862239,25635,0,0,0,0
13075,0,0,0,0,0,88.3715,-3.29866,2.82254,2.42188,88.3715,-3.29866,5,0,-1.5,0,0,0.0260951,0.187551,-2.29437,-0.0534428,-0.862239,25635,0,0,0,0
13091,0,0,0,0,0,88.3715,-3.29866,2.82254,2.42188,88.3715,-3.29866,5,0,-1.5,0,0,0.0260103,0.1876,-2.29452,-0.0534428,-0.862239,25635,0,0,0,0
13107,0,0,0,0,0,88.3715,-3.29866,2.82254,2.42188,88.3715,-3.29866,5,0,-1.5,0,0,0.0260525,0.187607,-2.29455,-0.0534428,-0.862239,25635,0,0,0,0
13122,0,0,0,0,0,88.3715,-3.29866,2.82254,2.42188,88.3715,-3.29866,5,0,-1.5,0,0,0.0261138,0.187628,-2.29456,-0.0534428,-0.862239,25635,0,0,0,0
13138,0,0,0,0,0,88.3715,-3.29866,2.82254,2.42188,88.3715,-3.29866,5,0,-1.5,0,0,0.0260962,0.187653,-2.29463,-0.0534428,-0.862239,25635,0,0,0,0
13154,0,0,0,0,0,88.3715,-3.29866,2.82254,2.42188,88.3715,-3.29866,5,0,-1.5,0,0,0.0259304,0.187619,-2.29475,-0.0534428,-0.862239,25635,0,0,0,0
13169,0,0,0,0,0,88.3715,-3.29866,2.82254,2.42188,88.3715,-3.29866,5,0,-1.5,0,0,0.0259529,0.187607,-2.29477,-0.0534428,-0.862239,25635,0,0,0,0
13184,0,0,0,0,0,88.3715,-3.29866,2.82254,2.42188,88.3715,-3.29866,5,0,-1.5,0,0,0.0259529,0.187607,-2.29477,-0.0534428,-0.862239,25635,0,0,0,0
13199,0,0,0,0,0,88.8514,-2.88688,2.82385,2.42267,88.8514,-2.88688,5,0,-1.5,0,0,0.0260964,0.187694,-2.29484,-0.0529984,-0.862267,25635,0,0,0,0
13213,0,0,0,0,0,88.8514,-2.88688,2.82385,2.42267,88.8514,-2.88688,5,0,-1.5,0,0,0.0260505,0.187681,-2.29488,-0.0529984,-0.862267,25635,0,0,0,0
13229,0,0,0,0,0,88.8514,-2.88688,2.82385,2.42267,88.8514,-2.88688,5,0,-1.5,0,0,0.0259553,0.187656,-2.29495,-0.0529984,-0.862267,25635,0,0,0,0
13245,0,0,0,0,0,88.8514,-2.88688,2.82385,2.42267,88.8514,-2.88688,5,0,-1.5,0,0,0.0259553,0.187656,-2.29495,-0.0529984,-0.862267,25635,0,0,0,0
13261,0,0,0,0,0,88.8514,-2.88688,2.82385,2.42267,88.8514,-2.88688,5,0,-1.5,0,0,0.0258956,0.187686,-2.29506,-0.0529984,-0.862267,25635,0,0,0,0
13277,0,0,0,0,0,88.8514,-2.88688,2.82385,2.42267,88.8514,-2.88688,5,0,-1.5,0,0,0.0261045,0.187691,-2.29506,-0.0529984,-0.862267,25635,0,0,0,0
13292,0,0,0,0,0,88.8514,-2.88688,2.82385,2.42267,88.8514,-2.88688,5,0,-1.5,0,0,0.0261329,0.187706,-2.29508,-0.0529984,-0.862267,25635,0,0,0,0
13308,0,0,0,0,0,88.8514,-2.88688,2.82385,2.42267,88.8514,-2.88688,5,0,-1.5,0,0,0.0260679,0.187735,-2.29515,-0.0529984,-0.862267,25635,0,0,0,0
13324,0,0,0,0,0,88.8514,-2.88688,2.82385,2.42267,88.8514,-2.88688,5,0,-1.5,0,0,0.0259579,0.18776,-2.29523,-0.0529984,-0.862267,25635,0,0,0,0
13341,0,0,0,0,0,89.3313,-2.47496,2.8252,2.42342,89.3313,-2.47496,5,0,-1.5,0,0,0.0258782,0.18774,-2.29528,-0.0526335,-0.862289,25635,0,0,0,0
13357,0,0,0,0,0,89.3313,-2.47496,2.8252,2.42342,89.3313,-2.47496,5,0,-1.5,0,0,0.0259186,0.187734,-2.2953,-0.0526335,-0.862289,25635,0,0,0,0
13373,0,0,0,0,0,89.3313,-2.47496,2.8252,2.42342,89.3313,-2.47496,5,0,-1.5,0,0,0.0260139,0.187745,-2.29532,-0.0526335,-0.862289,25635,0,0,0,0
13388,0,0,0,0,0,89.3313,-2.47496,2.8252,2.42342,89.3313,-2.47496,5,0,-1.5,0,0,0.0260786,0.187762,-2.29538,-0.0526335,-0.862289,25635,0,0,0,0
13404,0,0,0,0,0,89.3313,-2.47496,2.8252,2.42342,89.3313,-2.47496,5,0,-1.5,0,0,0.0260786,0.187762,-2.29538,-0.0526335,-0.862289,25635,0,0,0,0
13420,0,0,0,0,0,89.3313,-2.47496,2.8252,2.42342,89.3313,-2.47496,5,0,-1.5,0,0,0.0260786,0.187762,-2.29538,-0.0526335,-0.862289,25635,0,0,0,0
