timestamp,A_x,A_y,A_z,P,Q,R,Phi,Theta,Psi,poseX,poseY,poseZ,state_X,state_Y,state_Z,state_VzB,state_Bx,state_By,state_Bz,p1_x,p1_y,p2_x,p2_y,p3_x,p3_y,p4_x,p4_y,roll,pitch,yaw,alt,targetHeading,highLevelState,lowLevelState,gateNumber,filtered_x,filtered_y,x_OT,y_OT,vx_OT,vy_OT,filtered_vx,filtered_vygateArearansac_corr_x,ransac_corr_y,ransac_corr_vx,ransac_corr_vy,detectionTimeStamppTermX,dTermX,pTermY,dTermY,vxcmd,vycmd
6647,0.167969,-0.523438,2.20117,-0.000947229,0.00182083,0.00101572,-0.0293155,0.0684658,-0.167281,0,0,0,-3.14871e-05,-8.06257e-06,-0.00583549,-0.00147382,-0.168211,0,0,0,0,0,0,0,0,0,0,0.0424644,-0.247848,0,0,0,0,0,2,-3.14871e-05,-8.06257e-06,0,0,0,0,-0.00583549,-0.00147382,1.9603e-19,0,0,0,0,0,0,0,0,0,1,8.86883e-06
6662,0.293945,-0.452148,7.05664,-0.195169,0.78444,0.129159,-0.0452918,0.106075,-0.164916,0,0,0,-0.000216868,-5.31914e-05,-0.0164607,-0.00393333,-0.169621,0,0,0,0,0,0,0,0,0,0,0.0438806,-0.2503,0,0,0,0,0,2,-0.000216868,-5.31914e-05,0,0,0,0,-0.0164607,-0.00393333,1.9603e-19,0,0,0,0,0,0,0,0,0,1,5.85105e-05
6678,0.100586,-3.97559,4.94141,0.0181805,0.0345443,-0.0107345,-0.0344527,0.440792,-0.115157,0,0,0,-0.000706635,-0.000137056,-0.0508464,-0.00506683,-0.114311,0,0,0,0,0,0,0,0,0,0,0.0312613,-0.260848,0,0,0,0,0,2,-0.000706635,-0.000137056,0,0,0,0,-0.0508464,-0.00506683,1.9603e-19,0,0,0,0,0,0,0,0,0,1,0.000150761
6696,0.149414,-4.0166,-5.26855,0.0133082,-0.00530776,0.00424238,-0.0294709,0.435344,-0.116796,0,0,0,-0.00253846,-0.000198814,-0.13037,-0.00226427,-0.117367,0,0,0,0,0,0,0,0,0,0,0.0337073,-0.280576,0,0,0,0,0,2,-0.00253846,-0.000198814,0,0,0,0,-0.13037,-0.00226427,1.9603e-19,0,0,0,0,0,0,0,0,0,1,0.000218695
6714,0.03125,-3.9375,0.716797,0.00144979,-0.0083517,0.00405808,-0.0265429,0.433709,-0.116845,0,0,0,-0.0060309,-0.00019465,-0.212617,0.0017023,-0.11649,0,0,0,0,0,0,0,0,0,0,0.0348652,-0.301143,0,0,0,0,0,2,-0.0060309,-0.00019465,0,0,0,0,-0.212617,0.0017023,1.9603e-19,0,0,0,0,0,0,0,0,0,1,0.000214115
6730,0.03125,-3.94434,-4.07324,-0.0116762,-0.0141021,-0.000269719,-0.0266402,0.433536,-0.116803,0,0,0,-0.0101295,-0.000129121,-0.280909,0.00545333,-0.116803,0,0,0,0,0,0,0,0,0,0,0.0359997,-0.3182,0,0,0,0,0,2,-0.0101295,-0.000129121,0,0,0,0,-0.280909,0.00545333,1.9603e-19,0,0,0,0,0,0,0,0,0,1,0.000142033
6746,0.03125,-4.01074,1.85938,-0.00378417,-0.0209803,-0.0106712,-0.0267695,0.433265,-0.116945,0,0,0,-0.015315,-4.12596e-06,-0.348615,0.00914876,-0.116945,0,0,0,0,0,0,0,0,0,0,0.0370683,-0.335118,0,0,0,0,0,2,-0.015315,-4.12596e-06,0,0,0,0,-0.348615,0.00914876,1.9603e-19,0,0,0,0,0,0,0,0,0,1,4.53856e-06
6763,0.03125,-4.06543,0.77832,-0.00134323,-0.0235946,-0.0135654,-0.0268583,0.432933,-0.117131,0,0,0,-0.0215989,0.000180693,-0.415743,0.0128021,-0.117131,0,0,0,0,0,0,0,0,0,0,0.0381343,-0.35189,0,0,0,0,0,2,-0.0215989,0.000180693,0,0,0,0,-0.415743,0.0128021,1.9603e-19,0,0,0,0,0,0,0,0,0,1,-0.000198762
6779,0.03125,-4.00586,6.47363,0.00176239,-1.11995e-06,-0.00700948,-0.0269009,0.432857,-0.117258,0,0,0,-0.0289507,0.000423588,-0.482297,0.0164214,-0.117258,0,0,0,0,0,0,0,0,0,0,0.0391603,-0.368523,0,0,0,0,0,2,-0.0289507,0.000423588,0,0,0,0,-0.482297,0.0164214,1.9603e-19,0,0,0,0,0,0,0,0,0,1,-0.000465946
6795,0.03125,-3.90527,-6.50879,-0.00362794,0.00350331,0.00244099,-0.0268873,0.432992,-0.117215,0,0,0,-0.0379224,0.000744784,-0.552426,0.0202372,-0.117253,0,0,0,0,0,0,0,0,0,0,0.0401745,-0.386058,0,0,0,0,0,2,-0.0379224,0.000744784,0,0,0,0,-0.552426,0.0202372,1.9603e-19,0,0,0,0,0,0,0,0,0,1,-0.000819262
6811,0.03125,-3.92578,6.59766,0.000351024,-0.00622972,0.00340403,-0.026885,0.432959,-0.117163,0,0,0,-0.0474291,0.00110492,-0.617894,0.0237988,-0.117215,0,0,0,0,0,0,0,0,0,0,0.0410914,-0.402429,0,0,0,0,0,2,-0.0474291,0.00110492,0,0,0,0,-0.617894,0.0237988,1.9603e-19,0,0,0,0,0,0,0,0,0,1,-0.00121541
6835,0.03125,-3.97656,-5.69434,-0.00481184,-0.0140029,-0.00872976,-0.0269289,0.432775,-0.117225,0,0,0,-0.0639298,0.0017669,-0.715239,0.029087,-0.117225,0,0,0,0,0,0,0,0,0,0,0.0424477,-0.426774,0,0,0,0,0,2,-0.0639298,0.0017669,0,0,0,0,-0.715239,0.029087,1.9603e-19,0,0,0,0,0,0,0,0,0,1,-0.00194359
6853,0.03125,-4.00684,5.03418,0.00265415,-0.00667007,0.00119349,-0.0269766,0.432595,-0.117356,0,0,0,-0.0776591,0.00233687,-0.787365,0.0330013,-0.117356,0,0,0,0,0,0,0,0,0,0,0.0422569,-0.434372,0,0,0,0,0,2,-0.0776591,0.00233687,0,0,0,0,-0.787365,0.0330013,1.9603e-19,0,0,0,0,0,0,0,0,0,1,-0.00257055
6870,0.03125,-4.00684,-1.64648,0.00719089,0.011324,0.0112064,-0.0267893,0.432697,-0.117204,0,0,0,-0.0917879,0.00293827,-0.854861,0.0366707,-0.117204,0,0,0,0,0,0,0,0,0,0,0.0411157,-0.434505,0,0,0,0,0,2,-0.0917879,0.00293827,0,0,0,0,-0.854861,0.0366707,1.9603e-19,0,0,0,0,0,0,0,0,0,1,-0.00323209
6890,0.03125,-4.00684,-3.25293,0.00501135,0.0148706,0.0130024,-0.0266283,0.432955,-0.117015,0,0,0,-0.108981,0.00368694,-0.929674,0.0407619,-0.117015,0,0,0,0,0,0,0,0,0,0,0.0398131,-0.434656,0,0,0,0,0,2,-0.108981,0.00368694,0,0,0,0,-0.929674,0.0407619,1.9603e-19,0,0,0,0,0,0,0,0,0,1,-0.00405564
6928,0,-3.9209,-7.15234,-0.011677,0.00541238,-0.000340423,-0.0268595,0.432574,-0.117203,0,0,0,-0.150014,0.00553866,-1.08172,0.0490993,-0.117163,0,0,0,0,0,0,0,0,0,0,0.0373018,-0.434953,0,0,0,0,0,2,-0.150014,0.00553866,0,0,0,0,-1.08172,0.0490993,1.9603e-19,0,0,0,0,0,0,0,0,0,1,-0.00609252
6953,0,-3.8877,3.77441,-0.00655546,0.00727233,0.000453373,-0.0269248,0.432701,-0.117161,0,0,0,-0.178785,0.00686059,-1.17726,0.0543121,-0.117161,0,0,0,0,0,0,0,0,0,0,0.0356458,-0.435148,0,0,0,0,0,2,-0.178785,0.00686059,0,0,0,0,-1.17726,0.0543121,1.9603e-19,0,0,0,0,0,0,0,0,0,1,-0.00754665
6972,0,-3.9209,5.33789,0.00254669,0.0021752,-0.00564814,-0.0269394,0.432735,-0.11723,0,0,0,-0.202065,0.00794193,-1.24901,0.0582007,-0.11723,0,0,0,0,0,0,0,0,0,0,0.0344149,-0.435294,0,0,0,0,0,2,-0.202065,0.00794193,0,0,0,0,-1.24901,0.0582007,1.9603e-19,0,0,0,0,0,0,0,0,0,1,-0.00873612
6988,0,-3.9873,3.0332,-0.00632459,-0.0143135,-0.0112908,-0.0268535,0.432606,-0.117495,0,0,0,-0.222679,0.00890733,-1.30889,0.0614596,-0.117495,0,0,0,0,0,0,0,0,0,0,0.0334575,-0.435412,0,0,0,0,0,2,-0.222679,0.00890733,0,0,0,0,-1.30889,0.0614596,1.9603e-19,0,0,0,0,0,0,0,0,0,1,-0.00979806
7004,0,-4.00781,-2.2959,3.34449e-05,-0.00348673,-0.0019023,-0.0269114,0.432482,-0.117558,0,0,0,-0.244245,0.00992487,-1.36826,0.0647107,-0.117495,0,0,0,0,0,0,0,0,0,0,0.0323724,-0.43554,0,0,0,0,0,2,-0.244245,0.00992487,0,0,0,0,-1.36826,0.0647107,1.9603e-19,0,0,0,0,0,0,0,0,0,1,-0.0109174
7020,0,-3.97461,-0.263672,-0.00868745,0.000421503,-0.000929079,-0.0269527,0.432517,-0.117525,0,0,0,-0.266738,0.0109931,-1.42714,0.0679247,-0.117525,0,0,0,0,0,0,0,0,0,0,0.0312957,-0.435668,0,0,0,0,0,2,-0.266738,0.0109931,0,0,0,0,-1.42714,0.0679247,1.9603e-19,0,0,0,0,0,0,0,0,0,1,-0.0120924
7036,0,-3.94141,-7.22363,-0.010815,-0.00804504,-0.00425137,-0.0270975,0.432422,-0.117572,0,0,0,-0.290168,0.0121123,-1.48554,0.0711007,-0.117572,0,0,0,0,0,0,0,0,0,0,0.0302219,-0.435795,0,0,0,0,0,2,-0.290168,0.0121123,0,0,0,0,-1.48554,0.0711007,1.9603e-19,0,0,0,0,0,0,0,0,0,1,-0.0133235
7051,0,-3.91895,-6.06641,-0.00519568,-0.00829407,-0.0068771,-0.0272359,0.432291,-0.117661,0,0,0,-0.312977,0.0132072,-1.53986,0.0740336,-0.117661,0,0,0,0,0,0,0,0,0,0,0.0292335,-0.435914,0,0,0,0,0,2,-0.312977,0.0132072,0,0,0,0,-1.53986,0.0740336,1.9603e-19,0,0,0,0,0,0,0,0,0,1,-0.014528
7067,0.03125,-3.91895,-1.8418,0.00311666,0.0046247,-0.000581561,-0.0272282,0.432389,-0.117808,0,0,0,-0.338219,0.0144243,-1.59735,0.0771303,-0.117759,0,0,0,0,0,0,0,0,0,0,0.0281753,-0.436042,0,0,0,0,0,2,-0.338219,0.0144243,0,0,0,0,-1.59735,0.0771303,1.9603e-19,0,0,0,0,0,0,0,0,0,1,-0.0158668
7083,0.03125,-3.91895,-1.8418,0.00311666,0.0046247,-0.000581561,-0.0272282,0.432389,-0.117808,0,0,0,-0.364359,0.0156898,-1.65438,0.0802099,-0.117808,0,0,0,0,0,0,0,0,0,0,0.0270861,-0.436172,0,0,0,0,0,2,-0.364359,0.0156898,0,0,0,0,-1.65438,0.0802099,1.9603e-19,0,0,0,0,0,0,0,0,0,1,-0.0172588
7098,0.0742188,-3.91895,-1.94141,0.0148054,-0.0132952,-0.00832829,-0.026916,0.432269,-0.117915,0,0,0,-0.389688,0.0169208,-1.70744,0.0830862,-0.117797,0,0,0,0,0,0,0,0,0,0,0.0260311,-0.436296,0,0,0,0,0,2,-0.389688,0.0169208,0,0,0,0,-1.70744,0.0830862,1.9603e-19,0,0,0,0,0,0,0,0,0,1,-0.0186128
7124,0.0742188,-3.91895,-1.94141,0.0148054,-0.0132952,-0.00832829,-0.026916,0.432269,-0.117915,0,0,0,-0.435814,0.0191764,-1.79859,0.0881055,-0.117915,0,0,0,0,0,0,0,0,0,0,0.0242206,-0.436514,0,0,0,0,0,2,-0.435814,0.0191764,0,0,0,0,-1.79859,0.0881055,1.9603e-19,0,0,0,0,0,0,0,0,0,1,-0.0210941
7141,0.0742188,-4.00879,-4.0166,-0.00795601,-0.00895368,0.00036723,-0.0269723,0.431895,-0.118062,0,0,0,-0.467039,0.0207099,-1.85745,0.0913466,-0.117915,0,0,0,0,0,0,0,0,0,0,0.0229972,-0.436659,0,0,0,0,0,2,-0.467039,0.0207099,0,0,0,0,-1.85745,0.0913466,1.9603e-19,0,0,0,0,0,0,0,0,0,1,-0.0227809
7155,0.0742188,-4.0625,-0.235352,-0.00211585,-0.0058222,-0.00106869,-0.0270233,0.431778,-0.118063,0,0,0,-0.493469,0.0220122,-1.9055,0.0939898,-0.118063,0,0,0,0,0,0,0,0,0,0,0.0220499,-0.436775,0,0,0,0,0,2,-0.493469,0.0220122,0,0,0,0,-1.9055,0.0939898,1.9603e-19,0,0,0,0,0,0,0,0,0,1,-0.0242135
7170,0.0742188,-3.99707,-2.75098,0.0111547,0.0040306,0.00359015,-0.0268276,0.431821,-0.118007,0,0,0,-0.522546,0.0234492,-1.95657,0.0967908,-0.118063,0,0,0,0,0,0,0,0,0,0,0.0209621,-0.436904,0,0,0,0,0,2,-0.522546,0.0234492,0,0,0,0,-1.95657,0.0967908,1.9603e-19,0,0,0,0,0,0,0,0,0,1,-0.0257941
7186,0.0742188,-3.93066,1.63867,0.00476098,0.00886216,-0.000991003,-0.0267124,0.431926,-0.118004,0,0,0,-0.55442,0.0250294,-2.01065,0.0997904,-0.118004,0,0,0,0,0,0,0,0,0,0,0.0197603,-0.437045,0,0,0,0,0,2,-0.55442,0.0250294,0,0,0,0,-2.01065,0.0997904,1.9603e-19,0,0,0,0,0,0,0,0,0,1,-0.0275323
7202,0.0615234,-3.875,-4.08105,-0.0025834,0.0101478,-0.0028959,-0.0267308,0.432059,-0.118041,0,0,0,-0.587138,0.0266565,-2.0643,0.102782,-0.118041,0,0,0,0,0,0,0,0,0,0,0.0185893,-0.437185,0,0,0,0,0,2,-0.587138,0.0266565,0,0,0,0,-2.0643,0.102782,1.9603e-19,0,0,0,0,0,0,0,0,0,1,-0.0293222
7218,0.0283203,-3.8877,1.35742,-0.000180852,0.00591684,-0.0122653,-0.0267902,0.43215,-0.118193,0,0,0,-0.62071,0.0283313,-2.11755,0.105752,-0.118193,0,0,0,0,0,0,0,0,0,0,0.0174612,-0.437324,0,0,0,0,0,2,-0.62071,0.0283313,0,0,0,0,-2.11755,0.105752,1.9603e-19,0,0,0,0,0,0,0,0,0,1,-0.0311645
7233,0,-3.9541,-1.21094,-0.011168,-0.0106889,-0.0154106,-0.0271013,0.431966,-0.118694,0,0,0,-0.652953,0.0299444,-2.1671,0.108519,-0.118445,0,0,0,0,0,0,0,0,0,0,0.0164437,-0.437454,0,0,0,0,0,2,-0.652953,0.0299444,0,0,0,0,-2.1671,0.108519,1.9603e-19,0,0,0,0,0,0,0,0,0,1,-0.0329388
7249,0,-3.9541,-1.21094,-0.011168,-0.0106889,-0.0154106,-0.0271013,0.431966,-0.118694,0,0,0,-0.688178,0.0317115,-2.21953,0.11144,-0.118694,0,0,0,0,0,0,0,0,0,0,0.0153454,-0.437594,0,0,0,0,0,2,-0.688178,0.0317115,0,0,0,0,-2.21953,0.11144,1.9603e-19,0,0,0,0,0,0,0,0,0,1,-0.0348826
7265,0,-4.02051,-7.30762,-0.00833315,0.00662033,-0.0178992,-0.0275025,0.431973,-0.119153,0,0,0,-0.724221,0.0335239,-2.27152,0.114316,-0.118895,0,0,0,0,0,0,0,0,0,0,0.0142243,-0.437735,0,0,0,0,0,2,-0.724221,0.0335239,0,0,0,0,-2.27152,0.114316,1.9603e-19,0,0,0,0,0,0,0,0,0,1,-0.0368763
7281,0,-4.00879,5.40527,-0.0112132,0.00887265,-0.0159933,-0.0277198,0.432123,-0.119399,0,0,0,-0.761091,0.0353818,-2.32311,0.117141,-0.119153,0,0,0,0,0,0,0,0,0,0,0.0131284,-0.437876,0,0,0,0,0,2,-0.761091,0.0353818,0,0,0,0,-2.32311,0.117141,1.9603e-19,0,0,0,0,0,0,0,0,0,1,-0.03892
7296,0,-3.97559,-6.71094,-0.0267501,-0.00721397,-0.0155005,-0.0281286,0.432031,-0.119618,0,0,0,-0.796403,0.0371642,-2.37112,0.119741,-0.119618,0,0,0,0,0,0,0,0,0,0,0.0122003,-0.438006,0,0,0,0,0,2,-0.796403,0.0371642,0,0,0,0,-2.37112,0.119741,1.9603e-19,0,0,0,0,0,0,0,0,0,1,-0.0408806
7312,0,-3.94238,-1.23145,-0.0144112,-0.00827821,-0.013432,-0.0284463,0.431929,-0.119828,0,0,0,-0.834875,0.0391085,-2.42194,0.122444,-0.119828,0,0,0,0,0,0,0,0,0,0,0.0110903,-0.438148,0,0,0,0,0,2,-0.834875,0.0391085,0,0,0,0,-2.42194,0.122444,1.9603e-19,0,0,0,0,0,0,0,0,0,1,-0.0430194
7328,0,-3.90918,0.154297,-0.0219179,-0.0144343,-0.0136701,-0.0287849,0.43172,-0.120013,0,0,0,-0.87414,0.0410946,-2.47232,0.125075,-0.120013,0,0,0,0,0,0,0,0,0,0,0.00997624,-0.43829,0,0,0,0,0,2,-0.87414,0.0410946,0,0,0,0,-2.47232,0.125075,1.9603e-19,0,0,0,0,0,0,0,0,0,1,-0.045204
7343,0.0458984,-3.97266,6.35449,-0.020528,-0.0443185,-0.0222464,-0.0293159,0.431165,-0.120378,0,0,0,-0.911678,0.042994,-2.51915,0.12747,-0.120378,0,0,0,0,0,0,0,0,0,0,0.00902341,-0.438421,0,0,0,0,0,2,-0.911678,0.042994,0,0,0,0,-2.51915,0.12747,1.9603e-19,0,0,0,0,0,0,0,0,0,1,-0.0472935
7361,0.141602,-4.03418,-2.37109,-0.0320014,-0.0433304,-0.0275812,-0.030459,0.43,-0.121124,0,0,0,-0.957683,0.0453216,-2.5748,0.130245,-0.120718,0,0,0,0,0,0,0,0,0,0,0.00784815,-0.438579,0,0,0,0,0,2,-0.957683,0.0453216,0,0,0,0,-2.5748,0.130245,1.9603e-19,0,0,0,0,0,0,0,0,0,1,-0.0498538
7376,0.174805,-3.94922,-2.00488,-0.0131632,-0.0194096,-0.0143627,-0.0307247,0.429663,-0.121362,0,0,0,-0.996737,0.0472962,-2.62067,0.13244,-0.121362,0,0,0,0,0,0,0,0,0,0,0.0070471,-0.438706,0,0,0,0,0,2,-0.996737,0.0472962,0,0,0,0,-2.62067,0.13244,1.9603e-19,0,0,0,0,0,0,0,0,0,1,-0.0520258
7391,0.182617,-3.85254,2.23926,0.000191068,-0.0153323,0.00186647,-0.0307923,0.429392,-0.121383,0,0,0,-1.03648,0.0493027,-2.66612,0.134558,-0.121362,0,0,0,0,0,0,0,0,0,0,0.00597383,-0.438837,0,0,0,0,0,2,-1.03648,0.0493027,0,0,0,0,-2.66612,0.134558,1.9603e-19,0,0,0,0,0,0,0,0,0,1,-0.054233
7406,0.166992,-3.89062,-0.379883,-0.00577069,0.00379669,0.00864985,-0.0307717,0.429463,-0.121227,0,0,0,-1.0769,0.0513413,-2.71119,0.136644,-0.121227,0,0,0,0,0,0,0,0,0,0,0.00484024,-0.438968,0,0,0,0,0,2,-1.0769,0.0513413,0,0,0,0,-2.71119,0.136644,1.9603e-19,0,0,0,0,0,0,0,0,0,1,-0.0564754
7422,0.0341797,-3.99023,-0.885742,0.000243061,-0.0107248,0.00209281,-0.0307385,0.429395,-0.121166,0,0,0,-1.12078,0.0535508,-2.75891,0.138849,-0.121166,0,0,0,0,0,0,0,0,0,0,0.00366297,-0.439109,0,0,0,0,0,2,-1.12078,0.0535508,0,0,0,0,-2.75891,0.138849,1.9603e-19,0,0,0,0,0,0,0,0,0,1,-0.0589058
7438,0.0390625,-4.00098,4.73145,0.0077877,-0.0296491,-0.00449995,-0.0306589,0.428984,-0.12121,0,0,0,-1.16541,0.0557947,-2.8062,0.141039,-0.12121,0,0,0,0,0,0,0,0,0,0,0.00252625,-0.439249,0,0,0,0,0,2,-1.16541,0.0557947,0,0,0,0,-2.8062,0.141039,1.9603e-19,0,0,0,0,0,0,0,0,0,1,-0.0613741
7465,0.131836,-3.87695,5.28125,0.0188247,-0.0024875,0.0064022,-0.0300284,0.428777,-0.121039,0,0,0,-1.23986,0.0595311,-2.88233,0.144609,-0.121039,0,0,0,0,0,0,0,0,0,0,0.000545401,-0.439481,0,0,0,0,0,2,-1.23986,0.0595311,0,0,0,0,-2.88233,0.144609,1.9603e-19,0,0,0,0,0,0,0,0,0,1,-0.0654842
7487,0,-3.85938,0.0498047,0.0182087,0.0098271,-0.00166629,-0.029443,0.429104,-0.120995,-9.7107,1.69179,0.792419,-1.30723,0.0629094,-2.94874,0.147836,-0.120995,0,0,225,290,225,290,272,294,223,334,-0.001197,-0.439691,0,0,0,0,0,2,-1.30723,0.0629094,0,0,0,0,-2.94874,0.147836,2352,0,0,0,0,0,0,0,0,0,1,-0.0692003
7503,0,-3.85938,-1.76172,0.0121882,0.00289729,0.000560012,-0.0292453,0.429142,-0.120996,-9.7107,1.69179,0.792419,-1.35488,0.0652983,-2.99447,0.150151,-0.120996,0,0,225,290,225,290,272,294,223,334,-0.00242315,-0.43984,0,0,0,0,0,2,-1.35488,0.0652983,0,0,0,0,-2.99447,0.150151,2352,0,0,0,0,0,0,0,0,0,1,-0.0718281
7519,0,-3.85938,2.49023,0.010216,0.00624624,-0.00620705,-0.0291306,0.429197,-0.121048,-9.7107,1.69179,0.792419,-1.40326,0.0677245,-3.03985,0.152486,-0.121048,0,0,225,290,225,290,272,294,223,334,-0.00364211,-0.439991,0,0,0,0,0,2,-1.40326,0.0677245,0,0,0,0,-3.03985,0.152486,2352,0,0,0,0,0,0,0,0,0,1,-0.0744969
7535,0,-3.89062,-2.74902,0.00580545,0.00744076,-0.0177654,-0.0291045,0.429315,-0.121282,-9.7107,1.69179,0.792419,-1.45235,0.0701881,-3.08487,0.154827,-0.121282,0,0,225,290,225,290,272,294,223,334,-0.00479271,-0.440145,0,0,0,0,0,2,-1.45235,0.0701881,0,0,0,0,-3.08487,0.154827,2352,0,0,0,0,0,0,0,0,0,1,-0.0772069
7552,0.00195312,-3.92383,3.17871,0.00100365,0.00835316,-0.017598,-0.0291897,0.429391,-0.121572,-9.7107,1.69179,0.792419,-1.50532,0.0728475,-3.13234,0.157311,-0.121572,0,0,225,290,225,290,272,294,223,334,-0.00600754,-0.44031,0,0,0,0,0,2,-1.50532,0.0728475,0,0,0,0,-3.13234,0.157311,2352,0,0,0,0,0,0,0,0,0,1,-0.0801322
7568,0.0683594,-3.99023,1.71484,0.0123208,0.00585926,-0.0118324,-0.0290399,0.429624,-0.121872,-9.7107,1.69179,0.792419,-1.55589,0.0753882,-3.17665,0.159644,-0.121721,0,0,225,290,225,290,272,294,223,334,-0.00721454,-0.440467,0,0,0,0,0,2,-1.55589,0.0753882,0,0,0,0,-3.17665,0.159644,2352,0,0,0,0,0,0,0,0,0,1,-0.082927
7591,0.0683594,-3.99023,1.71484,0.0123208,0.00585926,-0.0118324,-0.0290399,0.429624,-0.121872,-9.7107,1.69179,0.792419,-1.60394,0.0778042,-3.21791,0.161852,-0.121872,0,0,225,290,225,290,272,294,223,334,-0.00835534,-0.440616,0,0,0,0,0,2,-1.60394,0.0778042,0,0,0,0,-3.21791,0.161852,2352,0,0,0,0,0,0,0,0,0,1,-0.0855847
7607,0.0947266,-4.02344,-2.44531,0.0114686,-0.00211429,-0.0165598,-0.0289419,0.429612,-0.12209,-9.7107,1.69179,0.792419,-1.68233,0.0817508,-3.28338,0.165367,-0.12209,0,0,225,290,225,290,272,294,223,334,-0.0102086,-0.440857,0,0,0,0,0,2,-1.68233,0.0817508,0,0,0,0,-3.28338,0.165367,2352,0,0,0,0,0,0,0,0,0,1,-0.0899259
7622,0.0947266,-3.88965,-6.19238,0.00271658,-0.000181341,-0.0153595,-0.0290784,0.429636,-0.122839,-9.7107,1.69179,0.792419,-1.73197,0.0842526,-3.32383,0.16757,-0.122609,0,0,225,290,225,290,272,294,223,334,-0.0112094,-0.441014,0,0,0,0,0,2,-1.73197,0.0842526,0,0,0,0,-3.32383,0.16757,2352,0,0,0,0,0,0,0,0,0,1,-0.0926778
7637,0.0947266,-3.88965,-6.19238,0.00271658,-0.000181341,-0.0153595,-0.0290784,0.429636,-0.122839,-9.7107,1.69179,0.792419,-1.7822,0.0867868,-3.36397,0.169773,-0.122839,0,0,225,290,225,290,272,294,223,334,-0.0123462,-0.441169,0,0,0,0,0,2,-1.7822,0.0867868,0,0,0,0,-3.36397,0.169773,2352,0,0,0,0,0,0,0,0,0,1,-0.0954655
7653,0.0947266,-3.87109,2.88281,0.00633338,-0.00086855,-0.0136996,-0.0290681,0.429681,-0.123261,-9.7107,1.69179,0.792419,-1.83646,0.089527,-3.40647,0.172115,-0.123261,0,0,225,290,225,290,272,294,223,334,-0.0134887,-0.441339,0,0,0,0,0,2,-1.83646,0.089527,0,0,0,0,-3.40647,0.172115,2352,0,0,0,0,0,0,0,0,0,1,-0.0984798
7669,0.0947266,-3.9043,-7.23047,0.00620915,-0.0103459,-0.0115906,-0.0290418,0.42955,-0.123443,-9.7107,1.69179,0.792419,-1.89139,0.0923048,-3.44863,0.174462,-0.123261,0,0,225,290,225,290,272,294,223,334,-0.0148292,-0.441505,0,0,0,0,0,2,-1.89139,0.0923048,0,0,0,0,-3.44863,0.174462,2352,0,0,0,0,0,0,0,0,0,1,-0.101535
7685,0.0947266,-3.9375,-5.72168,0.0072557,-0.0070298,-0.00273259,-0.0289706,0.42944,-0.123505,-9.7107,1.69179,0.792419,-1.947,0.0951202,-3.49043,0.176811,-0.123505,0,0,225,290,225,290,272,294,223,334,-0.0160725,-0.441676,0,0,0,0,0,2,-1.947,0.0951202,0,0,0,0,-3.49043,0.176811,2352,0,0,0,0,0,0,0,0,0,1,-0.104632
7701,0.0947266,-3.9707,7.29492,0.0093177,-0.00719797,-0.00183003,-0.0288127,0.429354,-0.12352,-9.7107,1.69179,0.792419,-2.00327,0.097973,-3.53187,0.179157,-0.12352,0,0,225,290,225,290,272,294,223,334,-0.0174267,-0.441845,0,0,0,0,0,2,-2.00327,0.097973,0,0,0,0,-3.53187,0.179157,2352,0,0,0,0,0,0,0,0,0,1,-0.10777
7716,0.0947266,-4.00293,-5.97949,0.00770971,-0.000500389,-0.000242893,-0.028707,0.429319,-0.123533,-9.7107,1.69179,0.792419,-2.05662,0.100682,-3.57041,0.181363,-0.123533,0,0,225,290,225,290,272,294,223,334,-0.0187075,-0.442005,0,0,0,0,0,2,-2.05662,0.100682,0,0,0,0,-3.57041,0.181363,2352,0,0,0,0,0,0,0,0,0,1,-0.11075
7732,0.0839844,-4.00293,-6.16992,0.0029684,0.00405277,-0.00296515,-0.0285216,0.429409,-0.123504,-9.7107,1.69179,0.792419,-2.11418,0.103608,-3.6112,0.183718,-0.123479,0,0,225,290,225,290,272,294,223,334,-0.0201141,-0.442176,0,0,0,0,0,2,-2.11418,0.103608,0,0,0,0,-3.6112,0.183718,2352,0,0,0,0,0,0,0,0,0,1,-0.113969
7748,0.0175781,-4.00293,5.32812,0.00128978,0.000876625,-0.00857714,-0.0283203,0.429199,-0.123535,-9.7107,1.69179,0.792419,-2.17237,0.106572,-3.65167,0.186074,-0.123504,0,0,225,290,225,290,272,294,223,334,-0.0214964,-0.442349,0,0,0,0,0,2,-2.17237,0.106572,0,0,0,0,-3.65167,0.186074,2352,0,0,0,0,0,0,0,0,0,1,-0.117229
7764,0.0214844,-4.00293,-7.32129,0.00118362,-0.00794906,-0.0083519,-0.0285605,0.429349,-0.123745,-9.7107,1.69179,0.792419,-2.2312,0.109573,-3.6918,0.188422,-0.123745,0,0,225,290,225,290,272,294,223,334,-0.0227913,-0.442529,0,0,0,0,0,2,-2.2312,0.109573,0,0,0,0,-3.6918,0.188422,2352,0,0,0,0,0,0,0,0,0,1,-0.12053
7779,0.0546875,-4.00293,2.34082,-0.00539161,-0.0101433,-0.00714741,-0.0286489,0.429213,-0.123864,-9.7107,1.69179,0.792419,-2.28693,0.11242,-3.72913,0.190604,-0.123864,0,0,225,290,225,290,272,294,223,334,-0.0240569,-0.442696,0,0,0,0,0,2,-2.28693,0.11242,0,0,0,0,-3.72913,0.190604,2352,0,0,0,0,0,0,0,0,0,1,-0.123662
7795,0.0878906,-3.97461,4.70117,0.00513875,0.0018748,0.00299849,-0.0286027,0.429197,-0.123839,-9.7107,1.69179,0.792419,-2.34323,0.1153,-3.76617,0.192764,-0.123839,0,0,225,290,225,290,272,294,223,334,-0.0253898,-0.44286,0,0,0,0,0,2,-2.34323,0.1153,0,0,0,0,-3.76617,0.192764,2352,0,0,0,0,0,0,0,0,0,1,-0.12683
7811,0.0810547,-3.9082,-1.69629,0.0111489,0.00475131,0.00478489,-0.028425,0.429271,-0.123759,-9.7107,1.69179,0.792419,-2.40771,0.118603,-3.80782,0.195207,-0.123759,0,0,225,290,225,290,272,294,223,334,-0.0269326,-0.443045,0,0,0,0,0,2,-2.40771,0.118603,0,0,0,0,-3.80782,0.195207,2352,0,0,0,0,0,0,0,0,0,1,-0.130464
7826,0.0478516,-3.89453,-4.15723,0.0131476,0.00315062,0.00270673,-0.0282028,0.429317,-0.123696,-9.7107,1.69179,0.792419,-2.46518,0.121552,-3.84427,0.197372,-0.123696,0,0,225,290,225,290,272,294,223,334,-0.0283027,-0.44321,0,0,0,0,0,2,-2.46518,0.121552,0,0,0,0,-3.84427,0.197372,2352,0,0,0,0,0,0,0,0,0,1,-0.133708
7841,0,-3.96094,-1.66406,-0.00292725,-0.0035341,-0.00273062,-0.0281189,0.429264,-0.123765,-9.7107,1.69179,0.792419,-2.5232,0.124534,-3.88046,0.199547,-0.123715,0,0,225,290,225,290,272,294,223,334,-0.0296472,-0.443379,0,0,0,0,0,2,-2.5232,0.124534,0,0,0,0,-3.88046,0.199547,2352,0,0,0,0,0,0,0,0,0,1,-0.136987
7857,0,-3.99414,-5.03125,0.00645472,0.00323089,0.00312315,-0.0280232,0.429311,-0.123723,-9.7107,1.69179,0.792419,-2.58569,0.127751,-3.91876,0.20186,-0.123765,0,0,225,290,225,290,272,294,223,334,-0.0310769,-0.443561,0,0,0,0,0,2,-2.58569,0.127751,0,0,0,0,-3.91876,0.20186,2352,0,0,0,0,0,0,0,0,0,1,-0.140526
7873,0,-4.02734,1.11133,0.00236767,0.00437188,-9.31284e-05,-0.0279626,0.429343,-0.123708,-9.7107,1.69179,0.792419,-2.64877,0.131004,-3.95675,0.204162,-0.123708,0,0,225,290,225,290,272,294,223,334,-0.0325612,-0.443741,0,0,0,0,0,2,-2.64877,0.131004,0,0,0,0,-3.95675,0.204162,2352,0,0,0,0,0,0,0,0,0,1,-0.144105
7889,0,-4.03223,-0.763672,-0.00822764,0.00778223,-0.00345416,-0.0280555,0.429479,-0.123742,-9.7107,1.69179,0.792419,-2.71247,0.134294,-3.99444,0.206461,-0.123708,0,0,225,290,225,290,272,294,223,334,-0.0340293,-0.443923,0,0,0,0,0,2,-2.71247,0.134294,0,0,0,0,-3.99444,0.206461,2352,0,0,0,0,0,0,0,0,0,1,-0.147724
7904,0,-4.03223,4.4707,0.00284631,-0.00321021,-0.0053663,-0.0280736,0.429454,-0.123829,-9.7107,1.69179,0.792419,-2.77272,0.137412,-4.02952,0.20859,-0.123829,0,0,225,290,225,290,272,294,223,334,-0.0353546,-0.444099,0,0,0,0,0,2,-2.77272,0.137412,0,0,0,0,-4.02952,0.20859,2352,0,0,0,0,0,0,0,0,0,1,-0.151153
7920,0,-4.02344,2.82031,0.0108368,-0.0105041,-0.00628417,-0.0279588,0.429312,-0.123923,-9.7107,1.69179,0.792419,-2.83758,0.140773,-4.06665,0.210851,-0.123923,0,0,225,290,225,290,272,294,223,334,-0.0367908,-0.444287,0,0,0,0,0,2,-2.83758,0.140773,0,0,0,0,-4.06665,0.210851,2352,0,0,0,0,0,0,0,0,0,1,-0.15485
7936,0,-3.99023,-7.25586,0.00599615,0.000683852,-0.00216877,-0.0278432,0.429254,-0.123967,-9.7107,1.69179,0.792419,-2.90304,0.14417,-4.10346,0.213119,-0.123967,0,0,225,290,225,290,272,294,223,334,-0.0382612,-0.444474,0,0,0,0,0,2,-2.90304,0.14417,0,0,0,0,-4.10346,0.213119,2352,0,0,0,0,0,0,0,0,0,1,-0.158588
7952,0,-3.92383,-5.22461,-0.000592834,0.000117954,-0.00085323,-0.0278028,0.429385,-0.123921,-9.7107,1.69179,0.792419,-2.96907,0.147603,-4.13996,0.215382,-0.123941,0,0,225,290,225,290,272,294,223,334,-0.0397708,-0.44466,0,0,0,0,0,2,-2.96907,0.147603,0,0,0,0,-4.13996,0.215382,2352,0,0,0,0,0,0,0,0,0,1,-0.162364
7968,0,-3.9209,6.07422,0.00792875,-0.00959016,-0.000621304,-0.0276964,0.429299,-0.123948,-9.7107,1.69179,0.792419,-3.03568,0.151072,-4.1762,0.21763,-0.123921,0,0,225,290,225,290,272,294,223,334,-0.0412842,-0.444846,0,0,0,0,0,2,-3.03568,0.151072,0,0,0,0,-4.1762,0.21763,2352,0,0,0,0,0,0,0,0,0,1,-0.16618
7983,0,-3.9209,-5.6084,-0.00360955,-0.0232109,0.000467847,-0.0276986,0.428976,-0.123922,-9.7107,1.69179,0.792419,-3.09864,0.154357,-4.20988,0.219732,-0.123922,0,0,225,290,225,290,272,294,223,334,-0.0427016,-0.445023,0,0,0,0,0,2,-3.09864,0.154357,0,0,0,0,-4.20988,0.219732,2352,0,0,0,0,0,0,0,0,0,1,-0.169793
7999,0,-3.9209,3.38574,0.0111586,-0.00565824,0.00356943,-0.0275299,0.428869,-0.123846,-9.7107,1.69179,0.792419,-3.16637,0.157896,-4.24549,0.221957,-0.123922,0,0,225,290,225,290,272,294,223,334,-0.0442192,-0.445212,0,0,0,0,0,2,-3.16637,0.157896,0,0,0,0,-4.24549,0.221957,2352,0,0,0,0,0,0,0,0,0,1,-0.173685
8015,0,-3.9209,2.76758,0.00585015,-0.00367366,-0.00182943,-0.0274361,0.428811,-0.123876,-9.7107,1.69179,0.792419,-3.23466,0.16147,-4.28078,0.224191,-0.123876,0,0,225,290,225,290,272,294,223,334,-0.0457694,-0.4454,0,0,0,0,0,2,-3.23466,0.16147,0,0,0,0,-4.28078,0.224191,2352,0,0,0,0,0,0,0,0,0,1,-0.177617
8030,0,-3.9209,1.97949,0.000991952,0.0147571,0.000308398,-0.0273815,0.428968,-0.123874,-9.7107,1.69179,0.792419,-3.29919,0.164853,-4.31361,0.226282,-0.123874,0,0,225,290,225,290,272,294,223,334,-0.047212,-0.44558,0,0,0,0,0,2,-3.29919,0.164853,0,0,0,0,-4.31361,0.226282,2352,0,0,0,0,0,0,0,0,0,1,-0.181338
8045,0,-3.9209,-5.17383,-0.0117325,0.00882219,-0.00164612,-0.0274827,0.429125,-0.123867,-9.7107,1.69179,0.792419,-3.3642,0.168267,-4.34622,0.228359,-0.123867,0,0,225,290,225,290,272,294,223,334,-0.0486623,-0.445759,0,0,0,0,0,2,-3.3642,0.168267,0,0,0,0,-4.34622,0.228359,2352,0,0,0,0,0,0,0,0,0,1,-0.185093
8060,0,-3.9209,-4.92578,-0.00864317,0.00657711,-0.0052345,-0.0276272,0.429199,-0.123928,-9.7107,1.69179,0.792419,-3.4297,0.171712,-4.37861,0.230407,-0.123928,0,0,225,290,225,290,272,294,223,334,-0.0500829,-0.445943,0,0,0,0,0,2,-3.4297,0.171712,0,0,0,0,-4.37861,0.230407,2352,0,0,0,0,0,0,0,0,0,1,-0.188883
8076,0,-3.95215,3.83203,0.000299507,0.00373067,-0.0110686,-0.0276803,0.429286,-0.124093,-9.7107,1.69179,0.792419,-3.50012,0.175421,-4.41291,0.232565,-0.124093,0,0,225,290,225,290,272,294,223,334,-0.0515572,-0.446144,0,0,0,0,0,2,-3.50012,0.175421,0,0,0,0,-4.41291,0.232565,2352,0,0,0,0,0,0,0,0,0,1,-0.192963
8092,0,-4.01855,-5.97949,0.0119403,-0.0093271,-0.00896698,-0.0274922,0.428954,-0.124324,-9.7107,1.69179,0.792419,-3.57109,0.179165,-4.44694,0.234715,-0.124207,0,0,225,290,225,290,272,294,223,334,-0.0530613,-0.446344,0,0,0,0,0,2,-3.57109,0.179165,0,0,0,0,-4.44694,0.234715,2352,0,0,0,0,0,0,0,0,0,1,-0.197081
8114,0,-4.02734,-5.48438,0.0058316,-0.0084213,-0.0118146,-0.0274825,0.428845,-0.124502,-9.7107,1.69179,0.792419,-3.66963,0.184374,-4.49325,0.237697,-0.124502,0,0,225,290,225,290,272,294,223,334,-0.0550907,-0.44663,0,0,0,0,0,2,-3.66963,0.184374,0,0,0,0,-4.49325,0.237697,2352,0,0,0,0,0,0,0,0,0,1,-0.202812
8131,0,-3.92871,1.5332,0.011156,-0.0158558,-0.00819709,-0.0273685,0.42864,-0.12462,-9.7107,1.69179,0.792419,-3.74641,0.18844,-4.52863,0.239997,-0.12462,0,0,225,290,225,290,272,294,223,334,-0.0567182,-0.446847,0,0,0,0,0,2,-3.74641,0.18844,0,0,0,0,-4.52863,0.239997,2352,0,0,0,0,0,0,0,0,0,1,-0.207284
8147,0,-3.94141,6.24707,-0.0309058,0.00638574,-0.0098212,-0.0277584,0.42845,-0.124841,-9.7107,1.69179,0.792419,-3.81463,0.19206,-4.55955,0.242025,-0.124703,0,0,225,290,225,290,272,294,223,334,-0.058172,-0.447039,0,0,0,0,0,2,-3.81463,0.19206,0,0,0,0,-4.55955,0.242025,2352,0,0,0,0,0,0,0,0,0,1,-0.211266
8163,0,-4.04102,4.20801,-0.0217869,0.00624798,-0.014988,-0.0281652,0.42853,-0.125041,-9.7107,1.69179,0.792419,-3.88793,0.195955,-4.59226,0.244147,-0.124841,0,0,225,290,225,290,272,294,223,334,-0.0596993,-0.447246,0,0,0,0,0,2,-3.88793,0.195955,0,0,0,0,-4.59226,0.244147,2352,0,0,0,0,0,0,0,0,0,1,-0.21555
8179,0,-4.06836,-6.02637,-0.0186988,0.0152408,-0.0207558,-0.0285351,0.428701,-0.12537,-9.7107,1.69179,0.792419,-3.96175,0.199883,-4.62474,0.246191,-0.12537,0,0,225,290,225,290,272,294,223,334,-0.0610415,-0.447477,0,0,0,0,0,2,-3.96175,0.199883,0,0,0,0,-4.62474,0.246191,2352,0,0,0,0,0,0,0,0,0,1,-0.219871
8194,0.0498047,-3.92871,4.08496,-0.00769217,0.0177366,-0.0066075,-0.0287634,0.428918,-0.125538,-9.7107,1.69179,0.792419,-4.03608,0.203843,-4.65701,0.24816,-0.125538,0,0,225,290,225,290,272,294,223,334,-0.062535,-0.447685,0,0,0,0,0,2,-4.03608,0.203843,0,0,0,0,-4.65701,0.24816,2352,0,0,0,0,0,0,0,0,0,1,-0.224227
8210,0.116211,-3.81543,3.35449,-0.00315229,0.0280433,0.0114292,-0.0287496,0.429253,-0.125401,-9.7107,1.69179,0.792419,-4.11092,0.207833,-4.68907,0.250093,-0.125401,0,0,225,290,225,290,272,294,223,334,-0.0641643,-0.447874,0,0,0,0,0,2,-4.11092,0.207833,0,0,0,0,-4.68907,0.250093,2352,0,0,0,0,0,0,0,0,0,1,-0.228616
8225,0.0947266,-3.88379,1.2627,-0.00357769,0.0178372,0.0109895,-0.0286967,0.429596,-0.125204,-9.7107,1.69179,0.792419,-4.18155,0.211602,-4.71895,0.251892,-0.125204,0,0,225,290,225,290,272,294,223,334,-0.065727,-0.448047,0,0,0,0,0,2,-4.18155,0.211602,0,0,0,0,-4.71895,0.251892,2352,0,0,0,0,0,0,0,0,0,1,-0.232762
8242,0,-4.0166,7.28418,-0.00911127,-0.0210489,-0.00351786,-0.0287712,0.429409,-0.125198,-9.7107,1.69179,0.792419,-4.26214,0.215906,-4.75258,0.253909,-0.125198,0,0,225,290,225,290,272,294,223,334,-0.0674046,-0.448257,0,0,0,0,0,2,-4.26214,0.215906,0,0,0,0,-4.75258,0.253909,2352,0,0,0,0,0,0,0,0,0,1,-0.237497
8257,0.0654297,-3.93457,3.86914,0.00882526,-0.00207443,0.00486827,-0.0287334,0.429142,-0.125395,-9.7107,1.69179,0.792419,-4.33371,0.219731,-4.78197,0.255662,-0.125423,0,0,225,290,225,290,272,294,223,334,-0.0687821,-0.448459,0,0,0,0,0,2,-4.33371,0.219731,0,0,0,0,-4.78197,0.255662,2352,0,0,0,0,0,0,0,0,0,1,-0.241705
8272,0.0654297,-3.93457,3.86914,0.00882526,-0.00207443,0.00486827,-0.0287334,0.429142,-0.125395,-9.7107,1.69179,0.792419,-4.40572,0.223583,-4.81112,0.25741,-0.125395,0,0,225,290,225,290,272,294,223,334,-0.0702792,-0.448644,0,0,0,0,0,2,-4.40572,0.223583,0,0,0,0,-4.81112,0.25741,2352,0,0,0,0,0,0,0,0,0,1,-0.245941
8289,0.0615234,-3.96582,-0.279297,0.0090162,-0.000432102,0.00718284,-0.0284027,0.429147,-0.12509,-9.7107,1.69179,0.792419,-4.48788,0.227982,-4.8439,0.259394,-0.12509,0,0,225,290,225,290,272,294,223,334,-0.0721082,-0.448836,0,0,0,0,0,2,-4.48788,0.227982,0,0,0,0,-4.8439,0.259394,2352,0,0,0,0,0,0,0,0,0,1,-0.25078
8305,0.0283203,-4.01172,2.99707,0.00987626,0.000251976,0.00549151,-0.028215,0.429155,-0.124992,-9.7107,1.69179,0.792419,-4.56569,0.232151,-4.87449,0.261274,-0.124992,0,0,225,290,225,290,272,294,223,334,-0.0737563,-0.44903,0,0,0,0,0,2,-4.56569,0.232151,0,0,0,0,-4.87449,0.261274,2352,0,0,0,0,0,0,0,0,0,1,-0.255366
8321,0,-3.97852,-2.38867,-0.000223426,-0.00253199,0.00309003,-0.0281814,0.429137,-0.12493,-9.7107,1.69179,0.792419,-4.64401,0.236351,-4.90483,0.263161,-0.12493,0,0,225,290,225,290,272,294,223,334,-0.0753981,-0.449228,0,0,0,0,0,2,-4.64401,0.236351,0,0,0,0,-4.90483,0.263161,2352,0,0,0,0,0,0,0,0,0,1,-0.259986
8337,0,-3.94531,-1.57324,0.0015988,-0.0023839,-0.000135168,-0.0281297,0.429087,-0.12492,-9.7107,1.69179,0.792419,-4.7228,0.240582,-4.93492,0.265036,-0.12492,0,0,225,290,225,290,272,294,223,334,-0.0770221,-0.449431,0,0,0,0,0,2,-4.7228,0.240582,0,0,0,0,-4.93492,0.265036,2352,0,0,0,0,0,0,0,0,0,1,-0.26464
8353,0,-3.91211,6.43457,0.00862486,-0.00122453,-0.000589394,-0.028003,0.429065,-0.12493,-9.7107,1.69179,0.792419,-4.80206,0.244841,-4.96476,0.266909,-0.12493,0,0,225,290,225,290,272,294,223,334,-0.0786448,-0.449636,0,0,0,0,0,2,-4.80206,0.244841,0,0,0,0,-4.96476,0.266909,2352,0,0,0,0,0,0,0,0,0,1,-0.269325
8369,0,-3.93359,7.2959,-0.00776263,-0.0102683,-0.0149819,-0.0281372,0.42877,-0.125145,-9.7107,1.69179,0.792419,-4.8818,0.249131,-4.99435,0.268781,-0.124971,0,0,225,290,225,290,272,294,223,334,-0.0802607,-0.449844,0,0,0,0,0,2,-4.8818,0.249131,0,0,0,0,-4.99435,0.268781,2352,0,0,0,0,0,0,0,0,0,1,-0.274044
8384,0,-3.9668,2.30957,0.000565109,-0.00768216,-0.018217,-0.028256,0.428678,-0.125424,-9.7107,1.69179,0.792419,-4.95698,0.253179,-5.02184,0.270508,-0.125145,0,0,225,290,225,290,272,294,223,334,-0.0817158,-0.450051,0,0,0,0,0,2,-4.95698,0.253179,0,0,0,0,-5.02184,0.270508,2352,0,0,0,0,0,0,0,0,0,1,-0.278497
8400,0,-3.9873,-2.75879,-0.00136449,-0.00771754,-0.0119651,-0.0283663,0.428519,-0.125625,-9.7107,1.69179,0.792419,-5.03764,0.257527,-5.05092,0.272334,-0.125625,0,0,225,290,225,290,272,294,223,334,-0.0831388,-0.450297,0,0,0,0,0,2,-5.03764,0.257527,0,0,0,0,-5.05092,0.272334,2352,0,0,0,0,0,0,0,0,0,1,-0.283279
8416,0,-3.9541,-2.65918,0.000489821,0.0156016,-0.00247603,-0.0283761,0.428686,-0.125672,-9.7107,1.69179,0.792419,-5.11875,0.261902,-5.07975,0.274139,-0.125672,0,0,225,290,225,290,272,294,223,334,-0.0847588,-0.450509,0,0,0,0,0,2,-5.11875,0.261902,0,0,0,0,-5.07975,0.274139,2352,0,0,0,0,0,0,0,0,0,1,-0.288093
8431,0,-3.9209,-7.07031,-0.00715186,0.00948343,-0.00182939,-0.0284995,0.428859,-0.125699,-9.7107,1.69179,0.792419,-5.1952,0.266031,-5.1066,0.275816,-0.125699,0,0,225,290,225,290,272,294,223,334,-0.0862893,-0.450706,0,0,0,0,0,2,-5.1952,0.266031,0,0,0,0,-5.1066,0.275816,2352,0,0,0,0,0,0,0,0,0,1,-0.292634
8448,0,-3.93359,5.15137,0.0138569,-0.00243293,-0.00512737,-0.028416,0.428834,-0.125876,-9.7107,1.69179,0.792419,-5.28235,0.27074,-5.13682,0.277693,-0.12578,0,0,225,290,225,290,272,294,223,334,-0.0880031,-0.450934,0,0,0,0,0,2,-5.28235,0.27074,0,0,0,0,-5.13682,0.277693,2352,0,0,0,0,0,0,0,0,0,1,-0.297814
8462,0,-3.93359,5.15137,0.0138569,-0.00243293,-0.00512737,-0.028416,0.428834,-0.125876,-9.7107,1.69179,0.792419,-5.35448,0.274642,-5.1615,0.279238,-0.125876,0,0,225,290,225,290,272,294,223,334,-0.0894072,-0.451126,0,0,0,0,0,2,-5.35448,0.274642,0,0,0,0,-5.1615,0.279238,2352,0,0,0,0,0,0,0,0,0,1,-0.302106
8477,0.0419922,-4,0.828125,0.00793,-0.0166773,-0.00306285,-0.0282779,0.428404,-0.125967,-9.7107,1.69179,0.792419,-5.43216,0.278846,-5.18774,0.280897,-0.125927,0,0,225,290,225,290,272,294,223,334,-0.0909429,-0.451328,0,0,0,0,0,2,-5.43216,0.278846,0,0,0,0,-5.18774,0.280897,2352,0,0,0,0,0,0,0,0,0,1,-0.306731
8493,0.0751953,-3.99414,3.70508,0.00996875,-0.0122919,-0.00210921,-0.0281264,0.42821,-0.125993,-9.7107,1.69179,0.792419,-5.51545,0.283359,-5.21546,0.282665,-0.125967,0,0,225,290,225,290,272,294,223,334,-0.0925942,-0.451543,0,0,0,0,0,2,-5.51545,0.283359,0,0,0,0,-5.21546,0.282665,2352,0,0,0,0,0,0,0,0,0,1,-0.311695
8509,0.108398,-3.96094,-4.60742,0.0116725,0.00221212,0.00834661,-0.0278933,0.428228,-0.12589,-9.7107,1.69179,0.792419,-5.59917,0.287899,-5.24293,0.284439,-0.12589,0,0,225,290,225,290,272,294,223,334,-0.0943078,-0.451748,0,0,0,0,0,2,-5.59917,0.287899,0,0,0,0,-5.24293,0.284439,2352,0,0,0,0,0,0,0,0,0,1,-0.316689
8525,0.12207,-3.94238,-2.03809,3.76266e-05,-0.00954271,0.00572504,-0.0278354,0.428128,-0.125778,-9.7107,1.69179,0.792419,-5.68334,0.292469,-5.27016,0.286237,-0.125778,0,0,225,290,225,290,272,294,223,334,-0.0960513,-0.451952,0,0,0,0,0,2,-5.68334,0.292469,0,0,0,0,-5.27016,0.286237,2352,0,0,0,0,0,0,0,0,0,1,-0.321716
8540,0.0673828,-3.94238,5.91992,0.00717107,-0.0123219,-0.00187541,-0.0277393,0.42798,-0.125773,-9.7107,1.69179,0.792419,-5.76263,0.296779,-5.29546,0.287914,-0.125773,0,0,225,290,225,290,272,294,223,334,-0.0976453,-0.452152,0,0,0,0,0,2,-5.76263,0.296779,0,0,0,0,-5.29546,0.287914,2352,0,0,0,0,0,0,0,0,0,1,-0.326456
8556,0.000976562,-3.94238,6.27832,0.00823296,-0.0212977,-0.00203565,-0.0276485,0.427668,-0.125818,-9.7107,1.69179,0.792419,-5.84764,0.301403,-5.32221,0.289701,-0.125818,0,0,225,290,225,290,272,294,223,334,-0.0993301,-0.452372,0,0,0,0,0,2,-5.84764,0.301403,0,0,0,0,-5.32221,0.289701,2352,0,0,0,0,0,0,0,0,0,1,-0.331544
8572,0.0302734,-3.94238,-3.59668,0.00257526,-0.00707922,0.00864968,-0.027508,0.427564,-0.125692,-9.7107,1.69179,0.792419,-5.93306,0.306057,-5.3487,0.291486,-0.125692,0,0,225,290,225,290,272,294,223,334,-0.101099,-0.452576,0,0,0,0,0,2,-5.93306,0.306057,0,0,0,0,-5.3487,0.291486,2352,0,0,0,0,0,0,0,0,0,1,-0.336663
8588,0.0595703,-3.94238,2.88379,0.0178524,0.00541077,0.00259137,-0.0273133,0.427,-0.125566,-9.7107,1.69179,0.792419,-6.01891,0.310739,-5.37492,0.293253,-0.125591,0,0,225,290,225,290,272,294,223,334,-0.102861,-0.452783,0,0,0,0,0,2,-6.01891,0.310739,0,0,0,0,-5.37492,0.293253,2352,0,0,0,0,0,0,0,0,0,1,-0.341813
8604,0.0263672,-3.94238,-5.98145,-0.000878038,-0.00414748,0.00424076,-0.0272363,0.426931,-0.125495,-9.7107,1.69179,0.792419,-6.09977,0.315153,-5.39926,0.294902,-0.125566,0,0,225,290,225,290,272,294,223,334,-0.104485,-0.452984,0,0,0,0,0,2,-6.09977,0.315153,0,0,0,0,-5.39926,0.294902,2352,0,0,0,0,0,0,0,0,0,1,-0.346669
8619,0,-3.94238,6.70117,0.00258902,-0.0011751,0.00465986,-0.0271486,0.426935,-0.125398,-9.7107,1.69179,0.792419,-6.18643,0.31989,-5.42502,0.29667,-0.125398,0,0,225,290,225,290,272,294,223,334,-0.106293,-0.453184,0,0,0,0,0,2,-6.18643,0.31989,0,0,0,0,-5.42502,0.29667,2352,0,0,0,0,0,0,0,0,0,1,-0.351879
8635,0,-3.94238,-4.14648,0.00716474,-0.00477078,-0.00374771,-0.0270996,0.426758,-0.125488,-9.7107,1.69179,0.792419,-6.27349,0.324655,-5.45057,0.298433,-0.125398,0,0,225,290,225,290,272,294,223,334,-0.10803,-0.453403,0,0,0,0,0,2,-6.27349,0.324655,0,0,0,0,-5.45057,0.298433,2352,0,0,0,0,0,0,0,0,0,1,-0.357121
8651,0,-3.94238,6.77148,0.0117577,-0.0111975,0.00185641,-0.0268906,0.426724,-0.125444,-9.7107,1.69179,0.792419,-6.36095,0.329448,-5.47587,0.300204,-0.125444,0,0,225,290,225,290,272,294,223,334,-0.109756,-0.453629,0,0,0,0,0,2,-6.36095,0.329448,0,0,0,0,-5.47587,0.300204,2352,0,0,0,0,0,0,0,0,0,1,-0.362393
8666,0,-3.94238,-5.26855,0.00307362,-0.0106971,0.00324214,-0.0267993,0.426577,-0.125358,-9.7107,1.69179,0.792419,-6.44331,0.333967,-5.49939,0.301872,-0.125358,0,0,225,290,225,290,272,294,223,334,-0.111442,-0.453827,0,0,0,0,0,2,-6.44331,0.333967,0,0,0,0,-5.49939,0.301872,2352,0,0,0,0,0,0,0,0,0,1,-0.367363
8681,0,-3.94238,-5.26855,0.00307362,-0.0106971,0.00324214,-0.0267993,0.426577,-0.125358,-9.7107,1.69179,0.792419,-6.52602,0.338511,-5.52272,0.303531,-0.125358,0,0,225,290,225,290,272,294,223,334,-0.113093,-0.454035,0,0,0,0,0,2,-6.52602,0.338511,0,0,0,0,-5.52272,0.303531,2352,0,0,0,0,0,0,0,0,0,1,-0.372362
8698,0,-3.94238,-5.26855,0.00307362,-0.0106971,0.00324214,-0.0267993,0.426577,-0.125358,-9.7107,1.69179,0.792419,-6.6202,0.343691,-5.54896,0.305396,-0.125358,0,0,225,290,225,290,272,294,223,334,-0.114969,-0.454271,0,0,0,0,0,2,-6.6202,0.343691,0,0,0,0,-5.54896,0.305396,2352,0,0,0,0,0,0,0,0,0,1,-0.37806
8714,0.0927734,-3.94238,-7.35645,-0.00777189,-0.00989393,0.00605922,-0.0264212,0.426391,-0.125147,-9.7107,1.69179,0.792419,-6.70923,0.348595,-5.57345,0.307138,-0.125358,0,0,225,290,225,290,272,294,223,334,-0.116739,-0.454494,0,0,0,0,0,2,-6.70923,0.348595,0,0,0,0,-5.57345,0.307138,2352,0,0,0,0,0,0,0,0,0,1,-0.383455
8731,0.0595703,-3.94238,3.37793,0.00120017,-0.0155148,-0.000454632,-0.0264084,0.426198,-0.125127,-9.7107,1.69179,0.792419,-6.80427,0.353837,-5.59923,0.308997,-0.125127,0,0,225,290,225,290,272,294,223,334,-0.118735,-0.454705,0,0,0,0,0,2,-6.80427,0.353837,0,0,0,0,-5.59923,0.308997,2352,0,0,0,0,0,0,0,0,0,1,-0.389221
8748,0.0263672,-3.94238,4.99219,0.00658857,-0.0137095,-0.00675699,-0.0263641,0.426008,-0.125229,-9.7107,1.69179,0.792419,-6.89973,0.35911,-5.62473,0.310863,-0.125229,0,0,225,290,225,290,272,294,223,334,-0.120591,-0.454957,0,0,0,0,0,2,-6.89973,0.35911,0,0,0,0,-5.62473,0.310863,2352,0,0,0,0,0,0,0,0,0,1,-0.395021
8764,0,-3.91699,-4.16309,0.00896386,-0.010791,0.00592944,-0.0262137,0.425835,-0.125175,-9.7107,1.69179,0.792419,-6.98997,0.364102,-5.64849,0.312619,-0.125175,0,0,225,290,225,290,272,294,223,334,-0.122413,-0.455176,0,0,0,0,0,2,-6.98997,0.364102,0,0,0,0,-5.64849,0.312619,2352,0,0,0,0,0,0,0,0,0,1,-0.400512
8780,0,-3.88379,5.66992,0.021082,-0.000831914,0.0130918,-0.0258531,0.42577,-0.124974,-9.7107,1.69179,0.792419,-7.08059,0.369122,-5.67204,0.314391,-0.124974,0,0,225,290,225,290,272,294,223,334,-0.124313,-0.455379,0,0,0,0,0,2,-7.08059,0.369122,0,0,0,0,-5.67204,0.314391,2352,0,0,0,0,0,0,0,0,0,1,-0.406034
8795,0,-3.90332,0.668945,0.0148186,0.00563916,0.00757667,-0.0255495,0.42589,-0.124821,-9.7107,1.69179,0.792419,-7.16588,0.373854,-5.69394,0.316079,-0.124821,0,0,225,290,225,290,272,294,223,334,-0.126093,-0.455574,0,0,0,0,0,2,-7.16588,0.373854,0,0,0,0,-5.69394,0.316079,2352,0,0,0,0,0,0,0,0,0,1,-0.411239
8811,0,-3.99121,-0.236328,0.0189758,8.58617e-05,0.00147829,-0.0250801,0.425676,-0.124808,-9.7107,1.69179,0.792419,-7.25723,0.37893,-5.71712,0.317902,-0.124814,0,0,225,290,225,290,272,294,223,334,-0.127934,-0.455804,0,0,0,0,0,2,-7.25723,0.37893,0,0,0,0,-5.71712,0.317902,2352,0,0,0,0,0,0,0,0,0,1,-0.416824
8833,0,-3.9248,7.08887,0.00973404,0.00498017,0.00884578,-0.0248436,0.425734,-0.124667,-9.7107,1.69179,0.792419,-7.38349,0.385964,-5.74868,0.320474,-0.124667,0,0,225,290,225,290,272,294,223,334,-0.130558,-0.456106,0,0,0,0,0,2,-7.38349,0.385964,0,0,0,0,-5.74868,0.320474,2352,0,0,0,0,0,0,0,0,0,1,-0.42456
9408,0,-3.8584,4.24805,0.0120905,0.0196784,0.0149322,-0.0245703,0.425992,-0.124442,-9.7107,1.69179,0.792419,-11.1386,0.607585,-6.55987,0.387641,-0.124691,0,0,225,290,225,290,272,294,223,334,-0.207681,-0.465777,0,0,0,0,0,2,-11.1386,0.607585,0,0,0,0,-6.55987,0.387641,2352,0,0,0,0,0,0,0,0,0,1,-0.668344
9421,0,-3.8584,4.24805,0.0120905,0.0196784,0.0149322,-0.0245703,0.425992,-0.124442,-9.7107,1.69179,0.792419,-11.2306,0.613026,-6.5737,0.389181,-0.125056,0,0,225,290,225,290,272,294,223,334,-0.209377,-0.466087,0,0,0,0,0,2,-11.2306,0.613026,0,0,0,0,-6.5737,0.389181,2352,0,0,0,0,0,0,0,0,0,1,-0.674328
9438,0,-3.8584,4.24805,0.0120905,0.0196784,0.0149322,-0.0245703,0.425992,-0.124442,-9.7107,1.69179,0.792419,-11.3425,0.619663,-6.59039,0.391082,-0.12526,0,0,225,290,225,290,272,294,223,334,-0.211564,-0.466418,0,0,0,0,0,2,-11.3425,0.619663,0,0,0,0,-6.59039,0.391082,2352,0,0,0,0,0,0,0,0,0,1,-0.681629
9453,0,-3.8584,4.24805,0.0120905,0.0196784,0.0149322,-0.0245703,0.425992,-0.124442,-9.7107,1.69179,0.792419,-11.4415,0.625544,-6.60498,0.392748,-0.125429,0,0,225,290,225,290,272,294,223,334,-0.213504,-0.466708,0,0,0,0,0,2,-11.4415,0.625544,0,0,0,0,-6.60498,0.392748,2352,0,0,0,0,0,0,0,0,0,1,-0.688099
9469,0,-3.8584,4.24805,0.0120905,0.0196784,0.0149322,-0.0245703,0.425992,-0.124442,-9.7107,1.69179,0.792419,-11.5474,0.631847,-6.62044,0.394523,-0.125475,0,0,225,290,225,290,272,294,223,334,-0.215642,-0.46699,0,0,0,0,0,2,-11.5474,0.631847,0,0,0,0,-6.62044,0.394523,2352,0,0,0,0,0,0,0,0,0,1,-0.695031
9485,0,-3.8584,4.24805,0.0120905,0.0196784,0.0149322,-0.0245703,0.425992,-0.124442,-9.7107,1.69179,0.792419,-11.6534,0.638177,-6.6358,0.396277,-0.125417,0,0,225,290,225,290,272,294,223,334,-0.217831,-0.46725,0,0,0,0,0,2,-11.6534,0.638177,0,0,0,0,-6.6358,0.396277,2352,0,0,0,0,0,0,0,0,0,1,-0.701994
9501,0,-3.8584,4.24805,0.0120905,0.0196784,0.0149322,-0.0245703,0.425992,-0.124442,-9.7107,1.69179,0.792419,-11.7598,0.644535,-6.65105,0.398013,-0.125535,0,0,225,290,225,290,272,294,223,334,-0.219941,-0.467549,0,0,0,0,0,2,-11.7598,0.644535,0,0,0,0,-6.65105,0.398013,2352,0,0,0,0,0,0,0,0,0,1,-0.708989
9517,0,-3.8584,4.24805,0.0120905,0.0196784,0.0149322,-0.0245703,0.425992,-0.124442,-9.7107,1.69179,0.792419,-11.8663,0.650921,-6.66619,0.399732,-0.125657,0,0,225,290,225,290,272,294,223,334,-0.222053,-0.46785,0,0,0,0,0,2,-11.8663,0.650921,0,0,0,0,-6.66619,0.399732,2352,0,0,0,0,0,0,0,0,0,1,-0.716013
9533,0,-3.8584,4.24805,0.0120905,0.0196784,0.0149322,-0.0245703,0.425992,-0.124442,-9.7107,1.69179,0.792419,-11.9732,0.657335,-6.68122,0.401432,-0.125843,0,0,225,290,225,290,272,294,223,334,-0.224137,-0.468166,0,0,0,0,0,2,-11.9732,0.657335,0,0,0,0,-6.68122,0.401432,2352,0,0,0,0,0,0,0,0,0,1,-0.723068
9549,0,-3.8584,4.24805,0.0120905,0.0196784,0.0149322,-0.0245703,0.425992,-0.124442,-9.7107,1.69179,0.792419,-12.0802,0.663774,-6.69614,0.403103,-0.125954,0,0,225,290,225,290,272,294,223,334,-0.226257,-0.468466,0,0,0,0,0,2,-12.0802,0.663774,0,0,0,0,-6.69614,0.403103,2352,0,0,0,0,0,0,0,0,0,1,-0.730152
9565,0,-3.8584,4.24805,0.0120905,0.0196784,0.0149322,-0.0245703,0.425992,-0.124442,-9.7107,1.69179,0.792419,-12.1875,0.670242,-6.71094,0.40476,-0.126041,0,0,225,290,225,290,272,294,223,334,-0.228392,-0.468761,0,0,0,0,0,2,-12.1875,0.670242,0,0,0,0,-6.71094,0.40476,2352,0,0,0,0,0,0,0,0,0,1,-0.737266
9582,0,-3.8584,4.24805,0.0120905,0.0196784,0.0149322,-0.0245703,0.425992,-0.124442,-9.7107,1.69179,0.792419,-12.295,0.676735,-6.7256,0.406393,-0.126141,0,0,225,290,225,290,272,294,223,334,-0.230521,-0.46906,0,0,0,0,0,2,-12.295,0.676735,0,0,0,0,-6.7256,0.406393,2352,0,0,0,0,0,0,0,0,0,1,-0.744408
9646,0,-3.8584,4.24805,0.0120905,0.0196784,0.0149322,-0.0245703,0.425992,-0.124442,-9.7107,1.69179,0.792419,-12.7356,0.703523,-6.78448,0.412939,-0.126192,0,0,225,290,225,290,272,294,223,334,-0.239428,-0.470205,0,0,0,0,0,2,-12.7356,0.703523,0,0,0,0,-6.78448,0.412939,2352,0,0,0,0,0,0,0,0,0,1,-0.773875
9662,0,-3.8584,4.24805,0.0120905,0.0196784,0.0149322,-0.0245703,0.425992,-0.124442,-9.7107,1.69179,0.792419,-12.8443,0.710146,-6.79845,0.414541,-0.126297,0,0,225,290,225,290,272,294,223,334,-0.241584,-0.47051,0,0,0,0,0,2,-12.8443,0.710146,0,0,0,0,-6.79845,0.414541,2352,0,0,0,0,0,0,0,0,0,1,-0.78116
9678,0,-3.8584,4.24805,0.0120905,0.0196784,0.0149322,-0.0245703,0.425992,-0.124442,-9.7107,1.69179,0.792419,-12.9532,0.716795,-6.81228,0.416138,-0.126251,0,0,225,290,225,290,272,294,223,334,-0.243815,-0.470779,0,0,0,0,0,2,-12.9532,0.716795,0,0,0,0,-6.81228,0.416138,2352,0,0,0,0,0,0,0,0,0,1,-0.788474
9695,0,-3.8584,4.24805,0.0120905,0.0196784,0.0149322,-0.0245703,0.425992,-0.124442,-9.02948,1.54975,0.676799,-13.0691,0.723888,-6.82686,0.417825,-0.126154,0,0,226,286,226,286,276,287,222,331,-0.246214,-0.471054,0,0,0,0,0,2,-13.0691,0.723888,0,0,0,0,-6.82686,0.417825,2646,0,0,0,0,0,0,0,0,0,1,-0.796277
9709,0,-3.8584,4.24805,0.0120905,0.0196784,0.0149322,-0.0245703,0.425992,-0.124442,-9.02948,1.54975,0.676799,-13.1648,0.72975,-6.83878,0.419208,-0.126108,0,0,226,286,226,286,276,287,222,331,-0.248178,-0.471289,0,0,0,0,0,2,-13.1648,0.72975,0,0,0,0,-6.83878,0.419208,2646,0,0,0,0,0,0,0,0,0,1,-0.802725
9723,0,-3.8584,4.24805,0.0120905,0.0196784,0.0149322,-0.0245703,0.425992,-0.124442,-9.02948,1.54975,0.676799,-13.2607,0.735631,-6.85061,0.420572,-0.126237,0,0,226,286,226,286,276,287,222,331,-0.25006,-0.471567,0,0,0,0,0,2,-13.2607,0.735631,0,0,0,0,-6.85061,0.420572,2646,0,0,0,0,0,0,0,0,0,1,-0.809194
9759,0,-3.8584,4.24805,0.0120905,0.0196784,0.0149322,-0.0245703,0.425992,-0.124442,-9.02948,1.54975,0.676799,-13.5082,0.75087,-6.88072,0.424006,-0.126795,0,0,226,286,226,286,276,287,222,331,-0.254805,-0.472345,0,0,0,0,0,2,-13.5082,0.75087,0,0,0,0,-6.88072,0.424006,2646,0,0,0,0,0,0,0,0,0,1,-0.825956
9785,0,-3.8584,4.24805,0.0120905,0.0196784,0.0149322,-0.0245703,0.425992,-0.124442,-9.02948,1.54975,0.676799,-13.6875,0.76194,-6.90208,0.426426,-0.126916,0,0,226,286,226,286,276,287,222,331,-0.258368,-0.472838,0,0,0,0,0,2,-13.6875,0.76194,0,0,0,0,-6.90208,0.426426,2646,0,0,0,0,0,0,0,0,0,1,-0.838134
9823,0,-3.8584,4.24805,0.0120905,0.0196784,0.0149322,-0.0245703,0.425992,-0.124442,-9.02948,1.54975,0.676799,-13.9507,0.778248,-6.93287,0.429925,-0.126848,0,0,226,286,226,286,276,287,222,331,-0.263717,-0.473499,0,0,0,0,0,2,-13.9507,0.778248,0,0,0,0,-6.93287,0.429925,2646,0,0,0,0,0,0,0,0,0,1,-0.856073
9844,0,-3.8584,4.24805,0.0120905,0.0196784,0.0149322,-0.0245703,0.425992,-0.124442,-9.02948,1.54975,0.676799,-14.0965,0.787304,-6.94956,0.431835,-0.126952,0,0,226,286,226,286,276,287,222,331,-0.266612,-0.473902,0,0,0,0,0,2,-14.0965,0.787304,0,0,0,0,-6.94956,0.431835,2646,0,0,0,0,0,0,0,0,0,1,-0.866034
9859,0,-3.8584,4.24805,0.0120905,0.0196784,0.0149322,-0.0245703,0.425992,-0.124442,-9.02948,1.54975,0.676799,-14.2008,0.793794,-6.96138,0.433189,-0.126945,0,0,226,286,226,286,276,287,222,331,-0.268721,-0.474169,0,0,0,0,0,2,-14.2008,0.793794,0,0,0,0,-6.96138,0.433189,2646,0,0,0,0,0,0,0,0,0,1,-0.873174
9875,0,-3.8584,4.24805,0.0120905,0.0196784,0.0149322,-0.0245703,0.425992,-0.124442,-9.02948,1.54975,0.676799,-14.3123,0.80074,-6.97391,0.43462,-0.127034,0,0,226,286,226,286,276,287,222,331,-0.270928,-0.47448,0,0,0,0,0,2,-14.3123,0.80074,0,0,0,0,-6.97391,0.43462,2646,0,0,0,0,0,0,0,0,0,1,-0.880814
9892,0,-3.8584,4.24805,0.0120905,0.0196784,0.0149322,-0.0245703,0.425992,-0.124442,-9.02948,1.54975,0.676799,-14.4241,0.807709,-6.98632,0.436035,-0.127316,0,0,226,286,226,286,276,287,222,331,-0.273047,-0.474844,0,0,0,0,0,2,-14.4241,0.807709,0,0,0,0,-6.98632,0.436035,2646,0,0,0,0,0,0,0,0,0,1,-0.88848
9908,0,-3.8584,4.24805,0.0120905,0.0196784,0.0149322,-0.0245703,0.425992,-0.124442,-9.02948,1.54975,0.676799,-14.543,0.815138,-6.99938,0.437532,-0.127315,0,0,226,286,226,286,276,287,222,331,-0.275445,-0.475151,0,0,0,0,0,2,-14.543,0.815138,0,0,0,0,-6.99938,0.437532,2646,0,0,0,0,0,0,0,0,0,1,-0.896651
9923,0,-3.8584,4.24805,0.0120905,0.0196784,0.0149322,-0.0245703,0.425992,-0.124442,-9.02948,1.54975,0.676799,-14.6481,0.821713,-7.0108,0.438844,-0.127236,0,0,226,286,226,286,276,287,222,331,-0.277601,-0.475401,0,0,0,0,0,2,-14.6481,0.821713,0,0,0,0,-7.0108,0.438844,2646,0,0,0,0,0,0,0,0,0,1,-0.903885
9939,0,-3.8584,4.24805,0.0120905,0.0196784,0.0149322,-0.0245703,0.425992,-0.124442,-9.02948,1.54975,0.676799,-14.7604,0.828749,-7.02286,0.440237,-0.127246,0,0,226,286,226,286,276,287,222,331,-0.279861,-0.475693,0,0,0,0,0,2,-14.7604,0.828749,0,0,0,0,-7.02286,0.440237,2646,0,0,0,0,0,0,0,0,0,1,-0.911624
9954,0,-3.8584,4.24805,0.0120905,0.0196784,0.0149322,-0.0245703,0.425992,-0.124442,-9.02948,1.54975,0.676799,-14.8658,0.835365,-7.03407,0.441531,-0.127259,0,0,226,286,226,286,276,287,222,331,-0.281981,-0.475969,0,0,0,0,0,2,-14.8658,0.835365,0,0,0,0,-7.03407,0.441531,2646,0,0,0,0,0,0,0,0,0,1,-0.918902
9971,0,-3.8584,4.24805,0.0120905,0.0196784,0.0149322,-0.0245703,0.425992,-0.124442,-9.02948,1.54975,0.676799,-14.9855,0.842887,-7.04663,0.442987,-0.127275,0,0,226,286,226,286,276,287,222,331,-0.284386,-0.476282,0,0,0,0,0,2,-14.9855,0.842887,0,0,0,0,-7.04663,0.442987,2646,0,0,0,0,0,0,0,0,0,1,-0.927176
9985,0,-3.8584,4.24805,0.0120905,0.0196784,0.0149322,-0.0245703,0.425992,-0.124442,-9.02948,1.54975,0.676799,-15.0843,0.8491,-7.05684,0.444179,-0.127258,0,0,226,286,226,286,276,287,222,331,-0.286384,-0.476532,0,0,0,0,0,2,-15.0843,0.8491,0,0,0,0,-7.05684,0.444179,2646,0,0,0,0,0,0,0,0,0,1,-0.934009
10000,0,-3.8584,4.24805,0.0120905,0.0196784,0.0149322,-0.0245703,0.425992,-0.124442,-9.02948,1.54975,0.676799,-15.1902,0.855774,-7.06769,0.445439,-0.127251,0,0,226,286,226,286,276,287,222,331,-0.28852,-0.476803,0,0,0,0,0,2,-15.1902,0.855774,0,0,0,0,-7.06769,0.445439,2646,0,0,0,0,0,0,0,0,0,1,-0.941352
10016,0,-3.8584,4.24805,0.0120905,0.0196784,0.0149322,-0.0245703,0.425992,-0.124442,-9.02948,1.54975,0.676799,-15.3034,0.862915,-7.07907,0.446757,-0.127328,0,0,226,286,226,286,276,287,222,331,-0.290759,-0.477116,0,0,0,0,0,2,-15.3034,0.862915,0,0,0,0,-7.07907,0.446757,2646,0,0,0,0,0,0,0,0,0,1,-0.949206
10032,0,-3.8584,4.24805,0.0120905,0.0196784,0.0149322,-0.0245703,0.425992,-0.124442,-9.02948,1.54975,0.676799,-15.4097,0.869628,-7.08963,0.448023,-0.127315,0,0,226,286,226,286,276,287,222,331,-0.29291,-0.477387,0,0,0,0,0,2,-15.4097,0.869628,0,0,0,0,-7.08963,0.448023,2646,0,0,0,0,0,0,0,0,0,1,-0.956591
10047,0,-3.8584,4.24805,0.0120905,0.0196784,0.0149322,-0.0245703,0.425992,-0.124442,-9.02948,1.54975,0.676799,-15.5233,0.876811,-7.10076,0.449382,-0.127297,0,0,226,286,226,286,276,287,222,331,-0.295215,-0.477676,0,0,0,0,0,2,-15.5233,0.876811,0,0,0,0,-7.10076,0.449382,2646,0,0,0,0,0,0,0,0,0,1,-0.964492
10063,0,-3.8584,4.24805,0.0120905,0.0196784,0.0149322,-0.0245703,0.425992,-0.124442,-9.02948,1.54975,0.676799,-15.637,0.884015,-7.11172,0.450758,-0.127436,0,0,226,286,226,286,276,287,222,331,-0.297455,-0.478012,0,0,0,0,0,2,-15.637,0.884015,0,0,0,0,-7.11172,0.450758,2646,0,0,0,0,0,0,0,0,0,1,-0.972417
10079,0,-3.8584,4.24805,0.0120905,0.0196784,0.0149322,-0.0245703,0.425992,-0.124442,-9.02948,1.54975,0.676799,-15.7509,0.891241,-7.12253,0.452124,-0.127443,0,0,226,286,226,286,276,287,222,331,-0.299761,-0.47831,0,0,0,0,0,2,-15.7509,0.891241,0,0,0,0,-7.12253,0.452124,2646,0,0,0,0,0,0,0,0,0,1,-0.980365
10095,0,-3.8584,4.24805,0.0120905,0.0196784,0.0149322,-0.0245703,0.425992,-0.124442,-9.02948,1.54975,0.676799,-15.865,0.898489,-7.13319,0.453476,-0.127432,0,0,226,286,226,286,276,287,222,331,-0.302078,-0.478603,0,0,0,0,0,2,-15.865,0.898489,0,0,0,0,-7.13319,0.453476,2646,0,0,0,0,0,0,0,0,0,1,-0.988338
10110,0,-3.8584,4.24805,0.0120905,0.0196784,0.0149322,-0.0245703,0.425992,-0.124442,-9.02948,1.54975,0.676799,-15.9721,0.905303,-7.143,0.454704,-0.12731,0,0,226,286,226,286,276,287,222,331,-0.3043,-0.478843,0,0,0,0,0,2,-15.9721,0.905303,0,0,0,0,-7.143,0.454704,2646,0,0,0,0,0,0,0,0,0,1,-0.995834
10126,0,-3.8584,4.24805,0.0120905,0.0196784,0.0149322,-0.0245703,0.425992,-0.124442,-9.02948,1.54975,0.676799,-16.0865,0.912592,-7.15324,0.455947,-0.12731,0,0,226,286,226,286,276,287,222,331,-0.305641,-0.479015,0,0,0,0,0,2,-16.0865,0.912592,0,0,0,0,-7.15324,0.455947,2646,0,0,0,0,0,0,0,0,0,1,-1
10142,0,-3.8584,4.24805,0.0120905,0.0196784,0.0149322,-0.0245703,0.425992,-0.124442,-9.02948,1.54975,0.676799,-16.201,0.919899,-7.16326,0.457111,-0.127542,0,0,226,286,226,286,276,287,222,331,-0.305819,-0.479123,0,0,0,0,0,2,-16.201,0.919899,0,0,0,0,-7.16326,0.457111,2646,0,0,0,0,0,0,0,0,0,1,-1
10158,0,-3.8584,4.24805,0.0120905,0.0196784,0.0149322,-0.0245703,0.425992,-0.124442,-9.02948,1.54975,0.676799,-16.3157,0.927224,-7.17312,0.458251,-0.12781,0,0,226,286,226,286,276,287,222,331,-0.305973,-0.479241,0,0,0,0,0,2,-16.3157,0.927224,0,0,0,0,-7.17312,0.458251,2646,0,0,0,0,0,0,0,0,0,1,-1
10174,0,-3.8584,4.24805,0.0120905,0.0196784,0.0149322,-0.0245703,0.425992,-0.124442,-9.02948,1.54975,0.676799,-16.4306,0.934568,-7.18289,0.459387,-0.127699,0,0,226,286,226,286,276,287,222,331,-0.306308,-0.479243,0,0,0,0,0,2,-16.4306,0.934568,0,0,0,0,-7.18289,0.459387,2646,0,0,0,0,0,0,0,0,0,1,-1
10193,0,-3.8584,4.24805,0.0120905,0.0196784,0.0149322,-0.0245703,0.425992,-0.124442,-9.88299,1.65868,0.798031,-16.5672,0.943312,-7.19444,0.460726,-0.127607,0,0,229,290,229,290,276,290,225,332,-0.306684,-0.479258,0,0,0,0,0,2,-16.5672,0.943312,0,0,0,0,-7.19444,0.460726,2142,0,0,0,0,0,0,0,0,0,1,-1
10211,0,-3.8584,4.24805,0.0120905,0.0196784,0.0149322,-0.0245703,0.425992,-0.124442,-9.88299,1.65868,0.798031,-16.6896,0.951157,-7.20469,0.461903,-0.127716,0,0,229,290,229,290,276,290,225,332,-0.306924,-0.479329,0,0,0,0,0,2,-16.6896,0.951157,0,0,0,0,-7.20469,0.461903,2142,0,0,0,0,0,0,0,0,0,1,-1
10227,0,-3.8584,4.24805,0.0120905,0.0196784,0.0149322,-0.0245703,0.425992,-0.124442,-9.88299,1.65868,0.798031,-16.8122,0.959022,-7.21479,0.463047,-0.127893,0,0,229,290,229,290,276,290,225,332,-0.307123,-0.479419,0,0,0,0,0,2,-16.8122,0.959022,0,0,0,0,-7.21479,0.463047,2142,0,0,0,0,0,0,0,0,0,1,-1
10243,0,-3.8584,4.24805,0.0120905,0.0196784,0.0149322,-0.0245703,0.425992,-0.124442,-9.88299,1.65868,0.798031,-16.9277,0.966442,-7.22416,0.464076,-0.128092,0,0,229,290,229,290,276,290,225,332,-0.307283,-0.479513,0,0,0,0,0,2,-16.9277,0.966442,0,0,0,0,-7.22416,0.464076,2142,0,0,0,0,0,0,0,0,0,1,-1
10259,0,-3.8584,4.24805,0.0120905,0.0196784,0.0149322,-0.0245703,0.425992,-0.124442,-9.88299,1.65868,0.798031,-17.0434,0.973877,-7.23341,0.465065,-0.128213,0,0,229,290,229,290,276,290,225,332,-0.30747,-0.479582,0,0,0,0,0,2,-17.0434,0.973877,0,0,0,0,-7.23341,0.465065,2142,0,0,0,0,0,0,0,0,0,1,-1
10275,0,-3.8584,4.24805,0.0120905,0.0196784,0.0149322,-0.0245703,0.425992,-0.124442,-9.88299,1.65868,0.798031,-17.1593,0.981328,-7.24258,0.466036,-0.128285,0,0,229,290,229,290,276,290,225,332,-0.307676,-0.479635,0,0,0,0,0,2,-17.1593,0.981328,0,0,0,0,-7.24258,0.466036,2142,0,0,0,0,0,0,0,0,0,1,-1
10292,0,-3.8584,4.24805,0.0120905,0.0196784,0.0149322,-0.0245703,0.425992,-0.124442,-9.88299,1.65868,0.798031,-17.2752,0.988795,-7.25168,0.467008,-0.128282,0,0,229,290,229,290,276,290,225,332,-0.307918,-0.479665,0,0,0,0,0,2,-17.2752,0.988795,0,0,0,0,-7.25168,0.467008,2142,0,0,0,0,0,0,0,0,0,1,-1
10307,0,-3.8584,4.24805,0.0120905,0.0196784,0.0149322,-0.0245703,0.425992,-0.124442,-9.88299,1.65868,0.798031,-17.3914,0.996277,-7.26072,0.467971,-0.128541,0,0,229,290,229,290,276,290,225,332,-0.308033,-0.479776,0,0,0,0,0,2,-17.3914,0.996277,0,0,0,0,-7.26072,0.467971,2142,0,0,0,0,0,0,0,0,0,1,-1
10323,0,-3.8584,4.24805,0.0120905,0.0196784,0.0149322,-0.0245703,0.425992,-0.124442,-9.88299,1.65868,0.798031,-17.5076,1.00377,-7.26969,0.468928,-0.128743,0,0,229,290,229,290,276,290,225,332,-0.308173,-0.479869,0,0,0,0,0,2,-17.5076,1.00377,0,0,0,0,-7.26969,0.468928,2142,0,0,0,0,0,0,0,0,0,1,-1
10339,0,-3.8584,4.24805,0.0120905,0.0196784,0.0149322,-0.0245703,0.425992,-0.124442,-9.88299,1.65868,0.798031,-17.624,1.01129,-7.27858,0.469875,-0.128765,0,0,229,290,229,290,276,290,225,332,-0.308398,-0.479906,0,0,0,0,0,2,-17.624,1.01129,0,0,0,0,-7.27858,0.469875,2142,0,0,0,0,0,0,0,0,0,1,-1
10355,0,-3.8584,4.24805,0.0120905,0.0196784,0.0149322,-0.0245703,0.425992,-0.124442,-9.88299,1.65868,0.798031,-17.7333,1.01834,-7.28684,0.470753,-0.128833,0,0,229,290,229,290,276,290,225,332,-0.308582,-0.479955,0,0,0,0,0,2,-17.7333,1.01834,0,0,0,0,-7.28684,0.470753,2142,0,0,0,0,0,0,0,0,0,1,-1
10370,0,-3.8584,4.24805,0.0120905,0.0196784,0.0149322,-0.0245703,0.425992,-0.124442,-9.88299,1.65868,0.798031,-17.85,1.02588,-7.29554,0.471671,-0.128921,0,0,229,290,229,290,276,290,225,332,-0.308768,-0.480012,0,0,0,0,0,2,-17.85,1.02588,0,0,0,0,-7.29554,0.471671,2142,0,0,0,0,0,0,0,0,0,1,-1
10386,0,-3.8584,4.24805,0.0120905,0.0196784,0.0149322,-0.0245703,0.425992,-0.124442,-9.88299,1.65868,0.798031,-17.9595,1.03297,-7.30354,0.472499,-0.129026,0,0,229,290,229,290,276,290,225,332,-0.308923,-0.480071,0,0,0,0,0,2,-17.9595,1.03297,0,0,0,0,-7.30354,0.472499,2142,0,0,0,0,0,0,0,0,0,1,-1
10402,0,-3.8584,4.24805,0.0120905,0.0196784,0.0149322,-0.0245703,0.425992,-0.124442,-9.88299,1.65868,0.798031,-18.0837,1.04101,-7.31219,0.473345,-0.129506,0,0,229,290,229,290,276,290,225,332,-0.308902,-0.480246,0,0,0,0,0,2,-18.0837,1.04101,0,0,0,0,-7.31219,0.473345,2142,0,0,0,0,0,0,0,0,0,1,-1
10417,0,-3.8584,4.24805,0.0120905,0.0196784,0.0149322,-0.0245703,0.425992,-0.124442,-9.88299,1.65868,0.798031,-18.1935,1.04812,-7.31934,0.474016,-0.130069,0,0,229,290,229,290,276,290,225,332,-0.308798,-0.480442,0,0,0,0,0,2,-18.1935,1.04812,0,0,0,0,-7.31934,0.474016,2142,0,0,0,0,0,0,0,0,0,1,-1
10431,0,-3.8584,4.24805,0.0120905,0.0196784,0.0149322,-0.0245703,0.425992,-0.124442,-9.88299,1.65868,0.798031,-18.296,1.05476,-7.32568,0.474587,-0.130069,0,0,229,290,229,290,276,290,225,332,-0.308939,-0.480461,0,0,0,0,0,2,-18.296,1.05476,0,0,0,0,-7.32568,0.474587,2142,0,0,0,0,0,0,0,0,0,1,-1
10447,0,-3.8584,4.24805,0.0120905,0.0196784,0.0149322,-0.0245703,0.425992,-0.124442,-9.88299,1.65868,0.798031,-18.4133,1.06236,-7.33222,0.47514,-0.130442,0,0,229,290,229,290,276,290,225,332,-0.308897,-0.480594,0,0,0,0,0,2,-18.4133,1.06236,0,0,0,0,-7.33222,0.47514,2142,0,0,0,0,0,0,0,0,0,1,-1
10463,0,-3.8584,4.24805,0.0120905,0.0196784,0.0149322,-0.0245703,0.425992,-0.124442,-9.88299,1.65868,0.798031,-18.5307,1.06996,-7.33815,0.475617,-0.130279,0,0,229,290,229,290,276,290,225,332,-0.309094,-0.480559,0,0,0,0,0,2,-18.5307,1.06996,0,0,0,0,-7.33815,0.475617,2142,0,0,0,0,0,0,0,0,0,1,-1
10478,0,-3.8584,4.24805,0.0120905,0.0196784,0.0149322,-0.0245703,0.425992,-0.124442,-9.88299,1.65868,0.798031,-18.6408,1.0771,-7.34266,0.475932,-0.130023,0,0,229,290,229,290,276,290,225,332,-0.309295,-0.48049,0,0,0,0,0,2,-18.6408,1.0771,0,0,0,0,-7.34266,0.475932,2142,0,0,0,0,0,0,0,0,0,1,-1
10494,0,-3.8584,4.24805,0.0120905,0.0196784,0.0149322,-0.0245703,0.425992,-0.124442,-9.88299,1.65868,0.798031,-18.7583,1.08472,-7.34601,0.476049,-0.129886,0,0,229,290,229,290,276,290,225,332,-0.30939,-0.480451,0,0,0,0,0,2,-18.7583,1.08472,0,0,0,0,-7.34601,0.476049,2142,0,0,0,0,0,0,0,0,0,1,-1
10510,0,-3.8584,4.24805,0.0120905,0.0196784,0.0149322,-0.0245703,0.425992,-0.124442,-9.88299,1.65868,0.798031,-18.8759,1.09233,-7.34685,0.475758,-0.129382,0,0,229,290,229,290,276,290,225,332,-0.30956,-0.480286,0,0,0,0,0,2,-18.8759,1.09233,0,0,0,0,-7.34685,0.475758,2142,0,0,0,0,0,0,0,0,0,1,-1
