timestamp,A_x,A_y,A_z,P,Q,R,Phi,Theta,Psi,poseX,poseY,poseZ,state_X,state_Y,state_Z,state_VzB,state_Bx,state_By,state_Bz,p1_x,p1_y,p2_x,p2_y,p3_x,p3_y,p4_x,p4_y,roll,pitch,yaw,alt,targetHeading,highLevelState,lowLevelState,gateNumber,filtered_x,filtered_y
10,0,0,0,0,0,0,0,0,0,0,0,0,0,0,0,0,0,0,0,0,0,0,0,0,0,0,0,0,-0.261799,0.0141372,-1.5,3.94113e+12,0,0,0,0,0
20,-3.21152e-12,0,-1.5597e-06,-3.27738e-12,0,0,-1.06589e-13,0,0,0,0,0,0,0,0,0,0,0,0,0,0,0,0,0,0,0,0,0,-0.261799,0.9244,-1.5,3.94113e+12,0,0,0,0,0
30,-3.21152e-12,0,-1.5597e-06,-3.27738e-12,0,-3.40902e-12,-1.0659e-13,0,0,0,0,0,0,0,0,0,0,0,0,0,0,0,0,0,0,0,0,0,-0.261799,1.06318,-1.5,3.94113e+12,0,0,0,0,0
40,-3.21152e-12,0,-1.5597e-06,-3.27738e-12,0,0,-1.0659e-13,0,0,0,0,0,0,0,0,0,0,0,0,0,0,0,0,0,0,0,0,0,-0.261799,1.62575,-1.5,3.94113e+12,0,0,0,0,0
50,-3.21152e-12,0,-1.5597e-06,-3.27738e-12,0,-3.40902e-12,-1.0659e-13,0,0,0,0,0,0,0,0,0,0,0,0,0,0,0,0,0,0,0,0,0,-0.261799,1.62347,-1.5,3.94113e+12,0,0,0,0,0
60,-3.21152e-12,0,-1.5597e-06,-3.27738e-12,0,0,-1.0659e-13,0,0,0,0,0,0,0,0,0,0,0,0,0,0,0,0,0,0,0,0,0,-0.261799,1.62118,-1.5,3.94113e+12,0,0,0,0,0
70,-3.21152e-12,0,-1.5597e-06,-3.27738e-12,0,-3.40902e-12,-1.06591e-13,0,0,0,0,0,0,0,0,0,0,0,0,0,0,0,0,0,0,0,0,0,-0.261799,1.61899,-1.5,3.94113e+12,0,0,0,0,0
80,-3.21152e-12,0,-1.5597e-06,-3.27738e-12,0,0,-1.06591e-13,0,0,0,0,0,0,0,0,0,0,0,0,0,0,0,0,0,0,0,0,0,-0.261799,1.61699,-1.5,3.94113e+12,0,0,0,0,0
90,-3.21152e-12,0,-1.5597e-06,-3.27738e-12,0,-3.40902e-12,-1.06591e-13,0,0,0,0,0,0,0,0,0,0,0,0,0,0,0,0,0,0,0,0,0,-0.261799,1.61508,-1.5,3.94113e+12,0,0,0,0,0
100,-3.21152e-12,0,-1.5597e-06,-3.27738e-12,0,0,-1.06591e-13,0,0,0,0,0,0,0,0,0,0,0,0,0,0,0,0,0,0,0,0,0,-0.261799,1.61315,-1.5,3.94113e+12,0,0,0,0,0
110,-3.21152e-12,0,-1.5597e-06,-3.27738e-12,0,-3.40902e-12,-1.06592e-13,0,0,0,0,0,0,0,0,0,0,0,0,0,0,0,0,0,0,0,0,0,-0.261799,1.6114,-1.5,3.94113e+12,0,0,0,0,0
120,-3.21152e-12,0,-1.5597e-06,-3.27738e-12,0,0,-1.06592e-13,0,0,0,0,0,0,0,0,0,0,0,0,0,0,0,0,0,0,0,0,0,-0.261799,1.60971,-1.5,3.94113e+12,0,0,0,0,0
130,-3.21152e-12,0,-1.5597e-06,-3.27738e-12,0,-3.40902e-12,-1.06592e-13,0,0,0,0,0,0,0,0,0,0,0,0,0,0,0,0,0,0,0,0,0,-0.261799,1.60802,-1.5,3.94113e+12,0,0,0,0,0
140,-3.21152e-12,0,-1.5597e-06,-3.27738e-12,0,0,-1.06593e-13,0,0,0,0,0,0,0,0,0,0,0,0,0,0,0,0,0,0,0,0,0,-0.261799,1.60648,-1.5,3.94113e+12,0,0,0,0,0
150,-3.21152e-12,0,-1.5597e-06,-3.27738e-12,0,-3.40902e-12,-1.06593e-13,0,0,0,0,0,0,0,0,0,0,0,0,0,0,0,0,0,0,0,0,0,-0.261799,1.60493,-1.5,3.94113e+12,0,0,0,0,0
160,-3.21152e-12,0,-1.5597e-06,-3.27738e-12,0,0,-1.06593e-13,0,0,0,0,0,0,0,0,0,0,0,0,0,0,0,0,0,0,0,0,0,-0.261799,1.60351,-1.5,3.94113e+12,0,0,0,0,0
170,-3.21152e-12,0,-1.5597e-06,-3.27738e-12,0,-3.40902e-12,-1.06593e-13,0,0,0,0,0,0,0,0,0,0,0,0,0,0,0,0,0,0,0,0,0,-0.261799,1.60216,-1.5,3.94113e+12,0,0,0,0,0
180,-3.21152e-12,0,-1.5597e-06,-3.27738e-12,0,0,-1.06594e-13,0,0,0,0,0,0,0,0,0,0,0,0,0,0,0,0,0,0,0,0,0,-0.261799,1.60079,-1.5,3.94113e+12,0,0,0,0,0
190,-3.21152e-12,0,-1.5597e-06,-3.27738e-12,0,-3.40902e-12,-1.06594e-13,0,0,0,0,0,0,0,0,0,0,0,0,0,0,0,0,0,0,0,0,0,-0.261799,1.59955,-1.5,3.94113e+12,0,0,0,0,0
200,-3.21152e-12,0,-1.5597e-06,-3.27738e-12,0,0,-1.06594e-13,0,0,0,0,0,0,0,0,0,0,0,0,0,0,0,0,0,0,0,0,0,-0.261799,1.59836,-1.5,3.94113e+12,0,0,0,0,0
210,-3.21152e-12,0,-1.5597e-06,-3.27738e-12,0,-3.40902e-12,-1.06594e-13,0,0,0,0,0,0,0,0,0,0,0,0,0,0,0,0,0,0,0,0,0,-0.261799,1.59716,-1.5,3.94113e+12,0,0,0,0,0
220,-3.21152e-12,0,-1.5597e-06,-3.27738e-12,0,0,-1.06595e-13,0,0,0,0,0,0,0,0,0,0,0,0,0,0,0,0,0,0,0,0,0,-0.261799,1.59607,-1.5,3.94113e+12,0,0,0,0,0
230,-3.21152e-12,0,-1.5597e-06,-3.27738e-12,0,-3.40902e-12,-1.06595e-13,0,0,0,0,0,0,0,0,0,0,0,0,0,0,0,0,0,0,0,0,0,-0.261799,1.59502,-1.5,3.94113e+12,0,0,0,0,0
240,-3.21152e-12,0,-1.5597e-06,-3.27738e-12,0,0,-1.06595e-13,0,0,0,0,0,0,0,0,0,0,0,0,0,0,0,0,0,0,0,0,0,-0.261799,1.59401,-1.5,3.94113e+12,0,0,0,0,0
250,-3.21152e-12,0,-1.5597e-06,-3.27738e-12,0,-3.40902e-12,-1.06596e-13,0,0,0,0,0,0,0,0,0,0,0,0,0,0,0,0,0,0,0,0,0,-0.261799,1.59305,-1.5,3.94113e+12,0,0,0,0,0
260,-3.21152e-12,0,-1.5597e-06,-3.27738e-12,0,0,-1.06596e-13,0,0,0,0,0,0,0,0,0,0,0,0,0,0,0,0,0,0,0,0,0,-0.261799,1.59208,-1.5,3.94113e+12,0,0,0,0,0
270,-3.21152e-12,0,-1.5597e-06,-3.27738e-12,0,-3.40902e-12,-1.06596e-13,0,0,0,0,0,0,0,0,0,0,0,0,0,0,0,0,0,0,0,0,0,-0.261799,1.59128,-1.5,3.94113e+12,0,0,0,0,0
280,-3.21152e-12,0,-1.5597e-06,-3.27738e-12,0,0,-1.06596e-13,0,0,0,0,0,0,0,0,0,0,0,0,0,0,0,0,0,0,0,0,0,-0.261799,1.59068,-1.5,3.94113e+12,0,0,0,0,0
290,-3.21152e-12,0,-1.5597e-06,-3.27738e-12,0,-3.40902e-12,-1.06597e-13,0,0,0,0,0,0,0,0,0,0,0,0,0,0,0,0,0,0,0,0,0,-0.261799,1.59016,-1.5,3.94113e+12,0,0,0,0,0
300,-3.21152e-12,0,-1.5597e-06,-3.27738e-12,0,0,-1.06597e-13,0,0,0,0,0,0,0,0,0,0,0,0,0,0,0,0,0,0,0,0,0,-0.261799,1.58951,-1.5,3.94113e+12,0,0,0,0,0
310,-3.21152e-12,0,-1.5597e-06,-3.27738e-12,0,-3.40902e-12,-1.06597e-13,0,0,0,0,0,0,0,0,0,0,0,0,0,0,0,0,0,0,0,0,0,-0.261799,1.58874,-1.5,3.94113e+12,0,0,0,0,0
320,-3.21152e-12,0,-1.5597e-06,-3.27738e-12,0,0,-1.06597e-13,0,0,0,0,0,0,0,0,0,0,0,0,0,0,0,0,0,0,0,0,0,-0.261799,1.58799,-1.5,3.94113e+12,0,0,0,0,0
330,-3.21152e-12,0,-1.5597e-06,-3.27738e-12,0,-3.40902e-12,-1.06598e-13,0,0,0,0,0,0,0,0,0,0,0,0,0,0,0,0,0,0,0,0,0,-0.261799,1.58728,-1.5,3.94113e+12,0,0,0,0,0
340,-3.21152e-12,0,-1.5597e-06,-3.27738e-12,0,0,-1.06598e-13,0,0,0,0,0,0,0,0,0,0,0,0,0,0,0,0,0,0,0,0,0,-0.261799,1.5866,-1.5,3.94113e+12,0,0,0,0,0
350,-3.21152e-12,0,-1.5597e-06,-3.27738e-12,0,-3.40902e-12,-1.06598e-13,0,0,0,0,0,0,0,0,0,0,0,0,0,0,0,0,0,0,0,0,0,-0.261799,1.58594,-1.5,3.94113e+12,0,0,0,0,0
360,-3.21152e-12,0,-1.5597e-06,-3.27738e-12,0,0,-1.06599e-13,0,0,0,0,0,0,0,0,0,0,0,0,0,0,0,0,0,0,0,0,0,-0.261799,1.58531,-1.5,3.94113e+12,0,0,0,0,0
370,-3.21152e-12,0,-1.5597e-06,-3.27738e-12,0,-3.40902e-12,-1.06599e-13,0,0,0,0,0,0,0,0,0,0,0,0,0,0,0,0,0,0,0,0,0,-0.261799,1.58471,-1.5,3.94113e+12,0,0,0,0,0
380,-3.21152e-12,0,-1.5597e-06,-3.27738e-12,0,0,-1.06599e-13,0,0,0,0,0,0,0,0,0,0,0,0,0,0,0,0,0,0,0,0,0,-0.261799,1.58413,-1.5,3.94113e+12,0,0,0,0,0
390,-3.21152e-12,0,-1.5597e-06,-3.27738e-12,0,-3.40902e-12,-1.06599e-13,0,0,0,0,0,0,0,0,0,0,0,0,0,0,0,0,0,0,0,0,0,-0.261799,1.58358,-1.5,3.94113e+12,0,0,0,0,0
400,-3.21152e-12,0,-1.5597e-06,-3.27738e-12,0,0,-1.066e-13,0,0,0,0,0,0,0,0,0,0,0,0,0,0,0,0,0,0,0,0,0,-0.261799,1.58305,-1.5,3.94113e+12,0,0,0,0,0
410,-3.21152e-12,0,-1.5597e-06,-3.27738e-12,0,-3.40902e-12,-1.066e-13,0,0,0,0,0,0,0,0,0,0,0,0,0,0,0,0,0,0,0,0,0,-0.261799,1.58254,-1.5,3.94113e+12,0,0,0,0,0
420,-3.21152e-12,0,-1.5597e-06,-3.27738e-12,0,0,-1.066e-13,0,0,0,0,0,0,0,0,0,0,0,0,0,0,0,0,0,0,0,0,0,-0.261799,1.58205,-1.5,3.94113e+12,0,0,0,0,0
430,-3.21152e-12,0,-1.5597e-06,-3.27738e-12,0,-3.40902e-12,-1.066e-13,0,0,0,0,0,0,0,0,0,0,0,0,0,0,0,0,0,0,0,0,0,-0.261799,1.58159,-1.5,3.94113e+12,0,0,0,0,0
440,-3.21152e-12,0,-1.5597e-06,-3.27738e-12,0,0,-1.06601e-13,0,0,0,0,0,0,0,0,0,0,0,0,0,0,0,0,0,0,0,0,0,-0.261799,1.58112,-1.5,3.94113e+12,0,0,0,0,0
450,-3.21152e-12,0,-1.5597e-06,-3.27738e-12,0,-3.40902e-12,-1.06601e-13,0,0,0,0,0,0,0,0,0,0,0,0,0,0,0,0,0,0,0,0,0,-0.261799,1.58069,-1.5,3.94113e+12,0,0,0,0,0
460,-3.21152e-12,0,-1.5597e-06,-3.27738e-12,0,0,-1.06601e-13,0,0,0,0,0,0,0,0,0,0,0,0,0,0,0,0,0,0,0,0,0,-0.261799,1.58028,-1.5,3.94113e+12,0,0,0,0,0
470,-3.21152e-12,0,-1.5597e-06,-3.27738e-12,0,-3.40902e-12,-1.06602e-13,0,0,0,0,0,0,0,0,0,0,0,0,0,0,0,0,0,0,0,0,0,-0.261799,1.57989,-1.5,3.94113e+12,0,0,0,0,0
480,-3.21152e-12,0,-1.5597e-06,-3.27738e-12,0,0,-1.06602e-13,0,0,0,0,0,0,0,0,0,0,0,0,0,0,0,0,0,0,0,0,0,-0.261799,1.57953,-1.5,3.94113e+12,0,0,0,0,0
490,-3.21152e-12,0,-1.5597e-06,-3.27738e-12,0,-3.40902e-12,-1.06602e-13,0,0,0,0,0,0,0,0,0,0,0,0,0,0,0,0,0,0,0,0,0,-0.261799,1.57916,-1.5,3.94113e+12,0,0,0,0,0
500,-3.21152e-12,0,-1.5597e-06,-3.27738e-12,0,0,-1.06602e-13,0,0,0,0,0,0,0,0,0,0,0,0,0,0,0,0,0,0,0,0,0,-0.261799,1.57882,-1.5,3.94113e+12,0,0,0,0,0
510,-3.21152e-12,0,-1.5597e-06,-3.27738e-12,0,-3.40902e-12,-1.06603e-13,0,0,0,0,0,0,0,0,0,0,0,0,0,0,0,0,0,0,0,0,0,-0.261799,1.57848,-1.5,3.94113e+12,0,0,0,0,0
520,-3.21152e-12,0,-1.5597e-06,-3.27738e-12,0,0,-1.06603e-13,0,0,0,0,0,0,0,0,0,0,0,0,0,0,0,0,0,0,0,0,0,-0.261799,1.57815,-1.5,3.94113e+12,0,0,0,0,0
530,-3.21152e-12,0,-1.5597e-06,-3.27738e-12,0,-3.40902e-12,-1.06603e-13,0,0,0,0,0,0,0,0,0,0,0,0,0,0,0,0,0,0,0,0,0,-0.261799,1.57785,-1.5,3.94113e+12,0,0,0,0,0
540,-3.21152e-12,0,-1.5597e-06,-3.27738e-12,0,0,-1.06603e-13,0,0,0,0,0,0,0,0,0,0,0,0,0,0,0,0,0,0,0,0,0,-0.261799,1.57755,-1.5,3.94113e+12,0,0,0,0,0
550,-3.21152e-12,0,-1.5597e-06,-3.27738e-12,0,-3.40902e-12,-1.06604e-13,0,0,0,0,0,0,0,0,0,0,0,0,0,0,0,0,0,0,0,0,0,-0.261799,1.5773,-1.5,3.94113e+12,0,0,0,0,0
560,-3.21152e-12,0,-1.5597e-06,-3.27738e-12,0,0,-1.06604e-13,0,0,0,0,0,0,0,0,0,0,0,0,0,0,0,0,0,0,0,0,0,-0.261799,1.57698,-1.5,3.94113e+12,0,0,0,0,0
570,-3.21152e-12,0,-1.5597e-06,-3.27738e-12,0,-3.40902e-12,-1.06604e-13,0,0,0,0,0,0,0,0,0,0,0,0,0,0,0,0,0,0,0,0,0,-0.261799,1.57677,-1.5,3.94113e+12,0,0,0,0,0
580,-3.21152e-12,0,-1.5597e-06,-3.27738e-12,0,0,-1.06605e-13,0,0,0,0,0,0,0,0,0,0,0,0,0,0,0,0,0,0,0,0,0,-0.261799,1.57652,-1.5,3.94113e+12,0,0,0,0,0
590,-3.21152e-12,0,-1.5597e-06,-3.27738e-12,0,-3.40902e-12,-1.06605e-13,0,0,0,0,0,0,0,0,0,0,0,0,0,0,0,0,0,0,0,0,0,-0.261799,1.57627,-1.5,3.94113e+12,0,0,0,0,0
600,-3.21152e-12,0,-1.5597e-06,-3.27738e-12,0,0,-1.06605e-13,0,0,0,0,0,0,0,0,0,0,0,0,0,0,0,0,0,0,0,0,0,-0.261799,1.57605,-1.5,3.94113e+12,0,0,0,0,0
610,-3.21152e-12,0,-1.5597e-06,-3.27738e-12,0,-3.40902e-12,-1.06605e-13,0,0,0,0,0,0,0,0,0,0,0,0,0,0,0,0,0,0,0,0,0,-0.261799,1.57583,-1.5,3.94113e+12,0,0,0,0,0
620,-3.21152e-12,0,-1.5597e-06,-3.27738e-12,0,0,-1.06606e-13,0,0,0,0,0,0,0,0,0,0,0,0,0,0,0,0,0,0,0,0,0,-0.261799,1.57562,-1.5,3.94113e+12,0,0,0,0,0
630,-3.21152e-12,0,-1.5597e-06,-3.27738e-12,0,-3.40902e-12,-1.06606e-13,0,0,0,0,0,0,0,0,0,0,0,0,0,0,0,0,0,0,0,0,0,-0.261799,1.57542,-1.5,3.94113e+12,0,0,0,0,0
640,-3.21152e-12,0,-1.5597e-06,-3.27738e-12,0,0,-1.06606e-13,0,0,0,0,0,0,0,0,0,0,0,0,0,0,0,0,0,0,0,0,0,-0.261799,1.57523,-1.5,3.94113e+12,0,0,0,0,0
650,-3.21152e-12,0,-1.5597e-06,-3.27738e-12,0,-3.40902e-12,-1.06606e-13,0,0,0,0,0,0,0,0,0,0,0,0,0,0,0,0,0,0,0,0,0,-0.261799,1.57504,-1.5,3.94113e+12,0,0,0,0,0
660,-3.21152e-12,0,-1.5597e-06,-3.27738e-12,0,0,-1.06607e-13,0,0,0,0,0,0,0,0,0,0,0,0,0,0,0,0,0,0,0,0,0,-0.261799,1.57486,-1.5,3.94113e+12,0,0,0,0,0
670,-3.21152e-12,0,-1.5597e-06,-3.27738e-12,0,-3.40902e-12,-1.06607e-13,0,0,0,0,0,0,0,0,0,0,0,0,0,0,0,0,0,0,0,0,0,-0.261799,1.57469,-1.5,3.94113e+12,0,0,0,0,0
680,-3.21152e-12,0,-1.5597e-06,-3.27738e-12,0,0,-1.06607e-13,0,0,0,0,0,0,0,0,0,0,0,0,0,0,0,0,0,0,0,0,0,-0.261799,1.57453,-1.5,3.94113e+12,0,0,0,0,0
690,-3.21152e-12,0,-1.5597e-06,-3.27738e-12,0,-3.40902e-12,-1.06607e-13,0,0,0,0,0,0,0,0,0,0,0,0,0,0,0,0,0,0,0,0,0,-0.261799,1.57437,-1.5,3.94113e+12,0,0,0,0,0
700,-3.21152e-12,0,-1.5597e-06,-3.27738e-12,0,0,-1.06608e-13,0,0,0,0,0,0,0,0,0,0,0,0,0,0,0,0,0,0,0,0,0,-0.261799,1.57423,-1.5,3.94113e+12,0,0,0,0,0
710,-3.21152e-12,0,-1.5597e-06,-3.27738e-12,0,-3.40902e-12,-1.06608e-13,0,0,0,0,0,0,0,0,0,0,0,0,0,0,0,0,0,0,0,0,0,-0.261799,1.57408,-1.5,3.94113e+12,0,0,0,0,0
720,-3.21152e-12,0,-1.5597e-06,-3.27738e-12,0,0,-1.06608e-13,0,0,0,0,0,0,0,0,0,0,0,0,0,0,0,0,0,0,0,0,0,-0.261799,1.57394,-1.5,3.94113e+12,0,0,0,0,0
730,-3.21152e-12,0,-1.5597e-06,-3.27738e-12,0,-3.40902e-12,-1.06609e-13,0,0,0,0,0,0,0,0,0,0,0,0,0,0,0,0,0,0,0,0,0,-0.261799,1.57381,-1.5,3.94113e+12,0,0,0,0,0
740,-3.21152e-12,0,-1.5597e-06,-3.27738e-12,0,0,-1.06609e-13,0,0,0,0,0,0,0,0,0,0,0,0,0,0,0,0,0,0,0,0,0,-0.261799,1.57368,-1.5,3.94113e+12,0,0,0,0,0
750,-3.21152e-12,0,-1.5597e-06,-3.27738e-12,0,-3.40902e-12,-1.06609e-13,0,0,0,0,0,0,0,0,0,0,0,0,0,0,0,0,0,0,0,0,0,-0.261799,1.57356,-1.5,3.94113e+12,0,0,0,0,0
760,-3.21152e-12,0,-1.5597e-06,-3.27738e-12,0,0,-1.06609e-13,0,0,0,0,0,0,0,0,0,0,0,0,0,0,0,0,0,0,0,0,0,-0.261799,1.57344,-1.5,3.94113e+12,0,0,0,0,0
770,-3.21152e-12,0,-1.5597e-06,-3.27738e-12,0,-3.40902e-12,-1.0661e-13,0,0,0,0,0,0,0,0,0,0,0,0,0,0,0,0,0,0,0,0,0,-0.261799,1.57333,-1.5,3.94113e+12,0,0,0,0,0
780,-3.21152e-12,0,-1.5597e-06,-3.27738e-12,0,0,-1.0661e-13,0,0,0,0,0,0,0,0,0,0,0,0,0,0,0,0,0,0,0,0,0,-0.261799,1.57322,-1.5,3.94113e+12,0,0,0,0,0
790,-3.21152e-12,0,-1.5597e-06,-3.27738e-12,0,-3.40902e-12,-1.0661e-13,0,0,0,0,0,0,0,0,0,0,0,0,0,0,0,0,0,0,0,0,0,-0.261799,1.57312,-1.5,3.94113e+12,0,0,0,0,0
800,-3.21152e-12,0,-1.5597e-06,-3.27738e-12,0,0,-1.0661e-13,0,0,0,0,0,0,0,0,0,0,0,0,0,0,0,0,0,0,0,0,0,-0.261799,1.57302,-1.5,3.94113e+12,0,0,0,0,0
810,-3.21152e-12,0,-1.5597e-06,-3.27738e-12,0,-3.40902e-12,-1.06611e-13,0,0,0,0,0,0,0,0,0,0,0,0,0,0,0,0,0,0,0,0,0,-0.261799,1.57295,-1.5,3.94113e+12,0,0,0,0,0
820,-3.21152e-12,0,-1.5597e-06,-3.27738e-12,0,0,-1.06611e-13,0,0,0,0,0,0,0,0,0,0,0,0,0,0,0,0,0,0,0,0,0,-0.261799,1.57288,-1.5,3.94113e+12,0,0,0,0,0
830,-3.21152e-12,0,-1.5597e-06,-3.27738e-12,0,-3.40902e-12,-1.06611e-13,0,0,0,0,0,0,0,0,0,0,0,0,0,0,0,0,0,0,0,0,0,-0.261799,1.57281,-1.5,3.94113e+12,0,0,0,0,0
840,-3.21152e-12,0,-1.5597e-06,-3.27738e-12,0,0,-1.06612e-13,0,0,0,0,0,0,0,0,0,0,0,0,0,0,0,0,0,0,0,0,0,-0.261799,1.57274,-1.5,3.94113e+12,0,0,0,0,0
850,-3.21152e-12,0,-1.5597e-06,-3.27738e-12,0,-3.40902e-12,-1.06612e-13,0,0,0,0,0,0,0,0,0,0,0,0,0,0,0,0,0,0,0,0,0,-0.261799,1.57266,-1.5,3.94113e+12,0,0,0,0,0
860,-3.21152e-12,0,-1.5597e-06,-3.27738e-12,0,0,-1.06612e-13,0,0,0,0,0,0,0,0,0,0,0,0,0,0,0,0,0,0,0,0,0,-0.261799,1.57258,-1.5,3.94113e+12,0,0,0,0,0
870,-3.21152e-12,0,-1.5597e-06,-3.27738e-12,0,-3.40902e-12,-1.06612e-13,0,0,0,0,0,0,0,0,0,0,0,0,0,0,0,0,0,0,0,0,0,-0.261799,1.57251,-1.5,3.94113e+12,0,0,0,0,0
880,-3.21152e-12,0,-1.5597e-06,-3.27738e-12,0,0,-1.06613e-13,0,0,0,0,0,0,0,0,0,0,0,0,0,0,0,0,0,0,0,0,0,-0.261799,1.57244,-1.5,3.94113e+12,0,0,0,0,0
890,-3.21152e-12,0,-1.5597e-06,-3.27738e-12,0,-3.40902e-12,-1.06613e-13,0,0,0,0,0,0,0,0,0,0,0,0,0,0,0,0,0,0,0,0,0,-0.261799,1.57237,-1.5,3.94113e+12,0,0,0,0,0
900,-3.21152e-12,0,-1.5597e-06,-3.27738e-12,0,0,-1.06613e-13,0,0,0,0,0,0,0,0,0,0,0,0,0,0,0,0,0,0,0,0,0,-0.261799,1.5723,-1.5,3.94113e+12,0,0,0,0,0
910,-3.21152e-12,0,-1.5597e-06,-3.27738e-12,0,-3.40902e-12,-1.06613e-13,0,0,0,0,0,0,0,0,0,0,0,0,0,0,0,0,0,0,0,0,0,-0.261799,1.57224,-1.5,3.94113e+12,0,0,0,0,0
920,-3.21152e-12,0,-1.5597e-06,-3.27738e-12,0,0,-1.06614e-13,0,0,0,0,0,0,0,0,0,0,0,0,0,0,0,0,0,0,0,0,0,-0.261799,1.57218,-1.5,3.94113e+12,0,0,0,0,0
930,-3.21152e-12,0,-1.5597e-06,-3.27738e-12,0,-3.40902e-12,-1.06614e-13,0,0,0,0,0,0,0,0,0,0,0,0,0,0,0,0,0,0,0,0,0,-0.261799,1.57212,-1.5,3.94113e+12,0,0,0,0,0
940,-3.21152e-12,0,-1.5597e-06,-3.27738e-12,0,0,-1.06614e-13,0,0,0,0,0,0,0,0,0,0,0,0,0,0,0,0,0,0,0,0,0,-0.261799,1.57206,-1.5,3.94113e+12,0,0,0,0,0
950,-3.21152e-12,0,-1.5597e-06,-3.27738e-12,0,-3.40902e-12,-1.06615e-13,0,0,0,0,0,0,0,0,0,0,0,0,0,0,0,0,0,0,0,0,0,-0.261799,1.57201,-1.5,3.94113e+12,0,0,0,0,0
960,-3.21152e-12,0,-1.5597e-06,-3.27738e-12,0,0,-1.06615e-13,0,0,0,0,0,0,0,0,0,0,0,0,0,0,0,0,0,0,0,0,0,-0.261799,1.57196,-1.5,3.94113e+12,0,0,0,0,0
970,-3.21152e-12,0,-1.5597e-06,-3.27738e-12,0,-3.40902e-12,-1.06615e-13,0,0,0,0,0,0,0,0,0,0,0,0,0,0,0,0,0,0,0,0,0,-0.261799,1.57191,-1.5,3.94113e+12,0,0,0,0,0
980,-3.21152e-12,0,-1.5597e-06,-3.27738e-12,0,0,-1.06615e-13,0,0,0,0,0,0,0,0,0,0,0,0,0,0,0,0,0,0,0,0,0,-0.261799,1.57186,-1.5,3.94113e+12,0,0,0,0,0
990,-3.21152e-12,0,-1.5597e-06,-3.27738e-12,0,-3.40902e-12,-1.06616e-13,0,0,0,0,0,0,0,0,0,0,0,0,0,0,0,0,0,0,0,0,0,-0.261799,1.57182,-1.5,3.94113e+12,0,0,0,0,0
1000,-3.21152e-12,0,-1.5597e-06,-3.27738e-12,0,0,-1.06616e-13,0,0,0,0,0,0,0,0,0,0,0,0,0,0,0,0,0,0,0,0,0,-0.261799,1.57177,-1.5,3.94113e+12,0,0,0,0,0
1010,-3.21152e-12,0,-1.5597e-06,-3.27738e-12,0,-3.40902e-12,-1.06616e-13,0,0,0,0,0,0,0,0,0,0,0,0,0,0,0,0,0,0,0,0,0,-0.261799,1.57173,-1.5,3.94113e+12,0,0,0,0,0
1020,-3.21152e-12,0,-1.5597e-06,-3.27738e-12,0,0,-1.06616e-13,0,0,0,0,0,0,0,0,0,0,0,0,0,0,0,0,0,0,0,0,0,-0.261799,1.57169,-1.5,3.94113e+12,0,0,0,0,0
1030,-3.21152e-12,0,-1.5597e-06,-3.27738e-12,0,-3.40902e-12,-1.06617e-13,0,0,0,0,0,0,0,0,0,0,0,0,0,0,0,0,0,0,0,0,0,-0.261799,1.57165,-1.5,3.94113e+12,0,0,0,0,0
1040,-3.21152e-12,0,-1.5597e-06,-3.27738e-12,0,0,-1.06617e-13,0,0,0,0,0,0,0,0,0,0,0,0,0,0,0,0,0,0,0,0,0,-0.261799,1.57162,-1.5,3.94113e+12,0,0,0,0,0
1050,-3.21152e-12,0,-1.5597e-06,-3.27738e-12,0,-3.40902e-12,-1.06617e-13,0,0,0,0,0,0,0,0,0,0,0,0,0,0,0,0,0,0,0,0,0,-0.261799,1.57158,-1.5,3.94113e+12,0,0,0,0,0
1060,-3.21152e-12,0,-1.5597e-06,-3.27738e-12,0,0,-1.06618e-13,0,0,0,0,0,0,0,0,0,0,0,0,0,0,0,0,0,0,0,0,0,-0.261799,1.57155,-1.5,3.94113e+12,0,0,0,0,0
1070,-3.21152e-12,0,-1.5597e-06,-3.27738e-12,0,-3.40902e-12,-1.06618e-13,0,0,0,0,0,0,0,0,0,0,0,0,0,0,0,0,0,0,0,0,0,-0.261799,1.57151,-1.5,3.94113e+12,0,0,0,0,0
1080,-3.21152e-12,0,-1.5597e-06,-3.27738e-12,0,0,-1.06618e-13,0,0,0,0,0,0,0,0,0,0,0,0,0,0,0,0,0,0,0,0,0,-0.261799,1.57149,-1.5,3.94113e+12,0,0,0,0,0
1090,-3.21152e-12,0,-1.5597e-06,-3.27738e-12,0,-3.40902e-12,-1.06618e-13,0,0,0,0,0,0,0,0,0,0,0,0,0,0,0,0,0,0,0,0,0,-0.261799,1.57147,-1.5,3.94113e+12,0,0,0,0,0
1100,-3.21152e-12,0,-1.5597e-06,-3.27738e-12,0,0,-1.06619e-13,0,0,0,0,0,0,0,0,0,0,0,0,0,0,0,0,0,0,0,0,0,-0.261799,1.57144,-1.5,3.94113e+12,0,0,0,0,0
1110,-3.21152e-12,0,-1.5597e-06,-3.27738e-12,0,-3.40902e-12,-1.06619e-13,0,0,0,0,0,0,0,0,0,0,0,0,0,0,0,0,0,0,0,0,0,-0.261799,1.57142,-1.5,3.94113e+12,0,0,0,0,0
1120,-3.21152e-12,0,-1.5597e-06,-3.27738e-12,0,0,-1.06619e-13,0,0,0,0,0,0,0,0,0,0,0,0,0,0,0,0,0,0,0,0,0,-0.261799,1.57139,-1.5,3.94113e+12,0,0,0,0,0
1130,-3.21152e-12,0,-1.5597e-06,-3.27738e-12,0,-3.40902e-12,-1.06619e-13,0,0,0,0,0,0,0,0,0,0,0,0,0,0,0,0,0,0,0,0,0,-0.261799,1.57137,-1.5,3.94113e+12,0,0,0,0,0
1140,-3.21152e-12,0,-1.5597e-06,-3.27738e-12,0,0,-1.0662e-13,0,0,0,0,0,0,0,0,0,0,0,0,0,0,0,0,0,0,0,0,0,-0.261799,1.57134,-1.5,3.94113e+12,0,0,0,0,0
1150,-3.21152e-12,0,-1.5597e-06,-3.27738e-12,0,-3.40902e-12,-1.0662e-13,0,0,0,0,0,0,0,0,0,0,0,0,0,0,0,0,0,0,0,0,0,-0.261799,1.57132,-1.5,3.94113e+12,0,0,0,0,0
1160,-3.21152e-12,0,-1.5597e-06,-3.27738e-12,0,0,-1.0662e-13,0,0,0,0,0,0,0,0,0,0,0,0,0,0,0,0,0,0,0,0,0,-0.261799,1.57128,-1.5,3.94113e+12,0,0,0,0,0
1170,-3.21152e-12,0,-1.5597e-06,-3.27738e-12,0,-3.40902e-12,-1.0662e-13,0,0,0,0,0,0,0,0,0,0,0,0,0,0,0,0,0,0,0,0,0,-0.261799,1.57123,-1.5,3.94113e+12,0,0,0,0,0
1180,-3.21152e-12,0,-1.5597e-06,-3.27738e-12,0,0,-1.06621e-13,0,0,0,0,0,0,0,0,0,0,0,0,0,0,0,0,0,0,0,0,0,-0.261799,1.57121,-1.5,3.94113e+12,0,0,0,0,0
1190,-3.21152e-12,0,-1.5597e-06,-3.27738e-12,0,-3.40902e-12,-1.06621e-13,0,0,0,0,0,0,0,0,0,0,0,0,0,0,0,0,0,0,0,0,0,-0.261799,1.57118,-1.5,3.94113e+12,0,0,0,0,0
1200,-3.21152e-12,0,-1.5597e-06,-3.27738e-12,0,0,-1.06621e-13,0,0,0,0,0,0,0,0,0,0,0,0,0,0,0,0,0,0,0,0,0,-0.261799,1.57117,-1.5,3.94113e+12,0,0,0,0,0
1210,-3.21152e-12,0,-1.5597e-06,-3.27738e-12,0,-3.40902e-12,-1.06622e-13,0,0,0,0,0,0,0,0,0,0,0,0,0,0,0,0,0,0,0,0,0,-0.261799,1.57115,-1.5,3.94113e+12,0,0,0,0,0
1220,-3.21152e-12,0,-1.5597e-06,-3.27738e-12,0,0,-1.06622e-13,0,0,0,0,0,0,0,0,0,0,0,0,0,0,0,0,0,0,0,0,0,-0.261799,1.57114,-1.5,3.94113e+12,0,0,0,0,0
1230,-3.21152e-12,0,-1.5597e-06,-3.27738e-12,0,-3.40902e-12,-1.06622e-13,0,0,0,0,0,0,0,0,0,0,0,0,0,0,0,0,0,0,0,0,0,-0.261799,1.57112,-1.5,3.94113e+12,0,0,0,0,0
1240,-3.21152e-12,0,-1.5597e-06,-3.27738e-12,0,0,-1.06622e-13,0,0,0,0,0,0,0,0,0,0,0,0,0,0,0,0,0,0,0,0,0,-0.261799,1.57111,-1.5,3.94113e+12,0,0,0,0,0
1250,-3.21152e-12,0,-1.5597e-06,-3.27738e-12,0,-3.40902e-12,-1.06623e-13,0,0,0,0,0,0,0,0,0,0,0,0,0,0,0,0,0,0,0,0,0,-0.261799,1.5711,-1.5,3.94113e+12,0,0,0,0,0
1260,-3.21152e-12,0,-1.5597e-06,-3.27738e-12,0,0,-1.06623e-13,0,0,0,0,0,0,0,0,0,0,0,0,0,0,0,0,0,0,0,0,0,-0.261799,1.57108,-1.5,3.94113e+12,0,0,0,0,0
1270,-3.21152e-12,0,-1.5597e-06,-3.27738e-12,0,-3.40902e-12,-1.06623e-13,0,0,0,0,0,0,0,0,0,0,0,0,0,0,0,0,0,0,0,0,0,-0.261799,1.57107,-1.5,3.94113e+12,0,0,0,0,0
1280,-3.21152e-12,0,-1.5597e-06,-3.27738e-12,0,0,-1.06623e-13,0,0,0,0,0,0,0,0,0,0,0,0,0,0,0,0,0,0,0,0,0,-0.261799,1.57106,-1.5,3.94113e+12,0,0,0,0,0
1290,-3.21152e-12,0,-1.5597e-06,-3.27738e-12,0,-3.40902e-12,-1.06624e-13,0,0,0,0,0,0,0,0,0,0,0,0,0,0,0,0,0,0,0,0,0,-0.261799,1.57105,-1.5,3.94113e+12,0,0,0,0,0
1300,-3.21152e-12,0,-1.5597e-06,-3.27738e-12,0,0,-1.06624e-13,0,0,0,0,0,0,0,0,0,0,0,0,0,0,0,0,0,0,0,0,0,-0.261799,1.57104,-1.5,3.94113e+12,0,0,0,0,0
1310,-3.21152e-12,0,-1.5597e-06,-3.27738e-12,0,-3.40902e-12,-1.06624e-13,0,0,0,0,0,0,0,0,0,0,0,0,0,0,0,0,0,0,0,0,0,-0.261799,1.57103,-1.5,3.94113e+12,0,0,0,0,0
1320,-3.21152e-12,0,-1.5597e-06,-3.27738e-12,0,0,-1.06625e-13,0,0,0,0,0,0,0,0,0,0,0,0,0,0,0,0,0,0,0,0,0,-0.261799,1.57102,-1.5,3.94113e+12,0,0,0,0,0
1330,-3.21152e-12,0,-1.5597e-06,-3.27738e-12,0,-3.40902e-12,-1.06625e-13,0,0,0,0,0,0,0,0,0,0,0,0,0,0,0,0,0,0,0,0,0,-0.261799,1.57101,-1.5,3.94113e+12,0,0,0,0,0
1340,-3.21152e-12,0,-1.5597e-06,-3.27738e-12,0,0,-1.06625e-13,0,0,0,0,0,0,0,0,0,0,0,0,0,0,0,0,0,0,0,0,0,-0.261799,1.571,-1.5,3.94113e+12,0,0,0,0,0
1350,-3.21152e-12,0,-1.5597e-06,-3.27738e-12,0,-3.40902e-12,-1.06625e-13,0,0,0,0,0,0,0,0,0,0,0,0,0,0,0,0,0,0,0,0,0,-0.261799,1.57099,-1.5,3.94113e+12,0,0,0,0,0
1360,-3.21152e-12,0,-1.5597e-06,-3.27738e-12,0,0,-1.06626e-13,0,0,0,0,0,0,0,0,0,0,0,0,0,0,0,0,0,0,0,0,0,-0.261799,1.57099,-1.5,3.94113e+12,0,0,0,0,0
1370,-3.21152e-12,0,-1.5597e-06,-3.27738e-12,0,-3.40902e-12,-1.06626e-13,0,0,0,0,0,0,0,0,0,0,0,0,0,0,0,0,0,0,0,0,0,-0.261799,1.57098,-1.5,3.94113e+12,0,0,0,0,0
1380,-3.21152e-12,0,-1.5597e-06,-3.27738e-12,0,0,-1.06626e-13,0,0,0,0,0,0,0,0,0,0,0,0,0,0,0,0,0,0,0,0,0,-0.261799,1.57097,-1.5,3.94113e+12,0,0,0,0,0
1390,-3.21152e-12,0,-1.5597e-06,-3.27738e-12,0,-3.40902e-12,-1.06626e-13,0,0,0,0,0,0,0,0,0,0,0,0,0,0,0,0,0,0,0,0,0,-0.261799,1.57096,-1.5,3.94113e+12,0,0,0,0,0
1400,-3.21152e-12,0,-1.5597e-06,-3.27738e-12,0,0,-1.06627e-13,0,0,0,0,0,0,0,0,0,0,0,0,0,0,0,0,0,0,0,0,0,-0.261799,1.57096,-1.5,3.94113e+12,0,0,0,0,0
1410,-3.21152e-12,0,-1.5597e-06,-3.27738e-12,0,-3.40902e-12,-1.06627e-13,0,0,0,0,0,0,0,0,0,0,0,0,0,0,0,0,0,0,0,0,0,-0.261799,1.57095,-1.5,3.94113e+12,0,0,0,0,0
1420,-3.21152e-12,0,-1.5597e-06,-3.27738e-12,0,0,-1.06627e-13,0,0,0,0,0,0,0,0,0,0,0,0,0,0,0,0,0,0,0,0,0,-0.261799,1.57094,-1.5,3.94113e+12,0,0,0,0,0
1430,-3.21152e-12,0,-1.5597e-06,-3.27738e-12,0,-3.40902e-12,-1.06628e-13,0,0,0,0,0,0,0,0,0,0,0,0,0,0,0,0,0,0,0,0,0,-0.261799,1.57094,-1.5,3.94113e+12,0,0,0,0,0
1440,-3.21152e-12,0,-1.5597e-06,-3.27738e-12,0,0,-1.06628e-13,0,0,0,0,0,0,0,0,0,0,0,0,0,0,0,0,0,0,0,0,0,-0.261799,1.57093,-1.5,3.94113e+12,0,0,0,0,0
1450,-3.21154e-12,0,0,-3.27738e-12,0,-3.40902e-12,-1.06632e-13,0,0,0,0,0,0,0,0,0,0,0,0,0,0,0,0,0,0,0,0,0,-0.261799,1.57093,-1.5,3.94113e+12,0,0,0,0,0
1460,-3.21152e-12,0,-1.5597e-06,-3.27738e-12,0,0,-1.06632e-13,0,0,0,0,0,0,0,0,0,0,0,0,0,0,0,0,0,0,0,0,0,-0.261799,1.57092,-1.5,3.94113e+12,0,0,0,0,0
1470,-3.21152e-12,0,-1.5597e-06,-3.27738e-12,0,-3.40902e-12,-1.06632e-13,0,0,0,0,0,0,0,0,0,0,0,0,0,0,0,0,0,0,0,0,0,-0.261799,1.57091,-1.5,3.94113e+12,0,0,0,0,0
1480,-3.21152e-12,0,-1.5597e-06,-3.27738e-12,0,0,-1.06633e-13,0,0,0,0,0,0,0,0,0,0,0,0,0,0,0,0,0,0,0,0,0,-0.261799,1.57091,-1.5,3.94113e+12,0,0,0,0,0
1490,-3.21152e-12,0,-1.5597e-06,-3.27738e-12,0,-3.40902e-12,-1.06633e-13,0,0,0,0,0,0,0,0,0,0,0,0,0,0,0,0,0,0,0,0,0,-0.261799,1.57091,-1.5,3.94113e+12,0,0,0,0,0
1500,-3.21152e-12,0,-1.5597e-06,-3.27738e-12,0,0,-1.06633e-13,0,0,0,0,0,0,0,0,0,0,0,0,0,0,0,0,0,0,0,0,0,-0.261799,1.5709,-1.5,3.94113e+12,0,0,0,0,0
1510,-3.21152e-12,0,-1.5597e-06,-3.27738e-12,0,-3.40902e-12,-1.06633e-13,0,0,0,0,0,0,0,0,0,0,0,0,0,0,0,0,0,0,0,0,0,-0.261799,1.5709,-1.5,3.94113e+12,0,0,0,0,0
1520,-3.21152e-12,0,-1.5597e-06,-3.27738e-12,0,0,-1.06634e-13,0,0,0,0,0,0,0,0,0,0,0,0,0,0,0,0,0,0,0,0,0,-0.261799,1.57089,-1.5,3.94113e+12,0,0,0,0,0
1530,-3.21152e-12,0,-1.5597e-06,-3.27738e-12,0,-3.40902e-12,-1.06634e-13,0,0,0,0,0,0,0,0,0,0,0,0,0,0,0,0,0,0,0,0,0,-0.261799,1.57089,-1.5,3.94113e+12,0,0,0,0,0
1540,-3.21152e-12,0,-1.5597e-06,-3.27738e-12,0,0,-1.06634e-13,0,0,0,0,0,0,0,0,0,0,0,0,0,0,0,0,0,0,0,0,0,-0.261799,1.57088,-1.5,3.94113e+12,0,0,0,0,0
1550,-3.21152e-12,0,-1.5597e-06,-3.27738e-12,0,-3.40902e-12,-1.06634e-13,0,0,0,0,0,0,0,0,0,0,0,0,0,0,0,0,0,0,0,0,0,-0.261799,1.57088,-1.5,3.94113e+12,0,0,0,0,0
1560,-3.21152e-12,0,-1.5597e-06,-3.27738e-12,0,0,-1.06635e-13,0,0,0,0,0,0,0,0,0,0,0,0,0,0,0,0,0,0,0,0,0,-0.261799,1.57088,-1.5,3.94113e+12,0,0,0,0,0
1570,-3.21152e-12,0,-1.5597e-06,-3.27738e-12,0,-3.40902e-12,-1.06635e-13,0,0,0,0,0,0,0,0,0,0,0,0,0,0,0,0,0,0,0,0,0,-0.261799,1.57087,-1.5,3.94113e+12,0,0,0,0,0
1580,-3.21152e-12,0,-1.5597e-06,-3.27738e-12,0,0,-1.06635e-13,0,0,0,0,0,0,0,0,0,0,0,0,0,0,0,0,0,0,0,0,0,-0.261799,1.57087,-1.5,3.94113e+12,0,0,0,0,0
1590,-3.21152e-12,0,-1.5597e-06,-3.27738e-12,0,-3.40902e-12,-1.06636e-13,0,0,0,0,0,0,0,0,0,0,0,0,0,0,0,0,0,0,0,0,0,-0.261799,1.57087,-1.5,3.94113e+12,0,0,0,0,0
1600,-3.21152e-12,0,-1.5597e-06,-3.27738e-12,0,0,-1.06636e-13,0,0,0,0,0,0,0,0,0,0,0,0,0,0,0,0,0,0,0,0,0,-0.261799,1.57086,-1.5,3.94113e+12,0,0,0,0,0
1610,-3.21152e-12,0,-1.5597e-06,-3.27738e-12,0,-3.40902e-12,-1.06636e-13,0,0,0,0,0,0,0,0,0,0,0,0,0,0,0,0,0,0,0,0,0,-0.261799,1.57086,-1.5,3.94113e+12,0,0,0,0,0
1620,-3.21152e-12,0,-1.5597e-06,-3.27738e-12,0,0,-1.06636e-13,0,0,0,0,0,0,0,0,0,0,0,0,0,0,0,0,0,0,0,0,0,-0.261799,1.57086,-1.5,3.94113e+12,0,0,0,0,0
1630,-3.21152e-12,0,-1.5597e-06,-3.27738e-12,0,-3.40902e-12,-1.06637e-13,0,0,0,0,0,0,0,0,0,0,0,0,0,0,0,0,0,0,0,0,0,-0.261799,1.57086,-1.5,3.94113e+12,0,0,0,0,0
1640,-3.21152e-12,0,-1.5597e-06,-3.27738e-12,0,0,-1.06637e-13,0,0,0,0,0,0,0,0,0,0,0,0,0,0,0,0,0,0,0,0,0,-0.261799,1.57086,-1.5,3.94113e+12,0,0,0,0,0
1650,-3.21152e-12,0,-1.5597e-06,-3.27738e-12,0,-3.40902e-12,-1.06637e-13,0,0,0,0,0,0,0,0,0,0,0,0,0,0,0,0,0,0,0,0,0,-0.261799,1.57085,-1.5,3.94113e+12,0,0,0,0,0
1660,-3.21152e-12,0,-1.5597e-06,-3.27738e-12,0,0,-1.06637e-13,0,0,0,0,0,0,0,0,0,0,0,0,0,0,0,0,0,0,0,0,0,-0.261799,1.57085,-1.5,3.94113e+12,0,0,0,0,0
1670,-3.21152e-12,0,-1.5597e-06,-3.27738e-12,0,-3.40902e-12,-1.06638e-13,0,0,0,0,0,0,0,0,0,0,0,0,0,0,0,0,0,0,0,0,0,-0.261799,1.57085,-1.5,3.94113e+12,0,0,0,0,0
1680,-3.21152e-12,0,-1.5597e-06,-3.27738e-12,0,0,-1.06638e-13,0,0,0,0,0,0,0,0,0,0,0,0,0,0,0,0,0,0,0,0,0,-0.261799,1.57085,-1.5,3.94113e+12,0,0,0,0,0
1690,-3.21152e-12,0,-1.5597e-06,-3.27738e-12,0,-3.40902e-12,-1.06638e-13,0,0,0,0,0,0,0,0,0,0,0,0,0,0,0,0,0,0,0,0,0,-0.261799,1.57084,-1.5,3.94113e+12,0,0,0,0,0
1700,-3.21152e-12,0,-1.5597e-06,-3.27738e-12,0,0,-1.06639e-13,0,0,0,0,0,0,0,0,0,0,0,0,0,0,0,0,0,0,0,0,0,-0.261799,1.57084,-1.5,3.94113e+12,0,0,0,0,0
1710,-3.21152e-12,0,-1.5597e-06,-3.27738e-12,0,-3.40902e-12,-1.06639e-13,0,0,0,0,0,0,0,0,0,0,0,0,0,0,0,0,0,0,0,0,0,-0.261799,1.57084,-1.5,3.94113e+12,0,0,0,0,0
1720,-3.21152e-12,0,-1.5597e-06,-3.27738e-12,0,0,-1.06639e-13,0,0,0,0,0,0,0,0,0,0,0,0,0,0,0,0,0,0,0,0,0,-0.261799,1.57084,-1.5,3.94113e+12,0,0,0,0,0
1730,-3.21152e-12,0,-1.5597e-06,-3.27738e-12,0,-3.40902e-12,-1.06639e-13,0,0,0,0,0,0,0,0,0,0,0,0,0,0,0,0,0,0,0,0,0,-0.261799,1.57083,-1.5,3.94113e+12,0,0,0,0,0
1740,-3.21152e-12,0,-1.5597e-06,-3.27738e-12,0,0,-1.0664e-13,0,0,0,0,0,0,0,0,0,0,0,0,0,0,0,0,0,0,0,0,0,-0.261799,1.57083,-1.5,3.94113e+12,0,0,0,0,0
1750,-3.21152e-12,0,-1.5597e-06,-3.27738e-12,0,-3.40902e-12,-1.0664e-13,0,0,0,0,0,0,0,0,0,0,0,0,0,0,0,0,0,0,0,0,0,-0.261799,1.57083,-1.5,3.94113e+12,0,0,0,0,0
1760,-3.21152e-12,0,-1.5597e-06,-3.27738e-12,0,0,-1.0664e-13,0,0,0,0,0,0,0,0,0,0,0,0,0,0,0,0,0,0,0,0,0,-0.261799,1.57083,-1.5,3.94113e+12,0,0,0,0,0
1770,-3.21152e-12,0,-1.5597e-06,-3.27738e-12,0,-3.40902e-12,-1.0664e-13,0,0,0,0,0,0,0,0,0,0,0,0,0,0,0,0,0,0,0,0,0,-0.261799,1.57083,-1.5,3.94113e+12,0,0,0,0,0
1780,-3.21152e-12,0,-1.5597e-06,-3.27738e-12,0,0,-1.06641e-13,0,0,0,0,0,0,0,0,0,0,0,0,0,0,0,0,0,0,0,0,0,-0.261799,1.57083,-1.5,3.94113e+12,0,0,0,0,0
1790,-3.21152e-12,0,-1.5597e-06,-3.27738e-12,0,-3.40902e-12,-1.06641e-13,0,0,0,0,0,0,0,0,0,0,0,0,0,0,0,0,0,0,0,0,0,-0.261799,1.57083,-1.5,3.94113e+12,0,0,0,0,0
1800,-3.21152e-12,0,-1.5597e-06,-3.27738e-12,0,0,-1.06641e-13,0,0,0,0,0,0,0,0,0,0,0,0,0,0,0,0,0,0,0,0,0,-0.261799,1.57082,-1.5,3.94113e+12,0,0,0,0,0
1810,-3.21152e-12,0,-1.5597e-06,-3.27738e-12,0,-3.40902e-12,-1.06642e-13,0,0,0,0,0,0,0,0,0,0,0,0,0,0,0,0,0,0,0,0,0,-0.261799,1.57082,-1.5,3.94113e+12,0,0,0,0,0
1820,-3.21152e-12,0,-1.5597e-06,-3.27738e-12,0,0,-1.06642e-13,0,0,0,0,0,0,0,0,0,0,0,0,0,0,0,0,0,0,0,0,0,-0.261799,1.57082,-1.5,3.94113e+12,0,0,0,0,0
1830,-3.21152e-12,0,-1.5597e-06,-3.27738e-12,0,-3.40902e-12,-1.06642e-13,0,0,0,0,0,0,0,0,0,0,0,0,0,0,0,0,0,0,0,0,0,-0.261799,1.57082,-1.5,3.94113e+12,0,0,0,0,0
1840,-3.21152e-12,0,-1.5597e-06,-3.27738e-12,0,0,-1.06642e-13,0,0,0,0,0,0,0,0,0,0,0,0,0,0,0,0,0,0,0,0,0,-0.261799,1.57082,-1.5,3.94113e+12,0,0,0,0,0
1850,-3.21152e-12,0,-1.5597e-06,-3.27738e-12,0,-3.40902e-12,-1.06643e-13,0,0,0,0,0,0,0,0,0,0,0,0,0,0,0,0,0,0,0,0,0,-0.261799,1.57082,-1.5,3.94113e+12,0,0,0,0,0
1860,-3.21152e-12,0,-1.5597e-06,-3.27738e-12,0,0,-1.06643e-13,0,0,0,0,0,0,0,0,0,0,0,0,0,0,0,0,0,0,0,0,0,-0.261799,1.57082,-1.5,3.94113e+12,0,0,0,0,0
1870,-3.21152e-12,0,-1.5597e-06,-3.27738e-12,0,-3.40902e-12,-1.06643e-13,0,0,0,0,0,0,0,0,0,0,0,0,0,0,0,0,0,0,0,0,0,-0.261799,1.57082,-1.5,3.94113e+12,0,0,0,0,0
1880,-3.21152e-12,0,-1.5597e-06,-3.27738e-12,0,0,-1.06643e-13,0,0,0,0,0,0,0,0,0,0,0,0,0,0,0,0,0,0,0,0,0,-0.261799,1.57082,-1.5,3.94113e+12,0,0,0,0,0
1890,-3.21152e-12,0,-1.5597e-06,-3.27738e-12,0,-3.40902e-12,-1.06644e-13,0,0,0,0,0,0,0,0,0,0,0,0,0,0,0,0,0,0,0,0,0,-0.261799,1.57081,-1.5,3.94113e+12,0,0,0,0,0
1900,-3.21152e-12,0,-1.5597e-06,-3.27738e-12,0,0,-1.06644e-13,0,0,0,0,0,0,0,0,0,0,0,0,0,0,0,0,0,0,0,0,0,-0.261799,1.57081,-1.5,3.94113e+12,0,0,0,0,0
1910,-3.21152e-12,0,-1.5597e-06,-3.27738e-12,0,-3.40902e-12,-1.06644e-13,0,0,0,0,0,0,0,0,0,0,0,0,0,0,0,0,0,0,0,0,0,-0.261799,1.57081,-1.5,3.94113e+12,0,0,0,0,0
1920,-3.21152e-12,0,-1.5597e-06,-3.27738e-12,0,0,-1.06645e-13,0,0,0,0,0,0,0,0,0,0,0,0,0,0,0,0,0,0,0,0,0,-0.261799,1.57081,-1.5,3.94113e+12,0,0,0,0,0
1930,-3.21152e-12,0,-1.5597e-06,-3.27738e-12,0,-3.40902e-12,-1.06645e-13,0,0,0,0,0,0,0,0,0,0,0,0,0,0,0,0,0,0,0,0,0,-0.261799,1.57081,-1.5,3.94113e+12,0,0,0,0,0
1940,-3.21152e-12,0,-1.5597e-06,-3.27738e-12,0,0,-1.06645e-13,0,0,0,0,0,0,0,0,0,0,0,0,0,0,0,0,0,0,0,0,0,-0.261799,1.57081,-1.5,3.94113e+12,0,0,0,0,0
1950,-3.21152e-12,0,-1.5597e-06,-3.27738e-12,0,-3.40902e-12,-1.06645e-13,0,0,0,0,0,0,0,0,0,0,0,0,0,0,0,0,0,0,0,0,0,-0.261799,1.57081,-1.5,3.94113e+12,0,0,0,0,0
1960,-3.21152e-12,0,-1.5597e-06,-3.27738e-12,0,0,-1.06646e-13,0,0,0,0,0,0,0,0,0,0,0,0,0,0,0,0,0,0,0,0,0,-0.261799,1.57081,-1.5,3.94113e+12,0,0,0,0,0
1970,-3.21152e-12,0,-1.5597e-06,-3.27738e-12,0,-3.40902e-12,-1.06646e-13,0,0,0,0,0,0,0,0,0,0,0,0,0,0,0,0,0,0,0,0,0,-0.261799,1.57081,-1.5,3.94113e+12,0,0,0,0,0
1980,-3.21152e-12,0,-1.5597e-06,-3.27738e-12,0,0,-1.06646e-13,0,0,0,0,0,0,0,0,0,0,0,0,0,0,0,0,0,0,0,0,0,-0.261799,1.57081,-1.5,3.94113e+12,0,0,0,0,0
1990,-3.21152e-12,0,-1.5597e-06,-3.27738e-12,0,-3.40902e-12,-1.06646e-13,0,0,0,0,0,0,0,0,0,0,0,0,0,0,0,0,0,0,0,0,0,-0.261799,1.57081,-1.5,3.94113e+12,0,0,0,0,0
2000,-3.21152e-12,0,-1.5597e-06,-3.27738e-12,0,0,-1.06647e-13,0,0,0,0,0,0,0,0,0,0,0,0,0,0,0,0,0,0,0,0,0,-0.261799,1.57081,-1.5,3.94113e+12,0,0,0,0,0
2010,-3.21152e-12,0,-1.5597e-06,-3.27738e-12,0,-3.40902e-12,-1.06647e-13,0,0,0,0,0,0,0,0,0,0,0,0,0,0,0,0,0,0,0,0,0,-0.261799,1.57081,-1.5,3.94113e+12,0,0,0,0,0
2020,-3.21152e-12,0,-1.5597e-06,-3.27738e-12,0,0,-1.06647e-13,0,0,0,0,0,0,0,0,0,0,0,0,0,0,0,0,0,0,0,0,0,-0.261799,1.57081,-1.5,3.94113e+12,0,0,0,0,0
2030,-3.21152e-12,0,-1.5597e-06,-3.27738e-12,0,-3.40902e-12,-1.06647e-13,0,0,0,0,0,0,0,0,0,0,0,0,0,0,0,0,0,0,0,0,0,-0.261799,1.57081,-1.5,3.94113e+12,0,0,0,0,0
2040,-3.21152e-12,0,-1.5597e-06,-3.27738e-12,0,0,-1.06648e-13,0,0,0,0,0,0,0,0,0,0,0,0,0,0,0,0,0,0,0,0,0,-0.261799,1.57081,-1.5,3.94113e+12,0,0,0,0,0
2050,-3.21152e-12,0,-1.5597e-06,-3.27738e-12,0,-3.40902e-12,-1.06648e-13,0,0,0,0,0,0,0,0,0,0,0,0,0,0,0,0,0,0,0,0,0,-0.261799,1.57081,-1.5,3.94113e+12,0,0,0,0,0
2060,-3.21152e-12,0,-1.5597e-06,-3.27738e-12,0,0,-1.06648e-13,0,0,0,0,0,0,0,0,0,0,0,0,0,0,0,0,0,0,0,0,0,-0.261799,1.57081,-1.5,3.94113e+12,0,0,0,0,0
2070,-3.21152e-12,0,-1.5597e-06,-3.27738e-12,0,-3.40902e-12,-1.06649e-13,0,0,0,0,0,0,0,0,0,0,0,0,0,0,0,0,0,0,0,0,0,-0.261799,1.57081,-1.5,3.94113e+12,0,0,0,0,0
2080,-3.21152e-12,0,-1.5597e-06,-3.27738e-12,0,0,-1.06649e-13,0,0,0,0,0,0,0,0,0,0,0,0,0,0,0,0,0,0,0,0,0,-0.261799,1.57081,-1.5,3.94113e+12,0,0,0,0,0
2090,-3.21152e-12,0,-1.5597e-06,-3.27738e-12,0,-3.40902e-12,-1.06649e-13,0,0,0,0,0,0,0,0,0,0,0,0,0,0,0,0,0,0,0,0,0,-0.261799,1.5708,-1.5,3.94113e+12,0,0,0,0,0
2100,-3.21152e-12,0,-1.5597e-06,-3.27738e-12,0,0,-1.06649e-13,0,0,0,0,0,0,0,0,0,0,0,0,0,0,0,0,0,0,0,0,0,-0.261799,1.5708,-1.5,3.94113e+12,0,0,0,0,0
2110,-3.21152e-12,0,-1.5597e-06,-3.27738e-12,0,-3.40902e-12,-1.0665e-13,0,0,0,0,0,0,0,0,0,0,0,0,0,0,0,0,0,0,0,0,0,-0.261799,1.5708,-1.5,3.94113e+12,0,0,0,0,0
2120,-3.21152e-12,0,-1.5597e-06,-3.27738e-12,0,0,-1.0665e-13,0,0,0,0,0,0,0,0,0,0,0,0,0,0,0,0,0,0,0,0,0,-0.261799,1.5708,-1.5,3.94113e+12,0,0,0,0,0
2130,-3.21152e-12,0,-1.5597e-06,-3.27738e-12,0,-3.40902e-12,-1.0665e-13,0,0,0,0,0,0,0,0,0,0,0,0,0,0,0,0,0,0,0,0,0,-0.261799,1.5708,-1.5,3.94113e+12,0,0,0,0,0
2140,-3.21152e-12,0,-1.5597e-06,-3.27738e-12,0,0,-1.0665e-13,0,0,0,0,0,0,0,0,0,0,0,0,0,0,0,0,0,0,0,0,0,-0.261799,1.5708,-1.5,3.94113e+12,0,0,0,0,0
2150,-3.21152e-12,0,-1.5597e-06,-3.27738e-12,0,-3.40902e-12,-1.06651e-13,0,0,0,0,0,0,0,0,0,0,0,0,0,0,0,0,0,0,0,0,0,-0.261799,1.5708,-1.5,3.94113e+12,0,0,0,0,0
2160,-3.21152e-12,0,-1.5597e-06,-3.27738e-12,0,0,-1.06651e-13,0,0,0,0,0,0,0,0,0,0,0,0,0,0,0,0,0,0,0,0,0,-0.261799,1.5708,-1.5,3.94113e+12,0,0,0,0,0
2170,-3.21152e-12,0,-1.5597e-06,-3.27738e-12,0,-3.40902e-12,-1.06651e-13,0,0,0,0,0,0,0,0,0,0,0,0,0,0,0,0,0,0,0,0,0,-0.261799,1.5708,-1.5,3.94113e+12,0,0,0,0,0
2180,-3.21152e-12,0,-1.5597e-06,-3.27738e-12,0,0,-1.06652e-13,0,0,0,0,0,0,0,0,0,0,0,0,0,0,0,0,0,0,0,0,0,-0.261799,1.5708,-1.5,3.94113e+12,0,0,0,0,0
2190,-3.21152e-12,0,-1.5597e-06,-3.27738e-12,0,-3.40902e-12,-1.06652e-13,0,0,0,0,0,0,0,0,0,0,0,0,0,0,0,0,0,0,0,0,0,-0.261799,1.5708,-1.5,3.94113e+12,0,0,0,0,0
2200,-3.21152e-12,0,-1.5597e-06,-3.27738e-12,0,0,-1.06652e-13,0,0,0,0,0,0,0,0,0,0,0,0,0,0,0,0,0,0,0,0,0,-0.261799,1.5708,-1.5,3.94113e+12,0,0,0,0,0
2210,-3.21152e-12,0,-1.5597e-06,-3.27738e-12,0,-3.40902e-12,-1.06652e-13,0,0,0,0,0,0,0,0,0,0,0,0,0,0,0,0,0,0,0,0,0,-0.261799,1.5708,-1.5,3.94113e+12,0,0,0,0,0
2220,-3.21152e-12,0,-1.5597e-06,-3.27738e-12,0,0,-1.06653e-13,0,0,0,0,0,0,0,0,0,0,0,0,0,0,0,0,0,0,0,0,0,-0.261799,1.5708,-1.5,3.94113e+12,0,0,0,0,0
2230,-3.21152e-12,0,-1.5597e-06,-3.27738e-12,0,-3.40902e-12,-1.06653e-13,0,0,0,0,0,0,0,0,0,0,0,0,0,0,0,0,0,0,0,0,0,-0.261799,1.5708,-1.5,3.94113e+12,0,0,0,0,0
2240,-3.21152e-12,0,-1.5597e-06,-3.27738e-12,0,0,-1.06653e-13,0,0,0,0,0,0,0,0,0,0,0,0,0,0,0,0,0,0,0,0,0,-0.261799,1.5708,-1.5,3.94113e+12,0,0,0,0,0
2250,-3.21152e-12,0,-1.5597e-06,-3.27738e-12,0,-3.40902e-12,-1.06653e-13,0,0,0,0,0,0,0,0,0,0,0,0,0,0,0,0,0,0,0,0,0,-0.261799,1.5708,-1.5,3.94113e+12,0,0,0,0,0
2260,-3.21152e-12,0,-1.5597e-06,-3.27738e-12,0,0,-1.06654e-13,0,0,0,0,0,0,0,0,0,0,0,0,0,0,0,0,0,0,0,0,0,-0.261799,1.5708,-1.5,3.94113e+12,0,0,0,0,0
2270,-3.21152e-12,0,-1.5597e-06,-3.27738e-12,0,-3.40902e-12,-1.06654e-13,0,0,0,0,0,0,0,0,0,0,0,0,0,0,0,0,0,0,0,0,0,-0.261799,1.5708,-1.5,3.94113e+12,0,0,0,0,0
2280,-3.21152e-12,0,-1.5597e-06,-3.27738e-12,0,0,-1.06654e-13,0,0,0,0,0,0,0,0,0,0,0,0,0,0,0,0,0,0,0,0,0,-0.261799,1.5708,-1.5,3.94113e+12,0,0,0,0,0
2290,-3.21152e-12,0,-1.5597e-06,-3.27738e-12,0,-3.40902e-12,-1.06655e-13,0,0,0,0,0,0,0,0,0,0,0,0,0,0,0,0,0,0,0,0,0,-0.261799,1.5708,-1.5,3.94113e+12,0,0,0,0,0
2300,-3.21152e-12,0,-1.5597e-06,-3.27738e-12,0,0,-1.06655e-13,0,0,0,0,0,0,0,0,0,0,0,0,0,0,0,0,0,0,0,0,0,-0.261799,1.5708,-1.5,3.94113e+12,0,0,0,0,0
2310,-3.21152e-12,0,-1.5597e-06,-3.27738e-12,0,-3.40902e-12,-1.06655e-13,0,0,0,0,0,0,0,0,0,0,0,0,0,0,0,0,0,0,0,0,0,-0.261799,1.5708,-1.5,3.94113e+12,0,0,0,0,0
2320,-3.21152e-12,0,-1.5597e-06,-3.27738e-12,0,0,-1.06655e-13,0,0,0,0,0,0,0,0,0,0,0,0,0,0,0,0,0,0,0,0,0,-0.261799,1.5708,-1.5,3.94113e+12,0,0,0,0,0
2330,-3.21152e-12,0,-1.5597e-06,-3.27738e-12,0,-3.40902e-12,-1.06656e-13,0,0,0,0,0,0,0,0,0,0,0,0,0,0,0,0,0,0,0,0,0,-0.261799,1.5708,-1.5,3.94113e+12,0,0,0,0,0
2340,-3.21152e-12,0,-1.5597e-06,-3.27738e-12,0,0,-1.06656e-13,0,0,0,0,0,0,0,0,0,0,0,0,0,0,0,0,0,0,0,0,0,-0.261799,1.5708,-1.5,3.94113e+12,0,0,0,0,0
2350,-3.21152e-12,0,-1.5597e-06,-3.27738e-12,0,-3.40902e-12,-1.06656e-13,0,0,0,0,0,0,0,0,0,0,0,0,0,0,0,0,0,0,0,0,0,-0.261799,1.5708,-1.5,3.94113e+12,0,0,0,0,0
2360,-3.21152e-12,0,-1.5597e-06,-3.27738e-12,0,0,-1.06656e-13,0,0,0,0,0,0,0,0,0,0,0,0,0,0,0,0,0,0,0,0,0,-0.261799,1.5708,-1.5,3.94113e+12,0,0,0,0,0
2370,-3.21152e-12,0,-1.5597e-06,-3.27738e-12,0,-3.40902e-12,-1.06657e-13,0,0,0,0,0,0,0,0,0,0,0,0,0,0,0,0,0,0,0,0,0,-0.261799,1.5708,-1.5,3.94113e+12,0,0,0,0,0
2380,-3.21152e-12,0,-1.5597e-06,-3.27738e-12,0,0,-1.06657e-13,0,0,0,0,0,0,0,0,0,0,0,0,0,0,0,0,0,0,0,0,0,-0.261799,1.5708,-1.5,3.94113e+12,0,0,0,0,0
2390,-3.21152e-12,0,-1.5597e-06,-3.27738e-12,0,-3.40902e-12,-1.06657e-13,0,0,0,0,0,0,0,0,0,0,0,0,0,0,0,0,0,0,0,0,0,-0.261799,1.5708,-1.5,3.94113e+12,0,0,0,0,0
2400,-3.21152e-12,0,-1.5597e-06,-3.27738e-12,0,0,-1.06658e-13,0,0,0,0,0,0,0,0,0,0,0,0,0,0,0,0,0,0,0,0,0,-0.261799,1.5708,-1.5,3.94113e+12,0,0,0,0,0
2410,-3.21152e-12,0,-1.5597e-06,-3.27738e-12,0,-3.40902e-12,-1.06658e-13,0,0,0,0,0,0,0,0,0,0,0,0,0,0,0,0,0,0,0,0,0,-0.261799,1.5708,-1.5,3.94113e+12,0,0,0,0,0
2420,-3.21152e-12,0,-1.5597e-06,-3.27738e-12,0,0,-1.06658e-13,0,0,0,0,0,0,0,0,0,0,0,0,0,0,0,0,0,0,0,0,0,-0.261799,1.5708,-1.5,3.94113e+12,0,0,0,0,0
2430,-3.21152e-12,0,-1.5597e-06,-3.27738e-12,0,-3.40902e-12,-1.06658e-13,0,0,0,0,0,0,0,0,0,0,0,0,0,0,0,0,0,0,0,0,0,-0.261799,1.5708,-1.5,3.94113e+12,0,0,0,0,0
2440,-3.21152e-12,0,-1.5597e-06,-3.27738e-12,0,0,-1.06659e-13,0,0,0,0,0,0,0,0,0,0,0,0,0,0,0,0,0,0,0,0,0,-0.261799,1.5708,-1.5,3.94113e+12,0,0,0,0,0
2450,-3.21152e-12,0,-1.5597e-06,-3.27738e-12,0,-3.40902e-12,-1.06659e-13,0,0,0,0,0,0,0,0,0,0,0,0,0,0,0,0,0,0,0,0,0,-0.261799,1.5708,-1.5,3.94113e+12,0,0,0,0,0
2460,-3.21152e-12,0,-1.5597e-06,-3.27738e-12,0,0,-1.06659e-13,0,0,0,0,0,0,0,0,0,0,0,0,0,0,0,0,0,0,0,0,0,-0.261799,1.5708,-1.5,3.94113e+12,0,0,0,0,0
2470,-3.21152e-12,0,-1.5597e-06,-3.27738e-12,0,-3.40902e-12,-1.06659e-13,0,0,0,0,0,0,0,0,0,0,0,0,0,0,0,0,0,0,0,0,0,-0.261799,1.5708,-1.5,3.94113e+12,0,0,0,0,0
2480,-3.21152e-12,0,-1.5597e-06,-3.27738e-12,0,0,-1.0666e-13,0,0,0,0,0,0,0,0,0,0,0,0,0,0,0,0,0,0,0,0,0,-0.261799,1.5708,-1.5,3.94113e+12,0,0,0,0,0
2490,-3.21152e-12,0,-1.5597e-06,-3.27738e-12,0,-3.40902e-12,-1.0666e-13,0,0,0,0,0,0,0,0,0,0,0,0,0,0,0,0,0,0,0,0,0,-0.261799,1.5708,-1.5,3.94113e+12,0,0,0,0,0
2500,-3.21152e-12,0,-1.5597e-06,-3.27738e-12,0,0,-1.0666e-13,0,0,0,0,0,0,0,0,0,0,0,0,0,0,0,0,0,0,0,0,0,-0.261799,1.5708,-1.5,3.94113e+12,0,0,0,0,0
2510,-3.21152e-12,0,-1.5597e-06,-3.27738e-12,0,-3.40902e-12,-1.06661e-13,0,0,0,0,0,0,0,0,0,0,0,0,0,0,0,0,0,0,0,0,0,-0.261799,1.5708,-1.5,3.94113e+12,0,0,0,0,0
2520,-3.21152e-12,0,-1.5597e-06,-3.27738e-12,0,0,-1.06661e-13,0,0,0,0,0,0,0,0,0,0,0,0,0,0,0,0,0,0,0,0,0,-0.261799,1.5708,-1.5,3.94113e+12,0,0,0,0,0
2530,-3.21152e-12,0,-1.5597e-06,-3.27738e-12,0,-3.40902e-12,-1.06661e-13,0,0,0,0,0,0,0,0,0,0,0,0,0,0,0,0,0,0,0,0,0,-0.261799,1.5708,-1.5,3.94113e+12,0,0,0,0,0
2540,-3.21152e-12,0,-1.5597e-06,-3.27738e-12,0,0,-1.06661e-13,0,0,0,0,0,0,0,0,0,0,0,0,0,0,0,0,0,0,0,0,0,-0.261799,1.5708,-1.5,3.94113e+12,0,0,0,0,0
2550,-3.21152e-12,0,-1.5597e-06,-3.27738e-12,0,-3.40902e-12,-1.06662e-13,0,0,0,0,0,0,0,0,0,0,0,0,0,0,0,0,0,0,0,0,0,-0.261799,1.5708,-1.5,3.94113e+12,0,0,0,0,0
2560,-3.21152e-12,0,-1.5597e-06,-3.27738e-12,0,0,-1.06662e-13,0,0,0,0,0,0,0,0,0,0,0,0,0,0,0,0,0,0,0,0,0,-0.261799,1.5708,-1.5,3.94113e+12,0,0,0,0,0
2570,-3.21152e-12,0,-1.5597e-06,-3.27738e-12,0,-3.40902e-12,-1.06662e-13,0,0,0,0,0,0,0,0,0,0,0,0,0,0,0,0,0,0,0,0,0,-0.261799,1.5708,-1.5,3.94113e+12,0,0,0,0,0
2580,-3.21152e-12,0,-1.5597e-06,-3.27738e-12,0,0,-1.06662e-13,0,0,0,0,0,0,0,0,0,0,0,0,0,0,0,0,0,0,0,0,0,-0.261799,1.5708,-1.5,3.94113e+12,0,0,0,0,0
2590,-3.21152e-12,0,-1.5597e-06,-3.27738e-12,0,-3.40902e-12,-1.06663e-13,0,0,0,0,0,0,0,0,0,0,0,0,0,0,0,0,0,0,0,0,0,-0.261799,1.5708,-1.5,3.94113e+12,0,0,0,0,0
2600,-3.21152e-12,0,-1.5597e-06,-3.27738e-12,0,0,-1.06663e-13,0,0,0,0,0,0,0,0,0,0,0,0,0,0,0,0,0,0,0,0,0,-0.261799,1.5708,-1.5,3.94113e+12,0,0,0,0,0
2610,-3.21152e-12,0,-1.5597e-06,-3.27738e-12,0,-3.40902e-12,-1.06663e-13,0,0,0,0,0,0,0,0,0,0,0,0,0,0,0,0,0,0,0,0,0,-0.261799,1.5708,-1.5,3.94113e+12,0,0,0,0,0
2620,-3.21152e-12,0,-1.5597e-06,-3.27738e-12,0,0,-1.06663e-13,0,0,0,0,0,0,0,0,0,0,0,0,0,0,0,0,0,0,0,0,0,-0.261799,1.5708,-1.5,3.94113e+12,0,0,0,0,0
2630,-3.21152e-12,0,-1.5597e-06,-3.27738e-12,0,-3.40902e-12,-1.06664e-13,0,0,0,0,0,0,0,0,0,0,0,0,0,0,0,0,0,0,0,0,0,-0.261799,1.5708,-1.5,3.94113e+12,0,0,0,0,0
2640,-3.21152e-12,0,-1.5597e-06,-3.27738e-12,0,0,-1.06664e-13,0,0,0,0,0,0,0,0,0,0,0,0,0,0,0,0,0,0,0,0,0,-0.261799,1.5708,-1.5,3.94113e+12,0,0,0,0,0
2650,-3.21152e-12,0,-1.5597e-06,-3.27738e-12,0,-3.40902e-12,-1.06664e-13,0,0,0,0,0,0,0,0,0,0,0,0,0,0,0,0,0,0,0,0,0,-0.261799,1.5708,-1.5,3.94113e+12,0,0,0,0,0
2660,-3.21152e-12,0,-1.5597e-06,-3.27738e-12,0,0,-1.06665e-13,0,0,0,0,0,0,0,0,0,0,0,0,0,0,0,0,0,0,0,0,0,-0.261799,1.5708,-1.5,3.94113e+12,0,0,0,0,0
2670,-3.21152e-12,0,-1.5597e-06,-3.27738e-12,0,-3.40902e-12,-1.06665e-13,0,0,0,0,0,0,0,0,0,0,0,0,0,0,0,0,0,0,0,0,0,-0.261799,1.5708,-1.5,3.94113e+12,0,0,0,0,0
2680,-3.21152e-12,0,-1.5597e-06,-3.27738e-12,0,0,-1.06665e-13,0,0,0,0,0,0,0,0,0,0,0,0,0,0,0,0,0,0,0,0,0,-0.261799,1.5708,-1.5,3.94113e+12,0,0,0,0,0
2690,-3.21152e-12,0,-1.5597e-06,-3.27738e-12,0,-3.40902e-12,-1.06665e-13,0,0,0,0,0,0,0,0,0,0,0,0,0,0,0,0,0,0,0,0,0,-0.261799,1.5708,-1.5,3.94113e+12,0,0,0,0,0
2700,-3.21152e-12,0,-1.5597e-06,-3.27738e-12,0,0,-1.06666e-13,0,0,0,0,0,0,0,0,0,0,0,0,0,0,0,0,0,0,0,0,0,-0.261799,1.5708,-1.5,3.94113e+12,0,0,0,0,0
2710,-3.21152e-12,0,-1.5597e-06,-3.27738e-12,0,-3.40902e-12,-1.06666e-13,0,0,0,0,0,0,0,0,0,0,0,0,0,0,0,0,0,0,0,0,0,-0.261799,1.5708,-1.5,3.94113e+12,0,0,0,0,0
2720,-3.21152e-12,0,-1.5597e-06,-3.27738e-12,0,0,-1.06666e-13,0,0,0,0,0,0,0,0,0,0,0,0,0,0,0,0,0,0,0,0,0,-0.261799,1.5708,-1.5,3.94113e+12,0,0,0,0,0
2730,-3.21152e-12,0,-1.5597e-06,-3.27738e-12,0,-3.40902e-12,-1.06666e-13,0,0,0,0,0,0,0,0,0,0,0,0,0,0,0,0,0,0,0,0,0,-0.261799,1.5708,-1.5,3.94113e+12,0,0,0,0,0
2740,-3.21152e-12,0,-1.5597e-06,-3.27738e-12,0,0,-1.06667e-13,0,0,0,0,0,0,0,0,0,0,0,0,0,0,0,0,0,0,0,0,0,-0.261799,1.5708,-1.5,3.94113e+12,0,0,0,0,0
2750,-3.21152e-12,0,-1.5597e-06,-3.27738e-12,0,-3.40902e-12,-1.06667e-13,0,0,0,0,0,0,0,0,0,0,0,0,0,0,0,0,0,0,0,0,0,-0.261799,1.5708,-1.5,3.94113e+12,0,0,0,0,0
2760,-3.21152e-12,0,-1.5597e-06,-3.27738e-12,0,0,-1.06667e-13,0,0,0,0,0,0,0,0,0,0,0,0,0,0,0,0,0,0,0,0,0,-0.261799,1.5708,-1.5,3.94113e+12,0,0,0,0,0
2770,-3.21152e-12,0,-1.5597e-06,-3.27738e-12,0,-3.40902e-12,-1.06668e-13,0,0,0,0,0,0,0,0,0,0,0,0,0,0,0,0,0,0,0,0,0,-0.261799,1.5708,-1.5,3.94113e+12,0,0,0,0,0
2780,-3.21152e-12,0,-1.5597e-06,-3.27738e-12,0,0,-1.06668e-13,0,0,0,0,0,0,0,0,0,0,0,0,0,0,0,0,0,0,0,0,0,-0.261799,1.5708,-1.5,3.94113e+12,0,0,0,0,0
2790,-3.21152e-12,0,-1.5597e-06,-3.27738e-12,0,-3.40902e-12,-1.06668e-13,0,0,0,0,0,0,0,0,0,0,0,0,0,0,0,0,0,0,0,0,0,-0.261799,1.5708,-1.5,3.94113e+12,0,0,0,0,0
2800,-3.21152e-12,0,-1.5597e-06,-3.27738e-12,0,0,-1.06668e-13,0,0,0,0,0,0,0,0,0,0,0,0,0,0,0,0,0,0,0,0,0,-0.261799,1.5708,-1.5,3.94113e+12,0,0,0,0,0
2810,-3.21152e-12,0,-1.5597e-06,-3.27738e-12,0,-3.40902e-12,-1.06669e-13,0,0,0,0,0,0,0,0,0,0,0,0,0,0,0,0,0,0,0,0,0,-0.261799,1.5708,-1.5,3.94113e+12,0,0,0,0,0
2820,-3.21152e-12,0,-1.5597e-06,-3.27738e-12,0,0,-1.06669e-13,0,0,0,0,0,0,0,0,0,0,0,0,0,0,0,0,0,0,0,0,0,-0.261799,1.5708,-1.5,3.94113e+12,0,0,0,0,0
2830,-3.21152e-12,0,-1.5597e-06,-3.27738e-12,0,-3.40902e-12,-1.06669e-13,0,0,0,0,0,0,0,0,0,0,0,0,0,0,0,0,0,0,0,0,0,-0.261799,1.5708,-1.5,3.94113e+12,0,0,0,0,0
2840,-3.21152e-12,0,-1.5597e-06,-3.27738e-12,0,0,-1.06669e-13,0,0,0,0,0,0,0,0,0,0,0,0,0,0,0,0,0,0,0,0,0,-0.261799,1.5708,-1.5,3.94113e+12,0,0,0,0,0
2850,-3.21152e-12,0,-1.5597e-06,-3.27738e-12,0,-3.40902e-12,-1.0667e-13,0,0,0,0,0,0,0,0,0,0,0,0,0,0,0,0,0,0,0,0,0,-0.261799,1.5708,-1.5,3.94113e+12,0,0,0,0,0
2860,-3.21152e-12,0,-1.5597e-06,-3.27738e-12,0,0,-1.0667e-13,0,0,0,0,0,0,0,0,0,0,0,0,0,0,0,0,0,0,0,0,0,-0.261799,1.5708,-1.5,3.94113e+12,0,0,0,0,0
2870,-3.21152e-12,0,-1.5597e-06,-3.27738e-12,0,-3.40902e-12,-1.0667e-13,0,0,0,0,0,0,0,0,0,0,0,0,0,0,0,0,0,0,0,0,0,-0.261799,1.5708,-1.5,3.94113e+12,0,0,0,0,0
2880,-3.21152e-12,0,-1.5597e-06,-3.27738e-12,0,0,-1.06671e-13,0,0,0,0,0,0,0,0,0,0,0,0,0,0,0,0,0,0,0,0,0,-0.261799,1.5708,-1.5,3.94113e+12,0,0,0,0,0
2890,-3.21152e-12,0,-1.5597e-06,-3.27738e-12,0,-3.40902e-12,-1.06671e-13,0,0,0,0,0,0,0,0,0,0,0,0,0,0,0,0,0,0,0,0,0,-0.261799,1.5708,-1.5,3.94113e+12,0,0,0,0,0
2900,-3.21152e-12,0,-1.5597e-06,-3.27738e-12,0,0,-1.06671e-13,0,0,0,0,0,0,0,0,0,0,0,0,0,0,0,0,0,0,0,0,0,-0.261799,1.5708,-1.5,3.94113e+12,0,0,0,0,0
2910,-3.21152e-12,0,-1.5597e-06,-3.27738e-12,0,-3.40902e-12,-1.06671e-13,0,0,0,0,0,0,0,0,0,0,0,0,0,0,0,0,0,0,0,0,0,-0.261799,1.5708,-1.5,3.94113e+12,0,0,0,0,0
2920,-3.21152e-12,0,-1.5597e-06,-3.27738e-12,0,0,-1.06672e-13,0,0,0,0,0,0,0,0,0,0,0,0,0,0,0,0,0,0,0,0,0,-0.261799,1.5708,-1.5,3.94113e+12,0,0,0,0,0
2930,-3.21152e-12,0,-1.5597e-06,-3.27738e-12,0,-3.40902e-12,-1.06672e-13,0,0,0,0,0,0,0,0,0,0,0,0,0,0,0,0,0,0,0,0,0,-0.261799,1.5708,-1.5,3.94113e+12,0,0,0,0,0
2940,-3.21152e-12,0,-1.5597e-06,-3.27738e-12,0,0,-1.06672e-13,0,0,0,0,0,0,0,0,0,0,0,0,0,0,0,0,0,0,0,0,0,-0.261799,1.5708,-1.5,3.94113e+12,0,0,0,0,0
2950,-3.21152e-12,0,-1.5597e-06,-3.27738e-12,0,-3.40902e-12,-1.06672e-13,0,0,0,0,0,0,0,0,0,0,0,0,0,0,0,0,0,0,0,0,0,-0.261799,1.5708,-1.5,3.94113e+12,0,0,0,0,0
2960,-3.21152e-12,0,-1.5597e-06,-3.27738e-12,0,0,-1.06673e-13,0,0,0,0,0,0,0,0,0,0,0,0,0,0,0,0,0,0,0,0,0,-0.261799,1.5708,-1.5,3.94113e+12,0,0,0,0,0
2970,-3.21152e-12,0,-1.5597e-06,-3.27738e-12,0,-3.40902e-12,-1.06673e-13,0,0,0,0,0,0,0,0,0,0,0,0,0,0,0,0,0,0,0,0,0,-0.261799,1.5708,-1.5,3.94113e+12,0,0,0,0,0
2980,-3.21152e-12,0,-1.5597e-06,-3.27738e-12,0,0,-1.06673e-13,0,0,0,0,0,0,0,0,0,0,0,0,0,0,0,0,0,0,0,0,0,-0.261799,1.5708,-1.5,3.94113e+12,0,0,0,0,0
2990,-3.21152e-12,0,-1.5597e-06,-3.27738e-12,0,-3.40902e-12,-1.06674e-13,0,0,0,0,0,0,0,0,0,0,0,0,0,0,0,0,0,0,0,0,0,-0.261799,1.5708,-1.5,3.94113e+12,0,0,0,0,0
3000,-3.21152e-12,0,-1.5597e-06,-3.27738e-12,0,0,-1.06674e-13,0,0,0,0,0,0,0,0,0,0,0,0,0,0,0,0,0,0,0,0,0,-0.261799,1.5708,-1.5,3.94113e+12,0,0,0,0,0
3010,-3.21152e-12,0,-1.5597e-06,-3.27738e-12,0,-3.40902e-12,-1.06674e-13,0,0,0,0,0,0,0,0,0,0,0,0,0,0,0,0,0,0,0,0,0,-0.261799,1.5708,-1.5,3.94113e+12,0,0,0,0,0
3020,-3.21152e-12,0,-1.5597e-06,-3.27738e-12,0,0,-1.06674e-13,0,0,0,0,0,0,0,0,0,0,0,0,0,0,0,0,0,0,0,0,0,-0.261799,1.5708,-1.5,3.94113e+12,0,0,0,0,0
3030,-3.21152e-12,0,-1.5597e-06,-3.27738e-12,0,-3.40902e-12,-1.06675e-13,0,0,0,0,0,0,0,0,0,0,0,0,0,0,0,0,0,0,0,0,0,-0.261799,1.5708,-1.5,3.94113e+12,0,0,0,0,0
3040,-3.21152e-12,0,-1.5597e-06,-3.27738e-12,0,0,-1.06675e-13,0,0,0,0,0,0,0,0,0,0,0,0,0,0,0,0,0,0,0,0,0,-0.261799,1.5708,-1.5,3.94113e+12,0,0,0,0,0
3050,-3.21152e-12,0,-1.5597e-06,-3.27738e-12,0,-3.40902e-12,-1.06675e-13,0,0,0,0,0,0,0,0,0,0,0,0,0,0,0,0,0,0,0,0,0,-0.261799,1.5708,-1.5,3.94113e+12,0,0,0,0,0
3060,-3.21152e-12,0,-1.5597e-06,-3.27738e-12,0,0,-1.06628e-13,0,0,0,0,0,0,0,0,0,0,0,0,0,0,0,0,0,0,0,0,0,-0.261799,1.5708,-1.5,3.94113e+12,0,0,0,0,0
3070,-3.21152e-12,0,-1.5597e-06,-3.27738e-12,0,-3.40902e-12,-1.06628e-13,0,0,0,0,0,0,0,0,0,0,0,0,0,0,0,0,0,0,0,0,0,-0.261799,1.5708,-1.5,3.94113e+12,0,0,0,0,0
3080,-3.21152e-12,0,-1.5597e-06,-3.27738e-12,0,0,-1.06629e-13,0,0,0,0,0,0,0,0,0,0,0,0,0,0,0,0,0,0,0,0,0,-0.261799,1.5708,-1.5,3.94113e+12,0,0,0,0,0
3090,-3.21152e-12,0,-1.5597e-06,-3.27738e-12,0,-3.40902e-12,-1.06629e-13,0,0,0,0,0,0,0,0,0,0,0,0,0,0,0,0,0,0,0,0,0,-0.261799,1.5708,-1.5,3.94113e+12,0,0,0,0,0
3100,-3.21152e-12,0,-1.5597e-06,-3.27738e-12,0,0,-1.06629e-13,0,0,0,0,0,0,0,0,0,0,0,0,0,0,0,0,0,0,0,0,0,-0.261799,1.5708,-1.5,3.94113e+12,0,0,0,0,0
3110,-3.21152e-12,0,-1.5597e-06,-3.27738e-12,0,-3.40902e-12,-1.06629e-13,0,0,0,0,0,0,0,0,0,0,0,0,0,0,0,0,0,0,0,0,0,-0.261799,1.5708,-1.5,3.94113e+12,0,0,0,0,0
3120,-3.21152e-12,0,-1.5597e-06,-3.27738e-12,0,0,-1.0663e-13,0,0,0,0,0,0,0,0,0,0,0,0,0,0,0,0,0,0,0,0,0,-0.261799,1.5708,-1.5,3.94113e+12,0,0,0,0,0
3130,-3.21152e-12,0,-1.5597e-06,-3.27738e-12,0,-3.40902e-12,-1.0663e-13,0,0,0,0,0,0,0,0,0,0,0,0,0,0,0,0,0,0,0,0,0,-0.261799,1.5708,-1.5,3.94113e+12,0,0,0,0,0
3140,-3.21152e-12,0,-1.5597e-06,-3.27738e-12,0,0,-1.0663e-13,0,0,0,0,0,0,0,0,0,0,0,0,0,0,0,0,0,0,0,0,0,-0.261799,1.5708,-1.5,3.94113e+12,0,0,0,0,0
3150,-3.21152e-12,0,-1.5597e-06,-3.27738e-12,0,-3.40902e-12,-1.06631e-13,0,0,0,0,0,0,0,0,0,0,0,0,0,0,0,0,0,0,0,0,0,-0.261799,1.5708,-1.5,3.94113e+12,0,0,0,0,0
3160,-3.21152e-12,0,-1.5597e-06,-3.27738e-12,0,0,-1.06631e-13,0,0,0,0,0,0,0,0,0,0,0,0,0,0,0,0,0,0,0,0,0,-0.261799,1.5708,-1.5,3.94113e+12,0,0,0,0,0
3170,-3.21152e-12,0,-1.5597e-06,-3.27738e-12,0,-3.40902e-12,-1.06631e-13,0,0,0,0,0,0,0,0,0,0,0,0,0,0,0,0,0,0,0,0,0,-0.261799,1.5708,-1.5,3.94113e+12,0,0,0,0,0
3180,-3.21152e-12,0,-1.5597e-06,-3.27738e-12,0,0,-1.06631e-13,0,0,0,0,0,0,0,0,0,0,0,0,0,0,0,0,0,0,0,0,0,-0.261799,1.5708,-1.5,3.94113e+12,0,0,0,0,0
3190,-3.21152e-12,0,-1.5597e-06,-3.27738e-12,0,-3.40902e-12,-1.06675e-13,0,0,0,0,0,0,0,0,0,0,0,0,0,0,0,0,0,0,0,0,0,-0.261799,1.5708,-1.5,3.94113e+12,0,0,0,0,0
3200,-3.21152e-12,0,-1.5597e-06,-3.27738e-12,0,0,-1.06676e-13,0,0,0,0,0,0,0,0,0,0,0,0,0,0,0,0,0,0,0,0,0,-0.261799,1.5708,-1.5,3.94113e+12,0,0,0,0,0
3210,-3.21152e-12,0,-1.5597e-06,-3.27738e-12,0,-3.40902e-12,-1.06676e-13,0,0,0,0,0,0,0,0,0,0,0,0,0,0,0,0,0,0,0,0,0,-0.261799,1.5708,-1.5,3.94113e+12,0,0,0,0,0
3220,-3.21152e-12,0,-1.5597e-06,-3.27738e-12,0,0,-1.06676e-13,0,0,0,0,0,0,0,0,0,0,0,0,0,0,0,0,0,0,0,0,0,-0.261799,1.5708,-1.5,3.94113e+12,0,0,0,0,0
3230,-3.21152e-12,0,-1.5597e-06,-3.27738e-12,0,-3.40902e-12,-1.06676e-13,0,0,0,0,0,0,0,0,0,0,0,0,0,0,0,0,0,0,0,0,0,-0.261799,1.5708,-1.5,3.94113e+12,0,0,0,0,0
3240,-3.21152e-12,0,-1.5597e-06,-3.27738e-12,0,0,-1.06677e-13,0,0,0,0,0,0,0,0,0,0,0,0,0,0,0,0,0,0,0,0,0,-0.261799,1.5708,-1.5,3.94113e+12,0,0,0,0,0
3250,-3.21152e-12,0,-1.5597e-06,-3.27738e-12,0,-3.40902e-12,-1.06677e-13,0,0,0,0,0,0,0,0,0,0,0,0,0,0,0,0,0,0,0,0,0,-0.261799,1.5708,-1.5,3.94113e+12,0,0,0,0,0
3260,-3.21152e-12,0,-1.5597e-06,-3.27738e-12,0,0,-1.06677e-13,0,0,0,0,0,0,0,0,0,0,0,0,0,0,0,0,0,0,0,0,0,-0.261799,1.5708,-1.5,3.94113e+12,0,0,0,0,0
3270,-3.21152e-12,0,-1.5597e-06,-3.27738e-12,0,-3.40902e-12,-1.06678e-13,0,0,0,0,0,0,0,0,0,0,0,0,0,0,0,0,0,0,0,0,0,-0.261799,1.5708,-1.5,3.94113e+12,0,0,0,0,0
3280,-3.21152e-12,0,-1.5597e-06,-3.27738e-12,0,0,-1.06678e-13,0,0,0,0,0,0,0,0,0,0,0,0,0,0,0,0,0,0,0,0,0,-0.261799,1.5708,-1.5,3.94113e+12,0,0,0,0,0
3290,-3.21152e-12,0,-1.5597e-06,-3.27738e-12,0,-3.40902e-12,-1.06678e-13,0,0,0,0,0,0,0,0,0,0,0,0,0,0,0,0,0,0,0,0,0,-0.261799,1.5708,-1.5,3.94113e+12,0,0,0,0,0
3300,-3.21152e-12,0,-1.5597e-06,-3.27738e-12,0,0,-1.06678e-13,0,0,0,0,0,0,0,0,0,0,0,0,0,0,0,0,0,0,0,0,0,-0.261799,1.5708,-1.5,3.94113e+12,0,0,0,0,0
3310,-3.21152e-12,0,-1.5597e-06,-3.27738e-12,0,-3.40902e-12,-1.06679e-13,0,0,0,0,0,0,0,0,0,0,0,0,0,0,0,0,0,0,0,0,0,-0.261799,1.5708,-1.5,3.94113e+12,0,0,0,0,0
3320,-3.21152e-12,0,-1.5597e-06,-3.27738e-12,0,0,-1.06679e-13,0,0,0,0,0,0,0,0,0,0,0,0,0,0,0,0,0,0,0,0,0,-0.261799,1.5708,-1.5,3.94113e+12,0,0,0,0,0
3330,-3.21152e-12,0,-1.5597e-06,-3.27738e-12,0,-3.40902e-12,-1.06679e-13,0,0,0,0,0,0,0,0,0,0,0,0,0,0,0,0,0,0,0,0,0,-0.261799,1.5708,-1.5,3.94113e+12,0,0,0,0,0
3340,-3.21152e-12,0,-1.5597e-06,-3.27738e-12,0,0,-1.06679e-13,0,0,0,0,0,0,0,0,0,0,0,0,0,0,0,0,0,0,0,0,0,-0.261799,1.5708,-1.5,3.94113e+12,0,0,0,0,0
3350,-3.21152e-12,0,-1.5597e-06,-3.27738e-12,0,-3.40902e-12,-1.0668e-13,0,0,0,0,0,0,0,0,0,0,0,0,0,0,0,0,0,0,0,0,0,-0.261799,1.5708,-1.5,3.94113e+12,0,0,0,0,0
3360,-3.21152e-12,0,-1.5597e-06,-3.27738e-12,0,0,-1.0668e-13,0,0,0,0,0,0,0,0,0,0,0,0,0,0,0,0,0,0,0,0,0,-0.261799,1.5708,-1.5,3.94113e+12,0,0,0,0,0
3370,-3.21152e-12,0,-1.5597e-06,-3.27738e-12,0,-3.40902e-12,-1.0668e-13,0,0,0,0,0,0,0,0,0,0,0,0,0,0,0,0,0,0,0,0,0,-0.261799,1.5708,-1.5,3.94113e+12,0,0,0,0,0
3380,-3.21152e-12,0,-1.5597e-06,-3.27738e-12,0,0,-1.06681e-13,0,0,0,0,0,0,0,0,0,0,0,0,0,0,0,0,0,0,0,0,0,-0.261799,1.5708,-1.5,3.94113e+12,0,0,0,0,0
3390,-3.21152e-12,0,-1.5597e-06,-3.27738e-12,0,-3.40902e-12,-1.06681e-13,0,0,0,0,0,0,0,0,0,0,0,0,0,0,0,0,0,0,0,0,0,-0.261799,1.5708,-1.5,3.94113e+12,0,0,0,0,0
3400,-3.21152e-12,0,-1.5597e-06,-3.27738e-12,0,0,-1.06681e-13,0,0,0,0,0,0,0,0,0,0,0,0,0,0,0,0,0,0,0,0,0,-0.261799,1.5708,-1.5,3.94113e+12,0,0,0,0,0
3410,-3.21152e-12,0,-1.5597e-06,-3.27738e-12,0,-3.40902e-12,-1.06681e-13,0,0,0,0,0,0,0,0,0,0,0,0,0,0,0,0,0,0,0,0,0,-0.261799,1.5708,-1.5,3.94113e+12,0,0,0,0,0
3420,-3.21152e-12,0,-1.5597e-06,-3.27738e-12,0,0,-1.06682e-13,0,0,0,0,0,0,0,0,0,0,0,0,0,0,0,0,0,0,0,0,0,-0.261799,1.5708,-1.5,3.94113e+12,0,0,0,0,0
3430,-3.21152e-12,0,-1.5597e-06,-3.27738e-12,0,-3.40902e-12,-1.06682e-13,0,0,0,0,0,0,0,0,0,0,0,0,0,0,0,0,0,0,0,0,0,-0.261799,1.5708,-1.5,3.94113e+12,0,0,0,0,0
3440,-3.21152e-12,0,-1.5597e-06,-3.27738e-12,0,0,-1.06682e-13,0,0,0,0,0,0,0,0,0,0,0,0,0,0,0,0,0,0,0,0,0,-0.261799,1.5708,-1.5,3.94113e+12,0,0,0,0,0
3450,-3.21152e-12,0,-1.5597e-06,-3.27738e-12,0,-3.40902e-12,-1.06682e-13,0,0,0,0,0,0,0,0,0,0,0,0,0,0,0,0,0,0,0,0,0,-0.261799,1.5708,-1.5,3.94113e+12,0,0,0,0,0
3460,-3.21152e-12,0,-1.5597e-06,-3.27738e-12,0,0,-1.06683e-13,0,0,0,0,0,0,0,0,0,0,0,0,0,0,0,0,0,0,0,0,0,-0.261799,1.5708,-1.5,3.94113e+12,0,0,0,0,0
3470,-3.21152e-12,0,-1.5597e-06,-3.27738e-12,0,-3.40902e-12,-1.06683e-13,0,0,0,0,0,0,0,0,0,0,0,0,0,0,0,0,0,0,0,0,0,-0.261799,1.5708,-1.5,3.94113e+12,0,0,0,0,0
3480,-3.21152e-12,0,-1.5597e-06,-3.27738e-12,0,0,-1.06683e-13,0,0,0,0,0,0,0,0,0,0,0,0,0,0,0,0,0,0,0,0,0,-0.261799,1.5708,-1.5,3.94113e+12,0,0,0,0,0
3490,-3.21152e-12,0,-1.5597e-06,-3.27738e-12,0,-3.40902e-12,-1.06684e-13,0,0,0,0,0,0,0,0,0,0,0,0,0,0,0,0,0,0,0,0,0,-0.261799,1.5708,-1.5,3.94113e+12,0,0,0,0,0
3500,-3.21152e-12,0,-1.5597e-06,-3.27738e-12,0,0,-1.06684e-13,0,0,0,0,0,0,0,0,0,0,0,0,0,0,0,0,0,0,0,0,0,-0.261799,1.5708,-1.5,3.94113e+12,0,0,0,0,0
3510,-3.21152e-12,0,-1.5597e-06,-3.27738e-12,0,-3.40902e-12,-1.06684e-13,0,0,0,0,0,0,0,0,0,0,0,0,0,0,0,0,0,0,0,0,0,-0.261799,1.5708,-1.5,3.94113e+12,0,0,0,0,0
3520,-3.21152e-12,0,-1.5597e-06,-3.27738e-12,0,0,-1.06684e-13,0,0,0,0,0,0,0,0,0,0,0,0,0,0,0,0,0,0,0,0,0,-0.261799,1.5708,-1.5,3.94113e+12,0,0,0,0,0
3530,-3.21152e-12,0,-1.5597e-06,-3.27738e-12,0,-3.40902e-12,-1.06685e-13,0,0,0,0,0,0,0,0,0,0,0,0,0,0,0,0,0,0,0,0,0,-0.261799,1.5708,-1.5,3.94113e+12,0,0,0,0,0
3540,-3.21152e-12,0,-1.5597e-06,-3.27738e-12,0,0,-1.06685e-13,0,0,0,0,0,0,0,0,0,0,0,0,0,0,0,0,0,0,0,0,0,-0.261799,1.5708,-1.5,3.94113e+12,0,0,0,0,0
3550,-3.21152e-12,0,-1.5597e-06,-3.27738e-12,0,-3.40902e-12,-1.06685e-13,0,0,0,0,0,0,0,0,0,0,0,0,0,0,0,0,0,0,0,0,0,-0.261799,1.5708,-1.5,3.94113e+12,0,0,0,0,0
3560,-3.21152e-12,0,-1.5597e-06,-3.27738e-12,0,0,-1.06685e-13,0,0,0,0,0,0,0,0,0,0,0,0,0,0,0,0,0,0,0,0,0,-0.261799,1.5708,-1.5,3.94113e+12,0,0,0,0,0
3570,-3.21152e-12,0,-1.5597e-06,-3.27738e-12,0,-3.40902e-12,-1.06686e-13,0,0,0,0,0,0,0,0,0,0,0,0,0,0,0,0,0,0,0,0,0,-0.261799,1.5708,-1.5,3.94113e+12,0,0,0,0,0
3580,-3.21152e-12,0,-1.5597e-06,-3.27738e-12,0,0,-1.06686e-13,0,0,0,0,0,0,0,0,0,0,0,0,0,0,0,0,0,0,0,0,0,-0.261799,1.5708,-1.5,3.94113e+12,0,0,0,0,0
3590,-3.21152e-12,0,-1.5597e-06,-3.27738e-12,0,-3.40902e-12,-1.06686e-13,0,0,0,0,0,0,0,0,0,0,0,0,0,0,0,0,0,0,0,0,0,-0.261799,1.5708,-1.5,3.94113e+12,0,0,0,0,0
3600,-3.21152e-12,0,-1.5597e-06,-3.27738e-12,0,0,-1.06687e-13,0,0,0,0,0,0,0,0,0,0,0,0,0,0,0,0,0,0,0,0,0,-0.261799,1.5708,-1.5,3.94113e+12,0,0,0,0,0
3610,-3.21152e-12,0,-1.5597e-06,-3.27738e-12,0,-3.40902e-12,-1.06687e-13,0,0,0,0,0,0,0,0,0,0,0,0,0,0,0,0,0,0,0,0,0,-0.261799,1.5708,-1.5,3.94113e+12,0,0,0,0,0
3620,-3.21152e-12,0,-1.5597e-06,-3.27738e-12,0,0,-1.06687e-13,0,0,0,0,0,0,0,0,0,0,0,0,0,0,0,0,0,0,0,0,0,-0.261799,1.5708,-1.5,3.94113e+12,0,0,0,0,0
3630,-3.21152e-12,0,-1.5597e-06,-3.27738e-12,0,-3.40902e-12,-1.06687e-13,0,0,0,0,0,0,0,0,0,0,0,0,0,0,0,0,0,0,0,0,0,-0.261799,1.5708,-1.5,3.94113e+12,0,0,0,0,0
3640,-3.21152e-12,0,-1.5597e-06,-3.27738e-12,0,0,-1.06688e-13,0,0,0,0,0,0,0,0,0,0,0,0,0,0,0,0,0,0,0,0,0,-0.261799,1.5708,-1.5,3.94113e+12,0,0,0,0,0
3650,-3.21152e-12,0,-1.5597e-06,-3.27738e-12,0,-3.40902e-12,-1.06688e-13,0,0,0,0,0,0,0,0,0,0,0,0,0,0,0,0,0,0,0,0,0,-0.261799,1.5708,-1.5,3.94113e+12,0,0,0,0,0
3660,-3.21152e-12,0,-1.5597e-06,-3.27738e-12,0,0,-1.06688e-13,0,0,0,0,0,0,0,0,0,0,0,0,0,0,0,0,0,0,0,0,0,-0.261799,1.5708,-1.5,3.94113e+12,0,0,0,0,0
3670,-3.21152e-12,0,-1.5597e-06,-3.27738e-12,0,-3.40902e-12,-1.06688e-13,0,0,0,0,0,0,0,0,0,0,0,0,0,0,0,0,0,0,0,0,0,-0.261799,1.5708,-1.5,3.94113e+12,0,0,0,0,0
3680,-3.21152e-12,0,-1.5597e-06,-3.27738e-12,0,0,-1.06689e-13,0,0,0,0,0,0,0,0,0,0,0,0,0,0,0,0,0,0,0,0,0,-0.261799,1.5708,-1.5,3.94113e+12,0,0,0,0,0
3690,-3.21152e-12,0,-1.5597e-06,-3.27738e-12,0,-3.40902e-12,-1.06689e-13,0,0,0,0,0,0,0,0,0,0,0,0,0,0,0,0,0,0,0,0,0,-0.261799,1.5708,-1.5,3.94113e+12,0,0,0,0,0
3700,-3.21152e-12,0,-1.5597e-06,-3.27738e-12,0,0,-1.06689e-13,0,0,0,0,0,0,0,0,0,0,0,0,0,0,0,0,0,0,0,0,0,-0.261799,1.5708,-1.5,3.94113e+12,0,0,0,0,0
3710,-3.21152e-12,0,-1.5597e-06,-3.27738e-12,0,-3.40902e-12,-1.0669e-13,0,0,0,0,0,0,0,0,0,0,0,0,0,0,0,0,0,0,0,0,0,-0.261799,1.5708,-1.5,3.94113e+12,0,0,0,0,0
3720,-3.21152e-12,0,-1.5597e-06,-3.27738e-12,0,0,-1.0669e-13,0,0,0,0,0,0,0,0,0,0,0,0,0,0,0,0,0,0,0,0,0,-0.261799,1.5708,-1.5,3.94113e+12,0,0,0,0,0
3730,-3.21152e-12,0,-1.5597e-06,-3.27738e-12,0,-3.40902e-12,-1.0669e-13,0,0,0,0,0,0,0,0,0,0,0,0,0,0,0,0,0,0,0,0,0,-0.261799,1.5708,-1.5,3.94113e+12,0,0,0,0,0
3740,-3.21152e-12,0,-1.5597e-06,-3.27738e-12,0,0,-1.0669e-13,0,0,0,0,0,0,0,0,0,0,0,0,0,0,0,0,0,0,0,0,0,-0.261799,1.5708,-1.5,3.94113e+12,0,0,0,0,0
3750,-3.21152e-12,0,-1.5597e-06,-3.27738e-12,0,-3.40902e-12,-1.06691e-13,0,0,0,0,0,0,0,0,0,0,0,0,0,0,0,0,0,0,0,0,0,-0.261799,1.5708,-1.5,3.94113e+12,0,0,0,0,0
3760,-3.21152e-12,0,-1.5597e-06,-3.27738e-12,0,0,-1.06691e-13,0,0,0,0,0,0,0,0,0,0,0,0,0,0,0,0,0,0,0,0,0,-0.261799,1.5708,-1.5,3.94113e+12,0,0,0,0,0
3770,-3.21152e-12,0,-1.5597e-06,-3.27738e-12,0,-3.40902e-12,-1.06691e-13,0,0,0,0,0,0,0,0,0,0,0,0,0,0,0,0,0,0,0,0,0,-0.261799,1.5708,-1.5,3.94113e+12,0,0,0,0,0
3780,-3.21152e-12,0,-1.5597e-06,-3.27738e-12,0,0,-1.06691e-13,0,0,0,0,0,0,0,0,0,0,0,0,0,0,0,0,0,0,0,0,0,-0.261799,1.5708,-1.5,3.94113e+12,0,0,0,0,0
3790,-3.21152e-12,0,-1.5597e-06,-3.27738e-12,0,-3.40902e-12,-1.06692e-13,0,0,0,0,0,0,0,0,0,0,0,0,0,0,0,0,0,0,0,0,0,-0.261799,1.5708,-1.5,3.94113e+12,0,0,0,0,0
3800,-3.21152e-12,0,-1.5597e-06,-3.27738e-12,0,0,-1.06692e-13,0,0,0,0,0,0,0,0,0,0,0,0,0,0,0,0,0,0,0,0,0,-0.261799,1.5708,-1.5,3.94113e+12,0,0,0,0,0
3810,-3.21152e-12,0,-1.5597e-06,-3.27738e-12,0,-3.40902e-12,-1.06692e-13,0,0,0,0,0,0,0,0,0,0,0,0,0,0,0,0,0,0,0,0,0,-0.261799,1.5708,-1.5,3.94113e+12,0,0,0,0,0
3820,-3.21152e-12,0,-1.5597e-06,-3.27738e-12,0,0,-1.06692e-13,0,0,0,0,0,0,0,0,0,0,0,0,0,0,0,0,0,0,0,0,0,-0.261799,1.5708,-1.5,3.94113e+12,0,0,0,0,0
3830,-3.21152e-12,0,-1.5597e-06,-3.27738e-12,0,-3.40902e-12,-1.06693e-13,0,0,0,0,0,0,0,0,0,0,0,0,0,0,0,0,0,0,0,0,0,-0.261799,1.5708,-1.5,3.94113e+12,0,0,0,0,0
3840,-3.21152e-12,0,-1.5597e-06,-3.27738e-12,0,0,-1.06693e-13,0,0,0,0,0,0,0,0,0,0,0,0,0,0,0,0,0,0,0,0,0,-0.261799,1.5708,-1.5,3.94113e+12,0,0,0,0,0
3850,-3.21152e-12,0,-1.5597e-06,-3.27738e-12,0,-3.40902e-12,-1.06693e-13,0,0,0,0,0,0,0,0,0,0,0,0,0,0,0,0,0,0,0,0,0,-0.261799,1.5708,-1.5,3.94113e+12,0,0,0,0,0
3860,-3.21152e-12,0,-1.5597e-06,-3.27738e-12,0,0,-1.06694e-13,0,0,0,0,0,0,0,0,0,0,0,0,0,0,0,0,0,0,0,0,0,-0.261799,1.5708,-1.5,3.94113e+12,0,0,0,0,0
3870,-3.21152e-12,0,-1.5597e-06,-3.27738e-12,0,-3.40902e-12,-1.06694e-13,0,0,0,0,0,0,0,0,0,0,0,0,0,0,0,0,0,0,0,0,0,-0.261799,1.5708,-1.5,3.94113e+12,0,0,0,0,0
3880,-3.21152e-12,0,-1.5597e-06,-3.27738e-12,0,0,-1.06694e-13,0,0,0,0,0,0,0,0,0,0,0,0,0,0,0,0,0,0,0,0,0,-0.261799,1.5708,-1.5,3.94113e+12,0,0,0,0,0
3890,-3.21152e-12,0,-1.5597e-06,-3.27738e-12,0,-3.40902e-12,-1.06694e-13,0,0,0,0,0,0,0,0,0,0,0,0,0,0,0,0,0,0,0,0,0,-0.261799,1.5708,-1.5,3.94113e+12,0,0,0,0,0
