timestamp,A_x,A_y,A_z,P,Q,R,Phi,Theta,Psi,poseX,poseY,poseZ,state_X,state_Y,state_Z,state_VzB,state_Bx,state_By,state_Bz,p1_x,p1_y,p2_x,p2_y,p3_x,p3_y,p4_x,p4_y,roll,pitch,yaw,alt,targetHeading,highLevelState,lowLevelState,gateNumber,filtered_x,filtered_y,x_OT,y_OT,vx_OT,vy_OT,filtered_vx,filtered_vygateArearansac_corr_x,ransac_corr_y,ransac_corr_vx,ransac_corr_vy,detectionTimeStamppTermX,dTermX,pTermY,dTermY,vxcmd,vycmd
6678,0,-0.124023,-4.49707,-0.000866369,-4.02988e-05,-0.00113821,-3.13402,0.0189775,2.33964,0,0,0,-7.49381e-06,3.35056e-06,-0.00158891,0.000709959,2.3396,0,0,0,0,0,0,0,0,0,0,-0.179847,-0.000221215,0,0,0,0,0,2,-7.49381e-06,3.35056e-06,0,0,0,0,-0.00158891,0.000709959,1.9603e-19,0,0,0,0,0,0,0,0,0,1,-3.68561e-06
6693,0,-0.00683594,-4.25586,-0.000422845,-3.19004e-06,-0.000219125,-3.13407,0.0190455,2.3399,0,0,0,-6.24736e-05,2.80083e-05,-0.0049711,0.00223437,2.33984,0,0,0,0,0,0,0,0,0,0,-0.180143,0.000689276,0,0,0,0,0,2,-6.24736e-05,2.80083e-05,0,0,0,0,-0.0049711,0.00223437,1.9603e-19,0,0,0,0,0,0,0,0,0,1,-3.08091e-05
6708,0,0,-5.57812,-0.000544467,0.000401217,-0.00114626,-3.13411,0.0190667,2.34001,0,0,0,-0.000168,7.55454e-05,-0.00832924,0.00375822,2.33994,0,0,0,0,0,0,0,0,0,0,-0.180455,0.00157427,0,0,0,0,0,2,-0.000168,7.55454e-05,0,0,0,0,-0.00832924,0.00375822,1.9603e-19,0,0,0,0,0,0,0,0,0,1,-8.30999e-05
6725,0,0,-7.38086,0.000612504,-1.31343e-05,-0.000842871,-3.13419,0.019009,2.3402,0,0,0,-0.000363933,0.000164164,-0.0123214,0.00557981,2.34014,0,0,0,0,0,0,0,0,0,0,-0.180802,0.00264948,0,0,0,0,0,2,-0.000363933,0.000164164,0,0,0,0,-0.0123214,0.00557981,1.9603e-19,0,0,0,0,0,0,0,0,0,1,-0.000180581
6741,0,0,1.64551,0.000226429,0.000602436,-0.000221597,-3.13419,0.0190051,2.34021,0,0,0,-0.00059683,0.000269846,-0.0158257,0.00718748,2.34021,0,0,0,0,0,0,0,0,0,0,-0.181119,0.00358119,0,0,0,0,0,2,-0.00059683,0.000269846,0,0,0,0,-0.0158257,0.00718748,1.9603e-19,0,0,0,0,0,0,0,0,0,1,-0.000296831
6757,0,0,1.76855,0.000212309,0.000674014,-0.00106253,-3.13418,0.0190022,2.34023,0,0,0,-0.000865774,0.000392129,-0.019086,0.00868213,2.34022,0,0,0,0,0,0,0,0,0,0,-0.18142,0.00444258,0,0,0,0,0,2,-0.000865774,0.000392129,0,0,0,0,-0.019086,0.00868213,1.9603e-19,0,0,0,0,0,0,0,0,0,1,-0.000431342
6772,0,0,-0.765625,0.000226127,0.000215402,-3.66859e-05,-3.13418,0.0190016,2.34023,0,0,0,-0.00120745,0.000547676,-0.0225378,0.0102636,2.34023,0,0,0,0,0,0,0,0,0,0,-0.181734,0.00535893,0,0,0,0,0,2,-0.00120745,0.000547676,0,0,0,0,-0.0225378,0.0102636,1.9603e-19,0,0,0,0,0,0,0,0,0,1,-0.000602444
6788,0,0,-5.87207,-0.000545014,-0.000288429,-0.000136786,-3.13418,0.0190083,2.34023,0,0,0,-0.00160298,0.000727895,-0.0259613,0.0118317,2.34023,0,0,0,0,0,0,0,0,0,0,-0.182041,0.00627203,0,0,0,0,0,2,-0.00160298,0.000727895,0,0,0,0,-0.0259613,0.0118317,1.9603e-19,0,0,0,0,0,0,0,0,0,1,-0.000800684
6804,0,0,2.07227,-3.82306e-05,0.00064259,-0.000171228,-3.13418,0.019002,2.34023,0,0,0,-0.00205303,0.000933077,-0.0293587,0.0133877,2.34023,0,0,0,0,0,0,0,0,0,0,-0.18234,0.00718332,0,0,0,0,0,2,-0.00205303,0.000933077,0,0,0,0,-0.0293587,0.0133877,1.9603e-19,0,0,0,0,0,0,0,0,0,1,-0.00102639
6820,0,0,6.25098,-0.000951828,-0.000198931,0.000151466,-3.13419,0.0190057,2.34023,0,0,0,-0.00255714,0.00116303,-0.0327276,0.0149313,2.34023,0,0,0,0,0,0,0,0,0,0,-0.182633,0.0080919,0,0,0,0,0,2,-0.00255714,0.00116303,0,0,0,0,-0.0327276,0.0149313,1.9603e-19,0,0,0,0,0,0,0,0,0,1,-0.00127933
6835,0,0,-5.38477,0.000264434,-0.000574523,-0.000836099,-3.13417,0.0190086,2.34025,0,0,0,-0.00307839,0.00140091,-0.0358619,0.0163679,2.34025,0,0,0,0,0,0,0,0,0,0,-0.182898,0.00894413,0,0,0,0,0,2,-0.00307839,0.00140091,0,0,0,0,-0.0358619,0.0163679,1.9603e-19,0,0,0,0,0,0,0,0,0,1,-0.001541
6851,0,0,-2.87207,9.41446e-05,0.0011281,-0.0012836,-3.13417,0.0189942,2.34026,0,0,0,-0.00368604,0.00167829,-0.0391806,0.0178862,2.34026,0,0,0,0,0,0,0,0,0,0,-0.183175,0.00985054,0,0,0,0,0,2,-0.00368604,0.00167829,0,0,0,0,-0.0391806,0.0178862,1.9603e-19,0,0,0,0,0,0,0,0,0,1,-0.00184612
6867,0,0,1.80957,0.000528893,0.000468661,-0.00199427,-3.13416,0.0189926,2.34027,0,0,0,-0.00434652,0.00197982,-0.0424723,0.0193903,2.34027,0,0,0,0,0,0,0,0,0,0,-0.183444,0.0107559,0,0,0,0,0,2,-0.00434652,0.00197982,0,0,0,0,-0.0424723,0.0193903,1.9603e-19,0,0,0,0,0,0,0,0,0,1,-0.0021778
6901,0,0,3.62695,-0.00117914,-0.000699424,-0.000374222,-3.13419,0.0190106,2.34028,0,0,0,-0.00597487,0.00272326,-0.0494058,0.0225588,2.34028,0,0,0,0,0,0,0,0,0,0,-0.183995,0.0126786,0,0,0,0,0,2,-0.00597487,0.00272326,0,0,0,0,-0.0494058,0.0225588,1.9603e-19,0,0,0,0,0,0,0,0,0,1,-0.00299559
6916,0,0,3.40332,-0.00104576,-4.17978e-05,-0.000601466,-3.1342,0.0190048,2.34029,0,0,0,-0.00669146,0.00305052,-0.0522141,0.0238477,2.34029,0,0,0,0,0,0,0,0,0,0,-0.184209,0.0134659,0,0,0,0,0,2,-0.00669146,0.00305052,0,0,0,0,-0.0522141,0.0238477,1.9603e-19,0,0,0,0,0,0,0,0,0,1,-0.00335557
6947,0,0,3.05078,-0.000147578,-0.000499729,-0.000867949,-3.13419,0.019018,2.34031,0,0,0,-0.00846028,0.00385881,-0.0583814,0.0266814,2.34031,0,0,0,0,0,0,0,0,0,0,-0.184665,0.0152109,0,0,0,0,0,2,-0.00846028,0.00385881,0,0,0,0,-0.0583814,0.0266814,1.9603e-19,0,0,0,0,0,0,0,0,0,1,-0.00424469
6959,0,0,3.05078,-0.000147578,-0.000499729,-0.000867949,-3.13419,0.019018,2.34031,0,0,0,-0.00923986,0.00421514,-0.0609325,0.0278523,2.34031,0,0,0,0,0,0,0,0,0,0,-0.184852,0.0159353,0,0,0,0,0,2,-0.00923986,0.00421514,0,0,0,0,-0.0609325,0.0278523,1.9603e-19,0,0,0,0,0,0,0,0,0,1,-0.00463665
6975,0,0,-7.30469,-0.000388396,-7.8904e-05,7.66694e-05,-3.1342,0.0190251,2.34031,0,0,0,-0.0102466,0.00467538,-0.0640502,0.0292846,2.34031,0,0,0,0,0,0,0,0,0,0,-0.185075,0.0168251,0,0,0,0,0,2,-0.0102466,0.00467538,0,0,0,0,-0.0640502,0.0292846,1.9603e-19,0,0,0,0,0,0,0,0,0,1,-0.00514292
6990,0,0,2.12695,-0.000729786,0.000294445,-0.000287943,-3.13421,0.019009,2.34031,0,0,0,-0.0112354,0.00512756,-0.0669495,0.0306185,2.34031,0,0,0,0,0,0,0,0,0,0,-0.185277,0.017658,0,0,0,0,0,2,-0.0112354,0.00512756,0,0,0,0,-0.0669495,0.0306185,1.9603e-19,0,0,0,0,0,0,0,0,0,1,-0.00564032
7006,0,0,-4.95117,0.000370192,0.000502085,-0.00143078,-3.1342,0.0190082,2.34033,0,0,0,-0.0123379,0.00563186,-0.0700163,0.0320295,2.34031,0,0,0,0,0,0,0,0,0,0,-0.185485,0.0185453,0,0,0,0,0,2,-0.0123379,0.00563186,0,0,0,0,-0.0700163,0.0320295,1.9603e-19,0,0,0,0,0,0,0,0,0,1,-0.00619504
7022,0,0,-4.37988,0.00121723,0.000576633,9.49679e-05,-3.13419,0.0190069,2.34033,0,0,0,-0.0134902,0.00615904,-0.0730592,0.033428,2.34033,0,0,0,0,0,0,0,0,0,0,-0.185684,0.0194327,0,0,0,0,0,2,-0.0134902,0.00615904,0,0,0,0,-0.0730592,0.033428,1.9603e-19,0,0,0,0,0,0,0,0,0,1,-0.00677495
7038,0,0,0.783203,-7.36139e-05,0.00105215,-0.000575018,-3.13419,0.0189989,2.34034,0,0,0,-0.0146899,0.00670802,-0.076079,0.0348129,2.34034,0,0,0,0,0,0,0,0,0,0,-0.185879,0.0203168,0,0,0,0,0,2,-0.0146899,0.00670802,0,0,0,0,-0.076079,0.0348129,1.9603e-19,0,0,0,0,0,0,0,0,0,1,-0.00737882
7054,0,0,-2.44922,-0.000426536,0.000967303,4.96238e-05,-3.1342,0.0189938,2.34034,0,0,0,-0.0159387,0.00727947,-0.0790732,0.0361865,2.34034,0,0,0,0,0,0,0,0,0,0,-0.186067,0.0211986,0,0,0,0,0,2,-0.0159387,0.00727947,0,0,0,0,-0.0790732,0.0361865,1.9603e-19,0,0,0,0,0,0,0,0,0,1,-0.00800742
7070,0,0,6.625,-0.00100083,-0.000471624,-0.00124233,-3.13422,0.0189961,2.34036,0,0,0,-0.0172341,0.00787237,-0.0820406,0.0375505,2.34036,0,0,0,0,0,0,0,0,0,0,-0.186245,0.0220805,0,0,0,0,0,2,-0.0172341,0.00787237,0,0,0,0,-0.0820406,0.0375505,1.9603e-19,0,0,0,0,0,0,0,0,0,1,-0.0086596
7087,0,0,-6.98535,-0.0020535,-0.000369032,-0.000606813,-3.13424,0.018992,2.34037,0,0,0,-0.0185777,0.00848743,-0.0849821,0.0389063,2.34037,0,0,0,0,0,0,0,0,0,0,-0.186419,0.0229579,0,0,0,0,0,2,-0.0185777,0.00848743,0,0,0,0,-0.0849821,0.0389063,1.9603e-19,0,0,0,0,0,0,0,0,0,1,-0.00933617
7102,0,0,6.17188,-0.00168376,-0.000925505,-2.18119e-05,-3.13425,0.0190023,2.34037,0,0,0,-0.0199681,0.00912408,-0.0878983,0.0402524,2.34037,0,0,0,0,0,0,0,0,0,0,-0.186586,0.0238326,0,0,0,0,0,2,-0.0199681,0.00912408,0,0,0,0,-0.0878983,0.0402524,1.9603e-19,0,0,0,0,0,0,0,0,0,1,-0.0100365
7118,0,0,6.17188,-0.00168376,-0.000925505,-2.18119e-05,-3.13425,0.0190023,2.34037,0,0,0,-0.0214049,0.00978217,-0.0907911,0.0415892,2.34037,0,0,0,0,0,0,0,0,0,0,-0.186747,0.0247064,0,0,0,0,0,2,-0.0214049,0.00978217,0,0,0,0,-0.0907911,0.0415892,1.9603e-19,0,0,0,0,0,0,0,0,0,1,-0.0107604
7135,0,0,7.37988,0.000168231,0.000887169,-0.000819373,-3.13425,0.0189866,2.3404,0,0,0,-0.0229819,0.0105047,-0.093839,0.0429992,2.3404,0,0,0,0,0,0,0,0,0,0,-0.186905,0.0256373,0,0,0,0,0,2,-0.0229819,0.0105047,0,0,0,0,-0.093839,0.0429992,1.9603e-19,0,0,0,0,0,0,0,0,0,1,-0.0115552
7150,0,0,-7.2168,8.31546e-05,-0.000186333,-0.00123563,-3.13425,0.0189876,2.34041,0,0,0,-0.0244153,0.0111616,-0.0965047,0.0442314,2.34041,0,0,0,0,0,0,0,0,0,0,-0.187041,0.0264545,0,0,0,0,0,2,-0.0244153,0.0111616,0,0,0,0,-0.0965047,0.0442314,1.9603e-19,0,0,0,0,0,0,0,0,0,1,-0.0122778
7165,0,0,6.12305,-0.000559485,0.000307908,0.00080259,-3.13424,0.0189795,2.34041,0,0,0,-0.0258885,0.011837,-0.0991506,0.0454536,2.34041,0,0,0,0,0,0,0,0,0,0,-0.187175,0.0272669,0,0,0,0,0,2,-0.0258885,0.011837,0,0,0,0,-0.0991506,0.0454536,1.9603e-19,0,0,0,0,0,0,0,0,0,1,-0.0130206
7181,0,0,4.66406,-0.000166957,0.000116213,-0.00026494,-3.13425,0.018972,2.34042,0,0,0,-0.0275044,0.0125778,-0.101951,0.0467457,2.34042,0,0,0,0,0,0,0,0,0,0,-0.187308,0.0281355,0,0,0,0,0,2,-0.0275044,0.0125778,0,0,0,0,-0.101951,0.0467457,1.9603e-19,0,0,0,0,0,0,0,0,0,1,-0.0138356
7197,0,0,4.66406,-0.000166957,0.000116213,-0.00026494,-3.13425,0.018972,2.34042,0,0,0,-0.0291648,0.0133392,-0.104728,0.0480274,2.34042,0,0,0,0,0,0,0,0,0,0,-0.187438,0.0289991,0,0,0,0,0,2,-0.0291648,0.0133392,0,0,0,0,-0.104728,0.0480274,1.9603e-19,0,0,0,0,0,0,0,0,0,1,-0.0146731
7213,0,0,-0.405273,0.000363408,-0.000373894,-6.44633e-05,-3.13425,0.0189664,2.34043,0,0,0,-0.0308685,0.0141206,-0.107483,0.0492986,2.34042,0,0,0,0,0,0,0,0,0,0,-0.187562,0.0298608,0,0,0,0,0,2,-0.0308685,0.0141206,0,0,0,0,-0.107483,0.0492986,1.9603e-19,0,0,0,0,0,0,0,0,0,1,-0.0155327
7229,0,0,-3.16797,0.000334649,-0.000201943,0.000181844,-3.13424,0.0189645,2.34043,0,0,0,-0.0326161,0.0149223,-0.110215,0.050559,2.34043,0,0,0,0,0,0,0,0,0,0,-0.187678,0.0307219,0,0,0,0,0,2,-0.0326161,0.0149223,0,0,0,0,-0.110215,0.050559,1.9603e-19,0,0,0,0,0,0,0,0,0,1,-0.0164145
7244,0,0,-7.32812,0.00103515,-0.000546966,-0.000267656,-3.13423,0.0189664,2.34043,0,0,0,-0.034294,0.015692,-0.112757,0.0517298,2.34043,0,0,0,0,0,0,0,0,0,0,-0.187783,0.0315273,0,0,0,0,0,2,-0.034294,0.015692,0,0,0,0,-0.112757,0.0517298,1.9603e-19,0,0,0,0,0,0,0,0,0,1,-0.0172612
7260,0,0,-7.32812,0.00103515,-0.000546966,-0.000267656,-3.13423,0.0189664,2.34043,0,0,0,-0.0361264,0.0165327,-0.11545,0.0529684,2.34043,0,0,0,0,0,0,0,0,0,0,-0.18789,0.0323842,0,0,0,0,0,2,-0.0361264,0.0165327,0,0,0,0,-0.11545,0.0529684,1.9603e-19,0,0,0,0,0,0,0,0,0,1,-0.0181859
7276,0,0,-7.32812,0.00103515,-0.000546966,-0.000267656,-3.13423,0.0189664,2.34043,0,0,0,-0.0380017,0.0173931,-0.118121,0.0541972,2.34043,0,0,0,0,0,0,0,0,0,0,-0.187991,0.0332394,0,0,0,0,0,2,-0.0380017,0.0173931,0,0,0,0,-0.118121,0.0541972,1.9603e-19,0,0,0,0,0,0,0,0,0,1,-0.0191324
7292,0,0,-7.32812,0.00103515,-0.000546966,-0.000267656,-3.13423,0.0189664,2.34043,0,0,0,-0.0399195,0.0182731,-0.120771,0.0554162,2.34043,0,0,0,0,0,0,0,0,0,0,-0.188086,0.0340931,0,0,0,0,0,2,-0.0399195,0.0182731,0,0,0,0,-0.120771,0.0554162,1.9603e-19,0,0,0,0,0,0,0,0,0,1,-0.0201004
7308,0,0,-7.32812,0.00103515,-0.000546966,-0.000267656,-3.13423,0.0189664,2.34043,0,0,0,-0.0418795,0.0191724,-0.1234,0.0566254,2.34043,0,0,0,0,0,0,0,0,0,0,-0.188176,0.0349451,0,0,0,0,0,2,-0.0418795,0.0191724,0,0,0,0,-0.1234,0.0566254,1.9603e-19,0,0,0,0,0,0,0,0,0,1,-0.0210897
7324,0,0,-7.32812,0.00103515,-0.000546966,-0.000267656,-3.13423,0.0189664,2.34043,0,0,0,-0.0438813,0.0200911,-0.126007,0.057825,2.34043,0,0,0,0,0,0,0,0,0,0,-0.18826,0.0357956,0,0,0,0,0,2,-0.0438813,0.0200911,0,0,0,0,-0.126007,0.057825,1.9603e-19,0,0,0,0,0,0,0,0,0,1,-0.0221002
7340,0,-0.0830078,-7.25977,-0.00062546,0.00113994,0.000421723,-3.13426,0.0189902,2.34045,0,0,0,-0.0459238,0.0210284,-0.128594,0.0590148,2.34043,0,0,0,0,0,0,0,0,0,0,-0.188338,0.0366443,0,0,0,0,0,2,-0.0459238,0.0210284,0,0,0,0,-0.128594,0.0590148,1.9603e-19,0,0,0,0,0,0,0,0,0,1,-0.0231312
7355,0,-0.0830078,-7.25977,-0.00062546,0.00113994,0.000421723,-3.13426,0.0189902,2.34045,0,0,0,-0.047876,0.0219244,-0.130999,0.0601286,2.34045,0,0,0,0,0,0,0,0,0,0,-0.188401,0.0374425,0,0,0,0,0,2,-0.047876,0.0219244,0,0,0,0,-0.130999,0.0601286,1.9603e-19,0,0,0,0,0,0,0,0,0,1,-0.0241169
7374,0,-0.0830078,-7.25977,-0.00062546,0.00113994,0.000421723,-3.13426,0.0189902,2.34045,0,0,0,-0.0504034,0.0230846,-0.134021,0.0615282,2.34045,0,0,0,0,0,0,0,0,0,0,-0.188478,0.0384486,0,0,0,0,0,2,-0.0504034,0.0230846,0,0,0,0,-0.134021,0.0615282,1.9603e-19,0,0,0,0,0,0,0,0,0,1,-0.0253931
7389,0,-0.0625,1.6377,-0.000456285,0.00064005,-0.000776874,-3.1343,0.018996,2.34049,0,0,0,-0.0524359,0.0240179,-0.136384,0.062625,2.34049,0,0,0,0,0,0,0,0,0,0,-0.188525,0.0392481,0,0,0,0,0,2,-0.0524359,0.0240179,0,0,0,0,-0.136384,0.062625,1.9603e-19,0,0,0,0,0,0,0,0,0,1,-0.0264197
7404,0,-0.0292969,-6.5127,0.000605869,-0.000510468,-0.000955566,-3.13429,0.0189958,2.3405,0,0,0,-0.0545037,0.0249675,-0.138727,0.063716,2.3405,0,0,0,0,0,0,0,0,0,0,-0.188572,0.040041,0,0,0,0,0,2,-0.0545037,0.0249675,0,0,0,0,-0.138727,0.063716,1.9603e-19,0,0,0,0,0,0,0,0,0,1,-0.0274643
7420,0,0,0.387695,0.000814445,-0.000700022,-5.48607e-05,-3.13428,0.0189881,2.3405,0,0,0,-0.0567487,0.0259988,-0.141208,0.0648705,2.3405,0,0,0,0,0,0,0,0,0,0,-0.188619,0.0408835,0,0,0,0,0,2,-0.0567487,0.0259988,0,0,0,0,-0.141208,0.0648705,1.9603e-19,0,0,0,0,0,0,0,0,0,1,-0.0285986
7436,0,0,-5.01562,-0.000314615,-0.000383834,-0.000964648,-3.13429,0.0189832,2.34052,0,0,0,-0.0590331,0.0270484,-0.143669,0.066015,2.3405,0,0,0,0,0,0,0,0,0,0,-0.18866,0.0417255,0,0,0,0,0,2,-0.0590331,0.0270484,0,0,0,0,-0.143669,0.066015,1.9603e-19,0,0,0,0,0,0,0,0,0,1,-0.0297532
7452,0,0,4.74316,-0.000131396,2.72354e-05,-0.000966649,-3.13428,0.0189907,2.34053,0,0,0,-0.0613575,0.0281165,-0.14611,0.0671493,2.34053,0,0,0,0,0,0,0,0,0,0,-0.188691,0.0425692,0,0,0,0,0,2,-0.0613575,0.0281165,0,0,0,0,-0.14611,0.0671493,1.9603e-19,0,0,0,0,0,0,0,0,0,1,-0.0309282
7468,0,0,-4.86523,0.000843941,0.000977354,-0.000676705,-3.13428,0.0189802,2.34053,0,0,0,-0.0637207,0.0292028,-0.148532,0.0682746,2.34053,0,0,0,0,0,0,0,0,0,0,-0.188721,0.0434084,0,0,0,0,0,2,-0.0637207,0.0292028,0,0,0,0,-0.148532,0.0682746,1.9603e-19,0,0,0,0,0,0,0,0,0,1,-0.032123
7485,0,0,-2.55859,-0.00015447,0.0011711,-0.00110199,-3.13428,0.0189889,2.34055,0,0,0,-0.0662739,0.0303765,-0.151084,0.0694595,2.34055,0,0,0,0,0,0,0,0,0,0,-0.188745,0.0442994,0,0,0,0,0,2,-0.0662739,0.0303765,0,0,0,0,-0.151084,0.0694595,1.9603e-19,0,0,0,0,0,0,0,0,0,1,-0.0334141
7500,0,0,-5.7959,0.000527528,0.00197008,-0.000836752,-3.13427,0.0189916,2.34056,0,0,0,-0.0685618,0.0314284,-0.153319,0.0704968,2.34056,0,0,0,0,0,0,0,0,0,0,-0.188762,0.0450844,0,0,0,0,0,2,-0.0685618,0.0314284,0,0,0,0,-0.153319,0.0704968,1.9603e-19,0,0,0,0,0,0,0,0,0,1,-0.0345713
7516,0,0,-5.39355,-0.000378213,-0.00039625,-0.000628037,-3.13426,0.019003,2.34057,0,0,0,-0.0710398,0.0325679,-0.155687,0.0715942,2.34057,0,0,0,0,0,0,0,0,0,0,-0.188776,0.04592,0,0,0,0,0,2,-0.0710398,0.0325679,0,0,0,0,-0.155687,0.0715942,1.9603e-19,0,0,0,0,0,0,0,0,0,1,-0.0358247
7532,0,0,-5.81445,-0.00033575,-0.00163818,-0.000540411,-3.13427,0.0189932,2.34057,0,0,0,-0.0735555,0.0337249,-0.158039,0.0726826,2.34057,0,0,0,0,0,0,0,0,0,0,-0.188787,0.0467533,0,0,0,0,0,2,-0.0735555,0.0337249,0,0,0,0,-0.158039,0.0726826,1.9603e-19,0,0,0,0,0,0,0,0,0,1,-0.0370974
7548,0,0,-0.160156,0.000295105,-0.00155256,0.000730481,-3.13427,0.018995,2.34058,0,0,0,-0.0761086,0.0348991,-0.16037,0.0737626,2.34058,0,0,0,0,0,0,0,0,0,0,-0.188791,0.0475864,0,0,0,0,0,2,-0.0761086,0.0348991,0,0,0,0,-0.16037,0.0737626,1.9603e-19,0,0,0,0,0,0,0,0,0,1,-0.0383891
7564,0,0,-2.28711,-8.16185e-05,-0.000576466,-0.000166257,-3.13427,0.0189953,2.34058,0,0,0,-0.0786981,0.0360903,-0.162681,0.0748341,2.34058,0,0,0,0,0,0,0,0,0,0,-0.188791,0.0484167,0,0,0,0,0,2,-0.0786981,0.0360903,0,0,0,0,-0.162681,0.0748341,1.9603e-19,0,0,0,0,0,0,0,0,0,1,-0.0396993
7580,0,0,6.75586,0.000102979,-0.000563706,-0.000318503,-3.13427,0.0189995,2.34059,0,0,0,-0.0813244,0.0372985,-0.164973,0.0758973,2.34059,0,0,0,0,0,0,0,0,0,0,-0.188785,0.049246,0,0,0,0,0,2,-0.0813244,0.0372985,0,0,0,0,-0.164973,0.0758973,1.9603e-19,0,0,0,0,0,0,0,0,0,1,-0.0410283
7595,0,0,6.75586,0.000102979,-0.000563706,-0.000318503,-3.13427,0.0189995,2.34059,0,0,0,-0.0838196,0.0384465,-0.167107,0.0768864,2.34059,0,0,0,0,0,0,0,0,0,0,-0.188776,0.0500215,0,0,0,0,0,2,-0.0838196,0.0384465,0,0,0,0,-0.167107,0.0768864,1.9603e-19,0,0,0,0,0,0,0,0,0,1,-0.0422912
7612,0,0,0.396484,-0.00164561,-0.000193183,-0.000737042,-3.13429,0.019008,2.34059,0,0,0,-0.0866869,0.0397658,-0.169505,0.0780002,2.34059,0,0,0,0,0,0,0,0,0,0,-0.188759,0.0509006,0,0,0,0,0,2,-0.0866869,0.0397658,0,0,0,0,-0.169505,0.0780002,1.9603e-19,0,0,0,0,0,0,0,0,0,1,-0.0437424
7627,0,0,-5.76172,-9.31835e-06,0.000260414,-0.000260046,-3.13428,0.0190348,2.3406,0,0,0,-0.0892498,0.0409453,-0.171604,0.0789768,2.34059,0,0,0,0,0,0,0,0,0,0,-0.18874,0.0516739,0,0,0,0,0,2,-0.0892498,0.0409453,0,0,0,0,-0.171604,0.0789768,1.9603e-19,0,0,0,0,0,0,0,0,0,1,-0.0450398
7642,0,0,2.23047,-0.00115213,0.000176618,0.000680821,-3.1343,0.019028,2.3406,0,0,0,-0.0918434,0.0421391,-0.173688,0.0799476,2.3406,0,0,0,0,0,0,0,0,0,0,-0.188716,0.0524475,0,0,0,0,0,2,-0.0918434,0.0421391,0,0,0,0,-0.173688,0.0799476,1.9603e-19,0,0,0,0,0,0,0,0,0,1,-0.046353
7658,0,0,5.36133,0.00124333,-0.00028324,-0.000309663,-3.13429,0.019026,2.34061,0,0,0,-0.0946457,0.0434291,-0.175896,0.0809775,2.3406,0,0,0,0,0,0,0,0,0,0,-0.188686,0.053271,0,0,0,0,0,2,-0.0946457,0.0434291,0,0,0,0,-0.175896,0.0809775,1.9603e-19,0,0,0,0,0,0,0,0,0,1,-0.047772
7674,0,0,3.50684,0.000712046,-0.00125195,-0.000357893,-3.13429,0.019037,2.34061,0,0,0,-0.0974823,0.0447351,-0.178084,0.0819989,2.34061,0,0,0,0,0,0,0,0,0,0,-0.188648,0.054096,0,0,0,0,0,2,-0.0974823,0.0447351,0,0,0,0,-0.178084,0.0819989,1.9603e-19,0,0,0,0,0,0,0,0,0,1,-0.0492086
7691,0,0,3.50684,0.000712046,-0.00125195,-0.000357893,-3.13429,0.019037,2.34061,0,0,0,-0.100355,0.0460578,-0.180258,0.0830128,2.34061,0,0,0,0,0,0,0,0,0,0,-0.188608,0.0549173,0,0,0,0,0,2,-0.100355,0.0460578,0,0,0,0,-0.180258,0.0830128,1.9603e-19,0,0,0,0,0,0,0,0,0,1,-0.0506636
7706,0,0,2.40918,-0.000703877,-0.000750114,0.000510198,-3.13431,0.0190397,2.34062,0,0,0,-0.103261,0.0473966,-0.182413,0.0840198,2.34062,0,0,0,0,0,0,0,0,0,0,-0.188562,0.0557385,0,0,0,0,0,2,-0.103261,0.0473966,0,0,0,0,-0.182413,0.0840198,1.9603e-19,0,0,0,0,0,0,0,0,0,1,-0.0521362
7723,0,0,-5.28418,0.000308038,-0.000554965,-0.00016824,-3.13429,0.0190387,2.34062,0,0,0,-0.106387,0.0488366,-0.184683,0.0850822,2.34062,0,0,0,0,0,0,0,0,0,0,-0.188509,0.0566086,0,0,0,0,0,2,-0.106387,0.0488366,0,0,0,0,-0.184683,0.0850822,1.9603e-19,0,0,0,0,0,0,0,0,0,1,-0.0537203
7738,0,0,-3.1709,0.000728232,-0.000730904,9.51466e-05,-3.13429,0.0190418,2.34062,0,0,0,-0.109177,0.0501218,-0.18667,0.0860108,2.34061,0,0,0,0,0,0,0,0,0,0,-0.188459,0.0573742,0,0,0,0,0,2,-0.109177,0.0501218,0,0,0,0,-0.18667,0.0860108,1.9603e-19,0,0,0,0,0,0,0,0,0,1,-0.055134
7755,0,0,6.22852,0.000299408,-0.000284687,-0.00114612,-3.13429,0.019043,2.34063,0,0,0,-0.112375,0.0515955,-0.188905,0.0870552,2.34062,0,0,0,0,0,0,0,0,0,0,-0.188395,0.0582426,0,0,0,0,0,2,-0.112375,0.0515955,0,0,0,0,-0.188905,0.0870552,1.9603e-19,0,0,0,0,0,0,0,0,0,1,-0.0567551
7770,0,0,-7.03516,-0.000470256,0.000637647,0.000103003,-3.13429,0.0190397,2.34063,0,0,0,-0.115227,0.0529102,-0.190862,0.0879693,2.34063,0,0,0,0,0,0,0,0,0,0,-0.188333,0.059009,0,0,0,0,0,2,-0.115227,0.0529102,0,0,0,0,-0.190862,0.0879693,1.9603e-19,0,0,0,0,0,0,0,0,0,1,-0.0582012
7787,0,0,-6.06055,-0.000395,-0.000462584,-0.000453328,-3.1343,0.0190405,2.34064,0,0,0,-0.118496,0.054417,-0.193061,0.0889973,2.34064,0,0,0,0,0,0,0,0,0,0,-0.188258,0.0598759,0,0,0,0,0,2,-0.118496,0.054417,0,0,0,0,-0.193061,0.0889973,1.9603e-19,0,0,0,0,0,0,0,0,0,1,-0.0598587
7803,0,0,-7.15527,0.000824546,0.000548209,-0.00114871,-3.1343,0.0190366,2.34065,0,0,0,-0.121411,0.0557607,-0.194986,0.0898972,2.34065,0,0,0,0,0,0,0,0,0,0,-0.188187,0.0606396,0,0,0,0,0,2,-0.121411,0.0557607,0,0,0,0,-0.194986,0.0898972,1.9603e-19,0,0,0,0,0,0,0,0,0,1,-0.0613367
7818,0,0,4.18359,-0.000198081,-0.00031973,-0.00114419,-3.1343,0.0190338,2.34067,0,0,0,-0.124552,0.057209,-0.197022,0.0908492,2.34067,0,0,0,0,0,0,0,0,0,0,-0.188106,0.0614542,0,0,0,0,0,2,-0.124552,0.057209,0,0,0,0,-0.197022,0.0908492,1.9603e-19,0,0,0,0,0,0,0,0,0,1,-0.0629299
7835,0,0,2.97461,-0.00201752,-0.000331731,-0.000636851,-3.13433,0.0190503,2.34069,0,0,0,-0.127926,0.0587649,-0.199169,0.0918533,2.34067,0,0,0,0,0,0,0,0,0,0,-0.188019,0.0623152,0,0,0,0,0,2,-0.127926,0.0587649,0,0,0,0,-0.199169,0.0918533,1.9603e-19,0,0,0,0,0,0,0,0,0,1,-0.0646414
7853,0,0,-6.40137,-0.00106441,-0.000909761,-0.000514633,-3.13434,0.0190595,2.34068,0,0,0,-0.131336,0.0603377,-0.201297,0.092853,2.34068,0,0,0,0,0,0,0,0,0,0,-0.187922,0.0631779,0,0,0,0,0,2,-0.131336,0.0603377,0,0,0,0,-0.201297,0.092853,1.9603e-19,0,0,0,0,0,0,0,0,0,1,-0.0663715
7868,0,0,-2.41797,-0.000257332,-0.00071317,-0.000956236,-3.13434,0.0190631,2.3407,0,0,0,-0.134373,0.061739,-0.203157,0.0937319,2.3407,0,0,0,0,0,0,0,0,0,0,-0.187832,0.0639384,0,0,0,0,0,2,-0.134373,0.061739,0,0,0,0,-0.203157,0.0937319,1.9603e-19,0,0,0,0,0,0,0,0,0,1,-0.067913
7884,0,0,2.83301,-0.000751902,0.00181602,-0.000434045,-3.13434,0.0190481,2.34071,0,0,0,-0.13785,0.0633434,-0.205248,0.09472,2.34071,0,0,0,0,0,0,0,0,0,0,-0.187726,0.0647983,0,0,0,0,0,2,-0.13785,0.0633434,0,0,0,0,-0.205248,0.09472,1.9603e-19,0,0,0,0,0,0,0,0,0,1,-0.0696777
7900,0,0,-0.677734,9.41872e-05,-0.000381457,-0.000587258,-3.13434,0.0190532,2.34071,0,0,0,-0.141154,0.0648683,-0.207198,0.0956413,2.34071,0,0,0,0,0,0,0,0,0,0,-0.187623,0.0656049,0,0,0,0,0,2,-0.141154,0.0648683,0,0,0,0,-0.207198,0.0956413,1.9603e-19,0,0,0,0,0,0,0,0,0,1,-0.0713551
7916,0,0,5.29199,-0.000915082,-0.000718529,-0.000418449,-3.13436,0.0190607,2.34072,0,0,0,-0.144279,0.0663112,-0.209013,0.0964997,2.34072,0,0,0,0,0,0,0,0,0,0,-0.18752,0.066362,0,0,0,0,0,2,-0.144279,0.0663112,0,0,0,0,-0.209013,0.0964997,1.9603e-19,0,0,0,0,0,0,0,0,0,1,-0.0729423
7932,0,-0.0605469,-5.89453,-2.08288e-05,-0.000737202,-0.000787595,-3.13437,0.0190635,2.34074,0,0,0,-0.147644,0.0678648,-0.210933,0.0974099,2.34072,0,0,0,0,0,0,0,0,0,0,-0.187409,0.0671663,0,0,0,0,0,2,-0.147644,0.0678648,0,0,0,0,-0.210933,0.0974099,1.9603e-19,0,0,0,0,0,0,0,0,0,1,-0.0746513
7947,0,-0.09375,3.06445,0.000116317,0.000342615,-0.00031238,-3.13436,0.0190588,2.34074,0,0,0,-0.151039,0.0694328,-0.212837,0.0983141,2.34074,0,0,0,0,0,0,0,0,0,0,-0.187289,0.0679724,0,0,0,0,0,2,-0.151039,0.0694328,0,0,0,0,-0.212837,0.0983141,1.9603e-19,0,0,0,0,0,0,0,0,0,1,-0.0763761
7963,0,-0.126953,-3.81738,-0.00049247,0.000778178,-0.000935524,-3.13437,0.0190528,2.34075,0,0,0,-0.154464,0.0710153,-0.214725,0.0992109,2.34075,0,0,0,0,0,0,0,0,0,0,-0.187166,0.068777,0,0,0,0,0,2,-0.154464,0.0710153,0,0,0,0,-0.214725,0.0992109,1.9603e-19,0,0,0,0,0,0,0,0,0,1,-0.0781168
7979,0,-0.115234,0.554688,0.000257197,0.000971004,0.000204639,-3.13438,0.0190406,2.34075,0,0,0,-0.157919,0.0726118,-0.216596,0.1001,2.34075,0,0,0,0,0,0,0,0,0,0,-0.187042,0.0695767,0,0,0,0,0,2,-0.157919,0.0726118,0,0,0,0,-0.216596,0.1001,1.9603e-19,0,0,0,0,0,0,0,0,0,1,-0.0798729
7995,0,-0.115234,0.554688,0.000257197,0.000971004,0.000204639,-3.13438,0.0190406,2.34075,0,0,0,-0.161404,0.0742226,-0.21845,0.100982,2.34075,0,0,0,0,0,0,0,0,0,0,-0.186913,0.0703757,0,0,0,0,0,2,-0.161404,0.0742226,0,0,0,0,-0.21845,0.100982,1.9603e-19,0,0,0,0,0,0,0,0,0,1,-0.0816449
8011,0,-0.0488281,-3.09863,-0.000645633,-0.00039863,-0.000748579,-3.13439,0.0190423,2.34077,0,0,0,-0.164918,0.0758473,-0.220288,0.101857,2.34077,0,0,0,0,0,0,0,0,0,0,-0.186774,0.0711778,0,0,0,0,0,2,-0.164918,0.0758473,0,0,0,0,-0.220288,0.101857,1.9603e-19,0,0,0,0,0,0,0,0,0,1,-0.083432
8024,0,-0.0488281,-3.09863,-0.000645633,-0.00039863,-0.000748579,-3.13439,0.0190423,2.34077,0,0,0,-0.167793,0.0771771,-0.22177,0.102564,2.34077,0,0,0,0,0,0,0,0,0,0,-0.186662,0.0718251,0,0,0,0,0,2,-0.167793,0.0771771,0,0,0,0,-0.22177,0.102564,1.9603e-19,0,0,0,0,0,0,0,0,0,1,-0.0848949
8040,0,0,-5.73633,0.000238093,0.000831083,-0.000326658,-3.1344,0.0190378,2.34077,0,0,0,-0.17136,0.078827,-0.22358,0.103427,2.34077,0,0,0,0,0,0,0,0,0,0,-0.186522,0.0726202,0,0,0,0,0,2,-0.17136,0.078827,0,0,0,0,-0.22358,0.103427,1.9603e-19,0,0,0,0,0,0,0,0,0,1,-0.0867097
8056,0,0,-2.4082,-0.00109554,-0.000210941,-0.000684909,-3.13441,0.0190463,2.34079,0,0,0,-0.174956,0.0804906,-0.225375,0.104285,2.34078,0,0,0,0,0,0,0,0,0,0,-0.186374,0.0734167,0,0,0,0,0,2,-0.174956,0.0804906,0,0,0,0,-0.225375,0.104285,1.9603e-19,0,0,0,0,0,0,0,0,0,1,-0.0885396
8073,0,0,-5.88574,-0.000280411,0.000101902,-0.000773794,-3.13442,0.0190425,2.3408,0,0,0,-0.178808,0.0822734,-0.227265,0.105191,2.34079,0,0,0,0,0,0,0,0,0,0,-0.186211,0.0742624,0,0,0,0,0,2,-0.178808,0.0822734,0,0,0,0,-0.227265,0.105191,1.9603e-19,0,0,0,0,0,0,0,0,0,1,-0.0905007
8088,0,0,2.67285,-0.00109437,-0.000107922,0.000842042,-3.13443,0.0190486,2.34079,0,0,0,-0.182233,0.0838587,-0.228918,0.105985,2.34079,0,0,0,0,0,0,0,0,0,0,-0.186066,0.0750059,0,0,0,0,0,2,-0.182233,0.0838587,0,0,0,0,-0.228918,0.105985,1.9603e-19,0,0,0,0,0,0,0,0,0,1,-0.0922446
8103,0,0,-6.52734,-0.000135594,-0.000172039,-0.000851869,-3.13443,0.0190559,2.3408,0,0,0,-0.185682,0.0854559,-0.230558,0.106775,2.3408,0,0,0,0,0,0,0,0,0,0,-0.185916,0.0757491,0,0,0,0,0,2,-0.185682,0.0854559,0,0,0,0,-0.230558,0.106775,1.9603e-19,0,0,0,0,0,0,0,0,0,1,-0.0940015
8119,0,0,-6.84375,-0.00106247,-0.00150401,-6.88146e-05,-3.13445,0.0190651,2.3408,0,0,0,-0.189389,0.0871732,-0.232294,0.107615,2.3408,0,0,0,0,0,0,0,0,0,0,-0.185751,0.0765423,0,0,0,0,0,2,-0.189389,0.0871732,0,0,0,0,-0.232294,0.107615,1.9603e-19,0,0,0,0,0,0,0,0,0,1,-0.0958905
8135,0,0,6.18066,-0.000302531,-0.000455772,-0.000681283,-3.13444,0.0190642,2.3408,0,0,0,-0.193124,0.0889038,-0.234017,0.108449,2.3408,0,0,0,0,0,0,0,0,0,0,-0.185584,0.0773331,0,0,0,0,0,2,-0.193124,0.0889038,0,0,0,0,-0.234017,0.108449,1.9603e-19,0,0,0,0,0,0,0,0,0,1,-0.0977942
8151,0,0,-0.0664062,-0.000703049,3.80607e-05,-0.000540092,-3.13444,0.0190615,2.3408,0,0,0,-0.196886,0.0906476,-0.235726,0.109275,2.3408,0,0,0,0,0,0,0,0,0,0,-0.185413,0.0781234,0,0,0,0,0,2,-0.196886,0.0906476,0,0,0,0,-0.235726,0.109275,1.9603e-19,0,0,0,0,0,0,0,0,0,1,-0.0997124
8167,0,0,-3.40625,-7.59242e-05,-0.000942317,-0.000833526,-3.13445,0.0190736,2.34082,0,0,0,-0.200675,0.0924047,-0.23742,0.110096,2.34081,0,0,0,0,0,0,0,0,0,0,-0.185237,0.0789131,0,0,0,0,0,2,-0.200675,0.0924047,0,0,0,0,-0.23742,0.110096,1.9603e-19,0,0,0,0,0,0,0,0,0,1,-0.101645
8183,0,0,-0.789062,-0.00189835,0.000494825,-0.000370087,-3.13447,0.0190699,2.34082,0,0,0,-0.204492,0.0941748,-0.239101,0.110912,2.34082,0,0,0,0,0,0,0,0,0,0,-0.185054,0.0797037,0,0,0,0,0,2,-0.204492,0.0941748,0,0,0,0,-0.239101,0.110912,1.9603e-19,0,0,0,0,0,0,0,0,0,1,-0.103592
8199,0,0,-6.88867,-0.000421652,2.57391e-06,-0.00110006,-3.13447,0.0190735,2.34084,0,0,0,-0.208335,0.0959579,-0.240766,0.111724,2.34084,0,0,0,0,0,0,0,0,0,0,-0.184866,0.0804946,0,0,0,0,0,2,-0.208335,0.0959579,0,0,0,0,-0.240766,0.111724,1.9603e-19,0,0,0,0,0,0,0,0,0,1,-0.105554
8215,0,0,6.16309,1.21125e-05,0.000220979,-0.000653426,-3.13446,0.0190811,2.34085,0,0,0,-0.212204,0.0977538,-0.242419,0.112529,2.34085,0,0,0,0,0,0,0,0,0,0,-0.184676,0.0812836,0,0,0,0,0,2,-0.212204,0.0977538,0,0,0,0,-0.242419,0.112529,1.9603e-19,0,0,0,0,0,0,0,0,0,1,-0.107529
8231,0,0,6.16309,1.21125e-05,0.000220979,-0.000653426,-3.13446,0.0190811,2.34085,0,0,0,-0.2161,0.0995626,-0.244062,0.113328,2.34085,0,0,0,0,0,0,0,0,0,0,-0.184485,0.0820699,0,0,0,0,0,2,-0.2161,0.0995626,0,0,0,0,-0.244062,0.113328,1.9603e-19,0,0,0,0,0,0,0,0,0,1,-0.109519
8247,0,-0.0361328,-6.18555,-0.000596314,4.62873e-05,-0.00102264,-3.13447,0.019079,2.34087,0,0,0,-0.220022,0.101384,-0.24569,0.11412,2.34087,0,0,0,0,0,0,0,0,0,0,-0.184286,0.0828585,0,0,0,0,0,2,-0.220022,0.101384,0,0,0,0,-0.24569,0.11412,1.9603e-19,0,0,0,0,0,0,0,0,0,1,-0.111523
8263,0,-0.102539,-3.63574,-0.000735562,0.000120163,-2.94167e-05,-3.13447,0.0190882,2.34087,0,0,0,-0.22397,0.103218,-0.247305,0.114907,2.34087,0,0,0,0,0,0,0,0,0,0,-0.184088,0.0836427,0,0,0,0,0,2,-0.22397,0.103218,0,0,0,0,-0.247305,0.114907,1.9603e-19,0,0,0,0,0,0,0,0,0,1,-0.11354
8280,0,-0.135742,4.51367,-0.00102528,-5.60292e-05,-0.000701055,-3.13448,0.0190798,2.34089,0,0,0,-0.227943,0.105065,-0.248907,0.115688,2.34087,0,0,0,0,0,0,0,0,0,0,-0.183884,0.0844277,0,0,0,0,0,2,-0.227943,0.105065,0,0,0,0,-0.248907,0.115688,1.9603e-19,0,0,0,0,0,0,0,0,0,1,-0.115571
8295,0,-0.128906,-3.17383,0.000267224,-0.000390126,-0.000780738,-3.13448,0.0190782,2.34089,0,0,0,-0.231943,0.106924,-0.250494,0.116465,2.34089,0,0,0,0,0,0,0,0,0,0,-0.183674,0.0852128,0,0,0,0,0,2,-0.231943,0.106924,0,0,0,0,-0.250494,0.116465,1.9603e-19,0,0,0,0,0,0,0,0,0,1,-0.117616
8312,0,-0.0957031,-1.08398,-0.000582809,-0.00102641,0.000219366,-3.13449,0.0190882,2.34089,0,0,0,-0.23622,0.108913,-0.252166,0.117283,2.34089,0,0,0,0,0,0,0,0,0,0,-0.183451,0.0860433,0,0,0,0,0,2,-0.23622,0.108913,0,0,0,0,-0.252166,0.117283,1.9603e-19,0,0,0,0,0,0,0,0,0,1,-0.119805
8327,0,-0.0957031,-1.08398,-0.000582809,-0.00102641,0.000219366,-3.13449,0.0190882,2.34089,0,0,0,-0.240017,0.110679,-0.25363,0.118,2.34089,0,0,0,0,0,0,0,0,0,0,-0.183251,0.0867756,0,0,0,0,0,2,-0.240017,0.110679,0,0,0,0,-0.25363,0.118,1.9603e-19,0,0,0,0,0,0,0,0,0,1,-0.121747
8342,0,-0.0957031,-1.08398,-0.000582809,-0.00102641,0.000219366,-3.13449,0.0190882,2.34089,0,0,0,-0.243835,0.112456,-0.255084,0.118712,2.34089,0,0,0,0,0,0,0,0,0,0,-0.183047,0.0875071,0,0,0,0,0,2,-0.243835,0.112456,0,0,0,0,-0.255084,0.118712,1.9603e-19,0,0,0,0,0,0,0,0,0,1,-0.123702
8358,0,-0.0957031,-1.08398,-0.000582809,-0.00102641,0.000219366,-3.13449,0.0190882,2.34089,0,0,0,-0.247933,0.114364,-0.256622,0.119466,2.34089,0,0,0,0,0,0,0,0,0,0,-0.182827,0.0882866,0,0,0,0,0,2,-0.247933,0.114364,0,0,0,0,-0.256622,0.119466,1.9603e-19,0,0,0,0,0,0,0,0,0,1,-0.1258
8374,0,0,0.37793,0.000997127,0.000121062,-0.000221332,-3.1345,0.0190852,2.34093,0,0,0,-0.252055,0.116283,-0.258148,0.120214,2.34089,0,0,0,0,0,0,0,0,0,0,-0.182603,0.0890653,0,0,0,0,0,2,-0.252055,0.116283,0,0,0,0,-0.258148,0.120214,1.9603e-19,0,0,0,0,0,0,0,0,0,1,-0.127911
8390,0,0,4.47656,-0.000127921,-0.000555666,-0.000232851,-3.1345,0.0190924,2.34094,0,0,0,-0.256201,0.118214,-0.259661,0.120956,2.34093,0,0,0,0,0,0,0,0,0,0,-0.182364,0.0898514,0,0,0,0,0,2,-0.256201,0.118214,0,0,0,0,-0.259661,0.120956,1.9603e-19,0,0,0,0,0,0,0,0,0,1,-0.130036
8406,0,0,3.02051,-0.000192699,-0.000126135,0.000204879,-3.1345,0.0190868,2.34094,0,0,0,-0.260371,0.120157,-0.261161,0.121694,2.34094,0,0,0,0,0,0,0,0,0,0,-0.182131,0.0906296,0,0,0,0,0,2,-0.260371,0.120157,0,0,0,0,-0.261161,0.121694,1.9603e-19,0,0,0,0,0,0,0,0,0,1,-0.132173
8422,0,0,3.02051,-0.000192699,-0.000126135,0.000204879,-3.1345,0.0190868,2.34094,0,0,0,-0.264566,0.122112,-0.262648,0.122426,2.34094,0,0,0,0,0,0,0,0,0,0,-0.181896,0.0914057,0,0,0,0,0,2,-0.264566,0.122112,0,0,0,0,-0.262648,0.122426,1.9603e-19,0,0,0,0,0,0,0,0,0,1,-0.134323
8438,0,0,3.02051,-0.000192699,-0.000126135,0.000204879,-3.1345,0.0190868,2.34094,0,0,0,-0.268784,0.124079,-0.264124,0.123153,2.34094,0,0,0,0,0,0,0,0,0,0,-0.181658,0.092181,0,0,0,0,0,2,-0.268784,0.124079,0,0,0,0,-0.264124,0.123153,1.9603e-19,0,0,0,0,0,0,0,0,0,1,-0.136486
8455,0,0,-6.73438,2.63337e-05,1.28525e-05,-0.00174666,-3.1345,0.0190747,2.34096,0,0,0,-0.273291,0.126181,-0.265678,0.123917,2.34096,0,0,0,0,0,0,0,0,0,0,-0.181396,0.0930072,0,0,0,0,0,2,-0.273291,0.126181,0,0,0,0,-0.265678,0.123917,1.9603e-19,0,0,0,0,0,0,0,0,0,1,-0.138799
8471,0,0,-3.77539,-0.000727237,0.000704178,-0.000555625,-3.13452,0.0190764,2.34097,0,0,0,-0.277289,0.128046,-0.267037,0.124585,2.34096,0,0,0,0,0,0,0,0,0,0,-0.181165,0.0937328,0,0,0,0,0,2,-0.277289,0.128046,0,0,0,0,-0.267037,0.124585,1.9603e-19,0,0,0,0,0,0,0,0,0,1,-0.14085
8487,0,0,-3.77539,-0.000727237,0.000704178,-0.000555625,-3.13452,0.0190764,2.34097,0,0,0,-0.281846,0.130172,-0.268565,0.125338,2.34097,0,0,0,0,0,0,0,0,0,0,-0.180899,0.0945553,0,0,0,0,0,2,-0.281846,0.130172,0,0,0,0,-0.268565,0.125338,1.9603e-19,0,0,0,0,0,0,0,0,0,1,-0.143189
8503,0,0,3.98633,-0.000446584,-7.7713e-05,-0.000171038,-3.13453,0.0190671,2.34098,0,0,0,-0.286157,0.132185,-0.26999,0.126041,2.34098,0,0,0,0,0,0,0,0,0,0,-0.180646,0.0953273,0,0,0,0,0,2,-0.286157,0.132185,0,0,0,0,-0.26999,0.126041,1.9603e-19,0,0,0,0,0,0,0,0,0,1,-0.145403
8519,0,0,2.2002,-7.90897e-05,0.00036023,0.000845921,-3.13453,0.0190656,2.34097,0,0,0,-0.29022,0.134082,-0.271312,0.126695,2.34097,0,0,0,0,0,0,0,0,0,0,-0.180408,0.0960482,0,0,0,0,0,2,-0.29022,0.134082,0,0,0,0,-0.271312,0.126695,1.9603e-19,0,0,0,0,0,0,0,0,0,1,-0.14749
8534,0,0,0.28418,-0.000322279,0.000710746,-0.000238707,-3.13454,0.0190567,2.34098,0,0,0,-0.294576,0.136116,-0.272711,0.127387,2.34098,0,0,0,0,0,0,0,0,0,0,-0.180146,0.0968193,0,0,0,0,0,2,-0.294576,0.136116,0,0,0,0,-0.272711,0.127387,1.9603e-19,0,0,0,0,0,0,0,0,0,1,-0.149728
8551,0,0,-4.57715,0.000767797,-0.000425835,-0.00110557,-3.13452,0.0190657,2.34099,0,0,0,-0.299228,0.13829,-0.274185,0.128117,2.34099,0,0,0,0,0,0,0,0,0,0,-0.179864,0.0976379,0,0,0,0,0,2,-0.299228,0.13829,0,0,0,0,-0.274185,0.128117,1.9603e-19,0,0,0,0,0,0,0,0,0,1,-0.152119
8566,0,0,3.85938,-0.000352322,1.92972e-05,-0.000994563,-3.13452,0.0190543,2.34101,0,0,0,-0.303354,0.140218,-0.275477,0.128754,2.341,0,0,0,0,0,0,0,0,0,0,-0.179614,0.0983593,0,0,0,0,0,2,-0.303354,0.140218,0,0,0,0,-0.275477,0.128754,1.9603e-19,0,0,0,0,0,0,0,0,0,1,-0.15424
8581,0,0,4.22461,-0.000471399,-0.000607995,2.20478e-05,-3.13452,0.0190512,2.34102,0,0,0,-0.307498,0.142155,-0.276759,0.129386,2.34101,0,0,0,0,0,0,0,0,0,0,-0.179359,0.0990807,0,0,0,0,0,2,-0.307498,0.142155,0,0,0,0,-0.276759,0.129386,1.9603e-19,0,0,0,0,0,0,0,0,0,1,-0.156371
8597,0,0,0.487305,-0.000332927,-0.00144913,-0.000500254,-3.13452,0.0190656,2.34102,0,0,0,-0.31194,0.144232,-0.278114,0.130053,2.34102,0,0,0,0,0,0,0,0,0,0,-0.179087,0.0998469,0,0,0,0,0,2,-0.31194,0.144232,0,0,0,0,-0.278114,0.130053,1.9603e-19,0,0,0,0,0,0,0,0,0,1,-0.158655
8613,0,0,-4.39258,-0.00081757,-0.000851818,-0.000448606,-3.13453,0.0190747,2.34102,0,0,0,-0.316404,0.14632,-0.279461,0.130718,2.34102,0,0,0,0,0,0,0,0,0,0,-0.178812,0.100614,0,0,0,0,0,2,-0.316404,0.14632,0,0,0,0,-0.279461,0.130718,1.9603e-19,0,0,0,0,0,0,0,0,0,1,-0.160952
8629,0,0,-1.48828,0.000102883,-0.000544333,-0.000434105,-3.13453,0.0190864,2.34103,0,0,0,-0.320889,0.148418,-0.280797,0.13138,2.34103,0,0,0,0,0,0,0,0,0,0,-0.178532,0.101381,0,0,0,0,0,2,-0.320889,0.148418,0,0,0,0,-0.280797,0.13138,1.9603e-19,0,0,0,0,0,0,0,0,0,1,-0.16326
8645,0,0,-0.577148,-0.000785469,0.000313474,-0.000594349,-3.13454,0.0190744,2.34105,0,0,0,-0.325395,0.150527,-0.282122,0.132038,2.34105,0,0,0,0,0,0,0,0,0,0,-0.178247,0.102148,0,0,0,0,0,2,-0.325395,0.150527,0,0,0,0,-0.282122,0.132038,1.9603e-19,0,0,0,0,0,0,0,0,0,1,-0.16558
8660,0,0,-0.577148,-0.000785469,0.000313474,-0.000594349,-3.13454,0.0190744,2.34105,0,0,0,-0.329639,0.152513,-0.283353,0.13265,2.34105,0,0,0,0,0,0,0,0,0,0,-0.177981,0.102865,0,0,0,0,0,2,-0.329639,0.152513,0,0,0,0,-0.283353,0.13265,1.9603e-19,0,0,0,0,0,0,0,0,0,1,-0.167765
8676,0,0,-5.29102,0.00024558,-0.000820123,-0.00022494,-3.13455,0.0190972,2.34107,0,0,0,-0.334186,0.154643,-0.284657,0.133299,2.34107,0,0,0,0,0,0,0,0,0,0,-0.177689,0.103632,0,0,0,0,0,2,-0.334186,0.154643,0,0,0,0,-0.284657,0.133299,1.9603e-19,0,0,0,0,0,0,0,0,0,1,-0.170107
8692,0,0,-5.8877,0.00071063,0.000297396,-0.00140176,-3.13455,0.019096,2.34109,0,0,0,-0.338754,0.156782,-0.285952,0.133946,2.34107,0,0,0,0,0,0,0,0,0,0,-0.177399,0.104396,0,0,0,0,0,2,-0.338754,0.156782,0,0,0,0,-0.285952,0.133946,1.9603e-19,0,0,0,0,0,0,0,0,0,1,-0.17246
8708,0,0,-6.28418,-0.00137852,-0.000121336,-0.000698771,-3.13457,0.0190977,2.3411,0,0,0,-0.343343,0.158932,-0.287237,0.134587,2.34109,0,0,0,0,0,0,0,0,0,0,-0.1771,0.105163,0,0,0,0,0,2,-0.343343,0.158932,0,0,0,0,-0.287237,0.134587,1.9603e-19,0,0,0,0,0,0,0,0,0,1,-0.174825
8724,0,0,-6.28418,-0.00137852,-0.000121336,-0.000698771,-3.13457,0.0190977,2.3411,0,0,0,-0.347952,0.161092,-0.288509,0.135225,2.3411,0,0,0,0,0,0,0,0,0,0,-0.1768,0.105927,0,0,0,0,0,2,-0.347952,0.161092,0,0,0,0,-0.288509,0.135225,1.9603e-19,0,0,0,0,0,0,0,0,0,1,-0.177201
8741,0,0,-7.3877,9.45835e-05,-0.000306363,4.92395e-05,-3.13458,0.0191095,2.3411,0,0,0,-0.352872,0.163398,-0.289849,0.1359,2.3411,0,0,0,0,0,0,0,0,0,0,-0.176481,0.106737,0,0,0,0,0,2,-0.352872,0.163398,0,0,0,0,-0.289849,0.1359,1.9603e-19,0,0,0,0,0,0,0,0,0,1,-0.179738
8757,0,0,-7.3877,9.45835e-05,-0.000306363,4.92395e-05,-3.13458,0.0191095,2.3411,0,0,0,-0.357522,0.165579,-0.291099,0.136531,2.3411,0,0,0,0,0,0,0,0,0,0,-0.176178,0.107499,0,0,0,0,0,2,-0.357522,0.165579,0,0,0,0,-0.291099,0.136531,1.9603e-19,0,0,0,0,0,0,0,0,0,1,-0.182137
8773,0,0,-6.53711,0.000109696,0.000437769,-0.000832726,-3.13457,0.0191071,2.34111,0,0,0,-0.3619,0.167633,-0.292263,0.137118,2.34111,0,0,0,0,0,0,0,0,0,0,-0.175889,0.108213,0,0,0,0,0,2,-0.3619,0.167633,0,0,0,0,-0.292263,0.137118,1.9603e-19,0,0,0,0,0,0,0,0,0,1,-0.184396
8790,0,0,-5.73438,-3.45765e-05,-0.000384427,-0.00121836,-3.13457,0.0191194,2.34113,0,0,0,-0.367177,0.170109,-0.29365,0.137815,2.34112,0,0,0,0,0,0,0,0,0,0,-0.175541,0.109069,0,0,0,0,0,2,-0.367177,0.170109,0,0,0,0,-0.29365,0.137815,1.9603e-19,0,0,0,0,0,0,0,0,0,1,-0.18712
8804,0,0,5.50391,-0.000315531,-0.000858379,0.000197277,-3.13458,0.0191238,2.34113,0,0,0,-0.371297,0.172043,-0.29472,0.138355,2.34113,0,0,0,0,0,0,0,0,0,0,-0.175266,0.109736,0,0,0,0,0,2,-0.371297,0.172043,0,0,0,0,-0.29472,0.138355,1.9603e-19,0,0,0,0,0,0,0,0,0,1,-0.189248
8820,0,0,5.50391,-0.000315531,-0.000858379,0.000197277,-3.13458,0.0191238,2.34113,0,0,0,-0.376025,0.174263,-0.295934,0.138969,2.34113,0,0,0,0,0,0,0,0,0,0,-0.174952,0.110495,0,0,0,0,0,2,-0.376025,0.174263,0,0,0,0,-0.295934,0.138969,1.9603e-19,0,0,0,0,0,0,0,0,0,1,-0.19169
8836,0,-0.0292969,1.24121,-0.000788039,0.000379349,-0.000431364,-3.13459,0.0191163,2.34115,0,0,0,-0.380475,0.176353,-0.297062,0.13954,2.34115,0,0,0,0,0,0,0,0,0,0,-0.174648,0.111211,0,0,0,0,0,2,-0.380475,0.176353,0,0,0,0,-0.297062,0.13954,1.9603e-19,0,0,0,0,0,0,0,0,0,1,-0.193989
8852,0,-0.0625,-0.422852,-0.000812371,0.000185736,-0.000377375,-3.13461,0.0191163,2.34116,0,0,0,-0.385539,0.178733,-0.298328,0.140184,2.34116,0,0,0,0,0,0,0,0,0,0,-0.174305,0.112017,0,0,0,0,0,2,-0.385539,0.178733,0,0,0,0,-0.298328,0.140184,1.9603e-19,0,0,0,0,0,0,0,0,0,1,-0.196606
8868,0,-0.0957031,-5.57617,-0.00053606,-0.000968206,-0.00044327,-3.13461,0.0191185,2.34116,0,0,0,-0.390324,0.180982,-0.299508,0.140786,2.34116,0,0,0,0,0,0,0,0,0,0,-0.173981,0.112775,0,0,0,0,0,2,-0.390324,0.180982,0,0,0,0,-0.299508,0.140786,1.9603e-19,0,0,0,0,0,0,0,0,0,1,-0.19908
8884,0,-0.128906,7.3291,-0.000160589,-0.0010819,-0.000183359,-3.13462,0.0191271,2.34115,0,0,0,-0.395129,0.183241,-0.300679,0.141384,2.34115,0,0,0,0,0,0,0,0,0,0,-0.173655,0.113531,0,0,0,0,0,2,-0.395129,0.183241,0,0,0,0,-0.300679,0.141384,1.9603e-19,0,0,0,0,0,0,0,0,0,1,-0.201565
8900,0,-0.128906,7.3291,-0.000160589,-0.0010819,-0.000183359,-3.13462,0.0191271,2.34115,0,0,0,-0.399952,0.185509,-0.301841,0.141979,2.34115,0,0,0,0,0,0,0,0,0,0,-0.173326,0.114288,0,0,0,0,0,2,-0.399952,0.185509,0,0,0,0,-0.301841,0.141979,1.9603e-19,0,0,0,0,0,0,0,0,0,1,-0.20406
8916,0,-0.128906,7.3291,-0.000160589,-0.0010819,-0.000183359,-3.13462,0.0191271,2.34115,0,0,0,-0.404793,0.187787,-0.302993,0.142569,2.34115,0,0,0,0,0,0,0,0,0,0,-0.172994,0.115044,0,0,0,0,0,2,-0.404793,0.187787,0,0,0,0,-0.302993,0.142569,1.9603e-19,0,0,0,0,0,0,0,0,0,1,-0.206565
8932,0,-0.128906,7.3291,-0.000160589,-0.0010819,-0.000183359,-3.13462,0.0191271,2.34115,0,0,0,-0.409348,0.18993,-0.304065,0.143118,2.34115,0,0,0,0,0,0,0,0,0,0,-0.17268,0.115752,0,0,0,0,0,2,-0.409348,0.18993,0,0,0,0,-0.304065,0.143118,1.9603e-19,0,0,0,0,0,0,0,0,0,1,-0.208923
8948,0,-0.0585938,-2.04785,-0.000617126,-0.000456118,-0.000218248,-3.13463,0.0191627,2.34117,0,0,0,-0.41453,0.19237,-0.305271,0.143737,2.34117,0,0,0,0,0,0,0,0,0,0,-0.172316,0.116558,0,0,0,0,0,2,-0.41453,0.19237,0,0,0,0,-0.305271,0.143737,1.9603e-19,0,0,0,0,0,0,0,0,0,1,-0.211607
8964,0,-0.0585938,-2.04785,-0.000617126,-0.000456118,-0.000218248,-3.13463,0.0191627,2.34117,0,0,0,-0.419426,0.194676,-0.306399,0.144321,2.34117,0,0,0,0,0,0,0,0,0,0,-0.171975,0.117314,0,0,0,0,0,2,-0.419426,0.194676,0,0,0,0,-0.306399,0.144321,1.9603e-19,0,0,0,0,0,0,0,0,0,1,-0.214144
8979,0,0,1.9668,-0.00204589,0.000345104,-0.000301873,-3.13466,0.0191585,2.34117,0,0,0,-0.424032,0.196846,-0.307446,0.144864,2.34117,0,0,0,0,0,0,0,0,0,0,-0.171653,0.118022,0,0,0,0,0,2,-0.424032,0.196846,0,0,0,0,-0.307446,0.144864,1.9603e-19,0,0,0,0,0,0,0,0,0,1,-0.216531
8995,0,0,-5.8916,-0.000921275,-0.000389121,-0.000350541,-3.13468,0.019157,2.34119,0,0,0,-0.428963,0.19917,-0.308552,0.145442,2.34117,0,0,0,0,0,0,0,0,0,0,-0.171306,0.118776,0,0,0,0,0,2,-0.428963,0.19917,0,0,0,0,-0.308552,0.145442,1.9603e-19,0,0,0,0,0,0,0,0,0,1,-0.219087
9011,0,0,0.297852,-0.00116492,-0.000433257,-0.000286525,-3.13468,0.019153,2.34119,0,0,0,-0.433601,0.201357,-0.309579,0.14598,2.34119,0,0,0,0,0,0,0,0,0,0,-0.170973,0.119486,0,0,0,0,0,2,-0.433601,0.201357,0,0,0,0,-0.309579,0.14598,1.9603e-19,0,0,0,0,0,0,0,0,0,1,-0.221492
9028,0,0,-0.151367,0.00042115,-1.18168e-05,0.000554043,-3.13469,0.0191597,2.34118,0,0,0,-0.439188,0.203992,-0.3108,0.146622,2.34118,0,0,0,0,0,0,0,0,0,0,-0.170576,0.120334,0,0,0,0,0,2,-0.439188,0.203992,0,0,0,0,-0.3108,0.146622,1.9603e-19,0,0,0,0,0,0,0,0,0,1,-0.224391
9042,0,0,-1.50781,0.000214605,0.000311617,-0.000360491,-3.13468,0.0191639,2.34118,0,0,0,-0.443548,0.206049,-0.311741,0.147118,2.34118,0,0,0,0,0,0,0,0,0,0,-0.170266,0.120992,0,0,0,0,0,2,-0.443548,0.206049,0,0,0,0,-0.311741,0.147118,1.9603e-19,0,0,0,0,0,0,0,0,0,1,-0.226654
9058,0,0,-1.50781,0.000214605,0.000311617,-0.000360491,-3.13468,0.0191639,2.34118,0,0,0,-0.448547,0.208409,-0.31281,0.147681,2.34118,0,0,0,0,0,0,0,0,0,0,-0.169908,0.121745,0,0,0,0,0,2,-0.448547,0.208409,0,0,0,0,-0.31281,0.147681,1.9603e-19,0,0,0,0,0,0,0,0,0,1,-0.22925
9074,0,0,5.85547,0.00114544,-0.00052827,-0.000234349,-3.13468,0.0191661,2.34119,0,0,0,-0.453248,0.210629,-0.313805,0.148205,2.34119,0,0,0,0,0,0,0,0,0,0,-0.169567,0.122452,0,0,0,0,0,2,-0.453248,0.210629,0,0,0,0,-0.313805,0.148205,1.9603e-19,0,0,0,0,0,0,0,0,0,1,-0.231692
9090,0,0,-0.888672,0.000116752,-0.0004286,-0.000694654,-3.13469,0.0191721,2.3412,0,0,0,-0.458595,0.213155,-0.314924,0.148795,2.3412,0,0,0,0,0,0,0,0,0,0,-0.169178,0.123253,0,0,0,0,0,2,-0.458595,0.213155,0,0,0,0,-0.314924,0.148795,1.9603e-19,0,0,0,0,0,0,0,0,0,1,-0.23447
9106,0,0,-1.06348,-0.000389964,-5.4768e-05,-0.000788228,-3.13468,0.019195,2.34123,0,0,0,-0.463329,0.215392,-0.315904,0.149313,2.34121,0,0,0,0,0,0,0,0,0,0,-0.168831,0.12396,0,0,0,0,0,2,-0.463329,0.215392,0,0,0,0,-0.315904,0.149313,1.9603e-19,0,0,0,0,0,0,0,0,0,1,-0.236931
9122,0,0,5.83301,-0.00103244,0.00112479,-0.000279685,-3.13469,0.0191825,2.34123,0,0,0,-0.468711,0.217937,-0.317008,0.149897,2.34123,0,0,0,0,0,0,0,0,0,0,-0.168436,0.124762,0,0,0,0,0,2,-0.468711,0.217937,0,0,0,0,-0.317008,0.149897,1.9603e-19,0,0,0,0,0,0,0,0,0,1,-0.23973
9138,0,0,-7.21973,0.000251055,9.45269e-05,-0.000863998,-3.1347,0.0191826,2.34123,0,0,0,-0.473794,0.220341,-0.318036,0.150441,2.34123,0,0,0,0,0,0,0,0,0,0,-0.168063,0.125514,0,0,0,0,0,2,-0.473794,0.220341,0,0,0,0,-0.318036,0.150441,1.9603e-19,0,0,0,0,0,0,0,0,0,1,-0.242375
9154,0,0,-4.38086,-0.000847993,0.000594129,-0.000444463,-3.1347,0.0191791,2.34124,0,0,0,-0.478893,0.222753,-0.319055,0.150982,2.34124,0,0,0,0,0,0,0,0,0,0,-0.167689,0.126265,0,0,0,0,0,2,-0.478893,0.222753,0,0,0,0,-0.319055,0.150982,1.9603e-19,0,0,0,0,0,0,0,0,0,1,-0.245029
9170,0,0,-7.21582,0.000249915,4.26991e-05,-0.00109777,-3.1347,0.0191706,2.34125,0,0,0,-0.484008,0.225174,-0.320066,0.151518,2.34125,0,0,0,0,0,0,0,0,0,0,-0.167309,0.127017,0,0,0,0,0,2,-0.484008,0.225174,0,0,0,0,-0.320066,0.151518,1.9603e-19,0,0,0,0,0,0,0,0,0,1,-0.247692
9186,0,0,4.88379,-0.000668649,-3.53689e-05,-0.000829281,-3.1347,0.0191716,2.34126,0,0,0,-0.48914,0.227604,-0.321067,0.152048,2.34126,0,0,0,0,0,0,0,0,0,0,-0.166929,0.127767,0,0,0,0,0,2,-0.48914,0.227604,0,0,0,0,-0.321067,0.152048,1.9603e-19,0,0,0,0,0,0,0,0,0,1,-0.250365
9247,0,-0.0996094,0.526367,-0.000702578,0.000141006,-0.000141654,-3.1347,0.0191766,2.34127,0,0,0,-0.508926,0.236986,-0.32485,0.154055,2.34127,0,0,0,0,0,0,0,0,0,0,-0.165457,0.130639,0,0,0,0,0,2,-0.508926,0.236986,0,0,0,0,-0.32485,0.154055,1.9603e-19,0,0,0,0,0,0,0,0,0,1,-0.260684
9282,0,-0.118164,-5.23633,-0.00112997,-0.000616994,-0.00132997,-3.13471,0.0191727,2.3413,0,0,0,-0.520353,0.242408,-0.326956,0.155173,2.3413,0,0,0,0,0,0,0,0,0,0,-0.164594,0.132281,0,0,0,0,0,2,-0.520353,0.242408,0,0,0,0,-0.326956,0.155173,1.9603e-19,0,0,0,0,0,0,0,0,0,1,-0.266649
9298,0,-0.118164,-5.23633,-0.00112997,-0.000616994,-0.00132997,-3.13471,0.0191727,2.3413,0,0,0,-0.525267,0.244741,-0.327843,0.155645,2.3413,0,0,0,0,0,0,0,0,0,0,-0.164224,0.13298,0,0,0,0,0,2,-0.525267,0.244741,0,0,0,0,-0.327843,0.155645,1.9603e-19,0,0,0,0,0,0,0,0,0,1,-0.269215
9313,0,-0.118164,5.03906,-0.00110703,0.000428741,-0.000594703,-3.13473,0.0191537,2.34132,0,0,0,-0.530522,0.247236,-0.32878,0.156144,2.34132,0,0,0,0,0,0,0,0,0,0,-0.163821,0.133729,0,0,0,0,0,2,-0.530522,0.247236,0,0,0,0,-0.32878,0.156144,1.9603e-19,0,0,0,0,0,0,0,0,0,1,-0.27196
9330,0,-0.118164,-7.28906,-0.000898359,4.88265e-05,9.83542e-05,-3.13474,0.0191511,2.34131,0,0,0,-0.536122,0.249896,-0.329764,0.156669,2.34132,0,0,0,0,0,0,0,0,0,0,-0.163396,0.13452,0,0,0,0,0,2,-0.536122,0.249896,0,0,0,0,-0.329764,0.156669,1.9603e-19,0,0,0,0,0,0,0,0,0,1,-0.274886
9345,0,-0.100586,-7.33008,0.00111441,5.15907e-06,-0.000139825,-3.13472,0.0191453,2.34132,0,0,0,-0.541076,0.252251,-0.330623,0.157131,2.34132,0,0,0,0,0,0,0,0,0,0,-0.163018,0.135217,0,0,0,0,0,2,-0.541076,0.252251,0,0,0,0,-0.330623,0.157131,1.9603e-19,0,0,0,0,0,0,0,0,0,1,-0.277476
9360,0,-0.100586,-7.33008,0.00111441,5.15907e-06,-0.000139825,-3.13472,0.0191453,2.34132,0,0,0,-0.546044,0.254612,-0.331477,0.157586,2.34132,0,0,0,0,0,0,0,0,0,0,-0.16264,0.135913,0,0,0,0,0,2,-0.546044,0.254612,0,0,0,0,-0.331477,0.157586,1.9603e-19,0,0,0,0,0,0,0,0,0,1,-0.280073
9376,0,-0.0341797,-1.12891,-0.000446796,0.000396865,-0.000388251,-3.13472,0.0191266,2.34133,0,0,0,-0.551357,0.257138,-0.33238,0.158067,2.34133,0,0,0,0,0,0,0,0,0,0,-0.162231,0.136657,0,0,0,0,0,2,-0.551357,0.257138,0,0,0,0,-0.33238,0.158067,1.9603e-19,0,0,0,0,0,0,0,0,0,1,-0.282852
9397,0,0,-5.98047,-0.000290564,0.000539074,-0.00113985,-3.13473,0.0191281,2.34136,0,0,0,-0.558354,0.260467,-0.333554,0.158689,2.34133,0,0,0,0,0,0,0,0,0,0,-0.161696,0.13763,0,0,0,0,0,2,-0.558354,0.260467,0,0,0,0,-0.333554,0.158689,1.9603e-19,0,0,0,0,0,0,0,0,0,1,-0.286514
9413,0,0,7.2207,0.000647037,0.000361663,-1.66787e-05,-3.13472,0.0191271,2.34136,0,0,0,-0.5637,0.263011,-0.334438,0.15916,2.34136,0,0,0,0,0,0,0,0,0,0,-0.161276,0.138375,0,0,0,0,0,2,-0.5637,0.263011,0,0,0,0,-0.334438,0.15916,1.9603e-19,0,0,0,0,0,0,0,0,0,1,-0.289312
9429,0,0,-4.82422,-0.000160102,4.53051e-05,-2.65779e-05,-3.13471,0.0191172,2.34136,0,0,0,-0.56906,0.265562,-0.335316,0.159625,2.34136,0,0,0,0,0,0,0,0,0,0,-0.160864,0.139114,0,0,0,0,0,2,-0.56906,0.265562,0,0,0,0,-0.335316,0.159625,1.9603e-19,0,0,0,0,0,0,0,0,0,1,-0.292118
9444,0,0,6.30371,-0.00020836,-0.000275444,8.69878e-05,-3.13472,0.0191185,2.34136,0,0,0,-0.574097,0.267961,-0.336133,0.160057,2.34136,0,0,0,0,0,0,0,0,0,0,-0.160476,0.139807,0,0,0,0,0,2,-0.574097,0.267961,0,0,0,0,-0.336133,0.160057,1.9603e-19,0,0,0,0,0,0,0,0,0,1,-0.294757
9461,0,0,6.30371,-0.00020836,-0.000275444,8.69878e-05,-3.13472,0.0191185,2.34136,0,0,0,-0.579485,0.270526,-0.336996,0.160515,2.34136,0,0,0,0,0,0,0,0,0,0,-0.16006,0.140546,0,0,0,0,0,2,-0.579485,0.270526,0,0,0,0,-0.336996,0.160515,1.9603e-19,0,0,0,0,0,0,0,0,0,1,-0.297579
9476,0,0,3.02832,0.000123322,0.000683934,-0.000428945,-3.13472,0.0191065,2.34136,0,0,0,-0.584885,0.273099,-0.337852,0.160969,2.34136,0,0,0,0,0,0,0,0,0,0,-0.159642,0.141284,0,0,0,0,0,2,-0.584885,0.273099,0,0,0,0,-0.337852,0.160969,1.9603e-19,0,0,0,0,0,0,0,0,0,1,-0.300409
9493,0,0,-1.86621,-0.0010762,-0.000427015,0.00050361,-3.13471,0.0191147,2.34137,0,0,0,-0.5903,0.275679,-0.338701,0.161417,2.34136,0,0,0,0,0,0,0,0,0,0,-0.159222,0.142021,0,0,0,0,0,2,-0.5903,0.275679,0,0,0,0,-0.338701,0.161417,1.9603e-19,0,0,0,0,0,0,0,0,0,1,-0.303247
9509,0,0,6.09668,-0.000627366,-0.000107964,-0.000320174,-3.13473,0.0191182,2.34137,0,0,0,-0.596068,0.278429,-0.339596,0.16189,2.34137,0,0,0,0,0,0,0,0,0,0,-0.158771,0.142806,0,0,0,0,0,2,-0.596068,0.278429,0,0,0,0,-0.339596,0.16189,1.9603e-19,0,0,0,0,0,0,0,0,0,1,-0.306272
9525,0,0,-3.20898,0.000445272,-0.000764406,-0.000873422,-3.13472,0.0191298,2.34138,0,0,0,-0.60151,0.281024,-0.340431,0.162334,2.34138,0,0,0,0,0,0,0,0,0,0,-0.158342,0.143545,0,0,0,0,0,2,-0.60151,0.281024,0,0,0,0,-0.340431,0.162334,1.9603e-19,0,0,0,0,0,0,0,0,0,1,-0.309126
9540,0,0,-4.24512,-0.000950143,0.000996511,5.13533e-05,-3.13472,0.0191223,2.34138,0,0,0,-0.606624,0.283463,-0.34121,0.162748,2.34138,0,0,0,0,0,0,0,0,0,0,-0.157941,0.144237,0,0,0,0,0,2,-0.606624,0.283463,0,0,0,0,-0.34121,0.162748,1.9603e-19,0,0,0,0,0,0,0,0,0,1,-0.311809
9556,0,0,-7.16309,-0.000655241,0.000497003,0.000792806,-3.13472,0.0191128,2.34138,0,0,0,-0.612092,0.286071,-0.342033,0.163184,2.34138,0,0,0,0,0,0,0,0,0,0,-0.157514,0.144973,0,0,0,0,0,2,-0.612092,0.286071,0,0,0,0,-0.342033,0.163184,1.9603e-19,0,0,0,0,0,0,0,0,0,1,-0.314678
9573,0,0,-6.99902,-0.000132615,-0.000496328,-0.000362672,-3.13472,0.0191168,2.34139,0,0,0,-0.617916,0.28885,-0.342899,0.163644,2.34139,0,0,0,0,0,0,0,0,0,0,-0.157053,0.145756,0,0,0,0,0,2,-0.617916,0.28885,0,0,0,0,-0.342899,0.163644,1.9603e-19,0,0,0,0,0,0,0,0,0,1,-0.317735
9588,0,0,4.86719,-0.000279585,-0.00014711,0.000549279,-3.13472,0.019115,2.34139,0,0,0,-0.623067,0.291309,-0.343658,0.164046,2.34139,0,0,0,0,0,0,0,0,0,0,-0.156649,0.146445,0,0,0,0,0,2,-0.623067,0.291309,0,0,0,0,-0.343658,0.164046,1.9603e-19,0,0,0,0,0,0,0,0,0,1,-0.32044
9603,0,0,-2.27441,-0.000879261,0.000570718,-0.00103698,-3.13473,0.0191043,2.34142,0,0,0,-0.628229,0.293773,-0.344411,0.164444,2.3414,0,0,0,0,0,0,0,0,0,0,-0.156239,0.147136,0,0,0,0,0,2,-0.628229,0.293773,0,0,0,0,-0.344411,0.164444,1.9603e-19,0,0,0,0,0,0,0,0,0,1,-0.323151
9619,0,0,-5.35645,-0.00200135,0.000219571,-0.0015757,-3.13474,0.0191086,2.34143,0,0,0,-0.633748,0.296409,-0.345207,0.164866,2.34142,0,0,0,0,0,0,0,0,0,0,-0.155799,0.147872,0,0,0,0,0,2,-0.633748,0.296409,0,0,0,0,-0.345207,0.164866,1.9603e-19,0,0,0,0,0,0,0,0,0,1,-0.32605
9636,0,0,5.34375,-0.000567195,-0.000368717,-0.000616547,-3.13474,0.0191099,2.34143,0,0,0,-0.639279,0.299051,-0.345994,0.165286,2.34143,0,0,0,0,0,0,0,0,0,0,-0.155355,0.148609,0,0,0,0,0,2,-0.639279,0.299051,0,0,0,0,-0.345994,0.165286,1.9603e-19,0,0,0,0,0,0,0,0,0,1,-0.328956
9652,0,0,-6.52637,-0.000711362,0.000427069,0.000206668,-3.13475,0.0191044,2.34143,0,0,0,-0.644824,0.3017,-0.346774,0.165704,2.34143,0,0,0,0,0,0,0,0,0,0,-0.154915,0.149342,0,0,0,0,0,2,-0.644824,0.3017,0,0,0,0,-0.346774,0.165704,1.9603e-19,0,0,0,0,0,0,0,0,0,1,-0.33187
9668,0,0,-4.36719,0.000624161,-0.000235936,-6.1873e-05,-3.13473,0.0191033,2.34143,0,0,0,-0.65038,0.304356,-0.347548,0.166118,2.34143,0,0,0,0,0,0,0,0,0,0,-0.154472,0.150075,0,0,0,0,0,2,-0.65038,0.304356,0,0,0,0,-0.347548,0.166118,1.9603e-19,0,0,0,0,0,0,0,0,0,1,-0.334791
9684,0,0,-7.32031,-0.00107317,-0.000379785,-0.000264486,-3.13474,0.0191108,2.34144,0,0,0,-0.656297,0.307185,-0.348364,0.166553,2.34144,0,0,0,0,0,0,0,0,0,0,-0.153998,0.150855,0,0,0,0,0,2,-0.656297,0.307185,0,0,0,0,-0.348364,0.166553,1.9603e-19,0,0,0,0,0,0,0,0,0,1,-0.337903
9700,0,0,-4.8125,0.000378443,0.000173351,0.00061832,-3.13476,0.0191039,2.34145,0,0,0,-0.661879,0.309854,-0.349124,0.166961,2.34145,0,0,0,0,0,0,0,0,0,0,-0.153549,0.151589,0,0,0,0,0,2,-0.661879,0.309854,0,0,0,0,-0.349124,0.166961,1.9603e-19,0,0,0,0,0,0,0,0,0,1,-0.340839
9716,0,0,-4.7832,-0.00131186,-0.000138694,0.000125134,-3.13479,0.0191074,2.34145,0,0,0,-0.667123,0.312362,-0.34983,0.167342,2.34145,0,0,0,0,0,0,0,0,0,0,-0.15313,0.152274,0,0,0,0,0,2,-0.667123,0.312362,0,0,0,0,-0.34983,0.167342,1.9603e-19,0,0,0,0,0,0,0,0,0,1,-0.343598
9732,0,0,-4.1416,-0.000440077,-0.000394002,-0.000805825,-3.13478,0.0191119,2.34145,0,0,0,-0.672728,0.315044,-0.350573,0.167749,2.34145,0,0,0,0,0,0,0,0,0,0,-0.152678,0.153006,0,0,0,0,0,2,-0.672728,0.315044,0,0,0,0,-0.350573,0.167749,1.9603e-19,0,0,0,0,0,0,0,0,0,1,-0.346548
9748,0,0,-0.902344,-0.000609093,-0.000506093,0.000227565,-3.13478,0.0191202,2.34146,0,0,0,-0.678696,0.3179,-0.351358,0.168179,2.34146,0,0,0,0,0,0,0,0,0,0,-0.152195,0.153784,0,0,0,0,0,2,-0.678696,0.3179,0,0,0,0,-0.351358,0.168179,1.9603e-19,0,0,0,0,0,0,0,0,0,1,-0.34969
9764,0,0,-0.902344,-0.000609093,-0.000506093,0.000227565,-3.13478,0.0191202,2.34146,0,0,0,-0.684326,0.320595,-0.352091,0.16858,2.34146,0,0,0,0,0,0,0,0,0,0,-0.151741,0.154515,0,0,0,0,0,2,-0.684326,0.320595,0,0,0,0,-0.352091,0.16858,1.9603e-19,0,0,0,0,0,0,0,0,0,1,-0.352655
9780,0,0,-6.90332,-0.000679163,-0.000270319,0.000122886,-3.1348,0.01912,2.34146,0,0,0,-0.689967,0.323297,-0.352818,0.168979,2.34146,0,0,0,0,0,0,0,0,0,0,-0.151282,0.155248,0,0,0,0,0,2,-0.689967,0.323297,0,0,0,0,-0.352818,0.168979,1.9603e-19,0,0,0,0,0,0,0,0,0,1,-0.355626
9795,0,0,-6.90332,-0.000679163,-0.000270319,0.000122886,-3.1348,0.01912,2.34146,0,0,0,-0.695265,0.325835,-0.353493,0.169352,2.34146,0,0,0,0,0,0,0,0,0,0,-0.150852,0.155933,0,0,0,0,0,2,-0.695265,0.325835,0,0,0,0,-0.353493,0.169352,1.9603e-19,0,0,0,0,0,0,0,0,0,1,-0.358418
9812,0,0,7.16211,-0.0011843,0.000675792,-0.000839994,-3.13482,0.0191039,2.3415,0,0,0,-0.701284,0.328719,-0.354251,0.169771,2.34148,0,0,0,0,0,0,0,0,0,0,-0.150356,0.156712,0,0,0,0,0,2,-0.701284,0.328719,0,0,0,0,-0.354251,0.169771,1.9603e-19,0,0,0,0,0,0,0,0,0,1,-0.361591
9827,0,0,-3.00098,0.000257931,0.000413493,-0.000353786,-3.13482,0.0191024,2.3415,0,0,0,-0.706604,0.331269,-0.35491,0.170138,2.3415,0,0,0,0,0,0,0,0,0,0,-0.149916,0.157398,0,0,0,0,0,2,-0.706604,0.331269,0,0,0,0,-0.35491,0.170138,1.9603e-19,0,0,0,0,0,0,0,0,0,1,-0.364396
9842,0,0,1.2959,-0.000796075,-0.000816692,0.000859756,-3.13482,0.0191056,2.34149,0,0,0,-0.711934,0.333824,-0.355565,0.170501,2.34149,0,0,0,0,0,0,0,0,0,0,-0.149483,0.15808,0,0,0,0,0,2,-0.711934,0.333824,0,0,0,0,-0.355565,0.170501,1.9603e-19,0,0,0,0,0,0,0,0,0,1,-0.367207
9858,0,0,1.2959,-0.000796075,-0.000816692,0.000859756,-3.13482,0.0191056,2.34149,0,0,0,-0.71763,0.336556,-0.356258,0.170887,2.34149,0,0,0,0,0,0,0,0,0,0,-0.149016,0.158809,0,0,0,0,0,2,-0.71763,0.336556,0,0,0,0,-0.356258,0.170887,1.9603e-19,0,0,0,0,0,0,0,0,0,1,-0.370212
9874,0,0,0.924805,0.000761211,2.26443e-05,-0.00078878,-3.13482,0.0191033,2.34151,0,0,0,-0.723337,0.339295,-0.356945,0.171269,2.34151,0,0,0,0,0,0,0,0,0,0,-0.148543,0.15954,0,0,0,0,0,2,-0.723337,0.339295,0,0,0,0,-0.356945,0.171269,1.9603e-19,0,0,0,0,0,0,0,0,0,1,-0.373224
9890,0,0,-4.06055,-0.000109663,-0.000608966,-0.000360407,-3.13481,0.0191065,2.34152,0,0,0,-0.729056,0.342039,-0.357628,0.171648,2.34152,0,0,0,0,0,0,0,0,0,0,-0.148071,0.160269,0,0,0,0,0,2,-0.729056,0.342039,0,0,0,0,-0.357628,0.171648,1.9603e-19,0,0,0,0,0,0,0,0,0,1,-0.376243
9906,0,0,-5.69336,-0.000792996,7.19154e-05,2.82087e-05,-3.13483,0.01911,2.34151,0,0,0,-0.734785,0.344789,-0.358305,0.172024,2.34151,0,0,0,0,0,0,0,0,0,0,-0.147602,0.160997,0,0,0,0,0,2,-0.734785,0.344789,0,0,0,0,-0.358305,0.172024,1.9603e-19,0,0,0,0,0,0,0,0,0,1,-0.379268
9922,0,0,-7.33984,0.000350782,-0.000214869,-0.000284361,-3.13483,0.0191242,2.34151,0,0,0,-0.740525,0.347546,-0.358976,0.172399,2.34151,0,0,0,0,0,0,0,0,0,0,-0.147129,0.161725,0,0,0,0,0,2,-0.740525,0.347546,0,0,0,0,-0.358976,0.172399,1.9603e-19,0,0,0,0,0,0,0,0,0,1,-0.3823
9938,0,0,-2.4248,0.00023446,-8.58298e-05,-0.000996607,-3.13482,0.0191133,2.34152,0,0,0,-0.746275,0.350308,-0.359643,0.172773,2.34152,0,0,0,0,0,0,0,0,0,0,-0.146651,0.162454,0,0,0,0,0,2,-0.746275,0.350308,0,0,0,0,-0.359643,0.172773,1.9603e-19,0,0,0,0,0,0,0,0,0,1,-0.385339
9955,0,0,-5.8877,-0.000721257,-0.000892266,-0.00162185,-3.13484,0.0191163,2.34154,0,0,0,-0.752397,0.353249,-0.360344,0.173166,2.34154,0,0,0,0,0,0,0,0,0,0,-0.146139,0.16323,0,0,0,0,0,2,-0.752397,0.353249,0,0,0,0,-0.360344,0.173166,1.9603e-19,0,0,0,0,0,0,0,0,0,1,-0.388574
9971,0,0,2.69043,0.000588549,-0.000254109,-0.000611977,-3.13482,0.0191177,2.34154,0,0,0,-0.758169,0.356024,-0.360999,0.173534,2.34154,0,0,0,0,0,0,0,0,0,0,-0.145659,0.163958,0,0,0,0,0,2,-0.758169,0.356024,0,0,0,0,-0.360999,0.173534,1.9603e-19,0,0,0,0,0,0,0,0,0,1,-0.391626
9987,0,0,-6.49707,0.000909182,0.00103493,-0.000872475,-3.13481,0.0191076,2.34155,0,0,0,-0.763952,0.358804,-0.36165,0.173896,2.34155,0,0,0,0,0,0,0,0,0,0,-0.145179,0.164685,0,0,0,0,0,2,-0.763952,0.358804,0,0,0,0,-0.36165,0.173896,1.9603e-19,0,0,0,0,0,0,0,0,0,1,-0.394684
10003,0,0,6.15039,0.000586137,0.000116077,-6.3856e-05,-3.13481,0.0191118,2.34155,0,0,0,-0.769745,0.36159,-0.362296,0.174253,2.34154,0,0,0,0,0,0,0,0,0,0,-0.1447,0.165411,0,0,0,0,0,2,-0.769745,0.36159,0,0,0,0,-0.362296,0.174253,1.9603e-19,0,0,0,0,0,0,0,0,0,1,-0.397749
10019,0,0,-0.0576172,0.000952323,-0.000214799,-0.000154562,-3.13481,0.0191102,2.34156,0,0,0,-0.775548,0.364382,-0.362937,0.174608,2.34155,0,0,0,0,0,0,0,0,0,0,-0.144216,0.166138,0,0,0,0,0,2,-0.775548,0.364382,0,0,0,0,-0.362937,0.174608,1.9603e-19,0,0,0,0,0,0,0,0,0,1,-0.40082
10035,0,0,-7.38477,-0.00110748,0.000858514,-0.00192923,-3.13481,0.0190989,2.34158,0,0,0,-0.780998,0.367004,-0.363534,0.174937,2.34156,0,0,0,0,0,0,0,0,0,0,-0.143761,0.166819,0,0,0,0,0,2,-0.780998,0.367004,0,0,0,0,-0.363534,0.174937,1.9603e-19,0,0,0,0,0,0,0,0,0,1,-0.403704
10052,0,0,-3.43555,-0.000198263,0.000621957,-0.000383395,-3.13481,0.0190932,2.34159,0,0,0,-0.78755,0.370157,-0.364242,0.175328,2.34159,0,0,0,0,0,0,0,0,0,0,-0.143205,0.167639,0,0,0,0,0,2,-0.78755,0.370157,0,0,0,0,-0.364242,0.175328,1.9603e-19,0,0,0,0,0,0,0,0,0,1,-0.407173
10067,0,0,-0.78125,0.000170643,-0.000598532,-0.000394349,-3.13482,0.019103,2.34159,0,0,0,-0.792654,0.372615,-0.364787,0.175631,2.34159,0,0,0,0,0,0,0,0,0,0,-0.142779,0.168273,0,0,0,0,0,2,-0.792654,0.372615,0,0,0,0,-0.364787,0.175631,1.9603e-19,0,0,0,0,0,0,0,0,0,1,-0.409876
10082,0,0,-6.83496,-0.0014277,-0.000111642,-0.000423734,-3.13483,0.0191056,2.3416,0,0,0,-0.798497,0.375428,-0.365405,0.175976,2.3416,0,0,0,0,0,0,0,0,0,0,-0.142288,0.168999,0,0,0,0,0,2,-0.798497,0.375428,0,0,0,0,-0.365405,0.175976,1.9603e-19,0,0,0,0,0,0,0,0,0,1,-0.412971
10097,0,0,-6.83496,-0.0014277,-0.000111642,-0.000423734,-3.13483,0.0191056,2.3416,0,0,0,-0.803984,0.378071,-0.36598,0.176298,2.3416,0,0,0,0,0,0,0,0,0,0,-0.141829,0.169678,0,0,0,0,0,2,-0.803984,0.378071,0,0,0,0,-0.36598,0.176298,1.9603e-19,0,0,0,0,0,0,0,0,0,1,-0.415878
10113,0,0,2.90625,-0.000336252,0.000505482,-0.00174075,-3.13485,0.0191172,2.34161,0,0,0,-0.809846,0.380895,-0.366587,0.17664,2.34161,0,0,0,0,0,0,0,0,0,0,-0.141331,0.170405,0,0,0,0,0,2,-0.809846,0.380895,0,0,0,0,-0.366587,0.17664,1.9603e-19,0,0,0,0,0,0,0,0,0,1,-0.418985
10129,0,0,-4.21973,-0.000992749,-0.000262523,-0.00164566,-3.13485,0.019116,2.34165,0,0,0,-0.815717,0.383725,-0.367189,0.176983,2.34161,0,0,0,0,0,0,0,0,0,0,-0.140837,0.171129,0,0,0,0,0,2,-0.815717,0.383725,0,0,0,0,-0.367189,0.176983,1.9603e-19,0,0,0,0,0,0,0,0,0,1,-0.422098
10145,0,0,-3.66699,4.87347e-05,-0.000431177,0.000363423,-3.13485,0.0191261,2.34164,0,0,0,-0.821599,0.38656,-0.367786,0.177322,2.34165,0,0,0,0,0,0,0,0,0,0,-0.140331,0.171858,0,0,0,0,0,2,-0.821599,0.38656,0,0,0,0,-0.367786,0.177322,1.9603e-19,0,0,0,0,0,0,0,0,0,1,-0.425216
10161,0,0,-3.66699,4.87347e-05,-0.000431177,0.000363423,-3.13485,0.0191261,2.34164,0,0,0,-0.827489,0.389401,-0.36838,0.17766,2.34164,0,0,0,0,0,0,0,0,0,0,-0.139835,0.172582,0,0,0,0,0,2,-0.827489,0.389401,0,0,0,0,-0.36838,0.17766,1.9603e-19,0,0,0,0,0,0,0,0,0,1,-0.428341
10177,0,0,-3.20117,-0.00152761,0.00038443,0.000559481,-3.13488,0.0191207,2.34166,0,0,0,-0.833389,0.392247,-0.368967,0.177996,2.34166,0,0,0,0,0,0,0,0,0,0,-0.139331,0.173308,0,0,0,0,0,2,-0.833389,0.392247,0,0,0,0,-0.368967,0.177996,1.9603e-19,0,0,0,0,0,0,0,0,0,1,-0.431472
