timestamp,A_x,A_y,A_z,P,Q,R,Phi,Theta,Psi,poseX,poseY,poseZ,state_X,state_Y,state_Z,state_VzB,state_Bx,state_By,state_Bz,p1_x,p1_y,p2_x,p2_y,p3_x,p3_y,p4_x,p4_y,roll,pitch,yaw,alt,targetHeading,highLevelState,lowLevelState,gateNumber,filtered_x,filtered_y,x_OT,y_OT,vx_OT,vy_OT,filtered_vx,filtered_vygateArearansac_corr_x,ransac_corr_y,ransac_corr_vx,ransac_corr_vy,detectionTimeStamppTermX,dTermX,pTermY,dTermY,vxcmd,vycmd
7095,0,0,0,0,0,0,0,0,0,0,0,0,0,0,0,0,0,0,0,0,0,0,0,0,0,0,0,0.3,-0.06,0,-1.5,0,0,0,0,0,0,0,0,0,0,0,0,1.9603e-19,0,0,0,0,0,0,0,0,0,0.2,1
7199,0,0,0,0,0,0,0,0,0,0,0,0,0,0,0,0,0,0,0,0,0,0,0,0,0,0,0,0.3,-0.06,0,-1.5,0,0,0,0,0,0,0,0,0,0,0,0,1.9603e-19,0,0,0,0,0,0,0,0,0,0.2,1
8727,-3.34228e-12,1.18012e-37,-1.60208e-06,-3.40794e-12,1.18002e-37,0,-1.13703e-13,0,0,0,0,0,0,0,0,0,0,0,0,0,0,0,0,0,0,0,0,0.3,-0.06,0,-1.5,0,0,0,0,0,0,0,0,0,0,0,0,1.9603e-19,0,0,0,0,0,0,0,0,0,0.2,1
8743,-3.34228e-12,1.18012e-37,-1.60208e-06,-3.40794e-12,1.18002e-37,0,-1.13703e-13,0,0,0,0,0,0,0,0,0,0,0,0,0,0,0,0,0,0,0,0,0.3,-0.06,0,-1.5,0,0,0,0,0,0,0,0,0,0,0,0,1.9603e-19,0,0,0,0,0,0,0,0,0,0.2,1
8759,-3.34228e-12,1.18012e-37,-1.60208e-06,-3.40794e-12,1.18002e-37,0,-1.13704e-13,0,0,0,0,0,0,0,0,0,0,0,0,0,0,0,0,0,0,0,0,0.3,-0.06,0,-1.5,0,0,0,0,0,0,0,0,0,0,0,0,1.9603e-19,0,0,0,0,0,0,0,0,0,0.2,1
8774,-3.34228e-12,1.18012e-37,-1.60208e-06,-3.40794e-12,1.18002e-37,0,-1.13704e-13,0,0,0,0,0,0,0,0,0,0,0,0,0,0,0,0,0,0,0,0,0.3,-0.06,0,-1.5,0,0,0,0,0,0,0,0,0,0,0,0,1.9603e-19,0,0,0,0,0,0,0,0,0,0.2,1
8790,-3.34228e-12,1.18012e-37,-1.60208e-06,-3.40794e-12,1.18002e-37,0,-1.13705e-13,0,0,0,0,0,0,0,0,0,0,0,0,0,0,0,0,0,0,0,0,0.3,-0.06,0,-1.5,0,0,0,0,0,0,0,0,0,0,0,0,1.9603e-19,0,0,0,0,0,0,0,0,0,0.2,1
8806,-3.34228e-12,1.18012e-37,-1.60208e-06,-3.40794e-12,1.18002e-37,0,-1.13705e-13,0,0,0,0,0,0,0,0,0,0,0,0,0,0,0,0,0,0,0,0,0.3,-0.06,0,-1.5,0,0,0,0,0,0,0,0,0,0,0,0,1.9603e-19,0,0,0,0,0,0,0,0,0,0.2,1
8821,-3.34228e-12,1.18012e-37,-1.60208e-06,-3.40794e-12,1.18002e-37,0,-1.13706e-13,0,0,0,0,0,0,0,0,0,0,0,0,0,0,0,0,0,0,0,0,0.3,-0.06,0,-1.5,0,0,0,0,0,0,0,0,0,0,0,0,1.9603e-19,0,0,0,0,0,0,0,0,0,0.2,1
8837,-3.34228e-12,1.18012e-37,-1.60208e-06,-3.40794e-12,1.18002e-37,0,-1.13706e-13,0,0,0,0,0,0,0,0,0,0,0,0,0,0,0,0,0,0,0,0,0.3,-0.06,0,-1.5,0,0,0,0,0,0,0,0,0,0,0,0,1.9603e-19,0,0,0,0,0,0,0,0,0,0.2,1
8853,-3.34228e-12,1.18012e-37,-1.60208e-06,-3.40794e-12,1.18002e-37,0,-1.13707e-13,0,0,0,0,0,0,0,0,0,0,0,0,0,0,0,0,0,0,0,0,0.3,-0.06,0,-1.5,0,0,0,0,0,0,0,0,0,0,0,0,1.9603e-19,0,0,0,0,0,0,0,0,0,0.2,1
8871,-3.34228e-12,1.18012e-37,-1.60208e-06,-3.40794e-12,1.18002e-37,0,-1.13708e-13,0,0,0,0,0,0,0,0,0,0,0,0,0,0,0,0,0,0,0,0,0.3,-0.06,0,-1.5,0,0,0,0,0,0,0,0,0,0,0,0,1.9603e-19,0,0,0,0,0,0,0,0,0,0.2,1
8887,-3.34228e-12,1.18012e-37,-1.60208e-06,-3.40794e-12,1.18002e-37,0,-1.13708e-13,0,0,0,0,0,0,0,0,0,0,0,0,0,0,0,0,0,0,0,0,0.3,-0.06,0,-1.5,0,0,0,0,0,0,0,0,0,0,0,0,1.9603e-19,0,0,0,0,0,0,0,0,0,0.2,1
8903,-3.34228e-12,1.18012e-37,-1.60208e-06,-3.40794e-12,1.18002e-37,0,-1.13709e-13,0,0,0,0,0,0,0,0,0,0,0,0,0,0,0,0,0,0,0,0,0.3,-0.06,0,-1.5,0,0,0,0,0,0,0,0,0,0,0,0,1.9603e-19,0,0,0,0,0,0,0,0,0,0.2,1
8972,-3.34228e-12,1.18012e-37,-1.60208e-06,-3.40794e-12,1.18002e-37,0,-1.13709e-13,0,0,0,0,0,0,0,0,0,0,0,0,0,0,0,0,0,0,0,0,0.3,-0.06,0,-1.5,0,0,0,0,0,0,0,0,0,0,0,0,1.9603e-19,0,0,0,0,0,0,0,0,0,0.2,1
8989,-3.34228e-12,1.18012e-37,-1.60208e-06,-3.40794e-12,1.18002e-37,0,-1.1371e-13,0,0,0,0,0,0,0,0,0,0,0,0,0,0,0,0,0,0,0,0,0.3,-0.06,0,-1.5,0,0,0,0,0,0,0,0,0,0,0,0,1.9603e-19,0,0,0,0,0,0,0,0,0,0.2,1
9005,-3.34228e-12,1.18012e-37,-1.60208e-06,-3.40794e-12,1.18002e-37,0,-1.1371e-13,0,0,0,0,0,0,0,0,0,0,0,0,0,0,0,0,0,0,0,0,0.3,-0.06,0,-1.5,0,0,0,0,0,0,0,0,0,0,0,0,1.9603e-19,0,0,0,0,0,0,0,0,0,0.2,1
9021,-3.34228e-12,1.18012e-37,-1.60208e-06,-3.40794e-12,1.18002e-37,0,-1.13711e-13,0,0,0,0,0,0,0,0,0,0,0,0,0,0,0,0,0,0,0,0,0.3,-0.06,0,-1.5,0,0,0,0,0,0,0,0,0,0,0,0,1.9603e-19,0,0,0,0,0,0,0,0,0,0.2,1
9037,-3.34228e-12,1.18012e-37,-1.60208e-06,-3.40794e-12,1.18002e-37,0,-1.13711e-13,0,0,0,0,0,0,0,0,0,0,0,0,0,0,0,0,0,0,0,0,0.3,-0.06,0,-1.5,0,0,0,0,0,0,0,0,0,0,0,0,1.9603e-19,0,0,0,0,0,0,0,0,0,0.2,1
9053,-3.34228e-12,1.18012e-37,-1.60208e-06,-3.40794e-12,1.18002e-37,0,-1.13712e-13,0,0,0,0,0,0,0,0,0,0,0,0,0,0,0,0,0,0,0,0,0.3,-0.06,0,-1.5,0,0,0,0,0,0,0,0,0,0,0,0,1.9603e-19,0,0,0,0,0,0,0,0,0,0.2,1
9072,-3.34228e-12,1.18012e-37,-1.60208e-06,-3.40794e-12,1.18002e-37,0,-1.13712e-13,0,0,0,0,0,0,0,0,0,0,0,0,0,0,0,0,0,0,0,0,0.3,-0.06,0,-1.5,0,0,0,0,0,0,0,0,0,0,0,0,1.9603e-19,0,0,0,0,0,0,0,0,0,0.2,1
9085,-3.34228e-12,1.18012e-37,-1.60208e-06,-3.40794e-12,1.18002e-37,0,-1.13713e-13,0,0,0,0,0,0,0,0,0,0,0,0,0,0,0,0,0,0,0,0,0.3,-0.06,0,-1.5,0,0,0,0,0,0,0,0,0,0,0,0,1.9603e-19,0,0,0,0,0,0,0,0,0,0.2,1
9110,-3.34228e-12,1.18012e-37,-1.60208e-06,-3.40794e-12,1.18002e-37,0,-1.13714e-13,0,0,0,0,0,0,0,0,0,0,0,0,0,0,0,0,0,0,0,0,0.3,-0.06,0,-1.5,0,0,0,0,0,0,0,0,0,0,0,0,1.9603e-19,0,0,0,0,0,0,0,0,0,0.2,1
9125,-3.34228e-12,1.18012e-37,-1.60208e-06,-3.40794e-12,1.18002e-37,0,-1.13714e-13,0,0,0,0,0,0,0,0,0,0,0,0,0,0,0,0,0,0,0,0,0.3,-0.06,0,-1.5,0,0,0,0,0,0,0,0,0,0,0,0,1.9603e-19,0,0,0,0,0,0,0,0,0,0.2,1
9141,-3.34228e-12,1.18012e-37,-1.60208e-06,-3.40794e-12,1.18002e-37,0,-1.13715e-13,0,0,0,0,0,0,0,0,0,0,0,0,0,0,0,0,0,0,0,0,0.3,-0.06,0,-1.5,0,0,0,0,0,0,0,0,0,0,0,0,1.9603e-19,0,0,0,0,0,0,0,0,0,0.2,1
9158,-3.34228e-12,1.18012e-37,-1.60208e-06,-3.40794e-12,1.18002e-37,0,-1.13715e-13,0,0,0,0,0,0,0,0,0,0,0,0,0,0,0,0,0,0,0,0,0.3,-0.06,0,-1.5,0,0,0,0,0,0,0,0,0,0,0,0,1.9603e-19,0,0,0,0,0,0,0,0,0,0.2,1
9174,-3.34228e-12,1.18012e-37,-1.60208e-06,-3.40794e-12,1.18002e-37,0,-1.13716e-13,0,0,0,0,0,0,0,0,0,0,0,0,0,0,0,0,0,0,0,0,0.3,-0.06,0,-1.5,0,0,0,0,0,0,0,0,0,0,0,0,1.9603e-19,0,0,0,0,0,0,0,0,0,0.2,1
9189,-3.34228e-12,1.18012e-37,-1.60208e-06,-3.40794e-12,1.18002e-37,0,-1.13716e-13,0,0,0,0,0,0,0,0,0,0,0,0,0,0,0,0,0,0,0,0,0.3,-0.06,0,-1.5,0,0,0,0,0,0,0,0,0,0,0,0,1.9603e-19,0,0,0,0,0,0,0,0,0,0.2,1
9205,-3.34228e-12,1.18012e-37,-1.60208e-06,-3.40794e-12,1.18002e-37,0,-1.13717e-13,0,0,0,0,0,0,0,0,0,0,0,0,0,0,0,0,0,0,0,0,0.3,-0.06,0,-1.5,0,0,0,0,0,0,0,0,0,0,0,0,1.9603e-19,0,0,0,0,0,0,0,0,0,0.2,1
9221,-3.34228e-12,1.18012e-37,-1.60208e-06,-3.40794e-12,1.18002e-37,0,-1.13717e-13,0,0,0,0,0,0,0,0,0,0,0,0,0,0,0,0,0,0,0,0,0.3,-0.06,0,-1.5,0,0,0,0,0,0,0,0,0,0,0,0,1.9603e-19,0,0,0,0,0,0,0,0,0,0.2,1
9238,-3.34228e-12,1.18012e-37,-1.60208e-06,-3.40794e-12,1.18002e-37,0,-1.13718e-13,0,0,0,0,0,0,0,0,0,0,0,0,0,0,0,0,0,0,0,0,0.3,-0.06,0,-1.5,0,0,0,0,0,0,0,0,0,0,0,0,1.9603e-19,0,0,0,0,0,0,0,0,0,0.2,1
9253,-3.34228e-12,1.18012e-37,-1.60208e-06,-3.40794e-12,1.18002e-37,0,-1.13718e-13,0,0,0,0,0,0,0,0,0,0,0,0,0,0,0,0,0,0,0,0,0.3,-0.06,0,-1.5,0,0,0,0,0,0,0,0,0,0,0,0,1.9603e-19,0,0,0,0,0,0,0,0,0,0.2,1
9269,-3.34228e-12,1.18012e-37,-1.60208e-06,-3.40794e-12,1.18002e-37,0,-1.13719e-13,0,0,0,0,0,0,0,0,0,0,0,0,0,0,0,0,0,0,0,0,0.3,-0.06,0,-1.5,0,0,0,0,0,0,0,0,0,0,0,0,1.9603e-19,0,0,0,0,0,0,0,0,0,0.2,1
9285,-3.34228e-12,1.18012e-37,-1.60208e-06,-3.40794e-12,1.18002e-37,0,-1.13719e-13,0,0,0,0,0,0,0,0,0,0,4.4,0,-1366851712,-699951058,-1366851712,-699951058,-1069670141,-1366851712,-1366851680,-1366851680,0.3,-0.06,0,-1.5,0,0,0,0,0,0,0,0,0,0,0,0,0,0,0,0,0,9283,0,0,0,0,0.2,1
9301,-3.34228e-12,1.18012e-37,-1.60208e-06,-3.40794e-12,1.18002e-37,0,-1.1372e-13,0,0,0,0,0,0,0,0,0,0,4.4,0,-1366851712,-699951058,-1366851712,-699951058,-1069670141,-1366851712,-1366851680,-1366851680,0.3,-0.06,0,-1.5,0,0,0,0,0,0,0,0,0,0,0,0,0,0,0,0,0,9283,0,0,0,0,0.2,1
9318,-3.34228e-12,1.18012e-37,-1.60208e-06,-3.40794e-12,1.18002e-37,0,-1.13721e-13,0,0,-3.52625,0.602376,0.367825,0,0,0,0,0,-0.430966,0.602376,182,-54,182,-54,310,-64,192,73,0.3,-0.06,0,-1.5,0,0,0,0,0,0,0,0,0,0,0,0,18495,0,0,0,0,9316,0,0,0,0,0.2,1
9334,-3.34228e-12,1.18012e-37,-1.60208e-06,-3.40794e-12,1.18002e-37,0,-1.13721e-13,0,0,-3.52625,0.602376,0.367825,0,0,0,0,0,-0.430966,0.602376,182,-54,182,-54,310,-64,192,73,0.3,-0.06,0,-1.5,0,0,0,0,0,0,0,0,0,0,0,0,18495,0,0,0,0,9316,0,0,0,0,0.2,1
9378,-3.34228e-12,1.18012e-37,-1.60208e-06,-3.40794e-12,1.18002e-37,0,-1.13722e-13,0,0,-3.52155,0.601425,0.367214,0,0,0,0,0,-0.424521,0.601425,182,-55,182,-55,310,-64,192,73,0.3,-0.06,0,-1.5,0,0,0,0,0,0,0,0,0,0,0,0,18495,0,0,0,0,9370,0,0,0,0,0.2,1
9394,-3.34228e-12,1.18012e-37,-1.60208e-06,-3.40794e-12,1.18002e-37,0,-1.13722e-13,0,0,-3.52155,0.601425,0.367214,0,0,0,0,0,-0.424521,0.601425,182,-55,182,-55,310,-64,192,73,0.3,-0.06,0,-1.5,0,0,0,0,0,0,0,0,0,0,0,0,18495,0,0,0,0,9370,0,0,0,0,0.2,1
9412,-3.34228e-12,1.18012e-37,-1.60208e-06,-3.40794e-12,1.18002e-37,0,-1.13723e-13,0,0,-3.52155,0.601425,0.367214,0,0,0,0,0,-0.424521,0.601425,182,-55,182,-55,310,-64,192,73,0.3,-0.06,0,-1.5,0,0,0,0,0,0,0,0,0,0,0,0,18495,0,0,0,0,9370,0,0,0,0,0.2,1
9432,-3.34228e-12,1.18012e-37,-1.60208e-06,-3.40794e-12,1.18002e-37,0,-1.13723e-13,0,0,-3.48952,0.583088,0.349518,0,0,0,0,0,-0.380638,0.583088,182,-55,182,-55,315,-63,192,73,0.359045,0.0872664,0,-1.5,0,0,0,0,-0.370367,0.579151,0,0,0,0,0.513546,-0.196815,18496,-0.380638,0.583088,0.513546,-0.196815,9418,0,0,0,0,0.2,1
9445,-3.34228e-12,1.18012e-37,-1.60208e-06,-3.40794e-12,1.18002e-37,0,-1.13724e-13,0,0,-3.48952,0.583088,0.349518,0,0,0,0,0,-0.380638,0.583088,182,-55,182,-55,315,-63,192,73,0.359045,0.0872664,0,-1.5,0,0,0,0,-0.36369,0.576592,0,0,0,0,0.513546,-0.196815,18496,-0.380638,0.583088,0.513546,-0.196815,9418,0,0,0,0,0.2,1
9464,-3.34228e-12,1.18012e-37,-1.60208e-06,-3.40794e-12,1.18002e-37,0,-1.13724e-13,0,0,-3.51302,0.597827,0.362414,0,0,0,0,0,-0.412836,0.597827,182,-55,182,-55,310,-64,192,73,0.309724,-0.0284171,0,-1.5,0,0,0,0,-0.410941,0.597244,0,0,0,0,0.105276,-0.0324149,18632,-0.412836,0.597827,0.105276,-0.0324149,9452,0,0,0,0,0.2,1
9479,-3.34228e-12,1.18012e-37,-1.60208e-06,-3.40794e-12,1.18002e-37,0,-1.13725e-13,0,0,-3.51302,0.597827,0.362414,0,0,0,0,0,-0.412836,0.597827,182,-55,182,-55,310,-64,192,73,0.309724,-0.0284171,0,-1.5,0,0,0,0,-0.409256,0.596725,0,0,0,0,0.105276,-0.0324149,18632,-0.412836,0.597827,0.105276,-0.0324149,9452,0,0,0,0,0.2,1
9497,-3.34228e-12,1.18012e-37,-1.60208e-06,-3.40794e-12,1.18002e-37,0,-1.13725e-13,0,0,-3.50682,0.599257,0.36285,0,0,0,0,0,-0.404343,0.599257,182,-55,182,-55,310,-66,192,73,0.309724,-0.0182524,0,-1.5,0,0,0,0,-0.401838,0.596141,0,0,0,0,0.139159,-0.0324149,18765,-0.404343,0.596725,0.139159,-0.0324149,9486,0,0,0,0,0.2,1
9513,-3.34228e-12,1.18012e-37,-1.60208e-06,-3.40794e-12,1.18002e-37,0,-1.13726e-13,0,0,-3.50682,0.599257,0.36285,0,0,0,0,0,-0.404343,0.599257,182,-55,182,-55,310,-66,192,73,0.309724,-0.0182524,0,-1.5,0,0,0,0,-0.399612,0.595623,0,0,0,0,0.139159,-0.0324149,18765,-0.404343,0.596725,0.139159,-0.0324149,9486,0,0,0,0,0.2,1
9531,-3.34228e-12,1.18012e-37,-1.60208e-06,-3.40794e-12,1.18002e-37,0,-1.13727e-13,0,0,-3.48802,0.598283,0.354662,0,0,0,0,0,-0.378582,0.598283,182,-55,182,-55,310,-66,190,73,0.305266,0.0189701,0,-1.5,0,0,0,0,-0.373843,0.597967,0,0,0,0,0.263234,-0.0175538,18904,-0.378582,0.598283,0.263234,-0.0175538,9520,0,0,0,0,0.2,1
9547,-3.34228e-12,1.18012e-37,-1.60208e-06,-3.40794e-12,1.18002e-37,0,-1.13727e-13,0,0,-3.48802,0.598283,0.354662,0,0,0,0,0,-0.378582,0.598283,182,-55,182,-55,310,-66,190,73,0.305266,0.0189701,0,-1.5,0,0,0,0,-0.369631,0.597686,0,0,0,0,0.263234,-0.0175538,18904,-0.378582,0.598283,0.263234,-0.0175538,9520,0,0,0,0,0.2,1
9565,-3.34228e-12,1.18012e-37,-1.60208e-06,-3.40794e-12,1.18002e-37,0,-1.13728e-13,0,0,-3.49181,0.600954,0.354542,0,0,0,0,0,-0.383783,0.600954,182,-55,182,-55,310,-66,190,73,0.305266,0.000749043,0,-1.5,0,0,0,0,-0.380138,0.59737,0,0,0,0,0.202497,-0.0175531,18765,-0.383783,0.597686,0.202497,-0.0175531,9554,0,0,0,0,0.2,1
9581,-3.34228e-12,1.18012e-37,-1.60208e-06,-3.40794e-12,1.18002e-37,0,-1.13728e-13,0,0,-3.49181,0.600954,0.354542,0,0,0,0,0,-0.383783,0.600954,182,-55,182,-55,310,-66,190,73,0.305266,0.000749043,0,-1.5,0,0,0,0,-0.376898,0.597089,0,0,0,0,0.202497,-0.0175531,18765,-0.383783,0.597686,0.202497,-0.0175531,9554,0,0,0,0,0.2,1
9599,-3.34228e-12,1.18012e-37,-1.60208e-06,-3.40794e-12,1.18002e-37,0,-1.13734e-13,0,0,-3.51791,0.614117,0.359041,0,0,0,0,0,-0.419537,0.614117,180,-52,180,-52,308,-64,190,73,0.305034,-0.0140758,0,-1.5,0,0,0,0,-0.385755,0.597021,0,0,0,0,0.153081,-0.0167805,18769,-0.38851,0.597323,0.153081,-0.0167805,9588,0,0,0,0,0.2,1
9618,-3.34228e-12,1.18012e-37,-1.60208e-06,-3.40794e-12,1.18002e-37,0,-1.13734e-13,0,0,-3.52453,0.617428,0.362748,0,0,0,0,0,-0.428613,0.617428,180,-52,180,-52,307,-64,190,73,0.301264,-0.0207705,0,-1.5,0,0,0,0,-0.387921,0.599852,0,0,0,0,0.130765,-0.00421391,18769,-0.388575,0.599873,0.130765,-0.00421391,9615,0,0,0,0,0.2,1
9634,-3.34228e-12,1.18012e-37,-1.60208e-06,-3.40794e-12,1.18002e-37,0,-1.13729e-13,0,0,-3.52453,0.617428,0.362748,0,0,0,0,0,-0.428613,0.617428,180,-52,180,-52,307,-64,190,73,0.301264,-0.0207705,0,-1.5,0,0,0,0,-0.385829,0.599784,0,0,0,0,0.130765,-0.00421391,18769,-0.388575,0.599873,0.130765,-0.00421391,9615,0,0,0,0,0.2,1
9651,-3.34228e-12,1.18012e-37,-1.60208e-06,-3.40794e-12,1.18002e-37,0,-1.1373e-13,0,0,-3.52453,0.617428,0.362748,0,0,0,0,0,-0.428613,0.617428,180,-52,180,-52,307,-64,190,73,0.275907,-0.07035,0,-1.5,0,0,0,0,-0.420562,0.616704,0,0,0,0,-0.0345001,0.0803094,18769,-0.420355,0.616222,-0.0345001,0.0803094,9647,0,0,0,0,0.2,1
9666,-3.34228e-12,1.18012e-37,-1.60208e-06,-3.40794e-12,1.18002e-37,0,-1.13729e-13,0,0,-3.52453,0.617428,0.362748,0,0,0,0,0,-0.428613,0.617428,180,-52,180,-52,307,-64,190,73,0.275907,-0.07035,0,-1.5,0,0,0,0,-0.421079,0.617908,0,0,0,0,-0.0345001,0.0803094,18769,-0.420355,0.616222,-0.0345001,0.0803094,9647,0,0,0,0,0.2,1
9686,-3.34228e-12,1.18012e-37,-1.60208e-06,-3.40794e-12,1.18002e-37,0,-1.13731e-13,0,0,-3.49633,0.601877,0.355066,0,0,0,0,0,-0.389972,0.601877,182,-54,182,-54,310,-66,190,73,0.299389,-0.0296957,0,-1.5,0,0,0,0,-0.388873,0.601237,0,0,0,0,0.101015,0.00203549,18765,-0.389479,0.601225,0.101015,0.00203549,9682,0,0,0,0,0.2,1
9701,-3.34228e-12,1.18012e-37,-1.60208e-06,-3.40794e-12,1.18002e-37,0,-1.13731e-13,0,0,-3.49633,0.601877,0.355066,0,0,0,0,0,-0.389972,0.601877,182,-54,182,-54,310,-66,190,73,0.299389,-0.0296957,0,-1.5,0,0,0,0,-0.387358,0.601267,0,0,0,0,0.101015,0.00203549,18765,-0.389479,0.601225,0.101015,0.00203549,9682,0,0,0,0,0.2,1
9721,-3.34228e-12,1.18012e-37,-1.60208e-06,-3.40794e-12,1.18002e-37,0,-1.13733e-13,0,0,-3.52663,0.60011,0.36607,0,0,0,0,0,-0.431489,0.60011,182,-54,182,-54,311,-63,192,73,0.299389,-0.0724902,0,-1.5,0,0,0,0,-0.424609,0.601306,0,0,0,0,-0.041634,0.00203549,18360,-0.424317,0.601292,-0.041634,0.00203549,9715,0,0,0,0,0.2,1
9736,-3.34228e-12,1.18012e-37,-1.60208e-06,-3.40794e-12,1.18002e-37,0,-1.13733e-13,0,0,-3.52663,0.60011,0.36607,0,0,0,0,0,-0.431489,0.60011,182,-54,182,-54,311,-63,192,73,0.299389,-0.0724902,0,-1.5,0,0,0,0,-0.425275,0.601339,0,0,0,0,-0.041634,0.00203549,18360,-0.424317,0.601292,-0.041634,0.00203549,9715,0,0,0,0,0.2,1
9752,-3.34228e-12,1.18012e-37,-1.60208e-06,-3.40794e-12,1.18002e-37,0,-1.13732e-13,0,0,-3.52663,0.60011,0.36607,0,0,0,0,0,-0.431489,0.60011,182,-54,182,-54,311,-63,192,73,0.299389,-0.0724902,0,-1.5,0,0,0,0,-0.425941,0.601371,0,0,0,0,-0.041634,0.00203549,18360,-0.424317,0.601292,-0.041634,0.00203549,9715,0,0,0,0,0.2,1
9767,-3.34228e-12,1.18012e-37,-1.60208e-06,-3.40794e-12,1.18002e-37,0,-1.13735e-13,0,0,-3.52663,0.60011,0.36607,0,0,0,0,0,-0.431489,0.60011,182,-54,182,-54,311,-63,192,73,0.299389,-0.0724902,0,-1.5,0,0,0,0,-0.426566,0.601402,0,0,0,0,-0.041634,0.00203549,18360,-0.424317,0.601292,-0.041634,0.00203549,9715,0,0,0,0,0.2,1
9787,-3.34228e-12,1.18012e-37,-1.60208e-06,-3.40794e-12,1.18002e-37,0,-1.13736e-13,0,0,-3.52155,0.599111,0.365556,0,0,0,0,0,-0.42453,0.599111,184,-55,184,-55,311,-63,190,73,0.300824,-0.0696263,0,-1.5,0,0,0,0,-0.424321,0.600055,0,0,0,0,-0.0320878,-0.00274816,18088,-0.424065,0.600077,-0.0320878,-0.00274816,9781,0,0,0,0,0.2,1
9802,-3.34228e-12,1.18012e-37,-1.60208e-06,-3.40794e-12,1.18002e-37,0,-1.13735e-13,0,0,-3.52155,0.599111,0.365556,0,0,0,0,0,-0.42453,0.599111,184,-55,184,-55,311,-63,190,73,0.300824,-0.0696263,0,-1.5,0,0,0,0,-0.424803,0.600014,0,0,0,0,-0.0320878,-0.00274816,18088,-0.424065,0.600077,-0.0320878,-0.00274816,9781,0,0,0,0,0.2,1
9822,-3.34228e-12,1.18012e-37,-1.60208e-06,-3.40794e-12,1.18002e-37,0,-1.13738e-13,0,0,-3.49696,0.598886,0.355602,0,0,0,0,0,-0.390837,0.598886,182,-57,182,-57,311,-63,190,73,0.301544,-0.0691737,0,-1.5,0,0,0,0,-0.42447,0.598921,0,0,0,0,-0.030579,-0.00514613,18360,-0.424225,0.598962,-0.030579,-0.00514613,9816,0,0,0,0,0.2,1
9837,-3.34228e-12,1.18012e-37,-1.60208e-06,-3.40794e-12,1.18002e-37,0,-1.13737e-13,0,0,-3.49696,0.598886,0.355602,0,0,0,0,0,-0.390837,0.598886,182,-57,182,-57,311,-63,190,73,0.301544,-0.0691737,0,-1.5,0,0,0,0,-0.424928,0.598844,0,0,0,0,-0.030579,-0.00514613,18360,-0.424225,0.598962,-0.030579,-0.00514613,9816,0,0,0,0,0.2,1
9857,-3.34228e-12,1.18012e-37,-1.60208e-06,-3.40794e-12,1.18002e-37,0,-1.13743e-13,0,0,-3.49696,0.598886,0.355602,0,0,0,0,0,-0.390837,0.598886,182,-57,182,-57,311,-63,190,73,0.301552,-0.0412411,0,-1.5,0,0,0,0,-0.390645,0.598828,0,0,0,0,0.0625298,-0.00517233,18360,-0.39127,0.59888,0.0625298,-0.00517233,9849,0,0,0,0,0.2,1
9870,-3.34228e-12,1.18012e-37,-1.60208e-06,-3.40794e-12,1.18002e-37,0,-1.13738e-13,0,0,-3.49696,0.598886,0.355602,0,0,0,0,0,-0.390837,0.598886,182,-57,182,-57,311,-63,190,73,0.301552,-0.0412411,0,-1.5,0,0,0,0,-0.389832,0.598761,0,0,0,0,0.0625298,-0.00517233,18360,-0.39127,0.59888,0.0625298,-0.00517233,9849,0,0,0,0,0.2,1
9890,-3.34228e-12,1.18012e-37,-1.60208e-06,-3.40794e-12,1.18002e-37,0,-1.13745e-13,0,0,-3.51804,0.6021,0.374363,0,0,0,0,0,-0.419719,0.6021,182,-57,182,-57,311,-63,190,70,0.301176,-0.0627647,0,-1.5,0,0,0,0,-0.419221,0.599399,0,0,0,0,-0.00921561,-0.00391923,17955,-0.419129,0.599438,-0.00921561,-0.00391923,9882,0,0,0,0,0.2,1
9905,-3.34228e-12,1.18012e-37,-1.60208e-06,-3.40794e-12,1.18002e-37,0,-1.13744e-13,0,0,-3.51804,0.6021,0.374363,0,0,0,0,0,-0.419719,0.6021,182,-57,182,-57,311,-63,190,70,0.301176,-0.0627647,0,-1.5,0,0,0,0,-0.419359,0.59934,0,0,0,0,-0.00921561,-0.00391923,17955,-0.419129,0.599438,-0.00921561,-0.00391923,9882,0,0,0,0,0.2,1
9925,-3.34228e-12,1.18012e-37,-1.60208e-06,-3.40794e-12,1.18002e-37,0,-1.13746e-13,0,0,-3.53318,0.600399,0.383072,0,0,0,0,0,-0.44045,0.600399,184,-57,184,-57,311,-63,190,70,0.300623,-0.0624817,0,-1.5,0,0,0,0,-0.419022,0.599918,0,0,0,0,-0.00827238,-0.00207565,17689,-0.418923,0.599943,-0.00827238,-0.00207565,9915,0,0,0,0,0.2,1
9941,-3.34228e-12,1.18012e-37,-1.60208e-06,-3.40794e-12,1.18002e-37,0,-1.13745e-13,0,0,-3.53318,0.600399,0.383072,0,0,0,0,0,-0.44045,0.600399,184,-57,184,-57,311,-63,190,70,0.300623,-0.0624817,0,-1.5,0,0,0,0,-0.419146,0.599887,0,0,0,0,-0.00827238,-0.00207565,17689,-0.418923,0.599943,-0.00827238,-0.00207565,9915,0,0,0,0,0.2,1
9961,-3.34228e-12,1.18012e-37,-1.60208e-06,-3.40794e-12,1.18002e-37,0,-1.13743e-13,0,0,-3.51804,0.6021,0.374363,0,0,0,0,0,-0.419719,0.6021,182,-57,182,-57,311,-63,190,70,0.30013,-0.0627697,0,-1.5,0,0,0,0,-0.42037,0.600352,0,0,0,0,-0.00923221,-0.000434164,17955,-0.420176,0.600361,-0.00923221,-0.000434164,9948,0,0,0,0,0.2,1
9976,-3.34228e-12,1.18012e-37,-1.60208e-06,-3.40794e-12,1.18002e-37,0,-1.13739e-13,0,0,-3.51804,0.6021,0.374363,0,0,0,0,0,-0.419719,0.6021,182,-57,182,-57,311,-63,190,70,0.30013,-0.0627697,0,-1.5,0,0,0,0,-0.420509,0.600345,0,0,0,0,-0.00923221,-0.000434164,17955,-0.420176,0.600361,-0.00923221,-0.000434164,9948,0,0,0,0,0.2,1
9996,-3.34228e-12,1.18012e-37,-1.60208e-06,-3.40794e-12,1.18002e-37,0,-1.1375e-13,0,0,-3.49696,0.598886,0.355602,0,0,0,0,0,-0.390837,0.598886,182,-57,182,-57,311,-63,190,73,0.301,-0.0631703,0,-1.5,0,0,0,0,-0.420409,0.599275,0,0,0,0,-0.0105678,-0.00333347,18360,-0.420271,0.599318,-0.0105678,-0.00333347,9986,0,0,0,0,0.2,1
10012,-3.34228e-12,1.18012e-37,-1.60208e-06,-3.40794e-12,1.18002e-37,0,-1.13747e-13,0,0,-3.49696,0.598886,0.355602,0,0,0,0,0,-0.390837,0.598886,182,-57,182,-57,311,-63,190,73,0.301,-0.0631703,0,-1.5,0,0,0,0,-0.420578,0.599222,0,0,0,0,-0.0105678,-0.00333347,18360,-0.420271,0.599318,-0.0105678,-0.00333347,9986,0,0,0,0,0.2,1
10032,-3.34228e-12,1.18012e-37,-1.60208e-06,-3.40794e-12,1.18002e-37,0,-1.13747e-13,0,0,-3.53318,0.600399,0.383072,0,0,0,0,0,-0.44045,0.600399,184,-57,184,-57,311,-63,190,70,0.300344,-0.0628956,0,-1.5,0,0,0,0,-0.420999,0.600152,0,0,0,0,-0.00965209,-0.00114719,17689,-0.420806,0.600175,-0.00965209,-0.00114719,10019,0,0,0,0,0.2,1
10048,-3.34228e-12,1.18012e-37,-1.60208e-06,-3.40794e-12,1.18002e-37,0,-1.13748e-13,0,0,-3.53318,0.600399,0.383072,0,0,0,0,0,-0.44045,0.600399,184,-57,184,-57,311,-63,190,70,0.300344,-0.0628956,0,-1.5,0,0,0,0,-0.421153,0.600133,0,0,0,0,-0.00965209,-0.00114719,17689,-0.420806,0.600175,-0.00965209,-0.00114719,10019,0,0,0,0,0.2,1
10067,-3.34228e-12,1.18012e-37,-1.60208e-06,-3.40794e-12,1.18002e-37,0,-1.13748e-13,0,0,-3.49696,0.598886,0.355602,0,0,0,0,0,-0.390837,0.598886,182,-57,182,-57,311,-63,190,73,0.300701,-0.0619153,0,-1.5,0,0,0,0,-0.420432,0.599619,0,0,0,0,-0.00638427,-0.00233824,18360,-0.420311,0.599663,-0.00638427,-0.00233824,10055,0,0,0,0,0.2,1
10085,-3.34228e-12,1.18012e-37,-1.60208e-06,-3.40794e-12,1.18002e-37,0,-1.13739e-13,0,0,-3.51804,0.6021,0.374363,0,0,0,0,0,-0.419719,0.6021,182,-57,182,-57,311,-63,190,70,0.300362,-0.0610211,0,-1.5,0,0,0,0,-0.420201,0.600371,0,0,0,0,-0.00340354,-0.00120607,17955,-0.420181,0.600379,-0.00340354,-0.00120607,10081,0,0,0,0,0.2,1
10099,-3.34228e-12,1.18012e-37,-1.60208e-06,-3.40794e-12,1.18002e-37,0,-1.13749e-13,0,0,-3.51804,0.6021,0.374363,0,0,0,0,0,-0.419719,0.6021,182,-57,182,-57,311,-63,190,70,0.300362,-0.0610211,0,-1.5,0,0,0,0,-0.420245,0.600356,0,0,0,0,-0.00340354,-0.00120607,17955,-0.420181,0.600379,-0.00340354,-0.00120607,10081,0,0,0,0,0.2,1
10119,-3.34228e-12,1.18012e-37,-1.60208e-06,-3.40794e-12,1.18002e-37,0,-1.13742e-13,0,0,-3.49696,0.598886,0.355602,0,0,0,0,0,-0.390837,0.598886,182,-57,182,-57,311,-63,190,73,0.300408,-0.0614948,0,-1.5,0,0,0,0,-0.419339,0.600141,0,0,0,0,-0.00498263,-0.00135885,18360,-0.419304,0.60015,-0.00498263,-0.00135885,10114,0,0,0,0,0.2,1
10134,-3.34228e-12,1.18012e-37,-1.60208e-06,-3.40794e-12,1.18002e-37,0,-1.1374e-13,0,0,-3.49696,0.598886,0.355602,0,0,0,0,0,-0.390837,0.598886,182,-57,182,-57,311,-63,190,73,0.300408,-0.0614948,0,-1.5,0,0,0,0,-0.419414,0.60012,0,0,0,0,-0.00498263,-0.00135885,18360,-0.419304,0.60015,-0.00498263,-0.00135885,10114,0,0,0,0,0.2,1
10155,-3.34228e-12,1.18012e-37,-1.60208e-06,-3.40794e-12,1.18002e-37,0,-1.1374e-13,0,0,-3.51092,0.598729,0.370343,0,0,0,0,0,-0.409962,0.598729,182,-57,182,-57,312,-63,190,70,0.301213,-0.055598,0,-1.5,0,0,0,0,-0.411324,0.598743,0,0,0,0,0.0146734,-0.0040421,17955,-0.411442,0.598775,0.0146734,-0.0040421,10148,0,0,0,0,0.2,1
10170,-3.34228e-12,1.18012e-37,-1.60208e-06,-3.40794e-12,1.18002e-37,0,-1.13741e-13,0,0,-3.51092,0.598729,0.370343,0,0,0,0,0,-0.409962,0.598729,182,-57,182,-57,312,-63,190,70,0.301213,-0.055598,0,-1.5,0,0,0,0,-0.41109,0.598678,0,0,0,0,0.0146734,-0.0040421,17955,-0.411442,0.598775,0.0146734,-0.0040421,10148,0,0,0,0,0.2,1
10190,-3.34228e-12,1.18012e-37,-1.60208e-06,-3.40794e-12,1.18002e-37,0,-1.1375e-13,0,0,-3.53318,0.600399,0.383072,0,0,0,0,0,-0.44045,0.600399,184,-57,184,-57,311,-63,190,70,0.300564,-0.0615315,0,-1.5,0,0,0,0,-0.420166,0.599775,0,0,0,0,-0.00510515,-0.00187879,17689,-0.42011,0.599796,-0.00510515,-0.00187879,10182,0,0,0,0,0.2,1
10206,-3.34228e-12,1.18012e-37,-1.60208e-06,-3.40794e-12,1.18002e-37,0,-1.13741e-13,0,0,-3.53318,0.600399,0.383072,0,0,0,0,0,-0.44045,0.600399,184,-57,184,-57,311,-63,190,70,0.300564,-0.0615315,0,-1.5,0,0,0,0,-0.420247,0.599745,0,0,0,0,-0.00510515,-0.00187879,17689,-0.42011,0.599796,-0.00510515,-0.00187879,10182,0,0,0,0,0.2,1
10226,-3.34228e-12,1.18012e-37,-1.60208e-06,-3.40794e-12,1.18002e-37,0,-1.13751e-13,0,0,-3.51804,0.6021,0.374363,0,0,0,0,0,-0.419719,0.6021,182,-57,182,-57,311,-63,190,70,0.300431,-0.0619661,0,-1.5,0,0,0,0,-0.420025,0.599889,0,0,0,0,-0.00655367,-0.00143801,17955,-0.41994,0.599908,-0.00655367,-0.00143801,10215,0,0,0,0,0.2,1
10242,-3.34228e-12,1.18012e-37,-1.60208e-06,-3.40794e-12,1.18002e-37,0,-1.13751e-13,0,0,-3.51804,0.6021,0.374363,0,0,0,0,0,-0.419719,0.6021,182,-57,182,-57,311,-63,190,70,0.300431,-0.0619661,0,-1.5,0,0,0,0,-0.42013,0.599866,0,0,0,0,-0.00655367,-0.00143801,17955,-0.41994,0.599908,-0.00655367,-0.00143801,10215,0,0,0,0,0.2,1
10262,-3.34228e-12,1.18012e-37,-1.60208e-06,-3.40794e-12,1.18002e-37,0,-1.13752e-13,0,0,-3.51804,0.6021,0.374363,0,0,0,0,0,-0.419719,0.6021,182,-57,182,-57,311,-63,190,70,0.299988,-0.062688,0,-1.5,0,0,0,0,-0.420151,0.60041,0,0,0,0,-0.00896014,3.85879e-05,17955,-0.419972,0.600409,-0.00896014,3.85879e-05,10248,0,0,0,0,0.2,1
10278,-3.34228e-12,1.18012e-37,-1.60208e-06,-3.40794e-12,1.18002e-37,0,-1.13752e-13,0,0,-3.51804,0.6021,0.374363,0,0,0,0,0,-0.419719,0.6021,182,-57,182,-57,311,-63,190,70,0.299988,-0.062688,0,-1.5,0,0,0,0,-0.420286,0.600411,0,0,0,0,-0.00896014,3.85879e-05,17955,-0.419972,0.600409,-0.00896014,3.85879e-05,10248,0,0,0,0,0.2,1
10300,-3.34228e-12,1.18012e-37,-1.60208e-06,-3.40794e-12,1.18002e-37,0,-1.13753e-13,0,0,-3.51887,0.589363,0.375076,0,0,0,0,0,-0.420847,0.589363,185,-57,185,-57,314,-63,190,70,0.300165,-0.0620148,0,-1.5,0,0,0,0,-0.420244,0.600125,0,0,0,0,-0.00671585,-0.000550593,17556,-0.42009,0.600138,-0.00671585,-0.000550593,10287,0,0,0,0,0.2,1
10320,-3.34228e-12,1.18012e-37,-1.60208e-06,-3.40794e-12,1.18002e-37,0,-1.13753e-13,0,0,-3.53338,0.587499,0.383434,0,0,0,0,0,-0.440733,0.587499,187,-57,187,-57,314,-63,190,70,0.30072,-0.0616632,0,-1.5,0,0,0,0,-0.42097,0.599212,0,0,0,0,-0.00554399,-0.00240066,17290,-0.420931,0.599229,-0.00554399,-0.00240066,10315,0,0,0,0,0.2,1
10335,-3.34228e-12,1.18012e-37,-1.60208e-06,-3.40794e-12,1.18002e-37,0,-1.13754e-13,0,0,-3.53338,0.587499,0.383434,0,0,0,0,0,-0.440733,0.587499,187,-57,187,-57,314,-63,190,70,0.30072,-0.0616632,0,-1.5,0,0,0,0,-0.421053,0.599176,0,0,0,0,-0.00554399,-0.00240066,17290,-0.420931,0.599229,-0.00554399,-0.00240066,10315,0,0,0,0,0.2,1
10357,-3.34228e-12,1.18012e-37,-1.60208e-06,-3.40794e-12,1.18002e-37,0,-1.13754e-13,0,0,-3.5138,0.58841,0.369929,0,0,0,0,0,-0.413903,0.58841,185,-57,185,-57,314,-63,190,70,0.301024,-0.0599861,0,-1.5,0,0,0,0,-0.419632,0.597955,0,0,0,0,4.64923e-05,-0.00341314,17556,-0.419633,0.597986,4.64923e-05,-0.00341314,10349,0,0,0,0,0.2,1
10372,-3.34228e-12,1.18012e-37,-1.60208e-06,-3.40794e-12,1.18002e-37,0,-1.13755e-13,0,0,-3.5138,0.58841,0.369929,0,0,0,0,0,-0.413903,0.58841,185,-57,185,-57,314,-63,190,70,0.301024,-0.0599861,0,-1.5,0,0,0,0,-0.419632,0.5979,0,0,0,0,4.64923e-05,-0.00341314,17556,-0.419633,0.597986,4.64923e-05,-0.00341314,10349,0,0,0,0,0.2,1
10388,-3.34228e-12,1.18012e-37,-1.60208e-06,-3.40794e-12,1.18002e-37,0,-1.13756e-13,0,0,-3.5138,0.58841,0.369929,0,0,0,0,0,-0.413903,0.58841,185,-57,185,-57,314,-63,190,70,0.301024,-0.0599861,0,-1.5,0,0,0,0,-0.419631,0.597849,0,0,0,0,4.64923e-05,-0.00341314,17556,-0.419633,0.597986,4.64923e-05,-0.00341314,10349,0,0,0,0,0.2,1
10403,-3.34228e-12,1.18012e-37,-1.60208e-06,-3.40794e-12,1.18002e-37,0,-1.13756e-13,0,0,-3.5138,0.58841,0.369929,0,0,0,0,0,-0.413903,0.58841,185,-57,185,-57,314,-63,190,70,0.301024,-0.0599861,0,-1.5,0,0,0,0,-0.41963,0.597794,0,0,0,0,4.64923e-05,-0.00341314,17556,-0.419633,0.597986,4.64923e-05,-0.00341314,10349,0,0,0,0,0.2,1
10424,-3.34228e-12,1.18012e-37,-1.60208e-06,-3.40794e-12,1.18002e-37,0,-1.13757e-13,0,0,-3.43926,0.605873,0.329714,0,0,0,0,0,-0.311789,0.605873,177,-66,177,-66,308,-61,190,73,0.300715,-0.0620051,0,-1.5,0,0,0,0,-0.419724,0.598488,0,0,0,0,-0.00668351,-0.00238166,19321,-0.419644,0.598516,-0.00668351,-0.00238166,10414,0,0,0,0,0.2,1
10439,-3.34228e-12,1.18012e-37,-1.60208e-06,-3.40794e-12,1.18002e-37,0,-1.13757e-13,0,0,-3.43926,0.605873,0.329714,0,0,0,0,0,-0.311789,0.605873,177,-66,177,-66,308,-61,190,73,0.300715,-0.0620051,0,-1.5,0,0,0,0,-0.419824,0.598452,0,0,0,0,-0.00668351,-0.00238166,19321,-0.419644,0.598516,-0.00668351,-0.00238166,10414,0,0,0,0,0.2,1
10461,-3.34228e-12,1.18012e-37,-1.60208e-06,-3.40794e-12,1.18002e-37,0,-1.13758e-13,0,0,-3.53521,0.616504,0.360513,0,0,0,0,0,-0.443238,0.616504,180,-52,180,-52,308,-61,190,73,0.299652,-0.0655559,0,-1.5,0,0,0,0,-0.424341,0.600871,0,0,0,0,-0.0185196,0.00116147,18358,-0.424082,0.600855,-0.0185196,0.00116147,10449,0,0,0,0,0.2,1
10476,-3.34228e-12,1.18012e-37,-1.60208e-06,-3.40794e-12,1.18002e-37,0,-1.13758e-13,0,0,-3.53521,0.616504,0.360513,0,0,0,0,0,-0.443238,0.616504,180,-52,180,-52,308,-61,190,73,0.299652,-0.0655559,0,-1.5,0,0,0,0,-0.424619,0.600889,0,0,0,0,-0.0185196,0.00116147,18358,-0.424082,0.600855,-0.0185196,0.00116147,10449,0,0,0,0,0.2,1
10498,-3.34228e-12,1.18012e-37,-1.60208e-06,-3.40794e-12,1.18002e-37,0,-1.13759e-13,0,0,-3.45343,0.606131,0.338269,0,0,0,0,0,-0.331195,0.606131,177,-66,177,-66,308,-59,190,73,0.299681,-0.0615011,0,-1.5,0,0,0,0,-0.419977,0.600528,0,0,0,0,-0.00500368,0.00106202,19460,-0.419867,0.600505,-0.00500368,0.00106202,10484,0,0,0,0,0.2,1
10519,-3.34228e-12,1.18012e-37,-1.60208e-06,-3.40794e-12,1.18002e-37,0,-1.13759e-13,0,0,-3.51169,0.597145,0.364054,0,0,0,0,0,-0.411013,0.597145,184,-57,184,-57,311,-63,190,73,0.299788,-0.0594628,0,-1.5,0,0,0,0,-0.417402,0.600786,0,0,0,0,0.00179077,0.000706453,18088,-0.417416,0.600781,0.00179077,0.000706453,10514,0,0,0,0,0.2,1
10532,-3.34228e-12,1.18012e-37,-1.60208e-06,-3.40794e-12,1.18002e-37,0,-1.1376e-13,0,0,-3.51169,0.597145,0.364054,0,0,0,0,0,-0.411013,0.597145,184,-57,184,-57,311,-63,190,73,0.299788,-0.0594628,0,-1.5,0,0,0,0,-0.417378,0.600795,0,0,0,0,0.00179077,0.000706453,18088,-0.417416,0.600781,0.00179077,0.000706453,10514,0,0,0,0,0.2,1
10546,-3.34228e-12,1.18012e-37,-1.60208e-06,-3.40794e-12,1.18002e-37,0,-1.1376e-13,0,0,-3.51169,0.597145,0.364054,0,0,0,0,0,-0.411013,0.597145,184,-57,184,-57,311,-63,190,73,0.299788,-0.0594628,0,-1.5,0,0,0,0,-0.417353,0.600805,0,0,0,0,0.00179077,0.000706453,18088,-0.417416,0.600781,0.00179077,0.000706453,10514,0,0,0,0,0.2,1
10566,-3.34228e-12,1.18012e-37,-1.60208e-06,-3.40794e-12,1.18002e-37,0,-1.13761e-13,0,0,-3.51169,0.597145,0.364054,0,0,0,0,0,-0.411013,0.597145,184,-57,184,-57,311,-63,190,73,0.300885,-0.0562139,0,-1.5,0,0,0,0,-0.412266,0.597813,0,0,0,0,0.0126203,-0.00294942,18088,-0.412518,0.597872,0.0126203,-0.00294942,10553,0,0,0,0,0.2,1
10588,-3.34228e-12,1.18012e-37,-1.60208e-06,-3.40794e-12,1.18002e-37,0,-1.13762e-13,0,0,-3.43733,0.589315,0.341532,0,0,0,0,0,-0.309141,0.589315,181,-67,181,-67,311,-63,190,73,0.301564,-0.0572053,0,-1.5,0,0,0,0,-0.41218,0.596651,0,0,0,0,0.00931578,-0.00521178,19040,-0.412254,0.596693,0.00931578,-0.00521178,10582,0,0,0,0,0.2,1
10603,-3.34228e-12,1.18012e-37,-1.60208e-06,-3.40794e-12,1.18002e-37,0,-1.13762e-13,0,0,-3.43733,0.589315,0.341532,0,0,0,0,0,-0.309141,0.589315,181,-67,181,-67,311,-63,190,73,0.301564,-0.0572053,0,-1.5,0,0,0,0,-0.41204,0.596573,0,0,0,0,0.00931578,-0.00521178,19040,-0.412254,0.596693,0.00931578,-0.00521178,10582,0,0,0,0,0.2,1
10624,-3.34228e-12,1.18012e-37,-1.60208e-06,-3.40794e-12,1.18002e-37,0,-1.13763e-13,0,0,-3.50151,0.606223,0.356445,0,0,0,0,0,-0.397073,0.606223,179,-54,179,-54,311,-63,190,71,0.30104,-0.0557188,0,-1.5,0,0,0,0,-0.411035,0.597487,0,0,0,0,0.0142706,-0.00346781,18492,-0.411163,0.597519,0.0142706,-0.00346781,10617,0,0,0,0,0.2,1
10640,-3.34228e-12,1.18012e-37,-1.60208e-06,-3.40794e-12,1.18002e-37,0,-1.13763e-13,0,0,-3.50151,0.606223,0.356445,0,0,0,0,0,-0.397073,0.606223,179,-54,179,-54,311,-63,190,71,0.30104,-0.0557188,0,-1.5,0,0,0,0,-0.410821,0.597435,0,0,0,0,0.0142706,-0.00346781,18492,-0.411163,0.597519,0.0142706,-0.00346781,10617,0,0,0,0,0.2,1
10661,-3.34228e-12,1.18012e-37,-1.60208e-06,-3.40794e-12,1.18002e-37,0,-1.13764e-13,0,0,-3.40503,0.579397,0.325026,0,0,0,0,0,-0.264884,0.579397,180,-68,180,-68,314,-63,190,73,0.301616,-0.0510796,0,-1.5,0,0,0,0,-0.398129,0.596305,0,0,0,0,0.0297346,-0.0053862,19317,-0.398486,0.59637,0.0297346,-0.0053862,10651,0,0,0,0,0.2,1
10676,-3.34228e-12,1.18012e-37,-1.60208e-06,-3.40794e-12,1.18002e-37,0,-1.13764e-13,0,0,-3.40503,0.579397,0.325026,0,0,0,0,0,-0.264884,0.579397,180,-68,180,-68,314,-63,190,73,0.301616,-0.0510796,0,-1.5,0,0,0,0,-0.397683,0.596224,0,0,0,0,0.0297346,-0.0053862,19317,-0.398486,0.59637,0.0297346,-0.0053862,10651,0,0,0,0,0.2,1
10697,-3.34228e-12,1.18012e-37,-1.60208e-06,-3.40794e-12,1.18002e-37,0,-1.13765e-13,0,0,-3.42484,0.589093,0.336284,0,0,0,0,0,-0.292032,0.589093,180,-68,180,-68,311,-63,190,73,0.301458,-0.05046,0,-1.5,0,0,0,0,-0.395506,0.596461,0,0,0,0,0.0318001,-0.00485858,19317,-0.396173,0.596563,0.0318001,-0.00485858,10683,0,0,0,0,0.2,1
10713,-3.34228e-12,1.18012e-37,-1.60208e-06,-3.40794e-12,1.18002e-37,0,-1.13765e-13,0,0,-3.42484,0.589093,0.336284,0,0,0,0,0,-0.292032,0.589093,180,-68,180,-68,311,-63,190,73,0.301458,-0.05046,0,-1.5,0,0,0,0,-0.394997,0.596383,0,0,0,0,0.0318001,-0.00485858,19317,-0.396173,0.596563,0.0318001,-0.00485858,10683,0,0,0,0,0.2,1
10734,-3.34228e-12,1.18012e-37,-1.60208e-06,-3.40794e-12,1.18002e-37,0,-1.13766e-13,0,0,-3.51594,0.601972,0.35601,0,0,0,0,0,-0.41684,0.601972,182,-55,182,-55,311,-61,190,73,0.301106,-0.0556912,0,-1.5,0,0,0,0,-0.40812,0.596553,0,0,0,0,0.0143628,-0.00368507,18090,-0.408407,0.596627,0.0143628,-0.00368507,10720,0,0,0,0,0.2,1
10750,-3.34228e-12,1.18012e-37,-1.60208e-06,-3.40794e-12,1.18002e-37,0,-1.13766e-13,0,0,-3.51594,0.601972,0.35601,0,0,0,0,0,-0.41684,0.601972,182,-55,182,-55,311,-61,190,73,0.301106,-0.0556912,0,-1.5,0,0,0,0,-0.40789,0.596494,0,0,0,0,0.0143628,-0.00368507,18090,-0.408407,0.596627,0.0143628,-0.00368507,10720,0,0,0,0,0.2,1
10768,-3.34228e-12,1.18012e-37,-1.60208e-06,-3.40794e-12,1.18002e-37,0,-1.13767e-13,0,0,-3.431,0.577761,0.338115,0,0,0,0,0,-0.300472,0.577761,183,-67,183,-67,314,-63,190,73,0.301265,-0.0491274,0,-1.5,0,0,0,0,-0.389392,0.59609,0,0,0,0,0.0362421,-0.0042176,18760,-0.390081,0.59617,0.0362421,-0.0042176,10754,0,0,0,0,0.2,1
10787,-3.34228e-12,1.18012e-37,-1.60208e-06,-3.40794e-12,1.18002e-37,0,-1.13768e-13,0,0,-3.53338,0.587499,0.383434,0,0,0,0,0,-0.440733,0.587499,187,-57,187,-57,314,-63,190,70,0.301791,-0.0526578,0,-1.5,0,0,0,0,-0.397218,0.594939,0,0,0,0,0.0244741,-0.0059685,17290,-0.397389,0.59498,0.0244741,-0.0059685,10782,0,0,0,0,0.2,1
10803,-3.34228e-12,1.18012e-37,-1.60208e-06,-3.40794e-12,1.18002e-37,0,-1.13768e-13,0,0,-3.53338,0.587499,0.383434,0,0,0,0,0,-0.440733,0.587499,187,-57,187,-57,314,-63,190,70,0.301791,-0.0526578,0,-1.5,0,0,0,0,-0.396851,0.594849,0,0,0,0,0.0244741,-0.0059685,17290,-0.397389,0.59498,0.0244741,-0.0059685,10782,0,0,0,0,0.2,1
10818,-3.34228e-12,1.18012e-37,-1.60208e-06,-3.40794e-12,1.18002e-37,0,-1.13769e-13,0,0,-3.53338,0.587499,0.383434,0,0,0,0,0,-0.440733,0.587499,187,-57,187,-57,314,-63,190,70,0.301791,-0.0526578,0,-1.5,0,0,0,0,-0.396459,0.594754,0,0,0,0,0.0244741,-0.0059685,17290,-0.397389,0.59498,0.0244741,-0.0059685,10782,0,0,0,0,0.2,1
10834,-3.34228e-12,1.18012e-37,-1.60208e-06,-3.40794e-12,1.18002e-37,0,-1.13769e-13,0,0,-3.53338,0.587499,0.383434,0,0,0,0,0,-0.440733,0.587499,187,-57,187,-57,314,-63,190,70,0.301791,-0.0526578,0,-1.5,0,0,0,0,-0.396092,0.594664,0,0,0,0,0.0244741,-0.0059685,17290,-0.397389,0.59498,0.0244741,-0.0059685,10782,0,0,0,0,0.2,1
10854,-3.34228e-12,1.18012e-37,-1.60208e-06,-3.40794e-12,1.18002e-37,0,-1.1377e-13,0,0,-3.41845,0.57919,0.339381,0,0,0,0,0,-0.283272,0.57919,180,-68,180,-68,315,-63,190,70,0.304842,-0.0509691,0,-1.5,0,0,0,0,-0.392349,0.586503,0,0,0,0,0.0301029,-0.0161404,18906,-0.392982,0.586842,0.0301029,-0.0161404,10840,0,0,0,0,0.2,1
10876,-3.34228e-12,1.18012e-37,-1.60208e-06,-3.40794e-12,1.18002e-37,0,-1.1377e-13,0,0,-3.52155,0.599111,0.365556,0,0,0,0,0,-0.42453,0.599111,184,-55,184,-55,311,-63,190,73,0.303241,-0.056443,0,-1.5,0,0,0,0,-0.406599,0.590967,0,0,0,0,0.0118567,-0.0108033,18088,-0.406765,0.591118,0.0118567,-0.0108033,10864,0,0,0,0,0.2,1
10897,-3.34228e-12,1.18012e-37,-1.60208e-06,-3.40794e-12,1.18002e-37,0,-1.13771e-13,0,0,-3.48782,0.604115,0.344189,0,0,0,0,0,-0.378318,0.604115,179,-54,179,-54,311,-63,190,73,0.302016,-0.0467178,0,-1.5,0,0,0,0,-0.382798,0.594493,0,0,0,0,0.0442741,-0.00672036,18768,-0.383329,0.594573,0.0442741,-0.00672036,10887,0,0,0,0,0.2,1
10913,-3.34228e-12,1.18012e-37,-1.60208e-06,-3.40794e-12,1.18002e-37,0,-1.13771e-13,0,0,-3.48782,0.604115,0.344189,0,0,0,0,0,-0.378318,0.604115,179,-54,179,-54,311,-63,190,73,0.302016,-0.0467178,0,-1.5,0,0,0,0,-0.38209,0.594385,0,0,0,0,0.0442741,-0.00672036,18768,-0.383329,0.594573,0.0442741,-0.00672036,10887,0,0,0,0,0.2,1
10934,-3.34228e-12,1.18012e-37,-1.60208e-06,-3.40794e-12,1.18002e-37,0,-1.13772e-13,0,0,-3.50819,0.607247,0.362487,0,0,0,0,0,-0.406214,0.607247,179,-54,179,-54,311,-63,190,70,0.301291,-0.0491871,0,-1.5,0,0,0,0,-0.389609,0.595787,0,0,0,0,0.0360429,-0.00430234,18354,-0.390366,0.595878,0.0360429,-0.00430234,10920,0,0,0,0,0.2,1
10955,-3.34228e-12,1.18012e-37,-1.60208e-06,-3.40794e-12,1.18002e-37,0,-1.13772e-13,0,0,-3.47542,0.588444,0.350346,0,0,0,0,0,-0.361331,0.588444,182,-57,182,-57,311,-63,189,70,0.301948,-0.0476714,0,-1.5,0,0,0,0,-0.382871,0.594323,0,0,0,0,0.0410952,-0.00649192,18487,-0.383158,0.594369,0.0410952,-0.00649192,10950,0,0,0,0,0.2,1
10971,-3.34228e-12,1.18012e-37,-1.60208e-06,-3.40794e-12,1.18002e-37,0,-1.13773e-13,0,0,-3.47542,0.588444,0.350346,0,0,0,0,0,-0.361331,0.588444,182,-57,182,-57,311,-63,189,70,0.301948,-0.0476714,0,-1.5,0,0,0,0,-0.382254,0.594226,0,0,0,0,0.0410952,-0.00649192,18487,-0.383158,0.594369,0.0410952,-0.00649192,10950,0,0,0,0,0.2,1
10992,-3.34228e-12,1.18012e-37,-1.60208e-06,-3.40794e-12,1.18002e-37,0,-1.13773e-13,0,0,-3.48451,0.590276,0.351462,0,0,0,0,0,-0.373775,0.590276,182,-55,182,-55,311,-63,189,70,0.303092,-0.0433211,0,-1.5,0,0,0,0,-0.374551,0.590175,0,0,0,0,0.0555963,-0.0103079,18487,-0.375218,0.590299,0.0555963,-0.0103079,10982,0,0,0,0,0.2,1
11005,-3.34228e-12,1.18012e-37,-1.60208e-06,-3.40794e-12,1.18002e-37,0,-1.13774e-13,0,0,-3.48451,0.590276,0.351462,0,0,0,0,0,-0.373775,0.590276,182,-55,182,-55,311,-63,189,70,0.303092,-0.0433211,0,-1.5,0,0,0,0,-0.373828,0.590041,0,0,0,0,0.0555963,-0.0103079,18487,-0.375218,0.590299,0.0555963,-0.0103079,10982,0,0,0,0,0.2,1
11026,-3.34228e-12,1.18012e-37,-1.60208e-06,-3.40794e-12,1.18002e-37,0,-1.13775e-13,0,0,-3.47974,0.589355,0.346512,0,0,0,0,0,-0.367237,0.589355,182,-55,182,-55,311,-63,189,70,0.303193,-0.0405076,0,-1.5,0,0,0,0,-0.368873,0.589605,0,0,0,0,0.0649745,-0.0106438,18487,-0.369587,0.589722,0.0649745,-0.0106438,11017,0,0,0,0,0.2,1
11042,-3.34228e-12,1.18012e-37,-1.60208e-06,-3.40794e-12,1.18002e-37,0,-1.13775e-13,0,0,-3.47974,0.589355,0.346512,0,0,0,0,0,-0.367237,0.589355,182,-55,182,-55,311,-63,189,70,0.303193,-0.0405076,0,-1.5,0,0,0,0,-0.367833,0.589435,0,0,0,0,0.0649745,-0.0106438,18487,-0.369587,0.589722,0.0649745,-0.0106438,11017,0,0,0,0,0.2,1
11063,-3.34228e-12,1.18012e-37,-1.60208e-06,-3.40794e-12,1.18002e-37,0,-1.13776e-13,0,0,-3.46541,0.593515,0.338453,0,0,0,0,0,-0.347613,0.593515,179,-54,179,-54,311,-63,189,70,0.30367,-0.0423829,0,-1.5,0,0,0,0,-0.364734,0.589324,0,0,0,0,0.0587236,-0.0122339,18886,-0.365968,0.589581,0.0587236,-0.0122339,11049,0,0,0,0,0.2,1
11079,-3.34228e-12,1.18012e-37,-1.60208e-06,-3.40794e-12,1.18002e-37,0,-1.13776e-13,0,0,-3.46541,0.593515,0.338453,0,0,0,0,0,-0.347613,0.593515,179,-54,179,-54,311,-63,189,70,0.30367,-0.0423829,0,-1.5,0,0,0,0,-0.363795,0.589128,0,0,0,0,0.0587236,-0.0122339,18886,-0.365968,0.589581,0.0587236,-0.0122339,11049,0,0,0,0,0.2,1
11100,-3.34228e-12,1.18012e-37,-1.60208e-06,-3.40794e-12,1.18002e-37,0,-1.13777e-13,0,0,-3.50139,0.592255,0.344245,0,0,0,0,0,-0.396901,0.592255,182,-54,182,-54,311,-59,189,70,0.302992,-0.0419803,0,-1.5,0,0,0,0,-0.365805,0.591078,0,0,0,0,0.0600657,-0.00997195,17931,-0.367067,0.591287,0.0600657,-0.00997195,11086,0,0,0,0,0.2,1
11125,-3.34228e-12,1.18012e-37,-1.60208e-06,-3.40794e-12,1.18002e-37,0,-1.13777e-13,0,0,-3.50139,0.592255,0.344245,0,0,0,0,0,-0.396901,0.592255,182,-54,182,-54,311,-59,189,70,0.302913,-0.0420078,0,-1.5,0,0,0,0,-0.366332,0.591163,0,0,0,0,0.0599741,-0.00970899,17931,-0.367111,0.591289,0.0599741,-0.00970899,11114,0,0,0,0,0.2,1
11138,-3.34228e-12,1.18012e-37,-1.60208e-06,-3.40794e-12,1.18002e-37,0,-1.13778e-13,0,0,-3.50139,0.592255,0.344245,0,0,0,0,0,-0.396901,0.592255,182,-54,182,-54,311,-59,189,70,0.302913,-0.0420078,0,-1.5,0,0,0,0,-0.365552,0.591037,0,0,0,0,0.0599741,-0.00970899,17931,-0.367111,0.591289,0.0599741,-0.00970899,11114,0,0,0,0,0.2,1
11159,-3.34228e-12,1.18012e-37,-1.60208e-06,-3.40794e-12,1.18002e-37,0,-1.13778e-13,0,0,-3.53777,0.59563,0.368232,0,0,0,0,0,-0.446752,0.59563,183,-52,183,-52,308,-63,193,72,0.302595,-0.0429231,0,-1.5,0,0,0,0,-0.366644,0.591655,0,0,0,0,0.056923,-0.00865113,18630,-0.367213,0.591741,0.056923,-0.00865113,11151,0,0,0,0,0.2,1
11175,-3.34228e-12,1.18012e-37,-1.60208e-06,-3.40794e-12,1.18002e-37,0,-1.13779e-13,0,0,-3.53777,0.59563,0.368232,0,0,0,0,0,-0.446752,0.59563,183,-52,183,-52,308,-63,193,72,0.302595,-0.0429231,0,-1.5,0,0,0,0,-0.365733,0.591516,0,0,0,0,0.056923,-0.00865113,18630,-0.367213,0.591741,0.056923,-0.00865113,11151,0,0,0,0,0.2,1
11197,-3.34228e-12,1.18012e-37,-1.60208e-06,-3.40794e-12,1.18002e-37,0,-1.13779e-13,0,0,-3.56258,0.62262,0.371969,0,0,0,0,0,-0.480733,0.62262,181,-52,181,-52,308,-59,189,71,0.302372,-0.04469,0,-1.5,0,0,0,0,-0.37065,0.591999,0,0,0,0,0.0510335,-0.00790706,17550,-0.371773,0.592173,0.0510335,-0.00790706,11183,0,0,0,0,0.2,1
11213,-3.34228e-12,1.18012e-37,-1.60208e-06,-3.40794e-12,1.18002e-37,0,-1.1378e-13,0,0,-3.56258,0.62262,0.371969,0,0,0,0,0,-0.480733,0.62262,181,-52,181,-52,308,-59,189,71,0.302372,-0.04469,0,-1.5,0,0,0,0,-0.369834,0.591872,0,0,0,0,0.0510335,-0.00790706,17550,-0.371773,0.592173,0.0510335,-0.00790706,11183,0,0,0,0,0.2,1
11231,-3.34228e-12,1.18012e-37,-1.60208e-06,-3.40794e-12,1.18002e-37,0,-1.13781e-13,0,0,-3.49792,0.601576,0.348314,0,0,0,0,0,-0.392152,0.601576,181,-52,181,-52,308,-63,189,71,0.302331,-0.0527687,0,-1.5,0,0,0,0,-0.389587,0.591782,0,0,0,0,0.0241044,-0.00776868,18760,-0.390021,0.591921,0.0241044,-0.00776868,11217,0,0,0,0,0.2,1
11245,-3.34228e-12,1.18012e-37,-1.60208e-06,-3.40794e-12,1.18002e-37,0,-1.13781e-13,0,0,-3.49792,0.601576,0.348314,0,0,0,0,0,-0.392152,0.601576,181,-52,181,-52,308,-63,189,71,0.302331,-0.0527687,0,-1.5,0,0,0,0,-0.38925,0.591673,0,0,0,0,0.0241044,-0.00776868,18760,-0.390021,0.591921,0.0241044,-0.00776868,11217,0,0,0,0,0.2,1
11266,-3.34228e-12,1.18012e-37,-1.60208e-06,-3.40794e-12,1.18002e-37,0,-1.13782e-13,0,0,-3.54861,0.616557,0.37231,0,0,0,0,0,-0.461601,0.616557,183,-52,183,-52,308,-63,189,71,0.29933,-0.0515942,0,-1.5,0,0,0,0,-0.385199,0.594379,0,0,0,0,0.0280193,0.0022345,17822,-0.385788,0.594333,0.0280193,0.0022345,11252,0,0,0,0,0.2,1
11287,-3.34228e-12,1.18012e-37,-1.60208e-06,-3.40794e-12,1.18002e-37,0,-1.13782e-13,0,0,-3.53328,0.618193,0.36357,0,0,0,0,0,-0.440588,0.618193,181,-52,181,-52,308,-63,189,71,0.297544,-0.0530116,0,-1.5,0,0,0,0,-0.392868,0.597831,0,0,0,0,0.0232947,0.00818586,18090,-0.393101,0.597749,0.0232947,0.00818586,11280,0,0,0,0,0.2,1
11302,-3.34228e-12,1.18012e-37,-1.60208e-06,-3.40794e-12,1.18002e-37,0,-1.13783e-13,0,0,-3.53328,0.618193,0.36357,0,0,0,0,0,-0.440588,0.618193,181,-52,181,-52,308,-63,189,71,0.297544,-0.0530116,0,-1.5,0,0,0,0,-0.392518,0.597954,0,0,0,0,0.0232947,0.00818586,18090,-0.393101,0.597749,0.0232947,0.00818586,11280,0,0,0,0,0.2,1
11324,-3.34228e-12,1.18012e-37,-1.60208e-06,-3.40794e-12,1.18002e-37,0,-1.13783e-13,0,0,-3.52546,0.61897,0.359116,0,0,0,0,0,-0.429876,0.61897,180,-52,180,-52,308,-63,189,71,0.295716,-0.0595072,0,-1.5,0,0,0,0,-0.395574,0.60311,0,0,0,0,0.00164267,0.0142789,18224,-0.39559,0.602968,0.00164267,0.0142789,11316,0,0,0,0,0.2,1
11339,-3.34228e-12,1.18012e-37,-1.60208e-06,-3.40794e-12,1.18002e-37,0,-1.13784e-13,0,0,-3.52546,0.61897,0.359116,0,0,0,0,0,-0.429876,0.61897,180,-52,180,-52,308,-63,189,71,0.295716,-0.0595072,0,-1.5,0,0,0,0,-0.395549,0.603324,0,0,0,0,0.00164267,0.0142789,18224,-0.39559,0.602968,0.00164267,0.0142789,11316,0,0,0,0,0.2,1
11360,-3.34228e-12,1.18012e-37,-1.60208e-06,-3.40794e-12,1.18002e-37,0,-1.13784e-13,0,0,-3.50485,0.621862,0.344701,0,0,0,0,0,-0.401641,0.621862,179,-54,179,-54,308,-63,189,74,0.297795,-0.086786,0,-1.5,0,0,0,0,-0.420886,0.602599,0,0,0,0,-0.0892866,0.00734951,18495,-0.419636,0.602496,-0.0892866,0.00734951,11349,0,0,0,0,0.2,1
11376,-3.34228e-12,1.18012e-37,-1.60208e-06,-3.40794e-12,1.18002e-37,0,-1.13785e-13,0,0,-3.50485,0.621862,0.344701,0,0,0,0,0,-0.401641,0.621862,179,-54,179,-54,308,-63,189,74,0.297795,-0.086786,0,-1.5,0,0,0,0,-0.422315,0.602717,0,0,0,0,-0.0892866,0.00734951,18495,-0.419636,0.602496,-0.0892866,0.00734951,11349,0,0,0,0,0.2,1
11397,-3.34228e-12,1.18012e-37,-1.60208e-06,-3.40794e-12,1.18002e-37,0,-1.13785e-13,0,0,-3.47841,0.601485,0.320124,0,0,0,0,0,-0.365428,0.601485,179,-54,179,-54,308,-58,189,74,0.298572,-0.0872664,0,-1.5,0,0,0,0,-0.427161,0.601634,0,0,0,0,-0.102808,0.00475991,18744,-0.425002,0.601534,-0.102808,0.00475991,11383,0,0,0,0,0.2,1
11413,-3.34228e-12,1.18012e-37,-1.60208e-06,-3.40794e-12,1.18002e-37,0,-1.13786e-13,0,0,-3.47841,0.601485,0.320124,0,0,0,0,0,-0.365428,0.601485,179,-54,179,-54,308,-58,189,74,0.298572,-0.0872664,0,-1.5,0,0,0,0,-0.428806,0.60171,0,0,0,0,-0.102808,0.00475991,18744,-0.425002,0.601534,-0.102808,0.00475991,11383,0,0,0,0,0.2,1
11434,-3.34228e-12,1.18012e-37,-1.60208e-06,-3.40794e-12,1.18002e-37,0,-1.13786e-13,0,0,-3.53363,0.626265,0.352844,0,0,0,0,0,-0.441078,0.626265,179,-54,179,-54,308,-59,189,74,0.296763,-0.0872664,0,-1.5,0,0,0,0,-0.429316,0.605308,0,0,0,0,-0.0916922,0.0107907,17955,-0.427391,0.605081,-0.0916922,0.0107907,11420,0,0,0,0,0.2,1
11455,-3.34228e-12,1.18012e-37,-1.60208e-06,-3.40794e-12,1.18002e-37,0,-1.13787e-13,0,0,-3.55626,0.625792,0.363594,0,0,0,0,0,-0.472074,0.625792,181,-54,181,-54,308,-58,189,74,0.289647,-0.0872664,0,-1.5,0,0,0,0,-0.446007,0.619582,0,0,0,0,-0.118596,0.0345107,17556,-0.445058,0.619306,-0.118596,0.0345107,11450,0,0,0,0,0.2,1
11468,-3.34228e-12,1.18012e-37,-1.60208e-06,-3.40794e-12,1.18002e-37,0,-1.13788e-13,0,0,-3.55626,0.625792,0.363594,0,0,0,0,0,-0.472074,0.625792,181,-54,181,-54,308,-58,189,74,0.289647,-0.0872664,0,-1.5,0,0,0,0,-0.447549,0.62003,0,0,0,0,-0.118596,0.0345107,17556,-0.445058,0.619306,-0.118596,0.0345107,11450,0,0,0,0,0.2,1
11487,-3.34228e-12,1.18012e-37,-1.60208e-06,-3.40794e-12,1.18002e-37,0,-1.13788e-13,0,0,-3.54069,0.62734,0.354773,0,0,0,0,0,-0.450745,0.62734,179,-54,179,-54,308,-58,189,74,0.287092,-0.0872664,0,-1.5,0,0,0,0,-0.450759,0.625044,0,0,0,0,-0.12281,0.0430274,17820,-0.449899,0.624743,-0.12281,0.0430274,11482,0,0,0,0,0.2,1
11503,-3.34228e-12,1.18012e-37,-1.60208e-06,-3.40794e-12,1.18002e-37,0,-1.13789e-13,0,0,-3.54069,0.62734,0.354773,0,0,0,0,0,-0.450745,0.62734,179,-54,179,-54,308,-58,189,74,0.287092,-0.0872664,0,-1.5,0,0,0,0,-0.452724,0.625732,0,0,0,0,-0.12281,0.0430274,17820,-0.449899,0.624743,-0.12281,0.0430274,11482,0,0,0,0,0.2,1
11524,-3.34228e-12,1.18012e-37,-1.60208e-06,-3.40794e-12,1.18002e-37,0,-1.13789e-13,0,0,-3.54069,0.62734,0.354773,0,0,0,0,0,-0.450745,0.62734,179,-54,179,-54,308,-58,189,74,0.285131,-0.0872664,0,-1.5,0,0,0,0,-0.456741,0.628565,0,0,0,0,-0.135651,0.0495622,17820,-0.455113,0.62797,-0.135651,0.0495622,11514,0,0,0,0,0.2,1
11539,-3.34228e-12,1.18012e-37,-1.60208e-06,-3.40794e-12,1.18002e-37,0,-1.1379e-13,0,0,-3.54069,0.62734,0.354773,0,0,0,0,0,-0.450745,0.62734,179,-54,179,-54,308,-58,189,74,0.285131,-0.0872664,0,-1.5,0,0,0,0,-0.458775,0.629308,0,0,0,0,-0.135651,0.0495622,17820,-0.455113,0.62797,-0.135651,0.0495622,11514,0,0,0,0,0.2,1
11561,-3.34228e-12,1.18012e-37,-1.60208e-06,-3.40794e-12,1.18002e-37,0,-1.1379e-13,0,0,-3.54069,0.62734,0.354773,0,0,0,0,0,-0.450745,0.62734,179,-54,179,-54,308,-58,189,74,0.286067,-0.0872664,0,-1.5,0,0,0,0,-0.462273,0.629994,0,0,0,0,-0.144074,0.0464425,17820,-0.460256,0.629344,-0.144074,0.0464425,11549,0,0,0,0,0.2,1
11576,-3.34228e-12,1.18012e-37,-1.60208e-06,-3.40794e-12,1.18002e-37,0,-1.13791e-13,0,0,-3.54069,0.62734,0.354773,0,0,0,0,0,-0.450745,0.62734,179,-54,179,-54,308,-58,189,74,0.286067,-0.0872664,0,-1.5,0,0,0,0,-0.464434,0.630691,0,0,0,0,-0.144074,0.0464425,17820,-0.460256,0.629344,-0.144074,0.0464425,11549,0,0,0,0,0.2,1
11597,-3.34228e-12,1.18012e-37,-1.60208e-06,-3.40794e-12,1.18002e-37,0,-1.13791e-13,0,0,-3.54069,0.62734,0.354773,0,0,0,0,0,-0.450745,0.62734,179,-54,179,-54,308,-58,189,74,0.283419,-0.0872664,0,-1.5,0,0,0,0,-0.461138,0.631909,0,0,0,0,-0.123182,0.0552703,17820,-0.458551,0.630749,-0.123182,0.0552703,11584,0,0,0,0,0.2,1
11613,-3.34228e-12,1.18012e-37,-1.60208e-06,-3.40794e-12,1.18002e-37,0,-1.13792e-13,0,0,-3.54069,0.62734,0.354773,0,0,0,0,0,-0.450745,0.62734,179,-54,179,-54,308,-58,189,74,0.283419,-0.0872664,0,-1.5,0,0,0,0,-0.463108,0.632793,0,0,0,0,-0.123182,0.0552703,17820,-0.458551,0.630749,-0.123182,0.0552703,11584,0,0,0,0,0.2,1
11634,-3.34228e-12,1.18012e-37,-1.60208e-06,-3.40794e-12,1.18002e-37,0,-1.13792e-13,0,0,-3.58421,0.624371,0.372935,0,0,0,0,0,-0.510365,0.624371,184,-52,184,-52,308,-58,189,74,0.283595,-0.0872664,0,-1.5,0,0,0,0,-0.474745,0.634003,0,0,0,0,-0.151628,0.0546849,17160,-0.471561,0.632855,-0.151628,0.0546849,11620,0,0,0,0,0.2,1
11655,-3.34228e-12,1.18012e-37,-1.60208e-06,-3.40794e-12,1.18002e-37,0,-1.13793e-13,0,0,-3.64933,0.62919,0.38409,0,0,0,0,0,-0.59958,0.62919,184,-52,184,-52,308,-46,189,74,0.28429,-0.0872664,0,-1.5,0,0,0,0,-0.473494,0.633055,0,0,0,0,-0.140976,0.0523656,16632,-0.472225,0.632584,-0.140976,0.0523656,11648,0,0,0,0,0.2,1
11671,-3.34228e-12,1.18012e-37,-1.60208e-06,-3.40794e-12,1.18002e-37,0,-1.13794e-13,0,0,-3.64933,0.62919,0.38409,0,0,0,0,0,-0.59958,0.62919,184,-52,184,-52,308,-46,189,74,0.28429,-0.0872664,0,-1.5,0,0,0,0,-0.475749,0.633893,0,0,0,0,-0.140976,0.0523656,16632,-0.472225,0.632584,-0.140976,0.0523656,11648,0,0,0,0,0.2,1
11692,-3.34228e-12,1.18012e-37,-1.60208e-06,-3.40794e-12,1.18002e-37,0,-1.13794e-13,0,0,-3.55805,0.636626,0.356312,0,0,0,0,0,-0.474529,0.636626,178,-52,178,-52,307,-56,188,73,0.281468,-0.0872664,0,-1.5,0,0,0,0,-0.475156,0.636663,0,0,0,0,-0.122301,0.0617722,17544,-0.473688,0.635922,-0.122301,0.0617722,11682,0,0,0,0,0.2,1
11705,-3.34228e-12,1.18012e-37,-1.60208e-06,-3.40794e-12,1.18002e-37,0,-1.13795e-13,0,0,-3.55805,0.636626,0.356312,0,0,0,0,0,-0.474529,0.636626,178,-52,178,-52,307,-56,188,73,0.281468,-0.0872664,0,-1.5,0,0,0,0,-0.476745,0.637466,0,0,0,0,-0.122301,0.0617722,17544,-0.473688,0.635922,-0.122301,0.0617722,11682,0,0,0,0,0.2,1
11727,-3.3423e-12,1.17833e-37,1.18017e-37,-3.40794e-12,1.18002e-37,0,-1.13795e-13,0,0,-3.5382,0.629038,0.340971,0,0,0,0,0,-0.447335,0.629038,178,-51,178,-51,307,-56,188,74,0.281317,-0.0872664,0,-1.5,0,0,0,0,-0.480905,0.638729,0,0,0,0,-0.12995,0.0622764,17940,-0.479216,0.637919,-0.12995,0.0622764,11715,0,0,0,0,0.2,1
11742,-3.34228e-12,1.18012e-37,-1.60208e-06,-3.40794e-12,1.18002e-37,0,-1.13796e-13,0,0,-3.5382,0.629038,0.340971,0,0,0,0,0,-0.447335,0.629038,178,-51,178,-51,307,-56,188,74,0.281317,-0.0872664,0,-1.5,0,0,0,0,-0.482984,0.639725,0,0,0,0,-0.12995,0.0622764,17940,-0.479216,0.637919,-0.12995,0.0622764,11715,0,0,0,0,0.2,1
11758,-3.34228e-12,1.18012e-37,-1.60208e-06,-3.40794e-12,1.18002e-37,0,-1.13796e-13,0,0,-3.5382,0.629038,0.340971,0,0,0,0,0,-0.447335,0.629038,178,-51,178,-51,307,-56,188,74,0.281317,-0.0872664,0,-1.5,0,0,0,0,-0.485063,0.640721,0,0,0,0,-0.12995,0.0622764,17940,-0.479216,0.637919,-0.12995,0.0622764,11715,0,0,0,0,0.2,1
11773,-3.34228e-12,1.18012e-37,-1.60208e-06,-3.40794e-12,1.18002e-37,0,-1.13797e-13,0,0,-3.5382,0.629038,0.340971,0,0,0,0,0,-0.447335,0.629038,178,-51,178,-51,307,-56,188,74,0.281317,-0.0872664,0,-1.5,0,0,0,0,-0.487013,0.641656,0,0,0,0,-0.12995,0.0622764,17940,-0.479216,0.637919,-0.12995,0.0622764,11715,0,0,0,0,0.2,1
11789,-3.34228e-12,1.18012e-37,-1.60208e-06,-3.40794e-12,1.18002e-37,0,-1.13797e-13,0,0,-3.5382,0.629038,0.340971,0,0,0,0,0,-0.447335,0.629038,178,-51,178,-51,307,-56,188,74,0.281317,-0.0872664,0,-1.5,0,0,0,0,-0.489092,0.642652,0,0,0,0,-0.12995,0.0622764,17940,-0.479216,0.637919,-0.12995,0.0622764,11715,0,0,0,0,0.2,1
11804,-3.34228e-12,1.18012e-37,-1.60208e-06,-3.40794e-12,1.18002e-37,0,-1.13798e-13,0,0,-3.5382,0.629038,0.340971,0,0,0,0,0,-0.447335,0.629038,178,-51,178,-51,307,-56,188,74,0.281317,-0.0872664,0,-1.5,0,0,0,0,-0.491041,0.643586,0,0,0,0,-0.12995,0.0622764,17940,-0.479216,0.637919,-0.12995,0.0622764,11715,0,0,0,0,0.2,1
11826,-3.34228e-12,1.18012e-37,-1.60208e-06,-3.40794e-12,1.18002e-37,0,-1.13798e-13,0,0,-3.56254,0.631118,0.369477,0,0,0,0,0,-0.48068,0.631118,181,-54,181,-54,307,-58,188,73,0.284792,-0.0872664,0,-1.5,0,0,0,0,-0.489566,0.640427,0,0,0,0,-0.11989,0.0506926,17423,-0.488127,0.639819,-0.11989,0.0506926,11816,0,0,0,0,0.2,1
11841,-3.34228e-12,1.18012e-37,-1.60208e-06,-3.40794e-12,1.18002e-37,0,-1.13799e-13,0,0,-3.56254,0.631118,0.369477,0,0,0,0,0,-0.48068,0.631118,181,-54,181,-54,307,-58,188,73,0.284792,-0.0872664,0,-1.5,0,0,0,0,-0.491364,0.641188,0,0,0,0,-0.11989,0.0506926,17423,-0.488127,0.639819,-0.11989,0.0506926,11816,0,0,0,0,0.2,1
11862,-3.34228e-12,1.18012e-37,-1.60208e-06,-3.40794e-12,1.18002e-37,0,-1.13799e-13,0,0,-3.57195,0.632699,0.366497,0,0,0,0,0,-0.493573,0.632699,180,-52,180,-52,308,-56,188,73,0.281732,-0.0872664,0,-1.5,0,0,0,0,-0.497129,0.644143,0,0,0,0,-0.127897,0.060894,17286,-0.494443,0.642864,-0.127897,0.060894,11848,0,0,0,0,0.2,1
11877,-3.34228e-12,1.18012e-37,-1.60208e-06,-3.40794e-12,1.18002e-37,0,-1.138e-13,0,0,-3.57195,0.632699,0.366497,0,0,0,0,0,-0.493573,0.632699,180,-52,180,-52,308,-56,188,73,0.281732,-0.0872664,0,-1.5,0,0,0,0,-0.499047,0.645056,0,0,0,0,-0.127897,0.060894,17286,-0.494443,0.642864,-0.127897,0.060894,11848,0,0,0,0,0.2,1
11898,-3.34228e-12,1.18012e-37,-1.60208e-06,-3.40794e-12,1.18002e-37,0,-1.13801e-13,0,0,-3.33967,0.588613,0.305375,0,0,0,0,0,-0.175349,0.588613,181,-76,181,-76,308,-70,188,74,0.287896,-0.0872664,0,-1.5,0,0,0,0,-0.498841,0.639993,0,0,0,0,-0.121578,0.0403474,19950,-0.497139,0.639428,-0.121578,0.0403474,11886,0,0,0,0,0.2,1
11922,-3.34228e-12,1.18012e-37,-1.60208e-06,-3.40794e-12,1.18002e-37,0,-1.13801e-13,0,0,-3.31659,0.590381,0.293743,0,0,0,0,0,-0.143729,0.590381,178,-77,178,-77,308,-70,188,74,0.289397,-0.0872664,0,-1.5,0,0,0,0,-0.497232,0.639078,0,0,0,0,-0.119074,0.0353421,20536,-0.496161,0.63876,-0.119074,0.0353421,11915,0,0,0,0,0.2,1
11936,-3.34228e-12,1.18012e-37,-1.60208e-06,-3.40794e-12,1.18002e-37,0,-1.13802e-13,0,0,-3.31659,0.590381,0.293743,0,0,0,0,0,-0.143729,0.590381,178,-77,178,-77,308,-70,188,74,0.289397,-0.0872664,0,-1.5,0,0,0,0,-0.498899,0.639573,0,0,0,0,-0.119074,0.0353421,20536,-0.496161,0.63876,-0.119074,0.0353421,11915,0,0,0,0,0.2,1
11957,-3.34228e-12,1.18012e-37,-1.60208e-06,-3.40794e-12,1.18002e-37,0,-1.13802e-13,0,0,-3.30267,0.588149,0.281391,0,0,0,0,0,-0.124657,0.588149,178,-77,178,-77,308,-70,188,76,0.28622,-0.0872664,0,-1.5,0,0,0,0,-0.499696,0.640584,0,0,0,0,-0.114815,0.045935,20808,-0.498434,0.640078,-0.114815,0.045935,11948,0,0,0,0,0.2,1
11973,-3.34228e-12,1.18012e-37,-1.60208e-06,-3.40794e-12,1.18002e-37,0,-1.13803e-13,0,0,-3.30267,0.588149,0.281391,0,0,0,0,0,-0.124657,0.588149,178,-77,178,-77,308,-70,188,76,0.28622,-0.0872664,0,-1.5,0,0,0,0,-0.501533,0.641319,0,0,0,0,-0.114815,0.045935,20808,-0.498434,0.640078,-0.114815,0.045935,11948,0,0,0,0,0.2,1
11994,-3.34228e-12,1.18012e-37,-1.60208e-06,-3.40794e-12,1.18002e-37,0,-1.13803e-13,0,0,-3.29557,0.587008,0.275149,0,0,0,0,0,-0.114936,0.587008,178,-77,178,-77,308,-70,188,77,0.283487,-0.0872664,0,-1.5,0,0,0,0,-0.504211,0.647261,0,0,0,0,-0.123572,0.0550439,20944,-0.501616,0.646105,-0.123572,0.0550439,11980,0,0,0,0,0.2,1
12009,-3.34228e-12,1.18012e-37,-1.60208e-06,-3.40794e-12,1.18002e-37,0,-1.13804e-13,0,0,-3.29557,0.587008,0.275149,0,0,0,0,0,-0.114936,0.587008,178,-77,178,-77,308,-70,188,77,0.283487,-0.0872664,0,-1.5,0,0,0,0,-0.506064,0.648086,0,0,0,0,-0.123572,0.0550439,20944,-0.501616,0.646105,-0.123572,0.0550439,11980,0,0,0,0,0.2,1
12025,-3.34228e-12,1.18012e-37,-1.60208e-06,-3.40794e-12,1.18002e-37,0,-1.13804e-13,0,0,-3.29557,0.587008,0.275149,0,0,0,0,0,-0.114936,0.587008,178,-77,178,-77,308,-70,188,77,0.283487,-0.0872664,0,-1.5,0,0,0,0,-0.508041,0.648967,0,0,0,0,-0.123572,0.0550439,20944,-0.501616,0.646105,-0.123572,0.0550439,11980,0,0,0,0,0.2,1
12040,-3.34228e-12,1.18012e-37,-1.60208e-06,-3.40794e-12,1.18002e-37,0,-1.13805e-13,0,0,-3.29557,0.587008,0.275149,0,0,0,0,0,-0.114936,0.587008,178,-77,178,-77,308,-70,188,77,0.283487,-0.0872664,0,-1.5,0,0,0,0,-0.509895,0.649793,0,0,0,0,-0.123572,0.0550439,20944,-0.501616,0.646105,-0.123572,0.0550439,11980,0,0,0,0,0.2,1
12062,-3.34228e-12,1.18012e-37,-1.60208e-06,-3.40794e-12,1.18002e-37,0,-1.13805e-13,0,0,-3.56524,0.618722,0.373706,0,0,0,0,0,-0.484374,0.618722,183,-52,183,-52,311,-59,188,71,0.288964,-0.0872664,0,-1.5,0,0,0,0,-0.503282,0.640873,0,0,0,0,-0.103722,0.0367873,17030,-0.501104,0.6401,-0.103722,0.0367873,12048,0,0,0,0,0.2,1
12077,-3.34228e-12,1.18012e-37,-1.60208e-06,-3.40794e-12,1.18002e-37,0,-1.13806e-13,0,0,-3.56524,0.618722,0.373706,0,0,0,0,0,-0.484374,0.618722,183,-52,183,-52,311,-59,188,71,0.288964,-0.0872664,0,-1.5,0,0,0,0,-0.504942,0.641461,0,0,0,0,-0.103722,0.0367873,17030,-0.501104,0.6401,-0.103722,0.0367873,12048,0,0,0,0,0.2,1
12098,-3.34228e-12,1.18012e-37,-1.60208e-06,-3.40794e-12,1.18002e-37,0,-1.13807e-13,0,0,-3.47482,0.605248,0.350901,0,0,0,0,0,-0.360507,0.605247,181,-66,181,-66,311,-59,188,71,0.292553,-0.0727062,0,-1.5,0,0,0,0,-0.47628,0.636246,0,0,0,0,-0.0423539,0.0248223,18221,-0.475433,0.635749,-0.0423539,0.0248223,12084,0,0,0,0,0.2,1
12119,-3.34228e-12,1.18012e-37,-1.60208e-06,-3.40794e-12,1.18002e-37,0,-1.13807e-13,0,0,-3.55987,0.617688,0.368402,0,0,0,0,0,-0.477021,0.617688,183,-52,183,-52,311,-59,188,71,0.299765,-0.0756963,0,-1.5,0,0,0,0,-0.477532,0.61996,0,0,0,0,-0.052321,0.000783946,17030,-0.477113,0.619954,-0.052321,0.000783946,12113,0,0,0,0,0.2,1
12134,-3.34228e-12,1.18012e-37,-1.60208e-06,-3.40794e-12,1.18002e-37,0,-1.13808e-13,0,0,-3.55987,0.617688,0.368402,0,0,0,0,0,-0.477021,0.617688,183,-52,183,-52,311,-59,188,71,0.299765,-0.0756963,0,-1.5,0,0,0,0,-0.478316,0.619972,0,0,0,0,-0.052321,0.000783946,17030,-0.477113,0.619954,-0.052321,0.000783946,12113,0,0,0,0,0.2,1
12153,-3.34228e-12,1.18012e-37,-1.60208e-06,-3.40794e-12,1.18002e-37,0,-1.13808e-13,0,0,-3.64788,0.630636,0.39038,0,0,0,0,0,-0.597591,0.630636,183,-52,183,-52,311,-46,188,71,0.29682,-0.076778,0,-1.5,0,0,0,0,-0.480047,0.629321,0,0,0,0,-0.0559268,0.0106008,16113,-0.479655,0.629247,-0.0559268,0.0106008,12148,0,0,0,0,0.2,1
12166,-3.34228e-12,1.18012e-37,-1.60208e-06,-3.40794e-12,1.18002e-37,0,-1.13809e-13,0,0,-3.64788,0.630636,0.39038,0,0,0,0,0,-0.597591,0.630636,183,-52,183,-52,311,-46,188,71,0.29682,-0.076778,0,-1.5,0,0,0,0,-0.480774,0.629459,0,0,0,0,-0.0559268,0.0106008,16113,-0.479655,0.629247,-0.0559268,0.0106008,12148,0,0,0,0,0.2,1
12188,-3.34228e-12,1.18012e-37,-1.60208e-06,-3.40794e-12,1.18002e-37,0,-1.13809e-13,0,0,-3.56524,0.618722,0.373706,0,0,0,0,0,-0.484374,0.618722,183,-52,183,-52,311,-59,188,71,0.300937,-0.071083,0,-1.5,0,0,0,0,-0.472928,0.618978,0,0,0,0,-0.0369434,-0.00312191,17030,-0.47267,0.619,-0.0369434,-0.00312191,12182,0,0,0,0,0.2,1
12203,-3.34228e-12,1.18012e-37,-1.60208e-06,-3.40794e-12,1.18002e-37,0,-1.1381e-13,0,0,-3.56524,0.618722,0.373706,0,0,0,0,0,-0.484374,0.618722,183,-52,183,-52,311,-59,188,71,0.300937,-0.071083,0,-1.5,0,0,0,0,-0.47352,0.618928,0,0,0,0,-0.0369434,-0.00312191,17030,-0.47267,0.619,-0.0369434,-0.00312191,12182,0,0,0,0,0.2,1
12224,-3.34228e-12,1.18012e-37,-1.60208e-06,-3.40794e-12,1.18002e-37,0,-1.1381e-13,0,0,-3.48153,0.606286,0.356962,0,0,0,0,0,-0.369697,0.606286,181,-66,181,-66,311,-59,188,70,0.301246,-0.0750839,0,-1.5,0,0,0,0,-0.486915,0.618267,0,0,0,0,-0.0502797,-0.00415448,18088,-0.486211,0.618325,-0.0502797,-0.00415448,12212,0,0,0,0,0.2,1
12239,-3.34228e-12,1.18012e-37,-1.60208e-06,-3.40794e-12,1.18002e-37,0,-1.13811e-13,0,0,-3.48153,0.606286,0.356962,0,0,0,0,0,-0.369697,0.606286,181,-66,181,-66,311,-59,188,70,0.301246,-0.0750839,0,-1.5,0,0,0,0,-0.487669,0.618204,0,0,0,0,-0.0502797,-0.00415448,18088,-0.486211,0.618325,-0.0502797,-0.00415448,12212,0,0,0,0,0.2,1
12261,-3.34228e-12,1.18012e-37,-1.60208e-06,-3.40794e-12,1.18002e-37,0,-1.13811e-13,0,0,-3.44699,0.595935,0.34788,0,0,0,0,0,-0.322377,0.595935,181,-67,181,-67,314,-61,187,68,0.301562,-0.0654638,0,-1.5,0,0,0,0,-0.463685,0.618248,0,0,0,0,-0.0182127,-0.00520644,18088,-0.46343,0.618321,-0.0182127,-0.00520644,12249,0,0,0,0,0.2,1
