timestamp,A_x,A_y,A_z,P,Q,R,Phi,Theta,Psi,poseX,poseY,poseZ,state_X,state_Y,state_Z,state_VzB,state_Bx,state_By,state_Bz,p1_x,p1_y,p2_x,p2_y,p3_x,p3_y,p4_x,p4_y,roll,pitch,yaw,alt,targetHeading,highLevelState,lowLevelState,gateNumber,filtered_x,filtered_y,x_OT,y_OT,vx_OT,vy_OT,filtered_vx,filtered_vygateArearansac_corr_x,ransac_corr_y,ransac_corr_vx,ransac_corr_vy,detectionTimeStamppTermX,dTermX,pTermY,dTermY,vxcmd,vycmd
6998,0,0,0,0,0,-1.53085,-0.329624,-0.525122,-0.109091,-1.53085,-0.329624,5,0,-1.5,0,0,-0.0305986,-0.00613116,-1.57104,0.158481,0.0329083,0,0,0,0,0
7016,0,0,0,0,0,-2.08314,-0.443312,-0.555533,-0.113235,-2.08314,-0.443312,5,0,-1.5,0,0,-0.030869,-0.00596908,-1.5713,0.167201,0.0341216,0,0,0,0,0
7030,0,0,0,0,0,-2.75866,-0.578998,-0.578048,-0.114284,-2.75866,-0.578998,5,0,-1.5,0,0,-0.0310544,-0.0058347,-1.57167,0.173787,0.0344329,0,0,0,0,0
7047,0,0,0,0,0,-3.155,-0.656737,-0.587353,-0.114318,-3.155,-0.656737,5,0,-1.5,0,0,-0.0313367,-0.00581972,-1.57201,0.176425,0.0345097,0,0,0,0,0
7062,0,0,0,0,0,-3.155,-0.656737,-0.587353,-0.114318,-3.155,-0.656737,5,0,-1.5,0,0,-0.0312762,-0.00581763,-1.57203,0.176425,0.0345097,0,0,0,0,0
7077,0,0,0,0,0,-3.25501,-0.676171,-0.589341,-0.114291,-3.25501,-0.676171,5,0,-1.5,0,0,-0.0311661,-0.00582938,-1.57203,0.177074,0.0344939,0,0,0,0,0
7092,0,0,0,0,0,-3.25501,-0.676171,-0.589341,-0.114291,-3.25501,-0.676171,5,0,-1.5,0,0,-0.0310664,-0.00583473,-1.57205,0.177074,0.0344939,0,0,0,0,0
7107,0,0,0,0,0,-3.25501,-0.676171,-0.589341,-0.114291,-3.25501,-0.676171,5,0,-1.5,0,0,-0.0310205,-0.00585758,-1.57206,0.177074,0.0344939,0,0,0,0,0
7122,0,0,0,0,0,-3.25501,-0.676171,-0.589341,-0.114291,-3.25501,-0.676171,5,0,-1.5,0,0,-0.0310152,-0.00585033,-1.57208,0.177074,0.0344939,0,0,0,0,0
7137,0,0,0,0,0,-3.25501,-0.676171,-0.589341,-0.114291,-3.25501,-0.676171,5,0,-1.5,0,0,-0.0310759,-0.00584227,-1.57208,0.177074,0.0344939,0,0,0,0,0
7152,0,0,0,0,0,-3.25501,-0.676171,-0.589341,-0.114291,-3.25501,-0.676171,5,0,-1.5,0,0,-0.031231,-0.00580578,-1.57209,0.177074,0.0344939,0,0,0,0,0
7167,0,0,0,0,0,-3.25501,-0.676171,-0.589341,-0.114291,-3.25501,-0.676171,5,0,-1.5,0,0,-0.031269,-0.00578537,-1.57209,0.177074,0.0344939,0,0,0,0,0
7182,0,0,0,0,0,-3.25501,-0.676171,-0.589341,-0.114291,-3.25501,-0.676171,5,0,-1.5,0,0,-0.0312447,-0.00577118,-1.5721,0.177074,0.0344939,0,0,0,0,0
7197,0,0,0,0,0,-3.25501,-0.676171,-0.589341,-0.114291,-3.25501,-0.676171,5,0,-1.5,0,0,-0.0311977,-0.00577729,-1.5721,0.177074,0.0344939,0,0,0,0,0
7212,0,0,0,0,0,-3.35535,-0.695599,-0.591136,-0.11422,-3.35535,-0.695599,5,0,-1.5,0,0,-0.0311996,-0.00580132,-1.57212,0.177568,0.0344772,0,0,0,0,0
7228,0,0,0,0,0,-3.35535,-0.695599,-0.591136,-0.11422,-3.35535,-0.695599,5,0,-1.5,0,0,-0.0312361,-0.00580358,-1.57212,0.177568,0.0344772,0,0,0,0,0
7242,0,0,0,0,0,-3.35535,-0.695599,-0.591136,-0.11422,-3.35535,-0.695599,5,0,-1.5,0,0,-0.0312788,-0.00579309,-1.57212,0.177568,0.0344772,0,0,0,0,0
7257,0,0,0,0,0,-3.35535,-0.695599,-0.591136,-0.11422,-3.35535,-0.695599,5,0,-1.5,0,0,-0.0312528,-0.0058032,-1.57211,0.177568,0.0344772,0,0,0,0,0
7272,0,0,0,0,0,-3.35535,-0.695599,-0.591136,-0.11422,-3.35535,-0.695599,5,0,-1.5,0,0,-0.0311825,-0.0057952,-1.57212,0.177568,0.0344772,0,0,0,0,0
7288,0,0,0,0,0,-3.35535,-0.695599,-0.591136,-0.11422,-3.35535,-0.695599,5,0,-1.5,0,0,-0.0311318,-0.00578098,-1.57213,0.177568,0.0344772,0,0,0,0,0
7303,0,0,0,0,0,-3.35535,-0.695599,-0.591136,-0.11422,-3.35535,-0.695599,5,0,-1.5,0,0,-0.0311372,-0.00578193,-1.57213,0.177568,0.0344772,0,0,0,0,0
7319,0,0,0,0,0,-3.35535,-0.695599,-0.591136,-0.11422,-3.35535,-0.695599,5,0,-1.5,0,0,-0.0312905,-0.00579291,-1.57212,0.177568,0.0344772,0,0,0,0,0
7334,0,0,0,0,0,-3.35535,-0.695599,-0.591136,-0.11422,-3.35535,-0.695599,5,0,-1.5,0,0,-0.0313231,-0.00577783,-1.57215,0.177568,0.0344772,0,0,0,0,0
7349,0,0,0,0,0,-3.456,-0.715008,-0.592896,-0.114112,-3.456,-0.715008,5,0,-1.5,0,0,-0.0312733,-0.0057867,-1.57217,0.178103,0.034454,0,0,0,0,0
7364,0,0,0,0,0,-3.456,-0.715008,-0.592896,-0.114112,-3.456,-0.715008,5,0,-1.5,0,0,-0.0312247,-0.00578258,-1.57219,0.178103,0.034454,0,0,0,0,0
7379,0,0,0,0,0,-3.456,-0.715008,-0.592896,-0.114112,-3.456,-0.715008,5,0,-1.5,0,0,-0.031218,-0.00577983,-1.57219,0.178103,0.034454,0,0,0,0,0
7396,0,0,0,0,0,-3.456,-0.715008,-0.592896,-0.114112,-3.456,-0.715008,5,0,-1.5,0,0,-0.0312524,-0.00579287,-1.57218,0.178103,0.034454,0,0,0,0,0
7410,0,0,0,0,0,-3.456,-0.715008,-0.592896,-0.114112,-3.456,-0.715008,5,0,-1.5,0,0,-0.0313018,-0.00578905,-1.57217,0.178103,0.034454,0,0,0,0,0
7424,0,0,0,0,0,-3.456,-0.715008,-0.592896,-0.114112,-3.456,-0.715008,5,0,-1.5,0,0,-0.031379,-0.00576826,-1.5722,0.178103,0.034454,0,0,0,0,0
7439,0,0,0,0,0,-3.456,-0.715008,-0.592896,-0.114112,-3.456,-0.715008,5,0,-1.5,0,0,-0.0314522,-0.00578216,-1.57219,0.178103,0.034454,0,0,0,0,0
7454,0,0,0,0,0,-3.456,-0.715008,-0.592896,-0.114112,-3.456,-0.715008,5,0,-1.5,0,0,-0.0314387,-0.0057993,-1.5722,0.178103,0.034454,0,0,0,0,0
7470,0,0,0,0,0,-3.456,-0.715008,-0.592896,-0.114112,-3.456,-0.715008,5,0,-1.5,0,0,-0.0312902,-0.00578886,-1.57221,0.178103,0.034454,0,0,0,0,0
7485,0,0,0,0,0,-3.456,-0.715008,-0.592896,-0.114112,-3.456,-0.715008,5,0,-1.5,0,0,-0.0310693,-0.00579686,-1.57222,0.178103,0.034454,0,0,0,0,0
7501,0,0,0,0,0,-3.55694,-0.734397,-0.594652,-0.113998,-3.55694,-0.734397,5,0,-1.5,0,0,-0.0310693,-0.00579686,-1.57222,0.178542,0.0344401,0,0,0,0,0
7517,0,0,0,0,0,-3.55694,-0.734397,-0.594652,-0.113998,-3.55694,-0.734397,5,0,-1.5,0,0,-0.0309997,-0.00586211,-1.57223,0.178542,0.0344401,0,0,0,0,0
7563,0,0,0,0,0,-3.55694,-0.734397,-0.594652,-0.113998,-3.55694,-0.734397,5,0,-1.5,0,0,-0.0316787,-0.00573152,-1.57221,0.178542,0.0344401,0,0,0,0,0
7596,0,0,0,0,0,-3.55694,-0.734397,-0.594652,-0.113998,-3.55694,-0.734397,5,0,-1.5,0,0,-0.0312873,-0.00580083,-1.57225,0.178542,0.0344401,0,0,0,0,0
7615,0,0,0,0,0,-3.55694,-0.734397,-0.594652,-0.113998,-3.55694,-0.734397,5,0,-1.5,0,0,-0.0311729,-0.00582836,-1.57226,0.178542,0.0344401,0,0,0,0,0
7631,0,0,0,0,0,-3.65815,-0.753771,-0.596236,-0.113911,-3.65815,-0.753771,5,0,-1.5,0,0,-0.0312457,-0.00580316,-1.5723,0.179022,0.0344293,0,0,0,0,0
7646,0,0,0,0,0,-3.65815,-0.753771,-0.596236,-0.113911,-3.65815,-0.753771,5,0,-1.5,0,0,-0.0314112,-0.00577539,-1.57227,0.179022,0.0344293,0,0,0,0,0
7662,0,0,0,0,0,-3.65815,-0.753771,-0.596236,-0.113911,-3.65815,-0.753771,5,0,-1.5,0,0,-0.0315067,-0.00576463,-1.57231,0.179022,0.0344293,0,0,0,0,0
7678,0,0,0,0,0,-3.65815,-0.753771,-0.596236,-0.113911,-3.65815,-0.753771,5,0,-1.5,0,0,-0.0314634,-0.00577473,-1.57229,0.179022,0.0344293,0,0,0,0,0
7694,0,0,0,0,0,-3.65815,-0.753771,-0.596236,-0.113911,-3.65815,-0.753771,5,0,-1.5,0,0,-0.0314634,-0.00577473,-1.57229,0.179022,0.0344293,0,0,0,0,0
7710,0,0,0,0,0,-3.65815,-0.753771,-0.596236,-0.113911,-3.65815,-0.753771,5,0,-1.5,0,0,-0.0312672,-0.00583329,-1.57236,0.179022,0.0344293,0,0,0,0,0
7725,0,0,0,0,0,-3.65815,-0.753771,-0.596236,-0.113911,-3.65815,-0.753771,5,0,-1.5,0,0,-0.0313964,-0.00579449,-1.57236,0.179022,0.0344293,0,0,0,0,0
7741,0,0,0,0,0,-3.65815,-0.753771,-0.596236,-0.113911,-3.65815,-0.753771,5,0,-1.5,0,0,-0.0315853,-0.00574817,-1.57237,0.179022,0.0344293,0,0,0,0,0
7756,0,0,0,0,0,-3.65815,-0.753771,-0.596236,-0.113911,-3.65815,-0.753771,5,0,-1.5,0,0,-0.0315853,-0.00574817,-1.57237,0.179022,0.0344293,0,0,0,0,0
7772,0,0,0,0,0,-3.65815,-0.753771,-0.596236,-0.113911,-3.65815,-0.753771,5,0,-1.5,0,0,-0.0316566,-0.00576479,-1.57235,0.179022,0.0344293,0,0,0,0,0
7788,0,0,0,0,0,-3.65815,-0.753771,-0.596236,-0.113911,-3.65815,-0.753771,5,0,-1.5,0,0,-0.0316566,-0.00576479,-1.57235,0.179022,0.0344293,0,0,0,0,0
7804,0,0,0,0,0,-3.65815,-0.753771,-0.596236,-0.113911,-3.65815,-0.753771,5,0,-1.5,0,0,-0.0312614,-0.00578576,-1.57242,0.179022,0.0344293,0,0,0,0,0
7819,0,0,0,0,0,-3.65815,-0.753771,-0.596236,-0.113911,-3.65815,-0.753771,5,0,-1.5,0,0,-0.0313583,-0.00576052,-1.57242,0.179022,0.0344293,0,0,0,0,0
7837,0,0,0,0,0,-3.65815,-0.753771,-0.596236,-0.113911,-3.65815,-0.753771,5,0,-1.5,0,0,-0.0315419,-0.00573784,-1.57241,0.179022,0.0344293,0,0,0,0,0
7852,0,0,0,0,0,-3.65815,-0.753771,-0.596236,-0.113911,-3.65815,-0.753771,5,0,-1.5,0,0,-0.0316236,-0.00574058,-1.5724,0.179022,0.0344293,0,0,0,0,0
7868,0,0,0,0,0,-3.65815,-0.753771,-0.596236,-0.113911,-3.65815,-0.753771,5,0,-1.5,0,0,-0.031551,-0.00577153,-1.5724,0.179022,0.0344293,0,0,0,0,0
7885,0,0,0,0,0,-3.65815,-0.753771,-0.596236,-0.113911,-3.65815,-0.753771,5,0,-1.5,0,0,-0.0313988,-0.00579779,-1.57243,0.179022,0.0344293,0,0,0,0,0
7900,0,0,0,0,0,-3.86142,-0.792463,-0.599473,-0.113685,-3.86142,-0.792463,5,0,-1.5,0,0,-0.03131,-0.00580718,-1.57245,0.179978,0.0343938,0,0,0,0,0
7915,0,0,0,0,0,-3.86142,-0.792463,-0.599473,-0.113685,-3.86142,-0.792463,5,0,-1.5,0,0,-0.0313682,-0.00578383,-1.57246,0.179978,0.0343938,0,0,0,0,0
7930,0,0,0,0,0,-3.86142,-0.792463,-0.599473,-0.113685,-3.86142,-0.792463,5,0,-1.5,0,0,-0.0313682,-0.00578383,-1.57246,0.179978,0.0343938,0,0,0,0,0
7946,0,0,0,0,0,-3.86142,-0.792463,-0.599473,-0.113685,-3.86142,-0.792463,5,0,-1.5,0,0,-0.0316836,-0.00574837,-1.57244,0.179978,0.0343938,0,0,0,0,0
7961,0,0,0,0,0,-3.86142,-0.792463,-0.599473,-0.113685,-3.86142,-0.792463,5,0,-1.5,0,0,-0.0316039,-0.0057826,-1.57246,0.179978,0.0343938,0,0,0,0,0
7977,0,0,0,0,0,-3.86142,-0.792463,-0.599473,-0.113685,-3.86142,-0.792463,5,0,-1.5,0,0,-0.031479,-0.00579996,-1.57246,0.179978,0.0343938,0,0,0,0,0
7993,0,0,0,0,0,-3.86142,-0.792463,-0.599473,-0.113685,-3.86142,-0.792463,5,0,-1.5,0,0,-0.0314082,-0.00578681,-1.57247,0.179978,0.0343938,0,0,0,0,0
8011,0,0,0,0,0,-3.86142,-0.792463,-0.599473,-0.113685,-3.86142,-0.792463,5,0,-1.5,0,0,-0.0315885,-0.00572678,-1.57248,0.179978,0.0343938,0,0,0,0,0
8027,0,0,0,0,0,-3.86142,-0.792463,-0.599473,-0.113685,-3.86142,-0.792463,5,0,-1.5,0,0,-0.0317697,-0.00573944,-1.57246,0.179978,0.0343938,0,0,0,0,0
8043,0,0,0,0,0,-3.96347,-0.81178,-0.601063,-0.113562,-3.96347,-0.81178,5,0,-1.5,0,0,-0.0317986,-0.00575381,-1.57244,0.180552,0.0343432,0,0,0,0,0
8058,0,0,0,0,0,-3.96347,-0.81178,-0.601063,-0.113562,-3.96347,-0.81178,5,0,-1.5,0,0,-0.0316225,-0.00576724,-1.57246,0.180552,0.0343432,0,0,0,0,0
8074,0,0,0,0,0,-3.96347,-0.81178,-0.601063,-0.113562,-3.96347,-0.81178,5,0,-1.5,0,0,-0.0313692,-0.00577935,-1.57248,0.180552,0.0343432,0,0,0,0,0
8089,0,0,0,0,0,-3.96347,-0.81178,-0.601063,-0.113562,-3.96347,-0.81178,5,0,-1.5,0,0,-0.0313692,-0.00577935,-1.57248,0.180552,0.0343432,0,0,0,0,0
8105,0,0,0,0,0,-3.96347,-0.81178,-0.601063,-0.113562,-3.96347,-0.81178,5,0,-1.5,0,0,-0.0315289,-0.00576764,-1.57249,0.180552,0.0343432,0,0,0,0,0
8121,0,0,0,0,0,-3.96347,-0.81178,-0.601063,-0.113562,-3.96347,-0.81178,5,0,-1.5,0,0,-0.0316776,-0.00576004,-1.57248,0.180552,0.0343432,0,0,0,0,0
8137,0,0,0,0,0,-3.96347,-0.81178,-0.601063,-0.113562,-3.96347,-0.81178,5,0,-1.5,0,0,-0.0317524,-0.0057385,-1.57248,0.180552,0.0343432,0,0,0,0,0
8153,0,0,0,0,0,-3.96347,-0.81178,-0.601063,-0.113562,-3.96347,-0.81178,5,0,-1.5,0,0,-0.0317524,-0.0057385,-1.57248,0.180552,0.0343432,0,0,0,0,0
8168,0,0,0,0,0,-3.96347,-0.81178,-0.601063,-0.113562,-3.96347,-0.81178,5,0,-1.5,0,0,-0.0317524,-0.0057385,-1.57248,0.180552,0.0343432,0,0,0,0,0
8184,0,0,0,0,0,-3.96347,-0.81178,-0.601063,-0.113562,-3.96347,-0.81178,5,0,-1.5,0,0,-0.0315583,-0.00573818,-1.57252,0.180552,0.0343432,0,0,0,0,0
8200,0,0,0,0,0,-3.96347,-0.81178,-0.601063,-0.113562,-3.96347,-0.81178,5,0,-1.5,0,0,-0.0315095,-0.00572424,-1.57252,0.180552,0.0343432,0,0,0,0,0
8216,0,0,0,0,0,-3.96347,-0.81178,-0.601063,-0.113562,-3.96347,-0.81178,5,0,-1.5,0,0,-0.0316149,-0.00573196,-1.57253,0.180552,0.0343432,0,0,0,0,0
8232,0,0,0,0,0,-3.96347,-0.81178,-0.601063,-0.113562,-3.96347,-0.81178,5,0,-1.5,0,0,-0.0315901,-0.00574445,-1.57255,0.180552,0.0343432,0,0,0,0,0
8247,0,0,0,0,0,-3.96347,-0.81178,-0.601063,-0.113562,-3.96347,-0.81178,5,0,-1.5,0,0,-0.0314749,-0.00574016,-1.57257,0.180552,0.0343432,0,0,0,0,0
8263,0,0,0,0,0,-3.96347,-0.81178,-0.601063,-0.113562,-3.96347,-0.81178,5,0,-1.5,0,0,-0.0314201,-0.00571944,-1.57261,0.180552,0.0343432,0,0,0,0,0
8279,0,0,0,0,0,-3.96347,-0.81178,-0.601063,-0.113562,-3.96347,-0.81178,5,0,-1.5,0,0,-0.0314969,-0.00570228,-1.57261,0.180552,0.0343432,0,0,0,0,0
8295,0,0,0,0,0,-3.96347,-0.81178,-0.601063,-0.113562,-3.96347,-0.81178,5,0,-1.5,0,0,-0.0316346,-0.00572263,-1.57259,0.180552,0.0343432,0,0,0,0,0
8311,0,0,0,0,0,-4.16834,-0.850342,-0.603982,-0.11326,-4.16834,-0.850342,5,0,-1.5,0,0,-0.0317542,-0.00571549,-1.57261,0.18138,0.0342788,0,0,0,0,0
8328,0,0,0,0,0,-4.16834,-0.850342,-0.603982,-0.11326,-4.16834,-0.850342,5,0,-1.5,0,0,-0.031731,-0.00569865,-1.57264,0.18138,0.0342788,0,0,0,0,0
8343,0,0,0,0,0,-4.16834,-0.850342,-0.603982,-0.11326,-4.16834,-0.850342,5,0,-1.5,0,0,-0.0316388,-0.00571499,-1.57265,0.18138,0.0342788,0,0,0,0,0
8358,0,0,0,0,0,-4.16834,-0.850342,-0.603982,-0.11326,-4.16834,-0.850342,5,0,-1.5,0,0,-0.0315443,-0.00571297,-1.57265,0.18138,0.0342788,0,0,0,0,0
8372,0,0,0,0,0,-4.16834,-0.850342,-0.603982,-0.11326,-4.16834,-0.850342,5,0,-1.5,0,0,-0.0315008,-0.00573091,-1.57266,0.18138,0.0342788,0,0,0,0,0
8387,0,0,0,0,0,-4.16834,-0.850342,-0.603982,-0.11326,-4.16834,-0.850342,5,0,-1.5,0,0,-0.0315473,-0.00572029,-1.57264,0.18138,0.0342788,0,0,0,0,0
8403,0,0,0,0,0,-4.16834,-0.850342,-0.603982,-0.11326,-4.16834,-0.850342,5,0,-1.5,0,0,-0.0316525,-0.00571057,-1.57265,0.18138,0.0342788,0,0,0,0,0
8419,0,0,0,0,0,-4.16834,-0.850342,-0.603982,-0.11326,-4.16834,-0.850342,5,0,-1.5,0,0,-0.0316982,-0.00570631,-1.57263,0.18138,0.0342788,0,0,0,0,0
8435,0,0,0,0,0,-4.16834,-0.850342,-0.603982,-0.11326,-4.16834,-0.850342,5,0,-1.5,0,0,-0.0316656,-0.00568884,-1.57268,0.18138,0.0342788,0,0,0,0,0
8451,0,0,0,0,0,-4.16834,-0.850342,-0.603982,-0.11326,-4.16834,-0.850342,5,0,-1.5,0,0,-0.0316275,-0.00567396,-1.57268,0.18138,0.0342788,0,0,0,0,0
8466,0,0,0,0,0,-4.16834,-0.850342,-0.603982,-0.11326,-4.16834,-0.850342,5,0,-1.5,0,0,-0.0317223,-0.00567567,-1.57268,0.18138,0.0342788,0,0,0,0,0
8482,0,0,0,0,0,-4.16834,-0.850342,-0.603982,-0.11326,-4.16834,-0.850342,5,0,-1.5,0,0,-0.0317942,-0.00568896,-1.57267,0.18138,0.0342788,0,0,0,0,0
8498,0,0,0,0,0,-4.16834,-0.850342,-0.603982,-0.11326,-4.16834,-0.850342,5,0,-1.5,0,0,-0.0318057,-0.00568461,-1.57269,0.18138,0.0342788,0,0,0,0,0
8514,0,0,0,0,0,-4.16834,-0.850342,-0.603982,-0.11326,-4.16834,-0.850342,5,0,-1.5,0,0,-0.0317679,-0.00567835,-1.57274,0.18138,0.0342788,0,0,0,0,0
8529,0,0,0,0,0,-4.16834,-0.850342,-0.603982,-0.11326,-4.16834,-0.850342,5,0,-1.5,0,0,-0.0317284,-0.00567613,-1.57274,0.18138,0.0342788,0,0,0,0,0
8546,0,0,0,0,0,-4.16834,-0.850342,-0.603982,-0.11326,-4.16834,-0.850342,5,0,-1.5,0,0,-0.031685,-0.00567602,-1.57275,0.18138,0.0342788,0,0,0,0,0
8561,0,0,0,0,0,-4.16834,-0.850342,-0.603982,-0.11326,-4.16834,-0.850342,5,0,-1.5,0,0,-0.0316117,-0.00567965,-1.57276,0.18138,0.0342788,0,0,0,0,0
8577,0,0,0,0,0,-4.16834,-0.850342,-0.603982,-0.11326,-4.16834,-0.850342,5,0,-1.5,0,0,-0.0316117,-0.00567965,-1.57276,0.18138,0.0342788,0,0,0,0,0
8593,0,0,0,0,0,-4.37418,-0.888783,-0.606767,-0.112838,-4.37418,-0.888783,5,0,-1.5,0,0,-0.0317641,-0.00566639,-1.57278,0.182152,0.0341768,0,0,0,0,0
8609,0,0,0,0,0,-4.37418,-0.888783,-0.606767,-0.112838,-4.37418,-0.888783,5,0,-1.5,0,0,-0.0318116,-0.00564296,-1.57277,0.182152,0.0341768,0,0,0,0,0
8624,0,0,0,0,0,-4.37418,-0.888783,-0.606767,-0.112838,-4.37418,-0.888783,5,0,-1.5,0,0,-0.0318376,-0.00561287,-1.57278,0.182152,0.0341768,0,0,0,0,0
8640,0,0,0,0,0,-4.37418,-0.888783,-0.606767,-0.112838,-4.37418,-0.888783,5,0,-1.5,0,0,-0.0318541,-0.00559409,-1.57279,0.182152,0.0341768,0,0,0,0,0
8656,0,0,0,0,0,-4.37418,-0.888783,-0.606767,-0.112838,-4.37418,-0.888783,5,0,-1.5,0,0,-0.0318541,-0.00559409,-1.57279,0.182152,0.0341768,0,0,0,0,0
8671,0,0,0,0,0,-4.37418,-0.888783,-0.606767,-0.112838,-4.37418,-0.888783,5,0,-1.5,0,0,-0.031803,-0.00562397,-1.5728,0.182152,0.0341768,0,0,0,0,0
8687,0,0,0,0,0,-4.37418,-0.888783,-0.606767,-0.112838,-4.37418,-0.888783,5,0,-1.5,0,0,-0.0317675,-0.0056074,-1.57281,0.182152,0.0341768,0,0,0,0,0
8703,0,0,0,0,0,-4.37418,-0.888783,-0.606767,-0.112838,-4.37418,-0.888783,5,0,-1.5,0,0,-0.0317797,-0.0055865,-1.57282,0.182152,0.0341768,0,0,0,0,0
8718,0,0,0,0,0,-4.37418,-0.888783,-0.606767,-0.112838,-4.37418,-0.888783,5,0,-1.5,0,0,-0.0317797,-0.0055865,-1.57282,0.182152,0.0341768,0,0,0,0,0
8734,0,0,0,0,0,-4.47745,-0.90794,-0.608204,-0.11253,-4.47745,-0.90794,5,0,-1.5,0,0,-0.0318384,-0.00559308,-1.57284,0.182602,0.0340774,0,0,0,0,0
8750,0,0,0,0,0,-4.47745,-0.90794,-0.608204,-0.11253,-4.47745,-0.90794,5,0,-1.5,0,0,-0.0318351,-0.00558618,-1.57285,0.182602,0.0340774,0,0,0,0,0
8767,0,0,0,0,0,-4.47745,-0.90794,-0.608204,-0.11253,-4.47745,-0.90794,5,0,-1.5,0,0,-0.0318204,-0.00558647,-1.57285,0.182602,0.0340774,0,0,0,0,0
8783,0,0,0,0,0,-4.47745,-0.90794,-0.608204,-0.11253,-4.47745,-0.90794,5,0,-1.5,0,0,-0.0319035,-0.00554564,-1.57288,0.182602,0.0340774,0,0,0,0,0
8797,0,0,0,0,0,-4.47745,-0.90794,-0.608204,-0.11253,-4.47745,-0.90794,5,0,-1.5,0,0,-0.0319682,-0.0055421,-1.57289,0.182602,0.0340774,0,0,0,0,0
8812,0,0,0,0,0,-4.47745,-0.90794,-0.608204,-0.11253,-4.47745,-0.90794,5,0,-1.5,0,0,-0.0319496,-0.00554104,-1.5729,0.182602,0.0340774,0,0,0,0,0
8827,0,0,0,0,0,-4.47745,-0.90794,-0.608204,-0.11253,-4.47745,-0.90794,5,0,-1.5,0,0,-0.0318961,-0.00555115,-1.57291,0.182602,0.0340774,0,0,0,0,0
8843,0,0,0,0,0,-4.47745,-0.90794,-0.608204,-0.11253,-4.47745,-0.90794,5,0,-1.5,0,0,-0.031857,-0.00556619,-1.57291,0.182602,0.0340774,0,0,0,0,0
8858,0,0,0,0,0,-4.47745,-0.90794,-0.608204,-0.11253,-4.47745,-0.90794,5,0,-1.5,0,0,-0.0318527,-0.00556845,-1.57292,0.182602,0.0340774,0,0,0,0,0
8874,0,0,0,0,0,-4.58097,-0.927039,-0.609633,-0.112154,-4.58097,-0.927039,5,0,-1.5,0,0,-0.0318482,-0.00556466,-1.57293,0.183019,0.0339819,0,0,0,0,0
8890,0,0,0,0,0,-4.58097,-0.927039,-0.609633,-0.112154,-4.58097,-0.927039,5,0,-1.5,0,0,-0.0318482,-0.00556466,-1.57293,0.183019,0.0339819,0,0,0,0,0
8905,0,0,0,0,0,-4.58097,-0.927039,-0.609633,-0.112154,-4.58097,-0.927039,5,0,-1.5,0,0,-0.0319148,-0.00554632,-1.57294,0.183019,0.0339819,0,0,0,0,0
8921,0,0,0,0,0,-4.58097,-0.927039,-0.609633,-0.112154,-4.58097,-0.927039,5,0,-1.5,0,0,-0.0319148,-0.00554632,-1.57294,0.183019,0.0339819,0,0,0,0,0
8937,0,0,0,0,0,-4.58097,-0.927039,-0.609633,-0.112154,-4.58097,-0.927039,5,0,-1.5,0,0,-0.0319688,-0.00557351,-1.57296,0.183019,0.0339819,0,0,0,0,0
8952,0,0,0,0,0,-4.58097,-0.927039,-0.609633,-0.112154,-4.58097,-0.927039,5,0,-1.5,0,0,-0.0319204,-0.00555442,-1.57298,0.183019,0.0339819,0,0,0,0,0
8968,0,0,0,0,0,-4.58097,-0.927039,-0.609633,-0.112154,-4.58097,-0.927039,5,0,-1.5,0,0,-0.0319178,-0.0055333,-1.573,0.183019,0.0339819,0,0,0,0,0
8984,0,0,0,0,0,-4.58097,-0.927039,-0.609633,-0.112154,-4.58097,-0.927039,5,0,-1.5,0,0,-0.031965,-0.0055253,-1.573,0.183019,0.0339819,0,0,0,0,0
8999,0,0,0,0,0,-4.58097,-0.927039,-0.609633,-0.112154,-4.58097,-0.927039,5,0,-1.5,0,0,-0.0320166,-0.00551609,-1.573,0.183019,0.0339819,0,0,0,0,0
9015,0,0,0,0,0,-4.68472,-0.946074,-0.611036,-0.111781,-4.68472,-0.946074,5,0,-1.5,0,0,-0.031994,-0.00551709,-1.573,0.183459,0.0338765,0,0,0,0,0
9031,0,0,0,0,0,-4.68472,-0.946074,-0.611036,-0.111781,-4.68472,-0.946074,5,0,-1.5,0,0,-0.0319418,-0.00550752,-1.57305,0.183459,0.0338765,0,0,0,0,0
9047,0,0,0,0,0,-4.68472,-0.946074,-0.611036,-0.111781,-4.68472,-0.946074,5,0,-1.5,0,0,-0.0319303,-0.00551168,-1.57308,0.183459,0.0338765,0,0,0,0,0
9062,0,0,0,0,0,-4.68472,-0.946074,-0.611036,-0.111781,-4.68472,-0.946074,5,0,-1.5,0,0,-0.0318855,-0.00550923,-1.57308,0.183459,0.0338765,0,0,0,0,0
9078,0,0,0,0,0,-4.68472,-0.946074,-0.611036,-0.111781,-4.68472,-0.946074,5,0,-1.5,0,0,-0.0318642,-0.00551957,-1.57309,0.183459,0.0338765,0,0,0,0,0
9094,0,0,0,0,0,-4.68472,-0.946074,-0.611036,-0.111781,-4.68472,-0.946074,5,0,-1.5,0,0,-0.0319133,-0.00552319,-1.57308,0.183459,0.0338765,0,0,0,0,0
9109,0,0,0,0,0,-4.68472,-0.946074,-0.611036,-0.111781,-4.68472,-0.946074,5,0,-1.5,0,0,-0.0320617,-0.00550708,-1.57308,0.183459,0.0338765,0,0,0,0,0
9125,0,0,0,0,0,-4.68472,-0.946074,-0.611036,-0.111781,-4.68472,-0.946074,5,0,-1.5,0,0,-0.0322566,-0.00548717,-1.57308,0.183459,0.0338765,0,0,0,0,0
9140,0,0,0,0,0,-4.78872,-0.965042,-0.612441,-0.111366,-4.78872,-0.965042,5,0,-1.5,0,0,-0.0323832,-0.00544095,-1.5731,0.183954,0.0337562,0,0,0,0,0
9156,0,0,0,0,0,-4.78872,-0.965042,-0.612441,-0.111366,-4.78872,-0.965042,5,0,-1.5,0,0,-0.0321673,-0.00543931,-1.57312,0.183954,0.0337562,0,0,0,0,0
9171,0,0,0,0,0,-4.78872,-0.965042,-0.612441,-0.111366,-4.78872,-0.965042,5,0,-1.5,0,0,-0.0319078,-0.00549481,-1.57313,0.183954,0.0337562,0,0,0,0,0
9187,0,0,0,0,0,-4.78872,-0.965042,-0.612441,-0.111366,-4.78872,-0.965042,5,0,-1.5,0,0,-0.0317055,-0.0055301,-1.57316,0.183954,0.0337562,0,0,0,0,0
9204,0,0,0,0,0,-4.78872,-0.965042,-0.612441,-0.111366,-4.78872,-0.965042,5,0,-1.5,0,0,-0.0316368,-0.00555117,-1.57316,0.183954,0.0337562,0,0,0,0,0
9220,0,0,0,0,0,-4.78872,-0.965042,-0.612441,-0.111366,-4.78872,-0.965042,5,0,-1.5,0,0,-0.0316368,-0.00555117,-1.57316,0.183954,0.0337562,0,0,0,0,0
9235,0,0,0,0,0,-4.78872,-0.965042,-0.612441,-0.111366,-4.78872,-0.965042,5,0,-1.5,0,0,-0.0316368,-0.00555117,-1.57316,0.183954,0.0337562,0,0,0,0,0
9250,0,0,0,0,0,-4.78872,-0.965042,-0.612441,-0.111366,-4.78872,-0.965042,5,0,-1.5,0,0,-0.0320653,-0.00548568,-1.57317,0.183954,0.0337562,0,0,0,0,0
9265,0,0,0,0,0,-4.78872,-0.965042,-0.612441,-0.111366,-4.78872,-0.965042,5,0,-1.5,0,0,-0.0321849,-0.00546775,-1.57318,0.183954,0.0337562,0,0,0,0,0
9281,0,0,0,0,0,-4.89294,-0.983937,-0.613716,-0.110953,-4.89294,-0.983937,5,0,-1.5,0,0,-0.0322341,-0.00546756,-1.57318,0.184279,0.0336591,0,0,0,0,0
9296,0,0,0,0,0,-4.89294,-0.983937,-0.613716,-0.110953,-4.89294,-0.983937,5,0,-1.5,0,0,-0.032231,-0.00545103,-1.57319,0.184279,0.0336591,0,0,0,0,0
9312,0,0,0,0,0,-4.89294,-0.983937,-0.613716,-0.110953,-4.89294,-0.983937,5,0,-1.5,0,0,-0.0322168,-0.00545061,-1.57319,0.184279,0.0336591,0,0,0,0,0
9328,0,0,0,0,0,-4.89294,-0.983937,-0.613716,-0.110953,-4.89294,-0.983937,5,0,-1.5,0,0,-0.0321624,-0.00545583,-1.57321,0.184279,0.0336591,0,0,0,0,0
9344,0,0,0,0,0,-4.89294,-0.983937,-0.613716,-0.110953,-4.89294,-0.983937,5,0,-1.5,0,0,-0.0320767,-0.00545912,-1.57322,0.184279,0.0336591,0,0,0,0,0
9359,0,0,0,0,0,-4.89294,-0.983937,-0.613716,-0.110953,-4.89294,-0.983937,5,0,-1.5,0,0,-0.0319683,-0.00549703,-1.57323,0.184279,0.0336591,0,0,0,0,0
9375,0,0,0,0,0,-4.89294,-0.983937,-0.613716,-0.110953,-4.89294,-0.983937,5,0,-1.5,0,0,-0.0318488,-0.00549761,-1.57325,0.184279,0.0336591,0,0,0,0,0
9390,0,0,0,0,0,-4.89294,-0.983937,-0.613716,-0.110953,-4.89294,-0.983937,5,0,-1.5,0,0,-0.0318488,-0.00549761,-1.57325,0.184279,0.0336591,0,0,0,0,0
9406,0,0,0,0,0,-4.89294,-0.983937,-0.613716,-0.110953,-4.89294,-0.983937,5,0,-1.5,0,0,-0.0318488,-0.00549761,-1.57325,0.184279,0.0336591,0,0,0,0,0
9422,0,0,0,0,0,-4.99741,-1.00276,-0.614978,-0.11054,-4.99741,-1.00276,5,0,-1.5,0,0,-0.0321405,-0.00546614,-1.57325,0.184582,0.0335587,0,0,0,0,0
9437,0,0,0,0,0,-4.99741,-1.00276,-0.614978,-0.11054,-4.99741,-1.00276,5,0,-1.5,0,0,-0.0322569,-0.00544826,-1.57325,0.184582,0.0335587,0,0,0,0,0
9453,0,0,0,0,0,-4.99741,-1.00276,-0.614978,-0.11054,-4.99741,-1.00276,5,0,-1.5,0,0,-0.0322846,-0.00544645,-1.57326,0.184582,0.0335587,0,0,0,0,0
9468,0,0,0,0,0,-4.99741,-1.00276,-0.614978,-0.11054,-4.99741,-1.00276,5,0,-1.5,0,0,-0.0322698,-0.00543195,-1.57326,0.184582,0.0335587,0,0,0,0,0
9484,0,0,0,0,0,-4.99741,-1.00276,-0.614978,-0.11054,-4.99741,-1.00276,5,0,-1.5,0,0,-0.032215,-0.00543612,-1.57328,0.184582,0.0335587,0,0,0,0,0
9500,0,0,0,0,0,-4.99741,-1.00276,-0.614978,-0.11054,-4.99741,-1.00276,5,0,-1.5,0,0,-0.0320925,-0.00543101,-1.5733,0.184582,0.0335587,0,0,0,0,0
9516,0,0,0,0,0,-4.99741,-1.00276,-0.614978,-0.11054,-4.99741,-1.00276,5,0,-1.5,0,0,-0.0320607,-0.00543883,-1.5733,0.184582,0.0335587,0,0,0,0,0
9532,0,0,0,0,0,-4.99741,-1.00276,-0.614978,-0.11054,-4.99741,-1.00276,5,0,-1.5,0,0,-0.0320389,-0.00543802,-1.57331,0.184582,0.0335587,0,0,0,0,0
9547,0,0,0,0,0,-4.99741,-1.00276,-0.614978,-0.11054,-4.99741,-1.00276,5,0,-1.5,0,0,-0.0320326,-0.00543972,-1.57332,0.184582,0.0335587,0,0,0,0,0
9563,0,0,0,0,0,-5.10207,-1.02152,-0.616302,-0.110107,-5.10207,-1.02152,5,0,-1.5,0,0,-0.0320733,-0.0054339,-1.57332,0.184969,0.0334355,0,0,0,0,0
9579,0,0,0,0,0,-5.10207,-1.02152,-0.616302,-0.110107,-5.10207,-1.02152,5,0,-1.5,0,0,-0.0321307,-0.0054237,-1.57333,0.184969,0.0334355,0,0,0,0,0
9594,0,0,0,0,0,-5.10207,-1.02152,-0.616302,-0.110107,-5.10207,-1.02152,5,0,-1.5,0,0,-0.0322054,-0.00541897,-1.57332,0.184969,0.0334355,0,0,0,0,0
9610,0,0,0,0,0,-5.10207,-1.02152,-0.616302,-0.110107,-5.10207,-1.02152,5,0,-1.5,0,0,-0.0322853,-0.0054232,-1.57333,0.184969,0.0334355,0,0,0,0,0
9625,0,0,0,0,0,-5.10207,-1.02152,-0.616302,-0.110107,-5.10207,-1.02152,5,0,-1.5,0,0,-0.0322853,-0.0054232,-1.57333,0.184969,0.0334355,0,0,0,0,0
9640,0,0,0,0,0,-5.10207,-1.02152,-0.616302,-0.110107,-5.10207,-1.02152,5,0,-1.5,0,0,-0.032197,-0.00540891,-1.57337,0.184969,0.0334355,0,0,0,0,0
9657,0,0,0,0,0,-5.10207,-1.02152,-0.616302,-0.110107,-5.10207,-1.02152,5,0,-1.5,0,0,-0.0321208,-0.00541133,-1.57339,0.184969,0.0334355,0,0,0,0,0
9672,0,0,0,0,0,-5.10207,-1.02152,-0.616302,-0.110107,-5.10207,-1.02152,5,0,-1.5,0,0,-0.032106,-0.00541205,-1.5734,0.184969,0.0334355,0,0,0,0,0
9688,0,0,0,0,0,-5.10207,-1.02152,-0.616302,-0.110107,-5.10207,-1.02152,5,0,-1.5,0,0,-0.0321448,-0.00540908,-1.57342,0.184969,0.0334355,0,0,0,0,0
9702,0,0,0,0,0,-5.20694,-1.0402,-0.617561,-0.109666,-5.20694,-1.0402,5,0,-1.5,0,0,-0.0322138,-0.00540066,-1.57343,0.185355,0.0333205,0,0,0,0,0
9718,0,0,0,0,0,-5.20694,-1.0402,-0.617561,-0.109666,-5.20694,-1.0402,5,0,-1.5,0,0,-0.0322364,-0.00539727,-1.57343,0.185355,0.0333205,0,0,0,0,0
9734,0,0,0,0,0,-5.20694,-1.0402,-0.617561,-0.109666,-5.20694,-1.0402,5,0,-1.5,0,0,-0.0322844,-0.00538387,-1.57345,0.185355,0.0333205,0,0,0,0,0
9749,0,0,0,0,0,-5.20694,-1.0402,-0.617561,-0.109666,-5.20694,-1.0402,5,0,-1.5,0,0,-0.0323028,-0.00537575,-1.57347,0.185355,0.0333205,0,0,0,0,0
9765,0,0,0,0,0,-5.20694,-1.0402,-0.617561,-0.109666,-5.20694,-1.0402,5,0,-1.5,0,0,-0.0323096,-0.00536225,-1.57348,0.185355,0.0333205,0,0,0,0,0
9781,0,0,0,0,0,-5.20694,-1.0402,-0.617561,-0.109666,-5.20694,-1.0402,5,0,-1.5,0,0,-0.0323194,-0.0053666,-1.57349,0.185355,0.0333205,0,0,0,0,0
9797,0,0,0,0,0,-5.20694,-1.0402,-0.617561,-0.109666,-5.20694,-1.0402,5,0,-1.5,0,0,-0.0323099,-0.0053768,-1.5735,0.185355,0.0333205,0,0,0,0,0
9813,0,0,0,0,0,-5.20694,-1.0402,-0.617561,-0.109666,-5.20694,-1.0402,5,0,-1.5,0,0,-0.0322791,-0.00538429,-1.5735,0.185355,0.0333205,0,0,0,0,0
9828,0,0,0,0,0,-5.20694,-1.0402,-0.617561,-0.109666,-5.20694,-1.0402,5,0,-1.5,0,0,-0.0322396,-0.00538299,-1.57351,0.185355,0.0333205,0,0,0,0,0
9844,0,0,0,0,0,-5.31205,-1.0588,-0.61887,-0.109198,-5.31205,-1.0588,5,0,-1.5,0,0,-0.0322175,-0.00539002,-1.57351,0.185752,0.0331958,0,0,0,0,0
9860,0,0,0,0,0,-5.31205,-1.0588,-0.61887,-0.109198,-5.31205,-1.0588,5,0,-1.5,0,0,-0.0322778,-0.00537782,-1.57353,0.185752,0.0331958,0,0,0,0,0
9876,0,0,0,0,0,-5.31205,-1.0588,-0.61887,-0.109198,-5.31205,-1.0588,5,0,-1.5,0,0,-0.0323498,-0.00537227,-1.57353,0.185752,0.0331958,0,0,0,0,0
9891,0,0,0,0,0,-5.31205,-1.0588,-0.61887,-0.109198,-5.31205,-1.0588,5,0,-1.5,0,0,-0.0323972,-0.00537498,-1.57353,0.185752,0.0331958,0,0,0,0,0
9906,0,0,0,0,0,-5.31205,-1.0588,-0.61887,-0.109198,-5.31205,-1.0588,5,0,-1.5,0,0,-0.032405,-0.00537286,-1.57353,0.185752,0.0331958,0,0,0,0,0
9922,0,0,0,0,0,-5.31205,-1.0588,-0.61887,-0.109198,-5.31205,-1.0588,5,0,-1.5,0,0,-0.0323592,-0.00535424,-1.57354,0.185752,0.0331958,0,0,0,0,0
9938,0,0,0,0,0,-5.31205,-1.0588,-0.61887,-0.109198,-5.31205,-1.0588,5,0,-1.5,0,0,-0.0323183,-0.00536857,-1.57355,0.185752,0.0331958,0,0,0,0,0
9953,0,0,0,0,0,-5.31205,-1.0588,-0.61887,-0.109198,-5.31205,-1.0588,5,0,-1.5,0,0,-0.0323183,-0.00536857,-1.57355,0.185752,0.0331958,0,0,0,0,0
9969,0,0,0,0,0,-5.41736,-1.07733,-0.620138,-0.108753,-5.41736,-1.07733,5,0,-1.5,0,0,-0.0323365,-0.00536733,-1.57357,0.186139,0.0330764,0,0,0,0,0
9985,0,0,0,0,0,-5.41736,-1.07733,-0.620138,-0.108753,-5.41736,-1.07733,5,0,-1.5,0,0,-0.0324817,-0.00530723,-1.57359,0.186139,0.0330764,0,0,0,0,0
10001,0,0,0,0,0,-5.41736,-1.07733,-0.620138,-0.108753,-5.41736,-1.07733,5,0,-1.5,0,0,-0.0325144,-0.00530365,-1.57358,0.186139,0.0330764,0,0,0,0,0
10016,0,0,0,0,0,-5.41736,-1.07733,-0.620138,-0.108753,-5.41736,-1.07733,5,0,-1.5,0,0,-0.0325144,-0.00530365,-1.57358,0.186139,0.0330764,0,0,0,0,0
10032,0,0,0,0,0,-5.41736,-1.07733,-0.620138,-0.108753,-5.41736,-1.07733,5,0,-1.5,0,0,-0.0325144,-0.00530365,-1.57358,0.186139,0.0330764,0,0,0,0,0
10048,0,0,0,0,0,-5.41736,-1.07733,-0.620138,-0.108753,-5.41736,-1.07733,5,0,-1.5,0,0,-0.0322721,-0.00530016,-1.57361,0.186139,0.0330764,0,0,0,0,0
10063,0,0,0,0,0,-5.41736,-1.07733,-0.620138,-0.108753,-5.41736,-1.07733,5,0,-1.5,0,0,-0.0322845,-0.00529116,-1.57363,0.186139,0.0330764,0,0,0,0,0
10079,0,0,0,0,0,-5.41736,-1.07733,-0.620138,-0.108753,-5.41736,-1.07733,5,0,-1.5,0,0,-0.0323758,-0.00526704,-1.57363,0.186139,0.0330764,0,0,0,0,0
10095,0,0,0,0,0,-5.41736,-1.07733,-0.620138,-0.108753,-5.41736,-1.07733,5,0,-1.5,0,0,-0.0324436,-0.00524719,-1.57366,0.186139,0.0330764,0,0,0,0,0
10110,0,0,0,0,0,-5.52289,-1.09577,-0.621431,-0.108211,-5.52289,-1.09577,5,0,-1.5,0,0,-0.0324463,-0.00522855,-1.57367,0.186534,0.0329041,0,0,0,0,0
10125,0,0,0,0,0,-5.52289,-1.09577,-0.621431,-0.108211,-5.52289,-1.09577,5,0,-1.5,0,0,-0.0323337,-0.00525115,-1.5737,0.186534,0.0329041,0,0,0,0,0
10139,0,0,0,0,0,-5.52289,-1.09577,-0.621431,-0.108211,-5.52289,-1.09577,5,0,-1.5,0,0,-0.0323426,-0.00525898,-1.5737,0.186534,0.0329041,0,0,0,0,0
10155,0,0,0,0,0,-5.52289,-1.09577,-0.621431,-0.108211,-5.52289,-1.09577,5,0,-1.5,0,0,-0.0324289,-0.00523374,-1.57371,0.186534,0.0329041,0,0,0,0,0
10171,0,0,0,0,0,-5.52289,-1.09577,-0.621431,-0.108211,-5.52289,-1.09577,5,0,-1.5,0,0,-0.0325598,-0.00520534,-1.57373,0.186534,0.0329041,0,0,0,0,0
10187,0,0,0,0,0,-5.52289,-1.09577,-0.621431,-0.108211,-5.52289,-1.09577,5,0,-1.5,0,0,-0.0325598,-0.00520534,-1.57373,0.186534,0.0329041,0,0,0,0,0
10202,0,0,0,0,0,-5.52289,-1.09577,-0.621431,-0.108211,-5.52289,-1.09577,5,0,-1.5,0,0,-0.0325991,-0.00518276,-1.57376,0.186534,0.0329041,0,0,0,0,0
10218,0,0,0,0,0,-5.52289,-1.09577,-0.621431,-0.108211,-5.52289,-1.09577,5,0,-1.5,0,0,-0.0322616,-0.00522427,-1.57377,0.186534,0.0329041,0,0,0,0,0
10234,0,0,0,0,0,-5.52289,-1.09577,-0.621431,-0.108211,-5.52289,-1.09577,5,0,-1.5,0,0,-0.0322616,-0.00522427,-1.57377,0.186534,0.0329041,0,0,0,0,0
10250,0,0,0,0,0,-5.62865,-1.11411,-0.62267,-0.107588,-5.62865,-1.11411,5,0,-1.5,0,0,-0.0322052,-0.00521676,-1.57379,0.186814,0.0327468,0,0,0,0,0
10265,0,0,0,0,0,-5.62865,-1.11411,-0.62267,-0.107588,-5.62865,-1.11411,5,0,-1.5,0,0,-0.0323337,-0.00520046,-1.5738,0.186814,0.0327468,0,0,0,0,0
10281,0,0,0,0,0,-5.62865,-1.11411,-0.62267,-0.107588,-5.62865,-1.11411,5,0,-1.5,0,0,-0.032464,-0.00517084,-1.57379,0.186814,0.0327468,0,0,0,0,0
10297,0,0,0,0,0,-5.62865,-1.11411,-0.62267,-0.107588,-5.62865,-1.11411,5,0,-1.5,0,0,-0.0325079,-0.00516223,-1.57379,0.186814,0.0327468,0,0,0,0,0
10313,0,0,0,0,0,-5.62865,-1.11411,-0.62267,-0.107588,-5.62865,-1.11411,5,0,-1.5,0,0,-0.0324511,-0.00517017,-1.5738,0.186814,0.0327468,0,0,0,0,0
10328,0,0,0,0,0,-5.62865,-1.11411,-0.62267,-0.107588,-5.62865,-1.11411,5,0,-1.5,0,0,-0.0323879,-0.00519219,-1.57381,0.186814,0.0327468,0,0,0,0,0
10344,0,0,0,0,0,-5.62865,-1.11411,-0.62267,-0.107588,-5.62865,-1.11411,5,0,-1.5,0,0,-0.0324868,-0.00517118,-1.57384,0.186814,0.0327468,0,0,0,0,0
10359,0,0,0,0,0,-5.62865,-1.11411,-0.62267,-0.107588,-5.62865,-1.11411,5,0,-1.5,0,0,-0.0326373,-0.0051339,-1.57384,0.186814,0.0327468,0,0,0,0,0
10375,0,0,0,0,0,-5.62865,-1.11411,-0.62267,-0.107588,-5.62865,-1.11411,5,0,-1.5,0,0,-0.0326738,-0.00511162,-1.57384,0.186814,0.0327468,0,0,0,0,0
10391,0,0,0,0,0,-5.7346,-1.13235,-0.623813,-0.106945,-5.7346,-1.13235,5,0,-1.5,0,0,-0.0325089,-0.00515143,-1.57384,0.187272,0.0325432,0,0,0,0,0
10406,0,0,0,0,0,-5.7346,-1.13235,-0.623813,-0.106945,-5.7346,-1.13235,5,0,-1.5,0,0,-0.0321919,-0.00518004,-1.57388,0.187272,0.0325432,0,0,0,0,0
10422,0,0,0,0,0,-5.7346,-1.13235,-0.623813,-0.106945,-5.7346,-1.13235,5,0,-1.5,0,0,-0.0321919,-0.00518004,-1.57388,0.187272,0.0325432,0,0,0,0,0
10438,0,0,0,0,0,-5.7346,-1.13235,-0.623813,-0.106945,-5.7346,-1.13235,5,0,-1.5,0,0,-0.0319205,-0.00522043,-1.57389,0.187272,0.0325432,0,0,0,0,0
10453,0,0,0,0,0,-5.7346,-1.13235,-0.623813,-0.106945,-5.7346,-1.13235,5,0,-1.5,0,0,-0.0319205,-0.00522043,-1.57389,0.187272,0.0325432,0,0,0,0,0
10469,0,0,0,0,0,-5.7346,-1.13235,-0.623813,-0.106945,-5.7346,-1.13235,5,0,-1.5,0,0,-0.0319205,-0.00522043,-1.57389,0.187272,0.0325432,0,0,0,0,0
10485,0,0,0,0,0,-5.7346,-1.13235,-0.623813,-0.106945,-5.7346,-1.13235,5,0,-1.5,0,0,-0.0328266,-0.00508596,-1.57387,0.187272,0.0325432,0,0,0,0,0
10500,0,0,0,0,0,-5.7346,-1.13235,-0.623813,-0.106945,-5.7346,-1.13235,5,0,-1.5,0,0,-0.0326294,-0.00512372,-1.57388,0.187272,0.0325432,0,0,0,0,0
10516,0,0,0,0,0,-5.7346,-1.13235,-0.623813,-0.106945,-5.7346,-1.13235,5,0,-1.5,0,0,-0.0323753,-0.00515273,-1.5739,0.187272,0.0325432,0,0,0,0,0
10532,0,0,0,0,0,-5.8407,-1.15048,-0.624838,-0.106312,-5.8407,-1.15048,5,0,-1.5,0,0,-0.0322464,-0.00514659,-1.57392,0.187489,0.0323835,0,0,0,0,0
10547,0,0,0,0,0,-5.8407,-1.15048,-0.624838,-0.106312,-5.8407,-1.15048,5,0,-1.5,0,0,-0.0322751,-0.00513898,-1.57394,0.187489,0.0323835,0,0,0,0,0
10561,0,0,0,0,0,-5.8407,-1.15048,-0.624838,-0.106312,-5.8407,-1.15048,5,0,-1.5,0,0,-0.032406,-0.00512517,-1.57394,0.187489,0.0323835,0,0,0,0,0
10577,0,0,0,0,0,-5.8407,-1.15048,-0.624838,-0.106312,-5.8407,-1.15048,5,0,-1.5,0,0,-0.0324596,-0.00512391,-1.57394,0.187489,0.0323835,0,0,0,0,0
10591,0,0,0,0,0,-5.8407,-1.15048,-0.624838,-0.106312,-5.8407,-1.15048,5,0,-1.5,0,0,-0.0324596,-0.00512391,-1.57394,0.187489,0.0323835,0,0,0,0,0
10607,0,0,0,0,0,-5.8407,-1.15048,-0.624838,-0.106312,-5.8407,-1.15048,5,0,-1.5,0,0,-0.0322494,-0.00519096,-1.57398,0.187489,0.0323835,0,0,0,0,0
10623,0,0,0,0,0,-5.8407,-1.15048,-0.624838,-0.106312,-5.8407,-1.15048,5,0,-1.5,0,0,-0.0325871,-0.00515373,-1.57397,0.187489,0.0323835,0,0,0,0,0
10639,0,0,0,0,0,-5.8407,-1.15048,-0.624838,-0.106312,-5.8407,-1.15048,5,0,-1.5,0,0,-0.0330128,-0.00508284,-1.57398,0.187489,0.0323835,0,0,0,0,0
10655,0,0,0,0,0,-5.8407,-1.15048,-0.624838,-0.106312,-5.8407,-1.15048,5,0,-1.5,0,0,-0.0331638,-0.00504698,-1.57396,0.187489,0.0323835,0,0,0,0,0
10670,0,0,0,0,0,-5.94699,-1.1685,-0.625859,-0.105707,-5.94699,-1.1685,5,0,-1.5,0,0,-0.0329123,-0.00509321,-1.57399,0.18798,0.0321957,0,0,0,0,0
10686,0,0,0,0,0,-5.94699,-1.1685,-0.625859,-0.105707,-5.94699,-1.1685,5,0,-1.5,0,0,-0.0323531,-0.00519134,-1.57402,0.18798,0.0321957,0,0,0,0,0
10702,0,0,0,0,0,-5.94699,-1.1685,-0.625859,-0.105707,-5.94699,-1.1685,5,0,-1.5,0,0,-0.0318392,-0.00525739,-1.57406,0.18798,0.0321957,0,0,0,0,0
10717,0,0,0,0,0,-5.94699,-1.1685,-0.625859,-0.105707,-5.94699,-1.1685,5,0,-1.5,0,0,-0.0319916,-0.00522116,-1.57408,0.18798,0.0321957,0,0,0,0,0
10732,0,0,0,0,0,-5.94699,-1.1685,-0.625859,-0.105707,-5.94699,-1.1685,5,0,-1.5,0,0,-0.0325679,-0.00512511,-1.57407,0.18798,0.0321957,0,0,0,0,0
10748,0,0,0,0,0,-5.94699,-1.1685,-0.625859,-0.105707,-5.94699,-1.1685,5,0,-1.5,0,0,-0.0330598,-0.00506048,-1.57406,0.18798,0.0321957,0,0,0,0,0
10764,0,0,0,0,0,-5.94699,-1.1685,-0.625859,-0.105707,-5.94699,-1.1685,5,0,-1.5,0,0,-0.0331909,-0.00504439,-1.57406,0.18798,0.0321957,0,0,0,0,0
10779,0,0,0,0,0,-5.94699,-1.1685,-0.625859,-0.105707,-5.94699,-1.1685,5,0,-1.5,0,0,-0.0329137,-0.00509946,-1.57409,0.18798,0.0321957,0,0,0,0,0
10795,0,0,0,0,0,-6.05349,-1.18642,-0.626925,-0.105152,-6.05349,-1.18642,5,0,-1.5,0,0,-0.0325161,-0.00514483,-1.57414,0.188118,0.0320938,0,0,0,0,0
10811,0,0,0,0,0,-6.05349,-1.18642,-0.626925,-0.105152,-6.05349,-1.18642,5,0,-1.5,0,0,-0.0322925,-0.00517217,-1.57416,0.188118,0.0320938,0,0,0,0,0
10826,0,0,0,0,0,-6.05349,-1.18642,-0.626925,-0.105152,-6.05349,-1.18642,5,0,-1.5,0,0,-0.0325949,-0.00510123,-1.57417,0.188118,0.0320938,0,0,0,0,0
10842,0,0,0,0,0,-6.05349,-1.18642,-0.626925,-0.105152,-6.05349,-1.18642,5,0,-1.5,0,0,-0.0327603,-0.00507116,-1.57417,0.188118,0.0320938,0,0,0,0,0
10857,0,0,0,0,0,-6.05349,-1.18642,-0.626925,-0.105152,-6.05349,-1.18642,5,0,-1.5,0,0,-0.0327268,-0.00507805,-1.57417,0.188118,0.0320938,0,0,0,0,0
10873,0,0,0,0,0,-6.05349,-1.18642,-0.626925,-0.105152,-6.05349,-1.18642,5,0,-1.5,0,0,-0.0324858,-0.00511466,-1.5742,0.188118,0.0320938,0,0,0,0,0
10888,0,0,0,0,0,-6.05349,-1.18642,-0.626925,-0.105152,-6.05349,-1.18642,5,0,-1.5,0,0,-0.0322515,-0.00515903,-1.57421,0.188118,0.0320938,0,0,0,0,0
10904,0,0,0,0,0,-6.05349,-1.18642,-0.626925,-0.105152,-6.05349,-1.18642,5,0,-1.5,0,0,-0.0322114,-0.00515305,-1.57424,0.188118,0.0320938,0,0,0,0,0
10920,0,0,0,0,0,-6.05349,-1.18642,-0.626925,-0.105152,-6.05349,-1.18642,5,0,-1.5,0,0,-0.0324526,-0.00512707,-1.57424,0.188118,0.0320938,0,0,0,0,0
10935,0,0,0,0,0,-6.05349,-1.18642,-0.626925,-0.105152,-6.05349,-1.18642,5,0,-1.5,0,0,-0.0327882,-0.00506876,-1.57422,0.188118,0.0320938,0,0,0,0,0
10951,0,0,0,0,0,-6.16014,-1.20425,-0.627792,-0.1046,-6.16014,-1.20425,5,0,-1.5,0,0,-0.032803,-0.00508831,-1.57423,0.188434,0.0319322,0,0,0,0,0
10966,0,0,0,0,0,-6.16014,-1.20425,-0.627792,-0.1046,-6.16014,-1.20425,5,0,-1.5,0,0,-0.0325488,-0.0051288,-1.57427,0.188434,0.0319322,0,0,0,0,0
10983,0,0,0,0,0,-6.16014,-1.20425,-0.627792,-0.1046,-6.16014,-1.20425,5,0,-1.5,0,0,-0.0325488,-0.0051288,-1.57427,0.188434,0.0319322,0,0,0,0,0
10998,0,0,0,0,0,-6.16014,-1.20425,-0.627792,-0.1046,-6.16014,-1.20425,5,0,-1.5,0,0,-0.0326029,-0.00508823,-1.57429,0.188434,0.0319322,0,0,0,0,0
11013,0,0,0,0,0,-6.16014,-1.20425,-0.627792,-0.1046,-6.16014,-1.20425,5,0,-1.5,0,0,-0.0329738,-0.00505239,-1.57428,0.188434,0.0319322,0,0,0,0,0
11027,0,0,0,0,0,-6.16014,-1.20425,-0.627792,-0.1046,-6.16014,-1.20425,5,0,-1.5,0,0,-0.0332212,-0.00502688,-1.57428,0.188434,0.0319322,0,0,0,0,0
11043,0,0,0,0,0,-6.16014,-1.20425,-0.627792,-0.1046,-6.16014,-1.20425,5,0,-1.5,0,0,-0.0331198,-0.00503554,-1.57428,0.188434,0.0319322,0,0,0,0,0
11058,0,0,0,0,0,-6.16014,-1.20425,-0.627792,-0.1046,-6.16014,-1.20425,5,0,-1.5,0,0,-0.0326768,-0.00510034,-1.57431,0.188434,0.0319322,0,0,0,0,0
11074,0,0,0,0,0,-6.26699,-1.22199,-0.629088,-0.104022,-6.26699,-1.22199,5,0,-1.5,0,0,-0.0321419,-0.00514197,-1.57436,0.188639,0.0318107,0,0,0,0,0
11091,0,0,0,0,0,-6.26699,-1.22199,-0.629088,-0.104022,-6.26699,-1.22199,5,0,-1.5,0,0,-0.0321419,-0.00514197,-1.57436,0.188639,0.0318107,0,0,0,0,0
11106,0,0,0,0,0,-6.26699,-1.22199,-0.629088,-0.104022,-6.26699,-1.22199,5,0,-1.5,0,0,-0.0323142,-0.00514702,-1.57441,0.188639,0.0318107,0,0,0,0,0
11122,0,0,0,0,0,-6.26699,-1.22199,-0.629088,-0.104022,-6.26699,-1.22199,5,0,-1.5,0,0,-0.0329511,-0.00506961,-1.57437,0.188639,0.0318107,0,0,0,0,0
11137,0,0,0,0,0,-6.26699,-1.22199,-0.629088,-0.104022,-6.26699,-1.22199,5,0,-1.5,0,0,-0.0334391,-0.00498458,-1.57437,0.188639,0.0318107,0,0,0,0,0
11153,0,0,0,0,0,-6.26699,-1.22199,-0.629088,-0.104022,-6.26699,-1.22199,5,0,-1.5,0,0,-0.0334391,-0.00498458,-1.57437,0.188639,0.0318107,0,0,0,0,0
11168,0,0,0,0,0,-6.26699,-1.22199,-0.629088,-0.104022,-6.26699,-1.22199,5,0,-1.5,0,0,-0.0334391,-0.00498458,-1.57437,0.188639,0.0318107,0,0,0,0,0
11184,0,0,0,0,0,-6.26699,-1.22199,-0.629088,-0.104022,-6.26699,-1.22199,5,0,-1.5,0,0,-0.0334391,-0.00498458,-1.57437,0.188639,0.0318107,0,0,0,0,0
11200,0,0,0,0,0,-6.26699,-1.22199,-0.629088,-0.104022,-6.26699,-1.22199,5,0,-1.5,0,0,-0.0325068,-0.00513008,-1.57447,0.188639,0.0318107,0,0,0,0,0
11215,0,0,0,0,0,-6.37403,-1.23963,-0.630132,-0.103502,-6.37403,-1.23963,5,0,-1.5,0,0,-0.0324393,-0.00515992,-1.57448,0.189013,0.0316878,0,0,0,0,0
11231,0,0,0,0,0,-6.37403,-1.23963,-0.630132,-0.103502,-6.37403,-1.23963,5,0,-1.5,0,0,-0.0326424,-0.00512975,-1.57451,0.189013,0.0316878,0,0,0,0,0
11247,0,0,0,0,0,-6.37403,-1.23963,-0.630132,-0.103502,-6.37403,-1.23963,5,0,-1.5,0,0,-0.0326479,-0.00511117,-1.57451,0.189013,0.0316878,0,0,0,0,0
11262,0,0,0,0,0,-6.37403,-1.23963,-0.630132,-0.103502,-6.37403,-1.23963,5,0,-1.5,0,0,-0.0325938,-0.00512231,-1.57452,0.189013,0.0316878,0,0,0,0,0
11278,0,0,0,0,0,-6.37403,-1.23963,-0.630132,-0.103502,-6.37403,-1.23963,5,0,-1.5,0,0,-0.0326151,-0.00513884,-1.57451,0.189013,0.0316878,0,0,0,0,0
11293,0,0,0,0,0,-6.37403,-1.23963,-0.630132,-0.103502,-6.37403,-1.23963,5,0,-1.5,0,0,-0.0327856,-0.00512519,-1.5745,0.189013,0.0316878,0,0,0,0,0
11309,0,0,0,0,0,-6.37403,-1.23963,-0.630132,-0.103502,-6.37403,-1.23963,5,0,-1.5,0,0,-0.0330827,-0.00507515,-1.5745,0.189013,0.0316878,0,0,0,0,0
11324,0,0,0,0,0,-6.37403,-1.23963,-0.630132,-0.103502,-6.37403,-1.23963,5,0,-1.5,0,0,-0.0330827,-0.00507515,-1.5745,0.189013,0.0316878,0,0,0,0,0
11340,0,0,0,0,0,-6.37403,-1.23963,-0.630132,-0.103502,-6.37403,-1.23963,5,0,-1.5,0,0,-0.0330827,-0.00507515,-1.5745,0.189013,0.0316878,0,0,0,0,0
11355,0,0,0,0,0,-6.48124,-1.25719,-0.631347,-0.103027,-6.48124,-1.25719,5,0,-1.5,0,0,-0.0326744,-0.0051039,-1.57457,0.189523,0.03153,0,0,0,0,0
11371,0,0,0,0,0,-6.48124,-1.25719,-0.631347,-0.103027,-6.48124,-1.25719,5,0,-1.5,0,0,-0.0323215,-0.00516443,-1.5746,0.189523,0.03153,0,0,0,0,0
11386,0,0,0,0,0,-6.48124,-1.25719,-0.631347,-0.103027,-6.48124,-1.25719,5,0,-1.5,0,0,-0.0321757,-0.00519196,-1.57464,0.189523,0.03153,0,0,0,0,0
11401,0,0,0,0,0,-6.48124,-1.25719,-0.631347,-0.103027,-6.48124,-1.25719,5,0,-1.5,0,0,-0.0322735,-0.00518969,-1.57464,0.189523,0.03153,0,0,0,0,0
11418,0,0,0,0,0,-6.48124,-1.25719,-0.631347,-0.103027,-6.48124,-1.25719,5,0,-1.5,0,0,-0.0325672,-0.00515425,-1.57464,0.189523,0.03153,0,0,0,0,0
11432,0,0,0,0,0,-6.48124,-1.25719,-0.631347,-0.103027,-6.48124,-1.25719,5,0,-1.5,0,0,-0.0329174,-0.00509429,-1.57464,0.189523,0.03153,0,0,0,0,0
11447,0,0,0,0,0,-6.48124,-1.25719,-0.631347,-0.103027,-6.48124,-1.25719,5,0,-1.5,0,0,-0.0331349,-0.00506486,-1.57463,0.189523,0.03153,0,0,0,0,0
11462,0,0,0,0,0,-6.48124,-1.25719,-0.631347,-0.103027,-6.48124,-1.25719,5,0,-1.5,0,0,-0.0330611,-0.00507848,-1.57465,0.189523,0.03153,0,0,0,0,0
11477,0,0,0,0,0,-6.48124,-1.25719,-0.631347,-0.103027,-6.48124,-1.25719,5,0,-1.5,0,0,-0.0330611,-0.00507848,-1.57465,0.189523,0.03153,0,0,0,0,0
11493,0,0,0,0,0,-6.58861,-1.27467,-0.632279,-0.102613,-6.58861,-1.27467,5,0,-1.5,0,0,-0.0330556,-0.00511034,-1.57466,0.189765,0.0314576,0,0,0,0,0
11508,0,0,0,0,0,-6.58861,-1.27467,-0.632279,-0.102613,-6.58861,-1.27467,5,0,-1.5,0,0,-0.0330913,-0.00506134,-1.57469,0.189765,0.0314576,0,0,0,0,0
11524,0,0,0,0,0,-6.58861,-1.27467,-0.632279,-0.102613,-6.58861,-1.27467,5,0,-1.5,0,0,-0.0329735,-0.00504319,-1.57472,0.189765,0.0314576,0,0,0,0,0
11540,0,0,0,0,0,-6.58861,-1.27467,-0.632279,-0.102613,-6.58861,-1.27467,5,0,-1.5,0,0,-0.0327006,-0.00510396,-1.57473,0.189765,0.0314576,0,0,0,0,0
11556,0,0,0,0,0,-6.58861,-1.27467,-0.632279,-0.102613,-6.58861,-1.27467,5,0,-1.5,0,0,-0.0327006,-0.00510396,-1.57473,0.189765,0.0314576,0,0,0,0,0
11572,0,0,0,0,0,-6.58861,-1.27467,-0.632279,-0.102613,-6.58861,-1.27467,5,0,-1.5,0,0,-0.0323095,-0.00519827,-1.57476,0.189765,0.0314576,0,0,0,0,0
11588,0,0,0,0,0,-6.58861,-1.27467,-0.632279,-0.102613,-6.58861,-1.27467,5,0,-1.5,0,0,-0.0323095,-0.00519827,-1.57476,0.189765,0.0314576,0,0,0,0,0
11603,0,0,0,0,0,-6.58861,-1.27467,-0.632279,-0.102613,-6.58861,-1.27467,5,0,-1.5,0,0,-0.0330811,-0.00506442,-1.57479,0.189765,0.0314576,0,0,0,0,0
11619,0,0,0,0,0,-6.58861,-1.27467,-0.632279,-0.102613,-6.58861,-1.27467,5,0,-1.5,0,0,-0.0332838,-0.00506492,-1.57478,0.189765,0.0314576,0,0,0,0,0
11635,0,0,0,0,0,-6.69621,-1.29208,-0.633224,-0.102224,-6.69621,-1.29208,5,0,-1.5,0,0,-0.0332741,-0.00505975,-1.57479,0.190103,0.0313561,0,0,0,0,0
11651,0,0,0,0,0,-6.69621,-1.29208,-0.633224,-0.102224,-6.69621,-1.29208,5,0,-1.5,0,0,-0.0331326,-0.0050809,-1.5748,0.190103,0.0313561,0,0,0,0,0
11666,0,0,0,0,0,-6.69621,-1.29208,-0.633224,-0.102224,-6.69621,-1.29208,5,0,-1.5,0,0,-0.0329732,-0.00509551,-1.57484,0.190103,0.0313561,0,0,0,0,0
11682,0,0,0,0,0,-6.69621,-1.29208,-0.633224,-0.102224,-6.69621,-1.29208,5,0,-1.5,0,0,-0.0328924,-0.00511522,-1.57486,0.190103,0.0313561,0,0,0,0,0
11698,0,0,0,0,0,-6.69621,-1.29208,-0.633224,-0.102224,-6.69621,-1.29208,5,0,-1.5,0,0,-0.0328124,-0.00508518,-1.5749,0.190103,0.0313561,0,0,0,0,0
11714,0,0,0,0,0,-6.69621,-1.29208,-0.633224,-0.102224,-6.69621,-1.29208,5,0,-1.5,0,0,-0.0328124,-0.00508518,-1.5749,0.190103,0.0313561,0,0,0,0,0
11729,0,0,0,0,0,-6.69621,-1.29208,-0.633224,-0.102224,-6.69621,-1.29208,5,0,-1.5,0,0,-0.0326782,-0.00509597,-1.5749,0.190103,0.0313561,0,0,0,0,0
11745,0,0,0,0,0,-6.69621,-1.29208,-0.633224,-0.102224,-6.69621,-1.29208,5,0,-1.5,0,0,-0.0326835,-0.00511383,-1.57491,0.190103,0.0313561,0,0,0,0,0
11761,0,0,0,0,0,-6.69621,-1.29208,-0.633224,-0.102224,-6.69621,-1.29208,5,0,-1.5,0,0,-0.0328068,-0.00509837,-1.57491,0.190103,0.0313561,0,0,0,0,0
11776,0,0,0,0,0,-6.80397,-1.30942,-0.63427,-0.101824,-6.80397,-1.30942,5,0,-1.5,0,0,-0.0329769,-0.00504582,-1.57492,0.190282,0.0312742,0,0,0,0,0
11792,0,0,0,0,0,-6.80397,-1.30942,-0.63427,-0.101824,-6.80397,-1.30942,5,0,-1.5,0,0,-0.033165,-0.00500474,-1.57493,0.190282,0.0312742,0,0,0,0,0
11807,0,0,0,0,0,-6.80397,-1.30942,-0.63427,-0.101824,-6.80397,-1.30942,5,0,-1.5,0,0,-0.0332344,-0.00503743,-1.57493,0.190282,0.0312742,0,0,0,0,0
11822,0,0,0,0,0,-6.80397,-1.30942,-0.63427,-0.101824,-6.80397,-1.30942,5,0,-1.5,0,0,-0.0330683,-0.00509043,-1.57495,0.190282,0.0312742,0,0,0,0,0
11838,0,0,0,0,0,-6.80397,-1.30942,-0.63427,-0.101824,-6.80397,-1.30942,5,0,-1.5,0,0,-0.0328601,-0.00511531,-1.57498,0.190282,0.0312742,0,0,0,0,0
11854,0,0,0,0,0,-6.80397,-1.30942,-0.63427,-0.101824,-6.80397,-1.30942,5,0,-1.5,0,0,-0.0328177,-0.00511705,-1.57498,0.190282,0.0312742,0,0,0,0,0
11869,0,0,0,0,0,-6.80397,-1.30942,-0.63427,-0.101824,-6.80397,-1.30942,5,0,-1.5,0,0,-0.0329093,-0.00508451,-1.57502,0.190282,0.0312742,0,0,0,0,0
11884,0,0,0,0,0,-6.80397,-1.30942,-0.63427,-0.101824,-6.80397,-1.30942,5,0,-1.5,0,0,-0.032991,-0.00506527,-1.57501,0.190282,0.0312742,0,0,0,0,0
11899,0,0,0,0,0,-6.80397,-1.30942,-0.63427,-0.101824,-6.80397,-1.30942,5,0,-1.5,0,0,-0.0329322,-0.00507899,-1.57503,0.190282,0.0312742,0,0,0,0,0
11914,0,0,0,0,0,-6.91189,-1.32669,-0.635415,-0.101406,-6.91189,-1.32669,5,0,-1.5,0,0,-0.0328123,-0.00511451,-1.57504,0.190638,0.0311719,0,0,0,0,0
11929,0,0,0,0,0,-6.91189,-1.32669,-0.635415,-0.101406,-6.91189,-1.32669,5,0,-1.5,0,0,-0.032759,-0.00514777,-1.57505,0.190638,0.0311719,0,0,0,0,0
11945,0,0,0,0,0,-6.91189,-1.32669,-0.635415,-0.101406,-6.91189,-1.32669,5,0,-1.5,0,0,-0.0328722,-0.00514922,-1.57505,0.190638,0.0311719,0,0,0,0,0
11961,0,0,0,0,0,-6.91189,-1.32669,-0.635415,-0.101406,-6.91189,-1.32669,5,0,-1.5,0,0,-0.0334857,-0.00501817,-1.57505,0.190638,0.0311719,0,0,0,0,0
11977,0,0,0,0,0,-6.91189,-1.32669,-0.635415,-0.101406,-6.91189,-1.32669,5,0,-1.5,0,0,-0.0336485,-0.00499952,-1.57505,0.190638,0.0311719,0,0,0,0,0
11992,0,0,0,0,0,-6.91189,-1.32669,-0.635415,-0.101406,-6.91189,-1.32669,5,0,-1.5,0,0,-0.0335492,-0.00501663,-1.57506,0.190638,0.0311719,0,0,0,0,0
12008,0,0,0,0,0,-6.91189,-1.32669,-0.635415,-0.101406,-6.91189,-1.32669,5,0,-1.5,0,0,-0.0332267,-0.00506683,-1.57507,0.190638,0.0311719,0,0,0,0,0
12025,0,0,0,0,0,-6.91189,-1.32669,-0.635415,-0.101406,-6.91189,-1.32669,5,0,-1.5,0,0,-0.0327872,-0.00512818,-1.5751,0.190638,0.0311719,0,0,0,0,0
12040,0,0,0,0,0,-6.91189,-1.32669,-0.635415,-0.101406,-6.91189,-1.32669,5,0,-1.5,0,0,-0.0324735,-0.00515615,-1.57513,0.190638,0.0311719,0,0,0,0,0
12056,0,0,0,0,0,-6.91189,-1.32669,-0.635415,-0.101406,-6.91189,-1.32669,5,0,-1.5,0,0,-0.0324735,-0.00515615,-1.57513,0.190638,0.0311719,0,0,0,0,0
12072,0,0,0,0,0,-6.91189,-1.32669,-0.635415,-0.101406,-6.91189,-1.32669,5,0,-1.5,0,0,-0.0324735,-0.00515615,-1.57513,0.190638,0.0311719,0,0,0,0,0
12087,0,0,0,0,0,-6.91189,-1.32669,-0.635415,-0.101406,-6.91189,-1.32669,5,0,-1.5,0,0,-0.0332514,-0.00506468,-1.57509,0.190638,0.0311719,0,0,0,0,0
12103,0,0,0,0,0,-6.91189,-1.32669,-0.635415,-0.101406,-6.91189,-1.32669,5,0,-1.5,0,0,-0.0333415,-0.00505149,-1.5751,0.190638,0.0311719,0,0,0,0,0
12119,0,0,0,0,0,-6.91189,-1.32669,-0.635415,-0.101406,-6.91189,-1.32669,5,0,-1.5,0,0,-0.0333415,-0.00505149,-1.5751,0.190638,0.0311719,0,0,0,0,0
12134,0,0,0,0,0,-6.91189,-1.32669,-0.635415,-0.101406,-6.91189,-1.32669,5,0,-1.5,0,0,-0.0333415,-0.00505149,-1.5751,0.190638,0.0311719,0,0,0,0,0
12150,0,0,0,0,0,-6.91189,-1.32669,-0.635415,-0.101406,-6.91189,-1.32669,5,0,-1.5,0,0,-0.0334008,-0.00504564,-1.57513,0.190638,0.0311719,0,0,0,0,0
12166,0,0,0,0,0,-6.91189,-1.32669,-0.635415,-0.101406,-6.91189,-1.32669,5,0,-1.5,0,0,-0.0333988,-0.0050208,-1.57515,0.190638,0.0311719,0,0,0,0,0
12182,0,0,0,0,0,-7.12832,-1.36105,-0.63774,-0.100701,-7.12832,-1.36105,5,0,-1.5,0,0,-0.0331309,-0.00508524,-1.57516,0.191403,0.0309876,0,0,0,0,0
12197,0,0,0,0,0,-7.12832,-1.36105,-0.63774,-0.100701,-7.12832,-1.36105,5,0,-1.5,0,0,-0.0328293,-0.00512473,-1.57518,0.191403,0.0309876,0,0,0,0,0
12213,0,0,0,0,0,-7.12832,-1.36105,-0.63774,-0.100701,-7.12832,-1.36105,5,0,-1.5,0,0,-0.0325989,-0.00515206,-1.57519,0.191403,0.0309876,0,0,0,0,0
12229,0,0,0,0,0,-7.12832,-1.36105,-0.63774,-0.100701,-7.12832,-1.36105,5,0,-1.5,0,0,-0.0326141,-0.00513225,-1.57522,0.191403,0.0309876,0,0,0,0,0
12244,0,0,0,0,0,-7.12832,-1.36105,-0.63774,-0.100701,-7.12832,-1.36105,5,0,-1.5,0,0,-0.0329168,-0.00509934,-1.57521,0.191403,0.0309876,0,0,0,0,0
12260,0,0,0,0,0,-7.12832,-1.36105,-0.63774,-0.100701,-7.12832,-1.36105,5,0,-1.5,0,0,-0.0333545,-0.00505073,-1.5752,0.191403,0.0309876,0,0,0,0,0
12275,0,0,0,0,0,-7.12832,-1.36105,-0.63774,-0.100701,-7.12832,-1.36105,5,0,-1.5,0,0,-0.0336577,-0.00502691,-1.5752,0.191403,0.0309876,0,0,0,0,0
12292,0,0,0,0,0,-7.12832,-1.36105,-0.63774,-0.100701,-7.12832,-1.36105,5,0,-1.5,0,0,-0.0335165,-0.00503489,-1.57524,0.191403,0.0309876,0,0,0,0,0
12306,0,0,0,0,0,-7.12832,-1.36105,-0.63774,-0.100701,-7.12832,-1.36105,5,0,-1.5,0,0,-0.0335165,-0.00503489,-1.57524,0.191403,0.0309876,0,0,0,0,0
12321,0,0,0,0,0,-7.23682,-1.37814,-0.63884,-0.100383,-7.23682,-1.37814,5,0,-1.5,0,0,-0.0335165,-0.00503489,-1.57524,0.191677,0.0309244,0,0,0,0,0
12335,0,0,0,0,0,-7.23682,-1.37814,-0.63884,-0.100383,-7.23682,-1.37814,5,0,-1.5,0,0,-0.0328812,-0.00508587,-1.5753,0.191677,0.0309244,0,0,0,0,0
12350,0,0,0,0,0,-7.23682,-1.37814,-0.63884,-0.100383,-7.23682,-1.37814,5,0,-1.5,0,0,-0.0328812,-0.00508587,-1.5753,0.191677,0.0309244,0,0,0,0,0
12366,0,0,0,0,0,-7.23682,-1.37814,-0.63884,-0.100383,-7.23682,-1.37814,5,0,-1.5,0,0,-0.0328812,-0.00508587,-1.5753,0.191677,0.0309244,0,0,0,0,0
12382,0,0,0,0,0,-7.23682,-1.37814,-0.63884,-0.100383,-7.23682,-1.37814,5,0,-1.5,0,0,-0.0330804,-0.00506408,-1.57532,0.191677,0.0309244,0,0,0,0,0
12397,0,0,0,0,0,-7.23682,-1.37814,-0.63884,-0.100383,-7.23682,-1.37814,5,0,-1.5,0,0,-0.0330268,-0.00508286,-1.57535,0.191677,0.0309244,0,0,0,0,0
12413,0,0,0,0,0,-7.23682,-1.37814,-0.63884,-0.100383,-7.23682,-1.37814,5,0,-1.5,0,0,-0.0330157,-0.00507449,-1.57537,0.191677,0.0309244,0,0,0,0,0
12429,0,0,0,0,0,-7.23682,-1.37814,-0.63884,-0.100383,-7.23682,-1.37814,5,0,-1.5,0,0,-0.0333541,-0.00503738,-1.57534,0.191677,0.0309244,0,0,0,0,0
12445,0,0,0,0,0,-7.23682,-1.37814,-0.63884,-0.100383,-7.23682,-1.37814,5,0,-1.5,0,0,-0.0333541,-0.00503738,-1.57534,0.191677,0.0309244,0,0,0,0,0
12460,0,0,0,0,0,-7.34548,-1.39518,-0.639716,-0.100064,-7.34548,-1.39518,5,0,-1.5,0,0,-0.0336101,-0.00500242,-1.57535,0.192027,0.0308322,0,0,0,0,0
12477,0,0,0,0,0,-7.34548,-1.39518,-0.639716,-0.100064,-7.34548,-1.39518,5,0,-1.5,0,0,-0.0334548,-0.00501923,-1.57538,0.192027,0.0308322,0,0,0,0,0
12492,0,0,0,0,0,-7.34548,-1.39518,-0.639716,-0.100064,-7.34548,-1.39518,5,0,-1.5,0,0,-0.0331591,-0.00505482,-1.5754,0.192027,0.0308322,0,0,0,0,0
12508,0,0,0,0,0,-7.34548,-1.39518,-0.639716,-0.100064,-7.34548,-1.39518,5,0,-1.5,0,0,-0.0328899,-0.00508143,-1.57544,0.192027,0.0308322,0,0,0,0,0
12524,0,0,0,0,0,-7.34548,-1.39518,-0.639716,-0.100064,-7.34548,-1.39518,5,0,-1.5,0,0,-0.0328899,-0.00508143,-1.57544,0.192027,0.0308322,0,0,0,0,0
12539,0,0,0,0,0,-7.34548,-1.39518,-0.639716,-0.100064,-7.34548,-1.39518,5,0,-1.5,0,0,-0.0330716,-0.00505396,-1.57545,0.192027,0.0308322,0,0,0,0,0
12555,0,0,0,0,0,-7.34548,-1.39518,-0.639716,-0.100064,-7.34548,-1.39518,5,0,-1.5,0,0,-0.0332577,-0.00504099,-1.57545,0.192027,0.0308322,0,0,0,0,0
12570,0,0,0,0,0,-7.34548,-1.39518,-0.639716,-0.100064,-7.34548,-1.39518,5,0,-1.5,0,0,-0.0333124,-0.00500761,-1.57546,0.192027,0.0308322,0,0,0,0,0
12586,0,0,0,0,0,-7.34548,-1.39518,-0.639716,-0.100064,-7.34548,-1.39518,5,0,-1.5,0,0,-0.0333149,-0.00500804,-1.57548,0.192027,0.0308322,0,0,0,0,0
12602,0,0,0,0,0,-7.4543,-1.41217,-0.640685,-0.0997308,-7.4543,-1.41217,5,0,-1.5,0,0,-0.0333026,-0.00502055,-1.57549,0.192238,0.0307616,0,0,0,0,0
12618,0,0,0,0,0,-7.4543,-1.41217,-0.640685,-0.0997308,-7.4543,-1.41217,5,0,-1.5,0,0,-0.0333329,-0.00503077,-1.5755,0.192238,0.0307616,0,0,0,0,0
12634,0,0,0,0,0,-7.4543,-1.41217,-0.640685,-0.0997308,-7.4543,-1.41217,5,0,-1.5,0,0,-0.0333797,-0.00501371,-1.57551,0.192238,0.0307616,0,0,0,0,0
12650,0,0,0,0,0,-7.4543,-1.41217,-0.640685,-0.0997308,-7.4543,-1.41217,5,0,-1.5,0,0,-0.0332751,-0.00502626,-1.57551,0.192238,0.0307616,0,0,0,0,0
12670,0,0,0,0,0,-7.4543,-1.41217,-0.640685,-0.0997308,-7.4543,-1.41217,5,0,-1.5,0,0,-0.0330742,-0.00502878,-1.57554,0.192238,0.0307616,0,0,0,0,0
12780,0,0,0,0,0,-7.56332,-1.42909,-0.641517,-0.0993929,-7.56332,-1.42909,5,0,-1.5,0,0,-0.0333508,-0.00494784,-1.57561,0.192436,0.0306805,0,0,0,0,0
12819,0,0,0,0,0,-7.56332,-1.42909,-0.641517,-0.0993929,-7.56332,-1.42909,5,0,-1.5,0,0,-0.0330796,-0.00496412,-1.57565,0.192436,0.0306805,0,0,0,0,0
12834,0,0,0,0,0,-7.56332,-1.42909,-0.641517,-0.0993929,-7.56332,-1.42909,5,0,-1.5,0,0,-0.0331336,-0.0049633,-1.57566,0.192436,0.0306805,0,0,0,0,0
12850,0,0,0,0,0,-7.56332,-1.42909,-0.641517,-0.0993929,-7.56332,-1.42909,5,0,-1.5,0,0,-0.0331511,-0.00495288,-1.57566,0.192436,0.0306805,0,0,0,0,0
12867,0,0,0,0,0,-7.56332,-1.42909,-0.641517,-0.0993929,-7.56332,-1.42909,5,0,-1.5,0,0,-0.0331113,-0.00495112,-1.57569,0.192436,0.0306805,0,0,0,0,0
12882,0,0,0,0,0,-7.67246,-1.44595,-0.64245,-0.0989647,-7.67246,-1.44595,5,0,-1.5,0,0,-0.0330535,-0.00495316,-1.57567,0.192688,0.0305681,0,0,0,0,0
12896,0,0,0,0,0,-7.67246,-1.44595,-0.64245,-0.0989647,-7.67246,-1.44595,5,0,-1.5,0,0,-0.033093,-0.00495372,-1.57567,0.192688,0.0305681,0,0,0,0,0
12912,0,0,0,0,0,-7.67246,-1.44595,-0.64245,-0.0989647,-7.67246,-1.44595,5,0,-1.5,0,0,-0.0332031,-0.00494725,-1.57567,0.192688,0.0305681,0,0,0,0,0
12927,0,0,0,0,0,-7.67246,-1.44595,-0.64245,-0.0989647,-7.67246,-1.44595,5,0,-1.5,0,0,-0.0334732,-0.0048854,-1.57567,0.192688,0.0305681,0,0,0,0,0
12943,0,0,0,0,0,-7.67246,-1.44595,-0.64245,-0.0989647,-7.67246,-1.44595,5,0,-1.5,0,0,-0.0334978,-0.00488423,-1.57568,0.192688,0.0305681,0,0,0,0,0
12958,0,0,0,0,0,-7.67246,-1.44595,-0.64245,-0.0989647,-7.67246,-1.44595,5,0,-1.5,0,0,-0.0334101,-0.00490239,-1.57569,0.192688,0.0305681,0,0,0,0,0
12974,0,0,0,0,0,-7.67246,-1.44595,-0.64245,-0.0989647,-7.67246,-1.44595,5,0,-1.5,0,0,-0.0332847,-0.00491819,-1.57571,0.192688,0.0305681,0,0,0,0,0
12989,0,0,0,0,0,-7.67246,-1.44595,-0.64245,-0.0989647,-7.67246,-1.44595,5,0,-1.5,0,0,-0.033116,-0.00493196,-1.57573,0.192688,0.0305681,0,0,0,0,0
13005,0,0,0,0,0,-7.67246,-1.44595,-0.64245,-0.0989647,-7.67246,-1.44595,5,0,-1.5,0,0,-0.0329985,-0.0049533,-1.57574,0.192688,0.0305681,0,0,0,0,0
13021,0,0,0,0,0,-7.67246,-1.44595,-0.64245,-0.0989647,-7.67246,-1.44595,5,0,-1.5,0,0,-0.0329985,-0.0049533,-1.57574,0.192688,0.0305681,0,0,0,0,0
13036,0,0,0,0,0,-7.67246,-1.44595,-0.64245,-0.0989647,-7.67246,-1.44595,5,0,-1.5,0,0,-0.0330353,-0.00494664,-1.5758,0.192688,0.0305681,0,0,0,0,0
13052,0,0,0,0,0,-7.67246,-1.44595,-0.64245,-0.0989647,-7.67246,-1.44595,5,0,-1.5,0,0,-0.0332014,-0.00494286,-1.57579,0.192688,0.0305681,0,0,0,0,0
13067,0,0,0,0,0,-7.67246,-1.44595,-0.64245,-0.0989647,-7.67246,-1.44595,5,0,-1.5,0,0,-0.0334076,-0.00491984,-1.57579,0.192688,0.0305681,0,0,0,0,0
13083,0,0,0,0,0,-7.67246,-1.44595,-0.64245,-0.0989647,-7.67246,-1.44595,5,0,-1.5,0,0,-0.0334076,-0.00491984,-1.57579,0.192688,0.0305681,0,0,0,0,0
13099,0,0,0,0,0,-7.67246,-1.44595,-0.64245,-0.0989647,-7.67246,-1.44595,5,0,-1.5,0,0,-0.0334076,-0.00491984,-1.57579,0.192688,0.0305681,0,0,0,0,0
13115,0,0,0,0,0,-7.67246,-1.44595,-0.64245,-0.0989647,-7.67246,-1.44595,5,0,-1.5,0,0,-0.0335165,-0.00488777,-1.57581,0.192688,0.0305681,0,0,0,0,0
13130,0,0,0,0,0,-7.67246,-1.44595,-0.64245,-0.0989647,-7.67246,-1.44595,5,0,-1.5,0,0,-0.0334032,-0.0049125,-1.57583,0.192688,0.0305681,0,0,0,0,0
13146,0,0,0,0,0,-7.67246,-1.44595,-0.64245,-0.0989647,-7.67246,-1.44595,5,0,-1.5,0,0,-0.0332491,-0.00495042,-1.57586,0.192688,0.0305681,0,0,0,0,0
13162,0,0,0,0,0,-7.89119,-1.47945,-0.644142,-0.0980991,-7.89119,-1.47945,5,0,-1.5,0,0,-0.0329738,-0.00498304,-1.5759,0.193204,0.0303549,0,0,0,0,0
13178,0,0,0,0,0,-7.89119,-1.47945,-0.644142,-0.0980991,-7.89119,-1.47945,5,0,-1.5,0,0,-0.0329771,-0.00497783,-1.57592,0.193204,0.0303549,0,0,0,0,0
13194,0,0,0,0,0,-7.89119,-1.47945,-0.644142,-0.0980991,-7.89119,-1.47945,5,0,-1.5,0,0,-0.0330641,-0.00497096,-1.57592,0.193204,0.0303549,0,0,0,0,0
13209,0,0,0,0,0,-7.89119,-1.47945,-0.644142,-0.0980991,-7.89119,-1.47945,5,0,-1.5,0,0,-0.033189,-0.00495633,-1.57593,0.193204,0.0303549,0,0,0,0,0
13225,0,0,0,0,0,-7.89119,-1.47945,-0.644142,-0.0980991,-7.89119,-1.47945,5,0,-1.5,0,0,-0.0333343,-0.00493803,-1.57595,0.193204,0.0303549,0,0,0,0,0
13240,0,0,0,0,0,-7.89119,-1.47945,-0.644142,-0.0980991,-7.89119,-1.47945,5,0,-1.5,0,0,-0.0334605,-0.00492821,-1.57594,0.193204,0.0303549,0,0,0,0,0
13255,0,0,0,0,0,-7.89119,-1.47945,-0.644142,-0.0980991,-7.89119,-1.47945,5,0,-1.5,0,0,-0.0334605,-0.00492821,-1.57594,0.193204,0.0303549,0,0,0,0,0
13271,0,0,0,0,0,-7.89119,-1.47945,-0.644142,-0.0980991,-7.89119,-1.47945,5,0,-1.5,0,0,-0.0334857,-0.00493077,-1.57594,0.193204,0.0303549,0,0,0,0,0
13287,0,0,0,0,0,-7.89119,-1.47945,-0.644142,-0.0980991,-7.89119,-1.47945,5,0,-1.5,0,0,-0.033269,-0.00494307,-1.57595,0.193204,0.0303549,0,0,0,0,0
13304,0,0,0,0,0,-7.89119,-1.47945,-0.644142,-0.0980991,-7.89119,-1.47945,5,0,-1.5,0,0,-0.033183,-0.00494662,-1.57599,0.193204,0.0303549,0,0,0,0,0
13319,0,0,0,0,0,-7.89119,-1.47945,-0.644142,-0.0980991,-7.89119,-1.47945,5,0,-1.5,0,0,-0.0331598,-0.00498255,-1.57601,0.193204,0.0303549,0,0,0,0,0
13333,0,0,0,0,0,-7.89119,-1.47945,-0.644142,-0.0980991,-7.89119,-1.47945,5,0,-1.5,0,0,-0.0331597,-0.00499316,-1.57603,0.193204,0.0303549,0,0,0,0,0
13348,0,0,0,0,0,-7.89119,-1.47945,-0.644142,-0.0980991,-7.89119,-1.47945,5,0,-1.5,0,0,-0.0331969,-0.00498528,-1.57604,0.193204,0.0303549,0,0,0,0,0
13364,0,0,0,0,0,-7.89119,-1.47945,-0.644142,-0.0980991,-7.89119,-1.47945,5,0,-1.5,0,0,-0.0332509,-0.00497168,-1.57604,0.193204,0.0303549,0,0,0,0,0
13380,0,0,0,0,0,-7.89119,-1.47945,-0.644142,-0.0980991,-7.89119,-1.47945,5,0,-1.5,0,0,-0.0333445,-0.00494961,-1.57604,0.193204,0.0303549,0,0,0,0,0
13395,0,0,0,0,0,-7.89119,-1.47945,-0.644142,-0.0980991,-7.89119,-1.47945,5,0,-1.5,0,0,-0.033406,-0.00493811,-1.57605,0.193204,0.0303549,0,0,0,0,0
13411,0,0,0,0,0,-7.89119,-1.47945,-0.644142,-0.0980991,-7.89119,-1.47945,5,0,-1.5,0,0,-0.0334471,-0.00493282,-1.57606,0.193204,0.0303549,0,0,0,0,0
13427,0,0,0,0,0,-8.11036,-1.51269,-0.645568,-0.0974433,-8.11036,-1.51269,5,0,-1.5,0,0,-0.0333925,-0.00495034,-1.57608,0.193654,0.0302042,0,0,0,0,0
13442,0,0,0,0,0,-8.11036,-1.51269,-0.645568,-0.0974433,-8.11036,-1.51269,5,0,-1.5,0,0,-0.0333523,-0.00495765,-1.5761,0.193654,0.0302042,0,0,0,0,0
13458,0,0,0,0,0,-8.11036,-1.51269,-0.645568,-0.0974433,-8.11036,-1.51269,5,0,-1.5,0,0,-0.0333169,-0.0049769,-1.5761,0.193654,0.0302042,0,0,0,0,0
13474,0,0,0,0,0,-8.11036,-1.51269,-0.645568,-0.0974433,-8.11036,-1.51269,5,0,-1.5,0,0,-0.0332917,-0.00496622,-1.57611,0.193654,0.0302042,0,0,0,0,0
13489,0,0,0,0,0,-8.11036,-1.51269,-0.645568,-0.0974433,-8.11036,-1.51269,5,0,-1.5,0,0,-0.0332917,-0.00496622,-1.57611,0.193654,0.0302042,0,0,0,0,0
13504,0,0,0,0,0,-8.11036,-1.51269,-0.645568,-0.0974433,-8.11036,-1.51269,5,0,-1.5,0,0,-0.0332753,-0.00498094,-1.57613,0.193654,0.0302042,0,0,0,0,0
13520,0,0,0,0,0,-8.11036,-1.51269,-0.645568,-0.0974433,-8.11036,-1.51269,5,0,-1.5,0,0,-0.0333267,-0.00497696,-1.57615,0.193654,0.0302042,0,0,0,0,0
13536,0,0,0,0,0,-8.11036,-1.51269,-0.645568,-0.0974433,-8.11036,-1.51269,5,0,-1.5,0,0,-0.0333815,-0.00494695,-1.57616,0.193654,0.0302042,0,0,0,0,0
13552,0,0,0,0,0,-8.11036,-1.51269,-0.645568,-0.0974433,-8.11036,-1.51269,5,0,-1.5,0,0,-0.0333815,-0.00494695,-1.57616,0.193654,0.0302042,0,0,0,0,0
