timestamp,A_x,A_y,A_z,P,Q,R,Phi,Theta,Psi,poseX,poseY,poseZ,state_X,state_Y,state_Z,state_VzB,state_Bx,state_By,state_Bz,p1_x,p1_y,p2_x,p2_y,p3_x,p3_y,p4_x,p4_y,roll,pitch,yaw,alt,targetHeading,highLevelState,lowLevelState,gateNumber,filtered_x,filtered_y,x_OT,y_OT,vx_OT,vy_OT,filtered_vx,filtered_vygateArearansac_corr_x,ransac_corr_y,ransac_corr_vx,ransac_corr_vy,detectionTimeStamppTermX,dTermX,pTermY,dTermY
7026,0,0,0,0,0,0,0,0,0,0,0,0,0,0,0,0,0,0,0,0,0,0,0,0,0,0,0,0,-0,0,-1.5,-nan,0,0,0,0,0,0,0,0,0,0,0,1.9603e-19,0,0,0,0,0,0,0,0,0
8032,-3.3422e-12,0,-1.60674e-06,-3.40794e-12,0,0,-1.13703e-13,0,0,0,0,0,0,0,0,0,0,0,0,0,0,0,0,0,0,0,0,0,-0,0,-1.5,-nan,0,0,0,0,0,0,0,0,0,0,0,1.9603e-19,0,0,0,0,0,0,0,0,0
8097,-3.3422e-12,0,-1.60674e-06,-3.40794e-12,0,0,-1.13703e-13,0,0,0,0,0,0,0,0,0,0,0,0,0,0,0,0,0,0,0,0,0,-0,0,-1.5,-nan,0,0,0,0,0,0,0,0,0,0,0,1.9603e-19,0,0,0,0,0,0,0,0,0
8330,-3.3422e-12,0,-1.60674e-06,-3.40794e-12,0,0,-1.13704e-13,0,0,0,0,0,0,0,0,0,0,0,0,0,0,0,0,0,0,0,0,0,-0,0,-1.5,-nan,0,0,0,0,0,0,0,0,0,0,0,1.9603e-19,0,0,0,0,0,0,0,0,0
8395,-3.3422e-12,0,-1.60674e-06,-3.40794e-12,0,0,-1.13704e-13,0,0,0,0,0,0,0,0,0,0,0,0,0,0,0,0,0,0,0,0,0,-0,0,-1.5,-nan,0,0,0,0,0,0,0,0,0,0,0,1.9603e-19,0,0,0,0,0,0,0,0,0
8557,-3.3422e-12,0,-1.60674e-06,-3.40794e-12,0,0,-1.13705e-13,0,0,-3.63539,0.27646,0.444425,0,0,0,0,0,-0.580481,0.27646,231,-64,231,-64,352,-54,224,61,0,-0,0,-1.5,-nan,0,0,0,0,0,0,0,0,0,0,0,17408,0,0,0,0,8548,0,0,0,0
8603,-3.3422e-12,0,-1.60674e-06,-3.40794e-12,0,0,-1.13705e-13,0,0,-3.6145,0.277303,0.427998,0,0,0,0,0,-0.551868,0.277303,231,-64,231,-64,352,-54,223,63,0,-0,0,-1.5,-nan,0,0,0,0,0,0,0,0,0,0,0,17544,0,0,0,0,8595,0,0,0,0
8634,-3.3422e-12,0,-1.60674e-06,-3.40794e-12,0,0,-1.13706e-13,0,0,-3.63539,0.27646,0.444425,0,0,0,0,0,-0.580481,0.27646,231,-64,231,-64,352,-54,224,61,0,-0,0,-1.5,-nan,0,0,0,0,0,0,0,0,0,0,0,17408,0,0,0,0,8632,0,0,0,0
8675,-3.3422e-12,0,-1.60674e-06,-3.40794e-12,0,0,-1.13706e-13,0,0,-3.63934,0.279543,0.449061,0,0,0,0,0,-0.585902,0.279543,230,-64,230,-64,352,-54,224,63,-0.0150257,-0.261799,0,-1.5,-nan,0,0,0,-0.589368,0.279771,0,0,0,0,-0.315124,0.0207457,17024,-0.585902,0.279543,-0.315124,0.0207457,8666,0.294684,0.0945389,-0.0139886,-0.00103712
8696,-3.3422e-12,0,-1.60674e-06,-3.40794e-12,0,0,-1.13707e-13,0,0,-3.63934,0.279543,0.449061,0,0,0,0,0,-0.585902,0.279543,230,-64,230,-64,352,-54,224,63,-0.0150475,-0.261799,0,-1.5,-nan,0,0,0,-0.595986,0.280207,0,0,0,0,-0.315124,0.0207457,17024,-0.585902,0.279543,-0.315124,0.0207457,8666,0.297993,0.0945389,-0.0140104,-0.00103712
8716,-3.3422e-12,0,-1.60674e-06,-3.40794e-12,0,0,-1.13708e-13,0,0,-3.6359,0.279257,0.447219,0,0,0,0,0,-0.581188,0.279257,231,-64,231,-64,352,-54,223,63,-0.0146742,-0.261799,0,-1.5,-nan,0,0,0,-0.602288,0.279536,0,0,0,0,-0.315124,0.013957,17157,-0.595986,0.279257,-0.315124,0.013957,8705,0.301144,0.0945389,-0.0139768,-0.000697374
8739,-3.3422e-12,0,-1.60674e-06,-3.40794e-12,0,0,-1.13708e-13,0,0,-3.58604,0.26456,0.420906,0,0,0,0,0,-0.512868,0.26456,231,-64,231,-64,357,-55,223,63,-0.0146902,-0.261799,0,-1.5,-nan,0,0,0,-0.590193,0.279857,0,0,0,0,-0.209424,0.0139568,17822,-0.587889,0.279703,-0.209424,0.0139568,8730,0.295096,0.0628263,-0.0139928,-0.000697374
8758,-3.3422e-12,0,-1.60674e-06,-3.40794e-12,0,0,-1.13709e-13,0,0,-3.58604,0.26456,0.420906,0,0,0,0,0,-0.512868,0.26456,231,-64,231,-64,357,-55,223,63,-0.0147035,-0.261799,0,-1.5,-nan,0,0,0,-0.594172,0.280122,0,0,0,0,-0.209424,0.0139568,17822,-0.587889,0.279703,-0.209424,0.0139568,8730,0.297086,0.0628263,-0.0140061,-0.000697374
8794,-3.3422e-12,0,-1.60674e-06,-3.40794e-12,0,0,-1.13709e-13,0,0,-3.62194,0.28011,0.432187,0,0,0,0,0,-0.562062,0.28011,231,-64,231,-64,352,-54,223,63,-0.0147249,-0.235275,0,-1.5,-nan,0,0,0,-0.556882,0.28061,0,0,0,0,0.143897,0.0138965,17544,-0.562062,0.28011,0.143897,0.0138965,8783,0.278441,-0.0431657,-0.0140305,-0.000694394
8819,-3.3422e-12,0,-1.60674e-06,-3.40794e-12,0,0,-1.1371e-13,0,0,-3.65843,0.271748,0.454954,0,0,0,0,0,-0.612044,0.271748,231,-64,231,-64,352,-54,227,62,-0.0131462,-0.261799,0,-1.5,-nan,0,0,0,-0.606947,0.274309,0,0,0,0,-0.209424,-0.0113816,17000,-0.601711,0.274594,-0.209424,-0.0113816,8807,0.303473,0.0628263,-0.0137155,0.000569224
8839,-3.3422e-12,0,-1.60674e-06,-3.40794e-12,0,0,-1.13715e-13,0,0,-3.66962,0.272321,0.46601,0,0,0,0,0,-0.627374,0.272321,231,-64,231,-64,352,-54,227,60,-0.0126807,-0.261799,0,-1.5,-nan,0,0,0,-0.620324,0.272255,0,0,0,0,-0.236295,-0.018636,17000,-0.618433,0.272405,-0.236295,-0.018636,8833,0.310162,0.0708908,-0.0136128,0.000932068
8878,-3.3422e-12,0,-1.60674e-06,-3.40794e-12,0,0,-1.13716e-13,0,0,-3.64774,0.279899,0.45863,0,0,0,0,0,-0.597399,0.279899,231,-64,231,-64,352,-54,223,61,-0.0136157,-0.261799,0,-1.5,-nan,0,0,0,-0.620944,0.27601,0,0,0,0,-0.21461,-0.00368885,17157,-0.612789,0.27615,-0.21461,-0.00368885,8866,0.310472,0.064382,-0.0138005,0.000184774
8895,-3.3422e-12,0,-1.60674e-06,-3.40794e-12,0,0,-1.1371e-13,0,0,-3.64774,0.279899,0.45863,0,0,0,0,0,-0.597399,0.279899,231,-64,231,-64,352,-54,223,61,-0.0136131,-0.261799,0,-1.5,-nan,0,0,0,-0.624807,0.275943,0,0,0,0,-0.21461,-0.00368885,17157,-0.612789,0.27615,-0.21461,-0.00368885,8866,0.312404,0.064382,-0.0137972,0.000184029
8916,-3.3422e-12,0,-1.60674e-06,-3.40794e-12,0,0,-1.13712e-13,0,0,-3.62562,0.277891,0.438951,0,0,0,0,0,-0.567105,0.277891,231,-64,231,-64,352,-54,223,61,-0.0138335,-0.261799,0,-1.5,-nan,0,0,0,-0.60254,0.277146,0,0,0,0,-0.078448,-0.000481605,17544,-0.600971,0.277156,-0.078448,-0.000481605,8903,0.30127,0.0235409,-0.0138573,2.38419e-05
8936,-3.3422e-12,0,-1.60674e-06,-3.40794e-12,0,0,-1.13712e-13,0,0,-3.68116,0.273745,0.475034,0,0,0,0,0,-0.643189,0.273745,231,-64,231,-64,352,-54,227,62,0.00201399,-0.261799,0,-1.5,-nan,0,0,0,-0.633684,0.275559,0,0,0,0,-0.215216,-0.00493346,16625,-0.632608,0.275584,-0.215216,-0.00493346,8933,0.316842,1.79335,-0.013778,0.015792
8957,-3.3422e-12,0,-1.60674e-06,-3.40794e-12,0,0,-1.13711e-13,0,0,-3.68116,0.273745,0.475034,0,0,0,0,0,-0.643189,0.273745,231,-64,231,-64,352,-54,227,62,-0.0135262,-0.261799,0,-1.5,-nan,0,0,0,-0.638204,0.275456,0,0,0,0,-0.215216,-0.00493346,16625,-0.632608,0.275584,-0.215216,-0.00493346,8933,0.319102,0.0645697,-0.0137728,0.000246614
8978,-3.3422e-12,0,-1.60674e-06,-3.40794e-12,0,0,-1.13713e-13,0,0,-3.63539,0.27646,0.444425,0,0,0,0,0,-0.580481,0.27646,231,-64,231,-64,352,-54,224,61,-0.0137571,-0.261799,0,-1.5,-nan,0,0,0,-0.612549,0.276514,0,0,0,0,-0.108271,-0.00137342,17408,-0.610275,0.276543,-0.108271,-0.00137342,8966,0.306274,0.0324816,-0.0138257,6.85453e-05
8999,-3.3422e-12,0,-1.60674e-06,-3.40794e-12,0,0,-1.13715e-13,0,0,-3.65843,0.287449,0.464693,0,0,0,0,0,-0.612045,0.287449,230,-64,230,-64,350,-54,223,61,-0.0138338,-0.261799,0,-1.5,-nan,0,0,0,-0.613211,0.277113,0,0,0,0,-0.103308,-0.000435803,16891,-0.612384,0.277117,-0.103308,-0.000435803,8993,0.306605,0.0309944,-0.0138557,2.1855e-05
9020,-3.3422e-12,0,-1.60674e-06,-3.40794e-12,0,0,-1.13713e-13,0,0,-3.65843,0.287449,0.464693,0,0,0,0,0,-0.612045,0.287449,230,-64,230,-64,350,-54,223,61,-0.0138334,-0.261799,0,-1.5,-nan,0,0,0,-0.61538,0.277104,0,0,0,0,-0.103308,-0.000435803,16891,-0.612384,0.277117,-0.103308,-0.000435803,8993,0.30769,0.0309885,-0.0138552,2.1855e-05
9083,-3.3422e-12,0,-1.60674e-06,-3.40794e-12,0,0,-1.13716e-13,0,0,-3.7085,0.253088,0.477472,0,0,0,0,0,-0.68065,0.253088,233,-62,233,-62,355,-51,230,63,-0.0137346,-0.261799,0,-1.5,-nan,0,0,0,-0.630807,0.276287,0,0,0,0,-0.13019,-0.00159458,16375,-0.622605,0.276387,-0.13019,-0.00159458,9070,0.315403,0.039053,-0.0138143,7.97212e-05
9104,-3.3422e-12,0,-1.60674e-06,-3.40794e-12,0,0,-1.13722e-13,0,0,-3.57192,0.243673,0.406277,0,0,0,0,0,-0.493526,0.243673,231,-64,231,-64,360,-53,226,64,-0.0132164,-0.261799,0,-1.5,-nan,0,0,0,-0.624337,0.273001,0,0,0,0,-0.103817,-0.00867574,17822,-0.623507,0.27307,-0.103817,-0.00867574,9098,0.312169,0.0311404,-0.01365,0.000433624
9219,-3.3422e-12,0,-1.60674e-06,-3.40794e-12,0,0,-1.13722e-13,0,0,-3.66808,0.232422,0.451908,0,0,0,0,0,-0.625273,0.232422,237,-62,237,-62,357,-53,230,63,-0.00806104,-0.261799,0,-1.5,-nan,0,0,0,-0.622963,0.238833,0,0,0,0,-0.0744261,-0.0776114,17018,-0.622294,0.239532,-0.0744261,-0.0776114,9213,0.311482,0.0223249,-0.0119417,0.00388063
9281,-3.3422e-12,0,-1.60674e-06,-3.40794e-12,0,0,-1.13723e-13,0,0,-3.68412,0.238111,0.470174,0,0,0,0,0,-0.647245,0.238111,236,-63,236,-63,357,-53,230,63,-0.0298507,-0.261799,0,-1.5,-nan,0,0,0,-0.635722,0.237084,0,0,0,0,-0.0888152,-0.0703676,16764,-0.6351,0.237577,-0.0888152,-0.0703676,9276,0.317861,0.371351,-0.0118542,-0.0179965
9301,-3.3422e-12,0,-1.60674e-06,-3.40794e-12,0,0,-1.13723e-13,0,0,-3.68412,0.238111,0.470174,0,0,0,0,0,-0.647245,0.238111,236,-63,236,-63,357,-53,230,63,-0.00826531,-0.261799,0,-1.5,-nan,0,0,0,-0.637498,0.235677,0,0,0,0,-0.0888152,-0.0703676,16764,-0.6351,0.237577,-0.0888152,-0.0703676,9276,0.318749,0.0266522,-0.0117838,0.00351854
9319,-3.3422e-12,0,-1.60674e-06,-3.40794e-12,0,0,-1.13724e-13,0,0,-3.63423,0.227778,0.439663,0,0,0,0,0,-0.578894,0.227778,236,-63,236,-63,357,-53,229,62,-0.00792579,-0.261799,0,-1.5,-nan,0,0,0,-0.634827,0.232776,0,0,0,0,-0.0853439,-0.0742535,17152,-0.633291,0.234112,-0.0853439,-0.0742535,9306,0.317414,0.0256062,-0.0116388,0.003713
9341,-3.3422e-12,0,-1.60674e-06,-3.40794e-12,0,0,-1.13721e-13,0,0,-3.66568,0.190386,0.679445,0,0,0,0,0,-0.621976,0.190386,241,-84,241,-84,364,-79,233,37,-0.00704173,-0.261799,0,-1.5,-nan,0,0,0,-0.622286,0.224825,0,0,0,0,-0.056359,-0.0839887,16768,-0.621666,0.225749,-0.056359,-0.0839887,9332,0.311143,0.0169069,-0.0112412,0.00419952
9381,-3.3422e-12,0,-1.60674e-06,-3.40794e-12,0,0,-1.13724e-13,0,0,-3.66568,0.190386,0.679445,0,0,0,0,0,-0.621976,0.190386,241,-84,241,-84,364,-79,233,37,-0.00687375,-0.261799,0,-1.5,-nan,0,0,0,-0.624541,0.221465,0,0,0,0,-0.056359,-0.0839887,16768,-0.621666,0.225749,-0.056359,-0.0839887,9332,0.31227,0.0169069,-0.0110733,0.00419952
9399,-3.3422e-12,0,-1.60674e-06,-3.40794e-12,0,0,-1.13714e-13,0,0,-3.66568,0.190386,0.679445,0,0,0,0,0,-0.621976,0.190386,241,-84,241,-84,364,-79,233,37,-0.00679816,-0.261799,0,-1.5,-nan,0,0,0,-0.625555,0.219954,0,0,0,0,-0.056359,-0.0839887,16768,-0.621666,0.225749,-0.056359,-0.0839887,9332,0.312778,0.0169158,-0.0109977,0.00419952
9416,-3.3422e-12,0,-1.60674e-06,-3.40794e-12,0,0,-1.13717e-13,0,0,-3.66568,0.190386,0.679445,0,0,0,0,0,-0.621976,0.190386,241,-84,241,-84,364,-79,233,37,-0.00673059,-0.261799,0,-1.5,-nan,0,0,0,-0.626457,0.21861,0,0,0,0,-0.056359,-0.0839887,16768,-0.621666,0.225749,-0.056359,-0.0839887,9332,0.313229,0.0169069,-0.0109305,0.00419989
9437,-3.3422e-12,0,-1.60674e-06,-3.40794e-12,0,0,-1.13718e-13,0,0,-3.66568,0.190386,0.679445,0,0,0,0,0,-0.621976,0.190386,241,-84,241,-84,364,-79,233,37,-0.00663858,-0.261799,0,-1.5,-nan,0,0,0,-0.627697,0.216762,0,0,0,0,-0.056359,-0.0839887,16768,-0.621666,0.225749,-0.056359,-0.0839887,9332,0.313848,0.0169069,-0.0108381,0.00419952
9454,-3.3422e-12,0,-1.60674e-06,-3.40794e-12,0,0,-1.13718e-13,0,0,-3.66568,0.190386,0.679445,0,0,0,0,0,-0.621976,0.190386,241,-84,241,-84,364,-79,233,37,-0.00656718,-0.261799,0,-1.5,-nan,0,0,0,-0.628655,0.215334,0,0,0,0,-0.056359,-0.0839887,16768,-0.621666,0.225749,-0.056359,-0.0839887,9332,0.314328,0.0169069,-0.0107667,0.00419952
9472,-3.3422e-12,0,-1.60674e-06,-3.40794e-12,0,0,-1.13719e-13,0,0,-3.66568,0.190386,0.679445,0,0,0,0,0,-0.621976,0.190386,241,-84,241,-84,364,-79,233,37,-0.00649579,-0.261799,0,-1.5,-nan,0,0,0,-0.629613,0.213906,0,0,0,0,-0.056359,-0.0839887,16768,-0.621666,0.225749,-0.056359,-0.0839887,9332,0.314807,0.0169069,-0.0106953,0.00419952
9524,-3.3422e-12,0,-1.60674e-06,-3.40794e-12,0,0,-1.13719e-13,0,0,-3.66568,0.190386,0.679445,0,0,0,0,0,-0.621976,0.190386,241,-84,241,-84,364,-79,233,37,-0.00627742,-0.261799,0,-1.5,-nan,0,0,0,-0.632544,0.209539,0,0,0,0,-0.056359,-0.0839887,16768,-0.621666,0.225749,-0.056359,-0.0839887,9332,0.316272,0.0169069,-0.0104769,0.00419952
9541,-3.3422e-12,0,-1.60674e-06,-3.40794e-12,0,0,-1.1372e-13,0,0,-3.66568,0.190386,0.679445,0,0,0,0,0,-0.621976,0.190386,241,-84,241,-84,364,-79,233,37,-0.00620183,-0.261799,0,-1.5,-nan,0,0,0,-0.633558,0.208027,0,0,0,0,-0.056359,-0.0839887,16768,-0.621666,0.225749,-0.056359,-0.0839887,9332,0.316779,0.0169069,-0.0104013,0.00419952
9558,-3.3422e-12,0,-1.60674e-06,-3.40794e-12,0,0,-1.1372e-13,0,0,-3.66568,0.190386,0.679445,0,0,0,0,0,-0.621976,0.190386,241,-84,241,-84,364,-79,233,37,-0.00613056,-0.261799,0,-1.5,-nan,0,0,0,-0.634517,0.206599,0,0,0,0,-0.056359,-0.0839887,16768,-0.621666,0.225749,-0.056359,-0.0839887,9332,0.317258,0.0169098,-0.01033,0.0041994
9579,-3.3422e-12,0,-1.60674e-06,-3.40794e-12,0,0,-1.13725e-13,0,0,-3.66568,0.190386,0.679445,0,0,0,0,0,-0.621976,0.190386,241,-84,241,-84,364,-79,233,37,-0.00604225,-0.261799,0,-1.5,-nan,0,0,0,-0.6357,0.204835,0,0,0,0,-0.056359,-0.0839887,16768,-0.621666,0.225749,-0.056359,-0.0839887,9332,0.31785,0.0169069,-0.0102418,0.00419952
9619,-3.3422e-12,0,-1.60674e-06,-3.40794e-12,0,0,-1.13726e-13,0,0,-3.66568,0.190386,0.679445,0,0,0,0,0,-0.621976,0.190386,241,-84,241,-84,364,-79,233,37,-0.00587427,-0.261799,0,-1.5,-nan,0,0,0,-0.637954,0.201476,0,0,0,0,-0.056359,-0.0839887,16768,-0.621666,0.225749,-0.056359,-0.0839887,9332,0.318977,0.0169069,-0.0100738,0.00419952
9667,-3.3422e-12,0,-1.60674e-06,-3.40794e-12,0,0,-1.13726e-13,0,0,-3.66568,0.190386,0.679445,0,0,0,0,0,-0.621976,0.190386,241,-84,241,-84,364,-79,233,37,-0.00567232,-0.261799,0,-1.5,-nan,0,0,0,-0.64066,0.197444,0,0,0,0,-0.056359,-0.0839887,16768,-0.621666,0.225749,-0.056359,-0.0839887,9332,0.32033,0.0169158,-0.00987221,0.00419989
9689,-3.3422e-12,0,-1.60674e-06,-3.40794e-12,0,0,-1.13727e-13,0,0,-3.66568,0.190386,0.679445,0,0,0,0,0,-0.621976,0.190386,241,-84,241,-84,364,-79,233,37,-0.00557993,-0.261799,0,-1.5,-nan,0,0,0,-0.6419,0.195596,0,0,0,0,-0.056359,-0.0839887,16768,-0.621666,0.225749,-0.056359,-0.0839887,9332,0.32095,0.0169069,-0.00977982,0.00419989
9725,-3.3422e-12,0,-1.60674e-06,-3.40794e-12,0,0,-1.13727e-13,0,0,-3.66568,0.190386,0.679445,0,0,0,0,0,-0.621976,0.190386,241,-84,241,-84,364,-79,233,37,-0.00542912,-0.261799,0,-1.5,-nan,0,0,0,-0.643929,0.192573,0,0,0,0,-0.056359,-0.0839887,16768,-0.621666,0.225749,-0.056359,-0.0839887,9332,0.321964,0.0169069,-0.00962864,0.00419952
9747,-3.3422e-12,0,-1.60674e-06,-3.40794e-12,0,0,-1.13728e-13,0,0,-3.66568,0.190386,0.679445,0,0,0,0,0,-0.621976,0.190386,241,-84,241,-84,364,-79,233,37,-0.00534093,-0.261799,0,-1.5,-nan,0,0,0,-0.645112,0.190809,0,0,0,0,-0.056359,-0.0839887,16768,-0.621666,0.225749,-0.056359,-0.0839887,9332,0.322556,0.0169069,-0.00954045,0.00419952
9764,-3.3422e-12,0,-1.60674e-06,-3.40794e-12,0,0,-1.13728e-13,0,0,-3.66568,0.190386,0.679445,0,0,0,0,0,-0.621976,0.190386,241,-84,241,-84,364,-79,233,37,-0.00526534,-0.261799,0,-1.5,-nan,0,0,0,-0.646127,0.189297,0,0,0,0,-0.056359,-0.0839887,16768,-0.621666,0.225749,-0.056359,-0.0839887,9332,0.323063,0.0169069,-0.00946486,0.00419952
9781,-3.3422e-12,0,-1.60674e-06,-3.40794e-12,0,0,-1.13729e-13,0,0,-3.66568,0.190386,0.679445,0,0,0,0,0,-0.621976,0.190386,241,-84,241,-84,364,-79,233,37,-0.00519395,-0.261799,0,-1.5,-nan,0,0,0,-0.647085,0.187869,0,0,0,0,-0.056359,-0.0839887,16768,-0.621666,0.225749,-0.056359,-0.0839887,9332,0.323542,0.0169158,-0.00939347,0.00419952
9803,-3.3422e-12,0,-1.60674e-06,-3.40794e-12,0,0,-1.13729e-13,0,0,-3.66568,0.190386,0.679445,0,0,0,0,0,-0.621976,0.190386,241,-84,241,-84,364,-79,233,37,-0.00300199,-0.261799,0,-1.5,-nan,0,0,0,-0.648325,0.186022,0,0,0,0,-0.056359,-0.0839887,16768,-0.621666,0.225749,-0.056359,-0.0839887,9332,0.324162,0.0253648,-0.00930108,0.00629909
9820,-3.3422e-12,0,-1.60674e-06,-3.40794e-12,0,0,-1.1373e-13,0,0,-3.66568,0.190386,0.679445,0,0,0,0,0,-0.621976,0.190386,241,-84,241,-84,364,-79,233,37,-0.00643396,-0.261799,0,-1.5,-nan,0,0,0,-0.649226,0.184678,0,0,0,0,-0.056359,-0.0839887,16768,-0.621666,0.225749,-0.056359,-0.0839887,9332,0.324613,0.0112712,-0.00923389,0.00279993
9837,-3.3422e-12,0,-1.60674e-06,-3.40794e-12,0,0,-1.1373e-13,0,0,-3.66568,0.190386,0.679445,-0.65024,0.183167,-0.0561901,-0.083737,0,-0.621976,0.190386,241,-84,241,-84,364,-79,233,37,-0.0049715,-0.261799,0,-1.5,-nan,0,0,0,-0.65024,0.183167,0,0,0,0,-0.0561901,-0.083737,16768,0,0,0,0,9332,0.32512,0.0168532,-0.00915835,0.00418685
9876,-3.3422e-12,0,-1.60674e-06,-3.40794e-12,0,0,-1.13731e-13,0,0,-3.66568,0.190386,0.679445,-0.652397,0.179954,-0.0550982,-0.0821098,0,-0.621976,0.190386,241,-84,241,-84,364,-79,233,37,-0.00489203,-0.261799,0,-1.5,-nan,0,0,0,-0.652397,0.179954,0,0,0,0,-0.0550982,-0.0821098,16768,0,0,0,0,9332,0.326198,0.0165313,-0.00899768,0.00410564
9893,-3.3422e-12,0,-1.60674e-06,-3.40794e-12,0,0,-1.13732e-13,0,0,-3.66568,0.190386,0.679445,-0.653328,0.178566,-0.0546312,-0.0814138,0,-0.621976,0.190386,241,-84,241,-84,364,-79,233,37,-0.00485765,-0.261799,0,-1.5,-nan,0,0,0,-0.653328,0.178566,0,0,0,0,-0.0546312,-0.0814138,16768,0,0,0,0,9332,0.326664,0.0163883,-0.00892828,0.00407062
9907,-3.3422e-12,0,-1.60674e-06,-3.40794e-12,0,0,-1.13732e-13,0,0,-3.66568,0.190386,0.679445,-0.654089,0.177431,-0.0542498,-0.0808454,0,-0.621976,0.190386,241,-84,241,-84,364,-79,233,37,-0.00482923,-0.261799,0,-1.5,-nan,0,0,0,-0.654089,0.177431,0,0,0,0,-0.0542498,-0.0808454,16768,0,0,0,0,9332,0.327045,0.0162721,-0.00887154,0.00404231
9925,-3.3422e-12,0,-1.60674e-06,-3.40794e-12,0,0,-1.13733e-13,0,0,-3.66568,0.190386,0.679445,-0.65506,0.175984,-0.0537629,-0.0801199,0,-0.621976,0.190386,241,-84,241,-84,364,-79,233,37,-0.00479305,-0.261799,0,-1.5,-nan,0,0,0,-0.65506,0.175984,0,0,0,0,-0.0537629,-0.0801199,16768,0,0,0,0,9332,0.32753,0.016129,-0.00879922,0.00400618
9942,-3.3422e-12,0,-1.60674e-06,-3.40794e-12,0,0,-1.13733e-13,0,0,-3.66568,0.190386,0.679445,-0.655969,0.17463,-0.0533072,-0.0794408,0,-0.621976,0.190386,241,-84,241,-84,364,-79,233,37,-0.00475961,-0.261799,0,-1.5,-nan,0,0,0,-0.655969,0.17463,0,0,0,0,-0.0533072,-0.0794408,16768,0,0,0,0,9332,0.327984,0.0159949,-0.00873151,0.0039719
9959,-3.3422e-12,0,-1.60674e-06,-3.40794e-12,0,0,-1.13734e-13,0,0,-3.66568,0.190386,0.679445,-0.65687,0.173287,-0.0528554,-0.0787674,0,-0.621976,0.190386,241,-84,241,-84,364,-79,233,37,-0.00472599,-0.261799,0,-1.5,-nan,0,0,0,-0.65687,0.173287,0,0,0,0,-0.0528554,-0.0787674,16768,0,0,0,0,9332,0.328435,0.0158608,-0.00866437,0.00393838
9981,-3.3422e-12,0,-1.60674e-06,-3.40794e-12,0,0,-1.13734e-13,0,0,-3.66568,0.190386,0.679445,-0.658023,0.171568,-0.0522758,-0.0779036,0,-0.621976,0.190386,241,-84,241,-84,364,-79,233,37,-0.00468324,-0.261799,0,-1.5,-nan,0,0,0,-0.658023,0.171568,0,0,0,0,-0.0522758,-0.0779036,16768,0,0,0,0,9332,0.329012,0.015682,-0.00857841,0.00389516
9999,-3.3422e-12,0,-1.60674e-06,-3.40794e-12,0,0,-1.13735e-13,0,0,-3.66568,0.190386,0.679445,-0.658959,0.170174,-0.0518067,-0.0772047,0,-0.621976,0.190386,241,-84,241,-84,364,-79,233,37,-0.00464856,-0.261799,0,-1.5,-nan,0,0,0,-0.658959,0.170174,0,0,0,0,-0.0518067,-0.0772047,16768,0,0,0,0,9332,0.329479,0.0155389,-0.00850871,0.00386015
10016,-3.3422e-12,0,-1.60674e-06,-3.40794e-12,0,0,-1.13735e-13,0,0,-3.66568,0.190386,0.679445,-0.659783,0.168945,-0.0513934,-0.0765887,0,-0.621976,0.190386,241,-84,241,-84,364,-79,233,37,-0.0058942,-0.261799,0,-1.5,-nan,0,0,0,-0.659783,0.168945,0,0,0,0,-0.0513934,-0.0765887,16768,0,0,0,0,9332,0.329892,0.0102758,-0.00844727,0.00255307
10038,-3.3422e-12,0,-1.60674e-06,-3.40794e-12,0,0,-1.13736e-13,0,0,-3.66568,0.190386,0.679445,-0.660905,0.167274,-0.0508298,-0.0757489,0,-0.621976,0.190386,241,-84,241,-84,364,-79,233,37,-0.00457618,-0.261799,0,-1.5,-nan,0,0,0,-0.660905,0.167274,0,0,0,0,-0.0508298,-0.0757489,16768,0,0,0,0,9332,0.330453,0.0152528,-0.00836369,0.0037875
10055,-3.3422e-12,0,-1.60674e-06,-3.40794e-12,0,0,-1.13736e-13,0,0,-3.66568,0.190386,0.679445,-0.661764,0.165993,-0.050399,-0.0751068,0,-0.621976,0.190386,241,-84,241,-84,364,-79,233,37,-0.0045442,-0.261799,0,-1.5,-nan,0,0,0,-0.661764,0.165993,0,0,0,0,-0.050399,-0.0751068,16768,0,0,0,0,9332,0.330882,0.0151187,-0.00829967,0.00375547
10072,-3.3422e-12,0,-1.60674e-06,-3.40794e-12,0,0,-1.13737e-13,0,0,-3.66568,0.190386,0.679445,-0.662666,0.164649,-0.0499468,-0.0744329,0,-0.621976,0.190386,241,-84,241,-84,364,-79,233,37,-0.0045109,-0.261799,0,-1.5,-nan,0,0,0,-0.662666,0.164649,0,0,0,0,-0.0499468,-0.0744329,16768,0,0,0,0,9332,0.331333,0.0149846,-0.00823247,0.00372156
10113,-3.3422e-12,0,-1.60674e-06,-3.40794e-12,0,0,-1.13737e-13,0,0,-3.66568,0.190386,0.679445,-0.664631,0.161721,-0.0489514,-0.0729495,0,-0.621976,0.190386,241,-84,241,-84,364,-79,233,37,-0.00443863,-0.261799,0,-1.5,-nan,0,0,0,-0.664631,0.161721,0,0,0,0,-0.0489514,-0.0729495,16768,0,0,0,0,9332,0.332316,0.0146896,-0.00808606,0.00364743
10130,-3.3422e-12,0,-1.60674e-06,-3.40794e-12,0,0,-1.13738e-13,0,0,-3.66568,0.190386,0.679445,-0.665507,0.160416,-0.0485122,-0.0722949,0,-0.621976,0.190386,241,-84,241,-84,364,-79,233,37,-0.00440602,-0.261799,0,-1.5,-nan,0,0,0,-0.665507,0.160416,0,0,0,0,-0.0485122,-0.0722949,16768,0,0,0,0,9332,0.332753,0.0145555,-0.00802079,0.00361477
10151,-3.3422e-12,0,-1.60674e-06,-3.40794e-12,0,0,-1.13739e-13,0,0,-3.66568,0.190386,0.679445,-0.66647,0.15898,-0.0480285,-0.0715742,0,-0.621976,0.190386,241,-84,241,-84,364,-79,233,37,-0.00437011,-0.261799,0,-1.5,-nan,0,0,0,-0.66647,0.15898,0,0,0,0,-0.0480285,-0.0715742,16768,0,0,0,0,9332,0.333235,0.0144124,-0.007949,0.00357889
10169,-3.3422e-12,0,-1.60674e-06,-3.40794e-12,0,0,-1.13739e-13,0,0,-3.66568,0.190386,0.679445,-0.667377,0.157629,-0.0475737,-0.0708963,0,-0.621976,0.190386,241,-84,241,-84,364,-79,233,37,-0.00433645,-0.261799,0,-1.5,-nan,0,0,0,-0.667377,0.157629,0,0,0,0,-0.0475737,-0.0708963,16768,0,0,0,0,9332,0.333689,0.0142694,-0.00788144,0.00354499
10186,-3.3422e-12,0,-1.60674e-06,-3.40794e-12,0,0,-1.1374e-13,0,0,-3.66568,0.190386,0.679445,-0.668182,0.15643,-0.0471705,-0.0702955,0,-0.621976,0.190386,241,-84,241,-84,364,-79,233,37,-0.00430669,-0.261799,0,-1.5,-nan,0,0,0,-0.668182,0.15643,0,0,0,0,-0.0471705,-0.0702955,16768,0,0,0,0,9332,0.334091,0.0141531,-0.0078215,0.00351481
10203,-3.3422e-12,0,-1.60674e-06,-3.40794e-12,0,0,-1.1374e-13,0,0,-3.66568,0.190386,0.679445,-0.668979,0.155242,-0.0467707,-0.0696997,0,-0.621976,0.190386,241,-84,241,-84,364,-79,233,37,-0.00427708,-0.261799,0,-1.5,-nan,0,0,0,-0.668979,0.155242,0,0,0,0,-0.0467707,-0.0696997,16768,0,0,0,0,9332,0.334489,0.014028,-0.00776209,0.00348501
10256,-3.3422e-12,0,-1.60674e-06,-3.40794e-12,0,0,-1.13741e-13,0,0,-3.66568,0.190386,0.679445,-0.671402,0.151631,-0.0455362,-0.0678601,0,-0.621976,0.190386,241,-84,241,-84,364,-79,233,37,-0.00249205,-0.261799,0,-1.5,-nan,0,0,0,-0.671402,0.151631,0,0,0,0,-0.0455362,-0.0678601,16768,0,0,0,0,9332,0.335701,0.0204921,-0.00758154,0.00508949
10273,-3.3422e-12,0,-1.60674e-06,-3.40794e-12,0,0,-1.13741e-13,0,0,-3.66568,0.190386,0.679445,-0.672172,0.150484,-0.0451503,-0.0672849,0,-0.621976,0.190386,241,-84,241,-84,364,-79,233,37,-0.00415987,-0.261799,0,-1.5,-nan,0,0,0,-0.672172,0.150484,0,0,0,0,-0.0451503,-0.0672849,16768,0,0,0,0,9332,0.336086,0.0135452,-0.00752418,0.00336431
10294,-3.3422e-12,0,-1.60674e-06,-3.40794e-12,0,0,-1.13742e-13,0,0,-3.66568,0.190386,0.679445,-0.673113,0.149081,-0.0446776,-0.0665806,0,-0.621976,0.190386,241,-84,241,-84,364,-79,233,37,-0.00412514,-0.261799,0,-1.5,-nan,0,0,0,-0.673113,0.149081,0,0,0,0,-0.0446776,-0.0665806,16768,0,0,0,0,9332,0.336556,0.0134021,-0.00745406,0.00332892
10311,-3.3422e-12,0,-1.60674e-06,-3.40794e-12,0,0,-1.13742e-13,0,0,-3.66568,0.190386,0.679445,-0.673868,0.147956,-0.044299,-0.0660162,0,-0.621976,0.190386,241,-84,241,-84,364,-79,233,37,-0.00409681,-0.261799,0,-1.5,-nan,0,0,0,-0.673868,0.147956,0,0,0,0,-0.044299,-0.0660162,16768,0,0,0,0,9332,0.336934,0.0132859,-0.00739779,0.00330098
10328,-3.3422e-12,0,-1.60674e-06,-3.40794e-12,0,0,-1.13743e-13,0,0,-3.66568,0.190386,0.679445,-0.674617,0.14684,-0.0439235,-0.0654567,0,-0.621976,0.190386,241,-84,241,-84,364,-79,233,37,-0.00406933,-0.261799,0,-1.5,-nan,0,0,0,-0.674617,0.14684,0,0,0,0,-0.0439235,-0.0654567,16768,0,0,0,0,9332,0.337308,0.0131786,-0.00734199,0.00327267
10350,-3.3422e-12,0,-1.60674e-06,-3.40794e-12,0,0,-1.13743e-13,0,0,-3.66568,0.190386,0.679445,-0.675576,0.145411,-0.0434419,-0.0647391,0,-0.621976,0.190386,241,-84,241,-84,364,-79,233,37,-0.00403364,-0.261799,0,-1.5,-nan,0,0,0,-0.675576,0.145411,0,0,0,0,-0.0434419,-0.0647391,16768,0,0,0,0,9332,0.337788,0.0130355,-0.00727054,0.0032369
10367,-3.3422e-12,0,-1.60674e-06,-3.40794e-12,0,0,-1.13744e-13,0,0,-3.66568,0.190386,0.679445,-0.67631,0.144317,-0.0430737,-0.0641903,0,-0.621976,0.190386,241,-84,241,-84,364,-79,233,37,-0.00400649,-0.261799,0,-1.5,-nan,0,0,0,-0.67631,0.144317,0,0,0,0,-0.0430737,-0.0641903,16768,0,0,0,0,9332,0.338155,0.0129193,-0.00721583,0.00320934
10384,-3.3422e-12,0,-1.60674e-06,-3.40794e-12,0,0,-1.13745e-13,0,0,-3.66568,0.190386,0.679445,-0.677038,0.143231,-0.0427086,-0.0636462,0,-0.621976,0.190386,241,-84,241,-84,364,-79,233,37,-0.00397943,-0.261799,0,-1.5,-nan,0,0,0,-0.677038,0.143231,0,0,0,0,-0.0427086,-0.0636462,16768,0,0,0,0,9332,0.338519,0.012812,-0.00716157,0.00318214
10405,-3.3422e-12,0,-1.60674e-06,-3.40794e-12,0,0,-1.13745e-13,0,0,-3.66568,0.190386,0.679445,-0.677887,0.141967,-0.0422828,-0.0630117,0,-0.621976,0.190386,241,-84,241,-84,364,-79,233,37,-0.0039479,-0.261799,0,-1.5,-nan,0,0,0,-0.677887,0.141967,0,0,0,0,-0.0422828,-0.0630117,16768,0,0,0,0,9332,0.338943,0.0126868,-0.00709837,0.00315048
10418,-3.3422e-12,0,-1.60674e-06,-3.40794e-12,0,0,-1.13746e-13,0,0,-3.66568,0.190386,0.679445,-0.678476,0.141089,-0.0419876,-0.0625717,0,-0.621976,0.190386,241,-84,241,-84,364,-79,233,37,-0.00392596,-0.261799,0,-1.5,-nan,0,0,0,-0.678476,0.141089,0,0,0,0,-0.0419876,-0.0625717,16768,0,0,0,0,9332,0.339238,0.0125974,-0.00705446,0.0031285
10436,-3.3422e-12,0,-1.60674e-06,-3.40794e-12,0,0,-1.13746e-13,0,0,-3.66568,0.190386,0.679445,-0.679227,0.13997,-0.0416109,-0.0620103,0,-0.621976,0.190386,241,-84,241,-84,364,-79,233,37,-0.00389804,-0.261799,0,-1.5,-nan,0,0,0,-0.679227,0.13997,0,0,0,0,-0.0416109,-0.0620103,16768,0,0,0,0,9332,0.339614,0.0124812,-0.00699848,0.00310044
10457,-3.3422e-12,0,-1.60674e-06,-3.40794e-12,0,0,-1.13747e-13,0,0,-3.66568,0.190386,0.679445,-0.680095,0.138677,-0.0411754,-0.0613614,0,-0.621976,0.190386,241,-84,241,-84,364,-79,233,37,-0.00386569,-0.261799,0,-1.5,-nan,0,0,0,-0.680095,0.138677,0,0,0,0,-0.0411754,-0.0613614,16768,0,0,0,0,9332,0.340047,0.012356,-0.00693384,0.00306815
10474,-3.3422e-12,0,-1.60674e-06,-3.40794e-12,0,0,-1.13747e-13,0,0,-3.66568,0.190386,0.679445,-0.680791,0.13764,-0.0408264,-0.0608413,0,-0.621976,0.190386,241,-84,241,-84,364,-79,233,37,-0.0038399,-0.261799,0,-1.5,-nan,0,0,0,-0.680791,0.13764,0,0,0,0,-0.0408264,-0.0608413,16768,0,0,0,0,9332,0.340395,0.0122488,-0.00688198,0.00304207
10491,-3.3422e-12,0,-1.60674e-06,-3.40794e-12,0,0,-1.13748e-13,0,0,-3.66568,0.190386,0.679445,-0.681481,0.136611,-0.0404803,-0.0603256,0,-0.621976,0.190386,241,-84,241,-84,364,-79,233,37,-0.00381419,-0.261799,0,-1.5,-nan,0,0,0,-0.681481,0.136611,0,0,0,0,-0.0404803,-0.0603256,16768,0,0,0,0,9332,0.34074,0.0121415,-0.00683055,0.00301637
10513,-3.3422e-12,0,-1.60674e-06,-3.40794e-12,0,0,-1.13748e-13,0,0,-3.66568,0.190386,0.679445,-0.682365,0.135294,-0.0400365,-0.0596642,0,-0.621976,0.190386,241,-84,241,-84,364,-79,233,37,-0.00378149,-0.261799,0,-1.5,-nan,0,0,0,-0.682365,0.135294,0,0,0,0,-0.0400365,-0.0596642,16768,0,0,0,0,9332,0.341182,0.0120074,-0.0067647,0.00298321
10530,-3.3422e-12,0,-1.60674e-06,-3.40794e-12,0,0,-1.13749e-13,0,0,-3.66568,0.190386,0.679445,-0.683041,0.134286,-0.0396972,-0.0591585,0,-0.621976,0.190386,241,-84,241,-84,364,-79,233,37,-0.0037564,-0.261799,0,-1.5,-nan,0,0,0,-0.683041,0.134286,0,0,0,0,-0.0396972,-0.0591585,16768,0,0,0,0,9332,0.341521,0.011909,-0.00671428,0.00295788
10565,-3.3422e-12,0,-1.60674e-06,-3.40794e-12,0,0,-1.13749e-13,0,0,-3.66568,0.190386,0.679445,-0.684411,0.132244,-0.0390049,-0.0581267,0,-0.621976,0.190386,241,-84,241,-84,364,-79,233,37,-0.00370573,-0.261799,0,-1.5,-nan,0,0,0,-0.684411,0.132244,0,0,0,0,-0.0390049,-0.0581267,16768,0,0,0,0,9332,0.342206,0.0117034,-0.0066122,0.00290647
10587,-3.3422e-12,0,-1.60674e-06,-3.40794e-12,0,0,-1.1375e-13,0,0,-3.66568,0.190386,0.679445,-0.685263,0.130975,-0.0385772,-0.0574895,0,-0.621976,0.190386,241,-84,241,-84,364,-79,233,37,-0.00367432,-0.261799,0,-1.5,-nan,0,0,0,-0.685263,0.130975,0,0,0,0,-0.0385772,-0.0574895,16768,0,0,0,0,9332,0.342631,0.0115693,-0.00654875,0.00287443
10623,-3.3422e-12,0,-1.60674e-06,-3.40794e-12,0,0,-1.1375e-13,0,0,-3.66568,0.190386,0.679445,-0.686631,0.128936,-0.0378852,-0.0564582,0,-0.621976,0.190386,241,-84,241,-84,364,-79,233,37,-0.00362375,-0.261799,0,-1.5,-nan,0,0,0,-0.686631,0.128936,0,0,0,0,-0.0378852,-0.0564582,16768,0,0,0,0,9332,0.343316,0.0113636,-0.00644678,0.00282302
10640,-3.3422e-12,0,-1.60674e-06,-3.40794e-12,0,0,-1.13751e-13,0,0,-3.66568,0.190386,0.679445,-0.687272,0.127981,-0.0375641,-0.0559797,0,-0.621976,0.190386,241,-84,241,-84,364,-79,233,37,-0.00360025,-0.261799,0,-1.5,-nan,0,0,0,-0.687272,0.127981,0,0,0,0,-0.0375641,-0.0559797,16768,0,0,0,0,9332,0.343636,0.0112653,-0.00639906,0.00279881
10662,-3.3422e-12,0,-1.60674e-06,-3.40794e-12,0,0,-1.13752e-13,0,0,-3.66568,0.190386,0.679445,-0.688092,0.126759,-0.0371523,-0.055366,0,-0.621976,0.190386,241,-84,241,-84,364,-79,233,37,-0.00356969,-0.261799,0,-1.5,-nan,0,0,0,-0.688092,0.126759,0,0,0,0,-0.0371523,-0.055366,16768,0,0,0,0,9332,0.344046,0.011149,-0.00633796,0.00276826
10676,-3.3422e-12,0,-1.60674e-06,-3.40794e-12,0,0,-1.13752e-13,0,0,-3.66568,0.190386,0.679445,-0.688573,0.126042,-0.0369114,-0.055007,0,-0.621976,0.190386,241,-84,241,-84,364,-79,233,37,-0.00355173,-0.261799,0,-1.5,-nan,0,0,0,-0.688573,0.126042,0,0,0,0,-0.0369114,-0.055007,16768,0,0,0,0,9332,0.344286,0.0110775,-0.00630211,0.00275038
10692,-3.3422e-12,0,-1.60674e-06,-3.40794e-12,0,0,-1.13753e-13,0,0,-3.66568,0.190386,0.679445,-0.689197,0.125112,-0.0365985,-0.0545407,0,-0.621976,0.190386,241,-84,241,-84,364,-79,233,37,-0.00352871,-0.261799,0,-1.5,-nan,0,0,0,-0.689197,0.125112,0,0,0,0,-0.0365985,-0.0545407,16768,0,0,0,0,9332,0.344598,0.0109792,-0.00625562,0.00272691
10714,-3.3422e-12,0,-1.60674e-06,-3.40794e-12,0,0,-1.13753e-13,0,0,-3.66568,0.190386,0.679445,-0.689996,0.123922,-0.0361973,-0.0539428,0,-0.621976,0.190386,241,-84,241,-84,364,-79,233,37,-0.00349898,-0.261799,0,-1.5,-nan,0,0,0,-0.689996,0.123922,0,0,0,0,-0.0361973,-0.0539428,16768,0,0,0,0,9332,0.344998,0.0108629,-0.00619609,0.00269711
10731,-3.3422e-12,0,-1.60674e-06,-3.40794e-12,0,0,-1.13754e-13,0,0,-3.66568,0.190386,0.679445,-0.690608,0.12301,-0.0358905,-0.0534856,0,-0.621976,0.190386,241,-84,241,-84,364,-79,233,37,-0.0034763,-0.261799,0,-1.5,-nan,0,0,0,-0.690608,0.12301,0,0,0,0,-0.0358905,-0.0534856,16768,0,0,0,0,9332,0.345304,0.0107646,-0.00615049,0.0026742
10748,-3.3422e-12,0,-1.60674e-06,-3.40794e-12,0,0,-1.13754e-13,0,0,-3.66568,0.190386,0.679445,-0.691214,0.122106,-0.0355863,-0.0530322,0,-0.621976,0.190386,241,-84,241,-84,364,-79,233,37,-0.00345363,-0.261799,0,-1.5,-nan,0,0,0,-0.691214,0.122106,0,0,0,0,-0.0355863,-0.0530322,16768,0,0,0,0,9332,0.345607,0.0106752,-0.00610529,0.00265166
10820,-3.3422e-12,0,-1.60674e-06,-3.40794e-12,0,0,-1.13755e-13,0,0,-3.66568,0.190386,0.679445,-0.693695,0.118409,-0.0343105,-0.051131,0,-0.621976,0.190386,241,-84,241,-84,364,-79,233,37,-0.00336397,-0.261799,0,-1.5,-nan,0,0,0,-0.693695,0.118409,0,0,0,0,-0.0343105,-0.051131,16768,0,0,0,0,9332,0.346847,0.0102907,-0.00592045,0.00255648
10837,-3.3422e-12,0,-1.60674e-06,-3.40794e-12,0,0,-1.13755e-13,0,0,-3.66568,0.190386,0.679445,-0.694275,0.117545,-0.0340197,-0.0506976,0,-0.621976,0.190386,241,-84,241,-84,364,-79,233,37,-0.00334236,-0.261799,0,-1.5,-nan,0,0,0,-0.694275,0.117545,0,0,0,0,-0.0340197,-0.0506976,16768,0,0,0,0,9332,0.347137,0.0102103,-0.00587724,0.00253487
10854,-3.3422e-12,0,-1.60674e-06,-3.40794e-12,0,0,-1.13756e-13,0,0,-3.66568,0.190386,0.679445,-0.69485,0.116688,-0.0337313,-0.0502679,0,-0.621976,0.190386,241,-84,241,-84,364,-79,233,37,-0.00332094,-0.261799,0,-1.5,-nan,0,0,0,-0.69485,0.116688,0,0,0,0,-0.0337313,-0.0502679,16768,0,0,0,0,9332,0.347425,0.0101209,-0.00583439,0.00251345
10876,-3.3422e-12,0,-1.60674e-06,-3.40794e-12,0,0,-1.13756e-13,0,0,-3.66568,0.190386,0.679445,-0.695586,0.115591,-0.0333614,-0.0497166,0,-0.621976,0.190386,241,-84,241,-84,364,-79,233,37,-0.00329365,-0.261799,0,-1.5,-nan,0,0,0,-0.695586,0.115591,0,0,0,0,-0.0333614,-0.0497166,16768,0,0,0,0,9332,0.347793,0.0100046,-0.00577953,0.00248589
10893,-3.3422e-12,0,-1.60674e-06,-3.40794e-12,0,0,-1.13757e-13,0,0,-3.66568,0.190386,0.679445,-0.69615,0.11475,-0.0330787,-0.0492953,0,-0.621976,0.190386,241,-84,241,-84,364,-79,233,37,-0.00327267,-0.261799,0,-1.5,-nan,0,0,0,-0.69615,0.11475,0,0,0,0,-0.0330787,-0.0492953,16768,0,0,0,0,9332,0.348075,0.00992417,-0.0057375,0.00246484
10915,-3.3422e-12,0,-1.60674e-06,-3.40794e-12,0,0,-1.13758e-13,0,0,-3.66568,0.190386,0.679445,-0.696872,0.113674,-0.032716,-0.0487547,0,-0.621976,0.190386,241,-84,241,-84,364,-79,233,37,-0.00324606,-0.261799,0,-1.5,-nan,0,0,0,-0.696872,0.113674,0,0,0,0,-0.032716,-0.0487547,16768,0,0,0,0,9332,0.348436,0.00981688,-0.00568371,0.00243764
10933,-3.3422e-12,0,-1.60674e-06,-3.40794e-12,0,0,-1.13758e-13,0,0,-3.66568,0.190386,0.679445,-0.697458,0.112802,-0.0324224,-0.0483173,0,-0.621976,0.190386,241,-84,241,-84,364,-79,233,37,-0.00322424,-0.261799,0,-1.5,-nan,0,0,0,-0.697458,0.112802,0,0,0,0,-0.0324224,-0.0483173,16768,0,0,0,0,9332,0.348729,0.00972748,-0.00564009,0.00241585
10946,-3.3422e-12,0,-1.60674e-06,-3.40794e-12,0,0,-1.13759e-13,0,0,-3.66568,0.190386,0.679445,-0.697878,0.112176,-0.0322122,-0.048004,0,-0.621976,0.190386,241,-84,241,-84,364,-79,233,37,-0.0032086,-0.261799,0,-1.5,-nan,0,0,0,-0.697878,0.112176,0,0,0,0,-0.0322122,-0.048004,16768,0,0,0,0,9332,0.348939,0.00966489,-0.00560881,0.0024002
10965,-3.3422e-12,0,-1.60674e-06,-3.40794e-12,0,0,-1.13759e-13,0,0,-3.66568,0.190386,0.679445,-0.698486,0.11127,-0.0319071,-0.0475493,0,-0.621976,0.190386,241,-84,241,-84,364,-79,233,37,-0.00318602,-0.261799,0,-1.5,-nan,0,0,0,-0.698486,0.11127,0,0,0,0,-0.0319071,-0.0475493,16768,0,0,0,0,9332,0.349243,0.00957549,-0.0055635,0.00237748
10984,-3.3422e-12,0,-1.60674e-06,-3.40794e-12,0,0,-1.1376e-13,0,0,-3.66568,0.190386,0.679445,-0.699088,0.110373,-0.0316048,-0.0470989,0,-0.621976,0.190386,241,-84,241,-84,364,-79,233,37,-0.00316368,-0.261799,0,-1.5,-nan,0,0,0,-0.699088,0.110373,0,0,0,0,-0.0316048,-0.0470989,16768,0,0,0,0,9332,0.349544,0.00947714,-0.00551863,0.00235494
11001,-3.3422e-12,0,-1.60674e-06,-3.40794e-12,0,0,-1.1376e-13,0,0,-3.66568,0.190386,0.679445,-0.699622,0.109576,-0.031337,-0.0466998,0,-0.621976,0.190386,241,-84,241,-84,364,-79,233,37,-0.0031438,-0.261799,0,-1.5,-nan,0,0,0,-0.699622,0.109576,0,0,0,0,-0.031337,-0.0466998,16768,0,0,0,0,9332,0.349811,0.00939667,-0.00547881,0.00233501
11022,-3.3422e-12,0,-1.60674e-06,-3.40794e-12,0,0,-1.13761e-13,0,0,-3.66568,0.190386,0.679445,-0.700276,0.108603,-0.031009,-0.046211,0,-0.621976,0.190386,241,-84,241,-84,364,-79,233,37,-0.00311952,-0.261799,0,-1.5,-nan,0,0,0,-0.700276,0.108603,0,0,0,0,-0.031009,-0.046211,16768,0,0,0,0,9332,0.350138,0.00929832,-0.00543013,0.00231061
11039,-3.3422e-12,0,-1.60674e-06,-3.40794e-12,0,0,-1.13761e-13,0,0,-3.66568,0.190386,0.679445,-0.7008,0.107821,-0.0307462,-0.0458193,0,-0.621976,0.190386,241,-84,241,-84,364,-79,233,37,-0.00310002,-0.261799,0,-1.5,-nan,0,0,0,-0.7008,0.107821,0,0,0,0,-0.0307462,-0.0458193,16768,0,0,0,0,9332,0.3504,0.0092268,-0.00539107,0.00229105
11056,-3.3422e-12,0,-1.60674e-06,-3.40794e-12,0,0,-1.13762e-13,0,0,-3.66568,0.190386,0.679445,-0.70132,0.107047,-0.0304857,-0.045431,0,-0.621976,0.190386,241,-84,241,-84,364,-79,233,37,-0.00308085,-0.261799,0,-1.5,-nan,0,0,0,-0.70132,0.107047,0,0,0,0,-0.0304857,-0.045431,16768,0,0,0,0,9332,0.35066,0.00914633,-0.00535234,0.0022715
11077,-3.3422e-12,0,-1.60674e-06,-3.40794e-12,0,0,-1.13762e-13,0,0,-3.66568,0.190386,0.679445,-0.701955,0.1061,-0.0301665,-0.0449555,0,-0.621976,0.190386,241,-84,241,-84,364,-79,233,37,-0.00305715,-0.261799,0,-1.5,-nan,0,0,0,-0.701955,0.1061,0,0,0,0,-0.0301665,-0.0449555,16768,0,0,0,0,9332,0.350978,0.00904799,-0.00530499,0.00224784
11094,-3.3422e-12,0,-1.60674e-06,-3.40794e-12,0,0,-1.13763e-13,0,0,-3.66568,0.190386,0.679445,-0.702465,0.10534,-0.0299108,-0.0445744,0,-0.621976,0.190386,241,-84,241,-84,364,-79,233,37,-0.00303834,-0.261799,0,-1.5,-nan,0,0,0,-0.702465,0.10534,0,0,0,0,-0.0299108,-0.0445744,16768,0,0,0,0,9332,0.351232,0.00897646,-0.005267,0.00222865
11111,-3.3422e-12,0,-1.60674e-06,-3.40794e-12,0,0,-1.13763e-13,0,0,-3.66568,0.190386,0.679445,-0.702971,0.104586,-0.0296574,-0.0441967,0,-0.621976,0.190386,241,-84,241,-84,364,-79,233,37,-0.00301948,-0.261799,0,-1.5,-nan,0,0,0,-0.702971,0.104586,0,0,0,0,-0.0296574,-0.0441967,16768,0,0,0,0,9332,0.351485,0.00889599,-0.00522932,0.00220984
11185,-3.3422e-12,0,-1.60674e-06,-3.40794e-12,0,0,-1.13764e-13,0,0,-3.66568,0.190386,0.679445,-0.705092,0.101425,-0.0285641,-0.0425675,0,-0.621976,0.190386,241,-84,241,-84,364,-79,233,37,-0.00294278,-0.261799,0,-1.5,-nan,0,0,0,-0.705092,0.101425,0,0,0,0,-0.0285641,-0.0425675,16768,0,0,0,0,9332,0.352546,0.00856519,-0.00507123,0.00212844
11203,-3.3422e-12,0,-1.60674e-06,-3.40794e-12,0,0,-1.13765e-13,0,0,-3.66568,0.190386,0.679445,-0.705603,0.100663,-0.0283078,-0.0421856,0,-0.621976,0.190386,241,-84,241,-84,364,-79,233,37,-0.00292389,-0.261799,0,-1.5,-nan,0,0,0,-0.705603,0.100663,0,0,0,0,-0.0283078,-0.0421856,16768,0,0,0,0,9332,0.352802,0.00849366,-0.00503315,0.00210926
11217,-3.3422e-12,0,-1.60674e-06,-3.40794e-12,0,0,-1.13765e-13,0,0,-3.66568,0.190386,0.679445,-0.70597,0.100117,-0.0281243,-0.041912,0,-0.621976,0.190386,241,-84,241,-84,364,-79,233,37,-0.00291017,-0.261799,0,-1.5,-nan,0,0,0,-0.70597,0.100117,0,0,0,0,-0.0281243,-0.041912,16768,0,0,0,0,9332,0.352985,0.00844002,-0.00500584,0.00209566
11235,-3.3422e-12,0,-1.60674e-06,-3.40794e-12,0,0,-1.13766e-13,0,0,-3.66568,0.190386,0.679445,-0.706501,0.0993256,-0.0278579,-0.041515,0,-0.621976,0.190386,241,-84,241,-84,364,-79,233,37,-0.00289055,-0.261799,0,-1.5,-nan,0,0,0,-0.706501,0.0993256,0,0,0,0,-0.0278579,-0.041515,16768,0,0,0,0,9332,0.353251,0.00835955,-0.00496628,0.00207573
11252,-3.3422e-12,0,-1.60674e-06,-3.40794e-12,0,0,-1.13766e-13,0,0,-3.66568,0.190386,0.679445,-0.706972,0.0986237,-0.0276218,-0.0411632,0,-0.621976,0.190386,241,-84,241,-84,364,-79,233,37,-0.00287296,-0.261799,0,-1.5,-nan,0,0,0,-0.706972,0.0986237,0,0,0,0,-0.0276218,-0.0411632,16768,0,0,0,0,9332,0.353486,0.00828803,-0.00493119,0.00205822
11269,-3.3422e-12,0,-1.60674e-06,-3.40794e-12,0,0,-1.13767e-13,0,0,-3.66568,0.190386,0.679445,-0.707439,0.0979279,-0.0273877,-0.0408143,0,-0.621976,0.190386,241,-84,241,-84,364,-79,233,37,-0.00285568,-0.261799,0,-1.5,-nan,0,0,0,-0.707439,0.0979279,0,0,0,0,-0.0273877,-0.0408143,16768,0,0,0,0,9332,0.353719,0.0082165,-0.0048964,0.00204071
11290,-3.3422e-12,0,-1.60674e-06,-3.40794e-12,0,0,-1.13767e-13,0,0,-3.66568,0.190386,0.679445,-0.70801,0.0970772,-0.027101,-0.0403871,0,-0.621976,0.190386,241,-84,241,-84,364,-79,233,37,-0.00283457,-0.261799,0,-1.5,-nan,0,0,0,-0.70801,0.0970772,0,0,0,0,-0.027101,-0.0403871,16768,0,0,0,0,9332,0.354005,0.00812709,-0.00485386,0.00201929
11308,-3.3422e-12,0,-1.60674e-06,-3.40794e-12,0,0,-1.13768e-13,0,0,-3.66568,0.190386,0.679445,-0.708495,0.0963545,-0.0268578,-0.0400247,0,-0.621976,0.190386,241,-84,241,-84,364,-79,233,37,-0.0028165,-0.261799,0,-1.5,-nan,0,0,0,-0.708495,0.0963545,0,0,0,0,-0.0268578,-0.0400247,16768,0,0,0,0,9332,0.354247,0.00805557,-0.00481773,0.00200123
11324,-3.3422e-12,0,-1.60674e-06,-3.40794e-12,0,0,-1.13768e-13,0,0,-3.66568,0.190386,0.679445,-0.708922,0.0957175,-0.0266436,-0.0397054,0,-0.621976,0.190386,241,-84,241,-84,364,-79,233,37,-0.00280067,-0.261799,0,-1.5,-nan,0,0,0,-0.708922,0.0957175,0,0,0,0,-0.0266436,-0.0397054,16768,0,0,0,0,9332,0.354461,0.00799298,-0.00478587,0.00198521
11346,-3.3422e-12,0,-1.60674e-06,-3.40794e-12,0,0,-1.13769e-13,0,0,-3.66568,0.190386,0.679445,-0.709504,0.0948507,-0.0263515,-0.0392701,0,-0.621976,0.190386,241,-84,241,-84,364,-79,233,37,-0.00277912,-0.261799,0,-1.5,-nan,0,0,0,-0.709504,0.0948507,0,0,0,0,-0.0263515,-0.0392701,16768,0,0,0,0,9332,0.354752,0.00790358,-0.00474253,0.00196341
11412,-3.3422e-12,0,-1.60674e-06,-3.40794e-12,0,0,-1.13769e-13,0,0,-3.66568,0.190386,0.679445,-0.711192,0.0923348,-0.0254851,-0.0379789,0,-0.621976,0.190386,241,-84,241,-84,364,-79,233,37,-0.00271777,-0.261799,0,-1.5,-nan,0,0,0,-0.711192,0.0923348,0,0,0,0,-0.0254851,-0.0379789,16768,0,0,0,0,9332,0.355596,0.0076443,-0.00461674,0.00189897
11430,-3.3422e-12,0,-1.60674e-06,-3.40794e-12,0,0,-1.1377e-13,0,0,-3.66568,0.190386,0.679445,-0.711648,0.0916552,-0.0252564,-0.0376382,0,-0.621976,0.190386,241,-84,241,-84,364,-79,233,37,-0.00270093,-0.261799,0,-1.5,-nan,0,0,0,-0.711648,0.0916552,0,0,0,0,-0.0252564,-0.0376382,16768,0,0,0,0,9332,0.355824,0.00757277,-0.00458276,0.00188183
11469,-3.3422e-12,0,-1.60674e-06,-3.40794e-12,0,0,-1.13771e-13,0,0,-3.66568,0.190386,0.679445,-0.712617,0.0902108,-0.0247656,-0.0369068,0,-0.621976,0.190386,241,-84,241,-84,364,-79,233,37,-0.00266522,-0.261799,0,-1.5,-nan,0,0,0,-0.712617,0.0902108,0,0,0,0,-0.0247656,-0.0369068,16768,0,0,0,0,9332,0.356309,0.00742972,-0.00451054,0.00184532
11487,-3.3422e-12,0,-1.60674e-06,-3.40794e-12,0,0,-1.13771e-13,0,0,-3.66568,0.190386,0.679445,-0.71306,0.0895505,-0.0245434,-0.0365756,0,-0.621976,0.190386,241,-84,241,-84,364,-79,233,37,-0.00264878,-0.261799,0,-1.5,-nan,0,0,0,-0.71306,0.0895505,0,0,0,0,-0.0245434,-0.0365756,16768,0,0,0,0,9332,0.35653,0.00736713,-0.00447753,0.00182874
11501,-3.3422e-12,0,-1.60674e-06,-3.40794e-12,0,0,-1.13772e-13,0,0,-3.66568,0.190386,0.679445,-0.713402,0.0890407,-0.024372,-0.0363202,0,-0.621976,0.190386,241,-84,241,-84,364,-79,233,37,-0.00263596,-0.261799,0,-1.5,-nan,0,0,0,-0.713402,0.0890407,0,0,0,0,-0.024372,-0.0363202,16768,0,0,0,0,9332,0.356701,0.00731349,-0.00445204,0.00181608
11538,-3.3422e-12,0,-1.60674e-06,-3.40794e-12,0,0,-1.13772e-13,0,0,-3.66568,0.190386,0.679445,-0.714291,0.0877171,-0.0239227,-0.0356506,0,-0.621976,0.190386,241,-84,241,-84,364,-79,233,37,-0.0026033,-0.261799,0,-1.5,-nan,0,0,0,-0.714291,0.0877171,0,0,0,0,-0.0239227,-0.0356506,16768,0,0,0,0,9332,0.357145,0.00717938,-0.00438585,0.00178255
11555,-3.3422e-12,0,-1.60674e-06,-3.40794e-12,0,0,-1.13773e-13,0,0,-3.66568,0.190386,0.679445,-0.714695,0.0871144,-0.0237199,-0.0353484,0,-0.621976,0.190386,241,-84,241,-84,364,-79,233,37,-0.00258826,-0.261799,0,-1.5,-nan,0,0,0,-0.714695,0.0871144,0,0,0,0,-0.0237199,-0.0353484,16768,0,0,0,0,9332,0.357347,0.00711679,-0.00435572,0.00176746
11573,-3.3422e-12,0,-1.60674e-06,-3.40794e-12,0,0,-1.13773e-13,0,0,-3.66568,0.190386,0.679445,-0.715119,0.0864819,-0.0235071,-0.0350313,0,-0.621976,0.190386,241,-84,241,-84,364,-79,233,37,-0.00257259,-0.261799,0,-1.5,-nan,0,0,0,-0.715119,0.0864819,0,0,0,0,-0.0235071,-0.0350313,16768,0,0,0,0,9332,0.35756,0.00705123,-0.0043241,0.00175151
11594,-3.3422e-12,0,-1.60674e-06,-3.40794e-12,0,0,-1.13774e-13,0,0,-3.66568,0.190386,0.679445,-0.715609,0.0857516,-0.0232611,-0.0346647,0,-0.621976,0.190386,241,-84,241,-84,364,-79,233,37,-0.00255439,-0.261799,0,-1.5,-nan,0,0,0,-0.715609,0.0857516,0,0,0,0,-0.0232611,-0.0346647,16768,0,0,0,0,9332,0.357805,0.00698268,-0.00428758,0.00173319
11611,-3.3422e-12,0,-1.60674e-06,-3.40794e-12,0,0,-1.13774e-13,0,0,-3.66568,0.190386,0.679445,-0.716003,0.0851655,-0.023064,-0.0343709,0,-0.621976,0.190386,241,-84,241,-84,364,-79,233,37,-0.00168037,-0.261799,0,-1.5,-nan,0,0,0,-0.716003,0.0851655,0,0,0,0,-0.023064,-0.0343709,16768,0,0,0,0,9332,0.358001,0.0103801,-0.00425828,0.0025779
11628,-3.3422e-12,0,-1.60674e-06,-3.40794e-12,0,0,-1.13775e-13,0,0,-3.66568,0.190386,0.679445,-0.71637,0.0846185,-0.02288,-0.0340967,0,-0.621976,0.190386,241,-84,241,-84,364,-79,233,37,-0.00252604,-0.261799,0,-1.5,-nan,0,0,0,-0.71637,0.0846185,0,0,0,0,-0.02288,-0.0340967,16768,0,0,0,0,9332,0.358185,0.00686646,-0.00423092,0.00170488
11649,-3.3422e-12,0,-1.60674e-06,-3.40794e-12,0,0,-1.13775e-13,0,0,-3.66568,0.190386,0.679445,-0.716869,0.0838741,-0.0226291,-0.0337229,0,-0.621976,0.190386,241,-84,241,-84,364,-79,233,37,-0.00250764,-0.261799,0,-1.5,-nan,0,0,0,-0.716869,0.0838741,0,0,0,0,-0.0226291,-0.0337229,16768,0,0,0,0,9332,0.358435,0.00678599,-0.0041937,0.00168607
11666,-3.3422e-12,0,-1.60674e-06,-3.40794e-12,0,0,-1.13776e-13,0,0,-3.66568,0.190386,0.679445,-0.717252,0.083304,-0.0224373,-0.033437,0,-0.621976,0.190386,241,-84,241,-84,364,-79,233,37,-0.00249329,-0.261799,0,-1.5,-nan,0,0,0,-0.717252,0.083304,0,0,0,0,-0.0224373,-0.033437,16768,0,0,0,0,9332,0.358626,0.00673234,-0.0041652,0.00167191
11683,-3.3422e-12,0,-1.60674e-06,-3.40794e-12,0,0,-1.13777e-13,0,0,-3.66568,0.190386,0.679445,-0.717631,0.0827388,-0.0222471,-0.0331536,0,-0.621976,0.190386,241,-84,241,-84,364,-79,233,37,-0.00247919,-0.261799,0,-1.5,-nan,0,0,0,-0.717631,0.0827388,0,0,0,0,-0.0222471,-0.0331536,16768,0,0,0,0,9332,0.358816,0.00666976,-0.00413694,0.00165775
11705,-3.3422e-12,0,-1.60674e-06,-3.40794e-12,0,0,-1.13777e-13,0,0,-3.66568,0.190386,0.679445,-0.718117,0.082015,-0.0220032,-0.0327902,0,-0.621976,0.190386,241,-84,241,-84,364,-79,233,37,-0.00246125,-0.261799,0,-1.5,-nan,0,0,0,-0.718117,0.082015,0,0,0,0,-0.0220032,-0.0327902,16768,0,0,0,0,9332,0.359058,0.00659823,-0.00410075,0.0016395
11722,-3.3422e-12,0,-1.60674e-06,-3.40794e-12,0,0,-1.13778e-13,0,0,-3.66568,0.190386,0.679445,-0.718467,0.0814931,-0.0218277,-0.0325285,0,-0.621976,0.190386,241,-84,241,-84,364,-79,233,37,-0.00299035,-0.261799,0,-1.5,-nan,0,0,0,-0.718467,0.0814931,0,0,0,0,-0.0218277,-0.0325285,16768,0,0,0,0,9332,0.359234,0.00436306,-0.00407466,0.00108431
11743,-3.3422e-12,0,-1.60674e-06,-3.40794e-12,0,0,-1.13778e-13,0,0,-3.66568,0.190386,0.679445,-0.718943,0.0807832,-0.0215883,-0.0321718,0,-0.621976,0.190386,241,-84,241,-84,364,-79,233,37,-0.00243058,-0.261799,0,-1.5,-nan,0,0,0,-0.718943,0.0807832,0,0,0,0,-0.0215883,-0.0321718,16768,0,0,0,0,9332,0.359472,0.00647306,-0.00403916,0.00160858
11757,-3.3422e-12,0,-1.60674e-06,-3.40794e-12,0,0,-1.13779e-13,0,0,-3.66568,0.190386,0.679445,-0.719244,0.0803347,-0.0214376,-0.0319472,0,-0.621976,0.190386,241,-84,241,-84,364,-79,233,37,-0.00241933,-0.261799,0,-1.5,-nan,0,0,0,-0.719244,0.0803347,0,0,0,0,-0.0214376,-0.0319472,16768,0,0,0,0,9332,0.359622,0.00642836,-0.00401674,0.0015974
11774,-3.3422e-12,0,-1.60674e-06,-3.40794e-12,0,0,-1.13779e-13,0,0,-3.66568,0.190386,0.679445,-0.719607,0.0797947,-0.0212559,-0.0316764,0,-0.621976,0.190386,241,-84,241,-84,364,-79,233,37,-0.00240593,-0.261799,0,-1.5,-nan,0,0,0,-0.719607,0.0797947,0,0,0,0,-0.0212559,-0.0316764,16768,0,0,0,0,9332,0.359803,0.00637472,-0.00398974,0.00158381
11795,-3.3422e-12,0,-1.60674e-06,-3.40794e-12,0,0,-1.1378e-13,0,0,-3.66568,0.190386,0.679445,-0.72005,0.0791345,-0.0210334,-0.0313448,0,-0.621976,0.190386,241,-84,241,-84,364,-79,233,37,-0.00238949,-0.261799,0,-1.5,-nan,0,0,0,-0.72005,0.0791345,0,0,0,0,-0.0210334,-0.0313448,16768,0,0,0,0,9332,0.360025,0.00631213,-0.00395672,0.00156723
11812,-3.3422e-12,0,-1.60674e-06,-3.40794e-12,0,0,-1.1378e-13,0,0,-3.66568,0.190386,0.679445,-0.720405,0.0786046,-0.0208551,-0.0310792,0,-0.621976,0.190386,241,-84,241,-84,364,-79,233,37,-0.00237623,-0.261799,0,-1.5,-nan,0,0,0,-0.720405,0.0786046,0,0,0,0,-0.0208551,-0.0310792,16768,0,0,0,0,9332,0.360203,0.00625849,-0.00393023,0.001554
11829,-3.3422e-12,0,-1.60674e-06,-3.40794e-12,0,0,-1.13781e-13,0,0,-3.66568,0.190386,0.679445,-0.720758,0.0780793,-0.0206783,-0.0308157,0,-0.621976,0.190386,241,-84,241,-84,364,-79,233,37,-0.00236318,-0.261799,0,-1.5,-nan,0,0,0,-0.720758,0.0780793,0,0,0,0,-0.0206783,-0.0308157,16768,0,0,0,0,9332,0.360379,0.00620484,-0.00390396,0.00154078
11868,-3.3422e-12,0,-1.60674e-06,-3.40794e-12,0,0,-1.13781e-13,0,0,-3.66568,0.190386,0.679445,-0.721551,0.0768967,-0.0202765,-0.0302169,0,-0.621976,0.190386,241,-84,241,-84,364,-79,233,37,-0.00233404,-0.261799,0,-1.5,-nan,0,0,0,-0.721551,0.0768967,0,0,0,0,-0.0202765,-0.0302169,16768,0,0,0,0,9332,0.360776,0.00607967,-0.00384484,0.00151079
11885,-3.3422e-12,0,-1.60674e-06,-3.40794e-12,0,0,-1.13782e-13,0,0,-3.66568,0.190386,0.679445,-0.721894,0.0763859,-0.0201046,-0.0299608,0,-0.621976,0.190386,241,-84,241,-84,364,-79,233,37,-0.00232117,-0.261799,0,-1.5,-nan,0,0,0,-0.721894,0.0763859,0,0,0,0,-0.0201046,-0.0299608,16768,0,0,0,0,9332,0.360947,0.00603497,-0.0038193,0.00149813
11903,-3.3422e-12,0,-1.60674e-06,-3.40794e-12,0,0,-1.13782e-13,0,0,-3.66568,0.190386,0.679445,-0.722234,0.0758795,-0.0199342,-0.0297068,0,-0.621976,0.190386,241,-84,241,-84,364,-79,233,37,-0.0023087,-0.261799,0,-1.5,-nan,0,0,0,-0.722234,0.0758795,0,0,0,0,-0.0199342,-0.0297068,16768,0,0,0,0,9332,0.361117,0.00598133,-0.00379397,0.00148527
11924,-3.3422e-12,0,-1.60674e-06,-3.40794e-12,0,0,-1.13783e-13,0,0,-3.66568,0.190386,0.679445,-0.72265,0.0752603,-0.0197256,-0.0293959,0,-0.621976,0.190386,241,-84,241,-84,364,-79,233,37,-0.0022932,-0.261799,0,-1.5,-nan,0,0,0,-0.72265,0.0752603,0,0,0,0,-0.0197256,-0.0293959,16768,0,0,0,0,9332,0.361325,0.00591874,-0.00376301,0.00146981
11965,-3.3422e-12,0,-1.60674e-06,-3.40794e-12,0,0,-1.13784e-13,0,0,-3.66568,0.190386,0.679445,-0.723464,0.0740468,-0.0193129,-0.028781,0,-0.621976,0.190386,241,-84,241,-84,364,-79,233,37,-0.00226326,-0.261799,0,-1.5,-nan,0,0,0,-0.723464,0.0740468,0,0,0,0,-0.0193129,-0.028781,16768,0,0,0,0,9332,0.361732,0.00579357,-0.00370234,0.00143908
11982,-3.3422e-12,0,-1.60674e-06,-3.40794e-12,0,0,-1.13784e-13,0,0,-3.66568,0.190386,0.679445,-0.72379,0.0735603,-0.0191492,-0.028537,0,-0.621976,0.190386,241,-84,241,-84,364,-79,233,37,-0.00225123,-0.261799,0,-1.5,-nan,0,0,0,-0.72379,0.0735603,0,0,0,0,-0.0191492,-0.028537,16768,0,0,0,0,9332,0.361895,0.00574887,-0.00367801,0.00142679
12004,-3.3422e-12,0,-1.60674e-06,-3.40794e-12,0,0,-1.13785e-13,0,0,-3.66568,0.190386,0.679445,-0.724208,0.0729372,-0.0189393,-0.0282242,0,-0.621976,0.190386,241,-84,241,-84,364,-79,233,37,-0.00223572,-0.261799,0,-1.5,-nan,0,0,0,-0.724208,0.0729372,0,0,0,0,-0.0189393,-0.0282242,16768,0,0,0,0,9332,0.362104,0.00567734,-0.00364686,0.00141114
12018,-3.3422e-12,0,-1.60674e-06,-3.40794e-12,0,0,-1.13785e-13,0,0,-3.66568,0.190386,0.679445,-0.724472,0.0725438,-0.0188071,-0.0280271,0,-0.621976,0.190386,241,-84,241,-84,364,-79,233,37,-0.00222586,-0.261799,0,-1.5,-nan,0,0,0,-0.724472,0.0725438,0,0,0,0,-0.0188071,-0.0280271,16768,0,0,0,0,9332,0.362236,0.00564456,-0.00362719,0.00140133
12035,-3.3422e-12,0,-1.60674e-06,-3.40794e-12,0,0,-1.13786e-13,0,0,-3.66568,0.190386,0.679445,-0.72479,0.07207,-0.0186477,-0.0277896,0,-0.621976,0.190386,241,-84,241,-84,364,-79,233,37,-0.00221396,-0.261799,0,-1.5,-nan,0,0,0,-0.72479,0.07207,0,0,0,0,-0.0186477,-0.0277896,16768,0,0,0,0,9332,0.362395,0.00559688,-0.0036035,0.00138953
12056,-3.3422e-12,0,-1.60674e-06,-3.40794e-12,0,0,-1.13786e-13,0,0,-3.66568,0.190386,0.679445,-0.725179,0.0714907,-0.0184525,-0.0274987,0,-0.621976,0.190386,241,-84,241,-84,364,-79,233,37,-0.00219953,-0.261799,0,-1.5,-nan,0,0,0,-0.725179,0.0714907,0,0,0,0,-0.0184525,-0.0274987,16768,0,0,0,0,9332,0.362589,0.00553429,-0.00357454,0.001375
12073,-3.3422e-12,0,-1.60674e-06,-3.40794e-12,0,0,-1.13787e-13,0,0,-3.66568,0.190386,0.679445,-0.725491,0.0710259,-0.0182961,-0.0272656,0,-0.621976,0.190386,241,-84,241,-84,364,-79,233,37,-0.00218802,-0.261799,0,-1.5,-nan,0,0,0,-0.725491,0.0710259,0,0,0,0,-0.0182961,-0.0272656,16768,0,0,0,0,9332,0.362745,0.00548959,-0.00355129,0.00136327
12090,-3.3422e-12,0,-1.60674e-06,-3.40794e-12,0,0,-1.13787e-13,0,0,-3.66568,0.190386,0.679445,-0.7258,0.070565,-0.018141,-0.0270345,0,-0.621976,0.190386,241,-84,241,-84,364,-79,233,37,-0.00217653,-0.261799,0,-1.5,-nan,0,0,0,-0.7258,0.070565,0,0,0,0,-0.018141,-0.0270345,16768,0,0,0,0,9332,0.3629,0.00544488,-0.00352825,0.00135172
12130,-3.3422e-12,0,-1.60674e-06,-3.40794e-12,0,0,-1.13788e-13,0,0,-3.66568,0.190386,0.679445,-0.726514,0.0695014,-0.0177795,-0.0264957,0,-0.621976,0.190386,241,-84,241,-84,364,-79,233,37,-0.00215036,-0.261799,0,-1.5,-nan,0,0,0,-0.726514,0.0695014,0,0,0,0,-0.0177795,-0.0264957,16768,0,0,0,0,9332,0.363257,0.0053376,-0.00347507,0.00132471
12147,-3.3422e-12,0,-1.60674e-06,-3.40794e-12,0,0,-1.13788e-13,0,0,-3.66568,0.190386,0.679445,-0.726815,0.0690536,-0.0176288,-0.0262711,0,-0.621976,0.190386,241,-84,241,-84,364,-79,233,37,-0.00213914,-0.261799,0,-1.5,-nan,0,0,0,-0.726815,0.0690536,0,0,0,0,-0.0176288,-0.0262711,16768,0,0,0,0,9332,0.363407,0.00529289,-0.00345268,0.00131354
12165,-3.3422e-12,0,-1.60674e-06,-3.40794e-12,0,0,-1.13789e-13,0,0,-3.66568,0.190386,0.679445,-0.72713,0.0685835,-0.0174706,-0.0260354,0,-0.621976,0.190386,241,-84,241,-84,364,-79,233,37,-0.00212743,-0.261799,0,-1.5,-nan,0,0,0,-0.72713,0.0685835,0,0,0,0,-0.0174706,-0.0260354,16768,0,0,0,0,9332,0.363565,0.00523925,-0.00342917,0.00130174
12198,-3.3422e-12,0,-1.60674e-06,-3.40794e-12,0,0,-1.1379e-13,0,0,-3.66568,0.190386,0.679445,-0.727699,0.0677356,-0.0171833,-0.0256073,0,-0.621976,0.190386,241,-84,241,-84,364,-79,233,37,-0.0021064,-0.261799,0,-1.5,-nan,0,0,0,-0.727699,0.0677356,0,0,0,0,-0.0171833,-0.0256073,16768,0,0,0,0,9332,0.363849,0.00515878,-0.00338678,0.00128038
12215,-3.3422e-12,0,-1.60674e-06,-3.40794e-12,0,0,-1.1379e-13,0,0,-3.66568,0.190386,0.679445,-0.727989,0.0673027,-0.0170377,-0.0253902,0,-0.621976,0.190386,241,-84,241,-84,364,-79,233,37,-0.00209556,-0.261799,0,-1.5,-nan,0,0,0,-0.727989,0.0673027,0,0,0,0,-0.0170377,-0.0253902,16768,0,0,0,0,9332,0.363995,0.00511408,-0.00336514,0.00126958
12233,-3.3422e-12,0,-1.60674e-06,-3.40794e-12,0,0,-1.13791e-13,0,0,-3.66568,0.190386,0.679445,-0.728277,0.0668735,-0.0168932,-0.025175,0,-0.621976,0.190386,241,-84,241,-84,364,-79,233,37,-0.0020849,-0.261799,0,-1.5,-nan,0,0,0,-0.728277,0.0668735,0,0,0,0,-0.0168932,-0.025175,16768,0,0,0,0,9332,0.364139,0.00506938,-0.00334368,0.00125878
12254,-3.3422e-12,0,-1.60674e-06,-3.40794e-12,0,0,-1.13791e-13,0,0,-3.66568,0.190386,0.679445,-0.728646,0.0663239,-0.016708,-0.024899,0,-0.621976,0.190386,241,-84,241,-84,364,-79,233,37,-0.0020712,-0.261799,0,-1.5,-nan,0,0,0,-0.728646,0.0663239,0,0,0,0,-0.016708,-0.024899,16768,0,0,0,0,9332,0.364323,0.00501573,-0.0033162,0.00124499
12281,-3.3422e-12,0,-1.60674e-06,-3.40794e-12,0,0,-1.13792e-13,0,0,-3.66568,0.190386,0.679445,-0.729076,0.0656829,-0.0164915,-0.0245764,0,-0.621976,0.190386,241,-84,241,-84,364,-79,233,37,-0.00205536,-0.261799,0,-1.5,-nan,0,0,0,-0.729076,0.0656829,0,0,0,0,-0.0164915,-0.0245764,16768,0,0,0,0,9332,0.364538,0.00494421,-0.00328414,0.00122879
12298,-3.3422e-12,0,-1.60674e-06,-3.40794e-12,0,0,-1.13792e-13,0,0,-3.66568,0.190386,0.679445,-0.729371,0.0652431,-0.0163436,-0.0243559,0,-0.621976,0.190386,241,-84,241,-84,364,-79,233,37,-0.00204436,-0.261799,0,-1.5,-nan,0,0,0,-0.729371,0.0652431,0,0,0,0,-0.0163436,-0.0243559,16768,0,0,0,0,9332,0.364686,0.0048995,-0.00326215,0.0012178
12319,-3.3422e-12,0,-1.60674e-06,-3.40794e-12,0,0,-1.13793e-13,0,0,-3.66568,0.190386,0.679445,-0.729712,0.0647353,-0.0161725,-0.024101,0,-0.621976,0.190386,241,-84,241,-84,364,-79,233,37,-0.00203163,-0.261799,0,-1.5,-nan,0,0,0,-0.729712,0.0647353,0,0,0,0,-0.0161725,-0.024101,16768,0,0,0,0,9332,0.364856,0.0048548,-0.00323676,0.00120513
12337,-3.3422e-12,0,-1.60674e-06,-3.40794e-12,0,0,-1.13793e-13,0,0,-3.66568,0.190386,0.679445,-0.729986,0.0643279,-0.0160354,-0.0238967,0,-0.621976,0.190386,241,-84,241,-84,364,-79,233,37,-0.00202151,-0.261799,0,-1.5,-nan,0,0,0,-0.729986,0.0643279,0,0,0,0,-0.0160354,-0.0238967,16768,0,0,0,0,9332,0.364993,0.00481009,-0.00321639,0.00119489
12353,-3.3422e-12,0,-1.60674e-06,-3.40794e-12,0,0,-1.13794e-13,0,0,-3.66568,0.190386,0.679445,-0.730257,0.063924,-0.0158995,-0.0236942,0,-0.621976,0.190386,241,-84,241,-84,364,-79,233,37,-0.00201156,-0.261799,0,-1.5,-nan,0,0,0,-0.730257,0.063924,0,0,0,0,-0.0158995,-0.0236942,16768,0,0,0,0,9332,0.365128,0.00476539,-0.0031962,0.00118464
12375,-3.3422e-12,0,-1.60674e-06,-3.40794e-12,0,0,-1.13794e-13,0,0,-3.66568,0.190386,0.679445,-0.730604,0.0634068,-0.0157252,-0.0234343,0,-0.621976,0.190386,241,-84,241,-84,364,-79,233,37,-0.00199855,-0.261799,0,-1.5,-nan,0,0,0,-0.730604,0.0634068,0,0,0,0,-0.0157252,-0.0234343,16768,0,0,0,0,9332,0.365302,0.00472069,-0.00317034,0.00117179
12392,-3.3422e-12,0,-1.60674e-06,-3.40794e-12,0,0,-1.13795e-13,0,0,-3.66568,0.190386,0.679445,-0.730869,0.0630106,-0.0155919,-0.0232357,0,-0.621976,0.190386,241,-84,241,-84,364,-79,233,37,-0.0019888,-0.261799,0,-1.5,-nan,0,0,0,-0.730869,0.0630106,0,0,0,0,-0.0155919,-0.0232357,16768,0,0,0,0,9332,0.365435,0.00467598,-0.00315053,0.00116173
12409,-3.3422e-12,0,-1.60674e-06,-3.40794e-12,0,0,-1.13795e-13,0,0,-3.66568,0.190386,0.679445,-0.731133,0.0626178,-0.0154597,-0.0230388,0,-0.621976,0.190386,241,-84,241,-84,364,-79,233,37,-0.00197903,-0.261799,0,-1.5,-nan,0,0,0,-0.731133,0.0626178,0,0,0,0,-0.0154597,-0.0230388,16768,0,0,0,0,9332,0.365566,0.00464022,-0.00313089,0.00115186
12430,-3.3422e-12,0,-1.60674e-06,-3.40794e-12,0,0,-1.13796e-13,0,0,-3.66568,0.190386,0.679445,-0.731455,0.0621376,-0.0152979,-0.0227976,0,-0.621976,0.190386,241,-84,241,-84,364,-79,233,37,-0.00196704,-0.261799,0,-1.5,-nan,0,0,0,-0.731455,0.0621376,0,0,0,0,-0.0152979,-0.0227976,16768,0,0,0,0,9332,0.365728,0.00458658,-0.00310688,0.00113985
12447,-3.3422e-12,0,-1.60674e-06,-3.40794e-12,0,0,-1.13797e-13,0,0,-3.66568,0.190386,0.679445,-0.731714,0.0617523,-0.0151683,-0.0226044,0,-0.621976,0.190386,241,-84,241,-84,364,-79,233,37,-0.00195736,-0.261799,0,-1.5,-nan,0,0,0,-0.731714,0.0617523,0,0,0,0,-0.0151683,-0.0226044,16768,0,0,0,0,9332,0.365857,0.00455081,-0.00308761,0.00113025
12464,-3.3422e-12,0,-1.60674e-06,-3.40794e-12,0,0,-1.13797e-13,0,0,-3.66568,0.190386,0.679445,-0.73197,0.0613702,-0.0150397,-0.0224128,0,-0.621976,0.190386,241,-84,241,-84,364,-79,233,37,-0.00194785,-0.261799,0,-1.5,-nan,0,0,0,-0.73197,0.0613702,0,0,0,0,-0.0150397,-0.0224128,16768,0,0,0,0,9332,0.365985,0.00451505,-0.00306851,0.00112066
12484,-3.3422e-12,0,-1.60674e-06,-3.40794e-12,0,0,-1.13798e-13,0,0,-3.66568,0.190386,0.679445,-0.732269,0.060925,-0.0148897,-0.0221893,0,-0.621976,0.190386,241,-84,241,-84,364,-79,233,37,-0.00193677,-0.261799,0,-1.5,-nan,0,0,0,-0.732269,0.060925,0,0,0,0,-0.0148897,-0.0221893,16768,0,0,0,0,9332,0.366134,0.00447035,-0.00304625,0.00110948
12517,-3.3422e-12,0,-1.60674e-06,-3.40794e-12,0,0,-1.13798e-13,0,0,-3.66568,0.190386,0.679445,-0.732739,0.0602239,-0.0146523,-0.0218355,0,-0.621976,0.190386,241,-84,241,-84,364,-79,233,37,-0.00191941,-0.261799,0,-1.5,-nan,0,0,0,-0.732739,0.0602239,0,0,0,0,-0.0146523,-0.0218355,16768,0,0,0,0,9332,0.36637,0.00439882,-0.0030112,0.00109179
12534,-3.3422e-12,0,-1.60674e-06,-3.40794e-12,0,0,-1.13799e-13,0,0,-3.66568,0.190386,0.679445,-0.733002,0.0598332,-0.0145208,-0.0216396,0,-0.621976,0.190386,241,-84,241,-84,364,-79,233,37,-0.00190965,-0.261799,0,-1.5,-nan,0,0,0,-0.733002,0.0598332,0,0,0,0,-0.0145208,-0.0216396,16768,0,0,0,0,9332,0.366501,0.00435412,-0.00299166,0.00108201
12555,-3.3422e-12,0,-1.60674e-06,-3.40794e-12,0,0,-1.13799e-13,0,0,-3.66568,0.190386,0.679445,-0.733304,0.0593821,-0.0143689,-0.0214131,0,-0.621976,0.190386,241,-84,241,-84,364,-79,233,37,-0.00189846,-0.261799,0,-1.5,-nan,0,0,0,-0.733304,0.0593821,0,0,0,0,-0.0143689,-0.0214131,16768,0,0,0,0,9332,0.366652,0.00430942,-0.0029691,0.00107065
12572,-3.3422e-12,0,-1.60674e-06,-3.40794e-12,0,0,-1.138e-13,0,0,-3.66568,0.190386,0.679445,-0.733547,0.0590201,-0.0142471,-0.0212316,0,-0.621976,0.190386,241,-84,241,-84,364,-79,233,37,-0.00188939,-0.261799,0,-1.5,-nan,0,0,0,-0.733547,0.0590201,0,0,0,0,-0.0142471,-0.0212316,16768,0,0,0,0,9332,0.366774,0.00427365,-0.00295101,0.00106161
12589,-3.3422e-12,0,-1.60674e-06,-3.40794e-12,0,0,-1.138e-13,0,0,-3.66568,0.190386,0.679445,-0.733788,0.0586612,-0.0141263,-0.0210517,0,-0.621976,0.190386,241,-84,241,-84,364,-79,233,37,-0.00188048,-0.261799,0,-1.5,-nan,0,0,0,-0.733788,0.0586612,0,0,0,0,-0.0141263,-0.0210517,16768,0,0,0,0,9332,0.366894,0.00423789,-0.00293306,0.00105258
12611,-3.3422e-12,0,-1.60674e-06,-3.40794e-12,0,0,-1.13801e-13,0,0,-3.66568,0.190386,0.679445,-0.734083,0.0582224,-0.0139785,-0.0208313,0,-0.621976,0.190386,241,-84,241,-84,364,-79,233,37,-0.00186953,-0.261799,0,-1.5,-nan,0,0,0,-0.734083,0.0582224,0,0,0,0,-0.0139785,-0.0208313,16768,0,0,0,0,9332,0.367041,0.00419319,-0.00291112,0.00104159
