timestamp,A_x,A_y,A_z,P,Q,R,Phi,Theta,Psi,poseX,poseY,poseZ,state_X,state_Y,state_Z,state_VzB,state_Bx,state_By,state_Bz,p1_x,p1_y,p2_x,p2_y,p3_x,p3_y,p4_x,p4_y,roll,pitch,yaw,alt,targetHeading,highLevelState,lowLevelState,gateNumber,filtered_x,filtered_y,x_OT,y_OT,vx_OT,vy_OT,filtered_vx,filtered_vygateArearansac_corr_x,ransac_corr_y,ransac_corr_vx,ransac_corr_vy,detectionTimeStamppTermX,dTermX,pTermY,dTermY,vxcmd,vycmd
7030,0,0,0,0,0,0,0,0,0,0,0,0,0,0,0,0,0,0,0,0,0,0,0,0,0,0,0,0.1,-0.04,0,-1.5,3.94113e+12,0,0,0,0,0,0,0,0,0,0,0,1.9603e-19,0,0,0,0,0,0,0,0,0,0.2,0.5
7585,-3.11491e-12,1.58152e-38,-1.52245e-06,-3.18057e-12,1.58141e-38,0,-1.06589e-13,0,0,0,0,0,0,0,0,0,0,0,0,0,0,0,0,0,0,0,0,0.1,-0.04,0,-1.5,3.94113e+12,0,0,0,0,0,0,0,0,0,0,0,1.9603e-19,0,0,0,0,0,0,0,0,0,0.2,0.5
7602,-3.11491e-12,1.58152e-38,-1.52245e-06,-3.18057e-12,1.58141e-38,0,-1.0659e-13,0,0,0,0,0,0,0,0,0,0,0,0,0,0,0,0,0,0,0,0,0.1,-0.04,0,-1.5,3.94113e+12,0,0,0,0,0,0,0,0,0,0,0,1.9603e-19,0,0,0,0,0,0,0,0,0,0.2,0.5
7618,-3.11491e-12,1.58152e-38,-1.52245e-06,-3.18057e-12,1.58141e-38,0,-1.0659e-13,0,0,0,0,0,0,0,0,0,0,0,0,0,0,0,0,0,0,0,0,0.1,-0.04,0,-1.5,3.94113e+12,0,0,0,0,0,0,0,0,0,0,0,1.9603e-19,0,0,0,0,0,0,0,0,0,0.2,0.5
7635,-3.11491e-12,1.58152e-38,-1.52245e-06,-3.18057e-12,1.58141e-38,0,-1.0659e-13,0,0,0,0,0,0,0,0,0,0,0,0,0,0,0,0,0,0,0,0,0.1,-0.04,0,-1.5,3.94113e+12,0,0,0,0,0,0,0,0,0,0,0,1.9603e-19,0,0,0,0,0,0,0,0,0,0.2,0.5
7651,-3.11491e-12,1.58152e-38,-1.52245e-06,-3.18057e-12,1.58141e-38,0,-1.0659e-13,0,0,0,0,0,0,0,0,0,0,0,0,0,0,0,0,0,0,0,0,0.1,-0.04,0,-1.5,3.94113e+12,0,0,0,0,0,0,0,0,0,0,0,1.9603e-19,0,0,0,0,0,0,0,0,0,0.2,0.5
7667,-3.11491e-12,1.58152e-38,-1.52245e-06,-3.18057e-12,1.58141e-38,0,-1.06591e-13,0,0,0,0,0,0,0,0,0,0,0,0,0,0,0,0,0,0,0,0,0.1,-0.04,0,-1.5,3.94113e+12,0,0,0,0,0,0,0,0,0,0,0,1.9603e-19,0,0,0,0,0,0,0,0,0,0.2,0.5
7683,-3.11491e-12,1.58152e-38,-1.52245e-06,-3.18057e-12,1.58141e-38,0,-1.06591e-13,0,0,0,0,0,0,0,0,0,0,0,0,0,0,0,0,0,0,0,0,0.1,-0.04,0,-1.5,3.94113e+12,0,0,0,0,0,0,0,0,0,0,0,1.9603e-19,0,0,0,0,0,0,0,0,0,0.2,0.5
7699,-3.11491e-12,1.58152e-38,-1.52245e-06,-3.18057e-12,1.58141e-38,0,-1.06591e-13,0,0,0,0,0,0,0,0,0,0,0,0,0,0,0,0,0,0,0,0,0.1,-0.04,0,-1.5,3.94113e+12,0,0,0,0,0,0,0,0,0,0,0,1.9603e-19,0,0,0,0,0,0,0,0,0,0.2,0.5
7725,-3.11491e-12,1.58152e-38,-1.52245e-06,-3.18057e-12,1.58141e-38,0,-1.06591e-13,0,0,0,0,0,0,0,0,0,0,0,0,0,0,0,0,0,0,0,0,0.1,-0.04,0,-1.5,3.94113e+12,0,0,0,0,0,0,0,0,0,0,0,1.9603e-19,0,0,0,0,0,0,0,0,0,0.2,0.5
7741,-3.11491e-12,1.58152e-38,-1.52245e-06,-3.18057e-12,1.58141e-38,0,-1.06592e-13,0,0,0,0,0,0,0,0,0,0,0,0,0,0,0,0,0,0,0,0,0.1,-0.04,0,-1.5,3.94113e+12,0,0,0,0,0,0,0,0,0,0,0,1.9603e-19,0,0,0,0,0,0,0,0,0,0.2,0.5
7757,-3.11491e-12,1.58152e-38,-1.52245e-06,-3.18057e-12,1.58141e-38,0,-1.06592e-13,0,0,0,0,0,0,0,0,0,0,0,0,0,0,0,0,0,0,0,0,0.1,-0.04,0,-1.5,3.94113e+12,0,0,0,0,0,0,0,0,0,0,0,1.9603e-19,0,0,0,0,0,0,0,0,0,0.2,0.5
7773,-3.11491e-12,1.58152e-38,-1.52245e-06,-3.18057e-12,1.58141e-38,0,-1.06592e-13,0,0,0,0,0,0,0,0,0,0,0,0,0,0,0,0,0,0,0,0,0.1,-0.04,0,-1.5,3.94113e+12,0,0,0,0,0,0,0,0,0,0,0,1.9603e-19,0,0,0,0,0,0,0,0,0,0.2,0.5
7789,-3.11491e-12,1.58152e-38,-1.52245e-06,-3.18057e-12,1.58141e-38,0,-1.06593e-13,0,0,0,0,0,0,0,0,0,0,0,0,0,0,0,0,0,0,0,0,0.1,-0.04,0,-1.5,3.94113e+12,0,0,0,0,0,0,0,0,0,0,0,1.9603e-19,0,0,0,0,0,0,0,0,0,0.2,0.5
7811,-3.11491e-12,1.58152e-38,-1.52245e-06,-3.18057e-12,1.58141e-38,0,-1.06593e-13,0,0,0,0,0,0,0,0,0,0,0,0,0,0,0,0,0,0,0,0,0.1,-0.04,0,-1.5,3.94113e+12,0,0,0,0,0,0,0,0,0,0,0,1.9603e-19,0,0,0,0,0,0,0,0,0,0.2,0.5
7873,-3.11491e-12,1.58152e-38,-1.52245e-06,-3.18057e-12,1.58141e-38,0,-1.06593e-13,0,0,0,0,0,0,0,0,0,0,0,0,0,0,0,0,0,0,0,0,0.1,-0.04,0,-1.5,3.94113e+12,0,0,0,0,0,0,0,0,0,0,0,1.9603e-19,0,0,0,0,0,0,0,0,0,0.2,0.5
7890,-3.11491e-12,1.58152e-38,-1.52245e-06,-3.18057e-12,1.58141e-38,0,-1.06593e-13,0,0,0,0,0,0,0,0,0,0,0,0,0,0,0,0,0,0,0,0,0.1,-0.04,0,-1.5,3.94113e+12,0,0,0,0,0,0,0,0,0,0,0,1.9603e-19,0,0,0,0,0,0,0,0,0,0.2,0.5
7907,-3.11491e-12,1.58152e-38,-1.52245e-06,-3.18057e-12,1.58141e-38,0,-1.06594e-13,0,0,0,0,0,0,0,0,0,0,0,0,0,0,0,0,0,0,0,0,0.1,-0.04,0,-1.5,3.94113e+12,0,0,0,0,0,0,0,0,0,0,0,1.9603e-19,0,0,0,0,0,0,0,0,0,0.2,0.5
7922,-3.11491e-12,1.58152e-38,-1.52245e-06,-3.18057e-12,1.58141e-38,0,-1.06594e-13,0,0,0,0,0,0,0,0,0,0,0,0,0,0,0,0,0,0,0,0,0.1,-0.04,0,-1.5,3.94113e+12,0,0,0,0,0,0,0,0,0,0,0,1.9603e-19,0,0,0,0,0,0,0,0,0,0.2,0.5
7936,-3.11491e-12,1.58152e-38,-1.52245e-06,-3.18057e-12,1.58141e-38,0,-1.06594e-13,0,0,0,0,0,0,0,0,0,0,0,0,0,0,0,0,0,0,0,0,0.1,-0.04,0,-1.5,3.94113e+12,0,0,0,0,0,0,0,0,0,0,0,1.9603e-19,0,0,0,0,0,0,0,0,0,0.2,0.5
7949,-3.11491e-12,1.58152e-38,-1.52245e-06,-3.18057e-12,1.58141e-38,0,-1.06594e-13,0,0,0,0,0,0,0,0,0,0,0,0,0,0,0,0,0,0,0,0,0.1,-0.04,0,-1.5,3.94113e+12,0,0,0,0,0,0,0,0,0,0,0,1.9603e-19,0,0,0,0,0,0,0,0,0,0.2,0.5
7963,-3.11491e-12,1.58152e-38,-1.52245e-06,-3.18057e-12,1.58141e-38,0,-1.06595e-13,0,0,0,0,0,0,0,0,0,0,0,0,0,0,0,0,0,0,0,0,0.1,-0.04,0,-1.5,3.94113e+12,0,0,0,0,0,0,0,0,0,0,0,1.9603e-19,0,0,0,0,0,0,0,0,0,0.2,0.5
7979,-3.11491e-12,1.58152e-38,-1.52245e-06,-3.18057e-12,1.58141e-38,0,-1.06595e-13,0,0,0,0,0,0,0,0,0,0,0,0,0,0,0,0,0,0,0,0,0.1,-0.04,0,-1.5,3.94113e+12,0,0,0,0,0,0,0,0,0,0,0,1.9603e-19,0,0,0,0,0,0,0,0,0,0.2,0.5
7994,-3.11491e-12,1.58152e-38,-1.52245e-06,-3.18057e-12,1.58141e-38,0,-1.06595e-13,0,0,0,0,0,0,0,0,0,0,0,0,0,0,0,0,0,0,0,0,0.1,-0.04,0,-1.5,3.94113e+12,0,0,0,0,0,0,0,0,0,0,0,1.9603e-19,0,0,0,0,0,0,0,0,0,0.2,0.5
8010,-3.11491e-12,1.58152e-38,-1.52245e-06,-3.18057e-12,1.58141e-38,0,-1.06596e-13,0,0,0,0,0,0,0,0,0,0,0,0,0,0,0,0,0,0,0,0,0.1,-0.04,0,-1.5,3.94113e+12,0,0,0,0,0,0,0,0,0,0,0,1.9603e-19,0,0,0,0,0,0,0,0,0,0.2,0.5
8026,-3.11491e-12,1.58152e-38,-1.52245e-06,-3.18057e-12,1.58141e-38,0,-1.06596e-13,0,0,0,0,0,0,0,0,0,0,0,0,0,0,0,0,0,0,0,0,0.1,-0.04,0,-1.5,3.94113e+12,0,0,0,0,0,0,0,0,0,0,0,1.9603e-19,0,0,0,0,0,0,0,0,0,0.2,0.5
8042,-3.11491e-12,1.58152e-38,-1.52245e-06,-3.18057e-12,1.58141e-38,0,-1.06596e-13,0,0,0,0,0,0,0,0,0,0,0,0,0,0,0,0,0,0,0,0,0.1,-0.04,0,-1.5,3.94113e+12,0,0,0,0,0,0,0,0,0,0,0,1.9603e-19,0,0,0,0,0,0,0,0,0,0.2,0.5
8058,-3.11491e-12,1.58152e-38,-1.52245e-06,-3.18057e-12,1.58141e-38,0,-1.06596e-13,0,0,0,0,0,0,0,0,0,0,0,0,0,0,0,0,0,0,0,0,0.1,-0.04,0,-1.5,3.94113e+12,0,0,0,0,0,0,0,0,0,0,0,1.9603e-19,0,0,0,0,0,0,0,0,0,0.2,0.5
8074,-3.11491e-12,1.58152e-38,-1.52245e-06,-3.18057e-12,1.58141e-38,0,-1.06597e-13,0,0,0,0,0,0,0,0,0,0,0,0,0,0,0,0,0,0,0,0,0.1,-0.04,0,-1.5,3.94113e+12,0,0,0,0,0,0,0,0,0,0,0,1.9603e-19,0,0,0,0,0,0,0,0,0,0.2,0.5
8090,-3.11491e-12,1.58152e-38,-1.52245e-06,-3.18057e-12,1.58141e-38,0,-1.06597e-13,0,0,0,0,0,0,0,0,0,0,0,0,0,0,0,0,0,0,0,0,0.1,-0.04,0,-1.5,3.94113e+12,0,0,0,0,0,0,0,0,0,0,0,1.9603e-19,0,0,0,0,0,0,0,0,0,0.2,0.5
8105,-3.11491e-12,1.58152e-38,-1.52245e-06,-3.18057e-12,1.58141e-38,0,-1.06597e-13,0,0,0,0,0,0,0,0,0,0,0,0,0,0,0,0,0,0,0,0,0.1,-0.04,0,-1.5,3.94113e+12,0,0,0,0,0,0,0,0,0,0,0,1.9603e-19,0,0,0,0,0,0,0,0,0,0.2,0.5
8120,-3.11491e-12,1.58152e-38,-1.52245e-06,-3.18057e-12,1.58141e-38,0,-1.06597e-13,0,0,0,0,0,0,0,0,0,0,0,0,0,0,0,0,0,0,0,0,0.1,-0.04,0,-1.5,3.94113e+12,0,0,0,0,0,0,0,0,0,0,0,1.9603e-19,0,0,0,0,0,0,0,0,0,0.2,0.5
8136,-3.11491e-12,1.58152e-38,-1.52245e-06,-3.18057e-12,1.58141e-38,0,-1.06598e-13,0,0,0,0,0,0,0,0,0,0,0,0,0,0,0,0,0,0,0,0,0.1,-0.04,0,-1.5,3.94113e+12,0,0,0,0,0,0,0,0,0,0,0,1.9603e-19,0,0,0,0,0,0,0,0,0,0.2,0.5
8153,-3.11491e-12,1.58152e-38,-1.52245e-06,-3.18057e-12,1.58141e-38,0,-1.06598e-13,0,0,0,0,0,0,0,0,0,0,0,0,0,0,0,0,0,0,0,0,0.1,-0.04,0,-1.5,3.94113e+12,0,0,0,0,0,0,0,0,0,0,0,1.9603e-19,0,0,0,0,0,0,0,0,0,0.2,0.5
8168,-3.11491e-12,1.58152e-38,-1.52245e-06,-3.18057e-12,1.58141e-38,0,-1.06598e-13,0,0,0,0,0,0,0,0,0,0,0,0,0,0,0,0,0,0,0,0,0.1,-0.04,0,-1.5,3.94113e+12,0,0,0,0,0,0,0,0,0,0,0,1.9603e-19,0,0,0,0,0,0,0,0,0,0.2,0.5
8184,-3.11491e-12,1.58152e-38,-1.52245e-06,-3.18057e-12,1.58141e-38,0,-1.06599e-13,0,0,0,0,0,0,0,0,0,0,0,0,0,0,0,0,0,0,0,0,0.1,-0.04,0,-1.5,3.94113e+12,0,0,0,0,0,0,0,0,0,0,0,1.9603e-19,0,0,0,0,0,0,0,0,0,0.2,0.5
8199,-3.11491e-12,1.58152e-38,-1.52245e-06,-3.18057e-12,1.58141e-38,0,-1.06599e-13,0,0,0,0,0,0,0,0,0,0,0,0,0,0,0,0,0,0,0,0,0.1,-0.04,0,-1.5,3.94113e+12,0,0,0,0,0,0,0,0,0,0,0,1.9603e-19,0,0,0,0,0,0,0,0,0,0.2,0.5
8215,-3.11491e-12,1.58152e-38,-1.52245e-06,-3.18057e-12,1.58141e-38,0,-1.06599e-13,0,0,0,0,0,0,0,0,0,0,0,0,0,0,0,0,0,0,0,0,0.1,-0.04,0,-1.5,3.94113e+12,0,0,0,0,0,0,0,0,0,0,0,1.9603e-19,0,0,0,0,0,0,0,0,0,0.2,0.5
8232,-3.11491e-12,1.58152e-38,-1.52245e-06,-3.18057e-12,1.58141e-38,0,-1.06599e-13,0,0,0,0,0,0,0,0,0,0,0,0,0,0,0,0,0,0,0,0,0.1,-0.04,0,-1.5,3.94113e+12,0,0,0,0,0,0,0,0,0,0,0,1.9603e-19,0,0,0,0,0,0,0,0,0,0.2,0.5
8245,-3.11491e-12,1.58152e-38,-1.52245e-06,-3.18057e-12,1.58141e-38,0,-1.066e-13,0,0,0,0,0,0,0,0,0,0,0,0,0,0,0,0,0,0,0,0,0.1,-0.04,0,-1.5,3.94113e+12,0,0,0,0,0,0,0,0,0,0,0,1.9603e-19,0,0,0,0,0,0,0,0,0,0.2,0.5
8258,-3.11491e-12,1.58152e-38,-1.52245e-06,-3.18057e-12,1.58141e-38,0,-1.066e-13,0,0,0,0,0,0,0,0,0,0,0,0,0,0,0,0,0,0,0,0,0.1,-0.04,0,-1.5,3.94113e+12,0,0,0,0,0,0,0,0,0,0,0,1.9603e-19,0,0,0,0,0,0,0,0,0,0.2,0.5
8274,-3.11491e-12,1.58152e-38,-1.52245e-06,-3.18057e-12,1.58141e-38,0,-1.066e-13,0,0,0,0,0,0,0,0,0,0,0,0,0,0,0,0,0,0,0,0,0.1,-0.04,0,-1.5,3.94113e+12,0,0,0,0,0,0,0,0,0,0,0,1.9603e-19,0,0,0,0,0,0,0,0,0,0.2,0.5
8290,-3.11491e-12,1.58152e-38,-1.52245e-06,-3.18057e-12,1.58141e-38,0,-1.066e-13,0,0,0,0,0,0,0,0,0,0,0,0,0,0,0,0,0,0,0,0,0.1,-0.04,0,-1.5,3.94113e+12,0,0,0,0,0,0,0,0,0,0,0,1.9603e-19,0,0,0,0,0,0,0,0,0,0.2,0.5
8312,-3.11491e-12,1.58152e-38,-1.52245e-06,-3.18057e-12,1.58141e-38,0,-1.06601e-13,0,0,0,0,0,0,0,0,0,0,0,0,0,0,0,0,0,0,0,0,0.1,-0.04,0,-1.5,3.94113e+12,0,0,0,0,0,0,0,0,0,0,0,1.9603e-19,0,0,0,0,0,0,0,0,0,0.2,0.5
8334,-3.11491e-12,1.58152e-38,-1.52245e-06,-3.18057e-12,1.58141e-38,0,-1.06601e-13,0,0,0,0,0,0,0,0,0,0,0,0,0,0,0,0,0,0,0,0,0.1,-0.04,0,-1.5,3.94113e+12,0,0,0,0,0,0,0,0,0,0,0,1.9603e-19,0,0,0,0,0,0,0,0,0,0.2,0.5
8350,-3.11491e-12,1.58152e-38,-1.52245e-06,-3.18057e-12,1.58141e-38,0,-1.06601e-13,0,0,0,0,0,0,0,0,0,0,0,0,0,0,0,0,0,0,0,0,0.1,-0.04,0,-1.5,3.94113e+12,0,0,0,0,0,0,0,0,0,0,0,1.9603e-19,0,0,0,0,0,0,0,0,0,0.2,0.5
8365,-3.11491e-12,1.58152e-38,-1.52245e-06,-3.18057e-12,1.58141e-38,0,-1.06602e-13,0,0,0,0,0,0,0,0,0,0,0,0,0,0,0,0,0,0,0,0,0.1,-0.04,0,-1.5,3.94113e+12,0,0,0,0,0,0,0,0,0,0,0,1.9603e-19,0,0,0,0,0,0,0,0,0,0.2,0.5
8385,-3.11491e-12,1.58152e-38,-1.52245e-06,-3.18057e-12,1.58141e-38,0,-1.06602e-13,0,0,-3.67576,0.454301,0.492415,0,0,0,0,0,-0.635788,0.454301,204,-62,204,-62,332,-58,211,62,0.1,-0.04,0,-1.5,3.94113e+12,0,0,0,0,0,0,0,0,0,0,0,15872,0,0,0,0,8376,0,0,0,0,0.2,0.5
8401,-3.11491e-12,1.58152e-38,-1.52245e-06,-3.18057e-12,1.58141e-38,0,-1.06602e-13,0,0,-3.67576,0.454301,0.492415,0,0,0,0,0,-0.635788,0.454301,204,-62,204,-62,332,-58,211,62,0.1,-0.04,0,-1.5,3.94113e+12,0,0,0,0,0,0,0,0,0,0,0,15872,0,0,0,0,8376,0,0,0,0,0.2,0.5
8416,-3.11491e-12,1.58152e-38,-1.52245e-06,-3.18057e-12,1.58141e-38,0,-1.06602e-13,0,0,-3.73636,0.455245,0.518176,0,0,0,0,0,-0.718807,0.455245,210,-60,210,-60,329,-59,211,62,0.1,-0.04,0,-1.5,3.94113e+12,0,0,0,0,0,0,0,0,0,0,0,15000,0,0,0,0,8408,0,0,0,0,0.2,0.5
8432,-3.11491e-12,1.58152e-38,-1.52245e-06,-3.18057e-12,1.58141e-38,0,-1.06603e-13,0,0,-3.73636,0.455245,0.518176,0,0,0,0,0,-0.718807,0.455245,210,-60,210,-60,329,-59,211,62,0.1,-0.04,0,-1.5,3.94113e+12,0,0,0,0,0,0,0,0,0,0,0,15000,0,0,0,0,8408,0,0,0,0,0.2,0.5
8447,-3.11491e-12,1.58152e-38,-1.52245e-06,-3.18057e-12,1.58141e-38,0,-1.06603e-13,0,0,-3.70598,0.498469,0.507162,0,0,0,0,0,-0.677187,0.498469,201,-59,201,-59,311,-61,211,65,0.1,-0.04,0,-1.5,3.94113e+12,0,0,0,0,0,0,0,0,0,0,0,17136,0,0,0,0,8438,0,0,0,0,0.2,0.5
8462,-3.11491e-12,1.58152e-38,-1.52245e-06,-3.18057e-12,1.58141e-38,0,-1.06603e-13,0,0,-3.70598,0.498469,0.507162,0,0,0,0,0,-0.677187,0.498469,201,-59,201,-59,311,-61,211,65,0.1,-0.04,0,-1.5,3.94113e+12,0,0,0,0,0,0,0,0,0,0,0,17136,0,0,0,0,8438,0,0,0,0,0.2,0.5
8484,-3.11491e-12,1.58152e-38,-1.52245e-06,-3.18057e-12,1.58141e-38,0,-1.06603e-13,0,0,-3.54742,0.440969,0.426108,0,0,0,0,0,-0.459967,0.440969,203,-59,203,-59,328,-68,209,65,0.146806,0.0872664,0,-1.5,3.94113e+12,0,0,0,-0.366614,0.435821,0,0,0,0,4.24331,-0.234031,17822,-0.459967,0.440969,4.24331,-0.234031,8469,0,0,0,0,0.2,0.5
8500,-3.11491e-12,1.58152e-38,-1.52245e-06,-3.18057e-12,1.58141e-38,0,-1.06604e-13,0,0,-3.54742,0.440969,0.426108,0,0,0,0,0,-0.459967,0.440969,203,-59,203,-59,328,-68,209,65,0.146806,0.0872664,0,-1.5,3.94113e+12,0,0,0,-0.302965,0.43231,0,0,0,0,4.24331,-0.234031,17822,-0.459967,0.440969,4.24331,-0.234031,8469,0,0,0,0,0.2,0.5
8518,-3.11491e-12,1.58152e-38,-1.52245e-06,-3.18057e-12,1.58141e-38,0,-1.06604e-13,0,0,-3.63189,0.447506,0.445799,0,0,0,0,0,-0.575693,0.447506,203,-57,203,-57,329,-56,209,65,0.115794,0.0872664,0,-1.5,3.94113e+12,0,0,0,-0.547946,0.446006,0,0,0,0,1.46036,-0.0789676,16348,-0.575693,0.447506,1.46036,-0.0789676,8507,0,0,0,0,0.2,0.5
8532,-3.11491e-12,1.58152e-38,-1.52245e-06,-3.18057e-12,1.58141e-38,0,-1.06604e-13,0,0,-3.63189,0.447506,0.445799,0,0,0,0,0,-0.575693,0.447506,203,-57,203,-57,329,-56,209,65,0.115794,0.0872664,0,-1.5,3.94113e+12,0,0,0,-0.527501,0.4449,0,0,0,0,1.46036,-0.0789676,16348,-0.575693,0.447506,1.46036,-0.0789676,8507,0,0,0,0,0.2,0.5
8550,-3.11491e-12,1.58152e-38,-1.52245e-06,-3.18057e-12,1.58141e-38,0,-1.06605e-13,0,0,-3.51618,0.437339,0.418385,0,0,0,0,0,-0.417164,0.437339,205,-71,205,-71,329,-68,211,67,0.127338,0.0872664,0,-1.5,3.94113e+12,0,0,0,-0.375717,0.434878,0,0,0,0,2.30263,-0.13669,17388,-0.417164,0.437339,2.30263,-0.13669,8538,0,0,0,0,0.2,0.5
8565,-3.11491e-12,1.58152e-38,-1.52245e-06,-3.18057e-12,1.58141e-38,0,-1.06605e-13,0,0,-3.51618,0.437339,0.418385,0,0,0,0,0,-0.417164,0.437339,205,-71,205,-71,329,-68,211,67,0.127338,0.0872664,0,-1.5,3.94113e+12,0,0,0,-0.341178,0.432828,0,0,0,0,2.30263,-0.13669,17388,-0.417164,0.437339,2.30263,-0.13669,8538,0,0,0,0,0.2,0.5
8584,-3.11491e-12,1.58152e-38,-1.52245e-06,-3.18057e-12,1.58141e-38,0,-1.06605e-13,0,0,-3.55783,0.444087,0.454062,0,0,0,0,0,-0.474226,0.444087,205,-71,205,-71,329,-68,211,62,0.115794,0.0872664,0,-1.5,3.94113e+12,0,0,0,-0.447382,0.440873,0,0,0,0,1.49136,-0.0789676,17125,-0.474226,0.442294,1.49136,-0.0789676,8572,0,0,0,0,0.2,0.5
8599,-3.11491e-12,1.58152e-38,-1.52245e-06,-3.18057e-12,1.58141e-38,0,-1.06605e-13,0,0,-3.55783,0.444087,0.454062,0,0,0,0,0,-0.474226,0.444087,205,-71,205,-71,329,-68,211,62,0.115794,0.0872664,0,-1.5,3.94113e+12,0,0,0,-0.42352,0.439609,0,0,0,0,1.49136,-0.0789676,17125,-0.474226,0.442294,1.49136,-0.0789676,8572,0,0,0,0,0.2,0.5
8614,-3.11491e-12,1.58152e-38,-1.52245e-06,-3.18057e-12,1.58141e-38,0,-1.06606e-13,0,0,-3.55783,0.444087,0.454062,0,0,0,0,0,-0.474226,0.444087,205,-71,205,-71,329,-68,211,62,0.115794,0.0872664,0,-1.5,3.94113e+12,0,0,0,-0.40115,0.438425,0,0,0,0,1.49136,-0.0789676,17125,-0.474226,0.442294,1.49136,-0.0789676,8572,0,0,0,0,0.2,0.5
8630,-3.11491e-12,1.58152e-38,-1.52245e-06,-3.18057e-12,1.58141e-38,0,-1.06606e-13,0,0,-3.55783,0.444087,0.454062,0,0,0,0,0,-0.474226,0.444087,205,-71,205,-71,329,-68,211,62,0.115794,0.0872664,0,-1.5,3.94113e+12,0,0,0,-0.377289,0.437162,0,0,0,0,1.49136,-0.0789676,17125,-0.474226,0.442294,1.49136,-0.0789676,8572,0,0,0,0,0.2,0.5
8648,-3.11491e-12,1.58152e-38,-1.52245e-06,-3.18057e-12,1.58141e-38,0,-1.06606e-13,0,0,-3.5502,0.440949,0.449636,0,0,0,0,0,-0.463773,0.440949,205,-71,205,-71,329,-68,211,62,0.113607,0.0872664,0,-1.5,3.94113e+12,0,0,0,-0.358101,0.43844,0,0,0,0,1.46036,-0.068036,17262,-0.384387,0.439665,1.46036,-0.068036,8637,0,0,0,0,0.2,0.5
8664,-3.11491e-12,1.58152e-38,-1.52245e-06,-3.18057e-12,1.58141e-38,0,-1.06606e-13,0,0,-3.5502,0.440949,0.449636,0,0,0,0,0,-0.463773,0.440949,205,-71,205,-71,329,-68,211,62,0.113607,0.0872664,0,-1.5,3.94113e+12,0,0,0,-0.334735,0.437352,0,0,0,0,1.46036,-0.068036,17262,-0.384387,0.439665,1.46036,-0.068036,8637,0,0,0,0,0.2,0.5
8679,-3.11491e-12,1.58152e-38,-1.52245e-06,-3.18057e-12,1.58141e-38,0,-1.06607e-13,0,0,-3.5502,0.440949,0.449636,0,0,0,0,0,-0.463773,0.440949,205,-71,205,-71,329,-68,211,62,0.113607,0.0872664,0,-1.5,3.94113e+12,0,0,0,-0.31283,0.436331,0,0,0,0,1.46036,-0.068036,17262,-0.384387,0.439665,1.46036,-0.068036,8637,0,0,0,0,0.2,0.5
8694,-3.11491e-12,1.58152e-38,-1.52245e-06,-3.18057e-12,1.58141e-38,0,-1.06607e-13,0,0,-3.5502,0.440949,0.449636,0,0,0,0,0,-0.463773,0.440949,205,-71,205,-71,329,-68,211,62,0.113607,0.0872664,0,-1.5,3.94113e+12,0,0,0,-0.290925,0.435311,0,0,0,0,1.46036,-0.068036,17262,-0.384387,0.439665,1.46036,-0.068036,8637,0,0,0,0,0.2,0.5
8713,-3.11491e-12,1.58152e-38,-1.52245e-06,-3.18057e-12,1.58141e-38,0,-1.0661e-13,0,0,-3.5502,0.440949,0.449636,0,0,0,0,0,-0.463773,0.440949,205,-71,205,-71,329,-68,211,62,0.110012,0.0872664,0,-1.5,3.94113e+12,0,0,0,-0.392376,0.436756,0,0,0,0,0.825429,-0.0500579,17262,-0.408059,0.437707,0.825429,-0.0500579,8701,0,0,0,0,0.2,0.5
8727,-3.11491e-12,1.58152e-38,-1.52245e-06,-3.18057e-12,1.58141e-38,0,-1.06607e-13,0,0,-3.5502,0.440949,0.449636,0,0,0,0,0,-0.463773,0.440949,205,-71,205,-71,329,-68,211,62,0.110012,0.0872664,0,-1.5,3.94113e+12,0,0,0,-0.381645,0.436105,0,0,0,0,0.825429,-0.0500579,17262,-0.408059,0.437707,0.825429,-0.0500579,8701,0,0,0,0,0.2,0.5
8744,-3.11491e-12,1.58152e-38,-1.52245e-06,-3.18057e-12,1.58141e-38,0,-1.0661e-13,0,0,-3.5436,0.446588,0.445665,0,0,0,0,0,-0.454733,0.446588,203,-71,203,-71,329,-68,211,62,0.107063,0.0658327,0,-1.5,3.94113e+12,0,0,0,-0.43298,0.437775,0,0,0,0,0.529163,-0.0353162,17399,-0.438271,0.438128,0.529163,-0.0353162,8736,0,0,0,0,0.2,0.5
8759,-3.11491e-12,1.58152e-38,-1.52245e-06,-3.18057e-12,1.58141e-38,0,-1.0661e-13,0,0,-3.5436,0.446588,0.445665,0,0,0,0,0,-0.454733,0.446588,203,-71,203,-71,329,-68,211,62,0.107063,0.0658327,0,-1.5,3.94113e+12,0,0,0,-0.425042,0.437245,0,0,0,0,0.529163,-0.0353162,17399,-0.438271,0.438128,0.529163,-0.0353162,8736,0,0,0,0,0.2,0.5
8775,-3.11491e-12,1.58152e-38,-1.52245e-06,-3.18057e-12,1.58141e-38,0,-1.06607e-13,0,0,-3.5436,0.446588,0.445665,0,0,0,0,0,-0.454733,0.446588,203,-71,203,-71,329,-68,211,62,0.107063,0.0658327,0,-1.5,3.94113e+12,0,0,0,-0.416576,0.43668,0,0,0,0,0.529163,-0.0353162,17399,-0.438271,0.438128,0.529163,-0.0353162,8736,0,0,0,0,0.2,0.5
8791,-3.11491e-12,1.58152e-38,-1.52245e-06,-3.18057e-12,1.58141e-38,0,-1.06608e-13,0,0,-3.5436,0.446588,0.445665,0,0,0,0,0,-0.454733,0.446588,203,-71,203,-71,329,-68,211,62,0.107063,0.0658327,0,-1.5,3.94113e+12,0,0,0,-0.408638,0.436151,0,0,0,0,0.529163,-0.0353162,17399,-0.438271,0.438128,0.529163,-0.0353162,8736,0,0,0,0,0.2,0.5
8810,-3.11491e-12,1.58152e-38,-1.52245e-06,-3.18057e-12,1.58141e-38,0,-1.06608e-13,0,0,-3.5502,0.440949,0.449636,0,0,0,0,0,-0.463773,0.440949,205,-71,205,-71,329,-68,211,62,0.105808,0.0654911,0,-1.5,3.94113e+12,0,0,0,-0.408675,0.437941,0,0,0,0,0.527456,-0.0290424,17262,-0.413949,0.438232,0.527456,-0.0290424,8802,0,0,0,0,0.2,0.5
8826,-3.11491e-12,1.58152e-38,-1.52245e-06,-3.18057e-12,1.58141e-38,0,-1.06608e-13,0,0,-3.5502,0.440949,0.449636,0,0,0,0,0,-0.463773,0.440949,205,-71,205,-71,329,-68,211,62,0.105808,0.0654911,0,-1.5,3.94113e+12,0,0,0,-0.400763,0.437506,0,0,0,0,0.527456,-0.0290424,17262,-0.413949,0.438232,0.527456,-0.0290424,8802,0,0,0,0,0.2,0.5
8845,-3.11491e-12,1.58152e-38,-1.52245e-06,-3.18057e-12,1.58141e-38,0,-1.06609e-13,0,0,-3.5502,0.440949,0.449636,0,0,0,0,0,-0.463773,0.440949,205,-71,205,-71,329,-68,211,62,0.104032,-0.0232017,0,-1.5,3.94113e+12,0,0,0,-0.456325,0.440028,0,0,0,0,0.0839914,-0.0201619,17262,-0.457333,0.44027,0.0839914,-0.0201619,8835,0,0,0,0,0.2,0.5
8861,-3.11491e-12,1.58152e-38,-1.52245e-06,-3.18057e-12,1.58141e-38,0,-1.06609e-13,0,0,-3.5502,0.440949,0.449636,0,0,0,0,0,-0.463773,0.440949,205,-71,205,-71,329,-68,211,62,0.104032,-0.0232017,0,-1.5,3.94113e+12,0,0,0,-0.455065,0.439726,0,0,0,0,0.0839914,-0.0201619,17262,-0.457333,0.44027,0.0839914,-0.0201619,8835,0,0,0,0,0.2,0.5
8880,-3.11491e-12,1.58152e-38,-1.52245e-06,-3.18057e-12,1.58141e-38,0,-1.06611e-13,0,0,-3.5502,0.440949,0.449636,0,0,0,0,0,-0.463773,0.440949,205,-71,205,-71,329,-68,211,62,0.103648,-0.0341353,0,-1.5,3.94113e+12,0,0,0,-0.461314,0.439583,0,0,0,0,0.0293235,-0.0182418,17262,-0.461665,0.439802,0.0293235,-0.0182418,8870,0,0,0,0,0.2,0.5
8929,-3.11491e-12,1.58152e-38,-1.52245e-06,-3.18057e-12,1.58141e-38,0,-1.06611e-13,0,0,-3.5235,0.440416,0.42261,0,0,0,0,0,-0.427202,0.440416,205,-71,205,-71,329,-68,211,67,0.1031,-0.0179089,0,-1.5,3.94113e+12,0,0,0,-0.437744,0.439251,0,0,0,0,0.110456,-0.0154976,17250,-0.443156,0.440011,0.110456,-0.0154976,8917,0,0,0,0,0.2,0.5
8949,-3.11491e-12,1.58152e-38,-1.52245e-06,-3.18057e-12,1.58141e-38,0,-1.06611e-13,0,0,-3.5436,0.446588,0.445665,0,0,0,0,0,-0.454733,0.446588,203,-71,203,-71,329,-68,211,62,0.102754,-0.0323276,0,-1.5,3.94113e+12,0,0,0,-0.456048,0.43968,0,0,0,0,0.0383622,-0.0137676,17399,-0.456509,0.439845,0.0383622,-0.0137676,8939,0,0,0,0,0.2,0.5
8968,-3.11491e-12,1.58152e-38,-1.52245e-06,-3.18057e-12,1.58141e-38,0,-1.06609e-13,0,0,-3.5436,0.446588,0.445665,0,0,0,0,0,-0.454733,0.446588,203,-71,203,-71,329,-68,211,62,0.102754,-0.0323276,0,-1.5,3.94113e+12,0,0,0,-0.455358,0.439432,0,0,0,0,0.0383622,-0.0137676,17399,-0.456509,0.439845,0.0383622,-0.0137676,8939,0,0,0,0,0.2,0.5
8986,-3.11491e-12,1.58152e-38,-1.52245e-06,-3.18057e-12,1.58141e-38,0,-1.06614e-13,0,0,-3.5502,0.440949,0.449636,0,0,0,0,0,-0.463773,0.440949,205,-71,205,-71,329,-68,211,62,0.10177,-0.0268113,0,-1.5,3.94113e+12,0,0,0,-0.451696,0.439812,0,0,0,0,0.0659436,-0.00884752,17262,-0.452949,0.43998,0.0659436,-0.00884752,8973,0,0,0,0,0.2,0.5
9002,-3.11491e-12,1.58152e-38,-1.52245e-06,-3.18057e-12,1.58141e-38,0,-1.06611e-13,0,0,-3.5502,0.440949,0.449636,0,0,0,0,0,-0.463773,0.440949,205,-71,205,-71,329,-68,211,62,0.10177,-0.0268113,0,-1.5,3.94113e+12,0,0,0,-0.450641,0.43967,0,0,0,0,0.0659436,-0.00884752,17262,-0.452949,0.43998,0.0659436,-0.00884752,8973,0,0,0,0,0.2,0.5
9021,-3.11491e-12,1.58152e-38,-1.52245e-06,-3.18057e-12,1.58141e-38,0,-1.06615e-13,0,0,-3.5502,0.440949,0.449636,0,0,0,0,0,-0.463773,0.440949,205,-71,205,-71,329,-68,211,62,0.102095,-0.0327321,0,-1.5,3.94113e+12,0,0,0,-0.457007,0.439186,0,0,0,0,0.0363395,-0.0104728,17262,-0.457698,0.439385,0.0363395,-0.0104728,9008,0,0,0,0,0.2,0.5
9041,-3.11491e-12,1.58152e-38,-1.52245e-06,-3.18057e-12,1.58141e-38,0,-1.06615e-13,0,0,-3.5502,0.440949,0.449636,0,0,0,0,0,-0.463773,0.440949,205,-71,205,-71,329,-68,211,62,0.101299,-0.0379907,0,-1.5,3.94113e+12,0,0,0,-0.461531,0.440295,0,0,0,0,0.0100465,-0.00649527,17262,-0.461591,0.440334,0.0100465,-0.00649527,9037,0,0,0,0,0.2,0.5
9057,-3.11491e-12,1.58152e-38,-1.52245e-06,-3.18057e-12,1.58141e-38,0,-1.06614e-13,0,0,-3.5502,0.440949,0.449636,0,0,0,0,0,-0.463773,0.440949,205,-71,205,-71,329,-68,211,62,0.101299,-0.0379907,0,-1.5,3.94113e+12,0,0,0,-0.46137,0.440191,0,0,0,0,0.0100465,-0.00649527,17262,-0.461591,0.440334,0.0100465,-0.00649527,9037,0,0,0,0,0.2,0.5
9077,-3.11491e-12,1.58152e-38,-1.52245e-06,-3.18057e-12,1.58141e-38,0,-1.06614e-13,0,0,-3.5502,0.440949,0.449636,0,0,0,0,0,-0.463773,0.440949,205,-71,205,-71,329,-68,211,62,0.100805,-0.0396255,0,-1.5,3.94113e+12,0,0,0,-0.462866,0.440587,0,0,0,0,0.00187267,-0.00402491,17262,-0.462887,0.440632,0.00187267,-0.00402491,9068,0,0,0,0,0.2,0.5
9154,-3.11491e-12,1.58152e-38,-1.52245e-06,-3.18057e-12,1.58141e-38,0,-1.06616e-13,0,0,-3.56477,0.442801,0.458162,0,0,0,0,0,-0.483741,0.442801,206,-71,206,-71,329,-68,211,62,0.10042,-0.040048,0,-1.5,3.94113e+12,0,0,0,-0.462984,0.440634,0,0,0,0,-0.000239958,-0.00210081,16988,-0.462965,0.440796,-0.000239958,-0.00210081,9141,0,0,0,0,0.2,0.5
9175,-3.11491e-12,1.58152e-38,-1.52245e-06,-3.18057e-12,1.58141e-38,0,-1.06615e-13,0,0,-3.55783,0.444087,0.454062,0,0,0,0,0,-0.474226,0.444087,205,-71,205,-71,329,-68,211,62,0.100455,-0.039716,0,-1.5,3.94113e+12,0,0,0,-0.462963,0.440563,0,0,0,0,0.00141982,-0.00227689,17125,-0.462976,0.440584,0.00141982,-0.00227689,9168,0,0,0,0,0.2,0.5
9190,-3.11491e-12,1.58152e-38,-1.52245e-06,-3.18057e-12,1.58141e-38,0,-1.06616e-13,0,0,-3.55783,0.444087,0.454062,0,0,0,0,0,-0.474226,0.444087,205,-71,205,-71,329,-68,211,62,0.100455,-0.039716,0,-1.5,3.94113e+12,0,0,0,-0.462942,0.440529,0,0,0,0,0.00141982,-0.00227689,17125,-0.462976,0.440584,0.00141982,-0.00227689,9168,0,0,0,0,0.2,0.5
9210,-3.11491e-12,1.58152e-38,-1.52245e-06,-3.18057e-12,1.58141e-38,0,-1.06614e-13,0,0,-3.55783,0.444087,0.454062,0,0,0,0,0,-0.474226,0.444087,205,-71,205,-71,329,-68,211,62,0.100145,-0.0396921,0,-1.5,3.94113e+12,0,0,0,-0.464706,0.441138,0,0,0,0,0.00153926,-0.00072325,17125,-0.464719,0.441143,0.00153926,-0.00072325,9204,0,0,0,0,0.2,0.5
9226,-3.11491e-12,1.58152e-38,-1.52245e-06,-3.18057e-12,1.58141e-38,0,-1.06616e-13,0,0,-3.55783,0.444087,0.454062,0,0,0,0,0,-0.474226,0.444087,205,-71,205,-71,329,-68,211,62,0.100145,-0.0396921,0,-1.5,3.94113e+12,0,0,0,-0.464682,0.441126,0,0,0,0,0.00153926,-0.00072325,17125,-0.464719,0.441143,0.00153926,-0.00072325,9204,0,0,0,0,0.2,0.5
9246,-3.11491e-12,1.58152e-38,-1.52245e-06,-3.18057e-12,1.58141e-38,0,-1.06612e-13,0,0,-3.55783,0.444087,0.454062,0,0,0,0,0,-0.474226,0.444087,205,-71,205,-71,329,-68,211,62,0.100004,-0.0422775,0,-1.5,3.94113e+12,0,0,0,-0.468085,0.440943,0,0,0,0,-0.0113876,-1.98216e-05,17125,-0.467937,0.440944,-0.0113876,-1.98216e-05,9235,0,0,0,0,0.2,0.5
9260,-3.11491e-12,1.58152e-38,-1.52245e-06,-3.18057e-12,1.58141e-38,0,-1.06612e-13,0,0,-3.55783,0.444087,0.454062,0,0,0,0,0,-0.474226,0.444087,205,-71,205,-71,329,-68,211,62,0.100004,-0.0422775,0,-1.5,3.94113e+12,0,0,0,-0.468233,0.440943,0,0,0,0,-0.0113876,-1.98216e-05,17125,-0.467937,0.440944,-0.0113876,-1.98216e-05,9235,0,0,0,0,0.2,0.5
9278,-3.11491e-12,1.58152e-38,-1.52245e-06,-3.18057e-12,1.58141e-38,0,-1.06612e-13,0,0,-3.55783,0.444087,0.454062,0,0,0,0,0,-0.474226,0.444087,205,-71,205,-71,329,-68,211,62,0.0994042,-0.0407678,0,-1.5,3.94113e+12,0,0,0,-0.465651,0.443291,0,0,0,0,-0.00383908,0.00297885,17125,-0.465609,0.443258,-0.00383908,0.00297885,9269,0,0,0,0,0.2,0.5
9293,-3.11491e-12,1.58152e-38,-1.52245e-06,-3.18057e-12,1.58141e-38,0,-1.06613e-13,0,0,-3.55783,0.444087,0.454062,0,0,0,0,0,-0.474226,0.444087,205,-71,205,-71,329,-68,211,62,0.0994042,-0.0407678,0,-1.5,3.94113e+12,0,0,0,-0.465709,0.443336,0,0,0,0,-0.00383908,0.00297885,17125,-0.465609,0.443258,-0.00383908,0.00297885,9269,0,0,0,0,0.2,0.5
9314,-3.11491e-12,1.58152e-38,-1.52245e-06,-3.18057e-12,1.58141e-38,0,-1.06617e-13,0,0,-3.5502,0.440949,0.449636,0,0,0,0,0,-0.463773,0.440949,205,-71,205,-71,329,-68,211,62,0.099922,-0.0415686,0,-1.5,3.94113e+12,0,0,0,-0.466771,0.441781,0,0,0,0,-0.00784297,0.000390186,17262,-0.466669,0.441776,-0.00784297,0.000390186,9303,0,0,0,0,0.2,0.5
9330,-3.11491e-12,1.58152e-38,-1.52245e-06,-3.18057e-12,1.58141e-38,0,-1.06617e-13,0,0,-3.5502,0.440949,0.449636,0,0,0,0,0,-0.463773,0.440949,205,-71,205,-71,329,-68,211,62,0.099922,-0.0415686,0,-1.5,3.94113e+12,0,0,0,-0.466897,0.441787,0,0,0,0,-0.00784297,0.000390186,17262,-0.466669,0.441776,-0.00784297,0.000390186,9303,0,0,0,0,0.2,0.5
9351,-3.11491e-12,1.58152e-38,-1.52245e-06,-3.18057e-12,1.58141e-38,0,-1.06613e-13,0,0,-3.55783,0.444087,0.454062,0,0,0,0,0,-0.474226,0.444087,205,-71,205,-71,329,-68,211,62,0.0994781,-0.0430286,0,-1.5,3.94113e+12,0,0,0,-0.473769,0.443321,0,0,0,0,-0.0151429,0.00260958,17125,-0.473466,0.443269,-0.0151429,0.00260958,9337,0,0,0,0,0.2,0.5
9372,-3.11491e-12,1.58152e-38,-1.52245e-06,-3.18057e-12,1.58141e-38,0,-1.06617e-13,0,0,-3.55783,0.444087,0.454062,0,0,0,0,0,-0.474226,0.444087,205,-71,205,-71,329,-68,211,62,0.0993676,-0.0427256,0,-1.5,3.94113e+12,0,0,0,-0.473034,0.443766,0,0,0,0,-0.013628,0.00316185,17125,-0.472898,0.443735,-0.013628,0.00316185,9364,0,0,0,0,0.2,0.5
9387,-3.11491e-12,1.58152e-38,-1.52245e-06,-3.18057e-12,1.58141e-38,0,-1.06613e-13,0,0,-3.55783,0.444087,0.454062,0,0,0,0,0,-0.474226,0.444087,205,-71,205,-71,329,-68,211,62,0.0993676,-0.0427256,0,-1.5,3.94113e+12,0,0,0,-0.473238,0.443814,0,0,0,0,-0.013628,0.00316185,17125,-0.472898,0.443735,-0.013628,0.00316185,9364,0,0,0,0,0.2,0.5
9408,-3.11491e-12,1.58152e-38,-1.52245e-06,-3.18057e-12,1.58141e-38,0,-1.06618e-13,0,0,-3.55783,0.444087,0.454062,0,0,0,0,0,-0.474226,0.444087,205,-71,205,-71,329,-68,211,62,0.099173,-0.0430738,0,-1.5,3.94113e+12,0,0,0,-0.47446,0.444095,0,0,0,0,-0.0153692,0.00413517,17125,-0.474322,0.444058,-0.0153692,0.00413517,9401,0,0,0,0,0.2,0.5
9424,-3.11491e-12,1.58152e-38,-1.52245e-06,-3.18057e-12,1.58141e-38,0,-1.06618e-13,0,0,-3.55783,0.444087,0.454062,0,0,0,0,0,-0.474226,0.444087,205,-71,205,-71,329,-68,211,62,0.099173,-0.0430738,0,-1.5,3.94113e+12,0,0,0,-0.474706,0.444161,0,0,0,0,-0.0153692,0.00413517,17125,-0.474322,0.444058,-0.0153692,0.00413517,9401,0,0,0,0,0.2,0.5
9445,-3.11491e-12,1.58152e-38,-1.52245e-06,-3.18057e-12,1.58141e-38,0,-1.06618e-13,0,0,-3.5502,0.440949,0.449636,0,0,0,0,0,-0.463773,0.440949,205,-71,205,-71,329,-68,211,62,0.0992223,-0.0431224,0,-1.5,3.94113e+12,0,0,0,-0.475421,0.444256,0,0,0,0,-0.015612,0.00388856,17262,-0.475234,0.444209,-0.015612,0.00388856,9435,0,0,0,0,0.2,0.5
9460,-3.11491e-12,1.58152e-38,-1.52245e-06,-3.18057e-12,1.58141e-38,0,-1.06618e-13,0,0,-3.5502,0.440949,0.449636,0,0,0,0,0,-0.463773,0.440949,205,-71,205,-71,329,-68,211,62,0.0992223,-0.0431224,0,-1.5,3.94113e+12,0,0,0,-0.475655,0.444314,0,0,0,0,-0.015612,0.00388856,17262,-0.475234,0.444209,-0.015612,0.00388856,9435,0,0,0,0,0.2,0.5
9479,-3.11491e-12,1.58152e-38,-1.52245e-06,-3.18057e-12,1.58141e-38,0,-1.06619e-13,0,0,-3.55783,0.444087,0.454062,0,0,0,0,0,-0.474226,0.444087,205,-71,205,-71,329,-68,211,62,0.099403,-0.0430466,0,-1.5,3.94113e+12,0,0,0,-0.475479,0.444037,0,0,0,0,-0.0152329,0.00298488,17125,-0.475189,0.44398,-0.0152329,0.00298488,9465,0,0,0,0,0.2,0.5
9492,-3.11491e-12,1.58152e-38,-1.52245e-06,-3.18057e-12,1.58141e-38,0,-1.06619e-13,0,0,-3.55783,0.444087,0.454062,0,0,0,0,0,-0.474226,0.444087,205,-71,205,-71,329,-68,211,62,0.099403,-0.0430466,0,-1.5,3.94113e+12,0,0,0,-0.475677,0.444075,0,0,0,0,-0.0152329,0.00298488,17125,-0.475189,0.44398,-0.0152329,0.00298488,9465,0,0,0,0,0.2,0.5
9514,-3.11491e-12,1.58152e-38,-1.52245e-06,-3.18057e-12,1.58141e-38,0,-1.06619e-13,0,0,-3.55783,0.444087,0.454062,0,0,0,0,0,-0.474226,0.444087,205,-71,205,-71,329,-68,211,62,0.0994035,-0.0427238,0,-1.5,3.94113e+12,0,0,0,-0.474524,0.444127,0,0,0,0,-0.0136192,0.00298264,17125,-0.474334,0.444085,-0.0136192,0.00298264,9502,0,0,0,0,0.2,0.5
9529,-3.11491e-12,1.58152e-38,-1.52245e-06,-3.18057e-12,1.58141e-38,0,-1.06619e-13,0,0,-3.55783,0.444087,0.454062,0,0,0,0,0,-0.474226,0.444087,205,-71,205,-71,329,-68,211,62,0.0994035,-0.0427238,0,-1.5,3.94113e+12,0,0,0,-0.474729,0.444172,0,0,0,0,-0.0136192,0.00298264,17125,-0.474334,0.444085,-0.0136192,0.00298264,9502,0,0,0,0,0.2,0.5
9551,-3.11491e-12,1.58152e-38,-1.52245e-06,-3.18057e-12,1.58141e-38,0,-1.0662e-13,0,0,-3.55783,0.444087,0.454062,0,0,0,0,0,-0.474226,0.444087,205,-71,205,-71,329,-68,211,62,0.0992674,-0.0426789,0,-1.5,3.94113e+12,0,0,0,-0.474938,0.444442,0,0,0,0,-0.0133944,0.00366306,17125,-0.474643,0.444361,-0.0133944,0.00366306,9537,0,0,0,0,0.2,0.5
9567,-3.11491e-12,1.58152e-38,-1.52245e-06,-3.18057e-12,1.58141e-38,0,-1.0662e-13,0,0,-3.55783,0.444087,0.454062,0,0,0,0,0,-0.474226,0.444087,205,-71,205,-71,329,-68,211,62,0.0992674,-0.0426789,0,-1.5,3.94113e+12,0,0,0,-0.475152,0.4445,0,0,0,0,-0.0133944,0.00366306,17125,-0.474643,0.444361,-0.0133944,0.00366306,9537,0,0,0,0,0.2,0.5
9588,-3.11491e-12,1.58152e-38,-1.52245e-06,-3.18057e-12,1.58141e-38,0,-1.0662e-13,0,0,-3.53048,0.445181,0.433434,0,0,0,0,0,-0.436757,0.445181,203,-71,203,-71,329,-68,211,64,0.0992119,-0.0427082,0,-1.5,3.94113e+12,0,0,0,-0.475004,0.444633,0,0,0,0,-0.013541,0.00394071,17399,-0.474719,0.444551,-0.013541,0.00394071,9574,0,0,0,0,0.2,0.5
9610,-3.11491e-12,1.58152e-38,-1.52245e-06,-3.18057e-12,1.58141e-38,0,-1.0662e-13,0,0,-3.5436,0.446588,0.445665,0,0,0,0,0,-0.454733,0.446588,203,-71,203,-71,329,-68,211,62,0.0991061,-0.0427441,0,-1.5,3.94113e+12,0,0,0,-0.475086,0.445076,0,0,0,0,-0.0137206,0.00446949,17399,-0.474976,0.44504,-0.0137206,0.00446949,9604,0,0,0,0,0.2,0.5
9625,-3.11491e-12,1.58152e-38,-1.52245e-06,-3.18057e-12,1.58141e-38,0,-1.06621e-13,0,0,-3.5436,0.446588,0.445665,0,0,0,0,0,-0.454733,0.446588,203,-71,203,-71,329,-68,211,62,0.0991061,-0.0427441,0,-1.5,3.94113e+12,0,0,0,-0.475291,0.445143,0,0,0,0,-0.0137206,0.00446949,17399,-0.474976,0.44504,-0.0137206,0.00446949,9604,0,0,0,0,0.2,0.5
9647,-3.11491e-12,1.58152e-38,-1.52245e-06,-3.18057e-12,1.58141e-38,0,-1.06621e-13,0,0,-3.56367,0.442286,0.453416,0,0,0,0,0,-0.482225,0.442286,205,-71,205,-71,329,-66,211,62,0.0991497,-0.0436791,0,-1.5,3.94113e+12,0,0,0,-0.477636,0.44495,0,0,0,0,-0.0183953,0.00425166,17262,-0.477415,0.444899,-0.0183953,0.00425166,9637,0,0,0,0,0.2,0.5
9663,-3.11491e-12,1.58152e-38,-1.52245e-06,-3.18057e-12,1.58141e-38,0,-1.06621e-13,0,0,-3.56367,0.442286,0.453416,0,0,0,0,0,-0.482225,0.442286,205,-71,205,-71,329,-66,211,62,0.0991497,-0.0436791,0,-1.5,3.94113e+12,0,0,0,-0.477912,0.445013,0,0,0,0,-0.0183953,0.00425166,17262,-0.477415,0.444899,-0.0183953,0.00425166,9637,0,0,0,0,0.2,0.5
9684,-3.11491e-12,1.58152e-38,-1.52245e-06,-3.18057e-12,1.58141e-38,0,-1.06622e-13,0,0,-3.54446,0.442666,0.441669,0,0,0,0,0,-0.455909,0.442666,205,-71,205,-71,329,-68,211,64,0.0992304,-0.0428907,0,-1.5,3.94113e+12,0,0,0,-0.476569,0.444909,0,0,0,0,-0.0144534,0.00384794,17125,-0.476251,0.444824,-0.0144534,0.00384794,9670,0,0,0,0,0.2,0.5
9698,-3.11491e-12,1.58152e-38,-1.52245e-06,-3.18057e-12,1.58141e-38,0,-1.06622e-13,0,0,-3.54446,0.442666,0.441669,0,0,0,0,0,-0.455909,0.442666,205,-71,205,-71,329,-68,211,64,0.0992304,-0.0428907,0,-1.5,3.94113e+12,0,0,0,-0.476772,0.444963,0,0,0,0,-0.0144534,0.00384794,17125,-0.476251,0.444824,-0.0144534,0.00384794,9670,0,0,0,0,0.2,0.5
9717,-3.11491e-12,1.58152e-38,-1.52245e-06,-3.18057e-12,1.58141e-38,0,-1.06622e-13,0,0,-3.55783,0.444087,0.454062,0,0,0,0,0,-0.474226,0.444087,205,-71,205,-71,329,-68,211,62,0.0992003,-0.0429701,0,-1.5,3.94113e+12,0,0,0,-0.477233,0.444974,0,0,0,0,-0.0148506,0.00399831,17125,-0.47695,0.444898,-0.0148506,0.00399831,9703,0,0,0,0,0.2,0.5
9739,-3.11491e-12,1.58152e-38,-1.52245e-06,-3.18057e-12,1.58141e-38,0,-1.06622e-13,0,0,-3.55783,0.444087,0.454062,0,0,0,0,0,-0.474226,0.444087,205,-71,205,-71,329,-68,211,62,0.0991721,-0.0427489,0,-1.5,3.94113e+12,0,0,0,-0.47598,0.445044,0,0,0,0,-0.0137444,0.00413944,17125,-0.47587,0.445011,-0.0137444,0.00413944,9733,0,0,0,0,0.2,0.5
9754,-3.11491e-12,1.58152e-38,-1.52245e-06,-3.18057e-12,1.58141e-38,0,-1.06623e-13,0,0,-3.55783,0.444087,0.454062,0,0,0,0,0,-0.474226,0.444087,205,-71,205,-71,329,-68,211,62,0.0991721,-0.0427489,0,-1.5,3.94113e+12,0,0,0,-0.476186,0.445106,0,0,0,0,-0.0137444,0.00413944,17125,-0.47587,0.445011,-0.0137444,0.00413944,9733,0,0,0,0,0.2,0.5
9776,-3.11491e-12,1.58152e-38,-1.52245e-06,-3.18057e-12,1.58141e-38,0,-1.06623e-13,0,0,-3.5502,0.440949,0.449636,0,0,0,0,0,-0.463773,0.440949,205,-71,205,-71,329,-68,211,62,0.0991957,-0.0424643,0,-1.5,3.94113e+12,0,0,0,-0.474582,0.445023,0,0,0,0,-0.0123214,0.00402127,17262,-0.474459,0.444983,-0.0123214,0.00402127,9768,0,0,0,0,0.2,0.5
9791,-3.11491e-12,1.58152e-38,-1.52245e-06,-3.18057e-12,1.58141e-38,0,-1.06623e-13,0,0,-3.5502,0.440949,0.449636,0,0,0,0,0,-0.463773,0.440949,205,-71,205,-71,329,-68,211,62,0.0991957,-0.0424643,0,-1.5,3.94113e+12,0,0,0,-0.474767,0.445083,0,0,0,0,-0.0123214,0.00402127,17262,-0.474459,0.444983,-0.0123214,0.00402127,9768,0,0,0,0,0.2,0.5
9813,-3.11491e-12,1.58152e-38,-1.52245e-06,-3.18057e-12,1.58141e-38,0,-1.06623e-13,0,0,-3.55783,0.444087,0.454062,0,0,0,0,0,-0.474226,0.444087,205,-71,205,-71,329,-68,211,62,0.0992726,-0.0423254,0,-1.5,3.94113e+12,0,0,0,-0.475061,0.444564,0,0,0,0,-0.0116268,0.00363712,17125,-0.474805,0.444484,-0.0116268,0.00363712,9799,0,0,0,0,0.2,0.5
9829,-3.11491e-12,1.58152e-38,-1.52245e-06,-3.18057e-12,1.58141e-38,0,-1.06624e-13,0,0,-3.55783,0.444087,0.454062,0,0,0,0,0,-0.474226,0.444087,205,-71,205,-71,329,-68,211,62,0.0992726,-0.0423254,0,-1.5,3.94113e+12,0,0,0,-0.475235,0.444618,0,0,0,0,-0.0116268,0.00363712,17125,-0.474805,0.444484,-0.0116268,0.00363712,9799,0,0,0,0,0.2,0.5
9850,-3.11491e-12,1.58152e-38,-1.52245e-06,-3.18057e-12,1.58141e-38,0,-1.06624e-13,0,0,-3.5436,0.446588,0.445665,0,0,0,0,0,-0.454733,0.446588,203,-71,203,-71,329,-68,211,62,0.0990892,-0.042551,0,-1.5,3.94113e+12,0,0,0,-0.475177,0.445556,0,0,0,0,-0.0127549,0.00455391,17399,-0.474896,0.445456,-0.0127549,0.00455391,9836,0,0,0,0,0.2,0.5
9866,-3.11491e-12,1.58152e-38,-1.52245e-06,-3.18057e-12,1.58141e-38,0,-1.06624e-13,0,0,-3.5436,0.446588,0.445665,0,0,0,0,0,-0.454733,0.446588,203,-71,203,-71,329,-68,211,62,0.0990892,-0.042551,0,-1.5,3.94113e+12,0,0,0,-0.475381,0.445629,0,0,0,0,-0.0127549,0.00455391,17399,-0.474896,0.445456,-0.0127549,0.00455391,9836,0,0,0,0,0.2,0.5
9887,-3.11491e-12,1.58152e-38,-1.52245e-06,-3.18057e-12,1.58141e-38,0,-1.06625e-13,0,0,-3.55783,0.444087,0.454062,0,0,0,0,0,-0.474226,0.444087,205,-71,205,-71,329,-68,211,62,0.0995515,-0.0424039,0,-1.5,3.94113e+12,0,0,0,-0.475453,0.444606,0,0,0,0,-0.0120193,0.00224236,17125,-0.4752,0.444559,-0.0120193,0.00224236,9872,0,0,0,0,0.2,0.5
9909,-3.11491e-12,1.58152e-38,-1.52245e-06,-3.18057e-12,1.58141e-38,0,-1.06625e-13,0,0,-3.55783,0.444087,0.454062,0,0,0,0,0,-0.474226,0.444087,205,-71,205,-71,329,-68,211,62,0.0997135,-0.0425325,0,-1.5,3.94113e+12,0,0,0,-0.47596,0.444349,0,0,0,0,-0.0126625,0.00143236,17125,-0.475858,0.444338,-0.0126625,0.00143236,9903,0,0,0,0,0.2,0.5
9927,-3.11491e-12,1.58152e-38,-1.52245e-06,-3.18057e-12,1.58141e-38,0,-1.06625e-13,0,0,-3.55783,0.444087,0.454062,0,0,0,0,0,-0.474226,0.444087,205,-71,205,-71,329,-68,211,62,0.0997135,-0.0425325,0,-1.5,3.94113e+12,0,0,0,-0.476187,0.444375,0,0,0,0,-0.0126625,0.00143236,17125,-0.475858,0.444338,-0.0126625,0.00143236,9903,0,0,0,0,0.2,0.5
9947,-3.11491e-12,1.58152e-38,-1.52245e-06,-3.18057e-12,1.58141e-38,0,-1.06625e-13,0,0,-3.54446,0.442666,0.441669,0,0,0,0,0,-0.455909,0.442666,205,-71,205,-71,329,-68,211,64,0.0998693,-0.0399767,0,-1.5,3.94113e+12,0,0,0,-0.473015,0.444269,0,0,0,0,0.000116589,0.000653275,17125,-0.473016,0.444261,0.000116589,0.000653275,9937,0,0,0,0,0.2,0.5
9963,-3.11491e-12,1.58152e-38,-1.52245e-06,-3.18057e-12,1.58141e-38,0,-1.06626e-13,0,0,-3.54446,0.442666,0.441669,0,0,0,0,0,-0.455909,0.442666,205,-71,205,-71,329,-68,211,64,0.0998693,-0.0399767,0,-1.5,3.94113e+12,0,0,0,-0.473013,0.444279,0,0,0,0,0.000116589,0.000653275,17125,-0.473016,0.444261,0.000116589,0.000653275,9937,0,0,0,0,0.2,0.5
9984,-3.11491e-12,1.58152e-38,-1.52245e-06,-3.18057e-12,1.58141e-38,0,-1.06626e-13,0,0,-3.5436,0.446588,0.445665,0,0,0,0,0,-0.454733,0.446588,203,-71,203,-71,329,-68,211,62,0.0996427,-0.0405306,0,-1.5,3.94113e+12,0,0,0,-0.473946,0.444569,0,0,0,0,-0.00265322,0.00178669,17399,-0.473887,0.44453,-0.00265322,0.00178669,9970,0,0,0,0,0.2,0.5
10006,-3.11491e-12,1.58152e-38,-1.52245e-06,-3.18057e-12,1.58141e-38,0,-1.06626e-13,0,0,-3.55783,0.444087,0.454062,0,0,0,0,0,-0.474226,0.444087,205,-71,205,-71,329,-68,211,62,0.0999299,-0.040089,0,-1.5,3.94113e+12,0,0,0,-0.474386,0.4443,0,0,0,0,-0.000445053,0.000350497,17125,-0.474383,0.444297,-0.000445053,0.000350497,10000,0,0,0,0,0.2,0.5
10021,-3.11491e-12,1.58152e-38,-1.52245e-06,-3.18057e-12,1.58141e-38,0,-1.06626e-13,0,0,-3.55783,0.444087,0.454062,0,0,0,0,0,-0.474226,0.444087,205,-71,205,-71,329,-68,211,62,0.0999299,-0.040089,0,-1.5,3.94113e+12,0,0,0,-0.474393,0.444305,0,0,0,0,-0.000445053,0.000350497,17125,-0.474383,0.444297,-0.000445053,0.000350497,10000,0,0,0,0,0.2,0.5
10043,-3.11491e-12,1.58152e-38,-1.52245e-06,-3.18057e-12,1.58141e-38,0,-1.06627e-13,0,0,-3.55783,0.444087,0.454062,0,0,0,0,0,-0.474226,0.444087,205,-71,205,-71,329,-68,211,62,0.100019,-0.0400074,0,-1.5,3.94113e+12,0,0,0,-0.473961,0.443971,0,0,0,0,-3.67841e-05,-9.38051e-05,17125,-0.473961,0.443972,-3.67841e-05,-9.38051e-05,10035,0,0,0,0,0.2,0.5
10059,-3.11491e-12,1.58152e-38,-1.52245e-06,-3.18057e-12,1.58141e-38,0,-1.06627e-13,0,0,-3.55783,0.444087,0.454062,0,0,0,0,0,-0.474226,0.444087,205,-71,205,-71,329,-68,211,62,0.100019,-0.0400074,0,-1.5,3.94113e+12,0,0,0,-0.473962,0.443969,0,0,0,0,-3.67841e-05,-9.38051e-05,17125,-0.473961,0.443972,-3.67841e-05,-9.38051e-05,10035,0,0,0,0,0.2,0.5
10080,-3.11491e-12,1.58152e-38,-1.52245e-06,-3.18057e-12,1.58141e-38,0,-1.06627e-13,0,0,-3.5436,0.446588,0.445665,0,0,0,0,0,-0.454733,0.446588,203,-71,203,-71,329,-68,211,62,0.0999888,-0.0393884,0,-1.5,3.94113e+12,0,0,0,-0.472451,0.444073,0,0,0,0,0.00305786,5.62462e-05,17399,-0.472488,0.444072,0.00305786,5.62462e-05,10070,0,0,0,0,0.2,0.5
10096,-3.11491e-12,1.58152e-38,-1.52245e-06,-3.18057e-12,1.58141e-38,0,-1.06628e-13,0,0,-3.5436,0.446588,0.445665,0,0,0,0,0,-0.454733,0.446588,203,-71,203,-71,329,-68,211,62,0.0999888,-0.0393884,0,-1.5,3.94113e+12,0,0,0,-0.472402,0.444074,0,0,0,0,0.00305786,5.62462e-05,17399,-0.472488,0.444072,0.00305786,5.62462e-05,10070,0,0,0,0,0.2,0.5
10117,-3.11491e-12,1.58152e-38,-1.52245e-06,-3.18057e-12,1.58141e-38,0,-1.06628e-13,0,0,-3.5436,0.446588,0.445665,0,0,0,0,0,-0.454733,0.446588,203,-71,203,-71,329,-68,211,62,0.099912,-0.0384981,0,-1.5,3.94113e+12,0,0,0,-0.467786,0.444327,0,0,0,0,0.00750966,0.000440097,17399,-0.467944,0.444317,0.00750966,0.000440097,10103,0,0,0,0,0.2,0.5
10133,-3.11491e-12,1.58152e-38,-1.52245e-06,-3.18057e-12,1.58141e-38,0,-1.06628e-13,0,0,-3.5436,0.446588,0.445665,0,0,0,0,0,-0.454733,0.446588,203,-71,203,-71,329,-68,211,62,0.099912,-0.0384981,0,-1.5,3.94113e+12,0,0,0,-0.467666,0.444334,0,0,0,0,0.00750966,0.000440097,17399,-0.467944,0.444317,0.00750966,0.000440097,10103,0,0,0,0,0.2,0.5
10155,-3.11491e-12,1.58152e-38,-1.52245e-06,-3.18057e-12,1.58141e-38,0,-1.06628e-13,0,0,-3.5436,0.446588,0.445665,0,0,0,0,0,-0.454733,0.446588,203,-71,203,-71,329,-68,211,62,0.100001,-0.0359235,0,-1.5,3.94113e+12,0,0,0,-0.45579,0.444088,0,0,0,0,0.0203823,-6.74173e-06,17399,-0.456218,0.444088,0.0203823,-6.74173e-06,10140,0,0,0,0,0.2,0.5
10174,-3.11491e-12,1.58152e-38,-1.52245e-06,-3.18057e-12,1.58141e-38,0,-1.06629e-13,0,0,-3.5436,0.446588,0.445665,0,0,0,0,0,-0.454733,0.446588,203,-71,203,-71,329,-68,211,62,0.0998207,-0.0357604,0,-1.5,3.94113e+12,0,0,0,-0.455053,0.444822,0,0,0,0,0.0211982,0.00089646,17399,-0.455223,0.444815,0.0211982,0.00089646,10168,0,0,0,0,0.2,0.5
10189,-3.11491e-12,1.58152e-38,-1.52245e-06,-3.18057e-12,1.58141e-38,0,-1.06629e-13,0,0,-3.5436,0.446588,0.445665,0,0,0,0,0,-0.454733,0.446588,203,-71,203,-71,329,-68,211,62,0.0998207,-0.0357604,0,-1.5,3.94113e+12,0,0,0,-0.454735,0.444836,0,0,0,0,0.0211982,0.00089646,17399,-0.455223,0.444815,0.0211982,0.00089646,10168,0,0,0,0,0.2,0.5
10211,-3.11491e-12,1.58152e-38,-1.52245e-06,-3.18057e-12,1.58141e-38,0,-1.06629e-13,0,0,-3.5436,0.446588,0.445665,0,0,0,0,0,-0.454733,0.446588,203,-71,203,-71,329,-68,211,62,0.099714,-0.0352863,0,-1.5,3.94113e+12,0,0,0,-0.453815,0.445123,0,0,0,0,0.0235686,0.00142992,17399,-0.454098,0.445106,0.0235686,0.00142992,10201,0,0,0,0,0.2,0.5
10226,-3.11491e-12,1.58152e-38,-1.52245e-06,-3.18057e-12,1.58141e-38,0,-1.06629e-13,0,0,-3.5436,0.446588,0.445665,0,0,0,0,0,-0.454733,0.446588,203,-71,203,-71,329,-68,211,62,0.099714,-0.0352863,0,-1.5,3.94113e+12,0,0,0,-0.453462,0.445144,0,0,0,0,0.0235686,0.00142992,17399,-0.454098,0.445106,0.0235686,0.00142992,10201,0,0,0,0,0.2,0.5
10251,-3.11491e-12,1.58152e-38,-1.52245e-06,-3.18057e-12,1.58141e-38,0,-1.0663e-13,0,0,-3.5436,0.446588,0.445665,0,0,0,0,0,-0.454733,0.446588,203,-71,203,-71,329,-68,211,62,0.0992818,-0.0353498,0,-1.5,3.94113e+12,0,0,0,-0.452719,0.446734,0,0,0,0,0.0232509,0.00359097,17399,-0.4533,0.446644,0.0232509,0.00359097,10234,0,0,0,0,0.2,0.5
10267,-3.11491e-12,1.58152e-38,-1.52245e-06,-3.18057e-12,1.58141e-38,0,-1.0663e-13,0,0,-3.5436,0.446588,0.445665,0,0,0,0,0,-0.454733,0.446588,203,-71,203,-71,329,-68,211,62,0.0992818,-0.0353498,0,-1.5,3.94113e+12,0,0,0,-0.452347,0.446791,0,0,0,0,0.0232509,0.00359097,17399,-0.4533,0.446644,0.0232509,0.00359097,10234,0,0,0,0,0.2,0.5
10288,-3.11491e-12,1.58152e-38,-1.52245e-06,-3.18057e-12,1.58141e-38,0,-1.0663e-13,0,0,-3.55783,0.444087,0.454062,0,0,0,0,0,-0.474226,0.444087,205,-71,205,-71,329,-68,211,62,0.0993473,-0.0352934,0,-1.5,3.94113e+12,0,0,0,-0.453267,0.446557,0,0,0,0,0.0235331,0.00326331,17125,-0.453762,0.446488,0.0235331,0.00326331,10274,0,0,0,0,0.2,0.5
10310,-3.11491e-12,1.58152e-38,-1.52245e-06,-3.18057e-12,1.58141e-38,0,-1.06631e-13,0,0,-3.55783,0.444087,0.454062,0,0,0,0,0,-0.474226,0.444087,205,-71,205,-71,329,-68,211,62,0.099921,-0.0351118,0,-1.5,3.94113e+12,0,0,0,-0.452111,0.444403,0,0,0,0,0.0244409,0.000394772,17125,-0.452356,0.444399,0.0244409,0.000394772,10302,0,0,0,0,0.2,0.5
10325,-3.11491e-12,1.58152e-38,-1.52245e-06,-3.18057e-12,1.58141e-38,0,-1.06631e-13,0,0,-3.55783,0.444087,0.454062,0,0,0,0,0,-0.474226,0.444087,205,-71,205,-71,329,-68,211,62,0.099921,-0.0351118,0,-1.5,3.94113e+12,0,0,0,-0.451745,0.444409,0,0,0,0,0.0244409,0.000394772,17125,-0.452356,0.444399,0.0244409,0.000394772,10302,0,0,0,0,0.2,0.5
10347,-3.11491e-12,1.58152e-38,-1.52245e-06,-3.18057e-12,1.58141e-38,0,-1.06631e-13,0,0,-3.5436,0.446588,0.445665,0,0,0,0,0,-0.454733,0.446588,203,-71,203,-71,329,-68,211,62,0.0993979,-0.0355438,0,-1.5,3.94113e+12,0,0,0,-0.452199,0.446565,0,0,0,0,0.0222808,0.00301043,17399,-0.452511,0.446523,0.0222808,0.00301043,10335,0,0,0,0,0.2,0.5
10362,-3.11491e-12,1.58152e-38,-1.52245e-06,-3.18057e-12,1.58141e-38,0,-1.06631e-13,0,0,-3.5436,0.446588,0.445665,0,0,0,0,0,-0.454733,0.446588,203,-71,203,-71,329,-68,211,62,0.0993979,-0.0355438,0,-1.5,3.94113e+12,0,0,0,-0.451865,0.446611,0,0,0,0,0.0222808,0.00301043,17399,-0.452511,0.446523,0.0222808,0.00301043,10335,0,0,0,0,0.2,0.5
10384,-3.11491e-12,1.58152e-38,-1.52245e-06,-3.18057e-12,1.58141e-38,0,-1.06632e-13,0,0,-3.54927,0.44478,0.444933,0,0,0,0,0,-0.462495,0.44478,203,-71,203,-71,329,-66,211,62,0.0998045,-0.0354168,0,-1.5,3.94113e+12,0,0,0,-0.45256,0.444908,0,0,0,0,0.0229161,0.000977399,17536,-0.453064,0.444887,0.0229161,0.000977399,10370,0,0,0,0,0.2,0.5
10398,-3.11491e-12,1.58152e-38,-1.52245e-06,-3.18057e-12,1.58141e-38,0,-1.06632e-13,0,0,-3.54927,0.44478,0.444933,0,0,0,0,0,-0.462495,0.44478,203,-71,203,-71,329,-66,211,62,0.0998045,-0.0354168,0,-1.5,3.94113e+12,0,0,0,-0.452239,0.444922,0,0,0,0,0.0229161,0.000977399,17536,-0.453064,0.444887,0.0229161,0.000977399,10370,0,0,0,0,0.2,0.5
10419,-3.11491e-12,1.58152e-38,-1.52245e-06,-3.18057e-12,1.58141e-38,0,-1.06632e-13,0,0,-3.53597,0.443451,0.441238,0,0,0,0,0,-0.444278,0.443451,203,-71,203,-71,329,-68,211,62,0.0997922,-0.0346789,0,-1.5,3.94113e+12,0,0,0,-0.44939,0.444869,0,0,0,0,0.0266053,0.00103912,17536,-0.449949,0.444847,0.0266053,0.00103912,10405,0,0,0,0,0.2,0.5
10441,-3.11491e-12,1.58152e-38,-1.52245e-06,-3.18057e-12,1.58141e-38,0,-1.06632e-13,0,0,-3.557,0.447937,0.449411,0,0,0,0,0,-0.47309,0.447937,203,-71,203,-71,329,-66,211,62,0.099804,-0.0352151,0,-1.5,3.94113e+12,0,0,0,-0.451501,0.444959,0,0,0,0,0.0239246,0.000979885,17399,-0.45174,0.444949,0.0239246,0.000979885,10433,0,0,0,0,0.2,0.5
10457,-3.11491e-12,1.58152e-38,-1.52245e-06,-3.18057e-12,1.58141e-38,0,-1.06633e-13,0,0,-3.557,0.447937,0.449411,0,0,0,0,0,-0.47309,0.447937,203,-71,203,-71,329,-66,211,62,0.099804,-0.0352151,0,-1.5,3.94113e+12,0,0,0,-0.451118,0.444974,0,0,0,0,0.0239246,0.000979885,17399,-0.45174,0.444949,0.0239246,0.000979885,10433,0,0,0,0,0.2,0.5
10478,-3.11491e-12,1.58152e-38,-1.52245e-06,-3.18057e-12,1.58141e-38,0,-1.06633e-13,0,0,-3.557,0.447937,0.449411,0,0,0,0,0,-0.47309,0.447937,203,-71,203,-71,329,-66,211,62,0.0992136,-0.0353246,0,-1.5,3.94113e+12,0,0,0,-0.451029,0.447105,0,0,0,0,0.0233772,0.00393181,17399,-0.45131,0.447058,0.0233772,0.00393181,10468,0,0,0,0,0.2,0.5
10494,-3.11491e-12,1.58152e-38,-1.52245e-06,-3.18057e-12,1.58141e-38,0,-1.06633e-13,0,0,-3.557,0.447937,0.449411,0,0,0,0,0,-0.47309,0.447937,203,-71,203,-71,329,-66,211,62,0.0992136,-0.0353246,0,-1.5,3.94113e+12,0,0,0,-0.450655,0.447168,0,0,0,0,0.0233772,0.00393181,17399,-0.45131,0.447058,0.0233772,0.00393181,10468,0,0,0,0,0.2,0.5
10516,-3.11491e-12,1.58152e-38,-1.52245e-06,-3.18057e-12,1.58141e-38,0,-1.06634e-13,0,0,-3.5436,0.446588,0.445665,0,0,0,0,0,-0.454733,0.446588,203,-71,203,-71,329,-68,211,62,0.0992265,-0.0372674,0,-1.5,3.94113e+12,0,0,0,-0.453662,0.447211,0,0,0,0,0.0136631,0.00386727,17399,-0.453962,0.447126,0.0136631,0.00386727,10502,0,0,0,0,0.2,0.5
10531,-3.11491e-12,1.58152e-38,-1.52245e-06,-3.18057e-12,1.58141e-38,0,-1.06634e-13,0,0,-3.5436,0.446588,0.445665,0,0,0,0,0,-0.454733,0.446588,203,-71,203,-71,329,-68,211,62,0.0992265,-0.0372674,0,-1.5,3.94113e+12,0,0,0,-0.453457,0.447269,0,0,0,0,0.0136631,0.00386727,17399,-0.453962,0.447126,0.0136631,0.00386727,10502,0,0,0,0,0.2,0.5
10553,-3.11491e-12,1.58152e-38,-1.52245e-06,-3.18057e-12,1.58141e-38,0,-1.06634e-13,0,0,-3.5436,0.446588,0.445665,0,0,0,0,0,-0.454733,0.446588,203,-71,203,-71,329,-68,211,62,0.0993589,-0.037872,0,-1.5,3.94113e+12,0,0,0,-0.454069,0.446762,0,0,0,0,0.0106399,0.00320531,17399,-0.454303,0.446691,0.0106399,0.00320531,10538,0,0,0,0,0.2,0.5
10574,-3.11491e-12,1.58152e-38,-1.52245e-06,-3.18057e-12,1.58141e-38,0,-1.06634e-13,0,0,-3.5436,0.446588,0.445665,0,0,0,0,0,-0.454733,0.446588,203,-71,203,-71,329,-68,211,62,0.0993113,-0.0374607,0,-1.5,3.94113e+12,0,0,0,-0.454369,0.446849,0,0,0,0,0.0126967,0.00344355,17399,-0.454471,0.446822,0.0126967,0.00344355,10569,0,0,0,0,0.2,0.5
10589,-3.11491e-12,1.58152e-38,-1.52245e-06,-3.18057e-12,1.58141e-38,0,-1.06635e-13,0,0,-3.5436,0.446588,0.445665,0,0,0,0,0,-0.454733,0.446588,203,-71,203,-71,329,-68,211,62,0.0993113,-0.0374607,0,-1.5,3.94113e+12,0,0,0,-0.454179,0.446901,0,0,0,0,0.0126967,0.00344355,17399,-0.454471,0.446822,0.0126967,0.00344355,10569,0,0,0,0,0.2,0.5
10614,-3.11491e-12,1.58152e-38,-1.52245e-06,-3.18057e-12,1.58141e-38,0,-1.06635e-13,0,0,-3.55783,0.444087,0.454062,0,0,0,0,0,-0.474226,0.444087,205,-71,205,-71,329,-68,211,62,0.0993273,-0.0353969,0,-1.5,3.94113e+12,0,0,0,-0.452723,0.446869,0,0,0,0,0.0230155,0.0033637,17125,-0.453045,0.446822,0.0230155,0.0033637,10601,0,0,0,0,0.2,0.5
10628,-3.11491e-12,1.58152e-38,-1.52245e-06,-3.18057e-12,1.58141e-38,0,-1.06635e-13,0,0,-3.55783,0.444087,0.454062,0,0,0,0,0,-0.474226,0.444087,205,-71,205,-71,329,-68,211,62,0.0993273,-0.0353969,0,-1.5,3.94113e+12,0,0,0,-0.452377,0.44692,0,0,0,0,0.0230155,0.0033637,17125,-0.453045,0.446822,0.0230155,0.0033637,10601,0,0,0,0,0.2,0.5
10647,-3.11491e-12,1.58152e-38,-1.52245e-06,-3.18057e-12,1.58141e-38,0,-1.06635e-13,0,0,-3.54446,0.442666,0.441669,0,0,0,0,0,-0.455909,0.442666,205,-71,205,-71,329,-68,211,64,0.0993505,-0.0377312,0,-1.5,3.94113e+12,0,0,0,-0.453995,0.446867,0,0,0,0,0.0113438,0.00324741,17125,-0.454153,0.446822,0.0113438,0.00324741,10635,0,0,0,0,0.2,0.5
10662,-3.11491e-12,1.58152e-38,-1.52245e-06,-3.18057e-12,1.58141e-38,0,-1.06636e-13,0,0,-3.54446,0.442666,0.441669,0,0,0,0,0,-0.455909,0.442666,205,-71,205,-71,329,-68,211,64,0.0993505,-0.0377312,0,-1.5,3.94113e+12,0,0,0,-0.453824,0.446916,0,0,0,0,0.0113438,0.00324741,17125,-0.454153,0.446822,0.0113438,0.00324741,10635,0,0,0,0,0.2,0.5
10684,-3.11491e-12,1.58152e-38,-1.52245e-06,-3.18057e-12,1.58141e-38,0,-1.06636e-13,0,0,-3.55783,0.444087,0.454062,0,0,0,0,0,-0.474226,0.444087,205,-71,205,-71,329,-68,211,62,0.0993927,-0.0380882,0,-1.5,3.94113e+12,0,0,0,-0.455255,0.446939,0,0,0,0,0.009559,0.0030367,17125,-0.455465,0.446872,0.009559,0.0030367,10670,0,0,0,0,0.2,0.5
10706,-3.11491e-12,1.58152e-38,-1.52245e-06,-3.18057e-12,1.58141e-38,0,-1.06636e-13,0,0,-3.55783,0.444087,0.454062,0,0,0,0,0,-0.474226,0.444087,205,-71,205,-71,329,-68,211,62,0.0994226,-0.0384913,0,-1.5,3.94113e+12,0,0,0,-0.4562,0.446747,0,0,0,0,0.00754363,0.00288685,17125,-0.456261,0.446724,0.00754363,0.00288685,10700,0,0,0,0,0.2,0.5
10721,-3.11491e-12,1.58152e-38,-1.52245e-06,-3.18057e-12,1.58141e-38,0,-1.06636e-13,0,0,-3.55783,0.444087,0.454062,0,0,0,0,0,-0.474226,0.444087,205,-71,205,-71,329,-68,211,62,0.0994226,-0.0384913,0,-1.5,3.94113e+12,0,0,0,-0.456087,0.446791,0,0,0,0,0.00754363,0.00288685,17125,-0.456261,0.446724,0.00754363,0.00288685,10700,0,0,0,0,0.2,0.5
10743,-3.11491e-12,1.58152e-38,-1.52245e-06,-3.18057e-12,1.58141e-38,0,-1.06637e-13,0,0,-3.55783,0.444087,0.454062,0,0,0,0,0,-0.474226,0.444087,205,-71,205,-71,329,-68,211,62,0.099831,-0.0426312,0,-1.5,3.94113e+12,0,0,0,-0.467004,0.445091,0,0,0,0,-0.0131562,0.000845142,17125,-0.466886,0.445083,-0.0131562,0.000845142,10735,0,0,0,0,0.2,0.5
10758,-3.11491e-12,1.58152e-38,-1.52245e-06,-3.18057e-12,1.58141e-38,0,-1.06637e-13,0,0,-3.55783,0.444087,0.454062,0,0,0,0,0,-0.474226,0.444087,205,-71,205,-71,329,-68,211,62,0.099831,-0.0426312,0,-1.5,3.94113e+12,0,0,0,-0.467215,0.445104,0,0,0,0,-0.0131562,0.000845142,17125,-0.466886,0.445083,-0.0131562,0.000845142,10735,0,0,0,0,0.2,0.5
10780,-3.11491e-12,1.58152e-38,-1.52245e-06,-3.18057e-12,1.58141e-38,0,-1.06637e-13,0,0,-3.5436,0.446588,0.445665,0,0,0,0,0,-0.454733,0.446588,203,-71,203,-71,329,-68,211,62,0.099578,-0.0391527,0,-1.5,3.94113e+12,0,0,0,-0.455511,0.446408,0,0,0,0,0.00423654,0.00210996,17399,-0.455562,0.446383,0.00423654,0.00210996,10770,0,0,0,0,0.2,0.5
10795,-3.11491e-12,1.58152e-38,-1.52245e-06,-3.18057e-12,1.58141e-38,0,-1.06638e-13,0,0,-3.5436,0.446588,0.445665,0,0,0,0,0,-0.454733,0.446588,203,-71,203,-71,329,-68,211,62,0.099578,-0.0391527,0,-1.5,3.94113e+12,0,0,0,-0.455443,0.446442,0,0,0,0,0.00423654,0.00210996,17399,-0.455562,0.446383,0.00423654,0.00210996,10770,0,0,0,0,0.2,0.5
10817,-3.11491e-12,1.58152e-38,-1.52245e-06,-3.18057e-12,1.58141e-38,0,-1.06638e-13,0,0,-3.55783,0.444087,0.454062,0,0,0,0,0,-0.474226,0.444087,205,-71,205,-71,329,-68,211,62,0.100501,-0.0432358,0,-1.5,3.94113e+12,0,0,0,-0.470469,0.444025,0,0,0,0,-0.0161792,-0.00250522,17125,-0.470129,0.444078,-0.0161792,-0.00250522,10802,0,0,0,0,0.2,0.5
10833,-3.11491e-12,1.58152e-38,-1.52245e-06,-3.18057e-12,1.58141e-38,0,-1.06638e-13,0,0,-3.55783,0.444087,0.454062,0,0,0,0,0,-0.474226,0.444087,205,-71,205,-71,329,-68,211,62,0.100501,-0.0432358,0,-1.5,3.94113e+12,0,0,0,-0.470744,0.443983,0,0,0,0,-0.0161792,-0.00250522,17125,-0.470129,0.444078,-0.0161792,-0.00250522,10802,0,0,0,0,0.2,0.5
10851,-3.11491e-12,1.58152e-38,-1.52245e-06,-3.18057e-12,1.58141e-38,0,-1.06638e-13,0,0,-3.5436,0.446588,0.445665,0,0,0,0,0,-0.454733,0.446588,203,-71,203,-71,329,-68,211,62,0.0995687,-0.0415745,0,-1.5,3.94113e+12,0,0,0,-0.462597,0.446411,0,0,0,0,-0.00787275,0.00215677,17399,-0.462455,0.446372,-0.00787275,0.00215677,10837,0,0,0,0,0.2,0.5
10865,-3.11491e-12,1.58152e-38,-1.52245e-06,-3.18057e-12,1.58141e-38,0,-1.06639e-13,0,0,-3.5436,0.446588,0.445665,0,0,0,0,0,-0.454733,0.446588,203,-71,203,-71,329,-68,211,62,0.0995687,-0.0415745,0,-1.5,3.94113e+12,0,0,0,-0.462707,0.446441,0,0,0,0,-0.00787275,0.00215677,17399,-0.462455,0.446372,-0.00787275,0.00215677,10837,0,0,0,0,0.2,0.5
10886,-3.11491e-12,1.58152e-38,-1.52245e-06,-3.18057e-12,1.58141e-38,0,-1.06639e-13,0,0,-3.5436,0.446588,0.445665,0,0,0,0,0,-0.454733,0.446588,203,-71,203,-71,329,-68,211,62,0.100214,-0.0398858,0,-1.5,3.94113e+12,0,0,0,-0.45675,0.445609,0,0,0,0,0.000570984,-0.00106978,17399,-0.456762,0.445632,0.000570984,-0.00106978,10872,0,0,0,0,0.2,0.5
10908,-3.11491e-12,1.58152e-38,-1.52245e-06,-3.18057e-12,1.58141e-38,0,-1.06639e-13,0,0,-3.53597,0.443451,0.441238,0,0,0,0,0,-0.444278,0.443451,203,-71,203,-71,329,-68,211,62,0.100594,-0.0402417,0,-1.5,3.94113e+12,0,0,0,-0.456223,0.443855,0,0,0,0,-0.00120842,-0.00296952,17536,-0.456213,0.443879,-0.00120842,-0.00296952,10902,0,0,0,0,0.2,0.5
10923,-3.11491e-12,1.58152e-38,-1.52245e-06,-3.18057e-12,1.58141e-38,0,-1.06639e-13,0,0,-3.53597,0.443451,0.441238,0,0,0,0,0,-0.444278,0.443451,203,-71,203,-71,329,-68,211,62,0.100594,-0.0402417,0,-1.5,3.94113e+12,0,0,0,-0.456241,0.443811,0,0,0,0,-0.00120842,-0.00296952,17536,-0.456213,0.443879,-0.00120842,-0.00296952,10902,0,0,0,0,0.2,0.5
10945,-3.11491e-12,1.58152e-38,-1.52245e-06,-3.18057e-12,1.58141e-38,0,-1.0664e-13,0,0,-3.5436,0.446588,0.445665,0,0,0,0,0,-0.454733,0.446588,203,-71,203,-71,329,-68,211,62,0.100253,-0.0397106,0,-1.5,3.94113e+12,0,0,0,-0.455608,0.44555,0,0,0,0,0.00144685,-0.001265,17399,-0.455619,0.445559,0.00144685,-0.001265,10939,0,0,0,0,0.2,0.5
10960,-3.11491e-12,1.58152e-38,-1.52245e-06,-3.18057e-12,1.58141e-38,0,-1.0664e-13,0,0,-3.5436,0.446588,0.445665,0,0,0,0,0,-0.454733,0.446588,203,-71,203,-71,329,-68,211,62,0.100253,-0.0397106,0,-1.5,3.94113e+12,0,0,0,-0.455585,0.44553,0,0,0,0,0.00144685,-0.001265,17399,-0.455619,0.445559,0.00144685,-0.001265,10939,0,0,0,0,0.2,0.5
10982,-3.11491e-12,1.58152e-38,-1.52245e-06,-3.18057e-12,1.58141e-38,0,-1.0664e-13,0,0,-3.55783,0.444087,0.454062,0,0,0,0,0,-0.474226,0.444087,205,-71,205,-71,329,-68,211,62,0.100522,-0.0411666,0,-1.5,3.94113e+12,0,0,0,-0.460456,0.444223,0,0,0,0,-0.00583277,-0.00260757,17125,-0.460386,0.444254,-0.00583277,-0.00260757,10971,0,0,0,0,0.2,0.5
10997,-3.11491e-12,1.58152e-38,-1.52245e-06,-3.18057e-12,1.58141e-38,0,-1.06641e-13,0,0,-3.55783,0.444087,0.454062,0,0,0,0,0,-0.474226,0.444087,205,-71,205,-71,329,-68,211,62,0.100522,-0.0411666,0,-1.5,3.94113e+12,0,0,0,-0.46055,0.444181,0,0,0,0,-0.00583277,-0.00260757,17125,-0.460386,0.444254,-0.00583277,-0.00260757,10971,0,0,0,0,0.2,0.5
11018,-3.11491e-12,1.58152e-38,-1.52245e-06,-3.18057e-12,1.58141e-38,0,-1.06641e-13,0,0,-3.5436,0.446588,0.445665,0,0,0,0,0,-0.454733,0.446588,203,-71,203,-71,329,-68,211,62,0.100292,-0.0397408,0,-1.5,3.94113e+12,0,0,0,-0.455514,0.445219,0,0,0,0,0.00129618,-0.00146241,17399,-0.455541,0.44525,0.00129618,-0.00146241,11004,0,0,0,0,0.2,0.5
11034,-3.11491e-12,1.58152e-38,-1.52245e-06,-3.18057e-12,1.58141e-38,0,-1.06641e-13,0,0,-3.5436,0.446588,0.445665,0,0,0,0,0,-0.454733,0.446588,203,-71,203,-71,329,-68,211,62,0.100292,-0.0397408,0,-1.5,3.94113e+12,0,0,0,-0.455494,0.445196,0,0,0,0,0.00129618,-0.00146241,17399,-0.455541,0.44525,0.00129618,-0.00146241,11004,0,0,0,0,0.2,0.5
11056,-3.11491e-12,1.58152e-38,-1.52245e-06,-3.18057e-12,1.58141e-38,0,-1.06641e-13,0,0,-3.5436,0.446588,0.445665,0,0,0,0,0,-0.454733,0.446588,203,-71,203,-71,329,-68,211,62,0.100127,-0.0400542,0,-1.5,3.94113e+12,0,0,0,-0.454752,0.445957,0,0,0,0,-0.00027109,-0.000635669,17399,-0.454746,0.445971,-0.00027109,-0.000635669,11041,0,0,0,0,0.2,0.5
11075,-3.11491e-12,1.58152e-38,-1.52245e-06,-3.18057e-12,1.58141e-38,0,-1.06642e-13,0,0,-3.55783,0.444087,0.454062,0,0,0,0,0,-0.474226,0.444087,205,-71,205,-71,329,-68,211,62,0.100381,-0.0405284,0,-1.5,3.94113e+12,0,0,0,-0.457463,0.444781,0,0,0,0,-0.00264218,-0.00190649,17125,-0.457442,0.444797,-0.00264218,-0.00190649,11069,0,0,0,0,0.2,0.5
11088,-3.11491e-12,1.58152e-38,-1.52245e-06,-3.18057e-12,1.58141e-38,0,-1.06642e-13,0,0,-3.55783,0.444087,0.454062,0,0,0,0,0,-0.474226,0.444087,205,-71,205,-71,329,-68,211,62,0.100381,-0.0405284,0,-1.5,3.94113e+12,0,0,0,-0.457497,0.444757,0,0,0,0,-0.00264218,-0.00190649,17125,-0.457442,0.444797,-0.00264218,-0.00190649,11069,0,0,0,0,0.2,0.5
11110,-3.11491e-12,1.58152e-38,-1.52245e-06,-3.18057e-12,1.58141e-38,0,-1.06642e-13,0,0,-3.5436,0.446588,0.445665,0,0,0,0,0,-0.454733,0.446588,203,-71,203,-71,329,-68,211,62,0.100184,-0.0390989,0,-1.5,3.94113e+12,0,0,0,-0.454524,0.445721,0,0,0,0,0.00450526,-0.000918391,17399,-0.454569,0.44573,0.00450526,-0.000918391,11102,0,0,0,0,0.2,0.5
11125,-3.11491e-12,1.58152e-38,-1.52245e-06,-3.18057e-12,1.58141e-38,0,-1.06642e-13,0,0,-3.5436,0.446588,0.445665,0,0,0,0,0,-0.454733,0.446588,203,-71,203,-71,329,-68,211,62,0.100184,-0.0390989,0,-1.5,3.94113e+12,0,0,0,-0.454457,0.445707,0,0,0,0,0.00450526,-0.000918391,17399,-0.454569,0.44573,0.00450526,-0.000918391,11102,0,0,0,0,0.2,0.5
11147,-3.11491e-12,1.58152e-38,-1.52245e-06,-3.18057e-12,1.58141e-38,0,-1.06643e-13,0,0,-3.5436,0.446588,0.445665,0,0,0,0,0,-0.454733,0.446588,203,-71,203,-71,329,-68,211,62,0.0999596,-0.0399836,0,-1.5,3.94113e+12,0,0,0,-0.456416,0.446506,0,0,0,0,8.19009e-05,0.00020196,17399,-0.456417,0.446503,8.19009e-05,0.00020196,11135,0,0,0,0,0.2,0.5
11162,-3.11491e-12,1.58152e-38,-1.52245e-06,-3.18057e-12,1.58141e-38,0,-1.06643e-13,0,0,-3.5436,0.446588,0.445665,0,0,0,0,0,-0.454733,0.446588,203,-71,203,-71,329,-68,211,62,0.0999596,-0.0399836,0,-1.5,3.94113e+12,0,0,0,-0.456415,0.446509,0,0,0,0,8.19009e-05,0.00020196,17399,-0.456417,0.446503,8.19009e-05,0.00020196,11135,0,0,0,0,0.2,0.5
