timestamp,A_x,A_y,A_z,P,Q,R,Phi,Theta,Psi,poseX,poseY,poseZ,state_X,state_Y,state_Z,state_VzB,state_Bx,state_By,state_Bz,p1_x,p1_y,p2_x,p2_y,p3_x,p3_y,p4_x,p4_y,roll,pitch,yaw,alt,targetHeading,highLevelState,lowLevelState,gateNumber,filtered_x,filtered_y,x_OT,y_OT,vx_OT,vy_OT,filtered_vx,filtered_vygateArearansac_corr_x,ransac_corr_y,ransac_corr_vx,ransac_corr_vy,detectionTimeStamppTermX,dTermX,pTermY,dTermY,vxcmd,vycmd
7049,0,0,0,0,0,0.121477,-0.00484006,0.133441,-0.00712052,0.121477,-0.00484006,5,0,-1.5,0,0,0.0122738,-0.00101569,-1.57089,-0.041434,0.0022929,0,0,0,0,0
7066,0,0,0,0,0,0.281531,-0.0154914,0.176652,-0.0138743,0.281531,-0.0154914,5,0,-1.5,0,0,0.0122452,-0.00138794,-1.57082,-0.0537999,0.00433148,0,0,0,0,0
7081,0,0,0,0,0,0.476355,-0.03296,0.203485,-0.0202685,0.476355,-0.03296,5,0,-1.5,0,0,0.0125845,-0.0016922,-1.57084,-0.0615821,0.00622164,0,0,0,0,0
7099,0,0,0,0,0,0.656143,-0.0522269,0.218504,-0.0249475,0.656143,-0.0522269,5,0,-1.5,0,0,0.0124102,-0.00182901,-1.57084,-0.0659406,0.0076178,0,0,0,0,0
7114,0,0,0,0,0,0.656143,-0.0522269,0.218504,-0.0249475,0.656143,-0.0522269,5,0,-1.5,0,0,0.0124566,-0.00182621,-1.57085,-0.0659406,0.0076178,0,0,0,0,0
7129,0,0,0,0,0,0.656143,-0.0522269,0.218504,-0.0249475,0.656143,-0.0522269,5,0,-1.5,0,0,0.0125224,-0.00183942,-1.57085,-0.0659406,0.0076178,0,0,0,0,0
7144,0,0,0,0,0,0.656143,-0.0522269,0.218504,-0.0249475,0.656143,-0.0522269,5,0,-1.5,0,0,0.0126027,-0.0018506,-1.57086,-0.0659406,0.0076178,0,0,0,0,0
7159,0,0,0,0,0,0.656143,-0.0522269,0.218504,-0.0249475,0.656143,-0.0522269,5,0,-1.5,0,0,0.012637,-0.0018639,-1.57086,-0.0659406,0.0076178,0,0,0,0,0
7174,0,0,0,0,0,0.656143,-0.0522269,0.218504,-0.0249475,0.656143,-0.0522269,5,0,-1.5,0,0,0.0126276,-0.00187387,-1.57087,-0.0659406,0.0076178,0,0,0,0,0
7189,0,0,0,0,0,0.693482,-0.0565454,0.220762,-0.0258599,0.693482,-0.0565454,5,0,-1.5,0,0,0.0125815,-0.00187059,-1.57087,-0.0665635,0.00789203,0,0,0,0,0
7204,0,0,0,0,0,0.693482,-0.0565454,0.220762,-0.0258599,0.693482,-0.0565454,5,0,-1.5,0,0,0.012487,-0.00187035,-1.57087,-0.0665635,0.00789203,0,0,0,0,0
7220,0,0,0,0,0,0.693482,-0.0565454,0.220762,-0.0258599,0.693482,-0.0565454,5,0,-1.5,0,0,0.0124689,-0.00188578,-1.57088,-0.0665635,0.00789203,0,0,0,0,0
7234,0,0,0,0,0,0.693482,-0.0565454,0.220762,-0.0258599,0.693482,-0.0565454,5,0,-1.5,0,0,0.0124754,-0.00188569,-1.57088,-0.0665635,0.00789203,0,0,0,0,0
7249,0,0,0,0,0,0.693482,-0.0565454,0.220762,-0.0258599,0.693482,-0.0565454,5,0,-1.5,0,0,0.012486,-0.00189431,-1.57089,-0.0665635,0.00789203,0,0,0,0,0
7264,0,0,0,0,0,0.693482,-0.0565454,0.220762,-0.0258599,0.693482,-0.0565454,5,0,-1.5,0,0,0.0125225,-0.00189404,-1.5709,-0.0665635,0.00789203,0,0,0,0,0
7280,0,0,0,0,0,0.693482,-0.0565454,0.220762,-0.0258599,0.693482,-0.0565454,5,0,-1.5,0,0,0.0125485,-0.00190006,-1.57091,-0.0665635,0.00789203,0,0,0,0,0
7295,0,0,0,0,0,0.693482,-0.0565454,0.220762,-0.0258599,0.693482,-0.0565454,5,0,-1.5,0,0,0.0125573,-0.00190607,-1.5709,-0.0665635,0.00789203,0,0,0,0,0
7310,0,0,0,0,0,0.693482,-0.0565454,0.220762,-0.0258599,0.693482,-0.0565454,5,0,-1.5,0,0,0.012529,-0.00191147,-1.57091,-0.0665635,0.00789203,0,0,0,0,0
7325,0,0,0,0,0,0.693482,-0.0565454,0.220762,-0.0258599,0.693482,-0.0565454,5,0,-1.5,0,0,0.012471,-0.00191639,-1.5709,-0.0665635,0.00789203,0,0,0,0,0
7340,0,0,0,0,0,0.731186,-0.0610199,0.22278,-0.02678,0.731186,-0.0610199,5,0,-1.5,0,0,0.0123983,-0.00190785,-1.5709,-0.0671156,0.00816576,0,0,0,0,0
7355,0,0,0,0,0,0.731186,-0.0610199,0.22278,-0.02678,0.731186,-0.0610199,5,0,-1.5,0,0,0.0123486,-0.00189391,-1.57091,-0.0671156,0.00816576,0,0,0,0,0
7370,0,0,0,0,0,0.731186,-0.0610199,0.22278,-0.02678,0.731186,-0.0610199,5,0,-1.5,0,0,0.0123478,-0.00190802,-1.57091,-0.0671156,0.00816576,0,0,0,0,0
7385,0,0,0,0,0,0.731186,-0.0610199,0.22278,-0.02678,0.731186,-0.0610199,5,0,-1.5,0,0,0.0124676,-0.00192906,-1.57091,-0.0671156,0.00816576,0,0,0,0,0
7399,0,0,0,0,0,0.731186,-0.0610199,0.22278,-0.02678,0.731186,-0.0610199,5,0,-1.5,0,0,0.0125246,-0.00194518,-1.57091,-0.0671156,0.00816576,0,0,0,0,0
7415,0,0,0,0,0,0.731186,-0.0610199,0.22278,-0.02678,0.731186,-0.0610199,5,0,-1.5,0,0,0.0125085,-0.00194856,-1.57092,-0.0671156,0.00816576,0,0,0,0,0
7431,0,0,0,0,0,0.731186,-0.0610199,0.22278,-0.02678,0.731186,-0.0610199,5,0,-1.5,0,0,0.0124393,-0.00194342,-1.57091,-0.0671156,0.00816576,0,0,0,0,0
7445,0,0,0,0,0,0.731186,-0.0610199,0.22278,-0.02678,0.731186,-0.0610199,5,0,-1.5,0,0,0.0123263,-0.00192803,-1.57091,-0.0671156,0.00816576,0,0,0,0,0
7460,0,0,0,0,0,0.731186,-0.0610199,0.22278,-0.02678,0.731186,-0.0610199,5,0,-1.5,0,0,0.0122404,-0.00192368,-1.57091,-0.0671156,0.00816576,0,0,0,0,0
7474,0,0,0,0,0,0.769205,-0.065649,0.224469,-0.0276769,0.769205,-0.065649,5,0,-1.5,0,0,0.0122392,-0.00193023,-1.57091,-0.0675424,0.00842453,0,0,0,0,0
7489,0,0,0,0,0,0.769205,-0.065649,0.224469,-0.0276769,0.769205,-0.065649,5,0,-1.5,0,0,0.01231,-0.0019601,-1.57091,-0.0675424,0.00842453,0,0,0,0,0
7504,0,0,0,0,0,0.769205,-0.065649,0.224469,-0.0276769,0.769205,-0.065649,5,0,-1.5,0,0,0.0123985,-0.00198915,-1.57091,-0.0675424,0.00842453,0,0,0,0,0
7520,0,0,0,0,0,0.769205,-0.065649,0.224469,-0.0276769,0.769205,-0.065649,5,0,-1.5,0,0,0.0124949,-0.00200275,-1.57091,-0.0675424,0.00842453,0,0,0,0,0
7536,0,0,0,0,0,0.769205,-0.065649,0.224469,-0.0276769,0.769205,-0.065649,5,0,-1.5,0,0,0.0125118,-0.00200891,-1.57091,-0.0675424,0.00842453,0,0,0,0,0
7553,0,0,0,0,0,0.769205,-0.065649,0.224469,-0.0276769,0.769205,-0.065649,5,0,-1.5,0,0,0.0123051,-0.00200155,-1.57091,-0.0675424,0.00842453,0,0,0,0,0
7566,0,0,0,0,0,0.769205,-0.065649,0.224469,-0.0276769,0.769205,-0.065649,5,0,-1.5,0,0,0.0122151,-0.00199518,-1.57089,-0.0675424,0.00842453,0,0,0,0,0
7581,0,0,0,0,0,0.769205,-0.065649,0.224469,-0.0276769,0.769205,-0.065649,5,0,-1.5,0,0,0.0121776,-0.00199243,-1.57088,-0.0675424,0.00842453,0,0,0,0,0
7597,0,0,0,0,0,0.769205,-0.065649,0.224469,-0.0276769,0.769205,-0.065649,5,0,-1.5,0,0,0.0122101,-0.0020031,-1.57089,-0.0675424,0.00842453,0,0,0,0,0
7612,0,0,0,0,0,0.80749,-0.0704322,0.225888,-0.0285991,0.80749,-0.0704322,5,0,-1.5,0,0,0.0123055,-0.00202114,-1.57089,-0.0679426,0.00871095,0,0,0,0,0
7629,0,0,0,0,0,0.80749,-0.0704322,0.225888,-0.0285991,0.80749,-0.0704322,5,0,-1.5,0,0,0.0123965,-0.00202412,-1.57089,-0.0679426,0.00871095,0,0,0,0,0
7654,0,0,0,0,0,0.80749,-0.0704322,0.225888,-0.0285991,0.80749,-0.0704322,5,0,-1.5,0,0,0.0124181,-0.00205584,-1.5709,-0.0679426,0.00871095,0,0,0,0,0
7680,0,0,0,0,0,0.80749,-0.0704322,0.225888,-0.0285991,0.80749,-0.0704322,5,0,-1.5,0,0,0.0122407,-0.00203715,-1.5709,-0.0679426,0.00871095,0,0,0,0,0
7699,0,0,0,0,0,0.80749,-0.0704322,0.225888,-0.0285991,0.80749,-0.0704322,5,0,-1.5,0,0,0.0121673,-0.00203502,-1.5709,-0.0679426,0.00871095,0,0,0,0,0
7714,0,0,0,0,0,0.80749,-0.0704322,0.225888,-0.0285991,0.80749,-0.0704322,5,0,-1.5,0,0,0.012153,-0.00203214,-1.57091,-0.0679426,0.00871095,0,0,0,0,0
7730,0,0,0,0,0,0.80749,-0.0704322,0.225888,-0.0285991,0.80749,-0.0704322,5,0,-1.5,0,0,0.0122044,-0.0020525,-1.57091,-0.0679426,0.00871095,0,0,0,0,0
7746,0,0,0,0,0,0.80749,-0.0704322,0.225888,-0.0285991,0.80749,-0.0704322,5,0,-1.5,0,0,0.0123546,-0.00208745,-1.57093,-0.0679426,0.00871095,0,0,0,0,0
7762,0,0,0,0,0,0.80749,-0.0704322,0.225888,-0.0285991,0.80749,-0.0704322,5,0,-1.5,0,0,0.0123806,-0.0020966,-1.57093,-0.0679426,0.00871095,0,0,0,0,0
7778,0,0,0,0,0,0.80749,-0.0704322,0.225888,-0.0285991,0.80749,-0.0704322,5,0,-1.5,0,0,0.012343,-0.00209392,-1.57092,-0.0679426,0.00871095,0,0,0,0,0
7794,0,0,0,0,0,0.80749,-0.0704322,0.225888,-0.0285991,0.80749,-0.0704322,5,0,-1.5,0,0,0.0122747,-0.00210033,-1.57092,-0.0679426,0.00871095,0,0,0,0,0
7809,0,0,0,0,0,0.80749,-0.0704322,0.225888,-0.0285991,0.80749,-0.0704322,5,0,-1.5,0,0,0.0121873,-0.00208809,-1.57092,-0.0679426,0.00871095,0,0,0,0,0
7825,0,0,0,0,0,0.80749,-0.0704322,0.225888,-0.0285991,0.80749,-0.0704322,5,0,-1.5,0,0,0.0121199,-0.00208346,-1.57094,-0.0679426,0.00871095,0,0,0,0,0
7840,0,0,0,0,0,0.80749,-0.0704322,0.225888,-0.0285991,0.80749,-0.0704322,5,0,-1.5,0,0,0.0121199,-0.00208346,-1.57094,-0.0679426,0.00871095,0,0,0,0,0
7856,0,0,0,0,0,0.80749,-0.0704322,0.225888,-0.0285991,0.80749,-0.0704322,5,0,-1.5,0,0,0.0122993,-0.00213078,-1.57097,-0.0679426,0.00871095,0,0,0,0,0
7871,0,0,0,0,0,0.80749,-0.0704322,0.225888,-0.0285991,0.80749,-0.0704322,5,0,-1.5,0,0,0.0123318,-0.00215023,-1.57097,-0.0679426,0.00871095,0,0,0,0,0
7888,0,0,0,0,0,0.884713,-0.0804753,0.228226,-0.0304873,0.884713,-0.0804753,5,0,-1.5,0,0,0.0122487,-0.00214106,-1.57098,-0.0686449,0.00928476,0,0,0,0,0
7903,0,0,0,0,0,0.884713,-0.0804753,0.228226,-0.0304873,0.884713,-0.0804753,5,0,-1.5,0,0,0.0121279,-0.00213161,-1.57099,-0.0686449,0.00928476,0,0,0,0,0
7917,0,0,0,0,0,0.884713,-0.0804753,0.228226,-0.0304873,0.884713,-0.0804753,5,0,-1.5,0,0,0.0120219,-0.00210875,-1.57099,-0.0686449,0.00928476,0,0,0,0,0
7933,0,0,0,0,0,0.884713,-0.0804753,0.228226,-0.0304873,0.884713,-0.0804753,5,0,-1.5,0,0,0.0120182,-0.00210527,-1.57099,-0.0686449,0.00928476,0,0,0,0,0
7948,0,0,0,0,0,0.884713,-0.0804753,0.228226,-0.0304873,0.884713,-0.0804753,5,0,-1.5,0,0,0.0121598,-0.00212422,-1.57101,-0.0686449,0.00928476,0,0,0,0,0
7964,0,0,0,0,0,0.884713,-0.0804753,0.228226,-0.0304873,0.884713,-0.0804753,5,0,-1.5,0,0,0.0124927,-0.00215679,-1.57105,-0.0686449,0.00928476,0,0,0,0,0
7980,0,0,0,0,0,0.884713,-0.0804753,0.228226,-0.0304873,0.884713,-0.0804753,5,0,-1.5,0,0,0.012485,-0.0021639,-1.57105,-0.0686449,0.00928476,0,0,0,0,0
7996,0,0,0,0,0,0.884713,-0.0804753,0.228226,-0.0304873,0.884713,-0.0804753,5,0,-1.5,0,0,0.0123478,-0.00214805,-1.57105,-0.0686449,0.00928476,0,0,0,0,0
8012,0,0,0,0,0,0.884713,-0.0804753,0.228226,-0.0304873,0.884713,-0.0804753,5,0,-1.5,0,0,0.0121578,-0.0021339,-1.57104,-0.0686449,0.00928476,0,0,0,0,0
8028,0,0,0,0,0,0.923591,-0.0857381,0.229222,-0.0314208,0.923591,-0.0857381,5,0,-1.5,0,0,0.0120087,-0.00211044,-1.57104,-0.0688879,0.00954381,0,0,0,0,0
8045,0,0,0,0,0,0.923591,-0.0857381,0.229222,-0.0314208,0.923591,-0.0857381,5,0,-1.5,0,0,0.0120146,-0.0021066,-1.57104,-0.0688879,0.00954381,0,0,0,0,0
8061,0,0,0,0,0,0.923591,-0.0857381,0.229222,-0.0314208,0.923591,-0.0857381,5,0,-1.5,0,0,0.0122995,-0.00214998,-1.57106,-0.0688879,0.00954381,0,0,0,0,0
8076,0,0,0,0,0,0.923591,-0.0857381,0.229222,-0.0314208,0.923591,-0.0857381,5,0,-1.5,0,0,0.0124376,-0.00217103,-1.57105,-0.0688879,0.00954381,0,0,0,0,0
8092,0,0,0,0,0,0.923591,-0.0857381,0.229222,-0.0314208,0.923591,-0.0857381,5,0,-1.5,0,0,0.0124653,-0.0021851,-1.57105,-0.0688879,0.00954381,0,0,0,0,0
8108,0,0,0,0,0,0.923591,-0.0857381,0.229222,-0.0314208,0.923591,-0.0857381,5,0,-1.5,0,0,0.0123913,-0.00218707,-1.57105,-0.0688879,0.00954381,0,0,0,0,0
8123,0,0,0,0,0,0.923591,-0.0857381,0.229222,-0.0314208,0.923591,-0.0857381,5,0,-1.5,0,0,0.012277,-0.00217177,-1.57106,-0.0688879,0.00954381,0,0,0,0,0
8139,0,0,0,0,0,0.923591,-0.0857381,0.229222,-0.0314208,0.923591,-0.0857381,5,0,-1.5,0,0,0.0121816,-0.00216252,-1.57105,-0.0688879,0.00954381,0,0,0,0,0
8155,0,0,0,0,0,0.923591,-0.0857381,0.229222,-0.0314208,0.923591,-0.0857381,5,0,-1.5,0,0,0.0121618,-0.00217246,-1.57105,-0.0688879,0.00954381,0,0,0,0,0
8171,0,0,0,0,0,0.923591,-0.0857381,0.229222,-0.0314208,0.923591,-0.0857381,5,0,-1.5,0,0,0.0121618,-0.00217246,-1.57105,-0.0688879,0.00954381,0,0,0,0,0
8186,0,0,0,0,0,0.923591,-0.0857381,0.229222,-0.0314208,0.923591,-0.0857381,5,0,-1.5,0,0,0.0123619,-0.00221541,-1.57104,-0.0688879,0.00954381,0,0,0,0,0
8202,0,0,0,0,0,0.923591,-0.0857381,0.229222,-0.0314208,0.923591,-0.0857381,5,0,-1.5,0,0,0.0123692,-0.00222368,-1.57105,-0.0688879,0.00954381,0,0,0,0,0
8218,0,0,0,0,0,0.923591,-0.0857381,0.229222,-0.0314208,0.923591,-0.0857381,5,0,-1.5,0,0,0.0123642,-0.00223134,-1.57106,-0.0688879,0.00954381,0,0,0,0,0
8234,0,0,0,0,0,0.923591,-0.0857381,0.229222,-0.0314208,0.923591,-0.0857381,5,0,-1.5,0,0,0.012328,-0.0022403,-1.57106,-0.0688879,0.00954381,0,0,0,0,0
8249,0,0,0,0,0,0.923591,-0.0857381,0.229222,-0.0314208,0.923591,-0.0857381,5,0,-1.5,0,0,0.012309,-0.00223769,-1.57108,-0.0688879,0.00954381,0,0,0,0,0
8265,0,0,0,0,0,0.923591,-0.0857381,0.229222,-0.0314208,0.923591,-0.0857381,5,0,-1.5,0,0,0.0122875,-0.00224331,-1.57107,-0.0688879,0.00954381,0,0,0,0,0
8280,0,0,0,0,0,0.923591,-0.0857381,0.229222,-0.0314208,0.923591,-0.0857381,5,0,-1.5,0,0,0.0122716,-0.00223989,-1.57107,-0.0688879,0.00954381,0,0,0,0,0
8296,0,0,0,0,0,1.00183,-0.0967259,0.231023,-0.0332365,1.00183,-0.0967259,5,0,-1.5,0,0,0.012251,-0.00223825,-1.57108,-0.0694294,0.010089,0,0,0,0,0
8313,0,0,0,0,0,1.00183,-0.0967259,0.231023,-0.0332365,1.00183,-0.0967259,5,0,-1.5,0,0,0.0122598,-0.00223037,-1.57107,-0.0694294,0.010089,0,0,0,0,0
8328,0,0,0,0,0,1.00183,-0.0967259,0.231023,-0.0332365,1.00183,-0.0967259,5,0,-1.5,0,0,0.0123061,-0.00224648,-1.57108,-0.0694294,0.010089,0,0,0,0,0
8343,0,0,0,0,0,1.00183,-0.0967259,0.231023,-0.0332365,1.00183,-0.0967259,5,0,-1.5,0,0,0.012351,-0.00226229,-1.57108,-0.0694294,0.010089,0,0,0,0,0
8363,0,0,0,0,0,1.00183,-0.0967259,0.231023,-0.0332365,1.00183,-0.0967259,5,0,-1.5,0,0,0.0123799,-0.00226344,-1.57108,-0.0694294,0.010089,0,0,0,0,0
8470,0,0,0,0,0,1.04117,-0.102453,0.231874,-0.0341354,1.04117,-0.102453,5,0,-1.5,0,0,0.0124059,-0.00228962,-1.57112,-0.069672,0.0103509,0,0,0,0,0
8533,0,0,0,0,0,1.04117,-0.102453,0.231874,-0.0341354,1.04117,-0.102453,5,0,-1.5,0,0,0.012224,-0.0022942,-1.57113,-0.069672,0.0103509,0,0,0,0,0
8549,0,0,0,0,0,1.04117,-0.102453,0.231874,-0.0341354,1.04117,-0.102453,5,0,-1.5,0,0,0.0122786,-0.0023026,-1.57113,-0.069672,0.0103509,0,0,0,0,0
8573,0,0,0,0,0,1.08066,-0.108332,0.232656,-0.0350152,1.08066,-0.108332,5,0,-1.5,0,0,0.0122786,-0.0023026,-1.57113,-0.069924,0.0106165,0,0,0,0,0
8588,0,0,0,0,0,1.08066,-0.108332,0.232656,-0.0350152,1.08066,-0.108332,5,0,-1.5,0,0,0.0123969,-0.00232467,-1.57114,-0.069924,0.0106165,0,0,0,0,0
8604,0,0,0,0,0,1.08066,-0.108332,0.232656,-0.0350152,1.08066,-0.108332,5,0,-1.5,0,0,0.0123399,-0.00232355,-1.57115,-0.069924,0.0106165,0,0,0,0,0
8627,0,0,0,0,0,1.08066,-0.108332,0.232656,-0.0350152,1.08066,-0.108332,5,0,-1.5,0,0,0.0122728,-0.00231447,-1.57114,-0.069924,0.0106165,0,0,0,0,0
8642,0,0,0,0,0,1.08066,-0.108332,0.232656,-0.0350152,1.08066,-0.108332,5,0,-1.5,0,0,0.0122728,-0.00231447,-1.57114,-0.069924,0.0106165,0,0,0,0,0
8658,0,0,0,0,0,1.08066,-0.108332,0.232656,-0.0350152,1.08066,-0.108332,5,0,-1.5,0,0,0.0122488,-0.00234137,-1.57116,-0.069924,0.0106165,0,0,0,0,0
8674,0,0,0,0,0,1.08066,-0.108332,0.232656,-0.0350152,1.08066,-0.108332,5,0,-1.5,0,0,0.0123033,-0.00235185,-1.57116,-0.069924,0.0106165,0,0,0,0,0
8703,0,0,0,0,0,1.08066,-0.108332,0.232656,-0.0350152,1.08066,-0.108332,5,0,-1.5,0,0,0.0123665,-0.00235862,-1.57118,-0.069924,0.0106165,0,0,0,0,0
8718,0,0,0,0,0,1.12028,-0.11436,0.233381,-0.0358997,1.12028,-0.11436,5,0,-1.5,0,0,0.0123363,-0.00235002,-1.57118,-0.0701368,0.010877,0,0,0,0,0
8734,0,0,0,0,0,1.12028,-0.11436,0.233381,-0.0358997,1.12028,-0.11436,5,0,-1.5,0,0,0.012296,-0.00234575,-1.57119,-0.0701368,0.010877,0,0,0,0,0
8750,0,0,0,0,0,1.12028,-0.11436,0.233381,-0.0358997,1.12028,-0.11436,5,0,-1.5,0,0,0.012256,-0.00234872,-1.57119,-0.0701368,0.010877,0,0,0,0,0
8771,0,0,0,0,0,1.12028,-0.11436,0.233381,-0.0358997,1.12028,-0.11436,5,0,-1.5,0,0,0.0122932,-0.00235589,-1.57121,-0.0701368,0.010877,0,0,0,0,0
8786,0,0,0,0,0,1.12028,-0.11436,0.233381,-0.0358997,1.12028,-0.11436,5,0,-1.5,0,0,0.0123418,-0.00236564,-1.57122,-0.0701368,0.010877,0,0,0,0,0
8802,0,0,0,0,0,1.12028,-0.11436,0.233381,-0.0358997,1.12028,-0.11436,5,0,-1.5,0,0,0.0123847,-0.00237716,-1.57123,-0.0701368,0.010877,0,0,0,0,0
8823,0,0,0,0,0,1.12028,-0.11436,0.233381,-0.0358997,1.12028,-0.11436,5,0,-1.5,0,0,0.0123839,-0.00237537,-1.57125,-0.0701368,0.010877,0,0,0,0,0
8839,0,0,0,0,0,1.12028,-0.11436,0.233381,-0.0358997,1.12028,-0.11436,5,0,-1.5,0,0,0.012378,-0.00238031,-1.57125,-0.0701368,0.010877,0,0,0,0,0
8854,0,0,0,0,0,1.16001,-0.120536,0.234078,-0.0367562,1.16001,-0.120536,5,0,-1.5,0,0,0.0123496,-0.00237404,-1.57125,-0.0703408,0.0111236,0,0,0,0,0
8870,0,0,0,0,0,1.16001,-0.120536,0.234078,-0.0367562,1.16001,-0.120536,5,0,-1.5,0,0,0.0123496,-0.00237404,-1.57125,-0.0703408,0.0111236,0,0,0,0,0
8891,0,0,0,0,0,1.16001,-0.120536,0.234078,-0.0367562,1.16001,-0.120536,5,0,-1.5,0,0,0.0123575,-0.00237778,-1.57126,-0.0703408,0.0111236,0,0,0,0,0
8906,0,0,0,0,0,1.16001,-0.120536,0.234078,-0.0367562,1.16001,-0.120536,5,0,-1.5,0,0,0.0123912,-0.00237717,-1.57127,-0.0703408,0.0111236,0,0,0,0,0
8921,0,0,0,0,0,1.16001,-0.120536,0.234078,-0.0367562,1.16001,-0.120536,5,0,-1.5,0,0,0.012411,-0.00237913,-1.57127,-0.0703408,0.0111236,0,0,0,0,0
8943,0,0,0,0,0,1.16001,-0.120536,0.234078,-0.0367562,1.16001,-0.120536,5,0,-1.5,0,0,0.0124243,-0.00238158,-1.57129,-0.0703408,0.0111236,0,0,0,0,0
8958,0,0,0,0,0,1.16001,-0.120536,0.234078,-0.0367562,1.16001,-0.120536,5,0,-1.5,0,0,0.0124219,-0.00238082,-1.57129,-0.0703408,0.0111236,0,0,0,0,0
8972,0,0,0,0,0,1.16001,-0.120536,0.234078,-0.0367562,1.16001,-0.120536,5,0,-1.5,0,0,0.0124219,-0.00238082,-1.57129,-0.0703408,0.0111236,0,0,0,0,0
8987,0,0,0,0,0,1.16001,-0.120536,0.234078,-0.0367562,1.16001,-0.120536,5,0,-1.5,0,0,0.0123794,-0.00239023,-1.57129,-0.0703408,0.0111236,0,0,0,0,0
9008,0,0,0,0,0,1.19986,-0.126855,0.2348,-0.0375741,1.19986,-0.126855,5,0,-1.5,0,0,0.0123744,-0.00239232,-1.5713,-0.0705485,0.0113584,0,0,0,0,0
9020,0,0,0,0,0,1.19986,-0.126855,0.2348,-0.0375741,1.19986,-0.126855,5,0,-1.5,0,0,0.0124205,-0.00239978,-1.57131,-0.0705485,0.0113584,0,0,0,0,0
9035,0,0,0,0,0,1.19986,-0.126855,0.2348,-0.0375741,1.19986,-0.126855,5,0,-1.5,0,0,0.0124595,-0.00240264,-1.57131,-0.0705485,0.0113584,0,0,0,0,0
9056,0,0,0,0,0,1.19986,-0.126855,0.2348,-0.0375741,1.19986,-0.126855,5,0,-1.5,0,0,0.0124556,-0.00241665,-1.57132,-0.0705485,0.0113584,0,0,0,0,0
9071,0,0,0,0,0,1.19986,-0.126855,0.2348,-0.0375741,1.19986,-0.126855,5,0,-1.5,0,0,0.0124053,-0.00241502,-1.57131,-0.0705485,0.0113584,0,0,0,0,0
9086,0,0,0,0,0,1.19986,-0.126855,0.2348,-0.0375741,1.19986,-0.126855,5,0,-1.5,0,0,0.0123583,-0.00241141,-1.57132,-0.0705485,0.0113584,0,0,0,0,0
9102,0,0,0,0,0,1.19986,-0.126855,0.2348,-0.0375741,1.19986,-0.126855,5,0,-1.5,0,0,0.0123358,-0.00240506,-1.57133,-0.0705485,0.0113584,0,0,0,0,0
9123,0,0,0,0,0,1.23984,-0.13331,0.23549,-0.0383662,1.23984,-0.13331,5,0,-1.5,0,0,0.0123602,-0.00240608,-1.57133,-0.0707424,0.0115867,0,0,0,0,0
9139,0,0,0,0,0,1.23984,-0.13331,0.23549,-0.0383662,1.23984,-0.13331,5,0,-1.5,0,0,0.0123602,-0.00240608,-1.57133,-0.0707424,0.0115867,0,0,0,0,0
9154,0,0,0,0,0,1.23984,-0.13331,0.23549,-0.0383662,1.23984,-0.13331,5,0,-1.5,0,0,0.0124922,-0.00244185,-1.57135,-0.0707424,0.0115867,0,0,0,0,0
9175,0,0,0,0,0,1.23984,-0.13331,0.23549,-0.0383662,1.23984,-0.13331,5,0,-1.5,0,0,0.0124726,-0.00243477,-1.57136,-0.0707424,0.0115867,0,0,0,0,0
9191,0,0,0,0,0,1.23984,-0.13331,0.23549,-0.0383662,1.23984,-0.13331,5,0,-1.5,0,0,0.0124352,-0.00243439,-1.57136,-0.0707424,0.0115867,0,0,0,0,0
9207,0,0,0,0,0,1.23984,-0.13331,0.23549,-0.0383662,1.23984,-0.13331,5,0,-1.5,0,0,0.0123744,-0.00244375,-1.57136,-0.0707424,0.0115867,0,0,0,0,0
9223,0,0,0,0,0,1.23984,-0.13331,0.23549,-0.0383662,1.23984,-0.13331,5,0,-1.5,0,0,0.0123805,-0.00244443,-1.57136,-0.0707424,0.0115867,0,0,0,0,0
9244,0,0,0,0,0,1.23984,-0.13331,0.23549,-0.0383662,1.23984,-0.13331,5,0,-1.5,0,0,0.0124079,-0.00245914,-1.57136,-0.0707424,0.0115867,0,0,0,0,0
9260,0,0,0,0,0,1.23984,-0.13331,0.23549,-0.0383662,1.23984,-0.13331,5,0,-1.5,0,0,0.0124445,-0.00247085,-1.57138,-0.0707424,0.0115867,0,0,0,0,0
9275,0,0,0,0,0,1.27993,-0.139899,0.236165,-0.0391512,1.27993,-0.139899,5,0,-1.5,0,0,0.0124662,-0.00247359,-1.57139,-0.0709585,0.0118255,0,0,0,0,0
9291,0,0,0,0,0,1.27993,-0.139899,0.236165,-0.0391512,1.27993,-0.139899,5,0,-1.5,0,0,0.0124404,-0.0024836,-1.5714,-0.0709585,0.0118255,0,0,0,0,0
9312,0,0,0,0,0,1.27993,-0.139899,0.236165,-0.0391512,1.27993,-0.139899,5,0,-1.5,0,0,0.0124056,-0.00248364,-1.57141,-0.0709585,0.0118255,0,0,0,0,0
9328,0,0,0,0,0,1.27993,-0.139899,0.236165,-0.0391512,1.27993,-0.139899,5,0,-1.5,0,0,0.0123566,-0.00248277,-1.57141,-0.0709585,0.0118255,0,0,0,0,0
9344,0,0,0,0,0,1.27993,-0.139899,0.236165,-0.0391512,1.27993,-0.139899,5,0,-1.5,0,0,0.012338,-0.00248341,-1.57141,-0.0709585,0.0118255,0,0,0,0,0
9364,0,0,0,0,0,1.27993,-0.139899,0.236165,-0.0391512,1.27993,-0.139899,5,0,-1.5,0,0,0.0124097,-0.00250131,-1.57141,-0.0709585,0.0118255,0,0,0,0,0
9380,0,0,0,0,0,1.27993,-0.139899,0.236165,-0.0391512,1.27993,-0.139899,5,0,-1.5,0,0,0.01243,-0.00250944,-1.57142,-0.0709585,0.0118255,0,0,0,0,0
9395,0,0,0,0,0,1.27993,-0.139899,0.236165,-0.0391512,1.27993,-0.139899,5,0,-1.5,0,0,0.0124455,-0.00250709,-1.57142,-0.0709585,0.0118255,0,0,0,0,0
9411,0,0,0,0,0,1.32013,-0.146623,0.236765,-0.0399496,1.32013,-0.146623,5,0,-1.5,0,0,0.0124113,-0.00250332,-1.57144,-0.0711318,0.0120606,0,0,0,0,0
9432,0,0,0,0,0,1.32013,-0.146623,0.236765,-0.0399496,1.32013,-0.146623,5,0,-1.5,0,0,0.0123665,-0.00250716,-1.57145,-0.0711318,0.0120606,0,0,0,0,0
9444,0,0,0,0,0,1.32013,-0.146623,0.236765,-0.0399496,1.32013,-0.146623,5,0,-1.5,0,0,0.0123665,-0.00250716,-1.57145,-0.0711318,0.0120606,0,0,0,0,0
9458,0,0,0,0,0,1.32013,-0.146623,0.236765,-0.0399496,1.32013,-0.146623,5,0,-1.5,0,0,0.0123392,-0.00251005,-1.57145,-0.0711318,0.0120606,0,0,0,0,0
9478,0,0,0,0,0,1.32013,-0.146623,0.236765,-0.0399496,1.32013,-0.146623,5,0,-1.5,0,0,0.0123506,-0.0025126,-1.57145,-0.0711318,0.0120606,0,0,0,0,0
9494,0,0,0,0,0,1.32013,-0.146623,0.236765,-0.0399496,1.32013,-0.146623,5,0,-1.5,0,0,0.0123473,-0.00251572,-1.57146,-0.0711318,0.0120606,0,0,0,0,0
9510,0,0,0,0,0,1.32013,-0.146623,0.236765,-0.0399496,1.32013,-0.146623,5,0,-1.5,0,0,0.0123388,-0.00251076,-1.57145,-0.0711318,0.0120606,0,0,0,0,0
9526,0,0,0,0,0,1.32013,-0.146623,0.236765,-0.0399496,1.32013,-0.146623,5,0,-1.5,0,0,0.0123356,-0.00251707,-1.57147,-0.0711318,0.0120606,0,0,0,0,0
9547,0,0,0,0,0,1.36043,-0.153481,0.237223,-0.0407215,1.36043,-0.153481,5,0,-1.5,0,0,0.012332,-0.00254562,-1.57148,-0.0712363,0.0122831,0,0,0,0,0
9563,0,0,0,0,0,1.36043,-0.153481,0.237223,-0.0407215,1.36043,-0.153481,5,0,-1.5,0,0,0.0123467,-0.00254746,-1.57147,-0.0712363,0.0122831,0,0,0,0,0
9578,0,0,0,0,0,1.36043,-0.153481,0.237223,-0.0407215,1.36043,-0.153481,5,0,-1.5,0,0,0.0123515,-0.00254703,-1.57147,-0.0712363,0.0122831,0,0,0,0,0
9599,0,0,0,0,0,1.36043,-0.153481,0.237223,-0.0407215,1.36043,-0.153481,5,0,-1.5,0,0,0.0123267,-0.00255383,-1.57146,-0.0712363,0.0122831,0,0,0,0,0
9615,0,0,0,0,0,1.36043,-0.153481,0.237223,-0.0407215,1.36043,-0.153481,5,0,-1.5,0,0,0.0123197,-0.00257757,-1.57146,-0.0712363,0.0122831,0,0,0,0,0
9631,0,0,0,0,0,1.36043,-0.153481,0.237223,-0.0407215,1.36043,-0.153481,5,0,-1.5,0,0,0.0123323,-0.00258915,-1.57147,-0.0712363,0.0122831,0,0,0,0,0
9646,0,0,0,0,0,1.36043,-0.153481,0.237223,-0.0407215,1.36043,-0.153481,5,0,-1.5,0,0,0.0123323,-0.00258965,-1.57147,-0.0712363,0.0122831,0,0,0,0,0
9668,0,0,0,0,0,1.36043,-0.153481,0.237223,-0.0407215,1.36043,-0.153481,5,0,-1.5,0,0,0.0123171,-0.00259934,-1.57147,-0.0712363,0.0122831,0,0,0,0,0
9683,0,0,0,0,0,1.40079,-0.160471,0.237608,-0.041519,1.40079,-0.160471,5,0,-1.5,0,0,0.0123027,-0.00259626,-1.57147,-0.0713426,0.0125313,0,0,0,0,0
9699,0,0,0,0,0,1.40079,-0.160471,0.237608,-0.041519,1.40079,-0.160471,5,0,-1.5,0,0,0.0122893,-0.00260892,-1.57147,-0.0713426,0.0125313,0,0,0,0,0
9721,0,0,0,0,0,1.40079,-0.160471,0.237608,-0.041519,1.40079,-0.160471,5,0,-1.5,0,0,0.0122883,-0.00262595,-1.57145,-0.0713426,0.0125313,0,0,0,0,0
9737,0,0,0,0,0,1.40079,-0.160471,0.237608,-0.041519,1.40079,-0.160471,5,0,-1.5,0,0,0.0123055,-0.00264743,-1.57146,-0.0713426,0.0125313,0,0,0,0,0
9753,0,0,0,0,0,1.40079,-0.160471,0.237608,-0.041519,1.40079,-0.160471,5,0,-1.5,0,0,0.0123239,-0.00264983,-1.57145,-0.0713426,0.0125313,0,0,0,0,0
9768,0,0,0,0,0,1.40079,-0.160471,0.237608,-0.041519,1.40079,-0.160471,5,0,-1.5,0,0,0.0123295,-0.00264599,-1.57147,-0.0713426,0.0125313,0,0,0,0,0
9790,0,0,0,0,0,1.40079,-0.160471,0.237608,-0.041519,1.40079,-0.160471,5,0,-1.5,0,0,0.0122867,-0.0026491,-1.57146,-0.0713426,0.0125313,0,0,0,0,0
9805,0,0,0,0,0,1.40079,-0.160471,0.237608,-0.041519,1.40079,-0.160471,5,0,-1.5,0,0,0.0122739,-0.00264635,-1.57147,-0.0713426,0.0125313,0,0,0,0,0
9821,0,0,0,0,0,1.44121,-0.1676,0.237913,-0.0423571,1.44121,-0.1676,5,0,-1.5,0,0,0.012269,-0.00266771,-1.57149,-0.071419,0.0127838,0,0,0,0,0
9842,0,0,0,0,0,1.44121,-0.1676,0.237913,-0.0423571,1.44121,-0.1676,5,0,-1.5,0,0,0.012269,-0.00266771,-1.57149,-0.071419,0.0127838,0,0,0,0,0
9857,0,0,0,0,0,1.44121,-0.1676,0.237913,-0.0423571,1.44121,-0.1676,5,0,-1.5,0,0,0.0122746,-0.00268465,-1.5715,-0.071419,0.0127838,0,0,0,0,0
9873,0,0,0,0,0,1.44121,-0.1676,0.237913,-0.0423571,1.44121,-0.1676,5,0,-1.5,0,0,0.0122635,-0.00268607,-1.5715,-0.071419,0.0127838,0,0,0,0,0
9888,0,0,0,0,0,1.44121,-0.1676,0.237913,-0.0423571,1.44121,-0.1676,5,0,-1.5,0,0,0.0122543,-0.00268623,-1.5715,-0.071419,0.0127838,0,0,0,0,0
9910,0,0,0,0,0,1.44121,-0.1676,0.237913,-0.0423571,1.44121,-0.1676,5,0,-1.5,0,0,0.012235,-0.00269549,-1.57149,-0.071419,0.0127838,0,0,0,0,0
9925,0,0,0,0,0,1.44121,-0.1676,0.237913,-0.0423571,1.44121,-0.1676,5,0,-1.5,0,0,0.0122483,-0.00271259,-1.57148,-0.071419,0.0127838,0,0,0,0,0
9939,0,0,0,0,0,1.44121,-0.1676,0.237913,-0.0423571,1.44121,-0.1676,5,0,-1.5,0,0,0.0122483,-0.00271259,-1.57148,-0.071419,0.0127838,0,0,0,0,0
9954,0,0,0,0,0,1.44121,-0.1676,0.237913,-0.0423571,1.44121,-0.1676,5,0,-1.5,0,0,0.0122483,-0.00271259,-1.57148,-0.071419,0.0127838,0,0,0,0,0
9974,0,0,0,0,0,1.44121,-0.1676,0.237913,-0.0423571,1.44121,-0.1676,5,0,-1.5,0,0,0.012188,-0.00271965,-1.57149,-0.071419,0.0127838,0,0,0,0,0
9990,0,0,0,0,0,1.44121,-0.1676,0.237913,-0.0423571,1.44121,-0.1676,5,0,-1.5,0,0,0.0121943,-0.00271867,-1.5715,-0.071419,0.0127838,0,0,0,0,0
10005,0,0,0,0,0,1.44121,-0.1676,0.237913,-0.0423571,1.44121,-0.1676,5,0,-1.5,0,0,0.0121943,-0.00271867,-1.5715,-0.071419,0.0127838,0,0,0,0,0
10027,0,0,0,0,0,1.44121,-0.1676,0.237913,-0.0423571,1.44121,-0.1676,5,0,-1.5,0,0,0.0122063,-0.00272144,-1.57153,-0.071419,0.0127838,0,0,0,0,0
10042,0,0,0,0,0,1.44121,-0.1676,0.237913,-0.0423571,1.44121,-0.1676,5,0,-1.5,0,0,0.0122043,-0.00271555,-1.57152,-0.071419,0.0127838,0,0,0,0,0
10058,0,0,0,0,0,1.44121,-0.1676,0.237913,-0.0423571,1.44121,-0.1676,5,0,-1.5,0,0,0.0121876,-0.00271278,-1.57152,-0.071419,0.0127838,0,0,0,0,0
10073,0,0,0,0,0,1.44121,-0.1676,0.237913,-0.0423571,1.44121,-0.1676,5,0,-1.5,0,0,0.0121771,-0.0027126,-1.57152,-0.071419,0.0127838,0,0,0,0,0
10094,0,0,0,0,0,1.52216,-0.182293,0.238219,-0.0440561,1.52216,-0.182293,5,0,-1.5,0,0,0.0121563,-0.00272466,-1.57152,-0.0714814,0.013287,0,0,0,0,0
10110,0,0,0,0,0,1.52216,-0.182293,0.238219,-0.0440561,1.52216,-0.182293,5,0,-1.5,0,0,0.012164,-0.00272195,-1.57152,-0.0714814,0.013287,0,0,0,0,0
10125,0,0,0,0,0,1.52216,-0.182293,0.238219,-0.0440561,1.52216,-0.182293,5,0,-1.5,0,0,0.0121708,-0.00271341,-1.57153,-0.0714814,0.013287,0,0,0,0,0
10146,0,0,0,0,0,1.52216,-0.182293,0.238219,-0.0440561,1.52216,-0.182293,5,0,-1.5,0,0,0.0121822,-0.00272283,-1.57153,-0.0714814,0.013287,0,0,0,0,0
10162,0,0,0,0,0,1.52216,-0.182293,0.238219,-0.0440561,1.52216,-0.182293,5,0,-1.5,0,0,0.0121733,-0.00271817,-1.57154,-0.0714814,0.013287,0,0,0,0,0
10177,0,0,0,0,0,1.52216,-0.182293,0.238219,-0.0440561,1.52216,-0.182293,5,0,-1.5,0,0,0.0121733,-0.00271817,-1.57154,-0.0714814,0.013287,0,0,0,0,0
10193,0,0,0,0,0,1.52216,-0.182293,0.238219,-0.0440561,1.52216,-0.182293,5,0,-1.5,0,0,0.0121193,-0.00271659,-1.57156,-0.0714814,0.013287,0,0,0,0,0
10214,0,0,0,0,0,1.52216,-0.182293,0.238219,-0.0440561,1.52216,-0.182293,5,0,-1.5,0,0,0.0121276,-0.00272357,-1.57157,-0.0714814,0.013287,0,0,0,0,0
10231,0,0,0,0,0,1.56265,-0.189849,0.238236,-0.0448281,1.56265,-0.189849,5,0,-1.5,0,0,0.0121462,-0.00273513,-1.57157,-0.071482,0.0135085,0,0,0,0,0
10246,0,0,0,0,0,1.56265,-0.189849,0.238236,-0.0448281,1.56265,-0.189849,5,0,-1.5,0,0,0.0121803,-0.00274512,-1.57158,-0.071482,0.0135085,0,0,0,0,0
10267,0,0,0,0,0,1.56265,-0.189849,0.238236,-0.0448281,1.56265,-0.189849,5,0,-1.5,0,0,0.0121463,-0.00274292,-1.57158,-0.071482,0.0135085,0,0,0,0,0
10283,0,0,0,0,0,1.56265,-0.189849,0.238236,-0.0448281,1.56265,-0.189849,5,0,-1.5,0,0,0.0120964,-0.00274681,-1.57159,-0.071482,0.0135085,0,0,0,0,0
10299,0,0,0,0,0,1.56265,-0.189849,0.238236,-0.0448281,1.56265,-0.189849,5,0,-1.5,0,0,0.0120278,-0.00275515,-1.57159,-0.071482,0.0135085,0,0,0,0,0
10314,0,0,0,0,0,1.56265,-0.189849,0.238236,-0.0448281,1.56265,-0.189849,5,0,-1.5,0,0,0.0120412,-0.00275314,-1.57159,-0.071482,0.0135085,0,0,0,0,0
10335,0,0,0,0,0,1.56265,-0.189849,0.238236,-0.0448281,1.56265,-0.189849,5,0,-1.5,0,0,0.0120785,-0.00276977,-1.5716,-0.071482,0.0135085,0,0,0,0,0
10350,0,0,0,0,0,1.56265,-0.189849,0.238236,-0.0448281,1.56265,-0.189849,5,0,-1.5,0,0,0.0121091,-0.00278264,-1.5716,-0.071482,0.0135085,0,0,0,0,0
10366,0,0,0,0,0,1.56265,-0.189849,0.238236,-0.0448281,1.56265,-0.189849,5,0,-1.5,0,0,0.0121066,-0.00277743,-1.57161,-0.071482,0.0135085,0,0,0,0,0
10387,0,0,0,0,0,1.60314,-0.197535,0.238166,-0.045594,1.60314,-0.197535,5,0,-1.5,0,0,0.0120417,-0.00277468,-1.57159,-0.0714525,0.0137367,0,0,0,0,0
10402,0,0,0,0,0,1.60314,-0.197535,0.238166,-0.045594,1.60314,-0.197535,5,0,-1.5,0,0,0.0120417,-0.00277468,-1.57159,-0.0714525,0.0137367,0,0,0,0,0
10417,0,0,0,0,0,1.60314,-0.197535,0.238166,-0.045594,1.60314,-0.197535,5,0,-1.5,0,0,0.012009,-0.00277535,-1.57161,-0.0714525,0.0137367,0,0,0,0,0
10432,0,0,0,0,0,1.60314,-0.197535,0.238166,-0.045594,1.60314,-0.197535,5,0,-1.5,0,0,0.0120188,-0.00277766,-1.57161,-0.0714525,0.0137367,0,0,0,0,0
10452,0,0,0,0,0,1.60314,-0.197535,0.238166,-0.045594,1.60314,-0.197535,5,0,-1.5,0,0,0.0120483,-0.00279993,-1.57162,-0.0714525,0.0137367,0,0,0,0,0
10468,0,0,0,0,0,1.60314,-0.197535,0.238166,-0.045594,1.60314,-0.197535,5,0,-1.5,0,0,0.0120243,-0.00280181,-1.57161,-0.0714525,0.0137367,0,0,0,0,0
10483,0,0,0,0,0,1.60314,-0.197535,0.238166,-0.045594,1.60314,-0.197535,5,0,-1.5,0,0,0.0120048,-0.00279219,-1.57162,-0.0714525,0.0137367,0,0,0,0,0
10505,0,0,0,0,0,1.60314,-0.197535,0.238166,-0.045594,1.60314,-0.197535,5,0,-1.5,0,0,0.0120048,-0.00279219,-1.57162,-0.0714525,0.0137367,0,0,0,0,0
10520,0,0,0,0,0,1.64362,-0.20535,0.237989,-0.0463456,1.64362,-0.20535,5,0,-1.5,0,0,0.0119763,-0.00279619,-1.57163,-0.0713727,0.0139547,0,0,0,0,0
10536,0,0,0,0,0,1.64362,-0.20535,0.237989,-0.0463456,1.64362,-0.20535,5,0,-1.5,0,0,0.0119746,-0.00279264,-1.57163,-0.0713727,0.0139547,0,0,0,0,0
10552,0,0,0,0,0,1.64362,-0.20535,0.237989,-0.0463456,1.64362,-0.20535,5,0,-1.5,0,0,0.0119857,-0.00280089,-1.57163,-0.0713727,0.0139547,0,0,0,0,0
10573,0,0,0,0,0,1.64362,-0.20535,0.237989,-0.0463456,1.64362,-0.20535,5,0,-1.5,0,0,0.0119857,-0.00280089,-1.57163,-0.0713727,0.0139547,0,0,0,0,0
10589,0,0,0,0,0,1.64362,-0.20535,0.237989,-0.0463456,1.64362,-0.20535,5,0,-1.5,0,0,0.0119678,-0.00281389,-1.57165,-0.0713727,0.0139547,0,0,0,0,0
10605,0,0,0,0,0,1.64362,-0.20535,0.237989,-0.0463456,1.64362,-0.20535,5,0,-1.5,0,0,0.0119645,-0.00280766,-1.57166,-0.0713727,0.0139547,0,0,0,0,0
10625,0,0,0,0,0,1.64362,-0.20535,0.237989,-0.0463456,1.64362,-0.20535,5,0,-1.5,0,0,0.0119679,-0.00282827,-1.57166,-0.0713727,0.0139547,0,0,0,0,0
10641,0,0,0,0,0,1.64362,-0.20535,0.237989,-0.0463456,1.64362,-0.20535,5,0,-1.5,0,0,0.0119691,-0.00283246,-1.57166,-0.0713727,0.0139547,0,0,0,0,0
10657,0,0,0,0,0,1.68406,-0.213291,0.237737,-0.0470724,1.68406,-0.213291,5,0,-1.5,0,0,0.011984,-0.00283654,-1.57166,-0.071296,0.0141718,0,0,0,0,0
10672,0,0,0,0,0,1.68406,-0.213291,0.237737,-0.0470724,1.68406,-0.213291,5,0,-1.5,0,0,0.0120167,-0.00283606,-1.57167,-0.071296,0.0141718,0,0,0,0,0
10693,0,0,0,0,0,1.68406,-0.213291,0.237737,-0.0470724,1.68406,-0.213291,5,0,-1.5,0,0,0.0120123,-0.0028349,-1.57168,-0.071296,0.0141718,0,0,0,0,0
10709,0,0,0,0,0,1.68406,-0.213291,0.237737,-0.0470724,1.68406,-0.213291,5,0,-1.5,0,0,0.0119998,-0.00283095,-1.57168,-0.071296,0.0141718,0,0,0,0,0
10724,0,0,0,0,0,1.68406,-0.213291,0.237737,-0.0470724,1.68406,-0.213291,5,0,-1.5,0,0,0.0119736,-0.00283807,-1.57168,-0.071296,0.0141718,0,0,0,0,0
10746,0,0,0,0,0,1.68406,-0.213291,0.237737,-0.0470724,1.68406,-0.213291,5,0,-1.5,0,0,0.0119494,-0.00285079,-1.57168,-0.071296,0.0141718,0,0,0,0,0
10762,0,0,0,0,0,1.68406,-0.213291,0.237737,-0.0470724,1.68406,-0.213291,5,0,-1.5,0,0,0.0119708,-0.00285118,-1.57169,-0.071296,0.0141718,0,0,0,0,0
10778,0,0,0,0,0,1.68406,-0.213291,0.237737,-0.0470724,1.68406,-0.213291,5,0,-1.5,0,0,0.0119968,-0.00286315,-1.5717,-0.071296,0.0141718,0,0,0,0,0
10794,0,0,0,0,0,1.72445,-0.221355,0.237521,-0.0477956,1.72445,-0.221355,5,0,-1.5,0,0,0.0120148,-0.00286061,-1.5717,-0.071241,0.0143846,0,0,0,0,0
10815,0,0,0,0,0,1.72445,-0.221355,0.237521,-0.0477956,1.72445,-0.221355,5,0,-1.5,0,0,0.0120104,-0.00285807,-1.57171,-0.071241,0.0143846,0,0,0,0,0
10830,0,0,0,0,0,1.72445,-0.221355,0.237521,-0.0477956,1.72445,-0.221355,5,0,-1.5,0,0,0.0119959,-0.00285414,-1.57172,-0.071241,0.0143846,0,0,0,0,0
10846,0,0,0,0,0,1.72445,-0.221355,0.237521,-0.0477956,1.72445,-0.221355,5,0,-1.5,0,0,0.0119933,-0.0028621,-1.57173,-0.071241,0.0143846,0,0,0,0,0
10861,0,0,0,0,0,1.72445,-0.221355,0.237521,-0.0477956,1.72445,-0.221355,5,0,-1.5,0,0,0.0120135,-0.00286605,-1.57175,-0.071241,0.0143846,0,0,0,0,0
10876,0,0,0,0,0,1.72445,-0.221355,0.237521,-0.0477956,1.72445,-0.221355,5,0,-1.5,0,0,0.0120401,-0.00286951,-1.57175,-0.071241,0.0143846,0,0,0,0,0
10888,0,0,0,0,0,1.72445,-0.221355,0.237521,-0.0477956,1.72445,-0.221355,5,0,-1.5,0,0,0.0120403,-0.00286207,-1.57175,-0.071241,0.0143846,0,0,0,0,0
10903,0,0,0,0,0,1.72445,-0.221355,0.237521,-0.0477956,1.72445,-0.221355,5,0,-1.5,0,0,0.0120213,-0.00287893,-1.57176,-0.071241,0.0143846,0,0,0,0,0
10923,0,0,0,0,0,1.76482,-0.229541,0.237372,-0.0484992,1.76482,-0.229541,5,0,-1.5,0,0,0.0120169,-0.00287214,-1.57175,-0.0712043,0.0145853,0,0,0,0,0
10938,0,0,0,0,0,1.76482,-0.229541,0.237372,-0.0484992,1.76482,-0.229541,5,0,-1.5,0,0,0.0120169,-0.00287214,-1.57175,-0.0712043,0.0145853,0,0,0,0,0
10954,0,0,0,0,0,1.76482,-0.229541,0.237372,-0.0484992,1.76482,-0.229541,5,0,-1.5,0,0,0.0120109,-0.00289194,-1.57176,-0.0712043,0.0145853,0,0,0,0,0
10975,0,0,0,0,0,1.76482,-0.229541,0.237372,-0.0484992,1.76482,-0.229541,5,0,-1.5,0,0,0.0120492,-0.00289193,-1.57177,-0.0712043,0.0145853,0,0,0,0,0
10991,0,0,0,0,0,1.76482,-0.229541,0.237372,-0.0484992,1.76482,-0.229541,5,0,-1.5,0,0,0.0120505,-0.00289938,-1.57177,-0.0712043,0.0145853,0,0,0,0,0
11007,0,0,0,0,0,1.76482,-0.229541,0.237372,-0.0484992,1.76482,-0.229541,5,0,-1.5,0,0,0.012054,-0.00291091,-1.57178,-0.0712043,0.0145853,0,0,0,0,0
11024,0,0,0,0,0,1.76482,-0.229541,0.237372,-0.0484992,1.76482,-0.229541,5,0,-1.5,0,0,0.0120246,-0.00290954,-1.57178,-0.0712043,0.0145853,0,0,0,0,0
11045,0,0,0,0,0,1.76482,-0.229541,0.237372,-0.0484992,1.76482,-0.229541,5,0,-1.5,0,0,0.0120099,-0.00290403,-1.57179,-0.0712043,0.0145853,0,0,0,0,0
11061,0,0,0,0,0,1.80516,-0.237845,0.237247,-0.0491921,1.80516,-0.237845,5,0,-1.5,0,0,0.0119987,-0.00290955,-1.5718,-0.0711647,0.0147892,0,0,0,0,0
11077,0,0,0,0,0,1.80516,-0.237845,0.237247,-0.0491921,1.80516,-0.237845,5,0,-1.5,0,0,0.0120182,-0.00291261,-1.5718,-0.0711647,0.0147892,0,0,0,0,0
11098,0,0,0,0,0,1.80516,-0.237845,0.237247,-0.0491921,1.80516,-0.237845,5,0,-1.5,0,0,0.0120476,-0.00291482,-1.5718,-0.0711647,0.0147892,0,0,0,0,0
11113,0,0,0,0,0,1.80516,-0.237845,0.237247,-0.0491921,1.80516,-0.237845,5,0,-1.5,0,0,0.0120586,-0.00292133,-1.57181,-0.0711647,0.0147892,0,0,0,0,0
11129,0,0,0,0,0,1.80516,-0.237845,0.237247,-0.0491921,1.80516,-0.237845,5,0,-1.5,0,0,0.0120539,-0.00292295,-1.57181,-0.0711647,0.0147892,0,0,0,0,0
11145,0,0,0,0,0,1.80516,-0.237845,0.237247,-0.0491921,1.80516,-0.237845,5,0,-1.5,0,0,0.0120539,-0.00292295,-1.57181,-0.0711647,0.0147892,0,0,0,0,0
11166,0,0,0,0,0,1.80516,-0.237845,0.237247,-0.0491921,1.80516,-0.237845,5,0,-1.5,0,0,0.0119972,-0.00293049,-1.57181,-0.0711647,0.0147892,0,0,0,0,0
11182,0,0,0,0,0,1.80516,-0.237845,0.237247,-0.0491921,1.80516,-0.237845,5,0,-1.5,0,0,0.0119963,-0.00293385,-1.57182,-0.0711647,0.0147892,0,0,0,0,0
11198,0,0,0,0,0,1.80516,-0.237845,0.237247,-0.0491921,1.80516,-0.237845,5,0,-1.5,0,0,0.0119962,-0.00293695,-1.57183,-0.0711647,0.0147892,0,0,0,0,0
11219,0,0,0,0,0,1.80516,-0.237845,0.237247,-0.0491921,1.80516,-0.237845,5,0,-1.5,0,0,0.0120319,-0.00294651,-1.57184,-0.0711647,0.0147892,0,0,0,0,0
11235,0,0,0,0,0,1.80516,-0.237845,0.237247,-0.0491921,1.80516,-0.237845,5,0,-1.5,0,0,0.0120657,-0.00295275,-1.57183,-0.0711647,0.0147892,0,0,0,0,0
11251,0,0,0,0,0,1.80516,-0.237845,0.237247,-0.0491921,1.80516,-0.237845,5,0,-1.5,0,0,0.0120687,-0.0029554,-1.57185,-0.0711647,0.0147892,0,0,0,0,0
11267,0,0,0,0,0,1.80516,-0.237845,0.237247,-0.0491921,1.80516,-0.237845,5,0,-1.5,0,0,0.0120417,-0.00294705,-1.57185,-0.0711647,0.0147892,0,0,0,0,0
11288,0,0,0,0,0,1.80516,-0.237845,0.237247,-0.0491921,1.80516,-0.237845,5,0,-1.5,0,0,0.0120106,-0.00294997,-1.57185,-0.0711647,0.0147892,0,0,0,0,0
11303,0,0,0,0,0,1.80516,-0.237845,0.237247,-0.0491921,1.80516,-0.237845,5,0,-1.5,0,0,0.0120106,-0.00294997,-1.57185,-0.0711647,0.0147892,0,0,0,0,0
11319,0,0,0,0,0,1.80516,-0.237845,0.237247,-0.0491921,1.80516,-0.237845,5,0,-1.5,0,0,0.0120182,-0.00296779,-1.57185,-0.0711647,0.0147892,0,0,0,0,0
11341,0,0,0,0,0,1.88578,-0.254802,0.237041,-0.0505531,1.88578,-0.254802,5,0,-1.5,0,0,0.0120871,-0.00298083,-1.57185,-0.0711214,0.0151945,0,0,0,0,0
11355,0,0,0,0,0,1.88578,-0.254802,0.237041,-0.0505531,1.88578,-0.254802,5,0,-1.5,0,0,0.012088,-0.00299117,-1.57185,-0.0711214,0.0151945,0,0,0,0,0
11370,0,0,0,0,0,1.88578,-0.254802,0.237041,-0.0505531,1.88578,-0.254802,5,0,-1.5,0,0,0.012088,-0.00299117,-1.57185,-0.0711214,0.0151945,0,0,0,0,0
11385,0,0,0,0,0,1.88578,-0.254802,0.237041,-0.0505531,1.88578,-0.254802,5,0,-1.5,0,0,0.012028,-0.00299072,-1.57184,-0.0711214,0.0151945,0,0,0,0,0
11405,0,0,0,0,0,1.88578,-0.254802,0.237041,-0.0505531,1.88578,-0.254802,5,0,-1.5,0,0,0.0119862,-0.00299858,-1.57186,-0.0711214,0.0151945,0,0,0,0,0
11421,0,0,0,0,0,1.88578,-0.254802,0.237041,-0.0505531,1.88578,-0.254802,5,0,-1.5,0,0,0.012025,-0.00299508,-1.57186,-0.0711214,0.0151945,0,0,0,0,0
11437,0,0,0,0,0,1.88578,-0.254802,0.237041,-0.0505531,1.88578,-0.254802,5,0,-1.5,0,0,0.0120561,-0.00300499,-1.57187,-0.0711214,0.0151945,0,0,0,0,0
11458,0,0,0,0,0,1.88578,-0.254802,0.237041,-0.0505531,1.88578,-0.254802,5,0,-1.5,0,0,0.01208,-0.00299878,-1.57187,-0.0711214,0.0151945,0,0,0,0,0
11473,0,0,0,0,0,1.92607,-0.263455,0.236979,-0.0512431,1.92607,-0.263455,5,0,-1.5,0,0,0.01208,-0.00299878,-1.57187,-0.0711108,0.0154017,0,0,0,0,0
11489,0,0,0,0,0,1.92607,-0.263455,0.236979,-0.0512431,1.92607,-0.263455,5,0,-1.5,0,0,0.012022,-0.00299992,-1.57187,-0.0711108,0.0154017,0,0,0,0,0
11504,0,0,0,0,0,1.92607,-0.263455,0.236979,-0.0512431,1.92607,-0.263455,5,0,-1.5,0,0,0.0120219,-0.00300026,-1.57188,-0.0711108,0.0154017,0,0,0,0,0
11525,0,0,0,0,0,1.92607,-0.263455,0.236979,-0.0512431,1.92607,-0.263455,5,0,-1.5,0,0,0.0120522,-0.00300718,-1.57188,-0.0711108,0.0154017,0,0,0,0,0
11541,0,0,0,0,0,1.92607,-0.263455,0.236979,-0.0512431,1.92607,-0.263455,5,0,-1.5,0,0,0.0120522,-0.00300718,-1.57188,-0.0711108,0.0154017,0,0,0,0,0
11556,0,0,0,0,0,1.92607,-0.263455,0.236979,-0.0512431,1.92607,-0.263455,5,0,-1.5,0,0,0.0120487,-0.00302907,-1.57188,-0.0711108,0.0154017,0,0,0,0,0
11577,0,0,0,0,0,1.92607,-0.263455,0.236979,-0.0512431,1.92607,-0.263455,5,0,-1.5,0,0,0.0120121,-0.00303193,-1.57189,-0.0711108,0.0154017,0,0,0,0,0
11593,0,0,0,0,0,1.92607,-0.263455,0.236979,-0.0512431,1.92607,-0.263455,5,0,-1.5,0,0,0.0119951,-0.00304255,-1.57189,-0.0711108,0.0154017,0,0,0,0,0
11609,0,0,0,0,0,1.96636,-0.272224,0.236913,-0.0519151,1.96636,-0.272224,5,0,-1.5,0,0,0.0120145,-0.00305011,-1.57189,-0.071075,0.0156014,0,0,0,0,0
11624,0,0,0,0,0,1.96636,-0.272224,0.236913,-0.0519151,1.96636,-0.272224,5,0,-1.5,0,0,0.0120411,-0.00304867,-1.5719,-0.071075,0.0156014,0,0,0,0,0
11645,0,0,0,0,0,1.96636,-0.272224,0.236913,-0.0519151,1.96636,-0.272224,5,0,-1.5,0,0,0.0120411,-0.00304867,-1.5719,-0.071075,0.0156014,0,0,0,0,0
11661,0,0,0,0,0,1.96636,-0.272224,0.236913,-0.0519151,1.96636,-0.272224,5,0,-1.5,0,0,0.0120456,-0.00305628,-1.57191,-0.071075,0.0156014,0,0,0,0,0
11677,0,0,0,0,0,1.96636,-0.272224,0.236913,-0.0519151,1.96636,-0.272224,5,0,-1.5,0,0,0.0119979,-0.00306288,-1.57191,-0.071075,0.0156014,0,0,0,0,0
11698,0,0,0,0,0,1.96636,-0.272224,0.236913,-0.0519151,1.96636,-0.272224,5,0,-1.5,0,0,0.0119713,-0.00305128,-1.57194,-0.071075,0.0156014,0,0,0,0,0
11714,0,0,0,0,0,1.96636,-0.272224,0.236913,-0.0519151,1.96636,-0.272224,5,0,-1.5,0,0,0.0120039,-0.00306585,-1.57194,-0.071075,0.0156014,0,0,0,0,0
11729,0,0,0,0,0,1.96636,-0.272224,0.236913,-0.0519151,1.96636,-0.272224,5,0,-1.5,0,0,0.0120735,-0.00307898,-1.57194,-0.071075,0.0156014,0,0,0,0,0
11745,0,0,0,0,0,1.96636,-0.272224,0.236913,-0.0519151,1.96636,-0.272224,5,0,-1.5,0,0,0.0121008,-0.00308426,-1.57194,-0.071075,0.0156014,0,0,0,0,0
11767,0,0,0,0,0,2.00664,-0.281107,0.236836,-0.052597,2.00664,-0.281107,5,0,-1.5,0,0,0.0120341,-0.0030728,-1.57193,-0.0710757,0.0158029,0,0,0,0,0
11782,0,0,0,0,0,2.00664,-0.281107,0.236836,-0.052597,2.00664,-0.281107,5,0,-1.5,0,0,0.0119839,-0.00307179,-1.57192,-0.0710757,0.0158029,0,0,0,0,0
11798,0,0,0,0,0,2.00664,-0.281107,0.236836,-0.052597,2.00664,-0.281107,5,0,-1.5,0,0,0.0119666,-0.00307587,-1.57193,-0.0710757,0.0158029,0,0,0,0,0
11820,0,0,0,0,0,2.00664,-0.281107,0.236836,-0.052597,2.00664,-0.281107,5,0,-1.5,0,0,0.0120466,-0.00308842,-1.57193,-0.0710757,0.0158029,0,0,0,0,0
11835,0,0,0,0,0,2.00664,-0.281107,0.236836,-0.052597,2.00664,-0.281107,5,0,-1.5,0,0,0.0120716,-0.00309357,-1.57193,-0.0710757,0.0158029,0,0,0,0,0
11849,0,0,0,0,0,2.00664,-0.281107,0.236836,-0.052597,2.00664,-0.281107,5,0,-1.5,0,0,0.0120586,-0.00309231,-1.57193,-0.0710757,0.0158029,0,0,0,0,0
11865,0,0,0,0,0,2.00664,-0.281107,0.236836,-0.052597,2.00664,-0.281107,5,0,-1.5,0,0,0.0120244,-0.0030887,-1.57194,-0.0710757,0.0158029,0,0,0,0,0
11885,0,0,0,0,0,2.04693,-0.290106,0.236769,-0.0532645,2.04693,-0.290106,5,0,-1.5,0,0,0.0120001,-0.00309784,-1.57194,-0.0710315,0.0159977,0,0,0,0,0
11901,0,0,0,0,0,2.04693,-0.290106,0.236769,-0.0532645,2.04693,-0.290106,5,0,-1.5,0,0,0.0120256,-0.00311602,-1.57195,-0.0710315,0.0159977,0,0,0,0,0
11916,0,0,0,0,0,2.04693,-0.290106,0.236769,-0.0532645,2.04693,-0.290106,5,0,-1.5,0,0,0.0120894,-0.00312581,-1.57196,-0.0710315,0.0159977,0,0,0,0,0
11938,0,0,0,0,0,2.04693,-0.290106,0.236769,-0.0532645,2.04693,-0.290106,5,0,-1.5,0,0,0.0120894,-0.00312581,-1.57196,-0.0710315,0.0159977,0,0,0,0,0
11953,0,0,0,0,0,2.04693,-0.290106,0.236769,-0.0532645,2.04693,-0.290106,5,0,-1.5,0,0,0.0119896,-0.00310157,-1.57196,-0.0710315,0.0159977,0,0,0,0,0
11969,0,0,0,0,0,2.04693,-0.290106,0.236769,-0.0532645,2.04693,-0.290106,5,0,-1.5,0,0,0.011952,-0.00309382,-1.57197,-0.0710315,0.0159977,0,0,0,0,0
11985,0,0,0,0,0,2.04693,-0.290106,0.236769,-0.0532645,2.04693,-0.290106,5,0,-1.5,0,0,0.0119735,-0.00309377,-1.57198,-0.0710315,0.0159977,0,0,0,0,0
12006,0,0,0,0,0,2.04693,-0.290106,0.236769,-0.0532645,2.04693,-0.290106,5,0,-1.5,0,0,0.0120572,-0.00310809,-1.57197,-0.0710315,0.0159977,0,0,0,0,0
12021,0,0,0,0,0,2.04693,-0.290106,0.236769,-0.0532645,2.04693,-0.290106,5,0,-1.5,0,0,0.0121124,-0.00312081,-1.57198,-0.0710315,0.0159977,0,0,0,0,0
12037,0,0,0,0,0,2.04693,-0.290106,0.236769,-0.0532645,2.04693,-0.290106,5,0,-1.5,0,0,0.0121124,-0.00312081,-1.57198,-0.0710315,0.0159977,0,0,0,0,0
12058,0,0,0,0,0,2.04693,-0.290106,0.236769,-0.0532645,2.04693,-0.290106,5,0,-1.5,0,0,0.011998,-0.00311112,-1.57199,-0.0710315,0.0159977,0,0,0,0,0
12074,0,0,0,0,0,2.04693,-0.290106,0.236769,-0.0532645,2.04693,-0.290106,5,0,-1.5,0,0,0.0119641,-0.00310806,-1.57199,-0.0710315,0.0159977,0,0,0,0,0
12090,0,0,0,0,0,2.04693,-0.290106,0.236769,-0.0532645,2.04693,-0.290106,5,0,-1.5,0,0,0.0119602,-0.00311965,-1.572,-0.0710315,0.0159977,0,0,0,0,0
12105,0,0,0,0,0,2.04693,-0.290106,0.236769,-0.0532645,2.04693,-0.290106,5,0,-1.5,0,0,0.0119602,-0.00311965,-1.572,-0.0710315,0.0159977,0,0,0,0,0
12126,0,0,0,0,0,2.04693,-0.290106,0.236769,-0.0532645,2.04693,-0.290106,5,0,-1.5,0,0,0.0120755,-0.00313256,-1.57201,-0.0710315,0.0159977,0,0,0,0,0
12142,0,0,0,0,0,2.04693,-0.290106,0.236769,-0.0532645,2.04693,-0.290106,5,0,-1.5,0,0,0.0120676,-0.00313843,-1.57201,-0.0710315,0.0159977,0,0,0,0,0
12157,0,0,0,0,0,2.04693,-0.290106,0.236769,-0.0532645,2.04693,-0.290106,5,0,-1.5,0,0,0.0120194,-0.00315087,-1.57201,-0.0710315,0.0159977,0,0,0,0,0
12179,0,0,0,0,0,2.04693,-0.290106,0.236769,-0.0532645,2.04693,-0.290106,5,0,-1.5,0,0,0.0119839,-0.00314708,-1.57202,-0.0710315,0.0159977,0,0,0,0,0
12194,0,0,0,0,0,2.04693,-0.290106,0.236769,-0.0532645,2.04693,-0.290106,5,0,-1.5,0,0,0.0119866,-0.00315623,-1.57202,-0.0710315,0.0159977,0,0,0,0,0
12210,0,0,0,0,0,2.04693,-0.290106,0.236769,-0.0532645,2.04693,-0.290106,5,0,-1.5,0,0,0.0120144,-0.00316236,-1.57202,-0.0710315,0.0159977,0,0,0,0,0
12226,0,0,0,0,0,2.04693,-0.290106,0.236769,-0.0532645,2.04693,-0.290106,5,0,-1.5,0,0,0.0120251,-0.0031751,-1.572,-0.0710315,0.0159977,0,0,0,0,0
12246,0,0,0,0,0,2.04693,-0.290106,0.236769,-0.0532645,2.04693,-0.290106,5,0,-1.5,0,0,0.0120378,-0.00318581,-1.57201,-0.0710315,0.0159977,0,0,0,0,0
12263,0,0,0,0,0,2.04693,-0.290106,0.236769,-0.0532645,2.04693,-0.290106,5,0,-1.5,0,0,0.0120506,-0.00320137,-1.57203,-0.0710315,0.0159977,0,0,0,0,0
12279,0,0,0,0,0,2.04693,-0.290106,0.236769,-0.0532645,2.04693,-0.290106,5,0,-1.5,0,0,0.012038,-0.00320537,-1.57204,-0.0710315,0.0159977,0,0,0,0,0
12301,0,0,0,0,0,2.04693,-0.290106,0.236769,-0.0532645,2.04693,-0.290106,5,0,-1.5,0,0,0.0120127,-0.0032132,-1.57204,-0.0710315,0.0159977,0,0,0,0,0
12315,0,0,0,0,0,2.16759,-0.317762,0.236566,-0.0551925,2.16759,-0.317762,5,0,-1.5,0,0,0.0119751,-0.00320573,-1.57205,-0.0709784,0.0165738,0,0,0,0,0
12330,0,0,0,0,0,2.16759,-0.317762,0.236566,-0.0551925,2.16759,-0.317762,5,0,-1.5,0,0,0.0119275,-0.00319752,-1.57206,-0.0709784,0.0165738,0,0,0,0,0
12345,0,0,0,0,0,2.16759,-0.317762,0.236566,-0.0551925,2.16759,-0.317762,5,0,-1.5,0,0,0.0119425,-0.00319885,-1.57206,-0.0709784,0.0165738,0,0,0,0,0
12366,0,0,0,0,0,2.16759,-0.317762,0.236566,-0.0551925,2.16759,-0.317762,5,0,-1.5,0,0,0.0119766,-0.00320827,-1.57206,-0.0709784,0.0165738,0,0,0,0,0
12381,0,0,0,0,0,2.16759,-0.317762,0.236566,-0.0551925,2.16759,-0.317762,5,0,-1.5,0,0,0.0120004,-0.00320453,-1.57207,-0.0709784,0.0165738,0,0,0,0,0
12397,0,0,0,0,0,2.16759,-0.317762,0.236566,-0.0551925,2.16759,-0.317762,5,0,-1.5,0,0,0.012004,-0.00320617,-1.57208,-0.0709784,0.0165738,0,0,0,0,0
12418,0,0,0,0,0,2.16759,-0.317762,0.236566,-0.0551925,2.16759,-0.317762,5,0,-1.5,0,0,0.0119624,-0.00320831,-1.57207,-0.0709784,0.0165738,0,0,0,0,0
12434,0,0,0,0,0,2.16759,-0.317762,0.236566,-0.0551925,2.16759,-0.317762,5,0,-1.5,0,0,0.0119517,-0.00321425,-1.57207,-0.0709784,0.0165738,0,0,0,0,0
12450,0,0,0,0,0,2.20779,-0.327201,0.236422,-0.0558457,2.20779,-0.327201,5,0,-1.5,0,0,0.011934,-0.00321593,-1.57209,-0.0709221,0.0167595,0,0,0,0,0
12466,0,0,0,0,0,2.20779,-0.327201,0.236422,-0.0558457,2.20779,-0.327201,5,0,-1.5,0,0,0.0119251,-0.0032108,-1.57209,-0.0709221,0.0167595,0,0,0,0,0
12487,0,0,0,0,0,2.20779,-0.327201,0.236422,-0.0558457,2.20779,-0.327201,5,0,-1.5,0,0,0.0119603,-0.00321842,-1.57211,-0.0709221,0.0167595,0,0,0,0,0
12503,0,0,0,0,0,2.20779,-0.327201,0.236422,-0.0558457,2.20779,-0.327201,5,0,-1.5,0,0,0.0119911,-0.00322419,-1.57212,-0.0709221,0.0167595,0,0,0,0,0
12518,0,0,0,0,0,2.20779,-0.327201,0.236422,-0.0558457,2.20779,-0.327201,5,0,-1.5,0,0,0.0120109,-0.00322551,-1.57211,-0.0709221,0.0167595,0,0,0,0,0
12539,0,0,0,0,0,2.20779,-0.327201,0.236422,-0.0558457,2.20779,-0.327201,5,0,-1.5,0,0,0.0120109,-0.00322551,-1.57211,-0.0709221,0.0167595,0,0,0,0,0
12555,0,0,0,0,0,2.20779,-0.327201,0.236422,-0.0558457,2.20779,-0.327201,5,0,-1.5,0,0,0.0118717,-0.00319712,-1.57211,-0.0709221,0.0167595,0,0,0,0,0
12571,0,0,0,0,0,2.20779,-0.327201,0.236422,-0.0558457,2.20779,-0.327201,5,0,-1.5,0,0,0.0118401,-0.00318786,-1.57211,-0.0709221,0.0167595,0,0,0,0,0
12587,0,0,0,0,0,2.24799,-0.336748,0.236246,-0.0564591,2.24799,-0.336748,5,0,-1.5,0,0,0.0118389,-0.00319097,-1.57212,-0.0708449,0.0169264,0,0,0,0,0
12608,0,0,0,0,0,2.24799,-0.336748,0.236246,-0.0564591,2.24799,-0.336748,5,0,-1.5,0,0,0.0118923,-0.00320494,-1.57211,-0.0708449,0.0169264,0,0,0,0,0
12624,0,0,0,0,0,2.24799,-0.336748,0.236246,-0.0564591,2.24799,-0.336748,5,0,-1.5,0,0,0.0119355,-0.00321469,-1.57213,-0.0708449,0.0169264,0,0,0,0,0
12639,0,0,0,0,0,2.24799,-0.336748,0.236246,-0.0564591,2.24799,-0.336748,5,0,-1.5,0,0,0.0119464,-0.00322764,-1.57213,-0.0708449,0.0169264,0,0,0,0,0
12660,0,0,0,0,0,2.24799,-0.336748,0.236246,-0.0564591,2.24799,-0.336748,5,0,-1.5,0,0,0.0119162,-0.00322727,-1.57212,-0.0708449,0.0169264,0,0,0,0,0
12676,0,0,0,0,0,2.24799,-0.336748,0.236246,-0.0564591,2.24799,-0.336748,5,0,-1.5,0,0,0.0119162,-0.00322727,-1.57212,-0.0708449,0.0169264,0,0,0,0,0
12692,0,0,0,0,0,2.24799,-0.336748,0.236246,-0.0564591,2.24799,-0.336748,5,0,-1.5,0,0,0.0117978,-0.00323422,-1.57213,-0.0708449,0.0169264,0,0,0,0,0
12707,0,0,0,0,0,2.24799,-0.336748,0.236246,-0.0564591,2.24799,-0.336748,5,0,-1.5,0,0,0.0117995,-0.00323445,-1.57213,-0.0708449,0.0169264,0,0,0,0,0
12728,0,0,0,0,0,2.28812,-0.346394,0.235963,-0.057029,2.28812,-0.346394,5,0,-1.5,0,0,0.0118301,-0.0032517,-1.57213,-0.0707538,0.0171006,0,0,0,0,0
12743,0,0,0,0,0,2.28812,-0.346394,0.235963,-0.057029,2.28812,-0.346394,5,0,-1.5,0,0,0.011885,-0.00324868,-1.57213,-0.0707538,0.0171006,0,0,0,0,0
12758,0,0,0,0,0,2.28812,-0.346394,0.235963,-0.057029,2.28812,-0.346394,5,0,-1.5,0,0,0.0118665,-0.00324696,-1.57213,-0.0707538,0.0171006,0,0,0,0,0
12781,0,0,0,0,0,2.28812,-0.346394,0.235963,-0.057029,2.28812,-0.346394,5,0,-1.5,0,0,0.0118152,-0.00323975,-1.57212,-0.0707538,0.0171006,0,0,0,0,0
12796,0,0,0,0,0,2.28812,-0.346394,0.235963,-0.057029,2.28812,-0.346394,5,0,-1.5,0,0,0.011761,-0.00323883,-1.57212,-0.0707538,0.0171006,0,0,0,0,0
12810,0,0,0,0,0,2.28812,-0.346394,0.235963,-0.057029,2.28812,-0.346394,5,0,-1.5,0,0,0.0117514,-0.00323384,-1.57214,-0.0707538,0.0171006,0,0,0,0,0
12825,0,0,0,0,0,2.28812,-0.346394,0.235963,-0.057029,2.28812,-0.346394,5,0,-1.5,0,0,0.0117648,-0.00323491,-1.57213,-0.0707538,0.0171006,0,0,0,0,0
12845,0,0,0,0,0,2.28812,-0.346394,0.235963,-0.057029,2.28812,-0.346394,5,0,-1.5,0,0,0.0118297,-0.00326995,-1.57215,-0.0707538,0.0171006,0,0,0,0,0
12861,0,0,0,0,0,2.32821,-0.356138,0.235623,-0.0575952,2.32821,-0.356138,5,0,-1.5,0,0,0.0118439,-0.00327179,-1.57214,-0.0706638,0.0172713,0,0,0,0,0
12877,0,0,0,0,0,2.32821,-0.356138,0.235623,-0.0575952,2.32821,-0.356138,5,0,-1.5,0,0,0.0118398,-0.00328058,-1.57215,-0.0706638,0.0172713,0,0,0,0,0
12898,0,0,0,0,0,2.32821,-0.356138,0.235623,-0.0575952,2.32821,-0.356138,5,0,-1.5,0,0,0.0117687,-0.00326435,-1.57215,-0.0706638,0.0172713,0,0,0,0,0
12914,0,0,0,0,0,2.32821,-0.356138,0.235623,-0.0575952,2.32821,-0.356138,5,0,-1.5,0,0,0.0117379,-0.00325918,-1.57215,-0.0706638,0.0172713,0,0,0,0,0
12929,0,0,0,0,0,2.32821,-0.356138,0.235623,-0.0575952,2.32821,-0.356138,5,0,-1.5,0,0,0.0117255,-0.00325808,-1.57216,-0.0706638,0.0172713,0,0,0,0,0
12945,0,0,0,0,0,2.32821,-0.356138,0.235623,-0.0575952,2.32821,-0.356138,5,0,-1.5,0,0,0.0117347,-0.00326894,-1.57216,-0.0706638,0.0172713,0,0,0,0,0
12966,0,0,0,0,0,2.32821,-0.356138,0.235623,-0.0575952,2.32821,-0.356138,5,0,-1.5,0,0,0.0118067,-0.00327402,-1.57217,-0.0706638,0.0172713,0,0,0,0,0
12982,0,0,0,0,0,2.32821,-0.356138,0.235623,-0.0575952,2.32821,-0.356138,5,0,-1.5,0,0,0.0118067,-0.00327402,-1.57217,-0.0706638,0.0172713,0,0,0,0,0
12998,0,0,0,0,0,2.36824,-0.365977,0.235253,-0.0581541,2.36824,-0.365977,5,0,-1.5,0,0,0.0117796,-0.00326621,-1.57216,-0.0705527,0.0174304,0,0,0,0,0
13019,0,0,0,0,0,2.36824,-0.365977,0.235253,-0.0581541,2.36824,-0.365977,5,0,-1.5,0,0,0.0117471,-0.00326758,-1.57217,-0.0705527,0.0174304,0,0,0,0,0
13035,0,0,0,0,0,2.36824,-0.365977,0.235253,-0.0581541,2.36824,-0.365977,5,0,-1.5,0,0,0.0117108,-0.00327694,-1.57218,-0.0705527,0.0174304,0,0,0,0,0
13050,0,0,0,0,0,2.36824,-0.365977,0.235253,-0.0581541,2.36824,-0.365977,5,0,-1.5,0,0,0.0117297,-0.00328685,-1.57219,-0.0705527,0.0174304,0,0,0,0,0
13066,0,0,0,0,0,2.36824,-0.365977,0.235253,-0.0581541,2.36824,-0.365977,5,0,-1.5,0,0,0.0117297,-0.00328685,-1.57219,-0.0705527,0.0174304,0,0,0,0,0
13087,0,0,0,0,0,2.36824,-0.365977,0.235253,-0.0581541,2.36824,-0.365977,5,0,-1.5,0,0,0.0117297,-0.00328685,-1.57219,-0.0705527,0.0174304,0,0,0,0,0
13103,0,0,0,0,0,2.36824,-0.365977,0.235253,-0.0581541,2.36824,-0.365977,5,0,-1.5,0,0,0.0117346,-0.00327303,-1.57222,-0.0705527,0.0174304,0,0,0,0,0
13119,0,0,0,0,0,2.36824,-0.365977,0.235253,-0.0581541,2.36824,-0.365977,5,0,-1.5,0,0,0.0117346,-0.00327303,-1.57222,-0.0705527,0.0174304,0,0,0,0,0
13140,0,0,0,0,0,2.4082,-0.375909,0.234853,-0.0586861,2.4082,-0.375909,5,0,-1.5,0,0,0.0117237,-0.00328462,-1.57221,-0.0704192,0.0175803,0,0,0,0,0
13156,0,0,0,0,0,2.4082,-0.375909,0.234853,-0.0586861,2.4082,-0.375909,5,0,-1.5,0,0,0.0117118,-0.00328721,-1.5722,-0.0704192,0.0175803,0,0,0,0,0
13172,0,0,0,0,0,2.4082,-0.375909,0.234853,-0.0586861,2.4082,-0.375909,5,0,-1.5,0,0,0.0117118,-0.00328721,-1.5722,-0.0704192,0.0175803,0,0,0,0,0
13187,0,0,0,0,0,2.4082,-0.375909,0.234853,-0.0586861,2.4082,-0.375909,5,0,-1.5,0,0,0.011707,-0.00328414,-1.5722,-0.0704192,0.0175803,0,0,0,0,0
13208,0,0,0,0,0,2.4082,-0.375909,0.234853,-0.0586861,2.4082,-0.375909,5,0,-1.5,0,0,0.0117361,-0.00328837,-1.5722,-0.0704192,0.0175803,0,0,0,0,0
13224,0,0,0,0,0,2.4082,-0.375909,0.234853,-0.0586861,2.4082,-0.375909,5,0,-1.5,0,0,0.0117681,-0.00329664,-1.57221,-0.0704192,0.0175803,0,0,0,0,0
13239,0,0,0,0,0,2.4082,-0.375909,0.234853,-0.0586861,2.4082,-0.375909,5,0,-1.5,0,0,0.0117681,-0.00329664,-1.57221,-0.0704192,0.0175803,0,0,0,0,0
13260,0,0,0,0,0,2.4082,-0.375909,0.234853,-0.0586861,2.4082,-0.375909,5,0,-1.5,0,0,0.0117557,-0.00328655,-1.57221,-0.0704192,0.0175803,0,0,0,0,0
13276,0,0,0,0,0,2.44809,-0.385929,0.234474,-0.0591866,2.44809,-0.385929,5,0,-1.5,0,0,0.0117167,-0.00329751,-1.57221,-0.0703169,0.0177288,0,0,0,0,0
13291,0,0,0,0,0,2.44809,-0.385929,0.234474,-0.0591866,2.44809,-0.385929,5,0,-1.5,0,0,0.0117022,-0.00330064,-1.57221,-0.0703169,0.0177288,0,0,0,0,0
13305,0,0,0,0,0,2.44809,-0.385929,0.234474,-0.0591866,2.44809,-0.385929,5,0,-1.5,0,0,0.0116978,-0.00331244,-1.57223,-0.0703169,0.0177288,0,0,0,0,0
13325,0,0,0,0,0,2.44809,-0.385929,0.234474,-0.0591866,2.44809,-0.385929,5,0,-1.5,0,0,0.0117757,-0.00332996,-1.57224,-0.0703169,0.0177288,0,0,0,0,0
13341,0,0,0,0,0,2.44809,-0.385929,0.234474,-0.0591866,2.44809,-0.385929,5,0,-1.5,0,0,0.0118022,-0.0033286,-1.57223,-0.0703169,0.0177288,0,0,0,0,0
13356,0,0,0,0,0,2.44809,-0.385929,0.234474,-0.0591866,2.44809,-0.385929,5,0,-1.5,0,0,0.0117786,-0.00332595,-1.57224,-0.0703169,0.0177288,0,0,0,0,0
13377,0,0,0,0,0,2.44809,-0.385929,0.234474,-0.0591866,2.44809,-0.385929,5,0,-1.5,0,0,0.0117359,-0.00332911,-1.57224,-0.0703169,0.0177288,0,0,0,0,0
13393,0,0,0,0,0,2.44809,-0.385929,0.234474,-0.0591866,2.44809,-0.385929,5,0,-1.5,0,0,0.0117036,-0.00332325,-1.57223,-0.0703169,0.0177288,0,0,0,0,0
13409,0,0,0,0,0,2.48791,-0.396033,0.234125,-0.0596928,2.48791,-0.396033,5,0,-1.5,0,0,0.0117009,-0.00332444,-1.57223,-0.0702037,0.0178825,0,0,0,0,0
13424,0,0,0,0,0,2.48791,-0.396033,0.234125,-0.0596928,2.48791,-0.396033,5,0,-1.5,0,0,0.0117547,-0.00332912,-1.57223,-0.0702037,0.0178825,0,0,0,0,0
13445,0,0,0,0,0,2.48791,-0.396033,0.234125,-0.0596928,2.48791,-0.396033,5,0,-1.5,0,0,0.0117979,-0.00333851,-1.57223,-0.0702037,0.0178825,0,0,0,0,0
13461,0,0,0,0,0,2.48791,-0.396033,0.234125,-0.0596928,2.48791,-0.396033,5,0,-1.5,0,0,0.011815,-0.00332932,-1.57224,-0.0702037,0.0178825,0,0,0,0,0
13476,0,0,0,0,0,2.48791,-0.396033,0.234125,-0.0596928,2.48791,-0.396033,5,0,-1.5,0,0,0.0117535,-0.00333153,-1.57224,-0.0702037,0.0178825,0,0,0,0,0
13498,0,0,0,0,0,2.48791,-0.396033,0.234125,-0.0596928,2.48791,-0.396033,5,0,-1.5,0,0,0.01173,-0.00333745,-1.57224,-0.0702037,0.0178825,0,0,0,0,0
13513,0,0,0,0,0,2.48791,-0.396033,0.234125,-0.0596928,2.48791,-0.396033,5,0,-1.5,0,0,0.011739,-0.00333753,-1.57224,-0.0702037,0.0178825,0,0,0,0,0
13529,0,0,0,0,0,2.48791,-0.396033,0.234125,-0.0596928,2.48791,-0.396033,5,0,-1.5,0,0,0.0117533,-0.00334615,-1.57225,-0.0702037,0.0178825,0,0,0,0,0
13544,0,0,0,0,0,2.5277,-0.406224,0.23384,-0.0601875,2.5277,-0.406224,5,0,-1.5,0,0,0.0117628,-0.00334952,-1.57224,-0.0701378,0.01803,0,0,0,0,0
13565,0,0,0,0,0,2.5277,-0.406224,0.23384,-0.0601875,2.5277,-0.406224,5,0,-1.5,0,0,0.0117536,-0.0033495,-1.57222,-0.0701378,0.01803,0,0,0,0,0
13581,0,0,0,0,0,2.5277,-0.406224,0.23384,-0.0601875,2.5277,-0.406224,5,0,-1.5,0,0,0.0117694,-0.00335611,-1.57222,-0.0701378,0.01803,0,0,0,0,0
13597,0,0,0,0,0,2.5277,-0.406224,0.23384,-0.0601875,2.5277,-0.406224,5,0,-1.5,0,0,0.0117729,-0.00336493,-1.57223,-0.0701378,0.01803,0,0,0,0,0
13612,0,0,0,0,0,2.5277,-0.406224,0.23384,-0.0601875,2.5277,-0.406224,5,0,-1.5,0,0,0.0117861,-0.00337272,-1.57222,-0.0701378,0.01803,0,0,0,0,0
13628,0,0,0,0,0,2.5277,-0.406224,0.23384,-0.0601875,2.5277,-0.406224,5,0,-1.5,0,0,0.0117827,-0.0033744,-1.57223,-0.0701378,0.01803,0,0,0,0,0
13644,0,0,0,0,0,2.5277,-0.406224,0.23384,-0.0601875,2.5277,-0.406224,5,0,-1.5,0,0,0.0117586,-0.0033938,-1.57224,-0.0701378,0.01803,0,0,0,0,0
13659,0,0,0,0,0,2.5277,-0.406224,0.23384,-0.0601875,2.5277,-0.406224,5,0,-1.5,0,0,0.0117321,-0.00340024,-1.57223,-0.0701378,0.01803,0,0,0,0,0
13675,0,0,0,0,0,2.5277,-0.406224,0.23384,-0.0601875,2.5277,-0.406224,5,0,-1.5,0,0,0.0117239,-0.0034119,-1.57223,-0.0701378,0.01803,0,0,0,0,0
13690,0,0,0,0,0,2.56742,-0.416498,0.233586,-0.0607025,2.56742,-0.416498,5,0,-1.5,0,0,0.0117418,-0.00341716,-1.57224,-0.0700555,0.0181942,0,0,0,0,0
13706,0,0,0,0,0,2.56742,-0.416498,0.233586,-0.0607025,2.56742,-0.416498,5,0,-1.5,0,0,0.0117783,-0.00342923,-1.57224,-0.0700555,0.0181942,0,0,0,0,0
13721,0,0,0,0,0,2.56742,-0.416498,0.233586,-0.0607025,2.56742,-0.416498,5,0,-1.5,0,0,0.0118145,-0.00343717,-1.57225,-0.0700555,0.0181942,0,0,0,0,0
13737,0,0,0,0,0,2.56742,-0.416498,0.233586,-0.0607025,2.56742,-0.416498,5,0,-1.5,0,0,0.0118145,-0.00343717,-1.57225,-0.0700555,0.0181942,0,0,0,0,0
13752,0,0,0,0,0,2.56742,-0.416498,0.233586,-0.0607025,2.56742,-0.416498,5,0,-1.5,0,0,0.0117548,-0.00343864,-1.57226,-0.0700555,0.0181942,0,0,0,0,0
13768,0,0,0,0,0,2.56742,-0.416498,0.233586,-0.0607025,2.56742,-0.416498,5,0,-1.5,0,0,0.0117307,-0.00343962,-1.57227,-0.0700555,0.0181942,0,0,0,0,0
13783,0,0,0,0,0,2.56742,-0.416498,0.233586,-0.0607025,2.56742,-0.416498,5,0,-1.5,0,0,0.0117099,-0.00344776,-1.57228,-0.0700555,0.0181942,0,0,0,0,0
13799,0,0,0,0,0,2.56742,-0.416498,0.233586,-0.0607025,2.56742,-0.416498,5,0,-1.5,0,0,0.0117147,-0.00345986,-1.57227,-0.0700555,0.0181942,0,0,0,0,0
13814,0,0,0,0,0,2.56742,-0.416498,0.233586,-0.0607025,2.56742,-0.416498,5,0,-1.5,0,0,0.0117256,-0.00346521,-1.57227,-0.0700555,0.0181942,0,0,0,0,0
13830,0,0,0,0,0,2.60712,-0.426867,0.233343,-0.0612836,2.60712,-0.426867,5,0,-1.5,0,0,0.0117393,-0.00345612,-1.57227,-0.0699864,0.0183725,0,0,0,0,0
13846,0,0,0,0,0,2.60712,-0.426867,0.233343,-0.0612836,2.60712,-0.426867,5,0,-1.5,0,0,0.0117688,-0.00345779,-1.57227,-0.0699864,0.0183725,0,0,0,0,0
13862,0,0,0,0,0,2.60712,-0.426867,0.233343,-0.0612836,2.60712,-0.426867,5,0,-1.5,0,0,0.0117793,-0.00346856,-1.57227,-0.0699864,0.0183725,0,0,0,0,0
13877,0,0,0,0,0,2.60712,-0.426867,0.233343,-0.0612836,2.60712,-0.426867,5,0,-1.5,0,0,0.0117568,-0.00348029,-1.57227,-0.0699864,0.0183725,0,0,0,0,0
13893,0,0,0,0,0,2.60712,-0.426867,0.233343,-0.0612836,2.60712,-0.426867,5,0,-1.5,0,0,0.0117284,-0.00347609,-1.57228,-0.0699864,0.0183725,0,0,0,0,0
13909,0,0,0,0,0,2.60712,-0.426867,0.233343,-0.0612836,2.60712,-0.426867,5,0,-1.5,0,0,0.011697,-0.00347204,-1.57228,-0.0699864,0.0183725,0,0,0,0,0
13925,0,0,0,0,0,2.60712,-0.426867,0.233343,-0.0612836,2.60712,-0.426867,5,0,-1.5,0,0,0.0116841,-0.0034695,-1.57228,-0.0699864,0.0183725,0,0,0,0,0
13940,0,0,0,0,0,2.60712,-0.426867,0.233343,-0.0612836,2.60712,-0.426867,5,0,-1.5,0,0,0.0117017,-0.00348232,-1.5723,-0.0699864,0.0183725,0,0,0,0,0
13956,0,0,0,0,0,2.60712,-0.426867,0.233343,-0.0612836,2.60712,-0.426867,5,0,-1.5,0,0,0.0117402,-0.00348754,-1.5723,-0.0699864,0.0183725,0,0,0,0,0
13972,0,0,0,0,0,2.60712,-0.426867,0.233343,-0.0612836,2.60712,-0.426867,5,0,-1.5,0,0,0.0117402,-0.00348754,-1.5723,-0.0699864,0.0183725,0,0,0,0,0
13987,0,0,0,0,0,2.60712,-0.426867,0.233343,-0.0612836,2.60712,-0.426867,5,0,-1.5,0,0,0.0117273,-0.00350405,-1.57232,-0.0699864,0.0183725,0,0,0,0,0
