timestamp,A_x,A_y,A_z,P,Q,R,Phi,Theta,Psi,poseX,poseY,poseZ,state_X,state_Y,state_Z,state_VzB,state_Bx,state_By,state_Bz,p1_x,p1_y,p2_x,p2_y,p3_x,p3_y,p4_x,p4_y,roll,pitch,yaw,alt,targetHeading,highLevelState,lowLevelState,gateNumber,filtered_x,filtered_y
10,0,0,0,0,0,0,0,0,0,0,0,0,0,0,0,0,0,0,0,0,0,0,0,0,0,0,0,0,-0.261799,0.00779127,-1.5,3.94113e+12,0,0,3,0,0
20,0,0,0,0,0,0,0,0,0,0,0,0,0,0,0,0,0,0,0,0,0,0,0,0,0,0,0,0,-0.261799,0.00754468,-1.5,3.94113e+12,0,0,3,0,0
30,-3.34121e-12,6.02534e-38,-1.61093e-06,-3.40794e-12,6.02486e-38,-3.96878e-12,-1.13703e-13,0,0,0,0,0,0,0,0,0,0,0,0,0,0,0,0,0,0,0,0,0,-0.261799,0.00176761,-1.5,3.94113e+12,0,0,3,0,0
40,-3.34121e-12,6.02534e-38,-1.61093e-06,-3.40794e-12,6.02486e-38,0,-1.13703e-13,0,0,0,0,0,0,0,0,0,0,0,0,0,0,0,0,0,0,0,0,0,-0.261799,0.00171863,-1.5,3.94113e+12,0,0,3,0,0
50,-3.34121e-12,6.02534e-38,-1.61093e-06,-3.40794e-12,6.02486e-38,-3.96878e-12,-1.13704e-13,0,0,0,0,0,0,0,0,0,0,0,0,0,0,0,0,0,0,0,0,0,-0.261799,0.00146509,-1.5,3.94113e+12,0,0,3,0,0
60,-3.34121e-12,6.02534e-38,-1.61093e-06,-3.40794e-12,6.02486e-38,0,-1.13704e-13,0,0,0,0,0,0,0,0,0,0,0,0,0,0,0,0,0,0,0,0,0,-0.261799,0.00140431,-1.5,3.94113e+12,0,0,3,0,0
70,-3.34121e-12,6.02534e-38,-1.61093e-06,-3.40794e-12,6.02486e-38,-3.96878e-12,-1.13705e-13,0,0,0,0,0,0,0,0,0,0,0,0,0,0,0,0,0,0,0,0,0,-0.261799,0.00117783,-1.5,3.94113e+12,0,0,3,0,0
80,-3.34121e-12,6.02534e-38,-1.61093e-06,-3.40794e-12,6.02486e-38,0,-1.13705e-13,0,0,0,0,0,0,0,0,0,0,0,0,0,0,0,0,0,0,0,0,0,-0.261799,0.00112896,-1.5,3.94113e+12,0,0,3,0,0
90,-3.34121e-12,6.02534e-38,-1.61093e-06,-3.40794e-12,6.02486e-38,-3.96878e-12,-1.13706e-13,0,0,0,0,0,0,0,0,0,0,0,0,0,0,0,0,0,0,0,0,0,-0.261799,0.00108212,-1.5,3.94113e+12,0,0,3,0,0
100,-3.34121e-12,6.02534e-38,-1.61093e-06,-3.40794e-12,6.02486e-38,0,-1.13706e-13,0,0,0,0,0,0,0,0,0,0,0,0,0,0,0,0,0,0,0,0,0,-0.261799,0.000909435,-1.5,3.94113e+12,0,0,3,0,0
110,-3.34121e-12,6.02534e-38,-1.61093e-06,-3.40794e-12,6.02486e-38,-3.96878e-12,-1.13707e-13,0,0,0,0,0,0,0,0,0,0,0,0,0,0,0,0,0,0,0,0,0,-0.261799,0.000871702,-1.5,3.94113e+12,0,0,3,0,0
120,-3.34121e-12,6.02534e-38,-1.61093e-06,-3.40794e-12,6.02486e-38,0,-1.13708e-13,0,0,0,0,0,0,0,0,0,0,0,0,0,0,0,0,0,0,0,0,0,-0.261799,0.000730878,-1.5,3.94113e+12,0,0,3,0,0
130,-3.34121e-12,6.02534e-38,-1.61093e-06,-3.40794e-12,6.02486e-38,-3.96878e-12,-1.13708e-13,0,0,0,0,0,0,0,0,0,0,0,0,0,0,0,0,0,0,0,0,0,-0.261799,0.000699115,-1.5,3.94113e+12,0,0,3,0,0
140,-3.34121e-12,6.02534e-38,-1.61093e-06,-3.40794e-12,6.02486e-38,0,-1.13709e-13,0,0,0,0,0,0,0,0,0,0,0,0,0,0,0,0,0,0,0,0,0,-0.261799,0.000670108,-1.5,3.94113e+12,0,0,3,0,0
150,-3.34121e-12,6.02534e-38,-1.61093e-06,-3.40794e-12,6.02486e-38,-3.96878e-12,-1.13709e-13,0,0,0,0,0,0,0,0,0,0,0,0,0,0,0,0,0,0,0,0,0,-0.261799,0.000561852,-1.5,3.94113e+12,0,0,3,0,0
160,-3.34121e-12,6.02534e-38,-1.61093e-06,-3.40794e-12,6.02486e-38,0,-1.1371e-13,0,0,0,0,0,0,0,0,0,0,0,0,0,0,0,0,0,0,0,0,0,-0.261799,0.00053854,-1.5,3.94113e+12,0,0,3,0,0
170,-3.34123e-12,6.01641e-38,6.01973e-38,-3.40794e-12,6.02486e-38,-3.96878e-12,-1.1371e-13,0,0,0,0,0,0,0,0,0,0,0,0,0,0,0,0,0,0,0,0,0,-0.261799,0.000515159,-1.5,3.94113e+12,0,0,3,0,0
180,-3.34121e-12,6.02534e-38,-1.61093e-06,-3.40794e-12,6.02486e-38,0,-1.13711e-13,0,0,0,0,0,0,0,0,0,0,0,0,0,0,0,0,0,0,0,0,0,-0.261799,0.000430056,-1.5,3.94113e+12,0,0,3,0,0
190,-3.34121e-12,6.02534e-38,-1.61093e-06,-3.40794e-12,6.02486e-38,-3.96878e-12,-1.13711e-13,0,0,0,0,0,0,0,0,0,0,0,0,0,0,0,0,0,0,0,0,0,-0.261799,0.00041223,-1.5,3.94113e+12,0,0,3,0,0
200,-3.34121e-12,6.02534e-38,-1.61093e-06,-3.40794e-12,6.02486e-38,0,-1.13712e-13,0,0,0,0,0,0,0,0,0,0,0,0,0,0,0,0,0,0,0,0,0,-0.261799,0.000395126,-1.5,3.94113e+12,0,0,3,0,0
210,-3.34121e-12,6.02534e-38,-1.61093e-06,-3.40794e-12,6.02486e-38,-3.96878e-12,-1.13712e-13,0,0,0,0,0,0,0,0,0,0,0,0,0,0,0,0,0,0,0,0,0,-0.261799,0.000332071,-1.5,3.94113e+12,0,0,3,0,0
220,-3.34121e-12,6.02534e-38,-1.61093e-06,-3.40794e-12,6.02486e-38,0,-1.13713e-13,0,0,0,0,0,0,0,0,0,0,0,0,0,0,0,0,0,0,0,0,0,-0.261799,0.000317639,-1.5,3.94113e+12,0,0,3,0,0
230,-3.34121e-12,6.02534e-38,-1.61093e-06,-3.40794e-12,6.02486e-38,-3.96878e-12,-1.13714e-13,0,0,0,0,0,0,0,0,0,0,0,0,0,0,0,0,0,0,0,0,0,-0.261799,0.00030446,-1.5,3.94113e+12,0,0,3,0,0
240,-3.34121e-12,6.02534e-38,-1.61093e-06,-3.40794e-12,6.02486e-38,0,-1.13714e-13,0,0,0,0,0,0,0,0,0,0,0,0,0,0,0,0,0,0,0,0,0,-0.261799,0.000293036,-1.5,3.94113e+12,0,0,3,0,0
250,-3.34121e-12,6.02534e-38,-1.61093e-06,-3.40794e-12,6.02486e-38,-3.96878e-12,-1.13715e-13,0,0,0,0,0,0,0,0,0,0,0,0,0,0,0,0,0,0,0,0,0,-0.261799,0.000281465,-1.5,3.94113e+12,0,0,3,0,0
260,-3.34121e-12,6.02534e-38,-1.61093e-06,-3.40794e-12,6.02486e-38,0,-1.13715e-13,0,0,0,0,0,0,0,0,0,0,0,0,0,0,0,0,0,0,0,0,0,-0.261799,0.000273111,-1.5,3.94113e+12,0,0,3,0,0
270,-3.34121e-12,6.02534e-38,-1.61093e-06,-3.40794e-12,6.02486e-38,-3.96878e-12,-1.13716e-13,0,0,0,0,0,0,0,0,0,0,0,0,0,0,0,0,0,0,0,0,0,-0.261799,0.000228989,-1.5,3.94113e+12,0,0,3,0,0
280,-3.34121e-12,6.02534e-38,-1.61093e-06,-3.40794e-12,6.02486e-38,0,-1.13716e-13,0,0,0,0,0,0,0,0,0,0,0,0,0,0,0,0,0,0,0,0,0,-0.261799,0.000219939,-1.5,3.94113e+12,0,0,3,0,0
290,-3.34121e-12,6.02534e-38,-1.61093e-06,-3.40794e-12,6.02486e-38,-3.96878e-12,-1.13717e-13,0,0,0,0,0,0,0,0,0,0,0,0,0,0,0,0,0,0,0,0,0,-0.261799,0.000209958,-1.5,3.94113e+12,0,0,3,0,0
300,-3.34121e-12,6.02534e-38,-1.61093e-06,-3.40794e-12,6.02486e-38,0,-1.13717e-13,0,0,0,0,0,0,0,0,0,0,0,0,0,0,0,0,0,0,0,0,0,-0.261799,0.000176511,-1.5,3.94113e+12,0,0,3,0,0
310,-3.34121e-12,6.02534e-38,-1.61093e-06,-3.40794e-12,6.02486e-38,-3.96878e-12,-1.13718e-13,0,0,0,0,0,0,0,0,0,0,0,0,0,0,0,0,0,0,0,0,0,-0.261799,0.000161913,-1.5,3.94113e+12,0,0,3,0,0
320,-3.34121e-12,6.02534e-38,-1.61093e-06,-3.40794e-12,6.02486e-38,0,-1.13718e-13,0,0,0,0,0,0,0,0,0,0,0,0,0,0,0,0,0,0,0,0,0,-0.261799,0.000152327,-1.5,3.94113e+12,0,0,3,0,0
330,-3.34121e-12,6.02534e-38,-1.61093e-06,-3.40794e-12,6.02486e-38,-3.96878e-12,-1.13719e-13,0,0,0,0,0,0,0,0,0,0,0,0,0,0,0,0,0,0,0,0,0,-0.261799,0.000145707,-1.5,3.94113e+12,0,0,3,0,0
340,-3.34121e-12,6.02534e-38,-1.61093e-06,-3.40794e-12,6.02486e-38,0,-1.13719e-13,0,0,0,0,0,0,0,0,0,0,0,0,0,0,0,0,0,0,0,0,0,-0.261799,0.000139662,-1.5,3.94113e+12,0,0,3,0,0
350,-3.34121e-12,6.02534e-38,-1.61093e-06,-3.40794e-12,6.02486e-38,-3.96878e-12,-1.1372e-13,0,0,0,0,0,0,0,0,0,0,0,0,0,0,0,0,0,0,0,0,0,-0.261799,0.000117099,-1.5,3.94113e+12,0,0,3,0,0
360,-3.34121e-12,6.02534e-38,-1.61093e-06,-3.40794e-12,6.02486e-38,0,-1.13721e-13,0,0,0,0,0,0,0,0,0,0,0,0,0,0,0,0,0,0,0,0,0,-0.261799,0.000112246,-1.5,3.94113e+12,0,0,3,0,0
370,-3.34121e-12,6.02534e-38,-1.61093e-06,-3.40794e-12,6.02486e-38,-3.96878e-12,-1.13721e-13,0,0,0,0,0,0,0,0,0,0,0,0,0,0,0,0,0,0,0,0,0,-0.261799,0.000107372,-1.5,3.94113e+12,0,0,3,0,0
380,-3.34121e-12,6.02534e-38,-1.61093e-06,-3.40794e-12,6.02486e-38,0,-1.13722e-13,0,0,0,0,0,0,0,0,0,0,0,0,0,0,0,0,0,0,0,0,0,-0.261799,9.0449e-05,-1.5,3.94113e+12,0,0,3,0,0
390,-3.34121e-12,6.02534e-38,-1.61093e-06,-3.40794e-12,6.02486e-38,-3.96878e-12,-1.13722e-13,0,0,0,0,0,0,0,0,0,0,0,0,0,0,0,0,0,0,0,0,0,-0.261799,8.63401e-05,-1.5,3.94113e+12,0,0,3,0,0
400,-3.34121e-12,6.02534e-38,-1.61093e-06,-3.40794e-12,6.02486e-38,0,-1.13723e-13,0,0,0,0,0,0,0,0,0,0,0,0,0,0,0,0,0,0,0,0,0,-0.261799,8.29308e-05,-1.5,3.94113e+12,0,0,3,0,0
410,-3.34121e-12,6.02534e-38,-1.61093e-06,-3.40794e-12,6.02486e-38,-3.96878e-12,-1.13723e-13,0,0,0,0,0,0,0,0,0,0,0,0,0,0,0,0,0,0,0,0,0,-0.261799,6.96965e-05,-1.5,3.94113e+12,0,0,3,0,0
420,-3.34121e-12,6.02534e-38,-1.61093e-06,-3.40794e-12,6.02486e-38,0,-1.13724e-13,0,0,0,0,0,0,0,0,0,0,0,0,0,0,0,0,0,0,0,0,0,-0.261799,6.69419e-05,-1.5,3.94113e+12,0,0,3,0,0
430,-3.34121e-12,6.02534e-38,-1.61093e-06,-3.40794e-12,6.02486e-38,-3.96878e-12,-1.13724e-13,0,0,0,0,0,0,0,0,0,0,0,0,0,0,0,0,0,0,0,0,0,-0.261799,6.3901e-05,-1.5,3.94113e+12,0,0,3,0,0
440,-3.34121e-12,6.02534e-38,-1.61093e-06,-3.40794e-12,6.02486e-38,0,-1.13725e-13,0,0,0,0,0,0,0,0,0,0,0,0,0,0,0,0,0,0,0,0,0,-0.261799,5.37212e-05,-1.5,3.94113e+12,0,0,3,0,0
450,-3.34121e-12,6.02534e-38,-1.61093e-06,-3.40794e-12,6.02486e-38,-3.96878e-12,-1.13725e-13,0,0,0,0,0,0,0,0,0,0,0,0,0,0,0,0,0,0,0,0,0,-0.261799,5.13865e-05,-1.5,3.94113e+12,0,0,3,0,0
460,-3.34121e-12,6.02534e-38,-1.61093e-06,-3.40794e-12,6.02486e-38,0,-1.13726e-13,0,0,0,0,0,0,0,0,0,0,0,0,0,0,0,0,0,0,0,0,0,-0.261799,4.92544e-05,-1.5,3.94113e+12,0,0,3,0,0
470,-3.34121e-12,6.02534e-38,-1.61093e-06,-3.40794e-12,6.02486e-38,-3.96878e-12,-1.13727e-13,0,0,0,0,0,0,0,0,0,0,0,0,0,0,0,0,0,0,0,0,0,-0.261799,4.12144e-05,-1.5,3.94113e+12,0,0,3,0,0
480,-3.34121e-12,6.02534e-38,-1.61093e-06,-3.40794e-12,6.02486e-38,0,-1.13727e-13,0,0,0,0,0,0,0,0,0,0,0,0,0,0,0,0,0,0,0,0,0,-0.261799,3.98289e-05,-1.5,3.94113e+12,0,0,3,0,0
490,-3.34121e-12,6.02534e-38,-1.61093e-06,-3.40794e-12,6.02486e-38,-3.96878e-12,-1.13728e-13,0,0,0,0,0,0,0,0,0,0,0,0,0,0,0,0,0,0,0,0,0,-0.261799,3.85691e-05,-1.5,3.94113e+12,0,0,3,0,0
500,-3.34121e-12,6.02534e-38,-1.61093e-06,-3.40794e-12,6.02486e-38,0,-1.13728e-13,0,0,0,0,0,0,0,0,0,0,0,0,0,0,0,0,0,0,0,0,0,-0.261799,3.25006e-05,-1.5,3.94113e+12,0,0,3,0,0
510,-3.34121e-12,6.02534e-38,-1.61093e-06,-3.40794e-12,6.02486e-38,-3.96878e-12,-1.13729e-13,0,0,0,0,0,0,0,0,0,0,0,0,0,0,0,0,0,0,0,0,0,-0.261799,3.12161e-05,-1.5,3.94113e+12,0,0,3,0,0
520,-3.34121e-12,6.02534e-38,-1.61093e-06,-3.40794e-12,6.02486e-38,0,-1.13729e-13,0,0,0,0,0,0,0,0,0,0,0,0,0,0,0,0,0,0,0,0,0,-0.261799,2.99209e-05,-1.5,3.94113e+12,0,0,3,0,0
530,-3.34121e-12,6.02534e-38,-1.61093e-06,-3.40794e-12,6.02486e-38,-3.96878e-12,-1.1373e-13,0,0,0,0,0,0,0,0,0,0,0,0,0,0,0,0,0,0,0,0,0,-0.261799,2.82084e-05,-1.5,3.94113e+12,0,0,3,0,0
540,-3.34121e-12,6.02534e-38,-1.61093e-06,-3.40794e-12,6.02486e-38,0,-1.1373e-13,0,0,0,0,0,0,0,0,0,0,0,0,0,0,0,0,0,0,0,0,0,-0.261799,2.7038e-05,-1.5,3.94113e+12,0,0,3,0,0
550,-3.34121e-12,6.02534e-38,-1.61093e-06,-3.40794e-12,6.02486e-38,-3.96878e-12,-1.13731e-13,0,0,0,0,0,0,0,0,0,0,0,0,0,0,0,0,0,0,0,0,0,-0.261799,2.58641e-05,-1.5,3.94113e+12,0,0,3,0,0
560,-3.34121e-12,6.02534e-38,-1.61093e-06,-3.40794e-12,6.02486e-38,0,-1.13731e-13,0,0,0,0,0,0,0,0,0,0,0,0,0,0,0,0,0,0,0,0,0,-0.261799,2.35183e-05,-1.5,3.94113e+12,0,0,3,0,0
570,-3.34121e-12,6.02534e-38,-1.61093e-06,-3.40794e-12,6.02486e-38,-3.96878e-12,-1.13732e-13,0,0,0,0,0,0,0,0,0,0,0,0,0,0,0,0,0,0,0,0,0,-0.261799,1.42283e-05,-1.5,3.94113e+12,0,0,3,0,0
580,-3.34121e-12,6.02534e-38,-1.61093e-06,-3.40794e-12,6.02486e-38,0,-1.13732e-13,0,0,0,0,0,0,0,0,0,0,0,0,0,0,0,0,0,0,0,0,0,-0.261799,1.19017e-05,-1.5,3.94113e+12,0,0,3,0,0
590,-3.34121e-12,6.02534e-38,-1.61093e-06,-3.40794e-12,6.02486e-38,-3.96878e-12,-1.13733e-13,0,0,0,0,0,0,0,0,0,0,0,0,0,0,0,0,0,0,0,0,0,-0.261799,1.03069e-05,-1.5,3.94113e+12,0,0,3,0,0
600,-3.34121e-12,6.02534e-38,-1.61093e-06,-3.40794e-12,6.02486e-38,0,-1.13734e-13,0,0,0,0,0,0,0,0,0,0,0,0,0,0,0,0,0,0,0,0,0,-0.261799,8.82439e-06,-1.5,3.94113e+12,0,0,3,0,0
610,-3.34121e-12,6.02534e-38,-1.61093e-06,-3.40794e-12,6.02486e-38,-3.96878e-12,-1.13734e-13,0,0,0,0,0,0,0,0,0,0,0,0,0,0,0,0,0,0,0,0,0,-0.261799,7.38144e-06,-1.5,3.94113e+12,0,0,3,0,0
620,-3.34121e-12,6.02534e-38,-1.61093e-06,-3.40794e-12,6.02486e-38,0,-1.13735e-13,0,0,0,0,0,0,0,0,0,0,0,0,0,0,0,0,0,0,0,0,0,-0.261799,5.44803e-06,-1.5,3.94113e+12,0,0,3,0,0
630,-3.34121e-12,6.02534e-38,-1.61093e-06,-3.40794e-12,6.02486e-38,-3.96878e-12,-1.13735e-13,0,0,0,0,0,0,0,0,0,0,0,0,0,0,0,0,0,0,0,0,0,-0.261799,4.69784e-06,-1.5,3.94113e+12,0,0,3,0,0
640,-3.34121e-12,6.02534e-38,-1.61093e-06,-3.40794e-12,6.02486e-38,0,-1.13736e-13,0,0,0,0,0,0,0,0,0,0,0,0,0,0,0,0,0,0,0,0,0,-0.261799,4.04173e-06,-1.5,3.94113e+12,0,0,3,0,0
650,-3.34121e-12,6.02534e-38,-1.61093e-06,-3.40794e-12,6.02486e-38,-3.96878e-12,-1.13736e-13,0,0,0,0,0,0,0,0,0,0,0,0,0,0,0,0,0,0,0,0,0,-0.261799,2.97513e-06,-1.5,3.94113e+12,0,0,3,0,0
660,-3.34121e-12,6.02534e-38,-1.61093e-06,-3.40794e-12,6.02486e-38,0,-1.13737e-13,0,0,0,0,0,0,0,0,0,0,0,0,0,0,0,0,0,0,0,0,0,-0.261799,2.56546e-06,-1.5,3.94113e+12,0,0,3,0,0
670,-3.34121e-12,6.02534e-38,-1.61093e-06,-3.40794e-12,6.02486e-38,-3.96878e-12,-1.13737e-13,0,0,0,0,0,0,0,0,0,0,0,0,0,0,0,0,0,0,0,0,0,-0.261799,2.21665e-06,-1.5,3.94113e+12,0,0,3,0,0
680,-3.34121e-12,6.02534e-38,-1.61093e-06,-3.40794e-12,6.02486e-38,0,-1.13738e-13,0,0,0,0,0,0,0,0,0,0,0,0,0,0,0,0,0,0,0,0,0,-0.261799,1.86727e-06,-1.5,3.94113e+12,0,0,3,0,0
690,-3.34121e-12,6.02534e-38,-1.61093e-06,-3.40794e-12,6.02486e-38,-3.96878e-12,-1.13738e-13,0,0,0,0,0,0,0,0,0,0,0,0,0,0,0,0,0,0,0,0,0,-0.261799,1.79715e-06,-1.5,3.94113e+12,0,0,3,0,0
700,-3.34121e-12,6.02534e-38,-1.61093e-06,-3.40794e-12,6.02486e-38,0,-1.13739e-13,0,0,0,0,0,0,0,0,0,0,0,0,0,0,0,0,0,0,0,0,0,-0.261799,1.50682e-06,-1.5,3.94113e+12,0,0,3,0,0
710,-3.34121e-12,6.02534e-38,-1.61093e-06,-3.40794e-12,6.02486e-38,-3.96878e-12,-1.1374e-13,0,0,0,0,0,0,0,0,0,0,0,0,0,0,0,0,0,0,0,0,0,-0.261799,1.45616e-06,-1.5,3.94113e+12,0,0,3,0,0
720,-3.34121e-12,6.02534e-38,-1.61093e-06,-3.40794e-12,6.02486e-38,0,-1.1374e-13,0,0,0,0,0,0,0,0,0,0,0,0,0,0,0,0,0,0,0,0,0,-0.261799,1.4101e-06,-1.5,3.94113e+12,0,0,3,0,0
730,-3.34121e-12,6.02534e-38,-1.61093e-06,-3.40794e-12,6.02486e-38,-3.96878e-12,-1.13741e-13,0,0,0,0,0,0,0,0,0,0,0,0,0,0,0,0,0,0,0,0,0,-0.261799,1.1934e-06,-1.5,3.94113e+12,0,0,3,0,0
740,-3.34121e-12,6.02534e-38,-1.61093e-06,-3.40794e-12,6.02486e-38,0,-1.13741e-13,0,0,0,0,0,0,0,0,0,0,0,0,0,0,0,0,0,0,0,0,0,-0.261799,1.14624e-06,-1.5,3.94113e+12,0,0,3,0,0
750,-3.34121e-12,6.02534e-38,-1.61093e-06,-3.40794e-12,6.02486e-38,-3.96878e-12,-1.13742e-13,0,0,0,0,0,0,0,0,0,0,0,0,0,0,0,0,0,0,0,0,0,-0.261799,1.09422e-06,-1.5,3.94113e+12,0,0,3,0,0
760,-3.34121e-12,6.02534e-38,-1.61093e-06,-3.40794e-12,6.02486e-38,0,-1.13742e-13,0,0,0,0,0,0,0,0,0,0,0,0,0,0,0,0,0,0,0,0,0,-0.261799,9.22055e-07,-1.5,3.94113e+12,0,0,3,0,0
770,-3.34121e-12,6.02534e-38,-1.61093e-06,-3.40794e-12,6.02486e-38,-3.96878e-12,-1.13743e-13,0,0,0,0,0,0,0,0,0,0,0,0,0,0,0,0,0,0,0,0,0,-0.261799,8.81983e-07,-1.5,3.94113e+12,0,0,3,0,0
780,-3.34121e-12,6.02534e-38,-1.61093e-06,-3.40794e-12,6.02486e-38,0,-1.13743e-13,0,0,0,0,0,0,0,0,0,0,0,0,0,0,0,0,0,0,0,0,0,-0.261799,7.39498e-07,-1.5,3.94113e+12,0,0,3,0,0
790,-3.34121e-12,6.02534e-38,-1.61093e-06,-3.40794e-12,6.02486e-38,-3.96878e-12,-1.13744e-13,0,0,0,0,0,0,0,0,0,0,0,0,0,0,0,0,0,0,0,0,0,-0.261799,7.0594e-07,-1.5,3.94113e+12,0,0,3,0,0
800,-3.34121e-12,6.02534e-38,-1.61093e-06,-3.40794e-12,6.02486e-38,0,-1.13744e-13,0,0,0,0,0,0,0,0,0,0,0,0,0,0,0,0,0,0,0,0,0,-0.261799,6.78039e-07,-1.5,3.94113e+12,0,0,3,0,0
810,-3.34121e-12,6.02534e-38,-1.61093e-06,-3.40794e-12,6.02486e-38,-3.96878e-12,-1.13745e-13,0,0,0,0,0,0,0,0,0,0,0,0,0,0,0,0,0,0,0,0,0,-0.261799,5.65833e-07,-1.5,3.94113e+12,0,0,3,0,0
820,-3.34121e-12,6.02534e-38,-1.61093e-06,-3.40794e-12,6.02486e-38,0,-1.13745e-13,0,0,0,0,0,0,0,0,0,0,0,0,0,0,0,0,0,0,0,0,0,-0.261799,5.42378e-07,-1.5,3.94113e+12,0,0,3,0,0
830,-3.34121e-12,6.02534e-38,-1.61093e-06,-3.40794e-12,6.02486e-38,-3.96878e-12,-1.13746e-13,0,0,0,0,0,0,0,0,0,0,0,0,0,0,0,0,0,0,0,0,0,-0.261799,5.18807e-07,-1.5,3.94113e+12,0,0,3,0,0
840,-3.34121e-12,6.02534e-38,-1.61093e-06,-3.40794e-12,6.02486e-38,0,-1.13747e-13,0,0,0,0,0,0,0,0,0,0,0,0,0,0,0,0,0,0,0,0,0,-0.261799,4.39078e-07,-1.5,3.94113e+12,0,0,3,0,0
850,-3.34121e-12,6.02534e-38,-1.61093e-06,-3.40794e-12,6.02486e-38,-3.96878e-12,-1.13747e-13,0,0,0,0,0,0,0,0,0,0,0,0,0,0,0,0,0,0,0,0,0,-0.261799,4.19996e-07,-1.5,3.94113e+12,0,0,3,0,0
860,-3.34121e-12,6.02534e-38,-1.61093e-06,-3.40794e-12,6.02486e-38,0,-1.13748e-13,0,0,0,0,0,0,0,0,0,0,0,0,0,0,0,0,0,0,0,0,0,-0.261799,4.0257e-07,-1.5,3.94113e+12,0,0,3,0,0
870,-3.34121e-12,6.02534e-38,-1.61093e-06,-3.40794e-12,6.02486e-38,-3.96878e-12,-1.13748e-13,0,0,0,0,0,0,0,0,0,0,0,0,0,0,0,0,0,0,0,0,0,-0.261799,3.36857e-07,-1.5,3.94113e+12,0,0,3,0,0
880,-3.34121e-12,6.02534e-38,-1.61093e-06,-3.40794e-12,6.02486e-38,0,-1.13749e-13,0,0,0,0,0,0,0,0,0,0,0,0,0,0,0,0,0,0,0,0,0,-0.261799,3.16914e-07,-1.5,3.94113e+12,0,0,3,0,0
890,-3.34121e-12,6.02534e-38,-1.61093e-06,-3.40794e-12,6.02486e-38,-3.96878e-12,-1.13749e-13,0,0,0,0,0,0,0,0,0,0,0,0,0,0,0,0,0,0,0,0,0,-0.261799,3.03765e-07,-1.5,3.94113e+12,0,0,3,0,0
900,-3.34121e-12,6.02534e-38,-1.61093e-06,-3.40794e-12,6.02486e-38,0,-1.1375e-13,0,0,0,0,0,0,0,0,0,0,0,0,0,0,0,0,0,0,0,0,0,-0.261799,2.53496e-07,-1.5,3.94113e+12,0,0,3,0,0
910,-3.34121e-12,6.02534e-38,-1.61093e-06,-3.40794e-12,6.02486e-38,-3.96878e-12,-1.1375e-13,0,0,0,0,0,0,0,0,0,0,0,0,0,0,0,0,0,0,0,0,0,-0.261799,2.42978e-07,-1.5,3.94113e+12,0,0,3,0,0
920,-3.34121e-12,6.02534e-38,-1.61093e-06,-3.40794e-12,6.02486e-38,0,-1.13751e-13,0,0,0,0,0,0,0,0,0,0,0,0,0,0,0,0,0,0,0,0,0,-0.261799,2.32429e-07,-1.5,3.94113e+12,0,0,3,0,0
930,-3.34121e-12,6.02534e-38,-1.61093e-06,-3.40794e-12,6.02486e-38,-3.96878e-12,-1.13751e-13,0,0,0,0,0,0,0,0,0,0,0,0,0,0,0,0,0,0,0,0,0,-0.261799,1.94489e-07,-1.5,3.94113e+12,0,0,3,0,0
940,-3.34121e-12,6.02534e-38,-1.61093e-06,-3.40794e-12,6.02486e-38,0,-1.13752e-13,0,0,0,0,0,0,0,0,0,0,0,0,0,0,0,0,0,0,0,0,0,-0.261799,1.88333e-07,-1.5,3.94113e+12,0,0,3,0,0
950,-3.34121e-12,6.02534e-38,-1.61093e-06,-3.40794e-12,6.02486e-38,-3.96878e-12,-1.13753e-13,0,0,0,0,0,0,0,0,0,0,0,0,0,0,0,0,0,0,0,0,0,-0.261799,1.82006e-07,-1.5,3.94113e+12,0,0,3,0,0
960,-3.34121e-12,6.02534e-38,-1.61093e-06,-3.40794e-12,6.02486e-38,0,-1.13753e-13,0,0,0,0,0,0,0,0,0,0,0,0,0,0,0,0,0,0,0,0,0,-0.261799,1.54036e-07,-1.5,3.94113e+12,0,0,3,0,0
970,-3.34121e-12,6.02534e-38,-1.61093e-06,-3.40794e-12,6.02486e-38,-3.96878e-12,-1.13754e-13,0,0,0,0,0,0,0,0,0,0,0,0,0,0,0,0,0,0,0,0,0,-0.261799,1.47348e-07,-1.5,3.94113e+12,0,0,3,0,0
980,-3.34121e-12,6.02534e-38,-1.61093e-06,-3.40794e-12,6.02486e-38,0,-1.13754e-13,0,0,0,0,0,0,0,0,0,0,0,0,0,0,0,0,0,0,0,0,0,-0.261799,1.41241e-07,-1.5,3.94113e+12,0,0,3,0,0
990,-3.34121e-12,6.02534e-38,-1.61093e-06,-3.40794e-12,6.02486e-38,-3.96878e-12,-1.13755e-13,0,0,0,0,0,0,0,0,0,0,0,0,0,0,0,0,0,0,0,0,0,-0.261799,1.18701e-07,-1.5,3.94113e+12,0,0,3,0,0
1000,-3.34121e-12,6.02534e-38,-1.61093e-06,-3.40794e-12,6.02486e-38,0,-1.13755e-13,0,0,0,0,0,0,0,0,0,0,0,0,0,0,0,0,0,0,0,0,0,-0.261799,1.13776e-07,-1.5,3.94113e+12,0,0,3,0,0
1010,-3.34121e-12,6.02534e-38,-1.61093e-06,-3.40794e-12,6.02486e-38,-3.96878e-12,-1.13756e-13,0,0,0,0,0,0,0,0,0,0,0,0,0,0,0,0,0,0,0,0,0,-0.261799,9.51716e-08,-1.5,3.94113e+12,0,0,3,0,0
1020,-3.34121e-12,6.02534e-38,-1.61093e-06,-3.40794e-12,6.02486e-38,0,-1.13756e-13,0,0,0,0,0,0,0,0,0,0,0,0,0,0,0,0,0,0,0,0,0,-0.261799,9.12229e-08,-1.5,3.94113e+12,0,0,3,0,0
1030,-3.34121e-12,6.02534e-38,-1.61093e-06,-3.40794e-12,6.02486e-38,-3.96878e-12,-1.13757e-13,0,0,0,0,0,0,0,0,0,0,0,0,0,0,0,0,0,0,0,0,0,-0.261799,8.7438e-08,-1.5,3.94113e+12,0,0,3,0,0
1040,-3.34121e-12,6.02534e-38,-1.61093e-06,-3.40794e-12,6.02486e-38,0,-1.13757e-13,0,0,0,0,0,0,0,0,0,0,0,0,0,0,0,0,0,0,0,0,0,-0.261799,7.33123e-08,-1.5,3.94113e+12,0,0,3,0,0
1050,-3.34123e-12,6.01641e-38,6.01973e-38,-3.40794e-12,6.02486e-38,-3.96878e-12,-1.13758e-13,0,0,0,0,0,0,0,0,0,0,0,0,0,0,0,0,0,0,0,0,0,-0.261799,7.01294e-08,-1.5,3.94113e+12,0,0,3,0,0
1060,-3.34121e-12,6.02534e-38,-1.61093e-06,-3.40794e-12,6.02486e-38,0,-1.13759e-13,0,0,0,0,0,0,0,0,0,0,0,0,0,0,0,0,0,0,0,0,0,-0.261799,6.72225e-08,-1.5,3.94113e+12,0,0,3,0,0
1070,-3.34121e-12,6.02534e-38,-1.61093e-06,-3.40794e-12,6.02486e-38,-3.96878e-12,-1.13759e-13,0,0,0,0,0,0,0,0,0,0,0,0,0,0,0,0,0,0,0,0,0,-0.261799,5.63815e-08,-1.5,3.94113e+12,0,0,3,0,0
1080,-3.34121e-12,6.02534e-38,-1.61093e-06,-3.40794e-12,6.02486e-38,0,-1.1376e-13,0,0,0,0,0,0,0,0,0,0,0,0,0,0,0,0,0,0,0,0,0,-0.261799,5.40422e-08,-1.5,3.94113e+12,0,0,3,0,0
1090,-3.34121e-12,6.02534e-38,-1.61093e-06,-3.40794e-12,6.02486e-38,-3.96878e-12,-1.1376e-13,0,0,0,0,0,0,0,0,0,0,0,0,0,0,0,0,0,0,0,0,0,-0.261799,5.18e-08,-1.5,3.94113e+12,0,0,3,0,0
1100,-3.34121e-12,6.02534e-38,-1.61093e-06,-3.40794e-12,6.02486e-38,0,-1.13761e-13,0,0,0,0,0,0,0,0,0,0,0,0,0,0,0,0,0,0,0,0,0,-0.261799,4.35479e-08,-1.5,3.94113e+12,0,0,3,0,0
1110,-3.34121e-12,6.02534e-38,-1.61093e-06,-3.40794e-12,6.02486e-38,-3.96878e-12,-1.13761e-13,0,0,0,0,0,0,0,0,0,0,0,0,0,0,0,0,0,0,0,0,0,-0.261799,4.17411e-08,-1.5,3.94113e+12,0,0,3,0,0
1120,-3.34121e-12,6.02534e-38,-1.61093e-06,-3.40794e-12,6.02486e-38,0,-1.13762e-13,0,0,0,0,0,0,0,0,0,0,0,0,0,0,0,0,0,0,0,0,0,-0.261799,4.00092e-08,-1.5,3.94113e+12,0,0,3,0,0
1130,-3.34121e-12,6.02534e-38,-1.61093e-06,-3.40794e-12,6.02486e-38,-3.96878e-12,-1.13762e-13,0,0,0,0,0,0,0,0,0,0,0,0,0,0,0,0,0,0,0,0,0,-0.261799,3.40285e-08,-1.5,3.94113e+12,0,0,3,0,0
1140,-3.34121e-12,6.02534e-38,-1.61093e-06,-3.40794e-12,6.02486e-38,0,-1.13763e-13,0,0,0,0,0,0,0,0,0,0,0,0,0,0,0,0,0,0,0,0,0,-0.261799,3.2618e-08,-1.5,3.94113e+12,0,0,3,0,0
1150,-3.34121e-12,6.02534e-38,-1.61093e-06,-3.40794e-12,6.02486e-38,-3.96878e-12,-1.13763e-13,0,0,0,0,0,0,0,0,0,0,0,0,0,0,0,0,0,0,0,0,0,-0.261799,3.12646e-08,-1.5,3.94113e+12,0,0,3,0,0
1160,-3.34121e-12,6.02534e-38,-1.61093e-06,-3.40794e-12,6.02486e-38,0,-1.13764e-13,0,0,0,0,0,0,0,0,0,0,0,0,0,0,0,0,0,0,0,0,0,-0.261799,2.79368e-08,-1.5,3.94113e+12,0,0,3,0,0
1170,-3.34121e-12,6.02534e-38,-1.61093e-06,-3.40794e-12,6.02486e-38,-3.96878e-12,-1.13764e-13,0,0,0,0,0,0,0,0,0,0,0,0,0,0,0,0,0,0,0,0,0,-0.261799,2.69976e-08,-1.5,3.94113e+12,0,0,3,0,0
1180,-3.34121e-12,6.02534e-38,-1.61093e-06,-3.40794e-12,6.02486e-38,0,-1.13765e-13,0,0,0,0,0,0,0,0,0,0,0,0,0,0,0,0,0,0,0,0,0,-0.261799,2.61431e-08,-1.5,3.94113e+12,0,0,3,0,0
1190,-3.34121e-12,6.02534e-38,-1.61093e-06,-3.40794e-12,6.02486e-38,-3.96878e-12,-1.13766e-13,0,0,0,0,0,0,0,0,0,0,0,0,0,0,0,0,0,0,0,0,0,-0.261799,2.21255e-08,-1.5,3.94113e+12,0,0,3,0,0
1200,-3.34121e-12,6.02534e-38,-1.61093e-06,-3.40794e-12,6.02486e-38,0,-1.13766e-13,0,0,0,0,0,0,0,0,0,0,0,0,0,0,0,0,0,0,0,0,0,-0.261799,2.12075e-08,-1.5,3.94113e+12,0,0,3,0,0
1210,-3.34121e-12,6.02534e-38,-1.61093e-06,-3.40794e-12,6.02486e-38,-3.96878e-12,-1.13767e-13,0,0,0,0,0,0,0,0,0,0,0,0,0,0,0,0,0,0,0,0,0,-0.261799,1.77874e-08,-1.5,3.94113e+12,0,0,3,0,0
1220,-3.34121e-12,6.02534e-38,-1.61093e-06,-3.40794e-12,6.02486e-38,0,-1.13767e-13,0,0,0,0,0,0,0,0,0,0,0,0,0,0,0,0,0,0,0,0,0,-0.261799,1.70501e-08,-1.5,3.94113e+12,0,0,3,0,0
1230,-3.34121e-12,6.02534e-38,-1.61093e-06,-3.40794e-12,6.02486e-38,-3.96878e-12,-1.13768e-13,0,0,0,0,0,0,0,0,0,0,0,0,0,0,0,0,0,0,0,0,0,-0.261799,1.63426e-08,-1.5,3.94113e+12,0,0,3,0,0
1240,-3.34121e-12,6.02534e-38,-1.61093e-06,-3.40794e-12,6.02486e-38,0,-1.13768e-13,0,0,0,0,0,0,0,0,0,0,0,0,0,0,0,0,0,0,0,0,0,-0.261799,1.36429e-08,-1.5,3.94113e+12,0,0,3,0,0
1250,-3.34121e-12,6.02534e-38,-1.61093e-06,-3.40794e-12,6.02486e-38,-3.96878e-12,-1.13769e-13,0,0,0,0,0,0,0,0,0,0,0,0,0,0,0,0,0,0,0,0,0,-0.261799,1.30774e-08,-1.5,3.94113e+12,0,0,3,0,0
1260,-3.34121e-12,6.02534e-38,-1.61093e-06,-3.40794e-12,6.02486e-38,0,-1.13769e-13,0,0,0,0,0,0,0,0,0,0,0,0,0,0,0,0,0,0,0,0,0,-0.261799,1.25348e-08,-1.5,3.94113e+12,0,0,3,0,0
1270,-3.34121e-12,6.02534e-38,-1.61093e-06,-3.40794e-12,6.02486e-38,-3.96878e-12,-1.1377e-13,0,0,0,0,0,0,0,0,0,0,0,0,0,0,0,0,0,0,0,0,0,-0.261799,1.04887e-08,-1.5,3.94113e+12,0,0,3,0,0
1280,-3.34121e-12,6.02534e-38,-1.61093e-06,-3.40794e-12,6.02486e-38,0,-1.1377e-13,0,0,0,0,0,0,0,0,0,0,0,0,0,0,0,0,0,0,0,0,0,-0.261799,1.00535e-08,-1.5,3.94113e+12,0,0,3,0,0
1290,-3.34121e-12,6.02534e-38,-1.61093e-06,-3.40794e-12,6.02486e-38,-3.96878e-12,-1.13771e-13,0,0,0,0,0,0,0,0,0,0,0,0,0,0,0,0,0,0,0,0,0,-0.261799,9.61701e-09,-1.5,3.94113e+12,0,0,3,0,0
1300,-3.34121e-12,6.02534e-38,-1.61093e-06,-3.40794e-12,6.02486e-38,0,-1.13772e-13,0,0,0,0,0,0,0,0,0,0,0,0,0,0,0,0,0,0,0,0,0,-0.261799,8.06338e-09,-1.5,3.94113e+12,0,0,3,0,0
1310,-3.34121e-12,6.02534e-38,-1.61093e-06,-3.40794e-12,6.02486e-38,-3.96878e-12,-1.13772e-13,0,0,0,0,0,0,0,0,0,0,0,0,0,0,0,0,0,0,0,0,0,-0.261799,7.7133e-09,-1.5,3.94113e+12,0,0,3,0,0
1320,-3.34121e-12,6.02534e-38,-1.61093e-06,-3.40794e-12,6.02486e-38,0,-1.13773e-13,0,0,0,0,0,0,0,0,0,0,0,0,0,0,0,0,0,0,0,0,0,-0.261799,7.40845e-09,-1.5,3.94113e+12,0,0,3,0,0
1330,-3.34121e-12,6.02534e-38,-1.61093e-06,-3.40794e-12,6.02486e-38,-3.96878e-12,-1.13773e-13,0,0,0,0,0,0,0,0,0,0,0,0,0,0,0,0,0,0,0,0,0,-0.261799,6.05122e-09,-1.5,3.94113e+12,0,0,3,0,0
1340,-3.34121e-12,6.02534e-38,-1.61093e-06,-3.40794e-12,6.02486e-38,0,-1.13774e-13,0,0,-2.85152,0.429223,0.697206,0,0,0,0,0,1.14848,0.429223,-1367305984,-162005477,-1367305984,-162005477,1669537358,-1367305984,-1367293536,-1367293536,0,-0.261799,5.7053e-09,-1.5,3.94113e+12,0,0,3,0,0
1350,-3.34121e-12,6.02534e-38,-1.61093e-06,-3.40794e-12,6.02486e-38,-3.96878e-12,-1.13774e-13,0,0,-2.85152,0.429223,0.697206,0,0,0,0,0,1.14848,0.429223,-1367305984,-162005477,-1367305984,-162005477,1669537358,-1367305984,-1367293536,-1367293536,0,-0.261799,4.78361e-09,-1.5,3.94113e+12,0,0,3,0,0
1360,-3.34121e-12,6.02534e-38,-1.61093e-06,-3.40794e-12,6.02486e-38,0,-1.13775e-13,0,0,-2.87247,0.220748,0.615438,0,0,0,0,0,1.12753,0.220748,-1367305984,-162005477,-1367305984,-162005477,1669537358,-1367305984,-1367293536,-1367293536,0,-0.261799,4.58513e-09,-1.5,3.94113e+12,0,0,3,0,0
1370,-3.34121e-12,6.02534e-38,-1.61093e-06,-3.40794e-12,6.02486e-38,-3.96878e-12,-1.13775e-13,0,0,-2.94008,0.0923072,0.596047,0,0,0,0,0,1.05992,0.0923072,-1367305984,-162005477,-1367305984,-162005477,1669537358,-1367305984,-1367293536,-1367293536,0,-0.261799,3.82768e-09,-1.5,3.94113e+12,0,0,3,0,0
1380,-3.34121e-12,6.02534e-38,-1.61093e-06,-3.40794e-12,6.02486e-38,0,-1.13776e-13,0,0,-2.94008,0.0923072,0.596047,0,0,0,0,0,1.05992,0.0923072,-1367305984,-162005477,-1367305984,-162005477,1669537358,-1367305984,-1367293536,-1367293536,0,-0.261799,3.71413e-09,-1.5,3.94113e+12,0,0,3,0,0
1390,-3.34121e-12,6.02534e-38,-1.61093e-06,-3.40794e-12,6.02486e-38,-3.96878e-12,-1.13776e-13,0,0,-3.01232,0.0739992,0.600943,0,0,0,0,0,0.987682,0.0739992,-1367305984,-162005477,-1367305984,-162005477,1669537358,-1367305984,-1367293536,-1367293536,0.261799,-0.261799,2.46351e-09,-1.5,3.94113e+12,0,0,3,0.851263,-0.153015
1400,-3.34121e-12,6.02534e-38,-1.61093e-06,-3.40794e-12,6.02486e-38,0,-1.13777e-13,0,0,-3.02514,0.12336,0.573112,0,0,0,0,0,0.974864,0.12336,-1367305984,-162005477,-1367305984,-162005477,1669537358,-1367305984,-1367293536,-1367293536,-0.184139,-0.261799,1.58066e-09,-1.5,3.94113e+12,0,0,3,0.885393,0.129449
1410,-3.34121e-12,6.02534e-38,-1.61093e-06,-3.40794e-12,6.02486e-38,-3.96878e-12,-1.13777e-13,0,0,-2.99131,0.157809,0.554576,0,0,0,0,0,1.00869,0.157809,-1367305984,-162005477,-1367305984,-162005477,1669537358,-1367305984,-1367293536,-1367293536,-0.188929,-0.261799,1.19845e-09,-1.5,3.94113e+12,0,0,3,0.824926,0.133565
1420,-3.34121e-12,6.02534e-38,-1.61093e-06,-3.40794e-12,6.02486e-38,0,-1.13778e-13,0,0,-2.99131,0.157809,0.554576,0,0,0,0,0,1.00869,0.157809,-1367305984,-162005477,-1367305984,-162005477,1669537358,-1367305984,-1367293536,-1367293536,-0.191539,-0.261799,1.04049e-09,-1.5,3.94113e+12,0,0,3,0.791989,0.135807
1430,-3.34121e-12,6.02534e-38,-1.61093e-06,-3.40794e-12,6.02486e-38,-3.96878e-12,-1.13779e-13,0,0,-2.99131,0.157809,0.554576,0,0,0,0,0,1.00869,0.157809,-1367305984,-162005477,-1367305984,-162005477,1669537358,-1367305984,-1367293536,-1367293536,-0.19446,-0.261799,8.86995e-10,-1.5,3.94113e+12,0,0,3,0.755119,0.138316
1440,-3.34121e-12,6.02534e-38,-1.61093e-06,-3.40794e-12,6.02486e-38,0,-1.13779e-13,0,0,-2.99131,0.157809,0.554576,0,0,0,0,0,1.00869,0.157809,-1367305984,-162005477,-1367305984,-162005477,1669537358,-1367305984,-1367293536,-1367293536,-0.197653,-0.261799,7.4395e-10,-1.5,3.94113e+12,0,0,3,0.714808,0.14106
1450,-3.34121e-12,6.02534e-38,-1.61093e-06,-3.40794e-12,6.02486e-38,-3.96878e-12,-1.1378e-13,0,0,-2.99131,0.157809,0.554576,0,0,0,0,0,1.00869,0.157809,-1367305984,-162005477,-1367305984,-162005477,1669537358,-1367305984,-1367293536,-1367293536,-0.200808,-0.261799,6.25434e-10,-1.5,3.94113e+12,0,0,3,0.674988,0.14377
1460,-3.34121e-12,6.02534e-38,-1.61093e-06,-3.40794e-12,6.02486e-38,0,-1.1378e-13,0,0,-2.99131,0.157809,0.554576,0,0,0,0,0,1.00869,0.157809,-1367305984,-162005477,-1367305984,-162005477,1669537358,-1367305984,-1367293536,-1367293536,-0.201626,-0.261799,5.99509e-10,-1.5,3.94113e+12,0,0,3,0.664665,0.144473
1470,-3.34121e-12,6.02534e-38,-1.61093e-06,-3.40794e-12,6.02486e-38,-3.96878e-12,-1.13781e-13,0,0,-3.04292,0.185749,0.545498,0,0,0,0,0,0.957081,0.185749,-1367305984,-162005477,-1367305984,-162005477,1669537358,-1367305984,-1367293536,-1367293536,-0.261799,-0.261799,3.28545e-10,-1.5,3.94113e+12,0,0,3,0.928306,0.203981
1480,-3.34121e-12,6.02534e-38,-1.61093e-06,-3.40794e-12,6.02486e-38,0,-1.13781e-13,0,0,-3.04292,0.185749,0.545498,0,0,0,0,0,0.957081,0.185749,-1367305984,-162005477,-1367305984,-162005477,1669537358,-1367305984,-1367293536,-1367293536,-0.261799,-0.261799,2.87754e-10,-1.5,3.94113e+12,0,0,3,0.920424,0.208975
1490,-3.34121e-12,6.02534e-38,-1.61093e-06,-3.40794e-12,6.02486e-38,-3.96878e-12,-1.13782e-13,0,0,-3.05855,0.244598,0.548293,0,0,0,0,0,0.941446,0.244598,-1367305984,-162005477,-1367305984,-162005477,1669537358,-1367305984,-1367293536,-1367293536,-0.261799,-0.261799,2.08419e-10,-1.5,3.94113e+12,0,0,3,0.901679,0.260285
1500,-3.34121e-12,6.02534e-38,-1.61093e-06,-3.40794e-12,6.02486e-38,0,-1.13782e-13,0,0,-3.05855,0.244598,0.548293,0,0,0,0,0,0.941446,0.244598,-1367305984,-162005477,-1367305984,-162005477,1669537358,-1367305984,-1367293536,-1367293536,-0.261799,-0.261799,2.03463e-10,-1.5,3.94113e+12,0,0,3,0.900181,0.261826
1510,-3.34121e-12,6.02534e-38,-1.61093e-06,-3.40794e-12,6.02486e-38,-3.96878e-12,-1.13783e-13,0,0,-3.05855,0.244598,0.548293,0,0,0,0,0,0.941446,0.244598,-1367305984,-162005477,-1367305984,-162005477,1669537358,-1367305984,-1367293536,-1367293536,-0.261799,-0.261799,1.95021e-10,-1.5,3.94113e+12,0,0,3,0.897561,0.264523
1520,-3.34121e-12,6.02534e-38,-1.61093e-06,-3.40794e-12,6.02486e-38,0,-1.13783e-13,0,0,-3.05855,0.244598,0.548293,0,0,0,0,0,0.941446,0.244598,-1367305984,-162005477,-1367305984,-162005477,1669537358,-1367305984,-1367293536,-1367293536,-0.261799,-0.261799,1.89233e-10,-1.5,3.94113e+12,0,0,3,0.89569,0.266449
1530,-3.34121e-12,6.02534e-38,-1.61093e-06,-3.40794e-12,6.02486e-38,-3.96878e-12,-1.13784e-13,0,0,-3.05855,0.244598,0.548293,0,0,0,0,0,0.941446,0.244598,-1367305984,-162005477,-1367305984,-162005477,1669537358,-1367305984,-1367293536,-1367293536,-0.261799,-0.261799,1.81009e-10,-1.5,3.94113e+12,0,0,3,0.892945,0.269275
1540,-3.34121e-12,6.02534e-38,-1.61093e-06,-3.40794e-12,6.02486e-38,0,-1.13785e-13,0,0,-3.01286,0.279277,0.523209,0,0,0,0,0,0.987135,0.279277,-1367305984,-162005477,-1367305984,-162005477,1669537358,-1367305984,-1367293536,-1367293536,-0.261799,-0.261799,1.41792e-10,-1.5,3.94113e+12,0,0,3,0.905658,0.290547
1550,-3.34121e-12,6.02534e-38,-1.61093e-06,-3.40794e-12,6.02486e-38,-3.96878e-12,-1.13785e-13,0,0,-3.01923,0.285427,0.530522,0,0,0,0,0,0.980772,0.285427,-1367305984,-162005477,-1367305984,-162005477,1669537358,-1367305984,-1367293536,-1367293536,-0.261799,-0.261799,1.31164e-10,-1.5,3.94113e+12,0,0,3,0.978312,0.290752
1560,-3.34121e-12,6.02534e-38,-1.61093e-06,-3.40794e-12,6.02486e-38,0,-1.13786e-13,0,0,-3.01923,0.285427,0.530522,0,0,0,0,0,0.980772,0.285427,-1367305984,-162005477,-1367305984,-162005477,1669537358,-1367305984,-1367293536,-1367293536,-0.261799,-0.261799,1.28046e-10,-1.5,3.94113e+12,0,0,3,0.977946,0.292292
1570,-3.34121e-12,6.02534e-38,-1.61093e-06,-3.40794e-12,6.02486e-38,-3.96878e-12,-1.13786e-13,0,0,-3.01923,0.285427,0.530522,0,0,0,0,0,0.980772,0.285427,-1367305984,-162005477,-1367305984,-162005477,1669537358,-1367305984,-1367293536,-1367293536,-0.261799,-0.261799,1.23493e-10,-1.5,3.94113e+12,0,0,3,0.977398,0.294601
1580,-3.34121e-12,6.02534e-38,-1.61093e-06,-3.40794e-12,6.02486e-38,0,-1.13787e-13,0,0,-3.01923,0.285427,0.530522,0,0,0,0,0,0.980772,0.285427,-1367305984,-162005477,-1367305984,-162005477,1669537358,-1367305984,-1367293536,-1367293536,-0.261799,-0.261799,1.18374e-10,-1.5,3.94113e+12,0,0,3,0.976758,0.297294
1590,-3.34121e-12,6.02534e-38,-1.61093e-06,-3.40794e-12,6.02486e-38,-3.96878e-12,-1.13787e-13,0,0,-3.02556,0.28462,0.531066,0,0,0,0,0,0.974438,0.28462,-1367305984,-162005477,-1367305984,-162005477,1669537358,-1367305984,-1367293536,-1367293536,-0.261799,-0.261799,9.15619e-11,-1.5,3.94113e+12,0,0,3,0.970816,0.311276
1600,-3.34121e-12,6.02534e-38,-1.61093e-06,-3.40794e-12,6.02486e-38,0,-1.13788e-13,0,0,-3.0079,0.282278,0.513167,0,0,0,0,0,0.992103,0.282278,-1367305984,-162005477,-1367305984,-162005477,1669537358,-1367305984,-1367293536,-1367293536,-0.261799,-0.261799,8.48796e-11,-1.5,3.94113e+12,0,0,3,0.972485,0.303011
1610,-3.34121e-12,6.02534e-38,-1.61093e-06,-3.40794e-12,6.02486e-38,-3.96878e-12,-1.13788e-13,0,0,-3.0079,0.282278,0.513167,0,0,0,0,0,0.992103,0.282278,-1367305984,-162005477,-1367305984,-162005477,1669537358,-1367305984,-1367293536,-1367293536,-0.261799,-0.261799,8.26943e-11,-1.5,3.94113e+12,0,0,3,0.972081,0.304466
1620,-3.34121e-12,6.02534e-38,-1.61093e-06,-3.40794e-12,6.02486e-38,0,-1.13789e-13,0,0,-3.0079,0.282278,0.513167,0,0,0,0,0,0.992103,0.282278,-1367305984,-162005477,-1367305984,-162005477,1669537358,-1367305984,-1367293536,-1367293536,-0.261799,-0.261799,7.95888e-11,-1.5,3.94113e+12,0,0,3,0.97149,0.306594
1630,-3.34121e-12,6.02534e-38,-1.61093e-06,-3.40794e-12,6.02486e-38,-3.96878e-12,-1.13789e-13,0,0,-3.0079,0.282278,0.513167,0,0,0,0,0,0.992103,0.282278,-1367305984,-162005477,-1367305984,-162005477,1669537358,-1367305984,-1367293536,-1367293536,-0.261799,-0.261799,7.69132e-11,-1.5,3.94113e+12,0,0,3,0.970962,0.308497
1640,-3.34121e-12,6.02534e-38,-1.61093e-06,-3.40794e-12,6.02486e-38,0,-1.1379e-13,0,0,-2.96348,0.267533,0.481309,0,0,0,0,0,1.03652,0.267533,-1367305984,-162005477,-1367305984,-162005477,1669537358,-1367305984,-1367293536,-1367293536,-0.261799,-0.261799,6.02492e-11,-1.5,3.94113e+12,0,0,3,0.973025,0.319026
1650,-3.34121e-12,6.02534e-38,-1.61093e-06,-3.40794e-12,6.02486e-38,-3.96878e-12,-1.1379e-13,0,0,-2.9791,0.253875,0.525589,0,0,0,0,0,1.0209,0.253875,-1367305984,-162005477,-1367305984,-162005477,1669537358,-1367305984,-1367293536,-1367293536,-0.261799,-0.261799,4.7077e-11,-1.5,3.94113e+12,0,0,3,0.982607,0.316258
1660,-3.34121e-12,6.02534e-38,-1.61093e-06,-3.40794e-12,6.02486e-38,0,-1.13791e-13,0,0,-2.97822,0.246591,0.51779,0,0,0,0,0,1.02178,0.246591,-1367305984,-162005477,-1367305984,-162005477,1669537358,-1367305984,-1367293536,-1367293536,-0.261799,-0.261799,4.3456e-11,-1.5,3.94113e+12,0,0,3,0.996665,0.317338
1670,-3.34121e-12,6.02534e-38,-1.61093e-06,-3.40794e-12,6.02486e-38,-3.96878e-12,-1.13792e-13,0,0,-2.97822,0.246591,0.51779,0,0,0,0,0,1.02178,0.246591,-1367305984,-162005477,-1367305984,-162005477,1669537358,-1367305984,-1367293536,-1367293536,-0.261799,-0.261799,4.20806e-11,-1.5,3.94113e+12,0,0,3,0.996879,0.319023
1680,-3.34121e-12,6.02534e-38,-1.61093e-06,-3.40794e-12,6.02486e-38,0,-1.13792e-13,0,0,-2.97822,0.246591,0.51779,0,0,0,0,0,1.02178,0.246591,-1367305984,-162005477,-1367305984,-162005477,1669537358,-1367305984,-1367293536,-1367293536,-0.261799,-0.261799,4.06659e-11,-1.5,3.94113e+12,0,0,3,0.997107,0.320814
1690,-3.34121e-12,6.02534e-38,-1.61093e-06,-3.40794e-12,6.02486e-38,-3.96878e-12,-1.13793e-13,0,0,-2.98542,0.238834,0.525093,0,0,0,0,0,1.01458,0.238834,-1367305984,-162005477,-1367305984,-162005477,1669537358,-1367305984,-1367293536,-1367293536,-0.261799,-0.261799,3.17125e-11,-1.5,3.94113e+12,0,0,3,1.01856,0.301018
1700,-3.34121e-12,6.02534e-38,-1.61093e-06,-3.40794e-12,6.02486e-38,0,-1.13793e-13,0,0,-3.03702,0.218133,0.552981,0,0,0,0,0,0.96298,0.218133,-1367305984,-162005477,-1367305984,-162005477,1669537358,-1367305984,-1367293536,-1367293536,-0.261799,-0.261799,2.9086e-11,-1.5,3.94113e+12,0,0,3,1.01611,0.260741
1710,-3.34121e-12,6.02534e-38,-1.61093e-06,-3.40794e-12,6.02486e-38,-3.96878e-12,-1.13794e-13,0,0,-3.03702,0.218133,0.552981,0,0,0,0,0,0.96298,0.218133,-1367305984,-162005477,-1367305984,-162005477,1669537358,-1367305984,-1367293536,-1367293536,-0.261799,-0.261799,2.83944e-11,-1.5,3.94113e+12,0,0,3,1.01662,0.261039
1720,-3.34121e-12,6.02534e-38,-1.61093e-06,-3.40794e-12,6.02486e-38,0,-1.13794e-13,0,0,-3.03702,0.218133,0.552981,0,0,0,0,0,0.96298,0.218133,-1367305984,-162005477,-1367305984,-162005477,1669537358,-1367305984,-1367293536,-1367293536,-0.261799,-0.261799,2.73848e-11,-1.5,3.94113e+12,0,0,3,1.01738,0.261485
1730,-3.34121e-12,6.02534e-38,-1.61093e-06,-3.40794e-12,6.02486e-38,-3.96878e-12,-1.13795e-13,0,0,-3.03702,0.218133,0.552981,0,0,0,0,0,0.96298,0.218133,-1367305984,-162005477,-1367305984,-162005477,1669537358,-1367305984,-1367293536,-1367293536,-0.261799,-0.261799,2.62496e-11,-1.5,3.94113e+12,0,0,3,1.01827,0.262006
1740,-3.34121e-12,6.02534e-38,-1.61093e-06,-3.40794e-12,6.02486e-38,0,-1.13795e-13,0,0,-3.01543,0.247717,0.545852,0,0,0,0,0,0.984574,0.247717,-1367305984,-162005477,-1367305984,-162005477,1669537358,-1367305984,-1367293536,-1367293536,-0.230854,-0.261799,2.05211e-11,-1.5,3.94113e+12,0,0,3,1.02383,0.235056
1750,-3.34121e-12,6.02534e-38,-1.61093e-06,-3.40794e-12,6.02486e-38,-3.96878e-12,-1.13796e-13,0,0,-3.03874,0.227721,0.561247,0,0,0,0,0,0.961263,0.227721,-1367305984,-162005477,-1367305984,-162005477,1669537358,-1367305984,-1367293536,-1367293536,-0.202728,-0.261799,1.57606e-11,-1.5,3.94113e+12,0,0,3,1.02881,0.220432
1760,-3.34121e-12,6.02534e-38,-1.61093e-06,-3.40794e-12,6.02486e-38,0,-1.13796e-13,0,0,-3.03874,0.227721,0.561247,0,0,0,0,0,0.961263,0.227721,-1367305984,-162005477,-1367305984,-162005477,1669537358,-1367305984,-1367293536,-1367293536,-0.199155,-0.261799,1.39899e-11,-1.5,3.94113e+12,0,0,3,1.03134,0.217363
1770,-3.34121e-12,6.02534e-38,-1.61093e-06,-3.40794e-12,6.02486e-38,-3.96878e-12,-1.13797e-13,0,0,-3.03874,0.227721,0.561247,0,0,0,0,0,0.961263,0.227721,-1367305984,-162005477,-1367305984,-162005477,1669537358,-1367305984,-1367293536,-1367293536,-0.198215,-0.261799,1.35747e-11,-1.5,3.94113e+12,0,0,3,1.03201,0.216555
1780,-3.34121e-12,6.02534e-38,-1.61093e-06,-3.40794e-12,6.02486e-38,0,-1.13798e-13,0,0,-3.0198,0.23742,0.553404,0,0,0,0,0,0.980205,0.23742,-1367305984,-162005477,-1367305984,-162005477,1669537358,-1367305984,-1367293536,-1367293536,-0.198022,-0.261799,8.81681e-12,-1.5,3.94113e+12,0,0,3,0.982622,0.212403
1790,-3.34121e-12,6.02534e-38,-1.61093e-06,-3.40794e-12,6.02486e-38,-3.96878e-12,-1.13798e-13,0,0,-3.02673,0.228057,0.543232,0,0,0,0,0,0.973268,0.228057,-1367305984,-162005477,-1367305984,-162005477,1669537358,-1367305984,-1367293536,-1367293536,-0.225876,-0.261799,8.40008e-12,-1.5,3.94113e+12,0,0,3,0.976497,0.227404
1800,-3.34121e-12,6.02534e-38,-1.61093e-06,-3.40794e-12,6.02486e-38,0,-1.13799e-13,0,0,-3.02673,0.228057,0.543232,0,0,0,0,0,0.973268,0.228057,-1367305984,-162005477,-1367305984,-162005477,1669537358,-1367305984,-1367293536,-1367293536,-0.225379,-0.261799,8.21689e-12,-1.5,3.94113e+12,0,0,3,0.976421,0.226977
1810,-3.34121e-12,6.02534e-38,-1.61093e-06,-3.40794e-12,6.02486e-38,-3.96878e-12,-1.13799e-13,0,0,-3.02673,0.228057,0.543232,0,0,0,0,0,0.973268,0.228057,-1367305984,-162005477,-1367305984,-162005477,1669537358,-1367305984,-1367293536,-1367293536,-0.224611,-0.261799,7.94065e-12,-1.5,3.94113e+12,0,0,3,0.976304,0.226317
1820,-3.34121e-12,6.02534e-38,-1.61093e-06,-3.40794e-12,6.02486e-38,0,-1.138e-13,0,0,-2.97766,0.229953,0.515231,0,0,0,0,0,1.02234,0.229953,-1367305984,-162005477,-1367305984,-162005477,1669537358,-1367305984,-1367293536,-1367293536,-0.222683,-0.261799,6.29465e-12,-1.5,3.94113e+12,0,0,3,0.979081,0.223003
1830,-3.34121e-12,6.02534e-38,-1.61093e-06,-3.40794e-12,6.02486e-38,-3.96878e-12,-1.138e-13,0,0,-2.97766,0.229953,0.515231,0,0,0,0,0,1.02234,0.229953,-1367305984,-162005477,-1367305984,-162005477,1669537358,-1367305984,-1367293536,-1367293536,-0.224848,-0.261799,5.99753e-12,-1.5,3.94113e+12,0,0,3,0.988958,0.224094
1840,-3.34121e-12,6.02534e-38,-1.61093e-06,-3.40794e-12,6.02486e-38,0,-1.13801e-13,0,0,-2.97766,0.229953,0.515231,0,0,0,0,0,1.02234,0.229953,-1367305984,-162005477,-1367305984,-162005477,1669537358,-1367305984,-1367293536,-1367293536,-0.224345,-0.261799,5.85495e-12,-1.5,3.94113e+12,0,0,3,0.988975,0.223662
1850,-3.34121e-12,6.02534e-38,-1.61093e-06,-3.40794e-12,6.02486e-38,-3.96878e-12,-1.13801e-13,0,0,-2.97766,0.229953,0.515231,0,0,0,0,0,1.02234,0.229953,-1367305984,-162005477,-1367305984,-162005477,1669537358,-1367305984,-1367293536,-1367293536,-0.223717,-0.261799,5.68117e-12,-1.5,3.94113e+12,0,0,3,0.988997,0.223122
1860,-3.34121e-12,6.02534e-38,-1.61093e-06,-3.40794e-12,6.02486e-38,0,-1.13802e-13,0,0,-2.97766,0.229953,0.515231,0,0,0,0,0,1.02234,0.229953,-1367305984,-162005477,-1367305984,-162005477,1669537358,-1367305984,-1367293536,-1367293536,-0.223214,-0.261799,5.54609e-12,-1.5,3.94113e+12,0,0,3,0.989014,0.222691
1870,-3.34121e-12,6.02534e-38,-1.61093e-06,-3.40794e-12,6.02486e-38,-3.96878e-12,-1.13802e-13,0,0,-2.97766,0.229953,0.515231,0,0,0,0,0,1.02234,0.229953,-1367305984,-162005477,-1367305984,-162005477,1669537358,-1367305984,-1367293536,-1367293536,-0.222292,-0.261799,5.3053e-12,-1.5,3.94113e+12,0,0,3,0.989045,0.221899
1880,-3.34121e-12,6.02534e-38,-1.61093e-06,-3.40794e-12,6.02486e-38,0,-1.13803e-13,0,0,-3.00393,0.237788,0.530247,0,0,0,0,0,0.996073,0.237788,-1367305984,-162005477,-1367305984,-162005477,1669537358,-1367305984,-1367293536,-1367293536,-0.219062,-0.261799,4.15762e-12,-1.5,3.94113e+12,0,0,3,0.996729,0.218758
1890,-3.34121e-12,6.02534e-38,-1.61093e-06,-3.40794e-12,6.02486e-38,-3.96878e-12,-1.13803e-13,0,0,-3.00393,0.237788,0.530247,0,0,0,0,0,0.996073,0.237788,-1367305984,-162005477,-1367305984,-162005477,1669537358,-1367305984,-1367293536,-1367293536,-0.218482,-0.261799,4.04244e-12,-1.5,3.94113e+12,0,0,3,0.996824,0.21826
1900,-3.34121e-12,6.02534e-38,-1.61093e-06,-3.40794e-12,6.02486e-38,0,-1.13804e-13,0,0,-3.00393,0.237788,0.530247,0,0,0,0,0,0.996073,0.237788,-1367305984,-162005477,-1367305984,-162005477,1669537358,-1367305984,-1367293536,-1367293536,-0.217778,-0.261799,3.90664e-12,-1.5,3.94113e+12,0,0,3,0.996939,0.217655
1910,-3.34121e-12,6.02534e-38,-1.61093e-06,-3.40794e-12,6.02486e-38,-3.96878e-12,-1.13805e-13,0,0,-3.00393,0.237788,0.530247,0,0,0,0,0,0.996073,0.237788,-1367305984,-162005477,-1367305984,-162005477,1669537358,-1367305984,-1367293536,-1367293536,-0.216619,-0.261799,3.69073e-12,-1.5,3.94113e+12,0,0,3,0.997128,0.216659
1920,-3.34121e-12,6.02534e-38,-1.61093e-06,-3.40794e-12,6.02486e-38,0,-1.13805e-13,0,0,-2.99931,0.223934,0.541618,0,0,0,0,0,1.00069,0.223934,-1367305984,-162005477,-1367305984,-162005477,1669537358,-1367305984,-1367293536,-1367293536,-0.214034,-0.261799,2.87463e-12,-1.5,3.94113e+12,0,0,3,1.0005,0.213261
1930,-3.34121e-12,6.02534e-38,-1.61093e-06,-3.40794e-12,6.02486e-38,-3.96878e-12,-1.13806e-13,0,0,-3.02472,0.233952,0.559762,0,0,0,0,0,0.975275,0.233952,-1367305984,-162005477,-1367305984,-162005477,1669537358,-1367305984,-1367293536,-1367293536,-0.226958,-0.261799,2.61996e-12,-1.5,3.94113e+12,0,0,3,0.998258,0.218709
1940,-3.34121e-12,6.02534e-38,-1.61093e-06,-3.40794e-12,6.02486e-38,0,-1.13806e-13,0,0,-3.02472,0.233952,0.559762,0,0,0,0,0,0.975275,0.233952,-1367305984,-162005477,-1367305984,-162005477,1669537358,-1367305984,-1367293536,-1367293536,-0.22654,-0.261799,2.55767e-12,-1.5,3.94113e+12,0,0,3,0.998332,0.21835
1950,-3.34121e-12,6.02534e-38,-1.61093e-06,-3.40794e-12,6.02486e-38,-3.96878e-12,-1.13807e-13,0,0,-3.02472,0.233952,0.559762,0,0,0,0,0,0.975275,0.233952,-1367305984,-162005477,-1367305984,-162005477,1669537358,-1367305984,-1367293536,-1367293536,-0.22593,-0.261799,2.4617e-12,-1.5,3.94113e+12,0,0,3,0.99844,0.217825
1960,-3.34121e-12,6.02534e-38,-1.61093e-06,-3.40794e-12,6.02486e-38,0,-1.13807e-13,0,0,-3.02472,0.233952,0.559762,0,0,0,0,0,0.975275,0.233952,-1367305984,-162005477,-1367305984,-162005477,1669537358,-1367305984,-1367293536,-1367293536,-0.225222,-0.261799,2.35482e-12,-1.5,3.94113e+12,0,0,3,0.998566,0.217218
1970,-3.34121e-12,6.02534e-38,-1.61093e-06,-3.40794e-12,6.02486e-38,-3.96878e-12,-1.13808e-13,0,0,-3.0339,0.241985,0.543416,0,0,0,0,0,0.966104,0.241985,-1367305984,-162005477,-1367305984,-162005477,1669537358,-1367305984,-1367293536,-1367293536,-0.229849,-0.261799,1.85853e-12,-1.5,3.94113e+12,0,0,3,0.974034,0.217042
1980,-3.34121e-12,6.02534e-38,-1.61093e-06,-3.40794e-12,6.02486e-38,0,-1.13808e-13,0,0,-2.97536,0.247936,0.525179,0,0,0,0,0,1.02464,0.247936,-1367305984,-162005477,-1367305984,-162005477,1669537358,-1367305984,-1367293536,-1367293536,-0.245981,-0.261799,1.69753e-12,-1.5,3.94113e+12,0,0,3,0.987856,0.22408
1990,-3.34121e-12,6.02534e-38,-1.61093e-06,-3.40794e-12,6.02486e-38,-3.96878e-12,-1.13809e-13,0,0,-2.97536,0.247936,0.525179,0,0,0,0,0,1.02464,0.247936,-1367305984,-162005477,-1367305984,-162005477,1669537358,-1367305984,-1367293536,-1367293536,-0.245791,-0.261799,1.66051e-12,-1.5,3.94113e+12,0,0,3,0.987672,0.223916
2000,-3.34121e-12,6.02534e-38,-1.61093e-06,-3.40794e-12,6.02486e-38,0,-1.13809e-13,0,0,-2.97536,0.247936,0.525179,0,0,0,0,0,1.02464,0.247936,-1367305984,-162005477,-1367305984,-162005477,1669537358,-1367305984,-1367293536,-1367293536,-0.245445,-0.261799,1.59494e-12,-1.5,3.94113e+12,0,0,3,0.987338,0.223619
2010,-3.34121e-12,6.02534e-38,-1.61093e-06,-3.40794e-12,6.02486e-38,-3.96878e-12,-1.1381e-13,0,0,-3.015,0.231714,0.542986,0,0,0,0,0,0.984999,0.231714,-1367305984,-162005477,-1367305984,-162005477,1669537358,-1367305984,-1367293536,-1367293536,-0.261799,-0.261799,1.25957e-12,-1.5,3.94113e+12,0,0,3,0.981834,0.231304
2020,-3.34121e-12,6.02534e-38,-1.61093e-06,-3.40794e-12,6.02486e-38,0,-1.13811e-13,0,0,-3.04519,0.243926,0.560558,0,0,0,0,0,0.954808,0.243926,-1367305984,-162005477,-1367305984,-162005477,1669537358,-1367305984,-1367293536,-1367293536,-0.261799,-0.261799,9.77265e-13,-1.5,3.94113e+12,0,0,3,0.977021,0.230488
2030,-3.34121e-12,6.02534e-38,-1.61093e-06,-3.40794e-12,6.02486e-38,-3.96878e-12,-1.13811e-13,0,0,-3.02601,0.241775,0.561443,0,0,0,0,0,0.973988,0.241775,-1367305984,-162005477,-1367305984,-162005477,1669537358,-1367305984,-1367293536,-1367293536,-0.261799,-0.261799,9.17483e-13,-1.5,3.94113e+12,0,0,3,0.974444,0.24104
2040,-3.34121e-12,6.02534e-38,-1.61093e-06,-3.40794e-12,6.02486e-38,0,-1.13812e-13,0,0,-3.02601,0.241775,0.561443,0,0,0,0,0,0.973988,0.241775,-1367305984,-162005477,-1367305984,-162005477,1669537358,-1367305984,-1367293536,-1367293536,-0.261799,-0.261799,8.88463e-13,-1.5,3.94113e+12,0,0,3,0.974326,0.241102
2050,-3.34121e-12,6.02534e-38,-1.61093e-06,-3.40794e-12,6.02486e-38,-3.96878e-12,-1.13812e-13,0,0,-3.02601,0.241775,0.561443,0,0,0,0,0,0.973988,0.241775,-1367305984,-162005477,-1367305984,-162005477,1669537358,-1367305984,-1367293536,-1367293536,-0.261799,-0.261799,8.4291e-13,-1.5,3.94113e+12,0,0,3,0.974135,0.241203
2060,-3.34121e-12,6.02534e-38,-1.61093e-06,-3.40794e-12,6.02486e-38,0,-1.13813e-13,0,0,-3.02601,0.241775,0.561443,0,0,0,0,0,0.973988,0.241775,-1367305984,-162005477,-1367305984,-162005477,1669537358,-1367305984,-1367293536,-1367293536,-0.261799,-0.261799,8.06314e-13,-1.5,3.94113e+12,0,0,3,0.973973,0.241289
2070,-3.34121e-12,6.02534e-38,-1.61093e-06,-3.40794e-12,6.02486e-38,-3.96878e-12,-1.13813e-13,0,0,-3.06989,0.235379,0.58662,0,0,0,0,0,0.93011,0.235379,-1367305984,-162005477,-1367305984,-162005477,1669537358,-1367305984,-1367293536,-1367293536,-0.261799,-0.261799,6.28766e-13,-1.5,3.94113e+12,0,0,3,0.974173,0.235021
2080,-3.34121e-12,6.02534e-38,-1.61093e-06,-3.40794e-12,6.02486e-38,0,-1.13814e-13,0,0,-3.01788,0.224239,0.551745,0,0,0,0,0,0.982116,0.224239,-1367305984,-162005477,-1367305984,-162005477,1669537358,-1367305984,-1367293536,-1367293536,-0.261799,-0.261799,3.77925e-13,-1.5,3.94113e+12,0,0,3,0.971271,0.236401
2090,-3.34121e-12,6.02534e-38,-1.61093e-06,-3.40794e-12,6.02486e-38,-3.96878e-12,-1.13814e-13,0,0,-3.01788,0.224239,0.551745,0,0,0,0,0,0.982116,0.224239,-1367305984,-162005477,-1367305984,-162005477,1669537358,-1367305984,-1367293536,-1367293536,-0.261799,-0.261799,3.57781e-13,-1.5,3.94113e+12,0,0,3,0.971098,0.236485
2100,-3.34121e-12,6.02534e-38,-1.61093e-06,-3.40794e-12,6.02486e-38,0,-1.13815e-13,0,0,-3.01788,0.224239,0.551745,0,0,0,0,0,0.982116,0.224239,-1367305984,-162005477,-1367305984,-162005477,1669537358,-1367305984,-1367293536,-1367293536,-0.261799,-0.261799,3.42937e-13,-1.5,3.94113e+12,0,0,3,0.970963,0.236551
2110,-3.34121e-12,6.02534e-38,-1.61093e-06,-3.40794e-12,6.02486e-38,-3.96878e-12,-1.13815e-13,0,0,-3.00737,0.238167,0.537845,0,0,0,0,0,0.992627,0.238167,-1367305984,-162005477,-1367305984,-162005477,1669537358,-1367305984,-1367293536,-1367293536,-0.261799,-0.261799,2.69444e-13,-1.5,3.94113e+12,0,0,3,0.985851,0.23936
2120,-3.34121e-12,6.02534e-38,-1.61093e-06,-3.40794e-12,6.02486e-38,0,-1.13816e-13,0,0,-3.01237,0.239437,0.546385,0,0,0,0,0,0.987635,0.239437,-1367305984,-162005477,-1367305984,-162005477,1669537358,-1367305984,-1367293536,-1367293536,-0.261799,-0.261799,2.49278e-13,-1.5,3.94113e+12,0,0,3,0.987546,0.23937
2130,-3.34121e-12,6.02534e-38,-1.61093e-06,-3.40794e-12,6.02486e-38,-3.96878e-12,-1.13817e-13,0,0,-3.01237,0.239437,0.546385,0,0,0,0,0,0.987635,0.239437,-1367305984,-162005477,-1367305984,-162005477,1669537358,-1367305984,-1367293536,-1367293536,-0.261799,-0.261799,2.43351e-13,-1.5,3.94113e+12,0,0,3,0.987587,0.239432
2140,-3.34121e-12,6.02534e-38,-1.61093e-06,-3.40794e-12,6.02486e-38,0,-1.13817e-13,0,0,-3.01237,0.239437,0.546385,0,0,0,0,0,0.987635,0.239437,-1367305984,-162005477,-1367305984,-162005477,1669537358,-1367305984,-1367293536,-1367293536,-0.261799,-0.261799,2.33741e-13,-1.5,3.94113e+12,0,0,3,0.987656,0.239536
2150,-3.34121e-12,6.02534e-38,-1.61093e-06,-3.40794e-12,6.02486e-38,-3.96878e-12,-1.13818e-13,0,0,-3.01237,0.239437,0.546385,0,0,0,0,0,0.987635,0.239437,-1367305984,-162005477,-1367305984,-162005477,1669537358,-1367305984,-1367293536,-1367293536,-0.261799,-0.261799,2.24963e-13,-1.5,3.94113e+12,0,0,3,0.987722,0.239634
2160,-3.34121e-12,6.02534e-38,-1.61093e-06,-3.40794e-12,6.02486e-38,0,-1.13818e-13,0,0,-3.01237,0.239437,0.546385,0,0,0,0,0,0.987635,0.239437,-1367305984,-162005477,-1367305984,-162005477,1669537358,-1367305984,-1367293536,-1367293536,-0.261799,-0.261799,2.16072e-13,-1.5,3.94113e+12,0,0,3,0.987791,0.239737
2170,-3.34121e-12,6.02534e-38,-1.61093e-06,-3.40794e-12,6.02486e-38,-3.96878e-12,-1.13819e-13,0,0,-3.01237,0.239437,0.546385,0,0,0,0,0,0.987635,0.239437,-1367305984,-162005477,-1367305984,-162005477,1669537358,-1367305984,-1367293536,-1367293536,-0.261799,-0.261799,2.10084e-13,-1.5,3.94113e+12,0,0,3,0.987839,0.23981
2180,-3.34121e-12,6.02534e-38,-1.61093e-06,-3.40794e-12,6.02486e-38,0,-1.13819e-13,0,0,-3.04158,0.247924,0.562721,0,0,0,0,0,0.958421,0.247924,-1367305984,-162005477,-1367305984,-162005477,1669537358,-1367305984,-1367293536,-1367293536,-0.261799,-0.261799,1.66811e-13,-1.5,3.94113e+12,0,0,3,0.961514,0.241279
2190,-3.34121e-12,6.02534e-38,-1.61093e-06,-3.40794e-12,6.02486e-38,-3.96878e-12,-1.1382e-13,0,0,-2.98697,0.235279,0.522895,0,0,0,0,0,1.01303,0.235279,-1367305984,-162005477,-1367305984,-162005477,1669537358,-1367305984,-1367293536,-1367293536,-0.261799,-0.261799,1.53343e-13,-1.5,3.94113e+12,0,0,3,0.974301,0.240517
2200,-3.34121e-12,6.02534e-38,-1.61093e-06,-3.40794e-12,6.02486e-38,0,-1.1382e-13,0,0,-2.98697,0.235279,0.522895,0,0,0,0,0,1.01303,0.235279,-1367305984,-162005477,-1367305984,-162005477,1669537358,-1367305984,-1367293536,-1367293536,-0.261799,-0.261799,1.49698e-13,-1.5,3.94113e+12,0,0,3,0.974144,0.240586
2210,-3.34121e-12,6.02534e-38,-1.61093e-06,-3.40794e-12,6.02486e-38,-3.96878e-12,-1.13821e-13,0,0,-2.98697,0.235279,0.522895,0,0,0,0,0,1.01303,0.235279,-1367305984,-162005477,-1367305984,-162005477,1669537358,-1367305984,-1367293536,-1367293536,-0.261799,-0.261799,1.44665e-13,-1.5,3.94113e+12,0,0,3,0.973921,0.240684
2220,-3.34121e-12,6.02534e-38,-1.61093e-06,-3.40794e-12,6.02486e-38,0,-1.13821e-13,0,0,-2.98697,0.235279,0.522895,0,0,0,0,0,1.01303,0.235279,-1367305984,-162005477,-1367305984,-162005477,1669537358,-1367305984,-1367293536,-1367293536,-0.261799,-0.261799,1.38663e-13,-1.5,3.94113e+12,0,0,3,0.973646,0.240805
2230,-3.34121e-12,6.02534e-38,-1.61093e-06,-3.40794e-12,6.02486e-38,-3.96878e-12,-1.13822e-13,0,0,-2.98697,0.235279,0.522895,0,0,0,0,0,1.01303,0.235279,-1367305984,-162005477,-1367305984,-162005477,1669537358,-1367305984,-1367293536,-1367293536,-0.261799,-0.261799,1.32643e-13,-1.5,3.94113e+12,0,0,3,0.973357,0.240931
2240,-3.34121e-12,6.02534e-38,-1.61093e-06,-3.40794e-12,6.02486e-38,0,-1.13822e-13,0,0,-2.98697,0.235279,0.522895,0,0,0,0,0,1.01303,0.235279,-1367305984,-162005477,-1367305984,-162005477,1669537358,-1367305984,-1367293536,-1367293536,-0.261799,-0.261799,1.27145e-13,-1.5,3.94113e+12,0,0,3,0.973082,0.241052
2250,-3.34121e-12,6.02534e-38,-1.61093e-06,-3.40794e-12,6.02486e-38,-3.96878e-12,-1.13823e-13,0,0,-3.00521,0.2356,0.544546,0,0,0,0,0,0.99479,0.2356,-1367305984,-162005477,-1367305984,-162005477,1669537358,-1367305984,-1367293536,-1367293536,-0.261799,-0.261799,9.88979e-14,-1.5,3.94113e+12,0,0,3,0.983698,0.241125
2260,-3.34121e-12,6.02534e-38,-1.61093e-06,-3.40794e-12,6.02486e-38,0,-1.13824e-13,0,0,-2.99287,0.237438,0.52893,0,0,0,0,0,1.00713,0.237438,-1367305984,-162005477,-1367305984,-162005477,1669537358,-1367305984,-1367293536,-1367293536,-0.261799,-0.261799,9.16802e-14,-1.5,3.94113e+12,0,0,3,0.996375,0.237881
2270,-3.34121e-12,6.02534e-38,-1.61093e-06,-3.40794e-12,6.02486e-38,-3.96878e-12,-1.13824e-13,0,0,-2.99287,0.237438,0.52893,0,0,0,0,0,1.00713,0.237438,-1367305984,-162005477,-1367305984,-162005477,1669537358,-1367305984,-1367293536,-1367293536,-0.261799,-0.261799,8.93199e-14,-1.5,3.94113e+12,0,0,3,0.996535,0.237883
2280,-3.34121e-12,6.02534e-38,-1.61093e-06,-3.40794e-12,6.02486e-38,0,-1.13825e-13,0,0,-2.99287,0.237438,0.52893,0,0,0,0,0,1.00713,0.237438,-1367305984,-162005477,-1367305984,-162005477,1669537358,-1367305984,-1367293536,-1367293536,-0.261799,-0.261799,8.63171e-14,-1.5,3.94113e+12,0,0,3,0.996744,0.237885
2290,-3.34121e-12,6.02534e-38,-1.61093e-06,-3.40794e-12,6.02486e-38,-3.96878e-12,-1.13825e-13,0,0,-2.99287,0.237438,0.52893,0,0,0,0,0,1.00713,0.237438,-1367305984,-162005477,-1367305984,-162005477,1669537358,-1367305984,-1367293536,-1367293536,-0.261799,-0.261799,8.30783e-14,-1.5,3.94113e+12,0,0,3,0.996978,0.237887
2300,-3.34121e-12,6.02534e-38,-1.61093e-06,-3.40794e-12,6.02486e-38,0,-1.13826e-13,0,0,-3.04096,0.24487,0.551205,0,0,0,0,0,0.959038,0.24487,-1367305984,-162005477,-1367305984,-162005477,1669537358,-1367305984,-1367293536,-1367293536,-0.261799,-0.261799,6.54056e-14,-1.5,3.94113e+12,0,0,3,0.993951,0.238093
2310,-3.34121e-12,6.02534e-38,-1.61093e-06,-3.40794e-12,6.02486e-38,-3.96878e-12,-1.13826e-13,0,0,-3.06494,0.234475,0.579714,0,0,0,0,0,0.935058,0.234475,-1367305984,-162005477,-1367305984,-162005477,1669537358,-1367305984,-1367293536,-1367293536,-0.261799,-0.261799,6.03747e-14,-1.5,3.94113e+12,0,0,3,0.99506,0.23556
2320,-3.34121e-12,6.02534e-38,-1.61093e-06,-3.40794e-12,6.02486e-38,0,-1.13827e-13,0,0,-3.06494,0.234475,0.579714,0,0,0,0,0,0.935058,0.234475,-1367305984,-162005477,-1367305984,-162005477,1669537358,-1367305984,-1367293536,-1367293536,-0.261799,-0.261799,5.89392e-14,-1.5,3.94113e+12,0,0,3,0.995195,0.235514
2330,-3.34121e-12,6.02534e-38,-1.61093e-06,-3.40794e-12,6.02486e-38,-3.96878e-12,-1.13827e-13,0,0,-3.06494,0.234475,0.579714,0,0,0,0,0,0.935058,0.234475,-1367305984,-162005477,-1367305984,-162005477,1669537358,-1367305984,-1367293536,-1367293536,-0.261799,-0.261799,5.71898e-14,-1.5,3.94113e+12,0,0,3,0.995365,0.235456
2340,-3.34121e-12,6.02534e-38,-1.61093e-06,-3.40794e-12,6.02486e-38,0,-1.13828e-13,0,0,-3.06494,0.234475,0.579714,0,0,0,0,0,0.935058,0.234475,-1367305984,-162005477,-1367305984,-162005477,1669537358,-1367305984,-1367293536,-1367293536,-0.261799,-0.261799,5.51546e-14,-1.5,3.94113e+12,0,0,3,0.995568,0.235387
2350,-3.34121e-12,6.02534e-38,-1.61093e-06,-3.40794e-12,6.02486e-38,-3.96878e-12,-1.13828e-13,0,0,-3.06494,0.234475,0.579714,0,0,0,0,0,0.935058,0.234475,-1367305984,-162005477,-1367305984,-162005477,1669537358,-1367305984,-1367293536,-1367293536,-0.261799,-0.261799,4.2793e-14,-1.5,3.94113e+12,0,0,3,0.95525,0.233871
2360,-3.34121e-12,6.02534e-38,-1.61093e-06,-3.40794e-12,6.02486e-38,0,-1.13829e-13,0,0,-3.06494,0.234475,0.579714,0,0,0,0,0,0.935058,0.234475,-1367305984,-162005477,-1367305984,-162005477,1669537358,-1367305984,-1367293536,-1367293536,-0.261799,-0.261799,4.11045e-14,-1.5,3.94113e+12,0,0,3,0.952034,0.234078
2370,-3.34121e-12,6.02534e-38,-1.61093e-06,-3.40794e-12,6.02486e-38,-3.96878e-12,-1.1383e-13,0,0,-3.06494,0.234475,0.579714,0,0,0,0,0,0.935058,0.234475,-1367305984,-162005477,-1367305984,-162005477,1669537358,-1367305984,-1367293536,-1367293536,-0.261799,-0.261799,4.01271e-14,-1.5,3.94113e+12,0,0,3,0.951806,0.234026
2380,-3.34121e-12,6.02534e-38,-1.61093e-06,-3.40794e-12,6.02486e-38,0,-1.1383e-13,0,0,-3.06494,0.234475,0.579714,0,0,0,0,0,0.935058,0.234475,-1367305984,-162005477,-1367305984,-162005477,1669537358,-1367305984,-1367293536,-1367293536,-0.261799,-0.261799,3.89361e-14,-1.5,3.94113e+12,0,0,3,0.95152,0.233961
2390,-3.34121e-12,6.02534e-38,-1.61093e-06,-3.40794e-12,6.02486e-38,-3.96878e-12,-1.13831e-13,0,0,-3.06494,0.234475,0.579714,0,0,0,0,0,0.935058,0.234475,-1367305984,-162005477,-1367305984,-162005477,1669537358,-1367305984,-1367293536,-1367293536,-0.261799,-0.261799,3.80103e-14,-1.5,3.94113e+12,0,0,3,0.951291,0.233909
2400,-3.34121e-12,6.02534e-38,-1.61093e-06,-3.40794e-12,6.02486e-38,0,-1.13831e-13,0,0,-3.06494,0.234475,0.579714,0,0,0,0,0,0.935058,0.234475,-1367305984,-162005477,-1367305984,-162005477,1669537358,-1367305984,-1367293536,-1367293536,-0.261799,-0.261799,3.65094e-14,-1.5,3.94113e+12,0,0,3,0.950911,0.233822
2410,-3.34121e-12,6.02534e-38,-1.61093e-06,-3.40794e-12,6.02486e-38,-3.96878e-12,-1.13832e-13,0,0,-2.93671,0.234114,0.5009,0,0,0,0,0,1.06329,0.234114,-1367305984,-162005477,-1367305984,-162005477,1669537358,-1367305984,-1367293536,-1367293536,-0.261799,-0.261799,2.82753e-14,-1.5,3.94113e+12,0,0,3,0.952693,0.233545
2420,-3.34121e-12,6.02534e-38,-1.61093e-06,-3.40794e-12,6.02486e-38,0,-1.13832e-13,0,0,-3.03955,0.230359,0.549731,0,0,0,0,0,0.960448,0.230359,-1367305984,-162005477,-1367305984,-162005477,1669537358,-1367305984,-1367293536,-1367293536,-0.261799,-0.261799,2.62117e-14,-1.5,3.94113e+12,0,0,3,0.959539,0.233411
2430,-3.34121e-12,6.02534e-38,-1.61093e-06,-3.40794e-12,6.02486e-38,-3.96878e-12,-1.13833e-13,0,0,-3.03955,0.230359,0.549731,0,0,0,0,0,0.960448,0.230359,-1367305984,-162005477,-1367305984,-162005477,1669537358,-1367305984,-1367293536,-1367293536,-0.261799,-0.261799,2.53826e-14,-1.5,3.94113e+12,0,0,3,0.959357,0.233356
2440,-3.34121e-12,6.02534e-38,-1.61093e-06,-3.40794e-12,6.02486e-38,0,-1.13833e-13,0,0,-3.03955,0.230359,0.549731,0,0,0,0,0,0.960448,0.230359,-1367305984,-162005477,-1367305984,-162005477,1669537358,-1367305984,-1367293536,-1367293536,-0.261799,-0.261799,2.48291e-14,-1.5,3.94113e+12,0,0,3,0.959233,0.233318
2450,-3.34121e-12,6.02534e-38,-1.61093e-06,-3.40794e-12,6.02486e-38,-3.96878e-12,-1.13834e-13,0,0,-3.03955,0.230359,0.549731,0,0,0,0,0,0.960448,0.230359,-1367305984,-162005477,-1367305984,-162005477,1669537358,-1367305984,-1367293536,-1367293536,-0.261799,-0.261799,2.39944e-14,-1.5,3.94113e+12,0,0,3,0.95904,0.233259
2460,-3.34121e-12,6.02534e-38,-1.61093e-06,-3.40794e-12,6.02486e-38,0,-1.13834e-13,0,0,-2.94903,0.235599,0.493314,0,0,0,0,0,1.05097,0.235599,-1367305984,-162005477,-1367305984,-162005477,1669537358,-1367305984,-1367293536,-1367293536,-0.261799,-0.261799,1.872e-14,-1.5,3.94113e+12,0,0,3,0.960037,0.232394
2470,-3.34121e-12,6.02534e-38,-1.61093e-06,-3.40794e-12,6.02486e-38,-3.96878e-12,-1.13835e-13,0,0,-2.94903,0.235599,0.493314,0,0,0,0,0,1.05097,0.235599,-1367305984,-162005477,-1367305984,-162005477,1669537358,-1367305984,-1367293536,-1367293536,-0.261799,-0.261799,1.82748e-14,-1.5,3.94113e+12,0,0,3,0.959953,0.232332
2480,-3.34121e-12,6.02534e-38,-1.61093e-06,-3.40794e-12,6.02486e-38,0,-1.13835e-13,0,0,-2.93046,0.242917,0.496078,0,0,0,0,0,1.06954,0.242917,-1367305984,-162005477,-1367305984,-162005477,1669537358,-1367305984,-1367293536,-1367293536,-0.261799,-0.261799,1.73368e-14,-1.5,3.94113e+12,0,0,3,1.01715,0.233228
2490,-3.34121e-12,6.02534e-38,-1.61093e-06,-3.40794e-12,6.02486e-38,-3.96878e-12,-1.13836e-13,0,0,-2.93046,0.242917,0.496078,0,0,0,0,0,1.06954,0.242917,-1367305984,-162005477,-1367305984,-162005477,1669537358,-1367305984,-1367293536,-1367293536,-0.261799,-0.261799,1.67881e-14,-1.5,3.94113e+12,0,0,3,1.01752,0.233177
