timestamp,A_x,A_y,A_z,P,Q,R,Phi,Theta,Psi,poseX,poseY,poseZ,state_X,state_Y,state_Z,state_VzB,state_Bx,state_By,state_Bz,p1_x,p1_y,p2_x,p2_y,p3_x,p3_y,p4_x,p4_y,roll,pitch,yaw,alt,targetHeading,highLevelState,lowLevelState,gateNumber,filtered_x,filtered_y,x_OT,y_OT,vx_OT,vy_OT,filtered_vx,filtered_vygateArearansac_corr_x,ransac_corr_y,ransac_corr_vx,ransac_corr_vy,detectionTimeStamppTermX,dTermX,pTermY,dTermY,vxcmd,vycmd
7641,0,-3.32016e+25,1.19607e-38,-2.07845e-18,-3.71212e-12,-2.07847e-18,0,0,0,0,0,0,0,0,0,0,0,0,0,0,0,0,0,0,0,0,0,0,-0.0348889,0,-1.5,3.94113e+12,0,0,0,0,0,0,0,0,0,0,0,1.9603e-19,0,0,0,0,0,0,0,0,0,0,0
7665,-3.32663e-12,1.27387e-38,-1.61465e-06,-3.40794e-12,1.27375e-38,0,0,0,0,0,0,0,0,0,0,0,0,0,0,0,0,0,0,0,0,0,0,0,-0.0348889,0,-1.5,3.94113e+12,0,0,0,0,0,0,0,0,0,0,0,1.9603e-19,0,0,0,0,0,0,0,0,0,0,0
7680,-3.32663e-12,1.27387e-38,-1.61465e-06,-3.40794e-12,1.27375e-38,0,0,0,0,0,0,0,0,0,0,0,0,0,0,0,0,0,0,0,0,0,0,0,-0.0348889,0,-1.5,3.94113e+12,0,0,0,0,0,0,0,0,0,0,0,1.9603e-19,0,0,0,0,0,0,0,0,0,0,0
7696,-3.32663e-12,1.27387e-38,-1.61465e-06,-3.40794e-12,1.27375e-38,0,0,0,0,0,0,0,0,0,0,0,0,0,0,0,0,0,0,0,0,0,0,0,-0.0348889,0,-1.5,3.94113e+12,0,0,0,0,0,0,0,0,0,0,0,1.9603e-19,0,0,0,0,0,0,0,0,0,0,0
7711,-3.32663e-12,1.27387e-38,-1.61465e-06,-3.40794e-12,1.27375e-38,0,0,0,0,0,0,0,0,0,0,0,0,0,0,0,0,0,0,0,0,0,0,0,-0.0348889,0,-1.5,3.94113e+12,0,0,0,0,0,0,0,0,0,0,0,1.9603e-19,0,0,0,0,0,0,0,0,0,0,0
7727,-3.32663e-12,1.27387e-38,-1.61465e-06,-3.40794e-12,1.27375e-38,0,0,0,0,0,0,0,0,0,0,0,0,0,0,0,0,0,0,0,0,0,0,0,-0.0348889,0,-1.5,3.94113e+12,0,0,0,0,0,0,0,0,0,0,0,1.9603e-19,0,0,0,0,0,0,0,0,0,0,0
7742,-3.32663e-12,1.27387e-38,-1.61465e-06,-3.40794e-12,1.27375e-38,0,0,0,0,0,0,0,0,0,0,0,0,0,0,0,0,0,0,0,0,0,0,0,-0.0348889,0,-1.5,3.94113e+12,0,0,0,0,0,0,0,0,0,0,0,1.9603e-19,0,0,0,0,0,0,0,0,0,0,0
7758,-3.32663e-12,1.27387e-38,-1.61465e-06,-3.40794e-12,1.27375e-38,0,0,0,0,0,0,0,0,0,0,0,0,0,0,0,0,0,0,0,0,0,0,0,-0.0348889,0,-1.5,3.94113e+12,0,0,0,0,0,0,0,0,0,0,0,1.9603e-19,0,0,0,0,0,0,0,0,0,0,0
7779,-3.32663e-12,1.27387e-38,-1.61465e-06,-3.40794e-12,1.27375e-38,0,0,0,0,0,0,0,0,0,0,0,0,0,0,0,0,0,0,0,0,0,0,0,-0.0348889,0,-1.5,3.94113e+12,0,0,0,0,0,0,0,0,0,0,0,1.9603e-19,0,0,0,0,0,0,0,0,0,0,0
7794,-3.32663e-12,1.27387e-38,-1.61465e-06,-3.40794e-12,1.27375e-38,0,0,0,0,0,0,0,0,0,0,0,0,0,0,0,0,0,0,0,0,0,0,0,-0.0348889,0,-1.5,3.94113e+12,0,0,0,0,0,0,0,0,0,0,0,1.9603e-19,0,0,0,0,0,0,0,0,0,0,0
7810,-3.32663e-12,1.27387e-38,-1.61465e-06,-3.40794e-12,1.27375e-38,0,0,0,0,0,0,0,0,0,0,0,0,0,0,0,0,0,0,0,0,0,0,0,-0.0348889,0,-1.5,3.94113e+12,0,0,0,0,0,0,0,0,0,0,0,1.9603e-19,0,0,0,0,0,0,0,0,0,0,0
7826,-3.32663e-12,1.27387e-38,-1.61465e-06,-3.40794e-12,1.27375e-38,0,0,0,0,0,0,0,0,0,0,0,0,0,0,0,0,0,0,0,0,0,0,0,-0.0348889,0,-1.5,3.94113e+12,0,0,0,0,0,0,0,0,0,0,0,1.9603e-19,0,0,0,0,0,0,0,0,0,0,0
7842,-3.32663e-12,1.27387e-38,-1.61465e-06,-3.40794e-12,1.27375e-38,0,0,0,0,0,0,0,0,0,0,0,0,0,0,0,0,0,0,0,0,0,0,0,-0.0348889,0,-1.5,3.94113e+12,0,0,0,0,0,0,0,0,0,0,0,1.9603e-19,0,0,0,0,0,0,0,0,0,0,0
7857,-3.32663e-12,1.27387e-38,-1.61465e-06,-3.40794e-12,1.27375e-38,0,0,0,0,0,0,0,0,0,0,0,0,0,0,0,0,0,0,0,0,0,0,0,-0.0348889,0,-1.5,3.94113e+12,0,0,0,0,0,0,0,0,0,0,0,1.9603e-19,0,0,0,0,0,0,0,0,0,0,0
7873,-3.32663e-12,1.27387e-38,-1.61465e-06,-3.40794e-12,1.27375e-38,0,0,0,0,0,0,0,0,0,0,0,0,0,0,0,0,0,0,0,0,0,0,0,-0.0348889,0,-1.5,3.94113e+12,0,0,0,0,0,0,0,0,0,0,0,1.9603e-19,0,0,0,0,0,0,0,0,0,0,0
7942,-3.32663e-12,1.27387e-38,-1.61465e-06,-3.40794e-12,1.27375e-38,0,0,0,0,0,0,0,0,0,0,0,0,0,0,0,0,0,0,0,0,0,0,0,-0.0348889,0,-1.5,3.94113e+12,0,0,0,0,0,0,0,0,0,0,0,1.9603e-19,0,0,0,0,0,0,0,0,0,0,0
7958,-3.32663e-12,1.27387e-38,-1.61465e-06,-3.40794e-12,1.27375e-38,0,0,0,0,0,0,0,0,0,0,0,0,0,0,0,0,0,0,0,0,0,0,0,-0.0348889,0,-1.5,3.94113e+12,0,0,0,0,0,0,0,0,0,0,0,1.9603e-19,0,0,0,0,0,0,0,0,0,0,0
7973,-3.32663e-12,1.27387e-38,-1.61465e-06,-3.40794e-12,1.27375e-38,0,0,0,0,0,0,0,0,0,0,0,0,0,0,0,0,0,0,0,0,0,0,0,-0.0348889,0,-1.5,3.94113e+12,0,0,0,0,0,0,0,0,0,0,0,1.9603e-19,0,0,0,0,0,0,0,0,0,0,0
7989,-3.32663e-12,1.27387e-38,-1.61465e-06,-3.40794e-12,1.27375e-38,0,0,0,0,0,0,0,0,0,0,0,0,0,0,0,0,0,0,0,0,0,0,0,-0.0348889,0,-1.5,3.94113e+12,0,0,0,0,0,0,0,0,0,0,0,1.9603e-19,0,0,0,0,0,0,0,0,0,0,0
8005,-3.32663e-12,1.27387e-38,-1.61465e-06,-3.40794e-12,1.27375e-38,0,0,0,0,0,0,0,0,0,0,0,0,0,0,0,0,0,0,0,0,0,0,0,-0.0348889,0,-1.5,3.94113e+12,0,0,0,0,0,0,0,0,0,0,0,1.9603e-19,0,0,0,0,0,0,0,0,0,0,0
8030,-3.32663e-12,1.27387e-38,-1.61465e-06,-3.40794e-12,1.27375e-38,0,0,0,0,0,0,0,0,0,0,0,0,0,0,0,0,0,0,0,0,0,0,0,-0.0348889,0,-1.5,3.94113e+12,0,0,0,0,0,0,0,0,0,0,0,1.9603e-19,0,0,0,0,0,0,0,0,0,0,0
8043,-3.32663e-12,1.27387e-38,-1.61465e-06,-3.40794e-12,1.27375e-38,0,0,0,0,0,0,0,0,0,0,0,0,0,0,0,0,0,0,0,0,0,0,0,-0.0348889,0,-1.5,3.94113e+12,0,0,0,0,0,0,0,0,0,0,0,1.9603e-19,0,0,0,0,0,0,0,0,0,0,0
8059,-3.32663e-12,1.27387e-38,-1.61465e-06,-3.40794e-12,1.27375e-38,0,0,0,0,0,0,0,0,0,0,0,0,0,0,0,0,0,0,0,0,0,0,0,-0.0348889,0,-1.5,3.94113e+12,0,0,0,0,0,0,0,0,0,0,0,1.9603e-19,0,0,0,0,0,0,0,0,0,0,0
8074,-3.32663e-12,1.27387e-38,-1.61465e-06,-3.40794e-12,1.27375e-38,0,0,0,0,0,0,0,0,0,0,0,0,0,0,0,0,0,0,0,0,0,0,0,-0.0348889,0,-1.5,3.94113e+12,0,0,0,0,0,0,0,0,0,0,0,1.9603e-19,0,0,0,0,0,0,0,0,0,0,0
8090,-3.32663e-12,1.27387e-38,-1.61465e-06,-3.40794e-12,1.27375e-38,0,0,0,0,0,0,0,0,0,0,0,0,0,0,0,0,0,0,0,0,0,0,0,-0.0348889,0,-1.5,3.94113e+12,0,0,0,0,0,0,0,0,0,0,0,1.9603e-19,0,0,0,0,0,0,0,0,0,0,0
8106,-3.32663e-12,1.27387e-38,-1.61465e-06,-3.40794e-12,1.27375e-38,0,0,0,0,0,0,0,0,0,0,0,0,0,0,0,0,0,0,0,0,0,0,0,-0.0348889,0,-1.5,3.94113e+12,0,0,0,0,0,0,0,0,0,0,0,1.9603e-19,0,0,0,0,0,0,0,0,0,0,0
8122,-3.32663e-12,1.27387e-38,-1.61465e-06,-3.40794e-12,1.27375e-38,0,0,0,0,0,0,0,0,0,0,0,0,0,0,0,0,0,0,0,0,0,0,0,-0.0348889,0,-1.5,3.94113e+12,0,0,0,0,0,0,0,0,0,0,0,1.9603e-19,0,0,0,0,0,0,0,0,0,0,0
8139,-3.32663e-12,1.27387e-38,-1.61465e-06,-3.40794e-12,1.27375e-38,0,0,0,0,0,0,0,0,0,0,0,0,0,0,0,0,0,0,0,0,0,0,0,-0.0348889,0,-1.5,3.94113e+12,0,0,0,0,0,0,0,0,0,0,0,1.9603e-19,0,0,0,0,0,0,0,0,0,0,0
8155,-3.32663e-12,1.27387e-38,-1.61465e-06,-3.40794e-12,1.27375e-38,0,0,0,0,0,0,0,0,0,0,0,0,0,0,0,0,0,0,0,0,0,0,0,-0.0348889,0,-1.5,3.94113e+12,0,0,0,0,0,0,0,0,0,0,0,1.9603e-19,0,0,0,0,0,0,0,0,0,0,0
8171,-3.32663e-12,1.27387e-38,-1.61465e-06,-3.40794e-12,1.27375e-38,0,0,0,0,0,0,0,0,0,0,0,0,0,0,0,0,0,0,0,0,0,0,0,-0.0348889,0,-1.5,3.94113e+12,0,0,0,0,0,0,0,0,0,0,0,1.9603e-19,0,0,0,0,0,0,0,0,0,0,0
8187,-3.32663e-12,1.27387e-38,-1.61465e-06,-3.40794e-12,1.27375e-38,0,0,0,0,0,0,0,0,0,0,0,0,0,0,0,0,0,0,0,0,0,0,0,-0.0348889,0,-1.5,3.94113e+12,0,0,0,0,0,0,0,0,0,0,0,1.9603e-19,0,0,0,0,0,0,0,0,0,0,0
8202,-3.32663e-12,1.27387e-38,-1.61465e-06,-3.40794e-12,1.27375e-38,0,0,0,0,0,0,0,0,0,0,0,0,0,0,0,0,0,0,0,0,0,0,0,-0.0348889,0,-1.5,3.94113e+12,0,0,0,0,0,0,0,0,0,0,0,1.9603e-19,0,0,0,0,0,0,0,0,0,0,0
8219,-3.32663e-12,1.27387e-38,-1.61465e-06,-3.40794e-12,1.27375e-38,0,0,0,0,0,0,0,0,0,0,0,0,0,0,0,0,0,0,0,0,0,0,0,-0.0348889,0,-1.5,3.94113e+12,0,0,0,0,0,0,0,0,0,0,0,1.9603e-19,0,0,0,0,0,0,0,0,0,0,0
8234,-3.32663e-12,1.27387e-38,-1.61465e-06,-3.40794e-12,1.27375e-38,0,0,0,0,0,0,0,0,0,0,0,0,0,0,0,0,0,0,0,0,0,0,0,-0.0348889,0,-1.5,3.94113e+12,0,0,0,0,0,0,0,0,0,0,0,1.9603e-19,0,0,0,0,0,0,0,0,0,0,0
8250,-3.32663e-12,1.27387e-38,-1.61465e-06,-3.40794e-12,1.27375e-38,0,0,0,0,0,0,0,0,0,0,0,0,0,0,0,0,0,0,0,0,0,0,0,-0.0348889,0,-1.5,3.94113e+12,0,0,0,0,0,0,0,0,0,0,0,1.9603e-19,0,0,0,0,0,0,0,0,0,0,0
8266,-3.32663e-12,1.27387e-38,-1.61465e-06,-3.40794e-12,1.27375e-38,0,0,0,0,0,0,0,0,0,0,0,0,0,0,0,0,0,0,0,0,0,0,0,-0.0348889,0,-1.5,3.94113e+12,0,0,0,0,0,0,0,0,0,0,0,1.9603e-19,0,0,0,0,0,0,0,0,0,0,0
8282,-3.32663e-12,1.27387e-38,-1.61465e-06,-3.40794e-12,1.27375e-38,0,0,0,0,0,0,0,0,0,0,0,0,0,0,0,0,0,0,0,0,0,0,0,-0.0348889,0,-1.5,3.94113e+12,0,0,0,0,0,0,0,0,0,0,0,1.9603e-19,0,0,0,0,0,0,0,0,0,0,0
8330,-3.32663e-12,1.27387e-38,-1.61465e-06,-3.40794e-12,1.27375e-38,0,0,0,0,0,0,0,0,0,0,0,0,0,0,0,0,0,0,0,0,0,0,0,-0.0348889,0,-1.5,3.94113e+12,0,0,0,0,0,0,0,0,0,0,0,1.9603e-19,0,0,0,0,0,0,0,0,0,0,0
8346,-3.32663e-12,1.27387e-38,-1.61465e-06,-3.40794e-12,1.27375e-38,0,0,0,0,0,0,0,0,0,0,0,0,0,0,0,0,0,0,0,0,0,0,0,-0.0348889,0,-1.5,3.94113e+12,0,0,0,0,0,0,0,0,0,0,0,1.9603e-19,0,0,0,0,0,0,0,0,0,0,0
8362,-3.32663e-12,1.27387e-38,-1.61465e-06,-3.40794e-12,1.27375e-38,0,0,0,0,0,0,0,0,0,0,0,0,0,0,0,0,0,0,0,0,0,0,0,-0.0348889,0,-1.5,3.94113e+12,0,0,0,0,0,0,0,0,0,0,0,1.9603e-19,0,0,0,0,0,0,0,0,0,0,0
8380,-3.32663e-12,1.27387e-38,-1.61465e-06,-3.40794e-12,1.27375e-38,0,0,0,0,0,0,0,0,0,0,0,0,0,0,0,0,0,0,0,0,0,0,0,-0.0348889,0,-1.5,3.94113e+12,0,0,0,0,0,0,0,0,0,0,0,1.9603e-19,0,0,0,0,0,0,0,0,0,0,0
8395,-3.32663e-12,1.27387e-38,-1.61465e-06,-3.40794e-12,1.27375e-38,0,0,0,0,0,0,0,0,0,0,0,0,0,0,0,0,0,0,0,0,0,0,0,-0.0348889,0,-1.5,3.94113e+12,0,0,0,0,0,0,0,0,0,0,0,1.9603e-19,0,0,0,0,0,0,0,0,0,0,0
8407,-3.32663e-12,1.27387e-38,-1.61465e-06,-3.40794e-12,1.27375e-38,0,0,0,0,0,0,0,0,0,0,0,0,0,0,0,0,0,0,0,0,0,0,0,-0.0348889,0,-1.5,3.94113e+12,0,0,0,0,0,0,0,0,0,0,0,1.9603e-19,0,0,0,0,0,0,0,0,0,0,0
8423,-3.32663e-12,1.27387e-38,-1.61465e-06,-3.40794e-12,1.27375e-38,0,0,0,0,0,0,0,0,0,0,0,0,0,0,0,0,0,0,0,0,0,0,0,-0.0348889,0,-1.5,3.94113e+12,0,0,0,0,0,0,0,0,0,0,0,1.9603e-19,0,0,0,0,0,0,0,0,0,0,0
8439,-3.32663e-12,1.27387e-38,-1.61465e-06,-3.40794e-12,1.27375e-38,0,0,0,0,0,0,0,0,0,0,0,0,0,0,0,0,0,0,0,0,0,0,0,-0.0348889,0,-1.5,3.94113e+12,0,0,0,0,0,0,0,0,0,0,0,1.9603e-19,0,0,0,0,0,0,0,0,0,0,0
8455,-3.32663e-12,1.27387e-38,-1.61465e-06,-3.40794e-12,1.27375e-38,0,0,0,0,0,0,0,0,0,0,0,0,0,0,0,0,0,0,0,0,0,0,0,-0.0348889,0,-1.5,3.94113e+12,0,0,0,0,0,0,0,0,0,0,0,1.9603e-19,0,0,0,0,0,0,0,0,0,0,0
8471,-3.32663e-12,1.27387e-38,-1.61465e-06,-3.40794e-12,1.27375e-38,0,0,0,0,0,0,0,0,0,0,0,0,0,0,0,0,0,0,0,0,0,0,0,-0.0348889,0,-1.5,3.94113e+12,0,0,0,0,0,0,0,0,0,0,0,1.9603e-19,0,0,0,0,0,0,0,0,0,0,0
8486,-3.32663e-12,1.27387e-38,-1.61465e-06,-3.40794e-12,1.27375e-38,0,0,0,0,0,0,0,0,0,0,0,0,0,0,0,0,0,0,0,0,0,0,0,-0.0348889,0,-1.5,3.94113e+12,0,0,0,0,0,0,0,0,0,0,0,1.9603e-19,0,0,0,0,0,0,0,0,0,0,0
8501,-3.32663e-12,1.27387e-38,-1.61465e-06,-3.40794e-12,1.27375e-38,0,0,0,0,0,0,0,0,0,0,0,0,0,0,0,0,0,0,0,0,0,0,0,-0.0348889,0,-1.5,3.94113e+12,0,0,0,0,0,0,0,0,0,0,0,1.9603e-19,0,0,0,0,0,0,0,0,0,0,0
8516,-3.32663e-12,1.27387e-38,-1.61465e-06,-3.40794e-12,1.27375e-38,0,0,0,0,0,0,0,0,0,0,0,0,0,0,0,0,0,0,0,0,0,0,0,-0.0348889,0,-1.5,3.94113e+12,0,0,0,0,0,0,0,0,0,0,0,1.9603e-19,0,0,0,0,0,0,0,0,0,0,0
8533,-3.32663e-12,1.27387e-38,-1.61465e-06,-3.40794e-12,1.27375e-38,0,0,0,0,0,0,0,0,0,0,0,0,0,0,0,0,0,0,0,0,0,0,0,-0.0348889,0,-1.5,3.94113e+12,0,0,0,0,0,0,0,0,0,0,0,1.9603e-19,0,0,0,0,0,0,0,0,0,0,0
8548,-3.32663e-12,1.27387e-38,-1.61465e-06,-3.40794e-12,1.27375e-38,0,0,0,0,0,0,0,0,0,0,0,0,0,0,0,0,0,0,0,0,0,0,0,-0.0348889,0,-1.5,3.94113e+12,0,0,0,0,0,0,0,0,0,0,0,1.9603e-19,0,0,0,0,0,0,0,0,0,0,0
8564,-3.32663e-12,1.27387e-38,-1.61465e-06,-3.40794e-12,1.27375e-38,0,0,0,0,0,0,0,0,0,0,0,0,0,0,0,0,0,0,0,0,0,0,0,-0.0348889,0,-1.5,3.94113e+12,0,0,0,0,0,0,0,0,0,0,0,1.9603e-19,0,0,0,0,0,0,0,0,0,0,0
8579,-3.32663e-12,1.27387e-38,-1.61465e-06,-3.40794e-12,1.27375e-38,0,0,0,0,0,0,0,0,0,0,0,0,0,0,0,0,0,0,0,0,0,0,0,-0.0348889,0,-1.5,3.94113e+12,0,0,0,0,0,0,0,0,0,0,0,1.9603e-19,0,0,0,0,0,0,0,0,0,0,0
8595,-3.32663e-12,1.27387e-38,-1.61465e-06,-3.40794e-12,1.27375e-38,0,0,0,0,0,0,0,0,0,0,0,0,0,0,0,0,0,0,0,0,0,0,0,-0.0348889,0,-1.5,3.94113e+12,0,0,0,0,0,0,0,0,0,0,0,1.9603e-19,0,0,0,0,0,0,0,0,0,0,0
8611,-3.32663e-12,1.27387e-38,-1.61465e-06,-3.40794e-12,1.27375e-38,0,0,0,0,0,0,0,0,0,0,0,0,0,0,0,0,0,0,0,0,0,0,0,-0.0348889,0,-1.5,3.94113e+12,0,0,0,0,0,0,0,0,0,0,0,1.9603e-19,0,0,0,0,0,0,0,0,0,0,0
8627,-3.32663e-12,1.27387e-38,-1.61465e-06,-3.40794e-12,1.27375e-38,0,0,0,0,0,0,0,0,0,0,0,0,0,0,0,0,0,0,0,0,0,0,0,-0.0348889,0,-1.5,3.94113e+12,0,0,0,0,0,0,0,0,0,0,0,1.9603e-19,0,0,0,0,0,0,0,0,0,0,0
8643,-3.32663e-12,1.27387e-38,-1.61465e-06,-3.40794e-12,1.27375e-38,0,0,0,0,0,0,0,0,0,0,0,0,0,0,0,0,0,0,0,0,0,0,0,-0.0348889,0,-1.5,3.94113e+12,0,0,0,0,0,0,0,0,0,0,0,1.9603e-19,0,0,0,0,0,0,0,0,0,0,0
8659,-3.32663e-12,1.27387e-38,-1.61465e-06,-3.40794e-12,1.27375e-38,0,0,0,0,0,0,0,0,0,0,0,0,0,0,0,0,0,0,0,0,0,0,0,-0.0348889,0,-1.5,3.94113e+12,0,0,0,0,0,0,0,0,0,0,0,1.9603e-19,0,0,0,0,0,0,0,0,0,0,0
8675,-3.32663e-12,1.27387e-38,-1.61465e-06,-3.40794e-12,1.27375e-38,0,0,0,0,0,0,0,0,0,0,0,0,0,0,0,0,0,0,0,0,0,0,0,-0.0348889,0,-1.5,3.94113e+12,0,0,0,0,0,0,0,0,0,0,0,1.9603e-19,0,0,0,0,0,0,0,0,0,0,0
8690,-3.32663e-12,1.27387e-38,-1.61465e-06,-3.40794e-12,1.27375e-38,0,0,0,0,0,0,0,0,0,0,0,0,0,0,0,0,0,0,0,0,0,0,0,-0.0348889,0,-1.5,3.94113e+12,0,0,0,0,0,0,0,0,0,0,0,1.9603e-19,0,0,0,0,0,0,0,0,0,0,0
8703,-3.32663e-12,1.27387e-38,-1.61465e-06,-3.40794e-12,1.27375e-38,0,0,0,0,0,0,0,0,0,0,0,0,0,0,0,0,0,0,0,0,0,0,0,-0.0348889,0,-1.5,3.94113e+12,0,0,0,0,0,0,0,0,0,0,0,1.9603e-19,0,0,0,0,0,0,0,0,0,0,0
8717,-3.32663e-12,1.27387e-38,-1.61465e-06,-3.40794e-12,1.27375e-38,0,0,0,0,0,0,0,0,0,0,0,0,0,0,0,0,0,0,0,0,0,0,0,-0.0348889,0,-1.5,3.94113e+12,0,0,0,0,0,0,0,0,0,0,0,1.9603e-19,0,0,0,0,0,0,0,0,0,0,0
8731,-3.32663e-12,1.27387e-38,-1.61465e-06,-3.40794e-12,1.27375e-38,0,0,0,0,0,0,0,0,0,0,0,0,0,0,0,0,0,0,0,0,0,0,0,-0.0348889,0,-1.5,3.94113e+12,0,0,0,0,0,0,0,0,0,0,0,1.9603e-19,0,0,0,0,0,0,0,0,0,0,0
8746,-3.32663e-12,1.27387e-38,-1.61465e-06,-3.40794e-12,1.27375e-38,0,0,0,0,0,0,0,0,0,0,0,0,0,0,0,0,0,0,0,0,0,0,0,-0.0348889,0,-1.5,3.94113e+12,0,0,0,0,0,0,0,0,0,0,0,1.9603e-19,0,0,0,0,0,0,0,0,0,0,0
8762,-3.32663e-12,1.27387e-38,-1.61465e-06,-3.40794e-12,1.27375e-38,0,0,0,0,0,0,0,0,0,0,0,0,0,0,0,0,0,0,0,0,0,0,0,-0.0348889,0,-1.5,3.94113e+12,0,0,0,0,0,0,0,0,0,0,0,1.9603e-19,0,0,0,0,0,0,0,0,0,0,0
8777,-3.32663e-12,1.27387e-38,-1.61465e-06,-3.40794e-12,1.27375e-38,0,0,0,0,0,0,0,0,0,0,0,0,0,0,0,0,0,0,0,0,0,0,0,-0.0348889,0,-1.5,3.94113e+12,0,0,0,0,0,0,0,0,0,0,0,1.9603e-19,0,0,0,0,0,0,0,0,0,0,0
8793,-3.32663e-12,1.27387e-38,-1.61465e-06,-3.40794e-12,1.27375e-38,0,0,0,0,0,0,0,0,0,0,0,0,0,0,0,0,0,0,0,0,0,0,0,-0.0348889,0,-1.5,3.94113e+12,0,0,0,0,0,0,0,0,0,0,0,1.9603e-19,0,0,0,0,0,0,0,0,0,0,0
8809,-3.32663e-12,1.27387e-38,-1.61465e-06,-3.40794e-12,1.27375e-38,0,0,0,0,0,0,0,0,0,0,0,0,0,0,0,0,0,0,0,0,0,0,0,-0.0348889,0,-1.5,3.94113e+12,0,0,0,0,0,0,0,0,0,0,0,1.9603e-19,0,0,0,0,0,0,0,0,0,0,0
8825,-3.32663e-12,1.27387e-38,-1.61465e-06,-3.40794e-12,1.27375e-38,0,0,0,0,0,0,0,0,0,0,0,0,0,0,0,0,0,0,0,0,0,0,0,-0.0348889,0,-1.5,3.94113e+12,0,0,0,0,0,0,0,0,0,0,0,1.9603e-19,0,0,0,0,0,0,0,0,0,0,0
8840,-3.32663e-12,1.27387e-38,-1.61465e-06,-3.40794e-12,1.27375e-38,0,0,0,0,0,0,0,0,0,0,0,0,0,0,0,0,0,0,0,0,0,0,0,-0.0348889,0,-1.5,3.94113e+12,0,0,0,0,0,0,0,0,0,0,0,1.9603e-19,0,0,0,0,0,0,0,0,0,0,0
8856,-3.32663e-12,1.27387e-38,-1.61465e-06,-3.40794e-12,1.27375e-38,0,0,0,0,0,0,0,0,0,0,0,0,0,0,0,0,0,0,0,0,0,0,0,-0.0348889,0,-1.5,3.94113e+12,0,0,0,0,0,0,0,0,0,0,0,1.9603e-19,0,0,0,0,0,0,0,0,0,0,0
8871,-3.32663e-12,1.27387e-38,-1.61465e-06,-3.40794e-12,1.27375e-38,0,0,0,0,0,0,0,0,0,0,0,0,0,0,0,0,0,0,0,0,0,0,0,-0.0348889,0,-1.5,3.94113e+12,0,0,0,0,0,0,0,0,0,0,0,1.9603e-19,0,0,0,0,0,0,0,0,0,0,0
8887,-3.32663e-12,1.27387e-38,-1.61465e-06,-3.40794e-12,1.27375e-38,0,0,0,0,0,0,0,0,0,0,0,0,0,0,0,0,0,0,0,0,0,0,0,-0.0348889,0,-1.5,3.94113e+12,0,0,0,0,0,0,0,0,0,0,0,1.9603e-19,0,0,0,0,0,0,0,0,0,0,0
8902,-3.32663e-12,1.27387e-38,-1.61465e-06,-3.40794e-12,1.27375e-38,0,0,0,0,0,0,0,0,0,0,0,0,0,0,0,0,0,0,0,0,0,0,0,-0.0348889,0,-1.5,3.94113e+12,0,0,0,0,0,0,0,0,0,0,0,1.9603e-19,0,0,0,0,0,0,0,0,0,0,0
8918,-3.32663e-12,1.27387e-38,-1.61465e-06,-3.40794e-12,1.27375e-38,0,0,0,0,0,0,0,0,0,0,0,0,0,0,0,0,0,0,0,0,0,0,0,-0.0348889,0,-1.5,3.94113e+12,0,0,0,0,0,0,0,0,0,0,0,1.9603e-19,0,0,0,0,0,0,0,0,0,0,0
8935,-3.32663e-12,1.27387e-38,-1.61465e-06,-3.40794e-12,1.27375e-38,0,0,0,0,0,0,0,0,0,0,0,0,0,0,0,0,0,0,0,0,0,0,0,-0.0348889,0,-1.5,3.94113e+12,0,0,0,0,0,0,0,0,0,0,0,1.9603e-19,0,0,0,0,0,0,0,0,0,0,0
8950,-3.32663e-12,1.27387e-38,-1.61465e-06,-3.40794e-12,1.27375e-38,0,0,0,0,0,0,0,0,0,0,0,0,0,0,0,0,0,0,0,0,0,0,0,-0.0348889,0,-1.5,3.94113e+12,0,0,0,0,0,0,0,0,0,0,0,1.9603e-19,0,0,0,0,0,0,0,0,0,0,0
8966,-3.32663e-12,1.27387e-38,-1.61465e-06,-3.40794e-12,1.27375e-38,0,0,0,0,0,0,0,0,0,0,0,0,0,0,0,0,0,0,0,0,0,0,0,-0.0348889,0,-1.5,3.94113e+12,0,0,0,0,0,0,0,0,0,0,0,1.9603e-19,0,0,0,0,0,0,0,0,0,0,0
8981,-3.32663e-12,1.27387e-38,-1.61465e-06,-3.40794e-12,1.27375e-38,0,0,0,0,0,0,0,0,0,0,0,0,0,0,0,0,0,0,0,0,0,0,0,-0.0348889,0,-1.5,3.94113e+12,0,0,0,0,0,0,0,0,0,0,0,1.9603e-19,0,0,0,0,0,0,0,0,0,0,0
8997,-3.32663e-12,1.27387e-38,-1.61465e-06,-3.40794e-12,1.27375e-38,0,0,0,0,0,0,0,0,0,0,0,0,0,0,0,0,0,0,0,0,0,0,0,-0.0348889,0,-1.5,3.94113e+12,0,0,0,0,0,0,0,0,0,0,0,1.9603e-19,0,0,0,0,0,0,0,0,0,0,0
9013,-3.32663e-12,1.27387e-38,-1.61465e-06,-3.40794e-12,1.27375e-38,0,0,0,0,0,0,0,0,0,0,0,0,0,0,0,0,0,0,0,0,0,0,0,-0.0348889,0,-1.5,3.94113e+12,0,0,0,0,0,0,0,0,0,0,0,1.9603e-19,0,0,0,0,0,0,0,0,0,0,0
9027,-3.32663e-12,1.27387e-38,-1.61465e-06,-3.40794e-12,1.27375e-38,0,0,0,0,0,0,0,0,0,0,0,0,0,0,0,0,0,0,0,0,0,0,0,-0.0348889,0,-1.5,3.94113e+12,0,0,0,0,0,0,0,0,0,0,0,1.9603e-19,0,0,0,0,0,0,0,0,0,0,0
9040,-3.32663e-12,1.27387e-38,-1.61465e-06,-3.40794e-12,1.27375e-38,0,0,0,0,0,0,0,0,0,0,0,0,0,0,0,0,0,0,0,0,0,0,0,-0.0348889,0,-1.5,3.94113e+12,0,0,0,0,0,0,0,0,0,0,0,1.9603e-19,0,0,0,0,0,0,0,0,0,0,0
9056,-3.32663e-12,1.27387e-38,-1.61465e-06,-3.40794e-12,1.27375e-38,0,0,0,0,0,0,0,0,0,0,0,0,0,0,0,0,0,0,0,0,0,0,0,-0.0348889,0,-1.5,3.94113e+12,0,0,0,0,0,0,0,0,0,0,0,1.9603e-19,0,0,0,0,0,0,0,0,0,0,0
9071,-3.32663e-12,1.27387e-38,-1.61465e-06,-3.40794e-12,1.27375e-38,0,0,0,0,0,0,0,0,0,0,0,0,0,0,0,0,0,0,0,0,0,0,0,-0.0348889,0,-1.5,3.94113e+12,0,0,0,0,0,0,0,0,0,0,0,1.9603e-19,0,0,0,0,0,0,0,0,0,0,0
9180,-3.32663e-12,1.27387e-38,-1.61465e-06,-3.40794e-12,1.27375e-38,0,0,0,0,0,0,0,0,0,0,0,0,0,0,0,0,0,0,0,0,0,0,0,-0.0348889,0,-1.5,3.94113e+12,0,0,0,0,0,0,0,0,0,0,0,1.9603e-19,0,0,0,0,0,0,0,0,0,0,0
10546,-3.32663e-12,1.27387e-38,-1.61465e-06,-3.40794e-12,1.27375e-38,0,0,0,0,0,0,0,0,0,0,0,0,0,0,0,0,0,0,0,0,0,0,0,-0.0348889,0,-1.5,3.94113e+12,0,0,0,0,0,0,0,0,0,0,0,1.9603e-19,0,0,0,0,0,0,0,0,0,0,0
10561,-3.32663e-12,1.27387e-38,-1.61465e-06,-3.40794e-12,1.27375e-38,0,0,0,0,0,0,0,0,0,0,0,0,0,0,0,0,0,0,0,0,0,0,0,-0.0348889,0,-1.5,3.94113e+12,0,0,0,0,0,0,0,0,0,0,0,1.9603e-19,0,0,0,0,0,0,0,0,0,0,0
10576,-3.32663e-12,1.27387e-38,-1.61465e-06,-3.40794e-12,1.27375e-38,0,0,0,0,0,0,0,0,0,0,0,0,0,0,0,0,0,0,0,0,0,0,0,-0.0348889,0,-1.5,3.94113e+12,0,0,0,0,0,0,0,0,0,0,0,1.9603e-19,0,0,0,0,0,0,0,0,0,0,0
10592,-3.32663e-12,1.27387e-38,-1.61465e-06,-3.40794e-12,1.27375e-38,0,0,0,0,0,0,0,0,0,0,0,0,4.4,0,-1367297680,-1019301486,-1367297680,-1019301486,990790248,-1367297680,-1367292800,-1367292800,0,-0.0348889,0,-1.5,3.94113e+12,0,0,0,0,0,0,0,0,0,0,0,0,0,0,0,0,10592,0,0,0,0,0,0
10609,-3.32663e-12,1.27387e-38,-1.61465e-06,-3.40794e-12,1.27375e-38,0,0,0,0,0,0,0,0,0,0,0,0,4.4,0,-1367297680,-1019301486,-1367297680,-1019301486,990790248,-1367297680,-1367292800,-1367292800,0,-0.0348889,0,-1.5,3.94113e+12,0,0,0,0,0,0,0,0,0,0,0,0,0,0,0,0,10592,0,0,0,0,0,0
10625,-3.32663e-12,1.27387e-38,-1.61465e-06,-3.40794e-12,1.27375e-38,0,0,0,0,0,0,0,0,0,0,0,0,4.4,0,-1367297680,-1019301486,-1367297680,-1019301486,990790248,-1367297680,-1367292800,-1367292800,0,-0.0348889,0,-1.5,3.94113e+12,0,0,0,0,0,0,0,0,0,0,0,0,0,0,0,0,10592,0,0,0,0,0,0
10640,-3.32663e-12,1.27387e-38,-1.61465e-06,-3.40794e-12,1.27375e-38,0,0,0,0,0,0,0,0,0,0,0,0,4.4,0,-1367297680,-1019301486,-1367297680,-1019301486,990790248,-1367297680,-1367292800,-1367292800,0,-0.0348889,0,-1.5,3.94113e+12,0,0,0,0,0,0,0,0,0,0,0,0,0,0,0,0,10592,0,0,0,0,0,0
10656,-3.32663e-12,1.27387e-38,-1.61465e-06,-3.40794e-12,1.27375e-38,0,0,0,0,0,0,0,0,0,0,0,0,4.4,0,-1367297680,-1019301486,-1367297680,-1019301486,990790248,-1367297680,-1367292800,-1367292800,0,-0.0348889,0,-1.5,3.94113e+12,0,0,0,0,0,0,0,0,0,0,0,0,0,0,0,0,10592,0,0,0,0,0,0
10671,-3.32663e-12,1.27387e-38,-1.61465e-06,-3.40794e-12,1.27375e-38,0,0,0,0,0,0,0,0,0,0,0,0,4.4,0,-1367297680,-1019301486,-1367297680,-1019301486,990790248,-1367297680,-1367292800,-1367292800,0,-0.0348889,0,-1.5,3.94113e+12,0,0,0,0,0,0,0,0,0,0,0,0,0,0,0,0,10592,0,0,0,0,0,0
10686,-3.32663e-12,1.27387e-38,-1.61465e-06,-3.40794e-12,1.27375e-38,0,0,0,0,0,0,0,0,0,0,0,0,4.4,0,-1367297680,-1019301486,-1367297680,-1019301486,990790248,-1367297680,-1367292800,-1367292800,0,-0.0348889,0,-1.5,3.94113e+12,0,0,0,0,0,0,0,0,0,0,0,0,0,0,0,0,10592,0,0,0,0,0,0
10701,-3.32663e-12,1.27387e-38,-1.61465e-06,-3.40794e-12,1.27375e-38,0,0,0,0,0,0,0,0,0,0,0,0,4.4,0,-1367297680,-1019301486,-1367297680,-1019301486,990790248,-1367297680,-1367292800,-1367292800,0,-0.0348889,0,-1.5,3.94113e+12,0,0,0,0,0,0,0,0,0,0,0,0,0,0,0,0,10592,0,0,0,0,0,0
10716,-3.32663e-12,1.27387e-38,-1.61465e-06,-3.40794e-12,1.27375e-38,0,0,0,0,0,0,0,0,0,0,0,0,4.4,0,-1367297680,-1019301486,-1367297680,-1019301486,990790248,-1367297680,-1367292800,-1367292800,0,-0.0348889,0,-1.5,3.94113e+12,0,0,0,0,0,0,0,0,0,0,0,0,0,0,0,0,10592,0,0,0,0,0,0
10730,-3.32663e-12,1.27387e-38,-1.61465e-06,-3.40794e-12,1.27375e-38,0,0,0,0,0,0,0,0,0,0,0,0,4.4,0,-1367297680,-1019301486,-1367297680,-1019301486,990790248,-1367297680,-1367292800,-1367292800,0,-0.0348889,0,-1.5,3.94113e+12,0,0,0,0,0,0,0,0,0,0,0,0,0,0,0,0,10592,0,0,0,0,0,0
10743,-3.32663e-12,1.27387e-38,-1.61465e-06,-3.40794e-12,1.27375e-38,0,0,0,0,0,0,0,0,0,0,0,0,4.4,0,-1367297680,-1019301486,-1367297680,-1019301486,990790248,-1367297680,-1367292800,-1367292800,0,-0.0348889,0,-1.5,3.94113e+12,0,0,0,0,0,0,0,0,0,0,0,0,0,0,0,0,10592,0,0,0,0,0,0
10759,-3.32663e-12,1.27387e-38,-1.61465e-06,-3.40794e-12,1.27375e-38,0,0,0,0,0,0,0,0,0,0,0,0,4.4,0,-1367297680,-1019301486,-1367297680,-1019301486,990790248,-1367297680,-1367292800,-1367292800,0,-0.0348889,0,-1.5,3.94113e+12,0,0,0,0,0,0,0,0,0,0,0,0,0,0,0,0,10592,0,0,0,0,0,0
10774,-3.32663e-12,1.27387e-38,-1.61465e-06,-3.40794e-12,1.27375e-38,0,0,0,0,-3.44189,0.217863,0.512936,0,0,0,0,0,-0.315386,0.217863,225,-76,225,-76,354,-91,235,53,0,-0.0348889,0,-1.5,3.94113e+12,0,0,0,0,0,0,0,0,0,0,0,20016,0,0,0,0,10765,0,0,0,0,0,0
10789,-3.32663e-12,1.27387e-38,-1.61465e-06,-3.40794e-12,1.27375e-38,0,0,0,0,-3.45035,0.218723,0.514163,0,0,0,0,0,-0.326973,0.218723,225,-74,225,-74,354,-91,235,53,0,-0.0348889,0,-1.5,3.94113e+12,0,0,0,0,0,0,0,0,0,0,0,20016,0,0,0,0,10789,0,0,0,0,0,0
10805,-3.32663e-12,1.27387e-38,-1.61465e-06,-3.40794e-12,1.27375e-38,0,0,0,0,-3.45035,0.218723,0.514163,0,0,0,0,0,-0.326973,0.218723,225,-74,225,-74,354,-91,235,53,0,-0.0348889,0,-1.5,3.94113e+12,0,0,0,0,0,0,0,0,0,0,0,20016,0,0,0,0,10789,0,0,0,0,0,0
10820,-3.32663e-12,1.27387e-38,-1.61465e-06,-3.40794e-12,1.27375e-38,0,0,0,0,-3.45035,0.218723,0.514163,0,0,0,0,0,-0.326973,0.218723,225,-74,225,-74,354,-91,235,53,0,-0.0348889,0,-1.5,3.94113e+12,0,0,0,0,0,0,0,0,0,0,0,20016,0,0,0,0,10789,0,0,0,0,0,0
10841,-3.32663e-12,1.27387e-38,-1.61465e-06,-3.40794e-12,1.27375e-38,0,0,0,0,-3.45035,0.218723,0.514163,0,0,0,0,0,-0.326973,0.218723,225,-74,225,-74,354,-91,235,53,-0.0670903,-0.0348889,0,-1.5,3.94113e+12,0,0,0,-0.330898,0.219014,0,0,0,0,-0.186893,0.0138608,20016,-0.326973,0.218723,-0.186893,0.0138608,10826,0,0,0,0,0,0
10859,-3.32663e-12,1.27387e-38,-1.61465e-06,-3.40794e-12,1.27375e-38,0,0,0,0,-3.48587,0.229387,0.535953,0,0,0,0,0,-0.375646,0.229387,225,-74,225,-74,354,-91,235,53,-0.0849717,-0.0348889,0,-1.5,3.94113e+12,0,0,0,-0.379278,0.230183,0,0,0,0,-0.726443,0.159168,19440,-0.375646,0.229387,-0.726443,0.159168,10856,0,0,0,0,0,0
10875,-3.32663e-12,1.27387e-38,-1.61465e-06,-3.40794e-12,1.27375e-38,0,0,0,0,-3.48587,0.229387,0.535953,0,0,0,0,0,-0.375646,0.229387,225,-74,225,-74,354,-91,235,53,-0.085688,-0.0348889,0,-1.5,3.94113e+12,0,0,0,-0.390175,0.232571,0,0,0,0,-0.726443,0.159168,19440,-0.375646,0.229387,-0.726443,0.159168,10856,0,0,0,0,0,0
10890,-3.32663e-12,1.27387e-38,-1.61465e-06,-3.40794e-12,1.27375e-38,0,0,0,0,-3.48587,0.229387,0.535953,0,0,0,0,0,-0.375646,0.229387,225,-74,225,-74,354,-91,235,53,-0.086452,-0.0348889,0,-1.5,3.94113e+12,0,0,0,-0.401799,0.235117,0,0,0,0,-0.726443,0.159168,19440,-0.375646,0.229387,-0.726443,0.159168,10856,0,0,0,0,0,0
10908,-3.32663e-12,1.27387e-38,-1.61465e-06,-3.40794e-12,1.27375e-38,0,0,0,0,-3.44823,0.23101,0.514621,0,0,0,0,0,-0.324073,0.23101,222,-75,222,-75,354,-91,235,53,-0.0818762,-0.0348889,0,-1.5,3.94113e+12,0,0,0,-0.326974,0.233157,0,0,0,0,-8.14484e-07,0.11929,20016,-0.326974,0.23101,-8.14484e-07,0.11929,10897,0,0,0,0,0,0
10923,-3.32663e-12,1.27387e-38,-1.61465e-06,-3.40794e-12,1.27375e-38,0,0,0,0,-3.44823,0.23101,0.514621,0,0,0,0,0,-0.324073,0.23101,222,-75,222,-75,354,-91,235,53,-0.082413,-0.0348889,0,-1.5,3.94113e+12,0,0,0,-0.326974,0.234947,0,0,0,0,-8.14484e-07,0.11929,20016,-0.326974,0.23101,-8.14484e-07,0.11929,10897,0,0,0,0,0,0
10942,-3.32663e-12,1.27387e-38,-1.61465e-06,-3.40794e-12,1.27375e-38,0,0,0,0,-3.35566,0.218713,0.478463,0,0,0,0,0,-0.197258,0.218713,221,-87,221,-87,354,-91,235,53,-0.0699583,-0.0348889,0,-1.5,3.94113e+12,0,0,0,-0.322608,0.223316,0,0,0,0,0.0281606,0.0296344,20592,-0.323144,0.222753,0.0281606,0.0296344,10930,0,0,0,0,0,0
10963,-3.32663e-12,1.27387e-38,-1.61465e-06,-3.40794e-12,1.27375e-38,0,0,0,0,-3.45686,0.233676,0.519922,0,0,0,0,0,-0.335904,0.233676,222,-75,222,-75,354,-91,235,53,-0.0783878,-0.0348889,0,-1.5,3.94113e+12,0,0,0,-0.336503,0.234402,0,0,0,0,-0.0666422,0.080673,19872,-0.335904,0.233676,-0.0666422,0.080673,10956,0,0,0,0,0,0
10977,-3.32663e-12,1.27387e-38,-1.61465e-06,-3.40794e-12,1.27375e-38,0,0,0,0,-3.45686,0.233676,0.519922,0,0,0,0,0,-0.335904,0.233676,222,-75,222,-75,354,-91,235,53,-0.0787266,-0.0348889,0,-1.5,3.94113e+12,0,0,0,-0.337436,0.235531,0,0,0,0,-0.0666422,0.080673,19872,-0.335904,0.233676,-0.0666422,0.080673,10956,0,0,0,0,0,0
10993,-3.32663e-12,1.27387e-38,-1.61465e-06,-3.40794e-12,1.27375e-38,0,0,0,0,-3.45686,0.233676,0.519922,0,0,0,0,0,-0.335904,0.233676,222,-75,222,-75,354,-91,235,53,-0.0790897,-0.0348889,0,-1.5,3.94113e+12,0,0,0,-0.338436,0.236741,0,0,0,0,-0.0666422,0.080673,19872,-0.335904,0.233676,-0.0666422,0.080673,10956,0,0,0,0,0,0
11008,-3.32663e-12,1.27387e-38,-1.61465e-06,-3.40794e-12,1.27375e-38,0,0,0,0,-3.45686,0.233676,0.519922,0,0,0,0,0,-0.335904,0.233676,222,-75,222,-75,354,-91,235,53,-0.0794769,-0.0348889,0,-1.5,3.94113e+12,0,0,0,-0.339502,0.238032,0,0,0,0,-0.0666422,0.080673,19872,-0.335904,0.233676,-0.0666422,0.080673,10956,0,0,0,0,0,0
11023,-3.32663e-12,1.27387e-38,-1.61465e-06,-3.40794e-12,1.27375e-38,0,0,0,0,-3.45686,0.233676,0.519922,0,0,0,0,0,-0.335904,0.233676,222,-75,222,-75,354,-91,235,53,-0.0798399,-0.0348889,0,-1.5,3.94113e+12,0,0,0,-0.340502,0.239242,0,0,0,0,-0.0666422,0.080673,19872,-0.335904,0.233676,-0.0666422,0.080673,10956,0,0,0,0,0,0
11042,-3.32663e-12,1.27387e-38,-1.61465e-06,-3.40794e-12,1.27375e-38,0,0,0,0,-3.41335,0.222209,0.492954,0,0,0,0,0,-0.276294,0.222209,222,-76,222,-76,354,-91,235,53,-0.0683365,-0.0348889,0,-1.5,3.94113e+12,0,0,0,-0.319668,0.222532,0,0,0,0,0.0302322,0.0157701,20448,-0.320242,0.222232,0.0302322,0.0157701,11030,0,0,0,0,0,0
11058,-3.32663e-12,1.27387e-38,-1.61465e-06,-3.40794e-12,1.27375e-38,0,0,0,0,-3.41335,0.222209,0.492954,0,0,0,0,0,-0.276294,0.222209,222,-76,222,-76,354,-91,235,53,-0.0684075,-0.0348889,0,-1.5,3.94113e+12,0,0,0,-0.319214,0.222768,0,0,0,0,0.0302322,0.0157701,20448,-0.320242,0.222232,0.0302322,0.0157701,11030,0,0,0,0,0,0
11073,-3.32663e-12,1.27387e-38,-1.61465e-06,-3.40794e-12,1.27375e-38,0,0,0,0,-3.41335,0.222209,0.492954,0,0,0,0,0,-0.276294,0.222209,222,-76,222,-76,354,-91,235,53,-0.0684784,-0.0348889,0,-1.5,3.94113e+12,0,0,0,-0.318761,0.223005,0,0,0,0,0.0302322,0.0157701,20448,-0.320242,0.222232,0.0302322,0.0157701,11030,0,0,0,0,0,0
11088,-3.32663e-12,1.27387e-38,-1.61465e-06,-3.40794e-12,1.27375e-38,0,0,0,0,-3.41335,0.222209,0.492954,0,0,0,0,0,-0.276294,0.222209,222,-76,222,-76,354,-91,235,53,-0.0685541,-0.0348889,0,-1.5,3.94113e+12,0,0,0,-0.318277,0.223257,0,0,0,0,0.0302322,0.0157701,20448,-0.320242,0.222232,0.0302322,0.0157701,11030,0,0,0,0,0,0
11103,-3.32663e-12,1.27387e-38,-1.61465e-06,-3.40794e-12,1.27375e-38,0,0,0,0,-3.41335,0.222209,0.492954,0,0,0,0,0,-0.276294,0.222209,222,-76,222,-76,354,-91,235,53,-0.0686251,-0.0348889,0,-1.5,3.94113e+12,0,0,0,-0.317824,0.223494,0,0,0,0,0.0302322,0.0157701,20448,-0.320242,0.222232,0.0302322,0.0157701,11030,0,0,0,0,0,0
11118,-3.32663e-12,1.27387e-38,-1.61465e-06,-3.40794e-12,1.27375e-38,0,0,0,0,-3.41335,0.222209,0.492954,0,0,0,0,0,-0.276294,0.222209,222,-76,222,-76,354,-91,235,53,-0.0686961,-0.0348889,0,-1.5,3.94113e+12,0,0,0,-0.31737,0.22373,0,0,0,0,0.0302322,0.0157701,20448,-0.320242,0.222232,0.0302322,0.0157701,11030,0,0,0,0,0,0
11137,-3.32663e-12,1.27387e-38,-1.61465e-06,-3.40794e-12,1.27375e-38,0,0,0,0,-3.47687,0.226728,0.526158,0,0,0,0,0,-0.363309,0.226728,225,-73,225,-73,354,-91,235,53,-0.0706034,-0.0348889,0,-1.5,3.94113e+12,0,0,0,-0.352568,0.227198,0,0,0,0,-0.0871053,0.0244395,19584,-0.350913,0.226734,-0.0871053,0.0244395,11125,0,0,0,0,0,0
11152,-3.32663e-12,1.27387e-38,-1.61465e-06,-3.40794e-12,1.27375e-38,0,0,0,0,-3.47687,0.226728,0.526158,0,0,0,0,0,-0.363309,0.226728,225,-73,225,-73,354,-91,235,53,-0.0707134,-0.0348889,0,-1.5,3.94113e+12,0,0,0,-0.353874,0.227565,0,0,0,0,-0.0871053,0.0244395,19584,-0.350913,0.226734,-0.0871053,0.0244395,11125,0,0,0,0,0,0
11169,-3.32663e-12,1.27387e-38,-1.61465e-06,-3.40794e-12,1.27375e-38,0,0,0,0,-3.42969,0.2239,0.49929,0,0,0,0,0,-0.298681,0.2239,222,-73,222,-73,354,-91,235,53,-0.068952,-0.0348889,0,-1.5,3.94113e+12,0,0,0,-0.30809,0.224519,0,0,0,0,0.0454572,0.0159623,20448,-0.308635,0.224328,0.0454572,0.0159623,11159,0,0,0,0,0,0
11182,-3.32663e-12,1.27387e-38,-1.61465e-06,-3.40794e-12,1.27375e-38,0,0,0,0,-3.42969,0.2239,0.49929,0,0,0,0,0,-0.298681,0.2239,222,-73,222,-73,354,-91,235,53,-0.0690143,-0.0348889,0,-1.5,3.94113e+12,0,0,0,-0.307499,0.224727,0,0,0,0,0.0454572,0.0159623,20448,-0.308635,0.224328,0.0454572,0.0159623,11159,0,0,0,0,0,0
11201,-3.32663e-12,1.27387e-38,-1.61465e-06,-3.40794e-12,1.27375e-38,0,0,0,0,-3.42969,0.2239,0.49929,0,0,0,0,0,-0.298681,0.2239,222,-73,222,-73,354,-91,235,53,-0.0688728,-0.0348889,0,-1.5,3.94113e+12,0,0,0,-0.297049,0.224648,0,0,0,0,0.0772931,0.0147847,20448,-0.297822,0.2245,0.0772931,0.0147847,11193,0,0,0,0,0,0
11216,-3.32663e-12,1.27387e-38,-1.61465e-06,-3.40794e-12,1.27375e-38,0,0,0,0,-3.42969,0.2239,0.49929,0,0,0,0,0,-0.298681,0.2239,222,-73,222,-73,354,-91,235,53,-0.0689393,-0.0348889,0,-1.5,3.94113e+12,0,0,0,-0.29589,0.224869,0,0,0,0,0.0772931,0.0147847,20448,-0.297822,0.2245,0.0772931,0.0147847,11193,0,0,0,0,0,0
11235,-3.32663e-12,1.27387e-38,-1.61465e-06,-3.40794e-12,1.27375e-38,0,0,0,0,-3.42545,0.223491,0.494458,0,0,0,0,0,-0.292863,0.223491,222,-73,222,-73,354,-91,235,53,-0.0687566,-0.0348889,0,-1.5,3.94113e+12,0,0,0,-0.293568,0.224773,0,0,0,0,0.0798119,0.0132477,20448,-0.295084,0.224521,0.0798119,0.0132477,11223,0,0,0,0,0,0
11251,-3.32663e-12,1.27387e-38,-1.61465e-06,-3.40794e-12,1.27375e-38,0,0,0,0,-3.42545,0.223491,0.494458,0,0,0,0,0,-0.292863,0.223491,222,-73,222,-73,354,-91,235,53,-0.0688163,-0.0348889,0,-1.5,3.94113e+12,0,0,0,-0.292371,0.224972,0,0,0,0,0.0798119,0.0132477,20448,-0.295084,0.224521,0.0798119,0.0132477,11223,0,0,0,0,0,0
11270,-3.32663e-12,1.27387e-38,-1.61465e-06,-3.40794e-12,1.27375e-38,0,0,0,0,-3.35566,0.218713,0.478463,0,0,0,0,0,-0.197258,0.218713,221,-87,221,-87,354,-91,235,53,-0.0687373,-0.0348889,0,-1.5,3.94113e+12,0,0,0,-0.294561,0.224857,0,0,0,0,0.0593168,0.0128002,20592,-0.295035,0.224755,0.0593168,0.0128002,11264,0,0,0,0,0,0
11285,-3.32663e-12,1.27387e-38,-1.61465e-06,-3.40794e-12,1.27375e-38,0,0,0,0,-3.35566,0.218713,0.478463,0,0,0,0,0,-0.197258,0.218713,221,-87,221,-87,354,-91,235,53,-0.0687949,-0.0348889,0,-1.5,3.94113e+12,0,0,0,-0.293671,0.225049,0,0,0,0,0.0593168,0.0128002,20592,-0.295035,0.224755,0.0593168,0.0128002,11264,0,0,0,0,0,0
11304,-3.32663e-12,1.27387e-38,-1.61465e-06,-3.40794e-12,1.27375e-38,0,0,0,0,-3.44195,0.220337,0.50471,0,0,0,0,0,-0.315469,0.220337,224,-73,224,-73,354,-91,235,53,-0.0687675,-0.0348889,0,-1.5,3.94113e+12,0,0,0,-0.299708,0.225089,0,0,0,0,0.0517119,0.0124076,20160,-0.30069,0.224853,0.0517119,0.0124076,11292,0,0,0,0,0,0
11320,-3.32663e-12,1.27387e-38,-1.61465e-06,-3.40794e-12,1.27375e-38,0,0,0,0,-3.44195,0.220337,0.50471,0,0,0,0,0,-0.315469,0.220337,224,-73,224,-73,354,-91,235,53,-0.0688234,-0.0348889,0,-1.5,3.94113e+12,0,0,0,-0.298932,0.225275,0,0,0,0,0.0517119,0.0124076,20160,-0.30069,0.224853,0.0517119,0.0124076,11292,0,0,0,0,0,0
11339,-3.32663e-12,1.27387e-38,-1.61465e-06,-3.40794e-12,1.27375e-38,0,0,0,0,-3.43744,0.217451,0.507965,0,0,0,0,0,-0.309297,0.217451,225,-76,225,-76,354,-91,235,53,-0.0677796,-0.0348889,0,-1.5,3.94113e+12,0,0,0,-0.290458,0.22389,0,0,0,0,0.0657716,0.00612681,20016,-0.291773,0.223767,0.0657716,0.00612681,11326,0,0,0,0,0,0
11355,-3.32663e-12,1.27387e-38,-1.61465e-06,-3.40794e-12,1.27375e-38,0,0,0,0,-3.43744,0.217451,0.507965,0,0,0,0,0,-0.309297,0.217451,225,-76,225,-76,354,-91,235,53,-0.067809,-0.0348889,0,-1.5,3.94113e+12,0,0,0,-0.289405,0.223988,0,0,0,0,0.0657716,0.00612681,20016,-0.291773,0.223767,0.0657716,0.00612681,11326,0,0,0,0,0,0
11374,-3.32663e-12,1.27387e-38,-1.61465e-06,-3.40794e-12,1.27375e-38,0,0,0,0,-3.45035,0.218723,0.514163,0,0,0,0,0,-0.326973,0.218723,225,-74,225,-74,354,-91,235,53,-0.0654755,-0.0348889,0,-1.5,3.94113e+12,0,0,0,-0.307218,0.220083,0,0,0,0,0.0310643,-0.00549436,20016,-0.307809,0.220188,0.0310643,-0.00549436,11361,0,0,0,0,0,0
11388,-3.32663e-12,1.27387e-38,-1.61465e-06,-3.40794e-12,1.27375e-38,0,0,0,0,-3.45035,0.218723,0.514163,0,0,0,0,0,-0.326973,0.218723,225,-74,225,-74,354,-91,235,53,-0.0654524,-0.0348889,0,-1.5,3.94113e+12,0,0,0,-0.306784,0.220006,0,0,0,0,0.0310643,-0.00549436,20016,-0.307809,0.220188,0.0310643,-0.00549436,11361,0,0,0,0,0,0
11405,-3.32663e-12,1.27387e-38,-1.61465e-06,-3.40794e-12,1.27375e-38,0,0,0,0,-3.44189,0.217863,0.512936,0,0,0,0,0,-0.315386,0.217863,225,-76,225,-76,354,-91,235,53,-0.0652222,-0.0348889,0,-1.5,3.94113e+12,0,0,0,-0.308499,0.219588,0,0,0,0,0.0304033,-0.0065425,20016,-0.309016,0.219699,0.0304033,-0.0065425,11392,0,0,0,0,0,0
11420,-3.32663e-12,1.27387e-38,-1.61465e-06,-3.40794e-12,1.27375e-38,0,0,0,0,-3.44189,0.217863,0.512936,0,0,0,0,0,-0.315386,0.217863,225,-76,225,-76,354,-91,235,53,-0.0651927,-0.0348889,0,-1.5,3.94113e+12,0,0,0,-0.308043,0.21949,0,0,0,0,0.0304033,-0.0065425,20016,-0.309016,0.219699,0.0304033,-0.0065425,11392,0,0,0,0,0,0
11440,-3.32663e-12,1.27387e-38,-1.61465e-06,-3.40794e-12,1.27375e-38,0,0,0,0,-3.45035,0.218723,0.514163,0,0,0,0,0,-0.326973,0.218723,225,-74,225,-74,354,-91,235,53,-0.0646262,-0.0348889,0,-1.5,3.94113e+12,0,0,0,-0.313594,0.218501,0,0,0,0,0.0212352,-0.00924046,20016,-0.313998,0.218676,0.0212352,-0.00924046,11427,0,0,0,0,0,0
11455,-3.32663e-12,1.27387e-38,-1.61465e-06,-3.40794e-12,1.27375e-38,0,0,0,0,-3.45035,0.218723,0.514163,0,0,0,0,0,-0.326973,0.218723,225,-74,225,-74,354,-91,235,53,-0.0645819,-0.0348889,0,-1.5,3.94113e+12,0,0,0,-0.313254,0.218353,0,0,0,0,0.0212352,-0.00924046,20016,-0.313998,0.218676,0.0212352,-0.00924046,11427,0,0,0,0,0,0
11474,-3.32663e-12,1.27387e-38,-1.61465e-06,-3.40794e-12,1.27375e-38,0,0,0,0,-3.43409,0.212844,0.512018,0,0,0,0,0,-0.304702,0.212844,225,-78,225,-78,355,-91,236,53,-0.064181,-0.0348889,0,-1.5,3.94113e+12,0,0,0,-0.309971,0.217472,0,0,0,0,0.024252,-0.0106052,20016,-0.310432,0.217673,0.024252,-0.0106052,11461,0,0,0,0,0,0
11490,-3.32663e-12,1.27387e-38,-1.61465e-06,-3.40794e-12,1.27375e-38,0,0,0,0,-3.43409,0.212844,0.512018,0,0,0,0,0,-0.304702,0.212844,225,-78,225,-78,355,-91,236,53,-0.0641333,-0.0348889,0,-1.5,3.94113e+12,0,0,0,-0.309608,0.217313,0,0,0,0,0.024252,-0.0106052,20016,-0.310432,0.217673,0.024252,-0.0106052,11461,0,0,0,0,0,0
11509,-3.32663e-12,1.27387e-38,-1.61465e-06,-3.40794e-12,1.27375e-38,0,0,0,0,-3.41835,0.20627,0.520131,0,0,0,0,0,-0.283133,0.20627,229,-87,229,-87,354,-91,235,53,-0.0641413,-0.0348889,0,-1.5,3.94113e+12,0,0,0,-0.3058,0.217159,0,0,0,0,0.0285057,-0.0100631,19440,-0.30637,0.21736,0.0285057,-0.0100631,11496,0,0,0,0,0,0
11524,-3.32663e-12,1.27387e-38,-1.61465e-06,-3.40794e-12,1.27375e-38,0,0,0,0,-3.41835,0.20627,0.520131,0,0,0,0,0,-0.283133,0.20627,229,-87,229,-87,354,-91,235,53,-0.064096,-0.0348889,0,-1.5,3.94113e+12,0,0,0,-0.305372,0.217008,0,0,0,0,0.0285057,-0.0100631,19440,-0.30637,0.21736,0.0285057,-0.0100631,11496,0,0,0,0,0,0
11544,-3.32663e-12,1.27387e-38,-1.61465e-06,-3.40794e-12,1.27375e-38,0,0,0,0,-3.43744,0.217451,0.507965,0,0,0,0,0,-0.309297,0.217451,225,-76,225,-76,354,-91,235,53,-0.0640578,-0.0348889,0,-1.5,3.94113e+12,0,0,0,-0.307219,0.216924,0,0,0,0,0.0241543,-0.0101942,20016,-0.307702,0.217128,0.0241543,-0.0101942,11531,0,0,0,0,0,0
11564,-3.32663e-12,1.27387e-38,-1.61465e-06,-3.40794e-12,1.27375e-38,0,0,0,0,-3.38804,0.214959,0.494936,0,0,0,0,0,-0.24162,0.214959,224,-85,224,-85,354,-91,235,53,-0.0638276,-0.0348889,0,-1.5,3.94113e+12,0,0,0,-0.301315,0.216347,0,0,0,0,0.0340685,-0.0107643,20160,-0.301553,0.216422,0.0340685,-0.0107643,11559,0,0,0,0,0,0
11579,-3.32663e-12,1.27387e-38,-1.61465e-06,-3.40794e-12,1.27375e-38,0,0,0,0,-3.38804,0.214959,0.494936,0,0,0,0,0,-0.24162,0.214959,224,-85,224,-85,354,-91,235,53,-0.0637792,-0.0348889,0,-1.5,3.94113e+12,0,0,0,-0.300804,0.216185,0,0,0,0,0.0340685,-0.0107643,20160,-0.301553,0.216422,0.0340685,-0.0107643,11559,0,0,0,0,0,0
11599,-3.32663e-12,1.27387e-38,-1.61465e-06,-3.40794e-12,1.27375e-38,0,0,0,0,-3.38804,0.214959,0.494936,0,0,0,0,0,-0.24162,0.214959,224,-85,224,-85,354,-91,235,53,-0.063041,-0.0348889,0,-1.5,3.94113e+12,0,0,0,-0.291815,0.214912,0,0,0,0,0.045249,-0.0143257,20160,-0.292222,0.215041,0.045249,-0.0143257,11592,0,0,0,0,0,0
11612,-3.32663e-12,1.27387e-38,-1.61465e-06,-3.40794e-12,1.27375e-38,0,0,0,0,-3.38804,0.214959,0.494936,0,0,0,0,0,-0.24162,0.214959,224,-85,224,-85,354,-91,235,53,-0.0629852,-0.0348889,0,-1.5,3.94113e+12,0,0,0,-0.291226,0.214726,0,0,0,0,0.045249,-0.0143257,20160,-0.292222,0.215041,0.045249,-0.0143257,11592,0,0,0,0,0,0
11633,-3.32663e-12,1.27387e-38,-1.61465e-06,-3.40794e-12,1.27375e-38,0,0,0,0,-3.4772,0.211741,0.52866,0,0,0,0,0,-0.363764,0.211741,229,-74,229,-74,354,-91,235,53,-0.0627476,-0.0348889,0,-1.5,3.94113e+12,0,0,0,-0.300273,0.214199,0,0,0,0,0.0285559,-0.015121,19440,-0.300588,0.214365,0.0285559,-0.015121,11624,0,0,0,0,0,0
11648,-3.32663e-12,1.27387e-38,-1.61465e-06,-3.40794e-12,1.27375e-38,0,0,0,0,-3.4772,0.211741,0.52866,0,0,0,0,0,-0.363764,0.211741,229,-74,229,-74,354,-91,235,53,-0.0626795,-0.0348889,0,-1.5,3.94113e+12,0,0,0,-0.299845,0.213972,0,0,0,0,0.0285559,-0.015121,19440,-0.300588,0.214365,0.0285559,-0.015121,11624,0,0,0,0,0,0
11668,-3.32663e-12,1.27387e-38,-1.61465e-06,-3.40794e-12,1.27375e-38,0,0,0,0,-3.45708,0.217055,0.514018,0,0,0,0,0,-0.336199,0.217055,225,-73,225,-73,354,-91,236,53,-0.0631346,-0.0348889,0,-1.5,3.94113e+12,0,0,0,-0.303462,0.214455,0,0,0,0,0.0267457,-0.0120183,20016,-0.303756,0.214587,0.0267457,-0.0120183,11659,0,0,0,0,0,0
11684,-3.32663e-12,1.27387e-38,-1.61465e-06,-3.40794e-12,1.27375e-38,0,0,0,0,-3.45708,0.217055,0.514018,0,0,0,0,0,-0.336199,0.217055,225,-73,225,-73,354,-91,236,53,-0.0630769,-0.0348889,0,-1.5,3.94113e+12,0,0,0,-0.303034,0.214262,0,0,0,0,0.0267457,-0.0120183,20016,-0.303756,0.214587,0.0267457,-0.0120183,11659,0,0,0,0,0,0
11704,-3.32663e-12,1.27387e-38,-1.61465e-06,-3.40794e-12,1.27375e-38,0,0,0,0,-3.44267,0.206726,0.502418,0,0,0,0,0,-0.316459,0.206726,229,-76,229,-76,355,-91,235,53,-0.0624867,-0.0348889,0,-1.5,3.94113e+12,0,0,0,-0.303522,0.213203,0,0,0,0,0.0235079,-0.0147421,19440,-0.303828,0.213395,0.0235079,-0.0147421,11693,0,0,0,0,0,0
11720,-3.32663e-12,1.27387e-38,-1.61465e-06,-3.40794e-12,1.27375e-38,0,0,0,0,-3.44267,0.206726,0.502418,0,0,0,0,0,-0.316459,0.206726,229,-76,229,-76,355,-91,235,53,-0.0624159,-0.0348889,0,-1.5,3.94113e+12,0,0,0,-0.303146,0.212967,0,0,0,0,0.0235079,-0.0147421,19440,-0.303828,0.213395,0.0235079,-0.0147421,11693,0,0,0,0,0,0
11740,-3.32663e-12,1.27387e-38,-1.61465e-06,-3.40794e-12,1.27375e-38,0,0,0,0,-3.34624,0.203222,0.474965,0,0,0,0,0,-0.184348,0.203222,223,-87,223,-87,357,-91,235,50,-0.0613269,-0.0348889,0,-1.5,3.94113e+12,0,0,0,-0.295145,0.210989,0,0,0,0,0.0339662,-0.0196977,20163,-0.295825,0.211383,0.0339662,-0.0196977,11726,0,0,0,0,0,0
11756,-3.32663e-12,1.27387e-38,-1.61465e-06,-3.40794e-12,1.27375e-38,0,0,0,0,-3.34624,0.203222,0.474965,0,0,0,0,0,-0.184348,0.203222,223,-87,223,-87,357,-91,235,50,-0.0612323,-0.0348889,0,-1.5,3.94113e+12,0,0,0,-0.294602,0.210674,0,0,0,0,0.0339662,-0.0196977,20163,-0.295825,0.211383,0.0339662,-0.0196977,11726,0,0,0,0,0,0
11776,-3.32663e-12,1.27387e-38,-1.61465e-06,-3.40794e-12,1.27375e-38,0,0,0,0,-3.3755,0.196773,0.493409,0,0,0,0,0,-0.224439,0.196773,227,-87,227,-87,357,-91,235,50,-0.0614096,-0.0348889,0,-1.5,3.94113e+12,0,0,0,-0.295073,0.210729,0,0,0,0,0.0316329,-0.0180907,19599,-0.295705,0.211091,0.0316329,-0.0180907,11762,0,0,0,0,0,0
11791,-3.32663e-12,1.27387e-38,-1.61465e-06,-3.40794e-12,1.27375e-38,0,0,0,0,-3.3755,0.196773,0.493409,0,0,0,0,0,-0.224439,0.196773,227,-87,227,-87,357,-91,235,50,-0.0613282,-0.0348889,0,-1.5,3.94113e+12,0,0,0,-0.294598,0.210458,0,0,0,0,0.0316329,-0.0180907,19599,-0.295705,0.211091,0.0316329,-0.0180907,11762,0,0,0,0,0,0
11811,-3.32663e-12,1.27387e-38,-1.61465e-06,-3.40794e-12,1.27375e-38,0,0,0,0,-3.37954,0.203201,0.495907,0,0,0,0,0,-0.229963,0.203201,226,-87,226,-87,355,-91,235,50,-0.0599277,-0.0348889,0,-1.5,3.94113e+12,0,0,0,-0.277587,0.207382,0,0,0,0,0.0489476,-0.0228686,19740,-0.278566,0.207839,0.0489476,-0.0228686,11798,0,0,0,0,0,0
11836,-3.32663e-12,1.27387e-38,-1.61465e-06,-3.40794e-12,1.27375e-38,0,0,0,0,-3.39993,0.209852,0.498965,0,0,0,0,0,-0.257906,0.209852,224,-87,224,-87,354,-86,235,50,-0.0608816,-0.0348889,0,-1.5,3.94113e+12,0,0,0,-0.25715,0.209206,0,0,0,0,0.0684018,-0.0188014,19454,-0.258107,0.209469,0.0684018,-0.0188014,11824,0,0,0,0,0,0
11849,-3.32663e-12,1.27387e-38,-1.61465e-06,-3.40794e-12,1.27375e-38,0,0,0,0,-3.39993,0.209852,0.498965,0,0,0,0,0,-0.257906,0.209852,224,-87,224,-87,354,-86,235,50,-0.0608027,-0.0348889,0,-1.5,3.94113e+12,0,0,0,-0.256192,0.208943,0,0,0,0,0.0684018,-0.0188014,19454,-0.258107,0.209469,0.0684018,-0.0188014,11824,0,0,0,0,0,0
11865,-3.32663e-12,1.27387e-38,-1.61465e-06,-3.40794e-12,1.27375e-38,0,0,0,0,-3.39993,0.209852,0.498965,0,0,0,0,0,-0.257906,0.209852,224,-87,224,-87,354,-86,235,50,-0.0607124,-0.0348889,0,-1.5,3.94113e+12,0,0,0,-0.255098,0.208642,0,0,0,0,0.0684018,-0.0188014,19454,-0.258107,0.209469,0.0684018,-0.0188014,11824,0,0,0,0,0,0
11880,-3.32663e-12,1.27387e-38,-1.61465e-06,-3.40794e-12,1.27375e-38,0,0,0,0,-3.39993,0.209852,0.498965,0,0,0,0,0,-0.257906,0.209852,224,-87,224,-87,354,-86,235,50,-0.0606278,-0.0348889,0,-1.5,3.94113e+12,0,0,0,-0.254072,0.20836,0,0,0,0,0.0684018,-0.0188014,19454,-0.258107,0.209469,0.0684018,-0.0188014,11824,0,0,0,0,0,0
11902,-3.32663e-12,1.27387e-38,-1.61465e-06,-3.40794e-12,1.27375e-38,0,0,0,0,-3.31301,0.211717,0.451164,0,0,0,0,0,-0.138824,0.211717,219,-94,219,-94,354,-86,236,53,-0.0600392,-0.0348889,0,-1.5,3.94113e+12,0,0,0,-0.250566,0.207119,0,0,0,0,0.0707974,-0.0209639,21609,-0.251416,0.20737,0.0707974,-0.0209639,11892,0,0,0,0,0,0
11917,-3.32663e-12,1.27387e-38,-1.61465e-06,-3.40794e-12,1.27375e-38,0,0,0,0,-3.31301,0.211717,0.451164,0,0,0,0,0,-0.138824,0.211717,219,-94,219,-94,354,-86,236,53,-0.0599385,-0.0348889,0,-1.5,3.94113e+12,0,0,0,-0.249434,0.206783,0,0,0,0,0.0707974,-0.0209639,21609,-0.251416,0.20737,0.0707974,-0.0209639,11892,0,0,0,0,0,0
11938,-3.32663e-12,1.27387e-38,-1.61465e-06,-3.40794e-12,1.27375e-38,0,0,0,0,-3.31301,0.211717,0.451164,0,0,0,0,0,-0.138824,0.211717,219,-94,219,-94,354,-86,236,53,-0.0599007,-0.0348889,0,-1.5,3.94113e+12,0,0,0,-0.239296,0.206619,0,0,0,0,0.0828434,-0.0208494,21609,-0.241035,0.207056,0.0828434,-0.0208494,11924,0,0,0,0,0,0
11953,-3.32663e-12,1.27387e-38,-1.61465e-06,-3.40794e-12,1.27375e-38,0,0,0,0,-3.31301,0.211717,0.451164,0,0,0,0,0,-0.138824,0.211717,219,-94,219,-94,354,-86,236,53,-0.0598068,-0.0348889,0,-1.5,3.94113e+12,0,0,0,-0.238053,0.206306,0,0,0,0,0.0828434,-0.0208494,21609,-0.241035,0.207056,0.0828434,-0.0208494,11924,0,0,0,0,0,0
11968,-3.32663e-12,1.27387e-38,-1.61465e-06,-3.40794e-12,1.27375e-38,0,0,0,0,-3.31301,0.211717,0.451164,0,0,0,0,0,-0.138824,0.211717,219,-94,219,-94,354,-86,236,53,-0.059713,-0.0348889,0,-1.5,3.94113e+12,0,0,0,-0.23681,0.205993,0,0,0,0,0.0828434,-0.0208494,21609,-0.241035,0.207056,0.0828434,-0.0208494,11924,0,0,0,0,0,0
11984,-3.32663e-12,1.27387e-38,-1.61465e-06,-3.40794e-12,1.27375e-38,0,0,0,0,-3.31301,0.211717,0.451164,0,0,0,0,0,-0.138824,0.211717,219,-94,219,-94,354,-86,236,53,-0.0596129,-0.0348889,0,-1.5,3.94113e+12,0,0,0,-0.235485,0.20566,0,0,0,0,0.0828434,-0.0208494,21609,-0.241035,0.207056,0.0828434,-0.0208494,11924,0,0,0,0,0,0
12005,-3.32663e-12,1.27387e-38,-1.61465e-06,-3.40794e-12,1.27375e-38,0,0,0,0,-3.45227,0.17475,0.643647,0,0,0,0,0,-0.329604,0.17475,226,-101,226,-101,360,-95,243,37,-0.0582185,-0.0348889,0,-1.5,3.94113e+12,0,0,0,-0.242838,0.202418,0,0,0,0,0.0823696,-0.0250678,19596,-0.243992,0.202768,0.0823696,-0.0250678,11993,0,0,0,0,0,0
12020,-3.32663e-12,1.27387e-38,-1.61465e-06,-3.40794e-12,1.27375e-38,0,0,0,0,-3.45227,0.17475,0.643647,0,0,0,0,0,-0.329604,0.17475,226,-101,226,-101,360,-95,243,37,-0.0581057,-0.0348889,0,-1.5,3.94113e+12,0,0,0,-0.241603,0.202042,0,0,0,0,0.0823696,-0.0250678,19596,-0.243992,0.202768,0.0823696,-0.0250678,11993,0,0,0,0,0,0
12041,-3.32663e-12,1.27387e-38,-1.61465e-06,-3.40794e-12,1.27375e-38,0,0,0,0,-3.43414,0.150488,0.638762,0,0,0,0,0,-0.304773,0.150488,229,-101,229,-101,364,-95,243,34,-0.0577345,-0.0348889,0,-1.5,3.94113e+12,0,0,0,-0.25198,0.20108,0,0,0,0,0.0629811,-0.0258939,19305,-0.253303,0.201623,0.0629811,-0.0258939,12027,0,0,0,0,0,0
12055,-3.32663e-12,1.27387e-38,-1.61465e-06,-3.40794e-12,1.27375e-38,0,0,0,0,-3.43414,0.150488,0.638762,0,0,0,0,0,-0.304773,0.150488,229,-101,229,-101,364,-95,243,34,-0.0576257,-0.0348889,0,-1.5,3.94113e+12,0,0,0,-0.251098,0.200717,0,0,0,0,0.0629811,-0.0258939,19305,-0.253303,0.201623,0.0629811,-0.0258939,12027,0,0,0,0,0,0
12073,-3.32663e-12,1.27387e-38,-1.61465e-06,-3.40794e-12,1.27375e-38,0,0,0,0,-3.43587,0.122887,0.652876,0,0,0,0,0,-0.307144,0.122887,235,-101,235,-101,367,-104,248,36,-0.0549749,-0.0348889,0,-1.5,3.94113e+12,0,0,0,-0.305511,0.194415,0,0,0,0,-0.00641037,-0.0334956,19180,-0.305395,0.195018,-0.00641037,-0.0334956,12059,0,0,0,0,0,0
12089,-3.32663e-12,1.27387e-38,-1.61465e-06,-3.40794e-12,1.27375e-38,0,0,0,0,-3.43587,0.122887,0.652876,0,0,0,0,0,-0.307144,0.122887,235,-101,235,-101,367,-104,248,36,-0.0548142,-0.0348889,0,-1.5,3.94113e+12,0,0,0,-0.305613,0.193879,0,0,0,0,-0.00641037,-0.0334956,19180,-0.305395,0.195018,-0.00641037,-0.0334956,12059,0,0,0,0,0,0
12110,-3.32663e-12,1.27387e-38,-1.61465e-06,-3.40794e-12,1.27375e-38,0,0,0,0,-3.42627,0.0831239,0.646398,0,0,0,0,0,-0.293993,0.0831239,238,-100,238,-100,373,-105,254,36,-0.0527553,-0.0348889,0,-1.5,3.94113e+12,0,0,0,-0.294586,0.188706,0,0,0,0,0.00675148,-0.038564,19458,-0.294721,0.189477,0.00675148,-0.038564,12095,0,0,0,0,0,0
12125,-3.32663e-12,1.27387e-38,-1.61465e-06,-3.40794e-12,1.27375e-38,0,0,0,0,-3.42627,0.0831239,0.646398,0,0,0,0,0,-0.293993,0.0831239,238,-100,238,-100,373,-105,254,36,-0.0525702,-0.0348889,0,-1.5,3.94113e+12,0,0,0,-0.294478,0.188089,0,0,0,0,0.00675148,-0.038564,19458,-0.294721,0.189477,0.00675148,-0.038564,12095,0,0,0,0,0,0
12140,-3.32663e-12,1.27387e-38,-1.61465e-06,-3.40794e-12,1.27375e-38,0,0,0,0,-3.42627,0.0831239,0.646398,0,0,0,0,0,-0.293993,0.0831239,238,-100,238,-100,373,-105,254,36,-0.0523967,-0.0348889,0,-1.5,3.94113e+12,0,0,0,-0.294377,0.18751,0,0,0,0,0.00675148,-0.038564,19458,-0.294721,0.189477,0.00675148,-0.038564,12095,0,0,0,0,0,0
12156,-3.32663e-12,1.27387e-38,-1.61465e-06,-3.40794e-12,1.27375e-38,0,0,0,0,-3.42627,0.0831239,0.646398,0,0,0,0,0,-0.293993,0.0831239,238,-100,238,-100,373,-105,254,36,-0.0522116,-0.0348889,0,-1.5,3.94113e+12,0,0,0,-0.294269,0.186893,0,0,0,0,0.00675148,-0.038564,19458,-0.294721,0.189477,0.00675148,-0.038564,12095,0,0,0,0,0,0
12171,-3.32663e-12,1.27387e-38,-1.61465e-06,-3.40794e-12,1.27375e-38,0,0,0,0,-3.42627,0.0831239,0.646398,0,0,0,0,0,-0.293993,0.0831239,238,-100,238,-100,373,-105,254,36,-0.0520381,-0.0348889,0,-1.5,3.94113e+12,0,0,0,-0.294167,0.186315,0,0,0,0,0.00675148,-0.038564,19458,-0.294721,0.189477,0.00675148,-0.038564,12095,0,0,0,0,0,0
12186,-3.32663e-12,1.27387e-38,-1.61465e-06,-3.40794e-12,1.27375e-38,0,0,0,0,-3.42627,0.0831239,0.646398,0,0,0,0,0,-0.293993,0.0831239,238,-100,238,-100,373,-105,254,36,-0.0518646,-0.0348889,0,-1.5,3.94113e+12,0,0,0,-0.294066,0.185737,0,0,0,0,0.00675148,-0.038564,19458,-0.294721,0.189477,0.00675148,-0.038564,12095,0,0,0,0,0,0
12201,-3.32663e-12,1.27387e-38,-1.61465e-06,-3.40794e-12,1.27375e-38,0,0,0,0,-3.42627,0.0831239,0.646398,0,0,0,0,0,-0.293993,0.0831239,238,-100,238,-100,373,-105,254,36,-0.051691,-0.0348889,0,-1.5,3.94113e+12,0,0,0,-0.293965,0.185158,0,0,0,0,0.00675148,-0.038564,19458,-0.294721,0.189477,0.00675148,-0.038564,12095,0,0,0,0,0,0
12217,-3.32663e-12,1.27387e-38,-1.61465e-06,-3.40794e-12,1.27375e-38,0,0,0,0,-3.42627,0.0831239,0.646398,0,0,0,0,0,-0.293993,0.0831239,238,-100,238,-100,373,-105,254,36,-0.0515175,-0.0348889,0,-1.5,3.94113e+12,0,0,0,-0.293864,0.18458,0,0,0,0,0.00675148,-0.038564,19458,-0.294721,0.189477,0.00675148,-0.038564,12095,0,0,0,0,0,0
12232,-3.32663e-12,1.27387e-38,-1.61465e-06,-3.40794e-12,1.27375e-38,0,0,0,0,-3.42627,0.0831239,0.646398,0,0,0,0,0,-0.293993,0.0831239,238,-100,238,-100,373,-105,254,36,-0.0513324,-0.0348889,0,-1.5,3.94113e+12,0,0,0,-0.293756,0.183963,0,0,0,0,0.00675148,-0.038564,19458,-0.294721,0.189477,0.00675148,-0.038564,12095,0,0,0,0,0,0
12247,-3.32663e-12,1.27387e-38,-1.61465e-06,-3.40794e-12,1.27375e-38,0,0,0,0,-3.42627,0.0831239,0.646398,0,0,0,0,0,-0.293993,0.0831239,238,-100,238,-100,373,-105,254,36,-0.0511589,-0.0348889,0,-1.5,3.94113e+12,0,0,0,-0.293654,0.183384,0,0,0,0,0.00675148,-0.038564,19458,-0.294721,0.189477,0.00675148,-0.038564,12095,0,0,0,0,0,0
12261,-3.32663e-12,1.27387e-38,-1.61465e-06,-3.40794e-12,1.27375e-38,0,0,0,0,-3.42627,0.0831239,0.646398,0,0,0,0,0,-0.293993,0.0831239,238,-100,238,-100,373,-105,254,36,-0.0509969,-0.0348889,0,-1.5,3.94113e+12,0,0,0,-0.29356,0.182844,0,0,0,0,0.00675148,-0.038564,19458,-0.294721,0.189477,0.00675148,-0.038564,12095,0,0,0,0,0,0
12276,-3.32663e-12,1.27387e-38,-1.61465e-06,-3.40794e-12,1.27375e-38,0,0,0,0,-3.42627,0.0831239,0.646398,0,0,0,0,0,-0.293993,0.0831239,238,-100,238,-100,373,-105,254,36,-0.0508234,-0.0348889,0,-1.5,3.94113e+12,0,0,0,-0.293458,0.182266,0,0,0,0,0.00675148,-0.038564,19458,-0.294721,0.189477,0.00675148,-0.038564,12095,0,0,0,0,0,0
12292,-3.32663e-12,1.27387e-38,-1.61465e-06,-3.40794e-12,1.27375e-38,0,0,0,0,-3.42627,0.0831239,0.646398,0,0,0,0,0,-0.293993,0.0831239,238,-100,238,-100,373,-105,254,36,-0.0506383,-0.0348889,0,-1.5,3.94113e+12,0,0,0,-0.29335,0.181649,0,0,0,0,0.00675148,-0.038564,19458,-0.294721,0.189477,0.00675148,-0.038564,12095,0,0,0,0,0,0
12313,-3.32663e-12,1.27387e-38,-1.61465e-06,-3.40794e-12,1.27375e-38,0,0,0,0,-3.42472,0.0834264,0.559901,0,0,0,0,0,-0.291862,0.0834264,242,-88,242,-88,373,-97,250,45,-0.0507383,-0.0348889,0,-1.5,3.94113e+12,0,0,0,-0.294772,0.181749,0,0,0,0,0.00292134,-0.0378635,19028,-0.29483,0.182506,0.00292134,-0.0378635,12298,0,0,0,0,0,0
12334,-3.32663e-12,1.27387e-38,-1.61465e-06,-3.40794e-12,1.27375e-38,0,0,0,0,-3.29284,0.107529,0.499923,0,0,0,0,0,-0.111197,0.107529,234,-104,234,-104,370,-95,247,46,-0.0448911,-0.0348889,0,-1.5,3.94113e+12,0,0,0,-0.291283,0.166987,0,0,0,0,0.0154526,-0.0520496,21150,-0.291438,0.167507,0.0154526,-0.0520496,12326,0,0,0,0,0,0
12349,-3.32663e-12,1.27387e-38,-1.61465e-06,-3.40794e-12,1.27375e-38,0,0,0,0,-3.29284,0.107529,0.499923,0,0,0,0,0,-0.111197,0.107529,234,-104,234,-104,370,-95,247,46,-0.0446569,-0.0348889,0,-1.5,3.94113e+12,0,0,0,-0.291052,0.166206,0,0,0,0,0.0154526,-0.0520496,21150,-0.291438,0.167507,0.0154526,-0.0520496,12326,0,0,0,0,0,0
12370,-3.32663e-12,1.27387e-38,-1.61465e-06,-3.40794e-12,1.27375e-38,0,0,0,0,-3.33511,0.104908,0.527108,0,0,0,0,0,-0.169105,0.104908,238,-104,238,-104,370,-95,247,46,-0.0347853,-0.0348889,0,-1.5,3.94113e+12,0,0,0,-0.267819,0.141822,0,0,0,0,0.0263536,-0.0776142,20250,-0.268135,0.142754,0.0263536,-0.0776142,12360,0,0,0,0,0,0
12386,-3.32663e-12,1.27387e-38,-1.61465e-06,-3.40794e-12,1.27375e-38,0,0,0,0,-3.33511,0.104908,0.527108,0,0,0,0,0,-0.169105,0.104908,238,-104,238,-104,370,-95,247,46,-0.0344127,-0.0348889,0,-1.5,3.94113e+12,0,0,0,-0.267397,0.14058,0,0,0,0,0.0263536,-0.0776142,20250,-0.268135,0.142754,0.0263536,-0.0776142,12360,0,0,0,0,0,0
12401,-3.32663e-12,1.27387e-38,-1.61465e-06,-3.40794e-12,1.27375e-38,0,0,0,0,-3.33511,0.104908,0.527108,0,0,0,0,0,-0.169105,0.104908,238,-104,238,-104,370,-95,247,46,-0.0340635,-0.0348889,0,-1.5,3.94113e+12,0,0,0,-0.267002,0.139416,0,0,0,0,0.0263536,-0.0776142,20250,-0.268135,0.142754,0.0263536,-0.0776142,12360,0,0,0,0,0,0
12416,-3.32663e-12,1.27387e-38,-1.61465e-06,-3.40794e-12,1.27375e-38,0,0,0,0,-3.33511,0.104908,0.527108,0,0,0,0,0,-0.169105,0.104908,238,-104,238,-104,370,-95,247,46,-0.0337142,-0.0348889,0,-1.5,3.94113e+12,0,0,0,-0.266606,0.138252,0,0,0,0,0.0263536,-0.0776142,20250,-0.268135,0.142754,0.0263536,-0.0776142,12360,0,0,0,0,0,0
12432,-3.32663e-12,1.27387e-38,-1.61465e-06,-3.40794e-12,1.27375e-38,0,0,0,0,-3.33511,0.104908,0.527108,0,0,0,0,0,-0.169105,0.104908,238,-104,238,-104,370,-95,247,46,-0.033365,-0.0348889,0,-1.5,3.94113e+12,0,0,0,-0.266211,0.137088,0,0,0,0,0.0263536,-0.0776142,20250,-0.268135,0.142754,0.0263536,-0.0776142,12360,0,0,0,0,0,0
12447,-3.32663e-12,1.27387e-38,-1.61465e-06,-3.40794e-12,1.27375e-38,0,0,0,0,-3.33511,0.104908,0.527108,0,0,0,0,0,-0.169105,0.104908,238,-104,238,-104,370,-95,247,46,-0.0329924,-0.0348889,0,-1.5,3.94113e+12,0,0,0,-0.26579,0.135846,0,0,0,0,0.0263536,-0.0776142,20250,-0.268135,0.142754,0.0263536,-0.0776142,12360,0,0,0,0,0,0
12466,-3.32663e-12,1.27387e-38,-1.61465e-06,-3.40794e-12,1.27375e-38,0,0,0,0,-3.29926,0.119605,0.505742,0,0,0,0,0,-0.119982,0.119605,232,-105,232,-105,368,-95,247,46,-0.0272207,-0.0348889,0,-1.5,3.94113e+12,0,0,0,-0.161397,0.120825,0,0,0,0,0.129694,-0.0902683,21291,-0.162694,0.121728,0.129694,-0.0902683,12458,0,0,0,0,0,0
12479,-3.32663e-12,1.27387e-38,-1.61465e-06,-3.40794e-12,1.27375e-38,0,0,0,0,-3.29926,0.119605,0.505742,0,0,0,0,0,-0.119982,0.119605,232,-105,232,-105,368,-95,247,46,-0.0268687,-0.0348889,0,-1.5,3.94113e+12,0,0,0,-0.159711,0.119652,0,0,0,0,0.129694,-0.0902683,21291,-0.162694,0.121728,0.129694,-0.0902683,12458,0,0,0,0,0,0
12495,-3.32663e-12,1.27387e-38,-1.61465e-06,-3.40794e-12,1.27375e-38,0,0,0,0,-3.29926,0.119605,0.505742,0,0,0,0,0,-0.119982,0.119605,232,-105,232,-105,368,-95,247,46,-0.0264354,-0.0348889,0,-1.5,3.94113e+12,0,0,0,-0.157636,0.118208,0,0,0,0,0.129694,-0.0902683,21291,-0.162694,0.121728,0.129694,-0.0902683,12458,0,0,0,0,0,0
12510,-3.32663e-12,1.27387e-38,-1.61465e-06,-3.40794e-12,1.27375e-38,0,0,0,0,-3.29926,0.119605,0.505742,0,0,0,0,0,-0.119982,0.119605,232,-105,232,-105,368,-95,247,46,-0.0260292,-0.0348889,0,-1.5,3.94113e+12,0,0,0,-0.155691,0.116854,0,0,0,0,0.129694,-0.0902683,21291,-0.162694,0.121728,0.129694,-0.0902683,12458,0,0,0,0,0,0
12531,-3.32663e-12,1.27387e-38,-1.61465e-06,-3.40794e-12,1.27375e-38,0,0,0,0,-3.40395,0.119997,0.540003,0,0,0,0,0,-0.263409,0.119997,236,-90,236,-90,367,-95,247,48,-0.0261151,-0.0348889,0,-1.5,3.94113e+12,0,0,0,-0.182316,0.117009,0,0,0,0,0.107195,-0.0898744,19591,-0.183388,0.117907,0.107195,-0.0898744,12523,0,0,0,0,0,0
12546,-3.32663e-12,1.27387e-38,-1.61465e-06,-3.40794e-12,1.27375e-38,0,0,0,0,-3.40395,0.119997,0.540003,0,0,0,0,0,-0.263409,0.119997,236,-90,236,-90,367,-95,247,48,-0.0257107,-0.0348889,0,-1.5,3.94113e+12,0,0,0,-0.180708,0.115661,0,0,0,0,0.107195,-0.0898744,19591,-0.183388,0.117907,0.107195,-0.0898744,12523,0,0,0,0,0,0
12568,-3.32663e-12,1.27387e-38,-1.61465e-06,-3.40794e-12,1.27375e-38,0,0,0,0,-3.27561,0.131023,0.486332,0,0,0,0,0,-0.0875854,0.131023,231,-105,231,-105,367,-95,244,48,-0.0262672,-0.0348889,0,-1.5,3.94113e+12,0,0,0,-0.140999,0.11712,0,0,0,0,0.146291,-0.0886899,21573,-0.142755,0.118185,0.146291,-0.0886899,12558,0,0,0,0,0,0
12583,-3.32663e-12,1.27387e-38,-1.61465e-06,-3.40794e-12,1.27375e-38,0,0,0,0,-3.27561,0.131023,0.486332,0,0,0,0,0,-0.0875854,0.131023,231,-105,231,-105,367,-95,244,48,-0.0258681,-0.0348889,0,-1.5,3.94113e+12,0,0,0,-0.138805,0.11579,0,0,0,0,0.146291,-0.0886899,21573,-0.142755,0.118185,0.146291,-0.0886899,12558,0,0,0,0,0,0
12599,-3.32663e-12,1.27387e-38,-1.61465e-06,-3.40794e-12,1.27375e-38,0,0,0,0,-3.27561,0.131023,0.486332,0,0,0,0,0,-0.0875854,0.131023,231,-105,231,-105,367,-95,244,48,-0.0254424,-0.0348889,0,-1.5,3.94113e+12,0,0,0,-0.136465,0.114371,0,0,0,0,0.146291,-0.0886899,21573,-0.142755,0.118185,0.146291,-0.0886899,12558,0,0,0,0,0,0
12614,-3.32663e-12,1.27387e-38,-1.61465e-06,-3.40794e-12,1.27375e-38,0,0,0,0,-3.27561,0.131023,0.486332,0,0,0,0,0,-0.0875854,0.131023,231,-105,231,-105,367,-95,244,48,-0.0250433,-0.0348889,0,-1.5,3.94113e+12,0,0,0,-0.13427,0.113041,0,0,0,0,0.146291,-0.0886899,21573,-0.142755,0.118185,0.146291,-0.0886899,12558,0,0,0,0,0,0
12635,-3.32663e-12,1.27387e-38,-1.61465e-06,-3.40794e-12,1.27375e-38,0,0,0,0,-3.36249,0.143149,0.513575,0,0,0,0,0,-0.206614,0.143149,230,-90,230,-90,367,-95,244,48,-0.0237972,-0.0348889,0,-1.5,3.94113e+12,0,0,0,-0.159349,0.111115,0,0,0,0,0.122729,-0.0953714,20020,-0.160821,0.112259,0.122729,-0.0953714,12625,0,0,0,0,0,0
12650,-3.32663e-12,1.27387e-38,-1.61465e-06,-3.40794e-12,1.27375e-38,0,0,0,0,-3.36249,0.143149,0.513575,0,0,0,0,0,-0.206614,0.143149,230,-90,230,-90,367,-95,244,48,-0.0233681,-0.0348889,0,-1.5,3.94113e+12,0,0,0,-0.157508,0.109684,0,0,0,0,0.122729,-0.0953714,20020,-0.160821,0.112259,0.122729,-0.0953714,12625,0,0,0,0,0,0
12674,-3.32663e-12,1.27387e-38,-1.61465e-06,-3.40794e-12,1.27375e-38,0,0,0,0,-3.27561,0.131023,0.486332,0,0,0,0,0,-0.0875854,0.131023,231,-105,231,-105,367,-95,244,48,-0.0265577,-0.0348889,0,-1.5,3.94113e+12,0,0,0,-0.118532,0.117341,0,0,0,0,0.152344,-0.0864452,21573,-0.122188,0.119415,0.152344,-0.0864452,12660,0,0,0,0,0,0
12689,-3.32663e-12,1.27387e-38,-1.61465e-06,-3.40794e-12,1.27375e-38,0,0,0,0,-3.27561,0.131023,0.486332,0,0,0,0,0,-0.0875854,0.131023,231,-105,231,-105,367,-95,244,48,-0.0261687,-0.0348889,0,-1.5,3.94113e+12,0,0,0,-0.116247,0.116044,0,0,0,0,0.152344,-0.0864452,21573,-0.122188,0.119415,0.152344,-0.0864452,12660,0,0,0,0,0,0
12707,-3.32663e-12,1.27387e-38,-1.61465e-06,-3.40794e-12,1.27375e-38,0,0,0,0,-3.38557,0.137947,0.528295,0,0,0,0,0,-0.238228,0.137947,233,-90,233,-90,367,-95,244,48,-0.0262572,-0.0348889,0,-1.5,3.94113e+12,0,0,0,-0.147402,0.116018,0,0,0,0,0.125991,-0.085483,19591,-0.14967,0.117557,0.125991,-0.085483,12693,0,0,0,0,0,0
12723,-3.32663e-12,1.27387e-38,-1.61465e-06,-3.40794e-12,1.27375e-38,0,0,0,0,-3.38557,0.137947,0.528295,0,0,0,0,0,-0.238228,0.137947,233,-90,233,-90,367,-95,244,48,-0.0258469,-0.0348889,0,-1.5,3.94113e+12,0,0,0,-0.145386,0.114651,0,0,0,0,0.125991,-0.085483,19591,-0.14967,0.117557,0.125991,-0.085483,12693,0,0,0,0,0,0
12738,-3.32663e-12,1.27387e-38,-1.61465e-06,-3.40794e-12,1.27375e-38,0,0,0,0,-3.38557,0.137947,0.528295,0,0,0,0,0,-0.238228,0.137947,233,-90,233,-90,367,-95,244,48,-0.0254622,-0.0348889,0,-1.5,3.94113e+12,0,0,0,-0.143497,0.113368,0,0,0,0,0.125991,-0.085483,19591,-0.14967,0.117557,0.125991,-0.085483,12693,0,0,0,0,0,0
12753,-3.32663e-12,1.27387e-38,-1.61465e-06,-3.40794e-12,1.27375e-38,0,0,0,0,-3.38557,0.137947,0.528295,0,0,0,0,0,-0.238228,0.137947,233,-90,233,-90,367,-95,244,48,-0.0250775,-0.0348889,0,-1.5,3.94113e+12,0,0,0,-0.141607,0.112086,0,0,0,0,0.125991,-0.085483,19591,-0.14967,0.117557,0.125991,-0.085483,12693,0,0,0,0,0,0
12774,-3.32663e-12,1.27387e-38,-1.61465e-06,-3.40794e-12,1.27375e-38,0,0,0,0,-3.35347,0.126714,0.528922,0,0,0,0,0,-0.194255,0.126714,237,-101,237,-101,367,-95,244,48,-0.0254445,-0.0348889,0,-1.5,3.94113e+12,0,0,0,-0.191618,0.112588,0,0,0,0,0.0868835,-0.0833202,19817,-0.193443,0.114338,0.0868835,-0.0833202,12760,0,0,0,0,0,0
