timestamp,A_x,A_y,A_z,P,Q,R,Phi,Theta,Psi,poseX,poseY,poseZ,state_X,state_Y,state_Z,state_VzB,state_Bx,state_By,state_Bz,p1_x,p1_y,p2_x,p2_y,p3_x,p3_y,p4_x,p4_y,roll,pitch,yaw,alt,targetHeading,highLevelState,lowLevelState,gateNumber,filtered_x,filtered_y,x_OT,y_OT,vx_OT,vy_OT,filtered_vx,filtered_vygateArearansac_corr_x,ransac_corr_y,ransac_corr_vx,ransac_corr_vy,detectionTimeStamppTermX,dTermX,pTermY,dTermY,vxcmd,vycmd
7089,0,0,0,0,0,0,0,0,0,0,0,0,0,0,0,0,0,0,0,0,0,0,0,0,0,0,0,0,-0.349066,0.0141372,-1.5,-nan,0,0,2,0,0,0,0,0,0,0,0,1.9603e-19,0,0,0,0,0,0,0,0,0,2.5,0
7104,0,0,0,0,0,0,0,0,0,0,0,0,0,0,0,0,0,0,0,0,0,0,0,0,0,0,0,0,-0.349066,0.0376991,-1.5,-nan,0,0,2,0,0,0,0,0,0,0,0,1.9603e-19,0,0,0,0,0,0,0,0,0,2.5,0
7637,-3.21172e-12,2.71844e-38,-1.56669e-06,-3.27738e-12,2.7182e-38,0,-1.06589e-13,0,0,0,0,0,0,0,0,0,0,0,0,0,0,0,0,0,0,0,0,0,-0.349066,0.874933,-1.5,-nan,0,0,2,0,0,0,0,0,0,0,0,1.9603e-19,0,0,0,0,0,0,0,0,0,2.5,0
7653,-3.21172e-12,2.71844e-38,-1.56669e-06,-3.27738e-12,2.7182e-38,0,-1.0659e-13,0,0,0,0,0,0,0,0,0,0,0,0,0,0,0,0,0,0,0,0,0,-0.349066,0.900066,-1.5,-nan,0,0,2,0,0,0,0,0,0,0,0,1.9603e-19,0,0,0,0,0,0,0,0,0,2.5,0
7668,-3.21172e-12,2.71844e-38,-1.56669e-06,-3.27738e-12,2.7182e-38,0,-1.0659e-13,0,0,0,0,0,0,0,0,0,0,0,0,0,0,0,0,0,0,0,0,0,-0.349066,0.923627,-1.5,-nan,0,0,2,0,0,0,0,0,0,0,0,1.9603e-19,0,0,0,0,0,0,0,0,0,2.5,0
7684,-3.21172e-12,2.71844e-38,-1.56669e-06,-3.27738e-12,2.7182e-38,0,-1.0659e-13,0,0,0,0,0,0,0,0,0,0,0,0,0,0,0,0,0,0,0,0,0,-0.349066,0.94876,-1.5,-nan,0,0,2,0,0,0,0,0,0,0,0,1.9603e-19,0,0,0,0,0,0,0,0,0,2.5,0
7700,-3.21172e-12,2.71844e-38,-1.56669e-06,-3.27738e-12,2.7182e-38,0,-1.0659e-13,0,0,0,0,0,0,0,0,0,0,0,0,0,0,0,0,0,0,0,0,0,-0.349066,0.973893,-1.5,-nan,0,0,2,0,0,0,0,0,0,0,0,1.9603e-19,0,0,0,0,0,0,0,0,0,2.5,0
7716,-3.21172e-12,2.71844e-38,-1.56669e-06,-3.27738e-12,2.7182e-38,0,-1.06591e-13,0,0,0,0,0,0,0,0,0,0,0,0,0,0,0,0,0,0,0,0,0,-0.349066,0.999026,-1.5,-nan,0,0,2,0,0,0,0,0,0,0,0,1.9603e-19,0,0,0,0,0,0,0,0,0,2.5,0
7731,-3.21172e-12,2.71844e-38,-1.56669e-06,-3.27738e-12,2.7182e-38,0,-1.06591e-13,0,0,0,0,0,0,0,0,0,0,0,0,0,0,0,0,0,0,0,0,0,-0.349066,1.02259,-1.5,-nan,0,0,2,0,0,0,0,0,0,0,0,1.9603e-19,0,0,0,0,0,0,0,0,0,2.5,0
7748,-3.21172e-12,2.71844e-38,-1.56669e-06,-3.27738e-12,2.7182e-38,0,-1.06591e-13,0,0,0,0,0,0,0,0,0,0,0,0,0,0,0,0,0,0,0,0,0,-0.349066,1.04929,-1.5,-nan,0,0,2,0,0,0,0,0,0,0,0,1.9603e-19,0,0,0,0,0,0,0,0,0,2.5,0
7764,-3.21172e-12,2.71844e-38,-1.56669e-06,-3.27738e-12,2.7182e-38,0,-1.06591e-13,0,0,0,0,0,0,0,0,0,0,0,0,0,0,0,0,0,0,0,0,0,-0.349066,1.07285,-1.5,-nan,0,0,2,0,0,0,0,0,0,0,0,1.9603e-19,0,0,0,0,0,0,0,0,0,2.5,0
7788,-3.21172e-12,2.71844e-38,-1.56669e-06,-3.27738e-12,2.7182e-38,0,-1.06592e-13,0,0,0,0,0,0,0,0,0,0,0,0,0,0,0,0,0,0,0,0,0,-0.349066,1.11055,-1.5,-nan,0,0,2,0,0,0,0,0,0,0,0,1.9603e-19,0,0,0,0,0,0,0,0,0,2.5,0
7804,-3.21172e-12,2.71844e-38,-1.56669e-06,-3.27738e-12,2.7182e-38,0,-1.06592e-13,0,0,-3.73164,-0.0189552,0.398018,0,0,0,0,0,0,0,262,-45,262,-45,388,-44,260,72,0,-0.349066,1.13569,-1.5,-nan,0,0,2,0,0,0,0,0,0,0,0,15616,0,0,0,0,0,0,0,0,0,2.5,0
7820,-3.21172e-12,2.71844e-38,-1.56669e-06,-3.27738e-12,2.7182e-38,0,-1.06592e-13,0,0,-3.73164,-0.0189552,0.398018,0,0,0,0,0,0,0,262,-45,262,-45,388,-44,260,72,0,-0.349066,1.15925,-1.5,-nan,0,0,2,0,0,0,0,0,0,0,0,15616,0,0,0,0,0,0,0,0,0,2.5,0
7886,-3.21172e-12,2.71844e-38,-1.56669e-06,-3.27738e-12,2.7182e-38,0,-1.06593e-13,0,0,-3.74414,0.0304154,0.404748,0,0,0,0,0,0,0,261,-44,261,-44,378,-47,253,77,0,-0.349066,1.26292,-1.5,-nan,0,0,2,0,0,0,0,0,0,0,0,15500,0,0,0,0,0,0,0,0,0,2.5,0
7902,-3.21172e-12,2.71844e-38,-1.56669e-06,-3.27738e-12,2.7182e-38,0,-1.06593e-13,0,0,-3.76561,0.0302244,0.423642,0,0,0,0,0,0,0,261,-44,261,-44,378,-47,253,74,0,-0.349066,1.28962,-1.5,-nan,0,0,2,0,0,0,0,0,0,0,0,15125,0,0,0,0,0,0,0,0,0,2.5,0
7918,-3.21172e-12,2.71844e-38,-1.56669e-06,-3.27738e-12,2.7182e-38,0,-1.06593e-13,0,0,-3.76561,0.0302244,0.423642,0,0,0,0,0,0,0,261,-44,261,-44,378,-47,253,74,0,-0.349066,1.31319,-1.5,-nan,0,0,2,0,0,0,0,0,0,0,0,15125,0,0,0,0,0,0,0,0,0,2.5,0
7934,-3.21172e-12,2.71844e-38,-1.56669e-06,-3.27738e-12,2.7182e-38,0,-1.06593e-13,0,0,-3.7313,0.0116681,0.406968,0,0,0,0,0,0,0,259,-45,259,-45,381,-47,257,74,0,-0.349066,1.33832,-1.5,-nan,0,0,2,0,0,0,0,0,0,0,0,15004,0,0,0,0,0,0,0,0,0,2.5,0
7949,-3.21172e-12,2.71844e-38,-1.56669e-06,-3.27738e-12,2.7182e-38,0,-1.06594e-13,0,0,-3.7313,0.0116681,0.406968,0,0,0,0,0,0,0,259,-45,259,-45,381,-47,257,74,0,-0.349066,1.36188,-1.5,-nan,0,0,2,0,0,0,0,0,0,0,0,15004,0,0,0,0,0,0,0,0,0,2.5,0
7963,-3.21172e-12,2.71844e-38,-1.56669e-06,-3.27738e-12,2.7182e-38,0,-1.06594e-13,0,0,-3.75928,0.0036763,0.410895,0,0,0,0,0,0,0,262,-45,262,-45,381,-44,257,72,0,-0.349066,1.38387,-1.5,-nan,0,0,2,0,0,0,0,0,0,0,0,15252,0,0,0,0,0,0,0,0,0,2.5,0
7977,-3.21172e-12,2.71844e-38,-1.56669e-06,-3.27738e-12,2.7182e-38,0,-1.06594e-13,0,0,-3.75928,0.0036763,0.410895,0,0,0,0,0,0,0,262,-45,262,-45,381,-44,257,72,0,-0.349066,1.40586,-1.5,-nan,0,0,2,0,0,0,0,0,0,0,0,15252,0,0,0,0,0,0,0,0,0,2.5,0
7993,-3.21172e-12,2.71844e-38,-1.56669e-06,-3.27738e-12,2.7182e-38,0,-1.06594e-13,0,0,-3.75928,0.0036763,0.410895,0,0,0,0,0,0,0,262,-45,262,-45,381,-44,257,72,0,-0.349066,1.431,-1.5,-nan,0,0,2,0,0,0,0,0,0,0,0,15252,0,0,0,0,0,0,0,0,0,2.5,0
8009,-3.21172e-12,2.71844e-38,-1.56669e-06,-3.27738e-12,2.7182e-38,0,-1.06595e-13,0,0,-3.7068,0.00379821,0.373941,0,0,0,0,0,0,0,261,-39,261,-39,381,-47,255,77,0,-0.349066,1.45456,-1.5,-nan,0,0,2,0,0,0,0,0,0,0,0,15748,0,0,0,0,0,0,0,0,0,2.5,0
8024,-3.21172e-12,2.71844e-38,-1.56669e-06,-3.27738e-12,2.7182e-38,0,-1.06595e-13,0,0,-3.7068,0.00379821,0.373941,0,0,0,0,0,0,0,261,-39,261,-39,381,-47,255,77,0,-0.349066,1.47969,-1.5,-nan,0,0,2,0,0,0,0,0,0,0,0,15748,0,0,0,0,0,0,0,0,0,2.5,0
8040,-3.21172e-12,2.71844e-38,-1.56669e-06,-3.27738e-12,2.7182e-38,0,-1.06595e-13,0,0,-3.81181,0.0108527,0.444623,0,0,0,0,0,0,0,261,-45,261,-45,381,-42,257,72,0,-0.349066,1.50482,-1.5,-nan,0,0,2,0,0,0,0,0,0,0,0,14756,0,0,0,0,0,0,0,0,0,2.5,0
8056,-3.21172e-12,2.71844e-38,-1.56669e-06,-3.27738e-12,2.7182e-38,0,-1.06596e-13,0,0,-3.81181,0.0108527,0.444623,0,0,0,0,0,0,0,261,-45,261,-45,381,-42,257,72,0,-0.349066,1.52839,-1.5,-nan,0,0,2,0,0,0,0,0,0,0,0,14756,0,0,0,0,0,0,0,0,0,2.5,0
8072,-3.21172e-12,2.71844e-38,-1.56669e-06,-3.27738e-12,2.7182e-38,0,-1.06596e-13,0,0,-3.73226,0.0133579,0.401194,0,0,0,0,0,0,0,262,-45,262,-45,383,-44,253,74,0,-0.349066,1.55509,-1.5,-nan,0,0,2,0,0,0,0,0,0,0,0,15470,0,0,0,0,0,0,0,0,0,2.5,0
8088,-3.21172e-12,2.71844e-38,-1.56669e-06,-3.27738e-12,2.7182e-38,0,-1.06596e-13,0,0,-3.73226,0.0133579,0.401194,0,0,0,0,0,0,0,262,-45,262,-45,383,-44,253,74,0,-0.349066,1.58022,-1.5,-nan,0,0,2,0,0,0,0,0,0,0,0,15470,0,0,0,0,0,0,0,0,0,2.5,0
8104,-3.21172e-12,2.71844e-38,-1.56669e-06,-3.27738e-12,2.7182e-38,0,-1.06596e-13,0,0,-3.73692,0.00941366,0.405557,0,0,0,0,0,0,0,261,-44,261,-44,381,-47,256,74,0,-0.349066,1.60536,-1.5,-nan,0,0,2,0,0,0,0,0,0,0,0,15250,0,0,0,0,0,0,0,0,0,2.5,0
8120,-3.21172e-12,2.71844e-38,-1.56669e-06,-3.27738e-12,2.7182e-38,0,-1.06597e-13,0,0,-3.73692,0.00941366,0.405557,0,0,0,0,0,0,0,261,-44,261,-44,381,-47,256,74,0,-0.349066,1.63049,-1.5,-nan,0,0,2,0,0,0,0,0,0,0,0,15250,0,0,0,0,0,0,0,0,0,2.5,0
8136,-3.21172e-12,2.71844e-38,-1.56669e-06,-3.27738e-12,2.7182e-38,0,-1.06597e-13,0,0,-3.75704,0.00773701,0.389224,0,0,0,0,0,0,0,262,-39,262,-39,381,-45,256,77,0,-0.349066,1.65562,-1.5,-nan,0,0,2,0,0,0,0,0,0,0,0,15250,0,0,0,0,0,0,0,0,0,2.5,0
8152,-3.21172e-12,2.71844e-38,-1.56669e-06,-3.27738e-12,2.7182e-38,0,-1.06597e-13,0,0,-3.75704,0.00773701,0.389224,0,0,0,0,0,0,0,262,-39,262,-39,381,-45,256,77,0,-0.349066,1.68075,-1.5,-nan,0,0,2,0,0,0,0,0,0,0,0,15250,0,0,0,0,0,0,0,0,0,2.5,0
8168,-3.21172e-12,2.71844e-38,-1.56669e-06,-3.27738e-12,2.7182e-38,0,-1.06597e-13,0,0,-3.75704,0.00773701,0.389224,0,0,0,0,0,0,0,262,-39,262,-39,381,-45,256,77,0,-0.349066,1.70589,-1.5,-nan,0,0,2,0,0,0,0,0,0,0,0,15250,0,0,0,0,0,0,0,0,0,2.5,0
8183,-3.21172e-12,2.71844e-38,-1.56669e-06,-3.27738e-12,2.7182e-38,0,-1.06598e-13,0,0,-3.75704,0.00773701,0.389224,0,0,0,0,0,0,0,262,-39,262,-39,381,-45,256,77,0,-0.349066,1.72945,-1.5,-nan,0,0,2,0,0,0,0,0,0,0,0,15250,0,0,0,0,0,0,0,0,0,2.5,0
8200,-3.21172e-12,2.71844e-38,-1.56669e-06,-3.27738e-12,2.7182e-38,0,-1.06598e-13,0,0,-3.78076,0.00585266,0.381757,0,0,0,0,0,0,0,262,-35,262,-35,382,-42,256,79,0,-0.349066,1.75458,-1.5,-nan,0,0,2,0,0,0,0,0,0,0,0,15246,0,0,0,0,0,0,0,0,0,2.5,0
8215,-3.21172e-12,2.71844e-38,-1.56669e-06,-3.27738e-12,2.7182e-38,0,-1.06598e-13,0,0,-3.78076,0.00585266,0.381757,0,0,0,0,0,0,0,262,-35,262,-35,382,-42,256,79,0,-0.349066,1.77971,-1.5,-nan,0,0,2,0,0,0,0,0,0,0,0,15246,0,0,0,0,0,0,0,0,0,2.5,0
8229,-3.21172e-12,2.71844e-38,-1.56669e-06,-3.27738e-12,2.7182e-38,0,-1.06599e-13,0,0,-3.76428,0.0114721,0.392922,0,0,0,0,0,0,0,258,-42,258,-42,380,-42,259,77,0,-0.349066,1.80171,-1.5,-nan,0,0,2,0,0,0,0,0,0,0,0,14518,0,0,0,0,0,0,0,0,0,2.5,0
8243,-3.21172e-12,2.71844e-38,-1.56669e-06,-3.27738e-12,2.7182e-38,0,-1.06599e-13,0,0,-3.76428,0.0114721,0.392922,0,0,0,0,0,0,0,258,-42,258,-42,380,-42,259,77,0,-0.349066,1.8237,-1.5,-nan,0,0,2,0,0,0,0,0,0,0,0,14518,0,0,0,0,0,0,0,0,0,2.5,0
8259,-3.21172e-12,2.71844e-38,-1.56669e-06,-3.27738e-12,2.7182e-38,0,-1.06599e-13,0,0,-3.76428,0.0114721,0.392922,0,0,0,0,0,0,0,258,-42,258,-42,380,-42,259,77,0,-0.349066,1.84883,-1.5,-nan,0,0,2,0,0,0,0,0,0,0,0,14518,0,0,0,0,0,0,0,0,0,2.5,0
8275,-3.21172e-12,2.71844e-38,-1.56669e-06,-3.27738e-12,2.7182e-38,0,-1.06599e-13,0,0,-3.7694,-0.00612603,0.38225,0,0,0,0,0,0,0,264,-38,264,-38,384,-42,257,79,0,-0.349066,1.87396,-1.5,-nan,0,0,2,0,0,0,0,0,0,0,0,15367,0,0,0,0,0,0,0,0,0,2.5,0
8291,-3.21172e-12,2.71844e-38,-1.56669e-06,-3.27738e-12,2.7182e-38,0,-1.066e-13,0,0,-3.7694,-0.00612603,0.38225,0,0,0,0,0,0,0,264,-38,264,-38,384,-42,257,79,0,-0.349066,1.89752,-1.5,-nan,0,0,2,0,0,0,0,0,0,0,0,15367,0,0,0,0,0,0,0,0,0,2.5,0
8306,-3.21172e-12,2.71844e-38,-1.56669e-06,-3.27738e-12,2.7182e-38,0,-1.066e-13,0,0,-3.72335,0.00274841,0.36205,0,0,0,0,0,0,0,261,-40,261,-40,384,-42,256,79,0,-0.349066,1.92266,-1.5,-nan,0,0,2,0,0,0,0,0,0,0,0,15488,0,0,0,0,0,0,0,0,0,2.5,0
8322,-3.21172e-12,2.71844e-38,-1.56669e-06,-3.27738e-12,2.7182e-38,0,-1.066e-13,0,0,-3.72335,0.00274841,0.36205,0,0,0,0,0,0,0,261,-40,261,-40,384,-42,256,79,0,-0.349066,1.94779,-1.5,-nan,0,0,2,0,0,0,0,0,0,0,0,15488,0,0,0,0,0,0,0,0,0,2.5,0
8338,-3.21172e-12,2.71844e-38,-1.56669e-06,-3.27738e-12,2.7182e-38,0,-1.066e-13,0,0,-3.7309,0.0139264,0.370847,0,0,0,0,0,0,0,258,-40,258,-40,382,-42,256,77,0,-0.349066,1.97292,-1.5,-nan,0,0,2,0,0,0,0,0,0,0,0,14994,0,0,0,0,0,0,0,0,0,2.5,0
8365,-3.21172e-12,2.71844e-38,-1.56669e-06,-3.27738e-12,2.7182e-38,0,-1.06601e-13,0,0,-3.75733,-8.61254e-05,0.368502,0,0,0,0,0,0,0,265,-42,265,-42,381,-39,256,82,0,-0.349066,2.01534,-1.5,-nan,0,0,2,0,0,0,0,0,0,0,0,15500,0,0,0,0,0,0,0,0,0,2.5,0
8381,-3.21172e-12,2.71844e-38,-1.56669e-06,-3.27738e-12,2.7182e-38,0,-1.06601e-13,0,0,-3.75733,-8.61254e-05,0.368502,0,0,0,0,0,0,0,265,-42,265,-42,381,-39,256,82,0,-0.349066,2.04047,-1.5,-nan,0,0,2,0,0,0,0,0,0,0,0,15500,0,0,0,0,0,0,0,0,0,2.5,0
8397,-3.21172e-12,2.71844e-38,-1.56669e-06,-3.27738e-12,2.7182e-38,0,-1.06601e-13,0,0,-3.75235,0.00239952,0.370409,0,0,0,0,0,0,0,264,-40,264,-40,381,-42,256,79,0,-0.349066,2.0656,-1.5,-nan,0,0,2,0,0,0,0,0,0,0,0,15250,0,0,0,0,0,0,0,0,0,2.5,0
8445,-3.21172e-12,2.71844e-38,-1.56669e-06,-3.27738e-12,2.7182e-38,0,-1.06602e-13,0,0,-3.83228,-0.0310193,0.41821,0,0,0,0,0,0,0,265,-40,265,-40,385,-39,263,75,0,-0.349066,2.141,-1.5,-nan,0,0,2,0,0,0,0,0,0,0,0,14518,0,0,0,0,0,0,0,0,0,2.5,0
8463,-3.21172e-12,2.71844e-38,-1.56669e-06,-3.27738e-12,2.7182e-38,0,-1.06602e-13,0,0,-3.74873,0.00516245,0.361902,0,0,0,0,0,0,0,262,-37,262,-37,382,-42,256,79,0,-0.349066,2.16927,-1.5,-nan,0,0,2,0,0,0,0,0,0,0,0,15372,0,0,0,0,0,0,0,0,0,2.5,0
8478,-3.21172e-12,2.71844e-38,-1.56669e-06,-3.27738e-12,2.7182e-38,0,-1.06602e-13,0,0,-3.74873,0.00516245,0.361902,0,0,0,0,0,0,0,262,-37,262,-37,382,-42,256,79,0,-0.349066,2.19284,-1.5,-nan,0,0,2,0,0,0,0,0,0,0,0,15372,0,0,0,0,0,0,0,0,0,2.5,0
8494,-3.21172e-12,2.71844e-38,-1.56669e-06,-3.27738e-12,2.7182e-38,0,-1.06602e-13,0,0,-3.74873,0.00516245,0.361902,0,0,0,0,0,0,0,262,-37,262,-37,382,-42,256,79,0,-0.349066,2.21797,-1.5,-nan,0,0,2,0,0,0,0,0,0,0,0,15372,0,0,0,0,0,0,0,0,0,2.5,0
8518,-3.21172e-12,2.71844e-38,-1.56669e-06,-3.27738e-12,2.7182e-38,0,-1.06603e-13,0,0,-3.78052,0.0106128,0.374312,0,0,0,0,0,0,0,261,-35,261,-35,380,-42,257,81,0,-0.349066,2.25567,-1.5,-nan,0,0,2,0,0,0,0,0,0,0,0,15129,0,0,0,0,0,0,0,0,0,2.5,0
8534,-3.21172e-12,2.71844e-38,-1.56669e-06,-3.27738e-12,2.7182e-38,0,-1.06603e-13,0,0,-3.77003,0.0211603,0.350341,0,0,0,0,0,0,0,260,-30,260,-30,377,-43,256,85,0,-0.349066,2.2808,-1.5,-nan,0,0,2,0,0,0,0,0,0,0,0,15744,0,0,0,0,0,0,0,0,0,2.5,0
8548,-3.21172e-12,2.71844e-38,-1.56669e-06,-3.27738e-12,2.7182e-38,0,-1.06603e-13,0,0,-3.77003,0.0211603,0.350341,0,0,0,0,0,0,0,260,-30,260,-30,377,-43,256,85,0,-0.349066,2.30122,-1.5,-nan,0,0,2,0,0,0,0,0,0,0,0,15744,0,0,0,0,0,0,0,0,0,2.5,0
8562,-3.21172e-12,2.71844e-38,-1.56669e-06,-3.27738e-12,2.7182e-38,0,-1.06603e-13,0,0,-3.64391,0.0190487,0.317282,0,0,0,0,0,0,0,255,-39,255,-39,380,-44,255,81,0,-0.349066,2.32478,-1.5,-nan,0,0,2,0,0,0,0,0,0,0,0,15875,0,0,0,0,0,0,0,0,0,2.5,0
8577,-3.21172e-12,2.71844e-38,-1.56669e-06,-3.27738e-12,2.7182e-38,0,-1.06604e-13,0,0,-3.64391,0.0190487,0.317282,0,0,0,0,0,0,0,255,-39,255,-39,380,-44,255,81,0,-0.349066,2.34835,-1.5,-nan,0,0,2,0,0,0,0,0,0,0,0,15875,0,0,0,0,0,0,0,0,0,2.5,0
8594,-3.21172e-12,2.71844e-38,-1.56669e-06,-3.27738e-12,2.7182e-38,0,-1.06604e-13,0,0,-3.64391,0.0190487,0.317282,0,0,0,0,0,0,0,255,-39,255,-39,380,-44,255,81,0,-0.349066,2.37487,-1.5,-nan,0,0,2,0,0,0,0,0,0,0,0,15875,0,0,0,0,0,0,0,0,0,2.5,0
8609,-3.21172e-12,2.71844e-38,-1.56669e-06,-3.27738e-12,2.7182e-38,0,-1.06604e-13,0,0,-3.80954,0.0245612,0.370268,0,0,0,0,0,0,0,258,-35,258,-35,377,-40,260,85,0,-0.349066,2.39763,-1.5,-nan,0,0,2,0,0,0,0,0,0,0,0,14875,0,0,0,0,0,0,0,0,0,2.5,0
8626,-3.21172e-12,2.71844e-38,-1.56669e-06,-3.27738e-12,2.7182e-38,0,-1.06605e-13,0,0,-3.80954,0.0245612,0.370268,0,0,0,0,0,0,0,258,-35,258,-35,377,-40,260,85,0,-0.349066,2.42262,-1.5,-nan,0,0,2,0,0,0,0,0,0,0,0,14875,0,0,0,0,0,0,0,0,0,2.5,0
8641,-3.21172e-12,2.71844e-38,-1.56669e-06,-3.27738e-12,2.7182e-38,0,-1.06605e-13,0,0,-3.80954,0.0245612,0.370268,0,0,0,0,0,0,0,258,-35,258,-35,377,-40,260,85,0,-0.349066,2.44396,-1.5,-nan,0,0,2,0,0,0,0,0,0,0,0,14875,0,0,0,0,0,0,0,0,0,2.5,0
8657,-3.21172e-12,2.71844e-38,-1.56669e-06,-3.27738e-12,2.7182e-38,0,-1.06605e-13,0,0,-3.80954,0.0245612,0.370268,0,0,0,0,0,0,0,258,-35,258,-35,377,-40,260,85,0,-0.349066,2.46604,-1.5,-nan,0,0,2,0,0,0,0,0,0,0,0,14875,0,0,0,0,0,0,0,0,0,2.5,0
8673,-3.21172e-12,2.71844e-38,-1.56669e-06,-3.27738e-12,2.7182e-38,0,-1.06605e-13,0,0,-3.72196,0.024609,0.302603,0,0,0,0,0,0,0,258,-31,258,-31,375,-38,255,88,0,-0.349066,2.48741,-1.5,-nan,0,0,2,0,0,0,0,0,0,0,0,16002,0,0,0,0,0,0,0,0,0,2.5,0
8689,-3.21172e-12,2.71844e-38,-1.56669e-06,-3.27738e-12,2.7182e-38,0,-1.06606e-13,0,0,-3.72196,0.024609,0.302603,0,0,0,0,0,0,0,258,-31,258,-31,375,-38,255,88,0,-0.349066,2.50683,-1.5,-nan,0,0,2,0,0,0,0,0,0,0,0,16002,0,0,0,0,0,0,0,0,0,2.5,0
8705,-3.21172e-12,2.71844e-38,-1.56669e-06,-3.27738e-12,2.7182e-38,0,-1.06606e-13,0,0,-3.79795,0.0410524,0.339394,0,0,0,0,0,0,0,258,-31,258,-31,375,-37,255,88,0,-0.349066,2.52815,-1.5,-nan,0,0,2,0,0,0,0,0,0,0,0,15000,0,0,0,0,0,0,0,0,0,2.5,0
8720,-3.21172e-12,2.71844e-38,-1.56669e-06,-3.27738e-12,2.7182e-38,0,-1.06606e-13,0,0,-3.79795,0.0410524,0.339394,0,0,0,0,0,0,0,258,-31,258,-31,375,-37,255,88,0,-0.349066,2.54636,-1.5,-nan,0,0,2,0,0,0,0,0,0,0,0,15000,0,0,0,0,0,0,0,0,0,2.5,0
8738,-3.21172e-12,2.71844e-38,-1.56669e-06,-3.27738e-12,2.7182e-38,0,-1.06606e-13,0,0,-3.65461,0.0166623,0.294351,0,0,0,0,0,0,0,255,-36,255,-36,381,-39,255,84,0,-0.349066,2.56637,-1.5,-nan,0,0,2,0,0,0,0,0,0,0,0,15621,0,0,0,0,0,0,0,0,0,2.5,0
8753,-3.21172e-12,2.71844e-38,-1.56669e-06,-3.27738e-12,2.7182e-38,0,-1.06607e-13,0,0,-3.65461,0.0166623,0.294351,0,0,0,0,0,0,0,255,-36,255,-36,381,-39,255,84,0,-0.349066,2.58344,-1.5,-nan,0,0,2,0,0,0,0,0,0,0,0,15621,0,0,0,0,0,0,0,0,0,2.5,0
8769,-3.21172e-12,2.71844e-38,-1.56669e-06,-3.27738e-12,2.7182e-38,0,-1.06607e-13,0,0,-3.77575,0.0366616,0.346457,0,0,0,0,0,0,0,255,-36,255,-36,378,-35,256,82,0,-0.349066,2.60111,-1.5,-nan,0,0,2,0,0,0,0,0,0,0,0,14514,0,0,0,0,0,0,0,0,0,2.5,0
8785,-3.21172e-12,2.71844e-38,-1.56669e-06,-3.27738e-12,2.7182e-38,0,-1.06607e-13,0,0,-3.77575,0.0366616,0.346457,0,0,0,0,0,0,0,255,-36,255,-36,378,-35,256,82,0,-0.349066,2.61821,-1.5,-nan,0,0,2,0,0,0,0,0,0,0,0,14514,0,0,0,0,0,0,0,0,0,2.5,0
8801,-3.21172e-12,2.71844e-38,-1.56669e-06,-3.27738e-12,2.7182e-38,0,-1.06607e-13,0,0,-3.76266,0.0405183,0.330381,0,0,0,0,0,0,0,258,-31,258,-31,377,-39,253,85,0,-0.349066,2.63478,-1.5,-nan,0,0,2,0,0,0,0,0,0,0,0,15376,0,0,0,0,0,0,0,0,0,2.5,0
8815,-3.21172e-12,2.71844e-38,-1.56669e-06,-3.27738e-12,2.7182e-38,0,-1.06608e-13,0,0,-3.76266,0.0405183,0.330381,0,0,0,0,0,0,0,258,-31,258,-31,377,-39,253,85,0,-0.349066,2.64882,-1.5,-nan,0,0,2,0,0,0,0,0,0,0,0,15376,0,0,0,0,0,0,0,0,0,2.5,0
8829,-3.21172e-12,2.71844e-38,-1.56669e-06,-3.27738e-12,2.7182e-38,0,-1.06608e-13,0,0,-3.70151,0.0266577,0.282547,0,0,0,0,0,0,0,258,-32,258,-32,374,-37,255,91,0,-0.349066,2.66247,-1.5,-nan,0,0,2,0,0,0,0,0,0,0,0,16256,0,0,0,0,0,0,0,0,0,2.5,0
8845,-3.21172e-12,2.71844e-38,-1.56669e-06,-3.27738e-12,2.7182e-38,0,-1.06608e-13,0,0,-3.70151,0.0266577,0.282547,0,0,0,0,0,0,0,258,-32,258,-32,374,-37,255,91,0,-0.349066,2.67763,-1.5,-nan,0,0,2,0,0,0,0,0,0,0,0,16256,0,0,0,0,0,0,0,0,0,2.5,0
8861,-3.21172e-12,2.71844e-38,-1.56669e-06,-3.27738e-12,2.7182e-38,0,-1.06609e-13,0,0,-3.68611,0.0192794,0.265351,0,0,0,0,0,0,0,255,-32,255,-32,377,-35,258,91,0,-0.349066,2.6923,-1.5,-nan,0,0,2,0,0,0,0,0,0,0,0,16002,0,0,0,0,0,0,0,0,0,2.5,0
8877,-3.21172e-12,2.71844e-38,-1.56669e-06,-3.27738e-12,2.7182e-38,0,-1.06609e-13,0,0,-3.68611,0.0192794,0.265351,0,0,0,0,0,0,0,255,-32,255,-32,377,-35,258,91,0,-0.349066,2.70564,-1.5,-nan,0,0,2,0,0,0,0,0,0,0,0,16002,0,0,0,0,0,0,0,0,0,2.5,0
8893,-3.21172e-12,2.71844e-38,-1.56669e-06,-3.27738e-12,2.7182e-38,0,-1.06609e-13,0,0,-3.68611,0.0192794,0.265351,0,0,0,0,0,0,0,255,-32,255,-32,377,-35,258,91,0,-0.349066,2.72028,-1.5,-nan,0,0,2,0,0,0,0,0,0,0,0,16002,0,0,0,0,0,0,0,0,0,2.5,0
8909,-3.21172e-12,2.71844e-38,-1.56669e-06,-3.27738e-12,2.7182e-38,0,-1.06609e-13,0,0,-3.8202,0.0367357,0.320772,0,0,0,0,0,0,0,260,-27,260,-27,375,-34,255,91,0,-0.349066,2.73279,-1.5,-nan,0,0,2,0,0,0,0,0,0,0,0,15000,0,0,0,0,0,0,0,0,0,2.5,0
8924,-3.21172e-12,2.71844e-38,-1.56669e-06,-3.27738e-12,2.7182e-38,0,-1.0661e-13,0,0,-3.8202,0.0367357,0.320772,0,0,0,0,0,0,0,260,-27,260,-27,375,-34,255,91,0,-0.349066,2.74573,-1.5,-nan,0,0,2,0,0,0,0,0,0,0,0,15000,0,0,0,0,0,0,0,0,0,2.5,0
8940,-3.21172e-12,2.71844e-38,-1.56669e-06,-3.27738e-12,2.7182e-38,0,-1.0661e-13,0,0,-3.82987,0.0365347,0.332824,0,0,0,0,0,0,0,260,-27,260,-27,375,-35,255,88,0,-0.349066,2.75826,-1.5,-nan,0,0,2,0,0,0,0,0,0,0,0,14760,0,0,0,0,0,0,0,0,0,2.5,0
8956,-3.21172e-12,2.71844e-38,-1.56669e-06,-3.27738e-12,2.7182e-38,0,-1.0661e-13,0,0,-3.82987,0.0365347,0.332824,0,0,0,0,0,0,0,260,-27,260,-27,375,-35,255,88,0,-0.349066,2.77039,-1.5,-nan,0,0,2,0,0,0,0,0,0,0,0,14760,0,0,0,0,0,0,0,0,0,2.5,0
8972,-3.21172e-12,2.71844e-38,-1.56669e-06,-3.27738e-12,2.7182e-38,0,-1.0661e-13,0,0,-3.78583,0.0431083,0.307395,0,0,0,0,0,0,0,258,-29,258,-29,374,-35,255,91,0,-0.349066,2.78213,-1.5,-nan,0,0,2,0,0,0,0,0,0,0,0,15120,0,0,0,0,0,0,0,0,0,2.5,0
8988,-3.21172e-12,2.71844e-38,-1.56669e-06,-3.27738e-12,2.7182e-38,0,-1.06611e-13,0,0,-3.78583,0.0431083,0.307395,0,0,0,0,0,0,0,258,-29,258,-29,374,-35,255,91,0,-0.349066,2.7928,-1.5,-nan,0,0,2,0,0,0,0,0,0,0,0,15120,0,0,0,0,0,0,0,0,0,2.5,0
9005,-3.21172e-12,2.71844e-38,-1.56669e-06,-3.27738e-12,2.7182e-38,0,-1.06611e-13,0,0,-3.72362,0.0261106,0.260379,0,0,0,0,0,0,0,256,-29,256,-29,375,-30,256,93,0,-0.349066,2.8052,-1.5,-nan,0,0,2,0,0,0,0,0,0,0,0,15498,0,0,0,0,0,0,0,0,0,2.5,0
9021,-3.21172e-12,2.71844e-38,-1.56669e-06,-3.27738e-12,2.7182e-38,0,-1.06611e-13,0,0,-3.72362,0.0261106,0.260379,0,0,0,0,0,0,0,256,-29,256,-29,375,-30,256,93,0,-0.349066,2.81584,-1.5,-nan,0,0,2,0,0,0,0,0,0,0,0,15498,0,0,0,0,0,0,0,0,0,2.5,0
9098,-3.21172e-12,2.71844e-38,-1.56669e-06,-3.27738e-12,2.7182e-38,0,-1.06612e-13,0,0,-3.66229,0.001035,0.235943,0,0,0,0,0,0,0,258,-29,258,-29,382,-32,256,91,0,-0.349066,2.86518,-1.5,-nan,0,0,2,0,0,0,0,0,0,0,0,15744,0,0,0,0,0,0,0,0,0,2.5,0
9114,-3.21172e-12,2.71844e-38,-1.56669e-06,-3.27738e-12,2.7182e-38,0,-1.06612e-13,0,0,-3.66229,0.001035,0.235943,0,0,0,0,0,0,0,258,-29,258,-29,382,-32,256,91,0,-0.349066,2.87392,-1.5,-nan,0,0,2,0,0,0,0,0,0,0,0,15744,0,0,0,0,0,0,0,0,0,2.5,0
9132,-3.21172e-12,2.71844e-38,-1.56669e-06,-3.27738e-12,2.7182e-38,0,-1.06612e-13,0,0,-3.78587,0.0187305,0.294016,0,0,0,0,0,0,0,258,-29,258,-29,378,-30,258,89,0,-0.349066,2.88344,-1.5,-nan,0,0,2,0,0,0,0,0,0,0,0,14280,0,0,0,0,0,0,0,0,0,2.5,0
9146,-3.21172e-12,2.71844e-38,-1.56669e-06,-3.27738e-12,2.7182e-38,0,-1.06612e-13,0,0,-3.78587,0.0187305,0.294016,0,0,0,0,0,0,0,258,-29,258,-29,378,-30,258,89,0,-0.349066,2.8906,-1.5,-nan,0,0,2,0,0,0,0,0,0,0,0,14280,0,0,0,0,0,0,0,0,0,2.5,0
9160,-3.21172e-12,2.71844e-38,-1.56669e-06,-3.27738e-12,2.7182e-38,0,-1.06613e-13,0,0,-3.78875,0.014967,0.290469,0,0,0,0,0,0,0,258,-27,258,-27,378,-32,260,91,0,-0.349066,2.89755,-1.5,-nan,0,0,2,0,0,0,0,0,0,0,0,14760,0,0,0,0,0,0,0,0,0,2.5,0
9175,-3.21172e-12,2.71844e-38,-1.56669e-06,-3.27738e-12,2.7182e-38,0,-1.06613e-13,0,0,-3.78875,0.014967,0.290469,0,0,0,0,0,0,0,258,-27,258,-27,378,-32,260,91,0,-0.349066,2.9048,-1.5,-nan,0,0,2,0,0,0,0,0,0,0,0,14760,0,0,0,0,0,0,0,0,0,2.5,0
9191,-3.21172e-12,2.71844e-38,-1.56669e-06,-3.27738e-12,2.7182e-38,0,-1.06613e-13,0,0,-3.78875,0.014967,0.290469,0,0,0,0,0,0,0,258,-27,258,-27,378,-32,260,91,0,-0.349066,2.91182,-1.5,-nan,0,0,2,0,0,0,0,0,0,0,0,14760,0,0,0,0,0,0,0,0,0,2.5,0
9206,-3.21172e-12,2.71844e-38,-1.56669e-06,-3.27738e-12,2.7182e-38,0,-1.06613e-13,0,0,-3.74605,0.0119882,0.278086,0,0,0,0,0,0,0,258,-29,258,-29,381,-32,258,89,0,-0.349066,2.91909,-1.5,-nan,0,0,2,0,0,0,0,0,0,0,0,14883,0,0,0,0,0,0,0,0,0,2.5,0
9221,-3.21172e-12,2.71844e-38,-1.56669e-06,-3.27738e-12,2.7182e-38,0,-1.06614e-13,0,0,-3.74605,0.0119882,0.278086,0,0,0,0,0,0,0,258,-29,258,-29,381,-32,258,89,0,-0.349066,2.9257,-1.5,-nan,0,0,2,0,0,0,0,0,0,0,0,14883,0,0,0,0,0,0,0,0,0,2.5,0
9236,-3.21172e-12,2.71844e-38,-1.56669e-06,-3.27738e-12,2.7182e-38,0,-1.06614e-13,0,0,-3.73201,0.0121609,0.266162,0,0,0,0,0,0,0,258,-29,258,-29,381,-32,258,91,0,-0.349066,2.9321,-1.5,-nan,0,0,2,0,0,0,0,0,0,0,0,15129,0,0,0,0,0,0,0,0,0,2.5,0
9252,-3.21172e-12,2.71844e-38,-1.56669e-06,-3.27738e-12,2.7182e-38,0,-1.06614e-13,0,0,-3.73201,0.0121609,0.266162,0,0,0,0,0,0,0,258,-29,258,-29,381,-32,258,91,0,-0.349066,2.93832,-1.5,-nan,0,0,2,0,0,0,0,0,0,0,0,15129,0,0,0,0,0,0,0,0,0,2.5,0
9267,-3.21172e-12,2.71844e-38,-1.56669e-06,-3.27738e-12,2.7182e-38,0,-1.06615e-13,0,0,-3.75805,0.0239202,0.274631,0,0,0,0,0,0,0,258,-29,258,-29,376,-32,258,93,0,-0.349066,2.94475,-1.5,-nan,0,0,2,0,0,0,0,0,0,0,0,15000,0,0,0,0,0,0,0,0,0,2.5,0
9283,-3.21172e-12,2.71844e-38,-1.56669e-06,-3.27738e-12,2.7182e-38,0,-1.06615e-13,0,0,-3.75805,0.0239202,0.274631,0,0,0,0,0,0,0,258,-29,258,-29,376,-32,258,93,0,-0.349066,2.95059,-1.5,-nan,0,0,2,0,0,0,0,0,0,0,0,15000,0,0,0,0,0,0,0,0,0,2.5,0
9299,-3.21172e-12,2.71844e-38,-1.56669e-06,-3.27738e-12,2.7182e-38,0,-1.06615e-13,0,0,-3.72394,0.0284571,0.252709,0,0,0,0,0,0,0,258,-29,258,-29,376,-32,256,95,0,-0.349066,2.95701,-1.5,-nan,0,0,2,0,0,0,0,0,0,0,0,15494,0,0,0,0,0,0,0,0,0,2.5,0
9314,-3.21172e-12,2.71844e-38,-1.56669e-06,-3.27738e-12,2.7182e-38,0,-1.06615e-13,0,0,-3.72394,0.0284571,0.252709,0,0,0,0,0,0,0,258,-29,258,-29,376,-32,256,95,0,-0.349066,2.96249,-1.5,-nan,0,0,2,0,0,0,0,0,0,0,0,15494,0,0,0,0,0,0,0,0,0,2.5,0
9329,-3.21172e-12,2.71844e-38,-1.56669e-06,-3.27738e-12,2.7182e-38,0,-1.06616e-13,0,0,-3.75733,0.0144363,0.269818,0,0,0,0,0,0,0,258,-29,258,-29,379,-30,259,93,0,-0.349066,2.9678,-1.5,-nan,0,0,2,0,0,0,0,0,0,0,0,14883,0,0,0,0,0,0,0,0,0,2.5,0
9345,-3.21172e-12,2.71844e-38,-1.56669e-06,-3.27738e-12,2.7182e-38,0,-1.06616e-13,0,0,-3.75733,0.0144363,0.269818,0,0,0,0,0,0,0,258,-29,258,-29,379,-30,259,93,0,-0.349066,2.9733,-1.5,-nan,0,0,2,0,0,0,0,0,0,0,0,14883,0,0,0,0,0,0,0,0,0,2.5,0
9360,-3.21172e-12,2.71844e-38,-1.56669e-06,-3.27738e-12,2.7182e-38,0,-1.06616e-13,0,0,-3.82671,0.0100868,0.317157,0,0,0,0,0,0,0,261,-27,261,-27,378,-32,259,88,0,-0.349066,2.97829,-1.5,-nan,0,0,2,0,0,0,0,0,0,0,0,14280,0,0,0,0,0,0,0,0,0,2.5,0
9376,-3.21172e-12,2.71844e-38,-1.56669e-06,-3.27738e-12,2.7182e-38,0,-1.06616e-13,0,0,-3.82671,0.0100868,0.317157,0,0,0,0,0,0,0,261,-27,261,-27,378,-32,259,88,0,-0.349066,2.98314,-1.5,-nan,0,0,2,0,0,0,0,0,0,0,0,14280,0,0,0,0,0,0,0,0,0,2.5,0
9391,-3.21172e-12,2.71844e-38,-1.56669e-06,-3.27738e-12,2.7182e-38,0,-1.06617e-13,0,0,-3.82671,0.0100868,0.317157,0,0,0,0,0,0,0,261,-27,261,-27,378,-32,259,88,0,-0.349066,2.98784,-1.5,-nan,0,0,2,0,0,0,0,0,0,0,0,14280,0,0,0,0,0,0,0,0,0,2.5,0
9404,-3.21172e-12,2.71844e-38,-1.56669e-06,-3.27738e-12,2.7182e-38,0,-1.06617e-13,0,0,-3.91361,-0.00536209,0.342441,0,0,0,0,0,0,0,263,-27,263,-27,379,-26,263,87,0,-0.349066,2.9918,-1.5,-nan,0,0,2,0,0,0,0,0,0,0,0,13688,0,0,0,0,0,0,0,0,0,2.5,0
9417,-3.21172e-12,2.71844e-38,-1.56669e-06,-3.27738e-12,2.7182e-38,0,-1.06617e-13,0,0,-3.91361,-0.00536209,0.342441,0,0,0,0,0,0,0,263,-27,263,-27,379,-26,263,87,0,-0.349066,2.99566,-1.5,-nan,0,0,2,0,0,0,0,0,0,0,0,13688,0,0,0,0,0,0,0,0,0,2.5,0
9433,-3.21172e-12,2.71844e-38,-1.56669e-06,-3.27738e-12,2.7182e-38,0,-1.06618e-13,0,0,-3.81208,0.010651,0.291286,0,0,0,0,0,0,0,263,-29,263,-29,379,-26,256,88,0,-0.349066,3.00027,-1.5,-nan,0,0,2,0,0,0,0,0,0,0,0,14883,0,0,0,0,0,0,0,0,0,2.5,0
9448,-3.21172e-12,2.71844e-38,-1.56669e-06,-3.27738e-12,2.7182e-38,0,-1.06618e-13,0,0,-3.81208,0.010651,0.291286,0,0,0,0,0,0,0,263,-29,263,-29,379,-26,256,88,0,-0.349066,3.00447,-1.5,-nan,0,0,2,0,0,0,0,0,0,0,0,14883,0,0,0,0,0,0,0,0,0,2.5,0
9464,-3.21172e-12,2.71844e-38,-1.56669e-06,-3.27738e-12,2.7182e-38,0,-1.06618e-13,0,0,-3.83482,0.00638842,0.293465,0,0,0,0,0,0,0,263,-22,263,-22,379,-30,258,93,0,-0.349066,3.00881,-1.5,-nan,0,0,2,0,0,0,0,0,0,0,0,14883,0,0,0,0,0,0,0,0,0,2.5,0
9479,-3.21172e-12,2.71844e-38,-1.56669e-06,-3.27738e-12,2.7182e-38,0,-1.06618e-13,0,0,-3.83482,0.00638842,0.293465,0,0,0,0,0,0,0,263,-22,263,-22,379,-30,258,93,0,-0.349066,3.01275,-1.5,-nan,0,0,2,0,0,0,0,0,0,0,0,14883,0,0,0,0,0,0,0,0,0,2.5,0
9495,-3.21172e-12,2.71844e-38,-1.56669e-06,-3.27738e-12,2.7182e-38,0,-1.06619e-13,0,0,-3.70318,0.00325267,0.247633,0,0,0,0,0,0,0,258,-29,258,-29,379,-30,258,93,0,-0.349066,3.01683,-1.5,-nan,0,0,2,0,0,0,0,0,0,0,0,15498,0,0,0,0,0,0,0,0,0,2.5,0
9510,-3.21172e-12,2.71844e-38,-1.56669e-06,-3.27738e-12,2.7182e-38,0,-1.06619e-13,0,0,-3.70318,0.00325267,0.247633,0,0,0,0,0,0,0,258,-29,258,-29,379,-30,258,93,0,-0.349066,3.02053,-1.5,-nan,0,0,2,0,0,0,0,0,0,0,0,15498,0,0,0,0,0,0,0,0,0,2.5,0
9526,-3.21172e-12,2.71844e-38,-1.56669e-06,-3.27738e-12,2.7182e-38,0,-1.06619e-13,0,0,-3.81809,0.00624242,0.308372,0,0,0,0,0,0,0,259,-24,259,-24,381,-32,260,89,0,-0.349066,3.02436,-1.5,-nan,0,0,2,0,0,0,0,0,0,0,0,14762,0,0,0,0,0,0,0,0,0,2.5,0
9542,-3.21172e-12,2.71844e-38,-1.56669e-06,-3.27738e-12,2.7182e-38,0,-1.06619e-13,0,0,-3.81809,0.00624242,0.308372,0,0,0,0,0,0,0,259,-24,259,-24,381,-32,260,89,0,-0.349066,3.02784,-1.5,-nan,0,0,2,0,0,0,0,0,0,0,0,14762,0,0,0,0,0,0,0,0,0,2.5,0
9557,-3.21172e-12,2.71844e-38,-1.56669e-06,-3.27738e-12,2.7182e-38,0,-1.0662e-13,0,0,-3.81809,0.00624242,0.308372,0,0,0,0,0,0,0,259,-24,259,-24,381,-32,260,89,0,-0.349066,3.03122,-1.5,-nan,0,0,2,0,0,0,0,0,0,0,0,14762,0,0,0,0,0,0,0,0,0,2.5,0
9573,-3.21172e-12,2.71844e-38,-1.56669e-06,-3.27738e-12,2.7182e-38,0,-1.0662e-13,0,0,-3.74679,0.0224362,0.262481,0,0,0,0,0,0,0,259,-26,259,-26,378,-32,256,95,0,-0.349066,3.03471,-1.5,-nan,0,0,2,0,0,0,0,0,0,0,0,15494,0,0,0,0,0,0,0,0,0,2.5,0
9589,-3.21172e-12,2.71844e-38,-1.56669e-06,-3.27738e-12,2.7182e-38,0,-1.0662e-13,0,0,-3.74679,0.0224362,0.262481,0,0,0,0,0,0,0,259,-26,259,-26,378,-32,256,95,0,-0.349066,3.03809,-1.5,-nan,0,0,2,0,0,0,0,0,0,0,0,15494,0,0,0,0,0,0,0,0,0,2.5,0
9604,-3.21172e-12,2.71844e-38,-1.56669e-06,-3.27738e-12,2.7182e-38,0,-1.0662e-13,0,0,-3.68964,0.00255268,0.225316,0,0,0,0,0,0,0,259,-22,259,-22,381,-32,256,95,0,-0.349066,3.04116,-1.5,-nan,0,0,2,0,0,0,0,0,0,0,0,16256,0,0,0,0,0,0,0,0,0,2.5,0
9620,-3.21172e-12,2.71844e-38,-1.56669e-06,-3.27738e-12,2.7182e-38,0,-1.06621e-13,0,0,-3.68964,0.00255268,0.225316,0,0,0,0,0,0,0,259,-22,259,-22,381,-32,256,95,0,-0.349066,3.04434,-1.5,-nan,0,0,2,0,0,0,0,0,0,0,0,16256,0,0,0,0,0,0,0,0,0,2.5,0
9635,-3.21172e-12,2.71844e-38,-1.56669e-06,-3.27738e-12,2.7182e-38,0,-1.06621e-13,0,0,-3.67393,0.00178085,0.223928,0,0,0,0,0,0,0,259,-26,259,-26,381,-31,256,95,0,-0.349066,3.04723,-1.5,-nan,0,0,2,0,0,0,0,0,0,0,0,16128,0,0,0,0,0,0,0,0,0,2.5,0
9651,-3.21172e-12,2.71844e-38,-1.56669e-06,-3.27738e-12,2.7182e-38,0,-1.06621e-13,0,0,-3.67393,0.00178085,0.223928,0,0,0,0,0,0,0,259,-26,259,-26,381,-31,256,95,0,-0.349066,3.05021,-1.5,-nan,0,0,2,0,0,0,0,0,0,0,0,16128,0,0,0,0,0,0,0,0,0,2.5,0
9664,-3.21172e-12,2.71844e-38,-1.56669e-06,-3.27738e-12,2.7182e-38,0,-1.06622e-13,0,0,-3.72335,0.00586006,0.25353,0,0,0,0,0,0,0,258,-27,258,-27,378,-30,258,93,0,-0.349066,3.05256,-1.5,-nan,0,0,2,0,0,0,0,0,0,0,0,15498,0,0,0,0,0,0,0,0,0,2.5,0
9678,-3.21172e-12,2.71844e-38,-1.56669e-06,-3.27738e-12,2.7182e-38,0,-1.06622e-13,0,0,-3.72335,0.00586006,0.25353,0,0,0,0,0,0,0,258,-27,258,-27,378,-30,258,93,0,-0.349066,3.05503,-1.5,-nan,0,0,2,0,0,0,0,0,0,0,0,15498,0,0,0,0,0,0,0,0,0,2.5,0
9693,-3.21172e-12,2.71844e-38,-1.56669e-06,-3.27738e-12,2.7182e-38,0,-1.06622e-13,0,0,-3.87154,0.00232092,0.328771,0,0,0,0,0,0,0,263,-27,263,-27,379,-27,259,88,0,-0.349066,3.0576,-1.5,-nan,0,0,2,0,0,0,0,0,0,0,0,13800,0,0,0,0,0,0,0,0,0,2.5,0
9709,-3.21172e-12,2.71844e-38,-1.56669e-06,-3.27738e-12,2.7182e-38,0,-1.06622e-13,0,0,-3.87154,0.00232092,0.328771,0,0,0,0,0,0,0,263,-27,263,-27,379,-27,259,88,0,-0.349066,3.06026,-1.5,-nan,0,0,2,0,0,0,0,0,0,0,0,13800,0,0,0,0,0,0,0,0,0,2.5,0
9725,-3.21172e-12,2.71844e-38,-1.56669e-06,-3.27738e-12,2.7182e-38,0,-1.06623e-13,0,0,-3.80106,0.00221348,0.302148,0,0,0,0,0,0,0,264,-29,264,-29,381,-29,256,88,0,-0.349066,3.06267,-1.5,-nan,0,0,2,0,0,0,0,0,0,0,0,14625,0,0,0,0,0,0,0,0,0,2.5,0
9740,-3.21172e-12,2.71844e-38,-1.56669e-06,-3.27738e-12,2.7182e-38,0,-1.06623e-13,0,0,-3.80106,0.00221348,0.302148,0,0,0,0,0,0,0,264,-29,264,-29,381,-29,256,88,0,-0.349066,3.06517,-1.5,-nan,0,0,2,0,0,0,0,0,0,0,0,14625,0,0,0,0,0,0,0,0,0,2.5,0
9755,-3.21172e-12,2.71844e-38,-1.56669e-06,-3.27738e-12,2.7182e-38,0,-1.06623e-13,0,0,-3.86482,0.000178265,0.339302,0,0,0,0,0,0,0,264,-29,264,-29,379,-29,259,88,0,-0.349066,3.06744,-1.5,-nan,0,0,2,0,0,0,0,0,0,0,0,14040,0,0,0,0,0,0,0,0,0,2.5,0
9771,-3.21172e-12,2.71844e-38,-1.56669e-06,-3.27738e-12,2.7182e-38,0,-1.06623e-13,0,0,-3.86482,0.000178265,0.339302,0,0,0,0,0,0,0,264,-29,264,-29,379,-29,259,88,0,-0.349066,3.06978,-1.5,-nan,0,0,2,0,0,0,0,0,0,0,0,14040,0,0,0,0,0,0,0,0,0,2.5,0
9786,-3.21172e-12,2.71844e-38,-1.56669e-06,-3.27738e-12,2.7182e-38,0,-1.06624e-13,0,0,-3.86482,0.000178265,0.339302,0,0,0,0,0,0,0,264,-29,264,-29,379,-29,259,88,0,-0.349066,3.07191,-1.5,-nan,0,0,2,0,0,0,0,0,0,0,0,14040,0,0,0,0,0,0,0,0,0,2.5,0
9802,-3.21172e-12,2.71844e-38,-1.56669e-06,-3.27738e-12,2.7182e-38,0,-1.06624e-13,0,0,-3.79785,0.0196336,0.304925,0,0,0,0,0,0,0,258,-27,258,-27,378,-32,258,89,0,-0.349066,3.07412,-1.5,-nan,0,0,2,0,0,0,0,0,0,0,0,14520,0,0,0,0,0,0,0,0,0,2.5,0
9817,-3.21172e-12,2.71844e-38,-1.56669e-06,-3.27738e-12,2.7182e-38,0,-1.06624e-13,0,0,-3.79785,0.0196336,0.304925,0,0,0,0,0,0,0,258,-27,258,-27,378,-32,258,89,0,-0.349066,3.07612,-1.5,-nan,0,0,2,0,0,0,0,0,0,0,0,14520,0,0,0,0,0,0,0,0,0,2.5,0
9833,-3.21172e-12,2.71844e-38,-1.56669e-06,-3.27738e-12,2.7182e-38,0,-1.06625e-13,0,0,-3.73538,0.0116786,0.248395,0,0,0,0,0,0,0,260,-22,260,-22,376,-32,256,95,0,-0.349066,3.07819,-1.5,-nan,0,0,2,0,0,0,0,0,0,0,0,16256,0,0,0,0,0,0,0,0,0,2.5,0
9850,-3.21172e-12,2.71844e-38,-1.56669e-06,-3.27738e-12,2.7182e-38,0,-1.06625e-13,0,0,-3.73538,0.0116786,0.248395,0,0,0,0,0,0,0,260,-22,260,-22,376,-32,256,95,0,-0.349066,3.08032,-1.5,-nan,0,0,2,0,0,0,0,0,0,0,0,16256,0,0,0,0,0,0,0,0,0,2.5,0
9866,-3.21172e-12,2.71844e-38,-1.56669e-06,-3.27738e-12,2.7182e-38,0,-1.06625e-13,0,0,-3.83722,0.0162296,0.311297,0,0,0,0,0,0,0,260,-22,260,-22,378,-32,258,91,0,-0.349066,3.08226,-1.5,-nan,0,0,2,0,0,0,0,0,0,0,0,14760,0,0,0,0,0,0,0,0,0,2.5,0
9881,-3.21172e-12,2.71844e-38,-1.56669e-06,-3.27738e-12,2.7182e-38,0,-1.06625e-13,0,0,-3.83722,0.0162296,0.311297,0,0,0,0,0,0,0,260,-22,260,-22,378,-32,258,91,0,-0.349066,3.08402,-1.5,-nan,0,0,2,0,0,0,0,0,0,0,0,14760,0,0,0,0,0,0,0,0,0,2.5,0
9897,-3.21172e-12,2.71844e-38,-1.56669e-06,-3.27738e-12,2.7182e-38,0,-1.06626e-13,0,0,-3.72451,0.00693485,0.240951,0,0,0,0,0,0,0,259,-22,259,-22,379,-30,256,95,0,-0.349066,3.08584,-1.5,-nan,0,0,2,0,0,0,0,0,0,0,0,16000,0,0,0,0,0,0,0,0,0,2.5,0
9912,-3.21172e-12,2.71844e-38,-1.56669e-06,-3.27738e-12,2.7182e-38,0,-1.06626e-13,0,0,-3.72451,0.00693485,0.240951,0,0,0,0,0,0,0,259,-22,259,-22,379,-30,256,95,0,-0.349066,3.0875,-1.5,-nan,0,0,2,0,0,0,0,0,0,0,0,16000,0,0,0,0,0,0,0,0,0,2.5,0
9926,-3.21172e-12,2.71844e-38,-1.56669e-06,-3.27738e-12,2.7182e-38,0,-1.06626e-13,0,0,-3.72451,0.00693485,0.240951,0,0,0,0,0,0,0,259,-22,259,-22,379,-30,256,95,0,-0.349066,3.08889,-1.5,-nan,0,0,2,0,0,0,0,0,0,0,0,16000,0,0,0,0,0,0,0,0,0,2.5,0
9939,-3.21172e-12,2.71844e-38,-1.56669e-06,-3.27738e-12,2.7182e-38,0,-1.06626e-13,0,0,-3.77638,-0.000382575,0.283324,0,0,0,0,0,0,0,260,-22,260,-22,379,-32,258,89,0,-0.349066,3.09025,-1.5,-nan,0,0,2,0,0,0,0,0,0,0,0,15246,0,0,0,0,0,0,0,0,0,2.5,0
9954,-3.21172e-12,2.71844e-38,-1.56669e-06,-3.27738e-12,2.7182e-38,0,-1.06627e-13,0,0,-3.77638,-0.000382575,0.283324,0,0,0,0,0,0,0,260,-22,260,-22,379,-32,258,89,0,-0.349066,3.09177,-1.5,-nan,0,0,2,0,0,0,0,0,0,0,0,15246,0,0,0,0,0,0,0,0,0,2.5,0
9970,-3.21172e-12,2.71844e-38,-1.56669e-06,-3.27738e-12,2.7182e-38,0,-1.06627e-13,0,0,-3.68657,-0.00100677,0.243671,0,0,0,0,0,0,0,258,-29,258,-29,381,-31,258,93,0,-0.349066,3.09335,-1.5,-nan,0,0,2,0,0,0,0,0,0,0,0,15624,0,0,0,0,0,0,0,0,0,2.5,0
9985,-3.21172e-12,2.71844e-38,-1.56669e-06,-3.27738e-12,2.7182e-38,0,-1.06627e-13,0,0,-3.68657,-0.00100677,0.243671,0,0,0,0,0,0,0,258,-29,258,-29,381,-31,258,93,0,-0.349066,3.09478,-1.5,-nan,0,0,2,0,0,0,0,0,0,0,0,15624,0,0,0,0,0,0,0,0,0,2.5,0
10001,-3.21172e-12,2.71844e-38,-1.56669e-06,-3.27738e-12,2.7182e-38,0,-1.06628e-13,0,0,-3.81643,0.011302,0.305604,0,0,0,0,0,0,0,259,-22,259,-22,381,-32,258,89,0,-0.349066,3.09626,-1.5,-nan,0,0,2,0,0,0,0,0,0,0,0,14883,0,0,0,0,0,0,0,0,0,2.5,0
10017,-3.21172e-12,2.71844e-38,-1.56669e-06,-3.27738e-12,2.7182e-38,0,-1.06628e-13,0,0,-3.81643,0.011302,0.305604,0,0,0,0,0,0,0,259,-22,259,-22,381,-32,258,89,0,-0.349066,3.09769,-1.5,-nan,0,0,2,0,0,0,0,0,0,0,0,14883,0,0,0,0,0,0,0,0,0,2.5,0
10033,-3.21172e-12,2.71844e-38,-1.56669e-06,-3.27738e-12,2.7182e-38,0,-1.06628e-13,0,0,-3.80199,0.0182748,0.291174,0,0,0,0,0,0,0,260,-22,260,-22,379,-32,256,91,0,-0.349066,3.099,-1.5,-nan,0,0,2,0,0,0,0,0,0,0,0,15129,0,0,0,0,0,0,0,0,0,2.5,0
10048,-3.21172e-12,2.71844e-38,-1.56669e-06,-3.27738e-12,2.7182e-38,0,-1.06628e-13,0,0,-3.80199,0.0182748,0.291174,0,0,0,0,0,0,0,260,-22,260,-22,379,-32,256,91,0,-0.349066,3.10034,-1.5,-nan,0,0,2,0,0,0,0,0,0,0,0,15129,0,0,0,0,0,0,0,0,0,2.5,0
10064,-3.21172e-12,2.71844e-38,-1.56669e-06,-3.27738e-12,2.7182e-38,0,-1.06629e-13,0,0,-3.75883,0.0122467,0.289398,0,0,0,0,0,0,0,258,-29,258,-29,381,-32,258,89,0,-0.349066,3.10165,-1.5,-nan,0,0,2,0,0,0,0,0,0,0,0,14883,0,0,0,0,0,0,0,0,0,2.5,0
10079,-3.21172e-12,2.71844e-38,-1.56669e-06,-3.27738e-12,2.7182e-38,0,-1.06629e-13,0,0,-3.75883,0.0122467,0.289398,0,0,0,0,0,0,0,258,-29,258,-29,381,-32,258,89,0,-0.349066,3.10283,-1.5,-nan,0,0,2,0,0,0,0,0,0,0,0,14883,0,0,0,0,0,0,0,0,0,2.5,0
10095,-3.21172e-12,2.71844e-38,-1.56669e-06,-3.27738e-12,2.7182e-38,0,-1.06629e-13,0,0,-3.82942,0.00202826,0.304911,0,0,0,0,0,0,0,263,-22,263,-22,381,-32,258,91,0,-0.349066,3.10406,-1.5,-nan,0,0,2,0,0,0,0,0,0,0,0,15129,0,0,0,0,0,0,0,0,0,2.5,0
10112,-3.21172e-12,2.71844e-38,-1.56669e-06,-3.27738e-12,2.7182e-38,0,-1.06629e-13,0,0,-3.82942,0.00202826,0.304911,0,0,0,0,0,0,0,263,-22,263,-22,381,-32,258,91,0,-0.349066,3.10532,-1.5,-nan,0,0,2,0,0,0,0,0,0,0,0,15129,0,0,0,0,0,0,0,0,0,2.5,0
10128,-3.21172e-12,2.71844e-38,-1.56669e-06,-3.27738e-12,2.7182e-38,0,-1.0663e-13,0,0,-3.80057,0.00957018,0.299499,0,0,0,0,0,0,0,260,-22,260,-22,381,-34,258,91,0,-0.349066,3.10647,-1.5,-nan,0,0,2,0,0,0,0,0,0,0,0,15375,0,0,0,0,0,0,0,0,0,2.5,0
10144,-3.21172e-12,2.71844e-38,-1.56669e-06,-3.27738e-12,2.7182e-38,0,-1.0663e-13,0,0,-3.80057,0.00957018,0.299499,0,0,0,0,0,0,0,260,-22,260,-22,381,-34,258,91,0,-0.349066,3.10758,-1.5,-nan,0,0,2,0,0,0,0,0,0,0,0,15375,0,0,0,0,0,0,0,0,0,2.5,0
10160,-3.21172e-12,2.71844e-38,-1.56669e-06,-3.27738e-12,2.7182e-38,0,-1.0663e-13,0,0,-3.80057,0.00957018,0.299499,0,0,0,0,0,0,0,260,-22,260,-22,381,-34,258,91,0,-0.349066,3.10866,-1.5,-nan,0,0,2,0,0,0,0,0,0,0,0,15375,0,0,0,0,0,0,0,0,0,2.5,0
10178,-3.21172e-12,2.71844e-38,-1.56669e-06,-3.27738e-12,2.7182e-38,0,-1.06631e-13,0,0,-3.70909,0.00345046,0.248539,0,0,0,0,0,0,0,261,-26,261,-26,381,-32,255,91,0,-0.349066,3.10983,-1.5,-nan,0,0,2,0,0,0,0,0,0,0,0,15621,0,0,0,0,0,0,0,0,0,2.5,0
10193,-3.21172e-12,2.71844e-38,-1.56669e-06,-3.27738e-12,2.7182e-38,0,-1.06631e-13,0,0,-3.81736,0.012244,0.298308,0,0,0,0,0,0,0,261,-27,261,-27,381,-29,258,91,0,-0.349066,3.11077,-1.5,-nan,0,0,2,0,0,0,0,0,0,0,0,14760,0,0,0,0,0,0,0,0,0,2.5,0
10206,-3.21172e-12,2.71844e-38,-1.56669e-06,-3.27738e-12,2.7182e-38,0,-1.06631e-13,0,0,-3.81736,0.012244,0.298308,0,0,0,0,0,0,0,261,-27,261,-27,381,-29,258,91,0,-0.349066,3.11156,-1.5,-nan,0,0,2,0,0,0,0,0,0,0,0,14760,0,0,0,0,0,0,0,0,0,2.5,0
10221,-3.21172e-12,2.71844e-38,-1.56669e-06,-3.27738e-12,2.7182e-38,0,-1.06631e-13,0,0,-3.81736,0.012244,0.298308,0,0,0,0,0,0,0,261,-27,261,-27,381,-29,258,91,0,-0.349066,3.11245,-1.5,-nan,0,0,2,0,0,0,0,0,0,0,0,14760,0,0,0,0,0,0,0,0,0,2.5,0
10237,-3.21172e-12,2.71844e-38,-1.56669e-06,-3.27738e-12,2.7182e-38,0,-1.06632e-13,0,0,-3.80014,0.0287767,0.282677,0,0,0,0,0,0,0,259,-26,259,-26,378,-29,256,93,0,-0.349066,3.11337,-1.5,-nan,0,0,2,0,0,0,0,0,0,0,0,14884,0,0,0,0,0,0,0,0,0,2.5,0
10252,-3.21172e-12,2.71844e-38,-1.56669e-06,-3.27738e-12,2.7182e-38,0,-1.06632e-13,0,0,-3.80014,0.0287767,0.282677,0,0,0,0,0,0,0,259,-26,259,-26,378,-29,256,93,0,-0.349066,3.11421,-1.5,-nan,0,0,2,0,0,0,0,0,0,0,0,14884,0,0,0,0,0,0,0,0,0,2.5,0
10268,-3.21172e-12,2.71844e-38,-1.56669e-06,-3.27738e-12,2.7182e-38,0,-1.06632e-13,0,0,-3.80014,0.0287767,0.282677,0,0,0,0,0,0,0,259,-26,259,-26,378,-29,256,93,0,-0.349066,3.11508,-1.5,-nan,0,0,2,0,0,0,0,0,0,0,0,14884,0,0,0,0,0,0,0,0,0,2.5,0
10283,-3.21172e-12,2.71844e-38,-1.56669e-06,-3.27738e-12,2.7182e-38,0,-1.06632e-13,0,0,-3.80014,0.0287767,0.282677,0,0,0,0,0,0,0,259,-26,259,-26,378,-29,256,93,0,-0.349066,3.11586,-1.5,-nan,0,0,2,0,0,0,0,0,0,0,0,14884,0,0,0,0,0,0,0,0,0,2.5,0
10299,-3.21172e-12,2.71844e-38,-1.56669e-06,-3.27738e-12,2.7182e-38,0,-1.06633e-13,0,0,-3.82054,0.040688,0.311943,0,0,0,0,0,0,0,259,-26,259,-26,375,-32,254,89,0,-0.349066,3.11668,-1.5,-nan,0,0,2,0,0,0,0,0,0,0,0,14641,0,0,0,0,0,0,0,0,0,2.5,0
10314,-3.21172e-12,2.71844e-38,-1.56669e-06,-3.27738e-12,2.7182e-38,0,-1.06633e-13,0,0,-3.82054,0.040688,0.311943,0,0,0,0,0,0,0,259,-26,259,-26,375,-32,254,89,0,-0.349066,3.11742,-1.5,-nan,0,0,2,0,0,0,0,0,0,0,0,14641,0,0,0,0,0,0,0,0,0,2.5,0
10330,-3.21172e-12,2.71844e-38,-1.56669e-06,-3.27738e-12,2.7182e-38,0,-1.06633e-13,0,0,-3.83617,0.0316109,0.299341,0,0,0,0,0,0,0,260,-22,260,-22,378,-29,254,90,0,-0.349066,3.11818,-1.5,-nan,0,0,2,0,0,0,0,0,0,0,0,14756,0,0,0,0,0,0,0,0,0,2.5,0
10345,-3.21172e-12,2.71844e-38,-1.56669e-06,-3.27738e-12,2.7182e-38,0,-1.06634e-13,0,0,-3.83617,0.0316109,0.299341,0,0,0,0,0,0,0,260,-22,260,-22,378,-29,254,90,0,-0.349066,3.11888,-1.5,-nan,0,0,2,0,0,0,0,0,0,0,0,14756,0,0,0,0,0,0,0,0,0,2.5,0
10361,-3.21172e-12,2.71844e-38,-1.56669e-06,-3.27738e-12,2.7182e-38,0,-1.06634e-13,0,0,-3.83617,0.0316109,0.299341,0,0,0,0,0,0,0,260,-22,260,-22,378,-29,254,90,0,-0.349066,3.11959,-1.5,-nan,0,0,2,0,0,0,0,0,0,0,0,14756,0,0,0,0,0,0,0,0,0,2.5,0
10376,-3.21172e-12,2.71844e-38,-1.56669e-06,-3.27738e-12,2.7182e-38,0,-1.06634e-13,0,0,-3.83617,0.0316109,0.299341,0,0,0,0,0,0,0,260,-22,260,-22,378,-29,254,90,0,-0.349066,3.12025,-1.5,-nan,0,0,2,0,0,0,0,0,0,0,0,14756,0,0,0,0,0,0,0,0,0,2.5,0
10392,-3.21172e-12,2.71844e-38,-1.56669e-06,-3.27738e-12,2.7182e-38,0,-1.06634e-13,0,0,-3.79709,0.0279245,0.295229,0,0,0,0,0,0,0,261,-29,261,-29,378,-29,254,90,0,-0.349066,3.12092,-1.5,-nan,0,0,2,0,0,0,0,0,0,0,0,14756,0,0,0,0,0,0,0,0,0,2.5,0
10409,-3.21172e-12,2.71844e-38,-1.56669e-06,-3.27738e-12,2.7182e-38,0,-1.06635e-13,0,0,-3.79709,0.0279245,0.295229,0,0,0,0,0,0,0,261,-29,261,-29,378,-29,254,90,0,-0.349066,3.12162,-1.5,-nan,0,0,2,0,0,0,0,0,0,0,0,14756,0,0,0,0,0,0,0,0,0,2.5,0
10424,-3.21172e-12,2.71844e-38,-1.56669e-06,-3.27738e-12,2.7182e-38,0,-1.06635e-13,0,0,-3.79709,0.0279245,0.295229,0,0,0,0,0,0,0,261,-29,261,-29,378,-29,254,90,0,-0.349066,3.12221,-1.5,-nan,0,0,2,0,0,0,0,0,0,0,0,14756,0,0,0,0,0,0,0,0,0,2.5,0
10440,-3.21172e-12,2.71844e-38,-1.56669e-06,-3.27738e-12,2.7182e-38,0,-1.06635e-13,0,0,-3.8053,0.0309046,0.29021,0,0,0,0,0,0,0,259,-26,259,-26,378,-29,255,91,0,-0.349066,3.12282,-1.5,-nan,0,0,2,0,0,0,0,0,0,0,0,14760,0,0,0,0,0,0,0,0,0,2.5,0
10453,-3.21172e-12,2.71844e-38,-1.56669e-06,-3.27738e-12,2.7182e-38,0,-1.06635e-13,0,0,-3.8053,0.0309046,0.29021,0,0,0,0,0,0,0,259,-26,259,-26,378,-29,255,91,0,-0.349066,3.12331,-1.5,-nan,0,0,2,0,0,0,0,0,0,0,0,14760,0,0,0,0,0,0,0,0,0,2.5,0
10467,-3.21172e-12,2.71844e-38,-1.56669e-06,-3.27738e-12,2.7182e-38,0,-1.06636e-13,0,0,-3.73681,0.00530038,0.277885,0,0,0,0,0,0,0,258,-31,258,-31,378,-32,260,91,0,-0.349066,3.12378,-1.5,-nan,0,0,2,0,0,0,0,0,0,0,0,15252,0,0,0,0,0,0,0,0,0,2.5,0
10482,-3.21172e-12,2.71844e-38,-1.56669e-06,-3.27738e-12,2.7182e-38,0,-1.06636e-13,0,0,-3.73681,0.00530038,0.277885,0,0,0,0,0,0,0,258,-31,258,-31,378,-32,260,91,0,-0.349066,3.12434,-1.5,-nan,0,0,2,0,0,0,0,0,0,0,0,15252,0,0,0,0,0,0,0,0,0,2.5,0
10498,-3.21172e-12,2.71844e-38,-1.56669e-06,-3.27738e-12,2.7182e-38,0,-1.06636e-13,0,0,-3.91382,0.0146363,0.342507,0,0,0,0,0,0,0,263,-27,263,-27,375,-27,260,91,0,-0.349066,3.12489,-1.5,-nan,0,0,2,0,0,0,0,0,0,0,0,13688,0,0,0,0,0,0,0,0,0,2.5,0
10513,-3.21172e-12,2.71844e-38,-1.56669e-06,-3.27738e-12,2.7182e-38,0,-1.06636e-13,0,0,-3.91382,0.0146363,0.342507,0,0,0,0,0,0,0,263,-27,263,-27,375,-27,260,91,0,-0.349066,3.12538,-1.5,-nan,0,0,2,0,0,0,0,0,0,0,0,13688,0,0,0,0,0,0,0,0,0,2.5,0
10529,-3.21172e-12,2.71844e-38,-1.56669e-06,-3.27738e-12,2.7182e-38,0,-1.06637e-13,0,0,-3.79645,0.0482742,0.278816,0,0,0,0,0,0,0,259,-22,259,-22,374,-32,252,93,0,-0.349066,3.12589,-1.5,-nan,0,0,2,0,0,0,0,0,0,0,0,15375,0,0,0,0,0,0,0,0,0,2.5,0
10544,-3.21172e-12,2.71844e-38,-1.56669e-06,-3.27738e-12,2.7182e-38,0,-1.06637e-13,0,0,-3.79645,0.0482742,0.278816,0,0,0,0,0,0,0,259,-22,259,-22,374,-32,252,93,0,-0.349066,3.12636,-1.5,-nan,0,0,2,0,0,0,0,0,0,0,0,15375,0,0,0,0,0,0,0,0,0,2.5,0
10560,-3.21172e-12,2.71844e-38,-1.56669e-06,-3.27738e-12,2.7182e-38,0,-1.06637e-13,0,0,-3.72843,0.0399874,0.247277,0,0,0,0,0,0,0,256,-24,256,-24,376,-30,252,92,0,-0.349066,3.12684,-1.5,-nan,0,0,2,0,0,0,0,0,0,0,0,15494,0,0,0,0,0,0,0,0,0,2.5,0
10575,-3.21172e-12,2.71844e-38,-1.56669e-06,-3.27738e-12,2.7182e-38,0,-1.06638e-13,0,0,-3.72843,0.0399874,0.247277,0,0,0,0,0,0,0,256,-24,256,-24,376,-30,252,92,0,-0.349066,3.12728,-1.5,-nan,0,0,2,0,0,0,0,0,0,0,0,15494,0,0,0,0,0,0,0,0,0,2.5,0
10591,-3.21172e-12,2.71844e-38,-1.56669e-06,-3.27738e-12,2.7182e-38,0,-1.06638e-13,0,0,-3.72843,0.0399874,0.247277,0,0,0,0,0,0,0,256,-24,256,-24,376,-30,252,92,0,-0.349066,3.1277,-1.5,-nan,0,0,2,0,0,0,0,0,0,0,0,15494,0,0,0,0,0,0,0,0,0,2.5,0
10606,-3.21172e-12,2.71844e-38,-1.56669e-06,-3.27738e-12,2.7182e-38,0,-1.06638e-13,0,0,-3.76506,0.0474855,0.258165,0,0,0,0,0,0,0,259,-24,259,-24,378,-30,251,95,0,-0.349066,3.12814,-1.5,-nan,0,0,2,0,0,0,0,0,0,0,0,15875,0,0,0,0,0,0,0,0,0,2.5,0
10621,-3.21172e-12,2.71844e-38,-1.56669e-06,-3.27738e-12,2.7182e-38,0,-1.06638e-13,0,0,-3.76506,0.0474855,0.258165,0,0,0,0,0,0,0,259,-24,259,-24,378,-30,251,95,0,-0.349066,3.12854,-1.5,-nan,0,0,2,0,0,0,0,0,0,0,0,15875,0,0,0,0,0,0,0,0,0,2.5,0
10637,-3.21172e-12,2.71844e-38,-1.56669e-06,-3.27738e-12,2.7182e-38,0,-1.06639e-13,0,0,-3.83736,0.0523487,0.307062,0,0,0,0,0,0,0,256,-23,256,-23,375,-29,253,88,0,-0.349066,3.12895,-1.5,-nan,0,0,2,0,0,0,0,0,0,0,0,14274,0,0,0,0,0,0,0,0,0,2.5,0
10652,-3.21172e-12,2.71844e-38,-1.56669e-06,-3.27738e-12,2.7182e-38,0,-1.06639e-13,0,0,-3.83736,0.0523487,0.307062,0,0,0,0,0,0,0,256,-23,256,-23,375,-29,253,88,0,-0.349066,3.12933,-1.5,-nan,0,0,2,0,0,0,0,0,0,0,0,14274,0,0,0,0,0,0,0,0,0,2.5,0
10668,-3.21172e-12,2.71844e-38,-1.56669e-06,-3.27738e-12,2.7182e-38,0,-1.06639e-13,0,0,-3.78453,0.0354052,0.292672,0,0,0,0,0,0,0,256,-29,256,-29,376,-32,258,91,0,-0.349066,3.12972,-1.5,-nan,0,0,2,0,0,0,0,0,0,0,0,14760,0,0,0,0,0,0,0,0,0,2.5,0
10683,-3.21172e-12,2.71844e-38,-1.56669e-06,-3.27738e-12,2.7182e-38,0,-1.06639e-13,0,0,-3.78453,0.0354052,0.292672,0,0,0,0,0,0,0,256,-29,256,-29,376,-32,258,91,0,-0.349066,3.13007,-1.5,-nan,0,0,2,0,0,0,0,0,0,0,0,14760,0,0,0,0,0,0,0,0,0,2.5,0
10701,-3.21172e-12,2.71844e-38,-1.56669e-06,-3.27738e-12,2.7182e-38,0,-1.0664e-13,0,0,-3.79147,0.0346571,0.297002,0,0,0,0,0,0,0,256,-29,256,-29,378,-29,256,88,0,-0.349066,3.13046,-1.5,-nan,0,0,2,0,0,0,0,0,0,0,0,14274,0,0,0,0,0,0,0,0,0,2.5,0
10714,-3.21172e-12,2.71844e-38,-1.56669e-06,-3.27738e-12,2.7182e-38,0,-1.0664e-13,0,0,-3.79147,0.0346571,0.297002,0,0,0,0,0,0,0,256,-29,256,-29,378,-29,256,88,0,-0.349066,3.13074,-1.5,-nan,0,0,2,0,0,0,0,0,0,0,0,14274,0,0,0,0,0,0,0,0,0,2.5,0
10727,-3.21172e-12,2.71844e-38,-1.56669e-06,-3.27738e-12,2.7182e-38,0,-1.0664e-13,0,0,-3.78718,0.0214126,0.268992,0,0,0,0,0,0,0,261,-26,261,-26,378,-29,256,93,0,-0.349066,3.13104,-1.5,-nan,0,0,2,0,0,0,0,0,0,0,0,14884,0,0,0,0,0,0,0,0,0,2.5,0
10743,-3.21172e-12,2.71844e-38,-1.56669e-06,-3.27738e-12,2.7182e-38,0,-1.06641e-13,0,0,-3.78718,0.0214126,0.268992,0,0,0,0,0,0,0,261,-26,261,-26,378,-29,256,93,0,-0.349066,3.13136,-1.5,-nan,0,0,2,0,0,0,0,0,0,0,0,14884,0,0,0,0,0,0,0,0,0,2.5,0
10758,-3.21172e-12,2.71844e-38,-1.56669e-06,-3.27738e-12,2.7182e-38,0,-1.06641e-13,0,0,-3.78718,0.0214126,0.268992,0,0,0,0,0,0,0,261,-26,261,-26,378,-29,256,93,0,-0.349066,3.13168,-1.5,-nan,0,0,2,0,0,0,0,0,0,0,0,14884,0,0,0,0,0,0,0,0,0,2.5,0
10774,-3.21172e-12,2.71844e-38,-1.56669e-06,-3.27738e-12,2.7182e-38,0,-1.06641e-13,0,0,-3.80137,0.0128111,0.29482,0,0,0,0,0,0,0,261,-26,261,-26,378,-32,258,91,0,-0.349066,3.132,-1.5,-nan,0,0,2,0,0,0,0,0,0,0,0,14760,0,0,0,0,0,0,0,0,0,2.5,0
10789,-3.21172e-12,2.71844e-38,-1.56669e-06,-3.27738e-12,2.7182e-38,0,-1.06641e-13,0,0,-3.80137,0.0128111,0.29482,0,0,0,0,0,0,0,261,-26,261,-26,378,-32,258,91,0,-0.349066,3.13228,-1.5,-nan,0,0,2,0,0,0,0,0,0,0,0,14760,0,0,0,0,0,0,0,0,0,2.5,0
10804,-3.21172e-12,2.71844e-38,-1.56669e-06,-3.27738e-12,2.7182e-38,0,-1.06642e-13,0,0,-3.76321,0.0172418,0.275548,0,0,0,0,0,0,0,261,-26,261,-26,381,-32,255,91,0,-0.349066,3.13256,-1.5,-nan,0,0,2,0,0,0,0,0,0,0,0,15498,0,0,0,0,0,0,0,0,0,2.5,0
10820,-3.21172e-12,2.71844e-38,-1.56669e-06,-3.27738e-12,2.7182e-38,0,-1.06642e-13,0,0,-3.76321,0.0172418,0.275548,0,0,0,0,0,0,0,261,-26,261,-26,381,-32,255,91,0,-0.349066,3.13284,-1.5,-nan,0,0,2,0,0,0,0,0,0,0,0,15498,0,0,0,0,0,0,0,0,0,2.5,0
10835,-3.21172e-12,2.71844e-38,-1.56669e-06,-3.27738e-12,2.7182e-38,0,-1.06642e-13,0,0,-3.76038,0.0214873,0.267002,0,0,0,0,0,0,0,261,-26,261,-26,378,-32,255,91,0,-0.349066,3.1331,-1.5,-nan,0,0,2,0,0,0,0,0,0,0,0,15129,0,0,0,0,0,0,0,0,0,2.5,0
10851,-3.21172e-12,2.71844e-38,-1.56669e-06,-3.27738e-12,2.7182e-38,0,-1.06642e-13,0,0,-3.76038,0.0214873,0.267002,0,0,0,0,0,0,0,261,-26,261,-26,378,-32,255,91,0,-0.349066,3.13337,-1.5,-nan,0,0,2,0,0,0,0,0,0,0,0,15129,0,0,0,0,0,0,0,0,0,2.5,0
10866,-3.21172e-12,2.71844e-38,-1.56669e-06,-3.27738e-12,2.7182e-38,0,-1.06643e-13,0,0,-3.76193,0.0155644,0.26618,0,0,0,0,0,0,0,260,-22,260,-22,381,-32,255,91,0,-0.349066,3.13361,-1.5,-nan,0,0,2,0,0,0,0,0,0,0,0,15498,0,0,0,0,0,0,0,0,0,2.5,0
10882,-3.21172e-12,2.71844e-38,-1.56669e-06,-3.27738e-12,2.7182e-38,0,-1.06643e-13,0,0,-3.76193,0.0155644,0.26618,0,0,0,0,0,0,0,260,-22,260,-22,381,-32,255,91,0,-0.349066,3.13387,-1.5,-nan,0,0,2,0,0,0,0,0,0,0,0,15498,0,0,0,0,0,0,0,0,0,2.5,0
10898,-3.21172e-12,2.71844e-38,-1.56669e-06,-3.27738e-12,2.7182e-38,0,-1.06643e-13,0,0,-3.81954,0.0174297,0.294599,0,0,0,0,0,0,0,261,-26,261,-26,378,-30,258,93,0,-0.349066,3.13411,-1.5,-nan,0,0,2,0,0,0,0,0,0,0,0,14760,0,0,0,0,0,0,0,0,0,2.5,0
10913,-3.21172e-12,2.71844e-38,-1.56669e-06,-3.27738e-12,2.7182e-38,0,-1.06644e-13,0,0,-3.81954,0.0174297,0.294599,0,0,0,0,0,0,0,261,-26,261,-26,378,-30,258,93,0,-0.349066,3.13433,-1.5,-nan,0,0,2,0,0,0,0,0,0,0,0,14760,0,0,0,0,0,0,0,0,0,2.5,0
10929,-3.21172e-12,2.71844e-38,-1.56669e-06,-3.27738e-12,2.7182e-38,0,-1.06644e-13,0,0,-3.8071,0.0299832,0.286357,0,0,0,0,0,0,0,260,-22,260,-22,378,-32,255,93,0,-0.349066,3.13456,-1.5,-nan,0,0,2,0,0,0,0,0,0,0,0,15375,0,0,0,0,0,0,0,0,0,2.5,0
10944,-3.21172e-12,2.71844e-38,-1.56669e-06,-3.27738e-12,2.7182e-38,0,-1.06644e-13,0,0,-3.8071,0.0299832,0.286357,0,0,0,0,0,0,0,260,-22,260,-22,378,-32,255,93,0,-0.349066,3.13477,-1.5,-nan,0,0,2,0,0,0,0,0,0,0,0,15375,0,0,0,0,0,0,0,0,0,2.5,0
10962,-3.21172e-12,2.71844e-38,-1.56669e-06,-3.27738e-12,2.7182e-38,0,-1.06644e-13,0,0,-3.78639,0.0103034,0.289434,0,0,0,0,0,0,0,261,-27,261,-27,379,-32,258,91,0,-0.349066,3.13501,-1.5,-nan,0,0,2,0,0,0,0,0,0,0,0,14883,0,0,0,0,0,0,0,0,0,2.5,0
10975,-3.21172e-12,2.71844e-38,-1.56669e-06,-3.27738e-12,2.7182e-38,0,-1.06645e-13,0,0,-3.78639,0.0103034,0.289434,0,0,0,0,0,0,0,261,-27,261,-27,379,-32,258,91,0,-0.349066,3.13518,-1.5,-nan,0,0,2,0,0,0,0,0,0,0,0,14883,0,0,0,0,0,0,0,0,0,2.5,0
10988,-3.21172e-12,2.71844e-38,-1.56669e-06,-3.27738e-12,2.7182e-38,0,-1.06645e-13,0,0,-3.78639,0.0103034,0.289434,0,0,0,0,0,0,0,261,-27,261,-27,379,-32,258,91,0,-0.349066,3.13533,-1.5,-nan,0,0,2,0,0,0,0,0,0,0,0,14883,0,0,0,0,0,0,0,0,0,2.5,0
11003,-3.21172e-12,2.71844e-38,-1.56669e-06,-3.27738e-12,2.7182e-38,0,-1.06645e-13,0,0,-3.74894,0.0167872,0.274783,0,0,0,0,0,0,0,258,-29,258,-29,379,-32,258,91,0,-0.349066,3.13552,-1.5,-nan,0,0,2,0,0,0,0,0,0,0,0,14883,0,0,0,0,0,0,0,0,0,2.5,0
11019,-3.21172e-12,2.71844e-38,-1.56669e-06,-3.27738e-12,2.7182e-38,0,-1.06645e-13,0,0,-3.74894,0.0167872,0.274783,0,0,0,0,0,0,0,258,-29,258,-29,379,-32,258,91,0,-0.349066,3.1357,-1.5,-nan,0,0,2,0,0,0,0,0,0,0,0,14883,0,0,0,0,0,0,0,0,0,2.5,0
11034,-3.21172e-12,2.71844e-38,-1.56669e-06,-3.27738e-12,2.7182e-38,0,-1.06646e-13,0,0,-3.80254,0.0240746,0.291261,0,0,0,0,0,0,0,261,-26,261,-26,376,-30,255,91,0,-0.349066,3.13587,-1.5,-nan,0,0,2,0,0,0,0,0,0,0,0,14883,0,0,0,0,0,0,0,0,0,2.5,0
11049,-3.21172e-12,2.71844e-38,-1.56669e-06,-3.27738e-12,2.7182e-38,0,-1.06646e-13,0,0,-3.80254,0.0240746,0.291261,0,0,0,0,0,0,0,261,-26,261,-26,376,-30,255,91,0,-0.349066,3.13604,-1.5,-nan,0,0,2,0,0,0,0,0,0,0,0,14883,0,0,0,0,0,0,0,0,0,2.5,0
11065,-3.21172e-12,2.71844e-38,-1.56669e-06,-3.27738e-12,2.7182e-38,0,-1.06646e-13,0,0,-3.79189,0.0104738,0.290084,0,0,0,0,0,0,0,261,-26,261,-26,378,-32,258,91,0,-0.349066,3.13622,-1.5,-nan,0,0,2,0,0,0,0,0,0,0,0,14883,0,0,0,0,0,0,0,0,0,2.5,0
11080,-3.21172e-12,2.71844e-38,-1.56669e-06,-3.27738e-12,2.7182e-38,0,-1.06647e-13,0,0,-3.79189,0.0104738,0.290084,0,0,0,0,0,0,0,261,-26,261,-26,378,-32,258,91,0,-0.349066,3.13638,-1.5,-nan,0,0,2,0,0,0,0,0,0,0,0,14883,0,0,0,0,0,0,0,0,0,2.5,0
11095,-3.21172e-12,2.71844e-38,-1.56669e-06,-3.27738e-12,2.7182e-38,0,-1.06647e-13,0,0,-3.76906,0.0149264,0.276095,0,0,0,0,0,0,0,259,-26,259,-26,378,-32,258,91,0,-0.349066,3.13653,-1.5,-nan,0,0,2,0,0,0,0,0,0,0,0,14883,0,0,0,0,0,0,0,0,0,2.5,0
11111,-3.21172e-12,2.71844e-38,-1.56669e-06,-3.27738e-12,2.7182e-38,0,-1.06647e-13,0,0,-3.76906,0.0149264,0.276095,0,0,0,0,0,0,0,259,-26,259,-26,378,-32,258,91,0,-0.349066,3.13669,-1.5,-nan,0,0,2,0,0,0,0,0,0,0,0,14883,0,0,0,0,0,0,0,0,0,2.5,0
11126,-3.21172e-12,2.71844e-38,-1.56669e-06,-3.27738e-12,2.7182e-38,0,-1.06647e-13,0,0,-3.76906,0.0149264,0.276095,0,0,0,0,0,0,0,259,-26,259,-26,378,-32,258,91,0,-0.349066,3.13684,-1.5,-nan,0,0,2,0,0,0,0,0,0,0,0,14883,0,0,0,0,0,0,0,0,0,2.5,0
11141,-3.21172e-12,2.71844e-38,-1.56669e-06,-3.27738e-12,2.7182e-38,0,-1.06648e-13,0,0,-3.74204,0.0168225,0.257883,0,0,0,0,0,0,0,261,-26,261,-26,378,-32,255,91,0,-0.349066,3.13698,-1.5,-nan,0,0,2,0,0,0,0,0,0,0,0,15252,0,0,0,0,0,0,0,0,0,2.5,0
11157,-3.21172e-12,2.71844e-38,-1.56669e-06,-3.27738e-12,2.7182e-38,0,-1.06648e-13,0,0,-3.74204,0.0168225,0.257883,0,0,0,0,0,0,0,261,-26,261,-26,378,-32,255,91,0,-0.349066,3.13713,-1.5,-nan,0,0,2,0,0,0,0,0,0,0,0,15252,0,0,0,0,0,0,0,0,0,2.5,0
11171,-3.21172e-12,2.71844e-38,-1.56669e-06,-3.27738e-12,2.7182e-38,0,-1.06648e-13,0,0,-3.77925,0.0172632,0.281102,0,0,0,0,0,0,0,259,-26,259,-26,379,-32,258,91,0,-0.349066,3.13725,-1.5,-nan,0,0,2,0,0,0,0,0,0,0,0,14883,0,0,0,0,0,0,0,0,0,2.5,0
11187,-3.21172e-12,2.71844e-38,-1.56669e-06,-3.27738e-12,2.7182e-38,0,-1.06648e-13,0,0,-3.77925,0.0172632,0.281102,0,0,0,0,0,0,0,259,-26,259,-26,379,-32,258,91,0,-0.349066,3.13739,-1.5,-nan,0,0,2,0,0,0,0,0,0,0,0,14883,0,0,0,0,0,0,0,0,0,2.5,0
11203,-3.21172e-12,2.71844e-38,-1.56669e-06,-3.27738e-12,2.7182e-38,0,-1.06649e-13,0,0,-3.84166,0.0151398,0.317133,0,0,0,0,0,0,0,261,-27,261,-27,378,-32,260,91,0,-0.349066,3.13752,-1.5,-nan,0,0,2,0,0,0,0,0,0,0,0,14514,0,0,0,0,0,0,0,0,0,2.5,0
11221,-3.21172e-12,2.71844e-38,-1.56669e-06,-3.27738e-12,2.7182e-38,0,-1.06649e-13,0,0,-3.84166,0.0151398,0.317133,0,0,0,0,0,0,0,261,-27,261,-27,378,-32,260,91,0,-0.349066,3.13766,-1.5,-nan,0,0,2,0,0,0,0,0,0,0,0,14514,0,0,0,0,0,0,0,0,0,2.5,0
11236,-3.21172e-12,2.71844e-38,-1.56669e-06,-3.27738e-12,2.7182e-38,0,-1.06649e-13,0,0,-3.80612,0.00573324,0.299151,0,0,0,0,0,0,0,261,-27,261,-27,381,-32,260,91,0,-0.349066,3.13777,-1.5,-nan,0,0,2,0,0,0,0,0,0,0,0,14883,0,0,0,0,0,0,0,0,0,2.5,0
11249,-3.21172e-12,2.71844e-38,-1.56669e-06,-3.27738e-12,2.7182e-38,0,-1.06649e-13,0,0,-3.80612,0.00573324,0.299151,0,0,0,0,0,0,0,261,-27,261,-27,381,-32,260,91,0,-0.349066,3.13787,-1.5,-nan,0,0,2,0,0,0,0,0,0,0,0,14883,0,0,0,0,0,0,0,0,0,2.5,0
11264,-3.21172e-12,2.71844e-38,-1.56669e-06,-3.27738e-12,2.7182e-38,0,-1.0665e-13,0,0,-3.81369,0.0264984,0.310618,0,0,0,0,0,0,0,261,-27,261,-27,378,-32,255,89,0,-0.349066,3.13799,-1.5,-nan,0,0,2,0,0,0,0,0,0,0,0,14883,0,0,0,0,0,0,0,0,0,2.5,0
11280,-3.21172e-12,2.71844e-38,-1.56669e-06,-3.27738e-12,2.7182e-38,0,-1.0665e-13,0,0,-3.81369,0.0264984,0.310618,0,0,0,0,0,0,0,261,-27,261,-27,378,-32,255,89,0,-0.349066,3.1381,-1.5,-nan,0,0,2,0,0,0,0,0,0,0,0,14883,0,0,0,0,0,0,0,0,0,2.5,0
11295,-3.21172e-12,2.71844e-38,-1.56669e-06,-3.27738e-12,2.7182e-38,0,-1.0665e-13,0,0,-3.75408,0.0150457,0.278367,0,0,0,0,0,0,0,261,-27,261,-27,376,-32,255,91,0,-0.349066,3.13821,-1.5,-nan,0,0,2,0,0,0,0,0,0,0,0,15621,0,0,0,0,0,0,0,0,0,2.5,0
11311,-3.21172e-12,2.71844e-38,-1.56669e-06,-3.27738e-12,2.7182e-38,0,-1.06651e-13,0,0,-3.75408,0.0150457,0.278367,0,0,0,0,0,0,0,261,-27,261,-27,376,-32,255,91,0,-0.349066,3.13831,-1.5,-nan,0,0,2,0,0,0,0,0,0,0,0,15621,0,0,0,0,0,0,0,0,0,2.5,0
11326,-3.21172e-12,2.71844e-38,-1.56669e-06,-3.27738e-12,2.7182e-38,0,-1.06651e-13,0,0,-3.72159,0.00338494,0.259643,0,0,0,0,0,0,0,261,-27,261,-27,381,-31,255,91,0,-0.349066,3.13841,-1.5,-nan,0,0,2,0,0,0,0,0,0,0,0,15494,0,0,0,0,0,0,0,0,0,2.5,0
11342,-3.21172e-12,2.71844e-38,-1.56669e-06,-3.27738e-12,2.7182e-38,0,-1.06651e-13,0,0,-3.72159,0.00338494,0.259643,0,0,0,0,0,0,0,261,-27,261,-27,381,-31,255,91,0,-0.349066,3.13851,-1.5,-nan,0,0,2,0,0,0,0,0,0,0,0,15494,0,0,0,0,0,0,0,0,0,2.5,0
11357,-3.21172e-12,2.71844e-38,-1.56669e-06,-3.27738e-12,2.7182e-38,0,-1.06651e-13,0,0,-3.72159,0.00338494,0.259643,0,0,0,0,0,0,0,261,-27,261,-27,381,-31,255,91,0,-0.349066,3.1386,-1.5,-nan,0,0,2,0,0,0,0,0,0,0,0,15494,0,0,0,0,0,0,0,0,0,2.5,0
11372,-3.21172e-12,2.71844e-38,-1.56669e-06,-3.27738e-12,2.7182e-38,0,-1.06652e-13,0,0,-3.8159,0.0242201,0.290636,0,0,0,0,0,0,0,261,-26,261,-26,378,-29,256,93,0,-0.349066,3.13869,-1.5,-nan,0,0,2,0,0,0,0,0,0,0,0,14884,0,0,0,0,0,0,0,0,0,2.5,0
11388,-3.21172e-12,2.71844e-38,-1.56669e-06,-3.27738e-12,2.7182e-38,0,-1.06652e-13,0,0,-3.8159,0.0242201,0.290636,0,0,0,0,0,0,0,261,-26,261,-26,378,-29,256,93,0,-0.349066,3.13878,-1.5,-nan,0,0,2,0,0,0,0,0,0,0,0,14884,0,0,0,0,0,0,0,0,0,2.5,0
11403,-3.21172e-12,2.71844e-38,-1.56669e-06,-3.27738e-12,2.7182e-38,0,-1.06652e-13,0,0,-3.84916,0.0179543,0.298469,0,0,0,0,0,0,0,263,-22,263,-22,378,-29,256,93,0,-0.349066,3.13887,-1.5,-nan,0,0,2,0,0,0,0,0,0,0,0,14884,0,0,0,0,0,0,0,0,0,2.5,0
11419,-3.21172e-12,2.71844e-38,-1.56669e-06,-3.27738e-12,2.7182e-38,0,-1.06652e-13,0,0,-3.84916,0.0179543,0.298469,0,0,0,0,0,0,0,263,-22,263,-22,378,-29,256,93,0,-0.349066,3.13895,-1.5,-nan,0,0,2,0,0,0,0,0,0,0,0,14884,0,0,0,0,0,0,0,0,0,2.5,0
11434,-3.21172e-12,2.71844e-38,-1.56669e-06,-3.27738e-12,2.7182e-38,0,-1.06653e-13,0,0,-3.78037,0.0358671,0.281482,0,0,0,0,0,0,0,258,-27,258,-27,376,-32,256,93,0,-0.349066,3.13903,-1.5,-nan,0,0,2,0,0,0,0,0,0,0,0,15000,0,0,0,0,0,0,0,0,0,2.5,0
11450,-3.21172e-12,2.71844e-38,-1.56669e-06,-3.27738e-12,2.7182e-38,0,-1.06653e-13,0,0,-3.78037,0.0358671,0.281482,0,0,0,0,0,0,0,258,-27,258,-27,376,-32,256,93,0,-0.349066,3.13911,-1.5,-nan,0,0,2,0,0,0,0,0,0,0,0,15000,0,0,0,0,0,0,0,0,0,2.5,0
11465,-3.21172e-12,2.71844e-38,-1.56669e-06,-3.27738e-12,2.7182e-38,0,-1.06653e-13,0,0,-3.79865,0.02666,0.293465,0,0,0,0,0,0,0,261,-26,261,-26,378,-32,255,91,0,-0.349066,3.13919,-1.5,-nan,0,0,2,0,0,0,0,0,0,0,0,15129,0,0,0,0,0,0,0,0,0,2.5,0
11478,-3.21172e-12,2.71844e-38,-1.56669e-06,-3.27738e-12,2.7182e-38,0,-1.06654e-13,0,0,-3.79865,0.02666,0.293465,0,0,0,0,0,0,0,261,-26,261,-26,378,-32,255,91,0,-0.349066,3.13925,-1.5,-nan,0,0,2,0,0,0,0,0,0,0,0,15129,0,0,0,0,0,0,0,0,0,2.5,0
11493,-3.21172e-12,2.71844e-38,-1.56669e-06,-3.27738e-12,2.7182e-38,0,-1.06654e-13,0,0,-3.79865,0.02666,0.293465,0,0,0,0,0,0,0,261,-26,261,-26,378,-32,255,91,0,-0.349066,3.13932,-1.5,-nan,0,0,2,0,0,0,0,0,0,0,0,15129,0,0,0,0,0,0,0,0,0,2.5,0
11507,-3.21172e-12,2.71844e-38,-1.56669e-06,-3.27738e-12,2.7182e-38,0,-1.06654e-13,0,0,-3.76283,0.000791515,0.273414,0,0,0,0,0,0,0,261,-27,261,-27,379,-30,258,91,0,-0.349066,3.13938,-1.5,-nan,0,0,2,0,0,0,0,0,0,0,0,15004,0,0,0,0,0,0,0,0,0,2.5,0
11522,-3.21172e-12,2.71844e-38,-1.56669e-06,-3.27738e-12,2.7182e-38,0,-1.06654e-13,0,0,-3.76283,0.000791515,0.273414,0,0,0,0,0,0,0,261,-27,261,-27,379,-30,258,91,0,-0.349066,3.13945,-1.5,-nan,0,0,2,0,0,0,0,0,0,0,0,15004,0,0,0,0,0,0,0,0,0,2.5,0
11538,-3.21172e-12,2.71844e-38,-1.56669e-06,-3.27738e-12,2.7182e-38,0,-1.06655e-13,0,0,-3.78315,0.0170928,0.288465,0,0,0,0,0,0,0,261,-27,261,-27,379,-30,255,91,0,-0.349066,3.13951,-1.5,-nan,0,0,2,0,0,0,0,0,0,0,0,15004,0,0,0,0,0,0,0,0,0,2.5,0
11553,-3.21172e-12,2.71844e-38,-1.56669e-06,-3.27738e-12,2.7182e-38,0,-1.06655e-13,0,0,-3.78315,0.0170928,0.288465,0,0,0,0,0,0,0,261,-27,261,-27,379,-30,255,91,0,-0.349066,3.13958,-1.5,-nan,0,0,2,0,0,0,0,0,0,0,0,15004,0,0,0,0,0,0,0,0,0,2.5,0
11569,-3.21172e-12,2.71844e-38,-1.56669e-06,-3.27738e-12,2.7182e-38,0,-1.06655e-13,0,0,-3.74473,0.00783339,0.269245,0,0,0,0,0,0,0,261,-27,261,-27,379,-30,255,91,0,-0.349066,3.13964,-1.5,-nan,0,0,2,0,0,0,0,0,0,0,0,15367,0,0,0,0,0,0,0,0,0,2.5,0
11584,-3.21172e-12,2.71844e-38,-1.56669e-06,-3.27738e-12,2.7182e-38,0,-1.06655e-13,0,0,-3.74473,0.00783339,0.269245,0,0,0,0,0,0,0,261,-27,261,-27,379,-30,255,91,0,-0.349066,3.1397,-1.5,-nan,0,0,2,0,0,0,0,0,0,0,0,15367,0,0,0,0,0,0,0,0,0,2.5,0
11600,-3.21172e-12,2.71844e-38,-1.56669e-06,-3.27738e-12,2.7182e-38,0,-1.06656e-13,0,0,-3.78153,0.0146503,0.280677,0,0,0,0,0,0,0,261,-26,261,-26,382,-29,255,91,0,-0.349066,3.13976,-1.5,-nan,0,0,2,0,0,0,0,0,0,0,0,15240,0,0,0,0,0,0,0,0,0,2.5,0
