timestamp,A_x,A_y,A_z,P,Q,R,Phi,Theta,Psi,poseX,poseY,poseZ,state_X,state_Y,state_Z,state_VzB,state_Bx,state_By,state_Bz,p1_x,p1_y,p2_x,p2_y,p3_x,p3_y,p4_x,p4_y,roll,pitch,yaw,alt,targetHeading,highLevelState,lowLevelState,gateNumber,filtered_x,filtered_y,x_OT,y_OT,vx_OT,vy_OT,filtered_vx,filtered_vygateArearansac_corr_x,ransac_corr_y,ransac_corr_vx,ransac_corr_vy,detectionTimeStamp
7100,0,0,0,0,0,0,0,0,0,0,0,0,0,0,0,0,0,0,0,0,0,0,0,0,0,0,0,0,-0.261799,0.0125664,-1.5,3.94113e+12,0,0,2,0,0,0,0,0,0,0,0,1.9603e-19,0,0,0,0,0
7115,0,0,0,0,0,0,0,0,0,0,0,0,0,0,0,0,0,0,0,0,0,0,0,0,0,0,0,0,-0.261799,0.0376991,-1.5,3.94113e+12,0,0,2,0,0,0,0,0,0,0,0,1.9603e-19,0,0,0,0,0
8352,-3.72299e-12,1.17568e-37,-1.58764e-06,-3.85292e-12,1.17558e-37,-3.40903e-12,-1.13703e-13,0,0,0,0,0,0,0,0,0,0,0,0,0,0,0,0,0,0,0,0,0,-0.261799,1.98077,-1.5,3.94113e+12,0,0,2,0,0,0,0,0,0,0,0,1.9603e-19,0,0,0,0,0
8394,-3.72299e-12,1.17568e-37,-1.58764e-06,-3.85292e-12,1.17558e-37,0,-1.13703e-13,0,0,0,0,0,0,0,0,0,0,0,0,0,0,0,0,0,0,0,0,0,-0.261799,2.04675,-1.5,3.94113e+12,0,0,2,0,0,0,0,0,0,0,0,1.9603e-19,0,0,0,0,0
8500,-3.72299e-12,1.17568e-37,-1.58764e-06,-3.85292e-12,1.17558e-37,-3.40903e-12,-1.13704e-13,0,0,0,0,0,0,0,0,0,0,0,0,0,0,0,0,0,0,0,0,0,-0.261799,2.21325,-1.5,3.94113e+12,0,0,2,0,0,0,0,0,0,0,0,1.9603e-19,0,0,0,0,0
8683,-3.72299e-12,1.17568e-37,-1.58764e-06,-3.85292e-12,1.17558e-37,0,-1.13704e-13,0,0,0,0,0,0,0,0,0,0,0,0,0,0,0,0,0,0,0,0,0,-0.261799,2.49853,-1.5,3.94113e+12,0,0,2,0,0,0,0,0,0,0,0,1.9603e-19,0,0,0,0,0
8761,-3.72299e-12,1.17568e-37,-1.58764e-06,-3.85292e-12,1.17558e-37,-3.40903e-12,-1.13705e-13,0,0,0,0,0,0,0,0,0,0,0,0,0,0,0,0,0,0,0,0,0,-0.261799,2.59719,-1.5,3.94113e+12,0,0,2,0,0,0,0,0,0,0,0,1.9603e-19,0,0,0,0,0
8781,-3.72299e-12,1.17568e-37,-1.58764e-06,-3.85292e-12,1.17558e-37,0,-1.13705e-13,0,0,0,0,0,0,0,0,0,0,0,0,0,0,0,0,0,0,0,0,0,-0.261799,2.6187,-1.5,3.94113e+12,0,0,2,0,0,0,0,0,0,0,0,1.9603e-19,0,0,0,0,0
8890,-3.72299e-12,1.17568e-37,-1.58764e-06,-3.85292e-12,1.17558e-37,-3.40903e-12,-1.13706e-13,0,0,0,0,0,0,0,0,0,0,0,0,0,0,0,0,0,0,0,0,0,-0.261799,2.73096,-1.5,3.94113e+12,0,0,2,0,0,0,0,0,0,0,0,1.9603e-19,0,0,0,0,0
8935,-3.72299e-12,1.17568e-37,-1.58764e-06,-3.85292e-12,1.17558e-37,0,-1.13706e-13,0,0,0,0,0,0,0,0,0,0,0,0,0,0,0,0,0,0,0,0,0,-0.261799,2.7674,-1.5,3.94113e+12,0,0,2,0,0,0,0,0,0,0,0,1.9603e-19,0,0,0,0,0
8970,-3.72299e-12,1.17568e-37,-1.58764e-06,-3.85292e-12,1.17558e-37,-3.40903e-12,-1.13707e-13,0,0,0,0,0,0,0,0,0,0,0,0,0,0,0,0,0,0,0,0,0,-0.261799,2.79323,-1.5,3.94113e+12,0,0,2,0,0,0,0,0,0,0,0,1.9603e-19,0,0,0,0,0
9100,-3.72299e-12,1.17568e-37,-1.58764e-06,-3.85292e-12,1.17558e-37,0,-1.13708e-13,0,0,0,0,0,0,0,0,0,0,0,0,0,0,0,0,0,0,0,0,0,-0.261799,2.88242,-1.5,3.94113e+12,0,0,2,0,0,0,0,0,0,0,0,1.9603e-19,0,0,0,0,0
9200,-3.72299e-12,1.17568e-37,-1.58764e-06,-3.85292e-12,1.17558e-37,-3.40903e-12,-1.13708e-13,0,0,0,0,0,0,0,0,0,0,0,0,0,0,0,0,0,0,0,0,0,-0.261799,2.93338,-1.5,3.94113e+12,0,0,2,0,0,0,0,0,0,0,0,1.9603e-19,0,0,0,0,0
9218,-3.72299e-12,1.17568e-37,-1.58764e-06,-3.85292e-12,1.17558e-37,0,-1.13709e-13,0,0,0,0,0,0,0,0,0,0,0,0,0,0,0,0,0,0,0,0,0,-0.261799,2.94078,-1.5,3.94113e+12,0,0,2,0,0,0,0,0,0,0,0,1.9603e-19,0,0,0,0,0
9238,-3.72299e-12,1.17568e-37,-1.58764e-06,-3.85292e-12,1.17558e-37,-3.40903e-12,-1.13709e-13,0,0,0,0,0,0,0,0,0,0,0,0,0,0,0,0,0,0,0,0,0,-0.261799,2.94872,-1.5,3.94113e+12,0,0,2,0,0,0,0,0,0,0,0,1.9603e-19,0,0,0,0,0
9340,-3.72299e-12,1.17568e-37,-1.58764e-06,-3.85292e-12,1.17558e-37,0,-1.1371e-13,0,0,0,0,0,0,0,0,0,0,0,0,0,0,0,0,0,0,0,0,0,-0.261799,2.98747,-1.5,3.94113e+12,0,0,2,0,0,0,0,0,0,0,0,1.9603e-19,0,0,0,0,0
9401,-3.72299e-12,1.17568e-37,-1.58764e-06,-3.85292e-12,1.17558e-37,-3.40903e-12,-1.1371e-13,0,0,0,0,0,0,0,0,0,0,0,0,0,0,0,0,0,0,0,0,0,-0.261799,3.00597,-1.5,3.94113e+12,0,0,2,0,0,0,0,0,0,0,0,1.9603e-19,0,0,0,0,0
9419,-3.72299e-12,1.17568e-37,-1.58764e-06,-3.85292e-12,1.17558e-37,0,-1.13711e-13,0,0,0,0,0,0,0,0,0,0,0,0,0,0,0,0,0,0,0,0,0,-0.261799,3.01053,-1.5,3.94113e+12,0,0,2,0,0,0,0,0,0,0,0,1.9603e-19,0,0,0,0,0
9520,-3.72299e-12,1.17568e-37,-1.58764e-06,-3.85292e-12,1.17558e-37,-3.40903e-12,-1.13711e-13,0,0,0,0,0,0,0,0,0,0,0,0,0,0,0,0,0,0,0,0,0,-0.261799,3.03686,-1.5,3.94113e+12,0,0,2,0,0,0,0,0,0,0,0,1.9603e-19,0,0,0,0,0
9567,-3.72299e-12,1.17568e-37,-1.58764e-06,-3.85292e-12,1.17558e-37,0,-1.13712e-13,0,0,0,0,0,0,0,0,0,0,0,0,0,0,0,0,0,0,0,0,0,-0.261799,3.04656,-1.5,3.94113e+12,0,0,2,0,0,0,0,0,0,0,0,1.9603e-19,0,0,0,0,0
9624,-3.72299e-12,1.17568e-37,-1.58764e-06,-3.85292e-12,1.17558e-37,-3.40903e-12,-1.13712e-13,0,0,0,0,0,0,0,0,0,0,0,0,0,0,0,0,0,0,0,0,0,-0.261799,3.05705,-1.5,3.94113e+12,0,0,2,0,0,0,0,0,0,0,0,1.9603e-19,0,0,0,0,0
9657,-3.72299e-12,1.17568e-37,-1.58764e-06,-3.85292e-12,1.17558e-37,0,-1.13713e-13,0,0,0,0,0,0,0,0,0,0,0,0,0,0,0,0,0,0,0,0,0,-0.261799,3.06256,-1.5,3.94113e+12,0,0,2,0,0,0,0,0,0,0,0,1.9603e-19,0,0,0,0,0
9675,-3.72299e-12,1.17568e-37,-1.58764e-06,-3.85292e-12,1.17558e-37,-3.40903e-12,-1.13714e-13,0,0,0,0,0,0,0,0,0,0,0,0,0,0,0,0,0,0,0,0,0,-0.261799,3.06537,-1.5,3.94113e+12,0,0,2,0,0,0,0,0,0,0,0,1.9603e-19,0,0,0,0,0
9715,-3.72299e-12,1.17568e-37,-1.58764e-06,-3.85292e-12,1.17558e-37,0,-1.13714e-13,0,0,0,0,0,0,0,0,0,0,0,0,0,0,0,0,0,0,0,0,0,-0.261799,3.07137,-1.5,3.94113e+12,0,0,2,0,0,0,0,0,0,0,0,1.9603e-19,0,0,0,0,0
9737,-3.72299e-12,1.17568e-37,-1.58764e-06,-3.85292e-12,1.17558e-37,-3.40903e-12,-1.13715e-13,0,0,0,0,0,0,0,0,0,0,0,0,0,0,0,0,0,0,0,0,0,-0.261799,3.07442,-1.5,3.94113e+12,0,0,2,0,0,0,0,0,0,0,0,1.9603e-19,0,0,0,0,0
9772,-3.72299e-12,1.17568e-37,-1.58764e-06,-3.85292e-12,1.17558e-37,0,-1.13715e-13,0,0,0,0,0,0,0,0,0,0,0,0,0,0,0,0,0,0,0,0,0,-0.261799,3.07906,-1.5,3.94113e+12,0,0,2,0,0,0,0,0,0,0,0,1.9603e-19,0,0,0,0,0
9794,-3.72299e-12,1.17568e-37,-1.58764e-06,-3.85292e-12,1.17558e-37,-3.40903e-12,-1.13716e-13,0,0,0,0,0,0,0,0,0,0,0,0,0,0,0,0,0,0,0,0,0,-0.261799,3.08178,-1.5,3.94113e+12,0,0,2,0,0,0,0,0,0,0,0,1.9603e-19,0,0,0,0,0
9811,-3.72299e-12,1.17568e-37,-1.58764e-06,-3.85292e-12,1.17558e-37,0,-1.13716e-13,0,0,0,0,0,0,0,0,0,0,0,0,0,0,0,0,0,0,0,0,0,-0.261799,3.08379,-1.5,3.94113e+12,0,0,2,0,0,0,0,0,0,0,0,1.9603e-19,0,0,0,0,0
9830,-3.72299e-12,1.17568e-37,-1.58764e-06,-3.85292e-12,1.17558e-37,-3.40903e-12,-1.13717e-13,0,0,0,0,0,0,0,0,0,0,0,0,0,0,0,0,0,0,0,0,0,-0.261799,3.08596,-1.5,3.94113e+12,0,0,2,0,0,0,0,0,0,0,0,1.9603e-19,0,0,0,0,0
9852,-3.72299e-12,1.17568e-37,-1.58764e-06,-3.85292e-12,1.17558e-37,0,-1.13717e-13,0,0,0,0,0,0,0,0,0,0,0,0,0,0,0,0,0,0,0,0,0,-0.261799,3.08837,-1.5,3.94113e+12,0,0,2,0,0,0,0,0,0,0,0,1.9603e-19,0,0,0,0,0
9869,-3.72299e-12,1.17568e-37,-1.58764e-06,-3.85292e-12,1.17558e-37,-3.40903e-12,-1.13718e-13,0,0,0,0,0,0,0,0,0,0,0,0,0,0,0,0,0,0,0,0,0,-0.261799,3.09016,-1.5,3.94113e+12,0,0,2,0,0,0,0,0,0,0,0,1.9603e-19,0,0,0,0,0
9890,-3.72299e-12,1.17568e-37,-1.58764e-06,-3.85292e-12,1.17558e-37,0,-1.13718e-13,0,0,0,0,0,0,0,0,0,0,0,0,0,0,0,0,0,0,0,0,0,-0.261799,3.09229,-1.5,3.94113e+12,0,0,2,0,0,0,0,0,0,0,0,1.9603e-19,0,0,0,0,0
9909,-3.72299e-12,1.17568e-37,-1.58764e-06,-3.85292e-12,1.17558e-37,-3.40903e-12,-1.13719e-13,0,0,0,0,0,0,0,0,0,0,0,0,0,0,0,0,0,0,0,0,0,-0.261799,3.09414,-1.5,3.94113e+12,0,0,2,0,0,0,0,0,0,0,0,1.9603e-19,0,0,0,0,0
9926,-3.72299e-12,1.17568e-37,-1.58764e-06,-3.85292e-12,1.17558e-37,0,-1.13719e-13,0,0,0,0,0,0,0,0,0,0,0,0,0,0,0,0,0,0,0,0,0,-0.261799,3.09574,-1.5,3.94113e+12,0,0,2,0,0,0,0,0,0,0,0,1.9603e-19,0,0,0,0,0
9948,-3.72299e-12,1.17568e-37,-1.58764e-06,-3.85292e-12,1.17558e-37,-3.40903e-12,-1.1372e-13,0,0,0,0,0,0,0,0,0,0,0,0,0,0,0,0,0,0,0,0,0,-0.261799,3.09773,-1.5,3.94113e+12,0,0,2,0,0,0,0,0,0,0,0,1.9603e-19,0,0,0,0,0
9966,-3.72299e-12,1.17568e-37,-1.58764e-06,-3.85292e-12,1.17558e-37,0,-1.13721e-13,0,0,0,0,0,0,0,0,0,0,0,0,0,0,0,0,0,0,0,0,0,-0.261799,3.09929,-1.5,3.94113e+12,0,0,2,0,0,0,0,0,0,0,0,1.9603e-19,0,0,0,0,0
10059,-3.72299e-12,1.17568e-37,-1.58764e-06,-3.85292e-12,1.17558e-37,-3.40903e-12,-1.13721e-13,0,0,0,0,0,0,0,0,0,0,0,0,0,0,0,0,0,0,0,0,0,-0.261799,3.10704,-1.5,3.94113e+12,0,0,2,0,0,0,0,0,0,0,0,1.9603e-19,0,0,0,0,0
10076,-3.72299e-12,1.17568e-37,-1.58764e-06,-3.85292e-12,1.17558e-37,0,-1.13722e-13,0,0,0,0,0,0,0,0,0,0,0,0,0,0,0,0,0,0,0,0,0,-0.261799,3.1082,-1.5,3.94113e+12,0,0,2,0,0,0,0,0,0,0,0,1.9603e-19,0,0,0,0,0
10094,-3.72299e-12,1.17568e-37,-1.58764e-06,-3.85292e-12,1.17558e-37,-3.40903e-12,-1.13722e-13,0,0,0,0,0,0,0,0,0,0,0,0,0,0,0,0,0,0,0,0,0,-0.261799,3.10939,-1.5,3.94113e+12,0,0,2,0,0,0,0,0,0,0,0,1.9603e-19,0,0,0,0,0
10116,-3.72299e-12,1.17568e-37,-1.58764e-06,-3.85292e-12,1.17558e-37,0,-1.13723e-13,0,0,0,0,0,0,0,0,0,0,0,0,0,0,0,0,0,0,0,0,0,-0.261799,3.11079,-1.5,3.94113e+12,0,0,2,0,0,0,0,0,0,0,0,1.9603e-19,0,0,0,0,0
10152,-3.72299e-12,1.17568e-37,-1.58764e-06,-3.85292e-12,1.17558e-37,-3.40903e-12,-1.13723e-13,0,0,0,0,0,0,0,0,0,0,0,0,0,0,0,0,0,0,0,0,0,-0.261799,3.11297,-1.5,3.94113e+12,0,0,2,0,0,0,0,0,0,0,0,1.9603e-19,0,0,0,0,0
10189,-3.72299e-12,1.17568e-37,-1.58764e-06,-3.85292e-12,1.17558e-37,0,-1.13724e-13,0,0,0,0,0,0,0,0,0,0,0,0,0,0,0,0,0,0,0,0,0,-0.261799,3.11506,-1.5,3.94113e+12,0,0,2,0,0,0,0,0,0,0,0,1.9603e-19,0,0,0,0,0
10209,-3.72299e-12,1.17568e-37,-1.58764e-06,-3.85292e-12,1.17558e-37,-3.40903e-12,-1.13724e-13,0,0,0,0,0,0,0,0,0,0,0,0,0,0,0,0,0,0,0,0,0,-0.261799,3.11611,-1.5,3.94113e+12,0,0,2,0,0,0,0,0,0,0,0,1.9603e-19,0,0,0,0,0
10248,-3.72299e-12,1.17568e-37,-1.58764e-06,-3.85292e-12,1.17558e-37,0,-1.13725e-13,0,0,0,0,0,0,0,0,0,0,0,0,0,0,0,0,0,0,0,0,0,-0.261799,3.11807,-1.5,3.94113e+12,0,0,2,0,0,0,0,0,0,0,0,1.9603e-19,0,0,0,0,0
10265,-3.72299e-12,1.17568e-37,-1.58764e-06,-3.85292e-12,1.17558e-37,-3.40903e-12,-1.13725e-13,0,0,0,0,0,0,0,0,0,0,0,0,0,0,0,0,0,0,0,0,0,-0.261799,3.11886,-1.5,3.94113e+12,0,0,2,0,0,0,0,0,0,0,0,1.9603e-19,0,0,0,0,0
10283,-3.72299e-12,1.17568e-37,-1.58764e-06,-3.85292e-12,1.17558e-37,0,-1.13726e-13,0,0,0,0,0,0,0,0,0,0,0,0,0,0,0,0,0,0,0,0,0,-0.261799,3.11967,-1.5,3.94113e+12,0,0,2,0,0,0,0,0,0,0,0,1.9603e-19,0,0,0,0,0
10307,-3.72299e-12,1.17568e-37,-1.58764e-06,-3.85292e-12,1.17558e-37,-3.40903e-12,-1.13727e-13,0,0,0,0,0,0,0,0,0,0,0,0,0,0,0,0,0,0,0,0,0,-0.261799,3.12071,-1.5,3.94113e+12,0,0,2,0,0,0,0,0,0,0,0,1.9603e-19,0,0,0,0,0
10324,-3.72299e-12,1.17568e-37,-1.58764e-06,-3.85292e-12,1.17558e-37,0,-1.13727e-13,0,0,0,0,0,0,0,0,0,0,0,0,0,0,0,0,0,0,0,0,0,-0.261799,3.12141,-1.5,3.94113e+12,0,0,2,0,0,0,0,0,0,0,0,1.9603e-19,0,0,0,0,0
10346,-3.72299e-12,1.17568e-37,-1.58764e-06,-3.85292e-12,1.17558e-37,-3.40903e-12,-1.13728e-13,0,0,0,0,0,0,0,0,0,0,0,0,0,0,0,0,0,0,0,0,0,-0.261799,3.12228,-1.5,3.94113e+12,0,0,2,0,0,0,0,0,0,0,0,1.9603e-19,0,0,0,0,0
10362,-3.72299e-12,1.17568e-37,-1.58764e-06,-3.85292e-12,1.17558e-37,0,-1.13728e-13,0,0,0,0,0,0,0,0,0,0,0,0,0,0,0,0,0,0,0,0,0,-0.261799,3.12289,-1.5,3.94113e+12,0,0,2,0,0,0,0,0,0,0,0,1.9603e-19,0,0,0,0,0
10384,-3.72299e-12,1.17568e-37,-1.58764e-06,-3.85292e-12,1.17558e-37,-3.40903e-12,-1.13729e-13,0,0,0,0,0,0,0,0,0,0,0,0,0,0,0,0,0,0,0,0,0,-0.261799,3.12367,-1.5,3.94113e+12,0,0,2,0,0,0,0,0,0,0,0,1.9603e-19,0,0,0,0,0
10405,-3.72299e-12,1.17568e-37,-1.58764e-06,-3.85292e-12,1.17558e-37,0,-1.13729e-13,0,0,0,0,0,0,0,0,0,0,0,0,0,0,0,0,0,0,0,0,0,-0.261799,3.12445,-1.5,3.94113e+12,0,0,2,0,0,0,0,0,0,0,0,1.9603e-19,0,0,0,0,0
10422,-3.72299e-12,1.17568e-37,-1.58764e-06,-3.85292e-12,1.17558e-37,-3.40903e-12,-1.1373e-13,0,0,0,0,0,0,0,0,0,0,0,0,0,0,0,0,0,0,0,0,0,-0.261799,3.12499,-1.5,3.94113e+12,0,0,2,0,0,0,0,0,0,0,0,1.9603e-19,0,0,0,0,0
10443,-3.72299e-12,1.17568e-37,-1.58764e-06,-3.85292e-12,1.17558e-37,0,-1.1373e-13,0,0,0,0,0,0,0,0,0,0,0,0,0,0,0,0,0,0,0,0,0,-0.261799,3.12571,-1.5,3.94113e+12,0,0,2,0,0,0,0,0,0,0,0,1.9603e-19,0,0,0,0,0
10463,-3.72299e-12,1.17568e-37,-1.58764e-06,-3.85292e-12,1.17558e-37,-3.40903e-12,-1.13731e-13,0,0,0,0,0,0,0,0,0,0,0,0,0,0,0,0,0,0,0,0,0,-0.261799,3.12634,-1.5,3.94113e+12,0,0,2,0,0,0,0,0,0,0,0,1.9603e-19,0,0,0,0,0
10481,-3.72299e-12,1.17568e-37,-1.58764e-06,-3.85292e-12,1.17558e-37,0,-1.13731e-13,0,0,0,0,0,0,0,0,0,0,0,0,0,0,0,0,0,0,0,0,0,-0.261799,3.12688,-1.5,3.94113e+12,0,0,2,0,0,0,0,0,0,0,0,1.9603e-19,0,0,0,0,0
10502,-3.72299e-12,1.17568e-37,-1.58764e-06,-3.85292e-12,1.17558e-37,-3.40903e-12,-1.13732e-13,0,0,0,0,0,0,0,0,0,0,0,0,0,0,0,0,0,0,0,0,0,-0.261799,3.12749,-1.5,3.94113e+12,0,0,2,0,0,0,0,0,0,0,0,1.9603e-19,0,0,0,0,0
10522,-3.72299e-12,1.17568e-37,-1.58764e-06,-3.85292e-12,1.17558e-37,0,-1.13732e-13,0,0,0,0,0,0,0,0,0,0,0,0,0,0,0,0,0,0,0,0,0,-0.261799,3.12805,-1.5,3.94113e+12,0,0,2,0,0,0,0,0,0,0,0,1.9603e-19,0,0,0,0,0
10543,-3.72299e-12,1.17568e-37,-1.58764e-06,-3.85292e-12,1.17558e-37,-3.40903e-12,-1.13733e-13,0,0,0,0,0,0,0,0,0,0,0,0,0,0,0,0,0,0,0,0,0,-0.261799,3.12861,-1.5,3.94113e+12,0,0,2,0,0,0,0,0,0,0,0,1.9603e-19,0,0,0,0,0
10557,-3.72299e-12,1.17568e-37,-1.58764e-06,-3.85292e-12,1.17558e-37,0,-1.13734e-13,0,0,0,0,0,0,0,0,0,0,0,0,0,0,0,0,0,0,0,0,0,-0.261799,3.12897,-1.5,3.94113e+12,0,0,2,0,0,0,0,0,0,0,0,1.9603e-19,0,0,0,0,0
10575,-3.72299e-12,1.17568e-37,-1.58764e-06,-3.85292e-12,1.17558e-37,-3.40903e-12,-1.13734e-13,0,0,0,0,0,0,0,0,0,0,0,0,0,0,0,0,0,0,0,0,0,-0.261799,3.12942,-1.5,3.94113e+12,0,0,2,0,0,0,0,0,0,0,0,1.9603e-19,0,0,0,0,0
10611,-3.72299e-12,1.17568e-37,-1.58764e-06,-3.85292e-12,1.17558e-37,0,-1.13735e-13,0,0,0,0,0,0,0,0,0,0,0,0,0,0,0,0,0,0,0,0,0,-0.261799,3.13028,-1.5,3.94113e+12,0,0,2,0,0,0,0,0,0,0,0,1.9603e-19,0,0,0,0,0
10628,-3.72299e-12,1.17568e-37,-1.58764e-06,-3.85292e-12,1.17558e-37,-3.40903e-12,-1.13735e-13,0,0,0,0,0,0,0,0,0,0,0,0,0,0,0,0,0,0,0,0,0,-0.261799,3.13064,-1.5,3.94113e+12,0,0,2,0,0,0,0,0,0,0,0,1.9603e-19,0,0,0,0,0
10649,-3.72299e-12,1.17568e-37,-1.58764e-06,-3.85292e-12,1.17558e-37,0,-1.13736e-13,0,0,0,0,0,0,0,0,0,0,0,0,0,0,0,0,0,0,0,0,0,-0.261799,3.13112,-1.5,3.94113e+12,0,0,2,0,0,0,0,0,0,0,0,1.9603e-19,0,0,0,0,0
10669,-3.72299e-12,1.17568e-37,-1.58764e-06,-3.85292e-12,1.17558e-37,-3.40903e-12,-1.13736e-13,0,0,0,0,0,0,0,0,0,0,0,0,0,0,0,0,0,0,0,0,0,-0.261799,3.13153,-1.5,3.94113e+12,0,0,2,0,0,0,0,0,0,0,0,1.9603e-19,0,0,0,0,0
10690,-3.72299e-12,1.17568e-37,-1.58764e-06,-3.85292e-12,1.17558e-37,0,-1.13737e-13,0,0,0,0,0,0,0,0,0,0,0,0,0,0,0,0,0,0,0,0,0,-0.261799,3.13195,-1.5,3.94113e+12,0,0,2,0,0,0,0,0,0,0,0,1.9603e-19,0,0,0,0,0
10738,-3.72299e-12,1.17568e-37,-1.58764e-06,-3.85292e-12,1.17558e-37,-3.40903e-12,-1.13737e-13,0,0,0,0,0,0,0,0,0,0,0,0,0,0,0,0,0,0,0,0,0,-0.261799,3.13286,-1.5,3.94113e+12,0,0,2,0,0,0,0,0,0,0,0,1.9603e-19,0,0,0,0,0
10759,-3.72299e-12,1.17568e-37,-1.58764e-06,-3.85292e-12,1.17558e-37,0,-1.13738e-13,0,0,0,0,0,0,0,0,0,0,0,0,0,0,0,0,0,0,0,0,0,-0.261799,3.13322,-1.5,3.94113e+12,0,0,2,0,0,0,0,0,0,0,0,1.9603e-19,0,0,0,0,0
10799,-3.72299e-12,1.17568e-37,-1.58764e-06,-3.85292e-12,1.17558e-37,-3.40903e-12,-1.13738e-13,0,0,0,0,0,0,0,0,0,0,0,0,0,0,0,0,0,0,0,0,0,-0.261799,3.13388,-1.5,3.94113e+12,0,0,2,0,0,0,0,0,0,0,0,1.9603e-19,0,0,0,0,0
10816,-3.72299e-12,1.17568e-37,-1.58764e-06,-3.85292e-12,1.17558e-37,0,-1.13739e-13,0,0,0,0,0,0,0,0,0,0,0,0,0,0,0,0,0,0,0,0,0,-0.261799,3.13414,-1.5,3.94113e+12,0,0,2,0,0,0,0,0,0,0,0,1.9603e-19,0,0,0,0,0
10838,-3.72299e-12,1.17568e-37,-1.58764e-06,-3.85292e-12,1.17558e-37,-3.40903e-12,-1.1374e-13,0,0,0,0,0,0,0,0,0,0,0,0,0,0,0,0,0,0,0,0,0,-0.261799,3.13445,-1.5,3.94113e+12,0,0,2,0,0,0,0,0,0,0,0,1.9603e-19,0,0,0,0,0
10857,-3.72299e-12,1.17568e-37,-1.58764e-06,-3.85292e-12,1.17558e-37,0,-1.1374e-13,0,0,0,0,0,0,0,0,0,0,0,0,0,0,0,0,0,0,0,0,0,-0.261799,3.13473,-1.5,3.94113e+12,0,0,2,0,0,0,0,0,0,0,0,1.9603e-19,0,0,0,0,0
10876,-3.72299e-12,1.17568e-37,-1.58764e-06,-3.85292e-12,1.17558e-37,-3.40903e-12,-1.13741e-13,0,0,0,0,0,0,0,0,0,0,0,0,0,0,0,0,0,0,0,0,0,-0.261799,3.13498,-1.5,3.94113e+12,0,0,2,0,0,0,0,0,0,0,0,1.9603e-19,0,0,0,0,0
10897,-3.72299e-12,1.17568e-37,-1.58764e-06,-3.85292e-12,1.17558e-37,0,-1.13741e-13,0,0,0,0,0,0,0,0,0,0,0,0,0,0,0,0,0,0,0,0,0,-0.261799,3.13526,-1.5,3.94113e+12,0,0,2,0,0,0,0,0,0,0,0,1.9603e-19,0,0,0,0,0
10914,-3.72299e-12,1.17568e-37,-1.58764e-06,-3.85292e-12,1.17558e-37,-3.40903e-12,-1.13742e-13,0,0,0,0,0,0,0,0,0,0,0,0,0,0,0,0,0,0,0,0,0,-0.261799,3.13548,-1.5,3.94113e+12,0,0,2,0,0,0,0,0,0,0,0,1.9603e-19,0,0,0,0,0
10938,-3.72299e-12,1.17568e-37,-1.58764e-06,-3.85292e-12,1.17558e-37,0,-1.13742e-13,0,0,0,0,0,0,0,0,0,0,0,0,0,0,0,0,0,0,0,0,0,-0.261799,3.13577,-1.5,3.94113e+12,0,0,2,0,0,0,0,0,0,0,0,1.9603e-19,0,0,0,0,0
10955,-3.72299e-12,1.17568e-37,-1.58764e-06,-3.85292e-12,1.17558e-37,-3.40903e-12,-1.13743e-13,0,0,0,0,0,0,0,0,0,0,0,0,0,0,0,0,0,0,0,0,0,-0.261799,3.13595,-1.5,3.94113e+12,0,0,2,0,0,0,0,0,0,0,0,1.9603e-19,0,0,0,0,0
10973,-3.72299e-12,1.17568e-37,-1.58764e-06,-3.85292e-12,1.17558e-37,0,-1.13743e-13,0,0,0,0,0,0,0,0,0,0,0,0,0,0,0,0,0,0,0,0,0,-0.261799,3.13615,-1.5,3.94113e+12,0,0,2,0,0,0,0,0,0,0,0,1.9603e-19,0,0,0,0,0
11012,-3.72299e-12,1.17568e-37,-1.58764e-06,-3.85292e-12,1.17558e-37,-3.40903e-12,-1.13744e-13,0,0,0,0,0,0,0,0,0,0,0,0,0,0,0,0,0,0,0,0,0,-0.261799,3.13657,-1.5,3.94113e+12,0,0,2,0,0,0,0,0,0,0,0,1.9603e-19,0,0,0,0,0
11026,-3.72299e-12,1.17568e-37,-1.58764e-06,-3.85292e-12,1.17558e-37,0,-1.13744e-13,0,0,0,0,0,0,0,0,0,0,0,0,0,0,0,0,0,0,0,0,0,-0.261799,3.13671,-1.5,3.94113e+12,0,0,2,0,0,0,0,0,0,0,0,1.9603e-19,0,0,0,0,0
11073,-3.72299e-12,1.17568e-37,-1.58764e-06,-3.85292e-12,1.17558e-37,-3.40903e-12,-1.13745e-13,0,0,0,0,0,0,0,0,0,0,0,0,0,0,0,0,0,0,0,0,0,-0.261799,3.13715,-1.5,3.94113e+12,0,0,2,0,0,0,0,0,0,0,0,1.9603e-19,0,0,0,0,0
11093,-3.72299e-12,1.17568e-37,-1.58764e-06,-3.85292e-12,1.17558e-37,0,-1.13745e-13,0,0,0,0,0,0,0,0,0,0,0,0,0,0,0,0,0,0,0,0,0,-0.261799,3.13732,-1.5,3.94113e+12,0,0,2,0,0,0,0,0,0,0,0,1.9603e-19,0,0,0,0,0
11133,-3.72299e-12,1.17568e-37,-1.58764e-06,-3.85292e-12,1.17558e-37,-3.40903e-12,-1.13746e-13,0,0,0,0,0,0,0,0,0,0,0,0,0,0,0,0,0,0,0,0,0,-0.261799,3.13766,-1.5,3.94113e+12,0,0,2,0,0,0,0,0,0,0,0,1.9603e-19,0,0,0,0,0
11155,-3.72299e-12,1.17568e-37,-1.58764e-06,-3.85292e-12,1.17558e-37,0,-1.13747e-13,0,0,0,0,0,0,0,0,0,0,0,0,-1368604304,500232470,-1368604304,500232470,-899215880,-1368604304,-1368604256,-1368604256,0,-0.261799,3.13783,-1.5,3.94113e+12,0,0,2,0,0,0,0,0,0,0,0,0,0,0,0,0,0
11177,-3.72299e-12,1.17568e-37,-1.58764e-06,-3.85292e-12,1.17558e-37,-3.40903e-12,-1.13747e-13,0,0,0,0,0,0,0,0,0,0,0,0,-1368604304,500232470,-1368604304,500232470,-899215880,-1368604304,-1368604256,-1368604256,0,-0.261799,3.13799,-1.5,3.94113e+12,0,0,2,0,0,0,0,0,0,0,0,0,0,0,0,0,0
11201,-3.72299e-12,1.17568e-37,-1.58764e-06,-3.85292e-12,1.17558e-37,0,-1.13748e-13,0,0,0,0,0,0,0,0,0,0,0,0,-1368604304,500232470,-1368604304,500232470,-899215880,-1368604304,-1368604256,-1368604256,0,-0.261799,3.13817,-1.5,3.94113e+12,0,0,2,0,0,0,0,0,0,0,0,0,0,0,0,0,0
11219,-3.72299e-12,1.17568e-37,-1.58764e-06,-3.85292e-12,1.17558e-37,-3.40903e-12,-1.13748e-13,0,0,0,0,0,0,0,0,0,0,0,0,-1368604304,500232470,-1368604304,500232470,-899215880,-1368604304,-1368604256,-1368604256,0,-0.261799,3.13828,-1.5,3.94113e+12,0,0,2,0,0,0,0,0,0,0,0,0,0,0,0,0,0
11240,-3.72299e-12,1.17568e-37,-1.58764e-06,-3.85292e-12,1.17558e-37,0,-1.13749e-13,0,0,0,0,0,0,0,0,0,0,0,0,-1368604304,500232470,-1368604304,500232470,-899215880,-1368604304,-1368604256,-1368604256,0,-0.261799,3.13843,-1.5,3.94113e+12,0,0,2,0,0,0,0,0,0,0,0,0,0,0,0,0,0
11257,-3.72299e-12,1.17568e-37,-1.58764e-06,-3.85292e-12,1.17558e-37,-3.40903e-12,-1.13749e-13,0,0,0,0,0,0,0,0,0,0,0,0,-1368604304,500232470,-1368604304,500232470,-899215880,-1368604304,-1368604256,-1368604256,0,-0.261799,3.13853,-1.5,3.94113e+12,0,0,2,0,0,0,0,0,0,0,0,0,0,0,0,0,0
11277,-3.72299e-12,1.17568e-37,-1.58764e-06,-3.85292e-12,1.17558e-37,0,-1.1375e-13,0,0,-4.70106,-5.53746,1.17226,0,0,0,0,0,0,0,724,-26,724,-26,811,-62,718,56,0,-0.261799,3.13865,-1.5,3.94113e+12,0,0,2,0,0,0,0,0,0,0,0,10974,0,0,0,0,0
11298,-3.72299e-12,1.17568e-37,-1.58764e-06,-3.85292e-12,1.17558e-37,-3.40903e-12,-1.1375e-13,0,0,-4.70106,-5.53746,1.17226,0,0,0,0,0,0,0,724,-26,724,-26,811,-62,718,56,0,-0.261799,3.13877,-1.5,3.94113e+12,0,0,2,0,0,0,0,0,0,0,0,10974,0,0,0,0,0
11315,-3.72299e-12,1.17568e-37,-1.58764e-06,-3.85292e-12,1.17558e-37,0,-1.13751e-13,0,0,-4.57953,-5.43249,1.109,0,0,0,0,0,0,0,729,-29,729,-29,811,-64,722,59,0,-0.261799,3.13887,-1.5,3.94113e+12,0,0,2,0,0,0,0,0,0,0,0,10947,0,0,0,0,0
11363,-3.72299e-12,1.17568e-37,-1.58764e-06,-3.85292e-12,1.17558e-37,-3.40903e-12,-1.13751e-13,0,0,-4.57953,-5.43249,1.109,0,0,0,0,0,0,0,729,-29,729,-29,811,-64,722,59,0,-0.261799,3.13913,-1.5,3.94113e+12,0,0,2,0,0,0,0,0,0,0,0,10947,0,0,0,0,0
11388,-3.72299e-12,1.17568e-37,-1.58764e-06,-3.85292e-12,1.17558e-37,0,-1.13752e-13,0,0,-4.57953,-5.43249,1.109,0,0,0,0,0,0,0,729,-29,729,-29,811,-64,722,59,0,-0.261799,3.13925,-1.5,3.94113e+12,0,0,2,0,0,0,0,0,0,0,0,10947,0,0,0,0,0
11405,-3.72299e-12,1.17568e-37,-1.58764e-06,-3.85292e-12,1.17558e-37,-3.40903e-12,-1.13753e-13,0,0,-4.65986,-5.49498,0.794001,0,0,0,0,0,0,0,722,2,722,2,813,-32,718,84,0,-0.261799,3.13933,-1.5,3.94113e+12,0,0,2,0,0,0,0,0,0,0,0,11020,0,0,0,0,0
11445,-3.72299e-12,1.17568e-37,-1.58764e-06,-3.85292e-12,1.17558e-37,0,-1.13753e-13,0,0,-4.65986,-5.49498,0.794001,0,0,0,0,0,0,0,722,2,722,2,813,-32,718,84,0,-0.261799,3.1395,-1.5,3.94113e+12,0,0,2,0,0,0,0,0,0,0,0,11020,0,0,0,0,0
11462,-3.72299e-12,1.17568e-37,-1.58764e-06,-3.85292e-12,1.17558e-37,-3.40903e-12,-1.13754e-13,0,0,-4.65986,-5.49498,0.794001,0,0,0,0,0,0,0,722,2,722,2,813,-32,718,84,0,-0.261799,3.13958,-1.5,3.94113e+12,0,0,2,0,0,0,0,0,0,0,0,11020,0,0,0,0,0
11480,-3.72299e-12,1.17568e-37,-1.58764e-06,-3.85292e-12,1.17558e-37,0,-1.13754e-13,0,0,-4.57597,-5.60599,0.960118,0,0,0,0,0,0,0,740,-14,740,-14,830,-52,732,66,0,-0.261799,3.13965,-1.5,3.94113e+12,0,0,2,0,0,0,0,0,0,0,0,11564,0,0,0,0,0
11497,-3.72299e-12,1.17568e-37,-1.58764e-06,-3.85292e-12,1.17558e-37,-3.40903e-12,-1.13755e-13,0,0,-4.57597,-5.60599,0.960118,0,0,0,0,0,0,0,740,-14,740,-14,830,-52,732,66,0,-0.261799,3.13971,-1.5,3.94113e+12,0,0,2,0,0,0,0,0,0,0,0,11564,0,0,0,0,0
11519,-3.72299e-12,1.17568e-37,-1.58764e-06,-3.85292e-12,1.17558e-37,0,-1.13755e-13,0,0,-4.57597,-5.60599,0.960118,0,0,0,0,0,0,0,740,-14,740,-14,830,-52,732,66,0,-0.261799,3.13979,-1.5,3.94113e+12,0,0,2,0,0,0,0,0,0,0,0,11564,0,0,0,0,0
11539,-3.72299e-12,1.17568e-37,-1.58764e-06,-3.85292e-12,1.17558e-37,-3.40903e-12,-1.13756e-13,0,0,-4.57597,-5.60599,0.960118,0,0,0,0,0,0,0,740,-14,740,-14,830,-52,732,66,0,-0.261799,3.13986,-1.5,3.94113e+12,0,0,2,0,0,0,0,0,0,0,0,11564,0,0,0,0,0
11561,-3.72299e-12,1.17568e-37,-1.58764e-06,-3.85292e-12,1.17558e-37,0,-1.13756e-13,0,0,-4.57597,-5.60599,0.960118,0,0,0,0,0,0,0,740,-14,740,-14,830,-52,732,66,0,-0.261799,3.13994,-1.5,3.94113e+12,0,0,2,0,0,0,0,0,0,0,0,11564,0,0,0,0,0
11578,-3.72299e-12,1.17568e-37,-1.58764e-06,-3.85292e-12,1.17558e-37,-3.40903e-12,-1.13757e-13,0,0,-4.57597,-5.60599,0.960118,0,0,0,0,0,0,0,740,-14,740,-14,830,-52,732,66,0,-0.261799,3.14,-1.5,3.94113e+12,0,0,2,0,0,0,0,0,0,0,0,11564,0,0,0,0,0
11599,-3.72299e-12,1.17568e-37,-1.58764e-06,-3.85292e-12,1.17558e-37,0,-1.13757e-13,0,0,-4.57597,-5.60599,0.960118,0,0,0,0,0,0,0,740,-14,740,-14,830,-52,732,66,0,-0.261799,3.14006,-1.5,3.94113e+12,0,0,2,0,0,0,0,0,0,0,0,11564,0,0,0,0,0
11620,-3.72299e-12,1.17568e-37,-1.58764e-06,-3.85292e-12,1.17558e-37,-3.40903e-12,-1.13758e-13,0,0,-4.57597,-5.60599,0.960118,0,0,0,0,0,0,0,740,-14,740,-14,830,-52,732,66,0,-0.261799,3.14012,-1.5,3.94113e+12,0,0,2,0,0,0,0,0,0,0,0,11564,0,0,0,0,0
11641,-3.72299e-12,1.17568e-37,-1.58764e-06,-3.85292e-12,1.17558e-37,0,-1.13759e-13,0,0,-3.27091,-0.0934082,0.273736,0,0,0,0,0,0,0,265,-50,265,-50,399,-53,266,64,0,-0.261799,3.14019,-1.5,3.94113e+12,0,0,2,0,0,0,0,0,0,0,0,15946,0,0,0,0,0
11658,-3.72299e-12,1.17568e-37,-1.58764e-06,-3.85292e-12,1.17558e-37,-3.40903e-12,-1.13759e-13,0,0,-3.27091,-0.0934082,0.273736,0,0,0,0,0,0,0,265,-50,265,-50,399,-53,266,64,0,-0.261799,3.14023,-1.5,3.94113e+12,0,0,2,0,0,0,0,0,0,0,0,15946,0,0,0,0,0
11680,-3.72299e-12,1.17568e-37,-1.58764e-06,-3.85292e-12,1.17558e-37,0,-1.1376e-13,0,0,-3.23784,-0.0972077,0.268985,0,0,0,0,0,0,0,265,-51,265,-51,400,-58,267,67,0,-0.261799,3.14029,-1.5,3.94113e+12,0,0,2,0,0,0,0,0,0,0,0,16875,0,0,0,0,0
11716,-3.72299e-12,1.17568e-37,-1.58764e-06,-3.85292e-12,1.17558e-37,-3.40903e-12,-1.1376e-13,0,0,-4.88093,-5.6644,0.216309,0,0,0,0,0,0,0,716,56,716,56,791,28,718,134,0,-0.261799,3.14038,-1.5,3.94113e+12,0,0,2,0,0,0,0,0,0,0,0,8904,0,0,0,0,0
11733,-3.72299e-12,1.17568e-37,-1.58764e-06,-3.85292e-12,1.17558e-37,0,-1.13761e-13,0,0,-4.88093,-5.6644,0.216309,0,0,0,0,0,0,0,716,56,716,56,791,28,718,134,0,-0.261799,3.14043,-1.5,3.94113e+12,0,0,2,0,0,0,0,0,0,0,0,8904,0,0,0,0,0
11755,-3.72299e-12,1.17568e-37,-1.58764e-06,-3.85292e-12,1.17558e-37,-3.40903e-12,-1.13761e-13,0,0,-4.88028,-5.66989,0.215627,0,0,0,0,0,0,0,716,56,716,56,793,28,718,134,0,-0.261799,3.14048,-1.5,3.94113e+12,0,0,2,0,0,0,0,0,0,0,0,8904,0,0,0,0,0
11773,-3.72299e-12,1.17568e-37,-1.58764e-06,-3.85292e-12,1.17558e-37,0,-1.13762e-13,0,0,-4.88028,-5.66989,0.215627,0,0,0,0,0,0,0,716,56,716,56,793,28,718,134,0,-0.261799,3.14052,-1.5,3.94113e+12,0,0,2,0,0,0,0,0,0,0,0,8904,0,0,0,0,0
11795,-3.72299e-12,1.17568e-37,-1.58764e-06,-3.85292e-12,1.17558e-37,-3.40903e-12,-1.13762e-13,0,0,-4.88028,-5.66989,0.215627,0,0,0,0,0,0,0,716,56,716,56,793,28,718,134,0,-0.261799,3.14056,-1.5,3.94113e+12,0,0,2,0,0,0,0,0,0,0,0,8904,0,0,0,0,0
11820,-3.72299e-12,1.17568e-37,-1.58764e-06,-3.85292e-12,1.17558e-37,0,-1.13763e-13,0,0,-4.74521,-5.51401,0.161867,0,0,0,0,0,0,0,716,56,716,56,791,26,720,137,0,-0.261799,3.14061,-1.5,3.94113e+12,0,0,2,0,0,0,0,0,0,0,0,9324,0,0,0,0,0
11838,-3.72299e-12,1.17568e-37,-1.58764e-06,-3.85292e-12,1.17558e-37,-3.40903e-12,-1.13763e-13,0,0,-4.74467,-5.52786,0.161557,0,0,0,0,0,0,0,715,58,715,58,794,26,720,137,0,-0.261799,3.14065,-1.5,3.94113e+12,0,0,2,0,0,0,0,0,0,0,0,9768,0,0,0,0,0
11876,-3.72299e-12,1.17568e-37,-1.58764e-06,-3.85292e-12,1.17558e-37,0,-1.13764e-13,0,0,-3.25729,-0.0962481,0.254476,0,0,0,0,0,0,0,265,-48,265,-48,400,-54,267,68,0,-0.261799,3.14072,-1.5,3.94113e+12,0,0,2,0,0,0,0,0,0,0,0,16470,0,0,0,0,0
11897,-3.72299e-12,1.17568e-37,-1.58764e-06,-3.85292e-12,1.17558e-37,-3.40903e-12,-1.13764e-13,0,0,-3.25729,-0.0962481,0.254476,0,0,0,0,0,0,0,265,-48,265,-48,400,-54,267,68,0,-0.261799,3.14075,-1.5,3.94113e+12,0,0,2,0,0,0,0,0,0,0,0,16470,0,0,0,0,0
11914,-3.72299e-12,1.17568e-37,-1.58764e-06,-3.85292e-12,1.17558e-37,0,-1.13765e-13,0,0,-3.24895,-0.0894595,0.249667,0,0,0,0,0,0,0,263,-48,263,-48,399,-54,267,68,0,-0.261799,3.14078,-1.5,3.94113e+12,0,0,2,0,0,0,0,0,0,0,0,16592,0,0,0,0,0
11966,-3.72299e-12,1.17568e-37,-1.58764e-06,-3.85292e-12,1.17558e-37,-3.40903e-12,-1.13766e-13,0,0,-3.19774,-0.0940699,0.216008,0,0,0,0,0,0,0,263,-48,263,-48,399,-54,266,70,0,-0.261799,3.14087,-1.5,3.94113e+12,0,0,2,0,0,0,0,0,0,0,0,17112,0,0,0,0,0
11986,-3.72299e-12,1.17568e-37,-1.58764e-06,-3.85292e-12,1.17558e-37,0,-1.13766e-13,0,0,-3.21579,-0.081378,0.218902,0,0,0,0,0,0,0,262,-50,262,-50,399,-53,266,68,0,-0.261799,3.14089,-1.5,3.94113e+12,0,0,2,0,0,0,0,0,0,0,0,17125,0,0,0,0,0
12007,-3.72299e-12,1.17568e-37,-1.58764e-06,-3.85292e-12,1.17558e-37,-3.40903e-12,-1.13767e-13,0,0,-3.24518,-0.0812972,0.249469,0,0,0,0,0,0,0,262,-50,262,-50,399,-53,266,68,0,-0.261799,3.14092,-1.5,3.94113e+12,0,0,2,0,0,0,0,0,0,0,0,16577,0,0,0,0,0
12023,-3.72299e-12,1.17568e-37,-1.58764e-06,-3.85292e-12,1.17558e-37,0,-1.13767e-13,0,0,-3.24518,-0.0812972,0.249469,0,0,0,0,0,0,0,262,-50,262,-50,399,-53,266,68,0,-0.261799,3.14094,-1.5,3.94113e+12,0,0,2,0,0,0,0,0,0,0,0,16577,0,0,0,0,0
12045,-3.72299e-12,1.17568e-37,-1.58764e-06,-3.85292e-12,1.17558e-37,-3.40903e-12,-1.13768e-13,0,0,-3.24518,-0.0812972,0.249469,0,0,0,0,0,0,0,262,-50,262,-50,399,-53,266,68,0,-0.261799,3.14097,-1.5,3.94113e+12,0,0,2,0,0,0,0,0,0,0,0,16577,0,0,0,0,0
12064,-3.72299e-12,1.17568e-37,-1.58764e-06,-3.85292e-12,1.17558e-37,0,-1.13768e-13,0,0,-3.24518,-0.0812972,0.249469,0,0,0,0,0,0,0,262,-50,262,-50,399,-53,266,68,0,-0.261799,3.14099,-1.5,3.94113e+12,0,0,2,0,0,0,0,0,0,0,0,16577,0,0,0,0,0
12082,-3.72299e-12,1.17568e-37,-1.58764e-06,-3.85292e-12,1.17558e-37,-3.40903e-12,-1.13769e-13,0,0,-3.23532,-0.0807866,0.239211,0,0,0,0,0,0,0,262,-50,262,-50,399,-53,266,70,0,-0.261799,3.14102,-1.5,3.94113e+12,0,0,2,0,0,0,0,0,0,0,0,16851,0,0,0,0,0
12103,-3.72299e-12,1.17568e-37,-1.58764e-06,-3.85292e-12,1.17558e-37,0,-1.13769e-13,0,0,-3.23532,-0.0807866,0.239211,0,0,0,0,0,0,0,262,-50,262,-50,399,-53,266,70,0,-0.261799,3.14104,-1.5,3.94113e+12,0,0,2,0,0,0,0,0,0,0,0,16851,0,0,0,0,0
12122,-3.72299e-12,1.17568e-37,-1.58764e-06,-3.85292e-12,1.17558e-37,-3.40903e-12,-1.1377e-13,0,0,-3.23532,-0.0807866,0.239211,0,0,0,0,0,0,0,262,-50,262,-50,399,-53,266,70,0,-0.261799,3.14106,-1.5,3.94113e+12,0,0,2,0,0,0,0,0,0,0,0,16851,0,0,0,0,0
12144,-3.72299e-12,1.17568e-37,-1.58764e-06,-3.85292e-12,1.17558e-37,0,-1.1377e-13,0,0,-3.22367,-0.0756212,0.230481,0,0,0,0,0,0,0,261,-48,261,-48,399,-54,265,70,0,-0.261799,3.14108,-1.5,3.94113e+12,0,0,2,0,0,0,0,0,0,0,0,17112,0,0,0,0,0
12161,-3.72299e-12,1.17568e-37,-1.58764e-06,-3.85292e-12,1.17558e-37,-3.40903e-12,-1.13771e-13,0,0,-3.22367,-0.0756212,0.230481,0,0,0,0,0,0,0,261,-48,261,-48,399,-54,265,70,0,-0.261799,3.1411,-1.5,3.94113e+12,0,0,2,0,0,0,0,0,0,0,0,17112,0,0,0,0,0
12182,-3.72299e-12,1.17568e-37,-1.58764e-06,-3.85292e-12,1.17558e-37,0,-1.13772e-13,0,0,-3.22367,-0.0756212,0.230481,0,0,0,0,0,0,0,261,-48,261,-48,399,-54,265,70,0,-0.261799,3.14112,-1.5,3.94113e+12,0,0,2,0,0,0,0,0,0,0,0,17112,0,0,0,0,0
12206,-3.72299e-12,1.17568e-37,-1.58764e-06,-3.85292e-12,1.17558e-37,-3.40903e-12,-1.13772e-13,0,0,-4.82545,-5.63732,0.175145,0,0,0,0,0,0,0,715,58,715,58,799,29,720,135,0,-0.261799,3.14114,-1.5,3.94113e+12,0,0,2,0,0,0,0,0,0,0,0,9328,0,0,0,0,0
12224,-3.72299e-12,1.17568e-37,-1.58764e-06,-3.85292e-12,1.17558e-37,0,-1.13773e-13,0,0,-4.82545,-5.63732,0.175145,0,0,0,0,0,0,0,715,58,715,58,799,29,720,135,0,-0.261799,3.14116,-1.5,3.94113e+12,0,0,2,0,0,0,0,0,0,0,0,9328,0,0,0,0,0
12241,-3.72299e-12,1.17568e-37,-1.58764e-06,-3.85292e-12,1.17558e-37,-3.40903e-12,-1.13773e-13,0,0,-3.16334,-0.115316,0.203182,0,0,0,0,0,0,0,265,-51,265,-51,406,-57,269,67,0,-0.261799,3.14117,-1.5,3.94113e+12,0,0,2,0,0,0,0,0,0,0,0,18048,0,0,0,0,0
12265,-3.72299e-12,1.17568e-37,-1.58764e-06,-3.85292e-12,1.17558e-37,0,-1.13774e-13,0,0,-3.16334,-0.115316,0.203182,0,0,0,0,0,0,0,265,-51,265,-51,406,-57,269,67,0,-0.261799,3.14119,-1.5,3.94113e+12,0,0,2,0,0,0,0,0,0,0,0,18048,0,0,0,0,0
12282,-3.72299e-12,1.17568e-37,-1.58764e-06,-3.85292e-12,1.17558e-37,-3.40903e-12,-1.13774e-13,0,0,-4.85271,-5.74122,0.194279,0,0,0,0,0,0,0,724,57,724,57,804,28,725,136,0,-0.261799,3.14121,-1.5,3.94113e+12,0,0,2,0,0,0,0,0,0,0,0,8856,0,0,0,0,0
12303,-3.72299e-12,1.17568e-37,-1.58764e-06,-3.85292e-12,1.17558e-37,0,-1.13775e-13,0,0,-4.85271,-5.74122,0.194279,0,0,0,0,0,0,0,724,57,724,57,804,28,725,136,0,-0.261799,3.14122,-1.5,3.94113e+12,0,0,2,0,0,0,0,0,0,0,0,8856,0,0,0,0,0
12319,-3.72299e-12,1.17568e-37,-1.58764e-06,-3.85292e-12,1.17558e-37,-3.40903e-12,-1.13775e-13,0,0,-3.17391,-0.15823,0.198887,0,0,0,0,0,0,0,271,-51,271,-51,408,-55,274,69,0,-0.261799,3.14123,-1.5,3.94113e+12,0,0,2,0,0,0,0,0,0,0,0,17399,0,0,0,0,0
12343,-3.72299e-12,1.17568e-37,-1.58764e-06,-3.85292e-12,1.17558e-37,0,-1.13776e-13,0,0,-3.17391,-0.15823,0.198887,0,0,0,0,0,0,0,271,-51,271,-51,408,-55,274,69,0,-0.261799,3.14125,-1.5,3.94113e+12,0,0,2,0,0,0,0,0,0,0,0,17399,0,0,0,0,0
12360,-3.72299e-12,1.17568e-37,-1.58764e-06,-3.85292e-12,1.17558e-37,-3.40903e-12,-1.13776e-13,0,0,-3.17391,-0.15823,0.198887,0,0,0,0,0,0,0,271,-51,271,-51,408,-55,274,69,0,-0.261799,3.14126,-1.5,3.94113e+12,0,0,2,0,0,0,0,0,0,0,0,17399,0,0,0,0,0
12382,-3.72299e-12,1.17568e-37,-1.58764e-06,-3.85292e-12,1.17558e-37,0,-1.13777e-13,0,0,-3.28283,-0.187423,0.287088,0,0,0,0,0,0,0,274,-49,274,-49,410,-55,279,62,0,-0.261799,3.14128,-1.5,3.94113e+12,0,0,2,0,0,0,0,0,0,0,0,16456,0,0,0,0,0
12399,-3.72302e-12,1.17389e-37,1.17573e-37,-3.85292e-12,1.17558e-37,-3.40903e-12,-1.13777e-13,0,0,-3.28283,-0.187423,0.287088,0,0,0,0,0,0,0,274,-49,274,-49,410,-55,279,62,0,-0.261799,3.14129,-1.5,3.94113e+12,0,0,2,0,0,0,0,0,0,0,0,16456,0,0,0,0,0
12419,-3.72299e-12,1.17568e-37,-1.58764e-06,-3.85292e-12,1.17558e-37,0,-1.13778e-13,0,0,-3.25248,-0.199361,0.253691,0,0,0,0,0,0,0,277,-48,277,-48,412,-55,279,70,0,-0.261799,3.1413,-1.5,3.94113e+12,0,0,2,0,0,0,0,0,0,0,0,16875,0,0,0,0,0
12440,-3.72299e-12,1.17568e-37,-1.58764e-06,-3.85292e-12,1.17558e-37,-3.40903e-12,-1.13779e-13,0,0,-3.24368,-0.199108,0.244059,0,0,0,0,0,0,0,277,-48,277,-48,412,-55,279,70,0,-0.261799,3.14131,-1.5,3.94113e+12,0,0,2,0,0,0,0,0,0,0,0,16875,0,0,0,0,0
12457,-3.72299e-12,1.17568e-37,-1.58764e-06,-3.85292e-12,1.17558e-37,0,-1.13779e-13,0,0,-3.24368,-0.199108,0.244059,0,0,0,0,0,0,0,277,-48,277,-48,412,-55,279,70,0,-0.261799,3.14132,-1.5,3.94113e+12,0,0,2,0,0,0,0,0,0,0,0,16875,0,0,0,0,0
12478,-3.72299e-12,1.17568e-37,-1.58764e-06,-3.85292e-12,1.17558e-37,-3.40903e-12,-1.13787e-13,0,0,-3.26878,-0.196654,0.254502,0,0,0,0,0,0,0,277,-48,277,-48,410,-53,279,70,0,-0.261799,3.14133,-1.5,3.94113e+12,0,0,2,0,0,0,0,0,0,0,0,16359,0,0,0,0,0
12528,-3.72299e-12,1.17568e-37,-1.58764e-06,-3.85292e-12,1.17558e-37,0,-1.13787e-13,0,0,-3.26878,-0.196654,0.254502,0,0,0,0,0,0,0,277,-48,277,-48,410,-53,279,70,0,-0.261799,3.14136,-1.5,3.94113e+12,0,0,2,0,0,0,0,0,0,0,0,16359,0,0,0,0,0
12550,-3.72299e-12,1.17568e-37,-1.58764e-06,-3.85292e-12,1.17558e-37,-3.40903e-12,-1.13788e-13,0,0,-3.26878,-0.196654,0.254502,0,0,0,0,0,0,0,277,-48,277,-48,410,-53,279,70,0,-0.261799,3.14137,-1.5,3.94113e+12,0,0,2,0,0,0,0,0,0,0,0,16359,0,0,0,0,0
12573,-3.72299e-12,1.17568e-37,-1.58764e-06,-3.85292e-12,1.17558e-37,0,-1.13789e-13,0,0,-3.27582,-0.208596,0.25214,0,0,0,0,0,0,0,277,-46,277,-46,413,-52,281,67,0,-0.261799,3.14138,-1.5,3.94113e+12,0,0,2,0,0,0,0,0,0,0,0,16456,0,0,0,0,0
12623,-3.72299e-12,1.17568e-37,-1.58764e-06,-3.85292e-12,1.17558e-37,-3.40903e-12,-1.13789e-13,0,0,-3.23268,-0.216184,0.188486,0,0,0,0,0,0,0,278,-44,278,-44,413,-47,281,76,0,-0.261799,3.1414,-1.5,3.94113e+12,0,0,2,0,0,0,0,0,0,0,0,16605,0,0,0,0,0
12684,-3.72299e-12,1.17568e-37,-1.58764e-06,-3.85292e-12,1.17558e-37,0,-1.1379e-13,0,0,-3.25978,-0.209574,0.203667,0,0,0,0,0,0,0,277,-43,277,-43,413,-47,281,74,0,-0.261799,3.14142,-1.5,3.94113e+12,0,0,2,0,0,0,0,0,0,0,0,16456,0,0,0,0,0
12705,-3.72299e-12,1.17568e-37,-1.58764e-06,-3.85292e-12,1.17558e-37,-3.40903e-12,-1.1379e-13,0,0,-4.69536,-5.75843,0.0804355,0,0,0,0,0,0,0,737,65,737,65,817,29,743,140,0,-0.261799,3.14143,-1.5,3.94113e+12,0,0,2,0,0,0,0,0,0,0,0,9990,0,0,0,0,0
12722,-3.72299e-12,1.17568e-37,-1.58764e-06,-3.85292e-12,1.17558e-37,0,-1.13791e-13,0,0,-4.69536,-5.75843,0.0804355,0,0,0,0,0,0,0,737,65,737,65,817,29,743,140,0,-0.261799,3.14143,-1.5,3.94113e+12,0,0,2,0,0,0,0,0,0,0,0,9990,0,0,0,0,0
12743,-3.72299e-12,1.17568e-37,-1.58764e-06,-3.85292e-12,1.17558e-37,-3.40903e-12,-1.13791e-13,0,0,-4.7102,-5.76412,0.0830288,0,0,0,0,0,0,0,734,66,734,66,817,29,745,140,0,-0.261799,3.14144,-1.5,3.94113e+12,0,0,2,0,0,0,0,0,0,0,0,9990,0,0,0,0,0
12763,-3.72299e-12,1.17568e-37,-1.58764e-06,-3.85292e-12,1.17558e-37,0,-1.13792e-13,0,0,-4.7102,-5.76412,0.0830288,0,0,0,0,0,0,0,734,66,734,66,817,29,745,140,0,-0.261799,3.14145,-1.5,3.94113e+12,0,0,2,0,0,0,0,0,0,0,0,9990,0,0,0,0,0
12784,-3.72299e-12,1.17568e-37,-1.58764e-06,-3.85292e-12,1.17558e-37,-3.40903e-12,-1.13792e-13,0,0,-3.27286,-0.213901,0.213511,0,0,0,0,0,0,0,277,-41,277,-41,413,-48,282,74,0,-0.261799,3.14145,-1.5,3.94113e+12,0,0,2,0,0,0,0,0,0,0,0,16592,0,0,0,0,0
12801,-3.72299e-12,1.17568e-37,-1.58764e-06,-3.85292e-12,1.17558e-37,0,-1.13793e-13,0,0,-3.27286,-0.213901,0.213511,0,0,0,0,0,0,0,277,-41,277,-41,413,-48,282,74,0,-0.261799,3.14146,-1.5,3.94113e+12,0,0,2,0,0,0,0,0,0,0,0,16592,0,0,0,0,0
12821,-3.72299e-12,1.17568e-37,-1.58764e-06,-3.85292e-12,1.17558e-37,-3.40903e-12,-1.13793e-13,0,0,-3.25575,-0.210996,0.2081,0,0,0,0,0,0,0,277,-43,277,-43,413,-48,281,74,0,-0.261799,3.14146,-1.5,3.94113e+12,0,0,2,0,0,0,0,0,0,0,0,16592,0,0,0,0,0
12843,-3.72299e-12,1.17568e-37,-1.58764e-06,-3.85292e-12,1.17558e-37,0,-1.13794e-13,0,0,-3.26362,-0.213581,0.203749,0,0,0,0,0,0,0,277,-41,277,-41,413,-48,282,74,0,-0.261799,3.14147,-1.5,3.94113e+12,0,0,2,0,0,0,0,0,0,0,0,16592,0,0,0,0,0
12860,-3.72299e-12,1.17568e-37,-1.58764e-06,-3.85292e-12,1.17558e-37,-3.40903e-12,-1.13794e-13,0,0,-3.26362,-0.213581,0.203749,0,0,0,0,0,0,0,277,-41,277,-41,413,-48,282,74,0,-0.261799,3.14147,-1.5,3.94113e+12,0,0,2,0,0,0,0,0,0,0,0,16592,0,0,0,0,0
12881,-3.72299e-12,1.17568e-37,-1.58764e-06,-3.85292e-12,1.17558e-37,0,-1.13795e-13,0,0,-3.26362,-0.213581,0.203749,0,0,0,0,0,0,0,277,-41,277,-41,413,-48,282,74,0,-0.261799,3.14148,-1.5,3.94113e+12,0,0,2,0,0,0,0,0,0,0,0,16592,0,0,0,0,0
12901,-3.72299e-12,1.17568e-37,-1.58764e-06,-3.85292e-12,1.17558e-37,-3.40903e-12,-1.13796e-13,0,0,-3.26362,-0.213581,0.203749,0,0,0,0,0,0,0,277,-41,277,-41,413,-48,282,74,0,-0.261799,3.14148,-1.5,3.94113e+12,0,0,2,0,0,0,0,0,0,0,0,16592,0,0,0,0,0
12923,-3.72299e-12,1.17568e-37,-1.58764e-06,-3.85292e-12,1.17558e-37,0,-1.13796e-13,0,0,-3.26362,-0.213581,0.203749,0,0,0,0,0,0,0,277,-41,277,-41,413,-48,282,74,0,-0.261799,3.14149,-1.5,3.94113e+12,0,0,2,0,0,0,0,0,0,0,0,16592,0,0,0,0,0
12940,-3.72299e-12,1.17568e-37,-1.58764e-06,-3.85292e-12,1.17558e-37,-3.40903e-12,-1.13797e-13,0,0,-3.25336,-0.212766,0.202108,0,0,0,0,0,0,0,277,-43,277,-43,413,-48,282,76,0,-0.261799,3.14149,-1.5,3.94113e+12,0,0,2,0,0,0,0,0,0,0,0,16864,0,0,0,0,0
12961,-3.72299e-12,1.17568e-37,-1.58764e-06,-3.85292e-12,1.17558e-37,0,-1.13797e-13,0,0,-3.25336,-0.212766,0.202108,0,0,0,0,0,0,0,277,-43,277,-43,413,-48,282,76,0,-0.261799,3.14149,-1.5,3.94113e+12,0,0,2,0,0,0,0,0,0,0,0,16864,0,0,0,0,0
12975,-3.72299e-12,1.17568e-37,-1.58764e-06,-3.85292e-12,1.17558e-37,-3.40903e-12,-1.13798e-13,0,0,-3.27103,-0.215739,0.20787,0,0,0,0,0,0,0,278,-41,278,-41,413,-48,282,76,0,-0.261799,3.1415,-1.5,3.94113e+12,0,0,2,0,0,0,0,0,0,0,0,16740,0,0,0,0,0
12996,-3.72299e-12,1.17568e-37,-1.58764e-06,-3.85292e-12,1.17558e-37,0,-1.13798e-13,0,0,-3.27103,-0.215739,0.20787,0,0,0,0,0,0,0,278,-41,278,-41,413,-48,282,76,0,-0.261799,3.1415,-1.5,3.94113e+12,0,0,2,0,0,0,0,0,0,0,0,16740,0,0,0,0,0
13012,-3.72299e-12,1.17568e-37,-1.58764e-06,-3.85292e-12,1.17558e-37,-3.40903e-12,-1.13799e-13,0,0,-3.26581,-0.224235,0.202848,0,0,0,0,0,0,0,280,-41,280,-41,413,-48,282,76,0,-0.261799,3.1415,-1.5,3.94113e+12,0,0,2,0,0,0,0,0,0,0,0,16492,0,0,0,0,0
13033,-3.72299e-12,1.17568e-37,-1.58764e-06,-3.85292e-12,1.17558e-37,0,-1.13799e-13,0,0,-3.26581,-0.224235,0.202848,0,0,0,0,0,0,0,280,-41,280,-41,413,-48,282,76,0,-0.261799,3.14151,-1.5,3.94113e+12,0,0,2,0,0,0,0,0,0,0,0,16492,0,0,0,0,0
13053,-3.72299e-12,1.17568e-37,-1.58764e-06,-3.85292e-12,1.17558e-37,-3.40903e-12,-1.138e-13,0,0,-3.27103,-0.215739,0.20787,0,0,0,0,0,0,0,278,-41,278,-41,413,-48,282,76,0,-0.261799,3.14151,-1.5,3.94113e+12,0,0,2,0,0,0,0,0,0,0,0,16740,0,0,0,0,0
13074,-3.72299e-12,1.17568e-37,-1.58764e-06,-3.85292e-12,1.17558e-37,0,-1.138e-13,0,0,-3.29239,-0.213578,0.209111,0,0,0,0,0,0,0,278,-41,278,-41,411,-45,282,76,0,-0.261799,3.14151,-1.5,3.94113e+12,0,0,2,0,0,0,0,0,0,0,0,16093,0,0,0,0,0
13091,-3.72299e-12,1.17568e-37,-1.58764e-06,-3.85292e-12,1.17558e-37,-3.40903e-12,-1.13801e-13,0,0,-3.29239,-0.213578,0.209111,0,0,0,0,0,0,0,278,-41,278,-41,411,-45,282,76,0,-0.261799,3.14152,-1.5,3.94113e+12,0,0,2,0,0,0,0,0,0,0,0,16093,0,0,0,0,0
13112,-3.72299e-12,1.17568e-37,-1.58764e-06,-3.85292e-12,1.17558e-37,0,-1.13802e-13,0,0,-3.26402,-0.213634,0.204036,0,0,0,0,0,0,0,278,-41,278,-41,413,-48,281,74,0,-0.261799,3.14152,-1.5,3.94113e+12,0,0,2,0,0,0,0,0,0,0,0,16470,0,0,0,0,0
13132,-3.72299e-12,1.17568e-37,-1.58764e-06,-3.85292e-12,1.17558e-37,-3.40903e-12,-1.13802e-13,0,0,-3.26402,-0.213634,0.204036,0,0,0,0,0,0,0,278,-41,278,-41,413,-48,281,74,0,-0.261799,3.14152,-1.5,3.94113e+12,0,0,2,0,0,0,0,0,0,0,0,16470,0,0,0,0,0
13180,-3.72299e-12,1.17568e-37,-1.58764e-06,-3.85292e-12,1.17558e-37,0,-1.13803e-13,0,0,-4.72694,-5.79192,0.0947081,0,0,0,0,0,0,0,738,60,738,60,817,31,743,140,0,-0.261799,3.14153,-1.5,3.94113e+12,0,0,2,0,0,0,0,0,0,0,0,9374,0,0,0,0,0
13198,-3.72299e-12,1.17568e-37,-1.58764e-06,-3.85292e-12,1.17558e-37,-3.40903e-12,-1.13803e-13,0,0,-4.72694,-5.79192,0.0947081,0,0,0,0,0,0,0,738,60,738,60,817,31,743,140,0,-0.261799,3.14153,-1.5,3.94113e+12,0,0,2,0,0,0,0,0,0,0,0,9374,0,0,0,0,0
13219,-3.72299e-12,1.17568e-37,-1.58764e-06,-3.85292e-12,1.17558e-37,0,-1.13804e-13,0,0,-3.26387,-0.20932,0.225643,0,0,0,0,0,0,0,277,-44,277,-44,413,-50,281,72,0,-0.261799,3.14153,-1.5,3.94113e+12,0,0,2,0,0,0,0,0,0,0,0,16592,0,0,0,0,0
13240,-3.72299e-12,1.17568e-37,-1.58764e-06,-3.85292e-12,1.17558e-37,-3.40903e-12,-1.13804e-13,0,0,-3.26387,-0.20932,0.225643,0,0,0,0,0,0,0,277,-44,277,-44,413,-50,281,72,0,-0.261799,3.14153,-1.5,3.94113e+12,0,0,2,0,0,0,0,0,0,0,0,16592,0,0,0,0,0
13257,-3.72299e-12,1.17568e-37,-1.58764e-06,-3.85292e-12,1.17558e-37,0,-1.13805e-13,0,0,-3.26387,-0.20932,0.225643,0,0,0,0,0,0,0,277,-44,277,-44,413,-50,281,72,0,-0.261799,3.14154,-1.5,3.94113e+12,0,0,2,0,0,0,0,0,0,0,0,16592,0,0,0,0,0
13278,-3.72299e-12,1.17568e-37,-1.58764e-06,-3.85292e-12,1.17558e-37,-3.40903e-12,-1.13805e-13,0,0,-4.67657,-5.66647,0.184863,0,0,0,0,0,0,0,731,56,731,56,814,19,737,131,0,-0.261799,3.14154,-1.5,3.94113e+12,0,0,2,0,0,0,0,0,0,0,0,9968,0,0,0,0,0
13298,-3.72299e-12,1.17568e-37,-1.58764e-06,-3.85292e-12,1.17558e-37,0,-1.13806e-13,0,0,-4.67657,-5.66647,0.184863,0,0,0,0,0,0,0,731,56,731,56,814,19,737,131,0,-0.261799,3.14154,-1.5,3.94113e+12,0,0,2,0,0,0,0,0,0,0,0,9968,0,0,0,0,0
13317,-3.72299e-12,1.17568e-37,-1.58764e-06,-3.85292e-12,1.17558e-37,-3.40903e-12,-1.13806e-13,0,0,-4.67657,-5.66647,0.184863,0,0,0,0,0,0,0,731,56,731,56,814,19,737,131,0,-0.261799,3.14154,-1.5,3.94113e+12,0,0,2,0,0,0,0,0,0,0,0,9968,0,0,0,0,0
13331,-3.72299e-12,1.17568e-37,-1.58764e-06,-3.85292e-12,1.17558e-37,0,-1.13807e-13,0,0,-4.67657,-5.66647,0.184863,0,0,0,0,0,0,0,731,56,731,56,814,19,737,131,0,-0.261799,3.14154,-1.5,3.94113e+12,0,0,2,0,0,0,0,0,0,0,0,9968,0,0,0,0,0
13367,-3.72299e-12,1.17568e-37,-1.58764e-06,-3.85292e-12,1.17558e-37,-3.40903e-12,-1.13808e-13,0,0,-4.67657,-5.66647,0.184863,0,0,0,0,0,0,0,731,56,731,56,814,19,737,131,0,-0.261799,3.14155,-1.5,3.94113e+12,0,0,2,0,0,0,0,0,0,0,0,9968,0,0,0,0,0
13384,-3.72299e-12,1.17568e-37,-1.58764e-06,-3.85292e-12,1.17558e-37,0,-1.13808e-13,0,0,-4.56194,-5.71606,0.284439,0,0,0,0,0,0,0,746,42,746,42,826,8,752,123,0,-0.261799,3.14155,-1.5,3.94113e+12,0,0,2,0,0,0,0,0,0,0,0,10810,0,0,0,0,0
13405,-3.72299e-12,1.17568e-37,-1.58764e-06,-3.85292e-12,1.17558e-37,-3.40903e-12,-1.13809e-13,0,0,-4.56194,-5.71606,0.284439,0,0,0,0,0,0,0,746,42,746,42,826,8,752,123,0,-0.261799,3.14155,-1.5,3.94113e+12,0,0,2,0,0,0,0,0,0,0,0,10810,0,0,0,0,0
13461,-3.72299e-12,1.17568e-37,-1.58764e-06,-3.85292e-12,1.17558e-37,0,-1.13809e-13,0,0,-4.4797,-5.68506,0.302029,0,0,0,0,0,0,0,752,36,752,36,836,2,757,121,0,-0.261799,3.14156,-1.5,3.94113e+12,0,0,2,0,0,0,0,0,0,0,0,10829,0,0,0,0,0
13485,-3.72299e-12,1.17568e-37,-1.58764e-06,-3.85292e-12,1.17558e-37,-3.40903e-12,-1.1381e-13,0,0,-4.4797,-5.68506,0.302029,0,0,0,0,0,0,0,752,36,752,36,836,2,757,121,0,-0.261799,3.14156,-1.5,3.94113e+12,0,0,2,0,0,0,0,0,0,0,0,10829,0,0,0,0,0
13502,-3.72299e-12,1.17568e-37,-1.58764e-06,-3.85292e-12,1.17558e-37,0,-1.1381e-13,0,0,-4.4797,-5.68506,0.302029,0,0,0,0,0,0,0,752,36,752,36,836,2,757,121,0,-0.261799,3.14156,-1.5,3.94113e+12,0,0,2,0,0,0,0,0,0,0,0,10829,0,0,0,0,0
13519,-3.72299e-12,1.17568e-37,-1.58764e-06,-3.85292e-12,1.17558e-37,-3.40903e-12,-1.13811e-13,0,0,-4.4797,-5.68506,0.302029,0,0,0,0,0,0,0,752,36,752,36,836,2,757,121,0,-0.261799,3.14156,-1.5,3.94113e+12,0,0,2,0,0,0,0,0,0,0,0,10829,0,0,0,0,0
13540,-3.72299e-12,1.17568e-37,-1.58764e-06,-3.85292e-12,1.17558e-37,0,-1.13811e-13,0,0,-4.4797,-5.68506,0.302029,0,0,0,0,0,0,0,752,36,752,36,836,2,757,121,0,-0.261799,3.14156,-1.5,3.94113e+12,0,0,2,0,0,0,0,0,0,0,0,10829,0,0,0,0,0
13560,-3.72299e-12,1.17568e-37,-1.58764e-06,-3.85292e-12,1.17558e-37,-3.40903e-12,-1.13812e-13,0,0,-4.4797,-5.68506,0.302029,0,0,0,0,0,0,0,752,36,752,36,836,2,757,121,0,-0.261799,3.14156,-1.5,3.94113e+12,0,0,2,0,0,0,0,0,0,0,0,10829,0,0,0,0,0
13581,-3.72299e-12,1.17568e-37,-1.58764e-06,-3.85292e-12,1.17558e-37,0,-1.13812e-13,0,0,-3.17322,-0.11211,0.390888,0,0,0,0,0,0,0,267,-72,267,-72,403,-80,268,50,0,-0.261799,3.14156,-1.5,3.94113e+12,0,0,2,0,0,0,0,0,0,0,0,17680,0,0,0,0,0
13597,-3.72299e-12,1.17568e-37,-1.58764e-06,-3.85292e-12,1.17558e-37,-3.40903e-12,-1.13813e-13,0,0,-3.17322,-0.11211,0.390888,0,0,0,0,0,0,0,267,-72,267,-72,403,-80,268,50,0,-0.261799,3.14156,-1.5,3.94113e+12,0,0,2,0,0,0,0,0,0,0,0,17680,0,0,0,0,0
13618,-3.72299e-12,1.17568e-37,-1.58764e-06,-3.85292e-12,1.17558e-37,0,-1.13813e-13,0,0,-4.72578,-5.65468,0.327407,0,0,0,0,0,0,0,727,43,727,43,806,11,733,121,0,-0.261799,3.14156,-1.5,3.94113e+12,0,0,2,0,0,0,0,0,0,0,0,9460,0,0,0,0,0
13638,-3.72299e-12,1.17568e-37,-1.58764e-06,-3.85292e-12,1.17558e-37,-3.40903e-12,-1.13814e-13,0,0,-4.63095,-5.5314,0.277956,0,0,0,0,0,0,0,727,43,727,43,806,11,728,123,0,-0.261799,3.14157,-1.5,3.94113e+12,0,0,2,0,0,0,0,0,0,0,0,9856,0,0,0,0,0
13659,-3.72299e-12,1.17568e-37,-1.58764e-06,-3.85292e-12,1.17558e-37,0,-1.13815e-13,0,0,-4.63095,-5.5314,0.277956,0,0,0,0,0,0,0,727,43,727,43,806,11,728,123,0,-0.261799,3.14157,-1.5,3.94113e+12,0,0,2,0,0,0,0,0,0,0,0,9856,0,0,0,0,0
13676,-3.72299e-12,1.17568e-37,-1.58764e-06,-3.85292e-12,1.17558e-37,-3.40903e-12,-1.13815e-13,0,0,-3.17658,-0.091796,0.332695,0,0,0,0,0,0,0,265,-65,265,-65,397,-70,264,48,0,-0.261799,3.14157,-1.5,3.94113e+12,0,0,2,0,0,0,0,0,0,0,0,17810,0,0,0,0,0
13696,-3.72299e-12,1.17568e-37,-1.58764e-06,-3.85292e-12,1.17558e-37,0,-1.13816e-13,0,0,-3.17658,-0.091796,0.332695,0,0,0,0,0,0,0,265,-65,265,-65,397,-70,264,48,0,-0.261799,3.14157,-1.5,3.94113e+12,0,0,2,0,0,0,0,0,0,0,0,17810,0,0,0,0,0
13710,-3.72299e-12,1.17568e-37,-1.58764e-06,-3.85292e-12,1.17558e-37,-3.40903e-12,-1.13816e-13,0,0,-3.22458,-0.0260747,0.344303,0,0,0,0,0,0,0,259,-62,259,-62,391,-70,258,58,0,-0.261799,3.14157,-1.5,3.94113e+12,0,0,2,0,0,0,0,0,0,0,0,17024,0,0,0,0,0
13728,-3.72299e-12,1.17568e-37,-1.58764e-06,-3.85292e-12,1.17558e-37,0,-1.13817e-13,0,0,-3.22458,-0.0260747,0.344303,0,0,0,0,0,0,0,259,-62,259,-62,391,-70,258,58,0,-0.261799,3.14157,-1.5,3.94113e+12,0,0,2,0,0,0,0,0,0,0,0,17024,0,0,0,0,0
13789,-3.72299e-12,1.17568e-37,-1.58764e-06,-3.85292e-12,1.17558e-37,-3.40903e-12,-1.13817e-13,0,0,-3.19975,0.0266014,0.319311,0,0,0,0,0,0,0,250,-63,250,-63,385,-64,251,52,0,-0.261799,3.14157,-1.5,3.94113e+12,0,0,2,0,0,0,0,0,0,0,0,16875,0,0,0,0,0
13811,-3.72299e-12,1.17568e-37,-1.58764e-06,-3.85292e-12,1.17558e-37,0,-1.13818e-13,0,0,-4.8949,-5.30223,0.418909,0,0,0,0,0,0,0,688,44,688,44,757,11,692,118,0,-0.261799,3.14157,-1.5,3.94113e+12,0,0,2,0,0,0,0,0,0,0,0,8988,0,0,0,0,0
13827,-3.72299e-12,1.17568e-37,-1.58764e-06,-3.85292e-12,1.17558e-37,-3.40903e-12,-1.13818e-13,0,0,-4.8949,-5.30223,0.418909,0,0,0,0,0,0,0,688,44,688,44,757,11,692,118,0,-0.261799,3.14157,-1.5,3.94113e+12,0,0,2,0,0,0,0,0,0,0,0,8988,0,0,0,0,0
13845,-3.72299e-12,1.17568e-37,-1.58764e-06,-3.85292e-12,1.17558e-37,0,-1.13819e-13,0,0,-3.06069,0.161283,0.197384,0,0,0,0,0,0,0,230,-62,230,-62,366,-67,236,55,0,-0.261799,3.14157,-1.5,3.94113e+12,0,0,2,0,0,0,0,0,0,0,0,20448,0,0,0,0,0
13869,-3.72299e-12,1.17568e-37,-1.58764e-06,-3.85292e-12,1.17558e-37,-3.40903e-12,-1.13819e-13,0,0,-3.06069,0.161283,0.197384,0,0,0,0,0,0,0,230,-62,230,-62,366,-67,236,55,0,-0.261799,3.14157,-1.5,3.94113e+12,0,0,2,0,0,0,0,0,0,0,0,20448,0,0,0,0,0
13887,-3.72299e-12,1.17568e-37,-1.58764e-06,-3.85292e-12,1.17558e-37,0,-1.1382e-13,0,0,-4.9367,-5.32821,0.373902,0,0,0,0,0,0,0,687,50,687,50,756,16,693,126,0,-0.261799,3.14157,-1.5,3.94113e+12,0,0,2,0,0,0,0,0,0,0,0,8800,0,0,0,0,0
13908,-3.72299e-12,1.17568e-37,-1.58764e-06,-3.85292e-12,1.17558e-37,-3.40903e-12,-1.13821e-13,0,0,-3.25138,0.119324,0.350304,0,0,0,0,0,0,0,239,-62,239,-62,373,-65,244,55,0,-0.261799,3.14157,-1.5,3.94113e+12,0,0,2,0,0,0,0,0,0,0,0,16482,0,0,0,0,0
13925,-3.72299e-12,1.17568e-37,-1.58764e-06,-3.85292e-12,1.17558e-37,0,-1.13821e-13,0,0,-3.25138,0.119324,0.350304,0,0,0,0,0,0,0,239,-62,239,-62,373,-65,244,55,0,-0.261799,3.14157,-1.5,3.94113e+12,0,0,2,0,0,0,0,0,0,0,0,16482,0,0,0,0,0
13950,-3.72299e-12,1.17568e-37,-1.58764e-06,-3.85292e-12,1.17558e-37,-3.40903e-12,-1.13822e-13,0,0,-3.26425,0.074108,0.328839,0,0,0,0,0,0,0,245,-56,245,-56,379,-60,247,56,0,-0.261799,3.14157,-1.5,3.94113e+12,0,0,2,0,0,0,0,0,0,0,0,16080,0,0,0,0,0
13967,-3.72299e-12,1.17568e-37,-1.58764e-06,-3.85292e-12,1.17558e-37,0,-1.13822e-13,0,0,-3.26425,0.074108,0.328839,0,0,0,0,0,0,0,245,-56,245,-56,379,-60,247,56,0,-0.261799,3.14157,-1.5,3.94113e+12,0,0,2,0,0,0,0,0,0,0,0,16080,0,0,0,0,0
13989,-3.72299e-12,1.17568e-37,-1.58764e-06,-3.85292e-12,1.17558e-37,-3.40903e-12,-1.13823e-13,0,0,-3.26425,0.074108,0.328839,0,0,0,0,0,0,0,245,-56,245,-56,379,-60,247,56,0,-0.261799,3.14157,-1.5,3.94113e+12,0,0,2,0,0,0,0,0,0,0,0,16080,0,0,0,0,0
14006,-3.72299e-12,1.17568e-37,-1.58764e-06,-3.85292e-12,1.17558e-37,0,-1.13823e-13,0,0,-4.92487,-5.54882,0.211971,0,0,0,0,0,0,0,702,60,702,60,775,29,712,136,0,-0.261799,3.14157,-1.5,3.94113e+12,0,0,2,0,0,0,0,0,0,0,0,8881,0,0,0,0,0
14030,-3.72299e-12,1.17568e-37,-1.58764e-06,-3.85292e-12,1.17558e-37,-3.40903e-12,-1.13824e-13,0,0,-4.92487,-5.54882,0.211971,0,0,0,0,0,0,0,702,60,702,60,775,29,712,136,0,-0.261799,3.14157,-1.5,3.94113e+12,0,0,2,0,0,0,0,0,0,0,0,8881,0,0,0,0,0
14047,-3.72299e-12,1.17568e-37,-1.58764e-06,-3.85292e-12,1.17558e-37,0,-1.13824e-13,0,0,-3.13878,0.0375695,0.140975,0,0,0,0,0,0,0,248,-52,248,-52,384,-52,253,69,0,-0.261799,3.14158,-1.5,3.94113e+12,0,0,2,0,0,0,0,0,0,0,0,18904,0,0,0,0,0
14089,-3.72299e-12,1.17568e-37,-1.58764e-06,-3.85292e-12,1.17558e-37,-3.40903e-12,-1.13825e-13,0,0,-3.2581,0.0431927,0.263999,0,0,0,0,0,0,0,248,-51,248,-51,383,-52,251,64,0,-0.261799,3.14158,-1.5,3.94113e+12,0,0,2,0,0,0,0,0,0,0,0,16065,0,0,0,0,0
14106,-3.72299e-12,1.17568e-37,-1.58764e-06,-3.85292e-12,1.17558e-37,0,-1.13825e-13,0,0,-3.24075,0.0354756,0.216394,0,0,0,0,0,0,0,248,-49,248,-49,384,-48,253,67,0,-0.261799,3.14158,-1.5,3.94113e+12,0,0,2,0,0,0,0,0,0,0,0,16864,0,0,0,0,0
14142,-3.72299e-12,1.17568e-37,-1.58764e-06,-3.85292e-12,1.17558e-37,-3.40903e-12,-1.13826e-13,0,0,-3.15375,0.0348001,0.114246,0,0,0,0,0,0,0,248,-45,248,-45,383,-48,255,92,0,-0.261799,3.14158,-1.5,3.94113e+12,0,0,2,0,0,0,0,0,0,0,0,18900,0,0,0,0,0
14159,-3.72299e-12,1.17568e-37,-1.58764e-06,-3.85292e-12,1.17558e-37,0,-1.13826e-13,0,0,-3.15375,0.0348001,0.114246,0,0,0,0,0,0,0,248,-45,248,-45,383,-48,255,92,0,-0.261799,3.14158,-1.5,3.94113e+12,0,0,2,0,0,0,0,0,0,0,0,18900,0,0,0,0,0
14180,-3.72299e-12,1.17568e-37,-1.58764e-06,-3.85292e-12,1.17558e-37,-3.40903e-12,-1.13827e-13,0,0,-3.18628,0.0239324,0.153291,0,0,0,0,0,0,0,248,-44,248,-44,384,-48,254,75,0,-0.261799,3.14158,-1.5,3.94113e+12,0,0,2,0,0,0,0,0,0,0,0,17375,0,0,0,0,0
14201,-3.72299e-12,1.17568e-37,-1.58764e-06,-3.85292e-12,1.17558e-37,0,-1.13828e-13,0,0,-3.18628,0.0239324,0.153291,0,0,0,0,0,0,0,248,-44,248,-44,384,-48,254,75,0,-0.261799,3.14158,-1.5,3.94113e+12,0,0,2,0,0,0,0,0,0,0,0,17375,0,0,0,0,0
14237,-3.72299e-12,1.17568e-37,-1.58764e-06,-3.85292e-12,1.17558e-37,-3.40903e-12,-1.13828e-13,0,0,-3.21807,0.0252009,0.178346,0,0,0,0,0,0,0,249,-42,249,-42,384,-48,253,75,0,-0.261799,3.14158,-1.5,3.94113e+12,0,0,2,0,0,0,0,0,0,0,0,16974,0,0,0,0,0
14258,-3.72299e-12,1.17568e-37,-1.58764e-06,-3.85292e-12,1.17558e-37,0,-1.13829e-13,0,0,-3.21807,0.0252009,0.178346,0,0,0,0,0,0,0,249,-42,249,-42,384,-48,253,75,0,-0.261799,3.14158,-1.5,3.94113e+12,0,0,2,0,0,0,0,0,0,0,0,16974,0,0,0,0,0
14296,-3.72299e-12,1.17568e-37,-1.58764e-06,-3.85292e-12,1.17558e-37,-3.40903e-12,-1.13829e-13,0,0,-3.21807,0.0252009,0.178346,0,0,0,0,0,0,0,249,-42,249,-42,384,-48,253,75,0,-0.261799,3.14158,-1.5,3.94113e+12,0,0,2,0,0,0,0,0,0,0,0,16974,0,0,0,0,0
14320,-3.72299e-12,1.17568e-37,-1.58764e-06,-3.85292e-12,1.17558e-37,0,-1.1383e-13,0,0,-3.13186,0.0250581,0.0797854,0,0,0,0,0,0,0,251,-40,251,-40,383,-47,253,95,0,-0.261799,3.14158,-1.5,3.94113e+12,0,0,2,0,0,0,0,0,0,0,0,19312,0,0,0,0,0
14338,-3.72299e-12,1.17568e-37,-1.58764e-06,-3.85292e-12,1.17558e-37,-3.40903e-12,-1.1383e-13,0,0,-3.13186,0.0250581,0.0797854,0,0,0,0,0,0,0,251,-40,251,-40,383,-47,253,95,0,-0.261799,3.14158,-1.5,3.94113e+12,0,0,2,0,0,0,0,0,0,0,0,19312,0,0,0,0,0
14390,-3.72299e-12,1.17568e-37,-1.58764e-06,-3.85292e-12,1.17558e-37,0,-1.13831e-13,0,0,-3.13186,0.0250581,0.0797854,0,0,0,0,0,0,0,251,-40,251,-40,383,-47,253,95,0,-0.261799,3.14158,-1.5,3.94113e+12,0,0,2,0,0,0,0,0,0,0,0,19312,0,0,0,0,0
14407,-3.72299e-12,1.17568e-37,-1.58764e-06,-3.85292e-12,1.17558e-37,-3.40903e-12,-1.13831e-13,0,0,-3.23968,0.025166,0.188278,0,0,0,0,0,0,0,249,-42,249,-42,384,-47,254,75,0,-0.261799,3.14158,-1.5,3.94113e+12,0,0,2,0,0,0,0,0,0,0,0,16714,0,0,0,0,0
14431,-3.72299e-12,1.17568e-37,-1.58764e-06,-3.85292e-12,1.17558e-37,0,-1.13832e-13,0,0,-3.23968,0.025166,0.188278,0,0,0,0,0,0,0,249,-42,249,-42,384,-47,254,75,0,-0.261799,3.14158,-1.5,3.94113e+12,0,0,2,0,0,0,0,0,0,0,0,16714,0,0,0,0,0
14448,-3.72299e-12,1.17568e-37,-1.58764e-06,-3.85292e-12,1.17558e-37,-3.40903e-12,-1.13832e-13,0,0,-3.12484,0.0260988,0.0818151,0,0,0,0,0,0,0,249,-42,249,-42,384,-48,253,75,0,-0.261799,3.14158,-1.5,3.94113e+12,0,0,2,0,0,0,0,0,0,0,0,19040,0,0,0,0,0
14469,-3.72299e-12,1.17568e-37,-1.58764e-06,-3.85292e-12,1.17558e-37,0,-1.13833e-13,0,0,-3.12484,0.0260988,0.0818151,0,0,0,0,0,0,0,249,-42,249,-42,384,-48,253,75,0,-0.261799,3.14158,-1.5,3.94113e+12,0,0,2,0,0,0,0,0,0,0,0,19040,0,0,0,0,0
14486,-3.72299e-12,1.17568e-37,-1.58764e-06,-3.85292e-12,1.17558e-37,-3.40903e-12,-1.13834e-13,0,0,-4.75212,-5.35068,0.114923,0,0,0,0,0,0,0,702,60,702,60,775,31,707,141,0,-0.261799,3.14158,-1.5,3.94113e+12,0,0,2,0,0,0,0,0,0,0,0,9570,0,0,0,0,0
14510,-3.72299e-12,1.17568e-37,-1.58764e-06,-3.85292e-12,1.17558e-37,0,-1.13834e-13,0,0,-3.07443,0.0207044,0.0366503,0,0,0,0,0,0,0,251,-42,251,-42,384,-50,253,92,0,-0.261799,3.14158,-1.5,3.94113e+12,0,0,2,0,0,0,0,0,0,0,0,19312,0,0,0,0,0
14524,-3.72299e-12,1.17568e-37,-1.58764e-06,-3.85292e-12,1.17558e-37,-3.40903e-12,-1.13835e-13,0,0,-3.07443,0.0207044,0.0366503,0,0,0,0,0,0,0,251,-42,251,-42,384,-50,253,92,0,-0.261799,3.14158,-1.5,3.94113e+12,0,0,2,0,0,0,0,0,0,0,0,19312,0,0,0,0,0
14560,-3.72299e-12,1.17568e-37,-1.58764e-06,-3.85292e-12,1.17558e-37,0,-1.13835e-13,0,0,-4.76991,-5.4189,0.149304,0,0,0,0,0,0,0,707,58,707,58,780,28,711,139,0,-0.261799,3.14158,-1.5,3.94113e+12,0,0,2,0,0,0,0,0,0,0,0,9213,0,0,0,0,0
14580,-3.72299e-12,1.17568e-37,-1.58764e-06,-3.85292e-12,1.17558e-37,-3.40903e-12,-1.13836e-13,0,0,-3.21105,0.000349488,0.199819,0,0,0,0,0,0,0,251,-45,251,-45,386,-52,257,67,0,-0.261799,3.14158,-1.5,3.94113e+12,0,0,2,0,0,0,0,0,0,0,0,17653,0,0,0,0,0
14601,-3.72299e-12,1.17568e-37,-1.58764e-06,-3.85292e-12,1.17558e-37,0,-1.13836e-13,0,0,-3.21105,0.000349488,0.199819,0,0,0,0,0,0,0,251,-45,251,-45,386,-52,257,67,0,-0.261799,3.14158,-1.5,3.94113e+12,0,0,2,0,0,0,0,0,0,0,0,17653,0,0,0,0,0
14618,-3.72299e-12,1.17568e-37,-1.58764e-06,-3.85292e-12,1.17558e-37,-3.40903e-12,-1.13837e-13,0,0,-3.15951,-0.0214833,0.140692,0,0,0,0,0,0,0,254,-47,254,-47,390,-52,261,73,0,-0.261799,3.14158,-1.5,3.94113e+12,0,0,2,0,0,0,0,0,0,0,0,18496,0,0,0,0,0
14638,-3.72299e-12,1.17568e-37,-1.58764e-06,-3.85292e-12,1.17558e-37,0,-1.13837e-13,0,0,-3.27703,-0.0455301,0.276988,0,0,0,0,0,0,0,260,-50,260,-50,393,-54,261,64,0,-0.261799,3.14158,-1.5,3.94113e+12,0,0,2,0,0,0,0,0,0,0,0,16093,0,0,0,0,0
14660,-3.72299e-12,1.17568e-37,-1.58764e-06,-3.85292e-12,1.17558e-37,-3.40903e-12,-1.13838e-13,0,0,-3.27703,-0.0455301,0.276988,0,0,0,0,0,0,0,260,-50,260,-50,393,-54,261,64,0,-0.261799,3.14158,-1.5,3.94113e+12,0,0,2,0,0,0,0,0,0,0,0,16093,0,0,0,0,0
14677,-3.72299e-12,1.17568e-37,-1.58764e-06,-3.85292e-12,1.17558e-37,0,-1.13838e-13,0,0,-3.27703,-0.0455301,0.276988,0,0,0,0,0,0,0,260,-50,260,-50,393,-54,261,64,0,-0.261799,3.14158,-1.5,3.94113e+12,0,0,2,0,0,0,0,0,0,0,0,16093,0,0,0,0,0
14698,-3.72299e-12,1.17568e-37,-1.58764e-06,-3.85292e-12,1.17558e-37,-3.40903e-12,-1.13839e-13,0,0,-3.27703,-0.0455301,0.276988,0,0,0,0,0,0,0,260,-50,260,-50,393,-54,261,64,0,-0.261799,3.14158,-1.5,3.94113e+12,0,0,2,0,0,0,0,0,0,0,0,16093,0,0,0,0,0
14718,-3.72299e-12,1.17568e-37,-1.58764e-06,-3.85292e-12,1.17558e-37,0,-1.13839e-13,0,0,-3.27165,-0.0749726,0.262872,0,0,0,0,0,0,0,265,-48,265,-48,397,-54,263,68,0,-0.261799,3.14158,-1.5,3.94113e+12,0,0,2,0,0,0,0,0,0,0,0,16348,0,0,0,0,0
14740,-3.72299e-12,1.17568e-37,-1.58764e-06,-3.85292e-12,1.17558e-37,-3.40903e-12,-1.1384e-13,0,0,-3.2701,-0.107243,0.257337,0,0,0,0,0,0,0,267,-48,267,-48,399,-54,269,70,0,-0.261799,3.14158,-1.5,3.94113e+12,0,0,2,0,0,0,0,0,0,0,0,16368,0,0,0,0,0
14757,-3.72299e-12,1.17568e-37,-1.58764e-06,-3.85292e-12,1.17558e-37,0,-1.13841e-13,0,0,-3.2701,-0.107243,0.257337,0,0,0,0,0,0,0,267,-48,267,-48,399,-54,269,70,0,-0.261799,3.14158,-1.5,3.94113e+12,0,0,2,0,0,0,0,0,0,0,0,16368,0,0,0,0,0
14778,-3.72299e-12,1.17568e-37,-1.58764e-06,-3.85292e-12,1.17558e-37,-3.40903e-12,-1.13841e-13,0,0,-4.78805,-5.7024,0.146246,0,0,0,0,0,0,0,724,60,724,60,804,30,729,138,0,-0.261799,3.14159,-1.5,3.94113e+12,0,0,2,0,0,0,0,0,0,0,0,9720,0,0,0,0,0
14798,-3.72299e-12,1.17568e-37,-1.58764e-06,-3.85292e-12,1.17558e-37,0,-1.13842e-13,0,0,-4.78805,-5.7024,0.146246,0,0,0,0,0,0,0,724,60,724,60,804,30,729,138,0,-0.261799,3.14159,-1.5,3.94113e+12,0,0,2,0,0,0,0,0,0,0,0,9720,0,0,0,0,0
14820,-3.72299e-12,1.17568e-37,-1.58764e-06,-3.85292e-12,1.17558e-37,-3.40903e-12,-1.13842e-13,0,0,-4.77507,-5.69077,0.182581,0,0,0,0,0,0,0,724,59,724,59,805,24,732,134,0,-0.261799,3.14159,-1.5,3.94113e+12,0,0,2,0,0,0,0,0,0,0,0,9570,0,0,0,0,0
14837,-3.72299e-12,1.17568e-37,-1.58764e-06,-3.85292e-12,1.17558e-37,0,-1.13843e-13,0,0,-4.77507,-5.69077,0.182581,0,0,0,0,0,0,0,724,59,724,59,805,24,732,134,0,-0.261799,3.14159,-1.5,3.94113e+12,0,0,2,0,0,0,0,0,0,0,0,9570,0,0,0,0,0
14856,-3.72299e-12,1.17568e-37,-1.58764e-06,-3.85292e-12,1.17558e-37,-3.40903e-12,-1.13843e-13,0,0,-4.65728,-5.54996,0.135489,0,0,0,0,0,0,0,724,57,724,57,802,25,729,136,0,-0.261799,3.14159,-1.5,3.94113e+12,0,0,2,0,0,0,0,0,0,0,0,10323,0,0,0,0,0
14870,-3.72299e-12,1.17568e-37,-1.58764e-06,-3.85292e-12,1.17558e-37,0,-1.13844e-13,0,0,-4.65728,-5.54996,0.135489,0,0,0,0,0,0,0,724,57,724,57,802,25,729,136,0,-0.261799,3.14159,-1.5,3.94113e+12,0,0,2,0,0,0,0,0,0,0,0,10323,0,0,0,0,0
14888,-3.72299e-12,1.17568e-37,-1.58764e-06,-3.85292e-12,1.17558e-37,-3.40903e-12,-1.13844e-13,0,0,-3.2267,-0.107744,0.234272,0,0,0,0,0,0,0,265,-48,265,-48,402,-55,269,70,0,-0.261799,3.14159,-1.5,3.94113e+12,0,0,2,0,0,0,0,0,0,0,0,17125,0,0,0,0,0
14954,-3.72299e-12,1.17568e-37,-1.58764e-06,-3.85292e-12,1.17558e-37,0,-1.13845e-13,0,0,-4.81886,-5.66941,0.146234,0,0,0,0,0,0,0,719,61,719,61,795,31,727,138,0,-0.261799,3.14159,-1.5,3.94113e+12,0,0,2,0,0,0,0,0,0,0,0,9523,0,0,0,0,0
14975,-3.72299e-12,1.17568e-37,-1.58764e-06,-3.85292e-12,1.17558e-37,-3.40903e-12,-1.13845e-13,0,0,-3.26335,-0.105654,0.229744,0,0,0,0,0,0,0,265,-46,265,-46,401,-49,269,71,0,-0.261799,3.14159,-1.5,3.94113e+12,0,0,2,0,0,0,0,0,0,0,0,16320,0,0,0,0,0
14996,-3.72299e-12,1.17568e-37,-1.58764e-06,-3.85292e-12,1.17558e-37,0,-1.13846e-13,0,0,-3.26335,-0.105654,0.229744,0,0,0,0,0,0,0,265,-46,265,-46,401,-49,269,71,0,-0.261799,3.14159,-1.5,3.94113e+12,0,0,2,0,0,0,0,0,0,0,0,16320,0,0,0,0,0
15032,-3.72299e-12,1.17568e-37,-1.58764e-06,-3.85292e-12,1.17558e-37,-3.40903e-12,-1.13847e-13,0,0,-3.2613,-0.1075,0.223914,0,0,0,0,0,0,0,265,-46,265,-46,401,-49,270,73,0,-0.261799,3.14159,-1.5,3.94113e+12,0,0,2,0,0,0,0,0,0,0,0,16592,0,0,0,0,0
15053,-3.72299e-12,1.17568e-37,-1.58764e-06,-3.85292e-12,1.17558e-37,0,-1.13847e-13,0,0,-3.23752,-0.108749,0.219182,0,0,0,0,0,0,0,265,-46,265,-46,402,-51,269,71,0,-0.261799,3.14159,-1.5,3.94113e+12,0,0,2,0,0,0,0,0,0,0,0,16714,0,0,0,0,0
15073,-3.72299e-12,1.17568e-37,-1.58764e-06,-3.85292e-12,1.17558e-37,-3.40903e-12,-1.13848e-13,0,0,-3.24814,-0.113003,0.218531,0,0,0,0,0,0,0,266,-45,266,-45,402,-51,270,73,0,-0.261799,3.14159,-1.5,3.94113e+12,0,0,2,0,0,0,0,0,0,0,0,16864,0,0,0,0,0
15094,-3.72299e-12,1.17568e-37,-1.58764e-06,-3.85292e-12,1.17558e-37,0,-1.13848e-13,0,0,-3.24814,-0.113003,0.218531,0,0,0,0,0,0,0,266,-45,266,-45,402,-51,270,73,0,-0.261799,3.14159,-1.5,3.94113e+12,0,0,2,0,0,0,0,0,0,0,0,16864,0,0,0,0,0
