timestamp,A_x,A_y,A_z,P,Q,R,Phi,Theta,Psi,poseX,poseY,poseZ,state_X,state_Y,state_Z,state_VzB,state_Bx,state_By,state_Bz,p1_x,p1_y,p2_x,p2_y,p3_x,p3_y,p4_x,p4_y,roll,pitch,yaw,alt,targetHeading,highLevelState,lowLevelState,gateNumber,filtered_x,filtered_y,x_OT,y_OT,vx_OT,vy_OT,filtered_vx,filtered_vygateArearansac_corr_x,ransac_corr_y,ransac_corr_vx,ransac_corr_vy,detectionTimeStamppTermX,dTermX,pTermY,dTermY,vxcmd,vycmd
7140,0,0,0,0,0,0,0,0,0,0,0,0,0,0,0,0,0,0,0,0,0,0,0,0,0,0,0,0,-0.375,0.0141372,-1.5,3.94113e+12,0,0,2,0,0,0,0,0,0,0,0,1.9603e-19,0,0,0,0,0,0,0,0,0,2.5,0
7683,-3.3423e-12,6.11028e-38,-1.59603e-06,-3.40794e-12,6.10981e-38,0,-1.13703e-13,0,0,0,0,0,0,0,0,0,0,0,0,0,0,0,0,0,0,0,0,0,-0.375,0.865508,-1.5,3.94113e+12,0,0,2,0,0,0,0,0,0,0,0,1.9603e-19,0,0,0,0,0,0,0,0,0,2.5,0
7698,-3.3423e-12,6.11028e-38,-1.59603e-06,-3.40794e-12,6.10981e-38,0,-1.13703e-13,0,0,0,0,0,0,0,0,0,0,0,0,0,0,0,0,0,0,0,0,0,-0.375,0.890641,-1.5,3.94113e+12,0,0,2,0,0,0,0,0,0,0,0,1.9603e-19,0,0,0,0,0,0,0,0,0,2.5,0
7714,-3.3423e-12,6.11028e-38,-1.59603e-06,-3.40794e-12,6.10981e-38,0,-1.13704e-13,0,0,0,0,0,0,0,0,0,0,0,0,0,0,0,0,0,0,0,0,0,-0.375,0.914203,-1.5,3.94113e+12,0,0,2,0,0,0,0,0,0,0,0,1.9603e-19,0,0,0,0,0,0,0,0,0,2.5,0
7729,-3.3423e-12,6.11028e-38,-1.59603e-06,-3.40794e-12,6.10981e-38,0,-1.13704e-13,0,0,0,0,0,0,0,0,0,0,0,0,0,0,0,0,0,0,0,0,0,-0.375,0.939335,-1.5,3.94113e+12,0,0,2,0,0,0,0,0,0,0,0,1.9603e-19,0,0,0,0,0,0,0,0,0,2.5,0
7745,-3.3423e-12,6.11028e-38,-1.59603e-06,-3.40794e-12,6.10981e-38,0,-1.13705e-13,0,0,0,0,0,0,0,0,0,0,0,0,0,0,0,0,0,0,0,0,0,-0.375,0.964468,-1.5,3.94113e+12,0,0,2,0,0,0,0,0,0,0,0,1.9603e-19,0,0,0,0,0,0,0,0,0,2.5,0
7760,-3.3423e-12,6.11028e-38,-1.59603e-06,-3.40794e-12,6.10981e-38,0,-1.13705e-13,0,0,0,0,0,0,0,0,0,0,0,0,0,0,0,0,0,0,0,0,0,-0.375,0.98803,-1.5,3.94113e+12,0,0,2,0,0,0,0,0,0,0,0,1.9603e-19,0,0,0,0,0,0,0,0,0,2.5,0
7776,-3.3423e-12,6.11028e-38,-1.59603e-06,-3.40794e-12,6.10981e-38,0,-1.13706e-13,0,0,0,0,0,0,0,0,0,0,0,0,0,0,0,0,0,0,0,0,0,-0.375,1.01316,-1.5,3.94113e+12,0,0,2,0,0,0,0,0,0,0,0,1.9603e-19,0,0,0,0,0,0,0,0,0,2.5,0
7792,-3.3423e-12,6.11028e-38,-1.59603e-06,-3.40794e-12,6.10981e-38,0,-1.13706e-13,0,0,0,0,0,0,0,0,0,0,0,0,0,0,0,0,0,0,0,0,0,-0.375,1.0383,-1.5,3.94113e+12,0,0,2,0,0,0,0,0,0,0,0,1.9603e-19,0,0,0,0,0,0,0,0,0,2.5,0
7819,-3.3423e-12,6.11028e-38,-1.59603e-06,-3.40794e-12,6.10981e-38,0,-1.13707e-13,0,0,0,0,0,0,0,0,0,0,0,0,0,0,0,0,0,0,0,0,0,-0.375,1.08071,-1.5,3.94113e+12,0,0,2,0,0,0,0,0,0,0,0,1.9603e-19,0,0,0,0,0,0,0,0,0,2.5,0
7835,-3.3423e-12,6.11028e-38,-1.59603e-06,-3.40794e-12,6.10981e-38,0,-1.13708e-13,0,0,0,0,0,0,0,0,0,0,0,0,0,0,0,0,0,0,0,0,0,-0.375,1.10584,-1.5,3.94113e+12,0,0,2,0,0,0,0,0,0,0,0,1.9603e-19,0,0,0,0,0,0,0,0,0,2.5,0
7852,-3.3423e-12,6.11028e-38,-1.59603e-06,-3.40794e-12,6.10981e-38,0,-1.13708e-13,0,0,0,0,0,0,0,0,0,0,0,0,0,0,0,0,0,0,0,0,0,-0.375,1.13254,-1.5,3.94113e+12,0,0,2,0,0,0,0,0,0,0,0,1.9603e-19,0,0,0,0,0,0,0,0,0,2.5,0
7867,-3.3423e-12,6.11028e-38,-1.59603e-06,-3.40794e-12,6.10981e-38,0,-1.13709e-13,0,0,0,0,0,0,0,0,0,0,0,0,0,0,0,0,0,0,0,0,0,-0.375,1.15611,-1.5,3.94113e+12,0,0,2,0,0,0,0,0,0,0,0,1.9603e-19,0,0,0,0,0,0,0,0,0,2.5,0
7883,-3.3423e-12,6.11028e-38,-1.59603e-06,-3.40794e-12,6.10981e-38,0,-1.13709e-13,0,0,0,0,0,0,0,0,0,0,0,0,0,0,0,0,0,0,0,0,0,-0.375,1.18124,-1.5,3.94113e+12,0,0,2,0,0,0,0,0,0,0,0,1.9603e-19,0,0,0,0,0,0,0,0,0,2.5,0
7959,-3.3423e-12,6.11028e-38,-1.59603e-06,-3.40794e-12,6.10981e-38,0,-1.1371e-13,0,0,0,0,0,0,0,0,0,0,0,0,0,0,0,0,0,0,0,0,0,-0.375,1.30062,-1.5,3.94113e+12,0,0,2,0,0,0,0,0,0,0,0,1.9603e-19,0,0,0,0,0,0,0,0,0,2.5,0
7976,-3.3423e-12,6.11028e-38,-1.59603e-06,-3.40794e-12,6.10981e-38,0,-1.1371e-13,0,0,0,0,0,0,0,0,0,0,0,0,0,0,0,0,0,0,0,0,0,-0.375,1.32732,-1.5,3.94113e+12,0,0,2,0,0,0,0,0,0,0,0,1.9603e-19,0,0,0,0,0,0,0,0,0,2.5,0
7993,-3.3423e-12,6.11028e-38,-1.59603e-06,-3.40794e-12,6.10981e-38,0,-1.13711e-13,0,0,0,0,0,0,0,0,0,0,0,0,0,0,0,0,0,0,0,0,0,-0.375,1.35246,-1.5,3.94113e+12,0,0,2,0,0,0,0,0,0,0,0,1.9603e-19,0,0,0,0,0,0,0,0,0,2.5,0
8009,-3.3423e-12,6.11028e-38,-1.59603e-06,-3.40794e-12,6.10981e-38,0,-1.13711e-13,0,0,0,0,0,0,0,0,0,0,0,0,0,0,0,0,0,0,0,0,0,-0.375,1.37916,-1.5,3.94113e+12,0,0,2,0,0,0,0,0,0,0,0,1.9603e-19,0,0,0,0,0,0,0,0,0,2.5,0
8024,-3.3423e-12,6.11028e-38,-1.59603e-06,-3.40794e-12,6.10981e-38,0,-1.13712e-13,0,0,0,0,0,0,0,0,0,0,0,0,0,0,0,0,0,0,0,0,0,-0.375,1.40272,-1.5,3.94113e+12,0,0,2,0,0,0,0,0,0,0,0,1.9603e-19,0,0,0,0,0,0,0,0,0,2.5,0
8039,-3.3423e-12,6.11028e-38,-1.59603e-06,-3.40794e-12,6.10981e-38,0,-1.13712e-13,0,0,0,0,0,0,0,0,0,0,0,0,0,0,0,0,0,0,0,0,0,-0.375,1.42471,-1.5,3.94113e+12,0,0,2,0,0,0,0,0,0,0,0,1.9603e-19,0,0,0,0,0,0,0,0,0,2.5,0
8052,-3.3423e-12,6.11028e-38,-1.59603e-06,-3.40794e-12,6.10981e-38,0,-1.13713e-13,0,0,0,0,0,0,0,0,0,0,0,0,0,0,0,0,0,0,0,0,0,-0.375,1.44513,-1.5,3.94113e+12,0,0,2,0,0,0,0,0,0,0,0,1.9603e-19,0,0,0,0,0,0,0,0,0,2.5,0
8068,-3.3423e-12,6.11028e-38,-1.59603e-06,-3.40794e-12,6.10981e-38,0,-1.13714e-13,0,0,0,0,0,0,0,0,0,0,0,0,0,0,0,0,0,0,0,0,0,-0.375,1.47027,-1.5,3.94113e+12,0,0,2,0,0,0,0,0,0,0,0,1.9603e-19,0,0,0,0,0,0,0,0,0,2.5,0
8084,-3.3423e-12,6.11028e-38,-1.59603e-06,-3.40794e-12,6.10981e-38,0,-1.13714e-13,0,0,0,0,0,0,0,0,0,0,0,0,0,0,0,0,0,0,0,0,0,-0.375,1.4954,-1.5,3.94113e+12,0,0,2,0,0,0,0,0,0,0,0,1.9603e-19,0,0,0,0,0,0,0,0,0,2.5,0
8101,-3.3423e-12,6.11028e-38,-1.59603e-06,-3.40794e-12,6.10981e-38,0,-1.13715e-13,0,0,0,0,0,0,0,0,0,0,0,0,0,0,0,0,0,0,0,0,0,-0.375,1.5221,-1.5,3.94113e+12,0,0,2,0,0,0,0,0,0,0,0,1.9603e-19,0,0,0,0,0,0,0,0,0,2.5,0
8117,-3.3423e-12,6.11028e-38,-1.59603e-06,-3.40794e-12,6.10981e-38,0,-1.13715e-13,0,0,0,0,0,0,0,0,0,0,0,0,0,0,0,0,0,0,0,0,0,-0.375,1.54724,-1.5,3.94113e+12,0,0,2,0,0,0,0,0,0,0,0,1.9603e-19,0,0,0,0,0,0,0,0,0,2.5,0
8133,-3.34232e-12,6.10136e-38,6.11054e-38,-3.40794e-12,6.10981e-38,0,-1.13716e-13,0,0,0,0,0,0,0,0,0,0,0,0,0,0,0,0,0,0,0,0,0,-0.375,1.57237,-1.5,3.94113e+12,0,0,2,0,0,0,0,0,0,0,0,1.9603e-19,0,0,0,0,0,0,0,0,0,2.5,0
8149,-3.3423e-12,6.11028e-38,-1.59603e-06,-3.40794e-12,6.10981e-38,0,-1.13716e-13,0,0,0,0,0,0,0,0,0,0,0,0,0,0,0,0,0,0,0,0,0,-0.375,1.59593,-1.5,3.94113e+12,0,0,2,0,0,0,0,0,0,0,0,1.9603e-19,0,0,0,0,0,0,0,0,0,2.5,0
8165,-3.3423e-12,6.11028e-38,-1.59603e-06,-3.40794e-12,6.10981e-38,0,-1.13717e-13,0,0,0,0,0,0,0,0,0,0,0,0,0,0,0,0,0,0,0,0,0,-0.375,1.62106,-1.5,3.94113e+12,0,0,2,0,0,0,0,0,0,0,0,1.9603e-19,0,0,0,0,0,0,0,0,0,2.5,0
8182,-3.3423e-12,6.11028e-38,-1.59603e-06,-3.40794e-12,6.10981e-38,0,-1.13717e-13,0,0,0,0,0,0,0,0,0,0,0,0,0,0,0,0,0,0,0,0,0,-0.375,1.64777,-1.5,3.94113e+12,0,0,2,0,0,0,0,0,0,0,0,1.9603e-19,0,0,0,0,0,0,0,0,0,2.5,0
8198,-3.3423e-12,6.11028e-38,-1.59603e-06,-3.40794e-12,6.10981e-38,0,-1.13718e-13,0,0,0,0,0,0,0,0,0,0,0,0,0,0,0,0,0,0,0,0,0,-0.375,1.67133,-1.5,3.94113e+12,0,0,2,0,0,0,0,0,0,0,0,1.9603e-19,0,0,0,0,0,0,0,0,0,2.5,0
8214,-3.3423e-12,6.11028e-38,-1.59603e-06,-3.40794e-12,6.10981e-38,0,-1.13718e-13,0,0,0,0,0,0,0,0,0,0,0,0,0,0,0,0,0,0,0,0,0,-0.375,1.69803,-1.5,3.94113e+12,0,0,2,0,0,0,0,0,0,0,0,1.9603e-19,0,0,0,0,0,0,0,0,0,2.5,0
8230,-3.3423e-12,6.11028e-38,-1.59603e-06,-3.40794e-12,6.10981e-38,0,-1.13719e-13,0,0,0,0,0,0,0,0,0,0,0,0,0,0,0,0,0,0,0,0,0,-0.375,1.72159,-1.5,3.94113e+12,0,0,2,0,0,0,0,0,0,0,0,1.9603e-19,0,0,0,0,0,0,0,0,0,2.5,0
8246,-3.3423e-12,6.11028e-38,-1.59603e-06,-3.40794e-12,6.10981e-38,0,-1.13719e-13,0,0,0,0,0,0,0,0,0,0,0,0,0,0,0,0,0,0,0,0,0,-0.375,1.7483,-1.5,3.94113e+12,0,0,2,0,0,0,0,0,0,0,0,1.9603e-19,0,0,0,0,0,0,0,0,0,2.5,0
8262,-3.3423e-12,6.11028e-38,-1.59603e-06,-3.40794e-12,6.10981e-38,0,-1.1372e-13,0,0,0,0,0,0,0,0,0,0,0,0,0,0,0,0,0,0,0,0,0,-0.375,1.77186,-1.5,3.94113e+12,0,0,2,0,0,0,0,0,0,0,0,1.9603e-19,0,0,0,0,0,0,0,0,0,2.5,0
8278,-3.3423e-12,6.11028e-38,-1.59603e-06,-3.40794e-12,6.10981e-38,0,-1.13721e-13,0,0,0,0,0,0,0,0,0,0,0,0,0,0,0,0,0,0,0,0,0,-0.375,1.79856,-1.5,3.94113e+12,0,0,2,0,0,0,0,0,0,0,0,1.9603e-19,0,0,0,0,0,0,0,0,0,2.5,0
8325,-3.3423e-12,6.11028e-38,-1.59603e-06,-3.40794e-12,6.10981e-38,0,-1.13721e-13,0,0,0,0,0,0,0,0,0,0,0,0,0,0,0,0,0,0,0,0,0,-0.375,1.87239,-1.5,3.94113e+12,0,0,2,0,0,0,0,0,0,0,0,1.9603e-19,0,0,0,0,0,0,0,0,0,2.5,0
8341,-3.3423e-12,6.11028e-38,-1.59603e-06,-3.40794e-12,6.10981e-38,0,-1.13722e-13,0,0,0,0,0,0,0,0,0,0,0,0,0,0,0,0,0,0,0,0,0,-0.375,1.89752,-1.5,3.94113e+12,0,0,2,0,0,0,0,0,0,0,0,1.9603e-19,0,0,0,0,0,0,0,0,0,2.5,0
8359,-3.3423e-12,6.11028e-38,-1.59603e-06,-3.40794e-12,6.10981e-38,0,-1.13722e-13,0,0,0,0,0,0,0,0,0,0,0,0,0,0,0,0,0,0,0,0,0,-0.375,1.9258,-1.5,3.94113e+12,0,0,2,0,0,0,0,0,0,0,0,1.9603e-19,0,0,0,0,0,0,0,0,0,2.5,0
8374,-3.3423e-12,6.11028e-38,-1.59603e-06,-3.40794e-12,6.10981e-38,0,-1.13723e-13,0,0,0,0,0,0,0,0,0,0,0,0,0,0,0,0,0,0,0,0,0,-0.375,1.94936,-1.5,3.94113e+12,0,0,2,0,0,0,0,0,0,0,0,1.9603e-19,0,0,0,0,0,0,0,0,0,2.5,0
8388,-3.3423e-12,6.11028e-38,-1.59603e-06,-3.40794e-12,6.10981e-38,0,-1.13723e-13,0,0,0,0,0,0,0,0,0,0,0,0,0,0,0,0,0,0,0,0,0,-0.375,1.97135,-1.5,3.94113e+12,0,0,2,0,0,0,0,0,0,0,0,1.9603e-19,0,0,0,0,0,0,0,0,0,2.5,0
8403,-3.3423e-12,6.11028e-38,-1.59603e-06,-3.40794e-12,6.10981e-38,0,-1.13724e-13,0,0,0,0,0,0,0,0,0,0,0,0,0,0,0,0,0,0,0,0,0,-0.375,1.99334,-1.5,3.94113e+12,0,0,2,0,0,0,0,0,0,0,0,1.9603e-19,0,0,0,0,0,0,0,0,0,2.5,0
8418,-3.3423e-12,6.11028e-38,-1.59603e-06,-3.40794e-12,6.10981e-38,0,-1.13724e-13,0,0,0,0,0,0,0,0,0,0,0,0,0,0,0,0,0,0,0,0,0,-0.375,2.01848,-1.5,3.94113e+12,0,0,2,0,0,0,0,0,0,0,0,1.9603e-19,0,0,0,0,0,0,0,0,0,2.5,0
8433,-3.3423e-12,6.11028e-38,-1.59603e-06,-3.40794e-12,6.10981e-38,0,-1.13725e-13,0,0,0,0,0,0,0,0,0,0,0,0,0,0,0,0,0,0,0,0,0,-0.375,2.04204,-1.5,3.94113e+12,0,0,2,0,0,0,0,0,0,0,0,1.9603e-19,0,0,0,0,0,0,0,0,0,2.5,0
8449,-3.3423e-12,6.11028e-38,-1.59603e-06,-3.40794e-12,6.10981e-38,0,-1.13725e-13,0,0,0,0,0,0,0,0,0,0,0,0,0,0,0,0,0,0,0,0,0,-0.375,2.0656,-1.5,3.94113e+12,0,0,2,0,0,0,0,0,0,0,0,1.9603e-19,0,0,0,0,0,0,0,0,0,2.5,0
8464,-3.3423e-12,6.11028e-38,-1.59603e-06,-3.40794e-12,6.10981e-38,0,-1.13726e-13,0,0,0,0,0,0,0,0,0,0,0,0,0,0,0,0,0,0,0,0,0,-0.375,2.09073,-1.5,3.94113e+12,0,0,2,0,0,0,0,0,0,0,0,1.9603e-19,0,0,0,0,0,0,0,0,0,2.5,0
8479,-3.3423e-12,6.11028e-38,-1.59603e-06,-3.40794e-12,6.10981e-38,0,-1.13727e-13,0,0,0,0,0,0,0,0,0,0,0,0,0,0,0,0,0,0,0,0,0,-0.375,2.1143,-1.5,3.94113e+12,0,0,2,0,0,0,0,0,0,0,0,1.9603e-19,0,0,0,0,0,0,0,0,0,2.5,0
8495,-3.3423e-12,6.11028e-38,-1.59603e-06,-3.40794e-12,6.10981e-38,0,-1.13727e-13,0,0,0,0,0,0,0,0,0,0,0,0,0,0,0,0,0,0,0,0,0,-0.375,2.13943,-1.5,3.94113e+12,0,0,2,0,0,0,0,0,0,0,0,1.9603e-19,0,0,0,0,0,0,0,0,0,2.5,0
8512,-3.3423e-12,6.11028e-38,-1.59603e-06,-3.40794e-12,6.10981e-38,0,-1.13728e-13,0,0,0,0,0,0,0,0,0,0,0,0,0,0,0,0,0,0,0,0,0,-0.375,2.16613,-1.5,3.94113e+12,0,0,2,0,0,0,0,0,0,0,0,1.9603e-19,0,0,0,0,0,0,0,0,0,2.5,0
8527,-3.3423e-12,6.11028e-38,-1.59603e-06,-3.40794e-12,6.10981e-38,0,-1.13728e-13,0,0,0,0,0,0,0,0,0,0,0,0,0,0,0,0,0,0,0,0,0,-0.375,2.18969,-1.5,3.94113e+12,0,0,2,0,0,0,0,0,0,0,0,1.9603e-19,0,0,0,0,0,0,0,0,0,2.5,0
8542,-3.3423e-12,6.11028e-38,-1.59603e-06,-3.40794e-12,6.10981e-38,0,-1.13729e-13,0,0,0,0,0,0,0,0,0,0,0,0,0,0,0,0,0,0,0,0,0,-0.375,2.21326,-1.5,3.94113e+12,0,0,2,0,0,0,0,0,0,0,0,1.9603e-19,0,0,0,0,0,0,0,0,0,2.5,0
8558,-3.3423e-12,6.11028e-38,-1.59603e-06,-3.40794e-12,6.10981e-38,0,-1.13729e-13,0,0,0,0,0,0,0,0,0,0,0,0,0,0,0,0,0,0,0,0,0,-0.375,2.23839,-1.5,3.94113e+12,0,0,2,0,0,0,0,0,0,0,0,1.9603e-19,0,0,0,0,0,0,0,0,0,2.5,0
8574,-3.3423e-12,6.11028e-38,-1.59603e-06,-3.40794e-12,6.10981e-38,0,-1.1373e-13,0,0,0,0,0,0,0,0,0,0,0,0,0,0,0,0,0,0,0,0,0,-0.375,2.26352,-1.5,3.94113e+12,0,0,2,0,0,0,0,0,0,0,0,1.9603e-19,0,0,0,0,0,0,0,0,0,2.5,0
8590,-3.3423e-12,6.11028e-38,-1.59603e-06,-3.40794e-12,6.10981e-38,0,-1.1373e-13,0,0,0,0,0,0,0,0,0,0,0,0,0,0,0,0,0,0,0,0,0,-0.375,2.28866,-1.5,3.94113e+12,0,0,2,0,0,0,0,0,0,0,0,1.9603e-19,0,0,0,0,0,0,0,0,0,2.5,0
8606,-3.3423e-12,6.11028e-38,-1.59603e-06,-3.40794e-12,6.10981e-38,0,-1.13731e-13,0,0,0,0,0,0,0,0,0,0,0,0,0,0,0,0,0,0,0,0,0,-0.375,2.31222,-1.5,3.94113e+12,0,0,2,0,0,0,0,0,0,0,0,1.9603e-19,0,0,0,0,0,0,0,0,0,2.5,0
8621,-3.3423e-12,6.11028e-38,-1.59603e-06,-3.40794e-12,6.10981e-38,0,-1.13731e-13,0,0,0,0,0,0,0,0,0,0,0,0,0,0,0,0,0,0,0,0,0,-0.375,2.33735,-1.5,3.94113e+12,0,0,2,0,0,0,0,0,0,0,0,1.9603e-19,0,0,0,0,0,0,0,0,0,2.5,0
8636,-3.3423e-12,6.11028e-38,-1.59603e-06,-3.40794e-12,6.10981e-38,0,-1.13732e-13,0,0,0,0,0,0,0,0,0,0,0,0,0,0,0,0,0,0,0,0,0,-0.375,2.36091,-1.5,3.94113e+12,0,0,2,0,0,0,0,0,0,0,0,1.9603e-19,0,0,0,0,0,0,0,0,0,2.5,0
8652,-3.3423e-12,6.11028e-38,-1.59603e-06,-3.40794e-12,6.10981e-38,0,-1.13732e-13,0,0,0,0,0,0,0,0,0,0,0,0,0,0,0,0,0,0,0,0,0,-0.375,2.38561,-1.5,3.94113e+12,0,0,2,0,0,0,0,0,0,0,0,1.9603e-19,0,0,0,0,0,0,0,0,0,2.5,0
8669,-3.3423e-12,6.11028e-38,-1.59603e-06,-3.40794e-12,6.10981e-38,0,-1.13733e-13,0,0,0,0,0,0,0,0,0,0,0,0,0,0,0,0,0,0,0,0,0,-0.375,2.41101,-1.5,3.94113e+12,0,0,2,0,0,0,0,0,0,0,0,1.9603e-19,0,0,0,0,0,0,0,0,0,2.5,0
8682,-3.3423e-12,6.11028e-38,-1.59603e-06,-3.40794e-12,6.10981e-38,0,-1.13734e-13,0,0,0,0,0,0,0,0,0,0,0,0,0,0,0,0,0,0,0,0,0,-0.375,2.42981,-1.5,3.94113e+12,0,0,2,0,0,0,0,0,0,0,0,1.9603e-19,0,0,0,0,0,0,0,0,0,2.5,0
8695,-3.3423e-12,6.11028e-38,-1.59603e-06,-3.40794e-12,6.10981e-38,0,-1.13734e-13,0,0,0,0,0,0,0,0,0,0,0,0,0,0,0,0,0,0,0,0,0,-0.375,2.44813,-1.5,3.94113e+12,0,0,2,0,0,0,0,0,0,0,0,1.9603e-19,0,0,0,0,0,0,0,0,0,2.5,0
8711,-3.3423e-12,6.11028e-38,-1.59603e-06,-3.40794e-12,6.10981e-38,0,-1.13735e-13,0,0,0,0,0,0,0,0,0,0,0,0,0,0,0,0,0,0,0,0,0,-0.375,2.47007,-1.5,3.94113e+12,0,0,2,0,0,0,0,0,0,0,0,1.9603e-19,0,0,0,0,0,0,0,0,0,2.5,0
8726,-3.3423e-12,6.11028e-38,-1.59603e-06,-3.40794e-12,6.10981e-38,0,-1.13735e-13,0,0,0,0,0,0,0,0,0,0,0,0,0,0,0,0,0,0,0,0,0,-0.375,2.49,-1.5,3.94113e+12,0,0,2,0,0,0,0,0,0,0,0,1.9603e-19,0,0,0,0,0,0,0,0,0,2.5,0
8742,-3.3423e-12,6.11028e-38,-1.59603e-06,-3.40794e-12,6.10981e-38,0,-1.13736e-13,0,0,0,0,0,0,0,0,0,0,0,0,0,0,0,0,0,0,0,0,0,-0.375,2.51062,-1.5,3.94113e+12,0,0,2,0,0,0,0,0,0,0,0,1.9603e-19,0,0,0,0,0,0,0,0,0,2.5,0
8758,-3.3423e-12,6.11028e-38,-1.59603e-06,-3.40794e-12,6.10981e-38,0,-1.13736e-13,0,0,0,0,0,0,0,0,0,0,0,0,0,0,0,0,0,0,0,0,0,-0.375,2.53059,-1.5,3.94113e+12,0,0,2,0,0,0,0,0,0,0,0,1.9603e-19,0,0,0,0,0,0,0,0,0,2.5,0
8775,-3.3423e-12,6.11028e-38,-1.59603e-06,-3.40794e-12,6.10981e-38,0,-1.13737e-13,0,0,0,0,0,0,0,0,0,0,0,0,0,0,0,0,0,0,0,0,0,-0.375,2.55113,-1.5,3.94113e+12,0,0,2,0,0,0,0,0,0,0,0,1.9603e-19,0,0,0,0,0,0,0,0,0,2.5,0
8791,-3.3423e-12,6.11028e-38,-1.59603e-06,-3.40794e-12,6.10981e-38,0,-1.13737e-13,0,0,0,0,0,0,0,0,0,0,0,0,0,0,0,0,0,0,0,0,0,-0.375,2.56981,-1.5,3.94113e+12,0,0,2,0,0,0,0,0,0,0,0,1.9603e-19,0,0,0,0,0,0,0,0,0,2.5,0
8807,-3.3423e-12,6.11028e-38,-1.59603e-06,-3.40794e-12,6.10981e-38,0,-1.13738e-13,0,0,0,0,0,0,0,0,0,0,0,0,0,0,0,0,0,0,0,0,0,-0.375,2.58789,-1.5,3.94113e+12,0,0,2,0,0,0,0,0,0,0,0,1.9603e-19,0,0,0,0,0,0,0,0,0,2.5,0
8822,-3.3423e-12,6.11028e-38,-1.59603e-06,-3.40794e-12,6.10981e-38,0,-1.13738e-13,0,0,0,0,0,0,0,0,0,0,0,0,0,0,0,0,0,0,0,0,0,-0.375,2.60433,-1.5,3.94113e+12,0,0,2,0,0,0,0,0,0,0,0,1.9603e-19,0,0,0,0,0,0,0,0,0,2.5,0
8839,-3.3423e-12,6.11028e-38,-1.59603e-06,-3.40794e-12,6.10981e-38,0,-1.13739e-13,0,0,0,0,0,0,0,0,0,0,0,0,0,0,0,0,0,0,0,0,0,-0.375,2.62133,-1.5,3.94113e+12,0,0,2,0,0,0,0,0,0,0,0,1.9603e-19,0,0,0,0,0,0,0,0,0,2.5,0
8855,-3.3423e-12,6.11028e-38,-1.59603e-06,-3.40794e-12,6.10981e-38,0,-1.1374e-13,0,0,0,0,0,0,0,0,0,0,0,0,0,0,0,0,0,0,0,0,0,-0.375,2.63881,-1.5,3.94113e+12,0,0,2,0,0,0,0,0,0,0,0,1.9603e-19,0,0,0,0,0,0,0,0,0,2.5,0
8871,-3.3423e-12,6.11028e-38,-1.59603e-06,-3.40794e-12,6.10981e-38,0,-1.1374e-13,0,0,0,0,0,0,0,0,0,0,0,0,0,0,0,0,0,0,0,0,0,-0.375,2.65471,-1.5,3.94113e+12,0,0,2,0,0,0,0,0,0,0,0,1.9603e-19,0,0,0,0,0,0,0,0,0,2.5,0
8886,-3.3423e-12,6.11028e-38,-1.59603e-06,-3.40794e-12,6.10981e-38,0,-1.13741e-13,0,0,0,0,0,0,0,0,0,0,0,0,0,0,0,0,0,0,0,0,0,-0.375,2.66917,-1.5,3.94113e+12,0,0,2,0,0,0,0,0,0,0,0,1.9603e-19,0,0,0,0,0,0,0,0,0,2.5,0
8902,-3.3423e-12,6.11028e-38,-1.59603e-06,-3.40794e-12,6.10981e-38,0,-1.13741e-13,0,0,0,0,0,0,0,0,0,0,0,0,0,0,0,0,0,0,0,0,0,-0.375,2.68412,-1.5,3.94113e+12,0,0,2,0,0,0,0,0,0,0,0,1.9603e-19,0,0,0,0,0,0,0,0,0,2.5,0
8918,-3.3423e-12,6.11028e-38,-1.59603e-06,-3.40794e-12,6.10981e-38,0,-1.13742e-13,0,0,0,0,0,0,0,0,0,0,0,0,0,0,0,0,0,0,0,0,0,-0.375,2.69859,-1.5,3.94113e+12,0,0,2,0,0,0,0,0,0,0,0,1.9603e-19,0,0,0,0,0,0,0,0,0,2.5,0
8933,-3.3423e-12,6.11028e-38,-1.59603e-06,-3.40794e-12,6.10981e-38,0,-1.13742e-13,0,0,0,0,0,0,0,0,0,0,0,0,0,0,0,0,0,0,0,0,0,-0.375,2.71174,-1.5,3.94113e+12,0,0,2,0,0,0,0,0,0,0,0,1.9603e-19,0,0,0,0,0,0,0,0,0,2.5,0
8981,-3.3423e-12,6.11028e-38,-1.59603e-06,-3.40794e-12,6.10981e-38,0,-1.13743e-13,0,0,0,0,0,0,0,0,0,0,0,0,0,0,0,0,0,0,0,0,0,-0.375,2.75241,-1.5,3.94113e+12,0,0,2,0,0,0,0,0,0,0,0,1.9603e-19,0,0,0,0,0,0,0,0,0,2.5,0
8999,-3.3423e-12,6.11028e-38,-1.59603e-06,-3.40794e-12,6.10981e-38,0,-1.13743e-13,0,0,0,0,0,0,0,0,0,0,0,0,0,0,0,0,0,0,0,0,0,-0.375,2.76625,-1.5,3.94113e+12,0,0,2,0,0,0,0,0,0,0,0,1.9603e-19,0,0,0,0,0,0,0,0,0,2.5,0
9012,-3.3423e-12,6.11028e-38,-1.59603e-06,-3.40794e-12,6.10981e-38,0,-1.13744e-13,0,0,0,0,0,0,0,0,0,0,0,0,0,0,0,0,0,0,0,0,0,-0.375,2.77591,-1.5,3.94113e+12,0,0,2,0,0,0,0,0,0,0,0,1.9603e-19,0,0,0,0,0,0,0,0,0,2.5,0
9025,-3.3423e-12,6.11028e-38,-1.59603e-06,-3.40794e-12,6.10981e-38,0,-1.13744e-13,0,0,0,0,0,0,0,0,0,0,0,0,0,0,0,0,0,0,0,0,0,-0.375,2.78532,-1.5,3.94113e+12,0,0,2,0,0,0,0,0,0,0,0,1.9603e-19,0,0,0,0,0,0,0,0,0,2.5,0
9066,-3.3423e-12,6.11028e-38,-1.59603e-06,-3.40794e-12,6.10981e-38,0,-1.13745e-13,0,0,0,0,0,0,0,0,0,0,0,0,0,0,0,0,0,0,0,0,0,-0.375,2.81413,-1.5,3.94113e+12,0,0,2,0,0,0,0,0,0,0,0,1.9603e-19,0,0,0,0,0,0,0,0,0,2.5,0
9082,-3.3423e-12,6.11028e-38,-1.59603e-06,-3.40794e-12,6.10981e-38,0,-1.13745e-13,0,0,0,0,0,0,0,0,0,0,0,0,0,0,0,0,0,0,0,0,0,-0.375,2.82449,-1.5,3.94113e+12,0,0,2,0,0,0,0,0,0,0,0,1.9603e-19,0,0,0,0,0,0,0,0,0,2.5,0
9099,-3.3423e-12,6.11028e-38,-1.59603e-06,-3.40794e-12,6.10981e-38,0,-1.13746e-13,0,0,0,0,0,0,0,0,0,0,0,0,0,0,0,0,0,0,0,0,0,-0.375,2.83515,-1.5,3.94113e+12,0,0,2,0,0,0,0,0,0,0,0,1.9603e-19,0,0,0,0,0,0,0,0,0,2.5,0
9114,-3.3423e-12,6.11028e-38,-1.59603e-06,-3.40794e-12,6.10981e-38,0,-1.13747e-13,0,0,0,0,0,0,0,0,0,0,0,0,0,0,0,0,0,0,0,0,0,-0.375,2.84424,-1.5,3.94113e+12,0,0,2,0,0,0,0,0,0,0,0,1.9603e-19,0,0,0,0,0,0,0,0,0,2.5,0
9129,-3.3423e-12,6.11028e-38,-1.59603e-06,-3.40794e-12,6.10981e-38,0,-1.13747e-13,0,0,0,0,0,0,0,0,0,0,0,0,0,0,0,0,0,0,0,0,0,-0.375,2.85307,-1.5,3.94113e+12,0,0,2,0,0,0,0,0,0,0,0,1.9603e-19,0,0,0,0,0,0,0,0,0,2.5,0
9145,-3.3423e-12,6.11028e-38,-1.59603e-06,-3.40794e-12,6.10981e-38,0,-1.13748e-13,0,0,0,0,0,0,0,0,0,0,0,0,0,0,0,0,0,0,0,0,0,-0.375,2.8622,-1.5,3.94113e+12,0,0,2,0,0,0,0,0,0,0,0,1.9603e-19,0,0,0,0,0,0,0,0,0,2.5,0
9161,-3.3423e-12,6.11028e-38,-1.59603e-06,-3.40794e-12,6.10981e-38,0,-1.13748e-13,0,0,0,0,0,0,0,0,0,0,0,0,0,0,0,0,0,0,0,0,0,-0.375,2.87104,-1.5,3.94113e+12,0,0,2,0,0,0,0,0,0,0,0,1.9603e-19,0,0,0,0,0,0,0,0,0,2.5,0
9177,-3.3423e-12,6.11028e-38,-1.59603e-06,-3.40794e-12,6.10981e-38,0,-1.13749e-13,0,0,0,0,0,0,0,0,0,0,0,0,0,0,0,0,0,0,0,0,0,-0.375,2.87959,-1.5,3.94113e+12,0,0,2,0,0,0,0,0,0,0,0,1.9603e-19,0,0,0,0,0,0,0,0,0,2.5,0
9192,-3.3423e-12,6.11028e-38,-1.59603e-06,-3.40794e-12,6.10981e-38,0,-1.13749e-13,0,0,0,0,0,0,0,0,0,0,0,0,0,0,0,0,0,0,0,0,0,-0.375,2.88737,-1.5,3.94113e+12,0,0,2,0,0,0,0,0,0,0,0,1.9603e-19,0,0,0,0,0,0,0,0,0,2.5,0
9210,-3.3423e-12,6.11028e-38,-1.59603e-06,-3.40794e-12,6.10981e-38,0,-1.1375e-13,0,0,0,0,0,0,0,0,0,0,0,0,0,0,0,0,0,0,0,0,0,-0.375,2.89592,-1.5,3.94113e+12,0,0,2,0,0,0,0,0,0,0,0,1.9603e-19,0,0,0,0,0,0,0,0,0,2.5,0
9225,-3.3423e-12,6.11028e-38,-1.59603e-06,-3.40794e-12,6.10981e-38,0,-1.1375e-13,0,0,0,0,0,0,0,0,0,0,0,0,0,0,0,0,0,0,0,0,0,-0.375,2.90369,-1.5,3.94113e+12,0,0,2,0,0,0,0,0,0,0,0,1.9603e-19,0,0,0,0,0,0,0,0,0,2.5,0
9241,-3.3423e-12,6.11028e-38,-1.59603e-06,-3.40794e-12,6.10981e-38,0,-1.13751e-13,0,0,0,0,0,0,0,0,0,0,0,0,0,0,0,0,0,0,0,0,0,-0.375,2.91121,-1.5,3.94113e+12,0,0,2,0,0,0,0,0,0,0,0,1.9603e-19,0,0,0,0,0,0,0,0,0,2.5,0
9256,-3.3423e-12,6.11028e-38,-1.59603e-06,-3.40794e-12,6.10981e-38,0,-1.13751e-13,0,0,0,0,0,0,0,0,0,0,0,0,0,0,0,0,0,0,0,0,0,-0.375,2.91805,-1.5,3.94113e+12,0,0,2,0,0,0,0,0,0,0,0,1.9603e-19,0,0,0,0,0,0,0,0,0,2.5,0
9273,-3.3423e-12,6.11028e-38,-1.59603e-06,-3.40794e-12,6.10981e-38,0,-1.13752e-13,0,0,0,0,0,0,0,0,0,0,0,0,0,0,0,0,0,0,0,0,0,-0.375,2.92556,-1.5,3.94113e+12,0,0,2,0,0,0,0,0,0,0,0,1.9603e-19,0,0,0,0,0,0,0,0,0,2.5,0
9289,-3.3423e-12,6.11028e-38,-1.59603e-06,-3.40794e-12,6.10981e-38,0,-1.13753e-13,0,0,0,0,0,0,0,0,0,0,0,0,0,0,0,0,0,0,0,0,0,-0.375,2.93239,-1.5,3.94113e+12,0,0,2,0,0,0,0,0,0,0,0,1.9603e-19,0,0,0,0,0,0,0,0,0,2.5,0
9305,-3.3423e-12,6.11028e-38,-1.59603e-06,-3.40794e-12,6.10981e-38,0,-1.13753e-13,0,0,0,0,0,0,0,0,0,0,0,0,0,0,0,0,0,0,0,0,0,-0.375,2.93901,-1.5,3.94113e+12,0,0,2,0,0,0,0,0,0,0,0,1.9603e-19,0,0,0,0,0,0,0,0,0,2.5,0
9321,-3.3423e-12,6.11028e-38,-1.59603e-06,-3.40794e-12,6.10981e-38,0,-1.13754e-13,0,0,0,0,0,0,0,0,0,0,0,0,0,0,0,0,0,0,0,0,0,-0.375,2.94503,-1.5,3.94113e+12,0,0,2,0,0,0,0,0,0,0,0,1.9603e-19,0,0,0,0,0,0,0,0,0,2.5,0
9334,-3.3423e-12,6.11028e-38,-1.59603e-06,-3.40794e-12,6.10981e-38,0,-1.13754e-13,0,0,0,0,0,0,0,0,0,0,0,0,0,0,0,0,0,0,0,0,0,-0.375,2.95047,-1.5,3.94113e+12,0,0,2,0,0,0,0,0,0,0,0,1.9603e-19,0,0,0,0,0,0,0,0,0,2.5,0
9348,-3.3423e-12,6.11028e-38,-1.59603e-06,-3.40794e-12,6.10981e-38,0,-1.13755e-13,0,0,0,0,0,0,0,0,0,0,0,0,0,0,0,0,0,0,0,0,0,-0.375,2.95539,-1.5,3.94113e+12,0,0,2,0,0,0,0,0,0,0,0,1.9603e-19,0,0,0,0,0,0,0,0,0,2.5,0
9363,-3.3423e-12,6.11028e-38,-1.59603e-06,-3.40794e-12,6.10981e-38,0,-1.13755e-13,0,0,0,0,0,0,0,0,0,0,0,0,0,0,0,0,0,0,0,0,0,-0.375,2.96128,-1.5,3.94113e+12,0,0,2,0,0,0,0,0,0,0,0,1.9603e-19,0,0,0,0,0,0,0,0,0,2.5,0
9379,-3.3423e-12,6.11028e-38,-1.59603e-06,-3.40794e-12,6.10981e-38,0,-1.13756e-13,0,0,0,0,0,0,0,0,0,0,0,0,0,0,0,0,0,0,0,0,0,-0.375,2.96699,-1.5,3.94113e+12,0,0,2,0,0,0,0,0,0,0,0,1.9603e-19,0,0,0,0,0,0,0,0,0,2.5,0
9396,-3.3423e-12,6.11028e-38,-1.59603e-06,-3.40794e-12,6.10981e-38,0,-1.13756e-13,0,0,0,0,0,0,0,0,0,0,0,0,0,0,0,0,0,0,0,0,0,-0.375,2.97286,-1.5,3.94113e+12,0,0,2,0,0,0,0,0,0,0,0,1.9603e-19,0,0,0,0,0,0,0,0,0,2.5,0
9412,-3.3423e-12,6.11028e-38,-1.59603e-06,-3.40794e-12,6.10981e-38,0,-1.13757e-13,0,0,0,0,0,0,0,0,0,0,0,0,0,0,0,0,0,0,0,0,0,-0.375,2.9782,-1.5,3.94113e+12,0,0,2,0,0,0,0,0,0,0,0,1.9603e-19,0,0,0,0,0,0,0,0,0,2.5,0
9428,-3.3423e-12,6.11028e-38,-1.59603e-06,-3.40794e-12,6.10981e-38,0,-1.13757e-13,0,0,0,0,0,0,0,0,0,0,0,0,0,0,0,0,0,0,0,0,0,-0.375,2.98337,-1.5,3.94113e+12,0,0,2,0,0,0,0,0,0,0,0,1.9603e-19,0,0,0,0,0,0,0,0,0,2.5,0
9444,-3.3423e-12,6.11028e-38,-1.59603e-06,-3.40794e-12,6.10981e-38,0,-1.13758e-13,0,0,0,0,0,0,0,0,0,0,0,0,0,0,0,0,0,0,0,0,0,-0.375,2.98806,-1.5,3.94113e+12,0,0,2,0,0,0,0,0,0,0,0,1.9603e-19,0,0,0,0,0,0,0,0,0,2.5,0
9459,-3.3423e-12,6.11028e-38,-1.59603e-06,-3.40794e-12,6.10981e-38,0,-1.13759e-13,0,0,0,0,0,0,0,0,0,0,0,0,0,0,0,0,0,0,0,0,0,-0.375,2.99292,-1.5,3.94113e+12,0,0,2,0,0,0,0,0,0,0,0,1.9603e-19,0,0,0,0,0,0,0,0,0,2.5,0
9477,-3.3423e-12,6.11028e-38,-1.59603e-06,-3.40794e-12,6.10981e-38,0,-1.13759e-13,0,0,0,0,0,0,0,0,0,0,0,0,0,0,0,0,0,0,0,0,0,-0.375,2.99792,-1.5,3.94113e+12,0,0,2,0,0,0,0,0,0,0,0,1.9603e-19,0,0,0,0,0,0,0,0,0,2.5,0
9492,-3.3423e-12,6.11028e-38,-1.59603e-06,-3.40794e-12,6.10981e-38,0,-1.1376e-13,0,0,0,0,0,0,0,0,0,0,0,0,0,0,0,0,0,0,0,0,0,-0.375,3.00247,-1.5,3.94113e+12,0,0,2,0,0,0,0,0,0,0,0,1.9603e-19,0,0,0,0,0,0,0,0,0,2.5,0
9508,-3.3423e-12,6.11028e-38,-1.59603e-06,-3.40794e-12,6.10981e-38,0,-1.1376e-13,0,0,0,0,0,0,0,0,0,0,0,0,0,0,0,0,0,0,0,0,0,-0.375,3.00687,-1.5,3.94113e+12,0,0,2,0,0,0,0,0,0,0,0,1.9603e-19,0,0,0,0,0,0,0,0,0,2.5,0
9523,-3.3423e-12,6.11028e-38,-1.59603e-06,-3.40794e-12,6.10981e-38,0,-1.13761e-13,0,0,0,0,0,0,0,0,0,0,0,0,0,0,0,0,0,0,0,0,0,-0.375,3.01086,-1.5,3.94113e+12,0,0,2,0,0,0,0,0,0,0,0,1.9603e-19,0,0,0,0,0,0,0,0,0,2.5,0
9539,-3.3423e-12,6.11028e-38,-1.59603e-06,-3.40794e-12,6.10981e-38,0,-1.13761e-13,0,0,0,0,0,0,0,0,0,0,0,0,0,0,0,0,0,0,0,0,0,-0.375,3.015,-1.5,3.94113e+12,0,0,2,0,0,0,0,0,0,0,0,1.9603e-19,0,0,0,0,0,0,0,0,0,2.5,0
9555,-3.3423e-12,6.11028e-38,-1.59603e-06,-3.40794e-12,6.10981e-38,0,-1.13762e-13,0,0,0,0,0,0,0,0,0,0,0,0,0,0,0,0,0,0,0,0,0,-0.375,3.01901,-1.5,3.94113e+12,0,0,2,0,0,0,0,0,0,0,0,1.9603e-19,0,0,0,0,0,0,0,0,0,2.5,0
9571,-3.3423e-12,6.11028e-38,-1.59603e-06,-3.40794e-12,6.10981e-38,0,-1.13762e-13,0,0,0,0,0,0,0,0,0,0,0,0,0,0,0,0,0,0,0,0,0,-0.375,3.02289,-1.5,3.94113e+12,0,0,2,0,0,0,0,0,0,0,0,1.9603e-19,0,0,0,0,0,0,0,0,0,2.5,0
9587,-3.3423e-12,6.11028e-38,-1.59603e-06,-3.40794e-12,6.10981e-38,0,-1.13763e-13,0,0,0,0,0,0,0,0,0,0,0,0,0,0,0,0,0,0,0,0,0,-0.375,3.02641,-1.5,3.94113e+12,0,0,2,0,0,0,0,0,0,0,0,1.9603e-19,0,0,0,0,0,0,0,0,0,2.5,0
9603,-3.3423e-12,6.11028e-38,-1.59603e-06,-3.40794e-12,6.10981e-38,0,-1.13763e-13,0,0,0,0,0,0,0,0,0,0,0,0,0,0,0,0,0,0,0,0,0,-0.375,3.03005,-1.5,3.94113e+12,0,0,2,0,0,0,0,0,0,0,0,1.9603e-19,0,0,0,0,0,0,0,0,0,2.5,0
9621,-3.3423e-12,6.11028e-38,-1.59603e-06,-3.40794e-12,6.10981e-38,0,-1.13764e-13,0,0,0,0,0,0,0,0,0,0,0,0,0,0,0,0,0,0,0,0,0,-0.375,3.03402,-1.5,3.94113e+12,0,0,2,0,0,0,0,0,0,0,0,1.9603e-19,0,0,0,0,0,0,0,0,0,2.5,0
9636,-3.3423e-12,6.11028e-38,-1.59603e-06,-3.40794e-12,6.10981e-38,0,-1.13764e-13,0,0,0,0,0,0,0,0,0,0,0,0,0,0,0,0,0,0,0,0,0,-0.375,3.03722,-1.5,3.94113e+12,0,0,2,0,0,0,0,0,0,0,0,1.9603e-19,0,0,0,0,0,0,0,0,0,2.5,0
9650,-3.3423e-12,6.11028e-38,-1.59603e-06,-3.40794e-12,6.10981e-38,0,-1.13765e-13,0,0,0,0,0,0,0,0,0,0,0,0,0,0,0,0,0,0,0,0,0,-0.375,3.0399,-1.5,3.94113e+12,0,0,2,0,0,0,0,0,0,0,0,1.9603e-19,0,0,0,0,0,0,0,0,0,2.5,0
9664,-3.3423e-12,6.11028e-38,-1.59603e-06,-3.40794e-12,6.10981e-38,0,-1.13766e-13,0,0,0,0,0,0,0,0,0,0,0,0,0,0,0,0,0,0,0,0,0,-0.375,3.04292,-1.5,3.94113e+12,0,0,2,0,0,0,0,0,0,0,0,1.9603e-19,0,0,0,0,0,0,0,0,0,2.5,0
9679,-3.3423e-12,6.11028e-38,-1.59603e-06,-3.40794e-12,6.10981e-38,0,-1.13766e-13,0,0,0,0,0,0,0,0,0,0,0,0,0,0,0,0,0,0,0,0,0,-0.375,3.04585,-1.5,3.94113e+12,0,0,2,0,0,0,0,0,0,0,0,1.9603e-19,0,0,0,0,0,0,0,0,0,2.5,0
9694,-3.3423e-12,6.11028e-38,-1.59603e-06,-3.40794e-12,6.10981e-38,0,-1.13767e-13,0,0,0,0,0,0,0,0,0,0,0,0,0,0,0,0,0,0,0,0,0,-0.375,3.04869,-1.5,3.94113e+12,0,0,2,0,0,0,0,0,0,0,0,1.9603e-19,0,0,0,0,0,0,0,0,0,2.5,0
9710,-3.3423e-12,6.11028e-38,-1.59603e-06,-3.40794e-12,6.10981e-38,0,-1.13767e-13,0,0,0,0,0,0,0,0,0,0,0,0,0,0,0,0,0,0,0,0,0,-0.375,3.05163,-1.5,3.94113e+12,0,0,2,0,0,0,0,0,0,0,0,1.9603e-19,0,0,0,0,0,0,0,0,0,2.5,0
9725,-3.3423e-12,6.11028e-38,-1.59603e-06,-3.40794e-12,6.10981e-38,0,-1.13768e-13,0,0,0,0,0,0,0,0,0,0,0,0,0,0,0,0,0,0,0,0,0,-0.375,3.0543,-1.5,3.94113e+12,0,0,2,0,0,0,0,0,0,0,0,1.9603e-19,0,0,0,0,0,0,0,0,0,2.5,0
9741,-3.3423e-12,6.11028e-38,-1.59603e-06,-3.40794e-12,6.10981e-38,0,-1.13768e-13,0,0,0,0,0,0,0,0,0,0,0,0,0,0,0,0,0,0,0,0,0,-0.375,3.05689,-1.5,3.94113e+12,0,0,2,0,0,0,0,0,0,0,0,1.9603e-19,0,0,0,0,0,0,0,0,0,2.5,0
9756,-3.3423e-12,6.11028e-38,-1.59603e-06,-3.40794e-12,6.10981e-38,0,-1.13769e-13,0,0,0,0,0,0,0,0,0,0,0,0,0,0,0,0,0,0,0,0,0,-0.375,3.05957,-1.5,3.94113e+12,0,0,2,0,0,0,0,0,0,0,0,1.9603e-19,0,0,0,0,0,0,0,0,0,2.5,0
9773,-3.3423e-12,6.11028e-38,-1.59603e-06,-3.40794e-12,6.10981e-38,0,-1.13769e-13,0,0,0,0,0,0,0,0,0,0,0,0,0,0,0,0,0,0,0,0,0,-0.375,3.06233,-1.5,3.94113e+12,0,0,2,0,0,0,0,0,0,0,0,1.9603e-19,0,0,0,0,0,0,0,0,0,2.5,0
9788,-3.3423e-12,6.11028e-38,-1.59603e-06,-3.40794e-12,6.10981e-38,0,-1.1377e-13,0,0,0,0,0,0,0,0,0,0,0,0,0,0,0,0,0,0,0,0,0,-0.375,3.06468,-1.5,3.94113e+12,0,0,2,0,0,0,0,0,0,0,0,1.9603e-19,0,0,0,0,0,0,0,0,0,2.5,0
9804,-3.3423e-12,6.11028e-38,-1.59603e-06,-3.40794e-12,6.10981e-38,0,-1.1377e-13,0,0,0,0,0,0,0,0,0,0,0,0,0,0,0,0,0,0,0,0,0,-0.375,3.06696,-1.5,3.94113e+12,0,0,2,0,0,0,0,0,0,0,0,1.9603e-19,0,0,0,0,0,0,0,0,0,2.5,0
9819,-3.3423e-12,6.11028e-38,-1.59603e-06,-3.40794e-12,6.10981e-38,0,-1.13771e-13,0,0,0,0,0,0,0,0,0,0,0,0,0,0,0,0,0,0,0,0,0,-0.375,3.06932,-1.5,3.94113e+12,0,0,2,0,0,0,0,0,0,0,0,1.9603e-19,0,0,0,0,0,0,0,0,0,2.5,0
9835,-3.3423e-12,6.11028e-38,-1.59603e-06,-3.40794e-12,6.10981e-38,0,-1.13772e-13,0,0,0,0,0,0,0,0,0,0,0,0,0,0,0,0,0,0,0,0,0,-0.375,3.07161,-1.5,3.94113e+12,0,0,2,0,0,0,0,0,0,0,0,1.9603e-19,0,0,0,0,0,0,0,0,0,2.5,0
9851,-3.3423e-12,6.11028e-38,-1.59603e-06,-3.40794e-12,6.10981e-38,0,-1.13772e-13,0,0,0,0,0,0,0,0,0,0,0,0,0,0,0,0,0,0,0,0,0,-0.375,3.07382,-1.5,3.94113e+12,0,0,2,0,0,0,0,0,0,0,0,1.9603e-19,0,0,0,0,0,0,0,0,0,2.5,0
9867,-3.3423e-12,6.11028e-38,-1.59603e-06,-3.40794e-12,6.10981e-38,0,-1.13773e-13,0,0,0,0,0,0,0,0,0,0,0,0,0,0,0,0,0,0,0,0,0,-0.375,3.07597,-1.5,3.94113e+12,0,0,2,0,0,0,0,0,0,0,0,1.9603e-19,0,0,0,0,0,0,0,0,0,2.5,0
9882,-3.3423e-12,6.11028e-38,-1.59603e-06,-3.40794e-12,6.10981e-38,0,-1.13773e-13,0,0,0,0,0,0,0,0,0,0,0,0,0,0,0,0,0,0,0,0,0,-0.375,3.07791,-1.5,3.94113e+12,0,0,2,0,0,0,0,0,0,0,0,1.9603e-19,0,0,0,0,0,0,0,0,0,2.5,0
9898,-3.3423e-12,6.11028e-38,-1.59603e-06,-3.40794e-12,6.10981e-38,0,-1.13774e-13,0,0,0,0,0,0,0,0,0,0,0,0,0,0,0,0,0,0,0,0,0,-0.375,3.0798,-1.5,3.94113e+12,0,0,2,0,0,0,0,0,0,0,0,1.9603e-19,0,0,0,0,0,0,0,0,0,2.5,0
9913,-3.3423e-12,6.11028e-38,-1.59603e-06,-3.40794e-12,6.10981e-38,0,-1.13774e-13,0,0,0,0,0,0,0,0,0,0,0,0,0,0,0,0,0,0,0,0,0,-0.375,3.08176,-1.5,3.94113e+12,0,0,2,0,0,0,0,0,0,0,0,1.9603e-19,0,0,0,0,0,0,0,0,0,2.5,0
9930,-3.3423e-12,6.11028e-38,-1.59603e-06,-3.40794e-12,6.10981e-38,0,-1.13775e-13,0,0,0,0,0,0,0,0,0,0,0,0,0,0,0,0,0,0,0,0,0,-0.375,3.08377,-1.5,3.94113e+12,0,0,2,0,0,0,0,0,0,0,0,1.9603e-19,0,0,0,0,0,0,0,0,0,2.5,0
9943,-3.3423e-12,6.11028e-38,-1.59603e-06,-3.40794e-12,6.10981e-38,0,-1.13775e-13,0,0,0,0,0,0,0,0,0,0,0,0,0,0,0,0,0,0,0,0,0,-0.375,3.08526,-1.5,3.94113e+12,0,0,2,0,0,0,0,0,0,0,0,1.9603e-19,0,0,0,0,0,0,0,0,0,2.5,0
9957,-3.3423e-12,6.11028e-38,-1.59603e-06,-3.40794e-12,6.10981e-38,0,-1.13776e-13,0,0,0,0,0,0,0,0,0,0,0,0,0,0,0,0,0,0,0,0,0,-0.375,3.08671,-1.5,3.94113e+12,0,0,2,0,0,0,0,0,0,0,0,1.9603e-19,0,0,0,0,0,0,0,0,0,2.5,0
9973,-3.3423e-12,6.11028e-38,-1.59603e-06,-3.40794e-12,6.10981e-38,0,-1.13776e-13,0,0,0,0,0,0,0,0,0,0,0,0,0,0,0,0,0,0,0,0,0,-0.375,3.08844,-1.5,3.94113e+12,0,0,2,0,0,0,0,0,0,0,0,1.9603e-19,0,0,0,0,0,0,0,0,0,2.5,0
9988,-3.3423e-12,6.11028e-38,-1.59603e-06,-3.40794e-12,6.10981e-38,0,-1.13777e-13,0,0,0,0,0,0,0,0,0,0,0,0,0,0,0,0,0,0,0,0,0,-0.375,3.09013,-1.5,3.94113e+12,0,0,2,0,0,0,0,0,0,0,0,1.9603e-19,0,0,0,0,0,0,0,0,0,2.5,0
10004,-3.3423e-12,6.11028e-38,-1.59603e-06,-3.40794e-12,6.10981e-38,0,-1.13777e-13,0,0,0,0,0,0,0,0,0,0,0,0,0,0,0,0,0,0,0,0,0,-0.375,3.09165,-1.5,3.94113e+12,0,0,2,0,0,0,0,0,0,0,0,1.9603e-19,0,0,0,0,0,0,0,0,0,2.5,0
10020,-3.3423e-12,6.11028e-38,-1.59603e-06,-3.40794e-12,6.10981e-38,0,-1.13778e-13,0,0,0,0,0,0,0,0,0,0,0,0,0,0,0,0,0,0,0,0,0,-0.375,3.09323,-1.5,3.94113e+12,0,0,2,0,0,0,0,0,0,0,0,1.9603e-19,0,0,0,0,0,0,0,0,0,2.5,0
10037,-3.3423e-12,6.11028e-38,-1.59603e-06,-3.40794e-12,6.10981e-38,0,-1.13779e-13,0,0,0,0,0,0,0,0,0,0,0,0,0,0,0,0,0,0,0,0,0,-0.375,3.09486,-1.5,3.94113e+12,0,0,2,0,0,0,0,0,0,0,0,1.9603e-19,0,0,0,0,0,0,0,0,0,2.5,0
10052,-3.3423e-12,6.11028e-38,-1.59603e-06,-3.40794e-12,6.10981e-38,0,-1.13779e-13,0,0,0,0,0,0,0,0,0,0,0,0,0,0,0,0,0,0,0,0,0,-0.375,3.09624,-1.5,3.94113e+12,0,0,2,0,0,0,0,0,0,0,0,1.9603e-19,0,0,0,0,0,0,0,0,0,2.5,0
10068,-3.3423e-12,6.11028e-38,-1.59603e-06,-3.40794e-12,6.10981e-38,0,-1.1378e-13,0,0,0,0,0,0,0,0,0,0,0,0,0,0,0,0,0,0,0,0,0,-0.375,3.09768,-1.5,3.94113e+12,0,0,2,0,0,0,0,0,0,0,0,1.9603e-19,0,0,0,0,0,0,0,0,0,2.5,0
10084,-3.3423e-12,6.11028e-38,-1.59603e-06,-3.40794e-12,6.10981e-38,0,-1.1378e-13,0,0,0,0,0,0,0,0,0,0,0,0,0,0,0,0,0,0,0,0,0,-0.375,3.09907,-1.5,3.94113e+12,0,0,2,0,0,0,0,0,0,0,0,1.9603e-19,0,0,0,0,0,0,0,0,0,2.5,0
10100,-3.3423e-12,6.11028e-38,-1.59603e-06,-3.40794e-12,6.10981e-38,0,-1.13781e-13,0,0,0,0,0,0,0,0,0,0,0,0,0,0,0,0,0,0,0,0,0,-0.375,3.10041,-1.5,3.94113e+12,0,0,2,0,0,0,0,0,0,0,0,1.9603e-19,0,0,0,0,0,0,0,0,0,2.5,0
10116,-3.3423e-12,6.11028e-38,-1.59603e-06,-3.40794e-12,6.10981e-38,0,-1.13781e-13,0,0,0,0,0,0,0,0,0,0,0,0,0,0,0,0,0,0,0,0,0,-0.375,3.10172,-1.5,3.94113e+12,0,0,2,0,0,0,0,0,0,0,0,1.9603e-19,0,0,0,0,0,0,0,0,0,2.5,0
10132,-3.3423e-12,6.11028e-38,-1.59603e-06,-3.40794e-12,6.10981e-38,0,-1.13782e-13,0,0,0,0,0,0,0,0,0,0,0,0,0,0,0,0,0,0,0,0,0,-0.375,3.1029,-1.5,3.94113e+12,0,0,2,0,0,0,0,0,0,0,0,1.9603e-19,0,0,0,0,0,0,0,0,0,2.5,0
10147,-3.3423e-12,6.11028e-38,-1.59603e-06,-3.40794e-12,6.10981e-38,0,-1.13782e-13,0,0,0,0,0,0,0,0,0,0,0,0,0,0,0,0,0,0,0,0,0,-0.375,3.10412,-1.5,3.94113e+12,0,0,2,0,0,0,0,0,0,0,0,1.9603e-19,0,0,0,0,0,0,0,0,0,2.5,0
10163,-3.3423e-12,6.11028e-38,-1.59603e-06,-3.40794e-12,6.10981e-38,0,-1.13783e-13,0,0,0,0,0,0,0,0,0,0,0,0,0,0,0,0,0,0,0,0,0,-0.375,3.10531,-1.5,3.94113e+12,0,0,2,0,0,0,0,0,0,0,0,1.9603e-19,0,0,0,0,0,0,0,0,0,2.5,0
10179,-3.3423e-12,6.11028e-38,-1.59603e-06,-3.40794e-12,6.10981e-38,0,-1.13783e-13,0,0,0,0,0,0,0,0,0,0,0,0,0,0,0,0,0,0,0,0,0,-0.375,3.10646,-1.5,3.94113e+12,0,0,2,0,0,0,0,0,0,0,0,1.9603e-19,0,0,0,0,0,0,0,0,0,2.5,0
10194,-3.3423e-12,6.11028e-38,-1.59603e-06,-3.40794e-12,6.10981e-38,0,-1.13784e-13,0,0,0,0,0,0,0,0,0,0,0,0,0,0,0,0,0,0,0,0,0,-0.375,3.1075,-1.5,3.94113e+12,0,0,2,0,0,0,0,0,0,0,0,1.9603e-19,0,0,0,0,0,0,0,0,0,2.5,0
10210,-3.3423e-12,6.11028e-38,-1.59603e-06,-3.40794e-12,6.10981e-38,0,-1.13785e-13,0,0,0,0,0,0,0,0,0,0,0,0,0,0,0,0,0,0,0,0,0,-0.375,3.10858,-1.5,3.94113e+12,0,0,2,0,0,0,0,0,0,0,0,1.9603e-19,0,0,0,0,0,0,0,0,0,2.5,0
10227,-3.3423e-12,6.11028e-38,-1.59603e-06,-3.40794e-12,6.10981e-38,0,-1.13785e-13,0,0,0,0,0,0,0,0,0,0,0,0,0,0,0,0,0,0,0,0,0,-0.375,3.10969,-1.5,3.94113e+12,0,0,2,0,0,0,0,0,0,0,0,1.9603e-19,0,0,0,0,0,0,0,0,0,2.5,0
10241,-3.3423e-12,6.11028e-38,-1.59603e-06,-3.40794e-12,6.10981e-38,0,-1.13786e-13,0,0,0,0,0,0,0,0,0,0,0,0,0,0,0,0,0,0,0,0,0,-0.375,3.11057,-1.5,3.94113e+12,0,0,2,0,0,0,0,0,0,0,0,1.9603e-19,0,0,0,0,0,0,0,0,0,2.5,0
10254,-3.3423e-12,6.11028e-38,-1.59603e-06,-3.40794e-12,6.10981e-38,0,-1.13786e-13,0,0,0,0,0,0,0,0,0,0,0,0,0,0,0,0,0,0,0,0,0,-0.375,3.11137,-1.5,3.94113e+12,0,0,2,0,0,0,0,0,0,0,0,1.9603e-19,0,0,0,0,0,0,0,0,0,2.5,0
10270,-3.3423e-12,6.11028e-38,-1.59603e-06,-3.40794e-12,6.10981e-38,0,-1.13787e-13,0,0,0,0,0,0,0,0,0,0,0,0,0,0,0,0,0,0,0,0,0,-0.375,3.11233,-1.5,3.94113e+12,0,0,2,0,0,0,0,0,0,0,0,1.9603e-19,0,0,0,0,0,0,0,0,0,2.5,0
10285,-3.3423e-12,6.11028e-38,-1.59603e-06,-3.40794e-12,6.10981e-38,0,-1.13787e-13,0,0,0,0,0,0,0,0,0,0,0,0,0,0,0,0,0,0,0,0,0,-0.375,3.11319,-1.5,3.94113e+12,0,0,2,0,0,0,0,0,0,0,0,1.9603e-19,0,0,0,0,0,0,0,0,0,2.5,0
10301,-3.3423e-12,6.11028e-38,-1.59603e-06,-3.40794e-12,6.10981e-38,0,-1.13788e-13,0,0,0,0,0,0,0,0,0,0,0,0,0,0,0,0,0,0,0,0,0,-0.375,3.11409,-1.5,3.94113e+12,0,0,2,0,0,0,0,0,0,0,0,1.9603e-19,0,0,0,0,0,0,0,0,0,2.5,0
10317,-3.3423e-12,6.11028e-38,-1.59603e-06,-3.40794e-12,6.10981e-38,0,-1.13788e-13,0,0,0,0,0,0,0,0,0,0,0,0,0,0,0,0,0,0,0,0,0,-0.375,3.11496,-1.5,3.94113e+12,0,0,2,0,0,0,0,0,0,0,0,1.9603e-19,0,0,0,0,0,0,0,0,0,2.5,0
10334,-3.3423e-12,6.11028e-38,-1.59603e-06,-3.40794e-12,6.10981e-38,0,-1.13789e-13,0,0,0,0,0,0,0,0,0,0,0,0,0,0,0,0,0,0,0,0,0,-0.375,3.11581,-1.5,3.94113e+12,0,0,2,0,0,0,0,0,0,0,0,1.9603e-19,0,0,0,0,0,0,0,0,0,2.5,0
10349,-3.3423e-12,6.11028e-38,-1.59603e-06,-3.40794e-12,6.10981e-38,0,-1.13789e-13,0,0,0,0,0,0,0,0,0,0,0,0,0,0,0,0,0,0,0,0,0,-0.375,3.11662,-1.5,3.94113e+12,0,0,2,0,0,0,0,0,0,0,0,1.9603e-19,0,0,0,0,0,0,0,0,0,2.5,0
10364,-3.3423e-12,6.11028e-38,-1.59603e-06,-3.40794e-12,6.10981e-38,0,-1.1379e-13,0,0,0,0,0,0,0,0,0,0,0,0,0,0,0,0,0,0,0,0,0,-0.375,3.11736,-1.5,3.94113e+12,0,0,2,0,0,0,0,0,0,0,0,1.9603e-19,0,0,0,0,0,0,0,0,0,2.5,0
10380,-3.3423e-12,6.11028e-38,-1.59603e-06,-3.40794e-12,6.10981e-38,0,-1.1379e-13,0,0,0,0,0,0,0,0,0,0,0,0,0,0,0,0,0,0,0,0,0,-0.375,3.11813,-1.5,3.94113e+12,0,0,2,0,0,0,0,0,0,0,0,1.9603e-19,0,0,0,0,0,0,0,0,0,2.5,0
10396,-3.3423e-12,6.11028e-38,-1.59603e-06,-3.40794e-12,6.10981e-38,0,-1.13791e-13,0,0,0,0,0,0,0,0,0,0,0,0,0,0,0,0,0,0,0,0,0,-0.375,3.11887,-1.5,3.94113e+12,0,0,2,0,0,0,0,0,0,0,0,1.9603e-19,0,0,0,0,0,0,0,0,0,2.5,0
10413,-3.3423e-12,6.11028e-38,-1.59603e-06,-3.40794e-12,6.10981e-38,0,-1.13792e-13,0,0,0,0,0,0,0,0,0,0,0,0,0,0,0,0,0,0,0,0,0,-0.375,3.11963,-1.5,3.94113e+12,0,0,2,0,0,0,0,0,0,0,0,1.9603e-19,0,0,0,0,0,0,0,0,0,2.5,0
10428,-3.3423e-12,6.11028e-38,-1.59603e-06,-3.40794e-12,6.10981e-38,0,-1.13792e-13,0,0,0,0,0,0,0,0,0,0,0,0,0,0,0,0,0,0,0,0,0,-0.375,3.12029,-1.5,3.94113e+12,0,0,2,0,0,0,0,0,0,0,0,1.9603e-19,0,0,0,0,0,0,0,0,0,2.5,0
10444,-3.3423e-12,6.11028e-38,-1.59603e-06,-3.40794e-12,6.10981e-38,0,-1.13793e-13,0,0,0,0,0,0,0,0,0,0,0,0,0,0,0,0,0,0,0,0,0,-0.375,3.12096,-1.5,3.94113e+12,0,0,2,0,0,0,0,0,0,0,0,1.9603e-19,0,0,0,0,0,0,0,0,0,2.5,0
10460,-3.3423e-12,6.11028e-38,-1.59603e-06,-3.40794e-12,6.10981e-38,0,-1.13793e-13,0,0,0,0,0,0,0,0,0,0,0,0,0,0,0,0,0,0,0,0,0,-0.375,3.12161,-1.5,3.94113e+12,0,0,2,0,0,0,0,0,0,0,0,1.9603e-19,0,0,0,0,0,0,0,0,0,2.5,0
10476,-3.3423e-12,6.11028e-38,-1.59603e-06,-3.40794e-12,6.10981e-38,0,-1.13794e-13,0,0,0,0,0,0,0,0,0,0,0,0,0,0,0,0,0,0,0,0,0,-0.375,3.12225,-1.5,3.94113e+12,0,0,2,0,0,0,0,0,0,0,0,1.9603e-19,0,0,0,0,0,0,0,0,0,2.5,0
10491,-3.3423e-12,6.11028e-38,-1.59603e-06,-3.40794e-12,6.10981e-38,0,-1.13794e-13,0,0,0,0,0,0,0,0,0,0,0,0,0,0,0,0,0,0,0,0,0,-0.375,3.12282,-1.5,3.94113e+12,0,0,2,0,0,0,0,0,0,0,0,1.9603e-19,0,0,0,0,0,0,0,0,0,2.5,0
10507,-3.3423e-12,6.11028e-38,-1.59603e-06,-3.40794e-12,6.10981e-38,0,-1.13795e-13,0,0,0,0,0,0,0,0,0,0,0,0,0,0,0,0,0,0,0,0,0,-0.375,3.12341,-1.5,3.94113e+12,0,0,2,0,0,0,0,0,0,0,0,1.9603e-19,0,0,0,0,0,0,0,0,0,2.5,0
10524,-3.3423e-12,6.11028e-38,-1.59603e-06,-3.40794e-12,6.10981e-38,0,-1.13795e-13,0,0,0,0,0,0,0,0,0,0,0,0,0,0,0,0,0,0,0,0,0,-0.375,3.12402,-1.5,3.94113e+12,0,0,2,0,0,0,0,0,0,0,0,1.9603e-19,0,0,0,0,0,0,0,0,0,2.5,0
10538,-3.3423e-12,6.11028e-38,-1.59603e-06,-3.40794e-12,6.10981e-38,0,-1.13796e-13,0,0,0,0,0,0,0,0,0,0,0,0,0,0,0,0,0,0,0,0,0,-0.375,3.12451,-1.5,3.94113e+12,0,0,2,0,0,0,0,0,0,0,0,1.9603e-19,0,0,0,0,0,0,0,0,0,2.5,0
10551,-3.3423e-12,6.11028e-38,-1.59603e-06,-3.40794e-12,6.10981e-38,0,-1.13796e-13,0,0,0,0,0,0,0,0,0,0,0,0,0,0,0,0,0,0,0,0,0,-0.375,3.12495,-1.5,3.94113e+12,0,0,2,0,0,0,0,0,0,0,0,1.9603e-19,0,0,0,0,0,0,0,0,0,2.5,0
10566,-3.3423e-12,6.11028e-38,-1.59603e-06,-3.40794e-12,6.10981e-38,0,-1.13797e-13,0,0,0,0,0,0,0,0,0,0,0,0,0,0,0,0,0,0,0,0,0,-0.375,3.12544,-1.5,3.94113e+12,0,0,2,0,0,0,0,0,0,0,0,1.9603e-19,0,0,0,0,0,0,0,0,0,2.5,0
10582,-3.3423e-12,6.11028e-38,-1.59603e-06,-3.40794e-12,6.10981e-38,0,-1.13798e-13,0,0,0,0,0,0,0,0,0,0,0,0,0,0,0,0,0,0,0,0,0,-0.375,3.12595,-1.5,3.94113e+12,0,0,2,0,0,0,0,0,0,0,0,1.9603e-19,0,0,0,0,0,0,0,0,0,2.5,0
10599,-3.3423e-12,6.11028e-38,-1.59603e-06,-3.40794e-12,6.10981e-38,0,-1.13798e-13,0,0,0,0,0,0,0,0,0,0,0,0,0,0,0,0,0,0,0,0,0,-0.375,3.12648,-1.5,3.94113e+12,0,0,2,0,0,0,0,0,0,0,0,1.9603e-19,0,0,0,0,0,0,0,0,0,2.5,0
10614,-3.3423e-12,6.11028e-38,-1.59603e-06,-3.40794e-12,6.10981e-38,0,-1.13799e-13,0,0,0,0,0,0,0,0,0,0,0,0,0,0,0,0,0,0,0,0,0,-0.375,3.12693,-1.5,3.94113e+12,0,0,2,0,0,0,0,0,0,0,0,1.9603e-19,0,0,0,0,0,0,0,0,0,2.5,0
10630,-3.3423e-12,6.11028e-38,-1.59603e-06,-3.40794e-12,6.10981e-38,0,-1.13799e-13,0,0,0,0,0,0,0,0,0,0,0,0,0,0,0,0,0,0,0,0,0,-0.375,3.12736,-1.5,3.94113e+12,0,0,2,0,0,0,0,0,0,0,0,1.9603e-19,0,0,0,0,0,0,0,0,0,2.5,0
10645,-3.3423e-12,6.11028e-38,-1.59603e-06,-3.40794e-12,6.10981e-38,0,-1.138e-13,0,0,0,0,0,0,0,0,0,0,0,0,0,0,0,0,0,0,0,0,0,-0.375,3.12781,-1.5,3.94113e+12,0,0,2,0,0,0,0,0,0,0,0,1.9603e-19,0,0,0,0,0,0,0,0,0,2.5,0
10660,-3.3423e-12,6.11028e-38,-1.59603e-06,-3.40794e-12,6.10981e-38,0,-1.138e-13,0,0,0,0,0,0,0,0,0,0,0,0,0,0,0,0,0,0,0,0,0,-0.375,3.12822,-1.5,3.94113e+12,0,0,2,0,0,0,0,0,0,0,0,1.9603e-19,0,0,0,0,0,0,0,0,0,2.5,0
10678,-3.3423e-12,6.11028e-38,-1.59603e-06,-3.40794e-12,6.10981e-38,0,-1.13801e-13,0,0,0,0,0,0,0,0,0,0,0,0,0,0,0,0,0,0,0,0,0,-0.375,3.1287,-1.5,3.94113e+12,0,0,2,0,0,0,0,0,0,0,0,1.9603e-19,0,0,0,0,0,0,0,0,0,2.5,0
10694,-3.3423e-12,6.11028e-38,-1.59603e-06,-3.40794e-12,6.10981e-38,0,-1.13801e-13,0,0,0,0,0,0,0,0,0,0,0,0,0,0,0,0,0,0,0,0,0,-0.375,3.12911,-1.5,3.94113e+12,0,0,2,0,0,0,0,0,0,0,0,1.9603e-19,0,0,0,0,0,0,0,0,0,2.5,0
10712,-3.3423e-12,6.11028e-38,-1.59603e-06,-3.40794e-12,6.10981e-38,0,-1.13802e-13,0,0,0,0,0,0,0,0,0,0,0,0,-1368604304,314493944,-1368604304,314493944,-42752180,-1368604304,-1368604256,-1368604256,0,-0.375,3.12953,-1.5,3.94113e+12,0,0,2,0,0,0,0,0,0,0,0,0,0,0,0,0,0,0,0,0,0,2.5,0
10731,-3.3423e-12,6.11028e-38,-1.59603e-06,-3.40794e-12,6.10981e-38,0,-1.13802e-13,0,0,0,0,0,0,0,0,0,0,0,0,-1368604304,314493944,-1368604304,314493944,-42752180,-1368604304,-1368604256,-1368604256,0,-0.375,3.12998,-1.5,3.94113e+12,0,0,2,0,0,0,0,0,0,0,0,0,0,0,0,0,0,0,0,0,0,2.5,0
10748,-3.3423e-12,6.11028e-38,-1.59603e-06,-3.40794e-12,6.10981e-38,0,-1.13803e-13,0,0,-4.8613,-5.48514,1.45512,0,0,0,0,0,0,0,746,-49,746,-49,837,-93,734,39,0,-0.375,3.13039,-1.5,3.94113e+12,0,0,2,0,0,0,0,0,0,0,0,13596,0,0,0,0,0,0,0,0,0,2.5,0
10763,-3.3423e-12,6.11028e-38,-1.59603e-06,-3.40794e-12,6.10981e-38,0,-1.13803e-13,0,0,-4.8613,-5.48514,1.45512,0,0,0,0,0,0,0,746,-49,746,-49,837,-93,734,39,0,-0.375,3.13073,-1.5,3.94113e+12,0,0,2,0,0,0,0,0,0,0,0,13596,0,0,0,0,0,0,0,0,0,2.5,0
10778,-3.3423e-12,6.11028e-38,-1.59603e-06,-3.40794e-12,6.10981e-38,0,-1.13804e-13,0,0,-4.8613,-5.48514,1.45512,0,0,0,0,0,0,0,746,-49,746,-49,837,-93,734,39,0,-0.375,3.13105,-1.5,3.94113e+12,0,0,2,0,0,0,0,0,0,0,0,13596,0,0,0,0,0,0,0,0,0,2.5,0
10794,-3.3423e-12,6.11028e-38,-1.59603e-06,-3.40794e-12,6.10981e-38,0,-1.13805e-13,0,0,-4.8613,-5.48514,1.45512,0,0,0,0,0,0,0,746,-49,746,-49,837,-93,734,39,0,-0.375,3.13138,-1.5,3.94113e+12,0,0,2,0,0,0,0,0,0,0,0,13596,0,0,0,0,0,0,0,0,0,2.5,0
10813,-3.3423e-12,6.11028e-38,-1.59603e-06,-3.40794e-12,6.10981e-38,0,-1.13805e-13,0,0,-4.8613,-5.48514,1.45512,0,0,0,0,0,0,0,746,-49,746,-49,837,-93,734,39,0,-0.375,3.13176,-1.5,3.94113e+12,0,0,2,0,0,0,0,0,0,0,0,13596,0,0,0,0,0,0,0,0,0,2.5,0
10827,-3.3423e-12,6.11028e-38,-1.59603e-06,-3.40794e-12,6.10981e-38,0,-1.13806e-13,0,0,-4.8613,-5.48514,1.45512,0,0,0,0,0,0,0,746,-49,746,-49,837,-93,734,39,0,-0.375,3.13204,-1.5,3.94113e+12,0,0,2,0,0,0,0,0,0,0,0,13596,0,0,0,0,0,0,0,0,0,2.5,0
10841,-3.3423e-12,6.11028e-38,-1.59603e-06,-3.40794e-12,6.10981e-38,0,-1.13806e-13,0,0,-4.8613,-5.48514,1.45512,0,0,0,0,0,0,0,746,-49,746,-49,837,-93,734,39,0,-0.375,3.1323,-1.5,3.94113e+12,0,0,2,0,0,0,0,0,0,0,0,13596,0,0,0,0,0,0,0,0,0,2.5,0
10856,-3.3423e-12,6.11028e-38,-1.59603e-06,-3.40794e-12,6.10981e-38,0,-1.13807e-13,0,0,-4.8613,-5.48514,1.45512,0,0,0,0,0,0,0,746,-49,746,-49,837,-93,734,39,0,-0.375,3.13258,-1.5,3.94113e+12,0,0,2,0,0,0,0,0,0,0,0,13596,0,0,0,0,0,0,0,0,0,2.5,0
10872,-3.3423e-12,6.11028e-38,-1.59603e-06,-3.40794e-12,6.10981e-38,0,-1.13807e-13,0,0,-3.7343,0.0598823,0.632864,0,0,0,0,0,0,0,255,-76,255,-76,375,-69,253,49,0,-0.375,3.13284,-1.5,3.94113e+12,0,0,2,0,0,0,0,0,0,0,0,15738,0,0,0,0,0,0,0,0,0,2.5,0
10887,-3.3423e-12,6.11028e-38,-1.59603e-06,-3.40794e-12,6.10981e-38,0,-1.13808e-13,0,0,-3.7343,0.0598823,0.632864,0,0,0,0,0,0,0,255,-76,255,-76,375,-69,253,49,0,-0.375,3.1331,-1.5,3.94113e+12,0,0,2,0,0,0,0,0,0,0,0,15738,0,0,0,0,0,0,0,0,0,2.5,0
10903,-3.3423e-12,6.11028e-38,-1.59603e-06,-3.40794e-12,6.10981e-38,0,-1.13808e-13,0,0,-3.73228,0.0664239,0.545589,0,0,0,0,0,0,0,256,-66,256,-66,375,-59,250,57,0,-0.375,3.13337,-1.5,3.94113e+12,0,0,2,0,0,0,0,0,0,0,0,16125,0,0,0,0,0,0,0,0,0,2.5,0
10918,-3.3423e-12,6.11028e-38,-1.59603e-06,-3.40794e-12,6.10981e-38,0,-1.13809e-13,0,0,-3.73228,0.0664239,0.545589,0,0,0,0,0,0,0,256,-66,256,-66,375,-59,250,57,0,-0.375,3.13362,-1.5,3.94113e+12,0,0,2,0,0,0,0,0,0,0,0,16125,0,0,0,0,0,0,0,0,0,2.5,0
10933,-3.3423e-12,6.11028e-38,-1.59603e-06,-3.40794e-12,6.10981e-38,0,-1.13809e-13,0,0,-3.73228,0.0664239,0.545589,0,0,0,0,0,0,0,256,-66,256,-66,375,-59,250,57,0,-0.375,3.13385,-1.5,3.94113e+12,0,0,2,0,0,0,0,0,0,0,0,16125,0,0,0,0,0,0,0,0,0,2.5,0
10949,-3.3423e-12,6.11028e-38,-1.59603e-06,-3.40794e-12,6.10981e-38,0,-1.1381e-13,0,0,-3.74366,0.0532509,0.54237,0,0,0,0,0,0,0,257,-66,257,-66,375,-59,254,60,0,-0.375,3.13408,-1.5,3.94113e+12,0,0,2,0,0,0,0,0,0,0,0,15730,0,0,0,0,0,0,0,0,0,2.5,0
10964,-3.3423e-12,6.11028e-38,-1.59603e-06,-3.40794e-12,6.10981e-38,0,-1.13811e-13,0,0,-3.74366,0.0532509,0.54237,0,0,0,0,0,0,0,257,-66,257,-66,375,-59,254,60,0,-0.375,3.13432,-1.5,3.94113e+12,0,0,2,0,0,0,0,0,0,0,0,15730,0,0,0,0,0,0,0,0,0,2.5,0
10980,-3.3423e-12,6.11028e-38,-1.59603e-06,-3.40794e-12,6.10981e-38,0,-1.13811e-13,0,0,-3.75674,0.0681249,0.52599,0,0,0,0,0,0,0,256,-59,256,-59,374,-57,250,62,0,-0.375,3.13455,-1.5,3.94113e+12,0,0,2,0,0,0,0,0,0,0,0,15252,0,0,0,0,0,0,0,0,0,2.5,0
10995,-3.3423e-12,6.11028e-38,-1.59603e-06,-3.40794e-12,6.10981e-38,0,-1.13812e-13,0,0,-3.75674,0.0681249,0.52599,0,0,0,0,0,0,0,256,-59,256,-59,374,-57,250,62,0,-0.375,3.13476,-1.5,3.94113e+12,0,0,2,0,0,0,0,0,0,0,0,15252,0,0,0,0,0,0,0,0,0,2.5,0
11013,-3.3423e-12,6.11028e-38,-1.59603e-06,-3.40794e-12,6.10981e-38,0,-1.13812e-13,0,0,-3.80962,0.0641671,0.551676,0,0,0,0,0,0,0,256,-59,256,-59,373,-55,253,62,0,-0.375,3.13499,-1.5,3.94113e+12,0,0,2,0,0,0,0,0,0,0,0,14760,0,0,0,0,0,0,0,0,0,2.5,0
11028,-3.3423e-12,6.11028e-38,-1.59603e-06,-3.40794e-12,6.10981e-38,0,-1.13813e-13,0,0,-3.80962,0.0641671,0.551676,0,0,0,0,0,0,0,256,-59,256,-59,373,-55,253,62,0,-0.375,3.1352,-1.5,3.94113e+12,0,0,2,0,0,0,0,0,0,0,0,14760,0,0,0,0,0,0,0,0,0,2.5,0
11044,-3.3423e-12,6.11028e-38,-1.59603e-06,-3.40794e-12,6.10981e-38,0,-1.13813e-13,0,0,-3.7445,0.0348914,0.513631,0,0,0,0,0,0,0,256,-61,256,-61,380,-55,257,61,0,-0.375,3.13539,-1.5,3.94113e+12,0,0,2,0,0,0,0,0,0,0,0,15872,0,0,0,0,0,0,0,0,0,2.5,0
11059,-3.3423e-12,6.11028e-38,-1.59603e-06,-3.40794e-12,6.10981e-38,0,-1.13814e-13,0,0,-3.7445,0.0348914,0.513631,0,0,0,0,0,0,0,256,-61,256,-61,380,-55,257,61,0,-0.375,3.13558,-1.5,3.94113e+12,0,0,2,0,0,0,0,0,0,0,0,15872,0,0,0,0,0,0,0,0,0,2.5,0
11075,-3.3423e-12,6.11028e-38,-1.59603e-06,-3.40794e-12,6.10981e-38,0,-1.13814e-13,0,0,-3.77002,0.0538748,0.512453,0,0,0,0,0,0,0,256,-59,256,-59,376,-53,254,64,0,-0.375,3.13577,-1.5,3.94113e+12,0,0,2,0,0,0,0,0,0,0,0,15372,0,0,0,0,0,0,0,0,0,2.5,0
11088,-3.3423e-12,6.11028e-38,-1.59603e-06,-3.40794e-12,6.10981e-38,0,-1.13815e-13,0,0,-3.77002,0.0538748,0.512453,0,0,0,0,0,0,0,256,-59,256,-59,376,-53,254,64,0,-0.375,3.13592,-1.5,3.94113e+12,0,0,2,0,0,0,0,0,0,0,0,15372,0,0,0,0,0,0,0,0,0,2.5,0
11101,-3.3423e-12,6.11028e-38,-1.59603e-06,-3.40794e-12,6.10981e-38,0,-1.13815e-13,0,0,-3.77002,0.0538748,0.512453,0,0,0,0,0,0,0,256,-59,256,-59,376,-53,254,64,0,-0.375,3.13607,-1.5,3.94113e+12,0,0,2,0,0,0,0,0,0,0,0,15372,0,0,0,0,0,0,0,0,0,2.5,0
11117,-3.3423e-12,6.11028e-38,-1.59603e-06,-3.40794e-12,6.10981e-38,0,-1.13816e-13,0,0,-3.76507,0.0579915,0.511528,0,0,0,0,0,0,0,256,-61,256,-61,374,-53,254,64,0,-0.375,3.13623,-1.5,3.94113e+12,0,0,2,0,0,0,0,0,0,0,0,15480,0,0,0,0,0,0,0,0,0,2.5,0
11132,-3.3423e-12,6.11028e-38,-1.59603e-06,-3.40794e-12,6.10981e-38,0,-1.13817e-13,0,0,-3.76507,0.0579915,0.511528,0,0,0,0,0,0,0,256,-61,256,-61,374,-53,254,64,0,-0.375,3.1364,-1.5,3.94113e+12,0,0,2,0,0,0,0,0,0,0,0,15480,0,0,0,0,0,0,0,0,0,2.5,0
11147,-3.3423e-12,6.11028e-38,-1.59603e-06,-3.40794e-12,6.10981e-38,0,-1.13817e-13,0,0,-3.77145,0.0580161,0.50379,0,0,0,0,0,0,0,256,-59,256,-59,374,-52,254,64,0,-0.375,3.13656,-1.5,3.94113e+12,0,0,2,0,0,0,0,0,0,0,0,15480,0,0,0,0,0,0,0,0,0,2.5,0
11163,-3.3423e-12,6.11028e-38,-1.59603e-06,-3.40794e-12,6.10981e-38,0,-1.13818e-13,0,0,-3.77145,0.0580161,0.50379,0,0,0,0,0,0,0,256,-59,256,-59,374,-52,254,64,0,-0.375,3.13672,-1.5,3.94113e+12,0,0,2,0,0,0,0,0,0,0,0,15480,0,0,0,0,0,0,0,0,0,2.5,0
11178,-3.3423e-12,6.11028e-38,-1.59603e-06,-3.40794e-12,6.10981e-38,0,-1.13818e-13,0,0,-3.78702,0.0584789,0.517472,0,0,0,0,0,0,0,256,-59,256,-59,374,-52,254,64,0,-0.375,3.13686,-1.5,3.94113e+12,0,0,2,0,0,0,0,0,0,0,0,15240,0,0,0,0,0,0,0,0,0,2.5,0
11193,-3.3423e-12,6.11028e-38,-1.59603e-06,-3.40794e-12,6.10981e-38,0,-1.13819e-13,0,0,-3.78702,0.0584789,0.517472,0,0,0,0,0,0,0,256,-59,256,-59,374,-52,254,64,0,-0.375,3.137,-1.5,3.94113e+12,0,0,2,0,0,0,0,0,0,0,0,15240,0,0,0,0,0,0,0,0,0,2.5,0
11209,-3.3423e-12,6.11028e-38,-1.59603e-06,-3.40794e-12,6.10981e-38,0,-1.13819e-13,0,0,-3.76739,0.0627424,0.506498,0,0,0,0,0,0,0,256,-59,256,-59,374,-52,252,64,0,-0.375,3.13715,-1.5,3.94113e+12,0,0,2,0,0,0,0,0,0,0,0,15494,0,0,0,0,0,0,0,0,0,2.5,0
11224,-3.3423e-12,6.11028e-38,-1.59603e-06,-3.40794e-12,6.10981e-38,0,-1.1382e-13,0,0,-3.76739,0.0627424,0.506498,0,0,0,0,0,0,0,256,-59,256,-59,374,-52,252,64,0,-0.375,3.13728,-1.5,3.94113e+12,0,0,2,0,0,0,0,0,0,0,0,15494,0,0,0,0,0,0,0,0,0,2.5,0
11239,-3.3423e-12,6.11028e-38,-1.59603e-06,-3.40794e-12,6.10981e-38,0,-1.1382e-13,0,0,-3.74815,0.0690667,0.502451,0,0,0,0,0,0,0,256,-61,256,-61,373,-52,250,64,0,-0.375,3.13741,-1.5,3.94113e+12,0,0,2,0,0,0,0,0,0,0,0,15744,0,0,0,0,0,0,0,0,0,2.5,0
11255,-3.3423e-12,6.11028e-38,-1.59603e-06,-3.40794e-12,6.10981e-38,0,-1.13821e-13,0,0,-3.74815,0.0690667,0.502451,0,0,0,0,0,0,0,256,-61,256,-61,373,-52,250,64,0,-0.375,3.13753,-1.5,3.94113e+12,0,0,2,0,0,0,0,0,0,0,0,15744,0,0,0,0,0,0,0,0,0,2.5,0
11270,-3.3423e-12,6.11028e-38,-1.59603e-06,-3.40794e-12,6.10981e-38,0,-1.13821e-13,0,0,-3.76945,0.0560138,0.505244,0,0,0,0,0,0,0,257,-59,257,-59,374,-52,253,65,0,-0.375,3.13766,-1.5,3.94113e+12,0,0,2,0,0,0,0,0,0,0,0,15367,0,0,0,0,0,0,0,0,0,2.5,0
11285,-3.3423e-12,6.11028e-38,-1.59603e-06,-3.40794e-12,6.10981e-38,0,-1.13822e-13,0,0,-3.76945,0.0560138,0.505244,0,0,0,0,0,0,0,257,-59,257,-59,374,-52,253,65,0,-0.375,3.13777,-1.5,3.94113e+12,0,0,2,0,0,0,0,0,0,0,0,15367,0,0,0,0,0,0,0,0,0,2.5,0
11301,-3.3423e-12,6.11028e-38,-1.59603e-06,-3.40794e-12,6.10981e-38,0,-1.13822e-13,0,0,-3.76945,0.0560138,0.505244,0,0,0,0,0,0,0,257,-59,257,-59,374,-52,253,65,0,-0.375,3.13789,-1.5,3.94113e+12,0,0,2,0,0,0,0,0,0,0,0,15367,0,0,0,0,0,0,0,0,0,2.5,0
11316,-3.3423e-12,6.11028e-38,-1.59603e-06,-3.40794e-12,6.10981e-38,0,-1.13823e-13,0,0,-5.23342,-5.36244,0.772562,0,0,0,0,0,0,0,701,26,701,26,785,-13,702,104,0,-0.375,3.13801,-1.5,3.94113e+12,0,0,2,0,0,0,0,0,0,0,0,9828,0,0,0,0,0,0,0,0,0,2.5,0
11329,-3.3423e-12,6.11028e-38,-1.59603e-06,-3.40794e-12,6.10981e-38,0,-1.13824e-13,0,0,-5.23342,-5.36244,0.772562,0,0,0,0,0,0,0,701,26,701,26,785,-13,702,104,0,-0.375,3.1381,-1.5,3.94113e+12,0,0,2,0,0,0,0,0,0,0,0,9828,0,0,0,0,0,0,0,0,0,2.5,0
11343,-3.3423e-12,6.11028e-38,-1.59603e-06,-3.40794e-12,6.10981e-38,0,-1.13824e-13,0,0,-3.77356,0.0690649,0.518703,0,0,0,0,0,0,0,256,-61,256,-61,374,-53,252,61,0,-0.375,3.13819,-1.5,3.94113e+12,0,0,2,0,0,0,0,0,0,0,0,15982,0,0,0,0,0,0,0,0,0,2.5,0
11358,-3.3423e-12,6.11028e-38,-1.59603e-06,-3.40794e-12,6.10981e-38,0,-1.13825e-13,0,0,-3.77356,0.0690649,0.518703,0,0,0,0,0,0,0,256,-61,256,-61,374,-53,252,61,0,-0.375,3.13829,-1.5,3.94113e+12,0,0,2,0,0,0,0,0,0,0,0,15982,0,0,0,0,0,0,0,0,0,2.5,0
11374,-3.3423e-12,6.11028e-38,-1.59603e-06,-3.40794e-12,6.10981e-38,0,-1.13825e-13,0,0,-3.77348,0.0955279,0.526189,0,0,0,0,0,0,0,253,-59,253,-59,372,-55,248,62,0,-0.375,3.1384,-1.5,3.94113e+12,0,0,2,0,0,0,0,0,0,0,0,15500,0,0,0,0,0,0,0,0,0,2.5,0
11391,-3.3423e-12,6.11028e-38,-1.59603e-06,-3.40794e-12,6.10981e-38,0,-1.13826e-13,0,0,-3.77348,0.0955279,0.526189,0,0,0,0,0,0,0,253,-59,253,-59,372,-55,248,62,0,-0.375,3.13851,-1.5,3.94113e+12,0,0,2,0,0,0,0,0,0,0,0,15500,0,0,0,0,0,0,0,0,0,2.5,0
11407,-3.3423e-12,6.11028e-38,-1.59603e-06,-3.40794e-12,6.10981e-38,0,-1.13826e-13,0,0,-3.73564,0.11901,0.51323,0,0,0,0,0,0,0,250,-63,250,-63,369,-55,245,62,0,-0.375,3.1386,-1.5,3.94113e+12,0,0,2,0,0,0,0,0,0,0,0,15996,0,0,0,0,0,0,0,0,0,2.5,0
11422,-3.3423e-12,6.11028e-38,-1.59603e-06,-3.40794e-12,6.10981e-38,0,-1.13827e-13,0,0,-3.73564,0.11901,0.51323,0,0,0,0,0,0,0,250,-63,250,-63,369,-55,245,62,0,-0.375,3.13869,-1.5,3.94113e+12,0,0,2,0,0,0,0,0,0,0,0,15996,0,0,0,0,0,0,0,0,0,2.5,0
11438,-3.3423e-12,6.11028e-38,-1.59603e-06,-3.40794e-12,6.10981e-38,0,-1.13827e-13,0,0,-3.74284,0.139838,0.513102,0,0,0,0,0,0,0,247,-61,247,-61,366,-55,243,61,0,-0.375,3.13878,-1.5,3.94113e+12,0,0,2,0,0,0,0,0,0,0,0,15744,0,0,0,0,0,0,0,0,0,2.5,0
11453,-3.3423e-12,6.11028e-38,-1.59603e-06,-3.40794e-12,6.10981e-38,0,-1.13828e-13,0,0,-3.74284,0.139838,0.513102,0,0,0,0,0,0,0,247,-61,247,-61,366,-55,243,61,0,-0.375,3.13887,-1.5,3.94113e+12,0,0,2,0,0,0,0,0,0,0,0,15744,0,0,0,0,0,0,0,0,0,2.5,0
11469,-3.3423e-12,6.11028e-38,-1.59603e-06,-3.40794e-12,6.10981e-38,0,-1.13828e-13,0,0,-3.80859,0.148955,0.537329,0,0,0,0,0,0,0,247,-59,247,-59,366,-51,243,61,0,-0.375,3.13895,-1.5,3.94113e+12,0,0,2,0,0,0,0,0,0,0,0,15498,0,0,0,0,0,0,0,0,0,2.5,0
11484,-3.3423e-12,6.11028e-38,-1.59603e-06,-3.40794e-12,6.10981e-38,0,-1.13829e-13,0,0,-3.80859,0.148955,0.537329,0,0,0,0,0,0,0,247,-59,247,-59,366,-51,243,61,0,-0.375,3.13903,-1.5,3.94113e+12,0,0,2,0,0,0,0,0,0,0,0,15498,0,0,0,0,0,0,0,0,0,2.5,0
11500,-3.3423e-12,6.11028e-38,-1.59603e-06,-3.40794e-12,6.10981e-38,0,-1.1383e-13,0,0,-3.79802,0.173864,0.533219,0,0,0,0,0,0,0,244,-61,244,-61,362,-51,241,62,0,-0.375,3.13911,-1.5,3.94113e+12,0,0,2,0,0,0,0,0,0,0,0,15488,0,0,0,0,0,0,0,0,0,2.5,0
11515,-3.3423e-12,6.11028e-38,-1.59603e-06,-3.40794e-12,6.10981e-38,0,-1.1383e-13,0,0,-3.79802,0.173864,0.533219,0,0,0,0,0,0,0,244,-61,244,-61,362,-51,241,62,0,-0.375,3.13919,-1.5,3.94113e+12,0,0,2,0,0,0,0,0,0,0,0,15488,0,0,0,0,0,0,0,0,0,2.5,0
11530,-3.3423e-12,6.11028e-38,-1.59603e-06,-3.40794e-12,6.10981e-38,0,-1.13831e-13,0,0,-3.79802,0.173864,0.533219,0,0,0,0,0,0,0,244,-61,244,-61,362,-51,241,62,0,-0.375,3.13926,-1.5,3.94113e+12,0,0,2,0,0,0,0,0,0,0,0,15488,0,0,0,0,0,0,0,0,0,2.5,0
11546,-3.3423e-12,6.11028e-38,-1.59603e-06,-3.40794e-12,6.10981e-38,0,-1.13831e-13,0,0,-3.72912,0.182392,0.501097,0,0,0,0,0,0,0,242,-61,242,-61,362,-53,237,62,0,-0.375,3.13933,-1.5,3.94113e+12,0,0,2,0,0,0,0,0,0,0,0,15875,0,0,0,0,0,0,0,0,0,2.5,0
11562,-3.3423e-12,6.11028e-38,-1.59603e-06,-3.40794e-12,6.10981e-38,0,-1.13832e-13,0,0,-3.72912,0.182392,0.501097,0,0,0,0,0,0,0,242,-61,242,-61,362,-53,237,62,0,-0.375,3.1394,-1.5,3.94113e+12,0,0,2,0,0,0,0,0,0,0,0,15875,0,0,0,0,0,0,0,0,0,2.5,0
11577,-3.3423e-12,6.11028e-38,-1.59603e-06,-3.40794e-12,6.10981e-38,0,-1.13832e-13,0,0,-3.78422,0.208168,0.522596,0,0,0,0,0,0,0,240,-60,240,-60,360,-53,238,62,0,-0.375,3.13947,-1.5,3.94113e+12,0,0,2,0,0,0,0,0,0,0,0,15738,0,0,0,0,0,0,0,0,0,2.5,0
11591,-3.3423e-12,6.11028e-38,-1.59603e-06,-3.40794e-12,6.10981e-38,0,-1.13833e-13,0,0,-3.78422,0.208168,0.522596,0,0,0,0,0,0,0,240,-60,240,-60,360,-53,238,62,0,-0.375,3.13952,-1.5,3.94113e+12,0,0,2,0,0,0,0,0,0,0,0,15738,0,0,0,0,0,0,0,0,0,2.5,0
11604,-3.3423e-12,6.11028e-38,-1.59603e-06,-3.40794e-12,6.10981e-38,0,-1.13833e-13,0,0,-3.75227,0.21795,0.509582,0,0,0,0,0,0,0,239,-60,239,-60,360,-53,234,62,0,-0.375,3.13958,-1.5,3.94113e+12,0,0,2,0,0,0,0,0,0,0,0,16002,0,0,0,0,0,0,0,0,0,2.5,0
11619,-3.3423e-12,6.11028e-38,-1.59603e-06,-3.40794e-12,6.10981e-38,0,-1.13834e-13,0,0,-3.75227,0.21795,0.509582,0,0,0,0,0,0,0,239,-60,239,-60,360,-53,234,62,0,-0.375,3.13964,-1.5,3.94113e+12,0,0,2,0,0,0,0,0,0,0,0,16002,0,0,0,0,0,0,0,0,0,2.5,0
11635,-3.3423e-12,6.11028e-38,-1.59603e-06,-3.40794e-12,6.10981e-38,0,-1.13834e-13,0,0,-3.75227,0.21795,0.509582,0,0,0,0,0,0,0,239,-60,239,-60,360,-53,234,62,0,-0.375,3.1397,-1.5,3.94113e+12,0,0,2,0,0,0,0,0,0,0,0,16002,0,0,0,0,0,0,0,0,0,2.5,0
11651,-3.3423e-12,6.11028e-38,-1.59603e-06,-3.40794e-12,6.10981e-38,0,-1.13835e-13,0,0,-3.8013,0.243245,0.532946,0,0,0,0,0,0,0,237,-60,237,-60,355,-51,233,60,0,-0.375,3.13976,-1.5,3.94113e+12,0,0,2,0,0,0,0,0,0,0,0,15738,0,0,0,0,0,0,0,0,0,2.5,0
11666,-3.3423e-12,6.11028e-38,-1.59603e-06,-3.40794e-12,6.10981e-38,0,-1.13835e-13,0,0,-3.8013,0.243245,0.532946,0,0,0,0,0,0,0,237,-60,237,-60,355,-51,233,60,0,-0.375,3.13981,-1.5,3.94113e+12,0,0,2,0,0,0,0,0,0,0,0,15738,0,0,0,0,0,0,0,0,0,2.5,0
11681,-3.3423e-12,6.11028e-38,-1.59603e-06,-3.40794e-12,6.10981e-38,0,-1.13836e-13,0,0,-3.76854,0.255674,0.516199,0,0,0,0,0,0,0,236,-60,236,-60,352,-54,231,62,0,-0.375,3.13986,-1.5,3.94113e+12,0,0,2,0,0,0,0,0,0,0,0,15609,0,0,0,0,0,0,0,0,0,2.5,0
11697,-3.3423e-12,6.11028e-38,-1.59603e-06,-3.40794e-12,6.10981e-38,0,-1.13837e-13,0,0,-3.76854,0.255674,0.516199,0,0,0,0,0,0,0,236,-60,236,-60,352,-54,231,62,0,-0.375,3.13992,-1.5,3.94113e+12,0,0,2,0,0,0,0,0,0,0,0,15609,0,0,0,0,0,0,0,0,0,2.5,0
11714,-3.3423e-12,6.11028e-38,-1.59603e-06,-3.40794e-12,6.10981e-38,0,-1.13837e-13,0,0,-3.75857,0.268748,0.522141,0,0,0,0,0,0,0,234,-62,234,-62,352,-54,229,62,0,-0.375,3.13997,-1.5,3.94113e+12,0,0,2,0,0,0,0,0,0,0,0,15744,0,0,0,0,0,0,0,0,0,2.5,0
11729,-3.3423e-12,6.11028e-38,-1.59603e-06,-3.40794e-12,6.10981e-38,0,-1.13838e-13,0,0,-3.75857,0.268748,0.522141,0,0,0,0,0,0,0,234,-62,234,-62,352,-54,229,62,0,-0.375,3.14002,-1.5,3.94113e+12,0,0,2,0,0,0,0,0,0,0,0,15744,0,0,0,0,0,0,0,0,0,2.5,0
11745,-3.3423e-12,6.11028e-38,-1.59603e-06,-3.40794e-12,6.10981e-38,0,-1.13838e-13,0,0,-3.75863,0.273073,0.517494,0,0,0,0,0,0,0,233,-62,233,-62,352,-53,229,62,0,-0.375,3.14007,-1.5,3.94113e+12,0,0,2,0,0,0,0,0,0,0,0,15867,0,0,0,0,0,0,0,0,0,2.5,0
11761,-3.3423e-12,6.11028e-38,-1.59603e-06,-3.40794e-12,6.10981e-38,0,-1.13839e-13,0,0,-3.75863,0.273073,0.517494,0,0,0,0,0,0,0,233,-62,233,-62,352,-53,229,62,0,-0.375,3.14012,-1.5,3.94113e+12,0,0,2,0,0,0,0,0,0,0,0,15867,0,0,0,0,0,0,0,0,0,2.5,0
11776,-3.3423e-12,6.11028e-38,-1.59603e-06,-3.40794e-12,6.10981e-38,0,-1.13839e-13,0,0,-3.78287,0.272566,0.540721,0,0,0,0,0,0,0,233,-62,233,-62,352,-54,230,60,0,-0.375,3.14016,-1.5,3.94113e+12,0,0,2,0,0,0,0,0,0,0,0,15616,0,0,0,0,0,0,0,0,0,2.5,0
11792,-3.3423e-12,6.11028e-38,-1.59603e-06,-3.40794e-12,6.10981e-38,0,-1.1384e-13,0,0,-3.78287,0.272566,0.540721,0,0,0,0,0,0,0,233,-62,233,-62,352,-54,230,60,0,-0.375,3.14021,-1.5,3.94113e+12,0,0,2,0,0,0,0,0,0,0,0,15616,0,0,0,0,0,0,0,0,0,2.5,0
11807,-3.3423e-12,6.11028e-38,-1.59603e-06,-3.40794e-12,6.10981e-38,0,-1.1384e-13,0,0,-3.78031,0.269183,0.522798,0,0,0,0,0,0,0,233,-62,233,-62,352,-51,231,60,0,-0.375,3.14025,-1.5,3.94113e+12,0,0,2,0,0,0,0,0,0,0,0,15972,0,0,0,0,0,0,0,0,0,2.5,0
11822,-3.3423e-12,6.11028e-38,-1.59603e-06,-3.40794e-12,6.10981e-38,0,-1.13841e-13,0,0,-3.78031,0.269183,0.522798,0,0,0,0,0,0,0,233,-62,233,-62,352,-51,231,60,0,-0.375,3.14029,-1.5,3.94113e+12,0,0,2,0,0,0,0,0,0,0,0,15972,0,0,0,0,0,0,0,0,0,2.5,0
11841,-3.3423e-12,6.11028e-38,-1.59603e-06,-3.40794e-12,6.10981e-38,0,-1.13841e-13,0,0,-3.77022,0.272232,0.519483,0,0,0,0,0,0,0,233,-60,233,-60,352,-54,230,63,0,-0.375,3.14034,-1.5,3.94113e+12,0,0,2,0,0,0,0,0,0,0,0,15494,0,0,0,0,0,0,0,0,0,2.5,0
11855,-3.3423e-12,6.11028e-38,-1.59603e-06,-3.40794e-12,6.10981e-38,0,-1.13842e-13,0,0,-3.77022,0.272232,0.519483,0,0,0,0,0,0,0,233,-60,233,-60,352,-54,230,63,0,-0.375,3.14037,-1.5,3.94113e+12,0,0,2,0,0,0,0,0,0,0,0,15494,0,0,0,0,0,0,0,0,0,2.5,0
11869,-3.3423e-12,6.11028e-38,-1.59603e-06,-3.40794e-12,6.10981e-38,0,-1.13843e-13,0,0,-3.77022,0.272232,0.519483,0,0,0,0,0,0,0,233,-60,233,-60,352,-54,230,63,0,-0.375,3.1404,-1.5,3.94113e+12,0,0,2,0,0,0,0,0,0,0,0,15494,0,0,0,0,0,0,0,0,0,2.5,0
11884,-3.3423e-12,6.11028e-38,-1.59603e-06,-3.40794e-12,6.10981e-38,0,-1.13843e-13,0,0,-3.77553,0.304397,0.534192,0,0,0,0,0,0,0,230,-62,230,-62,348,-54,226,61,0,-0.375,3.14044,-1.5,3.94113e+12,0,0,2,0,0,0,0,0,0,0,0,15616,0,0,0,0,0,0,0,0,0,2.5,0
11899,-3.3423e-12,6.11028e-38,-1.59603e-06,-3.40794e-12,6.10981e-38,0,-1.13844e-13,0,0,-3.77553,0.304397,0.534192,0,0,0,0,0,0,0,230,-62,230,-62,348,-54,226,61,0,-0.375,3.14047,-1.5,3.94113e+12,0,0,2,0,0,0,0,0,0,0,0,15616,0,0,0,0,0,0,0,0,0,2.5,0
11914,-3.3423e-12,6.11028e-38,-1.59603e-06,-3.40794e-12,6.10981e-38,0,-1.13844e-13,0,0,-3.76809,0.329572,0.516247,0,0,0,0,0,0,0,227,-60,227,-60,345,-53,223,64,0,-0.375,3.14051,-1.5,3.94113e+12,0,0,2,0,0,0,0,0,0,0,0,15372,0,0,0,0,0,0,0,0,0,2.5,0
11929,-3.3423e-12,6.11028e-38,-1.59603e-06,-3.40794e-12,6.10981e-38,0,-1.13845e-13,0,0,-3.76809,0.329572,0.516247,0,0,0,0,0,0,0,227,-60,227,-60,345,-53,223,64,0,-0.375,3.14054,-1.5,3.94113e+12,0,0,2,0,0,0,0,0,0,0,0,15372,0,0,0,0,0,0,0,0,0,2.5,0
11945,-3.3423e-12,6.11028e-38,-1.59603e-06,-3.40794e-12,6.10981e-38,0,-1.13845e-13,0,0,-3.78726,0.356885,0.501593,0,0,0,0,0,0,0,225,-57,225,-57,341,-51,221,67,0,-0.375,3.14057,-1.5,3.94113e+12,0,0,2,0,0,0,0,0,0,0,0,15120,0,0,0,0,0,0,0,0,0,2.5,0
11960,-3.3423e-12,6.11028e-38,-1.59603e-06,-3.40794e-12,6.10981e-38,0,-1.13846e-13,0,0,-3.78726,0.356885,0.501593,0,0,0,0,0,0,0,225,-57,225,-57,341,-51,221,67,0,-0.375,3.1406,-1.5,3.94113e+12,0,0,2,0,0,0,0,0,0,0,0,15120,0,0,0,0,0,0,0,0,0,2.5,0
11975,-3.3423e-12,6.11028e-38,-1.59603e-06,-3.40794e-12,6.10981e-38,0,-1.13846e-13,0,0,-3.77453,0.402264,0.484903,0,0,0,0,0,0,0,219,-56,219,-56,336,-51,217,70,0,-0.375,3.14063,-1.5,3.94113e+12,0,0,2,0,0,0,0,0,0,0,0,14994,0,0,0,0,0,0,0,0,0,2.5,0
