timestamp,A_x,A_y,A_z,P,Q,R,Phi,Theta,Psi,poseX,poseY,poseZ,state_X,state_Y,state_Z,state_VzB,state_Bx,state_By,state_Bz,p1_x,p1_y,p2_x,p2_y,p3_x,p3_y,p4_x,p4_y,roll,pitch,yaw,alt,targetHeading,highLevelState,lowLevelState,gateNumber,filtered_x,filtered_y,x_OT,y_OT,vx_OT,vy_OT,filtered_vx,filtered_vygateArearansac_corr_x,ransac_corr_y,ransac_corr_vx,ransac_corr_vy,detectionTimeStamppTermX,dTermX,pTermY,dTermY,vxcmd,vycmd
7159,0,0,0,0,0,0,0,0,0,0,0,0,0,0,0,0,0,0,0,0,0,0,0,0,0,0,0,0,-0.25,0.0141372,-1.5,3.94113e+12,0,0,2,0,0,0,0,0,0,0,0,1.9603e-19,0,0,0,0,0,0,0,0,0,1,0
7703,-3.21174e-12,0,-1.53735e-06,-3.27738e-12,0,0,-1.06589e-13,0,0,0,0,0,0,0,0,0,0,0,0,0,0,0,0,0,0,0,0,0,-0.25,0.86865,-1.5,3.94113e+12,0,0,2,0,0,0,0,0,0,0,0,1.9603e-19,0,0,0,0,0,0,0,0,0,1,0
7719,-3.21174e-12,0,-1.53735e-06,-3.27738e-12,0,0,-1.0659e-13,0,0,0,0,0,0,0,0,0,0,0,0,0,0,0,0,0,0,0,0,0,-0.25,0.893782,-1.5,3.94113e+12,0,0,2,0,0,0,0,0,0,0,0,1.9603e-19,0,0,0,0,0,0,0,0,0,1,0
7735,-3.21174e-12,0,-1.53735e-06,-3.27738e-12,0,0,-1.0659e-13,0,0,0,0,0,0,0,0,0,0,0,0,0,0,0,0,0,0,0,0,0,-0.25,0.917344,-1.5,3.94113e+12,0,0,2,0,0,0,0,0,0,0,0,1.9603e-19,0,0,0,0,0,0,0,0,0,1,0
7750,-3.21174e-12,0,-1.53735e-06,-3.27738e-12,0,0,-1.0659e-13,0,0,0,0,0,0,0,0,0,0,0,0,0,0,0,0,0,0,0,0,0,-0.25,0.942477,-1.5,3.94113e+12,0,0,2,0,0,0,0,0,0,0,0,1.9603e-19,0,0,0,0,0,0,0,0,0,1,0
7766,-3.21174e-12,0,-1.53735e-06,-3.27738e-12,0,0,-1.0659e-13,0,0,0,0,0,0,0,0,0,0,0,0,0,0,0,0,0,0,0,0,0,-0.25,0.96761,-1.5,3.94113e+12,0,0,2,0,0,0,0,0,0,0,0,1.9603e-19,0,0,0,0,0,0,0,0,0,1,0
7782,-3.21174e-12,0,-1.53735e-06,-3.27738e-12,0,0,-1.06591e-13,0,0,0,0,0,0,0,0,0,0,0,0,0,0,0,0,0,0,0,0,0,-0.25,0.991172,-1.5,3.94113e+12,0,0,2,0,0,0,0,0,0,0,0,1.9603e-19,0,0,0,0,0,0,0,0,0,1,0
7797,-3.21174e-12,0,-1.53735e-06,-3.27738e-12,0,0,-1.06591e-13,0,0,0,0,0,0,0,0,0,0,0,0,0,0,0,0,0,0,0,0,0,-0.25,1.0163,-1.5,3.94113e+12,0,0,2,0,0,0,0,0,0,0,0,1.9603e-19,0,0,0,0,0,0,0,0,0,1,0
7813,-3.21174e-12,0,-1.53735e-06,-3.27738e-12,0,0,-1.06591e-13,0,0,0,0,0,0,0,0,0,0,0,0,0,0,0,0,0,0,0,0,0,-0.25,1.04144,-1.5,3.94113e+12,0,0,2,0,0,0,0,0,0,0,0,1.9603e-19,0,0,0,0,0,0,0,0,0,1,0
7830,-3.21174e-12,0,-1.53735e-06,-3.27738e-12,0,0,-1.06591e-13,0,0,0,0,0,0,0,0,0,0,0,0,0,0,0,0,0,0,0,0,0,-0.25,1.06814,-1.5,3.94113e+12,0,0,2,0,0,0,0,0,0,0,0,1.9603e-19,0,0,0,0,0,0,0,0,0,1,0
7858,-3.21174e-12,0,-1.53735e-06,-3.27738e-12,0,0,-1.06592e-13,0,0,0,0,0,0,0,0,0,0,0,0,0,0,0,0,0,0,0,0,0,-0.25,1.11212,-1.5,3.94113e+12,0,0,2,0,0,0,0,0,0,0,0,1.9603e-19,0,0,0,0,0,0,0,0,0,1,0
7874,-3.21174e-12,0,-1.53735e-06,-3.27738e-12,0,0,-1.06592e-13,0,0,0,0,0,0,0,0,0,0,0,0,0,0,0,0,0,0,0,0,0,-0.25,1.13726,-1.5,3.94113e+12,0,0,2,0,0,0,0,0,0,0,0,1.9603e-19,0,0,0,0,0,0,0,0,0,1,0
7891,-3.21174e-12,0,-1.53735e-06,-3.27738e-12,0,0,-1.06592e-13,0,0,0,0,0,0,0,0,0,0,0,0,0,0,0,0,0,0,0,0,0,-0.25,1.16396,-1.5,3.94113e+12,0,0,2,0,0,0,0,0,0,0,0,1.9603e-19,0,0,0,0,0,0,0,0,0,1,0
7907,-3.21174e-12,0,-1.53735e-06,-3.27738e-12,0,0,-1.06593e-13,0,0,0,0,0,0,0,0,0,0,0,0,0,0,0,0,0,0,0,0,0,-0.25,1.18909,-1.5,3.94113e+12,0,0,2,0,0,0,0,0,0,0,0,1.9603e-19,0,0,0,0,0,0,0,0,0,1,0
7923,-3.21174e-12,0,-1.53735e-06,-3.27738e-12,0,0,-1.06593e-13,0,0,0,0,0,0,0,0,0,0,0,0,0,0,0,0,0,0,0,0,0,-0.25,1.21423,-1.5,3.94113e+12,0,0,2,0,0,0,0,0,0,0,0,1.9603e-19,0,0,0,0,0,0,0,0,0,1,0
7993,-3.21174e-12,0,-1.53735e-06,-3.27738e-12,0,0,-1.06593e-13,0,0,0,0,0,0,0,0,0,0,0,0,0,0,0,0,0,0,0,0,0,-0.25,1.32261,-1.5,3.94113e+12,0,0,2,0,0,0,0,0,0,0,0,1.9603e-19,0,0,0,0,0,0,0,0,0,1,0
8008,-3.21174e-12,0,-1.53735e-06,-3.27738e-12,0,0,-1.06593e-13,0,0,0,0,0,0,0,0,0,0,0,0,0,0,0,0,0,0,0,0,0,-0.25,1.34774,-1.5,3.94113e+12,0,0,2,0,0,0,0,0,0,0,0,1.9603e-19,0,0,0,0,0,0,0,0,0,1,0
8025,-3.21174e-12,0,-1.53735e-06,-3.27738e-12,0,0,-1.06594e-13,0,0,0,0,0,0,0,0,0,0,0,0,0,0,0,0,0,0,0,0,0,-0.25,1.37288,-1.5,3.94113e+12,0,0,2,0,0,0,0,0,0,0,0,1.9603e-19,0,0,0,0,0,0,0,0,0,1,0
8040,-3.21174e-12,0,-1.53735e-06,-3.27738e-12,0,0,-1.06594e-13,0,0,0,0,0,0,0,0,0,0,0,0,0,0,0,0,0,0,0,0,0,-0.25,1.39801,-1.5,3.94113e+12,0,0,2,0,0,0,0,0,0,0,0,1.9603e-19,0,0,0,0,0,0,0,0,0,1,0
8057,-3.21174e-12,0,-1.53735e-06,-3.27738e-12,0,0,-1.06594e-13,0,0,0,0,0,0,0,0,0,0,0,0,0,0,0,0,0,0,0,0,0,-0.25,1.42471,-1.5,3.94113e+12,0,0,2,0,0,0,0,0,0,0,0,1.9603e-19,0,0,0,0,0,0,0,0,0,1,0
8073,-3.21174e-12,0,-1.53735e-06,-3.27738e-12,0,0,-1.06594e-13,0,0,0,0,0,0,0,0,0,0,0,0,0,0,0,0,0,0,0,0,0,-0.25,1.44827,-1.5,3.94113e+12,0,0,2,0,0,0,0,0,0,0,0,1.9603e-19,0,0,0,0,0,0,0,0,0,1,0
8087,-3.21174e-12,0,-1.53735e-06,-3.27738e-12,0,0,-1.06595e-13,0,0,0,0,0,0,0,0,0,0,0,0,0,0,0,0,0,0,0,0,0,-0.25,1.47184,-1.5,3.94113e+12,0,0,2,0,0,0,0,0,0,0,0,1.9603e-19,0,0,0,0,0,0,0,0,0,1,0
8100,-3.21174e-12,0,-1.53735e-06,-3.27738e-12,0,0,-1.06595e-13,0,0,0,0,0,0,0,0,0,0,0,0,0,0,0,0,0,0,0,0,0,-0.25,1.49226,-1.5,3.94113e+12,0,0,2,0,0,0,0,0,0,0,0,1.9603e-19,0,0,0,0,0,0,0,0,0,1,0
8115,-3.21174e-12,0,-1.53735e-06,-3.27738e-12,0,0,-1.06595e-13,0,0,0,0,0,0,0,0,0,0,0,0,0,0,0,0,0,0,0,0,0,-0.25,1.51582,-1.5,3.94113e+12,0,0,2,0,0,0,0,0,0,0,0,1.9603e-19,0,0,0,0,0,0,0,0,0,1,0
8131,-3.21174e-12,0,-1.53735e-06,-3.27738e-12,0,0,-1.06596e-13,0,0,0,0,0,0,0,0,0,0,0,0,0,0,0,0,0,0,0,0,0,-0.25,1.54095,-1.5,3.94113e+12,0,0,2,0,0,0,0,0,0,0,0,1.9603e-19,0,0,0,0,0,0,0,0,0,1,0
8147,-3.21174e-12,0,-1.53735e-06,-3.27738e-12,0,0,-1.06596e-13,0,0,0,0,0,0,0,0,0,0,0,0,0,0,0,0,0,0,0,0,0,-0.25,1.56609,-1.5,3.94113e+12,0,0,2,0,0,0,0,0,0,0,0,1.9603e-19,0,0,0,0,0,0,0,0,0,1,0
8163,-3.21174e-12,0,-1.53735e-06,-3.27738e-12,0,0,-1.06596e-13,0,0,0,0,0,0,0,0,0,0,0,0,0,0,0,0,0,0,0,0,0,-0.25,1.59122,-1.5,3.94113e+12,0,0,2,0,0,0,0,0,0,0,0,1.9603e-19,0,0,0,0,0,0,0,0,0,1,0
8179,-3.21174e-12,0,-1.53735e-06,-3.27738e-12,0,0,-1.06596e-13,0,0,0,0,0,0,0,0,0,0,0,0,0,0,0,0,0,0,0,0,0,-0.25,1.61635,-1.5,3.94113e+12,0,0,2,0,0,0,0,0,0,0,0,1.9603e-19,0,0,0,0,0,0,0,0,0,1,0
8197,-3.21174e-12,0,-1.53735e-06,-3.27738e-12,0,0,-1.06597e-13,0,0,0,0,0,0,0,0,0,0,0,0,0,0,0,0,0,0,0,0,0,-0.25,1.64463,-1.5,3.94113e+12,0,0,2,0,0,0,0,0,0,0,0,1.9603e-19,0,0,0,0,0,0,0,0,0,1,0
8213,-3.21174e-12,0,-1.53735e-06,-3.27738e-12,0,0,-1.06597e-13,0,0,0,0,0,0,0,0,0,0,0,0,0,0,0,0,0,0,0,0,0,-0.25,1.66819,-1.5,3.94113e+12,0,0,2,0,0,0,0,0,0,0,0,1.9603e-19,0,0,0,0,0,0,0,0,0,1,0
8229,-3.21174e-12,0,-1.53735e-06,-3.27738e-12,0,0,-1.06597e-13,0,0,0,0,0,0,0,0,0,0,0,0,0,0,0,0,0,0,0,0,0,-0.25,1.69489,-1.5,3.94113e+12,0,0,2,0,0,0,0,0,0,0,0,1.9603e-19,0,0,0,0,0,0,0,0,0,1,0
8246,-3.21174e-12,0,-1.53735e-06,-3.27738e-12,0,0,-1.06597e-13,0,0,0,0,0,0,0,0,0,0,0,0,0,0,0,0,0,0,0,0,0,-0.25,1.72159,-1.5,3.94113e+12,0,0,2,0,0,0,0,0,0,0,0,1.9603e-19,0,0,0,0,0,0,0,0,0,1,0
8262,-3.21174e-12,0,-1.53735e-06,-3.27738e-12,0,0,-1.06598e-13,0,0,0,0,0,0,0,0,0,0,0,0,0,0,0,0,0,0,0,0,0,-0.25,1.74673,-1.5,3.94113e+12,0,0,2,0,0,0,0,0,0,0,0,1.9603e-19,0,0,0,0,0,0,0,0,0,1,0
8278,-3.21174e-12,0,-1.53735e-06,-3.27738e-12,0,0,-1.06598e-13,0,0,0,0,0,0,0,0,0,0,0,0,0,0,0,0,0,0,0,0,0,-0.25,1.77186,-1.5,3.94113e+12,0,0,2,0,0,0,0,0,0,0,0,1.9603e-19,0,0,0,0,0,0,0,0,0,1,0
8294,-3.21174e-12,0,-1.53735e-06,-3.27738e-12,0,0,-1.06598e-13,0,0,0,0,0,0,0,0,0,0,0,0,0,0,0,0,0,0,0,0,0,-0.25,1.79699,-1.5,3.94113e+12,0,0,2,0,0,0,0,0,0,0,0,1.9603e-19,0,0,0,0,0,0,0,0,0,1,0
8310,-3.21174e-12,0,-1.53735e-06,-3.27738e-12,0,0,-1.06599e-13,0,0,0,0,0,0,0,0,0,0,0,0,0,0,0,0,0,0,0,0,0,-0.25,1.82213,-1.5,3.94113e+12,0,0,2,0,0,0,0,0,0,0,0,1.9603e-19,0,0,0,0,0,0,0,0,0,1,0
8328,-3.21174e-12,0,-1.53735e-06,-3.27738e-12,0,0,-1.06599e-13,0,0,0,0,0,0,0,0,0,0,0,0,0,0,0,0,0,0,0,0,0,-0.25,1.84883,-1.5,3.94113e+12,0,0,2,0,0,0,0,0,0,0,0,1.9603e-19,0,0,0,0,0,0,0,0,0,1,0
8343,-3.21174e-12,0,-1.53735e-06,-3.27738e-12,0,0,-1.06599e-13,0,0,0,0,0,0,0,0,0,0,0,0,0,0,0,0,0,0,0,0,0,-0.25,1.87396,-1.5,3.94113e+12,0,0,2,0,0,0,0,0,0,0,0,1.9603e-19,0,0,0,0,0,0,0,0,0,1,0
8360,-3.21174e-12,0,-1.53735e-06,-3.27738e-12,0,0,-1.06599e-13,0,0,0,0,0,0,0,0,0,0,0,0,0,0,0,0,0,0,0,0,0,-0.25,1.90067,-1.5,3.94113e+12,0,0,2,0,0,0,0,0,0,0,0,1.9603e-19,0,0,0,0,0,0,0,0,0,1,0
8409,-3.21174e-12,0,-1.53735e-06,-3.27738e-12,0,0,-1.066e-13,0,0,0,0,0,0,0,0,0,0,0,0,0,0,0,0,0,0,0,0,0,-0.25,1.97764,-1.5,3.94113e+12,0,0,2,0,0,0,0,0,0,0,0,1.9603e-19,0,0,0,0,0,0,0,0,0,1,0
8426,-3.21174e-12,0,-1.53735e-06,-3.27738e-12,0,0,-1.066e-13,0,0,0,0,0,0,0,0,0,0,0,0,0,0,0,0,0,0,0,0,0,-0.25,2.00434,-1.5,3.94113e+12,0,0,2,0,0,0,0,0,0,0,0,1.9603e-19,0,0,0,0,0,0,0,0,0,1,0
8444,-3.21174e-12,0,-1.53735e-06,-3.27738e-12,0,0,-1.066e-13,0,0,0,0,0,0,0,0,0,0,0,0,0,0,0,0,0,0,0,0,0,-0.25,2.03261,-1.5,3.94113e+12,0,0,2,0,0,0,0,0,0,0,0,1.9603e-19,0,0,0,0,0,0,0,0,0,1,0
8458,-3.21174e-12,0,-1.53735e-06,-3.27738e-12,0,0,-1.066e-13,0,0,0,0,0,0,0,0,0,0,0,0,0,0,0,0,0,0,0,0,0,-0.25,2.0546,-1.5,3.94113e+12,0,0,2,0,0,0,0,0,0,0,0,1.9603e-19,0,0,0,0,0,0,0,0,0,1,0
8472,-3.21174e-12,0,-1.53735e-06,-3.27738e-12,0,0,-1.06601e-13,0,0,0,0,0,0,0,0,0,0,0,0,0,0,0,0,0,0,0,0,0,-0.25,2.0766,-1.5,3.94113e+12,0,0,2,0,0,0,0,0,0,0,0,1.9603e-19,0,0,0,0,0,0,0,0,0,1,0
8487,-3.21174e-12,0,-1.53735e-06,-3.27738e-12,0,0,-1.06601e-13,0,0,0,0,0,0,0,0,0,0,0,0,0,0,0,0,0,0,0,0,0,-0.25,2.10016,-1.5,3.94113e+12,0,0,2,0,0,0,0,0,0,0,0,1.9603e-19,0,0,0,0,0,0,0,0,0,1,0
8502,-3.21174e-12,0,-1.53735e-06,-3.27738e-12,0,0,-1.06601e-13,0,0,0,0,0,0,0,0,0,0,0,0,0,0,0,0,0,0,0,0,0,-0.25,2.12372,-1.5,3.94113e+12,0,0,2,0,0,0,0,0,0,0,0,1.9603e-19,0,0,0,0,0,0,0,0,0,1,0
8518,-3.21174e-12,0,-1.53735e-06,-3.27738e-12,0,0,-1.06602e-13,0,0,0,0,0,0,0,0,0,0,0,0,0,0,0,0,0,0,0,0,0,-0.25,2.14728,-1.5,3.94113e+12,0,0,2,0,0,0,0,0,0,0,0,1.9603e-19,0,0,0,0,0,0,0,0,0,1,0
8534,-3.21174e-12,0,-1.53735e-06,-3.27738e-12,0,0,-1.06602e-13,0,0,0,0,0,0,0,0,0,0,0,0,0,0,0,0,0,0,0,0,0,-0.25,2.17242,-1.5,3.94113e+12,0,0,2,0,0,0,0,0,0,0,0,1.9603e-19,0,0,0,0,0,0,0,0,0,1,0
8550,-3.21174e-12,0,-1.53735e-06,-3.27738e-12,0,0,-1.06602e-13,0,0,0,0,0,0,0,0,0,0,0,0,0,0,0,0,0,0,0,0,0,-0.25,2.19755,-1.5,3.94113e+12,0,0,2,0,0,0,0,0,0,0,0,1.9603e-19,0,0,0,0,0,0,0,0,0,1,0
8565,-3.21174e-12,0,-1.53735e-06,-3.27738e-12,0,0,-1.06602e-13,0,0,0,0,0,0,0,0,0,0,0,0,0,0,0,0,0,0,0,0,0,-0.25,2.22111,-1.5,3.94113e+12,0,0,2,0,0,0,0,0,0,0,0,1.9603e-19,0,0,0,0,0,0,0,0,0,1,0
8581,-3.21174e-12,0,-1.53735e-06,-3.27738e-12,0,0,-1.06603e-13,0,0,0,0,0,0,0,0,0,0,0,0,0,0,0,0,0,0,0,0,0,-0.25,2.24467,-1.5,3.94113e+12,0,0,2,0,0,0,0,0,0,0,0,1.9603e-19,0,0,0,0,0,0,0,0,0,1,0
8596,-3.21174e-12,0,-1.53735e-06,-3.27738e-12,0,0,-1.06603e-13,0,0,0,0,0,0,0,0,0,0,0,0,0,0,0,0,0,0,0,0,0,-0.25,2.26981,-1.5,3.94113e+12,0,0,2,0,0,0,0,0,0,0,0,1.9603e-19,0,0,0,0,0,0,0,0,0,1,0
8613,-3.21174e-12,0,-1.53735e-06,-3.27738e-12,0,0,-1.06603e-13,0,0,0,0,0,0,0,0,0,0,0,0,0,0,0,0,0,0,0,0,0,-0.25,2.29651,-1.5,3.94113e+12,0,0,2,0,0,0,0,0,0,0,0,1.9603e-19,0,0,0,0,0,0,0,0,0,1,0
8628,-3.21174e-12,0,-1.53735e-06,-3.27738e-12,0,0,-1.06603e-13,0,0,0,0,0,0,0,0,0,0,0,0,0,0,0,0,0,0,0,0,0,-0.25,2.32007,-1.5,3.94113e+12,0,0,2,0,0,0,0,0,0,0,0,1.9603e-19,0,0,0,0,0,0,0,0,0,1,0
8644,-3.21174e-12,0,-1.53735e-06,-3.27738e-12,0,0,-1.06604e-13,0,0,0,0,0,0,0,0,0,0,0,0,0,0,0,0,0,0,0,0,0,-0.25,2.3452,-1.5,3.94113e+12,0,0,2,0,0,0,0,0,0,0,0,1.9603e-19,0,0,0,0,0,0,0,0,0,1,0
8660,-3.21174e-12,0,-1.53735e-06,-3.27738e-12,0,0,-1.06604e-13,0,0,0,0,0,0,0,0,0,0,0,0,0,0,0,0,0,0,0,0,0,-0.25,2.37024,-1.5,3.94113e+12,0,0,2,0,0,0,0,0,0,0,0,1.9603e-19,0,0,0,0,0,0,0,0,0,1,0
8676,-3.21174e-12,0,-1.53735e-06,-3.27738e-12,0,0,-1.06604e-13,0,0,0,0,0,0,0,0,0,0,0,0,0,0,0,0,0,0,0,0,0,-0.25,2.39463,-1.5,3.94113e+12,0,0,2,0,0,0,0,0,0,0,0,1.9603e-19,0,0,0,0,0,0,0,0,0,1,0
8692,-3.21174e-12,0,-1.53735e-06,-3.27738e-12,0,0,-1.06605e-13,0,0,0,0,0,0,0,0,0,0,0,0,0,0,0,0,0,0,0,0,0,-0.25,2.41826,-1.5,3.94113e+12,0,0,2,0,0,0,0,0,0,0,0,1.9603e-19,0,0,0,0,0,0,0,0,0,1,0
8708,-3.21174e-12,0,-1.53735e-06,-3.27738e-12,0,0,-1.06605e-13,0,0,0,0,0,0,0,0,0,0,0,0,0,0,0,0,0,0,0,0,0,-0.25,2.44115,-1.5,3.94113e+12,0,0,2,0,0,0,0,0,0,0,0,1.9603e-19,0,0,0,0,0,0,0,0,0,1,0
8756,-3.21174e-12,0,-1.53735e-06,-3.27738e-12,0,0,-1.06605e-13,0,0,0,0,0,0,0,0,0,0,0,0,0,0,0,0,0,0,0,0,0,-0.25,2.50744,-1.5,3.94113e+12,0,0,2,0,0,0,0,0,0,0,0,1.9603e-19,0,0,0,0,0,0,0,0,0,1,0
8772,-3.21174e-12,0,-1.53735e-06,-3.27738e-12,0,0,-1.06605e-13,0,0,0,0,0,0,0,0,0,0,0,0,0,0,0,0,0,0,0,0,0,-0.25,2.52626,-1.5,3.94113e+12,0,0,2,0,0,0,0,0,0,0,0,1.9603e-19,0,0,0,0,0,0,0,0,0,1,0
8787,-3.21174e-12,0,-1.53735e-06,-3.27738e-12,0,0,-1.06606e-13,0,0,0,0,0,0,0,0,0,0,0,0,0,0,0,0,0,0,0,0,0,-0.25,2.54452,-1.5,3.94113e+12,0,0,2,0,0,0,0,0,0,0,0,1.9603e-19,0,0,0,0,0,0,0,0,0,1,0
8803,-3.21174e-12,0,-1.53735e-06,-3.27738e-12,0,0,-1.06606e-13,0,0,0,0,0,0,0,0,0,0,0,0,0,0,0,0,0,0,0,0,0,-0.25,2.56341,-1.5,3.94113e+12,0,0,2,0,0,0,0,0,0,0,0,1.9603e-19,0,0,0,0,0,0,0,0,0,1,0
8819,-3.21174e-12,0,-1.53735e-06,-3.27738e-12,0,0,-1.06606e-13,0,0,0,0,0,0,0,0,0,0,0,0,0,0,0,0,0,0,0,0,0,-0.25,2.58171,-1.5,3.94113e+12,0,0,2,0,0,0,0,0,0,0,0,1.9603e-19,0,0,0,0,0,0,0,0,0,1,0
8832,-3.21174e-12,0,-1.53735e-06,-3.27738e-12,0,0,-1.06606e-13,0,0,0,0,0,0,0,0,0,0,0,0,0,0,0,0,0,0,0,0,0,-0.25,2.59612,-1.5,3.94113e+12,0,0,2,0,0,0,0,0,0,0,0,1.9603e-19,0,0,0,0,0,0,0,0,0,1,0
8846,-3.21174e-12,0,-1.53735e-06,-3.27738e-12,0,0,-1.06607e-13,0,0,0,0,0,0,0,0,0,0,0,0,0,0,0,0,0,0,0,0,0,-0.25,2.61124,-1.5,3.94113e+12,0,0,2,0,0,0,0,0,0,0,0,1.9603e-19,0,0,0,0,0,0,0,0,0,1,0
8861,-3.21174e-12,0,-1.53735e-06,-3.27738e-12,0,0,-1.06607e-13,0,0,0,0,0,0,0,0,0,0,0,0,0,0,0,0,0,0,0,0,0,-0.25,2.62698,-1.5,3.94113e+12,0,0,2,0,0,0,0,0,0,0,0,1.9603e-19,0,0,0,0,0,0,0,0,0,1,0
8876,-3.21174e-12,0,-1.53735e-06,-3.27738e-12,0,0,-1.06607e-13,0,0,0,0,0,0,0,0,0,0,0,0,0,0,0,0,0,0,0,0,0,-0.25,2.64225,-1.5,3.94113e+12,0,0,2,0,0,0,0,0,0,0,0,1.9603e-19,0,0,0,0,0,0,0,0,0,1,0
8892,-3.21174e-12,0,-1.53735e-06,-3.27738e-12,0,0,-1.06607e-13,0,0,0,0,0,0,0,0,0,0,0,0,0,0,0,0,0,0,0,0,0,-0.25,2.65806,-1.5,3.94113e+12,0,0,2,0,0,0,0,0,0,0,0,1.9603e-19,0,0,0,0,0,0,0,0,0,1,0
8908,-3.21174e-12,0,-1.53735e-06,-3.27738e-12,0,0,-1.06608e-13,0,0,0,0,0,0,0,0,0,0,0,0,0,0,0,0,0,0,0,0,0,-0.25,2.67335,-1.5,3.94113e+12,0,0,2,0,0,0,0,0,0,0,0,1.9603e-19,0,0,0,0,0,0,0,0,0,1,0
8924,-3.21174e-12,0,-1.53735e-06,-3.27738e-12,0,0,-1.06608e-13,0,0,0,0,0,0,0,0,0,0,0,0,0,0,0,0,0,0,0,0,0,-0.25,2.68817,-1.5,3.94113e+12,0,0,2,0,0,0,0,0,0,0,0,1.9603e-19,0,0,0,0,0,0,0,0,0,1,0
8941,-3.21174e-12,0,-1.53735e-06,-3.27738e-12,0,0,-1.06608e-13,0,0,0,0,0,0,0,0,0,0,0,0,0,0,0,0,0,0,0,0,0,-0.25,2.7034,-1.5,3.94113e+12,0,0,2,0,0,0,0,0,0,0,0,1.9603e-19,0,0,0,0,0,0,0,0,0,1,0
8957,-3.21174e-12,0,-1.53735e-06,-3.27738e-12,0,0,-1.06609e-13,0,0,0,0,0,0,0,0,0,0,0,0,0,0,0,0,0,0,0,0,0,-0.25,2.71726,-1.5,3.94113e+12,0,0,2,0,0,0,0,0,0,0,0,1.9603e-19,0,0,0,0,0,0,0,0,0,1,0
8972,-3.21174e-12,0,-1.53735e-06,-3.27738e-12,0,0,-1.06609e-13,0,0,0,0,0,0,0,0,0,0,0,0,0,0,0,0,0,0,0,0,0,-0.25,2.72986,-1.5,3.94113e+12,0,0,2,0,0,0,0,0,0,0,0,1.9603e-19,0,0,0,0,0,0,0,0,0,1,0
8990,-3.21174e-12,0,-1.53735e-06,-3.27738e-12,0,0,-1.06609e-13,0,0,0,0,0,0,0,0,0,0,0,0,0,0,0,0,0,0,0,0,0,-0.25,2.7437,-1.5,3.94113e+12,0,0,2,0,0,0,0,0,0,0,0,1.9603e-19,0,0,0,0,0,0,0,0,0,1,0
9005,-3.21174e-12,0,-1.53735e-06,-3.27738e-12,0,0,-1.06609e-13,0,0,0,0,0,0,0,0,0,0,0,0,0,0,0,0,0,0,0,0,0,-0.25,2.7555,-1.5,3.94113e+12,0,0,2,0,0,0,0,0,0,0,0,1.9603e-19,0,0,0,0,0,0,0,0,0,1,0
9021,-3.21174e-12,0,-1.53735e-06,-3.27738e-12,0,0,-1.0661e-13,0,0,0,0,0,0,0,0,0,0,0,0,0,0,0,0,0,0,0,0,0,-0.25,2.76772,-1.5,3.94113e+12,0,0,2,0,0,0,0,0,0,0,0,1.9603e-19,0,0,0,0,0,0,0,0,0,1,0
9036,-3.21174e-12,0,-1.53735e-06,-3.27738e-12,0,0,-1.0661e-13,0,0,0,0,0,0,0,0,0,0,0,0,0,0,0,0,0,0,0,0,0,-0.25,2.77882,-1.5,3.94113e+12,0,0,2,0,0,0,0,0,0,0,0,1.9603e-19,0,0,0,0,0,0,0,0,0,1,0
9052,-3.21174e-12,0,-1.53735e-06,-3.27738e-12,0,0,-1.0661e-13,0,0,0,0,0,0,0,0,0,0,0,0,0,0,0,0,0,0,0,0,0,-0.25,2.7903,-1.5,3.94113e+12,0,0,2,0,0,0,0,0,0,0,0,1.9603e-19,0,0,0,0,0,0,0,0,0,1,0
9069,-3.21174e-12,0,-1.53735e-06,-3.27738e-12,0,0,-1.0661e-13,0,0,0,0,0,0,0,0,0,0,0,0,0,0,0,0,0,0,0,0,0,-0.25,2.8021,-1.5,3.94113e+12,0,0,2,0,0,0,0,0,0,0,0,1.9603e-19,0,0,0,0,0,0,0,0,0,1,0
9106,-3.21174e-12,0,-1.53735e-06,-3.27738e-12,0,0,-1.06611e-13,0,0,0,0,0,0,0,0,0,0,0,0,0,0,0,0,0,0,0,0,0,-0.25,2.82688,-1.5,3.94113e+12,0,0,2,0,0,0,0,0,0,0,0,1.9603e-19,0,0,0,0,0,0,0,0,0,1,0
9123,-3.21174e-12,0,-1.53735e-06,-3.27738e-12,0,0,-1.06611e-13,0,0,0,0,0,0,0,0,0,0,0,0,0,0,0,0,0,0,0,0,0,-0.25,2.83745,-1.5,3.94113e+12,0,0,2,0,0,0,0,0,0,0,0,1.9603e-19,0,0,0,0,0,0,0,0,0,1,0
9139,-3.21174e-12,0,-1.53735e-06,-3.27738e-12,0,0,-1.06611e-13,0,0,0,0,0,0,0,0,0,0,0,0,0,0,0,0,0,0,0,0,0,-0.25,2.84708,-1.5,3.94113e+12,0,0,2,0,0,0,0,0,0,0,0,1.9603e-19,0,0,0,0,0,0,0,0,0,1,0
9155,-3.21175e-12,0,0,-3.27738e-12,0,0,-1.06612e-13,0,0,0,0,0,0,0,0,0,0,0,0,0,0,0,0,0,0,0,0,0,-0.25,2.8564,-1.5,3.94113e+12,0,0,2,0,0,0,0,0,0,0,0,1.9603e-19,0,0,0,0,0,0,0,0,0,1,0
9171,-3.21174e-12,0,-1.53735e-06,-3.27738e-12,0,0,-1.06612e-13,0,0,0,0,0,0,0,0,0,0,0,0,0,0,0,0,0,0,0,0,0,-0.25,2.86486,-1.5,3.94113e+12,0,0,2,0,0,0,0,0,0,0,0,1.9603e-19,0,0,0,0,0,0,0,0,0,1,0
9184,-3.21174e-12,0,-1.53735e-06,-3.27738e-12,0,0,-1.06612e-13,0,0,0,0,0,0,0,0,0,0,0,0,0,0,0,0,0,0,0,0,0,-0.25,2.87199,-1.5,3.94113e+12,0,0,2,0,0,0,0,0,0,0,0,1.9603e-19,0,0,0,0,0,0,0,0,0,1,0
9197,-3.21174e-12,0,-1.53735e-06,-3.27738e-12,0,0,-1.06612e-13,0,0,0,0,0,0,0,0,0,0,0,0,0,0,0,0,0,0,0,0,0,-0.25,2.87893,-1.5,3.94113e+12,0,0,2,0,0,0,0,0,0,0,0,1.9603e-19,0,0,0,0,0,0,0,0,0,1,0
9212,-3.21174e-12,0,-1.53735e-06,-3.27738e-12,0,0,-1.06613e-13,0,0,0,0,0,0,0,0,0,0,0,0,0,0,0,0,0,0,0,0,0,-0.25,2.88621,-1.5,3.94113e+12,0,0,2,0,0,0,0,0,0,0,0,1.9603e-19,0,0,0,0,0,0,0,0,0,1,0
9227,-3.21174e-12,0,-1.53735e-06,-3.27738e-12,0,0,-1.06613e-13,0,0,0,0,0,0,0,0,0,0,0,0,0,0,0,0,0,0,0,0,0,-0.25,2.89429,-1.5,3.94113e+12,0,0,2,0,0,0,0,0,0,0,0,1.9603e-19,0,0,0,0,0,0,0,0,0,1,0
9243,-3.21174e-12,0,-1.53735e-06,-3.27738e-12,0,0,-1.06613e-13,0,0,0,0,0,0,0,0,0,0,0,0,0,0,0,0,0,0,0,0,0,-0.25,2.90212,-1.5,3.94113e+12,0,0,2,0,0,0,0,0,0,0,0,1.9603e-19,0,0,0,0,0,0,0,0,0,1,0
9261,-3.21174e-12,0,-1.53735e-06,-3.27738e-12,0,0,-1.06613e-13,0,0,0,0,0,0,0,0,0,0,0,0,0,0,0,0,0,0,0,0,0,-0.25,2.91017,-1.5,3.94113e+12,0,0,2,0,0,0,0,0,0,0,0,1.9603e-19,0,0,0,0,0,0,0,0,0,1,0
9276,-3.21174e-12,0,-1.53735e-06,-3.27738e-12,0,0,-1.06614e-13,0,0,0,0,0,0,0,0,0,0,0,0,0,0,0,0,0,0,0,0,0,-0.25,2.91749,-1.5,3.94113e+12,0,0,2,0,0,0,0,0,0,0,0,1.9603e-19,0,0,0,0,0,0,0,0,0,1,0
9292,-3.21174e-12,0,-1.53735e-06,-3.27738e-12,0,0,-1.06614e-13,0,0,0,0,0,0,0,0,0,0,0,0,0,0,0,0,0,0,0,0,0,-0.25,2.92458,-1.5,3.94113e+12,0,0,2,0,0,0,0,0,0,0,0,1.9603e-19,0,0,0,0,0,0,0,0,0,1,0
9307,-3.21174e-12,0,-1.53735e-06,-3.27738e-12,0,0,-1.06614e-13,0,0,0,0,0,0,0,0,0,0,0,0,0,0,0,0,0,0,0,0,0,-0.25,2.93102,-1.5,3.94113e+12,0,0,2,0,0,0,0,0,0,0,0,1.9603e-19,0,0,0,0,0,0,0,0,0,1,0
9324,-3.21174e-12,0,-1.53735e-06,-3.27738e-12,0,0,-1.06615e-13,0,0,0,0,0,0,0,0,0,0,0,0,0,0,0,0,0,0,0,0,0,-0.25,2.93768,-1.5,3.94113e+12,0,0,2,0,0,0,0,0,0,0,0,1.9603e-19,0,0,0,0,0,0,0,0,0,1,0
9340,-3.21174e-12,0,-1.53735e-06,-3.27738e-12,0,0,-1.06615e-13,0,0,0,0,0,0,0,0,0,0,0,0,0,0,0,0,0,0,0,0,0,-0.25,2.94414,-1.5,3.94113e+12,0,0,2,0,0,0,0,0,0,0,0,1.9603e-19,0,0,0,0,0,0,0,0,0,1,0
9356,-3.21174e-12,0,-1.53735e-06,-3.27738e-12,0,0,-1.06615e-13,0,0,0,0,0,0,0,0,0,0,0,0,0,0,0,0,0,0,0,0,0,-0.25,2.95039,-1.5,3.94113e+12,0,0,2,0,0,0,0,0,0,0,0,1.9603e-19,0,0,0,0,0,0,0,0,0,1,0
9372,-3.21174e-12,0,-1.53735e-06,-3.27738e-12,0,0,-1.06615e-13,0,0,0,0,0,0,0,0,0,0,0,0,0,0,0,0,0,0,0,0,0,-0.25,2.95643,-1.5,3.94113e+12,0,0,2,0,0,0,0,0,0,0,0,1.9603e-19,0,0,0,0,0,0,0,0,0,1,0
9389,-3.21174e-12,0,-1.53735e-06,-3.27738e-12,0,0,-1.06616e-13,0,0,0,0,0,0,0,0,0,0,0,0,0,0,0,0,0,0,0,0,0,-0.25,2.96266,-1.5,3.94113e+12,0,0,2,0,0,0,0,0,0,0,0,1.9603e-19,0,0,0,0,0,0,0,0,0,1,0
9405,-3.21174e-12,0,-1.53735e-06,-3.27738e-12,0,0,-1.06616e-13,0,0,0,0,0,0,0,0,0,0,0,0,0,0,0,0,0,0,0,0,0,-0.25,2.96797,-1.5,3.94113e+12,0,0,2,0,0,0,0,0,0,0,0,1.9603e-19,0,0,0,0,0,0,0,0,0,1,0
9422,-3.21174e-12,0,-1.53735e-06,-3.27738e-12,0,0,-1.06616e-13,0,0,0,0,0,0,0,0,0,0,0,0,0,0,0,0,0,0,0,0,0,-0.25,2.97381,-1.5,3.94113e+12,0,0,2,0,0,0,0,0,0,0,0,1.9603e-19,0,0,0,0,0,0,0,0,0,1,0
9438,-3.21174e-12,0,-1.53735e-06,-3.27738e-12,0,0,-1.06616e-13,0,0,0,0,0,0,0,0,0,0,0,0,0,0,0,0,0,0,0,0,0,-0.25,2.97944,-1.5,3.94113e+12,0,0,2,0,0,0,0,0,0,0,0,1.9603e-19,0,0,0,0,0,0,0,0,0,1,0
9454,-3.21174e-12,0,-1.53735e-06,-3.27738e-12,0,0,-1.06617e-13,0,0,0,0,0,0,0,0,0,0,0,0,0,0,0,0,0,0,0,0,0,-0.25,2.98457,-1.5,3.94113e+12,0,0,2,0,0,0,0,0,0,0,0,1.9603e-19,0,0,0,0,0,0,0,0,0,1,0
9470,-3.21174e-12,0,-1.53735e-06,-3.27738e-12,0,0,-1.06617e-13,0,0,0,0,0,0,0,0,0,0,0,0,0,0,0,0,0,0,0,0,0,-0.25,2.98923,-1.5,3.94113e+12,0,0,2,0,0,0,0,0,0,0,0,1.9603e-19,0,0,0,0,0,0,0,0,0,1,0
9485,-3.21174e-12,0,-1.53735e-06,-3.27738e-12,0,0,-1.06617e-13,0,0,0,0,0,0,0,0,0,0,0,0,0,0,0,0,0,0,0,0,0,-0.25,2.99406,-1.5,3.94113e+12,0,0,2,0,0,0,0,0,0,0,0,1.9603e-19,0,0,0,0,0,0,0,0,0,1,0
9501,-3.21174e-12,0,-1.53735e-06,-3.27738e-12,0,0,-1.06618e-13,0,0,0,0,0,0,0,0,0,0,0,0,0,0,0,0,0,0,0,0,0,-0.25,2.99872,-1.5,3.94113e+12,0,0,2,0,0,0,0,0,0,0,0,1.9603e-19,0,0,0,0,0,0,0,0,0,1,0
9517,-3.21174e-12,0,-1.53735e-06,-3.27738e-12,0,0,-1.06618e-13,0,0,0,0,0,0,0,0,0,0,0,0,0,0,0,0,0,0,0,0,0,-0.25,3.00324,-1.5,3.94113e+12,0,0,2,0,0,0,0,0,0,0,0,1.9603e-19,0,0,0,0,0,0,0,0,0,1,0
9530,-3.21174e-12,0,-1.53735e-06,-3.27738e-12,0,0,-1.06618e-13,0,0,0,0,0,0,0,0,0,0,0,0,0,0,0,0,0,0,0,0,0,-0.25,3.00681,-1.5,3.94113e+12,0,0,2,0,0,0,0,0,0,0,0,1.9603e-19,0,0,0,0,0,0,0,0,0,1,0
9544,-3.21174e-12,0,-1.53735e-06,-3.27738e-12,0,0,-1.06618e-13,0,0,0,0,0,0,0,0,0,0,0,0,0,0,0,0,0,0,0,0,0,-0.25,3.01054,-1.5,3.94113e+12,0,0,2,0,0,0,0,0,0,0,0,1.9603e-19,0,0,0,0,0,0,0,0,0,1,0
9559,-3.21174e-12,0,-1.53735e-06,-3.27738e-12,0,0,-1.06619e-13,0,0,0,0,0,0,0,0,0,0,0,0,0,0,0,0,0,0,0,0,0,-0.25,3.01443,-1.5,3.94113e+12,0,0,2,0,0,0,0,0,0,0,0,1.9603e-19,0,0,0,0,0,0,0,0,0,1,0
9575,-3.21174e-12,0,-1.53735e-06,-3.27738e-12,0,0,-1.06619e-13,0,0,0,0,0,0,0,0,0,0,0,0,0,0,0,0,0,0,0,0,0,-0.25,3.01821,-1.5,3.94113e+12,0,0,2,0,0,0,0,0,0,0,0,1.9603e-19,0,0,0,0,0,0,0,0,0,1,0
9591,-3.21174e-12,0,-1.53735e-06,-3.27738e-12,0,0,-1.06619e-13,0,0,0,0,0,0,0,0,0,0,0,0,0,0,0,0,0,0,0,0,0,-0.25,3.02211,-1.5,3.94113e+12,0,0,2,0,0,0,0,0,0,0,0,1.9603e-19,0,0,0,0,0,0,0,0,0,1,0
9606,-3.21174e-12,0,-1.53735e-06,-3.27738e-12,0,0,-1.06619e-13,0,0,0,0,0,0,0,0,0,0,0,0,0,0,0,0,0,0,0,0,0,-0.25,3.02589,-1.5,3.94113e+12,0,0,2,0,0,0,0,0,0,0,0,1.9603e-19,0,0,0,0,0,0,0,0,0,1,0
9623,-3.21174e-12,0,-1.53735e-06,-3.27738e-12,0,0,-1.0662e-13,0,0,0,0,0,0,0,0,0,0,0,0,0,0,0,0,0,0,0,0,0,-0.25,3.02955,-1.5,3.94113e+12,0,0,2,0,0,0,0,0,0,0,0,1.9603e-19,0,0,0,0,0,0,0,0,0,1,0
9639,-3.21174e-12,0,-1.53735e-06,-3.27738e-12,0,0,-1.0662e-13,0,0,0,0,0,0,0,0,0,0,0,0,0,0,0,0,0,0,0,0,0,-0.25,3.03332,-1.5,3.94113e+12,0,0,2,0,0,0,0,0,0,0,0,1.9603e-19,0,0,0,0,0,0,0,0,0,1,0
9655,-3.21174e-12,0,-1.53735e-06,-3.27738e-12,0,0,-1.0662e-13,0,0,0,0,0,0,0,0,0,0,0,0,0,0,0,0,0,0,0,0,0,-0.25,3.03674,-1.5,3.94113e+12,0,0,2,0,0,0,0,0,0,0,0,1.9603e-19,0,0,0,0,0,0,0,0,0,1,0
9671,-3.21174e-12,0,-1.53735e-06,-3.27738e-12,0,0,-1.0662e-13,0,0,0,0,0,0,0,0,0,0,0,0,0,0,0,0,0,0,0,0,0,-0.25,3.04006,-1.5,3.94113e+12,0,0,2,0,0,0,0,0,0,0,0,1.9603e-19,0,0,0,0,0,0,0,0,0,1,0
9688,-3.21174e-12,0,-1.53735e-06,-3.27738e-12,0,0,-1.06621e-13,0,0,0,0,0,0,0,0,0,0,0,0,0,0,0,0,0,0,0,0,0,-0.25,3.04347,-1.5,3.94113e+12,0,0,2,0,0,0,0,0,0,0,0,1.9603e-19,0,0,0,0,0,0,0,0,0,1,0
9703,-3.21174e-12,0,-1.53735e-06,-3.27738e-12,0,0,-1.06621e-13,0,0,0,0,0,0,0,0,0,0,0,0,0,0,0,0,0,0,0,0,0,-0.25,3.04638,-1.5,3.94113e+12,0,0,2,0,0,0,0,0,0,0,0,1.9603e-19,0,0,0,0,0,0,0,0,0,1,0
9719,-3.21174e-12,0,-1.53735e-06,-3.27738e-12,0,0,-1.06621e-13,0,0,0,0,0,0,0,0,0,0,0,0,0,0,0,0,0,0,0,0,0,-0.25,3.04939,-1.5,3.94113e+12,0,0,2,0,0,0,0,0,0,0,0,1.9603e-19,0,0,0,0,0,0,0,0,0,1,0
9734,-3.21174e-12,0,-1.53735e-06,-3.27738e-12,0,0,-1.06622e-13,0,0,0,0,0,0,0,0,0,0,0,0,0,0,0,0,0,0,0,0,0,-0.25,3.05213,-1.5,3.94113e+12,0,0,2,0,0,0,0,0,0,0,0,1.9603e-19,0,0,0,0,0,0,0,0,0,1,0
9750,-3.21174e-12,0,-1.53735e-06,-3.27738e-12,0,0,-1.06622e-13,0,0,0,0,0,0,0,0,0,0,0,0,0,0,0,0,0,0,0,0,0,-0.25,3.05496,-1.5,3.94113e+12,0,0,2,0,0,0,0,0,0,0,0,1.9603e-19,0,0,0,0,0,0,0,0,0,1,0
9768,-3.21174e-12,0,-1.53735e-06,-3.27738e-12,0,0,-1.06622e-13,0,0,0,0,0,0,0,0,0,0,0,0,0,0,0,0,0,0,0,0,0,-0.25,3.05787,-1.5,3.94113e+12,0,0,2,0,0,0,0,0,0,0,0,1.9603e-19,0,0,0,0,0,0,0,0,0,1,0
9783,-3.21174e-12,0,-1.53735e-06,-3.27738e-12,0,0,-1.06622e-13,0,0,0,0,0,0,0,0,0,0,0,0,0,0,0,0,0,0,0,0,0,-0.25,3.06036,-1.5,3.94113e+12,0,0,2,0,0,0,0,0,0,0,0,1.9603e-19,0,0,0,0,0,0,0,0,0,1,0
9799,-3.21174e-12,0,-1.53735e-06,-3.27738e-12,0,0,-1.06623e-13,0,0,0,0,0,0,0,0,0,0,0,0,0,0,0,0,0,0,0,0,0,-0.25,3.06293,-1.5,3.94113e+12,0,0,2,0,0,0,0,0,0,0,0,1.9603e-19,0,0,0,0,0,0,0,0,0,1,0
9815,-3.21174e-12,0,-1.53735e-06,-3.27738e-12,0,0,-1.06623e-13,0,0,0,0,0,0,0,0,0,0,0,0,0,0,0,0,0,0,0,0,0,-0.25,3.06542,-1.5,3.94113e+12,0,0,2,0,0,0,0,0,0,0,0,1.9603e-19,0,0,0,0,0,0,0,0,0,1,0
9832,-3.21174e-12,0,-1.53735e-06,-3.27738e-12,0,0,-1.06623e-13,0,0,0,0,0,0,0,0,0,0,0,0,0,0,0,0,0,0,0,0,0,-0.25,3.06783,-1.5,3.94113e+12,0,0,2,0,0,0,0,0,0,0,0,1.9603e-19,0,0,0,0,0,0,0,0,0,1,0
9849,-3.21174e-12,0,-1.53735e-06,-3.27738e-12,0,0,-1.06623e-13,0,0,0,0,0,0,0,0,0,0,0,0,0,0,0,0,0,0,0,0,0,-0.25,3.07045,-1.5,3.94113e+12,0,0,2,0,0,0,0,0,0,0,0,1.9603e-19,0,0,0,0,0,0,0,0,0,1,0
9864,-3.21174e-12,0,-1.53735e-06,-3.27738e-12,0,0,-1.06624e-13,0,0,0,0,0,0,0,0,0,0,0,0,0,0,0,0,0,0,0,0,0,-0.25,3.07256,-1.5,3.94113e+12,0,0,2,0,0,0,0,0,0,0,0,1.9603e-19,0,0,0,0,0,0,0,0,0,1,0
9878,-3.21174e-12,0,-1.53735e-06,-3.27738e-12,0,0,-1.06624e-13,0,0,0,0,0,0,0,0,0,0,0,0,0,0,0,0,0,0,0,0,0,-0.25,3.07448,-1.5,3.94113e+12,0,0,2,0,0,0,0,0,0,0,0,1.9603e-19,0,0,0,0,0,0,0,0,0,1,0
9893,-3.21174e-12,0,-1.53735e-06,-3.27738e-12,0,0,-1.06624e-13,0,0,0,0,0,0,0,0,0,0,0,0,0,0,0,0,0,0,0,0,0,-0.25,3.07634,-1.5,3.94113e+12,0,0,2,0,0,0,0,0,0,0,0,1.9603e-19,0,0,0,0,0,0,0,0,0,1,0
9908,-3.21174e-12,0,-1.53735e-06,-3.27738e-12,0,0,-1.06625e-13,0,0,0,0,0,0,0,0,0,0,0,0,0,0,0,0,0,0,0,0,0,-0.25,3.0784,-1.5,3.94113e+12,0,0,2,0,0,0,0,0,0,0,0,1.9603e-19,0,0,0,0,0,0,0,0,0,1,0
9924,-3.21174e-12,0,-1.53735e-06,-3.27738e-12,0,0,-1.06625e-13,0,0,0,0,0,0,0,0,0,0,0,0,0,0,0,0,0,0,0,0,0,-0.25,3.0804,-1.5,3.94113e+12,0,0,2,0,0,0,0,0,0,0,0,1.9603e-19,0,0,0,0,0,0,0,0,0,1,0
9941,-3.21174e-12,0,-1.53735e-06,-3.27738e-12,0,0,-1.06625e-13,0,0,0,0,0,0,0,0,0,0,0,0,0,0,0,0,0,0,0,0,0,-0.25,3.08246,-1.5,3.94113e+12,0,0,2,0,0,0,0,0,0,0,0,1.9603e-19,0,0,0,0,0,0,0,0,0,1,0
9957,-3.21174e-12,0,-1.53735e-06,-3.27738e-12,0,0,-1.06625e-13,0,0,0,0,0,0,0,0,0,0,0,0,0,0,0,0,0,0,0,0,0,-0.25,3.08421,-1.5,3.94113e+12,0,0,2,0,0,0,0,0,0,0,0,1.9603e-19,0,0,0,0,0,0,0,0,0,1,0
9972,-3.21174e-12,0,-1.53735e-06,-3.27738e-12,0,0,-1.06626e-13,0,0,0,0,0,0,0,0,0,0,0,0,0,0,0,0,0,0,0,0,0,-0.25,3.08603,-1.5,3.94113e+12,0,0,2,0,0,0,0,0,0,0,0,1.9603e-19,0,0,0,0,0,0,0,0,0,1,0
9988,-3.21174e-12,0,-1.53735e-06,-3.27738e-12,0,0,-1.06626e-13,0,0,0,0,0,0,0,0,0,0,0,0,0,0,0,0,0,0,0,0,0,-0.25,3.08778,-1.5,3.94113e+12,0,0,2,0,0,0,0,0,0,0,0,1.9603e-19,0,0,0,0,0,0,0,0,0,1,0
10004,-3.21174e-12,0,-1.53735e-06,-3.27738e-12,0,0,-1.06626e-13,0,0,0,0,0,0,0,0,0,0,0,0,0,0,0,0,0,0,0,0,0,-0.25,3.08949,-1.5,3.94113e+12,0,0,2,0,0,0,0,0,0,0,0,1.9603e-19,0,0,0,0,0,0,0,0,0,1,0
10020,-3.21174e-12,0,-1.53735e-06,-3.27738e-12,0,0,-1.06626e-13,0,0,0,0,0,0,0,0,0,0,0,0,0,0,0,0,0,0,0,0,0,-0.25,3.09113,-1.5,3.94113e+12,0,0,2,0,0,0,0,0,0,0,0,1.9603e-19,0,0,0,0,0,0,0,0,0,1,0
10035,-3.21174e-12,0,-1.53735e-06,-3.27738e-12,0,0,-1.06627e-13,0,0,0,0,0,0,0,0,0,0,0,0,0,0,0,0,0,0,0,0,0,-0.25,3.09263,-1.5,3.94113e+12,0,0,2,0,0,0,0,0,0,0,0,1.9603e-19,0,0,0,0,0,0,0,0,0,1,0
10051,-3.21174e-12,0,-1.53735e-06,-3.27738e-12,0,0,-1.06627e-13,0,0,0,0,0,0,0,0,0,0,0,0,0,0,0,0,0,0,0,0,0,-0.25,3.09418,-1.5,3.94113e+12,0,0,2,0,0,0,0,0,0,0,0,1.9603e-19,0,0,0,0,0,0,0,0,0,1,0
10068,-3.21174e-12,0,-1.53735e-06,-3.27738e-12,0,0,-1.06627e-13,0,0,0,0,0,0,0,0,0,0,0,0,0,0,0,0,0,0,0,0,0,-0.25,3.09568,-1.5,3.94113e+12,0,0,2,0,0,0,0,0,0,0,0,1.9603e-19,0,0,0,0,0,0,0,0,0,1,0
10083,-3.21174e-12,0,-1.53735e-06,-3.27738e-12,0,0,-1.06628e-13,0,0,0,0,0,0,0,0,0,0,0,0,0,0,0,0,0,0,0,0,0,-0.25,3.09713,-1.5,3.94113e+12,0,0,2,0,0,0,0,0,0,0,0,1.9603e-19,0,0,0,0,0,0,0,0,0,1,0
10099,-3.21174e-12,0,-1.53735e-06,-3.27738e-12,0,0,-1.06628e-13,0,0,0,0,0,0,0,0,0,0,0,0,0,0,0,0,0,0,0,0,0,-0.25,3.09854,-1.5,3.94113e+12,0,0,2,0,0,0,0,0,0,0,0,1.9603e-19,0,0,0,0,0,0,0,0,0,1,0
10114,-3.21174e-12,0,-1.53735e-06,-3.27738e-12,0,0,-1.06628e-13,0,0,0,0,0,0,0,0,0,0,0,0,0,0,0,0,0,0,0,0,0,-0.25,3.09982,-1.5,3.94113e+12,0,0,2,0,0,0,0,0,0,0,0,1.9603e-19,0,0,0,0,0,0,0,0,0,1,0
10131,-3.21174e-12,0,-1.53735e-06,-3.27738e-12,0,0,-1.06628e-13,0,0,0,0,0,0,0,0,0,0,0,0,0,0,0,0,0,0,0,0,0,-0.25,3.10114,-1.5,3.94113e+12,0,0,2,0,0,0,0,0,0,0,0,1.9603e-19,0,0,0,0,0,0,0,0,0,1,0
10147,-3.21174e-12,0,-1.53735e-06,-3.27738e-12,0,0,-1.06629e-13,0,0,0,0,0,0,0,0,0,0,0,0,0,0,0,0,0,0,0,0,0,-0.25,3.1025,-1.5,3.94113e+12,0,0,2,0,0,0,0,0,0,0,0,1.9603e-19,0,0,0,0,0,0,0,0,0,1,0
10163,-3.21174e-12,0,-1.53735e-06,-3.27738e-12,0,0,-1.06629e-13,0,0,0,0,0,0,0,0,0,0,0,0,0,0,0,0,0,0,0,0,0,-0.25,3.10374,-1.5,3.94113e+12,0,0,2,0,0,0,0,0,0,0,0,1.9603e-19,0,0,0,0,0,0,0,0,0,1,0
10179,-3.21174e-12,0,-1.53735e-06,-3.27738e-12,0,0,-1.06629e-13,0,0,0,0,0,0,0,0,0,0,0,0,0,0,0,0,0,0,0,0,0,-0.25,3.10486,-1.5,3.94113e+12,0,0,2,0,0,0,0,0,0,0,0,1.9603e-19,0,0,0,0,0,0,0,0,0,1,0
10196,-3.21174e-12,0,-1.53735e-06,-3.27738e-12,0,0,-1.06629e-13,0,0,0,0,0,0,0,0,0,0,0,0,0,0,0,0,0,0,0,0,0,-0.25,3.10617,-1.5,3.94113e+12,0,0,2,0,0,0,0,0,0,0,0,1.9603e-19,0,0,0,0,0,0,0,0,0,1,0
10209,-3.21174e-12,0,-1.53735e-06,-3.27738e-12,0,0,-1.0663e-13,0,0,0,0,0,0,0,0,0,0,0,0,0,0,0,0,0,0,0,0,0,-0.25,3.10708,-1.5,3.94113e+12,0,0,2,0,0,0,0,0,0,0,0,1.9603e-19,0,0,0,0,0,0,0,0,0,1,0
10223,-3.21174e-12,0,-1.53735e-06,-3.27738e-12,0,0,-1.0663e-13,0,0,0,0,0,0,0,0,0,0,0,0,0,0,0,0,0,0,0,0,0,-0.25,3.10803,-1.5,3.94113e+12,0,0,2,0,0,0,0,0,0,0,0,1.9603e-19,0,0,0,0,0,0,0,0,0,1,0
10238,-3.21174e-12,0,-1.53735e-06,-3.27738e-12,0,0,-1.0663e-13,0,0,0,0,0,0,0,0,0,0,0,0,0,0,0,0,0,0,0,0,0,-0.25,3.10903,-1.5,3.94113e+12,0,0,2,0,0,0,0,0,0,0,0,1.9603e-19,0,0,0,0,0,0,0,0,0,1,0
10255,-3.21174e-12,0,-1.53735e-06,-3.27738e-12,0,0,-1.06631e-13,0,0,0,0,0,0,0,0,0,0,0,0,0,0,0,0,0,0,0,0,0,-0.25,3.11006,-1.5,3.94113e+12,0,0,2,0,0,0,0,0,0,0,0,1.9603e-19,0,0,0,0,0,0,0,0,0,1,0
10271,-3.21174e-12,0,-1.53735e-06,-3.27738e-12,0,0,-1.06631e-13,0,0,0,0,0,0,0,0,0,0,0,0,0,0,0,0,0,0,0,0,0,-0.25,3.11112,-1.5,3.94113e+12,0,0,2,0,0,0,0,0,0,0,0,1.9603e-19,0,0,0,0,0,0,0,0,0,1,0
10287,-3.21174e-12,0,-1.53735e-06,-3.27738e-12,0,0,-1.06631e-13,0,0,0,0,0,0,0,0,0,0,0,0,0,0,0,0,0,0,0,0,0,-0.25,3.11208,-1.5,3.94113e+12,0,0,2,0,0,0,0,0,0,0,0,1.9603e-19,0,0,0,0,0,0,0,0,0,1,0
10303,-3.21174e-12,0,-1.53735e-06,-3.27738e-12,0,0,-1.06631e-13,0,0,0,0,0,0,0,0,0,0,0,0,0,0,0,0,0,0,0,0,0,-0.25,3.11302,-1.5,3.94113e+12,0,0,2,0,0,0,0,0,0,0,0,1.9603e-19,0,0,0,0,0,0,0,0,0,1,0
10319,-3.21174e-12,0,-1.53735e-06,-3.27738e-12,0,0,-1.06632e-13,0,0,0,0,0,0,0,0,0,0,0,0,0,0,0,0,0,0,0,0,0,-0.25,3.11392,-1.5,3.94113e+12,0,0,2,0,0,0,0,0,0,0,0,1.9603e-19,0,0,0,0,0,0,0,0,0,1,0
10335,-3.21174e-12,0,-1.53735e-06,-3.27738e-12,0,0,-1.06632e-13,0,0,0,0,0,0,0,0,0,0,0,0,0,0,0,0,0,0,0,0,0,-0.25,3.11474,-1.5,3.94113e+12,0,0,2,0,0,0,0,0,0,0,0,1.9603e-19,0,0,0,0,0,0,0,0,0,1,0
10350,-3.21174e-12,0,-1.53735e-06,-3.27738e-12,0,0,-1.06632e-13,0,0,0,0,0,0,0,0,0,0,0,0,0,0,0,0,0,0,0,0,0,-0.25,3.11559,-1.5,3.94113e+12,0,0,2,0,0,0,0,0,0,0,0,1.9603e-19,0,0,0,0,0,0,0,0,0,1,0
10366,-3.21174e-12,0,-1.53735e-06,-3.27738e-12,0,0,-1.06632e-13,0,0,0,0,0,0,0,0,0,0,0,0,0,0,0,0,0,0,0,0,0,-0.25,3.11641,-1.5,3.94113e+12,0,0,2,0,0,0,0,0,0,0,0,1.9603e-19,0,0,0,0,0,0,0,0,0,1,0
10382,-3.21174e-12,0,-1.53735e-06,-3.27738e-12,0,0,-1.06633e-13,0,0,0,0,0,0,0,0,0,0,0,0,0,0,0,0,0,0,0,0,0,-0.25,3.11721,-1.5,3.94113e+12,0,0,2,0,0,0,0,0,0,0,0,1.9603e-19,0,0,0,0,0,0,0,0,0,1,0
10399,-3.21174e-12,0,-1.53735e-06,-3.27738e-12,0,0,-1.06633e-13,0,0,0,0,0,0,0,0,0,0,0,0,0,0,0,0,0,0,0,0,0,-0.25,3.11803,-1.5,3.94113e+12,0,0,2,0,0,0,0,0,0,0,0,1.9603e-19,0,0,0,0,0,0,0,0,0,1,0
10414,-3.21174e-12,0,-1.53735e-06,-3.27738e-12,0,0,-1.06633e-13,0,0,0,0,0,0,0,0,0,0,0,0,0,0,0,0,0,0,0,0,0,-0.25,3.11873,-1.5,3.94113e+12,0,0,2,0,0,0,0,0,0,0,0,1.9603e-19,0,0,0,0,0,0,0,0,0,1,0
10430,-3.21174e-12,0,-1.53735e-06,-3.27738e-12,0,0,-1.06634e-13,0,0,0,0,0,0,0,0,0,0,0,0,0,0,0,0,0,0,0,0,0,-0.25,3.11945,-1.5,3.94113e+12,0,0,2,0,0,0,0,0,0,0,0,1.9603e-19,0,0,0,0,0,0,0,0,0,1,0
10447,-3.21174e-12,0,-1.53735e-06,-3.27738e-12,0,0,-1.06634e-13,0,0,0,0,0,0,0,0,0,0,0,0,0,0,0,0,0,0,0,0,0,-0.25,3.1202,-1.5,3.94113e+12,0,0,2,0,0,0,0,0,0,0,0,1.9603e-19,0,0,0,0,0,0,0,0,0,1,0
10463,-3.21174e-12,0,-1.53735e-06,-3.27738e-12,0,0,-1.06634e-13,0,0,0,0,0,0,0,0,0,0,0,0,0,0,0,0,0,0,0,0,0,-0.25,3.12087,-1.5,3.94113e+12,0,0,2,0,0,0,0,0,0,0,0,1.9603e-19,0,0,0,0,0,0,0,0,0,1,0
10478,-3.21174e-12,0,-1.53735e-06,-3.27738e-12,0,0,-1.06634e-13,0,0,0,0,0,0,0,0,0,0,0,0,0,0,0,0,0,0,0,0,0,-0.25,3.12149,-1.5,3.94113e+12,0,0,2,0,0,0,0,0,0,0,0,1.9603e-19,0,0,0,0,0,0,0,0,0,1,0
10494,-3.21174e-12,0,-1.53735e-06,-3.27738e-12,0,0,-1.06635e-13,0,0,0,0,0,0,0,0,0,0,0,0,0,0,0,0,0,0,0,0,0,-0.25,3.12212,-1.5,3.94113e+12,0,0,2,0,0,0,0,0,0,0,0,1.9603e-19,0,0,0,0,0,0,0,0,0,1,0
10510,-3.21174e-12,0,-1.53735e-06,-3.27738e-12,0,0,-1.06635e-13,0,0,0,0,0,0,0,0,0,0,0,0,0,0,0,0,0,0,0,0,0,-0.25,3.12274,-1.5,3.94113e+12,0,0,2,0,0,0,0,0,0,0,0,1.9603e-19,0,0,0,0,0,0,0,0,0,1,0
10527,-3.21174e-12,0,-1.53735e-06,-3.27738e-12,0,0,-1.06635e-13,0,0,0,0,0,0,0,0,0,0,0,0,0,0,0,0,0,0,0,0,0,-0.25,3.12337,-1.5,3.94113e+12,0,0,2,0,0,0,0,0,0,0,0,1.9603e-19,0,0,0,0,0,0,0,0,0,1,0
10540,-3.21174e-12,0,-1.53735e-06,-3.27738e-12,0,0,-1.06635e-13,0,0,0,0,0,0,0,0,0,0,0,0,0,0,0,0,0,0,0,0,0,-0.25,3.12384,-1.5,3.94113e+12,0,0,2,0,0,0,0,0,0,0,0,1.9603e-19,0,0,0,0,0,0,0,0,0,1,0
10555,-3.21174e-12,0,-1.53735e-06,-3.27738e-12,0,0,-1.06636e-13,0,0,0,0,0,0,0,0,0,0,0,0,0,0,0,0,0,0,0,0,0,-0.25,3.12433,-1.5,3.94113e+12,0,0,2,0,0,0,0,0,0,0,0,1.9603e-19,0,0,0,0,0,0,0,0,0,1,0
10569,-3.21174e-12,0,-1.53735e-06,-3.27738e-12,0,0,-1.06636e-13,0,0,0,0,0,0,0,0,0,0,0,0,0,0,0,0,0,0,0,0,0,-0.25,3.12485,-1.5,3.94113e+12,0,0,2,0,0,0,0,0,0,0,0,1.9603e-19,0,0,0,0,0,0,0,0,0,1,0
10584,-3.21174e-12,0,-1.53735e-06,-3.27738e-12,0,0,-1.06636e-13,0,0,0,0,0,0,0,0,0,0,0,0,0,0,0,0,0,0,0,0,0,-0.25,3.12534,-1.5,3.94113e+12,0,0,2,0,0,0,0,0,0,0,0,1.9603e-19,0,0,0,0,0,0,0,0,0,1,0
10600,-3.21174e-12,0,-1.53735e-06,-3.27738e-12,0,0,-1.06636e-13,0,0,0,0,0,0,0,0,0,0,0,0,0,0,0,0,0,0,0,0,0,-0.25,3.12583,-1.5,3.94113e+12,0,0,2,0,0,0,0,0,0,0,0,1.9603e-19,0,0,0,0,0,0,0,0,0,1,0
10615,-3.21174e-12,0,-1.53735e-06,-3.27738e-12,0,0,-1.06637e-13,0,0,0,0,0,0,0,0,0,0,0,0,0,0,0,0,0,0,0,0,0,-0.25,3.12632,-1.5,3.94113e+12,0,0,2,0,0,0,0,0,0,0,0,1.9603e-19,0,0,0,0,0,0,0,0,0,1,0
10631,-3.21174e-12,0,-1.53735e-06,-3.27738e-12,0,0,-1.06637e-13,0,0,0,0,0,0,0,0,0,0,0,0,0,0,0,0,0,0,0,0,0,-0.25,3.12681,-1.5,3.94113e+12,0,0,2,0,0,0,0,0,0,0,0,1.9603e-19,0,0,0,0,0,0,0,0,0,1,0
10647,-3.21174e-12,0,-1.53735e-06,-3.27738e-12,0,0,-1.06637e-13,0,0,0,0,0,0,0,0,0,0,0,0,0,0,0,0,0,0,0,0,0,-0.25,3.12728,-1.5,3.94113e+12,0,0,2,0,0,0,0,0,0,0,0,1.9603e-19,0,0,0,0,0,0,0,0,0,1,0
10663,-3.21174e-12,0,-1.53735e-06,-3.27738e-12,0,0,-1.06638e-13,0,0,0,0,0,0,0,0,0,0,0,0,0,0,0,0,0,0,0,0,0,-0.25,3.1277,-1.5,3.94113e+12,0,0,2,0,0,0,0,0,0,0,0,1.9603e-19,0,0,0,0,0,0,0,0,0,1,0
10678,-3.21174e-12,0,-1.53735e-06,-3.27738e-12,0,0,-1.06638e-13,0,0,0,0,0,0,0,0,0,0,0,0,0,0,0,0,0,0,0,0,0,-0.25,3.12814,-1.5,3.94113e+12,0,0,2,0,0,0,0,0,0,0,0,1.9603e-19,0,0,0,0,0,0,0,0,0,1,0
10695,-3.21174e-12,0,-1.53735e-06,-3.27738e-12,0,0,-1.06638e-13,0,0,0,0,0,0,0,0,0,0,0,0,0,0,0,0,0,0,0,0,0,-0.25,3.12859,-1.5,3.94113e+12,0,0,2,0,0,0,0,0,0,0,0,1.9603e-19,0,0,0,0,0,0,0,0,0,1,0
10710,-3.21174e-12,0,-1.53735e-06,-3.27738e-12,0,0,-1.06638e-13,0,0,0,0,0,0,0,0,0,0,0,0,0,0,0,0,0,0,0,0,0,-0.25,3.12898,-1.5,3.94113e+12,0,0,2,0,0,0,0,0,0,0,0,1.9603e-19,0,0,0,0,0,0,0,0,0,1,0
10726,-3.21174e-12,0,-1.53735e-06,-3.27738e-12,0,0,-1.06639e-13,0,0,0,0,0,0,0,0,0,0,0,0,0,0,0,0,0,0,0,0,0,-0.25,3.12938,-1.5,3.94113e+12,0,0,2,0,0,0,0,0,0,0,0,1.9603e-19,0,0,0,0,0,0,0,0,0,1,0
10741,-3.21174e-12,0,-1.53735e-06,-3.27738e-12,0,0,-1.06639e-13,0,0,0,0,0,0,0,0,0,0,0,0,0,0,0,0,0,0,0,0,0,-0.25,3.12974,-1.5,3.94113e+12,0,0,2,0,0,0,0,0,0,0,0,1.9603e-19,0,0,0,0,0,0,0,0,0,1,0
10757,-3.21174e-12,0,-1.53735e-06,-3.27738e-12,0,0,-1.06639e-13,0,0,0,0,0,0,0,0,0,0,0,0,0,0,0,0,0,0,0,0,0,-0.25,3.13011,-1.5,3.94113e+12,0,0,2,0,0,0,0,0,0,0,0,1.9603e-19,0,0,0,0,0,0,0,0,0,1,0
10773,-3.21174e-12,0,-1.53735e-06,-3.27738e-12,0,0,-1.06639e-13,0,0,0,0,0,0,0,0,0,0,0,0,0,0,0,0,0,0,0,0,0,-0.25,3.13048,-1.5,3.94113e+12,0,0,2,0,0,0,0,0,0,0,0,1.9603e-19,0,0,0,0,0,0,0,0,0,1,0
10789,-3.21174e-12,0,-1.53735e-06,-3.27738e-12,0,0,-1.0664e-13,0,0,0,0,0,0,0,0,0,0,0,0,0,0,0,0,0,0,0,0,0,-0.25,3.13083,-1.5,3.94113e+12,0,0,2,0,0,0,0,0,0,0,0,1.9603e-19,0,0,0,0,0,0,0,0,0,1,0
10805,-3.21174e-12,0,-1.53735e-06,-3.27738e-12,0,0,-1.0664e-13,0,0,0,0,0,0,0,0,0,0,0,0,0,0,0,0,0,0,0,0,0,-0.25,3.13117,-1.5,3.94113e+12,0,0,2,0,0,0,0,0,0,0,0,1.9603e-19,0,0,0,0,0,0,0,0,0,1,0
10822,-3.21174e-12,0,-1.53735e-06,-3.27738e-12,0,0,-1.0664e-13,0,0,0,0,0,0,0,0,0,0,0,0,0,0,0,0,0,0,0,0,0,-0.25,3.1315,-1.5,3.94113e+12,0,0,2,0,0,0,0,0,0,0,0,1.9603e-19,0,0,0,0,0,0,0,0,0,1,0
10837,-3.21174e-12,0,-1.53735e-06,-3.27738e-12,0,0,-1.06641e-13,0,0,0,0,0,0,0,0,0,0,0,0,0,0,0,0,0,0,0,0,0,-0.25,3.13182,-1.5,3.94113e+12,0,0,2,0,0,0,0,0,0,0,0,1.9603e-19,0,0,0,0,0,0,0,0,0,1,0
10853,-3.21174e-12,0,-1.53735e-06,-3.27738e-12,0,0,-1.06641e-13,0,0,0,0,0,0,0,0,0,0,0,0,0,0,0,0,0,0,0,0,0,-0.25,3.13211,-1.5,3.94113e+12,0,0,2,0,0,0,0,0,0,0,0,1.9603e-19,0,0,0,0,0,0,0,0,0,1,0
10866,-3.21174e-12,0,-1.53735e-06,-3.27738e-12,0,0,-1.06641e-13,0,0,0,0,0,0,0,0,0,0,0,0,0,0,0,0,0,0,0,0,0,-0.25,3.13237,-1.5,3.94113e+12,0,0,2,0,0,0,0,0,0,0,0,1.9603e-19,0,0,0,0,0,0,0,0,0,1,0
10879,-3.21174e-12,0,-1.53735e-06,-3.27738e-12,0,0,-1.06641e-13,0,0,0,0,0,0,0,0,0,0,0,0,0,0,0,0,0,0,0,0,0,-0.25,3.13261,-1.5,3.94113e+12,0,0,2,0,0,0,0,0,0,0,0,1.9603e-19,0,0,0,0,0,0,0,0,0,1,0
10894,-3.21174e-12,0,-1.53735e-06,-3.27738e-12,0,0,-1.06642e-13,0,0,0,0,0,0,0,0,0,0,0,0,0,0,0,0,0,0,0,0,0,-0.25,3.13287,-1.5,3.94113e+12,0,0,2,0,0,0,0,0,0,0,0,1.9603e-19,0,0,0,0,0,0,0,0,0,1,0
10910,-3.21174e-12,0,-1.53735e-06,-3.27738e-12,0,0,-1.06642e-13,0,0,0,0,0,0,0,0,0,0,0,0,0,0,0,0,0,0,0,0,0,-0.25,3.13315,-1.5,3.94113e+12,0,0,2,0,0,0,0,0,0,0,0,1.9603e-19,0,0,0,0,0,0,0,0,0,1,0
10926,-3.21174e-12,0,-1.53735e-06,-3.27738e-12,0,0,-1.06642e-13,0,0,0,0,0,0,0,0,0,0,0,0,0,0,0,0,0,0,0,0,0,-0.25,3.13342,-1.5,3.94113e+12,0,0,2,0,0,0,0,0,0,0,0,1.9603e-19,0,0,0,0,0,0,0,0,0,1,0
10943,-3.21174e-12,0,-1.53735e-06,-3.27738e-12,0,0,-1.06642e-13,0,0,0,0,0,0,0,0,0,0,0,0,0,0,0,0,0,0,0,0,0,-0.25,3.13369,-1.5,3.94113e+12,0,0,2,0,0,0,0,0,0,0,0,1.9603e-19,0,0,0,0,0,0,0,0,0,1,0
10959,-3.21174e-12,0,-1.53735e-06,-3.27738e-12,0,0,-1.06643e-13,0,0,0,0,0,0,0,0,0,0,0,0,0,0,0,0,0,0,0,0,0,-0.25,3.13394,-1.5,3.94113e+12,0,0,2,0,0,0,0,0,0,0,0,1.9603e-19,0,0,0,0,0,0,0,0,0,1,0
10974,-3.21174e-12,0,-1.53735e-06,-3.27738e-12,0,0,-1.06643e-13,0,0,0,0,0,0,0,0,0,0,0,0,0,0,0,0,0,0,0,0,0,-0.25,3.13417,-1.5,3.94113e+12,0,0,2,0,0,0,0,0,0,0,0,1.9603e-19,0,0,0,0,0,0,0,0,0,1,0
10991,-3.21174e-12,0,-1.53735e-06,-3.27738e-12,0,0,-1.06643e-13,0,0,0,0,0,0,0,0,0,0,0,0,0,0,0,0,0,0,0,0,0,-0.25,3.1344,-1.5,3.94113e+12,0,0,2,0,0,0,0,0,0,0,0,1.9603e-19,0,0,0,0,0,0,0,0,0,1,0
11007,-3.21174e-12,0,-1.53735e-06,-3.27738e-12,0,0,-1.06644e-13,0,0,0,0,0,0,0,0,0,0,0,0,0,0,0,0,0,0,0,0,0,-0.25,3.13463,-1.5,3.94113e+12,0,0,2,0,0,0,0,0,0,0,0,1.9603e-19,0,0,0,0,0,0,0,0,0,1,0
11024,-3.21174e-12,0,-1.53735e-06,-3.27738e-12,0,0,-1.06644e-13,0,0,0,0,0,0,0,0,0,0,0,0,0,0,0,0,0,0,0,0,0,-0.25,3.13488,-1.5,3.94113e+12,0,0,2,0,0,0,0,0,0,0,0,1.9603e-19,0,0,0,0,0,0,0,0,0,1,0
11039,-3.21174e-12,0,-1.53735e-06,-3.27738e-12,0,0,-1.06644e-13,0,0,0,0,0,0,0,0,0,0,0,0,0,0,0,0,0,0,0,0,0,-0.25,3.13508,-1.5,3.94113e+12,0,0,2,0,0,0,0,0,0,0,0,1.9603e-19,0,0,0,0,0,0,0,0,0,1,0
11056,-3.21174e-12,0,-1.53735e-06,-3.27738e-12,0,0,-1.06644e-13,0,0,0,0,0,0,0,0,0,0,0,0,0,0,0,0,0,0,0,0,0,-0.25,3.13528,-1.5,3.94113e+12,0,0,2,0,0,0,0,0,0,0,0,1.9603e-19,0,0,0,0,0,0,0,0,0,1,0
11072,-3.21174e-12,0,-1.53735e-06,-3.27738e-12,0,0,-1.06645e-13,0,0,0,0,0,0,0,0,0,0,0,0,0,0,0,0,0,0,0,0,0,-0.25,3.1355,-1.5,3.94113e+12,0,0,2,0,0,0,0,0,0,0,0,1.9603e-19,0,0,0,0,0,0,0,0,0,1,0
11088,-3.21174e-12,0,-1.53735e-06,-3.27738e-12,0,0,-1.06645e-13,0,0,0,0,0,0,0,0,0,0,0,0,0,0,0,0,0,0,0,0,0,-0.25,3.13568,-1.5,3.94113e+12,0,0,2,0,0,0,0,0,0,0,0,1.9603e-19,0,0,0,0,0,0,0,0,0,1,0
11104,-3.21174e-12,0,-1.53735e-06,-3.27738e-12,0,0,-1.06645e-13,0,0,0,0,0,0,0,0,0,0,0,0,0,0,0,0,0,0,0,0,0,-0.25,3.13585,-1.5,3.94113e+12,0,0,2,0,0,0,0,0,0,0,0,1.9603e-19,0,0,0,0,0,0,0,0,0,1,0
11119,-3.21174e-12,0,-1.53735e-06,-3.27738e-12,0,0,-1.06645e-13,0,0,0,0,0,0,0,0,0,0,0,0,0,0,0,0,0,0,0,0,0,-0.25,3.13603,-1.5,3.94113e+12,0,0,2,0,0,0,0,0,0,0,0,1.9603e-19,0,0,0,0,0,0,0,0,0,1,0
11135,-3.21174e-12,0,-1.53735e-06,-3.27738e-12,0,0,-1.06646e-13,0,0,0,0,0,0,0,0,0,0,0,0,0,0,0,0,0,0,0,0,0,-0.25,3.13621,-1.5,3.94113e+12,0,0,2,0,0,0,0,0,0,0,0,1.9603e-19,0,0,0,0,0,0,0,0,0,1,0
11151,-3.21174e-12,0,-1.53735e-06,-3.27738e-12,0,0,-1.06646e-13,0,0,0,0,0,0,0,0,0,0,0,0,0,0,0,0,0,0,0,0,0,-0.25,3.13637,-1.5,3.94113e+12,0,0,2,0,0,0,0,0,0,0,0,1.9603e-19,0,0,0,0,0,0,0,0,0,1,0
11166,-3.21174e-12,0,-1.53735e-06,-3.27738e-12,0,0,-1.06646e-13,0,0,0,0,0,0,0,0,0,0,0,0,0,0,0,0,0,0,0,0,0,-0.25,3.13653,-1.5,3.94113e+12,0,0,2,0,0,0,0,0,0,0,0,1.9603e-19,0,0,0,0,0,0,0,0,0,1,0
11182,-3.21174e-12,0,-1.53735e-06,-3.27738e-12,0,0,-1.06647e-13,0,0,0,0,0,0,0,0,0,0,0,0,0,0,0,0,0,0,0,0,0,-0.25,3.13669,-1.5,3.94113e+12,0,0,2,0,0,0,0,0,0,0,0,1.9603e-19,0,0,0,0,0,0,0,0,0,1,0
11201,-3.21174e-12,0,-1.53735e-06,-3.27738e-12,0,0,-1.06647e-13,0,0,0,0,0,0,0,0,0,0,0,0,0,0,0,0,0,0,0,0,0,-0.25,3.13688,-1.5,3.94113e+12,0,0,2,0,0,0,0,0,0,0,0,1.9603e-19,0,0,0,0,0,0,0,0,0,1,0
11215,-3.21174e-12,0,-1.53735e-06,-3.27738e-12,0,0,-1.06647e-13,0,0,0,0,0,0,0,0,0,0,0,0,0,0,0,0,0,0,0,0,0,-0.25,3.13701,-1.5,3.94113e+12,0,0,2,0,0,0,0,0,0,0,0,1.9603e-19,0,0,0,0,0,0,0,0,0,1,0
11228,-3.21174e-12,0,-1.53735e-06,-3.27738e-12,0,0,-1.06647e-13,0,0,0,0,0,0,0,0,0,0,0,0,0,0,0,0,0,0,0,0,0,-0.25,3.13713,-1.5,3.94113e+12,0,0,2,0,0,0,0,0,0,0,0,1.9603e-19,0,0,0,0,0,0,0,0,0,1,0
11244,-3.21174e-12,0,-1.53735e-06,-3.27738e-12,0,0,-1.06648e-13,0,0,0,0,0,0,0,0,0,0,0,0,0,0,0,0,0,0,0,0,0,-0.25,3.13727,-1.5,3.94113e+12,0,0,2,0,0,0,0,0,0,0,0,1.9603e-19,0,0,0,0,0,0,0,0,0,1,0
11260,-3.21174e-12,0,-1.53735e-06,-3.27738e-12,0,0,-1.06648e-13,0,0,0,0,0,0,0,0,0,0,0,0,0,0,0,0,0,0,0,0,0,-0.25,3.1374,-1.5,3.94113e+12,0,0,2,0,0,0,0,0,0,0,0,1.9603e-19,0,0,0,0,0,0,0,0,0,1,0
11277,-3.21174e-12,0,-1.53735e-06,-3.27738e-12,0,0,-1.06648e-13,0,0,0,0,0,0,0,0,0,0,0,0,0,0,0,0,0,0,0,0,0,-0.25,3.13755,-1.5,3.94113e+12,0,0,2,0,0,0,0,0,0,0,0,1.9603e-19,0,0,0,0,0,0,0,0,0,1,0
11293,-3.21174e-12,0,-1.53735e-06,-3.27738e-12,0,0,-1.06648e-13,0,0,0,0,0,0,0,0,0,0,0,0,0,0,0,0,0,0,0,0,0,-0.25,3.13767,-1.5,3.94113e+12,0,0,2,0,0,0,0,0,0,0,0,1.9603e-19,0,0,0,0,0,0,0,0,0,1,0
11308,-3.21174e-12,0,-1.53735e-06,-3.27738e-12,0,0,-1.06649e-13,0,0,0,0,0,0,0,0,0,0,0,0,0,0,0,0,0,0,0,0,0,-0.25,3.13779,-1.5,3.94113e+12,0,0,2,0,0,0,0,0,0,0,0,1.9603e-19,0,0,0,0,0,0,0,0,0,1,0
11326,-3.21174e-12,0,-1.53735e-06,-3.27738e-12,0,0,-1.06649e-13,0,0,0,0,0,0,0,0,0,0,0,0,0,0,0,0,0,0,0,0,0,-0.25,3.13792,-1.5,3.94113e+12,0,0,2,0,0,0,0,0,0,0,0,1.9603e-19,0,0,0,0,0,0,0,0,0,1,0
11341,-3.21174e-12,0,-1.53735e-06,-3.27738e-12,0,0,-1.06649e-13,0,0,0,0,0,0,0,0,0,0,0,0,0,0,0,0,0,0,0,0,0,-0.25,3.13803,-1.5,3.94113e+12,0,0,2,0,0,0,0,0,0,0,0,1.9603e-19,0,0,0,0,0,0,0,0,0,1,0
11357,-3.21174e-12,0,-1.53735e-06,-3.27738e-12,0,0,-1.06649e-13,0,0,0,0,0,0,0,0,0,0,0,0,0,0,0,0,0,0,0,0,0,-0.25,3.13815,-1.5,3.94113e+12,0,0,2,0,0,0,0,0,0,0,0,1.9603e-19,0,0,0,0,0,0,0,0,0,1,0
11372,-3.21174e-12,0,-1.53735e-06,-3.27738e-12,0,0,-1.0665e-13,0,0,0,0,0,0,0,0,0,0,0,0,0,0,0,0,0,0,0,0,0,-0.25,3.13825,-1.5,3.94113e+12,0,0,2,0,0,0,0,0,0,0,0,1.9603e-19,0,0,0,0,0,0,0,0,0,1,0
11389,-3.21174e-12,0,-1.53735e-06,-3.27738e-12,0,0,-1.0665e-13,0,0,0,0,0,0,0,0,0,0,0,0,0,0,0,0,0,0,0,0,0,-0.25,3.13836,-1.5,3.94113e+12,0,0,2,0,0,0,0,0,0,0,0,1.9603e-19,0,0,0,0,0,0,0,0,0,1,0
11405,-3.21174e-12,0,-1.53735e-06,-3.27738e-12,0,0,-1.0665e-13,0,0,0,0,0,0,0,0,0,0,0,0,0,0,0,0,0,0,0,0,0,-0.25,3.13846,-1.5,3.94113e+12,0,0,2,0,0,0,0,0,0,0,0,1.9603e-19,0,0,0,0,0,0,0,0,0,1,0
11421,-3.21174e-12,0,-1.53735e-06,-3.27738e-12,0,0,-1.06651e-13,0,0,0,0,0,0,0,0,0,0,0,0,0,0,0,0,0,0,0,0,0,-0.25,3.13856,-1.5,3.94113e+12,0,0,2,0,0,0,0,0,0,0,0,1.9603e-19,0,0,0,0,0,0,0,0,0,1,0
11437,-3.21174e-12,0,-1.53735e-06,-3.27738e-12,0,0,-1.06651e-13,0,0,0,0,0,0,0,0,0,0,0,0,0,0,0,0,0,0,0,0,0,-0.25,3.13866,-1.5,3.94113e+12,0,0,2,0,0,0,0,0,0,0,0,1.9603e-19,0,0,0,0,0,0,0,0,0,1,0
11453,-3.21174e-12,0,-1.53735e-06,-3.27738e-12,0,0,-1.06651e-13,0,0,0,0,0,0,0,0,0,0,0,0,0,0,0,0,0,0,0,0,0,-0.25,3.13875,-1.5,3.94113e+12,0,0,2,0,0,0,0,0,0,0,0,1.9603e-19,0,0,0,0,0,0,0,0,0,1,0
11469,-3.21174e-12,0,-1.53735e-06,-3.27738e-12,0,0,-1.06651e-13,0,0,0,0,0,0,0,0,0,0,0,0,0,0,0,0,0,0,0,0,0,-0.25,3.13884,-1.5,3.94113e+12,0,0,2,0,0,0,0,0,0,0,0,1.9603e-19,0,0,0,0,0,0,0,0,0,1,0
11485,-3.21174e-12,0,-1.53735e-06,-3.27738e-12,0,0,-1.06652e-13,0,0,0,0,0,0,0,0,0,0,0,0,0,0,0,0,0,0,0,0,0,-0.25,3.13893,-1.5,3.94113e+12,0,0,2,0,0,0,0,0,0,0,0,1.9603e-19,0,0,0,0,0,0,0,0,0,1,0
11501,-3.21174e-12,0,-1.53735e-06,-3.27738e-12,0,0,-1.06652e-13,0,0,0,0,0,0,0,0,0,0,0,0,0,0,0,0,0,0,0,0,0,-0.25,3.13901,-1.5,3.94113e+12,0,0,2,0,0,0,0,0,0,0,0,1.9603e-19,0,0,0,0,0,0,0,0,0,1,0
11517,-3.21174e-12,0,-1.53735e-06,-3.27738e-12,0,0,-1.06652e-13,0,0,0,0,0,0,0,0,0,0,0,0,0,0,0,0,0,0,0,0,0,-0.25,3.13909,-1.5,3.94113e+12,0,0,2,0,0,0,0,0,0,0,0,1.9603e-19,0,0,0,0,0,0,0,0,0,1,0
11533,-3.21174e-12,0,-1.53735e-06,-3.27738e-12,0,0,-1.06652e-13,0,0,0,0,0,0,0,0,0,0,0,0,0,0,0,0,0,0,0,0,0,-0.25,3.13916,-1.5,3.94113e+12,0,0,2,0,0,0,0,0,0,0,0,1.9603e-19,0,0,0,0,0,0,0,0,0,1,0
11546,-3.21174e-12,0,-1.53735e-06,-3.27738e-12,0,0,-1.06653e-13,0,0,0,0,0,0,0,0,0,0,0,0,0,0,0,0,0,0,0,0,0,-0.25,3.13923,-1.5,3.94113e+12,0,0,2,0,0,0,0,0,0,0,0,1.9603e-19,0,0,0,0,0,0,0,0,0,1,0
11560,-3.21174e-12,0,-1.53735e-06,-3.27738e-12,0,0,-1.06653e-13,0,0,0,0,0,0,0,0,0,0,0,0,0,0,0,0,0,0,0,0,0,-0.25,3.13929,-1.5,3.94113e+12,0,0,2,0,0,0,0,0,0,0,0,1.9603e-19,0,0,0,0,0,0,0,0,0,1,0
11574,-3.21174e-12,0,-1.53735e-06,-3.27738e-12,0,0,-1.06653e-13,0,0,0,0,0,0,0,0,0,0,0,0,0,0,0,0,0,0,0,0,0,-0.25,3.13936,-1.5,3.94113e+12,0,0,2,0,0,0,0,0,0,0,0,1.9603e-19,0,0,0,0,0,0,0,0,0,1,0
11590,-3.21174e-12,0,-1.53735e-06,-3.27738e-12,0,0,-1.06654e-13,0,0,0,0,0,0,0,0,0,0,0,0,0,0,0,0,0,0,0,0,0,-0.25,3.13943,-1.5,3.94113e+12,0,0,2,0,0,0,0,0,0,0,0,1.9603e-19,0,0,0,0,0,0,0,0,0,1,0
11606,-3.21174e-12,0,-1.53735e-06,-3.27738e-12,0,0,-1.06654e-13,0,0,0,0,0,0,0,0,0,0,0,0,0,0,0,0,0,0,0,0,0,-0.25,3.1395,-1.5,3.94113e+12,0,0,2,0,0,0,0,0,0,0,0,1.9603e-19,0,0,0,0,0,0,0,0,0,1,0
11623,-3.21174e-12,0,-1.53735e-06,-3.27738e-12,0,0,-1.06654e-13,0,0,0,0,0,0,0,0,0,0,0,0,0,0,0,0,0,0,0,0,0,-0.25,3.13957,-1.5,3.94113e+12,0,0,2,0,0,0,0,0,0,0,0,1.9603e-19,0,0,0,0,0,0,0,0,0,1,0
11638,-3.21174e-12,0,-1.53735e-06,-3.27738e-12,0,0,-1.06654e-13,0,0,0,0,0,0,0,0,0,0,0,0,0,0,0,0,0,0,0,0,0,-0.25,3.13963,-1.5,3.94113e+12,0,0,2,0,0,0,0,0,0,0,0,1.9603e-19,0,0,0,0,0,0,0,0,0,1,0
11654,-3.21174e-12,0,-1.53735e-06,-3.27738e-12,0,0,-1.06655e-13,0,0,0,0,0,0,0,0,0,0,0,0,0,0,0,0,0,0,0,0,0,-0.25,3.13969,-1.5,3.94113e+12,0,0,2,0,0,0,0,0,0,0,0,1.9603e-19,0,0,0,0,0,0,0,0,0,1,0
11670,-3.21174e-12,0,-1.53735e-06,-3.27738e-12,0,0,-1.06655e-13,0,0,0,0,0,0,0,0,0,0,0,0,0,0,0,0,0,0,0,0,0,-0.25,3.13975,-1.5,3.94113e+12,0,0,2,0,0,0,0,0,0,0,0,1.9603e-19,0,0,0,0,0,0,0,0,0,1,0
11686,-3.21174e-12,0,-1.53735e-06,-3.27738e-12,0,0,-1.06655e-13,0,0,0,0,0,0,0,0,0,0,0,0,0,0,0,0,0,0,0,0,0,-0.25,3.13981,-1.5,3.94113e+12,0,0,2,0,0,0,0,0,0,0,0,1.9603e-19,0,0,0,0,0,0,0,0,0,1,0
11702,-3.21174e-12,0,-1.53735e-06,-3.27738e-12,0,0,-1.06655e-13,0,0,0,0,0,0,0,0,0,0,0,0,0,0,0,0,0,0,0,0,0,-0.25,3.13986,-1.5,3.94113e+12,0,0,2,0,0,0,0,0,0,0,0,1.9603e-19,0,0,0,0,0,0,0,0,0,1,0
11717,-3.21174e-12,0,-1.53735e-06,-3.27738e-12,0,0,-1.06656e-13,0,0,0,0,0,0,0,0,0,0,0,0,0,0,0,0,0,0,0,0,0,-0.25,3.13991,-1.5,3.94113e+12,0,0,2,0,0,0,0,0,0,0,0,1.9603e-19,0,0,0,0,0,0,0,0,0,1,0
11733,-3.21174e-12,0,-1.53735e-06,-3.27738e-12,0,0,-1.06656e-13,0,0,0,0,0,0,0,0,0,0,0,0,0,0,0,0,0,0,0,0,0,-0.25,3.13997,-1.5,3.94113e+12,0,0,2,0,0,0,0,0,0,0,0,1.9603e-19,0,0,0,0,0,0,0,0,0,1,0
11749,-3.21174e-12,0,-1.53735e-06,-3.27738e-12,0,0,-1.06656e-13,0,0,0,0,0,0,0,0,0,0,0,0,0,0,0,0,0,0,0,0,0,-0.25,3.14002,-1.5,3.94113e+12,0,0,2,0,0,0,0,0,0,0,0,1.9603e-19,0,0,0,0,0,0,0,0,0,1,0
11765,-3.21174e-12,0,-1.53735e-06,-3.27738e-12,0,0,-1.06657e-13,0,0,0,0,0,0,0,0,0,0,0,0,0,0,0,0,0,0,0,0,0,-0.25,3.14007,-1.5,3.94113e+12,0,0,2,0,0,0,0,0,0,0,0,1.9603e-19,0,0,0,0,0,0,0,0,0,1,0
11781,-3.21174e-12,0,-1.53735e-06,-3.27738e-12,0,0,-1.06657e-13,0,0,0,0,0,0,0,0,0,0,0,0,0,0,0,0,0,0,0,0,0,-0.25,3.14012,-1.5,3.94113e+12,0,0,2,0,0,0,0,0,0,0,0,1.9603e-19,0,0,0,0,0,0,0,0,0,1,0
11796,-3.21174e-12,0,-1.53735e-06,-3.27738e-12,0,0,-1.06657e-13,0,0,0,0,0,0,0,0,0,0,0,0,0,0,0,0,0,0,0,0,0,-0.25,3.14016,-1.5,3.94113e+12,0,0,2,0,0,0,0,0,0,0,0,1.9603e-19,0,0,0,0,0,0,0,0,0,1,0
11812,-3.21174e-12,0,-1.53735e-06,-3.27738e-12,0,0,-1.06657e-13,0,0,0,0,0,0,0,0,0,0,0,0,0,0,0,0,0,0,0,0,0,-0.25,3.14021,-1.5,3.94113e+12,0,0,2,0,0,0,0,0,0,0,0,1.9603e-19,0,0,0,0,0,0,0,0,0,1,0
11829,-3.21174e-12,0,-1.53735e-06,-3.27738e-12,0,0,-1.06658e-13,0,0,0,0,0,0,0,0,0,0,0,0,0,0,0,0,0,0,0,0,0,-0.25,3.14025,-1.5,3.94113e+12,0,0,2,0,0,0,0,0,0,0,0,1.9603e-19,0,0,0,0,0,0,0,0,0,1,0
11846,-3.21174e-12,0,-1.53735e-06,-3.27738e-12,0,0,-1.06658e-13,0,0,0,0,0,0,0,0,0,0,0,0,-1368084064,598324826,-1368084064,598324826,-171365626,-1368084064,-1368084016,-1368084016,0,-0.25,3.1403,-1.5,3.94113e+12,0,0,2,0,0,0,0,0,0,0,0,0,0,0,0,0,0,0,0,0,0,1,0
11872,-3.21174e-12,0,-1.53735e-06,-3.27738e-12,0,0,-1.06658e-13,0,0,-3.77618,-0.543888,0.835976,0,0,0,0,0,0,0,321,-89,321,-89,443,-91,318,27,0,-0.25,3.14036,-1.5,3.94113e+12,0,0,2,0,0,0,0,0,0,0,0,15500,0,0,0,0,0,0,0,0,0,1,0
11885,-3.21174e-12,0,-1.53735e-06,-3.27738e-12,0,0,-1.06658e-13,0,0,-3.77618,-0.543888,0.835976,0,0,0,0,0,0,0,321,-89,321,-89,443,-91,318,27,0,-0.25,3.1404,-1.5,3.94113e+12,0,0,2,0,0,0,0,0,0,0,0,15500,0,0,0,0,0,0,0,0,0,1,0
11899,-3.21174e-12,0,-1.53735e-06,-3.27738e-12,0,0,-1.06659e-13,0,0,-3.79509,-0.521135,0.753316,0,0,0,0,0,0,0,321,-80,321,-80,439,-80,314,39,0,-0.25,3.14043,-1.5,3.94113e+12,0,0,2,0,0,0,0,0,0,0,0,15250,0,0,0,0,0,0,0,0,0,1,0
11913,-3.21174e-12,0,-1.53735e-06,-3.27738e-12,0,0,-1.06659e-13,0,0,-3.79509,-0.521135,0.753316,0,0,0,0,0,0,0,321,-80,321,-80,439,-80,314,39,0,-0.25,3.14046,-1.5,3.94113e+12,0,0,2,0,0,0,0,0,0,0,0,15250,0,0,0,0,0,0,0,0,0,1,0
11929,-3.21174e-12,0,-1.53735e-06,-3.27738e-12,0,0,-1.06659e-13,0,0,-3.83791,-0.511354,0.708341,0,0,0,0,0,0,0,317,-73,317,-73,436,-69,315,45,0,-0.25,3.14049,-1.5,3.94113e+12,0,0,2,0,0,0,0,0,0,0,0,14762,0,0,0,0,0,0,0,0,0,1,0
11944,-3.21174e-12,0,-1.53735e-06,-3.27738e-12,0,0,-1.0666e-13,0,0,-3.83791,-0.511354,0.708341,0,0,0,0,0,0,0,317,-73,317,-73,436,-69,315,45,0,-0.25,3.14053,-1.5,3.94113e+12,0,0,2,0,0,0,0,0,0,0,0,14762,0,0,0,0,0,0,0,0,0,1,0
11960,-3.21174e-12,0,-1.53735e-06,-3.27738e-12,0,0,-1.0666e-13,0,0,-3.88408,-0.536023,0.68,0,0,0,0,0,0,0,321,-64,321,-64,438,-64,316,49,0,-0.25,3.14056,-1.5,3.94113e+12,0,0,2,0,0,0,0,0,0,0,0,14518,0,0,0,0,0,0,0,0,0,1,0
11975,-3.21174e-12,0,-1.53735e-06,-3.27738e-12,0,0,-1.0666e-13,0,0,-3.88408,-0.536023,0.68,0,0,0,0,0,0,0,321,-64,321,-64,438,-64,316,49,0,-0.25,3.14059,-1.5,3.94113e+12,0,0,2,0,0,0,0,0,0,0,0,14518,0,0,0,0,0,0,0,0,0,1,0
11991,-3.21174e-12,0,-1.53735e-06,-3.27738e-12,0,0,-1.0666e-13,0,0,-3.8261,-0.518737,0.603056,0,0,0,0,0,0,0,321,-61,321,-61,441,-59,312,55,0,-0.25,3.14062,-1.5,3.94113e+12,0,0,2,0,0,0,0,0,0,0,0,15480,0,0,0,0,0,0,0,0,0,1,0
12006,-3.21174e-12,0,-1.53735e-06,-3.27738e-12,0,0,-1.06661e-13,0,0,-3.8261,-0.518737,0.603056,0,0,0,0,0,0,0,321,-61,321,-61,441,-59,312,55,0,-0.25,3.14065,-1.5,3.94113e+12,0,0,2,0,0,0,0,0,0,0,0,15480,0,0,0,0,0,0,0,0,0,1,0
12028,-3.21174e-12,0,-1.53735e-06,-3.27738e-12,0,0,-1.06661e-13,0,0,-3.8261,-0.518737,0.603056,0,0,0,0,0,0,0,321,-61,321,-61,441,-59,312,55,0,-0.25,3.14069,-1.5,3.94113e+12,0,0,2,0,0,0,0,0,0,0,0,15480,0,0,0,0,0,0,0,0,0,1,0
12045,-3.21174e-12,0,-1.53735e-06,-3.27738e-12,0,0,-1.06661e-13,0,0,-3.88428,-0.501322,0.575859,0,0,0,0,0,0,0,318,-54,318,-54,434,-52,312,58,0,-0.25,3.14072,-1.5,3.94113e+12,0,0,2,0,0,0,0,0,0,0,0,14884,0,0,0,0,0,0,0,0,0,1,0
12066,-3.21174e-12,0,-1.53735e-06,-3.27738e-12,0,0,-1.06661e-13,0,0,-3.98044,-0.52326,0.614189,0,0,0,0,0,0,0,318,-51,318,-51,434,-48,316,59,0,-0.25,3.14076,-1.5,3.94113e+12,0,0,2,0,0,0,0,0,0,0,0,13924,0,0,0,0,0,0,0,0,0,1,0
12081,-3.21174e-12,0,-1.53735e-06,-3.27738e-12,0,0,-1.06662e-13,0,0,-3.98044,-0.52326,0.614189,0,0,0,0,0,0,0,318,-51,318,-51,434,-48,316,59,0,-0.25,3.14078,-1.5,3.94113e+12,0,0,2,0,0,0,0,0,0,0,0,13924,0,0,0,0,0,0,0,0,0,1,0
12097,-3.21174e-12,0,-1.53735e-06,-3.27738e-12,0,0,-1.06662e-13,0,0,-3.94409,-0.511902,0.555256,0,0,0,0,0,0,0,318,-49,318,-49,434,-42,313,63,0,-0.25,3.14081,-1.5,3.94113e+12,0,0,2,0,0,0,0,0,0,0,0,14520,0,0,0,0,0,0,0,0,0,1,0
12112,-3.21174e-12,0,-1.53735e-06,-3.27738e-12,0,0,-1.06662e-13,0,0,-3.94409,-0.511902,0.555256,0,0,0,0,0,0,0,318,-49,318,-49,434,-42,313,63,0,-0.25,3.14083,-1.5,3.94113e+12,0,0,2,0,0,0,0,0,0,0,0,14520,0,0,0,0,0,0,0,0,0,1,0
12128,-3.21174e-12,0,-1.53735e-06,-3.27738e-12,0,0,-1.06663e-13,0,0,-3.97428,-0.529696,0.524232,0,0,0,0,0,0,0,321,-41,321,-41,434,-38,313,67,0,-0.25,3.14086,-1.5,3.94113e+12,0,0,2,0,0,0,0,0,0,0,0,14036,0,0,0,0,0,0,0,0,0,1,0
12143,-3.21174e-12,0,-1.53735e-06,-3.27738e-12,0,0,-1.06663e-13,0,0,-3.97428,-0.529696,0.524232,0,0,0,0,0,0,0,321,-41,321,-41,434,-38,313,67,0,-0.25,3.14088,-1.5,3.94113e+12,0,0,2,0,0,0,0,0,0,0,0,14036,0,0,0,0,0,0,0,0,0,1,0
12160,-3.21175e-12,0,0,-3.27738e-12,0,0,-1.06663e-13,0,0,-4.01522,-0.527989,0.548345,0,0,0,0,0,0,0,322,-42,322,-42,434,-38,313,67,0,-0.25,3.1409,-1.5,3.94113e+12,0,0,2,0,0,0,0,0,0,0,0,14157,0,0,0,0,0,0,0,0,0,1,0
12176,-3.21174e-12,0,-1.53735e-06,-3.27738e-12,0,0,-1.06663e-13,0,0,-4.01522,-0.527989,0.548345,0,0,0,0,0,0,0,322,-42,322,-42,434,-38,313,67,0,-0.25,3.14092,-1.5,3.94113e+12,0,0,2,0,0,0,0,0,0,0,0,14157,0,0,0,0,0,0,0,0,0,1,0
12190,-3.21174e-12,0,-1.53735e-06,-3.27738e-12,0,0,-1.06664e-13,0,0,-3.93578,-0.491945,0.492915,0,0,0,0,0,0,0,318,-44,318,-44,433,-35,309,69,0,-0.25,3.14094,-1.5,3.94113e+12,0,0,2,0,0,0,0,0,0,0,0,15004,0,0,0,0,0,0,0,0,0,1,0
12203,-3.21174e-12,0,-1.53735e-06,-3.27738e-12,0,0,-1.06664e-13,0,0,-3.93578,-0.491945,0.492915,0,0,0,0,0,0,0,318,-44,318,-44,433,-35,309,69,0,-0.25,3.14096,-1.5,3.94113e+12,0,0,2,0,0,0,0,0,0,0,0,15004,0,0,0,0,0,0,0,0,0,1,0
12218,-3.21174e-12,0,-1.53735e-06,-3.27738e-12,0,0,-1.06664e-13,0,0,-3.93578,-0.491945,0.492915,0,0,0,0,0,0,0,318,-44,318,-44,433,-35,309,69,0,-0.25,3.14098,-1.5,3.94113e+12,0,0,2,0,0,0,0,0,0,0,0,15004,0,0,0,0,0,0,0,0,0,1,0
12234,-3.21174e-12,0,-1.53735e-06,-3.27738e-12,0,0,-1.06664e-13,0,0,-3.91976,-0.49441,0.474935,0,0,0,0,0,0,0,318,-42,318,-42,433,-35,309,70,0,-0.25,3.14099,-1.5,3.94113e+12,0,0,2,0,0,0,0,0,0,0,0,14880,0,0,0,0,0,0,0,0,0,1,0
12249,-3.21174e-12,0,-1.53735e-06,-3.27738e-12,0,0,-1.06665e-13,0,0,-3.91976,-0.49441,0.474935,0,0,0,0,0,0,0,318,-42,318,-42,433,-35,309,70,0,-0.25,3.14101,-1.5,3.94113e+12,0,0,2,0,0,0,0,0,0,0,0,14880,0,0,0,0,0,0,0,0,0,1,0
12265,-3.21174e-12,0,-1.53735e-06,-3.27738e-12,0,0,-1.06665e-13,0,0,-3.91691,-0.493654,0.466153,0,0,0,0,0,0,0,318,-41,318,-41,433,-35,309,72,0,-0.25,3.14103,-1.5,3.94113e+12,0,0,2,0,0,0,0,0,0,0,0,14756,0,0,0,0,0,0,0,0,0,1,0
12281,-3.21174e-12,0,-1.53735e-06,-3.27738e-12,0,0,-1.06665e-13,0,0,-3.91691,-0.493654,0.466153,0,0,0,0,0,0,0,318,-41,318,-41,433,-35,309,72,0,-0.25,3.14105,-1.5,3.94113e+12,0,0,2,0,0,0,0,0,0,0,0,14756,0,0,0,0,0,0,0,0,0,1,0
12296,-3.21174e-12,0,-1.53735e-06,-3.27738e-12,0,0,-1.06665e-13,0,0,-3.92586,-0.526113,0.463388,0,0,0,0,0,0,0,321,-39,321,-39,439,-35,313,70,0,-0.25,3.14107,-1.5,3.94113e+12,0,0,2,0,0,0,0,0,0,0,0,15120,0,0,0,0,0,0,0,0,0,1,0
12312,-3.21174e-12,0,-1.53735e-06,-3.27738e-12,0,0,-1.06666e-13,0,0,-3.92586,-0.526113,0.463388,0,0,0,0,0,0,0,321,-39,321,-39,439,-35,313,70,0,-0.25,3.14108,-1.5,3.94113e+12,0,0,2,0,0,0,0,0,0,0,0,15120,0,0,0,0,0,0,0,0,0,1,0
12327,-3.21174e-12,0,-1.53735e-06,-3.27738e-12,0,0,-1.06666e-13,0,0,-3.97979,-0.539997,0.477758,0,0,0,0,0,0,0,321,-36,321,-36,439,-34,316,72,0,-0.25,3.1411,-1.5,3.94113e+12,0,0,2,0,0,0,0,0,0,0,0,14391,0,0,0,0,0,0,0,0,0,1,0
12343,-3.21174e-12,0,-1.53735e-06,-3.27738e-12,0,0,-1.06666e-13,0,0,-3.97979,-0.539997,0.477758,0,0,0,0,0,0,0,321,-36,321,-36,439,-34,316,72,0,-0.25,3.14111,-1.5,3.94113e+12,0,0,2,0,0,0,0,0,0,0,0,14391,0,0,0,0,0,0,0,0,0,1,0
12358,-3.21174e-12,0,-1.53735e-06,-3.27738e-12,0,0,-1.06667e-13,0,0,-3.93718,-0.526995,0.459831,0,0,0,0,0,0,0,318,-37,318,-37,439,-35,316,72,0,-0.25,3.14113,-1.5,3.94113e+12,0,0,2,0,0,0,0,0,0,0,0,14514,0,0,0,0,0,0,0,0,0,1,0
12373,-3.21174e-12,0,-1.53735e-06,-3.27738e-12,0,0,-1.06667e-13,0,0,-3.93718,-0.526995,0.459831,0,0,0,0,0,0,0,318,-37,318,-37,439,-35,316,72,0,-0.25,3.14114,-1.5,3.94113e+12,0,0,2,0,0,0,0,0,0,0,0,14514,0,0,0,0,0,0,0,0,0,1,0
12389,-3.21174e-12,0,-1.53735e-06,-3.27738e-12,0,0,-1.06667e-13,0,0,-3.98398,-0.540637,0.487358,0,0,0,0,0,0,0,321,-36,321,-36,439,-35,316,70,0,-0.25,3.14115,-1.5,3.94113e+12,0,0,2,0,0,0,0,0,0,0,0,14391,0,0,0,0,0,0,0,0,0,1,0
12405,-3.21174e-12,0,-1.53735e-06,-3.27738e-12,0,0,-1.06667e-13,0,0,-3.98398,-0.540637,0.487358,0,0,0,0,0,0,0,321,-36,321,-36,439,-35,316,70,0,-0.25,3.14117,-1.5,3.94113e+12,0,0,2,0,0,0,0,0,0,0,0,14391,0,0,0,0,0,0,0,0,0,1,0
12421,-3.21174e-12,0,-1.53735e-06,-3.27738e-12,0,0,-1.06668e-13,0,0,-3.98398,-0.540637,0.487358,0,0,0,0,0,0,0,321,-36,321,-36,439,-35,316,70,0,-0.25,3.14118,-1.5,3.94113e+12,0,0,2,0,0,0,0,0,0,0,0,14391,0,0,0,0,0,0,0,0,0,1,0
12437,-3.21174e-12,0,-1.53735e-06,-3.27738e-12,0,0,-1.06668e-13,0,0,-3.97279,-0.537005,0.481424,0,0,0,0,0,0,0,320,-37,320,-37,439,-34,316,70,0,-0.25,3.14119,-1.5,3.94113e+12,0,0,2,0,0,0,0,0,0,0,0,14514,0,0,0,0,0,0,0,0,0,1,0
12455,-3.21174e-12,0,-1.53735e-06,-3.27738e-12,0,0,-1.06668e-13,0,0,-3.94574,-0.530325,0.45957,0,0,0,0,0,0,0,321,-36,321,-36,439,-35,314,73,0,-0.25,3.14121,-1.5,3.94113e+12,0,0,2,0,0,0,0,0,0,0,0,14625,0,0,0,0,0,0,0,0,0,1,0
12469,-3.21174e-12,0,-1.53735e-06,-3.27738e-12,0,0,-1.06668e-13,0,0,-3.94574,-0.530325,0.45957,0,0,0,0,0,0,0,321,-36,321,-36,439,-35,314,73,0,-0.25,3.14122,-1.5,3.94113e+12,0,0,2,0,0,0,0,0,0,0,0,14625,0,0,0,0,0,0,0,0,0,1,0
12482,-3.21174e-12,0,-1.53735e-06,-3.27738e-12,0,0,-1.06669e-13,0,0,-3.94574,-0.530325,0.45957,0,0,0,0,0,0,0,321,-36,321,-36,439,-35,314,73,0,-0.25,3.14123,-1.5,3.94113e+12,0,0,2,0,0,0,0,0,0,0,0,14625,0,0,0,0,0,0,0,0,0,1,0
12508,-3.21174e-12,0,-1.53735e-06,-3.27738e-12,0,0,-1.06669e-13,0,0,-3.89989,-0.516999,0.41611,0,0,0,0,0,0,0,320,-34,320,-34,439,-34,312,75,0,-0.25,3.14125,-1.5,3.94113e+12,0,0,2,0,0,0,0,0,0,0,0,14986,0,0,0,0,0,0,0,0,0,1,0
12524,-3.21174e-12,0,-1.53735e-06,-3.27738e-12,0,0,-1.06669e-13,0,0,-3.97167,-0.514799,0.450009,0,0,0,0,0,0,0,318,-34,318,-34,436,-29,312,75,0,-0.25,3.14126,-1.5,3.94113e+12,0,0,2,0,0,0,0,0,0,0,0,14260,0,0,0,0,0,0,0,0,0,1,0
12540,-3.21174e-12,0,-1.53735e-06,-3.27738e-12,0,0,-1.0667e-13,0,0,-3.97167,-0.514799,0.450009,0,0,0,0,0,0,0,318,-34,318,-34,436,-29,312,75,0,-0.25,3.14127,-1.5,3.94113e+12,0,0,2,0,0,0,0,0,0,0,0,14260,0,0,0,0,0,0,0,0,0,1,0
12556,-3.21174e-12,0,-1.53735e-06,-3.27738e-12,0,0,-1.0667e-13,0,0,-3.93528,-0.515853,0.4396,0,0,0,0,0,0,0,320,-39,320,-39,437,-29,312,75,0,-0.25,3.14128,-1.5,3.94113e+12,0,0,2,0,0,0,0,0,0,0,0,15125,0,0,0,0,0,0,0,0,0,1,0
12571,-3.21174e-12,0,-1.53735e-06,-3.27738e-12,0,0,-1.0667e-13,0,0,-3.93528,-0.515853,0.4396,0,0,0,0,0,0,0,320,-39,320,-39,437,-29,312,75,0,-0.25,3.14129,-1.5,3.94113e+12,0,0,2,0,0,0,0,0,0,0,0,15125,0,0,0,0,0,0,0,0,0,1,0
12587,-3.21174e-12,0,-1.53735e-06,-3.27738e-12,0,0,-1.0667e-13,0,0,-3.93528,-0.515853,0.4396,0,0,0,0,0,0,0,320,-39,320,-39,437,-29,312,75,0,-0.25,3.1413,-1.5,3.94113e+12,0,0,2,0,0,0,0,0,0,0,0,15125,0,0,0,0,0,0,0,0,0,1,0
12603,-3.21174e-12,0,-1.53735e-06,-3.27738e-12,0,0,-1.06671e-13,0,0,-3.92564,-0.523291,0.439803,0,0,0,0,0,0,0,321,-37,321,-37,436,-32,312,75,0,-0.25,3.14131,-1.5,3.94113e+12,0,0,2,0,0,0,0,0,0,0,0,14632,0,0,0,0,0,0,0,0,0,1,0
12618,-3.21174e-12,0,-1.53735e-06,-3.27738e-12,0,0,-1.06671e-13,0,0,-3.92564,-0.523291,0.439803,0,0,0,0,0,0,0,321,-37,321,-37,436,-32,312,75,0,-0.25,3.14131,-1.5,3.94113e+12,0,0,2,0,0,0,0,0,0,0,0,14632,0,0,0,0,0,0,0,0,0,1,0
