timestamp,A_x,A_y,A_z,P,Q,R,Phi,Theta,Psi,poseX,poseY,poseZ,state_X,state_Y,state_Z,state_VzB,state_Bx,state_By,state_Bz,p1_x,p1_y,p2_x,p2_y,p3_x,p3_y,p4_x,p4_y,roll,pitch,yaw,alt,targetHeading,highLevelState,lowLevelState,gateNumber,filtered_x,filtered_y,x_OT,y_OT,vx_OT,vy_OT,filtered_vx,filtered_vygateArearansac_corr_x,ransac_corr_y,ransac_corr_vx,ransac_corr_vy,detectionTimeStamp
7164,0,0,0,0,0,0,0,0,0,0,0,0,0,0,0,0,0,0,0,0,0,0,0,0,0,0,0,0,-0.261799,0.0141372,-1.5,-nan,0,0,2,0,0,0,0,0,0,0,0,1.9603e-19,0,0,0,0,0
7178,0,0,0,0,0,0,0,0,0,0,0,0,0,0,0,0,0,0,0,0,0,0,0,0,0,0,0,0,-0.261799,0.0361283,-1.5,-nan,0,0,2,0,0,0,0,0,0,0,0,1.9603e-19,0,0,0,0,0
7730,-3.72299e-12,1.56594e-38,-1.58299e-06,-3.85292e-12,1.56583e-38,-3.40903e-12,-1.13703e-13,0,0,0,0,0,0,0,0,0,0,0,0,0,0,0,0,0,0,0,0,0,-0.261799,0.901636,-1.5,-nan,0,0,2,0,0,0,0,0,0,0,0,1.9603e-19,0,0,0,0,0
7781,-3.72299e-12,1.56594e-38,-1.58299e-06,-3.85292e-12,1.56583e-38,0,-1.13703e-13,0,0,0,0,0,0,0,0,0,0,0,0,0,0,0,0,0,0,0,0,0,-0.261799,0.983318,-1.5,-nan,0,0,2,0,0,0,0,0,0,0,0,1.9603e-19,0,0,0,0,0
7825,-3.72299e-12,1.56594e-38,-1.58299e-06,-3.85292e-12,1.56583e-38,-3.40903e-12,-1.13704e-13,0,0,0,0,0,0,0,0,0,0,0,0,0,0,0,0,0,0,0,0,0,-0.261799,1.05243,-1.5,-nan,0,0,2,0,0,0,0,0,0,0,0,1.9603e-19,0,0,0,0,0
7843,-3.72299e-12,1.56594e-38,-1.58299e-06,-3.85292e-12,1.56583e-38,0,-1.13704e-13,0,0,0,0,0,0,0,0,0,0,0,0,0,0,0,0,0,0,0,0,0,-0.261799,1.08071,-1.5,-nan,0,0,2,0,0,0,0,0,0,0,0,1.9603e-19,0,0,0,0,0
7867,-3.72299e-12,1.56594e-38,-1.58299e-06,-3.85292e-12,1.56583e-38,-3.40903e-12,-1.13705e-13,0,0,0,0,0,0,0,0,0,0,0,0,0,0,0,0,0,0,0,0,0,-0.261799,1.11841,-1.5,-nan,0,0,2,0,0,0,0,0,0,0,0,1.9603e-19,0,0,0,0,0
7902,-3.72299e-12,1.56594e-38,-1.58299e-06,-3.85292e-12,1.56583e-38,0,-1.13705e-13,0,0,0,0,0,0,0,0,0,0,0,0,0,0,0,0,0,0,0,0,0,-0.261799,1.17338,-1.5,-nan,0,0,2,0,0,0,0,0,0,0,0,1.9603e-19,0,0,0,0,0
8010,-3.72299e-12,1.56594e-38,-1.58299e-06,-3.85292e-12,1.56583e-38,-3.40903e-12,-1.13706e-13,0,0,0,0,0,0,0,0,0,0,0,0,0,0,0,0,0,0,0,0,0,-0.261799,1.34303,-1.5,-nan,0,0,2,0,0,0,0,0,0,0,0,1.9603e-19,0,0,0,0,0
8120,-3.72299e-12,1.56594e-38,-1.58299e-06,-3.85292e-12,1.56583e-38,0,-1.13706e-13,0,0,0,0,0,0,0,0,0,0,0,0,0,0,0,0,0,0,0,0,0,-0.261799,1.51582,-1.5,-nan,0,0,2,0,0,0,0,0,0,0,0,1.9603e-19,0,0,0,0,0
8137,-3.72299e-12,1.56594e-38,-1.58299e-06,-3.85292e-12,1.56583e-38,-3.40903e-12,-1.13707e-13,0,0,0,0,0,0,0,0,0,0,0,0,0,0,0,0,0,0,0,0,0,-0.261799,1.54252,-1.5,-nan,0,0,2,0,0,0,0,0,0,0,0,1.9603e-19,0,0,0,0,0
8154,-3.72299e-12,1.56594e-38,-1.58299e-06,-3.85292e-12,1.56583e-38,0,-1.13708e-13,0,0,0,0,0,0,0,0,0,0,0,0,0,0,0,0,0,0,0,0,0,-0.261799,1.56923,-1.5,-nan,0,0,2,0,0,0,0,0,0,0,0,1.9603e-19,0,0,0,0,0
8174,-3.72299e-12,1.56594e-38,-1.58299e-06,-3.85292e-12,1.56583e-38,-3.40903e-12,-1.13708e-13,0,0,0,0,0,0,0,0,0,0,0,0,0,0,0,0,0,0,0,0,0,-0.261799,1.60064,-1.5,-nan,0,0,2,0,0,0,0,0,0,0,0,1.9603e-19,0,0,0,0,0
8191,-3.72299e-12,1.56594e-38,-1.58299e-06,-3.85292e-12,1.56583e-38,0,-1.13709e-13,0,0,0,0,0,0,0,0,0,0,0,0,0,0,0,0,0,0,0,0,0,-0.261799,1.62735,-1.5,-nan,0,0,2,0,0,0,0,0,0,0,0,1.9603e-19,0,0,0,0,0
8210,-3.72299e-12,1.56594e-38,-1.58299e-06,-3.85292e-12,1.56583e-38,-3.40903e-12,-1.13709e-13,0,0,0,0,0,0,0,0,0,0,0,0,0,0,0,0,0,0,0,0,0,-0.261799,1.65719,-1.5,-nan,0,0,2,0,0,0,0,0,0,0,0,1.9603e-19,0,0,0,0,0
8227,-3.72299e-12,1.56594e-38,-1.58299e-06,-3.85292e-12,1.56583e-38,0,-1.1371e-13,0,0,0,0,0,0,0,0,0,0,0,0,0,0,0,0,0,0,0,0,0,-0.261799,1.68389,-1.5,-nan,0,0,2,0,0,0,0,0,0,0,0,1.9603e-19,0,0,0,0,0
8244,-3.72299e-12,1.56594e-38,-1.58299e-06,-3.85292e-12,1.56583e-38,-3.40903e-12,-1.1371e-13,0,0,0,0,0,0,0,0,0,0,0,0,0,0,0,0,0,0,0,0,0,-0.261799,1.7106,-1.5,-nan,0,0,2,0,0,0,0,0,0,0,0,1.9603e-19,0,0,0,0,0
8264,-3.72299e-12,1.56594e-38,-1.58299e-06,-3.85292e-12,1.56583e-38,0,-1.13711e-13,0,0,0,0,0,0,0,0,0,0,0,0,0,0,0,0,0,0,0,0,0,-0.261799,1.74201,-1.5,-nan,0,0,2,0,0,0,0,0,0,0,0,1.9603e-19,0,0,0,0,0
8281,-3.72299e-12,1.56594e-38,-1.58299e-06,-3.85292e-12,1.56583e-38,-3.40903e-12,-1.13711e-13,0,0,0,0,0,0,0,0,0,0,0,0,0,0,0,0,0,0,0,0,0,-0.261799,1.76872,-1.5,-nan,0,0,2,0,0,0,0,0,0,0,0,1.9603e-19,0,0,0,0,0
8298,-3.72299e-12,1.56594e-38,-1.58299e-06,-3.85292e-12,1.56583e-38,0,-1.13712e-13,0,0,0,0,0,0,0,0,0,0,0,0,0,0,0,0,0,0,0,0,0,-0.261799,1.79542,-1.5,-nan,0,0,2,0,0,0,0,0,0,0,0,1.9603e-19,0,0,0,0,0
8314,-3.72299e-12,1.56594e-38,-1.58299e-06,-3.85292e-12,1.56583e-38,-3.40903e-12,-1.13712e-13,0,0,0,0,0,0,0,0,0,0,0,0,0,0,0,0,0,0,0,0,0,-0.261799,1.82055,-1.5,-nan,0,0,2,0,0,0,0,0,0,0,0,1.9603e-19,0,0,0,0,0
8353,-3.72299e-12,1.56594e-38,-1.58299e-06,-3.85292e-12,1.56583e-38,0,-1.13713e-13,0,0,0,0,0,0,0,0,0,0,0,0,0,0,0,0,0,0,0,0,0,-0.261799,1.88182,-1.5,-nan,0,0,2,0,0,0,0,0,0,0,0,1.9603e-19,0,0,0,0,0
8369,-3.72299e-12,1.56594e-38,-1.58299e-06,-3.85292e-12,1.56583e-38,-3.40903e-12,-1.13714e-13,0,0,0,0,0,0,0,0,0,0,0,0,0,0,0,0,0,0,0,0,0,-0.261799,1.90695,-1.5,-nan,0,0,2,0,0,0,0,0,0,0,0,1.9603e-19,0,0,0,0,0
8435,-3.72299e-12,1.56594e-38,-1.58299e-06,-3.85292e-12,1.56583e-38,0,-1.13714e-13,0,0,0,0,0,0,0,0,0,0,0,0,0,0,0,0,0,0,0,0,0,-0.261799,2.01062,-1.5,-nan,0,0,2,0,0,0,0,0,0,0,0,1.9603e-19,0,0,0,0,0
8452,-3.72299e-12,1.56594e-38,-1.58299e-06,-3.85292e-12,1.56583e-38,-3.40903e-12,-1.13715e-13,0,0,0,0,0,0,0,0,0,0,0,0,0,0,0,0,0,0,0,0,0,-0.261799,2.03575,-1.5,-nan,0,0,2,0,0,0,0,0,0,0,0,1.9603e-19,0,0,0,0,0
8471,-3.72299e-12,1.56594e-38,-1.58299e-06,-3.85292e-12,1.56583e-38,0,-1.13715e-13,0,0,0,0,0,0,0,0,0,0,0,0,0,0,0,0,0,0,0,0,0,-0.261799,2.06717,-1.5,-nan,0,0,2,0,0,0,0,0,0,0,0,1.9603e-19,0,0,0,0,0
8488,-3.72299e-12,1.56594e-38,-1.58299e-06,-3.85292e-12,1.56583e-38,-3.40903e-12,-1.13716e-13,0,0,0,0,0,0,0,0,0,0,0,0,0,0,0,0,0,0,0,0,0,-0.261799,2.09387,-1.5,-nan,0,0,2,0,0,0,0,0,0,0,0,1.9603e-19,0,0,0,0,0
8508,-3.72299e-12,1.56594e-38,-1.58299e-06,-3.85292e-12,1.56583e-38,0,-1.13716e-13,0,0,0,0,0,0,0,0,0,0,0,0,0,0,0,0,0,0,0,0,0,-0.261799,2.12529,-1.5,-nan,0,0,2,0,0,0,0,0,0,0,0,1.9603e-19,0,0,0,0,0
8524,-3.72299e-12,1.56594e-38,-1.58299e-06,-3.85292e-12,1.56583e-38,-3.40903e-12,-1.13717e-13,0,0,0,0,0,0,0,0,0,0,0,0,0,0,0,0,0,0,0,0,0,-0.261799,2.15042,-1.5,-nan,0,0,2,0,0,0,0,0,0,0,0,1.9603e-19,0,0,0,0,0
8541,-3.72299e-12,1.56594e-38,-1.58299e-06,-3.85292e-12,1.56583e-38,0,-1.13717e-13,0,0,0,0,0,0,0,0,0,0,0,0,0,0,0,0,0,0,0,0,0,-0.261799,2.17713,-1.5,-nan,0,0,2,0,0,0,0,0,0,0,0,1.9603e-19,0,0,0,0,0
8561,-3.72299e-12,1.56594e-38,-1.58299e-06,-3.85292e-12,1.56583e-38,-3.40903e-12,-1.13718e-13,0,0,0,0,0,0,0,0,0,0,0,0,0,0,0,0,0,0,0,0,0,-0.261799,2.20854,-1.5,-nan,0,0,2,0,0,0,0,0,0,0,0,1.9603e-19,0,0,0,0,0
8578,-3.72299e-12,1.56594e-38,-1.58299e-06,-3.85292e-12,1.56583e-38,0,-1.13718e-13,0,0,0,0,0,0,0,0,0,0,0,0,0,0,0,0,0,0,0,0,0,-0.261799,2.23525,-1.5,-nan,0,0,2,0,0,0,0,0,0,0,0,1.9603e-19,0,0,0,0,0
8597,-3.72299e-12,1.56594e-38,-1.58299e-06,-3.85292e-12,1.56583e-38,-3.40903e-12,-1.13719e-13,0,0,0,0,0,0,0,0,0,0,0,0,0,0,0,0,0,0,0,0,0,-0.261799,2.26509,-1.5,-nan,0,0,2,0,0,0,0,0,0,0,0,1.9603e-19,0,0,0,0,0
8614,-3.72299e-12,1.56594e-38,-1.58299e-06,-3.85292e-12,1.56583e-38,0,-1.13719e-13,0,0,0,0,0,0,0,0,0,0,0,0,0,0,0,0,0,0,0,0,0,-0.261799,2.2918,-1.5,-nan,0,0,2,0,0,0,0,0,0,0,0,1.9603e-19,0,0,0,0,0
8631,-3.72299e-12,1.56594e-38,-1.58299e-06,-3.85292e-12,1.56583e-38,-3.40903e-12,-1.1372e-13,0,0,0,0,0,0,0,0,0,0,0,0,0,0,0,0,0,0,0,0,0,-0.261799,2.3185,-1.5,-nan,0,0,2,0,0,0,0,0,0,0,0,1.9603e-19,0,0,0,0,0
8651,-3.72299e-12,1.56594e-38,-1.58299e-06,-3.85292e-12,1.56583e-38,0,-1.13721e-13,0,0,0,0,0,0,0,0,0,0,0,0,0,0,0,0,0,0,0,0,0,-0.261799,2.34992,-1.5,-nan,0,0,2,0,0,0,0,0,0,0,0,1.9603e-19,0,0,0,0,0
8667,-3.72299e-12,1.56594e-38,-1.58299e-06,-3.85292e-12,1.56583e-38,-3.40903e-12,-1.13721e-13,0,0,0,0,0,0,0,0,0,0,0,0,0,0,0,0,0,0,0,0,0,-0.261799,2.37487,-1.5,-nan,0,0,2,0,0,0,0,0,0,0,0,1.9603e-19,0,0,0,0,0
8687,-3.72299e-12,1.56594e-38,-1.58299e-06,-3.85292e-12,1.56583e-38,0,-1.13722e-13,0,0,0,0,0,0,0,0,0,0,0,0,0,0,0,0,0,0,0,0,0,-0.261799,2.40517,-1.5,-nan,0,0,2,0,0,0,0,0,0,0,0,1.9603e-19,0,0,0,0,0
8722,-3.72299e-12,1.56594e-38,-1.58299e-06,-3.85292e-12,1.56583e-38,-3.40903e-12,-1.13722e-13,0,0,0,0,0,0,0,0,0,0,0,0,0,0,0,0,0,0,0,0,0,-0.261799,2.45602,-1.5,-nan,0,0,2,0,0,0,0,0,0,0,0,1.9603e-19,0,0,0,0,0
8739,-3.72299e-12,1.56594e-38,-1.58299e-06,-3.85292e-12,1.56583e-38,0,-1.13723e-13,0,0,0,0,0,0,0,0,0,0,0,0,0,0,0,0,0,0,0,0,0,-0.261799,2.47907,-1.5,-nan,0,0,2,0,0,0,0,0,0,0,0,1.9603e-19,0,0,0,0,0
8760,-3.72299e-12,1.56594e-38,-1.58299e-06,-3.85292e-12,1.56583e-38,-3.40903e-12,-1.13723e-13,0,0,0,0,0,0,0,0,0,0,0,0,0,0,0,0,0,0,0,0,0,-0.261799,2.50656,-1.5,-nan,0,0,2,0,0,0,0,0,0,0,0,1.9603e-19,0,0,0,0,0
8791,-3.72299e-12,1.56594e-38,-1.58299e-06,-3.85292e-12,1.56583e-38,0,-1.13724e-13,0,0,0,0,0,0,0,0,0,0,0,0,0,0,0,0,0,0,0,0,0,-0.261799,2.5454,-1.5,-nan,0,0,2,0,0,0,0,0,0,0,0,1.9603e-19,0,0,0,0,0
8809,-3.72299e-12,1.56594e-38,-1.58299e-06,-3.85292e-12,1.56583e-38,-3.40903e-12,-1.13724e-13,0,0,0,0,0,0,0,0,0,0,0,0,0,0,0,0,0,0,0,0,0,-0.261799,2.5666,-1.5,-nan,0,0,2,0,0,0,0,0,0,0,0,1.9603e-19,0,0,0,0,0
8825,-3.72299e-12,1.56594e-38,-1.58299e-06,-3.85292e-12,1.56583e-38,0,-1.13725e-13,0,0,0,0,0,0,0,0,0,0,0,0,0,0,0,0,0,0,0,0,0,-0.261799,2.58479,-1.5,-nan,0,0,2,0,0,0,0,0,0,0,0,1.9603e-19,0,0,0,0,0
8873,-3.72299e-12,1.56594e-38,-1.58299e-06,-3.85292e-12,1.56583e-38,-3.40903e-12,-1.13725e-13,0,0,0,0,0,0,0,0,0,0,0,0,0,0,0,0,0,0,0,0,0,-0.261799,2.6374,-1.5,-nan,0,0,2,0,0,0,0,0,0,0,0,1.9603e-19,0,0,0,0,0
8893,-3.72299e-12,1.56594e-38,-1.58299e-06,-3.85292e-12,1.56583e-38,0,-1.13726e-13,0,0,0,0,0,0,0,0,0,0,0,0,0,0,0,0,0,0,0,0,0,-0.261799,2.65733,-1.5,-nan,0,0,2,0,0,0,0,0,0,0,0,1.9603e-19,0,0,0,0,0
8910,-3.72299e-12,1.56594e-38,-1.58299e-06,-3.85292e-12,1.56583e-38,-3.40903e-12,-1.13727e-13,0,0,0,0,0,0,0,0,0,0,0,0,0,0,0,0,0,0,0,0,0,-0.261799,2.6736,-1.5,-nan,0,0,2,0,0,0,0,0,0,0,0,1.9603e-19,0,0,0,0,0
8956,-3.72299e-12,1.56594e-38,-1.58299e-06,-3.85292e-12,1.56583e-38,0,-1.13727e-13,0,0,0,0,0,0,0,0,0,0,0,0,0,0,0,0,0,0,0,0,0,-0.261799,2.71604,-1.5,-nan,0,0,2,0,0,0,0,0,0,0,0,1.9603e-19,0,0,0,0,0
8977,-3.72299e-12,1.56594e-38,-1.58299e-06,-3.85292e-12,1.56583e-38,-3.40903e-12,-1.13728e-13,0,0,0,0,0,0,0,0,0,0,0,0,0,0,0,0,0,0,0,0,0,-0.261799,2.7337,-1.5,-nan,0,0,2,0,0,0,0,0,0,0,0,1.9603e-19,0,0,0,0,0
8993,-3.72299e-12,1.56594e-38,-1.58299e-06,-3.85292e-12,1.56583e-38,0,-1.13728e-13,0,0,0,0,0,0,0,0,0,0,0,0,0,0,0,0,0,0,0,0,0,-0.261799,2.74661,-1.5,-nan,0,0,2,0,0,0,0,0,0,0,0,1.9603e-19,0,0,0,0,0
9014,-3.72299e-12,1.56594e-38,-1.58299e-06,-3.85292e-12,1.56583e-38,-3.40903e-12,-1.13729e-13,0,0,0,0,0,0,0,0,0,0,0,0,0,0,0,0,0,0,0,0,0,-0.261799,2.76299,-1.5,-nan,0,0,2,0,0,0,0,0,0,0,0,1.9603e-19,0,0,0,0,0
9030,-3.72299e-12,1.56594e-38,-1.58299e-06,-3.85292e-12,1.56583e-38,0,-1.13729e-13,0,0,0,0,0,0,0,0,0,0,0,0,0,0,0,0,0,0,0,0,0,-0.261799,2.77498,-1.5,-nan,0,0,2,0,0,0,0,0,0,0,0,1.9603e-19,0,0,0,0,0
9047,-3.72299e-12,1.56594e-38,-1.58299e-06,-3.85292e-12,1.56583e-38,-3.40903e-12,-1.1373e-13,0,0,0,0,0,0,0,0,0,0,0,0,0,0,0,0,0,0,0,0,0,-0.261799,2.7873,-1.5,-nan,0,0,2,0,0,0,0,0,0,0,0,1.9603e-19,0,0,0,0,0
9068,-3.72299e-12,1.56594e-38,-1.58299e-06,-3.85292e-12,1.56583e-38,0,-1.1373e-13,0,0,0,0,0,0,0,0,0,0,0,0,0,0,0,0,0,0,0,0,0,-0.261799,2.802,-1.5,-nan,0,0,2,0,0,0,0,0,0,0,0,1.9603e-19,0,0,0,0,0
9102,-3.72299e-12,1.56594e-38,-1.58299e-06,-3.85292e-12,1.56583e-38,-3.40903e-12,-1.13731e-13,0,0,0,0,0,0,0,0,0,0,0,0,0,0,0,0,0,0,0,0,0,-0.261799,2.82478,-1.5,-nan,0,0,2,0,0,0,0,0,0,0,0,1.9603e-19,0,0,0,0,0
9123,-3.72299e-12,1.56594e-38,-1.58299e-06,-3.85292e-12,1.56583e-38,0,-1.13731e-13,0,0,0,0,0,0,0,0,0,0,0,0,0,0,0,0,0,0,0,0,0,-0.261799,2.83792,-1.5,-nan,0,0,2,0,0,0,0,0,0,0,0,1.9603e-19,0,0,0,0,0
9139,-3.72299e-12,1.56594e-38,-1.58299e-06,-3.85292e-12,1.56583e-38,-3.40903e-12,-1.13732e-13,0,0,0,0,0,0,0,0,0,0,0,0,0,0,0,0,0,0,0,0,0,-0.261799,2.84754,-1.5,-nan,0,0,2,0,0,0,0,0,0,0,0,1.9603e-19,0,0,0,0,0
9156,-3.72299e-12,1.56594e-38,-1.58299e-06,-3.85292e-12,1.56583e-38,0,-1.13732e-13,0,0,0,0,0,0,0,0,0,0,0,0,0,0,0,0,0,0,0,0,0,-0.261799,2.85742,-1.5,-nan,0,0,2,0,0,0,0,0,0,0,0,1.9603e-19,0,0,0,0,0
9177,-3.72299e-12,1.56594e-38,-1.58299e-06,-3.85292e-12,1.56583e-38,-3.40903e-12,-1.13733e-13,0,0,0,0,0,0,0,0,0,0,0,0,0,0,0,0,0,0,0,0,0,-0.261799,2.86921,-1.5,-nan,0,0,2,0,0,0,0,0,0,0,0,1.9603e-19,0,0,0,0,0
9193,-3.72299e-12,1.56594e-38,-1.58299e-06,-3.85292e-12,1.56583e-38,0,-1.13734e-13,0,0,0,0,0,0,0,0,0,0,0,0,0,0,0,0,0,0,0,0,0,-0.261799,2.87783,-1.5,-nan,0,0,2,0,0,0,0,0,0,0,0,1.9603e-19,0,0,0,0,0
9214,-3.72299e-12,1.56594e-38,-1.58299e-06,-3.85292e-12,1.56583e-38,-3.40903e-12,-1.13734e-13,0,0,0,0,0,0,0,0,0,0,0,0,0,0,0,0,0,0,0,0,0,-0.261799,2.88878,-1.5,-nan,0,0,2,0,0,0,0,0,0,0,0,1.9603e-19,0,0,0,0,0
9227,-3.72299e-12,1.56594e-38,-1.58299e-06,-3.85292e-12,1.56583e-38,0,-1.13735e-13,0,0,0,0,0,0,0,0,0,0,0,0,0,0,0,0,0,0,0,0,0,-0.261799,2.89528,-1.5,-nan,0,0,2,0,0,0,0,0,0,0,0,1.9603e-19,0,0,0,0,0
9241,-3.72299e-12,1.56594e-38,-1.58299e-06,-3.85292e-12,1.56583e-38,-3.40903e-12,-1.13735e-13,0,0,0,0,0,0,0,0,0,0,0,0,0,0,0,0,0,0,0,0,0,-0.261799,2.90211,-1.5,-nan,0,0,2,0,0,0,0,0,0,0,0,1.9603e-19,0,0,0,0,0
9259,-3.72299e-12,1.56594e-38,-1.58299e-06,-3.85292e-12,1.56583e-38,0,-1.13736e-13,0,0,0,0,0,0,0,0,0,0,0,0,0,0,0,0,0,0,0,0,0,-0.261799,2.91063,-1.5,-nan,0,0,2,0,0,0,0,0,0,0,0,1.9603e-19,0,0,0,0,0
9275,-3.72299e-12,1.56594e-38,-1.58299e-06,-3.85292e-12,1.56583e-38,-3.40903e-12,-1.13736e-13,0,0,0,0,0,0,0,0,0,0,0,0,0,0,0,0,0,0,0,0,0,-0.261799,2.91794,-1.5,-nan,0,0,2,0,0,0,0,0,0,0,0,1.9603e-19,0,0,0,0,0
9296,-3.72299e-12,1.56594e-38,-1.58299e-06,-3.85292e-12,1.56583e-38,0,-1.13737e-13,0,0,0,0,0,0,0,0,0,0,0,0,0,0,0,0,0,0,0,0,0,-0.261799,2.92678,-1.5,-nan,0,0,2,0,0,0,0,0,0,0,0,1.9603e-19,0,0,0,0,0
9312,-3.72299e-12,1.56594e-38,-1.58299e-06,-3.85292e-12,1.56583e-38,-3.40903e-12,-1.13737e-13,0,0,0,0,0,0,0,0,0,0,0,0,0,0,0,0,0,0,0,0,0,-0.261799,2.93399,-1.5,-nan,0,0,2,0,0,0,0,0,0,0,0,1.9603e-19,0,0,0,0,0
9329,-3.72299e-12,1.56594e-38,-1.58299e-06,-3.85292e-12,1.56583e-38,0,-1.13738e-13,0,0,0,0,0,0,0,0,0,0,0,0,0,0,0,0,0,0,0,0,0,-0.261799,2.94097,-1.5,-nan,0,0,2,0,0,0,0,0,0,0,0,1.9603e-19,0,0,0,0,0
9349,-3.72299e-12,1.56594e-38,-1.58299e-06,-3.85292e-12,1.56583e-38,-3.40903e-12,-1.13738e-13,0,0,0,0,0,0,0,0,0,0,0,0,0,0,0,0,0,0,0,0,0,-0.261799,2.94889,-1.5,-nan,0,0,2,0,0,0,0,0,0,0,0,1.9603e-19,0,0,0,0,0
9366,-3.72299e-12,1.56594e-38,-1.58299e-06,-3.85292e-12,1.56583e-38,0,-1.13739e-13,0,0,0,0,0,0,0,0,0,0,0,0,0,0,0,0,0,0,0,0,0,-0.261799,2.95499,-1.5,-nan,0,0,2,0,0,0,0,0,0,0,0,1.9603e-19,0,0,0,0,0
9386,-3.72299e-12,1.56594e-38,-1.58299e-06,-3.85292e-12,1.56583e-38,-3.40903e-12,-1.1374e-13,0,0,0,0,0,0,0,0,0,0,0,0,0,0,0,0,0,0,0,0,0,-0.261799,2.96274,-1.5,-nan,0,0,2,0,0,0,0,0,0,0,0,1.9603e-19,0,0,0,0,0
9402,-3.72299e-12,1.56594e-38,-1.58299e-06,-3.85292e-12,1.56583e-38,0,-1.1374e-13,0,0,0,0,0,0,0,0,0,0,0,0,0,0,0,0,0,0,0,0,0,-0.261799,2.9684,-1.5,-nan,0,0,2,0,0,0,0,0,0,0,0,1.9603e-19,0,0,0,0,0
9437,-3.72299e-12,1.56594e-38,-1.58299e-06,-3.85292e-12,1.56583e-38,-3.40903e-12,-1.13741e-13,0,0,0,0,0,0,0,0,0,0,0,0,0,0,0,0,0,0,0,0,0,-0.261799,2.98036,-1.5,-nan,0,0,2,0,0,0,0,0,0,0,0,1.9603e-19,0,0,0,0,0
9489,-3.72299e-12,1.56594e-38,-1.58299e-06,-3.85292e-12,1.56583e-38,0,-1.13741e-13,0,0,0,0,0,0,0,0,0,0,0,0,0,0,0,0,0,0,0,0,0,-0.261799,2.99688,-1.5,-nan,0,0,2,0,0,0,0,0,0,0,0,1.9603e-19,0,0,0,0,0
9505,-3.72299e-12,1.56594e-38,-1.58299e-06,-3.85292e-12,1.56583e-38,-3.40903e-12,-1.13742e-13,0,0,0,0,0,0,0,0,0,0,0,0,0,0,0,0,0,0,0,0,0,-0.261799,3.00146,-1.5,-nan,0,0,2,0,0,0,0,0,0,0,0,1.9603e-19,0,0,0,0,0
9522,-3.72299e-12,1.56594e-38,-1.58299e-06,-3.85292e-12,1.56583e-38,0,-1.13742e-13,0,0,0,0,0,0,0,0,0,0,0,0,0,0,0,0,0,0,0,0,0,-0.261799,3.00617,-1.5,-nan,0,0,2,0,0,0,0,0,0,0,0,1.9603e-19,0,0,0,0,0
9543,-3.72299e-12,1.56594e-38,-1.58299e-06,-3.85292e-12,1.56583e-38,-3.40903e-12,-1.13743e-13,0,0,0,0,0,0,0,0,0,0,0,0,0,0,0,0,0,0,0,0,0,-0.261799,3.01179,-1.5,-nan,0,0,2,0,0,0,0,0,0,0,0,1.9603e-19,0,0,0,0,0
9559,-3.72299e-12,1.56594e-38,-1.58299e-06,-3.85292e-12,1.56583e-38,0,-1.13743e-13,0,0,0,0,0,0,0,0,0,0,0,0,0,0,0,0,0,0,0,0,0,-0.261799,3.0159,-1.5,-nan,0,0,2,0,0,0,0,0,0,0,0,1.9603e-19,0,0,0,0,0
9652,-3.72299e-12,1.56594e-38,-1.58299e-06,-3.85292e-12,1.56583e-38,-3.40903e-12,-1.13744e-13,0,0,0,0,0,0,0,0,0,0,0,0,0,0,0,0,0,0,0,0,0,-0.261799,3.03893,-1.5,-nan,0,0,2,0,0,0,0,0,0,0,0,1.9603e-19,0,0,0,0,0
9668,-3.72299e-12,1.56594e-38,-1.58299e-06,-3.85292e-12,1.56583e-38,0,-1.13744e-13,0,0,0,0,0,0,0,0,0,0,0,0,0,0,0,0,0,0,0,0,0,-0.261799,3.04218,-1.5,-nan,0,0,2,0,0,0,0,0,0,0,0,1.9603e-19,0,0,0,0,0
9717,-3.72299e-12,1.56594e-38,-1.58299e-06,-3.85292e-12,1.56583e-38,-3.40903e-12,-1.13745e-13,0,0,0,0,0,0,0,0,0,0,0,0,0,0,0,0,0,0,0,0,0,-0.261799,3.05178,-1.5,-nan,0,0,2,0,0,0,0,0,0,0,0,1.9603e-19,0,0,0,0,0
9755,-3.72299e-12,1.56594e-38,-1.58299e-06,-3.85292e-12,1.56583e-38,0,-1.13745e-13,0,0,0,0,0,0,0,0,0,0,0,0,0,0,0,0,0,0,0,0,0,-0.261799,3.05851,-1.5,-nan,0,0,2,0,0,0,0,0,0,0,0,1.9603e-19,0,0,0,0,0
9768,-3.72299e-12,1.56594e-38,-1.58299e-06,-3.85292e-12,1.56583e-38,-3.40903e-12,-1.13746e-13,0,0,0,0,0,0,0,0,0,0,0,0,0,0,0,0,0,0,0,0,0,-0.261799,3.06065,-1.5,-nan,0,0,2,0,0,0,0,0,0,0,0,1.9603e-19,0,0,0,0,0
9786,-3.72299e-12,1.56594e-38,-1.58299e-06,-3.85292e-12,1.56583e-38,0,-1.13747e-13,0,0,0,0,0,0,0,0,0,0,0,0,0,0,0,0,0,0,0,0,0,-0.261799,3.06353,-1.5,-nan,0,0,2,0,0,0,0,0,0,0,0,1.9603e-19,0,0,0,0,0
9802,-3.72299e-12,1.56594e-38,-1.58299e-06,-3.85292e-12,1.56583e-38,-3.40903e-12,-1.13747e-13,0,0,0,0,0,0,0,0,0,0,0,0,0,0,0,0,0,0,0,0,0,-0.261799,3.066,-1.5,-nan,0,0,2,0,0,0,0,0,0,0,0,1.9603e-19,0,0,0,0,0
9819,-3.72299e-12,1.56594e-38,-1.58299e-06,-3.85292e-12,1.56583e-38,0,-1.13748e-13,0,0,0,0,0,0,0,0,0,0,0,0,0,0,0,0,0,0,0,0,0,-0.261799,3.06854,-1.5,-nan,0,0,2,0,0,0,0,0,0,0,0,1.9603e-19,0,0,0,0,0
9870,-3.72299e-12,1.56594e-38,-1.58299e-06,-3.85292e-12,1.56583e-38,-3.40903e-12,-1.13748e-13,0,0,0,0,0,0,0,0,0,0,0,0,0,0,0,0,0,0,0,0,0,-0.261799,3.07587,-1.5,-nan,0,0,2,0,0,0,0,0,0,0,0,1.9603e-19,0,0,0,0,0
9886,-3.72299e-12,1.56594e-38,-1.58299e-06,-3.85292e-12,1.56583e-38,0,-1.13749e-13,0,0,0,0,0,0,0,0,0,0,0,0,0,0,0,0,0,0,0,0,0,-0.261799,3.07795,-1.5,-nan,0,0,2,0,0,0,0,0,0,0,0,1.9603e-19,0,0,0,0,0
9923,-3.72299e-12,1.56594e-38,-1.58299e-06,-3.85292e-12,1.56583e-38,-3.40903e-12,-1.13749e-13,0,0,0,0,0,0,0,0,0,0,0,0,0,0,0,0,0,0,0,0,0,-0.261799,3.0826,-1.5,-nan,0,0,2,0,0,0,0,0,0,0,0,1.9603e-19,0,0,0,0,0
9940,-3.72299e-12,1.56594e-38,-1.58299e-06,-3.85292e-12,1.56583e-38,0,-1.1375e-13,0,0,0,0,0,0,0,0,0,0,0,0,0,0,0,0,0,0,0,0,0,-0.261799,3.08458,-1.5,-nan,0,0,2,0,0,0,0,0,0,0,0,1.9603e-19,0,0,0,0,0
9957,-3.72299e-12,1.56594e-38,-1.58299e-06,-3.85292e-12,1.56583e-38,-3.40903e-12,-1.1375e-13,0,0,0,0,0,0,0,0,0,0,0,0,0,0,0,0,0,0,0,0,0,-0.261799,3.08649,-1.5,-nan,0,0,2,0,0,0,0,0,0,0,0,1.9603e-19,0,0,0,0,0
9995,-3.72299e-12,1.56594e-38,-1.58299e-06,-3.85292e-12,1.56583e-38,0,-1.13751e-13,0,0,0,0,0,0,0,0,0,0,0,0,0,0,0,0,0,0,0,0,0,-0.261799,3.09062,-1.5,-nan,0,0,2,0,0,0,0,0,0,0,0,1.9603e-19,0,0,0,0,0
10011,-3.72299e-12,1.56594e-38,-1.58299e-06,-3.85292e-12,1.56583e-38,-3.40903e-12,-1.13751e-13,0,0,0,0,0,0,0,0,0,0,0,0,0,0,0,0,0,0,0,0,0,-0.261799,3.09224,-1.5,-nan,0,0,2,0,0,0,0,0,0,0,0,1.9603e-19,0,0,0,0,0
10032,-3.72299e-12,1.56594e-38,-1.58299e-06,-3.85292e-12,1.56583e-38,0,-1.13752e-13,0,0,0,0,0,0,0,0,0,0,0,0,0,0,0,0,0,0,0,0,0,-0.261799,3.09428,-1.5,-nan,0,0,2,0,0,0,0,0,0,0,0,1.9603e-19,0,0,0,0,0
10048,-3.72299e-12,1.56594e-38,-1.58299e-06,-3.85292e-12,1.56583e-38,-3.40903e-12,-1.13753e-13,0,0,0,0,0,0,0,0,0,0,0,0,0,0,0,0,0,0,0,0,0,-0.261799,3.09578,-1.5,-nan,0,0,2,0,0,0,0,0,0,0,0,1.9603e-19,0,0,0,0,0
10065,-3.72299e-12,1.56594e-38,-1.58299e-06,-3.85292e-12,1.56583e-38,0,-1.13753e-13,0,0,0,0,0,0,0,0,0,0,0,0,0,0,0,0,0,0,0,0,0,-0.261799,3.09732,-1.5,-nan,0,0,2,0,0,0,0,0,0,0,0,1.9603e-19,0,0,0,0,0
10085,-3.72299e-12,1.56594e-38,-1.58299e-06,-3.85292e-12,1.56583e-38,-3.40903e-12,-1.13754e-13,0,0,0,0,0,0,0,0,0,0,0,0,0,0,0,0,0,0,0,0,0,-0.261799,3.09907,-1.5,-nan,0,0,2,0,0,0,0,0,0,0,0,1.9603e-19,0,0,0,0,0
10102,-3.72299e-12,1.56594e-38,-1.58299e-06,-3.85292e-12,1.56583e-38,0,-1.13754e-13,0,0,0,0,0,0,0,0,0,0,0,0,0,0,0,0,0,0,0,0,0,-0.261799,3.1005,-1.5,-nan,0,0,2,0,0,0,0,0,0,0,0,1.9603e-19,0,0,0,0,0
10122,-3.72299e-12,1.56594e-38,-1.58299e-06,-3.85292e-12,1.56583e-38,-3.40903e-12,-1.13755e-13,0,0,0,0,0,0,0,0,0,0,0,0,0,0,0,0,0,0,0,0,0,-0.261799,3.10212,-1.5,-nan,0,0,2,0,0,0,0,0,0,0,0,1.9603e-19,0,0,0,0,0
10169,-3.72302e-12,1.56371e-38,1.56601e-38,-3.85292e-12,1.56583e-38,0,-1.13755e-13,0,0,0,0,0,0,0,0,0,0,0,0,0,0,0,0,0,0,0,0,0,-0.261799,3.10578,-1.5,-nan,0,0,2,0,0,0,0,0,0,0,0,1.9603e-19,0,0,0,0,0
10187,-3.72299e-12,1.56594e-38,-1.58299e-06,-3.85292e-12,1.56583e-38,-3.40903e-12,-1.13779e-13,0,0,0,0,0,0,0,0,0,0,0,0,0,0,0,0,0,0,0,0,0,-0.261799,3.10705,-1.5,-nan,0,0,2,0,0,0,0,0,0,0,0,1.9603e-19,0,0,0,0,0
10208,-3.72299e-12,1.56594e-38,-1.58299e-06,-3.85292e-12,1.56583e-38,0,-1.1378e-13,0,0,0,0,0,0,0,0,0,0,0,0,0,0,0,0,0,0,0,0,0,-0.261799,3.10848,-1.5,-nan,0,0,2,0,0,0,0,0,0,0,0,1.9603e-19,0,0,0,0,0
10221,-3.72299e-12,1.56594e-38,-1.58299e-06,-3.85292e-12,1.56583e-38,-3.40903e-12,-1.1378e-13,0,0,0,0,0,0,0,0,0,0,0,0,0,0,0,0,0,0,0,0,0,-0.261799,3.10934,-1.5,-nan,0,0,2,0,0,0,0,0,0,0,0,1.9603e-19,0,0,0,0,0
10238,-3.72299e-12,1.56594e-38,-1.58299e-06,-3.85292e-12,1.56583e-38,0,-1.13781e-13,0,0,0,0,0,0,0,0,0,0,0,0,0,0,0,0,0,0,0,0,0,-0.261799,3.11042,-1.5,-nan,0,0,2,0,0,0,0,0,0,0,0,1.9603e-19,0,0,0,0,0
10255,-3.72299e-12,1.56594e-38,-1.58299e-06,-3.85292e-12,1.56583e-38,-3.40903e-12,-1.13781e-13,0,0,0,0,0,0,0,0,0,0,0,0,0,0,0,0,0,0,0,0,0,-0.261799,3.11147,-1.5,-nan,0,0,2,0,0,0,0,0,0,0,0,1.9603e-19,0,0,0,0,0
10290,-3.72299e-12,1.56594e-38,-1.58299e-06,-3.85292e-12,1.56583e-38,0,-1.13782e-13,0,0,0,0,0,0,0,0,0,0,0,0,0,0,0,0,0,0,0,0,0,-0.261799,3.11349,-1.5,-nan,0,0,2,0,0,0,0,0,0,0,0,1.9603e-19,0,0,0,0,0
10310,-3.72299e-12,1.56594e-38,-1.58299e-06,-3.85292e-12,1.56583e-38,-3.40903e-12,-1.13782e-13,0,0,0,0,0,0,0,0,0,0,0,0,0,0,0,0,0,0,0,0,0,-0.261799,3.11465,-1.5,-nan,0,0,2,0,0,0,0,0,0,0,0,1.9603e-19,0,0,0,0,0
10326,-3.72299e-12,1.56594e-38,-1.58299e-06,-3.85292e-12,1.56583e-38,0,-1.13783e-13,0,0,0,0,0,0,0,0,0,0,0,0,0,0,0,0,0,0,0,0,0,-0.261799,3.11551,-1.5,-nan,0,0,2,0,0,0,0,0,0,0,0,1.9603e-19,0,0,0,0,0
10343,-3.72299e-12,1.56594e-38,-1.58299e-06,-3.85292e-12,1.56583e-38,-3.40903e-12,-1.13783e-13,0,0,0,0,0,0,0,0,0,0,0,0,0,0,0,0,0,0,0,0,0,-0.261799,3.11638,-1.5,-nan,0,0,2,0,0,0,0,0,0,0,0,1.9603e-19,0,0,0,0,0
10364,-3.72299e-12,1.56594e-38,-1.58299e-06,-3.85292e-12,1.56583e-38,0,-1.13784e-13,0,0,0,0,0,0,0,0,0,0,0,0,0,0,0,0,0,0,0,0,0,-0.261799,3.11743,-1.5,-nan,0,0,2,0,0,0,0,0,0,0,0,1.9603e-19,0,0,0,0,0
10380,-3.72299e-12,1.56594e-38,-1.58299e-06,-3.85292e-12,1.56583e-38,-3.40903e-12,-1.13784e-13,0,0,0,0,0,0,0,0,0,0,0,0,0,0,0,0,0,0,0,0,0,-0.261799,3.11819,-1.5,-nan,0,0,2,0,0,0,0,0,0,0,0,1.9603e-19,0,0,0,0,0
10401,-3.72299e-12,1.56594e-38,-1.58299e-06,-3.85292e-12,1.56583e-38,0,-1.13785e-13,0,0,0,0,0,0,0,0,0,0,0,0,0,0,0,0,0,0,0,0,0,-0.261799,3.11916,-1.5,-nan,0,0,2,0,0,0,0,0,0,0,0,1.9603e-19,0,0,0,0,0
10417,-3.72299e-12,1.56594e-38,-1.58299e-06,-3.85292e-12,1.56583e-38,-3.40903e-12,-1.13786e-13,0,0,0,0,0,0,0,0,0,0,0,0,0,0,0,0,0,0,0,0,0,-0.261799,3.11987,-1.5,-nan,0,0,2,0,0,0,0,0,0,0,0,1.9603e-19,0,0,0,0,0
10434,-3.72299e-12,1.56594e-38,-1.58299e-06,-3.85292e-12,1.56583e-38,0,-1.13756e-13,0,0,0,0,0,0,0,0,0,0,0,0,0,0,0,0,0,0,0,0,0,-0.261799,3.1206,-1.5,-nan,0,0,2,0,0,0,0,0,0,0,0,1.9603e-19,0,0,0,0,0
10455,-3.72299e-12,1.56594e-38,-1.58299e-06,-3.85292e-12,1.56583e-38,-3.40903e-12,-1.13756e-13,0,0,0,0,0,0,0,0,0,0,0,0,0,0,0,0,0,0,0,0,0,-0.261799,3.12147,-1.5,-nan,0,0,2,0,0,0,0,0,0,0,0,1.9603e-19,0,0,0,0,0
10471,-3.72299e-12,1.56594e-38,-1.58299e-06,-3.85292e-12,1.56583e-38,0,-1.13757e-13,0,0,0,0,0,0,0,0,0,0,0,0,0,0,0,0,0,0,0,0,0,-0.261799,3.12211,-1.5,-nan,0,0,2,0,0,0,0,0,0,0,0,1.9603e-19,0,0,0,0,0
10491,-3.72299e-12,1.56594e-38,-1.58299e-06,-3.85292e-12,1.56583e-38,-3.40903e-12,-1.13757e-13,0,0,0,0,0,0,0,0,0,0,0,0,0,0,0,0,0,0,0,0,0,-0.261799,3.12288,-1.5,-nan,0,0,2,0,0,0,0,0,0,0,0,1.9603e-19,0,0,0,0,0
10508,-3.72299e-12,1.56594e-38,-1.58299e-06,-3.85292e-12,1.56583e-38,0,-1.13758e-13,0,0,0,0,0,0,0,0,0,0,0,0,0,0,0,0,0,0,0,0,0,-0.261799,3.12351,-1.5,-nan,0,0,2,0,0,0,0,0,0,0,0,1.9603e-19,0,0,0,0,0
10525,-3.72299e-12,1.56594e-38,-1.58299e-06,-3.85292e-12,1.56583e-38,-3.40903e-12,-1.13759e-13,0,0,0,0,0,0,0,0,0,0,0,0,0,0,0,0,0,0,0,0,0,-0.261799,3.12412,-1.5,-nan,0,0,2,0,0,0,0,0,0,0,0,1.9603e-19,0,0,0,0,0
10545,-3.72299e-12,1.56594e-38,-1.58299e-06,-3.85292e-12,1.56583e-38,0,-1.13759e-13,0,0,0,0,0,0,0,0,0,0,0,0,0,0,0,0,0,0,0,0,0,-0.261799,3.12481,-1.5,-nan,0,0,2,0,0,0,0,0,0,0,0,1.9603e-19,0,0,0,0,0
10561,-3.72299e-12,1.56594e-38,-1.58299e-06,-3.85292e-12,1.56583e-38,-3.40903e-12,-1.1376e-13,0,0,0,0,0,0,0,0,0,0,0,0,0,0,0,0,0,0,0,0,0,-0.261799,3.12534,-1.5,-nan,0,0,2,0,0,0,0,0,0,0,0,1.9603e-19,0,0,0,0,0
10582,-3.72299e-12,1.56594e-38,-1.58299e-06,-3.85292e-12,1.56583e-38,0,-1.1376e-13,0,0,0,0,0,0,0,0,0,0,0,0,0,0,0,0,0,0,0,0,0,-0.261799,3.12601,-1.5,-nan,0,0,2,0,0,0,0,0,0,0,0,1.9603e-19,0,0,0,0,0
10614,-3.72299e-12,1.56594e-38,-1.58299e-06,-3.85292e-12,1.56583e-38,-3.40903e-12,-1.13761e-13,0,0,0,0,0,0,0,0,0,0,0,0,0,0,0,0,0,0,0,0,0,-0.261799,3.127,-1.5,-nan,0,0,2,0,0,0,0,0,0,0,0,1.9603e-19,0,0,0,0,0
10669,-3.72299e-12,1.56594e-38,-1.58299e-06,-3.85292e-12,1.56583e-38,0,-1.13761e-13,0,0,0,0,0,0,0,0,0,0,0,0,0,0,0,0,0,0,0,0,0,-0.261799,3.12855,-1.5,-nan,0,0,2,0,0,0,0,0,0,0,0,1.9603e-19,0,0,0,0,0
10686,-3.72299e-12,1.56594e-38,-1.58299e-06,-3.85292e-12,1.56583e-38,-3.40903e-12,-1.13762e-13,0,0,0,0,0,0,0,0,0,0,0,0,0,0,0,0,0,0,0,0,0,-0.261799,3.12901,-1.5,-nan,0,0,2,0,0,0,0,0,0,0,0,1.9603e-19,0,0,0,0,0
10732,-3.72299e-12,1.56594e-38,-1.58299e-06,-3.85292e-12,1.56583e-38,0,-1.13762e-13,0,0,0,0,0,0,0,0,0,0,0,0,0,0,0,0,0,0,0,0,0,-0.261799,3.13015,-1.5,-nan,0,0,2,0,0,0,0,0,0,0,0,1.9603e-19,0,0,0,0,0
10753,-3.72299e-12,1.56594e-38,-1.58299e-06,-3.85292e-12,1.56583e-38,-3.40903e-12,-1.13763e-13,0,0,0,0,0,0,0,0,0,0,0,0,0,0,0,0,0,0,0,0,0,-0.261799,3.13063,-1.5,-nan,0,0,2,0,0,0,0,0,0,0,0,1.9603e-19,0,0,0,0,0
10769,-3.72299e-12,1.56594e-38,-1.58299e-06,-3.85292e-12,1.56583e-38,0,-1.13763e-13,0,0,0,0,0,0,0,0,0,0,0,0,0,0,0,0,0,0,0,0,0,-0.261799,3.13098,-1.5,-nan,0,0,2,0,0,0,0,0,0,0,0,1.9603e-19,0,0,0,0,0
10786,-3.72299e-12,1.56594e-38,-1.58299e-06,-3.85292e-12,1.56583e-38,-3.40903e-12,-1.13764e-13,0,0,0,0,0,0,0,0,0,0,0,0,0,0,0,0,0,0,0,0,0,-0.261799,3.13133,-1.5,-nan,0,0,2,0,0,0,0,0,0,0,0,1.9603e-19,0,0,0,0,0
10837,-3.72299e-12,1.56594e-38,-1.58299e-06,-3.85292e-12,1.56583e-38,0,-1.13764e-13,0,0,0,0,0,0,0,0,0,0,0,0,0,0,0,0,0,0,0,0,0,-0.261799,3.13236,-1.5,-nan,0,0,2,0,0,0,0,0,0,0,0,1.9603e-19,0,0,0,0,0
10853,-3.72299e-12,1.56594e-38,-1.58299e-06,-3.85292e-12,1.56583e-38,-3.40903e-12,-1.13765e-13,0,0,0,0,0,0,0,0,0,0,0,0,0,0,0,0,0,0,0,0,0,-0.261799,3.13266,-1.5,-nan,0,0,2,0,0,0,0,0,0,0,0,1.9603e-19,0,0,0,0,0
10874,-3.72299e-12,1.56594e-38,-1.58299e-06,-3.85292e-12,1.56583e-38,0,-1.13766e-13,0,0,0,0,0,0,0,0,0,0,0,0,0,0,0,0,0,0,0,0,0,-0.261799,3.13303,-1.5,-nan,0,0,2,0,0,0,0,0,0,0,0,1.9603e-19,0,0,0,0,0
10890,-3.72299e-12,1.56594e-38,-1.58299e-06,-3.85292e-12,1.56583e-38,-3.40903e-12,-1.13766e-13,0,0,0,0,0,0,0,0,0,0,0,0,0,0,0,0,0,0,0,0,0,-0.261799,3.1333,-1.5,-nan,0,0,2,0,0,0,0,0,0,0,0,1.9603e-19,0,0,0,0,0
10907,-3.72299e-12,1.56594e-38,-1.58299e-06,-3.85292e-12,1.56583e-38,0,-1.13767e-13,0,0,0,0,0,0,0,0,0,0,0,0,0,0,0,0,0,0,0,0,0,-0.261799,3.13358,-1.5,-nan,0,0,2,0,0,0,0,0,0,0,0,1.9603e-19,0,0,0,0,0
10928,-3.72299e-12,1.56594e-38,-1.58299e-06,-3.85292e-12,1.56583e-38,-3.40903e-12,-1.13767e-13,0,0,0,0,0,0,0,0,0,0,0,0,0,0,0,0,0,0,0,0,0,-0.261799,3.13391,-1.5,-nan,0,0,2,0,0,0,0,0,0,0,0,1.9603e-19,0,0,0,0,0
10944,-3.72299e-12,1.56594e-38,-1.58299e-06,-3.85292e-12,1.56583e-38,0,-1.13768e-13,0,0,0,0,0,0,0,0,0,0,0,0,0,0,0,0,0,0,0,0,0,-0.261799,3.13415,-1.5,-nan,0,0,2,0,0,0,0,0,0,0,0,1.9603e-19,0,0,0,0,0
10982,-3.72299e-12,1.56594e-38,-1.58299e-06,-3.85292e-12,1.56583e-38,-3.40903e-12,-1.13768e-13,0,0,0,0,0,0,0,0,0,0,0,0,0,0,0,0,0,0,0,0,0,-0.261799,3.13471,-1.5,-nan,0,0,2,0,0,0,0,0,0,0,0,1.9603e-19,0,0,0,0,0
10999,-3.72299e-12,1.56594e-38,-1.58299e-06,-3.85292e-12,1.56583e-38,0,-1.13769e-13,0,0,0,0,0,0,0,0,0,0,0,0,0,0,0,0,0,0,0,0,0,-0.261799,3.13494,-1.5,-nan,0,0,2,0,0,0,0,0,0,0,0,1.9603e-19,0,0,0,0,0
11016,-3.72299e-12,1.56594e-38,-1.58299e-06,-3.85292e-12,1.56583e-38,-3.40903e-12,-1.13769e-13,0,0,0,0,0,0,0,0,0,0,0,0,0,0,0,0,0,0,0,0,0,-0.261799,3.13516,-1.5,-nan,0,0,2,0,0,0,0,0,0,0,0,1.9603e-19,0,0,0,0,0
11037,-3.72299e-12,1.56594e-38,-1.58299e-06,-3.85292e-12,1.56583e-38,0,-1.1377e-13,0,0,0,0,0,0,0,0,0,0,0,0,0,0,0,0,0,0,0,0,0,-0.261799,3.13543,-1.5,-nan,0,0,2,0,0,0,0,0,0,0,0,1.9603e-19,0,0,0,0,0
11071,-3.72299e-12,1.56594e-38,-1.58299e-06,-3.85292e-12,1.56583e-38,-3.40903e-12,-1.1377e-13,0,0,0,0,0,0,0,0,0,0,0,0,0,0,0,0,0,0,0,0,0,-0.261799,3.13584,-1.5,-nan,0,0,2,0,0,0,0,0,0,0,0,1.9603e-19,0,0,0,0,0
11092,-3.72299e-12,1.56594e-38,-1.58299e-06,-3.85292e-12,1.56583e-38,0,-1.13771e-13,0,0,0,0,0,0,0,0,0,0,0,0,0,0,0,0,0,0,0,0,0,-0.261799,3.13608,-1.5,-nan,0,0,2,0,0,0,0,0,0,0,0,1.9603e-19,0,0,0,0,0
11124,-3.72299e-12,1.56594e-38,-1.58299e-06,-3.85292e-12,1.56583e-38,-3.40903e-12,-1.13772e-13,0,0,0,0,0,0,0,0,0,0,0,0,0,0,0,0,0,0,0,0,0,-0.261799,3.13643,-1.5,-nan,0,0,2,0,0,0,0,0,0,0,0,1.9603e-19,0,0,0,0,0
11138,-3.72299e-12,1.56594e-38,-1.58299e-06,-3.85292e-12,1.56583e-38,0,-1.13772e-13,0,0,0,0,0,0,0,0,0,0,0,0,0,0,0,0,0,0,0,0,0,-0.261799,3.13657,-1.5,-nan,0,0,2,0,0,0,0,0,0,0,0,1.9603e-19,0,0,0,0,0
11155,-3.72299e-12,1.56594e-38,-1.58299e-06,-3.85292e-12,1.56583e-38,-3.40903e-12,-1.13773e-13,0,0,0,0,0,0,0,0,0,0,0,0,0,0,0,0,0,0,0,0,0,-0.261799,3.13674,-1.5,-nan,0,0,2,0,0,0,0,0,0,0,0,1.9603e-19,0,0,0,0,0
11172,-3.72299e-12,1.56594e-38,-1.58299e-06,-3.85292e-12,1.56583e-38,0,-1.13773e-13,0,0,0,0,0,0,0,0,0,0,0,0,0,0,0,0,0,0,0,0,0,-0.261799,3.1369,-1.5,-nan,0,0,2,0,0,0,0,0,0,0,0,1.9603e-19,0,0,0,0,0
11189,-3.72299e-12,1.56594e-38,-1.58299e-06,-3.85292e-12,1.56583e-38,-3.40903e-12,-1.13774e-13,0,0,0,0,0,0,0,0,0,0,0,0,0,0,0,0,0,0,0,0,0,-0.261799,3.13706,-1.5,-nan,0,0,2,0,0,0,0,0,0,0,0,1.9603e-19,0,0,0,0,0
11209,-3.72299e-12,1.56594e-38,-1.58299e-06,-3.85292e-12,1.56583e-38,0,-1.13774e-13,0,0,0,0,0,0,0,0,0,0,0,0,0,0,0,0,0,0,0,0,0,-0.261799,3.13724,-1.5,-nan,0,0,2,0,0,0,0,0,0,0,0,1.9603e-19,0,0,0,0,0
11628,-3.72299e-12,-3.4155e-12,-1.58299e-06,-3.85292e-12,-3.41531e-12,-3.40903e-12,-1.41424e-13,0,0,0,0,0,0,0,0,0,0,0,0,0,0,0,0,0,0,0,0,0,-0.261799,3.14077,-1.5,-nan,0,0,2,0,0,0,0,0,0,0,0,1.9603e-19,0,0,0,0,0
11641,-3.72299e-12,-3.4155e-12,-1.58299e-06,-3.85292e-12,-3.41531e-12,0,-2.84252e-13,0,0,0,0,0,0,0,0,0,0,0,0,0,0,0,0,0,0,0,0,0,-0.261799,3.14079,-1.5,-nan,0,0,2,0,0,0,0,0,0,0,0,1.9603e-19,0,0,0,0,0
11657,-3.72299e-12,-3.4155e-12,-1.58299e-06,-3.85292e-12,-3.41531e-12,-3.40903e-12,-2.84257e-13,0,0,0,0,0,0,0,0,0,0,0,0,0,0,0,0,0,0,0,0,0,-0.261799,3.14082,-1.5,-nan,0,0,2,0,0,0,0,0,0,0,0,1.9603e-19,0,0,0,0,0
11675,-3.72299e-12,-3.4155e-12,-1.58299e-06,-3.85292e-12,-3.41531e-12,0,-2.84255e-13,0,0,0,0,0,0,0,0,0,0,0,0,0,0,0,0,0,0,0,0,0,-0.261799,3.14085,-1.5,-nan,0,0,2,0,0,0,0,0,0,0,0,1.9603e-19,0,0,0,0,0
11727,-3.72299e-12,-3.4155e-12,-1.58299e-06,-3.85292e-12,-3.41531e-12,-3.40903e-12,-2.84283e-13,0,0,0,0,0,0,0,0,0,0,0,0,0,0,0,0,0,0,0,0,0,-0.261799,3.14092,-1.5,-nan,0,0,2,0,0,0,0,0,0,0,0,1.9603e-19,0,0,0,0,0
11743,-3.72299e-12,-3.4155e-12,-1.58299e-06,-3.85292e-12,-3.41531e-12,0,-2.84284e-13,0,0,0,0,0,0,0,0,0,0,0,0,0,0,0,0,0,0,0,0,0,-0.261799,3.14094,-1.5,-nan,0,0,2,0,0,0,0,0,0,0,0,1.9603e-19,0,0,0,0,0
11765,-3.72299e-12,-3.4155e-12,-1.58299e-06,-3.85292e-12,-3.41531e-12,-3.40903e-12,-2.84285e-13,0,0,0,0,0,0,0,0,0,0,0,0,0,0,0,0,0,0,0,0,0,-0.261799,3.14097,-1.5,-nan,0,0,2,0,0,0,0,0,0,0,0,1.9603e-19,0,0,0,0,0
11782,-3.72299e-12,-3.4155e-12,-1.58299e-06,-3.85292e-12,-3.41531e-12,0,-2.84286e-13,0,0,0,0,0,0,0,0,0,0,0,0,0,0,0,0,0,0,0,0,0,-0.261799,3.14099,-1.5,-nan,0,0,2,0,0,0,0,0,0,0,0,1.9603e-19,0,0,0,0,0
11808,-3.72299e-12,-3.4155e-12,-1.58299e-06,-3.85292e-12,-3.41531e-12,-3.40903e-12,-2.84287e-13,0,0,0,0,0,0,0,0,0,0,0,0,0,0,0,0,0,0,0,0,0,-0.261799,3.14102,-1.5,-nan,0,0,2,0,0,0,0,0,0,0,0,1.9603e-19,0,0,0,0,0
11910,-3.72299e-12,-3.4155e-12,-1.58299e-06,-3.85292e-12,-3.41531e-12,0,-2.84261e-13,0,0,0,0,0,0,0,0,0,0,0,0,0,0,0,0,0,0,0,0,0,-0.261799,3.14114,-1.5,-nan,0,0,2,0,0,0,0,0,0,0,0,1.9603e-19,0,0,0,0,0
11969,-3.72299e-12,-3.4155e-12,-1.58299e-06,-3.85292e-12,-3.41531e-12,-3.40903e-12,-2.84262e-13,0,0,0,0,0,0,0,0,0,0,0,0,0,0,0,0,0,0,0,0,0,-0.261799,3.14119,-1.5,-nan,0,0,2,0,0,0,0,0,0,0,0,1.9603e-19,0,0,0,0,0
12023,-3.72299e-12,-3.4155e-12,-1.58299e-06,-3.85292e-12,-3.41531e-12,0,-2.84263e-13,0,0,0,0,0,0,0,0,0,0,0,0,0,0,0,0,0,0,0,0,0,-0.261799,3.14123,-1.5,-nan,0,0,2,0,0,0,0,0,0,0,0,1.9603e-19,0,0,0,0,0
12047,-3.72299e-12,-3.4155e-12,-1.58299e-06,-3.85292e-12,-3.41531e-12,-3.40903e-12,-2.84264e-13,0,0,0,0,0,0,0,0,0,0,0,0,0,0,0,0,0,0,0,0,0,-0.261799,3.14125,-1.5,-nan,0,0,2,0,0,0,0,0,0,0,0,1.9603e-19,0,0,0,0,0
12072,-3.72299e-12,-3.4155e-12,-1.58299e-06,-3.85292e-12,-3.41531e-12,0,-2.84265e-13,0,0,0,0,0,0,0,0,0,0,0,0,0,0,0,0,0,0,0,0,0,-0.261799,3.14127,-1.5,-nan,0,0,2,0,0,0,0,0,0,0,0,1.9603e-19,0,0,0,0,0
12091,-3.72299e-12,-3.4155e-12,-1.58299e-06,-3.85292e-12,-3.41531e-12,-3.40903e-12,-2.84266e-13,0,0,0,0,0,0,0,0,0,0,0,0,0,0,0,0,0,0,0,0,0,-0.261799,3.14128,-1.5,-nan,0,0,2,0,0,0,0,0,0,0,0,1.9603e-19,0,0,0,0,0
12107,-3.72299e-12,-3.4155e-12,-1.58299e-06,-3.85292e-12,-3.41531e-12,0,-2.84258e-13,0,0,0,0,0,0,0,0,0,0,0,0,0,0,0,0,0,0,0,0,0,-0.261799,3.14129,-1.5,-nan,0,0,2,0,0,0,0,0,0,0,0,1.9603e-19,0,0,0,0,0
12144,-3.72299e-12,-3.4155e-12,-1.58299e-06,-3.85292e-12,-3.41531e-12,-3.40903e-12,-1.41438e-13,0,0,0,0,0,0,0,0,0,0,0,0,0,0,0,0,0,0,0,0,0,-0.261799,3.14131,-1.5,-nan,0,0,2,0,0,0,0,0,0,0,0,1.9603e-19,0,0,0,0,0
12161,-3.72299e-12,-3.4155e-12,-1.58299e-06,-3.85292e-12,-3.41531e-12,0,-1.41439e-13,0,0,0,0,0,0,0,0,0,0,0,0,0,0,0,0,0,0,0,0,0,-0.261799,3.14132,-1.5,-nan,0,0,2,0,0,0,0,0,0,0,0,1.9603e-19,0,0,0,0,0
12179,-3.72299e-12,-3.4155e-12,-1.58299e-06,-3.85292e-12,-3.41531e-12,-3.40903e-12,-1.41439e-13,0,0,0,0,0,0,0,0,0,0,0,0,0,0,0,0,0,0,0,0,0,-0.261799,3.14133,-1.5,-nan,0,0,2,0,0,0,0,0,0,0,0,1.9603e-19,0,0,0,0,0
12202,-3.72299e-12,-3.4155e-12,-1.58299e-06,-3.85292e-12,-3.41531e-12,0,-1.4144e-13,0,0,0,0,0,0,0,0,0,0,0,0,0,0,0,0,0,0,0,0,0,-0.261799,3.14134,-1.5,-nan,0,0,2,0,0,0,0,0,0,0,0,1.9603e-19,0,0,0,0,0
12219,-3.72299e-12,-3.4155e-12,-1.58299e-06,-3.85292e-12,-3.41531e-12,-3.40903e-12,-1.41441e-13,0,0,0,0,0,0,0,0,0,0,0,0,0,0,0,0,0,0,0,0,0,-0.261799,3.14135,-1.5,-nan,0,0,2,0,0,0,0,0,0,0,0,1.9603e-19,0,0,0,0,0
12241,-3.72299e-12,-3.4155e-12,-1.58299e-06,-3.85292e-12,-3.41531e-12,0,-1.41441e-13,0,0,0,0,0,0,0,0,0,0,0,0,0,0,0,0,0,0,0,0,0,-0.261799,3.14136,-1.5,-nan,0,0,2,0,0,0,0,0,0,0,0,1.9603e-19,0,0,0,0,0
12258,-3.72299e-12,-3.4155e-12,-1.58299e-06,-3.85292e-12,-3.41531e-12,-3.40903e-12,-1.41442e-13,0,0,0,0,0,0,0,0,0,0,0,0,0,0,0,0,0,0,0,0,0,-0.261799,3.14137,-1.5,-nan,0,0,2,0,0,0,0,0,0,0,0,1.9603e-19,0,0,0,0,0
12276,-3.72299e-12,-3.4155e-12,-1.58299e-06,-3.85292e-12,-3.41531e-12,0,-2.85703e-13,0,0,0,0,0,0,0,0,0,0,0,0,0,0,0,0,0,0,0,0,0,-0.261799,3.14138,-1.5,-nan,0,0,2,0,0,0,0,0,0,0,0,1.9603e-19,0,0,0,0,0
12328,-3.72299e-12,-3.4155e-12,-1.58299e-06,-3.85292e-12,-3.41531e-12,-3.40903e-12,-2.85704e-13,0,0,0,0,0,0,0,0,0,0,0,0,0,0,0,0,0,0,0,0,0,-0.261799,3.1414,-1.5,-nan,0,0,2,0,0,0,0,0,0,0,0,1.9603e-19,0,0,0,0,0
12350,-3.72299e-12,-3.4155e-12,-1.58299e-06,-3.85292e-12,-3.41531e-12,0,-2.85705e-13,0,0,0,0,0,0,0,0,0,0,0,0,0,0,0,0,0,0,0,0,0,-0.261799,3.14141,-1.5,-nan,0,0,2,0,0,0,0,0,0,0,0,1.9603e-19,0,0,0,0,0
12389,-3.72299e-12,-3.4155e-12,-1.58299e-06,-3.85292e-12,-3.41531e-12,-3.40903e-12,-2.85706e-13,0,0,0,0,0,0,0,0,0,0,0,0,0,0,0,0,0,0,0,0,0,-0.261799,3.14142,-1.5,-nan,0,0,2,0,0,0,0,0,0,0,0,1.9603e-19,0,0,0,0,0
12406,-3.72299e-12,-3.4155e-12,-1.58299e-06,-3.85292e-12,-3.41531e-12,0,-2.85707e-13,0,0,0,0,0,0,0,0,0,0,0,0,0,0,0,0,0,0,0,0,0,-0.261799,3.14143,-1.5,-nan,0,0,2,0,0,0,0,0,0,0,0,1.9603e-19,0,0,0,0,0
12424,-3.72299e-12,-3.4155e-12,-1.58299e-06,-3.85292e-12,-3.41531e-12,-3.40903e-12,-2.85708e-13,0,0,0,0,0,0,0,0,0,0,0,0,0,0,0,0,0,0,0,0,0,-0.261799,3.14143,-1.5,-nan,0,0,2,0,0,0,0,0,0,0,0,1.9603e-19,0,0,0,0,0
12446,-3.72299e-12,-3.4155e-12,-1.58299e-06,-3.85292e-12,-3.41531e-12,0,-2.85709e-13,0,0,0,0,0,0,0,0,0,0,0,0,0,0,0,0,0,0,0,0,0,-0.261799,3.14144,-1.5,-nan,0,0,2,0,0,0,0,0,0,0,0,1.9603e-19,0,0,0,0,0
12463,-3.72299e-12,-3.4155e-12,-1.58299e-06,-3.85292e-12,-3.41531e-12,-3.40903e-12,-2.8571e-13,0,0,0,0,0,0,0,0,0,0,0,0,0,0,0,0,0,0,0,0,0,-0.261799,3.14144,-1.5,-nan,0,0,2,0,0,0,0,0,0,0,0,1.9603e-19,0,0,0,0,0
12515,-3.72299e-12,-3.4155e-12,-1.58299e-06,-3.85292e-12,-3.41531e-12,0,-2.84267e-13,0,0,0,0,0,0,0,0,0,0,0,0,0,0,0,0,0,0,0,0,0,-0.261799,3.14146,-1.5,-nan,0,0,2,0,0,0,0,0,0,0,0,1.9603e-19,0,0,0,0,0
12534,-3.72299e-12,-3.4155e-12,-1.58299e-06,-3.85292e-12,-3.41531e-12,-3.40903e-12,-1.41412e-13,0,0,0,0,0,0,0,0,0,0,0,0,0,0,0,0,0,0,0,0,0,-0.261799,3.14146,-1.5,-nan,0,0,2,0,0,0,0,0,0,0,0,1.9603e-19,0,0,0,0,0
12552,-3.72299e-12,-3.4155e-12,-1.58299e-06,-3.85292e-12,-3.41531e-12,0,-1.41413e-13,0,0,0,0,0,0,0,0,0,0,0,0,0,0,0,0,0,0,0,0,0,-0.261799,3.14147,-1.5,-nan,0,0,2,0,0,0,0,0,0,0,0,1.9603e-19,0,0,0,0,0
12592,-3.72299e-12,-3.4155e-12,-1.58299e-06,-3.85292e-12,-3.41531e-12,-3.40903e-12,-1.41413e-13,0,0,0,0,0,0,0,0,0,0,0,0,0,0,0,0,0,0,0,0,0,-0.261799,3.14148,-1.5,-nan,0,0,2,0,0,0,0,0,0,0,0,1.9603e-19,0,0,0,0,0
12606,-3.72299e-12,-3.4155e-12,-1.58299e-06,-3.85292e-12,-3.41531e-12,0,-1.41414e-13,0,0,0,0,0,0,0,0,0,0,0,0,0,0,0,0,0,0,0,0,0,-0.261799,3.14148,-1.5,-nan,0,0,2,0,0,0,0,0,0,0,0,1.9603e-19,0,0,0,0,0
12624,-3.72299e-12,-3.4155e-12,-1.58299e-06,-3.85292e-12,-3.41531e-12,-3.40903e-12,-1.41414e-13,0,0,0,0,0,0,0,0,0,0,0,0,0,0,0,0,0,0,0,0,0,-0.261799,3.14149,-1.5,-nan,0,0,2,0,0,0,0,0,0,0,0,1.9603e-19,0,0,0,0,0
12642,-3.72299e-12,-3.4155e-12,-1.58299e-06,-3.85292e-12,-3.41531e-12,0,-1.41415e-13,0,0,0,0,0,0,0,0,0,0,0,0,0,0,0,0,0,0,0,0,0,-0.261799,3.14149,-1.5,-nan,0,0,2,0,0,0,0,0,0,0,0,1.9603e-19,0,0,0,0,0
12660,-3.72299e-12,-3.4155e-12,-1.58299e-06,-3.85292e-12,-3.41531e-12,-3.40903e-12,-1.41416e-13,0,0,0,0,0,0,0,0,0,0,0,0,0,0,0,0,0,0,0,0,0,-0.261799,3.14149,-1.5,-nan,0,0,2,0,0,0,0,0,0,0,0,1.9603e-19,0,0,0,0,0
12683,-3.72299e-12,-3.4155e-12,-1.58299e-06,-3.85292e-12,-3.41531e-12,0,-1.41416e-13,0,0,0,0,0,0,0,0,0,0,0,0,0,0,0,0,0,0,0,0,0,-0.261799,3.1415,-1.5,-nan,0,0,2,0,0,0,0,0,0,0,0,1.9603e-19,0,0,0,0,0
12702,-3.72299e-12,-3.4155e-12,-1.58299e-06,-3.85292e-12,-3.41531e-12,-3.40903e-12,-1.41417e-13,0,0,0,0,0,0,0,0,0,0,0,0,0,0,0,0,0,0,0,0,0,-0.261799,3.1415,-1.5,-nan,0,0,2,0,0,0,0,0,0,0,0,1.9603e-19,0,0,0,0,0
12724,-3.72299e-12,-3.4155e-12,-1.58299e-06,-3.85292e-12,-3.41531e-12,0,-1.41417e-13,0,0,0,0,0,0,0,0,0,0,0,0,0,0,0,0,0,0,0,0,0,-0.261799,3.1415,-1.5,-nan,0,0,2,0,0,0,0,0,0,0,0,1.9603e-19,0,0,0,0,0
12744,-3.72299e-12,-3.4155e-12,-1.58299e-06,-3.85292e-12,-3.41531e-12,-3.40903e-12,-1.41418e-13,0,0,0,0,0,0,0,0,0,0,0,0,0,0,0,0,0,0,0,0,0,-0.261799,3.14151,-1.5,-nan,0,0,2,0,0,0,0,0,0,0,0,1.9603e-19,0,0,0,0,0
12781,-3.72299e-12,-3.4155e-12,-1.58299e-06,-3.85292e-12,-3.41531e-12,0,-1.41418e-13,0,0,0,0,0,0,0,0,0,0,0,0,0,0,0,0,0,0,0,0,0,-0.261799,3.14151,-1.5,-nan,0,0,2,0,0,0,0,0,0,0,0,1.9603e-19,0,0,0,0,0
12804,-3.72299e-12,-3.4155e-12,-1.58299e-06,-3.85292e-12,-3.41531e-12,-3.40903e-12,-1.41419e-13,0,0,0,0,0,0,0,0,0,0,0,0,0,0,0,0,0,0,0,0,0,-0.261799,3.14152,-1.5,-nan,0,0,2,0,0,0,0,0,0,0,0,1.9603e-19,0,0,0,0,0
12821,-3.72299e-12,-3.4155e-12,-1.58299e-06,-3.85292e-12,-3.41531e-12,0,-1.41419e-13,0,0,0,0,0,0,0,0,0,0,0,0,0,0,0,0,0,0,0,0,0,-0.261799,3.14152,-1.5,-nan,0,0,2,0,0,0,0,0,0,0,0,1.9603e-19,0,0,0,0,0
12842,-3.72299e-12,-3.4155e-12,-1.58299e-06,-3.85292e-12,-3.41531e-12,-3.40903e-12,-1.4142e-13,0,0,0,0,0,0,0,0,0,0,0,0,0,0,0,0,0,0,0,0,0,-0.261799,3.14152,-1.5,-nan,0,0,2,0,0,0,0,0,0,0,0,1.9603e-19,0,0,0,0,0
12858,-3.72299e-12,-3.4155e-12,-1.58299e-06,-3.85292e-12,-3.41531e-12,0,-1.4142e-13,0,0,0,0,0,0,0,0,0,0,0,0,0,0,0,0,0,0,0,0,0,-0.261799,3.14152,-1.5,-nan,0,0,2,0,0,0,0,0,0,0,0,1.9603e-19,0,0,0,0,0
12877,-3.72299e-12,-3.4155e-12,-1.58299e-06,-3.85292e-12,-3.41531e-12,-3.40903e-12,-1.41421e-13,0,0,0,0,0,0,0,0,0,0,0,0,0,0,0,0,0,0,0,0,0,-0.261799,3.14153,-1.5,-nan,0,0,2,0,0,0,0,0,0,0,0,1.9603e-19,0,0,0,0,0
12899,-3.72299e-12,-3.4155e-12,-1.58299e-06,-3.85292e-12,-3.41531e-12,0,-1.41421e-13,0,0,0,0,0,0,0,0,0,0,0,0,0,0,0,0,0,0,0,0,0,-0.261799,3.14153,-1.5,-nan,0,0,2,0,0,0,0,0,0,0,0,1.9603e-19,0,0,0,0,0
12918,-3.72299e-12,-3.4155e-12,-1.58299e-06,-3.85292e-12,-3.41531e-12,-3.40903e-12,-1.41385e-13,0,0,0,0,0,0,0,0,0,0,0,0,0,0,0,0,0,0,0,0,0,-0.261799,3.14153,-1.5,-nan,0,0,2,0,0,0,0,0,0,0,0,1.9603e-19,0,0,0,0,0
12939,-3.72299e-12,-3.4155e-12,-1.58299e-06,-3.85292e-12,-3.41531e-12,0,-1.41386e-13,0,0,0,0,0,0,0,0,0,0,0,0,0,0,0,0,0,0,0,0,0,-0.261799,3.14153,-1.5,-nan,0,0,2,0,0,0,0,0,0,0,0,1.9603e-19,0,0,0,0,0
12957,-3.72299e-12,-3.4155e-12,-1.58299e-06,-3.85292e-12,-3.41531e-12,-3.40903e-12,-1.41401e-13,0,0,0,0,0,0,0,0,0,0,0,0,0,0,0,0,0,0,0,0,0,-0.261799,3.14154,-1.5,-nan,0,0,2,0,0,0,0,0,0,0,0,1.9603e-19,0,0,0,0,0
12976,-3.72299e-12,-3.4155e-12,-1.58299e-06,-3.85292e-12,-3.41531e-12,0,-1.41402e-13,0,0,0,0,0,0,0,0,0,0,0,0,0,0,0,0,0,0,0,0,0,-0.261799,3.14154,-1.5,-nan,0,0,2,0,0,0,0,0,0,0,0,1.9603e-19,0,0,0,0,0
12999,-3.72299e-12,-3.4155e-12,-1.58299e-06,-3.85292e-12,-3.41531e-12,-3.40903e-12,-1.41403e-13,0,0,0,0,0,0,0,0,0,0,0,0,0,0,0,0,0,0,0,0,0,-0.261799,3.14154,-1.5,-nan,0,0,2,0,0,0,0,0,0,0,0,1.9603e-19,0,0,0,0,0
13013,-3.72299e-12,-3.4155e-12,-1.58299e-06,-3.85292e-12,-3.41531e-12,0,-1.41403e-13,0,0,0,0,0,0,0,0,0,0,0,0,0,0,0,0,0,0,0,0,0,-0.261799,3.14154,-1.5,-nan,0,0,2,0,0,0,0,0,0,0,0,1.9603e-19,0,0,0,0,0
13031,-3.72299e-12,-3.4155e-12,-1.58299e-06,-3.85292e-12,-3.41531e-12,-3.40903e-12,-1.41404e-13,0,0,0,0,0,0,0,0,0,0,0,0,0,0,0,0,0,0,0,0,0,-0.261799,3.14154,-1.5,-nan,0,0,2,0,0,0,0,0,0,0,0,1.9603e-19,0,0,0,0,0
13099,-3.72299e-12,-3.4155e-12,-1.58299e-06,-3.85292e-12,-3.41531e-12,0,-1.41404e-13,0,0,0,0,0,0,0,0,0,0,0,0,0,0,0,0,0,0,0,0,0,-0.261799,3.14155,-1.5,-nan,0,0,2,0,0,0,0,0,0,0,0,1.9603e-19,0,0,0,0,0
13118,-3.72299e-12,-3.4155e-12,-1.58299e-06,-3.85292e-12,-3.41531e-12,-3.40903e-12,-1.41405e-13,0,0,0,0,0,0,0,0,0,0,0,0,0,0,0,0,0,0,0,0,0,-0.261799,3.14155,-1.5,-nan,0,0,2,0,0,0,0,0,0,0,0,1.9603e-19,0,0,0,0,0
13139,-3.72299e-12,-3.4155e-12,-1.58299e-06,-3.85292e-12,-3.41531e-12,0,-1.41405e-13,0,0,0,0,0,0,0,0,0,0,0,0,0,0,0,0,0,0,0,0,0,-0.261799,3.14155,-1.5,-nan,0,0,2,0,0,0,0,0,0,0,0,1.9603e-19,0,0,0,0,0
13175,-3.72299e-12,-3.4155e-12,-1.58299e-06,-3.85292e-12,-3.41531e-12,-3.40903e-12,-1.41406e-13,0,0,0,0,0,0,0,0,0,0,0,0,0,0,0,0,0,0,0,0,0,-0.261799,3.14156,-1.5,-nan,0,0,2,0,0,0,0,0,0,0,0,1.9603e-19,0,0,0,0,0
13198,-3.72299e-12,-3.4155e-12,-1.58299e-06,-3.85292e-12,-3.41531e-12,0,-1.41406e-13,0,0,0,0,0,0,0,0,0,0,0,0,0,0,0,0,0,0,0,0,0,-0.261799,3.14156,-1.5,-nan,0,0,2,0,0,0,0,0,0,0,0,1.9603e-19,0,0,0,0,0
13215,-3.72299e-12,-3.4155e-12,-1.58299e-06,-3.85292e-12,-3.41531e-12,-3.40903e-12,-1.41407e-13,0,0,0,0,0,0,0,0,0,0,0,0,0,0,0,0,0,0,0,0,0,-0.261799,3.14156,-1.5,-nan,0,0,2,0,0,0,0,0,0,0,0,1.9603e-19,0,0,0,0,0
13233,-3.72299e-12,-3.4155e-12,-1.58299e-06,-3.85292e-12,-3.41531e-12,0,-1.41387e-13,0,0,0,0,0,0,0,0,0,0,0,0,0,0,0,0,0,0,0,0,0,-0.261799,3.14156,-1.5,-nan,0,0,2,0,0,0,0,0,0,0,0,1.9603e-19,0,0,0,0,0
13254,-3.72299e-12,-3.4155e-12,-1.58299e-06,-3.85292e-12,-3.41531e-12,-3.40903e-12,-1.41387e-13,0,0,0,0,0,0,0,0,0,0,0,0,0,0,0,0,0,0,0,0,0,-0.261799,3.14156,-1.5,-nan,0,0,2,0,0,0,0,0,0,0,0,1.9603e-19,0,0,0,0,0
13270,-3.72299e-12,-3.4155e-12,-1.58299e-06,-3.85292e-12,-3.41531e-12,0,-1.41388e-13,0,0,0,0,0,0,0,0,0,0,0,0,0,0,0,0,0,0,0,0,0,-0.261799,3.14156,-1.5,-nan,0,0,2,0,0,0,0,0,0,0,0,1.9603e-19,0,0,0,0,0
13292,-3.72299e-12,-3.4155e-12,-1.58299e-06,-3.85292e-12,-3.41531e-12,-3.40903e-12,-1.41388e-13,0,0,0,0,0,0,0,0,0,0,0,0,0,0,0,0,0,0,0,0,0,-0.261799,3.14156,-1.5,-nan,0,0,2,0,0,0,0,0,0,0,0,1.9603e-19,0,0,0,0,0
13344,-3.72299e-12,-3.4155e-12,-1.58299e-06,-3.85292e-12,-3.41531e-12,0,-1.41389e-13,0,0,0,0,0,0,0,0,0,0,0,0,0,0,0,0,0,0,0,0,0,-0.261799,3.14157,-1.5,-nan,0,0,2,0,0,0,0,0,0,0,0,1.9603e-19,0,0,0,0,0
13363,-3.72299e-12,-3.4155e-12,-1.58299e-06,-3.85292e-12,-3.41531e-12,-3.40903e-12,-1.41389e-13,0,0,0,0,0,0,0,0,0,0,0,0,0,0,0,0,0,0,0,0,0,-0.261799,3.14157,-1.5,-nan,0,0,2,0,0,0,0,0,0,0,0,1.9603e-19,0,0,0,0,0
13384,-3.72299e-12,-3.4155e-12,-1.58299e-06,-3.85292e-12,-3.41531e-12,0,-1.4139e-13,0,0,0,0,0,0,0,0,0,0,0,0,0,0,0,0,0,0,0,0,0,-0.261799,3.14157,-1.5,-nan,0,0,2,0,0,0,0,0,0,0,0,1.9603e-19,0,0,0,0,0
13402,-3.72299e-12,-3.4155e-12,-1.58299e-06,-3.85292e-12,-3.41531e-12,-3.40903e-12,-1.4139e-13,0,0,0,0,0,0,0,0,0,0,0,0,0,0,0,0,0,0,0,0,0,-0.261799,3.14157,-1.5,-nan,0,0,2,0,0,0,0,0,0,0,0,1.9603e-19,0,0,0,0,0
13420,-3.72299e-12,-3.4155e-12,-1.58299e-06,-3.85292e-12,-3.41531e-12,0,-1.41391e-13,0,0,0,0,0,0,0,0,0,0,0,0,0,0,0,0,0,0,0,0,0,-0.261799,3.14157,-1.5,-nan,0,0,2,0,0,0,0,0,0,0,0,1.9603e-19,0,0,0,0,0
13441,-3.72299e-12,-3.4155e-12,-1.58299e-06,-3.85292e-12,-3.41531e-12,-3.40903e-12,-1.41391e-13,0,0,0,0,0,0,0,0,0,0,0,0,0,0,0,0,0,0,0,0,0,-0.261799,3.14157,-1.5,-nan,0,0,2,0,0,0,0,0,0,0,0,1.9603e-19,0,0,0,0,0
13458,-3.72299e-12,-3.4155e-12,-1.58299e-06,-3.85292e-12,-3.41531e-12,0,-1.41392e-13,0,0,0,0,0,0,0,0,0,0,0,0,0,0,0,0,0,0,0,0,0,-0.261799,3.14157,-1.5,-nan,0,0,2,0,0,0,0,0,0,0,0,1.9603e-19,0,0,0,0,0
13479,-3.72299e-12,-3.4155e-12,-1.58299e-06,-3.85292e-12,-3.41531e-12,-3.40903e-12,-1.41393e-13,0,0,0,0,0,0,0,0,0,0,0,0,0,0,0,0,0,0,0,0,0,-0.261799,3.14157,-1.5,-nan,0,0,2,0,0,0,0,0,0,0,0,1.9603e-19,0,0,0,0,0
13494,-3.72299e-12,-3.4155e-12,-1.58299e-06,-3.85292e-12,-3.41531e-12,0,-1.41393e-13,0,0,0,0,0,0,0,0,0,0,0,0,0,0,0,0,0,0,0,0,0,-0.261799,3.14157,-1.5,-nan,0,0,2,0,0,0,0,0,0,0,0,1.9603e-19,0,0,0,0,0
13509,-3.72299e-12,-3.4155e-12,-1.58299e-06,-3.85292e-12,-3.41531e-12,-3.40903e-12,-1.41394e-13,0,0,0,0,0,0,0,0,0,0,0,0,0,0,0,0,0,0,0,0,0,-0.261799,3.14157,-1.5,-nan,0,0,2,0,0,0,0,0,0,0,0,1.9603e-19,0,0,0,0,0
13525,-3.72299e-12,-3.4155e-12,-1.58299e-06,-3.85292e-12,-3.41531e-12,0,-1.41394e-13,0,0,0,0,0,0,0,0,0,0,0,0,0,0,0,0,0,0,0,0,0,-0.261799,3.14157,-1.5,-nan,0,0,2,0,0,0,0,0,0,0,0,1.9603e-19,0,0,0,0,0
13573,-3.72299e-12,-3.4155e-12,-1.58299e-06,-3.85292e-12,-3.41531e-12,-3.40903e-12,-1.41395e-13,0,0,0,0,0,0,0,0,0,0,0,0,0,0,0,0,0,0,0,0,0,-0.261799,3.14157,-1.5,-nan,0,0,2,0,0,0,0,0,0,0,0,1.9603e-19,0,0,0,0,0
13596,-3.72299e-12,-3.4155e-12,-1.58299e-06,-3.85292e-12,-3.41531e-12,0,-1.41395e-13,0,0,0,0,0,0,0,0,0,0,0,0,0,0,0,0,0,0,0,0,0,-0.261799,3.14157,-1.5,-nan,0,0,2,0,0,0,0,0,0,0,0,1.9603e-19,0,0,0,0,0
13613,-3.72299e-12,-3.4155e-12,-1.58299e-06,-3.85292e-12,-3.41531e-12,-3.40903e-12,-1.41396e-13,0,0,0,0,0,0,0,0,0,0,0,0,0,0,0,0,0,0,0,0,0,-0.261799,3.14157,-1.5,-nan,0,0,2,0,0,0,0,0,0,0,0,1.9603e-19,0,0,0,0,0
13631,-3.72299e-12,-3.4155e-12,-1.58299e-06,-3.85292e-12,-3.41531e-12,0,-1.41396e-13,0,0,0,0,0,0,0,0,0,0,0,0,0,0,0,0,0,0,0,0,0,-0.261799,3.14157,-1.5,-nan,0,0,2,0,0,0,0,0,0,0,0,1.9603e-19,0,0,0,0,0
13652,-3.72299e-12,-3.4155e-12,-1.58299e-06,-3.85292e-12,-3.41531e-12,-3.40903e-12,-1.41397e-13,0,0,0,0,0,0,0,0,0,0,0,0,0,0,0,0,0,0,0,0,0,-0.261799,3.14157,-1.5,-nan,0,0,2,0,0,0,0,0,0,0,0,1.9603e-19,0,0,0,0,0
13698,-3.72299e-12,-3.4155e-12,-1.58299e-06,-3.85292e-12,-3.41531e-12,0,-1.41397e-13,0,0,0,0,0,0,0,0,0,0,0,0,0,0,0,0,0,0,0,0,0,-0.261799,3.14158,-1.5,-nan,0,0,2,0,0,0,0,0,0,0,0,1.9603e-19,0,0,0,0,0
13721,-3.72299e-12,-3.4155e-12,-1.58299e-06,-3.85292e-12,-3.41531e-12,-3.40903e-12,-1.41398e-13,0,0,0,0,0,0,0,0,0,0,0,0,0,0,0,0,0,0,0,0,0,-0.261799,3.14158,-1.5,-nan,0,0,2,0,0,0,0,0,0,0,0,1.9603e-19,0,0,0,0,0
13739,-3.72299e-12,-3.4155e-12,-1.58299e-06,-3.85292e-12,-3.41531e-12,0,-1.41399e-13,0,0,0,0,0,0,0,0,0,0,0,0,0,0,0,0,0,0,0,0,0,-0.261799,3.14158,-1.5,-nan,0,0,2,0,0,0,0,0,0,0,0,1.9603e-19,0,0,0,0,0
13758,-3.72299e-12,-3.4155e-12,-1.58299e-06,-3.85292e-12,-3.41531e-12,-3.40903e-12,-1.41399e-13,0,0,0,0,0,0,0,0,0,0,0,0,0,0,0,0,0,0,0,0,0,-0.261799,3.14158,-1.5,-nan,0,0,2,0,0,0,0,0,0,0,0,1.9603e-19,0,0,0,0,0
13779,-3.72299e-12,-3.4155e-12,-1.58299e-06,-3.85292e-12,-3.41531e-12,0,-1.414e-13,0,0,0,0,0,0,0,0,0,0,0,0,0,0,0,0,0,0,0,0,0,-0.261799,3.14158,-1.5,-nan,0,0,2,0,0,0,0,0,0,0,0,1.9603e-19,0,0,0,0,0
13798,-3.72299e-12,-3.4155e-12,-1.58299e-06,-3.85292e-12,-3.41531e-12,-3.40903e-12,-1.414e-13,0,0,0,0,0,0,0,0,0,0,0,0,0,0,0,0,0,0,0,0,0,-0.261799,3.14158,-1.5,-nan,0,0,2,0,0,0,0,0,0,0,0,1.9603e-19,0,0,0,0,0
13819,-3.72299e-12,-3.4155e-12,-1.58299e-06,-3.85292e-12,-3.41531e-12,0,-1.41401e-13,0,0,0,0,0,0,0,0,0,0,0,0,0,0,0,0,0,0,0,0,0,-0.261799,3.14158,-1.5,-nan,0,0,2,0,0,0,0,0,0,0,0,1.9603e-19,0,0,0,0,0
13836,-3.72299e-12,-3.4155e-12,-1.58299e-06,-3.85292e-12,-3.41531e-12,-3.40903e-12,-2.84347e-13,0,0,0,0,0,0,0,0,0,0,0,0,0,0,0,0,0,0,0,0,0,-0.261799,3.14158,-1.5,-nan,0,0,2,0,0,0,0,0,0,0,0,1.9603e-19,0,0,0,0,0
13853,-3.72299e-12,-3.4155e-12,-1.58299e-06,-3.85292e-12,-3.41531e-12,0,-2.84348e-13,0,0,0,0,0,0,0,0,0,0,0,0,0,0,0,0,0,0,0,0,0,-0.261799,3.14158,-1.5,-nan,0,0,2,0,0,0,0,0,0,0,0,1.9603e-19,0,0,0,0,0
13875,-3.72299e-12,-3.4155e-12,-1.58299e-06,-3.85292e-12,-3.41531e-12,-3.40903e-12,-2.84349e-13,0,0,0,0,0,0,0,0,0,0,0,0,0,0,0,0,0,0,0,0,0,-0.261799,3.14158,-1.5,-nan,0,0,2,0,0,0,0,0,0,0,0,1.9603e-19,0,0,0,0,0
13893,-3.72299e-12,-3.4155e-12,-1.58299e-06,-3.85292e-12,-3.41531e-12,0,-2.8435e-13,0,0,0,0,0,0,0,0,0,0,0,0,0,0,0,0,0,0,0,0,0,-0.261799,3.14158,-1.5,-nan,0,0,2,0,0,0,0,0,0,0,0,1.9603e-19,0,0,0,0,0
13915,-3.72299e-12,-3.4155e-12,-1.58299e-06,-3.85292e-12,-3.41531e-12,-3.40903e-12,-2.84352e-13,0,0,0,0,0,0,0,0,0,0,0,0,0,0,0,0,0,0,0,0,0,-0.261799,3.14158,-1.5,-nan,0,0,2,0,0,0,0,0,0,0,0,1.9603e-19,0,0,0,0,0
13937,-3.72299e-12,-3.4155e-12,-1.58299e-06,-3.85292e-12,-3.41531e-12,0,-2.84353e-13,0,0,0,0,0,0,0,0,0,0,0,0,0,0,0,0,0,0,0,0,0,-0.261799,3.14158,-1.5,-nan,0,0,2,0,0,0,0,0,0,0,0,1.9603e-19,0,0,0,0,0
13952,-3.72299e-12,-3.4155e-12,-1.58299e-06,-3.85292e-12,-3.41531e-12,-3.40903e-12,-2.84354e-13,0,0,0,0,0,0,0,0,0,0,0,0,0,0,0,0,0,0,0,0,0,-0.261799,3.14158,-1.5,-nan,0,0,2,0,0,0,0,0,0,0,0,1.9603e-19,0,0,0,0,0
13971,-3.72299e-12,-3.4155e-12,-1.58299e-06,-3.85292e-12,-3.41531e-12,0,-2.84355e-13,0,0,0,0,0,0,0,0,0,0,0,0,0,0,0,0,0,0,0,0,0,-0.261799,3.14158,-1.5,-nan,0,0,2,0,0,0,0,0,0,0,0,1.9603e-19,0,0,0,0,0
13989,-3.72299e-12,-3.4155e-12,-1.58299e-06,-3.85292e-12,-3.41531e-12,-3.40903e-12,-2.84356e-13,0,0,0,0,0,0,0,0,0,0,0,0,0,0,0,0,0,0,0,0,0,-0.261799,3.14158,-1.5,-nan,0,0,2,0,0,0,0,0,0,0,0,1.9603e-19,0,0,0,0,0
14029,-3.72299e-12,-3.4155e-12,-1.58299e-06,-3.85292e-12,-3.41531e-12,0,-2.84357e-13,0,0,0,0,0,0,0,0,0,0,0,0,0,0,0,0,0,0,0,0,0,-0.261799,3.14158,-1.5,-nan,0,0,2,0,0,0,0,0,0,0,0,1.9603e-19,0,0,0,0,0
14046,-3.72299e-12,-3.4155e-12,-1.58299e-06,-3.85292e-12,-3.41531e-12,-3.40903e-12,-2.84358e-13,0,0,0,0,0,0,0,0,0,0,0,0,0,0,0,0,0,0,0,0,0,-0.261799,3.14158,-1.5,-nan,0,0,2,0,0,0,0,0,0,0,0,1.9603e-19,0,0,0,0,0
14063,-3.72299e-12,-3.4155e-12,-1.58299e-06,-3.85292e-12,-3.41531e-12,0,-2.84359e-13,0,0,0,0,0,0,0,0,0,0,0,0,0,0,0,0,0,0,0,0,0,-0.261799,3.14158,-1.5,-nan,0,0,2,0,0,0,0,0,0,0,0,1.9603e-19,0,0,0,0,0
14089,-3.72299e-12,-3.4155e-12,-1.58299e-06,-3.85292e-12,-3.41531e-12,-3.40903e-12,-2.8436e-13,0,0,0,0,0,0,0,0,0,0,0,0,0,0,0,0,0,0,0,0,0,-0.261799,3.14158,-1.5,-nan,0,0,2,0,0,0,0,0,0,0,0,1.9603e-19,0,0,0,0,0
14106,-3.72299e-12,-3.4155e-12,-1.58299e-06,-3.85292e-12,-3.41531e-12,0,-2.84361e-13,0,0,0,0,0,0,0,0,0,0,0,0,0,0,0,0,0,0,0,0,0,-0.261799,3.14158,-1.5,-nan,0,0,2,0,0,0,0,0,0,0,0,1.9603e-19,0,0,0,0,0
14131,-3.72299e-12,-3.4155e-12,-1.58299e-06,-3.85292e-12,-3.41531e-12,-3.40903e-12,-2.84362e-13,0,0,0,0,0,0,0,0,0,0,0,0,0,0,0,0,0,0,0,0,0,-0.261799,3.14158,-1.5,-nan,0,0,2,0,0,0,0,0,0,0,0,1.9603e-19,0,0,0,0,0
14149,-3.72299e-12,-3.4155e-12,-1.58299e-06,-3.85292e-12,-3.41531e-12,0,-2.84363e-13,0,0,0,0,0,0,0,0,0,0,0,0,0,0,0,0,0,0,0,0,0,-0.261799,3.14158,-1.5,-nan,0,0,2,0,0,0,0,0,0,0,0,1.9603e-19,0,0,0,0,0
14168,-3.72299e-12,-3.4155e-12,-1.58299e-06,-3.85292e-12,-3.41531e-12,-3.40903e-12,-2.84365e-13,0,0,0,0,0,0,0,0,0,0,0,0,0,0,0,0,0,0,0,0,0,-0.261799,3.14158,-1.5,-nan,0,0,2,0,0,0,0,0,0,0,0,1.9603e-19,0,0,0,0,0
14191,-3.72299e-12,-3.4155e-12,-1.58299e-06,-3.85292e-12,-3.41531e-12,0,-2.84366e-13,0,0,0,0,0,0,0,0,0,0,0,0,0,0,0,0,0,0,0,0,0,-0.261799,3.14158,-1.5,-nan,0,0,2,0,0,0,0,0,0,0,0,1.9603e-19,0,0,0,0,0
14208,-3.72299e-12,-3.4155e-12,-1.58299e-06,-3.85292e-12,-3.41531e-12,-3.40903e-12,-2.84367e-13,0,0,0,0,0,0,0,0,0,0,0,0,0,0,0,0,0,0,0,0,0,-0.261799,3.14158,-1.5,-nan,0,0,2,0,0,0,0,0,0,0,0,1.9603e-19,0,0,0,0,0
14231,-3.72299e-12,-3.4155e-12,-1.58299e-06,-3.85292e-12,-3.41531e-12,0,-2.84368e-13,0,0,0,0,0,0,0,0,0,0,0,0,0,0,0,0,0,0,0,0,0,-0.261799,3.14158,-1.5,-nan,0,0,2,0,0,0,0,0,0,0,0,1.9603e-19,0,0,0,0,0
14278,-3.72299e-12,-3.4155e-12,-1.58299e-06,-3.85292e-12,-3.41531e-12,-3.40903e-12,-2.84369e-13,0,0,0,0,0,0,0,0,0,0,0,0,0,0,0,0,0,0,0,0,0,-0.261799,3.14158,-1.5,-nan,0,0,2,0,0,0,0,0,0,0,0,1.9603e-19,0,0,0,0,0
14349,-3.72299e-12,-3.4155e-12,-1.58299e-06,-3.85292e-12,-3.41531e-12,0,-2.8437e-13,0,0,0,0,0,0,0,0,0,0,0,0,0,0,0,0,0,0,0,0,0,-0.261799,3.14158,-1.5,-nan,0,0,2,0,0,0,0,0,0,0,0,1.9603e-19,0,0,0,0,0
14393,-3.72299e-12,-3.4155e-12,-1.58299e-06,-3.85292e-12,-3.41531e-12,-3.40903e-12,-2.84371e-13,0,0,0,0,0,0,0,0,0,0,0,0,0,0,0,0,0,0,0,0,0,-0.261799,3.14158,-1.5,-nan,0,0,2,0,0,0,0,0,0,0,0,1.9603e-19,0,0,0,0,0
14411,-3.72299e-12,-3.4155e-12,-1.58299e-06,-3.85292e-12,-3.41531e-12,0,-2.84372e-13,0,0,0,0,0,0,0,0,0,0,0,0,0,0,0,0,0,0,0,0,0,-0.261799,3.14158,-1.5,-nan,0,0,2,0,0,0,0,0,0,0,0,1.9603e-19,0,0,0,0,0
14435,-3.72299e-12,-3.4155e-12,-1.58299e-06,-3.85292e-12,-3.41531e-12,-3.40903e-12,-2.84373e-13,0,0,0,0,0,0,0,0,0,0,0,0,0,0,0,0,0,0,0,0,0,-0.261799,3.14158,-1.5,-nan,0,0,2,0,0,0,0,0,0,0,0,1.9603e-19,0,0,0,0,0
14449,-3.72299e-12,-3.4155e-12,-1.58299e-06,-3.85292e-12,-3.41531e-12,0,-2.84374e-13,0,0,0,0,0,0,0,0,0,0,0,0,0,0,0,0,0,0,0,0,0,-0.261799,3.14158,-1.5,-nan,0,0,2,0,0,0,0,0,0,0,0,1.9603e-19,0,0,0,0,0
14463,-3.72299e-12,-3.4155e-12,-1.58299e-06,-3.85292e-12,-3.41531e-12,-3.40903e-12,-2.84375e-13,0,0,0,0,0,0,0,0,0,0,0,0,0,0,0,0,0,0,0,0,0,-0.261799,3.14158,-1.5,-nan,0,0,2,0,0,0,0,0,0,0,0,1.9603e-19,0,0,0,0,0
14481,-3.72299e-12,-3.4155e-12,-1.58299e-06,-3.85292e-12,-3.41531e-12,0,-2.84376e-13,0,0,0,0,0,0,0,0,0,0,0,0,0,0,0,0,0,0,0,0,0,-0.261799,3.14158,-1.5,-nan,0,0,2,0,0,0,0,0,0,0,0,1.9603e-19,0,0,0,0,0
14498,-3.72299e-12,-3.4155e-12,-1.58299e-06,-3.85292e-12,-3.41531e-12,-3.40903e-12,-2.84378e-13,0,0,0,0,0,0,0,0,0,0,0,0,0,0,0,0,0,0,0,0,0,-0.261799,3.14158,-1.5,-nan,0,0,2,0,0,0,0,0,0,0,0,1.9603e-19,0,0,0,0,0
14522,-3.72299e-12,-3.4155e-12,-1.58299e-06,-3.85292e-12,-3.41531e-12,0,-2.84379e-13,0,0,0,0,0,0,0,0,0,0,0,0,0,0,0,0,0,0,0,0,0,-0.261799,3.14158,-1.5,-nan,0,0,2,0,0,0,0,0,0,0,0,1.9603e-19,0,0,0,0,0
14560,-3.72299e-12,-3.4155e-12,-1.58299e-06,-3.85292e-12,-3.41531e-12,-3.40903e-12,-2.8438e-13,0,0,0,0,0,0,0,0,0,0,0,0,0,0,0,0,0,0,0,0,0,-0.261799,3.14159,-1.5,-nan,0,0,2,0,0,0,0,0,0,0,0,1.9603e-19,0,0,0,0,0
14577,-3.72299e-12,-3.4155e-12,-1.58299e-06,-3.85292e-12,-3.41531e-12,0,-2.84381e-13,0,0,0,0,0,0,0,0,0,0,0,0,0,0,0,0,0,0,0,0,0,-0.261799,3.14159,-1.5,-nan,0,0,2,0,0,0,0,0,0,0,0,1.9603e-19,0,0,0,0,0
14601,-3.72299e-12,-3.4155e-12,-1.58299e-06,-3.85292e-12,-3.41531e-12,-3.40903e-12,-2.84382e-13,0,0,0,0,0,0,0,0,0,0,0,0,0,0,0,0,0,0,0,0,0,-0.261799,3.14159,-1.5,-nan,0,0,2,0,0,0,0,0,0,0,0,1.9603e-19,0,0,0,0,0
14618,-3.72299e-12,-3.4155e-12,-1.58299e-06,-3.85292e-12,-3.41531e-12,0,-2.84383e-13,0,0,0,0,0,0,0,0,0,0,0,0,0,0,0,0,0,0,0,0,0,-0.261799,3.14159,-1.5,-nan,0,0,2,0,0,0,0,0,0,0,0,1.9603e-19,0,0,0,0,0
14640,-3.72299e-12,-3.4155e-12,-1.58299e-06,-3.85292e-12,-3.41531e-12,-3.40903e-12,-2.84384e-13,0,0,0,0,0,0,0,0,0,0,0,0,0,0,0,0,0,0,0,0,0,-0.261799,3.14159,-1.5,-nan,0,0,2,0,0,0,0,0,0,0,0,1.9603e-19,0,0,0,0,0
14657,-3.72299e-12,-3.4155e-12,-1.58299e-06,-3.85292e-12,-3.41531e-12,0,-2.84385e-13,0,0,0,0,0,0,0,0,0,0,0,0,0,0,0,0,0,0,0,0,0,-0.261799,3.14159,-1.5,-nan,0,0,2,0,0,0,0,0,0,0,0,1.9603e-19,0,0,0,0,0
14674,-3.72299e-12,-3.4155e-12,-1.58299e-06,-3.85292e-12,-3.41531e-12,-3.40903e-12,-2.84386e-13,0,0,0,0,0,0,0,0,0,0,0,0,0,0,0,0,0,0,0,0,0,-0.261799,3.14159,-1.5,-nan,0,0,2,0,0,0,0,0,0,0,0,1.9603e-19,0,0,0,0,0
14696,-3.72299e-12,-3.4155e-12,-1.58299e-06,-3.85292e-12,-3.41531e-12,0,-2.84387e-13,0,0,0,0,0,0,0,0,0,0,0,0,0,0,0,0,0,0,0,0,0,-0.261799,3.14159,-1.5,-nan,0,0,2,0,0,0,0,0,0,0,0,1.9603e-19,0,0,0,0,0
14714,-3.72299e-12,-3.4155e-12,-1.58299e-06,-3.85292e-12,-3.41531e-12,-3.40903e-12,-2.84388e-13,0,0,0,0,0,0,0,0,0,0,0,0,0,0,0,0,0,0,0,0,0,-0.261799,3.14159,-1.5,-nan,0,0,2,0,0,0,0,0,0,0,0,1.9603e-19,0,0,0,0,0
14735,-3.72299e-12,-3.4155e-12,-1.58299e-06,-3.85292e-12,-3.41531e-12,0,-2.84389e-13,0,0,0,0,0,0,0,0,0,0,0,0,0,0,0,0,0,0,0,0,0,-0.261799,3.14159,-1.5,-nan,0,0,2,0,0,0,0,0,0,0,0,1.9603e-19,0,0,0,0,0
14769,-3.72299e-12,-3.4155e-12,-1.58299e-06,-3.85292e-12,-3.41531e-12,-3.40903e-12,-2.84391e-13,0,0,0,0,0,0,0,0,0,0,0,0,0,0,0,0,0,0,0,0,0,-0.261799,3.14159,-1.5,-nan,0,0,2,0,0,0,0,0,0,0,0,1.9603e-19,0,0,0,0,0
14788,-3.72299e-12,-3.4155e-12,-1.58299e-06,-3.85292e-12,-3.41531e-12,0,-2.84392e-13,0,0,0,0,0,0,0,0,0,0,0,0,0,0,0,0,0,0,0,0,0,-0.261799,3.14159,-1.5,-nan,0,0,2,0,0,0,0,0,0,0,0,1.9603e-19,0,0,0,0,0
14810,-3.72299e-12,-3.4155e-12,-1.58299e-06,-3.85292e-12,-3.41531e-12,-3.40903e-12,-2.84393e-13,0,0,0,0,0,0,0,0,0,0,0,0,0,0,0,0,0,0,0,0,0,-0.261799,3.14159,-1.5,-nan,0,0,2,0,0,0,0,0,0,0,0,1.9603e-19,0,0,0,0,0
14828,-3.72299e-12,-3.4155e-12,-1.58299e-06,-3.85292e-12,-3.41531e-12,0,-2.85444e-13,0,0,0,0,0,0,0,0,0,0,0,0,0,0,0,0,0,0,0,0,0,-0.261799,3.14159,-1.5,-nan,0,0,2,0,0,0,0,0,0,0,0,1.9603e-19,0,0,0,0,0
14846,-3.72299e-12,-3.4155e-12,-1.58299e-06,-3.85292e-12,-3.41531e-12,-3.40903e-12,-2.85445e-13,0,0,0,0,0,0,0,0,0,0,0,0,0,0,0,0,0,0,0,0,0,-0.261799,3.14159,-1.5,-nan,0,0,2,0,0,0,0,0,0,0,0,1.9603e-19,0,0,0,0,0
14861,-3.72299e-12,-3.4155e-12,-1.58299e-06,-3.85292e-12,-3.41531e-12,0,-2.85446e-13,0,0,0,0,0,0,0,0,0,0,0,0,0,0,0,0,0,0,0,0,0,-0.261799,3.14159,-1.5,-nan,0,0,2,0,0,0,0,0,0,0,0,1.9603e-19,0,0,0,0,0
14875,-3.72299e-12,-3.4155e-12,-1.58299e-06,-3.85292e-12,-3.41531e-12,-3.40903e-12,-2.85447e-13,0,0,0,0,0,0,0,0,0,0,0,0,0,0,0,0,0,0,0,0,0,-0.261799,3.14159,-1.5,-nan,0,0,2,0,0,0,0,0,0,0,0,1.9603e-19,0,0,0,0,0
14909,-3.72299e-12,-3.4155e-12,-1.58299e-06,-3.85292e-12,-3.41531e-12,0,-2.85448e-13,0,0,0,0,0,0,0,0,0,0,0,0,0,0,0,0,0,0,0,0,0,-0.261799,3.14159,-1.5,-nan,0,0,2,0,0,0,0,0,0,0,0,1.9603e-19,0,0,0,0,0
14927,-3.72299e-12,-3.4155e-12,-1.58299e-06,-3.85292e-12,-3.41531e-12,-3.40903e-12,-2.85449e-13,0,0,0,0,0,0,0,0,0,0,0,0,0,0,0,0,0,0,0,0,0,-0.261799,3.14159,-1.5,-nan,0,0,2,0,0,0,0,0,0,0,0,1.9603e-19,0,0,0,0,0
14945,-3.72299e-12,-3.4155e-12,-1.58299e-06,-3.85292e-12,-3.41531e-12,0,-2.8545e-13,0,0,0,0,0,0,0,0,0,0,0,0,0,0,0,0,0,0,0,0,0,-0.261799,3.14159,-1.5,-nan,0,0,2,0,0,0,0,0,0,0,0,1.9603e-19,0,0,0,0,0
14967,-3.72299e-12,-3.4155e-12,-1.58299e-06,-3.85292e-12,-3.41531e-12,-3.40903e-12,-2.85451e-13,0,0,0,0,0,0,0,0,0,0,0,0,0,0,0,0,0,0,0,0,0,-0.261799,3.14159,-1.5,-nan,0,0,2,0,0,0,0,0,0,0,0,1.9603e-19,0,0,0,0,0
15001,-3.72299e-12,-3.4155e-12,-1.58299e-06,-3.85292e-12,-3.41531e-12,0,-2.85452e-13,0,0,0,0,0,0,0,0,0,0,0,0,0,0,0,0,0,0,0,0,0,-0.261799,3.14159,-1.5,-nan,0,0,2,0,0,0,0,0,0,0,0,1.9603e-19,0,0,0,0,0
15024,-3.72299e-12,-3.4155e-12,-1.58299e-06,-3.85292e-12,-3.41531e-12,-3.40903e-12,-2.85453e-13,0,0,0,0,0,0,0,0,0,0,0,0,0,0,0,0,0,0,0,0,0,-0.261799,3.14159,-1.5,-nan,0,0,2,0,0,0,0,0,0,0,0,1.9603e-19,0,0,0,0,0
15041,-3.72299e-12,-3.4155e-12,-1.58299e-06,-3.85292e-12,-3.41531e-12,0,-2.85454e-13,0,0,0,0,0,0,0,0,0,0,0,0,0,0,0,0,0,0,0,0,0,-0.261799,3.14159,-1.5,-nan,0,0,2,0,0,0,0,0,0,0,0,1.9603e-19,0,0,0,0,0
15058,-3.72299e-12,-3.4155e-12,-1.58299e-06,-3.85292e-12,-3.41531e-12,-3.40903e-12,-2.85455e-13,0,0,0,0,0,0,0,0,0,0,0,0,0,0,0,0,0,0,0,0,0,-0.261799,3.14159,-1.5,-nan,0,0,2,0,0,0,0,0,0,0,0,1.9603e-19,0,0,0,0,0
15080,-3.72299e-12,-3.4155e-12,-1.58299e-06,-3.85292e-12,-3.41531e-12,0,-2.85457e-13,0,0,0,0,0,0,0,0,0,0,0,0,0,0,0,0,0,0,0,0,0,-0.261799,3.14159,-1.5,-nan,0,0,2,0,0,0,0,0,0,0,0,1.9603e-19,0,0,0,0,0
15096,-3.72299e-12,-3.4155e-12,-1.58299e-06,-3.85292e-12,-3.41531e-12,-3.40903e-12,-2.85458e-13,0,0,0,0,0,0,0,0,0,0,0,0,0,0,0,0,0,0,0,0,0,-0.261799,3.14159,-1.5,-nan,0,0,2,0,0,0,0,0,0,0,0,1.9603e-19,0,0,0,0,0
