timestamp,A_x,A_y,A_z,P,Q,R,Phi,Theta,Psi,poseX,poseY,poseZ,state_X,state_Y,state_Z,state_VzB,state_Bx,state_By,state_Bz,p1_x,p1_y,p2_x,p2_y,p3_x,p3_y,p4_x,p4_y,roll,pitch,yaw,alt,targetHeading,highLevelState,lowLevelState,gateNumber,filtered_x,filtered_y,x_OT,y_OT,vx_OT,vy_OT,filtered_vx,filtered_vygateArearansac_corr_x,ransac_corr_y,ransac_corr_vx,ransac_corr_vy,detectionTimeStamppTermX,dTermX,pTermY,dTermY,vxcmd,vycmd
7161,0,0,0,0,0,0,0,0,0,0,0,0,0,0,0,0,0,0,0,0,0,0,0,0,0,0,0,0,-0.349066,0.0141372,-1.5,nan,0,0,2,0,0,0,0,0,0,0,0,1.9603e-19,0,0,0,0,0,0,0,0,0,2.5,0
7176,0,0,0,0,0,0,0,0,0,0,0,0,0,0,0,0,0,0,0,0,0,0,0,0,0,0,0,0,-0.349066,0.0376991,-1.5,nan,0,0,2,0,0,0,0,0,0,0,0,1.9603e-19,0,0,0,0,0,0,0,0,0,2.5,0
7707,-3.11491e-12,3.59693e-38,-1.50662e-06,-3.18057e-12,3.59669e-38,0,-1.06589e-13,0,0,0,0,0,0,0,0,0,0,0,0,0,0,0,0,0,0,0,0,0,-0.349066,0.871791,-1.5,nan,0,0,2,0,0,0,0,0,0,0,0,1.9603e-19,0,0,0,0,0,0,0,0,0,2.5,0
7723,-3.11491e-12,3.59693e-38,-1.50662e-06,-3.18057e-12,3.59669e-38,0,-1.0659e-13,0,0,0,0,0,0,0,0,0,0,0,0,0,0,0,0,0,0,0,0,0,-0.349066,0.896924,-1.5,nan,0,0,2,0,0,0,0,0,0,0,0,1.9603e-19,0,0,0,0,0,0,0,0,0,2.5,0
7738,-3.11491e-12,3.59693e-38,-1.50662e-06,-3.18057e-12,3.59669e-38,0,-1.0659e-13,0,0,0,0,0,0,0,0,0,0,0,0,0,0,0,0,0,0,0,0,0,-0.349066,0.920486,-1.5,nan,0,0,2,0,0,0,0,0,0,0,0,1.9603e-19,0,0,0,0,0,0,0,0,0,2.5,0
7754,-3.11491e-12,3.59693e-38,-1.50662e-06,-3.18057e-12,3.59669e-38,0,-1.0659e-13,0,0,0,0,0,0,0,0,0,0,0,0,0,0,0,0,0,0,0,0,0,-0.349066,0.945619,-1.5,nan,0,0,2,0,0,0,0,0,0,0,0,1.9603e-19,0,0,0,0,0,0,0,0,0,2.5,0
7770,-3.11491e-12,3.59693e-38,-1.50662e-06,-3.18057e-12,3.59669e-38,0,-1.0659e-13,0,0,0,0,0,0,0,0,0,0,0,0,0,0,0,0,0,0,0,0,0,-0.349066,0.96918,-1.5,nan,0,0,2,0,0,0,0,0,0,0,0,1.9603e-19,0,0,0,0,0,0,0,0,0,2.5,0
7785,-3.11491e-12,3.59693e-38,-1.50662e-06,-3.18057e-12,3.59669e-38,0,-1.06591e-13,0,0,0,0,0,0,0,0,0,0,0,0,0,0,0,0,0,0,0,0,0,-0.349066,0.994313,-1.5,nan,0,0,2,0,0,0,0,0,0,0,0,1.9603e-19,0,0,0,0,0,0,0,0,0,2.5,0
7801,-3.11491e-12,3.59693e-38,-1.50662e-06,-3.18057e-12,3.59669e-38,0,-1.06591e-13,0,0,0,0,0,0,0,0,0,0,0,0,0,0,0,0,0,0,0,0,0,-0.349066,1.01788,-1.5,nan,0,0,2,0,0,0,0,0,0,0,0,1.9603e-19,0,0,0,0,0,0,0,0,0,2.5,0
7823,-3.11491e-12,3.59693e-38,-1.50662e-06,-3.18057e-12,3.59669e-38,0,-1.06591e-13,0,0,0,0,0,0,0,0,0,0,0,0,0,0,0,0,0,0,0,0,0,-0.349066,1.054,-1.5,nan,0,0,2,0,0,0,0,0,0,0,0,1.9603e-19,0,0,0,0,0,0,0,0,0,2.5,0
7839,-3.11491e-12,3.59693e-38,-1.50662e-06,-3.18057e-12,3.59669e-38,0,-1.06591e-13,0,0,0,0,0,0,0,0,0,0,0,0,0,0,0,0,0,0,0,0,0,-0.349066,1.07757,-1.5,nan,0,0,2,0,0,0,0,0,0,0,0,1.9603e-19,0,0,0,0,0,0,0,0,0,2.5,0
7854,-3.11491e-12,3.59693e-38,-1.50662e-06,-3.18057e-12,3.59669e-38,0,-1.06592e-13,0,0,0,0,0,0,0,0,0,0,0,0,0,0,0,0,0,0,0,0,0,-0.349066,1.1027,-1.5,nan,0,0,2,0,0,0,0,0,0,0,0,1.9603e-19,0,0,0,0,0,0,0,0,0,2.5,0
7870,-3.11491e-12,3.59693e-38,-1.50662e-06,-3.18057e-12,3.59669e-38,0,-1.06592e-13,0,0,0,0,0,0,0,0,0,0,0,0,0,0,0,0,0,0,0,0,0,-0.349066,1.12783,-1.5,nan,0,0,2,0,0,0,0,0,0,0,0,1.9603e-19,0,0,0,0,0,0,0,0,0,2.5,0
7886,-3.11491e-12,3.59693e-38,-1.50662e-06,-3.18057e-12,3.59669e-38,0,-1.06592e-13,0,0,0,0,0,0,0,0,0,0,0,0,0,0,0,0,0,0,0,0,0,-0.349066,1.15296,-1.5,nan,0,0,2,0,0,0,0,0,0,0,0,1.9603e-19,0,0,0,0,0,0,0,0,0,2.5,0
7902,-3.11491e-12,3.59693e-38,-1.50662e-06,-3.18057e-12,3.59669e-38,0,-1.06593e-13,0,0,0,0,0,0,0,0,0,0,0,0,0,0,0,0,0,0,0,0,0,-0.349066,1.17653,-1.5,nan,0,0,2,0,0,0,0,0,0,0,0,1.9603e-19,0,0,0,0,0,0,0,0,0,2.5,0
7917,-3.11491e-12,3.59693e-38,-1.50662e-06,-3.18057e-12,3.59669e-38,0,-1.06593e-13,0,0,0,0,0,0,0,0,0,0,0,0,0,0,0,0,0,0,0,0,0,-0.349066,1.20166,-1.5,nan,0,0,2,0,0,0,0,0,0,0,0,1.9603e-19,0,0,0,0,0,0,0,0,0,2.5,0
7934,-3.11491e-12,3.59693e-38,-1.50662e-06,-3.18057e-12,3.59669e-38,0,-1.06593e-13,0,0,0,0,0,0,0,0,0,0,0,0,0,0,0,0,0,0,0,0,0,-0.349066,1.22836,-1.5,nan,0,0,2,0,0,0,0,0,0,0,0,1.9603e-19,0,0,0,0,0,0,0,0,0,2.5,0
8005,-3.11491e-12,3.59693e-38,-1.50662e-06,-3.18057e-12,3.59669e-38,0,-1.06593e-13,0,0,0,0,0,0,0,0,0,0,0,0,0,0,0,0,0,0,0,0,0,-0.349066,1.33989,-1.5,nan,0,0,2,0,0,0,0,0,0,0,0,1.9603e-19,0,0,0,0,0,0,0,0,0,2.5,0
8021,-3.11491e-12,3.59693e-38,-1.50662e-06,-3.18057e-12,3.59669e-38,0,-1.06594e-13,0,0,0,0,0,0,0,0,0,0,0,0,0,0,0,0,0,0,0,0,0,-0.349066,1.36345,-1.5,nan,0,0,2,0,0,0,0,0,0,0,0,1.9603e-19,0,0,0,0,0,0,0,0,0,2.5,0
8038,-3.11491e-12,3.59693e-38,-1.50662e-06,-3.18057e-12,3.59669e-38,0,-1.06594e-13,0,0,0,0,0,0,0,0,0,0,0,0,0,0,0,0,0,0,0,0,0,-0.349066,1.38858,-1.5,nan,0,0,2,0,0,0,0,0,0,0,0,1.9603e-19,0,0,0,0,0,0,0,0,0,2.5,0
8062,-3.11491e-12,3.59693e-38,-1.50662e-06,-3.18057e-12,3.59669e-38,0,-1.06594e-13,0,0,0,0,0,0,0,0,0,0,0,0,0,0,0,0,0,0,0,0,0,-0.349066,1.42785,-1.5,nan,0,0,2,0,0,0,0,0,0,0,0,1.9603e-19,0,0,0,0,0,0,0,0,0,2.5,0
8076,-3.11491e-12,3.59693e-38,-1.50662e-06,-3.18057e-12,3.59669e-38,0,-1.06594e-13,0,0,0,0,0,0,0,0,0,0,0,0,0,0,0,0,0,0,0,0,0,-0.349066,1.44985,-1.5,nan,0,0,2,0,0,0,0,0,0,0,0,1.9603e-19,0,0,0,0,0,0,0,0,0,2.5,0
8091,-3.11491e-12,3.59693e-38,-1.50662e-06,-3.18057e-12,3.59669e-38,0,-1.06595e-13,0,0,0,0,0,0,0,0,0,0,0,0,0,0,0,0,0,0,0,0,0,-0.349066,1.47341,-1.5,nan,0,0,2,0,0,0,0,0,0,0,0,1.9603e-19,0,0,0,0,0,0,0,0,0,2.5,0
8107,-3.11491e-12,3.59693e-38,-1.50662e-06,-3.18057e-12,3.59669e-38,0,-1.06595e-13,0,0,0,0,0,0,0,0,0,0,0,0,0,0,0,0,0,0,0,0,0,-0.349066,1.49854,-1.5,nan,0,0,2,0,0,0,0,0,0,0,0,1.9603e-19,0,0,0,0,0,0,0,0,0,2.5,0
8124,-3.11491e-12,3.59693e-38,-1.50662e-06,-3.18057e-12,3.59669e-38,0,-1.06595e-13,0,0,0,0,0,0,0,0,0,0,0,0,0,0,0,0,0,0,0,0,0,-0.349066,1.52524,-1.5,nan,0,0,2,0,0,0,0,0,0,0,0,1.9603e-19,0,0,0,0,0,0,0,0,0,2.5,0
8140,-3.11491e-12,3.59693e-38,-1.50662e-06,-3.18057e-12,3.59669e-38,0,-1.06596e-13,0,0,0,0,0,0,0,0,0,0,0,0,0,0,0,0,0,0,0,0,0,-0.349066,1.55038,-1.5,nan,0,0,2,0,0,0,0,0,0,0,0,1.9603e-19,0,0,0,0,0,0,0,0,0,2.5,0
8156,-3.11491e-12,3.59693e-38,-1.50662e-06,-3.18057e-12,3.59669e-38,0,-1.06596e-13,0,0,0,0,0,0,0,0,0,0,0,0,0,0,0,0,0,0,0,0,0,-0.349066,1.57551,-1.5,nan,0,0,2,0,0,0,0,0,0,0,0,1.9603e-19,0,0,0,0,0,0,0,0,0,2.5,0
8172,-3.11491e-12,3.59693e-38,-1.50662e-06,-3.18057e-12,3.59669e-38,0,-1.06596e-13,0,0,0,0,0,0,0,0,0,0,0,0,0,0,0,0,0,0,0,0,0,-0.349066,1.60064,-1.5,nan,0,0,2,0,0,0,0,0,0,0,0,1.9603e-19,0,0,0,0,0,0,0,0,0,2.5,0
8187,-3.11491e-12,3.59693e-38,-1.50662e-06,-3.18057e-12,3.59669e-38,0,-1.06596e-13,0,0,0,0,0,0,0,0,0,0,0,0,0,0,0,0,0,0,0,0,0,-0.349066,1.6242,-1.5,nan,0,0,2,0,0,0,0,0,0,0,0,1.9603e-19,0,0,0,0,0,0,0,0,0,2.5,0
8203,-3.11491e-12,3.59693e-38,-1.50662e-06,-3.18057e-12,3.59669e-38,0,-1.06597e-13,0,0,0,0,0,0,0,0,0,0,0,0,0,0,0,0,0,0,0,0,0,-0.349066,1.64934,-1.5,nan,0,0,2,0,0,0,0,0,0,0,0,1.9603e-19,0,0,0,0,0,0,0,0,0,2.5,0
8219,-3.11491e-12,3.59693e-38,-1.50662e-06,-3.18057e-12,3.59669e-38,0,-1.06597e-13,0,0,0,0,0,0,0,0,0,0,0,0,0,0,0,0,0,0,0,0,0,-0.349066,1.67447,-1.5,nan,0,0,2,0,0,0,0,0,0,0,0,1.9603e-19,0,0,0,0,0,0,0,0,0,2.5,0
8236,-3.11491e-12,3.59693e-38,-1.50662e-06,-3.18057e-12,3.59669e-38,0,-1.06597e-13,0,0,0,0,0,0,0,0,0,0,0,0,0,0,0,0,0,0,0,0,0,-0.349066,1.6996,-1.5,nan,0,0,2,0,0,0,0,0,0,0,0,1.9603e-19,0,0,0,0,0,0,0,0,0,2.5,0
8251,-3.11491e-12,3.59693e-38,-1.50662e-06,-3.18057e-12,3.59669e-38,0,-1.06597e-13,0,0,0,0,0,0,0,0,0,0,0,0,0,0,0,0,0,0,0,0,0,-0.349066,1.72317,-1.5,nan,0,0,2,0,0,0,0,0,0,0,0,1.9603e-19,0,0,0,0,0,0,0,0,0,2.5,0
8268,-3.11491e-12,3.59693e-38,-1.50662e-06,-3.18057e-12,3.59669e-38,0,-1.06598e-13,0,0,0,0,0,0,0,0,0,0,0,0,0,0,0,0,0,0,0,0,0,-0.349066,1.74987,-1.5,nan,0,0,2,0,0,0,0,0,0,0,0,1.9603e-19,0,0,0,0,0,0,0,0,0,2.5,0
8283,-3.11491e-12,3.59693e-38,-1.50662e-06,-3.18057e-12,3.59669e-38,0,-1.06598e-13,0,0,0,0,0,0,0,0,0,0,0,0,0,0,0,0,0,0,0,0,0,-0.349066,1.77343,-1.5,nan,0,0,2,0,0,0,0,0,0,0,0,1.9603e-19,0,0,0,0,0,0,0,0,0,2.5,0
8299,-3.11491e-12,3.59693e-38,-1.50662e-06,-3.18057e-12,3.59669e-38,0,-1.06598e-13,0,0,0,0,0,0,0,0,0,0,0,0,0,0,0,0,0,0,0,0,0,-0.349066,1.79856,-1.5,nan,0,0,2,0,0,0,0,0,0,0,0,1.9603e-19,0,0,0,0,0,0,0,0,0,2.5,0
8316,-3.11491e-12,3.59693e-38,-1.50662e-06,-3.18057e-12,3.59669e-38,0,-1.06599e-13,0,0,0,0,0,0,0,0,0,0,0,0,0,0,0,0,0,0,0,0,0,-0.349066,1.82527,-1.5,nan,0,0,2,0,0,0,0,0,0,0,0,1.9603e-19,0,0,0,0,0,0,0,0,0,2.5,0
8332,-3.11491e-12,3.59693e-38,-1.50662e-06,-3.18057e-12,3.59669e-38,0,-1.06599e-13,0,0,0,0,0,0,0,0,0,0,0,0,0,0,0,0,0,0,0,0,0,-0.349066,1.8504,-1.5,nan,0,0,2,0,0,0,0,0,0,0,0,1.9603e-19,0,0,0,0,0,0,0,0,0,2.5,0
8347,-3.11491e-12,3.59693e-38,-1.50662e-06,-3.18057e-12,3.59669e-38,0,-1.06599e-13,0,0,0,0,0,0,0,0,0,0,0,0,0,0,0,0,0,0,0,0,0,-0.349066,1.87396,-1.5,nan,0,0,2,0,0,0,0,0,0,0,0,1.9603e-19,0,0,0,0,0,0,0,0,0,2.5,0
8361,-3.11491e-12,3.59693e-38,-1.50662e-06,-3.18057e-12,3.59669e-38,0,-1.06599e-13,0,0,0,0,0,0,0,0,0,0,0,0,0,0,0,0,0,0,0,0,0,-0.349066,1.89595,-1.5,nan,0,0,2,0,0,0,0,0,0,0,0,1.9603e-19,0,0,0,0,0,0,0,0,0,2.5,0
8374,-3.11491e-12,3.59693e-38,-1.50662e-06,-3.18057e-12,3.59669e-38,0,-1.066e-13,0,0,0,0,0,0,0,0,0,0,0,0,0,0,0,0,0,0,0,0,0,-0.349066,1.91637,-1.5,nan,0,0,2,0,0,0,0,0,0,0,0,1.9603e-19,0,0,0,0,0,0,0,0,0,2.5,0
8389,-3.11491e-12,3.59693e-38,-1.50662e-06,-3.18057e-12,3.59669e-38,0,-1.066e-13,0,0,0,0,0,0,0,0,0,0,0,0,0,0,0,0,0,0,0,0,0,-0.349066,1.93994,-1.5,nan,0,0,2,0,0,0,0,0,0,0,0,1.9603e-19,0,0,0,0,0,0,0,0,0,2.5,0
8405,-3.11491e-12,3.59693e-38,-1.50662e-06,-3.18057e-12,3.59669e-38,0,-1.066e-13,0,0,0,0,0,0,0,0,0,0,0,0,0,0,0,0,0,0,0,0,0,-0.349066,1.96507,-1.5,nan,0,0,2,0,0,0,0,0,0,0,0,1.9603e-19,0,0,0,0,0,0,0,0,0,2.5,0
8421,-3.11491e-12,3.59693e-38,-1.50662e-06,-3.18057e-12,3.59669e-38,0,-1.066e-13,0,0,0,0,0,0,0,0,0,0,0,0,0,0,0,0,0,0,0,0,0,-0.349066,1.98863,-1.5,nan,0,0,2,0,0,0,0,0,0,0,0,1.9603e-19,0,0,0,0,0,0,0,0,0,2.5,0
8437,-3.11491e-12,3.59693e-38,-1.50662e-06,-3.18057e-12,3.59669e-38,0,-1.06601e-13,0,0,0,0,0,0,0,0,0,0,0,0,0,0,0,0,0,0,0,0,0,-0.349066,2.01533,-1.5,nan,0,0,2,0,0,0,0,0,0,0,0,1.9603e-19,0,0,0,0,0,0,0,0,0,2.5,0
8452,-3.11491e-12,3.59693e-38,-1.50662e-06,-3.18057e-12,3.59669e-38,0,-1.06601e-13,0,0,0,0,0,0,0,0,0,0,0,0,0,0,0,0,0,0,0,0,0,-0.349066,2.0389,-1.5,nan,0,0,2,0,0,0,0,0,0,0,0,1.9603e-19,0,0,0,0,0,0,0,0,0,2.5,0
8469,-3.11491e-12,3.59693e-38,-1.50662e-06,-3.18057e-12,3.59669e-38,0,-1.06601e-13,0,0,0,0,0,0,0,0,0,0,0,0,0,0,0,0,0,0,0,0,0,-0.349066,2.0656,-1.5,nan,0,0,2,0,0,0,0,0,0,0,0,1.9603e-19,0,0,0,0,0,0,0,0,0,2.5,0
8485,-3.11491e-12,3.59693e-38,-1.50662e-06,-3.18057e-12,3.59669e-38,0,-1.06602e-13,0,0,0,0,0,0,0,0,0,0,0,0,0,0,0,0,0,0,0,0,0,-0.349066,2.09073,-1.5,nan,0,0,2,0,0,0,0,0,0,0,0,1.9603e-19,0,0,0,0,0,0,0,0,0,2.5,0
8501,-3.11491e-12,3.59693e-38,-1.50662e-06,-3.18057e-12,3.59669e-38,0,-1.06602e-13,0,0,0,0,0,0,0,0,0,0,0,0,0,0,0,0,0,0,0,0,0,-0.349066,2.11587,-1.5,nan,0,0,2,0,0,0,0,0,0,0,0,1.9603e-19,0,0,0,0,0,0,0,0,0,2.5,0
8517,-3.11491e-12,3.59693e-38,-1.50662e-06,-3.18057e-12,3.59669e-38,0,-1.06602e-13,0,0,0,0,0,0,0,0,0,0,0,0,0,0,0,0,0,0,0,0,0,-0.349066,2.141,-1.5,nan,0,0,2,0,0,0,0,0,0,0,0,1.9603e-19,0,0,0,0,0,0,0,0,0,2.5,0
8533,-3.11491e-12,3.59693e-38,-1.50662e-06,-3.18057e-12,3.59669e-38,0,-1.06602e-13,0,0,0,0,0,0,0,0,0,0,0,0,0,0,0,0,0,0,0,0,0,-0.349066,2.16613,-1.5,nan,0,0,2,0,0,0,0,0,0,0,0,1.9603e-19,0,0,0,0,0,0,0,0,0,2.5,0
8549,-3.11491e-12,3.59693e-38,-1.50662e-06,-3.18057e-12,3.59669e-38,0,-1.06603e-13,0,0,0,0,0,0,0,0,0,0,0,0,0,0,0,0,0,0,0,0,0,-0.349066,2.19127,-1.5,nan,0,0,2,0,0,0,0,0,0,0,0,1.9603e-19,0,0,0,0,0,0,0,0,0,2.5,0
8566,-3.11491e-12,3.59693e-38,-1.50662e-06,-3.18057e-12,3.59669e-38,0,-1.06603e-13,0,0,0,0,0,0,0,0,0,0,0,0,0,0,0,0,0,0,0,0,0,-0.349066,2.2164,-1.5,nan,0,0,2,0,0,0,0,0,0,0,0,1.9603e-19,0,0,0,0,0,0,0,0,0,2.5,0
8581,-3.11491e-12,3.59693e-38,-1.50662e-06,-3.18057e-12,3.59669e-38,0,-1.06603e-13,0,0,0,0,0,0,0,0,0,0,0,0,0,0,0,0,0,0,0,0,0,-0.349066,2.24153,-1.5,nan,0,0,2,0,0,0,0,0,0,0,0,1.9603e-19,0,0,0,0,0,0,0,0,0,2.5,0
8597,-3.11491e-12,3.59693e-38,-1.50662e-06,-3.18057e-12,3.59669e-38,0,-1.06603e-13,0,0,0,0,0,0,0,0,0,0,0,0,0,0,0,0,0,0,0,0,0,-0.349066,2.26666,-1.5,nan,0,0,2,0,0,0,0,0,0,0,0,1.9603e-19,0,0,0,0,0,0,0,0,0,2.5,0
8647,-3.11491e-12,3.59693e-38,-1.50662e-06,-3.18057e-12,3.59669e-38,0,-1.06604e-13,0,0,0,0,0,0,0,0,0,0,0,0,0,0,0,0,0,0,0,0,0,-0.349066,2.3452,-1.5,nan,0,0,2,0,0,0,0,0,0,0,0,1.9603e-19,0,0,0,0,0,0,0,0,0,2.5,0
8662,-3.11491e-12,3.59693e-38,-1.50662e-06,-3.18057e-12,3.59669e-38,0,-1.06604e-13,0,0,0,0,0,0,0,0,0,0,0,0,0,0,0,0,0,0,0,0,0,-0.349066,2.36869,-1.5,nan,0,0,2,0,0,0,0,0,0,0,0,1.9603e-19,0,0,0,0,0,0,0,0,0,2.5,0
8678,-3.11491e-12,3.59693e-38,-1.50662e-06,-3.18057e-12,3.59669e-38,0,-1.06604e-13,0,0,0,0,0,0,0,0,0,0,0,0,0,0,0,0,0,0,0,0,0,-0.349066,2.39314,-1.5,nan,0,0,2,0,0,0,0,0,0,0,0,1.9603e-19,0,0,0,0,0,0,0,0,0,2.5,0
8695,-3.11491e-12,3.59693e-38,-1.50662e-06,-3.18057e-12,3.59669e-38,0,-1.06605e-13,0,0,0,0,0,0,0,0,0,0,0,0,0,0,0,0,0,0,0,0,0,-0.349066,2.4183,-1.5,nan,0,0,2,0,0,0,0,0,0,0,0,1.9603e-19,0,0,0,0,0,0,0,0,0,2.5,0
8709,-3.11491e-12,3.59693e-38,-1.50662e-06,-3.18057e-12,3.59669e-38,0,-1.06605e-13,0,0,0,0,0,0,0,0,0,0,0,0,0,0,0,0,0,0,0,0,0,-0.349066,2.43834,-1.5,nan,0,0,2,0,0,0,0,0,0,0,0,1.9603e-19,0,0,0,0,0,0,0,0,0,2.5,0
8722,-3.11491e-12,3.59693e-38,-1.50662e-06,-3.18057e-12,3.59669e-38,0,-1.06605e-13,0,0,0,0,0,0,0,0,0,0,0,0,0,0,0,0,0,0,0,0,0,-0.349066,2.45645,-1.5,nan,0,0,2,0,0,0,0,0,0,0,0,1.9603e-19,0,0,0,0,0,0,0,0,0,2.5,0
8738,-3.11491e-12,3.59693e-38,-1.50662e-06,-3.18057e-12,3.59669e-38,0,-1.06605e-13,0,0,0,0,0,0,0,0,0,0,0,0,0,0,0,0,0,0,0,0,0,-0.349066,2.47812,-1.5,nan,0,0,2,0,0,0,0,0,0,0,0,1.9603e-19,0,0,0,0,0,0,0,0,0,2.5,0
8753,-3.11491e-12,3.59693e-38,-1.50662e-06,-3.18057e-12,3.59669e-38,0,-1.06606e-13,0,0,0,0,0,0,0,0,0,0,0,0,0,0,0,0,0,0,0,0,0,-0.349066,2.49781,-1.5,nan,0,0,2,0,0,0,0,0,0,0,0,1.9603e-19,0,0,0,0,0,0,0,0,0,2.5,0
8770,-3.11491e-12,3.59693e-38,-1.50662e-06,-3.18057e-12,3.59669e-38,0,-1.06606e-13,0,0,0,0,0,0,0,0,0,0,0,0,0,0,0,0,0,0,0,0,0,-0.349066,2.51945,-1.5,nan,0,0,2,0,0,0,0,0,0,0,0,1.9603e-19,0,0,0,0,0,0,0,0,0,2.5,0
8785,-3.11491e-12,3.59693e-38,-1.50662e-06,-3.18057e-12,3.59669e-38,0,-1.06606e-13,0,0,0,0,0,0,0,0,0,0,0,0,0,0,0,0,0,0,0,0,0,-0.349066,2.53792,-1.5,nan,0,0,2,0,0,0,0,0,0,0,0,1.9603e-19,0,0,0,0,0,0,0,0,0,2.5,0
8801,-3.11491e-12,3.59693e-38,-1.50662e-06,-3.18057e-12,3.59669e-38,0,-1.06606e-13,0,0,0,0,0,0,0,0,0,0,0,0,0,0,0,0,0,0,0,0,0,-0.349066,2.55701,-1.5,nan,0,0,2,0,0,0,0,0,0,0,0,1.9603e-19,0,0,0,0,0,0,0,0,0,2.5,0
8816,-3.11491e-12,3.59693e-38,-1.50662e-06,-3.18057e-12,3.59669e-38,0,-1.06607e-13,0,0,0,0,0,0,0,0,0,0,0,0,0,0,0,0,0,0,0,0,0,-0.349066,2.57436,-1.5,nan,0,0,2,0,0,0,0,0,0,0,0,1.9603e-19,0,0,0,0,0,0,0,0,0,2.5,0
8832,-3.11491e-12,3.59693e-38,-1.50662e-06,-3.18057e-12,3.59669e-38,0,-1.06607e-13,0,0,0,0,0,0,0,0,0,0,0,0,0,0,0,0,0,0,0,0,0,-0.349066,2.5923,-1.5,nan,0,0,2,0,0,0,0,0,0,0,0,1.9603e-19,0,0,0,0,0,0,0,0,0,2.5,0
8848,-3.11491e-12,3.59693e-38,-1.50662e-06,-3.18057e-12,3.59669e-38,0,-1.06607e-13,0,0,0,0,0,0,0,0,0,0,0,0,0,0,0,0,0,0,0,0,0,-0.349066,2.60967,-1.5,nan,0,0,2,0,0,0,0,0,0,0,0,1.9603e-19,0,0,0,0,0,0,0,0,0,2.5,0
8864,-3.11491e-12,3.59693e-38,-1.50662e-06,-3.18057e-12,3.59669e-38,0,-1.06607e-13,0,0,0,0,0,0,0,0,0,0,0,0,0,0,0,0,0,0,0,0,0,-0.349066,2.6265,-1.5,nan,0,0,2,0,0,0,0,0,0,0,0,1.9603e-19,0,0,0,0,0,0,0,0,0,2.5,0
8879,-3.11491e-12,3.59693e-38,-1.50662e-06,-3.18057e-12,3.59669e-38,0,-1.06608e-13,0,0,0,0,0,0,0,0,0,0,0,0,0,0,0,0,0,0,0,0,0,-0.349066,2.64178,-1.5,nan,0,0,2,0,0,0,0,0,0,0,0,1.9603e-19,0,0,0,0,0,0,0,0,0,2.5,0
8894,-3.11491e-12,3.59693e-38,-1.50662e-06,-3.18057e-12,3.59669e-38,0,-1.06608e-13,0,0,0,0,0,0,0,0,0,0,0,0,0,0,0,0,0,0,0,0,0,-0.349066,2.65661,-1.5,nan,0,0,2,0,0,0,0,0,0,0,0,1.9603e-19,0,0,0,0,0,0,0,0,0,2.5,0
8910,-3.11491e-12,3.59693e-38,-1.50662e-06,-3.18057e-12,3.59669e-38,0,-1.06608e-13,0,0,0,0,0,0,0,0,0,0,0,0,0,0,0,0,0,0,0,0,0,-0.349066,2.67196,-1.5,nan,0,0,2,0,0,0,0,0,0,0,0,1.9603e-19,0,0,0,0,0,0,0,0,0,2.5,0
8926,-3.11491e-12,3.59693e-38,-1.50662e-06,-3.18057e-12,3.59669e-38,0,-1.06609e-13,0,0,0,0,0,0,0,0,0,0,0,0,0,0,0,0,0,0,0,0,0,-0.349066,2.68683,-1.5,nan,0,0,2,0,0,0,0,0,0,0,0,1.9603e-19,0,0,0,0,0,0,0,0,0,2.5,0
8942,-3.11491e-12,3.59693e-38,-1.50662e-06,-3.18057e-12,3.59669e-38,0,-1.06609e-13,0,0,0,0,0,0,0,0,0,0,0,0,0,0,0,0,0,0,0,0,0,-0.349066,2.70121,-1.5,nan,0,0,2,0,0,0,0,0,0,0,0,1.9603e-19,0,0,0,0,0,0,0,0,0,2.5,0
8957,-3.11491e-12,3.59693e-38,-1.50662e-06,-3.18057e-12,3.59669e-38,0,-1.06609e-13,0,0,0,0,0,0,0,0,0,0,0,0,0,0,0,0,0,0,0,0,0,-0.349066,2.71341,-1.5,nan,0,0,2,0,0,0,0,0,0,0,0,1.9603e-19,0,0,0,0,0,0,0,0,0,2.5,0
8972,-3.11491e-12,3.59693e-38,-1.50662e-06,-3.18057e-12,3.59669e-38,0,-1.06609e-13,0,0,0,0,0,0,0,0,0,0,0,0,0,0,0,0,0,0,0,0,0,-0.349066,2.72612,-1.5,nan,0,0,2,0,0,0,0,0,0,0,0,1.9603e-19,0,0,0,0,0,0,0,0,0,2.5,0
9008,-3.11491e-12,3.59693e-38,-1.50662e-06,-3.18057e-12,3.59669e-38,0,-1.0661e-13,0,0,0,0,0,0,0,0,0,0,0,0,0,0,0,0,0,0,0,0,0,-0.349066,2.75563,-1.5,nan,0,0,2,0,0,0,0,0,0,0,0,1.9603e-19,0,0,0,0,0,0,0,0,0,2.5,0
9025,-3.11491e-12,3.59693e-38,-1.50662e-06,-3.18057e-12,3.59669e-38,0,-1.0661e-13,0,0,0,0,0,0,0,0,0,0,0,0,0,0,0,0,0,0,0,0,0,-0.349066,2.76784,-1.5,nan,0,0,2,0,0,0,0,0,0,0,0,1.9603e-19,0,0,0,0,0,0,0,0,0,2.5,0
9038,-3.11491e-12,3.59693e-38,-1.50662e-06,-3.18057e-12,3.59669e-38,0,-1.0661e-13,0,0,0,0,0,0,0,0,0,0,0,0,0,0,0,0,0,0,0,0,0,-0.349066,2.7782,-1.5,nan,0,0,2,0,0,0,0,0,0,0,0,1.9603e-19,0,0,0,0,0,0,0,0,0,2.5,0
9051,-3.11491e-12,3.59693e-38,-1.50662e-06,-3.18057e-12,3.59669e-38,0,-1.0661e-13,0,0,0,0,0,0,0,0,0,0,0,0,0,0,0,0,0,0,0,0,0,-0.349066,2.78755,-1.5,nan,0,0,2,0,0,0,0,0,0,0,0,1.9603e-19,0,0,0,0,0,0,0,0,0,2.5,0
9067,-3.11491e-12,3.59693e-38,-1.50662e-06,-3.18057e-12,3.59669e-38,0,-1.06611e-13,0,0,0,0,0,0,0,0,0,0,0,0,0,0,0,0,0,0,0,0,0,-0.349066,2.79875,-1.5,nan,0,0,2,0,0,0,0,0,0,0,0,1.9603e-19,0,0,0,0,0,0,0,0,0,2.5,0
9082,-3.11491e-12,3.59693e-38,-1.50662e-06,-3.18057e-12,3.59669e-38,0,-1.06611e-13,0,0,0,0,0,0,0,0,0,0,0,0,0,0,0,0,0,0,0,0,0,-0.349066,2.80892,-1.5,nan,0,0,2,0,0,0,0,0,0,0,0,1.9603e-19,0,0,0,0,0,0,0,0,0,2.5,0
9097,-3.11491e-12,3.59693e-38,-1.50662e-06,-3.18057e-12,3.59669e-38,0,-1.06611e-13,0,0,0,0,0,0,0,0,0,0,0,0,0,0,0,0,0,0,0,0,0,-0.349066,2.8188,-1.5,nan,0,0,2,0,0,0,0,0,0,0,0,1.9603e-19,0,0,0,0,0,0,0,0,0,2.5,0
9113,-3.11491e-12,3.59693e-38,-1.50662e-06,-3.18057e-12,3.59669e-38,0,-1.06612e-13,0,0,0,0,0,0,0,0,0,0,0,0,0,0,0,0,0,0,0,0,0,-0.349066,2.82901,-1.5,nan,0,0,2,0,0,0,0,0,0,0,0,1.9603e-19,0,0,0,0,0,0,0,0,0,2.5,0
9129,-3.11491e-12,3.59693e-38,-1.50662e-06,-3.18057e-12,3.59669e-38,0,-1.06612e-13,0,0,0,0,0,0,0,0,0,0,0,0,0,0,0,0,0,0,0,0,0,-0.349066,2.8389,-1.5,nan,0,0,2,0,0,0,0,0,0,0,0,1.9603e-19,0,0,0,0,0,0,0,0,0,2.5,0
9144,-3.11491e-12,3.59693e-38,-1.50662e-06,-3.18057e-12,3.59669e-38,0,-1.06612e-13,0,0,0,0,0,0,0,0,0,0,0,0,0,0,0,0,0,0,0,0,0,-0.349066,2.84788,-1.5,nan,0,0,2,0,0,0,0,0,0,0,0,1.9603e-19,0,0,0,0,0,0,0,0,0,2.5,0
9159,-3.11491e-12,3.59693e-38,-1.50662e-06,-3.18057e-12,3.59669e-38,0,-1.06612e-13,0,0,0,0,0,0,0,0,0,0,0,0,0,0,0,0,0,0,0,0,0,-0.349066,2.8566,-1.5,nan,0,0,2,0,0,0,0,0,0,0,0,1.9603e-19,0,0,0,0,0,0,0,0,0,2.5,0
9175,-3.11491e-12,3.59693e-38,-1.50662e-06,-3.18057e-12,3.59669e-38,0,-1.06613e-13,0,0,0,0,0,0,0,0,0,0,0,0,0,0,0,0,0,0,0,0,0,-0.349066,2.86562,-1.5,nan,0,0,2,0,0,0,0,0,0,0,0,1.9603e-19,0,0,0,0,0,0,0,0,0,2.5,0
9190,-3.11491e-12,3.59693e-38,-1.50662e-06,-3.18057e-12,3.59669e-38,0,-1.06613e-13,0,0,0,0,0,0,0,0,0,0,0,0,0,0,0,0,0,0,0,0,0,-0.349066,2.87381,-1.5,nan,0,0,2,0,0,0,0,0,0,0,0,1.9603e-19,0,0,0,0,0,0,0,0,0,2.5,0
9207,-3.11491e-12,3.59693e-38,-1.50662e-06,-3.18057e-12,3.59669e-38,0,-1.06613e-13,0,0,0,0,0,0,0,0,0,0,0,0,0,0,0,0,0,0,0,0,0,-0.349066,2.8828,-1.5,nan,0,0,2,0,0,0,0,0,0,0,0,1.9603e-19,0,0,0,0,0,0,0,0,0,2.5,0
9222,-3.11491e-12,3.59693e-38,-1.50662e-06,-3.18057e-12,3.59669e-38,0,-1.06613e-13,0,0,0,0,0,0,0,0,0,0,0,0,0,0,0,0,0,0,0,0,0,-0.349066,2.89048,-1.5,nan,0,0,2,0,0,0,0,0,0,0,0,1.9603e-19,0,0,0,0,0,0,0,0,0,2.5,0
9237,-3.11491e-12,3.59693e-38,-1.50662e-06,-3.18057e-12,3.59669e-38,0,-1.06614e-13,0,0,0,0,0,0,0,0,0,0,0,0,0,0,0,0,0,0,0,0,0,-0.349066,2.89793,-1.5,nan,0,0,2,0,0,0,0,0,0,0,0,1.9603e-19,0,0,0,0,0,0,0,0,0,2.5,0
9253,-3.11491e-12,3.59693e-38,-1.50662e-06,-3.18057e-12,3.59669e-38,0,-1.06614e-13,0,0,0,0,0,0,0,0,0,0,0,0,0,0,0,0,0,0,0,0,0,-0.349066,2.90517,-1.5,nan,0,0,2,0,0,0,0,0,0,0,0,1.9603e-19,0,0,0,0,0,0,0,0,0,2.5,0
9269,-3.11491e-12,3.59693e-38,-1.50662e-06,-3.18057e-12,3.59669e-38,0,-1.06614e-13,0,0,0,0,0,0,0,0,0,0,0,0,0,0,0,0,0,0,0,0,0,-0.349066,2.91311,-1.5,nan,0,0,2,0,0,0,0,0,0,0,0,1.9603e-19,0,0,0,0,0,0,0,0,0,2.5,0
9285,-3.11491e-12,3.59693e-38,-1.50662e-06,-3.18057e-12,3.59669e-38,0,-1.06615e-13,0,0,0,0,0,0,0,0,0,0,0,0,0,0,0,0,0,0,0,0,0,-0.349066,2.92034,-1.5,nan,0,0,2,0,0,0,0,0,0,0,0,1.9603e-19,0,0,0,0,0,0,0,0,0,2.5,0
9300,-3.11491e-12,3.59693e-38,-1.50662e-06,-3.18057e-12,3.59669e-38,0,-1.06615e-13,0,0,0,0,0,0,0,0,0,0,0,0,0,0,0,0,0,0,0,0,0,-0.349066,2.9269,-1.5,nan,0,0,2,0,0,0,0,0,0,0,0,1.9603e-19,0,0,0,0,0,0,0,0,0,2.5,0
9315,-3.11491e-12,3.59693e-38,-1.50662e-06,-3.18057e-12,3.59669e-38,0,-1.06615e-13,0,0,0,0,0,0,0,0,0,0,0,0,0,0,0,0,0,0,0,0,0,-0.349066,2.93327,-1.5,nan,0,0,2,0,0,0,0,0,0,0,0,1.9603e-19,0,0,0,0,0,0,0,0,0,2.5,0
9329,-3.11491e-12,3.59693e-38,-1.50662e-06,-3.18057e-12,3.59669e-38,0,-1.06615e-13,0,0,0,0,0,0,0,0,0,0,0,0,0,0,0,0,0,0,0,0,0,-0.349066,2.93905,-1.5,nan,0,0,2,0,0,0,0,0,0,0,0,1.9603e-19,0,0,0,0,0,0,0,0,0,2.5,0
9343,-3.11491e-12,3.59693e-38,-1.50662e-06,-3.18057e-12,3.59669e-38,0,-1.06616e-13,0,0,0,0,0,0,0,0,0,0,0,0,0,0,0,0,0,0,0,0,0,-0.349066,2.94426,-1.5,nan,0,0,2,0,0,0,0,0,0,0,0,1.9603e-19,0,0,0,0,0,0,0,0,0,2.5,0
9357,-3.11491e-12,3.59693e-38,-1.50662e-06,-3.18057e-12,3.59669e-38,0,-1.06616e-13,0,0,0,0,0,0,0,0,0,0,0,0,0,0,0,0,0,0,0,0,0,-0.349066,2.95012,-1.5,nan,0,0,2,0,0,0,0,0,0,0,0,1.9603e-19,0,0,0,0,0,0,0,0,0,2.5,0
9373,-3.11491e-12,3.59693e-38,-1.50662e-06,-3.18057e-12,3.59669e-38,0,-1.06616e-13,0,0,0,0,0,0,0,0,0,0,0,0,0,0,0,0,0,0,0,0,0,-0.349066,2.9558,-1.5,nan,0,0,2,0,0,0,0,0,0,0,0,1.9603e-19,0,0,0,0,0,0,0,0,0,2.5,0
9388,-3.11491e-12,3.59693e-38,-1.50662e-06,-3.18057e-12,3.59669e-38,0,-1.06616e-13,0,0,0,0,0,0,0,0,0,0,0,0,0,0,0,0,0,0,0,0,0,-0.349066,2.96168,-1.5,nan,0,0,2,0,0,0,0,0,0,0,0,1.9603e-19,0,0,0,0,0,0,0,0,0,2.5,0
9403,-3.11491e-12,3.59693e-38,-1.50662e-06,-3.18057e-12,3.59669e-38,0,-1.06617e-13,0,0,0,0,0,0,0,0,0,0,0,0,0,0,0,0,0,0,0,0,0,-0.349066,2.96702,-1.5,nan,0,0,2,0,0,0,0,0,0,0,0,1.9603e-19,0,0,0,0,0,0,0,0,0,2.5,0
9419,-3.11491e-12,3.59693e-38,-1.50662e-06,-3.18057e-12,3.59669e-38,0,-1.06617e-13,0,0,0,0,0,0,0,0,0,0,0,0,0,0,0,0,0,0,0,0,0,-0.349066,2.97254,-1.5,nan,0,0,2,0,0,0,0,0,0,0,0,1.9603e-19,0,0,0,0,0,0,0,0,0,2.5,0
9436,-3.11491e-12,3.59693e-38,-1.50662e-06,-3.18057e-12,3.59669e-38,0,-1.06617e-13,0,0,0,0,0,0,0,0,0,0,0,0,0,0,0,0,0,0,0,0,0,-0.349066,2.97822,-1.5,nan,0,0,2,0,0,0,0,0,0,0,0,1.9603e-19,0,0,0,0,0,0,0,0,0,2.5,0
9451,-3.11491e-12,3.59693e-38,-1.50662e-06,-3.18057e-12,3.59669e-38,0,-1.06618e-13,0,0,0,0,0,0,0,0,0,0,0,0,0,0,0,0,0,0,0,0,0,-0.349066,2.98306,-1.5,nan,0,0,2,0,0,0,0,0,0,0,0,1.9603e-19,0,0,0,0,0,0,0,0,0,2.5,0
9467,-3.11491e-12,3.59693e-38,-1.50662e-06,-3.18057e-12,3.59669e-38,0,-1.06618e-13,0,0,0,0,0,0,0,0,0,0,0,0,0,0,0,0,0,0,0,0,0,-0.349066,2.98777,-1.5,nan,0,0,2,0,0,0,0,0,0,0,0,1.9603e-19,0,0,0,0,0,0,0,0,0,2.5,0
9482,-3.11491e-12,3.59693e-38,-1.50662e-06,-3.18057e-12,3.59669e-38,0,-1.06618e-13,0,0,0,0,0,0,0,0,0,0,0,0,0,0,0,0,0,0,0,0,0,-0.349066,2.99233,-1.5,nan,0,0,2,0,0,0,0,0,0,0,0,1.9603e-19,0,0,0,0,0,0,0,0,0,2.5,0
9497,-3.11491e-12,3.59693e-38,-1.50662e-06,-3.18057e-12,3.59669e-38,0,-1.06618e-13,0,0,0,0,0,0,0,0,0,0,0,0,0,0,0,0,0,0,0,0,0,-0.349066,2.99706,-1.5,nan,0,0,2,0,0,0,0,0,0,0,0,1.9603e-19,0,0,0,0,0,0,0,0,0,2.5,0
9512,-3.11491e-12,3.59693e-38,-1.50662e-06,-3.18057e-12,3.59669e-38,0,-1.06619e-13,0,0,0,0,0,0,0,0,0,0,0,0,0,0,0,0,0,0,0,0,0,-0.349066,3.00135,-1.5,nan,0,0,2,0,0,0,0,0,0,0,0,1.9603e-19,0,0,0,0,0,0,0,0,0,2.5,0
9528,-3.11491e-12,3.59693e-38,-1.50662e-06,-3.18057e-12,3.59669e-38,0,-1.06619e-13,0,0,0,0,0,0,0,0,0,0,0,0,0,0,0,0,0,0,0,0,0,-0.349066,3.00579,-1.5,nan,0,0,2,0,0,0,0,0,0,0,0,1.9603e-19,0,0,0,0,0,0,0,0,0,2.5,0
9544,-3.11491e-12,3.59693e-38,-1.50662e-06,-3.18057e-12,3.59669e-38,0,-1.06619e-13,0,0,0,0,0,0,0,0,0,0,0,0,0,0,0,0,0,0,0,0,0,-0.349066,3.01008,-1.5,nan,0,0,2,0,0,0,0,0,0,0,0,1.9603e-19,0,0,0,0,0,0,0,0,0,2.5,0
9560,-3.11491e-12,3.59693e-38,-1.50662e-06,-3.18057e-12,3.59669e-38,0,-1.06619e-13,0,0,0,0,0,0,0,0,0,0,0,0,0,0,0,0,0,0,0,0,0,-0.349066,3.01399,-1.5,nan,0,0,2,0,0,0,0,0,0,0,0,1.9603e-19,0,0,0,0,0,0,0,0,0,2.5,0
9575,-3.11491e-12,3.59693e-38,-1.50662e-06,-3.18057e-12,3.59669e-38,0,-1.0662e-13,0,0,0,0,0,0,0,0,0,0,0,0,0,0,0,0,0,0,0,0,0,-0.349066,3.01803,-1.5,nan,0,0,2,0,0,0,0,0,0,0,0,1.9603e-19,0,0,0,0,0,0,0,0,0,2.5,0
9590,-3.11491e-12,3.59693e-38,-1.50662e-06,-3.18057e-12,3.59669e-38,0,-1.0662e-13,0,0,0,0,0,0,0,0,0,0,0,0,0,0,0,0,0,0,0,0,0,-0.349066,3.02169,-1.5,nan,0,0,2,0,0,0,0,0,0,0,0,1.9603e-19,0,0,0,0,0,0,0,0,0,2.5,0
9606,-3.11491e-12,3.59693e-38,-1.50662e-06,-3.18057e-12,3.59669e-38,0,-1.0662e-13,0,0,0,0,0,0,0,0,0,0,0,0,0,0,0,0,0,0,0,0,0,-0.349066,3.02549,-1.5,nan,0,0,2,0,0,0,0,0,0,0,0,1.9603e-19,0,0,0,0,0,0,0,0,0,2.5,0
9622,-3.11491e-12,3.59693e-38,-1.50662e-06,-3.18057e-12,3.59669e-38,0,-1.0662e-13,0,0,0,0,0,0,0,0,0,0,0,0,0,0,0,0,0,0,0,0,0,-0.349066,3.02916,-1.5,nan,0,0,2,0,0,0,0,0,0,0,0,1.9603e-19,0,0,0,0,0,0,0,0,0,2.5,0
9636,-3.11491e-12,3.59693e-38,-1.50662e-06,-3.18057e-12,3.59669e-38,0,-1.06621e-13,0,0,0,0,0,0,0,0,0,0,0,0,0,0,0,0,0,0,0,0,0,-0.349066,3.03228,-1.5,nan,0,0,2,0,0,0,0,0,0,0,0,1.9603e-19,0,0,0,0,0,0,0,0,0,2.5,0
9649,-3.11491e-12,3.59693e-38,-1.50662e-06,-3.18057e-12,3.59669e-38,0,-1.06621e-13,0,0,0,0,0,0,0,0,0,0,0,0,0,0,0,0,0,0,0,0,0,-0.349066,3.03509,-1.5,nan,0,0,2,0,0,0,0,0,0,0,0,1.9603e-19,0,0,0,0,0,0,0,0,0,2.5,0
9665,-3.11491e-12,3.59693e-38,-1.50662e-06,-3.18057e-12,3.59669e-38,0,-1.06621e-13,0,0,0,0,0,0,0,0,0,0,0,0,0,0,0,0,0,0,0,0,0,-0.349066,3.03846,-1.5,nan,0,0,2,0,0,0,0,0,0,0,0,1.9603e-19,0,0,0,0,0,0,0,0,0,2.5,0
9680,-3.11491e-12,3.59693e-38,-1.50662e-06,-3.18057e-12,3.59669e-38,0,-1.06622e-13,0,0,0,0,0,0,0,0,0,0,0,0,0,0,0,0,0,0,0,0,0,-0.349066,3.04152,-1.5,nan,0,0,2,0,0,0,0,0,0,0,0,1.9603e-19,0,0,0,0,0,0,0,0,0,2.5,0
9697,-3.11491e-12,3.59693e-38,-1.50662e-06,-3.18057e-12,3.59669e-38,0,-1.06622e-13,0,0,0,0,0,0,0,0,0,0,0,0,0,0,0,0,0,0,0,0,0,-0.349066,3.04469,-1.5,nan,0,0,2,0,0,0,0,0,0,0,0,1.9603e-19,0,0,0,0,0,0,0,0,0,2.5,0
9712,-3.11491e-12,3.59693e-38,-1.50662e-06,-3.18057e-12,3.59669e-38,0,-1.06622e-13,0,0,0,0,0,0,0,0,0,0,0,0,0,0,0,0,0,0,0,0,0,-0.349066,3.04756,-1.5,nan,0,0,2,0,0,0,0,0,0,0,0,1.9603e-19,0,0,0,0,0,0,0,0,0,2.5,0
9727,-3.11491e-12,3.59693e-38,-1.50662e-06,-3.18057e-12,3.59669e-38,0,-1.06622e-13,0,0,0,0,0,0,0,0,0,0,0,0,0,0,0,0,0,0,0,0,0,-0.349066,3.05035,-1.5,nan,0,0,2,0,0,0,0,0,0,0,0,1.9603e-19,0,0,0,0,0,0,0,0,0,2.5,0
9742,-3.11491e-12,3.59693e-38,-1.50662e-06,-3.18057e-12,3.59669e-38,0,-1.06623e-13,0,0,0,0,0,0,0,0,0,0,0,0,0,0,0,0,0,0,0,0,0,-0.349066,3.05306,-1.5,nan,0,0,2,0,0,0,0,0,0,0,0,1.9603e-19,0,0,0,0,0,0,0,0,0,2.5,0
9758,-3.11491e-12,3.59693e-38,-1.50662e-06,-3.18057e-12,3.59669e-38,0,-1.06623e-13,0,0,0,0,0,0,0,0,0,0,0,0,0,0,0,0,0,0,0,0,0,-0.349066,3.05586,-1.5,nan,0,0,2,0,0,0,0,0,0,0,0,1.9603e-19,0,0,0,0,0,0,0,0,0,2.5,0
9775,-3.11491e-12,3.59693e-38,-1.50662e-06,-3.18057e-12,3.59669e-38,0,-1.06623e-13,0,0,0,0,0,0,0,0,0,0,0,0,0,0,0,0,0,0,0,0,0,-0.349066,3.05874,-1.5,nan,0,0,2,0,0,0,0,0,0,0,0,1.9603e-19,0,0,0,0,0,0,0,0,0,2.5,0
9790,-3.11491e-12,3.59693e-38,-1.50662e-06,-3.18057e-12,3.59669e-38,0,-1.06623e-13,0,0,0,0,0,0,0,0,0,0,0,0,0,0,0,0,0,0,0,0,0,-0.349066,3.0612,-1.5,nan,0,0,2,0,0,0,0,0,0,0,0,1.9603e-19,0,0,0,0,0,0,0,0,0,2.5,0
9806,-3.11491e-12,3.59693e-38,-1.50662e-06,-3.18057e-12,3.59669e-38,0,-1.06624e-13,0,0,0,0,0,0,0,0,0,0,0,0,0,0,0,0,0,0,0,0,0,-0.349066,3.06374,-1.5,nan,0,0,2,0,0,0,0,0,0,0,0,1.9603e-19,0,0,0,0,0,0,0,0,0,2.5,0
9821,-3.11491e-12,3.59693e-38,-1.50662e-06,-3.18057e-12,3.59669e-38,0,-1.06624e-13,0,0,0,0,0,0,0,0,0,0,0,0,0,0,0,0,0,0,0,0,0,-0.349066,3.06605,-1.5,nan,0,0,2,0,0,0,0,0,0,0,0,1.9603e-19,0,0,0,0,0,0,0,0,0,2.5,0
9837,-3.11491e-12,3.59693e-38,-1.50662e-06,-3.18057e-12,3.59669e-38,0,-1.06624e-13,0,0,0,0,0,0,0,0,0,0,0,0,0,0,0,0,0,0,0,0,0,-0.349066,3.06844,-1.5,nan,0,0,2,0,0,0,0,0,0,0,0,1.9603e-19,0,0,0,0,0,0,0,0,0,2.5,0
9853,-3.11491e-12,3.59693e-38,-1.50662e-06,-3.18057e-12,3.59669e-38,0,-1.06625e-13,0,0,0,0,0,0,0,0,0,0,0,0,0,0,0,0,0,0,0,0,0,-0.349066,3.07076,-1.5,nan,0,0,2,0,0,0,0,0,0,0,0,1.9603e-19,0,0,0,0,0,0,0,0,0,2.5,0
9869,-3.11491e-12,3.59693e-38,-1.50662e-06,-3.18057e-12,3.59669e-38,0,-1.06625e-13,0,0,0,0,0,0,0,0,0,0,0,0,0,0,0,0,0,0,0,0,0,-0.349066,3.07286,-1.5,nan,0,0,2,0,0,0,0,0,0,0,0,1.9603e-19,0,0,0,0,0,0,0,0,0,2.5,0
9883,-3.11491e-12,3.59693e-38,-1.50662e-06,-3.18057e-12,3.59669e-38,0,-1.06625e-13,0,0,0,0,0,0,0,0,0,0,0,0,0,0,0,0,0,0,0,0,0,-0.349066,3.0749,-1.5,nan,0,0,2,0,0,0,0,0,0,0,0,1.9603e-19,0,0,0,0,0,0,0,0,0,2.5,0
9899,-3.11491e-12,3.59693e-38,-1.50662e-06,-3.18057e-12,3.59669e-38,0,-1.06625e-13,0,0,0,0,0,0,0,0,0,0,0,0,0,0,0,0,0,0,0,0,0,-0.349066,3.07701,-1.5,nan,0,0,2,0,0,0,0,0,0,0,0,1.9603e-19,0,0,0,0,0,0,0,0,0,2.5,0
9917,-3.11491e-12,3.59693e-38,-1.50662e-06,-3.18057e-12,3.59669e-38,0,-1.06626e-13,0,0,0,0,0,0,0,0,0,0,0,0,0,0,0,0,0,0,0,0,0,-0.349066,3.0793,-1.5,nan,0,0,2,0,0,0,0,0,0,0,0,1.9603e-19,0,0,0,0,0,0,0,0,0,2.5,0
9932,-3.11491e-12,3.59693e-38,-1.50662e-06,-3.18057e-12,3.59669e-38,0,-1.06626e-13,0,0,0,0,0,0,0,0,0,0,0,0,0,0,0,0,0,0,0,0,0,-0.349066,3.08103,-1.5,nan,0,0,2,0,0,0,0,0,0,0,0,1.9603e-19,0,0,0,0,0,0,0,0,0,2.5,0
9945,-3.11491e-12,3.59693e-38,-1.50662e-06,-3.18057e-12,3.59669e-38,0,-1.06626e-13,0,0,0,0,0,0,0,0,0,0,0,0,0,0,0,0,0,0,0,0,0,-0.349066,3.08271,-1.5,nan,0,0,2,0,0,0,0,0,0,0,0,1.9603e-19,0,0,0,0,0,0,0,0,0,2.5,0
9959,-3.11491e-12,3.59693e-38,-1.50662e-06,-3.18057e-12,3.59669e-38,0,-1.06626e-13,0,0,0,0,0,0,0,0,0,0,0,0,0,0,0,0,0,0,0,0,0,-0.349066,3.08434,-1.5,nan,0,0,2,0,0,0,0,0,0,0,0,1.9603e-19,0,0,0,0,0,0,0,0,0,2.5,0
9974,-3.11491e-12,3.59693e-38,-1.50662e-06,-3.18057e-12,3.59669e-38,0,-1.06627e-13,0,0,0,0,0,0,0,0,0,0,0,0,0,0,0,0,0,0,0,0,0,-0.349066,3.08604,-1.5,nan,0,0,2,0,0,0,0,0,0,0,0,1.9603e-19,0,0,0,0,0,0,0,0,0,2.5,0
9989,-3.11491e-12,3.59693e-38,-1.50662e-06,-3.18057e-12,3.59669e-38,0,-1.06627e-13,0,0,0,0,0,0,0,0,0,0,0,0,0,0,0,0,0,0,0,0,0,-0.349066,3.08769,-1.5,nan,0,0,2,0,0,0,0,0,0,0,0,1.9603e-19,0,0,0,0,0,0,0,0,0,2.5,0
10004,-3.11491e-12,3.59693e-38,-1.50662e-06,-3.18057e-12,3.59669e-38,0,-1.06627e-13,0,0,0,0,0,0,0,0,0,0,0,0,0,0,0,0,0,0,0,0,0,-0.349066,3.08929,-1.5,nan,0,0,2,0,0,0,0,0,0,0,0,1.9603e-19,0,0,0,0,0,0,0,0,0,2.5,0
10019,-3.11491e-12,3.59693e-38,-1.50662e-06,-3.18057e-12,3.59669e-38,0,-1.06628e-13,0,0,0,0,0,0,0,0,0,0,0,0,0,0,0,0,0,0,0,0,0,-0.349066,3.09084,-1.5,nan,0,0,2,0,0,0,0,0,0,0,0,1.9603e-19,0,0,0,0,0,0,0,0,0,2.5,0
10035,-3.11491e-12,3.59693e-38,-1.50662e-06,-3.18057e-12,3.59669e-38,0,-1.06628e-13,0,0,0,0,0,0,0,0,0,0,0,0,0,0,0,0,0,0,0,0,0,-0.349066,3.09244,-1.5,nan,0,0,2,0,0,0,0,0,0,0,0,1.9603e-19,0,0,0,0,0,0,0,0,0,2.5,0
10050,-3.11491e-12,3.59693e-38,-1.50662e-06,-3.18057e-12,3.59669e-38,0,-1.06628e-13,0,0,0,0,0,0,0,0,0,0,0,0,0,0,0,0,0,0,0,0,0,-0.349066,3.0939,-1.5,nan,0,0,2,0,0,0,0,0,0,0,0,1.9603e-19,0,0,0,0,0,0,0,0,0,2.5,0
10066,-3.11491e-12,3.59693e-38,-1.50662e-06,-3.18057e-12,3.59669e-38,0,-1.06628e-13,0,0,0,0,0,0,0,0,0,0,0,0,0,0,0,0,0,0,0,0,0,-0.349066,3.09532,-1.5,nan,0,0,2,0,0,0,0,0,0,0,0,1.9603e-19,0,0,0,0,0,0,0,0,0,2.5,0
10081,-3.11491e-12,3.59693e-38,-1.50662e-06,-3.18057e-12,3.59669e-38,0,-1.06629e-13,0,0,0,0,0,0,0,0,0,0,0,0,0,0,0,0,0,0,0,0,0,-0.349066,3.09669,-1.5,nan,0,0,2,0,0,0,0,0,0,0,0,1.9603e-19,0,0,0,0,0,0,0,0,0,2.5,0
10096,-3.11491e-12,3.59693e-38,-1.50662e-06,-3.18057e-12,3.59669e-38,0,-1.06629e-13,0,0,0,0,0,0,0,0,0,0,0,0,0,0,0,0,0,0,0,0,0,-0.349066,3.09811,-1.5,nan,0,0,2,0,0,0,0,0,0,0,0,1.9603e-19,0,0,0,0,0,0,0,0,0,2.5,0
10112,-3.11491e-12,3.59693e-38,-1.50662e-06,-3.18057e-12,3.59669e-38,0,-1.06629e-13,0,0,0,0,0,0,0,0,0,0,0,0,0,0,0,0,0,0,0,0,0,-0.349066,3.09949,-1.5,nan,0,0,2,0,0,0,0,0,0,0,0,1.9603e-19,0,0,0,0,0,0,0,0,0,2.5,0
10127,-3.11491e-12,3.59693e-38,-1.50662e-06,-3.18057e-12,3.59669e-38,0,-1.06629e-13,0,0,0,0,0,0,0,0,0,0,0,0,0,0,0,0,0,0,0,0,0,-0.349066,3.10074,-1.5,nan,0,0,2,0,0,0,0,0,0,0,0,1.9603e-19,0,0,0,0,0,0,0,0,0,2.5,0
10142,-3.11491e-12,3.59693e-38,-1.50662e-06,-3.18057e-12,3.59669e-38,0,-1.0663e-13,0,0,0,0,0,0,0,0,0,0,0,0,0,0,0,0,0,0,0,0,0,-0.349066,3.10195,-1.5,nan,0,0,2,0,0,0,0,0,0,0,0,1.9603e-19,0,0,0,0,0,0,0,0,0,2.5,0
10157,-3.11491e-12,3.59693e-38,-1.50662e-06,-3.18057e-12,3.59669e-38,0,-1.0663e-13,0,0,0,0,0,0,0,0,0,0,0,0,0,0,0,0,0,0,0,0,0,-0.349066,3.10313,-1.5,nan,0,0,2,0,0,0,0,0,0,0,0,1.9603e-19,0,0,0,0,0,0,0,0,0,2.5,0
10173,-3.11491e-12,3.59693e-38,-1.50662e-06,-3.18057e-12,3.59669e-38,0,-1.0663e-13,0,0,0,0,0,0,0,0,0,0,0,0,0,0,0,0,0,0,0,0,0,-0.349066,3.10434,-1.5,nan,0,0,2,0,0,0,0,0,0,0,0,1.9603e-19,0,0,0,0,0,0,0,0,0,2.5,0
10189,-3.11491e-12,3.59693e-38,-1.50662e-06,-3.18057e-12,3.59669e-38,0,-1.06631e-13,0,0,0,0,0,0,0,0,0,0,0,0,0,0,0,0,0,0,0,0,0,-0.349066,3.10552,-1.5,nan,0,0,2,0,0,0,0,0,0,0,0,1.9603e-19,0,0,0,0,0,0,0,0,0,2.5,0
10204,-3.11491e-12,3.59693e-38,-1.50662e-06,-3.18057e-12,3.59669e-38,0,-1.06631e-13,0,0,0,0,0,0,0,0,0,0,0,0,0,0,0,0,0,0,0,0,0,-0.349066,3.10659,-1.5,nan,0,0,2,0,0,0,0,0,0,0,0,1.9603e-19,0,0,0,0,0,0,0,0,0,2.5,0
10219,-3.11491e-12,3.59693e-38,-1.50662e-06,-3.18057e-12,3.59669e-38,0,-1.06631e-13,0,0,0,0,0,0,0,0,0,0,0,0,0,0,0,0,0,0,0,0,0,-0.349066,3.10763,-1.5,nan,0,0,2,0,0,0,0,0,0,0,0,1.9603e-19,0,0,0,0,0,0,0,0,0,2.5,0
10232,-3.11491e-12,3.59693e-38,-1.50662e-06,-3.18057e-12,3.59669e-38,0,-1.06631e-13,0,0,0,0,0,0,0,0,0,0,0,0,0,0,0,0,0,0,0,0,0,-0.349066,3.1085,-1.5,nan,0,0,2,0,0,0,0,0,0,0,0,1.9603e-19,0,0,0,0,0,0,0,0,0,2.5,0
10245,-3.11491e-12,3.59693e-38,-1.50662e-06,-3.18057e-12,3.59669e-38,0,-1.06632e-13,0,0,0,0,0,0,0,0,0,0,0,0,0,0,0,0,0,0,0,0,0,-0.349066,3.10936,-1.5,nan,0,0,2,0,0,0,0,0,0,0,0,1.9603e-19,0,0,0,0,0,0,0,0,0,2.5,0
10261,-3.11491e-12,3.59693e-38,-1.50662e-06,-3.18057e-12,3.59669e-38,0,-1.06632e-13,0,0,0,0,0,0,0,0,0,0,0,0,0,0,0,0,0,0,0,0,0,-0.349066,3.11031,-1.5,nan,0,0,2,0,0,0,0,0,0,0,0,1.9603e-19,0,0,0,0,0,0,0,0,0,2.5,0
10277,-3.11491e-12,3.59693e-38,-1.50662e-06,-3.18057e-12,3.59669e-38,0,-1.06632e-13,0,0,0,0,0,0,0,0,0,0,0,0,0,0,0,0,0,0,0,0,0,-0.349066,3.1113,-1.5,nan,0,0,2,0,0,0,0,0,0,0,0,1.9603e-19,0,0,0,0,0,0,0,0,0,2.5,0
10293,-3.11491e-12,3.59693e-38,-1.50662e-06,-3.18057e-12,3.59669e-38,0,-1.06632e-13,0,0,0,0,0,0,0,0,0,0,0,0,0,0,0,0,0,0,0,0,0,-0.349066,3.11232,-1.5,nan,0,0,2,0,0,0,0,0,0,0,0,1.9603e-19,0,0,0,0,0,0,0,0,0,2.5,0
10308,-3.11491e-12,3.59693e-38,-1.50662e-06,-3.18057e-12,3.59669e-38,0,-1.06633e-13,0,0,0,0,0,0,0,0,0,0,0,0,0,0,0,0,0,0,0,0,0,-0.349066,3.11319,-1.5,nan,0,0,2,0,0,0,0,0,0,0,0,1.9603e-19,0,0,0,0,0,0,0,0,0,2.5,0
10323,-3.11491e-12,3.59693e-38,-1.50662e-06,-3.18057e-12,3.59669e-38,0,-1.06633e-13,0,0,0,0,0,0,0,0,0,0,0,0,0,0,0,0,0,0,0,0,0,-0.349066,3.11403,-1.5,nan,0,0,2,0,0,0,0,0,0,0,0,1.9603e-19,0,0,0,0,0,0,0,0,0,2.5,0
10339,-3.11491e-12,3.59693e-38,-1.50662e-06,-3.18057e-12,3.59669e-38,0,-1.06633e-13,0,0,0,0,0,0,0,0,0,0,0,0,0,0,0,0,0,0,0,0,0,-0.349066,3.1149,-1.5,nan,0,0,2,0,0,0,0,0,0,0,0,1.9603e-19,0,0,0,0,0,0,0,0,0,2.5,0
10355,-3.11491e-12,3.59693e-38,-1.50662e-06,-3.18057e-12,3.59669e-38,0,-1.06634e-13,0,0,0,0,0,0,0,0,0,0,0,0,0,0,0,0,0,0,0,0,0,-0.349066,3.11575,-1.5,nan,0,0,2,0,0,0,0,0,0,0,0,1.9603e-19,0,0,0,0,0,0,0,0,0,2.5,0
10372,-3.11491e-12,3.59693e-38,-1.50662e-06,-3.18057e-12,3.59669e-38,0,-1.06634e-13,0,0,0,0,0,0,0,0,0,0,0,0,0,0,0,0,0,0,0,0,0,-0.349066,3.11657,-1.5,nan,0,0,2,0,0,0,0,0,0,0,0,1.9603e-19,0,0,0,0,0,0,0,0,0,2.5,0
10387,-3.11491e-12,3.59693e-38,-1.50662e-06,-3.18057e-12,3.59669e-38,0,-1.06634e-13,0,0,0,0,0,0,0,0,0,0,0,0,0,0,0,0,0,0,0,0,0,-0.349066,3.11731,-1.5,nan,0,0,2,0,0,0,0,0,0,0,0,1.9603e-19,0,0,0,0,0,0,0,0,0,2.5,0
10403,-3.11491e-12,3.59693e-38,-1.50662e-06,-3.18057e-12,3.59669e-38,0,-1.06634e-13,0,0,0,0,0,0,0,0,0,0,0,0,0,0,0,0,0,0,0,0,0,-0.349066,3.11803,-1.5,nan,0,0,2,0,0,0,0,0,0,0,0,1.9603e-19,0,0,0,0,0,0,0,0,0,2.5,0
10418,-3.11491e-12,3.59693e-38,-1.50662e-06,-3.18057e-12,3.59669e-38,0,-1.06635e-13,0,0,0,0,0,0,0,0,0,0,0,0,0,0,0,0,0,0,0,0,0,-0.349066,3.11873,-1.5,nan,0,0,2,0,0,0,0,0,0,0,0,1.9603e-19,0,0,0,0,0,0,0,0,0,2.5,0
10434,-3.11491e-12,3.59693e-38,-1.50662e-06,-3.18057e-12,3.59669e-38,0,-1.06635e-13,0,0,0,0,0,0,0,0,0,0,0,0,0,0,0,0,0,0,0,0,0,-0.349066,3.1195,-1.5,nan,0,0,2,0,0,0,0,0,0,0,0,1.9603e-19,0,0,0,0,0,0,0,0,0,2.5,0
10450,-3.11491e-12,3.59693e-38,-1.50662e-06,-3.18057e-12,3.59669e-38,0,-1.06635e-13,0,0,0,0,0,0,0,0,0,0,0,0,0,0,0,0,0,0,0,0,0,-0.349066,3.12019,-1.5,nan,0,0,2,0,0,0,0,0,0,0,0,1.9603e-19,0,0,0,0,0,0,0,0,0,2.5,0
10466,-3.11491e-12,3.59693e-38,-1.50662e-06,-3.18057e-12,3.59669e-38,0,-1.06635e-13,0,0,0,0,0,0,0,0,0,0,0,0,0,0,0,0,0,0,0,0,0,-0.349066,3.12083,-1.5,nan,0,0,2,0,0,0,0,0,0,0,0,1.9603e-19,0,0,0,0,0,0,0,0,0,2.5,0
10481,-3.11491e-12,3.59693e-38,-1.50662e-06,-3.18057e-12,3.59669e-38,0,-1.06636e-13,0,0,0,0,0,0,0,0,0,0,0,0,0,0,0,0,0,0,0,0,0,-0.349066,3.12149,-1.5,nan,0,0,2,0,0,0,0,0,0,0,0,1.9603e-19,0,0,0,0,0,0,0,0,0,2.5,0
10496,-3.11491e-12,3.59693e-38,-1.50662e-06,-3.18057e-12,3.59669e-38,0,-1.06636e-13,0,0,0,0,0,0,0,0,0,0,0,0,0,0,0,0,0,0,0,0,0,-0.349066,3.12208,-1.5,nan,0,0,2,0,0,0,0,0,0,0,0,1.9603e-19,0,0,0,0,0,0,0,0,0,2.5,0
10511,-3.11491e-12,3.59693e-38,-1.50662e-06,-3.18057e-12,3.59669e-38,0,-1.06636e-13,0,0,0,0,0,0,0,0,0,0,0,0,0,0,0,0,0,0,0,0,0,-0.349066,3.12266,-1.5,nan,0,0,2,0,0,0,0,0,0,0,0,1.9603e-19,0,0,0,0,0,0,0,0,0,2.5,0
10528,-3.11491e-12,3.59693e-38,-1.50662e-06,-3.18057e-12,3.59669e-38,0,-1.06636e-13,0,0,0,0,0,0,0,0,0,0,0,0,0,0,0,0,0,0,0,0,0,-0.349066,3.12326,-1.5,nan,0,0,2,0,0,0,0,0,0,0,0,1.9603e-19,0,0,0,0,0,0,0,0,0,2.5,0
10540,-3.11491e-12,3.59693e-38,-1.50662e-06,-3.18057e-12,3.59669e-38,0,-1.06637e-13,0,0,0,0,0,0,0,0,0,0,0,0,0,0,0,0,0,0,0,0,0,-0.349066,3.12373,-1.5,nan,0,0,2,0,0,0,0,0,0,0,0,1.9603e-19,0,0,0,0,0,0,0,0,0,2.5,0
10554,-3.11491e-12,3.59693e-38,-1.50662e-06,-3.18057e-12,3.59669e-38,0,-1.06637e-13,0,0,0,0,0,0,0,0,0,0,0,0,0,0,0,0,0,0,0,0,0,-0.349066,3.12419,-1.5,nan,0,0,2,0,0,0,0,0,0,0,0,1.9603e-19,0,0,0,0,0,0,0,0,0,2.5,0
10569,-3.11491e-12,3.59693e-38,-1.50662e-06,-3.18057e-12,3.59669e-38,0,-1.06637e-13,0,0,0,0,0,0,0,0,0,0,0,0,0,0,0,0,0,0,0,0,0,-0.349066,3.12474,-1.5,nan,0,0,2,0,0,0,0,0,0,0,0,1.9603e-19,0,0,0,0,0,0,0,0,0,2.5,0
10584,-3.11491e-12,3.59693e-38,-1.50662e-06,-3.18057e-12,3.59669e-38,0,-1.06638e-13,0,0,0,0,0,0,0,0,0,0,0,0,0,0,0,0,0,0,0,0,0,-0.349066,3.12524,-1.5,nan,0,0,2,0,0,0,0,0,0,0,0,1.9603e-19,0,0,0,0,0,0,0,0,0,2.5,0
10600,-3.11491e-12,3.59693e-38,-1.50662e-06,-3.18057e-12,3.59669e-38,0,-1.06638e-13,0,0,0,0,0,0,0,0,0,0,0,0,0,0,0,0,0,0,0,0,0,-0.349066,3.12576,-1.5,nan,0,0,2,0,0,0,0,0,0,0,0,1.9603e-19,0,0,0,0,0,0,0,0,0,2.5,0
10615,-3.11491e-12,3.59693e-38,-1.50662e-06,-3.18057e-12,3.59669e-38,0,-1.06638e-13,0,0,0,0,0,0,0,0,0,0,0,0,0,0,0,0,0,0,0,0,0,-0.349066,3.12623,-1.5,nan,0,0,2,0,0,0,0,0,0,0,0,1.9603e-19,0,0,0,0,0,0,0,0,0,2.5,0
10632,-3.11491e-12,3.59693e-38,-1.50662e-06,-3.18057e-12,3.59669e-38,0,-1.06638e-13,0,0,0,0,0,0,0,0,0,0,0,0,0,0,0,0,0,0,0,0,0,-0.349066,3.12675,-1.5,nan,0,0,2,0,0,0,0,0,0,0,0,1.9603e-19,0,0,0,0,0,0,0,0,0,2.5,0
10647,-3.11491e-12,3.59693e-38,-1.50662e-06,-3.18057e-12,3.59669e-38,0,-1.06639e-13,0,0,0,0,0,0,0,0,0,0,0,0,0,0,0,0,0,0,0,0,0,-0.349066,3.12719,-1.5,nan,0,0,2,0,0,0,0,0,0,0,0,1.9603e-19,0,0,0,0,0,0,0,0,0,2.5,0
10663,-3.11491e-12,3.59693e-38,-1.50662e-06,-3.18057e-12,3.59669e-38,0,-1.06639e-13,0,0,0,0,0,0,0,0,0,0,0,0,0,0,0,0,0,0,0,0,0,-0.349066,3.12764,-1.5,nan,0,0,2,0,0,0,0,0,0,0,0,1.9603e-19,0,0,0,0,0,0,0,0,0,2.5,0
10678,-3.11491e-12,3.59693e-38,-1.50662e-06,-3.18057e-12,3.59669e-38,0,-1.06639e-13,0,0,0,0,0,0,0,0,0,0,0,0,0,0,0,0,0,0,0,0,0,-0.349066,3.12806,-1.5,nan,0,0,2,0,0,0,0,0,0,0,0,1.9603e-19,0,0,0,0,0,0,0,0,0,2.5,0
10693,-3.11491e-12,3.59693e-38,-1.50662e-06,-3.18057e-12,3.59669e-38,0,-1.06639e-13,0,0,0,0,0,0,0,0,0,0,0,0,0,0,0,0,0,0,0,0,0,-0.349066,3.12846,-1.5,nan,0,0,2,0,0,0,0,0,0,0,0,1.9603e-19,0,0,0,0,0,0,0,0,0,2.5,0
10710,-3.11491e-12,3.59693e-38,-1.50662e-06,-3.18057e-12,3.59669e-38,0,-1.0664e-13,0,0,0,0,0,0,0,0,0,0,0,0,0,0,0,0,0,0,0,0,0,-0.349066,3.1289,-1.5,nan,0,0,2,0,0,0,0,0,0,0,0,1.9603e-19,0,0,0,0,0,0,0,0,0,2.5,0
10725,-3.11491e-12,3.59693e-38,-1.50662e-06,-3.18057e-12,3.59669e-38,0,-1.0664e-13,0,0,0,0,0,0,0,0,0,0,0,0,0,0,0,0,0,0,0,0,0,-0.349066,3.12928,-1.5,nan,0,0,2,0,0,0,0,0,0,0,0,1.9603e-19,0,0,0,0,0,0,0,0,0,2.5,0
10741,-3.11491e-12,3.59693e-38,-1.50662e-06,-3.18057e-12,3.59669e-38,0,-1.0664e-13,0,0,0,0,0,0,0,0,0,0,0,0,0,0,0,0,0,0,0,0,0,-0.349066,3.12967,-1.5,nan,0,0,2,0,0,0,0,0,0,0,0,1.9603e-19,0,0,0,0,0,0,0,0,0,2.5,0
10756,-3.11491e-12,3.59693e-38,-1.50662e-06,-3.18057e-12,3.59669e-38,0,-1.06641e-13,0,0,0,0,0,0,0,0,0,0,0,0,0,0,0,0,0,0,0,0,0,-0.349066,3.13002,-1.5,nan,0,0,2,0,0,0,0,0,0,0,0,1.9603e-19,0,0,0,0,0,0,0,0,0,2.5,0
10772,-3.11491e-12,3.59693e-38,-1.50662e-06,-3.18057e-12,3.59669e-38,0,-1.06641e-13,0,0,0,0,0,0,0,0,0,0,0,0,0,0,0,0,0,0,0,0,0,-0.349066,3.13039,-1.5,nan,0,0,2,0,0,0,0,0,0,0,0,1.9603e-19,0,0,0,0,0,0,0,0,0,2.5,0
10788,-3.11491e-12,3.59693e-38,-1.50662e-06,-3.18057e-12,3.59669e-38,0,-1.06641e-13,0,0,0,0,0,0,0,0,0,0,0,0,0,0,0,0,0,0,0,0,0,-0.349066,3.13072,-1.5,nan,0,0,2,0,0,0,0,0,0,0,0,1.9603e-19,0,0,0,0,0,0,0,0,0,2.5,0
10804,-3.11491e-12,3.59693e-38,-1.50662e-06,-3.18057e-12,3.59669e-38,0,-1.06641e-13,0,0,0,0,0,0,0,0,0,0,0,0,0,0,0,0,0,0,0,0,0,-0.349066,3.13104,-1.5,nan,0,0,2,0,0,0,0,0,0,0,0,1.9603e-19,0,0,0,0,0,0,0,0,0,2.5,0
10819,-3.11491e-12,3.59693e-38,-1.50662e-06,-3.18057e-12,3.59669e-38,0,-1.06642e-13,0,0,0,0,0,0,0,0,0,0,0,0,0,0,0,0,0,0,0,0,0,-0.349066,3.13135,-1.5,nan,0,0,2,0,0,0,0,0,0,0,0,1.9603e-19,0,0,0,0,0,0,0,0,0,2.5,0
10832,-3.11491e-12,3.59693e-38,-1.50662e-06,-3.18057e-12,3.59669e-38,0,-1.06642e-13,0,0,0,0,0,0,0,0,0,0,0,0,0,0,0,0,0,0,0,0,0,-0.349066,3.13162,-1.5,nan,0,0,2,0,0,0,0,0,0,0,0,1.9603e-19,0,0,0,0,0,0,0,0,0,2.5,0
10845,-3.11491e-12,3.59693e-38,-1.50662e-06,-3.18057e-12,3.59669e-38,0,-1.06642e-13,0,0,0,0,0,0,0,0,0,0,0,0,0,0,0,0,0,0,0,0,0,-0.349066,3.13187,-1.5,nan,0,0,2,0,0,0,0,0,0,0,0,1.9603e-19,0,0,0,0,0,0,0,0,0,2.5,0
10861,-3.11491e-12,3.59693e-38,-1.50662e-06,-3.18057e-12,3.59669e-38,0,-1.06642e-13,0,0,0,0,0,0,0,0,0,0,0,0,0,0,0,0,0,0,0,0,0,-0.349066,3.13216,-1.5,nan,0,0,2,0,0,0,0,0,0,0,0,1.9603e-19,0,0,0,0,0,0,0,0,0,2.5,0
10876,-3.11491e-12,3.59693e-38,-1.50662e-06,-3.18057e-12,3.59669e-38,0,-1.06643e-13,0,0,0,0,0,0,0,0,0,0,0,0,0,0,0,0,0,0,0,0,0,-0.349066,3.13246,-1.5,nan,0,0,2,0,0,0,0,0,0,0,0,1.9603e-19,0,0,0,0,0,0,0,0,0,2.5,0
10893,-3.11491e-12,3.59693e-38,-1.50662e-06,-3.18057e-12,3.59669e-38,0,-1.06643e-13,0,0,0,0,0,0,0,0,0,0,0,0,0,0,0,0,0,0,0,0,0,-0.349066,3.13277,-1.5,nan,0,0,2,0,0,0,0,0,0,0,0,1.9603e-19,0,0,0,0,0,0,0,0,0,2.5,0
10908,-3.11491e-12,3.59693e-38,-1.50662e-06,-3.18057e-12,3.59669e-38,0,-1.06643e-13,0,0,0,0,0,0,0,0,0,0,0,0,0,0,0,0,0,0,0,0,0,-0.349066,3.13303,-1.5,nan,0,0,2,0,0,0,0,0,0,0,0,1.9603e-19,0,0,0,0,0,0,0,0,0,2.5,0
10924,-3.11491e-12,3.59693e-38,-1.50662e-06,-3.18057e-12,3.59669e-38,0,-1.06644e-13,0,0,0,0,0,0,0,0,0,0,0,0,0,0,0,0,0,0,0,0,0,-0.349066,3.1333,-1.5,nan,0,0,2,0,0,0,0,0,0,0,0,1.9603e-19,0,0,0,0,0,0,0,0,0,2.5,0
10939,-3.11491e-12,3.59693e-38,-1.50662e-06,-3.18057e-12,3.59669e-38,0,-1.06644e-13,0,0,0,0,0,0,0,0,0,0,0,0,0,0,0,0,0,0,0,0,0,-0.349066,3.13355,-1.5,nan,0,0,2,0,0,0,0,0,0,0,0,1.9603e-19,0,0,0,0,0,0,0,0,0,2.5,0
10955,-3.11491e-12,3.59693e-38,-1.50662e-06,-3.18057e-12,3.59669e-38,0,-1.06644e-13,0,0,0,0,0,0,0,0,0,0,0,0,0,0,0,0,0,0,0,0,0,-0.349066,3.1338,-1.5,nan,0,0,2,0,0,0,0,0,0,0,0,1.9603e-19,0,0,0,0,0,0,0,0,0,2.5,0
10972,-3.11491e-12,3.59693e-38,-1.50662e-06,-3.18057e-12,3.59669e-38,0,-1.06644e-13,0,0,0,0,0,0,0,0,0,0,0,0,0,0,0,0,0,0,0,0,0,-0.349066,3.13405,-1.5,nan,0,0,2,0,0,0,0,0,0,0,0,1.9603e-19,0,0,0,0,0,0,0,0,0,2.5,0
10987,-3.11491e-12,3.59693e-38,-1.50662e-06,-3.18057e-12,3.59669e-38,0,-1.06645e-13,0,0,0,0,0,0,0,0,0,0,0,0,0,0,0,0,0,0,0,0,0,-0.349066,3.13427,-1.5,nan,0,0,2,0,0,0,0,0,0,0,0,1.9603e-19,0,0,0,0,0,0,0,0,0,2.5,0
11002,-3.11491e-12,3.59693e-38,-1.50662e-06,-3.18057e-12,3.59669e-38,0,-1.06645e-13,0,0,0,0,0,0,0,0,0,0,0,0,0,0,0,0,0,0,0,0,0,-0.349066,3.1345,-1.5,nan,0,0,2,0,0,0,0,0,0,0,0,1.9603e-19,0,0,0,0,0,0,0,0,0,2.5,0
11017,-3.11491e-12,3.59693e-38,-1.50662e-06,-3.18057e-12,3.59669e-38,0,-1.06645e-13,0,0,0,0,0,0,0,0,0,0,0,0,0,0,0,0,0,0,0,0,0,-0.349066,3.13471,-1.5,nan,0,0,2,0,0,0,0,0,0,0,0,1.9603e-19,0,0,0,0,0,0,0,0,0,2.5,0
11033,-3.11491e-12,3.59693e-38,-1.50662e-06,-3.18057e-12,3.59669e-38,0,-1.06645e-13,0,0,0,0,0,0,0,0,0,0,0,0,0,0,0,0,0,0,0,0,0,-0.349066,3.13493,-1.5,nan,0,0,2,0,0,0,0,0,0,0,0,1.9603e-19,0,0,0,0,0,0,0,0,0,2.5,0
11050,-3.11491e-12,3.59693e-38,-1.50662e-06,-3.18057e-12,3.59669e-38,0,-1.06646e-13,0,0,0,0,0,0,0,0,0,0,0,0,0,0,0,0,0,0,0,0,0,-0.349066,3.13514,-1.5,nan,0,0,2,0,0,0,0,0,0,0,0,1.9603e-19,0,0,0,0,0,0,0,0,0,2.5,0
11065,-3.11491e-12,3.59693e-38,-1.50662e-06,-3.18057e-12,3.59669e-38,0,-1.06646e-13,0,0,0,0,0,0,0,0,0,0,0,0,0,0,0,0,0,0,0,0,0,-0.349066,3.13535,-1.5,nan,0,0,2,0,0,0,0,0,0,0,0,1.9603e-19,0,0,0,0,0,0,0,0,0,2.5,0
11080,-3.11491e-12,3.59693e-38,-1.50662e-06,-3.18057e-12,3.59669e-38,0,-1.06646e-13,0,0,0,0,0,0,0,0,0,0,0,0,0,0,0,0,0,0,0,0,0,-0.349066,3.13552,-1.5,nan,0,0,2,0,0,0,0,0,0,0,0,1.9603e-19,0,0,0,0,0,0,0,0,0,2.5,0
11095,-3.11491e-12,3.59693e-38,-1.50662e-06,-3.18057e-12,3.59669e-38,0,-1.06647e-13,0,0,0,0,0,0,0,0,0,0,0,0,0,0,0,0,0,0,0,0,0,-0.349066,3.13571,-1.5,nan,0,0,2,0,0,0,0,0,0,0,0,1.9603e-19,0,0,0,0,0,0,0,0,0,2.5,0
11111,-3.11491e-12,3.59693e-38,-1.50662e-06,-3.18057e-12,3.59669e-38,0,-1.06647e-13,0,0,0,0,0,0,0,0,0,0,0,0,0,0,0,0,0,0,0,0,0,-0.349066,3.1359,-1.5,nan,0,0,2,0,0,0,0,0,0,0,0,1.9603e-19,0,0,0,0,0,0,0,0,0,2.5,0
11128,-3.11491e-12,3.59693e-38,-1.50662e-06,-3.18057e-12,3.59669e-38,0,-1.06647e-13,0,0,0,0,0,0,0,0,0,0,0,0,0,0,0,0,0,0,0,0,0,-0.349066,3.13609,-1.5,nan,0,0,2,0,0,0,0,0,0,0,0,1.9603e-19,0,0,0,0,0,0,0,0,0,2.5,0
11142,-3.11491e-12,3.59693e-38,-1.50662e-06,-3.18057e-12,3.59669e-38,0,-1.06647e-13,0,0,0,0,0,0,0,0,0,0,0,0,0,0,0,0,0,0,0,0,0,-0.349066,3.13624,-1.5,nan,0,0,2,0,0,0,0,0,0,0,0,1.9603e-19,0,0,0,0,0,0,0,0,0,2.5,0
11155,-3.11491e-12,3.59693e-38,-1.50662e-06,-3.18057e-12,3.59669e-38,0,-1.06648e-13,0,0,0,0,0,0,0,0,0,0,0,0,0,0,0,0,0,0,0,0,0,-0.349066,3.13638,-1.5,nan,0,0,2,0,0,0,0,0,0,0,0,1.9603e-19,0,0,0,0,0,0,0,0,0,2.5,0
11171,-3.11491e-12,3.59693e-38,-1.50662e-06,-3.18057e-12,3.59669e-38,0,-1.06648e-13,0,0,0,0,0,0,0,0,0,0,0,0,0,0,0,0,0,0,0,0,0,-0.349066,3.13653,-1.5,nan,0,0,2,0,0,0,0,0,0,0,0,1.9603e-19,0,0,0,0,0,0,0,0,0,2.5,0
11186,-3.11491e-12,3.59693e-38,-1.50662e-06,-3.18057e-12,3.59669e-38,0,-1.06648e-13,0,0,0,0,0,0,0,0,0,0,0,0,0,0,0,0,0,0,0,0,0,-0.349066,3.13668,-1.5,nan,0,0,2,0,0,0,0,0,0,0,0,1.9603e-19,0,0,0,0,0,0,0,0,0,2.5,0
11201,-3.11491e-12,3.59693e-38,-1.50662e-06,-3.18057e-12,3.59669e-38,0,-1.06648e-13,0,0,0,0,0,0,0,0,0,0,0,0,0,0,0,0,0,0,0,0,0,-0.349066,3.13684,-1.5,nan,0,0,2,0,0,0,0,0,0,0,0,1.9603e-19,0,0,0,0,0,0,0,0,0,2.5,0
11217,-3.11491e-12,3.59693e-38,-1.50662e-06,-3.18057e-12,3.59669e-38,0,-1.06649e-13,0,0,0,0,0,0,0,0,0,0,0,0,0,0,0,0,0,0,0,0,0,-0.349066,3.13698,-1.5,nan,0,0,2,0,0,0,0,0,0,0,0,1.9603e-19,0,0,0,0,0,0,0,0,0,2.5,0
11233,-3.11491e-12,3.59693e-38,-1.50662e-06,-3.18057e-12,3.59669e-38,0,-1.06649e-13,0,0,0,0,0,0,0,0,0,0,0,0,0,0,0,0,0,0,0,0,0,-0.349066,3.13713,-1.5,nan,0,0,2,0,0,0,0,0,0,0,0,1.9603e-19,0,0,0,0,0,0,0,0,0,2.5,0
11248,-3.11491e-12,3.59693e-38,-1.50662e-06,-3.18057e-12,3.59669e-38,0,-1.06649e-13,0,0,0,0,0,0,0,0,0,0,0,0,0,0,0,0,0,0,0,0,0,-0.349066,3.13727,-1.5,nan,0,0,2,0,0,0,0,0,0,0,0,1.9603e-19,0,0,0,0,0,0,0,0,0,2.5,0
11264,-3.11491e-12,3.59693e-38,-1.50662e-06,-3.18057e-12,3.59669e-38,0,-1.06649e-13,0,0,0,0,0,0,0,0,0,0,0,0,0,0,0,0,0,0,0,0,0,-0.349066,3.1374,-1.5,nan,0,0,2,0,0,0,0,0,0,0,0,1.9603e-19,0,0,0,0,0,0,0,0,0,2.5,0
11279,-3.11491e-12,3.59693e-38,-1.50662e-06,-3.18057e-12,3.59669e-38,0,-1.0665e-13,0,0,0,0,0,0,0,0,0,0,0,0,0,0,0,0,0,0,0,0,0,-0.349066,3.13752,-1.5,nan,0,0,2,0,0,0,0,0,0,0,0,1.9603e-19,0,0,0,0,0,0,0,0,0,2.5,0
11295,-3.11491e-12,3.59693e-38,-1.50662e-06,-3.18057e-12,3.59669e-38,0,-1.0665e-13,0,0,0,0,0,0,0,0,0,0,0,0,0,0,0,0,0,0,0,0,0,-0.349066,3.13764,-1.5,nan,0,0,2,0,0,0,0,0,0,0,0,1.9603e-19,0,0,0,0,0,0,0,0,0,2.5,0
11310,-3.11491e-12,3.59693e-38,-1.50662e-06,-3.18057e-12,3.59669e-38,0,-1.0665e-13,0,0,0,0,0,0,0,0,0,0,0,0,0,0,0,0,0,0,0,0,0,-0.349066,3.13777,-1.5,nan,0,0,2,0,0,0,0,0,0,0,0,1.9603e-19,0,0,0,0,0,0,0,0,0,2.5,0
11326,-3.11491e-12,3.59693e-38,-1.50662e-06,-3.18057e-12,3.59669e-38,0,-1.06651e-13,0,0,0,0,0,0,0,0,0,0,0,0,0,0,0,0,0,0,0,0,0,-0.349066,3.13788,-1.5,nan,0,0,2,0,0,0,0,0,0,0,0,1.9603e-19,0,0,0,0,0,0,0,0,0,2.5,0
11341,-3.11491e-12,3.59693e-38,-1.50662e-06,-3.18057e-12,3.59669e-38,0,-1.06651e-13,0,0,0,0,0,0,0,0,0,0,0,0,0,0,0,0,0,0,0,0,0,-0.349066,3.138,-1.5,nan,0,0,2,0,0,0,0,0,0,0,0,1.9603e-19,0,0,0,0,0,0,0,0,0,2.5,0
11356,-3.11491e-12,3.59693e-38,-1.50662e-06,-3.18057e-12,3.59669e-38,0,-1.06651e-13,0,0,0,0,0,0,0,0,0,0,0,0,0,0,0,0,0,0,0,0,0,-0.349066,3.1381,-1.5,nan,0,0,2,0,0,0,0,0,0,0,0,1.9603e-19,0,0,0,0,0,0,0,0,0,2.5,0
11372,-3.11491e-12,3.59693e-38,-1.50662e-06,-3.18057e-12,3.59669e-38,0,-1.06651e-13,0,0,0,0,0,0,0,0,0,0,0,0,0,0,0,0,0,0,0,0,0,-0.349066,3.13821,-1.5,nan,0,0,2,0,0,0,0,0,0,0,0,1.9603e-19,0,0,0,0,0,0,0,0,0,2.5,0
11388,-3.11491e-12,3.59693e-38,-1.50662e-06,-3.18057e-12,3.59669e-38,0,-1.06652e-13,0,0,0,0,0,0,0,0,0,0,0,0,0,0,0,0,0,0,0,0,0,-0.349066,3.13832,-1.5,nan,0,0,2,0,0,0,0,0,0,0,0,1.9603e-19,0,0,0,0,0,0,0,0,0,2.5,0
11404,-3.11491e-12,3.59693e-38,-1.50662e-06,-3.18057e-12,3.59669e-38,0,-1.06652e-13,0,0,0,0,0,0,0,0,0,0,0,0,0,0,0,0,0,0,0,0,0,-0.349066,3.13842,-1.5,nan,0,0,2,0,0,0,0,0,0,0,0,1.9603e-19,0,0,0,0,0,0,0,0,0,2.5,0
11419,-3.11491e-12,3.59693e-38,-1.50662e-06,-3.18057e-12,3.59669e-38,0,-1.06652e-13,0,0,0,0,0,0,0,0,0,0,0,0,0,0,0,0,0,0,0,0,0,-0.349066,3.13852,-1.5,nan,0,0,2,0,0,0,0,0,0,0,0,1.9603e-19,0,0,0,0,0,0,0,0,0,2.5,0
11432,-3.11491e-12,3.59693e-38,-1.50662e-06,-3.18057e-12,3.59669e-38,0,-1.06652e-13,0,0,0,0,0,0,0,0,0,0,0,0,0,0,0,0,0,0,0,0,0,-0.349066,3.1386,-1.5,nan,0,0,2,0,0,0,0,0,0,0,0,1.9603e-19,0,0,0,0,0,0,0,0,0,2.5,0
11446,-3.11491e-12,3.59693e-38,-1.50662e-06,-3.18057e-12,3.59669e-38,0,-1.06653e-13,0,0,0,0,0,0,0,0,0,0,0,0,0,0,0,0,0,0,0,0,0,-0.349066,3.13868,-1.5,nan,0,0,2,0,0,0,0,0,0,0,0,1.9603e-19,0,0,0,0,0,0,0,0,0,2.5,0
11460,-3.11491e-12,3.59693e-38,-1.50662e-06,-3.18057e-12,3.59669e-38,0,-1.06653e-13,0,0,0,0,0,0,0,0,0,0,0,0,0,0,0,0,0,0,0,0,0,-0.349066,3.13876,-1.5,nan,0,0,2,0,0,0,0,0,0,0,0,1.9603e-19,0,0,0,0,0,0,0,0,0,2.5,0
11475,-3.11491e-12,3.59693e-38,-1.50662e-06,-3.18057e-12,3.59669e-38,0,-1.06653e-13,0,0,0,0,0,0,0,0,0,0,0,0,0,0,0,0,0,0,0,0,0,-0.349066,3.13884,-1.5,nan,0,0,2,0,0,0,0,0,0,0,0,1.9603e-19,0,0,0,0,0,0,0,0,0,2.5,0
11490,-3.11491e-12,3.59693e-38,-1.50662e-06,-3.18057e-12,3.59669e-38,0,-1.06654e-13,0,0,0,0,0,0,0,0,0,0,0,0,0,0,0,0,0,0,0,0,0,-0.349066,3.13893,-1.5,nan,0,0,2,0,0,0,0,0,0,0,0,1.9603e-19,0,0,0,0,0,0,0,0,0,2.5,0
11505,-3.11491e-12,3.59693e-38,-1.50662e-06,-3.18057e-12,3.59669e-38,0,-1.06654e-13,0,0,0,0,0,0,0,0,0,0,0,0,0,0,0,0,0,0,0,0,0,-0.349066,3.13901,-1.5,nan,0,0,2,0,0,0,0,0,0,0,0,1.9603e-19,0,0,0,0,0,0,0,0,0,2.5,0
11520,-3.11491e-12,3.59693e-38,-1.50662e-06,-3.18057e-12,3.59669e-38,0,-1.06654e-13,0,0,0,0,0,0,0,0,0,0,0,0,0,0,0,0,0,0,0,0,0,-0.349066,3.13908,-1.5,nan,0,0,2,0,0,0,0,0,0,0,0,1.9603e-19,0,0,0,0,0,0,0,0,0,2.5,0
11535,-3.11491e-12,3.59693e-38,-1.50662e-06,-3.18057e-12,3.59669e-38,0,-1.06654e-13,0,0,0,0,0,0,0,0,0,0,0,0,0,0,0,0,0,0,0,0,0,-0.349066,3.13916,-1.5,nan,0,0,2,0,0,0,0,0,0,0,0,1.9603e-19,0,0,0,0,0,0,0,0,0,2.5,0
11551,-3.11491e-12,3.59693e-38,-1.50662e-06,-3.18057e-12,3.59669e-38,0,-1.06655e-13,0,0,0,0,0,0,0,0,0,0,0,0,0,0,0,0,0,0,0,0,0,-0.349066,3.13923,-1.5,nan,0,0,2,0,0,0,0,0,0,0,0,1.9603e-19,0,0,0,0,0,0,0,0,0,2.5,0
11567,-3.11491e-12,3.59693e-38,-1.50662e-06,-3.18057e-12,3.59669e-38,0,-1.06655e-13,0,0,0,0,0,0,0,0,0,0,0,0,0,0,0,0,0,0,0,0,0,-0.349066,3.13931,-1.5,nan,0,0,2,0,0,0,0,0,0,0,0,1.9603e-19,0,0,0,0,0,0,0,0,0,2.5,0
11582,-3.11491e-12,3.59693e-38,-1.50662e-06,-3.18057e-12,3.59669e-38,0,-1.06655e-13,0,0,0,0,0,0,0,0,0,0,0,0,0,0,0,0,0,0,0,0,0,-0.349066,3.13938,-1.5,nan,0,0,2,0,0,0,0,0,0,0,0,1.9603e-19,0,0,0,0,0,0,0,0,0,2.5,0
11597,-3.11491e-12,3.59693e-38,-1.50662e-06,-3.18057e-12,3.59669e-38,0,-1.06655e-13,0,0,0,0,0,0,0,0,0,0,0,0,0,0,0,0,0,0,0,0,0,-0.349066,3.13944,-1.5,nan,0,0,2,0,0,0,0,0,0,0,0,1.9603e-19,0,0,0,0,0,0,0,0,0,2.5,0
11612,-3.11491e-12,3.59693e-38,-1.50662e-06,-3.18057e-12,3.59669e-38,0,-1.06656e-13,0,0,0,0,0,0,0,0,0,0,0,0,0,0,0,0,0,0,0,0,0,-0.349066,3.1395,-1.5,nan,0,0,2,0,0,0,0,0,0,0,0,1.9603e-19,0,0,0,0,0,0,0,0,0,2.5,0
11628,-3.11491e-12,3.59693e-38,-1.50662e-06,-3.18057e-12,3.59669e-38,0,-1.06656e-13,0,0,0,0,0,0,0,0,0,0,0,0,0,0,0,0,0,0,0,0,0,-0.349066,3.13957,-1.5,nan,0,0,2,0,0,0,0,0,0,0,0,1.9603e-19,0,0,0,0,0,0,0,0,0,2.5,0
11644,-3.11491e-12,3.59693e-38,-1.50662e-06,-3.18057e-12,3.59669e-38,0,-1.06656e-13,0,0,0,0,0,0,0,0,0,0,0,0,0,0,0,0,0,0,0,0,0,-0.349066,3.13963,-1.5,nan,0,0,2,0,0,0,0,0,0,0,0,1.9603e-19,0,0,0,0,0,0,0,0,0,2.5,0
11659,-3.11491e-12,3.59693e-38,-1.50662e-06,-3.18057e-12,3.59669e-38,0,-1.06657e-13,0,0,0,0,0,0,0,0,0,0,0,0,0,0,0,0,0,0,0,0,0,-0.349066,3.13969,-1.5,nan,0,0,2,0,0,0,0,0,0,0,0,1.9603e-19,0,0,0,0,0,0,0,0,0,2.5,0
11675,-3.11491e-12,3.59693e-38,-1.50662e-06,-3.18057e-12,3.59669e-38,0,-1.06657e-13,0,0,0,0,0,0,0,0,0,0,0,0,0,0,0,0,0,0,0,0,0,-0.349066,3.13975,-1.5,nan,0,0,2,0,0,0,0,0,0,0,0,1.9603e-19,0,0,0,0,0,0,0,0,0,2.5,0
11690,-3.11491e-12,3.59693e-38,-1.50662e-06,-3.18057e-12,3.59669e-38,0,-1.06657e-13,0,0,0,0,0,0,0,0,0,0,0,0,0,0,0,0,0,0,0,0,0,-0.349066,3.13981,-1.5,nan,0,0,2,0,0,0,0,0,0,0,0,1.9603e-19,0,0,0,0,0,0,0,0,0,2.5,0
11705,-3.11491e-12,3.59693e-38,-1.50662e-06,-3.18057e-12,3.59669e-38,0,-1.06657e-13,0,0,0,0,0,0,0,0,0,0,0,0,0,0,0,0,0,0,0,0,0,-0.349066,3.13986,-1.5,nan,0,0,2,0,0,0,0,0,0,0,0,1.9603e-19,0,0,0,0,0,0,0,0,0,2.5,0
11721,-3.11491e-12,3.59693e-38,-1.50662e-06,-3.18057e-12,3.59669e-38,0,-1.06658e-13,0,0,0,0,0,0,0,0,0,0,0,0,0,0,0,0,0,0,0,0,0,-0.349066,3.13991,-1.5,nan,0,0,2,0,0,0,0,0,0,0,0,1.9603e-19,0,0,0,0,0,0,0,0,0,2.5,0
11735,-3.11491e-12,3.59693e-38,-1.50662e-06,-3.18057e-12,3.59669e-38,0,-1.06658e-13,0,0,0,0,0,0,0,0,0,0,0,0,0,0,0,0,0,0,0,0,0,-0.349066,3.13996,-1.5,nan,0,0,2,0,0,0,0,0,0,0,0,1.9603e-19,0,0,0,0,0,0,0,0,0,2.5,0
11748,-3.11491e-12,3.59693e-38,-1.50662e-06,-3.18057e-12,3.59669e-38,0,-1.06658e-13,0,0,0,0,0,0,0,0,0,0,0,0,0,0,0,0,0,0,0,0,0,-0.349066,3.14,-1.5,nan,0,0,2,0,0,0,0,0,0,0,0,1.9603e-19,0,0,0,0,0,0,0,0,0,2.5,0
11764,-3.11491e-12,3.59693e-38,-1.50662e-06,-3.18057e-12,3.59669e-38,0,-1.06658e-13,0,0,0,0,0,0,0,0,0,0,0,0,0,0,0,0,0,0,0,0,0,-0.349066,3.14005,-1.5,nan,0,0,2,0,0,0,0,0,0,0,0,1.9603e-19,0,0,0,0,0,0,0,0,0,2.5,0
11779,-3.11491e-12,3.59693e-38,-1.50662e-06,-3.18057e-12,3.59669e-38,0,-1.06659e-13,0,0,0,0,0,0,0,0,0,0,0,0,0,0,0,0,0,0,0,0,0,-0.349066,3.14009,-1.5,nan,0,0,2,0,0,0,0,0,0,0,0,1.9603e-19,0,0,0,0,0,0,0,0,0,2.5,0
11796,-3.11491e-12,3.59693e-38,-1.50662e-06,-3.18057e-12,3.59669e-38,0,-1.06659e-13,0,0,0,0,0,0,0,0,0,0,0,0,0,0,0,0,0,0,0,0,0,-0.349066,3.14014,-1.5,nan,0,0,2,0,0,0,0,0,0,0,0,1.9603e-19,0,0,0,0,0,0,0,0,0,2.5,0
11811,-3.11491e-12,3.59693e-38,-1.50662e-06,-3.18057e-12,3.59669e-38,0,-1.06659e-13,0,0,0,0,0,0,0,0,0,0,0,0,0,0,0,0,0,0,0,0,0,-0.349066,3.14019,-1.5,nan,0,0,2,0,0,0,0,0,0,0,0,1.9603e-19,0,0,0,0,0,0,0,0,0,2.5,0
11826,-3.11491e-12,3.59693e-38,-1.50662e-06,-3.18057e-12,3.59669e-38,0,-1.0666e-13,0,0,0,0,0,0,0,0,0,0,0,0,0,0,0,0,0,0,0,0,0,-0.349066,3.14023,-1.5,nan,0,0,2,0,0,0,0,0,0,0,0,1.9603e-19,0,0,0,0,0,0,0,0,0,2.5,0
11842,-3.11491e-12,3.59693e-38,-1.50662e-06,-3.18057e-12,3.59669e-38,0,-1.0666e-13,0,0,0,0,0,0,0,0,0,0,0,0,0,0,0,0,0,0,0,0,0,-0.349066,3.14027,-1.5,nan,0,0,2,0,0,0,0,0,0,0,0,1.9603e-19,0,0,0,0,0,0,0,0,0,2.5,0
11857,-3.11491e-12,3.59693e-38,-1.50662e-06,-3.18057e-12,3.59669e-38,0,-1.0666e-13,0,0,0,0,0,0,0,0,0,0,0,0,0,0,0,0,0,0,0,0,0,-0.349066,3.14031,-1.5,nan,0,0,2,0,0,0,0,0,0,0,0,1.9603e-19,0,0,0,0,0,0,0,0,0,2.5,0
11872,-3.11491e-12,3.59693e-38,-1.50662e-06,-3.18057e-12,3.59669e-38,0,-1.0666e-13,0,0,0,0,0,0,0,0,0,0,0,0,0,0,0,0,0,0,0,0,0,-0.349066,3.14035,-1.5,nan,0,0,2,0,0,0,0,0,0,0,0,1.9603e-19,0,0,0,0,0,0,0,0,0,2.5,0
11888,-3.11491e-12,3.59693e-38,-1.50662e-06,-3.18057e-12,3.59669e-38,0,-1.06661e-13,0,0,0,0,0,0,0,0,0,0,0,0,0,0,0,0,0,0,0,0,0,-0.349066,3.14039,-1.5,nan,0,0,2,0,0,0,0,0,0,0,0,1.9603e-19,0,0,0,0,0,0,0,0,0,2.5,0
11905,-3.11491e-12,3.59693e-38,-1.50662e-06,-3.18057e-12,3.59669e-38,0,-1.06661e-13,0,0,0,0,0,0,0,0,0,0,0,0,0,0,0,0,0,0,0,0,0,-0.349066,3.14043,-1.5,nan,0,0,2,0,0,0,0,0,0,0,0,1.9603e-19,0,0,0,0,0,0,0,0,0,2.5,0
11920,-3.11491e-12,3.59693e-38,-1.50662e-06,-3.18057e-12,3.59669e-38,0,-1.06661e-13,0,0,0,0,0,0,0,0,0,0,0,0,0,0,0,0,0,0,0,0,0,-0.349066,3.14046,-1.5,nan,0,0,2,0,0,0,0,0,0,0,0,1.9603e-19,0,0,0,0,0,0,0,0,0,2.5,0
11935,-3.11491e-12,3.59693e-38,-1.50662e-06,-3.18057e-12,3.59669e-38,0,-1.06661e-13,0,0,0,0,0,0,0,0,0,0,0,0,0,0,0,0,0,0,0,0,0,-0.349066,3.1405,-1.5,nan,0,0,2,0,0,0,0,0,0,0,0,1.9603e-19,0,0,0,0,0,0,0,0,0,2.5,0
11950,-3.11491e-12,3.59693e-38,-1.50662e-06,-3.18057e-12,3.59669e-38,0,-1.06662e-13,0,0,0,0,0,0,0,0,0,0,0,0,0,0,0,0,0,0,0,0,0,-0.349066,3.14053,-1.5,nan,0,0,2,0,0,0,0,0,0,0,0,1.9603e-19,0,0,0,0,0,0,0,0,0,2.5,0
11967,-3.11491e-12,3.59693e-38,-1.50662e-06,-3.18057e-12,3.59669e-38,0,-1.06662e-13,0,0,0,0,0,0,0,0,0,0,0,0,0,0,0,0,0,0,0,0,0,-0.349066,3.14056,-1.5,nan,0,0,2,0,0,0,0,0,0,0,0,1.9603e-19,0,0,0,0,0,0,0,0,0,2.5,0
11983,-3.11491e-12,3.59693e-38,-1.50662e-06,-3.18057e-12,3.59669e-38,0,-1.06662e-13,0,0,0,0,0,0,0,0,0,0,0,0,0,0,0,0,0,0,0,0,0,-0.349066,3.1406,-1.5,nan,0,0,2,0,0,0,0,0,0,0,0,1.9603e-19,0,0,0,0,0,0,0,0,0,2.5,0
11998,-3.11491e-12,3.59693e-38,-1.50662e-06,-3.18057e-12,3.59669e-38,0,-1.06663e-13,0,0,0,0,0,0,0,0,0,0,0,0,0,0,0,0,0,0,0,0,0,-0.349066,3.14063,-1.5,nan,0,0,2,0,0,0,0,0,0,0,0,1.9603e-19,0,0,0,0,0,0,0,0,0,2.5,0
12014,-3.11491e-12,3.59693e-38,-1.50662e-06,-3.18057e-12,3.59669e-38,0,-1.06663e-13,0,0,0,0,0,0,0,0,0,0,0,0,0,0,0,0,0,0,0,0,0,-0.349066,3.14066,-1.5,nan,0,0,2,0,0,0,0,0,0,0,0,1.9603e-19,0,0,0,0,0,0,0,0,0,2.5,0
12027,-3.11491e-12,3.59693e-38,-1.50662e-06,-3.18057e-12,3.59669e-38,0,-1.06663e-13,0,0,0,0,0,0,0,0,0,0,0,0,0,0,0,0,0,0,0,0,0,-0.349066,3.14068,-1.5,nan,0,0,2,0,0,0,0,0,0,0,0,1.9603e-19,0,0,0,0,0,0,0,0,0,2.5,0
12040,-3.11491e-12,3.59693e-38,-1.50662e-06,-3.18057e-12,3.59669e-38,0,-1.06663e-13,0,0,0,0,0,0,0,0,0,0,0,0,0,0,0,0,0,0,0,0,0,-0.349066,3.1407,-1.5,nan,0,0,2,0,0,0,0,0,0,0,0,1.9603e-19,0,0,0,0,0,0,0,0,0,2.5,0
12054,-3.11491e-12,3.59693e-38,-1.50662e-06,-3.18057e-12,3.59669e-38,0,-1.06664e-13,0,0,0,0,0,0,0,0,0,0,0,0,0,0,0,0,0,0,0,0,0,-0.349066,3.14073,-1.5,nan,0,0,2,0,0,0,0,0,0,0,0,1.9603e-19,0,0,0,0,0,0,0,0,0,2.5,0
12070,-3.11491e-12,3.59693e-38,-1.50662e-06,-3.18057e-12,3.59669e-38,0,-1.06664e-13,0,0,0,0,0,0,0,0,0,0,0,0,0,0,0,0,0,0,0,0,0,-0.349066,3.14076,-1.5,nan,0,0,2,0,0,0,0,0,0,0,0,1.9603e-19,0,0,0,0,0,0,0,0,0,2.5,0
12085,-3.11491e-12,3.59693e-38,-1.50662e-06,-3.18057e-12,3.59669e-38,0,-1.06664e-13,0,0,0,0,0,0,0,0,0,0,0,0,0,0,0,0,0,0,0,0,0,-0.349066,3.14078,-1.5,nan,0,0,2,0,0,0,0,0,0,0,0,1.9603e-19,0,0,0,0,0,0,0,0,0,2.5,0
12100,-3.11491e-12,3.59693e-38,-1.50662e-06,-3.18057e-12,3.59669e-38,0,-1.06664e-13,0,0,0,0,0,0,0,0,0,0,0,0,0,0,0,0,0,0,0,0,0,-0.349066,3.14081,-1.5,nan,0,0,2,0,0,0,0,0,0,0,0,1.9603e-19,0,0,0,0,0,0,0,0,0,2.5,0
12116,-3.11491e-12,3.59693e-38,-1.50662e-06,-3.18057e-12,3.59669e-38,0,-1.06665e-13,0,0,0,0,0,0,0,0,0,0,0,0,0,0,0,0,0,0,0,0,0,-0.349066,3.14083,-1.5,nan,0,0,2,0,0,0,0,0,0,0,0,1.9603e-19,0,0,0,0,0,0,0,0,0,2.5,0
12131,-3.11491e-12,3.59693e-38,-1.50662e-06,-3.18057e-12,3.59669e-38,0,-1.06665e-13,0,0,0,0,0,0,0,0,0,0,0,0,0,0,0,0,0,0,0,0,0,-0.349066,3.14085,-1.5,nan,0,0,2,0,0,0,0,0,0,0,0,1.9603e-19,0,0,0,0,0,0,0,0,0,2.5,0
12147,-3.11491e-12,3.59693e-38,-1.50662e-06,-3.18057e-12,3.59669e-38,0,-1.06665e-13,0,0,0,0,0,0,0,0,0,0,0,0,0,0,0,0,0,0,0,0,0,-0.349066,3.14087,-1.5,nan,0,0,2,0,0,0,0,0,0,0,0,1.9603e-19,0,0,0,0,0,0,0,0,0,2.5,0
12163,-3.11492e-12,3.59247e-38,3.59706e-38,-3.18057e-12,3.59669e-38,0,-1.06665e-13,0,0,0,0,0,0,0,0,0,0,0,0,0,0,0,0,0,0,0,0,0,-0.349066,3.1409,-1.5,nan,0,0,2,0,0,0,0,0,0,0,0,1.9603e-19,0,0,0,0,0,0,0,0,0,2.5,0
12178,-3.11491e-12,3.59693e-38,-1.50662e-06,-3.18057e-12,3.59669e-38,0,-1.06666e-13,0,0,0,0,0,0,0,0,0,0,0,0,0,0,0,0,0,0,0,0,0,-0.349066,3.14092,-1.5,nan,0,0,2,0,0,0,0,0,0,0,0,1.9603e-19,0,0,0,0,0,0,0,0,0,2.5,0
