timestamp,A_x,A_y,A_z,P,Q,R,Phi,Theta,Psi,poseX,poseY,poseZ,state_X,state_Y,state_Z,state_VzB,state_Bx,state_By,state_Bz,p1_x,p1_y,p2_x,p2_y,p3_x,p3_y,p4_x,p4_y,roll,pitch,yaw,alt,targetHeading,highLevelState,lowLevelState,gateNumber,filtered_x,filtered_y,x_OT,y_OT,vx_OT,vy_OT,filtered_vx,filtered_vygateArearansac_corr_x,ransac_corr_y,ransac_corr_vx,ransac_corr_vy,detectionTimeStamppTermX,dTermX,pTermY,dTermY,vxcmd,vycmd
7163,0,0,0,0,0,0,0,0,0,0,0,0,0,0,0,0,0,0,0,0,0,0,0,0,0,0,0,0,-0.349066,0.0141372,-1.5,3.94113e+12,0,0,2,0,0,0,0,0,0,0,0,1.9603e-19,0,0,0,0,0,0,0,0,0,2.5,0
7178,0,0,0,0,0,0,0,0,0,0,0,0,0,0,0,0,0,0,0,0,0,0,0,0,0,0,0,0,-0.349066,0.0376991,-1.5,3.94113e+12,0,0,2,0,0,0,0,0,0,0,0,1.9603e-19,0,0,0,0,0,0,0,0,0,2.5,0
7717,-3.34228e-12,7.97684e-38,-1.60068e-06,-3.40794e-12,7.97637e-38,0,-1.13703e-13,0,0,0,0,0,0,0,0,0,0,0,0,0,0,0,0,0,0,0,0,0,-0.349066,0.884358,-1.5,3.94113e+12,0,0,2,0,0,0,0,0,0,0,0,1.9603e-19,0,0,0,0,0,0,0,0,0,2.5,0
7733,-3.34228e-12,7.97684e-38,-1.60068e-06,-3.40794e-12,7.97637e-38,0,-1.13703e-13,0,0,0,0,0,0,0,0,0,0,0,0,0,0,0,0,0,0,0,0,0,-0.349066,0.90949,-1.5,3.94113e+12,0,0,2,0,0,0,0,0,0,0,0,1.9603e-19,0,0,0,0,0,0,0,0,0,2.5,0
7748,-3.34228e-12,7.97684e-38,-1.60068e-06,-3.40794e-12,7.97637e-38,0,-1.13704e-13,0,0,0,0,0,0,0,0,0,0,0,0,0,0,0,0,0,0,0,0,0,-0.349066,0.933052,-1.5,3.94113e+12,0,0,2,0,0,0,0,0,0,0,0,1.9603e-19,0,0,0,0,0,0,0,0,0,2.5,0
7764,-3.34228e-12,7.97684e-38,-1.60068e-06,-3.40794e-12,7.97637e-38,0,-1.13704e-13,0,0,0,0,0,0,0,0,0,0,0,0,0,0,0,0,0,0,0,0,0,-0.349066,0.958185,-1.5,3.94113e+12,0,0,2,0,0,0,0,0,0,0,0,1.9603e-19,0,0,0,0,0,0,0,0,0,2.5,0
7780,-3.34228e-12,7.97684e-38,-1.60068e-06,-3.40794e-12,7.97637e-38,0,-1.13705e-13,0,0,0,0,0,0,0,0,0,0,0,0,0,0,0,0,0,0,0,0,0,-0.349066,0.981747,-1.5,3.94113e+12,0,0,2,0,0,0,0,0,0,0,0,1.9603e-19,0,0,0,0,0,0,0,0,0,2.5,0
7795,-3.34228e-12,7.97684e-38,-1.60068e-06,-3.40794e-12,7.97637e-38,0,-1.13705e-13,0,0,0,0,0,0,0,0,0,0,0,0,0,0,0,0,0,0,0,0,0,-0.349066,1.00688,-1.5,3.94113e+12,0,0,2,0,0,0,0,0,0,0,0,1.9603e-19,0,0,0,0,0,0,0,0,0,2.5,0
7811,-3.34228e-12,7.97684e-38,-1.60068e-06,-3.40794e-12,7.97637e-38,0,-1.13706e-13,0,0,0,0,0,0,0,0,0,0,0,0,0,0,0,0,0,0,0,0,0,-0.349066,1.03201,-1.5,3.94113e+12,0,0,2,0,0,0,0,0,0,0,0,1.9603e-19,0,0,0,0,0,0,0,0,0,2.5,0
7827,-3.34228e-12,7.97684e-38,-1.60068e-06,-3.40794e-12,7.97637e-38,0,-1.13706e-13,0,0,0,0,0,0,0,0,0,0,0,0,0,0,0,0,0,0,0,0,0,-0.349066,1.05557,-1.5,3.94113e+12,0,0,2,0,0,0,0,0,0,0,0,1.9603e-19,0,0,0,0,0,0,0,0,0,2.5,0
7843,-3.34228e-12,7.97684e-38,-1.60068e-06,-3.40794e-12,7.97637e-38,0,-1.13707e-13,0,0,0,0,0,0,0,0,0,0,0,0,0,0,0,0,0,0,0,0,0,-0.349066,1.08071,-1.5,3.94113e+12,0,0,2,0,0,0,0,0,0,0,0,1.9603e-19,0,0,0,0,0,0,0,0,0,2.5,0
7864,-3.34228e-12,7.97684e-38,-1.60068e-06,-3.40794e-12,7.97637e-38,0,-1.13708e-13,0,0,0,0,0,0,0,0,0,0,0,0,0,0,0,0,0,0,0,0,0,-0.349066,1.11527,-1.5,3.94113e+12,0,0,2,0,0,0,0,0,0,0,0,1.9603e-19,0,0,0,0,0,0,0,0,0,2.5,0
7888,-3.34228e-12,7.97684e-38,-1.60068e-06,-3.40794e-12,7.97637e-38,0,-1.13708e-13,0,0,-3.68321,-0.214775,0.49334,0,0,0,0,0,0,0,287,-58,287,-58,412,-57,276,56,0,-0.349066,1.15139,-1.5,3.94113e+12,0,0,2,0,0,0,0,0,0,0,0,16728,0,0,0,0,0,0,0,0,0,2.5,0
7904,-3.34228e-12,7.97684e-38,-1.60068e-06,-3.40794e-12,7.97637e-38,0,-1.13709e-13,0,0,-3.68321,-0.214775,0.49334,0,0,0,0,0,0,0,287,-58,287,-58,412,-57,276,56,0,-0.349066,1.1781,-1.5,3.94113e+12,0,0,2,0,0,0,0,0,0,0,0,16728,0,0,0,0,0,0,0,0,0,2.5,0
7927,-3.34228e-12,7.97684e-38,-1.60068e-06,-3.40794e-12,7.97637e-38,0,-1.13709e-13,0,0,-3.65032,-0.220547,0.486753,0,0,0,0,0,0,0,290,-65,290,-65,412,-57,276,57,0,-0.349066,1.21423,-1.5,3.94113e+12,0,0,2,0,0,0,0,0,0,0,0,17680,0,0,0,0,0,0,0,0,0,2.5,0
8000,-3.34228e-12,7.97684e-38,-1.60068e-06,-3.40794e-12,7.97637e-38,0,-1.1371e-13,0,0,-3.67148,-0.247463,0.466039,0,0,0,0,0,0,0,293,-61,293,-61,416,-50,278,57,0,-0.349066,1.32889,-1.5,3.94113e+12,0,0,2,0,0,0,0,0,0,0,0,17940,0,0,0,0,0,0,0,0,0,2.5,0
8017,-3.34228e-12,7.97684e-38,-1.60068e-06,-3.40794e-12,7.97637e-38,0,-1.1371e-13,0,0,-3.60085,-0.251876,0.43101,0,0,0,0,0,0,0,297,-64,297,-64,417,-54,277,57,0,-0.349066,1.3556,-1.5,3.94113e+12,0,0,2,0,0,0,0,0,0,0,0,19180,0,0,0,0,0,0,0,0,0,2.5,0
8033,-3.34228e-12,7.97684e-38,-1.60068e-06,-3.40794e-12,7.97637e-38,0,-1.13711e-13,0,0,-3.60085,-0.251876,0.43101,0,0,0,0,0,0,0,297,-64,297,-64,417,-54,277,57,0,-0.349066,1.38073,-1.5,3.94113e+12,0,0,2,0,0,0,0,0,0,0,0,19180,0,0,0,0,0,0,0,0,0,2.5,0
8058,-3.34228e-12,7.97684e-38,-1.60068e-06,-3.40794e-12,7.97637e-38,0,-1.13711e-13,0,0,-3.60085,-0.251876,0.43101,0,0,0,0,0,0,0,297,-64,297,-64,417,-54,277,57,0,-0.349066,1.42,-1.5,3.94113e+12,0,0,2,0,0,0,0,0,0,0,0,19180,0,0,0,0,0,0,0,0,0,2.5,0
8072,-3.34228e-12,7.97684e-38,-1.60068e-06,-3.40794e-12,7.97637e-38,0,-1.13712e-13,0,0,-3.70096,-0.257393,0.491792,0,0,0,0,0,0,0,293,-59,293,-59,417,-54,281,56,0,-0.349066,1.44199,-1.5,3.94113e+12,0,0,2,0,0,0,0,0,0,0,0,17272,0,0,0,0,0,0,0,0,0,2.5,0
8088,-3.34228e-12,7.97684e-38,-1.60068e-06,-3.40794e-12,7.97637e-38,0,-1.13712e-13,0,0,-3.70096,-0.257393,0.491792,0,0,0,0,0,0,0,293,-59,293,-59,417,-54,281,56,0,-0.349066,1.46712,-1.5,3.94113e+12,0,0,2,0,0,0,0,0,0,0,0,17272,0,0,0,0,0,0,0,0,0,2.5,0
8104,-3.34228e-12,7.97684e-38,-1.60068e-06,-3.40794e-12,7.97637e-38,0,-1.13713e-13,0,0,-3.63217,-0.244277,0.443269,0,0,0,0,0,0,0,293,-61,293,-61,417,-52,277,59,0,-0.349066,1.49226,-1.5,3.94113e+12,0,0,2,0,0,0,0,0,0,0,0,18200,0,0,0,0,0,0,0,0,0,2.5,0
8120,-3.34228e-12,7.97684e-38,-1.60068e-06,-3.40794e-12,7.97637e-38,0,-1.13714e-13,0,0,-3.63217,-0.244277,0.443269,0,0,0,0,0,0,0,293,-61,293,-61,417,-52,277,59,0,-0.349066,1.51739,-1.5,3.94113e+12,0,0,2,0,0,0,0,0,0,0,0,18200,0,0,0,0,0,0,0,0,0,2.5,0
8136,-3.34228e-12,7.97684e-38,-1.60068e-06,-3.40794e-12,7.97637e-38,0,-1.13714e-13,0,0,-3.63217,-0.244277,0.443269,0,0,0,0,0,0,0,293,-61,293,-61,417,-52,277,59,0,-0.349066,1.54252,-1.5,3.94113e+12,0,0,2,0,0,0,0,0,0,0,0,18200,0,0,0,0,0,0,0,0,0,2.5,0
8152,-3.34228e-12,7.97684e-38,-1.60068e-06,-3.40794e-12,7.97637e-38,0,-1.13715e-13,0,0,-3.68548,-0.255481,0.464224,0,0,0,0,0,0,0,294,-61,294,-61,416,-50,281,57,0,-0.349066,1.56766,-1.5,3.94113e+12,0,0,2,0,0,0,0,0,0,0,0,18090,0,0,0,0,0,0,0,0,0,2.5,0
8169,-3.34228e-12,7.97684e-38,-1.60068e-06,-3.40794e-12,7.97637e-38,0,-1.13715e-13,0,0,-3.66033,-0.270542,0.465489,0,0,0,0,0,0,0,293,-61,293,-61,420,-54,284,57,0,-0.349066,1.59279,-1.5,3.94113e+12,0,0,2,0,0,0,0,0,0,0,0,17816,0,0,0,0,0,0,0,0,0,2.5,0
8185,-3.34228e-12,7.97684e-38,-1.60068e-06,-3.40794e-12,7.97637e-38,0,-1.13716e-13,0,0,-3.66033,-0.270542,0.465489,0,0,0,0,0,0,0,293,-61,293,-61,420,-54,284,57,0,-0.349066,1.61949,-1.5,3.94113e+12,0,0,2,0,0,0,0,0,0,0,0,17816,0,0,0,0,0,0,0,0,0,2.5,0
8202,-3.34228e-12,7.97684e-38,-1.60068e-06,-3.40794e-12,7.97637e-38,0,-1.13716e-13,0,0,-3.63883,-0.240588,0.449234,0,0,0,0,0,0,0,291,-61,291,-61,417,-52,278,57,0,-0.349066,1.64463,-1.5,3.94113e+12,0,0,2,0,0,0,0,0,0,0,0,18209,0,0,0,0,0,0,0,0,0,2.5,0
8217,-3.34228e-12,7.97684e-38,-1.60068e-06,-3.40794e-12,7.97637e-38,0,-1.13717e-13,0,0,-3.63883,-0.240588,0.449234,0,0,0,0,0,0,0,291,-61,291,-61,417,-52,278,57,0,-0.349066,1.66976,-1.5,3.94113e+12,0,0,2,0,0,0,0,0,0,0,0,18209,0,0,0,0,0,0,0,0,0,2.5,0
8234,-3.34228e-12,7.97684e-38,-1.60068e-06,-3.40794e-12,7.97637e-38,0,-1.13717e-13,0,0,-3.63883,-0.240588,0.449234,0,0,0,0,0,0,0,291,-61,291,-61,417,-52,278,57,0,-0.349066,1.69646,-1.5,3.94113e+12,0,0,2,0,0,0,0,0,0,0,0,18209,0,0,0,0,0,0,0,0,0,2.5,0
8250,-3.34228e-12,7.97684e-38,-1.60068e-06,-3.40794e-12,7.97637e-38,0,-1.13718e-13,0,0,-3.64956,-0.23913,0.446467,0,0,0,0,0,0,0,291,-61,291,-61,416,-50,278,59,0,-0.349066,1.72002,-1.5,3.94113e+12,0,0,2,0,0,0,0,0,0,0,0,18078,0,0,0,0,0,0,0,0,0,2.5,0
8265,-3.34228e-12,7.97684e-38,-1.60068e-06,-3.40794e-12,7.97637e-38,0,-1.13718e-13,0,0,-3.64956,-0.23913,0.446467,0,0,0,0,0,0,0,291,-61,291,-61,416,-50,278,59,0,-0.349066,1.74516,-1.5,3.94113e+12,0,0,2,0,0,0,0,0,0,0,0,18078,0,0,0,0,0,0,0,0,0,2.5,0
8310,-3.34228e-12,7.97684e-38,-1.60068e-06,-3.40794e-12,7.97637e-38,0,-1.13719e-13,0,0,-3.63441,-0.242324,0.442222,0,0,0,0,0,0,0,293,-61,293,-61,416,-52,277,59,0,-0.349066,1.81584,-1.5,3.94113e+12,0,0,2,0,0,0,0,0,0,0,0,18209,0,0,0,0,0,0,0,0,0,2.5,0
8326,-3.34228e-12,7.97684e-38,-1.60068e-06,-3.40794e-12,7.97637e-38,0,-1.13719e-13,0,0,-3.63441,-0.242324,0.442222,0,0,0,0,0,0,0,293,-61,293,-61,416,-52,277,59,0,-0.349066,1.84098,-1.5,3.94113e+12,0,0,2,0,0,0,0,0,0,0,0,18209,0,0,0,0,0,0,0,0,0,2.5,0
8344,-3.34228e-12,7.97684e-38,-1.60068e-06,-3.40794e-12,7.97637e-38,0,-1.1372e-13,0,0,-3.68954,-0.248196,0.473517,0,0,0,0,0,0,0,296,-61,296,-61,414,-52,278,59,0,-0.349066,1.86925,-1.5,3.94113e+12,0,0,2,0,0,0,0,0,0,0,0,17816,0,0,0,0,0,0,0,0,0,2.5,0
8358,-3.34228e-12,7.97684e-38,-1.60068e-06,-3.40794e-12,7.97637e-38,0,-1.13721e-13,0,0,-3.68954,-0.248196,0.473517,0,0,0,0,0,0,0,296,-61,296,-61,414,-52,278,59,0,-0.349066,1.89124,-1.5,3.94113e+12,0,0,2,0,0,0,0,0,0,0,0,17816,0,0,0,0,0,0,0,0,0,2.5,0
8372,-3.34228e-12,7.97684e-38,-1.60068e-06,-3.40794e-12,7.97637e-38,0,-1.13721e-13,0,0,-3.65541,-0.248602,0.444626,0,0,0,0,0,0,0,296,-61,296,-61,417,-51,278,59,0,-0.349066,1.91323,-1.5,3.94113e+12,0,0,2,0,0,0,0,0,0,0,0,18626,0,0,0,0,0,0,0,0,0,2.5,0
8387,-3.34228e-12,7.97684e-38,-1.60068e-06,-3.40794e-12,7.97637e-38,0,-1.13722e-13,0,0,-3.65541,-0.248602,0.444626,0,0,0,0,0,0,0,296,-61,296,-61,417,-51,278,59,0,-0.349066,1.9368,-1.5,3.94113e+12,0,0,2,0,0,0,0,0,0,0,0,18626,0,0,0,0,0,0,0,0,0,2.5,0
8403,-3.34228e-12,7.97684e-38,-1.60068e-06,-3.40794e-12,7.97637e-38,0,-1.13722e-13,0,0,-3.71942,-0.238645,0.479687,0,0,0,0,0,0,0,293,-58,293,-58,414,-50,278,59,0,-0.349066,1.96193,-1.5,3.94113e+12,0,0,2,0,0,0,0,0,0,0,0,17408,0,0,0,0,0,0,0,0,0,2.5,0
8418,-3.34228e-12,7.97684e-38,-1.60068e-06,-3.40794e-12,7.97637e-38,0,-1.13723e-13,0,0,-3.71942,-0.238645,0.479687,0,0,0,0,0,0,0,293,-58,293,-58,414,-50,278,59,0,-0.349066,1.98549,-1.5,3.94113e+12,0,0,2,0,0,0,0,0,0,0,0,17408,0,0,0,0,0,0,0,0,0,2.5,0
8434,-3.34228e-12,7.97684e-38,-1.60068e-06,-3.40794e-12,7.97637e-38,0,-1.13723e-13,0,0,-3.72953,-0.225606,0.485498,0,0,0,0,0,0,0,290,-58,290,-58,411,-50,278,59,0,-0.349066,2.01062,-1.5,3.94113e+12,0,0,2,0,0,0,0,0,0,0,0,17024,0,0,0,0,0,0,0,0,0,2.5,0
8449,-3.34228e-12,7.97684e-38,-1.60068e-06,-3.40794e-12,7.97637e-38,0,-1.13724e-13,0,0,-3.72953,-0.225606,0.485498,0,0,0,0,0,0,0,290,-58,290,-58,411,-50,278,59,0,-0.349066,2.03419,-1.5,3.94113e+12,0,0,2,0,0,0,0,0,0,0,0,17024,0,0,0,0,0,0,0,0,0,2.5,0
8465,-3.34228e-12,7.97684e-38,-1.60068e-06,-3.40794e-12,7.97637e-38,0,-1.13724e-13,0,0,-3.72953,-0.225606,0.485498,0,0,0,0,0,0,0,290,-58,290,-58,411,-50,278,59,0,-0.349066,2.05932,-1.5,3.94113e+12,0,0,2,0,0,0,0,0,0,0,0,17024,0,0,0,0,0,0,0,0,0,2.5,0
8480,-3.34228e-12,7.97684e-38,-1.60068e-06,-3.40794e-12,7.97637e-38,0,-1.13725e-13,0,0,-3.66603,-0.214506,0.429123,0,0,0,0,0,0,0,291,-56,291,-56,411,-50,274,64,0,-0.349066,2.08288,-1.5,3.94113e+12,0,0,2,0,0,0,0,0,0,0,0,17536,0,0,0,0,0,0,0,0,0,2.5,0
8495,-3.34228e-12,7.97684e-38,-1.60068e-06,-3.40794e-12,7.97637e-38,0,-1.13725e-13,0,0,-3.66603,-0.214506,0.429123,0,0,0,0,0,0,0,291,-56,291,-56,411,-50,274,64,0,-0.349066,2.10644,-1.5,3.94113e+12,0,0,2,0,0,0,0,0,0,0,0,17536,0,0,0,0,0,0,0,0,0,2.5,0
8511,-3.34228e-12,7.97684e-38,-1.60068e-06,-3.40794e-12,7.97637e-38,0,-1.13726e-13,0,0,-3.7328,-0.213798,0.464853,0,0,0,0,0,0,0,289,-53,289,-53,411,-49,276,61,0,-0.349066,2.13158,-1.5,3.94113e+12,0,0,2,0,0,0,0,0,0,0,0,16875,0,0,0,0,0,0,0,0,0,2.5,0
8526,-3.34228e-12,7.97684e-38,-1.60068e-06,-3.40794e-12,7.97637e-38,0,-1.13727e-13,0,0,-3.7328,-0.213798,0.464853,0,0,0,0,0,0,0,289,-53,289,-53,411,-49,276,61,0,-0.349066,2.15514,-1.5,3.94113e+12,0,0,2,0,0,0,0,0,0,0,0,16875,0,0,0,0,0,0,0,0,0,2.5,0
8542,-3.34228e-12,7.97684e-38,-1.60068e-06,-3.40794e-12,7.97637e-38,0,-1.13727e-13,0,0,-3.74724,-0.203488,0.473008,0,0,0,0,0,0,0,287,-54,287,-54,408,-48,276,61,0,-0.349066,2.18027,-1.5,3.94113e+12,0,0,2,0,0,0,0,0,0,0,0,16632,0,0,0,0,0,0,0,0,0,2.5,0
8557,-3.34228e-12,7.97684e-38,-1.60068e-06,-3.40794e-12,7.97637e-38,0,-1.13728e-13,0,0,-3.74724,-0.203488,0.473008,0,0,0,0,0,0,0,287,-54,287,-54,408,-48,276,61,0,-0.349066,2.20383,-1.5,3.94113e+12,0,0,2,0,0,0,0,0,0,0,0,16632,0,0,0,0,0,0,0,0,0,2.5,0
8573,-3.34228e-12,7.97684e-38,-1.60068e-06,-3.40794e-12,7.97637e-38,0,-1.13728e-13,0,0,-3.74724,-0.203488,0.473008,0,0,0,0,0,0,0,287,-54,287,-54,408,-48,276,61,0,-0.349066,2.22897,-1.5,3.94113e+12,0,0,2,0,0,0,0,0,0,0,0,16632,0,0,0,0,0,0,0,0,0,2.5,0
8588,-3.34228e-12,7.97684e-38,-1.60068e-06,-3.40794e-12,7.97637e-38,0,-1.13729e-13,0,0,-3.74724,-0.203488,0.473008,0,0,0,0,0,0,0,287,-54,287,-54,408,-48,276,61,0,-0.349066,2.25253,-1.5,3.94113e+12,0,0,2,0,0,0,0,0,0,0,0,16632,0,0,0,0,0,0,0,0,0,2.5,0
8602,-3.34228e-12,7.97684e-38,-1.60068e-06,-3.40794e-12,7.97637e-38,0,-1.13729e-13,0,0,-3.70319,-0.214317,0.449829,0,0,0,0,0,0,0,287,-54,287,-54,414,-50,278,61,0,-0.349066,2.27452,-1.5,3.94113e+12,0,0,2,0,0,0,0,0,0,0,0,17272,0,0,0,0,0,0,0,0,0,2.5,0
8615,-3.34228e-12,7.97684e-38,-1.60068e-06,-3.40794e-12,7.97637e-38,0,-1.1373e-13,0,0,-3.70319,-0.214317,0.449829,0,0,0,0,0,0,0,287,-54,287,-54,414,-50,278,61,0,-0.349066,2.29494,-1.5,3.94113e+12,0,0,2,0,0,0,0,0,0,0,0,17272,0,0,0,0,0,0,0,0,0,2.5,0
8630,-3.34228e-12,7.97684e-38,-1.60068e-06,-3.40794e-12,7.97637e-38,0,-1.1373e-13,0,0,-3.70319,-0.214317,0.449829,0,0,0,0,0,0,0,287,-54,287,-54,414,-50,278,61,0,-0.349066,2.3185,-1.5,3.94113e+12,0,0,2,0,0,0,0,0,0,0,0,17272,0,0,0,0,0,0,0,0,0,2.5,0
8646,-3.34228e-12,7.97684e-38,-1.60068e-06,-3.40794e-12,7.97637e-38,0,-1.13731e-13,0,0,-3.72114,-0.202056,0.446805,0,0,0,0,0,0,0,289,-54,289,-54,408,-47,274,64,0,-0.349066,2.34363,-1.5,3.94113e+12,0,0,2,0,0,0,0,0,0,0,0,17018,0,0,0,0,0,0,0,0,0,2.5,0
8661,-3.34228e-12,7.97684e-38,-1.60068e-06,-3.40794e-12,7.97637e-38,0,-1.13731e-13,0,0,-3.72114,-0.202056,0.446805,0,0,0,0,0,0,0,289,-54,289,-54,408,-47,274,64,0,-0.349066,2.36714,-1.5,3.94113e+12,0,0,2,0,0,0,0,0,0,0,0,17018,0,0,0,0,0,0,0,0,0,2.5,0
8676,-3.34228e-12,7.97684e-38,-1.60068e-06,-3.40794e-12,7.97637e-38,0,-1.13732e-13,0,0,-3.65219,-0.197862,0.414732,0,0,0,0,0,0,0,287,-54,287,-54,411,-50,273,64,0,-0.349066,2.39013,-1.5,3.94113e+12,0,0,2,0,0,0,0,0,0,0,0,17526,0,0,0,0,0,0,0,0,0,2.5,0
8691,-3.34228e-12,7.97684e-38,-1.60068e-06,-3.40794e-12,7.97637e-38,0,-1.13732e-13,0,0,-3.65219,-0.197862,0.414732,0,0,0,0,0,0,0,287,-54,287,-54,411,-50,273,64,0,-0.349066,2.41243,-1.5,3.94113e+12,0,0,2,0,0,0,0,0,0,0,0,17526,0,0,0,0,0,0,0,0,0,2.5,0
8707,-3.34228e-12,7.97684e-38,-1.60068e-06,-3.40794e-12,7.97637e-38,0,-1.13733e-13,0,0,-3.72241,-0.169078,0.433901,0,0,0,0,0,0,0,282,-50,282,-50,405,-48,273,67,0,-0.349066,2.43549,-1.5,3.94113e+12,0,0,2,0,0,0,0,0,0,0,0,16236,0,0,0,0,0,0,0,0,0,2.5,0
8722,-3.34228e-12,7.97684e-38,-1.60068e-06,-3.40794e-12,7.97637e-38,0,-1.13734e-13,0,0,-3.72241,-0.169078,0.433901,0,0,0,0,0,0,0,282,-50,282,-50,405,-48,273,67,0,-0.349066,2.45644,-1.5,3.94113e+12,0,0,2,0,0,0,0,0,0,0,0,16236,0,0,0,0,0,0,0,0,0,2.5,0
8738,-3.34228e-12,7.97684e-38,-1.60068e-06,-3.40794e-12,7.97637e-38,0,-1.13734e-13,0,0,-3.79008,-0.184507,0.476246,0,0,0,0,0,0,0,284,-51,284,-51,405,-46,276,64,0,-0.349066,2.47811,-1.5,3.94113e+12,0,0,2,0,0,0,0,0,0,0,0,15996,0,0,0,0,0,0,0,0,0,2.5,0
8754,-3.34228e-12,7.97684e-38,-1.60068e-06,-3.40794e-12,7.97637e-38,0,-1.13735e-13,0,0,-3.79008,-0.184507,0.476246,0,0,0,0,0,0,0,284,-51,284,-51,405,-46,276,64,0,-0.349066,2.4991,-1.5,3.94113e+12,0,0,2,0,0,0,0,0,0,0,0,15996,0,0,0,0,0,0,0,0,0,2.5,0
8769,-3.34228e-12,7.97684e-38,-1.60068e-06,-3.40794e-12,7.97637e-38,0,-1.13735e-13,0,0,-3.71305,-0.182643,0.433502,0,0,0,0,0,0,0,286,-51,286,-51,405,-48,272,66,0,-0.349066,2.51817,-1.5,3.94113e+12,0,0,2,0,0,0,0,0,0,0,0,16492,0,0,0,0,0,0,0,0,0,2.5,0
8785,-3.34228e-12,7.97684e-38,-1.60068e-06,-3.40794e-12,7.97637e-38,0,-1.13736e-13,0,0,-3.71305,-0.182643,0.433502,0,0,0,0,0,0,0,286,-51,286,-51,405,-48,272,66,0,-0.349066,2.53667,-1.5,3.94113e+12,0,0,2,0,0,0,0,0,0,0,0,16492,0,0,0,0,0,0,0,0,0,2.5,0
8800,-3.34228e-12,7.97684e-38,-1.60068e-06,-3.40794e-12,7.97637e-38,0,-1.13736e-13,0,0,-3.71305,-0.182643,0.433502,0,0,0,0,0,0,0,286,-51,286,-51,405,-48,272,66,0,-0.349066,2.55581,-1.5,3.94113e+12,0,0,2,0,0,0,0,0,0,0,0,16492,0,0,0,0,0,0,0,0,0,2.5,0
8815,-3.34228e-12,7.97684e-38,-1.60068e-06,-3.40794e-12,7.97637e-38,0,-1.13737e-13,0,0,-3.72985,-0.195112,0.445113,0,0,0,0,0,0,0,284,-51,284,-51,408,-47,276,64,0,-0.349066,2.57319,-1.5,3.94113e+12,0,0,2,0,0,0,0,0,0,0,0,16368,0,0,0,0,0,0,0,0,0,2.5,0
8831,-3.34228e-12,7.97684e-38,-1.60068e-06,-3.40794e-12,7.97637e-38,0,-1.13737e-13,0,0,-3.72985,-0.195112,0.445113,0,0,0,0,0,0,0,284,-51,284,-51,408,-47,276,64,0,-0.349066,2.59006,-1.5,3.94113e+12,0,0,2,0,0,0,0,0,0,0,0,16368,0,0,0,0,0,0,0,0,0,2.5,0
8846,-3.34228e-12,7.97684e-38,-1.60068e-06,-3.40794e-12,7.97637e-38,0,-1.13738e-13,0,0,-3.75062,-0.200719,0.456548,0,0,0,0,0,0,0,284,-51,284,-51,408,-47,278,64,0,-0.349066,2.60643,-1.5,3.94113e+12,0,0,2,0,0,0,0,0,0,0,0,16120,0,0,0,0,0,0,0,0,0,2.5,0
8859,-3.34228e-12,7.97684e-38,-1.60068e-06,-3.40794e-12,7.97637e-38,0,-1.13738e-13,0,0,-3.75062,-0.200719,0.456548,0,0,0,0,0,0,0,284,-51,284,-51,408,-47,278,64,0,-0.349066,2.62021,-1.5,3.94113e+12,0,0,2,0,0,0,0,0,0,0,0,16120,0,0,0,0,0,0,0,0,0,2.5,0
8873,-3.34228e-12,7.97684e-38,-1.60068e-06,-3.40794e-12,7.97637e-38,0,-1.13739e-13,0,0,-3.72985,-0.195112,0.445113,0,0,0,0,0,0,0,284,-51,284,-51,408,-47,276,64,0,-0.349066,2.63466,-1.5,3.94113e+12,0,0,2,0,0,0,0,0,0,0,0,16368,0,0,0,0,0,0,0,0,0,2.5,0
8888,-3.34228e-12,7.97684e-38,-1.60068e-06,-3.40794e-12,7.97637e-38,0,-1.1374e-13,0,0,-3.72985,-0.195112,0.445113,0,0,0,0,0,0,0,284,-51,284,-51,408,-47,276,64,0,-0.349066,2.64969,-1.5,3.94113e+12,0,0,2,0,0,0,0,0,0,0,0,16368,0,0,0,0,0,0,0,0,0,2.5,0
8904,-3.34228e-12,7.97684e-38,-1.60068e-06,-3.40794e-12,7.97637e-38,0,-1.1374e-13,0,0,-3.70806,-0.182534,0.424068,0,0,0,0,0,0,0,284,-51,284,-51,405,-46,273,67,0,-0.349066,2.66526,-1.5,3.94113e+12,0,0,2,0,0,0,0,0,0,0,0,16368,0,0,0,0,0,0,0,0,0,2.5,0
8919,-3.34228e-12,7.97684e-38,-1.60068e-06,-3.40794e-12,7.97637e-38,0,-1.13741e-13,0,0,-3.70806,-0.182534,0.424068,0,0,0,0,0,0,0,284,-51,284,-51,405,-46,273,67,0,-0.349066,2.6794,-1.5,3.94113e+12,0,0,2,0,0,0,0,0,0,0,0,16368,0,0,0,0,0,0,0,0,0,2.5,0
8935,-3.34228e-12,7.97684e-38,-1.60068e-06,-3.40794e-12,7.97637e-38,0,-1.13741e-13,0,0,-3.69968,-0.180551,0.404896,0,0,0,0,0,0,0,286,-51,286,-51,405,-46,273,67,0,-0.349066,2.69403,-1.5,3.94113e+12,0,0,2,0,0,0,0,0,0,0,0,17160,0,0,0,0,0,0,0,0,0,2.5,0
8951,-3.34228e-12,7.97684e-38,-1.60068e-06,-3.40794e-12,7.97637e-38,0,-1.13742e-13,0,0,-3.69968,-0.180551,0.404896,0,0,0,0,0,0,0,286,-51,286,-51,405,-46,273,67,0,-0.349066,2.70731,-1.5,3.94113e+12,0,0,2,0,0,0,0,0,0,0,0,17160,0,0,0,0,0,0,0,0,0,2.5,0
8967,-3.34228e-12,7.97684e-38,-1.60068e-06,-3.40794e-12,7.97637e-38,0,-1.13742e-13,0,0,-3.69968,-0.180551,0.404896,0,0,0,0,0,0,0,286,-51,286,-51,405,-46,273,67,0,-0.349066,2.7219,-1.5,3.94113e+12,0,0,2,0,0,0,0,0,0,0,0,17160,0,0,0,0,0,0,0,0,0,2.5,0
8982,-3.34228e-12,7.97684e-38,-1.60068e-06,-3.40794e-12,7.97637e-38,0,-1.13743e-13,0,0,-3.69968,-0.180551,0.404896,0,0,0,0,0,0,0,286,-51,286,-51,405,-46,273,67,0,-0.349066,2.73435,-1.5,3.94113e+12,0,0,2,0,0,0,0,0,0,0,0,17160,0,0,0,0,0,0,0,0,0,2.5,0
8998,-3.34228e-12,7.97684e-38,-1.60068e-06,-3.40794e-12,7.97637e-38,0,-1.13743e-13,0,0,-3.69968,-0.180551,0.404896,0,0,0,0,0,0,0,286,-51,286,-51,405,-46,273,67,0,-0.349066,2.74644,-1.5,3.94113e+12,0,0,2,0,0,0,0,0,0,0,0,17160,0,0,0,0,0,0,0,0,0,2.5,0
9013,-3.34228e-12,7.97684e-38,-1.60068e-06,-3.40794e-12,7.97637e-38,0,-1.13744e-13,0,0,-3.77597,-0.169861,0.45923,0,0,0,0,0,0,0,284,-51,284,-51,402,-45,273,67,0,-0.349066,2.75894,-1.5,3.94113e+12,0,0,2,0,0,0,0,0,0,0,0,15996,0,0,0,0,0,0,0,0,0,2.5,0
9028,-3.34228e-12,7.97684e-38,-1.60068e-06,-3.40794e-12,7.97637e-38,0,-1.13744e-13,0,0,-3.77597,-0.169861,0.45923,0,0,0,0,0,0,0,284,-51,284,-51,402,-45,273,67,0,-0.349066,2.7703,-1.5,3.94113e+12,0,0,2,0,0,0,0,0,0,0,0,15996,0,0,0,0,0,0,0,0,0,2.5,0
9044,-3.34228e-12,7.97684e-38,-1.60068e-06,-3.40794e-12,7.97637e-38,0,-1.13745e-13,0,0,-3.77597,-0.169861,0.45923,0,0,0,0,0,0,0,284,-51,284,-51,402,-45,273,67,0,-0.349066,2.78205,-1.5,3.94113e+12,0,0,2,0,0,0,0,0,0,0,0,15996,0,0,0,0,0,0,0,0,0,2.5,0
9059,-3.34228e-12,7.97684e-38,-1.60068e-06,-3.40794e-12,7.97637e-38,0,-1.13745e-13,0,0,-3.77597,-0.169861,0.45923,0,0,0,0,0,0,0,284,-51,284,-51,402,-45,273,67,0,-0.349066,2.79272,-1.5,3.94113e+12,0,0,2,0,0,0,0,0,0,0,0,15996,0,0,0,0,0,0,0,0,0,2.5,0
9107,-3.34228e-12,7.97684e-38,-1.60068e-06,-3.40794e-12,7.97637e-38,0,-1.13746e-13,0,0,-3.75405,-0.149373,0.434074,0,0,0,0,0,0,0,280,-45,280,-45,401,-46,270,68,0,-0.349066,2.82505,-1.5,3.94113e+12,0,0,2,0,0,0,0,0,0,0,0,15589,0,0,0,0,0,0,0,0,0,2.5,0
9122,-3.34228e-12,7.97684e-38,-1.60068e-06,-3.40794e-12,7.97637e-38,0,-1.13747e-13,0,0,-3.75405,-0.149373,0.434074,0,0,0,0,0,0,0,280,-45,280,-45,401,-46,270,68,0,-0.349066,2.83506,-1.5,3.94113e+12,0,0,2,0,0,0,0,0,0,0,0,15589,0,0,0,0,0,0,0,0,0,2.5,0
9136,-3.34228e-12,7.97684e-38,-1.60068e-06,-3.40794e-12,7.97637e-38,0,-1.13747e-13,0,0,-3.7222,-0.147885,0.411869,0,0,0,0,0,0,0,280,-45,280,-45,402,-46,269,70,0,-0.349066,2.84355,-1.5,3.94113e+12,0,0,2,0,0,0,0,0,0,0,0,15827,0,0,0,0,0,0,0,0,0,2.5,0
9149,-3.34228e-12,7.97684e-38,-1.60068e-06,-3.40794e-12,7.97637e-38,0,-1.13748e-13,0,0,-3.7222,-0.147885,0.411869,0,0,0,0,0,0,0,280,-45,280,-45,402,-46,269,70,0,-0.349066,2.85122,-1.5,3.94113e+12,0,0,2,0,0,0,0,0,0,0,0,15827,0,0,0,0,0,0,0,0,0,2.5,0
9164,-3.34228e-12,7.97684e-38,-1.60068e-06,-3.40794e-12,7.97637e-38,0,-1.13748e-13,0,0,-3.74449,-0.151278,0.428802,0,0,0,0,0,0,0,280,-45,280,-45,402,-46,270,68,0,-0.349066,2.85984,-1.5,3.94113e+12,0,0,2,0,0,0,0,0,0,0,0,15708,0,0,0,0,0,0,0,0,0,2.5,0
9180,-3.34228e-12,7.97684e-38,-1.60068e-06,-3.40794e-12,7.97637e-38,0,-1.13749e-13,0,0,-3.74449,-0.151278,0.428802,0,0,0,0,0,0,0,280,-45,280,-45,402,-46,270,68,0,-0.349066,2.86875,-1.5,3.94113e+12,0,0,2,0,0,0,0,0,0,0,0,15708,0,0,0,0,0,0,0,0,0,2.5,0
9195,-3.34228e-12,7.97684e-38,-1.60068e-06,-3.40794e-12,7.97637e-38,0,-1.13749e-13,0,0,-3.74449,-0.151278,0.428802,0,0,0,0,0,0,0,280,-45,280,-45,402,-46,270,68,0,-0.349066,2.87685,-1.5,3.94113e+12,0,0,2,0,0,0,0,0,0,0,0,15708,0,0,0,0,0,0,0,0,0,2.5,0
9210,-3.34228e-12,7.97684e-38,-1.60068e-06,-3.40794e-12,7.97637e-38,0,-1.1375e-13,0,0,-3.72569,-0.145626,0.411422,0,0,0,0,0,0,0,280,-45,280,-45,401,-46,269,71,0,-0.349066,2.88471,-1.5,3.94113e+12,0,0,2,0,0,0,0,0,0,0,0,15708,0,0,0,0,0,0,0,0,0,2.5,0
9226,-3.34228e-12,7.97684e-38,-1.60068e-06,-3.40794e-12,7.97637e-38,0,-1.1375e-13,0,0,-3.72569,-0.145626,0.411422,0,0,0,0,0,0,0,280,-45,280,-45,401,-46,269,71,0,-0.349066,2.89283,-1.5,3.94113e+12,0,0,2,0,0,0,0,0,0,0,0,15708,0,0,0,0,0,0,0,0,0,2.5,0
9241,-3.34228e-12,7.97684e-38,-1.60068e-06,-3.40794e-12,7.97637e-38,0,-1.13751e-13,0,0,-3.7316,-0.145982,0.417043,0,0,0,0,0,0,0,280,-45,280,-45,401,-46,269,70,0,-0.349066,2.90022,-1.5,3.94113e+12,0,0,2,0,0,0,0,0,0,0,0,15708,0,0,0,0,0,0,0,0,0,2.5,0
9256,-3.34228e-12,7.97684e-38,-1.60068e-06,-3.40794e-12,7.97637e-38,0,-1.13751e-13,0,0,-3.7316,-0.145982,0.417043,0,0,0,0,0,0,0,280,-45,280,-45,401,-46,269,70,0,-0.349066,2.90738,-1.5,3.94113e+12,0,0,2,0,0,0,0,0,0,0,0,15708,0,0,0,0,0,0,0,0,0,2.5,0
9272,-3.34228e-12,7.97684e-38,-1.60068e-06,-3.40794e-12,7.97637e-38,0,-1.13752e-13,0,0,-3.74463,-0.144576,0.426486,0,0,0,0,0,0,0,280,-45,280,-45,401,-46,269,68,0,-0.349066,2.91479,-1.5,3.94113e+12,0,0,2,0,0,0,0,0,0,0,0,15840,0,0,0,0,0,0,0,0,0,2.5,0
9287,-3.34228e-12,7.97684e-38,-1.60068e-06,-3.40794e-12,7.97637e-38,0,-1.13753e-13,0,0,-3.74463,-0.144576,0.426486,0,0,0,0,0,0,0,280,-45,280,-45,401,-46,269,68,0,-0.349066,2.92152,-1.5,3.94113e+12,0,0,2,0,0,0,0,0,0,0,0,15840,0,0,0,0,0,0,0,0,0,2.5,0
9303,-3.34228e-12,7.97684e-38,-1.60068e-06,-3.40794e-12,7.97637e-38,0,-1.13753e-13,0,0,-3.7316,-0.145982,0.417043,0,0,0,0,0,0,0,280,-45,280,-45,401,-46,269,70,0,-0.349066,2.92805,-1.5,3.94113e+12,0,0,2,0,0,0,0,0,0,0,0,15708,0,0,0,0,0,0,0,0,0,2.5,0
9319,-3.34228e-12,7.97684e-38,-1.60068e-06,-3.40794e-12,7.97637e-38,0,-1.13754e-13,0,0,-3.7316,-0.145982,0.417043,0,0,0,0,0,0,0,280,-45,280,-45,401,-46,269,70,0,-0.349066,2.93481,-1.5,3.94113e+12,0,0,2,0,0,0,0,0,0,0,0,15708,0,0,0,0,0,0,0,0,0,2.5,0
9335,-3.34228e-12,7.97684e-38,-1.60068e-06,-3.40794e-12,7.97637e-38,0,-1.13754e-13,0,0,-3.71377,-0.162028,0.417766,0,0,0,0,0,0,0,286,-51,286,-51,402,-46,269,71,0,-0.349066,2.94135,-1.5,3.94113e+12,0,0,2,0,0,0,0,0,0,0,0,16492,0,0,0,0,0,0,0,0,0,2.5,0
9349,-3.34228e-12,7.97684e-38,-1.60068e-06,-3.40794e-12,7.97637e-38,0,-1.13755e-13,0,0,-3.71377,-0.162028,0.417766,0,0,0,0,0,0,0,286,-51,286,-51,402,-46,269,71,0,-0.349066,2.9469,-1.5,3.94113e+12,0,0,2,0,0,0,0,0,0,0,0,16492,0,0,0,0,0,0,0,0,0,2.5,0
9365,-3.34228e-12,7.97684e-38,-1.60068e-06,-3.40794e-12,7.97637e-38,0,-1.13755e-13,0,0,-3.69735,-0.151282,0.395842,0,0,0,0,0,0,0,280,-45,280,-45,404,-46,269,71,0,-0.349066,2.95306,-1.5,3.94113e+12,0,0,2,0,0,0,0,0,0,0,0,16065,0,0,0,0,0,0,0,0,0,2.5,0
9383,-3.34228e-12,7.97684e-38,-1.60068e-06,-3.40794e-12,7.97637e-38,0,-1.13756e-13,0,0,-3.69735,-0.151282,0.395842,0,0,0,0,0,0,0,280,-45,280,-45,404,-46,269,71,0,-0.349066,2.95977,-1.5,3.94113e+12,0,0,2,0,0,0,0,0,0,0,0,16065,0,0,0,0,0,0,0,0,0,2.5,0
9398,-3.34228e-12,7.97684e-38,-1.60068e-06,-3.40794e-12,7.97637e-38,0,-1.13756e-13,0,0,-3.69735,-0.151282,0.395842,0,0,0,0,0,0,0,280,-45,280,-45,404,-46,269,71,0,-0.349066,2.96517,-1.5,3.94113e+12,0,0,2,0,0,0,0,0,0,0,0,16065,0,0,0,0,0,0,0,0,0,2.5,0
9411,-3.34228e-12,7.97684e-38,-1.60068e-06,-3.40794e-12,7.97637e-38,0,-1.13757e-13,0,0,-3.75176,-0.142542,0.430237,0,0,0,0,0,0,0,280,-45,280,-45,402,-46,269,68,0,-0.349066,2.96971,-1.5,3.94113e+12,0,0,2,0,0,0,0,0,0,0,0,15960,0,0,0,0,0,0,0,0,0,2.5,0
9426,-3.34228e-12,7.97684e-38,-1.60068e-06,-3.40794e-12,7.97637e-38,0,-1.13757e-13,0,0,-3.75176,-0.142542,0.430237,0,0,0,0,0,0,0,280,-45,280,-45,402,-46,269,68,0,-0.349066,2.97481,-1.5,3.94113e+12,0,0,2,0,0,0,0,0,0,0,0,15960,0,0,0,0,0,0,0,0,0,2.5,0
9442,-3.34228e-12,7.97684e-38,-1.60068e-06,-3.40794e-12,7.97637e-38,0,-1.13758e-13,0,0,-3.70255,-0.159664,0.416331,0,0,0,0,0,0,0,282,-50,282,-50,405,-46,270,67,0,-0.349066,2.98009,-1.5,3.94113e+12,0,0,2,0,0,0,0,0,0,0,0,16740,0,0,0,0,0,0,0,0,0,2.5,0
9458,-3.34228e-12,7.97684e-38,-1.60068e-06,-3.40794e-12,7.97637e-38,0,-1.13759e-13,0,0,-3.70255,-0.159664,0.416331,0,0,0,0,0,0,0,282,-50,282,-50,405,-46,270,67,0,-0.349066,2.98488,-1.5,3.94113e+12,0,0,2,0,0,0,0,0,0,0,0,16740,0,0,0,0,0,0,0,0,0,2.5,0
9473,-3.34228e-12,7.97684e-38,-1.60068e-06,-3.40794e-12,7.97637e-38,0,-1.13759e-13,0,0,-3.70255,-0.159664,0.416331,0,0,0,0,0,0,0,282,-50,282,-50,405,-46,270,67,0,-0.349066,2.98984,-1.5,3.94113e+12,0,0,2,0,0,0,0,0,0,0,0,16740,0,0,0,0,0,0,0,0,0,2.5,0
9489,-3.34228e-12,7.97684e-38,-1.60068e-06,-3.40794e-12,7.97637e-38,0,-1.1376e-13,0,0,-3.70255,-0.159664,0.416331,0,0,0,0,0,0,0,282,-50,282,-50,405,-46,270,67,0,-0.349066,2.99464,-1.5,3.94113e+12,0,0,2,0,0,0,0,0,0,0,0,16740,0,0,0,0,0,0,0,0,0,2.5,0
9504,-3.34228e-12,7.97684e-38,-1.60068e-06,-3.40794e-12,7.97637e-38,0,-1.1376e-13,0,0,-3.79127,-0.153541,0.440439,0,0,0,0,0,0,0,283,-45,283,-45,402,-43,270,70,0,-0.349066,2.999,-1.5,3.94113e+12,0,0,2,0,0,0,0,0,0,0,0,15708,0,0,0,0,0,0,0,0,0,2.5,0
9520,-3.34228e-12,7.97684e-38,-1.60068e-06,-3.40794e-12,7.97637e-38,0,-1.13761e-13,0,0,-3.79127,-0.153541,0.440439,0,0,0,0,0,0,0,283,-45,283,-45,402,-43,270,70,0,-0.349066,3.00351,-1.5,3.94113e+12,0,0,2,0,0,0,0,0,0,0,0,15708,0,0,0,0,0,0,0,0,0,2.5,0
9535,-3.34228e-12,7.97684e-38,-1.60068e-06,-3.40794e-12,7.97637e-38,0,-1.13761e-13,0,0,-3.71891,-0.15109,0.431728,0,0,0,0,0,0,0,282,-51,282,-51,403,-48,270,67,0,-0.349066,3.00761,-1.5,3.94113e+12,0,0,2,0,0,0,0,0,0,0,0,16625,0,0,0,0,0,0,0,0,0,2.5,0
9551,-3.34228e-12,7.97684e-38,-1.60068e-06,-3.40794e-12,7.97637e-38,0,-1.13762e-13,0,0,-3.71891,-0.15109,0.431728,0,0,0,0,0,0,0,282,-51,282,-51,403,-48,270,67,0,-0.349066,3.01185,-1.5,3.94113e+12,0,0,2,0,0,0,0,0,0,0,0,16625,0,0,0,0,0,0,0,0,0,2.5,0
9567,-3.34228e-12,7.97684e-38,-1.60068e-06,-3.40794e-12,7.97637e-38,0,-1.13762e-13,0,0,-3.71891,-0.15109,0.431728,0,0,0,0,0,0,0,282,-51,282,-51,403,-48,270,67,0,-0.349066,3.01595,-1.5,3.94113e+12,0,0,2,0,0,0,0,0,0,0,0,16625,0,0,0,0,0,0,0,0,0,2.5,0
9582,-3.34228e-12,7.97684e-38,-1.60068e-06,-3.40794e-12,7.97637e-38,0,-1.13763e-13,0,0,-3.79884,-0.163241,0.458399,0,0,0,0,0,0,0,282,-46,282,-46,402,-45,273,67,0,-0.349066,3.01968,-1.5,3.94113e+12,0,0,2,0,0,0,0,0,0,0,0,15480,0,0,0,0,0,0,0,0,0,2.5,0
9597,-3.34228e-12,7.97684e-38,-1.60068e-06,-3.40794e-12,7.97637e-38,0,-1.13763e-13,0,0,-3.79884,-0.163241,0.458399,0,0,0,0,0,0,0,282,-46,282,-46,402,-45,273,67,0,-0.349066,3.0233,-1.5,3.94113e+12,0,0,2,0,0,0,0,0,0,0,0,15480,0,0,0,0,0,0,0,0,0,2.5,0
9612,-3.34228e-12,7.97684e-38,-1.60068e-06,-3.40794e-12,7.97637e-38,0,-1.13764e-13,0,0,-3.74874,-0.15523,0.429508,0,0,0,0,0,0,0,282,-50,282,-50,401,-46,273,67,0,-0.349066,3.02681,-1.5,3.94113e+12,0,0,2,0,0,0,0,0,0,0,0,16512,0,0,0,0,0,0,0,0,0,2.5,0
9628,-3.34228e-12,7.97684e-38,-1.60068e-06,-3.40794e-12,7.97637e-38,0,-1.13764e-13,0,0,-3.74874,-0.15523,0.429508,0,0,0,0,0,0,0,282,-50,282,-50,401,-46,273,67,0,-0.349066,3.03044,-1.5,3.94113e+12,0,0,2,0,0,0,0,0,0,0,0,16512,0,0,0,0,0,0,0,0,0,2.5,0
9641,-3.34228e-12,7.97684e-38,-1.60068e-06,-3.40794e-12,7.97637e-38,0,-1.13765e-13,0,0,-3.73503,-0.146484,0.421197,0,0,0,0,0,0,0,280,-45,280,-45,402,-46,269,68,0,-0.349066,3.0333,-1.5,3.94113e+12,0,0,2,0,0,0,0,0,0,0,0,15960,0,0,0,0,0,0,0,0,0,2.5,0
9654,-3.34228e-12,7.97684e-38,-1.60068e-06,-3.40794e-12,7.97637e-38,0,-1.13766e-13,0,0,-3.73503,-0.146484,0.421197,0,0,0,0,0,0,0,280,-45,280,-45,402,-46,269,68,0,-0.349066,3.03609,-1.5,3.94113e+12,0,0,2,0,0,0,0,0,0,0,0,15960,0,0,0,0,0,0,0,0,0,2.5,0
9670,-3.34228e-12,7.97684e-38,-1.60068e-06,-3.40794e-12,7.97637e-38,0,-1.13766e-13,0,0,-3.73503,-0.146484,0.421197,0,0,0,0,0,0,0,280,-45,280,-45,402,-46,269,68,0,-0.349066,3.03943,-1.5,3.94113e+12,0,0,2,0,0,0,0,0,0,0,0,15960,0,0,0,0,0,0,0,0,0,2.5,0
9686,-3.34228e-12,7.97684e-38,-1.60068e-06,-3.40794e-12,7.97637e-38,0,-1.13767e-13,0,0,-3.73503,-0.146484,0.421197,0,0,0,0,0,0,0,280,-45,280,-45,402,-46,269,68,0,-0.349066,3.04246,-1.5,3.94113e+12,0,0,2,0,0,0,0,0,0,0,0,15960,0,0,0,0,0,0,0,0,0,2.5,0
9701,-3.34228e-12,7.97684e-38,-1.60068e-06,-3.40794e-12,7.97637e-38,0,-1.13767e-13,0,0,-3.75405,-0.149373,0.434074,0,0,0,0,0,0,0,280,-45,280,-45,401,-46,270,68,0,-0.349066,3.0456,-1.5,3.94113e+12,0,0,2,0,0,0,0,0,0,0,0,15589,0,0,0,0,0,0,0,0,0,2.5,0
9717,-3.34228e-12,7.97684e-38,-1.60068e-06,-3.40794e-12,7.97637e-38,0,-1.13768e-13,0,0,-3.75405,-0.149373,0.434074,0,0,0,0,0,0,0,280,-45,280,-45,401,-46,270,68,0,-0.349066,3.04845,-1.5,3.94113e+12,0,0,2,0,0,0,0,0,0,0,0,15589,0,0,0,0,0,0,0,0,0,2.5,0
9732,-3.34228e-12,7.97684e-38,-1.60068e-06,-3.40794e-12,7.97637e-38,0,-1.13768e-13,0,0,-3.75405,-0.149373,0.434074,0,0,0,0,0,0,0,280,-45,280,-45,401,-46,270,68,0,-0.349066,3.0514,-1.5,3.94113e+12,0,0,2,0,0,0,0,0,0,0,0,15589,0,0,0,0,0,0,0,0,0,2.5,0
9748,-3.34228e-12,7.97684e-38,-1.60068e-06,-3.40794e-12,7.97637e-38,0,-1.13769e-13,0,0,-3.65881,-0.148518,0.385019,0,0,0,0,0,0,0,280,-51,280,-51,404,-46,269,71,0,-0.349066,3.05425,-1.5,3.94113e+12,0,0,2,0,0,0,0,0,0,0,0,16875,0,0,0,0,0,0,0,0,0,2.5,0
9763,-3.34228e-12,7.97684e-38,-1.60068e-06,-3.40794e-12,7.97637e-38,0,-1.13769e-13,0,0,-3.65881,-0.148518,0.385019,0,0,0,0,0,0,0,280,-51,280,-51,404,-46,269,71,0,-0.349066,3.05684,-1.5,3.94113e+12,0,0,2,0,0,0,0,0,0,0,0,16875,0,0,0,0,0,0,0,0,0,2.5,0
9778,-3.34228e-12,7.97684e-38,-1.60068e-06,-3.40794e-12,7.97637e-38,0,-1.1377e-13,0,0,-3.65881,-0.148518,0.385019,0,0,0,0,0,0,0,280,-51,280,-51,404,-46,269,71,0,-0.349066,3.05936,-1.5,3.94113e+12,0,0,2,0,0,0,0,0,0,0,0,16875,0,0,0,0,0,0,0,0,0,2.5,0
9793,-3.34228e-12,7.97684e-38,-1.60068e-06,-3.40794e-12,7.97637e-38,0,-1.1377e-13,0,0,-3.65881,-0.148518,0.385019,0,0,0,0,0,0,0,280,-51,280,-51,404,-46,269,71,0,-0.349066,3.0618,-1.5,3.94113e+12,0,0,2,0,0,0,0,0,0,0,0,16875,0,0,0,0,0,0,0,0,0,2.5,0
9810,-3.34228e-12,7.97684e-38,-1.60068e-06,-3.40794e-12,7.97637e-38,0,-1.13771e-13,0,0,-3.76419,-0.154065,0.43472,0,0,0,0,0,0,0,280,-45,280,-45,401,-46,272,70,0,-0.349066,3.06432,-1.5,3.94113e+12,0,0,2,0,0,0,0,0,0,0,0,15351,0,0,0,0,0,0,0,0,0,2.5,0
9826,-3.34228e-12,7.97684e-38,-1.60068e-06,-3.40794e-12,7.97637e-38,0,-1.13772e-13,0,0,-3.76419,-0.154065,0.43472,0,0,0,0,0,0,0,280,-45,280,-45,401,-46,272,70,0,-0.349066,3.06677,-1.5,3.94113e+12,0,0,2,0,0,0,0,0,0,0,0,15351,0,0,0,0,0,0,0,0,0,2.5,0
9842,-3.34228e-12,7.97684e-38,-1.60068e-06,-3.40794e-12,7.97637e-38,0,-1.13772e-13,0,0,-3.73344,-0.148587,0.422791,0,0,0,0,0,0,0,280,-45,280,-45,402,-46,269,68,0,-0.349066,3.06913,-1.5,3.94113e+12,0,0,2,0,0,0,0,0,0,0,0,15827,0,0,0,0,0,0,0,0,0,2.5,0
9857,-3.34228e-12,7.97684e-38,-1.60068e-06,-3.40794e-12,7.97637e-38,0,-1.13773e-13,0,0,-3.73344,-0.148587,0.422791,0,0,0,0,0,0,0,280,-45,280,-45,402,-46,269,68,0,-0.349066,3.07128,-1.5,3.94113e+12,0,0,2,0,0,0,0,0,0,0,0,15827,0,0,0,0,0,0,0,0,0,2.5,0
9873,-3.34228e-12,7.97684e-38,-1.60068e-06,-3.40794e-12,7.97637e-38,0,-1.13773e-13,0,0,-3.73344,-0.148587,0.422791,0,0,0,0,0,0,0,280,-45,280,-45,402,-46,269,68,0,-0.349066,3.07351,-1.5,3.94113e+12,0,0,2,0,0,0,0,0,0,0,0,15827,0,0,0,0,0,0,0,0,0,2.5,0
9888,-3.34228e-12,7.97684e-38,-1.60068e-06,-3.40794e-12,7.97637e-38,0,-1.13774e-13,0,0,-3.73344,-0.148587,0.422791,0,0,0,0,0,0,0,280,-45,280,-45,402,-46,269,68,0,-0.349066,3.07553,-1.5,3.94113e+12,0,0,2,0,0,0,0,0,0,0,0,15827,0,0,0,0,0,0,0,0,0,2.5,0
9902,-3.34228e-12,7.97684e-38,-1.60068e-06,-3.40794e-12,7.97637e-38,0,-1.13774e-13,0,0,-3.74041,-0.141859,0.41924,0,0,0,0,0,0,0,280,-45,280,-45,402,-46,269,70,0,-0.349066,3.07736,-1.5,3.94113e+12,0,0,2,0,0,0,0,0,0,0,0,15960,0,0,0,0,0,0,0,0,0,2.5,0
9915,-3.34228e-12,7.97684e-38,-1.60068e-06,-3.40794e-12,7.97637e-38,0,-1.13775e-13,0,0,-3.74041,-0.141859,0.41924,0,0,0,0,0,0,0,280,-45,280,-45,402,-46,269,70,0,-0.349066,3.07901,-1.5,3.94113e+12,0,0,2,0,0,0,0,0,0,0,0,15960,0,0,0,0,0,0,0,0,0,2.5,0
9930,-3.34228e-12,7.97684e-38,-1.60068e-06,-3.40794e-12,7.97637e-38,0,-1.13775e-13,0,0,-3.74041,-0.141859,0.41924,0,0,0,0,0,0,0,280,-45,280,-45,402,-46,269,70,0,-0.349066,3.08087,-1.5,3.94113e+12,0,0,2,0,0,0,0,0,0,0,0,15960,0,0,0,0,0,0,0,0,0,2.5,0
9945,-3.34228e-12,7.97684e-38,-1.60068e-06,-3.40794e-12,7.97637e-38,0,-1.13776e-13,0,0,-3.75176,-0.142542,0.430237,0,0,0,0,0,0,0,280,-45,280,-45,402,-46,269,68,0,-0.349066,3.08267,-1.5,3.94113e+12,0,0,2,0,0,0,0,0,0,0,0,15960,0,0,0,0,0,0,0,0,0,2.5,0
9961,-3.34228e-12,7.97684e-38,-1.60068e-06,-3.40794e-12,7.97637e-38,0,-1.13776e-13,0,0,-3.75176,-0.142542,0.430237,0,0,0,0,0,0,0,280,-45,280,-45,402,-46,269,68,0,-0.349066,3.08454,-1.5,3.94113e+12,0,0,2,0,0,0,0,0,0,0,0,15960,0,0,0,0,0,0,0,0,0,2.5,0
9976,-3.34228e-12,7.97684e-38,-1.60068e-06,-3.40794e-12,7.97637e-38,0,-1.13777e-13,0,0,-3.75176,-0.142542,0.430237,0,0,0,0,0,0,0,280,-45,280,-45,402,-46,269,68,0,-0.349066,3.08623,-1.5,3.94113e+12,0,0,2,0,0,0,0,0,0,0,0,15960,0,0,0,0,0,0,0,0,0,2.5,0
9991,-3.34228e-12,7.97684e-38,-1.60068e-06,-3.40794e-12,7.97637e-38,0,-1.13777e-13,0,0,-3.75176,-0.142542,0.430237,0,0,0,0,0,0,0,280,-45,280,-45,402,-46,269,68,0,-0.349066,3.08787,-1.5,3.94113e+12,0,0,2,0,0,0,0,0,0,0,0,15960,0,0,0,0,0,0,0,0,0,2.5,0
10007,-3.34228e-12,7.97684e-38,-1.60068e-06,-3.40794e-12,7.97637e-38,0,-1.13778e-13,0,0,-3.74463,-0.144576,0.426486,0,0,0,0,0,0,0,280,-45,280,-45,401,-46,269,68,0,-0.349066,3.08957,-1.5,3.94113e+12,0,0,2,0,0,0,0,0,0,0,0,15840,0,0,0,0,0,0,0,0,0,2.5,0
10022,-3.34228e-12,7.97684e-38,-1.60068e-06,-3.40794e-12,7.97637e-38,0,-1.13779e-13,0,0,-3.74463,-0.144576,0.426486,0,0,0,0,0,0,0,280,-45,280,-45,401,-46,269,68,0,-0.349066,3.09111,-1.5,3.94113e+12,0,0,2,0,0,0,0,0,0,0,0,15840,0,0,0,0,0,0,0,0,0,2.5,0
10037,-3.34228e-12,7.97684e-38,-1.60068e-06,-3.40794e-12,7.97637e-38,0,-1.13779e-13,0,0,-3.77434,-0.160395,0.460568,0,0,0,0,0,0,0,282,-51,282,-51,400,-46,273,67,0,-0.349066,3.09261,-1.5,3.94113e+12,0,0,2,0,0,0,0,0,0,0,0,15748,0,0,0,0,0,0,0,0,0,2.5,0
10053,-3.34228e-12,7.97684e-38,-1.60068e-06,-3.40794e-12,7.97637e-38,0,-1.1378e-13,0,0,-3.77434,-0.160395,0.460568,0,0,0,0,0,0,0,282,-51,282,-51,400,-46,273,67,0,-0.349066,3.09407,-1.5,3.94113e+12,0,0,2,0,0,0,0,0,0,0,0,15748,0,0,0,0,0,0,0,0,0,2.5,0
10068,-3.34228e-12,7.97684e-38,-1.60068e-06,-3.40794e-12,7.97637e-38,0,-1.1378e-13,0,0,-3.73661,-0.147453,0.435124,0,0,0,0,0,0,0,282,-50,282,-50,402,-46,269,67,0,-0.349066,3.09557,-1.5,3.94113e+12,0,0,2,0,0,0,0,0,0,0,0,16492,0,0,0,0,0,0,0,0,0,2.5,0
10083,-3.34228e-12,7.97684e-38,-1.60068e-06,-3.40794e-12,7.97637e-38,0,-1.13781e-13,0,0,-3.73661,-0.147453,0.435124,0,0,0,0,0,0,0,282,-50,282,-50,402,-46,269,67,0,-0.349066,3.09693,-1.5,3.94113e+12,0,0,2,0,0,0,0,0,0,0,0,16492,0,0,0,0,0,0,0,0,0,2.5,0
10099,-3.34228e-12,7.97684e-38,-1.60068e-06,-3.40794e-12,7.97637e-38,0,-1.13781e-13,0,0,-3.73661,-0.147453,0.435124,0,0,0,0,0,0,0,282,-50,282,-50,402,-46,269,67,0,-0.349066,3.09835,-1.5,3.94113e+12,0,0,2,0,0,0,0,0,0,0,0,16492,0,0,0,0,0,0,0,0,0,2.5,0
10114,-3.34228e-12,7.97684e-38,-1.60068e-06,-3.40794e-12,7.97637e-38,0,-1.13782e-13,0,0,-3.75001,-0.144913,0.431827,0,0,0,0,0,0,0,280,-45,280,-45,401,-46,269,67,0,-0.349066,3.09963,-1.5,3.94113e+12,0,0,2,0,0,0,0,0,0,0,0,15840,0,0,0,0,0,0,0,0,0,2.5,0
10129,-3.34228e-12,7.97684e-38,-1.60068e-06,-3.40794e-12,7.97637e-38,0,-1.13782e-13,0,0,-3.75001,-0.144913,0.431827,0,0,0,0,0,0,0,280,-45,280,-45,401,-46,269,67,0,-0.349066,3.10088,-1.5,3.94113e+12,0,0,2,0,0,0,0,0,0,0,0,15840,0,0,0,0,0,0,0,0,0,2.5,0
10168,-3.34228e-12,7.97684e-38,-1.60068e-06,-3.40794e-12,7.97637e-38,0,-1.13783e-13,0,0,-3.74707,-0.152565,0.442997,0,0,0,0,0,0,0,283,-51,283,-51,402,-46,270,67,0,-0.349066,3.10401,-1.5,3.94113e+12,0,0,2,0,0,0,0,0,0,0,0,16500,0,0,0,0,0,0,0,0,0,2.5,0
10182,-3.34228e-12,7.97684e-38,-1.60068e-06,-3.40794e-12,7.97637e-38,0,-1.13783e-13,0,0,-3.74707,-0.152565,0.442997,0,0,0,0,0,0,0,283,-51,283,-51,402,-46,270,67,0,-0.349066,3.10497,-1.5,3.94113e+12,0,0,2,0,0,0,0,0,0,0,0,16500,0,0,0,0,0,0,0,0,0,2.5,0
10197,-3.34228e-12,7.97684e-38,-1.60068e-06,-3.40794e-12,7.97637e-38,0,-1.13784e-13,0,0,-3.74707,-0.152565,0.442997,0,0,0,0,0,0,0,283,-51,283,-51,402,-46,270,67,0,-0.349066,3.10613,-1.5,3.94113e+12,0,0,2,0,0,0,0,0,0,0,0,16500,0,0,0,0,0,0,0,0,0,2.5,0
10212,-3.34228e-12,7.97684e-38,-1.60068e-06,-3.40794e-12,7.97637e-38,0,-1.13785e-13,0,0,-3.78151,-0.155148,0.451454,0,0,0,0,0,0,0,280,-45,280,-45,401,-46,272,67,0,-0.349066,3.10719,-1.5,3.94113e+12,0,0,2,0,0,0,0,0,0,0,0,15351,0,0,0,0,0,0,0,0,0,2.5,0
10228,-3.34228e-12,7.97684e-38,-1.60068e-06,-3.40794e-12,7.97637e-38,0,-1.13785e-13,0,0,-3.78151,-0.155148,0.451454,0,0,0,0,0,0,0,280,-45,280,-45,401,-46,272,67,0,-0.349066,3.10827,-1.5,3.94113e+12,0,0,2,0,0,0,0,0,0,0,0,15351,0,0,0,0,0,0,0,0,0,2.5,0
10243,-3.34228e-12,7.97684e-38,-1.60068e-06,-3.40794e-12,7.97637e-38,0,-1.13786e-13,0,0,-3.78137,-0.157568,0.451499,0,0,0,0,0,0,0,283,-45,283,-45,401,-46,270,67,0,-0.349066,3.10926,-1.5,3.94113e+12,0,0,2,0,0,0,0,0,0,0,0,15589,0,0,0,0,0,0,0,0,0,2.5,0
10258,-3.34228e-12,7.97684e-38,-1.60068e-06,-3.40794e-12,7.97637e-38,0,-1.13786e-13,0,0,-3.78137,-0.157568,0.451499,0,0,0,0,0,0,0,283,-45,283,-45,401,-46,270,67,0,-0.349066,3.11022,-1.5,3.94113e+12,0,0,2,0,0,0,0,0,0,0,0,15589,0,0,0,0,0,0,0,0,0,2.5,0
10274,-3.34228e-12,7.97684e-38,-1.60068e-06,-3.40794e-12,7.97637e-38,0,-1.13787e-13,0,0,-3.6981,-0.156989,0.422859,0,0,0,0,0,0,0,283,-51,283,-51,403,-48,269,67,0,-0.349066,3.11122,-1.5,3.94113e+12,0,0,2,0,0,0,0,0,0,0,0,16616,0,0,0,0,0,0,0,0,0,2.5,0
10289,-3.34228e-12,7.97684e-38,-1.60068e-06,-3.40794e-12,7.97637e-38,0,-1.13787e-13,0,0,-3.6981,-0.156989,0.422859,0,0,0,0,0,0,0,283,-51,283,-51,403,-48,269,67,0,-0.349066,3.11212,-1.5,3.94113e+12,0,0,2,0,0,0,0,0,0,0,0,16616,0,0,0,0,0,0,0,0,0,2.5,0
10305,-3.34228e-12,7.97684e-38,-1.60068e-06,-3.40794e-12,7.97637e-38,0,-1.13788e-13,0,0,-3.71888,-0.155914,0.430082,0,0,0,0,0,0,0,283,-51,283,-51,402,-46,269,67,0,-0.349066,3.11305,-1.5,3.94113e+12,0,0,2,0,0,0,0,0,0,0,0,16492,0,0,0,0,0,0,0,0,0,2.5,0
10320,-3.34228e-12,7.97684e-38,-1.60068e-06,-3.40794e-12,7.97637e-38,0,-1.13788e-13,0,0,-3.71888,-0.155914,0.430082,0,0,0,0,0,0,0,283,-51,283,-51,402,-46,269,67,0,-0.349066,3.1139,-1.5,3.94113e+12,0,0,2,0,0,0,0,0,0,0,0,16492,0,0,0,0,0,0,0,0,0,2.5,0
10335,-3.34228e-12,7.97684e-38,-1.60068e-06,-3.40794e-12,7.97637e-38,0,-1.13789e-13,0,0,-3.62013,-0.156619,0.347473,0,0,0,0,0,0,0,283,-51,283,-51,404,-46,269,71,0,-0.349066,3.11472,-1.5,3.94113e+12,0,0,2,0,0,0,0,0,0,0,0,17820,0,0,0,0,0,0,0,0,0,2.5,0
10351,-3.34228e-12,7.97684e-38,-1.60068e-06,-3.40794e-12,7.97637e-38,0,-1.13789e-13,0,0,-3.62013,-0.156619,0.347473,0,0,0,0,0,0,0,283,-51,283,-51,404,-46,269,71,0,-0.349066,3.11557,-1.5,3.94113e+12,0,0,2,0,0,0,0,0,0,0,0,17820,0,0,0,0,0,0,0,0,0,2.5,0
10365,-3.34228e-12,7.97684e-38,-1.60068e-06,-3.40794e-12,7.97637e-38,0,-1.1379e-13,0,0,-3.62013,-0.156619,0.347473,0,0,0,0,0,0,0,283,-51,283,-51,404,-46,269,71,0,-0.349066,3.11629,-1.5,3.94113e+12,0,0,2,0,0,0,0,0,0,0,0,17820,0,0,0,0,0,0,0,0,0,2.5,0
10381,-3.34228e-12,7.97684e-38,-1.60068e-06,-3.40794e-12,7.97637e-38,0,-1.1379e-13,0,0,-3.69551,-0.154431,0.407703,0,0,0,0,0,0,0,283,-51,283,-51,402,-46,269,71,0,-0.349066,3.11709,-1.5,3.94113e+12,0,0,2,0,0,0,0,0,0,0,0,16492,0,0,0,0,0,0,0,0,0,2.5,0
10399,-3.34228e-12,7.97684e-38,-1.60068e-06,-3.40794e-12,7.97637e-38,0,-1.13791e-13,0,0,-3.69551,-0.154431,0.407703,0,0,0,0,0,0,0,283,-51,283,-51,402,-46,269,71,0,-0.349066,3.11796,-1.5,3.94113e+12,0,0,2,0,0,0,0,0,0,0,0,16492,0,0,0,0,0,0,0,0,0,2.5,0
10413,-3.34228e-12,7.97684e-38,-1.60068e-06,-3.40794e-12,7.97637e-38,0,-1.13792e-13,0,0,-3.65049,-0.166113,0.396348,0,0,0,0,0,0,0,283,-51,283,-51,408,-48,269,67,0,-0.349066,3.11862,-1.5,3.94113e+12,0,0,2,0,0,0,0,0,0,0,0,17236,0,0,0,0,0,0,0,0,0,2.5,0
10427,-3.34228e-12,7.97684e-38,-1.60068e-06,-3.40794e-12,7.97637e-38,0,-1.13792e-13,0,0,-3.65049,-0.166113,0.396348,0,0,0,0,0,0,0,283,-51,283,-51,408,-48,269,67,0,-0.349066,3.11925,-1.5,3.94113e+12,0,0,2,0,0,0,0,0,0,0,0,17236,0,0,0,0,0,0,0,0,0,2.5,0
10441,-3.34228e-12,7.97684e-38,-1.60068e-06,-3.40794e-12,7.97637e-38,0,-1.13793e-13,0,0,-3.75906,-0.166712,0.44754,0,0,0,0,0,0,0,284,-51,284,-51,402,-45,272,68,0,-0.349066,3.11987,-1.5,3.94113e+12,0,0,2,0,0,0,0,0,0,0,0,16120,0,0,0,0,0,0,0,0,0,2.5,0
10456,-3.34228e-12,7.97684e-38,-1.60068e-06,-3.40794e-12,7.97637e-38,0,-1.13793e-13,0,0,-3.75906,-0.166712,0.44754,0,0,0,0,0,0,0,284,-51,284,-51,402,-45,272,68,0,-0.349066,3.12052,-1.5,3.94113e+12,0,0,2,0,0,0,0,0,0,0,0,16120,0,0,0,0,0,0,0,0,0,2.5,0
10472,-3.34228e-12,7.97684e-38,-1.60068e-06,-3.40794e-12,7.97637e-38,0,-1.13794e-13,0,0,-3.78875,-0.166338,0.456856,0,0,0,0,0,0,0,284,-51,284,-51,402,-43,273,67,0,-0.349066,3.12118,-1.5,3.94113e+12,0,0,2,0,0,0,0,0,0,0,0,16254,0,0,0,0,0,0,0,0,0,2.5,0
10487,-3.34228e-12,7.97684e-38,-1.60068e-06,-3.40794e-12,7.97637e-38,0,-1.13794e-13,0,0,-3.78875,-0.166338,0.456856,0,0,0,0,0,0,0,284,-51,284,-51,402,-43,273,67,0,-0.349066,3.12179,-1.5,3.94113e+12,0,0,2,0,0,0,0,0,0,0,0,16254,0,0,0,0,0,0,0,0,0,2.5,0
10503,-3.34228e-12,7.97684e-38,-1.60068e-06,-3.40794e-12,7.97637e-38,0,-1.13795e-13,0,0,-3.75251,-0.175813,0.44859,0,0,0,0,0,0,0,284,-51,284,-51,405,-45,273,66,0,-0.349066,3.12242,-1.5,3.94113e+12,0,0,2,0,0,0,0,0,0,0,0,16368,0,0,0,0,0,0,0,0,0,2.5,0
10518,-3.34228e-12,7.97684e-38,-1.60068e-06,-3.40794e-12,7.97637e-38,0,-1.13795e-13,0,0,-3.75251,-0.175813,0.44859,0,0,0,0,0,0,0,284,-51,284,-51,405,-45,273,66,0,-0.349066,3.12299,-1.5,3.94113e+12,0,0,2,0,0,0,0,0,0,0,0,16368,0,0,0,0,0,0,0,0,0,2.5,0
10534,-3.34228e-12,7.97684e-38,-1.60068e-06,-3.40794e-12,7.97637e-38,0,-1.13796e-13,0,0,-3.74836,-0.176175,0.437092,0,0,0,0,0,0,0,284,-51,284,-51,405,-43,273,66,0,-0.349066,3.12357,-1.5,3.94113e+12,0,0,2,0,0,0,0,0,0,0,0,16632,0,0,0,0,0,0,0,0,0,2.5,0
10549,-3.34228e-12,7.97684e-38,-1.60068e-06,-3.40794e-12,7.97637e-38,0,-1.13796e-13,0,0,-3.74836,-0.176175,0.437092,0,0,0,0,0,0,0,284,-51,284,-51,405,-43,273,66,0,-0.349066,3.12411,-1.5,3.94113e+12,0,0,2,0,0,0,0,0,0,0,0,16632,0,0,0,0,0,0,0,0,0,2.5,0
10565,-3.34228e-12,7.97684e-38,-1.60068e-06,-3.40794e-12,7.97637e-38,0,-1.13797e-13,0,0,-3.74836,-0.176175,0.437092,0,0,0,0,0,0,0,284,-51,284,-51,405,-43,273,66,0,-0.349066,3.12466,-1.5,3.94113e+12,0,0,2,0,0,0,0,0,0,0,0,16632,0,0,0,0,0,0,0,0,0,2.5,0
10580,-3.34228e-12,7.97684e-38,-1.60068e-06,-3.40794e-12,7.97637e-38,0,-1.13798e-13,0,0,-3.75233,-0.168085,0.428101,0,0,0,0,0,0,0,283,-45,283,-45,404,-46,272,67,0,-0.349066,3.12516,-1.5,3.94113e+12,0,0,2,0,0,0,0,0,0,0,0,16104,0,0,0,0,0,0,0,0,0,2.5,0
10595,-3.34228e-12,7.97684e-38,-1.60068e-06,-3.40794e-12,7.97637e-38,0,-1.13798e-13,0,0,-3.75233,-0.168085,0.428101,0,0,0,0,0,0,0,283,-45,283,-45,404,-46,272,67,0,-0.349066,3.12565,-1.5,3.94113e+12,0,0,2,0,0,0,0,0,0,0,0,16104,0,0,0,0,0,0,0,0,0,2.5,0
10611,-3.34228e-12,7.97684e-38,-1.60068e-06,-3.40794e-12,7.97637e-38,0,-1.13799e-13,0,0,-3.74697,-0.173497,0.438822,0,0,0,0,0,0,0,284,-51,284,-51,405,-43,272,67,0,-0.349066,3.12616,-1.5,3.94113e+12,0,0,2,0,0,0,0,0,0,0,0,16492,0,0,0,0,0,0,0,0,0,2.5,0
10626,-3.34228e-12,7.97684e-38,-1.60068e-06,-3.40794e-12,7.97637e-38,0,-1.13799e-13,0,0,-3.74697,-0.173497,0.438822,0,0,0,0,0,0,0,284,-51,284,-51,405,-43,272,67,0,-0.349066,3.12661,-1.5,3.94113e+12,0,0,2,0,0,0,0,0,0,0,0,16492,0,0,0,0,0,0,0,0,0,2.5,0
10642,-3.34228e-12,7.97684e-38,-1.60068e-06,-3.40794e-12,7.97637e-38,0,-1.138e-13,0,0,-3.70425,-0.155223,0.426178,0,0,0,0,0,0,0,283,-51,283,-51,403,-48,269,66,0,-0.349066,3.12706,-1.5,3.94113e+12,0,0,2,0,0,0,0,0,0,0,0,16750,0,0,0,0,0,0,0,0,0,2.5,0
10657,-3.34228e-12,7.97684e-38,-1.60068e-06,-3.40794e-12,7.97637e-38,0,-1.138e-13,0,0,-3.70425,-0.155223,0.426178,0,0,0,0,0,0,0,283,-51,283,-51,403,-48,269,66,0,-0.349066,3.12749,-1.5,3.94113e+12,0,0,2,0,0,0,0,0,0,0,0,16750,0,0,0,0,0,0,0,0,0,2.5,0
10671,-3.34228e-12,7.97684e-38,-1.60068e-06,-3.40794e-12,7.97637e-38,0,-1.13801e-13,0,0,-3.71327,-0.155551,0.424606,0,0,0,0,0,0,0,283,-51,283,-51,402,-46,269,68,0,-0.349066,3.12785,-1.5,3.94113e+12,0,0,2,0,0,0,0,0,0,0,0,16492,0,0,0,0,0,0,0,0,0,2.5,0
10684,-3.34228e-12,7.97684e-38,-1.60068e-06,-3.40794e-12,7.97637e-38,0,-1.13801e-13,0,0,-3.71327,-0.155551,0.424606,0,0,0,0,0,0,0,283,-51,283,-51,402,-46,269,68,0,-0.349066,3.12821,-1.5,3.94113e+12,0,0,2,0,0,0,0,0,0,0,0,16492,0,0,0,0,0,0,0,0,0,2.5,0
10700,-3.34228e-12,7.97684e-38,-1.60068e-06,-3.40794e-12,7.97637e-38,0,-1.13802e-13,0,0,-3.71327,-0.155551,0.424606,0,0,0,0,0,0,0,283,-51,283,-51,402,-46,269,68,0,-0.349066,3.12863,-1.5,3.94113e+12,0,0,2,0,0,0,0,0,0,0,0,16492,0,0,0,0,0,0,0,0,0,2.5,0
10715,-3.34228e-12,7.97684e-38,-1.60068e-06,-3.40794e-12,7.97637e-38,0,-1.13802e-13,0,0,-3.71827,-0.165609,0.425547,0,0,0,0,0,0,0,284,-51,284,-51,405,-43,269,66,0,-0.349066,3.12901,-1.5,3.94113e+12,0,0,2,0,0,0,0,0,0,0,0,16864,0,0,0,0,0,0,0,0,0,2.5,0
10730,-3.34228e-12,7.97684e-38,-1.60068e-06,-3.40794e-12,7.97637e-38,0,-1.13803e-13,0,0,-3.71827,-0.165609,0.425547,0,0,0,0,0,0,0,284,-51,284,-51,405,-43,269,66,0,-0.349066,3.12939,-1.5,3.94113e+12,0,0,2,0,0,0,0,0,0,0,0,16864,0,0,0,0,0,0,0,0,0,2.5,0
10746,-3.34228e-12,7.97684e-38,-1.60068e-06,-3.40794e-12,7.97637e-38,0,-1.13803e-13,0,0,-3.7524,-0.173876,0.444212,0,0,0,0,0,0,0,284,-51,284,-51,405,-43,272,66,0,-0.349066,3.12975,-1.5,3.94113e+12,0,0,2,0,0,0,0,0,0,0,0,16492,0,0,0,0,0,0,0,0,0,2.5,0
10761,-3.34228e-12,7.97684e-38,-1.60068e-06,-3.40794e-12,7.97637e-38,0,-1.13804e-13,0,0,-3.7524,-0.173876,0.444212,0,0,0,0,0,0,0,284,-51,284,-51,405,-43,272,66,0,-0.349066,3.13012,-1.5,3.94113e+12,0,0,2,0,0,0,0,0,0,0,0,16492,0,0,0,0,0,0,0,0,0,2.5,0
10777,-3.34228e-12,7.97684e-38,-1.60068e-06,-3.40794e-12,7.97637e-38,0,-1.13805e-13,0,0,-3.74681,-0.175385,0.447619,0,0,0,0,0,0,0,284,-51,284,-51,405,-46,273,66,0,-0.349066,3.13046,-1.5,3.94113e+12,0,0,2,0,0,0,0,0,0,0,0,16368,0,0,0,0,0,0,0,0,0,2.5,0
10792,-3.34228e-12,7.97684e-38,-1.60068e-06,-3.40794e-12,7.97637e-38,0,-1.13805e-13,0,0,-3.74681,-0.175385,0.447619,0,0,0,0,0,0,0,284,-51,284,-51,405,-46,273,66,0,-0.349066,3.13082,-1.5,3.94113e+12,0,0,2,0,0,0,0,0,0,0,0,16368,0,0,0,0,0,0,0,0,0,2.5,0
10808,-3.34228e-12,7.97684e-38,-1.60068e-06,-3.40794e-12,7.97637e-38,0,-1.13806e-13,0,0,-3.75152,-0.170231,0.430141,0,0,0,0,0,0,0,283,-45,283,-45,404,-46,272,67,0,-0.349066,3.13114,-1.5,3.94113e+12,0,0,2,0,0,0,0,0,0,0,0,15972,0,0,0,0,0,0,0,0,0,2.5,0
10823,-3.34228e-12,7.97684e-38,-1.60068e-06,-3.40794e-12,7.97637e-38,0,-1.13806e-13,0,0,-3.75152,-0.170231,0.430141,0,0,0,0,0,0,0,283,-45,283,-45,404,-46,272,67,0,-0.349066,3.13147,-1.5,3.94113e+12,0,0,2,0,0,0,0,0,0,0,0,15972,0,0,0,0,0,0,0,0,0,2.5,0
10839,-3.34228e-12,7.97684e-38,-1.60068e-06,-3.40794e-12,7.97637e-38,0,-1.13807e-13,0,0,-3.75254,-0.175979,0.443391,0,0,0,0,0,0,0,286,-51,286,-51,405,-46,273,66,0,-0.349066,3.13179,-1.5,3.94113e+12,0,0,2,0,0,0,0,0,0,0,0,16764,0,0,0,0,0,0,0,0,0,2.5,0
10854,-3.34228e-12,7.97684e-38,-1.60068e-06,-3.40794e-12,7.97637e-38,0,-1.13807e-13,0,0,-3.75254,-0.175979,0.443391,0,0,0,0,0,0,0,286,-51,286,-51,405,-46,273,66,0,-0.349066,3.13208,-1.5,3.94113e+12,0,0,2,0,0,0,0,0,0,0,0,16764,0,0,0,0,0,0,0,0,0,2.5,0
10870,-3.34228e-12,7.97684e-38,-1.60068e-06,-3.40794e-12,7.97637e-38,0,-1.13808e-13,0,0,-3.76,-0.168311,0.434723,0,0,0,0,0,0,0,283,-45,283,-45,404,-46,272,67,0,-0.349066,3.13238,-1.5,3.94113e+12,0,0,2,0,0,0,0,0,0,0,0,15972,0,0,0,0,0,0,0,0,0,2.5,0
10885,-3.34228e-12,7.97684e-38,-1.60068e-06,-3.40794e-12,7.97637e-38,0,-1.13808e-13,0,0,-3.76,-0.168311,0.434723,0,0,0,0,0,0,0,283,-45,283,-45,404,-46,272,67,0,-0.349066,3.13265,-1.5,3.94113e+12,0,0,2,0,0,0,0,0,0,0,0,15972,0,0,0,0,0,0,0,0,0,2.5,0
10901,-3.34228e-12,7.97684e-38,-1.60068e-06,-3.40794e-12,7.97637e-38,0,-1.13809e-13,0,0,-3.76,-0.168311,0.434723,0,0,0,0,0,0,0,283,-45,283,-45,404,-46,272,67,0,-0.349066,3.13293,-1.5,3.94113e+12,0,0,2,0,0,0,0,0,0,0,0,15972,0,0,0,0,0,0,0,0,0,2.5,0
10914,-3.34228e-12,7.97684e-38,-1.60068e-06,-3.40794e-12,7.97637e-38,0,-1.13809e-13,0,0,-3.72183,-0.188018,0.426818,0,0,0,0,0,0,0,287,-51,287,-51,405,-46,273,67,0,-0.349066,3.13316,-1.5,3.94113e+12,0,0,2,0,0,0,0,0,0,0,0,16632,0,0,0,0,0,0,0,0,0,2.5,0
10927,-3.34228e-12,7.97684e-38,-1.60068e-06,-3.40794e-12,7.97637e-38,0,-1.1381e-13,0,0,-3.72183,-0.188018,0.426818,0,0,0,0,0,0,0,287,-51,287,-51,405,-46,273,67,0,-0.349066,3.13337,-1.5,3.94113e+12,0,0,2,0,0,0,0,0,0,0,0,16632,0,0,0,0,0,0,0,0,0,2.5,0
10943,-3.34228e-12,7.97684e-38,-1.60068e-06,-3.40794e-12,7.97637e-38,0,-1.13811e-13,0,0,-3.67631,-0.18894,0.385695,0,0,0,0,0,0,0,287,-51,287,-51,408,-43,272,67,0,-0.349066,3.13363,-1.5,3.94113e+12,0,0,2,0,0,0,0,0,0,0,0,17680,0,0,0,0,0,0,0,0,0,2.5,0
10958,-3.34228e-12,7.97684e-38,-1.60068e-06,-3.40794e-12,7.97637e-38,0,-1.13811e-13,0,0,-3.67631,-0.18894,0.385695,0,0,0,0,0,0,0,287,-51,287,-51,408,-43,272,67,0,-0.349066,3.13387,-1.5,3.94113e+12,0,0,2,0,0,0,0,0,0,0,0,17680,0,0,0,0,0,0,0,0,0,2.5,0
10974,-3.34228e-12,7.97684e-38,-1.60068e-06,-3.40794e-12,7.97637e-38,0,-1.13812e-13,0,0,-3.7156,-0.190891,0.410228,0,0,0,0,0,0,0,284,-51,284,-51,408,-40,274,67,0,-0.349066,3.13411,-1.5,3.94113e+12,0,0,2,0,0,0,0,0,0,0,0,16884,0,0,0,0,0,0,0,0,0,2.5,0
10990,-3.34228e-12,7.97684e-38,-1.60068e-06,-3.40794e-12,7.97637e-38,0,-1.13812e-13,0,0,-3.7156,-0.190891,0.410228,0,0,0,0,0,0,0,284,-51,284,-51,408,-40,274,67,0,-0.349066,3.13434,-1.5,3.94113e+12,0,0,2,0,0,0,0,0,0,0,0,16884,0,0,0,0,0,0,0,0,0,2.5,0
11005,-3.34228e-12,7.97684e-38,-1.60068e-06,-3.40794e-12,7.97637e-38,0,-1.13813e-13,0,0,-3.75806,-0.19891,0.449038,0,0,0,0,0,0,0,287,-49,287,-49,408,-47,276,64,0,-0.349066,3.13457,-1.5,3.94113e+12,0,0,2,0,0,0,0,0,0,0,0,16500,0,0,0,0,0,0,0,0,0,2.5,0
11021,-3.34228e-12,7.97684e-38,-1.60068e-06,-3.40794e-12,7.97637e-38,0,-1.13813e-13,0,0,-3.75806,-0.19891,0.449038,0,0,0,0,0,0,0,287,-49,287,-49,408,-47,276,64,0,-0.349066,3.13479,-1.5,3.94113e+12,0,0,2,0,0,0,0,0,0,0,0,16500,0,0,0,0,0,0,0,0,0,2.5,0
11038,-3.34228e-12,7.97684e-38,-1.60068e-06,-3.40794e-12,7.97637e-38,0,-1.13814e-13,0,0,-3.76581,-0.208532,0.465094,0,0,0,0,0,0,0,289,-51,289,-51,408,-47,276,64,0,-0.349066,3.13502,-1.5,3.94113e+12,0,0,2,0,0,0,0,0,0,0,0,16368,0,0,0,0,0,0,0,0,0,2.5,0
11053,-3.34228e-12,7.97684e-38,-1.60068e-06,-3.40794e-12,7.97637e-38,0,-1.13814e-13,0,0,-3.76581,-0.208532,0.465094,0,0,0,0,0,0,0,289,-51,289,-51,408,-47,276,64,0,-0.349066,3.13521,-1.5,3.94113e+12,0,0,2,0,0,0,0,0,0,0,0,16368,0,0,0,0,0,0,0,0,0,2.5,0
11069,-3.34228e-12,7.97684e-38,-1.60068e-06,-3.40794e-12,7.97637e-38,0,-1.13815e-13,0,0,-3.71043,-0.196633,0.418233,0,0,0,0,0,0,0,287,-51,287,-51,408,-45,274,67,0,-0.349066,3.13541,-1.5,3.94113e+12,0,0,2,0,0,0,0,0,0,0,0,16884,0,0,0,0,0,0,0,0,0,2.5,0
11085,-3.34228e-12,7.97684e-38,-1.60068e-06,-3.40794e-12,7.97637e-38,0,-1.13815e-13,0,0,-3.71043,-0.196633,0.418233,0,0,0,0,0,0,0,287,-51,287,-51,408,-45,274,67,0,-0.349066,3.1356,-1.5,3.94113e+12,0,0,2,0,0,0,0,0,0,0,0,16884,0,0,0,0,0,0,0,0,0,2.5,0
11100,-3.34228e-12,7.97684e-38,-1.60068e-06,-3.40794e-12,7.97637e-38,0,-1.13816e-13,0,0,-3.70679,-0.179302,0.420066,0,0,0,0,0,0,0,286,-53,286,-53,405,-46,273,64,0,-0.349066,3.13579,-1.5,3.94113e+12,0,0,2,0,0,0,0,0,0,0,0,17424,0,0,0,0,0,0,0,0,0,2.5,0
11116,-3.34228e-12,7.97684e-38,-1.60068e-06,-3.40794e-12,7.97637e-38,0,-1.13817e-13,0,0,-3.70679,-0.179302,0.420066,0,0,0,0,0,0,0,286,-53,286,-53,405,-46,273,64,0,-0.349066,3.13597,-1.5,3.94113e+12,0,0,2,0,0,0,0,0,0,0,0,17424,0,0,0,0,0,0,0,0,0,2.5,0
11131,-3.34228e-12,7.97684e-38,-1.60068e-06,-3.40794e-12,7.97637e-38,0,-1.13817e-13,0,0,-3.70679,-0.179302,0.420066,0,0,0,0,0,0,0,286,-53,286,-53,405,-46,273,64,0,-0.349066,3.13614,-1.5,3.94113e+12,0,0,2,0,0,0,0,0,0,0,0,17424,0,0,0,0,0,0,0,0,0,2.5,0
11146,-3.34228e-12,7.97684e-38,-1.60068e-06,-3.40794e-12,7.97637e-38,0,-1.13818e-13,0,0,-3.78336,-0.175741,0.458444,0,0,0,0,0,0,0,282,-51,282,-51,405,-43,276,64,0,-0.349066,3.1363,-1.5,3.94113e+12,0,0,2,0,0,0,0,0,0,0,0,16383,0,0,0,0,0,0,0,0,0,2.5,0
11162,-3.34228e-12,7.97684e-38,-1.60068e-06,-3.40794e-12,7.97637e-38,0,-1.13818e-13,0,0,-3.78336,-0.175741,0.458444,0,0,0,0,0,0,0,282,-51,282,-51,405,-43,276,64,0,-0.349066,3.13647,-1.5,3.94113e+12,0,0,2,0,0,0,0,0,0,0,0,16383,0,0,0,0,0,0,0,0,0,2.5,0
11175,-3.34228e-12,7.97684e-38,-1.60068e-06,-3.40794e-12,7.97637e-38,0,-1.13819e-13,0,0,-3.71603,-0.163182,0.424244,0,0,0,0,0,0,0,282,-51,282,-51,405,-43,270,66,0,-0.349066,3.1366,-1.5,3.94113e+12,0,0,2,0,0,0,0,0,0,0,0,16740,0,0,0,0,0,0,0,0,0,2.5,0
11189,-3.34228e-12,7.97684e-38,-1.60068e-06,-3.40794e-12,7.97637e-38,0,-1.13819e-13,0,0,-3.71603,-0.163182,0.424244,0,0,0,0,0,0,0,282,-51,282,-51,405,-43,270,66,0,-0.349066,3.13673,-1.5,3.94113e+12,0,0,2,0,0,0,0,0,0,0,0,16740,0,0,0,0,0,0,0,0,0,2.5,0
11204,-3.34228e-12,7.97684e-38,-1.60068e-06,-3.40794e-12,7.97637e-38,0,-1.1382e-13,0,0,-3.75743,-0.176137,0.458291,0,0,0,0,0,0,0,284,-51,284,-51,405,-46,273,64,0,-0.349066,3.13688,-1.5,3.94113e+12,0,0,2,0,0,0,0,0,0,0,0,16368,0,0,0,0,0,0,0,0,0,2.5,0
11220,-3.34228e-12,7.97684e-38,-1.60068e-06,-3.40794e-12,7.97637e-38,0,-1.1382e-13,0,0,-3.75743,-0.176137,0.458291,0,0,0,0,0,0,0,284,-51,284,-51,405,-46,273,64,0,-0.349066,3.13703,-1.5,3.94113e+12,0,0,2,0,0,0,0,0,0,0,0,16368,0,0,0,0,0,0,0,0,0,2.5,0
11236,-3.34228e-12,7.97684e-38,-1.60068e-06,-3.40794e-12,7.97637e-38,0,-1.13821e-13,0,0,-3.75743,-0.176137,0.458291,0,0,0,0,0,0,0,284,-51,284,-51,405,-46,273,64,0,-0.349066,3.13717,-1.5,3.94113e+12,0,0,2,0,0,0,0,0,0,0,0,16368,0,0,0,0,0,0,0,0,0,2.5,0
11251,-3.34228e-12,7.97684e-38,-1.60068e-06,-3.40794e-12,7.97637e-38,0,-1.13821e-13,0,0,-3.75743,-0.176137,0.458291,0,0,0,0,0,0,0,284,-51,284,-51,405,-46,273,64,0,-0.349066,3.13731,-1.5,3.94113e+12,0,0,2,0,0,0,0,0,0,0,0,16368,0,0,0,0,0,0,0,0,0,2.5,0
11267,-3.34228e-12,7.97684e-38,-1.60068e-06,-3.40794e-12,7.97637e-38,0,-1.13822e-13,0,0,-3.75743,-0.176137,0.458291,0,0,0,0,0,0,0,284,-51,284,-51,405,-46,273,64,0,-0.349066,3.13744,-1.5,3.94113e+12,0,0,2,0,0,0,0,0,0,0,0,16368,0,0,0,0,0,0,0,0,0,2.5,0
11282,-3.34228e-12,7.97684e-38,-1.60068e-06,-3.40794e-12,7.97637e-38,0,-1.13822e-13,0,0,-3.75216,-0.181009,0.463804,0,0,0,0,0,0,0,283,-55,283,-55,405,-46,276,64,0,-0.349066,3.13756,-1.5,3.94113e+12,0,0,2,0,0,0,0,0,0,0,0,16512,0,0,0,0,0,0,0,0,0,2.5,0
11297,-3.34228e-12,7.97684e-38,-1.60068e-06,-3.40794e-12,7.97637e-38,0,-1.13823e-13,0,0,-3.75216,-0.181009,0.463804,0,0,0,0,0,0,0,283,-55,283,-55,405,-46,276,64,0,-0.349066,3.13768,-1.5,3.94113e+12,0,0,2,0,0,0,0,0,0,0,0,16512,0,0,0,0,0,0,0,0,0,2.5,0
11313,-3.34228e-12,7.97684e-38,-1.60068e-06,-3.40794e-12,7.97637e-38,0,-1.13824e-13,0,0,-3.75635,-0.184988,0.459658,0,0,0,0,0,0,0,283,-51,283,-51,407,-47,276,64,0,-0.349066,3.13781,-1.5,3.94113e+12,0,0,2,0,0,0,0,0,0,0,0,16244,0,0,0,0,0,0,0,0,0,2.5,0
11328,-3.34228e-12,7.97684e-38,-1.60068e-06,-3.40794e-12,7.97637e-38,0,-1.13824e-13,0,0,-3.75635,-0.184988,0.459658,0,0,0,0,0,0,0,283,-51,283,-51,407,-47,276,64,0,-0.349066,3.13792,-1.5,3.94113e+12,0,0,2,0,0,0,0,0,0,0,0,16244,0,0,0,0,0,0,0,0,0,2.5,0
11344,-3.34228e-12,7.97684e-38,-1.60068e-06,-3.40794e-12,7.97637e-38,0,-1.13825e-13,0,0,-3.66563,-0.164904,0.402461,0,0,0,0,0,0,0,282,-51,282,-51,408,-47,270,66,0,-0.349066,3.13803,-1.5,3.94113e+12,0,0,2,0,0,0,0,0,0,0,0,17250,0,0,0,0,0,0,0,0,0,2.5,0
11359,-3.34228e-12,7.97684e-38,-1.60068e-06,-3.40794e-12,7.97637e-38,0,-1.13825e-13,0,0,-3.66563,-0.164904,0.402461,0,0,0,0,0,0,0,282,-51,282,-51,408,-47,270,66,0,-0.349066,3.13813,-1.5,3.94113e+12,0,0,2,0,0,0,0,0,0,0,0,17250,0,0,0,0,0,0,0,0,0,2.5,0
11374,-3.34228e-12,7.97684e-38,-1.60068e-06,-3.40794e-12,7.97637e-38,0,-1.13826e-13,0,0,-3.73302,-0.165713,0.446178,0,0,0,0,0,0,0,283,-53,283,-53,403,-48,273,66,0,-0.349066,3.13824,-1.5,3.94113e+12,0,0,2,0,0,0,0,0,0,0,0,16510,0,0,0,0,0,0,0,0,0,2.5,0
11390,-3.34228e-12,7.97684e-38,-1.60068e-06,-3.40794e-12,7.97637e-38,0,-1.13826e-13,0,0,-3.73302,-0.165713,0.446178,0,0,0,0,0,0,0,283,-53,283,-53,403,-48,273,66,0,-0.349066,3.13834,-1.5,3.94113e+12,0,0,2,0,0,0,0,0,0,0,0,16510,0,0,0,0,0,0,0,0,0,2.5,0
11409,-3.34228e-12,7.97684e-38,-1.60068e-06,-3.40794e-12,7.97637e-38,0,-1.13827e-13,0,0,-3.67636,-0.147169,0.413142,0,0,0,0,0,0,0,279,-51,279,-51,403,-48,269,66,0,-0.349066,3.13846,-1.5,3.94113e+12,0,0,2,0,0,0,0,0,0,0,0,16616,0,0,0,0,0,0,0,0,0,2.5,0
11423,-3.34228e-12,7.97684e-38,-1.60068e-06,-3.40794e-12,7.97637e-38,0,-1.13827e-13,0,0,-3.67636,-0.147169,0.413142,0,0,0,0,0,0,0,279,-51,279,-51,403,-48,269,66,0,-0.349066,3.13855,-1.5,3.94113e+12,0,0,2,0,0,0,0,0,0,0,0,16616,0,0,0,0,0,0,0,0,0,2.5,0
11436,-3.34228e-12,7.97684e-38,-1.60068e-06,-3.40794e-12,7.97637e-38,0,-1.13828e-13,0,0,-3.70789,-0.175979,0.423831,0,0,0,0,0,0,0,282,-51,282,-51,408,-45,273,66,0,-0.349066,3.13863,-1.5,3.94113e+12,0,0,2,0,0,0,0,0,0,0,0,16740,0,0,0,0,0,0,0,0,0,2.5,0
11451,-3.34228e-12,7.97684e-38,-1.60068e-06,-3.40794e-12,7.97637e-38,0,-1.13828e-13,0,0,-3.70789,-0.175979,0.423831,0,0,0,0,0,0,0,282,-51,282,-51,408,-45,273,66,0,-0.349066,3.13872,-1.5,3.94113e+12,0,0,2,0,0,0,0,0,0,0,0,16740,0,0,0,0,0,0,0,0,0,2.5,0
11467,-3.34228e-12,7.97684e-38,-1.60068e-06,-3.40794e-12,7.97637e-38,0,-1.13829e-13,0,0,-3.78997,-0.164347,0.467281,0,0,0,0,0,0,0,282,-51,282,-51,402,-43,273,64,0,-0.349066,3.13881,-1.5,3.94113e+12,0,0,2,0,0,0,0,0,0,0,0,16125,0,0,0,0,0,0,0,0,0,2.5,0
11483,-3.34228e-12,7.97684e-38,-1.60068e-06,-3.40794e-12,7.97637e-38,0,-1.1383e-13,0,0,-3.78997,-0.164347,0.467281,0,0,0,0,0,0,0,282,-51,282,-51,402,-43,273,64,0,-0.349066,3.13889,-1.5,3.94113e+12,0,0,2,0,0,0,0,0,0,0,0,16125,0,0,0,0,0,0,0,0,0,2.5,0
11498,-3.34228e-12,7.97684e-38,-1.60068e-06,-3.40794e-12,7.97637e-38,0,-1.1383e-13,0,0,-3.78997,-0.164347,0.467281,0,0,0,0,0,0,0,282,-51,282,-51,402,-43,273,64,0,-0.349066,3.13898,-1.5,3.94113e+12,0,0,2,0,0,0,0,0,0,0,0,16125,0,0,0,0,0,0,0,0,0,2.5,0
11513,-3.34228e-12,7.97684e-38,-1.60068e-06,-3.40794e-12,7.97637e-38,0,-1.13831e-13,0,0,-3.77407,-0.177403,0.460926,0,0,0,0,0,0,0,284,-51,284,-51,405,-43,273,64,0,-0.349066,3.13905,-1.5,3.94113e+12,0,0,2,0,0,0,0,0,0,0,0,16368,0,0,0,0,0,0,0,0,0,2.5,0
11529,-3.34228e-12,7.97684e-38,-1.60068e-06,-3.40794e-12,7.97637e-38,0,-1.13831e-13,0,0,-3.77407,-0.177403,0.460926,0,0,0,0,0,0,0,284,-51,284,-51,405,-43,273,64,0,-0.349066,3.13913,-1.5,3.94113e+12,0,0,2,0,0,0,0,0,0,0,0,16368,0,0,0,0,0,0,0,0,0,2.5,0
11544,-3.34228e-12,7.97684e-38,-1.60068e-06,-3.40794e-12,7.97637e-38,0,-1.13832e-13,0,0,-3.7377,-0.170066,0.446936,0,0,0,0,0,0,0,283,-51,283,-51,404,-48,273,66,0,-0.349066,3.13921,-1.5,3.94113e+12,0,0,2,0,0,0,0,0,0,0,0,16244,0,0,0,0,0,0,0,0,0,2.5,0
