timestamp,A_x,A_y,A_z,P,Q,R,Phi,Theta,Psi,poseX,poseY,poseZ,state_X,state_Y,state_Z,state_VzB,state_Bx,state_By,state_Bz,p1_x,p1_y,p2_x,p2_y,p3_x,p3_y,p4_x,p4_y,roll,pitch,yaw,alt,targetHeading,highLevelState,lowLevelState,gateNumber,filtered_x,filtered_y,x_OT,y_OT,vx_OT,vy_OT,filtered_vx,filtered_vygateArearansac_corr_x,ransac_corr_y,ransac_corr_vx,ransac_corr_vy,detectionTimeStamp
7369,0,0,0,0,0,0,0,0,0,0,0,0,0,0,0,0,0,0,0,0,0,0,0,0,0,0,0,0,-0.261799,0,-1.5,3.94113e+12,0,0,0,0,0,0,0,0,0,0,0,1.9603e-19,0,0,0,0,0
7384,0,0,0,0,0,0,0,0,0,0,0,0,0,0,0,0,0,0,0,0,0,0,0,0,0,0,0,0,-0.261799,0,-1.5,3.94113e+12,0,0,0,0,0,0,0,0,0,0,0,1.9603e-19,0,0,0,0,0
8031,-3.34297e-12,1.18808e-37,-1.5923e-06,-3.40794e-12,1.18798e-37,-3.89773e-12,-1.13703e-13,0,0,0,0,0,0,0,0,0,0,0,0,0,0,0,0,0,0,0,0,0,-0.261799,0,-1.5,3.94113e+12,0,0,0,0,0,0,0,0,0,0,0,1.9603e-19,0,0,0,0,0
8073,-3.34297e-12,1.18808e-37,-1.5923e-06,-3.40794e-12,1.18798e-37,0,-1.13703e-13,0,0,0,0,0,0,0,0,0,0,0,0,0,0,0,0,0,0,0,0,0,-0.261799,0,-1.5,3.94113e+12,0,0,0,0,0,0,0,0,0,0,0,1.9603e-19,0,0,0,0,0
8330,-3.34297e-12,1.18808e-37,-1.5923e-06,-3.40794e-12,1.18798e-37,-3.89773e-12,-1.13704e-13,0,0,0,0,0,0,0,0,0,0,4,0,-1368616704,672923512,-1368616704,672923512,-1298412069,-1368616704,-1368604256,-1368604256,0,-0.261799,0,-1.5,3.94113e+12,0,0,0,0,0,0,0,0,0,0,0,0,0,0,0,0,8322
8462,-3.34297e-12,1.18808e-37,-1.5923e-06,-3.40794e-12,1.18798e-37,0,-1.13704e-13,0,0,0,0,0,0,0,0,0,0,4,0,-1368616704,672923512,-1368616704,672923512,-1298412069,-1368616704,-1368604256,-1368604256,0,-0.261799,0,-1.5,3.94113e+12,0,0,0,0,0,0,0,0,0,0,0,0,0,0,0,0,8322
8483,-3.34297e-12,1.18808e-37,-1.5923e-06,-3.40794e-12,1.18798e-37,-3.89773e-12,-1.13705e-13,0,0,0,0,0,0,0,0,0,0,4,0,-1368616704,672923512,-1368616704,672923512,-1298412069,-1368616704,-1368604256,-1368604256,0,-0.261799,0,-1.5,3.94113e+12,0,0,0,0,0,0,0,0,0,0,0,0,0,0,0,0,8322
8500,-3.34297e-12,1.18808e-37,-1.5923e-06,-3.40794e-12,1.18798e-37,0,-1.13705e-13,0,0,0,0,0,0,0,0,0,0,4,0,-1368616704,672923512,-1368616704,672923512,-1298412069,-1368616704,-1368604256,-1368604256,0,-0.261799,0,-1.5,3.94113e+12,0,0,0,0,0,0,0,0,0,0,0,0,0,0,0,0,8322
8610,-3.34297e-12,1.18808e-37,-1.5923e-06,-3.40794e-12,1.18798e-37,-3.89773e-12,-1.13706e-13,0,0,-2.98688,-0.397282,0.145366,0,0,0,0,0,1.01312,-0.397282,299,-61,299,-61,441,-75,306,73,0,-0.261799,0,-1.5,3.94113e+12,0,0,0,0,0,0,0,0,0,0,0,21016,0,0,0,0,8608
8681,-3.34297e-12,1.18808e-37,-1.5923e-06,-3.40794e-12,1.18798e-37,0,-1.13706e-13,0,0,-2.99273,-0.410418,0.156391,0,0,0,0,0,1.00727,-0.410418,303,-63,303,-63,443,-76,306,72,0,-0.261799,0,-1.5,3.94113e+12,0,0,0,0,0,0,0,0,0,0,0,20720,0,0,0,0,8675
8702,-3.34297e-12,1.18808e-37,-1.5923e-06,-3.40794e-12,1.18798e-37,-3.89773e-12,-1.13707e-13,0,0,-2.99273,-0.410418,0.156391,0,0,0,0,0,1.00727,-0.410418,303,-63,303,-63,443,-76,306,72,0,-0.261799,0,-1.5,3.94113e+12,0,0,0,0,0,0,0,0,0,0,0,20720,0,0,0,0,8675
8720,-3.34297e-12,1.18808e-37,-1.5923e-06,-3.40794e-12,1.18798e-37,0,-1.13708e-13,0,0,-2.96851,-0.392967,0.13193,0,0,0,0,0,1.03149,-0.392967,299,-63,299,-63,440,-75,306,76,0,-0.261799,0,-1.5,3.94113e+12,0,0,0,0,0,0,0,0,0,0,0,21291,0,0,0,0,8711
8992,-3.34297e-12,1.18808e-37,-1.5923e-06,-3.40794e-12,1.18798e-37,-3.89773e-12,-1.13708e-13,0,0,-2.9887,-0.397971,0.150232,0,0,0,0,0,1.0113,-0.397971,299,-63,299,-63,440,-75,307,73,0.261799,-0.261799,0,-1.5,3.94113e+12,0,0,0,1.10676,-0.364975,0,0,0,0,0.259548,0.096526,20868,1.03616,-0.39123,0.259548,0.096526,8822
9027,-3.34297e-12,1.18808e-37,-1.5923e-06,-3.40794e-12,1.18798e-37,0,-1.13709e-13,0,0,-2.9887,-0.397971,0.150232,0,0,0,0,0,1.0113,-0.397971,299,-63,299,-63,440,-75,307,73,0.261799,-0.261799,0,-1.5,3.94113e+12,0,0,0,1.11558,-0.361693,0,0,0,0,0.259548,0.096526,20868,1.03616,-0.39123,0.259548,0.096526,8822
9281,-3.34297e-12,1.18808e-37,-1.5923e-06,-3.40794e-12,1.18798e-37,-3.89773e-12,-1.13709e-13,0,0,-2.97804,-0.396498,0.143895,0,0,0,0,0,1.02196,-0.396498,299,-63,299,-63,441,-75,306,73,0.261799,-0.261799,0,-1.5,3.94113e+12,0,0,0,1.03084,-0.39527,0,0,0,0,0.0348251,0.00481452,21016,1.02196,-0.396498,0.0348251,0.00481452,9122
9298,-3.34297e-12,1.18808e-37,-1.5923e-06,-3.40794e-12,1.18798e-37,0,-1.1371e-13,0,0,-2.97804,-0.396498,0.143895,0,0,0,0,0,1.02196,-0.396498,299,-63,299,-63,441,-75,306,73,0.261799,-0.261799,0,-1.5,3.94113e+12,0,0,0,1.03143,-0.395188,0,0,0,0,0.0348251,0.00481452,21016,1.02196,-0.396498,0.0348251,0.00481452,9122
9347,-3.34297e-12,1.18808e-37,-1.5923e-06,-3.40794e-12,1.18798e-37,-3.89773e-12,-1.1371e-13,0,0,-2.97804,-0.396498,0.143895,0,0,0,0,0,1.02196,-0.396498,299,-63,299,-63,441,-75,306,73,0.261799,-0.261799,0,-1.5,3.94113e+12,0,0,0,1.03314,-0.394952,0,0,0,0,0.0348251,0.00481452,21016,1.02196,-0.396498,0.0348251,0.00481452,9122
9384,-3.34297e-12,1.18808e-37,-1.5923e-06,-3.40794e-12,1.18798e-37,0,-1.13711e-13,0,0,-2.97804,-0.396498,0.143895,0,0,0,0,0,1.02196,-0.396498,299,-63,299,-63,441,-75,306,73,0.261799,-0.261799,0,-1.5,3.94113e+12,0,0,0,1.03443,-0.394774,0,0,0,0,0.0348251,0.00481452,21016,1.02196,-0.396498,0.0348251,0.00481452,9122
9400,-3.34297e-12,1.18808e-37,-1.5923e-06,-3.40794e-12,1.18798e-37,-3.89773e-12,-1.13711e-13,0,0,-2.97804,-0.396498,0.143895,0,0,0,0,0,1.02196,-0.396498,299,-63,299,-63,441,-75,306,73,0.261799,-0.261799,0,-1.5,3.94113e+12,0,0,0,1.03498,-0.394697,0,0,0,0,0.0348251,0.00481452,21016,1.02196,-0.396498,0.0348251,0.00481452,9122
9436,-3.34297e-12,1.18808e-37,-1.5923e-06,-3.40794e-12,1.18798e-37,0,-1.13712e-13,0,0,-2.97804,-0.396498,0.143895,0,0,0,0,0,1.02196,-0.396498,299,-63,299,-63,441,-75,306,73,0.261799,-0.261799,0,-1.5,3.94113e+12,0,0,0,1.03624,-0.394524,0,0,0,0,0.0348251,0.00481452,21016,1.02196,-0.396498,0.0348251,0.00481452,9122
9453,-3.34297e-12,1.18808e-37,-1.5923e-06,-3.40794e-12,1.18798e-37,-3.89773e-12,-1.13712e-13,0,0,-2.97804,-0.396498,0.143895,0,0,0,0,0,1.02196,-0.396498,299,-63,299,-63,441,-75,306,73,0.261799,-0.261799,0,-1.5,3.94113e+12,0,0,0,1.03683,-0.394442,0,0,0,0,0.0348251,0.00481452,21016,1.02196,-0.396498,0.0348251,0.00481452,9122
9469,-3.34297e-12,1.18808e-37,-1.5923e-06,-3.40794e-12,1.18798e-37,0,-1.13713e-13,0,0,-2.97804,-0.396498,0.143895,0,0,0,0,0,1.02196,-0.396498,299,-63,299,-63,441,-75,306,73,0.261799,-0.261799,0,-1.5,3.94113e+12,0,0,0,1.03739,-0.394365,0,0,0,0,0.0348251,0.00481452,21016,1.02196,-0.396498,0.0348251,0.00481452,9122
9540,-3.34297e-12,1.18808e-37,-1.5923e-06,-3.40794e-12,1.18798e-37,-3.89773e-12,-1.13714e-13,0,0,-2.97804,-0.396498,0.143895,1.03982,-0.394028,0.034686,0.00479529,0,1.02196,-0.396498,299,-63,299,-63,441,-75,306,73,0.261799,-0.261799,0,-1.5,3.94113e+12,0,0,0,1.03982,-0.394028,0,0,0,0,0.034686,0.00479529,21016,0,0,0,0,9122
9557,-3.34297e-12,1.18808e-37,-1.5923e-06,-3.40794e-12,1.18798e-37,0,-1.13714e-13,0,0,-2.97804,-0.396498,0.143895,1.04045,-0.393942,0.0343748,0.00475227,0,1.02196,-0.396498,299,-63,299,-63,441,-75,306,73,0.261799,-0.261799,0,-1.5,3.94113e+12,0,0,0,1.04045,-0.393942,0,0,0,0,0.0343748,0.00475227,21016,0,0,0,0,9122
9610,-3.34297e-12,1.18808e-37,-1.5923e-06,-3.40794e-12,1.18798e-37,-3.89773e-12,-1.13715e-13,0,0,-2.97804,-0.396498,0.143895,1.04223,-0.393696,0.0334675,0.00462684,0,1.02196,-0.396498,299,-63,299,-63,441,-75,306,73,0.261799,-0.261799,0,-1.5,3.94113e+12,0,0,0,1.04223,-0.393696,0,0,0,0,0.0334675,0.00462684,21016,0,0,0,0,9122
9627,-3.34297e-12,1.18808e-37,-1.5923e-06,-3.40794e-12,1.18798e-37,0,-1.13715e-13,0,0,-2.97804,-0.396498,0.143895,1.04276,-0.393622,0.0332005,0.00458993,0,1.02196,-0.396498,299,-63,299,-63,441,-75,306,73,0.261799,-0.261799,0,-1.5,3.94113e+12,0,0,0,1.04276,-0.393622,0,0,0,0,0.0332005,0.00458993,21016,0,0,0,0,9122
9644,-3.34297e-12,1.18808e-37,-1.5923e-06,-3.40794e-12,1.18798e-37,-3.89773e-12,-1.13716e-13,0,0,-2.97804,-0.396498,0.143895,1.04335,-0.39354,0.0329027,0.00454874,0,1.02196,-0.396498,299,-63,299,-63,441,-75,306,73,0.261799,-0.261799,0,-1.5,3.94113e+12,0,0,0,1.04335,-0.39354,0,0,0,0,0.0329027,0.00454874,21016,0,0,0,0,9122
9665,-3.34297e-12,1.18808e-37,-1.5923e-06,-3.40794e-12,1.18798e-37,0,-1.13716e-13,0,0,-2.97804,-0.396498,0.143895,1.04404,-0.393445,0.0325583,0.00450114,0,1.02196,-0.396498,299,-63,299,-63,441,-75,306,73,0.261799,-0.261799,0,-1.5,3.94113e+12,0,0,0,1.04404,-0.393445,0,0,0,0,0.0325583,0.00450114,21016,0,0,0,0,9122
9682,-3.34297e-12,1.18808e-37,-1.5923e-06,-3.40794e-12,1.18798e-37,-3.89773e-12,-1.13717e-13,0,0,-2.96795,-0.404631,0.132921,1.04459,-0.393369,0.0322824,0.00446299,0,1.03205,-0.404631,302,-63,302,-63,442,-77,307,76,0.261799,-0.261799,0,-1.5,3.94113e+12,0,0,0,1.04459,-0.393369,0,0,0,0,0.0322824,0.00446299,21420,0,0,0,0,9678
9696,-3.34297e-12,1.18808e-37,-1.5923e-06,-3.40794e-12,1.18798e-37,0,-1.13717e-13,0,0,-2.96795,-0.404631,0.132921,1.04504,-0.393307,0.032057,0.00443183,0,1.03205,-0.404631,302,-63,302,-63,442,-77,307,76,0.261799,-0.261799,0,-1.5,3.94113e+12,0,0,0,1.04504,-0.393307,0,0,0,0,0.032057,0.00443183,21420,0,0,0,0,9678
9714,-3.34297e-12,1.18808e-37,-1.5923e-06,-3.40794e-12,1.18798e-37,-3.89773e-12,-1.13718e-13,0,0,-2.96795,-0.404631,0.132921,1.04561,-0.393228,0.0317693,0.00439206,0,1.03205,-0.404631,302,-63,302,-63,442,-77,307,76,0.261799,-0.261799,0,-1.5,3.94113e+12,0,0,0,1.04561,-0.393228,0,0,0,0,0.0317693,0.00439206,21420,0,0,0,0,9678
9731,-3.34297e-12,1.18808e-37,-1.5923e-06,-3.40794e-12,1.18798e-37,0,-1.13718e-13,0,0,-2.96795,-0.404631,0.132921,1.04615,-0.393154,0.0315,0.00435483,0,1.03205,-0.404631,302,-63,302,-63,442,-77,307,76,0.261799,-0.261799,0,-1.5,3.94113e+12,0,0,0,1.04615,-0.393154,0,0,0,0,0.0315,0.00435483,21420,0,0,0,0,9678
9752,-3.34297e-12,1.18808e-37,-1.5923e-06,-3.40794e-12,1.18798e-37,-3.89773e-12,-1.13719e-13,0,0,-2.96795,-0.404631,0.132921,1.04681,-0.393063,0.0311703,0.00430925,0,1.03205,-0.404631,302,-63,302,-63,442,-77,307,76,0.261799,-0.261799,0,-1.5,3.94113e+12,0,0,0,1.04681,-0.393063,0,0,0,0,0.0311703,0.00430925,21420,0,0,0,0,9744
9769,-3.34297e-12,1.18808e-37,-1.5923e-06,-3.40794e-12,1.18798e-37,0,-1.13719e-13,0,0,-2.96795,-0.404631,0.132921,1.04733,-0.39299,0.0309061,0.00427272,0,1.03205,-0.404631,302,-63,302,-63,442,-77,307,76,0.261799,-0.261799,0,-1.5,3.94113e+12,0,0,0,1.04733,-0.39299,0,0,0,0,0.0309061,0.00427272,21420,0,0,0,0,9744
9786,-3.34297e-12,1.18808e-37,-1.5923e-06,-3.40794e-12,1.18798e-37,-3.89773e-12,-1.1372e-13,0,0,-2.96795,-0.404631,0.132921,1.04786,-0.392918,0.0306441,0.0042365,0,1.03205,-0.404631,302,-63,302,-63,442,-77,307,76,0.261799,-0.261799,0,-1.5,3.94113e+12,0,0,0,1.04786,-0.392918,0,0,0,0,0.0306441,0.0042365,21420,0,0,0,0,9744
9808,-3.34297e-12,1.18808e-37,-1.5923e-06,-3.40794e-12,1.18798e-37,0,-1.13721e-13,0,0,-2.96795,-0.404631,0.132921,1.04849,-0.392829,0.0303233,0.00419216,0,1.03205,-0.404631,302,-63,302,-63,442,-77,307,76,0.261799,-0.261799,0,-1.5,3.94113e+12,0,0,0,1.04849,-0.392829,0,0,0,0,0.0303233,0.00419216,21420,0,0,0,0,9744
9824,-3.34297e-12,1.18808e-37,-1.5923e-06,-3.40794e-12,1.18798e-37,-3.89773e-12,-1.13721e-13,0,0,-2.96795,-0.404631,0.132921,1.04901,-0.392759,0.0300663,0.00415662,0,1.03205,-0.404631,302,-63,302,-63,442,-77,307,76,0.261799,-0.261799,0,-1.5,3.94113e+12,0,0,0,1.04901,-0.392759,0,0,0,0,0.0300663,0.00415662,21420,0,0,0,0,9744
9841,-3.34297e-12,1.18808e-37,-1.5923e-06,-3.40794e-12,1.18798e-37,0,-1.13722e-13,0,0,-2.96795,-0.404631,0.132921,1.04952,-0.392688,0.0298115,0.00412139,0,1.03205,-0.404631,302,-63,302,-63,442,-77,307,76,0.261799,-0.261799,0,-1.5,3.94113e+12,0,0,0,1.04952,-0.392688,0,0,0,0,0.0298115,0.00412139,21420,0,0,0,0,9744
9863,-3.34297e-12,1.18808e-37,-1.5923e-06,-3.40794e-12,1.18798e-37,-3.89773e-12,-1.13722e-13,0,0,-2.96795,-0.404631,0.132921,1.05017,-0.392598,0.0294846,0.00407621,0,1.03205,-0.404631,302,-63,302,-63,442,-77,307,76,0.261799,-0.261799,0,-1.5,3.94113e+12,0,0,0,1.05017,-0.392598,0,0,0,0,0.0294846,0.00407621,21420,0,0,0,0,9744
9880,-3.34297e-12,1.18808e-37,-1.5923e-06,-3.40794e-12,1.18798e-37,0,-1.13723e-13,0,0,-2.96795,-0.404631,0.132921,1.05066,-0.392529,0.0292348,0.00404166,0,1.03205,-0.404631,302,-63,302,-63,442,-77,307,76,0.261799,-0.261799,0,-1.5,3.94113e+12,0,0,0,1.05066,-0.392529,0,0,0,0,0.0292348,0.00404166,21420,0,0,0,0,9744
9901,-3.34297e-12,1.18808e-37,-1.5923e-06,-3.40794e-12,1.18798e-37,-3.89773e-12,-1.13723e-13,0,0,-2.96795,-0.404631,0.132921,1.05127,-0.392445,0.0289288,0.00399937,0,1.03205,-0.404631,302,-63,302,-63,442,-77,307,76,0.261799,-0.261799,0,-1.5,3.94113e+12,0,0,0,1.05127,-0.392445,0,0,0,0,0.0289288,0.00399937,21420,0,0,0,0,9744
9918,-3.34297e-12,1.18808e-37,-1.5923e-06,-3.40794e-12,1.18798e-37,0,-1.13724e-13,0,0,-2.96795,-0.404631,0.132921,1.05176,-0.392378,0.0286836,0.00396547,0,1.03205,-0.404631,302,-63,302,-63,442,-77,307,76,0.261799,-0.261799,0,-1.5,3.94113e+12,0,0,0,1.05176,-0.392378,0,0,0,0,0.0286836,0.00396547,21420,0,0,0,0,9744
9939,-3.34297e-12,1.18808e-37,-1.5923e-06,-3.40794e-12,1.18798e-37,-3.89773e-12,-1.13724e-13,0,0,-2.96795,-0.404631,0.132921,1.05236,-0.392295,0.0283834,0.00392397,0,1.03205,-0.404631,302,-63,302,-63,442,-77,307,76,0.261799,-0.261799,0,-1.5,3.94113e+12,0,0,0,1.05236,-0.392295,0,0,0,0,0.0283834,0.00392397,21420,0,0,0,0,9744
9968,-3.34297e-12,1.18808e-37,-1.5923e-06,-3.40794e-12,1.18798e-37,0,-1.13725e-13,0,0,-2.96795,-0.404631,0.132921,1.05318,-0.392182,0.0279732,0.00386726,0,1.03205,-0.404631,302,-63,302,-63,442,-77,307,76,0.261799,-0.261799,0,-1.5,3.94113e+12,0,0,0,1.05318,-0.392182,0,0,0,0,0.0279732,0.00386726,21420,0,0,0,0,9744
9985,-3.34297e-12,1.18808e-37,-1.5923e-06,-3.40794e-12,1.18798e-37,-3.89773e-12,-1.13725e-13,0,0,-2.96352,-0.394106,0.140443,1.05365,-0.392117,0.0277362,0.00383448,0,1.03648,-0.394106,299,-63,299,-63,440,-79,307,73,0.261799,-0.261799,0,-1.5,3.94113e+12,0,0,0,1.05365,-0.392117,0,0,0,0,0.0277362,0.00383448,21432,0,0,0,0,9976
10002,-3.34297e-12,1.18808e-37,-1.5923e-06,-3.40794e-12,1.18798e-37,0,-1.13726e-13,0,0,-2.96352,-0.394106,0.140443,1.05412,-0.392052,0.0275011,0.00380199,0,1.03648,-0.394106,299,-63,299,-63,440,-79,307,73,0.261799,-0.261799,0,-1.5,3.94113e+12,0,0,0,1.05412,-0.392052,0,0,0,0,0.0275011,0.00380199,21432,0,0,0,0,9976
10023,-3.34297e-12,1.18808e-37,-1.5923e-06,-3.40794e-12,1.18798e-37,-3.89773e-12,-1.13727e-13,0,0,-2.96352,-0.394106,0.140443,1.05469,-0.391973,0.0272133,0.0037622,0,1.03648,-0.394106,299,-63,299,-63,440,-79,307,73,0.261799,-0.261799,0,-1.5,3.94113e+12,0,0,0,1.05469,-0.391973,0,0,0,0,0.0272133,0.0037622,21432,0,0,0,0,9976
10040,-3.34297e-12,1.18808e-37,-1.5923e-06,-3.40794e-12,1.18798e-37,0,-1.13727e-13,0,0,-2.96352,-0.394106,0.140443,1.05515,-0.391909,0.0269827,0.00373032,0,1.03648,-0.394106,299,-63,299,-63,440,-79,307,73,0.261799,-0.261799,0,-1.5,3.94113e+12,0,0,0,1.05515,-0.391909,0,0,0,0,0.0269827,0.00373032,21432,0,0,0,0,9976
10061,-3.34297e-12,1.18808e-37,-1.5923e-06,-3.40794e-12,1.18798e-37,-3.89773e-12,-1.13728e-13,0,0,-2.94889,-0.39186,0.12541,1.05571,-0.391832,0.0267003,0.00369128,0,1.05111,-0.39186,299,-63,299,-63,440,-79,307,76,0.261799,-0.261799,0,-1.5,3.94113e+12,0,0,0,1.05571,-0.391832,0,0,0,0,0.0267003,0.00369128,21855,0,0,0,0,10052
10109,-3.34297e-12,1.18808e-37,-1.5923e-06,-3.40794e-12,1.18798e-37,0,-1.13728e-13,0,0,-2.94889,-0.39186,0.12541,1.05697,-0.391658,0.026062,0.00360304,0,1.05111,-0.39186,299,-63,299,-63,440,-79,307,76,0.261799,-0.261799,0,-1.5,3.94113e+12,0,0,0,1.05697,-0.391658,0,0,0,0,0.026062,0.00360304,21855,0,0,0,0,10052
10142,-3.34297e-12,1.18808e-37,-1.5923e-06,-3.40794e-12,1.18798e-37,-3.89773e-12,-1.13729e-13,0,0,-2.94889,-0.39186,0.12541,1.05782,-0.391541,0.0256335,0.00354379,0,1.05111,-0.39186,299,-63,299,-63,440,-79,307,76,0.261799,-0.261799,0,-1.5,3.94113e+12,0,0,0,1.05782,-0.391541,0,0,0,0,0.0256335,0.00354379,21855,0,0,0,0,10052
10163,-3.34297e-12,1.18808e-37,-1.5923e-06,-3.40794e-12,1.18798e-37,0,-1.13729e-13,0,0,-2.94889,-0.39186,0.12541,1.05835,-0.391467,0.0253651,0.00350669,0,1.05111,-0.39186,299,-63,299,-63,440,-79,307,76,0.261799,-0.261799,0,-1.5,3.94113e+12,0,0,0,1.05835,-0.391467,0,0,0,0,0.0253651,0.00350669,21855,0,0,0,0,10052
10251,-3.34297e-12,1.18808e-37,-1.5923e-06,-3.40794e-12,1.18798e-37,-3.89773e-12,-1.1373e-13,0,0,-2.98186,-0.404928,0.149715,1.06049,-0.39117,0.0242533,0.00335298,0,1.01814,-0.404928,302,-63,302,-63,442,-77,306,72,0.261799,-0.261799,0,-1.5,3.94113e+12,0,0,0,1.06049,-0.39117,0,0,0,0,0.0242533,0.00335298,20860,0,0,0,0,10243
10268,-3.34297e-12,1.18808e-37,-1.5923e-06,-3.40794e-12,1.18798e-37,0,-1.1373e-13,0,0,-2.98186,-0.404928,0.149715,1.0609,-0.391114,0.0240477,0.00332456,0,1.01814,-0.404928,302,-63,302,-63,442,-77,306,72,0.261799,-0.261799,0,-1.5,3.94113e+12,0,0,0,1.0609,-0.391114,0,0,0,0,0.0240477,0.00332456,20860,0,0,0,0,10243
10287,-3.34297e-12,1.18808e-37,-1.5923e-06,-3.40794e-12,1.18798e-37,-3.89773e-12,-1.13731e-13,0,0,-2.98186,-0.404928,0.149715,1.06136,-0.391051,0.0238199,0.00329307,0,1.01814,-0.404928,302,-63,302,-63,442,-77,306,72,0.261799,-0.261799,0,-1.5,3.94113e+12,0,0,0,1.06136,-0.391051,0,0,0,0,0.0238199,0.00329307,20860,0,0,0,0,10243
10388,-3.34297e-12,1.18808e-37,-1.5923e-06,-3.40794e-12,1.18798e-37,0,-1.13731e-13,0,0,-2.98186,-0.404928,0.149715,1.06365,-0.390734,0.0226221,0.00312748,0,1.01814,-0.404928,302,-63,302,-63,442,-77,306,72,0.261799,-0.261799,0,-1.5,3.94113e+12,0,0,0,1.06365,-0.390734,0,0,0,0,0.0226221,0.00312748,20860,0,0,0,0,10243
11385,-3.34297e-12,1.18808e-37,-1.5923e-06,-3.40794e-12,1.18798e-37,-3.89773e-12,-1.13732e-13,0,0,-2.96389,-0.417769,0.132811,1.07507,-0.389156,0.0113954,0.00157539,0,1.03611,-0.417769,302,-63,302,-63,443,-77,310,76,0.261799,-0.261799,0,-1.5,3.94113e+12,0,0,0,1.07507,-0.389156,0,0,0,0,0.0113954,0.00157539,21573,0,0,0,0,11376
11401,-3.34297e-12,1.18808e-37,-1.5923e-06,-3.40794e-12,1.18798e-37,0,-1.13732e-13,0,0,-2.96389,-0.417769,0.132811,1.07525,-0.389131,0.0113045,0.00156283,0,1.03611,-0.417769,302,-63,302,-63,443,-77,310,76,0.261799,-0.261799,0,-1.5,3.94113e+12,0,0,0,1.07525,-0.389131,0,0,0,0,0.0113045,0.00156283,21573,0,0,0,0,11376
11418,-3.34297e-12,1.18808e-37,-1.5923e-06,-3.40794e-12,1.18798e-37,-3.89773e-12,-1.13733e-13,0,0,-2.96389,-0.417769,0.132811,1.07544,-0.389105,0.0112086,0.00154958,0,1.03611,-0.417769,302,-63,302,-63,443,-77,310,76,0.261799,-0.261799,0,-1.5,3.94113e+12,0,0,0,1.07544,-0.389105,0,0,0,0,0.0112086,0.00154958,21573,0,0,0,0,11376
11439,-3.34297e-12,1.18808e-37,-1.5923e-06,-3.40794e-12,1.18798e-37,0,-1.13734e-13,0,0,-2.96389,-0.417769,0.132811,1.07567,-0.389072,0.0110913,0.00153336,0,1.03611,-0.417769,302,-63,302,-63,443,-77,310,76,0.261799,-0.261799,0,-1.5,3.94113e+12,0,0,0,1.07567,-0.389072,0,0,0,0,0.0110913,0.00153336,21573,0,0,0,0,11376
11456,-3.34297e-12,1.18808e-37,-1.5923e-06,-3.40794e-12,1.18798e-37,-3.89773e-12,-1.13734e-13,0,0,-2.96389,-0.417769,0.132811,1.07586,-0.389046,0.0109973,0.00152036,0,1.03611,-0.417769,302,-63,302,-63,443,-77,310,76,0.261799,-0.261799,0,-1.5,3.94113e+12,0,0,0,1.07586,-0.389046,0,0,0,0,0.0109973,0.00152036,21573,0,0,0,0,11376
11493,-3.34297e-12,1.18808e-37,-1.5923e-06,-3.40794e-12,1.18798e-37,0,-1.13735e-13,0,0,-2.96389,-0.417769,0.132811,1.07625,-0.388993,0.0108,0.00149309,0,1.03611,-0.417769,302,-63,302,-63,443,-77,310,76,0.261799,-0.261799,0,-1.5,3.94113e+12,0,0,0,1.07625,-0.388993,0,0,0,0,0.0108,0.00149309,21573,0,0,0,0,11376
11532,-3.34297e-12,1.18808e-37,-1.5923e-06,-3.40794e-12,1.18798e-37,-3.89773e-12,-1.13735e-13,0,0,-2.96389,-0.417769,0.132811,1.07667,-0.388934,0.0105848,0.00146333,0,1.03611,-0.417769,302,-63,302,-63,443,-77,310,76,0.261799,-0.261799,0,-1.5,3.94113e+12,0,0,0,1.07667,-0.388934,0,0,0,0,0.0105848,0.00146333,21573,0,0,0,0,11376
11550,-3.34297e-12,1.18808e-37,-1.5923e-06,-3.40794e-12,1.18798e-37,0,-1.13736e-13,0,0,-2.96389,-0.417769,0.132811,1.07686,-0.388908,0.0104898,0.0014502,0,1.03611,-0.417769,302,-63,302,-63,443,-77,310,76,0.261799,-0.261799,0,-1.5,3.94113e+12,0,0,0,1.07686,-0.388908,0,0,0,0,0.0104898,0.0014502,21573,0,0,0,0,11376
11571,-3.34297e-12,1.18808e-37,-1.5923e-06,-3.40794e-12,1.18798e-37,-3.89773e-12,-1.13736e-13,0,0,-2.96389,-0.417769,0.132811,1.07708,-0.388877,0.01038,0.00143503,0,1.03611,-0.417769,302,-63,302,-63,443,-77,310,76,0.261799,-0.261799,0,-1.5,3.94113e+12,0,0,0,1.07708,-0.388877,0,0,0,0,0.01038,0.00143503,21573,0,0,0,0,11376
11588,-3.34297e-12,1.18808e-37,-1.5923e-06,-3.40794e-12,1.18798e-37,0,-1.13737e-13,0,0,-2.96389,-0.417769,0.132811,1.07726,-0.388853,0.0102921,0.00142286,0,1.03611,-0.417769,302,-63,302,-63,443,-77,310,76,0.261799,-0.261799,0,-1.5,3.94113e+12,0,0,0,1.07726,-0.388853,0,0,0,0,0.0102921,0.00142286,21573,0,0,0,0,11376
11605,-3.34297e-12,1.18808e-37,-1.5923e-06,-3.40794e-12,1.18798e-37,-3.89773e-12,-1.13737e-13,0,0,-2.96389,-0.417769,0.132811,1.07743,-0.388829,0.0102048,0.00141081,0,1.03611,-0.417769,302,-63,302,-63,443,-77,310,76,0.261799,-0.261799,0,-1.5,3.94113e+12,0,0,0,1.07743,-0.388829,0,0,0,0,0.0102048,0.00141081,21573,0,0,0,0,11376
11626,-3.34297e-12,1.18808e-37,-1.5923e-06,-3.40794e-12,1.18798e-37,0,-1.13738e-13,0,0,-2.96389,-0.417769,0.132811,1.07764,-0.3888,0.010098,0.00139604,0,1.03611,-0.417769,302,-63,302,-63,443,-77,310,76,0.261799,-0.261799,0,-1.5,3.94113e+12,0,0,0,1.07764,-0.3888,0,0,0,0,0.010098,0.00139604,21573,0,0,0,0,11376
11640,-3.34297e-12,1.18808e-37,-1.5923e-06,-3.40794e-12,1.18798e-37,-3.89773e-12,-1.13738e-13,0,0,-2.96389,-0.417769,0.132811,1.07779,-0.38878,0.0100275,0.00138629,0,1.03611,-0.417769,302,-63,302,-63,443,-77,310,76,0.261799,-0.261799,0,-1.5,3.94113e+12,0,0,0,1.07779,-0.38878,0,0,0,0,0.0100275,0.00138629,21573,0,0,0,0,11376
11657,-3.34297e-12,1.18808e-37,-1.5923e-06,-3.40794e-12,1.18798e-37,0,-1.13739e-13,0,0,-2.96389,-0.417769,0.132811,1.07795,-0.388757,0.00994257,0.00137455,0,1.03611,-0.417769,302,-63,302,-63,443,-77,310,76,0.261799,-0.261799,0,-1.5,3.94113e+12,0,0,0,1.07795,-0.388757,0,0,0,0,0.00994257,0.00137455,21573,0,0,0,0,11376
11678,-3.34297e-12,1.18808e-37,-1.5923e-06,-3.40794e-12,1.18798e-37,-3.89773e-12,-1.1374e-13,0,0,-2.96389,-0.417769,0.132811,1.07816,-0.388728,0.00983849,0.00136016,0,1.03611,-0.417769,302,-63,302,-63,443,-77,310,76,0.261799,-0.261799,0,-1.5,3.94113e+12,0,0,0,1.07816,-0.388728,0,0,0,0,0.00983849,0.00136016,21573,0,0,0,0,11376
11695,-3.34297e-12,1.18808e-37,-1.5923e-06,-3.40794e-12,1.18798e-37,0,-1.1374e-13,0,0,-2.96389,-0.417769,0.132811,1.07833,-0.388705,0.0097551,0.00134863,0,1.03611,-0.417769,302,-63,302,-63,443,-77,310,76,0.261799,-0.261799,0,-1.5,3.94113e+12,0,0,0,1.07833,-0.388705,0,0,0,0,0.0097551,0.00134863,21573,0,0,0,0,11376
11717,-3.34297e-12,1.18808e-37,-1.5923e-06,-3.40794e-12,1.18798e-37,-3.89773e-12,-1.13741e-13,0,0,-2.96389,-0.417769,0.132811,1.07854,-0.388676,0.00964812,0.00133384,0,1.03611,-0.417769,302,-63,302,-63,443,-77,310,76,0.261799,-0.261799,0,-1.5,3.94113e+12,0,0,0,1.07854,-0.388676,0,0,0,0,0.00964812,0.00133384,21573,0,0,0,0,11376
11734,-3.34297e-12,1.18808e-37,-1.5923e-06,-3.40794e-12,1.18798e-37,0,-1.13741e-13,0,0,-2.96389,-0.417769,0.132811,1.0787,-0.388653,0.00956636,0.00132254,0,1.03611,-0.417769,302,-63,302,-63,443,-77,310,76,0.261799,-0.261799,0,-1.5,3.94113e+12,0,0,0,1.0787,-0.388653,0,0,0,0,0.00956636,0.00132254,21573,0,0,0,0,11376
11751,-3.34297e-12,1.18808e-37,-1.5923e-06,-3.40794e-12,1.18798e-37,-3.89773e-12,-1.13742e-13,0,0,-2.96389,-0.417769,0.132811,1.07887,-0.388631,0.00948529,0.00131133,0,1.03611,-0.417769,302,-63,302,-63,443,-77,310,76,0.261799,-0.261799,0,-1.5,3.94113e+12,0,0,0,1.07887,-0.388631,0,0,0,0,0.00948529,0.00131133,21573,0,0,0,0,11376
11803,-3.34297e-12,1.18808e-37,-1.5923e-06,-3.40794e-12,1.18798e-37,0,-1.13742e-13,0,0,-2.96389,-0.417769,0.132811,1.07935,-0.388564,0.00923966,0.00127737,0,1.03611,-0.417769,302,-63,302,-63,443,-77,310,76,0.261799,-0.261799,0,-1.5,3.94113e+12,0,0,0,1.07935,-0.388564,0,0,0,0,0.00923966,0.00127737,21573,0,0,0,0,11376
11820,-3.34297e-12,1.18808e-37,-1.5923e-06,-3.40794e-12,1.18798e-37,-3.89773e-12,-1.13743e-13,0,0,-2.96389,-0.417769,0.132811,1.0795,-0.388542,0.00916134,0.00126654,0,1.03611,-0.417769,302,-63,302,-63,443,-77,310,76,0.261799,-0.261799,0,-1.5,3.94113e+12,0,0,0,1.0795,-0.388542,0,0,0,0,0.00916134,0.00126654,21573,0,0,0,0,11376
11837,-3.34297e-12,1.18808e-37,-1.5923e-06,-3.40794e-12,1.18798e-37,0,-1.13743e-13,0,0,-2.96389,-0.417769,0.132811,1.07966,-0.388521,0.00908369,0.00125581,0,1.03611,-0.417769,302,-63,302,-63,443,-77,310,76,0.261799,-0.261799,0,-1.5,3.94113e+12,0,0,0,1.07966,-0.388521,0,0,0,0,0.00908369,0.00125581,21573,0,0,0,0,11376
11859,-3.34297e-12,1.18808e-37,-1.5923e-06,-3.40794e-12,1.18798e-37,-3.89773e-12,-1.13744e-13,0,0,-2.96389,-0.417769,0.132811,1.07985,-0.388495,0.0089886,0.00124266,0,1.03611,-0.417769,302,-63,302,-63,443,-77,310,76,0.261799,-0.261799,0,-1.5,3.94113e+12,0,0,0,1.07985,-0.388495,0,0,0,0,0.0089886,0.00124266,21573,0,0,0,0,11376
11876,-3.34297e-12,1.18808e-37,-1.5923e-06,-3.40794e-12,1.18798e-37,0,-1.13744e-13,0,0,-2.96389,-0.417769,0.132811,1.08001,-0.388473,0.00890796,0.00123151,0,1.03611,-0.417769,302,-63,302,-63,443,-77,310,76,0.261799,-0.261799,0,-1.5,3.94113e+12,0,0,0,1.08001,-0.388473,0,0,0,0,0.00890796,0.00123151,21573,0,0,0,0,11376
11915,-3.34297e-12,1.18808e-37,-1.5923e-06,-3.40794e-12,1.18798e-37,-3.89773e-12,-1.13745e-13,0,0,-2.96389,-0.417769,0.132811,1.08035,-0.388425,0.00873492,0.00120759,0,1.03611,-0.417769,302,-63,302,-63,443,-77,310,76,0.261799,-0.261799,0,-1.5,3.94113e+12,0,0,0,1.08035,-0.388425,0,0,0,0,0.00873492,0.00120759,21573,0,0,0,0,11376
11929,-3.34297e-12,1.18808e-37,-1.5923e-06,-3.40794e-12,1.18798e-37,0,-1.13745e-13,0,0,-2.96389,-0.417769,0.132811,1.08047,-0.388408,0.00867393,0.00119916,0,1.03611,-0.417769,302,-63,302,-63,443,-77,310,76,0.261799,-0.261799,0,-1.5,3.94113e+12,0,0,0,1.08047,-0.388408,0,0,0,0,0.00867393,0.00119916,21573,0,0,0,0,11376
11946,-3.34297e-12,1.18808e-37,-1.5923e-06,-3.40794e-12,1.18798e-37,-3.89773e-12,-1.13746e-13,0,0,-2.96389,-0.417769,0.132811,1.08062,-0.388388,0.00860041,0.00118899,0,1.03611,-0.417769,302,-63,302,-63,443,-77,310,76,0.261799,-0.261799,0,-1.5,3.94113e+12,0,0,0,1.08062,-0.388388,0,0,0,0,0.00860041,0.00118899,21573,0,0,0,0,11376
11968,-3.34297e-12,1.18808e-37,-1.5923e-06,-3.40794e-12,1.18798e-37,0,-1.13747e-13,0,0,-2.96389,-0.417769,0.132811,1.08081,-0.388362,0.00850612,0.00117596,0,1.03611,-0.417769,302,-63,302,-63,443,-77,310,76,0.261799,-0.261799,0,-1.5,3.94113e+12,0,0,0,1.08081,-0.388362,0,0,0,0,0.00850612,0.00117596,21573,0,0,0,0,11376
11985,-3.34297e-12,1.18808e-37,-1.5923e-06,-3.40794e-12,1.18798e-37,-3.89773e-12,-1.13747e-13,0,0,-2.96389,-0.417769,0.132811,1.08095,-0.388342,0.00843402,0.00116599,0,1.03611,-0.417769,302,-63,302,-63,443,-77,310,76,0.261799,-0.261799,0,-1.5,3.94113e+12,0,0,0,1.08095,-0.388342,0,0,0,0,0.00843402,0.00116599,21573,0,0,0,0,11376
12002,-3.34297e-12,1.18808e-37,-1.5923e-06,-3.40794e-12,1.18798e-37,0,-1.13748e-13,0,0,-2.96389,-0.417769,0.132811,1.08109,-0.388323,0.00836255,0.00115611,0,1.03611,-0.417769,302,-63,302,-63,443,-77,310,76,0.261799,-0.261799,0,-1.5,3.94113e+12,0,0,0,1.08109,-0.388323,0,0,0,0,0.00836255,0.00115611,21573,0,0,0,0,11376
12024,-3.34297e-12,1.18808e-37,-1.5923e-06,-3.40794e-12,1.18798e-37,-3.89773e-12,-1.13748e-13,0,0,-2.96389,-0.417769,0.132811,1.08127,-0.388299,0.00827501,0.00114401,0,1.03611,-0.417769,302,-63,302,-63,443,-77,310,76,0.261799,-0.261799,0,-1.5,3.94113e+12,0,0,0,1.08127,-0.388299,0,0,0,0,0.00827501,0.00114401,21573,0,0,0,0,11376
12060,-3.34297e-12,1.18808e-37,-1.5923e-06,-3.40794e-12,1.18798e-37,0,-1.13749e-13,0,0,-2.96389,-0.417769,0.132811,1.08157,-0.388257,0.0081225,0.00112292,0,1.03611,-0.417769,302,-63,302,-63,443,-77,310,76,0.261799,-0.261799,0,-1.5,3.94113e+12,0,0,0,1.08157,-0.388257,0,0,0,0,0.0081225,0.00112292,21573,0,0,0,0,11376
12078,-3.34297e-12,1.18808e-37,-1.5923e-06,-3.40794e-12,1.18798e-37,-3.89773e-12,-1.13749e-13,0,0,-2.96389,-0.417769,0.132811,1.08171,-0.388237,0.00804962,0.00111285,0,1.03611,-0.417769,302,-63,302,-63,443,-77,310,76,0.261799,-0.261799,0,-1.5,3.94113e+12,0,0,0,1.08171,-0.388237,0,0,0,0,0.00804962,0.00111285,21573,0,0,0,0,11376
12099,-3.34297e-12,1.18808e-37,-1.5923e-06,-3.40794e-12,1.18798e-37,0,-1.1375e-13,0,0,-2.96389,-0.417769,0.132811,1.08188,-0.388214,0.00796536,0.0011012,0,1.03611,-0.417769,302,-63,302,-63,443,-77,310,76,0.261799,-0.261799,0,-1.5,3.94113e+12,0,0,0,1.08188,-0.388214,0,0,0,0,0.00796536,0.0011012,21573,0,0,0,0,11376
12117,-3.34297e-12,1.18808e-37,-1.5923e-06,-3.40794e-12,1.18798e-37,-3.89773e-12,-1.1375e-13,0,0,-2.96389,-0.417769,0.132811,1.08203,-0.388194,0.00789389,0.00109132,0,1.03611,-0.417769,302,-63,302,-63,443,-77,310,76,0.261799,-0.261799,0,-1.5,3.94113e+12,0,0,0,1.08203,-0.388194,0,0,0,0,0.00789389,0.00109132,21573,0,0,0,0,11376
12138,-3.34297e-12,1.18808e-37,-1.5923e-06,-3.40794e-12,1.18798e-37,0,-1.13751e-13,0,0,-2.96389,-0.417769,0.132811,1.08219,-0.388171,0.00781128,0.0010799,0,1.03611,-0.417769,302,-63,302,-63,443,-77,310,76,0.261799,-0.261799,0,-1.5,3.94113e+12,0,0,0,1.08219,-0.388171,0,0,0,0,0.00781128,0.0010799,21573,0,0,0,0,11376
12155,-3.34297e-12,1.18808e-37,-1.5923e-06,-3.40794e-12,1.18798e-37,-3.89773e-12,-1.13751e-13,0,0,-2.96389,-0.417769,0.132811,1.08232,-0.388153,0.00774508,0.00107075,0,1.03611,-0.417769,302,-63,302,-63,443,-77,310,76,0.261799,-0.261799,0,-1.5,3.94113e+12,0,0,0,1.08232,-0.388153,0,0,0,0,0.00774508,0.00107075,21573,0,0,0,0,11376
12188,-3.34297e-12,1.18808e-37,-1.5923e-06,-3.40794e-12,1.18798e-37,0,-1.13752e-13,0,0,-2.96389,-0.417769,0.132811,1.08257,-0.388118,0.00761772,0.00105314,0,1.03611,-0.417769,302,-63,302,-63,443,-77,310,76,0.261799,-0.261799,0,-1.5,3.94113e+12,0,0,0,1.08257,-0.388118,0,0,0,0,0.00761772,0.00105314,21573,0,0,0,0,11376
12237,-3.34297e-12,1.18808e-37,-1.5923e-06,-3.40794e-12,1.18798e-37,-3.89773e-12,-1.13753e-13,0,0,-2.96389,-0.417769,0.132811,1.08294,-0.388067,0.00743176,0.00102743,0,1.03611,-0.417769,302,-63,302,-63,443,-77,310,76,0.261799,-0.261799,0,-1.5,3.94113e+12,0,0,0,1.08294,-0.388067,0,0,0,0,0.00743176,0.00102743,21573,0,0,0,0,11376
12254,-3.34297e-12,1.18808e-37,-1.5923e-06,-3.40794e-12,1.18798e-37,0,-1.13753e-13,0,0,-2.96389,-0.417769,0.132811,1.08307,-0.38805,0.00736877,0.00101872,0,1.03611,-0.417769,302,-63,302,-63,443,-77,310,76,0.261799,-0.261799,0,-1.5,3.94113e+12,0,0,0,1.08307,-0.38805,0,0,0,0,0.00736877,0.00101872,21573,0,0,0,0,11376
12271,-3.34297e-12,1.18808e-37,-1.5923e-06,-3.40794e-12,1.18798e-37,-3.89773e-12,-1.13754e-13,0,0,-2.96389,-0.417769,0.132811,1.08319,-0.388033,0.00730631,0.00101009,0,1.03611,-0.417769,302,-63,302,-63,443,-77,310,76,0.261799,-0.261799,0,-1.5,3.94113e+12,0,0,0,1.08319,-0.388033,0,0,0,0,0.00730631,0.00101009,21573,0,0,0,0,11376
12292,-3.34297e-12,1.18808e-37,-1.5923e-06,-3.40794e-12,1.18798e-37,0,-1.13754e-13,0,0,-2.96389,-0.417769,0.132811,1.08334,-0.388012,0.00722983,0.000999513,0,1.03611,-0.417769,302,-63,302,-63,443,-77,310,76,0.261799,-0.261799,0,-1.5,3.94113e+12,0,0,0,1.08334,-0.388012,0,0,0,0,0.00722983,0.000999513,21573,0,0,0,0,11376
12309,-3.34297e-12,1.18808e-37,-1.5923e-06,-3.40794e-12,1.18798e-37,-3.89773e-12,-1.13755e-13,0,0,-2.96389,-0.417769,0.132811,1.08346,-0.387995,0.00716854,0.000991041,0,1.03611,-0.417769,302,-63,302,-63,443,-77,310,76,0.261799,-0.261799,0,-1.5,3.94113e+12,0,0,0,1.08346,-0.387995,0,0,0,0,0.00716854,0.000991041,21573,0,0,0,0,11376
12349,-3.34297e-12,1.18808e-37,-1.5923e-06,-3.40794e-12,1.18798e-37,0,-1.13755e-13,0,0,-2.96389,-0.417769,0.132811,1.08375,-0.387956,0.00702573,0.000971296,0,1.03611,-0.417769,302,-63,302,-63,443,-77,310,76,0.261799,-0.261799,0,-1.5,3.94113e+12,0,0,0,1.08375,-0.387956,0,0,0,0,0.00702573,0.000971296,21573,0,0,0,0,11376
12366,-3.34297e-12,1.18808e-37,-1.5923e-06,-3.40794e-12,1.18798e-37,-3.89773e-12,-1.13756e-13,0,0,-2.96389,-0.417769,0.132811,1.08387,-0.387939,0.00696619,0.000963065,0,1.03611,-0.417769,302,-63,302,-63,443,-77,310,76,0.261799,-0.261799,0,-1.5,3.94113e+12,0,0,0,1.08387,-0.387939,0,0,0,0,0.00696619,0.000963065,21573,0,0,0,0,11376
12414,-3.34297e-12,1.18808e-37,-1.5923e-06,-3.40794e-12,1.18798e-37,0,-1.13756e-13,0,0,-2.96389,-0.417769,0.132811,1.08419,-0.387894,0.00679966,0.000940043,0,1.03611,-0.417769,302,-63,302,-63,443,-77,310,76,0.261799,-0.261799,0,-1.5,3.94113e+12,0,0,0,1.08419,-0.387894,0,0,0,0,0.00679966,0.000940043,21573,0,0,0,0,11376
12435,-3.34297e-12,1.18808e-37,-1.5923e-06,-3.40794e-12,1.18798e-37,-3.89773e-12,-1.13757e-13,0,0,-2.96389,-0.417769,0.132811,1.08433,-0.387875,0.00672848,0.000930203,0,1.03611,-0.417769,302,-63,302,-63,443,-77,310,76,0.261799,-0.261799,0,-1.5,3.94113e+12,0,0,0,1.08433,-0.387875,0,0,0,0,0.00672848,0.000930203,21573,0,0,0,0,11376
12452,-3.34297e-12,1.18808e-37,-1.5923e-06,-3.40794e-12,1.18798e-37,0,-1.13757e-13,0,0,-2.96389,-0.417769,0.132811,1.08445,-0.387859,0.00667145,0.000922318,0,1.03611,-0.417769,302,-63,302,-63,443,-77,310,76,0.261799,-0.261799,0,-1.5,3.94113e+12,0,0,0,1.08445,-0.387859,0,0,0,0,0.00667145,0.000922318,21573,0,0,0,0,11376
12469,-3.34297e-12,1.18808e-37,-1.5923e-06,-3.40794e-12,1.18798e-37,-3.89773e-12,-1.13758e-13,0,0,-2.96389,-0.417769,0.132811,1.08456,-0.387843,0.00661491,0.000914502,0,1.03611,-0.417769,302,-63,302,-63,443,-77,310,76,0.261799,-0.261799,0,-1.5,3.94113e+12,0,0,0,1.08456,-0.387843,0,0,0,0,0.00661491,0.000914502,21573,0,0,0,0,11376
12489,-3.34297e-12,1.18808e-37,-1.5923e-06,-3.40794e-12,1.18798e-37,0,-1.13759e-13,0,0,-2.96389,-0.417769,0.132811,1.08469,-0.387825,0.00654898,0.000905386,0,1.03611,-0.417769,302,-63,302,-63,443,-77,310,76,0.261799,-0.261799,0,-1.5,3.94113e+12,0,0,0,1.08469,-0.387825,0,0,0,0,0.00654898,0.000905386,21573,0,0,0,0,11376
12503,-3.34297e-12,1.18808e-37,-1.5923e-06,-3.40794e-12,1.18798e-37,-3.89773e-12,-1.13759e-13,0,0,-2.96389,-0.417769,0.132811,1.08478,-0.387813,0.00650651,0.000899516,0,1.03611,-0.417769,302,-63,302,-63,443,-77,310,76,0.261799,-0.261799,0,-1.5,3.94113e+12,0,0,0,1.08478,-0.387813,0,0,0,0,0.00650651,0.000899516,21573,0,0,0,0,11376
12519,-3.34297e-12,1.18808e-37,-1.5923e-06,-3.40794e-12,1.18798e-37,0,-1.1376e-13,0,0,-2.96389,-0.417769,0.132811,1.08489,-0.387798,0.00645136,0.000891891,0,1.03611,-0.417769,302,-63,302,-63,443,-77,310,76,0.261799,-0.261799,0,-1.5,3.94113e+12,0,0,0,1.08489,-0.387798,0,0,0,0,0.00645136,0.000891891,21573,0,0,0,0,11376
12540,-3.34297e-12,1.18808e-37,-1.5923e-06,-3.40794e-12,1.18798e-37,-3.89773e-12,-1.1376e-13,0,0,-2.96389,-0.417769,0.132811,1.08502,-0.38778,0.00638383,0.000882555,0,1.03611,-0.417769,302,-63,302,-63,443,-77,310,76,0.261799,-0.261799,0,-1.5,3.94113e+12,0,0,0,1.08502,-0.38778,0,0,0,0,0.00638383,0.000882555,21573,0,0,0,0,11376
12557,-3.34297e-12,1.18808e-37,-1.5923e-06,-3.40794e-12,1.18798e-37,0,-1.13761e-13,0,0,-2.96389,-0.417769,0.132811,1.08513,-0.387765,0.00632972,0.000875074,0,1.03611,-0.417769,302,-63,302,-63,443,-77,310,76,0.261799,-0.261799,0,-1.5,3.94113e+12,0,0,0,1.08513,-0.387765,0,0,0,0,0.00632972,0.000875074,21573,0,0,0,0,11376
12578,-3.34297e-12,1.18808e-37,-1.5923e-06,-3.40794e-12,1.18798e-37,-3.89773e-12,-1.13761e-13,0,0,-2.96389,-0.417769,0.132811,1.08526,-0.387746,0.00626346,0.000865914,0,1.03611,-0.417769,302,-63,302,-63,443,-77,310,76,0.261799,-0.261799,0,-1.5,3.94113e+12,0,0,0,1.08526,-0.387746,0,0,0,0,0.00626346,0.000865914,21573,0,0,0,0,11376
12595,-3.34297e-12,1.18808e-37,-1.5923e-06,-3.40794e-12,1.18798e-37,0,-1.13762e-13,0,0,-2.96389,-0.417769,0.132811,1.08537,-0.387732,0.00621037,0.000858575,0,1.03611,-0.417769,302,-63,302,-63,443,-77,310,76,0.261799,-0.261799,0,-1.5,3.94113e+12,0,0,0,1.08537,-0.387732,0,0,0,0,0.00621037,0.000858575,21573,0,0,0,0,11376
12612,-3.34297e-12,1.18808e-37,-1.5923e-06,-3.40794e-12,1.18798e-37,-3.89773e-12,-1.13762e-13,0,0,-2.96389,-0.417769,0.132811,1.08547,-0.387717,0.00615773,0.000851297,0,1.03611,-0.417769,302,-63,302,-63,443,-77,310,76,0.261799,-0.261799,0,-1.5,3.94113e+12,0,0,0,1.08547,-0.387717,0,0,0,0,0.00615773,0.000851297,21573,0,0,0,0,11376
12633,-3.34297e-12,1.18808e-37,-1.5923e-06,-3.40794e-12,1.18798e-37,0,-1.13763e-13,0,0,-2.96389,-0.417769,0.132811,1.0856,-0.3877,0.00609327,0.000842386,0,1.03611,-0.417769,302,-63,302,-63,443,-77,310,76,0.261799,-0.261799,0,-1.5,3.94113e+12,0,0,0,1.0856,-0.3877,0,0,0,0,0.00609327,0.000842386,21573,0,0,0,0,11376
12650,-3.34297e-12,1.18808e-37,-1.5923e-06,-3.40794e-12,1.18798e-37,-3.89773e-12,-1.13763e-13,0,0,-2.96389,-0.417769,0.132811,1.0857,-0.387685,0.00604163,0.000835246,0,1.03611,-0.417769,302,-63,302,-63,443,-77,310,76,0.261799,-0.261799,0,-1.5,3.94113e+12,0,0,0,1.0857,-0.387685,0,0,0,0,0.00604163,0.000835246,21573,0,0,0,0,11376
12667,-3.34297e-12,1.18808e-37,-1.5923e-06,-3.40794e-12,1.18798e-37,0,-1.13764e-13,0,0,-2.96389,-0.417769,0.132811,1.08581,-0.387671,0.00599042,0.000828166,0,1.03611,-0.417769,302,-63,302,-63,443,-77,310,76,0.261799,-0.261799,0,-1.5,3.94113e+12,0,0,0,1.08581,-0.387671,0,0,0,0,0.00599042,0.000828166,21573,0,0,0,0,11376
12688,-3.34297e-12,1.18808e-37,-1.5923e-06,-3.40794e-12,1.18798e-37,-3.89773e-12,-1.13764e-13,0,0,-2.96389,-0.417769,0.132811,1.08593,-0.387654,0.00592771,0.000819497,0,1.03611,-0.417769,302,-63,302,-63,443,-77,310,76,0.261799,-0.261799,0,-1.5,3.94113e+12,0,0,0,1.08593,-0.387654,0,0,0,0,0.00592771,0.000819497,21573,0,0,0,0,11376
12705,-3.34297e-12,1.18808e-37,-1.5923e-06,-3.40794e-12,1.18798e-37,0,-1.13765e-13,0,0,-2.96389,-0.417769,0.132811,1.08603,-0.38764,0.00587747,0.000812551,0,1.03611,-0.417769,302,-63,302,-63,443,-77,310,76,0.261799,-0.261799,0,-1.5,3.94113e+12,0,0,0,1.08603,-0.38764,0,0,0,0,0.00587747,0.000812551,21573,0,0,0,0,11376
12744,-3.34297e-12,1.18808e-37,-1.5923e-06,-3.40794e-12,1.18798e-37,-3.89773e-12,-1.13766e-13,0,0,-2.96389,-0.417769,0.132811,1.08626,-0.387609,0.00576326,0.000796761,0,1.03611,-0.417769,302,-63,302,-63,443,-77,310,76,0.261799,-0.261799,0,-1.5,3.94113e+12,0,0,0,1.08626,-0.387609,0,0,0,0,0.00576326,0.000796761,21573,0,0,0,0,11376
12759,-3.34297e-12,1.18808e-37,-1.5923e-06,-3.40794e-12,1.18798e-37,0,-1.13766e-13,0,0,-2.96389,-0.417769,0.132811,1.08634,-0.387597,0.00572015,0.000790802,0,1.03611,-0.417769,302,-63,302,-63,443,-77,310,76,0.261799,-0.261799,0,-1.5,3.94113e+12,0,0,0,1.08634,-0.387597,0,0,0,0,0.00572015,0.000790802,21573,0,0,0,0,11376
12776,-3.34297e-12,1.18808e-37,-1.5923e-06,-3.40794e-12,1.18798e-37,-3.89773e-12,-1.13767e-13,0,0,-2.96389,-0.417769,0.132811,1.08644,-0.387583,0.00567167,0.0007841,0,1.03611,-0.417769,302,-63,302,-63,443,-77,310,76,0.261799,-0.261799,0,-1.5,3.94113e+12,0,0,0,1.08644,-0.387583,0,0,0,0,0.00567167,0.0007841,21573,0,0,0,0,11376
12797,-3.34297e-12,1.18808e-37,-1.5923e-06,-3.40794e-12,1.18798e-37,0,-1.13767e-13,0,0,-2.96389,-0.417769,0.132811,1.08656,-0.387567,0.0056123,0.000775892,0,1.03611,-0.417769,302,-63,302,-63,443,-77,310,76,0.261799,-0.261799,0,-1.5,3.94113e+12,0,0,0,1.08656,-0.387567,0,0,0,0,0.0056123,0.000775892,21573,0,0,0,0,11376
12833,-3.34297e-12,1.18808e-37,-1.5923e-06,-3.40794e-12,1.18798e-37,-3.89773e-12,-1.13768e-13,0,0,-2.96389,-0.417769,0.132811,1.08675,-0.38754,0.00551442,0.00076236,0,1.03611,-0.417769,302,-63,302,-63,443,-77,310,76,0.261799,-0.261799,0,-1.5,3.94113e+12,0,0,0,1.08675,-0.38754,0,0,0,0,0.00551442,0.00076236,21573,0,0,0,0,11376
12850,-3.34297e-12,1.18808e-37,-1.5923e-06,-3.40794e-12,1.18798e-37,0,-1.13768e-13,0,0,-2.96389,-0.417769,0.132811,1.08685,-0.387527,0.00546494,0.00075552,0,1.03611,-0.417769,302,-63,302,-63,443,-77,310,76,0.261799,-0.261799,0,-1.5,3.94113e+12,0,0,0,1.08685,-0.387527,0,0,0,0,0.00546494,0.00075552,21573,0,0,0,0,11376
12871,-3.34297e-12,1.18808e-37,-1.5923e-06,-3.40794e-12,1.18798e-37,-3.89773e-12,-1.13769e-13,0,0,-2.96389,-0.417769,0.132811,1.08696,-0.387511,0.00540775,0.000747613,0,1.03611,-0.417769,302,-63,302,-63,443,-77,310,76,0.261799,-0.261799,0,-1.5,3.94113e+12,0,0,0,1.08696,-0.387511,0,0,0,0,0.00540775,0.000747613,21573,0,0,0,0,11376
12906,-3.34297e-12,1.18808e-37,-1.5923e-06,-3.40794e-12,1.18798e-37,0,-1.13769e-13,0,0,-2.96389,-0.417769,0.132811,1.08715,-0.387485,0.00531344,0.000734574,0,1.03611,-0.417769,302,-63,302,-63,443,-77,310,76,0.261799,-0.261799,0,-1.5,3.94113e+12,0,0,0,1.08715,-0.387485,0,0,0,0,0.00531344,0.000734574,21573,0,0,0,0,11376
12923,-3.34297e-12,1.18808e-37,-1.5923e-06,-3.40794e-12,1.18798e-37,-3.89773e-12,-1.1377e-13,0,0,-2.96389,-0.417769,0.132811,1.08724,-0.387473,0.0052684,0.000728348,0,1.03611,-0.417769,302,-63,302,-63,443,-77,310,76,0.261799,-0.261799,0,-1.5,3.94113e+12,0,0,0,1.08724,-0.387473,0,0,0,0,0.0052684,0.000728348,21573,0,0,0,0,11376
12976,-3.34297e-12,1.18808e-37,-1.5923e-06,-3.40794e-12,1.18798e-37,0,-1.1377e-13,0,0,-2.96389,-0.417769,0.132811,1.08751,-0.387435,0.00512935,0.000709124,0,1.03611,-0.417769,302,-63,302,-63,443,-77,310,76,0.261799,-0.261799,0,-1.5,3.94113e+12,0,0,0,1.08751,-0.387435,0,0,0,0,0.00512935,0.000709124,21573,0,0,0,0,11376
12993,-3.34297e-12,1.18808e-37,-1.5923e-06,-3.40794e-12,1.18798e-37,-3.89773e-12,-1.13771e-13,0,0,-2.96389,-0.417769,0.132811,1.0876,-0.387423,0.00508587,0.000703114,0,1.03611,-0.417769,302,-63,302,-63,443,-77,310,76,0.261799,-0.261799,0,-1.5,3.94113e+12,0,0,0,1.0876,-0.387423,0,0,0,0,0.00508587,0.000703114,21573,0,0,0,0,11376
13015,-3.34297e-12,1.18808e-37,-1.5923e-06,-3.40794e-12,1.18798e-37,0,-1.13772e-13,0,0,-2.96389,-0.417769,0.132811,1.08771,-0.387408,0.0050301,0.000695403,0,1.03611,-0.417769,302,-63,302,-63,443,-77,310,76,0.261799,-0.261799,0,-1.5,3.94113e+12,0,0,0,1.08771,-0.387408,0,0,0,0,0.0050301,0.000695403,21573,0,0,0,0,11376
13032,-3.34297e-12,1.18808e-37,-1.5923e-06,-3.40794e-12,1.18798e-37,-3.89773e-12,-1.13772e-13,0,0,-2.96389,-0.417769,0.132811,1.0878,-0.387396,0.00498746,0.000689509,0,1.03611,-0.417769,302,-63,302,-63,443,-77,310,76,0.261799,-0.261799,0,-1.5,3.94113e+12,0,0,0,1.0878,-0.387396,0,0,0,0,0.00498746,0.000689509,21573,0,0,0,0,11376
13046,-3.34297e-12,1.18808e-37,-1.5923e-06,-3.40794e-12,1.18798e-37,0,-1.13773e-13,0,0,-2.96389,-0.417769,0.132811,1.08787,-0.387386,0.00495264,0.000684695,0,1.03611,-0.417769,302,-63,302,-63,443,-77,310,76,0.261799,-0.261799,0,-1.5,3.94113e+12,0,0,0,1.08787,-0.387386,0,0,0,0,0.00495264,0.000684695,21573,0,0,0,0,11376
13065,-3.34297e-12,1.18808e-37,-1.5923e-06,-3.40794e-12,1.18798e-37,-3.89773e-12,-1.13773e-13,0,0,-2.96389,-0.417769,0.132811,1.08795,-0.387374,0.00490819,0.00067855,0,1.03611,-0.417769,302,-63,302,-63,443,-77,310,76,0.261799,-0.261799,0,-1.5,3.94113e+12,0,0,0,1.08795,-0.387374,0,0,0,0,0.00490819,0.00067855,21573,0,0,0,0,11376
13082,-3.34297e-12,1.18808e-37,-1.5923e-06,-3.40794e-12,1.18798e-37,0,-1.13774e-13,0,0,-2.96389,-0.417769,0.132811,1.08804,-0.387362,0.00486416,0.000672462,0,1.03611,-0.417769,302,-63,302,-63,443,-77,310,76,0.261799,-0.261799,0,-1.5,3.94113e+12,0,0,0,1.08804,-0.387362,0,0,0,0,0.00486416,0.000672462,21573,0,0,0,0,11376
13099,-3.34297e-12,1.18808e-37,-1.5923e-06,-3.40794e-12,1.18798e-37,-3.89773e-12,-1.13774e-13,0,0,-2.96389,-0.417769,0.132811,1.08812,-0.387351,0.00482294,0.000666764,0,1.03611,-0.417769,302,-63,302,-63,443,-77,310,76,0.261799,-0.261799,0,-1.5,3.94113e+12,0,0,0,1.08812,-0.387351,0,0,0,0,0.00482294,0.000666764,21573,0,0,0,0,11376
13120,-3.34297e-12,1.18808e-37,-1.5923e-06,-3.40794e-12,1.18798e-37,0,-1.13775e-13,0,0,-2.96389,-0.417769,0.132811,1.08822,-0.387337,0.00477245,0.000659784,0,1.03611,-0.417769,302,-63,302,-63,443,-77,310,76,0.261799,-0.261799,0,-1.5,3.94113e+12,0,0,0,1.08822,-0.387337,0,0,0,0,0.00477245,0.000659784,21573,0,0,0,0,11376
13137,-3.34297e-12,1.18808e-37,-1.5923e-06,-3.40794e-12,1.18798e-37,-3.89773e-12,-1.13775e-13,0,0,-2.96389,-0.417769,0.132811,1.0883,-0.387326,0.004732,0.000654191,0,1.03611,-0.417769,302,-63,302,-63,443,-77,310,76,0.261799,-0.261799,0,-1.5,3.94113e+12,0,0,0,1.0883,-0.387326,0,0,0,0,0.004732,0.000654191,21573,0,0,0,0,11376
13155,-3.34297e-12,1.18808e-37,-1.5923e-06,-3.40794e-12,1.18798e-37,0,-1.13776e-13,0,0,-2.96389,-0.417769,0.132811,1.08839,-0.387314,0.00468954,0.000648322,0,1.03611,-0.417769,302,-63,302,-63,443,-77,310,76,0.261799,-0.261799,0,-1.5,3.94113e+12,0,0,0,1.08839,-0.387314,0,0,0,0,0.00468954,0.000648322,21573,0,0,0,0,11376
13194,-3.34297e-12,1.18808e-37,-1.5923e-06,-3.40794e-12,1.18798e-37,-3.89773e-12,-1.13776e-13,0,0,-2.96389,-0.417769,0.132811,1.08857,-0.387289,0.00459841,0.000635724,0,1.03611,-0.417769,302,-63,302,-63,443,-77,310,76,0.261799,-0.261799,0,-1.5,3.94113e+12,0,0,0,1.08857,-0.387289,0,0,0,0,0.00459841,0.000635724,21573,0,0,0,0,11376
13212,-3.34297e-12,1.18808e-37,-1.5923e-06,-3.40794e-12,1.18798e-37,0,-1.13777e-13,0,0,-2.96389,-0.417769,0.132811,1.08865,-0.387278,0.00455715,0.00063002,0,1.03611,-0.417769,302,-63,302,-63,443,-77,310,76,0.261799,-0.261799,0,-1.5,3.94113e+12,0,0,0,1.08865,-0.387278,0,0,0,0,0.00455715,0.00063002,21573,0,0,0,0,11376
13233,-3.34297e-12,1.18808e-37,-1.5923e-06,-3.40794e-12,1.18798e-37,-3.89773e-12,-1.13777e-13,0,0,-2.96389,-0.417769,0.132811,1.08875,-0.387265,0.00450946,0.000623426,0,1.03611,-0.417769,302,-63,302,-63,443,-77,310,76,0.261799,-0.261799,0,-1.5,3.94113e+12,0,0,0,1.08875,-0.387265,0,0,0,0,0.00450946,0.000623426,21573,0,0,0,0,11376
13250,-3.34297e-12,1.18808e-37,-1.5923e-06,-3.40794e-12,1.18798e-37,0,-1.13778e-13,0,0,-2.96389,-0.417769,0.132811,1.08882,-0.387254,0.00447124,0.000618142,0,1.03611,-0.417769,302,-63,302,-63,443,-77,310,76,0.261799,-0.261799,0,-1.5,3.94113e+12,0,0,0,1.08882,-0.387254,0,0,0,0,0.00447124,0.000618142,21573,0,0,0,0,11376
13267,-3.34297e-12,1.18808e-37,-1.5923e-06,-3.40794e-12,1.18798e-37,-3.89773e-12,-1.13779e-13,0,0,-2.96389,-0.417769,0.132811,1.0889,-0.387244,0.00443335,0.000612904,0,1.03611,-0.417769,302,-63,302,-63,443,-77,310,76,0.261799,-0.261799,0,-1.5,3.94113e+12,0,0,0,1.0889,-0.387244,0,0,0,0,0.00443335,0.000612904,21573,0,0,0,0,11376
13289,-3.34297e-12,1.18808e-37,-1.5923e-06,-3.40794e-12,1.18798e-37,0,-1.13779e-13,0,0,-2.96389,-0.417769,0.132811,1.089,-0.38723,0.00438474,0.000606184,0,1.03611,-0.417769,302,-63,302,-63,443,-77,310,76,0.261799,-0.261799,0,-1.5,3.94113e+12,0,0,0,1.089,-0.38723,0,0,0,0,0.00438474,0.000606184,21573,0,0,0,0,11376
13303,-3.34297e-12,1.18808e-37,-1.5923e-06,-3.40794e-12,1.18798e-37,-3.89773e-12,-1.13787e-13,0,0,-2.96389,-0.417769,0.132811,1.08905,-0.387222,0.00435631,0.000602254,0,1.03611,-0.417769,302,-63,302,-63,443,-77,310,76,0.261799,-0.261799,0,-1.5,3.94113e+12,0,0,0,1.08905,-0.387222,0,0,0,0,0.00435631,0.000602254,21573,0,0,0,0,11376
13319,-3.34297e-12,1.18808e-37,-1.5923e-06,-3.40794e-12,1.18798e-37,0,-1.13788e-13,0,0,-2.96389,-0.417769,0.132811,1.08913,-0.387212,0.00431939,0.000597149,0,1.03611,-0.417769,302,-63,302,-63,443,-77,310,76,0.261799,-0.261799,0,-1.5,3.94113e+12,0,0,0,1.08913,-0.387212,0,0,0,0,0.00431939,0.000597149,21573,0,0,0,0,11376
13340,-3.34297e-12,1.18808e-37,-1.5923e-06,-3.40794e-12,1.18798e-37,-3.89773e-12,-1.13788e-13,0,0,-2.96389,-0.417769,0.132811,1.08922,-0.3872,0.00427417,0.000590898,0,1.03611,-0.417769,302,-63,302,-63,443,-77,310,76,0.261799,-0.261799,0,-1.5,3.94113e+12,0,0,0,1.08922,-0.3872,0,0,0,0,0.00427417,0.000590898,21573,0,0,0,0,11376
13357,-3.34297e-12,1.18808e-37,-1.5923e-06,-3.40794e-12,1.18798e-37,0,-1.13789e-13,0,0,-2.96389,-0.417769,0.132811,1.08929,-0.38719,0.00423795,0.00058589,0,1.03611,-0.417769,302,-63,302,-63,443,-77,310,76,0.261799,-0.261799,0,-1.5,3.94113e+12,0,0,0,1.08929,-0.38719,0,0,0,0,0.00423795,0.00058589,21573,0,0,0,0,11376
13378,-3.34297e-12,1.18808e-37,-1.5923e-06,-3.40794e-12,1.18798e-37,-3.89773e-12,-1.13789e-13,0,0,-3.15564,-0.227772,0.537781,1.08938,-0.387177,0.00419359,0.000579757,0,0.84436,-0.227772,278,-88,278,-88,415,-101,284,32,0.261799,-0.261799,0,-1.5,3.94113e+12,0,0,0,1.08938,-0.387177,0,0,0,0,0.00419359,0.000579757,18487,0,0,0,0,13376
13395,-3.34297e-12,1.18808e-37,-1.5923e-06,-3.40794e-12,1.18798e-37,0,-1.1379e-13,0,0,-3.15564,-0.227772,0.537781,1.08945,-0.387168,0.00415805,0.000574844,0,0.84436,-0.227772,278,-88,278,-88,415,-101,284,32,0.261799,-0.261799,0,-1.5,3.94113e+12,0,0,0,1.08945,-0.387168,0,0,0,0,0.00415805,0.000574844,18487,0,0,0,0,13376
13411,-3.34297e-12,1.18808e-37,-1.5923e-06,-3.40794e-12,1.18798e-37,-3.89773e-12,-1.1379e-13,0,0,-3.13815,-0.244787,0.490239,1.08951,-0.387159,0.00412487,0.000570258,0,0.861847,-0.244787,279,-83,279,-83,419,-97,286,37,0.261799,-0.261799,0,-1.5,3.94113e+12,0,0,0,1.08951,-0.387159,0,0,0,0,0.00412487,0.000570258,18760,0,0,0,0,13409
13433,-3.34297e-12,1.18808e-37,-1.5923e-06,-3.40794e-12,1.18798e-37,0,-1.13791e-13,0,0,-3.13815,-0.244787,0.490239,1.0896,-0.387146,0.00407965,0.000564006,0,0.861847,-0.244787,279,-83,279,-83,419,-97,286,37,0.261799,-0.261799,0,-1.5,3.94113e+12,0,0,0,1.0896,-0.387146,0,0,0,0,0.00407965,0.000564006,18760,0,0,0,0,13409
13449,-3.34297e-12,1.18808e-37,-1.5923e-06,-3.40794e-12,1.18798e-37,-3.89773e-12,-1.13791e-13,0,0,-3.13203,-0.249345,0.453235,1.08967,-0.387137,0.0040471,0.000559506,0,0.867967,-0.249345,279,-79,279,-79,419,-92,286,38,0.261799,-0.261799,0,-1.5,3.94113e+12,0,0,0,1.08967,-0.387137,0,0,0,0,0.0040471,0.000559506,18460,0,0,0,0,13441
13495,-3.34297e-12,1.18808e-37,-1.5923e-06,-3.40794e-12,1.18798e-37,0,-1.13792e-13,0,0,-3.13203,-0.249345,0.453235,1.08985,-0.387112,0.00395439,0.000546688,0,0.867967,-0.249345,279,-79,279,-79,419,-92,286,38,0.261799,-0.261799,0,-1.5,3.94113e+12,0,0,0,1.08985,-0.387112,0,0,0,0,0.00395439,0.000546688,18460,0,0,0,0,13441
13519,-3.34297e-12,1.18808e-37,-1.5923e-06,-3.40794e-12,1.18798e-37,-3.89773e-12,-1.13792e-13,0,0,-3.11868,-0.254517,0.418893,1.08995,-0.387099,0.00390709,0.000540149,0,0.881323,-0.254517,279,-76,279,-76,422,-90,287,41,0.261799,-0.261799,0,-1.5,3.94113e+12,0,0,0,1.08995,-0.387099,0,0,0,0,0.00390709,0.000540149,18733,0,0,0,0,13513
13537,-3.34297e-12,1.18808e-37,-1.5923e-06,-3.40794e-12,1.18798e-37,0,-1.13793e-13,0,0,-3.11868,-0.254517,0.418893,1.09002,-0.387089,0.00387202,0.000535302,0,0.881323,-0.254517,279,-76,279,-76,422,-90,287,41,0.261799,-0.261799,0,-1.5,3.94113e+12,0,0,0,1.09002,-0.387089,0,0,0,0,0.00387202,0.000535302,18733,0,0,0,0,13513
13570,-3.34297e-12,1.18808e-37,-1.5923e-06,-3.40794e-12,1.18798e-37,-3.89773e-12,-1.13794e-13,0,0,-3.11868,-0.254517,0.418893,1.09014,-0.387072,0.00380835,0.000526499,0,0.881323,-0.254517,279,-76,279,-76,422,-90,287,41,0.261799,-0.261799,0,-1.5,3.94113e+12,0,0,0,1.09014,-0.387072,0,0,0,0,0.00380835,0.000526499,18733,0,0,0,0,13513
13590,-3.34297e-12,1.18808e-37,-1.5923e-06,-3.40794e-12,1.18798e-37,0,-1.13794e-13,0,0,-3.11868,-0.254517,0.418893,1.09022,-0.387061,0.00377038,0.00052125,0,0.881323,-0.254517,279,-76,279,-76,422,-90,287,41,0.261799,-0.261799,0,-1.5,3.94113e+12,0,0,0,1.09022,-0.387061,0,0,0,0,0.00377038,0.00052125,18733,0,0,0,0,13513
13622,-3.34297e-12,1.18808e-37,-1.5923e-06,-3.40794e-12,1.18798e-37,-3.89773e-12,-1.13795e-13,0,0,-3.11868,-0.254517,0.418893,1.09034,-0.387045,0.00371028,0.000512941,0,0.881323,-0.254517,279,-76,279,-76,422,-90,287,41,0.261799,-0.261799,0,-1.5,3.94113e+12,0,0,0,1.09034,-0.387045,0,0,0,0,0.00371028,0.000512941,18733,0,0,0,0,13513
13643,-3.34297e-12,1.18808e-37,-1.5923e-06,-3.40794e-12,1.18798e-37,0,-1.13795e-13,0,0,-3.11868,-0.254517,0.418893,1.09041,-0.387034,0.00367144,0.000507571,0,0.881323,-0.254517,279,-76,279,-76,422,-90,287,41,0.261799,-0.261799,0,-1.5,3.94113e+12,0,0,0,1.09041,-0.387034,0,0,0,0,0.00367144,0.000507571,18733,0,0,0,0,13513
13660,-3.34297e-12,1.18808e-37,-1.5923e-06,-3.40794e-12,1.18798e-37,-3.89773e-12,-1.13796e-13,0,0,-3.11868,-0.254517,0.418893,1.09048,-0.387026,0.00364033,0.00050327,0,0.881323,-0.254517,279,-76,279,-76,422,-90,287,41,0.261799,-0.261799,0,-1.5,3.94113e+12,0,0,0,1.09048,-0.387026,0,0,0,0,0.00364033,0.00050327,18733,0,0,0,0,13513
13677,-3.34297e-12,1.18808e-37,-1.5923e-06,-3.40794e-12,1.18798e-37,0,-1.13796e-13,0,0,-3.11868,-0.254517,0.418893,1.09054,-0.387017,0.00360947,0.000499004,0,0.881323,-0.254517,279,-76,279,-76,422,-90,287,41,0.261799,-0.261799,0,-1.5,3.94113e+12,0,0,0,1.09054,-0.387017,0,0,0,0,0.00360947,0.000499004,18733,0,0,0,0,13513
13698,-3.34297e-12,1.18808e-37,-1.5923e-06,-3.40794e-12,1.18798e-37,-3.89773e-12,-1.13797e-13,0,0,-3.11868,-0.254517,0.418893,1.09061,-0.387007,0.00357169,0.00049378,0,0.881323,-0.254517,279,-76,279,-76,422,-90,287,41,0.261799,-0.261799,0,-1.5,3.94113e+12,0,0,0,1.09061,-0.387007,0,0,0,0,0.00357169,0.00049378,18733,0,0,0,0,13513
13715,-3.34297e-12,1.18808e-37,-1.5923e-06,-3.40794e-12,1.18798e-37,0,-1.13797e-13,0,0,-3.11627,-0.271251,0.392892,1.09067,-0.386998,0.00354141,0.000489595,0,0.883729,-0.271251,282,-74,282,-74,421,-86,288,44,0.261799,-0.261799,0,-1.5,3.94113e+12,0,0,0,1.09067,-0.386998,0,0,0,0,0.00354141,0.000489595,18590,0,0,0,0,13711
13732,-3.34297e-12,1.18808e-37,-1.5923e-06,-3.40794e-12,1.18798e-37,-3.89773e-12,-1.13798e-13,0,0,-3.11627,-0.271251,0.392892,1.09073,-0.38699,0.0035114,0.000485445,0,0.883729,-0.271251,282,-74,282,-74,421,-86,288,44,0.261799,-0.261799,0,-1.5,3.94113e+12,0,0,0,1.09073,-0.38699,0,0,0,0,0.0035114,0.000485445,18590,0,0,0,0,13711
13807,-3.34297e-12,1.18808e-37,-1.5923e-06,-3.40794e-12,1.18798e-37,0,-1.13798e-13,0,0,-3.19426,-0.282104,0.428357,1.09099,-0.386955,0.00338021,0.000467309,0,0.805738,-0.282104,285,-72,285,-72,421,-83,290,47,0.261799,-0.261799,0,-1.5,3.94113e+12,0,0,0,1.09099,-0.386955,0,0,0,0,0.00338021,0.000467309,17810,0,0,0,0,13807
13824,-3.34297e-12,1.18808e-37,-1.5923e-06,-3.40794e-12,1.18798e-37,-3.89773e-12,-1.13799e-13,0,0,-3.19426,-0.282104,0.428357,1.09104,-0.386947,0.00335156,0.000463348,0,0.805738,-0.282104,285,-72,285,-72,421,-83,290,47,0.261799,-0.261799,0,-1.5,3.94113e+12,0,0,0,1.09104,-0.386947,0,0,0,0,0.00335156,0.000463348,17810,0,0,0,0,13807
13841,-3.34297e-12,1.18808e-37,-1.5923e-06,-3.40794e-12,1.18798e-37,0,-1.13799e-13,0,0,-3.19426,-0.282104,0.428357,1.0911,-0.386939,0.00332315,0.000459421,0,0.805738,-0.282104,285,-72,285,-72,421,-83,290,47,0.261799,-0.261799,0,-1.5,3.94113e+12,0,0,0,1.0911,-0.386939,0,0,0,0,0.00332315,0.000459421,17810,0,0,0,0,13807
13863,-3.34297e-12,1.18808e-37,-1.5923e-06,-3.40794e-12,1.18798e-37,-3.89773e-12,-1.138e-13,0,0,-3.19426,-0.282104,0.428357,1.09117,-0.386929,0.00328672,0.000454384,0,0.805738,-0.282104,285,-72,285,-72,421,-83,290,47,0.261799,-0.261799,0,-1.5,3.94113e+12,0,0,0,1.09117,-0.386929,0,0,0,0,0.00328672,0.000454384,17810,0,0,0,0,13807
13877,-3.34297e-12,1.18808e-37,-1.5923e-06,-3.40794e-12,1.18798e-37,0,-1.13801e-13,0,0,-3.19426,-0.282104,0.428357,1.09122,-0.386923,0.00326377,0.000451212,0,0.805738,-0.282104,285,-72,285,-72,421,-83,290,47,0.261799,-0.261799,0,-1.5,3.94113e+12,0,0,0,1.09122,-0.386923,0,0,0,0,0.00326377,0.000451212,17810,0,0,0,0,13807
13895,-3.34297e-12,1.18808e-37,-1.5923e-06,-3.40794e-12,1.18798e-37,-3.89773e-12,-1.13801e-13,0,0,-3.19426,-0.282104,0.428357,1.09128,-0.386915,0.00323449,0.000447163,0,0.805738,-0.282104,285,-72,285,-72,421,-83,290,47,0.261799,-0.261799,0,-1.5,3.94113e+12,0,0,0,1.09128,-0.386915,0,0,0,0,0.00323449,0.000447163,17810,0,0,0,0,13807
13912,-3.34297e-12,1.18808e-37,-1.5923e-06,-3.40794e-12,1.18798e-37,0,-1.13802e-13,0,0,-3.19426,-0.282104,0.428357,1.09133,-0.386907,0.00320707,0.000443373,0,0.805738,-0.282104,285,-72,285,-72,421,-83,290,47,0.261799,-0.261799,0,-1.5,3.94113e+12,0,0,0,1.09133,-0.386907,0,0,0,0,0.00320707,0.000443373,17810,0,0,0,0,13807
13929,-3.34297e-12,1.18808e-37,-1.5923e-06,-3.40794e-12,1.18798e-37,-3.89773e-12,-1.13802e-13,0,0,-3.19426,-0.282104,0.428357,1.09139,-0.3869,0.00317989,0.000439616,0,0.805738,-0.282104,285,-72,285,-72,421,-83,290,47,0.261799,-0.261799,0,-1.5,3.94113e+12,0,0,0,1.09139,-0.3869,0,0,0,0,0.00317989,0.000439616,17810,0,0,0,0,13807
13950,-3.34297e-12,1.18808e-37,-1.5923e-06,-3.40794e-12,1.18798e-37,0,-1.13803e-13,0,0,-3.19426,-0.282104,0.428357,1.09145,-0.38689,0.00314661,0.000435014,0,0.805738,-0.282104,285,-72,285,-72,421,-83,290,47,0.261799,-0.261799,0,-1.5,3.94113e+12,0,0,0,1.09145,-0.38689,0,0,0,0,0.00314661,0.000435014,17810,0,0,0,0,13807
13967,-3.34297e-12,1.18808e-37,-1.5923e-06,-3.40794e-12,1.18798e-37,-3.89773e-12,-1.13803e-13,0,0,-3.19426,-0.282104,0.428357,1.09151,-0.386883,0.00311994,0.000431327,0,0.805738,-0.282104,285,-72,285,-72,421,-83,290,47,0.261799,-0.261799,0,-1.5,3.94113e+12,0,0,0,1.09151,-0.386883,0,0,0,0,0.00311994,0.000431327,17810,0,0,0,0,13807
13985,-3.34297e-12,1.18808e-37,-1.5923e-06,-3.40794e-12,1.18798e-37,0,-1.13804e-13,0,0,-3.19426,-0.282104,0.428357,1.09156,-0.386876,0.00309349,0.000427671,0,0.805738,-0.282104,285,-72,285,-72,421,-83,290,47,0.261799,-0.261799,0,-1.5,3.94113e+12,0,0,0,1.09156,-0.386876,0,0,0,0,0.00309349,0.000427671,17810,0,0,0,0,13807
14024,-3.34297e-12,1.18808e-37,-1.5923e-06,-3.40794e-12,1.18798e-37,-3.89773e-12,-1.13804e-13,0,0,-3.19426,-0.282104,0.428357,1.09168,-0.386859,0.00303186,0.00041915,0,0.805738,-0.282104,285,-72,285,-72,421,-83,290,47,0.261799,-0.261799,0,-1.5,3.94113e+12,0,0,0,1.09168,-0.386859,0,0,0,0,0.00303186,0.00041915,17810,0,0,0,0,13807
14041,-3.34297e-12,1.18808e-37,-1.5923e-06,-3.40794e-12,1.18798e-37,0,-1.13805e-13,0,0,-3.19426,-0.282104,0.428357,1.09173,-0.386852,0.00300616,0.000415598,0,0.805738,-0.282104,285,-72,285,-72,421,-83,290,47,0.261799,-0.261799,0,-1.5,3.94113e+12,0,0,0,1.09173,-0.386852,0,0,0,0,0.00300616,0.000415598,17810,0,0,0,0,13807
14058,-3.34297e-12,1.18808e-37,-1.5923e-06,-3.40794e-12,1.18798e-37,-3.89773e-12,-1.13805e-13,0,0,-3.19426,-0.282104,0.428357,1.09178,-0.386845,0.00298069,0.000412076,0,0.805738,-0.282104,285,-72,285,-72,421,-83,290,47,0.261799,-0.261799,0,-1.5,3.94113e+12,0,0,0,1.09178,-0.386845,0,0,0,0,0.00298069,0.000412076,17810,0,0,0,0,13807
14200,-3.34297e-12,1.18808e-37,-1.5923e-06,-3.40794e-12,1.18798e-37,0,-1.13806e-13,0,0,-3.12513,-0.278772,0.381669,1.09218,-0.38679,0.00277095,0.00038308,0,0.874874,-0.278772,282,-70,282,-70,424,-85,290,49,0.261799,-0.261799,0,-1.5,3.94113e+12,0,0,0,0.876132,-0.300271,0,0,0,0,0.0100576,-0.0664801,19028,-0.216959,0.0948766,0.00728663,-0.0668632,14077
14279,-3.34297e-12,1.18808e-37,-1.5923e-06,-3.40794e-12,1.18798e-37,-3.89773e-12,-1.13807e-13,0,0,-3.12513,-0.278772,0.381669,1.09239,-0.386761,0.00266191,0.000368005,0,0.874874,-0.278772,282,-70,282,-70,424,-85,290,49,0.261799,-0.261799,0,-1.5,3.94113e+12,0,0,0,0.876919,-0.305524,0,0,0,0,0.00994853,-0.0664952,19028,-0.216959,0.0948766,0.00728663,-0.0668632,14077
14293,-3.34297e-12,1.18808e-37,-1.5923e-06,-3.40794e-12,1.18798e-37,0,-1.13807e-13,0,0,-3.12513,-0.278772,0.381669,1.09243,-0.386755,0.00264332,0.000365436,0,0.874874,-0.278772,282,-70,282,-70,424,-85,290,49,0.261799,-0.261799,0,-1.5,3.94113e+12,0,0,0,0.877058,-0.306455,0,0,0,0,0.00992995,-0.0664977,19028,-0.216959,0.0948766,0.00728663,-0.0668632,14077
14312,-3.34297e-12,1.18808e-37,-1.5923e-06,-3.40794e-12,1.18798e-37,-3.89773e-12,-1.13808e-13,0,0,-3.12513,-0.278772,0.381669,1.09248,-0.386749,0.00261828,0.000361974,0,0.874874,-0.278772,282,-70,282,-70,424,-85,290,49,0.261799,-0.261799,0,-1.5,3.94113e+12,0,0,0,0.877246,-0.307718,0,0,0,0,0.00990491,-0.0665012,19028,-0.216959,0.0948766,0.00728663,-0.0668632,14077
14329,-3.34297e-12,1.18808e-37,-1.5923e-06,-3.40794e-12,1.18798e-37,0,-1.13808e-13,0,0,-3.12513,-0.278772,0.381669,1.09252,-0.386743,0.0025961,0.000358907,0,0.874874,-0.278772,282,-70,282,-70,424,-85,290,49,0.261799,-0.261799,0,-1.5,3.94113e+12,0,0,0,0.877414,-0.308849,0,0,0,0,0.00988272,-0.0665043,19028,-0.216959,0.0948766,0.00728663,-0.0668632,14077
14346,-3.34297e-12,1.18808e-37,-1.5923e-06,-3.40794e-12,1.18798e-37,-3.89773e-12,-1.13809e-13,0,0,-3.12513,-0.278772,0.381669,1.09257,-0.386736,0.00257409,0.000355865,0,0.874874,-0.278772,282,-70,282,-70,424,-85,290,49,0.261799,-0.261799,0,-1.5,3.94113e+12,0,0,0,0.877582,-0.30998,0,0,0,0,0.00986072,-0.0665073,19028,-0.216959,0.0948766,0.00728663,-0.0668632,14077
14368,-3.34297e-12,1.18808e-37,-1.5923e-06,-3.40794e-12,1.18798e-37,0,-1.13809e-13,0,0,-3.12513,-0.278772,0.381669,1.09262,-0.386729,0.00254714,0.000352139,0,0.874874,-0.278772,282,-70,282,-70,424,-85,290,49,0.261799,-0.261799,0,-1.5,3.94113e+12,0,0,0,0.877789,-0.311376,0,0,0,0,0.00983377,-0.066511,19028,-0.216959,0.0948766,0.00728663,-0.0668632,14077
14385,-3.34297e-12,1.18808e-37,-1.5923e-06,-3.40794e-12,1.18798e-37,-3.89773e-12,-1.1381e-13,0,0,-3.12513,-0.278772,0.381669,1.09267,-0.386723,0.00252429,0.00034898,0,0.874874,-0.278772,282,-70,282,-70,424,-85,290,49,0.261799,-0.261799,0,-1.5,3.94113e+12,0,0,0,0.877965,-0.312573,0,0,0,0,0.00981092,-0.0665142,19028,-0.216959,0.0948766,0.00728663,-0.0668632,14077
