timestamp,A_x,A_y,A_z,P,Q,R,Phi,Theta,Psi,poseX,poseY,poseZ,state_X,state_Y,state_Z,state_VzB,state_Bx,state_By,state_Bz,p1_x,p1_y,p2_x,p2_y,p3_x,p3_y,p4_x,p4_y,roll,pitch,yaw,alt,targetHeading,highLevelState,lowLevelState,gateNumber,filtered_x,filtered_y,x_OT,y_OT,vx_OT,vy_OT,filtered_vx,filtered_vygateArearansac_corr_x,ransac_corr_y,ransac_corr_vx,ransac_corr_vy,detectionTimeStamppTermX,dTermX,pTermY,dTermY,vxcmd,vycmd
7179,0,0,0,0,0,0,0,0,0,0,0,0,0,0,0,0,0,0,0,0,0,0,0,0,0,0,0,0,-0.0872664,0,-1.5,nan,0,0,0,0,0,0,0,0,0,0,0,1.9603e-19,0,0,0,0,0,0,0,0,0,2,0
7194,0,0,0,0,0,0,0,0,0,0,0,0,0,0,0,0,0,0,0,0,0,0,0,0,0,0,0,0,-0.0872664,0,-1.5,nan,0,0,0,0,0,0,0,0,0,0,0,1.9603e-19,0,0,0,0,0,0,0,0,0,2,0
7737,-3.34228e-12,6.44999e-38,-1.59137e-06,-3.40794e-12,6.44952e-38,0,-1.13703e-13,0,0,0,0,0,0,0,0,0,0,0,0,0,0,0,0,0,0,0,0,0,-0.0872664,0,-1.5,nan,0,0,0,0,0,0,0,0,0,0,0,1.9603e-19,0,0,0,0,0,0,0,0,0,2,0
7752,-3.34228e-12,6.44999e-38,-1.59137e-06,-3.40794e-12,6.44952e-38,0,-1.13703e-13,0,0,0,0,0,0,0,0,0,0,0,0,0,0,0,0,0,0,0,0,0,-0.0872664,0,-1.5,nan,0,0,0,0,0,0,0,0,0,0,0,1.9603e-19,0,0,0,0,0,0,0,0,0,2,0
7768,-3.34228e-12,6.44999e-38,-1.59137e-06,-3.40794e-12,6.44952e-38,0,-1.13704e-13,0,0,0,0,0,0,0,0,0,0,0,0,0,0,0,0,0,0,0,0,0,-0.0872664,0,-1.5,nan,0,0,0,0,0,0,0,0,0,0,0,1.9603e-19,0,0,0,0,0,0,0,0,0,2,0
7783,-3.34228e-12,6.44999e-38,-1.59137e-06,-3.40794e-12,6.44952e-38,0,-1.13704e-13,0,0,0,0,0,0,0,0,0,0,0,0,0,0,0,0,0,0,0,0,0,-0.0872664,0,-1.5,nan,0,0,0,0,0,0,0,0,0,0,0,1.9603e-19,0,0,0,0,0,0,0,0,0,2,0
7799,-3.34228e-12,6.44999e-38,-1.59137e-06,-3.40794e-12,6.44952e-38,0,-1.13705e-13,0,0,0,0,0,0,0,0,0,0,0,0,0,0,0,0,0,0,0,0,0,-0.0872664,0,-1.5,nan,0,0,0,0,0,0,0,0,0,0,0,1.9603e-19,0,0,0,0,0,0,0,0,0,2,0
7814,-3.34228e-12,6.44999e-38,-1.59137e-06,-3.40794e-12,6.44952e-38,0,-1.13705e-13,0,0,0,0,0,0,0,0,0,0,0,0,0,0,0,0,0,0,0,0,0,-0.0872664,0,-1.5,nan,0,0,0,0,0,0,0,0,0,0,0,1.9603e-19,0,0,0,0,0,0,0,0,0,2,0
7829,-3.34228e-12,6.44999e-38,-1.59137e-06,-3.40794e-12,6.44952e-38,0,-1.13706e-13,0,0,0,0,0,0,0,0,0,0,0,0,0,0,0,0,0,0,0,0,0,-0.0872664,0,-1.5,nan,0,0,0,0,0,0,0,0,0,0,0,1.9603e-19,0,0,0,0,0,0,0,0,0,2,0
7846,-3.34228e-12,6.44999e-38,-1.59137e-06,-3.40794e-12,6.44952e-38,0,-1.13706e-13,0,0,0,0,0,0,0,0,0,0,0,0,0,0,0,0,0,0,0,0,0,-0.0872664,0,-1.5,nan,0,0,0,0,0,0,0,0,0,0,0,1.9603e-19,0,0,0,0,0,0,0,0,0,2,0
7867,-3.34228e-12,6.44999e-38,-1.59137e-06,-3.40794e-12,6.44952e-38,0,-1.13707e-13,0,0,0,0,0,0,0,0,0,0,0,0,0,0,0,0,0,0,0,0,0,-0.0872664,0,-1.5,nan,0,0,0,0,0,0,0,0,0,0,0,1.9603e-19,0,0,0,0,0,0,0,0,0,2,0
7886,-3.34228e-12,6.44999e-38,-1.59137e-06,-3.40794e-12,6.44952e-38,0,-1.13708e-13,0,0,0,0,0,0,0,0,0,0,0,0,0,0,0,0,0,0,0,0,0,-0.0872664,0,-1.5,nan,0,0,0,0,0,0,0,0,0,0,0,1.9603e-19,0,0,0,0,0,0,0,0,0,2,0
7904,-3.34228e-12,6.44999e-38,-1.59137e-06,-3.40794e-12,6.44952e-38,0,-1.13708e-13,0,0,0,0,0,0,0,0,0,0,4.4,0,-1368603880,-1368603880,-1368603880,-1368603880,-1368603840,-263097015,1401550031,-1368603840,0,-0.0872664,0,-1.5,nan,0,0,0,0,0,0,0,0,0,0,0,0,0,0,0,0,7900,0,0,0,0,2,0
7920,-3.34228e-12,6.44999e-38,-1.59137e-06,-3.40794e-12,6.44952e-38,0,-1.13709e-13,0,0,0,0,0,0,0,0,0,0,4.4,0,-1368603880,-1368603880,-1368603880,-1368603880,-1368603840,-263097015,1401550031,-1368603840,0,-0.0872664,0,-1.5,nan,0,0,0,0,0,0,0,0,0,0,0,0,0,0,0,0,7900,0,0,0,0,2,0
7987,-3.34228e-12,6.44999e-38,-1.59137e-06,-3.40794e-12,6.44952e-38,0,-1.13709e-13,0,0,-3.56704,0.531634,0.380502,0,0,0,0,0,-0.486844,0.531634,193,-56,193,-56,318,-59,200,72,0,-0.0872664,0,-1.5,nan,0,0,0,0,0,0,0,0,0,0,0,17292,0,0,0,0,7978,0,0,0,0,2,0
8002,-3.34228e-12,6.44999e-38,-1.59137e-06,-3.40794e-12,6.44952e-38,0,-1.1371e-13,0,0,-3.56704,0.531634,0.380502,0,0,0,0,0,-0.486844,0.531634,193,-56,193,-56,318,-59,200,72,0,-0.0872664,0,-1.5,nan,0,0,0,0,0,0,0,0,0,0,0,17292,0,0,0,0,7978,0,0,0,0,2,0
8019,-3.34228e-12,6.44999e-38,-1.59137e-06,-3.40794e-12,6.44952e-38,0,-1.1371e-13,0,0,-3.56704,0.531634,0.380502,0,0,0,0,0,-0.486844,0.531634,193,-56,193,-56,318,-59,200,72,0,-0.0872664,0,-1.5,nan,0,0,0,0,0,0,0,0,0,0,0,17292,0,0,0,0,7978,0,0,0,0,2,0
8034,-3.34228e-12,6.44999e-38,-1.59137e-06,-3.40794e-12,6.44952e-38,0,-1.13711e-13,0,0,-3.56704,0.531634,0.380502,0,0,0,0,0,-0.486844,0.531634,193,-56,193,-56,318,-59,200,72,0,-0.0872664,0,-1.5,nan,0,0,0,0,0,0,0,0,0,0,0,17292,0,0,0,0,7978,0,0,0,0,2,0
8057,-3.34228e-12,6.44999e-38,-1.59137e-06,-3.40794e-12,6.44952e-38,0,-1.13711e-13,0,0,-3.56704,0.531634,0.380502,0,0,0,0,0,-0.486844,0.531634,193,-56,193,-56,318,-59,200,72,0,-0.0872664,0,-1.5,nan,0,0,0,0,0,0,0,0,0,0,0,17292,0,0,0,0,7978,0,0,0,0,2,0
8070,-3.34228e-12,6.44999e-38,-1.59137e-06,-3.40794e-12,6.44952e-38,0,-1.13712e-13,0,0,-3.56704,0.531634,0.380502,0,0,0,0,0,-0.486844,0.531634,193,-56,193,-56,318,-59,200,72,0,-0.0872664,0,-1.5,nan,0,0,0,0,0,0,0,0,0,0,0,17292,0,0,0,0,7978,0,0,0,0,2,0
8084,-3.34228e-12,6.44999e-38,-1.59137e-06,-3.40794e-12,6.44952e-38,0,-1.13712e-13,0,0,-3.56704,0.531634,0.380502,0,0,0,0,0,-0.486844,0.531634,193,-56,193,-56,318,-59,200,72,0,-0.0872664,0,-1.5,nan,0,0,0,0,0,0,0,0,0,0,0,17292,0,0,0,0,7978,0,0,0,0,2,0
8100,-3.34228e-12,6.44999e-38,-1.59137e-06,-3.40794e-12,6.44952e-38,0,-1.13713e-13,0,0,-3.56704,0.531634,0.380502,0,0,0,0,0,-0.486844,0.531634,193,-56,193,-56,318,-59,200,72,0,-0.0872664,0,-1.5,nan,0,0,0,0,0,0,0,0,0,0,0,17292,0,0,0,0,7978,0,0,0,0,2,0
8116,-3.34228e-12,6.44999e-38,-1.59137e-06,-3.40794e-12,6.44952e-38,0,-1.13714e-13,0,0,-3.56704,0.531634,0.380502,0,0,0,0,0,-0.486844,0.531634,193,-56,193,-56,318,-59,200,72,0,-0.0872664,0,-1.5,nan,0,0,0,0,0,0,0,0,0,0,0,17292,0,0,0,0,7978,0,0,0,0,2,0
8131,-3.34228e-12,6.44999e-38,-1.59137e-06,-3.40794e-12,6.44952e-38,0,-1.13714e-13,0,0,-3.56704,0.531634,0.380502,0,0,0,0,0,-0.486844,0.531634,193,-56,193,-56,318,-59,200,72,0,-0.0872664,0,-1.5,nan,0,0,0,0,0,0,0,0,0,0,0,17292,0,0,0,0,7978,0,0,0,0,2,0
8147,-3.34228e-12,6.44999e-38,-1.59137e-06,-3.40794e-12,6.44952e-38,0,-1.13715e-13,0,0,-3.56704,0.531634,0.380502,0,0,0,0,0,-0.486844,0.531634,193,-56,193,-56,318,-59,200,72,0,-0.0872664,0,-1.5,nan,0,0,0,0,0,0,0,0,0,0,0,17292,0,0,0,0,7978,0,0,0,0,2,0
8162,-3.34228e-12,6.44999e-38,-1.59137e-06,-3.40794e-12,6.44952e-38,0,-1.13715e-13,0,0,-3.56704,0.531634,0.380502,0,0,0,0,0,-0.486844,0.531634,193,-56,193,-56,318,-59,200,72,0,-0.0872664,0,-1.5,nan,0,0,0,0,0,0,0,0,0,0,0,17292,0,0,0,0,7978,0,0,0,0,2,0
8178,-3.34228e-12,6.44999e-38,-1.59137e-06,-3.40794e-12,6.44952e-38,0,-1.13716e-13,0,0,-3.56704,0.531634,0.380502,0,0,0,0,0,-0.486844,0.531634,193,-56,193,-56,318,-59,200,72,0,-0.0872664,0,-1.5,nan,0,0,0,0,0,0,0,0,0,0,0,17292,0,0,0,0,7978,0,0,0,0,2,0
8194,-3.34228e-12,6.44999e-38,-1.59137e-06,-3.40794e-12,6.44952e-38,0,-1.13716e-13,0,0,-3.53928,0.533258,0.351715,0,0,0,0,0,-0.44882,0.533258,191,-51,191,-51,317,-61,200,75,0,-0.0872664,0,-1.5,nan,0,0,0,0,0,0,0,0,0,0,0,18360,0,0,0,0,8186,0,0,0,0,2,0
8209,-3.34228e-12,6.44999e-38,-1.59137e-06,-3.40794e-12,6.44952e-38,0,-1.13717e-13,0,0,-3.53928,0.533258,0.351715,0,0,0,0,0,-0.44882,0.533258,191,-51,191,-51,317,-61,200,75,0,-0.0872664,0,-1.5,nan,0,0,0,0,0,0,0,0,0,0,0,18360,0,0,0,0,8186,0,0,0,0,2,0
8231,-3.34228e-12,6.44999e-38,-1.59137e-06,-3.40794e-12,6.44952e-38,0,-1.13717e-13,0,0,-3.53928,0.533258,0.351715,0,0,0,0,0,-0.44882,0.533258,191,-51,191,-51,317,-61,200,75,-0.161701,-0.0872664,0,-1.5,nan,0,0,0,-0.445926,0.533382,0,0,0,0,0.13157,0.00562152,18360,-0.44882,0.533258,0.13157,0.00562152,8217,0,0,0,0,2,-0.533382
8247,-3.34228e-12,6.44999e-38,-1.59137e-06,-3.40794e-12,6.44952e-38,0,-1.13718e-13,0,0,-3.53928,0.533258,0.351715,0,0,0,0,0,-0.44882,0.533258,191,-51,191,-51,317,-61,200,75,-0.161728,-0.0872664,0,-1.5,nan,0,0,0,-0.44382,0.533472,0,0,0,0,0.13157,0.00562152,18360,-0.44882,0.533258,0.13157,0.00562152,8217,0,0,0,0,2,-0.533472
8262,-3.34228e-12,6.44999e-38,-1.59137e-06,-3.40794e-12,6.44952e-38,0,-1.13718e-13,0,0,-3.53928,0.533258,0.351715,0,0,0,0,0,-0.44882,0.533258,191,-51,191,-51,317,-61,200,75,-0.161753,-0.0872664,0,-1.5,nan,0,0,0,-0.441847,0.533556,0,0,0,0,0.13157,0.00562152,18360,-0.44882,0.533258,0.13157,0.00562152,8217,0,0,0,0,2,-0.533556
8277,-3.34228e-12,6.44999e-38,-1.59137e-06,-3.40794e-12,6.44952e-38,0,-1.13719e-13,0,0,-3.53928,0.533258,0.351715,0,0,0,0,0,-0.44882,0.533258,191,-51,191,-51,317,-61,200,75,-0.161779,-0.0872664,0,-1.5,nan,0,0,0,-0.439873,0.533641,0,0,0,0,0.13157,0.00562152,18360,-0.44882,0.533258,0.13157,0.00562152,8217,0,0,0,0,2,-0.533641
8294,-3.34228e-12,6.44999e-38,-1.59137e-06,-3.40794e-12,6.44952e-38,0,-1.13719e-13,0,0,-3.53928,0.533258,0.351715,0,0,0,0,0,-0.44882,0.533258,191,-51,191,-51,317,-61,200,75,-0.161807,-0.0872664,0,-1.5,nan,0,0,0,-0.437637,0.533736,0,0,0,0,0.13157,0.00562152,18360,-0.44882,0.533258,0.13157,0.00562152,8217,0,0,0,0,2,-0.533736
8308,-3.34228e-12,6.44999e-38,-1.59137e-06,-3.40794e-12,6.44952e-38,0,-1.1372e-13,0,0,-3.53928,0.533258,0.351715,0,0,0,0,0,-0.44882,0.533258,191,-51,191,-51,317,-61,200,75,-0.161831,-0.0872664,0,-1.5,nan,0,0,0,-0.435795,0.533815,0,0,0,0,0.13157,0.00562152,18360,-0.44882,0.533258,0.13157,0.00562152,8217,0,0,0,0,2,-0.533815
8322,-3.34228e-12,6.44999e-38,-1.59137e-06,-3.40794e-12,6.44952e-38,0,-1.13721e-13,0,0,-3.53928,0.533258,0.351715,0,0,0,0,0,-0.44882,0.533258,191,-51,191,-51,317,-61,200,75,-0.161855,-0.0872664,0,-1.5,nan,0,0,0,-0.433953,0.533893,0,0,0,0,0.13157,0.00562152,18360,-0.44882,0.533258,0.13157,0.00562152,8217,0,0,0,0,2,-0.533893
8337,-3.34228e-12,6.44999e-38,-1.59137e-06,-3.40794e-12,6.44952e-38,0,-1.13721e-13,0,0,-3.53928,0.533258,0.351715,0,0,0,0,0,-0.44882,0.533258,191,-51,191,-51,317,-61,200,75,-0.16188,-0.0872664,0,-1.5,nan,0,0,0,-0.431979,0.533978,0,0,0,0,0.13157,0.00562152,18360,-0.44882,0.533258,0.13157,0.00562152,8217,0,0,0,0,2,-0.533978
8353,-3.34228e-12,6.44999e-38,-1.59137e-06,-3.40794e-12,6.44952e-38,0,-1.13722e-13,0,0,-3.53928,0.533258,0.351715,0,0,0,0,0,-0.44882,0.533258,191,-51,191,-51,317,-61,200,75,-0.161907,-0.0872664,0,-1.5,nan,0,0,0,-0.429874,0.534068,0,0,0,0,0.13157,0.00562152,18360,-0.44882,0.533258,0.13157,0.00562152,8217,0,0,0,0,2,-0.534068
8368,-3.34228e-12,6.44999e-38,-1.59137e-06,-3.40794e-12,6.44952e-38,0,-1.13722e-13,0,0,-3.53928,0.533258,0.351715,0,0,0,0,0,-0.44882,0.533258,191,-51,191,-51,317,-61,200,75,-0.161932,-0.0872664,0,-1.5,nan,0,0,0,-0.427901,0.534152,0,0,0,0,0.13157,0.00562152,18360,-0.44882,0.533258,0.13157,0.00562152,8217,0,0,0,0,2,-0.534152
8385,-3.34228e-12,6.44999e-38,-1.59137e-06,-3.40794e-12,6.44952e-38,0,-1.13723e-13,0,0,-3.53928,0.533258,0.351715,0,0,0,0,0,-0.44882,0.533258,191,-51,191,-51,317,-61,200,75,-0.161961,-0.0872664,0,-1.5,nan,0,0,0,-0.425664,0.534248,0,0,0,0,0.13157,0.00562152,18360,-0.44882,0.533258,0.13157,0.00562152,8217,0,0,0,0,2,-0.534248
8412,-3.34228e-12,6.44999e-38,-1.59137e-06,-3.40794e-12,6.44952e-38,0,-1.13723e-13,0,0,-3.53928,0.533258,0.351715,0,0,0,0,0,-0.44882,0.533258,191,-51,191,-51,317,-61,200,75,-0.162006,-0.0872664,0,-1.5,nan,0,0,0,-0.422112,0.534399,0,0,0,0,0.13157,0.00562152,18360,-0.44882,0.533258,0.13157,0.00562152,8217,0,0,0,0,2,-0.534399
8427,-3.34228e-12,6.44999e-38,-1.59137e-06,-3.40794e-12,6.44952e-38,0,-1.13724e-13,0,0,-3.53928,0.533258,0.351715,0,0,0,0,0,-0.44882,0.533258,191,-51,191,-51,317,-61,200,75,-0.162032,-0.0872664,0,-1.5,nan,0,0,0,-0.420138,0.534484,0,0,0,0,0.13157,0.00562152,18360,-0.44882,0.533258,0.13157,0.00562152,8217,0,0,0,0,2,-0.534484
8443,-3.34228e-12,6.44999e-38,-1.59137e-06,-3.40794e-12,6.44952e-38,0,-1.13724e-13,0,0,-3.53928,0.533258,0.351715,0,0,0,0,0,-0.44882,0.533258,191,-51,191,-51,317,-61,200,75,-0.162057,-0.0872664,0,-1.5,nan,0,0,0,-0.418164,0.534568,0,0,0,0,0.13157,0.00562152,18360,-0.44882,0.533258,0.13157,0.00562152,8217,0,0,0,0,2,-0.534568
8458,-3.34228e-12,6.44999e-38,-1.59137e-06,-3.40794e-12,6.44952e-38,0,-1.13725e-13,0,0,-3.53928,0.533258,0.351715,0,0,0,0,0,-0.44882,0.533258,191,-51,191,-51,317,-61,200,75,-0.162084,-0.0872664,0,-1.5,nan,0,0,0,-0.416059,0.534658,0,0,0,0,0.13157,0.00562152,18360,-0.44882,0.533258,0.13157,0.00562152,8217,0,0,0,0,2,-0.534658
8474,-3.34228e-12,6.44999e-38,-1.59137e-06,-3.40794e-12,6.44952e-38,0,-1.13725e-13,0,0,-3.53928,0.533258,0.351715,0,0,0,0,0,-0.44882,0.533258,191,-51,191,-51,317,-61,200,75,-0.162111,-0.0872664,0,-1.5,nan,0,0,0,-0.413954,0.534748,0,0,0,0,0.13157,0.00562152,18360,-0.44882,0.533258,0.13157,0.00562152,8217,0,0,0,0,2,-0.534748
8490,-3.34228e-12,6.44999e-38,-1.59137e-06,-3.40794e-12,6.44952e-38,0,-1.13726e-13,0,0,-3.53928,0.533258,0.351715,0,0,0,0,0,-0.44882,0.533258,191,-51,191,-51,317,-61,200,75,-0.162138,-0.0872664,0,-1.5,nan,0,0,0,-0.411849,0.534838,0,0,0,0,0.13157,0.00562152,18360,-0.44882,0.533258,0.13157,0.00562152,8217,0,0,0,0,2,-0.534838
8505,-3.34228e-12,6.44999e-38,-1.59137e-06,-3.40794e-12,6.44952e-38,0,-1.13727e-13,0,0,-3.53928,0.533258,0.351715,0,0,0,0,0,-0.44882,0.533258,191,-51,191,-51,317,-61,200,75,-0.162163,-0.0872664,0,-1.5,nan,0,0,0,-0.409876,0.534922,0,0,0,0,0.13157,0.00562152,18360,-0.44882,0.533258,0.13157,0.00562152,8217,0,0,0,0,2,-0.534922
8519,-3.34228e-12,6.44999e-38,-1.59137e-06,-3.40794e-12,6.44952e-38,0,-1.13727e-13,0,0,-3.53928,0.533258,0.351715,0,0,0,0,0,-0.44882,0.533258,191,-51,191,-51,317,-61,200,75,-0.162187,-0.0872664,0,-1.5,nan,0,0,0,-0.408034,0.535001,0,0,0,0,0.13157,0.00562152,18360,-0.44882,0.533258,0.13157,0.00562152,8217,0,0,0,0,2,-0.535001
8535,-3.34228e-12,6.44999e-38,-1.59137e-06,-3.40794e-12,6.44952e-38,0,-1.13728e-13,0,0,-3.53928,0.533258,0.351715,0,0,0,0,0,-0.44882,0.533258,191,-51,191,-51,317,-61,200,75,-0.162214,-0.0872664,0,-1.5,nan,0,0,0,-0.405929,0.535091,0,0,0,0,0.13157,0.00562152,18360,-0.44882,0.533258,0.13157,0.00562152,8217,0,0,0,0,2,-0.535091
8551,-3.34228e-12,6.44999e-38,-1.59137e-06,-3.40794e-12,6.44952e-38,0,-1.13728e-13,0,0,-3.53928,0.533258,0.351715,0,0,0,0,0,-0.44882,0.533258,191,-51,191,-51,317,-61,200,75,-0.162241,-0.0872664,0,-1.5,nan,0,0,0,-0.403823,0.535181,0,0,0,0,0.13157,0.00562152,18360,-0.44882,0.533258,0.13157,0.00562152,8217,0,0,0,0,2,-0.535181
8566,-3.34228e-12,6.44999e-38,-1.59137e-06,-3.40794e-12,6.44952e-38,0,-1.13729e-13,0,0,-3.53928,0.533258,0.351715,0,0,0,0,0,-0.44882,0.533258,191,-51,191,-51,317,-61,200,75,-0.162266,-0.0872664,0,-1.5,nan,0,0,0,-0.40185,0.535265,0,0,0,0,0.13157,0.00562152,18360,-0.44882,0.533258,0.13157,0.00562152,8217,0,0,0,0,2,-0.535265
8582,-3.34228e-12,6.44999e-38,-1.59137e-06,-3.40794e-12,6.44952e-38,0,-1.13729e-13,0,0,-3.53928,0.533258,0.351715,0,0,0,0,0,-0.44882,0.533258,191,-51,191,-51,317,-61,200,75,-0.162293,-0.0872664,0,-1.5,nan,0,0,0,-0.399745,0.535355,0,0,0,0,0.13157,0.00562152,18360,-0.44882,0.533258,0.13157,0.00562152,8217,0,0,0,0,2,-0.535355
8598,-3.34228e-12,6.44999e-38,-1.59137e-06,-3.40794e-12,6.44952e-38,0,-1.1373e-13,0,0,-3.53928,0.533258,0.351715,0,0,0,0,0,-0.44882,0.533258,191,-51,191,-51,317,-61,200,75,-0.16232,-0.0872664,0,-1.5,nan,0,0,0,-0.39764,0.535445,0,0,0,0,0.13157,0.00562152,18360,-0.44882,0.533258,0.13157,0.00562152,8217,0,0,0,0,2,-0.535445
8613,-3.34228e-12,6.44999e-38,-1.59137e-06,-3.40794e-12,6.44952e-38,0,-1.1373e-13,0,0,-3.53928,0.533258,0.351715,0,0,0,0,0,-0.44882,0.533258,191,-51,191,-51,317,-61,200,75,-0.162345,-0.0872664,0,-1.5,nan,0,0,0,-0.395666,0.535529,0,0,0,0,0.13157,0.00562152,18360,-0.44882,0.533258,0.13157,0.00562152,8217,0,0,0,0,2,-0.535529
8629,-3.34228e-12,6.44999e-38,-1.59137e-06,-3.40794e-12,6.44952e-38,0,-1.13731e-13,0,0,-3.53928,0.533258,0.351715,0,0,0,0,0,-0.44882,0.533258,191,-51,191,-51,317,-61,200,75,-0.162372,-0.0872664,0,-1.5,nan,0,0,0,-0.393561,0.535619,0,0,0,0,0.13157,0.00562152,18360,-0.44882,0.533258,0.13157,0.00562152,8217,0,0,0,0,2,-0.535619
8644,-3.34228e-12,6.44999e-38,-1.59137e-06,-3.40794e-12,6.44952e-38,0,-1.13731e-13,0,0,-3.53928,0.533258,0.351715,0,0,0,0,0,-0.44882,0.533258,191,-51,191,-51,317,-61,200,75,-0.162398,-0.0872664,0,-1.5,nan,0,0,0,-0.391588,0.535704,0,0,0,0,0.13157,0.00562152,18360,-0.44882,0.533258,0.13157,0.00562152,8217,0,0,0,0,2,-0.535704
8660,-3.34228e-12,6.44999e-38,-1.59137e-06,-3.40794e-12,6.44952e-38,0,-1.13732e-13,0,0,-3.53928,0.533258,0.351715,0,0,0,0,0,-0.44882,0.533258,191,-51,191,-51,317,-61,200,75,-0.162425,-0.0872664,0,-1.5,nan,0,0,0,-0.389482,0.535794,0,0,0,0,0.13157,0.00562152,18360,-0.44882,0.533258,0.13157,0.00562152,8217,0,0,0,0,2,-0.535794
8676,-3.34228e-12,6.44999e-38,-1.59137e-06,-3.40794e-12,6.44952e-38,0,-1.13732e-13,0,0,-3.53928,0.533258,0.351715,0,0,0,0,0,-0.44882,0.533258,191,-51,191,-51,317,-61,200,75,-0.162452,-0.0872664,0,-1.5,nan,0,0,0,-0.387377,0.535883,0,0,0,0,0.13157,0.00562152,18360,-0.44882,0.533258,0.13157,0.00562152,8217,0,0,0,0,2,-0.535883
8694,-3.34228e-12,6.44999e-38,-1.59137e-06,-3.40794e-12,6.44952e-38,0,-1.13733e-13,0,0,-3.5099,0.522141,0.370197,0,0,0,0,0,-0.408562,0.522141,193,-51,193,-51,318,-73,202,72,-0.149825,-0.0872664,0,-1.5,nan,0,0,0,-0.40701,0.52174,0,0,0,0,0.0862069,-0.0223231,19140,-0.408562,0.522141,0.0862069,-0.0223231,8683,0,0,0,0,2,-0.52174
8708,-3.34228e-12,6.44999e-38,-1.59137e-06,-3.40794e-12,6.44952e-38,0,-1.13734e-13,0,0,-3.5099,0.522141,0.370197,0,0,0,0,0,-0.408562,0.522141,193,-51,193,-51,318,-73,202,72,-0.149731,-0.0872664,0,-1.5,nan,0,0,0,-0.405803,0.521427,0,0,0,0,0.0862069,-0.0223231,19140,-0.408562,0.522141,0.0862069,-0.0223231,8683,0,0,0,0,2,-0.521427
8725,-3.34228e-12,6.44999e-38,-1.59137e-06,-3.40794e-12,6.44952e-38,0,-1.13734e-13,0,0,-3.35255,0.495036,0.331073,0,0,0,0,0,-0.192988,0.495036,191,-77,191,-77,320,-73,202,72,-0.149617,-0.0872664,0,-1.5,nan,0,0,0,-0.368205,0.521048,0,0,0,0,0.147378,-0.0223231,19966,-0.369531,0.521249,0.147378,-0.0223231,8718,0,0,0,0,2,-0.521048
8740,-3.34228e-12,6.44999e-38,-1.59137e-06,-3.40794e-12,6.44952e-38,0,-1.13735e-13,0,0,-3.35255,0.495036,0.331073,0,0,0,0,0,-0.192988,0.495036,191,-77,191,-77,320,-73,202,72,-0.149517,-0.0872664,0,-1.5,nan,0,0,0,-0.365994,0.520713,0,0,0,0,0.147378,-0.0223231,19966,-0.369531,0.521249,0.147378,-0.0223231,8718,0,0,0,0,2,-0.520713
8756,-3.34228e-12,6.44999e-38,-1.59137e-06,-3.40794e-12,6.44952e-38,0,-1.13735e-13,0,0,-3.35255,0.495036,0.331073,0,0,0,0,0,-0.192988,0.495036,191,-77,191,-77,320,-73,202,72,-0.14941,-0.0872664,0,-1.5,nan,0,0,0,-0.363636,0.520356,0,0,0,0,0.147378,-0.0223231,19966,-0.369531,0.521249,0.147378,-0.0223231,8718,0,0,0,0,2,-0.520356
8772,-3.34228e-12,6.44999e-38,-1.59137e-06,-3.40794e-12,6.44952e-38,0,-1.13736e-13,0,0,-3.35255,0.495036,0.331073,0,0,0,0,0,-0.192988,0.495036,191,-77,191,-77,320,-73,202,72,-0.149303,-0.0872664,0,-1.5,nan,0,0,0,-0.361278,0.519998,0,0,0,0,0.147378,-0.0223231,19966,-0.369531,0.521249,0.147378,-0.0223231,8718,0,0,0,0,2,-0.519998
8788,-3.34228e-12,6.44999e-38,-1.59137e-06,-3.40794e-12,6.44952e-38,0,-1.13736e-13,0,0,-3.35255,0.495036,0.331073,0,0,0,0,0,-0.192988,0.495036,191,-77,191,-77,320,-73,202,72,-0.149195,-0.0872664,0,-1.5,nan,0,0,0,-0.35892,0.519641,0,0,0,0,0.147378,-0.0223231,19966,-0.369531,0.521249,0.147378,-0.0223231,8718,0,0,0,0,2,-0.519641
8803,-3.34228e-12,6.44999e-38,-1.59137e-06,-3.40794e-12,6.44952e-38,0,-1.13737e-13,0,0,-3.35255,0.495036,0.331073,0,0,0,0,0,-0.192988,0.495036,191,-77,191,-77,320,-73,202,72,-0.149095,-0.0872664,0,-1.5,nan,0,0,0,-0.356709,0.519306,0,0,0,0,0.147378,-0.0223231,19966,-0.369531,0.521249,0.147378,-0.0223231,8718,0,0,0,0,2,-0.519306
8822,-3.34228e-12,6.44999e-38,-1.59137e-06,-3.40794e-12,6.44952e-38,0,-1.13737e-13,0,0,-3.41302,0.479151,0.368864,0,0,0,0,0,-0.275844,0.479151,203,-78,203,-78,320,-73,202,72,-0.124938,-0.0872664,0,-1.5,nan,0,0,0,-0.273943,0.487505,0,0,0,0,0.27155,-0.0710462,18450,-0.275844,0.488002,0.27155,-0.0710462,8817,0,0,0,0,2,-0.487505
8838,-3.34228e-12,6.44999e-38,-1.59137e-06,-3.40794e-12,6.44952e-38,0,-1.13738e-13,0,0,-3.41302,0.479151,0.368864,0,0,0,0,0,-0.275844,0.479151,203,-78,203,-78,320,-73,202,72,-0.124618,-0.0872664,0,-1.5,nan,0,0,0,-0.26987,0.486439,0,0,0,0,0.27155,-0.0710462,18450,-0.275844,0.488002,0.27155,-0.0710462,8817,0,0,0,0,2,-0.486439
8854,-3.34228e-12,6.44999e-38,-1.59137e-06,-3.40794e-12,6.44952e-38,0,-1.13738e-13,0,0,-3.41302,0.479151,0.368864,0,0,0,0,0,-0.275844,0.479151,203,-78,203,-78,320,-73,202,72,-0.124256,-0.0872664,0,-1.5,nan,0,0,0,-0.265253,0.485231,0,0,0,0,0.27155,-0.0710462,18450,-0.275844,0.488002,0.27155,-0.0710462,8817,0,0,0,0,2,-0.485231
8904,-3.34228e-12,6.44999e-38,-1.59137e-06,-3.40794e-12,6.44952e-38,0,-1.13739e-13,0,0,-3.41302,0.479151,0.368864,0,0,0,0,0,-0.275844,0.479151,203,-78,203,-78,320,-73,202,72,-0.123211,-0.0872664,0,-1.5,nan,0,0,0,-0.251947,0.48175,0,0,0,0,0.27155,-0.0710462,18450,-0.275844,0.488002,0.27155,-0.0710462,8817,0,0,0,0,2,-0.48175
8920,-3.34228e-12,6.44999e-38,-1.59137e-06,-3.40794e-12,6.44952e-38,0,-1.1374e-13,0,0,-3.41302,0.479151,0.368864,0,0,0,0,0,-0.275844,0.479151,203,-78,203,-78,320,-73,202,72,-0.12287,-0.0872664,0,-1.5,nan,0,0,0,-0.247602,0.480613,0,0,0,0,0.27155,-0.0710462,18450,-0.275844,0.488002,0.27155,-0.0710462,8817,0,0,0,0,2,-0.480613
8937,-3.34228e-12,6.44999e-38,-1.59137e-06,-3.40794e-12,6.44952e-38,0,-1.1374e-13,0,0,-3.41302,0.479151,0.368864,0,0,0,0,0,-0.275844,0.479151,203,-78,203,-78,320,-73,202,72,-0.122486,-0.0872664,0,-1.5,nan,0,0,0,-0.242715,0.479334,0,0,0,0,0.27155,-0.0710462,18450,-0.275844,0.488002,0.27155,-0.0710462,8817,0,0,0,0,2,-0.479334
8955,-3.34228e-12,6.44999e-38,-1.59137e-06,-3.40794e-12,6.44952e-38,0,-1.13741e-13,0,0,-3.44878,0.479739,0.398959,0,0,0,0,0,-0.324828,0.479739,206,-78,206,-78,320,-73,201,69,-0.123041,-0.0872664,0,-1.5,nan,0,0,0,-0.324185,0.479462,0,0,0,0,0.160613,-0.0693257,18228,-0.324828,0.479739,0.160613,-0.0693257,8952,0,0,0,0,2,-0.479462
8970,-3.34228e-12,6.44999e-38,-1.59137e-06,-3.40794e-12,6.44952e-38,0,-1.13741e-13,0,0,-3.44878,0.479739,0.398959,0,0,0,0,0,-0.324828,0.479739,206,-78,206,-78,320,-73,201,69,-0.122729,-0.0872664,0,-1.5,nan,0,0,0,-0.321776,0.478422,0,0,0,0,0.160613,-0.0693257,18228,-0.324828,0.479739,0.160613,-0.0693257,8952,0,0,0,0,2,-0.478422
8985,-3.34228e-12,6.44999e-38,-1.59137e-06,-3.40794e-12,6.44952e-38,0,-1.13742e-13,0,0,-3.44878,0.479739,0.398959,0,0,0,0,0,-0.324828,0.479739,206,-78,206,-78,320,-73,201,69,-0.122396,-0.0872664,0,-1.5,nan,0,0,0,-0.319206,0.477313,0,0,0,0,0.160613,-0.0693257,18228,-0.324828,0.479739,0.160613,-0.0693257,8952,0,0,0,0,2,-0.477313
9000,-3.34228e-12,6.44999e-38,-1.59137e-06,-3.40794e-12,6.44952e-38,0,-1.13742e-13,0,0,-3.44878,0.479739,0.398959,0,0,0,0,0,-0.324828,0.479739,206,-78,206,-78,320,-73,201,69,-0.122084,-0.0872664,0,-1.5,nan,0,0,0,-0.316797,0.476273,0,0,0,0,0.160613,-0.0693257,18228,-0.324828,0.479739,0.160613,-0.0693257,8952,0,0,0,0,2,-0.476273
9015,-3.34228e-12,6.44999e-38,-1.59137e-06,-3.40794e-12,6.44952e-38,0,-1.13743e-13,0,0,-3.44878,0.479739,0.398959,0,0,0,0,0,-0.324828,0.479739,206,-78,206,-78,320,-73,201,69,-0.121772,-0.0872664,0,-1.5,nan,0,0,0,-0.314388,0.475233,0,0,0,0,0.160613,-0.0693257,18228,-0.324828,0.479739,0.160613,-0.0693257,8952,0,0,0,0,2,-0.475233
9030,-3.34228e-12,6.44999e-38,-1.59137e-06,-3.40794e-12,6.44952e-38,0,-1.13743e-13,0,0,-3.44878,0.479739,0.398959,0,0,0,0,0,-0.324828,0.479739,206,-78,206,-78,320,-73,201,69,-0.12146,-0.0872664,0,-1.5,nan,0,0,0,-0.311979,0.474193,0,0,0,0,0.160613,-0.0693257,18228,-0.324828,0.479739,0.160613,-0.0693257,8952,0,0,0,0,2,-0.474193
9063,-3.34228e-12,6.44999e-38,-1.59137e-06,-3.40794e-12,6.44952e-38,0,-1.13744e-13,0,0,-3.44878,0.479739,0.398959,0,0,0,0,0,-0.324828,0.479739,206,-78,206,-78,320,-73,201,69,-0.120774,-0.0872664,0,-1.5,nan,0,0,0,-0.306679,0.471905,0,0,0,0,0.160613,-0.0693257,18228,-0.324828,0.479739,0.160613,-0.0693257,8952,0,0,0,0,2,-0.471905
9079,-3.34228e-12,6.44999e-38,-1.59137e-06,-3.40794e-12,6.44952e-38,0,-1.13744e-13,0,0,-3.44878,0.479739,0.398959,0,0,0,0,0,-0.324828,0.479739,206,-78,206,-78,320,-73,201,69,-0.120462,-0.0872664,0,-1.5,nan,0,0,0,-0.304269,0.470866,0,0,0,0,0.160613,-0.0693257,18228,-0.324828,0.479739,0.160613,-0.0693257,8952,0,0,0,0,2,-0.470866
9093,-3.34228e-12,6.44999e-38,-1.59137e-06,-3.40794e-12,6.44952e-38,0,-1.13745e-13,0,0,-3.44878,0.479739,0.398959,0,0,0,0,0,-0.324828,0.479739,206,-78,206,-78,320,-73,201,69,-0.12015,-0.0872664,0,-1.5,nan,0,0,0,-0.30186,0.469826,0,0,0,0,0.160613,-0.0693257,18228,-0.324828,0.479739,0.160613,-0.0693257,8952,0,0,0,0,2,-0.469826
9108,-3.34228e-12,6.44999e-38,-1.59137e-06,-3.40794e-12,6.44952e-38,0,-1.13745e-13,0,0,-3.44878,0.479739,0.398959,0,0,0,0,0,-0.324828,0.479739,206,-78,206,-78,320,-73,201,69,-0.119838,-0.0872664,0,-1.5,nan,0,0,0,-0.299451,0.468786,0,0,0,0,0.160613,-0.0693257,18228,-0.324828,0.479739,0.160613,-0.0693257,8952,0,0,0,0,2,-0.468786
9124,-3.34228e-12,6.44999e-38,-1.59137e-06,-3.40794e-12,6.44952e-38,0,-1.13746e-13,0,0,-3.44878,0.479739,0.398959,0,0,0,0,0,-0.324828,0.479739,206,-78,206,-78,320,-73,201,69,-0.119505,-0.0872664,0,-1.5,nan,0,0,0,-0.296881,0.467677,0,0,0,0,0.160613,-0.0693257,18228,-0.324828,0.479739,0.160613,-0.0693257,8952,0,0,0,0,2,-0.467677
9139,-3.34228e-12,6.44999e-38,-1.59137e-06,-3.40794e-12,6.44952e-38,0,-1.13747e-13,0,0,-3.44878,0.479739,0.398959,0,0,0,0,0,-0.324828,0.479739,206,-78,206,-78,320,-73,201,69,-0.119193,-0.0872664,0,-1.5,nan,0,0,0,-0.294472,0.466637,0,0,0,0,0.160613,-0.0693257,18228,-0.324828,0.479739,0.160613,-0.0693257,8952,0,0,0,0,2,-0.466637
9156,-3.34228e-12,6.44999e-38,-1.59137e-06,-3.40794e-12,6.44952e-38,0,-1.13752e-13,0,0,-3.45343,0.484527,0.399381,0,0,0,0,0,-0.331194,0.484527,206,-78,206,-78,318,-73,201,69,-0.118609,-0.0872664,0,-1.5,nan,0,0,0,-0.292662,0.464988,0,0,0,0,0.158061,-0.0696249,18228,-0.293926,0.465545,0.158061,-0.0696249,9150,0,0,0,0,2,-0.464988
9169,-3.34228e-12,6.44999e-38,-1.59137e-06,-3.40794e-12,6.44952e-38,0,-1.13747e-13,0,0,-3.45343,0.484527,0.399381,0,0,0,0,0,-0.331194,0.484527,206,-78,206,-78,318,-73,201,69,-0.118358,-0.0872664,0,-1.5,nan,0,0,0,-0.290765,0.464152,0,0,0,0,0.158061,-0.0696249,18228,-0.293926,0.465545,0.158061,-0.0696249,9150,0,0,0,0,2,-0.464152
9184,-3.34228e-12,6.44999e-38,-1.59137e-06,-3.40794e-12,6.44952e-38,0,-1.13748e-13,0,0,-3.45343,0.484527,0.399381,0,0,0,0,0,-0.331194,0.484527,206,-78,206,-78,318,-73,201,69,-0.118024,-0.0872664,0,-1.5,nan,0,0,0,-0.288236,0.463038,0,0,0,0,0.158061,-0.0696249,18228,-0.293926,0.465545,0.158061,-0.0696249,9150,0,0,0,0,2,-0.463038
9199,-3.34228e-12,6.44999e-38,-1.59137e-06,-3.40794e-12,6.44952e-38,0,-1.13748e-13,0,0,-3.45343,0.484527,0.399381,0,0,0,0,0,-0.331194,0.484527,206,-78,206,-78,318,-73,201,69,-0.117711,-0.0872664,0,-1.5,nan,0,0,0,-0.285865,0.461994,0,0,0,0,0.158061,-0.0696249,18228,-0.293926,0.465545,0.158061,-0.0696249,9150,0,0,0,0,2,-0.461994
9215,-3.34228e-12,6.44999e-38,-1.59137e-06,-3.40794e-12,6.44952e-38,0,-1.13749e-13,0,0,-3.45343,0.484527,0.399381,0,0,0,0,0,-0.331194,0.484527,206,-78,206,-78,318,-73,201,69,-0.117376,-0.0872664,0,-1.5,nan,0,0,0,-0.283336,0.46088,0,0,0,0,0.158061,-0.0696249,18228,-0.293926,0.465545,0.158061,-0.0696249,9150,0,0,0,0,2,-0.46088
9229,-3.34228e-12,6.44999e-38,-1.59137e-06,-3.40794e-12,6.44952e-38,0,-1.13749e-13,0,0,-3.45343,0.484527,0.399381,0,0,0,0,0,-0.331194,0.484527,206,-78,206,-78,318,-73,201,69,-0.117084,-0.0872664,0,-1.5,nan,0,0,0,-0.281123,0.459905,0,0,0,0,0.158061,-0.0696249,18228,-0.293926,0.465545,0.158061,-0.0696249,9150,0,0,0,0,2,-0.459905
9245,-3.34228e-12,6.44999e-38,-1.59137e-06,-3.40794e-12,6.44952e-38,0,-1.1375e-13,0,0,-3.45343,0.484527,0.399381,0,0,0,0,0,-0.331194,0.484527,206,-78,206,-78,318,-73,201,69,-0.116771,-0.0872664,0,-1.5,nan,0,0,0,-0.278752,0.45886,0,0,0,0,0.158061,-0.0696249,18228,-0.293926,0.465545,0.158061,-0.0696249,9150,0,0,0,0,2,-0.45886
9260,-3.34228e-12,6.44999e-38,-1.59137e-06,-3.40794e-12,6.44952e-38,0,-1.1375e-13,0,0,-3.45343,0.484527,0.399381,0,0,0,0,0,-0.331194,0.484527,206,-78,206,-78,318,-73,201,69,-0.116436,-0.0872664,0,-1.5,nan,0,0,0,-0.276223,0.457746,0,0,0,0,0.158061,-0.0696249,18228,-0.293926,0.465545,0.158061,-0.0696249,9150,0,0,0,0,2,-0.457746
9275,-3.34228e-12,6.44999e-38,-1.59137e-06,-3.40794e-12,6.44952e-38,0,-1.13751e-13,0,0,-3.45343,0.484527,0.399381,0,0,0,0,0,-0.331194,0.484527,206,-78,206,-78,318,-73,201,69,-0.116123,-0.0872664,0,-1.5,nan,0,0,0,-0.273852,0.456702,0,0,0,0,0.158061,-0.0696249,18228,-0.293926,0.465545,0.158061,-0.0696249,9150,0,0,0,0,2,-0.456702
9294,-3.34228e-12,6.44999e-38,-1.59137e-06,-3.40794e-12,6.44952e-38,0,-1.13758e-13,0,0,-3.36691,0.496644,0.352177,0,0,0,0,0,-0.212669,0.496644,192,-79,192,-79,320,-73,201,69,-0.130774,-0.0872664,0,-1.5,nan,0,0,0,-0.270849,0.478225,0,0,0,0,0.158061,-0.0423108,19684,-0.272746,0.478733,0.158061,-0.0423108,9284,0,0,0,0,2,-0.478225
9309,-3.34228e-12,6.44999e-38,-1.59137e-06,-3.40794e-12,6.44952e-38,0,-1.13751e-13,0,0,-3.36691,0.496644,0.352177,0,0,0,0,0,-0.212669,0.496644,192,-79,192,-79,320,-73,201,69,-0.130584,-0.0872664,0,-1.5,nan,0,0,0,-0.268478,0.477591,0,0,0,0,0.158061,-0.0423108,19684,-0.272746,0.478733,0.158061,-0.0423108,9284,0,0,0,0,2,-0.477591
9324,-3.34228e-12,6.44999e-38,-1.59137e-06,-3.40794e-12,6.44952e-38,0,-1.13753e-13,0,0,-3.36691,0.496644,0.352177,0,0,0,0,0,-0.212669,0.496644,192,-79,192,-79,320,-73,201,69,-0.130394,-0.0872664,0,-1.5,nan,0,0,0,-0.266107,0.476956,0,0,0,0,0.158061,-0.0423108,19684,-0.272746,0.478733,0.158061,-0.0423108,9284,0,0,0,0,2,-0.476956
9339,-3.34228e-12,6.44999e-38,-1.59137e-06,-3.40794e-12,6.44952e-38,0,-1.13753e-13,0,0,-3.36691,0.496644,0.352177,0,0,0,0,0,-0.212669,0.496644,192,-79,192,-79,320,-73,201,69,-0.130203,-0.0872664,0,-1.5,nan,0,0,0,-0.263736,0.476321,0,0,0,0,0.158061,-0.0423108,19684,-0.272746,0.478733,0.158061,-0.0423108,9284,0,0,0,0,2,-0.476321
9356,-3.34228e-12,6.44999e-38,-1.59137e-06,-3.40794e-12,6.44952e-38,0,-1.13755e-13,0,0,-3.42417,0.486662,0.384286,0,0,0,0,0,-0.291111,0.486662,201,-78,201,-78,320,-73,201,69,-0.135035,-0.0872664,0,-1.5,nan,0,0,0,-0.262394,0.483781,0,0,0,0,0.157821,-0.0336631,18228,-0.263499,0.484016,0.157821,-0.0336631,9351,0,0,0,0,2,-0.483781
9371,-3.34228e-12,6.44999e-38,-1.59137e-06,-3.40794e-12,6.44952e-38,0,-1.13754e-13,0,0,-3.42417,0.486662,0.384286,0,0,0,0,0,-0.291111,0.486662,201,-78,201,-78,320,-73,201,69,-0.134884,-0.0872664,0,-1.5,nan,0,0,0,-0.260027,0.483276,0,0,0,0,0.157821,-0.0336631,18228,-0.263499,0.484016,0.157821,-0.0336631,9351,0,0,0,0,2,-0.483276
9387,-3.34228e-12,6.44999e-38,-1.59137e-06,-3.40794e-12,6.44952e-38,0,-1.13755e-13,0,0,-3.42417,0.486662,0.384286,0,0,0,0,0,-0.291111,0.486662,201,-78,201,-78,320,-73,201,69,-0.134722,-0.0872664,0,-1.5,nan,0,0,0,-0.257501,0.482737,0,0,0,0,0.157821,-0.0336631,18228,-0.263499,0.484016,0.157821,-0.0336631,9351,0,0,0,0,2,-0.482737
9402,-3.34228e-12,6.44999e-38,-1.59137e-06,-3.40794e-12,6.44952e-38,0,-1.13756e-13,0,0,-3.42417,0.486662,0.384286,0,0,0,0,0,-0.291111,0.486662,201,-78,201,-78,320,-73,201,69,-0.134571,-0.0872664,0,-1.5,nan,0,0,0,-0.255134,0.482232,0,0,0,0,0.157821,-0.0336631,18228,-0.263499,0.484016,0.157821,-0.0336631,9351,0,0,0,0,2,-0.482232
9421,-3.34228e-12,6.44999e-38,-1.59137e-06,-3.40794e-12,6.44952e-38,0,-1.13757e-13,0,0,-3.4124,0.482801,0.375195,0,0,0,0,0,-0.274989,0.482801,201,-78,201,-78,321,-73,201,69,-0.133944,-0.0872664,0,-1.5,nan,0,0,0,-0.272636,0.482502,0,0,0,0,0.141192,-0.0360203,18228,-0.274048,0.482862,0.141192,-0.0360203,9413,0,0,0,0,2,-0.482502
9436,-3.34228e-12,6.44999e-38,-1.59137e-06,-3.40794e-12,6.44952e-38,0,-1.13756e-13,0,0,-3.4124,0.482801,0.375195,0,0,0,0,0,-0.274989,0.482801,201,-78,201,-78,321,-73,201,69,-0.133782,-0.0872664,0,-1.5,nan,0,0,0,-0.270518,0.481961,0,0,0,0,0.141192,-0.0360203,18228,-0.274048,0.482862,0.141192,-0.0360203,9413,0,0,0,0,2,-0.481961
9452,-3.34228e-12,6.44999e-38,-1.59137e-06,-3.40794e-12,6.44952e-38,0,-1.13758e-13,0,0,-3.4124,0.482801,0.375195,0,0,0,0,0,-0.274989,0.482801,201,-78,201,-78,321,-73,201,69,-0.13362,-0.0872664,0,-1.5,nan,0,0,0,-0.2684,0.481421,0,0,0,0,0.141192,-0.0360203,18228,-0.274048,0.482862,0.141192,-0.0360203,9413,0,0,0,0,2,-0.481421
9467,-3.34228e-12,6.44999e-38,-1.59137e-06,-3.40794e-12,6.44952e-38,0,-1.13759e-13,0,0,-3.4124,0.482801,0.375195,0,0,0,0,0,-0.274989,0.482801,201,-78,201,-78,321,-73,201,69,-0.133458,-0.0872664,0,-1.5,nan,0,0,0,-0.266282,0.480881,0,0,0,0,0.141192,-0.0360203,18228,-0.274048,0.482862,0.141192,-0.0360203,9413,0,0,0,0,2,-0.480881
9482,-3.34228e-12,6.44999e-38,-1.59137e-06,-3.40794e-12,6.44952e-38,0,-1.13759e-13,0,0,-3.4124,0.482801,0.375195,0,0,0,0,0,-0.274989,0.482801,201,-78,201,-78,321,-73,201,69,-0.133285,-0.0872664,0,-1.5,nan,0,0,0,-0.264023,0.480304,0,0,0,0,0.141192,-0.0360203,18228,-0.274048,0.482862,0.141192,-0.0360203,9413,0,0,0,0,2,-0.480304
9497,-3.34228e-12,6.44999e-38,-1.59137e-06,-3.40794e-12,6.44952e-38,0,-1.1376e-13,0,0,-3.4124,0.482801,0.375195,0,0,0,0,0,-0.274989,0.482801,201,-78,201,-78,321,-73,201,69,-0.133123,-0.0872664,0,-1.5,nan,0,0,0,-0.261905,0.479764,0,0,0,0,0.141192,-0.0360203,18228,-0.274048,0.482862,0.141192,-0.0360203,9413,0,0,0,0,2,-0.479764
9512,-3.34228e-12,6.44999e-38,-1.59137e-06,-3.40794e-12,6.44952e-38,0,-1.13761e-13,0,0,-3.4124,0.482801,0.375195,0,0,0,0,0,-0.274989,0.482801,201,-78,201,-78,321,-73,201,69,-0.132961,-0.0872664,0,-1.5,nan,0,0,0,-0.259787,0.479224,0,0,0,0,0.141192,-0.0360203,18228,-0.274048,0.482862,0.141192,-0.0360203,9413,0,0,0,0,2,-0.479224
9531,-3.34228e-12,6.44999e-38,-1.59137e-06,-3.40794e-12,6.44952e-38,0,-1.13762e-13,0,0,-3.65312,0.553924,0.429294,0,0,0,0,0,-0.604781,0.553924,194,-54,194,-54,304,-58,203,71,-0.134689,-0.0872664,0,-1.5,nan,0,0,0,-0.258087,0.481078,0,0,0,0,0.142334,-0.0321139,17673,-0.260791,0.481688,0.142334,-0.0321139,9519,0,0,0,0,2,-0.481078
9544,-3.34228e-12,6.44999e-38,-1.59137e-06,-3.40794e-12,6.44952e-38,0,-1.13761e-13,0,0,-3.65312,0.553924,0.429294,0,0,0,0,0,-0.604781,0.553924,194,-54,194,-54,304,-58,203,71,-0.134564,-0.0872664,0,-1.5,nan,0,0,0,-0.256237,0.48066,0,0,0,0,0.142334,-0.0321139,17673,-0.260791,0.481688,0.142334,-0.0321139,9519,0,0,0,0,2,-0.48066
9557,-3.34228e-12,6.44999e-38,-1.59137e-06,-3.40794e-12,6.44952e-38,0,-1.13762e-13,0,0,-3.65312,0.553924,0.429294,0,0,0,0,0,-0.604781,0.553924,194,-54,194,-54,304,-58,203,71,-0.134439,-0.0872664,0,-1.5,nan,0,0,0,-0.254386,0.480243,0,0,0,0,0.142334,-0.0321139,17673,-0.260791,0.481688,0.142334,-0.0321139,9519,0,0,0,0,2,-0.480243
9572,-3.34228e-12,6.44999e-38,-1.59137e-06,-3.40794e-12,6.44952e-38,0,-1.13763e-13,0,0,-3.65312,0.553924,0.429294,0,0,0,0,0,-0.604781,0.553924,194,-54,194,-54,304,-58,203,71,-0.134294,-0.0872664,0,-1.5,nan,0,0,0,-0.252251,0.479761,0,0,0,0,0.142334,-0.0321139,17673,-0.260791,0.481688,0.142334,-0.0321139,9519,0,0,0,0,2,-0.479761
9587,-3.34228e-12,6.44999e-38,-1.59137e-06,-3.40794e-12,6.44952e-38,0,-1.13763e-13,0,0,-3.65312,0.553924,0.429294,0,0,0,0,0,-0.604781,0.553924,194,-54,194,-54,304,-58,203,71,-0.13415,-0.0872664,0,-1.5,nan,0,0,0,-0.250116,0.479279,0,0,0,0,0.142334,-0.0321139,17673,-0.260791,0.481688,0.142334,-0.0321139,9519,0,0,0,0,2,-0.479279
9602,-3.34228e-12,6.44999e-38,-1.59137e-06,-3.40794e-12,6.44952e-38,0,-1.13764e-13,0,0,-3.65312,0.553924,0.429294,0,0,0,0,0,-0.604781,0.553924,194,-54,194,-54,304,-58,203,71,-0.134005,-0.0872664,0,-1.5,nan,0,0,0,-0.247981,0.478798,0,0,0,0,0.142334,-0.0321139,17673,-0.260791,0.481688,0.142334,-0.0321139,9519,0,0,0,0,2,-0.478798
9618,-3.34228e-12,6.44999e-38,-1.59137e-06,-3.40794e-12,6.44952e-38,0,-1.13765e-13,0,0,-3.65312,0.553924,0.429294,0,0,0,0,0,-0.604781,0.553924,194,-54,194,-54,304,-58,203,71,-0.133851,-0.0872664,0,-1.5,nan,0,0,0,-0.245704,0.478284,0,0,0,0,0.142334,-0.0321139,17673,-0.260791,0.481688,0.142334,-0.0321139,9519,0,0,0,0,2,-0.478284
9633,-3.34228e-12,6.44999e-38,-1.59137e-06,-3.40794e-12,6.44952e-38,0,-1.13765e-13,0,0,-3.65312,0.553924,0.429294,0,0,0,0,0,-0.604781,0.553924,194,-54,194,-54,304,-58,203,71,-0.133706,-0.0872664,0,-1.5,nan,0,0,0,-0.243569,0.477802,0,0,0,0,0.142334,-0.0321139,17673,-0.260791,0.481688,0.142334,-0.0321139,9519,0,0,0,0,2,-0.477802
9649,-3.34228e-12,6.44999e-38,-1.59137e-06,-3.40794e-12,6.44952e-38,0,-1.13766e-13,0,0,-3.65312,0.553924,0.429294,0,0,0,0,0,-0.604781,0.553924,194,-54,194,-54,304,-58,203,71,-0.133562,-0.0872664,0,-1.5,nan,0,0,0,-0.241434,0.47732,0,0,0,0,0.142334,-0.0321139,17673,-0.260791,0.481688,0.142334,-0.0321139,9519,0,0,0,0,2,-0.47732
9663,-3.34228e-12,6.44999e-38,-1.59137e-06,-3.40794e-12,6.44952e-38,0,-1.13766e-13,0,0,-3.65312,0.553924,0.429294,0,0,0,0,0,-0.604781,0.553924,194,-54,194,-54,304,-58,203,71,-0.133417,-0.0872664,0,-1.5,nan,0,0,0,-0.239298,0.476839,0,0,0,0,0.142334,-0.0321139,17673,-0.260791,0.481688,0.142334,-0.0321139,9519,0,0,0,0,2,-0.476839
9679,-3.34228e-12,6.44999e-38,-1.59137e-06,-3.40794e-12,6.44952e-38,0,-1.13767e-13,0,0,-3.65312,0.553924,0.429294,0,0,0,0,0,-0.604781,0.553924,194,-54,194,-54,304,-58,203,71,-0.133273,-0.0872664,0,-1.5,nan,0,0,0,-0.237163,0.476357,0,0,0,0,0.142334,-0.0321139,17673,-0.260791,0.481688,0.142334,-0.0321139,9519,0,0,0,0,2,-0.476357
9693,-3.34228e-12,6.44999e-38,-1.59137e-06,-3.40794e-12,6.44952e-38,0,-1.13767e-13,0,0,-3.65312,0.553924,0.429294,0,0,0,0,0,-0.604781,0.553924,194,-54,194,-54,304,-58,203,71,-0.133128,-0.0872664,0,-1.5,nan,0,0,0,-0.235028,0.475875,0,0,0,0,0.142334,-0.0321139,17673,-0.260791,0.481688,0.142334,-0.0321139,9519,0,0,0,0,2,-0.475875
9708,-3.34228e-12,6.44999e-38,-1.59137e-06,-3.40794e-12,6.44952e-38,0,-1.13768e-13,0,0,-3.65312,0.553924,0.429294,0,0,0,0,0,-0.604781,0.553924,194,-54,194,-54,304,-58,203,71,-0.132984,-0.0872664,0,-1.5,nan,0,0,0,-0.232893,0.475393,0,0,0,0,0.142334,-0.0321139,17673,-0.260791,0.481688,0.142334,-0.0321139,9519,0,0,0,0,2,-0.475393
9726,-3.34228e-12,6.44999e-38,-1.59137e-06,-3.40794e-12,6.44952e-38,0,-1.13768e-13,0,0,-3.65312,0.553924,0.429294,0,0,0,0,0,-0.604781,0.553924,194,-54,194,-54,304,-58,203,71,-0.13281,-0.0872664,0,-1.5,nan,0,0,0,-0.230331,0.474815,0,0,0,0,0.142334,-0.0321139,17673,-0.260791,0.481688,0.142334,-0.0321139,9519,0,0,0,0,2,-0.474815
9740,-3.34228e-12,6.44999e-38,-1.59137e-06,-3.40794e-12,6.44952e-38,0,-1.13769e-13,0,0,-3.65312,0.553924,0.429294,0,0,0,0,0,-0.604781,0.553924,194,-54,194,-54,304,-58,203,71,-0.132676,-0.0872664,0,-1.5,nan,0,0,0,-0.228338,0.474366,0,0,0,0,0.142334,-0.0321139,17673,-0.260791,0.481688,0.142334,-0.0321139,9519,0,0,0,0,2,-0.474366
9755,-3.34228e-12,6.44999e-38,-1.59137e-06,-3.40794e-12,6.44952e-38,0,-1.13769e-13,0,0,-3.65312,0.553924,0.429294,0,0,0,0,0,-0.604781,0.553924,194,-54,194,-54,304,-58,203,71,-0.132531,-0.0872664,0,-1.5,nan,0,0,0,-0.226203,0.473884,0,0,0,0,0.142334,-0.0321139,17673,-0.260791,0.481688,0.142334,-0.0321139,9519,0,0,0,0,2,-0.473884
9770,-3.34228e-12,6.44999e-38,-1.59137e-06,-3.40794e-12,6.44952e-38,0,-1.1377e-13,0,0,-3.65312,0.553924,0.429294,0,0,0,0,0,-0.604781,0.553924,194,-54,194,-54,304,-58,203,71,-0.132387,-0.0872664,0,-1.5,nan,0,0,0,-0.224068,0.473402,0,0,0,0,0.142334,-0.0321139,17673,-0.260791,0.481688,0.142334,-0.0321139,9519,0,0,0,0,2,-0.473402
9789,-3.34228e-12,6.44999e-38,-1.59137e-06,-3.40794e-12,6.44952e-38,0,-1.13771e-13,0,0,-3.39508,0.490133,0.338696,0,0,0,0,0,-0.251258,0.490133,192,-79,192,-79,324,-61,201,69,-0.132129,-0.0872664,0,-1.5,nan,0,0,0,-0.229933,0.472645,0,0,0,0,0.135764,-0.0322137,19684,-0.231019,0.472903,0.135764,-0.0322137,9784,0,0,0,0,2,-0.472645
9804,-3.34228e-12,6.44999e-38,-1.59137e-06,-3.40794e-12,6.44952e-38,0,-1.13771e-13,0,0,-3.39508,0.490133,0.338696,0,0,0,0,0,-0.251258,0.490133,192,-79,192,-79,324,-61,201,69,-0.131984,-0.0872664,0,-1.5,nan,0,0,0,-0.227896,0.472162,0,0,0,0,0.135764,-0.0322137,19684,-0.231019,0.472903,0.135764,-0.0322137,9784,0,0,0,0,2,-0.472162
9820,-3.34228e-12,6.44999e-38,-1.59137e-06,-3.40794e-12,6.44952e-38,0,-1.13772e-13,0,0,-3.39508,0.490133,0.338696,0,0,0,0,0,-0.251258,0.490133,192,-79,192,-79,324,-61,201,69,-0.13183,-0.0872664,0,-1.5,nan,0,0,0,-0.225724,0.471646,0,0,0,0,0.135764,-0.0322137,19684,-0.231019,0.472903,0.135764,-0.0322137,9784,0,0,0,0,2,-0.471646
9835,-3.34228e-12,6.44999e-38,-1.59137e-06,-3.40794e-12,6.44952e-38,0,-1.13772e-13,0,0,-3.39508,0.490133,0.338696,0,0,0,0,0,-0.251258,0.490133,192,-79,192,-79,324,-61,201,69,-0.131685,-0.0872664,0,-1.5,nan,0,0,0,-0.223687,0.471163,0,0,0,0,0.135764,-0.0322137,19684,-0.231019,0.472903,0.135764,-0.0322137,9784,0,0,0,0,2,-0.471163
9850,-3.34228e-12,6.44999e-38,-1.59137e-06,-3.40794e-12,6.44952e-38,0,-1.13773e-13,0,0,-3.39508,0.490133,0.338696,0,0,0,0,0,-0.251258,0.490133,192,-79,192,-79,324,-61,201,69,-0.13154,-0.0872664,0,-1.5,nan,0,0,0,-0.221651,0.47068,0,0,0,0,0.135764,-0.0322137,19684,-0.231019,0.472903,0.135764,-0.0322137,9784,0,0,0,0,2,-0.47068
9865,-3.34228e-12,6.44999e-38,-1.59137e-06,-3.40794e-12,6.44952e-38,0,-1.13774e-13,0,0,-3.39508,0.490133,0.338696,0,0,0,0,0,-0.251258,0.490133,192,-79,192,-79,324,-61,201,69,-0.131395,-0.0872664,0,-1.5,nan,0,0,0,-0.219614,0.470197,0,0,0,0,0.135764,-0.0322137,19684,-0.231019,0.472903,0.135764,-0.0322137,9784,0,0,0,0,2,-0.470197
9881,-3.34228e-12,6.44999e-38,-1.59137e-06,-3.40794e-12,6.44952e-38,0,-1.13774e-13,0,0,-3.39508,0.490133,0.338696,0,0,0,0,0,-0.251258,0.490133,192,-79,192,-79,324,-61,201,69,-0.13124,-0.0872664,0,-1.5,nan,0,0,0,-0.217442,0.469681,0,0,0,0,0.135764,-0.0322137,19684,-0.231019,0.472903,0.135764,-0.0322137,9784,0,0,0,0,2,-0.469681
9896,-3.34228e-12,6.44999e-38,-1.59137e-06,-3.40794e-12,6.44952e-38,0,-1.13775e-13,0,0,-3.39508,0.490133,0.338696,0,0,0,0,0,-0.251258,0.490133,192,-79,192,-79,324,-61,201,69,-0.131105,-0.0872664,0,-1.5,nan,0,0,0,-0.215541,0.46923,0,0,0,0,0.135764,-0.0322137,19684,-0.231019,0.472903,0.135764,-0.0322137,9784,0,0,0,0,2,-0.46923
9911,-3.34228e-12,6.44999e-38,-1.59137e-06,-3.40794e-12,6.44952e-38,0,-1.13775e-13,0,0,-3.39508,0.490133,0.338696,0,0,0,0,0,-0.251258,0.490133,192,-79,192,-79,324,-61,201,69,-0.13096,-0.0872664,0,-1.5,nan,0,0,0,-0.213505,0.468747,0,0,0,0,0.135764,-0.0322137,19684,-0.231019,0.472903,0.135764,-0.0322137,9784,0,0,0,0,2,-0.468747
9924,-3.34228e-12,6.44999e-38,-1.59137e-06,-3.40794e-12,6.44952e-38,0,-1.13776e-13,0,0,-3.39508,0.490133,0.338696,0,0,0,0,0,-0.251258,0.490133,192,-79,192,-79,324,-61,201,69,-0.130825,-0.0872664,0,-1.5,nan,0,0,0,-0.211604,0.468296,0,0,0,0,0.135764,-0.0322137,19684,-0.231019,0.472903,0.135764,-0.0322137,9784,0,0,0,0,2,-0.468296
9937,-3.34228e-12,6.44999e-38,-1.59137e-06,-3.40794e-12,6.44952e-38,0,-1.13776e-13,0,0,-3.39508,0.490133,0.338696,0,0,0,0,0,-0.251258,0.490133,192,-79,192,-79,324,-61,201,69,-0.130699,-0.0872664,0,-1.5,nan,0,0,0,-0.209839,0.467877,0,0,0,0,0.135764,-0.0322137,19684,-0.231019,0.472903,0.135764,-0.0322137,9784,0,0,0,0,2,-0.467877
9992,-3.34228e-12,6.44999e-38,-1.59137e-06,-3.40794e-12,6.44952e-38,0,-1.13778e-13,0,0,-3.60416,0.52415,0.416923,0,0,0,0,0,-0.537706,0.52415,194,-56,194,-56,322,-61,203,69,-0.154465,-0.0872664,0,-1.5,nan,0,0,0,-0.403994,0.505772,0,0,0,0,-0.0792191,0.00910994,16770,-0.403202,0.505681,-0.0792191,0.00910994,9985,0,0,0,0,2,-0.505772
10008,-3.34228e-12,6.44999e-38,-1.59137e-06,-3.40794e-12,6.44952e-38,0,-1.13777e-13,0,0,-3.60416,0.52415,0.416923,0,0,0,0,0,-0.537706,0.52415,194,-56,194,-56,322,-61,203,69,-0.154508,-0.0872664,0,-1.5,nan,0,0,0,-0.405262,0.505918,0,0,0,0,-0.0792191,0.00910994,16770,-0.403202,0.505681,-0.0792191,0.00910994,9985,0,0,0,0,2,-0.505918
10027,-3.34228e-12,6.44999e-38,-1.59137e-06,-3.40794e-12,6.44952e-38,0,-1.13779e-13,0,0,-3.68071,0.528964,0.430679,0,0,0,0,0,-0.642571,0.528964,194,-54,194,-54,322,-49,203,69,-0.168388,-0.0872664,0,-1.5,nan,0,0,0,-0.543,0.52499,0,0,0,0,-0.203922,0.0363031,16113,-0.539125,0.5243,-0.203922,0.0363031,10015,0,0,0,0,2,-0.52499
10042,-3.34228e-12,6.44999e-38,-1.59137e-06,-3.40794e-12,6.44952e-38,0,-1.13778e-13,0,0,-3.68071,0.528964,0.430679,0,0,0,0,0,-0.642571,0.528964,194,-54,194,-54,322,-49,203,69,-0.168551,-0.0872664,0,-1.5,nan,0,0,0,-0.546059,0.525534,0,0,0,0,-0.203922,0.0363031,16113,-0.539125,0.5243,-0.203922,0.0363031,10015,0,0,0,0,2,-0.525534
10062,-3.34228e-12,6.44999e-38,-1.59137e-06,-3.40794e-12,6.44952e-38,0,-1.13785e-13,0,0,-3.66699,0.531196,0.427585,0,0,0,0,0,-0.623777,0.531196,196,-56,196,-56,321,-49,200,69,-0.170574,-0.0872664,0,-1.5,nan,0,0,0,-0.562254,0.528741,0,0,0,0,-0.22853,0.0398375,16125,-0.559969,0.528343,-0.22853,0.0398375,10053,0,0,0,0,2,-0.528741
10077,-3.34228e-12,6.44999e-38,-1.59137e-06,-3.40794e-12,6.44952e-38,0,-1.1378e-13,0,0,-3.66699,0.531196,0.427585,0,0,0,0,0,-0.623777,0.531196,196,-56,196,-56,321,-49,200,69,-0.170753,-0.0872664,0,-1.5,nan,0,0,0,-0.565682,0.529339,0,0,0,0,-0.22853,0.0398375,16125,-0.559969,0.528343,-0.22853,0.0398375,10053,0,0,0,0,2,-0.529339
10096,-3.34228e-12,6.44999e-38,-1.59137e-06,-3.40794e-12,6.44952e-38,0,-1.13786e-13,0,0,-3.6114,0.514206,0.421224,0,0,0,0,0,-0.547624,0.514206,197,-56,197,-56,322,-61,203,69,-0.16998,-0.0872664,0,-1.5,nan,0,0,0,-0.55476,0.528488,0,0,0,0,-0.215139,0.0381109,16640,-0.550458,0.527726,-0.215139,0.0381109,10084,0,0,0,0,2,-0.528488
10111,-3.34228e-12,6.44999e-38,-1.59137e-06,-3.40794e-12,6.44952e-38,0,-1.13785e-13,0,0,-3.6114,0.514206,0.421224,0,0,0,0,0,-0.547624,0.514206,197,-56,197,-56,322,-61,203,69,-0.170151,-0.0872664,0,-1.5,nan,0,0,0,-0.557988,0.52906,0,0,0,0,-0.215139,0.0381109,16640,-0.550458,0.527726,-0.215139,0.0381109,10084,0,0,0,0,2,-0.52906
10131,-3.34228e-12,6.44999e-38,-1.59137e-06,-3.40794e-12,6.44952e-38,0,-1.13788e-13,0,0,-3.65127,0.528866,0.418605,0,0,0,0,0,-0.602246,0.528866,194,-56,194,-56,322,-49,201,69,-0.170148,-0.0872664,0,-1.5,nan,0,0,0,-0.60185,0.529539,0,0,0,0,-0.243346,0.0376202,16375,-0.597227,0.528824,-0.243346,0.0376202,10118,0,0,0,0,2,-0.529539
10146,-3.34228e-12,6.44999e-38,-1.59137e-06,-3.40794e-12,6.44952e-38,0,-1.13787e-13,0,0,-3.65127,0.528866,0.418605,0,0,0,0,0,-0.602246,0.528866,194,-56,194,-56,322,-49,201,69,-0.170328,-0.0872664,0,-1.5,nan,0,0,0,-0.605744,0.530141,0,0,0,0,-0.243346,0.0376202,16375,-0.597227,0.528824,-0.243346,0.0376202,10118,0,0,0,0,2,-0.530141
10165,-3.34228e-12,6.44999e-38,-1.59137e-06,-3.40794e-12,6.44952e-38,0,-1.13784e-13,0,0,-3.51715,0.494577,0.36537,0,0,0,0,0,-0.4185,0.494577,197,-56,197,-56,321,-63,201,70,-0.168332,-0.0872664,0,-1.5,nan,0,0,0,-0.571124,0.527483,0,0,0,0,-0.221733,0.0336229,17822,-0.566911,0.526844,-0.221733,0.0336229,10152,0,0,0,0,2,-0.527483
10178,-3.34228e-12,6.44999e-38,-1.59137e-06,-3.40794e-12,6.44952e-38,0,-1.1378e-13,0,0,-3.51715,0.494577,0.36537,0,0,0,0,0,-0.4185,0.494577,197,-56,197,-56,321,-63,201,70,-0.168463,-0.0872664,0,-1.5,nan,0,0,0,-0.574007,0.52792,0,0,0,0,-0.221733,0.0336229,17822,-0.566911,0.526844,-0.221733,0.0336229,10152,0,0,0,0,2,-0.52792
10197,-3.34228e-12,6.44999e-38,-1.59137e-06,-3.40794e-12,6.44952e-38,0,-1.13791e-13,0,0,-3.56398,0.523202,0.387373,0,0,0,0,0,-0.482656,0.523202,194,-54,194,-54,320,-63,201,70,-0.168501,-0.0872664,0,-1.5,nan,0,0,0,-0.57947,0.527586,0,0,0,0,-0.233291,0.0340828,17423,-0.575037,0.526938,-0.233291,0.0340828,10185,0,0,0,0,2,-0.527586
10212,-3.34228e-12,6.44999e-38,-1.59137e-06,-3.40794e-12,6.44952e-38,0,-1.13788e-13,0,0,-3.56398,0.523202,0.387373,0,0,0,0,0,-0.482656,0.523202,194,-54,194,-54,320,-63,201,70,-0.168654,-0.0872664,0,-1.5,nan,0,0,0,-0.58297,0.528097,0,0,0,0,-0.233291,0.0340828,17423,-0.575037,0.526938,-0.233291,0.0340828,10185,0,0,0,0,2,-0.528097
10227,-3.34228e-12,6.44999e-38,-1.59137e-06,-3.40794e-12,6.44952e-38,0,-1.13789e-13,0,0,-3.56398,0.523202,0.387373,0,0,0,0,0,-0.482656,0.523202,194,-54,194,-54,320,-63,201,70,-0.168807,-0.0872664,0,-1.5,nan,0,0,0,-0.586469,0.528609,0,0,0,0,-0.233291,0.0340828,17423,-0.575037,0.526938,-0.233291,0.0340828,10185,0,0,0,0,2,-0.528609
10242,-3.34228e-12,6.44999e-38,-1.59137e-06,-3.40794e-12,6.44952e-38,0,-1.13789e-13,0,0,-3.56398,0.523202,0.387373,0,0,0,0,0,-0.482656,0.523202,194,-54,194,-54,320,-63,201,70,-0.168961,-0.0872664,0,-1.5,nan,0,0,0,-0.589968,0.52912,0,0,0,0,-0.233291,0.0340828,17423,-0.575037,0.526938,-0.233291,0.0340828,10185,0,0,0,0,2,-0.52912
10257,-3.34228e-12,6.44999e-38,-1.59137e-06,-3.40794e-12,6.44952e-38,0,-1.1379e-13,0,0,-3.56398,0.523202,0.387373,0,0,0,0,0,-0.482656,0.523202,194,-54,194,-54,320,-63,201,70,-0.169114,-0.0872664,0,-1.5,nan,0,0,0,-0.593468,0.529631,0,0,0,0,-0.233291,0.0340828,17423,-0.575037,0.526938,-0.233291,0.0340828,10185,0,0,0,0,2,-0.529631
10272,-3.34228e-12,6.44999e-38,-1.59137e-06,-3.40794e-12,6.44952e-38,0,-1.1379e-13,0,0,-3.56398,0.523202,0.387373,0,0,0,0,0,-0.482656,0.523202,194,-54,194,-54,320,-63,201,70,-0.169268,-0.0872664,0,-1.5,nan,0,0,0,-0.596967,0.530142,0,0,0,0,-0.233291,0.0340828,17423,-0.575037,0.526938,-0.233291,0.0340828,10185,0,0,0,0,2,-0.530142
10291,-3.34228e-12,6.44999e-38,-1.59137e-06,-3.40794e-12,6.44952e-38,0,-1.13794e-13,0,0,-3.59688,0.525346,0.402417,0,0,0,0,0,-0.527721,0.525346,194,-54,194,-54,321,-59,201,70,-0.168229,-0.0872664,0,-1.5,nan,0,0,0,-0.593566,0.527443,0,0,0,0,-0.230095,0.0333217,16899,-0.592185,0.527243,-0.230095,0.0333217,10287,0,0,0,0,2,-0.527443
10306,-3.34228e-12,6.44999e-38,-1.59137e-06,-3.40794e-12,6.44952e-38,0,-1.13791e-13,0,0,-3.59688,0.525346,0.402417,0,0,0,0,0,-0.527721,0.525346,194,-54,194,-54,321,-59,201,70,-0.168379,-0.0872664,0,-1.5,nan,0,0,0,-0.597017,0.527943,0,0,0,0,-0.230095,0.0333217,16899,-0.592185,0.527243,-0.230095,0.0333217,10287,0,0,0,0,2,-0.527943
10321,-3.34228e-12,6.44999e-38,-1.59137e-06,-3.40794e-12,6.44952e-38,0,-1.13792e-13,0,0,-3.59688,0.525346,0.402417,0,0,0,0,0,-0.527721,0.525346,194,-54,194,-54,321,-59,201,70,-0.168529,-0.0872664,0,-1.5,nan,0,0,0,-0.600469,0.528443,0,0,0,0,-0.230095,0.0333217,16899,-0.592185,0.527243,-0.230095,0.0333217,10287,0,0,0,0,2,-0.528443
10336,-3.34228e-12,6.44999e-38,-1.59137e-06,-3.40794e-12,6.44952e-38,0,-1.13793e-13,0,0,-3.59688,0.525346,0.402417,0,0,0,0,0,-0.527721,0.525346,194,-54,194,-54,321,-59,201,70,-0.168679,-0.0872664,0,-1.5,nan,0,0,0,-0.603921,0.528943,0,0,0,0,-0.230095,0.0333217,16899,-0.592185,0.527243,-0.230095,0.0333217,10287,0,0,0,0,2,-0.528943
10351,-3.34228e-12,6.44999e-38,-1.59137e-06,-3.40794e-12,6.44952e-38,0,-1.13793e-13,0,0,-3.59688,0.525346,0.402417,0,0,0,0,0,-0.527721,0.525346,194,-54,194,-54,321,-59,201,70,-0.168829,-0.0872664,0,-1.5,nan,0,0,0,-0.607372,0.529443,0,0,0,0,-0.230095,0.0333217,16899,-0.592185,0.527243,-0.230095,0.0333217,10287,0,0,0,0,2,-0.529443
10364,-3.34228e-12,6.44999e-38,-1.59137e-06,-3.40794e-12,6.44952e-38,0,-1.13794e-13,0,0,-3.59688,0.525346,0.402417,0,0,0,0,0,-0.527721,0.525346,194,-54,194,-54,321,-59,201,70,-0.168959,-0.0872664,0,-1.5,nan,0,0,0,-0.610363,0.529876,0,0,0,0,-0.230095,0.0333217,16899,-0.592185,0.527243,-0.230095,0.0333217,10287,0,0,0,0,2,-0.529876
10378,-3.34228e-12,6.44999e-38,-1.59137e-06,-3.40794e-12,6.44952e-38,0,-1.13781e-13,0,0,-3.59688,0.525346,0.402417,0,0,0,0,0,-0.527721,0.525346,194,-54,194,-54,321,-59,201,70,-0.169089,-0.0872664,0,-1.5,nan,0,0,0,-0.613355,0.530309,0,0,0,0,-0.230095,0.0333217,16899,-0.592185,0.527243,-0.230095,0.0333217,10287,0,0,0,0,2,-0.530309
10393,-3.34228e-12,6.44999e-38,-1.59137e-06,-3.40794e-12,6.44952e-38,0,-1.13781e-13,0,0,-3.59688,0.525346,0.402417,0,0,0,0,0,-0.527721,0.525346,194,-54,194,-54,321,-59,201,70,-0.169239,-0.0872664,0,-1.5,nan,0,0,0,-0.616806,0.530809,0,0,0,0,-0.230095,0.0333217,16899,-0.592185,0.527243,-0.230095,0.0333217,10287,0,0,0,0,2,-0.530809
10407,-3.34228e-12,6.44999e-38,-1.59137e-06,-3.40794e-12,6.44952e-38,0,-1.13782e-13,0,0,-3.59688,0.525346,0.402417,0,0,0,0,0,-0.527721,0.525346,194,-54,194,-54,321,-59,201,70,-0.169389,-0.0872664,0,-1.5,nan,0,0,0,-0.620258,0.531309,0,0,0,0,-0.230095,0.0333217,16899,-0.592185,0.527243,-0.230095,0.0333217,10287,0,0,0,0,2,-0.531309
10423,-3.34228e-12,6.44999e-38,-1.59137e-06,-3.40794e-12,6.44952e-38,0,-1.13782e-13,0,0,-3.59688,0.525346,0.402417,0,0,0,0,0,-0.527721,0.525346,194,-54,194,-54,321,-59,201,70,-0.169539,-0.0872664,0,-1.5,nan,0,0,0,-0.623709,0.531809,0,0,0,0,-0.230095,0.0333217,16899,-0.592185,0.527243,-0.230095,0.0333217,10287,0,0,0,0,2,-0.531809
10438,-3.34228e-12,6.44999e-38,-1.59137e-06,-3.40794e-12,6.44952e-38,0,-1.13783e-13,0,0,-3.59688,0.525346,0.402417,0,0,0,0,0,-0.527721,0.525346,194,-54,194,-54,321,-59,201,70,-0.169689,-0.0872664,0,-1.5,nan,0,0,0,-0.627161,0.532308,0,0,0,0,-0.230095,0.0333217,16899,-0.592185,0.527243,-0.230095,0.0333217,10287,0,0,0,0,2,-0.532308
10453,-3.34228e-12,6.44999e-38,-1.59137e-06,-3.40794e-12,6.44952e-38,0,-1.13783e-13,0,0,-3.59688,0.525346,0.402417,0,0,0,0,0,-0.527721,0.525346,194,-54,194,-54,321,-59,201,70,-0.169839,-0.0872664,0,-1.5,nan,0,0,0,-0.630612,0.532808,0,0,0,0,-0.230095,0.0333217,16899,-0.592185,0.527243,-0.230095,0.0333217,10287,0,0,0,0,2,-0.532808
10467,-3.34228e-12,6.44999e-38,-1.59137e-06,-3.40794e-12,6.44952e-38,0,-1.13795e-13,0,0,-3.59688,0.525346,0.402417,0,0,0,0,0,-0.527721,0.525346,194,-54,194,-54,321,-59,201,70,-0.169989,-0.0872664,0,-1.5,nan,0,0,0,-0.634064,0.533308,0,0,0,0,-0.230095,0.0333217,16899,-0.592185,0.527243,-0.230095,0.0333217,10287,0,0,0,0,2,-0.533308
10483,-3.34228e-12,6.44999e-38,-1.59137e-06,-3.40794e-12,6.44952e-38,0,-1.13795e-13,0,0,-3.59688,0.525346,0.402417,0,0,0,0,0,-0.527721,0.525346,194,-54,194,-54,321,-59,201,70,-0.170149,-0.0872664,0,-1.5,nan,0,0,0,-0.637745,0.533841,0,0,0,0,-0.230095,0.0333217,16899,-0.592185,0.527243,-0.230095,0.0333217,10287,0,0,0,0,2,-0.533841
10498,-3.34228e-12,6.44999e-38,-1.59137e-06,-3.40794e-12,6.44952e-38,0,-1.13796e-13,0,0,-3.59688,0.525346,0.402417,0,0,0,0,0,-0.527721,0.525346,194,-54,194,-54,321,-59,201,70,-0.170289,-0.0872664,0,-1.5,nan,0,0,0,-0.640967,0.534308,0,0,0,0,-0.230095,0.0333217,16899,-0.592185,0.527243,-0.230095,0.0333217,10287,0,0,0,0,2,-0.534308
10512,-3.34228e-12,6.44999e-38,-1.59137e-06,-3.40794e-12,6.44952e-38,0,-1.13796e-13,0,0,-3.59688,0.525346,0.402417,0,0,0,0,0,-0.527721,0.525346,194,-54,194,-54,321,-59,201,70,-0.170439,-0.0872664,0,-1.5,nan,0,0,0,-0.644418,0.534808,0,0,0,0,-0.230095,0.0333217,16899,-0.592185,0.527243,-0.230095,0.0333217,10287,0,0,0,0,2,-0.534808
10530,-3.34228e-12,6.44999e-38,-1.59137e-06,-3.40794e-12,6.44952e-38,0,-1.13797e-13,0,0,-3.59688,0.525346,0.402417,0,0,0,0,0,-0.527721,0.525346,194,-54,194,-54,321,-59,201,70,-0.170609,-0.0872664,0,-1.5,nan,0,0,0,-0.64833,0.535374,0,0,0,0,-0.230095,0.0333217,16899,-0.592185,0.527243,-0.230095,0.0333217,10287,0,0,0,0,2,-0.535374
10544,-3.34228e-12,6.44999e-38,-1.59137e-06,-3.40794e-12,6.44952e-38,0,-1.13798e-13,0,0,-3.59688,0.525346,0.402417,0,0,0,0,0,-0.527721,0.525346,194,-54,194,-54,321,-59,201,70,-0.170749,-0.0872664,0,-1.5,nan,0,0,0,-0.651551,0.535841,0,0,0,0,-0.230095,0.0333217,16899,-0.592185,0.527243,-0.230095,0.0333217,10287,0,0,0,0,2,-0.535841
10556,-3.34228e-12,6.44999e-38,-1.59137e-06,-3.40794e-12,6.44952e-38,0,-1.13798e-13,0,0,-3.59688,0.525346,0.402417,0,0,0,0,0,-0.527721,0.525346,194,-54,194,-54,321,-59,201,70,-0.170879,-0.0872664,0,-1.5,nan,0,0,0,-0.654543,0.536274,0,0,0,0,-0.230095,0.0333217,16899,-0.592185,0.527243,-0.230095,0.0333217,10287,0,0,0,0,2,-0.536274
10571,-3.34228e-12,6.44999e-38,-1.59137e-06,-3.40794e-12,6.44952e-38,0,-1.13799e-13,0,0,-3.59688,0.525346,0.402417,0,0,0,0,0,-0.527721,0.525346,194,-54,194,-54,321,-59,201,70,-0.171029,-0.0872664,0,-1.5,nan,0,0,0,-0.657994,0.536774,0,0,0,0,-0.230095,0.0333217,16899,-0.592185,0.527243,-0.230095,0.0333217,10287,0,0,0,0,2,-0.536774
10591,-3.34228e-12,6.44999e-38,-1.59137e-06,-3.40794e-12,6.44952e-38,0,-1.13805e-13,0,0,-3.66504,0.510445,0.456363,0,0,0,0,0,-0.621105,0.510445,203,-57,203,-57,321,-61,203,68,-0.170371,-0.0872664,0,-1.5,nan,0,0,0,-0.63955,0.53583,0,0,0,0,-0.212253,0.0320745,15738,-0.637215,0.535477,-0.212253,0.0320745,10582,0,0,0,0,2,-0.53583
10606,-3.34228e-12,6.44999e-38,-1.59137e-06,-3.40794e-12,6.44952e-38,0,-1.13799e-13,0,0,-3.66504,0.510445,0.456363,0,0,0,0,0,-0.621105,0.510445,203,-57,203,-57,321,-61,203,68,-0.170516,-0.0872664,0,-1.5,nan,0,0,0,-0.642733,0.536311,0,0,0,0,-0.212253,0.0320745,15738,-0.637215,0.535477,-0.212253,0.0320745,10582,0,0,0,0,2,-0.536311
10621,-3.34228e-12,6.44999e-38,-1.59137e-06,-3.40794e-12,6.44952e-38,0,-1.138e-13,0,0,-3.66504,0.510445,0.456363,0,0,0,0,0,-0.621105,0.510445,203,-57,203,-57,321,-61,203,68,-0.17066,-0.0872664,0,-1.5,nan,0,0,0,-0.645917,0.536792,0,0,0,0,-0.212253,0.0320745,15738,-0.637215,0.535477,-0.212253,0.0320745,10582,0,0,0,0,2,-0.536792
10636,-3.34228e-12,6.44999e-38,-1.59137e-06,-3.40794e-12,6.44952e-38,0,-1.138e-13,0,0,-3.66504,0.510445,0.456363,0,0,0,0,0,-0.621105,0.510445,203,-57,203,-57,321,-61,203,68,-0.170804,-0.0872664,0,-1.5,nan,0,0,0,-0.649101,0.537274,0,0,0,0,-0.212253,0.0320745,15738,-0.637215,0.535477,-0.212253,0.0320745,10582,0,0,0,0,2,-0.537274
10652,-3.34228e-12,6.44999e-38,-1.59137e-06,-3.40794e-12,6.44952e-38,0,-1.13801e-13,0,0,-3.66504,0.510445,0.456363,0,0,0,0,0,-0.621105,0.510445,203,-57,203,-57,321,-61,203,68,-0.170949,-0.0872664,0,-1.5,nan,0,0,0,-0.652285,0.537755,0,0,0,0,-0.212253,0.0320745,15738,-0.637215,0.535477,-0.212253,0.0320745,10582,0,0,0,0,2,-0.537755
10666,-3.34228e-12,6.44999e-38,-1.59137e-06,-3.40794e-12,6.44952e-38,0,-1.13801e-13,0,0,-3.66504,0.510445,0.456363,0,0,0,0,0,-0.621105,0.510445,203,-57,203,-57,321,-61,203,68,-0.171093,-0.0872664,0,-1.5,nan,0,0,0,-0.655469,0.538236,0,0,0,0,-0.212253,0.0320745,15738,-0.637215,0.535477,-0.212253,0.0320745,10582,0,0,0,0,2,-0.538236
10682,-3.34228e-12,6.44999e-38,-1.59137e-06,-3.40794e-12,6.44952e-38,0,-1.13802e-13,0,0,-3.66504,0.510445,0.456363,0,0,0,0,0,-0.621105,0.510445,203,-57,203,-57,321,-61,203,68,-0.171247,-0.0872664,0,-1.5,nan,0,0,0,-0.658865,0.538749,0,0,0,0,-0.212253,0.0320745,15738,-0.637215,0.535477,-0.212253,0.0320745,10582,0,0,0,0,2,-0.538749
10697,-3.34228e-12,6.44999e-38,-1.59137e-06,-3.40794e-12,6.44952e-38,0,-1.13802e-13,0,0,-3.66504,0.510445,0.456363,0,0,0,0,0,-0.621105,0.510445,203,-57,203,-57,321,-61,203,68,-0.171391,-0.0872664,0,-1.5,nan,0,0,0,-0.662049,0.53923,0,0,0,0,-0.212253,0.0320745,15738,-0.637215,0.535477,-0.212253,0.0320745,10582,0,0,0,0,2,-0.53923
10712,-3.34228e-12,6.44999e-38,-1.59137e-06,-3.40794e-12,6.44952e-38,0,-1.13803e-13,0,0,-3.66504,0.510445,0.456363,0,0,0,0,0,-0.621105,0.510445,203,-57,203,-57,321,-61,203,68,-0.171536,-0.0872664,0,-1.5,nan,0,0,0,-0.665233,0.539711,0,0,0,0,-0.212253,0.0320745,15738,-0.637215,0.535477,-0.212253,0.0320745,10582,0,0,0,0,2,-0.539711
10727,-3.34228e-12,6.44999e-38,-1.59137e-06,-3.40794e-12,6.44952e-38,0,-1.13803e-13,0,0,-3.66504,0.510445,0.456363,0,0,0,0,0,-0.621105,0.510445,203,-57,203,-57,321,-61,203,68,-0.17168,-0.0872664,0,-1.5,nan,0,0,0,-0.668417,0.540192,0,0,0,0,-0.212253,0.0320745,15738,-0.637215,0.535477,-0.212253,0.0320745,10582,0,0,0,0,2,-0.540192
10740,-3.34228e-12,6.44999e-38,-1.59137e-06,-3.40794e-12,6.44952e-38,0,-1.13804e-13,0,0,-3.66504,0.510445,0.456363,0,0,0,0,0,-0.621105,0.510445,203,-57,203,-57,321,-61,203,68,-0.171805,-0.0872664,0,-1.5,nan,0,0,0,-0.671176,0.540609,0,0,0,0,-0.212253,0.0320745,15738,-0.637215,0.535477,-0.212253,0.0320745,10582,0,0,0,0,2,-0.540609
10755,-3.34228e-12,6.44999e-38,-1.59137e-06,-3.40794e-12,6.44952e-38,0,-1.13805e-13,0,0,-3.66504,0.510445,0.456363,0,0,0,0,0,-0.621105,0.510445,203,-57,203,-57,321,-61,203,68,-0.171949,-0.0872664,0,-1.5,nan,0,0,0,-0.67436,0.54109,0,0,0,0,-0.212253,0.0320745,15738,-0.637215,0.535477,-0.212253,0.0320745,10582,0,0,0,0,2,-0.54109
10770,-3.34228e-12,6.44999e-38,-1.59137e-06,-3.40794e-12,6.44952e-38,0,-1.13806e-13,0,0,-3.66504,0.510445,0.456363,0,0,0,0,0,-0.621105,0.510445,203,-57,203,-57,321,-61,203,68,-0.172094,-0.0872664,0,-1.5,nan,0,0,0,-0.677544,0.541572,0,0,0,0,-0.212253,0.0320745,15738,-0.637215,0.535477,-0.212253,0.0320745,10582,0,0,0,0,2,-0.541572
10786,-3.34228e-12,6.44999e-38,-1.59137e-06,-3.40794e-12,6.44952e-38,0,-1.13806e-13,0,0,-3.66504,0.510445,0.456363,0,0,0,0,0,-0.621105,0.510445,203,-57,203,-57,321,-61,203,68,-0.172248,-0.0872664,0,-1.5,nan,0,0,0,-0.68094,0.542085,0,0,0,0,-0.212253,0.0320745,15738,-0.637215,0.535477,-0.212253,0.0320745,10582,0,0,0,0,2,-0.542085
10801,-3.34228e-12,6.44999e-38,-1.59137e-06,-3.40794e-12,6.44952e-38,0,-1.13807e-13,0,0,-3.66504,0.510445,0.456363,0,0,0,0,0,-0.621105,0.510445,203,-57,203,-57,321,-61,203,68,-0.172383,-0.0872664,0,-1.5,nan,0,0,0,-0.683911,0.542534,0,0,0,0,-0.212253,0.0320745,15738,-0.637215,0.535477,-0.212253,0.0320745,10582,0,0,0,0,2,-0.542534
10816,-3.34228e-12,6.44999e-38,-1.59137e-06,-3.40794e-12,6.44952e-38,0,-1.13807e-13,0,0,-3.66504,0.510445,0.456363,0,0,0,0,0,-0.621105,0.510445,203,-57,203,-57,321,-61,203,68,-0.172536,-0.0872664,0,-1.5,nan,0,0,0,-0.687308,0.543047,0,0,0,0,-0.212253,0.0320745,15738,-0.637215,0.535477,-0.212253,0.0320745,10582,0,0,0,0,2,-0.543047
