timestamp,A_x,A_y,A_z,P,Q,R,Phi,Theta,Psi,poseX,poseY,poseZ,state_X,state_Y,state_Z,state_VzB,state_Bx,state_By,state_Bz,p1_x,p1_y,p2_x,p2_y,p3_x,p3_y,p4_x,p4_y,roll,pitch,yaw,alt,targetHeading,highLevelState,lowLevelState,gateNumber,filtered_x,filtered_y,x_OT,y_OT,vx_OT,vy_OT,filtered_vx,filtered_vygateArearansac_corr_x,ransac_corr_y,ransac_corr_vx,ransac_corr_vy,detectionTimeStamppTermX,dTermX,pTermY,dTermY,vxcmd,vycmd
7199,1.30957,0.09375,2.47754,-0.101708,-0.00439021,-0.000935093,-0.10116,-0.0105706,2.84021,0,0,0,1.98996e-05,6.47217e-06,0.00348973,0.00144966,2.85428,0,0,0,0,0,0,0,0,0,0,-0.0702484,0.064574,0.00469354,-1.5,0,0,0,1,1.98996e-05,6.47217e-06,0,0,0,0,0.00348973,0.00144966,1.9603e-19,0,0,0,0,0,0,0,0,0,1,-7.11939e-06
7214,1.04785,0.199219,3.59766,-0.0106395,0.000274952,-0.0020208,-0.101868,-0.0126509,2.8391,0,0,0,7.81072e-05,9.7671e-05,0.00491211,0.0115815,2.83954,0,0,0,0,0,0,0,0,0,0,-0.071215,0.0639344,0.0171752,-1.5,0,0,0,2,7.81072e-05,9.7671e-05,0,0,0,0,0.00491211,0.0115815,1.9603e-19,0,0,0,0,0,0,0,0,0,1,-0.000107438
7237,1.04785,0.0830078,0.396484,-0.00495014,-0.00287138,-0.00200456,-0.108386,-0.0148776,2.83804,0,0,0,0.000266221,0.000764315,0.00913654,0.0351888,2.83844,0,0,0,0,0,0,0,0,0,0,-0.0653553,0.0646643,0.0436626,-1.5,0,0,0,3,0.000266221,0.000764315,0,0,0,0,0.00913654,0.0351888,1.9603e-19,0,0,0,0,0,0,0,0,0,1,-0.000840746
7254,1.04785,0.208008,-1.16602,-0.00422347,-0.0022027,-0.00167995,-0.112624,-0.0167592,2.83707,0,0,0,0.000453217,0.00155134,0.0120785,0.0529395,2.83739,0,0,0,0,0,0,0,0,0,0,-0.0609441,0.0652882,0.0371834,-1.5,0,0,0,0,0.000453217,0.00155134,0,0,0,0,0.0120785,0.0529395,1.9603e-19,0,0,0,0,0,0,0,0,0,1,-0.00170647
7276,1.04785,0.18457,1.31055,-0.00373109,-0.000371779,-0.0025376,-0.1127,-0.0167771,2.83705,0,0,0,0.00075965,0.0029997,0.0156107,0.0754976,2.83705,0,0,0,0,0,0,0,0,0,0,-0.0550016,0.0662354,0.0392008,-1.5,0,0,0,1,0.00075965,0.0029997,0,0,0,0,0.0156107,0.0754976,1.9603e-19,0,0,0,0,0,0,0,0,0,1,-0.00329966
7291,1.04785,0.151367,-6.69629,-0.00332072,-0.00170694,-0.00181848,-0.112763,-0.0168126,2.83703,0,0,0,0.0010374,0.004387,0.0182703,0.0925536,2.83703,0,0,0,0,0,0,0,0,0,0,-0.0503749,0.0669931,0.0547016,-1.5,0,0,0,2,0.0010374,0.004387,0,0,0,0,0.0182703,0.0925536,1.9603e-19,0,0,0,0,0,0,0,0,0,1,-0.0048257
7312,1.04785,0.0849609,-1.80176,-0.00345043,-3.86523e-05,-0.00164734,-0.112886,-0.0168739,2.83698,0,0,0,0.00147275,0.00666237,0.02173,0.114769,2.83698,0,0,0,0,0,0,0,0,0,0,-0.0442321,0.068019,0.0779756,-1.5,0,0,0,3,0.00147275,0.00666237,0,0,0,0,0.02173,0.114769,1.9603e-19,0,0,0,0,0,0,0,0,0,1,-0.00732861
7333,1.04785,0.0517578,-3.02832,-0.00343991,-0.00149125,-0.00230817,-0.112938,-0.0169189,2.83695,0,0,0,0.00198017,0.00940121,0.0251493,0.136778,2.83695,0,0,0,0,0,0,0,0,0,0,-0.038016,0.0690785,0.0604667,-1.5,0,0,0,0,0.00198017,0.00940121,0,0,0,0,0.0251493,0.136778,1.9603e-19,0,0,0,0,0,0,0,0,0,1,-0.0103413
7349,1.04785,0.0351562,2.76074,-0.00362461,-0.00322876,-0.000738407,-0.113071,-0.0170035,2.83692,0,0,0,0.00240883,0.0117591,0.0277244,0.153386,2.83694,0,0,0,0,0,0,0,0,0,0,-0.0332466,0.0699038,0.0640752,-1.5,0,0,0,1,0.00240883,0.0117591,0,0,0,0,0.0277244,0.153386,1.9603e-19,0,0,0,0,0,0,0,0,0,1,-0.012935
7370,1.04785,0.0683594,-6.83301,-0.00461406,-0.00207979,-0.000384369,-0.113149,-0.017053,2.83692,0,0,0,0.00303948,0.0152929,0.0310715,0.175021,2.83692,0,0,0,0,0,0,0,0,0,0,-0.0269142,0.0710189,0.0841701,-1.5,0,0,0,2,0.00303948,0.0152929,0,0,0,0,0.0310715,0.175021,1.9603e-19,0,0,0,0,0,0,0,0,0,1,-0.0168222
7385,1.04785,0.101562,5.2998,-0.00626947,-0.00169433,-0.00208134,-0.113244,-0.017086,2.83689,0,0,0,0.00352841,0.0180665,0.0334335,0.190345,2.83689,0,0,0,0,0,0,0,0,0,0,-0.0223613,0.0718331,0.0979392,-1.5,0,0,0,3,0.00352841,0.0180665,0,0,0,0,0.0334335,0.190345,1.9603e-19,0,0,0,0,0,0,0,0,0,1,-0.0198732
7407,1.04785,0.167969,-2.39258,-0.00676562,-0.000554881,-0.00142986,-0.113458,-0.0171478,2.83684,0,0,0,0.0043167,0.0225965,0.0368693,0.212657,2.83686,0,0,0,0,0,0,0,0,0,0,-0.0156004,0.0730605,0.0819211,-1.5,0,0,0,0,0.0043167,0.0225965,0,0,0,0,0.0368693,0.212657,1.9603e-19,0,0,0,0,0,0,0,0,0,1,-0.0248562
7440,1.04785,0.234375,-3.28711,-0.00684139,-0.00210959,-0.00140401,-0.113671,-0.0172377,2.83681,0,0,0,0.00566401,0.0304636,0.0419669,0.245823,2.83681,0,0,0,0,0,0,0,0,0,0,-0.00525736,0.0749814,0.0823705,-1.5,0,0,0,1,0.00566401,0.0304636,0,0,0,0,0.0419669,0.245823,1.9603e-19,0,0,0,0,0,0,0,0,0,1,-0.03351
7455,1.04785,0.211914,2.97852,-0.00449035,-0.000975822,-0.000298162,-0.113753,-0.0172689,2.8368,0,0,0,0.00627042,0.0340283,0.0440942,0.259709,2.8368,0,0,0,0,0,0,0,0,0,0,-0.00085421,0.07581,0.0945697,-1.5,0,0,0,2,0.00627042,0.0340283,0,0,0,0,0.0440942,0.259709,1.9603e-19,0,0,0,0,0,0,0,0,0,1,-0.0374311
7486,1.04785,0.112305,2.63086,-0.00561176,-0.00122808,-0.00149901,-0.11402,-0.0173787,2.83673,0,0,0,0.00780036,0.0431159,0.0489154,0.291218,2.83675,0,0,0,0,0,0,0,0,0,0,0.00939323,0.0777746,0.1349,-1.5,0,0,0,3,0.00780036,0.0431159,0,0,0,0,0.0489154,0.291218,1.9603e-19,0,0,0,0,0,0,0,0,0,1,-0.0474275
7503,1.04785,0.112305,2.63086,-0.00561176,-0.00122808,-0.00149901,-0.11402,-0.0173787,2.83673,0,0,0,0.00865969,0.0482485,0.0514354,0.307736,2.83673,0,0,0,0,0,0,0,0,0,0,0.0148633,0.0788369,0.124741,-1.5,0,0,0,0,0.00865969,0.0482485,0,0,0,0,0.0514354,0.307736,1.9603e-19,0,0,0,0,0,0,0,0,0,1,-0.0530734
7524,1.04785,0.0556641,5.49219,-0.00492732,-0.00185166,-0.000756308,-0.1142,-0.0174416,2.8367,0,0,0,0.00978445,0.0550036,0.0545208,0.327983,2.8367,0,0,0,0,0,0,0,0,0,0,0.0216857,0.0801789,0.12439,-1.5,0,0,0,1,0.00978445,0.0550036,0,0,0,0,0.0545208,0.327983,1.9603e-19,0,0,0,0,0,0,0,0,0,1,-0.060504
7549,1.04785,0.117188,4.93555,-0.00334466,-0.00230289,-0.00281561,-0.114326,-0.0175259,2.83664,0,0,0,0.0112152,0.0636485,0.0581533,0.351877,2.83664,0,0,0,0,0,0,0,0,0,0,0.0299086,0.0818213,0.15363,-1.5,0,0,0,2,0.0112152,0.0636485,0,0,0,0,0.0581533,0.351877,1.9603e-19,0,0,0,0,0,0,0,0,0,1,-0.0700134
7570,1.04785,0.183594,-4.36816,-0.00361829,-0.00151332,-0.00138226,-0.114433,-0.0175921,2.8366,0,0,0,0.0124814,0.0713344,0.0611612,0.371726,2.83662,0,0,0,0,0,0,0,0,0,0,0.0368781,0.0832294,0.176509,-1.5,0,0,0,3,0.0124814,0.0713344,0,0,0,0,0.0611612,0.371726,1.9603e-19,0,0,0,0,0,0,0,0,0,1,-0.0784678
7592,1.04785,0.194336,-7.33789,-0.00294266,-0.00198193,-0.00182563,-0.114492,-0.017627,2.83659,0,0,0,0.0138101,0.0794343,0.0641314,0.391394,2.83659,0,0,0,0,0,0,0,0,0,0,0.0439086,0.0846676,0.158606,-1.5,0,0,0,0,0.0138101,0.0794343,0,0,0,0,0.0641314,0.391394,1.9603e-19,0,0,0,0,0,0,0,0,0,1,-0.0873778
7609,1.04785,0.161133,7.23633,-0.00440315,-0.0011,-0.00134562,-0.114569,-0.0176586,2.83656,0,0,0,0.0149953,0.0866838,0.0666492,0.408091,2.83656,0,0,0,0,0,0,0,0,0,0,0.0499729,0.085921,0.157941,-1.5,0,0,0,1,0.0149953,0.0866838,0,0,0,0,0.0666492,0.408091,1.9603e-19,0,0,0,0,0,0,0,0,0,1,-0.0953522
7625,1.04785,0.0947266,4.01953,-0.00508594,-0.00134865,-0.00199627,-0.114728,-0.0177308,2.83651,0,0,0,0.016085,0.0933681,0.0688662,0.422815,2.83653,0,0,0,0,0,0,0,0,0,0,0.0553977,0.0870511,0.172967,-1.5,0,0,0,2,0.016085,0.0933681,0,0,0,0,0.0688662,0.422815,1.9603e-19,0,0,0,0,0,0,0,0,0,1,-0.102705
7641,1.04785,0.0615234,-3.59863,-0.00685352,-0.000500397,-0.00140026,-0.11482,-0.0177517,2.83649,0,0,0,0.01721,0.100287,0.0710639,0.437436,2.83651,0,0,0,0,0,0,0,0,0,0,0.0608574,0.0881979,0.187945,-1.5,0,0,0,3,0.01721,0.100287,0,0,0,0,0.0710639,0.437436,1.9603e-19,0,0,0,0,0,0,0,0,0,1,-0.110316
7657,1.04785,0.0283203,-6.95801,-0.00635743,0.000137188,-0.00118481,-0.114913,-0.0177755,2.83647,0,0,0,0.01837,0.107439,0.0732457,0.451965,2.83647,0,0,0,0,0,0,0,0,0,0,0.066352,0.0893619,0.177819,-1.5,0,0,0,0,0.01837,0.107439,0,0,0,0,0.0732457,0.451965,1.9603e-19,0,0,0,0,0,0,0,0,0,1,-0.118182
7673,1.04785,0.0869141,6.86523,-0.00461492,-0.00149123,-0.00265028,-0.114988,-0.0178149,2.83644,0,0,0,0.0195647,0.114822,0.0754107,0.466395,2.83644,0,0,0,0,0,0,0,0,0,0,0.0718841,0.0905415,0.177403,-1.5,0,0,0,1,0.0195647,0.114822,0,0,0,0,0.0754107,0.466395,1.9603e-19,0,0,0,0,0,0,0,0,0,1,-0.126304
7689,1.07617,0.15332,-6.80469,-0.00598539,-0.00196096,-0.00250197,-0.115077,-0.0178568,2.83641,0,0,0,0.0207153,0.121948,0.0774225,0.479832,2.83641,0,0,0,0,0,0,0,0,0,0,0.0771007,0.0916619,0.190786,-1.5,0,0,0,2,0.0207153,0.121948,0,0,0,0,0.0774225,0.479832,1.9603e-19,0,0,0,0,0,0,0,0,0,1,-0.134143
7706,1.10938,0.181641,-2.49316,-0.00444169,-0.00117012,-0.00130971,-0.115147,-0.0178809,2.8364,0,0,0,0.0220572,0.130277,0.0796841,0.494957,2.8364,0,0,0,0,0,0,0,0,0,0,0.0830579,0.0929482,0.207258,-1.5,0,0,0,3,0.0220572,0.130277,0,0,0,0,0.0796841,0.494957,1.9603e-19,0,0,0,0,0,0,0,0,0,1,-0.143305
7720,1.12012,0.181641,4.55859,-0.00309718,-0.000972413,-0.000884233,-0.115197,-0.0179096,2.83638,0,0,0,0.0232716,0.137829,0.0816623,0.508202,2.83638,0,0,0,0,0,0,0,0,0,0,0.0883404,0.0940973,0.198619,-1.5,0,0,0,0,0.0232716,0.137829,0,0,0,0,0.0816623,0.508202,1.9603e-19,0,0,0,0,0,0,0,0,0,1,-0.151612
7735,1.12012,0.181641,1.66602,-0.00335665,-0.00240077,-0.0013174,-0.115258,-0.0179529,2.83636,0,0,0,0.0245156,0.14558,0.0836237,0.521358,2.83636,0,0,0,0,0,0,0,0,0,0,0.0936534,0.0952598,0.198184,-1.5,0,0,0,1,0.0245156,0.14558,0,0,0,0,0.0836237,0.521358,1.9603e-19,0,0,0,0,0,0,0,0,0,1,-0.160138
7751,1.12012,0.181641,1.66602,-0.00335665,-0.00240077,-0.0013174,-0.115258,-0.0179529,2.83636,0,0,0,0.0258747,0.154064,0.0856976,0.535289,2.83636,0,0,0,0,0,0,0,0,0,0,0.0993561,0.096513,0.211066,-1.5,0,0,0,2,0.0258747,0.154064,0,0,0,0,0.0856976,0.535289,1.9603e-19,0,0,0,0,0,0,0,0,0,1,-0.16947
7767,1.12012,0.175781,2.05273,-0.00417639,-0.00085247,-0.000732922,-0.115434,-0.0180604,2.83632,0,0,0,0.0272668,0.162769,0.0877541,0.549112,2.83632,0,0,0,0,0,0,0,0,0,0,0.10508,0.0977847,0.225898,-1.5,0,0,0,3,0.0272668,0.162769,0,0,0,0,0.0877541,0.549112,1.9603e-19,0,0,0,0,0,0,0,0,0,1,-0.179046
7783,1.12012,0.142578,6.34863,-0.00538088,-0.000729581,-0.000641154,-0.11551,-0.0180851,2.83631,0,0,0,0.0286016,0.171131,0.0896614,0.562001,2.83631,0,0,0,0,0,0,0,0,0,0,0.110485,0.0989913,0.217185,-1.5,0,0,0,0,0.0286016,0.171131,0,0,0,0,0.0896614,0.562001,1.9603e-19,0,0,0,0,0,0,0,0,0,1,-0.188244
7798,1.12012,0.109375,-3.27637,-0.00475227,-0.00182277,-0.000307545,-0.115596,-0.0181162,2.83631,0,0,0,0.0300574,0.180266,0.0916804,0.575657,2.83631,0,0,0,0,0,0,0,0,0,0,0.116289,0.100291,0.215984,-1.5,0,0,0,1,0.0300574,0.180266,0,0,0,0,0.0916804,0.575657,1.9603e-19,0,0,0,0,0,0,0,0,0,1,-0.198293
7814,1.12012,0.109375,-3.27637,-0.00475227,-0.00182277,-0.000307545,-0.115596,-0.0181162,2.83631,0,0,0,0.0315454,0.189619,0.0936828,0.589215,2.83631,0,0,0,0,0,0,0,0,0,0,0.122126,0.101605,0.230778,-1.5,0,0,0,2,0.0315454,0.189619,0,0,0,0,0.0936828,0.589215,1.9603e-19,0,0,0,0,0,0,0,0,0,1,-0.208581
7830,1.12012,0.0859375,-1.01465,-0.00175847,-0.000966335,-0.000951132,-0.115682,-0.018177,2.83627,0,0,0,0.0329686,0.19858,0.0955436,0.601831,2.83627,0,0,0,0,0,0,0,0,0,0,0.127613,0.102855,0.24396,-1.5,0,0,0,3,0.0329686,0.19858,0,0,0,0,0.0955436,0.601831,1.9603e-19,0,0,0,0,0,0,0,0,0,1,-0.218438
7846,1.12012,0.0859375,-3.37207,-0.00154527,-0.00110563,-0.000637403,-0.115762,-0.0182486,2.83624,0,0,0,0.0346159,0.208967,0.0976324,0.616032,2.83624,0,0,369098752,-534446081,369098752,-534446081,33554432,33554432,-1075088617,0,0.133872,0.104287,0.23361,-1.5,0,0,0,0,0.0346159,0.208967,0,0,0,0,0.0976324,0.616032,0,0,0,0,0,0,0,0,0,0,1,-0.229864
7860,1.12012,0.0859375,-0.661133,-0.00438406,-0.000743912,-0.000851589,-0.115827,-0.0182808,2.83622,0,0,0,0.0359979,0.217695,0.0993356,0.62764,2.83624,0,0,369098752,-534446081,369098752,-534446081,33554432,33554432,-1075088617,0,0.139056,0.105476,0.233013,-1.5,0,0,0,1,0.0359979,0.217695,0,0,0,0,0.0993356,0.62764,0,0,0,0,0,0,0,0,0,0,1,-0.239464
7876,1.12012,0.113281,4.15918,-0.00517671,-0.001283,-0.00130692,-0.115903,-0.0183197,2.8362,0,0,0,0.0376069,0.227871,0.101265,0.640819,2.83622,0,0,369098752,-534446081,369098752,-534446081,33554432,33554432,-1075088617,0,0.145006,0.10685,0.245686,-1.5,0,0,0,2,0.0376069,0.227871,0,0,0,0,0.101265,0.640819,0,0,0,0,0,0,0,0,0,0,1,-0.250658
7891,1.12012,0.146484,0.351562,-0.00622783,-0.0030764,-0.00134174,-0.116005,-0.0183768,2.83618,0,0,0,0.0391428,0.237599,0.103057,0.653094,2.8362,0,0,369098752,-534446081,369098752,-534446081,33554432,33554432,-1075088617,0,0.150615,0.108152,0.25568,-1.5,0,0,0,3,0.0391428,0.237599,0,0,0,0,0.103057,0.653094,0,0,0,0,0,0,0,0,0,0,1,-0.261359
7907,1.12012,0.179688,4.04688,-0.0074497,-0.000384675,-0.00189411,-0.116113,-0.0183962,2.83616,0,0,0,0.0408116,0.248186,0.104952,0.666112,2.83616,0,0,369098752,-534446081,369098752,-534446081,33554432,33554432,-1075088617,0,0.156625,0.109561,0.245282,-1.5,0,0,0,0,0.0408116,0.248186,0,0,0,0,0.104952,0.666112,0,0,0,0,0,0,0,0,0,0,1,-0.273004
7922,1.12012,0.212891,-7.22559,-0.00648905,-0.000195952,-0.00120438,-0.116215,-0.0184289,2.83614,0,0,0,0.0424025,0.258291,0.106716,0.678236,2.83614,0,0,369098752,-534446081,369098752,-534446081,33554432,33554432,-1075088617,0,0.162295,0.11089,0.242934,-1.5,0,0,0,1,0.0424025,0.258291,0,0,0,0,0.106716,0.678236,0,0,0,0,0,0,0,0,0,0,1,-0.28412
7937,1.12012,0.186523,0.931641,-0.00435678,-0.000686859,-0.00106514,-0.116295,-0.0184538,2.83613,-3.70302,-0.517607,-0.138458,0.0440202,0.268581,0.108468,0.690286,2.83613,0,0,343,3,343,3,469,20,329,122,0.167996,0.112231,0.256056,-1.5,0,0,0,2,0.0440202,0.268581,0,0,0,0,0.108468,0.690286,19320,0,0,0,0,0,0,0,0,0,1,-0.29544
7953,1.12012,0.186523,0.931641,-0.00435678,-0.000686859,-0.00106514,-0.116295,-0.0184538,2.83613,-3.70302,-0.517607,-0.138458,0.0457746,0.279756,0.110321,0.703048,2.83613,0,0,343,3,343,3,469,20,329,122,0.174109,0.113672,0.270708,-1.5,0,0,0,3,0.0457746,0.279756,0,0,0,0,0.110321,0.703048,19320,0,0,0,0,0,0,0,0,0,1,-0.307732
7969,1.12012,0.120117,5.53906,-0.00251125,-0.00149959,-0.00190352,-0.116377,-0.0185235,2.83608,-3.70302,-0.517607,-0.138458,0.0475585,0.291134,0.112158,0.715716,2.83608,0,0,343,3,343,3,469,20,329,122,0.180236,0.115137,0.263386,-1.5,0,0,0,0,0.0475585,0.291134,0,0,0,0,0.112158,0.715716,19320,0,0,0,0,0,0,0,0,0,1,-0.320248
7985,1.12012,0.0820312,5.94043,-0.00263889,-0.00197885,-0.00181611,-0.116477,-0.0186011,2.83604,-3.70309,-0.517481,-0.138499,0.0492574,0.301984,0.113863,0.727507,2.83608,0,0,343,3,343,3,469,20,329,122,0.186022,0.116515,0.261263,-1.5,0,0,0,1,0.0492574,0.301984,0,0,0,0,0.113863,0.727507,19320,0,0,0,0,0,0,0,0,0,1,-0.332182
8000,1.12012,0.115234,-5.96777,-0.00516434,-0.00171585,-0.00259121,-0.11655,-0.0186337,2.83601,-3.70309,-0.517481,-0.138499,0.0510981,0.313756,0.115666,0.739999,2.83604,0,0,343,3,343,3,469,20,329,122,0.192211,0.118006,0.274311,-1.5,0,0,0,2,0.0510981,0.313756,0,0,0,0,0.115666,0.739999,19320,0,0,0,0,0,0,0,0,0,1,-0.345131
8016,1.12012,0.148438,1.87402,-0.00396851,-0.000498283,-0.00206697,-0.116619,-0.0186568,2.83599,-3.70309,-0.517481,-0.138499,0.0529676,0.325726,0.11745,0.752415,2.83599,0,0,343,3,343,3,469,20,329,122,0.198429,0.119515,0.288884,-1.5,0,0,0,3,0.0529676,0.325726,0,0,0,0,0.11745,0.752415,19320,0,0,0,0,0,0,0,0,0,1,-0.358299
8032,1.12012,0.181641,-7.09473,-0.00582387,-0.000333674,-0.000766486,-0.116706,-0.018672,2.83598,-3.70309,-0.517481,-0.138499,0.0548654,0.337894,0.11922,0.764745,2.83598,0,0,343,3,343,3,469,20,329,122,0.204692,0.121028,0.278354,-1.5,0,0,0,0,0.0548654,0.337894,0,0,0,0,0.11922,0.764745,19320,0,0,0,0,0,0,0,0,0,1,-0.371684
8048,1.12012,0.181641,-7.09473,-0.00582387,-0.000333674,-0.000766486,-0.116706,-0.018672,2.83598,-3.70309,-0.517481,-0.138499,0.0567908,0.350255,0.120977,0.776985,2.83598,0,0,343,3,343,3,469,20,329,122,0.210984,0.122553,0.275933,-1.5,0,0,0,1,0.0567908,0.350255,0,0,0,0,0.120977,0.776985,19320,0,0,0,0,0,0,0,0,0,1,-0.385281
8065,1.12012,0.220703,-5.87988,-0.0030312,-0.00115895,-0.000569276,-0.116832,-0.0187488,2.83594,-3.70309,-0.517481,-0.138499,0.0588678,0.363606,0.122827,0.789895,2.83594,0,0,343,3,343,3,469,20,329,122,0.217691,0.124196,0.288923,-1.5,0,0,0,2,0.0588678,0.363606,0,0,0,0,0.122827,0.789895,19320,0,0,0,0,0,0,0,0,0,1,-0.399967
8080,1.12012,0.165039,1.10156,-0.00491937,-0.000375382,-0.00251827,-0.116973,-0.0188218,2.8359,-3.70309,-0.517481,-0.138499,0.0607259,0.375564,0.124444,0.801206,2.83594,0,0,343,3,343,3,469,20,329,122,0.223645,0.125651,0.301873,-1.5,0,0,0,3,0.0607259,0.375564,0,0,0,0,0.124444,0.801206,19320,0,0,0,0,0,0,0,0,0,1,-0.41312
8096,1.12012,0.131836,0.743164,-0.00502648,-0.00150326,-0.00209305,-0.117041,-0.0188622,2.83587,-3.70309,-0.517481,-0.138499,0.0627344,0.388505,0.126153,0.813191,2.8359,0,0,343,3,343,3,469,20,329,122,0.230011,0.127226,0.292273,-1.5,0,0,0,0,0.0627344,0.388505,0,0,0,0,0.126153,0.813191,19320,0,0,0,0,0,0,0,0,0,1,-0.427356
8113,1.12012,0.131836,0.743164,-0.00502648,-0.00150326,-0.00209305,-0.117041,-0.0188622,2.83587,-3.70396,-0.516432,-0.139404,0.0648988,0.402469,0.127951,0.825841,2.83587,0,0,343,3,343,3,469,20,329,122,0.236817,0.128911,0.288993,-1.5,0,0,0,1,0.0648988,0.402469,0,0,0,0,0.127951,0.825841,19320,0,0,0,0,0,0,0,0,0,1,-0.442716
8128,1.12012,0.0654297,4.83203,-0.00313472,-0.000159643,-0.00134172,-0.117151,-0.0189237,2.83584,-3.70396,-0.516432,-0.139404,0.0668329,0.414961,0.129523,0.836919,2.83584,0,0,343,3,343,3,469,20,329,122,0.24284,0.130413,0.299769,-1.5,0,0,0,2,0.0668329,0.414961,0,0,0,0,0.129523,0.836919,19320,0,0,0,0,0,0,0,0,0,1,-0.456457
8143,1.12012,0.0654297,4.83203,-0.00313472,-0.000159643,-0.00134172,-0.117151,-0.0189237,2.83584,-3.71135,-0.519603,-0.136337,0.0687904,0.427618,0.131081,0.847929,2.83584,0,0,344,3,344,3,469,20,329,122,0.248902,0.131918,0.312676,-1.5,0,0,0,3,0.0687904,0.427618,0,0,0,0,0.131081,0.847929,19320,0,0,0,0,0,0,0,0,0,1,-0.47038
8159,1.12012,0.0654297,4.83203,-0.00313472,-0.000159643,-0.00134172,-0.117151,-0.0189237,2.83584,-3.71135,-0.519603,-0.136337,0.0709045,0.441304,0.13273,0.859584,2.83584,0,0,344,3,344,3,469,20,329,122,0.255394,0.133535,0.305186,-1.5,0,0,0,0,0.0709045,0.441304,0,0,0,0,0.13273,0.859584,19320,0,0,0,0,0,0,0,0,0,1,-0.485435
8175,1.12012,0.150391,2.22363,-0.00331703,-0.00220017,-0.0014951,-0.117319,-0.0190145,2.83578,-3.71135,-0.519603,-0.136337,0.0730449,0.455175,0.134364,0.871157,2.83578,0,0,344,3,344,3,469,20,329,122,0.261896,0.135179,0.304403,-1.5,0,0,0,1,0.0730449,0.455175,0,0,0,0,0.134364,0.871157,19320,0,0,0,0,0,0,0,0,0,1,-0.500693
8191,1.12012,0.183594,2.01562,-0.00327597,-4.92287e-06,-0.00141754,-0.117378,-0.0190316,2.83577,-3.71135,-0.519603,-0.136337,0.0752112,0.469231,0.135982,0.88266,2.83577,0,0,344,3,344,3,469,20,329,122,0.268442,0.136826,0.316648,-1.5,0,0,0,2,0.0752112,0.469231,0,0,0,0,0.135982,0.88266,19320,0,0,0,0,0,0,0,0,0,1,-0.516154
8207,1.12012,0.214844,1.81836,-0.00260116,-0.000910692,-0.00188647,-0.117425,-0.0190634,2.83575,-3.71135,-0.519603,-0.136337,0.0774038,0.483474,0.137587,0.894082,2.83575,0,0,344,3,344,3,469,20,329,122,0.275015,0.138488,0.331052,-1.5,0,0,0,3,0.0774038,0.483474,0,0,0,0,0.137587,0.894082,19320,0,0,0,0,0,0,0,0,0,1,-0.531821
8223,1.12012,0.148438,-0.408203,-0.00224062,-0.000663754,-0.000166892,-0.117539,-0.0191244,2.83572,-3.71135,-0.519603,-0.136337,0.0796214,0.497895,0.139177,0.905419,2.83572,0,0,344,3,344,3,469,20,329,122,0.28161,0.140165,0.329771,-1.5,0,0,0,2,0.0796214,0.497895,0,0,0,0,0.139177,0.905419,19320,0,0,0,0,0,0,0,0,0,1,-0.547684
8239,1.12012,0.115234,5.60254,-0.00160492,-0.00052875,-0.00079824,-0.117573,-0.0191469,2.83571,-3.71135,-0.519603,-0.136337,0.0818648,0.5125,0.140751,0.916686,2.83571,0,0,344,3,344,3,469,20,329,122,0.288241,0.14185,0.354904,-1.5,0,0,0,2,0.0818648,0.5125,0,0,0,0,0.140751,0.916686,19320,0,0,0,0,0,0,0,0,0,1,-0.56375
8255,1.12012,0.0820312,-2.14551,-0.000939226,-0.00131752,-0.00212344,-0.117608,-0.019175,2.83568,-3.71135,-0.519603,-0.136337,0.0841327,0.527281,0.142311,0.927869,2.83568,0,0,344,3,344,3,469,20,329,122,0.294892,0.143552,0.380037,-1.5,0,0,0,2,0.0841327,0.527281,0,0,0,0,0.142311,0.927869,19320,0,0,0,0,0,0,0,0,0,1,-0.580009
8271,1.12012,0.0488281,-5.55762,-0.00156138,-0.000930343,-0.00234716,-0.117651,-0.0192027,2.83566,-3.71135,-0.519603,-0.136337,0.086426,0.542244,0.143856,0.938971,2.83566,0,0,344,3,344,3,469,20,329,122,0.301571,0.145266,0.405169,-1.5,0,0,0,2,0.086426,0.542244,0,0,0,0,0.143856,0.938971,19320,0,0,0,0,0,0,0,0,0,1,-0.596468
8287,1.12012,0.0732422,-4.05176,-0.00261055,-0.0014057,-0.0011954,-0.117695,-0.0192312,2.83564,-3.71135,-0.519603,-0.136337,0.0885977,0.556428,0.145292,0.949305,2.83564,0,0,344,3,344,3,469,20,329,122,0.307857,0.146881,0.428731,-1.5,0,0,0,2,0.0885977,0.556428,0,0,0,0,0.145292,0.949305,19320,0,0,0,0,0,0,0,0,0,1,-0.612071
8302,1.12012,0.139648,3.44922,-0.0050866,-0.00375091,-0.0027321,-0.117858,-0.0193319,2.8356,-3.71135,-0.519603,-0.136337,0.0909384,0.571732,0.14681,0.960254,2.83561,0,0,344,3,344,3,469,20,329,122,0.314585,0.148621,0.453864,-1.5,0,0,0,2,0.0909384,0.571732,0,0,0,0,0.14681,0.960254,19320,0,0,0,0,0,0,0,0,0,1,-0.628906
8319,1.12012,0.172852,-4.73926,-0.0037588,-0.00307455,-0.00228773,-0.117924,-0.0193732,2.83557,-3.71135,-0.519603,-0.136337,0.0934517,0.588184,0.148406,0.97181,2.8356,0,0,344,3,344,3,469,20,329,122,0.321769,0.150479,0.480568,-1.5,0,0,0,2,0.0934517,0.588184,0,0,0,0,0.148406,0.97181,19320,0,0,0,0,0,0,0,0,0,1,-0.647002
8334,1.12012,0.177734,5.6543,-0.00509659,-0.000353303,-0.00209202,-0.118002,-0.0194013,2.83554,-3.71135,-0.519603,-0.136337,0.0956909,0.602856,0.149798,0.981943,2.83554,0,0,344,3,344,3,469,20,329,122,0.32812,0.152142,0.502559,-1.5,0,0,0,2,0.0956909,0.602856,0,0,0,0,0.149798,0.981943,19320,0,0,0,0,0,0,0,0,0,1,-0.663142
8349,1.12012,0.177734,4.28516,-0.00350147,-0.00136598,-0.00211824,-0.11806,-0.0194404,2.83552,-3.70526,-0.514964,-0.1408,0.0979513,0.617683,0.151179,0.992013,2.83552,0,0,343,3,343,3,469,20,329,122,0.334504,0.153809,0.526121,-1.5,0,0,0,2,0.0979513,0.617683,0,0,0,0,0.151179,0.992013,19320,0,0,0,0,0,0,0,0,0,1,-0.679451
8365,1.12012,0.177734,2.77344,-0.00262601,-0.0011157,-0.00118808,-0.118101,-0.0194676,2.8355,-3.70526,-0.514964,-0.1408,0.100385,0.633668,0.152639,1.00268,2.8355,0,0,343,3,343,3,469,20,329,122,0.341342,0.155596,0.551253,-1.5,0,0,0,2,0.100385,0.633668,0,0,0,0,0.152639,1.00268,19320,0,0,0,0,0,0,0,0,0,1,-0.697034
8381,1.12012,0.177734,2.77344,-0.00262601,-0.0011157,-0.00118808,-0.118101,-0.0194676,2.8355,-3.70542,-0.514752,-0.140959,0.102842,0.649818,0.154085,1.01327,2.8355,0,0,343,3,343,3,469,20,329,122,0.348211,0.157387,0.576386,-1.5,0,0,0,2,0.102842,0.649818,0,0,0,0,0.154085,1.01327,19320,0,0,0,0,0,0,0,0,0,1,-0.7148
8397,1.12012,0.177734,-1.92578,-0.00506599,-0.00157759,-0.00323907,-0.118226,-0.0195353,2.83545,-3.70542,-0.514752,-0.140959,0.105322,0.666138,0.155519,1.02378,2.83545,0,0,343,3,343,3,469,20,329,122,0.352415,0.158363,0.601519,-1.5,0,0,0,2,0.105322,0.666138,0,0,0,0,0.155519,1.02378,19320,0,0,0,0,0,0,0,0,0,1,-0.732752
8413,1.12012,0.177734,-5.83105,-0.00585269,-0.000860895,-0.00237076,-0.118437,-0.0196076,2.83539,-3.72288,-0.512486,-0.134655,0.107825,0.682625,0.156939,1.03422,2.83545,0,0,343,3,343,3,467,20,329,122,0.352522,0.158024,0.626651,-1.5,0,0,0,2,0.107825,0.682625,0,0,0,0,0.156939,1.03422,19044,0,0,0,0,0,0,0,0,0,1,-0.750888
8428,1.12012,0.177734,4.63086,-0.00485037,-0.00212329,-0.00200961,-0.118516,-0.0196471,2.83538,-3.72288,-0.512486,-0.134655,0.110192,0.698233,0.15826,1.04396,2.83539,0,0,343,3,343,3,467,20,329,122,0.352603,0.157729,0.650213,-1.5,0,0,0,2,0.110192,0.698233,0,0,0,0,0.15826,1.04396,19044,0,0,0,0,0,0,0,0,0,1,-0.768056
8444,1.12012,0.177734,4.63086,-0.00485037,-0.00212329,-0.00200961,-0.118516,-0.0196471,2.83538,-3.70583,-0.514166,-0.141334,0.112739,0.715044,0.159657,1.05429,2.83538,0,0,343,3,343,3,469,20,329,122,0.352704,0.157401,0.675346,-1.5,0,0,0,2,0.112739,0.715044,0,0,0,0,0.159657,1.05429,19320,0,0,0,0,0,0,0,0,0,1,-0.786549
8460,1.12012,0.177734,4.4668,-0.00461932,-0.000988361,-0.00152436,-0.118645,-0.0197132,2.83534,-3.70583,-0.514166,-0.141334,0.115308,0.732018,0.161041,1.06454,2.83534,0,0,343,3,343,3,469,20,329,122,0.352795,0.157085,0.700479,-1.5,0,0,0,2,0.115308,0.732018,0,0,0,0,0.161041,1.06454,19320,0,0,0,0,0,0,0,0,0,1,-0.805219
8476,1.12012,0.177734,-5.61035,-0.0037015,-0.00177055,-0.0015907,-0.118697,-0.0197471,2.83532,-3.71339,-0.517115,-0.138412,0.117898,0.749154,0.162412,1.07473,2.83532,0,0,344,3,344,3,469,20,329,122,0.352892,0.156765,0.725611,-1.5,0,0,0,2,0.117898,0.749154,0,0,0,0,0.162412,1.07473,19320,0,0,0,0,0,0,0,0,0,1,-0.82407
8491,1.12012,0.177734,0.473633,-0.00280335,-0.000674013,-0.00213836,-0.118742,-0.0197758,2.83529,-3.71339,-0.517115,-0.138412,0.120347,0.765367,0.163685,1.08422,2.83529,0,0,344,3,344,3,469,20,329,122,0.352977,0.156473,0.749173,-1.5,0,0,0,2,0.120347,0.765367,0,0,0,0,0.163685,1.08422,19320,0,0,0,0,0,0,0,0,0,1,-0.841904
8507,1.12012,0.177734,-6.00977,-0.0028084,-0.00112243,-0.00111684,-0.118788,-0.0197934,2.83527,-3.71354,-0.516966,-0.138577,0.122979,0.782817,0.165031,1.09427,2.83527,0,0,344,3,344,3,469,20,329,122,0.353074,0.156157,0.774306,-1.5,0,0,0,2,0.122979,0.782817,0,0,0,0,0.165031,1.09427,19320,0,0,0,0,0,0,0,0,0,1,-0.861099
8525,1.12012,0.177734,3.58008,-0.00264478,-0.0031044,-0.00194031,-0.118874,-0.0198716,2.83525,-3.71354,-0.516966,-0.138577,0.125968,0.802647,0.166533,1.10549,2.83527,0,0,344,3,344,3,469,20,329,122,0.353188,0.155799,0.80258,-1.5,0,0,0,2,0.125968,0.802647,0,0,0,0,0.166533,1.10549,19320,0,0,0,0,0,0,0,0,0,1,-0.882912
8540,1.12012,0.177734,-2.58887,-0.00228655,-0.000552003,-0.00134585,-0.118922,-0.0198972,2.83523,-3.70627,-0.513622,-0.141788,0.128478,0.819319,0.167767,1.11478,2.83523,0,0,343,3,343,3,469,20,329,122,0.353266,0.155521,0.826142,-1.5,0,0,0,2,0.128478,0.819319,0,0,0,0,0.167767,1.11478,19320,0,0,0,0,0,0,0,0,0,1,-0.901251
8556,1.12012,0.177734,-3.34961,-0.0029127,-0.00120544,-0.00168017,-0.118968,-0.019928,2.83521,-3.70627,-0.513622,-0.141788,0.131175,0.837256,0.169072,1.12462,2.83521,0,0,343,3,343,3,469,20,329,122,0.353358,0.155216,0.851275,-1.5,0,0,0,2,0.131175,0.837256,0,0,0,0,0.169072,1.12462,19320,0,0,0,0,0,0,0,0,0,1,-0.920982
8572,1.12012,0.177734,-0.458008,-0.00261668,-0.00145083,-0.00207287,-0.119013,-0.0199577,2.83519,-3.70658,-0.513345,-0.142159,0.133894,0.855353,0.170364,1.13439,2.83519,0,0,343,3,343,3,469,20,329,122,0.35345,0.154914,0.876408,-1.5,0,0,0,2,0.133894,0.855353,0,0,0,0,0.170364,1.13439,19320,0,0,0,0,0,0,0,0,0,1,-0.940888
8588,1.12012,0.177734,5.54688,-0.00290803,-0.00129301,-0.00207986,-0.119064,-0.0199955,2.83517,-3.70658,-0.513345,-0.142159,0.136633,0.873602,0.171643,1.14409,2.83517,0,0,343,3,343,3,469,20,329,122,0.353538,0.154618,0.90154,-1.5,0,0,0,2,0.136633,0.873602,0,0,0,0,0.171643,1.14409,19320,0,0,0,0,0,0,0,0,0,1,-0.960962
8604,1.12012,0.177734,-0.84375,-0.00420778,-0.00124036,-0.00082408,-0.119128,-0.0200285,2.83515,-3.70673,-0.513198,-0.142342,0.139392,0.892006,0.17291,1.15373,2.83515,0,0,343,3,343,3,469,20,329,122,0.353628,0.154323,0.926673,-1.5,0,0,0,2,0.139392,0.892006,0,0,0,0,0.17291,1.15373,19320,0,0,0,0,0,0,0,0,0,1,-0.981206
8620,1.12012,0.177734,-3.48145,-0.00217558,-0.00176646,-0.00143078,-0.119232,-0.020077,2.83512,-3.70673,-0.513198,-0.142342,0.142172,0.910563,0.174166,1.16329,2.83515,0,0,343,3,343,3,469,20,329,122,0.353722,0.154023,0.951806,-1.5,0,0,0,2,0.142172,0.910563,0,0,0,0,0.174166,1.16329,19320,0,0,0,0,0,0,0,0,0,1,-1
8636,1.12012,0.177734,0.927734,-0.00377402,-0.0013435,-0.00210138,-0.119291,-0.0201157,2.83509,-3.70673,-0.513198,-0.142342,0.144795,0.928098,0.175333,1.17219,2.83512,0,0,343,3,343,3,469,20,329,122,0.353799,0.153757,0.975368,-1.5,0,0,0,2,0.144795,0.928098,0,0,0,0,0.175333,1.17219,19320,0,0,0,0,0,0,0,0,0,1,-1
8651,1.12012,0.177734,5.18945,-0.00446422,-1.59663e-05,-0.00236,-0.119359,-0.0201355,2.83506,-3.71425,-0.516209,-0.139358,0.147614,0.946953,0.176566,1.18164,2.83506,0,0,344,3,344,3,469,20,329,122,0.353873,0.153484,1.0005,-1.5,0,0,0,2,0.147614,0.946953,0,0,0,0,0.176566,1.18164,19320,0,0,0,0,0,0,0,0,0,1,-1
8667,1.12012,0.177734,-1.99902,-0.00363604,-0.00184755,-0.00214084,-0.119407,-0.0201676,2.83502,-3.71425,-0.516209,-0.139358,0.150452,0.965958,0.177789,1.19103,2.83502,0,0,344,3,344,3,469,20,329,122,0.353953,0.153206,1.02563,-1.5,0,0,0,2,0.150452,0.965958,0,0,0,0,0.177789,1.19103,19320,0,0,0,0,0,0,0,0,0,1,-1
8683,1.12012,0.177734,-1.99902,-0.00363604,-0.00184755,-0.00214084,-0.119407,-0.0201676,2.83502,-3.71425,-0.516209,-0.139358,0.153309,0.985112,0.179,1.20034,2.83502,0,0,344,3,344,3,469,20,329,122,0.354045,0.152917,1.05077,-1.5,0,0,0,2,0.153309,0.985112,0,0,0,0,0.179,1.20034,19320,0,0,0,0,0,0,0,0,0,1,-1
8698,1.12012,0.177734,-1.99902,-0.00363604,-0.00184755,-0.00214084,-0.119407,-0.0201676,2.83502,-3.71425,-0.516209,-0.139358,0.156005,1.0032,0.180128,1.20901,2.83502,0,0,344,3,344,3,469,20,329,122,0.35413,0.152648,1.07433,-1.5,0,0,0,2,0.156005,1.0032,0,0,0,0,0.180128,1.20901,19320,0,0,0,0,0,0,0,0,0,1,-1
8714,1.12012,0.177734,-1.99902,-0.00363604,-0.00184755,-0.00214084,-0.119407,-0.0201676,2.83502,-3.71425,-0.516209,-0.139358,0.158899,1.02264,0.181321,1.21818,2.83502,0,0,344,3,344,3,469,20,329,122,0.35422,0.152364,1.09946,-1.5,0,0,0,2,0.158899,1.02264,0,0,0,0,0.181321,1.21818,19320,0,0,0,0,0,0,0,0,0,1,-1
8731,1.12012,0.177734,-3.16211,-0.00314154,-0.00153211,-0.00144513,-0.119659,-0.0202725,2.83494,-3.71425,-0.516209,-0.139358,0.161996,1.04346,0.182578,1.22786,2.83494,0,0,344,3,344,3,469,20,329,122,0.354289,0.152092,1.12616,-1.5,0,0,0,2,0.161996,1.04346,0,0,0,0,0.182578,1.22786,19320,0,0,0,0,0,0,0,0,0,1,-1
8746,1.12012,0.177734,1.08887,-0.00416688,-0.000430823,-0.00241668,-0.119716,-0.0202845,2.8349,-3.71425,-0.516209,-0.139358,0.164745,1.06196,0.183677,1.23635,2.83494,0,0,344,3,344,3,469,20,329,122,0.35437,0.151832,1.14973,-1.5,0,0,0,2,0.164745,1.06196,0,0,0,0,0.183677,1.23635,19320,0,0,0,0,0,0,0,0,0,1,-1
8761,1.12012,0.177734,-5.93555,-0.00342497,-0.000618534,-0.00101185,-0.11977,-0.0203093,2.83489,-3.71425,-0.516209,-0.139358,0.16751,1.08058,0.184768,1.2448,2.8349,0,0,344,3,344,3,469,20,329,122,0.354441,0.151584,1.17329,-1.5,0,0,0,2,0.16751,1.08058,0,0,0,0,0.184768,1.2448,19320,0,0,0,0,0,0,0,0,0,1,-1
8777,1.12012,0.177734,-5.93555,-0.00342497,-0.000618534,-0.00101185,-0.11977,-0.0203093,2.83489,-3.71425,-0.516209,-0.139358,0.170479,1.10059,0.185923,1.25374,2.83489,0,0,344,3,344,3,469,20,329,122,0.354523,0.151315,1.19842,-1.5,0,0,0,2,0.170479,1.10059,0,0,0,0,0.185923,1.25374,19320,0,0,0,0,0,0,0,0,0,1,-1
8793,1.12012,0.177734,3.96582,-0.00467965,-0.000900946,-0.000802036,-0.119874,-0.0203828,2.83486,-3.71425,-0.516209,-0.139358,0.173278,1.11948,0.186995,1.26207,2.83486,0,0,344,3,344,3,469,20,329,122,0.354595,0.151069,1.22198,-1.5,0,0,0,2,0.173278,1.11948,0,0,0,0,0.186995,1.26207,19320,0,0,0,0,0,0,0,0,0,1,-1
8809,1.12012,0.177734,6.83301,-0.00166496,-0.000643002,-0.00258611,-0.11991,-0.0204126,2.83483,-3.70765,-0.511937,-0.143249,0.17647,1.14104,0.188196,1.27145,2.83483,0,0,343,3,343,3,469,20,329,122,0.354675,0.150795,1.24869,-1.5,0,0,0,2,0.17647,1.14104,0,0,0,0,0.188196,1.27145,19320,0,0,0,0,0,0,0,0,0,1,-1
8824,1.12012,0.144531,-5.32422,-0.0028539,-0.0011551,-0.00121717,-0.119952,-0.0204469,2.83481,-3.70765,-0.511937,-0.143249,0.179303,1.16019,0.189244,1.27967,2.83481,0,0,343,3,343,3,469,20,329,122,0.35475,0.150549,1.27225,-1.5,0,0,0,2,0.179303,1.16019,0,0,0,0,0.189244,1.27967,19320,0,0,0,0,0,0,0,0,0,1,-1
8841,1.12012,0.09375,-3.91602,-0.00326238,-0.00161242,-0.00182129,-0.120035,-0.0204993,2.83478,-3.70765,-0.511937,-0.143249,0.182533,1.18204,0.190421,1.28892,2.8348,0,0,343,3,343,3,469,20,329,122,0.354834,0.150274,1.29895,-1.5,0,0,0,2,0.182533,1.18204,0,0,0,0,0.190421,1.28892,19320,0,0,0,0,0,0,0,0,0,1,-1
8857,1.12012,0.09375,4.95605,-0.00279667,-0.00116301,-0.000920284,-0.120075,-0.0205192,2.83475,-3.70765,-0.511937,-0.143249,0.185399,1.20146,0.191449,1.29702,2.83478,0,0,343,3,343,3,469,20,329,122,0.354904,0.150037,1.32252,-1.5,0,0,0,2,0.185399,1.20146,0,0,0,0,0.191449,1.29702,19320,0,0,0,0,0,0,0,0,0,1,-1
8873,1.12012,0.09375,-3.39453,-0.00284202,-0.00155641,-0.00127118,-0.120116,-0.0205582,2.83474,-3.70765,-0.511937,-0.143249,0.188667,1.22361,0.192603,1.30614,2.83474,0,0,343,3,343,3,469,20,329,122,0.35498,0.149774,1.34922,-1.5,0,0,0,2,0.188667,1.22361,0,0,0,0,0.192603,1.30614,19320,0,0,0,0,0,0,0,0,0,1,-1
8889,1.12012,0.09375,-5.56055,-0.00373042,-0.000766709,-0.00174627,-0.120173,-0.0205793,2.83472,-3.70765,-0.511937,-0.143249,0.191759,1.24459,0.193677,1.31466,2.83472,0,0,343,3,343,3,469,20,329,122,0.355054,0.149526,1.37435,-1.5,0,0,0,2,0.191759,1.24459,0,0,0,0,0.193677,1.31466,19320,0,0,0,0,0,0,0,0,0,1,-1
8905,1.12012,0.09375,-5.74902,-0.0063209,-0.00291444,-0.00174365,-0.120249,-0.0206143,2.83471,-3.71544,-0.514746,-0.140592,0.194869,1.26571,0.194742,1.32313,2.83471,0,0,344,3,344,3,469,20,329,122,0.35513,0.149277,1.39948,-1.5,0,0,0,2,0.194869,1.26571,0,0,0,0,0.194742,1.32313,19320,0,0,0,0,0,0,0,0,0,1,-1
8920,1.12012,0.09375,-3.02051,-0.00459346,-0.000988316,-0.00220784,-0.120315,-0.0206411,2.83468,-3.71544,-0.514746,-0.140592,0.1978,1.28563,0.195731,1.33102,2.83468,0,0,344,3,344,3,469,20,329,122,0.355198,0.149049,1.42305,-1.5,0,0,0,2,0.1978,1.28563,0,0,0,0,0.195731,1.33102,19320,0,0,0,0,0,0,0,0,0,1,-1
8937,1.12012,0.09375,-0.19043,-0.00448996,-0.00114207,-0.00132365,-0.120443,-0.0207013,2.83464,-3.70826,-0.511255,-0.14391,0.20114,1.30836,0.196843,1.3399,2.83466,0,0,343,3,343,3,469,20,329,122,0.355273,0.148794,1.44818,-1.5,0,0,0,2,0.20114,1.30836,0,0,0,0,0.196843,1.3399,19320,0,0,0,0,0,0,0,0,0,1,-1
8951,1.12012,0.09375,-4.04297,-0.00561799,-0.00166784,-0.00166551,-0.120525,-0.0207364,2.83462,-3.70826,-0.511255,-0.14391,0.203903,1.32718,0.19775,1.34716,2.83464,0,0,343,3,343,3,469,20,329,122,0.355338,0.148582,1.47017,-1.5,0,0,0,2,0.203903,1.32718,0,0,0,0,0.19775,1.34716,19320,0,0,0,0,0,0,0,0,0,1,-1
8967,1.12012,0.09375,-2.60938,-0.00485745,-0.00177373,-0.00221213,-0.120606,-0.020769,2.8346,-3.70826,-0.511255,-0.14391,0.207078,1.34882,0.198778,1.35542,2.83462,0,0,343,3,343,3,469,20,329,122,0.355408,0.148345,1.4953,-1.5,0,0,0,2,0.207078,1.34882,0,0,0,0,0.198778,1.35542,19320,0,0,0,0,0,0,0,0,0,1,-1
8983,1.12012,0.09375,-0.209961,-0.00442975,-0.00148981,-0.00163872,-0.120671,-0.0208104,2.83458,-3.70826,-0.511255,-0.14391,0.210269,1.3706,0.199797,1.36364,2.83458,0,0,343,3,343,3,469,20,329,122,0.355471,0.148118,1.52044,-1.5,0,0,0,2,0.210269,1.3706,0,0,0,0,0.199797,1.36364,19320,0,0,0,0,0,0,0,0,0,1,-1
8999,1.12012,0.09375,4.99219,-0.00241769,-0.00189377,-0.00253476,-0.120725,-0.0208359,2.83455,-3.70826,-0.511255,-0.14391,0.213476,1.3925,0.200804,1.37179,2.83455,0,0,343,3,343,3,469,20,329,122,0.355538,0.147888,1.54557,-1.5,0,0,0,2,0.213476,1.3925,0,0,0,0,0.200804,1.37179,19320,0,0,0,0,0,0,0,0,0,1,-1
9020,1.12012,0.09375,5.47949,-0.00491654,-0.000954098,-0.00254694,-0.120829,-0.0208923,2.83451,-3.72654,-0.519385,-0.147444,0.217712,1.42146,0.202115,1.38242,2.83455,0,0,344,4,344,4,468,22,330,122,0.355637,0.147576,1.57856,-1.5,0,0,0,2,0.217712,1.42146,0,0,0,0,0.202115,1.38242,19182,0,0,0,0,0,0,0,0,0,1,-1
9036,1.12012,0.09375,-3.82422,-0.00343354,-0.00120627,-0.00250079,-0.120879,-0.0209244,2.83447,-3.72654,-0.519385,-0.147444,0.220956,1.44366,0.203103,1.39045,2.83451,0,0,344,4,344,4,468,22,330,122,0.355697,0.147356,1.60369,-1.5,0,0,0,2,0.220956,1.44366,0,0,0,0,0.203103,1.39045,19182,0,0,0,0,0,0,0,0,0,1,-1
9052,1.12012,0.09375,-7.0293,-0.004382,-0.000926205,-0.00283928,-0.120934,-0.0209531,2.83445,-3.72474,-0.517661,-0.142054,0.224012,1.46459,0.204018,1.39793,2.83445,0,0,344,4,344,4,469,20,330,122,0.355747,0.147159,1.62882,-1.5,0,0,0,2,0.224012,1.46459,0,0,0,0,0.204018,1.39793,19182,0,0,0,0,0,0,0,0,0,1,-1
9067,1.12012,0.09375,6.80859,-0.00295168,-0.0017033,-0.0025721,-0.120981,-0.0209862,2.83441,-3.72474,-0.517661,-0.142054,0.227286,1.48704,0.204986,1.40587,2.83441,0,0,344,4,344,4,469,20,330,122,0.355809,0.14694,1.65238,-1.5,0,0,0,2,0.227286,1.48704,0,0,0,0,0.204986,1.40587,19182,0,0,0,0,0,0,0,0,0,1,-1
9083,1.12012,0.09375,6.80859,-0.00295168,-0.0017033,-0.0025721,-0.120981,-0.0209862,2.83441,-3.73374,-0.518348,-0.136353,0.230576,1.50962,0.205944,1.41374,2.83441,0,0,344,4,344,4,469,20,330,122,0.355882,0.146712,1.67752,-1.5,0,0,0,2,0.230576,1.50962,0,0,0,0,0.205944,1.41374,19043,0,0,0,0,0,0,0,0,0,1,-1
9099,1.12012,0.09375,-1.40918,-0.00240603,-0.00170272,-0.00181212,-0.121059,-0.0210497,2.83437,-3.73374,-0.518348,-0.136353,0.233881,1.53232,0.206893,1.42156,2.83437,0,0,344,4,344,4,469,20,330,122,0.355939,0.146502,1.70265,-1.5,0,0,0,2,0.233881,1.53232,0,0,0,0,0.206893,1.42156,19043,0,0,0,0,0,0,0,0,0,1,-1
9115,1.12012,0.09375,-1.40918,-0.00240603,-0.00170272,-0.00181212,-0.121059,-0.0210497,2.83437,-3.73374,-0.518348,-0.136353,0.237201,1.55514,0.207831,1.42932,2.83437,0,0,344,4,344,4,469,20,330,122,0.35601,0.146278,1.72778,-1.5,0,0,0,2,0.237201,1.55514,0,0,0,0,0.207831,1.42932,19043,0,0,0,0,0,0,0,0,0,1,-1
9130,1.12012,0.09375,3.50586,-0.00507225,-0.00132283,-0.00122348,-0.121225,-0.0211288,2.83431,-3.73374,-0.518348,-0.136353,0.240327,1.57665,0.208702,1.43655,2.83432,0,0,344,4,344,4,469,20,330,122,0.356061,0.146087,1.75134,-1.5,0,0,0,2,0.240327,1.57665,0,0,0,0,0.208702,1.43655,19043,0,0,0,0,0,0,0,0,0,1,-1
9146,1.12012,0.09375,3.50586,-0.00507225,-0.00132283,-0.00122348,-0.121225,-0.0211288,2.83431,-3.72511,-0.517307,-0.14248,0.243675,1.59972,0.209624,1.44422,2.83431,0,0,344,4,344,4,469,20,330,122,0.356127,0.145872,1.77648,-1.5,0,0,0,2,0.243675,1.59972,0,0,0,0,0.209624,1.44422,19182,0,0,0,0,0,0,0,0,0,1,-1
9162,1.12012,0.09375,-6.75879,-0.00587403,-0.00193772,-0.000997345,-0.121385,-0.021186,2.83427,-3.72511,-0.517307,-0.14248,0.247039,1.6229,0.210537,1.45184,2.83427,0,0,344,4,344,4,469,20,330,122,0.356184,0.145668,1.80161,-1.5,0,0,0,2,0.247039,1.6229,0,0,0,0,0.210537,1.45184,19182,0,0,0,0,0,0,0,0,0,1,-1
9178,1.12012,0.09375,-6.75879,-0.00587403,-0.00193772,-0.000997345,-0.121385,-0.021186,2.83427,-3.73501,-0.514742,-0.143505,0.250417,1.64621,0.211443,1.45942,2.83427,0,0,344,4,344,4,468,22,329,122,0.356252,0.145452,1.82674,-1.5,0,0,0,2,0.250417,1.64621,0,0,0,0,0.211443,1.45942,19182,0,0,0,0,0,0,0,0,0,1,-1
9193,1.12012,0.09375,5.85547,-0.00337265,-0.0021421,-0.00251327,-0.121496,-0.0212451,2.83421,-3.73501,-0.514742,-0.143505,0.253597,1.66817,0.212284,1.46647,2.83421,0,0,344,4,344,4,468,22,329,122,0.356298,0.145271,1.8503,-1.5,0,0,0,2,0.253597,1.66817,0,0,0,0,0.212284,1.46647,19182,0,0,0,0,0,0,0,0,0,1,-1
9210,1.12012,0.09375,-4.24023,-0.0029073,-0.00179461,-0.00196778,-0.12154,-0.0212766,2.8342,-3.73545,-0.516988,-0.145756,0.257002,1.69171,0.213173,1.47396,2.8342,0,0,344,4,344,4,468,22,330,122,0.35636,0.145066,1.87544,-1.5,0,0,0,2,0.257002,1.69171,0,0,0,0,0.213173,1.47396,19182,0,0,0,0,0,0,0,0,0,1,-1
9225,1.12012,0.09375,6.62109,-0.00494073,-0.00133085,-0.0019538,-0.121612,-0.0213085,2.83417,-3.73545,-0.516988,-0.145756,0.260422,1.71537,0.214053,1.48139,2.83417,0,0,344,4,344,4,468,22,330,122,0.356417,0.144866,1.90057,-1.5,0,0,0,2,0.260422,1.71537,0,0,0,0,0.214053,1.48139,19182,0,0,0,0,0,0,0,0,0,1,-1
9241,1.12012,0.09375,4.5752,-0.0033939,-0.000909133,-0.00144941,-0.121686,-0.0213753,2.83414,-3.71796,-0.517574,-0.145805,0.263857,1.73915,0.214923,1.48878,2.83415,0,0,344,4,344,4,469,20,330,122,0.356477,0.144665,1.9257,-1.5,0,0,0,2,0.263857,1.73915,0,0,0,0,0.214923,1.48878,19182,0,0,0,0,0,0,0,0,0,1,-1
9257,1.12012,0.09375,-6.53516,-0.00207651,-0.000919872,-0.00222085,-0.121727,-0.0214028,2.83412,-3.71796,-0.517574,-0.145805,0.267304,1.76305,0.215782,1.49612,2.83412,0,0,344,4,344,4,469,20,330,122,0.356532,0.144472,1.95084,-1.5,0,0,0,2,0.267304,1.76305,0,0,0,0,0.215782,1.49612,19182,0,0,0,0,0,0,0,0,0,1,-1
9273,1.12012,0.09375,2.22949,-0.0033697,-0.00196486,-0.00231962,-0.121786,-0.0214257,2.83409,-3.71796,-0.517574,-0.145805,0.270766,1.78707,0.216633,1.5034,2.83409,0,0,344,4,344,4,469,20,330,122,0.356587,0.14428,1.97597,-1.5,0,0,0,2,0.270766,1.78707,0,0,0,0,0.216633,1.5034,19182,0,0,0,0,0,0,0,0,0,1,-1
9289,1.12012,0.09375,-4.6748,-0.00448072,-0.000503657,-0.00258287,-0.121845,-0.0214465,2.83406,-3.71796,-0.517574,-0.145805,0.274241,1.8112,0.217477,1.51065,2.83406,0,0,344,4,344,4,469,20,330,122,0.35664,0.144091,2.0011,-1.5,0,0,0,2,0.274241,1.8112,0,0,0,0,0.217477,1.51065,19182,0,0,0,0,0,0,0,0,0,1,-1
9305,1.12012,0.09375,-5.70117,-0.00278733,-0.00166368,-0.00239394,-0.121886,-0.0214828,2.83403,-3.70848,-0.516267,-0.154705,0.277729,1.83544,0.218313,1.51784,2.83403,0,0,344,4,344,4,469,20,330,124,0.356696,0.1439,2.02624,-1.5,0,0,0,2,0.277729,1.83544,0,0,0,0,0.218313,1.51784,19182,0,0,0,0,0,0,0,0,0,1,-1
9321,1.12012,0.09375,-5.70117,-0.00278733,-0.00166368,-0.00239394,-0.121886,-0.0214828,2.83403,-3.70848,-0.516267,-0.154705,0.281231,1.8598,0.219141,1.52498,2.83403,0,0,344,4,344,4,469,20,330,124,0.356759,0.143703,2.05137,-1.5,0,0,0,2,0.281231,1.8598,0,0,0,0,0.219141,1.52498,19182,0,0,0,0,0,0,0,0,0,1,-1
9337,1.12012,0.09375,-2.82324,-0.00220819,-0.00208324,-0.00203908,-0.121945,-0.0215604,2.83398,-3.72613,-0.51602,-0.143544,0.284746,1.88427,0.219959,1.53207,2.83398,0,0,344,4,344,4,469,20,330,122,0.356804,0.143527,2.0765,-1.5,0,0,0,2,0.284746,1.88427,0,0,0,0,0.219959,1.53207,19182,0,0,0,0,0,0,0,0,0,1,-1
9353,1.12012,0.09375,6.20996,-0.00435154,-0.00128263,-0.000270242,-0.122034,-0.021628,2.83395,-3.72613,-0.51602,-0.143544,0.288052,1.90732,0.220715,1.53867,2.83398,0,0,344,4,344,4,469,20,330,122,0.356861,0.143346,2.10006,-1.5,0,0,0,2,0.288052,1.90732,0,0,0,0,0.220715,1.53867,19182,0,0,0,0,0,0,0,0,0,1,-1
9369,1.12012,0.09375,-4.57129,-0.00161234,-0.00117249,-0.00192662,-0.122072,-0.0216596,2.83393,-3.72613,-0.51602,-0.143544,0.291814,1.93356,0.221563,1.5461,2.83393,0,0,344,4,344,4,469,20,330,122,0.35691,0.143162,2.12677,-1.5,0,0,0,2,0.291814,1.93356,0,0,0,0,0.221563,1.5461,19182,0,0,0,0,0,0,0,0,0,1,-1
9384,1.12012,0.09375,4.37988,-0.00399405,-0.00227501,-0.00234963,-0.122129,-0.0216993,2.83391,-3.72613,-0.51602,-0.143544,0.295144,1.95681,0.2223,1.55262,2.83391,0,0,344,4,344,4,469,20,330,122,0.356958,0.142995,2.15033,-1.5,0,0,0,2,0.295144,1.95681,0,0,0,0,0.2223,1.55262,19182,0,0,0,0,0,0,0,0,0,1,-1
9399,1.12012,0.09375,0.202148,-0.00286152,0.000256131,-0.00192632,-0.122176,-0.0217158,2.83388,-3.72613,-0.51602,-0.143544,0.298486,1.98016,0.223029,1.5591,2.83388,0,0,344,4,344,4,469,20,330,122,0.357005,0.14283,2.17389,-1.5,0,0,0,2,0.298486,1.98016,0,0,0,0,0.223029,1.5591,19182,0,0,0,0,0,0,0,0,0,1,-1
9416,1.12012,0.09375,0.202148,-0.00286152,0.000256131,-0.00192632,-0.122176,-0.0217158,2.83388,-3.72613,-0.51602,-0.143544,0.302286,2.00675,0.223848,1.56639,2.83388,0,0,344,4,344,4,469,20,330,122,0.357067,0.142635,2.20059,-1.5,0,0,0,2,0.302286,2.00675,0,0,0,0,0.223848,1.56639,19182,0,0,0,0,0,0,0,0,0,1,-1
9432,1.12012,0.09375,3.54102,-0.00303307,-0.0016501,-0.00124384,-0.122249,-0.02178,2.83384,-3.72613,-0.51602,-0.143544,0.305876,2.03188,0.224611,1.57321,2.83384,0,0,344,4,344,4,469,20,330,122,0.357113,0.142467,2.22573,-1.5,0,0,0,2,0.305876,2.03188,0,0,0,0,0.224611,1.57321,19182,0,0,0,0,0,0,0,0,0,1,-1
9448,1.12012,0.09375,3.54102,-0.00303307,-0.0016501,-0.00124384,-0.122249,-0.02178,2.83384,-3.73639,-0.513271,-0.145047,0.309477,2.05712,0.225365,1.57997,2.83384,0,0,344,4,344,4,468,22,329,122,0.35717,0.142287,2.25086,-1.5,0,0,0,2,0.309477,2.05712,0,0,0,0,0.225365,1.57997,19182,0,0,0,0,0,0,0,0,0,1,-1
9463,1.12012,0.09375,0.613281,-0.00314797,-0.00108081,-0.00176549,-0.122393,-0.0218668,2.83379,-3.73639,-0.513271,-0.145047,0.312865,2.08088,0.226065,1.58628,2.83381,0,0,344,4,344,4,468,22,329,122,0.357212,0.142132,2.27442,-1.5,0,0,0,2,0.312865,2.08088,0,0,0,0,0.226065,1.58628,19182,0,0,0,0,0,0,0,0,0,1,-1
9480,1.12012,0.09375,0.613281,-0.00314797,-0.00108081,-0.00176549,-0.122393,-0.0218668,2.83379,-3.72563,-0.51519,-0.147383,0.316489,2.10633,0.226803,1.59296,2.83379,0,0,344,4,344,4,469,20,330,124,0.357263,0.141963,2.29956,-1.5,0,0,0,2,0.316489,2.10633,0,0,0,0,0.226803,1.59296,19043,0,0,0,0,0,0,0,0,0,1,-1
9495,1.12012,0.09375,0.775391,-0.00358943,-0.00201791,-0.00168932,-0.122471,-0.0219425,2.83376,-3.72563,-0.51519,-0.147383,0.320126,2.13189,0.227532,1.5996,2.83376,0,0,344,4,344,4,469,20,330,124,0.357307,0.141801,2.32469,-1.5,0,0,0,2,0.320126,2.13189,0,0,0,0,0.227532,1.5996,19043,0,0,0,0,0,0,0,0,0,1,-1
9511,1.12012,0.09375,4.9873,-0.00264463,-0.00137261,-0.0026075,-0.12251,-0.0219705,2.83373,-3.72563,-0.51519,-0.147383,0.323774,2.15755,0.22825,1.6062,2.83373,0,0,344,4,344,4,469,20,330,124,0.357354,0.141638,2.34982,-1.5,0,0,0,2,0.323774,2.15755,0,0,0,0,0.22825,1.6062,19043,0,0,0,0,0,0,0,0,0,1,-1
9527,1.12012,0.09375,6.43457,-0.00194897,-0.00134594,-0.00182731,-0.12254,-0.0219985,2.8337,-3.72563,-0.51519,-0.147383,0.327433,2.18332,0.22896,1.61276,2.8337,0,0,344,4,344,4,469,20,330,124,0.357398,0.14148,2.37478,-1.5,0,0,0,2,0.327433,2.18332,0,0,0,0,0.22896,1.61276,19043,0,0,0,0,0,0,0,0,0,1,-1
9543,1.12012,0.09375,-4.93848,-0.00298711,-0.000576355,-0.00122582,-0.122582,-0.0220195,2.83369,-3.72601,-0.514877,-0.147859,0.331104,2.20919,0.229663,1.61926,2.83369,0,0,344,4,344,4,469,20,330,124,0.357446,0.141319,2.39905,-1.5,0,0,0,2,0.331104,2.20919,0,0,0,0,0.229663,1.61926,19043,0,0,0,0,0,0,0,0,0,1,-1
9559,1.12012,0.09375,-2.7666,-0.0039711,-0.00215113,-0.00151092,-0.12267,-0.0220982,2.83364,-3.72601,-0.514877,-0.147859,0.334786,2.23517,0.230358,1.62573,2.83366,0,0,344,4,344,4,469,20,330,124,0.357489,0.141164,2.42254,-1.5,0,0,0,2,0.334786,2.23517,0,0,0,0,0.230358,1.62573,19043,0,0,0,0,0,0,0,0,0,1,-1
9575,1.12012,0.09375,-4.0166,-0.00350264,-0.00217645,-0.00243858,-0.122721,-0.0221409,2.83362,-3.7352,-0.510026,-0.14742,0.338478,2.26125,0.231043,1.63215,2.83364,0,0,344,3,344,3,468,22,329,124,0.357536,0.141007,2.44528,-1.5,0,0,0,2,0.338478,2.26125,0,0,0,0,0.231043,1.63215,19182,0,0,0,0,0,0,0,0,0,1,-1
9591,1.12012,0.09375,-2.07227,-0.00280248,-0.000784634,-0.00235007,-0.122755,-0.0221635,2.83359,-3.7352,-0.510026,-0.14742,0.342182,2.28743,0.231718,1.63854,2.83359,0,0,344,3,344,3,468,22,329,124,0.35757,0.140865,2.46732,-1.5,0,0,0,2,0.342182,2.28743,0,0,0,0,0.231718,1.63854,19182,0,0,0,0,0,0,0,0,0,1,-1
9607,1.12012,0.09375,4.21582,-0.00284536,-0.000958617,-0.000189687,-0.122797,-0.0221788,2.83358,-3.7352,-0.510026,-0.14742,0.345897,2.31371,0.232387,1.64488,2.83358,0,0,344,3,344,3,468,22,329,124,0.357619,0.140708,2.48864,-1.5,0,0,0,2,0.345897,2.31371,0,0,0,0,0.232387,1.64488,19182,0,0,0,0,0,0,0,0,0,1,-1
9622,1.12012,0.09375,-5.32617,-0.00242169,-0.0019392,-0.00205479,-0.122832,-0.0222121,2.83355,-3.7352,-0.510026,-0.14742,0.349388,2.33844,0.233007,1.65078,2.83355,0,0,344,3,344,3,468,22,329,124,0.357657,0.14057,2.50802,-1.5,0,0,0,2,0.349388,2.33844,0,0,0,0,0.233007,1.65078,19182,0,0,0,0,0,0,0,0,0,1,-1
9638,1.12012,0.09375,6.32617,-0.00509058,-0.00210417,-0.00198123,-0.122894,-0.0222484,2.83353,-3.72782,-0.510849,-0.150537,0.353123,2.36492,0.233662,1.65704,2.83353,0,0,344,3,344,3,468,22,329,124,0.357701,0.140421,2.52808,-1.5,0,0,0,2,0.353123,2.36492,0,0,0,0,0.233662,1.65704,19182,0,0,0,0,0,0,0,0,0,1,-1
9654,1.12012,0.09375,6.32617,-0.00509058,-0.00210417,-0.00198123,-0.122894,-0.0222484,2.83353,-3.72782,-0.510849,-0.150537,0.356869,2.39149,0.23431,1.66326,2.83353,0,0,344,3,344,3,468,22,329,124,0.35775,0.140266,2.54748,-1.5,0,0,0,2,0.356869,2.39149,0,0,0,0,0.23431,1.66326,19182,0,0,0,0,0,0,0,0,0,1,-1
9670,1.12012,0.09375,4.06934,-0.00299984,-0.00214046,-0.00157095,-0.122997,-0.0223054,2.83349,-3.7279,-0.510752,-0.150631,0.360624,2.41817,0.234952,1.66944,2.83349,0,0,344,3,344,3,468,22,329,124,0.357784,0.140131,2.56629,-1.5,0,0,0,2,0.360624,2.41817,0,0,0,0,0.234952,1.66944,19182,0,0,0,0,0,0,0,0,0,1,-1
9686,1.12012,0.09375,6.56641,-0.000904547,-0.00193673,-0.00243896,-0.12307,-0.0223593,2.83345,-3.7279,-0.510752,-0.150631,0.36439,2.44495,0.235587,1.67557,2.83349,0,0,344,3,344,3,468,22,329,124,0.357832,0.139979,2.58449,-1.5,0,0,0,2,0.36439,2.44495,0,0,0,0,0.235587,1.67557,19182,0,0,0,0,0,0,0,0,0,1,-1
9702,1.12012,0.09375,-5.29688,-0.00255755,-0.000673154,-0.00137563,-0.123112,-0.0223775,2.83343,-3.7279,-0.510752,-0.150631,0.368166,2.47182,0.236213,1.68167,2.83343,0,0,344,3,344,3,468,22,329,124,0.357861,0.139852,2.60212,-1.5,0,0,0,2,0.368166,2.47182,0,0,0,0,0.236213,1.68167,19182,0,0,0,0,0,0,0,0,0,1,-1
9718,1.12012,0.09375,0.254883,-0.00299271,-0.00127297,-0.00235175,-0.123162,-0.0224019,2.83341,-3.745,-0.512841,-0.144353,0.371952,2.49879,0.236833,1.68774,2.83341,0,0,344,3,344,3,468,22,330,124,0.357901,0.139711,2.61918,-1.5,0,0,0,2,0.371952,2.49879,0,0,0,0,0.236833,1.68774,19044,0,0,0,0,0,0,0,0,0,1,-1
9734,1.12012,0.09375,-5.45117,-0.00373658,-0.00126801,-0.00164031,-0.123228,-0.0224298,2.83338,-3.745,-0.512841,-0.144353,0.37551,2.52416,0.23741,1.69338,2.83338,0,0,344,3,344,3,468,22,330,124,0.357937,0.139582,2.63469,-1.5,0,0,0,2,0.37551,2.52416,0,0,0,0,0.23741,1.69338,19044,0,0,0,0,0,0,0,0,0,1,-1
9749,1.12012,0.09375,-5.45117,-0.00373658,-0.00126801,-0.00164031,-0.123228,-0.0224298,2.83338,-3.745,-0.512841,-0.144353,0.379315,2.55131,0.238019,1.69937,2.83338,0,0,344,3,344,3,468,22,330,124,0.357984,0.139437,2.65073,-1.5,0,0,0,2,0.379315,2.55131,0,0,0,0,0.238019,1.69937,19044,0,0,0,0,0,0,0,0,0,1,-1
9765,1.12012,0.09375,-7.22559,-0.00333282,-0.00118609,-0.00108829,-0.123333,-0.0224814,2.83334,-3.745,-0.512841,-0.144353,0.383129,2.57856,0.238624,1.70531,2.83334,0,0,344,3,344,3,468,22,330,124,0.358017,0.139307,2.66625,-1.5,0,0,0,2,0.383129,2.57856,0,0,0,0,0.238624,1.70531,19044,0,0,0,0,0,0,0,0,0,1,-1
9781,1.12012,0.09375,2.02734,-0.00339161,-0.00196127,-0.00238558,-0.123435,-0.0225384,2.83329,-3.74477,-0.508055,-0.145146,0.386953,2.60591,0.239222,1.71122,2.83334,0,0,344,3,344,3,467,22,329,124,0.358063,0.139165,2.68129,-1.5,0,0,0,2,0.386953,2.60591,0,0,0,0,0.239222,1.71122,19044,0,0,0,0,0,0,0,0,0,1,-1
9797,1.12012,0.09375,-3.2373,-0.00321395,-0.00157458,-0.00190483,-0.123488,-0.0225686,2.83327,-3.74477,-0.508055,-0.145146,0.390787,2.63335,0.239814,1.7171,2.83327,0,0,344,3,344,3,467,22,329,124,0.358083,0.139052,2.69586,-1.5,0,0,0,2,0.390787,2.63335,0,0,0,0,0.239814,1.7171,19044,0,0,0,0,0,0,0,0,0,1,-1
9812,1.12012,0.09375,-3.2373,-0.00321395,-0.00157458,-0.00190483,-0.123488,-0.0225686,2.83327,-3.73715,-0.508879,-0.14816,0.39439,2.65916,0.240362,1.72257,2.83327,0,0,344,3,344,3,467,22,329,124,0.358125,0.138921,2.70909,-1.5,0,0,0,2,0.39439,2.65916,0,0,0,0,0.240362,1.72257,19044,0,0,0,0,0,0,0,0,0,1,-1
9827,1.12012,0.09375,6.99805,-0.00294744,-0.0022286,-0.00114943,-0.123564,-0.0226406,2.83324,-3.73715,-0.508879,-0.14816,0.398,2.68505,0.240904,1.72801,2.83324,0,0,344,3,344,3,467,22,329,124,0.358157,0.138802,2.72193,-1.5,0,0,0,2,0.398,2.68505,0,0,0,0,0.240904,1.72801,19044,0,0,0,0,0,0,0,0,0,1,-1
9843,1.12012,0.09375,-6.62793,-0.00332651,-0.00115419,-0.00187507,-0.123609,-0.0226648,2.83322,-3.7379,-0.513226,-0.147775,0.401861,2.71276,0.241473,1.73379,2.83322,0,0,344,3,344,3,468,22,330,124,0.358194,0.138674,2.73521,-1.5,0,0,0,2,0.401861,2.71276,0,0,0,0,0.241473,1.73379,19044,0,0,0,0,0,0,0,0,0,1,-1
9859,1.12012,0.09375,6.65918,-0.00283142,-0.0016013,-0.00101696,-0.123654,-0.0226921,2.8332,-3.7379,-0.513226,-0.147775,0.40573,2.74056,0.242036,1.73952,2.8332,0,0,344,3,344,3,468,22,330,124,0.358232,0.138545,2.74807,-1.5,0,0,0,2,0.40573,2.74056,0,0,0,0,0.242036,1.73952,19044,0,0,0,0,0,0,0,0,0,1,-1
9877,1.12012,0.09375,-5.63086,-0.00242286,-0.00149524,-0.00150837,-0.123689,-0.0227219,2.83319,-3.73668,-0.508419,-0.14909,0.410094,2.77195,0.242661,1.74593,2.83319,0,0,344,3,344,3,468,22,329,124,0.358275,0.138401,2.76206,-1.5,0,0,0,2,0.410094,2.77195,0,0,0,0,0.242661,1.74593,19182,0,0,0,0,0,0,0,0,0,1,-1
9892,1.12012,0.09375,6.79492,-0.00441519,-0.000603906,-0.00293628,-0.123778,-0.0227758,2.83315,-3.73668,-0.508419,-0.14909,0.413739,2.79819,0.243177,1.75123,2.83319,0,0,344,3,344,3,468,22,329,124,0.358314,0.138278,2.77333,-1.5,0,0,0,2,0.413739,2.79819,0,0,0,0,0.243177,1.75123,19182,0,0,0,0,0,0,0,0,0,1,-1
9909,1.12012,0.09375,6.79492,-0.00441519,-0.000603906,-0.00293628,-0.123778,-0.0227758,2.83315,-3.75698,-0.512974,-0.136017,0.41788,2.82803,0.243753,1.7572,2.83315,0,0,344,3,344,3,467,22,330,122,0.358345,0.138156,2.7857,-1.5,0,0,0,2,0.41788,2.82803,0,0,0,0,0.243753,1.7572,18906,0,0,0,0,0,0,0,0,0,1,-1
9924,1.12012,0.09375,2.77441,-0.00303488,-0.000700799,-0.00231762,-0.123895,-0.0228255,2.8331,-3.75698,-0.512974,-0.136017,0.421541,2.85443,0.244258,1.76243,2.8331,0,0,344,3,344,3,467,22,330,122,0.358367,0.138054,2.79556,-1.5,0,0,0,2,0.421541,2.85443,0,0,0,0,0.244258,1.76243,18906,0,0,0,0,0,0,0,0,0,1,-1
9940,1.12012,0.09375,5.74121,-0.00244693,-0.00152414,-0.00269581,-0.123931,-0.0228543,2.83306,-3.72923,-0.5092,-0.152122,0.425454,2.88269,0.24479,1.76799,2.83306,0,0,344,3,344,3,468,22,329,124,0.358397,0.137939,2.80651,-1.5,0,0,0,2,0.425454,2.88269,0,0,0,0,0.24479,1.76799,19182,0,0,0,0,0,0,0,0,0,1,-1
9956,1.12012,0.09375,-5.96777,-0.00339414,-0.000359793,-0.00163097,-0.123976,-0.0228733,2.83304,-3.72923,-0.5092,-0.152122,0.429377,2.91104,0.245317,1.77351,2.83304,0,0,344,3,344,3,468,22,329,124,0.358432,0.13782,2.81712,-1.5,0,0,0,2,0.429377,2.91104,0,0,0,0,0.245317,1.77351,19182,0,0,0,0,0,0,0,0,0,1,-1
9972,1.12012,0.09375,2.75391,-0.00125318,-0.00154053,-0.00214913,-0.124008,-0.0228993,2.83301,-3.73792,-0.508039,-0.149052,0.433307,2.93947,0.245839,1.77899,2.83301,0,0,344,3,344,3,467,22,329,124,0.358462,0.137706,2.82739,-1.5,0,0,0,2,0.433307,2.93947,0,0,0,0,0.245839,1.77899,19044,0,0,0,0,0,0,0,0,0,1,-1
9988,1.12012,0.09375,2.75391,-0.00125318,-0.00154053,-0.00214913,-0.124008,-0.0228993,2.83301,-3.73792,-0.508039,-0.149052,0.437246,2.96799,0.246356,1.78443,2.83301,0,0,344,3,344,3,467,22,329,124,0.358501,0.137583,2.83733,-1.5,0,0,0,2,0.437246,2.96799,0,0,0,0,0.246356,1.78443,19044,0,0,0,0,0,0,0,0,0,1,-1
10004,1.12012,0.09375,2.75391,-0.00125318,-0.00154053,-0.00214913,-0.124008,-0.0228993,2.83301,-3.73792,-0.508039,-0.149052,0.441193,2.9966,0.246868,1.78983,2.83301,0,0,344,3,344,3,467,22,329,124,0.35854,0.137461,2.84695,-1.5,0,0,0,2,0.441193,2.9966,0,0,0,0,0.246868,1.78983,19044,0,0,0,0,0,0,0,0,0,1,-1
10020,1.12012,0.09375,6.64551,-0.00265563,-0.00127079,-0.00163874,-0.12413,-0.0230172,2.83292,-3.73792,-0.508039,-0.149052,0.445148,3.02529,0.247375,1.79519,2.83292,0,0,344,3,344,3,467,22,329,124,0.358548,0.137376,2.85628,-1.5,0,0,0,2,0.445148,3.02529,0,0,0,0,0.247375,1.79519,19044,0,0,0,0,0,0,0,0,0,1,-1
10035,1.12012,0.09375,-5.97461,-0.00241797,-0.000749436,-0.00165453,-0.124169,-0.02304,2.8329,-3.73792,-0.508039,-0.149052,0.448863,3.05227,0.247838,1.80019,2.8329,0,0,344,3,344,3,467,22,329,124,0.358577,0.137272,2.86475,-1.5,0,0,0,2,0.448863,3.05227,0,0,0,0,0.247838,1.80019,19044,0,0,0,0,0,0,0,0,0,1,-1
10051,1.12012,0.09375,-5.97461,-0.00241797,-0.000749436,-0.00165453,-0.124169,-0.02304,2.8329,-3.73824,-0.507803,-0.149478,0.452834,3.08112,0.248328,1.80549,2.8329,0,0,344,3,344,3,467,22,329,124,0.358615,0.137155,2.8735,-1.5,0,0,0,2,0.452834,3.08112,0,0,0,0,0.248328,1.80549,19044,0,0,0,0,0,0,0,0,0,1,-1
10067,1.12012,0.09375,-5.97461,-0.00241797,-0.000749436,-0.00165453,-0.124169,-0.02304,2.8329,-3.73824,-0.507803,-0.149478,0.456812,3.11006,0.248813,1.81076,2.8329,0,0,344,3,344,3,467,22,329,124,0.358652,0.13704,2.88198,-1.5,0,0,0,2,0.456812,3.11006,0,0,0,0,0.248813,1.81076,19044,0,0,0,0,0,0,0,0,0,1,-1
10082,1.12012,0.09375,-5.97461,-0.00241797,-0.000749436,-0.00165453,-0.124169,-0.02304,2.8329,-3.7383,-0.507743,-0.149538,0.460548,3.13727,0.249265,1.81565,2.8329,0,0,344,3,344,3,467,22,329,124,0.358686,0.136932,2.88969,-1.5,0,0,0,2,0.460548,3.13727,0,0,0,0,0.249265,1.81565,19044,0,0,0,0,0,0,0,0,0,1,-1
10098,1.12012,0.09375,-1.35645,-0.00166995,-0.00204599,-0.00182444,-0.124383,-0.0231645,2.83276,-3.7383,-0.507743,-0.149538,0.464542,3.16638,0.249742,1.82084,2.83279,0,0,344,3,344,3,467,22,329,124,0.358687,0.136858,2.89766,-1.5,0,0,0,2,0.464542,3.16638,0,0,0,0,0.249742,1.82084,19044,0,0,0,0,0,0,0,0,0,1,-1
10114,1.12012,0.09375,1.36328,-0.00199556,-0.00168874,-0.00163342,-0.124408,-0.0232006,2.83274,-3.7383,-0.507743,-0.149538,0.468542,3.19556,0.250212,1.82602,2.83276,0,0,344,3,344,3,467,22,329,124,0.358714,0.136757,2.90538,-1.5,0,0,0,2,0.468542,3.19556,0,0,0,0,0.250212,1.82602,19044,0,0,0,0,0,0,0,0,0,1,-1
10130,1.12012,0.09375,-6.58594,-0.00243371,-0.00104282,-0.00179306,-0.124434,-0.0232255,2.83272,-3.7383,-0.507743,-0.149538,0.472551,3.22483,0.250672,1.83116,2.83272,0,0,344,3,344,3,467,22,329,124,0.358737,0.136661,2.91285,-1.5,0,0,0,2,0.472551,3.22483,0,0,0,0,0.250672,1.83116,19044,0,0,0,0,0,0,0,0,0,1,-1
10146,1.12012,0.09375,-6.58594,-0.00243371,-0.00104282,-0.00179306,-0.124434,-0.0232255,2.83272,-3.73009,-0.508411,-0.153168,0.476566,3.25418,0.251127,1.83626,2.83272,0,0,344,3,344,3,468,22,329,124,0.358771,0.136553,2.92009,-1.5,0,0,0,2,0.476566,3.25418,0,0,0,0,0.251127,1.83626,19182,0,0,0,0,0,0,0,0,0,1,-1
10161,1.12012,0.09375,-6.58594,-0.00243371,-0.00104282,-0.00179306,-0.124434,-0.0232255,2.83272,-3.73009,-0.508411,-0.153168,0.480337,3.28177,0.251551,1.84101,2.83272,0,0,344,3,344,3,468,22,329,124,0.358803,0.136452,2.92666,-1.5,0,0,0,2,0.480337,3.28177,0,0,0,0,0.251551,1.84101,19182,0,0,0,0,0,0,0,0,0,1,-1
10178,1.12012,0.09375,-6.58594,-0.00243371,-0.00104282,-0.00179306,-0.124434,-0.0232255,2.83272,-3.74646,-0.508501,-0.149272,0.484367,3.31128,0.251999,1.84603,2.83272,0,0,344,4,344,4,468,22,329,124,0.358838,0.136345,2.93388,-1.5,0,0,0,2,0.484367,3.31128,0,0,0,0,0.251999,1.84603,19043,0,0,0,0,0,0,0,0,0,1,-1
10193,1.12012,0.09375,6.56934,-0.00243137,-0.000831614,-0.00173816,-0.124556,-0.0233277,2.83263,-3.74646,-0.508501,-0.149272,0.488403,3.34087,0.252441,1.85103,2.83263,0,0,344,4,344,4,468,22,329,124,0.358843,0.136273,2.94004,-1.5,0,0,0,2,0.488403,3.34087,0,0,0,0,0.252441,1.85103,19043,0,0,0,0,0,0,0,0,0,1,-1
10209,1.12012,0.09375,-6.32422,-0.00195084,-0.00159238,-0.0010495,-0.124584,-0.0233448,2.83262,-3.7562,-0.514041,-0.143147,0.492446,3.37054,0.252874,1.856,2.83262,0,0,344,3,344,3,468,22,331,124,0.358874,0.136172,2.94642,-1.5,0,0,0,2,0.492446,3.37054,0,0,0,0,0.252874,1.856,18906,0,0,0,0,0,0,0,0,0,1,-1
10226,1.12012,0.09375,-6.29883,-0.00196249,-0.000506035,-0.000785646,-0.124655,-0.0233883,2.8326,-3.7562,-0.514041,-0.143147,0.496497,3.40029,0.253302,1.86094,2.8326,0,0,344,3,344,3,468,22,331,124,0.358899,0.136079,2.9526,-1.5,0,0,0,2,0.496497,3.40029,0,0,0,0,0.253302,1.86094,18906,0,0,0,0,0,0,0,0,0,1,-1
10241,1.12012,0.09375,-2.51953,-0.00265075,-0.00275247,-0.0018503,-0.124699,-0.0234196,2.83258,-3.7493,-0.507943,-0.141788,0.500554,3.43011,0.253724,1.86585,2.83258,0,0,344,3,344,3,467,22,329,122,0.358925,0.135985,2.95857,-1.5,0,0,0,2,0.500554,3.43011,0,0,0,0,0.253724,1.86585,19044,0,0,0,0,0,0,0,0,0,1,-1
10256,1.12012,0.09375,-2.51953,-0.00265075,-0.00275247,-0.0018503,-0.124699,-0.0234196,2.83258,-3.7493,-0.507943,-0.141788,0.50411,3.45627,0.254089,1.87011,2.83258,0,0,344,3,344,3,467,22,329,122,0.358953,0.135898,2.96365,-1.5,0,0,0,2,0.50411,3.45627,0,0,0,0,0.254089,1.87011,19044,0,0,0,0,0,0,0,0,0,1,-1
10272,1.12012,0.09375,-4.33008,-0.00245478,-0.000814597,-0.000752989,-0.124786,-0.0234646,2.83254,-3.73103,-0.510679,-0.155645,0.508434,3.48812,0.254529,1.87526,2.83254,0,0,344,3,344,3,468,22,330,124,0.358974,0.135808,2.96962,-1.5,0,0,0,2,0.508434,3.48812,0,0,0,0,0.254529,1.87526,19182,0,0,0,0,0,0,0,0,0,1,-1
10287,1.12012,0.09375,-4.33008,-0.00245478,-0.000814597,-0.000752989,-0.124786,-0.0234646,2.83254,-3.73103,-0.510679,-0.155645,0.512255,3.51629,0.254912,1.87978,2.83254,0,0,344,3,344,3,468,22,330,124,0.359003,0.135716,2.97473,-1.5,0,0,0,2,0.512255,3.51629,0,0,0,0,0.254912,1.87978,19182,0,0,0,0,0,0,0,0,0,1,-1
10304,1.12012,0.09375,2.65039,-0.00298849,-0.00089198,-0.000813032,-0.124868,-0.0235123,2.83251,-3.73069,-0.507829,-0.153895,0.516594,3.5483,0.255342,1.88486,2.83251,0,0,344,3,344,3,468,22,329,124,0.359026,0.135625,2.98033,-1.5,0,0,0,2,0.516594,3.5483,0,0,0,0,0.255342,1.88486,19182,0,0,0,0,0,0,0,0,0,1,-1
10319,1.12012,0.09375,5.46582,-0.00280017,-0.00121031,-0.00183031,-0.124956,-0.0235513,2.83245,-3.73069,-0.507829,-0.153895,0.520427,3.57662,0.255717,1.88932,2.83251,0,0,344,3,344,3,468,22,329,124,0.359055,0.135536,2.98512,-1.5,0,0,0,2,0.520427,3.57662,0,0,0,0,0.255717,1.88932,19182,0,0,0,0,0,0,0,0,0,1,-1
10336,1.12012,0.09375,-4.58203,-0.00326912,-0.00104774,-0.00135442,-0.125001,-0.0235692,2.83243,-3.73069,-0.507829,-0.153895,0.524779,3.6088,0.256139,1.89435,2.83243,0,0,344,3,344,3,468,22,329,124,0.359064,0.135461,2.99038,-1.5,0,0,0,2,0.524779,3.6088,0,0,0,0,0.256139,1.89435,19182,0,0,0,0,0,0,0,0,0,1,-1
