timestamp,A_x,A_y,A_z,P,Q,R,Phi,Theta,Psi,poseX,poseY,poseZ,state_X,state_Y,state_Z,state_VzB,state_Bx,state_By,state_Bz,p1_x,p1_y,p2_x,p2_y,p3_x,p3_y,p4_x,p4_y,roll,pitch,yaw,alt,targetHeading,highLevelState,lowLevelState,gateNumber,filtered_x,filtered_y,x_OT,y_OT,vx_OT,vy_OT,filtered_vx,filtered_vygateArearansac_corr_x,ransac_corr_y,ransac_corr_vx,ransac_corr_vy,detectionTimeStamppTermX,dTermX,pTermY,dTermY,vxcmd,vycmd
7201,0,0,0,0,0,0,0,0,0,0,0,0,0,0,0,0,0,0,0,0,0,0,0,0,0,0,0,0,-0.375,0.0125664,-1.5,nan,0,0,2,0,0,0,0,0,0,0,0,1.9603e-19,0,0,0,0,0,0,0,0,0,2.5,0
7215,0,0,0,0,0,0,0,0,0,0,0,0,0,0,0,0,0,0,0,0,0,0,0,0,0,0,0,0,-0.375,0.0361283,-1.5,nan,0,0,2,0,0,0,0,0,0,0,0,1.9603e-19,0,0,0,0,0,0,0,0,0,2.5,0
7747,-3.21172e-12,7.59334e-38,-1.57647e-06,-3.27738e-12,7.59287e-38,0,-1.13703e-13,0,0,0,0,0,0,0,0,0,0,0,0,0,0,0,0,0,0,0,0,0,-0.375,0.871791,-1.5,nan,0,0,2,0,0,0,0,0,0,0,0,1.9603e-19,0,0,0,0,0,0,0,0,0,2.5,0
7763,-3.21172e-12,7.59334e-38,-1.57647e-06,-3.27738e-12,7.59287e-38,0,-1.13703e-13,0,0,0,0,0,0,0,0,0,0,0,0,0,0,0,0,0,0,0,0,0,-0.375,0.896924,-1.5,nan,0,0,2,0,0,0,0,0,0,0,0,1.9603e-19,0,0,0,0,0,0,0,0,0,2.5,0
7778,-3.21172e-12,7.59334e-38,-1.57647e-06,-3.27738e-12,7.59287e-38,0,-1.13704e-13,0,0,0,0,0,0,0,0,0,0,0,0,0,0,0,0,0,0,0,0,0,-0.375,0.920486,-1.5,nan,0,0,2,0,0,0,0,0,0,0,0,1.9603e-19,0,0,0,0,0,0,0,0,0,2.5,0
7795,-3.21172e-12,7.59334e-38,-1.57647e-06,-3.27738e-12,7.59287e-38,0,-1.13704e-13,0,0,0,0,0,0,0,0,0,0,0,0,0,0,0,0,0,0,0,0,0,-0.375,0.945619,-1.5,nan,0,0,2,0,0,0,0,0,0,0,0,1.9603e-19,0,0,0,0,0,0,0,0,0,2.5,0
7810,-3.21172e-12,7.59334e-38,-1.57647e-06,-3.27738e-12,7.59287e-38,0,-1.13705e-13,0,0,0,0,0,0,0,0,0,0,0,0,0,0,0,0,0,0,0,0,0,-0.375,0.970751,-1.5,nan,0,0,2,0,0,0,0,0,0,0,0,1.9603e-19,0,0,0,0,0,0,0,0,0,2.5,0
7826,-3.21172e-12,7.59334e-38,-1.57647e-06,-3.27738e-12,7.59287e-38,0,-1.13705e-13,0,0,0,0,0,0,0,0,0,0,0,0,0,0,0,0,0,0,0,0,0,-0.375,0.994313,-1.5,nan,0,0,2,0,0,0,0,0,0,0,0,1.9603e-19,0,0,0,0,0,0,0,0,0,2.5,0
7842,-3.21172e-12,7.59334e-38,-1.57647e-06,-3.27738e-12,7.59287e-38,0,-1.13706e-13,0,0,0,0,0,0,0,0,0,0,0,0,0,0,0,0,0,0,0,0,0,-0.375,1.01945,-1.5,nan,0,0,2,0,0,0,0,0,0,0,0,1.9603e-19,0,0,0,0,0,0,0,0,0,2.5,0
7873,-3.21172e-12,7.59334e-38,-1.57647e-06,-3.27738e-12,7.59287e-38,0,-1.13706e-13,0,0,0,0,0,0,0,0,0,0,0,0,0,0,0,0,0,0,0,0,0,-0.375,1.06814,-1.5,nan,0,0,2,0,0,0,0,0,0,0,0,1.9603e-19,0,0,0,0,0,0,0,0,0,2.5,0
7889,-3.21172e-12,7.59334e-38,-1.57647e-06,-3.27738e-12,7.59287e-38,0,-1.13707e-13,0,0,0,0,0,0,0,0,0,0,0,0,-1368607936,-1368607936,-1368607936,-1368607936,-1368607896,-1451353714,2028907850,-1368607896,0,-0.375,1.09327,-1.5,nan,0,0,2,0,0,0,0,0,0,0,0,0,0,0,0,0,0,0,0,0,0,2.5,0
7905,-3.21172e-12,7.59334e-38,-1.57647e-06,-3.27738e-12,7.59287e-38,0,-1.13708e-13,0,0,0,0,0,0,0,0,0,0,0,0,-1368607936,-1368607936,-1368607936,-1368607936,-1368607896,-1451353714,2028907850,-1368607896,0,-0.375,1.11684,-1.5,nan,0,0,2,0,0,0,0,0,0,0,0,0,0,0,0,0,0,0,0,0,0,2.5,0
7921,-3.21172e-12,7.59334e-38,-1.57647e-06,-3.27738e-12,7.59287e-38,0,-1.13708e-13,0,0,-3.87034,0.134854,0.470767,0,0,0,0,0,0,0,247,-38,247,-38,360,-50,251,78,0,-0.375,1.14354,-1.5,nan,0,0,2,0,0,0,0,0,0,0,0,15232,0,0,0,0,0,0,0,0,0,2.5,0
8001,-3.21172e-12,7.59334e-38,-1.57647e-06,-3.27738e-12,7.59287e-38,0,-1.13709e-13,0,0,-3.87034,0.134854,0.470767,0,0,0,0,0,0,0,247,-38,247,-38,360,-50,251,78,0,-0.375,1.26763,-1.5,nan,0,0,2,0,0,0,0,0,0,0,0,15232,0,0,0,0,0,0,0,0,0,2.5,0
8022,-3.21172e-12,7.59334e-38,-1.57647e-06,-3.27738e-12,7.59287e-38,0,-1.13709e-13,0,0,-3.87519,0.127112,0.462021,0,0,0,0,0,0,0,247,-39,247,-39,364,-45,251,79,0,-0.375,1.30219,-1.5,nan,0,0,2,0,0,0,0,0,0,0,0,14632,0,0,0,0,0,0,0,0,0,2.5,0
8038,-3.21172e-12,7.59334e-38,-1.57647e-06,-3.27738e-12,7.59287e-38,0,-1.1371e-13,0,0,-3.93219,0.119824,0.485869,0,0,0,0,0,0,0,250,-36,250,-36,364,-45,252,79,0,-0.375,1.32732,-1.5,nan,0,0,2,0,0,0,0,0,0,0,0,14260,0,0,0,0,0,0,0,0,0,2.5,0
8054,-3.21172e-12,7.59334e-38,-1.57647e-06,-3.27738e-12,7.59287e-38,0,-1.1371e-13,0,0,-3.93219,0.119824,0.485869,0,0,0,0,0,0,0,250,-36,250,-36,364,-45,252,79,0,-0.375,1.35246,-1.5,nan,0,0,2,0,0,0,0,0,0,0,0,14260,0,0,0,0,0,0,0,0,0,2.5,0
8070,-3.21172e-12,7.59334e-38,-1.57647e-06,-3.27738e-12,7.59287e-38,0,-1.13711e-13,0,0,-3.93219,0.119824,0.485869,0,0,0,0,0,0,0,250,-36,250,-36,364,-45,252,79,0,-0.375,1.37759,-1.5,nan,0,0,2,0,0,0,0,0,0,0,0,14260,0,0,0,0,0,0,0,0,0,2.5,0
8095,-3.21172e-12,7.59334e-38,-1.57647e-06,-3.27738e-12,7.59287e-38,0,-1.13711e-13,0,0,-3.84449,0.108065,0.450457,0,0,0,0,0,0,0,250,-37,250,-37,363,-48,251,78,0,-0.375,1.41529,-1.5,nan,0,0,2,0,0,0,0,0,0,0,0,15246,0,0,0,0,0,0,0,0,0,2.5,0
8109,-3.21172e-12,7.59334e-38,-1.57647e-06,-3.27738e-12,7.59287e-38,0,-1.13712e-13,0,0,-3.87842,0.12772,0.499352,0,0,0,0,0,0,0,247,-41,247,-41,363,-50,251,75,0,-0.375,1.43885,-1.5,nan,0,0,2,0,0,0,0,0,0,0,0,14875,0,0,0,0,0,0,0,0,0,2.5,0
8123,-3.21172e-12,7.59334e-38,-1.57647e-06,-3.27738e-12,7.59287e-38,0,-1.13712e-13,0,0,-3.87842,0.12772,0.499352,0,0,0,0,0,0,0,247,-41,247,-41,363,-50,251,75,0,-0.375,1.46084,-1.5,nan,0,0,2,0,0,0,0,0,0,0,0,14875,0,0,0,0,0,0,0,0,0,2.5,0
8140,-3.21172e-12,7.59334e-38,-1.57647e-06,-3.27738e-12,7.59287e-38,0,-1.13713e-13,0,0,-3.86088,0.13186,0.49923,0,0,0,0,0,0,0,247,-42,247,-42,364,-51,249,74,0,-0.375,1.48597,-1.5,nan,0,0,2,0,0,0,0,0,0,0,0,14750,0,0,0,0,0,0,0,0,0,2.5,0
8155,-3.21172e-12,7.59334e-38,-1.57647e-06,-3.27738e-12,7.59287e-38,0,-1.13714e-13,0,0,-3.86088,0.13186,0.49923,0,0,0,0,0,0,0,247,-42,247,-42,364,-51,249,74,0,-0.375,1.51111,-1.5,nan,0,0,2,0,0,0,0,0,0,0,0,14750,0,0,0,0,0,0,0,0,0,2.5,0
8205,-3.21172e-12,7.59334e-38,-1.57647e-06,-3.27738e-12,7.59287e-38,0,-1.13714e-13,0,0,-3.803,0.130476,0.494619,0,0,0,0,0,0,0,247,-46,247,-46,360,-56,249,74,0,-0.375,1.58808,-1.5,nan,0,0,2,0,0,0,0,0,0,0,0,15860,0,0,0,0,0,0,0,0,0,2.5,0
8221,-3.21172e-12,7.59334e-38,-1.57647e-06,-3.27738e-12,7.59287e-38,0,-1.13715e-13,0,0,-3.80186,0.137793,0.540719,0,0,0,0,0,0,0,244,-49,244,-49,360,-61,249,68,0,-0.375,1.61478,-1.5,nan,0,0,2,0,0,0,0,0,0,0,0,16125,0,0,0,0,0,0,0,0,0,2.5,0
8237,-3.21172e-12,7.59334e-38,-1.57647e-06,-3.27738e-12,7.59287e-38,0,-1.13715e-13,0,0,-3.80186,0.137793,0.540719,0,0,0,0,0,0,0,244,-49,244,-49,360,-61,249,68,0,-0.375,1.63991,-1.5,nan,0,0,2,0,0,0,0,0,0,0,0,16125,0,0,0,0,0,0,0,0,0,2.5,0
8253,-3.21172e-12,7.59334e-38,-1.57647e-06,-3.27738e-12,7.59287e-38,0,-1.13716e-13,0,0,-3.80186,0.137793,0.540719,0,0,0,0,0,0,0,244,-49,244,-49,360,-61,249,68,0,-0.375,1.66505,-1.5,nan,0,0,2,0,0,0,0,0,0,0,0,16125,0,0,0,0,0,0,0,0,0,2.5,0
8269,-3.21172e-12,7.59334e-38,-1.57647e-06,-3.27738e-12,7.59287e-38,0,-1.13716e-13,0,0,-3.80186,0.137793,0.540719,0,0,0,0,0,0,0,244,-49,244,-49,360,-61,249,68,0,-0.375,1.68861,-1.5,nan,0,0,2,0,0,0,0,0,0,0,0,16125,0,0,0,0,0,0,0,0,0,2.5,0
8284,-3.21172e-12,7.59334e-38,-1.57647e-06,-3.27738e-12,7.59287e-38,0,-1.13717e-13,0,0,-3.80186,0.137793,0.540719,0,0,0,0,0,0,0,244,-49,244,-49,360,-61,249,68,0,-0.375,1.71374,-1.5,nan,0,0,2,0,0,0,0,0,0,0,0,16125,0,0,0,0,0,0,0,0,0,2.5,0
8300,-3.21172e-12,7.59334e-38,-1.57647e-06,-3.27738e-12,7.59287e-38,0,-1.13717e-13,0,0,-3.80186,0.137793,0.540719,0,0,0,0,0,0,0,244,-49,244,-49,360,-61,249,68,0,-0.375,1.73887,-1.5,nan,0,0,2,0,0,0,0,0,0,0,0,16125,0,0,0,0,0,0,0,0,0,2.5,0
8317,-3.21172e-12,7.59334e-38,-1.57647e-06,-3.27738e-12,7.59287e-38,0,-1.13718e-13,0,0,-3.80186,0.137793,0.540719,0,0,0,0,0,0,0,244,-49,244,-49,360,-61,249,68,0,-0.375,1.76401,-1.5,nan,0,0,2,0,0,0,0,0,0,0,0,16125,0,0,0,0,0,0,0,0,0,2.5,0
8333,-3.21172e-12,7.59334e-38,-1.57647e-06,-3.27738e-12,7.59287e-38,0,-1.13718e-13,0,0,-3.80186,0.137793,0.540719,0,0,0,0,0,0,0,244,-49,244,-49,360,-61,249,68,0,-0.375,1.78914,-1.5,nan,0,0,2,0,0,0,0,0,0,0,0,16125,0,0,0,0,0,0,0,0,0,2.5,0
8349,-3.21172e-12,7.59334e-38,-1.57647e-06,-3.27738e-12,7.59287e-38,0,-1.13719e-13,0,0,-3.80186,0.137793,0.540719,0,0,0,0,0,0,0,244,-49,244,-49,360,-61,249,68,0,-0.375,1.81584,-1.5,nan,0,0,2,0,0,0,0,0,0,0,0,16125,0,0,0,0,0,0,0,0,0,2.5,0
8398,-3.21172e-12,7.59334e-38,-1.57647e-06,-3.27738e-12,7.59287e-38,0,-1.13719e-13,0,0,-3.80186,0.137793,0.540719,0,0,0,0,0,0,0,244,-49,244,-49,360,-61,249,68,0,-0.375,1.89281,-1.5,nan,0,0,2,0,0,0,0,0,0,0,0,16125,0,0,0,0,0,0,0,0,0,2.5,0
8414,-3.21172e-12,7.59334e-38,-1.57647e-06,-3.27738e-12,7.59287e-38,0,-1.1372e-13,0,0,-3.80186,0.137793,0.540719,0,0,0,0,0,0,0,244,-49,244,-49,360,-61,249,68,0,-0.375,1.91794,-1.5,nan,0,0,2,0,0,0,0,0,0,0,0,16125,0,0,0,0,0,0,0,0,0,2.5,0
8432,-3.21172e-12,7.59334e-38,-1.57647e-06,-3.27738e-12,7.59287e-38,0,-1.13721e-13,0,0,-3.80186,0.137793,0.540719,0,0,0,0,0,0,0,244,-49,244,-49,360,-61,249,68,0,-0.375,1.94622,-1.5,nan,0,0,2,0,0,0,0,0,0,0,0,16125,0,0,0,0,0,0,0,0,0,2.5,0
8447,-3.21172e-12,7.59334e-38,-1.57647e-06,-3.27738e-12,7.59287e-38,0,-1.13721e-13,0,0,-3.80186,0.137793,0.540719,0,0,0,0,0,0,0,244,-49,244,-49,360,-61,249,68,0,-0.375,1.96978,-1.5,nan,0,0,2,0,0,0,0,0,0,0,0,16125,0,0,0,0,0,0,0,0,0,2.5,0
8460,-3.21172e-12,7.59334e-38,-1.57647e-06,-3.27738e-12,7.59287e-38,0,-1.13722e-13,0,0,-3.80186,0.137793,0.540719,0,0,0,0,0,0,0,244,-49,244,-49,360,-61,249,68,0,-0.375,1.9902,-1.5,nan,0,0,2,0,0,0,0,0,0,0,0,16125,0,0,0,0,0,0,0,0,0,2.5,0
8476,-3.21172e-12,7.59334e-38,-1.57647e-06,-3.27738e-12,7.59287e-38,0,-1.13722e-13,0,0,-3.80186,0.137793,0.540719,0,0,0,0,0,0,0,244,-49,244,-49,360,-61,249,68,0,-0.375,2.01533,-1.5,nan,0,0,2,0,0,0,0,0,0,0,0,16125,0,0,0,0,0,0,0,0,0,2.5,0
8491,-3.21172e-12,7.59334e-38,-1.57647e-06,-3.27738e-12,7.59287e-38,0,-1.13723e-13,0,0,-3.80186,0.137793,0.540719,0,0,0,0,0,0,0,244,-49,244,-49,360,-61,249,68,0,-0.375,2.0389,-1.5,nan,0,0,2,0,0,0,0,0,0,0,0,16125,0,0,0,0,0,0,0,0,0,2.5,0
8507,-3.21172e-12,7.59334e-38,-1.57647e-06,-3.27738e-12,7.59287e-38,0,-1.13723e-13,0,0,-3.80186,0.137793,0.540719,0,0,0,0,0,0,0,244,-49,244,-49,360,-61,249,68,0,-0.375,2.06403,-1.5,nan,0,0,2,0,0,0,0,0,0,0,0,16125,0,0,0,0,0,0,0,0,0,2.5,0
8522,-3.21172e-12,7.59334e-38,-1.57647e-06,-3.27738e-12,7.59287e-38,0,-1.13724e-13,0,0,-3.80186,0.137793,0.540719,0,0,0,0,0,0,0,244,-49,244,-49,360,-61,249,68,0,-0.375,2.08759,-1.5,nan,0,0,2,0,0,0,0,0,0,0,0,16125,0,0,0,0,0,0,0,0,0,2.5,0
8538,-3.21172e-12,7.59334e-38,-1.57647e-06,-3.27738e-12,7.59287e-38,0,-1.13724e-13,0,0,-3.80186,0.137793,0.540719,0,0,0,0,0,0,0,244,-49,244,-49,360,-61,249,68,0,-0.375,2.11272,-1.5,nan,0,0,2,0,0,0,0,0,0,0,0,16125,0,0,0,0,0,0,0,0,0,2.5,0
8554,-3.21172e-12,7.59334e-38,-1.57647e-06,-3.27738e-12,7.59287e-38,0,-1.13725e-13,0,0,-3.80186,0.137793,0.540719,0,0,0,0,0,0,0,244,-49,244,-49,360,-61,249,68,0,-0.375,2.13629,-1.5,nan,0,0,2,0,0,0,0,0,0,0,0,16125,0,0,0,0,0,0,0,0,0,2.5,0
8569,-3.21172e-12,7.59334e-38,-1.57647e-06,-3.27738e-12,7.59287e-38,0,-1.13725e-13,0,0,-3.80186,0.137793,0.540719,0,0,0,0,0,0,0,244,-49,244,-49,360,-61,249,68,0,-0.375,2.16142,-1.5,nan,0,0,2,0,0,0,0,0,0,0,0,16125,0,0,0,0,0,0,0,0,0,2.5,0
8585,-3.21172e-12,7.59334e-38,-1.57647e-06,-3.27738e-12,7.59287e-38,0,-1.13726e-13,0,0,-3.80186,0.137793,0.540719,0,0,0,0,0,0,0,244,-49,244,-49,360,-61,249,68,0,-0.375,2.18655,-1.5,nan,0,0,2,0,0,0,0,0,0,0,0,16125,0,0,0,0,0,0,0,0,0,2.5,0
8601,-3.21172e-12,7.59334e-38,-1.57647e-06,-3.27738e-12,7.59287e-38,0,-1.13727e-13,0,0,-3.80186,0.137793,0.540719,0,0,0,0,0,0,0,244,-49,244,-49,360,-61,249,68,0,-0.375,2.21169,-1.5,nan,0,0,2,0,0,0,0,0,0,0,0,16125,0,0,0,0,0,0,0,0,0,2.5,0
8616,-3.21172e-12,7.59334e-38,-1.57647e-06,-3.27738e-12,7.59287e-38,0,-1.13727e-13,0,0,-3.80186,0.137793,0.540719,0,0,0,0,0,0,0,244,-49,244,-49,360,-61,249,68,0,-0.375,2.23525,-1.5,nan,0,0,2,0,0,0,0,0,0,0,0,16125,0,0,0,0,0,0,0,0,0,2.5,0
8632,-3.21172e-12,7.59334e-38,-1.57647e-06,-3.27738e-12,7.59287e-38,0,-1.13728e-13,0,0,-3.80186,0.137793,0.540719,0,0,0,0,0,0,0,244,-49,244,-49,360,-61,249,68,0,-0.375,2.26038,-1.5,nan,0,0,2,0,0,0,0,0,0,0,0,16125,0,0,0,0,0,0,0,0,0,2.5,0
8648,-3.21172e-12,7.59334e-38,-1.57647e-06,-3.27738e-12,7.59287e-38,0,-1.13728e-13,0,0,-3.80186,0.137793,0.540719,0,0,0,0,0,0,0,244,-49,244,-49,360,-61,249,68,0,-0.375,2.28394,-1.5,nan,0,0,2,0,0,0,0,0,0,0,0,16125,0,0,0,0,0,0,0,0,0,2.5,0
8663,-3.21172e-12,7.59334e-38,-1.57647e-06,-3.27738e-12,7.59287e-38,0,-1.13729e-13,0,0,-3.80186,0.137793,0.540719,0,0,0,0,0,0,0,244,-49,244,-49,360,-61,249,68,0,-0.375,2.30908,-1.5,nan,0,0,2,0,0,0,0,0,0,0,0,16125,0,0,0,0,0,0,0,0,0,2.5,0
8679,-3.21172e-12,7.59334e-38,-1.57647e-06,-3.27738e-12,7.59287e-38,0,-1.13729e-13,0,0,-3.80186,0.137793,0.540719,0,0,0,0,0,0,0,244,-49,244,-49,360,-61,249,68,0,-0.375,2.33421,-1.5,nan,0,0,2,0,0,0,0,0,0,0,0,16125,0,0,0,0,0,0,0,0,0,2.5,0
8694,-3.21172e-12,7.59334e-38,-1.57647e-06,-3.27738e-12,7.59287e-38,0,-1.1373e-13,0,0,-3.80186,0.137793,0.540719,0,0,0,0,0,0,0,244,-49,244,-49,360,-61,249,68,0,-0.375,2.35777,-1.5,nan,0,0,2,0,0,0,0,0,0,0,0,16125,0,0,0,0,0,0,0,0,0,2.5,0
8708,-3.21172e-12,7.59334e-38,-1.57647e-06,-3.27738e-12,7.59287e-38,0,-1.1373e-13,0,0,-3.80186,0.137793,0.540719,0,0,0,0,0,0,0,244,-49,244,-49,360,-61,249,68,0,-0.375,2.37948,-1.5,nan,0,0,2,0,0,0,0,0,0,0,0,16125,0,0,0,0,0,0,0,0,0,2.5,0
8721,-3.21172e-12,7.59334e-38,-1.57647e-06,-3.27738e-12,7.59287e-38,0,-1.13731e-13,0,0,-3.80186,0.137793,0.540719,0,0,0,0,0,0,0,244,-49,244,-49,360,-61,249,68,0,-0.375,2.3991,-1.5,nan,0,0,2,0,0,0,0,0,0,0,0,16125,0,0,0,0,0,0,0,0,0,2.5,0
8737,-3.21172e-12,7.59334e-38,-1.57647e-06,-3.27738e-12,7.59287e-38,0,-1.13731e-13,0,0,-3.80186,0.137793,0.540719,0,0,0,0,0,0,0,244,-49,244,-49,360,-61,249,68,0,-0.375,2.4226,-1.5,nan,0,0,2,0,0,0,0,0,0,0,0,16125,0,0,0,0,0,0,0,0,0,2.5,0
8753,-3.21172e-12,7.59334e-38,-1.57647e-06,-3.27738e-12,7.59287e-38,0,-1.13732e-13,0,0,-3.80186,0.137793,0.540719,0,0,0,0,0,0,0,244,-49,244,-49,360,-61,249,68,0,-0.375,2.44394,-1.5,nan,0,0,2,0,0,0,0,0,0,0,0,16125,0,0,0,0,0,0,0,0,0,2.5,0
8768,-3.21172e-12,7.59334e-38,-1.57647e-06,-3.27738e-12,7.59287e-38,0,-1.13732e-13,0,0,-3.80186,0.137793,0.540719,0,0,0,0,0,0,0,244,-49,244,-49,360,-61,249,68,0,-0.375,2.46601,-1.5,nan,0,0,2,0,0,0,0,0,0,0,0,16125,0,0,0,0,0,0,0,0,0,2.5,0
8784,-3.21172e-12,7.59334e-38,-1.57647e-06,-3.27738e-12,7.59287e-38,0,-1.13733e-13,0,0,-3.80186,0.137793,0.540719,0,0,0,0,0,0,0,244,-49,244,-49,360,-61,249,68,0,-0.375,2.48738,-1.5,nan,0,0,2,0,0,0,0,0,0,0,0,16125,0,0,0,0,0,0,0,0,0,2.5,0
8800,-3.21172e-12,7.59334e-38,-1.57647e-06,-3.27738e-12,7.59287e-38,0,-1.13734e-13,0,0,-3.80186,0.137793,0.540719,0,0,0,0,0,0,0,244,-49,244,-49,360,-61,249,68,0,-0.375,2.50809,-1.5,nan,0,0,2,0,0,0,0,0,0,0,0,16125,0,0,0,0,0,0,0,0,0,2.5,0
8816,-3.21172e-12,7.59334e-38,-1.57647e-06,-3.27738e-12,7.59287e-38,0,-1.13734e-13,0,0,-3.80186,0.137793,0.540719,0,0,0,0,0,0,0,244,-49,244,-49,360,-61,249,68,0,-0.375,2.52814,-1.5,nan,0,0,2,0,0,0,0,0,0,0,0,16125,0,0,0,0,0,0,0,0,0,2.5,0
8831,-3.21172e-12,7.59334e-38,-1.57647e-06,-3.27738e-12,7.59287e-38,0,-1.13735e-13,0,0,-3.80186,0.137793,0.540719,0,0,0,0,0,0,0,244,-49,244,-49,360,-61,249,68,0,-0.375,2.54634,-1.5,nan,0,0,2,0,0,0,0,0,0,0,0,16125,0,0,0,0,0,0,0,0,0,2.5,0
8847,-3.21172e-12,7.59334e-38,-1.57647e-06,-3.27738e-12,7.59287e-38,0,-1.13735e-13,0,0,-3.80186,0.137793,0.540719,0,0,0,0,0,0,0,244,-49,244,-49,360,-61,249,68,0,-0.375,2.56518,-1.5,nan,0,0,2,0,0,0,0,0,0,0,0,16125,0,0,0,0,0,0,0,0,0,2.5,0
8863,-3.21172e-12,7.59334e-38,-1.57647e-06,-3.27738e-12,7.59287e-38,0,-1.13736e-13,0,0,-3.80186,0.137793,0.540719,0,0,0,0,0,0,0,244,-49,244,-49,360,-61,249,68,0,-0.375,2.58341,-1.5,nan,0,0,2,0,0,0,0,0,0,0,0,16125,0,0,0,0,0,0,0,0,0,2.5,0
8879,-3.21172e-12,7.59334e-38,-1.57647e-06,-3.27738e-12,7.59287e-38,0,-1.13736e-13,0,0,-3.80186,0.137793,0.540719,0,0,0,0,0,0,0,244,-49,244,-49,360,-61,249,68,0,-0.375,2.60107,-1.5,nan,0,0,2,0,0,0,0,0,0,0,0,16125,0,0,0,0,0,0,0,0,0,2.5,0
8894,-3.21172e-12,7.59334e-38,-1.57647e-06,-3.27738e-12,7.59287e-38,0,-1.13737e-13,0,0,-3.80186,0.137793,0.540719,0,0,0,0,0,0,0,244,-49,244,-49,360,-61,249,68,0,-0.375,2.61711,-1.5,nan,0,0,2,0,0,0,0,0,0,0,0,16125,0,0,0,0,0,0,0,0,0,2.5,0
8910,-3.21172e-12,7.59334e-38,-1.57647e-06,-3.27738e-12,7.59287e-38,0,-1.13737e-13,0,0,-3.80186,0.137793,0.540719,0,0,0,0,0,0,0,244,-49,244,-49,360,-61,249,68,0,-0.375,2.63371,-1.5,nan,0,0,2,0,0,0,0,0,0,0,0,16125,0,0,0,0,0,0,0,0,0,2.5,0
8926,-3.21172e-12,7.59334e-38,-1.57647e-06,-3.27738e-12,7.59287e-38,0,-1.13738e-13,0,0,-3.80186,0.137793,0.540719,0,0,0,0,0,0,0,244,-49,244,-49,360,-61,249,68,0,-0.375,2.64978,-1.5,nan,0,0,2,0,0,0,0,0,0,0,0,16125,0,0,0,0,0,0,0,0,0,2.5,0
8942,-3.21172e-12,7.59334e-38,-1.57647e-06,-3.27738e-12,7.59287e-38,0,-1.13738e-13,0,0,-3.80186,0.137793,0.540719,0,0,0,0,0,0,0,244,-49,244,-49,360,-61,249,68,0,-0.375,2.66437,-1.5,nan,0,0,2,0,0,0,0,0,0,0,0,16125,0,0,0,0,0,0,0,0,0,2.5,0
8957,-3.21172e-12,7.59334e-38,-1.57647e-06,-3.27738e-12,7.59287e-38,0,-1.13739e-13,0,0,-3.80186,0.137793,0.540719,0,0,0,0,0,0,0,244,-49,244,-49,360,-61,249,68,0,-0.375,2.67947,-1.5,nan,0,0,2,0,0,0,0,0,0,0,0,16125,0,0,0,0,0,0,0,0,0,2.5,0
8971,-3.21172e-12,7.59334e-38,-1.57647e-06,-3.27738e-12,7.59287e-38,0,-1.1374e-13,0,0,-3.80186,0.137793,0.540719,0,0,0,0,0,0,0,244,-49,244,-49,360,-61,249,68,0,-0.375,2.69227,-1.5,nan,0,0,2,0,0,0,0,0,0,0,0,16125,0,0,0,0,0,0,0,0,0,2.5,0
8984,-3.21172e-12,7.59334e-38,-1.57647e-06,-3.27738e-12,7.59287e-38,0,-1.1374e-13,0,0,-3.80186,0.137793,0.540719,0,0,0,0,0,0,0,244,-49,244,-49,360,-61,249,68,0,-0.375,2.70384,-1.5,nan,0,0,2,0,0,0,0,0,0,0,0,16125,0,0,0,0,0,0,0,0,0,2.5,0
8999,-3.21172e-12,7.59334e-38,-1.57647e-06,-3.27738e-12,7.59287e-38,0,-1.13741e-13,0,0,-3.80186,0.137793,0.540719,0,0,0,0,0,0,0,244,-49,244,-49,360,-61,249,68,0,-0.375,2.71597,-1.5,nan,0,0,2,0,0,0,0,0,0,0,0,16125,0,0,0,0,0,0,0,0,0,2.5,0
9014,-3.21172e-12,7.59334e-38,-1.57647e-06,-3.27738e-12,7.59287e-38,0,-1.13741e-13,0,0,-3.80186,0.137793,0.540719,0,0,0,0,0,0,0,244,-49,244,-49,360,-61,249,68,0,-0.375,2.72944,-1.5,nan,0,0,2,0,0,0,0,0,0,0,0,16125,0,0,0,0,0,0,0,0,0,2.5,0
9030,-3.21172e-12,7.59334e-38,-1.57647e-06,-3.27738e-12,7.59287e-38,0,-1.13742e-13,0,0,-3.80186,0.137793,0.540719,0,0,0,0,0,0,0,244,-49,244,-49,360,-61,249,68,0,-0.375,2.74248,-1.5,nan,0,0,2,0,0,0,0,0,0,0,0,16125,0,0,0,0,0,0,0,0,0,2.5,0
9067,-3.21172e-12,7.59334e-38,-1.57647e-06,-3.27738e-12,7.59287e-38,0,-1.13742e-13,0,0,-3.80186,0.137793,0.540719,0,0,0,0,0,0,0,244,-49,244,-49,360,-61,249,68,0,-0.375,2.77156,-1.5,nan,0,0,2,0,0,0,0,0,0,0,0,16125,0,0,0,0,0,0,0,0,0,2.5,0
9083,-3.21172e-12,7.59334e-38,-1.57647e-06,-3.27738e-12,7.59287e-38,0,-1.13743e-13,0,0,-3.80186,0.137793,0.540719,0,0,0,0,0,0,0,244,-49,244,-49,360,-61,249,68,0,-0.375,2.78327,-1.5,nan,0,0,2,0,0,0,0,0,0,0,0,16125,0,0,0,0,0,0,0,0,0,2.5,0
9098,-3.21172e-12,7.59334e-38,-1.57647e-06,-3.27738e-12,7.59287e-38,0,-1.13743e-13,0,0,-3.80186,0.137793,0.540719,0,0,0,0,0,0,0,244,-49,244,-49,360,-61,249,68,0,-0.375,2.7939,-1.5,nan,0,0,2,0,0,0,0,0,0,0,0,16125,0,0,0,0,0,0,0,0,0,2.5,0
9114,-3.21172e-12,7.59334e-38,-1.57647e-06,-3.27738e-12,7.59287e-38,0,-1.13744e-13,0,0,-3.80186,0.137793,0.540719,0,0,0,0,0,0,0,244,-49,244,-49,360,-61,249,68,0,-0.375,2.80491,-1.5,nan,0,0,2,0,0,0,0,0,0,0,0,16125,0,0,0,0,0,0,0,0,0,2.5,0
9130,-3.21172e-12,7.59334e-38,-1.57647e-06,-3.27738e-12,7.59287e-38,0,-1.13744e-13,0,0,-3.80186,0.137793,0.540719,0,0,0,0,0,0,0,244,-49,244,-49,360,-61,249,68,0,-0.375,2.8149,-1.5,nan,0,0,2,0,0,0,0,0,0,0,0,16125,0,0,0,0,0,0,0,0,0,2.5,0
9145,-3.21172e-12,7.59334e-38,-1.57647e-06,-3.27738e-12,7.59287e-38,0,-1.13745e-13,0,0,-3.80186,0.137793,0.540719,0,0,0,0,0,0,0,244,-49,244,-49,360,-61,249,68,0,-0.375,2.82524,-1.5,nan,0,0,2,0,0,0,0,0,0,0,0,16125,0,0,0,0,0,0,0,0,0,2.5,0
9161,-3.21172e-12,7.59334e-38,-1.57647e-06,-3.27738e-12,7.59287e-38,0,-1.13745e-13,0,0,-3.80186,0.137793,0.540719,0,0,0,0,0,0,0,244,-49,244,-49,360,-61,249,68,0,-0.375,2.83525,-1.5,nan,0,0,2,0,0,0,0,0,0,0,0,16125,0,0,0,0,0,0,0,0,0,2.5,0
9177,-3.21172e-12,7.59334e-38,-1.57647e-06,-3.27738e-12,7.59287e-38,0,-1.13746e-13,0,0,-3.80186,0.137793,0.540719,0,0,0,0,0,0,0,244,-49,244,-49,360,-61,249,68,0,-0.375,2.84494,-1.5,nan,0,0,2,0,0,0,0,0,0,0,0,16125,0,0,0,0,0,0,0,0,0,2.5,0
9192,-3.21172e-12,7.59334e-38,-1.57647e-06,-3.27738e-12,7.59287e-38,0,-1.13747e-13,0,0,-3.80186,0.137793,0.540719,0,0,0,0,0,0,0,244,-49,244,-49,360,-61,249,68,0,-0.375,2.85374,-1.5,nan,0,0,2,0,0,0,0,0,0,0,0,16125,0,0,0,0,0,0,0,0,0,2.5,0
9208,-3.21172e-12,7.59334e-38,-1.57647e-06,-3.27738e-12,7.59287e-38,0,-1.13747e-13,0,0,-3.80186,0.137793,0.540719,0,0,0,0,0,0,0,244,-49,244,-49,360,-61,249,68,0,-0.375,2.86285,-1.5,nan,0,0,2,0,0,0,0,0,0,0,0,16125,0,0,0,0,0,0,0,0,0,2.5,0
9225,-3.21172e-12,7.59334e-38,-1.57647e-06,-3.27738e-12,7.59287e-38,0,-1.13748e-13,0,0,-3.80186,0.137793,0.540719,0,0,0,0,0,0,0,244,-49,244,-49,360,-61,249,68,0,-0.375,2.87221,-1.5,nan,0,0,2,0,0,0,0,0,0,0,0,16125,0,0,0,0,0,0,0,0,0,2.5,0
9241,-3.21172e-12,7.59334e-38,-1.57647e-06,-3.27738e-12,7.59287e-38,0,-1.13748e-13,0,0,-3.80186,0.137793,0.540719,0,0,0,0,0,0,0,244,-49,244,-49,360,-61,249,68,0,-0.375,2.88073,-1.5,nan,0,0,2,0,0,0,0,0,0,0,0,16125,0,0,0,0,0,0,0,0,0,2.5,0
9256,-3.21172e-12,7.59334e-38,-1.57647e-06,-3.27738e-12,7.59287e-38,0,-1.13749e-13,0,0,-3.80186,0.137793,0.540719,0,0,0,0,0,0,0,244,-49,244,-49,360,-61,249,68,0,-0.375,2.88847,-1.5,nan,0,0,2,0,0,0,0,0,0,0,0,16125,0,0,0,0,0,0,0,0,0,2.5,0
9270,-3.21172e-12,7.59334e-38,-1.57647e-06,-3.27738e-12,7.59287e-38,0,-1.13749e-13,0,0,-3.80186,0.137793,0.540719,0,0,0,0,0,0,0,244,-49,244,-49,360,-61,249,68,0,-0.375,2.89549,-1.5,nan,0,0,2,0,0,0,0,0,0,0,0,16125,0,0,0,0,0,0,0,0,0,2.5,0
9283,-3.21172e-12,7.59334e-38,-1.57647e-06,-3.27738e-12,7.59287e-38,0,-1.1375e-13,0,0,-3.80186,0.137793,0.540719,0,0,0,0,0,0,0,244,-49,244,-49,360,-61,249,68,0,-0.375,2.90183,-1.5,nan,0,0,2,0,0,0,0,0,0,0,0,16125,0,0,0,0,0,0,0,0,0,2.5,0
9299,-3.21172e-12,7.59334e-38,-1.57647e-06,-3.27738e-12,7.59287e-38,0,-1.1375e-13,0,0,-3.80186,0.137793,0.540719,0,0,0,0,0,0,0,244,-49,244,-49,360,-61,249,68,0,-0.375,2.90941,-1.5,nan,0,0,2,0,0,0,0,0,0,0,0,16125,0,0,0,0,0,0,0,0,0,2.5,0
9315,-3.21172e-12,7.59334e-38,-1.57647e-06,-3.27738e-12,7.59287e-38,0,-1.13751e-13,0,0,-3.80186,0.137793,0.540719,0,0,0,0,0,0,0,244,-49,244,-49,360,-61,249,68,0,-0.375,2.91675,-1.5,nan,0,0,2,0,0,0,0,0,0,0,0,16125,0,0,0,0,0,0,0,0,0,2.5,0
9330,-3.21172e-12,7.59334e-38,-1.57647e-06,-3.27738e-12,7.59287e-38,0,-1.13751e-13,0,0,-3.80186,0.137793,0.540719,0,0,0,0,0,0,0,244,-49,244,-49,360,-61,249,68,0,-0.375,2.92343,-1.5,nan,0,0,2,0,0,0,0,0,0,0,0,16125,0,0,0,0,0,0,0,0,0,2.5,0
9346,-3.21172e-12,7.59334e-38,-1.57647e-06,-3.27738e-12,7.59287e-38,0,-1.13752e-13,0,0,-3.80186,0.137793,0.540719,0,0,0,0,0,0,0,244,-49,244,-49,360,-61,249,68,0,-0.375,2.93033,-1.5,nan,0,0,2,0,0,0,0,0,0,0,0,16125,0,0,0,0,0,0,0,0,0,2.5,0
9361,-3.21172e-12,7.59334e-38,-1.57647e-06,-3.27738e-12,7.59287e-38,0,-1.13753e-13,0,0,-3.80186,0.137793,0.540719,0,0,0,0,0,0,0,244,-49,244,-49,360,-61,249,68,0,-0.375,2.9366,-1.5,nan,0,0,2,0,0,0,0,0,0,0,0,16125,0,0,0,0,0,0,0,0,0,2.5,0
9378,-3.21172e-12,7.59334e-38,-1.57647e-06,-3.27738e-12,7.59287e-38,0,-1.13753e-13,0,0,-3.80186,0.137793,0.540719,0,0,0,0,0,0,0,244,-49,244,-49,360,-61,249,68,0,-0.375,2.94309,-1.5,nan,0,0,2,0,0,0,0,0,0,0,0,16125,0,0,0,0,0,0,0,0,0,2.5,0
9393,-3.21172e-12,7.59334e-38,-1.57647e-06,-3.27738e-12,7.59287e-38,0,-1.13754e-13,0,0,-3.80186,0.137793,0.540719,0,0,0,0,0,0,0,244,-49,244,-49,360,-61,249,68,0,-0.375,2.94937,-1.5,nan,0,0,2,0,0,0,0,0,0,0,0,16125,0,0,0,0,0,0,0,0,0,2.5,0
9409,-3.21172e-12,7.59334e-38,-1.57647e-06,-3.27738e-12,7.59287e-38,0,-1.13754e-13,0,0,-3.80186,0.137793,0.540719,0,0,0,0,0,0,0,244,-49,244,-49,360,-61,249,68,0,-0.375,2.95545,-1.5,nan,0,0,2,0,0,0,0,0,0,0,0,16125,0,0,0,0,0,0,0,0,0,2.5,0
9426,-3.21172e-12,7.59334e-38,-1.57647e-06,-3.27738e-12,7.59287e-38,0,-1.13755e-13,0,0,-3.80186,0.137793,0.540719,0,0,0,0,0,0,0,244,-49,244,-49,360,-61,249,68,0,-0.375,2.96171,-1.5,nan,0,0,2,0,0,0,0,0,0,0,0,16125,0,0,0,0,0,0,0,0,0,2.5,0
9442,-3.21172e-12,7.59334e-38,-1.57647e-06,-3.27738e-12,7.59287e-38,0,-1.13755e-13,0,0,-3.80186,0.137793,0.540719,0,0,0,0,0,0,0,244,-49,244,-49,360,-61,249,68,0,-0.375,2.9674,-1.5,nan,0,0,2,0,0,0,0,0,0,0,0,16125,0,0,0,0,0,0,0,0,0,2.5,0
9459,-3.21172e-12,7.59334e-38,-1.57647e-06,-3.27738e-12,7.59287e-38,0,-1.13756e-13,0,0,-3.80186,0.137793,0.540719,0,0,0,0,0,0,0,244,-49,244,-49,360,-61,249,68,0,-0.375,2.97326,-1.5,nan,0,0,2,0,0,0,0,0,0,0,0,16125,0,0,0,0,0,0,0,0,0,2.5,0
9475,-3.21172e-12,7.59334e-38,-1.57647e-06,-3.27738e-12,7.59287e-38,0,-1.13756e-13,0,0,-3.80186,0.137793,0.540719,0,0,0,0,0,0,0,244,-49,244,-49,360,-61,249,68,0,-0.375,2.97858,-1.5,nan,0,0,2,0,0,0,0,0,0,0,0,16125,0,0,0,0,0,0,0,0,0,2.5,0
9490,-3.21172e-12,7.59334e-38,-1.57647e-06,-3.27738e-12,7.59287e-38,0,-1.13757e-13,0,0,-3.80186,0.137793,0.540719,0,0,0,0,0,0,0,244,-49,244,-49,360,-61,249,68,0,-0.375,2.98342,-1.5,nan,0,0,2,0,0,0,0,0,0,0,0,16125,0,0,0,0,0,0,0,0,0,2.5,0
9506,-3.21172e-12,7.59334e-38,-1.57647e-06,-3.27738e-12,7.59287e-38,0,-1.13757e-13,0,0,-3.80186,0.137793,0.540719,0,0,0,0,0,0,0,244,-49,244,-49,360,-61,249,68,0,-0.375,2.98842,-1.5,nan,0,0,2,0,0,0,0,0,0,0,0,16125,0,0,0,0,0,0,0,0,0,2.5,0
9524,-3.21172e-12,7.59334e-38,-1.57647e-06,-3.27738e-12,7.59287e-38,0,-1.13758e-13,0,0,-3.80186,0.137793,0.540719,0,0,0,0,0,0,0,244,-49,244,-49,360,-61,249,68,0,-0.375,2.99388,-1.5,nan,0,0,2,0,0,0,0,0,0,0,0,16125,0,0,0,0,0,0,0,0,0,2.5,0
9539,-3.21172e-12,7.59334e-38,-1.57647e-06,-3.27738e-12,7.59287e-38,0,-1.13759e-13,0,0,-3.80186,0.137793,0.540719,0,0,0,0,0,0,0,244,-49,244,-49,360,-61,249,68,0,-0.375,2.99826,-1.5,nan,0,0,2,0,0,0,0,0,0,0,0,16125,0,0,0,0,0,0,0,0,0,2.5,0
9552,-3.21172e-12,7.59334e-38,-1.57647e-06,-3.27738e-12,7.59287e-38,0,-1.13759e-13,0,0,-3.80186,0.137793,0.540719,0,0,0,0,0,0,0,244,-49,244,-49,360,-61,249,68,0,-0.375,3.00195,-1.5,nan,0,0,2,0,0,0,0,0,0,0,0,16125,0,0,0,0,0,0,0,0,0,2.5,0
9568,-3.21172e-12,7.59334e-38,-1.57647e-06,-3.27738e-12,7.59287e-38,0,-1.1376e-13,0,0,-3.80186,0.137793,0.540719,0,0,0,0,0,0,0,244,-49,244,-49,360,-61,249,68,0,-0.375,3.00609,-1.5,nan,0,0,2,0,0,0,0,0,0,0,0,16125,0,0,0,0,0,0,0,0,0,2.5,0
9583,-3.21172e-12,7.59334e-38,-1.57647e-06,-3.27738e-12,7.59287e-38,0,-1.1376e-13,0,0,-3.80186,0.137793,0.540719,0,0,0,0,0,0,0,244,-49,244,-49,360,-61,249,68,0,-0.375,3.01011,-1.5,nan,0,0,2,0,0,0,0,0,0,0,0,16125,0,0,0,0,0,0,0,0,0,2.5,0
9598,-3.21172e-12,7.59334e-38,-1.57647e-06,-3.27738e-12,7.59287e-38,0,-1.13761e-13,0,0,-3.80186,0.137793,0.540719,0,0,0,0,0,0,0,244,-49,244,-49,360,-61,249,68,0,-0.375,3.01402,-1.5,nan,0,0,2,0,0,0,0,0,0,0,0,16125,0,0,0,0,0,0,0,0,0,2.5,0
9613,-3.21172e-12,7.59334e-38,-1.57647e-06,-3.27738e-12,7.59287e-38,0,-1.13761e-13,0,0,-3.80186,0.137793,0.540719,0,0,0,0,0,0,0,244,-49,244,-49,360,-61,249,68,0,-0.375,3.0178,-1.5,nan,0,0,2,0,0,0,0,0,0,0,0,16125,0,0,0,0,0,0,0,0,0,2.5,0
9629,-3.21172e-12,7.59334e-38,-1.57647e-06,-3.27738e-12,7.59287e-38,0,-1.13762e-13,0,0,-3.80186,0.137793,0.540719,0,0,0,0,0,0,0,244,-49,244,-49,360,-61,249,68,0,-0.375,3.02172,-1.5,nan,0,0,2,0,0,0,0,0,0,0,0,16125,0,0,0,0,0,0,0,0,0,2.5,0
9645,-3.21172e-12,7.59334e-38,-1.57647e-06,-3.27738e-12,7.59287e-38,0,-1.13762e-13,0,0,-3.80186,0.137793,0.540719,0,0,0,0,0,0,0,244,-49,244,-49,360,-61,249,68,0,-0.375,3.02528,-1.5,nan,0,0,2,0,0,0,0,0,0,0,0,16125,0,0,0,0,0,0,0,0,0,2.5,0
9661,-3.21172e-12,7.59334e-38,-1.57647e-06,-3.27738e-12,7.59287e-38,0,-1.13763e-13,0,0,-3.80186,0.137793,0.540719,0,0,0,0,0,0,0,244,-49,244,-49,360,-61,249,68,0,-0.375,3.02918,-1.5,nan,0,0,2,0,0,0,0,0,0,0,0,16125,0,0,0,0,0,0,0,0,0,2.5,0
9676,-3.21172e-12,7.59334e-38,-1.57647e-06,-3.27738e-12,7.59287e-38,0,-1.13763e-13,0,0,-3.80186,0.137793,0.540719,0,0,0,0,0,0,0,244,-49,244,-49,360,-61,249,68,0,-0.375,3.03252,-1.5,nan,0,0,2,0,0,0,0,0,0,0,0,16125,0,0,0,0,0,0,0,0,0,2.5,0
9692,-3.21172e-12,7.59334e-38,-1.57647e-06,-3.27738e-12,7.59287e-38,0,-1.13764e-13,0,0,-3.80186,0.137793,0.540719,0,0,0,0,0,0,0,244,-49,244,-49,360,-61,249,68,0,-0.375,3.03576,-1.5,nan,0,0,2,0,0,0,0,0,0,0,0,16125,0,0,0,0,0,0,0,0,0,2.5,0
9707,-3.21172e-12,7.59334e-38,-1.57647e-06,-3.27738e-12,7.59287e-38,0,-1.13764e-13,0,0,-3.80186,0.137793,0.540719,0,0,0,0,0,0,0,244,-49,244,-49,360,-61,249,68,0,-0.375,3.0389,-1.5,nan,0,0,2,0,0,0,0,0,0,0,0,16125,0,0,0,0,0,0,0,0,0,2.5,0
9722,-3.21172e-12,7.59334e-38,-1.57647e-06,-3.27738e-12,7.59287e-38,0,-1.13765e-13,0,0,-3.80186,0.137793,0.540719,0,0,0,0,0,0,0,244,-49,244,-49,360,-61,249,68,0,-0.375,3.04195,-1.5,nan,0,0,2,0,0,0,0,0,0,0,0,16125,0,0,0,0,0,0,0,0,0,2.5,0
9738,-3.21172e-12,7.59334e-38,-1.57647e-06,-3.27738e-12,7.59287e-38,0,-1.13766e-13,0,0,-3.80186,0.137793,0.540719,0,0,0,0,0,0,0,244,-49,244,-49,360,-61,249,68,0,-0.375,3.0449,-1.5,nan,0,0,2,0,0,0,0,0,0,0,0,16125,0,0,0,0,0,0,0,0,0,2.5,0
9753,-3.21172e-12,7.59334e-38,-1.57647e-06,-3.27738e-12,7.59287e-38,0,-1.13766e-13,0,0,-3.80186,0.137793,0.540719,0,0,0,0,0,0,0,244,-49,244,-49,360,-61,249,68,0,-0.375,3.04796,-1.5,nan,0,0,2,0,0,0,0,0,0,0,0,16125,0,0,0,0,0,0,0,0,0,2.5,0
9768,-3.21172e-12,7.59334e-38,-1.57647e-06,-3.27738e-12,7.59287e-38,0,-1.13767e-13,0,0,-3.80186,0.137793,0.540719,0,0,0,0,0,0,0,244,-49,244,-49,360,-61,249,68,0,-0.375,3.05074,-1.5,nan,0,0,2,0,0,0,0,0,0,0,0,16125,0,0,0,0,0,0,0,0,0,2.5,0
9784,-3.21172e-12,7.59334e-38,-1.57647e-06,-3.27738e-12,7.59287e-38,0,-1.13767e-13,0,0,-3.80186,0.137793,0.540719,0,0,0,0,0,0,0,244,-49,244,-49,360,-61,249,68,0,-0.375,3.05362,-1.5,nan,0,0,2,0,0,0,0,0,0,0,0,16125,0,0,0,0,0,0,0,0,0,2.5,0
9797,-3.21172e-12,7.59334e-38,-1.57647e-06,-3.27738e-12,7.59287e-38,0,-1.13768e-13,0,0,-3.80186,0.137793,0.540719,0,0,0,0,0,0,0,244,-49,244,-49,360,-61,249,68,0,-0.375,3.05571,-1.5,nan,0,0,2,0,0,0,0,0,0,0,0,16125,0,0,0,0,0,0,0,0,0,2.5,0
9811,-3.21172e-12,7.59334e-38,-1.57647e-06,-3.27738e-12,7.59287e-38,0,-1.13768e-13,0,0,-3.80186,0.137793,0.540719,0,0,0,0,0,0,0,244,-49,244,-49,360,-61,249,68,0,-0.375,3.05792,-1.5,nan,0,0,2,0,0,0,0,0,0,0,0,16125,0,0,0,0,0,0,0,0,0,2.5,0
9826,-3.21172e-12,7.59334e-38,-1.57647e-06,-3.27738e-12,7.59287e-38,0,-1.13769e-13,0,0,-3.80186,0.137793,0.540719,0,0,0,0,0,0,0,244,-49,244,-49,360,-61,249,68,0,-0.375,3.0604,-1.5,nan,0,0,2,0,0,0,0,0,0,0,0,16125,0,0,0,0,0,0,0,0,0,2.5,0
9842,-3.21172e-12,7.59334e-38,-1.57647e-06,-3.27738e-12,7.59287e-38,0,-1.13769e-13,0,0,-3.80186,0.137793,0.540719,0,0,0,0,0,0,0,244,-49,244,-49,360,-61,249,68,0,-0.375,3.06297,-1.5,nan,0,0,2,0,0,0,0,0,0,0,0,16125,0,0,0,0,0,0,0,0,0,2.5,0
9859,-3.21172e-12,7.59334e-38,-1.57647e-06,-3.27738e-12,7.59287e-38,0,-1.1377e-13,0,0,-3.80186,0.137793,0.540719,0,0,0,0,0,0,0,244,-49,244,-49,360,-61,249,68,0,-0.375,3.06561,-1.5,nan,0,0,2,0,0,0,0,0,0,0,0,16125,0,0,0,0,0,0,0,0,0,2.5,0
9875,-3.21172e-12,7.59334e-38,-1.57647e-06,-3.27738e-12,7.59287e-38,0,-1.1377e-13,0,0,-3.80186,0.137793,0.540719,0,0,0,0,0,0,0,244,-49,244,-49,360,-61,249,68,0,-0.375,3.06787,-1.5,nan,0,0,2,0,0,0,0,0,0,0,0,16125,0,0,0,0,0,0,0,0,0,2.5,0
9890,-3.21172e-12,7.59334e-38,-1.57647e-06,-3.27738e-12,7.59287e-38,0,-1.13771e-13,0,0,-3.80186,0.137793,0.540719,0,0,0,0,0,0,0,244,-49,244,-49,360,-61,249,68,0,-0.375,3.0702,-1.5,nan,0,0,2,0,0,0,0,0,0,0,0,16125,0,0,0,0,0,0,0,0,0,2.5,0
9906,-3.21172e-12,7.59334e-38,-1.57647e-06,-3.27738e-12,7.59287e-38,0,-1.13772e-13,0,0,-3.80186,0.137793,0.540719,0,0,0,0,0,0,0,244,-49,244,-49,360,-61,249,68,0,-0.375,3.07246,-1.5,nan,0,0,2,0,0,0,0,0,0,0,0,16125,0,0,0,0,0,0,0,0,0,2.5,0
9921,-3.21172e-12,7.59334e-38,-1.57647e-06,-3.27738e-12,7.59287e-38,0,-1.13772e-13,0,0,-3.80186,0.137793,0.540719,0,0,0,0,0,0,0,244,-49,244,-49,360,-61,249,68,0,-0.375,3.07451,-1.5,nan,0,0,2,0,0,0,0,0,0,0,0,16125,0,0,0,0,0,0,0,0,0,2.5,0
9937,-3.21172e-12,7.59334e-38,-1.57647e-06,-3.27738e-12,7.59287e-38,0,-1.13773e-13,0,0,-3.80186,0.137793,0.540719,0,0,0,0,0,0,0,244,-49,244,-49,360,-61,249,68,0,-0.375,3.07663,-1.5,nan,0,0,2,0,0,0,0,0,0,0,0,16125,0,0,0,0,0,0,0,0,0,2.5,0
9952,-3.21172e-12,7.59334e-38,-1.57647e-06,-3.27738e-12,7.59287e-38,0,-1.13773e-13,0,0,-3.80186,0.137793,0.540719,0,0,0,0,0,0,0,244,-49,244,-49,360,-61,249,68,0,-0.375,3.07856,-1.5,nan,0,0,2,0,0,0,0,0,0,0,0,16125,0,0,0,0,0,0,0,0,0,2.5,0
9968,-3.21172e-12,7.59334e-38,-1.57647e-06,-3.27738e-12,7.59287e-38,0,-1.13774e-13,0,0,-3.80186,0.137793,0.540719,0,0,0,0,0,0,0,244,-49,244,-49,360,-61,249,68,0,-0.375,3.08055,-1.5,nan,0,0,2,0,0,0,0,0,0,0,0,16125,0,0,0,0,0,0,0,0,0,2.5,0
9983,-3.21172e-12,7.59334e-38,-1.57647e-06,-3.27738e-12,7.59287e-38,0,-1.13774e-13,0,0,-3.80186,0.137793,0.540719,0,0,0,0,0,0,0,244,-49,244,-49,360,-61,249,68,0,-0.375,3.08237,-1.5,nan,0,0,2,0,0,0,0,0,0,0,0,16125,0,0,0,0,0,0,0,0,0,2.5,0
9998,-3.21172e-12,7.59334e-38,-1.57647e-06,-3.27738e-12,7.59287e-38,0,-1.13775e-13,0,0,-3.80186,0.137793,0.540719,0,0,0,0,0,0,0,244,-49,244,-49,360,-61,249,68,0,-0.375,3.08412,-1.5,nan,0,0,2,0,0,0,0,0,0,0,0,16125,0,0,0,0,0,0,0,0,0,2.5,0
10014,-3.21172e-12,7.59334e-38,-1.57647e-06,-3.27738e-12,7.59287e-38,0,-1.13775e-13,0,0,-3.80186,0.137793,0.540719,0,0,0,0,0,0,0,244,-49,244,-49,360,-61,249,68,0,-0.375,3.08594,-1.5,nan,0,0,2,0,0,0,0,0,0,0,0,16125,0,0,0,0,0,0,0,0,0,2.5,0
10030,-3.21172e-12,7.59334e-38,-1.57647e-06,-3.27738e-12,7.59287e-38,0,-1.13776e-13,0,0,-3.80186,0.137793,0.540719,0,0,0,0,0,0,0,244,-49,244,-49,360,-61,249,68,0,-0.375,3.0877,-1.5,nan,0,0,2,0,0,0,0,0,0,0,0,16125,0,0,0,0,0,0,0,0,0,2.5,0
10046,-3.21172e-12,7.59334e-38,-1.57647e-06,-3.27738e-12,7.59287e-38,0,-1.13776e-13,0,0,-3.80186,0.137793,0.540719,0,0,0,0,0,0,0,244,-49,244,-49,360,-61,249,68,0,-0.375,3.08941,-1.5,nan,0,0,2,0,0,0,0,0,0,0,0,16125,0,0,0,0,0,0,0,0,0,2.5,0
10062,-3.21172e-12,7.59334e-38,-1.57647e-06,-3.27738e-12,7.59287e-38,0,-1.13777e-13,0,0,-3.80186,0.137793,0.540719,0,0,0,0,0,0,0,244,-49,244,-49,360,-61,249,68,0,-0.375,3.09106,-1.5,nan,0,0,2,0,0,0,0,0,0,0,0,16125,0,0,0,0,0,0,0,0,0,2.5,0
10076,-3.21172e-12,7.59334e-38,-1.57647e-06,-3.27738e-12,7.59287e-38,0,-1.13777e-13,0,0,-3.80186,0.137793,0.540719,0,0,0,0,0,0,0,244,-49,244,-49,360,-61,249,68,0,-0.375,3.09246,-1.5,nan,0,0,2,0,0,0,0,0,0,0,0,16125,0,0,0,0,0,0,0,0,0,2.5,0
10089,-3.21172e-12,7.59334e-38,-1.57647e-06,-3.27738e-12,7.59287e-38,0,-1.13778e-13,0,0,-3.80186,0.137793,0.540719,0,0,0,0,0,0,0,244,-49,244,-49,360,-61,249,68,0,-0.375,3.09372,-1.5,nan,0,0,2,0,0,0,0,0,0,0,0,16125,0,0,0,0,0,0,0,0,0,2.5,0
10105,-3.21172e-12,7.59334e-38,-1.57647e-06,-3.27738e-12,7.59287e-38,0,-1.13779e-13,0,0,-3.80186,0.137793,0.540719,0,0,0,0,0,0,0,244,-49,244,-49,360,-61,249,68,0,-0.375,3.09524,-1.5,nan,0,0,2,0,0,0,0,0,0,0,0,16125,0,0,0,0,0,0,0,0,0,2.5,0
10121,-3.21172e-12,7.59334e-38,-1.57647e-06,-3.27738e-12,7.59287e-38,0,-1.13779e-13,0,0,-3.80186,0.137793,0.540719,0,0,0,0,0,0,0,244,-49,244,-49,360,-61,249,68,0,-0.375,3.09662,-1.5,nan,0,0,2,0,0,0,0,0,0,0,0,16125,0,0,0,0,0,0,0,0,0,2.5,0
10136,-3.21172e-12,7.59334e-38,-1.57647e-06,-3.27738e-12,7.59287e-38,0,-1.1378e-13,0,0,-3.80186,0.137793,0.540719,0,0,0,0,0,0,0,244,-49,244,-49,360,-61,249,68,0,-0.375,3.09804,-1.5,nan,0,0,2,0,0,0,0,0,0,0,0,16125,0,0,0,0,0,0,0,0,0,2.5,0
10151,-3.21172e-12,7.59334e-38,-1.57647e-06,-3.27738e-12,7.59287e-38,0,-1.1378e-13,0,0,-3.80186,0.137793,0.540719,0,0,0,0,0,0,0,244,-49,244,-49,360,-61,249,68,0,-0.375,3.09933,-1.5,nan,0,0,2,0,0,0,0,0,0,0,0,16125,0,0,0,0,0,0,0,0,0,2.5,0
10167,-3.21172e-12,7.59334e-38,-1.57647e-06,-3.27738e-12,7.59287e-38,0,-1.13781e-13,0,0,-3.80186,0.137793,0.540719,0,0,0,0,0,0,0,244,-49,244,-49,360,-61,249,68,0,-0.375,3.10067,-1.5,nan,0,0,2,0,0,0,0,0,0,0,0,16125,0,0,0,0,0,0,0,0,0,2.5,0
10183,-3.21172e-12,7.59334e-38,-1.57647e-06,-3.27738e-12,7.59287e-38,0,-1.13781e-13,0,0,-3.80186,0.137793,0.540719,0,0,0,0,0,0,0,244,-49,244,-49,360,-61,249,68,0,-0.375,3.10196,-1.5,nan,0,0,2,0,0,0,0,0,0,0,0,16125,0,0,0,0,0,0,0,0,0,2.5,0
10198,-3.21172e-12,7.59334e-38,-1.57647e-06,-3.27738e-12,7.59287e-38,0,-1.13782e-13,0,0,-3.80186,0.137793,0.540719,0,0,0,0,0,0,0,244,-49,244,-49,360,-61,249,68,0,-0.375,3.10314,-1.5,nan,0,0,2,0,0,0,0,0,0,0,0,16125,0,0,0,0,0,0,0,0,0,2.5,0
10214,-3.21172e-12,7.59334e-38,-1.57647e-06,-3.27738e-12,7.59287e-38,0,-1.13782e-13,0,0,-3.80186,0.137793,0.540719,0,0,0,0,0,0,0,244,-49,244,-49,360,-61,249,68,0,-0.375,3.10436,-1.5,nan,0,0,2,0,0,0,0,0,0,0,0,16125,0,0,0,0,0,0,0,0,0,2.5,0
10229,-3.21172e-12,7.59334e-38,-1.57647e-06,-3.27738e-12,7.59287e-38,0,-1.13783e-13,0,0,-3.80186,0.137793,0.540719,0,0,0,0,0,0,0,244,-49,244,-49,360,-61,249,68,0,-0.375,3.10546,-1.5,nan,0,0,2,0,0,0,0,0,0,0,0,16125,0,0,0,0,0,0,0,0,0,2.5,0
10246,-3.21172e-12,7.59334e-38,-1.57647e-06,-3.27738e-12,7.59287e-38,0,-1.13783e-13,0,0,-3.80186,0.137793,0.540719,0,0,0,0,0,0,0,244,-49,244,-49,360,-61,249,68,0,-0.375,3.10667,-1.5,nan,0,0,2,0,0,0,0,0,0,0,0,16125,0,0,0,0,0,0,0,0,0,2.5,0
10262,-3.21172e-12,7.59334e-38,-1.57647e-06,-3.27738e-12,7.59287e-38,0,-1.13784e-13,0,0,-3.80186,0.137793,0.540719,0,0,0,0,0,0,0,244,-49,244,-49,360,-61,249,68,0,-0.375,3.10778,-1.5,nan,0,0,2,0,0,0,0,0,0,0,0,16125,0,0,0,0,0,0,0,0,0,2.5,0
10279,-3.21172e-12,7.59334e-38,-1.57647e-06,-3.27738e-12,7.59287e-38,0,-1.13785e-13,0,0,-3.80186,0.137793,0.540719,0,0,0,0,0,0,0,244,-49,244,-49,360,-61,249,68,0,-0.375,3.10892,-1.5,nan,0,0,2,0,0,0,0,0,0,0,0,16125,0,0,0,0,0,0,0,0,0,2.5,0
10295,-3.21172e-12,7.59334e-38,-1.57647e-06,-3.27738e-12,7.59287e-38,0,-1.13785e-13,0,0,-3.80186,0.137793,0.540719,0,0,0,0,0,0,0,244,-49,244,-49,360,-61,249,68,0,-0.375,3.10995,-1.5,nan,0,0,2,0,0,0,0,0,0,0,0,16125,0,0,0,0,0,0,0,0,0,2.5,0
10311,-3.21172e-12,7.59334e-38,-1.57647e-06,-3.27738e-12,7.59287e-38,0,-1.13786e-13,0,0,-3.80186,0.137793,0.540719,0,0,0,0,0,0,0,244,-49,244,-49,360,-61,249,68,0,-0.375,3.11095,-1.5,nan,0,0,2,0,0,0,0,0,0,0,0,16125,0,0,0,0,0,0,0,0,0,2.5,0
10327,-3.21172e-12,7.59334e-38,-1.57647e-06,-3.27738e-12,7.59287e-38,0,-1.13786e-13,0,0,-3.80186,0.137793,0.540719,0,0,0,0,0,0,0,244,-49,244,-49,360,-61,249,68,0,-0.375,3.11186,-1.5,nan,0,0,2,0,0,0,0,0,0,0,0,16125,0,0,0,0,0,0,0,0,0,2.5,0
10340,-3.21172e-12,7.59334e-38,-1.57647e-06,-3.27738e-12,7.59287e-38,0,-1.13787e-13,0,0,-3.80186,0.137793,0.540719,0,0,0,0,0,0,0,244,-49,244,-49,360,-61,249,68,0,-0.375,3.11268,-1.5,nan,0,0,2,0,0,0,0,0,0,0,0,16125,0,0,0,0,0,0,0,0,0,2.5,0
10353,-3.21172e-12,7.59334e-38,-1.57647e-06,-3.27738e-12,7.59287e-38,0,-1.13787e-13,0,0,-3.80186,0.137793,0.540719,0,0,0,0,0,0,0,244,-49,244,-49,360,-61,249,68,0,-0.375,3.11343,-1.5,nan,0,0,2,0,0,0,0,0,0,0,0,16125,0,0,0,0,0,0,0,0,0,2.5,0
10369,-3.21172e-12,7.59334e-38,-1.57647e-06,-3.27738e-12,7.59287e-38,0,-1.13788e-13,0,0,-3.80186,0.137793,0.540719,0,0,0,0,0,0,0,244,-49,244,-49,360,-61,249,68,0,-0.375,3.11432,-1.5,nan,0,0,2,0,0,0,0,0,0,0,0,16125,0,0,0,0,0,0,0,0,0,2.5,0
10384,-3.21172e-12,7.59334e-38,-1.57647e-06,-3.27738e-12,7.59287e-38,0,-1.13788e-13,0,0,-3.80186,0.137793,0.540719,0,0,0,0,0,0,0,244,-49,244,-49,360,-61,249,68,0,-0.375,3.11513,-1.5,nan,0,0,2,0,0,0,0,0,0,0,0,16125,0,0,0,0,0,0,0,0,0,2.5,0
10400,-3.21172e-12,7.59334e-38,-1.57647e-06,-3.27738e-12,7.59287e-38,0,-1.13789e-13,0,0,-3.80186,0.137793,0.540719,0,0,0,0,0,0,0,244,-49,244,-49,360,-61,249,68,0,-0.375,3.11597,-1.5,nan,0,0,2,0,0,0,0,0,0,0,0,16125,0,0,0,0,0,0,0,0,0,2.5,0
10416,-3.21172e-12,7.59334e-38,-1.57647e-06,-3.27738e-12,7.59287e-38,0,-1.13789e-13,0,0,-3.80186,0.137793,0.540719,0,0,0,0,0,0,0,244,-49,244,-49,360,-61,249,68,0,-0.375,3.11678,-1.5,nan,0,0,2,0,0,0,0,0,0,0,0,16125,0,0,0,0,0,0,0,0,0,2.5,0
10431,-3.21172e-12,7.59334e-38,-1.57647e-06,-3.27738e-12,7.59287e-38,0,-1.1379e-13,0,0,-3.80186,0.137793,0.540719,0,0,0,0,0,0,0,244,-49,244,-49,360,-61,249,68,0,-0.375,3.11751,-1.5,nan,0,0,2,0,0,0,0,0,0,0,0,16125,0,0,0,0,0,0,0,0,0,2.5,0
10447,-3.21172e-12,7.59334e-38,-1.57647e-06,-3.27738e-12,7.59287e-38,0,-1.1379e-13,0,0,-3.80186,0.137793,0.540719,0,0,0,0,0,0,0,244,-49,244,-49,360,-61,249,68,0,-0.375,3.11827,-1.5,nan,0,0,2,0,0,0,0,0,0,0,0,16125,0,0,0,0,0,0,0,0,0,2.5,0
10463,-3.21172e-12,7.59334e-38,-1.57647e-06,-3.27738e-12,7.59287e-38,0,-1.13791e-13,0,0,-3.80186,0.137793,0.540719,0,0,0,0,0,0,0,244,-49,244,-49,360,-61,249,68,0,-0.375,3.11901,-1.5,nan,0,0,2,0,0,0,0,0,0,0,0,16125,0,0,0,0,0,0,0,0,0,2.5,0
10479,-3.21172e-12,7.59334e-38,-1.57647e-06,-3.27738e-12,7.59287e-38,0,-1.13792e-13,0,0,-3.80186,0.137793,0.540719,0,0,0,0,0,0,0,244,-49,244,-49,360,-61,249,68,0,-0.375,3.11973,-1.5,nan,0,0,2,0,0,0,0,0,0,0,0,16125,0,0,0,0,0,0,0,0,0,2.5,0
10496,-3.21172e-12,7.59334e-38,-1.57647e-06,-3.27738e-12,7.59287e-38,0,-1.13792e-13,0,0,-3.80186,0.137793,0.540719,0,0,0,0,0,0,0,244,-49,244,-49,360,-61,249,68,0,-0.375,3.12042,-1.5,nan,0,0,2,0,0,0,0,0,0,0,0,16125,0,0,0,0,0,0,0,0,0,2.5,0
10512,-3.21172e-12,7.59334e-38,-1.57647e-06,-3.27738e-12,7.59287e-38,0,-1.13793e-13,0,0,-3.80186,0.137793,0.540719,0,0,0,0,0,0,0,244,-49,244,-49,360,-61,249,68,0,-0.375,3.12109,-1.5,nan,0,0,2,0,0,0,0,0,0,0,0,16125,0,0,0,0,0,0,0,0,0,2.5,0
10527,-3.21172e-12,7.59334e-38,-1.57647e-06,-3.27738e-12,7.59287e-38,0,-1.13793e-13,0,0,-3.80186,0.137793,0.540719,0,0,0,0,0,0,0,244,-49,244,-49,360,-61,249,68,0,-0.375,3.1217,-1.5,nan,0,0,2,0,0,0,0,0,0,0,0,16125,0,0,0,0,0,0,0,0,0,2.5,0
10543,-3.21172e-12,7.59334e-38,-1.57647e-06,-3.27738e-12,7.59287e-38,0,-1.13794e-13,0,0,-3.80186,0.137793,0.540719,0,0,0,0,0,0,0,244,-49,244,-49,360,-61,249,68,0,-0.375,3.12233,-1.5,nan,0,0,2,0,0,0,0,0,0,0,0,16125,0,0,0,0,0,0,0,0,0,2.5,0
10558,-3.21172e-12,7.59334e-38,-1.57647e-06,-3.27738e-12,7.59287e-38,0,-1.13794e-13,0,0,-3.80186,0.137793,0.540719,0,0,0,0,0,0,0,244,-49,244,-49,360,-61,249,68,0,-0.375,3.1229,-1.5,nan,0,0,2,0,0,0,0,0,0,0,0,16125,0,0,0,0,0,0,0,0,0,2.5,0
10574,-3.21172e-12,7.59334e-38,-1.57647e-06,-3.27738e-12,7.59287e-38,0,-1.13795e-13,0,0,-3.80186,0.137793,0.540719,0,0,0,0,0,0,0,244,-49,244,-49,360,-61,249,68,0,-0.375,3.12349,-1.5,nan,0,0,2,0,0,0,0,0,0,0,0,16125,0,0,0,0,0,0,0,0,0,2.5,0
10592,-3.21172e-12,7.59334e-38,-1.57647e-06,-3.27738e-12,7.59287e-38,0,-1.13795e-13,0,0,-3.80186,0.137793,0.540719,0,0,0,0,0,0,0,244,-49,244,-49,360,-61,249,68,0,-0.375,3.12413,-1.5,nan,0,0,2,0,0,0,0,0,0,0,0,16125,0,0,0,0,0,0,0,0,0,2.5,0
10607,-3.21172e-12,7.59334e-38,-1.57647e-06,-3.27738e-12,7.59287e-38,0,-1.13796e-13,0,0,-3.80186,0.137793,0.540719,0,0,0,0,0,0,0,244,-49,244,-49,360,-61,249,68,0,-0.375,3.12465,-1.5,nan,0,0,2,0,0,0,0,0,0,0,0,16125,0,0,0,0,0,0,0,0,0,2.5,0
10620,-3.21172e-12,7.59334e-38,-1.57647e-06,-3.27738e-12,7.59287e-38,0,-1.13796e-13,0,0,-3.80186,0.137793,0.540719,0,0,0,0,0,0,0,244,-49,244,-49,360,-61,249,68,0,-0.375,3.12509,-1.5,nan,0,0,2,0,0,0,0,0,0,0,0,16125,0,0,0,0,0,0,0,0,0,2.5,0
10635,-3.21172e-12,7.59334e-38,-1.57647e-06,-3.27738e-12,7.59287e-38,0,-1.13797e-13,0,0,-3.80186,0.137793,0.540719,0,0,0,0,0,0,0,244,-49,244,-49,360,-61,249,68,0,-0.375,3.12558,-1.5,nan,0,0,2,0,0,0,0,0,0,0,0,16125,0,0,0,0,0,0,0,0,0,2.5,0
10651,-3.21172e-12,7.59334e-38,-1.57647e-06,-3.27738e-12,7.59287e-38,0,-1.13798e-13,0,0,-3.80186,0.137793,0.540719,0,0,0,0,0,0,0,244,-49,244,-49,360,-61,249,68,0,-0.375,3.12608,-1.5,nan,0,0,2,0,0,0,0,0,0,0,0,16125,0,0,0,0,0,0,0,0,0,2.5,0
10666,-3.21172e-12,7.59334e-38,-1.57647e-06,-3.27738e-12,7.59287e-38,0,-1.13798e-13,0,0,-3.80186,0.137793,0.540719,0,0,0,0,0,0,0,244,-49,244,-49,360,-61,249,68,0,-0.375,3.12654,-1.5,nan,0,0,2,0,0,0,0,0,0,0,0,16125,0,0,0,0,0,0,0,0,0,2.5,0
10681,-3.21172e-12,7.59334e-38,-1.57647e-06,-3.27738e-12,7.59287e-38,0,-1.13799e-13,0,0,-3.80186,0.137793,0.540719,0,0,0,0,0,0,0,244,-49,244,-49,360,-61,249,68,0,-0.375,3.12699,-1.5,nan,0,0,2,0,0,0,0,0,0,0,0,16125,0,0,0,0,0,0,0,0,0,2.5,0
10697,-3.21172e-12,7.59334e-38,-1.57647e-06,-3.27738e-12,7.59287e-38,0,-1.13799e-13,0,0,-3.80186,0.137793,0.540719,0,0,0,0,0,0,0,244,-49,244,-49,360,-61,249,68,0,-0.375,3.12742,-1.5,nan,0,0,2,0,0,0,0,0,0,0,0,16125,0,0,0,0,0,0,0,0,0,2.5,0
10712,-3.21172e-12,7.59334e-38,-1.57647e-06,-3.27738e-12,7.59287e-38,0,-1.138e-13,0,0,-3.80186,0.137793,0.540719,0,0,0,0,0,0,0,244,-49,244,-49,360,-61,249,68,0,-0.375,3.12787,-1.5,nan,0,0,2,0,0,0,0,0,0,0,0,16125,0,0,0,0,0,0,0,0,0,2.5,0
10729,-3.21172e-12,7.59334e-38,-1.57647e-06,-3.27738e-12,7.59287e-38,0,-1.138e-13,0,0,-3.80186,0.137793,0.540719,0,0,0,0,0,0,0,244,-49,244,-49,360,-61,249,68,0,-0.375,3.12833,-1.5,nan,0,0,2,0,0,0,0,0,0,0,0,16125,0,0,0,0,0,0,0,0,0,2.5,0
10744,-3.21172e-12,7.59334e-38,-1.57647e-06,-3.27738e-12,7.59287e-38,0,-1.13801e-13,0,0,-3.80186,0.137793,0.540719,0,0,0,0,0,0,0,244,-49,244,-49,360,-61,249,68,0,-0.375,3.12873,-1.5,nan,0,0,2,0,0,0,0,0,0,0,0,16125,0,0,0,0,0,0,0,0,0,2.5,0
10759,-3.21172e-12,7.59334e-38,-1.57647e-06,-3.27738e-12,7.59287e-38,0,-1.13801e-13,0,0,-3.80186,0.137793,0.540719,0,0,0,0,0,0,0,244,-49,244,-49,360,-61,249,68,0,-0.375,3.12911,-1.5,nan,0,0,2,0,0,0,0,0,0,0,0,16125,0,0,0,0,0,0,0,0,0,2.5,0
10775,-3.21172e-12,7.59334e-38,-1.57647e-06,-3.27738e-12,7.59287e-38,0,-1.13802e-13,0,0,-3.80186,0.137793,0.540719,0,0,0,0,0,0,0,244,-49,244,-49,360,-61,249,68,0,-0.375,3.1295,-1.5,nan,0,0,2,0,0,0,0,0,0,0,0,16125,0,0,0,0,0,0,0,0,0,2.5,0
10790,-3.21172e-12,7.59334e-38,-1.57647e-06,-3.27738e-12,7.59287e-38,0,-1.13802e-13,0,0,-3.80186,0.137793,0.540719,0,0,0,0,0,0,0,244,-49,244,-49,360,-61,249,68,0,-0.375,3.12986,-1.5,nan,0,0,2,0,0,0,0,0,0,0,0,16125,0,0,0,0,0,0,0,0,0,2.5,0
10806,-3.21172e-12,7.59334e-38,-1.57647e-06,-3.27738e-12,7.59287e-38,0,-1.13803e-13,0,0,-3.80186,0.137793,0.540719,0,0,0,0,0,0,0,244,-49,244,-49,360,-61,249,68,0,-0.375,3.13021,-1.5,nan,0,0,2,0,0,0,0,0,0,0,0,16125,0,0,0,0,0,0,0,0,0,2.5,0
10821,-3.21172e-12,7.59334e-38,-1.57647e-06,-3.27738e-12,7.59287e-38,0,-1.13803e-13,0,0,-3.80186,0.137793,0.540719,0,0,0,0,0,0,0,244,-49,244,-49,360,-61,249,68,0,-0.375,3.13057,-1.5,nan,0,0,2,0,0,0,0,0,0,0,0,16125,0,0,0,0,0,0,0,0,0,2.5,0
10836,-3.21172e-12,7.59334e-38,-1.57647e-06,-3.27738e-12,7.59287e-38,0,-1.13804e-13,0,0,-3.80186,0.137793,0.540719,0,0,0,0,0,0,0,244,-49,244,-49,360,-61,249,68,0,-0.375,3.1309,-1.5,nan,0,0,2,0,0,0,0,0,0,0,0,16125,0,0,0,0,0,0,0,0,0,2.5,0
10852,-3.21172e-12,7.59334e-38,-1.57647e-06,-3.27738e-12,7.59287e-38,0,-1.13805e-13,0,0,-3.80186,0.137793,0.540719,0,0,0,0,0,0,0,244,-49,244,-49,360,-61,249,68,0,-0.375,3.13124,-1.5,nan,0,0,2,0,0,0,0,0,0,0,0,16125,0,0,0,0,0,0,0,0,0,2.5,0
10865,-3.21172e-12,7.59334e-38,-1.57647e-06,-3.27738e-12,7.59287e-38,0,-1.13805e-13,0,0,-3.80186,0.137793,0.540719,0,0,0,0,0,0,0,244,-49,244,-49,360,-61,249,68,0,-0.375,3.1315,-1.5,nan,0,0,2,0,0,0,0,0,0,0,0,16125,0,0,0,0,0,0,0,0,0,2.5,0
10879,-3.21172e-12,7.59334e-38,-1.57647e-06,-3.27738e-12,7.59287e-38,0,-1.13806e-13,0,0,-3.80186,0.137793,0.540719,0,0,0,0,0,0,0,244,-49,244,-49,360,-61,249,68,0,-0.375,3.13176,-1.5,nan,0,0,2,0,0,0,0,0,0,0,0,16125,0,0,0,0,0,0,0,0,0,2.5,0
10894,-3.21172e-12,7.59334e-38,-1.57647e-06,-3.27738e-12,7.59287e-38,0,-1.13806e-13,0,0,-3.80186,0.137793,0.540719,0,0,0,0,0,0,0,244,-49,244,-49,360,-61,249,68,0,-0.375,3.13207,-1.5,nan,0,0,2,0,0,0,0,0,0,0,0,16125,0,0,0,0,0,0,0,0,0,2.5,0
10910,-3.21172e-12,7.59334e-38,-1.57647e-06,-3.27738e-12,7.59287e-38,0,-1.13807e-13,0,0,-3.80186,0.137793,0.540719,0,0,0,0,0,0,0,244,-49,244,-49,360,-61,249,68,0,-0.375,3.13237,-1.5,nan,0,0,2,0,0,0,0,0,0,0,0,16125,0,0,0,0,0,0,0,0,0,2.5,0
10927,-3.21172e-12,7.59334e-38,-1.57647e-06,-3.27738e-12,7.59287e-38,0,-1.13807e-13,0,0,-3.80186,0.137793,0.540719,0,0,0,0,0,0,0,244,-49,244,-49,360,-61,249,68,0,-0.375,3.13268,-1.5,nan,0,0,2,0,0,0,0,0,0,0,0,16125,0,0,0,0,0,0,0,0,0,2.5,0
10943,-3.21172e-12,7.59334e-38,-1.57647e-06,-3.27738e-12,7.59287e-38,0,-1.13808e-13,0,0,-3.80186,0.137793,0.540719,0,0,0,0,0,0,0,244,-49,244,-49,360,-61,249,68,0,-0.375,3.13296,-1.5,nan,0,0,2,0,0,0,0,0,0,0,0,16125,0,0,0,0,0,0,0,0,0,2.5,0
10958,-3.21172e-12,7.59334e-38,-1.57647e-06,-3.27738e-12,7.59287e-38,0,-1.13808e-13,0,0,-3.80186,0.137793,0.540719,0,0,0,0,0,0,0,244,-49,244,-49,360,-61,249,68,0,-0.375,3.13322,-1.5,nan,0,0,2,0,0,0,0,0,0,0,0,16125,0,0,0,0,0,0,0,0,0,2.5,0
10974,-3.21172e-12,7.59334e-38,-1.57647e-06,-3.27738e-12,7.59287e-38,0,-1.13809e-13,0,0,-3.80186,0.137793,0.540719,0,0,0,0,0,0,0,244,-49,244,-49,360,-61,249,68,0,-0.375,3.13349,-1.5,nan,0,0,2,0,0,0,0,0,0,0,0,16125,0,0,0,0,0,0,0,0,0,2.5,0
10989,-3.21172e-12,7.59334e-38,-1.57647e-06,-3.27738e-12,7.59287e-38,0,-1.13809e-13,0,0,-3.80186,0.137793,0.540719,0,0,0,0,0,0,0,244,-49,244,-49,360,-61,249,68,0,-0.375,3.13373,-1.5,nan,0,0,2,0,0,0,0,0,0,0,0,16125,0,0,0,0,0,0,0,0,0,2.5,0
11005,-3.21172e-12,7.59334e-38,-1.57647e-06,-3.27738e-12,7.59287e-38,0,-1.1381e-13,0,0,-3.80186,0.137793,0.540719,0,0,0,0,0,0,0,244,-49,244,-49,360,-61,249,68,0,-0.375,3.13398,-1.5,nan,0,0,2,0,0,0,0,0,0,0,0,16125,0,0,0,0,0,0,0,0,0,2.5,0
11021,-3.21172e-12,7.59334e-38,-1.57647e-06,-3.27738e-12,7.59287e-38,0,-1.13811e-13,0,0,-3.80186,0.137793,0.540719,0,0,0,0,0,0,0,244,-49,244,-49,360,-61,249,68,0,-0.375,3.13422,-1.5,nan,0,0,2,0,0,0,0,0,0,0,0,16125,0,0,0,0,0,0,0,0,0,2.5,0
11036,-3.21172e-12,7.59334e-38,-1.57647e-06,-3.27738e-12,7.59287e-38,0,-1.13811e-13,0,0,-3.80186,0.137793,0.540719,0,0,0,0,0,0,0,244,-49,244,-49,360,-61,249,68,0,-0.375,3.13443,-1.5,nan,0,0,2,0,0,0,0,0,0,0,0,16125,0,0,0,0,0,0,0,0,0,2.5,0
11051,-3.21172e-12,7.59334e-38,-1.57647e-06,-3.27738e-12,7.59287e-38,0,-1.13812e-13,0,0,-3.80186,0.137793,0.540719,0,0,0,0,0,0,0,244,-49,244,-49,360,-61,249,68,0,-0.375,3.13465,-1.5,nan,0,0,2,0,0,0,0,0,0,0,0,16125,0,0,0,0,0,0,0,0,0,2.5,0
11067,-3.21172e-12,7.59334e-38,-1.57647e-06,-3.27738e-12,7.59287e-38,0,-1.13812e-13,0,0,-3.80186,0.137793,0.540719,0,0,0,0,0,0,0,244,-49,244,-49,360,-61,249,68,0,-0.375,3.13487,-1.5,nan,0,0,2,0,0,0,0,0,0,0,0,16125,0,0,0,0,0,0,0,0,0,2.5,0
11083,-3.21172e-12,7.59334e-38,-1.57647e-06,-3.27738e-12,7.59287e-38,0,-1.13813e-13,0,0,-3.80186,0.137793,0.540719,0,0,0,0,0,0,0,244,-49,244,-49,360,-61,249,68,0,-0.375,3.13507,-1.5,nan,0,0,2,0,0,0,0,0,0,0,0,16125,0,0,0,0,0,0,0,0,0,2.5,0
11098,-3.21172e-12,7.59334e-38,-1.57647e-06,-3.27738e-12,7.59287e-38,0,-1.13813e-13,0,0,-3.80186,0.137793,0.540719,0,0,0,0,0,0,0,244,-49,244,-49,360,-61,249,68,0,-0.375,3.13526,-1.5,nan,0,0,2,0,0,0,0,0,0,0,0,16125,0,0,0,0,0,0,0,0,0,2.5,0
11210,-3.21172e-12,7.59334e-38,-1.57647e-06,-3.27738e-12,7.59287e-38,0,-1.13814e-13,0,0,-3.80186,0.137793,0.540719,0,0,0,0,0,0,0,244,-49,244,-49,360,-61,249,68,0,-0.375,3.13666,-1.5,nan,0,0,2,0,0,0,0,0,0,0,0,16125,0,0,0,0,0,0,0,0,0,2.5,0
11573,-3.21172e-12,7.59334e-38,-1.57647e-06,-3.27738e-12,7.59287e-38,0,-1.13814e-13,0,0,-3.79491,0.035175,0.453569,0,0,0,0,0,0,0,255,-40,255,-40,373,-52,259,75,0,-0.375,3.14018,-1.5,nan,0,0,2,0,0,0,0,0,0,0,0,15748,0,0,0,0,0,0,0,0,0,2.5,0
11683,-3.21172e-12,7.59334e-38,-1.57647e-06,-3.27738e-12,7.59287e-38,0,-1.13815e-13,0,0,-3.80171,0.0307637,0.464267,0,0,0,0,0,0,0,255,-40,255,-40,374,-53,260,74,0,-0.375,3.14048,-1.5,nan,0,0,2,0,0,0,0,0,0,0,0,15748,0,0,0,0,0,0,0,0,0,2.5,0
11790,-3.21172e-12,7.59334e-38,-1.57647e-06,-3.27738e-12,7.59287e-38,0,-1.13815e-13,0,0,-3.82407,0.0380586,0.47831,0,0,0,0,0,0,0,255,-40,255,-40,372,-55,261,74,0,-0.375,3.14072,-1.5,nan,0,0,2,0,0,0,0,0,0,0,0,15738,0,0,0,0,0,0,0,0,0,2.5,0
11935,-3.21172e-12,7.59334e-38,-1.57647e-06,-3.27738e-12,7.59287e-38,0,-1.13816e-13,0,0,-3.83641,0.0236524,0.462558,0,0,0,0,0,0,0,258,-40,258,-40,374,-48,260,78,0,-0.375,3.14096,-1.5,nan,0,0,2,0,0,0,0,0,0,0,0,15246,0,0,0,0,0,0,0,0,0,2.5,0
12140,-3.21172e-12,7.59334e-38,-1.57647e-06,-3.27738e-12,7.59287e-38,0,-1.13817e-13,0,0,-3.81105,0.0288962,0.459646,0,0,0,0,0,0,0,258,-40,258,-40,372,-53,260,78,0,-0.375,3.14122,-1.5,nan,0,0,2,0,0,0,0,0,0,0,0,15851,0,0,0,0,0,0,0,0,0,2.5,0
12286,-3.21172e-12,7.59334e-38,-1.57647e-06,-3.27738e-12,7.59287e-38,0,-1.13817e-13,0,0,-3.8198,0.0345883,0.465374,0,0,0,0,0,0,0,255,-42,255,-42,373,-48,259,75,0,-0.375,3.14132,-1.5,nan,0,0,2,0,0,0,0,0,0,0,0,15252,0,0,0,0,0,0,0,0,0,2.5,0
12510,-3.21172e-12,7.59334e-38,-1.57647e-06,-3.27738e-12,7.59287e-38,0,-1.13818e-13,0,0,-3.90391,0.0379138,0.506632,0,0,0,0,0,0,0,258,-40,258,-40,374,-48,259,75,0,-0.375,3.14144,-1.5,nan,0,0,2,0,0,0,0,0,0,0,0,14268,0,0,0,0,0,0,0,0,0,2.5,0
12546,-3.21172e-12,7.59334e-38,-1.57647e-06,-3.27738e-12,7.59287e-38,0,-1.13818e-13,0,0,-3.81105,0.0288962,0.459646,0,0,0,0,0,0,0,258,-40,258,-40,372,-53,260,78,0,-0.375,3.14145,-1.5,nan,0,0,2,0,0,0,0,0,0,0,0,15851,0,0,0,0,0,0,0,0,0,2.5,0
12561,-3.21172e-12,7.59334e-38,-1.57647e-06,-3.27738e-12,7.59287e-38,0,-1.13819e-13,0,0,-3.81105,0.0288962,0.459646,0,0,0,0,0,0,0,258,-40,258,-40,372,-53,260,78,0,-0.375,3.14146,-1.5,nan,0,0,2,0,0,0,0,0,0,0,0,15851,0,0,0,0,0,0,0,0,0,2.5,0
12577,-3.21172e-12,7.59334e-38,-1.57647e-06,-3.27738e-12,7.59287e-38,0,-1.13819e-13,0,0,-3.82556,0.0468763,0.47673,0,0,0,0,0,0,0,255,-42,255,-42,373,-53,259,75,0,-0.375,3.14146,-1.5,nan,0,0,2,0,0,0,0,0,0,0,0,15232,0,0,0,0,0,0,0,0,0,2.5,0
12592,-3.21172e-12,7.59334e-38,-1.57647e-06,-3.27738e-12,7.59287e-38,0,-1.1382e-13,0,0,-3.82556,0.0468763,0.47673,0,0,0,0,0,0,0,255,-42,255,-42,373,-53,259,75,0,-0.375,3.14146,-1.5,nan,0,0,2,0,0,0,0,0,0,0,0,15232,0,0,0,0,0,0,0,0,0,2.5,0
12608,-3.21172e-12,7.59334e-38,-1.57647e-06,-3.27738e-12,7.59287e-38,0,-1.1382e-13,0,0,-3.83952,0.0359473,0.472458,0,0,0,0,0,0,0,258,-40,258,-40,374,-53,260,78,0,-0.375,3.14147,-1.5,nan,0,0,2,0,0,0,0,0,0,0,0,15196,0,0,0,0,0,0,0,0,0,2.5,0
12624,-3.21172e-12,7.59334e-38,-1.57647e-06,-3.27738e-12,7.59287e-38,0,-1.13821e-13,0,0,-3.83952,0.0359473,0.472458,0,0,0,0,0,0,0,258,-40,258,-40,374,-53,260,78,0,-0.375,3.14147,-1.5,nan,0,0,2,0,0,0,0,0,0,0,0,15196,0,0,0,0,0,0,0,0,0,2.5,0
12639,-3.21172e-12,7.59334e-38,-1.57647e-06,-3.27738e-12,7.59287e-38,0,-1.13821e-13,0,0,-3.83952,0.0359473,0.472458,0,0,0,0,0,0,0,258,-40,258,-40,374,-53,260,78,0,-0.375,3.14148,-1.5,nan,0,0,2,0,0,0,0,0,0,0,0,15196,0,0,0,0,0,0,0,0,0,2.5,0
12655,-3.21172e-12,7.59334e-38,-1.57647e-06,-3.27738e-12,7.59287e-38,0,-1.13822e-13,0,0,-3.83952,0.0359473,0.472458,0,0,0,0,0,0,0,258,-40,258,-40,374,-53,260,78,0,-0.375,3.14148,-1.5,nan,0,0,2,0,0,0,0,0,0,0,0,15196,0,0,0,0,0,0,0,0,0,2.5,0
12672,-3.21172e-12,7.59334e-38,-1.57647e-06,-3.27738e-12,7.59287e-38,0,-1.13822e-13,0,0,-3.83952,0.0359473,0.472458,0,0,0,0,0,0,0,258,-40,258,-40,374,-53,260,78,0,-0.375,3.14148,-1.5,nan,0,0,2,0,0,0,0,0,0,0,0,15196,0,0,0,0,0,0,0,0,0,2.5,0
12688,-3.21172e-12,7.59334e-38,-1.57647e-06,-3.27738e-12,7.59287e-38,0,-1.13823e-13,0,0,-3.82525,0.035571,0.476949,0,0,0,0,0,0,0,255,-40,255,-40,376,-53,260,74,0,-0.375,3.14149,-1.5,nan,0,0,2,0,0,0,0,0,0,0,0,15367,0,0,0,0,0,0,0,0,0,2.5,0
12703,-3.21172e-12,7.59334e-38,-1.57647e-06,-3.27738e-12,7.59287e-38,0,-1.13824e-13,0,0,-3.82525,0.035571,0.476949,0,0,0,0,0,0,0,255,-40,255,-40,376,-53,260,74,0,-0.375,3.14149,-1.5,nan,0,0,2,0,0,0,0,0,0,0,0,15367,0,0,0,0,0,0,0,0,0,2.5,0
12716,-3.21172e-12,7.59334e-38,-1.57647e-06,-3.27738e-12,7.59287e-38,0,-1.13824e-13,0,0,-3.7946,0.0237716,0.460274,0,0,0,0,0,0,0,255,-40,255,-40,376,-53,261,74,0,-0.375,3.14149,-1.5,nan,0,0,2,0,0,0,0,0,0,0,0,15748,0,0,0,0,0,0,0,0,0,2.5,0
12729,-3.21172e-12,7.59334e-38,-1.57647e-06,-3.27738e-12,7.59287e-38,0,-1.13825e-13,0,0,-3.7946,0.0237716,0.460274,0,0,0,0,0,0,0,255,-40,255,-40,376,-53,261,74,0,-0.375,3.1415,-1.5,nan,0,0,2,0,0,0,0,0,0,0,0,15748,0,0,0,0,0,0,0,0,0,2.5,0
12745,-3.21172e-12,7.59334e-38,-1.57647e-06,-3.27738e-12,7.59287e-38,0,-1.13825e-13,0,0,-3.81105,0.0288962,0.459646,0,0,0,0,0,0,0,258,-40,258,-40,372,-53,260,78,0,-0.375,3.1415,-1.5,nan,0,0,2,0,0,0,0,0,0,0,0,15851,0,0,0,0,0,0,0,0,0,2.5,0
12760,-3.21172e-12,7.59334e-38,-1.57647e-06,-3.27738e-12,7.59287e-38,0,-1.13826e-13,0,0,-3.81105,0.0288962,0.459646,0,0,0,0,0,0,0,258,-40,258,-40,372,-53,260,78,0,-0.375,3.1415,-1.5,nan,0,0,2,0,0,0,0,0,0,0,0,15851,0,0,0,0,0,0,0,0,0,2.5,0
12776,-3.21172e-12,7.59334e-38,-1.57647e-06,-3.27738e-12,7.59287e-38,0,-1.13826e-13,0,0,-3.85471,0.038545,0.483165,0,0,0,0,0,0,0,258,-40,258,-40,374,-53,260,78,0,-0.375,3.1415,-1.5,nan,0,0,2,0,0,0,0,0,0,0,0,15196,0,0,0,0,0,0,0,0,0,2.5,0
12791,-3.21172e-12,7.59334e-38,-1.57647e-06,-3.27738e-12,7.59287e-38,0,-1.13827e-13,0,0,-3.85471,0.038545,0.483165,0,0,0,0,0,0,0,258,-40,258,-40,374,-53,260,78,0,-0.375,3.14151,-1.5,nan,0,0,2,0,0,0,0,0,0,0,0,15196,0,0,0,0,0,0,0,0,0,2.5,0
12807,-3.21172e-12,7.59334e-38,-1.57647e-06,-3.27738e-12,7.59287e-38,0,-1.13827e-13,0,0,-3.80372,0.0265291,0.45562,0,0,0,0,0,0,0,258,-40,258,-40,373,-53,260,78,0,-0.375,3.14151,-1.5,nan,0,0,2,0,0,0,0,0,0,0,0,15851,0,0,0,0,0,0,0,0,0,2.5,0
12822,-3.21172e-12,7.59334e-38,-1.57647e-06,-3.27738e-12,7.59287e-38,0,-1.13828e-13,0,0,-3.80372,0.0265291,0.45562,0,0,0,0,0,0,0,258,-40,258,-40,373,-53,260,78,0,-0.375,3.14151,-1.5,nan,0,0,2,0,0,0,0,0,0,0,0,15851,0,0,0,0,0,0,0,0,0,2.5,0
12838,-3.21172e-12,7.59334e-38,-1.57647e-06,-3.27738e-12,7.59287e-38,0,-1.13828e-13,0,0,-3.80372,0.0265291,0.45562,0,0,0,0,0,0,0,258,-40,258,-40,373,-53,260,78,0,-0.375,3.14151,-1.5,nan,0,0,2,0,0,0,0,0,0,0,0,15851,0,0,0,0,0,0,0,0,0,2.5,0
12853,-3.21172e-12,7.59334e-38,-1.57647e-06,-3.27738e-12,7.59287e-38,0,-1.13829e-13,0,0,-3.84566,0.03489,0.45746,0,0,0,0,0,0,0,258,-40,258,-40,376,-48,259,78,0,-0.375,3.14152,-1.5,nan,0,0,2,0,0,0,0,0,0,0,0,14868,0,0,0,0,0,0,0,0,0,2.5,0
12869,-3.21172e-12,7.59334e-38,-1.57647e-06,-3.27738e-12,7.59287e-38,0,-1.1383e-13,0,0,-3.84566,0.03489,0.45746,0,0,0,0,0,0,0,258,-40,258,-40,376,-48,259,78,0,-0.375,3.14152,-1.5,nan,0,0,2,0,0,0,0,0,0,0,0,14868,0,0,0,0,0,0,0,0,0,2.5,0
12884,-3.21172e-12,7.59334e-38,-1.57647e-06,-3.27738e-12,7.59287e-38,0,-1.1383e-13,0,0,-3.8043,0.0324596,0.449467,0,0,0,0,0,0,0,255,-42,255,-42,373,-48,260,78,0,-0.375,3.14152,-1.5,nan,0,0,2,0,0,0,0,0,0,0,0,15624,0,0,0,0,0,0,0,0,0,2.5,0
12901,-3.21172e-12,7.59334e-38,-1.57647e-06,-3.27738e-12,7.59287e-38,0,-1.13831e-13,0,0,-3.8043,0.0324596,0.449467,0,0,0,0,0,0,0,255,-42,255,-42,373,-48,260,78,0,-0.375,3.14152,-1.5,nan,0,0,2,0,0,0,0,0,0,0,0,15624,0,0,0,0,0,0,0,0,0,2.5,0
12916,-3.21172e-12,7.59334e-38,-1.57647e-06,-3.27738e-12,7.59287e-38,0,-1.13831e-13,0,0,-3.82525,0.035571,0.476949,0,0,0,0,0,0,0,255,-40,255,-40,376,-53,260,74,0,-0.375,3.14152,-1.5,nan,0,0,2,0,0,0,0,0,0,0,0,15367,0,0,0,0,0,0,0,0,0,2.5,0
12931,-3.21172e-12,7.59334e-38,-1.57647e-06,-3.27738e-12,7.59287e-38,0,-1.13832e-13,0,0,-3.82525,0.035571,0.476949,0,0,0,0,0,0,0,255,-40,255,-40,376,-53,260,74,0,-0.375,3.14153,-1.5,nan,0,0,2,0,0,0,0,0,0,0,0,15367,0,0,0,0,0,0,0,0,0,2.5,0
12947,-3.21172e-12,7.59334e-38,-1.57647e-06,-3.27738e-12,7.59287e-38,0,-1.13832e-13,0,0,-3.80768,0.0329916,0.447941,0,0,0,0,0,0,0,258,-40,258,-40,372,-53,260,78,0,-0.375,3.14153,-1.5,nan,0,0,2,0,0,0,0,0,0,0,0,15589,0,0,0,0,0,0,0,0,0,2.5,0
12965,-3.21172e-12,7.59334e-38,-1.57647e-06,-3.27738e-12,7.59287e-38,0,-1.13833e-13,0,0,-3.80768,0.0329916,0.447941,0,0,0,0,0,0,0,258,-40,258,-40,372,-53,260,78,0,-0.375,3.14153,-1.5,nan,0,0,2,0,0,0,0,0,0,0,0,15589,0,0,0,0,0,0,0,0,0,2.5,0
12979,-3.21172e-12,7.59334e-38,-1.57647e-06,-3.27738e-12,7.59287e-38,0,-1.13833e-13,0,0,-3.8054,0.0287304,0.454126,0,0,0,0,0,0,0,258,-40,258,-40,372,-53,260,78,0,-0.375,3.14153,-1.5,nan,0,0,2,0,0,0,0,0,0,0,0,15851,0,0,0,0,0,0,0,0,0,2.5,0
12992,-3.21172e-12,7.59334e-38,-1.57647e-06,-3.27738e-12,7.59287e-38,0,-1.13834e-13,0,0,-3.8054,0.0287304,0.454126,0,0,0,0,0,0,0,258,-40,258,-40,372,-53,260,78,0,-0.375,3.14153,-1.5,nan,0,0,2,0,0,0,0,0,0,0,0,15851,0,0,0,0,0,0,0,0,0,2.5,0
13008,-3.21172e-12,7.59334e-38,-1.57647e-06,-3.27738e-12,7.59287e-38,0,-1.13834e-13,0,0,-3.80372,0.0265291,0.45562,0,0,0,0,0,0,0,258,-40,258,-40,373,-53,260,78,0,-0.375,3.14153,-1.5,nan,0,0,2,0,0,0,0,0,0,0,0,15851,0,0,0,0,0,0,0,0,0,2.5,0
13023,-3.21172e-12,7.59334e-38,-1.57647e-06,-3.27738e-12,7.59287e-38,0,-1.13835e-13,0,0,-3.80372,0.0265291,0.45562,0,0,0,0,0,0,0,258,-40,258,-40,373,-53,260,78,0,-0.375,3.14154,-1.5,nan,0,0,2,0,0,0,0,0,0,0,0,15851,0,0,0,0,0,0,0,0,0,2.5,0
13039,-3.21172e-12,7.59334e-38,-1.57647e-06,-3.27738e-12,7.59287e-38,0,-1.13835e-13,0,0,-3.82023,0.0188978,0.453717,0,0,0,0,0,0,0,258,-40,258,-40,376,-48,260,78,0,-0.375,3.14154,-1.5,nan,0,0,2,0,0,0,0,0,0,0,0,15246,0,0,0,0,0,0,0,0,0,2.5,0
13054,-3.21172e-12,7.59334e-38,-1.57647e-06,-3.27738e-12,7.59287e-38,0,-1.13836e-13,0,0,-3.82023,0.0188978,0.453717,0,0,0,0,0,0,0,258,-40,258,-40,376,-48,260,78,0,-0.375,3.14154,-1.5,nan,0,0,2,0,0,0,0,0,0,0,0,15246,0,0,0,0,0,0,0,0,0,2.5,0
13069,-3.21172e-12,7.59334e-38,-1.57647e-06,-3.27738e-12,7.59287e-38,0,-1.13837e-13,0,0,-3.82023,0.0188978,0.453717,0,0,0,0,0,0,0,258,-40,258,-40,376,-48,260,78,0,-0.375,3.14154,-1.5,nan,0,0,2,0,0,0,0,0,0,0,0,15246,0,0,0,0,0,0,0,0,0,2.5,0
13085,-3.21172e-12,7.59334e-38,-1.57647e-06,-3.27738e-12,7.59287e-38,0,-1.13837e-13,0,0,-3.8964,0.0377295,0.500108,0,0,0,0,0,0,0,258,-40,258,-40,373,-48,259,75,0,-0.375,3.14154,-1.5,nan,0,0,2,0,0,0,0,0,0,0,0,14391,0,0,0,0,0,0,0,0,0,2.5,0
13100,-3.21172e-12,7.59334e-38,-1.57647e-06,-3.27738e-12,7.59287e-38,0,-1.13838e-13,0,0,-3.8964,0.0377295,0.500108,0,0,0,0,0,0,0,258,-40,258,-40,373,-48,259,75,0,-0.375,3.14155,-1.5,nan,0,0,2,0,0,0,0,0,0,0,0,14391,0,0,0,0,0,0,0,0,0,2.5,0
