timestamp,A_x,A_y,A_z,P,Q,R,Phi,Theta,Psi,poseX,poseY,poseZ,state_X,state_Y,state_Z,state_VzB,state_Bx,state_By,state_Bz,p1_x,p1_y,p2_x,p2_y,p3_x,p3_y,p4_x,p4_y,roll,pitch,yaw,alt,targetHeading,highLevelState,lowLevelState,gateNumber,filtered_x,filtered_y,x_OT,y_OT,vx_OT,vy_OT,filtered_vx,filtered_vygateArearansac_corr_x,ransac_corr_y,ransac_corr_vx,ransac_corr_vy,detectionTimeStamppTermX,dTermX,pTermY,dTermY,vxcmd,vycmd
8929,0,-3.32016e+25,3.66292e-38,-1.86161e-18,-3.28514e-12,-1.86163e-18,0,0,0,0,0,0,0,0,0,0,0,0,0,0,0,0,0,0,0,0,0,-0.228299,-0.0348889,0,-1.5,3.94113e+12,0,0,0,0,0,0,0,0,0,0,0,1.9603e-19,0,0,0,0,0,0,0,0,0,0,0
9080,-3.17831e-12,3.81846e-38,-1.57181e-06,-3.2605e-12,3.81822e-38,0,0,0,0,0,0,0,0,0,0,0,0,0,0,0,0,0,0,0,0,0,0,-0.305648,-0.0348889,0,-1.5,3.94113e+12,0,0,0,0,0,0,0,0,0,0,0,1.9603e-19,0,0,0,0,0,0,0,0,0,0,0
9127,-3.17831e-12,3.81846e-38,-1.57181e-06,-3.2605e-12,3.81822e-38,0,0,0,0,0,0,0,0,0,0,0,0,0,0,0,0,0,0,0,0,0,0,-0.310039,-0.0348889,0,-1.5,3.94113e+12,0,0,0,0,0,0,0,0,0,0,0,1.9603e-19,0,0,0,0,0,0,0,0,0,0,0
9168,-3.17831e-12,3.81846e-38,-1.57181e-06,-3.2605e-12,3.81822e-38,0,0,0,0,0,0,0,0,0,0,0,0,0,0,0,0,0,0,0,0,0,0,-0.306766,-0.0348889,0,-1.5,3.94113e+12,0,0,0,0,0,0,0,0,0,0,0,1.9603e-19,0,0,0,0,0,0,0,0,0,0,0
9209,-3.17831e-12,3.81846e-38,-1.57181e-06,-3.2605e-12,3.81822e-38,0,0,0,0,0,0,0,0,0,0,0,0,0,0,0,0,0,0,0,0,0,0,-0.295668,-0.0348889,0,-1.5,3.94113e+12,0,0,0,0,0,0,0,0,0,0,0,1.9603e-19,0,0,0,0,0,0,0,0,0,0,0
9249,-3.17831e-12,3.81846e-38,-1.57181e-06,-3.2605e-12,3.81822e-38,0,0,0,0,0,0,0,0,0,0,0,0,0,0,0,0,0,0,0,0,0,0,-0.277031,-0.0348889,0,-1.5,3.94113e+12,0,0,0,0,0,0,0,0,0,0,0,1.9603e-19,0,0,0,0,0,0,0,0,0,0,0
9289,-3.17831e-12,3.81846e-38,-1.57181e-06,-3.2605e-12,3.81822e-38,0,0,0,0,0,0,0,0,0,0,0,0,0,0,0,0,0,0,0,0,0,0,-0.249644,-0.0348889,0,-1.5,3.94113e+12,0,0,0,0,0,0,0,0,0,0,0,1.9603e-19,0,0,0,0,0,0,0,0,0,0,0
9329,-3.17831e-12,3.81846e-38,-1.57181e-06,-3.2605e-12,3.81822e-38,0,0,0,0,0,0,0,0,0,0,0,0,0,0,0,0,0,0,0,0,0,0,-0.212525,-0.0348889,0,-1.5,3.94113e+12,0,0,0,0,0,0,0,0,0,0,0,1.9603e-19,0,0,0,0,0,0,0,0,0,0,0
9367,-3.17831e-12,3.81846e-38,-1.57181e-06,-3.2605e-12,3.81822e-38,0,0,0,0,0,0,0,0,0,0,0,0,0,0,0,0,0,0,0,0,0,0,-0.163273,-0.0348889,0,-1.5,3.94113e+12,0,0,0,0,0,0,0,0,0,0,0,1.9603e-19,0,0,0,0,0,0,0,0,0,0,0
9491,-3.17831e-12,3.81846e-38,-1.57181e-06,-3.2605e-12,3.81822e-38,0,0,0,0,-7.51136,-1.67184,0.0630999,0,0,0,0,0,-5.89057,-1.67184,380,117,380,117,439,114,385,177,0,-0.0348889,0,-1.5,3.94113e+12,0,0,0,0,0,0,0,0,0,0,0,3904,0,0,0,0,9482,0,0,0,0,0,0
9720,-3.17831e-12,3.81846e-38,-1.57181e-06,-3.2605e-12,3.81822e-38,0,0,0,0,-8.05945,-1.82746,0.242266,0,0,0,0,0,-6.64145,-1.82746,386,118,386,118,439,114,384,174,0,-0.0348889,0,-1.5,3.94113e+12,0,0,0,0,0,0,0,0,0,0,0,3540,0,0,0,0,9712,0,0,0,0,0,0
9850,-3.17831e-12,3.81846e-38,-1.57181e-06,-3.2605e-12,3.81822e-38,0,0,0,0,-8.05945,-1.82746,0.242266,0,0,0,0,0,-6.64145,-1.82746,386,118,386,118,439,114,384,174,0,-0.0348889,0,-1.5,3.94113e+12,0,0,0,0,0,0,0,0,0,0,0,3540,0,0,0,0,9712,0,0,0,0,0,0
9977,-3.17831e-12,3.81846e-38,-1.57181e-06,-3.2605e-12,3.81822e-38,0,0,0,0,-8.05945,-1.82746,0.242266,0,0,0,0,0,-6.64145,-1.82746,386,118,386,118,439,114,384,174,0,-0.0348889,0,-1.5,3.94113e+12,0,0,0,0,0,0,0,0,0,0,0,3540,0,0,0,0,9712,0,0,0,0,0,0
10200,-3.17831e-12,3.81846e-38,-1.57181e-06,-3.2605e-12,3.81822e-38,0,0,0,0,-8.05945,-1.82746,0.242266,0,0,0,0,0,-6.64145,-1.82746,386,118,386,118,439,114,384,174,0,-0.0348889,0,-1.5,3.94113e+12,0,0,0,0,0,0,0,0,0,0,0,3540,0,0,0,0,9712,0,0,0,0,0,0
10329,-3.17831e-12,3.81846e-38,-1.57181e-06,-3.2605e-12,3.81822e-38,0,0,0,0,-8.05945,-1.82746,0.242266,0,0,0,0,0,-6.64145,-1.82746,386,118,386,118,439,114,384,174,0,-0.0348889,0,-1.5,3.94113e+12,0,0,0,0,0,0,0,0,0,0,0,3540,0,0,0,0,9712,0,0,0,0,0,0
10560,-3.17831e-12,3.81846e-38,-1.57181e-06,-3.2605e-12,3.81822e-38,0,0,0,0,-8.05945,-1.82746,0.242266,0,0,0,0,0,-6.64145,-1.82746,386,118,386,118,439,114,384,174,0,-0.0348889,0,-1.5,3.94113e+12,0,0,0,0,0,0,0,0,0,0,0,3540,0,0,0,0,9712,0,0,0,0,0,0
10733,-3.17831e-12,3.81846e-38,-1.57181e-06,-3.2605e-12,3.81822e-38,0,0,0,0,-8.05945,-1.82746,0.242266,0,0,0,0,0,-6.64145,-1.82746,386,118,386,118,439,114,384,174,0,-0.0348889,0,-1.5,3.94113e+12,0,0,0,0,0,0,0,0,0,0,0,3540,0,0,0,0,9712,0,0,0,0,0,0
10864,-3.17831e-12,3.81846e-38,-1.57181e-06,-3.2605e-12,3.81822e-38,0,0,0,0,-7.61835,-1.70512,0.0779356,0,0,0,0,0,-6.03714,-1.70512,384,117,384,117,437,114,385,179,0,-0.0348889,0,-1.5,3.94113e+12,0,0,0,0,0,0,0,0,0,0,0,3705,0,0,0,0,10855,0,0,0,0,0,0
10878,-3.17831e-12,3.81846e-38,-1.57181e-06,-3.2605e-12,3.81822e-38,0,0,0,0,-7.61835,-1.70512,0.0779356,0,0,0,0,0,-6.03714,-1.70512,384,117,384,117,437,114,385,179,0,-0.0348889,0,-1.5,3.94113e+12,0,0,0,0,0,0,0,0,0,0,0,3705,0,0,0,0,10855,0,0,0,0,0,0
10891,-3.17831e-12,3.81846e-38,-1.57181e-06,-3.2605e-12,3.81822e-38,0,0,0,0,-7.61835,-1.70512,0.0779356,0,0,0,0,0,-6.03714,-1.70512,384,117,384,117,437,114,385,179,0,-0.0348889,0,-1.5,3.94113e+12,0,0,0,0,0,0,0,0,0,0,0,3705,0,0,0,0,10855,0,0,0,0,0,0
10906,-3.17831e-12,3.81846e-38,-1.57181e-06,-3.2605e-12,3.81822e-38,0,0,0,0,-7.61835,-1.70512,0.0779356,0,0,0,0,0,-6.03714,-1.70512,384,117,384,117,437,114,385,179,0,-0.0348889,0,-1.5,3.94113e+12,0,0,0,0,0,0,0,0,0,0,0,3705,0,0,0,0,10855,0,0,0,0,0,0
10921,-3.17831e-12,3.81846e-38,-1.57181e-06,-3.2605e-12,3.81822e-38,0,0,0,0,-7.61835,-1.70512,0.0779356,0,0,0,0,0,-6.03714,-1.70512,384,117,384,117,437,114,385,179,0,-0.0348889,0,-1.5,3.94113e+12,0,0,0,0,0,0,0,0,0,0,0,3705,0,0,0,0,10855,0,0,0,0,0,0
10937,-3.17831e-12,3.81846e-38,-1.57181e-06,-3.2605e-12,3.81822e-38,0,0,0,0,-7.61835,-1.70512,0.0779356,0,0,0,0,0,-6.03714,-1.70512,384,117,384,117,437,114,385,179,0,-0.0348889,0,-1.5,3.94113e+12,0,0,0,0,0,0,0,0,0,0,0,3705,0,0,0,0,10855,0,0,0,0,0,0
10952,-3.17831e-12,3.81846e-38,-1.57181e-06,-3.2605e-12,3.81822e-38,0,0,0,0,-7.61835,-1.70512,0.0779356,0,0,0,0,0,-6.03714,-1.70512,384,117,384,117,437,114,385,179,0,-0.0348889,0,-1.5,3.94113e+12,0,0,0,0,0,0,0,0,0,0,0,3705,0,0,0,0,10855,0,0,0,0,0,0
10967,-3.17831e-12,3.81846e-38,-1.57181e-06,-3.2605e-12,3.81822e-38,0,0,0,0,-7.61835,-1.70512,0.0779356,0,0,0,0,0,-6.03714,-1.70512,384,117,384,117,437,114,385,179,0,-0.0348889,0,-1.5,3.94113e+12,0,0,0,0,0,0,0,0,0,0,0,3705,0,0,0,0,10855,0,0,0,0,0,0
10983,-3.17831e-12,3.81846e-38,-1.57181e-06,-3.2605e-12,3.81822e-38,0,0,0,0,-7.61835,-1.70512,0.0779356,0,0,0,0,0,-6.03714,-1.70512,384,117,384,117,437,114,385,179,0,-0.0348889,0,-1.5,3.94113e+12,0,0,0,0,0,0,0,0,0,0,0,3705,0,0,0,0,10855,0,0,0,0,0,0
10998,-3.17831e-12,3.81846e-38,-1.57181e-06,-3.2605e-12,3.81822e-38,0,0,0,0,-7.61835,-1.70512,0.0779356,0,0,0,0,0,-6.03714,-1.70512,384,117,384,117,437,114,385,179,0,-0.0348889,0,-1.5,3.94113e+12,0,0,0,0,0,0,0,0,0,0,0,3705,0,0,0,0,10855,0,0,0,0,0,0
11014,-3.17831e-12,3.81846e-38,-1.57181e-06,-3.2605e-12,3.81822e-38,0,0,0,0,-7.61835,-1.70512,0.0779356,0,0,0,0,0,-6.03714,-1.70512,384,117,384,117,437,114,385,179,0,-0.0348889,0,-1.5,3.94113e+12,0,0,0,0,0,0,0,0,0,0,0,3705,0,0,0,0,10855,0,0,0,0,0,0
11029,-3.17831e-12,3.81846e-38,-1.57181e-06,-3.2605e-12,3.81822e-38,0,0,0,0,-7.61835,-1.70512,0.0779356,0,0,0,0,0,-6.03714,-1.70512,384,117,384,117,437,114,385,179,0,-0.0348889,0,-1.5,3.94113e+12,0,0,0,0,0,0,0,0,0,0,0,3705,0,0,0,0,10855,0,0,0,0,0,0
11045,-3.17831e-12,3.81846e-38,-1.57181e-06,-3.2605e-12,3.81822e-38,0,0,0,0,-7.61835,-1.70512,0.0779356,0,0,0,0,0,-6.03714,-1.70512,384,117,384,117,437,114,385,179,0,-0.0348889,0,-1.5,3.94113e+12,0,0,0,0,0,0,0,0,0,0,0,3705,0,0,0,0,10855,0,0,0,0,0,0
11060,-3.17831e-12,3.81846e-38,-1.57181e-06,-3.2605e-12,3.81822e-38,0,0,0,0,-7.61835,-1.70512,0.0779356,0,0,0,0,0,-6.03714,-1.70512,384,117,384,117,437,114,385,179,0,-0.0348889,0,-1.5,3.94113e+12,0,0,0,0,0,0,0,0,0,0,0,3705,0,0,0,0,10855,0,0,0,0,0,0
11076,-3.17831e-12,3.81846e-38,-1.57181e-06,-3.2605e-12,3.81822e-38,0,0,0,0,-7.61835,-1.70512,0.0779356,0,0,0,0,0,-6.03714,-1.70512,384,117,384,117,437,114,385,179,0,-0.0348889,0,-1.5,3.94113e+12,0,0,0,0,0,0,0,0,0,0,0,3705,0,0,0,0,10855,0,0,0,0,0,0
11091,-3.17831e-12,3.81846e-38,-1.57181e-06,-3.2605e-12,3.81822e-38,0,0,0,0,-7.61835,-1.70512,0.0779356,0,0,0,0,0,-6.03714,-1.70512,384,117,384,117,437,114,385,179,0,-0.0348889,0,-1.5,3.94113e+12,0,0,0,0,0,0,0,0,0,0,0,3705,0,0,0,0,10855,0,0,0,0,0,0
11107,-3.17831e-12,3.81846e-38,-1.57181e-06,-3.2605e-12,3.81822e-38,0,0,0,0,-7.61835,-1.70512,0.0779356,0,0,0,0,0,-6.03714,-1.70512,384,117,384,117,437,114,385,179,0,-0.0348889,0,-1.5,3.94113e+12,0,0,0,0,0,0,0,0,0,0,0,3705,0,0,0,0,10855,0,0,0,0,0,0
11120,-3.17831e-12,3.81846e-38,-1.57181e-06,-3.2605e-12,3.81822e-38,0,0,0,0,-7.61835,-1.70512,0.0779356,0,0,0,0,0,-6.03714,-1.70512,384,117,384,117,437,114,385,179,0,-0.0348889,0,-1.5,3.94113e+12,0,0,0,0,0,0,0,0,0,0,0,3705,0,0,0,0,10855,0,0,0,0,0,0
11133,-3.17831e-12,3.81846e-38,-1.57181e-06,-3.2605e-12,3.81822e-38,0,0,0,0,-7.61835,-1.70512,0.0779356,0,0,0,0,0,-6.03714,-1.70512,384,117,384,117,437,114,385,179,0,-0.0348889,0,-1.5,3.94113e+12,0,0,0,0,0,0,0,0,0,0,0,3705,0,0,0,0,10855,0,0,0,0,0,0
11149,-3.17831e-12,3.81846e-38,-1.57181e-06,-3.2605e-12,3.81822e-38,0,0,0,0,-7.5659,-1.71162,0.0474979,0,0,0,0,0,-5.96529,-1.71162,385,119,385,119,439,114,385,180,0,-0.0348889,0,-1.5,3.94113e+12,0,0,0,0,0,0,0,0,0,0,0,3762,0,0,0,0,11140,0,0,0,0,0,0
11179,-3.17831e-12,3.81846e-38,-1.57181e-06,-3.2605e-12,3.81822e-38,0,0,0,0,-7.5659,-1.71162,0.0474979,0,0,0,0,0,-5.96529,-1.71162,385,119,385,119,439,114,385,180,0,-0.0348889,0,-1.5,3.94113e+12,0,0,0,0,0,0,0,0,0,0,0,3762,0,0,0,0,11140,0,0,0,0,0,0
11194,-3.17831e-12,3.81846e-38,-1.57181e-06,-3.2605e-12,3.81822e-38,0,0,0,0,-7.5659,-1.71162,0.0474979,0,0,0,0,0,-5.96529,-1.71162,385,119,385,119,439,114,385,180,0,-0.0348889,0,-1.5,3.94113e+12,0,0,0,0,0,0,0,0,0,0,0,3762,0,0,0,0,11140,0,0,0,0,0,0
11211,-3.17831e-12,3.81846e-38,-1.57181e-06,-3.2605e-12,3.81822e-38,0,0,0,0,-7.41405,-1.67287,8.67102e-05,0,0,0,0,0,-5.75724,-1.67287,382,119,382,119,439,114,387,181,0,-0.0348889,0,-1.5,3.94113e+12,0,0,0,0,0,0,0,0,0,0,0,4020,0,0,0,0,11208,0,0,0,0,0,0
11226,-3.17831e-12,3.81846e-38,-1.57181e-06,-3.2605e-12,3.81822e-38,0,0,0,0,-7.41405,-1.67287,8.67102e-05,0,0,0,0,0,-5.75724,-1.67287,382,119,382,119,439,114,387,181,0,-0.0348889,0,-1.5,3.94113e+12,0,0,0,0,0,0,0,0,0,0,0,4020,0,0,0,0,11208,0,0,0,0,0,0
11248,-3.17831e-12,3.81846e-38,-1.57181e-06,-3.2605e-12,3.81822e-38,0,0,0,0,-7.4881,-1.68967,0.00750676,0,0,0,0,0,-5.8587,-1.68967,382,119,382,119,439,116,387,181,0,-0.0348889,0,-1.5,3.94113e+12,0,0,0,-5.85073,-1.68803,0,0,0,0,0.996118,0.20508,3900,-5.8587,-1.68967,0.996118,0.20508,11242,0,0,0,0,0,0
11265,-3.17831e-12,3.81846e-38,-1.57181e-06,-3.2605e-12,3.81822e-38,0,0,0,0,-7.4881,-1.68967,0.00750676,0,0,0,0,0,-5.8587,-1.68967,382,119,382,119,439,116,387,181,0,-0.0348889,0,-1.5,3.94113e+12,0,0,0,-5.83479,-1.68475,0,0,0,0,0.996118,0.20508,3900,-5.8587,-1.68967,0.996118,0.20508,11242,0,0,0,0,0,0
11281,-3.17831e-12,3.81846e-38,-1.57181e-06,-3.2605e-12,3.81822e-38,0,0,0,0,-7.4881,-1.68967,0.00750676,0,0,0,0,0,-5.8587,-1.68967,382,119,382,119,439,116,387,181,0,-0.0348889,0,-1.5,3.94113e+12,0,0,0,-5.81885,-1.68147,0,0,0,0,0.996118,0.20508,3900,-5.8587,-1.68967,0.996118,0.20508,11242,0,0,0,0,0,0
11296,-3.17831e-12,3.81846e-38,-1.57181e-06,-3.2605e-12,3.81822e-38,0,0,0,0,-7.4881,-1.68967,0.00750676,0,0,0,0,0,-5.8587,-1.68967,382,119,382,119,439,116,387,181,0,-0.0348889,0,-1.5,3.94113e+12,0,0,0,-5.80292,-1.67819,0,0,0,0,0.996118,0.20508,3900,-5.8587,-1.68967,0.996118,0.20508,11242,0,0,0,0,0,0
11312,-3.17831e-12,3.81846e-38,-1.57181e-06,-3.2605e-12,3.81822e-38,0,0,0,0,-7.4881,-1.68967,0.00750676,0,0,0,0,0,-5.8587,-1.68967,382,119,382,119,439,116,387,181,0,-0.0348889,0,-1.5,3.94113e+12,0,0,0,-5.78698,-1.67491,0,0,0,0,0.996118,0.20508,3900,-5.8587,-1.68967,0.996118,0.20508,11242,0,0,0,0,0,0
11328,-3.17831e-12,3.81846e-38,-1.57181e-06,-3.2605e-12,3.81822e-38,0,0,0,0,-7.4881,-1.68967,0.00750676,0,0,0,0,0,-5.8587,-1.68967,382,119,382,119,439,116,387,181,0,-0.0348889,0,-1.5,3.94113e+12,0,0,0,-5.77204,-1.67183,0,0,0,0,0.996118,0.20508,3900,-5.8587,-1.68967,0.996118,0.20508,11242,0,0,0,0,0,0
11346,-3.17831e-12,3.81846e-38,-1.57181e-06,-3.2605e-12,3.81822e-38,0,0,0,0,-8.22219,-1.85931,0.220479,0,0,0,0,0,-6.86439,-1.85931,386,121,386,121,438,119,384,177,0,-0.0348889,0,-1.5,3.94113e+12,0,0,0,-6.9054,-1.86622,0,0,0,0,-8.2011,-1.38105,3422,-6.86439,-1.85931,-8.2011,-1.38105,11343,0,0,0,0,0,0
11362,-3.17831e-12,3.81846e-38,-1.57181e-06,-3.2605e-12,3.81822e-38,0,0,0,0,-8.22219,-1.85931,0.220479,0,0,0,0,0,-6.86439,-1.85931,386,121,386,121,438,119,384,177,0,-0.0348889,0,-1.5,3.94113e+12,0,0,0,-7.03661,-1.88832,0,0,0,0,-8.2011,-1.38105,3422,-6.86439,-1.85931,-8.2011,-1.38105,11343,0,0,0,0,0,0
11376,-3.17831e-12,3.81846e-38,-1.57181e-06,-3.2605e-12,3.81822e-38,0,0,0,0,-8.22219,-1.85931,0.220479,0,0,0,0,0,-6.86439,-1.85931,386,121,386,121,438,119,384,177,0,-0.0348889,0,-1.5,3.94113e+12,0,0,0,-7.15142,-1.90765,0,0,0,0,-8.2011,-1.38105,3422,-6.86439,-1.85931,-8.2011,-1.38105,11343,0,0,0,0,0,0
11389,-3.17831e-12,3.81846e-38,-1.57181e-06,-3.2605e-12,3.81822e-38,0,0,0,0,-8.22219,-1.85931,0.220479,0,0,0,0,0,-6.86439,-1.85931,386,121,386,121,438,119,384,177,0,-0.0348889,0,-1.5,3.94113e+12,0,0,0,-7.25803,-1.9256,0,0,0,0,-8.2011,-1.38105,3422,-6.86439,-1.85931,-8.2011,-1.38105,11343,0,0,0,0,0,0
11405,-3.17831e-12,3.81846e-38,-1.57181e-06,-3.2605e-12,3.81822e-38,0,0,0,0,-8.22219,-1.85931,0.220479,0,0,0,0,0,-6.86439,-1.85931,386,121,386,121,438,119,384,177,0,-0.0348889,0,-1.5,3.94113e+12,0,0,0,-7.38105,-1.94632,0,0,0,0,-8.2011,-1.38105,3422,-6.86439,-1.85931,-8.2011,-1.38105,11343,0,0,0,0,0,0
11420,-3.17831e-12,3.81846e-38,-1.57181e-06,-3.2605e-12,3.81822e-38,0,0,0,0,-8.22219,-1.85931,0.220479,0,0,0,0,0,-6.86439,-1.85931,386,121,386,121,438,119,384,177,0,-0.0348889,0,-1.5,3.94113e+12,0,0,0,-7.51226,-1.96841,0,0,0,0,-8.2011,-1.38105,3422,-6.86439,-1.85931,-8.2011,-1.38105,11343,0,0,0,0,0,0
11436,-3.17831e-12,3.81846e-38,-1.57181e-06,-3.2605e-12,3.81822e-38,0,0,0,0,-8.22219,-1.85931,0.220479,0,0,0,0,0,-6.86439,-1.85931,386,121,386,121,438,119,384,177,0,-0.0348889,0,-1.5,3.94113e+12,0,0,0,-7.64347,-1.99051,0,0,0,0,-8.2011,-1.38105,3422,-6.86439,-1.85931,-8.2011,-1.38105,11343,0,0,0,0,0,0
11452,-3.17831e-12,3.81846e-38,-1.57181e-06,-3.2605e-12,3.81822e-38,0,0,0,0,-8.22219,-1.85931,0.220479,0,0,0,0,0,-6.86439,-1.85931,386,121,386,121,438,119,384,177,0,-0.0348889,0,-1.5,3.94113e+12,0,0,0,-7.77468,-2.0126,0,0,0,0,-8.2011,-1.38105,3422,-6.86439,-1.85931,-8.2011,-1.38105,11343,0,0,0,0,0,0
11467,-3.17831e-12,3.81846e-38,-1.57181e-06,-3.2605e-12,3.81822e-38,0,0,0,0,-8.22219,-1.85931,0.220479,0,0,0,0,0,-6.86439,-1.85931,386,121,386,121,438,119,384,177,0,-0.0348889,0,-1.5,3.94113e+12,0,0,0,-7.89769,-2.03332,0,0,0,0,-8.2011,-1.38105,3422,-6.86439,-1.85931,-8.2011,-1.38105,11343,0,0,0,0,0,0
11483,-3.17831e-12,3.81846e-38,-1.57181e-06,-3.2605e-12,3.81822e-38,0,0,0,0,-8.22219,-1.85931,0.220479,0,0,0,0,0,-6.86439,-1.85931,386,121,386,121,438,119,384,177,0,-0.0348889,0,-1.5,3.94113e+12,0,0,0,-8.0289,-2.05542,0,0,0,0,-8.2011,-1.38105,3422,-6.86439,-1.85931,-8.2011,-1.38105,11343,0,0,0,0,0,0
11499,-3.17831e-12,3.81846e-38,-1.57181e-06,-3.2605e-12,3.81822e-38,0,0,0,0,-8.22219,-1.85931,0.220479,0,0,0,0,0,-6.86439,-1.85931,386,121,386,121,438,119,384,177,0,-0.0348889,0,-1.5,3.94113e+12,0,0,0,-8.15192,-2.07613,0,0,0,0,-8.2011,-1.38105,3422,-6.86439,-1.85931,-8.2011,-1.38105,11343,0,0,0,0,0,0
11517,-3.17831e-12,3.81846e-38,-1.57181e-06,-3.2605e-12,3.81822e-38,0,0,0,0,-8.02445,-1.78514,0.185069,0,0,0,0,0,-6.5935,-1.78514,382,121,382,121,439,116,384,177,0,-0.0348889,0,-1.5,3.94113e+12,0,0,0,-6.61818,-1.78835,0,0,0,0,-2.74186,-0.356222,3538,-6.5935,-1.78514,-2.74186,-0.356222,11510,0,0,0,0,0,0
11533,-3.17831e-12,3.81846e-38,-1.57181e-06,-3.2605e-12,3.81822e-38,0,0,0,0,-8.02445,-1.78514,0.185069,0,0,0,0,0,-6.5935,-1.78514,382,121,382,121,439,116,384,177,0,-0.0348889,0,-1.5,3.94113e+12,0,0,0,-6.66204,-1.79404,0,0,0,0,-2.74186,-0.356222,3538,-6.5935,-1.78514,-2.74186,-0.356222,11510,0,0,0,0,0,0
11552,-3.17831e-12,3.81846e-38,-1.57181e-06,-3.2605e-12,3.81822e-38,0,0,0,0,-7.47695,-1.67343,0.00484942,0,0,0,0,0,-5.84342,-1.67343,382,119,382,119,439,116,385,181,0,-0.0348889,0,-1.5,3.94113e+12,0,0,0,-5.84281,-1.67231,0,0,0,0,0.0509356,0.0938196,3835,-5.84342,-1.67343,0.0509356,0.0938196,11542,0,0,0,0,0,0
11567,-3.17831e-12,3.81846e-38,-1.57181e-06,-3.2605e-12,3.81822e-38,0,0,0,0,-7.47695,-1.67343,0.00484942,0,0,0,0,0,-5.84342,-1.67343,382,119,382,119,439,116,385,181,0,-0.0348889,0,-1.5,3.94113e+12,0,0,0,-5.84204,-1.6709,0,0,0,0,0.0509356,0.0938196,3835,-5.84342,-1.67343,0.0509356,0.0938196,11542,0,0,0,0,0,0
11583,-3.17831e-12,3.81846e-38,-1.57181e-06,-3.2605e-12,3.81822e-38,0,0,0,0,-7.47695,-1.67343,0.00484942,0,0,0,0,0,-5.84342,-1.67343,382,119,382,119,439,116,385,181,0,-0.0348889,0,-1.5,3.94113e+12,0,0,0,-5.84123,-1.6694,0,0,0,0,0.0509356,0.0938196,3835,-5.84342,-1.67343,0.0509356,0.0938196,11542,0,0,0,0,0,0
11596,-3.17831e-12,3.81846e-38,-1.57181e-06,-3.2605e-12,3.81822e-38,0,0,0,0,-7.47695,-1.67343,0.00484942,0,0,0,0,0,-5.84342,-1.67343,382,119,382,119,439,116,385,181,0,-0.0348889,0,-1.5,3.94113e+12,0,0,0,-5.84057,-1.66818,0,0,0,0,0.0509356,0.0938196,3835,-5.84342,-1.67343,0.0509356,0.0938196,11542,0,0,0,0,0,0
11610,-3.17831e-12,3.81846e-38,-1.57181e-06,-3.2605e-12,3.81822e-38,0,0,0,0,-7.47695,-1.67343,0.00484942,0,0,0,0,0,-5.84342,-1.67343,382,119,382,119,439,116,385,181,0,-0.0348889,0,-1.5,3.94113e+12,0,0,0,-5.83985,-1.66687,0,0,0,0,0.0509356,0.0938196,3835,-5.84342,-1.67343,0.0509356,0.0938196,11542,0,0,0,0,0,0
11626,-3.17831e-12,3.81846e-38,-1.57181e-06,-3.2605e-12,3.81822e-38,0,0,0,0,-7.47695,-1.67343,0.00484942,0,0,0,0,0,-5.84342,-1.67343,382,119,382,119,439,116,385,181,0,-0.0348889,0,-1.5,3.94113e+12,0,0,0,-5.83909,-1.66546,0,0,0,0,0.0509356,0.0938196,3835,-5.84342,-1.67343,0.0509356,0.0938196,11542,0,0,0,0,0,0
11642,-3.17831e-12,3.81846e-38,-1.57181e-06,-3.2605e-12,3.81822e-38,0,0,0,0,-7.47695,-1.67343,0.00484942,0,0,0,0,0,-5.84342,-1.67343,382,119,382,119,439,116,385,181,0,-0.0348889,0,-1.5,3.94113e+12,0,0,0,-5.83822,-1.66386,0,0,0,0,0.0509356,0.0938196,3835,-5.84342,-1.67343,0.0509356,0.0938196,11542,0,0,0,0,0,0
11657,-3.17831e-12,3.81846e-38,-1.57181e-06,-3.2605e-12,3.81822e-38,0,0,0,0,-7.47695,-1.67343,0.00484942,0,0,0,0,0,-5.84342,-1.67343,382,119,382,119,439,116,385,181,0,-0.0348889,0,-1.5,3.94113e+12,0,0,0,-5.83746,-1.66246,0,0,0,0,0.0509356,0.0938196,3835,-5.84342,-1.67343,0.0509356,0.0938196,11542,0,0,0,0,0,0
11673,-3.17831e-12,3.81846e-38,-1.57181e-06,-3.2605e-12,3.81822e-38,0,0,0,0,-7.47695,-1.67343,0.00484942,0,0,0,0,0,-5.84342,-1.67343,382,119,382,119,439,116,385,181,0,-0.0348889,0,-1.5,3.94113e+12,0,0,0,-5.8367,-1.66105,0,0,0,0,0.0509356,0.0938196,3835,-5.84342,-1.67343,0.0509356,0.0938196,11542,0,0,0,0,0,0
11688,-3.17831e-12,3.81846e-38,-1.57181e-06,-3.2605e-12,3.81822e-38,0,0,0,0,-7.47695,-1.67343,0.00484942,0,0,0,0,0,-5.84342,-1.67343,382,119,382,119,439,116,385,181,0,-0.0348889,0,-1.5,3.94113e+12,0,0,0,-5.83588,-1.65955,0,0,0,0,0.0509356,0.0938196,3835,-5.84342,-1.67343,0.0509356,0.0938196,11542,0,0,0,0,0,0
11703,-3.17831e-12,3.81846e-38,-1.57181e-06,-3.2605e-12,3.81822e-38,0,0,0,0,-7.47695,-1.67343,0.00484942,0,0,0,0,0,-5.84342,-1.67343,382,119,382,119,439,116,385,181,0,-0.0348889,0,-1.5,3.94113e+12,0,0,0,-5.83512,-1.65814,0,0,0,0,0.0509356,0.0938196,3835,-5.84342,-1.67343,0.0509356,0.0938196,11542,0,0,0,0,0,0
11719,-3.17831e-12,3.81846e-38,-1.57181e-06,-3.2605e-12,3.81822e-38,0,0,0,0,-7.47695,-1.67343,0.00484942,0,0,0,0,0,-5.84342,-1.67343,382,119,382,119,439,116,385,181,0,-0.0348889,0,-1.5,3.94113e+12,0,0,0,-5.8343,-1.65664,0,0,0,0,0.0509356,0.0938196,3835,-5.84342,-1.67343,0.0509356,0.0938196,11542,0,0,0,0,0,0
11735,-3.17831e-12,3.81846e-38,-1.57181e-06,-3.2605e-12,3.81822e-38,0,0,0,0,-7.47695,-1.67343,0.00484942,0,0,0,0,0,-5.84342,-1.67343,382,119,382,119,439,116,385,181,0,-0.0348889,0,-1.5,3.94113e+12,0,0,0,-5.83349,-1.65514,0,0,0,0,0.0509356,0.0938196,3835,-5.84342,-1.67343,0.0509356,0.0938196,11542,0,0,0,0,0,0
11750,-3.17831e-12,3.81846e-38,-1.57181e-06,-3.2605e-12,3.81822e-38,0,0,0,0,-7.47695,-1.67343,0.00484942,0,0,0,0,0,-5.84342,-1.67343,382,119,382,119,439,116,385,181,0,-0.0348889,0,-1.5,3.94113e+12,0,0,0,-5.83272,-1.65373,0,0,0,0,0.0509356,0.0938196,3835,-5.84342,-1.67343,0.0509356,0.0938196,11542,0,0,0,0,0,0
11766,-3.17831e-12,3.81846e-38,-1.57181e-06,-3.2605e-12,3.81822e-38,0,0,0,0,-7.47695,-1.67343,0.00484942,0,0,0,0,0,-5.84342,-1.67343,382,119,382,119,439,116,385,181,0,-0.0348889,0,-1.5,3.94113e+12,0,0,0,-5.83191,-1.65223,0,0,0,0,0.0509356,0.0938196,3835,-5.84342,-1.67343,0.0509356,0.0938196,11542,0,0,0,0,0,0
11784,-3.17831e-12,3.81846e-38,-1.57181e-06,-3.2605e-12,3.81822e-38,0,0,0,0,-7.47695,-1.67343,0.00484942,0,0,0,0,0,-5.84342,-1.67343,382,119,382,119,439,116,385,181,0,-0.0348889,0,-1.5,3.94113e+12,0,0,0,-5.83099,-1.65054,0,0,0,0,0.0509356,0.0938196,3835,-5.84342,-1.67343,0.0509356,0.0938196,11542,0,0,0,0,0,0
11798,-3.17831e-12,3.81846e-38,-1.57181e-06,-3.2605e-12,3.81822e-38,0,0,0,0,-7.47695,-1.67343,0.00484942,0,0,0,0,0,-5.84342,-1.67343,382,119,382,119,439,116,385,181,0,-0.0348889,0,-1.5,3.94113e+12,0,0,0,-5.83028,-1.64923,0,0,0,0,0.0509356,0.0938196,3835,-5.84342,-1.67343,0.0509356,0.0938196,11542,0,0,0,0,0,0
11812,-3.17831e-12,3.81846e-38,-1.57181e-06,-3.2605e-12,3.81822e-38,0,0,0,0,-7.47695,-1.67343,0.00484942,0,0,0,0,0,-5.84342,-1.67343,382,119,382,119,439,116,385,181,0,-0.0348889,0,-1.5,3.94113e+12,0,0,0,-5.82957,-1.64792,0,0,0,0,0.0509356,0.0938196,3835,-5.84342,-1.67343,0.0509356,0.0938196,11542,0,0,0,0,0,0
11827,-3.17831e-12,3.81846e-38,-1.57181e-06,-3.2605e-12,3.81822e-38,0,0,0,0,-7.47695,-1.67343,0.00484942,0,0,0,0,0,-5.84342,-1.67343,382,119,382,119,439,116,385,181,0,-0.0348889,0,-1.5,3.94113e+12,0,0,0,-5.8288,-1.64651,0,0,0,0,0.0509356,0.0938196,3835,-5.84342,-1.67343,0.0509356,0.0938196,11542,0,0,0,0,0,0
11843,-3.17831e-12,3.81846e-38,-1.57181e-06,-3.2605e-12,3.81822e-38,0,0,0,0,-7.47695,-1.67343,0.00484942,0,0,0,0,0,-5.84342,-1.67343,382,119,382,119,439,116,385,181,0,-0.0348889,0,-1.5,3.94113e+12,0,0,0,-5.82799,-1.64501,0,0,0,0,0.0509356,0.0938196,3835,-5.84342,-1.67343,0.0509356,0.0938196,11542,0,0,0,0,0,0
11859,-3.17831e-12,3.81846e-38,-1.57181e-06,-3.2605e-12,3.81822e-38,0,0,0,0,-7.47695,-1.67343,0.00484942,0,0,0,0,0,-5.84342,-1.67343,382,119,382,119,439,116,385,181,0,-0.0348889,0,-1.5,3.94113e+12,0,0,0,-5.82722,-1.6436,0,0,0,0,0.0509356,0.0938196,3835,-5.84342,-1.67343,0.0509356,0.0938196,11542,0,0,0,0,0,0
11874,-3.17831e-12,3.81846e-38,-1.57181e-06,-3.2605e-12,3.81822e-38,0,0,0,0,-7.47695,-1.67343,0.00484942,0,0,0,0,0,-5.84342,-1.67343,382,119,382,119,439,116,385,181,0,-0.0348889,0,-1.5,3.94113e+12,0,0,0,-5.82641,-1.6421,0,0,0,0,0.0509356,0.0938196,3835,-5.84342,-1.67343,0.0509356,0.0938196,11542,0,0,0,0,0,0
11890,-3.17831e-12,3.81846e-38,-1.57181e-06,-3.2605e-12,3.81822e-38,0,0,0,0,-7.47695,-1.67343,0.00484942,0,0,0,0,0,-5.84342,-1.67343,382,119,382,119,439,116,385,181,0,-0.0348889,0,-1.5,3.94113e+12,0,0,0,-5.82564,-1.64069,0,0,0,0,0.0509356,0.0938196,3835,-5.84342,-1.67343,0.0509356,0.0938196,11542,0,0,0,0,0,0
11905,-3.17831e-12,3.81846e-38,-1.57181e-06,-3.2605e-12,3.81822e-38,0,0,0,0,-7.47695,-1.67343,0.00484942,0,0,0,0,0,-5.84342,-1.67343,382,119,382,119,439,116,385,181,0,-0.0348889,0,-1.5,3.94113e+12,0,0,0,-5.82483,-1.63919,0,0,0,0,0.0509356,0.0938196,3835,-5.84342,-1.67343,0.0509356,0.0938196,11542,0,0,0,0,0,0
11921,-3.17831e-12,3.81846e-38,-1.57181e-06,-3.2605e-12,3.81822e-38,0,0,0,0,-7.47695,-1.67343,0.00484942,0,0,0,0,0,-5.84342,-1.67343,382,119,382,119,439,116,385,181,0,-0.0348889,0,-1.5,3.94113e+12,0,0,0,-5.82401,-1.63769,0,0,0,0,0.0509356,0.0938196,3835,-5.84342,-1.67343,0.0509356,0.0938196,11542,0,0,0,0,0,0
11936,-3.17831e-12,3.81846e-38,-1.57181e-06,-3.2605e-12,3.81822e-38,0,0,0,0,-7.47695,-1.67343,0.00484942,0,0,0,0,0,-5.84342,-1.67343,382,119,382,119,439,116,385,181,0,-0.0348889,0,-1.5,3.94113e+12,0,0,0,-5.82325,-1.63628,0,0,0,0,0.0509356,0.0938196,3835,-5.84342,-1.67343,0.0509356,0.0938196,11542,0,0,0,0,0,0
11952,-3.17831e-12,3.81846e-38,-1.57181e-06,-3.2605e-12,3.81822e-38,0,0,0,0,-7.47695,-1.67343,0.00484942,0,0,0,0,0,-5.84342,-1.67343,382,119,382,119,439,116,385,181,0,-0.0348889,0,-1.5,3.94113e+12,0,0,0,-5.82243,-1.63478,0,0,0,0,0.0509356,0.0938196,3835,-5.84342,-1.67343,0.0509356,0.0938196,11542,0,0,0,0,0,0
11968,-3.17831e-12,3.81846e-38,-1.57181e-06,-3.2605e-12,3.81822e-38,0,0,0,0,-7.47695,-1.67343,0.00484942,0,0,0,0,0,-5.84342,-1.67343,382,119,382,119,439,116,385,181,0,-0.0348889,0,-1.5,3.94113e+12,0,0,0,-5.82167,-1.63337,0,0,0,0,0.0509356,0.0938196,3835,-5.84342,-1.67343,0.0509356,0.0938196,11542,0,0,0,0,0,0
11983,-3.17831e-12,3.81846e-38,-1.57181e-06,-3.2605e-12,3.81822e-38,0,0,0,0,-7.47695,-1.67343,0.00484942,0,0,0,0,0,-5.84342,-1.67343,382,119,382,119,439,116,385,181,0,-0.0348889,0,-1.5,3.94113e+12,0,0,0,-5.82086,-1.63187,0,0,0,0,0.0509356,0.0938196,3835,-5.84342,-1.67343,0.0509356,0.0938196,11542,0,0,0,0,0,0
11997,-3.17831e-12,3.81846e-38,-1.57181e-06,-3.2605e-12,3.81822e-38,0,0,0,0,-7.47695,-1.67343,0.00484942,0,0,0,0,0,-5.84342,-1.67343,382,119,382,119,439,116,385,181,0,-0.0348889,0,-1.5,3.94113e+12,0,0,0,-5.82019,-1.63065,0,0,0,0,0.0509356,0.0938196,3835,-5.84342,-1.67343,0.0509356,0.0938196,11542,0,0,0,0,0,0
12010,-3.17831e-12,3.81846e-38,-1.57181e-06,-3.2605e-12,3.81822e-38,0,0,0,0,-7.47695,-1.67343,0.00484942,0,0,0,0,0,-5.84342,-1.67343,382,119,382,119,439,116,385,181,0,-0.0348889,0,-1.5,3.94113e+12,0,0,0,-5.81948,-1.62934,0,0,0,0,0.0509356,0.0938196,3835,-5.84342,-1.67343,0.0509356,0.0938196,11542,0,0,0,0,0,0
12026,-3.17831e-12,3.81846e-38,-1.57181e-06,-3.2605e-12,3.81822e-38,0,0,0,0,-7.47695,-1.67343,0.00484942,0,0,0,0,0,-5.84342,-1.67343,382,119,382,119,439,116,385,181,0,-0.0348889,0,-1.5,3.94113e+12,0,0,0,-5.81872,-1.62793,0,0,0,0,0.0509356,0.0938196,3835,-5.84342,-1.67343,0.0509356,0.0938196,11542,0,0,0,0,0,0
12042,-3.17831e-12,3.81846e-38,-1.57181e-06,-3.2605e-12,3.81822e-38,0,0,0,0,-7.47695,-1.67343,0.00484942,-5.81785,-1.62634,0.0509356,0.0938196,0,-5.84342,-1.67343,382,119,382,119,439,116,385,181,0,-0.0348889,0,-1.5,3.94113e+12,0,0,0,-5.81785,-1.62634,0,0,0,0,0.0509356,0.0938196,3835,0,0,0,0,11542,0,0,0,0,0,0
12057,-3.17831e-12,3.81846e-38,-1.57181e-06,-3.2605e-12,3.81822e-38,0,0,0,0,-7.47695,-1.67343,0.00484942,-5.81709,-1.62494,0.0505546,0.0931179,0,-5.84342,-1.67343,382,119,382,119,439,116,385,181,0,-0.0348889,0,-1.5,3.94113e+12,0,0,0,-5.81709,-1.62494,0,0,0,0,0.0505546,0.0931179,3835,0,0,0,0,11542,0,0,0,0,0,0
12073,-3.17831e-12,3.81846e-38,-1.57181e-06,-3.2605e-12,3.81822e-38,0,0,0,0,-7.47695,-1.67343,0.00484942,-5.81629,-1.62346,0.0501514,0.0923751,0,-5.84342,-1.67343,382,119,382,119,439,116,385,181,0,-0.0348889,0,-1.5,3.94113e+12,0,0,0,-5.81629,-1.62346,0,0,0,0,0.0501514,0.0923751,3835,0,0,0,0,11542,0,0,0,0,0,0
12088,-3.17831e-12,3.81846e-38,-1.57181e-06,-3.2605e-12,3.81822e-38,0,0,0,0,-7.47695,-1.67343,0.00484942,-5.81554,-1.62208,0.0497763,0.0916842,0,-5.84342,-1.67343,382,119,382,119,439,116,385,181,0,-0.0348889,0,-1.5,3.94113e+12,0,0,0,-5.81554,-1.62208,0,0,0,0,0.0497763,0.0916842,3835,0,0,0,0,11542,0,0,0,0,0,0
12103,-3.17831e-12,3.81846e-38,-1.57181e-06,-3.2605e-12,3.81822e-38,0,0,0,0,-7.47695,-1.67343,0.00484942,-5.81479,-1.62071,0.049404,0.0909984,0,-5.84342,-1.67343,382,119,382,119,439,116,385,181,0,-0.0348889,0,-1.5,3.94113e+12,0,0,0,-5.81479,-1.62071,0,0,0,0,0.049404,0.0909984,3835,0,0,0,0,11542,0,0,0,0,0,0
12119,-3.17831e-12,3.81846e-38,-1.57181e-06,-3.2605e-12,3.81822e-38,0,0,0,0,-7.47695,-1.67343,0.00484942,-5.81401,-1.61926,0.0490098,0.0902724,0,-5.84342,-1.67343,382,119,382,119,439,116,385,181,0,-0.0348889,0,-1.5,3.94113e+12,0,0,0,-5.81401,-1.61926,0,0,0,0,0.0490098,0.0902724,3835,0,0,0,0,11542,0,0,0,0,0,0
12134,-3.17831e-12,3.81846e-38,-1.57181e-06,-3.2605e-12,3.81822e-38,0,0,0,0,-7.47695,-1.67343,0.00484942,-5.81328,-1.61791,0.0486432,0.0895972,0,-5.84342,-1.67343,382,119,382,119,439,116,385,181,0,-0.0348889,0,-1.5,3.94113e+12,0,0,0,-5.81328,-1.61791,0,0,0,0,0.0486432,0.0895972,3835,0,0,0,0,11542,0,0,0,0,0,0
12150,-3.17831e-12,3.81846e-38,-1.57181e-06,-3.2605e-12,3.81822e-38,0,0,0,0,-7.47695,-1.67343,0.00484942,-5.8125,-1.61649,0.0482552,0.0888824,0,-5.84342,-1.67343,382,119,382,119,439,116,385,181,0,-0.0348889,0,-1.5,3.94113e+12,0,0,0,-5.8125,-1.61649,0,0,0,0,0.0482552,0.0888824,3835,0,0,0,0,11542,0,0,0,0,0,0
12166,-3.17831e-12,3.81846e-38,-1.57181e-06,-3.2605e-12,3.81822e-38,0,0,0,0,-7.47695,-1.67343,0.00484942,-5.81173,-1.61507,0.0478702,0.0881734,0,-5.84342,-1.67343,382,119,382,119,439,116,385,181,0,-0.0348889,0,-1.5,3.94113e+12,0,0,0,-5.81173,-1.61507,0,0,0,0,0.0478702,0.0881734,3835,0,0,0,0,11542,0,0,0,0,0,0
12182,-3.17831e-12,3.81846e-38,-1.57181e-06,-3.2605e-12,3.81822e-38,0,0,0,0,-7.47695,-1.67343,0.00484942,-5.81102,-1.61375,0.0475122,0.0875138,0,-5.84342,-1.67343,382,119,382,119,439,116,385,181,0,-0.0348889,0,-1.5,3.94113e+12,0,0,0,-5.81102,-1.61375,0,0,0,0,0.0475122,0.0875138,3835,0,0,0,0,11542,0,0,0,0,0,0
12197,-3.17831e-12,3.81846e-38,-1.57181e-06,-3.2605e-12,3.81822e-38,0,0,0,0,-7.47695,-1.67343,0.00484942,-5.81026,-1.61236,0.0471332,0.0868157,0,-5.84342,-1.67343,382,119,382,119,439,116,385,181,0,-0.0348889,0,-1.5,3.94113e+12,0,0,0,-5.81026,-1.61236,0,0,0,0,0.0471332,0.0868157,3835,0,0,0,0,11542,0,0,0,0,0,0
12211,-3.17831e-12,3.81846e-38,-1.57181e-06,-3.2605e-12,3.81822e-38,0,0,0,0,-7.47695,-1.67343,0.00484942,-5.80961,-1.61115,0.0468041,0.0862097,0,-5.84342,-1.67343,382,119,382,119,439,116,385,181,0,-0.0348889,0,-1.5,3.94113e+12,0,0,0,-5.80961,-1.61115,0,0,0,0,0.0468041,0.0862097,3835,0,0,0,0,11542,0,0,0,0,0,0
12226,-3.17831e-12,3.81846e-38,-1.57181e-06,-3.2605e-12,3.81822e-38,0,0,0,0,-7.47695,-1.67343,0.00484942,-5.80891,-1.60986,0.0464541,0.0855649,0,-5.84342,-1.67343,382,119,382,119,439,116,385,181,0,-0.0348889,0,-1.5,3.94113e+12,0,0,0,-5.80891,-1.60986,0,0,0,0,0.0464541,0.0855649,3835,0,0,0,0,11542,0,0,0,0,0,0
12242,-3.17831e-12,3.81846e-38,-1.57181e-06,-3.2605e-12,3.81822e-38,0,0,0,0,-7.47695,-1.67343,0.00484942,-5.80817,-1.6085,0.0460835,0.0848823,0,-5.84342,-1.67343,382,119,382,119,439,116,385,181,0,-0.0348889,0,-1.5,3.94113e+12,0,0,0,-5.80817,-1.6085,0,0,0,0,0.0460835,0.0848823,3835,0,0,0,0,11542,0,0,0,0,0,0
12258,-3.17831e-12,3.81846e-38,-1.57181e-06,-3.2605e-12,3.81822e-38,0,0,0,0,-7.47695,-1.67343,0.00484942,-5.80748,-1.60724,0.0457388,0.0842473,0,-5.84342,-1.67343,382,119,382,119,439,116,385,181,0,-0.0348889,0,-1.5,3.94113e+12,0,0,0,-5.80748,-1.60724,0,0,0,0,0.0457388,0.0842473,3835,0,0,0,0,11542,0,0,0,0,0,0
12273,-3.17831e-12,3.81846e-38,-1.57181e-06,-3.2605e-12,3.81822e-38,0,0,0,0,-7.47695,-1.67343,0.00484942,-5.80675,-1.60589,0.0453739,0.0835753,0,-5.84342,-1.67343,382,119,382,119,439,116,385,181,0,-0.0348889,0,-1.5,3.94113e+12,0,0,0,-5.80675,-1.60589,0,0,0,0,0.0453739,0.0835753,3835,0,0,0,0,11542,0,0,0,0,0,0
12288,-3.17831e-12,3.81846e-38,-1.57181e-06,-3.2605e-12,3.81822e-38,0,0,0,0,-7.47695,-1.67343,0.00484942,-5.80608,-1.60465,0.0450345,0.0829502,0,-5.84342,-1.67343,382,119,382,119,439,116,385,181,0,-0.0348889,0,-1.5,3.94113e+12,0,0,0,-5.80608,-1.60465,0,0,0,0,0.0450345,0.0829502,3835,0,0,0,0,11542,0,0,0,0,0,0
12304,-3.17831e-12,3.81846e-38,-1.57181e-06,-3.2605e-12,3.81822e-38,0,0,0,0,-7.47695,-1.67343,0.00484942,-5.80536,-1.60333,0.0446753,0.0822885,0,-5.84342,-1.67343,382,119,382,119,439,116,385,181,0,-0.0348889,0,-1.5,3.94113e+12,0,0,0,-5.80536,-1.60333,0,0,0,0,0.0446753,0.0822885,3835,0,0,0,0,11542,0,0,0,0,0,0
12320,-3.17831e-12,3.81846e-38,-1.57181e-06,-3.2605e-12,3.81822e-38,0,0,0,0,-7.47695,-1.67343,0.00484942,-5.80465,-1.60202,0.0443189,0.0816321,0,-5.84342,-1.67343,382,119,382,119,439,116,385,181,0,-0.0348889,0,-1.5,3.94113e+12,0,0,0,-5.80465,-1.60202,0,0,0,0,0.0443189,0.0816321,3835,0,0,0,0,11542,0,0,0,0,0,0
12335,-3.17831e-12,3.81846e-38,-1.57181e-06,-3.2605e-12,3.81822e-38,0,0,0,0,-7.47695,-1.67343,0.00484942,-5.80399,-1.6008,0.0439874,0.0810215,0,-5.84342,-1.67343,382,119,382,119,439,116,385,181,0,-0.0348889,0,-1.5,3.94113e+12,0,0,0,-5.80399,-1.6008,0,0,0,0,0.0439874,0.0810215,3835,0,0,0,0,11542,0,0,0,0,0,0
12351,-3.17831e-12,3.81846e-38,-1.57181e-06,-3.2605e-12,3.81822e-38,0,0,0,0,-7.47695,-1.67343,0.00484942,-5.80329,-1.59951,0.0436365,0.0803751,0,-5.84342,-1.67343,382,119,382,119,439,116,385,181,0,-0.0348889,0,-1.5,3.94113e+12,0,0,0,-5.80329,-1.59951,0,0,0,0,0.0436365,0.0803751,3835,0,0,0,0,11542,0,0,0,0,0,0
12367,-3.17831e-12,3.81846e-38,-1.57181e-06,-3.2605e-12,3.81822e-38,0,0,0,0,-7.47695,-1.67343,0.00484942,-5.80263,-1.59831,0.0433101,0.0797739,0,-5.84342,-1.67343,382,119,382,119,439,116,385,181,0,-0.0348889,0,-1.5,3.94113e+12,0,0,0,-5.80263,-1.59831,0,0,0,0,0.0433101,0.0797739,3835,0,0,0,0,11542,0,0,0,0,0,0
12382,-3.17831e-12,3.81846e-38,-1.57181e-06,-3.2605e-12,3.81822e-38,0,0,0,0,-7.47695,-1.67343,0.00484942,-5.80194,-1.59704,0.0429645,0.0791374,0,-5.84342,-1.67343,382,119,382,119,439,116,385,181,0,-0.0348889,0,-1.5,3.94113e+12,0,0,0,-5.80194,-1.59704,0,0,0,0,0.0429645,0.0791374,3835,0,0,0,0,11542,0,0,0,0,0,0
12398,-3.17831e-12,3.81846e-38,-1.57181e-06,-3.2605e-12,3.81822e-38,0,0,0,0,-7.47695,-1.67343,0.00484942,-5.80126,-1.59578,0.0426218,0.0785062,0,-5.84342,-1.67343,382,119,382,119,439,116,385,181,0,-0.0348889,0,-1.5,3.94113e+12,0,0,0,-5.80126,-1.59578,0,0,0,0,0.0426218,0.0785062,3835,0,0,0,0,11542,0,0,0,0,0,0
12412,-3.17831e-12,3.81846e-38,-1.57181e-06,-3.2605e-12,3.81822e-38,0,0,0,0,-7.47695,-1.67343,0.00484942,-5.80067,-1.59468,0.0423243,0.0779581,0,-5.84342,-1.67343,382,119,382,119,439,116,385,181,0,-0.0348889,0,-1.5,3.94113e+12,0,0,0,-5.80067,-1.59468,0,0,0,0,0.0423243,0.0779581,3835,0,0,0,0,11542,0,0,0,0,0,0
12427,-3.17831e-12,3.81846e-38,-1.57181e-06,-3.2605e-12,3.81822e-38,0,0,0,0,-7.47695,-1.67343,0.00484942,-5.80003,-1.59352,0.0420077,0.077375,0,-5.84342,-1.67343,382,119,382,119,439,116,385,181,0,-0.0348889,0,-1.5,3.94113e+12,0,0,0,-5.80003,-1.59352,0,0,0,0,0.0420077,0.077375,3835,0,0,0,0,11542,0,0,0,0,0,0
12443,-3.17831e-12,3.81846e-38,-1.57181e-06,-3.2605e-12,3.81822e-38,0,0,0,0,-7.47695,-1.67343,0.00484942,-5.79937,-1.59229,0.0416725,0.0767577,0,-5.84342,-1.67343,382,119,382,119,439,116,385,181,0,-0.0348889,0,-1.5,3.94113e+12,0,0,0,-5.79937,-1.59229,0,0,0,0,0.0416725,0.0767577,3835,0,0,0,0,11542,0,0,0,0,0,0
12459,-3.17831e-12,3.81846e-38,-1.57181e-06,-3.2605e-12,3.81822e-38,0,0,0,0,-7.47695,-1.67343,0.00484942,-5.79874,-1.59114,0.0413608,0.0761835,0,-5.84342,-1.67343,382,119,382,119,439,116,385,181,0,-0.0348889,0,-1.5,3.94113e+12,0,0,0,-5.79874,-1.59114,0,0,0,0,0.0413608,0.0761835,3835,0,0,0,0,11542,0,0,0,0,0,0
12474,-3.17831e-12,3.81846e-38,-1.57181e-06,-3.2605e-12,3.81822e-38,0,0,0,0,-7.47695,-1.67343,0.00484942,-5.79808,-1.58993,0.0410309,0.0755757,0,-5.84342,-1.67343,382,119,382,119,439,116,385,181,0,-0.0348889,0,-1.5,3.94113e+12,0,0,0,-5.79808,-1.58993,0,0,0,0,0.0410309,0.0755757,3835,0,0,0,0,11542,0,0,0,0,0,0
12490,-3.17831e-12,3.81846e-38,-1.57181e-06,-3.2605e-12,3.81822e-38,0,0,0,0,-7.47695,-1.67343,0.00484942,-5.79747,-1.5888,0.0407239,0.0750104,0,-5.84342,-1.67343,382,119,382,119,439,116,385,181,0,-0.0348889,0,-1.5,3.94113e+12,0,0,0,-5.79747,-1.5888,0,0,0,0,0.0407239,0.0750104,3835,0,0,0,0,11542,0,0,0,0,0,0
12505,-3.17831e-12,3.81846e-38,-1.57181e-06,-3.2605e-12,3.81822e-38,0,0,0,0,-7.47695,-1.67343,0.00484942,-5.79682,-1.58761,0.0403991,0.0744121,0,-5.84342,-1.67343,382,119,382,119,439,116,385,181,0,-0.0348889,0,-1.5,3.94113e+12,0,0,0,-5.79682,-1.58761,0,0,0,0,0.0403991,0.0744121,3835,0,0,0,0,11542,0,0,0,0,0,0
12521,-3.17831e-12,3.81846e-38,-1.57181e-06,-3.2605e-12,3.81822e-38,0,0,0,0,-7.47695,-1.67343,0.00484942,-5.79618,-1.58642,0.0400768,0.0738185,0,-5.84342,-1.67343,382,119,382,119,439,116,385,181,0,-0.0348889,0,-1.5,3.94113e+12,0,0,0,-5.79618,-1.58642,0,0,0,0,0.0400768,0.0738185,3835,0,0,0,0,11542,0,0,0,0,0,0
12536,-3.17831e-12,3.81846e-38,-1.57181e-06,-3.2605e-12,3.81822e-38,0,0,0,0,-7.47695,-1.67343,0.00484942,-5.79558,-1.58532,0.0397771,0.0732664,0,-5.84342,-1.67343,382,119,382,119,439,116,385,181,0,-0.0348889,0,-1.5,3.94113e+12,0,0,0,-5.79558,-1.58532,0,0,0,0,0.0397771,0.0732664,3835,0,0,0,0,11542,0,0,0,0,0,0
12552,-3.17831e-12,3.81846e-38,-1.57181e-06,-3.2605e-12,3.81822e-38,0,0,0,0,-7.47695,-1.67343,0.00484942,-5.79495,-1.58416,0.0394597,0.0726818,0,-5.84342,-1.67343,382,119,382,119,439,116,385,181,0,-0.0348889,0,-1.5,3.94113e+12,0,0,0,-5.79495,-1.58416,0,0,0,0,0.0394597,0.0726818,3835,0,0,0,0,11542,0,0,0,0,0,0
12567,-3.17831e-12,3.81846e-38,-1.57181e-06,-3.2605e-12,3.81822e-38,0,0,0,0,-7.47695,-1.67343,0.00484942,-5.79436,-1.58307,0.0391646,0.0721382,0,-5.84342,-1.67343,382,119,382,119,439,116,385,181,0,-0.0348889,0,-1.5,3.94113e+12,0,0,0,-5.79436,-1.58307,0,0,0,0,0.0391646,0.0721382,3835,0,0,0,0,11542,0,0,0,0,0,0
12583,-3.17831e-12,3.81846e-38,-1.57181e-06,-3.2605e-12,3.81822e-38,0,0,0,0,-7.47695,-1.67343,0.00484942,-5.79374,-1.58192,0.0388521,0.0715627,0,-5.84342,-1.67343,382,119,382,119,439,116,385,181,0,-0.0348889,0,-1.5,3.94113e+12,0,0,0,-5.79374,-1.58192,0,0,0,0,0.0388521,0.0715627,3835,0,0,0,0,11542,0,0,0,0,0,0
12601,-3.17831e-12,3.81846e-38,-1.57181e-06,-3.2605e-12,3.81822e-38,0,0,0,0,-7.47695,-1.67343,0.00484942,-5.79304,-1.58064,0.0385035,0.0709205,0,-5.84342,-1.67343,382,119,382,119,439,116,385,181,0,-0.0348889,0,-1.5,3.94113e+12,0,0,0,-5.79304,-1.58064,0,0,0,0,0.0385035,0.0709205,3835,0,0,0,0,11542,0,0,0,0,0,0
12616,-3.17831e-12,3.81846e-38,-1.57181e-06,-3.2605e-12,3.81822e-38,0,0,0,0,-7.47695,-1.67343,0.00484942,-5.79247,-1.57958,0.0382155,0.0703901,0,-5.84342,-1.67343,382,119,382,119,439,116,385,181,0,-0.0348889,0,-1.5,3.94113e+12,0,0,0,-5.79247,-1.57958,0,0,0,0,0.0382155,0.0703901,3835,0,0,0,0,11542,0,0,0,0,0,0
12629,-3.17831e-12,3.81846e-38,-1.57181e-06,-3.2605e-12,3.81822e-38,0,0,0,0,-7.47695,-1.67343,0.00484942,-5.79197,-1.57867,0.0379677,0.0699337,0,-5.84342,-1.67343,382,119,382,119,439,116,385,181,0,-0.0348889,0,-1.5,3.94113e+12,0,0,0,-5.79197,-1.57867,0,0,0,0,0.0379677,0.0699337,3835,0,0,0,0,11542,0,0,0,0,0,0
12645,-3.17831e-12,3.81846e-38,-1.57181e-06,-3.2605e-12,3.81822e-38,0,0,0,0,-7.47695,-1.67343,0.00484942,-5.79137,-1.57756,0.0376649,0.0693759,0,-5.84342,-1.67343,382,119,382,119,439,116,385,181,0,-0.0348889,0,-1.5,3.94113e+12,0,0,0,-5.79137,-1.57756,0,0,0,0,0.0376649,0.0693759,3835,0,0,0,0,11542,0,0,0,0,0,0
12660,-3.17831e-12,3.81846e-38,-1.57181e-06,-3.2605e-12,3.81822e-38,0,0,0,0,-7.47695,-1.67343,0.00484942,-5.79081,-1.57652,0.0373832,0.0688569,0,-5.84342,-1.67343,382,119,382,119,439,116,385,181,0,-0.0348889,0,-1.5,3.94113e+12,0,0,0,-5.79081,-1.57652,0,0,0,0,0.0373832,0.0688569,3835,0,0,0,0,11542,0,0,0,0,0,0
12676,-3.17831e-12,3.81846e-38,-1.57181e-06,-3.2605e-12,3.81822e-38,0,0,0,0,-7.47695,-1.67343,0.00484942,-5.79021,-1.57543,0.0370849,0.0683076,0,-5.84342,-1.67343,382,119,382,119,439,116,385,181,0,-0.0348889,0,-1.5,3.94113e+12,0,0,0,-5.79021,-1.57543,0,0,0,0,0.0370849,0.0683076,3835,0,0,0,0,11542,0,0,0,0,0,0
12691,-3.17831e-12,3.81846e-38,-1.57181e-06,-3.2605e-12,3.81822e-38,0,0,0,0,-7.47695,-1.67343,0.00484942,-5.78966,-1.57441,0.0368075,0.0677967,0,-5.84342,-1.67343,382,119,382,119,439,116,385,181,0,-0.0348889,0,-1.5,3.94113e+12,0,0,0,-5.78966,-1.57441,0,0,0,0,0.0368075,0.0677967,3835,0,0,0,0,11542,0,0,0,0,0,0
12707,-3.17831e-12,3.81846e-38,-1.57181e-06,-3.2605e-12,3.81822e-38,0,0,0,0,-7.47695,-1.67343,0.00484942,-5.78907,-1.57333,0.0365139,0.0672559,0,-5.84342,-1.67343,382,119,382,119,439,116,385,181,0,-0.0348889,0,-1.5,3.94113e+12,0,0,0,-5.78907,-1.57333,0,0,0,0,0.0365139,0.0672559,3835,0,0,0,0,11542,0,0,0,0,0,0
12722,-3.17831e-12,3.81846e-38,-1.57181e-06,-3.2605e-12,3.81822e-38,0,0,0,0,-7.47695,-1.67343,0.00484942,-5.78853,-1.57233,0.0362408,0.0667528,0,-5.84342,-1.67343,382,119,382,119,439,116,385,181,0,-0.0348889,0,-1.5,3.94113e+12,0,0,0,-5.78853,-1.57233,0,0,0,0,0.0362408,0.0667528,3835,0,0,0,0,11542,0,0,0,0,0,0
12738,-3.17831e-12,3.81846e-38,-1.57181e-06,-3.2605e-12,3.81822e-38,0,0,0,0,-7.47695,-1.67343,0.00484942,-5.78799,-1.57133,0.0359697,0.0662535,0,-5.84342,-1.67343,382,119,382,119,439,116,385,181,0,-0.0348889,0,-1.5,3.94113e+12,0,0,0,-5.78799,-1.57133,0,0,0,0,0.0359697,0.0662535,3835,0,0,0,0,11542,0,0,0,0,0,0
12753,-3.17831e-12,3.81846e-38,-1.57181e-06,-3.2605e-12,3.81822e-38,0,0,0,0,-7.47695,-1.67343,0.00484942,-5.78741,-1.57027,0.0356827,0.0657249,0,-5.84342,-1.67343,382,119,382,119,439,116,385,181,0,-0.0348889,0,-1.5,3.94113e+12,0,0,0,-5.78741,-1.57027,0,0,0,0,0.0356827,0.0657249,3835,0,0,0,0,11542,0,0,0,0,0,0
12769,-3.17831e-12,3.81846e-38,-1.57181e-06,-3.2605e-12,3.81822e-38,0,0,0,0,-7.47695,-1.67343,0.00484942,-5.78688,-1.56929,0.0354158,0.0652333,0,-5.84342,-1.67343,382,119,382,119,439,116,385,181,0,-0.0348889,0,-1.5,3.94113e+12,0,0,0,-5.78688,-1.56929,0,0,0,0,0.0354158,0.0652333,3835,0,0,0,0,11542,0,0,0,0,0,0
12784,-3.17831e-12,3.81846e-38,-1.57181e-06,-3.2605e-12,3.81822e-38,0,0,0,0,-7.47695,-1.67343,0.00484942,-5.78632,-1.56825,0.0351333,0.0647129,0,-5.84342,-1.67343,382,119,382,119,439,116,385,181,0,-0.0348889,0,-1.5,3.94113e+12,0,0,0,-5.78632,-1.56825,0,0,0,0,0.0351333,0.0647129,3835,0,0,0,0,11542,0,0,0,0,0,0
12800,-3.17831e-12,3.81846e-38,-1.57181e-06,-3.2605e-12,3.81822e-38,0,0,0,0,-7.47695,-1.67343,0.00484942,-5.78576,-1.56722,0.034853,0.0641966,0,-5.84342,-1.67343,382,119,382,119,439,116,385,181,0,-0.0348889,0,-1.5,3.94113e+12,0,0,0,-5.78576,-1.56722,0,0,0,0,0.034853,0.0641966,3835,0,0,0,0,11542,0,0,0,0,0,0
12814,-3.17831e-12,3.81846e-38,-1.57181e-06,-3.2605e-12,3.81822e-38,0,0,0,0,-7.47695,-1.67343,0.00484942,-5.78527,-1.56633,0.0346097,0.0637485,0,-5.84342,-1.67343,382,119,382,119,439,116,385,181,0,-0.0348889,0,-1.5,3.94113e+12,0,0,0,-5.78527,-1.56633,0,0,0,0,0.0346097,0.0637485,3835,0,0,0,0,11542,0,0,0,0,0,0
12827,-3.17831e-12,3.81846e-38,-1.57181e-06,-3.2605e-12,3.81822e-38,0,0,0,0,-7.47695,-1.67343,0.00484942,-5.78482,-1.5655,0.0343853,0.0633352,0,-5.84342,-1.67343,382,119,382,119,439,116,385,181,0,-0.0348889,0,-1.5,3.94113e+12,0,0,0,-5.78482,-1.5655,0,0,0,0,0.0343853,0.0633352,3835,0,0,0,0,11542,0,0,0,0,0,0
12843,-3.17831e-12,3.81846e-38,-1.57181e-06,-3.2605e-12,3.81822e-38,0,0,0,0,-7.47695,-1.67343,0.00484942,-5.78427,-1.5645,0.034111,0.0628299,0,-5.84342,-1.67343,382,119,382,119,439,116,385,181,0,-0.0348889,0,-1.5,3.94113e+12,0,0,0,-5.78427,-1.5645,0,0,0,0,0.034111,0.0628299,3835,0,0,0,0,11542,0,0,0,0,0,0
12858,-3.17831e-12,3.81846e-38,-1.57181e-06,-3.2605e-12,3.81822e-38,0,0,0,0,-7.47695,-1.67343,0.00484942,-5.78377,-1.56356,0.0338559,0.06236,0,-5.84342,-1.67343,382,119,382,119,439,116,385,181,0,-0.0348889,0,-1.5,3.94113e+12,0,0,0,-5.78377,-1.56356,0,0,0,0,0.0338559,0.06236,3835,0,0,0,0,11542,0,0,0,0,0,0
12874,-3.17831e-12,3.81846e-38,-1.57181e-06,-3.2605e-12,3.81822e-38,0,0,0,0,-7.47695,-1.67343,0.00484942,-5.78323,-1.56257,0.0335858,0.0618626,0,-5.84342,-1.67343,382,119,382,119,439,116,385,181,0,-0.0348889,0,-1.5,3.94113e+12,0,0,0,-5.78323,-1.56257,0,0,0,0,0.0335858,0.0618626,3835,0,0,0,0,11542,0,0,0,0,0,0
12889,-3.17831e-12,3.81846e-38,-1.57181e-06,-3.2605e-12,3.81822e-38,0,0,0,0,-7.47695,-1.67343,0.00484942,-5.78273,-1.56164,0.0333346,0.0613999,0,-5.84342,-1.67343,382,119,382,119,439,116,385,181,0,-0.0348889,0,-1.5,3.94113e+12,0,0,0,-5.78273,-1.56164,0,0,0,0,0.0333346,0.0613999,3835,0,0,0,0,11542,0,0,0,0,0,0
12904,-3.17831e-12,3.81846e-38,-1.57181e-06,-3.2605e-12,3.81822e-38,0,0,0,0,-7.47695,-1.67343,0.00484942,-5.78223,-1.56073,0.0330853,0.0609406,0,-5.84342,-1.67343,382,119,382,119,439,116,385,181,0,-0.0348889,0,-1.5,3.94113e+12,0,0,0,-5.78223,-1.56073,0,0,0,0,0.0330853,0.0609406,3835,0,0,0,0,11542,0,0,0,0,0,0
12920,-3.17831e-12,3.81846e-38,-1.57181e-06,-3.2605e-12,3.81822e-38,0,0,0,0,-7.47695,-1.67343,0.00484942,-5.7817,-1.55976,0.0328213,0.0604544,0,-5.84342,-1.67343,382,119,382,119,439,116,385,181,0,-0.0348889,0,-1.5,3.94113e+12,0,0,0,-5.7817,-1.55976,0,0,0,0,0.0328213,0.0604544,3835,0,0,0,0,11542,0,0,0,0,0,0
12936,-3.17831e-12,3.81846e-38,-1.57181e-06,-3.2605e-12,3.81822e-38,0,0,0,0,-7.47695,-1.67343,0.00484942,-5.78121,-1.55885,0.0325758,0.0600022,0,-5.84342,-1.67343,382,119,382,119,439,116,385,181,0,-0.0348889,0,-1.5,3.94113e+12,0,0,0,-5.78121,-1.55885,0,0,0,0,0.0325758,0.0600022,3835,0,0,0,0,11542,0,0,0,0,0,0
12951,-3.17831e-12,3.81846e-38,-1.57181e-06,-3.2605e-12,3.81822e-38,0,0,0,0,-7.47695,-1.67343,0.00484942,-5.78069,-1.5579,0.0323159,0.0595235,0,-5.84342,-1.67343,382,119,382,119,439,116,385,181,0,-0.0348889,0,-1.5,3.94113e+12,0,0,0,-5.78069,-1.5579,0,0,0,0,0.0323159,0.0595235,3835,0,0,0,0,11542,0,0,0,0,0,0
12967,-3.17831e-12,3.81846e-38,-1.57181e-06,-3.2605e-12,3.81822e-38,0,0,0,0,-7.47695,-1.67343,0.00484942,-5.78018,-1.55695,0.0320582,0.0590487,0,-5.84342,-1.67343,382,119,382,119,439,116,385,181,0,-0.0348889,0,-1.5,3.94113e+12,0,0,0,-5.78018,-1.55695,0,0,0,0,0.0320582,0.0590487,3835,0,0,0,0,11542,0,0,0,0,0,0
12983,-3.17831e-12,3.81846e-38,-1.57181e-06,-3.2605e-12,3.81822e-38,0,0,0,0,-7.47695,-1.67343,0.00484942,-5.77967,-1.55601,0.0318024,0.0585777,0,-5.84342,-1.67343,382,119,382,119,439,116,385,181,0,-0.0348889,0,-1.5,3.94113e+12,0,0,0,-5.77967,-1.55601,0,0,0,0,0.0318024,0.0585777,3835,0,0,0,0,11542,0,0,0,0,0,0
12998,-3.17831e-12,3.81846e-38,-1.57181e-06,-3.2605e-12,3.81822e-38,0,0,0,0,-7.47695,-1.67343,0.00484942,-5.77919,-1.55514,0.0315646,0.0581395,0,-5.84342,-1.67343,382,119,382,119,439,116,385,181,0,-0.0348889,0,-1.5,3.94113e+12,0,0,0,-5.77919,-1.55514,0,0,0,0,0.0315646,0.0581395,3835,0,0,0,0,11542,0,0,0,0,0,0
13012,-3.17831e-12,3.81846e-38,-1.57181e-06,-3.2605e-12,3.81822e-38,0,0,0,0,-7.47695,-1.67343,0.00484942,-5.77875,-1.55433,0.0313442,0.0577337,0,-5.84342,-1.67343,382,119,382,119,439,116,385,181,0,-0.0348889,0,-1.5,3.94113e+12,0,0,0,-5.77875,-1.55433,0,0,0,0,0.0313442,0.0577337,3835,0,0,0,0,11542,0,0,0,0,0,0
13025,-3.17831e-12,3.81846e-38,-1.57181e-06,-3.2605e-12,3.81822e-38,0,0,0,0,-7.47695,-1.67343,0.00484942,-5.77835,-1.55358,0.031141,0.0573593,0,-5.84342,-1.67343,382,119,382,119,439,116,385,181,0,-0.0348889,0,-1.5,3.94113e+12,0,0,0,-5.77835,-1.55358,0,0,0,0,0.031141,0.0573593,3835,0,0,0,0,11542,0,0,0,0,0,0
13041,-3.17831e-12,3.81846e-38,-1.57181e-06,-3.2605e-12,3.81822e-38,0,0,0,0,-7.47695,-1.67343,0.00484942,-5.77788,-1.55272,0.030908,0.0569303,0,-5.84342,-1.67343,382,119,382,119,439,116,385,181,0,-0.0348889,0,-1.5,3.94113e+12,0,0,0,-5.77788,-1.55272,0,0,0,0,0.030908,0.0569303,3835,0,0,0,0,11542,0,0,0,0,0,0
13056,-3.17831e-12,3.81846e-38,-1.57181e-06,-3.2605e-12,3.81822e-38,0,0,0,0,-7.47695,-1.67343,0.00484942,-5.77739,-1.55182,0.0306615,0.0564761,0,-5.84342,-1.67343,382,119,382,119,439,116,385,181,0,-0.0348889,0,-1.5,3.94113e+12,0,0,0,-5.77739,-1.55182,0,0,0,0,0.0306615,0.0564761,3835,0,0,0,0,11542,0,0,0,0,0,0
13072,-3.17831e-12,3.81846e-38,-1.57181e-06,-3.2605e-12,3.81822e-38,0,0,0,0,-7.47695,-1.67343,0.00484942,-5.77693,-1.55097,0.0304321,0.0560537,0,-5.84342,-1.67343,382,119,382,119,439,116,385,181,0,-0.0348889,0,-1.5,3.94113e+12,0,0,0,-5.77693,-1.55097,0,0,0,0,0.0304321,0.0560537,3835,0,0,0,0,11542,0,0,0,0,0,0
13087,-3.17831e-12,3.81846e-38,-1.57181e-06,-3.2605e-12,3.81822e-38,0,0,0,0,-7.47695,-1.67343,0.00484942,-5.77645,-1.55008,0.0301894,0.0556066,0,-5.84342,-1.67343,382,119,382,119,439,116,385,181,0,-0.0348889,0,-1.5,3.94113e+12,0,0,0,-5.77645,-1.55008,0,0,0,0,0.0301894,0.0556066,3835,0,0,0,0,11542,0,0,0,0,0,0
13102,-3.17831e-12,3.81846e-38,-1.57181e-06,-3.2605e-12,3.81822e-38,0,0,0,0,-7.47695,-1.67343,0.00484942,-5.77599,-1.54925,0.0299636,0.0551906,0,-5.84342,-1.67343,382,119,382,119,439,116,385,181,0,-0.0348889,0,-1.5,3.94113e+12,0,0,0,-5.77599,-1.54925,0,0,0,0,0.0299636,0.0551906,3835,0,0,0,0,11542,0,0,0,0,0,0
13118,-3.17831e-12,3.81846e-38,-1.57181e-06,-3.2605e-12,3.81822e-38,0,0,0,0,-7.47695,-1.67343,0.00484942,-5.77555,-1.54843,0.0297394,0.0547778,0,-5.84342,-1.67343,382,119,382,119,439,116,385,181,0,-0.0348889,0,-1.5,3.94113e+12,0,0,0,-5.77555,-1.54843,0,0,0,0,0.0297394,0.0547778,3835,0,0,0,0,11542,0,0,0,0,0,0
13133,-3.17831e-12,3.81846e-38,-1.57181e-06,-3.2605e-12,3.81822e-38,0,0,0,0,-7.47695,-1.67343,0.00484942,-5.77507,-1.54756,0.0295022,0.0543408,0,-5.84342,-1.67343,382,119,382,119,439,116,385,181,0,-0.0348889,0,-1.5,3.94113e+12,0,0,0,-5.77507,-1.54756,0,0,0,0,0.0295022,0.0543408,3835,0,0,0,0,11542,0,0,0,0,0,0
13148,-3.17831e-12,3.81846e-38,-1.57181e-06,-3.2605e-12,3.81822e-38,0,0,0,0,-7.47695,-1.67343,0.00484942,-5.77463,-1.54674,0.0292815,0.0539344,0,-5.84342,-1.67343,382,119,382,119,439,116,385,181,0,-0.0348889,0,-1.5,3.94113e+12,0,0,0,-5.77463,-1.54674,0,0,0,0,0.0292815,0.0539344,3835,0,0,0,0,11542,0,0,0,0,0,0
13164,-3.17831e-12,3.81846e-38,-1.57181e-06,-3.2605e-12,3.81822e-38,0,0,0,0,-7.47695,-1.67343,0.00484942,-5.77417,-1.54589,0.029048,0.0535041,0,-5.84342,-1.67343,382,119,382,119,439,116,385,181,0,-0.0348889,0,-1.5,3.94113e+12,0,0,0,-5.77417,-1.54589,0,0,0,0,0.029048,0.0535041,3835,0,0,0,0,11542,0,0,0,0,0,0
13179,-3.17831e-12,3.81846e-38,-1.57181e-06,-3.2605e-12,3.81822e-38,0,0,0,0,-7.47695,-1.67343,0.00484942,-5.77373,-1.54509,0.0288307,0.0531039,0,-5.84342,-1.67343,382,119,382,119,439,116,385,181,0,-0.0348889,0,-1.5,3.94113e+12,0,0,0,-5.77373,-1.54509,0,0,0,0,0.0288307,0.0531039,3835,0,0,0,0,11542,0,0,0,0,0,0
13195,-3.17831e-12,3.81846e-38,-1.57181e-06,-3.2605e-12,3.81822e-38,0,0,0,0,-7.47695,-1.67343,0.00484942,-5.77328,-1.54424,0.0286007,0.0526803,0,-5.84342,-1.67343,382,119,382,119,439,116,385,181,0,-0.0348889,0,-1.5,3.94113e+12,0,0,0,-5.77328,-1.54424,0,0,0,0,0.0286007,0.0526803,3835,0,0,0,0,11542,0,0,0,0,0,0
13210,-3.17831e-12,3.81846e-38,-1.57181e-06,-3.2605e-12,3.81822e-38,0,0,0,0,-7.47695,-1.67343,0.00484942,-5.77285,-1.54345,0.0283868,0.0522863,0,-5.84342,-1.67343,382,119,382,119,439,116,385,181,0,-0.0348889,0,-1.5,3.94113e+12,0,0,0,-5.77285,-1.54345,0,0,0,0,0.0283868,0.0522863,3835,0,0,0,0,11542,0,0,0,0,0,0
13224,-3.17831e-12,3.81846e-38,-1.57181e-06,-3.2605e-12,3.81822e-38,0,0,0,0,-7.47695,-1.67343,0.00484942,-5.77248,-1.54278,0.0282027,0.0519473,0,-5.84342,-1.67343,382,119,382,119,439,116,385,181,0,-0.0348889,0,-1.5,3.94113e+12,0,0,0,-5.77248,-1.54278,0,0,0,0,0.0282027,0.0519473,3835,0,0,0,0,11542,0,0,0,0,0,0
13239,-3.17831e-12,3.81846e-38,-1.57181e-06,-3.2605e-12,3.81822e-38,0,0,0,0,-7.47695,-1.67343,0.00484942,-5.77203,-1.54195,0.0279777,0.0515328,0,-5.84342,-1.67343,382,119,382,119,439,116,385,181,0,-0.0348889,0,-1.5,3.94113e+12,0,0,0,-5.77203,-1.54195,0,0,0,0,0.0279777,0.0515328,3835,0,0,0,0,11542,0,0,0,0,0,0
13255,-3.17831e-12,3.81846e-38,-1.57181e-06,-3.2605e-12,3.81822e-38,0,0,0,0,-7.47695,-1.67343,0.00484942,-5.77162,-1.54118,0.0277684,0.0511474,0,-5.84342,-1.67343,382,119,382,119,439,116,385,181,0,-0.0348889,0,-1.5,3.94113e+12,0,0,0,-5.77162,-1.54118,0,0,0,0,0.0277684,0.0511474,3835,0,0,0,0,11542,0,0,0,0,0,0
13270,-3.17831e-12,3.81846e-38,-1.57181e-06,-3.2605e-12,3.81822e-38,0,0,0,0,-7.47695,-1.67343,0.00484942,-5.77117,-1.54037,0.0275469,0.0507394,0,-5.84342,-1.67343,382,119,382,119,439,116,385,181,0,-0.0348889,0,-1.5,3.94113e+12,0,0,0,-5.77117,-1.54037,0,0,0,0,0.0275469,0.0507394,3835,0,0,0,0,11542,0,0,0,0,0,0
13285,-3.17831e-12,3.81846e-38,-1.57181e-06,-3.2605e-12,3.81822e-38,0,0,0,0,-7.47695,-1.67343,0.00484942,-5.77076,-1.53961,0.0273409,0.0503598,0,-5.84342,-1.67343,382,119,382,119,439,116,385,181,0,-0.0348889,0,-1.5,3.94113e+12,0,0,0,-5.77076,-1.53961,0,0,0,0,0.0273409,0.0503598,3835,0,0,0,0,11542,0,0,0,0,0,0
13301,-3.17831e-12,3.81846e-38,-1.57181e-06,-3.2605e-12,3.81822e-38,0,0,0,0,-7.47695,-1.67343,0.00484942,-5.77033,-1.53881,0.0271228,0.0499581,0,-5.84342,-1.67343,382,119,382,119,439,116,385,181,0,-0.0348889,0,-1.5,3.94113e+12,0,0,0,-5.77033,-1.53881,0,0,0,0,0.0271228,0.0499581,3835,0,0,0,0,11542,0,0,0,0,0,0
13316,-3.17831e-12,3.81846e-38,-1.57181e-06,-3.2605e-12,3.81822e-38,0,0,0,0,-7.47695,-1.67343,0.00484942,-5.76992,-1.53806,0.0269199,0.0495844,0,-5.84342,-1.67343,382,119,382,119,439,116,385,181,0,-0.0348889,0,-1.5,3.94113e+12,0,0,0,-5.76992,-1.53806,0,0,0,0,0.0269199,0.0495844,3835,0,0,0,0,11542,0,0,0,0,0,0
13331,-3.17831e-12,3.81846e-38,-1.57181e-06,-3.2605e-12,3.81822e-38,0,0,0,0,-7.47695,-1.67343,0.00484942,-5.76952,-1.53732,0.0267185,0.0492135,0,-5.84342,-1.67343,382,119,382,119,439,116,385,181,0,-0.0348889,0,-1.5,3.94113e+12,0,0,0,-5.76952,-1.53732,0,0,0,0,0.0267185,0.0492135,3835,0,0,0,0,11542,0,0,0,0,0,0
13347,-3.17831e-12,3.81846e-38,-1.57181e-06,-3.2605e-12,3.81822e-38,0,0,0,0,-7.47695,-1.67343,0.00484942,-5.76909,-1.53654,0.0265054,0.048821,0,-5.84342,-1.67343,382,119,382,119,439,116,385,181,0,-0.0348889,0,-1.5,3.94113e+12,0,0,0,-5.76909,-1.53654,0,0,0,0,0.0265054,0.048821,3835,0,0,0,0,11542,0,0,0,0,0,0
13362,-3.17831e-12,3.81846e-38,-1.57181e-06,-3.2605e-12,3.81822e-38,0,0,0,0,-7.47695,-1.67343,0.00484942,-5.7687,-1.53581,0.0263072,0.0484558,0,-5.84342,-1.67343,382,119,382,119,439,116,385,181,0,-0.0348889,0,-1.5,3.94113e+12,0,0,0,-5.7687,-1.53581,0,0,0,0,0.0263072,0.0484558,3835,0,0,0,0,11542,0,0,0,0,0,0
13377,-3.17831e-12,3.81846e-38,-1.57181e-06,-3.2605e-12,3.81822e-38,0,0,0,0,-7.47695,-1.67343,0.00484942,-5.7683,-1.53509,0.0261104,0.0480933,0,-5.84342,-1.67343,382,119,382,119,439,116,385,181,0,-0.0348889,0,-1.5,3.94113e+12,0,0,0,-5.7683,-1.53509,0,0,0,0,0.0261104,0.0480933,3835,0,0,0,0,11542,0,0,0,0,0,0
13393,-3.17831e-12,3.81846e-38,-1.57181e-06,-3.2605e-12,3.81822e-38,0,0,0,0,-7.47695,-1.67343,0.00484942,-5.76789,-1.53432,0.0259021,0.0477097,0,-5.84342,-1.67343,382,119,382,119,439,116,385,181,0,-0.0348889,0,-1.5,3.94113e+12,0,0,0,-5.76789,-1.53432,0,0,0,0,0.0259021,0.0477097,3835,0,0,0,0,11542,0,0,0,0,0,0
13411,-3.17831e-12,3.81846e-38,-1.57181e-06,-3.2605e-12,3.81822e-38,0,0,0,0,-7.47695,-1.67343,0.00484942,-5.76743,-1.53347,0.0256697,0.0472816,0,-5.84342,-1.67343,382,119,382,119,439,116,385,181,0,-0.0348889,0,-1.5,3.94113e+12,0,0,0,-5.76743,-1.53347,0,0,0,0,0.0256697,0.0472816,3835,0,0,0,0,11542,0,0,0,0,0,0
13425,-3.17831e-12,3.81846e-38,-1.57181e-06,-3.2605e-12,3.81822e-38,0,0,0,0,-7.47695,-1.67343,0.00484942,-5.76707,-1.53281,0.0254904,0.0469514,0,-5.84342,-1.67343,382,119,382,119,439,116,385,181,0,-0.0348889,0,-1.5,3.94113e+12,0,0,0,-5.76707,-1.53281,0,0,0,0,0.0254904,0.0469514,3835,0,0,0,0,11542,0,0,0,0,0,0
13438,-3.17831e-12,3.81846e-38,-1.57181e-06,-3.2605e-12,3.81822e-38,0,0,0,0,-7.47695,-1.67343,0.00484942,-5.76674,-1.5322,0.0253251,0.046647,0,-5.84342,-1.67343,382,119,382,119,439,116,385,181,0,-0.0348889,0,-1.5,3.94113e+12,0,0,0,-5.76674,-1.5322,0,0,0,0,0.0253251,0.046647,3835,0,0,0,0,11542,0,0,0,0,0,0
13454,-3.17831e-12,3.81846e-38,-1.57181e-06,-3.2605e-12,3.81822e-38,0,0,0,0,-7.47695,-1.67343,0.00484942,-5.76636,-1.5315,0.0251357,0.0462981,0,-5.84342,-1.67343,382,119,382,119,439,116,385,181,0,-0.0348889,0,-1.5,3.94113e+12,0,0,0,-5.76636,-1.5315,0,0,0,0,0.0251357,0.0462981,3835,0,0,0,0,11542,0,0,0,0,0,0
13469,-3.17831e-12,3.81846e-38,-1.57181e-06,-3.2605e-12,3.81822e-38,0,0,0,0,-7.47695,-1.67343,0.00484942,-5.76596,-1.53077,0.0249352,0.0459288,0,-5.84342,-1.67343,382,119,382,119,439,116,385,181,0,-0.0348889,0,-1.5,3.94113e+12,0,0,0,-5.76596,-1.53077,0,0,0,0,0.0249352,0.0459288,3835,0,0,0,0,11542,0,0,0,0,0,0
13484,-3.17831e-12,3.81846e-38,-1.57181e-06,-3.2605e-12,3.81822e-38,0,0,0,0,-7.47695,-1.67343,0.00484942,-5.76559,-1.53008,0.0247487,0.0455852,0,-5.84342,-1.67343,382,119,382,119,439,116,385,181,0,-0.0348889,0,-1.5,3.94113e+12,0,0,0,-5.76559,-1.53008,0,0,0,0,0.0247487,0.0455852,3835,0,0,0,0,11542,0,0,0,0,0,0
13500,-3.17831e-12,3.81846e-38,-1.57181e-06,-3.2605e-12,3.81822e-38,0,0,0,0,-7.47695,-1.67343,0.00484942,-5.76522,-1.5294,0.0245636,0.0452443,0,-5.84342,-1.67343,382,119,382,119,439,116,385,181,0,-0.0348889,0,-1.5,3.94113e+12,0,0,0,-5.76522,-1.5294,0,0,0,0,0.0245636,0.0452443,3835,0,0,0,0,11542,0,0,0,0,0,0
13515,-3.17831e-12,3.81846e-38,-1.57181e-06,-3.2605e-12,3.81822e-38,0,0,0,0,-7.47695,-1.67343,0.00484942,-5.76483,-1.52868,0.0243676,0.0448834,0,-5.84342,-1.67343,382,119,382,119,439,116,385,181,0,-0.0348889,0,-1.5,3.94113e+12,0,0,0,-5.76483,-1.52868,0,0,0,0,0.0243676,0.0448834,3835,0,0,0,0,11542,0,0,0,0,0,0
13530,-3.17831e-12,3.81846e-38,-1.57181e-06,-3.2605e-12,3.81822e-38,0,0,0,0,-7.47695,-1.67343,0.00484942,-5.76446,-1.52801,0.0241854,0.0445476,0,-5.84342,-1.67343,382,119,382,119,439,116,385,181,0,-0.0348889,0,-1.5,3.94113e+12,0,0,0,-5.76446,-1.52801,0,0,0,0,0.0241854,0.0445476,3835,0,0,0,0,11542,0,0,0,0,0,0
13546,-3.17831e-12,3.81846e-38,-1.57181e-06,-3.2605e-12,3.81822e-38,0,0,0,0,-7.47695,-1.67343,0.00484942,-5.76408,-1.5273,0.0239925,0.0441923,0,-5.84342,-1.67343,382,119,382,119,439,116,385,181,0,-0.0348889,0,-1.5,3.94113e+12,0,0,0,-5.76408,-1.5273,0,0,0,0,0.0239925,0.0441923,3835,0,0,0,0,11542,0,0,0,0,0,0
13561,-3.17831e-12,3.81846e-38,-1.57181e-06,-3.2605e-12,3.81822e-38,0,0,0,0,-7.47695,-1.67343,0.00484942,-5.76372,-1.52664,0.023813,0.0438618,0,-5.84342,-1.67343,382,119,382,119,439,116,385,181,0,-0.0348889,0,-1.5,3.94113e+12,0,0,0,-5.76372,-1.52664,0,0,0,0,0.023813,0.0438618,3835,0,0,0,0,11542,0,0,0,0,0,0
13576,-3.17831e-12,3.81846e-38,-1.57181e-06,-3.2605e-12,3.81822e-38,0,0,0,0,-7.47695,-1.67343,0.00484942,-5.76337,-1.52599,0.0236349,0.0435337,0,-5.84342,-1.67343,382,119,382,119,439,116,385,181,0,-0.0348889,0,-1.5,3.94113e+12,0,0,0,-5.76337,-1.52599,0,0,0,0,0.0236349,0.0435337,3835,0,0,0,0,11542,0,0,0,0,0,0
13592,-3.17831e-12,3.81846e-38,-1.57181e-06,-3.2605e-12,3.81822e-38,0,0,0,0,-7.47695,-1.67343,0.00484942,-5.76301,-1.52534,0.0234581,0.0432081,0,-5.84342,-1.67343,382,119,382,119,439,116,385,181,0,-0.0348889,0,-1.5,3.94113e+12,0,0,0,-5.76301,-1.52534,0,0,0,0,0.0234581,0.0432081,3835,0,0,0,0,11542,0,0,0,0,0,0
13607,-3.17831e-12,3.81846e-38,-1.57181e-06,-3.2605e-12,3.81822e-38,0,0,0,0,-7.47695,-1.67343,0.00484942,-5.76264,-1.52465,0.023271,0.0428633,0,-5.84342,-1.67343,382,119,382,119,439,116,385,181,0,-0.0348889,0,-1.5,3.94113e+12,0,0,0,-5.76264,-1.52465,0,0,0,0,0.023271,0.0428633,3835,0,0,0,0,11542,0,0,0,0,0,0
13620,-3.17831e-12,3.81846e-38,-1.57181e-06,-3.2605e-12,3.81822e-38,0,0,0,0,-7.47695,-1.67343,0.00484942,-5.76234,-1.5241,0.0231201,0.0425854,0,-5.84342,-1.67343,382,119,382,119,439,116,385,181,0,-0.0348889,0,-1.5,3.94113e+12,0,0,0,-5.76234,-1.5241,0,0,0,0,0.0231201,0.0425854,3835,0,0,0,0,11542,0,0,0,0,0,0
13633,-3.17831e-12,3.81846e-38,-1.57181e-06,-3.2605e-12,3.81822e-38,0,0,0,0,-7.47695,-1.67343,0.00484942,-5.76204,-1.52354,0.0229702,0.0423093,0,-5.84342,-1.67343,382,119,382,119,439,116,385,181,0,-0.0348889,0,-1.5,3.94113e+12,0,0,0,-5.76204,-1.52354,0,0,0,0,0.0229702,0.0423093,3835,0,0,0,0,11542,0,0,0,0,0,0
13649,-3.17831e-12,3.81846e-38,-1.57181e-06,-3.2605e-12,3.81822e-38,0,0,0,0,-7.47695,-1.67343,0.00484942,-5.76167,-1.52287,0.0227869,0.0419717,0,-5.84342,-1.67343,382,119,382,119,439,116,385,181,0,-0.0348889,0,-1.5,3.94113e+12,0,0,0,-5.76167,-1.52287,0,0,0,0,0.0227869,0.0419717,3835,0,0,0,0,11542,0,0,0,0,0,0
13665,-3.17831e-12,3.81846e-38,-1.57181e-06,-3.2605e-12,3.81822e-38,0,0,0,0,-7.47695,-1.67343,0.00484942,-5.76131,-1.5222,0.0226051,0.0416369,0,-5.84342,-1.67343,382,119,382,119,439,116,385,181,0,-0.0348889,0,-1.5,3.94113e+12,0,0,0,-5.76131,-1.5222,0,0,0,0,0.0226051,0.0416369,3835,0,0,0,0,11542,0,0,0,0,0,0
13681,-3.17831e-12,3.81846e-38,-1.57181e-06,-3.2605e-12,3.81822e-38,0,0,0,0,-7.47695,-1.67343,0.00484942,-5.76097,-1.52158,0.022436,0.0413255,0,-5.84342,-1.67343,382,119,382,119,439,116,385,181,0,-0.0348889,0,-1.5,3.94113e+12,0,0,0,-5.76097,-1.52158,0,0,0,0,0.022436,0.0413255,3835,0,0,0,0,11542,0,0,0,0,0,0
13696,-3.17831e-12,3.81846e-38,-1.57181e-06,-3.2605e-12,3.81822e-38,0,0,0,0,-7.47695,-1.67343,0.00484942,-5.76062,-1.52092,0.0222571,0.0409959,0,-5.84342,-1.67343,382,119,382,119,439,116,385,181,0,-0.0348889,0,-1.5,3.94113e+12,0,0,0,-5.76062,-1.52092,0,0,0,0,0.0222571,0.0409959,3835,0,0,0,0,11542,0,0,0,0,0,0
13712,-3.17831e-12,3.81846e-38,-1.57181e-06,-3.2605e-12,3.81822e-38,0,0,0,0,-7.47695,-1.67343,0.00484942,-5.76026,-1.52027,0.0220795,0.0406688,0,-5.84342,-1.67343,382,119,382,119,439,116,385,181,0,-0.0348889,0,-1.5,3.94113e+12,0,0,0,-5.76026,-1.52027,0,0,0,0,0.0220795,0.0406688,3835,0,0,0,0,11542,0,0,0,0,0,0
