timestamp,A_x,A_y,A_z,P,Q,R,Phi,Theta,Psi,poseX,poseY,poseZ,state_X,state_Y,state_Z,state_VzB,state_Bx,state_By,state_Bz,p1_x,p1_y,p2_x,p2_y,p3_x,p3_y,p4_x,p4_y,roll,pitch,yaw,alt,targetHeading,highLevelState,lowLevelState,gateNumber,filtered_x,filtered_y,x_OT,y_OT,vx_OT,vy_OT,filtered_vx,filtered_vygateArea
10,0,0,0,0,0,0,0,0,0,0,0,0,0,0,0,0,0,0,0,0,0,0,0,0,0,0,0,0,-0.261799,0.00623302,-1.5,3.94113e+12,0,0,3,0,0,0,0,0,0,0,0,1.9603e-19
20,0,0,0,0,0,0,0,0,0,0,0,0,0,0,0,0,0,0,0,0,0,0,0,0,0,0,0,0,-0.261799,0.00602347,-1.5,3.94113e+12,0,0,3,0,0,0,0,0,0,0,0,1.9603e-19
30,-3.21239e-12,1.50806e-38,-1.57367e-06,-3.27827e-12,1.50794e-38,-3.40903e-12,-1.13703e-13,0,0,0,0,0,0,0,0,0,0,0,0,0,0,0,0,0,0,0,0,0,-0.261799,-0.00118554,-1.5,3.94113e+12,0,0,3,0,0,0,0,0,0,0,0,1.9603e-19
40,-3.21239e-12,1.50806e-38,-1.57367e-06,-3.27827e-12,1.50794e-38,0,-1.13703e-13,0,0,0,0,0,0,0,0,0,0,0,0,0,0,0,0,0,0,0,0,0,-0.261799,-0.00114801,-1.5,3.94113e+12,0,0,3,0,0,0,0,0,0,0,0,1.9603e-19
50,-3.21239e-12,1.50806e-38,-1.57367e-06,-3.27827e-12,1.50794e-38,-3.40903e-12,-1.13704e-13,0,0,0,0,0,0,0,0,0,0,0,0,0,0,0,0,0,0,0,0,0,-0.261799,-0.0011117,-1.5,3.94113e+12,0,0,3,0,0,0,0,0,0,0,0,1.9603e-19
60,-3.21239e-12,1.50806e-38,-1.57367e-06,-3.27827e-12,1.50794e-38,0,-1.13704e-13,0,0,0,0,0,0,0,0,0,0,0,0,0,0,0,0,0,0,0,0,0,-0.261799,-0.0010787,-1.5,3.94113e+12,0,0,3,0,0,0,0,0,0,0,0,1.9603e-19
70,-3.21239e-12,1.50806e-38,-1.57367e-06,-3.27827e-12,1.50794e-38,-3.40903e-12,-1.13705e-13,0,0,0,0,0,0,0,0,0,0,0,0,0,0,0,0,0,0,0,0,0,-0.261799,-0.00104669,-1.5,3.94113e+12,0,0,3,0,0,0,0,0,0,0,0,1.9603e-19
80,-3.21239e-12,1.50806e-38,-1.57367e-06,-3.27827e-12,1.50794e-38,0,-1.13705e-13,0,0,0,0,0,0,0,0,0,0,0,0,0,0,0,0,0,0,0,0,0,-0.261799,-0.00101358,-1.5,3.94113e+12,0,0,3,0,0,0,0,0,0,0,0,1.9603e-19
90,-3.21239e-12,1.50806e-38,-1.57367e-06,-3.27827e-12,1.50794e-38,-3.40903e-12,-1.13706e-13,0,0,0,0,0,0,0,0,0,0,0,0,0,0,0,0,0,0,0,0,0,-0.261799,-0.000983512,-1.5,3.94113e+12,0,0,3,0,0,0,0,0,0,0,0,1.9603e-19
100,-3.21239e-12,1.50806e-38,-1.57367e-06,-3.27827e-12,1.50794e-38,0,-1.13706e-13,0,0,0,0,0,0,0,0,0,0,0,0,0,0,0,0,0,0,0,0,0,-0.261799,-0.000954335,-1.5,3.94113e+12,0,0,3,0,0,0,0,0,0,0,0,1.9603e-19
110,-3.21239e-12,1.50806e-38,-1.57367e-06,-3.27827e-12,1.50794e-38,-3.40903e-12,-1.13707e-13,0,0,0,0,0,0,0,0,0,0,0,0,0,0,0,0,0,0,0,0,0,-0.261799,-0.000926009,-1.5,3.94113e+12,0,0,3,0,0,0,0,0,0,0,0,1.9603e-19
120,-3.21239e-12,1.50806e-38,-1.57367e-06,-3.27827e-12,1.50794e-38,0,-1.13708e-13,0,0,0,0,0,0,0,0,0,0,0,0,0,0,0,0,0,0,0,0,0,-0.261799,-0.000833058,-1.5,3.94113e+12,0,0,3,0,0,0,0,0,0,0,0,1.9603e-19
130,-3.21239e-12,1.50806e-38,-1.57367e-06,-3.27827e-12,1.50794e-38,-3.40903e-12,-1.13708e-13,0,0,0,0,0,0,0,0,0,0,0,0,0,0,0,0,0,0,0,0,0,-0.261799,-0.000785436,-1.5,3.94113e+12,0,0,3,0,0,0,0,0,0,0,0,1.9603e-19
140,-3.21239e-12,1.50806e-38,-1.57367e-06,-3.27827e-12,1.50794e-38,0,-1.13709e-13,0,0,0,0,0,0,0,0,0,0,0,0,0,0,0,0,0,0,0,0,0,-0.261799,-0.00063536,-1.5,3.94113e+12,0,0,3,0,0,0,0,0,0,0,0,1.9603e-19
150,-3.21239e-12,1.50806e-38,-1.57367e-06,-3.27827e-12,1.50794e-38,-3.40903e-12,-1.13709e-13,0,0,0,0,0,0,0,0,0,0,0,0,0,0,0,0,0,0,0,0,0,-0.261799,-0.000570335,-1.5,3.94113e+12,0,0,3,0,0,0,0,0,0,0,0,1.9603e-19
160,-3.21239e-12,1.50806e-38,-1.57367e-06,-3.27827e-12,1.50794e-38,0,-1.1371e-13,0,0,0,0,0,0,0,0,0,0,0,0,0,0,0,0,0,0,0,0,0,-0.261799,-0.000517567,-1.5,3.94113e+12,0,0,3,0,0,0,0,0,0,0,0,1.9603e-19
170,-3.21239e-12,1.50806e-38,-1.57367e-06,-3.27827e-12,1.50794e-38,-3.40903e-12,-1.1371e-13,0,0,0,0,0,0,0,0,0,0,0,0,0,0,0,0,0,0,0,0,0,-0.261799,-0.00050018,-1.5,3.94113e+12,0,0,3,0,0,0,0,0,0,0,0,1.9603e-19
180,-3.21239e-12,1.50806e-38,-1.57367e-06,-3.27827e-12,1.50794e-38,0,-1.13711e-13,0,0,0,0,0,0,0,0,0,0,0,0,0,0,0,0,0,0,0,0,0,-0.261799,-0.000483377,-1.5,3.94113e+12,0,0,3,0,0,0,0,0,0,0,0,1.9603e-19
190,-3.21239e-12,1.50806e-38,-1.57367e-06,-3.27827e-12,1.50794e-38,-3.40903e-12,-1.13711e-13,0,0,0,0,0,0,0,0,0,0,0,0,0,0,0,0,0,0,0,0,0,-0.261799,-0.000458593,-1.5,3.94113e+12,0,0,3,0,0,0,0,0,0,0,0,1.9603e-19
200,-3.21239e-12,1.50806e-38,-1.57367e-06,-3.27827e-12,1.50794e-38,0,-1.13712e-13,0,0,0,0,0,0,0,0,0,0,0,0,0,0,0,0,0,0,0,0,0,-0.261799,-0.000437782,-1.5,3.94113e+12,0,0,3,0,0,0,0,0,0,0,0,1.9603e-19
210,-3.21239e-12,1.50806e-38,-1.57367e-06,-3.27827e-12,1.50794e-38,-3.40903e-12,-1.13712e-13,0,0,0,0,0,0,0,0,0,0,0,0,0,0,0,0,0,0,0,0,0,-0.261799,-0.000416172,-1.5,3.94113e+12,0,0,3,0,0,0,0,0,0,0,0,1.9603e-19
220,-3.21239e-12,1.50806e-38,-1.57367e-06,-3.27827e-12,1.50794e-38,0,-1.13713e-13,0,0,0,0,0,0,0,0,0,0,0,0,0,0,0,0,0,0,0,0,0,-0.261799,-0.000404643,-1.5,3.94113e+12,0,0,3,0,0,0,0,0,0,0,0,1.9603e-19
230,-3.21239e-12,1.50806e-38,-1.57367e-06,-3.27827e-12,1.50794e-38,-3.40903e-12,-1.13714e-13,0,0,0,0,0,0,0,0,0,0,-1.85,0,-1368616704,1210822748,-1368616704,1210822748,-281302599,-1368616704,-1368604256,-1368604256,0,-0.261799,-0.000360696,-1.5,3.94113e+12,0,0,3,0,0,0,0,0,0,0,0,0
240,-3.21239e-12,1.50806e-38,-1.57367e-06,-3.27827e-12,1.50794e-38,0,-1.13714e-13,0,0,0,0,0,0,0,0,0,0,-1.85,0,-1368616704,1210822748,-1368616704,1210822748,-281302599,-1368616704,-1368604256,-1368604256,0,-0.261799,-0.00035141,-1.5,3.94113e+12,0,0,3,0,0,0,0,0,0,0,0,0
250,-3.21239e-12,1.50806e-38,-1.57367e-06,-3.27827e-12,1.50794e-38,-3.40903e-12,-1.13715e-13,0,0,0,0,0,0,0,0,0,0,-1.85,0,-1368616704,1210822748,-1368616704,1210822748,-281302599,-1368616704,-1368604256,-1368604256,0,-0.261799,-0.000340979,-1.5,3.94113e+12,0,0,3,0,0,0,0,0,0,0,0,0
260,-3.21239e-12,1.50806e-38,-1.57367e-06,-3.27827e-12,1.50794e-38,0,-1.13715e-13,0,0,0,0,0,0,0,0,0,0,-1.85,0,-1368616704,1210822748,-1368616704,1210822748,-281302599,-1368616704,-1368604256,-1368604256,0,-0.261799,-0.000330859,-1.5,3.94113e+12,0,0,3,0,0,0,0,0,0,0,0,0
270,-3.21239e-12,1.50806e-38,-1.57367e-06,-3.27827e-12,1.50794e-38,-3.40903e-12,-1.13716e-13,0,0,0,0,0,0,0,0,0,0,-1.85,0,-1368616704,1210822748,-1368616704,1210822748,-281302599,-1368616704,-1368604256,-1368604256,0,-0.261799,-0.000321038,-1.5,3.94113e+12,0,0,3,0,0,0,0,0,0,0,0,0
280,-3.21239e-12,1.50806e-38,-1.57367e-06,-3.27827e-12,1.50794e-38,0,-1.13716e-13,0,0,0,0,0,0,0,0,0,0,-1.85,0,-1368616704,1210822748,-1368616704,1210822748,-281302599,-1368616704,-1368604256,-1368604256,0,-0.261799,-0.000309622,-1.5,3.94113e+12,0,0,3,0,0,0,0,0,0,0,0,0
290,-3.21239e-12,1.50806e-38,-1.57367e-06,-3.27827e-12,1.50794e-38,-3.40903e-12,-1.13717e-13,0,0,0,0,0,0,0,0,0,0,-1.85,0,-1368616704,1210822748,-1368616704,1210822748,-281302599,-1368616704,-1368604256,-1368604256,0,-0.261799,-0.000299221,-1.5,3.94113e+12,0,0,3,0,0,0,0,0,0,0,0,0
300,-3.21239e-12,1.50806e-38,-1.57367e-06,-3.27827e-12,1.50794e-38,0,-1.13717e-13,0,0,0,0,0,0,0,0,0,0,-1.85,0,-1368616704,1210822748,-1368616704,1210822748,-281302599,-1368616704,-1368604256,-1368604256,0,-0.261799,-0.000289757,-1.5,3.94113e+12,0,0,3,0,0,0,0,0,0,0,0,0
310,-3.21239e-12,1.50806e-38,-1.57367e-06,-3.27827e-12,1.50794e-38,-3.40903e-12,-1.13718e-13,0,0,-6.59208,-0.169439,0.0647127,0,0,0,0,0,-0.157227,-0.169439,141,12,141,12,203,12,141,66,0,-0.261799,-0.000280592,-1.5,3.94113e+12,0,0,3,0,0,0,0,0,0,0,0,3348
320,-3.21239e-12,1.50806e-38,-1.57367e-06,-3.27827e-12,1.50794e-38,0,-1.13718e-13,0,0,-6.59208,-0.169439,0.0647127,0,0,0,0,0,-0.157227,-0.169439,141,12,141,12,203,12,141,66,0,-0.261799,-0.000272268,-1.5,3.94113e+12,0,0,3,0,0,0,0,0,0,0,0,3348
330,-3.21239e-12,1.50806e-38,-1.57367e-06,-3.27827e-12,1.50794e-38,-3.40903e-12,-1.13719e-13,0,0,-6.59208,-0.169439,0.0647127,0,0,0,0,0,-0.157227,-0.169439,141,12,141,12,203,12,141,66,0,-0.261799,-0.000264191,-1.5,3.94113e+12,0,0,3,0,0,0,0,0,0,0,0,3348
340,-3.21239e-12,1.50806e-38,-1.57367e-06,-3.27827e-12,1.50794e-38,0,-1.13719e-13,0,0,-6.59208,-0.169439,0.0647127,0,0,0,0,0,-0.157227,-0.169439,141,12,141,12,203,12,141,66,0,-0.261799,-0.000256349,-1.5,3.94113e+12,0,0,3,0,0,0,0,0,0,0,0,3348
350,-3.21239e-12,1.50806e-38,-1.57367e-06,-3.27827e-12,1.50794e-38,-3.40903e-12,-1.1372e-13,0,0,-6.59208,-0.169439,0.0647127,0,0,0,0,0,-0.157227,-0.169439,141,12,141,12,203,12,141,66,0,-0.261799,-0.000247234,-1.5,3.94113e+12,0,0,3,0,0,0,0,0,0,0,0,3348
360,-3.21239e-12,1.50806e-38,-1.57367e-06,-3.27827e-12,1.50794e-38,0,-1.13721e-13,0,0,-6.59208,-0.169439,0.0647127,0,0,0,0,0,-0.157227,-0.169439,141,12,141,12,203,12,141,66,0,-0.261799,-0.000239409,-1.5,3.94113e+12,0,0,3,0,0,0,0,0,0,0,0,3348
370,-3.21239e-12,1.50806e-38,-1.57367e-06,-3.27827e-12,1.50794e-38,-3.40903e-12,-1.13721e-13,0,0,-6.70678,-0.143657,0.0657799,0,0,0,0,0,-0.197372,-0.143657,140,14,140,14,201,14,140,67,0,-0.261799,-0.000230425,-1.5,3.94113e+12,0,0,3,0,0,0,0,0,0,0,0,3233
380,-3.21239e-12,1.50806e-38,-1.57367e-06,-3.27827e-12,1.50794e-38,0,-1.13722e-13,0,0,-6.70678,-0.143657,0.0657799,0,0,0,0,0,-0.197372,-0.143657,140,14,140,14,201,14,140,67,0,-0.261799,-0.00022404,-1.5,3.94113e+12,0,0,3,0,0,0,0,0,0,0,0,3233
390,-3.21239e-12,1.50806e-38,-1.57367e-06,-3.27827e-12,1.50794e-38,-3.40903e-12,-1.13722e-13,0,0,-6.70678,-0.143657,0.0657799,0,0,0,0,0,-0.197372,-0.143657,140,14,140,14,201,14,140,67,0,-0.261799,-0.000217831,-1.5,3.94113e+12,0,0,3,0,0,0,0,0,0,0,0,3233
400,-3.21239e-12,1.50806e-38,-1.57367e-06,-3.27827e-12,1.50794e-38,0,-1.13723e-13,0,0,-6.70678,-0.143657,0.0657799,0,0,0,0,0,-0.197372,-0.143657,140,14,140,14,201,14,140,67,0,-0.261799,-0.000211365,-1.5,3.94113e+12,0,0,3,0,0,0,0,0,0,0,0,3233
410,-3.21239e-12,1.50806e-38,-1.57367e-06,-3.27827e-12,1.50794e-38,-3.40903e-12,-1.13723e-13,0,0,-6.70678,-0.143657,0.0657799,0,0,0,0,0,-0.197372,-0.143657,140,14,140,14,201,14,140,67,0,-0.261799,-0.000203434,-1.5,3.94113e+12,0,0,3,0,0,0,0,0,0,0,0,3233
420,-3.21239e-12,1.50806e-38,-1.57367e-06,-3.27827e-12,1.50794e-38,0,-1.13724e-13,0,0,-6.70678,-0.143657,0.0657799,0,0,0,0,0,-0.197372,-0.143657,140,14,140,14,201,14,140,67,0,-0.261799,-0.000196995,-1.5,3.94113e+12,0,0,3,0,0,0,0,0,0,0,0,3233
430,-3.21239e-12,1.50806e-38,-1.57367e-06,-3.27827e-12,1.50794e-38,-3.40903e-12,-1.13724e-13,0,0,-6.70678,-0.143657,0.0657799,0,0,0,0,0,-0.197372,-0.143657,140,14,140,14,201,14,140,67,0,-0.261799,-0.000190764,-1.5,3.94113e+12,0,0,3,0,0,0,0,0,0,0,0,3233
440,-3.21239e-12,1.50806e-38,-1.57367e-06,-3.27827e-12,1.50794e-38,0,-1.13725e-13,0,0,-6.8013,-0.184513,0.129017,0,0,0,0,0,-0.230454,-0.184513,142,13,142,13,203,13,142,64,0,-0.261799,-0.000185102,-1.5,3.94113e+12,0,0,3,0,0,0,0,0,0,0,0,3111
450,-3.21239e-12,1.50806e-38,-1.57367e-06,-3.27827e-12,1.50794e-38,-3.40903e-12,-1.13725e-13,0,0,-6.8013,-0.184513,0.129017,0,0,0,0,0,-0.230454,-0.184513,142,13,142,13,203,13,142,64,0,-0.261799,-0.000179608,-1.5,3.94113e+12,0,0,3,0,0,0,0,0,0,0,0,3111
460,-3.21239e-12,1.50806e-38,-1.57367e-06,-3.27827e-12,1.50794e-38,0,-1.13726e-13,0,0,-6.8013,-0.184513,0.129017,0,0,0,0,0,-0.230454,-0.184513,142,13,142,13,203,13,142,64,0,-0.261799,-0.000173927,-1.5,3.94113e+12,0,0,3,0,0,0,0,0,0,0,0,3111
470,-3.21239e-12,1.50806e-38,-1.57367e-06,-3.27827e-12,1.50794e-38,-3.40903e-12,-1.13727e-13,0,0,-6.8013,-0.184513,0.129017,0,0,0,0,0,-0.230454,-0.184513,142,13,142,13,203,13,142,64,0,-0.261799,-0.000167743,-1.5,3.94113e+12,0,0,3,0,0,0,0,0,0,0,0,3111
480,-3.21239e-12,1.50806e-38,-1.57367e-06,-3.27827e-12,1.50794e-38,0,-1.13727e-13,0,0,-6.8013,-0.184513,0.129017,0,0,0,0,0,-0.230454,-0.184513,142,13,142,13,203,13,142,64,0,-0.261799,-0.000162437,-1.5,3.94113e+12,0,0,3,0,0,0,0,0,0,0,0,3111
490,-3.21239e-12,1.50806e-38,-1.57367e-06,-3.27827e-12,1.50794e-38,-3.40903e-12,-1.13728e-13,0,0,-6.8013,-0.184513,0.129017,0,0,0,0,0,-0.230454,-0.184513,142,13,142,13,203,13,142,64,0,-0.261799,-0.000157299,-1.5,3.94113e+12,0,0,3,0,0,0,0,0,0,0,0,3111
500,-3.21239e-12,1.50806e-38,-1.57367e-06,-3.27827e-12,1.50794e-38,0,-1.13728e-13,0,0,-7.06159,-0.191662,0.165934,0,0,0,0,0,-0.321557,-0.191662,145,13,145,13,200,13,145,67,0.261799,-0.261799,-0.000150161,-1.5,3.94113e+12,0,0,3,-0.284889,-0.193395,0,0,0,0,-0.401456,-0.0753337,2970
510,-3.21239e-12,1.50806e-38,-1.57367e-06,-3.27827e-12,1.50794e-38,-3.40903e-12,-1.13729e-13,0,0,-7.06159,-0.191662,0.165934,0,0,0,0,0,-0.321557,-0.191662,145,13,145,13,200,13,145,67,0.261799,-0.261799,-0.000145704,-1.5,3.94113e+12,0,0,3,-0.290911,-0.194525,0,0,0,0,-0.401456,-0.0753337,2970
520,-3.21239e-12,1.50806e-38,-1.57367e-06,-3.27827e-12,1.50794e-38,0,-1.13729e-13,0,0,-7.06159,-0.191662,0.165934,0,0,0,0,0,-0.321557,-0.191662,145,13,145,13,200,13,145,67,0.261799,-0.261799,-0.000141095,-1.5,3.94113e+12,0,0,3,-0.297334,-0.19573,0,0,0,0,-0.401456,-0.0753337,2970
530,-3.21239e-12,1.50806e-38,-1.57367e-06,-3.27827e-12,1.50794e-38,-3.40903e-12,-1.1373e-13,0,0,-7.06159,-0.191662,0.165934,0,0,0,0,0,-0.321557,-0.191662,145,13,145,13,200,13,145,67,0.261799,-0.261799,-0.000135524,-1.5,3.94113e+12,0,0,3,-0.305364,-0.197237,0,0,0,0,-0.401456,-0.0753337,2970
540,-3.21239e-12,1.50806e-38,-1.57367e-06,-3.27827e-12,1.50794e-38,0,-1.1373e-13,0,0,-7.06159,-0.191662,0.165934,0,0,0,0,0,-0.321557,-0.191662,145,13,145,13,200,13,145,67,0.261799,-0.261799,-0.000132035,-1.5,3.94113e+12,0,0,3,-0.310582,-0.198216,0,0,0,0,-0.401456,-0.0753337,2970
550,-3.21239e-12,1.50806e-38,-1.57367e-06,-3.27827e-12,1.50794e-38,-3.40903e-12,-1.13731e-13,0,0,-7.06159,-0.191662,0.165934,0,0,0,0,0,-0.321557,-0.191662,145,13,145,13,200,13,145,67,0.261799,-0.261799,-0.000128377,-1.5,3.94113e+12,0,0,3,-0.316203,-0.199271,0,0,0,0,-0.401456,-0.0753337,2970
560,-3.21239e-12,1.50806e-38,-1.57367e-06,-3.27827e-12,1.50794e-38,0,-1.13731e-13,0,0,-7.06158,-0.171487,0.165933,0,0,0,0,0,-0.321555,-0.171487,144,13,144,13,199,13,144,67,0.261799,-0.261799,-0.000123809,-1.5,3.94113e+12,0,0,3,-0.329024,-0.17158,0,0,0,0,-0.414971,-0.00517241,2970
570,-3.21239e-12,1.50806e-38,-1.57367e-06,-3.27827e-12,1.50794e-38,-3.40903e-12,-1.13732e-13,0,0,-7.06158,-0.171487,0.165933,0,0,0,0,0,-0.321555,-0.171487,144,13,144,13,199,13,144,67,0.261799,-0.261799,-0.000120134,-1.5,3.94113e+12,0,0,3,-0.335249,-0.171658,0,0,0,0,-0.414971,-0.00517241,2970
580,-3.21239e-12,1.50806e-38,-1.57367e-06,-3.27827e-12,1.50794e-38,0,-1.13732e-13,0,0,-7.06158,-0.171487,0.165933,0,0,0,0,0,-0.321555,-0.171487,144,13,144,13,199,13,144,67,0.261799,-0.261799,-0.000116334,-1.5,3.94113e+12,0,0,3,-0.341888,-0.17174,0,0,0,0,-0.414971,-0.00517241,2970
590,-3.21239e-12,1.50806e-38,-1.57367e-06,-3.27827e-12,1.50794e-38,-3.40903e-12,-1.13733e-13,0,0,-7.06158,-0.171487,0.165933,0,0,0,0,0,-0.321555,-0.171487,144,13,144,13,199,13,144,67,0.261799,-0.261799,-0.000112197,-1.5,3.94113e+12,0,0,3,-0.349358,-0.171834,0,0,0,0,-0.414971,-0.00517241,2970
600,-3.21239e-12,1.50806e-38,-1.57367e-06,-3.27827e-12,1.50794e-38,0,-1.13734e-13,0,0,-7.06158,-0.171487,0.165933,0,0,0,0,0,-0.321555,-0.171487,144,13,144,13,199,13,144,67,0.261799,-0.261799,-0.000108646,-1.5,3.94113e+12,0,0,3,-0.355997,-0.171916,0,0,0,0,-0.414971,-0.00517241,2970
610,-3.21239e-12,1.50806e-38,-1.57367e-06,-3.27827e-12,1.50794e-38,-3.40903e-12,-1.13734e-13,0,0,-7.06158,-0.171487,0.165933,0,0,0,0,0,-0.321555,-0.171487,144,13,144,13,199,13,144,67,0.261799,-0.261799,-0.00010521,-1.5,3.94113e+12,0,0,3,-0.362637,-0.171999,0,0,0,0,-0.414971,-0.00517241,2970
620,-3.21239e-12,1.50806e-38,-1.57367e-06,-3.27827e-12,1.50794e-38,0,-1.13735e-13,0,0,-7.15098,-0.153183,0.189495,0,0,0,0,0,-0.352843,-0.153183,142,15,142,15,199,15,142,65,0.261799,-0.261799,-0.000101466,-1.5,3.94113e+12,0,0,3,-0.363173,-0.172092,0,0,0,0,-0.401456,-0.00517236,2850
630,-3.21239e-12,1.50806e-38,-1.57367e-06,-3.27827e-12,1.50794e-38,-3.40903e-12,-1.13735e-13,0,0,-7.15098,-0.153183,0.189495,0,0,0,0,0,-0.352843,-0.153183,142,15,142,15,199,15,142,65,0.261799,-0.261799,-9.84541e-05,-1.5,3.94113e+12,0,0,3,-0.369195,-0.17217,0,0,0,0,-0.401456,-0.00517236,2850
640,-3.21239e-12,1.50806e-38,-1.57367e-06,-3.27827e-12,1.50794e-38,0,-1.13736e-13,0,0,-7.15098,-0.153183,0.189495,0,0,0,0,0,-0.352843,-0.153183,142,15,142,15,199,15,142,65,0.261799,-0.261799,-9.534e-05,-1.5,3.94113e+12,0,0,3,-0.375618,-0.172253,0,0,0,0,-0.401456,-0.00517236,2850
650,-3.21239e-12,1.50806e-38,-1.57367e-06,-3.27827e-12,1.50794e-38,-3.40903e-12,-1.13736e-13,0,0,-7.15098,-0.153183,0.189495,0,0,0,0,0,-0.352843,-0.153183,142,15,142,15,199,15,142,65,0.261799,-0.261799,-9.21371e-05,-1.5,3.94113e+12,0,0,3,-0.382443,-0.17234,0,0,0,0,-0.401456,-0.00517236,2850
660,-3.21239e-12,1.50806e-38,-1.57367e-06,-3.27827e-12,1.50794e-38,0,-1.13737e-13,0,0,-7.15098,-0.153183,0.189495,0,0,0,0,0,-0.352843,-0.153183,142,15,142,15,199,15,142,65,0.261799,-0.261799,-8.9221e-05,-1.5,3.94113e+12,0,0,3,-0.388866,-0.172423,0,0,0,0,-0.401456,-0.00517236,2850
670,-3.21239e-12,1.50806e-38,-1.57367e-06,-3.27827e-12,1.50794e-38,-3.40903e-12,-1.13737e-13,0,0,-7.15098,-0.153183,0.189495,0,0,0,0,0,-0.352843,-0.153183,142,15,142,15,199,15,142,65,0.261799,-0.261799,-8.63972e-05,-1.5,3.94113e+12,0,0,3,-0.395289,-0.172506,0,0,0,0,-0.401456,-0.00517236,2850
680,-3.21239e-12,1.50806e-38,-1.57367e-06,-3.27827e-12,1.50794e-38,0,-1.13738e-13,0,0,-6.80362,-0.155487,0.109512,0,0,0,0,0,-0.231266,-0.155487,142,12,142,12,200,12,142,67,0.201043,-0.261799,-8.31553e-05,-1.5,3.94113e+12,0,0,3,-0.398894,-0.15504,0,0,0,0,-0.393599,0.0235276,3190
690,-3.21239e-12,1.50806e-38,-1.57367e-06,-3.27827e-12,1.50794e-38,-3.40903e-12,-1.13738e-13,0,0,-6.80362,-0.155487,0.109512,0,0,0,0,0,-0.231266,-0.155487,142,12,142,12,200,12,142,67,0.200586,-0.261799,-8.10151e-05,-1.5,3.94113e+12,0,0,3,-0.404011,-0.154734,0,0,0,0,-0.393599,0.0235276,3190
700,-3.21239e-12,1.50806e-38,-1.57367e-06,-3.27827e-12,1.50794e-38,0,-1.13739e-13,0,0,-6.80362,-0.155487,0.109512,0,0,0,0,0,-0.231266,-0.155487,142,12,142,12,200,12,142,67,0.200059,-0.261799,-7.87699e-05,-1.5,3.94113e+12,0,0,3,-0.409915,-0.154381,0,0,0,0,-0.393599,0.0235276,3190
710,-3.21239e-12,1.50806e-38,-1.57367e-06,-3.27827e-12,1.50794e-38,-3.40903e-12,-1.1374e-13,0,0,-6.80362,-0.155487,0.109512,0,0,0,0,0,-0.231266,-0.155487,142,12,142,12,200,12,142,67,0.199497,-0.261799,-7.62784e-05,-1.5,3.94113e+12,0,0,3,-0.416213,-0.154005,0,0,0,0,-0.393599,0.0235276,3190
720,-3.21239e-12,1.50806e-38,-1.57367e-06,-3.27827e-12,1.50794e-38,0,-1.1374e-13,0,0,-6.80362,-0.155487,0.109512,0,0,0,0,0,-0.231266,-0.155487,142,12,142,12,200,12,142,67,0.198934,-0.261799,-7.38657e-05,-1.5,3.94113e+12,0,0,3,-0.42251,-0.153628,0,0,0,0,-0.393599,0.0235276,3190
730,-3.21239e-12,1.50806e-38,-1.57367e-06,-3.27827e-12,1.50794e-38,-3.40903e-12,-1.13741e-13,0,0,-6.80362,-0.155487,0.109512,0,0,0,0,0,-0.231266,-0.155487,142,12,142,12,200,12,142,67,0.198372,-0.261799,-7.15293e-05,-1.5,3.94113e+12,0,0,3,-0.428808,-0.153252,0,0,0,0,-0.393599,0.0235276,3190
740,-3.21239e-12,1.50806e-38,-1.57367e-06,-3.27827e-12,1.50794e-38,0,-1.13746e-13,0,0,-6.80362,-0.155487,0.109512,0,0,0,0,0,-0.231266,-0.155487,142,12,142,12,200,12,142,67,0.202984,-0.261799,-6.88488e-05,-1.5,3.94113e+12,0,0,3,-0.231361,-0.154288,0,0,0,0,-0.00174218,0.0211698,3190
750,-3.21239e-12,1.50806e-38,-1.57367e-06,-3.27827e-12,1.50794e-38,-3.40903e-12,-1.13741e-13,0,0,-6.80362,-0.155487,0.109512,0,0,0,0,0,-0.231266,-0.155487,142,12,142,12,200,12,142,67,0.20251,-0.261799,-6.68052e-05,-1.5,3.94113e+12,0,0,3,-0.231387,-0.15397,0,0,0,0,-0.00174218,0.0211698,3190
760,-3.21239e-12,1.50806e-38,-1.57367e-06,-3.27827e-12,1.50794e-38,0,-1.13742e-13,0,0,-6.80362,-0.155487,0.109512,0,0,0,0,0,-0.231266,-0.155487,142,12,142,12,200,12,142,67,0.202035,-0.261799,-6.48223e-05,-1.5,3.94113e+12,0,0,3,-0.231413,-0.153653,0,0,0,0,-0.00174218,0.0211698,3190
770,-3.21239e-12,1.50806e-38,-1.57367e-06,-3.27827e-12,1.50794e-38,-3.40903e-12,-1.13742e-13,0,0,-6.80362,-0.155487,0.109512,0,0,0,0,0,-0.231266,-0.155487,142,12,142,12,200,12,142,67,0.201529,-0.261799,-6.2772e-05,-1.5,3.94113e+12,0,0,3,-0.231441,-0.153314,0,0,0,0,-0.00174218,0.0211698,3190
780,-3.21239e-12,1.50806e-38,-1.57367e-06,-3.27827e-12,1.50794e-38,0,-1.13743e-13,0,0,-6.80362,-0.155487,0.109512,0,0,0,0,0,-0.231266,-0.155487,142,12,142,12,200,12,142,67,0.20096,-0.261799,-6.05399e-05,-1.5,3.94113e+12,0,0,3,-0.231472,-0.152933,0,0,0,0,-0.00174218,0.0211698,3190
790,-3.21239e-12,1.50806e-38,-1.57367e-06,-3.27827e-12,1.50794e-38,-3.40903e-12,-1.13743e-13,0,0,-6.80362,-0.155487,0.109512,0,0,0,0,0,-0.231266,-0.155487,142,12,142,12,200,12,142,67,0.200454,-0.261799,-5.8625e-05,-1.5,3.94113e+12,0,0,3,-0.2315,-0.152594,0,0,0,0,-0.00174218,0.0211698,3190
800,-3.21239e-12,1.50806e-38,-1.57367e-06,-3.27827e-12,1.50794e-38,0,-1.13744e-13,0,0,-6.80362,-0.155487,0.109512,0,0,0,0,0,-0.231266,-0.155487,142,12,142,12,200,12,142,67,0.199948,-0.261799,-5.67707e-05,-1.5,3.94113e+12,0,0,3,-0.231528,-0.152255,0,0,0,0,-0.00174218,0.0211698,3190
810,-3.21239e-12,1.50806e-38,-1.57367e-06,-3.27827e-12,1.50794e-38,-3.40903e-12,-1.13751e-13,0,0,-7.19705,-0.164528,0.210657,0,0,0,0,0,-0.368966,-0.164528,145,12,145,12,197,12,145,67,0.200022,-0.261799,-5.386e-05,-1.5,3.94113e+12,0,0,3,-0.375892,-0.15301,0,0,0,0,-0.238905,0.0219798,2860
820,-3.21239e-12,1.50806e-38,-1.57367e-06,-3.27827e-12,1.50794e-38,0,-1.13744e-13,0,0,-7.19705,-0.164528,0.210657,0,0,0,0,0,-0.368966,-0.164528,145,12,145,12,197,12,145,67,0.199529,-0.261799,-5.22613e-05,-1.5,3.94113e+12,0,0,3,-0.379476,-0.15268,0,0,0,0,-0.238905,0.0219798,2860
830,-3.21239e-12,1.50806e-38,-1.57367e-06,-3.27827e-12,1.50794e-38,-3.40903e-12,-1.13745e-13,0,0,-7.19705,-0.164528,0.210657,0,0,0,0,0,-0.368966,-0.164528,145,12,145,12,197,12,145,67,0.199037,-0.261799,-5.07101e-05,-1.5,3.94113e+12,0,0,3,-0.383059,-0.15235,0,0,0,0,-0.238905,0.0219798,2860
840,-3.21239e-12,1.50806e-38,-1.57367e-06,-3.27827e-12,1.50794e-38,0,-1.13745e-13,0,0,-7.19705,-0.164528,0.210657,0,0,0,0,0,-0.368966,-0.164528,145,12,145,12,197,12,145,67,0.198577,-0.261799,-4.93048e-05,-1.5,3.94113e+12,0,0,3,-0.386404,-0.152042,0,0,0,0,-0.238905,0.0219798,2860
850,-3.21239e-12,1.50806e-38,-1.57367e-06,-3.27827e-12,1.50794e-38,-3.40903e-12,-1.13747e-13,0,0,-7.19705,-0.164528,0.210657,0,0,0,0,0,-0.368966,-0.164528,145,12,145,12,197,12,145,67,0.198052,-0.261799,-4.77443e-05,-1.5,3.94113e+12,0,0,3,-0.390227,-0.151691,0,0,0,0,-0.238905,0.0219798,2860
860,-3.21239e-12,1.50806e-38,-1.57367e-06,-3.27827e-12,1.50794e-38,0,-1.13747e-13,0,0,-7.19705,-0.164528,0.210657,0,0,0,0,0,-0.368966,-0.164528,145,12,145,12,197,12,145,67,0.197526,-0.261799,-4.63271e-05,-1.5,3.94113e+12,0,0,3,-0.394049,-0.151339,0,0,0,0,-0.238905,0.0219798,2860
870,-3.21239e-12,1.50806e-38,-1.57367e-06,-3.27827e-12,1.50794e-38,-3.40903e-12,-1.13748e-13,0,0,-7.19705,-0.164528,0.210657,0,0,0,0,0,-0.368966,-0.164528,145,12,145,12,197,12,145,67,0.197034,-0.261799,-4.49521e-05,-1.5,3.94113e+12,0,0,3,-0.397633,-0.151009,0,0,0,0,-0.238905,0.0219798,2860
880,-3.21239e-12,1.50806e-38,-1.57367e-06,-3.27827e-12,1.50794e-38,0,-1.13748e-13,0,0,-7.19705,-0.164528,0.210657,0,0,0,0,0,-0.368966,-0.164528,145,12,145,12,197,12,145,67,0.196541,-0.261799,-4.36178e-05,-1.5,3.94113e+12,0,0,3,-0.401217,-0.15068,0,0,0,0,-0.238905,0.0219798,2860
890,-3.21239e-12,1.50806e-38,-1.57367e-06,-3.27827e-12,1.50794e-38,-3.40903e-12,-1.13749e-13,0,0,-7.19705,-0.164528,0.210657,0,0,0,0,0,-0.368966,-0.164528,145,12,145,12,197,12,145,67,0.196048,-0.261799,-4.23232e-05,-1.5,3.94113e+12,0,0,3,-0.4048,-0.15035,0,0,0,0,-0.238905,0.0219798,2860
900,-3.21239e-12,1.50806e-38,-1.57367e-06,-3.27827e-12,1.50794e-38,0,-1.1375e-13,0,0,-7.19705,-0.164528,0.210657,0,0,0,0,0,-0.368966,-0.164528,145,12,145,12,197,12,145,67,0.195392,-0.261799,-4.0652e-05,-1.5,3.94113e+12,0,0,3,-0.409578,-0.14991,0,0,0,0,-0.238905,0.0219798,2860
910,-3.21239e-12,1.50806e-38,-1.57367e-06,-3.27827e-12,1.50794e-38,-3.40903e-12,-1.1375e-13,0,0,-7.19705,-0.164528,0.210657,0,0,0,0,0,-0.368966,-0.164528,145,12,145,12,197,12,145,67,0.194866,-0.261799,-3.93654e-05,-1.5,3.94113e+12,0,0,3,-0.413401,-0.149559,0,0,0,0,-0.238905,0.0219798,2860
920,-3.21239e-12,1.50806e-38,-1.57367e-06,-3.27827e-12,1.50794e-38,0,-1.13752e-13,0,0,-3.39476,-0.511095,-0.893944,0,0,0,0,0,0.961835,-0.511095,148,20,148,20,284,20,148,85,0.23,-0.261799,-3.78906e-05,-1.5,3.94113e+12,0,0,3,-0.405696,-0.162293,0,0,0,0,-0.220777,0.00958818,8840
930,-3.21239e-12,1.50806e-38,-1.57367e-06,-3.27827e-12,1.50794e-38,-3.40903e-12,-1.13751e-13,0,0,-3.39476,-0.511095,-0.893944,0,0,0,0,0,0.961835,-0.511095,148,20,148,20,284,20,148,85,0.229785,-0.261799,-3.67659e-05,-1.5,3.94113e+12,0,0,3,-0.409008,-0.162149,0,0,0,0,-0.220777,0.00958818,8840
940,-3.21239e-12,1.50806e-38,-1.57367e-06,-3.27827e-12,1.50794e-38,0,-1.13753e-13,0,0,-3.39476,-0.511095,-0.893944,0,0,0,0,0,0.961835,-0.511095,148,20,148,20,284,20,148,85,0.22957,-0.261799,-3.56747e-05,-1.5,3.94113e+12,0,0,3,-0.41232,-0.162005,0,0,0,0,-0.220777,0.00958818,8840
950,-3.21239e-12,1.50806e-38,-1.57367e-06,-3.27827e-12,1.50794e-38,-3.40903e-12,-1.13753e-13,0,0,-3.39476,-0.511095,-0.893944,0,0,0,0,0,0.961835,-0.511095,148,20,148,20,284,20,148,85,0.229341,-0.261799,-3.45463e-05,-1.5,3.94113e+12,0,0,3,-0.415852,-0.161852,0,0,0,0,-0.220777,0.00958818,8840
960,-3.21239e-12,1.50806e-38,-1.57367e-06,-3.27827e-12,1.50794e-38,0,-1.13754e-13,0,0,-3.39476,-0.511095,-0.893944,0,0,0,0,0,0.961835,-0.511095,148,20,148,20,284,20,148,85,0.229083,-0.261799,-3.33169e-05,-1.5,3.94113e+12,0,0,3,-0.419826,-0.161679,0,0,0,0,-0.220777,0.00958818,8840
970,-3.21239e-12,1.50806e-38,-1.57367e-06,-3.27827e-12,1.50794e-38,-3.40903e-12,-1.13755e-13,0,0,-3.32886,-0.477374,-0.8988,0,0,0,0,0,0.984899,-0.477374,144,21,144,21,283,21,144,82,0.258285,-0.261799,-2.58497e-05,-1.5,3.94113e+12,0,0,3,-0.444995,-0.170621,0,0,0,0,-0.220777,-0.00259899,8479
980,-3.21239e-12,1.50806e-38,-1.57367e-06,-3.27827e-12,1.50794e-38,0,-1.13754e-13,0,0,-3.32886,-0.477374,-0.8988,0,0,0,0,0,0.984899,-0.477374,144,21,144,21,283,21,144,82,0.258363,-0.261799,-2.48281e-05,-1.5,3.94113e+12,0,0,3,-0.449411,-0.170673,0,0,0,0,-0.220777,-0.00259899,8479
990,-3.21239e-12,1.50806e-38,-1.57367e-06,-3.27827e-12,1.50794e-38,-3.40903e-12,-1.13756e-13,0,0,-3.32886,-0.477374,-0.8988,0,0,0,0,0,0.984899,-0.477374,144,21,144,21,283,21,144,82,0.258425,-0.261799,-2.40428e-05,-1.5,3.94113e+12,0,0,3,-0.452943,-0.170714,0,0,0,0,-0.220777,-0.00259899,8479
1000,-3.21239e-12,1.50806e-38,-1.57367e-06,-3.27827e-12,1.50794e-38,0,-1.13756e-13,0,0,-3.32886,-0.477374,-0.8988,0,0,0,0,0,0.984899,-0.477374,144,21,144,21,283,21,144,82,0.258487,-0.261799,-2.32818e-05,-1.5,3.94113e+12,0,0,3,-0.456476,-0.170756,0,0,0,0,-0.220777,-0.00259899,8479
1010,-3.21239e-12,1.50806e-38,-1.57367e-06,-3.27827e-12,1.50794e-38,-3.40903e-12,-1.13757e-13,0,0,-3.32886,-0.477374,-0.8988,0,0,0,0,0,0.984899,-0.477374,144,21,144,21,283,21,144,82,0.258549,-0.261799,-2.25454e-05,-1.5,3.94113e+12,0,0,3,-0.460008,-0.170797,0,0,0,0,-0.220777,-0.00259899,8479
1020,-3.21239e-12,1.50806e-38,-1.57367e-06,-3.27827e-12,1.50794e-38,0,-1.13757e-13,0,0,-3.32886,-0.477374,-0.8988,0,0,0,0,0,0.984899,-0.477374,144,21,144,21,283,21,144,82,0.258627,-0.261799,-2.16987e-05,-1.5,3.94113e+12,0,0,3,-0.464424,-0.170849,0,0,0,0,-0.220777,-0.00259899,8479
1030,-3.21239e-12,1.50806e-38,-1.57367e-06,-3.27827e-12,1.50794e-38,-3.40903e-12,-1.13758e-13,0,0,-3.32886,-0.477374,-0.8988,0,0,0,0,0,0.984899,-0.477374,144,21,144,21,283,21,144,82,0.258693,-0.261799,-2.09693e-05,-1.5,3.94113e+12,0,0,3,-0.468177,-0.170893,0,0,0,0,-0.220777,-0.00259899,8479
1040,-3.21239e-12,1.50806e-38,-1.57367e-06,-3.27827e-12,1.50794e-38,0,-1.13758e-13,0,0,-3.32886,-0.477374,-0.8988,0,0,0,0,0,0.984899,-0.477374,144,21,144,21,283,21,144,82,0.258755,-0.261799,-2.0306e-05,-1.5,3.94113e+12,0,0,3,-0.47171,-0.170935,0,0,0,0,-0.220777,-0.00259899,8479
1050,-3.21239e-12,1.50806e-38,-1.57367e-06,-3.27827e-12,1.50794e-38,-3.40903e-12,-1.13759e-13,0,0,-3.32886,-0.477374,-0.8988,0,0,0,0,0,0.984899,-0.477374,144,21,144,21,283,21,144,82,0.258821,-0.261799,-1.96234e-05,-1.5,3.94113e+12,0,0,3,-0.475463,-0.170979,0,0,0,0,-0.220777,-0.00259899,8479
1060,-3.21239e-12,1.50806e-38,-1.57367e-06,-3.27827e-12,1.50794e-38,0,-1.13759e-13,0,0,-3.32886,-0.477374,-0.8988,0,0,0,0,0,0.984899,-0.477374,144,21,144,21,283,21,144,82,0.258879,-0.261799,-1.90409e-05,-1.5,3.94113e+12,0,0,3,-0.478775,-0.171018,0,0,0,0,-0.220777,-0.00259899,8479
1070,-3.21239e-12,1.50806e-38,-1.57367e-06,-3.27827e-12,1.50794e-38,-3.40903e-12,-1.1376e-13,0,0,-3.32886,-0.477374,-0.8988,0,0,0,0,0,0.984899,-0.477374,144,21,144,21,283,21,144,82,0.258961,-0.261799,-1.82509e-05,-1.5,3.94113e+12,0,0,3,-0.483411,-0.171073,0,0,0,0,-0.220777,-0.00259899,8479
1080,-3.21239e-12,1.50806e-38,-1.57367e-06,-3.27827e-12,1.50794e-38,0,-1.1376e-13,0,0,-3.32886,-0.477374,-0.8988,0,0,0,0,0,0.984899,-0.477374,144,21,144,21,283,21,144,82,0.259027,-0.261799,-1.76378e-05,-1.5,3.94113e+12,0,0,3,-0.487164,-0.171117,0,0,0,0,-0.220777,-0.00259899,8479
1090,-3.21239e-12,1.50806e-38,-1.57367e-06,-3.27827e-12,1.50794e-38,-3.40903e-12,-1.13761e-13,0,0,-3.32886,-0.477374,-0.8988,0,0,0,0,0,0.984899,-0.477374,144,21,144,21,283,21,144,82,0.259093,-0.261799,-1.70452e-05,-1.5,3.94113e+12,0,0,3,-0.490918,-0.171161,0,0,0,0,-0.220777,-0.00259899,8479
1100,-3.21239e-12,1.50806e-38,-1.57367e-06,-3.27827e-12,1.50794e-38,0,-1.13762e-13,0,0,-7.34243,-0.209704,0.259803,0,0,0,0,0,-0.41985,-0.209704,145,15,145,15,201,15,145,63,0.261799,-0.261799,-1.64065e-05,-1.5,3.94113e+12,0,0,3,-0.423452,-0.211368,0,0,0,0,-0.160326,-0.038395,2688
1110,-3.21239e-12,1.50806e-38,-1.57367e-06,-3.27827e-12,1.50794e-38,-3.40903e-12,-1.13762e-13,0,0,-7.34243,-0.209704,0.259803,0,0,0,0,0,-0.41985,-0.209704,145,15,145,15,201,15,145,63,0.261799,-0.261799,-1.58549e-05,-1.5,3.94113e+12,0,0,3,-0.426177,-0.212021,0,0,0,0,-0.160326,-0.038395,2688
1120,-3.21239e-12,1.50806e-38,-1.57367e-06,-3.27827e-12,1.50794e-38,0,-1.13763e-13,0,0,-7.34243,-0.209704,0.259803,0,0,0,0,0,-0.41985,-0.209704,145,15,145,15,201,15,145,63,0.261799,-0.261799,-1.52595e-05,-1.5,3.94113e+12,0,0,3,-0.429224,-0.21275,0,0,0,0,-0.160326,-0.038395,2688
1130,-3.21239e-12,1.50806e-38,-1.57367e-06,-3.27827e-12,1.50794e-38,-3.40903e-12,-1.13763e-13,0,0,-7.34243,-0.209704,0.259803,0,0,0,0,0,-0.41985,-0.209704,145,15,145,15,201,15,145,63,0.261799,-0.261799,-1.46569e-05,-1.5,3.94113e+12,0,0,3,-0.43243,-0.213518,0,0,0,0,-0.160326,-0.038395,2688
1140,-3.21239e-12,1.50806e-38,-1.57367e-06,-3.27827e-12,1.50794e-38,0,-1.13764e-13,0,0,-7.34243,-0.209704,0.259803,0,0,0,0,0,-0.41985,-0.209704,145,15,145,15,201,15,145,63,0.261799,-0.261799,-1.41645e-05,-1.5,3.94113e+12,0,0,3,-0.435156,-0.214171,0,0,0,0,-0.160326,-0.038395,2688
1150,-3.21239e-12,1.50806e-38,-1.57367e-06,-3.27827e-12,1.50794e-38,-3.40903e-12,-1.13764e-13,0,0,-7.34243,-0.209704,0.259803,0,0,0,0,0,-0.41985,-0.209704,145,15,145,15,201,15,145,63,0.261799,-0.261799,-1.37165e-05,-1.5,3.94113e+12,0,0,3,-0.437721,-0.214785,0,0,0,0,-0.160326,-0.038395,2688
1160,-3.21239e-12,1.50806e-38,-1.57367e-06,-3.27827e-12,1.50794e-38,0,-1.13765e-13,0,0,-7.34243,-0.209704,0.259803,0,0,0,0,0,-0.41985,-0.209704,145,15,145,15,201,15,145,63,0.261799,-0.261799,-1.32284e-05,-1.5,3.94113e+12,0,0,3,-0.440607,-0.215476,0,0,0,0,-0.160326,-0.038395,2688
1170,-3.21239e-12,1.50806e-38,-1.57367e-06,-3.27827e-12,1.50794e-38,-3.40903e-12,-1.13766e-13,0,0,-7.34243,-0.209704,0.259803,0,0,0,0,0,-0.41985,-0.209704,145,15,145,15,201,15,145,63,0.261799,-0.261799,-1.28358e-05,-1.5,3.94113e+12,0,0,3,-0.443012,-0.216052,0,0,0,0,-0.160326,-0.038395,2688
1180,-3.21239e-12,1.50806e-38,-1.57367e-06,-3.27827e-12,1.50794e-38,0,-1.13766e-13,0,0,-7.34243,-0.209704,0.259803,0,0,0,0,0,-0.41985,-0.209704,145,15,145,15,201,15,145,63,0.261799,-0.261799,-1.23042e-05,-1.5,3.94113e+12,0,0,3,-0.446379,-0.216858,0,0,0,0,-0.160326,-0.038395,2688
1190,-3.21239e-12,1.50806e-38,-1.57367e-06,-3.27827e-12,1.50794e-38,-3.40903e-12,-1.13767e-13,0,0,-7.34243,-0.209704,0.259803,0,0,0,0,0,-0.41985,-0.209704,145,15,145,15,201,15,145,63,0.261799,-0.261799,-1.18183e-05,-1.5,3.94113e+12,0,0,3,-0.449585,-0.217626,0,0,0,0,-0.160326,-0.038395,2688
1200,-3.21239e-12,1.50806e-38,-1.57367e-06,-3.27827e-12,1.50794e-38,0,-1.13767e-13,0,0,-7.34243,-0.209704,0.259803,0,0,0,0,0,-0.41985,-0.209704,145,15,145,15,201,15,145,63,0.261799,-0.261799,-1.14443e-05,-1.5,3.94113e+12,0,0,3,-0.45215,-0.218241,0,0,0,0,-0.160326,-0.038395,2688
1210,-3.21239e-12,1.50806e-38,-1.57367e-06,-3.27827e-12,1.50794e-38,-3.40903e-12,-1.13768e-13,0,0,-7.34243,-0.209704,0.259803,0,0,0,0,0,-0.41985,-0.209704,145,15,145,15,201,15,145,63,0.261799,-0.261799,-1.1037e-05,-1.5,3.94113e+12,0,0,3,-0.455036,-0.218932,0,0,0,0,-0.160326,-0.038395,2688
1220,-3.21239e-12,1.50806e-38,-1.57367e-06,-3.27827e-12,1.50794e-38,0,-1.13768e-13,0,0,-7.34243,-0.209704,0.259803,0,0,0,0,0,-0.41985,-0.209704,145,15,145,15,201,15,145,63,0.261799,-0.261799,-1.07094e-05,-1.5,3.94113e+12,0,0,3,-0.457441,-0.219508,0,0,0,0,-0.160326,-0.038395,2688
1230,-3.21239e-12,1.50806e-38,-1.57367e-06,-3.27827e-12,1.50794e-38,-3.40903e-12,-1.13769e-13,0,0,-7.34243,-0.209704,0.259803,0,0,0,0,0,-0.41985,-0.209704,145,15,145,15,201,15,145,63,0.261799,-0.261799,-1.03072e-05,-1.5,3.94113e+12,0,0,3,-0.460488,-0.220237,0,0,0,0,-0.160326,-0.038395,2688
1240,-3.21239e-12,1.50806e-38,-1.57367e-06,-3.27827e-12,1.50794e-38,0,-1.13769e-13,0,0,-7.34243,-0.209704,0.259803,0,0,0,0,0,-0.41985,-0.209704,145,15,145,15,201,15,145,63,0.261799,-0.261799,-9.94071e-06,-1.5,3.94113e+12,0,0,3,-0.463373,-0.220928,0,0,0,0,-0.160326,-0.038395,2688
1250,-3.21239e-12,1.50806e-38,-1.57367e-06,-3.27827e-12,1.50794e-38,-3.40903e-12,-1.1377e-13,0,0,-7.34243,-0.209704,0.259803,0,0,0,0,0,-0.41985,-0.209704,145,15,145,15,201,15,145,63,0.261799,-0.261799,-9.60653e-06,-1.5,3.94113e+12,0,0,3,-0.466099,-0.221581,0,0,0,0,-0.160326,-0.038395,2688
1260,-3.21239e-12,1.50806e-38,-1.57367e-06,-3.27827e-12,1.50794e-38,0,-1.1377e-13,0,0,-7.34243,-0.209704,0.259803,0,0,0,0,0,-0.41985,-0.209704,145,15,145,15,201,15,145,63,0.261799,-0.261799,-9.34041e-06,-1.5,3.94113e+12,0,0,3,-0.468344,-0.222119,0,0,0,0,-0.160326,-0.038395,2688
1270,-3.21239e-12,1.50806e-38,-1.57367e-06,-3.27827e-12,1.50794e-38,-3.40903e-12,-1.13771e-13,0,0,-7.34243,-0.209704,0.259803,0,0,0,0,0,-0.41985,-0.209704,145,15,145,15,201,15,145,63,0.261799,-0.261799,-9.06317e-06,-1.5,3.94113e+12,0,0,3,-0.470749,-0.222695,0,0,0,0,-0.160326,-0.038395,2688
1280,-3.21239e-12,1.50806e-38,-1.57367e-06,-3.27827e-12,1.50794e-38,0,-1.13772e-13,0,0,-7.34243,-0.209704,0.259803,0,0,0,0,0,-0.41985,-0.209704,145,15,145,15,201,15,145,63,0.261799,-0.261799,-8.7765e-06,-1.5,3.94113e+12,0,0,3,-0.473314,-0.223309,0,0,0,0,-0.160326,-0.038395,2688
1290,-3.21239e-12,1.50806e-38,-1.57367e-06,-3.27827e-12,1.50794e-38,-3.40903e-12,-1.13772e-13,0,0,-7.34243,-0.209704,0.259803,0,0,0,0,0,-0.41985,-0.209704,145,15,145,15,201,15,145,63,0.261799,-0.261799,-8.44719e-06,-1.5,3.94113e+12,0,0,3,-0.47636,-0.224038,0,0,0,0,-0.160326,-0.038395,2688
1300,-3.21239e-12,1.50806e-38,-1.57367e-06,-3.27827e-12,1.50794e-38,0,-1.13773e-13,0,0,-7.34243,-0.209704,0.259803,0,0,0,0,0,-0.41985,-0.209704,145,15,145,15,201,15,145,63,0.261799,-0.261799,-8.16341e-06,-1.5,3.94113e+12,0,0,3,-0.479086,-0.224691,0,0,0,0,-0.160326,-0.038395,2688
1310,-3.21239e-12,1.50806e-38,-1.57367e-06,-3.27827e-12,1.50794e-38,-3.40903e-12,-1.13773e-13,0,0,-7.34243,-0.209704,0.259803,0,0,0,0,0,-0.41985,-0.209704,145,15,145,15,201,15,145,63,0.261799,-0.261799,-7.90504e-06,-1.5,3.94113e+12,0,0,3,-0.481651,-0.225306,0,0,0,0,-0.160326,-0.038395,2688
1320,-3.21239e-12,1.50806e-38,-1.57367e-06,-3.27827e-12,1.50794e-38,0,-1.13774e-13,0,0,-7.34243,-0.209704,0.259803,0,0,0,0,0,-0.41985,-0.209704,145,15,145,15,201,15,145,63,0.261799,-0.261799,-7.62373e-06,-1.5,3.94113e+12,0,0,3,-0.484537,-0.225997,0,0,0,0,-0.160326,-0.038395,2688
1330,-3.21239e-12,1.50806e-38,-1.57367e-06,-3.27827e-12,1.50794e-38,-3.40903e-12,-1.13774e-13,0,0,-7.34243,-0.209704,0.259803,0,0,0,0,0,-0.41985,-0.209704,145,15,145,15,201,15,145,63,0.261799,-0.261799,-7.38259e-06,-1.5,3.94113e+12,0,0,3,-0.487102,-0.226611,0,0,0,0,-0.160326,-0.038395,2688
1340,-3.21239e-12,1.50806e-38,-1.57367e-06,-3.27827e-12,1.50794e-38,0,-1.13775e-13,0,0,-7.34243,-0.209704,0.259803,0,0,0,0,0,-0.41985,-0.209704,145,15,145,15,201,15,145,63,0.261799,-0.261799,-7.10534e-06,-1.5,3.94113e+12,0,0,3,-0.490148,-0.227341,0,0,0,0,-0.160326,-0.038395,2688
1350,-3.21239e-12,1.50806e-38,-1.57367e-06,-3.27827e-12,1.50794e-38,-3.40903e-12,-1.13775e-13,0,0,-7.34243,-0.209704,0.259803,0,0,0,0,0,-0.41985,-0.209704,145,15,145,15,201,15,145,63,0.261799,-0.261799,-6.89445e-06,-1.5,3.94113e+12,0,0,3,-0.492553,-0.227916,0,0,0,0,-0.160326,-0.038395,2688
1360,-3.21239e-12,1.50806e-38,-1.57367e-06,-3.27827e-12,1.50794e-38,0,-1.13776e-13,0,0,-7.34243,-0.209704,0.259803,0,0,0,0,0,-0.41985,-0.209704,145,15,145,15,201,15,145,63,0.261799,-0.261799,-6.6491e-06,-1.5,3.94113e+12,0,0,3,-0.4956,-0.228646,0,0,0,0,-0.160326,-0.038395,2688
1370,-3.21239e-12,1.50806e-38,-1.57367e-06,-3.27827e-12,1.50794e-38,-3.40903e-12,-1.13776e-13,0,0,-7.34243,-0.209704,0.259803,0,0,0,0,0,-0.41985,-0.209704,145,15,145,15,201,15,145,63,0.261799,-0.261799,-6.43866e-06,-1.5,3.94113e+12,0,0,3,-0.498165,-0.22926,0,0,0,0,-0.160326,-0.038395,2688
1380,-3.21239e-12,1.50806e-38,-1.57367e-06,-3.27827e-12,1.50794e-38,0,-1.13777e-13,0,0,-7.34243,-0.209704,0.259803,0,0,0,0,0,-0.41985,-0.209704,145,15,145,15,201,15,145,63,0.261799,-0.261799,-6.20953e-06,-1.5,3.94113e+12,0,0,3,-0.501051,-0.229951,0,0,0,0,-0.160326,-0.038395,2688
1390,-3.21239e-12,1.50806e-38,-1.57367e-06,-3.27827e-12,1.50794e-38,-3.40903e-12,-1.13777e-13,0,0,-7.34243,-0.209704,0.259803,-0.504253,-0.230718,-0.159605,-0.0382225,0,-0.41985,-0.209704,145,15,145,15,201,15,145,63,0.261799,-0.261799,-5.96433e-06,-1.5,3.94113e+12,0,0,3,-0.504253,-0.230718,0,0,0,0,-0.159605,-0.0382225,2688
1400,-3.21239e-12,1.50806e-38,-1.57367e-06,-3.27827e-12,1.50794e-38,0,-1.13778e-13,0,0,-7.34243,-0.209704,0.259803,-0.50632,-0.231213,-0.15857,-0.0379746,0,-0.41985,-0.209704,145,15,145,15,201,15,145,63,0.261799,-0.261799,-5.81078e-06,-1.5,3.94113e+12,0,0,3,-0.50632,-0.231213,0,0,0,0,-0.15857,-0.0379746,2688
1410,-3.21239e-12,1.50806e-38,-1.57367e-06,-3.27827e-12,1.50794e-38,-3.40903e-12,-1.13779e-13,0,0,-7.34243,-0.209704,0.259803,-0.50853,-0.231742,-0.157463,-0.0377095,0,-0.41985,-0.209704,145,15,145,15,201,15,145,63,0.261799,-0.261799,-5.64974e-06,-1.5,3.94113e+12,0,0,3,-0.50853,-0.231742,0,0,0,0,-0.157463,-0.0377095,2688
1420,-3.21239e-12,1.50806e-38,-1.57367e-06,-3.27827e-12,1.50794e-38,0,-1.13779e-13,0,0,-7.34243,-0.209704,0.259803,-0.511347,-0.232417,-0.15605,-0.0373711,0,-0.41985,-0.209704,145,15,145,15,201,15,145,63,0.261799,-0.261799,-5.44885e-06,-1.5,3.94113e+12,0,0,3,-0.511347,-0.232417,0,0,0,0,-0.15605,-0.0373711,2688
1430,-3.21239e-12,1.50806e-38,-1.57367e-06,-3.27827e-12,1.50794e-38,-3.40903e-12,-1.1378e-13,0,0,-7.34243,-0.209704,0.259803,-0.51414,-0.233086,-0.15465,-0.0370358,0,-0.41985,-0.209704,145,15,145,15,201,15,145,63,0.261799,-0.261799,-5.25509e-06,-1.5,3.94113e+12,0,0,3,-0.51414,-0.233086,0,0,0,0,-0.15465,-0.0370358,2688
1440,-3.21239e-12,1.50806e-38,-1.57367e-06,-3.27827e-12,1.50794e-38,0,-1.1378e-13,0,0,-7.34243,-0.209704,0.259803,-0.517212,-0.233822,-0.153109,-0.0366667,0,-0.41985,-0.209704,145,15,145,15,201,15,145,63,0.261799,-0.261799,-5.04759e-06,-1.5,3.94113e+12,0,0,3,-0.517212,-0.233822,0,0,0,0,-0.153109,-0.0366667,2688
1450,-3.21239e-12,1.50806e-38,-1.57367e-06,-3.27827e-12,1.50794e-38,-3.40903e-12,-1.13781e-13,0,0,-3.19093,-0.484517,-0.952521,-0.519497,-0.234369,-0.151964,-0.0363924,0,1.03318,-0.484517,144,21,144,21,289,21,144,87,0.261799,-0.261799,-4.89777e-06,-1.5,3.94113e+12,0,0,3,-0.519497,-0.234369,0,0,0,0,-0.151964,-0.0363924,9570
1460,-3.21239e-12,1.50806e-38,-1.57367e-06,-3.27827e-12,1.50794e-38,0,-1.13781e-13,0,0,-3.19093,-0.484517,-0.952521,-0.521916,-0.234948,-0.150751,-0.0361021,0,1.03318,-0.484517,144,21,144,21,289,21,144,87,0.261799,-0.261799,-4.74275e-06,-1.5,3.94113e+12,0,0,3,-0.521916,-0.234948,0,0,0,0,-0.150751,-0.0361021,9570
1470,-3.21239e-12,1.50806e-38,-1.57367e-06,-3.27827e-12,1.50794e-38,-3.40903e-12,-1.13782e-13,0,0,-3.19093,-0.484517,-0.952521,-0.524613,-0.235594,-0.149399,-0.0357781,0,1.03318,-0.484517,144,21,144,21,289,21,144,87,0.261799,-0.261799,-4.57411e-06,-1.5,3.94113e+12,0,0,3,-0.524613,-0.235594,0,0,0,0,-0.149399,-0.0357781,9570
1480,-3.21239e-12,1.50806e-38,-1.57367e-06,-3.27827e-12,1.50794e-38,0,-1.13782e-13,0,0,-3.19093,-0.484517,-0.952521,-0.527139,-0.236199,-0.148133,-0.0354749,0,1.03318,-0.484517,144,21,144,21,289,21,144,87,0.261799,-0.261799,-4.42044e-06,-1.5,3.94113e+12,0,0,3,-0.527139,-0.236199,0,0,0,0,-0.148133,-0.0354749,9570
1490,-3.21239e-12,1.50806e-38,-1.57367e-06,-3.27827e-12,1.50794e-38,-3.40903e-12,-1.13783e-13,0,0,-3.19093,-0.484517,-0.952521,-0.530081,-0.236904,-0.146656,-0.0351213,0,1.03318,-0.484517,144,21,144,21,289,21,144,87,0.261799,-0.261799,-4.24574e-06,-1.5,3.94113e+12,0,0,3,-0.530081,-0.236904,0,0,0,0,-0.146656,-0.0351213,9570
1500,-3.21239e-12,1.50806e-38,-1.57367e-06,-3.27827e-12,1.50794e-38,0,-1.13783e-13,0,0,-3.19093,-0.484517,-0.952521,-0.532416,-0.237463,-0.145486,-0.0348411,0,1.03318,-0.484517,144,21,144,21,289,21,144,87,0.261799,-0.261799,-4.11972e-06,-1.5,3.94113e+12,0,0,3,-0.532416,-0.237463,0,0,0,0,-0.145486,-0.0348411,9570
1510,-3.21239e-12,1.50806e-38,-1.57367e-06,-3.27827e-12,1.50794e-38,-3.40903e-12,-1.13784e-13,0,0,-3.30099,-0.47804,-0.914547,-0.534731,-0.238017,-0.144325,-0.0345631,0,0.994652,-0.47804,144,20,144,20,284,20,144,85,0.261799,-0.261799,-3.98933e-06,-1.5,3.94113e+12,0,0,3,-0.534731,-0.238017,0,0,0,0,-0.144325,-0.0345631,9100
1520,-3.21239e-12,1.50806e-38,-1.57367e-06,-3.27827e-12,1.50794e-38,0,-1.13785e-13,0,0,-3.30099,-0.47804,-0.914547,-0.537598,-0.238704,-0.142886,-0.0342185,0,0.994652,-0.47804,144,20,144,20,284,20,144,85,0.261799,-0.261799,-3.83166e-06,-1.5,3.94113e+12,0,0,3,-0.537598,-0.238704,0,0,0,0,-0.142886,-0.0342185,9100
1530,-3.21239e-12,1.50806e-38,-1.57367e-06,-3.27827e-12,1.50794e-38,-3.40903e-12,-1.13785e-13,0,0,-3.30099,-0.47804,-0.914547,-0.539589,-0.239181,-0.141889,-0.0339796,0,0.994652,-0.47804,144,20,144,20,284,20,144,85,0.261799,-0.261799,-3.72547e-06,-1.5,3.94113e+12,0,0,3,-0.539589,-0.239181,0,0,0,0,-0.141889,-0.0339796,9100
1540,-3.21239e-12,1.50806e-38,-1.57367e-06,-3.27827e-12,1.50794e-38,0,-1.13786e-13,0,0,-3.30099,-0.47804,-0.914547,-0.542687,-0.239922,-0.140333,-0.0336071,0,0.994652,-0.47804,144,20,144,20,284,20,144,85,0.261799,-0.261799,-3.56373e-06,-1.5,3.94113e+12,0,0,3,-0.542687,-0.239922,0,0,0,0,-0.140333,-0.0336071,9100
1550,-3.21239e-12,1.50806e-38,-1.57367e-06,-3.27827e-12,1.50794e-38,-3.40903e-12,-1.13786e-13,0,0,-3.30099,-0.47804,-0.914547,-0.545059,-0.240491,-0.139144,-0.0333223,0,0.994652,-0.47804,144,20,144,20,284,20,144,85,0.261799,-0.261799,-3.44401e-06,-1.5,3.94113e+12,0,0,3,-0.545059,-0.240491,0,0,0,0,-0.139144,-0.0333223,9100
1560,-3.21239e-12,1.50806e-38,-1.57367e-06,-3.27827e-12,1.50794e-38,0,-1.13787e-13,0,0,-3.30099,-0.47804,-0.914547,-0.547136,-0.240988,-0.138103,-0.033073,0,0.994652,-0.47804,144,20,144,20,284,20,144,85,0.261799,-0.261799,-3.34178e-06,-1.5,3.94113e+12,0,0,3,-0.547136,-0.240988,0,0,0,0,-0.138103,-0.033073,9100
1570,-3.21239e-12,1.50806e-38,-1.57367e-06,-3.27827e-12,1.50794e-38,-3.40903e-12,-1.13787e-13,0,0,-3.30099,-0.47804,-0.914547,-0.549608,-0.24158,-0.136864,-0.0327763,0,0.994652,-0.47804,144,20,144,20,284,20,144,85,0.261799,-0.261799,-3.22295e-06,-1.5,3.94113e+12,0,0,3,-0.549608,-0.24158,0,0,0,0,-0.136864,-0.0327763,9100
1580,-3.21239e-12,1.50806e-38,-1.57367e-06,-3.27827e-12,1.50794e-38,0,-1.13788e-13,0,0,-3.30099,-0.47804,-0.914547,-0.551651,-0.242069,-0.13584,-0.0325312,0,0.994652,-0.47804,144,20,144,20,284,20,144,85,0.261799,-0.261799,-3.12734e-06,-1.5,3.94113e+12,0,0,3,-0.551651,-0.242069,0,0,0,0,-0.13584,-0.0325312,9100
1590,-3.21239e-12,1.50806e-38,-1.57367e-06,-3.27827e-12,1.50794e-38,-3.40903e-12,-1.13788e-13,0,0,-3.30099,-0.47804,-0.914547,-0.554215,-0.242683,-0.134554,-0.032223,0,0.994652,-0.47804,144,20,144,20,284,20,144,85,0.261799,-0.261799,-3.0099e-06,-1.5,3.94113e+12,0,0,3,-0.554215,-0.242683,0,0,0,0,-0.134554,-0.032223,9100
1600,-3.21239e-12,1.50806e-38,-1.57367e-06,-3.27827e-12,1.50794e-38,0,-1.13789e-13,0,0,-3.30099,-0.47804,-0.914547,-0.556623,-0.24326,-0.133346,-0.0319339,0,0.994652,-0.47804,144,20,144,20,284,20,144,85,0.261799,-0.261799,-2.90287e-06,-1.5,3.94113e+12,0,0,3,-0.556623,-0.24326,0,0,0,0,-0.133346,-0.0319339,9100
1610,-3.21239e-12,1.50806e-38,-1.57367e-06,-3.27827e-12,1.50794e-38,-3.40903e-12,-1.13789e-13,0,0,-3.30099,-0.47804,-0.914547,-0.558613,-0.243736,-0.132349,-0.031695,0,0.994652,-0.47804,144,20,144,20,284,20,144,85,0.261799,-0.261799,-2.81671e-06,-1.5,3.94113e+12,0,0,3,-0.558613,-0.243736,0,0,0,0,-0.132349,-0.031695,9100
1620,-3.21239e-12,1.50806e-38,-1.57367e-06,-3.27827e-12,1.50794e-38,0,-1.1379e-13,0,0,-3.30099,-0.47804,-0.914547,-0.560981,-0.244304,-0.131161,-0.0314106,0,0.994652,-0.47804,144,20,144,20,284,20,144,85,0.261799,-0.261799,-2.71647e-06,-1.5,3.94113e+12,0,0,3,-0.560981,-0.244304,0,0,0,0,-0.131161,-0.0314106,9100
1630,-3.21239e-12,1.50806e-38,-1.57367e-06,-3.27827e-12,1.50794e-38,-3.40903e-12,-1.1379e-13,0,0,-3.30099,-0.47804,-0.914547,-0.562939,-0.244772,-0.13018,-0.0311757,0,0.994652,-0.47804,144,20,144,20,284,20,144,85,0.261799,-0.261799,-2.63584e-06,-1.5,3.94113e+12,0,0,3,-0.562939,-0.244772,0,0,0,0,-0.13018,-0.0311757,9100
1640,-3.21239e-12,1.50806e-38,-1.57367e-06,-3.27827e-12,1.50794e-38,0,-1.13791e-13,0,0,-3.30099,-0.47804,-0.914547,-0.565396,-0.245361,-0.128947,-0.0308804,0,0.994652,-0.47804,144,20,144,20,284,20,144,85,0.261799,-0.261799,-2.53686e-06,-1.5,3.94113e+12,0,0,3,-0.565396,-0.245361,0,0,0,0,-0.128947,-0.0308804,9100
1650,-3.21239e-12,1.50806e-38,-1.57367e-06,-3.27827e-12,1.50794e-38,-3.40903e-12,-1.13792e-13,0,0,-3.30099,-0.47804,-0.914547,-0.56783,-0.245944,-0.127726,-0.0305879,0,0.994652,-0.47804,144,20,144,20,284,20,144,85,0.261799,-0.261799,-2.44167e-06,-1.5,3.94113e+12,0,0,3,-0.56783,-0.245944,0,0,0,0,-0.127726,-0.0305879,9100
1660,-3.21239e-12,1.50806e-38,-1.57367e-06,-3.27827e-12,1.50794e-38,0,-1.13792e-13,0,0,-3.30099,-0.47804,-0.914547,-0.569611,-0.24637,-0.126834,-0.0303744,0,0.994652,-0.47804,144,20,144,20,284,20,144,85,0.261799,-0.261799,-2.37403e-06,-1.5,3.94113e+12,0,0,3,-0.569611,-0.24637,0,0,0,0,-0.126834,-0.0303744,9100
1670,-3.21239e-12,1.50806e-38,-1.57367e-06,-3.27827e-12,1.50794e-38,-3.40903e-12,-1.13793e-13,0,0,-3.30099,-0.47804,-0.914547,-0.571504,-0.246824,-0.125885,-0.0301472,0,0.994652,-0.47804,144,20,144,20,284,20,144,85,0.261799,-0.261799,-2.30356e-06,-1.5,3.94113e+12,0,0,3,-0.571504,-0.246824,0,0,0,0,-0.125885,-0.0301472,9100
1680,-3.21239e-12,1.50806e-38,-1.57367e-06,-3.27827e-12,1.50794e-38,0,-1.13793e-13,0,0,-3.30099,-0.47804,-0.914547,-0.574004,-0.247422,-0.12463,-0.0298466,0,0.994652,-0.47804,144,20,144,20,284,20,144,85,0.261799,-0.261799,-2.21252e-06,-1.5,3.94113e+12,0,0,3,-0.574004,-0.247422,0,0,0,0,-0.12463,-0.0298466,9100
1690,-3.21239e-12,1.50806e-38,-1.57367e-06,-3.27827e-12,1.50794e-38,-3.40903e-12,-1.13794e-13,0,0,-3.30099,-0.47804,-0.914547,-0.575865,-0.247868,-0.123698,-0.0296234,0,0.994652,-0.47804,144,20,144,20,284,20,144,85,0.261799,-0.261799,-2.14685e-06,-1.5,3.94113e+12,0,0,3,-0.575865,-0.247868,0,0,0,0,-0.123698,-0.0296234,9100
1700,-3.21239e-12,1.50806e-38,-1.57367e-06,-3.27827e-12,1.50794e-38,0,-1.13794e-13,0,0,-3.30099,-0.47804,-0.914547,-0.577956,-0.248369,-0.12265,-0.0293723,0,0.994652,-0.47804,144,20,144,20,284,20,144,85,0.261799,-0.261799,-2.07473e-06,-1.5,3.94113e+12,0,0,3,-0.577956,-0.248369,0,0,0,0,-0.12265,-0.0293723,9100
1710,-3.21239e-12,1.50806e-38,-1.57367e-06,-3.27827e-12,1.50794e-38,-3.40903e-12,-1.13795e-13,0,0,-3.30099,-0.47804,-0.914547,-0.579787,-0.248807,-0.121732,-0.0291526,0,0.994652,-0.47804,144,20,144,20,284,20,144,85,0.261799,-0.261799,-2.0091e-06,-1.5,3.94113e+12,0,0,3,-0.579787,-0.248807,0,0,0,0,-0.121732,-0.0291526,9100
1720,-3.21239e-12,1.50806e-38,-1.57367e-06,-3.27827e-12,1.50794e-38,0,-1.13795e-13,0,0,-3.30099,-0.47804,-0.914547,-0.58446,-0.249926,-0.119368,-0.0285863,0,0.994652,-0.47804,144,20,144,20,284,20,144,85,0.261799,-0.261799,-1.85874e-06,-1.5,3.94113e+12,0,0,3,-0.58446,-0.249926,0,0,0,0,-0.119368,-0.0285863,9100
1730,-3.21239e-12,1.50806e-38,-1.57367e-06,-3.27827e-12,1.50794e-38,-3.40903e-12,-1.13796e-13,0,0,-3.30099,-0.47804,-0.914547,-0.586713,-0.250466,-0.118237,-0.0283155,0,0.994652,-0.47804,144,20,144,20,284,20,144,85,0.261799,-0.261799,-1.78893e-06,-1.5,3.94113e+12,0,0,3,-0.586713,-0.250466,0,0,0,0,-0.118237,-0.0283155,9100
1740,-3.21239e-12,1.50806e-38,-1.57367e-06,-3.27827e-12,1.50794e-38,0,-1.13796e-13,0,0,-3.30099,-0.47804,-0.914547,-0.588478,-0.250889,-0.117353,-0.0281038,0,0.994652,-0.47804,144,20,144,20,284,20,144,85,0.261799,-0.261799,-1.73583e-06,-1.5,3.94113e+12,0,0,3,-0.588478,-0.250889,0,0,0,0,-0.117353,-0.0281038,9100
1750,-3.21239e-12,1.50806e-38,-1.57367e-06,-3.27827e-12,1.50794e-38,-3.40903e-12,-1.13797e-13,0,0,-3.30099,-0.47804,-0.914547,-0.590462,-0.251364,-0.116358,-0.0278656,0,0.994652,-0.47804,144,20,144,20,284,20,144,85,0.261799,-0.261799,-1.67752e-06,-1.5,3.94113e+12,0,0,3,-0.590462,-0.251364,0,0,0,0,-0.116358,-0.0278656,9100
1760,-3.21239e-12,1.50806e-38,-1.57367e-06,-3.27827e-12,1.50794e-38,0,-1.13798e-13,0,0,-3.30099,-0.47804,-0.914547,-0.592774,-0.251917,-0.115198,-0.0275878,0,0.994652,-0.47804,144,20,144,20,284,20,144,85,0.261799,-0.261799,-1.61128e-06,-1.5,3.94113e+12,0,0,3,-0.592774,-0.251917,0,0,0,0,-0.115198,-0.0275878,9100
1770,-3.21239e-12,1.50806e-38,-1.57367e-06,-3.27827e-12,1.50794e-38,-3.40903e-12,-1.13798e-13,0,0,-3.30099,-0.47804,-0.914547,-0.594607,-0.252356,-0.114279,-0.0273677,0,0.994652,-0.47804,144,20,144,20,284,20,144,85,0.261799,-0.261799,-1.56028e-06,-1.5,3.94113e+12,0,0,3,-0.594607,-0.252356,0,0,0,0,-0.114279,-0.0273677,9100
1780,-3.21239e-12,1.50806e-38,-1.57367e-06,-3.27827e-12,1.50794e-38,0,-1.13799e-13,0,0,-6.68452,0.248153,0.0889336,-0.597102,-0.252954,-0.113026,-0.0270676,0,-0.189582,0.248153,119,13,119,13,181,13,119,65,0.261799,-0.261799,-1.49248e-06,-1.5,3.94113e+12,0,0,3,-0.597102,-0.252954,0,0,0,0,-0.113026,-0.0270676,3224
1790,-3.21239e-12,1.50806e-38,-1.57367e-06,-3.27827e-12,1.50794e-38,-3.40903e-12,-1.13799e-13,0,0,-6.68452,0.248153,0.0889336,-0.598677,-0.253331,-0.112237,-0.0268786,0,-0.189582,0.248153,119,13,119,13,181,13,119,65,0.261799,-0.261799,-1.45113e-06,-1.5,3.94113e+12,0,0,3,-0.598677,-0.253331,0,0,0,0,-0.112237,-0.0268786,3224
1800,-3.21239e-12,1.50806e-38,-1.57367e-06,-3.27827e-12,1.50794e-38,0,-1.138e-13,0,0,-6.68452,0.248153,0.0889336,-0.60013,-0.253679,-0.111509,-0.0267044,0,-0.189582,0.248153,119,13,119,13,181,13,119,65,0.261799,-0.261799,-1.41377e-06,-1.5,3.94113e+12,0,0,3,-0.60013,-0.253679,0,0,0,0,-0.111509,-0.0267044,3224
1810,-3.21239e-12,1.50806e-38,-1.57367e-06,-3.27827e-12,1.50794e-38,-3.40903e-12,-1.138e-13,0,0,-6.68452,0.248153,0.0889336,-0.602126,-0.254157,-0.110509,-0.0264648,0,-0.189582,0.248153,119,13,119,13,181,13,119,65,0.261799,-0.261799,-1.3635e-06,-1.5,3.94113e+12,0,0,3,-0.602126,-0.254157,0,0,0,0,-0.110509,-0.0264648,3224
1820,-3.21239e-12,1.50806e-38,-1.57367e-06,-3.27827e-12,1.50794e-38,0,-1.13801e-13,0,0,-6.68452,0.248153,0.0889336,-0.604212,-0.254657,-0.109462,-0.0262141,0,-0.189582,0.248153,119,13,119,13,181,13,119,65,0.261799,-0.261799,-1.31234e-06,-1.5,3.94113e+12,0,0,3,-0.604212,-0.254657,0,0,0,0,-0.109462,-0.0262141,3224
1830,-3.21239e-12,1.50806e-38,-1.57367e-06,-3.27827e-12,1.50794e-38,-3.40903e-12,-1.13801e-13,0,0,-6.68452,0.248153,0.0889336,-0.606386,-0.255177,-0.108371,-0.0259528,0,-0.189582,0.248153,119,13,119,13,181,13,119,65,0.261799,-0.261799,-1.26047e-06,-1.5,3.94113e+12,0,0,3,-0.606386,-0.255177,0,0,0,0,-0.108371,-0.0259528,3224
1840,-3.21239e-12,1.50806e-38,-1.57367e-06,-3.27827e-12,1.50794e-38,0,-1.13802e-13,0,0,-6.68452,0.248153,0.0889336,-0.608218,-0.255616,-0.107452,-0.0257328,0,-0.189582,0.248153,119,13,119,13,181,13,119,65,0.261799,-0.261799,-1.2181e-06,-1.5,3.94113e+12,0,0,3,-0.608218,-0.255616,0,0,0,0,-0.107452,-0.0257328,3224
1850,-3.21239e-12,1.50806e-38,-1.57367e-06,-3.27827e-12,1.50794e-38,-3.40903e-12,-1.13802e-13,0,0,-6.68452,0.248153,0.0889336,-0.609822,-0.256,-0.106649,-0.0255403,0,-0.189582,0.248153,119,13,119,13,181,13,119,65,0.261799,-0.261799,-1.18194e-06,-1.5,3.94113e+12,0,0,3,-0.609822,-0.256,0,0,0,0,-0.106649,-0.0255403,3224
1860,-3.21239e-12,1.50806e-38,-1.57367e-06,-3.27827e-12,1.50794e-38,0,-1.13803e-13,0,0,-6.68452,0.248153,0.0889336,-0.611625,-0.256432,-0.105745,-0.0253238,0,-0.189582,0.248153,119,13,119,13,181,13,119,65,0.261799,-0.261799,-1.14221e-06,-1.5,3.94113e+12,0,0,3,-0.611625,-0.256432,0,0,0,0,-0.105745,-0.0253238,3224
1870,-3.21239e-12,1.50806e-38,-1.57367e-06,-3.27827e-12,1.50794e-38,-3.40903e-12,-1.13803e-13,0,0,-6.68452,0.248153,0.0889336,-0.613308,-0.256835,-0.104901,-0.0251218,0,-0.189582,0.248153,119,13,119,13,181,13,119,65,0.261799,-0.261799,-1.10608e-06,-1.5,3.94113e+12,0,0,3,-0.613308,-0.256835,0,0,0,0,-0.104901,-0.0251218,3224
1880,-3.21239e-12,1.50806e-38,-1.57367e-06,-3.27827e-12,1.50794e-38,0,-1.13804e-13,0,0,-6.68452,0.248153,0.0889336,-0.615494,-0.257358,-0.103803,-0.0248589,0,-0.189582,0.248153,119,13,119,13,181,13,119,65,0.261799,-0.261799,-1.06019e-06,-1.5,3.94113e+12,0,0,3,-0.615494,-0.257358,0,0,0,0,-0.103803,-0.0248589,3224
1890,-3.21239e-12,1.50806e-38,-1.57367e-06,-3.27827e-12,1.50794e-38,-3.40903e-12,-1.13805e-13,0,0,-6.68452,0.248153,0.0889336,-0.617249,-0.257779,-0.102923,-0.0246482,0,-0.189582,0.248153,119,13,119,13,181,13,119,65,0.261799,-0.261799,-1.02455e-06,-1.5,3.94113e+12,0,0,3,-0.617249,-0.257779,0,0,0,0,-0.102923,-0.0246482,3224
1900,-3.21239e-12,1.50806e-38,-1.57367e-06,-3.27827e-12,1.50794e-38,0,-1.13805e-13,0,0,-6.80211,-0.184534,0.090341,-0.618887,-0.258171,-0.102102,-0.0244515,0,-0.230739,-0.184534,142,15,142,15,203,15,142,66,0.261799,-0.261799,-9.92139e-07,-1.5,3.94113e+12,0,0,3,-0.618887,-0.258171,0,0,0,0,-0.102102,-0.0244515,3111
1910,-3.21239e-12,1.50806e-38,-1.57367e-06,-3.27827e-12,1.50794e-38,-3.40903e-12,-1.13806e-13,0,0,-6.80211,-0.184534,0.090341,-0.620613,-0.258584,-0.101237,-0.0242443,0,-0.230739,-0.184534,142,15,142,15,203,15,142,66,0.261799,-0.261799,-9.58785e-07,-1.5,3.94113e+12,0,0,3,-0.620613,-0.258584,0,0,0,0,-0.101237,-0.0242443,3111
1920,-3.21239e-12,1.50806e-38,-1.57367e-06,-3.27827e-12,1.50794e-38,0,-1.13806e-13,0,0,-6.80211,-0.184534,0.090341,-0.621924,-0.258898,-0.10058,-0.0240871,0,-0.230739,-0.184534,142,15,142,15,203,15,142,66,0.261799,-0.261799,-9.34101e-07,-1.5,3.94113e+12,0,0,3,-0.621924,-0.258898,0,0,0,0,-0.10058,-0.0240871,3111
1930,-3.21239e-12,1.50806e-38,-1.57367e-06,-3.27827e-12,1.50794e-38,-3.40903e-12,-1.13807e-13,0,0,-6.80211,-0.184534,0.090341,-0.623724,-0.259329,-0.099678,-0.023871,0,-0.230739,-0.184534,142,15,142,15,203,15,142,66,0.261799,-0.261799,-9.00886e-07,-1.5,3.94113e+12,0,0,3,-0.623724,-0.259329,0,0,0,0,-0.099678,-0.023871,3111
1940,-3.21239e-12,1.50806e-38,-1.57367e-06,-3.27827e-12,1.50794e-38,0,-1.13807e-13,0,0,-6.80211,-0.184534,0.090341,-0.625409,-0.259733,-0.0988332,-0.0236687,0,-0.230739,-0.184534,142,15,142,15,203,15,142,66,0.261799,-0.261799,-8.70621e-07,-1.5,3.94113e+12,0,0,3,-0.625409,-0.259733,0,0,0,0,-0.0988332,-0.0236687,3111
1950,-3.21239e-12,1.50806e-38,-1.57367e-06,-3.27827e-12,1.50794e-38,-3.40903e-12,-1.13808e-13,0,0,-6.80211,-0.184534,0.090341,-0.626982,-0.26011,-0.0980448,-0.0234799,0,-0.230739,-0.184534,142,15,142,15,203,15,142,66,0.261799,-0.261799,-8.43083e-07,-1.5,3.94113e+12,0,0,3,-0.626982,-0.26011,0,0,0,0,-0.0980448,-0.0234799,3111
1960,-3.21239e-12,1.50806e-38,-1.57367e-06,-3.27827e-12,1.50794e-38,0,-1.13808e-13,0,0,-6.80211,-0.184534,0.090341,-0.628737,-0.26053,-0.0971652,-0.0232692,0,-0.230739,-0.184534,142,15,142,15,203,15,142,66,0.261799,-0.261799,-8.13105e-07,-1.5,3.94113e+12,0,0,3,-0.628737,-0.26053,0,0,0,0,-0.0971652,-0.0232692,3111
1970,-3.21239e-12,1.50806e-38,-1.57367e-06,-3.27827e-12,1.50794e-38,-3.40903e-12,-1.13809e-13,0,0,-6.80211,-0.184534,0.090341,-0.630571,-0.260969,-0.096245,-0.0230489,0,-0.230739,-0.184534,142,15,142,15,203,15,142,66,0.261799,-0.261799,-7.82595e-07,-1.5,3.94113e+12,0,0,3,-0.630571,-0.260969,0,0,0,0,-0.096245,-0.0230489,3111
1980,-3.21239e-12,1.50806e-38,-1.57367e-06,-3.27827e-12,1.50794e-38,0,-1.13809e-13,0,0,-6.80211,-0.184534,0.090341,-0.632008,-0.261313,-0.0955252,-0.0228765,0,-0.230739,-0.184534,142,15,142,15,203,15,142,66,0.261799,-0.261799,-7.59378e-07,-1.5,3.94113e+12,0,0,3,-0.632008,-0.261313,0,0,0,0,-0.0955252,-0.0228765,3111
1990,-3.21239e-12,1.50806e-38,-1.57367e-06,-3.27827e-12,1.50794e-38,-3.40903e-12,-1.1381e-13,0,0,-6.80211,-0.184534,0.090341,-0.633623,-0.2617,-0.0947156,-0.0226826,0,-0.230739,-0.184534,142,15,142,15,203,15,142,66,0.261799,-0.261799,-7.33868e-07,-1.5,3.94113e+12,0,0,3,-0.633623,-0.2617,0,0,0,0,-0.0947156,-0.0226826,3111
2000,-3.21239e-12,1.50806e-38,-1.57367e-06,-3.27827e-12,1.50794e-38,0,-1.13811e-13,0,0,-6.80211,-0.184534,0.090341,-0.635224,-0.262083,-0.093913,-0.0224904,0,-0.230739,-0.184534,142,15,142,15,203,15,142,66,0.261799,-0.261799,-7.09214e-07,-1.5,3.94113e+12,0,0,3,-0.635224,-0.262083,0,0,0,0,-0.093913,-0.0224904,3111
2010,-3.21239e-12,1.50806e-38,-1.57367e-06,-3.27827e-12,1.50794e-38,-3.40903e-12,-1.13811e-13,0,0,-6.80211,-0.184534,0.090341,-0.636905,-0.262486,-0.0930704,-0.0222886,0,-0.230739,-0.184534,142,15,142,15,203,15,142,66,0.261799,-0.261799,-6.83995e-07,-1.5,3.94113e+12,0,0,3,-0.636905,-0.262486,0,0,0,0,-0.0930704,-0.0222886,3111
2020,-3.21239e-12,1.50806e-38,-1.57367e-06,-3.27827e-12,1.50794e-38,0,-1.13812e-13,0,0,-6.84859,-0.166231,0.112106,-0.638662,-0.262907,-0.0921888,-0.0220775,0,-0.247007,-0.166231,141,15,141,15,202,15,141,65,0.261799,-0.261799,-6.58308e-07,-1.5,3.94113e+12,0,0,3,-0.638662,-0.262907,0,0,0,0,-0.0921888,-0.0220775,3050
2030,-3.21239e-12,1.50806e-38,-1.57367e-06,-3.27827e-12,1.50794e-38,-3.40903e-12,-1.13812e-13,0,0,-6.84859,-0.166231,0.112106,-0.640038,-0.263236,-0.0914992,-0.0219123,0,-0.247007,-0.166231,141,15,141,15,202,15,141,65,0.261799,-0.261799,-6.38769e-07,-1.5,3.94113e+12,0,0,3,-0.640038,-0.263236,0,0,0,0,-0.0914992,-0.0219123,3050
2040,-3.21239e-12,1.50806e-38,-1.57367e-06,-3.27827e-12,1.50794e-38,0,-1.13813e-13,0,0,-6.84859,-0.166231,0.112106,-0.641585,-0.263607,-0.0907238,-0.0217266,0,-0.247007,-0.166231,141,15,141,15,202,15,141,65,0.261799,-0.261799,-6.1731e-07,-1.5,3.94113e+12,0,0,3,-0.641585,-0.263607,0,0,0,0,-0.0907238,-0.0217266,3050
2050,-3.21239e-12,1.50806e-38,-1.57367e-06,-3.27827e-12,1.50794e-38,-3.40903e-12,-1.13813e-13,0,0,-6.84859,-0.166231,0.112106,-0.643298,-0.264017,-0.0898648,-0.0215209,0,-0.247007,-0.166231,141,15,141,15,202,15,141,65,0.261799,-0.261799,-5.95359e-07,-1.5,3.94113e+12,0,0,3,-0.643298,-0.264017,0,0,0,0,-0.0898648,-0.0215209,3050
2060,-3.21239e-12,1.50806e-38,-1.57367e-06,-3.27827e-12,1.50794e-38,0,-1.13814e-13,0,0,-6.84859,-0.166231,0.112106,-0.644906,-0.264402,-0.0890585,-0.0213278,0,-0.247007,-0.166231,141,15,141,15,202,15,141,65,0.261799,-0.261799,-5.74189e-07,-1.5,3.94113e+12,0,0,3,-0.644906,-0.264402,0,0,0,0,-0.0890585,-0.0213278,3050
2070,-3.21239e-12,1.50806e-38,-1.57367e-06,-3.27827e-12,1.50794e-38,-3.40903e-12,-1.13814e-13,0,0,-6.84859,-0.166231,0.112106,-0.646675,-0.264826,-0.0881708,-0.0211152,0,-0.247007,-0.166231,141,15,141,15,202,15,141,65,0.261799,-0.261799,-5.51516e-07,-1.5,3.94113e+12,0,0,3,-0.646675,-0.264826,0,0,0,0,-0.0881708,-0.0211152,3050
2080,-3.21239e-12,1.50806e-38,-1.57367e-06,-3.27827e-12,1.50794e-38,0,-1.13815e-13,0,0,-6.84859,-0.166231,0.112106,-0.648078,-0.265162,-0.0874674,-0.0209468,0,-0.247007,-0.166231,141,15,141,15,202,15,141,65,0.261799,-0.261799,-5.34061e-07,-1.5,3.94113e+12,0,0,3,-0.648078,-0.265162,0,0,0,0,-0.0874674,-0.0209468,3050
2090,-3.21239e-12,1.50806e-38,-1.57367e-06,-3.27827e-12,1.50794e-38,-3.40903e-12,-1.13815e-13,0,0,-6.84859,-0.166231,0.112106,-0.649384,-0.265474,-0.0868131,-0.0207901,0,-0.247007,-0.166231,141,15,141,15,202,15,141,65,0.261799,-0.261799,-5.18209e-07,-1.5,3.94113e+12,0,0,3,-0.649384,-0.265474,0,0,0,0,-0.0868131,-0.0207901,3050
2100,-3.21239e-12,1.50806e-38,-1.57367e-06,-3.27827e-12,1.50794e-38,0,-1.13816e-13,0,0,-6.84859,-0.166231,0.112106,-0.650851,-0.265826,-0.0860773,-0.0206139,0,-0.247007,-0.166231,141,15,141,15,202,15,141,65,0.261799,-0.261799,-5.00788e-07,-1.5,3.94113e+12,0,0,3,-0.650851,-0.265826,0,0,0,0,-0.0860773,-0.0206139,3050
