timestamp,A_x,A_y,A_z,P,Q,R,Phi,Theta,Psi,poseX,poseY,poseZ,state_X,state_Y,state_Z,state_VzB,state_Bx,state_By,state_Bz,p1_x,p1_y,p2_x,p2_y,p3_x,p3_y,p4_x,p4_y,roll,pitch,yaw,alt,targetHeading,highLevelState,lowLevelState,gateNumber,filtered_x,filtered_y,x_OT,y_OT,vx_OT,vy_OT,filtered_vx,filtered_vygateArea
10,0,0,0,0,0,0,0,0,0,0,0,0,0,0,0,0,0,0,0,0,0,0,0,0,0,0,0,0,-0.261799,0.00779127,-1.5,-nan,0,0,3,0,0,0,0,0,0,0,0,1.9603e-19
20,0,0,0,0,0,0,0,0,0,0,0,0,0,0,0,0,0,0,0,0,0,0,0,0,0,0,0,0,-0.261799,0.00752934,-1.5,-nan,0,0,3,0,0,0,0,0,0,0,0,1.9603e-19
30,-3.34296e-12,0,-1.60906e-06,-3.40794e-12,0,-3.96345e-12,-1.13703e-13,0,0,0,0,0,0,0,0,0,0,0,0,0,0,0,0,0,0,0,0,0,-0.261799,-0.00151156,-1.5,-nan,0,0,3,0,0,0,0,0,0,0,0,1.9603e-19
40,-3.34296e-12,0,-1.60906e-06,-3.40794e-12,0,0,-1.13703e-13,0,0,0,0,0,0,0,0,0,0,0,0,0,0,0,0,0,0,0,0,0,-0.261799,-0.00146372,-1.5,-nan,0,0,3,0,0,0,0,0,0,0,0,1.9603e-19
50,-3.34296e-12,0,-1.60906e-06,-3.40794e-12,0,-3.96345e-12,-1.13704e-13,0,0,0,0,0,0,0,0,0,0,0,0,0,0,0,0,0,0,0,0,0,-0.261799,-0.00141742,-1.5,-nan,0,0,3,0,0,0,0,0,0,0,0,1.9603e-19
60,-3.34296e-12,0,-1.60906e-06,-3.40794e-12,0,0,-1.13704e-13,0,0,0,0,0,0,0,0,0,0,0,0,0,0,0,0,0,0,0,0,0,-0.261799,-0.00137535,-1.5,-nan,0,0,3,0,0,0,0,0,0,0,0,1.9603e-19
70,-3.34296e-12,0,-1.60906e-06,-3.40794e-12,0,-3.96345e-12,-1.13705e-13,0,0,0,0,0,0,0,0,0,0,0,0,0,0,0,0,0,0,0,0,0,-0.261799,-0.00133453,-1.5,-nan,0,0,3,0,0,0,0,0,0,0,0,1.9603e-19
80,-3.34296e-12,0,-1.60906e-06,-3.40794e-12,0,0,-1.13705e-13,0,0,0,0,0,0,0,0,0,0,0,0,0,0,0,0,0,0,0,0,0,-0.261799,-0.00129491,-1.5,-nan,0,0,3,0,0,0,0,0,0,0,0,1.9603e-19
90,-3.34296e-12,0,-1.60906e-06,-3.40794e-12,0,-3.96345e-12,-1.13706e-13,0,0,0,0,0,0,0,0,0,0,0,0,0,0,0,0,0,0,0,0,0,-0.261799,-0.00125396,-1.5,-nan,0,0,3,0,0,0,0,0,0,0,0,1.9603e-19
100,-3.34296e-12,0,-1.60906e-06,-3.40794e-12,0,0,-1.13706e-13,0,0,0,0,0,0,0,0,0,0,0,0,0,0,0,0,0,0,0,0,0,-0.261799,-0.00121676,-1.5,-nan,0,0,3,0,0,0,0,0,0,0,0,1.9603e-19
110,-3.34296e-12,0,-1.60906e-06,-3.40794e-12,0,-3.96345e-12,-1.13707e-13,0,0,0,0,0,0,0,0,0,0,0,0,0,0,0,0,0,0,0,0,0,-0.261799,-0.00118064,-1.5,-nan,0,0,3,0,0,0,0,0,0,0,0,1.9603e-19
120,-3.34296e-12,0,-1.60906e-06,-3.40794e-12,0,0,-1.13708e-13,0,0,0,0,0,0,0,0,0,0,0,0,0,0,0,0,0,0,0,0,0,-0.261799,-0.00106659,-1.5,-nan,0,0,3,0,0,0,0,0,0,0,0,1.9603e-19
130,-3.34296e-12,0,-1.60906e-06,-3.40794e-12,0,-3.96345e-12,-1.13708e-13,0,0,0,0,0,0,0,0,0,0,0,0,0,0,0,0,0,0,0,0,0,-0.261799,-0.000999335,-1.5,-nan,0,0,3,0,0,0,0,0,0,0,0,1.9603e-19
140,-3.34296e-12,0,-1.60906e-06,-3.40794e-12,0,0,-1.13709e-13,0,0,0,0,0,0,0,0,0,0,0,0,0,0,0,0,0,0,0,0,0,-0.261799,-0.000812654,-1.5,-nan,0,0,3,0,0,0,0,0,0,0,0,1.9603e-19
150,-3.34296e-12,0,-1.60906e-06,-3.40794e-12,0,-3.96345e-12,-1.13709e-13,0,0,0,0,0,0,0,0,0,0,0,0,0,0,0,0,0,0,0,0,0,-0.261799,-0.000732552,-1.5,-nan,0,0,3,0,0,0,0,0,0,0,0,1.9603e-19
160,-3.34296e-12,0,-1.60906e-06,-3.40794e-12,0,0,-1.1371e-13,0,0,0,0,0,0,0,0,0,0,0,0,0,0,0,0,0,0,0,0,0,-0.261799,-0.000664775,-1.5,-nan,0,0,3,0,0,0,0,0,0,0,0,1.9603e-19
170,-3.34296e-12,0,-1.60906e-06,-3.40794e-12,0,-3.96345e-12,-1.1371e-13,0,0,0,0,0,0,0,0,0,0,0,0,0,0,0,0,0,0,0,0,0,-0.261799,-0.000642443,-1.5,-nan,0,0,3,0,0,0,0,0,0,0,0,1.9603e-19
180,-3.34296e-12,0,-1.60906e-06,-3.40794e-12,0,0,-1.13711e-13,0,0,0,0,0,0,0,0,0,0,0,0,0,0,0,0,0,0,0,0,0,-0.261799,-0.00062086,-1.5,-nan,0,0,3,0,0,0,0,0,0,0,0,1.9603e-19
190,-3.34296e-12,0,-1.60906e-06,-3.40794e-12,0,-3.96345e-12,-1.13711e-13,0,0,0,0,0,0,0,0,0,0,0,0,0,0,0,0,0,0,0,0,0,-0.261799,-0.000589027,-1.5,-nan,0,0,3,0,0,0,0,0,0,0,0,1.9603e-19
200,-3.34296e-12,0,-1.60906e-06,-3.40794e-12,0,0,-1.13712e-13,0,0,0,0,0,0,0,0,0,0,0,0,0,0,0,0,0,0,0,0,0,-0.261799,-0.000549517,-1.5,-nan,0,0,3,0,0,0,0,0,0,0,0,1.9603e-19
210,-3.34296e-12,0,-1.60906e-06,-3.40794e-12,0,-3.96345e-12,-1.13712e-13,0,0,0,0,0,0,0,0,0,0,0,0,0,0,0,0,0,0,0,0,0,-0.261799,-0.000531043,-1.5,-nan,0,0,3,0,0,0,0,0,0,0,0,1.9603e-19
220,-3.34296e-12,0,-1.60906e-06,-3.40794e-12,0,0,-1.13713e-13,0,0,0,0,0,0,0,0,0,0,0,0,0,0,0,0,0,0,0,0,0,-0.261799,-0.000515281,-1.5,-nan,0,0,3,0,0,0,0,0,0,0,0,1.9603e-19
230,-3.34296e-12,0,-1.60906e-06,-3.40794e-12,0,-3.96345e-12,-1.13714e-13,0,0,0,0,0,0,0,0,0,0,0,0,-1367326400,1801449734,-1367326400,1801449734,-133421695,-1367326400,-1366821248,-1366821248,0,-0.261799,-0.000459353,-1.5,-nan,0,0,3,0,0,0,0,0,0,0,0,0
240,-3.34296e-12,0,-1.60906e-06,-3.40794e-12,0,0,-1.13714e-13,0,0,0,0,0,0,0,0,0,0,0,0,-1367326400,1801449734,-1367326400,1801449734,-133421695,-1367326400,-1366821248,-1366821248,0,-0.261799,-0.00044391,-1.5,-nan,0,0,3,0,0,0,0,0,0,0,0,0
250,-3.34296e-12,0,-1.60906e-06,-3.40794e-12,0,-3.96345e-12,-1.13715e-13,0,0,0,0,0,0,0,0,0,0,0,0,-1367326400,1801449734,-1367326400,1801449734,-133421695,-1367326400,-1366821248,-1366821248,0,-0.261799,-0.000430741,-1.5,-nan,0,0,3,0,0,0,0,0,0,0,0,0
260,-3.34296e-12,0,-1.60906e-06,-3.40794e-12,0,0,-1.13715e-13,0,0,0,0,0,0,0,0,0,0,0,0,-1367326400,1801449734,-1367326400,1801449734,-133421695,-1367326400,-1366821248,-1366821248,0,-0.261799,-0.000418809,-1.5,-nan,0,0,3,0,0,0,0,0,0,0,0,0
270,-3.34296e-12,0,-1.60906e-06,-3.40794e-12,0,-3.96345e-12,-1.13716e-13,0,0,0,0,0,0,0,0,0,0,0,0,-1367326400,1801449734,-1367326400,1801449734,-133421695,-1367326400,-1366821248,-1366821248,0,-0.261799,-0.000406385,-1.5,-nan,0,0,3,0,0,0,0,0,0,0,0,0
280,-3.34296e-12,0,-1.60906e-06,-3.40794e-12,0,0,-1.13716e-13,0,0,0,0,0,0,0,0,0,0,0,0,-1367326400,1801449734,-1367326400,1801449734,-133421695,-1367326400,-1366821248,-1366821248,0,-0.261799,-0.000391923,-1.5,-nan,0,0,3,0,0,0,0,0,0,0,0,0
290,-3.34296e-12,0,-1.60906e-06,-3.40794e-12,0,-3.96345e-12,-1.13717e-13,0,0,0,0,0,0,0,0,0,0,0,0,-1367326400,1801449734,-1367326400,1801449734,-133421695,-1367326400,-1366821248,-1366821248,0,-0.261799,-0.000379519,-1.5,-nan,0,0,3,0,0,0,0,0,0,0,0,0
300,-3.34296e-12,0,-1.60906e-06,-3.40794e-12,0,0,-1.13717e-13,0,0,0,0,0,0,0,0,0,0,0,0,-1367326400,1801449734,-1367326400,1801449734,-133421695,-1367326400,-1366821248,-1366821248,0,-0.261799,-0.000367507,-1.5,-nan,0,0,3,0,0,0,0,0,0,0,0,0
310,-3.34296e-12,0,-1.60906e-06,-3.40794e-12,0,-3.96345e-12,-1.13718e-13,0,0,0,0,0,0,0,0,0,0,0,0,-1367326400,1801449734,-1367326400,1801449734,-133421695,-1367326400,-1366821248,-1366821248,0,-0.261799,-0.000355883,-1.5,-nan,0,0,3,0,0,0,0,0,0,0,0,0
320,-3.34296e-12,0,-1.60906e-06,-3.40794e-12,0,0,-1.13718e-13,0,0,0,0,0,0,0,0,0,0,0,0,-1367326400,1801449734,-1367326400,1801449734,-133421695,-1367326400,-1366821248,-1366821248,0,-0.261799,-0.00034532,-1.5,-nan,0,0,3,0,0,0,0,0,0,0,0,0
330,-3.34296e-12,0,-1.60906e-06,-3.40794e-12,0,-3.96345e-12,-1.13719e-13,0,0,0,0,0,0,0,0,0,0,0,0,-1367326400,1801449734,-1367326400,1801449734,-133421695,-1367326400,-1366821248,-1366821248,0,-0.261799,-0.00033507,-1.5,-nan,0,0,3,0,0,0,0,0,0,0,0,0
340,-3.34296e-12,0,-1.60906e-06,-3.40794e-12,0,0,-1.13719e-13,0,0,0,0,0,0,0,0,0,0,0,0,-1367326400,1801449734,-1367326400,1801449734,-133421695,-1367326400,-1366821248,-1366821248,0,-0.261799,-0.000323155,-1.5,-nan,0,0,3,0,0,0,0,0,0,0,0,0
350,-3.34296e-12,0,-1.60906e-06,-3.40794e-12,0,-3.96345e-12,-1.1372e-13,0,0,0,0,0,0,0,0,0,0,0,0,-1367326400,1801449734,-1367326400,1801449734,-133421695,-1367326400,-1366821248,-1366821248,0,-0.261799,-0.000312934,-1.5,-nan,0,0,3,0,0,0,0,0,0,0,0,0
360,-3.34296e-12,0,-1.60906e-06,-3.40794e-12,0,0,-1.13721e-13,0,0,0,0,0,0,0,0,0,0,0,0,-1367326400,1801449734,-1367326400,1801449734,-133421695,-1367326400,-1366821248,-1366821248,0,-0.261799,-0.000303036,-1.5,-nan,0,0,3,0,0,0,0,0,0,0,0,0
370,-3.34296e-12,0,-1.60906e-06,-3.40794e-12,0,-3.96345e-12,-1.13721e-13,0,0,-7.5152,0.321914,0.0579445,0,0,0,0,0,-3.5152,0.321914,120,28,120,28,176,28,120,73,0,-0.261799,-0.000294041,-1.5,-nan,0,0,3,0,0,0,0,0,0,0,0,2520
380,-3.34296e-12,0,-1.60906e-06,-3.40794e-12,0,0,-1.13722e-13,0,0,-7.5152,0.321914,0.0579445,0,0,0,0,0,-3.5152,0.321914,120,28,120,28,176,28,120,73,0,-0.261799,-0.000284741,-1.5,-nan,0,0,3,0,0,0,0,0,0,0,0,2520
390,-3.34296e-12,0,-1.60906e-06,-3.40794e-12,0,-3.96345e-12,-1.13722e-13,0,0,-7.5152,0.321914,0.0579445,0,0,0,0,0,-3.5152,0.321914,120,28,120,28,176,28,120,73,0,-0.261799,-0.000276294,-1.5,-nan,0,0,3,0,0,0,0,0,0,0,0,2520
400,-3.34296e-12,0,-1.60906e-06,-3.40794e-12,0,0,-1.13723e-13,0,0,-7.5152,0.321914,0.0579445,0,0,0,0,0,-3.5152,0.321914,120,28,120,28,176,28,120,73,0,-0.261799,-0.000267554,-1.5,-nan,0,0,3,0,0,0,0,0,0,0,0,2520
410,-3.34296e-12,0,-1.60906e-06,-3.40794e-12,0,-3.96345e-12,-1.13723e-13,0,0,-7.5152,0.321914,0.0579445,0,0,0,0,0,-3.5152,0.321914,120,28,120,28,176,28,120,73,0,-0.261799,-0.000259092,-1.5,-nan,0,0,3,0,0,0,0,0,0,0,0,2520
420,-3.34296e-12,0,-1.60906e-06,-3.40794e-12,0,0,-1.13724e-13,0,0,-7.5152,0.321914,0.0579445,0,0,0,0,0,-3.5152,0.321914,120,28,120,28,176,28,120,73,0,-0.261799,-0.000251914,-1.5,-nan,0,0,3,0,0,0,0,0,0,0,0,2520
430,-3.34296e-12,0,-1.60906e-06,-3.40794e-12,0,-3.96345e-12,-1.13724e-13,0,0,-7.5152,0.321914,0.0579445,0,0,0,0,0,-3.5152,0.321914,120,28,120,28,176,28,120,73,0,-0.261799,-0.000245429,-1.5,-nan,0,0,3,0,0,0,0,0,0,0,0,2520
440,-3.34296e-12,0,-1.60906e-06,-3.40794e-12,0,0,-1.13725e-13,0,0,-7.5152,0.321914,0.0579445,0,0,0,0,0,-3.5152,0.321914,120,28,120,28,176,28,120,73,0,-0.261799,-0.000237661,-1.5,-nan,0,0,3,0,0,0,0,0,0,0,0,2520
450,-3.34296e-12,0,-1.60906e-06,-3.40794e-12,0,-3.96345e-12,-1.13725e-13,0,0,-7.5152,0.321914,0.0579445,0,0,0,0,0,-3.5152,0.321914,120,28,120,28,176,28,120,73,0,-0.261799,-0.000230607,-1.5,-nan,0,0,3,0,0,0,0,0,0,0,0,2520
460,-3.34296e-12,0,-1.60906e-06,-3.40794e-12,0,0,-1.13726e-13,0,0,-7.5152,0.321914,0.0579445,0,0,0,0,0,-3.5152,0.321914,120,28,120,28,176,28,120,73,0,-0.261799,-0.000223762,-1.5,-nan,0,0,3,0,0,0,0,0,0,0,0,2520
470,-3.34296e-12,0,-1.60906e-06,-3.40794e-12,0,-3.96345e-12,-1.13727e-13,0,0,-7.5152,0.321914,0.0579445,0,0,0,0,0,-3.5152,0.321914,120,28,120,28,176,28,120,73,0,-0.261799,-0.000215805,-1.5,-nan,0,0,3,0,0,0,0,0,0,0,0,2520
480,-3.34296e-12,0,-1.60906e-06,-3.40794e-12,0,0,-1.13727e-13,0,0,-7.5152,0.321914,0.0579445,0,0,0,0,0,-3.5152,0.321914,120,28,120,28,176,28,120,73,0,-0.261799,-0.000208975,-1.5,-nan,0,0,3,0,0,0,0,0,0,0,0,2520
490,-3.34296e-12,0,-1.60906e-06,-3.40794e-12,0,-3.96345e-12,-1.13728e-13,0,0,-7.5152,0.321914,0.0579445,0,0,0,0,0,-3.5152,0.321914,120,28,120,28,176,28,120,73,0,-0.261799,-0.000202365,-1.5,-nan,0,0,3,0,0,0,0,0,0,0,0,2520
500,-3.34296e-12,0,-1.60906e-06,-3.40794e-12,0,0,-1.13728e-13,0,0,-7.5152,0.321914,0.0579445,0,0,0,0,0,-3.5152,0.321914,120,28,120,28,176,28,120,73,0,-0.261799,-0.000196359,-1.5,-nan,0,0,3,0,0,0,0,0,0,0,0,2520
510,-3.34296e-12,0,-1.60906e-06,-3.40794e-12,0,-3.96345e-12,-1.13729e-13,0,0,-7.5152,0.321914,0.0579445,0,0,0,0,0,-3.5152,0.321914,120,28,120,28,176,28,120,73,0,-0.261799,-0.000190148,-1.5,-nan,0,0,3,0,0,0,0,0,0,0,0,2520
520,-3.34296e-12,0,-1.60906e-06,-3.40794e-12,0,0,-1.13729e-13,0,0,-7.5152,0.321914,0.0579445,0,0,0,0,0,-3.5152,0.321914,120,28,120,28,176,28,120,73,0,-0.261799,-0.000184507,-1.5,-nan,0,0,3,0,0,0,0,0,0,0,0,2520
530,-3.34296e-12,0,-1.60906e-06,-3.40794e-12,0,-3.96345e-12,-1.1373e-13,0,0,-7.5152,0.321914,0.0579445,0,0,0,0,0,-3.5152,0.321914,120,28,120,28,176,28,120,73,0,-0.261799,-0.000178671,-1.5,-nan,0,0,3,0,0,0,0,0,0,0,0,2520
540,-3.34296e-12,0,-1.60906e-06,-3.40794e-12,0,0,-1.1373e-13,0,0,-7.5152,0.321914,0.0579445,0,0,0,0,0,-3.5152,0.321914,120,28,120,28,176,28,120,73,0,-0.261799,-0.00017302,-1.5,-nan,0,0,3,0,0,0,0,0,0,0,0,2520
550,-3.34296e-12,0,-1.60906e-06,-3.40794e-12,0,-3.96345e-12,-1.13731e-13,0,0,-7.5152,0.321914,0.0579445,0,0,0,0,0,-3.5152,0.321914,120,28,120,28,176,28,120,73,0,-0.261799,-0.000167547,-1.5,-nan,0,0,3,0,0,0,0,0,0,0,0,2520
560,-3.34296e-12,0,-1.60906e-06,-3.40794e-12,0,0,-1.13731e-13,0,0,-6.89488,0.305162,0.133952,0,0,0,0,0,-2.89488,0.305162,117,15,117,15,178,15,117,64,0,-0.261799,-0.000162574,-1.5,-nan,0,0,3,0,0,0,0,0,0,0,0,2989
570,-3.34296e-12,0,-1.60906e-06,-3.40794e-12,0,-3.96345e-12,-1.13732e-13,0,0,-6.89488,0.305162,0.133952,0,0,0,0,0,-2.89488,0.305162,117,15,117,15,178,15,117,64,0,-0.261799,-0.000157751,-1.5,-nan,0,0,3,0,0,0,0,0,0,0,0,2989
580,-3.34296e-12,0,-1.60906e-06,-3.40794e-12,0,0,-1.13732e-13,0,0,-6.89488,0.305162,0.133952,0,0,0,0,0,-2.89488,0.305162,117,15,117,15,178,15,117,64,0,-0.261799,-0.000153071,-1.5,-nan,0,0,3,0,0,0,0,0,0,0,0,2989
590,-3.34296e-12,0,-1.60906e-06,-3.40794e-12,0,-3.96345e-12,-1.13733e-13,0,0,-6.89488,0.305162,0.133952,0,0,0,0,0,-2.89488,0.305162,117,15,117,15,178,15,117,64,0,-0.261799,-0.00014853,-1.5,-nan,0,0,3,0,0,0,0,0,0,0,0,2989
600,-3.34296e-12,0,-1.60906e-06,-3.40794e-12,0,0,-1.13734e-13,0,0,-6.89488,0.305162,0.133952,0,0,0,0,0,-2.89488,0.305162,117,15,117,15,178,15,117,64,0,-0.261799,-0.000143249,-1.5,-nan,0,0,3,0,0,0,0,0,0,0,0,2989
610,-3.34296e-12,0,-1.60906e-06,-3.40794e-12,0,-3.96345e-12,-1.13734e-13,0,0,-6.89488,0.305162,0.133952,0,0,0,0,0,-2.89488,0.305162,117,15,117,15,178,15,117,64,0,-0.261799,-0.000139561,-1.5,-nan,0,0,3,0,0,0,0,0,0,0,0,2989
620,-3.34296e-12,0,-1.60906e-06,-3.40794e-12,0,0,-1.13735e-13,0,0,-6.89488,0.305162,0.133952,0,0,0,0,0,-2.89488,0.305162,117,15,117,15,178,15,117,64,0,-0.261799,-0.000135695,-1.5,-nan,0,0,3,0,0,0,0,0,0,0,0,2989
630,-3.34296e-12,0,-1.60906e-06,-3.40794e-12,0,-3.96345e-12,-1.13735e-13,0,0,-6.66974,0.30467,0.0759995,0,0,0,0,0,-2.66974,0.30467,115,15,115,15,179,15,115,64,0,-0.261799,-0.000131403,-1.5,-nan,0,0,3,0,0,0,0,0,0,0,0,3136
640,-3.34296e-12,0,-1.60906e-06,-3.40794e-12,0,0,-1.13736e-13,0,0,-6.66974,0.30467,0.0759995,0,0,0,0,0,-2.66974,0.30467,115,15,115,15,179,15,115,64,0,-0.261799,-0.000127505,-1.5,-nan,0,0,3,0,0,0,0,0,0,0,0,3136
650,-3.34296e-12,0,-1.60906e-06,-3.40794e-12,0,-3.96345e-12,-1.13736e-13,0,0,-6.66974,0.30467,0.0759995,0,0,0,0,0,-2.66974,0.30467,115,15,115,15,179,15,115,64,0,-0.261799,-0.000123722,-1.5,-nan,0,0,3,0,0,0,0,0,0,0,0,3136
660,-3.34296e-12,0,-1.60906e-06,-3.40794e-12,0,0,-1.13737e-13,0,0,-6.66974,0.30467,0.0759995,0,0,0,0,0,-2.66974,0.30467,115,15,115,15,179,15,115,64,0,-0.261799,-0.000119809,-1.5,-nan,0,0,3,0,0,0,0,0,0,0,0,3136
670,-3.34296e-12,0,-1.60906e-06,-3.40794e-12,0,-3.96345e-12,-1.13737e-13,0,0,-6.66974,0.30467,0.0759995,0,0,0,0,0,-2.66974,0.30467,115,15,115,15,179,15,115,64,0,-0.261799,-0.000116019,-1.5,-nan,0,0,3,0,0,0,0,0,0,0,0,3136
680,-3.34296e-12,0,-1.60906e-06,-3.40794e-12,0,0,-1.13738e-13,0,0,-6.66974,0.30467,0.0759995,0,0,0,0,0,-2.66974,0.30467,115,15,115,15,179,15,115,64,0,-0.261799,-0.00011235,-1.5,-nan,0,0,3,0,0,0,0,0,0,0,0,3136
690,-3.34296e-12,0,-1.60906e-06,-3.40794e-12,0,-3.96345e-12,-1.13738e-13,0,0,-6.66974,0.30467,0.0759995,0,0,0,0,0,-2.66974,0.30467,115,15,115,15,179,15,115,64,0,-0.261799,-0.000108796,-1.5,-nan,0,0,3,0,0,0,0,0,0,0,0,3136
700,-3.34296e-12,0,-1.60906e-06,-3.40794e-12,0,0,-1.13739e-13,0,0,-6.66974,0.30467,0.0759995,0,0,0,0,0,-2.66974,0.30467,115,15,115,15,179,15,115,64,0,-0.261799,-0.000105567,-1.5,-nan,0,0,3,0,0,0,0,0,0,0,0,3136
710,-3.34296e-12,0,-1.60906e-06,-3.40794e-12,0,-3.96345e-12,-1.1374e-13,0,0,-6.66974,0.30467,0.0759995,0,0,0,0,0,-2.66974,0.30467,115,15,115,15,179,15,115,64,0,-0.261799,-0.000102433,-1.5,-nan,0,0,3,0,0,0,0,0,0,0,0,3136
720,-3.34296e-12,0,-1.60906e-06,-3.40794e-12,0,0,-1.1374e-13,0,0,-6.66974,0.30467,0.0759995,0,0,0,0,0,-2.66974,0.30467,115,15,115,15,179,15,115,64,0,-0.261799,-9.93929e-05,-1.5,-nan,0,0,3,0,0,0,0,0,0,0,0,3136
730,-3.34296e-12,0,-1.60906e-06,-3.40794e-12,0,-3.96345e-12,-1.13741e-13,0,0,-6.66974,0.30467,0.0759995,0,0,0,0,0,-2.66974,0.30467,115,15,115,15,179,15,115,64,0,-0.261799,-9.58587e-05,-1.5,-nan,0,0,3,0,0,0,0,0,0,0,0,3136
740,-3.34296e-12,0,-1.60906e-06,-3.40794e-12,0,0,-1.13741e-13,0,0,-6.66974,0.30467,0.0759995,0,0,0,0,0,-2.66974,0.30467,115,15,115,15,179,15,115,64,0,-0.261799,-9.28267e-05,-1.5,-nan,0,0,3,0,0,0,0,0,0,0,0,3136
750,-3.34296e-12,0,-1.60906e-06,-3.40794e-12,0,-3.96345e-12,-1.13742e-13,0,0,-6.66974,0.30467,0.0759995,0,0,0,0,0,-2.66974,0.30467,115,15,115,15,179,15,115,64,0,-0.261799,-8.98905e-05,-1.5,-nan,0,0,3,0,0,0,0,0,0,0,0,3136
760,-3.34296e-12,0,-1.60906e-06,-3.40794e-12,0,0,-1.13742e-13,0,0,-6.45038,0.257811,0.000841656,0,0,0,0,0,-2.45038,0.257811,116,15,116,15,182,15,116,66,-0.261799,-0.261799,-8.58113e-05,-1.5,-nan,0,0,3,-2.23334,0.287297,0,0,0,0,2.06086,-0.0556543,3366
770,-3.34296e-12,0,-1.60906e-06,-3.40794e-12,0,-3.96345e-12,-1.13743e-13,0,0,-6.45038,0.257811,0.000841656,0,0,0,0,0,-2.45038,0.257811,116,15,116,15,182,15,116,66,-0.261799,-0.261799,-8.32643e-05,-1.5,-nan,0,0,3,-2.20243,0.286462,0,0,0,0,2.06086,-0.0556543,3366
780,-3.34296e-12,0,-1.60906e-06,-3.40794e-12,0,0,-1.13743e-13,0,0,-6.45038,0.257811,0.000841656,0,0,0,0,0,-2.45038,0.257811,116,15,116,15,182,15,116,66,-0.261799,-0.261799,-8.07929e-05,-1.5,-nan,0,0,3,-2.16945,0.285572,0,0,0,0,2.06086,-0.0556543,3366
790,-3.34296e-12,0,-1.60906e-06,-3.40794e-12,0,-3.96345e-12,-1.13744e-13,0,0,-6.45038,0.257811,0.000841656,0,0,0,0,0,-2.45038,0.257811,116,15,116,15,182,15,116,66,-0.261799,-0.261799,-7.76052e-05,-1.5,-nan,0,0,3,-2.12824,0.284459,0,0,0,0,2.06086,-0.0556543,3366
800,-3.34296e-12,0,-1.60906e-06,-3.40794e-12,0,0,-1.13744e-13,0,0,-6.45038,0.257811,0.000841656,0,0,0,0,0,-2.45038,0.257811,116,15,116,15,182,15,116,66,-0.261799,-0.261799,-7.54554e-05,-1.5,-nan,0,0,3,-2.09938,0.283679,0,0,0,0,2.06086,-0.0556543,3366
810,-3.34296e-12,0,-1.60906e-06,-3.40794e-12,0,-3.96345e-12,-1.13745e-13,0,0,-6.45038,0.257811,0.000841656,0,0,0,0,0,-2.45038,0.257811,116,15,116,15,182,15,116,66,-0.261799,-0.261799,-7.35128e-05,-1.5,-nan,0,0,3,-2.07259,0.282956,0,0,0,0,2.06086,-0.0556543,3366
820,-3.34296e-12,0,-1.60906e-06,-3.40794e-12,0,0,-1.13745e-13,0,0,-6.45038,0.257811,0.000841656,0,0,0,0,0,-2.45038,0.257811,116,15,116,15,182,15,116,66,-0.261799,-0.261799,-6.98839e-05,-1.5,-nan,0,0,3,-2.02107,0.281565,0,0,0,0,2.06086,-0.0556543,3366
830,-3.34296e-12,0,-1.60906e-06,-3.40794e-12,0,-3.96345e-12,-1.13746e-13,0,0,-6.45038,0.257811,0.000841656,0,0,0,0,0,-2.45038,0.257811,116,15,116,15,182,15,116,66,-0.261799,-0.261799,-6.78097e-05,-1.5,-nan,0,0,3,-1.99016,0.28073,0,0,0,0,2.06086,-0.0556543,3366
840,-3.34296e-12,0,-1.60906e-06,-3.40794e-12,0,0,-1.13747e-13,0,0,-6.45038,0.257811,0.000841656,0,0,0,0,0,-2.45038,0.257811,116,15,116,15,182,15,116,66,-0.261799,-0.261799,-6.56635e-05,-1.5,-nan,0,0,3,-1.95718,0.279839,0,0,0,0,2.06086,-0.0556543,3366
850,-3.34296e-12,0,-1.60906e-06,-3.40794e-12,0,-3.96345e-12,-1.13747e-13,0,0,-6.45038,0.257811,0.000841656,0,0,0,0,0,-2.45038,0.257811,116,15,116,15,182,15,116,66,-0.261799,-0.261799,-6.34576e-05,-1.5,-nan,0,0,3,-1.92215,0.278893,0,0,0,0,2.06086,-0.0556543,3366
860,-3.34296e-12,0,-1.60906e-06,-3.40794e-12,0,0,-1.13748e-13,0,0,-6.45038,0.257811,0.000841656,0,0,0,0,0,-2.45038,0.257811,116,15,116,15,182,15,116,66,-0.261799,-0.261799,-6.14504e-05,-1.5,-nan,0,0,3,-1.88917,0.278003,0,0,0,0,2.06086,-0.0556543,3366
870,-3.34296e-12,0,-1.60906e-06,-3.40794e-12,0,-3.96345e-12,-1.13748e-13,0,0,-6.45038,0.257811,0.000841656,0,0,0,0,0,-2.45038,0.257811,116,15,116,15,182,15,116,66,-0.261799,-0.261799,-5.95067e-05,-1.5,-nan,0,0,3,-1.8562,0.277112,0,0,0,0,2.06086,-0.0556543,3366
880,-3.34296e-12,0,-1.60906e-06,-3.40794e-12,0,0,-1.13749e-13,0,0,-6.45038,0.257811,0.000841656,0,0,0,0,0,-2.45038,0.257811,116,15,116,15,182,15,116,66,-0.261799,-0.261799,-5.77405e-05,-1.5,-nan,0,0,3,-1.82528,0.276277,0,0,0,0,2.06086,-0.0556543,3366
890,-3.34296e-12,0,-1.60906e-06,-3.40794e-12,0,-3.96345e-12,-1.13749e-13,0,0,-6.45038,0.257811,0.000841656,0,0,0,0,0,-2.45038,0.257811,116,15,116,15,182,15,116,66,-0.261799,-0.261799,-5.60267e-05,-1.5,-nan,0,0,3,-1.79437,0.275442,0,0,0,0,2.06086,-0.0556543,3366
900,-3.34296e-12,0,-1.60906e-06,-3.40794e-12,0,0,-1.1375e-13,0,0,-6.45038,0.257811,0.000841656,0,0,0,0,0,-2.45038,0.257811,116,15,116,15,182,15,116,66,-0.261799,-0.261799,-5.43637e-05,-1.5,-nan,0,0,3,-1.76346,0.274608,0,0,0,0,2.06086,-0.0556543,3366
910,-3.34296e-12,0,-1.60906e-06,-3.40794e-12,0,-3.96345e-12,-1.1375e-13,0,0,-6.45038,0.257811,0.000841656,0,0,0,0,0,-2.45038,0.257811,116,15,116,15,182,15,116,66,-0.261799,-0.261799,-5.21102e-05,-1.5,-nan,0,0,3,-1.72018,0.273439,0,0,0,0,2.06086,-0.0556543,3366
920,-3.34296e-12,0,-1.60906e-06,-3.40794e-12,0,0,-1.13751e-13,0,0,-6.45038,0.257811,0.000841656,0,0,0,0,0,-2.45038,0.257811,116,15,116,15,182,15,116,66,-0.261799,-0.261799,-5.05635e-05,-1.5,-nan,0,0,3,-1.68926,0.272604,0,0,0,0,2.06086,-0.0556543,3366
930,-3.34296e-12,0,-1.60906e-06,-3.40794e-12,0,-3.96345e-12,-1.13751e-13,0,0,-7.28594,0.33296,0.234608,0,0,0,0,0,-3.28594,0.33296,119,15,119,15,175,15,119,64,-0.261799,-0.261799,-4.86682e-05,-1.5,-nan,0,0,3,-1.65011,0.282996,0,0,0,0,2.06086,-0.0430032,2744
940,-3.34296e-12,0,-1.60906e-06,-3.40794e-12,0,0,-1.13752e-13,0,0,-7.28594,0.33296,0.234608,0,0,0,0,0,-3.28594,0.33296,119,15,119,15,175,15,119,64,-0.261799,-0.261799,-4.72237e-05,-1.5,-nan,0,0,3,-1.61919,0.282351,0,0,0,0,2.06086,-0.0430032,2744
950,-3.34296e-12,0,-1.60906e-06,-3.40794e-12,0,-3.96345e-12,-1.13753e-13,0,0,-7.28594,0.33296,0.234608,0,0,0,0,0,-3.28594,0.33296,119,15,119,15,175,15,119,64,-0.261799,-0.261799,-4.5822e-05,-1.5,-nan,0,0,3,-1.58828,0.281706,0,0,0,0,2.06086,-0.0430032,2744
960,-3.34296e-12,0,-1.60906e-06,-3.40794e-12,0,0,-1.13753e-13,0,0,-7.28594,0.33296,0.234608,0,0,0,0,0,-3.28594,0.33296,119,15,119,15,175,15,119,64,-0.261799,-0.261799,-4.45527e-05,-1.5,-nan,0,0,3,-1.55943,0.281104,0,0,0,0,2.06086,-0.0430032,2744
970,-3.34296e-12,0,-1.60906e-06,-3.40794e-12,0,-3.96345e-12,-1.13754e-13,0,0,-7.28594,0.33296,0.234608,0,0,0,0,0,-3.28594,0.33296,119,15,119,15,175,15,119,64,-0.261799,-0.261799,-4.31435e-05,-1.5,-nan,0,0,3,-1.52645,0.280415,0,0,0,0,2.06086,-0.0430032,2744
980,-3.34296e-12,0,-1.60906e-06,-3.40794e-12,0,0,-1.13754e-13,0,0,-7.28594,0.33296,0.234608,0,0,0,0,0,-3.28594,0.33296,119,15,119,15,175,15,119,64,-0.261799,-0.261799,-4.1778e-05,-1.5,-nan,0,0,3,-1.49348,0.279727,0,0,0,0,2.06086,-0.0430032,2744
990,-3.34296e-12,0,-1.60906e-06,-3.40794e-12,0,-3.96345e-12,-1.13755e-13,0,0,-7.28594,0.33296,0.234608,0,0,0,0,0,-3.28594,0.33296,119,15,119,15,175,15,119,64,-0.261799,-0.261799,-4.04566e-05,-1.5,-nan,0,0,3,-1.4605,0.279039,0,0,0,0,2.06086,-0.0430032,2744
1000,-3.34296e-12,0,-1.60906e-06,-3.40794e-12,0,0,-1.13755e-13,0,0,-6.61588,0.29282,0.0522643,0,0,0,0,0,-2.61588,0.29282,116,14,116,14,179,14,116,66,-0.261799,-0.261799,-3.90169e-05,-1.5,-nan,0,0,3,-2.60866,0.292462,0,0,0,0,0.400863,-0.0198811,3276
1010,-3.34296e-12,0,-1.60906e-06,-3.40794e-12,0,-3.96345e-12,-1.13756e-13,0,0,-6.61588,0.29282,0.0522643,0,0,0,0,0,-2.61588,0.29282,116,14,116,14,179,14,116,66,-0.261799,-0.261799,-3.77828e-05,-1.5,-nan,0,0,3,-2.60225,0.292144,0,0,0,0,0.400863,-0.0198811,3276
1020,-3.34296e-12,0,-1.60906e-06,-3.40794e-12,0,0,-1.13756e-13,0,0,-6.61588,0.29282,0.0522643,0,0,0,0,0,-2.61588,0.29282,116,14,116,14,179,14,116,66,-0.261799,-0.261799,-3.66619e-05,-1.5,-nan,0,0,3,-2.59623,0.291846,0,0,0,0,0.400863,-0.0198811,3276
1030,-3.34296e-12,0,-1.60906e-06,-3.40794e-12,0,-3.96345e-12,-1.13757e-13,0,0,-6.61588,0.29282,0.0522643,0,0,0,0,0,-2.61588,0.29282,116,14,116,14,179,14,116,66,-0.261799,-0.261799,-3.52142e-05,-1.5,-nan,0,0,3,-2.58822,0.291448,0,0,0,0,0.400863,-0.0198811,3276
1040,-3.34296e-12,0,-1.60906e-06,-3.40794e-12,0,0,-1.13757e-13,0,0,-6.61588,0.29282,0.0522643,0,0,0,0,0,-2.61588,0.29282,116,14,116,14,179,14,116,66,-0.261799,-0.261799,-3.40997e-05,-1.5,-nan,0,0,3,-2.5818,0.29113,0,0,0,0,0.400863,-0.0198811,3276
1050,-3.34296e-12,0,-1.60906e-06,-3.40794e-12,0,-3.96345e-12,-1.13758e-13,0,0,-6.61588,0.29282,0.0522643,0,0,0,0,0,-2.61588,0.29282,116,14,116,14,179,14,116,66,-0.261799,-0.261799,-3.30211e-05,-1.5,-nan,0,0,3,-2.57539,0.290812,0,0,0,0,0.400863,-0.0198811,3276
1060,-3.34296e-12,0,-1.60906e-06,-3.40794e-12,0,0,-1.13759e-13,0,0,-6.34469,0.244656,-0.0180258,0,0,0,0,0,-2.34469,0.244656,118,11,118,11,181,11,118,69,-0.261799,-0.261799,-3.1846e-05,-1.5,-nan,0,0,3,-2.33227,0.273922,0,0,0,0,0.690312,-0.0430032,3654
1070,-3.34296e-12,0,-1.60906e-06,-3.40794e-12,0,-3.96345e-12,-1.13759e-13,0,0,-6.34469,0.244656,-0.0180258,0,0,0,0,0,-2.34469,0.244656,118,11,118,11,181,11,118,69,-0.261799,-0.261799,-3.09008e-05,-1.5,-nan,0,0,3,-2.32191,0.273277,0,0,0,0,0.690312,-0.0430032,3654
1080,-3.34296e-12,0,-1.60906e-06,-3.40794e-12,0,0,-1.1376e-13,0,0,-6.34469,0.244656,-0.0180258,0,0,0,0,0,-2.34469,0.244656,118,11,118,11,181,11,118,69,-0.261799,-0.261799,-2.99234e-05,-1.5,-nan,0,0,3,-2.31087,0.272589,0,0,0,0,0.690312,-0.0430032,3654
1090,-3.34296e-12,0,-1.60906e-06,-3.40794e-12,0,-3.96345e-12,-1.1376e-13,0,0,-6.34469,0.244656,-0.0180258,0,0,0,0,0,-2.34469,0.244656,118,11,118,11,181,11,118,69,-0.261799,-0.261799,-2.89181e-05,-1.5,-nan,0,0,3,-2.29913,0.271858,0,0,0,0,0.690312,-0.0430032,3654
1100,-3.34296e-12,0,-1.60906e-06,-3.40794e-12,0,0,-1.13761e-13,0,0,-6.34469,0.244656,-0.0180258,0,0,0,0,0,-2.34469,0.244656,118,11,118,11,181,11,118,69,-0.261799,-0.261799,-2.80029e-05,-1.5,-nan,0,0,3,-2.28809,0.27117,0,0,0,0,0.690312,-0.0430032,3654
1110,-3.34296e-12,0,-1.60906e-06,-3.40794e-12,0,-3.96345e-12,-1.13761e-13,0,0,-6.34469,0.244656,-0.0180258,0,0,0,0,0,-2.34469,0.244656,118,11,118,11,181,11,118,69,-0.261799,-0.261799,-2.71166e-05,-1.5,-nan,0,0,3,-2.27704,0.270482,0,0,0,0,0.690312,-0.0430032,3654
1120,-3.34296e-12,0,-1.60906e-06,-3.40794e-12,0,0,-1.13767e-13,0,0,-6.38199,0.209516,-0.0165602,0,0,0,0,0,-2.38199,0.209516,118,15,118,15,185,15,118,66,-0.261799,-0.261799,-2.62063e-05,-1.5,-nan,0,0,3,-2.37642,0.238971,0,0,0,0,0.584219,-0.0721151,3417
1130,-3.34296e-12,0,-1.60906e-06,-3.40794e-12,0,-3.96345e-12,-1.13762e-13,0,0,-6.38199,0.209516,-0.0165602,0,0,0,0,0,-2.38199,0.209516,118,15,118,15,185,15,118,66,-0.261799,-0.261799,-2.55316e-05,-1.5,-nan,0,0,3,-2.36882,0.238033,0,0,0,0,0.584219,-0.0721151,3417
1140,-3.34296e-12,0,-1.60906e-06,-3.40794e-12,0,0,-1.13762e-13,0,0,-6.38199,0.209516,-0.0165602,0,0,0,0,0,-2.38199,0.209516,118,15,118,15,185,15,118,66,-0.260255,-0.261799,-2.47738e-05,-1.5,-nan,0,0,3,-2.36006,0.236951,0,0,0,0,0.584219,-0.0721151,3417
1150,-3.34296e-12,0,-1.60906e-06,-3.40794e-12,0,-3.96345e-12,-1.13763e-13,0,0,-6.38199,0.209516,-0.0165602,0,0,0,0,0,-2.38199,0.209516,118,15,118,15,185,15,118,66,-0.258315,-0.261799,-2.38929e-05,-1.5,-nan,0,0,3,-2.34954,0.235653,0,0,0,0,0.584219,-0.0721151,3417
1160,-3.34296e-12,0,-1.60906e-06,-3.40794e-12,0,0,-1.13763e-13,0,0,-6.38199,0.209516,-0.0165602,0,0,0,0,0,-2.38199,0.209516,118,15,118,15,185,15,118,66,-0.256484,-0.261799,-2.30902e-05,-1.5,-nan,0,0,3,-2.33961,0.234427,0,0,0,0,0.584219,-0.0721151,3417
1170,-3.34296e-12,0,-1.60906e-06,-3.40794e-12,0,-3.96345e-12,-1.13764e-13,0,0,-6.38199,0.209516,-0.0165602,0,0,0,0,0,-2.38199,0.209516,118,15,118,15,185,15,118,66,-0.254867,-0.261799,-2.24048e-05,-1.5,-nan,0,0,3,-2.33085,0.233345,0,0,0,0,0.584219,-0.0721151,3417
1180,-3.34296e-12,0,-1.60906e-06,-3.40794e-12,0,0,-1.13764e-13,0,0,-6.38199,0.209516,-0.0165602,0,0,0,0,0,-2.38199,0.209516,118,15,118,15,185,15,118,66,-0.253144,-0.261799,-2.16957e-05,-1.5,-nan,0,0,3,-2.3215,0.232192,0,0,0,0,0.584219,-0.0721151,3417
1190,-3.34296e-12,0,-1.60906e-06,-3.40794e-12,0,-3.96345e-12,-1.13765e-13,0,0,-6.38199,0.209516,-0.0165602,0,0,0,0,0,-2.38199,0.209516,118,15,118,15,185,15,118,66,-0.251527,-0.261799,-2.10518e-05,-1.5,-nan,0,0,3,-2.31274,0.23111,0,0,0,0,0.584219,-0.0721151,3417
1200,-3.34296e-12,0,-1.60906e-06,-3.40794e-12,0,0,-1.13766e-13,0,0,-6.38199,0.209516,-0.0165602,0,0,0,0,0,-2.38199,0.209516,118,15,118,15,185,15,118,66,-0.249911,-0.261799,-2.04269e-05,-1.5,-nan,0,0,3,-2.30397,0.230028,0,0,0,0,0.584219,-0.0721151,3417
1210,-3.34296e-12,0,-1.60906e-06,-3.40794e-12,0,-3.96345e-12,-1.13766e-13,0,0,-6.38199,0.209516,-0.0165602,0,0,0,0,0,-2.38199,0.209516,118,15,118,15,185,15,118,66,-0.248187,-0.261799,-1.97808e-05,-1.5,-nan,0,0,3,-2.29463,0.228874,0,0,0,0,0.584219,-0.0721151,3417
1220,-3.34296e-12,0,-1.60906e-06,-3.40794e-12,0,0,-1.13767e-13,0,0,-6.38199,0.209516,-0.0165602,0,0,0,0,0,-2.38199,0.209516,118,15,118,15,185,15,118,66,-0.246248,-0.261799,-1.90774e-05,-1.5,-nan,0,0,3,-2.28411,0.227576,0,0,0,0,0.584219,-0.0721151,3417
1230,-3.34296e-12,0,-1.60906e-06,-3.40794e-12,0,-3.96345e-12,-1.13768e-13,0,0,-6.38199,0.209516,-0.0165602,0,0,0,0,0,-2.38199,0.209516,118,15,118,15,185,15,118,66,-0.244524,-0.261799,-1.8474e-05,-1.5,-nan,0,0,3,-2.27476,0.226422,0,0,0,0,0.584219,-0.0721151,3417
1240,-3.34296e-12,0,-1.60906e-06,-3.40794e-12,0,0,-1.13768e-13,0,0,-6.38199,0.209516,-0.0165602,0,0,0,0,0,-2.38199,0.209516,118,15,118,15,185,15,118,66,-0.2428,-0.261799,-1.78897e-05,-1.5,-nan,0,0,3,-2.26541,0.225268,0,0,0,0,0.584219,-0.0721151,3417
1250,-3.34296e-12,0,-1.60906e-06,-3.40794e-12,0,-3.96345e-12,-1.13769e-13,0,0,-6.38199,0.209516,-0.0165602,0,0,0,0,0,-2.38199,0.209516,118,15,118,15,185,15,118,66,-0.241184,-0.261799,-1.73587e-05,-1.5,-nan,0,0,3,-2.25665,0.224187,0,0,0,0,0.584219,-0.0721151,3417
1260,-3.34296e-12,0,-1.60906e-06,-3.40794e-12,0,0,-1.1377e-13,0,0,-6.38199,0.209516,-0.0165602,0,0,0,0,0,-2.38199,0.209516,118,15,118,15,185,15,118,66,-0.239568,-0.261799,-1.68435e-05,-1.5,-nan,0,0,3,-2.24789,0.223105,0,0,0,0,0.584219,-0.0721151,3417
1270,-3.34296e-12,0,-1.60906e-06,-3.40794e-12,0,-3.96345e-12,-1.1377e-13,0,0,-6.38199,0.209516,-0.0165602,0,0,0,0,0,-2.38199,0.209516,118,15,118,15,185,15,118,66,-0.237952,-0.261799,-1.63435e-05,-1.5,-nan,0,0,3,-2.23912,0.222023,0,0,0,0,0.584219,-0.0721151,3417
1280,-3.34296e-12,0,-1.60906e-06,-3.40794e-12,0,0,-1.13771e-13,0,0,-6.38199,0.209516,-0.0165602,0,0,0,0,0,-2.38199,0.209516,118,15,118,15,185,15,118,66,-0.23612,-0.261799,-1.57945e-05,-1.5,-nan,0,0,3,-2.22919,0.220797,0,0,0,0,0.584219,-0.0721151,3417
1290,-3.34296e-12,0,-1.60906e-06,-3.40794e-12,0,-3.96345e-12,-1.13771e-13,0,0,-6.38199,0.209516,-0.0165602,0,0,0,0,0,-2.38199,0.209516,118,15,118,15,185,15,118,66,-0.234612,-0.261799,-1.53569e-05,-1.5,-nan,0,0,3,-2.22101,0.219788,0,0,0,0,0.584219,-0.0721151,3417
1300,-3.34296e-12,0,-1.60906e-06,-3.40794e-12,0,0,-1.13772e-13,0,0,-6.38199,0.209516,-0.0165602,0,0,0,0,0,-2.38199,0.209516,118,15,118,15,185,15,118,66,-0.232888,-0.261799,-1.48712e-05,-1.5,-nan,0,0,3,-2.21167,0.218634,0,0,0,0,0.584219,-0.0721151,3417
1310,-3.34296e-12,0,-1.60906e-06,-3.40794e-12,0,-3.96345e-12,-1.13777e-13,0,0,-6.86478,0.22537,0.116784,0,0,0,0,0,-2.86478,0.22537,120,17,120,17,183,17,120,63,-0.250648,-0.261799,-1.4342e-05,-1.5,-nan,0,0,3,-2.27363,0.224518,0,0,0,0,0.525926,-0.0652164,2898
1320,-3.34296e-12,0,-1.60906e-06,-3.40794e-12,0,0,-1.13772e-13,0,0,-6.86478,0.22537,0.116784,0,0,0,0,0,-2.86478,0.22537,120,17,120,17,183,17,120,63,-0.249089,-0.261799,-1.38883e-05,-1.5,-nan,0,0,3,-2.26522,0.223475,0,0,0,0,0.525926,-0.0652164,2898
1330,-3.34296e-12,0,-1.60906e-06,-3.40794e-12,0,-3.96345e-12,-1.13773e-13,0,0,-6.86478,0.22537,0.116784,0,0,0,0,0,-2.86478,0.22537,120,17,120,17,183,17,120,63,-0.247628,-0.261799,-1.34763e-05,-1.5,-nan,0,0,3,-2.25733,0.222497,0,0,0,0,0.525926,-0.0652164,2898
1340,-3.34296e-12,0,-1.60906e-06,-3.40794e-12,0,0,-1.13773e-13,0,0,-6.86478,0.22537,0.116784,0,0,0,0,0,-2.86478,0.22537,120,17,120,17,183,17,120,63,-0.245874,-0.261799,-1.30233e-05,-1.5,-nan,0,0,3,-2.24786,0.221323,0,0,0,0,0.525926,-0.0652164,2898
1350,-3.34296e-12,0,-1.60906e-06,-3.40794e-12,0,-3.96345e-12,-1.13774e-13,0,0,-6.86478,0.22537,0.116784,0,0,0,0,0,-2.86478,0.22537,120,17,120,17,183,17,120,63,-0.244315,-0.261799,-1.26111e-05,-1.5,-nan,0,0,3,-2.23945,0.220279,0,0,0,0,0.525926,-0.0652164,2898
1360,-3.34296e-12,0,-1.60906e-06,-3.40794e-12,0,0,-1.13774e-13,0,0,-6.86478,0.22537,0.116784,0,0,0,0,0,-2.86478,0.22537,120,17,120,17,183,17,120,63,-0.242756,-0.261799,-1.2212e-05,-1.5,-nan,0,0,3,-2.23103,0.219236,0,0,0,0,0.525926,-0.0652164,2898
1370,-3.34296e-12,0,-1.60906e-06,-3.40794e-12,0,-3.96345e-12,-1.13775e-13,0,0,-6.86478,0.22537,0.116784,0,0,0,0,0,-2.86478,0.22537,120,17,120,17,183,17,120,63,-0.241197,-0.261799,-1.18257e-05,-1.5,-nan,0,0,3,-2.22262,0.218192,0,0,0,0,0.525926,-0.0652164,2898
1380,-3.34296e-12,0,-1.60906e-06,-3.40794e-12,0,0,-1.13776e-13,0,0,-6.86478,0.22537,0.116784,0,0,0,0,0,-2.86478,0.22537,120,17,120,17,183,17,120,63,-0.239735,-0.261799,-1.14747e-05,-1.5,-nan,0,0,3,-2.21473,0.217214,0,0,0,0,0.525926,-0.0652164,2898
1390,-3.34296e-12,0,-1.60906e-06,-3.40794e-12,0,-3.96345e-12,-1.13776e-13,0,0,-6.86478,0.22537,0.116784,0,0,0,0,0,-2.86478,0.22537,120,17,120,17,183,17,120,63,-0.238274,-0.261799,-1.11341e-05,-1.5,-nan,0,0,3,-2.20684,0.216236,0,0,0,0,0.525926,-0.0652164,2898
1400,-3.34296e-12,0,-1.60906e-06,-3.40794e-12,0,0,-1.13777e-13,0,0,-6.86478,0.22537,0.116784,0,0,0,0,0,-2.86478,0.22537,120,17,120,17,183,17,120,63,-0.228336,-0.261799,-8.89711e-06,-1.5,-nan,0,0,3,-2.15319,0.209584,0,0,0,0,0.525926,-0.0652164,2898
1410,-3.34296e-12,0,-1.60906e-06,-3.40794e-12,0,-3.96345e-12,-1.13778e-13,0,0,-6.86478,0.22537,0.116784,0,0,0,0,0,-2.86478,0.22537,120,17,120,17,183,17,120,63,-0.226582,-0.261799,-8.58074e-06,-1.5,-nan,0,0,3,-2.14373,0.20841,0,0,0,0,0.525926,-0.0652164,2898
1420,-3.34296e-12,0,-1.60906e-06,-3.40794e-12,0,0,-1.13778e-13,0,0,-6.86478,0.22537,0.116784,0,0,0,0,0,-2.86478,0.22537,120,17,120,17,183,17,120,63,-0.225023,-0.261799,-8.30916e-06,-1.5,-nan,0,0,3,-2.13531,0.207366,0,0,0,0,0.525926,-0.0652164,2898
1430,-3.34296e-12,0,-1.60906e-06,-3.40794e-12,0,-3.96345e-12,-1.13779e-13,0,0,-6.86478,0.22537,0.116784,0,0,0,0,0,-2.86478,0.22537,120,17,120,17,183,17,120,63,-0.223464,-0.261799,-8.04618e-06,-1.5,-nan,0,0,3,-2.1269,0.206323,0,0,0,0,0.525926,-0.0652164,2898
1440,-3.34296e-12,0,-1.60906e-06,-3.40794e-12,0,0,-1.1378e-13,0,0,-6.86478,0.22537,0.116784,0,0,0,0,0,-2.86478,0.22537,120,17,120,17,183,17,120,63,-0.2221,-0.261799,-7.82329e-06,-1.5,-nan,0,0,3,-2.11953,0.20541,0,0,0,0,0.525926,-0.0652164,2898
1450,-3.34296e-12,0,-1.60906e-06,-3.40794e-12,0,-3.96345e-12,-1.1378e-13,0,0,-6.86478,0.22537,0.116784,0,0,0,0,0,-2.86478,0.22537,120,17,120,17,183,17,120,63,-0.220833,-0.261799,-7.62187e-06,-1.5,-nan,0,0,3,-2.1127,0.204562,0,0,0,0,0.525926,-0.0652164,2898
1460,-3.34296e-12,0,-1.60906e-06,-3.40794e-12,0,0,-1.13781e-13,0,0,-6.86478,0.22537,0.116784,0,0,0,0,0,-2.86478,0.22537,120,17,120,17,183,17,120,63,-0.219372,-0.261799,-7.39565e-06,-1.5,-nan,0,0,3,-2.10481,0.203584,0,0,0,0,0.525926,-0.0652164,2898
1470,-3.34296e-12,0,-1.60906e-06,-3.40794e-12,0,-3.96345e-12,-1.13781e-13,0,0,-6.86478,0.22537,0.116784,0,0,0,0,0,-2.86478,0.22537,120,17,120,17,183,17,120,63,-0.21791,-0.261799,-7.17613e-06,-1.5,-nan,0,0,3,-2.09692,0.202605,0,0,0,0,0.525926,-0.0652164,2898
1480,-3.34296e-12,0,-1.60906e-06,-3.40794e-12,0,0,-1.13782e-13,0,0,-6.86478,0.22537,0.116784,0,0,0,0,0,-2.86478,0.22537,120,17,120,17,183,17,120,63,-0.216156,-0.261799,-6.92076e-06,-1.5,-nan,0,0,3,-2.08745,0.201431,0,0,0,0,0.525926,-0.0652164,2898
1490,-3.34296e-12,0,-1.60906e-06,-3.40794e-12,0,-3.96345e-12,-1.13782e-13,0,0,-6.86478,0.22537,0.116784,0,0,0,0,0,-2.86478,0.22537,120,17,120,17,183,17,120,63,-0.214597,-0.261799,-6.70172e-06,-1.5,-nan,0,0,3,-2.07904,0.200388,0,0,0,0,0.525926,-0.0652164,2898
1500,-3.34296e-12,0,-1.60906e-06,-3.40794e-12,0,0,-1.13783e-13,0,0,-6.86478,0.22537,0.116784,0,0,0,0,0,-2.86478,0.22537,120,17,120,17,183,17,120,63,-0.213038,-0.261799,-6.48974e-06,-1.5,-nan,0,0,3,-2.07062,0.199344,0,0,0,0,0.525926,-0.0652164,2898
1510,-3.34296e-12,0,-1.60906e-06,-3.40794e-12,0,-3.96345e-12,-1.13788e-13,0,0,-7.36733,-0.199868,0.245494,0,0,0,0,0,-3.36733,-0.199868,144,17,144,17,201,17,144,63,-0.165104,-0.261799,-6.24623e-06,-1.5,-nan,0,0,3,-2.95025,0.179831,0,0,0,0,-0.265594,-0.0796635,2622
1520,-3.34296e-12,0,-1.60906e-06,-3.40794e-12,0,0,-1.13783e-13,0,0,-7.36733,-0.199868,0.245494,0,0,0,0,0,-3.36733,-0.199868,144,17,144,17,201,17,144,63,-0.163319,-0.261799,-6.06093e-06,-1.5,-nan,0,0,3,-2.95424,0.178636,0,0,0,0,-0.265594,-0.0796635,2622
1530,-3.34296e-12,0,-1.60906e-06,-3.40794e-12,0,-3.96345e-12,-1.13784e-13,0,0,-7.36733,-0.199868,0.245494,0,0,0,0,0,-3.36733,-0.199868,144,17,144,17,201,17,144,63,-0.161534,-0.261799,-5.88113e-06,-1.5,-nan,0,0,3,-2.95822,0.177441,0,0,0,0,-0.265594,-0.0796635,2622
1540,-3.34296e-12,0,-1.60906e-06,-3.40794e-12,0,0,-1.13784e-13,0,0,-7.36733,-0.199868,0.245494,0,0,0,0,0,-3.36733,-0.199868,144,17,144,17,201,17,144,63,-0.159391,-0.261799,-5.672e-06,-1.5,-nan,0,0,3,-2.963,0.176007,0,0,0,0,-0.265594,-0.0796635,2622
1550,-3.34296e-12,0,-1.60906e-06,-3.40794e-12,0,-3.96345e-12,-1.13785e-13,0,0,-7.36733,-0.199868,0.245494,0,0,0,0,0,-3.36733,-0.199868,144,17,144,17,201,17,144,63,-0.157606,-0.261799,-5.4926e-06,-1.5,-nan,0,0,3,-2.96698,0.174812,0,0,0,0,-0.265594,-0.0796635,2622
1560,-3.34296e-12,0,-1.60906e-06,-3.40794e-12,0,0,-1.13786e-13,0,0,-7.36733,-0.199868,0.245494,0,0,0,0,0,-3.36733,-0.199868,144,17,144,17,201,17,144,63,-0.155702,-0.261799,-5.32957e-06,-1.5,-nan,0,0,3,-2.97123,0.173537,0,0,0,0,-0.265594,-0.0796635,2622
1570,-3.34296e-12,0,-1.60906e-06,-3.40794e-12,0,-3.96345e-12,-1.13787e-13,0,0,-7.99501,-0.114194,0.543327,0,0,0,0,0,-3.99501,-0.114194,143,11,143,11,193,11,143,57,-0.0315953,-0.261799,-5.12942e-06,-1.5,-nan,0,0,3,-3.22757,0.11667,0,0,0,0,-0.510839,-0.109776,2300
1580,-3.34296e-12,0,-1.60906e-06,-3.40794e-12,0,0,-1.13786e-13,0,0,-7.99501,-0.114194,0.543327,0,0,0,0,0,-3.99501,-0.114194,143,11,143,11,193,11,143,57,-0.0291351,-0.261799,-4.97717e-06,-1.5,-nan,0,0,3,-3.23523,0.115024,0,0,0,0,-0.510839,-0.109776,2300
1590,-3.34296e-12,0,-1.60906e-06,-3.40794e-12,0,-3.96345e-12,-1.13787e-13,0,0,-7.99501,-0.114194,0.543327,0,0,0,0,0,-3.99501,-0.114194,143,11,143,11,193,11,143,57,-0.026183,-0.261799,-4.80019e-06,-1.5,-nan,0,0,3,-3.24443,0.113047,0,0,0,0,-0.510839,-0.109776,2300
1600,-3.34296e-12,0,-1.60906e-06,-3.40794e-12,0,0,-1.13788e-13,0,0,-7.99501,-0.114194,0.543327,0,0,0,0,0,-3.99501,-0.114194,143,11,143,11,193,11,143,57,-0.0235589,-0.261799,-4.64827e-06,-1.5,-nan,0,0,3,-3.2526,0.111291,0,0,0,0,-0.510839,-0.109776,2300
1610,-3.34296e-12,0,-1.60906e-06,-3.40794e-12,0,-3.96345e-12,-1.13789e-13,0,0,-7.99501,-0.114194,0.543327,0,0,0,0,0,-3.99501,-0.114194,143,11,143,11,193,11,143,57,-0.0210987,-0.261799,-4.5103e-06,-1.5,-nan,0,0,3,-3.26026,0.109644,0,0,0,0,-0.510839,-0.109776,2300
1620,-3.34296e-12,0,-1.60906e-06,-3.40794e-12,0,0,-1.1379e-13,0,0,-7.99501,-0.114194,0.543327,0,0,0,0,0,-3.99501,-0.114194,143,11,143,11,193,11,143,57,-0.0184746,-0.261799,-4.36755e-06,-1.5,-nan,0,0,3,-3.26844,0.107888,0,0,0,0,-0.510839,-0.109776,2300
1630,-3.34296e-12,0,-1.60906e-06,-3.40794e-12,0,-3.96345e-12,-1.1379e-13,0,0,-7.99501,-0.114194,0.543327,0,0,0,0,0,-3.99501,-0.114194,143,11,143,11,193,11,143,57,-0.0158505,-0.261799,-4.2294e-06,-1.5,-nan,0,0,3,-3.27661,0.106131,0,0,0,0,-0.510839,-0.109776,2300
1640,-3.34296e-12,0,-1.60906e-06,-3.40794e-12,0,0,-1.13791e-13,0,0,-7.99501,-0.114194,0.543327,0,0,0,0,0,-3.99501,-0.114194,143,11,143,11,193,11,143,57,-0.0133903,-0.261799,-4.10387e-06,-1.5,-nan,0,0,3,-3.28427,0.104485,0,0,0,0,-0.510839,-0.109776,2300
1650,-3.34296e-12,0,-1.60906e-06,-3.40794e-12,0,-3.96345e-12,-1.13791e-13,0,0,-7.99501,-0.114194,0.543327,0,0,0,0,0,-3.99501,-0.114194,143,11,143,11,193,11,143,57,-0.0109302,-0.261799,-3.98212e-06,-1.5,-nan,0,0,3,-3.29194,0.102838,0,0,0,0,-0.510839,-0.109776,2300
1660,-3.34296e-12,0,-1.60906e-06,-3.40794e-12,0,0,-1.13792e-13,0,0,-7.99501,-0.114194,0.543327,0,0,0,0,0,-3.99501,-0.114194,143,11,143,11,193,11,143,57,-0.00814204,-0.261799,-3.84835e-06,-1.5,-nan,0,0,3,-3.30062,0.100972,0,0,0,0,-0.510839,-0.109776,2300
1670,-3.34296e-12,0,-1.60906e-06,-3.40794e-12,0,-3.96345e-12,-1.13792e-13,0,0,-7.99501,-0.114194,0.543327,0,0,0,0,0,-3.99501,-0.114194,143,11,143,11,193,11,143,57,-0.00551791,-0.261799,-3.72655e-06,-1.5,-nan,0,0,3,-3.30879,0.0992154,0,0,0,0,-0.510839,-0.109776,2300
1680,-3.34296e-12,0,-1.60906e-06,-3.40794e-12,0,0,-1.13793e-13,0,0,-7.99501,-0.114194,0.543327,0,0,0,0,0,-3.99501,-0.114194,143,11,143,11,193,11,143,57,-0.00289378,-0.261799,-3.6086e-06,-1.5,-nan,0,0,3,-3.31697,0.097459,0,0,0,0,-0.510839,-0.109776,2300
1690,-3.34296e-12,0,-1.60906e-06,-3.40794e-12,0,-3.96345e-12,-1.13793e-13,0,0,-7.99501,-0.114194,0.543327,0,0,0,0,0,-3.99501,-0.114194,143,11,143,11,193,11,143,57,-0.000269631,-0.261799,-3.49439e-06,-1.5,-nan,0,0,3,-3.32514,0.0957025,0,0,0,0,-0.510839,-0.109776,2300
1700,-3.34296e-12,0,-1.60906e-06,-3.40794e-12,0,0,-1.13794e-13,0,0,-7.99501,-0.114194,0.543327,0,0,0,0,0,-3.99501,-0.114194,143,11,143,11,193,11,143,57,0.0021905,-0.261799,-3.39067e-06,-1.5,-nan,0,0,3,-3.3328,0.0940558,0,0,0,0,-0.510839,-0.109776,2300
1710,-3.34296e-12,0,-1.60906e-06,-3.40794e-12,0,-3.96345e-12,-1.13794e-13,0,0,-7.99501,-0.114194,0.543327,0,0,0,0,0,-3.99501,-0.114194,143,11,143,11,193,11,143,57,0.00465063,-0.261799,-3.29003e-06,-1.5,-nan,0,0,3,-3.34047,0.0924091,0,0,0,0,-0.510839,-0.109776,2300
1720,-3.34296e-12,0,-1.60906e-06,-3.40794e-12,0,0,-1.13795e-13,0,0,-7.99501,-0.114194,0.543327,0,0,0,0,0,-3.99501,-0.114194,143,11,143,11,193,11,143,57,0.00727478,-0.261799,-3.18597e-06,-1.5,-nan,0,0,3,-3.34864,0.0906527,0,0,0,0,-0.510839,-0.109776,2300
1730,-3.34296e-12,0,-1.60906e-06,-3.40794e-12,0,-3.96345e-12,-1.13795e-13,0,0,-7.99501,-0.114194,0.543327,0,0,0,0,0,-3.99501,-0.114194,143,11,143,11,193,11,143,57,0.0100629,-0.261799,-3.07886e-06,-1.5,-nan,0,0,3,-3.35732,0.0887864,0,0,0,0,-0.510839,-0.109776,2300
1740,-3.34296e-12,0,-1.60906e-06,-3.40794e-12,0,0,-1.13796e-13,0,0,-7.99501,-0.114194,0.543327,0,0,0,0,0,-3.99501,-0.114194,143,11,143,11,193,11,143,57,0.0126871,-0.261799,-2.98142e-06,-1.5,-nan,0,0,3,-3.3655,0.08703,0,0,0,0,-0.510839,-0.109776,2300
1750,-3.34296e-12,0,-1.60906e-06,-3.40794e-12,0,-3.96345e-12,-1.13797e-13,0,0,-7.99501,-0.114194,0.543327,0,0,0,0,0,-3.99501,-0.114194,143,11,143,11,193,11,143,57,0.0153112,-0.261799,-2.88711e-06,-1.5,-nan,0,0,3,-3.37367,0.0852735,0,0,0,0,-0.510839,-0.109776,2300
1760,-3.34296e-12,0,-1.60906e-06,-3.40794e-12,0,0,-1.13797e-13,0,0,-7.99501,-0.114194,0.543327,0,0,0,0,0,-3.99501,-0.114194,143,11,143,11,193,11,143,57,0.0174434,-0.261799,-2.81278e-06,-1.5,-nan,0,0,3,-3.38031,0.0838464,0,0,0,0,-0.510839,-0.109776,2300
1770,-3.34296e-12,0,-1.60906e-06,-3.40794e-12,0,-3.96345e-12,-1.13798e-13,0,0,-7.99501,-0.114194,0.543327,0,0,0,0,0,-3.99501,-0.114194,143,11,143,11,193,11,143,57,0.0220356,-0.261799,-2.65752e-06,-1.5,-nan,0,0,3,-3.39462,0.0807726,0,0,0,0,-0.510839,-0.109776,2300
1780,-3.34296e-12,0,-1.60906e-06,-3.40794e-12,0,0,-1.13798e-13,0,0,-7.99501,-0.114194,0.543327,0,0,0,0,0,-3.99501,-0.114194,143,11,143,11,193,11,143,57,0.0248237,-0.261799,-2.56818e-06,-1.5,-nan,0,0,3,-3.4033,0.0789063,0,0,0,0,-0.510839,-0.109776,2300
1790,-3.34296e-12,0,-1.60906e-06,-3.40794e-12,0,-3.96345e-12,-1.13799e-13,0,0,-7.99501,-0.114194,0.543327,0,0,0,0,0,-3.99501,-0.114194,143,11,143,11,193,11,143,57,0.0276119,-0.261799,-2.48694e-06,-1.5,-nan,0,0,3,-3.41199,0.0770401,0,0,0,0,-0.510839,-0.109776,2300
1800,-3.34296e-12,0,-1.60906e-06,-3.40794e-12,0,0,-1.13799e-13,0,0,-7.99501,-0.114194,0.543327,0,0,0,0,0,-3.99501,-0.114194,143,11,143,11,193,11,143,57,0.030072,-0.261799,-2.41313e-06,-1.5,-nan,0,0,3,-3.41965,0.0753934,0,0,0,0,-0.510839,-0.109776,2300
1810,-3.34296e-12,0,-1.60906e-06,-3.40794e-12,0,-3.96345e-12,-1.138e-13,0,0,-7.99501,-0.114194,0.543327,0,0,0,0,0,-3.99501,-0.114194,143,11,143,11,193,11,143,57,0.0326961,-0.261799,-2.3368e-06,-1.5,-nan,0,0,3,-3.42782,0.073637,0,0,0,0,-0.510839,-0.109776,2300
1820,-3.34296e-12,0,-1.60906e-06,-3.40794e-12,0,0,-1.138e-13,0,0,-7.99501,-0.114194,0.543327,0,0,0,0,0,-3.99501,-0.114194,143,11,143,11,193,11,143,57,0.0351563,-0.261799,-2.26744e-06,-1.5,-nan,0,0,3,-3.43548,0.0719903,0,0,0,0,-0.510839,-0.109776,2300
1830,-3.34296e-12,0,-1.60906e-06,-3.40794e-12,0,-3.96345e-12,-1.13801e-13,0,0,-7.99501,-0.114194,0.543327,0,0,0,0,0,-3.99501,-0.114194,143,11,143,11,193,11,143,57,0.0376164,-0.261799,-2.20014e-06,-1.5,-nan,0,0,3,-3.44315,0.0703436,0,0,0,0,-0.510839,-0.109776,2300
1840,-3.34296e-12,0,-1.60906e-06,-3.40794e-12,0,0,-1.13801e-13,0,0,-7.99501,-0.114194,0.543327,0,0,0,0,0,-3.99501,-0.114194,143,11,143,11,193,11,143,57,0.0402406,-0.261799,-2.13055e-06,-1.5,-nan,0,0,3,-3.45132,0.0685872,0,0,0,0,-0.510839,-0.109776,2300
1850,-3.34296e-12,0,-1.60906e-06,-3.40794e-12,0,-3.96345e-12,-1.13802e-13,0,0,-7.99501,-0.114194,0.543327,0,0,0,0,0,-3.99501,-0.114194,143,11,143,11,193,11,143,57,0.0431927,-0.261799,-2.05479e-06,-1.5,-nan,0,0,3,-3.46052,0.0666111,0,0,0,0,-0.510839,-0.109776,2300
1860,-3.34296e-12,0,-1.60906e-06,-3.40794e-12,0,0,-1.13803e-13,0,0,-7.99501,-0.114194,0.543327,0,0,0,0,0,-3.99501,-0.114194,143,11,143,11,193,11,143,57,0.0458168,-0.261799,-1.9898e-06,-1.5,-nan,0,0,3,-3.46869,0.0648547,0,0,0,0,-0.510839,-0.109776,2300
1870,-3.34296e-12,0,-1.60906e-06,-3.40794e-12,0,-3.96345e-12,-1.13803e-13,0,0,-7.99501,-0.114194,0.543327,-3.47635,0.0632093,-0.509308,-0.109448,0,-3.99501,-0.114194,143,11,143,11,193,11,143,57,0.0478473,-0.261799,-1.93074e-06,-1.5,-nan,0,0,3,-3.47635,0.0632093,0,0,0,0,-0.509308,-0.109448,2300
1880,-3.34296e-12,0,-1.60906e-06,-3.40794e-12,0,0,-1.13804e-13,0,0,-7.99501,-0.114194,0.543327,-3.48445,0.0614671,-0.505245,-0.108574,0,-3.99501,-0.114194,143,11,143,11,193,11,143,57,0.0493153,-0.261799,-1.86967e-06,-1.5,-nan,0,0,3,-3.48445,0.0614671,0,0,0,0,-0.505245,-0.108574,2300
1890,-3.34296e-12,0,-1.60906e-06,-3.40794e-12,0,-3.96345e-12,-1.13804e-13,0,0,-7.99501,-0.114194,0.543327,-3.492,0.0598461,-0.501466,-0.107762,0,-3.99501,-0.114194,143,11,143,11,193,11,143,57,0.0506813,-0.261799,-1.81785e-06,-1.5,-nan,0,0,3,-3.492,0.0598461,0,0,0,0,-0.501466,-0.107762,2300
1900,-3.34296e-12,0,-1.60906e-06,-3.40794e-12,0,0,-1.13805e-13,0,0,-7.99501,-0.114194,0.543327,-3.50097,0.0579179,-0.496967,-0.106796,0,-3.99501,-0.114194,143,11,143,11,193,11,143,57,0.0523052,-0.261799,-1.75321e-06,-1.5,-nan,0,0,3,-3.50097,0.0579179,0,0,0,0,-0.496967,-0.106796,2300
1910,-3.34296e-12,0,-1.60906e-06,-3.40794e-12,0,-3.96345e-12,-1.13805e-13,0,0,-7.99501,-0.114194,0.543327,-3.50888,0.0562181,-0.493002,-0.105944,0,-3.99501,-0.114194,143,11,143,11,193,11,143,57,0.053737,-0.261799,-1.69431e-06,-1.5,-nan,0,0,3,-3.50888,0.0562181,0,0,0,0,-0.493002,-0.105944,2300
1920,-3.34296e-12,0,-1.60906e-06,-3.40794e-12,0,0,-1.13806e-13,0,0,-7.99501,-0.114194,0.543327,-3.51624,0.0546364,-0.489315,-0.105151,0,-3.99501,-0.114194,143,11,143,11,193,11,143,57,0.05507,-0.261799,-1.64738e-06,-1.5,-nan,0,0,3,-3.51624,0.0546364,0,0,0,0,-0.489315,-0.105151,2300
1930,-3.34296e-12,0,-1.60906e-06,-3.40794e-12,0,-3.96345e-12,-1.13806e-13,0,0,-7.99501,-0.114194,0.543327,-3.52354,0.0530667,-0.485655,-0.104365,0,-3.99501,-0.114194,143,11,143,11,193,11,143,57,0.0563925,-0.261799,-1.59848e-06,-1.5,-nan,0,0,3,-3.52354,0.0530667,0,0,0,0,-0.485655,-0.104365,2300
1940,-3.34296e-12,0,-1.60906e-06,-3.40794e-12,0,0,-1.13807e-13,0,0,-7.99501,-0.114194,0.543327,-3.53128,0.0514054,-0.481781,-0.103532,0,-3.99501,-0.114194,143,11,143,11,193,11,143,57,0.0577923,-0.261799,-1.54792e-06,-1.5,-nan,0,0,3,-3.53128,0.0514054,0,0,0,0,-0.481781,-0.103532,2300
1950,-3.34296e-12,0,-1.60906e-06,-3.40794e-12,0,-3.96345e-12,-1.13807e-13,0,0,-7.99501,-0.114194,0.543327,-3.53847,0.0498599,-0.478177,-0.102758,0,-3.99501,-0.114194,143,11,143,11,193,11,143,57,0.0590945,-0.261799,-1.50198e-06,-1.5,-nan,0,0,3,-3.53847,0.0498599,0,0,0,0,-0.478177,-0.102758,2300
1960,-3.34296e-12,0,-1.60906e-06,-3.40794e-12,0,0,-1.13808e-13,0,0,-7.99501,-0.114194,0.543327,-3.54561,0.0483258,-0.474601,-0.101989,0,-3.99501,-0.114194,143,11,143,11,193,11,143,57,0.0603874,-0.261799,-1.45742e-06,-1.5,-nan,0,0,3,-3.54561,0.0483258,0,0,0,0,-0.474601,-0.101989,2300
1970,-3.34296e-12,0,-1.60906e-06,-3.40794e-12,0,-3.96345e-12,-1.13808e-13,0,0,-7.99501,-0.114194,0.543327,-3.5541,0.0465008,-0.470343,-0.101074,0,-3.99501,-0.114194,143,11,143,11,193,11,143,57,0.0619243,-0.261799,-1.4056e-06,-1.5,-nan,0,0,3,-3.5541,0.0465008,0,0,0,0,-0.470343,-0.101074,2300
1980,-3.34296e-12,0,-1.60906e-06,-3.40794e-12,0,0,-1.13809e-13,0,0,-7.99501,-0.114194,0.543327,-3.56159,0.0448919,-0.466591,-0.100268,0,-3.99501,-0.114194,143,11,143,11,193,11,143,57,0.06328,-0.261799,-1.36111e-06,-1.5,-nan,0,0,3,-3.56159,0.0448919,0,0,0,0,-0.466591,-0.100268,2300
1990,-3.34296e-12,0,-1.60906e-06,-3.40794e-12,0,-3.96345e-12,-1.1381e-13,0,0,-7.99501,-0.114194,0.543327,-3.56901,0.043296,-0.462868,-0.0994679,0,-3.99501,-0.114194,143,11,143,11,193,11,143,57,0.0646243,-0.261799,-1.31803e-06,-1.5,-nan,0,0,3,-3.56901,0.043296,0,0,0,0,-0.462868,-0.0994679,2300
2000,-3.34296e-12,0,-1.60906e-06,-3.40794e-12,0,0,-1.1381e-13,0,0,-7.99501,-0.114194,0.543327,-3.57638,0.0417126,-0.459176,-0.0986745,0,-3.99501,-0.114194,143,11,143,11,193,11,143,57,0.0659584,-0.261799,-1.27634e-06,-1.5,-nan,0,0,3,-3.57638,0.0417126,0,0,0,0,-0.459176,-0.0986745,2300
2010,-3.34296e-12,0,-1.60906e-06,-3.40794e-12,0,-3.96345e-12,-1.13811e-13,0,0,-7.99501,-0.114194,0.543327,-3.58324,0.0402396,-0.455741,-0.0979364,0,-3.99501,-0.114194,143,11,143,11,193,11,143,57,0.0671995,-0.261799,-1.23846e-06,-1.5,-nan,0,0,3,-3.58324,0.0402396,0,0,0,0,-0.455741,-0.0979364,2300
2020,-3.34296e-12,0,-1.60906e-06,-3.40794e-12,0,0,-1.13811e-13,0,0,-7.99501,-0.114194,0.543327,-3.59004,0.0387777,-0.452332,-0.0972038,0,-3.99501,-0.114194,143,11,143,11,193,11,143,57,0.0684313,-0.261799,-1.2017e-06,-1.5,-nan,0,0,3,-3.59004,0.0387777,0,0,0,0,-0.452332,-0.0972038,2300
2030,-3.34296e-12,0,-1.60906e-06,-3.40794e-12,0,-3.96345e-12,-1.13812e-13,0,0,-7.99501,-0.114194,0.543327,-3.59724,0.0372303,-0.448724,-0.0964284,0,-3.99501,-0.114194,143,11,143,11,193,11,143,57,0.069735,-0.261799,-1.16369e-06,-1.5,-nan,0,0,3,-3.59724,0.0372303,0,0,0,0,-0.448724,-0.0964284,2300
2040,-3.34296e-12,0,-1.60906e-06,-3.40794e-12,0,0,-1.13812e-13,0,0,-7.99501,-0.114194,0.543327,-3.60482,0.0356,-0.444922,-0.0956112,0,-3.99501,-0.114194,143,11,143,11,193,11,143,57,0.0711083,-0.261799,-1.1246e-06,-1.5,-nan,0,0,3,-3.60482,0.0356,0,0,0,0,-0.444922,-0.0956112,2300
2050,-3.34296e-12,0,-1.60906e-06,-3.40794e-12,0,-3.96345e-12,-1.13813e-13,0,0,-7.99501,-0.114194,0.543327,-3.61059,0.0343621,-0.442037,-0.0949913,0,-3.99501,-0.114194,143,11,143,11,193,11,143,57,0.0721518,-0.261799,-1.09564e-06,-1.5,-nan,0,0,3,-3.61059,0.0343621,0,0,0,0,-0.442037,-0.0949913,2300
2060,-3.34296e-12,0,-1.60906e-06,-3.40794e-12,0,0,-1.13813e-13,0,0,-7.99501,-0.114194,0.543327,-3.61675,0.033038,-0.438951,-0.0943281,0,-3.99501,-0.114194,143,11,143,11,193,11,143,57,0.073268,-0.261799,-1.06529e-06,-1.5,-nan,0,0,3,-3.61675,0.033038,0,0,0,0,-0.438951,-0.0943281,2300
2070,-3.34296e-12,0,-1.60906e-06,-3.40794e-12,0,-3.96345e-12,-1.13814e-13,0,0,-7.99501,-0.114194,0.543327,-3.6233,0.0316299,-0.435667,-0.0936226,0,-3.99501,-0.114194,143,11,143,11,193,11,143,57,0.0744544,-0.261799,-1.03367e-06,-1.5,-nan,0,0,3,-3.6233,0.0316299,0,0,0,0,-0.435667,-0.0936226,2300
2080,-3.34296e-12,0,-1.60906e-06,-3.40794e-12,0,0,-1.13814e-13,0,0,-7.99501,-0.114194,0.543327,-3.6298,0.0302323,-0.432409,-0.0929223,0,-3.99501,-0.114194,143,11,143,11,193,11,143,57,0.075632,-0.261799,-1.00299e-06,-1.5,-nan,0,0,3,-3.6298,0.0302323,0,0,0,0,-0.432409,-0.0929223,2300
2090,-3.34296e-12,0,-1.60906e-06,-3.40794e-12,0,-3.96345e-12,-1.13815e-13,0,0,-7.99501,-0.114194,0.543327,-3.63669,0.0287531,-0.428959,-0.092181,0,-3.99501,-0.114194,143,11,143,11,193,11,143,57,0.0768783,-0.261799,-9.71266e-07,-1.5,-nan,0,0,3,-3.63669,0.0287531,0,0,0,0,-0.428959,-0.092181,2300
2100,-3.34296e-12,0,-1.60906e-06,-3.40794e-12,0,0,-1.13816e-13,0,0,-7.99501,-0.114194,0.543327,-3.64394,0.0271947,-0.425324,-0.0913999,0,-3.99501,-0.114194,143,11,143,11,193,11,143,57,0.0781911,-0.261799,-9.38637e-07,-1.5,-nan,0,0,3,-3.64394,0.0271947,0,0,0,0,-0.425324,-0.0913999,2300
2110,-3.34296e-12,0,-1.60906e-06,-3.40794e-12,0,-3.96345e-12,-1.13816e-13,0,0,-7.99501,-0.114194,0.543327,-3.65071,0.0257397,-0.421931,-0.0906708,0,-3.99501,-0.114194,143,11,143,11,193,11,143,57,0.079417,-0.261799,-9.08948e-07,-1.5,-nan,0,0,3,-3.65071,0.0257397,0,0,0,0,-0.421931,-0.0906708,2300
2120,-3.34296e-12,0,-1.60906e-06,-3.40794e-12,0,0,-1.13817e-13,0,0,-7.99501,-0.114194,0.543327,-3.65743,0.0242964,-0.418566,-0.0899475,0,-3.99501,-0.114194,143,11,143,11,193,11,143,57,0.0806331,-0.261799,-8.80198e-07,-1.5,-nan,0,0,3,-3.65743,0.0242964,0,0,0,0,-0.418566,-0.0899475,2300
2130,-3.34296e-12,0,-1.60906e-06,-3.40794e-12,0,-3.96345e-12,-1.13817e-13,0,0,-7.99501,-0.114194,0.543327,-3.66367,0.0229537,-0.415435,-0.0892747,0,-3.99501,-0.114194,143,11,143,11,193,11,143,57,0.0817645,-0.261799,-8.54072e-07,-1.5,-nan,0,0,3,-3.66367,0.0229537,0,0,0,0,-0.415435,-0.0892747,2300
2140,-3.34296e-12,0,-1.60906e-06,-3.40794e-12,0,0,-1.13818e-13,0,0,-7.99501,-0.114194,0.543327,-3.67029,0.0215325,-0.412121,-0.0885626,0,-3.99501,-0.114194,143,11,143,11,193,11,143,57,0.0829619,-0.261799,-8.27058e-07,-1.5,-nan,0,0,3,-3.67029,0.0215325,0,0,0,0,-0.412121,-0.0885626,2300
2150,-3.34296e-12,0,-1.60906e-06,-3.40794e-12,0,-3.96345e-12,-1.13818e-13,0,0,-7.99501,-0.114194,0.543327,-3.67644,0.0202103,-0.409039,-0.0879002,0,-3.99501,-0.114194,143,11,143,11,193,11,143,57,0.0840762,-0.261799,-8.02523e-07,-1.5,-nan,0,0,3,-3.67644,0.0202103,0,0,0,0,-0.409039,-0.0879002,2300
2160,-3.34296e-12,0,-1.60906e-06,-3.40794e-12,0,0,-1.13819e-13,0,0,-7.99501,-0.114194,0.543327,-3.68336,0.0187242,-0.405572,-0.0871553,0,-3.99501,-0.114194,143,11,143,11,193,11,143,57,0.085328,-0.261799,-7.75562e-07,-1.5,-nan,0,0,3,-3.68336,0.0187242,0,0,0,0,-0.405572,-0.0871553,2300
2170,-3.34296e-12,0,-1.60906e-06,-3.40794e-12,0,-3.96345e-12,-1.13819e-13,0,0,-7.99501,-0.114194,0.543327,-3.68981,0.0173368,-0.402337,-0.0864601,0,-3.99501,-0.114194,143,11,143,11,193,11,143,57,0.086497,-0.261799,-7.51031e-07,-1.5,-nan,0,0,3,-3.68981,0.0173368,0,0,0,0,-0.402337,-0.0864601,2300
2180,-3.34296e-12,0,-1.60906e-06,-3.40794e-12,0,0,-1.1382e-13,0,0,-7.99501,-0.114194,0.543327,-3.69621,0.0159607,-0.399127,-0.0857703,0,-3.99501,-0.114194,143,11,143,11,193,11,143,57,0.0876562,-0.261799,-7.27261e-07,-1.5,-nan,0,0,3,-3.69621,0.0159607,0,0,0,0,-0.399127,-0.0857703,2300
2190,-3.34296e-12,0,-1.60906e-06,-3.40794e-12,0,-3.96345e-12,-1.1382e-13,0,0,-7.99501,-0.114194,0.543327,-3.70178,0.0147651,-0.396341,-0.0851715,0,-3.99501,-0.114194,143,11,143,11,193,11,143,57,0.088664,-0.261799,-7.07115e-07,-1.5,-nan,0,0,3,-3.70178,0.0147651,0,0,0,0,-0.396341,-0.0851715,2300
2200,-3.34296e-12,0,-1.60906e-06,-3.40794e-12,0,0,-1.13821e-13,0,0,-7.99501,-0.114194,0.543327,-3.70691,0.0136623,-0.393771,-0.0846193,0,-3.99501,-0.114194,143,11,143,11,193,11,143,57,0.0895938,-0.261799,-6.8891e-07,-1.5,-nan,0,0,3,-3.70691,0.0136623,0,0,0,0,-0.393771,-0.0846193,2300
2210,-3.34296e-12,0,-1.60906e-06,-3.40794e-12,0,-3.96345e-12,-1.13821e-13,0,0,-7.99501,-0.114194,0.543327,-3.71279,0.0123989,-0.390826,-0.0839865,0,-3.99501,-0.114194,143,11,143,11,193,11,143,57,0.0906584,-0.261799,-6.68473e-07,-1.5,-nan,0,0,3,-3.71279,0.0123989,0,0,0,0,-0.390826,-0.0839865,2300
2220,-3.34296e-12,0,-1.60906e-06,-3.40794e-12,0,0,-1.13822e-13,0,0,-7.99501,-0.114194,0.543327,-3.71862,0.011145,-0.387903,-0.0833583,0,-3.99501,-0.114194,143,11,143,11,193,11,143,57,0.0917152,-0.261799,-6.48642e-07,-1.5,-nan,0,0,3,-3.71862,0.011145,0,0,0,0,-0.387903,-0.0833583,2300
2230,-3.34296e-12,0,-1.60906e-06,-3.40794e-12,0,-3.96345e-12,-1.13823e-13,0,0,-7.99501,-0.114194,0.543327,-3.72557,0.00965346,-0.384423,-0.0826104,0,-3.99501,-0.114194,143,11,143,11,193,11,143,57,0.0929713,-0.261799,-6.25578e-07,-1.5,-nan,0,0,3,-3.72557,0.00965346,0,0,0,0,-0.384423,-0.0826104,2300
2240,-3.34296e-12,0,-1.60906e-06,-3.40794e-12,0,0,-1.13823e-13,0,0,-7.99501,-0.114194,0.543327,-3.73168,0.00833842,-0.381356,-0.0819514,0,-3.99501,-0.114194,143,11,143,11,193,11,143,57,0.0940793,-0.261799,-6.05791e-07,-1.5,-nan,0,0,3,-3.73168,0.00833842,0,0,0,0,-0.381356,-0.0819514,2300
2250,-3.34296e-12,0,-1.60906e-06,-3.40794e-12,0,-3.96345e-12,-1.13824e-13,0,0,-7.99501,-0.114194,0.543327,-3.73738,0.00711508,-0.378504,-0.0813384,0,-3.99501,-0.114194,143,11,143,11,193,11,143,57,0.0951101,-0.261799,-5.8781e-07,-1.5,-nan,0,0,3,-3.73738,0.00711508,0,0,0,0,-0.378504,-0.0813384,2300
2260,-3.34296e-12,0,-1.60906e-06,-3.40794e-12,0,0,-1.13824e-13,0,0,-7.99501,-0.114194,0.543327,-3.7434,0.00582049,-0.375484,-0.0806895,0,-3.99501,-0.114194,143,11,143,11,193,11,143,57,0.0962006,-0.261799,-5.69206e-07,-1.5,-nan,0,0,3,-3.7434,0.00582049,0,0,0,0,-0.375484,-0.0806895,2300
2270,-3.34296e-12,0,-1.60906e-06,-3.40794e-12,0,-3.96345e-12,-1.13825e-13,0,0,-7.99501,-0.114194,0.543327,-3.74901,0.00461599,-0.372676,-0.0800859,0,-3.99501,-0.114194,143,11,143,11,193,11,143,57,0.0972155,-0.261799,-5.52311e-07,-1.5,-nan,0,0,3,-3.74901,0.00461599,0,0,0,0,-0.372676,-0.0800859,2300
2280,-3.34296e-12,0,-1.60906e-06,-3.40794e-12,0,0,-1.13825e-13,0,0,-7.99501,-0.114194,0.543327,-3.75457,0.0034205,-0.369888,-0.0794869,0,-3.99501,-0.114194,143,11,143,11,193,11,143,57,0.0982228,-0.261799,-5.35917e-07,-1.5,-nan,0,0,3,-3.75457,0.0034205,0,0,0,0,-0.369888,-0.0794869,2300
2290,-3.34296e-12,0,-1.60906e-06,-3.40794e-12,0,-3.96345e-12,-1.13826e-13,0,0,-7.99501,-0.114194,0.543327,-3.76119,0.00199819,-0.366569,-0.0787737,0,-3.99501,-0.114194,143,11,143,11,193,11,143,57,0.0994206,-0.261799,-5.16861e-07,-1.5,-nan,0,0,3,-3.76119,0.00199819,0,0,0,0,-0.366569,-0.0787737,2300
2300,-3.34296e-12,0,-1.60906e-06,-3.40794e-12,0,0,-1.13826e-13,0,0,-7.99501,-0.114194,0.543327,-3.76702,0.000744223,-0.363645,-0.0781454,0,-3.99501,-0.114194,143,11,143,11,193,11,143,57,0.100477,-0.261799,-5.00513e-07,-1.5,-nan,0,0,3,-3.76702,0.000744223,0,0,0,0,-0.363645,-0.0781454,2300
2310,-3.34296e-12,0,-1.60906e-06,-3.40794e-12,0,-3.96345e-12,-1.13827e-13,0,0,-7.99501,-0.114194,0.543327,-3.77281,-0.000499744,-0.360744,-0.077522,0,-3.99501,-0.114194,143,11,143,11,193,11,143,57,0.101525,-0.261799,-4.84681e-07,-1.5,-nan,0,0,3,-3.77281,-0.000499744,0,0,0,0,-0.360744,-0.077522,2300
2320,-3.34296e-12,0,-1.60906e-06,-3.40794e-12,0,0,-1.13827e-13,0,0,-7.99501,-0.114194,0.543327,-3.7782,-0.00165696,-0.358046,-0.0769422,0,-3.99501,-0.114194,143,11,143,11,193,11,143,57,0.1025,-0.261799,-4.70295e-07,-1.5,-nan,0,0,3,-3.7782,-0.00165696,0,0,0,0,-0.358046,-0.0769422,2300
2330,-3.34296e-12,0,-1.60906e-06,-3.40794e-12,0,-3.96345e-12,-1.13828e-13,0,0,-7.99501,-0.114194,0.543327,-3.7839,-0.00288177,-0.35519,-0.0763284,0,-3.99501,-0.114194,143,11,143,11,193,11,143,57,0.103532,-0.261799,-4.5542e-07,-1.5,-nan,0,0,3,-3.7839,-0.00288177,0,0,0,0,-0.35519,-0.0763284,2300
2340,-3.34296e-12,0,-1.60906e-06,-3.40794e-12,0,0,-1.13829e-13,0,0,-7.99501,-0.114194,0.543327,-3.7885,-0.00387012,-0.352887,-0.0758335,0,-3.99501,-0.114194,143,11,143,11,193,11,143,57,0.104366,-0.261799,-4.43699e-07,-1.5,-nan,0,0,3,-3.7885,-0.00387012,0,0,0,0,-0.352887,-0.0758335,2300
2350,-3.34296e-12,0,-1.60906e-06,-3.40794e-12,0,-3.96345e-12,-1.13829e-13,0,0,-7.99501,-0.114194,0.543327,-3.79377,-0.00500228,-0.350248,-0.0752664,0,-3.99501,-0.114194,143,11,143,11,193,11,143,57,0.10532,-0.261799,-4.30536e-07,-1.5,-nan,0,0,3,-3.79377,-0.00500228,0,0,0,0,-0.350248,-0.0752664,2300
2360,-3.34296e-12,0,-1.60906e-06,-3.40794e-12,0,0,-1.1383e-13,0,0,-7.99501,-0.114194,0.543327,-3.80038,-0.00642298,-0.34693,-0.0745535,0,-3.99501,-0.114194,143,11,143,11,193,11,143,57,0.106515,-0.261799,-4.14367e-07,-1.5,-nan,0,0,3,-3.80038,-0.00642298,0,0,0,0,-0.34693,-0.0745535,2300
2370,-3.34296e-12,0,-1.60906e-06,-3.40794e-12,0,-3.96345e-12,-1.1383e-13,0,0,-7.99501,-0.114194,0.543327,-3.8059,-0.00760958,-0.344163,-0.0739587,0,-3.99501,-0.114194,143,11,143,11,193,11,143,57,0.107515,-0.261799,-4.01253e-07,-1.5,-nan,0,0,3,-3.8059,-0.00760958,0,0,0,0,-0.344163,-0.0739587,2300
2380,-3.34296e-12,0,-1.60906e-06,-3.40794e-12,0,0,-1.13831e-13,0,0,-7.99501,-0.114194,0.543327,-3.81138,-0.0087869,-0.341417,-0.0733687,0,-3.99501,-0.114194,143,11,143,11,193,11,143,57,0.108507,-0.261799,-3.88561e-07,-1.5,-nan,0,0,3,-3.81138,-0.0087869,0,0,0,0,-0.341417,-0.0733687,2300
2390,-3.34296e-12,0,-1.60906e-06,-3.40794e-12,0,-3.96345e-12,-1.13831e-13,0,0,-7.99501,-0.114194,0.543327,-3.81647,-0.00988212,-0.338863,-0.0728199,0,-3.99501,-0.114194,143,11,143,11,193,11,143,57,0.10943,-0.261799,-3.77028e-07,-1.5,-nan,0,0,3,-3.81647,-0.00988212,0,0,0,0,-0.338863,-0.0728199,2300
2400,-3.34296e-12,0,-1.60906e-06,-3.40794e-12,0,0,-1.13832e-13,0,0,-7.99501,-0.114194,0.543327,-3.82153,-0.0109691,-0.336329,-0.0722752,0,-3.99501,-0.114194,143,11,143,11,193,11,143,57,0.110346,-0.261799,-3.65837e-07,-1.5,-nan,0,0,3,-3.82153,-0.0109691,0,0,0,0,-0.336329,-0.0722752,2300
