timestamp,A_x,A_y,A_z,P,Q,R,Phi,Theta,Psi,poseX,poseY,poseZ,state_X,state_Y,state_Z,state_VzB,state_Bx,state_By,state_Bz,p1_x,p1_y,p2_x,p2_y,p3_x,p3_y,p4_x,p4_y,roll,pitch,yaw,alt,targetHeading,highLevelState,lowLevelState,gateNumber,filtered_x,filtered_y,x_OT,y_OT,vx_OT,vy_OT,filtered_vx,filtered_vygateArea
10,0,0,0,0,0,0,0,0,0,0,0,0,0,0,0,0,0,0,0,0,0,0,0,0,0,0,0,0,-0.261799,0.00779127,-1.5,3.94113e+12,0,0,3,0,0,0,0,0,0,0,0,1.9603e-19
20,0,0,0,0,0,0,0,0,0,0,0,0,0,0,0,0,0,0,0,0,0,0,0,0,0,0,0,0,-0.261799,0.00752953,-1.5,3.94113e+12,0,0,3,0,0,0,0,0,0,0,0,1.9603e-19
30,-3.21328e-12,1.41278e-38,-1.56064e-06,-3.27827e-12,1.41266e-38,-3.40903e-12,-1.06589e-13,0,0,0,0,0,0,0,0,0,0,0,0,0,0,0,0,0,0,0,0,0,-0.261799,-0.00149677,-1.5,3.94113e+12,0,0,3,0,0,0,0,0,0,0,0,1.9603e-19
40,-3.21328e-12,1.41278e-38,-1.56064e-06,-3.27827e-12,1.41266e-38,0,-1.0659e-13,0,0,0,0,0,0,0,0,0,0,0,0,0,0,0,0,0,0,0,0,0,-0.261799,-0.0014494,-1.5,3.94113e+12,0,0,3,0,0,0,0,0,0,0,0,1.9603e-19
50,-3.21328e-12,1.41278e-38,-1.56064e-06,-3.27827e-12,1.41266e-38,-3.40903e-12,-1.0659e-13,0,0,0,0,0,0,0,0,0,0,0,0,0,0,0,0,0,0,0,0,0,-0.261799,-0.00140356,-1.5,3.94113e+12,0,0,3,0,0,0,0,0,0,0,0,1.9603e-19
60,-3.21328e-12,1.41278e-38,-1.56064e-06,-3.27827e-12,1.41266e-38,0,-1.0659e-13,0,0,0,0,0,0,0,0,0,0,0,0,0,0,0,0,0,0,0,0,0,-0.261799,-0.0013619,-1.5,3.94113e+12,0,0,3,0,0,0,0,0,0,0,0,1.9603e-19
70,-3.21328e-12,1.41278e-38,-1.56064e-06,-3.27827e-12,1.41266e-38,-3.40903e-12,-1.0659e-13,0,0,0,0,0,0,0,0,0,0,0,0,0,0,0,0,0,0,0,0,0,-0.261799,-0.00131882,-1.5,3.94113e+12,0,0,3,0,0,0,0,0,0,0,0,1.9603e-19
80,-3.21328e-12,1.41278e-38,-1.56064e-06,-3.27827e-12,1.41266e-38,0,-1.06591e-13,0,0,0,0,0,0,0,0,0,0,0,0,0,0,0,0,0,0,0,0,0,-0.261799,-0.00127968,-1.5,3.94113e+12,0,0,3,0,0,0,0,0,0,0,0,1.9603e-19
90,-3.21328e-12,1.41278e-38,-1.56064e-06,-3.27827e-12,1.41266e-38,-3.40903e-12,-1.06591e-13,0,0,0,0,0,0,0,0,0,0,0,0,0,0,0,0,0,0,0,0,0,-0.261799,-0.00124169,-1.5,3.94113e+12,0,0,3,0,0,0,0,0,0,0,0,1.9603e-19
100,-3.21328e-12,1.41278e-38,-1.56064e-06,-3.27827e-12,1.41266e-38,0,-1.06591e-13,0,0,0,0,0,0,0,0,0,0,0,0,0,0,0,0,0,0,0,0,0,-0.261799,-0.00120484,-1.5,3.94113e+12,0,0,3,0,0,0,0,0,0,0,0,1.9603e-19
110,-3.21328e-12,1.41278e-38,-1.56064e-06,-3.27827e-12,1.41266e-38,-3.40903e-12,-1.06591e-13,0,0,0,0,0,0,0,0,0,0,0,0,0,0,0,0,0,0,0,0,0,-0.261799,-0.00116673,-1.5,3.94113e+12,0,0,3,0,0,0,0,0,0,0,0,1.9603e-19
120,-3.21328e-12,1.41278e-38,-1.56064e-06,-3.27827e-12,1.41266e-38,0,-1.06592e-13,0,0,0,0,0,0,0,0,0,0,0,0,0,0,0,0,0,0,0,0,0,-0.261799,-0.00105632,-1.5,3.94113e+12,0,0,3,0,0,0,0,0,0,0,0,1.9603e-19
130,-3.21328e-12,1.41278e-38,-1.56064e-06,-3.27827e-12,1.41266e-38,-3.40903e-12,-1.06592e-13,0,0,0,0,0,0,0,0,0,0,0,0,0,0,0,0,0,0,0,0,0,-0.261799,-0.00098971,-1.5,3.94113e+12,0,0,3,0,0,0,0,0,0,0,0,1.9603e-19
140,-3.21328e-12,1.41278e-38,-1.56064e-06,-3.27827e-12,1.41266e-38,0,-1.06592e-13,0,0,0,0,0,0,0,0,0,0,0,0,0,0,0,0,0,0,0,0,0,-0.261799,-0.000804827,-1.5,3.94113e+12,0,0,3,0,0,0,0,0,0,0,0,1.9603e-19
150,-3.21328e-12,1.41278e-38,-1.56064e-06,-3.27827e-12,1.41266e-38,-3.40903e-12,-1.06593e-13,0,0,0,0,0,0,0,0,0,0,0,0,0,0,0,0,0,0,0,0,0,-0.261799,-0.000725497,-1.5,3.94113e+12,0,0,3,0,0,0,0,0,0,0,0,1.9603e-19
160,-3.21328e-12,1.41278e-38,-1.56064e-06,-3.27827e-12,1.41266e-38,0,-1.06593e-13,0,0,0,0,0,0,0,0,0,0,0,0,0,0,0,0,0,0,0,0,0,-0.261799,-0.000658269,-1.5,3.94113e+12,0,0,3,0,0,0,0,0,0,0,0,1.9603e-19
170,-3.21328e-12,1.41278e-38,-1.56064e-06,-3.27827e-12,1.41266e-38,-3.40903e-12,-1.06593e-13,0,0,0,0,0,0,0,0,0,0,0,0,0,0,0,0,0,0,0,0,0,-0.261799,-0.00063614,-1.5,3.94113e+12,0,0,3,0,0,0,0,0,0,0,0,1.9603e-19
180,-3.21328e-12,1.41278e-38,-1.56064e-06,-3.27827e-12,1.41266e-38,0,-1.06593e-13,0,0,0,0,0,0,0,0,0,0,0,0,0,0,0,0,0,0,0,0,0,-0.261799,-0.000614754,-1.5,3.94113e+12,0,0,3,0,0,0,0,0,0,0,0,1.9603e-19
190,-3.21328e-12,1.41278e-38,-1.56064e-06,-3.27827e-12,1.41266e-38,-3.40903e-12,-1.06594e-13,0,0,0,0,0,0,0,0,0,0,0,0,0,0,0,0,0,0,0,0,0,-0.261799,-0.000582026,-1.5,3.94113e+12,0,0,3,0,0,0,0,0,0,0,0,1.9603e-19
200,-3.21328e-12,1.41278e-38,-1.56064e-06,-3.27827e-12,1.41266e-38,0,-1.06594e-13,0,0,0,0,0,0,0,0,0,0,0,0,0,0,0,0,0,0,0,0,0,-0.261799,-0.000544131,-1.5,3.94113e+12,0,0,3,0,0,0,0,0,0,0,0,1.9603e-19
210,-3.21328e-12,1.41278e-38,-1.56064e-06,-3.27827e-12,1.41266e-38,-3.40903e-12,-1.06594e-13,0,0,0,0,0,0,0,0,0,0,0,0,0,0,0,0,0,0,0,0,0,-0.261799,-0.000525839,-1.5,3.94113e+12,0,0,3,0,0,0,0,0,0,0,0,1.9603e-19
220,-3.21328e-12,1.41278e-38,-1.56064e-06,-3.27827e-12,1.41266e-38,0,-1.06594e-13,0,0,0,0,0,0,0,0,0,0,0,0,0,0,0,0,0,0,0,0,0,-0.261799,-0.000512301,-1.5,3.94113e+12,0,0,3,0,0,0,0,0,0,0,0,1.9603e-19
230,-3.21328e-12,1.41278e-38,-1.56064e-06,-3.27827e-12,1.41266e-38,-3.40903e-12,-1.06595e-13,0,0,0,0,0,0,0,0,0,0,0,0,0,0,0,0,0,0,0,0,0,-0.261799,-0.00048704,-1.5,3.94113e+12,0,0,3,0,0,0,0,0,0,0,0,1.9603e-19
240,-3.21328e-12,1.41278e-38,-1.56064e-06,-3.27827e-12,1.41266e-38,0,-1.06595e-13,0,0,0,0,0,0,0,0,0,0,0,0,0,0,0,0,0,0,0,0,0,-0.261799,-0.000466833,-1.5,3.94113e+12,0,0,3,0,0,0,0,0,0,0,0,1.9603e-19
250,-3.21328e-12,1.41278e-38,-1.56064e-06,-3.27827e-12,1.41266e-38,-3.40903e-12,-1.06595e-13,0,0,0,0,0,0,0,0,0,0,0,0,0,0,0,0,0,0,0,0,0,-0.261799,-0.000452067,-1.5,3.94113e+12,0,0,3,0,0,0,0,0,0,0,0,1.9603e-19
260,-3.21328e-12,1.41278e-38,-1.56064e-06,-3.27827e-12,1.41266e-38,0,-1.06596e-13,0,0,0,0,0,0,0,0,0,0,0,0,0,0,0,0,0,0,0,0,0,-0.261799,-0.000437759,-1.5,3.94113e+12,0,0,3,0,0,0,0,0,0,0,0,1.9603e-19
270,-3.21328e-12,1.41278e-38,-1.56064e-06,-3.27827e-12,1.41266e-38,-3.40903e-12,-1.06596e-13,0,0,0,0,0,0,0,0,0,0,0,0,0,0,0,0,0,0,0,0,0,-0.261799,-0.000423904,-1.5,3.94113e+12,0,0,3,0,0,0,0,0,0,0,0,1.9603e-19
280,-3.21328e-12,1.41278e-38,-1.56064e-06,-3.27827e-12,1.41266e-38,0,-1.06596e-13,0,0,0,0,0,0,0,0,0,0,0,0,0,0,0,0,0,0,0,0,0,-0.261799,-0.000410496,-1.5,3.94113e+12,0,0,3,0,0,0,0,0,0,0,0,1.9603e-19
290,-3.21328e-12,1.41278e-38,-1.56064e-06,-3.27827e-12,1.41266e-38,-3.40903e-12,-1.06596e-13,0,0,0,0,0,0,0,0,0,0,0,0,0,0,0,0,0,0,0,0,0,-0.261799,-0.000398312,-1.5,3.94113e+12,0,0,3,0,0,0,0,0,0,0,0,1.9603e-19
300,-3.21328e-12,1.41278e-38,-1.56064e-06,-3.27827e-12,1.41266e-38,0,-1.06597e-13,0,0,0,0,0,0,0,0,0,0,0,0,0,0,0,0,0,0,0,0,0,-0.261799,-0.000386489,-1.5,3.94113e+12,0,0,3,0,0,0,0,0,0,0,0,1.9603e-19
310,-3.21328e-12,1.41278e-38,-1.56064e-06,-3.27827e-12,1.41266e-38,-3.40903e-12,-1.06597e-13,0,0,0,0,0,0,0,0,0,0,0,0,0,0,0,0,0,0,0,0,0,-0.261799,-0.000374265,-1.5,3.94113e+12,0,0,3,0,0,0,0,0,0,0,0,1.9603e-19
320,-3.21328e-12,1.41278e-38,-1.56064e-06,-3.27827e-12,1.41266e-38,0,-1.06597e-13,0,0,0,0,0,0,0,0,0,0,0,0,0,0,0,0,0,0,0,0,0,-0.261799,-0.000360221,-1.5,3.94113e+12,0,0,3,0,0,0,0,0,0,0,0,1.9603e-19
330,-3.21328e-12,1.41278e-38,-1.56064e-06,-3.27827e-12,1.41266e-38,-3.40903e-12,-1.06597e-13,0,0,0,0,0,0,0,0,0,0,0,0,0,0,0,0,0,0,0,0,0,-0.261799,-0.000348827,-1.5,3.94113e+12,0,0,3,0,0,0,0,0,0,0,0,1.9603e-19
340,-3.21328e-12,1.41278e-38,-1.56064e-06,-3.27827e-12,1.41266e-38,0,-1.06598e-13,0,0,0,0,0,0,0,0,0,0,0,0,0,0,0,0,0,0,0,0,0,-0.261799,-0.000338474,-1.5,3.94113e+12,0,0,3,0,0,0,0,0,0,0,0,1.9603e-19
350,-3.21328e-12,1.41278e-38,-1.56064e-06,-3.27827e-12,1.41266e-38,-3.40903e-12,-1.06598e-13,0,0,0,0,0,0,0,0,0,0,0,0,0,0,0,0,0,0,0,0,0,-0.261799,-0.000328427,-1.5,3.94113e+12,0,0,3,0,0,0,0,0,0,0,0,1.9603e-19
360,-3.21328e-12,1.41278e-38,-1.56064e-06,-3.27827e-12,1.41266e-38,0,-1.06598e-13,0,0,0,0,0,0,0,0,0,0,0,0,0,0,0,0,0,0,0,0,0,-0.261799,-0.000318679,-1.5,3.94113e+12,0,0,3,0,0,0,0,0,0,0,0,1.9603e-19
370,-3.21328e-12,1.41278e-38,-1.56064e-06,-3.27827e-12,1.41266e-38,-3.40903e-12,-1.06599e-13,0,0,0,0,0,0,0,0,0,0,0,0,0,0,0,0,0,0,0,0,0,-0.261799,-0.000308599,-1.5,3.94113e+12,0,0,3,0,0,0,0,0,0,0,0,1.9603e-19
380,-3.21328e-12,1.41278e-38,-1.56064e-06,-3.27827e-12,1.41266e-38,0,-1.06599e-13,0,0,0,0,0,0,0,0,0,0,0,0,0,0,0,0,0,0,0,0,0,-0.261799,-0.000298225,-1.5,3.94113e+12,0,0,3,0,0,0,0,0,0,0,0,1.9603e-19
390,-3.21328e-12,1.41278e-38,-1.56064e-06,-3.27827e-12,1.41266e-38,-3.40903e-12,-1.06599e-13,0,0,0,0,0,0,0,0,0,0,0,0,0,0,0,0,0,0,0,0,0,-0.261799,-0.000288786,-1.5,3.94113e+12,0,0,3,0,0,0,0,0,0,0,0,1.9603e-19
400,-3.21328e-12,1.41278e-38,-1.56064e-06,-3.27827e-12,1.41266e-38,0,-1.06599e-13,0,0,0,0,0,0,0,0,0,0,0,0,0,0,0,0,0,0,0,0,0,-0.261799,-0.000279652,-1.5,3.94113e+12,0,0,3,0,0,0,0,0,0,0,0,1.9603e-19
410,-3.21328e-12,1.41278e-38,-1.56064e-06,-3.27827e-12,1.41266e-38,-3.40903e-12,-1.066e-13,0,0,0,0,0,0,0,0,0,0,0,0,0,0,0,0,0,0,0,0,0,-0.261799,-0.0002697,-1.5,3.94113e+12,0,0,3,0,0,0,0,0,0,0,0,1.9603e-19
420,-3.21328e-12,1.41278e-38,-1.56064e-06,-3.27827e-12,1.41266e-38,0,-1.066e-13,0,0,0,0,0,0,0,0,0,0,0,0,0,0,0,0,0,0,0,0,0,-0.261799,-0.000262226,-1.5,3.94113e+12,0,0,3,0,0,0,0,0,0,0,0,1.9603e-19
430,-3.21328e-12,1.41278e-38,-1.56064e-06,-3.27827e-12,1.41266e-38,-3.40903e-12,-1.066e-13,0,0,0,0,0,0,0,0,0,0,0,0,0,0,0,0,0,0,0,0,0,-0.261799,-0.000254446,-1.5,3.94113e+12,0,0,3,0,0,0,0,0,0,0,0,1.9603e-19
440,-3.21328e-12,1.41278e-38,-1.56064e-06,-3.27827e-12,1.41266e-38,0,-1.066e-13,0,0,0,0,0,0,0,0,0,0,0,0,0,0,0,0,0,0,0,0,0,-0.261799,-0.000246398,-1.5,3.94113e+12,0,0,3,0,0,0,0,0,0,0,0,1.9603e-19
450,-3.21328e-12,1.41278e-38,-1.56064e-06,-3.27827e-12,1.41266e-38,-3.40903e-12,-1.06601e-13,0,0,0,0,0,0,0,0,0,0,0,0,0,0,0,0,0,0,0,0,0,-0.261799,-0.000238121,-1.5,3.94113e+12,0,0,3,0,0,0,0,0,0,0,0,1.9603e-19
460,-3.21328e-12,1.41278e-38,-1.56064e-06,-3.27827e-12,1.41266e-38,0,-1.06601e-13,0,0,0,0,0,0,0,0,0,0,0,0,0,0,0,0,0,0,0,0,0,-0.261799,-0.000230589,-1.5,3.94113e+12,0,0,3,0,0,0,0,0,0,0,0,1.9603e-19
470,-3.21328e-12,1.41278e-38,-1.56064e-06,-3.27827e-12,1.41266e-38,-3.40903e-12,-1.06601e-13,0,0,0,0,0,0,0,0,0,0,0,0,0,0,0,0,0,0,0,0,0,-0.261799,-0.000223745,-1.5,3.94113e+12,0,0,3,0,0,0,0,0,0,0,0,1.9603e-19
480,-3.21328e-12,1.41278e-38,-1.56064e-06,-3.27827e-12,1.41266e-38,0,-1.06602e-13,0,0,0,0,0,0,0,0,0,0,0,0,0,0,0,0,0,0,0,0,0,-0.261799,-0.000216668,-1.5,3.94113e+12,0,0,3,0,0,0,0,0,0,0,0,1.9603e-19
490,-3.21328e-12,1.41278e-38,-1.56064e-06,-3.27827e-12,1.41266e-38,-3.40903e-12,-1.06602e-13,0,0,0,0,0,0,0,0,0,0,0,0,0,0,0,0,0,0,0,0,0,-0.261799,-0.00021024,-1.5,3.94113e+12,0,0,3,0,0,0,0,0,0,0,0,1.9603e-19
500,-3.21328e-12,1.41278e-38,-1.56064e-06,-3.27827e-12,1.41266e-38,0,-1.06602e-13,0,0,0,0,0,0,0,0,0,0,0,0,0,0,0,0,0,0,0,0,0,-0.261799,-0.000204,-1.5,3.94113e+12,0,0,3,0,0,0,0,0,0,0,0,1.9603e-19
510,-3.21328e-12,1.41278e-38,-1.56064e-06,-3.27827e-12,1.41266e-38,-3.40903e-12,-1.06602e-13,0,0,0,0,0,0,0,0,0,0,0,0,0,0,0,0,0,0,0,0,0,-0.261799,-0.000196345,-1.5,3.94113e+12,0,0,3,0,0,0,0,0,0,0,0,1.9603e-19
520,-3.21328e-12,1.41278e-38,-1.56064e-06,-3.27827e-12,1.41266e-38,0,-1.06603e-13,0,0,0,0,0,0,0,0,0,0,0,0,0,0,0,0,0,0,0,0,0,-0.261799,-0.000190517,-1.5,3.94113e+12,0,0,3,0,0,0,0,0,0,0,0,1.9603e-19
530,-3.21328e-12,1.41278e-38,-1.56064e-06,-3.27827e-12,1.41266e-38,-3.40903e-12,-1.06603e-13,0,0,0,0,0,0,0,0,0,0,0,0,0,0,0,0,0,0,0,0,0,-0.261799,-0.000184488,-1.5,3.94113e+12,0,0,3,0,0,0,0,0,0,0,0,1.9603e-19
540,-3.21328e-12,1.41278e-38,-1.56064e-06,-3.27827e-12,1.41266e-38,0,-1.06603e-13,0,0,0,0,0,0,0,0,0,0,0,0,0,0,0,0,0,0,0,0,0,-0.261799,-0.000179012,-1.5,3.94113e+12,0,0,3,0,0,0,0,0,0,0,0,1.9603e-19
550,-3.21328e-12,1.41278e-38,-1.56064e-06,-3.27827e-12,1.41266e-38,-3.40903e-12,-1.06603e-13,0,0,0,0,0,0,0,0,0,0,0,0,0,0,0,0,0,0,0,0,0,-0.261799,-0.000173698,-1.5,3.94113e+12,0,0,3,0,0,0,0,0,0,0,0,1.9603e-19
560,-3.21328e-12,1.41278e-38,-1.56064e-06,-3.27827e-12,1.41266e-38,0,-1.06604e-13,0,0,0,0,0,0,0,0,0,0,0,0,0,0,0,0,0,0,0,0,0,-0.261799,-0.000168204,-1.5,3.94113e+12,0,0,3,0,0,0,0,0,0,0,0,1.9603e-19
570,-3.21328e-12,1.41278e-38,-1.56064e-06,-3.27827e-12,1.41266e-38,-3.40903e-12,-1.06604e-13,0,0,0,0,0,0,0,0,0,0,0,0,0,0,0,0,0,0,0,0,0,-0.261799,-0.000161562,-1.5,3.94113e+12,0,0,3,0,0,0,0,0,0,0,0,1.9603e-19
580,-3.21328e-12,1.41278e-38,-1.56064e-06,-3.27827e-12,1.41266e-38,0,-1.06604e-13,0,0,0,0,0,0,0,0,0,0,0,0,0,0,0,0,0,0,0,0,0,-0.261799,-0.000156452,-1.5,3.94113e+12,0,0,3,0,0,0,0,0,0,0,0,1.9603e-19
590,-3.21328e-12,1.41278e-38,-1.56064e-06,-3.27827e-12,1.41266e-38,-3.40903e-12,-1.06605e-13,0,0,0,0,0,0,0,0,0,0,0,0,0,0,0,0,0,0,0,0,0,-0.261799,-0.000151504,-1.5,3.94113e+12,0,0,3,0,0,0,0,0,0,0,0,1.9603e-19
600,-3.21328e-12,1.41278e-38,-1.56064e-06,-3.27827e-12,1.41266e-38,0,-1.06605e-13,0,0,-6.52012,-0.24215,0.0267951,0,0,0,0,0,-0.00804663,-0.24215,146,11,146,11,206,11,146,69,0,-0.261799,-0.00013985,-1.5,3.94113e+12,0,0,3,0,0,0,0,0,0,0,0,3480
610,-3.21328e-12,1.41278e-38,-1.56064e-06,-3.27827e-12,1.41266e-38,-3.40903e-12,-1.06605e-13,0,0,-6.52012,-0.24215,0.0267951,0,0,0,0,0,-0.00804663,-0.24215,146,11,146,11,206,11,146,69,0,-0.261799,-0.000135152,-1.5,3.94113e+12,0,0,3,0,0,0,0,0,0,0,0,3480
620,-3.21328e-12,1.41278e-38,-1.56064e-06,-3.27827e-12,1.41266e-38,0,-1.06605e-13,0,0,-6.52012,-0.24215,0.0267951,0,0,0,0,0,-0.00804663,-0.24215,146,11,146,11,206,11,146,69,0,-0.261799,-0.000131408,-1.5,3.94113e+12,0,0,3,0,0,0,0,0,0,0,0,3480
630,-3.21328e-12,1.41278e-38,-1.56064e-06,-3.27827e-12,1.41266e-38,-3.40903e-12,-1.06606e-13,0,0,-6.52012,-0.24215,0.0267951,0,0,0,0,0,-0.00804663,-0.24215,146,11,146,11,206,11,146,69,0,-0.261799,-0.000127768,-1.5,3.94113e+12,0,0,3,0,0,0,0,0,0,0,0,3480
640,-3.21328e-12,1.41278e-38,-1.56064e-06,-3.27827e-12,1.41266e-38,0,-1.06606e-13,0,0,-6.52012,-0.24215,0.0267951,0,0,0,0,0,-0.00804663,-0.24215,146,11,146,11,206,11,146,69,0,-0.261799,-0.000123976,-1.5,3.94113e+12,0,0,3,0,0,0,0,0,0,0,0,3480
650,-3.21328e-12,1.41278e-38,-1.56064e-06,-3.27827e-12,1.41266e-38,-3.40903e-12,-1.06606e-13,0,0,-6.52012,-0.24215,0.0267951,0,0,0,0,0,-0.00804663,-0.24215,146,11,146,11,206,11,146,69,0,-0.261799,-0.000120296,-1.5,3.94113e+12,0,0,3,0,0,0,0,0,0,0,0,3480
660,-3.21328e-12,1.41278e-38,-1.56064e-06,-3.27827e-12,1.41266e-38,0,-1.06606e-13,0,0,-6.52012,-0.24215,0.0267951,0,0,0,0,0,-0.00804663,-0.24215,146,11,146,11,206,11,146,69,0,-0.261799,-0.000116727,-1.5,3.94113e+12,0,0,3,0,0,0,0,0,0,0,0,3480
670,-3.21328e-12,1.41278e-38,-1.56064e-06,-3.27827e-12,1.41266e-38,-3.40903e-12,-1.06607e-13,0,0,-6.52012,-0.24215,0.0267951,0,0,0,0,0,-0.00804663,-0.24215,146,11,146,11,206,11,146,69,0,-0.261799,-0.000113264,-1.5,3.94113e+12,0,0,3,0,0,0,0,0,0,0,0,3480
680,-3.21328e-12,1.41278e-38,-1.56064e-06,-3.27827e-12,1.41266e-38,0,-1.06607e-13,0,0,-6.52012,-0.24215,0.0267951,0,0,0,0,0,-0.00804663,-0.24215,146,11,146,11,206,11,146,69,0,-0.261799,-0.000109682,-1.5,3.94113e+12,0,0,3,0,0,0,0,0,0,0,0,3480
690,-3.21328e-12,1.41278e-38,-1.56064e-06,-3.27827e-12,1.41266e-38,-3.40903e-12,-1.06607e-13,0,0,-6.52012,-0.24215,0.0267951,0,0,0,0,0,-0.00804663,-0.24215,146,11,146,11,206,11,146,69,0,-0.261799,-0.000105997,-1.5,3.94113e+12,0,0,3,0,0,0,0,0,0,0,0,3480
700,-3.21328e-12,1.41278e-38,-1.56064e-06,-3.27827e-12,1.41266e-38,0,-1.06607e-13,0,0,-6.52012,-0.24215,0.0267951,0,0,0,0,0,-0.00804663,-0.24215,146,11,146,11,206,11,146,69,0,-0.261799,-0.000102851,-1.5,3.94113e+12,0,0,3,0,0,0,0,0,0,0,0,3480
710,-3.21328e-12,1.41278e-38,-1.56064e-06,-3.27827e-12,1.41266e-38,-3.40903e-12,-1.06608e-13,0,0,-6.52012,-0.24215,0.0267951,0,0,0,0,0,-0.00804663,-0.24215,146,11,146,11,206,11,146,69,0,-0.261799,-9.95957e-05,-1.5,3.94113e+12,0,0,3,0,0,0,0,0,0,0,0,3480
720,-3.21328e-12,1.41278e-38,-1.56064e-06,-3.27827e-12,1.41266e-38,0,-1.06608e-13,0,0,-6.52012,-0.24215,0.0267951,0,0,0,0,0,-0.00804663,-0.24215,146,11,146,11,206,11,146,69,0,-0.261799,-9.66395e-05,-1.5,3.94113e+12,0,0,3,0,0,0,0,0,0,0,0,3480
730,-3.21328e-12,1.41278e-38,-1.56064e-06,-3.27827e-12,1.41266e-38,-3.40903e-12,-1.06608e-13,0,0,-6.52012,-0.24215,0.0267951,0,0,0,0,0,-0.00804663,-0.24215,146,11,146,11,206,11,146,69,0,-0.261799,-9.37711e-05,-1.5,3.94113e+12,0,0,3,0,0,0,0,0,0,0,0,3480
740,-3.21328e-12,1.41278e-38,-1.56064e-06,-3.27827e-12,1.41266e-38,0,-1.06609e-13,0,0,-6.52012,-0.24215,0.0267951,0,0,0,0,0,-0.00804663,-0.24215,146,11,146,11,206,11,146,69,0,-0.261799,-9.08051e-05,-1.5,3.94113e+12,0,0,3,0,0,0,0,0,0,0,0,3480
750,-3.21328e-12,1.41278e-38,-1.56064e-06,-3.27827e-12,1.41266e-38,-3.40903e-12,-1.06609e-13,0,0,-6.52012,-0.24215,0.0267951,0,0,0,0,0,-0.00804663,-0.24215,146,11,146,11,206,11,146,69,0,-0.261799,-8.79312e-05,-1.5,3.94113e+12,0,0,3,0,0,0,0,0,0,0,0,3480
760,-3.21328e-12,1.41278e-38,-1.56064e-06,-3.27827e-12,1.41266e-38,0,-1.06609e-13,0,0,-6.52012,-0.24215,0.0267951,0,0,0,0,0,-0.00804663,-0.24215,146,11,146,11,206,11,146,69,0,-0.261799,-8.51482e-05,-1.5,3.94113e+12,0,0,3,0,0,0,0,0,0,0,0,3480
770,-3.21328e-12,1.41278e-38,-1.56064e-06,-3.27827e-12,1.41266e-38,-3.40903e-12,-1.06609e-13,0,0,-6.52012,-0.24215,0.0267951,0,0,0,0,0,-0.00804663,-0.24215,146,11,146,11,206,11,146,69,0,-0.261799,-8.24549e-05,-1.5,3.94113e+12,0,0,3,0,0,0,0,0,0,0,0,3480
780,-3.21328e-12,1.41278e-38,-1.56064e-06,-3.27827e-12,1.41266e-38,0,-1.0661e-13,0,0,-6.52012,-0.24215,0.0267951,0,0,0,0,0,-0.00804663,-0.24215,146,11,146,11,206,11,146,69,0,-0.261799,-7.85512e-05,-1.5,3.94113e+12,0,0,3,0,0,0,0,0,0,0,0,3480
790,-3.21328e-12,1.41278e-38,-1.56064e-06,-3.27827e-12,1.41266e-38,-3.40903e-12,-1.0661e-13,0,0,-6.52012,-0.24215,0.0267951,0,0,0,0,0,-0.00804663,-0.24215,146,11,146,11,206,11,146,69,0,-0.261799,-7.65295e-05,-1.5,3.94113e+12,0,0,3,0,0,0,0,0,0,0,0,3480
800,-3.21328e-12,1.41278e-38,-1.56064e-06,-3.27827e-12,1.41266e-38,0,-1.0661e-13,0,0,-6.52012,-0.24215,0.0267951,0,0,0,0,0,-0.00804663,-0.24215,146,11,146,11,206,11,146,69,0,-0.261799,-7.45592e-05,-1.5,3.94113e+12,0,0,3,0,0,0,0,0,0,0,0,3480
810,-3.21328e-12,1.41278e-38,-1.56064e-06,-3.27827e-12,1.41266e-38,-3.40903e-12,-1.0661e-13,0,0,-6.52012,-0.24215,0.0267951,0,0,0,0,0,-0.00804663,-0.24215,146,11,146,11,206,11,146,69,0,-0.261799,-7.1908e-05,-1.5,3.94113e+12,0,0,3,0,0,0,0,0,0,0,0,3480
820,-3.21328e-12,1.41278e-38,-1.56064e-06,-3.27827e-12,1.41266e-38,0,-1.06611e-13,0,0,-6.52012,-0.24215,0.0267951,0,0,0,0,0,-0.00804663,-0.24215,146,11,146,11,206,11,146,69,0,-0.261799,-6.97737e-05,-1.5,3.94113e+12,0,0,3,0,0,0,0,0,0,0,0,3480
830,-3.21328e-12,1.41278e-38,-1.56064e-06,-3.27827e-12,1.41266e-38,-3.40903e-12,-1.06611e-13,0,0,-7.54902,-0.226471,0.366667,0,0,0,0,0,-0.419608,-0.226471,148,11,148,11,199,11,148,62,0,-0.261799,-6.75653e-05,-1.5,3.94113e+12,0,0,3,0,0,0,0,0,0,0,0,2601
840,-3.21328e-12,1.41278e-38,-1.56064e-06,-3.27827e-12,1.41266e-38,0,-1.06611e-13,0,0,-7.54902,-0.226471,0.366667,0,0,0,0,0,-0.419608,-0.226471,148,11,148,11,199,11,148,62,0,-0.261799,-6.55599e-05,-1.5,3.94113e+12,0,0,3,0,0,0,0,0,0,0,0,2601
850,-3.21328e-12,1.41278e-38,-1.56064e-06,-3.27827e-12,1.41266e-38,-3.40903e-12,-1.06612e-13,0,0,-7.54902,-0.226471,0.366667,0,0,0,0,0,-0.419608,-0.226471,148,11,148,11,199,11,148,62,0,-0.261799,-6.3614e-05,-1.5,3.94113e+12,0,0,3,0,0,0,0,0,0,0,0,2601
860,-3.21328e-12,1.41278e-38,-1.56064e-06,-3.27827e-12,1.41266e-38,0,-1.06612e-13,0,0,-7.54902,-0.226471,0.366667,0,0,0,0,0,-0.419608,-0.226471,148,11,148,11,199,11,148,62,0,-0.261799,-6.16018e-05,-1.5,3.94113e+12,0,0,3,0,0,0,0,0,0,0,0,2601
870,-3.21328e-12,1.41278e-38,-1.56064e-06,-3.27827e-12,1.41266e-38,-3.40903e-12,-1.06612e-13,0,0,-7.54902,-0.226471,0.366667,0,0,0,0,0,-0.419608,-0.226471,148,11,148,11,199,11,148,62,0,-0.261799,-5.95324e-05,-1.5,3.94113e+12,0,0,3,0,0,0,0,0,0,0,0,2601
880,-3.21328e-12,1.41278e-38,-1.56064e-06,-3.27827e-12,1.41266e-38,0,-1.06612e-13,0,0,-7.54902,-0.226471,0.366667,0,0,0,0,0,-0.419608,-0.226471,148,11,148,11,199,11,148,62,0,-0.261799,-5.76482e-05,-1.5,3.94113e+12,0,0,3,0,0,0,0,0,0,0,0,2601
890,-3.21328e-12,1.41278e-38,-1.56064e-06,-3.27827e-12,1.41266e-38,-3.40903e-12,-1.06613e-13,0,0,-7.54902,-0.226471,0.366667,0,0,0,0,0,-0.419608,-0.226471,148,11,148,11,199,11,148,62,0,-0.261799,-5.58248e-05,-1.5,3.94113e+12,0,0,3,0,0,0,0,0,0,0,0,2601
900,-3.21328e-12,1.41278e-38,-1.56064e-06,-3.27827e-12,1.41266e-38,0,-1.06613e-13,0,0,-7.54902,-0.226471,0.366667,0,0,0,0,0,-0.419608,-0.226471,148,11,148,11,199,11,148,62,0,-0.261799,-5.41678e-05,-1.5,3.94113e+12,0,0,3,0,0,0,0,0,0,0,0,2601
910,-3.21328e-12,1.41278e-38,-1.56064e-06,-3.27827e-12,1.41266e-38,-3.40903e-12,-1.06613e-13,0,0,-7.54902,-0.226471,0.366667,0,0,0,0,0,-0.419608,-0.226471,148,11,148,11,199,11,148,62,0,-0.261799,-5.256e-05,-1.5,3.94113e+12,0,0,3,0,0,0,0,0,0,0,0,2601
920,-3.21328e-12,1.41278e-38,-1.56064e-06,-3.27827e-12,1.41266e-38,0,-1.06613e-13,0,0,-7.54902,-0.226471,0.366667,0,0,0,0,0,-0.419608,-0.226471,148,11,148,11,199,11,148,62,0,-0.261799,-5.08976e-05,-1.5,3.94113e+12,0,0,3,0,0,0,0,0,0,0,0,2601
930,-3.21328e-12,1.41278e-38,-1.56064e-06,-3.27827e-12,1.41266e-38,-3.40903e-12,-1.06614e-13,0,0,-7.54902,-0.226471,0.366667,0,0,0,0,0,-0.419608,-0.226471,148,11,148,11,199,11,148,62,0,-0.261799,-4.91877e-05,-1.5,3.94113e+12,0,0,3,0,0,0,0,0,0,0,0,2601
940,-3.21328e-12,1.41278e-38,-1.56064e-06,-3.27827e-12,1.41266e-38,0,-1.06614e-13,0,0,-7.54902,-0.226471,0.366667,0,0,0,0,0,-0.419608,-0.226471,148,11,148,11,199,11,148,62,0,-0.261799,-4.76309e-05,-1.5,3.94113e+12,0,0,3,0,0,0,0,0,0,0,0,2601
950,-3.21328e-12,1.41278e-38,-1.56064e-06,-3.27827e-12,1.41266e-38,-3.40903e-12,-1.06614e-13,0,0,-7.54902,-0.226471,0.366667,0,0,0,0,0,-0.419608,-0.226471,148,11,148,11,199,11,148,62,0,-0.261799,-4.61234e-05,-1.5,3.94113e+12,0,0,3,0,0,0,0,0,0,0,0,2601
960,-3.21328e-12,1.41278e-38,-1.56064e-06,-3.27827e-12,1.41266e-38,0,-1.06615e-13,0,0,-7.54902,-0.226471,0.366667,0,0,0,0,0,-0.419608,-0.226471,148,11,148,11,199,11,148,62,0,-0.261799,-4.48457e-05,-1.5,3.94113e+12,0,0,3,0,0,0,0,0,0,0,0,2601
970,-3.21328e-12,1.41278e-38,-1.56064e-06,-3.27827e-12,1.41266e-38,-3.40903e-12,-1.06615e-13,0,0,-7.54902,-0.226471,0.366667,0,0,0,0,0,-0.419608,-0.226471,148,11,148,11,199,11,148,62,0,-0.261799,-4.36915e-05,-1.5,3.94113e+12,0,0,3,0,0,0,0,0,0,0,0,2601
980,-3.21328e-12,1.41278e-38,-1.56064e-06,-3.27827e-12,1.41266e-38,0,-1.06615e-13,0,0,-7.54902,-0.226471,0.366667,0,0,0,0,0,-0.419608,-0.226471,148,11,148,11,199,11,148,62,0,-0.261799,-4.23954e-05,-1.5,3.94113e+12,0,0,3,0,0,0,0,0,0,0,0,2601
990,-3.21328e-12,1.41278e-38,-1.56064e-06,-3.27827e-12,1.41266e-38,-3.40903e-12,-1.06615e-13,0,0,-7.54902,-0.226471,0.366667,0,0,0,0,0,-0.419608,-0.226471,148,11,148,11,199,11,148,62,0,-0.261799,-4.11377e-05,-1.5,3.94113e+12,0,0,3,0,0,0,0,0,0,0,0,2601
1000,-3.21328e-12,1.41278e-38,-1.56064e-06,-3.27827e-12,1.41266e-38,0,-1.06616e-13,0,0,-7.54902,-0.226471,0.366667,0,0,0,0,0,-0.419608,-0.226471,148,11,148,11,199,11,148,62,0,-0.261799,-3.95941e-05,-1.5,3.94113e+12,0,0,3,0,0,0,0,0,0,0,0,2601
1010,-3.21328e-12,1.41278e-38,-1.56064e-06,-3.27827e-12,1.41266e-38,-3.40903e-12,-1.06616e-13,0,0,-7.54902,-0.226471,0.366667,0,0,0,0,0,-0.419608,-0.226471,148,11,148,11,199,11,148,62,0,-0.261799,-3.83417e-05,-1.5,3.94113e+12,0,0,3,0,0,0,0,0,0,0,0,2601
1020,-3.21328e-12,1.41278e-38,-1.56064e-06,-3.27827e-12,1.41266e-38,0,-1.06616e-13,0,0,-7.54902,-0.226471,0.366667,0,0,0,0,0,-0.419608,-0.226471,148,11,148,11,199,11,148,62,0,-0.261799,-3.7129e-05,-1.5,3.94113e+12,0,0,3,0,0,0,0,0,0,0,0,2601
1030,-3.21328e-12,1.41278e-38,-1.56064e-06,-3.27827e-12,1.41266e-38,-3.40903e-12,-1.06616e-13,0,0,-7.54902,-0.226471,0.366667,0,0,0,0,0,-0.419608,-0.226471,148,11,148,11,199,11,148,62,0,-0.261799,-3.60269e-05,-1.5,3.94113e+12,0,0,3,0,0,0,0,0,0,0,0,2601
1040,-3.21328e-12,1.41278e-38,-1.56064e-06,-3.27827e-12,1.41266e-38,0,-1.06617e-13,0,0,-7.54902,-0.226471,0.366667,0,0,0,0,0,-0.419608,-0.226471,148,11,148,11,199,11,148,62,0,-0.261799,-3.49576e-05,-1.5,3.94113e+12,0,0,3,0,0,0,0,0,0,0,0,2601
1050,-3.21328e-12,1.41278e-38,-1.56064e-06,-3.27827e-12,1.41266e-38,-3.40903e-12,-1.06617e-13,0,0,-7.54902,-0.226471,0.366667,0,0,0,0,0,-0.419608,-0.226471,148,11,148,11,199,11,148,62,0,-0.261799,-3.392e-05,-1.5,3.94113e+12,0,0,3,0,0,0,0,0,0,0,0,2601
1060,-3.21328e-12,1.41278e-38,-1.56064e-06,-3.27827e-12,1.41266e-38,0,-1.06617e-13,0,0,-7.54902,-0.226471,0.366667,0,0,0,0,0,-0.419608,-0.226471,148,11,148,11,199,11,148,62,0,-0.261799,-3.27138e-05,-1.5,3.94113e+12,0,0,3,0,0,0,0,0,0,0,0,2601
1070,-3.21328e-12,1.41278e-38,-1.56064e-06,-3.27827e-12,1.41266e-38,-3.40903e-12,-1.06618e-13,0,0,-7.54902,-0.226471,0.366667,0,0,0,0,0,-0.419608,-0.226471,148,11,148,11,199,11,148,62,0,-0.261799,-3.16791e-05,-1.5,3.94113e+12,0,0,3,0,0,0,0,0,0,0,0,2601
1080,-3.21328e-12,1.41278e-38,-1.56064e-06,-3.27827e-12,1.41266e-38,0,-1.06618e-13,0,0,-7.54902,-0.226471,0.366667,0,0,0,0,0,-0.419608,-0.226471,148,11,148,11,199,11,148,62,0,-0.261799,-3.06771e-05,-1.5,3.94113e+12,0,0,3,0,0,0,0,0,0,0,0,2601
1090,-3.21328e-12,1.41278e-38,-1.56064e-06,-3.27827e-12,1.41266e-38,-3.40903e-12,-1.06618e-13,0,0,-7.54902,-0.226471,0.366667,0,0,0,0,0,-0.419608,-0.226471,148,11,148,11,199,11,148,62,0,-0.261799,-2.97665e-05,-1.5,3.94113e+12,0,0,3,0,0,0,0,0,0,0,0,2601
1100,-3.21328e-12,1.41278e-38,-1.56064e-06,-3.27827e-12,1.41266e-38,0,-1.06618e-13,0,0,-7.54902,-0.226471,0.366667,0,0,0,0,0,-0.419608,-0.226471,148,11,148,11,199,11,148,62,0,-0.261799,-2.8883e-05,-1.5,3.94113e+12,0,0,3,0,0,0,0,0,0,0,0,2601
1110,-3.21328e-12,1.41278e-38,-1.56064e-06,-3.27827e-12,1.41266e-38,-3.40903e-12,-1.06619e-13,0,0,-7.54902,-0.226471,0.366667,0,0,0,0,0,-0.419608,-0.226471,148,11,148,11,199,11,148,62,0,-0.261799,-2.80257e-05,-1.5,3.94113e+12,0,0,3,0,0,0,0,0,0,0,0,2601
1120,-3.21328e-12,1.41278e-38,-1.56064e-06,-3.27827e-12,1.41266e-38,0,-1.06619e-13,0,0,-7.54902,-0.226471,0.366667,0,0,0,0,0,-0.419608,-0.226471,148,11,148,11,199,11,148,62,0,-0.261799,-2.71393e-05,-1.5,3.94113e+12,0,0,3,0,0,0,0,0,0,0,0,2601
1130,-3.21328e-12,1.41278e-38,-1.56064e-06,-3.27827e-12,1.41266e-38,-3.40903e-12,-1.06619e-13,0,0,-7.54902,-0.226471,0.366667,0,0,0,0,0,-0.419608,-0.226471,148,11,148,11,199,11,148,62,0,-0.261799,-2.63875e-05,-1.5,3.94113e+12,0,0,3,0,0,0,0,0,0,0,0,2601
1140,-3.21328e-12,1.41278e-38,-1.56064e-06,-3.27827e-12,1.41266e-38,0,-1.06619e-13,0,0,-7.54902,-0.226471,0.366667,0,0,0,0,0,-0.419608,-0.226471,148,11,148,11,199,11,148,62,0,-0.261799,-2.55528e-05,-1.5,3.94113e+12,0,0,3,0,0,0,0,0,0,0,0,2601
1150,-3.21328e-12,1.41278e-38,-1.56064e-06,-3.27827e-12,1.41266e-38,-3.40903e-12,-1.0662e-13,0,0,-7.54902,-0.226471,0.366667,0,0,0,0,0,-0.419608,-0.226471,148,11,148,11,199,11,148,62,0,-0.261799,-2.41925e-05,-1.5,3.94113e+12,0,0,3,0,0,0,0,0,0,0,0,2601
1160,-3.21328e-12,1.41278e-38,-1.56064e-06,-3.27827e-12,1.41266e-38,0,-1.0662e-13,0,0,-7.54902,-0.226471,0.366667,0,0,0,0,0,-0.419608,-0.226471,148,11,148,11,199,11,148,62,0,-0.261799,-2.33798e-05,-1.5,3.94113e+12,0,0,3,0,0,0,0,0,0,0,0,2601
1170,-3.21328e-12,1.41278e-38,-1.56064e-06,-3.27827e-12,1.41266e-38,-3.40903e-12,-1.0662e-13,0,0,-7.54902,-0.226471,0.366667,0,0,0,0,0,-0.419608,-0.226471,148,11,148,11,199,11,148,62,0,-0.261799,-2.26862e-05,-1.5,3.94113e+12,0,0,3,0,0,0,0,0,0,0,0,2601
1180,-3.21328e-12,1.41278e-38,-1.56064e-06,-3.27827e-12,1.41266e-38,0,-1.0662e-13,0,0,-7.54902,-0.226471,0.366667,0,0,0,0,0,-0.419608,-0.226471,148,11,148,11,199,11,148,62,0,-0.261799,-2.18795e-05,-1.5,3.94113e+12,0,0,3,0,0,0,0,0,0,0,0,2601
1190,-3.21328e-12,1.41278e-38,-1.56064e-06,-3.27827e-12,1.41266e-38,-3.40903e-12,-1.06621e-13,0,0,-7.54902,-0.226471,0.366667,0,0,0,0,0,-0.419608,-0.226471,148,11,148,11,199,11,148,62,0,-0.261799,-2.11874e-05,-1.5,3.94113e+12,0,0,3,0,0,0,0,0,0,0,0,2601
1200,-3.21328e-12,1.41278e-38,-1.56064e-06,-3.27827e-12,1.41266e-38,0,-1.06621e-13,0,0,-7.54902,-0.226471,0.366667,0,0,0,0,0,-0.419608,-0.226471,148,11,148,11,199,11,148,62,0,-0.261799,-2.05173e-05,-1.5,3.94113e+12,0,0,3,0,0,0,0,0,0,0,0,2601
1210,-3.21328e-12,1.41278e-38,-1.56064e-06,-3.27827e-12,1.41266e-38,-3.40903e-12,-1.06621e-13,0,0,-7.54902,-0.226471,0.366667,0,0,0,0,0,-0.419608,-0.226471,148,11,148,11,199,11,148,62,0,-0.261799,-1.81391e-05,-1.5,3.94113e+12,0,0,3,0,0,0,0,0,0,0,0,2601
1220,-3.21328e-12,1.41278e-38,-1.56064e-06,-3.27827e-12,1.41266e-38,0,-1.06622e-13,0,0,-7.54902,-0.226471,0.366667,0,0,0,0,0,-0.419608,-0.226471,148,11,148,11,199,11,148,62,0,-0.261799,-1.74936e-05,-1.5,3.94113e+12,0,0,3,0,0,0,0,0,0,0,0,2601
1230,-3.21328e-12,1.41278e-38,-1.56064e-06,-3.27827e-12,1.41266e-38,-3.40903e-12,-1.06622e-13,0,0,-7.54902,-0.226471,0.366667,0,0,0,0,0,-0.419608,-0.226471,148,11,148,11,199,11,148,62,0,-0.261799,-1.69399e-05,-1.5,3.94113e+12,0,0,3,0,0,0,0,0,0,0,0,2601
1240,-3.21328e-12,1.41278e-38,-1.56064e-06,-3.27827e-12,1.41266e-38,0,-1.06622e-13,0,0,-7.54902,-0.226471,0.366667,0,0,0,0,0,-0.419608,-0.226471,148,11,148,11,199,11,148,62,0,-0.261799,-1.61712e-05,-1.5,3.94113e+12,0,0,3,0,0,0,0,0,0,0,0,2601
1250,-3.21328e-12,1.41278e-38,-1.56064e-06,-3.27827e-12,1.41266e-38,-3.40903e-12,-1.06622e-13,0,0,-7.54902,-0.226471,0.366667,0,0,0,0,0,-0.419608,-0.226471,148,11,148,11,199,11,148,62,0,-0.261799,-1.56915e-05,-1.5,3.94113e+12,0,0,3,0,0,0,0,0,0,0,0,2601
1260,-3.21328e-12,1.41278e-38,-1.56064e-06,-3.27827e-12,1.41266e-38,0,-1.06623e-13,0,0,-7.54902,-0.226471,0.366667,0,0,0,0,0,-0.419608,-0.226471,148,11,148,11,199,11,148,62,0,-0.261799,-1.51952e-05,-1.5,3.94113e+12,0,0,3,0,0,0,0,0,0,0,0,2601
1270,-3.21328e-12,1.41278e-38,-1.56064e-06,-3.27827e-12,1.41266e-38,-3.40903e-12,-1.06623e-13,0,0,-7.54902,-0.226471,0.366667,0,0,0,0,0,-0.419608,-0.226471,148,11,148,11,199,11,148,62,0,-0.261799,-1.46254e-05,-1.5,3.94113e+12,0,0,3,0,0,0,0,0,0,0,0,2601
1280,-3.21328e-12,1.41278e-38,-1.56064e-06,-3.27827e-12,1.41266e-38,0,-1.06623e-13,0,0,-7.54902,-0.226471,0.366667,0,0,0,0,0,-0.419608,-0.226471,148,11,148,11,199,11,148,62,0,-0.261799,-1.4105e-05,-1.5,3.94113e+12,0,0,3,0,0,0,0,0,0,0,0,2601
1290,-3.21328e-12,1.41278e-38,-1.56064e-06,-3.27827e-12,1.41266e-38,-3.40903e-12,-1.06623e-13,0,0,-7.54902,-0.226471,0.366667,0,0,0,0,0,-0.419608,-0.226471,148,11,148,11,199,11,148,62,0,-0.261799,-1.37142e-05,-1.5,3.94113e+12,0,0,3,0,0,0,0,0,0,0,0,2601
1300,-3.21328e-12,1.41278e-38,-1.56064e-06,-3.27827e-12,1.41266e-38,0,-1.06624e-13,0,0,-7.54902,-0.226471,0.366667,0,0,0,0,0,-0.419608,-0.226471,148,11,148,11,199,11,148,62,0,-0.261799,-1.33342e-05,-1.5,3.94113e+12,0,0,3,0,0,0,0,0,0,0,0,2601
1310,-3.21328e-12,1.41278e-38,-1.56064e-06,-3.27827e-12,1.41266e-38,-3.40903e-12,-1.06624e-13,0,0,-7.54902,-0.226471,0.366667,0,0,0,0,0,-0.419608,-0.226471,148,11,148,11,199,11,148,62,0,-0.261799,-1.29384e-05,-1.5,3.94113e+12,0,0,3,0,0,0,0,0,0,0,0,2601
1320,-3.21328e-12,1.41278e-38,-1.56064e-06,-3.27827e-12,1.41266e-38,0,-1.06624e-13,0,0,-7.54902,-0.226471,0.366667,0,0,0,0,0,-0.419608,-0.226471,148,11,148,11,199,11,148,62,0,-0.261799,-1.24783e-05,-1.5,3.94113e+12,0,0,3,0,0,0,0,0,0,0,0,2601
1330,-3.21328e-12,1.41278e-38,-1.56064e-06,-3.27827e-12,1.41266e-38,-3.40903e-12,-1.06625e-13,0,0,-7.54902,-0.226471,0.366667,0,0,0,0,0,-0.419608,-0.226471,148,11,148,11,199,11,148,62,0,-0.261799,-1.20836e-05,-1.5,3.94113e+12,0,0,3,0,0,0,0,0,0,0,0,2601
1340,-3.21328e-12,1.41278e-38,-1.56064e-06,-3.27827e-12,1.41266e-38,0,-1.06625e-13,0,0,-7.54902,-0.226471,0.366667,0,0,0,0,0,-0.419608,-0.226471,148,11,148,11,199,11,148,62,0,-0.261799,-1.15823e-05,-1.5,3.94113e+12,0,0,3,0,0,0,0,0,0,0,0,2601
1350,-3.21328e-12,1.41278e-38,-1.56064e-06,-3.27827e-12,1.41266e-38,-3.40903e-12,-1.06625e-13,0,0,-7.54902,-0.226471,0.366667,0,0,0,0,0,-0.419608,-0.226471,148,11,148,11,199,11,148,62,0,-0.261799,-1.12157e-05,-1.5,3.94113e+12,0,0,3,0,0,0,0,0,0,0,0,2601
1360,-3.21328e-12,1.41278e-38,-1.56064e-06,-3.27827e-12,1.41266e-38,0,-1.06625e-13,0,0,-7.54902,-0.226471,0.366667,0,0,0,0,0,-0.419608,-0.226471,148,11,148,11,199,11,148,62,0,-0.261799,-1.08389e-05,-1.5,3.94113e+12,0,0,3,0,0,0,0,0,0,0,0,2601
1370,-3.21328e-12,1.41278e-38,-1.56064e-06,-3.27827e-12,1.41266e-38,-3.40903e-12,-1.06626e-13,0,0,-7.54902,-0.226471,0.366667,0,0,0,0,0,-0.419608,-0.226471,148,11,148,11,199,11,148,62,0,-0.261799,-1.05172e-05,-1.5,3.94113e+12,0,0,3,0,0,0,0,0,0,0,0,2601
1380,-3.21328e-12,1.41278e-38,-1.56064e-06,-3.27827e-12,1.41266e-38,0,-1.06626e-13,0,0,-7.54902,-0.226471,0.366667,0,0,0,0,0,-0.419608,-0.226471,148,11,148,11,199,11,148,62,0,-0.261799,-1.01636e-05,-1.5,3.94113e+12,0,0,3,0,0,0,0,0,0,0,0,2601
1390,-3.21328e-12,1.41278e-38,-1.56064e-06,-3.27827e-12,1.41266e-38,-3.40903e-12,-1.06626e-13,0,0,-7.54902,-0.226471,0.366667,0,0,0,0,0,-0.419608,-0.226471,148,11,148,11,199,11,148,62,0,-0.261799,-9.80222e-06,-1.5,3.94113e+12,0,0,3,0,0,0,0,0,0,0,0,2601
1400,-3.21328e-12,1.41278e-38,-1.56064e-06,-3.27827e-12,1.41266e-38,0,-1.06626e-13,0,0,-7.54902,-0.226471,0.366667,0,0,0,0,0,-0.419608,-0.226471,148,11,148,11,199,11,148,62,0,-0.261799,-9.37665e-06,-1.5,3.94113e+12,0,0,3,0,0,0,0,0,0,0,0,2601
1410,-3.21328e-12,1.41278e-38,-1.56064e-06,-3.27827e-12,1.41266e-38,-3.40903e-12,-1.06627e-13,0,0,-7.54902,-0.226471,0.366667,0,0,0,0,0,-0.419608,-0.226471,148,11,148,11,199,11,148,62,0,-0.261799,-9.08007e-06,-1.5,3.94113e+12,0,0,3,0,0,0,0,0,0,0,0,2601
1420,-3.21328e-12,1.41278e-38,-1.56064e-06,-3.27827e-12,1.41266e-38,0,-1.06627e-13,0,0,-7.54902,-0.226471,0.366667,0,0,0,0,0,-0.419608,-0.226471,148,11,148,11,199,11,148,62,0,-0.261799,-8.79268e-06,-1.5,3.94113e+12,0,0,3,0,0,0,0,0,0,0,0,2601
1430,-3.21328e-12,1.41278e-38,-1.56064e-06,-3.27827e-12,1.41266e-38,-3.40903e-12,-1.06627e-13,0,0,-7.54902,-0.226471,0.366667,0,0,0,0,0,-0.419608,-0.226471,148,11,148,11,199,11,148,62,0,-0.261799,-8.5317e-06,-1.5,3.94113e+12,0,0,3,0,0,0,0,0,0,0,0,2601
1440,-3.21328e-12,1.41278e-38,-1.56064e-06,-3.27827e-12,1.41266e-38,0,-1.06628e-13,0,0,-7.54902,-0.226471,0.366667,0,0,0,0,0,-0.419608,-0.226471,148,11,148,11,199,11,148,62,0,-0.261799,-8.22833e-06,-1.5,3.94113e+12,0,0,3,0,0,0,0,0,0,0,0,2601
1450,-3.21328e-12,1.41278e-38,-1.56064e-06,-3.27827e-12,1.41266e-38,-3.40903e-12,-1.06628e-13,0,0,-7.54902,-0.226471,0.366667,0,0,0,0,0,-0.419608,-0.226471,148,11,148,11,199,11,148,62,0,-0.261799,-7.98423e-06,-1.5,3.94113e+12,0,0,3,0,0,0,0,0,0,0,0,2601
1460,-3.21328e-12,1.41278e-38,-1.56064e-06,-3.27827e-12,1.41266e-38,0,-1.06628e-13,0,0,-7.54902,-0.226471,0.366667,0,0,0,0,0,-0.419608,-0.226471,148,11,148,11,199,11,148,62,0,-0.261799,-7.70032e-06,-1.5,3.94113e+12,0,0,3,0,0,0,0,0,0,0,0,2601
1470,-3.21328e-12,1.41278e-38,-1.56064e-06,-3.27827e-12,1.41266e-38,-3.40903e-12,-1.06628e-13,0,0,-7.54902,-0.226471,0.366667,0,0,0,0,0,-0.419608,-0.226471,148,11,148,11,199,11,148,62,0,-0.261799,-7.45676e-06,-1.5,3.94113e+12,0,0,3,0,0,0,0,0,0,0,0,2601
1480,-3.21328e-12,1.41278e-38,-1.56064e-06,-3.27827e-12,1.41266e-38,0,-1.06629e-13,0,0,-7.54902,-0.226471,0.366667,0,0,0,0,0,-0.419608,-0.226471,148,11,148,11,199,11,148,62,0,-0.261799,-7.22075e-06,-1.5,3.94113e+12,0,0,3,0,0,0,0,0,0,0,0,2601
1490,-3.21328e-12,1.41278e-38,-1.56064e-06,-3.27827e-12,1.41266e-38,-3.40903e-12,-1.06629e-13,0,0,-7.54902,-0.226471,0.366667,0,0,0,0,0,-0.419608,-0.226471,148,11,148,11,199,11,148,62,0,-0.261799,-7.00643e-06,-1.5,3.94113e+12,0,0,3,0,0,0,0,0,0,0,0,2601
1500,-3.21328e-12,1.41278e-38,-1.56064e-06,-3.27827e-12,1.41266e-38,0,-1.06629e-13,0,0,-7.54902,-0.226471,0.366667,0,0,0,0,0,-0.419608,-0.226471,148,11,148,11,199,11,148,62,0,-0.261799,-6.75729e-06,-1.5,3.94113e+12,0,0,3,0,0,0,0,0,0,0,0,2601
1510,-3.21328e-12,1.41278e-38,-1.56064e-06,-3.27827e-12,1.41266e-38,-3.40903e-12,-1.06629e-13,0,0,-7.54902,-0.226471,0.366667,0,0,0,0,0,-0.419608,-0.226471,148,11,148,11,199,11,148,62,0,-0.261799,-6.53013e-06,-1.5,3.94113e+12,0,0,3,0,0,0,0,0,0,0,0,2601
1520,-3.21328e-12,1.41278e-38,-1.56064e-06,-3.27827e-12,1.41266e-38,0,-1.0663e-13,0,0,-7.54902,-0.226471,0.366667,0,0,0,0,0,-0.419608,-0.226471,148,11,148,11,199,11,148,62,0,-0.261799,-6.31075e-06,-1.5,3.94113e+12,0,0,3,0,0,0,0,0,0,0,0,2601
1530,-3.21328e-12,1.41278e-38,-1.56064e-06,-3.27827e-12,1.41266e-38,-3.40903e-12,-1.0663e-13,0,0,-7.54902,-0.226471,0.366667,0,0,0,0,0,-0.419608,-0.226471,148,11,148,11,199,11,148,62,0,-0.261799,-6.07376e-06,-1.5,3.94113e+12,0,0,3,0,0,0,0,0,0,0,0,2601
1540,-3.21328e-12,1.41278e-38,-1.56064e-06,-3.27827e-12,1.41266e-38,0,-1.0663e-13,0,0,-7.54902,-0.226471,0.366667,0,0,0,0,0,-0.419608,-0.226471,148,11,148,11,199,11,148,62,0,-0.261799,-5.88152e-06,-1.5,3.94113e+12,0,0,3,0,0,0,0,0,0,0,0,2601
1550,-3.21328e-12,1.41278e-38,-1.56064e-06,-3.27827e-12,1.41266e-38,-3.40903e-12,-1.06631e-13,0,0,-7.54902,-0.226471,0.366667,0,0,0,0,0,-0.419608,-0.226471,148,11,148,11,199,11,148,62,0,-0.261799,-5.69537e-06,-1.5,3.94113e+12,0,0,3,0,0,0,0,0,0,0,0,2601
1560,-3.21328e-12,1.41278e-38,-1.56064e-06,-3.27827e-12,1.41266e-38,0,-1.06631e-13,0,0,-7.54902,-0.226471,0.366667,0,0,0,0,0,-0.419608,-0.226471,148,11,148,11,199,11,148,62,0,-0.261799,-5.52633e-06,-1.5,3.94113e+12,0,0,3,0,0,0,0,0,0,0,0,2601
1570,-3.21328e-12,1.41278e-38,-1.56064e-06,-3.27827e-12,1.41266e-38,-3.40903e-12,-1.06631e-13,0,0,-7.54902,-0.226471,0.366667,0,0,0,0,0,-0.419608,-0.226471,148,11,148,11,199,11,148,62,0,-0.261799,-5.30811e-06,-1.5,3.94113e+12,0,0,3,0,0,0,0,0,0,0,0,2601
1580,-3.21328e-12,1.41278e-38,-1.56064e-06,-3.27827e-12,1.41266e-38,0,-1.06631e-13,0,0,-7.54902,-0.226471,0.366667,0,0,0,0,0,-0.419608,-0.226471,148,11,148,11,199,11,148,62,0,-0.261799,-5.14011e-06,-1.5,3.94113e+12,0,0,3,0,0,0,0,0,0,0,0,2601
1590,-3.21328e-12,1.41278e-38,-1.56064e-06,-3.27827e-12,1.41266e-38,-3.40903e-12,-1.06632e-13,0,0,-7.54902,-0.226471,0.366667,0,0,0,0,0,-0.419608,-0.226471,148,11,148,11,199,11,148,62,0,-0.261799,-4.93714e-06,-1.5,3.94113e+12,0,0,3,0,0,0,0,0,0,0,0,2601
1600,-3.21328e-12,1.41278e-38,-1.56064e-06,-3.27827e-12,1.41266e-38,0,-1.06632e-13,0,0,-7.54902,-0.226471,0.366667,0,0,0,0,0,-0.419608,-0.226471,148,11,148,11,199,11,148,62,0,-0.261799,-4.7906e-06,-1.5,3.94113e+12,0,0,3,0,0,0,0,0,0,0,0,2601
1610,-3.21328e-12,1.41278e-38,-1.56064e-06,-3.27827e-12,1.41266e-38,-3.40903e-12,-1.06632e-13,0,0,-7.54902,-0.226471,0.366667,0,0,0,0,0,-0.419608,-0.226471,148,11,148,11,199,11,148,62,0,-0.261799,-4.63898e-06,-1.5,3.94113e+12,0,0,3,0,0,0,0,0,0,0,0,2601
1620,-3.21328e-12,1.41278e-38,-1.56064e-06,-3.27827e-12,1.41266e-38,0,-1.06632e-13,0,0,-7.54902,-0.226471,0.366667,0,0,0,0,0,-0.419608,-0.226471,148,11,148,11,199,11,148,62,0,-0.261799,-4.51047e-06,-1.5,3.94113e+12,0,0,3,0,0,0,0,0,0,0,0,2601
1630,-3.21328e-12,1.41278e-38,-1.56064e-06,-3.27827e-12,1.41266e-38,-3.40903e-12,-1.06633e-13,0,0,-7.54902,-0.226471,0.366667,0,0,0,0,0,-0.419608,-0.226471,148,11,148,11,199,11,148,62,0,-0.261799,-4.34122e-06,-1.5,3.94113e+12,0,0,3,0,0,0,0,0,0,0,0,2601
1640,-3.21328e-12,1.41278e-38,-1.56064e-06,-3.27827e-12,1.41266e-38,0,-1.06633e-13,0,0,-7.54902,-0.226471,0.366667,0,0,0,0,0,-0.419608,-0.226471,148,11,148,11,199,11,148,62,0,-0.261799,-4.20391e-06,-1.5,3.94113e+12,0,0,3,0,0,0,0,0,0,0,0,2601
1650,-3.21328e-12,1.41278e-38,-1.56064e-06,-3.27827e-12,1.41266e-38,-3.40903e-12,-1.06633e-13,0,0,-7.54902,-0.226471,0.366667,0,0,0,0,0,-0.419608,-0.226471,148,11,148,11,199,11,148,62,0,-0.261799,-4.04604e-06,-1.5,3.94113e+12,0,0,3,0,0,0,0,0,0,0,0,2601
1660,-3.21328e-12,1.41278e-38,-1.56064e-06,-3.27827e-12,1.41266e-38,0,-1.06634e-13,0,0,-7.54902,-0.226471,0.366667,0,0,0,0,0,-0.419608,-0.226471,148,11,148,11,199,11,148,62,0,-0.261799,-3.91798e-06,-1.5,3.94113e+12,0,0,3,0,0,0,0,0,0,0,0,2601
1670,-3.21328e-12,1.41278e-38,-1.56064e-06,-3.27827e-12,1.41266e-38,-3.40903e-12,-1.06634e-13,0,0,-7.54902,-0.226471,0.366667,0,0,0,0,0,-0.419608,-0.226471,148,11,148,11,199,11,148,62,0,-0.261799,-3.79398e-06,-1.5,3.94113e+12,0,0,3,0,0,0,0,0,0,0,0,2601
1680,-3.21328e-12,1.41278e-38,-1.56064e-06,-3.27827e-12,1.41266e-38,0,-1.06634e-13,0,0,-7.54902,-0.226471,0.366667,0,0,0,0,0,-0.419608,-0.226471,148,11,148,11,199,11,148,62,0,-0.261799,-3.68137e-06,-1.5,3.94113e+12,0,0,3,0,0,0,0,0,0,0,0,2601
1690,-3.21328e-12,1.41278e-38,-1.56064e-06,-3.27827e-12,1.41266e-38,-3.40903e-12,-1.06634e-13,0,0,-7.54902,-0.226471,0.366667,0,0,0,0,0,-0.419608,-0.226471,148,11,148,11,199,11,148,62,0,-0.261799,-3.536e-06,-1.5,3.94113e+12,0,0,3,0,0,0,0,0,0,0,0,2601
1700,-3.21328e-12,1.41278e-38,-1.56064e-06,-3.27827e-12,1.41266e-38,0,-1.06635e-13,0,0,-7.54902,-0.226471,0.366667,0,0,0,0,0,-0.419608,-0.226471,148,11,148,11,199,11,148,62,0,-0.261799,-3.42416e-06,-1.5,3.94113e+12,0,0,3,0,0,0,0,0,0,0,0,2601
1710,-3.21328e-12,1.41278e-38,-1.56064e-06,-3.27827e-12,1.41266e-38,-3.40903e-12,-1.06635e-13,0,0,-7.54902,-0.226471,0.366667,0,0,0,0,0,-0.419608,-0.226471,148,11,148,11,199,11,148,62,0,-0.261799,-3.29556e-06,-1.5,3.94113e+12,0,0,3,0,0,0,0,0,0,0,0,2601
1720,-3.21328e-12,1.41278e-38,-1.56064e-06,-3.27827e-12,1.41266e-38,0,-1.06635e-13,0,0,-7.54902,-0.226471,0.366667,0,0,0,0,0,-0.419608,-0.226471,148,11,148,11,199,11,148,62,0,-0.261799,-3.19133e-06,-1.5,3.94113e+12,0,0,3,0,0,0,0,0,0,0,0,2601
1730,-3.21328e-12,1.41278e-38,-1.56064e-06,-3.27827e-12,1.41266e-38,-3.40903e-12,-1.06635e-13,0,0,-7.54902,-0.226471,0.366667,0,0,0,0,0,-0.419608,-0.226471,148,11,148,11,199,11,148,62,0,-0.261799,-3.09038e-06,-1.5,3.94113e+12,0,0,3,0,0,0,0,0,0,0,0,2601
1740,-3.21328e-12,1.41278e-38,-1.56064e-06,-3.27827e-12,1.41266e-38,0,-1.06636e-13,0,0,-7.54902,-0.226471,0.366667,0,0,0,0,0,-0.419608,-0.226471,148,11,148,11,199,11,148,62,0,-0.261799,-2.87092e-06,-1.5,3.94113e+12,0,0,3,0,0,0,0,0,0,0,0,2601
1750,-3.21328e-12,1.41278e-38,-1.56064e-06,-3.27827e-12,1.41266e-38,-3.40903e-12,-1.06636e-13,0,0,-7.54902,-0.226471,0.366667,0,0,0,0,0,-0.419608,-0.226471,148,11,148,11,199,11,148,62,0,-0.261799,-2.76876e-06,-1.5,3.94113e+12,0,0,3,0,0,0,0,0,0,0,0,2601
1760,-3.21328e-12,1.41278e-38,-1.56064e-06,-3.27827e-12,1.41266e-38,0,-1.06636e-13,0,0,-7.54902,-0.226471,0.366667,0,0,0,0,0,-0.419608,-0.226471,148,11,148,11,199,11,148,62,0,-0.261799,-2.68118e-06,-1.5,3.94113e+12,0,0,3,0,0,0,0,0,0,0,0,2601
1770,-3.21328e-12,1.41278e-38,-1.56064e-06,-3.27827e-12,1.41266e-38,-3.40903e-12,-1.06636e-13,0,0,-7.54902,-0.226471,0.366667,0,0,0,0,0,-0.419608,-0.226471,148,11,148,11,199,11,148,62,0,-0.261799,-2.55411e-06,-1.5,3.94113e+12,0,0,3,0,0,0,0,0,0,0,0,2601
1780,-3.21328e-12,1.41278e-38,-1.56064e-06,-3.27827e-12,1.41266e-38,0,-1.06637e-13,0,0,-7.54902,-0.226471,0.366667,0,0,0,0,0,-0.419608,-0.226471,148,11,148,11,199,11,148,62,0,-0.261799,-2.48332e-06,-1.5,3.94113e+12,0,0,3,0,0,0,0,0,0,0,0,2601
1790,-3.21328e-12,1.41278e-38,-1.56064e-06,-3.27827e-12,1.41266e-38,-3.40903e-12,-1.06637e-13,0,0,-7.54902,-0.226471,0.366667,0,0,0,0,0,-0.419608,-0.226471,148,11,148,11,199,11,148,62,0,-0.261799,-2.39495e-06,-1.5,3.94113e+12,0,0,3,0,0,0,0,0,0,0,0,2601
1800,-3.21328e-12,1.41278e-38,-1.56064e-06,-3.27827e-12,1.41266e-38,0,-1.06637e-13,0,0,-7.54902,-0.226471,0.366667,0,0,0,0,0,-0.419608,-0.226471,148,11,148,11,199,11,148,62,0,-0.261799,-2.3145e-06,-1.5,3.94113e+12,0,0,3,0,0,0,0,0,0,0,0,2601
1810,-3.21328e-12,1.41278e-38,-1.56064e-06,-3.27827e-12,1.41266e-38,-3.40903e-12,-1.06638e-13,0,0,-7.54902,-0.226471,0.366667,0,0,0,0,0,-0.419608,-0.226471,148,11,148,11,199,11,148,62,0,-0.261799,-2.2458e-06,-1.5,3.94113e+12,0,0,3,0,0,0,0,0,0,0,0,2601
1820,-3.21328e-12,1.41278e-38,-1.56064e-06,-3.27827e-12,1.41266e-38,0,-1.06638e-13,0,0,-7.54902,-0.226471,0.366667,0,0,0,0,0,-0.419608,-0.226471,148,11,148,11,199,11,148,62,0,-0.261799,-2.16588e-06,-1.5,3.94113e+12,0,0,3,0,0,0,0,0,0,0,0,2601
1830,-3.21328e-12,1.41278e-38,-1.56064e-06,-3.27827e-12,1.41266e-38,-3.40903e-12,-1.06638e-13,0,0,-7.54902,-0.226471,0.366667,0,0,0,0,0,-0.419608,-0.226471,148,11,148,11,199,11,148,62,0,-0.261799,-2.10159e-06,-1.5,3.94113e+12,0,0,3,0,0,0,0,0,0,0,0,2601
1840,-3.21328e-12,1.41278e-38,-1.56064e-06,-3.27827e-12,1.41266e-38,0,-1.06638e-13,0,0,-7.54902,-0.226471,0.366667,0,0,0,0,0,-0.419608,-0.226471,148,11,148,11,199,11,148,62,0,-0.261799,-2.02267e-06,-1.5,3.94113e+12,0,0,3,0,0,0,0,0,0,0,0,2601
1850,-3.21328e-12,1.41278e-38,-1.56064e-06,-3.27827e-12,1.41266e-38,-3.40903e-12,-1.06639e-13,0,0,-7.54902,-0.226471,0.366667,0,0,0,0,0,-0.419608,-0.226471,148,11,148,11,199,11,148,62,0,-0.261799,-1.95074e-06,-1.5,3.94113e+12,0,0,3,0,0,0,0,0,0,0,0,2601
1860,-3.21328e-12,1.41278e-38,-1.56064e-06,-3.27827e-12,1.41266e-38,0,-1.06639e-13,0,0,-7.54902,-0.226471,0.366667,0,0,0,0,0,-0.419608,-0.226471,148,11,148,11,199,11,148,62,0,-0.261799,-1.88516e-06,-1.5,3.94113e+12,0,0,3,0,0,0,0,0,0,0,0,2601
1870,-3.21328e-12,1.41278e-38,-1.56064e-06,-3.27827e-12,1.41266e-38,-3.40903e-12,-1.06639e-13,0,0,-7.54902,-0.226471,0.366667,0,0,0,0,0,-0.419608,-0.226471,148,11,148,11,199,11,148,62,0,-0.261799,-1.82554e-06,-1.5,3.94113e+12,0,0,3,0,0,0,0,0,0,0,0,2601
1880,-3.21328e-12,1.41278e-38,-1.56064e-06,-3.27827e-12,1.41266e-38,0,-1.06639e-13,0,0,-7.54902,-0.226471,0.366667,0,0,0,0,0,-0.419608,-0.226471,148,11,148,11,199,11,148,62,0,-0.261799,-1.76417e-06,-1.5,3.94113e+12,0,0,3,0,0,0,0,0,0,0,0,2601
1890,-3.21328e-12,1.41278e-38,-1.56064e-06,-3.27827e-12,1.41266e-38,-3.40903e-12,-1.0664e-13,0,0,-7.54902,-0.226471,0.366667,0,0,0,0,0,-0.419608,-0.226471,148,11,148,11,199,11,148,62,0,-0.261799,-1.70837e-06,-1.5,3.94113e+12,0,0,3,0,0,0,0,0,0,0,0,2601
1900,-3.21328e-12,1.41278e-38,-1.56064e-06,-3.27827e-12,1.41266e-38,0,-1.0664e-13,0,0,-7.54902,-0.226471,0.366667,0,0,0,0,0,-0.419608,-0.226471,148,11,148,11,199,11,148,62,0,-0.261799,-1.64426e-06,-1.5,3.94113e+12,0,0,3,0,0,0,0,0,0,0,0,2601
1910,-3.21328e-12,1.41278e-38,-1.56064e-06,-3.27827e-12,1.41266e-38,-3.40903e-12,-1.0664e-13,0,0,-7.54902,-0.226471,0.366667,0,0,0,0,0,-0.419608,-0.226471,148,11,148,11,199,11,148,62,0,-0.261799,-1.5858e-06,-1.5,3.94113e+12,0,0,3,0,0,0,0,0,0,0,0,2601
1920,-3.21328e-12,1.41278e-38,-1.56064e-06,-3.27827e-12,1.41266e-38,0,-1.06641e-13,0,0,-7.54902,-0.226471,0.366667,0,0,0,0,0,-0.419608,-0.226471,148,11,148,11,199,11,148,62,0,-0.261799,-1.53248e-06,-1.5,3.94113e+12,0,0,3,0,0,0,0,0,0,0,0,2601
1930,-3.21328e-12,1.41278e-38,-1.56064e-06,-3.27827e-12,1.41266e-38,-3.40903e-12,-1.06641e-13,0,0,-7.54902,-0.226471,0.366667,0,0,0,0,0,-0.419608,-0.226471,148,11,148,11,199,11,148,62,0,-0.261799,-1.48401e-06,-1.5,3.94113e+12,0,0,3,0,0,0,0,0,0,0,0,2601
1940,-3.21328e-12,1.41278e-38,-1.56064e-06,-3.27827e-12,1.41266e-38,0,-1.06641e-13,0,0,-7.54902,-0.226471,0.366667,0,0,0,0,0,-0.419608,-0.226471,148,11,148,11,199,11,148,62,0,-0.261799,-1.43412e-06,-1.5,3.94113e+12,0,0,3,0,0,0,0,0,0,0,0,2601
1950,-3.21328e-12,1.41278e-38,-1.56064e-06,-3.27827e-12,1.41266e-38,-3.40903e-12,-1.06641e-13,0,0,-7.54902,-0.226471,0.366667,0,0,0,0,0,-0.419608,-0.226471,148,11,148,11,199,11,148,62,0,-0.261799,-1.3972e-06,-1.5,3.94113e+12,0,0,3,0,0,0,0,0,0,0,0,2601
1960,-3.21328e-12,1.41278e-38,-1.56064e-06,-3.27827e-12,1.41266e-38,0,-1.06642e-13,0,0,-7.54902,-0.226471,0.366667,0,0,0,0,0,-0.419608,-0.226471,148,11,148,11,199,11,148,62,0,-0.261799,-1.34752e-06,-1.5,3.94113e+12,0,0,3,0,0,0,0,0,0,0,0,2601
1970,-3.21328e-12,1.41278e-38,-1.56064e-06,-3.27827e-12,1.41266e-38,-3.40903e-12,-1.06642e-13,0,0,-7.54902,-0.226471,0.366667,0,0,0,0,0,-0.419608,-0.226471,148,11,148,11,199,11,148,62,0,-0.261799,-1.29696e-06,-1.5,3.94113e+12,0,0,3,0,0,0,0,0,0,0,0,2601
1980,-3.21328e-12,1.41278e-38,-1.56064e-06,-3.27827e-12,1.41266e-38,0,-1.06642e-13,0,0,-7.54902,-0.226471,0.366667,0,0,0,0,0,-0.419608,-0.226471,148,11,148,11,199,11,148,62,0,-0.261799,-1.25338e-06,-1.5,3.94113e+12,0,0,3,0,0,0,0,0,0,0,0,2601
1990,-3.21328e-12,1.41278e-38,-1.56064e-06,-3.27827e-12,1.41266e-38,-3.40903e-12,-1.06642e-13,0,0,-7.54902,-0.226471,0.366667,0,0,0,0,0,-0.419608,-0.226471,148,11,148,11,199,11,148,62,0,-0.261799,-1.21374e-06,-1.5,3.94113e+12,0,0,3,0,0,0,0,0,0,0,0,2601
2000,-3.21328e-12,1.41278e-38,-1.56064e-06,-3.27827e-12,1.41266e-38,0,-1.06643e-13,0,0,-7.54902,-0.226471,0.366667,0,0,0,0,0,-0.419608,-0.226471,148,11,148,11,199,11,148,62,0,-0.261799,-1.17294e-06,-1.5,3.94113e+12,0,0,3,0,0,0,0,0,0,0,0,2601
2010,-3.21328e-12,1.41278e-38,-1.56064e-06,-3.27827e-12,1.41266e-38,-3.40903e-12,-1.06643e-13,0,0,-7.54902,-0.226471,0.366667,0,0,0,0,0,-0.419608,-0.226471,148,11,148,11,199,11,148,62,0,-0.261799,-1.13812e-06,-1.5,3.94113e+12,0,0,3,0,0,0,0,0,0,0,0,2601
2020,-3.21328e-12,1.41278e-38,-1.56064e-06,-3.27827e-12,1.41266e-38,0,-1.06643e-13,0,0,-7.54902,-0.226471,0.366667,0,0,0,0,0,-0.419608,-0.226471,148,11,148,11,199,11,148,62,0,-0.261799,-1.09318e-06,-1.5,3.94113e+12,0,0,3,0,0,0,0,0,0,0,0,2601
2030,-3.21328e-12,1.41278e-38,-1.56064e-06,-3.27827e-12,1.41266e-38,-3.40903e-12,-1.06644e-13,0,0,-7.54902,-0.226471,0.366667,0,0,0,0,0,-0.419608,-0.226471,148,11,148,11,199,11,148,62,0,-0.261799,-1.05428e-06,-1.5,3.94113e+12,0,0,3,0,0,0,0,0,0,0,0,2601
2040,-3.21328e-12,1.41278e-38,-1.56064e-06,-3.27827e-12,1.41266e-38,0,-1.06644e-13,0,0,-7.54902,-0.226471,0.366667,0,0,0,0,0,-0.419608,-0.226471,148,11,148,11,199,11,148,62,0,-0.261799,-1.01884e-06,-1.5,3.94113e+12,0,0,3,0,0,0,0,0,0,0,0,2601
2050,-3.21328e-12,1.41278e-38,-1.56064e-06,-3.27827e-12,1.41266e-38,-3.40903e-12,-1.06644e-13,0,0,-7.54902,-0.226471,0.366667,0,0,0,0,0,-0.419608,-0.226471,148,11,148,11,199,11,148,62,0,-0.261799,-9.86591e-07,-1.5,3.94113e+12,0,0,3,0,0,0,0,0,0,0,0,2601
2060,-3.21328e-12,1.41278e-38,-1.56064e-06,-3.27827e-12,1.41266e-38,0,-1.06644e-13,0,0,-7.54902,-0.226471,0.366667,0,0,0,0,0,-0.419608,-0.226471,148,11,148,11,199,11,148,62,0,-0.261799,-9.53423e-07,-1.5,3.94113e+12,0,0,3,0,0,0,0,0,0,0,0,2601
2070,-3.21328e-12,1.41278e-38,-1.56064e-06,-3.27827e-12,1.41266e-38,-3.40903e-12,-1.06645e-13,0,0,-7.54902,-0.226471,0.366667,0,0,0,0,0,-0.419608,-0.226471,148,11,148,11,199,11,148,62,0,-0.261799,-9.25124e-07,-1.5,3.94113e+12,0,0,3,0,0,0,0,0,0,0,0,2601
2080,-3.21328e-12,1.41278e-38,-1.56064e-06,-3.27827e-12,1.41266e-38,0,-1.06645e-13,0,0,-7.54902,-0.226471,0.366667,0,0,0,0,0,-0.419608,-0.226471,148,11,148,11,199,11,148,62,0,-0.261799,-8.88594e-07,-1.5,3.94113e+12,0,0,3,0,0,0,0,0,0,0,0,2601
2090,-3.21328e-12,1.41278e-38,-1.56064e-06,-3.27827e-12,1.41266e-38,-3.40903e-12,-1.06645e-13,0,0,-7.54902,-0.226471,0.366667,0,0,0,0,0,-0.419608,-0.226471,148,11,148,11,199,11,148,62,0,-0.261799,-8.58721e-07,-1.5,3.94113e+12,0,0,3,0,0,0,0,0,0,0,0,2601
2100,-3.21328e-12,1.41278e-38,-1.56064e-06,-3.27827e-12,1.41266e-38,0,-1.06645e-13,0,0,-7.54902,-0.226471,0.366667,0,0,0,0,0,-0.419608,-0.226471,148,11,148,11,199,11,148,62,0,-0.261799,-8.28186e-07,-1.5,3.94113e+12,0,0,3,0,0,0,0,0,0,0,0,2601
2110,-3.21328e-12,1.41278e-38,-1.56064e-06,-3.27827e-12,1.41266e-38,-3.40903e-12,-1.06646e-13,0,0,-7.54902,-0.226471,0.366667,0,0,0,0,0,-0.419608,-0.226471,148,11,148,11,199,11,148,62,0,-0.261799,-8.06864e-07,-1.5,3.94113e+12,0,0,3,0,0,0,0,0,0,0,0,2601
2120,-3.21328e-12,1.41278e-38,-1.56064e-06,-3.27827e-12,1.41266e-38,0,-1.06646e-13,0,0,-7.54902,-0.226471,0.366667,0,0,0,0,0,-0.419608,-0.226471,148,11,148,11,199,11,148,62,0,-0.261799,-7.86092e-07,-1.5,3.94113e+12,0,0,3,0,0,0,0,0,0,0,0,2601
2130,-3.21328e-12,1.41278e-38,-1.56064e-06,-3.27827e-12,1.41266e-38,-3.40903e-12,-1.06646e-13,0,0,-7.54902,-0.226471,0.366667,0,0,0,0,0,-0.419608,-0.226471,148,11,148,11,199,11,148,62,0,-0.261799,-7.62772e-07,-1.5,3.94113e+12,0,0,3,0,0,0,0,0,0,0,0,2601
2140,-3.21328e-12,1.41278e-38,-1.56064e-06,-3.27827e-12,1.41266e-38,0,-1.06647e-13,0,0,-7.54902,-0.226471,0.366667,0,0,0,0,0,-0.419608,-0.226471,148,11,148,11,199,11,148,62,0,-0.261799,-7.40143e-07,-1.5,3.94113e+12,0,0,3,0,0,0,0,0,0,0,0,2601
2150,-3.21328e-12,1.41278e-38,-1.56064e-06,-3.27827e-12,1.41266e-38,-3.40903e-12,-1.06647e-13,0,0,-7.54902,-0.226471,0.366667,0,0,0,0,0,-0.419608,-0.226471,148,11,148,11,199,11,148,62,0,-0.261799,-7.09434e-07,-1.5,3.94113e+12,0,0,3,0,0,0,0,0,0,0,0,2601
2160,-3.21328e-12,1.41278e-38,-1.56064e-06,-3.27827e-12,1.41266e-38,0,-1.06647e-13,0,0,-7.54902,-0.226471,0.366667,0,0,0,0,0,-0.419608,-0.226471,148,11,148,11,199,11,148,62,0,-0.261799,-6.86981e-07,-1.5,3.94113e+12,0,0,3,0,0,0,0,0,0,0,0,2601
2170,-3.21328e-12,1.41278e-38,-1.56064e-06,-3.27827e-12,1.41266e-38,-3.40903e-12,-1.06647e-13,0,0,-7.54902,-0.226471,0.366667,0,0,0,0,0,-0.419608,-0.226471,148,11,148,11,199,11,148,62,0,-0.261799,-6.63886e-07,-1.5,3.94113e+12,0,0,3,0,0,0,0,0,0,0,0,2601
2180,-3.21328e-12,1.41278e-38,-1.56064e-06,-3.27827e-12,1.41266e-38,0,-1.06648e-13,0,0,-7.54902,-0.226471,0.366667,0,0,0,0,0,-0.419608,-0.226471,148,11,148,11,199,11,148,62,0,-0.261799,-6.44181e-07,-1.5,3.94113e+12,0,0,3,0,0,0,0,0,0,0,0,2601
2190,-3.21328e-12,1.41278e-38,-1.56064e-06,-3.27827e-12,1.41266e-38,-3.40903e-12,-1.06648e-13,0,0,-7.54902,-0.226471,0.366667,0,0,0,0,0,-0.419608,-0.226471,148,11,148,11,199,11,148,62,0,-0.261799,-6.22525e-07,-1.5,3.94113e+12,0,0,3,0,0,0,0,0,0,0,0,2601
2200,-3.21328e-12,1.41278e-38,-1.56064e-06,-3.27827e-12,1.41266e-38,0,-1.06648e-13,0,0,-7.54902,-0.226471,0.366667,0,0,0,0,0,-0.419608,-0.226471,148,11,148,11,199,11,148,62,0,-0.261799,-6.02834e-07,-1.5,3.94113e+12,0,0,3,0,0,0,0,0,0,0,0,2601
2210,-3.21328e-12,1.41278e-38,-1.56064e-06,-3.27827e-12,1.41266e-38,-3.40903e-12,-1.06648e-13,0,0,-7.54902,-0.226471,0.366667,0,0,0,0,0,-0.419608,-0.226471,148,11,148,11,199,11,148,62,0,-0.261799,-5.77822e-07,-1.5,3.94113e+12,0,0,3,0,0,0,0,0,0,0,0,2601
2220,-3.21328e-12,1.41278e-38,-1.56064e-06,-3.27827e-12,1.41266e-38,0,-1.06649e-13,0,0,-7.54902,-0.226471,0.366667,0,0,0,0,0,-0.419608,-0.226471,148,11,148,11,199,11,148,62,0,-0.261799,-5.59534e-07,-1.5,3.94113e+12,0,0,3,0,0,0,0,0,0,0,0,2601
2230,-3.21328e-12,1.41278e-38,-1.56064e-06,-3.27827e-12,1.41266e-38,-3.40903e-12,-1.06649e-13,0,0,-7.54902,-0.226471,0.366667,0,0,0,0,0,-0.419608,-0.226471,148,11,148,11,199,11,148,62,0,-0.261799,-5.40724e-07,-1.5,3.94113e+12,0,0,3,0,0,0,0,0,0,0,0,2601
2240,-3.21328e-12,1.41278e-38,-1.56064e-06,-3.27827e-12,1.41266e-38,0,-1.06649e-13,0,0,-7.54902,-0.226471,0.366667,0,0,0,0,0,-0.419608,-0.226471,148,11,148,11,199,11,148,62,0,-0.261799,-5.24674e-07,-1.5,3.94113e+12,0,0,3,0,0,0,0,0,0,0,0,2601
2250,-3.21328e-12,1.41278e-38,-1.56064e-06,-3.27827e-12,1.41266e-38,-3.40903e-12,-1.06649e-13,0,0,-7.54902,-0.226471,0.366667,0,0,0,0,0,-0.419608,-0.226471,148,11,148,11,199,11,148,62,0,-0.261799,-5.07036e-07,-1.5,3.94113e+12,0,0,3,0,0,0,0,0,0,0,0,2601
2260,-3.21328e-12,1.41278e-38,-1.56064e-06,-3.27827e-12,1.41266e-38,0,-1.0665e-13,0,0,-7.54902,-0.226471,0.366667,0,0,0,0,0,-0.419608,-0.226471,148,11,148,11,199,11,148,62,0,-0.261799,-4.90998e-07,-1.5,3.94113e+12,0,0,3,0,0,0,0,0,0,0,0,2601
2270,-3.21328e-12,1.41278e-38,-1.56064e-06,-3.27827e-12,1.41266e-38,-3.40903e-12,-1.0665e-13,0,0,-7.54902,-0.226471,0.366667,0,0,0,0,0,-0.419608,-0.226471,148,11,148,11,199,11,148,62,0,-0.261799,-4.70646e-07,-1.5,3.94113e+12,0,0,3,0,0,0,0,0,0,0,0,2601
2280,-3.21328e-12,1.41278e-38,-1.56064e-06,-3.27827e-12,1.41266e-38,0,-1.0665e-13,0,0,-7.54902,-0.226471,0.366667,0,0,0,0,0,-0.419608,-0.226471,148,11,148,11,199,11,148,62,0,-0.261799,-4.57608e-07,-1.5,3.94113e+12,0,0,3,0,0,0,0,0,0,0,0,2601
2290,-3.21328e-12,1.41278e-38,-1.56064e-06,-3.27827e-12,1.41266e-38,-3.40903e-12,-1.06651e-13,0,0,-7.54902,-0.226471,0.366667,0,0,0,0,0,-0.419608,-0.226471,148,11,148,11,199,11,148,62,0,-0.261799,-4.44926e-07,-1.5,3.94113e+12,0,0,3,0,0,0,0,0,0,0,0,2601
2300,-3.21328e-12,1.41278e-38,-1.56064e-06,-3.27827e-12,1.41266e-38,0,-1.06651e-13,0,0,-7.54902,-0.226471,0.366667,0,0,0,0,0,-0.419608,-0.226471,148,11,148,11,199,11,148,62,0,-0.261799,-4.30844e-07,-1.5,3.94113e+12,0,0,3,0,0,0,0,0,0,0,0,2601
2310,-3.21328e-12,1.41278e-38,-1.56064e-06,-3.27827e-12,1.41266e-38,-3.40903e-12,-1.06651e-13,0,0,-7.54902,-0.226471,0.366667,0,0,0,0,0,-0.419608,-0.226471,148,11,148,11,199,11,148,62,0,-0.261799,-4.1636e-07,-1.5,3.94113e+12,0,0,3,0,0,0,0,0,0,0,0,2601
2320,-3.21328e-12,1.41278e-38,-1.56064e-06,-3.27827e-12,1.41266e-38,0,-1.06651e-13,0,0,-7.54902,-0.226471,0.366667,0,0,0,0,0,-0.419608,-0.226471,148,11,148,11,199,11,148,62,0,-0.261799,-4.04002e-07,-1.5,3.94113e+12,0,0,3,0,0,0,0,0,0,0,0,2601
2330,-3.21328e-12,1.41278e-38,-1.56064e-06,-3.27827e-12,1.41266e-38,-3.40903e-12,-1.06652e-13,0,0,-7.54902,-0.226471,0.366667,0,0,0,0,0,-0.419608,-0.226471,148,11,148,11,199,11,148,62,0,-0.261799,-3.84875e-07,-1.5,3.94113e+12,0,0,3,0,0,0,0,0,0,0,0,2601
2340,-3.21328e-12,1.41278e-38,-1.56064e-06,-3.27827e-12,1.41266e-38,0,-1.06652e-13,0,0,-7.54902,-0.226471,0.366667,0,0,0,0,0,-0.419608,-0.226471,148,11,148,11,199,11,148,62,0,-0.261799,-3.72701e-07,-1.5,3.94113e+12,0,0,3,0,0,0,0,0,0,0,0,2601
2350,-3.21328e-12,1.41278e-38,-1.56064e-06,-3.27827e-12,1.41266e-38,-3.40903e-12,-1.06652e-13,0,0,-7.54902,-0.226471,0.366667,0,0,0,0,0,-0.419608,-0.226471,148,11,148,11,199,11,148,62,0,-0.261799,-3.60905e-07,-1.5,3.94113e+12,0,0,3,0,0,0,0,0,0,0,0,2601
2360,-3.21328e-12,1.41278e-38,-1.56064e-06,-3.27827e-12,1.41266e-38,0,-1.06652e-13,0,0,-7.54902,-0.226471,0.366667,0,0,0,0,0,-0.419608,-0.226471,148,11,148,11,199,11,148,62,0,-0.261799,-3.4949e-07,-1.5,3.94113e+12,0,0,3,0,0,0,0,0,0,0,0,2601
2370,-3.21328e-12,1.41278e-38,-1.56064e-06,-3.27827e-12,1.41266e-38,-3.40903e-12,-1.06653e-13,0,0,-7.54902,-0.226471,0.366667,0,0,0,0,0,-0.419608,-0.226471,148,11,148,11,199,11,148,62,0,-0.261799,-3.37749e-07,-1.5,3.94113e+12,0,0,3,0,0,0,0,0,0,0,0,2601
2380,-3.21328e-12,1.41278e-38,-1.56064e-06,-3.27827e-12,1.41266e-38,0,-1.06653e-13,0,0,-7.54902,-0.226471,0.366667,0,0,0,0,0,-0.419608,-0.226471,148,11,148,11,199,11,148,62,0,-0.261799,-3.25739e-07,-1.5,3.94113e+12,0,0,3,0,0,0,0,0,0,0,0,2601
2390,-3.21328e-12,1.41278e-38,-1.56064e-06,-3.27827e-12,1.41266e-38,-3.40903e-12,-1.06653e-13,0,0,-7.54902,-0.226471,0.366667,0,0,0,0,0,-0.419608,-0.226471,148,11,148,11,199,11,148,62,0,-0.261799,-3.14157e-07,-1.5,3.94113e+12,0,0,3,0,0,0,0,0,0,0,0,2601
2400,-3.21328e-12,1.41278e-38,-1.56064e-06,-3.27827e-12,1.41266e-38,0,-1.06654e-13,0,0,-7.54902,-0.226471,0.366667,0,0,0,0,0,-0.419608,-0.226471,148,11,148,11,199,11,148,62,0,-0.261799,-3.0422e-07,-1.5,3.94113e+12,0,0,3,0,0,0,0,0,0,0,0,2601
2410,-3.21328e-12,1.41278e-38,-1.56064e-06,-3.27827e-12,1.41266e-38,-3.40903e-12,-1.06654e-13,0,0,-7.54902,-0.226471,0.366667,0,0,0,0,0,-0.419608,-0.226471,148,11,148,11,199,11,148,62,0,-0.261799,-2.94597e-07,-1.5,3.94113e+12,0,0,3,0,0,0,0,0,0,0,0,2601
2420,-3.21328e-12,1.41278e-38,-1.56064e-06,-3.27827e-12,1.41266e-38,0,-1.06654e-13,0,0,-7.54902,-0.226471,0.366667,0,0,0,0,0,-0.419608,-0.226471,148,11,148,11,199,11,148,62,0,-0.261799,-2.85853e-07,-1.5,3.94113e+12,0,0,3,0,0,0,0,0,0,0,0,2601
2430,-3.21328e-12,1.41278e-38,-1.56064e-06,-3.27827e-12,1.41266e-38,-3.40903e-12,-1.06654e-13,0,0,-7.54902,-0.226471,0.366667,0,0,0,0,0,-0.419608,-0.226471,148,11,148,11,199,11,148,62,0,-0.261799,-2.77369e-07,-1.5,3.94113e+12,0,0,3,0,0,0,0,0,0,0,0,2601
2440,-3.21328e-12,1.41278e-38,-1.56064e-06,-3.27827e-12,1.41266e-38,0,-1.06655e-13,0,0,-7.54902,-0.226471,0.366667,0,0,0,0,0,-0.419608,-0.226471,148,11,148,11,199,11,148,62,0,-0.261799,-2.67506e-07,-1.5,3.94113e+12,0,0,3,0,0,0,0,0,0,0,0,2601
2450,-3.21328e-12,1.41278e-38,-1.56064e-06,-3.27827e-12,1.41266e-38,-3.40903e-12,-1.06655e-13,0,0,-7.54902,-0.226471,0.366667,0,0,0,0,0,-0.419608,-0.226471,148,11,148,11,199,11,148,62,0,-0.261799,-2.57994e-07,-1.5,3.94113e+12,0,0,3,0,0,0,0,0,0,0,0,2601
2460,-3.21328e-12,1.41278e-38,-1.56064e-06,-3.27827e-12,1.41266e-38,0,-1.06655e-13,0,0,-7.54902,-0.226471,0.366667,0,0,0,0,0,-0.419608,-0.226471,148,11,148,11,199,11,148,62,0,-0.261799,-2.51352e-07,-1.5,3.94113e+12,0,0,3,0,0,0,0,0,0,0,0,2601
2470,-3.21328e-12,1.41278e-38,-1.56064e-06,-3.27827e-12,1.41266e-38,-3.40903e-12,-1.06655e-13,0,0,-7.54902,-0.226471,0.366667,0,0,0,0,0,-0.419608,-0.226471,148,11,148,11,199,11,148,62,0,-0.261799,-2.43401e-07,-1.5,3.94113e+12,0,0,3,0,0,0,0,0,0,0,0,2601
2480,-3.21328e-12,1.41278e-38,-1.56064e-06,-3.27827e-12,1.41266e-38,0,-1.06656e-13,0,0,-7.54902,-0.226471,0.366667,0,0,0,0,0,-0.419608,-0.226471,148,11,148,11,199,11,148,62,0,-0.261799,-2.36177e-07,-1.5,3.94113e+12,0,0,3,0,0,0,0,0,0,0,0,2601
2490,-3.21328e-12,1.41278e-38,-1.56064e-06,-3.27827e-12,1.41266e-38,-3.40903e-12,-1.06656e-13,0,0,-7.54902,-0.226471,0.366667,0,0,0,0,0,-0.419608,-0.226471,148,11,148,11,199,11,148,62,0,-0.261799,-2.29167e-07,-1.5,3.94113e+12,0,0,3,0,0,0,0,0,0,0,0,2601
2500,-3.21328e-12,1.41278e-38,-1.56064e-06,-3.27827e-12,1.41266e-38,0,-1.06656e-13,0,0,-7.54902,-0.226471,0.366667,0,0,0,0,0,-0.419608,-0.226471,148,11,148,11,199,11,148,62,0,-0.261799,-2.21918e-07,-1.5,3.94113e+12,0,0,3,0,0,0,0,0,0,0,0,2601
2510,-3.21328e-12,1.41278e-38,-1.56064e-06,-3.27827e-12,1.41266e-38,-3.40903e-12,-1.06657e-13,0,0,-7.54902,-0.226471,0.366667,0,0,0,0,0,-0.419608,-0.226471,148,11,148,11,199,11,148,62,0,-0.261799,-2.14458e-07,-1.5,3.94113e+12,0,0,3,0,0,0,0,0,0,0,0,2601
2520,-3.21328e-12,1.41278e-38,-1.56064e-06,-3.27827e-12,1.41266e-38,0,-1.06657e-13,0,0,-7.54902,-0.226471,0.366667,0,0,0,0,0,-0.419608,-0.226471,148,11,148,11,199,11,148,62,0,-0.261799,-2.07253e-07,-1.5,3.94113e+12,0,0,3,0,0,0,0,0,0,0,0,2601
