timestamp,A_x,A_y,A_z,P,Q,R,Phi,Theta,Psi,poseX,poseY,poseZ,state_X,state_Y,state_Z,state_VzB,state_Bx,state_By,state_Bz,p1_x,p1_y,p2_x,p2_y,p3_x,p3_y,p4_x,p4_y,roll,pitch,yaw,alt,targetHeading,highLevelState,lowLevelState,gateNumber,filtered_x,filtered_y,x_OT,y_OT,vx_OT,vy_OT,filtered_vx,filtered_vygateArea
10,0,0,0,0,0,0,0,0,0,0,0,0,0,0,0,0,0,0,0,0,0,0,0,0,0,0,0,0,-0.261799,0.00779127,-1.5,-nan,0,0,3,0,0,0,0,0,0,0,0,1.9603e-19
20,0,0,0,0,0,0,0,0,0,0,0,0,0,0,0,0,0,0,0,0,0,0,0,0,0,0,0,0,-0.261799,0.00752953,-1.5,-nan,0,0,3,0,0,0,0,0,0,0,0,1.9603e-19
30,-3.11558e-12,2.39472e-38,-1.51826e-06,-3.18057e-12,2.39448e-38,-3.62841e-12,-1.06589e-13,0,0,0,0,0,0,0,0,0,0,0,0,0,0,0,0,0,0,0,0,0,-0.261799,-0.00153814,-1.5,-nan,0,0,3,0,0,0,0,0,0,0,0,1.9603e-19
40,-3.11558e-12,2.39472e-38,-1.51826e-06,-3.18057e-12,2.39448e-38,0,-1.0659e-13,0,0,0,0,0,0,0,0,0,0,0,0,0,0,0,0,0,0,0,0,0,-0.261799,-0.00149248,-1.5,-nan,0,0,3,0,0,0,0,0,0,0,0,1.9603e-19
50,-3.11558e-12,2.39472e-38,-1.51826e-06,-3.18057e-12,2.39448e-38,-3.62841e-12,-1.0659e-13,0,0,0,0,0,0,0,0,0,0,0,0,0,0,0,0,0,0,0,0,0,-0.261799,-0.00144525,-1.5,-nan,0,0,3,0,0,0,0,0,0,0,0,1.9603e-19
60,-3.11558e-12,2.39472e-38,-1.51826e-06,-3.18057e-12,2.39448e-38,0,-1.0659e-13,0,0,0,0,0,0,0,0,0,0,0,0,0,0,0,0,0,0,0,0,0,-0.261799,-0.00140235,-1.5,-nan,0,0,3,0,0,0,0,0,0,0,0,1.9603e-19
70,-3.11558e-12,2.39472e-38,-1.51826e-06,-3.18057e-12,2.39448e-38,-3.62841e-12,-1.0659e-13,0,0,0,0,0,0,0,0,0,0,0,0,0,0,0,0,0,0,0,0,0,-0.261799,-0.00135799,-1.5,-nan,0,0,3,0,0,0,0,0,0,0,0,1.9603e-19
80,-3.11558e-12,2.39472e-38,-1.51826e-06,-3.18057e-12,2.39448e-38,0,-1.06591e-13,0,0,0,0,0,0,0,0,0,0,0,0,0,0,0,0,0,0,0,0,0,-0.261799,-0.00131769,-1.5,-nan,0,0,3,0,0,0,0,0,0,0,0,1.9603e-19
90,-3.11558e-12,2.39472e-38,-1.51826e-06,-3.18057e-12,2.39448e-38,-3.62841e-12,-1.06591e-13,0,0,0,0,0,0,0,0,0,0,0,0,0,0,0,0,0,0,0,0,0,-0.261799,-0.00127857,-1.5,-nan,0,0,3,0,0,0,0,0,0,0,0,1.9603e-19
100,-3.11558e-12,2.39472e-38,-1.51826e-06,-3.18057e-12,2.39448e-38,0,-1.06591e-13,0,0,0,0,0,0,0,0,0,0,0,0,0,0,0,0,0,0,0,0,0,-0.261799,-0.00123813,-1.5,-nan,0,0,3,0,0,0,0,0,0,0,0,1.9603e-19
110,-3.11558e-12,2.39472e-38,-1.51826e-06,-3.18057e-12,2.39448e-38,-3.62841e-12,-1.06591e-13,0,0,0,0,0,0,0,0,0,0,0,0,0,0,0,0,0,0,0,0,0,-0.261799,-0.00120138,-1.5,-nan,0,0,3,0,0,0,0,0,0,0,0,1.9603e-19
120,-3.11558e-12,2.39472e-38,-1.51826e-06,-3.18057e-12,2.39448e-38,0,-1.06592e-13,0,0,0,0,0,0,0,0,0,0,0,0,0,0,0,0,0,0,0,0,0,-0.261799,-0.00109023,-1.5,-nan,0,0,3,0,0,0,0,0,0,0,0,1.9603e-19
130,-3.11558e-12,2.39472e-38,-1.51826e-06,-3.18057e-12,2.39448e-38,-3.62841e-12,-1.06592e-13,0,0,0,0,0,0,0,0,0,0,0,0,0,0,0,0,0,0,0,0,0,-0.261799,-0.00102354,-1.5,-nan,0,0,3,0,0,0,0,0,0,0,0,1.9603e-19
140,-3.11558e-12,2.39472e-38,-1.51826e-06,-3.18057e-12,2.39448e-38,0,-1.06592e-13,0,0,0,0,0,0,0,0,0,0,0,0,0,0,0,0,0,0,0,0,0,-0.261799,-0.000832336,-1.5,-nan,0,0,3,0,0,0,0,0,0,0,0,1.9603e-19
150,-3.11558e-12,2.39472e-38,-1.51826e-06,-3.18057e-12,2.39448e-38,-3.62841e-12,-1.06593e-13,0,0,0,0,0,0,0,0,0,0,0,0,0,0,0,0,0,0,0,0,0,-0.261799,-0.000710977,-1.5,-nan,0,0,3,0,0,0,0,0,0,0,0,1.9603e-19
160,-3.11558e-12,2.39472e-38,-1.51826e-06,-3.18057e-12,2.39448e-38,0,-1.06593e-13,0,0,0,0,0,0,0,0,0,0,0,0,0,0,0,0,0,0,0,0,0,-0.261799,-0.000675881,-1.5,-nan,0,0,3,0,0,0,0,0,0,0,0,1.9603e-19
170,-3.11558e-12,2.39472e-38,-1.51826e-06,-3.18057e-12,2.39448e-38,-3.62841e-12,-1.06593e-13,0,0,0,0,0,0,0,0,0,0,0,0,0,0,0,0,0,0,0,0,0,-0.261799,-0.00065582,-1.5,-nan,0,0,3,0,0,0,0,0,0,0,0,1.9603e-19
180,-3.11558e-12,2.39472e-38,-1.51826e-06,-3.18057e-12,2.39448e-38,0,-1.06593e-13,0,0,0,0,0,0,0,0,0,0,0,0,0,0,0,0,0,0,0,0,0,-0.261799,-0.000633772,-1.5,-nan,0,0,3,0,0,0,0,0,0,0,0,1.9603e-19
190,-3.11558e-12,2.39472e-38,-1.51826e-06,-3.18057e-12,2.39448e-38,-3.62841e-12,-1.06594e-13,0,0,0,0,0,0,0,0,0,0,0,0,0,0,0,0,0,0,0,0,0,-0.261799,-0.00060124,-1.5,-nan,0,0,3,0,0,0,0,0,0,0,0,1.9603e-19
200,-3.11558e-12,2.39472e-38,-1.51826e-06,-3.18057e-12,2.39448e-38,0,-1.06594e-13,0,0,0,0,0,0,0,0,0,0,0,0,0,0,0,0,0,0,0,0,0,-0.261799,-0.000549155,-1.5,-nan,0,0,3,0,0,0,0,0,0,0,0,1.9603e-19
210,-3.11558e-12,2.39472e-38,-1.51826e-06,-3.18057e-12,2.39448e-38,-3.62841e-12,-1.06594e-13,0,0,0,0,0,0,0,0,0,0,0,0,0,0,0,0,0,0,0,0,0,-0.261799,-0.000532855,-1.5,-nan,0,0,3,0,0,0,0,0,0,0,0,1.9603e-19
220,-3.11558e-12,2.39472e-38,-1.51826e-06,-3.18057e-12,2.39448e-38,0,-1.06594e-13,0,0,0,0,0,0,0,0,0,0,0,0,0,0,0,0,0,0,0,0,0,-0.261799,-0.000505503,-1.5,-nan,0,0,3,0,0,0,0,0,0,0,0,1.9603e-19
230,-3.11558e-12,2.39472e-38,-1.51826e-06,-3.18057e-12,2.39448e-38,-3.62841e-12,-1.06595e-13,0,0,0,0,0,0,0,0,0,0,0,0,0,0,0,0,0,0,0,0,0,-0.261799,-0.000484529,-1.5,-nan,0,0,3,0,0,0,0,0,0,0,0,1.9603e-19
240,-3.11558e-12,2.39472e-38,-1.51826e-06,-3.18057e-12,2.39448e-38,0,-1.06595e-13,0,0,0,0,0,0,0,0,0,0,0,0,0,0,0,0,0,0,0,0,0,-0.261799,-0.000471107,-1.5,-nan,0,0,3,0,0,0,0,0,0,0,0,1.9603e-19
250,-3.11558e-12,2.39472e-38,-1.51826e-06,-3.18057e-12,2.39448e-38,-3.62841e-12,-1.06595e-13,0,0,0,0,0,0,0,0,0,0,0,0,0,0,0,0,0,0,0,0,0,-0.261799,-0.000454355,-1.5,-nan,0,0,3,0,0,0,0,0,0,0,0,1.9603e-19
260,-3.11558e-12,2.39472e-38,-1.51826e-06,-3.18057e-12,2.39448e-38,0,-1.06596e-13,0,0,0,0,0,0,0,0,0,0,0,0,0,0,0,0,0,0,0,0,0,-0.261799,-0.000439975,-1.5,-nan,0,0,3,0,0,0,0,0,0,0,0,1.9603e-19
270,-3.11558e-12,2.39472e-38,-1.51826e-06,-3.18057e-12,2.39448e-38,-3.62841e-12,-1.06596e-13,0,0,0,0,0,0,0,0,0,0,0,0,0,0,0,0,0,0,0,0,0,-0.261799,-0.00042605,-1.5,-nan,0,0,3,0,0,0,0,0,0,0,0,1.9603e-19
280,-3.11558e-12,2.39472e-38,-1.51826e-06,-3.18057e-12,2.39448e-38,0,-1.06596e-13,0,0,0,0,0,0,0,0,0,0,0,0,0,0,0,0,0,0,0,0,0,-0.261799,-0.000413404,-1.5,-nan,0,0,3,0,0,0,0,0,0,0,0,1.9603e-19
290,-3.11558e-12,2.39472e-38,-1.51826e-06,-3.18057e-12,2.39448e-38,-3.62841e-12,-1.06596e-13,0,0,0,0,0,0,0,0,0,0,0,0,0,0,0,0,0,0,0,0,0,-0.261799,-0.000401134,-1.5,-nan,0,0,3,0,0,0,0,0,0,0,0,1.9603e-19
300,-3.11558e-12,2.39472e-38,-1.51826e-06,-3.18057e-12,2.39448e-38,0,-1.06597e-13,0,0,0,0,0,0,0,0,0,0,0,0,0,0,0,0,0,0,0,0,0,-0.261799,-0.000388446,-1.5,-nan,0,0,3,0,0,0,0,0,0,0,0,1.9603e-19
310,-3.11558e-12,2.39472e-38,-1.51826e-06,-3.18057e-12,2.39448e-38,-3.62841e-12,-1.06597e-13,0,0,0,0,0,0,0,0,0,0,0,0,0,0,0,0,0,0,0,0,0,-0.261799,-0.000374622,-1.5,-nan,0,0,3,0,0,0,0,0,0,0,0,1.9603e-19
320,-3.11558e-12,2.39472e-38,-1.51826e-06,-3.18057e-12,2.39448e-38,0,-1.06597e-13,0,0,0,0,0,0,0,0,0,0,0,0,0,0,0,0,0,0,0,0,0,-0.261799,-0.000362766,-1.5,-nan,0,0,3,0,0,0,0,0,0,0,0,1.9603e-19
330,-3.11558e-12,2.39472e-38,-1.51826e-06,-3.18057e-12,2.39448e-38,-3.62841e-12,-1.06597e-13,0,0,0,0,0,0,0,0,0,0,0,0,0,0,0,0,0,0,0,0,0,-0.261799,-0.000351291,-1.5,-nan,0,0,3,0,0,0,0,0,0,0,0,1.9603e-19
340,-3.11558e-12,2.39472e-38,-1.51826e-06,-3.18057e-12,2.39448e-38,0,-1.06598e-13,0,0,0,0,0,0,0,0,0,0,0,0,0,0,0,0,0,0,0,0,0,-0.261799,-0.000340865,-1.5,-nan,0,0,3,0,0,0,0,0,0,0,0,1.9603e-19
350,-3.11558e-12,2.39472e-38,-1.51826e-06,-3.18057e-12,2.39448e-38,-3.62841e-12,-1.06598e-13,0,0,0,0,0,0,0,0,0,0,0,0,0,0,0,0,0,0,0,0,0,-0.261799,-0.000330083,-1.5,-nan,0,0,3,0,0,0,0,0,0,0,0,1.9603e-19
360,-3.11558e-12,2.39472e-38,-1.51826e-06,-3.18057e-12,2.39448e-38,0,-1.06598e-13,0,0,0,0,0,0,0,0,0,0,0,0,0,0,0,0,0,0,0,0,0,-0.261799,-0.000320291,-1.5,-nan,0,0,3,0,0,0,0,0,0,0,0,1.9603e-19
370,-3.11558e-12,2.39472e-38,-1.51826e-06,-3.18057e-12,2.39448e-38,-3.62841e-12,-1.06599e-13,0,0,0,0,0,0,0,0,0,0,0,0,0,0,0,0,0,0,0,0,0,-0.261799,-0.000308902,-1.5,-nan,0,0,3,0,0,0,0,0,0,0,0,1.9603e-19
380,-3.11558e-12,2.39472e-38,-1.51826e-06,-3.18057e-12,2.39448e-38,0,-1.06599e-13,0,0,0,0,0,0,0,0,0,0,0,0,0,0,0,0,0,0,0,0,0,-0.261799,-0.000299125,-1.5,-nan,0,0,3,0,0,0,0,0,0,0,0,1.9603e-19
390,-3.11558e-12,2.39472e-38,-1.51826e-06,-3.18057e-12,2.39448e-38,-3.62841e-12,-1.06599e-13,0,0,0,0,0,0,0,0,0,0,0,0,0,0,0,0,0,0,0,0,0,-0.261799,-0.000289658,-1.5,-nan,0,0,3,0,0,0,0,0,0,0,0,1.9603e-19
400,-3.11558e-12,2.39472e-38,-1.51826e-06,-3.18057e-12,2.39448e-38,0,-1.06599e-13,0,0,0,0,0,0,0,0,0,0,0,0,0,0,0,0,0,0,0,0,0,-0.261799,-0.000280496,-1.5,-nan,0,0,3,0,0,0,0,0,0,0,0,1.9603e-19
410,-3.11558e-12,2.39472e-38,-1.51826e-06,-3.18057e-12,2.39448e-38,-3.62841e-12,-1.066e-13,0,0,0,0,0,0,0,0,0,0,0,0,0,0,0,0,0,0,0,0,0,-0.261799,-0.00027217,-1.5,-nan,0,0,3,0,0,0,0,0,0,0,0,1.9603e-19
420,-3.11558e-12,2.39472e-38,-1.51826e-06,-3.18057e-12,2.39448e-38,0,-1.066e-13,0,0,0,0,0,0,0,0,0,0,0,0,0,0,0,0,0,0,0,0,0,-0.261799,-0.000264092,-1.5,-nan,0,0,3,0,0,0,0,0,0,0,0,1.9603e-19
430,-3.11558e-12,2.39472e-38,-1.51826e-06,-3.18057e-12,2.39448e-38,-3.62841e-12,-1.066e-13,0,0,0,0,0,0,0,0,0,0,0,0,0,0,0,0,0,0,0,0,0,-0.261799,-0.000254182,-1.5,-nan,0,0,3,0,0,0,0,0,0,0,0,1.9603e-19
440,-3.11558e-12,2.39472e-38,-1.51826e-06,-3.18057e-12,2.39448e-38,0,-1.066e-13,0,0,0,0,0,0,0,0,0,0,0,0,0,0,0,0,0,0,0,0,0,-0.261799,-0.000247138,-1.5,-nan,0,0,3,0,0,0,0,0,0,0,0,1.9603e-19
450,-3.11558e-12,2.39472e-38,-1.51826e-06,-3.18057e-12,2.39448e-38,-3.62841e-12,-1.06601e-13,0,0,0,0,0,0,0,0,0,0,0,0,0,0,0,0,0,0,0,0,0,-0.261799,-0.000239803,-1.5,-nan,0,0,3,0,0,0,0,0,0,0,0,1.9603e-19
460,-3.11558e-12,2.39472e-38,-1.51826e-06,-3.18057e-12,2.39448e-38,0,-1.06601e-13,0,0,0,0,0,0,0,0,0,0,0,0,0,0,0,0,0,0,0,0,0,-0.261799,-0.000232213,-1.5,-nan,0,0,3,0,0,0,0,0,0,0,0,1.9603e-19
470,-3.11558e-12,2.39472e-38,-1.51826e-06,-3.18057e-12,2.39448e-38,-3.62841e-12,-1.06601e-13,0,0,0,0,0,0,0,0,0,0,0,0,0,0,0,0,0,0,0,0,0,-0.261799,-0.000225321,-1.5,-nan,0,0,3,0,0,0,0,0,0,0,0,1.9603e-19
480,-3.11558e-12,2.39472e-38,-1.51826e-06,-3.18057e-12,2.39448e-38,0,-1.06602e-13,0,0,0,0,0,0,0,0,0,0,0,0,0,0,0,0,0,0,0,0,0,-0.261799,-0.000218633,-1.5,-nan,0,0,3,0,0,0,0,0,0,0,0,1.9603e-19
490,-3.11558e-12,2.39472e-38,-1.51826e-06,-3.18057e-12,2.39448e-38,-3.62841e-12,-1.06602e-13,0,0,0,0,0,0,0,0,0,0,0,0,0,0,0,0,0,0,0,0,0,-0.261799,-0.000211717,-1.5,-nan,0,0,3,0,0,0,0,0,0,0,0,1.9603e-19
500,-3.11558e-12,2.39472e-38,-1.51826e-06,-3.18057e-12,2.39448e-38,0,-1.06602e-13,0,0,0,0,0,0,0,0,0,0,0,0,0,0,0,0,0,0,0,0,0,-0.261799,-0.000204183,-1.5,-nan,0,0,3,0,0,0,0,0,0,0,0,1.9603e-19
510,-3.11558e-12,2.39472e-38,-1.51826e-06,-3.18057e-12,2.39448e-38,-3.62841e-12,-1.06602e-13,0,0,0,0,0,0,0,0,0,0,0,0,0,0,0,0,0,0,0,0,0,-0.261799,-0.000197721,-1.5,-nan,0,0,3,0,0,0,0,0,0,0,0,1.9603e-19
520,-3.11558e-12,2.39472e-38,-1.51826e-06,-3.18057e-12,2.39448e-38,0,-1.06603e-13,0,0,0,0,0,0,0,0,0,0,0,0,0,0,0,0,0,0,0,0,0,-0.261799,-0.000191467,-1.5,-nan,0,0,3,0,0,0,0,0,0,0,0,1.9603e-19
530,-3.11558e-12,2.39472e-38,-1.51826e-06,-3.18057e-12,2.39448e-38,-3.62841e-12,-1.06603e-13,0,0,0,0,0,0,0,0,0,0,0,0,0,0,0,0,0,0,0,0,0,-0.261799,-0.000185784,-1.5,-nan,0,0,3,0,0,0,0,0,0,0,0,1.9603e-19
540,-3.11558e-12,2.39472e-38,-1.51826e-06,-3.18057e-12,2.39448e-38,0,-1.06603e-13,0,0,0,0,0,0,0,0,0,0,0,0,0,0,0,0,0,0,0,0,0,-0.261799,-0.000180269,-1.5,-nan,0,0,3,0,0,0,0,0,0,0,0,1.9603e-19
550,-3.11558e-12,2.39472e-38,-1.51826e-06,-3.18057e-12,2.39448e-38,-3.62841e-12,-1.06603e-13,0,0,0,0,0,0,0,0,0,0,0,0,0,0,0,0,0,0,0,0,0,-0.261799,-0.000174568,-1.5,-nan,0,0,3,0,0,0,0,0,0,0,0,1.9603e-19
560,-3.11558e-12,2.39472e-38,-1.51826e-06,-3.18057e-12,2.39448e-38,0,-1.06604e-13,0,0,0,0,0,0,0,0,0,0,0,0,0,0,0,0,0,0,0,0,0,-0.261799,-0.000168022,-1.5,-nan,0,0,3,0,0,0,0,0,0,0,0,1.9603e-19
570,-3.11558e-12,2.39472e-38,-1.51826e-06,-3.18057e-12,2.39448e-38,-3.62841e-12,-1.06604e-13,0,0,0,0,0,0,0,0,0,0,0,0,0,0,0,0,0,0,0,0,0,-0.261799,-0.000162708,-1.5,-nan,0,0,3,0,0,0,0,0,0,0,0,1.9603e-19
580,-3.11558e-12,2.39472e-38,-1.51826e-06,-3.18057e-12,2.39448e-38,0,-1.06604e-13,0,0,0,0,0,0,0,0,0,0,0,0,0,0,0,0,0,0,0,0,0,-0.261799,-0.000157878,-1.5,-nan,0,0,3,0,0,0,0,0,0,0,0,1.9603e-19
590,-3.11558e-12,2.39472e-38,-1.51826e-06,-3.18057e-12,2.39448e-38,-3.62841e-12,-1.06605e-13,0,0,0,0,0,0,0,0,0,0,0,0,0,0,0,0,0,0,0,0,0,-0.261799,-0.000152884,-1.5,-nan,0,0,3,0,0,0,0,0,0,0,0,1.9603e-19
600,-3.11558e-12,2.39472e-38,-1.51826e-06,-3.18057e-12,2.39448e-38,0,-1.06605e-13,0,0,0,0,0,0,0,0,0,0,0,0,0,0,0,0,0,0,0,0,0,-0.261799,-0.000148347,-1.5,-nan,0,0,3,0,0,0,0,0,0,0,0,1.9603e-19
610,-3.11558e-12,2.39472e-38,-1.51826e-06,-3.18057e-12,2.39448e-38,-3.62841e-12,-1.06605e-13,0,0,0,0,0,0,0,0,0,0,0,0,0,0,0,0,0,0,0,0,0,-0.261799,-0.000143943,-1.5,-nan,0,0,3,0,0,0,0,0,0,0,0,1.9603e-19
620,-3.11558e-12,2.39472e-38,-1.51826e-06,-3.18057e-12,2.39448e-38,0,-1.06605e-13,0,0,0,0,0,0,0,0,0,0,0,0,0,0,0,0,0,0,0,0,0,-0.261799,-0.000139108,-1.5,-nan,0,0,3,0,0,0,0,0,0,0,0,1.9603e-19
630,-3.11558e-12,2.39472e-38,-1.51826e-06,-3.18057e-12,2.39448e-38,-3.62841e-12,-1.06606e-13,0,0,0,0,0,0,0,0,0,0,0,0,0,0,0,0,0,0,0,0,0,-0.261799,-0.000134435,-1.5,-nan,0,0,3,0,0,0,0,0,0,0,0,1.9603e-19
640,-3.11558e-12,2.39472e-38,-1.51826e-06,-3.18057e-12,2.39448e-38,0,-1.06606e-13,0,0,0,0,0,0,0,0,0,0,0,0,0,0,0,0,0,0,0,0,0,-0.261799,-0.000130444,-1.5,-nan,0,0,3,0,0,0,0,0,0,0,0,1.9603e-19
650,-3.11558e-12,2.39472e-38,-1.51826e-06,-3.18057e-12,2.39448e-38,-3.62841e-12,-1.06606e-13,0,0,0,0,0,0,0,0,0,0,0,0,0,0,0,0,0,0,0,0,0,-0.261799,-0.000126829,-1.5,-nan,0,0,3,0,0,0,0,0,0,0,0,1.9603e-19
660,-3.11558e-12,2.39472e-38,-1.51826e-06,-3.18057e-12,2.39448e-38,0,-1.06606e-13,0,0,0,0,0,0,0,0,0,0,0,0,0,0,0,0,0,0,0,0,0,-0.261799,-0.000123564,-1.5,-nan,0,0,3,0,0,0,0,0,0,0,0,1.9603e-19
670,-3.11558e-12,2.39472e-38,-1.51826e-06,-3.18057e-12,2.39448e-38,-3.62841e-12,-1.06607e-13,0,0,0,0,0,0,0,0,0,0,0,0,0,0,0,0,0,0,0,0,0,-0.261799,-0.000119896,-1.5,-nan,0,0,3,0,0,0,0,0,0,0,0,1.9603e-19
680,-3.11558e-12,2.39472e-38,-1.51826e-06,-3.18057e-12,2.39448e-38,0,-1.06607e-13,0,0,0,0,0,0,0,0,0,0,0,0,0,0,0,0,0,0,0,0,0,-0.261799,-0.000116338,-1.5,-nan,0,0,3,0,0,0,0,0,0,0,0,1.9603e-19
690,-3.11558e-12,2.39472e-38,-1.51826e-06,-3.18057e-12,2.39448e-38,-3.62841e-12,-1.06607e-13,0,0,0,0,0,0,0,0,0,0,0,0,0,0,0,0,0,0,0,0,0,-0.261799,-0.000112201,-1.5,-nan,0,0,3,0,0,0,0,0,0,0,0,1.9603e-19
700,-3.11558e-12,2.39472e-38,-1.51826e-06,-3.18057e-12,2.39448e-38,0,-1.06607e-13,0,0,0,0,0,0,0,0,0,0,0,0,0,0,0,0,0,0,0,0,0,-0.261799,-0.000108652,-1.5,-nan,0,0,3,0,0,0,0,0,0,0,0,1.9603e-19
710,-3.11558e-12,2.39472e-38,-1.51826e-06,-3.18057e-12,2.39448e-38,-3.62841e-12,-1.06608e-13,0,0,0,0,0,0,0,0,0,0,0,0,0,0,0,0,0,0,0,0,0,-0.261799,-0.000105215,-1.5,-nan,0,0,3,0,0,0,0,0,0,0,0,1.9603e-19
720,-3.11558e-12,2.39472e-38,-1.51826e-06,-3.18057e-12,2.39448e-38,0,-1.06608e-13,0,0,0,0,0,0,0,0,0,0,0,0,0,0,0,0,0,0,0,0,0,-0.261799,-0.000102092,-1.5,-nan,0,0,3,0,0,0,0,0,0,0,0,1.9603e-19
730,-3.11558e-12,2.39472e-38,-1.51826e-06,-3.18057e-12,2.39448e-38,-3.62841e-12,-1.06608e-13,0,0,0,0,0,0,0,0,0,0,0,0,0,0,0,0,0,0,0,0,0,-0.261799,-9.90621e-05,-1.5,-nan,0,0,3,0,0,0,0,0,0,0,0,1.9603e-19
740,-3.11558e-12,2.39472e-38,-1.51826e-06,-3.18057e-12,2.39448e-38,0,-1.06609e-13,0,0,0,0,0,0,0,0,0,0,0,0,0,0,0,0,0,0,0,0,0,-0.261799,-9.61218e-05,-1.5,-nan,0,0,3,0,0,0,0,0,0,0,0,1.9603e-19
750,-3.11558e-12,2.39472e-38,-1.51826e-06,-3.18057e-12,2.39448e-38,-3.62841e-12,-1.06609e-13,0,0,0,0,0,0,0,0,0,0,0,0,0,0,0,0,0,0,0,0,0,-0.261799,-9.27039e-05,-1.5,-nan,0,0,3,0,0,0,0,0,0,0,0,1.9603e-19
760,-3.11558e-12,2.39472e-38,-1.51826e-06,-3.18057e-12,2.39448e-38,0,-1.06609e-13,0,0,0,0,0,0,0,0,0,0,0,0,0,0,0,0,0,0,0,0,0,-0.261799,-8.99523e-05,-1.5,-nan,0,0,3,0,0,0,0,0,0,0,0,1.9603e-19
770,-3.11558e-12,2.39472e-38,-1.51826e-06,-3.18057e-12,2.39448e-38,-3.62841e-12,-1.06609e-13,0,0,0,0,0,0,0,0,0,0,0,0,0,0,0,0,0,0,0,0,0,-0.261799,-8.71071e-05,-1.5,-nan,0,0,3,0,0,0,0,0,0,0,0,1.9603e-19
780,-3.11558e-12,2.39472e-38,-1.51826e-06,-3.18057e-12,2.39448e-38,0,-1.0661e-13,0,0,0,0,0,0,0,0,0,0,0,0,0,0,0,0,0,0,0,0,0,-0.261799,-8.45216e-05,-1.5,-nan,0,0,3,0,0,0,0,0,0,0,0,1.9603e-19
790,-3.11558e-12,2.39472e-38,-1.51826e-06,-3.18057e-12,2.39448e-38,-3.62841e-12,-1.0661e-13,0,0,0,0,0,0,0,0,0,0,0,0,0,0,0,0,0,0,0,0,0,-0.261799,-8.15138e-05,-1.5,-nan,0,0,3,0,0,0,0,0,0,0,0,1.9603e-19
800,-3.11558e-12,2.39472e-38,-1.51826e-06,-3.18057e-12,2.39448e-38,0,-1.0661e-13,0,0,0,0,0,0,0,0,0,0,0,0,0,0,0,0,0,0,0,0,0,-0.261799,-7.90943e-05,-1.5,-nan,0,0,3,0,0,0,0,0,0,0,0,1.9603e-19
810,-3.11558e-12,2.39472e-38,-1.51826e-06,-3.18057e-12,2.39448e-38,-3.62841e-12,-1.0661e-13,0,0,0,0,0,0,0,0,0,0,0,0,0,0,0,0,0,0,0,0,0,-0.261799,-7.6591e-05,-1.5,-nan,0,0,3,0,0,0,0,0,0,0,0,1.9603e-19
820,-3.11558e-12,2.39472e-38,-1.51826e-06,-3.18057e-12,2.39448e-38,0,-1.06611e-13,0,0,0,0,0,0,0,0,0,0,0,0,0,0,0,0,0,0,0,0,0,-0.261799,-7.4018e-05,-1.5,-nan,0,0,3,0,0,0,0,0,0,0,0,1.9603e-19
830,-3.11558e-12,2.39472e-38,-1.51826e-06,-3.18057e-12,2.39448e-38,-3.62841e-12,-1.06611e-13,0,0,0,0,0,0,0,0,0,0,0,0,0,0,0,0,0,0,0,0,0,-0.261799,-7.1821e-05,-1.5,-nan,0,0,3,0,0,0,0,0,0,0,0,1.9603e-19
840,-3.11558e-12,2.39472e-38,-1.51826e-06,-3.18057e-12,2.39448e-38,0,-1.06611e-13,0,0,0,0,0,0,0,0,0,0,0,0,0,0,0,0,0,0,0,0,0,-0.261799,-6.95493e-05,-1.5,-nan,0,0,3,0,0,0,0,0,0,0,0,1.9603e-19
850,-3.11558e-12,2.39472e-38,-1.51826e-06,-3.18057e-12,2.39448e-38,-3.62841e-12,-1.06612e-13,0,0,0,0,0,0,0,0,0,0,0,0,0,0,0,0,0,0,0,0,0,-0.261799,-6.7485e-05,-1.5,-nan,0,0,3,0,0,0,0,0,0,0,0,1.9603e-19
860,-3.11558e-12,2.39472e-38,-1.51826e-06,-3.18057e-12,2.39448e-38,0,-1.06612e-13,0,0,0,0,0,0,0,0,0,0,0,0,0,0,0,0,0,0,0,0,0,-0.261799,-6.57476e-05,-1.5,-nan,0,0,3,0,0,0,0,0,0,0,0,1.9603e-19
870,-3.11558e-12,2.39472e-38,-1.51826e-06,-3.18057e-12,2.39448e-38,-3.62841e-12,-1.06612e-13,0,0,0,0,0,0,0,0,0,0,0,0,0,0,0,0,0,0,0,0,0,-0.261799,-6.40549e-05,-1.5,-nan,0,0,3,0,0,0,0,0,0,0,0,1.9603e-19
880,-3.11558e-12,2.39472e-38,-1.51826e-06,-3.18057e-12,2.39448e-38,0,-1.06612e-13,0,0,0,0,0,0,0,0,0,0,0,0,0,0,0,0,0,0,0,0,0,-0.261799,-6.17772e-05,-1.5,-nan,0,0,3,0,0,0,0,0,0,0,0,1.9603e-19
890,-3.11558e-12,2.39472e-38,-1.51826e-06,-3.18057e-12,2.39448e-38,-3.62841e-12,-1.06613e-13,0,0,0,0,0,0,0,0,0,0,0,0,0,0,0,0,0,0,0,0,0,-0.261799,-5.9822e-05,-1.5,-nan,0,0,3,0,0,0,0,0,0,0,0,1.9603e-19
900,-3.11558e-12,2.39472e-38,-1.51826e-06,-3.18057e-12,2.39448e-38,0,-1.06613e-13,0,0,0,0,0,0,0,0,0,0,0,0,0,0,0,0,0,0,0,0,0,-0.261799,-5.79286e-05,-1.5,-nan,0,0,3,0,0,0,0,0,0,0,0,1.9603e-19
910,-3.11558e-12,2.39472e-38,-1.51826e-06,-3.18057e-12,2.39448e-38,-3.62841e-12,-1.06613e-13,0,0,0,0,0,0,0,0,0,0,0,0,0,0,0,0,0,0,0,0,0,-0.261799,-5.60963e-05,-1.5,-nan,0,0,3,0,0,0,0,0,0,0,0,1.9603e-19
920,-3.11558e-12,2.39472e-38,-1.51826e-06,-3.18057e-12,2.39448e-38,0,-1.06613e-13,0,0,0,0,0,0,0,0,0,0,0,0,0,0,0,0,0,0,0,0,0,-0.261799,-5.44313e-05,-1.5,-nan,0,0,3,0,0,0,0,0,0,0,0,1.9603e-19
930,-3.11558e-12,2.39472e-38,-1.51826e-06,-3.18057e-12,2.39448e-38,-3.62841e-12,-1.06614e-13,0,0,0,0,0,0,0,0,0,0,0,0,0,0,0,0,0,0,0,0,0,-0.261799,-5.28157e-05,-1.5,-nan,0,0,3,0,0,0,0,0,0,0,0,1.9603e-19
940,-3.11558e-12,2.39472e-38,-1.51826e-06,-3.18057e-12,2.39448e-38,0,-1.06614e-13,0,0,0,0,0,0,0,0,0,0,0,0,0,0,0,0,0,0,0,0,0,-0.261799,-5.10414e-05,-1.5,-nan,0,0,3,0,0,0,0,0,0,0,0,1.9603e-19
950,-3.11558e-12,2.39472e-38,-1.51826e-06,-3.18057e-12,2.39448e-38,-3.62841e-12,-1.06614e-13,0,0,0,0,0,0,0,0,0,0,0,0,0,0,0,0,0,0,0,0,0,-0.261799,-4.94259e-05,-1.5,-nan,0,0,3,0,0,0,0,0,0,0,0,1.9603e-19
960,-3.11558e-12,2.39472e-38,-1.51826e-06,-3.18057e-12,2.39448e-38,0,-1.06615e-13,0,0,0,0,0,0,0,0,0,0,0,0,0,0,0,0,0,0,0,0,0,-0.261799,-4.78616e-05,-1.5,-nan,0,0,3,0,0,0,0,0,0,0,0,1.9603e-19
970,-3.11558e-12,2.39472e-38,-1.51826e-06,-3.18057e-12,2.39448e-38,-3.62841e-12,-1.06615e-13,0,0,0,0,0,0,0,0,0,0,0,0,0,0,0,0,0,0,0,0,0,-0.261799,-4.63477e-05,-1.5,-nan,0,0,3,0,0,0,0,0,0,0,0,1.9603e-19
980,-3.11558e-12,2.39472e-38,-1.51826e-06,-3.18057e-12,2.39448e-38,0,-1.06615e-13,0,0,0,0,0,0,0,0,0,0,0,0,0,0,0,0,0,0,0,0,0,-0.261799,-4.49721e-05,-1.5,-nan,0,0,3,0,0,0,0,0,0,0,0,1.9603e-19
990,-3.11558e-12,2.39472e-38,-1.51826e-06,-3.18057e-12,2.39448e-38,-3.62841e-12,-1.06615e-13,0,0,0,0,0,0,0,0,0,0,0,0,0,0,0,0,0,0,0,0,0,-0.261799,-4.36372e-05,-1.5,-nan,0,0,3,0,0,0,0,0,0,0,0,1.9603e-19
1000,-3.11558e-12,2.39472e-38,-1.51826e-06,-3.18057e-12,2.39448e-38,0,-1.06616e-13,0,0,0,0,0,0,0,0,0,0,0,0,0,0,0,0,0,0,0,0,0,-0.261799,-4.2342e-05,-1.5,-nan,0,0,3,0,0,0,0,0,0,0,0,1.9603e-19
1010,-3.11558e-12,2.39472e-38,-1.51826e-06,-3.18057e-12,2.39448e-38,-3.62841e-12,-1.06616e-13,0,0,0,0,0,0,0,0,0,0,0,0,0,0,0,0,0,0,0,0,0,-0.261799,-4.07519e-05,-1.5,-nan,0,0,3,0,0,0,0,0,0,0,0,1.9603e-19
1020,-3.11558e-12,2.39472e-38,-1.51826e-06,-3.18057e-12,2.39448e-38,0,-1.06616e-13,0,0,0,0,0,0,0,0,0,0,0,0,0,0,0,0,0,0,0,0,0,-0.261799,-3.94621e-05,-1.5,-nan,0,0,3,0,0,0,0,0,0,0,0,1.9603e-19
1030,-3.11558e-12,2.39472e-38,-1.51826e-06,-3.18057e-12,2.39448e-38,-3.62841e-12,-1.06616e-13,0,0,0,0,0,0,0,0,0,0,0,0,0,0,0,0,0,0,0,0,0,-0.261799,-3.82139e-05,-1.5,-nan,0,0,3,0,0,0,0,0,0,0,0,1.9603e-19
1040,-3.11558e-12,2.39472e-38,-1.51826e-06,-3.18057e-12,2.39448e-38,0,-1.06617e-13,0,0,0,0,0,0,0,0,0,0,0,0,0,0,0,0,0,0,0,0,0,-0.261799,-3.70796e-05,-1.5,-nan,0,0,3,0,0,0,0,0,0,0,0,1.9603e-19
1050,-3.11558e-12,2.39472e-38,-1.51826e-06,-3.18057e-12,2.39448e-38,-3.62841e-12,-1.06617e-13,0,0,0,0,0,0,0,0,0,0,0,0,0,0,0,0,0,0,0,0,0,-0.261799,-3.59791e-05,-1.5,-nan,0,0,3,0,0,0,0,0,0,0,0,1.9603e-19
1060,-3.11558e-12,2.39472e-38,-1.51826e-06,-3.18057e-12,2.39448e-38,0,-1.06617e-13,0,0,0,0,0,0,0,0,0,0,0,0,0,0,0,0,0,0,0,0,0,-0.261799,-3.49111e-05,-1.5,-nan,0,0,3,0,0,0,0,0,0,0,0,1.9603e-19
1070,-3.11558e-12,2.39472e-38,-1.51826e-06,-3.18057e-12,2.39448e-38,-3.62841e-12,-1.06618e-13,0,0,0,0,0,0,0,0,0,0,0,0,0,0,0,0,0,0,0,0,0,-0.261799,-3.36698e-05,-1.5,-nan,0,0,3,0,0,0,0,0,0,0,0,1.9603e-19
1080,-3.11558e-12,2.39472e-38,-1.51826e-06,-3.18057e-12,2.39448e-38,0,-1.06618e-13,0,0,0,0,0,0,0,0,0,0,0,0,0,0,0,0,0,0,0,0,0,-0.261799,-3.27371e-05,-1.5,-nan,0,0,3,0,0,0,0,0,0,0,0,1.9603e-19
1090,-3.11558e-12,2.39472e-38,-1.51826e-06,-3.18057e-12,2.39448e-38,-3.62841e-12,-1.06618e-13,0,0,0,0,0,0,0,0,0,0,0,0,0,0,0,0,0,0,0,0,0,-0.261799,-3.17016e-05,-1.5,-nan,0,0,3,0,0,0,0,0,0,0,0,1.9603e-19
1100,-3.11558e-12,2.39472e-38,-1.51826e-06,-3.18057e-12,2.39448e-38,0,-1.06618e-13,0,0,0,0,0,0,0,0,0,0,0,0,0,0,0,0,0,0,0,0,0,-0.261799,-3.07606e-05,-1.5,-nan,0,0,3,0,0,0,0,0,0,0,0,1.9603e-19
1110,-3.11558e-12,2.39472e-38,-1.51826e-06,-3.18057e-12,2.39448e-38,-3.62841e-12,-1.06619e-13,0,0,0,0,0,0,0,0,0,0,0,0,0,0,0,0,0,0,0,0,0,-0.261799,-2.98476e-05,-1.5,-nan,0,0,3,0,0,0,0,0,0,0,0,1.9603e-19
1120,-3.11558e-12,2.39472e-38,-1.51826e-06,-3.18057e-12,2.39448e-38,0,-1.06619e-13,0,0,0,0,0,0,0,0,0,0,0,0,0,0,0,0,0,0,0,0,0,-0.261799,-2.89617e-05,-1.5,-nan,0,0,3,0,0,0,0,0,0,0,0,1.9603e-19
1130,-3.11558e-12,2.39472e-38,-1.51826e-06,-3.18057e-12,2.39448e-38,-3.62841e-12,-1.06619e-13,0,0,0,0,0,0,0,0,0,0,0,0,0,0,0,0,0,0,0,0,0,-0.261799,-2.79318e-05,-1.5,-nan,0,0,3,0,0,0,0,0,0,0,0,1.9603e-19
1140,-3.11558e-12,2.39472e-38,-1.51826e-06,-3.18057e-12,2.39448e-38,0,-1.06619e-13,0,0,0,0,0,0,0,0,0,0,0,0,0,0,0,0,0,0,0,0,0,-0.261799,-2.70484e-05,-1.5,-nan,0,0,3,0,0,0,0,0,0,0,0,1.9603e-19
1150,-3.11558e-12,2.39472e-38,-1.51826e-06,-3.18057e-12,2.39448e-38,-3.62841e-12,-1.0662e-13,0,0,0,0,0,0,0,0,0,0,0,0,0,0,0,0,0,0,0,0,0,-0.261799,-2.15174e-05,-1.5,-nan,0,0,3,0,0,0,0,0,0,0,0,1.9603e-19
1160,-3.11558e-12,2.39472e-38,-1.51826e-06,-3.18057e-12,2.39448e-38,0,-1.0662e-13,0,0,0,0,0,0,0,0,0,0,0,0,0,0,0,0,0,0,0,0,0,-0.261799,-2.04142e-05,-1.5,-nan,0,0,3,0,0,0,0,0,0,0,0,1.9603e-19
1170,-3.11558e-12,2.39472e-38,-1.51826e-06,-3.18057e-12,2.39448e-38,-3.62841e-12,-1.0662e-13,0,0,0,0,0,0,0,0,0,0,0,0,0,0,0,0,0,0,0,0,0,-0.261799,-1.97685e-05,-1.5,-nan,0,0,3,0,0,0,0,0,0,0,0,1.9603e-19
1180,-3.11558e-12,2.39472e-38,-1.51826e-06,-3.18057e-12,2.39448e-38,0,-1.0662e-13,0,0,0,0,0,0,0,0,0,0,0,0,0,0,0,0,0,0,0,0,0,-0.261799,-1.91817e-05,-1.5,-nan,0,0,3,0,0,0,0,0,0,0,0,1.9603e-19
1190,-3.11558e-12,2.39472e-38,-1.51826e-06,-3.18057e-12,2.39448e-38,-3.62841e-12,-1.06621e-13,0,0,0,0,0,0,0,0,0,0,0,0,0,0,0,0,0,0,0,0,0,-0.261799,-1.84996e-05,-1.5,-nan,0,0,3,0,0,0,0,0,0,0,0,1.9603e-19
1200,-3.11558e-12,2.39472e-38,-1.51826e-06,-3.18057e-12,2.39448e-38,0,-1.06621e-13,0,0,0,0,0,0,0,0,0,0,0,0,0,0,0,0,0,0,0,0,0,-0.261799,-1.78055e-05,-1.5,-nan,0,0,3,0,0,0,0,0,0,0,0,1.9603e-19
1210,-3.11558e-12,2.39472e-38,-1.51826e-06,-3.18057e-12,2.39448e-38,-3.62841e-12,-1.06621e-13,0,0,0,0,0,0,0,0,0,0,0,0,0,0,0,0,0,0,0,0,0,-0.261799,-1.71723e-05,-1.5,-nan,0,0,3,0,0,0,0,0,0,0,0,1.9603e-19
1220,-3.11558e-12,2.39472e-38,-1.51826e-06,-3.18057e-12,2.39448e-38,0,-1.06622e-13,0,0,0,0,0,0,0,0,0,0,0,0,0,0,0,0,0,0,0,0,0,-0.261799,-1.66626e-05,-1.5,-nan,0,0,3,0,0,0,0,0,0,0,0,1.9603e-19
1230,-3.11558e-12,2.39472e-38,-1.51826e-06,-3.18057e-12,2.39448e-38,-3.62841e-12,-1.06622e-13,0,0,0,0,0,0,0,0,0,0,0,0,0,0,0,0,0,0,0,0,0,-0.261799,-1.61356e-05,-1.5,-nan,0,0,3,0,0,0,0,0,0,0,0,1.9603e-19
1240,-3.11558e-12,2.39472e-38,-1.51826e-06,-3.18057e-12,2.39448e-38,0,-1.06622e-13,0,0,0,0,0,0,0,0,0,0,0,0,0,0,0,0,0,0,0,0,0,-0.261799,-1.56252e-05,-1.5,-nan,0,0,3,0,0,0,0,0,0,0,0,1.9603e-19
1250,-3.11558e-12,2.39472e-38,-1.51826e-06,-3.18057e-12,2.39448e-38,-3.62841e-12,-1.06622e-13,0,0,0,0,0,0,0,0,0,0,0,0,0,0,0,0,0,0,0,0,0,-0.261799,-1.51614e-05,-1.5,-nan,0,0,3,0,0,0,0,0,0,0,0,1.9603e-19
1260,-3.11558e-12,2.39472e-38,-1.51826e-06,-3.18057e-12,2.39448e-38,0,-1.06623e-13,0,0,0,0,0,0,0,0,0,0,0,0,0,0,0,0,0,0,0,0,0,-0.261799,-1.45622e-05,-1.5,-nan,0,0,3,0,0,0,0,0,0,0,0,1.9603e-19
1270,-3.11558e-12,2.39472e-38,-1.51826e-06,-3.18057e-12,2.39448e-38,-3.62841e-12,-1.06623e-13,0,0,0,0,0,0,0,0,0,0,0,0,0,0,0,0,0,0,0,0,0,-0.261799,-1.41587e-05,-1.5,-nan,0,0,3,0,0,0,0,0,0,0,0,1.9603e-19
1280,-3.11558e-12,2.39472e-38,-1.51826e-06,-3.18057e-12,2.39448e-38,0,-1.06623e-13,0,0,0,0,0,0,0,0,0,0,0,0,0,0,0,0,0,0,0,0,0,-0.261799,-1.37664e-05,-1.5,-nan,0,0,3,0,0,0,0,0,0,0,0,1.9603e-19
1290,-3.11558e-12,2.39472e-38,-1.51826e-06,-3.18057e-12,2.39448e-38,-3.62841e-12,-1.06623e-13,0,0,0,0,0,0,0,0,0,0,0,0,0,0,0,0,0,0,0,0,0,-0.261799,-1.3412e-05,-1.5,-nan,0,0,3,0,0,0,0,0,0,0,0,1.9603e-19
1300,-3.11558e-12,2.39472e-38,-1.51826e-06,-3.18057e-12,2.39448e-38,0,-1.06624e-13,0,0,0,0,0,0,0,0,0,0,0,0,0,0,0,0,0,0,0,0,0,-0.261799,-1.30139e-05,-1.5,-nan,0,0,3,0,0,0,0,0,0,0,0,1.9603e-19
1310,-3.11558e-12,2.39472e-38,-1.51826e-06,-3.18057e-12,2.39448e-38,-3.62841e-12,-1.06624e-13,0,0,0,0,0,0,0,0,0,0,0,0,0,0,0,0,0,0,0,0,0,-0.261799,-1.26277e-05,-1.5,-nan,0,0,3,0,0,0,0,0,0,0,0,1.9603e-19
1320,-3.11558e-12,2.39472e-38,-1.51826e-06,-3.18057e-12,2.39448e-38,0,-1.06624e-13,0,0,0,0,0,0,0,0,0,0,0,0,0,0,0,0,0,0,0,0,0,-0.261799,-1.21538e-05,-1.5,-nan,0,0,3,0,0,0,0,0,0,0,0,1.9603e-19
1330,-3.11558e-12,2.39472e-38,-1.51826e-06,-3.18057e-12,2.39448e-38,-3.62841e-12,-1.06625e-13,0,0,0,0,0,0,0,0,0,0,0,0,0,0,0,0,0,0,0,0,0,-0.261799,-1.17455e-05,-1.5,-nan,0,0,3,0,0,0,0,0,0,0,0,1.9603e-19
1340,-3.11558e-12,2.39472e-38,-1.51826e-06,-3.18057e-12,2.39448e-38,0,-1.06625e-13,0,0,0,0,0,0,0,0,0,0,0,0,0,0,0,0,0,0,0,0,0,-0.261799,-1.13507e-05,-1.5,-nan,0,0,3,0,0,0,0,0,0,0,0,1.9603e-19
1350,-3.11558e-12,2.39472e-38,-1.51826e-06,-3.18057e-12,2.39448e-38,-3.62841e-12,-1.06625e-13,0,0,0,0,0,0,0,0,0,0,0,0,0,0,0,0,0,0,0,0,0,-0.261799,-1.09916e-05,-1.5,-nan,0,0,3,0,0,0,0,0,0,0,0,1.9603e-19
1360,-3.11558e-12,2.39472e-38,-1.51826e-06,-3.18057e-12,2.39448e-38,0,-1.06625e-13,0,0,0,0,0,0,0,0,0,0,0,0,0,0,0,0,0,0,0,0,0,-0.261799,-1.06656e-05,-1.5,-nan,0,0,3,0,0,0,0,0,0,0,0,1.9603e-19
1370,-3.11558e-12,2.39472e-38,-1.51826e-06,-3.18057e-12,2.39448e-38,-3.62841e-12,-1.06626e-13,0,0,0,0,0,0,0,0,0,0,0,0,0,0,0,0,0,0,0,0,0,-0.261799,-1.02235e-05,-1.5,-nan,0,0,3,0,0,0,0,0,0,0,0,1.9603e-19
1380,-3.11558e-12,2.39472e-38,-1.51826e-06,-3.18057e-12,2.39448e-38,0,-1.06626e-13,0,0,0,0,0,0,0,0,0,0,0,0,0,0,0,0,0,0,0,0,0,-0.261799,-9.83986e-06,-1.5,-nan,0,0,3,0,0,0,0,0,0,0,0,1.9603e-19
1390,-3.11558e-12,2.39472e-38,-1.51826e-06,-3.18057e-12,2.39448e-38,-3.62841e-12,-1.06626e-13,0,0,0,0,0,0,0,0,0,0,0,0,0,0,0,0,0,0,0,0,0,-0.261799,-9.52862e-06,-1.5,-nan,0,0,3,0,0,0,0,0,0,0,0,1.9603e-19
1400,-3.11558e-12,2.39472e-38,-1.51826e-06,-3.18057e-12,2.39448e-38,0,-1.06626e-13,0,0,0,0,0,0,0,0,0,0,0,0,0,0,0,0,0,0,0,0,0,-0.261799,-9.22704e-06,-1.5,-nan,0,0,3,0,0,0,0,0,0,0,0,1.9603e-19
1410,-3.11558e-12,2.39472e-38,-1.51826e-06,-3.18057e-12,2.39448e-38,-3.62841e-12,-1.06627e-13,0,0,0,0,0,0,0,0,0,0,0,0,0,0,0,0,0,0,0,0,0,-0.261799,-8.95317e-06,-1.5,-nan,0,0,3,0,0,0,0,0,0,0,0,1.9603e-19
1420,-3.11558e-12,2.39472e-38,-1.51826e-06,-3.18057e-12,2.39448e-38,0,-1.06627e-13,0,0,0,0,0,0,0,0,0,0,0,0,0,0,0,0,0,0,0,0,0,-0.261799,-8.65218e-06,-1.5,-nan,0,0,3,0,0,0,0,0,0,0,0,1.9603e-19
1430,-3.11558e-12,2.39472e-38,-1.51826e-06,-3.18057e-12,2.39448e-38,-3.62841e-12,-1.06627e-13,0,0,0,0,0,0,0,0,0,0,0,0,0,0,0,0,0,0,0,0,0,-0.261799,-8.39537e-06,-1.5,-nan,0,0,3,0,0,0,0,0,0,0,0,1.9603e-19
1440,-3.11558e-12,2.39472e-38,-1.51826e-06,-3.18057e-12,2.39448e-38,0,-1.06628e-13,0,0,0,0,0,0,0,0,0,0,0,0,0,0,0,0,0,0,0,0,0,-0.261799,-8.06386e-06,-1.5,-nan,0,0,3,0,0,0,0,0,0,0,0,1.9603e-19
1450,-3.11558e-12,2.39472e-38,-1.51826e-06,-3.18057e-12,2.39448e-38,-3.62841e-12,-1.06628e-13,0,0,0,0,0,0,0,0,0,0,0,0,0,0,0,0,0,0,0,0,0,-0.261799,-7.74545e-06,-1.5,-nan,0,0,3,0,0,0,0,0,0,0,0,1.9603e-19
1460,-3.11558e-12,2.39472e-38,-1.51826e-06,-3.18057e-12,2.39448e-38,0,-1.06628e-13,0,0,0,0,0,0,0,0,0,0,0,0,0,0,0,0,0,0,0,0,0,-0.261799,-7.50046e-06,-1.5,-nan,0,0,3,0,0,0,0,0,0,0,0,1.9603e-19
1470,-3.11558e-12,2.39472e-38,-1.51826e-06,-3.18057e-12,2.39448e-38,-3.62841e-12,-1.06628e-13,0,0,0,0,0,0,0,0,0,0,0,0,0,0,0,0,0,0,0,0,0,-0.261799,-7.26307e-06,-1.5,-nan,0,0,3,0,0,0,0,0,0,0,0,1.9603e-19
1480,-3.11558e-12,2.39472e-38,-1.51826e-06,-3.18057e-12,2.39448e-38,0,-1.06629e-13,0,0,0,0,0,0,0,0,0,0,0,0,0,0,0,0,0,0,0,0,0,-0.261799,-7.07608e-06,-1.5,-nan,0,0,3,0,0,0,0,0,0,0,0,1.9603e-19
1490,-3.11558e-12,2.39472e-38,-1.51826e-06,-3.18057e-12,2.39448e-38,-3.62841e-12,-1.06629e-13,0,0,0,0,0,0,0,0,0,0,0,0,0,0,0,0,0,0,0,0,0,-0.261799,-6.8939e-06,-1.5,-nan,0,0,3,0,0,0,0,0,0,0,0,1.9603e-19
1500,-3.11558e-12,2.39472e-38,-1.51826e-06,-3.18057e-12,2.39448e-38,0,-1.06629e-13,0,0,0,0,0,0,0,0,0,0,0,0,0,0,0,0,0,0,0,0,0,-0.261799,-6.66215e-06,-1.5,-nan,0,0,3,0,0,0,0,0,0,0,0,1.9603e-19
1510,-3.11558e-12,2.39472e-38,-1.51826e-06,-3.18057e-12,2.39448e-38,-3.62841e-12,-1.06629e-13,0,0,0,0,0,0,0,0,0,0,0,0,0,0,0,0,0,0,0,0,0,-0.261799,-6.45129e-06,-1.5,-nan,0,0,3,0,0,0,0,0,0,0,0,1.9603e-19
1520,-3.11558e-12,2.39472e-38,-1.51826e-06,-3.18057e-12,2.39448e-38,0,-1.0663e-13,0,0,0,0,0,0,0,0,0,0,0,0,0,0,0,0,0,0,0,0,0,-0.261799,-6.24711e-06,-1.5,-nan,0,0,3,0,0,0,0,0,0,0,0,1.9603e-19
1530,-3.11558e-12,2.39472e-38,-1.51826e-06,-3.18057e-12,2.39448e-38,-3.62841e-12,-1.0663e-13,0,0,0,0,0,0,0,0,0,0,0,0,0,0,0,0,0,0,0,0,0,-0.261799,-6.00043e-06,-1.5,-nan,0,0,3,0,0,0,0,0,0,0,0,1.9603e-19
1540,-3.11558e-12,2.39472e-38,-1.51826e-06,-3.18057e-12,2.39448e-38,0,-1.0663e-13,0,0,0,0,0,0,0,0,0,0,0,0,0,0,0,0,0,0,0,0,0,-0.261799,-5.82242e-06,-1.5,-nan,0,0,3,0,0,0,0,0,0,0,0,1.9603e-19
1550,-3.11558e-12,2.39472e-38,-1.51826e-06,-3.18057e-12,2.39448e-38,-3.62841e-12,-1.06631e-13,0,0,0,0,0,0,0,0,0,0,0,0,0,0,0,0,0,0,0,0,0,-0.261799,-5.63814e-06,-1.5,-nan,0,0,3,0,0,0,0,0,0,0,0,1.9603e-19
1560,-3.11558e-12,2.39472e-38,-1.51826e-06,-3.18057e-12,2.39448e-38,0,-1.06631e-13,0,0,0,0,0,0,0,0,0,0,0,0,0,0,0,0,0,0,0,0,0,-0.261799,-5.42659e-06,-1.5,-nan,0,0,3,0,0,0,0,0,0,0,0,1.9603e-19
1570,-3.11558e-12,2.39472e-38,-1.51826e-06,-3.18057e-12,2.39448e-38,-3.62841e-12,-1.06631e-13,0,0,0,0,0,0,0,0,0,0,0,0,0,0,0,0,0,0,0,0,0,-0.261799,-5.25483e-06,-1.5,-nan,0,0,3,0,0,0,0,0,0,0,0,1.9603e-19
1580,-3.11558e-12,2.39472e-38,-1.51826e-06,-3.18057e-12,2.39448e-38,0,-1.06631e-13,0,0,0,0,0,0,0,0,0,0,0,0,0,0,0,0,0,0,0,0,0,-0.261799,-5.06798e-06,-1.5,-nan,0,0,3,0,0,0,0,0,0,0,0,1.9603e-19
1590,-3.11558e-12,2.39472e-38,-1.51826e-06,-3.18057e-12,2.39448e-38,-3.62841e-12,-1.06632e-13,0,0,0,0,0,0,0,0,0,0,0,0,0,0,0,0,0,0,0,0,0,-0.261799,-4.91756e-06,-1.5,-nan,0,0,3,0,0,0,0,0,0,0,0,1.9603e-19
1600,-3.11558e-12,2.39472e-38,-1.51826e-06,-3.18057e-12,2.39448e-38,0,-1.06632e-13,0,0,0,0,0,0,0,0,0,0,0,0,0,0,0,0,0,0,0,0,0,-0.261799,-4.73288e-06,-1.5,-nan,0,0,3,0,0,0,0,0,0,0,0,1.9603e-19
1610,-3.11558e-12,2.39472e-38,-1.51826e-06,-3.18057e-12,2.39448e-38,-3.62841e-12,-1.06632e-13,0,0,0,0,0,0,0,0,0,0,0,0,0,0,0,0,0,0,0,0,0,-0.261799,-4.5924e-06,-1.5,-nan,0,0,3,0,0,0,0,0,0,0,0,1.9603e-19
1620,-3.11558e-12,2.39472e-38,-1.51826e-06,-3.18057e-12,2.39448e-38,0,-1.06632e-13,0,0,0,0,0,0,0,0,0,0,0,0,0,0,0,0,0,0,0,0,0,-0.261799,-4.42897e-06,-1.5,-nan,0,0,3,0,0,0,0,0,0,0,0,1.9603e-19
1630,-3.11558e-12,2.39472e-38,-1.51826e-06,-3.18057e-12,2.39448e-38,-3.62841e-12,-1.06633e-13,0,0,0,0,0,0,0,0,0,0,0,0,0,0,0,0,0,0,0,0,0,-0.261799,-4.27149e-06,-1.5,-nan,0,0,3,0,0,0,0,0,0,0,0,1.9603e-19
1640,-3.11558e-12,2.39472e-38,-1.51826e-06,-3.18057e-12,2.39448e-38,0,-1.06633e-13,0,0,0,0,0,0,0,0,0,0,0,0,0,0,0,0,0,0,0,0,0,-0.261799,-4.1447e-06,-1.5,-nan,0,0,3,0,0,0,0,0,0,0,0,1.9603e-19
1650,-3.11558e-12,2.39472e-38,-1.51826e-06,-3.18057e-12,2.39448e-38,-3.62841e-12,-1.06633e-13,0,0,0,0,0,0,0,0,0,0,0,0,0,0,0,0,0,0,0,0,0,-0.261799,-4.01352e-06,-1.5,-nan,0,0,3,0,0,0,0,0,0,0,0,1.9603e-19
1660,-3.11558e-12,2.39472e-38,-1.51826e-06,-3.18057e-12,2.39448e-38,0,-1.06634e-13,0,0,0,0,0,0,0,0,0,0,0,0,0,0,0,0,0,0,0,0,0,-0.261799,-3.8786e-06,-1.5,-nan,0,0,3,0,0,0,0,0,0,0,0,1.9603e-19
1670,-3.11558e-12,2.39472e-38,-1.51826e-06,-3.18057e-12,2.39448e-38,-3.62841e-12,-1.06634e-13,0,0,0,0,0,0,0,0,0,0,0,0,0,0,0,0,0,0,0,0,0,-0.261799,-3.76354e-06,-1.5,-nan,0,0,3,0,0,0,0,0,0,0,0,1.9603e-19
1680,-3.11558e-12,2.39472e-38,-1.51826e-06,-3.18057e-12,2.39448e-38,0,-1.06634e-13,0,0,0,0,0,0,0,0,0,0,0,0,0,0,0,0,0,0,0,0,0,-0.261799,-3.59275e-06,-1.5,-nan,0,0,3,0,0,0,0,0,0,0,0,1.9603e-19
1690,-3.11558e-12,2.39472e-38,-1.51826e-06,-3.18057e-12,2.39448e-38,-3.62841e-12,-1.06634e-13,0,0,0,0,0,0,0,0,0,0,0,0,0,0,0,0,0,0,0,0,0,-0.261799,-3.50025e-06,-1.5,-nan,0,0,3,0,0,0,0,0,0,0,0,1.9603e-19
1700,-3.11558e-12,2.39472e-38,-1.51826e-06,-3.18057e-12,2.39448e-38,0,-1.06635e-13,0,0,0,0,0,0,0,0,0,0,0,0,0,0,0,0,0,0,0,0,0,-0.261799,-3.40329e-06,-1.5,-nan,0,0,3,0,0,0,0,0,0,0,0,1.9603e-19
1710,-3.11558e-12,2.39472e-38,-1.51826e-06,-3.18057e-12,2.39448e-38,-3.62841e-12,-1.06635e-13,0,0,0,0,0,0,0,0,0,0,0,0,0,0,0,0,0,0,0,0,0,-0.261799,-3.30897e-06,-1.5,-nan,0,0,3,0,0,0,0,0,0,0,0,1.9603e-19
1720,-3.11558e-12,2.39472e-38,-1.51826e-06,-3.18057e-12,2.39448e-38,0,-1.06635e-13,0,0,0,0,0,0,0,0,0,0,0,0,0,0,0,0,0,0,0,0,0,-0.261799,-3.20431e-06,-1.5,-nan,0,0,3,0,0,0,0,0,0,0,0,1.9603e-19
1730,-3.11558e-12,2.39472e-38,-1.51826e-06,-3.18057e-12,2.39448e-38,-3.62841e-12,-1.06635e-13,0,0,0,0,0,0,0,0,0,0,0,0,0,0,0,0,0,0,0,0,0,-0.261799,-3.09666e-06,-1.5,-nan,0,0,3,0,0,0,0,0,0,0,0,1.9603e-19
1740,-3.11558e-12,2.39472e-38,-1.51826e-06,-3.18057e-12,2.39448e-38,0,-1.06636e-13,0,0,0,0,0,0,0,0,0,0,0,0,0,0,0,0,0,0,0,0,0,-0.261799,-2.99256e-06,-1.5,-nan,0,0,3,0,0,0,0,0,0,0,0,1.9603e-19
1750,-3.11558e-12,2.39472e-38,-1.51826e-06,-3.18057e-12,2.39448e-38,-3.62841e-12,-1.06636e-13,0,0,0,0,0,0,0,0,0,0,0,0,0,0,0,0,0,0,0,0,0,-0.261799,-2.89785e-06,-1.5,-nan,0,0,3,0,0,0,0,0,0,0,0,1.9603e-19
1760,-3.11558e-12,2.39472e-38,-1.51826e-06,-3.18057e-12,2.39448e-38,0,-1.06636e-13,0,0,0,0,0,0,0,0,0,0,0,0,0,0,0,0,0,0,0,0,0,-0.261799,-2.66388e-06,-1.5,-nan,0,0,3,0,0,0,0,0,0,0,0,1.9603e-19
1770,-3.11558e-12,2.39472e-38,-1.51826e-06,-3.18057e-12,2.39448e-38,-3.62841e-12,-1.06636e-13,0,0,0,0,0,0,0,0,0,0,0,0,0,0,0,0,0,0,0,0,0,-0.261799,-2.58482e-06,-1.5,-nan,0,0,3,0,0,0,0,0,0,0,0,1.9603e-19
1780,-3.11558e-12,2.39472e-38,-1.51826e-06,-3.18057e-12,2.39448e-38,0,-1.06637e-13,0,0,0,0,0,0,0,0,0,0,0,0,0,0,0,0,0,0,0,0,0,-0.261799,-2.5081e-06,-1.5,-nan,0,0,3,0,0,0,0,0,0,0,0,1.9603e-19
1790,-3.11558e-12,2.39472e-38,-1.51826e-06,-3.18057e-12,2.39448e-38,-3.62841e-12,-1.06637e-13,0,0,0,0,0,0,0,0,0,0,0,0,0,0,0,0,0,0,0,0,0,-0.261799,-2.41884e-06,-1.5,-nan,0,0,3,0,0,0,0,0,0,0,0,1.9603e-19
1800,-3.11558e-12,2.39472e-38,-1.51826e-06,-3.18057e-12,2.39448e-38,0,-1.06637e-13,0,0,0,0,0,0,0,0,0,0,0,0,0,0,0,0,0,0,0,0,0,-0.261799,-2.34229e-06,-1.5,-nan,0,0,3,0,0,0,0,0,0,0,0,1.9603e-19
1810,-3.11558e-12,2.39472e-38,-1.51826e-06,-3.18057e-12,2.39448e-38,-3.62841e-12,-1.06638e-13,0,0,0,0,0,0,0,0,0,0,0,0,0,0,0,0,0,0,0,0,0,-0.261799,-2.259e-06,-1.5,-nan,0,0,3,0,0,0,0,0,0,0,0,1.9603e-19
1820,-3.11558e-12,2.39472e-38,-1.51826e-06,-3.18057e-12,2.39448e-38,0,-1.06638e-13,0,0,0,0,0,0,0,0,0,0,0,0,0,0,0,0,0,0,0,0,0,-0.261799,-2.19195e-06,-1.5,-nan,0,0,3,0,0,0,0,0,0,0,0,1.9603e-19
1830,-3.11558e-12,2.39472e-38,-1.51826e-06,-3.18057e-12,2.39448e-38,-3.62841e-12,-1.06638e-13,0,0,0,0,0,0,0,0,0,0,0,0,0,0,0,0,0,0,0,0,0,-0.261799,-2.12689e-06,-1.5,-nan,0,0,3,0,0,0,0,0,0,0,0,1.9603e-19
1840,-3.11558e-12,2.39472e-38,-1.51826e-06,-3.18057e-12,2.39448e-38,0,-1.06638e-13,0,0,0,0,0,0,0,0,0,0,0,0,0,0,0,0,0,0,0,0,0,-0.261799,-2.0429e-06,-1.5,-nan,0,0,3,0,0,0,0,0,0,0,0,1.9603e-19
1850,-3.11558e-12,2.39472e-38,-1.51826e-06,-3.18057e-12,2.39448e-38,-3.62841e-12,-1.06639e-13,0,0,0,0,0,0,0,0,0,0,0,0,0,0,0,0,0,0,0,0,0,-0.261799,-1.97026e-06,-1.5,-nan,0,0,3,0,0,0,0,0,0,0,0,1.9603e-19
1860,-3.11558e-12,2.39472e-38,-1.51826e-06,-3.18057e-12,2.39448e-38,0,-1.06639e-13,0,0,0,0,0,0,0,0,0,0,0,0,0,0,0,0,0,0,0,0,0,-0.261799,-1.90407e-06,-1.5,-nan,0,0,3,0,0,0,0,0,0,0,0,1.9603e-19
1870,-3.11558e-12,2.39472e-38,-1.51826e-06,-3.18057e-12,2.39448e-38,-3.62841e-12,-1.06639e-13,0,0,0,0,0,0,0,0,0,0,0,0,0,0,0,0,0,0,0,0,0,-0.261799,-1.84756e-06,-1.5,-nan,0,0,3,0,0,0,0,0,0,0,0,1.9603e-19
1880,-3.11558e-12,2.39472e-38,-1.51826e-06,-3.18057e-12,2.39448e-38,0,-1.06639e-13,0,0,0,0,0,0,0,0,0,0,0,0,0,0,0,0,0,0,0,0,0,-0.261799,-1.78912e-06,-1.5,-nan,0,0,3,0,0,0,0,0,0,0,0,1.9603e-19
1890,-3.11558e-12,2.39472e-38,-1.51826e-06,-3.18057e-12,2.39448e-38,-3.62841e-12,-1.0664e-13,0,0,0,0,0,0,0,0,0,0,0,0,0,0,0,0,0,0,0,0,0,-0.261799,-1.72193e-06,-1.5,-nan,0,0,3,0,0,0,0,0,0,0,0,1.9603e-19
1900,-3.11558e-12,2.39472e-38,-1.51826e-06,-3.18057e-12,2.39448e-38,0,-1.0664e-13,0,0,0,0,0,0,0,0,0,0,0,0,0,0,0,0,0,0,0,0,0,-0.261799,-1.67423e-06,-1.5,-nan,0,0,3,0,0,0,0,0,0,0,0,1.9603e-19
1910,-3.11558e-12,2.39472e-38,-1.51826e-06,-3.18057e-12,2.39448e-38,-3.62841e-12,-1.0664e-13,0,0,0,0,0,0,0,0,0,0,0,0,0,0,0,0,0,0,0,0,0,-0.261799,-1.61469e-06,-1.5,-nan,0,0,3,0,0,0,0,0,0,0,0,1.9603e-19
1920,-3.11558e-12,2.39472e-38,-1.51826e-06,-3.18057e-12,2.39448e-38,0,-1.06641e-13,0,0,0,0,0,0,0,0,0,0,0,0,0,0,0,0,0,0,0,0,0,-0.261799,-1.56997e-06,-1.5,-nan,0,0,3,0,0,0,0,0,0,0,0,1.9603e-19
1930,-3.11558e-12,2.39472e-38,-1.51826e-06,-3.18057e-12,2.39448e-38,-3.62841e-12,-1.06641e-13,0,0,0,0,0,0,0,0,0,0,0,0,0,0,0,0,0,0,0,0,0,-0.261799,-1.52337e-06,-1.5,-nan,0,0,3,0,0,0,0,0,0,0,0,1.9603e-19
1940,-3.11558e-12,2.39472e-38,-1.51826e-06,-3.18057e-12,2.39448e-38,0,-1.06641e-13,0,0,0,0,0,0,0,0,0,0,0,0,0,0,0,0,0,0,0,0,0,-0.261799,-1.47215e-06,-1.5,-nan,0,0,3,0,0,0,0,0,0,0,0,1.9603e-19
1950,-3.11558e-12,2.39472e-38,-1.51826e-06,-3.18057e-12,2.39448e-38,-3.62841e-12,-1.06641e-13,0,0,0,0,0,0,0,0,0,0,0,0,0,0,0,0,0,0,0,0,0,-0.261799,-1.42846e-06,-1.5,-nan,0,0,3,0,0,0,0,0,0,0,0,1.9603e-19
1960,-3.11558e-12,2.39472e-38,-1.51826e-06,-3.18057e-12,2.39448e-38,0,-1.06642e-13,0,0,0,0,0,0,0,0,0,0,0,0,0,0,0,0,0,0,0,0,0,-0.261799,-1.38606e-06,-1.5,-nan,0,0,3,0,0,0,0,0,0,0,0,1.9603e-19
1970,-3.11558e-12,2.39472e-38,-1.51826e-06,-3.18057e-12,2.39448e-38,-3.62841e-12,-1.06642e-13,0,0,0,0,0,0,0,0,0,0,0,0,0,0,0,0,0,0,0,0,0,-0.261799,-1.33128e-06,-1.5,-nan,0,0,3,0,0,0,0,0,0,0,0,1.9603e-19
1980,-3.11558e-12,2.39472e-38,-1.51826e-06,-3.18057e-12,2.39448e-38,0,-1.06642e-13,0,0,0,0,0,0,0,0,0,0,0,0,0,0,0,0,0,0,0,0,0,-0.261799,-1.28914e-06,-1.5,-nan,0,0,3,0,0,0,0,0,0,0,0,1.9603e-19
1990,-3.11558e-12,2.39472e-38,-1.51826e-06,-3.18057e-12,2.39448e-38,-3.62841e-12,-1.06642e-13,0,0,0,0,0,0,0,0,0,0,0,0,0,0,0,0,0,0,0,0,0,-0.261799,-1.24834e-06,-1.5,-nan,0,0,3,0,0,0,0,0,0,0,0,1.9603e-19
2000,-3.11558e-12,2.39472e-38,-1.51826e-06,-3.18057e-12,2.39448e-38,0,-1.06643e-13,0,0,0,0,0,0,0,0,0,0,0,0,0,0,0,0,0,0,0,0,0,-0.261799,-1.19905e-06,-1.5,-nan,0,0,3,0,0,0,0,0,0,0,0,1.9603e-19
2010,-3.11558e-12,2.39472e-38,-1.51826e-06,-3.18057e-12,2.39448e-38,-3.62841e-12,-1.06643e-13,0,0,0,0,0,0,0,0,0,0,0,0,0,0,0,0,0,0,0,0,0,-0.261799,-1.16348e-06,-1.5,-nan,0,0,3,0,0,0,0,0,0,0,0,1.9603e-19
2020,-3.11558e-12,2.39472e-38,-1.51826e-06,-3.18057e-12,2.39448e-38,0,-1.06643e-13,0,0,0,0,0,0,0,0,0,0,0,0,0,0,0,0,0,0,0,0,0,-0.261799,-1.12665e-06,-1.5,-nan,0,0,3,0,0,0,0,0,0,0,0,1.9603e-19
2030,-3.11558e-12,2.39472e-38,-1.51826e-06,-3.18057e-12,2.39448e-38,-3.62841e-12,-1.06644e-13,0,0,0,0,0,0,0,0,0,0,0,0,0,0,0,0,0,0,0,0,0,-0.261799,-1.07995e-06,-1.5,-nan,0,0,3,0,0,0,0,0,0,0,0,1.9603e-19
2040,-3.11558e-12,2.39472e-38,-1.51826e-06,-3.18057e-12,2.39448e-38,0,-1.06644e-13,0,0,0,0,0,0,0,0,0,0,0,0,0,0,0,0,0,0,0,0,0,-0.261799,-1.0479e-06,-1.5,-nan,0,0,3,0,0,0,0,0,0,0,0,1.9603e-19
2050,-3.11558e-12,2.39472e-38,-1.51826e-06,-3.18057e-12,2.39448e-38,-3.62841e-12,-1.06644e-13,0,0,0,0,0,0,0,0,0,0,0,0,0,0,0,0,0,0,0,0,0,-0.261799,-1.01061e-06,-1.5,-nan,0,0,3,0,0,0,0,0,0,0,0,1.9603e-19
2060,-3.11558e-12,2.39472e-38,-1.51826e-06,-3.18057e-12,2.39448e-38,0,-1.06644e-13,0,0,0,0,0,0,0,0,0,0,0,0,0,0,0,0,0,0,0,0,0,-0.261799,-9.80611e-07,-1.5,-nan,0,0,3,0,0,0,0,0,0,0,0,1.9603e-19
2070,-3.11558e-12,2.39472e-38,-1.51826e-06,-3.18057e-12,2.39448e-38,-3.62841e-12,-1.06645e-13,0,0,0,0,0,0,0,0,0,0,0,0,0,0,0,0,0,0,0,0,0,-0.261799,-9.43785e-07,-1.5,-nan,0,0,3,0,0,0,0,0,0,0,0,1.9603e-19
2080,-3.11558e-12,2.39472e-38,-1.51826e-06,-3.18057e-12,2.39448e-38,0,-1.06645e-13,0,0,0,0,0,0,0,0,0,0,0,0,0,0,0,0,0,0,0,0,0,-0.261799,-9.13933e-07,-1.5,-nan,0,0,3,0,0,0,0,0,0,0,0,1.9603e-19
2090,-3.11558e-12,2.39472e-38,-1.51826e-06,-3.18057e-12,2.39448e-38,-3.62841e-12,-1.06645e-13,0,0,0,0,0,0,0,0,0,0,0,0,0,0,0,0,0,0,0,0,0,-0.261799,-8.81435e-07,-1.5,-nan,0,0,3,0,0,0,0,0,0,0,0,1.9603e-19
2100,-3.11558e-12,2.39472e-38,-1.51826e-06,-3.18057e-12,2.39448e-38,0,-1.06645e-13,0,0,0,0,0,0,0,0,0,0,0,0,0,0,0,0,0,0,0,0,0,-0.261799,-8.4663e-07,-1.5,-nan,0,0,3,0,0,0,0,0,0,0,0,1.9603e-19
2110,-3.11558e-12,2.39472e-38,-1.51826e-06,-3.18057e-12,2.39448e-38,-3.62841e-12,-1.06646e-13,0,0,0,0,0,0,0,0,0,0,0,0,0,0,0,0,0,0,0,0,0,-0.261799,-8.23167e-07,-1.5,-nan,0,0,3,0,0,0,0,0,0,0,0,1.9603e-19
2120,-3.11558e-12,2.39472e-38,-1.51826e-06,-3.18057e-12,2.39448e-38,0,-1.06646e-13,0,0,0,0,0,0,0,0,0,0,0,0,0,0,0,0,0,0,0,0,0,-0.261799,-7.98747e-07,-1.5,-nan,0,0,3,0,0,0,0,0,0,0,0,1.9603e-19
2130,-3.11558e-12,2.39472e-38,-1.51826e-06,-3.18057e-12,2.39448e-38,-3.62841e-12,-1.06646e-13,0,0,0,0,0,0,0,0,0,0,0,0,0,0,0,0,0,0,0,0,0,-0.261799,-7.73467e-07,-1.5,-nan,0,0,3,0,0,0,0,0,0,0,0,1.9603e-19
2140,-3.11558e-12,2.39472e-38,-1.51826e-06,-3.18057e-12,2.39448e-38,0,-1.06647e-13,0,0,0,0,0,0,0,0,0,0,0,0,0,0,0,0,0,0,0,0,0,-0.261799,-7.50509e-07,-1.5,-nan,0,0,3,0,0,0,0,0,0,0,0,1.9603e-19
2150,-3.11558e-12,2.39472e-38,-1.51826e-06,-3.18057e-12,2.39448e-38,-3.62841e-12,-1.06647e-13,0,0,0,0,0,0,0,0,0,0,0,0,0,0,0,0,0,0,0,0,0,-0.261799,-7.16416e-07,-1.5,-nan,0,0,3,0,0,0,0,0,0,0,0,1.9603e-19
2160,-3.11558e-12,2.39472e-38,-1.51826e-06,-3.18057e-12,2.39448e-38,0,-1.06647e-13,0,0,0,0,0,0,0,0,0,0,0,0,0,0,0,0,0,0,0,0,0,-0.261799,-6.93741e-07,-1.5,-nan,0,0,3,0,0,0,0,0,0,0,0,1.9603e-19
2170,-3.11558e-12,2.39472e-38,-1.51826e-06,-3.18057e-12,2.39448e-38,-3.62841e-12,-1.06647e-13,0,0,0,0,0,0,0,0,0,0,0,0,0,0,0,0,0,0,0,0,0,-0.261799,-6.71798e-07,-1.5,-nan,0,0,3,0,0,0,0,0,0,0,0,1.9603e-19
2180,-3.11558e-12,2.39472e-38,-1.51826e-06,-3.18057e-12,2.39448e-38,0,-1.06648e-13,0,0,0,0,0,0,0,0,0,0,0,0,0,0,0,0,0,0,0,0,0,-0.261799,-6.50536e-07,-1.5,-nan,0,0,3,0,0,0,0,0,0,0,0,1.9603e-19
2190,-3.11558e-12,2.39472e-38,-1.51826e-06,-3.18057e-12,2.39448e-38,-3.62841e-12,-1.06648e-13,0,0,0,0,0,0,0,0,0,0,0,0,0,0,0,0,0,0,0,0,0,-0.261799,-6.31227e-07,-1.5,-nan,0,0,3,0,0,0,0,0,0,0,0,1.9603e-19
2200,-3.11558e-12,2.39472e-38,-1.51826e-06,-3.18057e-12,2.39448e-38,0,-1.06648e-13,0,0,0,0,0,0,0,0,0,0,0,0,0,0,0,0,0,0,0,0,0,-0.261799,-6.08782e-07,-1.5,-nan,0,0,3,0,0,0,0,0,0,0,0,1.9603e-19
2210,-3.11558e-12,2.39472e-38,-1.51826e-06,-3.18057e-12,2.39448e-38,-3.62841e-12,-1.06648e-13,0,0,0,0,0,0,0,0,0,0,0,0,0,0,0,0,0,0,0,0,0,-0.261799,-5.89526e-07,-1.5,-nan,0,0,3,0,0,0,0,0,0,0,0,1.9603e-19
2220,-3.11558e-12,2.39472e-38,-1.51826e-06,-3.18057e-12,2.39448e-38,0,-1.06649e-13,0,0,0,0,0,0,0,0,0,0,0,0,0,0,0,0,0,0,0,0,0,-0.261799,-5.70867e-07,-1.5,-nan,0,0,3,0,0,0,0,0,0,0,0,1.9603e-19
2230,-3.11558e-12,2.39472e-38,-1.51826e-06,-3.18057e-12,2.39448e-38,-3.62841e-12,-1.06649e-13,0,0,0,0,0,0,0,0,0,0,0,0,0,0,0,0,0,0,0,0,0,-0.261799,-5.49429e-07,-1.5,-nan,0,0,3,0,0,0,0,0,0,0,0,1.9603e-19
2240,-3.11558e-12,2.39472e-38,-1.51826e-06,-3.18057e-12,2.39448e-38,0,-1.06649e-13,0,0,0,0,0,0,0,0,0,0,0,0,0,0,0,0,0,0,0,0,0,-0.261799,-5.33121e-07,-1.5,-nan,0,0,3,0,0,0,0,0,0,0,0,1.9603e-19
2250,-3.11558e-12,2.39472e-38,-1.51826e-06,-3.18057e-12,2.39448e-38,-3.62841e-12,-1.06649e-13,0,0,0,0,0,0,0,0,0,0,0,0,0,0,0,0,0,0,0,0,0,-0.261799,-5.17297e-07,-1.5,-nan,0,0,3,0,0,0,0,0,0,0,0,1.9603e-19
2260,-3.11558e-12,2.39472e-38,-1.51826e-06,-3.18057e-12,2.39448e-38,0,-1.0665e-13,0,0,0,0,0,0,0,0,0,0,0,0,0,0,0,0,0,0,0,0,0,-0.261799,-4.99919e-07,-1.5,-nan,0,0,3,0,0,0,0,0,0,0,0,1.9603e-19
2270,-3.11558e-12,2.39472e-38,-1.51826e-06,-3.18057e-12,2.39448e-38,-3.62841e-12,-1.0665e-13,0,0,0,0,0,0,0,0,0,0,0,0,0,0,0,0,0,0,0,0,0,-0.261799,-4.83112e-07,-1.5,-nan,0,0,3,0,0,0,0,0,0,0,0,1.9603e-19
2280,-3.11558e-12,2.39472e-38,-1.51826e-06,-3.18057e-12,2.39448e-38,0,-1.0665e-13,0,0,0,0,0,0,0,0,0,0,0,0,0,0,0,0,0,0,0,0,0,-0.261799,-4.6592e-07,-1.5,-nan,0,0,3,0,0,0,0,0,0,0,0,1.9603e-19
2290,-3.11558e-12,2.39472e-38,-1.51826e-06,-3.18057e-12,2.39448e-38,-3.62841e-12,-1.06651e-13,0,0,0,0,0,0,0,0,0,0,0,0,0,0,0,0,0,0,0,0,0,-0.261799,-4.51174e-07,-1.5,-nan,0,0,3,0,0,0,0,0,0,0,0,1.9603e-19
2300,-3.11558e-12,2.39472e-38,-1.51826e-06,-3.18057e-12,2.39448e-38,0,-1.06651e-13,0,0,0,0,0,0,0,0,0,0,0,0,0,0,0,0,0,0,0,0,0,-0.261799,-4.37782e-07,-1.5,-nan,0,0,3,0,0,0,0,0,0,0,0,1.9603e-19
2310,-3.11558e-12,2.39472e-38,-1.51826e-06,-3.18057e-12,2.39448e-38,-3.62841e-12,-1.06651e-13,0,0,0,0,0,0,0,0,0,0,0,0,0,0,0,0,0,0,0,0,0,-0.261799,-4.21342e-07,-1.5,-nan,0,0,3,0,0,0,0,0,0,0,0,1.9603e-19
2320,-3.11558e-12,2.39472e-38,-1.51826e-06,-3.18057e-12,2.39448e-38,0,-1.06651e-13,0,0,0,0,0,0,0,0,0,0,0,0,0,0,0,0,0,0,0,0,0,-0.261799,-4.08847e-07,-1.5,-nan,0,0,3,0,0,0,0,0,0,0,0,1.9603e-19
2330,-3.11558e-12,2.39472e-38,-1.51826e-06,-3.18057e-12,2.39448e-38,-3.62841e-12,-1.06652e-13,0,0,0,0,0,0,0,0,0,0,0,0,0,0,0,0,0,0,0,0,0,-0.261799,-3.95112e-07,-1.5,-nan,0,0,3,0,0,0,0,0,0,0,0,1.9603e-19
2340,-3.11558e-12,2.39472e-38,-1.51826e-06,-3.18057e-12,2.39448e-38,0,-1.06652e-13,0,0,0,0,0,0,0,0,0,0,0,0,0,0,0,0,0,0,0,0,0,-0.261799,-3.83385e-07,-1.5,-nan,0,0,3,0,0,0,0,0,0,0,0,1.9603e-19
2350,-3.11558e-12,2.39472e-38,-1.51826e-06,-3.18057e-12,2.39448e-38,-3.62841e-12,-1.06652e-13,0,0,0,0,0,0,0,0,0,0,0,0,0,0,0,0,0,0,0,0,0,-0.261799,-3.71251e-07,-1.5,-nan,0,0,3,0,0,0,0,0,0,0,0,1.9603e-19
2360,-3.11558e-12,2.39472e-38,-1.51826e-06,-3.18057e-12,2.39448e-38,0,-1.06652e-13,0,0,0,0,0,0,0,0,0,0,0,0,0,0,0,0,0,0,0,0,0,-0.261799,-3.5877e-07,-1.5,-nan,0,0,3,0,0,0,0,0,0,0,0,1.9603e-19
2370,-3.11558e-12,2.39472e-38,-1.51826e-06,-3.18057e-12,2.39448e-38,-3.62841e-12,-1.06653e-13,0,0,0,0,0,0,0,0,0,0,0,0,0,0,0,0,0,0,0,0,0,-0.261799,-3.48121e-07,-1.5,-nan,0,0,3,0,0,0,0,0,0,0,0,1.9603e-19
2380,-3.11558e-12,2.39472e-38,-1.51826e-06,-3.18057e-12,2.39448e-38,0,-1.06653e-13,0,0,0,0,0,0,0,0,0,0,0,0,0,0,0,0,0,0,0,0,0,-0.261799,-3.35059e-07,-1.5,-nan,0,0,3,0,0,0,0,0,0,0,0,1.9603e-19
2390,-3.11558e-12,2.39472e-38,-1.51826e-06,-3.18057e-12,2.39448e-38,-3.62841e-12,-1.06653e-13,0,0,0,0,0,0,0,0,0,0,0,0,0,0,0,0,0,0,0,0,0,-0.261799,-3.20512e-07,-1.5,-nan,0,0,3,0,0,0,0,0,0,0,0,1.9603e-19
2400,-3.11558e-12,2.39472e-38,-1.51826e-06,-3.18057e-12,2.39448e-38,0,-1.06654e-13,0,0,0,0,0,0,0,0,0,0,0,0,0,0,0,0,0,0,0,0,0,-0.261799,-3.10374e-07,-1.5,-nan,0,0,3,0,0,0,0,0,0,0,0,1.9603e-19
2410,-3.11558e-12,2.39472e-38,-1.51826e-06,-3.18057e-12,2.39448e-38,-3.62841e-12,-1.06654e-13,0,0,0,0,0,0,0,0,0,0,0,0,0,0,0,0,0,0,0,0,0,-0.261799,-3.00551e-07,-1.5,-nan,0,0,3,0,0,0,0,0,0,0,0,1.9603e-19
2420,-3.11558e-12,2.39472e-38,-1.51826e-06,-3.18057e-12,2.39448e-38,0,-1.06654e-13,0,0,0,0,0,0,0,0,0,0,0,0,0,0,0,0,0,0,0,0,0,-0.261799,-2.91045e-07,-1.5,-nan,0,0,3,0,0,0,0,0,0,0,0,1.9603e-19
2430,-3.11558e-12,2.39472e-38,-1.51826e-06,-3.18057e-12,2.39448e-38,-3.62841e-12,-1.06654e-13,0,0,0,0,0,0,0,0,0,0,0,0,0,0,0,0,0,0,0,0,0,-0.261799,-2.82411e-07,-1.5,-nan,0,0,3,0,0,0,0,0,0,0,0,1.9603e-19
2440,-3.11558e-12,2.39472e-38,-1.51826e-06,-3.18057e-12,2.39448e-38,0,-1.06655e-13,0,0,0,0,0,0,0,0,0,0,0,0,0,0,0,0,0,0,0,0,0,-0.261799,-2.72916e-07,-1.5,-nan,0,0,3,0,0,0,0,0,0,0,0,1.9603e-19
2450,-3.11558e-12,2.39472e-38,-1.51826e-06,-3.18057e-12,2.39448e-38,-3.62841e-12,-1.06659e-13,0,0,0,0,0,0,0,0,0,0,0,0,0,0,0,0,0,0,0,0,0,-0.261799,-2.63748e-07,-1.5,-nan,0,0,3,0,0,0,0,0,0,0,0,1.9603e-19
2460,-3.11558e-12,2.39472e-38,-1.51826e-06,-3.18057e-12,2.39448e-38,0,-1.06659e-13,0,0,0,0,0,0,0,0,0,0,0,0,0,0,0,0,0,0,0,0,0,-0.261799,-2.53324e-07,-1.5,-nan,0,0,3,0,0,0,0,0,0,0,0,1.9603e-19
2470,-3.11558e-12,2.39472e-38,-1.51826e-06,-3.18057e-12,2.39448e-38,-3.62841e-12,-1.06659e-13,0,0,0,0,0,0,0,0,0,0,0,0,0,0,0,0,0,0,0,0,0,-0.261799,-2.45311e-07,-1.5,-nan,0,0,3,0,0,0,0,0,0,0,0,1.9603e-19
2480,-3.11558e-12,2.39472e-38,-1.51826e-06,-3.18057e-12,2.39448e-38,0,-1.06659e-13,0,0,0,0,0,0,0,0,0,0,0,0,0,0,0,0,0,0,0,0,0,-0.261799,-2.3803e-07,-1.5,-nan,0,0,3,0,0,0,0,0,0,0,0,1.9603e-19
2490,-3.11558e-12,2.39472e-38,-1.51826e-06,-3.18057e-12,2.39448e-38,-3.62841e-12,-1.0666e-13,0,0,0,0,0,0,0,0,0,0,0,0,0,0,0,0,0,0,0,0,0,-0.261799,-2.30497e-07,-1.5,-nan,0,0,3,0,0,0,0,0,0,0,0,1.9603e-19
2500,-3.11558e-12,2.39472e-38,-1.51826e-06,-3.18057e-12,2.39448e-38,0,-1.0666e-13,0,0,0,0,0,0,0,0,0,0,0,0,0,0,0,0,0,0,0,0,0,-0.261799,-2.23206e-07,-1.5,-nan,0,0,3,0,0,0,0,0,0,0,0,1.9603e-19
2510,-3.11558e-12,2.39472e-38,-1.51826e-06,-3.18057e-12,2.39448e-38,-3.62841e-12,-1.0666e-13,0,0,0,0,0,0,0,0,0,0,0,0,0,0,0,0,0,0,0,0,0,-0.261799,-2.15708e-07,-1.5,-nan,0,0,3,0,0,0,0,0,0,0,0,1.9603e-19
2520,-3.11558e-12,2.39472e-38,-1.51826e-06,-3.18057e-12,2.39448e-38,0,-1.06661e-13,0,0,0,0,0,0,0,0,0,0,0,0,0,0,0,0,0,0,0,0,0,-0.261799,-2.07182e-07,-1.5,-nan,0,0,3,0,0,0,0,0,0,0,0,1.9603e-19
2530,-3.11558e-12,2.39472e-38,-1.51826e-06,-3.18057e-12,2.39448e-38,-3.62841e-12,-1.06655e-13,0,0,0,0,0,0,0,0,0,0,0,0,0,0,0,0,0,0,0,0,0,-0.261799,-2.01443e-07,-1.5,-nan,0,0,3,0,0,0,0,0,0,0,0,1.9603e-19
2540,-3.11558e-12,2.39472e-38,-1.51826e-06,-3.18057e-12,2.39448e-38,0,-1.06655e-13,0,0,0,0,0,0,0,0,0,0,0,0,0,0,0,0,0,0,0,0,0,-0.261799,-1.94676e-07,-1.5,-nan,0,0,3,0,0,0,0,0,0,0,0,1.9603e-19
2550,-3.11558e-12,2.39472e-38,-1.51826e-06,-3.18057e-12,2.39448e-38,-3.62841e-12,-1.06655e-13,0,0,0,0,0,0,0,0,0,0,0,0,0,0,0,0,0,0,0,0,0,-0.261799,-1.889e-07,-1.5,-nan,0,0,3,0,0,0,0,0,0,0,0,1.9603e-19
2560,-3.11558e-12,2.39472e-38,-1.51826e-06,-3.18057e-12,2.39448e-38,0,-1.06656e-13,0,0,0,0,0,0,0,0,0,0,0,0,0,0,0,0,0,0,0,0,0,-0.261799,-1.83294e-07,-1.5,-nan,0,0,3,0,0,0,0,0,0,0,0,1.9603e-19
2570,-3.11558e-12,2.39472e-38,-1.51826e-06,-3.18057e-12,2.39448e-38,-3.62841e-12,-1.06656e-13,0,0,0,0,0,0,0,0,0,0,0,0,0,0,0,0,0,0,0,0,0,-0.261799,-1.75696e-07,-1.5,-nan,0,0,3,0,0,0,0,0,0,0,0,1.9603e-19
2580,-3.11558e-12,2.39472e-38,-1.51826e-06,-3.18057e-12,2.39448e-38,0,-1.06656e-13,0,0,0,0,0,0,0,0,0,0,0,0,0,0,0,0,0,0,0,0,0,-0.261799,-1.70139e-07,-1.5,-nan,0,0,3,0,0,0,0,0,0,0,0,1.9603e-19
2590,-3.11558e-12,2.39472e-38,-1.51826e-06,-3.18057e-12,2.39448e-38,-3.62841e-12,-1.06657e-13,0,0,0,0,0,0,0,0,0,0,0,0,0,0,0,0,0,0,0,0,0,-0.261799,-1.65089e-07,-1.5,-nan,0,0,3,0,0,0,0,0,0,0,0,1.9603e-19
2600,-3.11558e-12,2.39472e-38,-1.51826e-06,-3.18057e-12,2.39448e-38,0,-1.06657e-13,0,0,0,0,0,0,0,0,0,0,0,0,0,0,0,0,0,0,0,0,0,-0.261799,-1.59218e-07,-1.5,-nan,0,0,3,0,0,0,0,0,0,0,0,1.9603e-19
2610,-3.11558e-12,2.39472e-38,-1.51826e-06,-3.18057e-12,2.39448e-38,-3.62841e-12,-1.06657e-13,0,0,0,0,0,0,0,0,0,0,0,0,0,0,0,0,0,0,0,0,0,-0.261799,-1.54806e-07,-1.5,-nan,0,0,3,0,0,0,0,0,0,0,0,1.9603e-19
2620,-3.11558e-12,2.39472e-38,-1.51826e-06,-3.18057e-12,2.39448e-38,0,-1.06657e-13,0,0,0,0,0,0,0,0,0,0,0,0,0,0,0,0,0,0,0,0,0,-0.261799,-1.48091e-07,-1.5,-nan,0,0,3,0,0,0,0,0,0,0,0,1.9603e-19
2630,-3.11558e-12,2.39472e-38,-1.51826e-06,-3.18057e-12,2.39448e-38,-3.62841e-12,-1.06658e-13,0,0,0,0,0,0,0,0,0,0,0,0,0,0,0,0,0,0,0,0,0,-0.261799,-1.43404e-07,-1.5,-nan,0,0,3,0,0,0,0,0,0,0,0,1.9603e-19
2640,-3.11558e-12,2.39472e-38,-1.51826e-06,-3.18057e-12,2.39448e-38,0,-1.06658e-13,0,0,0,0,0,0,0,0,0,0,0,0,0,0,0,0,0,0,0,0,0,-0.261799,-1.38868e-07,-1.5,-nan,0,0,3,0,0,0,0,0,0,0,0,1.9603e-19
2650,-3.11558e-12,2.39472e-38,-1.51826e-06,-3.18057e-12,2.39448e-38,-3.62841e-12,-1.06658e-13,0,0,0,0,0,0,0,0,0,0,0,0,0,0,0,0,0,0,0,0,0,-0.261799,-1.34203e-07,-1.5,-nan,0,0,3,0,0,0,0,0,0,0,0,1.9603e-19
2660,-3.11558e-12,2.39472e-38,-1.51826e-06,-3.18057e-12,2.39448e-38,0,-1.06661e-13,0,0,0,0,0,0,0,0,0,0,0,0,0,0,0,0,0,0,0,0,0,-0.261799,-1.30219e-07,-1.5,-nan,0,0,3,0,0,0,0,0,0,0,0,1.9603e-19
2670,-3.11558e-12,2.39472e-38,-1.51826e-06,-3.18057e-12,2.39448e-38,-3.62841e-12,-1.06661e-13,0,0,0,0,0,0,0,0,0,0,0,0,0,0,0,0,0,0,0,0,0,-0.261799,-1.25842e-07,-1.5,-nan,0,0,3,0,0,0,0,0,0,0,0,1.9603e-19
2680,-3.11558e-12,2.39472e-38,-1.51826e-06,-3.18057e-12,2.39448e-38,0,-1.06661e-13,0,0,0,0,0,0,0,0,0,0,0,0,0,0,0,0,0,0,0,0,0,-0.261799,-1.21861e-07,-1.5,-nan,0,0,3,0,0,0,0,0,0,0,0,1.9603e-19
2690,-3.11558e-12,2.39472e-38,-1.51826e-06,-3.18057e-12,2.39448e-38,-3.62841e-12,-1.06662e-13,0,0,0,0,0,0,0,0,0,0,0,0,0,0,0,0,0,0,0,0,0,-0.261799,-1.18007e-07,-1.5,-nan,0,0,3,0,0,0,0,0,0,0,0,1.9603e-19
2700,-3.11558e-12,2.39472e-38,-1.51826e-06,-3.18057e-12,2.39448e-38,0,-1.06662e-13,0,0,0,0,0,0,0,0,0,0,0,0,0,0,0,0,0,0,0,0,0,-0.261799,-1.13347e-07,-1.5,-nan,0,0,3,0,0,0,0,0,0,0,0,1.9603e-19
2710,-3.11558e-12,2.39472e-38,-1.51826e-06,-3.18057e-12,2.39448e-38,-3.62841e-12,-1.06662e-13,0,0,0,0,0,0,0,0,0,0,0,0,0,0,0,0,0,0,0,0,0,-0.261799,-1.09762e-07,-1.5,-nan,0,0,3,0,0,0,0,0,0,0,0,1.9603e-19
2720,-3.11558e-12,2.39472e-38,-1.51826e-06,-3.18057e-12,2.39448e-38,0,-1.06662e-13,0,0,0,0,0,0,0,0,0,0,0,0,0,0,0,0,0,0,0,0,0,-0.261799,-1.06504e-07,-1.5,-nan,0,0,3,0,0,0,0,0,0,0,0,1.9603e-19
2730,-3.11558e-12,2.39472e-38,-1.51826e-06,-3.18057e-12,2.39448e-38,-3.62841e-12,-1.06663e-13,0,0,0,0,0,0,0,0,0,0,0,0,0,0,0,0,0,0,0,0,0,-0.261799,-1.03133e-07,-1.5,-nan,0,0,3,0,0,0,0,0,0,0,0,1.9603e-19
2740,-3.11558e-12,2.39472e-38,-1.51826e-06,-3.18057e-12,2.39448e-38,0,-1.06663e-13,0,0,0,0,0,0,0,0,0,0,0,0,0,0,0,0,0,0,0,0,0,-0.261799,-1.00075e-07,-1.5,-nan,0,0,3,0,0,0,0,0,0,0,0,1.9603e-19
2750,-3.11558e-12,2.39472e-38,-1.51826e-06,-3.18057e-12,2.39448e-38,-3.62841e-12,-1.06663e-13,0,0,0,0,0,0,0,0,0,0,0,0,0,0,0,0,0,0,0,0,0,-0.261799,-9.69076e-08,-1.5,-nan,0,0,3,0,0,0,0,0,0,0,0,1.9603e-19
2760,-3.11558e-12,2.39472e-38,-1.51826e-06,-3.18057e-12,2.39448e-38,0,-1.06663e-13,0,0,0,0,0,0,0,0,0,0,0,0,0,0,0,0,0,0,0,0,0,-0.261799,-9.38405e-08,-1.5,-nan,0,0,3,0,0,0,0,0,0,0,0,1.9603e-19
2770,-3.11558e-12,2.39472e-38,-1.51826e-06,-3.18057e-12,2.39448e-38,-3.62841e-12,-1.06664e-13,0,0,0,0,0,0,0,0,0,0,0,0,0,0,0,0,0,0,0,0,0,-0.261799,-9.08723e-08,-1.5,-nan,0,0,3,0,0,0,0,0,0,0,0,1.9603e-19
2780,-3.11558e-12,2.39472e-38,-1.51826e-06,-3.18057e-12,2.39448e-38,0,-1.06664e-13,0,0,0,0,0,0,0,0,0,0,0,0,0,0,0,0,0,0,0,0,0,-0.261799,-8.74596e-08,-1.5,-nan,0,0,3,0,0,0,0,0,0,0,0,1.9603e-19
2790,-3.11558e-12,2.39472e-38,-1.51826e-06,-3.18057e-12,2.39448e-38,-3.62841e-12,-1.06664e-13,0,0,0,0,0,0,0,0,0,0,0,0,0,0,0,0,0,0,0,0,0,-0.261799,-8.48637e-08,-1.5,-nan,0,0,3,0,0,0,0,0,0,0,0,1.9603e-19
2800,-3.11558e-12,2.39472e-38,-1.51826e-06,-3.18057e-12,2.39448e-38,0,-1.06665e-13,0,0,0,0,0,0,0,0,0,0,0,0,0,0,0,0,0,0,0,0,0,-0.261799,-8.20128e-08,-1.5,-nan,0,0,3,0,0,0,0,0,0,0,0,1.9603e-19
2810,-3.11558e-12,2.39472e-38,-1.51826e-06,-3.18057e-12,2.39448e-38,-3.62841e-12,-1.06665e-13,0,0,0,0,0,0,0,0,0,0,0,0,0,0,0,0,0,0,0,0,0,-0.261799,-7.94187e-08,-1.5,-nan,0,0,3,0,0,0,0,0,0,0,0,1.9603e-19
2820,-3.11558e-12,2.39472e-38,-1.51826e-06,-3.18057e-12,2.39448e-38,0,-1.06665e-13,0,0,0,0,0,0,0,0,0,0,0,0,0,0,0,0,0,0,0,0,0,-0.261799,-6.33349e-08,-1.5,-nan,0,0,3,0,0,0,0,0,0,0,0,1.9603e-19
2830,-3.11558e-12,2.39472e-38,-1.51826e-06,-3.18057e-12,2.39448e-38,-3.62841e-12,-1.06665e-13,0,0,0,0,0,0,0,0,0,0,0,0,0,0,0,0,0,0,0,0,0,-0.261799,-5.1006e-08,-1.5,-nan,0,0,3,0,0,0,0,0,0,0,0,1.9603e-19
2840,-3.11558e-12,2.39472e-38,-1.51826e-06,-3.18057e-12,2.39448e-38,0,-1.06666e-13,0,0,0,0,0,0,0,0,0,0,0,0,0,0,0,0,0,0,0,0,0,-0.261799,-4.93927e-08,-1.5,-nan,0,0,3,0,0,0,0,0,0,0,0,1.9603e-19
2850,-3.11558e-12,2.39472e-38,-1.51826e-06,-3.18057e-12,2.39448e-38,-3.62841e-12,-1.06666e-13,0,0,0,0,0,0,0,0,0,0,0,0,0,0,0,0,0,0,0,0,0,-0.261799,-4.78304e-08,-1.5,-nan,0,0,3,0,0,0,0,0,0,0,0,1.9603e-19
2860,-3.11558e-12,2.39472e-38,-1.51826e-06,-3.18057e-12,2.39448e-38,0,-1.06666e-13,0,0,0,0,0,0,0,0,0,0,0,0,0,0,0,0,0,0,0,0,0,-0.261799,-4.63166e-08,-1.5,-nan,0,0,3,0,0,0,0,0,0,0,0,1.9603e-19
2870,-3.11558e-12,2.39472e-38,-1.51826e-06,-3.18057e-12,2.39448e-38,-3.62841e-12,-1.06666e-13,0,0,0,0,0,0,0,0,0,0,0,0,0,0,0,0,0,0,0,0,0,-0.261799,-4.49418e-08,-1.5,-nan,0,0,3,0,0,0,0,0,0,0,0,1.9603e-19
2880,-3.11558e-12,2.39472e-38,-1.51826e-06,-3.18057e-12,2.39448e-38,0,-1.06667e-13,0,0,0,0,0,0,0,0,0,0,0,0,0,0,0,0,0,0,0,0,0,-0.261799,-4.3431e-08,-1.5,-nan,0,0,3,0,0,0,0,0,0,0,0,1.9603e-19
2890,-3.11558e-12,2.39472e-38,-1.51826e-06,-3.18057e-12,2.39448e-38,-3.62841e-12,-1.06667e-13,0,0,0,0,0,0,0,0,0,0,0,0,0,0,0,0,0,0,0,0,0,-0.261799,-4.18013e-08,-1.5,-nan,0,0,3,0,0,0,0,0,0,0,0,1.9603e-19
2900,-3.11558e-12,2.39472e-38,-1.51826e-06,-3.18057e-12,2.39448e-38,0,-1.06667e-13,0,0,0,0,0,0,0,0,0,0,0,0,0,0,0,0,0,0,0,0,0,-0.261799,-4.04791e-08,-1.5,-nan,0,0,3,0,0,0,0,0,0,0,0,1.9603e-19
2910,-3.11558e-12,2.39472e-38,-1.51826e-06,-3.18057e-12,2.39448e-38,-3.62841e-12,-1.06668e-13,0,0,0,0,0,0,0,0,0,0,0,0,0,0,0,0,0,0,0,0,0,-0.261799,-3.8959e-08,-1.5,-nan,0,0,3,0,0,0,0,0,0,0,0,1.9603e-19
2920,-3.11558e-12,2.39472e-38,-1.51826e-06,-3.18057e-12,2.39448e-38,0,-1.06668e-13,0,0,0,0,0,0,0,0,0,0,0,0,0,0,0,0,0,0,0,0,0,-0.261799,-3.77267e-08,-1.5,-nan,0,0,3,0,0,0,0,0,0,0,0,1.9603e-19
2930,-3.11558e-12,2.39472e-38,-1.51826e-06,-3.18057e-12,2.39448e-38,-3.62841e-12,-1.06668e-13,0,0,0,0,0,0,0,0,0,0,0,0,0,0,0,0,0,0,0,0,0,-0.261799,-3.65334e-08,-1.5,-nan,0,0,3,0,0,0,0,0,0,0,0,1.9603e-19
2940,-3.11558e-12,2.39472e-38,-1.51826e-06,-3.18057e-12,2.39448e-38,0,-1.06668e-13,0,0,0,0,0,0,0,0,0,0,0,0,0,0,0,0,0,0,0,0,0,-0.261799,-3.55931e-08,-1.5,-nan,0,0,3,0,0,0,0,0,0,0,0,1.9603e-19
2950,-3.11558e-12,2.39472e-38,-1.51826e-06,-3.18057e-12,2.39448e-38,-3.62841e-12,-1.06669e-13,0,0,0,0,0,0,0,0,0,0,0,0,0,0,0,0,0,0,0,0,0,-0.261799,-3.44666e-08,-1.5,-nan,0,0,3,0,0,0,0,0,0,0,0,1.9603e-19
2960,-3.11558e-12,2.39472e-38,-1.51826e-06,-3.18057e-12,2.39448e-38,0,-1.06669e-13,0,0,0,0,0,0,0,0,0,0,0,0,0,0,0,0,0,0,0,0,0,-0.261799,-3.33758e-08,-1.5,-nan,0,0,3,0,0,0,0,0,0,0,0,1.9603e-19
2970,-3.11558e-12,2.39472e-38,-1.51826e-06,-3.18057e-12,2.39448e-38,-3.62841e-12,-1.06669e-13,0,0,0,0,0,0,0,0,0,0,0,0,0,0,0,0,0,0,0,0,0,-0.261799,-3.23201e-08,-1.5,-nan,0,0,3,0,0,0,0,0,0,0,0,1.9603e-19
2980,-3.11558e-12,2.39472e-38,-1.51826e-06,-3.18057e-12,2.39448e-38,0,-1.06669e-13,0,0,0,0,0,0,0,0,0,0,0,0,0,0,0,0,0,0,0,0,0,-0.261799,-3.13608e-08,-1.5,-nan,0,0,3,0,0,0,0,0,0,0,0,1.9603e-19
2990,-3.11558e-12,2.39472e-38,-1.51826e-06,-3.18057e-12,2.39448e-38,-3.62841e-12,-1.0667e-13,0,0,0,0,0,0,0,0,0,0,0,0,0,0,0,0,0,0,0,0,0,-0.261799,-3.01224e-08,-1.5,-nan,0,0,3,0,0,0,0,0,0,0,0,1.9603e-19
3000,-3.1156e-12,2.39027e-38,2.39488e-38,-3.18057e-12,2.39448e-38,0,-1.0667e-13,0,0,0,0,0,0,0,0,0,0,0,0,0,0,0,0,0,0,0,0,0,-0.261799,-2.92288e-08,-1.5,-nan,0,0,3,0,0,0,0,0,0,0,0,1.9603e-19
3010,-3.11558e-12,2.39472e-38,-1.51826e-06,-3.18057e-12,2.39448e-38,-3.62841e-12,-1.0667e-13,0,0,0,0,0,0,0,0,0,0,0,0,0,0,0,0,0,0,0,0,0,-0.261799,-2.80173e-08,-1.5,-nan,0,0,3,0,0,0,0,0,0,0,0,1.9603e-19
3020,-3.11558e-12,2.39472e-38,-1.51826e-06,-3.18057e-12,2.39448e-38,0,-1.06671e-13,0,0,0,0,0,0,0,0,0,0,0,0,0,0,0,0,0,0,0,0,0,-0.261799,-2.71857e-08,-1.5,-nan,0,0,3,0,0,0,0,0,0,0,0,1.9603e-19
3030,-3.11558e-12,2.39472e-38,-1.51826e-06,-3.18057e-12,2.39448e-38,-3.62841e-12,-1.06671e-13,0,0,0,0,0,0,0,0,0,0,0,0,0,0,0,0,0,0,0,0,0,-0.261799,-2.63252e-08,-1.5,-nan,0,0,3,0,0,0,0,0,0,0,0,1.9603e-19
3040,-3.11558e-12,2.39472e-38,-1.51826e-06,-3.18057e-12,2.39448e-38,0,-1.06671e-13,0,0,0,0,0,0,0,0,0,0,0,0,0,0,0,0,0,0,0,0,0,-0.261799,-2.54402e-08,-1.5,-nan,0,0,3,0,0,0,0,0,0,0,0,1.9603e-19
3050,-3.11558e-12,2.39472e-38,-1.51826e-06,-3.18057e-12,2.39448e-38,-3.62841e-12,-1.06671e-13,0,0,0,0,0,0,0,0,0,0,0,0,0,0,0,0,0,0,0,0,0,-0.261799,-2.46356e-08,-1.5,-nan,0,0,3,0,0,0,0,0,0,0,0,1.9603e-19
