timestamp,A_x,A_y,A_z,P,Q,R,Phi,Theta,Psi,poseX,poseY,poseZ,state_X,state_Y,state_Z,state_VzB,state_Bx,state_By,state_Bz,p1_x,p1_y,p2_x,p2_y,p3_x,p3_y,p4_x,p4_y,roll,pitch,yaw,alt,targetHeading,highLevelState,lowLevelState,gateNumber,filtered_x,filtered_y,x_OT,y_OT,vx_OT,vy_OT,filtered_vx,filtered_vygateArea
10,0,0,0,0,0,0,0,0,0,0,0,0,0,0,0,0,0,0,0,0,0,0,0,0,0,0,0,0,-0.261799,0.00779127,-1.5,3.94113e+12,0,0,3,0,0,0,0,0,0,0,0,1.9603e-19
20,0,0,0,0,0,0,0,0,0,0,0,0,0,0,0,0,0,0,0,0,0,0,0,0,0,0,0,0,-0.261799,0.00751422,-1.5,3.94113e+12,0,0,3,0,0,0,0,0,0,0,0,1.9603e-19
30,-3.1147e-12,3.64059e-38,-1.50429e-06,-3.18057e-12,3.64036e-38,-3.59999e-12,-1.06589e-13,0,0,0,0,0,0,0,0,0,0,0,0,0,0,0,0,0,0,0,0,0,-0.261799,-0.00155289,-1.5,3.94113e+12,0,0,3,0,0,0,0,0,0,0,0,1.9603e-19
40,-3.1147e-12,3.64059e-38,-1.50429e-06,-3.18057e-12,3.64036e-38,0,-1.0659e-13,0,0,0,0,0,0,0,0,0,0,0,0,0,0,0,0,0,0,0,0,0,-0.261799,-0.00150069,-1.5,3.94113e+12,0,0,3,0,0,0,0,0,0,0,0,1.9603e-19
50,-3.1147e-12,3.64059e-38,-1.50429e-06,-3.18057e-12,3.64036e-38,-3.59999e-12,-1.0659e-13,0,0,0,0,0,0,0,0,0,0,0,0,0,0,0,0,0,0,0,0,0,-0.261799,-0.00145024,-1.5,3.94113e+12,0,0,3,0,0,0,0,0,0,0,0,1.9603e-19
60,-3.1147e-12,3.64059e-38,-1.50429e-06,-3.18057e-12,3.64036e-38,0,-1.0659e-13,0,0,0,0,0,0,0,0,0,0,0,0,0,0,0,0,0,0,0,0,0,-0.261799,-0.00140152,-1.5,3.94113e+12,0,0,3,0,0,0,0,0,0,0,0,1.9603e-19
70,-3.1147e-12,3.64059e-38,-1.50429e-06,-3.18057e-12,3.64036e-38,-3.59999e-12,-1.0659e-13,0,0,0,0,0,0,0,0,0,0,0,0,0,0,0,0,0,0,0,0,0,-0.261799,-0.00135716,-1.5,3.94113e+12,0,0,3,0,0,0,0,0,0,0,0,1.9603e-19
80,-3.1147e-12,3.64059e-38,-1.50429e-06,-3.18057e-12,3.64036e-38,0,-1.06591e-13,0,0,0,0,0,0,0,0,0,0,0,0,0,0,0,0,0,0,0,0,0,-0.261799,-0.0013142,-1.5,3.94113e+12,0,0,3,0,0,0,0,0,0,0,0,1.9603e-19
90,-3.1147e-12,3.64059e-38,-1.50429e-06,-3.18057e-12,3.64036e-38,-3.59999e-12,-1.06591e-13,0,0,0,0,0,0,0,0,0,0,0,0,0,0,0,0,0,0,0,0,0,-0.261799,-0.00127005,-1.5,3.94113e+12,0,0,3,0,0,0,0,0,0,0,0,1.9603e-19
100,-3.1147e-12,3.64059e-38,-1.50429e-06,-3.18057e-12,3.64036e-38,0,-1.06591e-13,0,0,0,0,0,0,0,0,0,0,0,0,0,0,0,0,0,0,0,0,0,-0.261799,-0.00122739,-1.5,3.94113e+12,0,0,3,0,0,0,0,0,0,0,0,1.9603e-19
110,-3.1147e-12,3.64059e-38,-1.50429e-06,-3.18057e-12,3.64036e-38,-3.59999e-12,-1.06591e-13,0,0,0,0,0,0,0,0,0,0,0,0,0,0,0,0,0,0,0,0,0,-0.261799,-0.00110158,-1.5,3.94113e+12,0,0,3,0,0,0,0,0,0,0,0,1.9603e-19
120,-3.1147e-12,3.64059e-38,-1.50429e-06,-3.18057e-12,3.64036e-38,0,-1.06592e-13,0,0,0,0,0,0,0,0,0,0,0,0,0,0,0,0,0,0,0,0,0,-0.261799,-0.00103202,-1.5,3.94113e+12,0,0,3,0,0,0,0,0,0,0,0,1.9603e-19
130,-3.1147e-12,3.64059e-38,-1.50429e-06,-3.18057e-12,3.64036e-38,-3.59999e-12,-1.06592e-13,0,0,0,0,0,0,0,0,0,0,0,0,0,0,0,0,0,0,0,0,0,-0.261799,-0.00083518,-1.5,3.94113e+12,0,0,3,0,0,0,0,0,0,0,0,1.9603e-19
140,-3.1147e-12,3.64059e-38,-1.50429e-06,-3.18057e-12,3.64036e-38,0,-1.06592e-13,0,0,0,0,0,0,0,0,0,0,0,0,0,0,0,0,0,0,0,0,0,-0.261799,-0.000711974,-1.5,3.94113e+12,0,0,3,0,0,0,0,0,0,0,0,1.9603e-19
150,-3.1147e-12,3.64059e-38,-1.50429e-06,-3.18057e-12,3.64036e-38,-3.59999e-12,-1.06593e-13,0,0,0,0,0,0,0,0,0,0,0,0,0,0,0,0,0,0,0,0,0,-0.261799,-0.000675469,-1.5,3.94113e+12,0,0,3,0,0,0,0,0,0,0,0,1.9603e-19
160,-3.1147e-12,3.64059e-38,-1.50429e-06,-3.18057e-12,3.64036e-38,0,-1.06593e-13,0,0,0,0,0,0,0,0,0,0,0,0,0,0,0,0,0,0,0,0,0,-0.261799,-0.000638138,-1.5,3.94113e+12,0,0,3,0,0,0,0,0,0,0,0,1.9603e-19
170,-3.1147e-12,3.64059e-38,-1.50429e-06,-3.18057e-12,3.64036e-38,-3.59999e-12,-1.06593e-13,0,0,0,0,0,0,0,0,0,0,0,0,0,0,0,0,0,0,0,0,0,-0.261799,-0.00060295,-1.5,3.94113e+12,0,0,3,0,0,0,0,0,0,0,0,1.9603e-19
180,-3.1147e-12,3.64059e-38,-1.50429e-06,-3.18057e-12,3.64036e-38,0,-1.06593e-13,0,0,0,0,0,0,0,0,0,0,0,0,0,0,0,0,0,0,0,0,0,-0.261799,-0.000556572,-1.5,3.94113e+12,0,0,3,0,0,0,0,0,0,0,0,1.9603e-19
190,-3.1147e-12,3.64059e-38,-1.50429e-06,-3.18057e-12,3.64036e-38,-3.59999e-12,-1.06594e-13,0,0,0,0,0,0,0,0,0,0,0,0,0,0,0,0,0,0,0,0,0,-0.261799,-0.000537861,-1.5,3.94113e+12,0,0,3,0,0,0,0,0,0,0,0,1.9603e-19
200,-3.1147e-12,3.64059e-38,-1.50429e-06,-3.18057e-12,3.64036e-38,0,-1.06594e-13,0,0,0,0,0,0,0,0,0,0,0,0,0,0,0,0,0,0,0,0,0,-0.261799,-0.00051131,-1.5,3.94113e+12,0,0,3,0,0,0,0,0,0,0,0,1.9603e-19
210,-3.1147e-12,3.64059e-38,-1.50429e-06,-3.18057e-12,3.64036e-38,-3.59999e-12,-1.06594e-13,0,0,-6.92582,-0.0890327,0.151007,0,0,0,0,0,0.0890064,-0.0890327,139,12,139,12,196,12,139,66,0,-0.261799,-0.00045396,-1.5,3.94113e+12,0,0,3,0,0,0,0,0,0,0,0,3078
220,-3.1147e-12,3.64059e-38,-1.50429e-06,-3.18057e-12,3.64036e-38,0,-1.06594e-13,0,0,-6.92582,-0.0890327,0.151007,0,0,0,0,0,0.0890064,-0.0890327,139,12,139,12,196,12,139,66,0,-0.261799,-0.000440485,-1.5,3.94113e+12,0,0,3,0,0,0,0,0,0,0,0,3078
230,-3.1147e-12,3.64059e-38,-1.50429e-06,-3.18057e-12,3.64036e-38,-3.59999e-12,-1.06595e-13,0,0,-6.92582,-0.0890327,0.151007,0,0,0,0,0,0.0890064,-0.0890327,139,12,139,12,196,12,139,66,0,-0.261799,-0.000427418,-1.5,3.94113e+12,0,0,3,0,0,0,0,0,0,0,0,3078
240,-3.1147e-12,3.64059e-38,-1.50429e-06,-3.18057e-12,3.64036e-38,0,-1.06595e-13,0,0,-6.92582,-0.0890327,0.151007,0,0,0,0,0,0.0890064,-0.0890327,139,12,139,12,196,12,139,66,0,-0.261799,-0.000413059,-1.5,3.94113e+12,0,0,3,0,0,0,0,0,0,0,0,3078
250,-3.1147e-12,3.64059e-38,-1.50429e-06,-3.18057e-12,3.64036e-38,-3.59999e-12,-1.06595e-13,0,0,-6.92582,-0.0890327,0.151007,0,0,0,0,0,0.0890064,-0.0890327,139,12,139,12,196,12,139,66,0,-0.261799,-0.000399994,-1.5,3.94113e+12,0,0,3,0,0,0,0,0,0,0,0,3078
260,-3.1147e-12,3.64059e-38,-1.50429e-06,-3.18057e-12,3.64036e-38,0,-1.06596e-13,0,0,-6.92582,-0.0890327,0.151007,0,0,0,0,0,0.0890064,-0.0890327,139,12,139,12,196,12,139,66,0,-0.261799,-0.000387334,-1.5,3.94113e+12,0,0,3,0,0,0,0,0,0,0,0,3078
270,-3.1147e-12,3.64059e-38,-1.50429e-06,-3.18057e-12,3.64036e-38,-3.59999e-12,-1.06596e-13,0,0,-6.92582,-0.0890327,0.151007,0,0,0,0,0,0.0890064,-0.0890327,139,12,139,12,196,12,139,66,0,-0.261799,-0.000372788,-1.5,3.94113e+12,0,0,3,0,0,0,0,0,0,0,0,3078
280,-3.1147e-12,3.64059e-38,-1.50429e-06,-3.18057e-12,3.64036e-38,0,-1.06596e-13,0,0,-6.92582,-0.0890327,0.151007,0,0,0,0,0,0.0890064,-0.0890327,139,12,139,12,196,12,139,66,0,-0.261799,-0.000360256,-1.5,3.94113e+12,0,0,3,0,0,0,0,0,0,0,0,3078
290,-3.1147e-12,3.64059e-38,-1.50429e-06,-3.18057e-12,3.64036e-38,-3.59999e-12,-1.06596e-13,0,0,-6.92582,-0.0890327,0.151007,0,0,0,0,0,0.0890064,-0.0890327,139,12,139,12,196,12,139,66,0,-0.261799,-0.000348145,-1.5,3.94113e+12,0,0,3,0,0,0,0,0,0,0,0,3078
300,-3.1147e-12,3.64059e-38,-1.50429e-06,-3.18057e-12,3.64036e-38,0,-1.06597e-13,0,0,-6.92582,-0.0890327,0.151007,0,0,0,0,0,0.0890064,-0.0890327,139,12,139,12,196,12,139,66,0,-0.261799,-0.000330979,-1.5,3.94113e+12,0,0,3,0,0,0,0,0,0,0,0,3078
310,-3.1147e-12,3.64059e-38,-1.50429e-06,-3.18057e-12,3.64036e-38,-3.59999e-12,-1.06597e-13,0,0,-6.92582,-0.0890327,0.151007,0,0,0,0,0,0.0890064,-0.0890327,139,12,139,12,196,12,139,66,0,-0.261799,-0.000320503,-1.5,3.94113e+12,0,0,3,0,0,0,0,0,0,0,0,3078
320,-3.1147e-12,3.64059e-38,-1.50429e-06,-3.18057e-12,3.64036e-38,0,-1.06597e-13,0,0,-6.92582,-0.0890327,0.151007,0,0,0,0,0,0.0890064,-0.0890327,139,12,139,12,196,12,139,66,0,-0.261799,-0.000307847,-1.5,3.94113e+12,0,0,3,0,0,0,0,0,0,0,0,3078
330,-3.1147e-12,3.64059e-38,-1.50429e-06,-3.18057e-12,3.64036e-38,-3.59999e-12,-1.06597e-13,0,0,-6.92582,-0.0890327,0.151007,0,0,0,0,0,0.0890064,-0.0890327,139,12,139,12,196,12,139,66,0,-0.261799,-0.000297498,-1.5,3.94113e+12,0,0,3,0,0,0,0,0,0,0,0,3078
340,-3.1147e-12,3.64059e-38,-1.50429e-06,-3.18057e-12,3.64036e-38,0,-1.06598e-13,0,0,-6.92582,-0.0890327,0.151007,0,0,0,0,0,0.0890064,-0.0890327,139,12,139,12,196,12,139,66,0,-0.261799,-0.000287497,-1.5,3.94113e+12,0,0,3,0,0,0,0,0,0,0,0,3078
350,-3.1147e-12,3.64059e-38,-1.50429e-06,-3.18057e-12,3.64036e-38,-3.59999e-12,-1.06598e-13,0,0,-6.92582,-0.0890327,0.151007,0,0,0,0,0,0.0890064,-0.0890327,139,12,139,12,196,12,139,66,0,-0.261799,-0.000277832,-1.5,3.94113e+12,0,0,3,0,0,0,0,0,0,0,0,3078
360,-3.1147e-12,3.64059e-38,-1.50429e-06,-3.18057e-12,3.64036e-38,0,-1.06598e-13,0,0,-6.92582,-0.0890327,0.151007,0,0,0,0,0,0.0890064,-0.0890327,139,12,139,12,196,12,139,66,0,-0.261799,-0.000269039,-1.5,3.94113e+12,0,0,3,0,0,0,0,0,0,0,0,3078
370,-3.1147e-12,3.64059e-38,-1.50429e-06,-3.18057e-12,3.64036e-38,-3.59999e-12,-1.06599e-13,0,0,-6.92582,-0.0890327,0.151007,0,0,0,0,0,0.0890064,-0.0890327,139,12,139,12,196,12,139,66,0,-0.261799,-0.00026,-1.5,3.94113e+12,0,0,3,0,0,0,0,0,0,0,0,3078
380,-3.1147e-12,3.64059e-38,-1.50429e-06,-3.18057e-12,3.64036e-38,0,-1.06599e-13,0,0,-6.92582,-0.0890327,0.151007,0,0,0,0,0,0.0890064,-0.0890327,139,12,139,12,196,12,139,66,0,-0.261799,-0.000250244,-1.5,3.94113e+12,0,0,3,0,0,0,0,0,0,0,0,3078
390,-3.1147e-12,3.64059e-38,-1.50429e-06,-3.18057e-12,3.64036e-38,-3.59999e-12,-1.06599e-13,0,0,-6.92582,-0.0890327,0.151007,0,0,0,0,0,0.0890064,-0.0890327,139,12,139,12,196,12,139,66,0,-0.261799,-0.000243309,-1.5,3.94113e+12,0,0,3,0,0,0,0,0,0,0,0,3078
400,-3.1147e-12,3.64059e-38,-1.50429e-06,-3.18057e-12,3.64036e-38,0,-1.06599e-13,0,0,-6.92582,-0.0890327,0.151007,0,0,0,0,0,0.0890064,-0.0890327,139,12,139,12,196,12,139,66,0,-0.261799,-0.000236569,-1.5,3.94113e+12,0,0,3,0,0,0,0,0,0,0,0,3078
410,-3.1147e-12,3.64059e-38,-1.50429e-06,-3.18057e-12,3.64036e-38,-3.59999e-12,-1.066e-13,0,0,-6.92582,-0.0890327,0.151007,0,0,0,0,0,0.0890064,-0.0890327,139,12,139,12,196,12,139,66,0,-0.261799,-0.000228622,-1.5,3.94113e+12,0,0,3,0,0,0,0,0,0,0,0,3078
420,-3.1147e-12,3.64059e-38,-1.50429e-06,-3.18057e-12,3.64036e-38,0,-1.066e-13,0,0,-6.92582,-0.0890327,0.151007,0,0,0,0,0,0.0890064,-0.0890327,139,12,139,12,196,12,139,66,0,-0.261799,-0.000221386,-1.5,3.94113e+12,0,0,3,0,0,0,0,0,0,0,0,3078
430,-3.1147e-12,3.64059e-38,-1.50429e-06,-3.18057e-12,3.64036e-38,-3.59999e-12,-1.066e-13,0,0,-6.92582,-0.0890327,0.151007,0,0,0,0,0,0.0890064,-0.0890327,139,12,139,12,196,12,139,66,0,-0.261799,-0.000214379,-1.5,3.94113e+12,0,0,3,0,0,0,0,0,0,0,0,3078
440,-3.1147e-12,3.64059e-38,-1.50429e-06,-3.18057e-12,3.64036e-38,0,-1.066e-13,0,0,-6.92582,-0.0890327,0.151007,0,0,0,0,0,0.0890064,-0.0890327,139,12,139,12,196,12,139,66,0,-0.261799,-0.000205906,-1.5,3.94113e+12,0,0,3,0,0,0,0,0,0,0,0,3078
450,-3.1147e-12,3.64059e-38,-1.50429e-06,-3.18057e-12,3.64036e-38,-3.59999e-12,-1.06601e-13,0,0,-6.92582,-0.0890327,0.151007,0,0,0,0,0,0.0890064,-0.0890327,139,12,139,12,196,12,139,66,0,-0.261799,-0.000198585,-1.5,3.94113e+12,0,0,3,0,0,0,0,0,0,0,0,3078
460,-3.1147e-12,3.64059e-38,-1.50429e-06,-3.18057e-12,3.64036e-38,0,-1.06601e-13,0,0,-6.92582,-0.0890327,0.151007,0,0,0,0,0,0.0890064,-0.0890327,139,12,139,12,196,12,139,66,0,-0.261799,-0.000191913,-1.5,3.94113e+12,0,0,3,0,0,0,0,0,0,0,0,3078
470,-3.1147e-12,3.64059e-38,-1.50429e-06,-3.18057e-12,3.64036e-38,-3.59999e-12,-1.06601e-13,0,0,-6.92582,-0.0890327,0.151007,0,0,0,0,0,0.0890064,-0.0890327,139,12,139,12,196,12,139,66,0,-0.261799,-0.000185839,-1.5,3.94113e+12,0,0,3,0,0,0,0,0,0,0,0,3078
480,-3.1147e-12,3.64059e-38,-1.50429e-06,-3.18057e-12,3.64036e-38,0,-1.06602e-13,0,0,-6.92582,-0.0890327,0.151007,0,0,0,0,0,0.0890064,-0.0890327,139,12,139,12,196,12,139,66,0,-0.261799,-0.000179596,-1.5,3.94113e+12,0,0,3,0,0,0,0,0,0,0,0,3078
490,-3.1147e-12,3.64059e-38,-1.50429e-06,-3.18057e-12,3.64036e-38,-3.59999e-12,-1.06602e-13,0,0,-6.92582,-0.0890327,0.151007,0,0,0,0,0,0.0890064,-0.0890327,139,12,139,12,196,12,139,66,0,-0.261799,-0.000173916,-1.5,3.94113e+12,0,0,3,0,0,0,0,0,0,0,0,3078
500,-3.1147e-12,3.64059e-38,-1.50429e-06,-3.18057e-12,3.64036e-38,0,-1.06602e-13,0,0,-6.92582,-0.0890327,0.151007,0,0,0,0,0,0.0890064,-0.0890327,139,12,139,12,196,12,139,66,0,-0.261799,-0.000167048,-1.5,3.94113e+12,0,0,3,0,0,0,0,0,0,0,0,3078
510,-3.1147e-12,3.64059e-38,-1.50429e-06,-3.18057e-12,3.64036e-38,-3.59999e-12,-1.06602e-13,0,0,-6.92582,-0.0890327,0.151007,0,0,0,0,0,0.0890064,-0.0890327,139,12,139,12,196,12,139,66,0,-0.261799,-0.000161436,-1.5,3.94113e+12,0,0,3,0,0,0,0,0,0,0,0,3078
520,-3.1147e-12,3.64059e-38,-1.50429e-06,-3.18057e-12,3.64036e-38,0,-1.06603e-13,0,0,-6.92582,-0.0890327,0.151007,0,0,0,0,0,0.0890064,-0.0890327,139,12,139,12,196,12,139,66,0,-0.261799,-0.000156013,-1.5,3.94113e+12,0,0,3,0,0,0,0,0,0,0,0,3078
530,-3.1147e-12,3.64059e-38,-1.50429e-06,-3.18057e-12,3.64036e-38,-3.59999e-12,-1.06603e-13,0,0,-6.92582,-0.0890327,0.151007,0,0,0,0,0,0.0890064,-0.0890327,139,12,139,12,196,12,139,66,0,-0.261799,-0.000151075,-1.5,3.94113e+12,0,0,3,0,0,0,0,0,0,0,0,3078
540,-3.1147e-12,3.64059e-38,-1.50429e-06,-3.18057e-12,3.64036e-38,0,-1.06603e-13,0,0,-6.92582,-0.0890327,0.151007,0,0,0,0,0,0.0890064,-0.0890327,139,12,139,12,196,12,139,66,0,-0.261799,-0.000146591,-1.5,3.94113e+12,0,0,3,0,0,0,0,0,0,0,0,3078
550,-3.1147e-12,3.64059e-38,-1.50429e-06,-3.18057e-12,3.64036e-38,-3.59999e-12,-1.06603e-13,0,0,-6.92582,-0.0890327,0.151007,0,0,0,0,0,0.0890064,-0.0890327,139,12,139,12,196,12,139,66,0,-0.261799,-0.000142817,-1.5,3.94113e+12,0,0,3,0,0,0,0,0,0,0,0,3078
560,-3.1147e-12,3.64059e-38,-1.50429e-06,-3.18057e-12,3.64036e-38,0,-1.06604e-13,0,0,-6.92582,-0.0890327,0.151007,0,0,0,0,0,0.0890064,-0.0890327,139,12,139,12,196,12,139,66,0,-0.261799,-0.0001383,-1.5,3.94113e+12,0,0,3,0,0,0,0,0,0,0,0,3078
570,-3.1147e-12,3.64059e-38,-1.50429e-06,-3.18057e-12,3.64036e-38,-3.59999e-12,-1.06604e-13,0,0,-6.92582,-0.0890327,0.151007,0,0,0,0,0,0.0890064,-0.0890327,139,12,139,12,196,12,139,66,0,-0.261799,-0.00013365,-1.5,3.94113e+12,0,0,3,0,0,0,0,0,0,0,0,3078
580,-3.1147e-12,3.64059e-38,-1.50429e-06,-3.18057e-12,3.64036e-38,0,-1.06604e-13,0,0,-6.92582,-0.0890327,0.151007,0,0,0,0,0,0.0890064,-0.0890327,139,12,139,12,196,12,139,66,0,-0.261799,-0.000129157,-1.5,3.94113e+12,0,0,3,0,0,0,0,0,0,0,0,3078
590,-3.1147e-12,3.64059e-38,-1.50429e-06,-3.18057e-12,3.64036e-38,-3.59999e-12,-1.06605e-13,0,0,-6.92582,-0.0890327,0.151007,0,0,0,0,0,0.0890064,-0.0890327,139,12,139,12,196,12,139,66,0,-0.261799,-0.000124815,-1.5,3.94113e+12,0,0,3,0,0,0,0,0,0,0,0,3078
600,-3.1147e-12,3.64059e-38,-1.50429e-06,-3.18057e-12,3.64036e-38,0,-1.06605e-13,0,0,-6.92582,-0.0890327,0.151007,0,0,0,0,0,0.0890064,-0.0890327,139,12,139,12,196,12,139,66,0,-0.261799,-0.000120865,-1.5,3.94113e+12,0,0,3,0,0,0,0,0,0,0,0,3078
610,-3.1147e-12,3.64059e-38,-1.50429e-06,-3.18057e-12,3.64036e-38,-3.59999e-12,-1.06605e-13,0,0,-6.92582,-0.0890327,0.151007,0,0,0,0,0,0.0890064,-0.0890327,139,12,139,12,196,12,139,66,0,-0.261799,-0.000116805,-1.5,3.94113e+12,0,0,3,0,0,0,0,0,0,0,0,3078
620,-3.1147e-12,3.64059e-38,-1.50429e-06,-3.18057e-12,3.64036e-38,0,-1.06605e-13,0,0,-6.92582,-0.0890327,0.151007,0,0,0,0,0,0.0890064,-0.0890327,139,12,139,12,196,12,139,66,0,-0.261799,-0.000112418,-1.5,3.94113e+12,0,0,3,0,0,0,0,0,0,0,0,3078
630,-3.1147e-12,3.64059e-38,-1.50429e-06,-3.18057e-12,3.64036e-38,-3.59999e-12,-1.06606e-13,0,0,-6.92582,-0.0890327,0.151007,0,0,0,0,0,0.0890064,-0.0890327,139,12,139,12,196,12,139,66,0,-0.261799,-0.000108639,-1.5,3.94113e+12,0,0,3,0,0,0,0,0,0,0,0,3078
640,-3.1147e-12,3.64059e-38,-1.50429e-06,-3.18057e-12,3.64036e-38,0,-1.06606e-13,0,0,-6.92582,-0.0890327,0.151007,0,0,0,0,0,0.0890064,-0.0890327,139,12,139,12,196,12,139,66,0,-0.261799,-0.000104987,-1.5,3.94113e+12,0,0,3,0,0,0,0,0,0,0,0,3078
650,-3.1147e-12,3.64059e-38,-1.50429e-06,-3.18057e-12,3.64036e-38,-3.59999e-12,-1.06606e-13,0,0,-6.92582,-0.0890327,0.151007,0,0,0,0,0,0.0890064,-0.0890327,139,12,139,12,196,12,139,66,0,-0.261799,-0.000101664,-1.5,3.94113e+12,0,0,3,0,0,0,0,0,0,0,0,3078
660,-3.1147e-12,3.64059e-38,-1.50429e-06,-3.18057e-12,3.64036e-38,0,-1.06606e-13,0,0,-6.92582,-0.0890327,0.151007,0,0,0,0,0,0.0890064,-0.0890327,139,12,139,12,196,12,139,66,0,-0.261799,-9.84461e-05,-1.5,3.94113e+12,0,0,3,0,0,0,0,0,0,0,0,3078
670,-3.1147e-12,3.64059e-38,-1.50429e-06,-3.18057e-12,3.64036e-38,-3.59999e-12,-1.06607e-13,0,0,-6.92582,-0.0890327,0.151007,0,0,0,0,0,0.0890064,-0.0890327,139,12,139,12,196,12,139,66,0,-0.261799,-9.51389e-05,-1.5,3.94113e+12,0,0,3,0,0,0,0,0,0,0,0,3078
680,-3.1147e-12,3.64059e-38,-1.50429e-06,-3.18057e-12,3.64036e-38,0,-1.06607e-13,0,0,-6.92582,-0.0890327,0.151007,0,0,0,0,0,0.0890064,-0.0890327,139,12,139,12,196,12,139,66,0,-0.261799,-9.13788e-05,-1.5,3.94113e+12,0,0,3,0,0,0,0,0,0,0,0,3078
690,-3.1147e-12,3.64059e-38,-1.50429e-06,-3.18057e-12,3.64036e-38,-3.59999e-12,-1.06607e-13,0,0,-6.92582,-0.0890327,0.151007,0,0,0,0,0,0.0890064,-0.0890327,139,12,139,12,196,12,139,66,0,-0.261799,-8.81295e-05,-1.5,3.94113e+12,0,0,3,0,0,0,0,0,0,0,0,3078
700,-3.1147e-12,3.64059e-38,-1.50429e-06,-3.18057e-12,3.64036e-38,0,-1.06607e-13,0,0,-6.92582,-0.0890327,0.151007,0,0,0,0,0,0.0890064,-0.0890327,139,12,139,12,196,12,139,66,0,-0.261799,-8.53402e-05,-1.5,3.94113e+12,0,0,3,0,0,0,0,0,0,0,0,3078
710,-3.1147e-12,3.64059e-38,-1.50429e-06,-3.18057e-12,3.64036e-38,-3.59999e-12,-1.06608e-13,0,0,-6.92582,-0.0890327,0.151007,0,0,0,0,0,0.0890064,-0.0890327,139,12,139,12,196,12,139,66,0,-0.261799,-8.19674e-05,-1.5,3.94113e+12,0,0,3,0,0,0,0,0,0,0,0,3078
720,-3.1147e-12,3.64059e-38,-1.50429e-06,-3.18057e-12,3.64036e-38,0,-1.06608e-13,0,0,-6.92582,-0.0890327,0.151007,0,0,0,0,0,0.0890064,-0.0890327,139,12,139,12,196,12,139,66,0,-0.261799,-7.98571e-05,-1.5,3.94113e+12,0,0,3,0,0,0,0,0,0,0,0,3078
730,-3.1147e-12,3.64059e-38,-1.50429e-06,-3.18057e-12,3.64036e-38,-3.59999e-12,-1.06608e-13,0,0,-6.92582,-0.0890327,0.151007,0,0,0,0,0,0.0890064,-0.0890327,139,12,139,12,196,12,139,66,0,-0.261799,-7.76449e-05,-1.5,3.94113e+12,0,0,3,0,0,0,0,0,0,0,0,3078
740,-3.1147e-12,3.64059e-38,-1.50429e-06,-3.18057e-12,3.64036e-38,0,-1.06609e-13,0,0,-6.92582,-0.0890327,0.151007,0,0,0,0,0,0.0890064,-0.0890327,139,12,139,12,196,12,139,66,0,-0.261799,-6.14628e-05,-1.5,3.94113e+12,0,0,3,0,0,0,0,0,0,0,0,3078
750,-3.1147e-12,3.64059e-38,-1.50429e-06,-3.18057e-12,3.64036e-38,-3.59999e-12,-1.06609e-13,0,0,-6.92582,-0.0890327,0.151007,0,0,0,0,0,0.0890064,-0.0890327,139,12,139,12,196,12,139,66,0,-0.261799,-5.92773e-05,-1.5,3.94113e+12,0,0,3,0,0,0,0,0,0,0,0,3078
760,-3.1147e-12,3.64059e-38,-1.50429e-06,-3.18057e-12,3.64036e-38,0,-1.06609e-13,0,0,-6.92582,-0.0890327,0.151007,0,0,0,0,0,0.0890064,-0.0890327,139,12,139,12,196,12,139,66,0,-0.261799,-5.72859e-05,-1.5,3.94113e+12,0,0,3,0,0,0,0,0,0,0,0,3078
770,-3.1147e-12,3.64059e-38,-1.50429e-06,-3.18057e-12,3.64036e-38,-3.59999e-12,-1.06609e-13,0,0,-6.92582,-0.0890327,0.151007,0,0,0,0,0,0.0890064,-0.0890327,139,12,139,12,196,12,139,66,0,-0.261799,-5.53614e-05,-1.5,3.94113e+12,0,0,3,0,0,0,0,0,0,0,0,3078
780,-3.1147e-12,3.64059e-38,-1.50429e-06,-3.18057e-12,3.64036e-38,0,-1.0661e-13,0,0,-6.92582,-0.0890327,0.151007,0,0,0,0,0,0.0890064,-0.0890327,139,12,139,12,196,12,139,66,0,-0.261799,-5.36093e-05,-1.5,3.94113e+12,0,0,3,0,0,0,0,0,0,0,0,3078
790,-3.1147e-12,3.64059e-38,-1.50429e-06,-3.18057e-12,3.64036e-38,-3.59999e-12,-1.0661e-13,0,0,-6.92582,-0.0890327,0.151007,0,0,0,0,0,0.0890064,-0.0890327,139,12,139,12,196,12,139,66,0,-0.261799,-5.19125e-05,-1.5,3.94113e+12,0,0,3,0,0,0,0,0,0,0,0,3078
800,-3.1147e-12,3.64059e-38,-1.50429e-06,-3.18057e-12,3.64036e-38,0,-1.0661e-13,0,0,-6.92582,-0.0890327,0.151007,0,0,0,0,0,0.0890064,-0.0890327,139,12,139,12,196,12,139,66,0,-0.261799,-4.99646e-05,-1.5,3.94113e+12,0,0,3,0,0,0,0,0,0,0,0,3078
810,-3.1147e-12,3.64059e-38,-1.50429e-06,-3.18057e-12,3.64036e-38,-3.59999e-12,-1.0661e-13,0,0,-6.92582,-0.0890327,0.151007,0,0,0,0,0,0.0890064,-0.0890327,139,12,139,12,196,12,139,66,0,-0.261799,-4.8188e-05,-1.5,3.94113e+12,0,0,3,0,0,0,0,0,0,0,0,3078
820,-3.1147e-12,3.64059e-38,-1.50429e-06,-3.18057e-12,3.64036e-38,0,-1.06611e-13,0,0,-6.92582,-0.0890327,0.151007,0,0,0,0,0,0.0890064,-0.0890327,139,12,139,12,196,12,139,66,0,-0.261799,-4.65691e-05,-1.5,3.94113e+12,0,0,3,0,0,0,0,0,0,0,0,3078
830,-3.1147e-12,3.64059e-38,-1.50429e-06,-3.18057e-12,3.64036e-38,-3.59999e-12,-1.06611e-13,0,0,-6.92582,-0.0890327,0.151007,0,0,0,0,0,0.0890064,-0.0890327,139,12,139,12,196,12,139,66,0,-0.261799,-4.50952e-05,-1.5,3.94113e+12,0,0,3,0,0,0,0,0,0,0,0,3078
840,-3.1147e-12,3.64059e-38,-1.50429e-06,-3.18057e-12,3.64036e-38,0,-1.06611e-13,0,0,-6.92582,-0.0890327,0.151007,0,0,0,0,0,0.0890064,-0.0890327,139,12,139,12,196,12,139,66,0,-0.261799,-4.35803e-05,-1.5,3.94113e+12,0,0,3,0,0,0,0,0,0,0,0,3078
850,-3.1147e-12,3.64059e-38,-1.50429e-06,-3.18057e-12,3.64036e-38,-3.59999e-12,-1.06612e-13,0,0,-6.92582,-0.0890327,0.151007,0,0,0,0,0,0.0890064,-0.0890327,139,12,139,12,196,12,139,66,0,-0.261799,-4.22018e-05,-1.5,3.94113e+12,0,0,3,0,0,0,0,0,0,0,0,3078
860,-3.1147e-12,3.64059e-38,-1.50429e-06,-3.18057e-12,3.64036e-38,0,-1.06612e-13,0,0,-6.92582,-0.0890327,0.151007,0,0,0,0,0,0.0890064,-0.0890327,139,12,139,12,196,12,139,66,0,-0.261799,-4.05339e-05,-1.5,3.94113e+12,0,0,3,0,0,0,0,0,0,0,0,3078
870,-3.1147e-12,3.64059e-38,-1.50429e-06,-3.18057e-12,3.64036e-38,-3.59999e-12,-1.06612e-13,0,0,-6.92582,-0.0890327,0.151007,0,0,0,0,0,0.0890064,-0.0890327,139,12,139,12,196,12,139,66,0,-0.261799,-3.91722e-05,-1.5,3.94113e+12,0,0,3,0,0,0,0,0,0,0,0,3078
880,-3.1147e-12,3.64059e-38,-1.50429e-06,-3.18057e-12,3.64036e-38,0,-1.06612e-13,0,0,-6.92582,-0.0890327,0.151007,0,0,0,0,0,0.0890064,-0.0890327,139,12,139,12,196,12,139,66,0,-0.261799,-3.80866e-05,-1.5,3.94113e+12,0,0,3,0,0,0,0,0,0,0,0,3078
890,-3.1147e-12,3.64059e-38,-1.50429e-06,-3.18057e-12,3.64036e-38,-3.59999e-12,-1.06613e-13,0,0,-4.00174,-0.523926,-0.74896,0,0,0,0,0,0.900539,-0.523926,152,20,152,20,266,20,152,83,0,-0.261799,-3.71061e-05,-1.5,3.94113e+12,0,0,3,0,0,0,0,0,0,0,0,7182
900,-3.1147e-12,3.64059e-38,-1.50429e-06,-3.18057e-12,3.64036e-38,0,-1.06613e-13,0,0,-4.00174,-0.523926,-0.74896,0,0,0,0,0,0.900539,-0.523926,152,20,152,20,266,20,152,83,0,-0.261799,-3.61508e-05,-1.5,3.94113e+12,0,0,3,0,0,0,0,0,0,0,0,7182
910,-3.1147e-12,3.64059e-38,-1.50429e-06,-3.18057e-12,3.64036e-38,-3.59999e-12,-1.06613e-13,0,0,-4.00174,-0.523926,-0.74896,0,0,0,0,0,0.900539,-0.523926,152,20,152,20,266,20,152,83,0,-0.261799,-3.50066e-05,-1.5,3.94113e+12,0,0,3,0,0,0,0,0,0,0,0,7182
920,-3.1147e-12,3.64059e-38,-1.50429e-06,-3.18057e-12,3.64036e-38,0,-1.06613e-13,0,0,-4.00174,-0.523926,-0.74896,0,0,0,0,0,0.900539,-0.523926,152,20,152,20,266,20,152,83,0,-0.261799,-3.38297e-05,-1.5,3.94113e+12,0,0,3,0,0,0,0,0,0,0,0,7182
930,-3.1147e-12,3.64059e-38,-1.50429e-06,-3.18057e-12,3.64036e-38,-3.59999e-12,-1.06614e-13,0,0,-4.00174,-0.523926,-0.74896,0,0,0,0,0,0.900539,-0.523926,152,20,152,20,266,20,152,83,0,-0.261799,-3.26268e-05,-1.5,3.94113e+12,0,0,3,0,0,0,0,0,0,0,0,7182
940,-3.1147e-12,3.64059e-38,-1.50429e-06,-3.18057e-12,3.64036e-38,0,-1.06614e-13,0,0,-4.00174,-0.523926,-0.74896,0,0,0,0,0,0.900539,-0.523926,152,20,152,20,266,20,152,83,0,-0.261799,-3.15307e-05,-1.5,3.94113e+12,0,0,3,0,0,0,0,0,0,0,0,7182
950,-3.1147e-12,3.64059e-38,-1.50429e-06,-3.18057e-12,3.64036e-38,-3.59999e-12,-1.06614e-13,0,0,-4.00174,-0.523926,-0.74896,0,0,0,0,0,0.900539,-0.523926,152,20,152,20,266,20,152,83,0,-0.261799,-3.05328e-05,-1.5,3.94113e+12,0,0,3,0,0,0,0,0,0,0,0,7182
960,-3.1147e-12,3.64059e-38,-1.50429e-06,-3.18057e-12,3.64036e-38,0,-1.06615e-13,0,0,-4.00174,-0.523926,-0.74896,0,0,0,0,0,0.900539,-0.523926,152,20,152,20,266,20,152,83,0,-0.261799,-2.95063e-05,-1.5,3.94113e+12,0,0,3,0,0,0,0,0,0,0,0,7182
970,-3.1147e-12,3.64059e-38,-1.50429e-06,-3.18057e-12,3.64036e-38,-3.59999e-12,-1.06615e-13,0,0,-4.00174,-0.523926,-0.74896,0,0,0,0,0,0.900539,-0.523926,152,20,152,20,266,20,152,83,0,-0.261799,-2.85725e-05,-1.5,3.94113e+12,0,0,3,0,0,0,0,0,0,0,0,7182
980,-3.1147e-12,3.64059e-38,-1.50429e-06,-3.18057e-12,3.64036e-38,0,-1.06615e-13,0,0,-4.00174,-0.523926,-0.74896,0,0,0,0,0,0.900539,-0.523926,152,20,152,20,266,20,152,83,0,-0.261799,-2.76119e-05,-1.5,3.94113e+12,0,0,3,0,0,0,0,0,0,0,0,7182
990,-3.1147e-12,3.64059e-38,-1.50429e-06,-3.18057e-12,3.64036e-38,-3.59999e-12,-1.06615e-13,0,0,-4.00174,-0.523926,-0.74896,0,0,0,0,0,0.900539,-0.523926,152,20,152,20,266,20,152,83,0,-0.261799,-2.66301e-05,-1.5,3.94113e+12,0,0,3,0,0,0,0,0,0,0,0,7182
1000,-3.1147e-12,3.64059e-38,-1.50429e-06,-3.18057e-12,3.64036e-38,0,-1.06616e-13,0,0,-4.00174,-0.523926,-0.74896,0,0,0,0,0,0.900539,-0.523926,152,20,152,20,266,20,152,83,0,-0.261799,-2.57355e-05,-1.5,3.94113e+12,0,0,3,0,0,0,0,0,0,0,0,7182
1010,-3.1147e-12,3.64059e-38,-1.50429e-06,-3.18057e-12,3.64036e-38,-3.59999e-12,-1.06616e-13,0,0,-6.58259,-0.150467,0.0895842,0,0,0,0,0,0.222977,-0.150467,142,8,142,8,200,8,142,67,0,-0.261799,-2.48709e-05,-1.5,3.94113e+12,0,0,3,0,0,0,0,0,0,0,0,3422
1020,-3.1147e-12,3.64059e-38,-1.50429e-06,-3.18057e-12,3.64036e-38,0,-1.06616e-13,0,0,-6.58259,-0.150467,0.0895842,0,0,0,0,0,0.222977,-0.150467,142,8,142,8,200,8,142,67,0,-0.261799,-2.40837e-05,-1.5,3.94113e+12,0,0,3,0,0,0,0,0,0,0,0,3422
1030,-3.1147e-12,3.64059e-38,-1.50429e-06,-3.18057e-12,3.64036e-38,-3.59999e-12,-1.06616e-13,0,0,-6.58259,-0.150467,0.0895842,0,0,0,0,0,0.222977,-0.150467,142,8,142,8,200,8,142,67,0,-0.261799,-2.33215e-05,-1.5,3.94113e+12,0,0,3,0,0,0,0,0,0,0,0,3422
1040,-3.1147e-12,3.64059e-38,-1.50429e-06,-3.18057e-12,3.64036e-38,0,-1.06617e-13,0,0,-6.58259,-0.150467,0.0895842,0,0,0,0,0,0.222977,-0.150467,142,8,142,8,200,8,142,67,0,-0.261799,-2.24019e-05,-1.5,3.94113e+12,0,0,3,0,0,0,0,0,0,0,0,3422
1050,-3.1147e-12,3.64059e-38,-1.50429e-06,-3.18057e-12,3.64036e-38,-3.59999e-12,-1.06617e-13,0,0,-6.58259,-0.150467,0.0895842,0,0,0,0,0,0.222977,-0.150467,142,8,142,8,200,8,142,67,0,-0.261799,-2.17813e-05,-1.5,3.94113e+12,0,0,3,0,0,0,0,0,0,0,0,3422
1060,-3.1147e-12,3.64059e-38,-1.50429e-06,-3.18057e-12,3.64036e-38,0,-1.06617e-13,0,0,-6.58259,-0.150467,0.0895842,0,0,0,0,0,0.222977,-0.150467,142,8,142,8,200,8,142,67,0,-0.261799,-2.11779e-05,-1.5,3.94113e+12,0,0,3,0,0,0,0,0,0,0,0,3422
1070,-3.1147e-12,3.64059e-38,-1.50429e-06,-3.18057e-12,3.64036e-38,-3.59999e-12,-1.06618e-13,0,0,-7.06527,-0.171611,0.206859,0,0,0,0,0,0.031636,-0.171611,145,10,145,10,198,10,145,66,0,-0.261799,-2.05077e-05,-1.5,3.94113e+12,0,0,3,0,0,0,0,0,0,0,0,2968
1080,-3.1147e-12,3.64059e-38,-1.50429e-06,-3.18057e-12,3.64036e-38,0,-1.06618e-13,0,0,-7.06527,-0.171611,0.206859,0,0,0,0,0,0.031636,-0.171611,145,10,145,10,198,10,145,66,0,-0.261799,-1.98187e-05,-1.5,3.94113e+12,0,0,3,0,0,0,0,0,0,0,0,2968
1090,-3.1147e-12,3.64059e-38,-1.50429e-06,-3.18057e-12,3.64036e-38,-3.59999e-12,-1.06618e-13,0,0,-7.06527,-0.171611,0.206859,0,0,0,0,0,0.031636,-0.171611,145,10,145,10,198,10,145,66,0,-0.261799,-1.91915e-05,-1.5,3.94113e+12,0,0,3,0,0,0,0,0,0,0,0,2968
1100,-3.1147e-12,3.64059e-38,-1.50429e-06,-3.18057e-12,3.64036e-38,0,-1.06618e-13,0,0,-7.06527,-0.171611,0.206859,0,0,0,0,0,0.031636,-0.171611,145,10,145,10,198,10,145,66,0,-0.261799,-1.85467e-05,-1.5,3.94113e+12,0,0,3,0,0,0,0,0,0,0,0,2968
1110,-3.1147e-12,3.64059e-38,-1.50429e-06,-3.18057e-12,3.64036e-38,-3.59999e-12,-1.06619e-13,0,0,-7.06527,-0.171611,0.206859,0,0,0,0,0,0.031636,-0.171611,145,10,145,10,198,10,145,66,0,-0.261799,-1.78502e-05,-1.5,3.94113e+12,0,0,3,0,0,0,0,0,0,0,0,2968
1120,-3.1147e-12,3.64059e-38,-1.50429e-06,-3.18057e-12,3.64036e-38,0,-1.06619e-13,0,0,-7.06527,-0.171611,0.206859,0,0,0,0,0,0.031636,-0.171611,145,10,145,10,198,10,145,66,0,-0.261799,-1.72501e-05,-1.5,3.94113e+12,0,0,3,0,0,0,0,0,0,0,0,2968
1130,-3.1147e-12,3.64059e-38,-1.50429e-06,-3.18057e-12,3.64036e-38,-3.59999e-12,-1.06619e-13,0,0,-7.06527,-0.171611,0.206859,0,0,0,0,0,0.031636,-0.171611,145,10,145,10,198,10,145,66,0,-0.261799,-1.66702e-05,-1.5,3.94113e+12,0,0,3,0,0,0,0,0,0,0,0,2968
1140,-3.1147e-12,3.64059e-38,-1.50429e-06,-3.18057e-12,3.64036e-38,0,-1.06619e-13,0,0,-7.06527,-0.171611,0.206859,0,0,0,0,0,0.031636,-0.171611,145,10,145,10,198,10,145,66,0,-0.261799,-1.61102e-05,-1.5,3.94113e+12,0,0,3,0,0,0,0,0,0,0,0,2968
1150,-3.1147e-12,3.64059e-38,-1.50429e-06,-3.18057e-12,3.64036e-38,-3.59999e-12,-1.0662e-13,0,0,-7.06527,-0.171611,0.206859,0,0,0,0,0,0.031636,-0.171611,145,10,145,10,198,10,145,66,0,-0.261799,-1.56006e-05,-1.5,3.94113e+12,0,0,3,0,0,0,0,0,0,0,0,2968
1160,-3.1147e-12,3.64059e-38,-1.50429e-06,-3.18057e-12,3.64036e-38,0,-1.0662e-13,0,0,-7.06527,-0.171611,0.206859,0,0,0,0,0,0.031636,-0.171611,145,10,145,10,198,10,145,66,0,-0.261799,-1.50153e-05,-1.5,3.94113e+12,0,0,3,0,0,0,0,0,0,0,0,2968
1170,-3.1147e-12,3.64059e-38,-1.50429e-06,-3.18057e-12,3.64036e-38,-3.59999e-12,-1.0662e-13,0,0,-7.06527,-0.171611,0.206859,0,0,0,0,0,0.031636,-0.171611,145,10,145,10,198,10,145,66,0,-0.261799,-1.45105e-05,-1.5,3.94113e+12,0,0,3,0,0,0,0,0,0,0,0,2968
1180,-3.1147e-12,3.64059e-38,-1.50429e-06,-3.18057e-12,3.64036e-38,0,-1.0662e-13,0,0,-7.06527,-0.171611,0.206859,0,0,0,0,0,0.031636,-0.171611,145,10,145,10,198,10,145,66,0,-0.261799,-1.40227e-05,-1.5,3.94113e+12,0,0,3,0,0,0,0,0,0,0,0,2968
1190,-3.1147e-12,3.64059e-38,-1.50429e-06,-3.18057e-12,3.64036e-38,-3.59999e-12,-1.06621e-13,0,0,-7.06527,-0.171611,0.206859,0,0,0,0,0,0.031636,-0.171611,145,10,145,10,198,10,145,66,0,-0.261799,-1.35512e-05,-1.5,3.94113e+12,0,0,3,0,0,0,0,0,0,0,0,2968
1200,-3.1147e-12,3.64059e-38,-1.50429e-06,-3.18057e-12,3.64036e-38,0,-1.06621e-13,0,0,-7.06527,-0.171611,0.206859,0,0,0,0,0,0.031636,-0.171611,145,10,145,10,198,10,145,66,0,-0.261799,-1.31224e-05,-1.5,3.94113e+12,0,0,3,0,0,0,0,0,0,0,0,2968
1210,-3.1147e-12,3.64059e-38,-1.50429e-06,-3.18057e-12,3.64036e-38,-3.59999e-12,-1.06621e-13,0,0,-7.06527,-0.171611,0.206859,0,0,0,0,0,0.031636,-0.171611,145,10,145,10,198,10,145,66,0,-0.261799,-1.27329e-05,-1.5,3.94113e+12,0,0,3,0,0,0,0,0,0,0,0,2968
1220,-3.1147e-12,3.64059e-38,-1.50429e-06,-3.18057e-12,3.64036e-38,0,-1.06622e-13,0,0,-7.06527,-0.171611,0.206859,0,0,0,0,0,0.031636,-0.171611,145,10,145,10,198,10,145,66,0,-0.261799,-1.23301e-05,-1.5,3.94113e+12,0,0,3,0,0,0,0,0,0,0,0,2968
1230,-3.1147e-12,3.64059e-38,-1.50429e-06,-3.18057e-12,3.64036e-38,-3.59999e-12,-1.06622e-13,0,0,-7.06527,-0.171611,0.206859,0,0,0,0,0,0.031636,-0.171611,145,10,145,10,198,10,145,66,0,-0.261799,-1.19401e-05,-1.5,3.94113e+12,0,0,3,0,0,0,0,0,0,0,0,2968
1240,-3.1147e-12,3.64059e-38,-1.50429e-06,-3.18057e-12,3.64036e-38,0,-1.06622e-13,0,0,-7.06527,-0.171611,0.206859,0,0,0,0,0,0.031636,-0.171611,145,10,145,10,198,10,145,66,0,-0.261799,-1.1539e-05,-1.5,3.94113e+12,0,0,3,0,0,0,0,0,0,0,0,2968
1250,-3.1147e-12,3.64059e-38,-1.50429e-06,-3.18057e-12,3.64036e-38,-3.59999e-12,-1.06622e-13,0,0,-7.06527,-0.171611,0.206859,0,0,0,0,0,0.031636,-0.171611,145,10,145,10,198,10,145,66,0,-0.261799,-1.11738e-05,-1.5,3.94113e+12,0,0,3,0,0,0,0,0,0,0,0,2968
1260,-3.1147e-12,3.64059e-38,-1.50429e-06,-3.18057e-12,3.64036e-38,0,-1.06623e-13,0,0,-7.06527,-0.171611,0.206859,0,0,0,0,0,0.031636,-0.171611,145,10,145,10,198,10,145,66,0,-0.261799,-1.08201e-05,-1.5,3.94113e+12,0,0,3,0,0,0,0,0,0,0,0,2968
1270,-3.1147e-12,3.64059e-38,-1.50429e-06,-3.18057e-12,3.64036e-38,-3.59999e-12,-1.06623e-13,0,0,-7.06527,-0.171611,0.206859,0,0,0,0,0,0.031636,-0.171611,145,10,145,10,198,10,145,66,0,-0.261799,-1.04777e-05,-1.5,3.94113e+12,0,0,3,0,0,0,0,0,0,0,0,2968
1280,-3.1147e-12,3.64059e-38,-1.50429e-06,-3.18057e-12,3.64036e-38,0,-1.06623e-13,0,0,-7.06527,-0.171611,0.206859,0,0,0,0,0,0.031636,-0.171611,145,10,145,10,198,10,145,66,0,-0.261799,-1.01255e-05,-1.5,3.94113e+12,0,0,3,0,0,0,0,0,0,0,0,2968
1290,-3.1147e-12,3.64059e-38,-1.50429e-06,-3.18057e-12,3.64036e-38,-3.59999e-12,-1.06623e-13,0,0,-7.06527,-0.171611,0.206859,0,0,0,0,0,0.031636,-0.171611,145,10,145,10,198,10,145,66,0,-0.261799,-9.74552e-06,-1.5,3.94113e+12,0,0,3,0,0,0,0,0,0,0,0,2968
1300,-3.1147e-12,3.64059e-38,-1.50429e-06,-3.18057e-12,3.64036e-38,0,-1.06624e-13,0,0,-7.06527,-0.171611,0.206859,0,0,0,0,0,0.031636,-0.171611,145,10,145,10,198,10,145,66,0,-0.261799,-9.41812e-06,-1.5,3.94113e+12,0,0,3,0,0,0,0,0,0,0,0,2968
1310,-3.1147e-12,3.64059e-38,-1.50429e-06,-3.18057e-12,3.64036e-38,-3.59999e-12,-1.06624e-13,0,0,-7.06527,-0.171611,0.206859,0,0,0,0,0,0.031636,-0.171611,145,10,145,10,198,10,145,66,0,-0.261799,-9.12004e-06,-1.5,3.94113e+12,0,0,3,0,0,0,0,0,0,0,0,2968
1320,-3.1147e-12,3.64059e-38,-1.50429e-06,-3.18057e-12,3.64036e-38,0,-1.06624e-13,0,0,-7.06527,-0.171611,0.206859,0,0,0,0,0,0.031636,-0.171611,145,10,145,10,198,10,145,66,0,-0.261799,-8.81366e-06,-1.5,3.94113e+12,0,0,3,0,0,0,0,0,0,0,0,2968
1330,-3.1147e-12,3.64059e-38,-1.50429e-06,-3.18057e-12,3.64036e-38,-3.59999e-12,-1.06625e-13,0,0,-7.06527,-0.171611,0.206859,0,0,0,0,0,0.031636,-0.171611,145,10,145,10,198,10,145,66,0,-0.261799,-8.53471e-06,-1.5,3.94113e+12,0,0,3,0,0,0,0,0,0,0,0,2968
1340,-3.1147e-12,3.64059e-38,-1.50429e-06,-3.18057e-12,3.64036e-38,0,-1.06625e-13,0,0,-7.06527,-0.171611,0.206859,0,0,0,0,0,0.031636,-0.171611,145,10,145,10,198,10,145,66,0,-0.261799,-8.21446e-06,-1.5,3.94113e+12,0,0,3,0,0,0,0,0,0,0,0,2968
1350,-3.1147e-12,3.64059e-38,-1.50429e-06,-3.18057e-12,3.64036e-38,-3.59999e-12,-1.06625e-13,0,0,-7.06527,-0.171611,0.206859,0,0,0,0,0,0.031636,-0.171611,145,10,145,10,198,10,145,66,0,-0.261799,-7.92237e-06,-1.5,3.94113e+12,0,0,3,0,0,0,0,0,0,0,0,2968
1360,-3.1147e-12,3.64059e-38,-1.50429e-06,-3.18057e-12,3.64036e-38,0,-1.06625e-13,0,0,-7.06527,-0.171611,0.206859,0,0,0,0,0,0.031636,-0.171611,145,10,145,10,198,10,145,66,0,-0.261799,-7.65622e-06,-1.5,3.94113e+12,0,0,3,0,0,0,0,0,0,0,0,2968
1370,-3.1147e-12,3.64059e-38,-1.50429e-06,-3.18057e-12,3.64036e-38,-3.59999e-12,-1.06626e-13,0,0,-6.57832,-0.169202,0.0692679,0,0,0,0,0,0.224578,-0.169202,144,8,144,8,200,8,144,69,0,-0.261799,-7.39902e-06,-1.5,3.94113e+12,0,0,3,0,0,0,0,0,0,0,0,3416
1380,-3.1147e-12,3.64059e-38,-1.50429e-06,-3.18057e-12,3.64036e-38,0,-1.06626e-13,0,0,-6.57832,-0.169202,0.0692679,0,0,0,0,0,0.224578,-0.169202,144,8,144,8,200,8,144,69,0,-0.261799,-7.17952e-06,-1.5,3.94113e+12,0,0,3,0,0,0,0,0,0,0,0,3416
1390,-3.1147e-12,3.64059e-38,-1.50429e-06,-3.18057e-12,3.64036e-38,-3.59999e-12,-1.06626e-13,0,0,-6.57832,-0.169202,0.0692679,0,0,0,0,0,0.224578,-0.169202,144,8,144,8,200,8,144,69,0,-0.261799,-6.99474e-06,-1.5,3.94113e+12,0,0,3,0,0,0,0,0,0,0,0,3416
1400,-3.1147e-12,3.64059e-38,-1.50429e-06,-3.18057e-12,3.64036e-38,0,-1.06626e-13,0,0,-6.57832,-0.169202,0.0692679,0,0,0,0,0,0.224578,-0.169202,144,8,144,8,200,8,144,69,0,-0.261799,-6.78724e-06,-1.5,3.94113e+12,0,0,3,0,0,0,0,0,0,0,0,3416
1410,-3.1147e-12,3.64059e-38,-1.50429e-06,-3.18057e-12,3.64036e-38,-3.59999e-12,-1.06627e-13,0,0,-6.57832,-0.169202,0.0692679,0,0,0,0,0,0.224578,-0.169202,144,8,144,8,200,8,144,69,0,-0.261799,-6.54589e-06,-1.5,3.94113e+12,0,0,3,0,0,0,0,0,0,0,0,3416
1420,-3.1147e-12,3.64059e-38,-1.50429e-06,-3.18057e-12,3.64036e-38,0,-1.06627e-13,0,0,-6.57832,-0.169202,0.0692679,0,0,0,0,0,0.224578,-0.169202,144,8,144,8,200,8,144,69,0,-0.261799,-6.32599e-06,-1.5,3.94113e+12,0,0,3,0,0,0,0,0,0,0,0,3416
1430,-3.1147e-12,3.64059e-38,-1.50429e-06,-3.18057e-12,3.64036e-38,-3.59999e-12,-1.06627e-13,0,0,-6.57832,-0.169202,0.0692679,0,0,0,0,0,0.224578,-0.169202,144,8,144,8,200,8,144,69,0,-0.261799,-6.12577e-06,-1.5,3.94113e+12,0,0,3,0,0,0,0,0,0,0,0,3416
1440,-3.1147e-12,3.64059e-38,-1.50429e-06,-3.18057e-12,3.64036e-38,0,-1.06628e-13,0,0,-6.57832,-0.169202,0.0692679,0,0,0,0,0,0.224578,-0.169202,144,8,144,8,200,8,144,69,0,-0.261799,-5.91998e-06,-1.5,3.94113e+12,0,0,3,0,0,0,0,0,0,0,0,3416
1450,-3.1147e-12,3.64059e-38,-1.50429e-06,-3.18057e-12,3.64036e-38,-3.59999e-12,-1.06628e-13,0,0,-6.57832,-0.169202,0.0692679,0,0,0,0,0,0.224578,-0.169202,144,8,144,8,200,8,144,69,0,-0.261799,-5.73261e-06,-1.5,3.94113e+12,0,0,3,0,0,0,0,0,0,0,0,3416
1460,-3.1147e-12,3.64059e-38,-1.50429e-06,-3.18057e-12,3.64036e-38,0,-1.06628e-13,0,0,-6.57832,-0.169202,0.0692679,0,0,0,0,0,0.224578,-0.169202,144,8,144,8,200,8,144,69,0,-0.261799,-5.54003e-06,-1.5,3.94113e+12,0,0,3,0,0,0,0,0,0,0,0,3416
1470,-3.1147e-12,3.64059e-38,-1.50429e-06,-3.18057e-12,3.64036e-38,-3.59999e-12,-1.06628e-13,0,0,-6.57832,-0.169202,0.0692679,0,0,0,0,0,0.224578,-0.169202,144,8,144,8,200,8,144,69,0,-0.261799,-5.34304e-06,-1.5,3.94113e+12,0,0,3,0,0,0,0,0,0,0,0,3416
1480,-3.1147e-12,3.64059e-38,-1.50429e-06,-3.18057e-12,3.64036e-38,0,-1.06629e-13,0,0,-6.57832,-0.169202,0.0692679,0,0,0,0,0,0.224578,-0.169202,144,8,144,8,200,8,144,69,0,-0.261799,-5.16354e-06,-1.5,3.94113e+12,0,0,3,0,0,0,0,0,0,0,0,3416
1490,-3.1147e-12,3.64059e-38,-1.50429e-06,-3.18057e-12,3.64036e-38,-3.59999e-12,-1.06629e-13,0,0,-6.8743,-0.176804,0.156563,0,0,0,0,0,0.109772,-0.176804,145,9,145,9,199,9,145,67,0.220708,-0.261799,-4.92983e-06,-1.5,3.94113e+12,0,0,3,0.111612,-0.176376,0,0,0,0,0.141503,0.0329205,3132
1500,-3.1147e-12,3.64059e-38,-1.50429e-06,-3.18057e-12,3.64036e-38,0,-1.06629e-13,0,0,-6.8743,-0.176804,0.156563,0,0,0,0,0,0.109772,-0.176804,145,9,145,9,199,9,145,67,0.219872,-0.261799,-4.7641e-06,-1.5,3.94113e+12,0,0,3,0.114018,-0.175816,0,0,0,0,0.141503,0.0329205,3132
1510,-3.1147e-12,3.64059e-38,-1.50429e-06,-3.18057e-12,3.64036e-38,-3.59999e-12,-1.06629e-13,0,0,-6.8743,-0.176804,0.156563,0,0,0,0,0,0.109772,-0.176804,145,9,145,9,199,9,145,67,0.219085,-0.261799,-4.60405e-06,-1.5,3.94113e+12,0,0,3,0.116282,-0.17529,0,0,0,0,0.141503,0.0329205,3132
1520,-3.1147e-12,3.64059e-38,-1.50429e-06,-3.18057e-12,3.64036e-38,0,-1.0663e-13,0,0,-6.8743,-0.176804,0.156563,0,0,0,0,0,0.109772,-0.176804,145,9,145,9,199,9,145,67,0.218102,-0.261799,-4.4313e-06,-1.5,3.94113e+12,0,0,3,0.119112,-0.174631,0,0,0,0,0.141503,0.0329205,3132
1530,-3.1147e-12,3.64059e-38,-1.50429e-06,-3.18057e-12,3.64036e-38,-3.59999e-12,-1.0663e-13,0,0,-6.8743,-0.176804,0.156563,0,0,0,0,0,0.109772,-0.176804,145,9,145,9,199,9,145,67,0.217266,-0.261799,-4.28233e-06,-1.5,3.94113e+12,0,0,3,0.121517,-0.174072,0,0,0,0,0.141503,0.0329205,3132
1540,-3.1147e-12,3.64059e-38,-1.50429e-06,-3.18057e-12,3.64036e-38,0,-1.0663e-13,0,0,-6.8743,-0.176804,0.156563,0,0,0,0,0,0.109772,-0.176804,145,9,145,9,199,9,145,67,0.216331,-0.261799,-4.12164e-06,-1.5,3.94113e+12,0,0,3,0.124206,-0.173446,0,0,0,0,0.141503,0.0329205,3132
1550,-3.1147e-12,3.64059e-38,-1.50429e-06,-3.18057e-12,3.64036e-38,-3.59999e-12,-1.06631e-13,0,0,-6.8743,-0.176804,0.156563,0,0,0,0,0,0.109772,-0.176804,145,9,145,9,199,9,145,67,0.215642,-0.261799,-4.00742e-06,-1.5,3.94113e+12,0,0,3,0.126187,-0.172985,0,0,0,0,0.141503,0.0329205,3132
1560,-3.1147e-12,3.64059e-38,-1.50429e-06,-3.18057e-12,3.64036e-38,0,-1.06631e-13,0,0,-6.8743,-0.176804,0.156563,0,0,0,0,0,0.109772,-0.176804,145,9,145,9,199,9,145,67,0.214954,-0.261799,-3.89636e-06,-1.5,3.94113e+12,0,0,3,0.128168,-0.172524,0,0,0,0,0.141503,0.0329205,3132
1570,-3.1147e-12,3.64059e-38,-1.50429e-06,-3.18057e-12,3.64036e-38,-3.59999e-12,-1.06631e-13,0,0,-6.8743,-0.176804,0.156563,0,0,0,0,0,0.109772,-0.176804,145,9,145,9,199,9,145,67,0.214167,-0.261799,-3.77304e-06,-1.5,3.94113e+12,0,0,3,0.130432,-0.171998,0,0,0,0,0.141503,0.0329205,3132
1580,-3.1147e-12,3.64059e-38,-1.50429e-06,-3.18057e-12,3.64036e-38,0,-1.06631e-13,0,0,-6.8743,-0.176804,0.156563,0,0,0,0,0,0.109772,-0.176804,145,9,145,9,199,9,145,67,0.213183,-0.261799,-3.62392e-06,-1.5,3.94113e+12,0,0,3,0.133262,-0.171339,0,0,0,0,0.141503,0.0329205,3132
1590,-3.1147e-12,3.64059e-38,-1.50429e-06,-3.18057e-12,3.64036e-38,-3.59999e-12,-1.06632e-13,0,0,-6.8743,-0.176804,0.156563,0,0,0,0,0,0.109772,-0.176804,145,9,145,9,199,9,145,67,0.212298,-0.261799,-3.50218e-06,-1.5,3.94113e+12,0,0,3,0.135809,-0.170747,0,0,0,0,0.141503,0.0329205,3132
1600,-3.1147e-12,3.64059e-38,-1.50429e-06,-3.18057e-12,3.64036e-38,0,-1.06632e-13,0,0,-6.45038,-0.110548,0.0368031,0,0,0,0,0,0.271833,-0.110548,138,10,138,10,200,10,138,67,0.25654,-0.261799,-3.26726e-06,-1.5,3.94113e+12,0,0,3,0.267713,-0.167463,0,0,0,0,-0.121164,-0.00488578,3534
1610,-3.1147e-12,3.64059e-38,-1.50429e-06,-3.18057e-12,3.64036e-38,-3.59999e-12,-1.06632e-13,0,0,-6.45038,-0.110548,0.0368031,0,0,0,0,0,0.271833,-0.110548,138,10,138,10,200,10,138,67,0.256664,-0.261799,-3.1575e-06,-1.5,3.94113e+12,0,0,3,0.265653,-0.167546,0,0,0,0,-0.121164,-0.00488578,3534
1620,-3.1147e-12,3.64059e-38,-1.50429e-06,-3.18057e-12,3.64036e-38,0,-1.06632e-13,0,0,-6.45038,-0.110548,0.0368031,0,0,0,0,0,0.271833,-0.110548,138,10,138,10,200,10,138,67,0.256788,-0.261799,-3.05142e-06,-1.5,3.94113e+12,0,0,3,0.263594,-0.167629,0,0,0,0,-0.121164,-0.00488578,3534
1630,-3.1147e-12,3.64059e-38,-1.50429e-06,-3.18057e-12,3.64036e-38,-3.59999e-12,-1.06633e-13,0,0,-6.45038,-0.110548,0.0368031,0,0,0,0,0,0.271833,-0.110548,138,10,138,10,200,10,138,67,0.256927,-0.261799,-2.93683e-06,-1.5,3.94113e+12,0,0,3,0.261292,-0.167722,0,0,0,0,-0.121164,-0.00488578,3534
1640,-3.1147e-12,3.64059e-38,-1.50429e-06,-3.18057e-12,3.64036e-38,0,-1.06633e-13,0,0,-6.45038,-0.110548,0.0368031,0,0,0,0,0,0.271833,-0.110548,138,10,138,10,200,10,138,67,0.257051,-0.261799,-2.8381e-06,-1.5,3.94113e+12,0,0,3,0.259232,-0.167805,0,0,0,0,-0.121164,-0.00488578,3534
1650,-3.1147e-12,3.64059e-38,-1.50429e-06,-3.18057e-12,3.64036e-38,-3.59999e-12,-1.06633e-13,0,0,-6.45038,-0.110548,0.0368031,0,0,0,0,0,0.271833,-0.110548,138,10,138,10,200,10,138,67,0.257175,-0.261799,-2.74269e-06,-1.5,3.94113e+12,0,0,3,0.257172,-0.167888,0,0,0,0,-0.121164,-0.00488578,3534
1660,-3.1147e-12,3.64059e-38,-1.50429e-06,-3.18057e-12,3.64036e-38,0,-1.06634e-13,0,0,-6.45038,-0.110548,0.0368031,0,0,0,0,0,0.271833,-0.110548,138,10,138,10,200,10,138,67,0.257299,-0.261799,-2.65055e-06,-1.5,3.94113e+12,0,0,3,0.255112,-0.167971,0,0,0,0,-0.121164,-0.00488578,3534
1670,-3.1147e-12,3.64059e-38,-1.50429e-06,-3.18057e-12,3.64036e-38,-3.59999e-12,-1.06634e-13,0,0,-6.45038,-0.110548,0.0368031,0,0,0,0,0,0.271833,-0.110548,138,10,138,10,200,10,138,67,0.257416,-0.261799,-2.56671e-06,-1.5,3.94113e+12,0,0,3,0.253173,-0.168049,0,0,0,0,-0.121164,-0.00488578,3534
1680,-3.1147e-12,3.64059e-38,-1.50429e-06,-3.18057e-12,3.64036e-38,0,-1.06634e-13,0,0,-6.45038,-0.110548,0.0368031,0,0,0,0,0,0.271833,-0.110548,138,10,138,10,200,10,138,67,0.257547,-0.261799,-2.47537e-06,-1.5,3.94113e+12,0,0,3,0.250992,-0.168137,0,0,0,0,-0.121164,-0.00488578,3534
1690,-3.1147e-12,3.64059e-38,-1.50429e-06,-3.18057e-12,3.64036e-38,-3.59999e-12,-1.06634e-13,0,0,-6.45038,-0.110548,0.0368031,0,0,0,0,0,0.271833,-0.110548,138,10,138,10,200,10,138,67,0.25765,-0.261799,-2.40677e-06,-1.5,3.94113e+12,0,0,3,0.249296,-0.168205,0,0,0,0,-0.121164,-0.00488578,3534
1700,-3.1147e-12,3.64059e-38,-1.50429e-06,-3.18057e-12,3.64036e-38,0,-1.06635e-13,0,0,-6.45038,-0.110548,0.0368031,0,0,0,0,0,0.271833,-0.110548,138,10,138,10,200,10,138,67,0.257759,-0.261799,-2.33534e-06,-1.5,3.94113e+12,0,0,3,0.247479,-0.168279,0,0,0,0,-0.121164,-0.00488578,3534
1710,-3.1147e-12,3.64059e-38,-1.50429e-06,-3.18057e-12,3.64036e-38,-3.59999e-12,-1.06635e-13,0,0,-6.45038,-0.110548,0.0368031,0,0,0,0,0,0.271833,-0.110548,138,10,138,10,200,10,138,67,0.257883,-0.261799,-2.25683e-06,-1.5,3.94113e+12,0,0,3,0.245419,-0.168362,0,0,0,0,-0.121164,-0.00488578,3534
1720,-3.1147e-12,3.64059e-38,-1.50429e-06,-3.18057e-12,3.64036e-38,0,-1.06635e-13,0,0,-6.45038,-0.110548,0.0368031,0,0,0,0,0,0.271833,-0.110548,138,10,138,10,200,10,138,67,0.258007,-0.261799,-2.18101e-06,-1.5,3.94113e+12,0,0,3,0.243359,-0.168445,0,0,0,0,-0.121164,-0.00488578,3534
1730,-3.1147e-12,3.64059e-38,-1.50429e-06,-3.18057e-12,3.64036e-38,-3.59999e-12,-1.06635e-13,0,0,-6.45038,-0.110548,0.0368031,0,0,0,0,0,0.271833,-0.110548,138,10,138,10,200,10,138,67,0.258124,-0.261799,-2.11198e-06,-1.5,3.94113e+12,0,0,3,0.24142,-0.168523,0,0,0,0,-0.121164,-0.00488578,3534
1740,-3.1147e-12,3.64059e-38,-1.50429e-06,-3.18057e-12,3.64036e-38,0,-1.06636e-13,0,0,-6.45038,-0.110548,0.0368031,0,0,0,0,0,0.271833,-0.110548,138,10,138,10,200,10,138,67,0.258248,-0.261799,-2.04103e-06,-1.5,3.94113e+12,0,0,3,0.23936,-0.168606,0,0,0,0,-0.121164,-0.00488578,3534
1750,-3.1147e-12,3.64059e-38,-1.50429e-06,-3.18057e-12,3.64036e-38,-3.59999e-12,-1.06636e-13,0,0,-6.45038,-0.110548,0.0368031,0,0,0,0,0,0.271833,-0.110548,138,10,138,10,200,10,138,67,0.258387,-0.261799,-1.96445e-06,-1.5,3.94113e+12,0,0,3,0.237058,-0.168699,0,0,0,0,-0.121164,-0.00488578,3534
1760,-3.1147e-12,3.64059e-38,-1.50429e-06,-3.18057e-12,3.64036e-38,0,-1.06636e-13,0,0,-6.45038,-0.110548,0.0368031,0,0,0,0,0,0.271833,-0.110548,138,10,138,10,200,10,138,67,0.258511,-0.261799,-1.89845e-06,-1.5,3.94113e+12,0,0,3,0.234998,-0.168782,0,0,0,0,-0.121164,-0.00488578,3534
1770,-3.1147e-12,3.64059e-38,-1.50429e-06,-3.18057e-12,3.64036e-38,-3.59999e-12,-1.06636e-13,0,0,-6.45038,-0.110548,0.0368031,0,0,0,0,0,0.271833,-0.110548,138,10,138,10,200,10,138,67,0.258635,-0.261799,-1.83467e-06,-1.5,3.94113e+12,0,0,3,0.232939,-0.168865,0,0,0,0,-0.121164,-0.00488578,3534
1780,-3.1147e-12,3.64059e-38,-1.50429e-06,-3.18057e-12,3.64036e-38,0,-1.06637e-13,0,0,-6.45038,-0.110548,0.0368031,0,0,0,0,0,0.271833,-0.110548,138,10,138,10,200,10,138,67,0.258752,-0.261799,-1.77661e-06,-1.5,3.94113e+12,0,0,3,0.231,-0.168943,0,0,0,0,-0.121164,-0.00488578,3534
1790,-3.1147e-12,3.64059e-38,-1.50429e-06,-3.18057e-12,3.64036e-38,-3.59999e-12,-1.06637e-13,0,0,-6.45038,-0.110548,0.0368031,0,0,0,0,0,0.271833,-0.110548,138,10,138,10,200,10,138,67,0.258876,-0.261799,-1.71692e-06,-1.5,3.94113e+12,0,0,3,0.22894,-0.169026,0,0,0,0,-0.121164,-0.00488578,3534
1800,-3.1147e-12,3.64059e-38,-1.50429e-06,-3.18057e-12,3.64036e-38,0,-1.06637e-13,0,0,-6.45038,-0.110548,0.0368031,0,0,0,0,0,0.271833,-0.110548,138,10,138,10,200,10,138,67,0.259,-0.261799,-1.66258e-06,-1.5,3.94113e+12,0,0,3,0.226881,-0.169109,0,0,0,0,-0.121164,-0.00488578,3534
1810,-3.1147e-12,3.64059e-38,-1.50429e-06,-3.18057e-12,3.64036e-38,-3.59999e-12,-1.06638e-13,0,0,-6.45038,-0.110548,0.0368031,0,0,0,0,0,0.271833,-0.110548,138,10,138,10,200,10,138,67,0.259124,-0.261799,-1.60673e-06,-1.5,3.94113e+12,0,0,3,0.224821,-0.169192,0,0,0,0,-0.121164,-0.00488578,3534
1820,-3.1147e-12,3.64059e-38,-1.50429e-06,-3.18057e-12,3.64036e-38,0,-1.06638e-13,0,0,-6.45038,-0.110548,0.0368031,0,0,0,0,0,0.271833,-0.110548,138,10,138,10,200,10,138,67,0.259248,-0.261799,-1.55271e-06,-1.5,3.94113e+12,0,0,3,0.222761,-0.169275,0,0,0,0,-0.121164,-0.00488578,3534
1830,-3.1147e-12,3.64059e-38,-1.50429e-06,-3.18057e-12,3.64036e-38,-3.59999e-12,-1.06638e-13,0,0,-6.45038,-0.110548,0.0368031,0,0,0,0,0,0.271833,-0.110548,138,10,138,10,200,10,138,67,0.259365,-0.261799,-1.50663e-06,-1.5,3.94113e+12,0,0,3,0.220823,-0.169354,0,0,0,0,-0.121164,-0.00488578,3534
1840,-3.1147e-12,3.64059e-38,-1.50429e-06,-3.18057e-12,3.64036e-38,0,-1.06638e-13,0,0,-6.45038,-0.110548,0.0368031,0,0,0,0,0,0.271833,-0.110548,138,10,138,10,200,10,138,67,0.25946,-0.261799,-1.46784e-06,-1.5,3.94113e+12,0,0,3,0.219248,-0.169417,0,0,0,0,-0.121164,-0.00488578,3534
1850,-3.1147e-12,3.64059e-38,-1.50429e-06,-3.18057e-12,3.64036e-38,-3.59999e-12,-1.06639e-13,0,0,-6.45038,-0.110548,0.0368031,0,0,0,0,0,0.271833,-0.110548,138,10,138,10,200,10,138,67,0.259577,-0.261799,-1.42138e-06,-1.5,3.94113e+12,0,0,3,0.217309,-0.169495,0,0,0,0,-0.121164,-0.00488578,3534
1860,-3.1147e-12,3.64059e-38,-1.50429e-06,-3.18057e-12,3.64036e-38,0,-1.06639e-13,0,0,-6.45038,-0.110548,0.0368031,0,0,0,0,0,0.271833,-0.110548,138,10,138,10,200,10,138,67,0.259701,-0.261799,-1.37363e-06,-1.5,3.94113e+12,0,0,3,0.215249,-0.169578,0,0,0,0,-0.121164,-0.00488578,3534
1870,-3.1147e-12,3.64059e-38,-1.50429e-06,-3.18057e-12,3.64036e-38,-3.59999e-12,-1.06639e-13,0,0,-6.45038,-0.110548,0.0368031,0,0,0,0,0,0.271833,-0.110548,138,10,138,10,200,10,138,67,0.259847,-0.261799,-1.31939e-06,-1.5,3.94113e+12,0,0,3,0.212826,-0.169676,0,0,0,0,-0.121164,-0.00488578,3534
1880,-3.1147e-12,3.64059e-38,-1.50429e-06,-3.18057e-12,3.64036e-38,0,-1.06639e-13,0,0,-6.45038,-0.110548,0.0368031,0.332899,-0.164834,0.120982,0.00487845,0,0.271833,-0.110548,138,10,138,10,200,10,138,67,0.23992,-0.261799,-1.27507e-06,-1.5,3.94113e+12,0,0,3,0.332899,-0.164834,0,0,0,0,0.120982,0.00487845,3534
1890,-3.1147e-12,3.64059e-38,-1.50429e-06,-3.18057e-12,3.64036e-38,-3.59999e-12,-1.0664e-13,0,0,-6.45038,-0.110548,0.0368031,0.334824,-0.164757,0.120017,0.00483953,0,0.271833,-0.110548,138,10,138,10,200,10,138,67,0.239854,-0.261799,-1.23471e-06,-1.5,3.94113e+12,0,0,3,0.334824,-0.164757,0,0,0,0,0.120017,0.00483953,3534
1900,-3.1147e-12,3.64059e-38,-1.50429e-06,-3.18057e-12,3.64036e-38,0,-1.0664e-13,0,0,-6.45038,-0.110548,0.0368031,0.336853,-0.164675,0.119,0.00479852,0,0.271833,-0.110548,138,10,138,10,200,10,138,67,0.239785,-0.261799,-1.19323e-06,-1.5,3.94113e+12,0,0,3,0.336853,-0.164675,0,0,0,0,0.119,0.00479852,3534
1910,-3.1147e-12,3.64059e-38,-1.50429e-06,-3.18057e-12,3.64036e-38,-3.59999e-12,-1.0664e-13,0,0,-6.45038,-0.110548,0.0368031,0.338747,-0.164598,0.118051,0.00476024,0,0.271833,-0.110548,138,10,138,10,200,10,138,67,0.239721,-0.261799,-1.15547e-06,-1.5,3.94113e+12,0,0,3,0.338747,-0.164598,0,0,0,0,0.118051,0.00476024,3534
1920,-3.1147e-12,3.64059e-38,-1.50429e-06,-3.18057e-12,3.64036e-38,0,-1.06641e-13,0,0,-6.45038,-0.110548,0.0368031,0.340743,-0.164518,0.11705,0.0047199,0,0.271833,-0.110548,138,10,138,10,200,10,138,67,0.239653,-0.261799,-1.11665e-06,-1.5,3.94113e+12,0,0,3,0.340743,-0.164518,0,0,0,0,0.11705,0.0047199,3534
1930,-3.1147e-12,3.64059e-38,-1.50429e-06,-3.18057e-12,3.64036e-38,-3.59999e-12,-1.06641e-13,0,0,-6.45038,-0.110548,0.0368031,0.342838,-0.164433,0.116,0.00467755,0,0.271833,-0.110548,138,10,138,10,200,10,138,67,0.239582,-0.261799,-1.07694e-06,-1.5,3.94113e+12,0,0,3,0.342838,-0.164433,0,0,0,0,0.116,0.00467755,3534
1940,-3.1147e-12,3.64059e-38,-1.50429e-06,-3.18057e-12,3.64036e-38,0,-1.06641e-13,0,0,-6.45038,-0.110548,0.0368031,0.344799,-0.164354,0.115017,0.00463791,0,0.271833,-0.110548,138,10,138,10,200,10,138,67,0.239515,-0.261799,-1.04076e-06,-1.5,3.94113e+12,0,0,3,0.344799,-0.164354,0,0,0,0,0.115017,0.00463791,3534
1950,-3.1147e-12,3.64059e-38,-1.50429e-06,-3.18057e-12,3.64036e-38,-3.59999e-12,-1.06641e-13,0,0,-6.45038,-0.110548,0.0368031,0.346743,-0.164276,0.114042,0.0045986,0,0.271833,-0.110548,138,10,138,10,200,10,138,67,0.239449,-0.261799,-1.0058e-06,-1.5,3.94113e+12,0,0,3,0.346743,-0.164276,0,0,0,0,0.114042,0.0045986,3534
1960,-3.1147e-12,3.64059e-38,-1.50429e-06,-3.18057e-12,3.64036e-38,0,-1.06642e-13,0,0,-6.45038,-0.110548,0.0368031,0.348446,-0.164207,0.113189,0.00456421,0,0.271833,-0.110548,138,10,138,10,200,10,138,67,0.239391,-0.261799,-9.75947e-07,-1.5,3.94113e+12,0,0,3,0.348446,-0.164207,0,0,0,0,0.113189,0.00456421,3534
1970,-3.1147e-12,3.64059e-38,-1.50429e-06,-3.18057e-12,3.64036e-38,-3.59999e-12,-1.06642e-13,0,0,-6.45038,-0.110548,0.0368031,0.349911,-0.164148,0.112455,0.00453461,0,0.271833,-0.110548,138,10,138,10,200,10,138,67,0.239342,-0.261799,-9.50821e-07,-1.5,3.94113e+12,0,0,3,0.349911,-0.164148,0,0,0,0,0.112455,0.00453461,3534
1980,-3.1147e-12,3.64059e-38,-1.50429e-06,-3.18057e-12,3.64036e-38,0,-1.06642e-13,0,0,-6.45038,-0.110548,0.0368031,0.351368,-0.164089,0.111726,0.00450521,0,0.271833,-0.110548,138,10,138,10,200,10,138,67,0.239292,-0.261799,-9.26342e-07,-1.5,3.94113e+12,0,0,3,0.351368,-0.164089,0,0,0,0,0.111726,0.00450521,3534
1990,-3.1147e-12,3.64059e-38,-1.50429e-06,-3.18057e-12,3.64036e-38,-3.59999e-12,-1.06642e-13,0,0,-6.45038,-0.110548,0.0368031,0.353477,-0.164004,0.110668,0.00446255,0,0.271833,-0.110548,138,10,138,10,200,10,138,67,0.239221,-0.261799,-8.91583e-07,-1.5,3.94113e+12,0,0,3,0.353477,-0.164004,0,0,0,0,0.110668,0.00446255,3534
2000,-3.1147e-12,3.64059e-38,-1.50429e-06,-3.18057e-12,3.64036e-38,0,-1.06643e-13,0,0,-6.45038,-0.110548,0.0368031,0.355457,-0.163925,0.109675,0.00442251,0,0.271833,-0.110548,138,10,138,10,200,10,138,67,0.239153,-0.261799,-8.5988e-07,-1.5,3.94113e+12,0,0,3,0.355457,-0.163925,0,0,0,0,0.109675,0.00442251,3534
2010,-3.1147e-12,3.64059e-38,-1.50429e-06,-3.18057e-12,3.64036e-38,-3.59999e-12,-1.06643e-13,0,0,-6.45038,-0.110548,0.0368031,0.357311,-0.16385,0.108746,0.00438503,0,0.271833,-0.110548,138,10,138,10,200,10,138,67,0.23909,-0.261799,-8.30993e-07,-1.5,3.94113e+12,0,0,3,0.357311,-0.16385,0,0,0,0,0.108746,0.00438503,3534
2020,-3.1147e-12,3.64059e-38,-1.50429e-06,-3.18057e-12,3.64036e-38,0,-1.06643e-13,0,0,-6.45038,-0.110548,0.0368031,0.359042,-0.16378,0.107878,0.00435004,0,0.271833,-0.110548,138,10,138,10,200,10,138,67,0.239031,-0.261799,-8.04692e-07,-1.5,3.94113e+12,0,0,3,0.359042,-0.16378,0,0,0,0,0.107878,0.00435004,3534
2030,-3.1147e-12,3.64059e-38,-1.50429e-06,-3.18057e-12,3.64036e-38,-3.59999e-12,-1.06644e-13,0,0,-6.45038,-0.110548,0.0368031,0.360759,-0.163711,0.107017,0.00431534,0,0.271833,-0.110548,138,10,138,10,200,10,138,67,0.238973,-0.261799,-7.79223e-07,-1.5,3.94113e+12,0,0,3,0.360759,-0.163711,0,0,0,0,0.107017,0.00431534,3534
2040,-3.1147e-12,3.64059e-38,-1.50429e-06,-3.18057e-12,3.64036e-38,0,-1.06644e-13,0,0,-6.45038,-0.110548,0.0368031,0.362568,-0.163638,0.106111,0.00427877,0,0.271833,-0.110548,138,10,138,10,200,10,138,67,0.238912,-0.261799,-7.53046e-07,-1.5,3.94113e+12,0,0,3,0.362568,-0.163638,0,0,0,0,0.106111,0.00427877,3534
2050,-3.1147e-12,3.64059e-38,-1.50429e-06,-3.18057e-12,3.64036e-38,-3.59999e-12,-1.06644e-13,0,0,-6.45038,-0.110548,0.0368031,0.364676,-0.163553,0.105053,0.00423612,0,0.271833,-0.110548,138,10,138,10,200,10,138,67,0.23884,-0.261799,-7.23311e-07,-1.5,3.94113e+12,0,0,3,0.364676,-0.163553,0,0,0,0,0.105053,0.00423612,3534
2060,-3.1147e-12,3.64059e-38,-1.50429e-06,-3.18057e-12,3.64036e-38,0,-1.06644e-13,0,0,-6.45038,-0.110548,0.0368031,0.366452,-0.163481,0.104162,0.00420021,0,0.271833,-0.110548,138,10,138,10,200,10,138,67,0.23878,-0.261799,-6.98994e-07,-1.5,3.94113e+12,0,0,3,0.366452,-0.163481,0,0,0,0,0.104162,0.00420021,3534
2070,-3.1147e-12,3.64059e-38,-1.50429e-06,-3.18057e-12,3.64036e-38,-3.59999e-12,-1.06645e-13,0,0,-6.45038,-0.110548,0.0368031,0.368213,-0.16341,0.10328,0.00416462,0,0.271833,-0.110548,138,10,138,10,200,10,138,67,0.23872,-0.261799,-6.75512e-07,-1.5,3.94113e+12,0,0,3,0.368213,-0.16341,0,0,0,0,0.10328,0.00416462,3534
2080,-3.1147e-12,3.64059e-38,-1.50429e-06,-3.18057e-12,3.64036e-38,0,-1.06645e-13,0,0,-6.45038,-0.110548,0.0368031,0.369857,-0.163344,0.102456,0.00413139,0,0.271833,-0.110548,138,10,138,10,200,10,138,67,0.238664,-0.261799,-6.54132e-07,-1.5,3.94113e+12,0,0,3,0.369857,-0.163344,0,0,0,0,0.102456,0.00413139,3534
2090,-3.1147e-12,3.64059e-38,-1.50429e-06,-3.18057e-12,3.64036e-38,-3.59999e-12,-1.06645e-13,0,0,-6.45038,-0.110548,0.0368031,0.371488,-0.163278,0.101638,0.00409844,0,0.271833,-0.110548,138,10,138,10,200,10,138,67,0.238609,-0.261799,-6.33442e-07,-1.5,3.94113e+12,0,0,3,0.371488,-0.163278,0,0,0,0,0.101638,0.00409844,3534
2100,-3.1147e-12,3.64059e-38,-1.50429e-06,-3.18057e-12,3.64036e-38,0,-1.06645e-13,0,0,-6.45038,-0.110548,0.0368031,0.372804,-0.163225,0.100979,0.00407187,0,0.271833,-0.110548,138,10,138,10,200,10,138,67,0.238564,-0.261799,-6.17139e-07,-1.5,3.94113e+12,0,0,3,0.372804,-0.163225,0,0,0,0,0.100979,0.00407187,3534
2110,-3.1147e-12,3.64059e-38,-1.50429e-06,-3.18057e-12,3.64036e-38,-3.59999e-12,-1.06646e-13,0,0,-6.45038,-0.110548,0.0368031,0.374511,-0.163156,0.100124,0.00403736,0,0.271833,-0.110548,138,10,138,10,200,10,138,67,0.238506,-0.261799,-5.96407e-07,-1.5,3.94113e+12,0,0,3,0.374511,-0.163156,0,0,0,0,0.100124,0.00403736,3534
2120,-3.1147e-12,3.64059e-38,-1.50429e-06,-3.18057e-12,3.64036e-38,0,-1.06646e-13,0,0,-6.45038,-0.110548,0.0368031,0.376204,-0.163088,0.0992752,0.00400314,0,0.271833,-0.110548,138,10,138,10,200,10,138,67,0.238449,-0.261799,-5.76357e-07,-1.5,3.94113e+12,0,0,3,0.376204,-0.163088,0,0,0,0,0.0992752,0.00400314,3534
2130,-3.1147e-12,3.64059e-38,-1.50429e-06,-3.18057e-12,3.64036e-38,-3.59999e-12,-1.06646e-13,0,0,-6.45038,-0.110548,0.0368031,0.377882,-0.16302,0.0984339,0.00396922,0,0.271833,-0.110548,138,10,138,10,200,10,138,67,0.238392,-0.261799,-5.56994e-07,-1.5,3.94113e+12,0,0,3,0.377882,-0.16302,0,0,0,0,0.0984339,0.00396922,3534
2140,-3.1147e-12,3.64059e-38,-1.50429e-06,-3.18057e-12,3.64036e-38,0,-1.06647e-13,0,0,-6.45038,-0.110548,0.0368031,0.379449,-0.162957,0.0976486,0.00393755,0,0.271833,-0.110548,138,10,138,10,200,10,138,67,0.238338,-0.261799,-5.39366e-07,-1.5,3.94113e+12,0,0,3,0.379449,-0.162957,0,0,0,0,0.0976486,0.00393755,3534
2150,-3.1147e-12,3.64059e-38,-1.50429e-06,-3.18057e-12,3.64036e-38,-3.59999e-12,-1.06647e-13,0,0,-6.45038,-0.110548,0.0368031,0.381003,-0.162894,0.0968696,0.00390614,0,0.271833,-0.110548,138,10,138,10,200,10,138,67,0.238285,-0.261799,-5.22295e-07,-1.5,3.94113e+12,0,0,3,0.381003,-0.162894,0,0,0,0,0.0968696,0.00390614,3534
2160,-3.1147e-12,3.64059e-38,-1.50429e-06,-3.18057e-12,3.64036e-38,0,-1.06647e-13,0,0,-6.45038,-0.110548,0.0368031,0.382641,-0.162828,0.0960486,0.00387304,0,0.271833,-0.110548,138,10,138,10,200,10,138,67,0.23823,-0.261799,-5.04749e-07,-1.5,3.94113e+12,0,0,3,0.382641,-0.162828,0,0,0,0,0.0960486,0.00387304,3534
2170,-3.1147e-12,3.64059e-38,-1.50429e-06,-3.18057e-12,3.64036e-38,-3.59999e-12,-1.06647e-13,0,0,-6.45038,-0.110548,0.0368031,0.384454,-0.162755,0.0951389,0.00383635,0,0.271833,-0.110548,138,10,138,10,200,10,138,67,0.238168,-0.261799,-4.85793e-07,-1.5,3.94113e+12,0,0,3,0.384454,-0.162755,0,0,0,0,0.0951389,0.00383635,3534
2180,-3.1147e-12,3.64059e-38,-1.50429e-06,-3.18057e-12,3.64036e-38,0,-1.06648e-13,0,0,-6.45038,-0.110548,0.0368031,0.386156,-0.162687,0.0942852,0.00380193,0,0.271833,-0.110548,138,10,138,10,200,10,138,67,0.238111,-0.261799,-4.68519e-07,-1.5,3.94113e+12,0,0,3,0.386156,-0.162687,0,0,0,0,0.0942852,0.00380193,3534
2190,-3.1147e-12,3.64059e-38,-1.50429e-06,-3.18057e-12,3.64036e-38,-3.59999e-12,-1.06648e-13,0,0,-6.45038,-0.110548,0.0368031,0.387657,-0.162626,0.093533,0.0037716,0,0.271833,-0.110548,138,10,138,10,200,10,138,67,0.23806,-0.261799,-4.53691e-07,-1.5,3.94113e+12,0,0,3,0.387657,-0.162626,0,0,0,0,0.093533,0.0037716,3534
2200,-3.1147e-12,3.64059e-38,-1.50429e-06,-3.18057e-12,3.64036e-38,0,-1.06648e-13,0,0,-6.45038,-0.110548,0.0368031,0.389238,-0.162562,0.0927402,0.00373963,0,0.271833,-0.110548,138,10,138,10,200,10,138,67,0.238006,-0.261799,-4.38438e-07,-1.5,3.94113e+12,0,0,3,0.389238,-0.162562,0,0,0,0,0.0927402,0.00373963,3534
2210,-3.1147e-12,3.64059e-38,-1.50429e-06,-3.18057e-12,3.64036e-38,-3.59999e-12,-1.06648e-13,0,0,-6.45038,-0.110548,0.0368031,0.390714,-0.162503,0.0920004,0.00370979,0,0.271833,-0.110548,138,10,138,10,200,10,138,67,0.237956,-0.261799,-4.24562e-07,-1.5,3.94113e+12,0,0,3,0.390714,-0.162503,0,0,0,0,0.0920004,0.00370979,3534
2220,-3.1147e-12,3.64059e-38,-1.50429e-06,-3.18057e-12,3.64036e-38,0,-1.06649e-13,0,0,-6.45038,-0.110548,0.0368031,0.392179,-0.162444,0.0912665,0.0036802,0,0.271833,-0.110548,138,10,138,10,200,10,138,67,0.237906,-0.261799,-4.11133e-07,-1.5,3.94113e+12,0,0,3,0.392179,-0.162444,0,0,0,0,0.0912665,0.0036802,3534
2230,-3.1147e-12,3.64059e-38,-1.50429e-06,-3.18057e-12,3.64036e-38,-3.59999e-12,-1.06649e-13,0,0,-6.45038,-0.110548,0.0368031,0.393812,-0.162378,0.0904476,0.00364718,0,0.271833,-0.110548,138,10,138,10,200,10,138,67,0.237851,-0.261799,-3.96514e-07,-1.5,3.94113e+12,0,0,3,0.393812,-0.162378,0,0,0,0,0.0904476,0.00364718,3534
2240,-3.1147e-12,3.64059e-38,-1.50429e-06,-3.18057e-12,3.64036e-38,0,-1.06649e-13,0,0,-6.45038,-0.110548,0.0368031,0.394983,-0.162331,0.0898612,0.00362353,0,0.271833,-0.110548,138,10,138,10,200,10,138,67,0.237811,-0.261799,-3.8553e-07,-1.5,3.94113e+12,0,0,3,0.394983,-0.162331,0,0,0,0,0.0898612,0.00362353,3534
2250,-3.1147e-12,3.64059e-38,-1.50429e-06,-3.18057e-12,3.64036e-38,-3.59999e-12,-1.06649e-13,0,0,-6.45038,-0.110548,0.0368031,0.396679,-0.162262,0.08901,0.00358921,0,0.271833,-0.110548,138,10,138,10,200,10,138,67,0.237753,-0.261799,-3.7181e-07,-1.5,3.94113e+12,0,0,3,0.396679,-0.162262,0,0,0,0,0.08901,0.00358921,3534
2260,-3.1147e-12,3.64059e-38,-1.50429e-06,-3.18057e-12,3.64036e-38,0,-1.0665e-13,0,0,-6.45038,-0.110548,0.0368031,0.398096,-0.162205,0.0882999,0.00356058,0,0.271833,-0.110548,138,10,138,10,200,10,138,67,0.237705,-0.261799,-3.60042e-07,-1.5,3.94113e+12,0,0,3,0.398096,-0.162205,0,0,0,0,0.0882999,0.00356058,3534
2270,-3.1147e-12,3.64059e-38,-1.50429e-06,-3.18057e-12,3.64036e-38,-3.59999e-12,-1.0665e-13,0,0,-6.45038,-0.110548,0.0368031,0.399588,-0.162145,0.0875516,0.0035304,0,0.271833,-0.110548,138,10,138,10,200,10,138,67,0.237654,-0.261799,-3.47947e-07,-1.5,3.94113e+12,0,0,3,0.399588,-0.162145,0,0,0,0,0.0875516,0.0035304,3534
2280,-3.1147e-12,3.64059e-38,-1.50429e-06,-3.18057e-12,3.64036e-38,0,-1.0665e-13,0,0,-6.45038,-0.110548,0.0368031,0.401155,-0.162082,0.0867661,0.00349873,0,0.271833,-0.110548,138,10,138,10,200,10,138,67,0.237601,-0.261799,-3.35581e-07,-1.5,3.94113e+12,0,0,3,0.401155,-0.162082,0,0,0,0,0.0867661,0.00349873,3534
2290,-3.1147e-12,3.64059e-38,-1.50429e-06,-3.18057e-12,3.64036e-38,-3.59999e-12,-1.06651e-13,0,0,-6.45038,-0.110548,0.0368031,0.402878,-0.162012,0.0859011,0.00346385,0,0.271833,-0.110548,138,10,138,10,200,10,138,67,0.237543,-0.261799,-3.22318e-07,-1.5,3.94113e+12,0,0,3,0.402878,-0.162012,0,0,0,0,0.0859011,0.00346385,3534
