timestamp,A_x,A_y,A_z,P,Q,R,Phi,Theta,Psi,poseX,poseY,poseZ,state_X,state_Y,state_Z,state_VzB,state_Bx,state_By,state_Bz,p1_x,p1_y,p2_x,p2_y,p3_x,p3_y,p4_x,p4_y,roll,pitch,yaw,alt,targetHeading,highLevelState,lowLevelState,gateNumber,filtered_x,filtered_y,x_OT,y_OT,vx_OT,vy_OT,filtered_vx,filtered_vygateArea
10,0,0,0,0,0,0,0,0,0,0,0,0,0,0,0,0,0,0,0,0,0,0,0,0,0,0,0,0,-0.261799,0.00779127,-1.5,nan,0,0,3,0,0,0,0,0,0,0,0,1.9603e-19
20,0,0,0,0,0,0,0,0,0,0,0,0,0,0,0,0,0,0,0,0,0,0,0,0,0,0,0,0,-0.261799,0.00752953,-1.5,nan,0,0,3,0,0,0,0,0,0,0,0,1.9603e-19
30,-3.34207e-12,1.66473e-38,-1.61512e-06,-3.40794e-12,1.66461e-38,-3.9599e-12,-1.13703e-13,0,0,0,0,0,0,0,0,0,0,0,0,0,0,0,0,0,0,0,0,0,-0.261799,-0.00160051,-1.5,nan,0,0,3,0,0,0,0,0,0,0,0,1.9603e-19
40,-3.34207e-12,1.66473e-38,-1.61512e-06,-3.40794e-12,1.66461e-38,0,-1.13703e-13,0,0,0,0,0,0,0,0,0,0,0,0,0,0,0,0,0,0,0,0,0,-0.261799,-0.00154989,-1.5,nan,0,0,3,0,0,0,0,0,0,0,0,1.9603e-19
50,-3.34207e-12,1.66473e-38,-1.61512e-06,-3.40794e-12,1.66461e-38,-3.9599e-12,-1.13704e-13,0,0,0,0,0,0,0,0,0,0,0,0,0,0,0,0,0,0,0,0,0,-0.261799,-0.00150388,-1.5,nan,0,0,3,0,0,0,0,0,0,0,0,1.9603e-19
60,-3.34207e-12,1.66473e-38,-1.61512e-06,-3.40794e-12,1.66461e-38,0,-1.13704e-13,0,0,0,0,0,0,0,0,0,0,0,0,0,0,0,0,0,0,0,0,0,-0.261799,-0.00145632,-1.5,nan,0,0,3,0,0,0,0,0,0,0,0,1.9603e-19
70,-3.34207e-12,1.66473e-38,-1.61512e-06,-3.40794e-12,1.66461e-38,-3.9599e-12,-1.13705e-13,0,0,0,0,0,0,0,0,0,0,0,0,0,0,0,0,0,0,0,0,0,-0.261799,-0.00141309,-1.5,nan,0,0,3,0,0,0,0,0,0,0,0,1.9603e-19
80,-3.34207e-12,1.66473e-38,-1.61512e-06,-3.40794e-12,1.66461e-38,0,-1.13705e-13,0,0,0,0,0,0,0,0,0,0,0,0,0,0,0,0,0,0,0,0,0,-0.261799,-0.00137115,-1.5,nan,0,0,3,0,0,0,0,0,0,0,0,1.9603e-19
90,-3.34207e-12,1.66473e-38,-1.61512e-06,-3.40794e-12,1.66461e-38,-3.9599e-12,-1.13706e-13,0,0,0,0,0,0,0,0,0,0,0,0,0,0,0,0,0,0,0,0,0,-0.261799,-0.00133045,-1.5,nan,0,0,3,0,0,0,0,0,0,0,0,1.9603e-19
100,-3.34207e-12,1.66473e-38,-1.61512e-06,-3.40794e-12,1.66461e-38,0,-1.13706e-13,0,0,0,0,0,0,0,0,0,0,0,0,0,0,0,0,0,0,0,0,0,-0.261799,-0.00129096,-1.5,nan,0,0,3,0,0,0,0,0,0,0,0,1.9603e-19
110,-3.34207e-12,1.66473e-38,-1.61512e-06,-3.40794e-12,1.66461e-38,-3.9599e-12,-1.13707e-13,0,0,0,0,0,0,0,0,0,0,0,0,0,0,0,0,0,0,0,0,0,-0.261799,-0.00117642,-1.5,nan,0,0,3,0,0,0,0,0,0,0,0,1.9603e-19
120,-3.34207e-12,1.66473e-38,-1.61512e-06,-3.40794e-12,1.66461e-38,0,-1.13708e-13,0,0,0,0,0,0,0,0,0,0,0,0,0,0,0,0,0,0,0,0,0,-0.261799,-0.00110908,-1.5,nan,0,0,3,0,0,0,0,0,0,0,0,1.9603e-19
130,-3.34207e-12,1.66473e-38,-1.61512e-06,-3.40794e-12,1.66461e-38,-3.9599e-12,-1.13708e-13,0,0,0,0,0,0,0,0,0,0,0,0,0,0,0,0,0,0,0,0,0,-0.261799,-0.000886252,-1.5,nan,0,0,3,0,0,0,0,0,0,0,0,1.9603e-19
140,-3.34207e-12,1.66473e-38,-1.61512e-06,-3.40794e-12,1.66461e-38,0,-1.13709e-13,0,0,0,0,0,0,0,0,0,0,0,0,0,0,0,0,0,0,0,0,0,-0.261799,-0.000783197,-1.5,nan,0,0,3,0,0,0,0,0,0,0,0,1.9603e-19
150,-3.34207e-12,1.66473e-38,-1.61512e-06,-3.40794e-12,1.66461e-38,-3.9599e-12,-1.13709e-13,0,0,0,0,0,0,0,0,0,0,0,0,0,0,0,0,0,0,0,0,0,-0.261799,-0.000710623,-1.5,nan,0,0,3,0,0,0,0,0,0,0,0,1.9603e-19
160,-3.34207e-12,1.66473e-38,-1.61512e-06,-3.40794e-12,1.66461e-38,0,-1.1371e-13,0,0,0,0,0,0,0,0,0,0,0,0,0,0,0,0,0,0,0,0,0,-0.261799,-0.000688146,-1.5,nan,0,0,3,0,0,0,0,0,0,0,0,1.9603e-19
170,-3.34207e-12,1.66473e-38,-1.61512e-06,-3.40794e-12,1.66461e-38,-3.9599e-12,-1.1371e-13,0,0,0,0,0,0,0,0,0,0,0,0,0,0,0,0,0,0,0,0,0,-0.261799,-0.000663657,-1.5,nan,0,0,3,0,0,0,0,0,0,0,0,1.9603e-19
180,-3.34207e-12,1.66473e-38,-1.61512e-06,-3.40794e-12,1.66461e-38,0,-1.13711e-13,0,0,0,0,0,0,0,0,0,0,0,0,0,0,0,0,0,0,0,0,0,-0.261799,-0.00062963,-1.5,nan,0,0,3,0,0,0,0,0,0,0,0,1.9603e-19
190,-3.34207e-12,1.66473e-38,-1.61512e-06,-3.40794e-12,1.66461e-38,-3.9599e-12,-1.13711e-13,0,0,0,0,0,0,0,0,0,0,0,0,0,0,0,0,0,0,0,0,0,-0.261799,-0.000576323,-1.5,nan,0,0,3,0,0,0,0,0,0,0,0,1.9603e-19
200,-3.34207e-12,1.66473e-38,-1.61512e-06,-3.40794e-12,1.66461e-38,0,-1.13712e-13,0,0,0,0,0,0,0,0,0,0,0,0,0,0,0,0,0,0,0,0,0,-0.261799,-0.000559217,-1.5,nan,0,0,3,0,0,0,0,0,0,0,0,1.9603e-19
210,-3.34207e-12,1.66473e-38,-1.61512e-06,-3.40794e-12,1.66461e-38,-3.9599e-12,-1.13712e-13,0,0,0,0,0,0,0,0,0,0,0,0,0,0,0,0,0,0,0,0,0,-0.261799,-0.000530544,-1.5,nan,0,0,3,0,0,0,0,0,0,0,0,1.9603e-19
220,-3.34207e-12,1.66473e-38,-1.61512e-06,-3.40794e-12,1.66461e-38,0,-1.13713e-13,0,0,0,0,0,0,0,0,0,0,0,0,0,0,0,0,0,0,0,0,0,-0.261799,-0.000505426,-1.5,nan,0,0,3,0,0,0,0,0,0,0,0,1.9603e-19
230,-3.34207e-12,1.66473e-38,-1.61512e-06,-3.40794e-12,1.66461e-38,-3.9599e-12,-1.13714e-13,0,0,0,0,0,0,0,0,0,0,0,0,0,0,0,0,0,0,0,0,0,-0.261799,-0.000491425,-1.5,nan,0,0,3,0,0,0,0,0,0,0,0,1.9603e-19
240,-3.34207e-12,1.66473e-38,-1.61512e-06,-3.40794e-12,1.66461e-38,0,-1.13714e-13,0,0,0,0,0,0,0,0,0,0,0,0,0,0,0,0,0,0,0,0,0,-0.261799,-0.000477812,-1.5,nan,0,0,3,0,0,0,0,0,0,0,0,1.9603e-19
250,-3.34207e-12,1.66473e-38,-1.61512e-06,-3.40794e-12,1.66461e-38,-3.9599e-12,-1.13715e-13,0,0,0,0,0,0,0,0,0,0,0,0,0,0,0,0,0,0,0,0,0,-0.261799,-0.00046363,-1.5,nan,0,0,3,0,0,0,0,0,0,0,0,1.9603e-19
260,-3.34207e-12,1.66473e-38,-1.61512e-06,-3.40794e-12,1.66461e-38,0,-1.13715e-13,0,0,0,0,0,0,0,0,0,0,0,0,0,0,0,0,0,0,0,0,0,-0.261799,-0.000447131,-1.5,nan,0,0,3,0,0,0,0,0,0,0,0,1.9603e-19
270,-3.34207e-12,1.66473e-38,-1.61512e-06,-3.40794e-12,1.66461e-38,-3.9599e-12,-1.13716e-13,0,0,0,0,0,0,0,0,0,0,0,0,0,0,0,0,0,0,0,0,0,-0.261799,-0.00043211,-1.5,nan,0,0,3,0,0,0,0,0,0,0,0,1.9603e-19
280,-3.34207e-12,1.66473e-38,-1.61512e-06,-3.40794e-12,1.66461e-38,0,-1.13716e-13,0,0,0,0,0,0,0,0,0,0,0,0,0,0,0,0,0,0,0,0,0,-0.261799,-0.000419284,-1.5,nan,0,0,3,0,0,0,0,0,0,0,0,1.9603e-19
290,-3.34207e-12,1.66473e-38,-1.61512e-06,-3.40794e-12,1.66461e-38,-3.9599e-12,-1.13717e-13,0,0,0,0,0,0,0,0,0,0,0,0,0,0,0,0,0,0,0,0,0,-0.261799,-0.000406022,-1.5,nan,0,0,3,0,0,0,0,0,0,0,0,1.9603e-19
300,-3.34207e-12,1.66473e-38,-1.61512e-06,-3.40794e-12,1.66461e-38,0,-1.13717e-13,0,0,0,0,0,0,0,0,0,0,0,0,0,0,0,0,0,0,0,0,0,-0.261799,-0.00039318,-1.5,nan,0,0,3,0,0,0,0,0,0,0,0,1.9603e-19
310,-3.34207e-12,1.66473e-38,-1.61512e-06,-3.40794e-12,1.66461e-38,-3.9599e-12,-1.13718e-13,0,0,0,0,0,0,0,0,0,0,0,0,0,0,0,0,0,0,0,0,0,-0.261799,-0.000380736,-1.5,nan,0,0,3,0,0,0,0,0,0,0,0,1.9603e-19
320,-3.34207e-12,1.66473e-38,-1.61512e-06,-3.40794e-12,1.66461e-38,0,-1.13718e-13,0,0,0,0,0,0,0,0,0,0,0,0,0,0,0,0,0,0,0,0,0,-0.261799,-0.000368685,-1.5,nan,0,0,3,0,0,0,0,0,0,0,0,1.9603e-19
330,-3.34207e-12,1.66473e-38,-1.61512e-06,-3.40794e-12,1.66461e-38,-3.9599e-12,-1.13719e-13,0,0,0,0,0,0,0,0,0,0,0,0,0,0,0,0,0,0,0,0,0,-0.261799,-0.000357017,-1.5,nan,0,0,3,0,0,0,0,0,0,0,0,1.9603e-19
340,-3.34207e-12,1.66473e-38,-1.61512e-06,-3.40794e-12,1.66461e-38,0,-1.13719e-13,0,0,0,0,0,0,0,0,0,0,0,0,0,0,0,0,0,0,0,0,0,-0.261799,-0.000345724,-1.5,nan,0,0,3,0,0,0,0,0,0,0,0,1.9603e-19
350,-3.34207e-12,1.66473e-38,-1.61512e-06,-3.40794e-12,1.66461e-38,-3.9599e-12,-1.1372e-13,0,0,0,0,0,0,0,0,0,0,0,0,0,0,0,0,0,0,0,0,0,-0.261799,-0.000333431,-1.5,nan,0,0,3,0,0,0,0,0,0,0,0,1.9603e-19
360,-3.34207e-12,1.66473e-38,-1.61512e-06,-3.40794e-12,1.66461e-38,0,-1.13721e-13,0,0,0,0,0,0,0,0,0,0,0,0,0,0,0,0,0,0,0,0,0,-0.261799,-0.000322878,-1.5,nan,0,0,3,0,0,0,0,0,0,0,0,1.9603e-19
370,-3.34207e-12,1.66473e-38,-1.61512e-06,-3.40794e-12,1.66461e-38,-3.9599e-12,-1.13721e-13,0,0,0,0,0,0,0,0,0,0,0,0,0,0,0,0,0,0,0,0,0,-0.261799,-0.000312665,-1.5,nan,0,0,3,0,0,0,0,0,0,0,0,1.9603e-19
380,-3.34207e-12,1.66473e-38,-1.61512e-06,-3.40794e-12,1.66461e-38,0,-1.13722e-13,0,0,0,0,0,0,0,0,0,0,0,0,0,0,0,0,0,0,0,0,0,-0.261799,-0.000298476,-1.5,nan,0,0,3,0,0,0,0,0,0,0,0,1.9603e-19
390,-3.34207e-12,1.66473e-38,-1.61512e-06,-3.40794e-12,1.66461e-38,-3.9599e-12,-1.13722e-13,0,0,0,0,0,0,0,0,0,0,0,0,0,0,0,0,0,0,0,0,0,-0.261799,-0.000289036,-1.5,nan,0,0,3,0,0,0,0,0,0,0,0,1.9603e-19
400,-3.34207e-12,1.66473e-38,-1.61512e-06,-3.40794e-12,1.66461e-38,0,-1.13723e-13,0,0,0,0,0,0,0,0,0,0,0,0,0,0,0,0,0,0,0,0,0,-0.261799,-0.000279893,-1.5,nan,0,0,3,0,0,0,0,0,0,0,0,1.9603e-19
410,-3.34207e-12,1.66473e-38,-1.61512e-06,-3.40794e-12,1.66461e-38,-3.9599e-12,-1.13723e-13,0,0,0,0,0,0,0,0,0,0,0,0,0,0,0,0,0,0,0,0,0,-0.261799,-0.00027104,-1.5,nan,0,0,3,0,0,0,0,0,0,0,0,1.9603e-19
420,-3.34207e-12,1.66473e-38,-1.61512e-06,-3.40794e-12,1.66461e-38,0,-1.13724e-13,0,0,0,0,0,0,0,0,0,0,0,0,0,0,0,0,0,0,0,0,0,-0.261799,-0.000262995,-1.5,nan,0,0,3,0,0,0,0,0,0,0,0,1.9603e-19
430,-3.34207e-12,1.66473e-38,-1.61512e-06,-3.40794e-12,1.66461e-38,-3.9599e-12,-1.13724e-13,0,0,0,0,0,0,0,0,0,0,0,0,0,0,0,0,0,0,0,0,0,-0.261799,-0.000254677,-1.5,nan,0,0,3,0,0,0,0,0,0,0,0,1.9603e-19
440,-3.34207e-12,1.66473e-38,-1.61512e-06,-3.40794e-12,1.66461e-38,0,-1.13725e-13,0,0,0,0,0,0,0,0,0,0,0,0,0,0,0,0,0,0,0,0,0,-0.261799,-0.000247622,-1.5,nan,0,0,3,0,0,0,0,0,0,0,0,1.9603e-19
450,-3.34207e-12,1.66473e-38,-1.61512e-06,-3.40794e-12,1.66461e-38,-3.9599e-12,-1.13725e-13,0,0,0,0,0,0,0,0,0,0,0,0,0,0,0,0,0,0,0,0,0,-0.261799,-0.000241247,-1.5,nan,0,0,3,0,0,0,0,0,0,0,0,1.9603e-19
460,-3.34207e-12,1.66473e-38,-1.61512e-06,-3.40794e-12,1.66461e-38,0,-1.13726e-13,0,0,0,0,0,0,0,0,0,0,-0.05,0,-1367297176,-1367297176,-1367297176,-1367297176,-1367297136,1007643092,-1600784432,-1367297136,0,-0.261799,-0.000223665,-1.5,nan,0,0,3,0,0,0,0,0,0,0,0,0
470,-3.34207e-12,1.66473e-38,-1.61512e-06,-3.40794e-12,1.66461e-38,-3.9599e-12,-1.13727e-13,0,0,0,0,0,0,0,0,0,0,-0.05,0,-1367297176,-1367297176,-1367297176,-1367297176,-1367297136,1007643092,-1600784432,-1367297136,0,-0.261799,-0.000215712,-1.5,nan,0,0,3,0,0,0,0,0,0,0,0,0
480,-3.34207e-12,1.66473e-38,-1.61512e-06,-3.40794e-12,1.66461e-38,0,-1.13727e-13,0,0,0,0,0,0,0,0,0,0,-0.05,0,-1367297176,-1367297176,-1367297176,-1367297176,-1367297136,1007643092,-1600784432,-1367297136,0,-0.261799,-0.000208889,-1.5,nan,0,0,3,0,0,0,0,0,0,0,0,0
490,-3.34207e-12,1.66473e-38,-1.61512e-06,-3.40794e-12,1.66461e-38,-3.9599e-12,-1.13728e-13,0,0,0,0,0,0,0,0,0,0,-0.05,0,-1367297176,-1367297176,-1367297176,-1367297176,-1367297136,1007643092,-1600784432,-1367297136,0,-0.261799,-0.000202282,-1.5,nan,0,0,3,0,0,0,0,0,0,0,0,0
500,-3.34207e-12,1.66473e-38,-1.61512e-06,-3.40794e-12,1.66461e-38,0,-1.13728e-13,0,0,-6.84629,2.33998,1.80816,0,0,0,0,0,2.66001,-2.87489,183,16,183,16,220,16,183,84,0,-0.261799,-0.000196278,-1.5,nan,0,0,3,0,0,0,0,0,0,0,0,2516
510,-3.34207e-12,1.66473e-38,-1.61512e-06,-3.40794e-12,1.66461e-38,-3.9599e-12,-1.13729e-13,0,0,-6.84629,2.33998,1.80816,0,0,0,0,0,2.66001,-2.87489,183,16,183,16,220,16,183,84,0,-0.261799,-0.000189298,-1.5,nan,0,0,3,0,0,0,0,0,0,0,0,2516
520,-3.34207e-12,1.66473e-38,-1.61512e-06,-3.40794e-12,1.66461e-38,0,-1.13729e-13,0,0,-6.84629,2.33998,1.80816,0,0,0,0,0,2.66001,-2.87489,183,16,183,16,220,16,183,84,0,-0.261799,-0.000182939,-1.5,nan,0,0,3,0,0,0,0,0,0,0,0,2516
530,-3.34207e-12,1.66473e-38,-1.61512e-06,-3.40794e-12,1.66461e-38,-3.9599e-12,-1.1373e-13,0,0,-6.84629,2.33998,1.80816,0,0,0,0,0,2.66001,-2.87489,183,16,183,16,220,16,183,84,0,-0.261799,-0.000177509,-1.5,nan,0,0,3,0,0,0,0,0,0,0,0,2516
540,-3.34207e-12,1.66473e-38,-1.61512e-06,-3.40794e-12,1.66461e-38,0,-1.1373e-13,0,0,-6.62848,2.2467,1.66012,0,0,0,0,0,2.75329,-2.61259,183,17,183,17,222,17,183,87,0,-0.261799,-0.000171891,-1.5,nan,0,0,3,0,0,0,0,0,0,0,0,2730
550,-3.34207e-12,1.66473e-38,-1.61512e-06,-3.40794e-12,1.66461e-38,-3.9599e-12,-1.13731e-13,0,0,-6.62848,2.2467,1.66012,0,0,0,0,0,2.75329,-2.61259,183,17,183,17,222,17,183,87,0,-0.261799,-0.000165109,-1.5,nan,0,0,3,0,0,0,0,0,0,0,0,2730
560,-3.34207e-12,1.66473e-38,-1.61512e-06,-3.40794e-12,1.66461e-38,0,-1.13731e-13,0,0,-6.62848,2.2467,1.66012,0,0,0,0,0,2.75329,-2.61259,183,17,183,17,222,17,183,87,0,-0.261799,-0.000159886,-1.5,nan,0,0,3,0,0,0,0,0,0,0,0,2730
570,-3.34207e-12,1.66473e-38,-1.61512e-06,-3.40794e-12,1.66461e-38,-3.9599e-12,-1.13732e-13,0,0,-6.62848,2.2467,1.66012,0,0,0,0,0,2.75329,-2.61259,183,17,183,17,222,17,183,87,0,-0.261799,-0.000154829,-1.5,nan,0,0,3,0,0,0,0,0,0,0,0,2730
580,-3.34207e-12,1.66473e-38,-1.61512e-06,-3.40794e-12,1.66461e-38,0,-1.13732e-13,0,0,-6.62848,2.2467,1.66012,0,0,0,0,0,2.75329,-2.61259,183,17,183,17,222,17,183,87,0,-0.261799,-0.000150234,-1.5,nan,0,0,3,0,0,0,0,0,0,0,0,2730
590,-3.34207e-12,1.66473e-38,-1.61512e-06,-3.40794e-12,1.66461e-38,-3.9599e-12,-1.13733e-13,0,0,-6.62848,2.2467,1.66012,0,0,0,0,0,2.75329,-2.61259,183,17,183,17,222,17,183,87,0,-0.261799,-0.000145183,-1.5,nan,0,0,3,0,0,0,0,0,0,0,0,2730
600,-3.34207e-12,1.66473e-38,-1.61512e-06,-3.40794e-12,1.66461e-38,0,-1.13734e-13,0,0,-6.62848,2.2467,1.66012,0,0,0,0,0,2.75329,-2.61259,183,17,183,17,222,17,183,87,0,-0.261799,-0.000140306,-1.5,nan,0,0,3,0,0,0,0,0,0,0,0,2730
610,-3.34207e-12,1.66473e-38,-1.61512e-06,-3.40794e-12,1.66461e-38,-3.9599e-12,-1.13734e-13,0,0,-6.62848,2.2467,1.66012,0,0,0,0,0,2.75329,-2.61259,183,17,183,17,222,17,183,87,0,-0.261799,-0.000135313,-1.5,nan,0,0,3,0,0,0,0,0,0,0,0,2730
620,-3.34207e-12,1.66473e-38,-1.61512e-06,-3.40794e-12,1.66461e-38,0,-1.13735e-13,0,0,-6.68916,2.27694,1.70934,0,0,0,0,0,2.72305,-2.68522,184,16,184,16,220,16,184,86,0,-0.261799,-0.000131296,-1.5,nan,0,0,3,0,0,0,0,0,0,0,0,2520
630,-3.34207e-12,1.66473e-38,-1.61512e-06,-3.40794e-12,1.66461e-38,-3.9599e-12,-1.13735e-13,0,0,-6.68916,2.27694,1.70934,0,0,0,0,0,2.72305,-2.68522,184,16,184,16,220,16,184,86,0,-0.261799,-0.000126886,-1.5,nan,0,0,3,0,0,0,0,0,0,0,0,2520
640,-3.34207e-12,1.66473e-38,-1.61512e-06,-3.40794e-12,1.66461e-38,0,-1.13736e-13,0,0,-6.68916,2.27694,1.70934,0,0,0,0,0,2.72305,-2.68522,184,16,184,16,220,16,184,86,0,-0.261799,-0.000122872,-1.5,nan,0,0,3,0,0,0,0,0,0,0,0,2520
650,-3.34207e-12,1.66473e-38,-1.61512e-06,-3.40794e-12,1.66461e-38,-3.9599e-12,-1.13736e-13,0,0,-6.68916,2.27694,1.70934,0,0,0,0,0,2.72305,-2.68522,184,16,184,16,220,16,184,86,0,-0.261799,-0.000118986,-1.5,nan,0,0,3,0,0,0,0,0,0,0,0,2520
660,-3.34207e-12,1.66473e-38,-1.61512e-06,-3.40794e-12,1.66461e-38,0,-1.13737e-13,0,0,-6.68916,2.27694,1.70934,0,0,0,0,0,2.72305,-2.68522,184,16,184,16,220,16,184,86,0,-0.261799,-0.000115222,-1.5,nan,0,0,3,0,0,0,0,0,0,0,0,2520
670,-3.34207e-12,1.66473e-38,-1.61512e-06,-3.40794e-12,1.66461e-38,-3.9599e-12,-1.13737e-13,0,0,-6.68916,2.27694,1.70934,0,0,0,0,0,2.72305,-2.68522,184,16,184,16,220,16,184,86,0,-0.261799,-0.000111802,-1.5,nan,0,0,3,0,0,0,0,0,0,0,0,2520
680,-3.34207e-12,1.66473e-38,-1.61512e-06,-3.40794e-12,1.66461e-38,0,-1.13738e-13,0,0,-6.68916,2.27694,1.70934,0,0,0,0,0,2.72305,-2.68522,184,16,184,16,220,16,184,86,0,-0.261799,-0.000108266,-1.5,nan,0,0,3,0,0,0,0,0,0,0,0,2520
690,-3.34207e-12,1.66473e-38,-1.61512e-06,-3.40794e-12,1.66461e-38,-3.9599e-12,-1.13738e-13,0,0,-6.68916,2.27694,1.70934,0,0,0,0,0,2.72305,-2.68522,184,16,184,16,220,16,184,86,0,-0.261799,-0.000104842,-1.5,nan,0,0,3,0,0,0,0,0,0,0,0,2520
700,-3.34207e-12,1.66473e-38,-1.61512e-06,-3.40794e-12,1.66461e-38,0,-1.13739e-13,0,0,-6.68916,2.27694,1.70934,0,0,0,0,0,2.72305,-2.68522,184,16,184,16,220,16,184,86,0,-0.261799,-0.00010173,-1.5,nan,0,0,3,0,0,0,0,0,0,0,0,2520
710,-3.34207e-12,1.66473e-38,-1.61512e-06,-3.40794e-12,1.66461e-38,-3.9599e-12,-1.1374e-13,0,0,-6.68916,2.27694,1.70934,0,0,0,0,0,2.72305,-2.68522,184,16,184,16,220,16,184,86,0,-0.261799,-9.8512e-05,-1.5,nan,0,0,3,0,0,0,0,0,0,0,0,2520
720,-3.34207e-12,1.66473e-38,-1.61512e-06,-3.40794e-12,1.66461e-38,0,-1.1374e-13,0,0,-6.68916,2.27694,1.70934,0,0,0,0,0,2.72305,-2.68522,184,16,184,16,220,16,184,86,0,-0.261799,-9.5009e-05,-1.5,nan,0,0,3,0,0,0,0,0,0,0,0,2520
730,-3.34207e-12,1.66473e-38,-1.61512e-06,-3.40794e-12,1.66461e-38,-3.9599e-12,-1.13741e-13,0,0,-6.68916,2.27694,1.70934,0,0,0,0,0,2.72305,-2.68522,184,16,184,16,220,16,184,86,0,-0.261799,-9.20039e-05,-1.5,nan,0,0,3,0,0,0,0,0,0,0,0,2520
740,-3.34207e-12,1.66473e-38,-1.61512e-06,-3.40794e-12,1.66461e-38,0,-1.13741e-13,0,0,-6.68916,2.27694,1.70934,0,0,0,0,0,2.72305,-2.68522,184,16,184,16,220,16,184,86,0,-0.261799,-8.92731e-05,-1.5,nan,0,0,3,0,0,0,0,0,0,0,0,2520
750,-3.34207e-12,1.66473e-38,-1.61512e-06,-3.40794e-12,1.66461e-38,-3.9599e-12,-1.13742e-13,0,0,-6.68916,2.27694,1.70934,0,0,0,0,0,2.72305,-2.68522,184,16,184,16,220,16,184,86,0,-0.261799,-8.66233e-05,-1.5,nan,0,0,3,0,0,0,0,0,0,0,0,2520
760,-3.34207e-12,1.66473e-38,-1.61512e-06,-3.40794e-12,1.66461e-38,0,-1.13742e-13,0,0,-6.68916,2.27694,1.70934,0,0,0,0,0,2.72305,-2.68522,184,16,184,16,220,16,184,86,0,-0.261799,-8.35431e-05,-1.5,nan,0,0,3,0,0,0,0,0,0,0,0,2520
770,-3.34207e-12,1.66473e-38,-1.61512e-06,-3.40794e-12,1.66461e-38,-3.9599e-12,-1.13743e-13,0,0,-6.68916,2.27694,1.70934,0,0,0,0,0,2.72305,-2.68522,184,16,184,16,220,16,184,86,0,-0.261799,-8.09006e-05,-1.5,nan,0,0,3,0,0,0,0,0,0,0,0,2520
780,-3.34207e-12,1.66473e-38,-1.61512e-06,-3.40794e-12,1.66461e-38,0,-1.13743e-13,0,0,-6.68916,2.27694,1.70934,0,0,0,0,0,2.72305,-2.68522,184,16,184,16,220,16,184,86,0,-0.261799,-7.83417e-05,-1.5,nan,0,0,3,0,0,0,0,0,0,0,0,2520
790,-3.34207e-12,1.66473e-38,-1.61512e-06,-3.40794e-12,1.66461e-38,-3.9599e-12,-1.13744e-13,0,0,-6.68916,2.27694,1.70934,0,0,0,0,0,2.72305,-2.68522,184,16,184,16,220,16,184,86,0,-0.261799,-7.63248e-05,-1.5,nan,0,0,3,0,0,0,0,0,0,0,0,2520
800,-3.34207e-12,1.66473e-38,-1.61512e-06,-3.40794e-12,1.66461e-38,0,-1.13744e-13,0,0,-6.68916,2.27694,1.70934,0,0,0,0,0,2.72305,-2.68522,184,16,184,16,220,16,184,86,0,-0.261799,-7.39107e-05,-1.5,nan,0,0,3,0,0,0,0,0,0,0,0,2520
810,-3.34207e-12,1.66473e-38,-1.61512e-06,-3.40794e-12,1.66461e-38,-3.9599e-12,-1.13745e-13,0,0,-6.68916,2.27694,1.70934,0,0,0,0,0,2.72305,-2.68522,184,16,184,16,220,16,184,86,0,-0.261799,-7.18623e-05,-1.5,nan,0,0,3,0,0,0,0,0,0,0,0,2520
820,-3.34207e-12,1.66473e-38,-1.61512e-06,-3.40794e-12,1.66461e-38,0,-1.13745e-13,0,0,-6.68916,2.27694,1.70934,0,0,0,0,0,2.72305,-2.68522,184,16,184,16,220,16,184,86,0,-0.261799,-6.95879e-05,-1.5,nan,0,0,3,0,0,0,0,0,0,0,0,2520
830,-3.34207e-12,1.66473e-38,-1.61512e-06,-3.40794e-12,1.66461e-38,-3.9599e-12,-1.13746e-13,0,0,-6.68916,2.27694,1.70934,0,0,0,0,0,2.72305,-2.68522,184,16,184,16,220,16,184,86,0,-0.261799,-6.73869e-05,-1.5,nan,0,0,3,0,0,0,0,0,0,0,0,2520
840,-3.34207e-12,1.66473e-38,-1.61512e-06,-3.40794e-12,1.66461e-38,0,-1.13747e-13,0,0,-6.68916,2.27694,1.70934,0,0,0,0,0,2.72305,-2.68522,184,16,184,16,220,16,184,86,0,-0.261799,-6.51215e-05,-1.5,nan,0,0,3,0,0,0,0,0,0,0,0,2520
850,-3.34207e-12,1.66473e-38,-1.61512e-06,-3.40794e-12,1.66461e-38,-3.9599e-12,-1.13747e-13,0,0,-6.68916,2.27694,1.70934,0,0,0,0,0,2.72305,-2.68522,184,16,184,16,220,16,184,86,0,-0.261799,-6.30604e-05,-1.5,nan,0,0,3,0,0,0,0,0,0,0,0,2520
860,-3.34207e-12,1.66473e-38,-1.61512e-06,-3.40794e-12,1.66461e-38,0,-1.13748e-13,0,0,-6.68916,2.27694,1.70934,0,0,0,0,0,2.72305,-2.68522,184,16,184,16,220,16,184,86,0,-0.261799,-6.10645e-05,-1.5,nan,0,0,3,0,0,0,0,0,0,0,0,2520
870,-3.34207e-12,1.66473e-38,-1.61512e-06,-3.40794e-12,1.66461e-38,-3.9599e-12,-1.13748e-13,0,0,-6.68916,2.27694,1.70934,0,0,0,0,0,2.72305,-2.68522,184,16,184,16,220,16,184,86,0,-0.261799,-5.91318e-05,-1.5,nan,0,0,3,0,0,0,0,0,0,0,0,2520
880,-3.34207e-12,1.66473e-38,-1.61512e-06,-3.40794e-12,1.66461e-38,0,-1.13749e-13,0,0,-6.68916,2.27694,1.70934,0,0,0,0,0,2.72305,-2.68522,184,16,184,16,220,16,184,86,0,-0.261799,-5.70292e-05,-1.5,nan,0,0,3,0,0,0,0,0,0,0,0,2520
890,-3.34207e-12,1.66473e-38,-1.61512e-06,-3.40794e-12,1.66461e-38,-3.9599e-12,-1.13749e-13,0,0,-6.68916,2.27694,1.70934,0,0,0,0,0,2.72305,-2.68522,184,16,184,16,220,16,184,86,0,-0.261799,-5.52254e-05,-1.5,nan,0,0,3,0,0,0,0,0,0,0,0,2520
900,-3.34207e-12,1.66473e-38,-1.61512e-06,-3.40794e-12,1.66461e-38,0,-1.1375e-13,0,0,-6.68916,2.27694,1.70934,0,0,0,0,0,2.72305,-2.68522,184,16,184,16,220,16,184,86,0,-0.261799,-5.34786e-05,-1.5,nan,0,0,3,0,0,0,0,0,0,0,0,2520
910,-3.34207e-12,1.66473e-38,-1.61512e-06,-3.40794e-12,1.66461e-38,-3.9599e-12,-1.1375e-13,0,0,-6.68916,2.27694,1.70934,0,0,0,0,0,2.72305,-2.68522,184,16,184,16,220,16,184,86,0,-0.261799,-5.17871e-05,-1.5,nan,0,0,3,0,0,0,0,0,0,0,0,2520
920,-3.34207e-12,1.66473e-38,-1.61512e-06,-3.40794e-12,1.66461e-38,0,-1.13751e-13,0,0,-6.68916,2.27694,1.70934,0,0,0,0,0,2.72305,-2.68522,184,16,184,16,220,16,184,86,0,-0.261799,-5.00473e-05,-1.5,nan,0,0,3,0,0,0,0,0,0,0,0,2520
930,-3.34207e-12,1.66473e-38,-1.61512e-06,-3.40794e-12,1.66461e-38,-3.9599e-12,-1.13751e-13,0,0,-6.68916,2.27694,1.70934,0,0,0,0,0,2.72305,-2.68522,184,16,184,16,220,16,184,86,0,-0.261799,-4.8366e-05,-1.5,nan,0,0,3,0,0,0,0,0,0,0,0,2520
940,-3.34207e-12,1.66473e-38,-1.61512e-06,-3.40794e-12,1.66461e-38,0,-1.13752e-13,0,0,-6.68916,2.27694,1.70934,0,0,0,0,0,2.72305,-2.68522,184,16,184,16,220,16,184,86,0,-0.261799,-4.69304e-05,-1.5,nan,0,0,3,0,0,0,0,0,0,0,0,2520
950,-3.34207e-12,1.66473e-38,-1.61512e-06,-3.40794e-12,1.66461e-38,-3.9599e-12,-1.13753e-13,0,0,-6.68916,2.27694,1.70934,0,0,0,0,0,2.72305,-2.68522,184,16,184,16,220,16,184,86,0,-0.261799,-4.54451e-05,-1.5,nan,0,0,3,0,0,0,0,0,0,0,0,2520
960,-3.34207e-12,1.66473e-38,-1.61512e-06,-3.40794e-12,1.66461e-38,0,-1.13753e-13,0,0,-6.68916,2.27694,1.70934,0,0,0,0,0,2.72305,-2.68522,184,16,184,16,220,16,184,86,0,-0.261799,-4.38291e-05,-1.5,nan,0,0,3,0,0,0,0,0,0,0,0,2520
970,-3.34207e-12,1.66473e-38,-1.61512e-06,-3.40794e-12,1.66461e-38,-3.9599e-12,-1.13754e-13,0,0,-6.68916,2.27694,1.70934,0,0,0,0,0,2.72305,-2.68522,184,16,184,16,220,16,184,86,0,-0.261799,-4.2615e-05,-1.5,nan,0,0,3,0,0,0,0,0,0,0,0,2520
980,-3.34207e-12,1.66473e-38,-1.61512e-06,-3.40794e-12,1.66461e-38,0,-1.13754e-13,0,0,-6.68916,2.27694,1.70934,0,0,0,0,0,2.72305,-2.68522,184,16,184,16,220,16,184,86,0,-0.261799,-4.14345e-05,-1.5,nan,0,0,3,0,0,0,0,0,0,0,0,2520
990,-3.34207e-12,1.66473e-38,-1.61512e-06,-3.40794e-12,1.66461e-38,-3.9599e-12,-1.13755e-13,0,0,-6.68916,2.27694,1.70934,0,0,0,0,0,2.72305,-2.68522,184,16,184,16,220,16,184,86,0,-0.261799,-4.02047e-05,-1.5,nan,0,0,3,0,0,0,0,0,0,0,0,2520
1000,-3.34207e-12,1.66473e-38,-1.61512e-06,-3.40794e-12,1.66461e-38,0,-1.13755e-13,0,0,-6.68916,2.27694,1.70934,0,0,0,0,0,2.72305,-2.68522,184,16,184,16,220,16,184,86,0,-0.261799,-3.8933e-05,-1.5,nan,0,0,3,0,0,0,0,0,0,0,0,2520
1010,-3.34207e-12,1.66473e-38,-1.61512e-06,-3.40794e-12,1.66461e-38,-3.9599e-12,-1.13756e-13,0,0,-6.68916,2.27694,1.70934,0,0,0,0,0,2.72305,-2.68522,184,16,184,16,220,16,184,86,0,-0.261799,-3.75486e-05,-1.5,nan,0,0,3,0,0,0,0,0,0,0,0,2520
1020,-3.34207e-12,1.66473e-38,-1.61512e-06,-3.40794e-12,1.66461e-38,0,-1.13756e-13,0,0,-6.68916,2.27694,1.70934,0,0,0,0,0,2.72305,-2.68522,184,16,184,16,220,16,184,86,0,-0.261799,-3.63602e-05,-1.5,nan,0,0,3,0,0,0,0,0,0,0,0,2520
1030,-3.34207e-12,1.66473e-38,-1.61512e-06,-3.40794e-12,1.66461e-38,-3.9599e-12,-1.13757e-13,0,0,-6.68916,2.27694,1.70934,0,0,0,0,0,2.72305,-2.68522,184,16,184,16,220,16,184,86,0,-0.261799,-3.52101e-05,-1.5,nan,0,0,3,0,0,0,0,0,0,0,0,2520
1040,-3.34207e-12,1.66473e-38,-1.61512e-06,-3.40794e-12,1.66461e-38,0,-1.13757e-13,0,0,-6.68916,2.27694,1.70934,0,0,0,0,0,2.72305,-2.68522,184,16,184,16,220,16,184,86,0,-0.261799,-3.40964e-05,-1.5,nan,0,0,3,0,0,0,0,0,0,0,0,2520
1050,-3.34207e-12,1.66473e-38,-1.61512e-06,-3.40794e-12,1.66461e-38,-3.9599e-12,-1.13758e-13,0,0,-6.68916,2.27694,1.70934,0,0,0,0,0,2.72305,-2.68522,184,16,184,16,220,16,184,86,0,-0.261799,-3.2817e-05,-1.5,nan,0,0,3,0,0,0,0,0,0,0,0,2520
1060,-3.34207e-12,1.66473e-38,-1.61512e-06,-3.40794e-12,1.66461e-38,0,-1.13759e-13,0,0,-6.68916,2.27694,1.70934,0,0,0,0,0,2.72305,-2.68522,184,16,184,16,220,16,184,86,0,-0.261799,-3.1779e-05,-1.5,nan,0,0,3,0,0,0,0,0,0,0,0,2520
1070,-3.34207e-12,1.66473e-38,-1.61512e-06,-3.40794e-12,1.66461e-38,-3.9599e-12,-1.13759e-13,0,0,-6.68916,2.27694,1.70934,0,0,0,0,0,2.72305,-2.68522,184,16,184,16,220,16,184,86,0,-0.261799,-3.08358e-05,-1.5,nan,0,0,3,0,0,0,0,0,0,0,0,2520
1080,-3.34207e-12,1.66473e-38,-1.61512e-06,-3.40794e-12,1.66461e-38,0,-1.1376e-13,0,0,-6.68916,2.27694,1.70934,0,0,0,0,0,2.72305,-2.68522,184,16,184,16,220,16,184,86,0,-0.261799,-2.98598e-05,-1.5,nan,0,0,3,0,0,0,0,0,0,0,0,2520
1090,-3.34207e-12,1.66473e-38,-1.61512e-06,-3.40794e-12,1.66461e-38,-3.9599e-12,-1.1376e-13,0,0,-6.68916,2.27694,1.70934,0,0,0,0,0,2.72305,-2.68522,184,16,184,16,220,16,184,86,0,-0.261799,-2.86807e-05,-1.5,nan,0,0,3,0,0,0,0,0,0,0,0,2520
1100,-3.34207e-12,1.66473e-38,-1.61512e-06,-3.40794e-12,1.66461e-38,0,-1.13761e-13,0,0,-6.68916,2.27694,1.70934,0,0,0,0,0,2.72305,-2.68522,184,16,184,16,220,16,184,86,0,-0.261799,-2.77736e-05,-1.5,nan,0,0,3,0,0,0,0,0,0,0,0,2520
1110,-3.34207e-12,1.66473e-38,-1.61512e-06,-3.40794e-12,1.66461e-38,-3.9599e-12,-1.13761e-13,0,0,-6.68916,2.27694,1.70934,0,0,0,0,0,2.72305,-2.68522,184,16,184,16,220,16,184,86,0,-0.261799,-2.68951e-05,-1.5,nan,0,0,3,0,0,0,0,0,0,0,0,2520
1120,-3.34207e-12,1.66473e-38,-1.61512e-06,-3.40794e-12,1.66461e-38,0,-1.13762e-13,0,0,-6.68916,2.27694,1.70934,0,0,0,0,0,2.72305,-2.68522,184,16,184,16,220,16,184,86,0,-0.261799,-2.60444e-05,-1.5,nan,0,0,3,0,0,0,0,0,0,0,0,2520
1130,-3.34207e-12,1.66473e-38,-1.61512e-06,-3.40794e-12,1.66461e-38,-3.9599e-12,-1.13762e-13,0,0,-6.68916,2.27694,1.70934,0,0,0,0,0,2.72305,-2.68522,184,16,184,16,220,16,184,86,0,-0.261799,-2.51695e-05,-1.5,nan,0,0,3,0,0,0,0,0,0,0,0,2520
1140,-3.34207e-12,1.66473e-38,-1.61512e-06,-3.40794e-12,1.66461e-38,0,-1.13763e-13,0,0,-6.68916,2.27694,1.70934,0,0,0,0,0,2.72305,-2.68522,184,16,184,16,220,16,184,86,0,-0.261799,-2.43728e-05,-1.5,nan,0,0,3,0,0,0,0,0,0,0,0,2520
1150,-3.34207e-12,1.66473e-38,-1.61512e-06,-3.40794e-12,1.66461e-38,-3.9599e-12,-1.13763e-13,0,0,-6.68916,2.27694,1.70934,0,0,0,0,0,2.72305,-2.68522,184,16,184,16,220,16,184,86,0,-0.261799,-2.36977e-05,-1.5,nan,0,0,3,0,0,0,0,0,0,0,0,2520
1160,-3.34207e-12,1.66473e-38,-1.61512e-06,-3.40794e-12,1.66461e-38,0,-1.13764e-13,0,0,-6.68916,2.27694,1.70934,0,0,0,0,0,2.72305,-2.68522,184,16,184,16,220,16,184,86,0,-0.261799,-2.30876e-05,-1.5,nan,0,0,3,0,0,0,0,0,0,0,0,2520
1170,-3.34207e-12,1.66473e-38,-1.61512e-06,-3.40794e-12,1.66461e-38,-3.9599e-12,-1.13764e-13,0,0,-6.68916,2.27694,1.70934,0,0,0,0,0,2.72305,-2.68522,184,16,184,16,220,16,184,86,0,-0.261799,-2.22666e-05,-1.5,nan,0,0,3,0,0,0,0,0,0,0,0,2520
1180,-3.34207e-12,1.66473e-38,-1.61512e-06,-3.40794e-12,1.66461e-38,0,-1.13765e-13,0,0,-6.68916,2.27694,1.70934,0,0,0,0,0,2.72305,-2.68522,184,16,184,16,220,16,184,86,0,-0.261799,-2.15186e-05,-1.5,nan,0,0,3,0,0,0,0,0,0,0,0,2520
1190,-3.34207e-12,1.66473e-38,-1.61512e-06,-3.40794e-12,1.66461e-38,-3.9599e-12,-1.13766e-13,0,0,-6.68916,2.27694,1.70934,0,0,0,0,0,2.72305,-2.68522,184,16,184,16,220,16,184,86,0,-0.261799,-2.0838e-05,-1.5,nan,0,0,3,0,0,0,0,0,0,0,0,2520
1200,-3.34207e-12,1.66473e-38,-1.61512e-06,-3.40794e-12,1.66461e-38,0,-1.13766e-13,0,0,-6.68916,2.27694,1.70934,0,0,0,0,0,2.72305,-2.68522,184,16,184,16,220,16,184,86,0,-0.261799,-2.02194e-05,-1.5,nan,0,0,3,0,0,0,0,0,0,0,0,2520
1210,-3.34207e-12,1.66473e-38,-1.61512e-06,-3.40794e-12,1.66461e-38,-3.9599e-12,-1.13767e-13,0,0,-6.68916,2.27694,1.70934,0,0,0,0,0,2.72305,-2.68522,184,16,184,16,220,16,184,86,0,-0.261799,-1.95005e-05,-1.5,nan,0,0,3,0,0,0,0,0,0,0,0,2520
1220,-3.34207e-12,1.66473e-38,-1.61512e-06,-3.40794e-12,1.66461e-38,0,-1.13767e-13,0,0,-6.68916,2.27694,1.70934,0,0,0,0,0,2.72305,-2.68522,184,16,184,16,220,16,184,86,0,-0.261799,-1.88454e-05,-1.5,nan,0,0,3,0,0,0,0,0,0,0,0,2520
1230,-3.34207e-12,1.66473e-38,-1.61512e-06,-3.40794e-12,1.66461e-38,-3.9599e-12,-1.13768e-13,0,0,-6.68916,2.27694,1.70934,0,0,0,0,0,2.72305,-2.68522,184,16,184,16,220,16,184,86,0,-0.261799,-1.82493e-05,-1.5,nan,0,0,3,0,0,0,0,0,0,0,0,2520
1240,-3.34207e-12,1.66473e-38,-1.61512e-06,-3.40794e-12,1.66461e-38,0,-1.13768e-13,0,0,-6.68916,2.27694,1.70934,0,0,0,0,0,2.72305,-2.68522,184,16,184,16,220,16,184,86,0,-0.261799,-1.76721e-05,-1.5,nan,0,0,3,0,0,0,0,0,0,0,0,2520
1250,-3.34207e-12,1.66473e-38,-1.61512e-06,-3.40794e-12,1.66461e-38,-3.9599e-12,-1.13769e-13,0,0,-6.68916,2.27694,1.70934,0,0,0,0,0,2.72305,-2.68522,184,16,184,16,220,16,184,86,0,-0.261799,-1.70784e-05,-1.5,nan,0,0,3,0,0,0,0,0,0,0,0,2520
1260,-3.34207e-12,1.66473e-38,-1.61512e-06,-3.40794e-12,1.66461e-38,0,-1.13769e-13,0,0,-6.68916,2.27694,1.70934,0,0,0,0,0,2.72305,-2.68522,184,16,184,16,220,16,184,86,0,-0.261799,-1.65046e-05,-1.5,nan,0,0,3,0,0,0,0,0,0,0,0,2520
1270,-3.34207e-12,1.66473e-38,-1.61512e-06,-3.40794e-12,1.66461e-38,-3.9599e-12,-1.1377e-13,0,0,-6.68916,2.27694,1.70934,0,0,0,0,0,2.72305,-2.68522,184,16,184,16,220,16,184,86,0,-0.261799,-1.60148e-05,-1.5,nan,0,0,3,0,0,0,0,0,0,0,0,2520
1280,-3.34207e-12,1.66473e-38,-1.61512e-06,-3.40794e-12,1.66461e-38,0,-1.1377e-13,0,0,-6.68916,2.27694,1.70934,0,0,0,0,0,2.72305,-2.68522,184,16,184,16,220,16,184,86,0,-0.261799,-1.55079e-05,-1.5,nan,0,0,3,0,0,0,0,0,0,0,0,2520
1290,-3.34207e-12,1.66473e-38,-1.61512e-06,-3.40794e-12,1.66461e-38,-3.9599e-12,-1.13771e-13,0,0,-6.68916,2.27694,1.70934,0,0,0,0,0,2.72305,-2.68522,184,16,184,16,220,16,184,86,0,-0.261799,-1.49565e-05,-1.5,nan,0,0,3,0,0,0,0,0,0,0,0,2520
1300,-3.34207e-12,1.66473e-38,-1.61512e-06,-3.40794e-12,1.66461e-38,0,-1.13772e-13,0,0,-6.68916,2.27694,1.70934,0,0,0,0,0,2.72305,-2.68522,184,16,184,16,220,16,184,86,0,-0.261799,-1.44831e-05,-1.5,nan,0,0,3,0,0,0,0,0,0,0,0,2520
1310,-3.34207e-12,1.66473e-38,-1.61512e-06,-3.40794e-12,1.66461e-38,-3.9599e-12,-1.13772e-13,0,0,-6.68916,2.27694,1.70934,0,0,0,0,0,2.72305,-2.68522,184,16,184,16,220,16,184,86,0,-0.261799,-1.40247e-05,-1.5,nan,0,0,3,0,0,0,0,0,0,0,0,2520
1320,-3.34207e-12,1.66473e-38,-1.61512e-06,-3.40794e-12,1.66461e-38,0,-1.13773e-13,0,0,-6.68916,2.27694,1.70934,0,0,0,0,0,2.72305,-2.68522,184,16,184,16,220,16,184,86,0,-0.261799,-1.36362e-05,-1.5,nan,0,0,3,0,0,0,0,0,0,0,0,2520
1330,-3.34207e-12,1.66473e-38,-1.61512e-06,-3.40794e-12,1.66461e-38,-3.9599e-12,-1.13773e-13,0,0,-6.68916,2.27694,1.70934,0,0,0,0,0,2.72305,-2.68522,184,16,184,16,220,16,184,86,0,-0.261799,-1.32585e-05,-1.5,nan,0,0,3,0,0,0,0,0,0,0,0,2520
1340,-3.34207e-12,1.66473e-38,-1.61512e-06,-3.40794e-12,1.66461e-38,0,-1.13774e-13,0,0,-6.68916,2.27694,1.70934,0,0,0,0,0,2.72305,-2.68522,184,16,184,16,220,16,184,86,0,-0.261799,-1.28391e-05,-1.5,nan,0,0,3,0,0,0,0,0,0,0,0,2520
1350,-3.34207e-12,1.66473e-38,-1.61512e-06,-3.40794e-12,1.66461e-38,-3.9599e-12,-1.13774e-13,0,0,-6.68916,2.27694,1.70934,0,0,0,0,0,2.72305,-2.68522,184,16,184,16,220,16,184,86,0,-0.261799,-1.24327e-05,-1.5,nan,0,0,3,0,0,0,0,0,0,0,0,2520
1360,-3.34207e-12,1.66473e-38,-1.61512e-06,-3.40794e-12,1.66461e-38,0,-1.13775e-13,0,0,-6.68916,2.27694,1.70934,0,0,0,0,0,2.72305,-2.68522,184,16,184,16,220,16,184,86,0,-0.261799,-1.20395e-05,-1.5,nan,0,0,3,0,0,0,0,0,0,0,0,2520
1370,-3.34207e-12,1.66473e-38,-1.61512e-06,-3.40794e-12,1.66461e-38,-3.9599e-12,-1.13775e-13,0,0,-6.68916,2.27694,1.70934,0,0,0,0,0,2.72305,-2.68522,184,16,184,16,220,16,184,86,0,-0.261799,-1.16587e-05,-1.5,nan,0,0,3,0,0,0,0,0,0,0,0,2520
1380,-3.34207e-12,1.66473e-38,-1.61512e-06,-3.40794e-12,1.66461e-38,0,-1.13776e-13,0,0,-6.68916,2.27694,1.70934,0,0,0,0,0,2.72305,-2.68522,184,16,184,16,220,16,184,86,0,-0.261799,-1.11983e-05,-1.5,nan,0,0,3,0,0,0,0,0,0,0,0,2520
1390,-3.34207e-12,1.66473e-38,-1.61512e-06,-3.40794e-12,1.66461e-38,-3.9599e-12,-1.13776e-13,0,0,-6.68916,2.27694,1.70934,0,0,0,0,0,2.72305,-2.68522,184,16,184,16,220,16,184,86,0,-0.261799,-1.08441e-05,-1.5,nan,0,0,3,0,0,0,0,0,0,0,0,2520
1400,-3.34207e-12,1.66473e-38,-1.61512e-06,-3.40794e-12,1.66461e-38,0,-1.13777e-13,0,0,-6.68916,2.27694,1.70934,0,0,0,0,0,2.72305,-2.68522,184,16,184,16,220,16,184,86,0,-0.261799,-1.05011e-05,-1.5,nan,0,0,3,0,0,0,0,0,0,0,0,2520
1410,-3.34207e-12,1.66473e-38,-1.61512e-06,-3.40794e-12,1.66461e-38,-3.9599e-12,-1.13777e-13,0,0,-6.68916,2.27694,1.70934,0,0,0,0,0,2.72305,-2.68522,184,16,184,16,220,16,184,86,0,-0.261799,-1.0169e-05,-1.5,nan,0,0,3,0,0,0,0,0,0,0,0,2520
1420,-3.34207e-12,1.66473e-38,-1.61512e-06,-3.40794e-12,1.66461e-38,0,-1.13778e-13,0,0,-6.68916,2.27694,1.70934,0,0,0,0,0,2.72305,-2.68522,184,16,184,16,220,16,184,86,0,-0.261799,-9.7874e-06,-1.5,nan,0,0,3,0,0,0,0,0,0,0,0,2520
1430,-3.34207e-12,1.66473e-38,-1.61512e-06,-3.40794e-12,1.66461e-38,-3.9599e-12,-1.13779e-13,0,0,-6.68916,2.27694,1.70934,0,0,0,0,0,2.72305,-2.68522,184,16,184,16,220,16,184,86,0,-0.261799,-7.78604e-06,-1.5,nan,0,0,3,0,0,0,0,0,0,0,0,2520
1440,-3.34207e-12,1.66473e-38,-1.61512e-06,-3.40794e-12,1.66461e-38,0,-1.13779e-13,0,0,-6.68916,2.27694,1.70934,0,0,0,0,0,2.72305,-2.68522,184,16,184,16,220,16,184,86,0,-0.261799,-7.49388e-06,-1.5,nan,0,0,3,0,0,0,0,0,0,0,0,2520
1450,-3.34207e-12,1.66473e-38,-1.61512e-06,-3.40794e-12,1.66461e-38,-3.9599e-12,-1.1378e-13,0,0,-6.68916,2.27694,1.70934,0,0,0,0,0,2.72305,-2.68522,184,16,184,16,220,16,184,86,0,-0.261799,-7.25685e-06,-1.5,nan,0,0,3,0,0,0,0,0,0,0,0,2520
1460,-3.34207e-12,1.66473e-38,-1.61512e-06,-3.40794e-12,1.66461e-38,0,-1.1378e-13,0,0,-6.68916,2.27694,1.70934,0,0,0,0,0,2.72305,-2.68522,184,16,184,16,220,16,184,86,0,-0.261799,-7.02732e-06,-1.5,nan,0,0,3,0,0,0,0,0,0,0,0,2520
1470,-3.34207e-12,1.66473e-38,-1.61512e-06,-3.40794e-12,1.66461e-38,-3.9599e-12,-1.13781e-13,0,0,-6.68916,2.27694,1.70934,0,0,0,0,0,2.72305,-2.68522,184,16,184,16,220,16,184,86,0,-0.261799,-6.80504e-06,-1.5,nan,0,0,3,0,0,0,0,0,0,0,0,2520
1480,-3.34207e-12,1.66473e-38,-1.61512e-06,-3.40794e-12,1.66461e-38,0,-1.13781e-13,0,0,-6.68916,2.27694,1.70934,0,0,0,0,0,2.72305,-2.68522,184,16,184,16,220,16,184,86,0,-0.261799,-6.57643e-06,-1.5,nan,0,0,3,0,0,0,0,0,0,0,0,2520
1490,-3.34207e-12,1.66473e-38,-1.61512e-06,-3.40794e-12,1.66461e-38,-3.9599e-12,-1.13782e-13,0,0,-6.68916,2.27694,1.70934,0,0,0,0,0,2.72305,-2.68522,184,16,184,16,220,16,184,86,0,-0.261799,-6.3555e-06,-1.5,nan,0,0,3,0,0,0,0,0,0,0,0,2520
1500,-3.34207e-12,1.66473e-38,-1.61512e-06,-3.40794e-12,1.66461e-38,0,-1.13782e-13,0,0,-6.68916,2.27694,1.70934,0,0,0,0,0,2.72305,-2.68522,184,16,184,16,220,16,184,86,0,-0.261799,-6.19188e-06,-1.5,nan,0,0,3,0,0,0,0,0,0,0,0,2520
1510,-3.34207e-12,1.66473e-38,-1.61512e-06,-3.40794e-12,1.66461e-38,-3.9599e-12,-1.13783e-13,0,0,-6.68916,2.27694,1.70934,0,0,0,0,0,2.72305,-2.68522,184,16,184,16,220,16,184,86,0,-0.261799,-6.02035e-06,-1.5,nan,0,0,3,0,0,0,0,0,0,0,0,2520
1520,-3.34207e-12,1.66473e-38,-1.61512e-06,-3.40794e-12,1.66461e-38,0,-1.13783e-13,0,0,-6.68916,2.27694,1.70934,0,0,0,0,0,2.72305,-2.68522,184,16,184,16,220,16,184,86,0,-0.261799,-5.80628e-06,-1.5,nan,0,0,3,0,0,0,0,0,0,0,0,2520
1530,-3.34207e-12,1.66473e-38,-1.61512e-06,-3.40794e-12,1.66461e-38,-3.9599e-12,-1.13784e-13,0,0,-6.68916,2.27694,1.70934,0,0,0,0,0,2.72305,-2.68522,184,16,184,16,220,16,184,86,0,-0.261799,-5.62263e-06,-1.5,nan,0,0,3,0,0,0,0,0,0,0,0,2520
1540,-3.34207e-12,1.66473e-38,-1.61512e-06,-3.40794e-12,1.66461e-38,0,-1.13785e-13,0,0,-6.68916,2.27694,1.70934,0,0,0,0,0,2.72305,-2.68522,184,16,184,16,220,16,184,86,0,-0.261799,-5.44478e-06,-1.5,nan,0,0,3,0,0,0,0,0,0,0,0,2520
1550,-3.34207e-12,1.66473e-38,-1.61512e-06,-3.40794e-12,1.66461e-38,-3.9599e-12,-1.13785e-13,0,0,-6.68916,2.27694,1.70934,0,0,0,0,0,2.72305,-2.68522,184,16,184,16,220,16,184,86,0,-0.261799,-5.27257e-06,-1.5,nan,0,0,3,0,0,0,0,0,0,0,0,2520
1560,-3.34207e-12,1.66473e-38,-1.61512e-06,-3.40794e-12,1.66461e-38,0,-1.13786e-13,0,0,-6.68916,2.27694,1.70934,0,0,0,0,0,2.72305,-2.68522,184,16,184,16,220,16,184,86,0,-0.261799,-5.09531e-06,-1.5,nan,0,0,3,0,0,0,0,0,0,0,0,2520
1570,-3.34207e-12,1.66473e-38,-1.61512e-06,-3.40794e-12,1.66461e-38,-3.9599e-12,-1.13786e-13,0,0,-6.68916,2.27694,1.70934,0,0,0,0,0,2.72305,-2.68522,184,16,184,16,220,16,184,86,0,-0.261799,-4.92414e-06,-1.5,nan,0,0,3,0,0,0,0,0,0,0,0,2520
1580,-3.34207e-12,1.66473e-38,-1.61512e-06,-3.40794e-12,1.66461e-38,0,-1.13787e-13,0,0,-6.68916,2.27694,1.70934,0,0,0,0,0,2.72305,-2.68522,184,16,184,16,220,16,184,86,0,-0.261799,-4.76839e-06,-1.5,nan,0,0,3,0,0,0,0,0,0,0,0,2520
1590,-3.34207e-12,1.66473e-38,-1.61512e-06,-3.40794e-12,1.66461e-38,-3.9599e-12,-1.13787e-13,0,0,-6.68916,2.27694,1.70934,0,0,0,0,0,2.72305,-2.68522,184,16,184,16,220,16,184,86,0,-0.261799,-4.62685e-06,-1.5,nan,0,0,3,0,0,0,0,0,0,0,0,2520
1600,-3.34207e-12,1.66473e-38,-1.61512e-06,-3.40794e-12,1.66461e-38,0,-1.13788e-13,0,0,-6.68916,2.27694,1.70934,0,0,0,0,0,2.72305,-2.68522,184,16,184,16,220,16,184,86,0,-0.261799,-4.46233e-06,-1.5,nan,0,0,3,0,0,0,0,0,0,0,0,2520
1610,-3.34207e-12,1.66473e-38,-1.61512e-06,-3.40794e-12,1.66461e-38,-3.9599e-12,-1.13788e-13,0,0,-6.68916,2.27694,1.70934,0,0,0,0,0,2.72305,-2.68522,184,16,184,16,220,16,184,86,0,-0.261799,-4.3211e-06,-1.5,nan,0,0,3,0,0,0,0,0,0,0,0,2520
1620,-3.34207e-12,1.66473e-38,-1.61512e-06,-3.40794e-12,1.66461e-38,0,-1.13789e-13,0,0,-6.68916,2.27694,1.70934,0,0,0,0,0,2.72305,-2.68522,184,16,184,16,220,16,184,86,0,-0.261799,-4.18434e-06,-1.5,nan,0,0,3,0,0,0,0,0,0,0,0,2520
1630,-3.34207e-12,1.66473e-38,-1.61512e-06,-3.40794e-12,1.66461e-38,-3.9599e-12,-1.13789e-13,0,0,-6.68916,2.27694,1.70934,0,0,0,0,0,2.72305,-2.68522,184,16,184,16,220,16,184,86,0,-0.261799,-4.0519e-06,-1.5,nan,0,0,3,0,0,0,0,0,0,0,0,2520
1640,-3.34207e-12,1.66473e-38,-1.61512e-06,-3.40794e-12,1.66461e-38,0,-1.1379e-13,0,0,-6.68916,2.27694,1.70934,0,0,0,0,0,2.72305,-2.68522,184,16,184,16,220,16,184,86,0,-0.261799,-3.89998e-06,-1.5,nan,0,0,3,0,0,0,0,0,0,0,0,2520
1650,-3.34207e-12,1.66473e-38,-1.61512e-06,-3.40794e-12,1.66461e-38,-3.9599e-12,-1.1379e-13,0,0,-6.68916,2.27694,1.70934,0,0,0,0,0,2.72305,-2.68522,184,16,184,16,220,16,184,86,0,-0.261799,-3.63838e-06,-1.5,nan,0,0,3,0,0,0,0,0,0,0,0,2520
1660,-3.34207e-12,1.66473e-38,-1.61512e-06,-3.40794e-12,1.66461e-38,0,-1.13791e-13,0,0,-6.68916,2.27694,1.70934,0,0,0,0,0,2.72305,-2.68522,184,16,184,16,220,16,184,86,0,-0.261799,-3.50186e-06,-1.5,nan,0,0,3,0,0,0,0,0,0,0,0,2520
1670,-3.34207e-12,1.66473e-38,-1.61512e-06,-3.40794e-12,1.66461e-38,-3.9599e-12,-1.13792e-13,0,0,-6.68916,2.27694,1.70934,0,0,0,0,0,2.72305,-2.68522,184,16,184,16,220,16,184,86,0,-0.261799,-3.39109e-06,-1.5,nan,0,0,3,0,0,0,0,0,0,0,0,2520
1680,-3.34207e-12,1.66473e-38,-1.61512e-06,-3.40794e-12,1.66461e-38,0,-1.13792e-13,0,0,-6.68916,2.27694,1.70934,0,0,0,0,0,2.72305,-2.68522,184,16,184,16,220,16,184,86,0,-0.261799,-3.29715e-06,-1.5,nan,0,0,3,0,0,0,0,0,0,0,0,2520
1690,-3.34207e-12,1.66473e-38,-1.61512e-06,-3.40794e-12,1.66461e-38,-3.9599e-12,-1.13793e-13,0,0,-6.68916,2.27694,1.70934,0,0,0,0,0,2.72305,-2.68522,184,16,184,16,220,16,184,86,0,-0.261799,-3.20582e-06,-1.5,nan,0,0,3,0,0,0,0,0,0,0,0,2520
1700,-3.34207e-12,1.66473e-38,-1.61512e-06,-3.40794e-12,1.66461e-38,0,-1.13793e-13,0,0,-6.68916,2.27694,1.70934,0,0,0,0,0,2.72305,-2.68522,184,16,184,16,220,16,184,86,0,-0.261799,-3.11066e-06,-1.5,nan,0,0,3,0,0,0,0,0,0,0,0,2520
1710,-3.34207e-12,1.66473e-38,-1.61512e-06,-3.40794e-12,1.66461e-38,-3.9599e-12,-1.13794e-13,0,0,-6.68916,2.27694,1.70934,0,0,0,0,0,2.72305,-2.68522,184,16,184,16,220,16,184,86,0,-0.261799,-3.01221e-06,-1.5,nan,0,0,3,0,0,0,0,0,0,0,0,2520
1720,-3.34207e-12,1.66473e-38,-1.61512e-06,-3.40794e-12,1.66461e-38,0,-1.13794e-13,0,0,-6.68916,2.27694,1.70934,0,0,0,0,0,2.72305,-2.68522,184,16,184,16,220,16,184,86,0,-0.261799,-2.91102e-06,-1.5,nan,0,0,3,0,0,0,0,0,0,0,0,2520
1730,-3.34207e-12,1.66473e-38,-1.61512e-06,-3.40794e-12,1.66461e-38,-3.9599e-12,-1.13795e-13,0,0,-6.68916,2.27694,1.70934,0,0,0,0,0,2.72305,-2.68522,184,16,184,16,220,16,184,86,0,-0.261799,-2.81894e-06,-1.5,nan,0,0,3,0,0,0,0,0,0,0,0,2520
1740,-3.34207e-12,1.66473e-38,-1.61512e-06,-3.40794e-12,1.66461e-38,0,-1.13795e-13,0,0,-6.68916,2.27694,1.70934,0,0,0,0,0,2.72305,-2.68522,184,16,184,16,220,16,184,86,0,-0.261799,-2.73527e-06,-1.5,nan,0,0,3,0,0,0,0,0,0,0,0,2520
1750,-3.34207e-12,1.66473e-38,-1.61512e-06,-3.40794e-12,1.66461e-38,-3.9599e-12,-1.13796e-13,0,0,-6.68916,2.27694,1.70934,0,0,0,0,0,2.72305,-2.68522,184,16,184,16,220,16,184,86,0,-0.261799,-2.6487e-06,-1.5,nan,0,0,3,0,0,0,0,0,0,0,0,2520
1760,-3.34207e-12,1.66473e-38,-1.61512e-06,-3.40794e-12,1.66461e-38,0,-1.13796e-13,0,0,-6.68916,2.27694,1.70934,0,0,0,0,0,2.72305,-2.68522,184,16,184,16,220,16,184,86,0,-0.261799,-2.55444e-06,-1.5,nan,0,0,3,0,0,0,0,0,0,0,0,2520
1770,-3.34207e-12,1.66473e-38,-1.61512e-06,-3.40794e-12,1.66461e-38,-3.9599e-12,-1.13797e-13,0,0,-6.68916,2.27694,1.70934,0,0,0,0,0,2.72305,-2.68522,184,16,184,16,220,16,184,86,0,-0.261799,-2.4736e-06,-1.5,nan,0,0,3,0,0,0,0,0,0,0,0,2520
1780,-3.34207e-12,1.66473e-38,-1.61512e-06,-3.40794e-12,1.66461e-38,0,-1.13798e-13,0,0,-6.68916,2.27694,1.70934,0,0,0,0,0,2.72305,-2.68522,184,16,184,16,220,16,184,86,0,-0.261799,-2.39536e-06,-1.5,nan,0,0,3,0,0,0,0,0,0,0,0,2520
1790,-3.34207e-12,1.66473e-38,-1.61512e-06,-3.40794e-12,1.66461e-38,-3.9599e-12,-1.13798e-13,0,0,-6.68916,2.27694,1.70934,0,0,0,0,0,2.72305,-2.68522,184,16,184,16,220,16,184,86,0,-0.261799,-2.31959e-06,-1.5,nan,0,0,3,0,0,0,0,0,0,0,0,2520
1800,-3.34207e-12,1.66473e-38,-1.61512e-06,-3.40794e-12,1.66461e-38,0,-1.13799e-13,0,0,-6.68916,2.27694,1.70934,0,0,0,0,0,2.72305,-2.68522,184,16,184,16,220,16,184,86,0,-0.261799,-2.23711e-06,-1.5,nan,0,0,3,0,0,0,0,0,0,0,0,2520
1810,-3.34207e-12,1.66473e-38,-1.61512e-06,-3.40794e-12,1.66461e-38,-3.9599e-12,-1.13799e-13,0,0,-6.68916,2.27694,1.70934,0,0,0,0,0,2.72305,-2.68522,184,16,184,16,220,16,184,86,0,-0.261799,-2.16635e-06,-1.5,nan,0,0,3,0,0,0,0,0,0,0,0,2520
1820,-3.34207e-12,1.66473e-38,-1.61512e-06,-3.40794e-12,1.66461e-38,0,-1.138e-13,0,0,-6.68916,2.27694,1.70934,0,0,0,0,0,2.72305,-2.68522,184,16,184,16,220,16,184,86,0,-0.261799,-2.09783e-06,-1.5,nan,0,0,3,0,0,0,0,0,0,0,0,2520
1830,-3.34207e-12,1.66473e-38,-1.61512e-06,-3.40794e-12,1.66461e-38,-3.9599e-12,-1.138e-13,0,0,-6.68916,2.27694,1.70934,0,0,0,0,0,2.72305,-2.68522,184,16,184,16,220,16,184,86,0,-0.261799,-2.03556e-06,-1.5,nan,0,0,3,0,0,0,0,0,0,0,0,2520
1840,-3.34207e-12,1.66473e-38,-1.61512e-06,-3.40794e-12,1.66461e-38,0,-1.13801e-13,0,0,-6.68916,2.27694,1.70934,0,0,0,0,0,2.72305,-2.68522,184,16,184,16,220,16,184,86,0,-0.261799,-1.96312e-06,-1.5,nan,0,0,3,0,0,0,0,0,0,0,0,2520
1850,-3.34207e-12,1.66473e-38,-1.61512e-06,-3.40794e-12,1.66461e-38,-3.9599e-12,-1.13801e-13,0,0,-6.68916,2.27694,1.70934,0,0,0,0,0,2.72305,-2.68522,184,16,184,16,220,16,184,86,0,-0.261799,-1.90872e-06,-1.5,nan,0,0,3,0,0,0,0,0,0,0,0,2520
1860,-3.34207e-12,1.66473e-38,-1.61512e-06,-3.40794e-12,1.66461e-38,0,-1.13802e-13,0,0,-6.68916,2.27694,1.70934,0,0,0,0,0,2.72305,-2.68522,184,16,184,16,220,16,184,86,0,-0.261799,-1.85584e-06,-1.5,nan,0,0,3,0,0,0,0,0,0,0,0,2520
1870,-3.34207e-12,1.66473e-38,-1.61512e-06,-3.40794e-12,1.66461e-38,-3.9599e-12,-1.13802e-13,0,0,-6.68916,2.27694,1.70934,0,0,0,0,0,2.72305,-2.68522,184,16,184,16,220,16,184,86,0,-0.261799,-1.80076e-06,-1.5,nan,0,0,3,0,0,0,0,0,0,0,0,2520
1880,-3.34207e-12,1.66473e-38,-1.61512e-06,-3.40794e-12,1.66461e-38,0,-1.13803e-13,0,0,-6.68916,2.27694,1.70934,0,0,0,0,0,2.72305,-2.68522,184,16,184,16,220,16,184,86,0,-0.261799,-1.72965e-06,-1.5,nan,0,0,3,0,0,0,0,0,0,0,0,2520
1890,-3.34207e-12,1.66473e-38,-1.61512e-06,-3.40794e-12,1.66461e-38,-3.9599e-12,-1.13803e-13,0,0,-6.68916,2.27694,1.70934,0,0,0,0,0,2.72305,-2.68522,184,16,184,16,220,16,184,86,0,-0.261799,-1.67491e-06,-1.5,nan,0,0,3,0,0,0,0,0,0,0,0,2520
1900,-3.34207e-12,1.66473e-38,-1.61512e-06,-3.40794e-12,1.66461e-38,0,-1.13804e-13,0,0,-6.68916,2.27694,1.70934,0,0,0,0,0,2.72305,-2.68522,184,16,184,16,220,16,184,86,0,-0.261799,-1.62193e-06,-1.5,nan,0,0,3,0,0,0,0,0,0,0,0,2520
1910,-3.34207e-12,1.66473e-38,-1.61512e-06,-3.40794e-12,1.66461e-38,-3.9599e-12,-1.13805e-13,0,0,-6.68916,2.27694,1.70934,0,0,0,0,0,2.72305,-2.68522,184,16,184,16,220,16,184,86,0,-0.261799,-1.57063e-06,-1.5,nan,0,0,3,0,0,0,0,0,0,0,0,2520
1920,-3.34207e-12,1.66473e-38,-1.61512e-06,-3.40794e-12,1.66461e-38,0,-1.13805e-13,0,0,-6.68916,2.27694,1.70934,0,0,0,0,0,2.72305,-2.68522,184,16,184,16,220,16,184,86,0,-0.261799,-1.51478e-06,-1.5,nan,0,0,3,0,0,0,0,0,0,0,0,2520
1930,-3.34207e-12,1.66473e-38,-1.61512e-06,-3.40794e-12,1.66461e-38,-3.9599e-12,-1.13806e-13,0,0,-6.68916,2.27694,1.70934,0,0,0,0,0,2.72305,-2.68522,184,16,184,16,220,16,184,86,0,-0.261799,-1.46684e-06,-1.5,nan,0,0,3,0,0,0,0,0,0,0,0,2520
1940,-3.34207e-12,1.66473e-38,-1.61512e-06,-3.40794e-12,1.66461e-38,0,-1.13806e-13,0,0,-6.68916,2.27694,1.70934,0,0,0,0,0,2.72305,-2.68522,184,16,184,16,220,16,184,86,0,-0.261799,-1.42044e-06,-1.5,nan,0,0,3,0,0,0,0,0,0,0,0,2520
1950,-3.34207e-12,1.66473e-38,-1.61512e-06,-3.40794e-12,1.66461e-38,-3.9599e-12,-1.13807e-13,0,0,-6.68916,2.27694,1.70934,0,0,0,0,0,2.72305,-2.68522,184,16,184,16,220,16,184,86,0,-0.261799,-1.37551e-06,-1.5,nan,0,0,3,0,0,0,0,0,0,0,0,2520
1960,-3.34207e-12,1.66473e-38,-1.61512e-06,-3.40794e-12,1.66461e-38,0,-1.13807e-13,0,0,-6.68916,2.27694,1.70934,0,0,0,0,0,2.72305,-2.68522,184,16,184,16,220,16,184,86,0,-0.261799,-1.3266e-06,-1.5,nan,0,0,3,0,0,0,0,0,0,0,0,2520
1970,-3.34207e-12,1.66473e-38,-1.61512e-06,-3.40794e-12,1.66461e-38,-3.9599e-12,-1.13808e-13,0,0,-6.68916,2.27694,1.70934,0,0,0,0,0,2.72305,-2.68522,184,16,184,16,220,16,184,86,0,-0.261799,-1.28462e-06,-1.5,nan,0,0,3,0,0,0,0,0,0,0,0,2520
1980,-3.34207e-12,1.66473e-38,-1.61512e-06,-3.40794e-12,1.66461e-38,0,-1.13808e-13,0,0,-6.68916,2.27694,1.70934,0,0,0,0,0,2.72305,-2.68522,184,16,184,16,220,16,184,86,0,-0.261799,-1.24398e-06,-1.5,nan,0,0,3,0,0,0,0,0,0,0,0,2520
1990,-3.34207e-12,1.66473e-38,-1.61512e-06,-3.40794e-12,1.66461e-38,-3.9599e-12,-1.13809e-13,0,0,-6.68916,2.27694,1.70934,0,0,0,0,0,2.72305,-2.68522,184,16,184,16,220,16,184,86,0,-0.261799,-1.20464e-06,-1.5,nan,0,0,3,0,0,0,0,0,0,0,0,2520
2000,-3.34207e-12,1.66473e-38,-1.61512e-06,-3.40794e-12,1.66461e-38,0,-1.13809e-13,0,0,-6.68916,2.27694,1.70934,0,0,0,0,0,2.72305,-2.68522,184,16,184,16,220,16,184,86,0,-0.261799,-1.15944e-06,-1.5,nan,0,0,3,0,0,0,0,0,0,0,0,2520
2010,-3.34207e-12,1.66473e-38,-1.61512e-06,-3.40794e-12,1.66461e-38,-3.9599e-12,-1.1381e-13,0,0,-6.68916,2.27694,1.70934,0,0,0,0,0,2.72305,-2.68522,184,16,184,16,220,16,184,86,0,-0.261799,-1.12274e-06,-1.5,nan,0,0,3,0,0,0,0,0,0,0,0,2520
2020,-3.34207e-12,1.66473e-38,-1.61512e-06,-3.40794e-12,1.66461e-38,0,-1.13811e-13,0,0,-6.68916,2.27694,1.70934,0,0,0,0,0,2.72305,-2.68522,184,16,184,16,220,16,184,86,0,-0.261799,-1.08061e-06,-1.5,nan,0,0,3,0,0,0,0,0,0,0,0,2520
2030,-3.34207e-12,1.66473e-38,-1.61512e-06,-3.40794e-12,1.66461e-38,-3.9599e-12,-1.13811e-13,0,0,-6.68916,2.27694,1.70934,0,0,0,0,0,2.72305,-2.68522,184,16,184,16,220,16,184,86,0,-0.261799,-1.04855e-06,-1.5,nan,0,0,3,0,0,0,0,0,0,0,0,2520
2040,-3.34207e-12,1.66473e-38,-1.61512e-06,-3.40794e-12,1.66461e-38,0,-1.13812e-13,0,0,-6.68916,2.27694,1.70934,0,0,0,0,0,2.72305,-2.68522,184,16,184,16,220,16,184,86,0,-0.261799,-1.01951e-06,-1.5,nan,0,0,3,0,0,0,0,0,0,0,0,2520
2050,-3.34207e-12,1.66473e-38,-1.61512e-06,-3.40794e-12,1.66461e-38,-3.9599e-12,-1.13812e-13,0,0,-6.68916,2.27694,1.70934,0,0,0,0,0,2.72305,-2.68522,184,16,184,16,220,16,184,86,0,-0.261799,-9.8724e-07,-1.5,nan,0,0,3,0,0,0,0,0,0,0,0,2520
2060,-3.34207e-12,1.66473e-38,-1.61512e-06,-3.40794e-12,1.66461e-38,0,-1.13813e-13,0,0,-6.68916,2.27694,1.70934,0,0,0,0,0,2.72305,-2.68522,184,16,184,16,220,16,184,86,0,-0.261799,-9.56014e-07,-1.5,nan,0,0,3,0,0,0,0,0,0,0,0,2520
2070,-3.34207e-12,1.66473e-38,-1.61512e-06,-3.40794e-12,1.66461e-38,-3.9599e-12,-1.13813e-13,0,0,-6.68916,2.27694,1.70934,0,0,0,0,0,2.72305,-2.68522,184,16,184,16,220,16,184,86,0,-0.261799,-9.25775e-07,-1.5,nan,0,0,3,0,0,0,0,0,0,0,0,2520
2080,-3.34207e-12,1.66473e-38,-1.61512e-06,-3.40794e-12,1.66461e-38,0,-1.13814e-13,0,0,-6.68916,2.27694,1.70934,0,0,0,0,0,2.72305,-2.68522,184,16,184,16,220,16,184,86,0,-0.261799,-8.9283e-07,-1.5,nan,0,0,3,0,0,0,0,0,0,0,0,2520
2090,-3.34207e-12,1.66473e-38,-1.61512e-06,-3.40794e-12,1.66461e-38,-3.9599e-12,-1.13814e-13,0,0,-6.68916,2.27694,1.70934,0,0,0,0,0,2.72305,-2.68522,184,16,184,16,220,16,184,86,0,-0.261799,-8.64572e-07,-1.5,nan,0,0,3,0,0,0,0,0,0,0,0,2520
2100,-3.34207e-12,1.66473e-38,-1.61512e-06,-3.40794e-12,1.66461e-38,0,-1.13815e-13,0,0,-6.68916,2.27694,1.70934,0,0,0,0,0,2.72305,-2.68522,184,16,184,16,220,16,184,86,0,-0.261799,-8.37209e-07,-1.5,nan,0,0,3,0,0,0,0,0,0,0,0,2520
2110,-3.34207e-12,1.66473e-38,-1.61512e-06,-3.40794e-12,1.66461e-38,-3.9599e-12,-1.13815e-13,0,0,-6.68916,2.27694,1.70934,0,0,0,0,0,2.72305,-2.68522,184,16,184,16,220,16,184,86,0,-0.261799,-8.10728e-07,-1.5,nan,0,0,3,0,0,0,0,0,0,0,0,2520
2120,-3.34207e-12,1.66473e-38,-1.61512e-06,-3.40794e-12,1.66461e-38,0,-1.13816e-13,0,0,-6.68916,2.27694,1.70934,0,0,0,0,0,2.72305,-2.68522,184,16,184,16,220,16,184,86,0,-0.261799,-7.83492e-07,-1.5,nan,0,0,3,0,0,0,0,0,0,0,0,2520
2130,-3.34207e-12,1.66473e-38,-1.61512e-06,-3.40794e-12,1.66461e-38,-3.9599e-12,-1.13817e-13,0,0,-6.68916,2.27694,1.70934,0,0,0,0,0,2.72305,-2.68522,184,16,184,16,220,16,184,86,0,-0.261799,-7.58695e-07,-1.5,nan,0,0,3,0,0,0,0,0,0,0,0,2520
2140,-3.34207e-12,1.66473e-38,-1.61512e-06,-3.40794e-12,1.66461e-38,0,-1.13817e-13,0,0,-6.68916,2.27694,1.70934,0,0,0,0,0,2.72305,-2.68522,184,16,184,16,220,16,184,86,0,-0.261799,-7.34697e-07,-1.5,nan,0,0,3,0,0,0,0,0,0,0,0,2520
2150,-3.34207e-12,1.66473e-38,-1.61512e-06,-3.40794e-12,1.66461e-38,-3.9599e-12,-1.13818e-13,0,0,-6.68916,2.27694,1.70934,0,0,0,0,0,2.72305,-2.68522,184,16,184,16,220,16,184,86,0,-0.261799,-7.11459e-07,-1.5,nan,0,0,3,0,0,0,0,0,0,0,0,2520
2160,-3.34207e-12,1.66473e-38,-1.61512e-06,-3.40794e-12,1.66461e-38,0,-1.13818e-13,0,0,-6.68916,2.27694,1.70934,0,0,0,0,0,2.72305,-2.68522,184,16,184,16,220,16,184,86,0,-0.261799,-6.87541e-07,-1.5,nan,0,0,3,0,0,0,0,0,0,0,0,2520
2170,-3.34207e-12,1.66473e-38,-1.61512e-06,-3.40794e-12,1.66461e-38,-3.9599e-12,-1.13819e-13,0,0,-6.68916,2.27694,1.70934,0,0,0,0,0,2.72305,-2.68522,184,16,184,16,220,16,184,86,0,-0.261799,-6.64444e-07,-1.5,nan,0,0,3,0,0,0,0,0,0,0,0,2520
2180,-3.34207e-12,1.66473e-38,-1.61512e-06,-3.40794e-12,1.66461e-38,0,-1.13819e-13,0,0,-6.68916,2.27694,1.70934,0,0,0,0,0,2.72305,-2.68522,184,16,184,16,220,16,184,86,0,-0.261799,-6.44722e-07,-1.5,nan,0,0,3,0,0,0,0,0,0,0,0,2520
2190,-3.34207e-12,1.66473e-38,-1.61512e-06,-3.40794e-12,1.66461e-38,-3.9599e-12,-1.1382e-13,0,0,-6.68916,2.27694,1.70934,0,0,0,0,0,2.72305,-2.68522,184,16,184,16,220,16,184,86,0,-0.261799,-6.24317e-07,-1.5,nan,0,0,3,0,0,0,0,0,0,0,0,2520
2200,-3.34207e-12,1.66473e-38,-1.61512e-06,-3.40794e-12,1.66461e-38,0,-1.1382e-13,0,0,-6.68916,2.27694,1.70934,0,0,0,0,0,2.72305,-2.68522,184,16,184,16,220,16,184,86,0,-0.261799,-6.05786e-07,-1.5,nan,0,0,3,0,0,0,0,0,0,0,0,2520
2210,-3.34207e-12,1.66473e-38,-1.61512e-06,-3.40794e-12,1.66461e-38,-3.9599e-12,-1.13821e-13,0,0,-6.68916,2.27694,1.70934,0,0,0,0,0,2.72305,-2.68522,184,16,184,16,220,16,184,86,0,-0.261799,-5.87815e-07,-1.5,nan,0,0,3,0,0,0,0,0,0,0,0,2520
2220,-3.34207e-12,1.66473e-38,-1.61512e-06,-3.40794e-12,1.66461e-38,0,-1.13821e-13,0,0,-6.68916,2.27694,1.70934,0,0,0,0,0,2.72305,-2.68522,184,16,184,16,220,16,184,86,0,-0.261799,-5.69222e-07,-1.5,nan,0,0,3,0,0,0,0,0,0,0,0,2520
2230,-3.34207e-12,1.66473e-38,-1.61512e-06,-3.40794e-12,1.66461e-38,-3.9599e-12,-1.13822e-13,0,0,-6.68916,2.27694,1.70934,0,0,0,0,0,2.72305,-2.68522,184,16,184,16,220,16,184,86,0,-0.261799,-5.52327e-07,-1.5,nan,0,0,3,0,0,0,0,0,0,0,0,2520
2240,-3.34207e-12,1.66473e-38,-1.61512e-06,-3.40794e-12,1.66461e-38,0,-1.13822e-13,0,0,-6.68916,2.27694,1.70934,0,0,0,0,0,2.72305,-2.68522,184,16,184,16,220,16,184,86,0,-0.261799,-5.34857e-07,-1.5,nan,0,0,3,0,0,0,0,0,0,0,0,2520
2250,-3.34207e-12,1.66473e-38,-1.61512e-06,-3.40794e-12,1.66461e-38,-3.9599e-12,-1.13823e-13,0,0,-6.68916,2.27694,1.70934,0,0,0,0,0,2.72305,-2.68522,184,16,184,16,220,16,184,86,0,-0.261799,-5.15838e-07,-1.5,nan,0,0,3,0,0,0,0,0,0,0,0,2520
2260,-3.34207e-12,1.66473e-38,-1.61512e-06,-3.40794e-12,1.66461e-38,0,-1.13824e-13,0,0,-6.68916,2.27694,1.70934,0,0,0,0,0,2.72305,-2.68522,184,16,184,16,220,16,184,86,0,-0.261799,-4.99522e-07,-1.5,nan,0,0,3,0,0,0,0,0,0,0,0,2520
2270,-3.34207e-12,1.66473e-38,-1.61512e-06,-3.40794e-12,1.66461e-38,-3.9599e-12,-1.13824e-13,0,0,-6.68916,2.27694,1.70934,0,0,0,0,0,2.72305,-2.68522,184,16,184,16,220,16,184,86,0,-0.261799,-4.84695e-07,-1.5,nan,0,0,3,0,0,0,0,0,0,0,0,2520
2280,-3.34207e-12,1.66473e-38,-1.61512e-06,-3.40794e-12,1.66461e-38,0,-1.13825e-13,0,0,-6.68916,2.27694,1.70934,0,0,0,0,0,2.72305,-2.68522,184,16,184,16,220,16,184,86,0,-0.261799,-4.69364e-07,-1.5,nan,0,0,3,0,0,0,0,0,0,0,0,2520
2290,-3.34207e-12,1.66473e-38,-1.61512e-06,-3.40794e-12,1.66461e-38,-3.9599e-12,-1.13825e-13,0,0,-6.68916,2.27694,1.70934,0,0,0,0,0,2.72305,-2.68522,184,16,184,16,220,16,184,86,0,-0.261799,-4.51752e-07,-1.5,nan,0,0,3,0,0,0,0,0,0,0,0,2520
2300,-3.34207e-12,1.66473e-38,-1.61512e-06,-3.40794e-12,1.66461e-38,0,-1.13826e-13,0,0,-6.68916,2.27694,1.70934,0,0,0,0,0,2.72305,-2.68522,184,16,184,16,220,16,184,86,0,-0.261799,-4.37455e-07,-1.5,nan,0,0,3,0,0,0,0,0,0,0,0,2520
2310,-3.34207e-12,1.66473e-38,-1.61512e-06,-3.40794e-12,1.66461e-38,-3.9599e-12,-1.13826e-13,0,0,-6.68916,2.27694,1.70934,0,0,0,0,0,2.72305,-2.68522,184,16,184,16,220,16,184,86,0,-0.261799,-4.23609e-07,-1.5,nan,0,0,3,0,0,0,0,0,0,0,0,2520
2320,-3.34207e-12,1.66473e-38,-1.61512e-06,-3.40794e-12,1.66461e-38,0,-1.13827e-13,0,0,-6.68916,2.27694,1.70934,0,0,0,0,0,2.72305,-2.68522,184,16,184,16,220,16,184,86,0,-0.261799,-4.07714e-07,-1.5,nan,0,0,3,0,0,0,0,0,0,0,0,2520
2330,-3.34207e-12,1.66473e-38,-1.61512e-06,-3.40794e-12,1.66461e-38,-3.9599e-12,-1.13827e-13,0,0,-6.68916,2.27694,1.70934,0,0,0,0,0,2.72305,-2.68522,184,16,184,16,220,16,184,86,0,-0.261799,-3.92416e-07,-1.5,nan,0,0,3,0,0,0,0,0,0,0,0,2520
2340,-3.34207e-12,1.66473e-38,-1.61512e-06,-3.40794e-12,1.66461e-38,0,-1.13828e-13,0,0,-6.68916,2.27694,1.70934,0,0,0,0,0,2.72305,-2.68522,184,16,184,16,220,16,184,86,0,-0.261799,-3.80004e-07,-1.5,nan,0,0,3,0,0,0,0,0,0,0,0,2520
2350,-3.34207e-12,1.66473e-38,-1.61512e-06,-3.40794e-12,1.66461e-38,-3.9599e-12,-1.13828e-13,0,0,-6.68916,2.27694,1.70934,0,0,0,0,0,2.72305,-2.68522,184,16,184,16,220,16,184,86,0,-0.261799,-3.68724e-07,-1.5,nan,0,0,3,0,0,0,0,0,0,0,0,2520
2360,-3.34207e-12,1.66473e-38,-1.61512e-06,-3.40794e-12,1.66461e-38,0,-1.13829e-13,0,0,-6.68916,2.27694,1.70934,0,0,0,0,0,2.72305,-2.68522,184,16,184,16,220,16,184,86,0,-0.261799,-3.57054e-07,-1.5,nan,0,0,3,0,0,0,0,0,0,0,0,2520
2370,-3.34207e-12,1.66473e-38,-1.61512e-06,-3.40794e-12,1.66461e-38,-3.9599e-12,-1.1383e-13,0,0,-6.68916,2.27694,1.70934,0,0,0,0,0,2.72305,-2.68522,184,16,184,16,220,16,184,86,0,-0.261799,-3.42943e-07,-1.5,nan,0,0,3,0,0,0,0,0,0,0,0,2520
2380,-3.34207e-12,1.66473e-38,-1.61512e-06,-3.40794e-12,1.66461e-38,0,-1.1383e-13,0,0,-6.68916,2.27694,1.70934,0,0,0,0,0,2.72305,-2.68522,184,16,184,16,220,16,184,86,0,-0.261799,-3.33443e-07,-1.5,nan,0,0,3,0,0,0,0,0,0,0,0,2520
2390,-3.34207e-12,1.66473e-38,-1.61512e-06,-3.40794e-12,1.66461e-38,-3.9599e-12,-1.13831e-13,0,0,-6.68916,2.27694,1.70934,0,0,0,0,0,2.72305,-2.68522,184,16,184,16,220,16,184,86,0,-0.261799,-3.24858e-07,-1.5,nan,0,0,3,0,0,0,0,0,0,0,0,2520
2400,-3.34207e-12,1.66473e-38,-1.61512e-06,-3.40794e-12,1.66461e-38,0,-1.13831e-13,0,0,-6.68916,2.27694,1.70934,0,0,0,0,0,2.72305,-2.68522,184,16,184,16,220,16,184,86,0,-0.261799,-3.15216e-07,-1.5,nan,0,0,3,0,0,0,0,0,0,0,0,2520
2410,-3.34207e-12,1.66473e-38,-1.61512e-06,-3.40794e-12,1.66461e-38,-3.9599e-12,-1.13832e-13,0,0,-6.68916,2.27694,1.70934,0,0,0,0,0,2.72305,-2.68522,184,16,184,16,220,16,184,86,0,-0.261799,-3.04619e-07,-1.5,nan,0,0,3,0,0,0,0,0,0,0,0,2520
2420,-3.34207e-12,1.66473e-38,-1.61512e-06,-3.40794e-12,1.66461e-38,0,-1.13832e-13,0,0,-6.68916,2.27694,1.70934,0,0,0,0,0,2.72305,-2.68522,184,16,184,16,220,16,184,86,0,-0.261799,-2.94385e-07,-1.5,nan,0,0,3,0,0,0,0,0,0,0,0,2520
2430,-3.34207e-12,1.66473e-38,-1.61512e-06,-3.40794e-12,1.66461e-38,-3.9599e-12,-1.13833e-13,0,0,-6.68916,2.27694,1.70934,0,0,0,0,0,2.72305,-2.68522,184,16,184,16,220,16,184,86,0,-0.261799,-2.85648e-07,-1.5,nan,0,0,3,0,0,0,0,0,0,0,0,2520
2440,-3.34207e-12,1.66473e-38,-1.61512e-06,-3.40794e-12,1.66461e-38,0,-1.13833e-13,0,0,-6.68916,2.27694,1.70934,0,0,0,0,0,2.72305,-2.68522,184,16,184,16,220,16,184,86,0,-0.261799,-2.76613e-07,-1.5,nan,0,0,3,0,0,0,0,0,0,0,0,2520
2450,-3.34207e-12,1.66473e-38,-1.61512e-06,-3.40794e-12,1.66461e-38,-3.9599e-12,-1.13834e-13,0,0,-6.68916,2.27694,1.70934,0,0,0,0,0,2.72305,-2.68522,184,16,184,16,220,16,184,86,0,-0.261799,-2.66233e-07,-1.5,nan,0,0,3,0,0,0,0,0,0,0,0,2520
2460,-3.34207e-12,1.66473e-38,-1.61512e-06,-3.40794e-12,1.66461e-38,0,-1.13834e-13,0,0,-6.68916,2.27694,1.70934,0,0,0,0,0,2.72305,-2.68522,184,16,184,16,220,16,184,86,0,-0.261799,-2.57812e-07,-1.5,nan,0,0,3,0,0,0,0,0,0,0,0,2520
2470,-3.34207e-12,1.66473e-38,-1.61512e-06,-3.40794e-12,1.66461e-38,-3.9599e-12,-1.13835e-13,0,0,-6.68916,2.27694,1.70934,0,0,0,0,0,2.72305,-2.68522,184,16,184,16,220,16,184,86,0,-0.261799,-2.5016e-07,-1.5,nan,0,0,3,0,0,0,0,0,0,0,0,2520
2480,-3.34207e-12,1.66473e-38,-1.61512e-06,-3.40794e-12,1.66461e-38,0,-1.13835e-13,0,0,-6.68916,2.27694,1.70934,0,0,0,0,0,2.72305,-2.68522,184,16,184,16,220,16,184,86,0,-0.261799,-2.42242e-07,-1.5,nan,0,0,3,0,0,0,0,0,0,0,0,2520
2490,-3.34207e-12,1.66473e-38,-1.61512e-06,-3.40794e-12,1.66461e-38,-3.9599e-12,-1.13836e-13,0,0,-6.68916,2.27694,1.70934,0,0,0,0,0,2.72305,-2.68522,184,16,184,16,220,16,184,86,0,-0.261799,-2.33629e-07,-1.5,nan,0,0,3,0,0,0,0,0,0,0,0,2520
2500,-3.34207e-12,1.66473e-38,-1.61512e-06,-3.40794e-12,1.66461e-38,0,-1.13837e-13,0,0,-6.68916,2.27694,1.70934,0,0,0,0,0,2.72305,-2.68522,184,16,184,16,220,16,184,86,0,-0.261799,-2.26234e-07,-1.5,nan,0,0,3,0,0,0,0,0,0,0,0,2520
2510,-3.34207e-12,1.66473e-38,-1.61512e-06,-3.40794e-12,1.66461e-38,-3.9599e-12,-1.13837e-13,0,0,-6.68916,2.27694,1.70934,0,0,0,0,0,2.72305,-2.68522,184,16,184,16,220,16,184,86,0,-0.261799,-2.19519e-07,-1.5,nan,0,0,3,0,0,0,0,0,0,0,0,2520
2520,-3.34207e-12,1.66473e-38,-1.61512e-06,-3.40794e-12,1.66461e-38,0,-1.13838e-13,0,0,-6.68916,2.27694,1.70934,0,0,0,0,0,2.72305,-2.68522,184,16,184,16,220,16,184,86,0,-0.261799,-2.12576e-07,-1.5,nan,0,0,3,0,0,0,0,0,0,0,0,2520
2530,-3.34207e-12,1.66473e-38,-1.61512e-06,-3.40794e-12,1.66461e-38,-3.9599e-12,-1.13838e-13,0,0,-6.68916,2.27694,1.70934,0,0,0,0,0,2.72305,-2.68522,184,16,184,16,220,16,184,86,0,-0.261799,-2.05017e-07,-1.5,nan,0,0,3,0,0,0,0,0,0,0,0,2520
2540,-3.34207e-12,1.66473e-38,-1.61512e-06,-3.40794e-12,1.66461e-38,0,-1.13839e-13,0,0,-6.68916,2.27694,1.70934,0,0,0,0,0,2.72305,-2.68522,184,16,184,16,220,16,184,86,0,-0.261799,-1.98532e-07,-1.5,nan,0,0,3,0,0,0,0,0,0,0,0,2520
2550,-3.34207e-12,1.66473e-38,-1.61512e-06,-3.40794e-12,1.66461e-38,-3.9599e-12,-1.13839e-13,0,0,-6.68916,2.27694,1.70934,0,0,0,0,0,2.72305,-2.68522,184,16,184,16,220,16,184,86,0,-0.261799,-1.93033e-07,-1.5,nan,0,0,3,0,0,0,0,0,0,0,0,2520
2560,-3.34207e-12,1.66473e-38,-1.61512e-06,-3.40794e-12,1.66461e-38,0,-1.1384e-13,0,0,-6.68916,2.27694,1.70934,0,0,0,0,0,2.72305,-2.68522,184,16,184,16,220,16,184,86,0,-0.261799,-1.88063e-07,-1.5,nan,0,0,3,0,0,0,0,0,0,0,0,2520
2570,-3.34207e-12,1.66473e-38,-1.61512e-06,-3.40794e-12,1.66461e-38,-3.9599e-12,-1.1384e-13,0,0,-6.68916,2.27694,1.70934,0,0,0,0,0,2.72305,-2.68522,184,16,184,16,220,16,184,86,0,-0.261799,-1.82115e-07,-1.5,nan,0,0,3,0,0,0,0,0,0,0,0,2520
2580,-3.34207e-12,1.66473e-38,-1.61512e-06,-3.40794e-12,1.66461e-38,0,-1.13841e-13,0,0,-6.68916,2.27694,1.70934,0,0,0,0,0,2.72305,-2.68522,184,16,184,16,220,16,184,86,0,-0.261799,-1.76354e-07,-1.5,nan,0,0,3,0,0,0,0,0,0,0,0,2520
2590,-3.34207e-12,1.66473e-38,-1.61512e-06,-3.40794e-12,1.66461e-38,-3.9599e-12,-1.13841e-13,0,0,-6.68916,2.27694,1.70934,0,0,0,0,0,2.72305,-2.68522,184,16,184,16,220,16,184,86,0,-0.261799,-1.70776e-07,-1.5,nan,0,0,3,0,0,0,0,0,0,0,0,2520
2600,-3.34207e-12,1.66473e-38,-1.61512e-06,-3.40794e-12,1.66461e-38,0,-1.13842e-13,0,0,-6.68916,2.27694,1.70934,0,0,0,0,0,2.72305,-2.68522,184,16,184,16,220,16,184,86,0,-0.261799,-1.65375e-07,-1.5,nan,0,0,3,0,0,0,0,0,0,0,0,2520
2610,-3.34207e-12,1.66473e-38,-1.61512e-06,-3.40794e-12,1.66461e-38,-3.9599e-12,-1.13843e-13,0,0,-6.68916,2.27694,1.70934,0,0,0,0,0,2.72305,-2.68522,184,16,184,16,220,16,184,86,0,-0.261799,-1.60144e-07,-1.5,nan,0,0,3,0,0,0,0,0,0,0,0,2520
2620,-3.34207e-12,1.66473e-38,-1.61512e-06,-3.40794e-12,1.66461e-38,0,-1.13843e-13,0,0,-6.68916,2.27694,1.70934,0,0,0,0,0,2.72305,-2.68522,184,16,184,16,220,16,184,86,0,-0.261799,-1.55078e-07,-1.5,nan,0,0,3,0,0,0,0,0,0,0,0,2520
2630,-3.34207e-12,1.66473e-38,-1.61512e-06,-3.40794e-12,1.66461e-38,-3.9599e-12,-1.13844e-13,0,0,-6.68916,2.27694,1.70934,0,0,0,0,0,2.72305,-2.68522,184,16,184,16,220,16,184,86,0,-0.261799,-1.5017e-07,-1.5,nan,0,0,3,0,0,0,0,0,0,0,0,2520
2640,-3.34207e-12,1.66473e-38,-1.61512e-06,-3.40794e-12,1.66461e-38,0,-1.13844e-13,0,0,-6.68916,2.27694,1.70934,0,0,0,0,0,2.72305,-2.68522,184,16,184,16,220,16,184,86,0,-0.261799,-1.45417e-07,-1.5,nan,0,0,3,0,0,0,0,0,0,0,0,2520
