timestamp,A_x,A_y,A_z,P,Q,R,Phi,Theta,Psi,poseX,poseY,poseZ,state_X,state_Y,state_Z,state_VzB,state_Bx,state_By,state_Bz,p1_x,p1_y,p2_x,p2_y,p3_x,p3_y,p4_x,p4_y,roll,pitch,yaw,alt,targetHeading,highLevelState,lowLevelState,gateNumber,filtered_x,filtered_y,x_OT,y_OT,vx_OT,vy_OT,filtered_vx,filtered_vygateArea
10,0,0,0,0,0,0,0,0,0,0,0,0,0,0,0,0,0,0,0,0,0,0,0,0,0,0,0,0,-0.261799,0.00779127,-1.5,0,0,0,3,0,0,0,0,0,0,0,0,1.9603e-19
20,0,0,0,0,0,0,0,0,0,0,0,0,0,0,0,0,0,0,0,0,0,0,0,0,0,0,0,0,-0.261799,0.00752934,-1.5,0,0,0,3,0,0,0,0,0,0,0,0,1.9603e-19
30,-3.21239e-12,0,-1.576e-06,-3.27827e-12,0,-3.40903e-12,-1.13703e-13,0,0,0,0,0,0,0,0,0,0,0,0,0,0,0,0,0,0,0,0,0,-0.261799,-0.00151156,-1.5,0,0,0,3,0,0,0,0,0,0,0,0,1.9603e-19
40,-3.21239e-12,0,-1.576e-06,-3.27827e-12,0,0,-1.13703e-13,0,0,0,0,0,0,0,0,0,0,0,0,0,0,0,0,0,0,0,0,0,-0.261799,-0.00146372,-1.5,0,0,0,3,0,0,0,0,0,0,0,0,1.9603e-19
50,-3.21239e-12,0,-1.576e-06,-3.27827e-12,0,-3.40903e-12,-1.13704e-13,0,0,0,0,0,0,0,0,0,0,0,0,0,0,0,0,0,0,0,0,0,-0.261799,-0.00141742,-1.5,0,0,0,3,0,0,0,0,0,0,0,0,1.9603e-19
60,-3.21239e-12,0,-1.576e-06,-3.27827e-12,0,0,-1.13704e-13,0,0,0,0,0,0,0,0,0,0,0,0,0,0,0,0,0,0,0,0,0,-0.261799,-0.00137535,-1.5,0,0,0,3,0,0,0,0,0,0,0,0,1.9603e-19
70,-3.21239e-12,0,-1.576e-06,-3.27827e-12,0,-3.40903e-12,-1.13705e-13,0,0,0,0,0,0,0,0,0,0,0,0,0,0,0,0,0,0,0,0,0,-0.261799,-0.00133185,-1.5,0,0,0,3,0,0,0,0,0,0,0,0,1.9603e-19
80,-3.21239e-12,0,-1.576e-06,-3.27827e-12,0,0,-1.13705e-13,0,0,0,0,0,0,0,0,0,0,0,0,0,0,0,0,0,0,0,0,0,-0.261799,-0.00129234,-1.5,0,0,0,3,0,0,0,0,0,0,0,0,1.9603e-19
90,-3.21239e-12,0,-1.576e-06,-3.27827e-12,0,-3.40903e-12,-1.13706e-13,0,0,0,0,0,0,0,0,0,0,0,0,0,0,0,0,0,0,0,0,0,-0.261799,-0.00125398,-1.5,0,0,0,3,0,0,0,0,0,0,0,0,1.9603e-19
100,-3.21239e-12,0,-1.576e-06,-3.27827e-12,0,0,-1.13706e-13,0,0,0,0,0,0,0,0,0,0,0,0,0,0,0,0,0,0,0,0,0,-0.261799,-0.00121676,-1.5,0,0,0,3,0,0,0,0,0,0,0,0,1.9603e-19
110,-3.21239e-12,0,-1.576e-06,-3.27827e-12,0,-3.40903e-12,-1.13707e-13,0,0,0,0,0,0,0,0,0,0,0,0,0,0,0,0,0,0,0,0,0,-0.261799,-0.00117827,-1.5,0,0,0,3,0,0,0,0,0,0,0,0,1.9603e-19
120,-3.21239e-12,0,-1.576e-06,-3.27827e-12,0,0,-1.13708e-13,0,0,0,0,0,0,0,0,0,0,0,0,0,0,0,0,0,0,0,0,0,-0.261799,-0.00106677,-1.5,0,0,0,3,0,0,0,0,0,0,0,0,1.9603e-19
130,-3.21239e-12,0,-1.576e-06,-3.27827e-12,0,-3.40903e-12,-1.13708e-13,0,0,0,0,0,0,0,0,0,0,0,0,0,0,0,0,0,0,0,0,0,-0.261799,-0.000999501,-1.5,0,0,0,3,0,0,0,0,0,0,0,0,1.9603e-19
140,-3.21239e-12,0,-1.576e-06,-3.27827e-12,0,0,-1.13709e-13,0,0,0,0,0,0,0,0,0,0,0,0,0,0,0,0,0,0,0,0,0,-0.261799,-0.000812789,-1.5,0,0,0,3,0,0,0,0,0,0,0,0,1.9603e-19
150,-3.21239e-12,0,-1.576e-06,-3.27827e-12,0,-3.40903e-12,-1.13709e-13,0,0,0,0,0,0,0,0,0,0,0,0,0,0,0,0,0,0,0,0,0,-0.261799,-0.000662552,-1.5,0,0,0,3,0,0,0,0,0,0,0,0,1.9603e-19
160,-3.21239e-12,0,-1.576e-06,-3.27827e-12,0,0,-1.1371e-13,0,0,0,0,0,0,0,0,0,0,0,0,0,0,0,0,0,0,0,0,0,-0.261799,-0.000642897,-1.5,0,0,0,3,0,0,0,0,0,0,0,0,1.9603e-19
170,-3.21239e-12,0,-1.576e-06,-3.27827e-12,0,-3.40903e-12,-1.1371e-13,0,0,0,0,0,0,0,0,0,0,0,0,0,0,0,0,0,0,0,0,0,-0.261799,-0.000614958,-1.5,0,0,0,3,0,0,0,0,0,0,0,0,1.9603e-19
180,-3.21239e-12,0,-1.576e-06,-3.27827e-12,0,0,-1.13711e-13,0,0,0,0,0,0,0,0,0,0,0,0,0,0,0,0,0,0,0,0,0,-0.261799,-0.000553132,-1.5,0,0,0,3,0,0,0,0,0,0,0,0,1.9603e-19
190,-3.21239e-12,0,-1.576e-06,-3.27827e-12,0,-3.40903e-12,-1.13711e-13,0,0,0,0,0,0,0,0,0,0,0,0,0,0,0,0,0,0,0,0,0,-0.261799,-0.000532359,-1.5,0,0,0,3,0,0,0,0,0,0,0,0,1.9603e-19
200,-3.21239e-12,0,-1.576e-06,-3.27827e-12,0,0,-1.13712e-13,0,0,0,0,0,0,0,0,0,0,0,0,0,0,0,0,0,0,0,0,0,-0.261799,-0.000515521,-1.5,0,0,0,3,0,0,0,0,0,0,0,0,1.9603e-19
210,-3.21239e-12,0,-1.576e-06,-3.27827e-12,0,-3.40903e-12,-1.13712e-13,0,0,0,0,0,0,0,0,0,0,0,0,0,0,0,0,0,0,0,0,0,-0.261799,-0.000490101,-1.5,0,0,0,3,0,0,0,0,0,0,0,0,1.9603e-19
220,-3.21239e-12,0,-1.576e-06,-3.27827e-12,0,0,-1.13713e-13,0,0,0,0,0,0,0,0,0,0,0,0,0,0,0,0,0,0,0,0,0,-0.261799,-0.000468802,-1.5,0,0,0,3,0,0,0,0,0,0,0,0,1.9603e-19
230,-3.21239e-12,0,-1.576e-06,-3.27827e-12,0,-3.40903e-12,-1.13714e-13,0,0,0,0,0,0,0,0,0,0,0,0,0,0,0,0,0,0,0,0,0,-0.261799,-0.000453974,-1.5,0,0,0,3,0,0,0,0,0,0,0,0,1.9603e-19
240,-3.21239e-12,0,-1.576e-06,-3.27827e-12,0,0,-1.13714e-13,0,0,0,0,0,0,0,0,0,0,0,0,0,0,0,0,0,0,0,0,0,-0.261799,-0.000438712,-1.5,0,0,0,3,0,0,0,0,0,0,0,0,1.9603e-19
250,-3.21239e-12,0,-1.576e-06,-3.27827e-12,0,-3.40903e-12,-1.13715e-13,0,0,0,0,0,0,0,0,0,0,0,0,0,0,0,0,0,0,0,0,0,-0.261799,-0.000426554,-1.5,0,0,0,3,0,0,0,0,0,0,0,0,1.9603e-19
260,-3.21239e-12,0,-1.576e-06,-3.27827e-12,0,0,-1.13715e-13,0,0,0,0,0,0,0,0,0,0,0,0,0,0,0,0,0,0,0,0,0,-0.261799,-0.000414738,-1.5,0,0,0,3,0,0,0,0,0,0,0,0,1.9603e-19
270,-3.21239e-12,0,-1.576e-06,-3.27827e-12,0,-3.40903e-12,-1.13716e-13,0,0,0,0,0,0,0,0,0,0,0,0,0,0,0,0,0,0,0,0,0,-0.261799,-0.00040406,-1.5,0,0,0,3,0,0,0,0,0,0,0,0,1.9603e-19
280,-3.21239e-12,0,-1.576e-06,-3.27827e-12,0,0,-1.13716e-13,0,0,0,0,0,0,0,0,0,0,0,0,0,0,0,0,0,0,0,0,0,-0.261799,-0.000392067,-1.5,0,0,0,3,0,0,0,0,0,0,0,0,1.9603e-19
290,-3.21239e-12,0,-1.576e-06,-3.27827e-12,0,-3.40903e-12,-1.13717e-13,0,0,0,0,0,0,0,0,0,0,0,0,0,0,0,0,0,0,0,0,0,-0.261799,-0.00038043,-1.5,0,0,0,3,0,0,0,0,0,0,0,0,1.9603e-19
300,-3.21239e-12,0,-1.576e-06,-3.27827e-12,0,0,-1.13717e-13,0,0,0,0,0,0,0,0,0,0,0,0,0,0,0,0,0,0,0,0,0,-0.261799,-0.000367641,-1.5,0,0,0,3,0,0,0,0,0,0,0,0,1.9603e-19
310,-3.21239e-12,0,-1.576e-06,-3.27827e-12,0,-3.40903e-12,-1.13718e-13,0,0,0,0,0,0,0,0,0,0,0,0,0,0,0,0,0,0,0,0,0,-0.261799,-0.000356012,-1.5,0,0,0,3,0,0,0,0,0,0,0,0,1.9603e-19
320,-3.21239e-12,0,-1.576e-06,-3.27827e-12,0,0,-1.13718e-13,0,0,0,0,0,0,0,0,0,0,0,0,0,0,0,0,0,0,0,0,0,-0.261799,-0.000345445,-1.5,0,0,0,3,0,0,0,0,0,0,0,0,1.9603e-19
330,-3.21239e-12,0,-1.576e-06,-3.27827e-12,0,-3.40903e-12,-1.13719e-13,0,0,0,0,0,0,0,0,0,0,0,0,0,0,0,0,0,0,0,0,0,-0.261799,-0.000334512,-1.5,0,0,0,3,0,0,0,0,0,0,0,0,1.9603e-19
340,-3.21239e-12,0,-1.576e-06,-3.27827e-12,0,0,-1.13719e-13,0,0,0,0,0,0,0,0,0,0,0,0,0,0,0,0,0,0,0,0,0,-0.261799,-0.000324583,-1.5,0,0,0,3,0,0,0,0,0,0,0,0,1.9603e-19
350,-3.21239e-12,0,-1.576e-06,-3.27827e-12,0,-3.40903e-12,-1.1372e-13,0,0,0,0,0,0,0,0,0,0,0,0,0,0,0,0,0,0,0,0,0,-0.261799,-0.000314949,-1.5,0,0,0,3,0,0,0,0,0,0,0,0,1.9603e-19
360,-3.21239e-12,0,-1.576e-06,-3.27827e-12,0,0,-1.13721e-13,0,0,0,0,0,0,0,0,0,0,0,0,0,0,0,0,0,0,0,0,0,-0.261799,-0.000304987,-1.5,0,0,0,3,0,0,0,0,0,0,0,0,1.9603e-19
370,-3.21239e-12,0,-1.576e-06,-3.27827e-12,0,-3.40903e-12,-1.13721e-13,0,0,0,0,0,0,0,0,0,0,0,0,0,0,0,0,0,0,0,0,0,-0.261799,-0.000294142,-1.5,0,0,0,3,0,0,0,0,0,0,0,0,1.9603e-19
380,-3.21239e-12,0,-1.576e-06,-3.27827e-12,0,0,-1.13722e-13,0,0,0,0,0,0,0,0,0,0,0,0,0,0,0,0,0,0,0,0,0,-0.261799,-0.000284838,-1.5,0,0,0,3,0,0,0,0,0,0,0,0,1.9603e-19
390,-3.21239e-12,0,-1.576e-06,-3.27827e-12,0,-3.40903e-12,-1.13722e-13,0,0,0,0,0,0,0,0,0,0,0,0,0,0,0,0,0,0,0,0,0,-0.261799,-0.000276384,-1.5,0,0,0,3,0,0,0,0,0,0,0,0,1.9603e-19
400,-3.21239e-12,0,-1.576e-06,-3.27827e-12,0,0,-1.13723e-13,0,0,0,0,0,0,0,0,0,0,0,0,0,0,0,0,0,0,0,0,0,-0.261799,-0.000267642,-1.5,0,0,0,3,0,0,0,0,0,0,0,0,1.9603e-19
410,-3.21239e-12,0,-1.576e-06,-3.27827e-12,0,-3.40903e-12,-1.13723e-13,0,0,0,0,0,0,0,0,0,0,0,0,0,0,0,0,0,0,0,0,0,-0.261799,-0.000260225,-1.5,0,0,0,3,0,0,0,0,0,0,0,0,1.9603e-19
420,-3.21239e-12,0,-1.576e-06,-3.27827e-12,0,0,-1.13724e-13,0,0,0,0,0,0,0,0,0,0,0,0,0,0,0,0,0,0,0,0,0,-0.261799,-0.000252505,-1.5,0,0,0,3,0,0,0,0,0,0,0,0,1.9603e-19
430,-3.21239e-12,0,-1.576e-06,-3.27827e-12,0,-3.40903e-12,-1.13724e-13,0,0,0,0,0,0,0,0,0,0,0,0,0,0,0,0,0,0,0,0,0,-0.261799,-0.000244016,-1.5,0,0,0,3,0,0,0,0,0,0,0,0,1.9603e-19
440,-3.21239e-12,0,-1.576e-06,-3.27827e-12,0,0,-1.13725e-13,0,0,0,0,0,0,0,0,0,0,0,0,0,0,0,0,0,0,0,0,0,-0.261799,-0.000236293,-1.5,0,0,0,3,0,0,0,0,0,0,0,0,1.9603e-19
450,-3.21239e-12,0,-1.576e-06,-3.27827e-12,0,-3.40903e-12,-1.13725e-13,0,0,0,0,0,0,0,0,0,0,0,0,0,0,0,0,0,0,0,0,0,-0.261799,-0.000228819,-1.5,0,0,0,3,0,0,0,0,0,0,0,0,1.9603e-19
460,-3.21239e-12,0,-1.576e-06,-3.27827e-12,0,0,-1.13726e-13,0,0,0,0,0,0,0,0,0,0,0,0,0,0,0,0,0,0,0,0,0,-0.261799,-0.000222027,-1.5,0,0,0,3,0,0,0,0,0,0,0,0,1.9603e-19
470,-3.21239e-12,0,-1.576e-06,-3.27827e-12,0,-3.40903e-12,-1.13727e-13,0,0,0,0,0,0,0,0,0,0,0,0,0,0,0,0,0,0,0,0,0,-0.261799,-0.000215437,-1.5,0,0,0,3,0,0,0,0,0,0,0,0,1.9603e-19
480,-3.21239e-12,0,-1.576e-06,-3.27827e-12,0,0,-1.13727e-13,0,0,0,0,0,0,0,0,0,0,0,0,0,0,0,0,0,0,0,0,0,-0.261799,-0.000208623,-1.5,0,0,0,3,0,0,0,0,0,0,0,0,1.9603e-19
490,-3.21239e-12,0,-1.576e-06,-3.27827e-12,0,-3.40903e-12,-1.13728e-13,0,0,0,0,0,0,0,0,0,0,0,0,0,0,0,0,0,0,0,0,0,-0.261799,-0.000202434,-1.5,0,0,0,3,0,0,0,0,0,0,0,0,1.9603e-19
500,-3.21239e-12,0,-1.576e-06,-3.27827e-12,0,0,-1.13728e-13,0,0,0,0,0,0,0,0,0,0,0,0,0,0,0,0,0,0,0,0,0,-0.261799,-0.000196429,-1.5,0,0,0,3,0,0,0,0,0,0,0,0,1.9603e-19
510,-3.21239e-12,0,-1.576e-06,-3.27827e-12,0,-3.40903e-12,-1.13729e-13,0,0,0,0,0,0,0,0,0,0,0,0,0,0,0,0,0,0,0,0,0,-0.261799,-0.000190987,-1.5,0,0,0,3,0,0,0,0,0,0,0,0,1.9603e-19
520,-3.21239e-12,0,-1.576e-06,-3.27827e-12,0,0,-1.13729e-13,0,0,0,0,0,0,0,0,0,0,0,0,0,0,0,0,0,0,0,0,0,-0.261799,-0.000185318,-1.5,0,0,0,3,0,0,0,0,0,0,0,0,1.9603e-19
530,-3.21239e-12,0,-1.576e-06,-3.27827e-12,0,-3.40903e-12,-1.1373e-13,0,0,0,0,0,0,0,0,0,0,0,0,0,0,0,0,0,0,0,0,0,-0.261799,-0.000179818,-1.5,0,0,0,3,0,0,0,0,0,0,0,0,1.9603e-19
540,-3.21239e-12,0,-1.576e-06,-3.27827e-12,0,0,-1.1373e-13,0,0,0,0,0,0,0,0,0,0,0,0,0,0,0,0,0,0,0,0,0,-0.261799,-0.000146875,-1.5,0,0,0,3,0,0,0,0,0,0,0,0,1.9603e-19
550,-3.21239e-12,0,-1.576e-06,-3.27827e-12,0,-3.40903e-12,-1.13731e-13,0,0,0,0,0,0,0,0,0,0,0,0,0,0,0,0,0,0,0,0,0,-0.261799,-0.000142516,-1.5,0,0,0,3,0,0,0,0,0,0,0,0,1.9603e-19
560,-3.21239e-12,0,-1.576e-06,-3.27827e-12,0,0,-1.13731e-13,0,0,0,0,0,0,0,0,0,0,0,0,0,0,0,0,0,0,0,0,0,-0.261799,-0.000138286,-1.5,0,0,0,3,0,0,0,0,0,0,0,0,1.9603e-19
570,-3.21239e-12,0,-1.576e-06,-3.27827e-12,0,-3.40903e-12,-1.13732e-13,0,0,0,0,0,0,0,0,0,0,0,0,0,0,0,0,0,0,0,0,0,-0.261799,-0.00013201,-1.5,0,0,0,3,0,0,0,0,0,0,0,0,1.9603e-19
580,-3.21239e-12,0,-1.576e-06,-3.27827e-12,0,0,-1.13732e-13,0,0,0,0,0,0,0,0,0,0,0,0,0,0,0,0,0,0,0,0,0,-0.261799,-0.000127832,-1.5,0,0,0,3,0,0,0,0,0,0,0,0,1.9603e-19
590,-3.21239e-12,0,-1.576e-06,-3.27827e-12,0,-3.40903e-12,-1.13733e-13,0,0,0,0,0,0,0,0,0,0,0,0,0,0,0,0,0,0,0,0,0,-0.261799,-0.000123786,-1.5,0,0,0,3,0,0,0,0,0,0,0,0,1.9603e-19
600,-3.21239e-12,0,-1.576e-06,-3.27827e-12,0,0,-1.13734e-13,0,0,0,0,0,0,0,0,0,0,0,0,0,0,0,0,0,0,0,0,0,-0.261799,-0.000119625,-1.5,0,0,0,3,0,0,0,0,0,0,0,0,1.9603e-19
610,-3.21239e-12,0,-1.576e-06,-3.27827e-12,0,-3.40903e-12,-1.13734e-13,0,0,0,0,0,0,0,0,0,0,0,0,0,0,0,0,0,0,0,0,0,-0.261799,-0.000116074,-1.5,0,0,0,3,0,0,0,0,0,0,0,0,1.9603e-19
620,-3.21239e-12,0,-1.576e-06,-3.27827e-12,0,0,-1.13735e-13,0,0,0,0,0,0,0,0,0,0,0,0,0,0,0,0,0,0,0,0,0,-0.261799,-0.000112629,-1.5,0,0,0,3,0,0,0,0,0,0,0,0,1.9603e-19
630,-3.21239e-12,0,-1.576e-06,-3.27827e-12,0,-3.40903e-12,-1.13735e-13,0,0,0,0,0,0,0,0,0,0,0,0,0,0,0,0,0,0,0,0,0,-0.261799,-0.000108182,-1.5,0,0,0,3,0,0,0,0,0,0,0,0,1.9603e-19
640,-3.21239e-12,0,-1.576e-06,-3.27827e-12,0,0,-1.13736e-13,0,0,0,0,0,0,0,0,0,0,0,0,0,0,0,0,0,0,0,0,0,-0.261799,-0.00010476,-1.5,0,0,0,3,0,0,0,0,0,0,0,0,1.9603e-19
650,-3.21239e-12,0,-1.576e-06,-3.27827e-12,0,-3.40903e-12,-1.13736e-13,0,0,0,0,0,0,0,0,0,0,0,0,0,0,0,0,0,0,0,0,0,-0.261799,-0.000101446,-1.5,0,0,0,3,0,0,0,0,0,0,0,0,1.9603e-19
660,-3.21239e-12,0,-1.576e-06,-3.27827e-12,0,0,-1.13737e-13,0,0,0,0,0,0,0,0,0,0,0,0,0,0,0,0,0,0,0,0,0,-0.261799,-9.82354e-05,-1.5,0,0,0,3,0,0,0,0,0,0,0,0,1.9603e-19
670,-3.21239e-12,0,-1.576e-06,-3.27827e-12,0,-3.40903e-12,-1.13737e-13,0,0,0,0,0,0,0,0,0,0,0,0,0,0,0,0,0,0,0,0,0,-0.261799,-9.53197e-05,-1.5,0,0,0,3,0,0,0,0,0,0,0,0,1.9603e-19
680,-3.21239e-12,0,-1.576e-06,-3.27827e-12,0,0,-1.13738e-13,0,0,0,0,0,0,0,0,0,0,0,0,0,0,0,0,0,0,0,0,0,-0.261799,-9.24904e-05,-1.5,0,0,0,3,0,0,0,0,0,0,0,0,1.9603e-19
690,-3.21239e-12,0,-1.576e-06,-3.27827e-12,0,-3.40903e-12,-1.13738e-13,0,0,0,0,0,0,0,0,0,0,0,0,0,0,0,0,0,0,0,0,0,-0.261799,-8.90199e-05,-1.5,0,0,0,3,0,0,0,0,0,0,0,0,1.9603e-19
700,-3.21239e-12,0,-1.576e-06,-3.27827e-12,0,0,-1.13739e-13,0,0,0,0,0,0,0,0,0,0,0,0,0,0,0,0,0,0,0,0,0,-0.261799,-8.63777e-05,-1.5,0,0,0,3,0,0,0,0,0,0,0,0,1.9603e-19
710,-3.21239e-12,0,-1.576e-06,-3.27827e-12,0,-3.40903e-12,-1.1374e-13,0,0,0,0,0,0,0,0,0,0,0,0,0,0,0,0,0,0,0,0,0,-0.261799,-8.38139e-05,-1.5,0,0,0,3,0,0,0,0,0,0,0,0,1.9603e-19
720,-3.21239e-12,0,-1.576e-06,-3.27827e-12,0,0,-1.1374e-13,0,0,0,0,0,0,0,0,0,0,0,0,0,0,0,0,0,0,0,0,0,-0.261799,-8.0175e-05,-1.5,0,0,0,3,0,0,0,0,0,0,0,0,1.9603e-19
730,-3.21239e-12,0,-1.576e-06,-3.27827e-12,0,-3.40903e-12,-1.13741e-13,0,0,0,0,0,0,0,0,0,0,0,0,0,0,0,0,0,0,0,0,0,-0.261799,-7.77966e-05,-1.5,0,0,0,3,0,0,0,0,0,0,0,0,1.9603e-19
740,-3.21239e-12,0,-1.576e-06,-3.27827e-12,0,0,-1.13741e-13,0,0,0,0,0,0,0,0,0,0,0,0,0,0,0,0,0,0,0,0,0,-0.261799,-7.59468e-05,-1.5,0,0,0,3,0,0,0,0,0,0,0,0,1.9603e-19
750,-3.21239e-12,0,-1.576e-06,-3.27827e-12,0,-3.40903e-12,-1.13742e-13,0,0,0,0,0,0,0,0,0,0,0,0,0,0,0,0,0,0,0,0,0,-0.261799,-7.3843e-05,-1.5,0,0,0,3,0,0,0,0,0,0,0,0,1.9603e-19
760,-3.21239e-12,0,-1.576e-06,-3.27827e-12,0,0,-1.13742e-13,0,0,0,0,0,0,0,0,0,0,0,0,0,0,0,0,0,0,0,0,0,-0.261799,-7.15059e-05,-1.5,0,0,0,3,0,0,0,0,0,0,0,0,1.9603e-19
770,-3.21239e-12,0,-1.576e-06,-3.27827e-12,0,-3.40903e-12,-1.13743e-13,0,0,0,0,0,0,0,0,0,0,0,0,0,0,0,0,0,0,0,0,0,-0.261799,-6.91037e-05,-1.5,0,0,0,3,0,0,0,0,0,0,0,0,1.9603e-19
780,-3.21239e-12,0,-1.576e-06,-3.27827e-12,0,0,-1.13743e-13,0,0,0,0,0,0,0,0,0,0,0,0,0,0,0,0,0,0,0,0,0,-0.261799,-6.67806e-05,-1.5,0,0,0,3,0,0,0,0,0,0,0,0,1.9603e-19
790,-3.21239e-12,0,-1.576e-06,-3.27827e-12,0,-3.40903e-12,-1.13744e-13,0,0,0,0,0,0,0,0,0,0,0,0,0,0,0,0,0,0,0,0,0,-0.261799,-6.46683e-05,-1.5,0,0,0,3,0,0,0,0,0,0,0,0,1.9603e-19
800,-3.21239e-12,0,-1.576e-06,-3.27827e-12,0,0,-1.13744e-13,0,0,0,0,0,0,0,0,0,0,0,0,0,0,0,0,0,0,0,0,0,-0.261799,-6.28761e-05,-1.5,0,0,0,3,0,0,0,0,0,0,0,0,1.9603e-19
810,-3.21239e-12,0,-1.576e-06,-3.27827e-12,0,-3.40903e-12,-1.13745e-13,0,0,0,0,0,0,0,0,0,0,0,0,0,0,0,0,0,0,0,0,0,-0.261799,-6.08873e-05,-1.5,0,0,0,3,0,0,0,0,0,0,0,0,1.9603e-19
820,-3.21239e-12,0,-1.576e-06,-3.27827e-12,0,0,-1.13745e-13,0,0,0,0,0,0,0,0,0,0,0,0,0,0,0,0,0,0,0,0,0,-0.261799,-5.81243e-05,-1.5,0,0,0,3,0,0,0,0,0,0,0,0,1.9603e-19
830,-3.21239e-12,0,-1.576e-06,-3.27827e-12,0,-3.40903e-12,-1.13746e-13,0,0,0,0,0,0,0,0,0,0,0,0,0,0,0,0,0,0,0,0,0,-0.261799,-5.62858e-05,-1.5,0,0,0,3,0,0,0,0,0,0,0,0,1.9603e-19
840,-3.21239e-12,0,-1.576e-06,-3.27827e-12,0,0,-1.13747e-13,0,0,0,0,0,0,0,0,0,0,0,0,0,0,0,0,0,0,0,0,0,-0.261799,-5.45055e-05,-1.5,0,0,0,3,0,0,0,0,0,0,0,0,1.9603e-19
850,-3.21239e-12,0,-1.576e-06,-3.27827e-12,0,-3.40903e-12,-1.13747e-13,0,0,0,0,0,0,0,0,0,0,0,0,0,0,0,0,0,0,0,0,0,-0.261799,-5.28877e-05,-1.5,0,0,0,3,0,0,0,0,0,0,0,0,1.9603e-19
860,-3.21239e-12,0,-1.576e-06,-3.27827e-12,0,0,-1.13748e-13,0,0,0,0,0,0,0,0,0,0,0,0,0,0,0,0,0,0,0,0,0,-0.261799,-5.13179e-05,-1.5,0,0,0,3,0,0,0,0,0,0,0,0,1.9603e-19
870,-3.21239e-12,0,-1.576e-06,-3.27827e-12,0,-3.40903e-12,-1.13748e-13,0,0,0,0,0,0,0,0,0,0,0,0,0,0,0,0,0,0,0,0,0,-0.261799,-4.97955e-05,-1.5,0,0,0,3,0,0,0,0,0,0,0,0,1.9603e-19
880,-3.21239e-12,0,-1.576e-06,-3.27827e-12,0,0,-1.13749e-13,0,0,0,0,0,0,0,0,0,0,0,0,0,0,0,0,0,0,0,0,0,-0.261799,-4.78292e-05,-1.5,0,0,0,3,0,0,0,0,0,0,0,0,1.9603e-19
890,-3.21239e-12,0,-1.576e-06,-3.27827e-12,0,-3.40903e-12,-1.13749e-13,0,0,0,0,0,0,0,0,0,0,0,0,0,0,0,0,0,0,0,0,0,-0.261799,-4.63164e-05,-1.5,0,0,0,3,0,0,0,0,0,0,0,0,1.9603e-19
900,-3.21239e-12,0,-1.576e-06,-3.27827e-12,0,0,-1.1375e-13,0,0,0,0,0,0,0,0,0,0,0,0,0,0,0,0,0,0,0,0,0,-0.261799,-4.49416e-05,-1.5,0,0,0,3,0,0,0,0,0,0,0,0,1.9603e-19
910,-3.21239e-12,0,-1.576e-06,-3.27827e-12,0,-3.40903e-12,-1.1375e-13,0,0,0,0,0,0,0,0,0,0,0,0,0,0,0,0,0,0,0,0,0,-0.261799,-4.33436e-05,-1.5,0,0,0,3,0,0,0,0,0,0,0,0,1.9603e-19
920,-3.21239e-12,0,-1.576e-06,-3.27827e-12,0,0,-1.13751e-13,0,0,0,0,0,0,0,0,0,0,0,0,0,0,0,0,0,0,0,0,0,-0.261799,-4.21424e-05,-1.5,0,0,0,3,0,0,0,0,0,0,0,0,1.9603e-19
930,-3.21239e-12,0,-1.576e-06,-3.27827e-12,0,-3.40903e-12,-1.13751e-13,0,0,0,0,0,0,0,0,0,0,0,0,0,0,0,0,0,0,0,0,0,-0.261799,-4.08094e-05,-1.5,0,0,0,3,0,0,0,0,0,0,0,0,1.9603e-19
940,-3.21239e-12,0,-1.576e-06,-3.27827e-12,0,0,-1.13752e-13,0,0,0,0,0,0,0,0,0,0,0,0,0,0,0,0,0,0,0,0,0,-0.261799,-3.91162e-05,-1.5,0,0,0,3,0,0,0,0,0,0,0,0,1.9603e-19
950,-3.21239e-12,0,-1.576e-06,-3.27827e-12,0,-3.40903e-12,-1.13753e-13,0,0,0,0,0,0,0,0,0,0,0,0,0,0,0,0,0,0,0,0,0,-0.261799,-3.78782e-05,-1.5,0,0,0,3,0,0,0,0,0,0,0,0,1.9603e-19
960,-3.21239e-12,0,-1.576e-06,-3.27827e-12,0,0,-1.13753e-13,0,0,0,0,0,0,0,0,0,0,0,0,0,0,0,0,0,0,0,0,0,-0.261799,-3.66794e-05,-1.5,0,0,0,3,0,0,0,0,0,0,0,0,1.9603e-19
970,-3.21239e-12,0,-1.576e-06,-3.27827e-12,0,-3.40903e-12,-1.13754e-13,0,0,0,0,0,0,0,0,0,0,0,0,0,0,0,0,0,0,0,0,0,-0.261799,-3.54471e-05,-1.5,0,0,0,3,0,0,0,0,0,0,0,0,1.9603e-19
980,-3.21239e-12,0,-1.576e-06,-3.27827e-12,0,0,-1.13754e-13,0,0,0,0,0,0,0,0,0,0,0,0,0,0,0,0,0,0,0,0,0,-0.261799,-3.45348e-05,-1.5,0,0,0,3,0,0,0,0,0,0,0,0,1.9603e-19
990,-3.21239e-12,0,-1.576e-06,-3.27827e-12,0,-3.40903e-12,-1.13755e-13,0,0,0,0,0,0,0,0,0,0,0,0,0,0,0,0,0,0,0,0,0,-0.261799,-3.3646e-05,-1.5,0,0,0,3,0,0,0,0,0,0,0,0,1.9603e-19
1000,-3.21239e-12,0,-1.576e-06,-3.27827e-12,0,0,-1.13755e-13,0,0,0,0,0,0,0,0,0,0,0,0,0,0,0,0,0,0,0,0,0,-0.261799,-3.25157e-05,-1.5,0,0,0,3,0,0,0,0,0,0,0,0,1.9603e-19
1010,-3.21239e-12,0,-1.576e-06,-3.27827e-12,0,-3.40903e-12,-1.13756e-13,0,0,0,0,0,0,0,0,0,0,0,0,0,0,0,0,0,0,0,0,0,-0.261799,-3.13595e-05,-1.5,0,0,0,3,0,0,0,0,0,0,0,0,1.9603e-19
1020,-3.21239e-12,0,-1.576e-06,-3.27827e-12,0,0,-1.13756e-13,0,0,0,0,0,0,0,0,0,0,0,0,0,0,0,0,0,0,0,0,0,-0.261799,-3.04287e-05,-1.5,0,0,0,3,0,0,0,0,0,0,0,0,1.9603e-19
1030,-3.21239e-12,0,-1.576e-06,-3.27827e-12,0,-3.40903e-12,-1.13757e-13,0,0,0,0,0,0,0,0,0,0,0,0,0,0,0,0,0,0,0,0,0,-0.261799,-2.92261e-05,-1.5,0,0,0,3,0,0,0,0,0,0,0,0,1.9603e-19
1040,-3.21239e-12,0,-1.576e-06,-3.27827e-12,0,0,-1.13757e-13,0,0,0,0,0,0,0,0,0,0,0,0,0,0,0,0,0,0,0,0,0,-0.261799,-2.83586e-05,-1.5,0,0,0,3,0,0,0,0,0,0,0,0,1.9603e-19
1050,-3.21239e-12,0,-1.576e-06,-3.27827e-12,0,-3.40903e-12,-1.13758e-13,0,0,0,0,0,0,0,0,0,0,0,0,0,0,0,0,0,0,0,0,0,-0.261799,-2.75169e-05,-1.5,0,0,0,3,0,0,0,0,0,0,0,0,1.9603e-19
1060,-3.21239e-12,0,-1.576e-06,-3.27827e-12,0,0,-1.13759e-13,0,0,0,0,0,0,0,0,0,0,0,0,0,0,0,0,0,0,0,0,0,-0.261799,-2.64303e-05,-1.5,0,0,0,3,0,0,0,0,0,0,0,0,1.9603e-19
1070,-3.21239e-12,0,-1.576e-06,-3.27827e-12,0,-3.40903e-12,-1.13759e-13,0,0,0,0,0,0,0,0,0,0,0,0,0,0,0,0,0,0,0,0,0,-0.261799,-2.55943e-05,-1.5,0,0,0,3,0,0,0,0,0,0,0,0,1.9603e-19
1080,-3.21239e-12,0,-1.576e-06,-3.27827e-12,0,0,-1.1376e-13,0,0,0,0,0,0,0,0,0,0,0,0,0,0,0,0,0,0,0,0,0,-0.261799,-2.46842e-05,-1.5,0,0,0,3,0,0,0,0,0,0,0,0,1.9603e-19
1090,-3.21239e-12,0,-1.576e-06,-3.27827e-12,0,-3.40903e-12,-1.1376e-13,0,0,0,0,0,0,0,0,0,0,0,0,0,0,0,0,0,0,0,0,0,-0.261799,-2.39515e-05,-1.5,0,0,0,3,0,0,0,0,0,0,0,0,1.9603e-19
1100,-3.21239e-12,0,-1.576e-06,-3.27827e-12,0,0,-1.13761e-13,0,0,0,0,0,0,0,0,0,0,0,0,0,0,0,0,0,0,0,0,0,-0.261799,-2.32406e-05,-1.5,0,0,0,3,0,0,0,0,0,0,0,0,1.9603e-19
1110,-3.21239e-12,0,-1.576e-06,-3.27827e-12,0,-3.40903e-12,-1.13761e-13,0,0,0,0,0,0,0,0,0,0,0,0,0,0,0,0,0,0,0,0,0,-0.261799,-2.25508e-05,-1.5,0,0,0,3,0,0,0,0,0,0,0,0,1.9603e-19
1120,-3.21239e-12,0,-1.576e-06,-3.27827e-12,0,0,-1.13762e-13,0,0,0,0,0,0,0,0,0,0,0,0,0,0,0,0,0,0,0,0,0,-0.261799,-2.15275e-05,-1.5,0,0,0,3,0,0,0,0,0,0,0,0,1.9603e-19
1130,-3.21239e-12,0,-1.576e-06,-3.27827e-12,0,-3.40903e-12,-1.13762e-13,0,0,0,0,0,0,0,0,0,0,0,0,0,0,0,0,0,0,0,0,0,-0.261799,-2.08037e-05,-1.5,0,0,0,3,0,0,0,0,0,0,0,0,1.9603e-19
1140,-3.21239e-12,0,-1.576e-06,-3.27827e-12,0,0,-1.13763e-13,0,0,0,0,0,0,0,0,0,0,0,0,0,0,0,0,0,0,0,0,0,-0.261799,-2.01044e-05,-1.5,0,0,0,3,0,0,0,0,0,0,0,0,1.9603e-19
1150,-3.21239e-12,0,-1.576e-06,-3.27827e-12,0,-3.40903e-12,-1.13763e-13,0,0,0,0,0,0,0,0,0,0,0,0,0,0,0,0,0,0,0,0,0,-0.261799,-1.93098e-05,-1.5,0,0,0,3,0,0,0,0,0,0,0,0,1.9603e-19
1160,-3.21239e-12,0,-1.576e-06,-3.27827e-12,0,0,-1.13764e-13,0,0,0,0,0,0,0,0,0,0,0,0,0,0,0,0,0,0,0,0,0,-0.261799,-1.87366e-05,-1.5,0,0,0,3,0,0,0,0,0,0,0,0,1.9603e-19
1170,-3.21239e-12,0,-1.576e-06,-3.27827e-12,0,-3.40903e-12,-1.13764e-13,0,0,0,0,0,0,0,0,0,0,0,0,0,0,0,0,0,0,0,0,0,-0.261799,-1.81068e-05,-1.5,0,0,0,3,0,0,0,0,0,0,0,0,1.9603e-19
1180,-3.21239e-12,0,-1.576e-06,-3.27827e-12,0,0,-1.13765e-13,0,0,0,0,0,0,0,0,0,0,0,0,0,0,0,0,0,0,0,0,0,-0.261799,-1.74629e-05,-1.5,0,0,0,3,0,0,0,0,0,0,0,0,1.9603e-19
1190,-3.21239e-12,0,-1.576e-06,-3.27827e-12,0,-3.40903e-12,-1.13766e-13,0,0,0,0,0,0,0,0,0,0,0,0,0,0,0,0,0,0,0,0,0,-0.261799,-1.69106e-05,-1.5,0,0,0,3,0,0,0,0,0,0,0,0,1.9603e-19
1200,-3.21239e-12,0,-1.576e-06,-3.27827e-12,0,0,-1.13766e-13,0,0,0,0,0,0,0,0,0,0,0,0,0,0,0,0,0,0,0,0,0,-0.261799,-1.62428e-05,-1.5,0,0,0,3,0,0,0,0,0,0,0,0,1.9603e-19
1210,-3.21239e-12,0,-1.576e-06,-3.27827e-12,0,-3.40903e-12,-1.13767e-13,0,0,0,0,0,0,0,0,0,0,0,0,0,0,0,0,0,0,0,0,0,-0.261799,-1.58246e-05,-1.5,0,0,0,3,0,0,0,0,0,0,0,0,1.9603e-19
1220,-3.21239e-12,0,-1.576e-06,-3.27827e-12,0,0,-1.13767e-13,0,0,0,0,0,0,0,0,0,0,0,0,0,0,0,0,0,0,0,0,0,-0.261799,-1.54172e-05,-1.5,0,0,0,3,0,0,0,0,0,0,0,0,1.9603e-19
1230,-3.21239e-12,0,-1.576e-06,-3.27827e-12,0,-3.40903e-12,-1.13768e-13,0,0,0,0,0,0,0,0,0,0,0,0,0,0,0,0,0,0,0,0,0,-0.261799,-1.499e-05,-1.5,0,0,0,3,0,0,0,0,0,0,0,0,1.9603e-19
1240,-3.21239e-12,0,-1.576e-06,-3.27827e-12,0,0,-1.13768e-13,0,0,0,0,0,0,0,0,0,0,0,0,0,0,0,0,0,0,0,0,0,-0.261799,-1.4398e-05,-1.5,0,0,0,3,0,0,0,0,0,0,0,0,1.9603e-19
1250,-3.21239e-12,0,-1.576e-06,-3.27827e-12,0,-3.40903e-12,-1.13769e-13,0,0,0,0,0,0,0,0,0,0,0,0,0,0,0,0,0,0,0,0,0,-0.261799,-1.39424e-05,-1.5,0,0,0,3,0,0,0,0,0,0,0,0,1.9603e-19
1260,-3.21239e-12,0,-1.576e-06,-3.27827e-12,0,0,-1.13769e-13,0,0,0,0,0,0,0,0,0,0,0,0,0,0,0,0,0,0,0,0,0,-0.261799,-1.34466e-05,-1.5,0,0,0,3,0,0,0,0,0,0,0,0,1.9603e-19
1270,-3.21239e-12,0,-1.576e-06,-3.27827e-12,0,-3.40903e-12,-1.1377e-13,0,0,0,0,0,0,0,0,0,0,0,0,0,0,0,0,0,0,0,0,0,-0.261799,-1.30475e-05,-1.5,0,0,0,3,0,0,0,0,0,0,0,0,1.9603e-19
1280,-3.21239e-12,0,-1.576e-06,-3.27827e-12,0,0,-1.1377e-13,0,0,0,0,0,0,0,0,0,0,0,0,0,0,0,0,0,0,0,0,0,-0.261799,-1.26602e-05,-1.5,0,0,0,3,0,0,0,0,0,0,0,0,1.9603e-19
1290,-3.21239e-12,0,-1.576e-06,-3.27827e-12,0,-3.40903e-12,-1.13771e-13,0,0,0,0,0,0,0,0,0,0,0,0,0,0,0,0,0,0,0,0,0,-0.261799,-1.21603e-05,-1.5,0,0,0,3,0,0,0,0,0,0,0,0,1.9603e-19
1300,-3.21241e-12,0,0,-3.27827e-12,0,0,-1.13772e-13,0,0,0,0,0,0,0,0,0,0,0,0,0,0,0,0,0,0,0,0,0,-0.261799,-1.17279e-05,-1.5,0,0,0,3,0,0,0,0,0,0,0,0,1.9603e-19
1310,-3.21239e-12,0,-1.576e-06,-3.27827e-12,0,-3.40903e-12,-1.13772e-13,0,0,0,0,0,0,0,0,0,0,0,0,0,0,0,0,0,0,0,0,0,-0.261799,-1.13567e-05,-1.5,0,0,0,3,0,0,0,0,0,0,0,0,1.9603e-19
1320,-3.21239e-12,0,-1.576e-06,-3.27827e-12,0,0,-1.13773e-13,0,0,0,0,0,0,0,0,0,0,0,0,0,0,0,0,0,0,0,0,0,-0.261799,-1.09752e-05,-1.5,0,0,0,3,0,0,0,0,0,0,0,0,1.9603e-19
1330,-3.21239e-12,0,-1.576e-06,-3.27827e-12,0,-3.40903e-12,-1.13773e-13,0,0,0,0,0,0,0,0,0,0,0,0,0,0,0,0,0,0,0,0,0,-0.261799,-1.06494e-05,-1.5,0,0,0,3,0,0,0,0,0,0,0,0,1.9603e-19
1340,-3.21239e-12,0,-1.576e-06,-3.27827e-12,0,0,-1.13774e-13,0,0,0,0,0,0,0,0,0,0,0,0,0,0,0,0,0,0,0,0,0,-0.261799,-1.03333e-05,-1.5,0,0,0,3,0,0,0,0,0,0,0,0,1.9603e-19
1350,-3.21239e-12,0,-1.576e-06,-3.27827e-12,0,-3.40903e-12,-1.13774e-13,0,0,0,0,0,0,0,0,0,0,0,0,0,0,0,0,0,0,0,0,0,-0.261799,-9.98594e-06,-1.5,0,0,0,3,0,0,0,0,0,0,0,0,1.9603e-19
1360,-3.21239e-12,0,-1.576e-06,-3.27827e-12,0,0,-1.13775e-13,0,0,0,0,0,0,0,0,0,0,0,0,0,0,0,0,0,0,0,0,0,-0.261799,-9.59163e-06,-1.5,0,0,0,3,0,0,0,0,0,0,0,0,1.9603e-19
1370,-3.21239e-12,0,-1.576e-06,-3.27827e-12,0,-3.40903e-12,-1.13775e-13,0,0,0,0,0,0,0,0,0,0,0,0,0,0,0,0,0,0,0,0,0,-0.261799,-9.28824e-06,-1.5,0,0,0,3,0,0,0,0,0,0,0,0,1.9603e-19
1380,-3.21239e-12,0,-1.576e-06,-3.27827e-12,0,0,-1.13776e-13,0,0,0,0,0,0,0,0,0,0,0,0,0,0,0,0,0,0,0,0,0,-0.261799,-8.93943e-06,-1.5,0,0,0,3,0,0,0,0,0,0,0,0,1.9603e-19
1390,-3.21239e-12,0,-1.576e-06,-3.27827e-12,0,-3.40903e-12,-1.13776e-13,0,0,0,0,0,0,0,0,0,0,0,0,0,0,0,0,0,0,0,0,0,-0.261799,-8.65668e-06,-1.5,0,0,0,3,0,0,0,0,0,0,0,0,1.9603e-19
1400,-3.21239e-12,0,-1.576e-06,-3.27827e-12,0,0,-1.13777e-13,0,0,0,0,0,0,0,0,0,0,0,0,0,0,0,0,0,0,0,0,0,-0.261799,-8.39987e-06,-1.5,0,0,0,3,0,0,0,0,0,0,0,0,1.9603e-19
1410,-3.21239e-12,0,-1.576e-06,-3.27827e-12,0,-3.40903e-12,-1.13777e-13,0,0,0,0,0,0,0,0,0,0,0,0,0,0,0,0,0,0,0,0,0,-0.261799,-8.13418e-06,-1.5,0,0,0,3,0,0,0,0,0,0,0,0,1.9603e-19
1420,-3.21239e-12,0,-1.576e-06,-3.27827e-12,0,0,-1.13778e-13,0,0,0,0,0,0,0,0,0,0,0,0,0,0,0,0,0,0,0,0,0,-0.261799,-7.82896e-06,-1.5,0,0,0,3,0,0,0,0,0,0,0,0,1.9603e-19
1430,-3.21239e-12,0,-1.576e-06,-3.27827e-12,0,-3.40903e-12,-1.13779e-13,0,0,0,0,0,0,0,0,0,0,0,0,0,0,0,0,0,0,0,0,0,-0.261799,-7.58118e-06,-1.5,0,0,0,3,0,0,0,0,0,0,0,0,1.9603e-19
1440,-3.21239e-12,0,-1.576e-06,-3.27827e-12,0,0,-1.13779e-13,0,0,0,0,0,0,0,0,0,0,0,0,0,0,0,0,0,0,0,0,0,-0.261799,-7.26693e-06,-1.5,0,0,0,3,0,0,0,0,0,0,0,0,1.9603e-19
1450,-3.21239e-12,0,-1.576e-06,-3.27827e-12,0,-3.40903e-12,-1.1378e-13,0,0,0,0,0,0,0,0,0,0,0,0,0,0,0,0,0,0,0,0,0,-0.261799,-7.06554e-06,-1.5,0,0,0,3,0,0,0,0,0,0,0,0,1.9603e-19
1460,-3.21239e-12,0,-1.576e-06,-3.27827e-12,0,0,-1.1378e-13,0,0,0,0,0,0,0,0,0,0,0,0,0,0,0,0,0,0,0,0,0,-0.261799,-6.86973e-06,-1.5,0,0,0,3,0,0,0,0,0,0,0,0,1.9603e-19
1470,-3.21239e-12,0,-1.576e-06,-3.27827e-12,0,-3.40903e-12,-1.13781e-13,0,0,0,0,0,0,0,0,0,0,0,0,0,0,0,0,0,0,0,0,0,-0.261799,-6.61196e-06,-1.5,0,0,0,3,0,0,0,0,0,0,0,0,1.9603e-19
1480,-3.21239e-12,0,-1.576e-06,-3.27827e-12,0,0,-1.13781e-13,0,0,0,0,0,0,0,0,0,0,0,0,0,0,0,0,0,0,0,0,0,-0.261799,-6.36386e-06,-1.5,0,0,0,3,0,0,0,0,0,0,0,0,1.9603e-19
1490,-3.21239e-12,0,-1.576e-06,-3.27827e-12,0,-3.40903e-12,-1.13782e-13,0,0,0,0,0,0,0,0,0,0,0,0,0,0,0,0,0,0,0,0,0,-0.261799,-6.16244e-06,-1.5,0,0,0,3,0,0,0,0,0,0,0,0,1.9603e-19
1500,-3.21239e-12,0,-1.576e-06,-3.27827e-12,0,0,-1.13782e-13,0,0,0,0,0,0,0,0,0,0,0,0,0,0,0,0,0,0,0,0,0,-0.261799,-5.95542e-06,-1.5,0,0,0,3,0,0,0,0,0,0,0,0,1.9603e-19
1510,-3.21239e-12,0,-1.576e-06,-3.27827e-12,0,-3.40903e-12,-1.13783e-13,0,0,0,0,0,0,0,0,0,0,0,0,0,0,0,0,0,0,0,0,0,-0.261799,-5.77865e-06,-1.5,0,0,0,3,0,0,0,0,0,0,0,0,1.9603e-19
1520,-3.21239e-12,0,-1.576e-06,-3.27827e-12,0,0,-1.13783e-13,0,0,0,0,0,0,0,0,0,0,0,0,0,0,0,0,0,0,0,0,0,-0.261799,-5.60713e-06,-1.5,0,0,0,3,0,0,0,0,0,0,0,0,1.9603e-19
1530,-3.21239e-12,0,-1.576e-06,-3.27827e-12,0,-3.40903e-12,-1.13784e-13,0,0,0,0,0,0,0,0,0,0,0,0,0,0,0,0,0,0,0,0,0,-0.261799,-5.40775e-06,-1.5,0,0,0,3,0,0,0,0,0,0,0,0,1.9603e-19
1540,-3.21239e-12,0,-1.576e-06,-3.27827e-12,0,0,-1.13785e-13,0,0,0,0,0,0,0,0,0,0,0,0,0,0,0,0,0,0,0,0,0,-0.261799,-5.22596e-06,-1.5,0,0,0,3,0,0,0,0,0,0,0,0,1.9603e-19
1550,-3.21239e-12,0,-1.576e-06,-3.27827e-12,0,-3.40903e-12,-1.13785e-13,0,0,0,0,0,0,0,0,0,0,0,0,0,0,0,0,0,0,0,0,0,-0.261799,-5.06055e-06,-1.5,0,0,0,3,0,0,0,0,0,0,0,0,1.9603e-19
1560,-3.21239e-12,0,-1.576e-06,-3.27827e-12,0,0,-1.13786e-13,0,0,0,0,0,0,0,0,0,0,0,0,0,0,0,0,0,0,0,0,0,-0.261799,-4.86073e-06,-1.5,0,0,0,3,0,0,0,0,0,0,0,0,1.9603e-19
1570,-3.21239e-12,0,-1.576e-06,-3.27827e-12,0,-3.40903e-12,-1.13786e-13,0,0,0,0,0,0,0,0,0,0,0,0,0,0,0,0,0,0,0,0,0,-0.261799,-4.71645e-06,-1.5,0,0,0,3,0,0,0,0,0,0,0,0,1.9603e-19
1580,-3.21239e-12,0,-1.576e-06,-3.27827e-12,0,0,-1.13787e-13,0,0,0,0,0,0,0,0,0,0,0,0,0,0,0,0,0,0,0,0,0,-0.261799,-4.57646e-06,-1.5,0,0,0,3,0,0,0,0,0,0,0,0,1.9603e-19
1590,-3.21239e-12,0,-1.576e-06,-3.27827e-12,0,-3.40903e-12,-1.13787e-13,0,0,0,0,0,0,0,0,0,0,0,0,0,0,0,0,0,0,0,0,0,-0.261799,-4.41384e-06,-1.5,0,0,0,3,0,0,0,0,0,0,0,0,1.9603e-19
1600,-3.21239e-12,0,-1.576e-06,-3.27827e-12,0,0,-1.13788e-13,0,0,0,0,0,0,0,0,0,0,0,0,0,0,0,0,0,0,0,0,0,-0.261799,-4.25689e-06,-1.5,0,0,0,3,0,0,0,0,0,0,0,0,1.9603e-19
1610,-3.21239e-12,0,-1.576e-06,-3.27827e-12,0,-3.40903e-12,-1.13788e-13,0,0,0,0,0,0,0,0,0,0,0,0,0,0,0,0,0,0,0,0,0,-0.261799,-4.12224e-06,-1.5,0,0,0,3,0,0,0,0,0,0,0,0,1.9603e-19
1620,-3.21239e-12,0,-1.576e-06,-3.27827e-12,0,0,-1.13789e-13,0,0,0,0,0,0,0,0,0,0,0,0,0,0,0,0,0,0,0,0,0,-0.261799,-3.98366e-06,-1.5,0,0,0,3,0,0,0,0,0,0,0,0,1.9603e-19
1630,-3.21239e-12,0,-1.576e-06,-3.27827e-12,0,-3.40903e-12,-1.13789e-13,0,0,0,0,0,0,0,0,0,0,0,0,0,0,0,0,0,0,0,0,0,-0.261799,-3.85766e-06,-1.5,0,0,0,3,0,0,0,0,0,0,0,0,1.9603e-19
1640,-3.21239e-12,0,-1.576e-06,-3.27827e-12,0,0,-1.1379e-13,0,0,0,0,0,0,0,0,0,0,0,0,0,0,0,0,0,0,0,0,0,-0.261799,-3.74322e-06,-1.5,0,0,0,3,0,0,0,0,0,0,0,0,1.9603e-19
1650,-3.21239e-12,0,-1.576e-06,-3.27827e-12,0,-3.40903e-12,-1.1379e-13,0,0,0,0,0,0,0,0,0,0,0,0,0,0,0,0,0,0,0,0,0,-0.261799,-3.60264e-06,-1.5,0,0,0,3,0,0,0,0,0,0,0,0,1.9603e-19
1660,-3.21239e-12,0,-1.576e-06,-3.27827e-12,0,0,-1.13791e-13,0,0,0,0,0,0,0,0,0,0,0,0,0,0,0,0,0,0,0,0,0,-0.261799,-3.48162e-06,-1.5,0,0,0,3,0,0,0,0,0,0,0,0,1.9603e-19
1670,-3.21239e-12,0,-1.576e-06,-3.27827e-12,0,-3.40903e-12,-1.13792e-13,0,0,0,0,0,0,0,0,0,0,0,0,0,0,0,0,0,0,0,0,0,-0.261799,-3.37828e-06,-1.5,0,0,0,3,0,0,0,0,0,0,0,0,1.9603e-19
1680,-3.21239e-12,0,-1.576e-06,-3.27827e-12,0,0,-1.13792e-13,0,0,0,0,0,0,0,0,0,0,0,0,0,0,0,0,0,0,0,0,0,-0.261799,-3.25815e-06,-1.5,0,0,0,3,0,0,0,0,0,0,0,0,1.9603e-19
1690,-3.21239e-12,0,-1.576e-06,-3.27827e-12,0,-3.40903e-12,-1.13793e-13,0,0,0,0,0,0,0,0,0,0,0,0,0,0,0,0,0,0,0,0,0,-0.261799,-3.17429e-06,-1.5,0,0,0,3,0,0,0,0,0,0,0,0,1.9603e-19
1700,-3.21239e-12,0,-1.576e-06,-3.27827e-12,0,0,-1.13793e-13,0,0,0,0,0,0,0,0,0,0,0,0,0,0,0,0,0,0,0,0,0,-0.261799,-3.0926e-06,-1.5,0,0,0,3,0,0,0,0,0,0,0,0,1.9603e-19
1710,-3.21239e-12,0,-1.576e-06,-3.27827e-12,0,-3.40903e-12,-1.13794e-13,0,0,0,0,0,0,0,0,0,0,0,0,0,0,0,0,0,0,0,0,0,-0.261799,-2.88515e-06,-1.5,0,0,0,3,0,0,0,0,0,0,0,0,1.9603e-19
1720,-3.21239e-12,0,-1.576e-06,-3.27827e-12,0,0,-1.13794e-13,0,0,0,0,0,0,0,0,0,0,0,0,0,0,0,0,0,0,0,0,0,-0.261799,-2.79384e-06,-1.5,0,0,0,3,0,0,0,0,0,0,0,0,1.9603e-19
1730,-3.21239e-12,0,-1.576e-06,-3.27827e-12,0,-3.40903e-12,-1.13795e-13,0,0,0,0,0,0,0,0,0,0,0,0,0,0,0,0,0,0,0,0,0,-0.261799,-2.70547e-06,-1.5,0,0,0,3,0,0,0,0,0,0,0,0,1.9603e-19
1740,-3.21239e-12,0,-1.576e-06,-3.27827e-12,0,0,-1.13795e-13,0,0,0,0,0,0,0,0,0,0,0,0,0,0,0,0,0,0,0,0,0,-0.261799,-2.60387e-06,-1.5,0,0,0,3,0,0,0,0,0,0,0,0,1.9603e-19
1750,-3.21239e-12,0,-1.576e-06,-3.27827e-12,0,-3.40903e-12,-1.13796e-13,0,0,0,0,0,0,0,0,0,0,0,0,0,0,0,0,0,0,0,0,0,-0.261799,-2.52151e-06,-1.5,0,0,0,3,0,0,0,0,0,0,0,0,1.9603e-19
1760,-3.21239e-12,0,-1.576e-06,-3.27827e-12,0,0,-1.13796e-13,0,0,0,0,0,0,0,0,0,0,0,0,0,0,0,0,0,0,0,0,0,-0.261799,-2.4467e-06,-1.5,0,0,0,3,0,0,0,0,0,0,0,0,1.9603e-19
1770,-3.21239e-12,0,-1.576e-06,-3.27827e-12,0,-3.40903e-12,-1.13797e-13,0,0,0,0,0,0,0,0,0,0,0,0,0,0,0,0,0,0,0,0,0,-0.261799,-2.3549e-06,-1.5,0,0,0,3,0,0,0,0,0,0,0,0,1.9603e-19
1780,-3.21239e-12,0,-1.576e-06,-3.27827e-12,0,0,-1.13798e-13,0,0,0,0,0,0,0,0,0,0,0,0,0,0,0,0,0,0,0,0,0,-0.261799,-2.28041e-06,-1.5,0,0,0,3,0,0,0,0,0,0,0,0,1.9603e-19
1790,-3.21239e-12,0,-1.576e-06,-3.27827e-12,0,-3.40903e-12,-1.13798e-13,0,0,0,0,0,0,0,0,0,0,0,0,0,0,0,0,0,0,0,0,0,-0.261799,-2.20828e-06,-1.5,0,0,0,3,0,0,0,0,0,0,0,0,1.9603e-19
1800,-3.21239e-12,0,-1.576e-06,-3.27827e-12,0,0,-1.13799e-13,0,0,0,0,0,0,0,0,0,0,0,0,0,0,0,0,0,0,0,0,0,-0.261799,-2.13404e-06,-1.5,0,0,0,3,0,0,0,0,0,0,0,0,1.9603e-19
1810,-3.21239e-12,0,-1.576e-06,-3.27827e-12,0,-3.40903e-12,-1.13799e-13,0,0,0,0,0,0,0,0,0,0,0,0,0,0,0,0,0,0,0,0,0,-0.261799,-2.0707e-06,-1.5,0,0,0,3,0,0,0,0,0,0,0,0,1.9603e-19
1820,-3.21239e-12,0,-1.576e-06,-3.27827e-12,0,0,-1.138e-13,0,0,0,0,0,0,0,0,0,0,0,0,0,0,0,0,0,0,0,0,0,-0.261799,-2.00924e-06,-1.5,0,0,0,3,0,0,0,0,0,0,0,0,1.9603e-19
1830,-3.21239e-12,0,-1.576e-06,-3.27827e-12,0,-3.40903e-12,-1.138e-13,0,0,0,0,0,0,0,0,0,0,0,0,0,0,0,0,0,0,0,0,0,-0.261799,-1.91797e-06,-1.5,0,0,0,3,0,0,0,0,0,0,0,0,1.9603e-19
1840,-3.21239e-12,0,-1.576e-06,-3.27827e-12,0,0,-1.13801e-13,0,0,0,0,0,0,0,0,0,0,0,0,0,0,0,0,0,0,0,0,0,-0.261799,-1.86104e-06,-1.5,0,0,0,3,0,0,0,0,0,0,0,0,1.9603e-19
1850,-3.21239e-12,0,-1.576e-06,-3.27827e-12,0,-3.40903e-12,-1.13801e-13,0,0,0,0,0,0,0,0,0,0,0,0,0,0,0,0,0,0,0,0,0,-0.261799,-1.80214e-06,-1.5,0,0,0,3,0,0,0,0,0,0,0,0,1.9603e-19
1860,-3.21239e-12,0,-1.576e-06,-3.27827e-12,0,0,-1.13802e-13,0,0,0,0,0,0,0,0,0,0,0,0,0,0,0,0,0,0,0,0,0,-0.261799,-1.74155e-06,-1.5,0,0,0,3,0,0,0,0,0,0,0,0,1.9603e-19
1870,-3.21239e-12,0,-1.576e-06,-3.27827e-12,0,-3.40903e-12,-1.13802e-13,0,0,0,0,0,0,0,0,0,0,0,0,0,0,0,0,0,0,0,0,0,-0.261799,-1.68986e-06,-1.5,0,0,0,3,0,0,0,0,0,0,0,0,1.9603e-19
1880,-3.21239e-12,0,-1.576e-06,-3.27827e-12,0,0,-1.13803e-13,0,0,0,0,0,0,0,0,0,0,0,0,0,0,0,0,0,0,0,0,0,-0.261799,-1.6397e-06,-1.5,0,0,0,3,0,0,0,0,0,0,0,0,1.9603e-19
1890,-3.21239e-12,0,-1.576e-06,-3.27827e-12,0,-3.40903e-12,-1.13803e-13,0,0,0,0,0,0,0,0,0,0,0,0,0,0,0,0,0,0,0,0,0,-0.261799,-1.57812e-06,-1.5,0,0,0,3,0,0,0,0,0,0,0,0,1.9603e-19
1900,-3.21239e-12,0,-1.576e-06,-3.27827e-12,0,0,-1.13804e-13,0,0,0,0,0,0,0,0,0,0,0,0,0,0,0,0,0,0,0,0,0,-0.261799,-1.52818e-06,-1.5,0,0,0,3,0,0,0,0,0,0,0,0,1.9603e-19
1910,-3.21239e-12,0,-1.576e-06,-3.27827e-12,0,-3.40903e-12,-1.13805e-13,0,0,0,0,0,0,0,0,0,0,0,0,0,0,0,0,0,0,0,0,0,-0.261799,-1.47981e-06,-1.5,0,0,0,3,0,0,0,0,0,0,0,0,1.9603e-19
1920,-3.21239e-12,0,-1.576e-06,-3.27827e-12,0,0,-1.13805e-13,0,0,0,0,0,0,0,0,0,0,0,0,0,0,0,0,0,0,0,0,0,-0.261799,-1.42138e-06,-1.5,0,0,0,3,0,0,0,0,0,0,0,0,1.9603e-19
1930,-3.21239e-12,0,-1.576e-06,-3.27827e-12,0,-3.40903e-12,-1.13806e-13,0,0,0,0,0,0,0,0,0,0,0,0,0,0,0,0,0,0,0,0,0,-0.261799,-1.3848e-06,-1.5,0,0,0,3,0,0,0,0,0,0,0,0,1.9603e-19
1940,-3.21239e-12,0,-1.576e-06,-3.27827e-12,0,0,-1.13806e-13,0,0,0,0,0,0,0,0,0,0,0,0,0,0,0,0,0,0,0,0,0,-0.261799,-1.34915e-06,-1.5,0,0,0,3,0,0,0,0,0,0,0,0,1.9603e-19
1950,-3.21239e-12,0,-1.576e-06,-3.27827e-12,0,-3.40903e-12,-1.13807e-13,0,0,0,0,0,0,0,0,0,0,0,0,0,0,0,0,0,0,0,0,0,-0.261799,-1.30386e-06,-1.5,0,0,0,3,0,0,0,0,0,0,0,0,1.9603e-19
1960,-3.21239e-12,0,-1.576e-06,-3.27827e-12,0,0,-1.13807e-13,0,0,0,0,0,0,0,0,0,0,0,0,0,0,0,0,0,0,0,0,0,-0.261799,-1.26259e-06,-1.5,0,0,0,3,0,0,0,0,0,0,0,0,1.9603e-19
1970,-3.21239e-12,0,-1.576e-06,-3.27827e-12,0,-3.40903e-12,-1.13808e-13,0,0,0,0,0,0,0,0,0,0,0,0,0,0,0,0,0,0,0,0,0,-0.261799,-1.22263e-06,-1.5,0,0,0,3,0,0,0,0,0,0,0,0,1.9603e-19
1980,-3.21239e-12,0,-1.576e-06,-3.27827e-12,0,0,-1.13808e-13,0,0,0,0,0,0,0,0,0,0,0,0,0,0,0,0,0,0,0,0,0,-0.261799,-1.17915e-06,-1.5,0,0,0,3,0,0,0,0,0,0,0,0,1.9603e-19
1990,-3.21239e-12,0,-1.576e-06,-3.27827e-12,0,-3.40903e-12,-1.13809e-13,0,0,0,0,0,0,0,0,0,0,0,0,0,0,0,0,0,0,0,0,0,-0.261799,-1.14417e-06,-1.5,0,0,0,3,0,0,0,0,0,0,0,0,1.9603e-19
2000,-3.21239e-12,0,-1.576e-06,-3.27827e-12,0,0,-1.13809e-13,0,0,0,0,0,0,0,0,0,0,0,0,0,0,0,0,0,0,0,0,0,-0.261799,-1.11023e-06,-1.5,0,0,0,3,0,0,0,0,0,0,0,0,1.9603e-19
2010,-3.21239e-12,0,-1.576e-06,-3.27827e-12,0,-3.40903e-12,-1.1381e-13,0,0,0,0,0,0,0,0,0,0,0,0,0,0,0,0,0,0,0,0,0,-0.261799,-1.06854e-06,-1.5,0,0,0,3,0,0,0,0,0,0,0,0,1.9603e-19
2020,-3.21239e-12,0,-1.576e-06,-3.27827e-12,0,0,-1.13811e-13,0,0,0,0,0,0,0,0,0,0,0,0,0,0,0,0,0,0,0,0,0,-0.261799,-1.03472e-06,-1.5,0,0,0,3,0,0,0,0,0,0,0,0,1.9603e-19
2030,-3.21239e-12,0,-1.576e-06,-3.27827e-12,0,-3.40903e-12,-1.13811e-13,0,0,0,0,0,0,0,0,0,0,0,0,0,0,0,0,0,0,0,0,0,-0.261799,-1.00199e-06,-1.5,0,0,0,3,0,0,0,0,0,0,0,0,1.9603e-19
2040,-3.21239e-12,0,-1.576e-06,-3.27827e-12,0,0,-1.13812e-13,0,0,0,0,0,0,0,0,0,0,0,0,0,0,0,0,0,0,0,0,0,-0.261799,-9.68329e-07,-1.5,0,0,0,3,0,0,0,0,0,0,0,0,1.9603e-19
2050,-3.21239e-12,0,-1.576e-06,-3.27827e-12,0,-3.40903e-12,-1.13812e-13,0,0,0,0,0,0,0,0,0,0,0,0,0,0,0,0,0,0,0,0,0,-0.261799,-9.39603e-07,-1.5,0,0,0,3,0,0,0,0,0,0,0,0,1.9603e-19
2060,-3.21239e-12,0,-1.576e-06,-3.27827e-12,0,0,-1.13813e-13,0,0,0,0,0,0,0,0,0,0,0,0,0,0,0,0,0,0,0,0,0,-0.261799,-9.11729e-07,-1.5,0,0,0,3,0,0,0,0,0,0,0,0,1.9603e-19
2070,-3.21239e-12,0,-1.576e-06,-3.27827e-12,0,-3.40903e-12,-1.13813e-13,0,0,0,0,0,0,0,0,0,0,0,0,0,0,0,0,0,0,0,0,0,-0.261799,-8.77543e-07,-1.5,0,0,0,3,0,0,0,0,0,0,0,0,1.9603e-19
2080,-3.21239e-12,0,-1.576e-06,-3.27827e-12,0,0,-1.13814e-13,0,0,0,0,0,0,0,0,0,0,0,0,0,0,0,0,0,0,0,0,0,-0.261799,-8.49786e-07,-1.5,0,0,0,3,0,0,0,0,0,0,0,0,1.9603e-19
2090,-3.21239e-12,0,-1.576e-06,-3.27827e-12,0,-3.40903e-12,-1.13814e-13,0,0,0,0,0,0,0,0,0,0,0,0,0,0,0,0,0,0,0,0,0,-0.261799,-8.22908e-07,-1.5,0,0,0,3,0,0,0,0,0,0,0,0,1.9603e-19
2100,-3.21239e-12,0,-1.576e-06,-3.27827e-12,0,0,-1.13815e-13,0,0,0,0,0,0,0,0,0,0,0,0,0,0,0,0,0,0,0,0,0,-0.261799,-7.90414e-07,-1.5,0,0,0,3,0,0,0,0,0,0,0,0,1.9603e-19
2110,-3.21239e-12,0,-1.576e-06,-3.27827e-12,0,-3.40903e-12,-1.13815e-13,0,0,0,0,0,0,0,0,0,0,0,0,0,0,0,0,0,0,0,0,0,-0.261799,-7.66965e-07,-1.5,0,0,0,3,0,0,0,0,0,0,0,0,1.9603e-19
2120,-3.21239e-12,0,-1.576e-06,-3.27827e-12,0,0,-1.13816e-13,0,0,0,0,0,0,0,0,0,0,0,0,0,0,0,0,0,0,0,0,0,-0.261799,-7.44213e-07,-1.5,0,0,0,3,0,0,0,0,0,0,0,0,1.9603e-19
2130,-3.21239e-12,0,-1.576e-06,-3.27827e-12,0,-3.40903e-12,-1.13817e-13,0,0,0,0,0,0,0,0,0,0,0,0,0,0,0,0,0,0,0,0,0,-0.261799,-7.19211e-07,-1.5,0,0,0,3,0,0,0,0,0,0,0,0,1.9603e-19
2140,-3.21239e-12,0,-1.576e-06,-3.27827e-12,0,0,-1.13817e-13,0,0,0,0,0,0,0,0,0,0,0,0,0,0,0,0,0,0,0,0,0,-0.261799,-6.96449e-07,-1.5,0,0,0,3,0,0,0,0,0,0,0,0,1.9603e-19
2150,-3.21239e-12,0,-1.576e-06,-3.27827e-12,0,-3.40903e-12,-1.13818e-13,0,0,0,0,0,0,0,0,0,0,0,0,0,0,0,0,0,0,0,0,0,-0.261799,-6.74406e-07,-1.5,0,0,0,3,0,0,0,0,0,0,0,0,1.9603e-19
2160,-3.21239e-12,0,-1.576e-06,-3.27827e-12,0,0,-1.13818e-13,0,0,0,0,0,0,0,0,0,0,0,0,0,0,0,0,0,0,0,0,0,-0.261799,-6.50407e-07,-1.5,0,0,0,3,0,0,0,0,0,0,0,0,1.9603e-19
2170,-3.21239e-12,0,-1.576e-06,-3.27827e-12,0,-3.40903e-12,-1.13819e-13,0,0,0,0,0,0,0,0,0,0,0,0,0,0,0,0,0,0,0,0,0,-0.261799,-6.33662e-07,-1.5,0,0,0,3,0,0,0,0,0,0,0,0,1.9603e-19
2180,-3.21239e-12,0,-1.576e-06,-3.27827e-12,0,0,-1.13819e-13,0,0,0,0,0,0,0,0,0,0,0,0,0,0,0,0,0,0,0,0,0,-0.261799,-6.17348e-07,-1.5,0,0,0,3,0,0,0,0,0,0,0,0,1.9603e-19
2190,-3.21239e-12,0,-1.576e-06,-3.27827e-12,0,-3.40903e-12,-1.1382e-13,0,0,0,0,0,0,0,0,0,0,0,0,0,0,0,0,0,0,0,0,0,-0.261799,-5.96594e-07,-1.5,0,0,0,3,0,0,0,0,0,0,0,0,1.9603e-19
2200,-3.21239e-12,0,-1.576e-06,-3.27827e-12,0,0,-1.1382e-13,0,0,0,0,0,0,0,0,0,0,0,0,0,0,0,0,0,0,0,0,0,-0.261799,-5.73015e-07,-1.5,0,0,0,3,0,0,0,0,0,0,0,0,1.9603e-19
2210,-3.21239e-12,0,-1.576e-06,-3.27827e-12,0,-3.40903e-12,-1.13821e-13,0,0,0,0,0,0,0,0,0,0,0,0,0,0,0,0,0,0,0,0,0,-0.261799,-4.51121e-07,-1.5,0,0,0,3,0,0,0,0,0,0,0,0,1.9603e-19
2220,-3.21239e-12,0,-1.576e-06,-3.27827e-12,0,0,-1.13821e-13,0,0,0,0,0,0,0,0,0,0,0,0,0,0,0,0,0,0,0,0,0,-0.261799,-3.70533e-07,-1.5,0,0,0,3,0,0,0,0,0,0,0,0,1.9603e-19
2230,-3.21239e-12,0,-1.576e-06,-3.27827e-12,0,-3.40903e-12,-1.13822e-13,0,0,0,0,0,0,0,0,0,0,0,0,0,0,0,0,0,0,0,0,0,-0.261799,-3.55902e-07,-1.5,0,0,0,3,0,0,0,0,0,0,0,0,1.9603e-19
2240,-3.21239e-12,0,-1.576e-06,-3.27827e-12,0,0,-1.13822e-13,0,0,0,0,0,0,0,0,0,0,0,0,0,0,0,0,0,0,0,0,0,-0.261799,-3.44645e-07,-1.5,0,0,0,3,0,0,0,0,0,0,0,0,1.9603e-19
2250,-3.21239e-12,0,-1.576e-06,-3.27827e-12,0,-3.40903e-12,-1.13823e-13,0,0,0,0,0,0,0,0,0,0,0,0,0,0,0,0,0,0,0,0,0,-0.261799,-3.31702e-07,-1.5,0,0,0,3,0,0,0,0,0,0,0,0,1.9603e-19
2260,-3.21239e-12,0,-1.576e-06,-3.27827e-12,0,0,-1.13824e-13,0,0,0,0,0,0,0,0,0,0,0,0,0,0,0,0,0,0,0,0,0,-0.261799,-3.21856e-07,-1.5,0,0,0,3,0,0,0,0,0,0,0,0,1.9603e-19
2270,-3.21239e-12,0,-1.576e-06,-3.27827e-12,0,-3.40903e-12,-1.13824e-13,0,0,0,0,0,0,0,0,0,0,0,0,0,0,0,0,0,0,0,0,0,-0.261799,-3.1105e-07,-1.5,0,0,0,3,0,0,0,0,0,0,0,0,1.9603e-19
2280,-3.21239e-12,0,-1.576e-06,-3.27827e-12,0,0,-1.13825e-13,0,0,0,0,0,0,0,0,0,0,0,0,0,0,0,0,0,0,0,0,0,-0.261799,-2.9999e-07,-1.5,0,0,0,3,0,0,0,0,0,0,0,0,1.9603e-19
2290,-3.21239e-12,0,-1.576e-06,-3.27827e-12,0,-3.40903e-12,-1.13825e-13,0,0,0,0,0,0,0,0,0,0,0,0,0,0,0,0,0,0,0,0,0,-0.261799,-2.90501e-07,-1.5,0,0,0,3,0,0,0,0,0,0,0,0,1.9603e-19
2300,-3.21239e-12,0,-1.576e-06,-3.27827e-12,0,0,-1.13826e-13,0,0,0,0,0,0,0,0,0,0,0,0,0,0,0,0,0,0,0,0,0,-0.261799,-2.81878e-07,-1.5,0,0,0,3,0,0,0,0,0,0,0,0,1.9603e-19
2310,-3.21239e-12,0,-1.576e-06,-3.27827e-12,0,-3.40903e-12,-1.13826e-13,0,0,0,0,0,0,0,0,0,0,0,0,0,0,0,0,0,0,0,0,0,-0.261799,-2.71855e-07,-1.5,0,0,0,3,0,0,0,0,0,0,0,0,1.9603e-19
2320,-3.21239e-12,0,-1.576e-06,-3.27827e-12,0,0,-1.13827e-13,0,0,0,0,0,0,0,0,0,0,0,0,0,0,0,0,0,0,0,0,0,-0.261799,-2.63791e-07,-1.5,0,0,0,3,0,0,0,0,0,0,0,0,1.9603e-19
2330,-3.21239e-12,0,-1.576e-06,-3.27827e-12,0,-3.40903e-12,-1.13827e-13,0,0,0,0,0,0,0,0,0,0,0,0,0,0,0,0,0,0,0,0,0,-0.261799,-2.55447e-07,-1.5,0,0,0,3,0,0,0,0,0,0,0,0,1.9603e-19
2340,-3.21239e-12,0,-1.576e-06,-3.27827e-12,0,0,-1.13828e-13,0,0,0,0,0,0,0,0,0,0,0,0,0,0,0,0,0,0,0,0,0,-0.261799,-2.44848e-07,-1.5,0,0,0,3,0,0,0,0,0,0,0,0,1.9603e-19
2350,-3.21239e-12,0,-1.576e-06,-3.27827e-12,0,-3.40903e-12,-1.13828e-13,0,0,0,0,0,0,0,0,0,0,0,0,0,0,0,0,0,0,0,0,0,-0.261799,-2.37099e-07,-1.5,0,0,0,3,0,0,0,0,0,0,0,0,1.9603e-19
2360,-3.21239e-12,0,-1.576e-06,-3.27827e-12,0,0,-1.13829e-13,0,0,0,0,0,0,0,0,0,0,0,0,0,0,0,0,0,0,0,0,0,-0.261799,-2.29599e-07,-1.5,0,0,0,3,0,0,0,0,0,0,0,0,1.9603e-19
2370,-3.21239e-12,0,-1.576e-06,-3.27827e-12,0,-3.40903e-12,-1.1383e-13,0,0,0,0,0,0,0,0,0,0,0,0,0,0,0,0,0,0,0,0,0,-0.261799,-2.22333e-07,-1.5,0,0,0,3,0,0,0,0,0,0,0,0,1.9603e-19
2380,-3.21239e-12,0,-1.576e-06,-3.27827e-12,0,0,-1.1383e-13,0,0,0,0,0,0,0,0,0,0,0,0,0,0,0,0,0,0,0,0,0,-0.261799,-2.15733e-07,-1.5,0,0,0,3,0,0,0,0,0,0,0,0,1.9603e-19
2390,-3.21239e-12,0,-1.576e-06,-3.27827e-12,0,-3.40903e-12,-1.13831e-13,0,0,0,0,0,0,0,0,0,0,0,0,0,0,0,0,0,0,0,0,0,-0.261799,-2.0891e-07,-1.5,0,0,0,3,0,0,0,0,0,0,0,0,1.9603e-19
2400,-3.21239e-12,0,-1.576e-06,-3.27827e-12,0,0,-1.13831e-13,0,0,0,0,0,0,0,0,0,0,0,0,0,0,0,0,0,0,0,0,0,-0.261799,-2.01887e-07,-1.5,0,0,0,3,0,0,0,0,0,0,0,0,1.9603e-19
2410,-3.21239e-12,0,-1.576e-06,-3.27827e-12,0,-3.40903e-12,-1.13832e-13,0,0,0,0,0,0,0,0,0,0,0,0,0,0,0,0,0,0,0,0,0,-0.261799,-1.96294e-07,-1.5,0,0,0,3,0,0,0,0,0,0,0,0,1.9603e-19
2420,-3.21239e-12,0,-1.576e-06,-3.27827e-12,0,0,-1.13832e-13,0,0,0,0,0,0,0,0,0,0,0,0,0,0,0,0,0,0,0,0,0,-0.261799,-1.90856e-07,-1.5,0,0,0,3,0,0,0,0,0,0,0,0,1.9603e-19
2430,-3.21239e-12,0,-1.576e-06,-3.27827e-12,0,-3.40903e-12,-1.13833e-13,0,0,0,0,0,0,0,0,0,0,0,0,0,0,0,0,0,0,0,0,0,-0.261799,-1.85943e-07,-1.5,0,0,0,3,0,0,0,0,0,0,0,0,1.9603e-19
2440,-3.21239e-12,0,-1.576e-06,-3.27827e-12,0,0,-1.13833e-13,0,0,0,0,0,0,0,0,0,0,0,0,0,0,0,0,0,0,0,0,0,-0.261799,-1.80424e-07,-1.5,0,0,0,3,0,0,0,0,0,0,0,0,1.9603e-19
2450,-3.21239e-12,0,-1.576e-06,-3.27827e-12,0,-3.40903e-12,-1.13834e-13,0,0,0,0,0,0,0,0,0,0,0,0,0,0,0,0,0,0,0,0,0,-0.261799,-1.75068e-07,-1.5,0,0,0,3,0,0,0,0,0,0,0,0,1.9603e-19
2460,-3.21239e-12,0,-1.576e-06,-3.27827e-12,0,0,-1.13834e-13,0,0,0,0,0,0,0,0,0,0,0,0,0,0,0,0,0,0,0,0,0,-0.261799,-1.68499e-07,-1.5,0,0,0,3,0,0,0,0,0,0,0,0,1.9603e-19
2470,-3.21239e-12,0,-1.576e-06,-3.27827e-12,0,-3.40903e-12,-1.13835e-13,0,0,0,0,0,0,0,0,0,0,0,0,0,0,0,0,0,0,0,0,0,-0.261799,-1.63166e-07,-1.5,0,0,0,3,0,0,0,0,0,0,0,0,1.9603e-19
2480,-3.21239e-12,0,-1.576e-06,-3.27827e-12,0,0,-1.13835e-13,0,0,0,0,0,0,0,0,0,0,0,0,0,0,0,0,0,0,0,0,0,-0.261799,-1.58005e-07,-1.5,0,0,0,3,0,0,0,0,0,0,0,0,1.9603e-19
2490,-3.21239e-12,0,-1.576e-06,-3.27827e-12,0,-3.40903e-12,-1.13836e-13,0,0,0,0,0,0,0,0,0,0,0,0,0,0,0,0,0,0,0,0,0,-0.261799,-1.52387e-07,-1.5,0,0,0,3,0,0,0,0,0,0,0,0,1.9603e-19
2500,-3.21239e-12,0,-1.576e-06,-3.27827e-12,0,0,-1.13837e-13,0,0,0,0,0,0,0,0,0,0,0,0,0,0,0,0,0,0,0,0,0,-0.261799,-1.47866e-07,-1.5,0,0,0,3,0,0,0,0,0,0,0,0,1.9603e-19
2510,-3.21239e-12,0,-1.576e-06,-3.27827e-12,0,-3.40903e-12,-1.13837e-13,0,0,0,0,0,0,0,0,0,0,0,0,0,0,0,0,0,0,0,0,0,-0.261799,-1.4348e-07,-1.5,0,0,0,3,0,0,0,0,0,0,0,0,1.9603e-19
2520,-3.21239e-12,0,-1.576e-06,-3.27827e-12,0,0,-1.13838e-13,0,0,0,0,0,0,0,0,0,0,0,0,0,0,0,0,0,0,0,0,0,-0.261799,-1.13523e-07,-1.5,0,0,0,3,0,0,0,0,0,0,0,0,1.9603e-19
2530,-3.21239e-12,0,-1.576e-06,-3.27827e-12,0,-3.40903e-12,-1.13838e-13,0,0,0,0,0,0,0,0,0,0,0,0,0,0,0,0,0,0,0,0,0,-0.261799,-9.81141e-08,-1.5,0,0,0,3,0,0,0,0,0,0,0,0,1.9603e-19
2540,-3.21239e-12,0,-1.576e-06,-3.27827e-12,0,0,-1.13839e-13,0,0,0,0,0,0,0,0,0,0,0,0,0,0,0,0,0,0,0,0,0,-0.261799,-9.52019e-08,-1.5,0,0,0,3,0,0,0,0,0,0,0,0,1.9603e-19
2550,-3.21239e-12,0,-1.576e-06,-3.27827e-12,0,-3.40903e-12,-1.13839e-13,0,0,0,0,0,0,0,0,0,0,0,0,0,0,0,0,0,0,0,0,0,-0.261799,-9.20014e-08,-1.5,0,0,0,3,0,0,0,0,0,0,0,0,1.9603e-19
2560,-3.21239e-12,0,-1.576e-06,-3.27827e-12,0,0,-1.1384e-13,0,0,0,0,0,0,0,0,0,0,0,0,0,0,0,0,0,0,0,0,0,-0.261799,-8.83685e-08,-1.5,0,0,0,3,0,0,0,0,0,0,0,0,1.9603e-19
2570,-3.21239e-12,0,-1.576e-06,-3.27827e-12,0,-3.40903e-12,-1.1384e-13,0,0,0,0,0,0,0,0,0,0,0,0,0,0,0,0,0,0,0,0,0,-0.261799,-8.55734e-08,-1.5,0,0,0,3,0,0,0,0,0,0,0,0,1.9603e-19
2580,-3.21239e-12,0,-1.576e-06,-3.27827e-12,0,0,-1.13841e-13,0,0,0,0,0,0,0,0,0,0,0,0,0,0,0,0,0,0,0,0,0,-0.261799,-8.23598e-08,-1.5,0,0,0,3,0,0,0,0,0,0,0,0,1.9603e-19
2590,-3.21239e-12,0,-1.576e-06,-3.27827e-12,0,-3.40903e-12,-1.13841e-13,0,0,0,0,0,0,0,0,0,0,0,0,0,0,0,0,0,0,0,0,0,-0.261799,-7.97547e-08,-1.5,0,0,0,3,0,0,0,0,0,0,0,0,1.9603e-19
2600,-3.21239e-12,0,-1.576e-06,-3.27827e-12,0,0,-1.13842e-13,0,0,0,0,0,0,0,0,0,0,0,0,0,0,0,0,0,0,0,0,0,-0.261799,-7.73887e-08,-1.5,0,0,0,3,0,0,0,0,0,0,0,0,1.9603e-19
2610,-3.21239e-12,0,-1.576e-06,-3.27827e-12,0,-3.40903e-12,-1.13843e-13,0,0,0,0,0,0,0,0,0,0,0,0,0,0,0,0,0,0,0,0,0,-0.261799,-7.49409e-08,-1.5,0,0,0,3,0,0,0,0,0,0,0,0,1.9603e-19
2620,-3.21239e-12,0,-1.576e-06,-3.27827e-12,0,0,-1.13843e-13,0,0,0,0,0,0,0,0,0,0,0,0,0,0,0,0,0,0,0,0,0,-0.261799,-7.22762e-08,-1.5,0,0,0,3,0,0,0,0,0,0,0,0,1.9603e-19
2630,-3.21239e-12,0,-1.576e-06,-3.27827e-12,0,-3.40903e-12,-1.13844e-13,0,0,0,0,0,0,0,0,0,0,0,0,0,0,0,0,0,0,0,0,0,-0.261799,-6.99901e-08,-1.5,0,0,0,3,0,0,0,0,0,0,0,0,1.9603e-19
2640,-3.21239e-12,0,-1.576e-06,-3.27827e-12,0,0,-1.13844e-13,0,0,0,0,0,0,0,0,0,0,0,0,0,0,0,0,0,0,0,0,0,-0.261799,-6.76371e-08,-1.5,0,0,0,3,0,0,0,0,0,0,0,0,1.9603e-19
2650,-3.21239e-12,0,-1.576e-06,-3.27827e-12,0,-3.40903e-12,-1.13845e-13,0,0,0,0,0,0,0,0,0,0,0,0,0,0,0,0,0,0,0,0,0,-0.261799,-6.57635e-08,-1.5,0,0,0,3,0,0,0,0,0,0,0,0,1.9603e-19
2660,-3.21239e-12,0,-1.576e-06,-3.27827e-12,0,0,-1.13845e-13,0,0,0,0,0,0,0,0,0,0,0,0,0,0,0,0,0,0,0,0,0,-0.261799,-6.40709e-08,-1.5,0,0,0,3,0,0,0,0,0,0,0,0,1.9603e-19
2670,-3.21239e-12,0,-1.576e-06,-3.27827e-12,0,-3.40903e-12,-1.13846e-13,0,0,0,0,0,0,0,0,0,0,0,0,0,0,0,0,0,0,0,0,0,-0.261799,-6.19185e-08,-1.5,0,0,0,3,0,0,0,0,0,0,0,0,1.9603e-19
2680,-3.21239e-12,0,-1.576e-06,-3.27827e-12,0,0,-1.13846e-13,0,0,0,0,0,0,0,0,0,0,0,0,0,0,0,0,0,0,0,0,0,-0.261799,-5.9715e-08,-1.5,0,0,0,3,0,0,0,0,0,0,0,0,1.9603e-19
2690,-3.21239e-12,0,-1.576e-06,-3.27827e-12,0,-3.40903e-12,-1.13847e-13,0,0,0,0,0,0,0,0,0,0,0,0,0,0,0,0,0,0,0,0,0,-0.261799,-5.78251e-08,-1.5,0,0,0,3,0,0,0,0,0,0,0,0,1.9603e-19
2700,-3.21239e-12,0,-1.576e-06,-3.27827e-12,0,0,-1.13847e-13,0,0,0,0,0,0,0,0,0,0,0,0,0,0,0,0,0,0,0,0,0,-0.261799,-5.58811e-08,-1.5,0,0,0,3,0,0,0,0,0,0,0,0,1.9603e-19
2710,-3.21239e-12,0,-1.576e-06,-3.27827e-12,0,-3.40903e-12,-1.13848e-13,0,0,0,0,0,0,0,0,0,0,0,0,0,0,0,0,0,0,0,0,0,-0.261799,-5.41136e-08,-1.5,0,0,0,3,0,0,0,0,0,0,0,0,1.9603e-19
2720,-3.21239e-12,0,-1.576e-06,-3.27827e-12,0,0,-1.13848e-13,0,0,0,0,0,0,0,0,0,0,0,0,0,0,0,0,0,0,0,0,0,-0.261799,-5.25083e-08,-1.5,0,0,0,3,0,0,0,0,0,0,0,0,1.9603e-19
2730,-3.21239e-12,0,-1.576e-06,-3.27827e-12,0,-3.40903e-12,-1.13849e-13,0,0,0,0,0,0,0,0,0,0,0,0,0,0,0,0,0,0,0,0,0,-0.261799,-5.07443e-08,-1.5,0,0,0,3,0,0,0,0,0,0,0,0,1.9603e-19
2740,-3.21239e-12,0,-1.576e-06,-3.27827e-12,0,0,-1.1385e-13,0,0,0,0,0,0,0,0,0,0,0,0,0,0,0,0,0,0,0,0,0,-0.261799,-4.88386e-08,-1.5,0,0,0,3,0,0,0,0,0,0,0,0,1.9603e-19
2750,-3.21239e-12,0,-1.576e-06,-3.27827e-12,0,-3.40903e-12,-1.1385e-13,0,0,0,0,0,0,0,0,0,0,0,0,0,0,0,0,0,0,0,0,0,-0.261799,-4.72929e-08,-1.5,0,0,0,3,0,0,0,0,0,0,0,0,1.9603e-19
2760,-3.21239e-12,0,-1.576e-06,-3.27827e-12,0,0,-1.13851e-13,0,0,0,0,0,0,0,0,0,0,0,0,0,0,0,0,0,0,0,0,0,-0.261799,-4.54254e-08,-1.5,0,0,0,3,0,0,0,0,0,0,0,0,1.9603e-19
2770,-3.21239e-12,0,-1.576e-06,-3.27827e-12,0,-3.40903e-12,-1.13851e-13,0,0,0,0,0,0,0,0,0,0,0,0,0,0,0,0,0,0,0,0,0,-0.261799,-4.40771e-08,-1.5,0,0,0,3,0,0,0,0,0,0,0,0,1.9603e-19
2780,-3.21239e-12,0,-1.576e-06,-3.27827e-12,0,0,-1.13852e-13,0,0,0,0,0,0,0,0,0,0,0,0,0,0,0,0,0,0,0,0,0,-0.261799,-4.27688e-08,-1.5,0,0,0,3,0,0,0,0,0,0,0,0,1.9603e-19
2790,-3.21239e-12,0,-1.576e-06,-3.27827e-12,0,-3.40903e-12,-1.13852e-13,0,0,0,0,0,0,0,0,0,0,0,0,0,0,0,0,0,0,0,0,0,-0.261799,-4.13321e-08,-1.5,0,0,0,3,0,0,0,0,0,0,0,0,1.9603e-19
2800,-3.21239e-12,0,-1.576e-06,-3.27827e-12,0,0,-1.13853e-13,0,0,0,0,0,0,0,0,0,0,0,0,0,0,0,0,0,0,0,0,0,-0.261799,-3.99426e-08,-1.5,0,0,0,3,0,0,0,0,0,0,0,0,1.9603e-19
2810,-3.21239e-12,0,-1.576e-06,-3.27827e-12,0,-3.40903e-12,-1.13853e-13,0,0,0,0,0,0,0,0,0,0,0,0,0,0,0,0,0,0,0,0,0,-0.261799,-3.86784e-08,-1.5,0,0,0,3,0,0,0,0,0,0,0,0,1.9603e-19
2820,-3.21239e-12,0,-1.576e-06,-3.27827e-12,0,0,-1.13854e-13,0,0,0,0,0,0,0,0,0,0,0,0,0,0,0,0,0,0,0,0,0,-0.261799,-3.7302e-08,-1.5,0,0,0,3,0,0,0,0,0,0,0,0,1.9603e-19
2830,-3.21239e-12,0,-1.576e-06,-3.27827e-12,0,-3.40903e-12,-1.13854e-13,0,0,0,0,0,0,0,0,0,0,0,0,0,0,0,0,0,0,0,0,0,-0.261799,-2.92201e-08,-1.5,0,0,0,3,0,0,0,0,0,0,0,0,1.9603e-19
2840,-3.21241e-12,0,0,-3.27827e-12,0,0,-1.13855e-13,0,0,0,0,0,0,0,0,0,0,0,0,0,0,0,0,0,0,0,0,0,-0.261799,-2.51966e-08,-1.5,0,0,0,3,0,0,0,0,0,0,0,0,1.9603e-19
2850,-3.21239e-12,0,-1.576e-06,-3.27827e-12,0,-3.40903e-12,-1.13856e-13,0,0,0,0,0,0,0,0,0,0,0,0,0,0,0,0,0,0,0,0,0,-0.261799,-2.43991e-08,-1.5,0,0,0,3,0,0,0,0,0,0,0,0,1.9603e-19
2860,-3.21239e-12,0,-1.576e-06,-3.27827e-12,0,0,-1.13856e-13,0,0,0,0,0,0,0,0,0,0,0,0,0,0,0,0,0,0,0,0,0,-0.261799,-2.36273e-08,-1.5,0,0,0,3,0,0,0,0,0,0,0,0,1.9603e-19
2870,-3.21239e-12,0,-1.576e-06,-3.27827e-12,0,-3.40903e-12,-1.13857e-13,0,0,0,0,0,0,0,0,0,0,0,0,0,0,0,0,0,0,0,0,0,-0.261799,-2.2926e-08,-1.5,0,0,0,3,0,0,0,0,0,0,0,0,1.9603e-19
2880,-3.21239e-12,0,-1.576e-06,-3.27827e-12,0,0,-1.13857e-13,0,0,0,0,0,0,0,0,0,0,0,0,0,0,0,0,0,0,0,0,0,-0.261799,-2.19297e-08,-1.5,0,0,0,3,0,0,0,0,0,0,0,0,1.9603e-19
2890,-3.21239e-12,0,-1.576e-06,-3.27827e-12,0,-3.40903e-12,-1.13858e-13,0,0,0,0,0,0,0,0,0,0,0,0,0,0,0,0,0,0,0,0,0,-0.261799,-2.11925e-08,-1.5,0,0,0,3,0,0,0,0,0,0,0,0,1.9603e-19
2900,-3.21239e-12,0,-1.576e-06,-3.27827e-12,0,0,-1.13858e-13,0,0,0,0,0,0,0,0,0,0,0,0,0,0,0,0,0,0,0,0,0,-0.261799,-2.06052e-08,-1.5,0,0,0,3,0,0,0,0,0,0,0,0,1.9603e-19
2910,-3.21239e-12,0,-1.576e-06,-3.27827e-12,0,-3.40903e-12,-1.13859e-13,0,0,0,0,0,0,0,0,0,0,0,0,0,0,0,0,0,0,0,0,0,-0.261799,-1.99534e-08,-1.5,0,0,0,3,0,0,0,0,0,0,0,0,1.9603e-19
2920,-3.21239e-12,0,-1.576e-06,-3.27827e-12,0,0,-1.13859e-13,0,0,0,0,0,0,0,0,0,0,0,0,0,0,0,0,0,0,0,0,0,-0.261799,-1.93612e-08,-1.5,0,0,0,3,0,0,0,0,0,0,0,0,1.9603e-19
2930,-3.21239e-12,0,-1.576e-06,-3.27827e-12,0,-3.40903e-12,-1.1386e-13,0,0,0,0,0,0,0,0,0,0,0,0,0,0,0,0,0,0,0,0,0,-0.261799,-1.87865e-08,-1.5,0,0,0,3,0,0,0,0,0,0,0,0,1.9603e-19
2940,-3.21239e-12,0,-1.576e-06,-3.27827e-12,0,0,-1.1386e-13,0,0,0,0,0,0,0,0,0,0,0,0,0,0,0,0,0,0,0,0,0,-0.261799,-1.8081e-08,-1.5,0,0,0,3,0,0,0,0,0,0,0,0,1.9603e-19
2950,-3.21239e-12,0,-1.576e-06,-3.27827e-12,0,-3.40903e-12,-1.13861e-13,0,0,0,0,0,0,0,0,0,0,0,0,0,0,0,0,0,0,0,0,0,-0.261799,-1.74375e-08,-1.5,0,0,0,3,0,0,0,0,0,0,0,0,1.9603e-19
2960,-3.21239e-12,0,-1.576e-06,-3.27827e-12,0,0,-1.13862e-13,0,0,0,0,0,0,0,0,0,0,0,0,0,0,0,0,0,0,0,0,0,-0.261799,-1.68857e-08,-1.5,0,0,0,3,0,0,0,0,0,0,0,0,1.9603e-19
2970,-3.21239e-12,0,-1.576e-06,-3.27827e-12,0,-3.40903e-12,-1.13862e-13,0,0,0,0,0,0,0,0,0,0,0,0,0,0,0,0,0,0,0,0,0,-0.261799,-1.63512e-08,-1.5,0,0,0,3,0,0,0,0,0,0,0,0,1.9603e-19
2980,-3.21239e-12,0,-1.576e-06,-3.27827e-12,0,0,-1.13863e-13,0,0,0,0,0,0,0,0,0,0,0,0,0,0,0,0,0,0,0,0,0,-0.261799,-1.58659e-08,-1.5,0,0,0,3,0,0,0,0,0,0,0,0,1.9603e-19
2990,-3.21239e-12,0,-1.576e-06,-3.27827e-12,0,-3.40903e-12,-1.13863e-13,0,0,0,0,0,0,0,0,0,0,0,0,0,0,0,0,0,0,0,0,0,-0.261799,-1.5395e-08,-1.5,0,0,0,3,0,0,0,0,0,0,0,0,1.9603e-19
3000,-3.21239e-12,0,-1.576e-06,-3.27827e-12,0,0,-1.13864e-13,0,0,0,0,0,0,0,0,0,0,0,0,0,0,0,0,0,0,0,0,0,-0.261799,-1.48475e-08,-1.5,0,0,0,3,0,0,0,0,0,0,0,0,1.9603e-19
3010,-3.21239e-12,0,-1.576e-06,-3.27827e-12,0,-3.40903e-12,-1.13864e-13,0,0,0,0,0,0,0,0,0,0,0,0,0,0,0,0,0,0,0,0,0,-0.261799,-1.43196e-08,-1.5,0,0,0,3,0,0,0,0,0,0,0,0,1.9603e-19
3020,-3.21239e-12,0,-1.576e-06,-3.27827e-12,0,0,-1.13865e-13,0,0,0,0,0,0,0,0,0,0,0,0,0,0,0,0,0,0,0,0,0,-0.261799,-1.38667e-08,-1.5,0,0,0,3,0,0,0,0,0,0,0,0,1.9603e-19
3030,-3.21239e-12,0,-1.576e-06,-3.27827e-12,0,-3.40903e-12,-1.13865e-13,0,0,0,0,0,0,0,0,0,0,0,0,0,0,0,0,0,0,0,0,0,-0.261799,-1.33459e-08,-1.5,0,0,0,3,0,0,0,0,0,0,0,0,1.9603e-19
3040,-3.21239e-12,0,-1.576e-06,-3.27827e-12,0,0,-1.13866e-13,0,0,0,0,0,0,0,0,0,0,0,0,0,0,0,0,0,0,0,0,0,-0.261799,-1.29235e-08,-1.5,0,0,0,3,0,0,0,0,0,0,0,0,1.9603e-19
3050,-3.21239e-12,0,-1.576e-06,-3.27827e-12,0,-3.40903e-12,-1.13866e-13,0,0,0,0,0,0,0,0,0,0,0,0,0,0,0,0,0,0,0,0,0,-0.261799,-1.25399e-08,-1.5,0,0,0,3,0,0,0,0,0,0,0,0,1.9603e-19
3060,-3.21239e-12,0,-1.576e-06,-3.27827e-12,0,0,-1.13867e-13,0,0,0,0,0,0,0,0,0,0,0,0,0,0,0,0,0,0,0,0,0,-0.261799,-1.2143e-08,-1.5,0,0,0,3,0,0,0,0,0,0,0,0,1.9603e-19
3070,-3.21239e-12,0,-1.576e-06,-3.27827e-12,0,-3.40903e-12,-1.13867e-13,0,0,0,0,0,0,0,0,0,0,0,0,0,0,0,0,0,0,0,0,0,-0.261799,-1.17112e-08,-1.5,0,0,0,3,0,0,0,0,0,0,0,0,1.9603e-19
3080,-3.21239e-12,0,-1.576e-06,-3.27827e-12,0,0,-1.13868e-13,0,0,0,0,0,0,0,0,0,0,0,0,0,0,0,0,0,0,0,0,0,-0.261799,-1.13178e-08,-1.5,0,0,0,3,0,0,0,0,0,0,0,0,1.9603e-19
3090,-3.21239e-12,0,-1.576e-06,-3.27827e-12,0,-3.40903e-12,-1.13869e-13,0,0,0,0,0,0,0,0,0,0,0,0,0,0,0,0,0,0,0,0,0,-0.261799,-1.09154e-08,-1.5,0,0,0,3,0,0,0,0,0,0,0,0,1.9603e-19
3100,-3.21239e-12,0,-1.576e-06,-3.27827e-12,0,0,-1.13869e-13,0,0,0,0,0,0,0,0,0,0,0,0,0,0,0,0,0,0,0,0,0,-0.261799,-1.05914e-08,-1.5,0,0,0,3,0,0,0,0,0,0,0,0,1.9603e-19
3110,-3.21239e-12,0,-1.576e-06,-3.27827e-12,0,-3.40903e-12,-1.1387e-13,0,0,0,0,0,0,0,0,0,0,0,0,0,0,0,0,0,0,0,0,0,-0.261799,-1.0277e-08,-1.5,0,0,0,3,0,0,0,0,0,0,0,0,1.9603e-19
3120,-3.21239e-12,0,-1.576e-06,-3.27827e-12,0,0,-1.1387e-13,0,0,0,0,0,0,0,0,0,0,0,0,0,0,0,0,0,0,0,0,0,-0.261799,-9.89107e-09,-1.5,0,0,0,3,0,0,0,0,0,0,0,0,1.9603e-19
3130,-3.21239e-12,0,-1.576e-06,-3.27827e-12,0,-3.40903e-12,-1.13871e-13,0,0,0,0,0,0,0,0,0,0,0,0,0,0,0,0,0,0,0,0,0,-0.261799,-9.57822e-09,-1.5,0,0,0,3,0,0,0,0,0,0,0,0,1.9603e-19
3140,-3.21239e-12,0,-1.576e-06,-3.27827e-12,0,0,-1.13871e-13,0,0,0,0,0,0,0,0,0,0,0,0,0,0,0,0,0,0,0,0,0,-0.261799,-7.55956e-09,-1.5,0,0,0,3,0,0,0,0,0,0,0,0,1.9603e-19
3150,-3.21239e-12,0,-1.576e-06,-3.27827e-12,0,-3.40903e-12,-1.13872e-13,0,0,0,0,0,0,0,0,0,0,0,0,0,0,0,0,0,0,0,0,0,-0.261799,-6.76979e-09,-1.5,0,0,0,3,0,0,0,0,0,0,0,0,1.9603e-19
3160,-3.21239e-12,0,-1.576e-06,-3.27827e-12,0,0,-1.13872e-13,0,0,0,0,0,0,0,0,0,0,0,0,0,0,0,0,0,0,0,0,0,-0.261799,-6.56885e-09,-1.5,0,0,0,3,0,0,0,0,0,0,0,0,1.9603e-19
3170,-3.21239e-12,0,-1.576e-06,-3.27827e-12,0,-3.40903e-12,-1.13873e-13,0,0,0,0,0,0,0,0,0,0,0,0,0,0,0,0,0,0,0,0,0,-0.261799,-6.36108e-09,-1.5,0,0,0,3,0,0,0,0,0,0,0,0,1.9603e-19
3180,-3.21239e-12,0,-1.576e-06,-3.27827e-12,0,0,-1.13873e-13,0,0,0,0,0,0,0,0,0,0,0,0,0,0,0,0,0,0,0,0,0,-0.261799,-6.04742e-09,-1.5,0,0,0,3,0,0,0,0,0,0,0,0,1.9603e-19
3190,-3.21239e-12,0,-1.576e-06,-3.27827e-12,0,-3.40903e-12,-1.13874e-13,0,0,0,0,0,0,0,0,0,0,0,0,0,0,0,0,0,0,0,0,0,-0.261799,-5.85614e-09,-1.5,0,0,0,3,0,0,0,0,0,0,0,0,1.9603e-19
3200,-3.21239e-12,0,-1.576e-06,-3.27827e-12,0,0,-1.13875e-13,0,0,0,0,0,0,0,0,0,0,0,0,0,0,0,0,0,0,0,0,0,-0.261799,-5.68232e-09,-1.5,0,0,0,3,0,0,0,0,0,0,0,0,1.9603e-19
3210,-3.21239e-12,0,-1.576e-06,-3.27827e-12,0,-3.40903e-12,-1.13875e-13,0,0,0,0,0,0,0,0,0,0,0,0,0,0,0,0,0,0,0,0,0,-0.261799,-5.49143e-09,-1.5,0,0,0,3,0,0,0,0,0,0,0,0,1.9603e-19
3220,-3.21239e-12,0,-1.576e-06,-3.27827e-12,0,0,-1.13876e-13,0,0,0,0,0,0,0,0,0,0,0,0,0,0,0,0,0,0,0,0,0,-0.261799,-5.32852e-09,-1.5,0,0,0,3,0,0,0,0,0,0,0,0,1.9603e-19
3230,-3.21239e-12,0,-1.576e-06,-3.27827e-12,0,-3.40903e-12,-1.13876e-13,0,0,0,0,0,0,0,0,0,0,0,0,0,0,0,0,0,0,0,0,0,-0.261799,-5.15998e-09,-1.5,0,0,0,3,0,0,0,0,0,0,0,0,1.9603e-19
3240,-3.21239e-12,0,-1.576e-06,-3.27827e-12,0,0,-1.13877e-13,0,0,0,0,0,0,0,0,0,0,0,0,0,0,0,0,0,0,0,0,0,-0.261799,-4.97636e-09,-1.5,0,0,0,3,0,0,0,0,0,0,0,0,1.9603e-19
3250,-3.21239e-12,0,-1.576e-06,-3.27827e-12,0,-3.40903e-12,-1.13877e-13,0,0,0,0,0,0,0,0,0,0,0,0,0,0,0,0,0,0,0,0,0,-0.261799,-4.81896e-09,-1.5,0,0,0,3,0,0,0,0,0,0,0,0,1.9603e-19
3260,-3.21239e-12,0,-1.576e-06,-3.27827e-12,0,0,-1.13878e-13,0,0,0,0,0,0,0,0,0,0,0,0,0,0,0,0,0,0,0,0,0,-0.261799,-4.66653e-09,-1.5,0,0,0,3,0,0,0,0,0,0,0,0,1.9603e-19
3270,-3.21239e-12,0,-1.576e-06,-3.27827e-12,0,-3.40903e-12,-1.13878e-13,0,0,0,0,0,0,0,0,0,0,0,0,0,0,0,0,0,0,0,0,0,-0.261799,-4.49143e-09,-1.5,0,0,0,3,0,0,0,0,0,0,0,0,1.9603e-19
3280,-3.21239e-12,0,-1.576e-06,-3.27827e-12,0,0,-1.13879e-13,0,0,0,0,0,0,0,0,0,0,0,0,0,0,0,0,0,0,0,0,0,-0.261799,-4.35819e-09,-1.5,0,0,0,3,0,0,0,0,0,0,0,0,1.9603e-19
3290,-3.21239e-12,0,-1.576e-06,-3.27827e-12,0,-3.40903e-12,-1.13879e-13,0,0,0,0,0,0,0,0,0,0,0,0,0,0,0,0,0,0,0,0,0,-0.261799,-4.22034e-09,-1.5,0,0,0,3,0,0,0,0,0,0,0,0,1.9603e-19
3300,-3.21239e-12,0,-1.576e-06,-3.27827e-12,0,0,-1.1388e-13,0,0,0,0,0,0,0,0,0,0,0,0,0,0,0,0,0,0,0,0,0,-0.261799,-4.07856e-09,-1.5,0,0,0,3,0,0,0,0,0,0,0,0,1.9603e-19
3310,-3.21239e-12,0,-1.576e-06,-3.27827e-12,0,-3.40903e-12,-1.1388e-13,0,0,0,0,0,0,0,0,0,0,0,0,0,0,0,0,0,0,0,0,0,-0.261799,-3.94955e-09,-1.5,0,0,0,3,0,0,0,0,0,0,0,0,1.9603e-19
3320,-3.21239e-12,0,-1.576e-06,-3.27827e-12,0,0,-1.13881e-13,0,0,0,0,0,0,0,0,0,0,0,0,0,0,0,0,0,0,0,0,0,-0.261799,-3.83233e-09,-1.5,0,0,0,3,0,0,0,0,0,0,0,0,1.9603e-19
3330,-3.21239e-12,0,-1.576e-06,-3.27827e-12,0,-3.40903e-12,-1.13882e-13,0,0,0,0,0,0,0,0,0,0,0,0,0,0,0,0,0,0,0,0,0,-0.261799,-3.70349e-09,-1.5,0,0,0,3,0,0,0,0,0,0,0,0,1.9603e-19
3340,-3.21239e-12,0,-1.576e-06,-3.27827e-12,0,0,-1.13882e-13,0,0,0,0,0,0,0,0,0,0,0,0,0,0,0,0,0,0,0,0,0,-0.261799,-3.59357e-09,-1.5,0,0,0,3,0,0,0,0,0,0,0,0,1.9603e-19
3350,-3.21239e-12,0,-1.576e-06,-3.27827e-12,0,-3.40903e-12,-1.13883e-13,0,0,0,0,0,0,0,0,0,0,0,0,0,0,0,0,0,0,0,0,0,-0.261799,-3.4799e-09,-1.5,0,0,0,3,0,0,0,0,0,0,0,0,1.9603e-19
3360,-3.21239e-12,0,-1.576e-06,-3.27827e-12,0,0,-1.13883e-13,0,0,0,0,0,0,0,0,0,0,0,0,0,0,0,0,0,0,0,0,0,-0.261799,-3.31497e-09,-1.5,0,0,0,3,0,0,0,0,0,0,0,0,1.9603e-19
3370,-3.21239e-12,0,-1.576e-06,-3.27827e-12,0,-3.40903e-12,-1.13884e-13,0,0,0,0,0,0,0,0,0,0,0,0,0,0,0,0,0,0,0,0,0,-0.261799,-3.21658e-09,-1.5,0,0,0,3,0,0,0,0,0,0,0,0,1.9603e-19
3380,-3.21239e-12,0,-1.576e-06,-3.27827e-12,0,0,-1.13884e-13,0,0,0,0,0,0,0,0,0,0,0,0,0,0,0,0,0,0,0,0,0,-0.261799,-3.07679e-09,-1.5,0,0,0,3,0,0,0,0,0,0,0,0,1.9603e-19
3390,-3.21239e-12,0,-1.576e-06,-3.27827e-12,0,-3.40903e-12,-1.13885e-13,0,0,0,0,0,0,0,0,0,0,0,0,0,0,0,0,0,0,0,0,0,-0.261799,-2.97947e-09,-1.5,0,0,0,3,0,0,0,0,0,0,0,0,1.9603e-19
3400,-3.21239e-12,0,-1.576e-06,-3.27827e-12,0,0,-1.13885e-13,0,0,0,0,0,0,0,0,0,0,0,0,0,0,0,0,0,0,0,0,0,-0.261799,-2.89108e-09,-1.5,0,0,0,3,0,0,0,0,0,0,0,0,1.9603e-19
3410,-3.21239e-12,0,-1.576e-06,-3.27827e-12,0,-3.40903e-12,-1.13886e-13,0,0,0,0,0,0,0,0,0,0,0,0,0,0,0,0,0,0,0,0,0,-0.261799,-2.79389e-09,-1.5,0,0,0,3,0,0,0,0,0,0,0,0,1.9603e-19
3420,-3.21239e-12,0,-1.576e-06,-3.27827e-12,0,0,-1.13886e-13,0,0,0,0,0,0,0,0,0,0,0,0,0,0,0,0,0,0,0,0,0,-0.261799,-2.68905e-09,-1.5,0,0,0,3,0,0,0,0,0,0,0,0,1.9603e-19
3430,-3.21239e-12,0,-1.576e-06,-3.27827e-12,0,-3.40903e-12,-1.13887e-13,0,0,0,0,0,0,0,0,0,0,0,0,0,0,0,0,0,0,0,0,0,-0.261799,-2.60924e-09,-1.5,0,0,0,3,0,0,0,0,0,0,0,0,1.9603e-19
3440,-3.21239e-12,0,-1.576e-06,-3.27827e-12,0,0,-1.13888e-13,0,0,0,0,0,0,0,0,0,0,0,0,0,0,0,0,0,0,0,0,0,-0.261799,-2.20312e-09,-1.5,0,0,0,3,0,0,0,0,0,0,0,0,1.9603e-19
3450,-3.21239e-12,0,-1.576e-06,-3.27827e-12,0,-3.40903e-12,-1.13888e-13,0,0,0,0,0,0,0,0,0,0,0,0,0,0,0,0,0,0,0,0,0,-0.261799,-2.12478e-09,-1.5,0,0,0,3,0,0,0,0,0,0,0,0,1.9603e-19
3460,-3.21239e-12,0,-1.576e-06,-3.27827e-12,0,0,-1.13889e-13,0,0,0,0,0,0,0,0,0,0,0,0,0,0,0,0,0,0,0,0,0,-0.261799,-2.06171e-09,-1.5,0,0,0,3,0,0,0,0,0,0,0,0,1.9603e-19
3470,-3.21239e-12,0,-1.576e-06,-3.27827e-12,0,-3.40903e-12,-1.13889e-13,0,0,0,0,0,0,0,0,0,0,0,0,0,0,0,0,0,0,0,0,0,-0.261799,-1.9965e-09,-1.5,0,0,0,3,0,0,0,0,0,0,0,0,1.9603e-19
3480,-3.21239e-12,0,-1.576e-06,-3.27827e-12,0,0,-1.1389e-13,0,0,0,0,0,0,0,0,0,0,0,0,0,0,0,0,0,0,0,0,0,-0.261799,-1.93727e-09,-1.5,0,0,0,3,0,0,0,0,0,0,0,0,1.9603e-19
3490,-3.21239e-12,0,-1.576e-06,-3.27827e-12,0,-3.40903e-12,-1.1389e-13,0,0,0,0,0,0,0,0,0,0,0,0,0,0,0,0,0,0,0,0,0,-0.261799,-1.87223e-09,-1.5,0,0,0,3,0,0,0,0,0,0,0,0,1.9603e-19
