timestamp,A_x,A_y,A_z,P,Q,R,Phi,Theta,Psi,poseX,poseY,poseZ,state_X,state_Y,state_Z,state_VzB,state_Bx,state_By,state_Bz,p1_x,p1_y,p2_x,p2_y,p3_x,p3_y,p4_x,p4_y,roll,pitch,yaw,alt,targetHeading,highLevelState,lowLevelState,gateNumber,filtered_x,filtered_y,x_OT,y_OT,vx_OT,vy_OT,filtered_vx,filtered_vygateArea
10,0,0,0,0,0,0,0,0,0,0,0,0,0,0,0,0,0,0,0,0,0,0,0,0,0,0,0,0,-0.261799,0.00779127,-1.5,-nan,0,0,3,0,0,0,0,0,0,0,0,1.9603e-19
20,0,0,0,0,0,0,0,0,0,0,0,0,0,0,0,0,0,0,0,0,0,0,0,0,0,0,0,0,-0.261799,0.00752953,-1.5,-nan,0,0,3,0,0,0,0,0,0,0,0,1.9603e-19
30,-3.21239e-12,8.02853e-38,-1.57088e-06,-3.27827e-12,8.02805e-38,-3.40903e-12,-1.13703e-13,0,0,0,0,0,0,0,0,0,0,0,0,0,0,0,0,0,0,0,0,0,-0.261799,-0.00151159,-1.5,-nan,0,0,3,0,0,0,0,0,0,0,0,1.9603e-19
40,-3.21239e-12,8.02853e-38,-1.57088e-06,-3.27827e-12,8.02805e-38,0,-1.13703e-13,0,0,0,0,0,0,0,0,0,0,0,0,0,0,0,0,0,0,0,0,0,-0.261799,-0.00146375,-1.5,-nan,0,0,3,0,0,0,0,0,0,0,0,1.9603e-19
50,-3.21239e-12,8.02853e-38,-1.57088e-06,-3.27827e-12,8.02805e-38,-3.40903e-12,-1.13704e-13,0,0,0,0,0,0,0,0,0,0,0,0,0,0,0,0,0,0,0,0,0,-0.261799,-0.00141745,-1.5,-nan,0,0,3,0,0,0,0,0,0,0,0,1.9603e-19
60,-3.21239e-12,8.02853e-38,-1.57088e-06,-3.27827e-12,8.02805e-38,0,-1.13704e-13,0,0,0,0,0,0,0,0,0,0,0,0,0,0,0,0,0,0,0,0,0,-0.261799,-0.00137538,-1.5,-nan,0,0,3,0,0,0,0,0,0,0,0,1.9603e-19
70,-3.21239e-12,8.02853e-38,-1.57088e-06,-3.27827e-12,8.02805e-38,-3.40903e-12,-1.13705e-13,0,0,0,0,0,0,0,0,0,0,0,0,0,0,0,0,0,0,0,0,0,-0.261799,-0.00133456,-1.5,-nan,0,0,3,0,0,0,0,0,0,0,0,1.9603e-19
80,-3.21239e-12,8.02853e-38,-1.57088e-06,-3.27827e-12,8.02805e-38,0,-1.13705e-13,0,0,0,0,0,0,0,0,0,0,0,0,0,0,0,0,0,0,0,0,0,-0.261799,-0.00129235,-1.5,-nan,0,0,3,0,0,0,0,0,0,0,0,1.9603e-19
90,-3.21239e-12,8.02853e-38,-1.57088e-06,-3.27827e-12,8.02805e-38,-3.40903e-12,-1.13706e-13,0,0,0,0,0,0,0,0,0,0,0,0,0,0,0,0,0,0,0,0,0,-0.261799,-0.00125401,-1.5,-nan,0,0,3,0,0,0,0,0,0,0,0,1.9603e-19
100,-3.21239e-12,8.02853e-38,-1.57088e-06,-3.27827e-12,8.02805e-38,0,-1.13706e-13,0,0,0,0,0,0,0,0,0,0,0,0,0,0,0,0,0,0,0,0,0,-0.261799,-0.00121679,-1.5,-nan,0,0,3,0,0,0,0,0,0,0,0,1.9603e-19
110,-3.21239e-12,8.02853e-38,-1.57088e-06,-3.27827e-12,8.02805e-38,-3.40903e-12,-1.13707e-13,0,0,0,0,0,0,0,0,0,0,0,0,0,0,0,0,0,0,0,0,0,-0.261799,-0.0011783,-1.5,-nan,0,0,3,0,0,0,0,0,0,0,0,1.9603e-19
120,-3.21239e-12,8.02853e-38,-1.57088e-06,-3.27827e-12,8.02805e-38,0,-1.13708e-13,0,0,0,0,0,0,0,0,0,0,0,0,0,0,0,0,0,0,0,0,0,-0.261799,-0.00106679,-1.5,-nan,0,0,3,0,0,0,0,0,0,0,0,1.9603e-19
130,-3.21239e-12,8.02853e-38,-1.57088e-06,-3.27827e-12,8.02805e-38,-3.40903e-12,-1.13708e-13,0,0,0,0,0,0,0,0,0,0,0,0,0,0,0,0,0,0,0,0,0,-0.261799,-0.00100154,-1.5,-nan,0,0,3,0,0,0,0,0,0,0,0,1.9603e-19
140,-3.21239e-12,8.02853e-38,-1.57088e-06,-3.27827e-12,8.02805e-38,0,-1.13709e-13,0,0,0,0,0,0,0,0,0,0,0,0,0,0,0,0,0,0,0,0,0,-0.261799,-0.000812477,-1.5,-nan,0,0,3,0,0,0,0,0,0,0,0,1.9603e-19
150,-3.21239e-12,8.02853e-38,-1.57088e-06,-3.27827e-12,8.02805e-38,-3.40903e-12,-1.13709e-13,0,0,0,0,0,0,0,0,0,0,0,0,0,0,0,0,0,0,0,0,0,-0.261799,-0.000663631,-1.5,-nan,0,0,3,0,0,0,0,0,0,0,0,1.9603e-19
160,-3.21239e-12,8.02853e-38,-1.57088e-06,-3.27827e-12,8.02805e-38,0,-1.1371e-13,0,0,0,0,0,0,0,0,0,0,0,0,0,0,0,0,0,0,0,0,0,-0.261799,-0.00064264,-1.5,-nan,0,0,3,0,0,0,0,0,0,0,0,1.9603e-19
170,-3.21239e-12,8.02853e-38,-1.57088e-06,-3.27827e-12,8.02805e-38,-3.40903e-12,-1.1371e-13,0,0,0,0,0,0,0,0,0,0,0,0,0,0,0,0,0,0,0,0,0,-0.261799,-0.00061474,-1.5,-nan,0,0,3,0,0,0,0,0,0,0,0,1.9603e-19
180,-3.21239e-12,8.02853e-38,-1.57088e-06,-3.27827e-12,8.02805e-38,0,-1.13711e-13,0,0,0,0,0,0,0,0,0,0,0,0,0,0,0,0,0,0,0,0,0,-0.261799,-0.000559071,-1.5,-nan,0,0,3,0,0,0,0,0,0,0,0,1.9603e-19
190,-3.21239e-12,8.02853e-38,-1.57088e-06,-3.27827e-12,8.02805e-38,-3.40903e-12,-1.13711e-13,0,0,0,0,0,0,0,0,0,0,0,0,0,0,0,0,0,0,0,0,0,-0.261799,-0.000531504,-1.5,-nan,0,0,3,0,0,0,0,0,0,0,0,1.9603e-19
200,-3.21239e-12,8.02853e-38,-1.57088e-06,-3.27827e-12,8.02805e-38,0,-1.13712e-13,0,0,0,0,0,0,0,0,0,0,0,0,0,0,0,0,0,0,0,0,0,-0.261799,-0.000515728,-1.5,-nan,0,0,3,0,0,0,0,0,0,0,0,1.9603e-19
210,-3.21239e-12,8.02853e-38,-1.57088e-06,-3.27827e-12,8.02805e-38,-3.40903e-12,-1.13712e-13,0,0,0,0,0,0,0,0,0,0,0,0,0,0,0,0,0,0,0,0,0,-0.261799,-0.000491285,-1.5,-nan,0,0,3,0,0,0,0,0,0,0,0,1.9603e-19
220,-3.21239e-12,8.02853e-38,-1.57088e-06,-3.27827e-12,8.02805e-38,0,-1.13713e-13,0,0,0,0,0,0,0,0,0,0,0,0,0,0,0,0,0,0,0,0,0,-0.261799,-0.000469934,-1.5,-nan,0,0,3,0,0,0,0,0,0,0,0,1.9603e-19
230,-3.21239e-12,8.02853e-38,-1.57088e-06,-3.27827e-12,8.02805e-38,-3.40903e-12,-1.13714e-13,0,0,0,0,0,0,0,0,0,0,0,0,0,0,0,0,0,0,0,0,0,-0.261799,-0.000456916,-1.5,-nan,0,0,3,0,0,0,0,0,0,0,0,1.9603e-19
240,-3.21239e-12,8.02853e-38,-1.57088e-06,-3.27827e-12,8.02805e-38,0,-1.13714e-13,0,0,0,0,0,0,0,0,0,0,0,0,0,0,0,0,0,0,0,0,0,-0.261799,-0.000442464,-1.5,-nan,0,0,3,0,0,0,0,0,0,0,0,1.9603e-19
250,-3.21239e-12,8.02853e-38,-1.57088e-06,-3.27827e-12,8.02805e-38,-3.40903e-12,-1.13715e-13,0,0,0,0,0,0,0,0,0,0,0,0,0,0,0,0,0,0,0,0,0,-0.261799,-0.000428469,-1.5,-nan,0,0,3,0,0,0,0,0,0,0,0,1.9603e-19
260,-3.21239e-12,8.02853e-38,-1.57088e-06,-3.27827e-12,8.02805e-38,0,-1.13715e-13,0,0,0,0,0,0,0,0,0,0,0,0,0,0,0,0,0,0,0,0,0,-0.261799,-0.000415751,-1.5,-nan,0,0,3,0,0,0,0,0,0,0,0,1.9603e-19
270,-3.21239e-12,8.02853e-38,-1.57088e-06,-3.27827e-12,8.02805e-38,-3.40903e-12,-1.13716e-13,0,0,0,0,0,0,0,0,0,0,0,0,0,0,0,0,0,0,0,0,0,-0.261799,-0.000403411,-1.5,-nan,0,0,3,0,0,0,0,0,0,0,0,1.9603e-19
280,-3.21239e-12,8.02853e-38,-1.57088e-06,-3.27827e-12,8.02805e-38,0,-1.13716e-13,0,0,0,0,0,0,0,0,0,0,0,0,0,0,0,0,0,0,0,0,0,-0.261799,-0.000391437,-1.5,-nan,0,0,3,0,0,0,0,0,0,0,0,1.9603e-19
290,-3.21239e-12,8.02853e-38,-1.57088e-06,-3.27827e-12,8.02805e-38,-3.40903e-12,-1.13717e-13,0,0,0,0,0,0,0,0,0,0,0,0,0,0,0,0,0,0,0,0,0,-0.261799,-0.000379819,-1.5,-nan,0,0,3,0,0,0,0,0,0,0,0,1.9603e-19
300,-3.21239e-12,8.02853e-38,-1.57088e-06,-3.27827e-12,8.02805e-38,0,-1.13717e-13,0,0,0,0,0,0,0,0,0,0,0,0,0,0,0,0,0,0,0,0,0,-0.261799,-0.000365576,-1.5,-nan,0,0,3,0,0,0,0,0,0,0,0,1.9603e-19
310,-3.21239e-12,8.02853e-38,-1.57088e-06,-3.27827e-12,8.02805e-38,-3.40903e-12,-1.13718e-13,0,0,0,0,0,0,0,0,0,0,0,0,0,0,0,0,0,0,0,0,0,-0.261799,-0.000354005,-1.5,-nan,0,0,3,0,0,0,0,0,0,0,0,1.9603e-19
320,-3.21239e-12,8.02853e-38,-1.57088e-06,-3.27827e-12,8.02805e-38,0,-1.13718e-13,0,0,0,0,0,0,0,0,0,0,0,0,0,0,0,0,0,0,0,0,0,-0.261799,-0.000342808,-1.5,-nan,0,0,3,0,0,0,0,0,0,0,0,1.9603e-19
330,-3.21239e-12,8.02853e-38,-1.57088e-06,-3.27827e-12,8.02805e-38,-3.40903e-12,-1.13719e-13,0,0,0,0,0,0,0,0,0,0,0,0,0,0,0,0,0,0,0,0,0,-0.261799,-0.000332633,-1.5,-nan,0,0,3,0,0,0,0,0,0,0,0,1.9603e-19
340,-3.21239e-12,8.02853e-38,-1.57088e-06,-3.27827e-12,8.02805e-38,0,-1.13719e-13,0,0,0,0,0,0,0,0,0,0,0,0,0,0,0,0,0,0,0,0,0,-0.261799,-0.000322112,-1.5,-nan,0,0,3,0,0,0,0,0,0,0,0,1.9603e-19
350,-3.21239e-12,8.02853e-38,-1.57088e-06,-3.27827e-12,8.02805e-38,-3.40903e-12,-1.1372e-13,0,0,0,0,0,0,0,0,0,0,0,0,0,0,0,0,0,0,0,0,0,-0.261799,-0.000312556,-1.5,-nan,0,0,3,0,0,0,0,0,0,0,0,1.9603e-19
360,-3.21239e-12,8.02853e-38,-1.57088e-06,-3.27827e-12,8.02805e-38,0,-1.13721e-13,0,0,0,0,0,0,0,0,0,0,0,0,0,0,0,0,0,0,0,0,0,-0.261799,-0.000302664,-1.5,-nan,0,0,3,0,0,0,0,0,0,0,0,1.9603e-19
370,-3.21239e-12,8.02853e-38,-1.57088e-06,-3.27827e-12,8.02805e-38,-3.40903e-12,-1.13721e-13,0,0,0,0,0,0,0,0,0,0,0,0,0,0,0,0,0,0,0,0,0,-0.261799,-0.000293085,-1.5,-nan,0,0,3,0,0,0,0,0,0,0,0,1.9603e-19
380,-3.21239e-12,8.02853e-38,-1.57088e-06,-3.27827e-12,8.02805e-38,0,-1.13722e-13,0,0,0,0,0,0,0,0,0,0,0,0,0,0,0,0,0,0,0,0,0,-0.261799,-0.000283814,-1.5,-nan,0,0,3,0,0,0,0,0,0,0,0,1.9603e-19
390,-3.21239e-12,8.02853e-38,-1.57088e-06,-3.27827e-12,8.02805e-38,-3.40903e-12,-1.13722e-13,0,0,0,0,0,0,0,0,0,0,0,0,0,0,0,0,0,0,0,0,0,-0.261799,-0.00027539,-1.5,-nan,0,0,3,0,0,0,0,0,0,0,0,1.9603e-19
400,-3.21239e-12,8.02853e-38,-1.57088e-06,-3.27827e-12,8.02805e-38,0,-1.13723e-13,0,0,0,0,0,0,0,0,0,0,0,0,0,0,0,0,0,0,0,0,0,-0.261799,-0.000267216,-1.5,-nan,0,0,3,0,0,0,0,0,0,0,0,1.9603e-19
410,-3.21239e-12,8.02853e-38,-1.57088e-06,-3.27827e-12,8.02805e-38,-3.40903e-12,-1.13723e-13,0,0,0,0,0,0,0,0,0,0,0,0,0,0,0,0,0,0,0,0,0,-0.261799,-0.000259289,-1.5,-nan,0,0,3,0,0,0,0,0,0,0,0,1.9603e-19
420,-3.21239e-12,8.02853e-38,-1.57088e-06,-3.27827e-12,8.02805e-38,0,-1.13724e-13,0,0,0,0,0,0,0,0,0,0,0,0,0,0,0,0,0,0,0,0,0,-0.261799,-0.000251597,-1.5,-nan,0,0,3,0,0,0,0,0,0,0,0,1.9603e-19
430,-3.21239e-12,8.02853e-38,-1.57088e-06,-3.27827e-12,8.02805e-38,-3.40903e-12,-1.13724e-13,0,0,0,0,0,0,0,0,0,0,0,0,0,0,0,0,0,0,0,0,0,-0.261799,-0.000241653,-1.5,-nan,0,0,3,0,0,0,0,0,0,0,0,1.9603e-19
440,-3.21239e-12,8.02853e-38,-1.57088e-06,-3.27827e-12,8.02805e-38,0,-1.13725e-13,0,0,0,0,0,0,0,0,0,0,0,0,0,0,0,0,0,0,0,0,0,-0.261799,-0.000234959,-1.5,-nan,0,0,3,0,0,0,0,0,0,0,0,1.9603e-19
450,-3.21239e-12,8.02853e-38,-1.57088e-06,-3.27827e-12,8.02805e-38,-3.40903e-12,-1.13725e-13,0,0,0,0,0,0,0,0,0,0,0,0,0,0,0,0,0,0,0,0,0,-0.261799,-0.000228451,-1.5,-nan,0,0,3,0,0,0,0,0,0,0,0,1.9603e-19
460,-3.21239e-12,8.02853e-38,-1.57088e-06,-3.27827e-12,8.02805e-38,0,-1.13726e-13,0,0,0,0,0,0,0,0,0,0,0,0,0,0,0,0,0,0,0,0,0,-0.261799,-0.00022167,-1.5,-nan,0,0,3,0,0,0,0,0,0,0,0,1.9603e-19
470,-3.21239e-12,8.02853e-38,-1.57088e-06,-3.27827e-12,8.02805e-38,-3.40903e-12,-1.13727e-13,0,0,0,0,0,0,0,0,0,0,0,0,0,0,0,0,0,0,0,0,0,-0.261799,-0.00021509,-1.5,-nan,0,0,3,0,0,0,0,0,0,0,0,1.9603e-19
480,-3.21239e-12,8.02853e-38,-1.57088e-06,-3.27827e-12,8.02805e-38,0,-1.13727e-13,0,0,0,0,0,0,0,0,0,0,0,0,0,0,0,0,0,0,0,0,0,-0.261799,-0.000208706,-1.5,-nan,0,0,3,0,0,0,0,0,0,0,0,1.9603e-19
490,-3.21239e-12,8.02853e-38,-1.57088e-06,-3.27827e-12,8.02805e-38,-3.40903e-12,-1.13728e-13,0,0,0,0,0,0,0,0,0,0,0,0,0,0,0,0,0,0,0,0,0,-0.261799,-0.000200875,-1.5,-nan,0,0,3,0,0,0,0,0,0,0,0,1.9603e-19
500,-3.21239e-12,8.02853e-38,-1.57088e-06,-3.27827e-12,8.02805e-38,0,-1.13728e-13,0,0,0,0,0,0,0,0,0,0,0,0,0,0,0,0,0,0,0,0,0,-0.261799,-0.000194517,-1.5,-nan,0,0,3,0,0,0,0,0,0,0,0,1.9603e-19
510,-3.21239e-12,8.02853e-38,-1.57088e-06,-3.27827e-12,8.02805e-38,-3.40903e-12,-1.13729e-13,0,0,0,0,0,0,0,0,0,0,0,0,0,0,0,0,0,0,0,0,0,-0.261799,-0.000155888,-1.5,-nan,0,0,3,0,0,0,0,0,0,0,0,1.9603e-19
520,-3.21239e-12,8.02853e-38,-1.57088e-06,-3.27827e-12,8.02805e-38,0,-1.13729e-13,0,0,0,0,0,0,0,0,0,0,0,0,0,0,0,0,0,0,0,0,0,-0.261799,-0.000151261,-1.5,-nan,0,0,3,0,0,0,0,0,0,0,0,1.9603e-19
530,-3.21239e-12,8.02853e-38,-1.57088e-06,-3.27827e-12,8.02805e-38,-3.40903e-12,-1.1373e-13,0,0,0,0,0,0,0,0,0,0,0,0,0,0,0,0,0,0,0,0,0,-0.261799,-0.000144687,-1.5,-nan,0,0,3,0,0,0,0,0,0,0,0,1.9603e-19
540,-3.21239e-12,8.02853e-38,-1.57088e-06,-3.27827e-12,8.02805e-38,0,-1.1373e-13,0,0,0,0,0,0,0,0,0,0,0,0,0,0,0,0,0,0,0,0,0,-0.261799,-0.000140111,-1.5,-nan,0,0,3,0,0,0,0,0,0,0,0,1.9603e-19
550,-3.21239e-12,8.02853e-38,-1.57088e-06,-3.27827e-12,8.02805e-38,-3.40903e-12,-1.13731e-13,0,0,0,0,0,0,0,0,0,0,0,0,0,0,0,0,0,0,0,0,0,-0.261799,-0.000135954,-1.5,-nan,0,0,3,0,0,0,0,0,0,0,0,1.9603e-19
560,-3.21239e-12,8.02853e-38,-1.57088e-06,-3.27827e-12,8.02805e-38,0,-1.13731e-13,0,0,0,0,0,0,0,0,0,0,0,0,0,0,0,0,0,0,0,0,0,-0.261799,-0.000130586,-1.5,-nan,0,0,3,0,0,0,0,0,0,0,0,1.9603e-19
570,-3.21239e-12,8.02853e-38,-1.57088e-06,-3.27827e-12,8.02805e-38,-3.40903e-12,-1.13732e-13,0,0,0,0,0,0,0,0,0,0,0,0,0,0,0,0,0,0,0,0,0,-0.261799,-0.000126453,-1.5,-nan,0,0,3,0,0,0,0,0,0,0,0,1.9603e-19
580,-3.21239e-12,8.02853e-38,-1.57088e-06,-3.27827e-12,8.02805e-38,0,-1.13732e-13,0,0,0,0,0,0,0,0,0,0,0,0,0,0,0,0,0,0,0,0,0,-0.261799,-0.000121956,-1.5,-nan,0,0,3,0,0,0,0,0,0,0,0,1.9603e-19
590,-3.21239e-12,8.02853e-38,-1.57088e-06,-3.27827e-12,8.02805e-38,-3.40903e-12,-1.13733e-13,0,0,0,0,0,0,0,0,0,0,0,0,0,0,0,0,0,0,0,0,0,-0.261799,-0.000118337,-1.5,-nan,0,0,3,0,0,0,0,0,0,0,0,1.9603e-19
600,-3.21239e-12,8.02853e-38,-1.57088e-06,-3.27827e-12,8.02805e-38,0,-1.13734e-13,0,0,0,0,0,0,0,0,0,0,0,0,0,0,0,0,0,0,0,0,0,-0.261799,-0.000114824,-1.5,-nan,0,0,3,0,0,0,0,0,0,0,0,1.9603e-19
610,-3.21239e-12,8.02853e-38,-1.57088e-06,-3.27827e-12,8.02805e-38,-3.40903e-12,-1.13734e-13,0,0,0,0,0,0,0,0,0,0,0,0,0,0,0,0,0,0,0,0,0,-0.261799,-0.00011119,-1.5,-nan,0,0,3,0,0,0,0,0,0,0,0,1.9603e-19
620,-3.21239e-12,8.02853e-38,-1.57088e-06,-3.27827e-12,8.02805e-38,0,-1.13735e-13,0,0,0,0,0,0,0,0,0,0,0,0,0,0,0,0,0,0,0,0,0,-0.261799,-0.000107236,-1.5,-nan,0,0,3,0,0,0,0,0,0,0,0,1.9603e-19
630,-3.21239e-12,8.02853e-38,-1.57088e-06,-3.27827e-12,8.02805e-38,-3.40903e-12,-1.13735e-13,0,0,0,0,0,0,0,0,0,0,0,0,0,0,0,0,0,0,0,0,0,-0.261799,-0.000103634,-1.5,-nan,0,0,3,0,0,0,0,0,0,0,0,1.9603e-19
640,-3.21239e-12,8.02853e-38,-1.57088e-06,-3.27827e-12,8.02805e-38,0,-1.13736e-13,0,0,0,0,0,0,0,0,0,0,0,0,0,0,0,0,0,0,0,0,0,-0.261799,-9.99486e-05,-1.5,-nan,0,0,3,0,0,0,0,0,0,0,0,1.9603e-19
650,-3.21239e-12,8.02853e-38,-1.57088e-06,-3.27827e-12,8.02805e-38,-3.40903e-12,-1.13736e-13,0,0,0,0,0,0,0,0,0,0,0,0,0,0,0,0,0,0,0,0,0,-0.261799,-9.73754e-05,-1.5,-nan,0,0,3,0,0,0,0,0,0,0,0,1.9603e-19
660,-3.21239e-12,8.02853e-38,-1.57088e-06,-3.27827e-12,8.02805e-38,0,-1.13737e-13,0,0,0,0,0,0,0,0,0,0,0,0,0,0,0,0,0,0,0,0,0,-0.261799,-9.37216e-05,-1.5,-nan,0,0,3,0,0,0,0,0,0,0,0,1.9603e-19
670,-3.21239e-12,8.02853e-38,-1.57088e-06,-3.27827e-12,8.02805e-38,-3.40903e-12,-1.13737e-13,0,0,0,0,0,0,0,0,0,0,0,0,0,0,0,0,0,0,0,0,0,-0.261799,-9.09413e-05,-1.5,-nan,0,0,3,0,0,0,0,0,0,0,0,1.9603e-19
680,-3.21239e-12,8.02853e-38,-1.57088e-06,-3.27827e-12,8.02805e-38,0,-1.13738e-13,0,0,0,0,0,0,0,0,0,0,0,0,0,0,0,0,0,0,0,0,0,-0.261799,-8.73503e-05,-1.5,-nan,0,0,3,0,0,0,0,0,0,0,0,1.9603e-19
690,-3.21239e-12,8.02853e-38,-1.57088e-06,-3.27827e-12,8.02805e-38,-3.40903e-12,-1.13738e-13,0,0,0,0,0,0,0,0,0,0,0,0,0,0,0,0,0,0,0,0,0,-0.261799,-8.44138e-05,-1.5,-nan,0,0,3,0,0,0,0,0,0,0,0,1.9603e-19
700,-3.21239e-12,8.02853e-38,-1.57088e-06,-3.27827e-12,8.02805e-38,0,-1.13739e-13,0,0,0,0,0,0,0,0,0,0,0,0,0,0,0,0,0,0,0,0,0,-0.261799,-8.17438e-05,-1.5,-nan,0,0,3,0,0,0,0,0,0,0,0,1.9603e-19
710,-3.21239e-12,8.02853e-38,-1.57088e-06,-3.27827e-12,8.02805e-38,-3.40903e-12,-1.1374e-13,0,0,0,0,0,0,0,0,0,0,0,0,0,0,0,0,0,0,0,0,0,-0.261799,-7.81913e-05,-1.5,-nan,0,0,3,0,0,0,0,0,0,0,0,1.9603e-19
720,-3.21239e-12,8.02853e-38,-1.57088e-06,-3.27827e-12,8.02805e-38,0,-1.1374e-13,0,0,0,0,0,0,0,0,0,0,0,0,0,0,0,0,0,0,0,0,0,-0.261799,-7.55645e-05,-1.5,-nan,0,0,3,0,0,0,0,0,0,0,0,1.9603e-19
730,-3.21239e-12,8.02853e-38,-1.57088e-06,-3.27827e-12,8.02805e-38,-3.40903e-12,-1.13741e-13,0,0,0,0,0,0,0,0,0,0,0,0,0,0,0,0,0,0,0,0,0,-0.261799,-7.3026e-05,-1.5,-nan,0,0,3,0,0,0,0,0,0,0,0,1.9603e-19
740,-3.21239e-12,8.02853e-38,-1.57088e-06,-3.27827e-12,8.02805e-38,0,-1.13741e-13,0,0,0,0,0,0,0,0,0,0,0,0,0,0,0,0,0,0,0,0,0,-0.261799,-6.98555e-05,-1.5,-nan,0,0,3,0,0,0,0,0,0,0,0,1.9603e-19
750,-3.21239e-12,8.02853e-38,-1.57088e-06,-3.27827e-12,8.02805e-38,-3.40903e-12,-1.13742e-13,0,0,0,0,0,0,0,0,0,0,0,0,0,0,0,0,0,0,0,0,0,-0.261799,-6.7646e-05,-1.5,-nan,0,0,3,0,0,0,0,0,0,0,0,1.9603e-19
760,-3.21239e-12,8.02853e-38,-1.57088e-06,-3.27827e-12,8.02805e-38,0,-1.13742e-13,0,0,0,0,0,0,0,0,0,0,0,0,0,0,0,0,0,0,0,0,0,-0.261799,-6.56381e-05,-1.5,-nan,0,0,3,0,0,0,0,0,0,0,0,1.9603e-19
770,-3.21239e-12,8.02853e-38,-1.57088e-06,-3.27827e-12,8.02805e-38,-3.40903e-12,-1.13743e-13,0,0,0,0,0,0,0,0,0,0,0,0,0,0,0,0,0,0,0,0,0,-0.261799,-6.3433e-05,-1.5,-nan,0,0,3,0,0,0,0,0,0,0,0,1.9603e-19
780,-3.21239e-12,8.02853e-38,-1.57088e-06,-3.27827e-12,8.02805e-38,0,-1.13743e-13,0,0,0,0,0,0,0,0,0,0,0,0,0,0,0,0,0,0,0,0,0,-0.261799,-6.15513e-05,-1.5,-nan,0,0,3,0,0,0,0,0,0,0,0,1.9603e-19
790,-3.21239e-12,8.02853e-38,-1.57088e-06,-3.27827e-12,8.02805e-38,-3.40903e-12,-1.13744e-13,0,0,0,0,0,0,0,0,0,0,0,0,0,0,0,0,0,0,0,0,0,-0.261799,-5.92397e-05,-1.5,-nan,0,0,3,0,0,0,0,0,0,0,0,1.9603e-19
800,-3.21239e-12,8.02853e-38,-1.57088e-06,-3.27827e-12,8.02805e-38,0,-1.13744e-13,0,0,0,0,0,0,0,0,0,0,0,0,0,0,0,0,0,0,0,0,0,-0.261799,-5.73648e-05,-1.5,-nan,0,0,3,0,0,0,0,0,0,0,0,1.9603e-19
810,-3.21239e-12,8.02853e-38,-1.57088e-06,-3.27827e-12,8.02805e-38,-3.40903e-12,-1.13745e-13,0,0,0,0,0,0,0,0,0,0,0,0,0,0,0,0,0,0,0,0,0,-0.261799,-5.55492e-05,-1.5,-nan,0,0,3,0,0,0,0,0,0,0,0,1.9603e-19
820,-3.21239e-12,8.02853e-38,-1.57088e-06,-3.27827e-12,8.02805e-38,0,-1.13745e-13,0,0,0,0,0,0,0,0,0,0,0,0,0,0,0,0,0,0,0,0,0,-0.261799,-5.33558e-05,-1.5,-nan,0,0,3,0,0,0,0,0,0,0,0,1.9603e-19
830,-3.21239e-12,8.02853e-38,-1.57088e-06,-3.27827e-12,8.02805e-38,-3.40903e-12,-1.13746e-13,0,0,0,0,0,0,0,0,0,0,0,0,0,0,0,0,0,0,0,0,0,-0.261799,-5.17721e-05,-1.5,-nan,0,0,3,0,0,0,0,0,0,0,0,1.9603e-19
840,-3.21239e-12,8.02853e-38,-1.57088e-06,-3.27827e-12,8.02805e-38,0,-1.13747e-13,0,0,0,0,0,0,0,0,0,0,0,0,0,0,0,0,0,0,0,0,0,-0.261799,-5.02362e-05,-1.5,-nan,0,0,3,0,0,0,0,0,0,0,0,1.9603e-19
850,-3.21239e-12,8.02853e-38,-1.57088e-06,-3.27827e-12,8.02805e-38,-3.40903e-12,-1.13747e-13,0,0,0,0,0,0,0,0,0,0,0,0,0,0,0,0,0,0,0,0,0,-0.261799,-4.80552e-05,-1.5,-nan,0,0,3,0,0,0,0,0,0,0,0,1.9603e-19
860,-3.21239e-12,8.02853e-38,-1.57088e-06,-3.27827e-12,8.02805e-38,0,-1.13748e-13,0,0,0,0,0,0,0,0,0,0,0,0,0,0,0,0,0,0,0,0,0,-0.261799,-4.6724e-05,-1.5,-nan,0,0,3,0,0,0,0,0,0,0,0,1.9603e-19
870,-3.21239e-12,8.02853e-38,-1.57088e-06,-3.27827e-12,8.02805e-38,-3.40903e-12,-1.13748e-13,0,0,0,0,0,0,0,0,0,0,0,0,0,0,0,0,0,0,0,0,0,-0.261799,-4.54297e-05,-1.5,-nan,0,0,3,0,0,0,0,0,0,0,0,1.9603e-19
880,-3.21239e-12,8.02853e-38,-1.57088e-06,-3.27827e-12,8.02805e-38,0,-1.13749e-13,0,0,0,0,0,0,0,0,0,0,0,0,0,0,0,0,0,0,0,0,0,-0.261799,-4.40812e-05,-1.5,-nan,0,0,3,0,0,0,0,0,0,0,0,1.9603e-19
890,-3.21239e-12,8.02853e-38,-1.57088e-06,-3.27827e-12,8.02805e-38,-3.40903e-12,-1.13749e-13,0,0,0,0,0,0,0,0,0,0,0,0,0,0,0,0,0,0,0,0,0,-0.261799,-4.27728e-05,-1.5,-nan,0,0,3,0,0,0,0,0,0,0,0,1.9603e-19
900,-3.21239e-12,8.02853e-38,-1.57088e-06,-3.27827e-12,8.02805e-38,0,-1.1375e-13,0,0,0,0,0,0,0,0,0,0,0,0,0,0,0,0,0,0,0,0,0,-0.261799,-4.11665e-05,-1.5,-nan,0,0,3,0,0,0,0,0,0,0,0,1.9603e-19
910,-3.21239e-12,8.02853e-38,-1.57088e-06,-3.27827e-12,8.02805e-38,-3.40903e-12,-1.1375e-13,0,0,0,0,0,0,0,0,0,0,0,0,0,0,0,0,0,0,0,0,0,-0.261799,-3.97027e-05,-1.5,-nan,0,0,3,0,0,0,0,0,0,0,0,1.9603e-19
920,-3.21239e-12,8.02853e-38,-1.57088e-06,-3.27827e-12,8.02805e-38,0,-1.13751e-13,0,0,0,0,0,0,0,0,0,0,0,0,0,0,0,0,0,0,0,0,0,-0.261799,-3.82909e-05,-1.5,-nan,0,0,3,0,0,0,0,0,0,0,0,1.9603e-19
930,-3.21239e-12,8.02853e-38,-1.57088e-06,-3.27827e-12,8.02805e-38,-3.40903e-12,-1.13751e-13,0,0,0,0,0,0,0,0,0,0,0,0,0,0,0,0,0,0,0,0,0,-0.261799,-3.71544e-05,-1.5,-nan,0,0,3,0,0,0,0,0,0,0,0,1.9603e-19
940,-3.21239e-12,8.02853e-38,-1.57088e-06,-3.27827e-12,8.02805e-38,0,-1.13752e-13,0,0,0,0,0,0,0,0,0,0,0,0,0,0,0,0,0,0,0,0,0,-0.261799,-3.59785e-05,-1.5,-nan,0,0,3,0,0,0,0,0,0,0,0,1.9603e-19
950,-3.21239e-12,8.02853e-38,-1.57088e-06,-3.27827e-12,8.02805e-38,-3.40903e-12,-1.13753e-13,0,0,0,0,0,0,0,0,0,0,0,0,0,0,0,0,0,0,0,0,0,-0.261799,-3.47689e-05,-1.5,-nan,0,0,3,0,0,0,0,0,0,0,0,1.9603e-19
960,-3.21239e-12,8.02853e-38,-1.57088e-06,-3.27827e-12,8.02805e-38,0,-1.13753e-13,0,0,0,0,0,0,0,0,0,0,0,0,0,0,0,0,0,0,0,0,0,-0.261799,-3.37369e-05,-1.5,-nan,0,0,3,0,0,0,0,0,0,0,0,1.9603e-19
970,-3.21239e-12,8.02853e-38,-1.57088e-06,-3.27827e-12,8.02805e-38,-3.40903e-12,-1.13754e-13,0,0,0,0,0,0,0,0,0,0,0,0,0,0,0,0,0,0,0,0,0,-0.261799,-3.25373e-05,-1.5,-nan,0,0,3,0,0,0,0,0,0,0,0,1.9603e-19
980,-3.21239e-12,8.02853e-38,-1.57088e-06,-3.27827e-12,8.02805e-38,0,-1.13754e-13,0,0,0,0,0,0,0,0,0,0,0,0,0,0,0,0,0,0,0,0,0,-0.261799,-3.12525e-05,-1.5,-nan,0,0,3,0,0,0,0,0,0,0,0,1.9603e-19
990,-3.21239e-12,8.02853e-38,-1.57088e-06,-3.27827e-12,8.02805e-38,-3.40903e-12,-1.13755e-13,0,0,0,0,0,0,0,0,0,0,0,0,0,0,0,0,0,0,0,0,0,-0.261799,-3.0264e-05,-1.5,-nan,0,0,3,0,0,0,0,0,0,0,0,1.9603e-19
1000,-3.21239e-12,8.02853e-38,-1.57088e-06,-3.27827e-12,8.02805e-38,0,-1.13755e-13,0,0,0,0,0,0,0,0,0,0,0,0,0,0,0,0,0,0,0,0,0,-0.261799,-2.93061e-05,-1.5,-nan,0,0,3,0,0,0,0,0,0,0,0,1.9603e-19
1010,-3.21239e-12,8.02853e-38,-1.57088e-06,-3.27827e-12,8.02805e-38,-3.40903e-12,-1.13756e-13,0,0,0,0,0,0,0,0,0,0,0,0,0,0,0,0,0,0,0,0,0,-0.261799,-2.84363e-05,-1.5,-nan,0,0,3,0,0,0,0,0,0,0,0,1.9603e-19
1020,-3.21239e-12,8.02853e-38,-1.57088e-06,-3.27827e-12,8.02805e-38,0,-1.13756e-13,0,0,0,0,0,0,0,0,0,0,0,0,0,0,0,0,0,0,0,0,0,-0.261799,-2.75927e-05,-1.5,-nan,0,0,3,0,0,0,0,0,0,0,0,1.9603e-19
1030,-3.21239e-12,8.02853e-38,-1.57088e-06,-3.27827e-12,8.02805e-38,-3.40903e-12,-1.13757e-13,0,0,0,0,0,0,0,0,0,0,0,0,0,0,0,0,0,0,0,0,0,-0.261799,-2.65032e-05,-1.5,-nan,0,0,3,0,0,0,0,0,0,0,0,1.9603e-19
1040,-3.21239e-12,8.02853e-38,-1.57088e-06,-3.27827e-12,8.02805e-38,0,-1.13757e-13,0,0,0,0,0,0,0,0,0,0,0,0,0,0,0,0,0,0,0,0,0,-0.261799,-2.56643e-05,-1.5,-nan,0,0,3,0,0,0,0,0,0,0,0,1.9603e-19
1050,-3.21239e-12,8.02853e-38,-1.57088e-06,-3.27827e-12,8.02805e-38,-3.40903e-12,-1.13758e-13,0,0,0,0,0,0,0,0,0,0,0,0,0,0,0,0,0,0,0,0,0,-0.261799,-2.48526e-05,-1.5,-nan,0,0,3,0,0,0,0,0,0,0,0,1.9603e-19
1060,-3.21239e-12,8.02853e-38,-1.57088e-06,-3.27827e-12,8.02805e-38,0,-1.13759e-13,0,0,0,0,0,0,0,0,0,0,0,0,0,0,0,0,0,0,0,0,0,-0.261799,-2.37725e-05,-1.5,-nan,0,0,3,0,0,0,0,0,0,0,0,1.9603e-19
1070,-3.21239e-12,8.02853e-38,-1.57088e-06,-3.27827e-12,8.02805e-38,-3.40903e-12,-1.13759e-13,0,0,0,0,0,0,0,0,0,0,0,0,0,0,0,0,0,0,0,0,0,-0.261799,-2.31137e-05,-1.5,-nan,0,0,3,0,0,0,0,0,0,0,0,1.9603e-19
1080,-3.21239e-12,8.02853e-38,-1.57088e-06,-3.27827e-12,8.02805e-38,0,-1.1376e-13,0,0,0,0,0,0,0,0,0,0,0,0,0,0,0,0,0,0,0,0,0,-0.261799,-2.23826e-05,-1.5,-nan,0,0,3,0,0,0,0,0,0,0,0,1.9603e-19
1090,-3.21239e-12,8.02853e-38,-1.57088e-06,-3.27827e-12,8.02805e-38,-3.40903e-12,-1.1376e-13,0,0,0,0,0,0,0,0,0,0,0,0,0,0,0,0,0,0,0,0,0,-0.261799,-2.15867e-05,-1.5,-nan,0,0,3,0,0,0,0,0,0,0,0,1.9603e-19
1100,-3.21239e-12,8.02853e-38,-1.57088e-06,-3.27827e-12,8.02805e-38,0,-1.13761e-13,0,0,0,0,0,0,0,0,0,0,0,0,0,0,0,0,0,0,0,0,0,-0.261799,-2.0861e-05,-1.5,-nan,0,0,3,0,0,0,0,0,0,0,0,1.9603e-19
1110,-3.21239e-12,8.02853e-38,-1.57088e-06,-3.27827e-12,8.02805e-38,-3.40903e-12,-1.13761e-13,0,0,0,0,0,0,0,0,0,0,0,0,0,0,0,0,0,0,0,0,0,-0.261799,-2.01192e-05,-1.5,-nan,0,0,3,0,0,0,0,0,0,0,0,1.9603e-19
1120,-3.21239e-12,8.02853e-38,-1.57088e-06,-3.27827e-12,8.02805e-38,0,-1.13762e-13,0,0,0,0,0,0,0,0,0,0,0,0,0,0,0,0,0,0,0,0,0,-0.261799,-1.9522e-05,-1.5,-nan,0,0,3,0,0,0,0,0,0,0,0,1.9603e-19
1130,-3.21239e-12,8.02853e-38,-1.57088e-06,-3.27827e-12,8.02805e-38,-3.40903e-12,-1.13762e-13,0,0,0,0,0,0,0,0,0,0,0,0,0,0,0,0,0,0,0,0,0,-0.261799,-1.87889e-05,-1.5,-nan,0,0,3,0,0,0,0,0,0,0,0,1.9603e-19
1140,-3.21239e-12,8.02853e-38,-1.57088e-06,-3.27827e-12,8.02805e-38,0,-1.13763e-13,0,0,0,0,0,0,0,0,0,0,0,0,0,0,0,0,0,0,0,0,0,-0.261799,-1.82312e-05,-1.5,-nan,0,0,3,0,0,0,0,0,0,0,0,1.9603e-19
1150,-3.21239e-12,8.02853e-38,-1.57088e-06,-3.27827e-12,8.02805e-38,-3.40903e-12,-1.13763e-13,0,0,0,0,0,0,0,0,0,0,0,0,0,0,0,0,0,0,0,0,0,-0.261799,-1.75829e-05,-1.5,-nan,0,0,3,0,0,0,0,0,0,0,0,1.9603e-19
1160,-3.21239e-12,8.02853e-38,-1.57088e-06,-3.27827e-12,8.02805e-38,0,-1.13764e-13,0,0,0,0,0,0,0,0,0,0,0,0,0,0,0,0,0,0,0,0,0,-0.261799,-1.69923e-05,-1.5,-nan,0,0,3,0,0,0,0,0,0,0,0,1.9603e-19
1170,-3.21239e-12,8.02853e-38,-1.57088e-06,-3.27827e-12,8.02805e-38,-3.40903e-12,-1.13764e-13,0,0,0,0,0,0,0,0,0,0,0,0,0,0,0,0,0,0,0,0,0,-0.261799,-1.64548e-05,-1.5,-nan,0,0,3,0,0,0,0,0,0,0,0,1.9603e-19
1180,-3.21239e-12,8.02853e-38,-1.57088e-06,-3.27827e-12,8.02805e-38,0,-1.13765e-13,0,0,0,0,0,0,0,0,0,0,0,0,0,0,0,0,0,0,0,0,0,-0.261799,-1.59664e-05,-1.5,-nan,0,0,3,0,0,0,0,0,0,0,0,1.9603e-19
1190,-3.21239e-12,8.02853e-38,-1.57088e-06,-3.27827e-12,8.02805e-38,-3.40903e-12,-1.13766e-13,0,0,0,0,0,0,0,0,0,0,0,0,0,0,0,0,0,0,0,0,0,-0.261799,-1.53987e-05,-1.5,-nan,0,0,3,0,0,0,0,0,0,0,0,1.9603e-19
1200,-3.21239e-12,8.02853e-38,-1.57088e-06,-3.27827e-12,8.02805e-38,0,-1.13766e-13,0,0,0,0,0,0,0,0,0,0,0,0,0,0,0,0,0,0,0,0,0,-0.261799,-1.49418e-05,-1.5,-nan,0,0,3,0,0,0,0,0,0,0,0,1.9603e-19
1210,-3.21239e-12,8.02853e-38,-1.57088e-06,-3.27827e-12,8.02805e-38,-3.40903e-12,-1.13767e-13,0,0,0,0,0,0,0,0,0,0,0,0,0,0,0,0,0,0,0,0,0,-0.261799,-1.42925e-05,-1.5,-nan,0,0,3,0,0,0,0,0,0,0,0,1.9603e-19
1220,-3.21239e-12,8.02853e-38,-1.57088e-06,-3.27827e-12,8.02805e-38,0,-1.13767e-13,0,0,0,0,0,0,0,0,0,0,0,0,0,0,0,0,0,0,0,0,0,-0.261799,-1.38401e-05,-1.5,-nan,0,0,3,0,0,0,0,0,0,0,0,1.9603e-19
1230,-3.21239e-12,8.02853e-38,-1.57088e-06,-3.27827e-12,8.02805e-38,-3.40903e-12,-1.13768e-13,0,0,0,0,0,0,0,0,0,0,0,0,0,0,0,0,0,0,0,0,0,-0.261799,-1.34021e-05,-1.5,-nan,0,0,3,0,0,0,0,0,0,0,0,1.9603e-19
1240,-3.21239e-12,8.02853e-38,-1.57088e-06,-3.27827e-12,8.02805e-38,0,-1.13768e-13,0,0,0,0,0,0,0,0,0,0,0,0,0,0,0,0,0,0,0,0,0,-0.261799,-1.29779e-05,-1.5,-nan,0,0,3,0,0,0,0,0,0,0,0,1.9603e-19
1250,-3.21239e-12,8.02853e-38,-1.57088e-06,-3.27827e-12,8.02805e-38,-3.40903e-12,-1.13769e-13,0,0,0,0,0,0,0,0,0,0,0,0,0,0,0,0,0,0,0,0,0,-0.261799,-1.25927e-05,-1.5,-nan,0,0,3,0,0,0,0,0,0,0,0,1.9603e-19
1260,-3.21239e-12,8.02853e-38,-1.57088e-06,-3.27827e-12,8.02805e-38,0,-1.13769e-13,0,0,0,0,0,0,0,0,0,0,0,0,0,0,0,0,0,0,0,0,0,-0.261799,-1.21449e-05,-1.5,-nan,0,0,3,0,0,0,0,0,0,0,0,1.9603e-19
1270,-3.21239e-12,8.02853e-38,-1.57088e-06,-3.27827e-12,8.02805e-38,-3.40903e-12,-1.1377e-13,0,0,0,0,0,0,0,0,0,0,0,0,0,0,0,0,0,0,0,0,0,-0.261799,-1.17608e-05,-1.5,-nan,0,0,3,0,0,0,0,0,0,0,0,1.9603e-19
1280,-3.21239e-12,8.02853e-38,-1.57088e-06,-3.27827e-12,8.02805e-38,0,-1.1377e-13,0,0,0,0,0,0,0,0,0,0,0,0,0,0,0,0,0,0,0,0,0,-0.261799,-1.1458e-05,-1.5,-nan,0,0,3,0,0,0,0,0,0,0,0,1.9603e-19
1290,-3.21239e-12,8.02853e-38,-1.57088e-06,-3.27827e-12,8.02805e-38,-3.40903e-12,-1.13771e-13,0,0,0,0,0,0,0,0,0,0,0,0,0,0,0,0,0,0,0,0,0,-0.261799,-1.10506e-05,-1.5,-nan,0,0,3,0,0,0,0,0,0,0,0,1.9603e-19
1300,-3.21239e-12,8.02853e-38,-1.57088e-06,-3.27827e-12,8.02805e-38,0,-1.13772e-13,0,0,0,0,0,0,0,0,0,0,0,0,0,0,0,0,0,0,0,0,0,-0.261799,-1.07226e-05,-1.5,-nan,0,0,3,0,0,0,0,0,0,0,0,1.9603e-19
1310,-3.21239e-12,8.02853e-38,-1.57088e-06,-3.27827e-12,8.02805e-38,-3.40903e-12,-1.13772e-13,0,0,0,0,0,0,0,0,0,0,0,0,0,0,0,0,0,0,0,0,0,-0.261799,-1.03834e-05,-1.5,-nan,0,0,3,0,0,0,0,0,0,0,0,1.9603e-19
1320,-3.21239e-12,8.02853e-38,-1.57088e-06,-3.27827e-12,8.02805e-38,0,-1.13773e-13,0,0,0,0,0,0,0,0,0,0,0,0,0,0,0,0,0,0,0,0,0,-0.261799,-1.0055e-05,-1.5,-nan,0,0,3,0,0,0,0,0,0,0,0,1.9603e-19
1330,-3.21239e-12,8.02853e-38,-1.57088e-06,-3.27827e-12,8.02805e-38,-3.40903e-12,-1.13773e-13,0,0,0,0,0,0,0,0,0,0,0,0,0,0,0,0,0,0,0,0,0,-0.261799,-9.71721e-06,-1.5,-nan,0,0,3,0,0,0,0,0,0,0,0,1.9603e-19
1340,-3.21239e-12,8.02853e-38,-1.57088e-06,-3.27827e-12,8.02805e-38,0,-1.13774e-13,0,0,0,0,0,0,0,0,0,0,0,0,0,0,0,0,0,0,0,0,0,-0.261799,-9.37141e-06,-1.5,-nan,0,0,3,0,0,0,0,0,0,0,0,1.9603e-19
1350,-3.21239e-12,8.02853e-38,-1.57088e-06,-3.27827e-12,8.02805e-38,-3.40903e-12,-1.13774e-13,0,0,0,0,0,0,0,0,0,0,0,0,0,0,0,0,0,0,0,0,0,-0.261799,-9.07499e-06,-1.5,-nan,0,0,3,0,0,0,0,0,0,0,0,1.9603e-19
1360,-3.21239e-12,8.02853e-38,-1.57088e-06,-3.27827e-12,8.02805e-38,0,-1.13775e-13,0,0,0,0,0,0,0,0,0,0,0,0,0,0,0,0,0,0,0,0,0,-0.261799,-8.80563e-06,-1.5,-nan,0,0,3,0,0,0,0,0,0,0,0,1.9603e-19
1370,-3.21239e-12,8.02853e-38,-1.57088e-06,-3.27827e-12,8.02805e-38,-3.40903e-12,-1.13775e-13,0,0,0,0,0,0,0,0,0,0,0,0,0,0,0,0,0,0,0,0,0,-0.261799,-8.45792e-06,-1.5,-nan,0,0,3,0,0,0,0,0,0,0,0,1.9603e-19
1380,-3.21239e-12,8.02853e-38,-1.57088e-06,-3.27827e-12,8.02805e-38,0,-1.13776e-13,0,0,0,0,0,0,0,0,0,0,0,0,0,0,0,0,0,0,0,0,0,-0.261799,-8.20701e-06,-1.5,-nan,0,0,3,0,0,0,0,0,0,0,0,1.9603e-19
1390,-3.21239e-12,8.02853e-38,-1.57088e-06,-3.27827e-12,8.02805e-38,-3.40903e-12,-1.13776e-13,0,0,0,0,0,0,0,0,0,0,0,0,0,0,0,0,0,0,0,0,0,-0.261799,-7.89906e-06,-1.5,-nan,0,0,3,0,0,0,0,0,0,0,0,1.9603e-19
1400,-3.21239e-12,8.02853e-38,-1.57088e-06,-3.27827e-12,8.02805e-38,0,-1.13777e-13,0,0,0,0,0,0,0,0,0,0,0,0,0,0,0,0,0,0,0,0,0,-0.261799,-7.6646e-06,-1.5,-nan,0,0,3,0,0,0,0,0,0,0,0,1.9603e-19
1410,-3.21239e-12,8.02853e-38,-1.57088e-06,-3.27827e-12,8.02805e-38,-3.40903e-12,-1.13777e-13,0,0,0,0,0,0,0,0,0,0,0,0,0,0,0,0,0,0,0,0,0,-0.261799,-7.43711e-06,-1.5,-nan,0,0,3,0,0,0,0,0,0,0,0,1.9603e-19
1420,-3.21239e-12,8.02853e-38,-1.57088e-06,-3.27827e-12,8.02805e-38,0,-1.13778e-13,0,0,0,0,0,0,0,0,0,0,0,0,0,0,0,0,0,0,0,0,0,-0.261799,-7.18709e-06,-1.5,-nan,0,0,3,0,0,0,0,0,0,0,0,1.9603e-19
1430,-3.21239e-12,8.02853e-38,-1.57088e-06,-3.27827e-12,8.02805e-38,-3.40903e-12,-1.13779e-13,0,0,0,0,0,0,0,0,0,0,0,0,0,0,0,0,0,0,0,0,0,-0.261799,-6.97376e-06,-1.5,-nan,0,0,3,0,0,0,0,0,0,0,0,1.9603e-19
1440,-3.21239e-12,8.02853e-38,-1.57088e-06,-3.27827e-12,8.02805e-38,0,-1.13779e-13,0,0,0,0,0,0,0,0,0,0,0,0,0,0,0,0,0,0,0,0,0,-0.261799,-6.76677e-06,-1.5,-nan,0,0,3,0,0,0,0,0,0,0,0,1.9603e-19
1450,-3.21239e-12,8.02853e-38,-1.57088e-06,-3.27827e-12,8.02805e-38,-3.40903e-12,-1.1378e-13,0,0,0,0,0,0,0,0,0,0,0,0,0,0,0,0,0,0,0,0,0,-0.261799,-6.49957e-06,-1.5,-nan,0,0,3,0,0,0,0,0,0,0,0,1.9603e-19
1460,-3.21239e-12,8.02853e-38,-1.57088e-06,-3.27827e-12,8.02805e-38,0,-1.1378e-13,0,0,0,0,0,0,0,0,0,0,0,0,0,0,0,0,0,0,0,0,0,-0.261799,-6.29399e-06,-1.5,-nan,0,0,3,0,0,0,0,0,0,0,0,1.9603e-19
1470,-3.21239e-12,8.02853e-38,-1.57088e-06,-3.27827e-12,8.02805e-38,-3.40903e-12,-1.13781e-13,0,0,0,0,0,0,0,0,0,0,0,0,0,0,0,0,0,0,0,0,0,-0.261799,-6.04523e-06,-1.5,-nan,0,0,3,0,0,0,0,0,0,0,0,1.9603e-19
1480,-3.21239e-12,8.02853e-38,-1.57088e-06,-3.27827e-12,8.02805e-38,0,-1.13781e-13,0,0,0,0,0,0,0,0,0,0,0,0,0,0,0,0,0,0,0,0,0,-0.261799,-5.87777e-06,-1.5,-nan,0,0,3,0,0,0,0,0,0,0,0,1.9603e-19
1490,-3.21239e-12,8.02853e-38,-1.57088e-06,-3.27827e-12,8.02805e-38,-3.40903e-12,-1.13782e-13,0,0,0,0,0,0,0,0,0,0,0,0,0,0,0,0,0,0,0,0,0,-0.261799,-5.72649e-06,-1.5,-nan,0,0,3,0,0,0,0,0,0,0,0,1.9603e-19
1500,-3.21239e-12,8.02853e-38,-1.57088e-06,-3.27827e-12,8.02805e-38,0,-1.13782e-13,0,0,0,0,0,0,0,0,0,0,0,0,0,0,0,0,0,0,0,0,0,-0.261799,-5.56786e-06,-1.5,-nan,0,0,3,0,0,0,0,0,0,0,0,1.9603e-19
1510,-3.21239e-12,8.02853e-38,-1.57088e-06,-3.27827e-12,8.02805e-38,-3.40903e-12,-1.13783e-13,0,0,0,0,0,0,0,0,0,0,0,0,0,0,0,0,0,0,0,0,0,-0.261799,-5.4026e-06,-1.5,-nan,0,0,3,0,0,0,0,0,0,0,0,1.9603e-19
1520,-3.21239e-12,8.02853e-38,-1.57088e-06,-3.27827e-12,8.02805e-38,0,-1.13783e-13,0,0,0,0,0,0,0,0,0,0,0,0,0,0,0,0,0,0,0,0,0,-0.261799,-5.2211e-06,-1.5,-nan,0,0,3,0,0,0,0,0,0,0,0,1.9603e-19
1530,-3.21239e-12,8.02853e-38,-1.57088e-06,-3.27827e-12,8.02805e-38,-3.40903e-12,-1.13784e-13,0,0,0,0,0,0,0,0,0,0,0,0,0,0,0,0,0,0,0,0,0,-0.261799,-5.03545e-06,-1.5,-nan,0,0,3,0,0,0,0,0,0,0,0,1.9603e-19
1540,-3.21239e-12,8.02853e-38,-1.57088e-06,-3.27827e-12,8.02805e-38,0,-1.13785e-13,0,0,0,0,0,0,0,0,0,0,0,0,0,0,0,0,0,0,0,0,0,-0.261799,-4.88599e-06,-1.5,-nan,0,0,3,0,0,0,0,0,0,0,0,1.9603e-19
1550,-3.21239e-12,8.02853e-38,-1.57088e-06,-3.27827e-12,8.02805e-38,-3.40903e-12,-1.13785e-13,0,0,0,0,0,0,0,0,0,0,0,0,0,0,0,0,0,0,0,0,0,-0.261799,-4.7025e-06,-1.5,-nan,0,0,3,0,0,0,0,0,0,0,0,1.9603e-19
1560,-3.21239e-12,8.02853e-38,-1.57088e-06,-3.27827e-12,8.02805e-38,0,-1.13786e-13,0,0,0,0,0,0,0,0,0,0,0,0,0,0,0,0,0,0,0,0,0,-0.261799,-4.56292e-06,-1.5,-nan,0,0,3,0,0,0,0,0,0,0,0,1.9603e-19
1570,-3.21239e-12,8.02853e-38,-1.57088e-06,-3.27827e-12,8.02805e-38,-3.40903e-12,-1.13786e-13,0,0,0,0,0,0,0,0,0,0,0,0,0,0,0,0,0,0,0,0,0,-0.261799,-4.40963e-06,-1.5,-nan,0,0,3,0,0,0,0,0,0,0,0,1.9603e-19
1580,-3.21239e-12,8.02853e-38,-1.57088e-06,-3.27827e-12,8.02805e-38,0,-1.13787e-13,0,0,0,0,0,0,0,0,0,0,0,0,0,0,0,0,0,0,0,0,0,-0.261799,-4.25283e-06,-1.5,-nan,0,0,3,0,0,0,0,0,0,0,0,1.9603e-19
1590,-3.21239e-12,8.02853e-38,-1.57088e-06,-3.27827e-12,8.02805e-38,-3.40903e-12,-1.13787e-13,0,0,0,0,0,0,0,0,0,0,0,0,0,0,0,0,0,0,0,0,0,-0.261799,-4.11831e-06,-1.5,-nan,0,0,3,0,0,0,0,0,0,0,0,1.9603e-19
1600,-3.21239e-12,8.02853e-38,-1.57088e-06,-3.27827e-12,8.02805e-38,0,-1.13788e-13,0,0,0,0,0,0,0,0,0,0,0,0,0,0,0,0,0,0,0,0,0,-0.261799,-3.97986e-06,-1.5,-nan,0,0,3,0,0,0,0,0,0,0,0,1.9603e-19
1610,-3.21239e-12,8.02853e-38,-1.57088e-06,-3.27827e-12,8.02805e-38,-3.40903e-12,-1.13788e-13,0,0,0,0,0,0,0,0,0,0,0,0,0,0,0,0,0,0,0,0,0,-0.261799,-3.86173e-06,-1.5,-nan,0,0,3,0,0,0,0,0,0,0,0,1.9603e-19
1620,-3.21239e-12,8.02853e-38,-1.57088e-06,-3.27827e-12,8.02805e-38,0,-1.13789e-13,0,0,0,0,0,0,0,0,0,0,0,0,0,0,0,0,0,0,0,0,0,-0.261799,-3.74711e-06,-1.5,-nan,0,0,3,0,0,0,0,0,0,0,0,1.9603e-19
1630,-3.21239e-12,8.02853e-38,-1.57088e-06,-3.27827e-12,8.02805e-38,-3.40903e-12,-1.13789e-13,0,0,0,0,0,0,0,0,0,0,0,0,0,0,0,0,0,0,0,0,0,-0.261799,-3.59915e-06,-1.5,-nan,0,0,3,0,0,0,0,0,0,0,0,1.9603e-19
1640,-3.21239e-12,8.02853e-38,-1.57088e-06,-3.27827e-12,8.02805e-38,0,-1.1379e-13,0,0,0,0,0,0,0,0,0,0,0,0,0,0,0,0,0,0,0,0,0,-0.261799,-3.47824e-06,-1.5,-nan,0,0,3,0,0,0,0,0,0,0,0,1.9603e-19
1650,-3.21239e-12,8.02853e-38,-1.57088e-06,-3.27827e-12,8.02805e-38,-3.40903e-12,-1.1379e-13,0,0,0,0,0,0,0,0,0,0,0,0,0,0,0,0,0,0,0,0,0,-0.261799,-3.375e-06,-1.5,-nan,0,0,3,0,0,0,0,0,0,0,0,1.9603e-19
1660,-3.21239e-12,8.02853e-38,-1.57088e-06,-3.27827e-12,8.02805e-38,0,-1.13791e-13,0,0,0,0,0,0,0,0,0,0,0,0,0,0,0,0,0,0,0,0,0,-0.261799,-3.26154e-06,-1.5,-nan,0,0,3,0,0,0,0,0,0,0,0,1.9603e-19
1670,-3.21239e-12,8.02853e-38,-1.57088e-06,-3.27827e-12,8.02805e-38,-3.40903e-12,-1.13792e-13,0,0,0,0,0,0,0,0,0,0,0,0,0,0,0,0,0,0,0,0,0,-0.261799,-2.59983e-06,-1.5,-nan,0,0,3,0,0,0,0,0,0,0,0,1.9603e-19
1680,-3.21239e-12,8.02853e-38,-1.57088e-06,-3.27827e-12,8.02805e-38,0,-1.13792e-13,0,0,0,0,0,0,0,0,0,0,0,0,0,0,0,0,0,0,0,0,0,-0.261799,-2.441e-06,-1.5,-nan,0,0,3,0,0,0,0,0,0,0,0,1.9603e-19
1690,-3.21239e-12,8.02853e-38,-1.57088e-06,-3.27827e-12,8.02805e-38,-3.40903e-12,-1.13793e-13,0,0,0,0,0,0,0,0,0,0,0,0,0,0,0,0,0,0,0,0,0,-0.261799,-2.37338e-06,-1.5,-nan,0,0,3,0,0,0,0,0,0,0,0,1.9603e-19
1700,-3.21239e-12,8.02853e-38,-1.57088e-06,-3.27827e-12,8.02805e-38,0,-1.13793e-13,0,0,0,0,0,0,0,0,0,0,0,0,0,0,0,0,0,0,0,0,0,-0.261799,-2.30297e-06,-1.5,-nan,0,0,3,0,0,0,0,0,0,0,0,1.9603e-19
1710,-3.21239e-12,8.02853e-38,-1.57088e-06,-3.27827e-12,8.02805e-38,-3.40903e-12,-1.13794e-13,0,0,0,0,0,0,0,0,0,0,0,0,0,0,0,0,0,0,0,0,0,-0.261799,-2.23917e-06,-1.5,-nan,0,0,3,0,0,0,0,0,0,0,0,1.9603e-19
1720,-3.21239e-12,8.02853e-38,-1.57088e-06,-3.27827e-12,8.02805e-38,0,-1.13794e-13,0,0,0,0,0,0,0,0,0,0,0,0,0,0,0,0,0,0,0,0,0,-0.261799,-2.17271e-06,-1.5,-nan,0,0,3,0,0,0,0,0,0,0,0,1.9603e-19
1730,-3.21239e-12,8.02853e-38,-1.57088e-06,-3.27827e-12,8.02805e-38,-3.40903e-12,-1.13795e-13,0,0,0,0,0,0,0,0,0,0,0,0,0,0,0,0,0,0,0,0,0,-0.261799,-2.10399e-06,-1.5,-nan,0,0,3,0,0,0,0,0,0,0,0,1.9603e-19
1740,-3.21239e-12,8.02853e-38,-1.57088e-06,-3.27827e-12,8.02805e-38,0,-1.13795e-13,0,0,0,0,0,0,0,0,0,0,0,0,0,0,0,0,0,0,0,0,0,-0.261799,-2.04154e-06,-1.5,-nan,0,0,3,0,0,0,0,0,0,0,0,1.9603e-19
1750,-3.21239e-12,8.02853e-38,-1.57088e-06,-3.27827e-12,8.02805e-38,-3.40903e-12,-1.13796e-13,0,0,0,0,0,0,0,0,0,0,0,0,0,0,0,0,0,0,0,0,0,-0.261799,-1.98098e-06,-1.5,-nan,0,0,3,0,0,0,0,0,0,0,0,1.9603e-19
1760,-3.21239e-12,8.02853e-38,-1.57088e-06,-3.27827e-12,8.02805e-38,0,-1.13796e-13,0,0,0,0,0,0,0,0,0,0,0,0,0,0,0,0,0,0,0,0,0,-0.261799,-1.90669e-06,-1.5,-nan,0,0,3,0,0,0,0,0,0,0,0,1.9603e-19
1770,-3.21239e-12,8.02853e-38,-1.57088e-06,-3.27827e-12,8.02805e-38,-3.40903e-12,-1.13797e-13,0,0,0,0,0,0,0,0,0,0,0,0,0,0,0,0,0,0,0,0,0,-0.261799,-1.84634e-06,-1.5,-nan,0,0,3,0,0,0,0,0,0,0,0,1.9603e-19
1780,-3.21239e-12,8.02853e-38,-1.57088e-06,-3.27827e-12,8.02805e-38,0,-1.13798e-13,0,0,0,0,0,0,0,0,0,0,0,0,0,0,0,0,0,0,0,0,0,-0.261799,-1.78791e-06,-1.5,-nan,0,0,3,0,0,0,0,0,0,0,0,1.9603e-19
1790,-3.21239e-12,8.02853e-38,-1.57088e-06,-3.27827e-12,8.02805e-38,-3.40903e-12,-1.13798e-13,0,0,0,0,0,0,0,0,0,0,0,0,0,0,0,0,0,0,0,0,0,-0.261799,-1.73484e-06,-1.5,-nan,0,0,3,0,0,0,0,0,0,0,0,1.9603e-19
1800,-3.21239e-12,8.02853e-38,-1.57088e-06,-3.27827e-12,8.02805e-38,0,-1.13799e-13,0,0,0,0,0,0,0,0,0,0,0,0,0,0,0,0,0,0,0,0,0,-0.261799,-1.67997e-06,-1.5,-nan,0,0,3,0,0,0,0,0,0,0,0,1.9603e-19
1810,-3.21239e-12,8.02853e-38,-1.57088e-06,-3.27827e-12,8.02805e-38,-3.40903e-12,-1.13799e-13,0,0,0,0,0,0,0,0,0,0,0,0,0,0,0,0,0,0,0,0,0,-0.261799,-1.63013e-06,-1.5,-nan,0,0,3,0,0,0,0,0,0,0,0,1.9603e-19
1820,-3.21239e-12,8.02853e-38,-1.57088e-06,-3.27827e-12,8.02805e-38,0,-1.138e-13,0,0,0,0,0,0,0,0,0,0,0,0,0,0,0,0,0,0,0,0,0,-0.261799,-1.57537e-06,-1.5,-nan,0,0,3,0,0,0,0,0,0,0,0,1.9603e-19
1830,-3.21239e-12,8.02853e-38,-1.57088e-06,-3.27827e-12,8.02805e-38,-3.40903e-12,-1.138e-13,0,0,0,0,0,0,0,0,0,0,0,0,0,0,0,0,0,0,0,0,0,-0.261799,-1.52551e-06,-1.5,-nan,0,0,3,0,0,0,0,0,0,0,0,1.9603e-19
1840,-3.21239e-12,8.02853e-38,-1.57088e-06,-3.27827e-12,8.02805e-38,0,-1.13801e-13,0,0,0,0,0,0,0,0,0,0,0,0,0,0,0,0,0,0,0,0,0,-0.261799,-1.47722e-06,-1.5,-nan,0,0,3,0,0,0,0,0,0,0,0,1.9603e-19
1850,-3.21239e-12,8.02853e-38,-1.57088e-06,-3.27827e-12,8.02805e-38,-3.40903e-12,-1.13801e-13,0,0,0,0,0,0,0,0,0,0,0,0,0,0,0,0,0,0,0,0,0,-0.261799,-1.4305e-06,-1.5,-nan,0,0,3,0,0,0,0,0,0,0,0,1.9603e-19
1860,-3.21239e-12,8.02853e-38,-1.57088e-06,-3.27827e-12,8.02805e-38,0,-1.13802e-13,0,0,0,0,0,0,0,0,0,0,0,0,0,0,0,0,0,0,0,0,0,-0.261799,-1.38804e-06,-1.5,-nan,0,0,3,0,0,0,0,0,0,0,0,1.9603e-19
1870,-3.21239e-12,8.02853e-38,-1.57088e-06,-3.27827e-12,8.02805e-38,-3.40903e-12,-1.13802e-13,0,0,0,0,0,0,0,0,0,0,0,0,0,0,0,0,0,0,0,0,0,-0.261799,-1.34684e-06,-1.5,-nan,0,0,3,0,0,0,0,0,0,0,0,1.9603e-19
1880,-3.21239e-12,8.02853e-38,-1.57088e-06,-3.27827e-12,8.02805e-38,0,-1.13803e-13,0,0,0,0,0,0,0,0,0,0,0,0,0,0,0,0,0,0,0,0,0,-0.261799,-1.30686e-06,-1.5,-nan,0,0,3,0,0,0,0,0,0,0,0,1.9603e-19
1890,-3.21239e-12,8.02853e-38,-1.57088e-06,-3.27827e-12,8.02805e-38,-3.40903e-12,-1.13803e-13,0,0,0,0,0,0,0,0,0,0,0,0,0,0,0,0,0,0,0,0,0,-0.261799,-1.26039e-06,-1.5,-nan,0,0,3,0,0,0,0,0,0,0,0,1.9603e-19
1900,-3.21239e-12,8.02853e-38,-1.57088e-06,-3.27827e-12,8.02805e-38,0,-1.13804e-13,0,0,0,0,0,0,0,0,0,0,0,0,0,0,0,0,0,0,0,0,0,-0.261799,-1.22546e-06,-1.5,-nan,0,0,3,0,0,0,0,0,0,0,0,1.9603e-19
1910,-3.21239e-12,8.02853e-38,-1.57088e-06,-3.27827e-12,8.02805e-38,-3.40903e-12,-1.13805e-13,0,0,0,0,0,0,0,0,0,0,0,0,0,0,0,0,0,0,0,0,0,-0.261799,-1.19152e-06,-1.5,-nan,0,0,3,0,0,0,0,0,0,0,0,1.9603e-19
1920,-3.21239e-12,8.02853e-38,-1.57088e-06,-3.27827e-12,8.02805e-38,0,-1.13805e-13,0,0,0,0,0,0,0,0,0,0,0,0,0,0,0,0,0,0,0,0,0,-0.261799,-1.16084e-06,-1.5,-nan,0,0,3,0,0,0,0,0,0,0,0,1.9603e-19
1930,-3.21239e-12,8.02853e-38,-1.57088e-06,-3.27827e-12,8.02805e-38,-3.40903e-12,-1.13806e-13,0,0,0,0,0,0,0,0,0,0,0,0,0,0,0,0,0,0,0,0,0,-0.261799,-1.12639e-06,-1.5,-nan,0,0,3,0,0,0,0,0,0,0,0,1.9603e-19
1940,-3.21239e-12,8.02853e-38,-1.57088e-06,-3.27827e-12,8.02805e-38,0,-1.13806e-13,0,0,0,0,0,0,0,0,0,0,0,0,0,0,0,0,0,0,0,0,0,-0.261799,-1.09295e-06,-1.5,-nan,0,0,3,0,0,0,0,0,0,0,0,1.9603e-19
1950,-3.21239e-12,8.02853e-38,-1.57088e-06,-3.27827e-12,8.02805e-38,-3.40903e-12,-1.13807e-13,0,0,0,0,0,0,0,0,0,0,0,0,0,0,0,0,0,0,0,0,0,-0.261799,-1.05836e-06,-1.5,-nan,0,0,3,0,0,0,0,0,0,0,0,1.9603e-19
1960,-3.21239e-12,8.02853e-38,-1.57088e-06,-3.27827e-12,8.02805e-38,0,-1.13807e-13,0,0,0,0,0,0,0,0,0,0,0,0,0,0,0,0,0,0,0,0,0,-0.261799,-1.02486e-06,-1.5,-nan,0,0,3,0,0,0,0,0,0,0,0,1.9603e-19
1970,-3.21239e-12,8.02853e-38,-1.57088e-06,-3.27827e-12,8.02805e-38,-3.40903e-12,-1.13808e-13,0,0,0,0,0,0,0,0,0,0,0,0,0,0,0,0,0,0,0,0,0,-0.261799,-9.92428e-07,-1.5,-nan,0,0,3,0,0,0,0,0,0,0,0,1.9603e-19
1980,-3.21239e-12,8.02853e-38,-1.57088e-06,-3.27827e-12,8.02805e-38,0,-1.13808e-13,0,0,0,0,0,0,0,0,0,0,0,0,0,0,0,0,0,0,0,0,0,-0.261799,-9.61037e-07,-1.5,-nan,0,0,3,0,0,0,0,0,0,0,0,1.9603e-19
1990,-3.21239e-12,8.02853e-38,-1.57088e-06,-3.27827e-12,8.02805e-38,-3.40903e-12,-1.13809e-13,0,0,0,0,0,0,0,0,0,0,0,0,0,0,0,0,0,0,0,0,0,-0.261799,-9.32512e-07,-1.5,-nan,0,0,3,0,0,0,0,0,0,0,0,1.9603e-19
2000,-3.21239e-12,8.02853e-38,-1.57088e-06,-3.27827e-12,8.02805e-38,0,-1.13809e-13,0,0,0,0,0,0,0,0,0,0,0,0,0,0,0,0,0,0,0,0,0,-0.261799,-9.04834e-07,-1.5,-nan,0,0,3,0,0,0,0,0,0,0,0,1.9603e-19
2010,-3.21239e-12,8.02853e-38,-1.57088e-06,-3.27827e-12,8.02805e-38,-3.40903e-12,-1.1381e-13,0,0,0,0,0,0,0,0,0,0,0,0,0,0,0,0,0,0,0,0,0,-0.261799,-8.76214e-07,-1.5,-nan,0,0,3,0,0,0,0,0,0,0,0,1.9603e-19
2020,-3.21239e-12,8.02853e-38,-1.57088e-06,-3.27827e-12,8.02805e-38,0,-1.13811e-13,0,0,0,0,0,0,0,0,0,0,0,0,0,0,0,0,0,0,0,0,0,-0.261799,-8.45057e-07,-1.5,-nan,0,0,3,0,0,0,0,0,0,0,0,1.9603e-19
2030,-3.21239e-12,8.02853e-38,-1.57088e-06,-3.27827e-12,8.02805e-38,-3.40903e-12,-1.13811e-13,0,0,0,0,0,0,0,0,0,0,0,0,0,0,0,0,0,0,0,0,0,-0.261799,-8.18328e-07,-1.5,-nan,0,0,3,0,0,0,0,0,0,0,0,1.9603e-19
2040,-3.21239e-12,8.02853e-38,-1.57088e-06,-3.27827e-12,8.02805e-38,0,-1.13812e-13,0,0,0,0,0,0,0,0,0,0,0,0,0,0,0,0,0,0,0,0,0,-0.261799,-7.94039e-07,-1.5,-nan,0,0,3,0,0,0,0,0,0,0,0,1.9603e-19
2050,-3.21239e-12,8.02853e-38,-1.57088e-06,-3.27827e-12,8.02805e-38,-3.40903e-12,-1.13812e-13,0,0,0,0,0,0,0,0,0,0,0,0,0,0,0,0,0,0,0,0,0,-0.261799,-7.7047e-07,-1.5,-nan,0,0,3,0,0,0,0,0,0,0,0,1.9603e-19
2060,-3.21239e-12,8.02853e-38,-1.57088e-06,-3.27827e-12,8.02805e-38,0,-1.13813e-13,0,0,0,0,0,0,0,0,0,0,0,0,0,0,0,0,0,0,0,0,0,-0.261799,-7.47602e-07,-1.5,-nan,0,0,3,0,0,0,0,0,0,0,0,1.9603e-19
2070,-3.21239e-12,8.02853e-38,-1.57088e-06,-3.27827e-12,8.02805e-38,-3.40903e-12,-1.13813e-13,0,0,0,0,0,0,0,0,0,0,0,0,0,0,0,0,0,0,0,0,0,-0.261799,-7.25423e-07,-1.5,-nan,0,0,3,0,0,0,0,0,0,0,0,1.9603e-19
2080,-3.21239e-12,8.02853e-38,-1.57088e-06,-3.27827e-12,8.02805e-38,0,-1.13814e-13,0,0,0,0,0,0,0,0,0,0,0,0,0,0,0,0,0,0,0,0,0,-0.261799,-6.99628e-07,-1.5,-nan,0,0,3,0,0,0,0,0,0,0,0,1.9603e-19
2090,-3.21239e-12,8.02853e-38,-1.57088e-06,-3.27827e-12,8.02805e-38,-3.40903e-12,-1.13814e-13,0,0,0,0,0,0,0,0,0,0,0,0,0,0,0,0,0,0,0,0,0,-0.261799,-6.77499e-07,-1.5,-nan,0,0,3,0,0,0,0,0,0,0,0,1.9603e-19
2100,-3.21239e-12,8.02853e-38,-1.57088e-06,-3.27827e-12,8.02805e-38,0,-1.13815e-13,0,0,0,0,0,0,0,0,0,0,0,0,0,0,0,0,0,0,0,0,0,-0.261799,-6.5607e-07,-1.5,-nan,0,0,3,0,0,0,0,0,0,0,0,1.9603e-19
2110,-3.21239e-12,8.02853e-38,-1.57088e-06,-3.27827e-12,8.02805e-38,-3.40903e-12,-1.13815e-13,0,0,0,0,0,0,0,0,0,0,0,0,0,0,0,0,0,0,0,0,0,-0.261799,-6.39179e-07,-1.5,-nan,0,0,3,0,0,0,0,0,0,0,0,1.9603e-19
2120,-3.21239e-12,8.02853e-38,-1.57088e-06,-3.27827e-12,8.02805e-38,0,-1.13816e-13,0,0,0,0,0,0,0,0,0,0,0,0,0,0,0,0,0,0,0,0,0,-0.261799,-6.22723e-07,-1.5,-nan,0,0,3,0,0,0,0,0,0,0,0,1.9603e-19
2130,-3.21239e-12,8.02853e-38,-1.57088e-06,-3.27827e-12,8.02805e-38,-3.40903e-12,-1.13817e-13,0,0,0,0,0,0,0,0,0,0,0,0,0,0,0,0,0,0,0,0,0,-0.261799,-6.06691e-07,-1.5,-nan,0,0,3,0,0,0,0,0,0,0,0,1.9603e-19
2140,-3.21239e-12,8.02853e-38,-1.57088e-06,-3.27827e-12,8.02805e-38,0,-1.13817e-13,0,0,0,0,0,0,0,0,0,0,0,0,0,0,0,0,0,0,0,0,0,-0.261799,-5.87502e-07,-1.5,-nan,0,0,3,0,0,0,0,0,0,0,0,1.9603e-19
2150,-3.21239e-12,8.02853e-38,-1.57088e-06,-3.27827e-12,8.02805e-38,-3.40903e-12,-1.13818e-13,0,0,0,0,0,0,0,0,0,0,0,0,0,0,0,0,0,0,0,0,0,-0.261799,-5.64303e-07,-1.5,-nan,0,0,3,0,0,0,0,0,0,0,0,1.9603e-19
2160,-3.21239e-12,8.02853e-38,-1.57088e-06,-3.27827e-12,8.02805e-38,0,-1.13818e-13,0,0,0,0,0,0,0,0,0,0,0,0,0,0,0,0,0,0,0,0,0,-0.261799,-5.46454e-07,-1.5,-nan,0,0,3,0,0,0,0,0,0,0,0,1.9603e-19
2170,-3.21239e-12,8.02853e-38,-1.57088e-06,-3.27827e-12,8.02805e-38,-3.40903e-12,-1.13819e-13,0,0,0,0,0,0,0,0,0,0,0,0,0,0,0,0,0,0,0,0,0,-0.261799,-5.2917e-07,-1.5,-nan,0,0,3,0,0,0,0,0,0,0,0,1.9603e-19
2180,-3.21239e-12,8.02853e-38,-1.57088e-06,-3.27827e-12,8.02805e-38,0,-1.13819e-13,0,0,0,0,0,0,0,0,0,0,0,0,0,0,0,0,0,0,0,0,0,-0.261799,-5.13471e-07,-1.5,-nan,0,0,3,0,0,0,0,0,0,0,0,1.9603e-19
2190,-3.21239e-12,8.02853e-38,-1.57088e-06,-3.27827e-12,8.02805e-38,-3.40903e-12,-1.1382e-13,0,0,0,0,0,0,0,0,0,0,0,0,0,0,0,0,0,0,0,0,0,-0.261799,-4.98239e-07,-1.5,-nan,0,0,3,0,0,0,0,0,0,0,0,1.9603e-19
2200,-3.21239e-12,8.02853e-38,-1.57088e-06,-3.27827e-12,8.02805e-38,0,-1.1382e-13,0,0,0,0,0,0,0,0,0,0,0,0,0,0,0,0,0,0,0,0,0,-0.261799,-4.83458e-07,-1.5,-nan,0,0,3,0,0,0,0,0,0,0,0,1.9603e-19
2210,-3.21239e-12,8.02853e-38,-1.57088e-06,-3.27827e-12,8.02805e-38,-3.40903e-12,-1.13821e-13,0,0,0,0,0,0,0,0,0,0,0,0,0,0,0,0,0,0,0,0,0,-0.261799,-4.66254e-07,-1.5,-nan,0,0,3,0,0,0,0,0,0,0,0,1.9603e-19
2220,-3.21239e-12,8.02853e-38,-1.57088e-06,-3.27827e-12,8.02805e-38,0,-1.13821e-13,0,0,0,0,0,0,0,0,0,0,0,0,0,0,0,0,0,0,0,0,0,-0.261799,-4.51497e-07,-1.5,-nan,0,0,3,0,0,0,0,0,0,0,0,1.9603e-19
2230,-3.21239e-12,8.02853e-38,-1.57088e-06,-3.27827e-12,8.02805e-38,-3.40903e-12,-1.13822e-13,0,0,0,0,0,0,0,0,0,0,0,0,0,0,0,0,0,0,0,0,0,-0.261799,-4.37216e-07,-1.5,-nan,0,0,3,0,0,0,0,0,0,0,0,1.9603e-19
2240,-3.21239e-12,8.02853e-38,-1.57088e-06,-3.27827e-12,8.02805e-38,0,-1.13822e-13,0,0,0,0,0,0,0,0,0,0,0,0,0,0,0,0,0,0,0,0,0,-0.261799,-3.49373e-07,-1.5,-nan,0,0,3,0,0,0,0,0,0,0,0,1.9603e-19
2250,-3.21239e-12,8.02853e-38,-1.57088e-06,-3.27827e-12,8.02805e-38,-3.40903e-12,-1.13823e-13,0,0,0,0,0,0,0,0,0,0,0,0,0,0,0,0,0,0,0,0,0,-0.261799,-3.36253e-07,-1.5,-nan,0,0,3,0,0,0,0,0,0,0,0,1.9603e-19
2260,-3.21239e-12,8.02853e-38,-1.57088e-06,-3.27827e-12,8.02805e-38,0,-1.13824e-13,0,0,0,0,0,0,0,0,0,0,0,0,0,0,0,0,0,0,0,0,0,-0.261799,-3.24287e-07,-1.5,-nan,0,0,3,0,0,0,0,0,0,0,0,1.9603e-19
2270,-3.21239e-12,8.02853e-38,-1.57088e-06,-3.27827e-12,8.02805e-38,-3.40903e-12,-1.13824e-13,0,0,0,0,0,0,0,0,0,0,0,0,0,0,0,0,0,0,0,0,0,-0.261799,-3.14661e-07,-1.5,-nan,0,0,3,0,0,0,0,0,0,0,0,1.9603e-19
2280,-3.21239e-12,8.02853e-38,-1.57088e-06,-3.27827e-12,8.02805e-38,0,-1.13825e-13,0,0,0,0,0,0,0,0,0,0,0,0,0,0,0,0,0,0,0,0,0,-0.261799,-3.02236e-07,-1.5,-nan,0,0,3,0,0,0,0,0,0,0,0,1.9603e-19
2290,-3.21239e-12,8.02853e-38,-1.57088e-06,-3.27827e-12,8.02805e-38,-3.40903e-12,-1.13825e-13,0,0,0,0,0,0,0,0,0,0,0,0,0,0,0,0,0,0,0,0,0,-0.261799,-2.92671e-07,-1.5,-nan,0,0,3,0,0,0,0,0,0,0,0,1.9603e-19
2300,-3.21239e-12,8.02853e-38,-1.57088e-06,-3.27827e-12,8.02805e-38,0,-1.13826e-13,0,0,0,0,0,0,0,0,0,0,0,0,0,0,0,0,0,0,0,0,0,-0.261799,-2.83413e-07,-1.5,-nan,0,0,3,0,0,0,0,0,0,0,0,1.9603e-19
2310,-3.21239e-12,8.02853e-38,-1.57088e-06,-3.27827e-12,8.02805e-38,-3.40903e-12,-1.13826e-13,0,0,0,0,0,0,0,0,0,0,0,0,0,0,0,0,0,0,0,0,0,-0.261799,-2.75001e-07,-1.5,-nan,0,0,3,0,0,0,0,0,0,0,0,1.9603e-19
2320,-3.21239e-12,8.02853e-38,-1.57088e-06,-3.27827e-12,8.02805e-38,0,-1.13827e-13,0,0,0,0,0,0,0,0,0,0,0,0,0,0,0,0,0,0,0,0,0,-0.261799,-2.67921e-07,-1.5,-nan,0,0,3,0,0,0,0,0,0,0,0,1.9603e-19
2330,-3.21239e-12,8.02853e-38,-1.57088e-06,-3.27827e-12,8.02805e-38,-3.40903e-12,-1.13827e-13,0,0,0,0,0,0,0,0,0,0,0,0,0,0,0,0,0,0,0,0,0,-0.261799,-2.61024e-07,-1.5,-nan,0,0,3,0,0,0,0,0,0,0,0,1.9603e-19
2340,-3.21239e-12,8.02853e-38,-1.57088e-06,-3.27827e-12,8.02805e-38,0,-1.13828e-13,0,0,0,0,0,0,0,0,0,0,0,0,0,0,0,0,0,0,0,0,0,-0.261799,-2.51742e-07,-1.5,-nan,0,0,3,0,0,0,0,0,0,0,0,1.9603e-19
2350,-3.21239e-12,8.02853e-38,-1.57088e-06,-3.27827e-12,8.02805e-38,-3.40903e-12,-1.13828e-13,0,0,0,0,0,0,0,0,0,0,0,0,0,0,0,0,0,0,0,0,0,-0.261799,-2.43285e-07,-1.5,-nan,0,0,3,0,0,0,0,0,0,0,0,1.9603e-19
2360,-3.21239e-12,8.02853e-38,-1.57088e-06,-3.27827e-12,8.02805e-38,0,-1.13829e-13,0,0,0,0,0,0,0,0,0,0,0,0,0,0,0,0,0,0,0,0,0,-0.261799,-2.3559e-07,-1.5,-nan,0,0,3,0,0,0,0,0,0,0,0,1.9603e-19
2370,-3.21239e-12,8.02853e-38,-1.57088e-06,-3.27827e-12,8.02805e-38,-3.40903e-12,-1.1383e-13,0,0,0,0,0,0,0,0,0,0,0,0,0,0,0,0,0,0,0,0,0,-0.261799,-2.28597e-07,-1.5,-nan,0,0,3,0,0,0,0,0,0,0,0,1.9603e-19
2380,-3.21239e-12,8.02853e-38,-1.57088e-06,-3.27827e-12,8.02805e-38,0,-1.1383e-13,0,0,0,0,0,0,0,0,0,0,0,0,0,0,0,0,0,0,0,0,0,-0.261799,-2.21812e-07,-1.5,-nan,0,0,3,0,0,0,0,0,0,0,0,1.9603e-19
2390,-3.21239e-12,8.02853e-38,-1.57088e-06,-3.27827e-12,8.02805e-38,-3.40903e-12,-1.13831e-13,0,0,0,0,0,0,0,0,0,0,0,0,0,0,0,0,0,0,0,0,0,-0.261799,-2.15228e-07,-1.5,-nan,0,0,3,0,0,0,0,0,0,0,0,1.9603e-19
2400,-3.21239e-12,8.02853e-38,-1.57088e-06,-3.27827e-12,8.02805e-38,0,-1.13831e-13,0,0,0,0,0,0,0,0,0,0,0,0,0,0,0,0,0,0,0,0,0,-0.261799,-2.08002e-07,-1.5,-nan,0,0,3,0,0,0,0,0,0,0,0,1.9603e-19
2410,-3.21239e-12,8.02853e-38,-1.57088e-06,-3.27827e-12,8.02805e-38,-3.40903e-12,-1.13832e-13,0,0,0,0,0,0,0,0,0,0,0,0,0,0,0,0,0,0,0,0,0,-0.261799,-2.01419e-07,-1.5,-nan,0,0,3,0,0,0,0,0,0,0,0,1.9603e-19
2420,-3.21239e-12,8.02853e-38,-1.57088e-06,-3.27827e-12,8.02805e-38,0,-1.13832e-13,0,0,0,0,0,0,0,0,0,0,0,0,0,0,0,0,0,0,0,0,0,-0.261799,-1.95048e-07,-1.5,-nan,0,0,3,0,0,0,0,0,0,0,0,1.9603e-19
2430,-3.21239e-12,8.02853e-38,-1.57088e-06,-3.27827e-12,8.02805e-38,-3.40903e-12,-1.13833e-13,0,0,0,0,0,0,0,0,0,0,0,0,0,0,0,0,0,0,0,0,0,-0.261799,-1.88879e-07,-1.5,-nan,0,0,3,0,0,0,0,0,0,0,0,1.9603e-19
2440,-3.21239e-12,8.02853e-38,-1.57088e-06,-3.27827e-12,8.02805e-38,0,-1.13833e-13,0,0,0,0,0,0,0,0,0,0,0,0,0,0,0,0,0,0,0,0,0,-0.261799,-1.83275e-07,-1.5,-nan,0,0,3,0,0,0,0,0,0,0,0,1.9603e-19
2450,-3.21239e-12,8.02853e-38,-1.57088e-06,-3.27827e-12,8.02805e-38,-3.40903e-12,-1.13834e-13,0,0,0,0,0,0,0,0,0,0,0,0,0,0,0,0,0,0,0,0,0,-0.261799,-1.77838e-07,-1.5,-nan,0,0,3,0,0,0,0,0,0,0,0,1.9603e-19
2460,-3.21239e-12,8.02853e-38,-1.57088e-06,-3.27827e-12,8.02805e-38,0,-1.13834e-13,0,0,0,0,0,0,0,0,0,0,0,0,0,0,0,0,0,0,0,0,0,-0.261799,-1.7291e-07,-1.5,-nan,0,0,3,0,0,0,0,0,0,0,0,1.9603e-19
2470,-3.21239e-12,8.02853e-38,-1.57088e-06,-3.27827e-12,8.02805e-38,-3.40903e-12,-1.13835e-13,0,0,0,0,0,0,0,0,0,0,0,0,0,0,0,0,0,0,0,0,0,-0.261799,-1.66082e-07,-1.5,-nan,0,0,3,0,0,0,0,0,0,0,0,1.9603e-19
2480,-3.21239e-12,8.02853e-38,-1.57088e-06,-3.27827e-12,8.02805e-38,0,-1.13835e-13,0,0,0,0,0,0,0,0,0,0,0,0,0,0,0,0,0,0,0,0,0,-0.261799,-1.60829e-07,-1.5,-nan,0,0,3,0,0,0,0,0,0,0,0,1.9603e-19
2490,-3.21239e-12,8.02853e-38,-1.57088e-06,-3.27827e-12,8.02805e-38,-3.40903e-12,-1.13836e-13,0,0,0,0,0,0,0,0,0,0,0,0,0,0,0,0,0,0,0,0,0,-0.261799,-1.56055e-07,-1.5,-nan,0,0,3,0,0,0,0,0,0,0,0,1.9603e-19
2500,-3.21239e-12,8.02853e-38,-1.57088e-06,-3.27827e-12,8.02805e-38,0,-1.13837e-13,0,0,0,0,0,0,0,0,0,0,0,0,0,0,0,0,0,0,0,0,0,-0.261799,-1.51423e-07,-1.5,-nan,0,0,3,0,0,0,0,0,0,0,0,1.9603e-19
2510,-3.21239e-12,8.02853e-38,-1.57088e-06,-3.27827e-12,8.02805e-38,-3.40903e-12,-1.13837e-13,0,0,0,0,0,0,0,0,0,0,0,0,0,0,0,0,0,0,0,0,0,-0.261799,-1.46929e-07,-1.5,-nan,0,0,3,0,0,0,0,0,0,0,0,1.9603e-19
2520,-3.21239e-12,8.02853e-38,-1.57088e-06,-3.27827e-12,8.02805e-38,0,-1.13838e-13,0,0,0,0,0,0,0,0,0,0,0,0,0,0,0,0,0,0,0,0,0,-0.261799,-1.42281e-07,-1.5,-nan,0,0,3,0,0,0,0,0,0,0,0,1.9603e-19
2530,-3.21239e-12,8.02853e-38,-1.57088e-06,-3.27827e-12,8.02805e-38,-3.40903e-12,-1.13838e-13,0,0,0,0,0,0,0,0,0,0,0,0,0,0,0,0,0,0,0,0,0,-0.261799,-1.38058e-07,-1.5,-nan,0,0,3,0,0,0,0,0,0,0,0,1.9603e-19
2540,-3.21239e-12,8.02853e-38,-1.57088e-06,-3.27827e-12,8.02805e-38,0,-1.13839e-13,0,0,0,0,0,0,0,0,0,0,0,0,0,0,0,0,0,0,0,0,0,-0.261799,-1.34232e-07,-1.5,-nan,0,0,3,0,0,0,0,0,0,0,0,1.9603e-19
2550,-3.21239e-12,8.02853e-38,-1.57088e-06,-3.27827e-12,8.02805e-38,-3.40903e-12,-1.13839e-13,0,0,0,0,0,0,0,0,0,0,0,0,0,0,0,0,0,0,0,0,0,-0.261799,-1.29987e-07,-1.5,-nan,0,0,3,0,0,0,0,0,0,0,0,1.9603e-19
2560,-3.21239e-12,8.02853e-38,-1.57088e-06,-3.27827e-12,8.02805e-38,0,-1.1384e-13,0,0,0,0,0,0,0,0,0,0,0,0,0,0,0,0,0,0,0,0,0,-0.261799,-1.26128e-07,-1.5,-nan,0,0,3,0,0,0,0,0,0,0,0,1.9603e-19
2570,-3.21239e-12,8.02853e-38,-1.57088e-06,-3.27827e-12,8.02805e-38,-3.40903e-12,-1.1384e-13,0,0,0,0,0,0,0,0,0,0,0,0,0,0,0,0,0,0,0,0,0,-0.261799,-1.22139e-07,-1.5,-nan,0,0,3,0,0,0,0,0,0,0,0,1.9603e-19
2580,-3.21239e-12,8.02853e-38,-1.57088e-06,-3.27827e-12,8.02805e-38,0,-1.13841e-13,0,0,0,0,0,0,0,0,0,0,0,0,0,0,0,0,0,0,0,0,0,-0.261799,-1.18516e-07,-1.5,-nan,0,0,3,0,0,0,0,0,0,0,0,1.9603e-19
2590,-3.21239e-12,8.02853e-38,-1.57088e-06,-3.27827e-12,8.02805e-38,-3.40903e-12,-1.13841e-13,0,0,0,0,0,0,0,0,0,0,0,0,0,0,0,0,0,0,0,0,0,-0.261799,-1.14767e-07,-1.5,-nan,0,0,3,0,0,0,0,0,0,0,0,1.9603e-19
2600,-3.21239e-12,8.02853e-38,-1.57088e-06,-3.27827e-12,8.02805e-38,0,-1.13842e-13,0,0,0,0,0,0,0,0,0,0,0,0,0,0,0,0,0,0,0,0,0,-0.261799,-1.10909e-07,-1.5,-nan,0,0,3,0,0,0,0,0,0,0,0,1.9603e-19
2610,-3.21239e-12,8.02853e-38,-1.57088e-06,-3.27827e-12,8.02805e-38,-3.40903e-12,-1.13843e-13,0,0,0,0,0,0,0,0,0,0,0,0,0,0,0,0,0,0,0,0,0,-0.261799,-1.07401e-07,-1.5,-nan,0,0,3,0,0,0,0,0,0,0,0,1.9603e-19
2620,-3.21239e-12,8.02853e-38,-1.57088e-06,-3.27827e-12,8.02805e-38,0,-1.13843e-13,0,0,0,0,0,0,0,0,0,0,0,0,0,0,0,0,0,0,0,0,0,-0.261799,-1.04003e-07,-1.5,-nan,0,0,3,0,0,0,0,0,0,0,0,1.9603e-19
2630,-3.21239e-12,8.02853e-38,-1.57088e-06,-3.27827e-12,8.02805e-38,-3.40903e-12,-1.13844e-13,0,0,0,0,0,0,0,0,0,0,0,0,0,0,0,0,0,0,0,0,0,-0.261799,-1.00917e-07,-1.5,-nan,0,0,3,0,0,0,0,0,0,0,0,1.9603e-19
2640,-3.21239e-12,8.02853e-38,-1.57088e-06,-3.27827e-12,8.02805e-38,0,-1.13844e-13,0,0,0,0,0,0,0,0,0,0,0,0,0,0,0,0,0,0,0,0,0,-0.261799,-9.79211e-08,-1.5,-nan,0,0,3,0,0,0,0,0,0,0,0,1.9603e-19
2650,-3.21239e-12,8.02853e-38,-1.57088e-06,-3.27827e-12,8.02805e-38,-3.40903e-12,-1.13845e-13,0,0,0,0,0,0,0,0,0,0,0,0,0,0,0,0,0,0,0,0,0,-0.261799,-9.50147e-08,-1.5,-nan,0,0,3,0,0,0,0,0,0,0,0,1.9603e-19
2660,-3.21239e-12,8.02853e-38,-1.57088e-06,-3.27827e-12,8.02805e-38,0,-1.13845e-13,0,0,0,0,0,0,0,0,0,0,0,0,0,0,0,0,0,0,0,0,0,-0.261799,-9.14465e-08,-1.5,-nan,0,0,3,0,0,0,0,0,0,0,0,1.9603e-19
2670,-3.21239e-12,8.02853e-38,-1.57088e-06,-3.27827e-12,8.02805e-38,-3.40903e-12,-1.13846e-13,0,0,0,0,0,0,0,0,0,0,0,0,0,0,0,0,0,0,0,0,0,-0.261799,-8.83744e-08,-1.5,-nan,0,0,3,0,0,0,0,0,0,0,0,1.9603e-19
2680,-3.21239e-12,8.02853e-38,-1.57088e-06,-3.27827e-12,8.02805e-38,0,-1.13846e-13,0,0,0,0,0,0,0,0,0,0,0,0,0,0,0,0,0,0,0,0,0,-0.261799,-8.57513e-08,-1.5,-nan,0,0,3,0,0,0,0,0,0,0,0,1.9603e-19
2690,-3.21239e-12,8.02853e-38,-1.57088e-06,-3.27827e-12,8.02805e-38,-3.40903e-12,-1.13847e-13,0,0,0,0,0,0,0,0,0,0,0,0,0,0,0,0,0,0,0,0,0,-0.261799,-8.3039e-08,-1.5,-nan,0,0,3,0,0,0,0,0,0,0,0,1.9603e-19
2700,-3.21239e-12,8.02853e-38,-1.57088e-06,-3.27827e-12,8.02805e-38,0,-1.13847e-13,0,0,0,0,0,0,0,0,0,0,0,0,0,0,0,0,0,0,0,0,0,-0.261799,-8.05756e-08,-1.5,-nan,0,0,3,0,0,0,0,0,0,0,0,1.9603e-19
2710,-3.21239e-12,8.02853e-38,-1.57088e-06,-3.27827e-12,8.02805e-38,-3.40903e-12,-1.13848e-13,0,0,0,0,0,0,0,0,0,0,0,0,0,0,0,0,0,0,0,0,0,-0.261799,-7.81852e-08,-1.5,-nan,0,0,3,0,0,0,0,0,0,0,0,1.9603e-19
2720,-3.21239e-12,8.02853e-38,-1.57088e-06,-3.27827e-12,8.02805e-38,0,-1.13848e-13,0,0,0,0,0,0,0,0,0,0,0,0,0,0,0,0,0,0,0,0,0,-0.261799,-7.55568e-08,-1.5,-nan,0,0,3,0,0,0,0,0,0,0,0,1.9603e-19
2730,-3.21239e-12,8.02853e-38,-1.57088e-06,-3.27827e-12,8.02805e-38,-3.40903e-12,-1.13849e-13,0,0,0,0,0,0,0,0,0,0,0,0,0,0,0,0,0,0,0,0,0,-0.261799,-7.27193e-08,-1.5,-nan,0,0,3,0,0,0,0,0,0,0,0,1.9603e-19
2740,-3.21239e-12,8.02853e-38,-1.57088e-06,-3.27827e-12,8.02805e-38,0,-1.1385e-13,0,0,0,0,0,0,0,0,0,0,0,0,0,0,0,0,0,0,0,0,0,-0.261799,-7.0562e-08,-1.5,-nan,0,0,3,0,0,0,0,0,0,0,0,1.9603e-19
2750,-3.21239e-12,8.02853e-38,-1.57088e-06,-3.27827e-12,8.02805e-38,-3.40903e-12,-1.1385e-13,0,0,0,0,0,0,0,0,0,0,0,0,0,0,0,0,0,0,0,0,0,-0.261799,-6.84687e-08,-1.5,-nan,0,0,3,0,0,0,0,0,0,0,0,1.9603e-19
2760,-3.21239e-12,8.02853e-38,-1.57088e-06,-3.27827e-12,8.02805e-38,0,-1.13851e-13,0,0,0,0,0,0,0,0,0,0,0,0,0,0,0,0,0,0,0,0,0,-0.261799,-6.64376e-08,-1.5,-nan,0,0,3,0,0,0,0,0,0,0,0,1.9603e-19
2770,-3.21239e-12,8.02853e-38,-1.57088e-06,-3.27827e-12,8.02805e-38,-3.40903e-12,-1.13851e-13,0,0,0,0,0,0,0,0,0,0,0,0,0,0,0,0,0,0,0,0,0,-0.261799,-6.44667e-08,-1.5,-nan,0,0,3,0,0,0,0,0,0,0,0,1.9603e-19
2780,-3.21239e-12,8.02853e-38,-1.57088e-06,-3.27827e-12,8.02805e-38,0,-1.13852e-13,0,0,0,0,0,0,0,0,0,0,0,0,0,0,0,0,0,0,0,0,0,-0.261799,-6.23009e-08,-1.5,-nan,0,0,3,0,0,0,0,0,0,0,0,1.9603e-19
2790,-3.21239e-12,8.02853e-38,-1.57088e-06,-3.27827e-12,8.02805e-38,-3.40903e-12,-1.13852e-13,0,0,0,0,0,0,0,0,0,0,0,0,0,0,0,0,0,0,0,0,0,-0.261799,-6.03291e-08,-1.5,-nan,0,0,3,0,0,0,0,0,0,0,0,1.9603e-19
2800,-3.21239e-12,8.02853e-38,-1.57088e-06,-3.27827e-12,8.02805e-38,0,-1.13853e-13,0,0,0,0,0,0,0,0,0,0,0,0,0,0,0,0,0,0,0,0,0,-0.261799,-5.84209e-08,-1.5,-nan,0,0,3,0,0,0,0,0,0,0,0,1.9603e-19
2810,-3.21239e-12,8.02853e-38,-1.57088e-06,-3.27827e-12,8.02805e-38,-3.40903e-12,-1.13853e-13,0,0,0,0,0,0,0,0,0,0,0,0,0,0,0,0,0,0,0,0,0,-0.261799,-5.65731e-08,-1.5,-nan,0,0,3,0,0,0,0,0,0,0,0,1.9603e-19
2820,-3.21239e-12,8.02853e-38,-1.57088e-06,-3.27827e-12,8.02805e-38,0,-1.13854e-13,0,0,0,0,0,0,0,0,0,0,0,0,0,0,0,0,0,0,0,0,0,-0.261799,-5.48948e-08,-1.5,-nan,0,0,3,0,0,0,0,0,0,0,0,1.9603e-19
2830,-3.21239e-12,8.02853e-38,-1.57088e-06,-3.27827e-12,8.02805e-38,-3.40903e-12,-1.13854e-13,0,0,0,0,0,0,0,0,0,0,0,0,0,0,0,0,0,0,0,0,0,-0.261799,-5.32663e-08,-1.5,-nan,0,0,3,0,0,0,0,0,0,0,0,1.9603e-19
2840,-3.21239e-12,8.02853e-38,-1.57088e-06,-3.27827e-12,8.02805e-38,0,-1.13855e-13,0,0,0,0,0,0,0,0,0,0,0,0,0,0,0,0,0,0,0,0,0,-0.261799,-5.17901e-08,-1.5,-nan,0,0,3,0,0,0,0,0,0,0,0,1.9603e-19
2850,-3.21239e-12,8.02853e-38,-1.57088e-06,-3.27827e-12,8.02805e-38,-3.40903e-12,-1.13856e-13,0,0,0,0,0,0,0,0,0,0,0,0,0,0,0,0,0,0,0,0,0,-0.261799,-4.99485e-08,-1.5,-nan,0,0,3,0,0,0,0,0,0,0,0,1.9603e-19
2860,-3.21239e-12,8.02853e-38,-1.57088e-06,-3.27827e-12,8.02805e-38,0,-1.13856e-13,0,0,0,0,0,0,0,0,0,0,0,0,0,0,0,0,0,0,0,0,0,-0.261799,-4.8466e-08,-1.5,-nan,0,0,3,0,0,0,0,0,0,0,0,1.9603e-19
2870,-3.21239e-12,8.02853e-38,-1.57088e-06,-3.27827e-12,8.02805e-38,-3.40903e-12,-1.13857e-13,0,0,0,0,0,0,0,0,0,0,0,0,0,0,0,0,0,0,0,0,0,-0.261799,-4.6932e-08,-1.5,-nan,0,0,3,0,0,0,0,0,0,0,0,1.9603e-19
2880,-3.21239e-12,8.02853e-38,-1.57088e-06,-3.27827e-12,8.02805e-38,0,-1.13857e-13,0,0,0,0,0,0,0,0,0,0,0,0,0,0,0,0,0,0,0,0,0,-0.261799,-4.5539e-08,-1.5,-nan,0,0,3,0,0,0,0,0,0,0,0,1.9603e-19
2890,-3.21239e-12,8.02853e-38,-1.57088e-06,-3.27827e-12,8.02805e-38,-3.40903e-12,-1.13858e-13,0,0,0,0,0,0,0,0,0,0,0,0,0,0,0,0,0,0,0,0,0,-0.261799,-4.41873e-08,-1.5,-nan,0,0,3,0,0,0,0,0,0,0,0,1.9603e-19
2900,-3.21239e-12,8.02853e-38,-1.57088e-06,-3.27827e-12,8.02805e-38,0,-1.13858e-13,0,0,0,0,0,0,0,0,0,0,0,0,0,0,0,0,0,0,0,0,0,-0.261799,-4.27897e-08,-1.5,-nan,0,0,3,0,0,0,0,0,0,0,0,1.9603e-19
2910,-3.21239e-12,8.02853e-38,-1.57088e-06,-3.27827e-12,8.02805e-38,-3.40903e-12,-1.13859e-13,0,0,0,0,0,0,0,0,0,0,0,0,0,0,0,0,0,0,0,0,0,-0.261799,-4.13522e-08,-1.5,-nan,0,0,3,0,0,0,0,0,0,0,0,1.9603e-19
2920,-3.21239e-12,8.02853e-38,-1.57088e-06,-3.27827e-12,8.02805e-38,0,-1.13859e-13,0,0,0,0,0,0,0,0,0,0,0,0,0,0,0,0,0,0,0,0,0,-0.261799,-4.00442e-08,-1.5,-nan,0,0,3,0,0,0,0,0,0,0,0,1.9603e-19
2930,-3.21239e-12,8.02853e-38,-1.57088e-06,-3.27827e-12,8.02805e-38,-3.40903e-12,-1.1386e-13,0,0,0,0,0,0,0,0,0,0,0,0,0,0,0,0,0,0,0,0,0,-0.261799,-3.87776e-08,-1.5,-nan,0,0,3,0,0,0,0,0,0,0,0,1.9603e-19
2940,-3.21239e-12,8.02853e-38,-1.57088e-06,-3.27827e-12,8.02805e-38,0,-1.1386e-13,0,0,0,0,0,0,0,0,0,0,0,0,0,0,0,0,0,0,0,0,0,-0.261799,-3.77793e-08,-1.5,-nan,0,0,3,0,0,0,0,0,0,0,0,1.9603e-19
2950,-3.21239e-12,8.02853e-38,-1.57088e-06,-3.27827e-12,8.02805e-38,-3.40903e-12,-1.13861e-13,0,0,0,0,0,0,0,0,0,0,0,0,0,0,0,0,0,0,0,0,0,-0.261799,-3.68067e-08,-1.5,-nan,0,0,3,0,0,0,0,0,0,0,0,1.9603e-19
2960,-3.21239e-12,8.02853e-38,-1.57088e-06,-3.27827e-12,8.02805e-38,0,-1.13862e-13,0,0,0,0,0,0,0,0,0,0,0,0,0,0,0,0,0,0,0,0,0,-0.261799,-3.58591e-08,-1.5,-nan,0,0,3,0,0,0,0,0,0,0,0,1.9603e-19
2970,-3.21239e-12,8.02853e-38,-1.57088e-06,-3.27827e-12,8.02805e-38,-3.40903e-12,-1.13862e-13,0,0,0,0,0,0,0,0,0,0,0,0,0,0,0,0,0,0,0,0,0,-0.261799,-3.47248e-08,-1.5,-nan,0,0,3,0,0,0,0,0,0,0,0,1.9603e-19
2980,-3.21239e-12,8.02853e-38,-1.57088e-06,-3.27827e-12,8.02805e-38,0,-1.13863e-13,0,0,0,0,0,0,0,0,0,0,0,0,0,0,0,0,0,0,0,0,0,-0.261799,-3.33537e-08,-1.5,-nan,0,0,3,0,0,0,0,0,0,0,0,1.9603e-19
2990,-3.21239e-12,8.02853e-38,-1.57088e-06,-3.27827e-12,8.02805e-38,-3.40903e-12,-1.13863e-13,0,0,0,0,0,0,0,0,0,0,0,0,0,0,0,0,0,0,0,0,0,-0.261799,-3.23637e-08,-1.5,-nan,0,0,3,0,0,0,0,0,0,0,0,1.9603e-19
3000,-3.21239e-12,8.02853e-38,-1.57088e-06,-3.27827e-12,8.02805e-38,0,-1.13864e-13,0,0,0,0,0,0,0,0,0,0,0,0,0,0,0,0,0,0,0,0,0,-0.261799,-3.134e-08,-1.5,-nan,0,0,3,0,0,0,0,0,0,0,0,1.9603e-19
3010,-3.21239e-12,8.02853e-38,-1.57088e-06,-3.27827e-12,8.02805e-38,-3.40903e-12,-1.13864e-13,0,0,0,0,0,0,0,0,0,0,0,0,0,0,0,0,0,0,0,0,0,-0.261799,-3.04098e-08,-1.5,-nan,0,0,3,0,0,0,0,0,0,0,0,1.9603e-19
3020,-3.21239e-12,8.02853e-38,-1.57088e-06,-3.27827e-12,8.02805e-38,0,-1.13865e-13,0,0,0,0,0,0,0,0,0,0,0,0,0,0,0,0,0,0,0,0,0,-0.261799,-2.95072e-08,-1.5,-nan,0,0,3,0,0,0,0,0,0,0,0,1.9603e-19
3030,-3.21239e-12,8.02853e-38,-1.57088e-06,-3.27827e-12,8.02805e-38,-3.40903e-12,-1.13865e-13,0,0,0,0,0,0,0,0,0,0,0,0,0,0,0,0,0,0,0,0,0,-0.261799,-2.85739e-08,-1.5,-nan,0,0,3,0,0,0,0,0,0,0,0,1.9603e-19
3040,-3.21239e-12,8.02853e-38,-1.57088e-06,-3.27827e-12,8.02805e-38,0,-1.13866e-13,0,0,0,0,0,0,0,0,0,0,0,0,0,0,0,0,0,0,0,0,0,-0.261799,-2.75578e-08,-1.5,-nan,0,0,3,0,0,0,0,0,0,0,0,1.9603e-19
3050,-3.21239e-12,8.02853e-38,-1.57088e-06,-3.27827e-12,8.02805e-38,-3.40903e-12,-1.13866e-13,0,0,0,0,0,0,0,0,0,0,0,0,0,0,0,0,0,0,0,0,0,-0.261799,-2.66862e-08,-1.5,-nan,0,0,3,0,0,0,0,0,0,0,0,1.9603e-19
