timestamp,A_x,A_y,A_z,P,Q,R,Phi,Theta,Psi,poseX,poseY,poseZ,state_X,state_Y,state_Z,state_VzB,state_Bx,state_By,state_Bz,p1_x,p1_y,p2_x,p2_y,p3_x,p3_y,p4_x,p4_y,roll,pitch,yaw,alt,targetHeading,highLevelState,lowLevelState,gateNumber,filtered_x,filtered_y,x_OT,y_OT,vx_OT,vy_OT,filtered_vx,filtered_vygateArea
10,0,0,0,0,0,0,0,0,0,0,0,0,0,0,0,0,0,0,0,0,0,0,0,0,0,0,0,0,-0.261799,0.00779127,-1.5,-nan,0,0,3,0,0,0,0,0,0,0,0,1.9603e-19
20,0,0,0,0,0,0,0,0,0,0,0,0,0,0,0,0,0,0,0,0,0,0,0,0,0,0,0,0,-0.261799,0.00752953,-1.5,-nan,0,0,3,0,0,0,0,0,0,0,0,1.9603e-19
30,-3.1147e-12,1.43603e-38,-1.52012e-06,-3.18057e-12,1.43591e-38,-3.62841e-12,-1.06589e-13,0,0,0,0,0,0,0,0,0,0,0,0,0,0,0,0,0,0,0,0,0,-0.261799,-0.00152641,-1.5,-nan,0,0,3,0,0,0,0,0,0,0,0,1.9603e-19
40,-3.1147e-12,1.43603e-38,-1.52012e-06,-3.18057e-12,1.43591e-38,0,-1.0659e-13,0,0,0,0,0,0,0,0,0,0,0,0,0,0,0,0,0,0,0,0,0,-0.261799,-0.0014781,-1.5,-nan,0,0,3,0,0,0,0,0,0,0,0,1.9603e-19
50,-3.1147e-12,1.43603e-38,-1.52012e-06,-3.18057e-12,1.43591e-38,-3.62841e-12,-1.0659e-13,0,0,0,0,0,0,0,0,0,0,0,0,0,0,0,0,0,0,0,0,0,-0.261799,-0.00143135,-1.5,-nan,0,0,3,0,0,0,0,0,0,0,0,1.9603e-19
60,-3.1147e-12,1.43603e-38,-1.52012e-06,-3.18057e-12,1.43591e-38,0,-1.0659e-13,0,0,0,0,0,0,0,0,0,0,0,0,0,0,0,0,0,0,0,0,0,-0.261799,-0.00138887,-1.5,-nan,0,0,3,0,0,0,0,0,0,0,0,1.9603e-19
70,-3.1147e-12,1.43603e-38,-1.52012e-06,-3.18057e-12,1.43591e-38,-3.62841e-12,-1.0659e-13,0,0,0,0,0,0,0,0,0,0,0,0,0,0,0,0,0,0,0,0,0,-0.261799,-0.00134764,-1.5,-nan,0,0,3,0,0,0,0,0,0,0,0,1.9603e-19
80,-3.1147e-12,1.43603e-38,-1.52012e-06,-3.18057e-12,1.43591e-38,0,-1.06591e-13,0,0,0,0,0,0,0,0,0,0,0,0,0,0,0,0,0,0,0,0,0,-0.261799,-0.00130764,-1.5,-nan,0,0,3,0,0,0,0,0,0,0,0,1.9603e-19
90,-3.1147e-12,1.43603e-38,-1.52012e-06,-3.18057e-12,1.43591e-38,-3.62841e-12,-1.06591e-13,0,0,0,0,0,0,0,0,0,0,0,0,0,0,0,0,0,0,0,0,0,-0.261799,-0.00126628,-1.5,-nan,0,0,3,0,0,0,0,0,0,0,0,1.9603e-19
100,-3.1147e-12,1.43603e-38,-1.52012e-06,-3.18057e-12,1.43591e-38,0,-1.06591e-13,0,0,0,0,0,0,0,0,0,0,0,0,0,0,0,0,0,0,0,0,0,-0.261799,-0.00122872,-1.5,-nan,0,0,3,0,0,0,0,0,0,0,0,1.9603e-19
110,-3.1147e-12,1.43603e-38,-1.52012e-06,-3.18057e-12,1.43591e-38,-3.62841e-12,-1.06591e-13,0,0,0,0,0,0,0,0,0,0,0,0,0,0,0,0,0,0,0,0,0,-0.261799,-0.00119225,-1.5,-nan,0,0,3,0,0,0,0,0,0,0,0,1.9603e-19
120,-3.1147e-12,1.43603e-38,-1.52012e-06,-3.18057e-12,1.43591e-38,0,-1.06592e-13,0,0,0,0,0,0,0,0,0,0,0,0,0,0,0,0,0,0,0,0,0,-0.261799,-0.0010796,-1.5,-nan,0,0,3,0,0,0,0,0,0,0,0,1.9603e-19
130,-3.1147e-12,1.43603e-38,-1.52012e-06,-3.18057e-12,1.43591e-38,-3.62841e-12,-1.06592e-13,0,0,0,0,0,0,0,0,0,0,0,0,0,0,0,0,0,0,0,0,0,-0.261799,-0.00101355,-1.5,-nan,0,0,3,0,0,0,0,0,0,0,0,1.9603e-19
140,-3.1147e-12,1.43603e-38,-1.52012e-06,-3.18057e-12,1.43591e-38,0,-1.06592e-13,0,0,0,0,0,0,0,0,0,0,0,0,0,0,0,0,0,0,0,0,0,-0.261799,-0.00082388,-1.5,-nan,0,0,3,0,0,0,0,0,0,0,0,1.9603e-19
150,-3.1147e-12,1.43603e-38,-1.52012e-06,-3.18057e-12,1.43591e-38,-3.62841e-12,-1.06593e-13,0,0,0,0,0,0,0,0,0,0,0,0,0,0,0,0,0,0,0,0,0,-0.261799,-0.000671594,-1.5,-nan,0,0,3,0,0,0,0,0,0,0,0,1.9603e-19
160,-3.1147e-12,1.43603e-38,-1.52012e-06,-3.18057e-12,1.43591e-38,0,-1.06593e-13,0,0,0,0,0,0,0,0,0,0,0,0,0,0,0,0,0,0,0,0,0,-0.261799,-0.00065167,-1.5,-nan,0,0,3,0,0,0,0,0,0,0,0,1.9603e-19
170,-3.1147e-12,1.43603e-38,-1.52012e-06,-3.18057e-12,1.43591e-38,-3.62841e-12,-1.06593e-13,0,0,0,0,0,0,0,0,0,0,0,0,0,0,0,0,0,0,0,0,0,-0.261799,-0.000622098,-1.5,-nan,0,0,3,0,0,0,0,0,0,0,0,1.9603e-19
180,-3.1147e-12,1.43603e-38,-1.52012e-06,-3.18057e-12,1.43591e-38,0,-1.06593e-13,0,0,0,0,0,0,0,0,0,0,0,0,0,0,0,0,0,0,0,0,0,-0.261799,-0.000568206,-1.5,-nan,0,0,3,0,0,0,0,0,0,0,0,1.9603e-19
190,-3.1147e-12,1.43603e-38,-1.52012e-06,-3.18057e-12,1.43591e-38,-3.62841e-12,-1.06594e-13,0,0,0,0,0,0,0,0,0,0,0,0,0,0,0,0,0,0,0,0,0,-0.261799,-0.000540189,-1.5,-nan,0,0,3,0,0,0,0,0,0,0,0,1.9603e-19
200,-3.1147e-12,1.43603e-38,-1.52012e-06,-3.18057e-12,1.43591e-38,0,-1.06594e-13,0,0,0,0,0,0,0,0,0,0,0,0,0,0,0,0,0,0,0,0,0,-0.261799,-0.000524155,-1.5,-nan,0,0,3,0,0,0,0,0,0,0,0,1.9603e-19
210,-3.1147e-12,1.43603e-38,-1.52012e-06,-3.18057e-12,1.43591e-38,-3.62841e-12,-1.06594e-13,0,0,0,0,0,0,0,0,0,0,0,0,0,0,0,0,0,0,0,0,0,-0.261799,-0.000499313,-1.5,-nan,0,0,3,0,0,0,0,0,0,0,0,1.9603e-19
220,-3.1147e-12,1.43603e-38,-1.52012e-06,-3.18057e-12,1.43591e-38,0,-1.06594e-13,0,0,0,0,0,0,0,0,0,0,0,0,0,0,0,0,0,0,0,0,0,-0.261799,-0.000477613,-1.5,-nan,0,0,3,0,0,0,0,0,0,0,0,1.9603e-19
230,-3.1147e-12,1.43603e-38,-1.52012e-06,-3.18057e-12,1.43591e-38,-3.62841e-12,-1.06595e-13,0,0,0,0,0,0,0,0,0,0,0,0,0,0,0,0,0,0,0,0,0,-0.261799,-0.000465317,-1.5,-nan,0,0,3,0,0,0,0,0,0,0,0,1.9603e-19
240,-3.1147e-12,1.43603e-38,-1.52012e-06,-3.18057e-12,1.43591e-38,0,-1.06595e-13,0,0,0,0,0,0,0,0,0,0,0,0,0,0,0,0,0,0,0,0,0,-0.261799,-0.000447857,-1.5,-nan,0,0,3,0,0,0,0,0,0,0,0,1.9603e-19
250,-3.1147e-12,1.43603e-38,-1.52012e-06,-3.18057e-12,1.43591e-38,-3.62841e-12,-1.06595e-13,0,0,0,0,0,0,0,0,0,0,0,0,0,0,0,0,0,0,0,0,0,-0.261799,-0.000433691,-1.5,-nan,0,0,3,0,0,0,0,0,0,0,0,1.9603e-19
260,-3.1147e-12,1.43603e-38,-1.52012e-06,-3.18057e-12,1.43591e-38,0,-1.06596e-13,0,0,0,0,0,0,0,0,0,0,0,0,0,0,0,0,0,0,0,0,0,-0.261799,-0.000420819,-1.5,-nan,0,0,3,0,0,0,0,0,0,0,0,1.9603e-19
270,-3.1147e-12,1.43603e-38,-1.52012e-06,-3.18057e-12,1.43591e-38,-3.62841e-12,-1.06596e-13,0,0,0,0,0,0,0,0,0,0,0,0,0,0,0,0,0,0,0,0,0,-0.261799,-0.000407508,-1.5,-nan,0,0,3,0,0,0,0,0,0,0,0,1.9603e-19
280,-3.1147e-12,1.43603e-38,-1.52012e-06,-3.18057e-12,1.43591e-38,0,-1.06596e-13,0,0,0,0,0,0,0,0,0,0,0,0,0,0,0,0,0,0,0,0,0,-0.261799,-0.000395419,-1.5,-nan,0,0,3,0,0,0,0,0,0,0,0,1.9603e-19
290,-3.1147e-12,1.43603e-38,-1.52012e-06,-3.18057e-12,1.43591e-38,-3.62841e-12,-1.06596e-13,0,0,0,0,0,0,0,0,0,0,0,0,0,0,0,0,0,0,0,0,0,-0.261799,-0.000383689,-1.5,-nan,0,0,3,0,0,0,0,0,0,0,0,1.9603e-19
300,-3.1147e-12,1.43603e-38,-1.52012e-06,-3.18057e-12,1.43591e-38,0,-1.06597e-13,0,0,0,0,0,0,0,0,0,0,0,0,0,0,0,0,0,0,0,0,0,-0.261799,-0.000370045,-1.5,-nan,0,0,3,0,0,0,0,0,0,0,0,1.9603e-19
310,-3.1147e-12,1.43603e-38,-1.52012e-06,-3.18057e-12,1.43591e-38,-3.62841e-12,-1.06597e-13,0,0,0,0,0,0,0,0,0,0,0,0,0,0,0,0,0,0,0,0,0,-0.261799,-0.000358333,-1.5,-nan,0,0,3,0,0,0,0,0,0,0,0,1.9603e-19
320,-3.1147e-12,1.43603e-38,-1.52012e-06,-3.18057e-12,1.43591e-38,0,-1.06597e-13,0,0,0,0,0,0,0,0,0,0,0,0,0,0,0,0,0,0,0,0,0,-0.261799,-0.000346992,-1.5,-nan,0,0,3,0,0,0,0,0,0,0,0,1.9603e-19
330,-3.1147e-12,1.43603e-38,-1.52012e-06,-3.18057e-12,1.43591e-38,-3.62841e-12,-1.06597e-13,0,0,0,0,0,0,0,0,0,0,0,0,0,0,0,0,0,0,0,0,0,-0.261799,-0.000336017,-1.5,-nan,0,0,3,0,0,0,0,0,0,0,0,1.9603e-19
340,-3.1147e-12,1.43603e-38,-1.52012e-06,-3.18057e-12,1.43591e-38,0,-1.06598e-13,0,0,0,0,0,0,0,0,0,0,0,0,0,0,0,0,0,0,0,0,0,-0.261799,-0.000326043,-1.5,-nan,0,0,3,0,0,0,0,0,0,0,0,1.9603e-19
350,-3.1147e-12,1.43603e-38,-1.52012e-06,-3.18057e-12,1.43591e-38,-3.62841e-12,-1.06598e-13,0,0,0,0,0,0,0,0,0,0,0,0,0,0,0,0,0,0,0,0,0,-0.261799,-0.000316371,-1.5,-nan,0,0,3,0,0,0,0,0,0,0,0,1.9603e-19
360,-3.1147e-12,1.43603e-38,-1.52012e-06,-3.18057e-12,1.43591e-38,0,-1.06598e-13,0,0,0,0,0,0,0,0,0,0,0,0,0,0,0,0,0,0,0,0,0,-0.261799,-0.000306364,-1.5,-nan,0,0,3,0,0,0,0,0,0,0,0,1.9603e-19
370,-3.1147e-12,1.43603e-38,-1.52012e-06,-3.18057e-12,1.43591e-38,-3.62841e-12,-1.06599e-13,0,0,0,0,0,0,0,0,0,0,0,0,0,0,0,0,0,0,0,0,0,-0.261799,-0.000297271,-1.5,-nan,0,0,3,0,0,0,0,0,0,0,0,1.9603e-19
380,-3.1147e-12,1.43603e-38,-1.52012e-06,-3.18057e-12,1.43591e-38,0,-1.06599e-13,0,0,0,0,0,0,0,0,0,0,0,0,0,0,0,0,0,0,0,0,0,-0.261799,-0.000287862,-1.5,-nan,0,0,3,0,0,0,0,0,0,0,0,1.9603e-19
390,-3.1147e-12,1.43603e-38,-1.52012e-06,-3.18057e-12,1.43591e-38,-3.62841e-12,-1.06599e-13,0,0,0,0,0,0,0,0,0,0,0,0,0,0,0,0,0,0,0,0,0,-0.261799,-0.000278757,-1.5,-nan,0,0,3,0,0,0,0,0,0,0,0,1.9603e-19
400,-3.1147e-12,1.43603e-38,-1.52012e-06,-3.18057e-12,1.43591e-38,0,-1.06599e-13,0,0,0,0,0,0,0,0,0,0,0,0,0,0,0,0,0,0,0,0,0,-0.261799,-0.000270483,-1.5,-nan,0,0,3,0,0,0,0,0,0,0,0,1.9603e-19
410,-3.1147e-12,1.43603e-38,-1.52012e-06,-3.18057e-12,1.43591e-38,-3.62841e-12,-1.066e-13,0,0,0,0,0,0,0,0,0,0,0,0,0,0,0,0,0,0,0,0,0,-0.261799,-0.000262455,-1.5,-nan,0,0,3,0,0,0,0,0,0,0,0,1.9603e-19
420,-3.1147e-12,1.43603e-38,-1.52012e-06,-3.18057e-12,1.43591e-38,0,-1.066e-13,0,0,0,0,0,0,0,0,0,0,0,0,0,0,0,0,0,0,0,0,0,-0.261799,-0.000254665,-1.5,-nan,0,0,3,0,0,0,0,0,0,0,0,1.9603e-19
430,-3.1147e-12,1.43603e-38,-1.52012e-06,-3.18057e-12,1.43591e-38,-3.62841e-12,-1.066e-13,0,0,0,0,0,0,0,0,0,0,0,0,0,0,0,0,0,0,0,0,0,-0.261799,-0.000244609,-1.5,-nan,0,0,3,0,0,0,0,0,0,0,0,1.9603e-19
440,-3.1147e-12,1.43603e-38,-1.52012e-06,-3.18057e-12,1.43591e-38,0,-1.066e-13,0,0,0,0,0,0,0,0,0,0,0,0,0,0,0,0,0,0,0,0,0,-0.261799,-0.000237833,-1.5,-nan,0,0,3,0,0,0,0,0,0,0,0,1.9603e-19
450,-3.1147e-12,1.43603e-38,-1.52012e-06,-3.18057e-12,1.43591e-38,-3.62841e-12,-1.06601e-13,0,0,0,0,0,0,0,0,0,0,0,0,0,0,0,0,0,0,0,0,0,-0.261799,-0.00023171,-1.5,-nan,0,0,3,0,0,0,0,0,0,0,0,1.9603e-19
460,-3.1147e-12,1.43603e-38,-1.52012e-06,-3.18057e-12,1.43591e-38,0,-1.06601e-13,0,0,0,0,0,0,0,0,0,0,0,0,0,0,0,0,0,0,0,0,0,-0.261799,-0.000225291,-1.5,-nan,0,0,3,0,0,0,0,0,0,0,0,1.9603e-19
470,-3.1147e-12,1.43603e-38,-1.52012e-06,-3.18057e-12,1.43591e-38,-3.62841e-12,-1.06601e-13,0,0,0,0,0,0,0,0,0,0,0,0,0,0,0,0,0,0,0,0,0,-0.261799,-0.000218604,-1.5,-nan,0,0,3,0,0,0,0,0,0,0,0,1.9603e-19
480,-3.1147e-12,1.43603e-38,-1.52012e-06,-3.18057e-12,1.43591e-38,0,-1.06602e-13,0,0,0,0,0,0,0,0,0,0,0,0,0,0,0,0,0,0,0,0,0,-0.261799,-0.000212115,-1.5,-nan,0,0,3,0,0,0,0,0,0,0,0,1.9603e-19
490,-3.1147e-12,1.43603e-38,-1.52012e-06,-3.18057e-12,1.43591e-38,-3.62841e-12,-1.06602e-13,0,0,0,0,0,0,0,0,0,0,0,0,0,0,0,0,0,0,0,0,0,-0.261799,-0.000205406,-1.5,-nan,0,0,3,0,0,0,0,0,0,0,0,1.9603e-19
500,-3.1147e-12,1.43603e-38,-1.52012e-06,-3.18057e-12,1.43591e-38,0,-1.06602e-13,0,0,0,0,0,0,0,0,0,0,0,0,0,0,0,0,0,0,0,0,0,-0.261799,-0.000198905,-1.5,-nan,0,0,3,0,0,0,0,0,0,0,0,1.9603e-19
510,-3.1147e-12,1.43603e-38,-1.52012e-06,-3.18057e-12,1.43591e-38,-3.62841e-12,-1.06602e-13,0,0,0,0,0,0,0,0,0,0,0,0,0,0,0,0,0,0,0,0,0,-0.261799,-0.000192614,-1.5,-nan,0,0,3,0,0,0,0,0,0,0,0,1.9603e-19
520,-3.1147e-12,1.43603e-38,-1.52012e-06,-3.18057e-12,1.43591e-38,0,-1.06603e-13,0,0,0,0,0,0,0,0,0,0,0,0,0,0,0,0,0,0,0,0,0,-0.261799,-0.000186897,-1.5,-nan,0,0,3,0,0,0,0,0,0,0,0,1.9603e-19
530,-3.1147e-12,1.43603e-38,-1.52012e-06,-3.18057e-12,1.43591e-38,-3.62841e-12,-1.06603e-13,0,0,0,0,0,0,0,0,0,0,0,0,0,0,0,0,0,0,0,0,0,-0.261799,-0.000180985,-1.5,-nan,0,0,3,0,0,0,0,0,0,0,0,1.9603e-19
540,-3.1147e-12,1.43603e-38,-1.52012e-06,-3.18057e-12,1.43591e-38,0,-1.06603e-13,0,0,0,0,0,0,0,0,0,0,0,0,0,0,0,0,0,0,0,0,0,-0.261799,-0.000175969,-1.5,-nan,0,0,3,0,0,0,0,0,0,0,0,1.9603e-19
550,-3.1147e-12,1.43603e-38,-1.52012e-06,-3.18057e-12,1.43591e-38,-3.62841e-12,-1.06603e-13,0,0,0,0,0,0,0,0,0,0,0,0,0,0,0,0,0,0,0,0,0,-0.261799,-0.000170404,-1.5,-nan,0,0,3,0,0,0,0,0,0,0,0,1.9603e-19
560,-3.1147e-12,1.43603e-38,-1.52012e-06,-3.18057e-12,1.43591e-38,0,-1.06604e-13,0,0,0,0,0,0,0,0,0,0,0,0,0,0,0,0,0,0,0,0,0,-0.261799,-0.00016401,-1.5,-nan,0,0,3,0,0,0,0,0,0,0,0,1.9603e-19
570,-3.1147e-12,1.43603e-38,-1.52012e-06,-3.18057e-12,1.43591e-38,-3.62841e-12,-1.06604e-13,0,0,0,0,0,0,0,0,0,0,0,0,0,0,0,0,0,0,0,0,0,-0.261799,-0.000158822,-1.5,-nan,0,0,3,0,0,0,0,0,0,0,0,1.9603e-19
580,-3.1147e-12,1.43603e-38,-1.52012e-06,-3.18057e-12,1.43591e-38,0,-1.06604e-13,0,0,0,0,0,0,0,0,0,0,0,0,0,0,0,0,0,0,0,0,0,-0.261799,-0.000154108,-1.5,-nan,0,0,3,0,0,0,0,0,0,0,0,1.9603e-19
590,-3.1147e-12,1.43603e-38,-1.52012e-06,-3.18057e-12,1.43591e-38,-3.62841e-12,-1.06605e-13,0,0,0,0,0,0,0,0,0,0,0,0,0,0,0,0,0,0,0,0,0,-0.261799,-0.000149233,-1.5,-nan,0,0,3,0,0,0,0,0,0,0,0,1.9603e-19
600,-3.1147e-12,1.43603e-38,-1.52012e-06,-3.18057e-12,1.43591e-38,0,-1.06605e-13,0,0,0,0,0,0,0,0,0,0,0,0,0,0,0,0,0,0,0,0,0,-0.261799,-0.000144806,-1.5,-nan,0,0,3,0,0,0,0,0,0,0,0,1.9603e-19
610,-3.1147e-12,1.43603e-38,-1.52012e-06,-3.18057e-12,1.43591e-38,-3.62841e-12,-1.06605e-13,0,0,0,0,0,0,0,0,0,0,0,0,0,0,0,0,0,0,0,0,0,-0.261799,-0.000140511,-1.5,-nan,0,0,3,0,0,0,0,0,0,0,0,1.9603e-19
620,-3.1147e-12,1.43603e-38,-1.52012e-06,-3.18057e-12,1.43591e-38,0,-1.06605e-13,0,0,0,0,0,0,0,0,0,0,0,0,0,0,0,0,0,0,0,0,0,-0.261799,-0.000135238,-1.5,-nan,0,0,3,0,0,0,0,0,0,0,0,1.9603e-19
630,-3.1147e-12,1.43603e-38,-1.52012e-06,-3.18057e-12,1.43591e-38,-3.62841e-12,-1.06606e-13,0,0,0,0,0,0,0,0,0,0,0,0,0,0,0,0,0,0,0,0,0,-0.261799,-0.000130961,-1.5,-nan,0,0,3,0,0,0,0,0,0,0,0,1.9603e-19
640,-3.1147e-12,1.43603e-38,-1.52012e-06,-3.18057e-12,1.43591e-38,0,-1.06606e-13,0,0,0,0,0,0,0,0,0,0,0,0,0,0,0,0,0,0,0,0,0,-0.261799,-0.000126818,-1.5,-nan,0,0,3,0,0,0,0,0,0,0,0,1.9603e-19
650,-3.1147e-12,1.43603e-38,-1.52012e-06,-3.18057e-12,1.43591e-38,-3.62841e-12,-1.06606e-13,0,0,0,0,0,0,0,0,0,0,0,0,0,0,0,0,0,0,0,0,0,-0.261799,-0.000123553,-1.5,-nan,0,0,3,0,0,0,0,0,0,0,0,1.9603e-19
660,-3.1147e-12,1.43603e-38,-1.52012e-06,-3.18057e-12,1.43591e-38,0,-1.06606e-13,0,0,0,0,0,0,0,0,0,0,0,0,0,0,0,0,0,0,0,0,0,-0.261799,-0.000120372,-1.5,-nan,0,0,3,0,0,0,0,0,0,0,0,1.9603e-19
670,-3.1147e-12,1.43603e-38,-1.52012e-06,-3.18057e-12,1.43591e-38,-3.62841e-12,-1.06607e-13,0,0,0,0,0,0,0,0,0,0,0,0,0,0,0,0,0,0,0,0,0,-0.261799,-0.000117273,-1.5,-nan,0,0,3,0,0,0,0,0,0,0,0,1.9603e-19
680,-3.1147e-12,1.43603e-38,-1.52012e-06,-3.18057e-12,1.43591e-38,0,-1.06607e-13,0,0,0,0,0,0,0,0,0,0,0,0,0,0,0,0,0,0,0,0,0,-0.261799,-0.000113564,-1.5,-nan,0,0,3,0,0,0,0,0,0,0,0,1.9603e-19
690,-3.1147e-12,1.43603e-38,-1.52012e-06,-3.18057e-12,1.43591e-38,-3.62841e-12,-1.06607e-13,0,0,0,0,0,0,0,0,0,0,0,0,0,0,0,0,0,0,0,0,0,-0.261799,-0.000109746,-1.5,-nan,0,0,3,0,0,0,0,0,0,0,0,1.9603e-19
700,-3.1147e-12,1.43603e-38,-1.52012e-06,-3.18057e-12,1.43591e-38,0,-1.06607e-13,0,0,0,0,0,0,0,0,0,0,0,0,0,0,0,0,0,0,0,0,0,-0.261799,-0.000106059,-1.5,-nan,0,0,3,0,0,0,0,0,0,0,0,1.9603e-19
710,-3.1147e-12,1.43603e-38,-1.52012e-06,-3.18057e-12,1.43591e-38,-3.62841e-12,-1.06608e-13,0,0,0,0,0,0,0,0,0,0,0,0,0,0,0,0,0,0,0,0,0,-0.261799,-0.000102911,-1.5,-nan,0,0,3,0,0,0,0,0,0,0,0,1.9603e-19
720,-3.1147e-12,1.43603e-38,-1.52012e-06,-3.18057e-12,1.43591e-38,0,-1.06608e-13,0,0,0,0,0,0,0,0,0,0,0,0,0,0,0,0,0,0,0,0,0,-0.261799,-9.98568e-05,-1.5,-nan,0,0,3,0,0,0,0,0,0,0,0,1.9603e-19
730,-3.1147e-12,1.43603e-38,-1.52012e-06,-3.18057e-12,1.43591e-38,-3.62841e-12,-1.06608e-13,0,0,0,0,0,0,0,0,0,0,0,0,0,0,0,0,0,0,0,0,0,-0.261799,-9.68929e-05,-1.5,-nan,0,0,3,0,0,0,0,0,0,0,0,1.9603e-19
740,-3.1147e-12,1.43603e-38,-1.52012e-06,-3.18057e-12,1.43591e-38,0,-1.06609e-13,0,0,0,0,0,0,0,0,0,0,0,0,0,0,0,0,0,0,0,0,0,-0.261799,-9.38282e-05,-1.5,-nan,0,0,3,0,0,0,0,0,0,0,0,1.9603e-19
750,-3.1147e-12,1.43603e-38,-1.52012e-06,-3.18057e-12,1.43591e-38,-3.62841e-12,-1.06609e-13,0,0,0,0,0,0,0,0,0,0,0,0,0,0,0,0,0,0,0,0,0,-0.261799,-9.06761e-05,-1.5,-nan,0,0,3,0,0,0,0,0,0,0,0,1.9603e-19
760,-3.1147e-12,1.43603e-38,-1.52012e-06,-3.18057e-12,1.43591e-38,0,-1.06609e-13,0,0,0,0,0,0,0,0,0,0,0,0,0,0,0,0,0,0,0,0,0,-0.261799,-8.7808e-05,-1.5,-nan,0,0,3,0,0,0,0,0,0,0,0,1.9603e-19
770,-3.1147e-12,1.43603e-38,-1.52012e-06,-3.18057e-12,1.43591e-38,-3.62841e-12,-1.06609e-13,0,0,0,0,0,0,0,0,0,0,0,0,0,0,0,0,0,0,0,0,0,-0.261799,-8.50307e-05,-1.5,-nan,0,0,3,0,0,0,0,0,0,0,0,1.9603e-19
780,-3.1147e-12,1.43603e-38,-1.52012e-06,-3.18057e-12,1.43591e-38,0,-1.0661e-13,0,0,0,0,0,0,0,0,0,0,0,0,0,0,0,0,0,0,0,0,0,-0.261799,-8.25068e-05,-1.5,-nan,0,0,3,0,0,0,0,0,0,0,0,1.9603e-19
790,-3.1147e-12,1.43603e-38,-1.52012e-06,-3.18057e-12,1.43591e-38,-3.62841e-12,-1.0661e-13,0,0,0,0,0,0,0,0,0,0,0,0,0,0,0,0,0,0,0,0,0,-0.261799,-7.98971e-05,-1.5,-nan,0,0,3,0,0,0,0,0,0,0,0,1.9603e-19
800,-3.1147e-12,1.43603e-38,-1.52012e-06,-3.18057e-12,1.43591e-38,0,-1.0661e-13,0,0,0,0,0,0,0,0,0,0,0,0,0,0,0,0,0,0,0,0,0,-0.261799,-7.75269e-05,-1.5,-nan,0,0,3,0,0,0,0,0,0,0,0,1.9603e-19
810,-3.1147e-12,1.43603e-38,-1.52012e-06,-3.18057e-12,1.43591e-38,-3.62841e-12,-1.0661e-13,0,0,0,0,0,0,0,0,0,0,0,0,0,0,0,0,0,0,0,0,0,-0.261799,-7.49206e-05,-1.5,-nan,0,0,3,0,0,0,0,0,0,0,0,1.9603e-19
820,-3.1147e-12,1.43603e-38,-1.52012e-06,-3.18057e-12,1.43591e-38,0,-1.06611e-13,0,0,0,0,0,0,0,0,0,0,0,0,0,0,0,0,0,0,0,0,0,-0.261799,-7.24037e-05,-1.5,-nan,0,0,3,0,0,0,0,0,0,0,0,1.9603e-19
830,-3.1147e-12,1.43603e-38,-1.52012e-06,-3.18057e-12,1.43591e-38,-3.62841e-12,-1.06611e-13,0,0,0,0,0,0,0,0,0,0,0,0,0,0,0,0,0,0,0,0,0,-0.261799,-7.02547e-05,-1.5,-nan,0,0,3,0,0,0,0,0,0,0,0,1.9603e-19
840,-3.1147e-12,1.43603e-38,-1.52012e-06,-3.18057e-12,1.43591e-38,0,-1.06611e-13,0,0,0,0,0,0,0,0,0,0,0.8,0,-66461948,-1368074656,-66461948,-1368074656,-1368074616,-1368074616,-1368074576,-2114302968,0,-0.261799,-6.47538e-05,-1.5,-nan,0,0,3,0,0,0,0,0,0,0,0,0
850,-3.1147e-12,1.43603e-38,-1.52012e-06,-3.18057e-12,1.43591e-38,-3.62841e-12,-1.06612e-13,0,0,0,0,0,0,0,0,0,0,0.8,0,-66461948,-1368074656,-66461948,-1368074656,-1368074616,-1368074616,-1368074576,-2114302968,0,-0.261799,-5.62189e-05,-1.5,-nan,0,0,3,0,0,0,0,0,0,0,0,0
860,-3.1147e-12,1.43603e-38,-1.52012e-06,-3.18057e-12,1.43591e-38,0,-1.06612e-13,0,0,-7.68763,-0.208722,0.381134,0,0,0,0,0,-0.245128,-0.208722,149,11,149,11,196,11,149,64,0,-0.261799,-5.46608e-05,-1.5,-nan,0,0,3,0,0,0,0,0,0,0,0,2491
870,-3.1147e-12,1.43603e-38,-1.52012e-06,-3.18057e-12,1.43591e-38,-3.62841e-12,-1.06612e-13,0,0,-7.68763,-0.208722,0.381134,0,0,0,0,0,-0.245128,-0.208722,149,11,149,11,196,11,149,64,0,-0.261799,-5.3146e-05,-1.5,-nan,0,0,3,0,0,0,0,0,0,0,0,2491
880,-3.1147e-12,1.43603e-38,-1.52012e-06,-3.18057e-12,1.43591e-38,0,-1.06612e-13,0,0,-7.68763,-0.208722,0.381134,0,0,0,0,0,-0.245128,-0.208722,149,11,149,11,196,11,149,64,0,-0.261799,-5.1465e-05,-1.5,-nan,0,0,3,0,0,0,0,0,0,0,0,2491
890,-3.1147e-12,1.43603e-38,-1.52012e-06,-3.18057e-12,1.43591e-38,-3.62841e-12,-1.06613e-13,0,0,-7.68763,-0.208722,0.381134,0,0,0,0,0,-0.245128,-0.208722,149,11,149,11,196,11,149,64,0,-0.261799,-4.95363e-05,-1.5,-nan,0,0,3,0,0,0,0,0,0,0,0,2491
900,-3.1147e-12,1.43603e-38,-1.52012e-06,-3.18057e-12,1.43591e-38,0,-1.06613e-13,0,0,-7.68763,-0.208722,0.381134,0,0,0,0,0,-0.245128,-0.208722,149,11,149,11,196,11,149,64,0,-0.261799,-4.79685e-05,-1.5,-nan,0,0,3,0,0,0,0,0,0,0,0,2491
910,-3.1147e-12,1.43603e-38,-1.52012e-06,-3.18057e-12,1.43591e-38,-3.62841e-12,-1.06613e-13,0,0,-7.68763,-0.208722,0.381134,0,0,0,0,0,-0.245128,-0.208722,149,11,149,11,196,11,149,64,0,-0.261799,-4.64503e-05,-1.5,-nan,0,0,3,0,0,0,0,0,0,0,0,2491
920,-3.1147e-12,1.43603e-38,-1.52012e-06,-3.18057e-12,1.43591e-38,0,-1.06613e-13,0,0,-7.68763,-0.208722,0.381134,0,0,0,0,0,-0.245128,-0.208722,149,11,149,11,196,11,149,64,0,-0.261799,-4.49811e-05,-1.5,-nan,0,0,3,0,0,0,0,0,0,0,0,2491
930,-3.1147e-12,1.43603e-38,-1.52012e-06,-3.18057e-12,1.43591e-38,-3.62841e-12,-1.06614e-13,0,0,-7.68763,-0.208722,0.381134,0,0,0,0,0,-0.245128,-0.208722,149,11,149,11,196,11,149,64,0,-0.261799,-4.3646e-05,-1.5,-nan,0,0,3,0,0,0,0,0,0,0,0,2491
940,-3.1147e-12,1.43603e-38,-1.52012e-06,-3.18057e-12,1.43591e-38,0,-1.06614e-13,0,0,-7.68763,-0.208722,0.381134,0,0,0,0,0,-0.245128,-0.208722,149,11,149,11,196,11,149,64,0,-0.261799,-4.23505e-05,-1.5,-nan,0,0,3,0,0,0,0,0,0,0,0,2491
950,-3.1147e-12,1.43603e-38,-1.52012e-06,-3.18057e-12,1.43591e-38,-3.62841e-12,-1.06614e-13,0,0,-7.68763,-0.208722,0.381134,0,0,0,0,0,-0.245128,-0.208722,149,11,149,11,196,11,149,64,0,-0.261799,-4.10109e-05,-1.5,-nan,0,0,3,0,0,0,0,0,0,0,0,2491
960,-3.1147e-12,1.43603e-38,-1.52012e-06,-3.18057e-12,1.43591e-38,0,-1.06615e-13,0,0,-7.68763,-0.208722,0.381134,0,0,0,0,0,-0.245128,-0.208722,149,11,149,11,196,11,149,64,0,-0.261799,-3.97138e-05,-1.5,-nan,0,0,3,0,0,0,0,0,0,0,0,2491
970,-3.1147e-12,1.43603e-38,-1.52012e-06,-3.18057e-12,1.43591e-38,-3.62841e-12,-1.06615e-13,0,0,-7.68763,-0.208722,0.381134,0,0,0,0,0,-0.245128,-0.208722,149,11,149,11,196,11,149,64,0,-0.261799,-3.8535e-05,-1.5,-nan,0,0,3,0,0,0,0,0,0,0,0,2491
980,-3.1147e-12,1.43603e-38,-1.52012e-06,-3.18057e-12,1.43591e-38,0,-1.06615e-13,0,0,-7.19782,-0.257078,0.241901,0,0,0,0,0,-0.0244741,-0.257078,149,11,149,11,202,11,149,65,0,-0.261799,-3.73912e-05,-1.5,-nan,0,0,3,0,0,0,0,0,0,0,0,2862
990,-3.1147e-12,1.43603e-38,-1.52012e-06,-3.18057e-12,1.43591e-38,-3.62841e-12,-1.06615e-13,0,0,-7.19782,-0.257078,0.241901,0,0,0,0,0,-0.0244741,-0.257078,149,11,149,11,202,11,149,65,0,-0.261799,-3.62085e-05,-1.5,-nan,0,0,3,0,0,0,0,0,0,0,0,2862
1000,-3.1147e-12,1.43603e-38,-1.52012e-06,-3.18057e-12,1.43591e-38,0,-1.06616e-13,0,0,-7.19782,-0.257078,0.241901,0,0,0,0,0,-0.0244741,-0.257078,149,11,149,11,202,11,149,65,0,-0.261799,-3.51344e-05,-1.5,-nan,0,0,3,0,0,0,0,0,0,0,0,2862
1010,-3.1147e-12,1.43603e-38,-1.52012e-06,-3.18057e-12,1.43591e-38,-3.62841e-12,-1.06616e-13,0,0,-7.19782,-0.257078,0.241901,0,0,0,0,0,-0.0244741,-0.257078,149,11,149,11,202,11,149,65,0,-0.261799,-3.40915e-05,-1.5,-nan,0,0,3,0,0,0,0,0,0,0,0,2862
1020,-3.1147e-12,1.43603e-38,-1.52012e-06,-3.18057e-12,1.43591e-38,0,-1.06616e-13,0,0,-7.19782,-0.257078,0.241901,0,0,0,0,0,-0.0244741,-0.257078,149,11,149,11,202,11,149,65,0,-0.261799,-3.28793e-05,-1.5,-nan,0,0,3,0,0,0,0,0,0,0,0,2862
1030,-3.1147e-12,1.43603e-38,-1.52012e-06,-3.18057e-12,1.43591e-38,-3.62841e-12,-1.06616e-13,0,0,-7.19782,-0.257078,0.241901,0,0,0,0,0,-0.0244741,-0.257078,149,11,149,11,202,11,149,65,0,-0.261799,-3.20328e-05,-1.5,-nan,0,0,3,0,0,0,0,0,0,0,0,2862
1040,-3.1147e-12,1.43603e-38,-1.52012e-06,-3.18057e-12,1.43591e-38,0,-1.06617e-13,0,0,-7.19782,-0.257078,0.241901,0,0,0,0,0,-0.0244741,-0.257078,149,11,149,11,202,11,149,65,0,-0.261799,-3.11451e-05,-1.5,-nan,0,0,3,0,0,0,0,0,0,0,0,2862
1050,-3.1147e-12,1.43603e-38,-1.52012e-06,-3.18057e-12,1.43591e-38,-3.62841e-12,-1.06617e-13,0,0,-7.19782,-0.257078,0.241901,0,0,0,0,0,-0.0244741,-0.257078,149,11,149,11,202,11,149,65,0,-0.261799,-3.016e-05,-1.5,-nan,0,0,3,0,0,0,0,0,0,0,0,2862
1060,-3.1147e-12,1.43603e-38,-1.52012e-06,-3.18057e-12,1.43591e-38,0,-1.06617e-13,0,0,-7.19782,-0.257078,0.241901,0,0,0,0,0,-0.0244741,-0.257078,149,11,149,11,202,11,149,65,0,-0.261799,-2.92648e-05,-1.5,-nan,0,0,3,0,0,0,0,0,0,0,0,2862
1070,-3.1147e-12,1.43603e-38,-1.52012e-06,-3.18057e-12,1.43591e-38,-3.62841e-12,-1.06618e-13,0,0,-7.19782,-0.257078,0.241901,0,0,0,0,0,-0.0244741,-0.257078,149,11,149,11,202,11,149,65,0,-0.261799,-2.83961e-05,-1.5,-nan,0,0,3,0,0,0,0,0,0,0,0,2862
1080,-3.1147e-12,1.43603e-38,-1.52012e-06,-3.18057e-12,1.43591e-38,0,-1.06618e-13,0,0,-7.19782,-0.257078,0.241901,0,0,0,0,0,-0.0244741,-0.257078,149,11,149,11,202,11,149,65,0,-0.261799,-2.7498e-05,-1.5,-nan,0,0,3,0,0,0,0,0,0,0,0,2862
1090,-3.1147e-12,1.43603e-38,-1.52012e-06,-3.18057e-12,1.43591e-38,-3.62841e-12,-1.06618e-13,0,0,-7.19782,-0.257078,0.241901,0,0,0,0,0,-0.0244741,-0.257078,149,11,149,11,202,11,149,65,0,-0.261799,-2.66282e-05,-1.5,-nan,0,0,3,0,0,0,0,0,0,0,0,2862
1100,-3.1147e-12,1.43603e-38,-1.52012e-06,-3.18057e-12,1.43591e-38,0,-1.06618e-13,0,0,-7.19782,-0.257078,0.241901,0,0,0,0,0,-0.0244741,-0.257078,149,11,149,11,202,11,149,65,0,-0.261799,-2.5786e-05,-1.5,-nan,0,0,3,0,0,0,0,0,0,0,0,2862
1110,-3.1147e-12,1.43603e-38,-1.52012e-06,-3.18057e-12,1.43591e-38,-3.62841e-12,-1.06619e-13,0,0,-7.19782,-0.257078,0.241901,0,0,0,0,0,-0.0244741,-0.257078,149,11,149,11,202,11,149,65,0,-0.261799,-2.49703e-05,-1.5,-nan,0,0,3,0,0,0,0,0,0,0,0,2862
1120,-3.1147e-12,1.43603e-38,-1.52012e-06,-3.18057e-12,1.43591e-38,0,-1.06619e-13,0,0,-7.19782,-0.257078,0.241901,0,0,0,0,0,-0.0244741,-0.257078,149,11,149,11,202,11,149,65,0,-0.261799,-2.42296e-05,-1.5,-nan,0,0,3,0,0,0,0,0,0,0,0,2862
1130,-3.1147e-12,1.43603e-38,-1.52012e-06,-3.18057e-12,1.43591e-38,-3.62841e-12,-1.06619e-13,0,0,-7.19782,-0.257078,0.241901,0,0,0,0,0,-0.0244741,-0.257078,149,11,149,11,202,11,149,65,0,-0.261799,-2.35108e-05,-1.5,-nan,0,0,3,0,0,0,0,0,0,0,0,2862
1140,-3.1147e-12,1.43603e-38,-1.52012e-06,-3.18057e-12,1.43591e-38,0,-1.06619e-13,0,0,-7.19782,-0.257078,0.241901,0,0,0,0,0,-0.0244741,-0.257078,149,11,149,11,202,11,149,65,0,-0.261799,-2.28592e-05,-1.5,-nan,0,0,3,0,0,0,0,0,0,0,0,2862
1150,-3.1147e-12,1.43603e-38,-1.52012e-06,-3.18057e-12,1.43591e-38,-3.62841e-12,-1.0662e-13,0,0,-7.19782,-0.257078,0.241901,0,0,0,0,0,-0.0244741,-0.257078,149,11,149,11,202,11,149,65,0,-0.261799,-2.19566e-05,-1.5,-nan,0,0,3,0,0,0,0,0,0,0,0,2862
1160,-3.1147e-12,1.43603e-38,-1.52012e-06,-3.18057e-12,1.43591e-38,0,-1.0662e-13,0,0,-7.19782,-0.257078,0.241901,0,0,0,0,0,-0.0244741,-0.257078,149,11,149,11,202,11,149,65,0,-0.261799,-2.12617e-05,-1.5,-nan,0,0,3,0,0,0,0,0,0,0,0,2862
1170,-3.1147e-12,1.43603e-38,-1.52012e-06,-3.18057e-12,1.43591e-38,-3.62841e-12,-1.0662e-13,0,0,-7.19782,-0.257078,0.241901,0,0,0,0,0,-0.0244741,-0.257078,149,11,149,11,202,11,149,65,0,-0.261799,-2.05892e-05,-1.5,-nan,0,0,3,0,0,0,0,0,0,0,0,2862
1180,-3.1147e-12,1.43603e-38,-1.52012e-06,-3.18057e-12,1.43591e-38,0,-1.0662e-13,0,0,-7.19782,-0.257078,0.241901,0,0,0,0,0,-0.0244741,-0.257078,149,11,149,11,202,11,149,65,0,-0.261799,-1.98159e-05,-1.5,-nan,0,0,3,0,0,0,0,0,0,0,0,2862
1190,-3.1147e-12,1.43603e-38,-1.52012e-06,-3.18057e-12,1.43591e-38,-3.62841e-12,-1.06621e-13,0,0,-7.19782,-0.257078,0.241901,0,0,0,0,0,-0.0244741,-0.257078,149,11,149,11,202,11,149,65,0,-0.261799,-1.92278e-05,-1.5,-nan,0,0,3,0,0,0,0,0,0,0,0,2862
1200,-3.1147e-12,1.43603e-38,-1.52012e-06,-3.18057e-12,1.43591e-38,0,-1.06621e-13,0,0,-7.19782,-0.257078,0.241901,0,0,0,0,0,-0.0244741,-0.257078,149,11,149,11,202,11,149,65,0,-0.261799,-1.87328e-05,-1.5,-nan,0,0,3,0,0,0,0,0,0,0,0,2862
1210,-3.1147e-12,1.43603e-38,-1.52012e-06,-3.18057e-12,1.43591e-38,-3.62841e-12,-1.06621e-13,0,0,-7.19782,-0.257078,0.241901,0,0,0,0,0,-0.0244741,-0.257078,149,11,149,11,202,11,149,65,0,-0.261799,-1.81402e-05,-1.5,-nan,0,0,3,0,0,0,0,0,0,0,0,2862
1220,-3.1147e-12,1.43603e-38,-1.52012e-06,-3.18057e-12,1.43591e-38,0,-1.06622e-13,0,0,-7.19782,-0.257078,0.241901,0,0,0,0,0,-0.0244741,-0.257078,149,11,149,11,202,11,149,65,0,-0.261799,-1.75661e-05,-1.5,-nan,0,0,3,0,0,0,0,0,0,0,0,2862
1230,-3.1147e-12,1.43603e-38,-1.52012e-06,-3.18057e-12,1.43591e-38,-3.62841e-12,-1.06622e-13,0,0,-7.19782,-0.257078,0.241901,0,0,0,0,0,-0.0244741,-0.257078,149,11,149,11,202,11,149,65,0,-0.261799,-1.70105e-05,-1.5,-nan,0,0,3,0,0,0,0,0,0,0,0,2862
1240,-3.1147e-12,1.43603e-38,-1.52012e-06,-3.18057e-12,1.43591e-38,0,-1.06622e-13,0,0,-7.19782,-0.257078,0.241901,0,0,0,0,0,-0.0244741,-0.257078,149,11,149,11,202,11,149,65,0,-0.261799,-1.65056e-05,-1.5,-nan,0,0,3,0,0,0,0,0,0,0,0,2862
1250,-3.1147e-12,1.43603e-38,-1.52012e-06,-3.18057e-12,1.43591e-38,-3.62841e-12,-1.06622e-13,0,0,-7.19782,-0.257078,0.241901,0,0,0,0,0,-0.0244741,-0.257078,149,11,149,11,202,11,149,65,0,-0.261799,-1.59835e-05,-1.5,-nan,0,0,3,0,0,0,0,0,0,0,0,2862
1260,-3.1147e-12,1.43603e-38,-1.52012e-06,-3.18057e-12,1.43591e-38,0,-1.06623e-13,0,0,-7.19782,-0.257078,0.241901,0,0,0,0,0,-0.0244741,-0.257078,149,11,149,11,202,11,149,65,0,-0.261799,-1.55093e-05,-1.5,-nan,0,0,3,0,0,0,0,0,0,0,0,2862
1270,-3.1147e-12,1.43603e-38,-1.52012e-06,-3.18057e-12,1.43591e-38,-3.62841e-12,-1.06623e-13,0,0,-7.19782,-0.257078,0.241901,0,0,0,0,0,-0.0244741,-0.257078,149,11,149,11,202,11,149,65,0,-0.261799,-1.49582e-05,-1.5,-nan,0,0,3,0,0,0,0,0,0,0,0,2862
1280,-3.1147e-12,1.43603e-38,-1.52012e-06,-3.18057e-12,1.43591e-38,0,-1.06623e-13,0,0,-7.19782,-0.257078,0.241901,0,0,0,0,0,-0.0244741,-0.257078,149,11,149,11,202,11,149,65,0,-0.261799,-1.44848e-05,-1.5,-nan,0,0,3,0,0,0,0,0,0,0,0,2862
1290,-3.1147e-12,1.43603e-38,-1.52012e-06,-3.18057e-12,1.43591e-38,-3.62841e-12,-1.06623e-13,0,0,-7.19782,-0.257078,0.241901,0,0,0,0,0,-0.0244741,-0.257078,149,11,149,11,202,11,149,65,0,-0.261799,-1.40264e-05,-1.5,-nan,0,0,3,0,0,0,0,0,0,0,0,2862
1300,-3.1147e-12,1.43603e-38,-1.52012e-06,-3.18057e-12,1.43591e-38,0,-1.06624e-13,0,0,-7.19782,-0.257078,0.241901,0,0,0,0,0,-0.0244741,-0.257078,149,11,149,11,202,11,149,65,0,-0.261799,-1.35827e-05,-1.5,-nan,0,0,3,0,0,0,0,0,0,0,0,2862
1310,-3.1147e-12,1.43603e-38,-1.52012e-06,-3.18057e-12,1.43591e-38,-3.62841e-12,-1.06624e-13,0,0,-7.19782,-0.257078,0.241901,0,0,0,0,0,-0.0244741,-0.257078,149,11,149,11,202,11,149,65,0,-0.261799,-1.31796e-05,-1.5,-nan,0,0,3,0,0,0,0,0,0,0,0,2862
1320,-3.1147e-12,1.43603e-38,-1.52012e-06,-3.18057e-12,1.43591e-38,0,-1.06624e-13,0,0,-7.19782,-0.257078,0.241901,0,0,0,0,0,-0.0244741,-0.257078,149,11,149,11,202,11,149,65,0,-0.261799,-1.27884e-05,-1.5,-nan,0,0,3,0,0,0,0,0,0,0,0,2862
1330,-3.1147e-12,1.43603e-38,-1.52012e-06,-3.18057e-12,1.43591e-38,-3.62841e-12,-1.06625e-13,0,0,-7.19782,-0.257078,0.241901,0,0,0,0,0,-0.0244741,-0.257078,149,11,149,11,202,11,149,65,0,-0.261799,-1.23839e-05,-1.5,-nan,0,0,3,0,0,0,0,0,0,0,0,2862
1340,-3.1147e-12,1.43603e-38,-1.52012e-06,-3.18057e-12,1.43591e-38,0,-1.06625e-13,0,0,-7.19782,-0.257078,0.241901,0,0,0,0,0,-0.0244741,-0.257078,149,11,149,11,202,11,149,65,0,-0.261799,-1.19678e-05,-1.5,-nan,0,0,3,0,0,0,0,0,0,0,0,2862
1350,-3.1147e-12,1.43603e-38,-1.52012e-06,-3.18057e-12,1.43591e-38,-3.62841e-12,-1.06625e-13,0,0,-7.19782,-0.257078,0.241901,0,0,0,0,0,-0.0244741,-0.257078,149,11,149,11,202,11,149,65,0,-0.261799,-1.15891e-05,-1.5,-nan,0,0,3,0,0,0,0,0,0,0,0,2862
1360,-3.1147e-12,1.43603e-38,-1.52012e-06,-3.18057e-12,1.43591e-38,0,-1.06625e-13,0,0,-7.19782,-0.257078,0.241901,0,0,0,0,0,-0.0244741,-0.257078,149,11,149,11,202,11,149,65,0,-0.261799,-1.12225e-05,-1.5,-nan,0,0,3,0,0,0,0,0,0,0,0,2862
1370,-3.1147e-12,1.43603e-38,-1.52012e-06,-3.18057e-12,1.43591e-38,-3.62841e-12,-1.06626e-13,0,0,-7.19782,-0.257078,0.241901,0,0,0,0,0,-0.0244741,-0.257078,149,11,149,11,202,11,149,65,0,-0.261799,-1.09336e-05,-1.5,-nan,0,0,3,0,0,0,0,0,0,0,0,2862
1380,-3.1147e-12,1.43603e-38,-1.52012e-06,-3.18057e-12,1.43591e-38,0,-1.06626e-13,0,0,-7.19782,-0.257078,0.241901,0,0,0,0,0,-0.0244741,-0.257078,149,11,149,11,202,11,149,65,0,-0.261799,-1.06521e-05,-1.5,-nan,0,0,3,0,0,0,0,0,0,0,0,2862
1390,-3.1147e-12,1.43603e-38,-1.52012e-06,-3.18057e-12,1.43591e-38,-3.62841e-12,-1.06626e-13,0,0,-7.19782,-0.257078,0.241901,0,0,0,0,0,-0.0244741,-0.257078,149,11,149,11,202,11,149,65,0,-0.261799,-1.03359e-05,-1.5,-nan,0,0,3,0,0,0,0,0,0,0,0,2862
1400,-3.1147e-12,1.43603e-38,-1.52012e-06,-3.18057e-12,1.43591e-38,0,-1.06626e-13,0,0,-7.19782,-0.257078,0.241901,0,0,0,0,0,-0.0244741,-0.257078,149,11,149,11,202,11,149,65,0,-0.261799,-9.96839e-06,-1.5,-nan,0,0,3,0,0,0,0,0,0,0,0,2862
1410,-3.1147e-12,1.43603e-38,-1.52012e-06,-3.18057e-12,1.43591e-38,-3.62841e-12,-1.06627e-13,0,0,-7.19782,-0.257078,0.241901,0,0,0,0,0,-0.0244741,-0.257078,149,11,149,11,202,11,149,65,0,-0.261799,-9.65309e-06,-1.5,-nan,0,0,3,0,0,0,0,0,0,0,0,2862
1420,-3.1147e-12,1.43603e-38,-1.52012e-06,-3.18057e-12,1.43591e-38,0,-1.06627e-13,0,0,-7.19782,-0.257078,0.241901,0,0,0,0,0,-0.0244741,-0.257078,149,11,149,11,202,11,149,65,0,-0.261799,-9.34776e-06,-1.5,-nan,0,0,3,0,0,0,0,0,0,0,0,2862
1430,-3.1147e-12,1.43603e-38,-1.52012e-06,-3.18057e-12,1.43591e-38,-3.62841e-12,-1.06627e-13,0,0,-7.19782,-0.257078,0.241901,0,0,0,0,0,-0.0244741,-0.257078,149,11,149,11,202,11,149,65,0,-0.261799,-9.0703e-06,-1.5,-nan,0,0,3,0,0,0,0,0,0,0,0,2862
1440,-3.1147e-12,1.43603e-38,-1.52012e-06,-3.18057e-12,1.43591e-38,0,-1.06628e-13,0,0,-7.19782,-0.257078,0.241901,0,0,0,0,0,-0.0244741,-0.257078,149,11,149,11,202,11,149,65,0,-0.261799,-8.78341e-06,-1.5,-nan,0,0,3,0,0,0,0,0,0,0,0,2862
1450,-3.1147e-12,1.43603e-38,-1.52012e-06,-3.18057e-12,1.43591e-38,-3.62841e-12,-1.06628e-13,0,0,-7.19782,-0.257078,0.241901,0,0,0,0,0,-0.0244741,-0.257078,149,11,149,11,202,11,149,65,0,-0.261799,-8.52284e-06,-1.5,-nan,0,0,3,0,0,0,0,0,0,0,0,2862
1460,-3.1147e-12,1.43603e-38,-1.52012e-06,-3.18057e-12,1.43591e-38,0,-1.06628e-13,0,0,-7.19782,-0.257078,0.241901,0,0,0,0,0,-0.0244741,-0.257078,149,11,149,11,202,11,149,65,0,-0.261799,-8.26987e-06,-1.5,-nan,0,0,3,0,0,0,0,0,0,0,0,2862
1470,-3.1147e-12,1.43603e-38,-1.52012e-06,-3.18057e-12,1.43591e-38,-3.62841e-12,-1.06628e-13,0,0,-7.19782,-0.257078,0.241901,0,0,0,0,0,-0.0244741,-0.257078,149,11,149,11,202,11,149,65,0,-0.261799,-7.99205e-06,-1.5,-nan,0,0,3,0,0,0,0,0,0,0,0,2862
1480,-3.1147e-12,1.43603e-38,-1.52012e-06,-3.18057e-12,1.43591e-38,0,-1.06629e-13,0,0,-7.19782,-0.257078,0.241901,0,0,0,0,0,-0.0244741,-0.257078,149,11,149,11,202,11,149,65,0,-0.261799,-7.73926e-06,-1.5,-nan,0,0,3,0,0,0,0,0,0,0,0,2862
1490,-3.1147e-12,1.43603e-38,-1.52012e-06,-3.18057e-12,1.43591e-38,-3.62841e-12,-1.06629e-13,0,0,-7.19782,-0.257078,0.241901,0,0,0,0,0,-0.0244741,-0.257078,149,11,149,11,202,11,149,65,0,-0.261799,-7.49447e-06,-1.5,-nan,0,0,3,0,0,0,0,0,0,0,0,2862
1500,-3.1147e-12,1.43603e-38,-1.52012e-06,-3.18057e-12,1.43591e-38,0,-1.06629e-13,0,0,-7.19782,-0.257078,0.241901,0,0,0,0,0,-0.0244741,-0.257078,149,11,149,11,202,11,149,65,0,-0.261799,-7.27214e-06,-1.5,-nan,0,0,3,0,0,0,0,0,0,0,0,2862
1510,-3.1147e-12,1.43603e-38,-1.52012e-06,-3.18057e-12,1.43591e-38,-3.62841e-12,-1.06629e-13,0,0,-7.19782,-0.257078,0.241901,0,0,0,0,0,-0.0244741,-0.257078,149,11,149,11,202,11,149,65,0,-0.261799,-7.05629e-06,-1.5,-nan,0,0,3,0,0,0,0,0,0,0,0,2862
1520,-3.1147e-12,1.43603e-38,-1.52012e-06,-3.18057e-12,1.43591e-38,0,-1.0663e-13,0,0,-7.19782,-0.257078,0.241901,0,0,0,0,0,-0.0244741,-0.257078,149,11,149,11,202,11,149,65,0,-0.261799,-6.84685e-06,-1.5,-nan,0,0,3,0,0,0,0,0,0,0,0,2862
1530,-3.1147e-12,1.43603e-38,-1.52012e-06,-3.18057e-12,1.43591e-38,-3.62841e-12,-1.0663e-13,0,0,-7.19782,-0.257078,0.241901,0,0,0,0,0,-0.0244741,-0.257078,149,11,149,11,202,11,149,65,0,-0.261799,-6.60339e-06,-1.5,-nan,0,0,3,0,0,0,0,0,0,0,0,2862
1540,-3.1147e-12,1.43603e-38,-1.52012e-06,-3.18057e-12,1.43591e-38,0,-1.0663e-13,0,0,-7.19782,-0.257078,0.241901,0,0,0,0,0,-0.0244741,-0.257078,149,11,149,11,202,11,149,65,0,-0.261799,-6.42038e-06,-1.5,-nan,0,0,3,0,0,0,0,0,0,0,0,2862
1550,-3.1147e-12,1.43603e-38,-1.52012e-06,-3.18057e-12,1.43591e-38,-3.62841e-12,-1.06631e-13,0,0,-7.19782,-0.257078,0.241901,0,0,0,0,0,-0.0244741,-0.257078,149,11,149,11,202,11,149,65,0,-0.261799,-6.24253e-06,-1.5,-nan,0,0,3,0,0,0,0,0,0,0,0,2862
1560,-3.1147e-12,1.43603e-38,-1.52012e-06,-3.18057e-12,1.43591e-38,0,-1.06631e-13,0,0,-7.19782,-0.257078,0.241901,0,0,0,0,0,-0.0244741,-0.257078,149,11,149,11,202,11,149,65,0,-0.261799,-6.05724e-06,-1.5,-nan,0,0,3,0,0,0,0,0,0,0,0,2862
1570,-3.1147e-12,1.43603e-38,-1.52012e-06,-3.18057e-12,1.43591e-38,-3.62841e-12,-1.06631e-13,0,0,-7.19782,-0.257078,0.241901,0,0,0,0,0,-0.0244741,-0.257078,149,11,149,11,202,11,149,65,0,-0.261799,-5.86565e-06,-1.5,-nan,0,0,3,0,0,0,0,0,0,0,0,2862
1580,-3.1147e-12,1.43603e-38,-1.52012e-06,-3.18057e-12,1.43591e-38,0,-1.06631e-13,0,0,-7.19782,-0.257078,0.241901,0,0,0,0,0,-0.0244741,-0.257078,149,11,149,11,202,11,149,65,0,-0.261799,-5.69164e-06,-1.5,-nan,0,0,3,0,0,0,0,0,0,0,0,2862
1590,-3.1147e-12,1.43603e-38,-1.52012e-06,-3.18057e-12,1.43591e-38,-3.62841e-12,-1.06632e-13,0,0,-7.19782,-0.257078,0.241901,0,0,0,0,0,-0.0244741,-0.257078,149,11,149,11,202,11,149,65,0,-0.261799,-5.51161e-06,-1.5,-nan,0,0,3,0,0,0,0,0,0,0,0,2862
1600,-3.1147e-12,1.43603e-38,-1.52012e-06,-3.18057e-12,1.43591e-38,0,-1.06632e-13,0,0,-7.19782,-0.257078,0.241901,0,0,0,0,0,-0.0244741,-0.257078,149,11,149,11,202,11,149,65,0,-0.261799,-5.32646e-06,-1.5,-nan,0,0,3,0,0,0,0,0,0,0,0,2862
1610,-3.1147e-12,1.43603e-38,-1.52012e-06,-3.18057e-12,1.43591e-38,-3.62841e-12,-1.06632e-13,0,0,-7.19782,-0.257078,0.241901,0,0,0,0,0,-0.0244741,-0.257078,149,11,149,11,202,11,149,65,0,-0.261799,-5.15798e-06,-1.5,-nan,0,0,3,0,0,0,0,0,0,0,0,2862
1620,-3.1147e-12,1.43603e-38,-1.52012e-06,-3.18057e-12,1.43591e-38,0,-1.06632e-13,0,0,-7.19782,-0.257078,0.241901,0,0,0,0,0,-0.0244741,-0.257078,149,11,149,11,202,11,149,65,0,-0.261799,-4.99483e-06,-1.5,-nan,0,0,3,0,0,0,0,0,0,0,0,2862
1630,-3.1147e-12,1.43603e-38,-1.52012e-06,-3.18057e-12,1.43591e-38,-3.62841e-12,-1.06633e-13,0,0,-7.19782,-0.257078,0.241901,0,0,0,0,0,-0.0244741,-0.257078,149,11,149,11,202,11,149,65,0,-0.261799,-4.84658e-06,-1.5,-nan,0,0,3,0,0,0,0,0,0,0,0,2862
1640,-3.1147e-12,1.43603e-38,-1.52012e-06,-3.18057e-12,1.43591e-38,0,-1.06633e-13,0,0,-7.19782,-0.257078,0.241901,0,0,0,0,0,-0.0244741,-0.257078,149,11,149,11,202,11,149,65,0,-0.261799,-4.70272e-06,-1.5,-nan,0,0,3,0,0,0,0,0,0,0,0,2862
1650,-3.1147e-12,1.43603e-38,-1.52012e-06,-3.18057e-12,1.43591e-38,-3.62841e-12,-1.06633e-13,0,0,-7.19782,-0.257078,0.241901,0,0,0,0,0,-0.0244741,-0.257078,149,11,149,11,202,11,149,65,0,-0.261799,-4.56314e-06,-1.5,-nan,0,0,3,0,0,0,0,0,0,0,0,2862
1660,-3.1147e-12,1.43603e-38,-1.52012e-06,-3.18057e-12,1.43591e-38,0,-1.06634e-13,0,0,-7.19782,-0.257078,0.241901,0,0,0,0,0,-0.0244741,-0.257078,149,11,149,11,202,11,149,65,0,-0.261799,-4.40088e-06,-1.5,-nan,0,0,3,0,0,0,0,0,0,0,0,2862
1670,-3.1147e-12,1.43603e-38,-1.52012e-06,-3.18057e-12,1.43591e-38,-3.62841e-12,-1.06634e-13,0,0,-7.19782,-0.257078,0.241901,0,0,0,0,0,-0.0244741,-0.257078,149,11,149,11,202,11,149,65,0,-0.261799,-4.26168e-06,-1.5,-nan,0,0,3,0,0,0,0,0,0,0,0,2862
1680,-3.1147e-12,1.43603e-38,-1.52012e-06,-3.18057e-12,1.43591e-38,0,-1.06634e-13,0,0,-7.19782,-0.257078,0.241901,0,0,0,0,0,-0.0244741,-0.257078,149,11,149,11,202,11,149,65,0,-0.261799,-4.12688e-06,-1.5,-nan,0,0,3,0,0,0,0,0,0,0,0,2862
1690,-3.1147e-12,1.43603e-38,-1.52012e-06,-3.18057e-12,1.43591e-38,-3.62841e-12,-1.06634e-13,0,0,-7.19782,-0.257078,0.241901,0,0,0,0,0,-0.0244741,-0.257078,149,11,149,11,202,11,149,65,0,-0.261799,-4.00439e-06,-1.5,-nan,0,0,3,0,0,0,0,0,0,0,0,2862
1700,-3.1147e-12,1.43603e-38,-1.52012e-06,-3.18057e-12,1.43591e-38,0,-1.06635e-13,0,0,-7.19782,-0.257078,0.241901,0,0,0,0,0,-0.0244741,-0.257078,149,11,149,11,202,11,149,65,0,-0.261799,-3.88553e-06,-1.5,-nan,0,0,3,0,0,0,0,0,0,0,0,2862
1710,-3.1147e-12,1.43603e-38,-1.52012e-06,-3.18057e-12,1.43591e-38,-3.62841e-12,-1.06635e-13,0,0,-7.19782,-0.257078,0.241901,0,0,0,0,0,-0.0244741,-0.257078,149,11,149,11,202,11,149,65,0,-0.261799,-3.7855e-06,-1.5,-nan,0,0,3,0,0,0,0,0,0,0,0,2862
1720,-3.1147e-12,1.43603e-38,-1.52012e-06,-3.18057e-12,1.43591e-38,0,-1.06635e-13,0,0,-7.19782,-0.257078,0.241901,0,0,0,0,0,-0.0244741,-0.257078,149,11,149,11,202,11,149,65,0,-0.261799,-3.66577e-06,-1.5,-nan,0,0,3,0,0,0,0,0,0,0,0,2862
1730,-3.1147e-12,1.43603e-38,-1.52012e-06,-3.18057e-12,1.43591e-38,-3.62841e-12,-1.06635e-13,0,0,-7.19782,-0.257078,0.241901,0,0,0,0,0,-0.0244741,-0.257078,149,11,149,11,202,11,149,65,0,-0.261799,-3.54262e-06,-1.5,-nan,0,0,3,0,0,0,0,0,0,0,0,2862
1740,-3.1147e-12,1.43603e-38,-1.52012e-06,-3.18057e-12,1.43591e-38,0,-1.06636e-13,0,0,-7.19782,-0.257078,0.241901,0,0,0,0,0,-0.0244741,-0.257078,149,11,149,11,202,11,149,65,0,-0.261799,-3.34706e-06,-1.5,-nan,0,0,3,0,0,0,0,0,0,0,0,2862
1750,-3.1147e-12,1.43603e-38,-1.52012e-06,-3.18057e-12,1.43591e-38,-3.62841e-12,-1.06636e-13,0,0,-7.19782,-0.257078,0.241901,0,0,0,0,0,-0.0244741,-0.257078,149,11,149,11,202,11,149,65,0,-0.261799,-3.24771e-06,-1.5,-nan,0,0,3,0,0,0,0,0,0,0,0,2862
1760,-3.1147e-12,1.43603e-38,-1.52012e-06,-3.18057e-12,1.43591e-38,0,-1.06636e-13,0,0,-7.19782,-0.257078,0.241901,0,0,0,0,0,-0.0244741,-0.257078,149,11,149,11,202,11,149,65,0,-0.261799,-3.15132e-06,-1.5,-nan,0,0,3,0,0,0,0,0,0,0,0,2862
1770,-3.1147e-12,1.43603e-38,-1.52012e-06,-3.18057e-12,1.43591e-38,-3.62841e-12,-1.06636e-13,0,0,-7.19782,-0.257078,0.241901,0,0,0,0,0,-0.0244741,-0.257078,149,11,149,11,202,11,149,65,0,-0.261799,-3.05778e-06,-1.5,-nan,0,0,3,0,0,0,0,0,0,0,0,2862
1780,-3.1147e-12,1.43603e-38,-1.52012e-06,-3.18057e-12,1.43591e-38,0,-1.06637e-13,0,0,-7.19782,-0.257078,0.241901,0,0,0,0,0,-0.0244741,-0.257078,149,11,149,11,202,11,149,65,0,-0.261799,-2.94295e-06,-1.5,-nan,0,0,3,0,0,0,0,0,0,0,0,2862
1790,-3.1147e-12,1.43603e-38,-1.52012e-06,-3.18057e-12,1.43591e-38,-3.62841e-12,-1.06637e-13,0,0,-7.19782,-0.257078,0.241901,0,0,0,0,0,-0.0244741,-0.257078,149,11,149,11,202,11,149,65,0,-0.261799,-2.8498e-06,-1.5,-nan,0,0,3,0,0,0,0,0,0,0,0,2862
1800,-3.1147e-12,1.43603e-38,-1.52012e-06,-3.18057e-12,1.43591e-38,0,-1.06637e-13,0,0,-7.19782,-0.257078,0.241901,0,0,0,0,0,-0.0244741,-0.257078,149,11,149,11,202,11,149,65,0,-0.261799,-2.75966e-06,-1.5,-nan,0,0,3,0,0,0,0,0,0,0,0,2862
1810,-3.1147e-12,1.43603e-38,-1.52012e-06,-3.18057e-12,1.43591e-38,-3.62841e-12,-1.06638e-13,0,0,-7.19782,-0.257078,0.241901,0,0,0,0,0,-0.0244741,-0.257078,149,11,149,11,202,11,149,65,0,-0.261799,-2.67775e-06,-1.5,-nan,0,0,3,0,0,0,0,0,0,0,0,2862
1820,-3.1147e-12,1.43603e-38,-1.52012e-06,-3.18057e-12,1.43591e-38,0,-1.06638e-13,0,0,-7.19782,-0.257078,0.241901,0,0,0,0,0,-0.0244741,-0.257078,149,11,149,11,202,11,149,65,0,-0.261799,-2.59827e-06,-1.5,-nan,0,0,3,0,0,0,0,0,0,0,0,2862
1830,-3.1147e-12,1.43603e-38,-1.52012e-06,-3.18057e-12,1.43591e-38,-3.62841e-12,-1.06638e-13,0,0,-7.19782,-0.257078,0.241901,0,0,0,0,0,-0.0244741,-0.257078,149,11,149,11,202,11,149,65,0,-0.261799,-2.52115e-06,-1.5,-nan,0,0,3,0,0,0,0,0,0,0,0,2862
1840,-3.1147e-12,1.43603e-38,-1.52012e-06,-3.18057e-12,1.43591e-38,0,-1.06638e-13,0,0,-7.19782,-0.257078,0.241901,0,0,0,0,0,-0.0244741,-0.257078,149,11,149,11,202,11,149,65,0,-0.261799,-2.42647e-06,-1.5,-nan,0,0,3,0,0,0,0,0,0,0,0,2862
1850,-3.1147e-12,1.43603e-38,-1.52012e-06,-3.18057e-12,1.43591e-38,-3.62841e-12,-1.06639e-13,0,0,-7.19782,-0.257078,0.241901,0,0,0,0,0,-0.0244741,-0.257078,149,11,149,11,202,11,149,65,0,-0.261799,-2.34967e-06,-1.5,-nan,0,0,3,0,0,0,0,0,0,0,0,2862
1860,-3.1147e-12,1.43603e-38,-1.52012e-06,-3.18057e-12,1.43591e-38,0,-1.06639e-13,0,0,-7.19782,-0.257078,0.241901,0,0,0,0,0,-0.0244741,-0.257078,149,11,149,11,202,11,149,65,0,-0.261799,-2.27535e-06,-1.5,-nan,0,0,3,0,0,0,0,0,0,0,0,2862
1870,-3.1147e-12,1.43603e-38,-1.52012e-06,-3.18057e-12,1.43591e-38,-3.62841e-12,-1.06639e-13,0,0,-7.19782,-0.257078,0.241901,0,0,0,0,0,-0.0244741,-0.257078,149,11,149,11,202,11,149,65,0,-0.261799,-2.20338e-06,-1.5,-nan,0,0,3,0,0,0,0,0,0,0,0,2862
1880,-3.1147e-12,1.43603e-38,-1.52012e-06,-3.18057e-12,1.43591e-38,0,-1.06639e-13,0,0,-7.19782,-0.257078,0.241901,0,0,0,0,0,-0.0244741,-0.257078,149,11,149,11,202,11,149,65,0,-0.261799,-2.14668e-06,-1.5,-nan,0,0,3,0,0,0,0,0,0,0,0,2862
1890,-3.1147e-12,1.43603e-38,-1.52012e-06,-3.18057e-12,1.43591e-38,-3.62841e-12,-1.0664e-13,0,0,-7.19782,-0.257078,0.241901,0,0,0,0,0,-0.0244741,-0.257078,149,11,149,11,202,11,149,65,0,-0.261799,-2.09143e-06,-1.5,-nan,0,0,3,0,0,0,0,0,0,0,0,2862
1900,-3.1147e-12,1.43603e-38,-1.52012e-06,-3.18057e-12,1.43591e-38,0,-1.0664e-13,0,0,-7.19782,-0.257078,0.241901,0,0,0,0,0,-0.0244741,-0.257078,149,11,149,11,202,11,149,65,0,-0.261799,-2.02527e-06,-1.5,-nan,0,0,3,0,0,0,0,0,0,0,0,2862
1910,-3.1147e-12,1.43603e-38,-1.52012e-06,-3.18057e-12,1.43591e-38,-3.62841e-12,-1.0664e-13,0,0,-7.19782,-0.257078,0.241901,0,0,0,0,0,-0.0244741,-0.257078,149,11,149,11,202,11,149,65,0,-0.261799,-1.95724e-06,-1.5,-nan,0,0,3,0,0,0,0,0,0,0,0,2862
1920,-3.1147e-12,1.43603e-38,-1.52012e-06,-3.18057e-12,1.43591e-38,0,-1.06641e-13,0,0,-7.19782,-0.257078,0.241901,0,0,0,0,0,-0.0244741,-0.257078,149,11,149,11,202,11,149,65,0,-0.261799,-1.89914e-06,-1.5,-nan,0,0,3,0,0,0,0,0,0,0,0,2862
1930,-3.1147e-12,1.43603e-38,-1.52012e-06,-3.18057e-12,1.43591e-38,-3.62841e-12,-1.06641e-13,0,0,-7.19782,-0.257078,0.241901,0,0,0,0,0,-0.0244741,-0.257078,149,11,149,11,202,11,149,65,0,-0.261799,-1.83903e-06,-1.5,-nan,0,0,3,0,0,0,0,0,0,0,0,2862
1940,-3.1147e-12,1.43603e-38,-1.52012e-06,-3.18057e-12,1.43591e-38,0,-1.06641e-13,0,0,-7.19782,-0.257078,0.241901,0,0,0,0,0,-0.0244741,-0.257078,149,11,149,11,202,11,149,65,0,-0.261799,-1.78445e-06,-1.5,-nan,0,0,3,0,0,0,0,0,0,0,0,2862
1950,-3.1147e-12,1.43603e-38,-1.52012e-06,-3.18057e-12,1.43591e-38,-3.62841e-12,-1.06641e-13,0,0,-7.19782,-0.257078,0.241901,0,0,0,0,0,-0.0244741,-0.257078,149,11,149,11,202,11,149,65,0,-0.261799,-1.73148e-06,-1.5,-nan,0,0,3,0,0,0,0,0,0,0,0,2862
1960,-3.1147e-12,1.43603e-38,-1.52012e-06,-3.18057e-12,1.43591e-38,0,-1.06642e-13,0,0,-7.19782,-0.257078,0.241901,0,0,0,0,0,-0.0244741,-0.257078,149,11,149,11,202,11,149,65,0,-0.261799,-1.67672e-06,-1.5,-nan,0,0,3,0,0,0,0,0,0,0,0,2862
1970,-3.1147e-12,1.43603e-38,-1.52012e-06,-3.18057e-12,1.43591e-38,-3.62841e-12,-1.06642e-13,0,0,-7.19782,-0.257078,0.241901,0,0,0,0,0,-0.0244741,-0.257078,149,11,149,11,202,11,149,65,0,-0.261799,-1.62039e-06,-1.5,-nan,0,0,3,0,0,0,0,0,0,0,0,2862
1980,-3.1147e-12,1.43603e-38,-1.52012e-06,-3.18057e-12,1.43591e-38,0,-1.06642e-13,0,0,-7.19782,-0.257078,0.241901,0,0,0,0,0,-0.0244741,-0.257078,149,11,149,11,202,11,149,65,0,-0.261799,-1.5691e-06,-1.5,-nan,0,0,3,0,0,0,0,0,0,0,0,2862
1990,-3.1147e-12,1.43603e-38,-1.52012e-06,-3.18057e-12,1.43591e-38,-3.62841e-12,-1.06642e-13,0,0,-7.19782,-0.257078,0.241901,0,0,0,0,0,-0.0244741,-0.257078,149,11,149,11,202,11,149,65,0,-0.261799,-1.51944e-06,-1.5,-nan,0,0,3,0,0,0,0,0,0,0,0,2862
2000,-3.1147e-12,1.43603e-38,-1.52012e-06,-3.18057e-12,1.43591e-38,0,-1.06643e-13,0,0,-7.19782,-0.257078,0.241901,0,0,0,0,0,-0.0244741,-0.257078,149,11,149,11,202,11,149,65,0,-0.261799,-1.47138e-06,-1.5,-nan,0,0,3,0,0,0,0,0,0,0,0,2862
2010,-3.1147e-12,1.43603e-38,-1.52012e-06,-3.18057e-12,1.43591e-38,-3.62841e-12,-1.06643e-13,0,0,-7.19782,-0.257078,0.241901,0,0,0,0,0,-0.0244741,-0.257078,149,11,149,11,202,11,149,65,0,-0.261799,-1.42771e-06,-1.5,-nan,0,0,3,0,0,0,0,0,0,0,0,2862
2020,-3.1147e-12,1.43603e-38,-1.52012e-06,-3.18057e-12,1.43591e-38,0,-1.06643e-13,0,0,-7.19782,-0.257078,0.241901,0,0,0,0,0,-0.0244741,-0.257078,149,11,149,11,202,11,149,65,0,-0.261799,-1.38533e-06,-1.5,-nan,0,0,3,0,0,0,0,0,0,0,0,2862
2030,-3.1147e-12,1.43603e-38,-1.52012e-06,-3.18057e-12,1.43591e-38,-3.62841e-12,-1.06644e-13,0,0,-7.19782,-0.257078,0.241901,0,0,0,0,0,-0.0244741,-0.257078,149,11,149,11,202,11,149,65,0,-0.261799,-1.33607e-06,-1.5,-nan,0,0,3,0,0,0,0,0,0,0,0,2862
2040,-3.1147e-12,1.43603e-38,-1.52012e-06,-3.18057e-12,1.43591e-38,0,-1.06644e-13,0,0,-7.19782,-0.257078,0.241901,0,0,0,0,0,-0.0244741,-0.257078,149,11,149,11,202,11,149,65,0,-0.261799,-1.29379e-06,-1.5,-nan,0,0,3,0,0,0,0,0,0,0,0,2862
2050,-3.1147e-12,1.43603e-38,-1.52012e-06,-3.18057e-12,1.43591e-38,-3.62841e-12,-1.06644e-13,0,0,-7.19782,-0.257078,0.241901,0,0,0,0,0,-0.0244741,-0.257078,149,11,149,11,202,11,149,65,0,-0.261799,-1.25795e-06,-1.5,-nan,0,0,3,0,0,0,0,0,0,0,0,2862
2060,-3.1147e-12,1.43603e-38,-1.52012e-06,-3.18057e-12,1.43591e-38,0,-1.06644e-13,0,0,-7.19782,-0.257078,0.241901,0,0,0,0,0,-0.0244741,-0.257078,149,11,149,11,202,11,149,65,0,-0.261799,-1.22556e-06,-1.5,-nan,0,0,3,0,0,0,0,0,0,0,0,2862
2070,-3.1147e-12,1.43603e-38,-1.52012e-06,-3.18057e-12,1.43591e-38,-3.62841e-12,-1.06645e-13,0,0,-7.19782,-0.257078,0.241901,0,0,0,0,0,-0.0244741,-0.257078,149,11,149,11,202,11,149,65,0,-0.261799,-1.1868e-06,-1.5,-nan,0,0,3,0,0,0,0,0,0,0,0,2862
2080,-3.1147e-12,1.43603e-38,-1.52012e-06,-3.18057e-12,1.43591e-38,0,-1.06645e-13,0,0,-7.19782,-0.257078,0.241901,0,0,0,0,0,-0.0244741,-0.257078,149,11,149,11,202,11,149,65,0,-0.261799,-1.15159e-06,-1.5,-nan,0,0,3,0,0,0,0,0,0,0,0,2862
2090,-3.1147e-12,1.43603e-38,-1.52012e-06,-3.18057e-12,1.43591e-38,-3.62841e-12,-1.06645e-13,0,0,-7.19782,-0.257078,0.241901,0,0,0,0,0,-0.0244741,-0.257078,149,11,149,11,202,11,149,65,0,-0.261799,-1.11743e-06,-1.5,-nan,0,0,3,0,0,0,0,0,0,0,0,2862
2100,-3.1147e-12,1.43603e-38,-1.52012e-06,-3.18057e-12,1.43591e-38,0,-1.06645e-13,0,0,-7.19782,-0.257078,0.241901,0,0,0,0,0,-0.0244741,-0.257078,149,11,149,11,202,11,149,65,0,-0.261799,-1.0755e-06,-1.5,-nan,0,0,3,0,0,0,0,0,0,0,0,2862
2110,-3.1147e-12,1.43603e-38,-1.52012e-06,-3.18057e-12,1.43591e-38,-3.62841e-12,-1.06646e-13,0,0,-7.19782,-0.257078,0.241901,0,0,0,0,0,-0.0244741,-0.257078,149,11,149,11,202,11,149,65,0,-0.261799,-1.04148e-06,-1.5,-nan,0,0,3,0,0,0,0,0,0,0,0,2862
2120,-3.1147e-12,1.43603e-38,-1.52012e-06,-3.18057e-12,1.43591e-38,0,-1.06646e-13,0,0,-7.19782,-0.257078,0.241901,0,0,0,0,0,-0.0244741,-0.257078,149,11,149,11,202,11,149,65,0,-0.261799,-1.00854e-06,-1.5,-nan,0,0,3,0,0,0,0,0,0,0,0,2862
2130,-3.1147e-12,1.43603e-38,-1.52012e-06,-3.18057e-12,1.43591e-38,-3.62841e-12,-1.06646e-13,0,0,-7.19782,-0.257078,0.241901,0,0,0,0,0,-0.0244741,-0.257078,149,11,149,11,202,11,149,65,0,-0.261799,-9.78601e-07,-1.5,-nan,0,0,3,0,0,0,0,0,0,0,0,2862
2140,-3.1147e-12,1.43603e-38,-1.52012e-06,-3.18057e-12,1.43591e-38,0,-1.06647e-13,0,0,-7.19782,-0.257078,0.241901,0,0,0,0,0,-0.0244741,-0.257078,149,11,149,11,202,11,149,65,0,-0.261799,-9.49555e-07,-1.5,-nan,0,0,3,0,0,0,0,0,0,0,0,2862
2150,-3.1147e-12,1.43603e-38,-1.52012e-06,-3.18057e-12,1.43591e-38,-3.62841e-12,-1.06647e-13,0,0,-7.19782,-0.257078,0.241901,0,0,0,0,0,-0.0244741,-0.257078,149,11,149,11,202,11,149,65,0,-0.261799,-9.21386e-07,-1.5,-nan,0,0,3,0,0,0,0,0,0,0,0,2862
2160,-3.1147e-12,1.43603e-38,-1.52012e-06,-3.18057e-12,1.43591e-38,0,-1.06647e-13,0,0,-7.19782,-0.257078,0.241901,0,0,0,0,0,-0.0244741,-0.257078,149,11,149,11,202,11,149,65,0,-0.261799,-8.88597e-07,-1.5,-nan,0,0,3,0,0,0,0,0,0,0,0,2862
2170,-3.1147e-12,1.43603e-38,-1.52012e-06,-3.18057e-12,1.43591e-38,-3.62841e-12,-1.06647e-13,0,0,-7.19782,-0.257078,0.241901,0,0,0,0,0,-0.0244741,-0.257078,149,11,149,11,202,11,149,65,0,-0.261799,-8.60491e-07,-1.5,-nan,0,0,3,0,0,0,0,0,0,0,0,2862
2180,-3.1147e-12,1.43603e-38,-1.52012e-06,-3.18057e-12,1.43591e-38,0,-1.06648e-13,0,0,-7.19782,-0.257078,0.241901,0,0,0,0,0,-0.0244741,-0.257078,149,11,149,11,202,11,149,65,0,-0.261799,-8.33273e-07,-1.5,-nan,0,0,3,0,0,0,0,0,0,0,0,2862
2190,-3.1147e-12,1.43603e-38,-1.52012e-06,-3.18057e-12,1.43591e-38,-3.62841e-12,-1.06648e-13,0,0,-7.19782,-0.257078,0.241901,0,0,0,0,0,-0.0244741,-0.257078,149,11,149,11,202,11,149,65,0,-0.261799,-8.08541e-07,-1.5,-nan,0,0,3,0,0,0,0,0,0,0,0,2862
2200,-3.1147e-12,1.43603e-38,-1.52012e-06,-3.18057e-12,1.43591e-38,0,-1.06648e-13,0,0,-7.19782,-0.257078,0.241901,0,0,0,0,0,-0.0244741,-0.257078,149,11,149,11,202,11,149,65,0,-0.261799,-7.84542e-07,-1.5,-nan,0,0,3,0,0,0,0,0,0,0,0,2862
2210,-3.1147e-12,1.43603e-38,-1.52012e-06,-3.18057e-12,1.43591e-38,-3.62841e-12,-1.06648e-13,0,0,-7.19782,-0.257078,0.241901,0,0,0,0,0,-0.0244741,-0.257078,149,11,149,11,202,11,149,65,0,-0.261799,-7.56645e-07,-1.5,-nan,0,0,3,0,0,0,0,0,0,0,0,2862
2220,-3.1147e-12,1.43603e-38,-1.52012e-06,-3.18057e-12,1.43591e-38,0,-1.06649e-13,0,0,-7.19782,-0.257078,0.241901,0,0,0,0,0,-0.0244741,-0.257078,149,11,149,11,202,11,149,65,0,-0.261799,-7.32712e-07,-1.5,-nan,0,0,3,0,0,0,0,0,0,0,0,2862
2230,-3.1147e-12,1.43603e-38,-1.52012e-06,-3.18057e-12,1.43591e-38,-3.62841e-12,-1.06649e-13,0,0,-7.19782,-0.257078,0.241901,0,0,0,0,0,-0.0244741,-0.257078,149,11,149,11,202,11,149,65,0,-0.261799,-7.12406e-07,-1.5,-nan,0,0,3,0,0,0,0,0,0,0,0,2862
2240,-3.1147e-12,1.43603e-38,-1.52012e-06,-3.18057e-12,1.43591e-38,0,-1.06649e-13,0,0,-7.19782,-0.257078,0.241901,0,0,0,0,0,-0.0244741,-0.257078,149,11,149,11,202,11,149,65,0,-0.261799,-6.89859e-07,-1.5,-nan,0,0,3,0,0,0,0,0,0,0,0,2862
2250,-3.1147e-12,1.43603e-38,-1.52012e-06,-3.18057e-12,1.43591e-38,-3.62841e-12,-1.06649e-13,0,0,-7.19782,-0.257078,0.241901,0,0,0,0,0,-0.0244741,-0.257078,149,11,149,11,202,11,149,65,0,-0.261799,-6.68038e-07,-1.5,-nan,0,0,3,0,0,0,0,0,0,0,0,2862
2260,-3.1147e-12,1.43603e-38,-1.52012e-06,-3.18057e-12,1.43591e-38,0,-1.0665e-13,0,0,-7.19782,-0.257078,0.241901,0,0,0,0,0,-0.0244741,-0.257078,149,11,149,11,202,11,149,65,0,-0.261799,-6.4821e-07,-1.5,-nan,0,0,3,0,0,0,0,0,0,0,0,2862
2270,-3.1147e-12,1.43603e-38,-1.52012e-06,-3.18057e-12,1.43591e-38,-3.62841e-12,-1.0665e-13,0,0,-7.19782,-0.257078,0.241901,0,0,0,0,0,-0.0244741,-0.257078,149,11,149,11,202,11,149,65,0,-0.261799,-6.2897e-07,-1.5,-nan,0,0,3,0,0,0,0,0,0,0,0,2862
2280,-3.1147e-12,1.43603e-38,-1.52012e-06,-3.18057e-12,1.43591e-38,0,-1.0665e-13,0,0,-7.19782,-0.257078,0.241901,0,0,0,0,0,-0.0244741,-0.257078,149,11,149,11,202,11,149,65,0,-0.261799,-6.09076e-07,-1.5,-nan,0,0,3,0,0,0,0,0,0,0,0,2862
2290,-3.1147e-12,1.43603e-38,-1.52012e-06,-3.18057e-12,1.43591e-38,-3.62841e-12,-1.06651e-13,0,0,-7.19782,-0.257078,0.241901,0,0,0,0,0,-0.0244741,-0.257078,149,11,149,11,202,11,149,65,0,-0.261799,-5.87418e-07,-1.5,-nan,0,0,3,0,0,0,0,0,0,0,0,2862
2300,-3.1147e-12,1.43603e-38,-1.52012e-06,-3.18057e-12,1.43591e-38,0,-1.06651e-13,0,0,-7.19782,-0.257078,0.241901,0,0,0,0,0,-0.0244741,-0.257078,149,11,149,11,202,11,149,65,0,-0.261799,-5.68838e-07,-1.5,-nan,0,0,3,0,0,0,0,0,0,0,0,2862
2310,-3.1147e-12,1.43603e-38,-1.52012e-06,-3.18057e-12,1.43591e-38,-3.62841e-12,-1.06651e-13,0,0,-7.19782,-0.257078,0.241901,0,0,0,0,0,-0.0244741,-0.257078,149,11,149,11,202,11,149,65,0,-0.261799,-5.51954e-07,-1.5,-nan,0,0,3,0,0,0,0,0,0,0,0,2862
2320,-3.1147e-12,1.43603e-38,-1.52012e-06,-3.18057e-12,1.43591e-38,0,-1.06651e-13,0,0,-7.19782,-0.257078,0.241901,0,0,0,0,0,-0.0244741,-0.257078,149,11,149,11,202,11,149,65,0,-0.261799,-5.34495e-07,-1.5,-nan,0,0,3,0,0,0,0,0,0,0,0,2862
2330,-3.1147e-12,1.43603e-38,-1.52012e-06,-3.18057e-12,1.43591e-38,-3.62841e-12,-1.06652e-13,0,0,-7.19782,-0.257078,0.241901,0,0,0,0,0,-0.0244741,-0.257078,149,11,149,11,202,11,149,65,0,-0.261799,-5.18639e-07,-1.5,-nan,0,0,3,0,0,0,0,0,0,0,0,2862
2340,-3.1147e-12,1.43603e-38,-1.52012e-06,-3.18057e-12,1.43591e-38,0,-1.06652e-13,0,0,-7.19782,-0.257078,0.241901,0,0,0,0,0,-0.0244741,-0.257078,149,11,149,11,202,11,149,65,0,-0.261799,-5.03245e-07,-1.5,-nan,0,0,3,0,0,0,0,0,0,0,0,2862
2350,-3.1147e-12,1.43603e-38,-1.52012e-06,-3.18057e-12,1.43591e-38,-3.62841e-12,-1.06652e-13,0,0,-7.19782,-0.257078,0.241901,0,0,0,0,0,-0.0244741,-0.257078,149,11,149,11,202,11,149,65,0,-0.261799,-4.85351e-07,-1.5,-nan,0,0,3,0,0,0,0,0,0,0,0,2862
2360,-3.1147e-12,1.43603e-38,-1.52012e-06,-3.18057e-12,1.43591e-38,0,-1.06652e-13,0,0,-7.19782,-0.257078,0.241901,0,0,0,0,0,-0.0244741,-0.257078,149,11,149,11,202,11,149,65,0,-0.261799,-4.69999e-07,-1.5,-nan,0,0,3,0,0,0,0,0,0,0,0,2862
2370,-3.1147e-12,1.43603e-38,-1.52012e-06,-3.18057e-12,1.43591e-38,-3.62841e-12,-1.06653e-13,0,0,-7.19782,-0.257078,0.241901,0,0,0,0,0,-0.0244741,-0.257078,149,11,149,11,202,11,149,65,0,-0.261799,-4.55133e-07,-1.5,-nan,0,0,3,0,0,0,0,0,0,0,0,2862
2380,-3.1147e-12,1.43603e-38,-1.52012e-06,-3.18057e-12,1.43591e-38,0,-1.06653e-13,0,0,-7.19782,-0.257078,0.241901,0,0,0,0,0,-0.0244741,-0.257078,149,11,149,11,202,11,149,65,0,-0.261799,-4.41624e-07,-1.5,-nan,0,0,3,0,0,0,0,0,0,0,0,2862
2390,-3.1147e-12,1.43603e-38,-1.52012e-06,-3.18057e-12,1.43591e-38,-3.62841e-12,-1.06653e-13,0,0,-7.19782,-0.257078,0.241901,0,0,0,0,0,-0.0244741,-0.257078,149,11,149,11,202,11,149,65,0,-0.261799,-4.30254e-07,-1.5,-nan,0,0,3,0,0,0,0,0,0,0,0,2862
2400,-3.1147e-12,1.43603e-38,-1.52012e-06,-3.18057e-12,1.43591e-38,0,-1.06654e-13,0,0,-7.19782,-0.257078,0.241901,0,0,0,0,0,-0.0244741,-0.257078,149,11,149,11,202,11,149,65,0,-0.261799,-4.19177e-07,-1.5,-nan,0,0,3,0,0,0,0,0,0,0,0,2862
2410,-3.1147e-12,1.43603e-38,-1.52012e-06,-3.18057e-12,1.43591e-38,-3.62841e-12,-1.06654e-13,0,0,-7.19782,-0.257078,0.241901,0,0,0,0,0,-0.0244741,-0.257078,149,11,149,11,202,11,149,65,0,-0.261799,-4.01828e-07,-1.5,-nan,0,0,3,0,0,0,0,0,0,0,0,2862
2420,-3.1147e-12,1.43603e-38,-1.52012e-06,-3.18057e-12,1.43591e-38,0,-1.06654e-13,0,0,-7.19782,-0.257078,0.241901,0,0,0,0,0,-0.0244741,-0.257078,149,11,149,11,202,11,149,65,0,-0.261799,-3.89118e-07,-1.5,-nan,0,0,3,0,0,0,0,0,0,0,0,2862
2430,-3.1147e-12,1.43603e-38,-1.52012e-06,-3.18057e-12,1.43591e-38,-3.62841e-12,-1.06654e-13,0,0,-7.19782,-0.257078,0.241901,0,0,0,0,0,-0.0244741,-0.257078,149,11,149,11,202,11,149,65,0,-0.261799,-3.76811e-07,-1.5,-nan,0,0,3,0,0,0,0,0,0,0,0,2862
2440,-3.1147e-12,1.43603e-38,-1.52012e-06,-3.18057e-12,1.43591e-38,0,-1.06655e-13,0,0,-7.19782,-0.257078,0.241901,0,0,0,0,0,-0.0244741,-0.257078,149,11,149,11,202,11,149,65,0,-0.261799,-3.65626e-07,-1.5,-nan,0,0,3,0,0,0,0,0,0,0,0,2862
2450,-3.1147e-12,1.43603e-38,-1.52012e-06,-3.18057e-12,1.43591e-38,-3.62841e-12,-1.06655e-13,0,0,-7.19782,-0.257078,0.241901,0,0,0,0,0,-0.0244741,-0.257078,149,11,149,11,202,11,149,65,0,-0.261799,-3.54061e-07,-1.5,-nan,0,0,3,0,0,0,0,0,0,0,0,2862
2460,-3.1147e-12,1.43603e-38,-1.52012e-06,-3.18057e-12,1.43591e-38,0,-1.06655e-13,0,0,-7.19782,-0.257078,0.241901,0,0,0,0,0,-0.0244741,-0.257078,149,11,149,11,202,11,149,65,0,-0.261799,-3.43558e-07,-1.5,-nan,0,0,3,0,0,0,0,0,0,0,0,2862
2470,-3.1147e-12,1.43603e-38,-1.52012e-06,-3.18057e-12,1.43591e-38,-3.62841e-12,-1.06655e-13,0,0,-7.19782,-0.257078,0.241901,0,0,0,0,0,-0.0244741,-0.257078,149,11,149,11,202,11,149,65,0,-0.261799,-3.33361e-07,-1.5,-nan,0,0,3,0,0,0,0,0,0,0,0,2862
2480,-3.1147e-12,1.43603e-38,-1.52012e-06,-3.18057e-12,1.43591e-38,0,-1.06656e-13,0,0,-7.19782,-0.257078,0.241901,0,0,0,0,0,-0.0244741,-0.257078,149,11,149,11,202,11,149,65,0,-0.261799,-3.22161e-07,-1.5,-nan,0,0,3,0,0,0,0,0,0,0,0,2862
2490,-3.1147e-12,1.43603e-38,-1.52012e-06,-3.18057e-12,1.43591e-38,-3.62841e-12,-1.06656e-13,0,0,-7.19782,-0.257078,0.241901,0,0,0,0,0,-0.0244741,-0.257078,149,11,149,11,202,11,149,65,0,-0.261799,-3.11971e-07,-1.5,-nan,0,0,3,0,0,0,0,0,0,0,0,2862
2500,-3.1147e-12,1.43603e-38,-1.52012e-06,-3.18057e-12,1.43591e-38,0,-1.06656e-13,0,0,-7.19782,-0.257078,0.241901,0,0,0,0,0,-0.0244741,-0.257078,149,11,149,11,202,11,149,65,0,-0.261799,-3.02712e-07,-1.5,-nan,0,0,3,0,0,0,0,0,0,0,0,2862
2510,-3.1147e-12,1.43603e-38,-1.52012e-06,-3.18057e-12,1.43591e-38,-3.62841e-12,-1.06657e-13,0,0,-7.19782,-0.257078,0.241901,0,0,0,0,0,-0.0244741,-0.257078,149,11,149,11,202,11,149,65,0,-0.261799,-2.93137e-07,-1.5,-nan,0,0,3,0,0,0,0,0,0,0,0,2862
2520,-3.1147e-12,1.43603e-38,-1.52012e-06,-3.18057e-12,1.43591e-38,0,-1.06657e-13,0,0,-7.19782,-0.257078,0.241901,0,0,0,0,0,-0.0244741,-0.257078,149,11,149,11,202,11,149,65,0,-0.261799,-2.85013e-07,-1.5,-nan,0,0,3,0,0,0,0,0,0,0,0,2862
2530,-3.1147e-12,1.43603e-38,-1.52012e-06,-3.18057e-12,1.43591e-38,-3.62841e-12,-1.06657e-13,0,0,-7.19782,-0.257078,0.241901,0,0,0,0,0,-0.0244741,-0.257078,149,11,149,11,202,11,149,65,0,-0.261799,-2.75998e-07,-1.5,-nan,0,0,3,0,0,0,0,0,0,0,0,2862
2540,-3.1147e-12,1.43603e-38,-1.52012e-06,-3.18057e-12,1.43591e-38,0,-1.06657e-13,0,0,-7.19782,-0.257078,0.241901,0,0,0,0,0,-0.0244741,-0.257078,149,11,149,11,202,11,149,65,0,-0.261799,-2.66726e-07,-1.5,-nan,0,0,3,0,0,0,0,0,0,0,0,2862
2550,-3.1147e-12,1.43603e-38,-1.52012e-06,-3.18057e-12,1.43591e-38,-3.62841e-12,-1.06658e-13,0,0,-7.19782,-0.257078,0.241901,0,0,0,0,0,-0.0244741,-0.257078,149,11,149,11,202,11,149,65,0,-0.261799,-2.56718e-07,-1.5,-nan,0,0,3,0,0,0,0,0,0,0,0,2862
2560,-3.1147e-12,1.43603e-38,-1.52012e-06,-3.18057e-12,1.43591e-38,0,-1.06658e-13,0,0,-7.19782,-0.257078,0.241901,0,0,0,0,0,-0.0244741,-0.257078,149,11,149,11,202,11,149,65,0,-0.261799,-2.50109e-07,-1.5,-nan,0,0,3,0,0,0,0,0,0,0,0,2862
2570,-3.1147e-12,1.43603e-38,-1.52012e-06,-3.18057e-12,1.43591e-38,-3.62841e-12,-1.06658e-13,0,0,-7.19782,-0.257078,0.241901,0,0,0,0,0,-0.0244741,-0.257078,149,11,149,11,202,11,149,65,0,-0.261799,-2.4318e-07,-1.5,-nan,0,0,3,0,0,0,0,0,0,0,0,2862
2580,-3.1147e-12,1.43603e-38,-1.52012e-06,-3.18057e-12,1.43591e-38,0,-1.06658e-13,0,0,-7.19782,-0.257078,0.241901,0,0,0,0,0,-0.0244741,-0.257078,149,11,149,11,202,11,149,65,0,-0.261799,-2.35962e-07,-1.5,-nan,0,0,3,0,0,0,0,0,0,0,0,2862
2590,-3.1147e-12,1.43603e-38,-1.52012e-06,-3.18057e-12,1.43591e-38,-3.62841e-12,-1.06659e-13,0,0,-7.19782,-0.257078,0.241901,0,0,0,0,0,-0.0244741,-0.257078,149,11,149,11,202,11,149,65,0,-0.261799,-2.28959e-07,-1.5,-nan,0,0,3,0,0,0,0,0,0,0,0,2862
2600,-3.1147e-12,1.43603e-38,-1.52012e-06,-3.18057e-12,1.43591e-38,0,-1.06659e-13,0,0,-7.19782,-0.257078,0.241901,0,0,0,0,0,-0.0244741,-0.257078,149,11,149,11,202,11,149,65,0,-0.261799,-2.20823e-07,-1.5,-nan,0,0,3,0,0,0,0,0,0,0,0,2862
2610,-3.1147e-12,1.43603e-38,-1.52012e-06,-3.18057e-12,1.43591e-38,-3.62841e-12,-1.06659e-13,0,0,-7.19782,-0.257078,0.241901,0,0,0,0,0,-0.0244741,-0.257078,149,11,149,11,202,11,149,65,0,-0.261799,-1.72198e-07,-1.5,-nan,0,0,3,0,0,0,0,0,0,0,0,2862
2620,-3.1147e-12,1.43603e-38,-1.52012e-06,-3.18057e-12,1.43591e-38,0,-1.0666e-13,0,0,-7.19782,-0.257078,0.241901,0,0,0,0,0,-0.0244741,-0.257078,149,11,149,11,202,11,149,65,0,-0.261799,-1.67087e-07,-1.5,-nan,0,0,3,0,0,0,0,0,0,0,0,2862
2630,-3.1147e-12,1.43603e-38,-1.52012e-06,-3.18057e-12,1.43591e-38,-3.62841e-12,-1.0666e-13,0,0,-7.19782,-0.257078,0.241901,0,0,0,0,0,-0.0244741,-0.257078,149,11,149,11,202,11,149,65,0,-0.261799,-1.61799e-07,-1.5,-nan,0,0,3,0,0,0,0,0,0,0,0,2862
2640,-3.1147e-12,1.43603e-38,-1.52012e-06,-3.18057e-12,1.43591e-38,0,-1.0666e-13,0,0,-7.19782,-0.257078,0.241901,0,0,0,0,0,-0.0244741,-0.257078,149,11,149,11,202,11,149,65,0,-0.261799,-1.56996e-07,-1.5,-nan,0,0,3,0,0,0,0,0,0,0,0,2862
