timestamp,A_x,A_y,A_z,P,Q,R,Phi,Theta,Psi,poseX,poseY,poseZ,state_X,state_Y,state_Z,state_VzB,state_Bx,state_By,state_Bz,p1_x,p1_y,p2_x,p2_y,p3_x,p3_y,p4_x,p4_y,roll,pitch,yaw,alt,targetHeading,highLevelState,lowLevelState,gateNumber,filtered_x,filtered_y,x_OT,y_OT,vx_OT,vy_OT,filtered_vx,filtered_vygateArearansac_corr_x,ransac_corr_y,ransac_corr_vx,ransac_corr_vy
10,0,0,0,0,0,0,0,0,0,0,0,0,0,0,0,0,0,0,0,0,0,0,0,0,0,0,0,0,-0.261799,0.0062205,-1.5,-nan,0,0,3,0,0,0,0,0,0,0,0,1.9603e-19,0,0,0,0
20,0,0,0,0,0,0,0,0,0,0,0,0,0,0,0,0,0,0,0,0,0,0,0,0,0,0,0,0,-0.261799,0.00599931,-1.5,-nan,0,0,3,0,0,0,0,0,0,0,0,1.9603e-19,0,0,0,0
30,-3.21239e-12,2.63443e-38,-1.55412e-06,-3.27827e-12,2.6342e-38,-3.40903e-12,-1.06589e-13,0,0,0,0,0,0,0,0,0,0,0,0,0,0,0,0,0,0,0,0,0,-0.261799,-0.00124911,-1.5,-nan,0,0,3,0,0,0,0,0,0,0,0,1.9603e-19,0,0,0,0
40,-3.21239e-12,2.63443e-38,-1.55412e-06,-3.27827e-12,2.6342e-38,0,-1.0659e-13,0,0,0,0,0,0,0,0,0,0,0,0,0,0,0,0,0,0,0,0,0,-0.261799,-0.00120715,-1.5,-nan,0,0,3,0,0,0,0,0,0,0,0,1.9603e-19,0,0,0,0
50,-3.21239e-12,2.63443e-38,-1.55412e-06,-3.27827e-12,2.6342e-38,-3.40903e-12,-1.0659e-13,0,0,0,0,0,0,0,0,0,0,0,0,0,0,0,0,0,0,0,0,0,-0.261799,-0.00116894,-1.5,-nan,0,0,3,0,0,0,0,0,0,0,0,1.9603e-19,0,0,0,0
60,-3.21239e-12,2.63443e-38,-1.55412e-06,-3.27827e-12,2.6342e-38,0,-1.0659e-13,0,0,0,0,0,0,0,0,0,0,0,0,0,0,0,0,0,0,0,0,0,-0.261799,-0.00112967,-1.5,-nan,0,0,3,0,0,0,0,0,0,0,0,1.9603e-19,0,0,0,0
70,-3.21239e-12,2.63443e-38,-1.55412e-06,-3.27827e-12,2.6342e-38,-3.40903e-12,-1.0659e-13,0,0,0,0,0,0,0,0,0,0,0,0,0,0,0,0,0,0,0,0,0,-0.261799,-0.00109392,-1.5,-nan,0,0,3,0,0,0,0,0,0,0,0,1.9603e-19,0,0,0,0
80,-3.21239e-12,2.63443e-38,-1.55412e-06,-3.27827e-12,2.6342e-38,0,-1.06591e-13,0,0,0,0,0,0,0,0,0,0,0,0,0,0,0,0,0,0,0,0,0,-0.261799,-0.00105717,-1.5,-nan,0,0,3,0,0,0,0,0,0,0,0,1.9603e-19,0,0,0,0
90,-3.21239e-12,2.63443e-38,-1.55412e-06,-3.27827e-12,2.6342e-38,-3.40903e-12,-1.06591e-13,0,0,0,0,0,0,0,0,0,0,0,0,0,0,0,0,0,0,0,0,0,-0.261799,-0.00102371,-1.5,-nan,0,0,3,0,0,0,0,0,0,0,0,1.9603e-19,0,0,0,0
100,-3.21239e-12,2.63443e-38,-1.55412e-06,-3.27827e-12,2.6342e-38,0,-1.06591e-13,0,0,0,0,0,0,0,0,0,0,0,0,0,0,0,0,0,0,0,0,0,-0.261799,-0.000930865,-1.5,-nan,0,0,3,0,0,0,0,0,0,0,0,1.9603e-19,0,0,0,0
110,-3.21239e-12,2.63443e-38,-1.55412e-06,-3.27827e-12,2.6342e-38,-3.40903e-12,-1.06591e-13,0,0,0,0,0,0,0,0,0,0,0,0,0,0,0,0,0,0,0,0,0,-0.261799,-0.000884966,-1.5,-nan,0,0,3,0,0,0,0,0,0,0,0,1.9603e-19,0,0,0,0
120,-3.21239e-12,2.63443e-38,-1.55412e-06,-3.27827e-12,2.6342e-38,0,-1.06592e-13,0,0,0,0,0,0,0,0,0,0,0,0,0,0,0,0,0,0,0,0,0,-0.261799,-0.000731548,-1.5,-nan,0,0,3,0,0,0,0,0,0,0,0,1.9603e-19,0,0,0,0
130,-3.21241e-12,2.62997e-38,2.63162e-38,-3.27827e-12,2.6342e-38,-3.40903e-12,-1.06592e-13,0,0,0,0,0,0,0,0,0,0,0,0,0,0,0,0,0,0,0,0,0,-0.261799,-0.00058457,-1.5,-nan,0,0,3,0,0,0,0,0,0,0,0,1.9603e-19,0,0,0,0
140,-3.21239e-12,2.63443e-38,-1.55412e-06,-3.27827e-12,2.6342e-38,0,-1.06592e-13,0,0,0,0,0,0,0,0,0,0,0,0,0,0,0,0,0,0,0,0,0,-0.261799,-0.000539606,-1.5,-nan,0,0,3,0,0,0,0,0,0,0,0,1.9603e-19,0,0,0,0
150,-3.21239e-12,2.63443e-38,-1.55412e-06,-3.27827e-12,2.6342e-38,-3.40903e-12,-1.06593e-13,0,0,0,0,0,0,0,0,0,0,0,0,0,0,0,0,0,0,0,0,0,-0.261799,-0.000517217,-1.5,-nan,0,0,3,0,0,0,0,0,0,0,0,1.9603e-19,0,0,0,0
160,-3.21239e-12,2.63443e-38,-1.55412e-06,-3.27827e-12,2.6342e-38,0,-1.06593e-13,0,0,0,0,0,0,0,0,0,0,0,0,0,0,0,0,0,0,0,0,0,-0.261799,-0.000489682,-1.5,-nan,0,0,3,0,0,0,0,0,0,0,0,1.9603e-19,0,0,0,0
170,-3.21239e-12,2.63443e-38,-1.55412e-06,-3.27827e-12,2.6342e-38,-3.40903e-12,-1.06593e-13,0,0,0,0,0,0,0,0,0,0,0,0,0,0,0,0,0,0,0,0,0,-0.261799,-0.000447262,-1.5,-nan,0,0,3,0,0,0,0,0,0,0,0,1.9603e-19,0,0,0,0
180,-3.21239e-12,2.63443e-38,-1.55412e-06,-3.27827e-12,2.6342e-38,0,-1.06593e-13,0,0,0,0,0,0,0,0,0,0,0,0,0,0,0,0,0,0,0,0,0,-0.261799,-0.000433106,-1.5,-nan,0,0,3,0,0,0,0,0,0,0,0,1.9603e-19,0,0,0,0
190,-3.21239e-12,2.63443e-38,-1.55412e-06,-3.27827e-12,2.6342e-38,-3.40903e-12,-1.06594e-13,0,0,0,0,0,0,0,0,0,0,0,0,0,0,0,0,0,0,0,0,0,-0.261799,-0.000410899,-1.5,-nan,0,0,3,0,0,0,0,0,0,0,0,1.9603e-19,0,0,0,0
200,-3.21239e-12,2.63443e-38,-1.55412e-06,-3.27827e-12,2.6342e-38,0,-1.06594e-13,0,0,0,0,0,0,0,0,0,0,0,0,0,0,0,0,0,0,0,0,0,-0.261799,-0.000391446,-1.5,-nan,0,0,3,0,0,0,0,0,0,0,0,1.9603e-19,0,0,0,0
210,-3.21239e-12,2.63443e-38,-1.55412e-06,-3.27827e-12,2.6342e-38,-3.40903e-12,-1.06594e-13,0,0,0,0,0,0,0,0,0,0,0,0,0,0,0,0,0,0,0,0,0,-0.261799,-0.000379064,-1.5,-nan,0,0,3,0,0,0,0,0,0,0,0,1.9603e-19,0,0,0,0
220,-3.21239e-12,2.63443e-38,-1.55412e-06,-3.27827e-12,2.6342e-38,0,-1.06594e-13,0,0,0,0,0,0,0,0,0,0,0,0,0,0,0,0,0,0,0,0,0,-0.261799,-0.000369305,-1.5,-nan,0,0,3,0,0,0,0,0,0,0,0,1.9603e-19,0,0,0,0
230,-3.21239e-12,2.63443e-38,-1.55412e-06,-3.27827e-12,2.6342e-38,-3.40903e-12,-1.06595e-13,0,0,0,0,0,0,0,0,0,0,0.8,0,1150978811,-1367812512,1150978811,-1367812512,-1367812472,-1367812472,-1367812432,-612562431,0,-0.261799,-0.00034177,-1.5,-nan,0,0,3,0,0,0,0,0,0,0,0,0,0,0,0,0
240,-3.21239e-12,2.63443e-38,-1.55412e-06,-3.27827e-12,2.6342e-38,0,-1.06595e-13,0,0,0,0,0,0,0,0,0,0,0.8,0,1150978811,-1367812512,1150978811,-1367812512,-1367812472,-1367812472,-1367812432,-612562431,0,-0.261799,-0.000329617,-1.5,-nan,0,0,3,0,0,0,0,0,0,0,0,0,0,0,0,0
250,-3.21239e-12,2.63443e-38,-1.55412e-06,-3.27827e-12,2.6342e-38,-3.40903e-12,-1.06595e-13,0,0,0,0,0,0,0,0,0,0,0.8,0,1150978811,-1367812512,1150978811,-1367812512,-1367812472,-1367812472,-1367812432,-612562431,0,-0.261799,-0.000317249,-1.5,-nan,0,0,3,0,0,0,0,0,0,0,0,0,0,0,0,0
260,-3.21239e-12,2.63443e-38,-1.55412e-06,-3.27827e-12,2.6342e-38,0,-1.06596e-13,0,0,0,0,0,0,0,0,0,0,0.8,0,1150978811,-1367812512,1150978811,-1367812512,-1367812472,-1367812472,-1367812432,-612562431,0,-0.261799,-0.000306591,-1.5,-nan,0,0,3,0,0,0,0,0,0,0,0,0,0,0,0,0
270,-3.21239e-12,2.63443e-38,-1.55412e-06,-3.27827e-12,2.6342e-38,-3.40903e-12,-1.06596e-13,0,0,-7.93917,0.226844,0.085192,0,0,0,0,0,-0.366594,0.226844,129,29,129,29,177,29,129,78,0,-0.261799,-0.000296284,-1.5,-nan,0,0,3,0,0,0,0,0,0,0,0,2352,0,0,0,0
280,-3.21239e-12,2.63443e-38,-1.55412e-06,-3.27827e-12,2.6342e-38,0,-1.06596e-13,0,0,-7.93917,0.226844,0.085192,0,0,0,0,0,-0.366594,0.226844,129,29,129,29,177,29,129,78,0,-0.261799,-0.000285167,-1.5,-nan,0,0,3,0,0,0,0,0,0,0,0,2352,0,0,0,0
290,-3.21239e-12,2.63443e-38,-1.55412e-06,-3.27827e-12,2.6342e-38,-3.40903e-12,-1.06596e-13,0,0,-7.93917,0.226844,0.085192,0,0,0,0,0,-0.366594,0.226844,129,29,129,29,177,29,129,78,0,-0.261799,-0.000275587,-1.5,-nan,0,0,3,0,0,0,0,0,0,0,0,2352,0,0,0,0
300,-3.21239e-12,2.63443e-38,-1.55412e-06,-3.27827e-12,2.6342e-38,0,-1.06597e-13,0,0,-7.69358,0.186826,-0.0122044,0,0,0,0,0,-0.247938,0.186826,129,31,129,31,180,31,129,80,0,-0.261799,-0.000237639,-1.5,-nan,0,0,3,0,0,0,0,0,0,0,0,2499,0,0,0,0
310,-3.21239e-12,2.63443e-38,-1.55412e-06,-3.27827e-12,2.6342e-38,-3.40903e-12,-1.06597e-13,0,0,-7.7,0.198,-6.58269e-15,0,0,0,0,0,-0.250973,0.198,129,30,129,30,179,30,129,80,0,-0.261799,-0.000226844,-1.5,-nan,0,0,3,0,0,0,0,0,0,0,0,2500,0,0,0,0
320,-3.21239e-12,2.63443e-38,-1.55412e-06,-3.27827e-12,2.6342e-38,0,-1.06597e-13,0,0,-7.7,0.198,-6.58269e-15,0,0,0,0,0,-0.250973,0.198,129,30,129,30,179,30,129,80,0,-0.261799,-0.000219218,-1.5,-nan,0,0,3,0,0,0,0,0,0,0,0,2500,0,0,0,0
330,-3.21239e-12,2.63443e-38,-1.55412e-06,-3.27827e-12,2.6342e-38,-3.40903e-12,-1.06597e-13,0,0,-7.7,0.198,-6.58269e-15,0,0,0,0,0,-0.250973,0.198,129,30,129,30,179,30,129,80,0,-0.261799,-0.000210554,-1.5,-nan,0,0,3,0,0,0,0,0,0,0,0,2500,0,0,0,0
340,-3.21239e-12,2.63443e-38,-1.55412e-06,-3.27827e-12,2.6342e-38,0,-1.06598e-13,0,0,-7.7,0.198,-6.58269e-15,0,0,0,0,0,-0.250973,0.198,129,30,129,30,179,30,129,80,0,-0.261799,-0.000203475,-1.5,-nan,0,0,3,0,0,0,0,0,0,0,0,2500,0,0,0,0
350,-3.21239e-12,2.63443e-38,-1.55412e-06,-3.27827e-12,2.6342e-38,-3.40903e-12,-1.06598e-13,0,0,-8.18402,0.222177,0.0683233,0,0,0,0,0,-0.490141,0.222177,131,32,131,32,176,32,131,81,0,-0.261799,-0.000195441,-1.5,-nan,0,0,3,0,0,0,0,0,0,0,0,2205,0,0,0,0
360,-3.21239e-12,2.63443e-38,-1.55412e-06,-3.27827e-12,2.6342e-38,0,-1.06598e-13,0,0,-8.18402,0.222177,0.0683233,0,0,0,0,0,-0.490141,0.222177,131,32,131,32,176,32,131,81,0,-0.261799,-0.000188486,-1.5,-nan,0,0,3,0,0,0,0,0,0,0,0,2205,0,0,0,0
370,-3.21239e-12,2.63443e-38,-1.55412e-06,-3.27827e-12,2.6342e-38,-3.40903e-12,-1.06599e-13,0,0,-8.18402,0.222177,0.0683233,0,0,0,0,0,-0.490141,0.222177,131,32,131,32,176,32,131,81,0,-0.261799,-0.000181783,-1.5,-nan,0,0,3,0,0,0,0,0,0,0,0,2205,0,0,0,0
380,-3.21239e-12,2.63443e-38,-1.55412e-06,-3.27827e-12,2.6342e-38,0,-1.06599e-13,0,0,-8.18402,0.222177,0.0683233,0,0,0,0,0,-0.490141,0.222177,131,32,131,32,176,32,131,81,0,-0.261799,-0.000175672,-1.5,-nan,0,0,3,0,0,0,0,0,0,0,0,2205,0,0,0,0
390,-3.21239e-12,2.63443e-38,-1.55412e-06,-3.27827e-12,2.6342e-38,-3.40903e-12,-1.06599e-13,0,0,-7.77872,0.188921,0.0167859,0,0,0,0,0,-0.288475,0.188921,130,30,130,30,179,30,130,80,0,-0.261799,-0.000170806,-1.5,-nan,0,0,3,0,0,0,0,0,0,0,0,2450,0,0,0,0
400,-3.21239e-12,2.63443e-38,-1.55412e-06,-3.27827e-12,2.6342e-38,0,-1.06599e-13,0,0,-7.77872,0.188921,0.0167859,0,0,0,0,0,-0.288475,0.188921,130,30,130,30,179,30,130,80,0,-0.261799,-0.000165068,-1.5,-nan,0,0,3,0,0,0,0,0,0,0,0,2450,0,0,0,0
410,-3.21239e-12,2.63443e-38,-1.55412e-06,-3.27827e-12,2.6342e-38,-3.40903e-12,-1.066e-13,0,0,-7.77872,0.188921,0.0167859,0,0,0,0,0,-0.288475,0.188921,130,30,130,30,179,30,130,80,0,-0.261799,-0.000159522,-1.5,-nan,0,0,3,0,0,0,0,0,0,0,0,2450,0,0,0,0
420,-3.21239e-12,2.63443e-38,-1.55412e-06,-3.27827e-12,2.6342e-38,0,-1.066e-13,0,0,-7.77872,0.188921,0.0167859,0,0,0,0,0,-0.288475,0.188921,130,30,130,30,179,30,130,80,0,-0.261799,-0.000152283,-1.5,-nan,0,0,3,0,0,0,0,0,0,0,0,2450,0,0,0,0
430,-3.21239e-12,2.63443e-38,-1.55412e-06,-3.27827e-12,2.6342e-38,-3.40903e-12,-1.066e-13,0,0,-7.8565,0.213355,0.0326538,0,0,0,0,0,-0.326066,0.213355,132,28,132,28,175,28,132,82,0,-0.261799,-0.000147167,-1.5,-nan,0,0,3,0,0,0,0,0,0,0,0,2322,0,0,0,0
440,-3.21239e-12,2.63443e-38,-1.55412e-06,-3.27827e-12,2.6342e-38,0,-1.066e-13,0,0,-7.8565,0.213355,0.0326538,0,0,0,0,0,-0.326066,0.213355,132,28,132,28,175,28,132,82,0,-0.261799,-0.000141067,-1.5,-nan,0,0,3,0,0,0,0,0,0,0,0,2322,0,0,0,0
450,-3.21239e-12,2.63443e-38,-1.55412e-06,-3.27827e-12,2.6342e-38,-3.40903e-12,-1.06601e-13,0,0,-7.8565,0.213355,0.0326538,0,0,0,0,0,-0.326066,0.213355,132,28,132,28,175,28,132,82,0,-0.261799,-0.000136328,-1.5,-nan,0,0,3,0,0,0,0,0,0,0,0,2322,0,0,0,0
460,-3.21239e-12,2.63443e-38,-1.55412e-06,-3.27827e-12,2.6342e-38,0,-1.06601e-13,0,0,-7.46588,0.202695,-0.071903,0,0,0,0,0,-0.142633,0.202695,129,29,129,29,178,29,129,83,0,-0.261799,-0.000131213,-1.5,-nan,0,0,3,0,0,0,0,0,0,0,0,2646,0,0,0,0
470,-3.21239e-12,2.63443e-38,-1.55412e-06,-3.27827e-12,2.6342e-38,-3.40903e-12,-1.06601e-13,0,0,-7.46588,0.202695,-0.071903,0,0,0,0,0,-0.142633,0.202695,129,29,129,29,178,29,129,83,0,-0.261799,-0.000126805,-1.5,-nan,0,0,3,0,0,0,0,0,0,0,0,2646,0,0,0,0
480,-3.21239e-12,2.63443e-38,-1.55412e-06,-3.27827e-12,2.6342e-38,0,-1.06602e-13,0,0,-7.46588,0.202695,-0.071903,0,0,0,0,0,-0.142633,0.202695,129,29,129,29,178,29,129,83,0,-0.261799,-0.00012105,-1.5,-nan,0,0,3,0,0,0,0,0,0,0,0,2646,0,0,0,0
490,-3.21239e-12,2.63443e-38,-1.55412e-06,-3.27827e-12,2.6342e-38,-3.40903e-12,-1.06602e-13,0,0,-7.46588,0.202695,-0.071903,0,0,0,0,0,-0.142633,0.202695,129,29,129,29,178,29,129,83,0,-0.261799,-0.000116984,-1.5,-nan,0,0,3,0,0,0,0,0,0,0,0,2646,0,0,0,0
500,-3.21239e-12,2.63443e-38,-1.55412e-06,-3.27827e-12,2.6342e-38,0,-1.06602e-13,0,0,-8.02083,0.229167,0.06875,0,0,0,0,0,-0.407218,0.229167,129,31,129,31,177,31,129,79,0,-0.261799,-0.000112824,-1.5,-nan,0,0,3,0,0,0,0,0,0,0,0,2304,0,0,0,0
510,-3.21239e-12,2.63443e-38,-1.55412e-06,-3.27827e-12,2.6342e-38,-3.40903e-12,-1.06602e-13,0,0,-8.02083,0.229167,0.06875,0,0,0,0,0,-0.407218,0.229167,129,31,129,31,177,31,129,79,0,-0.261799,-0.000108812,-1.5,-nan,0,0,3,0,0,0,0,0,0,0,0,2304,0,0,0,0
520,-3.21239e-12,2.63443e-38,-1.55412e-06,-3.27827e-12,2.6342e-38,0,-1.06603e-13,0,0,-8.02083,0.229167,0.06875,0,0,0,0,0,-0.407218,0.229167,129,31,129,31,177,31,129,79,0,-0.261799,-0.000104729,-1.5,-nan,0,0,3,0,0,0,0,0,0,0,0,2304,0,0,0,0
530,-3.21239e-12,2.63443e-38,-1.55412e-06,-3.27827e-12,2.6342e-38,-3.40903e-12,-1.06603e-13,0,0,-8.02083,0.229167,0.06875,0,0,0,0,0,-0.407218,0.229167,129,31,129,31,177,31,129,79,0,-0.261799,-0.000101211,-1.5,-nan,0,0,3,0,0,0,0,0,0,0,0,2304,0,0,0,0
540,-3.21239e-12,2.63443e-38,-1.55412e-06,-3.27827e-12,2.6342e-38,0,-1.06603e-13,0,0,-8.18387,0.233804,0.127234,0,0,0,0,0,-0.490063,0.233804,129,31,129,31,177,31,129,77,0,-0.261799,-9.70116e-05,-1.5,-nan,0,0,3,0,0,0,0,0,0,0,0,2208,0,0,0,0
550,-3.21239e-12,2.63443e-38,-1.55412e-06,-3.27827e-12,2.6342e-38,-3.40903e-12,-1.06603e-13,0,0,-8.18387,0.233804,0.127234,0,0,0,0,0,-0.490063,0.233804,129,31,129,31,177,31,129,77,0,-0.261799,-9.3562e-05,-1.5,-nan,0,0,3,0,0,0,0,0,0,0,0,2208,0,0,0,0
560,-3.21239e-12,2.63443e-38,-1.55412e-06,-3.27827e-12,2.6342e-38,0,-1.06604e-13,0,0,-8.18387,0.233804,0.127234,0,0,0,0,0,-0.490063,0.233804,129,31,129,31,177,31,129,77,0,-0.261799,-9.07864e-05,-1.5,-nan,0,0,3,0,0,0,0,0,0,0,0,2208,0,0,0,0
570,-3.21239e-12,2.63443e-38,-1.55412e-06,-3.27827e-12,2.6342e-38,-3.40903e-12,-1.06604e-13,0,0,-8.18387,0.233804,0.127234,0,0,0,0,0,-0.490063,0.233804,129,31,129,31,177,31,129,77,0,-0.261799,-8.77365e-05,-1.5,-nan,0,0,3,0,0,0,0,0,0,0,0,2208,0,0,0,0
580,-3.21239e-12,2.63443e-38,-1.55412e-06,-3.27827e-12,2.6342e-38,0,-1.06604e-13,0,0,-7.72688,0.187591,0.0284078,0,0,0,0,0,-0.263716,0.187591,128,31,128,31,181,31,128,77,0,-0.261799,-8.47891e-05,-1.5,-nan,0,0,3,0,0,0,0,0,0,0,0,2438,0,0,0,0
590,-3.21239e-12,2.63443e-38,-1.55412e-06,-3.27827e-12,2.6342e-38,-3.40903e-12,-1.06605e-13,0,0,-7.72688,0.187591,0.0284078,0,0,0,0,0,-0.263716,0.187591,128,31,128,31,181,31,128,77,0,-0.261799,-8.1438e-05,-1.5,-nan,0,0,3,0,0,0,0,0,0,0,0,2438,0,0,0,0
600,-3.21239e-12,2.63443e-38,-1.55412e-06,-3.27827e-12,2.6342e-38,0,-1.06605e-13,0,0,-7.72688,0.187591,0.0284078,0,0,0,0,0,-0.263716,0.187591,128,31,128,31,181,31,128,77,0,-0.261799,-7.85422e-05,-1.5,-nan,0,0,3,0,0,0,0,0,0,0,0,2438,0,0,0,0
610,-3.21239e-12,2.63443e-38,-1.55412e-06,-3.27827e-12,2.6342e-38,-3.40903e-12,-1.06605e-13,0,0,-7.76533,0.18856,0.0364343,0,0,0,0,0,-0.28206,0.18856,129,30,129,30,180,30,129,78,-0.208598,-0.261799,-6.09246e-05,-1.5,-nan,0,0,3,-0.271563,0.182908,0,0,0,0,0.0356277,-0.0497429,2448,-0.275268,0.188082,0.0356277,-0.0497429
620,-3.21239e-12,2.63443e-38,-1.55412e-06,-3.27827e-12,2.6342e-38,0,-1.06605e-13,0,0,-7.76533,0.18856,0.0364343,0,0,0,0,0,-0.28206,0.18856,129,30,129,30,180,30,129,78,-0.206815,-0.261799,-5.80431e-05,-1.5,-nan,0,0,3,-0.270708,0.181714,0,0,0,0,0.0356277,-0.0497429,2448,-0.275268,0.188082,0.0356277,-0.0497429
630,-3.21239e-12,2.63443e-38,-1.55412e-06,-3.27827e-12,2.6342e-38,-3.40903e-12,-1.06606e-13,0,0,-7.76533,0.18856,0.0364343,0,0,0,0,0,-0.28206,0.18856,129,30,129,30,180,30,129,78,-0.205551,-0.261799,-5.60932e-05,-1.5,-nan,0,0,3,-0.270102,0.180869,0,0,0,0,0.0356277,-0.0497429,2448,-0.275268,0.188082,0.0356277,-0.0497429
640,-3.21239e-12,2.63443e-38,-1.55412e-06,-3.27827e-12,2.6342e-38,0,-1.06606e-13,0,0,-7.68079,0.197469,0.0181584,0,0,0,0,0,-0.241903,0.197469,128,30,128,30,180,30,128,78,-0.261799,-0.261799,-4.3835e-05,-1.5,-nan,0,0,3,-0.230787,0.195315,0,0,0,0,0.1275,-0.0133004,2496,-0.243155,0.196605,0.1275,-0.0133004
650,-3.21239e-12,2.63443e-38,-1.55412e-06,-3.27827e-12,2.6342e-38,-3.40903e-12,-1.06606e-13,0,0,-7.68079,0.197469,0.0181584,0,0,0,0,0,-0.241903,0.197469,128,30,128,30,180,30,128,78,-0.261799,-0.261799,-4.16758e-05,-1.5,-nan,0,0,3,-0.2276,0.194983,0,0,0,0,0.1275,-0.0133004,2496,-0.243155,0.196605,0.1275,-0.0133004
660,-3.21239e-12,2.63443e-38,-1.55412e-06,-3.27827e-12,2.6342e-38,0,-1.06606e-13,0,0,-7.68079,0.197469,0.0181584,0,0,0,0,0,-0.241903,0.197469,128,30,128,30,180,30,128,78,-0.261799,-0.261799,-4.0112e-05,-1.5,-nan,0,0,3,-0.225177,0.19473,0,0,0,0,0.1275,-0.0133004,2496,-0.243155,0.196605,0.1275,-0.0133004
670,-3.21239e-12,2.63443e-38,-1.55412e-06,-3.27827e-12,2.6342e-38,-3.40903e-12,-1.06607e-13,0,0,-7.68079,0.197469,0.0181584,0,0,0,0,0,-0.241903,0.197469,128,30,128,30,180,30,128,78,-0.261799,-0.261799,-3.84493e-05,-1.5,-nan,0,0,3,-0.2225,0.194451,0,0,0,0,0.1275,-0.0133004,2496,-0.243155,0.196605,0.1275,-0.0133004
680,-3.21239e-12,2.63443e-38,-1.55412e-06,-3.27827e-12,2.6342e-38,0,-1.06607e-13,0,0,-7.68079,0.197469,0.0181584,0,0,0,0,0,-0.241903,0.197469,128,30,128,30,180,30,128,78,-0.261799,-0.261799,-3.70811e-05,-1.5,-nan,0,0,3,-0.220205,0.194211,0,0,0,0,0.1275,-0.0133004,2496,-0.243155,0.196605,0.1275,-0.0133004
690,-3.21239e-12,2.63443e-38,-1.55412e-06,-3.27827e-12,2.6342e-38,-3.40903e-12,-1.06607e-13,0,0,-7.68079,0.197469,0.0181584,0,0,0,0,0,-0.241903,0.197469,128,30,128,30,180,30,128,78,-0.261799,-0.261799,-3.58345e-05,-1.5,-nan,0,0,3,-0.218037,0.193985,0,0,0,0,0.1275,-0.0133004,2496,-0.243155,0.196605,0.1275,-0.0133004
700,-3.21239e-12,2.63443e-38,-1.55412e-06,-3.27827e-12,2.6342e-38,0,-1.06607e-13,0,0,-7.68079,0.197469,0.0181584,0,0,0,0,0,-0.241903,0.197469,128,30,128,30,180,30,128,78,-0.261799,-0.261799,-3.48418e-05,-1.5,-nan,0,0,3,-0.216252,0.193799,0,0,0,0,0.1275,-0.0133004,2496,-0.243155,0.196605,0.1275,-0.0133004
710,-3.21239e-12,2.63443e-38,-1.55412e-06,-3.27827e-12,2.6342e-38,-3.40903e-12,-1.06608e-13,0,0,-8.36134,0.203043,0.201608,0,0,0,0,0,-0.582887,0.203043,131,30,131,30,178,30,131,75,-0.261799,-0.261799,-2.79019e-05,-1.5,-nan,0,0,3,-0.277425,0.201224,0,0,0,0,0.0189707,-0.00178248,2115,-0.27917,0.201388,0.0189707,-0.00178248
720,-3.21239e-12,2.63443e-38,-1.55412e-06,-3.27827e-12,2.6342e-38,0,-1.06608e-13,0,0,-8.36134,0.203043,0.201608,0,0,0,0,0,-0.582887,0.203043,131,30,131,30,178,30,131,75,-0.261799,-0.261799,-2.63617e-05,-1.5,-nan,0,0,3,-0.276894,0.201175,0,0,0,0,0.0189707,-0.00178248,2115,-0.27917,0.201388,0.0189707,-0.00178248
730,-3.21239e-12,2.63443e-38,-1.55412e-06,-3.27827e-12,2.6342e-38,-3.40903e-12,-1.06608e-13,0,0,-8.36134,0.203043,0.201608,0,0,0,0,0,-0.582887,0.203043,131,30,131,30,178,30,131,75,-0.261799,-0.261799,-2.54761e-05,-1.5,-nan,0,0,3,-0.276571,0.201144,0,0,0,0,0.0189707,-0.00178248,2115,-0.27917,0.201388,0.0189707,-0.00178248
740,-3.21239e-12,2.63443e-38,-1.55412e-06,-3.27827e-12,2.6342e-38,0,-1.06609e-13,0,0,-8.36134,0.203043,0.201608,0,0,0,0,0,-0.582887,0.203043,131,30,131,30,178,30,131,75,-0.261799,-0.261799,-2.45702e-05,-1.5,-nan,0,0,3,-0.27623,0.201112,0,0,0,0,0.0189707,-0.00178248,2115,-0.27917,0.201388,0.0189707,-0.00178248
750,-3.21239e-12,2.63443e-38,-1.55412e-06,-3.27827e-12,2.6342e-38,-3.40903e-12,-1.06609e-13,0,0,-8.36134,0.203043,0.201608,0,0,0,0,0,-0.582887,0.203043,131,30,131,30,178,30,131,75,-0.261799,-0.261799,-2.37448e-05,-1.5,-nan,0,0,3,-0.275907,0.201082,0,0,0,0,0.0189707,-0.00178248,2115,-0.27917,0.201388,0.0189707,-0.00178248
760,-3.21239e-12,2.63443e-38,-1.55412e-06,-3.27827e-12,2.6342e-38,0,-1.06609e-13,0,0,-8.36134,0.203043,0.201608,0,0,0,0,0,-0.582887,0.203043,131,30,131,30,178,30,131,75,-0.261799,-0.261799,-2.28531e-05,-1.5,-nan,0,0,3,-0.275547,0.201048,0,0,0,0,0.0189707,-0.00178248,2115,-0.27917,0.201388,0.0189707,-0.00178248
770,-3.21239e-12,2.63443e-38,-1.55412e-06,-3.27827e-12,2.6342e-38,-3.40903e-12,-1.06609e-13,0,0,-8.36134,0.203043,0.201608,0,0,0,0,0,-0.582887,0.203043,131,30,131,30,178,30,131,75,-0.261799,-0.261799,-2.19049e-05,-1.5,-nan,0,0,3,-0.275148,0.201011,0,0,0,0,0.0189707,-0.00178248,2115,-0.27917,0.201388,0.0189707,-0.00178248
780,-3.21239e-12,2.63443e-38,-1.55412e-06,-3.27827e-12,2.6342e-38,0,-1.0661e-13,0,0,-7.84997,0.201838,0.122022,0,0,0,0,0,-0.322888,0.201838,129,27,129,27,179,27,129,75,-0.261799,-0.261799,-1.74257e-05,-1.5,-nan,0,0,3,-0.323628,0.202779,0,0,0,0,-0.0200923,0.000959349,2400,-0.321538,0.202679,-0.0200923,0.000959349
790,-3.21239e-12,2.63443e-38,-1.55412e-06,-3.27827e-12,2.6342e-38,-3.40903e-12,-1.0661e-13,0,0,-7.84997,0.201838,0.122022,0,0,0,0,0,-0.322888,0.201838,129,27,129,27,179,27,129,75,-0.261799,-0.261799,-1.66349e-05,-1.5,-nan,0,0,3,-0.32409,0.202801,0,0,0,0,-0.0200923,0.000959349,2400,-0.321538,0.202679,-0.0200923,0.000959349
800,-3.21239e-12,2.63443e-38,-1.55412e-06,-3.27827e-12,2.6342e-38,0,-1.0661e-13,0,0,-7.84997,0.201838,0.122022,0,0,0,0,0,-0.322888,0.201838,129,27,129,27,179,27,129,75,-0.261799,-0.261799,-1.59454e-05,-1.5,-nan,0,0,3,-0.324512,0.202821,0,0,0,0,-0.0200923,0.000959349,2400,-0.321538,0.202679,-0.0200923,0.000959349
810,-3.21239e-12,2.63443e-38,-1.55412e-06,-3.27827e-12,2.6342e-38,-3.40903e-12,-1.0661e-13,0,0,-7.84997,0.201838,0.122022,0,0,0,0,0,-0.322888,0.201838,129,27,129,27,179,27,129,75,-0.261799,-0.261799,-1.54097e-05,-1.5,-nan,0,0,3,-0.324853,0.202837,0,0,0,0,-0.0200923,0.000959349,2400,-0.321538,0.202679,-0.0200923,0.000959349
820,-3.21239e-12,2.63443e-38,-1.55412e-06,-3.27827e-12,2.6342e-38,0,-1.06611e-13,0,0,-7.84997,0.201838,0.122022,0,0,0,0,0,-0.322888,0.201838,129,27,129,27,179,27,129,75,-0.261799,-0.261799,-1.48618e-05,-1.5,-nan,0,0,3,-0.325215,0.202855,0,0,0,0,-0.0200923,0.000959349,2400,-0.321538,0.202679,-0.0200923,0.000959349
830,-3.21239e-12,2.63443e-38,-1.55412e-06,-3.27827e-12,2.6342e-38,-3.40903e-12,-1.06611e-13,0,0,-7.84997,0.201838,0.122022,0,0,0,0,0,-0.322888,0.201838,129,27,129,27,179,27,129,75,-0.261799,-0.261799,-1.44792e-05,-1.5,-nan,0,0,3,-0.325476,0.202867,0,0,0,0,-0.0200923,0.000959349,2400,-0.321538,0.202679,-0.0200923,0.000959349
840,-3.21239e-12,2.63443e-38,-1.55412e-06,-3.27827e-12,2.6342e-38,0,-1.06611e-13,0,0,-7.84997,0.201838,0.122022,0,0,0,0,0,-0.322888,0.201838,129,27,129,27,179,27,129,75,-0.261799,-0.261799,-1.40494e-05,-1.5,-nan,0,0,3,-0.325778,0.202881,0,0,0,0,-0.0200923,0.000959349,2400,-0.321538,0.202679,-0.0200923,0.000959349
850,-3.21239e-12,2.63443e-38,-1.55412e-06,-3.27827e-12,2.6342e-38,-3.40903e-12,-1.06612e-13,0,0,-7.84997,0.201838,0.122022,0,0,0,0,0,-0.322888,0.201838,129,27,129,27,179,27,129,75,-0.261799,-0.261799,-1.35218e-05,-1.5,-nan,0,0,3,-0.326159,0.2029,0,0,0,0,-0.0200923,0.000959349,2400,-0.321538,0.202679,-0.0200923,0.000959349
860,-3.21239e-12,2.63443e-38,-1.55412e-06,-3.27827e-12,2.6342e-38,0,-1.06612e-13,0,0,-7.84997,0.201838,0.122022,0,0,0,0,0,-0.322888,0.201838,129,27,129,27,179,27,129,75,-0.261799,-0.261799,-1.27754e-05,-1.5,-nan,0,0,3,-0.326722,0.202927,0,0,0,0,-0.0200923,0.000959349,2400,-0.321538,0.202679,-0.0200923,0.000959349
870,-3.21239e-12,2.63443e-38,-1.55412e-06,-3.27827e-12,2.6342e-38,-3.40903e-12,-1.06612e-13,0,0,-7.84997,0.201838,0.122022,0,0,0,0,0,-0.322888,0.201838,129,27,129,27,179,27,129,75,-0.261799,-0.261799,-1.24717e-05,-1.5,-nan,0,0,3,-0.326963,0.202938,0,0,0,0,-0.0200923,0.000959349,2400,-0.321538,0.202679,-0.0200923,0.000959349
880,-3.21239e-12,2.63443e-38,-1.55412e-06,-3.27827e-12,2.6342e-38,0,-1.06612e-13,0,0,-7.84997,0.201838,0.122022,0,0,0,0,0,-0.322888,0.201838,129,27,129,27,179,27,129,75,-0.261799,-0.261799,-1.21506e-05,-1.5,-nan,0,0,3,-0.327224,0.202951,0,0,0,0,-0.0200923,0.000959349,2400,-0.321538,0.202679,-0.0200923,0.000959349
890,-3.21239e-12,2.63443e-38,-1.55412e-06,-3.27827e-12,2.6342e-38,-3.40903e-12,-1.06613e-13,0,0,-7.84997,0.201838,0.122022,0,0,0,0,0,-0.322888,0.201838,129,27,129,27,179,27,129,75,-0.261799,-0.261799,-1.18138e-05,-1.5,-nan,0,0,3,-0.327505,0.202964,0,0,0,0,-0.0200923,0.000959349,2400,-0.321538,0.202679,-0.0200923,0.000959349
900,-3.21239e-12,2.63443e-38,-1.55412e-06,-3.27827e-12,2.6342e-38,0,-1.06613e-13,0,0,-7.84997,0.201838,0.122022,0,0,0,0,0,-0.322888,0.201838,129,27,129,27,179,27,129,75,-0.261799,-0.261799,-1.12313e-05,-1.5,-nan,0,0,3,-0.328008,0.202988,0,0,0,0,-0.0200923,0.000959349,2400,-0.321538,0.202679,-0.0200923,0.000959349
910,-3.21239e-12,2.63443e-38,-1.55412e-06,-3.27827e-12,2.6342e-38,-3.40903e-12,-1.06613e-13,0,0,-7.84997,0.201838,0.122022,0,0,0,0,0,-0.322888,0.201838,129,27,129,27,179,27,129,75,-0.261799,-0.261799,-1.08981e-05,-1.5,-nan,0,0,3,-0.328309,0.203002,0,0,0,0,-0.0200923,0.000959349,2400,-0.321538,0.202679,-0.0200923,0.000959349
920,-3.21239e-12,2.63443e-38,-1.55412e-06,-3.27827e-12,2.6342e-38,0,-1.06613e-13,0,0,-7.84997,0.201838,0.122022,0,0,0,0,0,-0.322888,0.201838,129,27,129,27,179,27,129,75,-0.261799,-0.261799,-1.06176e-05,-1.5,-nan,0,0,3,-0.32857,0.203015,0,0,0,0,-0.0200923,0.000959349,2400,-0.321538,0.202679,-0.0200923,0.000959349
930,-3.21239e-12,2.63443e-38,-1.55412e-06,-3.27827e-12,2.6342e-38,-3.40903e-12,-1.06614e-13,0,0,-8.01354,0.217491,0.101698,0,0,0,0,0,-0.403569,0.217491,129,30,129,30,178,30,129,77,-0.261799,-0.261799,-8.38389e-06,-1.5,-nan,0,0,3,-0.386419,0.204285,0,0,0,0,-0.0690291,0.00111423,2303,-0.379032,0.204165,-0.0690291,0.00111423
940,-3.21239e-12,2.63443e-38,-1.55412e-06,-3.27827e-12,2.6342e-38,0,-1.06614e-13,0,0,-8.01354,0.217491,0.101698,0,0,0,0,0,-0.403569,0.217491,129,30,129,30,178,30,129,77,-0.261799,-0.261799,-8.0199e-06,-1.5,-nan,0,0,3,-0.387937,0.204309,0,0,0,0,-0.0690291,0.00111423,2303,-0.379032,0.204165,-0.0690291,0.00111423
950,-3.21239e-12,2.63443e-38,-1.55412e-06,-3.27827e-12,2.6342e-38,-3.40903e-12,-1.06614e-13,0,0,-8.01354,0.217491,0.101698,0,0,0,0,0,-0.403569,0.217491,129,30,129,30,178,30,129,77,-0.261799,-0.261799,-7.76623e-06,-1.5,-nan,0,0,3,-0.389042,0.204327,0,0,0,0,-0.0690291,0.00111423,2303,-0.379032,0.204165,-0.0690291,0.00111423
960,-3.21239e-12,2.63443e-38,-1.55412e-06,-3.27827e-12,2.6342e-38,0,-1.06615e-13,0,0,-8.01354,0.217491,0.101698,0,0,0,0,0,-0.403569,0.217491,129,30,129,30,178,30,129,77,-0.261799,-0.261799,-7.50514e-06,-1.5,-nan,0,0,3,-0.390215,0.204346,0,0,0,0,-0.0690291,0.00111423,2303,-0.379032,0.204165,-0.0690291,0.00111423
970,-3.21239e-12,2.63443e-38,-1.55412e-06,-3.27827e-12,2.6342e-38,-3.40903e-12,-1.06615e-13,0,0,-8.146,0.209413,0.165899,0,0,0,0,0,-0.470616,0.209413,129,30,129,30,179,30,129,74,-0.261799,-0.261799,-5.93725e-06,-1.5,-nan,0,0,3,-0.424818,0.209478,0,0,0,0,-0.0797243,0.0055807,2200,-0.417324,0.208954,-0.0797243,0.0055807
980,-3.21239e-12,2.63443e-38,-1.55412e-06,-3.27827e-12,2.6342e-38,0,-1.06615e-13,0,0,-8.146,0.209413,0.165899,0,0,0,0,0,-0.470616,0.209413,129,30,129,30,179,30,129,74,-0.261799,-0.261799,-5.6797e-06,-1.5,-nan,0,0,3,-0.426572,0.209601,0,0,0,0,-0.0797243,0.0055807,2200,-0.417324,0.208954,-0.0797243,0.0055807
990,-3.21239e-12,2.63443e-38,-1.55412e-06,-3.27827e-12,2.6342e-38,-3.40903e-12,-1.06615e-13,0,0,-8.146,0.209413,0.165899,0,0,0,0,0,-0.470616,0.209413,129,30,129,30,179,30,129,74,-0.261799,-0.261799,-5.47774e-06,-1.5,-nan,0,0,3,-0.428007,0.209702,0,0,0,0,-0.0797243,0.0055807,2200,-0.417324,0.208954,-0.0797243,0.0055807
1000,-3.21239e-12,2.63443e-38,-1.55412e-06,-3.27827e-12,2.6342e-38,0,-1.06616e-13,0,0,-7.62131,0.18508,0.00499558,0,0,0,0,0,-0.214024,0.18508,129,29,129,29,180,29,129,79,-0.261799,-0.261799,-4.37556e-06,-1.5,-nan,0,0,3,-0.424742,0.207813,0,0,0,0,-0.0856994,0.00517654,2550,-0.417457,0.207373,-0.0856994,0.00517654
1010,-3.21239e-12,2.63443e-38,-1.55412e-06,-3.27827e-12,2.6342e-38,-3.40903e-12,-1.06616e-13,0,0,-7.62131,0.18508,0.00499558,0,0,0,0,0,-0.214024,0.18508,129,29,129,29,180,29,129,79,-0.261799,-0.261799,-4.19448e-06,-1.5,-nan,0,0,3,-0.426542,0.207921,0,0,0,0,-0.0856994,0.00517654,2550,-0.417457,0.207373,-0.0856994,0.00517654
1020,-3.21239e-12,2.63443e-38,-1.55412e-06,-3.27827e-12,2.6342e-38,0,-1.06616e-13,0,0,-7.62131,0.18508,0.00499558,0,0,0,0,0,-0.214024,0.18508,129,29,129,29,180,29,129,79,-0.261799,-0.261799,-4.04534e-06,-1.5,-nan,0,0,3,-0.428084,0.208015,0,0,0,0,-0.0856994,0.00517654,2550,-0.417457,0.207373,-0.0856994,0.00517654
1030,-3.21239e-12,2.63443e-38,-1.55412e-06,-3.27827e-12,2.6342e-38,-3.40903e-12,-1.06616e-13,0,0,-7.62131,0.18508,0.00499558,0,0,0,0,0,-0.214024,0.18508,129,29,129,29,180,29,129,79,-0.261078,-0.261799,-3.81523e-06,-1.5,-nan,0,0,3,-0.300914,0.187206,0,0,0,0,0.0147417,-0.0143136,2550,-0.301091,0.187378,0.0147417,-0.0143136
1040,-3.21239e-12,2.63443e-38,-1.55412e-06,-3.27827e-12,2.6342e-38,0,-1.06617e-13,0,0,-7.62131,0.18508,0.00499558,0,0,0,0,0,-0.214024,0.18508,129,29,129,29,180,29,129,79,-0.2608,-0.261799,-3.71704e-06,-1.5,-nan,0,0,3,-0.300722,0.18702,0,0,0,0,0.0147417,-0.0143136,2550,-0.301091,0.187378,0.0147417,-0.0143136
1050,-3.21239e-12,2.63443e-38,-1.55412e-06,-3.27827e-12,2.6342e-38,-3.40903e-12,-1.06617e-13,0,0,-7.62131,0.18508,0.00499558,0,0,0,0,0,-0.214024,0.18508,129,29,129,29,180,29,129,79,-0.260393,-0.261799,-3.57757e-06,-1.5,-nan,0,0,3,-0.300442,0.186748,0,0,0,0,0.0147417,-0.0143136,2550,-0.301091,0.187378,0.0147417,-0.0143136
1060,-3.21239e-12,2.63443e-38,-1.55412e-06,-3.27827e-12,2.6342e-38,0,-1.06617e-13,0,0,-7.62131,0.18508,0.00499558,0,0,0,0,0,-0.214024,0.18508,129,29,129,29,180,29,129,79,-0.259944,-0.261799,-3.42927e-06,-1.5,-nan,0,0,3,-0.300133,0.186448,0,0,0,0,0.0147417,-0.0143136,2550,-0.301091,0.187378,0.0147417,-0.0143136
1070,-3.21239e-12,2.63443e-38,-1.55412e-06,-3.27827e-12,2.6342e-38,-3.40903e-12,-1.06618e-13,0,0,-7.77876,0.211148,0.0390186,0,0,0,0,0,-0.288494,0.211148,129,29,129,29,178,29,129,79,-0.261799,-0.261799,-2.62329e-06,-1.5,-nan,0,0,3,-0.28947,0.204396,0,0,0,0,-0.000646029,0.00141309,2450,-0.2894,0.204244,-0.000646029,0.00141309
1080,-3.21239e-12,2.63443e-38,-1.55412e-06,-3.27827e-12,2.6342e-38,0,-1.06618e-13,0,0,-7.77876,0.211148,0.0390186,0,0,0,0,0,-0.288494,0.211148,129,29,129,29,178,29,129,79,-0.261799,-0.261799,-2.48893e-06,-1.5,-nan,0,0,3,-0.289487,0.204433,0,0,0,0,-0.000646029,0.00141309,2450,-0.2894,0.204244,-0.000646029,0.00141309
1090,-3.21239e-12,2.63443e-38,-1.55412e-06,-3.27827e-12,2.6342e-38,-3.40903e-12,-1.06618e-13,0,0,-7.77876,0.211148,0.0390186,0,0,0,0,0,-0.288494,0.211148,129,29,129,29,178,29,129,79,-0.261799,-0.261799,-2.41015e-06,-1.5,-nan,0,0,3,-0.289497,0.204456,0,0,0,0,-0.000646029,0.00141309,2450,-0.2894,0.204244,-0.000646029,0.00141309
1100,-3.21239e-12,2.63443e-38,-1.55412e-06,-3.27827e-12,2.6342e-38,0,-1.06618e-13,0,0,-6.82852,-0.0585056,-0.127545,0,0,0,0,0,0.128029,-0.0585056,136,26,136,26,196,26,136,78,-0.261799,-0.261799,-1.91288e-06,-1.5,-nan,0,0,3,-0.264206,0.196762,0,0,0,0,0.0118488,-0.00351088,3120,-0.265308,0.197089,0.0118488,-0.00351088
1110,-3.21239e-12,2.63443e-38,-1.55412e-06,-3.27827e-12,2.6342e-38,-3.40903e-12,-1.06619e-13,0,0,-6.82852,-0.0585056,-0.127545,0,0,0,0,0,0.128029,-0.0585056,136,26,136,26,196,26,136,78,-0.261799,-0.261799,-1.80716e-06,-1.5,-nan,0,0,3,-0.263862,0.19666,0,0,0,0,0.0118488,-0.00351088,3120,-0.265308,0.197089,0.0118488,-0.00351088
1120,-3.21239e-12,2.63443e-38,-1.55412e-06,-3.27827e-12,2.6342e-38,0,-1.06619e-13,0,0,-6.82852,-0.0585056,-0.127545,0,0,0,0,0,0.128029,-0.0585056,136,26,136,26,196,26,136,78,-0.261799,-0.261799,-1.7429e-06,-1.5,-nan,0,0,3,-0.263649,0.196597,0,0,0,0,0.0118488,-0.00351088,3120,-0.265308,0.197089,0.0118488,-0.00351088
1130,-3.21239e-12,2.63443e-38,-1.55412e-06,-3.27827e-12,2.6342e-38,-3.40903e-12,-1.06619e-13,0,0,-6.82852,-0.0585056,-0.127545,0,0,0,0,0,0.128029,-0.0585056,136,26,136,26,196,26,136,78,-0.261799,-0.261799,-1.68435e-06,-1.5,-nan,0,0,3,-0.263447,0.196537,0,0,0,0,0.0118488,-0.00351088,3120,-0.265308,0.197089,0.0118488,-0.00351088
1140,-3.21239e-12,2.63443e-38,-1.55412e-06,-3.27827e-12,2.6342e-38,0,-1.06619e-13,0,0,-6.82852,-0.0585056,-0.127545,0,0,0,0,0,0.128029,-0.0585056,136,26,136,26,196,26,136,78,-0.261799,-0.261799,-1.61453e-06,-1.5,-nan,0,0,3,-0.263199,0.196464,0,0,0,0,0.0118488,-0.00351088,3120,-0.265308,0.197089,0.0118488,-0.00351088
1150,-3.21239e-12,2.63443e-38,-1.55412e-06,-3.27827e-12,2.6342e-38,-3.40903e-12,-1.0662e-13,0,0,-6.82852,-0.0585056,-0.127545,0,0,0,0,0,0.128029,-0.0585056,136,26,136,26,196,26,136,78,-0.261799,-0.261799,-1.56025e-06,-1.5,-nan,0,0,3,-0.262997,0.196404,0,0,0,0,0.0118488,-0.00351088,3120,-0.265308,0.197089,0.0118488,-0.00351088
1160,-3.21239e-12,2.63443e-38,-1.55412e-06,-3.27827e-12,2.6342e-38,0,-1.0662e-13,0,0,-6.82852,-0.0585056,-0.127545,0,0,0,0,0,0.128029,-0.0585056,136,26,136,26,196,26,136,78,-0.261799,-0.261799,-1.49552e-06,-1.5,-nan,0,0,3,-0.262748,0.19633,0,0,0,0,0.0118488,-0.00351088,3120,-0.265308,0.197089,0.0118488,-0.00351088
1170,-3.21239e-12,2.63443e-38,-1.55412e-06,-3.27827e-12,2.6342e-38,-3.40903e-12,-1.0662e-13,0,0,-8.19169,0.257476,0.128602,0,0,0,0,0,-0.494099,0.257476,129,30,129,30,175,30,129,78,-0.261799,-0.261799,-1.17796e-06,-1.5,-nan,0,0,3,-0.288529,0.217321,0,0,0,0,-0.00156825,0.0108558,2208,-0.28836,0.216148,-0.00156825,0.0108558
1180,-3.21239e-12,2.63443e-38,-1.55412e-06,-3.27827e-12,2.6342e-38,0,-1.0662e-13,0,0,-8.19169,0.257476,0.128602,0,0,0,0,0,-0.494099,0.257476,129,30,129,30,175,30,129,78,-0.261799,-0.261799,-1.13604e-06,-1.5,-nan,0,0,3,-0.288558,0.217516,0,0,0,0,-0.00156825,0.0108558,2208,-0.28836,0.216148,-0.00156825,0.0108558
1190,-3.21239e-12,2.63443e-38,-1.55412e-06,-3.27827e-12,2.6342e-38,-3.40903e-12,-1.06621e-13,0,0,-8.19169,0.257476,0.128602,0,0,0,0,0,-0.494099,0.257476,129,30,129,30,175,30,129,78,-0.261799,-0.261799,-1.08449e-06,-1.5,-nan,0,0,3,-0.288594,0.217766,0,0,0,0,-0.00156825,0.0108558,2208,-0.28836,0.216148,-0.00156825,0.0108558
1200,-3.21239e-12,2.63443e-38,-1.55412e-06,-3.27827e-12,2.6342e-38,0,-1.06621e-13,0,0,-8.19169,0.257476,0.128602,0,0,0,0,0,-0.494099,0.257476,129,30,129,30,175,30,129,78,-0.261799,-0.261799,-1.05018e-06,-1.5,-nan,0,0,3,-0.288619,0.21794,0,0,0,0,-0.00156825,0.0108558,2208,-0.28836,0.216148,-0.00156825,0.0108558
1210,-3.21239e-12,2.63443e-38,-1.55412e-06,-3.27827e-12,2.6342e-38,-3.40903e-12,-1.06621e-13,0,0,-8.19169,0.257476,0.128602,0,0,0,0,0,-0.494099,0.257476,129,30,129,30,175,30,129,78,-0.261799,-0.261799,-1.02315e-06,-1.5,-nan,0,0,3,-0.288639,0.218081,0,0,0,0,-0.00156825,0.0108558,2208,-0.28836,0.216148,-0.00156825,0.0108558
1220,-3.21239e-12,2.63443e-38,-1.55412e-06,-3.27827e-12,2.6342e-38,0,-1.06622e-13,0,0,-8.19169,0.257476,0.128602,0,0,0,0,0,-0.494099,0.257476,129,30,129,30,175,30,129,78,-0.261799,-0.261799,-9.88775e-07,-1.5,-nan,0,0,3,-0.288666,0.218265,0,0,0,0,-0.00156825,0.0108558,2208,-0.28836,0.216148,-0.00156825,0.0108558
1230,-3.21239e-12,2.63443e-38,-1.55412e-06,-3.27827e-12,2.6342e-38,-3.40903e-12,-1.06622e-13,0,0,-8.19169,0.257476,0.128602,0,0,0,0,0,-0.494099,0.257476,129,30,129,30,175,30,129,78,-0.261799,-0.261799,-9.55534e-07,-1.5,-nan,0,0,3,-0.288692,0.21845,0,0,0,0,-0.00156825,0.0108558,2208,-0.28836,0.216148,-0.00156825,0.0108558
1240,-3.21239e-12,2.63443e-38,-1.55412e-06,-3.27827e-12,2.6342e-38,0,-1.06622e-13,0,0,-8.19169,0.257476,0.128602,0,0,0,0,0,-0.494099,0.257476,129,30,129,30,175,30,129,78,-0.261799,-0.261799,-9.1965e-07,-1.5,-nan,0,0,3,-0.288722,0.218656,0,0,0,0,-0.00156825,0.0108558,2208,-0.28836,0.216148,-0.00156825,0.0108558
1250,-3.21239e-12,2.63443e-38,-1.55412e-06,-3.27827e-12,2.6342e-38,-3.40903e-12,-1.06622e-13,0,0,-8.1063,0.196876,0.110142,0,0,0,0,0,-0.450357,0.196876,131,30,131,30,178,30,131,78,-0.261799,-0.261799,-8.79723e-07,-1.5,-nan,0,0,3,-0.288394,0.216387,0,0,0,0,-0.00156825,0.0108558,2256,-0.28836,0.216148,-0.00156825,0.0108558
1260,-3.21239e-12,2.63443e-38,-1.55412e-06,-3.27827e-12,2.6342e-38,0,-1.06623e-13,0,0,-8.1063,0.196876,0.110142,0,0,0,0,0,-0.450357,0.196876,131,30,131,30,178,30,131,78,-0.261799,-0.261799,-8.44985e-07,-1.5,-nan,0,0,3,-0.288426,0.216604,0,0,0,0,-0.00156825,0.0108558,2256,-0.28836,0.216148,-0.00156825,0.0108558
1270,-3.21239e-12,2.63443e-38,-1.55412e-06,-3.27827e-12,2.6342e-38,-3.40903e-12,-1.06623e-13,0,0,-8.1063,0.196876,0.110142,0,0,0,0,0,-0.450357,0.196876,131,30,131,30,178,30,131,78,-0.261799,-0.261799,-8.14939e-07,-1.5,-nan,0,0,3,-0.288454,0.2168,0,0,0,0,-0.00156825,0.0108558,2256,-0.28836,0.216148,-0.00156825,0.0108558
1280,-3.21239e-12,2.63443e-38,-1.55412e-06,-3.27827e-12,2.6342e-38,0,-1.06623e-13,0,0,-8.0009,0.262958,0.0982708,0,0,0,0,0,-0.39725,0.262958,129,28,129,28,174,28,129,79,-0.261799,-0.261799,-7.8436e-07,-1.5,-nan,0,0,3,-0.288371,0.216224,0,0,0,0,-0.00156825,0.0108558,2295,-0.28836,0.216148,-0.00156825,0.0108558
1290,-3.21239e-12,2.63443e-38,-1.55412e-06,-3.27827e-12,2.6342e-38,-3.40903e-12,-1.06623e-13,0,0,-8.0009,0.262958,0.0982708,0,0,0,0,0,-0.39725,0.262958,129,28,129,28,174,28,129,79,-0.261799,-0.261799,-7.54929e-07,-1.5,-nan,0,0,3,-0.288401,0.216431,0,0,0,0,-0.00156825,0.0108558,2295,-0.28836,0.216148,-0.00156825,0.0108558
1300,-3.21239e-12,2.63443e-38,-1.55412e-06,-3.27827e-12,2.6342e-38,0,-1.06624e-13,0,0,-8.0009,0.262958,0.0982708,0,0,0,0,0,-0.39725,0.262958,129,28,129,28,174,28,129,79,-0.261799,-0.261799,-7.23636e-07,-1.5,-nan,0,0,3,-0.288434,0.216659,0,0,0,0,-0.00156825,0.0108558,2295,-0.28836,0.216148,-0.00156825,0.0108558
1310,-3.21239e-12,2.63443e-38,-1.55412e-06,-3.27827e-12,2.6342e-38,-3.40903e-12,-1.06624e-13,0,0,-8.0009,0.262958,0.0982708,0,0,0,0,0,-0.39725,0.262958,129,28,129,28,174,28,129,79,-0.261799,-0.261799,-6.99326e-07,-1.5,-nan,0,0,3,-0.28846,0.216843,0,0,0,0,-0.00156825,0.0108558,2295,-0.28836,0.216148,-0.00156825,0.0108558
1320,-3.21239e-12,2.63443e-38,-1.55412e-06,-3.27827e-12,2.6342e-38,0,-1.06624e-13,0,0,-8.0009,0.262958,0.0982708,0,0,0,0,0,-0.39725,0.262958,129,28,129,28,174,28,129,79,-0.261799,-0.261799,-6.74459e-07,-1.5,-nan,0,0,3,-0.288489,0.217039,0,0,0,0,-0.00156825,0.0108558,2295,-0.28836,0.216148,-0.00156825,0.0108558
1330,-3.21239e-12,2.63443e-38,-1.55412e-06,-3.27827e-12,2.6342e-38,-3.40903e-12,-1.06625e-13,0,0,-8.0009,0.262958,0.0982708,0,0,0,0,0,-0.39725,0.262958,129,28,129,28,174,28,129,79,-0.261799,-0.261799,-6.47826e-07,-1.5,-nan,0,0,3,-0.28852,0.217256,0,0,0,0,-0.00156825,0.0108558,2295,-0.28836,0.216148,-0.00156825,0.0108558
1340,-3.21239e-12,2.63443e-38,-1.55412e-06,-3.27827e-12,2.6342e-38,0,-1.06625e-13,0,0,-8.0009,0.262958,0.0982708,0,0,0,0,0,-0.39725,0.262958,129,28,129,28,174,28,129,79,-0.261799,-0.261799,-6.29881e-07,-1.5,-nan,0,0,3,-0.288542,0.217408,0,0,0,0,-0.00156825,0.0108558,2295,-0.28836,0.216148,-0.00156825,0.0108558
1350,-3.21239e-12,2.63443e-38,-1.55412e-06,-3.27827e-12,2.6342e-38,-3.40903e-12,-1.06625e-13,0,0,-8.0009,0.262958,0.0982708,0,0,0,0,0,-0.39725,0.262958,129,28,129,28,174,28,129,79,-0.261799,-0.261799,-6.11195e-07,-1.5,-nan,0,0,3,-0.288565,0.21757,0,0,0,0,-0.00156825,0.0108558,2295,-0.28836,0.216148,-0.00156825,0.0108558
1360,-3.21239e-12,2.63443e-38,-1.55412e-06,-3.27827e-12,2.6342e-38,0,-1.06625e-13,0,0,-7.93638,0.215446,0.118425,0,0,0,0,0,-0.365219,0.215446,130,27,130,27,177,27,130,77,-0.261799,-0.261799,-4.93209e-07,-1.5,-nan,0,0,3,-0.387678,0.211265,0,0,0,0,-0.0327649,0.00443722,2350,-0.384467,0.21083,-0.0327649,0.00443722
1370,-3.21239e-12,2.63443e-38,-1.55412e-06,-3.27827e-12,2.6342e-38,-3.40903e-12,-1.06626e-13,0,0,-7.93638,0.215446,0.118425,0,0,0,0,0,-0.365219,0.215446,130,27,130,27,177,27,130,77,-0.261799,-0.261799,-4.70804e-07,-1.5,-nan,0,0,3,-0.388432,0.211367,0,0,0,0,-0.0327649,0.00443722,2350,-0.384467,0.21083,-0.0327649,0.00443722
1380,-3.21239e-12,2.63443e-38,-1.55412e-06,-3.27827e-12,2.6342e-38,0,-1.06626e-13,0,0,-7.93638,0.215446,0.118425,0,0,0,0,0,-0.365219,0.215446,130,27,130,27,177,27,130,77,-0.261799,-0.261799,-4.5127e-07,-1.5,-nan,0,0,3,-0.38912,0.21146,0,0,0,0,-0.0327649,0.00443722,2350,-0.384467,0.21083,-0.0327649,0.00443722
1390,-3.21239e-12,2.63443e-38,-1.55412e-06,-3.27827e-12,2.6342e-38,-3.40903e-12,-1.06626e-13,0,0,-7.93638,0.215446,0.118425,0,0,0,0,0,-0.365219,0.215446,130,27,130,27,177,27,130,77,-0.261799,-0.261799,-4.36099e-07,-1.5,-nan,0,0,3,-0.389677,0.211535,0,0,0,0,-0.0327649,0.00443722,2350,-0.384467,0.21083,-0.0327649,0.00443722
1400,-3.21239e-12,2.63443e-38,-1.55412e-06,-3.27827e-12,2.6342e-38,0,-1.06626e-13,0,0,-7.93638,0.215446,0.118425,0,0,0,0,0,-0.365219,0.215446,130,27,130,27,177,27,130,77,-0.261799,-0.261799,-4.18022e-07,-1.5,-nan,0,0,3,-0.390365,0.211629,0,0,0,0,-0.0327649,0.00443722,2350,-0.384467,0.21083,-0.0327649,0.00443722
1410,-3.21239e-12,2.63443e-38,-1.55412e-06,-3.27827e-12,2.6342e-38,-3.40903e-12,-1.06627e-13,0,0,-7.93638,0.215446,0.118425,0,0,0,0,0,-0.365219,0.215446,130,27,130,27,177,27,130,77,-0.261799,-0.261799,-4.02337e-07,-1.5,-nan,0,0,3,-0.390987,0.211713,0,0,0,0,-0.0327649,0.00443722,2350,-0.384467,0.21083,-0.0327649,0.00443722
1420,-3.21239e-12,2.63443e-38,-1.55412e-06,-3.27827e-12,2.6342e-38,0,-1.06627e-13,0,0,-7.93638,0.215446,0.118425,0,0,0,0,0,-0.365219,0.215446,130,27,130,27,177,27,130,77,-0.261799,-0.261799,-3.88821e-07,-1.5,-nan,0,0,3,-0.391544,0.211788,0,0,0,0,-0.0327649,0.00443722,2350,-0.384467,0.21083,-0.0327649,0.00443722
1430,-3.21239e-12,2.63443e-38,-1.55412e-06,-3.27827e-12,2.6342e-38,-3.40903e-12,-1.06627e-13,0,0,-6.31448,-0.0991498,-0.286765,0,0,0,0,0,0.320463,-0.0991498,135,28,135,28,202,28,135,81,-0.261799,-0.261799,-3.04731e-07,-1.5,-nan,0,0,3,-0.379723,0.206763,0,0,0,0,-0.036248,-0.00166309,3551,-0.375735,0.206946,-0.036248,-0.00166309
1440,-3.21239e-12,2.63443e-38,-1.55412e-06,-3.27827e-12,2.6342e-38,0,-1.06628e-13,0,0,-6.31448,-0.0991498,-0.286765,0,0,0,0,0,0.320463,-0.0991498,135,28,135,28,202,28,135,81,-0.261799,-0.261799,-2.7953e-07,-1.5,-nan,0,0,3,-0.381245,0.206693,0,0,0,0,-0.036248,-0.00166309,3551,-0.375735,0.206946,-0.036248,-0.00166309
1450,-3.21239e-12,2.63443e-38,-1.55412e-06,-3.27827e-12,2.6342e-38,-3.40903e-12,-1.06628e-13,0,0,-6.23786,-0.0801461,-0.321277,0,0,0,0,0,0.347165,-0.0801461,134,28,134,28,201,28,134,83,-0.261799,-0.261799,-2.20863e-07,-1.5,-nan,0,0,3,-0.318033,0.18651,0,0,0,0,-0.0289047,-0.00766819,3685,-0.315316,0.187231,-0.0289047,-0.00766819
1460,-3.21239e-12,2.63443e-38,-1.55412e-06,-3.27827e-12,2.6342e-38,0,-1.06628e-13,0,0,-6.23786,-0.0801461,-0.321277,0,0,0,0,0,0.347165,-0.0801461,134,28,134,28,201,28,134,83,-0.261799,-0.261799,-2.15178e-07,-1.5,-nan,0,0,3,-0.318409,0.18641,0,0,0,0,-0.0289047,-0.00766819,3685,-0.315316,0.187231,-0.0289047,-0.00766819
1470,-3.21239e-12,2.63443e-38,-1.55412e-06,-3.27827e-12,2.6342e-38,-3.40903e-12,-1.06628e-13,0,0,-7.05407,-0.14106,-0.0474599,0,0,0,0,0,0.0363066,-0.14106,142,24,142,24,198,24,142,77,0.261799,-0.261799,-9.61372e-08,-1.5,-nan,0,0,3,0.114578,-0.147143,0,0,0,0,0.248115,-0.199369,2968,0.0448575,-0.0911206,0.248115,-0.199369
1480,-3.21239e-12,2.63443e-38,-1.55412e-06,-3.27827e-12,2.6342e-38,0,-1.06629e-13,0,0,-7.05407,-0.14106,-0.0474599,0,0,0,0,0,0.0363066,-0.14106,142,24,142,24,198,24,142,77,0.261799,-0.261799,-9.21484e-08,-1.5,-nan,0,0,3,0.119788,-0.15133,0,0,0,0,0.248115,-0.199369,2968,0.0448575,-0.0911206,0.248115,-0.199369
1490,-3.21239e-12,2.63443e-38,-1.55412e-06,-3.27827e-12,2.6342e-38,-3.40903e-12,-1.06629e-13,0,0,-7.05407,-0.14106,-0.0474599,0,0,0,0,0,0.0363066,-0.14106,142,24,142,24,198,24,142,77,0.261799,-0.261799,-8.86878e-08,-1.5,-nan,0,0,3,0.124502,-0.155118,0,0,0,0,0.248115,-0.199369,2968,0.0448575,-0.0911206,0.248115,-0.199369
1500,-3.21239e-12,2.63443e-38,-1.55412e-06,-3.27827e-12,2.6342e-38,0,-1.06629e-13,0,0,-7.18371,-0.0615442,-0.0276953,0,0,0,0,0,-0.018424,-0.0615442,137,27,137,27,195,27,137,75,0.261799,-0.261799,-7.02172e-08,-1.5,-nan,0,0,3,-0.0175447,-0.0753954,0,0,0,0,0.151367,-0.16719,2784,-0.0314705,-0.0600139,0.151367,-0.16719
1510,-3.21239e-12,2.63443e-38,-1.55412e-06,-3.27827e-12,2.6342e-38,-3.40903e-12,-1.06629e-13,0,0,-7.18371,-0.0615442,-0.0276953,0,0,0,0,0,-0.018424,-0.0615442,137,27,137,27,195,27,137,75,0.261799,-0.261799,-6.75825e-08,-1.5,-nan,0,0,3,-0.0146688,-0.078572,0,0,0,0,0.151367,-0.16719,2784,-0.0314705,-0.0600139,0.151367,-0.16719
1520,-3.21239e-12,2.63443e-38,-1.55412e-06,-3.27827e-12,2.6342e-38,0,-1.0663e-13,0,0,-7.18371,-0.0615442,-0.0276953,0,0,0,0,0,-0.018424,-0.0615442,137,27,137,27,195,27,137,75,0.261799,-0.261799,-6.53105e-08,-1.5,-nan,0,0,3,-0.0120957,-0.0814141,0,0,0,0,0.151367,-0.16719,2784,-0.0314705,-0.0600139,0.151367,-0.16719
1530,-3.21239e-12,2.63443e-38,-1.55412e-06,-3.27827e-12,2.6342e-38,-3.40903e-12,-1.0663e-13,0,0,-7.18371,-0.0615442,-0.0276953,0,0,0,0,0,-0.018424,-0.0615442,137,27,137,27,195,27,137,75,0.261799,-0.261799,-6.28598e-08,-1.5,-nan,0,0,3,-0.00921976,-0.0845906,0,0,0,0,0.151367,-0.16719,2784,-0.0314705,-0.0600139,0.151367,-0.16719
1540,-3.21239e-12,2.63443e-38,-1.55412e-06,-3.27827e-12,2.6342e-38,0,-1.0663e-13,0,0,-7.18371,-0.0615442,-0.0276953,0,0,0,0,0,-0.018424,-0.0615442,137,27,137,27,195,27,137,75,0.261799,-0.261799,-6.06229e-08,-1.5,-nan,0,0,3,-0.00634385,-0.0877672,0,0,0,0,0.151367,-0.16719,2784,-0.0314705,-0.0600139,0.151367,-0.16719
1550,-3.21239e-12,2.63443e-38,-1.55412e-06,-3.27827e-12,2.6342e-38,-3.40903e-12,-1.06631e-13,0,0,-7.18371,-0.0615442,-0.0276953,0,0,0,0,0,-0.018424,-0.0615442,137,27,137,27,195,27,137,75,0.261799,-0.261799,-5.84656e-08,-1.5,-nan,0,0,3,-0.0036193,-0.0907765,0,0,0,0,0.151367,-0.16719,2784,-0.0314705,-0.0600139,0.151367,-0.16719
1560,-3.21239e-12,2.63443e-38,-1.55412e-06,-3.27827e-12,2.6342e-38,0,-1.06631e-13,0,0,-7.18371,-0.0615442,-0.0276953,0,0,0,0,0,-0.018424,-0.0615442,137,27,137,27,195,27,137,75,0.261799,-0.261799,-5.59273e-08,-1.5,-nan,0,0,3,-0.000289329,-0.0944546,0,0,0,0,0.151367,-0.16719,2784,-0.0314705,-0.0600139,0.151367,-0.16719
1570,-3.21239e-12,2.63443e-38,-1.55412e-06,-3.27827e-12,2.6342e-38,-3.40903e-12,-1.06631e-13,0,0,-7.18371,-0.0615442,-0.0276953,0,0,0,0,0,-0.018424,-0.0615442,137,27,137,27,195,27,137,75,0.261799,-0.261799,-5.39386e-08,-1.5,-nan,0,0,3,0.00243515,-0.0974639,0,0,0,0,0.151367,-0.16719,2784,-0.0314705,-0.0600139,0.151367,-0.16719
1580,-3.21239e-12,2.63443e-38,-1.55412e-06,-3.27827e-12,2.6342e-38,0,-1.06631e-13,0,0,-7.18371,-0.0615442,-0.0276953,0,0,0,0,0,-0.018424,-0.0615442,137,27,137,27,195,27,137,75,0.261799,-0.261799,-5.21265e-08,-1.5,-nan,0,0,3,0.00500827,-0.100306,0,0,0,0,0.151367,-0.16719,2784,-0.0314705,-0.0600139,0.151367,-0.16719
1590,-3.21239e-12,2.63443e-38,-1.55412e-06,-3.27827e-12,2.6342e-38,-3.40903e-12,-1.06632e-13,0,0,-7.18371,-0.0615442,-0.0276953,0,0,0,0,0,-0.018424,-0.0615442,137,27,137,27,195,27,137,75,0.261799,-0.261799,-5.0273e-08,-1.5,-nan,0,0,3,0.00773275,-0.103315,0,0,0,0,0.151367,-0.16719,2784,-0.0314705,-0.0600139,0.151367,-0.16719
1600,-3.21239e-12,2.63443e-38,-1.55412e-06,-3.27827e-12,2.6342e-38,0,-1.06632e-13,0,0,-7.18371,-0.0615442,-0.0276953,0,0,0,0,0,-0.018424,-0.0615442,137,27,137,27,195,27,137,75,0.261799,-0.261799,-4.87808e-08,-1.5,-nan,0,0,3,0.0100032,-0.105823,0,0,0,0,0.151367,-0.16719,2784,-0.0314705,-0.0600139,0.151367,-0.16719
1610,-3.21239e-12,2.63443e-38,-1.55412e-06,-3.27827e-12,2.6342e-38,-3.40903e-12,-1.06632e-13,0,0,-7.18371,-0.0615442,-0.0276953,0,0,0,0,0,-0.018424,-0.0615442,137,27,137,27,195,27,137,75,0.261799,-0.261799,-4.71409e-08,-1.5,-nan,0,0,3,0.0125763,-0.108665,0,0,0,0,0.151367,-0.16719,2784,-0.0314705,-0.0600139,0.151367,-0.16719
1620,-3.21239e-12,2.63443e-38,-1.55412e-06,-3.27827e-12,2.6342e-38,0,-1.06632e-13,0,0,-7.18371,-0.0615442,-0.0276953,0,0,0,0,0,-0.018424,-0.0615442,137,27,137,27,195,27,137,75,0.261799,-0.261799,-4.5185e-08,-1.5,-nan,0,0,3,0.0157549,-0.112176,0,0,0,0,0.151367,-0.16719,2784,-0.0314705,-0.0600139,0.151367,-0.16719
1630,-3.21239e-12,2.63443e-38,-1.55412e-06,-3.27827e-12,2.6342e-38,-3.40903e-12,-1.06633e-13,0,0,-7.18371,-0.0615442,-0.0276953,0,0,0,0,0,-0.018424,-0.0615442,137,27,137,27,195,27,137,75,0.261799,-0.261799,-4.35783e-08,-1.5,-nan,0,0,3,0.0184794,-0.115185,0,0,0,0,0.151367,-0.16719,2784,-0.0314705,-0.0600139,0.151367,-0.16719
1640,-3.21239e-12,2.63443e-38,-1.55412e-06,-3.27827e-12,2.6342e-38,0,-1.06633e-13,0,0,-7.18371,-0.0615442,-0.0276953,0,0,0,0,0,-0.018424,-0.0615442,137,27,137,27,195,27,137,75,0.261799,-0.261799,-4.20287e-08,-1.5,-nan,0,0,3,0.0212039,-0.118195,0,0,0,0,0.151367,-0.16719,2784,-0.0314705,-0.0600139,0.151367,-0.16719
1650,-3.21239e-12,2.63443e-38,-1.55412e-06,-3.27827e-12,2.6342e-38,-3.40903e-12,-1.06633e-13,0,0,-7.18371,-0.0615442,-0.0276953,0,0,0,0,0,-0.018424,-0.0615442,137,27,137,27,195,27,137,75,0.261799,-0.261799,-4.04517e-08,-1.5,-nan,0,0,3,0.0240798,-0.121371,0,0,0,0,0.151367,-0.16719,2784,-0.0314705,-0.0600139,0.151367,-0.16719
1660,-3.21239e-12,2.63443e-38,-1.55412e-06,-3.27827e-12,2.6342e-38,0,-1.06634e-13,0,0,-7.18371,-0.0615442,-0.0276953,0,0,0,0,0,-0.018424,-0.0615442,137,27,137,27,195,27,137,75,0.261799,-0.261799,-3.89338e-08,-1.5,-nan,0,0,3,0.0269557,-0.124548,0,0,0,0,0.151367,-0.16719,2784,-0.0314705,-0.0600139,0.151367,-0.16719
1670,-3.21239e-12,2.63443e-38,-1.55412e-06,-3.27827e-12,2.6342e-38,-3.40903e-12,-1.06634e-13,0,0,-7.18371,-0.0615442,-0.0276953,0,0,0,0,0,-0.018424,-0.0615442,137,27,137,27,195,27,137,75,0.261799,-0.261799,-3.73184e-08,-1.5,-nan,0,0,3,0.0301343,-0.128059,0,0,0,0,0.151367,-0.16719,2784,-0.0314705,-0.0600139,0.151367,-0.16719
1680,-3.21239e-12,2.63443e-38,-1.55412e-06,-3.27827e-12,2.6342e-38,0,-1.06634e-13,0,0,-7.18371,-0.0615442,-0.0276953,0,0,0,0,0,-0.018424,-0.0615442,137,27,137,27,195,27,137,75,0.261799,-0.261799,-3.59904e-08,-1.5,-nan,0,0,3,0.0328588,-0.131068,0,0,0,0,0.151367,-0.16719,2784,-0.0314705,-0.0600139,0.151367,-0.16719
1690,-3.21239e-12,2.63443e-38,-1.55412e-06,-3.27827e-12,2.6342e-38,-3.40903e-12,-1.06634e-13,0,0,-7.18371,-0.0615442,-0.0276953,0,0,0,0,0,-0.018424,-0.0615442,137,27,137,27,195,27,137,75,0.261799,-0.261799,-3.47805e-08,-1.5,-nan,0,0,3,0.035432,-0.13391,0,0,0,0,0.151367,-0.16719,2784,-0.0314705,-0.0600139,0.151367,-0.16719
1700,-3.21239e-12,2.63443e-38,-1.55412e-06,-3.27827e-12,2.6342e-38,0,-1.06635e-13,0,0,-7.18371,-0.0615442,-0.0276953,0,0,0,0,0,-0.018424,-0.0615442,137,27,137,27,195,27,137,75,0.261799,-0.261799,-3.33374e-08,-1.5,-nan,0,0,3,0.0386106,-0.137421,0,0,0,0,0.151367,-0.16719,2784,-0.0314705,-0.0600139,0.151367,-0.16719
1710,-3.21239e-12,2.63443e-38,-1.55412e-06,-3.27827e-12,2.6342e-38,-3.40903e-12,-1.06635e-13,0,0,-7.18371,-0.0615442,-0.0276953,0,0,0,0,0,-0.018424,-0.0615442,137,27,137,27,195,27,137,75,0.261799,-0.261799,-3.22167e-08,-1.5,-nan,0,0,3,0.0411837,-0.140263,0,0,0,0,0.151367,-0.16719,2784,-0.0314705,-0.0600139,0.151367,-0.16719
1720,-3.21239e-12,2.63443e-38,-1.55412e-06,-3.27827e-12,2.6342e-38,0,-1.06635e-13,0,0,-7.18371,-0.0615442,-0.0276953,0,0,0,0,0,-0.018424,-0.0615442,137,27,137,27,195,27,137,75,0.261799,-0.261799,-3.09434e-08,-1.5,-nan,0,0,3,0.044211,-0.143607,0,0,0,0,0.151367,-0.16719,2784,-0.0314705,-0.0600139,0.151367,-0.16719
1730,-3.21239e-12,2.63443e-38,-1.55412e-06,-3.27827e-12,2.6342e-38,-3.40903e-12,-1.06635e-13,0,0,-7.18371,-0.0615442,-0.0276953,0.0696368,-0.17169,0.150687,-0.166439,0,-0.018424,-0.0615442,137,27,137,27,195,27,137,75,0.261799,-0.261799,-2.07261e-08,-1.5,-nan,0,0,3,0.0696368,-0.17169,0,0,0,0,0.150687,-0.166439,2784,0,0,0,0
1740,-3.21239e-12,2.63443e-38,-1.55412e-06,-3.27827e-12,2.6342e-38,0,-1.06636e-13,0,0,-7.18371,-0.0615442,-0.0276953,0.0721844,-0.174504,0.14941,-0.165029,0,-0.018424,-0.0615442,137,27,137,27,195,27,137,75,0.261799,-0.261799,-2.00701e-08,-1.5,-nan,0,0,3,0.0721844,-0.174504,0,0,0,0,0.14941,-0.165029,2784,0,0,0,0
1750,-3.21239e-12,2.63443e-38,-1.55412e-06,-3.27827e-12,2.6342e-38,-3.40903e-12,-1.06636e-13,0,0,-7.18371,-0.0615442,-0.0276953,0.0755946,-0.178271,0.147698,-0.163138,0,-0.018424,-0.0615442,137,27,137,27,195,27,137,75,0.261799,-0.261799,-1.9161e-08,-1.5,-nan,0,0,3,0.0755946,-0.178271,0,0,0,0,0.147698,-0.163138,2784,0,0,0,0
1760,-3.21239e-12,2.63443e-38,-1.55412e-06,-3.27827e-12,2.6342e-38,0,-1.06636e-13,0,0,-7.18371,-0.0615442,-0.0276953,0.0785285,-0.181512,0.146226,-0.161512,0,-0.018424,-0.0615442,137,27,137,27,195,27,137,75,0.261799,-0.261799,-1.84044e-08,-1.5,-nan,0,0,3,0.0785285,-0.181512,0,0,0,0,0.146226,-0.161512,2784,0,0,0,0
1770,-3.21239e-12,2.63443e-38,-1.55412e-06,-3.27827e-12,2.6342e-38,-3.40903e-12,-1.06636e-13,0,0,-7.18371,-0.0615442,-0.0276953,0.0810007,-0.184242,0.144987,-0.160143,0,-0.018424,-0.0615442,137,27,137,27,195,27,137,75,0.261799,-0.261799,-1.77861e-08,-1.5,-nan,0,0,3,0.0810007,-0.184242,0,0,0,0,0.144987,-0.160143,2784,0,0,0,0
1780,-3.21239e-12,2.63443e-38,-1.55412e-06,-3.27827e-12,2.6342e-38,0,-1.06637e-13,0,0,-7.18371,-0.0615442,-0.0276953,0.083738,-0.187266,0.143614,-0.158627,0,-0.018424,-0.0615442,137,27,137,27,195,27,137,75,0.261799,-0.261799,-1.71187e-08,-1.5,-nan,0,0,3,0.083738,-0.187266,0,0,0,0,0.143614,-0.158627,2784,0,0,0,0
1790,-3.21239e-12,2.63443e-38,-1.55412e-06,-3.27827e-12,2.6342e-38,-3.40903e-12,-1.06637e-13,0,0,-7.18371,-0.0615442,-0.0276953,0.0867322,-0.190573,0.142111,-0.156966,0,-0.018424,-0.0615442,137,27,137,27,195,27,137,75,0.261799,-0.261799,-1.64091e-08,-1.5,-nan,0,0,3,0.0867322,-0.190573,0,0,0,0,0.142111,-0.156966,2784,0,0,0,0
1800,-3.21239e-12,2.63443e-38,-1.55412e-06,-3.27827e-12,2.6342e-38,0,-1.06637e-13,0,0,-7.18371,-0.0615442,-0.0276953,0.0896943,-0.193845,0.140623,-0.155323,0,-0.018424,-0.0615442,137,27,137,27,195,27,137,75,0.261799,-0.261799,-1.57283e-08,-1.5,-nan,0,0,3,0.0896943,-0.193845,0,0,0,0,0.140623,-0.155323,2784,0,0,0,0
1810,-3.21239e-12,2.63443e-38,-1.55412e-06,-3.27827e-12,2.6342e-38,-3.40903e-12,-1.06638e-13,0,0,-7.18371,-0.0615442,-0.0276953,0.0922101,-0.196624,0.139361,-0.15393,0,-0.018424,-0.0615442,137,27,137,27,195,27,137,75,0.261799,-0.261799,-1.51686e-08,-1.5,-nan,0,0,3,0.0922101,-0.196624,0,0,0,0,0.139361,-0.15393,2784,0,0,0,0
1820,-3.21239e-12,2.63443e-38,-1.55412e-06,-3.27827e-12,2.6342e-38,0,-1.06638e-13,0,0,-7.18371,-0.0615442,-0.0276953,0.0948406,-0.199529,0.138041,-0.152471,0,-0.018424,-0.0615442,137,27,137,27,195,27,137,75,0.261799,-0.261799,-1.45989e-08,-1.5,-nan,0,0,3,0.0948406,-0.199529,0,0,0,0,0.138041,-0.152471,2784,0,0,0,0
1830,-3.21239e-12,2.63443e-38,-1.55412e-06,-3.27827e-12,2.6342e-38,-3.40903e-12,-1.06638e-13,0,0,-7.18371,-0.0615442,-0.0276953,0.0975827,-0.202558,0.136665,-0.150952,0,-0.018424,-0.0615442,137,27,137,27,195,27,137,75,0.261799,-0.261799,-1.40225e-08,-1.5,-nan,0,0,3,0.0975827,-0.202558,0,0,0,0,0.136665,-0.150952,2784,0,0,0,0
1840,-3.21239e-12,2.63443e-38,-1.55412e-06,-3.27827e-12,2.6342e-38,0,-1.06638e-13,0,0,-7.18371,-0.0615442,-0.0276953,0.100432,-0.205705,0.135235,-0.149372,0,-0.018424,-0.0615442,137,27,137,27,195,27,137,75,0.261799,-0.261799,-1.34412e-08,-1.5,-nan,0,0,3,0.100432,-0.205705,0,0,0,0,0.135235,-0.149372,2784,0,0,0,0
1850,-3.21239e-12,2.63443e-38,-1.55412e-06,-3.27827e-12,2.6342e-38,-3.40903e-12,-1.06639e-13,0,0,-7.18371,-0.0615442,-0.0276953,0.102317,-0.207787,0.134291,-0.148329,0,-0.018424,-0.0615442,137,27,137,27,195,27,137,75,0.261799,-0.261799,-1.30689e-08,-1.5,-nan,0,0,3,0.102317,-0.207787,0,0,0,0,0.134291,-0.148329,2784,0,0,0,0
1860,-3.21239e-12,2.63443e-38,-1.55412e-06,-3.27827e-12,2.6342e-38,0,-1.06639e-13,0,0,-7.18371,-0.0615442,-0.0276953,0.104588,-0.210295,0.133153,-0.147072,0,-0.018424,-0.0615442,137,27,137,27,195,27,137,75,0.261799,-0.261799,-1.26552e-08,-1.5,-nan,0,0,3,0.104588,-0.210295,0,0,0,0,0.133153,-0.147072,2784,0,0,0,0
1870,-3.21239e-12,2.63443e-38,-1.55412e-06,-3.27827e-12,2.6342e-38,-3.40903e-12,-1.06639e-13,0,0,-7.18371,-0.0615442,-0.0276953,0.106839,-0.212781,0.132024,-0.145826,0,-0.018424,-0.0615442,137,27,137,27,195,27,137,75,0.261799,-0.261799,-1.22301e-08,-1.5,-nan,0,0,3,0.106839,-0.212781,0,0,0,0,0.132024,-0.145826,2784,0,0,0,0
1880,-3.21239e-12,2.63443e-38,-1.55412e-06,-3.27827e-12,2.6342e-38,0,-1.06639e-13,0,0,-7.18371,-0.0615442,-0.0276953,0.109331,-0.215534,0.130774,-0.144445,0,-0.018424,-0.0615442,137,27,137,27,195,27,137,75,0.261799,-0.261799,-1.17712e-08,-1.5,-nan,0,0,3,0.109331,-0.215534,0,0,0,0,0.130774,-0.144445,2784,0,0,0,0
1890,-3.21239e-12,2.63443e-38,-1.55412e-06,-3.27827e-12,2.6342e-38,-3.40903e-12,-1.0664e-13,0,0,-7.18371,-0.0615442,-0.0276953,0.112187,-0.218689,0.129341,-0.142862,0,-0.018424,-0.0615442,137,27,137,27,195,27,137,75,0.261799,-0.261799,-1.12606e-08,-1.5,-nan,0,0,3,0.112187,-0.218689,0,0,0,0,0.129341,-0.142862,2784,0,0,0,0
1900,-3.21239e-12,2.63443e-38,-1.55412e-06,-3.27827e-12,2.6342e-38,0,-1.0664e-13,0,0,-7.18371,-0.0615442,-0.0276953,0.114374,-0.221104,0.128245,-0.141651,0,-0.018424,-0.0615442,137,27,137,27,195,27,137,75,0.261799,-0.261799,-1.08823e-08,-1.5,-nan,0,0,3,0.114374,-0.221104,0,0,0,0,0.128245,-0.141651,2784,0,0,0,0
1910,-3.21239e-12,2.63443e-38,-1.55412e-06,-3.27827e-12,2.6342e-38,-3.40903e-12,-1.0664e-13,0,0,-7.18371,-0.0615442,-0.0276953,0.116668,-0.223639,0.127094,-0.14038,0,-0.018424,-0.0615442,137,27,137,27,195,27,137,75,0.261799,-0.261799,-1.04954e-08,-1.5,-nan,0,0,3,0.116668,-0.223639,0,0,0,0,0.127094,-0.14038,2784,0,0,0,0
1920,-3.21239e-12,2.63443e-38,-1.55412e-06,-3.27827e-12,2.6342e-38,0,-1.06641e-13,0,0,-7.18371,-0.0615442,-0.0276953,0.118817,-0.226012,0.126017,-0.13919,0,-0.018424,-0.0615442,137,27,137,27,195,27,137,75,0.261799,-0.261799,-1.01428e-08,-1.5,-nan,0,0,3,0.118817,-0.226012,0,0,0,0,0.126017,-0.13919,2784,0,0,0,0
1930,-3.21239e-12,2.63443e-38,-1.55412e-06,-3.27827e-12,2.6342e-38,-3.40903e-12,-1.06641e-13,0,0,-7.18371,-0.0615442,-0.0276953,0.121692,-0.229187,0.124573,-0.137595,0,-0.018424,-0.0615442,137,27,137,27,195,27,137,75,0.261799,-0.261799,-9.68249e-09,-1.5,-nan,0,0,3,0.121692,-0.229187,0,0,0,0,0.124573,-0.137595,2784,0,0,0,0
1940,-3.21239e-12,2.63443e-38,-1.55412e-06,-3.27827e-12,2.6342e-38,0,-1.06641e-13,0,0,-7.18371,-0.0615442,-0.0276953,0.124289,-0.232056,0.123269,-0.136155,0,-0.018424,-0.0615442,137,27,137,27,195,27,137,75,0.261799,-0.261799,-9.28114e-09,-1.5,-nan,0,0,3,0.124289,-0.232056,0,0,0,0,0.123269,-0.136155,2784,0,0,0,0
1950,-3.21239e-12,2.63443e-38,-1.55412e-06,-3.27827e-12,2.6342e-38,-3.40903e-12,-1.06641e-13,0,0,-7.18371,-0.0615442,-0.0276953,0.126373,-0.234358,0.122224,-0.135001,0,-0.018424,-0.0615442,137,27,137,27,195,27,137,75,0.261799,-0.261799,-8.96935e-09,-1.5,-nan,0,0,3,0.126373,-0.234358,0,0,0,0,0.122224,-0.135001,2784,0,0,0,0
1960,-3.21239e-12,2.63443e-38,-1.55412e-06,-3.27827e-12,2.6342e-38,0,-1.06642e-13,0,0,-7.18371,-0.0615442,-0.0276953,0.128801,-0.23704,0.121006,-0.133655,0,-0.018424,-0.0615442,137,27,137,27,195,27,137,75,0.261799,-0.261799,-8.61518e-09,-1.5,-nan,0,0,3,0.128801,-0.23704,0,0,0,0,0.121006,-0.133655,2784,0,0,0,0
1970,-3.21239e-12,2.63443e-38,-1.55412e-06,-3.27827e-12,2.6342e-38,-3.40903e-12,-1.06642e-13,0,0,-7.18371,-0.0615442,-0.0276953,0.130966,-0.239431,0.11992,-0.132456,0,-0.018424,-0.0615442,137,27,137,27,195,27,137,75,0.261799,-0.261799,-8.30883e-09,-1.5,-nan,0,0,3,0.130966,-0.239431,0,0,0,0,0.11992,-0.132456,2784,0,0,0,0
1980,-3.21239e-12,2.63443e-38,-1.55412e-06,-3.27827e-12,2.6342e-38,0,-1.06642e-13,0,0,-7.18371,-0.0615442,-0.0276953,0.132757,-0.241409,0.119023,-0.131465,0,-0.018424,-0.0615442,137,27,137,27,195,27,137,75,0.261799,-0.261799,-8.06221e-09,-1.5,-nan,0,0,3,0.132757,-0.241409,0,0,0,0,0.119023,-0.131465,2784,0,0,0,0
1990,-3.21239e-12,2.63443e-38,-1.55412e-06,-3.27827e-12,2.6342e-38,-3.40903e-12,-1.06642e-13,0,0,-7.18371,-0.0615442,-0.0276953,0.134886,-0.243761,0.117955,-0.130286,0,-0.018424,-0.0615442,137,27,137,27,195,27,137,75,0.261799,-0.261799,-7.77553e-09,-1.5,-nan,0,0,3,0.134886,-0.243761,0,0,0,0,0.117955,-0.130286,2784,0,0,0,0
2000,-3.21239e-12,2.63443e-38,-1.55412e-06,-3.27827e-12,2.6342e-38,0,-1.06643e-13,0,0,-7.18371,-0.0615442,-0.0276953,0.137113,-0.246221,0.116838,-0.129052,0,-0.018424,-0.0615442,137,27,137,27,195,27,137,75,0.261799,-0.261799,-7.48377e-09,-1.5,-nan,0,0,3,0.137113,-0.246221,0,0,0,0,0.116838,-0.129052,2784,0,0,0,0
2010,-3.21239e-12,2.63443e-38,-1.55412e-06,-3.27827e-12,2.6342e-38,-3.40903e-12,-1.06643e-13,0,0,-7.18371,-0.0615442,-0.0276953,0.139319,-0.248657,0.115732,-0.12783,0,-0.018424,-0.0615442,137,27,137,27,195,27,137,75,0.261799,-0.261799,-7.20296e-09,-1.5,-nan,0,0,3,0.139319,-0.248657,0,0,0,0,0.115732,-0.12783,2784,0,0,0,0
2020,-3.21239e-12,2.63443e-38,-1.55412e-06,-3.27827e-12,2.6342e-38,0,-1.06643e-13,0,0,-6.41667,-0.11,0.0183333,0.151611,-0.262234,0.109278,-0.120702,0,0.284047,-0.11,139,9,139,9,199,9,139,69,0.261799,-0.261799,-5.61689e-09,-1.5,-nan,0,0,3,0.151611,-0.262234,0,0,0,0,0.109278,-0.120702,3600,0,0,0,0
2030,-3.21239e-12,2.63443e-38,-1.55412e-06,-3.27827e-12,2.6342e-38,-3.40903e-12,-1.06644e-13,0,0,-6.41667,-0.11,0.0183333,0.159228,-0.270648,0.105361,-0.116375,0,0.284047,-0.11,139,9,139,9,199,9,139,69,0.261799,-0.261799,-4.82139e-09,-1.5,-nan,0,0,3,0.159228,-0.270648,0,0,0,0,0.105361,-0.116375,3600,0,0,0,0
2040,-3.21239e-12,2.63443e-38,-1.55412e-06,-3.27827e-12,2.6342e-38,0,-1.06644e-13,0,0,-6.41667,-0.11,0.0183333,0.161217,-0.272845,0.104363,-0.115273,0,0.284047,-0.11,139,9,139,9,199,9,139,69,0.261799,-0.261799,-4.64047e-09,-1.5,-nan,0,0,3,0.161217,-0.272845,0,0,0,0,0.104363,-0.115273,3600,0,0,0,0
