timestamp,A_x,A_y,A_z,P,Q,R,Phi,Theta,Psi,poseX,poseY,poseZ,state_X,state_Y,state_Z,state_VzB,state_Bx,state_By,state_Bz,p1_x,p1_y,p2_x,p2_y,p3_x,p3_y,p4_x,p4_y,roll,pitch,yaw,alt,targetHeading,highLevelState,lowLevelState,gateNumber,filtered_x,filtered_y,x_OT,y_OT,vx_OT,vy_OT,filtered_vx,filtered_vygateArea
10,0,0,0,0,0,0,0,0,0,0,0,0,0,0,0,0,0,0,0,0,0,0,0,0,0,0,0,0,-0.261799,0.00779127,-1.5,0,0,0,3,0,0,0,0,0,0,0,0,1.9603e-19
20,0,0,0,0,0,0,0,0,0,0,0,0,0,0,0,0,0,0,0,0,0,0,0,0,0,0,0,0,-0.261799,0.00752934,-1.5,0,0,0,3,0,0,0,0,0,0,0,0,1.9603e-19
30,-3.72295e-12,7.38527e-38,-1.58345e-06,-3.85292e-12,7.38479e-38,-3.40903e-12,-1.13703e-13,0,0,0,0,0,0,0,0,0,0,0,0,0,0,0,0,0,0,0,0,0,-0.261799,-0.00157083,-1.5,0,0,0,3,0,0,0,0,0,0,0,0,1.9603e-19
40,-3.72295e-12,7.38527e-38,-1.58345e-06,-3.85292e-12,7.38479e-38,0,-1.13703e-13,0,0,0,0,0,0,0,0,0,0,0,0,0,0,0,0,0,0,0,0,0,-0.261799,-0.00151803,-1.5,0,0,0,3,0,0,0,0,0,0,0,0,1.9603e-19
50,-3.72295e-12,7.38527e-38,-1.58345e-06,-3.85292e-12,7.38479e-38,-3.40903e-12,-1.13704e-13,0,0,0,0,0,0,0,0,0,0,0,0,0,0,0,0,0,0,0,0,0,-0.261799,-0.00146699,-1.5,0,0,0,3,0,0,0,0,0,0,0,0,1.9603e-19
60,-3.72295e-12,7.38527e-38,-1.58345e-06,-3.85292e-12,7.38479e-38,0,-1.13704e-13,0,0,0,0,0,0,0,0,0,0,0,0,0,0,0,0,0,0,0,0,0,-0.261799,-0.00140618,-1.5,0,0,0,3,0,0,0,0,0,0,0,0,1.9603e-19
70,-3.72295e-12,7.38527e-38,-1.58345e-06,-3.85292e-12,7.38479e-38,-3.40903e-12,-1.13705e-13,0,0,0,0,0,0,0,0,0,0,0,0,0,0,0,0,0,0,0,0,0,-0.261799,-0.00136168,-1.5,0,0,0,3,0,0,0,0,0,0,0,0,1.9603e-19
80,-3.72295e-12,7.38527e-38,-1.58345e-06,-3.85292e-12,7.38479e-38,0,-1.13705e-13,0,0,0,0,0,0,0,0,0,0,0,0,0,0,0,0,0,0,0,0,0,-0.261799,-0.00131593,-1.5,0,0,0,3,0,0,0,0,0,0,0,0,1.9603e-19
90,-3.72295e-12,7.38527e-38,-1.58345e-06,-3.85292e-12,7.38479e-38,-3.40903e-12,-1.13706e-13,0,0,0,0,0,0,0,0,0,0,0,0,0,0,0,0,0,0,0,0,0,-0.261799,-0.0012717,-1.5,0,0,0,3,0,0,0,0,0,0,0,0,1.9603e-19
100,-3.72295e-12,7.38527e-38,-1.58345e-06,-3.85292e-12,7.38479e-38,0,-1.13706e-13,0,0,0,0,0,0,0,0,0,0,0,0,0,0,0,0,0,0,0,0,0,-0.261799,-0.00122894,-1.5,0,0,0,3,0,0,0,0,0,0,0,0,1.9603e-19
110,-3.72295e-12,7.38527e-38,-1.58345e-06,-3.85292e-12,7.38479e-38,-3.40903e-12,-1.13707e-13,0,0,0,0,0,0,0,0,0,0,0,0,0,0,0,0,0,0,0,0,0,-0.261799,-0.00110558,-1.5,0,0,0,3,0,0,0,0,0,0,0,0,1.9603e-19
120,-3.72295e-12,7.38527e-38,-1.58345e-06,-3.85292e-12,7.38479e-38,0,-1.13708e-13,0,0,0,0,0,0,0,0,0,0,0,0,0,0,0,0,0,0,0,0,0,-0.261799,-0.00103578,-1.5,0,0,0,3,0,0,0,0,0,0,0,0,1.9603e-19
130,-3.72295e-12,7.38527e-38,-1.58345e-06,-3.85292e-12,7.38479e-38,-3.40903e-12,-1.13708e-13,0,0,0,0,0,0,0,0,0,0,0,0,0,0,0,0,0,0,0,0,0,-0.261799,-0.000839906,-1.5,0,0,0,3,0,0,0,0,0,0,0,0,1.9603e-19
140,-3.72295e-12,7.38527e-38,-1.58345e-06,-3.85292e-12,7.38479e-38,0,-1.13709e-13,0,0,0,0,0,0,0,0,0,0,0,0,0,0,0,0,0,0,0,0,0,-0.261799,-0.000676116,-1.5,0,0,0,3,0,0,0,0,0,0,0,0,1.9603e-19
150,-3.72295e-12,7.38527e-38,-1.58345e-06,-3.85292e-12,7.38479e-38,-3.40903e-12,-1.13709e-13,0,0,0,0,0,0,0,0,0,0,0,0,0,0,0,0,0,0,0,0,0,-0.261799,-0.000640122,-1.5,0,0,0,3,0,0,0,0,0,0,0,0,1.9603e-19
160,-3.72295e-12,7.38527e-38,-1.58345e-06,-3.85292e-12,7.38479e-38,0,-1.1371e-13,0,0,0,0,0,0,0,0,0,0,0,0,0,0,0,0,0,0,0,0,0,-0.261799,-0.000607263,-1.5,0,0,0,3,0,0,0,0,0,0,0,0,1.9603e-19
170,-3.72295e-12,7.38527e-38,-1.58345e-06,-3.85292e-12,7.38479e-38,-3.40903e-12,-1.1371e-13,0,0,0,0,0,0,0,0,0,0,0,0,0,0,0,0,0,0,0,0,0,-0.261799,-0.000554657,-1.5,0,0,0,3,0,0,0,0,0,0,0,0,1.9603e-19
180,-3.72295e-12,7.38527e-38,-1.58345e-06,-3.85292e-12,7.38479e-38,0,-1.13711e-13,0,0,0,0,0,0,0,0,0,0,0,0,0,0,0,0,0,0,0,0,0,-0.261799,-0.000536024,-1.5,0,0,0,3,0,0,0,0,0,0,0,0,1.9603e-19
190,-3.72295e-12,7.38527e-38,-1.58345e-06,-3.85292e-12,7.38479e-38,-3.40903e-12,-1.13711e-13,0,0,0,0,0,0,0,0,0,0,0,0,0,0,0,0,0,0,0,0,0,-0.261799,-0.000507453,-1.5,0,0,0,3,0,0,0,0,0,0,0,0,1.9603e-19
200,-3.72295e-12,7.38527e-38,-1.58345e-06,-3.85292e-12,7.38479e-38,0,-1.13712e-13,0,0,0,0,0,0,0,0,0,0,0,0,0,0,0,0,0,0,0,0,0,-0.261799,-0.000484425,-1.5,0,0,0,3,0,0,0,0,0,0,0,0,1.9603e-19
210,-3.72295e-12,7.38527e-38,-1.58345e-06,-3.85292e-12,7.38479e-38,-3.40903e-12,-1.13712e-13,0,0,0,0,0,0,0,0,0,0,0,0,0,0,0,0,0,0,0,0,0,-0.261799,-0.000468151,-1.5,0,0,0,3,0,0,0,0,0,0,0,0,1.9603e-19
220,-3.72295e-12,7.38527e-38,-1.58345e-06,-3.85292e-12,7.38479e-38,0,-1.13713e-13,0,0,0,0,0,0,0,0,0,0,0,0,0,0,0,0,0,0,0,0,0,-0.261799,-0.000453344,-1.5,0,0,0,3,0,0,0,0,0,0,0,0,1.9603e-19
230,-3.72295e-12,7.38527e-38,-1.58345e-06,-3.85292e-12,7.38479e-38,-3.40903e-12,-1.13714e-13,0,0,0,0,0,0,0,0,0,0,0,0,0,0,0,0,0,0,0,0,0,-0.261799,-0.000441672,-1.5,0,0,0,3,0,0,0,0,0,0,0,0,1.9603e-19
240,-3.72295e-12,7.38527e-38,-1.58345e-06,-3.85292e-12,7.38479e-38,0,-1.13714e-13,0,0,0,0,0,0,0,0,0,0,0,0,0,0,0,0,0,0,0,0,0,-0.261799,-0.000427702,-1.5,0,0,0,3,0,0,0,0,0,0,0,0,1.9603e-19
250,-3.72295e-12,7.38527e-38,-1.58345e-06,-3.85292e-12,7.38479e-38,-3.40903e-12,-1.13715e-13,0,0,0,0,0,0,0,0,0,0,0,0,0,0,0,0,0,0,0,0,0,-0.261799,-0.000412482,-1.5,0,0,0,3,0,0,0,0,0,0,0,0,1.9603e-19
260,-3.72295e-12,7.38527e-38,-1.58345e-06,-3.85292e-12,7.38479e-38,0,-1.13715e-13,0,0,0,0,0,0,0,0,0,0,0,0,0,0,0,0,0,0,0,0,0,-0.261799,-0.000398615,-1.5,0,0,0,3,0,0,0,0,0,0,0,0,1.9603e-19
270,-3.72295e-12,7.38527e-38,-1.58345e-06,-3.85292e-12,7.38479e-38,-3.40903e-12,-1.13716e-13,0,0,0,0,0,0,0,0,0,0,0,0,0,0,0,0,0,0,0,0,0,-0.261799,-0.000317105,-1.5,0,0,0,3,0,0,0,0,0,0,0,0,1.9603e-19
280,-3.72295e-12,7.38527e-38,-1.58345e-06,-3.85292e-12,7.38479e-38,0,-1.13716e-13,0,0,0,0,0,0,0,0,0,0,0,0,0,0,0,0,0,0,0,0,0,-0.261799,-0.000273366,-1.5,0,0,0,3,0,0,0,0,0,0,0,0,1.9603e-19
290,-3.72295e-12,7.38527e-38,-1.58345e-06,-3.85292e-12,7.38479e-38,-3.40903e-12,-1.13717e-13,0,0,0,0,0,0,0,0,0,0,0,0,0,0,0,0,0,0,0,0,0,-0.261799,-0.000264176,-1.5,0,0,0,3,0,0,0,0,0,0,0,0,1.9603e-19
300,-3.72295e-12,7.38527e-38,-1.58345e-06,-3.85292e-12,7.38479e-38,0,-1.13717e-13,0,0,0,0,0,0,0,0,0,0,0,0,0,0,0,0,0,0,0,0,0,-0.261799,-0.000253215,-1.5,0,0,0,3,0,0,0,0,0,0,0,0,1.9603e-19
310,-3.72295e-12,7.38527e-38,-1.58345e-06,-3.85292e-12,7.38479e-38,-3.40903e-12,-1.13718e-13,0,0,0,0,0,0,0,0,0,0,0,0,0,0,0,0,0,0,0,0,0,-0.261799,-0.000243714,-1.5,0,0,0,3,0,0,0,0,0,0,0,0,1.9603e-19
320,-3.72295e-12,7.38527e-38,-1.58345e-06,-3.85292e-12,7.38479e-38,0,-1.13718e-13,0,0,0,0,0,0,0,0,0,0,0,0,0,0,0,0,0,0,0,0,0,-0.261799,-0.000235048,-1.5,0,0,0,3,0,0,0,0,0,0,0,0,1.9603e-19
330,-3.72295e-12,7.38527e-38,-1.58345e-06,-3.85292e-12,7.38479e-38,-3.40903e-12,-1.13719e-13,0,0,0,0,0,0,0,0,0,0,0,0,0,0,0,0,0,0,0,0,0,-0.261799,-0.00022669,-1.5,0,0,0,3,0,0,0,0,0,0,0,0,1.9603e-19
340,-3.72295e-12,7.38527e-38,-1.58345e-06,-3.85292e-12,7.38479e-38,0,-1.13719e-13,0,0,0,0,0,0,0,0,0,0,0,0,0,0,0,0,0,0,0,0,0,-0.261799,-0.000219074,-1.5,0,0,0,3,0,0,0,0,0,0,0,0,1.9603e-19
350,-3.72295e-12,7.38527e-38,-1.58345e-06,-3.85292e-12,7.38479e-38,-3.40903e-12,-1.1372e-13,0,0,0,0,0,0,0,0,0,0,0,0,0,0,0,0,0,0,0,0,0,-0.261799,-0.000209993,-1.5,0,0,0,3,0,0,0,0,0,0,0,0,1.9603e-19
360,-3.72295e-12,7.38527e-38,-1.58345e-06,-3.85292e-12,7.38479e-38,0,-1.13721e-13,0,0,0,0,0,0,0,0,0,0,0,0,0,0,0,0,0,0,0,0,0,-0.261799,-0.000202939,-1.5,0,0,0,3,0,0,0,0,0,0,0,0,1.9603e-19
370,-3.72295e-12,7.38527e-38,-1.58345e-06,-3.85292e-12,7.38479e-38,-3.40903e-12,-1.13721e-13,0,0,0,0,0,0,0,0,0,0,0,0,0,0,0,0,0,0,0,0,0,-0.261799,-0.000196121,-1.5,0,0,0,3,0,0,0,0,0,0,0,0,1.9603e-19
380,-3.72295e-12,7.38527e-38,-1.58345e-06,-3.85292e-12,7.38479e-38,0,-1.13722e-13,0,0,0,0,0,0,0,0,0,0,0,0,0,0,0,0,0,0,0,0,0,-0.261799,-0.000187984,-1.5,0,0,0,3,0,0,0,0,0,0,0,0,1.9603e-19
390,-3.72295e-12,7.38527e-38,-1.58345e-06,-3.85292e-12,7.38479e-38,-3.40903e-12,-1.13722e-13,0,0,0,0,0,0,0,0,0,0,0,0,0,0,0,0,0,0,0,0,0,-0.261799,-0.0001813,-1.5,0,0,0,3,0,0,0,0,0,0,0,0,1.9603e-19
400,-3.72295e-12,7.38527e-38,-1.58345e-06,-3.85292e-12,7.38479e-38,0,-1.13723e-13,0,0,0,0,0,0,0,0,0,0,0,0,0,0,0,0,0,0,0,0,0,-0.261799,-0.000175209,-1.5,0,0,0,3,0,0,0,0,0,0,0,0,1.9603e-19
410,-3.72295e-12,7.38527e-38,-1.58345e-06,-3.85292e-12,7.38479e-38,-3.40903e-12,-1.13723e-13,0,0,0,0,0,0,0,0,0,0,0,0,0,0,0,0,0,0,0,0,0,-0.261799,-0.000168979,-1.5,0,0,0,3,0,0,0,0,0,0,0,0,1.9603e-19
420,-3.72295e-12,7.38527e-38,-1.58345e-06,-3.85292e-12,7.38479e-38,0,-1.13724e-13,0,0,0,0,0,0,0,0,0,0,0,0,0,0,0,0,0,0,0,0,0,-0.261799,-0.0001623,-1.5,0,0,0,3,0,0,0,0,0,0,0,0,1.9603e-19
430,-3.72295e-12,7.38527e-38,-1.58345e-06,-3.85292e-12,7.38479e-38,-3.40903e-12,-1.13724e-13,0,0,0,0,0,0,0,0,0,0,0,0,0,0,0,0,0,0,0,0,0,-0.261799,-0.000155892,-1.5,0,0,0,3,0,0,0,0,0,0,0,0,1.9603e-19
440,-3.72295e-12,7.38527e-38,-1.58345e-06,-3.85292e-12,7.38479e-38,0,-1.13725e-13,0,0,0,0,0,0,0,0,0,0,0,0,0,0,0,0,0,0,0,0,0,-0.261799,-0.000151573,-1.5,0,0,0,3,0,0,0,0,0,0,0,0,1.9603e-19
450,-3.72295e-12,7.38527e-38,-1.58345e-06,-3.85292e-12,7.38479e-38,-3.40903e-12,-1.13725e-13,0,0,0,0,0,0,0,0,0,0,0,0,0,0,0,0,0,0,0,0,0,-0.261799,-0.000144695,-1.5,0,0,0,3,0,0,0,0,0,0,0,0,1.9603e-19
460,-3.72295e-12,7.38527e-38,-1.58345e-06,-3.85292e-12,7.38479e-38,0,-1.13726e-13,0,0,0,0,0,0,0,0,0,0,0,0,0,0,0,0,0,0,0,0,0,-0.261799,-0.000139546,-1.5,0,0,0,3,0,0,0,0,0,0,0,0,1.9603e-19
470,-3.72295e-12,7.38527e-38,-1.58345e-06,-3.85292e-12,7.38479e-38,-3.40903e-12,-1.13727e-13,0,0,0,0,0,0,0,0,0,0,0,0,0,0,0,0,0,0,0,0,0,-0.261799,-0.000134854,-1.5,0,0,0,3,0,0,0,0,0,0,0,0,1.9603e-19
480,-3.72295e-12,7.38527e-38,-1.58345e-06,-3.85292e-12,7.38479e-38,0,-1.13727e-13,0,0,0,0,0,0,0,0,0,0,0,0,0,0,0,0,0,0,0,0,0,-0.261799,-0.000130321,-1.5,0,0,0,3,0,0,0,0,0,0,0,0,1.9603e-19
490,-3.72295e-12,7.38527e-38,-1.58345e-06,-3.85292e-12,7.38479e-38,-3.40903e-12,-1.13728e-13,0,0,0,0,0,0,0,0,0,0,0,0,0,0,0,0,0,0,0,0,0,-0.261799,-0.00012517,-1.5,0,0,0,3,0,0,0,0,0,0,0,0,1.9603e-19
500,-3.72295e-12,7.38527e-38,-1.58345e-06,-3.85292e-12,7.38479e-38,0,-1.13728e-13,0,0,0,0,0,0,0,0,0,0,0,0,0,0,0,0,0,0,0,0,0,-0.261799,-0.000120719,-1.5,0,0,0,3,0,0,0,0,0,0,0,0,1.9603e-19
510,-3.72295e-12,7.38527e-38,-1.58345e-06,-3.85292e-12,7.38479e-38,-3.40903e-12,-1.13729e-13,0,0,0,0,0,0,0,0,0,0,0,0,0,0,0,0,0,0,0,0,0,-0.261799,-0.00011619,-1.5,0,0,0,3,0,0,0,0,0,0,0,0,1.9603e-19
520,-3.72295e-12,7.38527e-38,-1.58345e-06,-3.85292e-12,7.38479e-38,0,-1.13729e-13,0,0,0,0,0,0,0,0,0,0,0,0,0,0,0,0,0,0,0,0,0,-0.261799,-0.000112512,-1.5,0,0,0,3,0,0,0,0,0,0,0,0,1.9603e-19
530,-3.72295e-12,7.38527e-38,-1.58345e-06,-3.85292e-12,7.38479e-38,-3.40903e-12,-1.1373e-13,0,0,0,0,0,0,0,0,0,0,0,0,0,0,0,0,0,0,0,0,0,-0.261799,-0.000108291,-1.5,0,0,0,3,0,0,0,0,0,0,0,0,1.9603e-19
540,-3.72295e-12,7.38527e-38,-1.58345e-06,-3.85292e-12,7.38479e-38,0,-1.1373e-13,0,0,0,0,0,0,0,0,0,0,0,0,0,0,0,0,0,0,0,0,0,-0.261799,-0.000103802,-1.5,0,0,0,3,0,0,0,0,0,0,0,0,1.9603e-19
550,-3.72295e-12,7.38527e-38,-1.58345e-06,-3.85292e-12,7.38479e-38,-3.40903e-12,-1.13731e-13,0,0,0,0,0,0,0,0,0,0,0,0,0,0,0,0,0,0,0,0,0,-0.261799,-0.000100315,-1.5,0,0,0,3,0,0,0,0,0,0,0,0,1.9603e-19
560,-3.72295e-12,7.38527e-38,-1.58345e-06,-3.85292e-12,7.38479e-38,0,-1.13731e-13,0,0,0,0,0,0,0,0,0,0,0,0,0,0,0,0,0,0,0,0,0,-0.261799,-9.69446e-05,-1.5,0,0,0,3,0,0,0,0,0,0,0,0,1.9603e-19
570,-3.72295e-12,7.38527e-38,-1.58345e-06,-3.85292e-12,7.38479e-38,-3.40903e-12,-1.13732e-13,0,0,0,0,0,0,0,0,0,0,0,0,0,0,0,0,0,0,0,0,0,-0.261799,-9.34947e-05,-1.5,0,0,0,3,0,0,0,0,0,0,0,0,1.9603e-19
580,-3.72295e-12,7.38527e-38,-1.58345e-06,-3.85292e-12,7.38479e-38,0,-1.13732e-13,0,0,0,0,0,0,0,0,0,0,0,0,0,0,0,0,0,0,0,0,0,-0.261799,-7.41583e-05,-1.5,0,0,0,3,0,0,0,0,0,0,0,0,1.9603e-19
590,-3.72295e-12,7.38527e-38,-1.58345e-06,-3.85292e-12,7.38479e-38,-3.40903e-12,-1.13733e-13,0,0,0,0,0,0,0,0,0,0,0,0,0,0,0,0,0,0,0,0,0,-0.261799,-6.27814e-05,-1.5,0,0,0,3,0,0,0,0,0,0,0,0,1.9603e-19
600,-3.72295e-12,7.38527e-38,-1.58345e-06,-3.85292e-12,7.38479e-38,0,-1.13734e-13,0,0,0,0,0,0,0,0,0,0,0,0,0,0,0,0,0,0,0,0,0,-0.261799,-6.0549e-05,-1.5,0,0,0,3,0,0,0,0,0,0,0,0,1.9603e-19
610,-3.72295e-12,7.38527e-38,-1.58345e-06,-3.85292e-12,7.38479e-38,-3.40903e-12,-1.13734e-13,0,0,0,0,0,0,0,0,0,0,0,0,0,0,0,0,0,0,0,0,0,-0.261799,-5.85149e-05,-1.5,0,0,0,3,0,0,0,0,0,0,0,0,1.9603e-19
620,-3.72295e-12,7.38527e-38,-1.58345e-06,-3.85292e-12,7.38479e-38,0,-1.13735e-13,0,0,0,0,0,0,0,0,0,0,0,0,0,0,0,0,0,0,0,0,0,-0.261799,-5.64342e-05,-1.5,0,0,0,3,0,0,0,0,0,0,0,0,1.9603e-19
630,-3.72295e-12,7.38527e-38,-1.58345e-06,-3.85292e-12,7.38479e-38,-3.40903e-12,-1.13735e-13,0,0,0,0,0,0,0,0,0,0,0,0,0,0,0,0,0,0,0,0,0,-0.261799,-5.43167e-05,-1.5,0,0,0,3,0,0,0,0,0,0,0,0,1.9603e-19
640,-3.72295e-12,7.38527e-38,-1.58345e-06,-3.85292e-12,7.38479e-38,0,-1.13736e-13,0,0,0,0,0,0,0,0,0,0,0,0,0,0,0,0,0,0,0,0,0,-0.261799,-5.24906e-05,-1.5,0,0,0,3,0,0,0,0,0,0,0,0,1.9603e-19
650,-3.72295e-12,7.38527e-38,-1.58345e-06,-3.85292e-12,7.38479e-38,-3.40903e-12,-1.13736e-13,0,0,0,0,0,0,0,0,0,0,0,0,0,0,0,0,0,0,0,0,0,-0.261799,-5.06242e-05,-1.5,0,0,0,3,0,0,0,0,0,0,0,0,1.9603e-19
660,-3.72295e-12,7.38527e-38,-1.58345e-06,-3.85292e-12,7.38479e-38,0,-1.13737e-13,0,0,0,0,0,0,0,0,0,0,0,0,0,0,0,0,0,0,0,0,0,-0.261799,-4.93208e-05,-1.5,0,0,0,3,0,0,0,0,0,0,0,0,1.9603e-19
670,-3.72295e-12,7.38527e-38,-1.58345e-06,-3.85292e-12,7.38479e-38,-3.40903e-12,-1.13737e-13,0,0,0,0,0,0,0,0,0,0,0,0,0,0,0,0,0,0,0,0,0,-0.261799,-4.73715e-05,-1.5,0,0,0,3,0,0,0,0,0,0,0,0,1.9603e-19
680,-3.72295e-12,7.38527e-38,-1.58345e-06,-3.85292e-12,7.38479e-38,0,-1.13738e-13,0,0,0,0,0,0,0,0,0,0,0,0,0,0,0,0,0,0,0,0,0,-0.261799,-4.5779e-05,-1.5,0,0,0,3,0,0,0,0,0,0,0,0,1.9603e-19
690,-3.72295e-12,7.38527e-38,-1.58345e-06,-3.85292e-12,7.38479e-38,-3.40903e-12,-1.13738e-13,0,0,0,0,0,0,0,0,0,0,0,0,0,0,0,0,0,0,0,0,0,-0.261799,-4.424e-05,-1.5,0,0,0,3,0,0,0,0,0,0,0,0,1.9603e-19
700,-3.72295e-12,7.38527e-38,-1.58345e-06,-3.85292e-12,7.38479e-38,0,-1.13739e-13,0,0,0,0,0,0,0,0,0,0,0,0,0,0,0,0,0,0,0,0,0,-0.261799,-4.16241e-05,-1.5,0,0,0,3,0,0,0,0,0,0,0,0,1.9603e-19
710,-3.72295e-12,7.38527e-38,-1.58345e-06,-3.85292e-12,7.38479e-38,-3.40903e-12,-1.1374e-13,0,0,0,0,0,0,0,0,0,0,0,0,0,0,0,0,0,0,0,0,0,-0.261799,-3.9979e-05,-1.5,0,0,0,3,0,0,0,0,0,0,0,0,1.9603e-19
720,-3.72295e-12,7.38527e-38,-1.58345e-06,-3.85292e-12,7.38479e-38,0,-1.1374e-13,0,0,0,0,0,0,0,0,0,0,0,0,0,0,0,0,0,0,0,0,0,-0.261799,-3.8635e-05,-1.5,0,0,0,3,0,0,0,0,0,0,0,0,1.9603e-19
730,-3.72295e-12,7.38527e-38,-1.58345e-06,-3.85292e-12,7.38479e-38,-3.40903e-12,-1.13741e-13,0,0,0,0,0,0,0,0,0,0,0,0,0,0,0,0,0,0,0,0,0,-0.261799,-3.71841e-05,-1.5,0,0,0,3,0,0,0,0,0,0,0,0,1.9603e-19
740,-3.72295e-12,7.38527e-38,-1.58345e-06,-3.85292e-12,7.38479e-38,0,-1.13741e-13,0,0,0,0,0,0,0,0,0,0,0,0,0,0,0,0,0,0,0,0,0,-0.261799,-3.57877e-05,-1.5,0,0,0,3,0,0,0,0,0,0,0,0,1.9603e-19
750,-3.72295e-12,7.38527e-38,-1.58345e-06,-3.85292e-12,7.38479e-38,-3.40903e-12,-1.13742e-13,0,0,0,0,0,0,0,0,0,0,0,0,0,0,0,0,0,0,0,0,0,-0.261799,-3.42339e-05,-1.5,0,0,0,3,0,0,0,0,0,0,0,0,1.9603e-19
760,-3.72295e-12,7.38527e-38,-1.58345e-06,-3.85292e-12,7.38479e-38,0,-1.13742e-13,0,0,0,0,0,0,0,0,0,0,0,0,0,0,0,0,0,0,0,0,0,-0.261799,-3.30839e-05,-1.5,0,0,0,3,0,0,0,0,0,0,0,0,1.9603e-19
770,-3.72295e-12,7.38527e-38,-1.58345e-06,-3.85292e-12,7.38479e-38,-3.40903e-12,-1.13743e-13,0,0,0,0,0,0,0,0,0,0,0,0,0,0,0,0,0,0,0,0,0,-0.261799,-3.19724e-05,-1.5,0,0,0,3,0,0,0,0,0,0,0,0,1.9603e-19
780,-3.72295e-12,7.38527e-38,-1.58345e-06,-3.85292e-12,7.38479e-38,0,-1.13743e-13,0,0,0,0,0,0,0,0,0,0,0,0,0,0,0,0,0,0,0,0,0,-0.261799,-3.071e-05,-1.5,0,0,0,3,0,0,0,0,0,0,0,0,1.9603e-19
790,-3.72295e-12,7.38527e-38,-1.58345e-06,-3.85292e-12,7.38479e-38,-3.40903e-12,-1.13744e-13,0,0,0,0,0,0,0,0,0,0,0,0,0,0,0,0,0,0,0,0,0,-0.261799,-2.96775e-05,-1.5,0,0,0,3,0,0,0,0,0,0,0,0,1.9603e-19
800,-3.72295e-12,7.38527e-38,-1.58345e-06,-3.85292e-12,7.38479e-38,0,-1.13744e-13,0,0,0,0,0,0,0,0,0,0,0,0,0,0,0,0,0,0,0,0,0,-0.261799,-2.86798e-05,-1.5,0,0,0,3,0,0,0,0,0,0,0,0,1.9603e-19
810,-3.72295e-12,7.38527e-38,-1.58345e-06,-3.85292e-12,7.38479e-38,-3.40903e-12,-1.13745e-13,0,0,0,0,0,0,0,0,0,0,0,0,0,0,0,0,0,0,0,0,0,-0.261799,-2.76037e-05,-1.5,0,0,0,3,0,0,0,0,0,0,0,0,1.9603e-19
820,-3.72295e-12,7.38527e-38,-1.58345e-06,-3.85292e-12,7.38479e-38,0,-1.13745e-13,0,0,0,0,0,0,0,0,0,0,0,0,0,0,0,0,0,0,0,0,0,-0.261799,-2.66757e-05,-1.5,0,0,0,3,0,0,0,0,0,0,0,0,1.9603e-19
830,-3.72295e-12,7.38527e-38,-1.58345e-06,-3.85292e-12,7.38479e-38,-3.40903e-12,-1.13746e-13,0,0,0,0,0,0,0,0,0,0,0,0,0,0,0,0,0,0,0,0,0,-0.261799,-2.55689e-05,-1.5,0,0,0,3,0,0,0,0,0,0,0,0,1.9603e-19
840,-3.72295e-12,7.38527e-38,-1.58345e-06,-3.85292e-12,7.38479e-38,0,-1.13747e-13,0,0,0,0,0,0,0,0,0,0,0,0,0,0,0,0,0,0,0,0,0,-0.261799,-2.47094e-05,-1.5,0,0,0,3,0,0,0,0,0,0,0,0,1.9603e-19
850,-3.72295e-12,7.38527e-38,-1.58345e-06,-3.85292e-12,7.38479e-38,-3.40903e-12,-1.13747e-13,0,0,0,0,0,0,0,0,0,0,0,0,0,0,0,0,0,0,0,0,0,-0.261799,-2.37814e-05,-1.5,0,0,0,3,0,0,0,0,0,0,0,0,1.9603e-19
860,-3.72295e-12,7.38527e-38,-1.58345e-06,-3.85292e-12,7.38479e-38,0,-1.13748e-13,0,0,0,0,0,0,0,0,0,0,0,0,0,0,0,0,0,0,0,0,0,-0.261799,-2.28891e-05,-1.5,0,0,0,3,0,0,0,0,0,0,0,0,1.9603e-19
870,-3.72295e-12,7.38527e-38,-1.58345e-06,-3.85292e-12,7.38479e-38,-3.40903e-12,-1.13748e-13,0,0,0,0,0,0,0,0,0,0,0,0,0,0,0,0,0,0,0,0,0,-0.261799,-2.2255e-05,-1.5,0,0,0,3,0,0,0,0,0,0,0,0,1.9603e-19
880,-3.72295e-12,7.38527e-38,-1.58345e-06,-3.85292e-12,7.38479e-38,0,-1.13749e-13,0,0,0,0,0,0,0,0,0,0,0,0,0,0,0,0,0,0,0,0,0,-0.261799,-2.15948e-05,-1.5,0,0,0,3,0,0,0,0,0,0,0,0,1.9603e-19
890,-3.72295e-12,7.38527e-38,-1.58345e-06,-3.85292e-12,7.38479e-38,-3.40903e-12,-1.13749e-13,0,0,0,0,0,0,0,0,0,0,0,0,0,0,0,0,0,0,0,0,0,-0.261799,-1.44643e-05,-1.5,0,0,0,3,0,0,0,0,0,0,0,0,1.9603e-19
900,-3.72295e-12,7.38527e-38,-1.58345e-06,-3.85292e-12,7.38479e-38,0,-1.1375e-13,0,0,0,0,0,0,0,0,0,0,0,0,0,0,0,0,0,0,0,0,0,-0.261799,-1.21845e-05,-1.5,0,0,0,3,0,0,0,0,0,0,0,0,1.9603e-19
910,-3.72295e-12,7.38527e-38,-1.58345e-06,-3.85292e-12,7.38479e-38,-3.40903e-12,-1.1375e-13,0,0,0,0,0,0,0,0,0,0,0,0,0,0,0,0,0,0,0,0,0,-0.261799,-1.1727e-05,-1.5,0,0,0,3,0,0,0,0,0,0,0,0,1.9603e-19
920,-3.72295e-12,7.38527e-38,-1.58345e-06,-3.85292e-12,7.38479e-38,0,-1.13751e-13,0,0,0,0,0,0,0,0,0,0,0,0,0,0,0,0,0,0,0,0,0,-0.261799,-1.12866e-05,-1.5,0,0,0,3,0,0,0,0,0,0,0,0,1.9603e-19
930,-3.72295e-12,7.38527e-38,-1.58345e-06,-3.85292e-12,7.38479e-38,-3.40903e-12,-1.13751e-13,0,0,0,0,0,0,0,0,0,0,0,0,0,0,0,0,0,0,0,0,0,-0.261799,-1.08852e-05,-1.5,0,0,0,3,0,0,0,0,0,0,0,0,1.9603e-19
940,-3.72295e-12,7.38527e-38,-1.58345e-06,-3.85292e-12,7.38479e-38,0,-1.13752e-13,0,0,0,0,0,0,0,0,0,0,0,0,0,0,0,0,0,0,0,0,0,-0.261799,-1.0434e-05,-1.5,0,0,0,3,0,0,0,0,0,0,0,0,1.9603e-19
950,-3.72295e-12,7.38527e-38,-1.58345e-06,-3.85292e-12,7.38479e-38,-3.40903e-12,-1.13753e-13,0,0,0,0,0,0,0,0,0,0,0,0,0,0,0,0,0,0,0,0,0,-0.261799,-1.00835e-05,-1.5,0,0,0,3,0,0,0,0,0,0,0,0,1.9603e-19
960,-3.72295e-12,7.38527e-38,-1.58345e-06,-3.85292e-12,7.38479e-38,0,-1.13753e-13,0,0,0,0,0,0,0,0,0,0,0,0,0,0,0,0,0,0,0,0,0,-0.261799,-9.70513e-06,-1.5,0,0,0,3,0,0,0,0,0,0,0,0,1.9603e-19
970,-3.72295e-12,7.38527e-38,-1.58345e-06,-3.85292e-12,7.38479e-38,-3.40903e-12,-1.13754e-13,0,0,0,0,0,0,0,0,0,0,0,0,0,0,0,0,0,0,0,0,0,-0.261799,-9.35976e-06,-1.5,0,0,0,3,0,0,0,0,0,0,0,0,1.9603e-19
980,-3.72295e-12,7.38527e-38,-1.58345e-06,-3.85292e-12,7.38479e-38,0,-1.13754e-13,0,0,0,0,0,0,0,0,0,0,0,0,0,0,0,0,0,0,0,0,0,-0.261799,-9.0451e-06,-1.5,0,0,0,3,0,0,0,0,0,0,0,0,1.9603e-19
990,-3.72295e-12,7.38527e-38,-1.58345e-06,-3.85292e-12,7.38479e-38,-3.40903e-12,-1.13755e-13,0,0,0,0,0,0,0,0,0,0,0,0,0,0,0,0,0,0,0,0,0,-0.261799,-8.67017e-06,-1.5,0,0,0,3,0,0,0,0,0,0,0,0,1.9603e-19
1000,-3.72295e-12,7.38527e-38,-1.58345e-06,-3.85292e-12,7.38479e-38,0,-1.13755e-13,0,0,0,0,0,0,0,0,0,0,0,0,0,0,0,0,0,0,0,0,0,-0.261799,-8.39576e-06,-1.5,0,0,0,3,0,0,0,0,0,0,0,0,1.9603e-19
1010,-3.72295e-12,7.38527e-38,-1.58345e-06,-3.85292e-12,7.38479e-38,-3.40903e-12,-1.13756e-13,0,0,0,0,0,0,0,0,0,0,0,0,0,0,0,0,0,0,0,0,0,-0.261799,-8.11352e-06,-1.5,0,0,0,3,0,0,0,0,0,0,0,0,1.9603e-19
1020,-3.72295e-12,7.38527e-38,-1.58345e-06,-3.85292e-12,7.38479e-38,0,-1.13756e-13,0,0,0,0,0,0,0,0,0,0,0,0,0,0,0,0,0,0,0,0,0,-0.261799,-7.77688e-06,-1.5,0,0,0,3,0,0,0,0,0,0,0,0,1.9603e-19
1030,-3.72295e-12,7.38527e-38,-1.58345e-06,-3.85292e-12,7.38479e-38,-3.40903e-12,-1.13757e-13,0,0,0,0,0,0,0,0,0,0,0,0,0,0,0,0,0,0,0,0,0,-0.261799,-7.48507e-06,-1.5,0,0,0,3,0,0,0,0,0,0,0,0,1.9603e-19
1040,-3.72295e-12,7.38527e-38,-1.58345e-06,-3.85292e-12,7.38479e-38,0,-1.13757e-13,0,0,0,0,0,0,0,0,0,0,0,0,0,0,0,0,0,0,0,0,0,-0.261799,-7.21891e-06,-1.5,0,0,0,3,0,0,0,0,0,0,0,0,1.9603e-19
1050,-3.72295e-12,7.38527e-38,-1.58345e-06,-3.85292e-12,7.38479e-38,-3.40903e-12,-1.13758e-13,0,0,0,0,0,0,0,0,0,0,0,0,0,0,0,0,0,0,0,0,0,-0.261799,-6.96222e-06,-1.5,0,0,0,3,0,0,0,0,0,0,0,0,1.9603e-19
1060,-3.72295e-12,7.38527e-38,-1.58345e-06,-3.85292e-12,7.38479e-38,0,-1.13759e-13,0,0,0,0,0,0,0,0,0,0,0,0,0,0,0,0,0,0,0,0,0,-0.261799,-6.74187e-06,-1.5,0,0,0,3,0,0,0,0,0,0,0,0,1.9603e-19
1070,-3.72295e-12,7.38527e-38,-1.58345e-06,-3.85292e-12,7.38479e-38,-3.40903e-12,-1.13759e-13,0,0,0,0,0,0,0,0,0,0,0,0,0,0,0,0,0,0,0,0,0,-0.261799,-6.3962e-06,-1.5,0,0,0,3,0,0,0,0,0,0,0,0,1.9603e-19
1080,-3.72295e-12,7.38527e-38,-1.58345e-06,-3.85292e-12,7.38479e-38,0,-1.1376e-13,0,0,0,0,0,0,0,0,0,0,0,0,0,0,0,0,0,0,0,0,0,-0.261799,-6.21894e-06,-1.5,0,0,0,3,0,0,0,0,0,0,0,0,1.9603e-19
1090,-3.72295e-12,7.38527e-38,-1.58345e-06,-3.85292e-12,7.38479e-38,-3.40903e-12,-1.1376e-13,0,0,0,0,0,0,0,0,0,0,0,0,-1214696730,-1367084160,-1214696730,-1367084160,-1368649656,-1368649656,-1367221152,-561860238,0,-0.261799,-5.76777e-06,-1.5,0,0,0,3,0,0,0,0,0,0,0,0,0
1100,-3.72295e-12,7.38527e-38,-1.58345e-06,-3.85292e-12,7.38479e-38,0,-1.13761e-13,0,0,0,0,0,0,0,0,0,0,0,0,-1214696730,-1367084160,-1214696730,-1367084160,-1368649656,-1368649656,-1367221152,-561860238,0,-0.261799,-5.54002e-06,-1.5,0,0,0,3,0,0,0,0,0,0,0,0,0
1110,-3.72295e-12,7.38527e-38,-1.58345e-06,-3.85292e-12,7.38479e-38,-3.40903e-12,-1.13761e-13,0,0,-10.2421,-2.19499,-2.36687,0,0,0,0,0,-6.24213,-2.19499,220,135,220,135,256,135,220,174,0,-0.261799,-4.42695e-06,-1.5,0,0,0,3,0,0,0,0,0,0,0,0,1404
1120,-3.72295e-12,7.38527e-38,-1.58345e-06,-3.85292e-12,7.38479e-38,0,-1.13762e-13,0,0,-10.2421,-2.19499,-2.36687,0,0,0,0,0,-6.24213,-2.19499,220,135,220,135,256,135,220,174,0,-0.261799,-3.95649e-06,-1.5,0,0,0,3,0,0,0,0,0,0,0,0,1404
1130,-3.72295e-12,7.38527e-38,-1.58345e-06,-3.85292e-12,7.38479e-38,-3.40903e-12,-1.13762e-13,0,0,-10.2421,-2.19499,-2.36687,0,0,0,0,0,-6.24213,-2.19499,220,135,220,135,256,135,220,174,0,-0.261799,-3.82348e-06,-1.5,0,0,0,3,0,0,0,0,0,0,0,0,1404
1140,-3.72295e-12,7.38527e-38,-1.58345e-06,-3.85292e-12,7.38479e-38,0,-1.13763e-13,0,0,-10.2421,-2.19499,-2.36687,0,0,0,0,0,-6.24213,-2.19499,220,135,220,135,256,135,220,174,0,-0.261799,-3.64997e-06,-1.5,0,0,0,3,0,0,0,0,0,0,0,0,1404
1150,-3.72295e-12,7.38527e-38,-1.58345e-06,-3.85292e-12,7.38479e-38,-3.40903e-12,-1.13763e-13,0,0,-10.2421,-2.19499,-2.36687,0,0,0,0,0,-6.24213,-2.19499,220,135,220,135,256,135,220,174,0,-0.261799,-3.50585e-06,-1.5,0,0,0,3,0,0,0,0,0,0,0,0,1404
1160,-3.72295e-12,7.38527e-38,-1.58345e-06,-3.85292e-12,7.38479e-38,0,-1.13764e-13,0,0,-10.2421,-2.19499,-2.36687,0,0,0,0,0,-6.24213,-2.19499,220,135,220,135,256,135,220,174,0,-0.261799,-3.25035e-06,-1.5,0,0,0,3,0,0,0,0,0,0,0,0,1404
1170,-3.72295e-12,7.38527e-38,-1.58345e-06,-3.85292e-12,7.38479e-38,-3.40903e-12,-1.13764e-13,0,0,-10.2421,-2.19499,-2.36687,0,0,0,0,0,-6.24213,-2.19499,220,135,220,135,256,135,220,174,0,-0.261799,-3.13468e-06,-1.5,0,0,0,3,0,0,0,0,0,0,0,0,1404
1180,-3.72295e-12,7.38527e-38,-1.58345e-06,-3.85292e-12,7.38479e-38,0,-1.13765e-13,0,0,-10.2421,-2.19499,-2.36687,0,0,0,0,0,-6.24213,-2.19499,220,135,220,135,256,135,220,174,0,-0.261799,-3.01706e-06,-1.5,0,0,0,3,0,0,0,0,0,0,0,0,1404
1190,-3.72295e-12,7.38527e-38,-1.58345e-06,-3.85292e-12,7.38479e-38,-3.40903e-12,-1.13766e-13,0,0,-10.2421,-2.19499,-2.36687,0,0,0,0,0,-6.24213,-2.19499,220,135,220,135,256,135,220,174,0,-0.261799,-2.9157e-06,-1.5,0,0,0,3,0,0,0,0,0,0,0,0,1404
1200,-3.72295e-12,7.38527e-38,-1.58345e-06,-3.85292e-12,7.38479e-38,0,-1.13766e-13,0,0,-10.2421,-2.19499,-2.36687,0,0,0,0,0,-6.24213,-2.19499,220,135,220,135,256,135,220,174,0,-0.261799,-2.69717e-06,-1.5,0,0,0,3,0,0,0,0,0,0,0,0,1404
1210,-3.72295e-12,7.38527e-38,-1.58345e-06,-3.85292e-12,7.38479e-38,-3.40903e-12,-1.13767e-13,0,0,-10.2421,-2.19499,-2.36687,0,0,0,0,0,-6.24213,-2.19499,220,135,220,135,256,135,220,174,0,-0.261799,-2.59588e-06,-1.5,0,0,0,3,0,0,0,0,0,0,0,0,1404
1220,-3.72295e-12,7.38527e-38,-1.58345e-06,-3.85292e-12,7.38479e-38,0,-1.13767e-13,0,0,-10.2421,-2.19499,-2.36687,0,0,0,0,0,-6.24213,-2.19499,220,135,220,135,256,135,220,174,0,-0.261799,-2.48817e-06,-1.5,0,0,0,3,0,0,0,0,0,0,0,0,1404
1230,-3.72295e-12,7.38527e-38,-1.58345e-06,-3.85292e-12,7.38479e-38,-3.40903e-12,-1.13768e-13,0,0,-10.2421,-2.19499,-2.36687,0,0,0,0,0,-6.24213,-2.19499,220,135,220,135,256,135,220,174,0,-0.261799,-2.39481e-06,-1.5,0,0,0,3,0,0,0,0,0,0,0,0,1404
1240,-3.72295e-12,7.38527e-38,-1.58345e-06,-3.85292e-12,7.38479e-38,0,-1.13768e-13,0,0,-10.2421,-2.19499,-2.36687,0,0,0,0,0,-6.24213,-2.19499,220,135,220,135,256,135,220,174,0,-0.261799,-2.31436e-06,-1.5,0,0,0,3,0,0,0,0,0,0,0,0,1404
1250,-3.72295e-12,7.38527e-38,-1.58345e-06,-3.85292e-12,7.38479e-38,-3.40903e-12,-1.13769e-13,0,0,-10.2421,-2.19499,-2.36687,0,0,0,0,0,-6.24213,-2.19499,220,135,220,135,256,135,220,174,0,-0.261799,-2.22297e-06,-1.5,0,0,0,3,0,0,0,0,0,0,0,0,1404
1260,-3.72295e-12,7.38527e-38,-1.58345e-06,-3.85292e-12,7.38479e-38,0,-1.13769e-13,0,0,-10.2421,-2.19499,-2.36687,0,0,0,0,0,-6.24213,-2.19499,220,135,220,135,256,135,220,174,0,-0.261799,-2.15702e-06,-1.5,0,0,0,3,0,0,0,0,0,0,0,0,1404
1270,-3.72295e-12,7.38527e-38,-1.58345e-06,-3.85292e-12,7.38479e-38,-3.40903e-12,-1.1377e-13,0,0,-10.2421,-2.19499,-2.36687,0,0,0,0,0,-6.24213,-2.19499,220,135,220,135,256,135,220,174,0,-0.261799,-2.08032e-06,-1.5,0,0,0,3,0,0,0,0,0,0,0,0,1404
1280,-3.72295e-12,7.38527e-38,-1.58345e-06,-3.85292e-12,7.38479e-38,0,-1.1377e-13,0,0,-10.2421,-2.19499,-2.36687,0,0,0,0,0,-6.24213,-2.19499,220,135,220,135,256,135,220,174,0,-0.261799,-2.01448e-06,-1.5,0,0,0,3,0,0,0,0,0,0,0,0,1404
1290,-3.72295e-12,7.38527e-38,-1.58345e-06,-3.85292e-12,7.38479e-38,-3.40903e-12,-1.13771e-13,0,0,-10.2421,-2.19499,-2.36687,0,0,0,0,0,-6.24213,-2.19499,220,135,220,135,256,135,220,174,0,-0.261799,-1.9309e-06,-1.5,0,0,0,3,0,0,0,0,0,0,0,0,1404
1300,-3.72295e-12,7.38527e-38,-1.58345e-06,-3.85292e-12,7.38479e-38,0,-1.13772e-13,0,0,-10.2421,-2.19499,-2.36687,0,0,0,0,0,-6.24213,-2.19499,220,135,220,135,256,135,220,174,0,-0.261799,-1.86599e-06,-1.5,0,0,0,3,0,0,0,0,0,0,0,0,1404
1310,-3.72295e-12,7.38527e-38,-1.58345e-06,-3.85292e-12,7.38479e-38,-3.40903e-12,-1.13772e-13,0,0,-10.2421,-2.19499,-2.36687,0,0,0,0,0,-6.24213,-2.19499,220,135,220,135,256,135,220,174,0,-0.261799,-1.7923e-06,-1.5,0,0,0,3,0,0,0,0,0,0,0,0,1404
1320,-3.72295e-12,7.38527e-38,-1.58345e-06,-3.85292e-12,7.38479e-38,0,-1.13773e-13,0,0,-10.2421,-2.19499,-2.36687,0,0,0,0,0,-6.24213,-2.19499,220,135,220,135,256,135,220,174,0,-0.261799,-1.73209e-06,-1.5,0,0,0,3,0,0,0,0,0,0,0,0,1404
1330,-3.72295e-12,7.38527e-38,-1.58345e-06,-3.85292e-12,7.38479e-38,-3.40903e-12,-1.13773e-13,0,0,-10.2421,-2.19499,-2.36687,0,0,0,0,0,-6.24213,-2.19499,220,135,220,135,256,135,220,174,0,-0.261799,-1.6671e-06,-1.5,0,0,0,3,0,0,0,0,0,0,0,0,1404
1340,-3.72295e-12,7.38527e-38,-1.58345e-06,-3.85292e-12,7.38479e-38,0,-1.13774e-13,0,0,-10.2421,-2.19499,-2.36687,0,0,0,0,0,-6.24213,-2.19499,220,135,220,135,256,135,220,174,0,-0.261799,-1.6111e-06,-1.5,0,0,0,3,0,0,0,0,0,0,0,0,1404
1350,-3.72295e-12,7.38527e-38,-1.58345e-06,-3.85292e-12,7.38479e-38,-3.40903e-12,-1.13774e-13,0,0,-10.2421,-2.19499,-2.36687,0,0,0,0,0,-6.24213,-2.19499,220,135,220,135,256,135,220,174,0,-0.261799,-1.54108e-06,-1.5,0,0,0,3,0,0,0,0,0,0,0,0,1404
1360,-3.72295e-12,7.38527e-38,-1.58345e-06,-3.85292e-12,7.38479e-38,0,-1.13775e-13,0,0,-10.2421,-2.19499,-2.36687,0,0,0,0,0,-6.24213,-2.19499,220,135,220,135,256,135,220,174,0,-0.261799,-1.48927e-06,-1.5,0,0,0,3,0,0,0,0,0,0,0,0,1404
1370,-3.72295e-12,7.38527e-38,-1.58345e-06,-3.85292e-12,7.38479e-38,-3.40903e-12,-1.13775e-13,0,0,-10.2421,-2.19499,-2.36687,0,0,0,0,0,-6.24213,-2.19499,220,135,220,135,256,135,220,174,0,-0.261799,-1.4392e-06,-1.5,0,0,0,3,0,0,0,0,0,0,0,0,1404
1380,-3.72295e-12,7.38527e-38,-1.58345e-06,-3.85292e-12,7.38479e-38,0,-1.13776e-13,0,0,-10.2421,-2.19499,-2.36687,0,0,0,0,0,-6.24213,-2.19499,220,135,220,135,256,135,220,174,0,-0.261799,-1.38238e-06,-1.5,0,0,0,3,0,0,0,0,0,0,0,0,1404
1390,-3.72295e-12,7.38527e-38,-1.58345e-06,-3.85292e-12,7.38479e-38,-3.40903e-12,-1.13776e-13,0,0,-10.2421,-2.19499,-2.36687,0,0,0,0,0,-6.24213,-2.19499,220,135,220,135,256,135,220,174,0,-0.261799,-1.09919e-06,-1.5,0,0,0,3,0,0,0,0,0,0,0,0,1404
1400,-3.72295e-12,7.38527e-38,-1.58345e-06,-3.85292e-12,7.38479e-38,0,-1.13777e-13,0,0,-10.2421,-2.19499,-2.36687,0,0,0,0,0,-6.24213,-2.19499,220,135,220,135,256,135,220,174,0,-0.261799,-9.26246e-07,-1.5,0,0,0,3,0,0,0,0,0,0,0,0,1404
1410,-3.72295e-12,7.38527e-38,-1.58345e-06,-3.85292e-12,7.38479e-38,-3.40903e-12,-1.13777e-13,0,0,-10.2421,-2.19499,-2.36687,0,0,0,0,0,-6.24213,-2.19499,220,135,220,135,256,135,220,174,0,-0.261799,-8.84213e-07,-1.5,0,0,0,3,0,0,0,0,0,0,0,0,1404
1420,-3.72295e-12,7.38527e-38,-1.58345e-06,-3.85292e-12,7.38479e-38,0,-1.13778e-13,0,0,-10.2421,-2.19499,-2.36687,0,0,0,0,0,-6.24213,-2.19499,220,135,220,135,256,135,220,174,0,-0.261799,-8.54509e-07,-1.5,0,0,0,3,0,0,0,0,0,0,0,0,1404
1430,-3.72295e-12,7.38527e-38,-1.58345e-06,-3.85292e-12,7.38479e-38,-3.40903e-12,-1.13779e-13,0,0,-9.3168,0.359595,-1.14456,0,0,0,0,0,-5.3168,0.359595,134,87,134,87,165,87,134,135,0,-0.261799,-8.32509e-07,-1.5,0,0,0,3,0,0,0,0,0,0,0,0,1488
1440,-3.72295e-12,7.38527e-38,-1.58345e-06,-3.85292e-12,7.38479e-38,0,-1.13779e-13,0,0,-9.3168,0.359595,-1.14456,0,0,0,0,0,-5.3168,0.359595,134,87,134,87,165,87,134,135,0,-0.261799,-8.06177e-07,-1.5,0,0,0,3,0,0,0,0,0,0,0,0,1488
1450,-3.72295e-12,7.38527e-38,-1.58345e-06,-3.85292e-12,7.38479e-38,-3.40903e-12,-1.1378e-13,0,0,-9.3168,0.359595,-1.14456,0,0,0,0,0,-5.3168,0.359595,134,87,134,87,165,87,134,135,0,-0.261799,-7.7751e-07,-1.5,0,0,0,3,0,0,0,0,0,0,0,0,1488
1460,-3.72295e-12,7.38527e-38,-1.58345e-06,-3.85292e-12,7.38479e-38,0,-1.1378e-13,0,0,-9.3168,0.359595,-1.14456,0,0,0,0,0,-5.3168,0.359595,134,87,134,87,165,87,134,135,0,-0.261799,-7.45282e-07,-1.5,0,0,0,3,0,0,0,0,0,0,0,0,1488
1470,-3.72295e-12,7.38527e-38,-1.58345e-06,-3.85292e-12,7.38479e-38,-3.40903e-12,-1.13781e-13,0,0,-8.88612,0.330356,-1.19342,0,0,0,0,0,-4.88612,0.330356,137,86,137,86,163,86,137,138,0,-0.261799,-7.21694e-07,-1.5,0,0,0,3,0,0,0,0,0,0,0,0,1352
1480,-3.72295e-12,7.38527e-38,-1.58345e-06,-3.85292e-12,7.38479e-38,0,-1.13781e-13,0,0,-8.88612,0.330356,-1.19342,0,0,0,0,0,-4.88612,0.330356,137,86,137,86,163,86,137,138,0,-0.261799,-6.91779e-07,-1.5,0,0,0,3,0,0,0,0,0,0,0,0,1352
1490,-3.72295e-12,7.38527e-38,-1.58345e-06,-3.85292e-12,7.38479e-38,-3.40903e-12,-1.13782e-13,0,0,-8.88612,0.330356,-1.19342,0,0,0,0,0,-4.88612,0.330356,137,86,137,86,163,86,137,138,0,-0.261799,-6.68539e-07,-1.5,0,0,0,3,0,0,0,0,0,0,0,0,1352
1500,-3.72295e-12,7.38527e-38,-1.58345e-06,-3.85292e-12,7.38479e-38,0,-1.13782e-13,0,0,-8.88612,0.330356,-1.19342,0,0,0,0,0,-4.88612,0.330356,137,86,137,86,163,86,137,138,0,-0.261799,-6.4608e-07,-1.5,0,0,0,3,0,0,0,0,0,0,0,0,1352
1510,-3.72295e-12,7.38527e-38,-1.58345e-06,-3.85292e-12,7.38479e-38,-3.40903e-12,-1.13783e-13,0,0,-8.81818,0.252138,-1.08355,0,0,0,0,0,-4.81818,0.252138,137,82,137,82,169,82,137,133,0,-0.261799,-6.21837e-07,-1.5,0,0,0,3,0,0,0,0,0,0,0,0,1632
1520,-3.72295e-12,7.38527e-38,-1.58345e-06,-3.85292e-12,7.38479e-38,0,-1.13783e-13,0,0,-8.81818,0.252138,-1.08355,0,0,0,0,0,-4.81818,0.252138,137,82,137,82,169,82,137,133,0,-0.261799,-5.98504e-07,-1.5,0,0,0,3,0,0,0,0,0,0,0,0,1632
1530,-3.72295e-12,7.38527e-38,-1.58345e-06,-3.85292e-12,7.38479e-38,-3.40903e-12,-1.13784e-13,0,0,-8.81818,0.252138,-1.08355,0,0,0,0,0,-4.81818,0.252138,137,82,137,82,169,82,137,133,0,-0.261799,-5.73695e-07,-1.5,0,0,0,3,0,0,0,0,0,0,0,0,1632
1540,-3.72295e-12,7.38527e-38,-1.58345e-06,-3.85292e-12,7.38479e-38,0,-1.13785e-13,0,0,-8.3405,-0.38147,-1.13791,0,0,0,0,0,-4.3405,-0.38147,159,83,159,83,199,83,159,134,0,-0.261799,-5.54422e-07,-1.5,0,0,0,3,0,0,0,0,0,0,0,0,2040
1550,-3.72295e-12,7.38527e-38,-1.58345e-06,-3.85292e-12,7.38479e-38,-3.40903e-12,-1.13785e-13,0,0,-8.3405,-0.38147,-1.13791,0,0,0,0,0,-4.3405,-0.38147,159,83,159,83,199,83,159,134,0,-0.261799,-5.34693e-07,-1.5,0,0,0,3,0,0,0,0,0,0,0,0,2040
1560,-3.72295e-12,7.38527e-38,-1.58345e-06,-3.85292e-12,7.38479e-38,0,-1.13786e-13,0,0,-8.3405,-0.38147,-1.13791,0,0,0,0,0,-4.3405,-0.38147,159,83,159,83,199,83,159,134,0,-0.261799,-5.1568e-07,-1.5,0,0,0,3,0,0,0,0,0,0,0,0,2040
1570,-3.72295e-12,7.38527e-38,-1.58345e-06,-3.85292e-12,7.38479e-38,-3.40903e-12,-1.13786e-13,0,0,-8.3405,-0.38147,-1.13791,0,0,0,0,0,-4.3405,-0.38147,159,83,159,83,199,83,159,134,0,-0.261799,-4.9633e-07,-1.5,0,0,0,3,0,0,0,0,0,0,0,0,2040
1580,-3.72295e-12,7.38527e-38,-1.58345e-06,-3.85292e-12,7.38479e-38,0,-1.13787e-13,0,0,-8.3405,-0.38147,-1.13791,0,0,0,0,0,-4.3405,-0.38147,159,83,159,83,199,83,159,134,0,-0.261799,-4.79656e-07,-1.5,0,0,0,3,0,0,0,0,0,0,0,0,2040
1590,-3.72295e-12,7.38527e-38,-1.58345e-06,-3.85292e-12,7.38479e-38,-3.40903e-12,-1.13787e-13,0,0,-8.3405,-0.38147,-1.13791,0,0,0,0,0,-4.3405,-0.38147,159,83,159,83,199,83,159,134,0,-0.261799,-4.59755e-07,-1.5,0,0,0,3,0,0,0,0,0,0,0,0,2040
1600,-3.72295e-12,7.38527e-38,-1.58345e-06,-3.85292e-12,7.38479e-38,0,-1.13788e-13,0,0,-8.3405,-0.38147,-1.13791,0,0,0,0,0,-4.3405,-0.38147,159,83,159,83,199,83,159,134,0,-0.261799,-4.46116e-07,-1.5,0,0,0,3,0,0,0,0,0,0,0,0,2040
1610,-3.72295e-12,7.38527e-38,-1.58345e-06,-3.85292e-12,7.38479e-38,-3.40903e-12,-1.13788e-13,0,0,-8.3405,-0.38147,-1.13791,0,0,0,0,0,-4.3405,-0.38147,159,83,159,83,199,83,159,134,0,-0.261799,-4.34631e-07,-1.5,0,0,0,3,0,0,0,0,0,0,0,0,2040
1620,-3.72295e-12,7.38527e-38,-1.58345e-06,-3.85292e-12,7.38479e-38,0,-1.13789e-13,0,0,-8.3405,-0.38147,-1.13791,0,0,0,0,0,-4.3405,-0.38147,159,83,159,83,199,83,159,134,0,-0.261799,-4.2173e-07,-1.5,0,0,0,3,0,0,0,0,0,0,0,0,2040
1630,-3.72295e-12,7.38527e-38,-1.58345e-06,-3.85292e-12,7.38479e-38,-3.40903e-12,-1.13789e-13,0,0,-8.3405,-0.38147,-1.13791,0,0,0,0,0,-4.3405,-0.38147,159,83,159,83,199,83,159,134,0,-0.261799,-4.05906e-07,-1.5,0,0,0,3,0,0,0,0,0,0,0,0,2040
1640,-3.72295e-12,7.38527e-38,-1.58345e-06,-3.85292e-12,7.38479e-38,0,-1.1379e-13,0,0,-8.3405,-0.38147,-1.13791,0,0,0,0,0,-4.3405,-0.38147,159,83,159,83,199,83,159,134,0,-0.261799,-3.90662e-07,-1.5,0,0,0,3,0,0,0,0,0,0,0,0,2040
1650,-3.72295e-12,7.38527e-38,-1.58345e-06,-3.85292e-12,7.38479e-38,-3.40903e-12,-1.1379e-13,0,0,-8.3405,-0.38147,-1.13791,0,0,0,0,0,-4.3405,-0.38147,159,83,159,83,199,83,159,134,0,-0.261799,-3.77529e-07,-1.5,0,0,0,3,0,0,0,0,0,0,0,0,2040
1660,-3.72295e-12,7.38527e-38,-1.58345e-06,-3.85292e-12,7.38479e-38,0,-1.13791e-13,0,0,-9.41018,-0.188312,-1.09915,0,0,0,0,0,-5.41018,-0.188312,154,86,154,86,186,86,154,133,0.261799,-0.261799,-3.56664e-07,-1.5,0,0,0,3,-5.47203,-0.232188,0,0,0,0,-2.20904,-1.56703,1504
1670,-3.72295e-12,7.38527e-38,-1.58345e-06,-3.85292e-12,7.38479e-38,-3.40903e-12,-1.13792e-13,0,0,-9.41018,-0.188312,-1.09915,0,0,0,0,0,-5.41018,-0.188312,154,86,154,86,186,86,154,133,0.261799,-0.261799,-3.42591e-07,-1.5,0,0,0,3,-5.51621,-0.263528,0,0,0,0,-2.20904,-1.56703,1504
1680,-3.72295e-12,7.38527e-38,-1.58345e-06,-3.85292e-12,7.38479e-38,0,-1.13792e-13,0,0,-9.41018,-0.188312,-1.09915,0,0,0,0,0,-5.41018,-0.188312,154,86,154,86,186,86,154,133,0.261799,-0.261799,-3.30409e-07,-1.5,0,0,0,3,-5.55597,-0.291733,0,0,0,0,-2.20904,-1.56703,1504
1690,-3.72295e-12,7.38527e-38,-1.58345e-06,-3.85292e-12,7.38479e-38,-3.40903e-12,-1.13793e-13,0,0,-9.41018,-0.188312,-1.09915,0,0,0,0,0,-5.41018,-0.188312,154,86,154,86,186,86,154,133,0.261799,-0.261799,-2.6025e-07,-1.5,0,0,0,3,-5.79455,-0.460971,0,0,0,0,-2.20904,-1.56703,1504
1700,-3.72295e-12,7.38527e-38,-1.58345e-06,-3.85292e-12,7.38479e-38,0,-1.13793e-13,0,0,-9.41018,-0.188312,-1.09915,0,0,0,0,0,-5.41018,-0.188312,154,86,154,86,186,86,154,133,0.261799,-0.261799,-2.27481e-07,-1.5,0,0,0,3,-5.93593,-0.561259,0,0,0,0,-2.20904,-1.56703,1504
1710,-3.72295e-12,7.38527e-38,-1.58345e-06,-3.85292e-12,7.38479e-38,-3.40903e-12,-1.13794e-13,0,0,-9.41018,-0.188312,-1.09915,0,0,0,0,0,-5.41018,-0.188312,154,86,154,86,186,86,154,133,0.261799,-0.261799,-2.18945e-07,-1.5,0,0,0,3,-5.9779,-0.591032,0,0,0,0,-2.20904,-1.56703,1504
1720,-3.72295e-12,7.38527e-38,-1.58345e-06,-3.85292e-12,7.38479e-38,0,-1.13794e-13,0,0,-9.41018,-0.188312,-1.09915,0,0,0,0,0,-5.41018,-0.188312,154,86,154,86,186,86,154,133,0.261799,-0.261799,-2.1116e-07,-1.5,0,0,0,3,-6.01766,-0.619237,0,0,0,0,-2.20904,-1.56703,1504
1730,-3.72295e-12,7.38527e-38,-1.58345e-06,-3.85292e-12,7.38479e-38,-3.40903e-12,-1.13795e-13,0,0,-7.89943,-2.01063,-1.77402,0,0,0,0,0,-3.89943,-2.01063,235,107,235,107,269,107,235,164,0.261799,-0.261799,-2.01992e-07,-1.5,0,0,0,3,-3.86361,-2.09562,0,0,0,0,1.62823,-3.86311,1938
1740,-3.72295e-12,7.38527e-38,-1.58345e-06,-3.85292e-12,7.38479e-38,0,-1.13795e-13,0,0,-7.89943,-2.01063,-1.77402,0,0,0,0,0,-3.89943,-2.01063,235,107,235,107,269,107,235,164,0.261799,-0.261799,-1.94413e-07,-1.5,0,0,0,3,-3.83268,-2.16901,0,0,0,0,1.62823,-3.86311,1938
1750,-3.72295e-12,7.38527e-38,-1.58345e-06,-3.85292e-12,7.38479e-38,-3.40903e-12,-1.13796e-13,0,0,-7.89943,-2.01063,-1.77402,0,0,0,0,0,-3.89943,-2.01063,235,107,235,107,269,107,235,164,0.261799,-0.261799,-1.85591e-07,-1.5,0,0,0,3,-3.79523,-2.25786,0,0,0,0,1.62823,-3.86311,1938
1760,-3.72295e-12,7.38527e-38,-1.58345e-06,-3.85292e-12,7.38479e-38,0,-1.13796e-13,0,0,-7.89943,-2.01063,-1.77402,0,0,0,0,0,-3.89943,-2.01063,235,107,235,107,269,107,235,164,0.261799,-0.261799,-1.79723e-07,-1.5,0,0,0,3,-3.76918,-2.05231,0,0,0,0,1.62823,-3.47336,1938
1770,-3.72295e-12,7.38527e-38,-1.58345e-06,-3.85292e-12,7.38479e-38,-3.40903e-12,-1.13797e-13,0,0,-7.89943,-2.01063,-1.77402,0,0,0,0,0,-3.89943,-2.01063,235,107,235,107,269,107,235,164,0.261799,-0.261799,-1.73337e-07,-1.5,0,0,0,3,-3.73987,-2.11483,0,0,0,0,1.62823,-3.47336,1938
1780,-3.72295e-12,7.38527e-38,-1.58345e-06,-3.85292e-12,7.38479e-38,0,-1.13798e-13,0,0,-7.89943,-2.01063,-1.77402,0,0,0,0,0,-3.89943,-2.01063,235,107,235,107,269,107,235,164,0.261799,-0.261799,-1.67173e-07,-1.5,0,0,0,3,-3.71056,-2.17734,0,0,0,0,1.62823,-3.47336,1938
1790,-3.72295e-12,7.38527e-38,-1.58345e-06,-3.85292e-12,7.38479e-38,-3.40903e-12,-1.13798e-13,0,0,-7.89943,-2.01063,-1.77402,0,0,0,0,0,-3.89943,-2.01063,235,107,235,107,269,107,235,164,0.261799,-0.261799,-1.609e-07,-1.5,0,0,0,3,-3.67963,-2.24334,0,0,0,0,1.62823,-3.47336,1938
1800,-3.72295e-12,7.38527e-38,-1.58345e-06,-3.85292e-12,7.38479e-38,0,-1.13799e-13,0,0,-3.95445,-0.724243,-1.33978,0,0,0,0,0,-3.95445,-0.724243,183,50,183,50,271,50,183,155,0.261799,-0.261799,-1.54547e-07,-1.5,0,0,0,3,-3.77207,-2.3128,0,0,0,0,1.46396,-3.47336,9240
1810,-3.72295e-12,7.38527e-38,-1.58345e-06,-3.85292e-12,7.38479e-38,-3.40903e-12,-1.13799e-13,0,0,-3.95445,-0.724243,-1.33978,0,0,0,0,0,-3.95445,-0.724243,183,50,183,50,271,50,183,155,0.261799,-0.261799,-1.46927e-07,-1.5,0,0,0,3,-3.73547,-2.39963,0,0,0,0,1.46396,-3.47336,9240
1820,-3.72295e-12,7.38527e-38,-1.58345e-06,-3.85292e-12,7.38479e-38,0,-1.138e-13,0,0,-3.95445,-0.724243,-1.33978,0,0,0,0,0,-3.95445,-0.724243,183,50,183,50,271,50,183,155,0.261799,-0.261799,-1.41991e-07,-1.5,0,0,0,3,-3.71059,-2.45868,0,0,0,0,1.46396,-3.47336,9240
1830,-3.72295e-12,7.38527e-38,-1.58345e-06,-3.85292e-12,7.38479e-38,-3.40903e-12,-1.13805e-13,0,0,-8.9368,-2.27384,-1.63724,0,0,0,0,0,-4.9368,-2.27384,235,105,235,105,269,105,235,154,0.261799,-0.261799,-1.35842e-07,-1.5,0,0,0,3,-3.67721,-2.5419,0,0,0,0,1.47996,-3.56602,1666
1840,-3.72295e-12,7.38527e-38,-1.58345e-06,-3.85292e-12,7.38479e-38,0,-1.138e-13,0,0,-8.9368,-2.27384,-1.63724,0,0,0,0,0,-4.9368,-2.27384,235,105,235,105,269,105,235,154,0.261799,-0.261799,-1.31008e-07,-1.5,0,0,0,3,-3.65057,-2.60609,0,0,0,0,1.47996,-3.56602,1666
1850,-3.72295e-12,7.38527e-38,-1.58345e-06,-3.85292e-12,7.38479e-38,-3.40903e-12,-1.13801e-13,0,0,-8.9368,-2.27384,-1.63724,0,0,0,0,0,-4.9368,-2.27384,235,105,235,105,269,105,235,154,0.261799,-0.261799,-1.25835e-07,-1.5,0,0,0,3,-3.62097,-2.67741,0,0,0,0,1.47996,-3.56602,1666
1860,-3.72295e-12,7.38527e-38,-1.58345e-06,-3.85292e-12,7.38479e-38,0,-1.13801e-13,0,0,-8.9368,-2.27384,-1.63724,0,0,0,0,0,-4.9368,-2.27384,235,105,235,105,269,105,235,154,0.261799,-0.261799,-1.21607e-07,-1.5,0,0,0,3,-3.59581,-2.73803,0,0,0,0,1.47996,-3.56602,1666
1870,-3.72295e-12,7.38527e-38,-1.58345e-06,-3.85292e-12,7.38479e-38,-3.40903e-12,-1.13802e-13,0,0,-8.9368,-2.27384,-1.63724,0,0,0,0,0,-4.9368,-2.27384,235,105,235,105,269,105,235,154,0.261799,-0.261799,-1.16332e-07,-1.5,0,0,0,3,-3.56325,-2.81648,0,0,0,0,1.47996,-3.56602,1666
1880,-3.72295e-12,7.38527e-38,-1.58345e-06,-3.85292e-12,7.38479e-38,0,-1.13802e-13,0,0,-8.9368,-2.27384,-1.63724,0,0,0,0,0,-4.9368,-2.27384,235,105,235,105,269,105,235,154,0.261799,-0.261799,-1.12422e-07,-1.5,0,0,0,3,-3.53809,-2.8771,0,0,0,0,1.47996,-3.56602,1666
1890,-3.72295e-12,7.38527e-38,-1.58345e-06,-3.85292e-12,7.38479e-38,-3.40903e-12,-1.13803e-13,0,0,-8.9368,-2.27384,-1.63724,0,0,0,0,0,-4.9368,-2.27384,235,105,235,105,269,105,235,154,0.261799,-0.261799,-1.08421e-07,-1.5,0,0,0,3,-3.51146,-2.94128,0,0,0,0,1.47996,-3.56602,1666
1900,-3.72295e-12,7.38527e-38,-1.58345e-06,-3.85292e-12,7.38479e-38,0,-1.13803e-13,0,0,-8.9368,-2.27384,-1.63724,0,0,0,0,0,-4.9368,-2.27384,235,105,235,105,269,105,235,154,0.261799,-0.261799,-1.04566e-07,-1.5,0,0,0,3,-3.48482,-3.00547,0,0,0,0,1.47996,-3.56602,1666
1910,-3.72295e-12,7.38527e-38,-1.58345e-06,-3.85292e-12,7.38479e-38,-3.40903e-12,-1.13804e-13,0,0,-8.9368,-2.27384,-1.63724,0,0,0,0,0,-4.9368,-2.27384,235,105,235,105,269,105,235,154,0.261799,-0.261799,-1.01258e-07,-1.5,0,0,0,3,-3.46114,-3.06252,0,0,0,0,1.47996,-3.56602,1666
1920,-3.72295e-12,7.38527e-38,-1.58345e-06,-3.85292e-12,7.38479e-38,0,-1.13805e-13,0,0,-8.9368,-2.27384,-1.63724,0,0,0,0,0,-4.9368,-2.27384,235,105,235,105,269,105,235,154,0.261799,-0.261799,-9.76577e-08,-1.5,0,0,0,3,-3.4345,-3.12671,0,0,0,0,1.47996,-3.56602,1666
1930,-3.72295e-12,7.38527e-38,-1.58345e-06,-3.85292e-12,7.38479e-38,-3.40903e-12,-1.13806e-13,0,0,-8.9368,-2.27384,-1.63724,0,0,0,0,0,-4.9368,-2.27384,235,105,235,105,269,105,235,154,0.261799,-0.261799,-9.43769e-08,-1.5,0,0,0,3,-3.40934,-3.18733,0,0,0,0,1.47996,-3.56602,1666
1940,-3.72295e-12,7.38527e-38,-1.58345e-06,-3.85292e-12,7.38479e-38,0,-1.13812e-13,0,0,-7.74966,-0.254948,-1.11926,0,0,0,0,0,-3.74966,-0.254948,162,76,162,76,187,76,162,136,0.261799,-0.261799,-9.04611e-08,-1.5,0,0,0,3,-3.62987,-3.26221,0,0,0,0,1.17915,-3.56602,1500
1950,-3.72295e-12,7.38527e-38,-1.58345e-06,-3.85292e-12,7.38479e-38,-3.40903e-12,-1.13806e-13,0,0,-7.74966,-0.254948,-1.11926,0,0,0,0,0,-3.74966,-0.254948,162,76,162,76,187,76,162,136,0.261799,-0.261799,-8.68891e-08,-1.5,0,0,0,3,-3.60629,-3.33353,0,0,0,0,1.17915,-3.56602,1500
1960,-3.72295e-12,7.38527e-38,-1.58345e-06,-3.85292e-12,7.38479e-38,0,-1.13807e-13,0,0,-7.74966,-0.254948,-1.11926,0,0,0,0,0,-3.74966,-0.254948,162,76,162,76,187,76,162,136,0.261799,-0.261799,-8.36288e-08,-1.5,0,0,0,3,-3.58388,-3.40128,0,0,0,0,1.17915,-3.56602,1500
1970,-3.72295e-12,7.38527e-38,-1.58345e-06,-3.85292e-12,7.38479e-38,-3.40903e-12,-1.13808e-13,0,0,-7.74966,-0.254948,-1.11926,0,0,0,0,0,-3.74966,-0.254948,162,76,162,76,187,76,162,136,0.261799,-0.261799,-8.08193e-08,-1.5,0,0,0,3,-3.56384,-3.4619,0,0,0,0,1.17915,-3.56602,1500
1980,-3.72295e-12,7.38527e-38,-1.58345e-06,-3.85292e-12,7.38479e-38,0,-1.13808e-13,0,0,-7.74966,-0.254948,-1.11926,0,0,0,0,0,-3.74966,-0.254948,162,76,162,76,187,76,162,136,0.261799,-0.261799,-7.76252e-08,-1.5,0,0,0,3,-3.53908,-3.53679,0,0,0,0,1.17915,-3.56602,1500
1990,-3.72295e-12,7.38527e-38,-1.58345e-06,-3.85292e-12,7.38479e-38,-3.40903e-12,-1.13809e-13,0,0,-4.18385,-0.712074,-1.23209,0,0,0,0,0,-4.18385,-0.712074,180,46,180,46,265,46,180,144,0.261799,-0.261799,-6.03185e-08,-1.5,0,0,0,3,-3.45804,-3.87597,0,0,0,0,1.16797,-3.48045,8330
2000,-3.72295e-12,7.38527e-38,-1.58345e-06,-3.85292e-12,7.38479e-38,0,-1.13809e-13,0,0,-4.18385,-0.712074,-1.23209,0,0,0,0,0,-4.18385,-0.712074,180,46,180,46,265,46,180,144,0.261799,-0.261799,-5.24866e-08,-1.5,0,0,0,3,-3.38095,-4.10568,0,0,0,0,1.16797,-3.48045,8330
2010,-3.72295e-12,7.38527e-38,-1.58345e-06,-3.85292e-12,7.38479e-38,-3.40903e-12,-1.1381e-13,0,0,-4.18385,-0.712074,-1.23209,0,0,0,0,0,-4.18385,-0.712074,180,46,180,46,265,46,180,144,0.261799,-0.261799,-5.04141e-08,-1.5,0,0,0,3,-3.3576,-4.17528,0,0,0,0,1.16797,-3.48045,8330
2020,-3.72295e-12,7.38527e-38,-1.58345e-06,-3.85292e-12,7.38479e-38,0,-1.1381e-13,0,0,-4.18385,-0.712074,-1.23209,0,0,0,0,0,-4.18385,-0.712074,180,46,180,46,265,46,180,144,0.261799,-0.261799,-4.83224e-08,-1.5,0,0,0,3,-3.33307,-4.24837,0,0,0,0,1.16797,-3.48045,8330
2030,-3.72295e-12,7.38527e-38,-1.58345e-06,-3.85292e-12,7.38479e-38,-3.40903e-12,-1.13811e-13,0,0,-4.18385,-0.712074,-1.23209,0,0,0,0,0,-4.18385,-0.712074,180,46,180,46,265,46,180,144,0.261799,-0.261799,-4.66979e-08,-1.5,0,0,0,3,-3.31321,-4.30754,0,0,0,0,1.16797,-3.48045,8330
2040,-3.72295e-12,7.38527e-38,-1.58345e-06,-3.85292e-12,7.38479e-38,0,-1.13812e-13,0,0,-4.18385,-0.712074,-1.23209,0,0,0,0,0,-4.18385,-0.712074,180,46,180,46,265,46,180,144,0.261799,-0.261799,-4.50361e-08,-1.5,0,0,0,3,-3.29219,-4.37018,0,0,0,0,1.16797,-3.48045,8330
2050,-3.72295e-12,7.38527e-38,-1.58345e-06,-3.85292e-12,7.38479e-38,-3.40903e-12,-1.13813e-13,0,0,-4.18385,-0.712074,-1.23209,0,0,0,0,0,-4.18385,-0.712074,180,46,180,46,265,46,180,144,0.261799,-0.261799,-4.34347e-08,-1.5,0,0,0,3,-3.27117,-4.43283,0,0,0,0,1.16797,-3.48045,8330
2060,-3.72295e-12,7.38527e-38,-1.58345e-06,-3.85292e-12,7.38479e-38,0,-1.13813e-13,0,0,-4.18385,-0.712074,-1.23209,0,0,0,0,0,-4.18385,-0.712074,180,46,180,46,265,46,180,144,0.261799,-0.261799,-4.14615e-08,-1.5,0,0,0,3,-3.24431,-4.51288,0,0,0,0,1.16797,-3.48045,8330
2070,-3.72295e-12,7.38527e-38,-1.58345e-06,-3.85292e-12,7.38479e-38,-3.40903e-12,-1.13814e-13,0,0,-4.18385,-0.712074,-1.23209,0,0,0,0,0,-4.18385,-0.712074,180,46,180,46,265,46,180,144,0.261799,-0.261799,-4.02309e-08,-1.5,0,0,0,3,-3.22679,-4.56508,0,0,0,0,1.16797,-3.48045,8330
2080,-3.72295e-12,7.38527e-38,-1.58345e-06,-3.85292e-12,7.38479e-38,0,-1.13814e-13,0,0,-4.18385,-0.712074,-1.23209,0,0,0,0,0,-4.18385,-0.712074,180,46,180,46,265,46,180,144,0.261799,-0.261799,-3.88003e-08,-1.5,0,0,0,3,-3.20577,-4.62773,0,0,0,0,1.16797,-3.48045,8330
2090,-3.72295e-12,7.38527e-38,-1.58345e-06,-3.85292e-12,7.38479e-38,-3.40903e-12,-1.13815e-13,0,0,-4.18385,-0.712074,-1.23209,0,0,0,0,0,-4.18385,-0.712074,180,46,180,46,265,46,180,144,0.261799,-0.261799,-3.7192e-08,-1.5,0,0,0,3,-3.18124,-4.70081,0,0,0,0,1.16797,-3.48045,8330
2100,-3.72295e-12,7.38527e-38,-1.58345e-06,-3.85292e-12,7.38479e-38,0,-1.13815e-13,0,0,-4.18385,-0.712074,-1.23209,0,0,0,0,0,-4.18385,-0.712074,180,46,180,46,265,46,180,144,0.261799,-0.261799,-3.59426e-08,-1.5,0,0,0,3,-3.16138,-4.75998,0,0,0,0,1.16797,-3.48045,8330
2110,-3.72295e-12,7.38527e-38,-1.58345e-06,-3.85292e-12,7.38479e-38,-3.40903e-12,-1.13816e-13,0,0,-4.18385,-0.712074,-1.23209,0,0,0,0,0,-4.18385,-0.712074,180,46,180,46,265,46,180,144,0.261799,-0.261799,-3.46635e-08,-1.5,0,0,0,3,-3.14036,-4.82263,0,0,0,0,1.16797,-3.48045,8330
2120,-3.72295e-12,7.38527e-38,-1.58345e-06,-3.85292e-12,7.38479e-38,0,-1.13816e-13,0,0,-4.18385,-0.712074,-1.23209,0,0,0,0,0,-4.18385,-0.712074,180,46,180,46,265,46,180,144,0.261799,-0.261799,-3.32267e-08,-1.5,0,0,0,3,-3.11583,-4.89571,0,0,0,0,1.16797,-3.48045,8330
2130,-3.72295e-12,7.38527e-38,-1.58345e-06,-3.85292e-12,7.38479e-38,-3.40903e-12,-1.13817e-13,0,0,-4.18385,-0.712074,-1.23209,0,0,0,0,0,-4.18385,-0.712074,180,46,180,46,265,46,180,144,0.261799,-0.261799,-3.19789e-08,-1.5,0,0,0,3,-3.09364,-4.96184,0,0,0,0,1.16797,-3.48045,8330
2140,-3.72295e-12,7.38527e-38,-1.58345e-06,-3.85292e-12,7.38479e-38,0,-1.13817e-13,0,0,-4.18385,-0.712074,-1.23209,0,0,0,0,0,-4.18385,-0.712074,180,46,180,46,265,46,180,144,0.261799,-0.261799,-3.09046e-08,-1.5,0,0,0,3,-3.07379,-5.02101,0,0,0,0,1.16797,-3.48045,8330
2150,-3.72295e-12,7.38527e-38,-1.58345e-06,-3.85292e-12,7.38479e-38,-3.40903e-12,-1.13818e-13,0,0,-4.18385,-0.712074,-1.23209,0,0,0,0,0,-4.18385,-0.712074,180,46,180,46,265,46,180,144,0.261799,-0.261799,-2.96235e-08,-1.5,0,0,0,3,-3.04926,-5.09409,0,0,0,0,1.16797,-3.48045,8330
2160,-3.72295e-12,7.38527e-38,-1.58345e-06,-3.85292e-12,7.38479e-38,0,-1.13819e-13,0,0,-4.18385,-0.712074,-1.23209,0,0,0,0,0,-4.18385,-0.712074,180,46,180,46,265,46,180,144,0.261799,-0.261799,-2.86276e-08,-1.5,0,0,0,3,-3.02941,-5.15326,0,0,0,0,1.16797,-3.48045,8330
2170,-3.72295e-12,7.38527e-38,-1.58345e-06,-3.85292e-12,7.38479e-38,-3.40903e-12,-1.13819e-13,0,0,-4.18385,-0.712074,-1.23209,0,0,0,0,0,-4.18385,-0.712074,180,46,180,46,265,46,180,144,0.261799,-0.261799,-2.76097e-08,-1.5,0,0,0,3,-3.00722,-5.21938,0,0,0,0,1.16797,-3.48045,8330
2180,-3.72295e-12,7.38527e-38,-1.58345e-06,-3.85292e-12,7.38479e-38,0,-1.1382e-13,0,0,-4.18385,-0.712074,-1.23209,0,0,0,0,0,-4.18385,-0.712074,180,46,180,46,265,46,180,144,0.261799,-0.261799,-2.66822e-08,-1.5,0,0,0,3,-2.98736,-5.27855,0,0,0,0,1.16797,-3.48045,8330
2190,-3.72295e-12,7.38527e-38,-1.58345e-06,-3.85292e-12,7.38479e-38,-3.40903e-12,-1.1382e-13,0,0,-4.18385,-0.712074,-1.23209,0,0,0,0,0,-4.18385,-0.712074,180,46,180,46,265,46,180,144,0.261799,-0.261799,-2.56276e-08,-1.5,0,0,0,3,-2.964,-5.34816,0,0,0,0,1.16797,-3.48045,8330
2200,-3.72295e-12,7.38527e-38,-1.58345e-06,-3.85292e-12,7.38479e-38,0,-1.13821e-13,0,0,-4.18385,-0.712074,-1.23209,0,0,0,0,0,-4.18385,-0.712074,180,46,180,46,265,46,180,144,0.261799,-0.261799,-2.47661e-08,-1.5,0,0,0,3,-2.94415,-5.40732,0,0,0,0,1.16797,-3.48045,8330
2210,-3.72295e-12,7.38527e-38,-1.58345e-06,-3.85292e-12,7.38479e-38,-3.40903e-12,-1.13821e-13,0,0,-4.18385,-0.712074,-1.23209,0,0,0,0,0,-4.18385,-0.712074,180,46,180,46,265,46,180,144,0.261799,-0.261799,-2.37872e-08,-1.5,0,0,0,3,-2.92079,-5.47693,0,0,0,0,1.16797,-3.48045,8330
2220,-3.72295e-12,7.38527e-38,-1.58345e-06,-3.85292e-12,7.38479e-38,0,-1.13822e-13,0,0,-4.18385,-0.712074,-1.23209,0,0,0,0,0,-4.18385,-0.712074,180,46,180,46,265,46,180,144,0.261799,-0.261799,-2.31283e-08,-1.5,0,0,0,3,-2.90444,-5.52565,0,0,0,0,1.16797,-3.48045,8330
2230,-3.72295e-12,7.38527e-38,-1.58345e-06,-3.85292e-12,7.38479e-38,-3.40903e-12,-1.13822e-13,0,0,-4.18385,-0.712074,-1.23209,0,0,0,0,0,-4.18385,-0.712074,180,46,180,46,265,46,180,144,0.261799,-0.261799,-2.23513e-08,-1.5,0,0,0,3,-2.88458,-5.58482,0,0,0,0,1.16797,-3.48045,8330
2240,-3.72295e-12,7.38527e-38,-1.58345e-06,-3.85292e-12,7.38479e-38,0,-1.13823e-13,0,0,-4.18385,-0.712074,-1.23209,-2.86242,-5.65086,1.16272,-3.46481,0,-4.18385,-0.712074,180,46,180,46,265,46,180,144,0.261799,-0.261799,-2.15126e-08,-1.5,0,0,0,3,-2.86242,-5.65086,0,0,0,0,1.16272,-3.46481,8330
2250,-3.72295e-12,7.38527e-38,-1.58345e-06,-3.85292e-12,7.38479e-38,-3.40903e-12,-1.13823e-13,0,0,-4.18385,-0.712074,-1.23209,-2.84276,-5.70944,1.15287,-3.43545,0,-4.18385,-0.712074,180,46,180,46,265,46,180,144,0.261799,-0.261799,-2.07899e-08,-1.5,0,0,0,3,-2.84276,-5.70944,0,0,0,0,1.15287,-3.43545,8330
2260,-3.72295e-12,7.38527e-38,-1.58345e-06,-3.85292e-12,7.38479e-38,0,-1.13824e-13,0,0,-4.18385,-0.712074,-1.23209,-2.81873,-5.78106,1.1408,-3.3995,0,-4.18385,-0.712074,180,46,180,46,265,46,180,144,0.261799,-0.261799,-1.99282e-08,-1.5,0,0,0,3,-2.81873,-5.78106,0,0,0,0,1.1408,-3.3995,8330
2270,-3.72295e-12,7.38527e-38,-1.58345e-06,-3.85292e-12,7.38479e-38,-3.40903e-12,-1.13825e-13,0,0,-4.18385,-0.712074,-1.23209,-2.79944,-5.83854,1.13114,-3.37069,0,-4.18385,-0.712074,180,46,180,46,265,46,180,144,0.261799,-0.261799,-1.92587e-08,-1.5,0,0,0,3,-2.79944,-5.83854,0,0,0,0,1.13114,-3.37069,8330
2280,-3.72295e-12,7.38527e-38,-1.58345e-06,-3.85292e-12,7.38479e-38,0,-1.13825e-13,0,0,-4.18385,-0.712074,-1.23209,-2.7792,-5.89884,1.12099,-3.34044,0,-4.18385,-0.712074,180,46,180,46,265,46,180,144,0.261799,-0.261799,-1.85734e-08,-1.5,0,0,0,3,-2.7792,-5.89884,0,0,0,0,1.12099,-3.34044,8330
2290,-3.72295e-12,7.38527e-38,-1.58345e-06,-3.85292e-12,7.38479e-38,-3.40903e-12,-1.13826e-13,0,0,-4.18385,-0.712074,-1.23209,-2.66925,-6.2265,1.06347,-3.16906,0,-4.18385,-0.712074,180,46,180,46,265,46,180,144,0.261799,-0.261799,-1.47754e-08,-1.5,0,0,0,3,-2.66925,-6.2265,0,0,0,0,1.06347,-3.16906,8330
2300,-3.72295e-12,7.38527e-38,-1.58345e-06,-3.85292e-12,7.38479e-38,0,-1.13826e-13,0,0,-4.18385,-0.712074,-1.23209,-2.58722,-6.47094,1.02111,-3.04283,0,-4.18385,-0.712074,180,46,180,46,265,46,180,144,0.261799,-0.261799,-1.24797e-08,-1.5,0,0,0,3,-2.58722,-6.47094,0,0,0,0,1.02111,-3.04283,8330
2310,-3.72295e-12,7.38527e-38,-1.58345e-06,-3.85292e-12,7.38479e-38,-3.40903e-12,-1.13827e-13,0,0,-4.18385,-0.712074,-1.23209,-2.56895,-6.52539,1.01195,-3.01553,0,-4.18385,-0.712074,180,46,180,46,265,46,180,144,0.261799,-0.261799,-1.20359e-08,-1.5,0,0,0,3,-2.56895,-6.52539,0,0,0,0,1.01195,-3.01553,8330
2320,-3.72295e-12,7.38527e-38,-1.58345e-06,-3.85292e-12,7.38479e-38,0,-1.13827e-13,0,0,-4.18385,-0.712074,-1.23209,-2.55184,-6.57637,1.00338,-2.98997,0,-4.18385,-0.712074,180,46,180,46,265,46,180,144,0.261799,-0.261799,-1.16316e-08,-1.5,0,0,0,3,-2.55184,-6.57637,0,0,0,0,1.00338,-2.98997,8330
2330,-3.72295e-12,7.38527e-38,-1.58345e-06,-3.85292e-12,7.38479e-38,-3.40903e-12,-1.13828e-13,0,0,-4.18385,-0.712074,-1.23209,-2.53092,-6.63871,0.992875,-2.95868,0,-4.18385,-0.712074,180,46,180,46,265,46,180,144,0.261799,-0.261799,-1.11719e-08,-1.5,0,0,0,3,-2.53092,-6.63871,0,0,0,0,0.992875,-2.95868,8330
2340,-3.72295e-12,7.38527e-38,-1.58345e-06,-3.85292e-12,7.38479e-38,0,-1.13828e-13,0,0,-4.18385,-0.712074,-1.23209,-2.51413,-6.68873,0.984461,-2.93361,0,-4.18385,-0.712074,180,46,180,46,265,46,180,144,0.261799,-0.261799,-1.07965e-08,-1.5,0,0,0,3,-2.51413,-6.68873,0,0,0,0,0.984461,-2.93361,8330
2350,-3.72295e-12,7.38527e-38,-1.58345e-06,-3.85292e-12,7.38479e-38,-3.40903e-12,-1.13829e-13,0,0,-4.18385,-0.712074,-1.23209,-2.49264,-6.75278,0.973668,-2.90144,0,-4.18385,-0.712074,180,46,180,46,265,46,180,144,0.261799,-0.261799,-1.03273e-08,-1.5,0,0,0,3,-2.49264,-6.75278,0,0,0,0,0.973668,-2.90144,8330
2360,-3.72295e-12,7.38527e-38,-1.58345e-06,-3.85292e-12,7.38479e-38,0,-1.13829e-13,0,0,-4.18385,-0.712074,-1.23209,-2.4733,-6.8104,0.96396,-2.87252,0,-4.18385,-0.712074,180,46,180,46,265,46,180,144,0.261799,-0.261799,-9.89926e-09,-1.5,0,0,0,3,-2.4733,-6.8104,0,0,0,0,0.96396,-2.87252,8330
2370,-3.72295e-12,7.38527e-38,-1.58345e-06,-3.85292e-12,7.38479e-38,-3.40903e-12,-1.1383e-13,0,0,-4.18385,-0.712074,-1.23209,-2.45605,-6.8618,0.955311,-2.84674,0,-4.18385,-0.712074,180,46,180,46,265,46,180,144,0.261799,-0.261799,-9.5667e-09,-1.5,0,0,0,3,-2.45605,-6.8618,0,0,0,0,0.955311,-2.84674,8330
2380,-3.72295e-12,7.38527e-38,-1.58345e-06,-3.85292e-12,7.38479e-38,0,-1.1383e-13,0,0,-4.18385,-0.712074,-1.23209,-2.43802,-6.91555,0.946264,-2.81978,0,-4.18385,-0.712074,180,46,180,46,265,46,180,144,0.261799,-0.261799,-9.20773e-09,-1.5,0,0,0,3,-2.43802,-6.91555,0,0,0,0,0.946264,-2.81978,8330
2390,-3.72295e-12,7.38527e-38,-1.58345e-06,-3.85292e-12,7.38479e-38,-3.40903e-12,-1.13831e-13,0,0,-4.18385,-0.712074,-1.23209,-2.42296,-6.96043,0.938715,-2.79729,0,-4.18385,-0.712074,180,46,180,46,265,46,180,144,0.261799,-0.261799,-8.91631e-09,-1.5,0,0,0,3,-2.42296,-6.96043,0,0,0,0,0.938715,-2.79729,8330
2400,-3.72295e-12,7.38527e-38,-1.58345e-06,-3.85292e-12,7.38479e-38,0,-1.13832e-13,0,0,-4.18385,-0.712074,-1.23209,-2.40062,-7.02699,0.927489,-2.76384,0,-4.18385,-0.712074,180,46,180,46,265,46,180,144,0.261799,-0.261799,-8.49417e-09,-1.5,0,0,0,3,-2.40062,-7.02699,0,0,0,0,0.927489,-2.76384,8330
2410,-3.72295e-12,7.38527e-38,-1.58345e-06,-3.85292e-12,7.38479e-38,-3.40903e-12,-1.13832e-13,0,0,-4.18385,-0.712074,-1.23209,-2.38494,-7.07371,0.919629,-2.74041,0,-4.18385,-0.712074,180,46,180,46,265,46,180,144,0.261799,-0.261799,-8.20882e-09,-1.5,0,0,0,3,-2.38494,-7.07371,0,0,0,0,0.919629,-2.74041,8330
2420,-3.72295e-12,7.38527e-38,-1.58345e-06,-3.85292e-12,7.38479e-38,0,-1.13833e-13,0,0,-3.62017,-0.559593,-1.07704,-2.36848,-7.12275,0.911378,-2.71583,0,-3.62017,-0.559593,169,17,169,17,265,17,169,132,0.261799,-0.261799,-7.91692e-09,-1.5,0,0,0,3,-2.36848,-7.12275,0,0,0,0,0.911378,-2.71583,11040
2430,-3.72295e-12,7.38527e-38,-1.58345e-06,-3.85292e-12,7.38479e-38,-3.40903e-12,-1.13833e-13,0,0,-3.62017,-0.559593,-1.07704,-2.34948,-7.17937,0.90184,-2.6874,0,-3.62017,-0.559593,169,17,169,17,265,17,169,132,0.261799,-0.261799,-7.58876e-09,-1.5,0,0,0,3,-2.34948,-7.17937,0,0,0,0,0.90184,-2.6874,11040
2440,-3.72295e-12,7.38527e-38,-1.58345e-06,-3.85292e-12,7.38479e-38,0,-1.13834e-13,0,0,-3.62017,-0.559593,-1.07704,-2.33423,-7.22481,0.894197,-2.66463,0,-3.62017,-0.559593,169,17,169,17,265,17,169,132,0.261799,-0.261799,-7.33382e-09,-1.5,0,0,0,3,-2.33423,-7.22481,0,0,0,0,0.894197,-2.66463,11040
2450,-3.72295e-12,7.38527e-38,-1.58345e-06,-3.85292e-12,7.38479e-38,-3.40903e-12,-1.13834e-13,0,0,-3.62017,-0.559593,-1.07704,-2.31559,-7.28036,0.884839,-2.63674,0,-3.62017,-0.559593,169,17,169,17,265,17,169,132,0.261799,-0.261799,-7.02982e-09,-1.5,0,0,0,3,-2.31559,-7.28036,0,0,0,0,0.884839,-2.63674,11040
2460,-3.72295e-12,7.38527e-38,-1.58345e-06,-3.85292e-12,7.38479e-38,0,-1.13835e-13,0,0,-3.62017,-0.559593,-1.07704,-2.30063,-7.32494,0.87734,-2.6144,0,-3.62017,-0.559593,169,17,169,17,265,17,169,132,0.261799,-0.261799,-6.79366e-09,-1.5,0,0,0,3,-2.30063,-7.32494,0,0,0,0,0.87734,-2.6144,11040
2470,-3.72295e-12,7.38527e-38,-1.58345e-06,-3.85292e-12,7.38479e-38,-3.40903e-12,-1.13835e-13,0,0,-3.62017,-0.559593,-1.07704,-2.28234,-7.37943,0.868156,-2.58703,0,-3.62017,-0.559593,169,17,169,17,265,17,169,132,0.261799,-0.261799,-6.51179e-09,-1.5,0,0,0,3,-2.28234,-7.37943,0,0,0,0,0.868156,-2.58703,11040
2480,-3.72295e-12,7.38527e-38,-1.58345e-06,-3.85292e-12,7.38479e-38,0,-1.13836e-13,0,0,-3.62017,-0.559593,-1.07704,-2.26681,-7.42571,0.860365,-2.56381,0,-3.62017,-0.559593,169,17,169,17,265,17,169,132,0.261799,-0.261799,-6.28006e-09,-1.5,0,0,0,3,-2.26681,-7.42571,0,0,0,0,0.860365,-2.56381,11040
2490,-3.72295e-12,7.38527e-38,-1.58345e-06,-3.85292e-12,7.38479e-38,-3.40903e-12,-1.13836e-13,0,0,-3.62017,-0.559593,-1.07704,-2.25482,-7.46145,0.854359,-2.54591,0,-3.62017,-0.559593,169,17,169,17,265,17,169,132,0.261799,-0.261799,-6.10609e-09,-1.5,0,0,0,3,-2.25482,-7.46145,0,0,0,0,0.854359,-2.54591,11040
2500,-3.72295e-12,7.38527e-38,-1.58345e-06,-3.85292e-12,7.38479e-38,0,-1.13837e-13,0,0,-3.62017,-0.559593,-1.07704,-2.23869,-7.50953,0.84627,-2.52181,0,-3.62017,-0.559593,169,17,169,17,265,17,169,132,0.261799,-0.261799,-5.87714e-09,-1.5,0,0,0,3,-2.23869,-7.50953,0,0,0,0,0.84627,-2.52181,11040
2510,-3.72295e-12,7.38527e-38,-1.58345e-06,-3.85292e-12,7.38479e-38,-3.40903e-12,-1.13838e-13,0,0,-3.62017,-0.559593,-1.07704,-2.22354,-7.55465,0.838677,-2.49918,0,-3.62017,-0.559593,169,17,169,17,265,17,169,132,0.261799,-0.261799,-5.66816e-09,-1.5,0,0,0,3,-2.22354,-7.55465,0,0,0,0,0.838677,-2.49918,11040
2520,-3.72295e-12,7.38527e-38,-1.58345e-06,-3.85292e-12,7.38479e-38,0,-1.13838e-13,0,0,-3.62017,-0.559593,-1.07704,-2.20854,-7.59937,0.831152,-2.47676,0,-3.62017,-0.559593,169,17,169,17,265,17,169,132,0.261799,-0.261799,-5.46661e-09,-1.5,0,0,0,3,-2.20854,-7.59937,0,0,0,0,0.831152,-2.47676,11040
2530,-3.72295e-12,7.38527e-38,-1.58345e-06,-3.85292e-12,7.38479e-38,-3.40903e-12,-1.13839e-13,0,0,-3.62017,-0.559593,-1.07704,-2.19449,-7.64125,0.824108,-2.45577,0,-3.62017,-0.559593,169,17,169,17,265,17,169,132,0.261799,-0.261799,-5.28296e-09,-1.5,0,0,0,3,-2.19449,-7.64125,0,0,0,0,0.824108,-2.45577,11040
2540,-3.72295e-12,7.38527e-38,-1.58345e-06,-3.85292e-12,7.38479e-38,0,-1.13839e-13,0,0,-3.62017,-0.559593,-1.07704,-2.1773,-7.69245,0.815484,-2.43007,0,-3.62017,-0.559593,169,17,169,17,265,17,169,132,0.261799,-0.261799,-5.06397e-09,-1.5,0,0,0,3,-2.1773,-7.69245,0,0,0,0,0.815484,-2.43007,11040
2550,-3.72295e-12,7.38527e-38,-1.58345e-06,-3.85292e-12,7.38479e-38,-3.40903e-12,-1.1384e-13,0,0,-3.62017,-0.559593,-1.07704,-2.16111,-7.74071,0.807353,-2.40584,0,-3.62017,-0.559593,169,17,169,17,265,17,169,132,0.261799,-0.261799,-4.86383e-09,-1.5,0,0,0,3,-2.16111,-7.74071,0,0,0,0,0.807353,-2.40584,11040
