timestamp,A_x,A_y,A_z,P,Q,R,Phi,Theta,Psi,poseX,poseY,poseZ,state_X,state_Y,state_Z,state_VzB,state_Bx,state_By,state_Bz,p1_x,p1_y,p2_x,p2_y,p3_x,p3_y,p4_x,p4_y,roll,pitch,yaw,alt,targetHeading,highLevelState,lowLevelState,gateNumber,filtered_x,filtered_y
10,0,0,0,0,0,0,0,0,0,0,0,0,0,0,0,0,0,0,0,0,0,0,0,0,0,0,0,0,-0.261799,0.00779127,-1.5,3.94113e+12,0,0,3,0,0
20,0,0,0,0,0,0,0,0,0,0,0,0,0,0,0,0,0,0,0,0,0,0,0,0,0,0,0,0,-0.261799,0.00756001,-1.5,3.94113e+12,0,0,3,0,0
30,-3.11384e-12,0,-1.52199e-06,-3.18057e-12,0,-3.62841e-12,-1.06589e-13,0,0,0,0,0,0,0,0,0,0,0,0,0,0,0,0,0,0,0,0,0,-0.261799,0.00181184,-1.5,3.94113e+12,0,0,3,0,0
40,-3.11384e-12,0,-1.52199e-06,-3.18057e-12,0,0,-1.0659e-13,0,0,0,0,0,0,0,0,0,0,0,0,0,0,0,0,0,0,0,0,0,-0.261799,0.00175806,-1.5,3.94113e+12,0,0,3,0,0
50,-3.11384e-12,0,-1.52199e-06,-3.18057e-12,0,-3.62841e-12,-1.0659e-13,0,0,0,0,0,0,0,0,0,0,0,0,0,0,0,0,0,0,0,0,0,-0.261799,0.00168864,-1.5,3.94113e+12,0,0,3,0,0
60,-3.11384e-12,0,-1.52199e-06,-3.18057e-12,0,0,-1.0659e-13,0,0,0,0,0,0,0,0,0,0,0,0,0,0,0,0,0,0,0,0,0,-0.261799,0.00162196,-1.5,3.94113e+12,0,0,3,0,0
70,-3.11384e-12,0,-1.52199e-06,-3.18057e-12,0,-3.62841e-12,-1.0659e-13,0,0,0,0,0,0,0,0,0,0,0,0,0,0,0,0,0,0,0,0,0,-0.261799,0.00155466,-1.5,3.94113e+12,0,0,3,0,0
80,-3.11384e-12,0,-1.52199e-06,-3.18057e-12,0,0,-1.06591e-13,0,0,0,0,0,0,0,0,0,0,0,0,0,0,0,0,0,0,0,0,0,-0.261799,0.00149628,-1.5,3.94113e+12,0,0,3,0,0
90,-3.11384e-12,0,-1.52199e-06,-3.18057e-12,0,-3.62841e-12,-1.06591e-13,0,0,0,0,0,0,0,0,0,0,0,0,0,0,0,0,0,0,0,0,0,-0.261799,0.00141368,-1.5,3.94113e+12,0,0,3,0,0
100,-3.11384e-12,0,-1.52199e-06,-3.18057e-12,0,0,-1.06591e-13,0,0,0,0,0,0,0,0,0,0,0,0,0,0,0,0,0,0,0,0,0,-0.261799,0.00135781,-1.5,3.94113e+12,0,0,3,0,0
110,-3.11384e-12,0,-1.52199e-06,-3.18057e-12,0,-3.62841e-12,-1.06591e-13,0,0,0,0,0,0,0,0,0,0,0,0,0,0,0,0,0,0,0,0,0,-0.261799,0.00129619,-1.5,3.94113e+12,0,0,3,0,0
120,-3.11384e-12,0,-1.52199e-06,-3.18057e-12,0,0,-1.06592e-13,0,0,0,0,0,0,0,0,0,0,0,0,0,0,0,0,0,0,0,0,0,-0.261799,0.00124501,-1.5,3.94113e+12,0,0,3,0,0
130,-3.11384e-12,0,-1.52199e-06,-3.18057e-12,0,-3.62841e-12,-1.06592e-13,0,0,0,0,0,0,0,0,0,0,0,0,0,0,0,0,0,0,0,0,0,-0.261799,0.0011909,-1.5,3.94113e+12,0,0,3,0,0
140,-3.11384e-12,0,-1.52199e-06,-3.18057e-12,0,0,-1.06592e-13,0,0,0,0,0,0,0,0,0,0,0,0,0,0,0,0,0,0,0,0,0,-0.261799,0.00114384,-1.5,3.94113e+12,0,0,3,0,0
150,-3.11384e-12,0,-1.52199e-06,-3.18057e-12,0,-3.62841e-12,-1.06593e-13,0,0,0,0,0,0,0,0,0,0,0,0,0,0,0,0,0,0,0,0,0,-0.261799,0.00109193,-1.5,3.94113e+12,0,0,3,0,0
160,-3.11384e-12,0,-1.52199e-06,-3.18057e-12,0,0,-1.06593e-13,0,0,0,0,0,0,0,0,0,0,0,0,0,0,0,0,0,0,0,0,0,-0.261799,0.00104881,-1.5,3.94113e+12,0,0,3,0,0
170,-3.11384e-12,0,-1.52199e-06,-3.18057e-12,0,-3.62841e-12,-1.06593e-13,0,0,0,0,0,0,0,0,0,0,0,0,0,0,0,0,0,0,0,0,0,-0.261799,0.00100323,-1.5,3.94113e+12,0,0,3,0,0
180,-3.11384e-12,0,-1.52199e-06,-3.18057e-12,0,0,-1.06593e-13,0,0,0,0,0,0,0,0,0,0,0,0,0,0,0,0,0,0,0,0,0,-0.261799,0.000963582,-1.5,3.94113e+12,0,0,3,0,0
190,-3.11384e-12,0,-1.52199e-06,-3.18057e-12,0,-3.62841e-12,-1.06594e-13,0,0,0,0,0,0,0,0,0,0,0,0,0,0,0,0,0,0,0,0,0,-0.261799,0.000921706,-1.5,3.94113e+12,0,0,3,0,0
200,-3.11384e-12,0,-1.52199e-06,-3.18057e-12,0,0,-1.06594e-13,0,0,0,0,0,0,0,0,0,0,0,0,0,0,0,0,0,0,0,0,0,-0.261799,0.000885278,-1.5,3.94113e+12,0,0,3,0,0
210,-3.11384e-12,0,-1.52199e-06,-3.18057e-12,0,-3.62841e-12,-1.06594e-13,0,0,0,0,0,0,0,0,0,0,0,0,0,0,0,0,0,0,0,0,0,-0.261799,0.000845104,-1.5,3.94113e+12,0,0,3,0,0
220,-3.11384e-12,0,-1.52199e-06,-3.18057e-12,0,0,-1.06594e-13,0,0,0,0,0,0,0,0,0,0,0,0,0,0,0,0,0,0,0,0,0,-0.261799,0.000813367,-1.5,3.94113e+12,0,0,3,0,0
230,-3.11384e-12,0,-1.52199e-06,-3.18057e-12,0,-3.62841e-12,-1.06595e-13,0,0,0,0,0,0,0,0,0,0,0,0,0,0,0,0,0,0,0,0,0,-0.261799,0.000776457,-1.5,3.94113e+12,0,0,3,0,0
240,-3.11384e-12,0,-1.52199e-06,-3.18057e-12,0,0,-1.06595e-13,0,0,0,0,0,0,0,0,0,0,0,0,0,0,0,0,0,0,0,0,0,-0.261799,0.000745797,-1.5,3.94113e+12,0,0,3,0,0
250,-3.11384e-12,0,-1.52199e-06,-3.18057e-12,0,-3.62841e-12,-1.06595e-13,0,0,0,0,0,0,0,0,0,0,0,0,0,0,0,0,0,0,0,0,0,-0.261799,0.000713417,-1.5,3.94113e+12,0,0,3,0,0
260,-3.11384e-12,0,-1.52199e-06,-3.18057e-12,0,0,-1.06596e-13,0,0,0,0,0,0,0,0,0,0,0,0,0,0,0,0,0,0,0,0,0,-0.261799,0.000685247,-1.5,3.94113e+12,0,0,3,0,0
270,-3.11384e-12,0,-1.52199e-06,-3.18057e-12,0,-3.62841e-12,-1.06596e-13,0,0,0,0,0,0,0,0,0,0,0,0,0,0,0,0,0,0,0,0,0,-0.261799,0.000659513,-1.5,3.94113e+12,0,0,3,0,0
280,-3.11384e-12,0,-1.52199e-06,-3.18057e-12,0,0,-1.06596e-13,0,0,0,0,0,0,0,0,0,0,0,0,0,0,0,0,0,0,0,0,0,-0.261799,0.000617871,-1.5,3.94113e+12,0,0,3,0,0
290,-3.11384e-12,0,-1.52199e-06,-3.18057e-12,0,-3.62841e-12,-1.06596e-13,0,0,0,0,0,0,0,0,0,0,0,0,0,0,0,0,0,0,0,0,0,-0.261799,0.000589832,-1.5,3.94113e+12,0,0,3,0,0
300,-3.11384e-12,0,-1.52199e-06,-3.18057e-12,0,0,-1.06597e-13,0,0,0,0,0,0,0,0,0,0,0,0,0,0,0,0,0,0,0,0,0,-0.261799,0.000570003,-1.5,3.94113e+12,0,0,3,0,0
310,-3.11384e-12,0,-1.52199e-06,-3.18057e-12,0,-3.62841e-12,-1.06597e-13,0,0,0,0,0,0,0,0,0,0,0,0,0,0,0,0,0,0,0,0,0,-0.261799,0.000547475,-1.5,3.94113e+12,0,0,3,0,0
320,-3.11384e-12,0,-1.52199e-06,-3.18057e-12,0,0,-1.06597e-13,0,0,0,0,0,0,0,0,0,0,0,0,0,0,0,0,0,0,0,0,0,-0.261799,0.000522631,-1.5,3.94113e+12,0,0,3,0,0
330,-3.11384e-12,0,-1.52199e-06,-3.18057e-12,0,-3.62841e-12,-1.06597e-13,0,0,0,0,0,0,0,0,0,0,0,0,0,0,0,0,0,0,0,0,0,-0.261799,0.000501975,-1.5,3.94113e+12,0,0,3,0,0
340,-3.11384e-12,0,-1.52199e-06,-3.18057e-12,0,0,-1.06598e-13,0,0,0,0,0,0,0,0,0,0,0,0,0,0,0,0,0,0,0,0,0,-0.261799,0.000479196,-1.5,3.94113e+12,0,0,3,0,0
350,-3.11384e-12,0,-1.52199e-06,-3.18057e-12,0,-3.62841e-12,-1.06598e-13,0,0,0,0,0,0,0,0,0,0,0,0,0,0,0,0,0,0,0,0,0,-0.261799,0.000460257,-1.5,3.94113e+12,0,0,3,0,0
360,-3.11384e-12,0,-1.52199e-06,-3.18057e-12,0,0,-1.06598e-13,0,0,0,0,0,0,0,0,0,0,0,0,0,0,0,0,0,0,0,0,0,-0.261799,0.000440254,-1.5,3.94113e+12,0,0,3,0,0
370,-3.11384e-12,0,-1.52199e-06,-3.18057e-12,0,-3.62841e-12,-1.06599e-13,0,0,0,0,0,0,0,0,0,0,0,0,0,0,0,0,0,0,0,0,0,-0.261799,0.000421988,-1.5,3.94113e+12,0,0,3,0,0
380,-3.11384e-12,0,-1.52199e-06,-3.18057e-12,0,0,-1.06599e-13,0,0,0,0,0,0,0,0,0,0,0,0,0,0,0,0,0,0,0,0,0,-0.261799,0.000402838,-1.5,3.94113e+12,0,0,3,0,0
390,-3.11384e-12,0,-1.52199e-06,-3.18057e-12,0,-3.62841e-12,-1.06599e-13,0,0,0,0,0,0,0,0,0,0,0,0,0,0,0,0,0,0,0,0,0,-0.261799,0.000386931,-1.5,3.94113e+12,0,0,3,0,0
400,-3.11384e-12,0,-1.52199e-06,-3.18057e-12,0,0,-1.06599e-13,0,0,0,0,0,0,0,0,0,0,0,0,0,0,0,0,0,0,0,0,0,-0.261799,0.000370116,-1.5,3.94113e+12,0,0,3,0,0
410,-3.11384e-12,0,-1.52199e-06,-3.18057e-12,0,-3.62841e-12,-1.066e-13,0,0,0,0,0,0,0,0,0,0,0,0,0,0,0,0,0,0,0,0,0,-0.261799,0.000354759,-1.5,3.94113e+12,0,0,3,0,0
420,-3.11384e-12,0,-1.52199e-06,-3.18057e-12,0,0,-1.066e-13,0,0,0,0,0,0,0,0,0,0,0,0,0,0,0,0,0,0,0,0,0,-0.261799,0.000339342,-1.5,3.94113e+12,0,0,3,0,0
430,-3.11384e-12,0,-1.52199e-06,-3.18057e-12,0,-3.62841e-12,-1.066e-13,0,0,0,0,0,0,0,0,0,0,0,0,0,0,0,0,0,0,0,0,0,-0.261799,0.000325276,-1.5,3.94113e+12,0,0,3,0,0
440,-3.11384e-12,0,-1.52199e-06,-3.18057e-12,0,0,-1.066e-13,0,0,0,0,0,0,0,0,0,0,0,0,0,0,0,0,0,0,0,0,0,-0.261799,0.00031114,-1.5,3.94113e+12,0,0,3,0,0
450,-3.11384e-12,0,-1.52199e-06,-3.18057e-12,0,-3.62841e-12,-1.06601e-13,0,0,0,0,0,0,0,0,0,0,0,0,0,0,0,0,0,0,0,0,0,-0.261799,0.000298843,-1.5,3.94113e+12,0,0,3,0,0
460,-3.11384e-12,0,-1.52199e-06,-3.18057e-12,0,0,-1.06601e-13,0,0,0,0,0,0,0,0,0,0,0,0,0,0,0,0,0,0,0,0,0,-0.261799,0.000285267,-1.5,3.94113e+12,0,0,3,0,0
470,-3.11384e-12,0,-1.52199e-06,-3.18057e-12,0,-3.62841e-12,-1.06601e-13,0,0,0,0,0,0,0,0,0,0,0,0,0,0,0,0,0,0,0,0,0,-0.261799,0.000273993,-1.5,3.94113e+12,0,0,3,0,0
480,-3.11384e-12,0,-1.52199e-06,-3.18057e-12,0,0,-1.06602e-13,0,0,0,0,0,0,0,0,0,0,0,0,0,0,0,0,0,0,0,0,0,-0.261799,0.000261559,-1.5,3.94113e+12,0,0,3,0,0
490,-3.11384e-12,0,-1.52199e-06,-3.18057e-12,0,-3.62841e-12,-1.06602e-13,0,0,0,0,0,0,0,0,0,0,0,0,0,0,0,0,0,0,0,0,0,-0.261799,0.000251221,-1.5,3.94113e+12,0,0,3,0,0
500,-3.11384e-12,0,-1.52199e-06,-3.18057e-12,0,0,-1.06602e-13,0,0,0,0,0,0,0,0,0,0,0,0,0,0,0,0,0,0,0,0,0,-0.261799,0.000240304,-1.5,3.94113e+12,0,0,3,0,0
510,-3.11384e-12,0,-1.52199e-06,-3.18057e-12,0,-3.62841e-12,-1.06602e-13,0,0,0,0,0,0,0,0,0,0,0,0,0,0,0,0,0,0,0,0,0,-0.261799,0.000230343,-1.5,3.94113e+12,0,0,3,0,0
520,-3.11384e-12,0,-1.52199e-06,-3.18057e-12,0,0,-1.06603e-13,0,0,0,0,0,0,0,0,0,0,0,0,0,0,0,0,0,0,0,0,0,-0.261799,0.000220332,-1.5,3.94113e+12,0,0,3,0,0
530,-3.11384e-12,0,-1.52199e-06,-3.18057e-12,0,-3.62841e-12,-1.06603e-13,0,0,0,0,0,0,0,0,0,0,0,0,0,0,0,0,0,0,0,0,0,-0.261799,0.000212925,-1.5,3.94113e+12,0,0,3,0,0
540,-3.11384e-12,0,-1.52199e-06,-3.18057e-12,0,0,-1.06603e-13,0,0,0,0,0,0,0,0,0,0,0,0,0,0,0,0,0,0,0,0,0,-0.261799,0.000206186,-1.5,3.94113e+12,0,0,3,0,0
550,-3.11384e-12,0,-1.52199e-06,-3.18057e-12,0,-3.62841e-12,-1.06603e-13,0,0,0,0,0,0,0,0,0,0,0,0,0,0,0,0,0,0,0,0,0,-0.261799,0.000199259,-1.5,3.94113e+12,0,0,3,0,0
560,-3.11384e-12,0,-1.52199e-06,-3.18057e-12,0,0,-1.06604e-13,0,0,0,0,0,0,0,0,0,0,0,0,0,0,0,0,0,0,0,0,0,-0.261799,0.000192953,-1.5,3.94113e+12,0,0,3,0,0
570,-3.11384e-12,0,-1.52199e-06,-3.18057e-12,0,-3.62841e-12,-1.06604e-13,0,0,0,0,0,0,0,0,0,0,0,0,0,0,0,0,0,0,0,0,0,-0.261799,0.000184567,-1.5,3.94113e+12,0,0,3,0,0
580,-3.11384e-12,0,-1.52199e-06,-3.18057e-12,0,0,-1.06604e-13,0,0,0,0,0,0,0,0,0,0,0,0,0,0,0,0,0,0,0,0,0,-0.261799,0.000176917,-1.5,3.94113e+12,0,0,3,0,0
590,-3.11384e-12,0,-1.52199e-06,-3.18057e-12,0,-3.62841e-12,-1.06605e-13,0,0,0,0,0,0,0,0,0,0,0,0,0,0,0,0,0,0,0,0,0,-0.261799,0.000169228,-1.5,3.94113e+12,0,0,3,0,0
600,-3.11384e-12,0,-1.52199e-06,-3.18057e-12,0,0,-1.06605e-13,0,0,0,0,0,0,0,0,0,0,0,0,0,0,0,0,0,0,0,0,0,-0.261799,0.00016254,-1.5,3.94113e+12,0,0,3,0,0
610,-3.11384e-12,0,-1.52199e-06,-3.18057e-12,0,-3.62841e-12,-1.06605e-13,0,0,0,0,0,0,0,0,0,0,0,0,0,0,0,0,0,0,0,0,0,-0.261799,0.000155156,-1.5,3.94113e+12,0,0,3,0,0
620,-3.11384e-12,0,-1.52199e-06,-3.18057e-12,0,0,-1.06605e-13,0,0,0,0,0,0,0,0,0,0,0,0,0,0,0,0,0,0,0,0,0,-0.261799,0.000148725,-1.5,3.94113e+12,0,0,3,0,0
630,-3.11384e-12,0,-1.52199e-06,-3.18057e-12,0,-3.62841e-12,-1.06606e-13,0,0,0,0,0,0,0,0,0,0,0,0,0,0,0,0,0,0,0,0,0,-0.261799,0.000142261,-1.5,3.94113e+12,0,0,3,0,0
640,-3.11384e-12,0,-1.52199e-06,-3.18057e-12,0,0,-1.06606e-13,0,0,0,0,0,0,0,0,0,0,0,0,0,0,0,0,0,0,0,0,0,-0.261799,0.000136639,-1.5,3.94113e+12,0,0,3,0,0
650,-3.11384e-12,0,-1.52199e-06,-3.18057e-12,0,-3.62841e-12,-1.06606e-13,0,0,0,0,0,0,0,0,0,0,0,0,0,0,0,0,0,0,0,0,0,-0.261799,0.000130432,-1.5,3.94113e+12,0,0,3,0,0
660,-3.11384e-12,0,-1.52199e-06,-3.18057e-12,0,0,-1.06606e-13,0,0,0,0,0,0,0,0,0,0,0,0,0,0,0,0,0,0,0,0,0,-0.261799,0.000125281,-1.5,3.94113e+12,0,0,3,0,0
670,-3.11384e-12,0,-1.52199e-06,-3.18057e-12,0,-3.62841e-12,-1.06607e-13,0,0,0,0,0,0,0,0,0,0,0,0,0,0,0,0,0,0,0,0,0,-0.261799,0.000119596,-1.5,3.94113e+12,0,0,3,0,0
680,-3.11384e-12,0,-1.52199e-06,-3.18057e-12,0,0,-1.06607e-13,0,0,0,0,0,0,0,0,0,0,0,0,0,0,0,0,0,0,0,0,0,-0.261799,0.000114874,-1.5,3.94113e+12,0,0,3,0,0
690,-3.11384e-12,0,-1.52199e-06,-3.18057e-12,0,-3.62841e-12,-1.06607e-13,0,0,0,0,0,0,0,0,0,0,0,0,0,0,0,0,0,0,0,0,0,-0.261799,0.000109881,-1.5,3.94113e+12,0,0,3,0,0
700,-3.11384e-12,0,-1.52199e-06,-3.18057e-12,0,0,-1.06607e-13,0,0,0,0,0,0,0,0,0,0,0,0,0,0,0,0,0,0,0,0,0,-0.261799,0.000105327,-1.5,3.94113e+12,0,0,3,0,0
710,-3.11384e-12,0,-1.52199e-06,-3.18057e-12,0,-3.62841e-12,-1.06608e-13,0,0,0,0,0,0,0,0,0,0,0,0,0,0,0,0,0,0,0,0,0,-0.261799,0.000100749,-1.5,3.94113e+12,0,0,3,0,0
720,-3.11384e-12,0,-1.52199e-06,-3.18057e-12,0,0,-1.06608e-13,0,0,0,0,0,0,0,0,0,0,0,0,0,0,0,0,0,0,0,0,0,-0.261799,9.67674e-05,-1.5,3.94113e+12,0,0,3,0,0
730,-3.11384e-12,0,-1.52199e-06,-3.18057e-12,0,-3.62841e-12,-1.06608e-13,0,0,0,0,0,0,0,0,0,0,0,0,0,0,0,0,0,0,0,0,0,-0.261799,9.2562e-05,-1.5,3.94113e+12,0,0,3,0,0
740,-3.11384e-12,0,-1.52199e-06,-3.18057e-12,0,0,-1.06609e-13,0,0,0,0,0,0,0,0,0,0,0,0,0,0,0,0,0,0,0,0,0,-0.261799,8.89037e-05,-1.5,3.94113e+12,0,0,3,0,0
750,-3.11384e-12,0,-1.52199e-06,-3.18057e-12,0,-3.62841e-12,-1.06609e-13,0,0,0,0,0,0,0,0,0,0,0,0,0,0,0,0,0,0,0,0,0,-0.261799,8.4865e-05,-1.5,3.94113e+12,0,0,3,0,0
760,-3.11384e-12,0,-1.52199e-06,-3.18057e-12,0,0,-1.06609e-13,0,0,0,0,0,0,0,0,0,0,0,0,0,0,0,0,0,0,0,0,0,-0.261799,8.1511e-05,-1.5,3.94113e+12,0,0,3,0,0
770,-3.11384e-12,0,-1.52199e-06,-3.18057e-12,0,-3.62841e-12,-1.06609e-13,0,0,0,0,0,0,0,0,0,0,0,0,0,0,0,0,0,0,0,0,0,-0.261799,7.79686e-05,-1.5,3.94113e+12,0,0,3,0,0
780,-3.11384e-12,0,-1.52199e-06,-3.18057e-12,0,0,-1.0661e-13,0,0,0,0,0,0,0,0,0,0,0,0,0,0,0,0,0,0,0,0,0,-0.261799,7.47336e-05,-1.5,3.94113e+12,0,0,3,0,0
790,-3.11384e-12,0,-1.52199e-06,-3.18057e-12,0,-3.62841e-12,-1.0661e-13,0,0,0,0,0,0,0,0,0,0,0,0,0,0,0,0,0,0,0,0,0,-0.261799,7.25154e-05,-1.5,3.94113e+12,0,0,3,0,0
800,-3.11384e-12,0,-1.52199e-06,-3.18057e-12,0,0,-1.0661e-13,0,0,0,0,0,0,0,0,0,0,0,0,0,0,0,0,0,0,0,0,0,-0.261799,7.00776e-05,-1.5,3.94113e+12,0,0,3,0,0
810,-3.11384e-12,0,-1.52199e-06,-3.18057e-12,0,-3.62841e-12,-1.0661e-13,0,0,0,0,0,0,0,0,0,0,0,0,0,0,0,0,0,0,0,0,0,-0.261799,6.7861e-05,-1.5,3.94113e+12,0,0,3,0,0
820,-3.11384e-12,0,-1.52199e-06,-3.18057e-12,0,0,-1.06611e-13,0,0,0,0,0,0,0,0,0,0,0,0,0,0,0,0,0,0,0,0,0,-0.261799,6.55813e-05,-1.5,3.94113e+12,0,0,3,0,0
830,-3.11384e-12,0,-1.52199e-06,-3.18057e-12,0,-3.62841e-12,-1.06611e-13,0,0,0,0,0,0,0,0,0,0,0,0,0,0,0,0,0,0,0,0,0,-0.261799,6.29917e-05,-1.5,3.94113e+12,0,0,3,0,0
840,-3.11384e-12,0,-1.52199e-06,-3.18057e-12,0,0,-1.06611e-13,0,0,0,0,0,0,0,0,0,0,0,0,0,0,0,0,0,0,0,0,0,-0.261799,6.02541e-05,-1.5,3.94113e+12,0,0,3,0,0
850,-3.11384e-12,0,-1.52199e-06,-3.18057e-12,0,-3.62841e-12,-1.06612e-13,0,0,0,0,0,0,0,0,0,0,0,0,0,0,0,0,0,0,0,0,0,-0.261799,5.77565e-05,-1.5,3.94113e+12,0,0,3,0,0
860,-3.11384e-12,0,-1.52199e-06,-3.18057e-12,0,0,-1.06612e-13,0,0,0,0,0,0,0,0,0,0,0,0,0,0,0,0,0,0,0,0,0,-0.261799,5.32003e-05,-1.5,3.94113e+12,0,0,3,0,0
870,-3.11384e-12,0,-1.52199e-06,-3.18057e-12,0,-3.62841e-12,-1.06612e-13,0,0,0,0,0,0,0,0,0,0,0,0,0,0,0,0,0,0,0,0,0,-0.261799,5.10977e-05,-1.5,3.94113e+12,0,0,3,0,0
880,-3.11384e-12,0,-1.52199e-06,-3.18057e-12,0,0,-1.06612e-13,0,0,0,0,0,0,0,0,0,0,0,0,0,0,0,0,0,0,0,0,0,-0.261799,4.87789e-05,-1.5,3.94113e+12,0,0,3,0,0
890,-3.11384e-12,0,-1.52199e-06,-3.18057e-12,0,-3.62841e-12,-1.06613e-13,0,0,0,0,0,0,0,0,0,0,0,0,0,0,0,0,0,0,0,0,0,-0.261799,4.6851e-05,-1.5,3.94113e+12,0,0,3,0,0
900,-3.11384e-12,0,-1.52199e-06,-3.18057e-12,0,0,-1.06613e-13,0,0,0,0,0,0,0,0,0,0,0,0,0,0,0,0,0,0,0,0,0,-0.261799,4.48149e-05,-1.5,3.94113e+12,0,0,3,0,0
910,-3.11384e-12,0,-1.52199e-06,-3.18057e-12,0,-3.62841e-12,-1.06613e-13,0,0,0,0,0,0,0,0,0,0,0,0,0,0,0,0,0,0,0,0,0,-0.261799,4.29555e-05,-1.5,3.94113e+12,0,0,3,0,0
920,-3.11384e-12,0,-1.52199e-06,-3.18057e-12,0,0,-1.06613e-13,0,0,0,0,0,0,0,0,0,0,0,0,0,0,0,0,0,0,0,0,0,-0.261799,4.10042e-05,-1.5,3.94113e+12,0,0,3,0,0
930,-3.11384e-12,0,-1.52199e-06,-3.18057e-12,0,-3.62841e-12,-1.06614e-13,0,0,0,0,0,0,0,0,0,0,0,0,0,0,0,0,0,0,0,0,0,-0.261799,3.93851e-05,-1.5,3.94113e+12,0,0,3,0,0
940,-3.11384e-12,0,-1.52199e-06,-3.18057e-12,0,0,-1.06614e-13,0,0,0,0,0,0,0,0,0,0,0,0,0,0,0,0,0,0,0,0,0,-0.261799,3.75978e-05,-1.5,3.94113e+12,0,0,3,0,0
950,-3.11384e-12,0,-1.52199e-06,-3.18057e-12,0,-3.62841e-12,-1.06614e-13,0,0,0,0,0,0,0,0,0,0,0,0,0,0,0,0,0,0,0,0,0,-0.261799,3.61118e-05,-1.5,3.94113e+12,0,0,3,0,0
960,-3.11384e-12,0,-1.52199e-06,-3.18057e-12,0,0,-1.06615e-13,0,0,0,0,0,0,0,0,0,0,0,0,0,0,0,0,0,0,0,0,0,-0.261799,3.45424e-05,-1.5,3.94113e+12,0,0,3,0,0
970,-3.11384e-12,0,-1.52199e-06,-3.18057e-12,0,-3.62841e-12,-1.06615e-13,0,0,0,0,0,0,0,0,0,0,0,0,0,0,0,0,0,0,0,0,0,-0.261799,3.31772e-05,-1.5,3.94113e+12,0,0,3,0,0
980,-3.11384e-12,0,-1.52199e-06,-3.18057e-12,0,0,-1.06615e-13,0,0,0,0,0,0,0,0,0,0,0,0,0,0,0,0,0,0,0,0,0,-0.261799,3.17354e-05,-1.5,3.94113e+12,0,0,3,0,0
990,-3.11384e-12,0,-1.52199e-06,-3.18057e-12,0,-3.62841e-12,-1.06615e-13,0,0,0,0,0,0,0,0,0,0,0,0,0,0,0,0,0,0,0,0,0,-0.261799,3.04823e-05,-1.5,3.94113e+12,0,0,3,0,0
1000,-3.11384e-12,0,-1.52199e-06,-3.18057e-12,0,0,-1.06616e-13,0,0,0,0,0,0,0,0,0,0,0,0,0,0,0,0,0,0,0,0,0,-0.261799,2.91575e-05,-1.5,3.94113e+12,0,0,3,0,0
1010,-3.11384e-12,0,-1.52199e-06,-3.18057e-12,0,-3.62841e-12,-1.06616e-13,0,0,0,0,0,0,0,0,0,0,0,0,0,0,0,0,0,0,0,0,0,-0.261799,2.79489e-05,-1.5,3.94113e+12,0,0,3,0,0
1020,-3.11384e-12,0,-1.52199e-06,-3.18057e-12,0,0,-1.06616e-13,0,0,0,0,0,0,0,0,0,0,0,0,0,0,0,0,0,0,0,0,0,-0.261799,2.67343e-05,-1.5,3.94113e+12,0,0,3,0,0
1030,-3.11384e-12,0,-1.52199e-06,-3.18057e-12,0,-3.62841e-12,-1.06616e-13,0,0,0,0,0,0,0,0,0,0,0,0,0,0,0,0,0,0,0,0,0,-0.261799,2.56261e-05,-1.5,3.94113e+12,0,0,3,0,0
1040,-3.11384e-12,0,-1.52199e-06,-3.18057e-12,0,0,-1.06617e-13,0,0,0,0,0,0,0,0,0,0,0,0,0,0,0,0,0,0,0,0,0,-0.261799,2.45124e-05,-1.5,3.94113e+12,0,0,3,0,0
1050,-3.11384e-12,0,-1.52199e-06,-3.18057e-12,0,-3.62841e-12,-1.06617e-13,0,0,0,0,0,0,0,0,0,0,0,0,0,0,0,0,0,0,0,0,0,-0.261799,2.36884e-05,-1.5,3.94113e+12,0,0,3,0,0
1060,-3.11384e-12,0,-1.52199e-06,-3.18057e-12,0,0,-1.06617e-13,0,0,0,0,0,0,0,0,0,0,0,0,0,0,0,0,0,0,0,0,0,-0.261799,2.29386e-05,-1.5,3.94113e+12,0,0,3,0,0
1070,-3.11384e-12,0,-1.52199e-06,-3.18057e-12,0,-3.62841e-12,-1.06618e-13,0,0,0,0,0,0,0,0,0,0,0,0,0,0,0,0,0,0,0,0,0,-0.261799,2.21675e-05,-1.5,3.94113e+12,0,0,3,0,0
1080,-3.11384e-12,0,-1.52199e-06,-3.18057e-12,0,0,-1.06618e-13,0,0,0,0,0,0,0,0,0,0,0,0,0,0,0,0,0,0,0,0,0,-0.261799,2.12486e-05,-1.5,3.94113e+12,0,0,3,0,0
1090,-3.11384e-12,0,-1.52199e-06,-3.18057e-12,0,-3.62841e-12,-1.06618e-13,0,0,0,0,0,0,0,0,0,0,0,0,0,0,0,0,0,0,0,0,0,-0.261799,2.03252e-05,-1.5,3.94113e+12,0,0,3,0,0
1100,-3.11384e-12,0,-1.52199e-06,-3.18057e-12,0,0,-1.06618e-13,0,0,0,0,0,0,0,0,0,0,0,0,0,0,0,0,0,0,0,0,0,-0.261799,1.95219e-05,-1.5,3.94113e+12,0,0,3,0,0
1110,-3.11384e-12,0,-1.52199e-06,-3.18057e-12,0,-3.62841e-12,-1.06619e-13,0,0,0,0,0,0,0,0,0,0,0,0,0,0,0,0,0,0,0,0,0,-0.261799,1.86351e-05,-1.5,3.94113e+12,0,0,3,0,0
1120,-3.11384e-12,0,-1.52199e-06,-3.18057e-12,0,0,-1.06619e-13,0,0,0,0,0,0,0,0,0,0,0,0,0,0,0,0,0,0,0,0,0,-0.261799,1.78992e-05,-1.5,3.94113e+12,0,0,3,0,0
1130,-3.11384e-12,0,-1.52199e-06,-3.18057e-12,0,-3.62841e-12,-1.06619e-13,0,0,0,0,0,0,0,0,0,0,0,0,0,0,0,0,0,0,0,0,0,-0.261799,1.7087e-05,-1.5,3.94113e+12,0,0,3,0,0
1140,-3.11384e-12,0,-1.52199e-06,-3.18057e-12,0,0,-1.06619e-13,0,0,0,0,0,0,0,0,0,0,0,0,0,0,0,0,0,0,0,0,0,-0.261799,1.64122e-05,-1.5,3.94113e+12,0,0,3,0,0
1150,-3.11384e-12,0,-1.52199e-06,-3.18057e-12,0,-3.62841e-12,-1.0662e-13,0,0,0,0,0,0,0,0,0,0,0,0,0,0,0,0,0,0,0,0,0,-0.261799,1.5699e-05,-1.5,3.94113e+12,0,0,3,0,0
1160,-3.11384e-12,0,-1.52199e-06,-3.18057e-12,0,0,-1.0662e-13,0,0,0,0,0,0,0,0,0,0,0,0,0,0,0,0,0,0,0,0,0,-0.261799,1.50482e-05,-1.5,3.94113e+12,0,0,3,0,0
1170,-3.11384e-12,0,-1.52199e-06,-3.18057e-12,0,-3.62841e-12,-1.0662e-13,0,0,0,0,0,0,0,0,0,0,0,0,0,0,0,0,0,0,0,0,0,-0.261799,1.43943e-05,-1.5,3.94113e+12,0,0,3,0,0
1180,-3.11384e-12,0,-1.52199e-06,-3.18057e-12,0,0,-1.0662e-13,0,0,0,0,0,0,0,0,0,0,0,0,0,0,0,0,0,0,0,0,0,-0.261799,1.37976e-05,-1.5,3.94113e+12,0,0,3,0,0
1190,-3.11384e-12,0,-1.52199e-06,-3.18057e-12,0,-3.62841e-12,-1.06621e-13,0,0,0,0,0,0,0,0,0,0,0,0,0,0,0,0,0,0,0,0,0,-0.261799,1.3198e-05,-1.5,3.94113e+12,0,0,3,0,0
1200,-3.11384e-12,0,-1.52199e-06,-3.18057e-12,0,0,-1.06621e-13,0,0,0,0,0,0,0,0,0,0,0,0,0,0,0,0,0,0,0,0,0,-0.261799,1.26764e-05,-1.5,3.94113e+12,0,0,3,0,0
1210,-3.11384e-12,0,-1.52199e-06,-3.18057e-12,0,-3.62841e-12,-1.06621e-13,0,0,0,0,0,0,0,0,0,0,0,0,0,0,0,0,0,0,0,0,0,-0.261799,1.20506e-05,-1.5,3.94113e+12,0,0,3,0,0
1220,-3.11384e-12,0,-1.52199e-06,-3.18057e-12,0,0,-1.06622e-13,0,0,0,0,0,0,0,0,0,0,0,0,0,0,0,0,0,0,0,0,0,-0.261799,1.15506e-05,-1.5,3.94113e+12,0,0,3,0,0
1230,-3.11384e-12,0,-1.52199e-06,-3.18057e-12,0,-3.62841e-12,-1.06622e-13,0,0,0,0,0,0,0,0,0,0,0,0,0,0,0,0,0,0,0,0,0,-0.261799,1.10486e-05,-1.5,3.94113e+12,0,0,3,0,0
1240,-3.11384e-12,0,-1.52199e-06,-3.18057e-12,0,0,-1.06622e-13,0,0,0,0,0,0,0,0,0,0,0,0,0,0,0,0,0,0,0,0,0,-0.261799,1.0612e-05,-1.5,3.94113e+12,0,0,3,0,0
1250,-3.11384e-12,0,-1.52199e-06,-3.18057e-12,0,-3.62841e-12,-1.06622e-13,0,0,0,0,0,0,0,0,0,0,0,0,0,0,0,0,0,0,0,0,0,-0.261799,1.01304e-05,-1.5,3.94113e+12,0,0,3,0,0
1260,-3.11384e-12,0,-1.52199e-06,-3.18057e-12,0,0,-1.06623e-13,0,0,0,0,0,0,0,0,0,0,0,0,0,0,0,0,0,0,0,0,0,-0.261799,9.73038e-06,-1.5,3.94113e+12,0,0,3,0,0
1270,-3.11384e-12,0,-1.52199e-06,-3.18057e-12,0,-3.62841e-12,-1.06623e-13,0,0,0,0,0,0,0,0,0,0,0,0,0,0,0,0,0,0,0,0,0,-0.261799,9.30751e-06,-1.5,3.94113e+12,0,0,3,0,0
1280,-3.11384e-12,0,-1.52199e-06,-3.18057e-12,0,0,-1.06623e-13,0,0,0,0,0,0,0,0,0,0,0,0,0,0,0,0,0,0,0,0,0,-0.261799,8.93965e-06,-1.5,3.94113e+12,0,0,3,0,0
1290,-3.11384e-12,0,-1.52199e-06,-3.18057e-12,0,-3.62841e-12,-1.06623e-13,0,0,0,0,0,0,0,0,0,0,0,0,0,0,0,0,0,0,0,0,0,-0.261799,8.53397e-06,-1.5,3.94113e+12,0,0,3,0,0
1300,-3.11384e-12,0,-1.52199e-06,-3.18057e-12,0,0,-1.06624e-13,0,0,0,0,0,0,0,0,0,0,0,0,0,0,0,0,0,0,0,0,0,-0.261799,8.1631e-06,-1.5,3.94113e+12,0,0,3,0,0
1310,-3.11384e-12,0,-1.52199e-06,-3.18057e-12,0,-3.62841e-12,-1.06624e-13,0,0,0,0,0,0,0,0,0,0,0,0,0,0,0,0,0,0,0,0,0,-0.261799,7.9049e-06,-1.5,3.94113e+12,0,0,3,0,0
1320,-3.11384e-12,0,-1.52199e-06,-3.18057e-12,0,0,-1.06624e-13,0,0,0,0,0,0,0,0,0,0,0,0,0,0,0,0,0,0,0,0,0,-0.261799,7.63934e-06,-1.5,3.94113e+12,0,0,3,0,0
1330,-3.11384e-12,0,-1.52199e-06,-3.18057e-12,0,-3.62841e-12,-1.06625e-13,0,0,0,0,0,0,0,0,0,0,0,0,0,0,0,0,0,0,0,0,0,-0.261799,7.41259e-06,-1.5,3.94113e+12,0,0,3,0,0
1340,-3.11384e-12,0,-1.52199e-06,-3.18057e-12,0,0,-1.06625e-13,0,0,0,0,0,0,0,0,0,0,0,0,0,0,0,0,0,0,0,0,0,-0.261799,7.09077e-06,-1.5,3.94113e+12,0,0,3,0,0
1350,-3.11384e-12,0,-1.52199e-06,-3.18057e-12,0,-3.62841e-12,-1.06625e-13,0,0,0,0,0,0,0,0,0,0,0,0,0,0,0,0,0,0,0,0,0,-0.261799,6.79657e-06,-1.5,3.94113e+12,0,0,3,0,0
1360,-3.11384e-12,0,-1.52199e-06,-3.18057e-12,0,0,-1.06625e-13,0,0,0,0,0,0,0,0,0,0,0,0,0,0,0,0,0,0,0,0,0,-0.261799,6.51457e-06,-1.5,3.94113e+12,0,0,3,0,0
1370,-3.11384e-12,0,-1.52199e-06,-3.18057e-12,0,-3.62841e-12,-1.06626e-13,0,0,0,0,0,0,0,0,0,0,0,0,0,0,0,0,0,0,0,0,0,-0.261799,6.23174e-06,-1.5,3.94113e+12,0,0,3,0,0
1380,-3.11384e-12,0,-1.52199e-06,-3.18057e-12,0,0,-1.06626e-13,0,0,0,0,0,0,0,0,0,0,0,0,0,0,0,0,0,0,0,0,0,-0.261799,5.97342e-06,-1.5,3.94113e+12,0,0,3,0,0
1390,-3.11384e-12,0,-1.52199e-06,-3.18057e-12,0,-3.62841e-12,-1.06626e-13,0,0,0,0,0,0,0,0,0,0,0,0,0,0,0,0,0,0,0,0,0,-0.261799,5.72582e-06,-1.5,3.94113e+12,0,0,3,0,0
1400,-3.11384e-12,0,-1.52199e-06,-3.18057e-12,0,0,-1.06626e-13,0,0,0,0,0,0,0,0,0,0,0,0,0,0,0,0,0,0,0,0,0,-0.261799,5.47723e-06,-1.5,3.94113e+12,0,0,3,0,0
1410,-3.11384e-12,0,-1.52199e-06,-3.18057e-12,0,-3.62841e-12,-1.06627e-13,0,0,0,0,0,0,0,0,0,0,0,0,0,0,0,0,0,0,0,0,0,-0.261799,5.25019e-06,-1.5,3.94113e+12,0,0,3,0,0
1420,-3.11384e-12,0,-1.52199e-06,-3.18057e-12,0,0,-1.06627e-13,0,0,0,0,0,0,0,0,0,0,0,0,0,0,0,0,0,0,0,0,0,-0.261799,5.03236e-06,-1.5,3.94113e+12,0,0,3,0,0
1430,-3.11384e-12,0,-1.52199e-06,-3.18057e-12,0,-3.62841e-12,-1.06627e-13,0,0,0,0,0,0,0,0,0,0,0,0,0,0,0,0,0,0,0,0,0,-0.261799,4.81366e-06,-1.5,3.94113e+12,0,0,3,0,0
1440,-3.11384e-12,0,-1.52199e-06,-3.18057e-12,0,0,-1.06628e-13,0,0,0,0,0,0,0,0,0,0,0,0,0,0,0,0,0,0,0,0,0,-0.261799,4.61393e-06,-1.5,3.94113e+12,0,0,3,0,0
1450,-3.11384e-12,0,-1.52199e-06,-3.18057e-12,0,-3.62841e-12,-1.06632e-13,0,0,0,0,0,0,0,0,0,0,0,0,0,0,0,0,0,0,0,0,0,-0.261799,4.41362e-06,-1.5,3.94113e+12,0,0,3,0,0
1460,-3.11384e-12,0,-1.52199e-06,-3.18057e-12,0,0,-1.06632e-13,0,0,0,0,0,0,0,0,0,0,0,0,0,0,0,0,0,0,0,0,0,-0.261799,4.23049e-06,-1.5,3.94113e+12,0,0,3,0,0
1470,-3.11384e-12,0,-1.52199e-06,-3.18057e-12,0,-3.62841e-12,-1.06632e-13,0,0,0,0,0,0,0,0,0,0,0,0,0,0,0,0,0,0,0,0,0,-0.261799,3.92174e-06,-1.5,3.94113e+12,0,0,3,0,0
1480,-3.11384e-12,0,-1.52199e-06,-3.18057e-12,0,0,-1.06632e-13,0,0,0,0,0,0,0,0,0,0,0,0,0,0,0,0,0,0,0,0,0,-0.261799,3.75148e-06,-1.5,3.94113e+12,0,0,3,0,0
1490,-3.11384e-12,0,-1.52199e-06,-3.18057e-12,0,-3.62841e-12,-1.06633e-13,0,0,0,0,0,0,0,0,0,0,0,0,0,0,0,0,0,0,0,0,0,-0.261799,3.58861e-06,-1.5,3.94113e+12,0,0,3,0,0
1500,-3.11384e-12,0,-1.52199e-06,-3.18057e-12,0,0,-1.06633e-13,0,0,0,0,0,0,0,0,0,0,0,0,0,0,0,0,0,0,0,0,0,-0.261799,3.43971e-06,-1.5,3.94113e+12,0,0,3,0,0
1510,-3.11384e-12,0,-1.52199e-06,-3.18057e-12,0,-3.62841e-12,-1.06633e-13,0,0,0,0,0,0,0,0,0,0,0,0,0,0,0,0,0,0,0,0,0,-0.261799,3.297e-06,-1.5,3.94113e+12,0,0,3,0,0
1520,-3.11384e-12,0,-1.52199e-06,-3.18057e-12,0,0,-1.06633e-13,0,0,0,0,0,0,0,0,0,0,0,0,0,0,0,0,0,0,0,0,0,-0.261799,3.15371e-06,-1.5,3.94113e+12,0,0,3,0,0
1530,-3.11384e-12,0,-1.52199e-06,-3.18057e-12,0,-3.62841e-12,-1.06634e-13,0,0,0,0,0,0,0,0,0,0,0,0,0,0,0,0,0,0,0,0,0,-0.261799,3.02286e-06,-1.5,3.94113e+12,0,0,3,0,0
1540,-3.11384e-12,0,-1.52199e-06,-3.18057e-12,0,0,-1.06634e-13,0,0,-2.6019,-0.38073,0.315186,0,0,0,0,0,1.3981,-0.38073,-1368080016,-958718362,-1368080016,-958718362,2100479898,-1368080016,-1368079968,-1368079968,0,-0.261799,2.84985e-06,-1.5,3.94113e+12,0,0,3,0,0
1550,-3.11384e-12,0,-1.52199e-06,-3.18057e-12,0,-3.62841e-12,-1.06628e-13,0,0,-2.53995,-0.439451,0.281849,0,0,0,0,0,1.46005,-0.439451,-1368080016,-958718362,-1368080016,-958718362,2100479898,-1368080016,-1368079968,-1368079968,0,-0.261799,2.72612e-06,-1.5,3.94113e+12,0,0,3,0,0
1560,-3.11384e-12,0,-1.52199e-06,-3.18057e-12,0,0,-1.06628e-13,0,0,-2.53995,-0.439451,0.281849,0,0,0,0,0,1.46005,-0.439451,-1368080016,-958718362,-1368080016,-958718362,2100479898,-1368080016,-1368079968,-1368079968,0,-0.261799,2.63989e-06,-1.5,3.94113e+12,0,0,3,0,0
1570,-3.11384e-12,0,-1.52199e-06,-3.18057e-12,0,-3.62841e-12,-1.06628e-13,0,0,-2.53995,-0.439451,0.281849,0,0,0,0,0,1.46005,-0.439451,-1368080016,-958718362,-1368080016,-958718362,2100479898,-1368080016,-1368079968,-1368079968,0,-0.261799,2.55634e-06,-1.5,3.94113e+12,0,0,3,0,0
1580,-3.11384e-12,0,-1.52199e-06,-3.18057e-12,0,0,-1.06629e-13,0,0,-2.53581,-0.46336,0.244029,0,0,0,0,0,1.46419,-0.46336,-1368080016,-958718362,-1368080016,-958718362,2100479898,-1368080016,-1368079968,-1368079968,0,-0.261799,2.44535e-06,-1.5,3.94113e+12,0,0,3,0,0
1590,-3.11384e-12,0,-1.52199e-06,-3.18057e-12,0,-3.62841e-12,-1.06629e-13,0,0,-2.53581,-0.46336,0.244029,0,0,0,0,0,1.46419,-0.46336,-1368080016,-958718362,-1368080016,-958718362,2100479898,-1368080016,-1368079968,-1368079968,0,-0.261799,2.34399e-06,-1.5,3.94113e+12,0,0,3,0,0
1600,-3.11384e-12,0,-1.52199e-06,-3.18057e-12,0,0,-1.06629e-13,0,0,-2.54711,-0.49228,0.1884,0,0,0,0,0,1.45289,-0.49228,-1368080016,-958718362,-1368080016,-958718362,2100479898,-1368080016,-1368079968,-1368079968,0.261799,-0.261799,2.18215e-06,-1.5,3.94113e+12,0,0,3,1.46004,-0.48519
1610,-3.11384e-12,0,-1.52199e-06,-3.18057e-12,0,-3.62841e-12,-1.06629e-13,0,0,-2.59024,-0.532733,0.177332,0,0,0,0,0,1.40976,-0.532733,-1368080016,-958718362,-1368080016,-958718362,2100479898,-1368080016,-1368079968,-1368079968,0.261799,-0.261799,2.04866e-06,-1.5,3.94113e+12,0,0,3,1.44551,-0.546759
1620,-3.11384e-12,0,-1.52199e-06,-3.18057e-12,0,0,-1.0663e-13,0,0,-2.55688,-0.483299,0.120275,0,0,0,0,0,1.44312,-0.483299,-1368080016,-958718362,-1368080016,-958718362,2100479898,-1368080016,-1368079968,-1368079968,0.261799,-0.261799,1.9235e-06,-1.5,3.94113e+12,0,0,3,1.43909,-0.506673
1630,-3.11384e-12,0,-1.52199e-06,-3.18057e-12,0,-3.62841e-12,-1.0663e-13,0,0,-2.59399,-0.457244,0.148393,0,0,0,0,0,1.40601,-0.457244,-1368080016,-958718362,-1368080016,-958718362,2100479898,-1368080016,-1368079968,-1368079968,0.261799,-0.261799,1.82098e-06,-1.5,3.94113e+12,0,0,3,1.43557,-0.498902
1640,-3.11384e-12,0,-1.52199e-06,-3.18057e-12,0,0,-1.0663e-13,0,0,-2.59399,-0.457244,0.148393,0,0,0,0,0,1.40601,-0.457244,-1368080016,-958718362,-1368080016,-958718362,2100479898,-1368080016,-1368079968,-1368079968,0.261799,-0.261799,1.7741e-06,-1.5,3.94113e+12,0,0,3,1.43388,-0.502399
1650,-3.11384e-12,0,-1.52199e-06,-3.18057e-12,0,-3.62841e-12,-1.06631e-13,0,0,-2.59399,-0.457244,0.148393,0,0,0,0,0,1.40601,-0.457244,-1368080016,-958718362,-1368080016,-958718362,2100479898,-1368080016,-1368079968,-1368079968,0.261799,-0.261799,1.72493e-06,-1.5,3.94113e+12,0,0,3,1.43206,-0.506165
1660,-3.11384e-12,0,-1.52199e-06,-3.18057e-12,0,0,-1.06631e-13,0,0,-2.59399,-0.457244,0.148393,0,0,0,0,0,1.40601,-0.457244,-1368080016,-958718362,-1368080016,-958718362,2100479898,-1368080016,-1368079968,-1368079968,0.261799,-0.261799,1.68054e-06,-1.5,3.94113e+12,0,0,3,1.43036,-0.509662
1670,-3.11384e-12,0,-1.52199e-06,-3.18057e-12,0,-3.62841e-12,-1.06631e-13,0,0,-2.59399,-0.457244,0.148393,0,0,0,0,0,1.40601,-0.457244,-1368080016,-958718362,-1368080016,-958718362,2100479898,-1368080016,-1368079968,-1368079968,0.261799,-0.261799,1.64058e-06,-1.5,3.94113e+12,0,0,3,1.4288,-0.51289
1680,-3.11384e-12,0,-1.52199e-06,-3.18057e-12,0,0,-1.06634e-13,0,0,-2.59399,-0.457244,0.148393,0,0,0,0,0,1.40601,-0.457244,-1368080016,-958718362,-1368080016,-958718362,2100479898,-1368080016,-1368079968,-1368079968,0.261799,-0.261799,1.57897e-06,-1.5,3.94113e+12,0,0,3,1.42633,-0.518002
1690,-3.11384e-12,0,-1.52199e-06,-3.18057e-12,0,-3.62841e-12,-1.06634e-13,0,0,-2.59399,-0.457244,0.148393,0,0,0,0,0,1.40601,-0.457244,-1368080016,-958718362,-1368080016,-958718362,2100479898,-1368080016,-1368079968,-1368079968,0.261799,-0.261799,1.51967e-06,-1.5,3.94113e+12,0,0,3,1.42385,-0.523113
1700,-3.11384e-12,0,-1.52199e-06,-3.18057e-12,0,0,-1.06635e-13,0,0,-2.59399,-0.457244,0.148393,0,0,0,0,0,1.40601,-0.457244,-1368080016,-958718362,-1368080016,-958718362,2100479898,-1368080016,-1368079968,-1368079968,0.261799,-0.261799,1.4626e-06,-1.5,3.94113e+12,0,0,3,1.42138,-0.528224
1710,-3.11384e-12,0,-1.52199e-06,-3.18057e-12,0,-3.62841e-12,-1.06635e-13,0,0,-2.59399,-0.457244,0.148393,0,0,0,0,0,1.40601,-0.457244,-1368080016,-958718362,-1368080016,-958718362,2100479898,-1368080016,-1368079968,-1368079968,0.261799,-0.261799,1.42207e-06,-1.5,3.94113e+12,0,0,3,1.41956,-0.53199
1720,-3.11384e-12,0,-1.52199e-06,-3.18057e-12,0,0,-1.06635e-13,0,0,-2.59399,-0.457244,0.148393,0,0,0,0,0,1.40601,-0.457244,-1368080016,-958718362,-1368080016,-958718362,2100479898,-1368080016,-1368079968,-1368079968,0.261799,-0.261799,1.37429e-06,-1.5,3.94113e+12,0,0,3,1.41735,-0.536563
1730,-3.11384e-12,0,-1.52199e-06,-3.18057e-12,0,-3.62841e-12,-1.06636e-13,0,0,-2.59399,-0.457244,0.148393,0,0,0,0,0,1.40601,-0.457244,-1368080016,-958718362,-1368080016,-958718362,2100479898,-1368080016,-1368079968,-1368079968,0.261799,-0.261799,1.31463e-06,-1.5,3.94113e+12,0,0,3,1.41448,-0.542481
1740,-3.11384e-12,0,-1.52199e-06,-3.18057e-12,0,0,-1.06636e-13,0,0,-2.59399,-0.457244,0.148393,0,0,0,0,0,1.40601,-0.457244,-1368080016,-958718362,-1368080016,-958718362,2100479898,-1368080016,-1368079968,-1368079968,0.261799,-0.261799,1.26526e-06,-1.5,3.94113e+12,0,0,3,1.41201,-0.547592
1750,-3.11384e-12,0,-1.52199e-06,-3.18057e-12,0,-3.62841e-12,-1.06636e-13,0,0,-2.59399,-0.457244,0.148393,0,0,0,0,0,1.40601,-0.457244,-1368080016,-958718362,-1368080016,-958718362,2100479898,-1368080016,-1368079968,-1368079968,0.261799,-0.261799,1.21033e-06,-1.5,3.94113e+12,0,0,3,1.40914,-0.55351
1760,-3.11384e-12,0,-1.52199e-06,-3.18057e-12,0,0,-1.06636e-13,0,0,-2.59399,-0.457244,0.148393,0,0,0,0,0,1.40601,-0.457244,-1368080016,-958718362,-1368080016,-958718362,2100479898,-1368080016,-1368079968,-1368079968,0.261799,-0.261799,1.16487e-06,-1.5,3.94113e+12,0,0,3,1.40667,-0.558621
1770,-3.11384e-12,0,-1.52199e-06,-3.18057e-12,0,-3.62841e-12,-1.06637e-13,0,0,-2.59399,-0.457244,0.148393,0,0,0,0,0,1.40601,-0.457244,-1368080016,-958718362,-1368080016,-958718362,2100479898,-1368080016,-1368079968,-1368079968,0.261799,-0.261799,1.11425e-06,-1.5,3.94113e+12,0,0,3,1.40381,-0.564539
1780,-3.11384e-12,0,-1.52199e-06,-3.18057e-12,0,0,-1.06637e-13,0,0,-2.59399,-0.457244,0.148393,0,0,0,0,0,1.40601,-0.457244,-1368080016,-958718362,-1368080016,-958718362,2100479898,-1368080016,-1368079968,-1368079968,0.261799,-0.261799,1.0724e-06,-1.5,3.94113e+12,0,0,3,1.40133,-0.56965
1790,-3.11384e-12,0,-1.52199e-06,-3.18057e-12,0,-3.62841e-12,-1.06637e-13,0,0,-2.59399,-0.457244,0.148393,0,0,0,0,0,1.40601,-0.457244,-1368080016,-958718362,-1368080016,-958718362,2100479898,-1368080016,-1368079968,-1368079968,0.261799,-0.261799,1.0258e-06,-1.5,3.94113e+12,0,0,3,1.39847,-0.575567
1800,-3.11384e-12,0,-1.52199e-06,-3.18057e-12,0,0,-1.06637e-13,0,0,-2.59399,-0.457244,0.148393,0,0,0,0,0,1.40601,-0.457244,-1368080016,-958718362,-1368080016,-958718362,2100479898,-1368080016,-1368079968,-1368079968,0.261799,-0.261799,9.87275e-07,-1.5,3.94113e+12,0,0,3,1.396,-0.580678
1810,-3.11384e-12,0,-1.52199e-06,-3.18057e-12,0,-3.62841e-12,-1.06638e-13,0,0,-2.59399,-0.457244,0.148393,0,0,0,0,0,1.40601,-0.457244,-1368080016,-958718362,-1368080016,-958718362,2100479898,-1368080016,-1368079968,-1368079968,0.261799,-0.261799,9.44369e-07,-1.5,3.94113e+12,0,0,3,1.39313,-0.586596
1820,-3.11384e-12,0,-1.52199e-06,-3.18057e-12,0,0,-1.06638e-13,0,0,-2.59399,-0.457244,0.148393,0,0,0,0,0,1.40601,-0.457244,-1368080016,-958718362,-1368080016,-958718362,2100479898,-1368080016,-1368079968,-1368079968,0.261799,-0.261799,9.08904e-07,-1.5,3.94113e+12,0,0,3,1.39066,-0.591707
1830,-3.11384e-12,0,-1.52199e-06,-3.18057e-12,0,-3.62841e-12,-1.06638e-13,0,0,-2.59399,-0.457244,0.148393,0,0,0,0,0,1.40601,-0.457244,-1368080016,-958718362,-1368080016,-958718362,2100479898,-1368080016,-1368079968,-1368079968,0.261799,-0.261799,8.69404e-07,-1.5,3.94113e+12,0,0,3,1.38779,-0.597625
1840,-3.11384e-12,0,-1.52199e-06,-3.18057e-12,0,0,-1.06639e-13,0,0,-2.59399,-0.457244,0.148393,0,0,0,0,0,1.40601,-0.457244,-1368080016,-958718362,-1368080016,-958718362,2100479898,-1368080016,-1368079968,-1368079968,0.261799,-0.261799,8.35074e-07,-1.5,3.94113e+12,0,0,3,1.38519,-0.603005
1850,-3.11384e-12,0,-1.52199e-06,-3.18057e-12,0,-3.62841e-12,-1.06639e-13,0,0,-2.59399,-0.457244,0.148393,0,0,0,0,0,1.40601,-0.457244,-1368080016,-958718362,-1368080016,-958718362,2100479898,-1368080016,-1368079968,-1368079968,0.261799,-0.261799,8.18505e-07,-1.5,3.94113e+12,0,0,3,1.38389,-0.605695
1860,-3.11384e-12,0,-1.52199e-06,-3.18057e-12,0,0,-1.06639e-13,0,0,-2.59399,-0.457244,0.148393,0,0,0,0,0,1.40601,-0.457244,-1368080016,-958718362,-1368080016,-958718362,2100479898,-1368080016,-1368079968,-1368079968,0.261799,-0.261799,7.89378e-07,-1.5,3.94113e+12,0,0,3,1.38155,-0.610537
1870,-3.11384e-12,0,-1.52199e-06,-3.18057e-12,0,-3.62841e-12,-1.06639e-13,0,0,-2.59399,-0.457244,0.148393,0,0,0,0,0,1.40601,-0.457244,-1368080016,-958718362,-1368080016,-958718362,2100479898,-1368080016,-1368079968,-1368079968,0.261799,-0.261799,7.56657e-07,-1.5,3.94113e+12,0,0,3,1.37881,-0.616186
1880,-3.11384e-12,0,-1.52199e-06,-3.18057e-12,0,0,-1.0664e-13,0,0,-2.59399,-0.457244,0.148393,0,0,0,0,0,1.40601,-0.457244,-1368080016,-958718362,-1368080016,-958718362,2100479898,-1368080016,-1368079968,-1368079968,0.261799,-0.261799,7.25293e-07,-1.5,3.94113e+12,0,0,3,1.37608,-0.621835
1890,-3.11384e-12,0,-1.52199e-06,-3.18057e-12,0,-3.62841e-12,-1.0664e-13,0,0,-2.59399,-0.457244,0.148393,1.37335,-0.627482,-0.129923,-0.268466,0,1.40601,-0.457244,-1368080016,-958718362,-1368080016,-958718362,2100479898,-1368080016,-1368079968,-1368079968,0.261799,-0.261799,6.95229e-07,-1.5,3.94113e+12,0,0,3,1.37335,-0.627482
1900,-3.11384e-12,0,-1.52199e-06,-3.18057e-12,0,0,-1.0664e-13,0,0,-2.59399,-0.457244,0.148393,1.37064,-0.633079,-0.128563,-0.265656,0,1.40601,-0.457244,-1368080016,-958718362,-1368080016,-958718362,2100479898,-1368080016,-1368079968,-1368079968,0.261799,-0.261799,6.66411e-07,-1.5,3.94113e+12,0,0,3,1.37064,-0.633079
1910,-3.11384e-12,0,-1.52199e-06,-3.18057e-12,0,-3.62841e-12,-1.0664e-13,0,0,-2.59399,-0.457244,0.148393,1.36796,-0.638616,-0.127217,-0.262875,0,1.40601,-0.457244,-1368080016,-958718362,-1368080016,-958718362,2100479898,-1368080016,-1368079968,-1368079968,0.261799,-0.261799,6.38761e-07,-1.5,3.94113e+12,0,0,3,1.36796,-0.638616
1920,-3.11384e-12,0,-1.52199e-06,-3.18057e-12,0,0,-1.06641e-13,0,0,-2.59399,-0.457244,0.148393,1.36531,-0.644096,-0.125886,-0.260123,0,1.40601,-0.457244,-1368080016,-958718362,-1368080016,-958718362,2100479898,-1368080016,-1368079968,-1368079968,0.261799,-0.261799,6.12258e-07,-1.5,3.94113e+12,0,0,3,1.36531,-0.644096
1930,-3.11384e-12,0,-1.52199e-06,-3.18057e-12,0,-3.62841e-12,-1.06641e-13,0,0,-2.59399,-0.457244,0.148393,1.36256,-0.649773,-0.124505,-0.257271,0,1.40601,-0.457244,-1368080016,-958718362,-1368080016,-958718362,2100479898,-1368080016,-1368079968,-1368079968,0.261799,-0.261799,5.8565e-07,-1.5,3.94113e+12,0,0,3,1.36256,-0.649773
1940,-3.11384e-12,0,-1.52199e-06,-3.18057e-12,0,0,-1.06641e-13,0,0,-2.59399,-0.457244,0.148393,1.35984,-0.65539,-0.12314,-0.25445,0,1.40601,-0.457244,-1368080016,-958718362,-1368080016,-958718362,2100479898,-1368080016,-1368079968,-1368079968,0.261799,-0.261799,5.60224e-07,-1.5,3.94113e+12,0,0,3,1.35984,-0.65539
1950,-3.11384e-12,0,-1.52199e-06,-3.18057e-12,0,-3.62841e-12,-1.06642e-13,0,0,-2.59399,-0.457244,0.148393,1.35727,-0.660695,-0.121852,-0.251787,0,1.40601,-0.457244,-1368080016,-958718362,-1368080016,-958718362,2100479898,-1368080016,-1368079968,-1368079968,0.261799,-0.261799,5.37002e-07,-1.5,3.94113e+12,0,0,3,1.35727,-0.660695
1960,-3.11384e-12,0,-1.52199e-06,-3.18057e-12,0,0,-1.06642e-13,0,0,-2.59399,-0.457244,0.148393,1.35473,-0.665943,-0.120576,-0.249152,0,1.40601,-0.457244,-1368080016,-958718362,-1368080016,-958718362,2100479898,-1368080016,-1368079968,-1368079968,0.261799,-0.261799,5.14721e-07,-1.5,3.94113e+12,0,0,3,1.35473,-0.665943
1970,-3.11384e-12,0,-1.52199e-06,-3.18057e-12,0,-3.62841e-12,-1.06642e-13,0,0,-2.59399,-0.457244,0.148393,1.3521,-0.671381,-0.119254,-0.246419,0,1.40601,-0.457244,-1368080016,-958718362,-1368080016,-958718362,2100479898,-1368080016,-1368079968,-1368079968,0.261799,-0.261799,4.92352e-07,-1.5,3.94113e+12,0,0,3,1.3521,-0.671381
1980,-3.11384e-12,0,-1.52199e-06,-3.18057e-12,0,0,-1.06642e-13,0,0,-2.59399,-0.457244,0.148393,1.35067,-0.674327,-0.11854,-0.244944,0,1.40601,-0.457244,-1368080016,-958718362,-1368080016,-958718362,2100479898,-1368080016,-1368079968,-1368079968,0.261799,-0.261799,4.80645e-07,-1.5,3.94113e+12,0,0,3,1.35067,-0.674327
1990,-3.11384e-12,0,-1.52199e-06,-3.18057e-12,0,-3.62841e-12,-1.06643e-13,0,0,-2.59399,-0.457244,0.148393,1.34809,-0.679673,-0.11724,-0.242258,0,1.40601,-0.457244,-1368080016,-958718362,-1368080016,-958718362,2100479898,-1368080016,-1368079968,-1368079968,0.261799,-0.261799,4.59757e-07,-1.5,3.94113e+12,0,0,3,1.34809,-0.679673
2000,-3.11384e-12,0,-1.52199e-06,-3.18057e-12,0,0,-1.06643e-13,0,0,-2.59399,-0.457244,0.148393,1.34576,-0.684485,-0.116071,-0.239843,0,1.40601,-0.457244,-1368080016,-958718362,-1368080016,-958718362,2100479898,-1368080016,-1368079968,-1368079968,0.261799,-0.261799,4.41586e-07,-1.5,3.94113e+12,0,0,3,1.34576,-0.684485
2010,-3.11384e-12,0,-1.52199e-06,-3.18057e-12,0,-3.62841e-12,-1.06643e-13,0,0,-2.59399,-0.457244,0.148393,1.34311,-0.689956,-0.114741,-0.237094,0,1.40601,-0.457244,-1368080016,-958718362,-1368080016,-958718362,2100479898,-1368080016,-1368079968,-1368079968,0.261799,-0.261799,4.21547e-07,-1.5,3.94113e+12,0,0,3,1.34311,-0.689956
2020,-3.11384e-12,0,-1.52199e-06,-3.18057e-12,0,0,-1.06643e-13,0,0,-2.59399,-0.457244,0.148393,1.33838,-0.69974,-0.11234,-0.232133,0,1.40601,-0.457244,-1368080016,-958718362,-1368080016,-958718362,2100479898,-1368080016,-1368079968,-1368079968,0.261799,-0.261799,3.86633e-07,-1.5,3.94113e+12,0,0,3,1.33838,-0.69974
2030,-3.11384e-12,0,-1.52199e-06,-3.18057e-12,0,-3.62841e-12,-1.06644e-13,0,0,-2.59399,-0.457244,0.148393,1.33592,-0.704807,-0.111108,-0.229587,0,1.40601,-0.457244,-1368080016,-958718362,-1368080016,-958718362,2100479898,-1368080016,-1368079968,-1368079968,0.261799,-0.261799,3.69831e-07,-1.5,3.94113e+12,0,0,3,1.33592,-0.704807
2040,-3.11384e-12,0,-1.52199e-06,-3.18057e-12,0,0,-1.06644e-13,0,0,-2.59399,-0.457244,0.148393,1.33372,-0.709367,-0.11,-0.227298,0,1.40601,-0.457244,-1368080016,-958718362,-1368080016,-958718362,2100479898,-1368080016,-1368079968,-1368079968,0.261799,-0.261799,3.55214e-07,-1.5,3.94113e+12,0,0,3,1.33372,-0.709367
2050,-3.11384e-12,0,-1.52199e-06,-3.18057e-12,0,-3.62841e-12,-1.06644e-13,0,0,-2.59399,-0.457244,0.148393,1.33121,-0.714552,-0.108739,-0.224693,0,1.40601,-0.457244,-1368080016,-958718362,-1368080016,-958718362,2100479898,-1368080016,-1368079968,-1368079968,0.261799,-0.261799,3.39095e-07,-1.5,3.94113e+12,0,0,3,1.33121,-0.714552
2060,-3.11384e-12,0,-1.52199e-06,-3.18057e-12,0,0,-1.06645e-13,0,0,-2.59399,-0.457244,0.148393,1.32905,-0.719014,-0.107655,-0.222453,0,1.40601,-0.457244,-1368080016,-958718362,-1368080016,-958718362,2100479898,-1368080016,-1368079968,-1368079968,0.261799,-0.261799,3.25693e-07,-1.5,3.94113e+12,0,0,3,1.32905,-0.719014
2070,-3.11384e-12,0,-1.52199e-06,-3.18057e-12,0,-3.62841e-12,-1.06645e-13,0,0,-2.59399,-0.457244,0.148393,1.3267,-0.72387,-0.106475,-0.220013,0,1.40601,-0.457244,-1368080016,-958718362,-1368080016,-958718362,2100479898,-1368080016,-1368079968,-1368079968,0.261799,-0.261799,3.11538e-07,-1.5,3.94113e+12,0,0,3,1.3267,-0.72387
2080,-3.11384e-12,0,-1.52199e-06,-3.18057e-12,0,0,-1.06645e-13,0,0,-2.59399,-0.457244,0.148393,1.32458,-0.728239,-0.105413,-0.21782,0,1.40601,-0.457244,-1368080016,-958718362,-1368080016,-958718362,2100479898,-1368080016,-1368079968,-1368079968,0.261799,-0.261799,2.99226e-07,-1.5,3.94113e+12,0,0,3,1.32458,-0.728239
2090,-3.11384e-12,0,-1.52199e-06,-3.18057e-12,0,-3.62841e-12,-1.06645e-13,0,0,-2.59399,-0.457244,0.148393,1.32218,-0.733208,-0.104205,-0.215323,0,1.40601,-0.457244,-1368080016,-958718362,-1368080016,-958718362,2100479898,-1368080016,-1368079968,-1368079968,0.261799,-0.261799,2.85647e-07,-1.5,3.94113e+12,0,0,3,1.32218,-0.733208
2100,-3.11384e-12,0,-1.52199e-06,-3.18057e-12,0,0,-1.06646e-13,0,0,-2.59399,-0.457244,0.148393,1.32052,-0.736636,-0.103374,-0.213605,0,1.40601,-0.457244,-1368080016,-958718362,-1368080016,-958718362,2100479898,-1368080016,-1368079968,-1368079968,0.261799,-0.261799,2.76606e-07,-1.5,3.94113e+12,0,0,3,1.32052,-0.736636
2110,-3.11384e-12,0,-1.52199e-06,-3.18057e-12,0,-3.62841e-12,-1.06646e-13,0,0,-2.59399,-0.457244,0.148393,1.31888,-0.740035,-0.102549,-0.211901,0,1.40601,-0.457244,-1368080016,-958718362,-1368080016,-958718362,2100479898,-1368080016,-1368079968,-1368079968,0.261799,-0.261799,2.67852e-07,-1.5,3.94113e+12,0,0,3,1.31888,-0.740035
2120,-3.11384e-12,0,-1.52199e-06,-3.18057e-12,0,0,-1.06646e-13,0,0,-2.59399,-0.457244,0.148393,1.31654,-0.74487,-0.101374,-0.209473,0,1.40601,-0.457244,-1368080016,-958718362,-1368080016,-958718362,2100479898,-1368080016,-1368079968,-1368079968,0.261799,-0.261799,2.55697e-07,-1.5,3.94113e+12,0,0,3,1.31654,-0.74487
2130,-3.11384e-12,0,-1.52199e-06,-3.18057e-12,0,-3.62841e-12,-1.06646e-13,0,0,-2.59399,-0.457244,0.148393,1.31452,-0.74903,-0.100363,-0.207384,0,1.40601,-0.457244,-1368080016,-958718362,-1368080016,-958718362,2100479898,-1368080016,-1368079968,-1368079968,0.261799,-0.261799,2.45591e-07,-1.5,3.94113e+12,0,0,3,1.31452,-0.74903
2140,-3.11384e-12,0,-1.52199e-06,-3.18057e-12,0,0,-1.06647e-13,0,0,-2.59399,-0.457244,0.148393,1.31223,-0.753761,-0.0992127,-0.205007,0,1.40601,-0.457244,-1368080016,-958718362,-1368080016,-958718362,2100479898,-1368080016,-1368079968,-1368079968,0.261799,-0.261799,2.34446e-07,-1.5,3.94113e+12,0,0,3,1.31223,-0.753761
2150,-3.11384e-12,0,-1.52199e-06,-3.18057e-12,0,-3.62841e-12,-1.06647e-13,0,0,-2.59399,-0.457244,0.148393,1.31026,-0.757833,-0.0982237,-0.202964,0,1.40601,-0.457244,-1368080016,-958718362,-1368080016,-958718362,2100479898,-1368080016,-1368079968,-1368079968,0.261799,-0.261799,2.25188e-07,-1.5,3.94113e+12,0,0,3,1.31026,-0.757833
2160,-3.11384e-12,0,-1.52199e-06,-3.18057e-12,0,0,-1.06647e-13,0,0,-2.59399,-0.457244,0.148393,1.30802,-0.762464,-0.097098,-0.200638,0,1.40601,-0.457244,-1368080016,-958718362,-1368080016,-958718362,2100479898,-1368080016,-1368079968,-1368079968,0.261799,-0.261799,2.14969e-07,-1.5,3.94113e+12,0,0,3,1.30802,-0.762464
2170,-3.11384e-12,0,-1.52199e-06,-3.18057e-12,0,-3.62841e-12,-1.06647e-13,0,0,-2.59399,-0.457244,0.148393,1.30609,-0.766449,-0.0961301,-0.198638,0,1.40601,-0.457244,-1368080016,-958718362,-1368080016,-958718362,2100479898,-1368080016,-1368079968,-1368079968,0.261799,-0.261799,2.06481e-07,-1.5,3.94113e+12,0,0,3,1.30609,-0.766449
2180,-3.11384e-12,0,-1.52199e-06,-3.18057e-12,0,0,-1.06648e-13,0,0,-2.59399,-0.457244,0.148393,1.30399,-0.770786,-0.0950762,-0.19646,0,1.40601,-0.457244,-1368080016,-958718362,-1368080016,-958718362,2100479898,-1368080016,-1368079968,-1368079968,0.261799,-0.261799,1.97516e-07,-1.5,3.94113e+12,0,0,3,1.30399,-0.770786
2190,-3.11384e-12,0,-1.52199e-06,-3.18057e-12,0,-3.62841e-12,-1.06648e-13,0,0,-2.59399,-0.457244,0.148393,1.30182,-0.775268,-0.0939865,-0.194208,0,1.40601,-0.457244,-1368080016,-958718362,-1368080016,-958718362,2100479898,-1368080016,-1368079968,-1368079968,0.261799,-0.261799,1.88553e-07,-1.5,3.94113e+12,0,0,3,1.30182,-0.775268
2200,-3.11384e-12,0,-1.52199e-06,-3.18057e-12,0,0,-1.06648e-13,0,0,-2.59399,-0.457244,0.148393,1.29415,-0.791136,-0.0900071,-0.185986,0,1.40601,-0.457244,-1368080016,-958718362,-1368080016,-958718362,2100479898,-1368080016,-1368079968,-1368079968,0.261799,-0.261799,1.56979e-07,-1.5,3.94113e+12,0,0,3,1.29415,-0.791136
2210,-3.11384e-12,0,-1.52199e-06,-3.18057e-12,0,-3.62841e-12,-1.06649e-13,0,0,-2.59399,-0.457244,0.148393,1.29227,-0.795014,-0.0890652,-0.184039,0,1.40601,-0.457244,-1368080016,-958718362,-1368080016,-958718362,2100479898,-1368080016,-1368079968,-1368079968,0.261799,-0.261799,1.50472e-07,-1.5,3.94113e+12,0,0,3,1.29227,-0.795014
2220,-3.11384e-12,0,-1.52199e-06,-3.18057e-12,0,0,-1.06649e-13,0,0,-2.59399,-0.457244,0.148393,1.29024,-0.799212,-0.0880441,-0.181929,0,1.40601,-0.457244,-1368080016,-958718362,-1368080016,-958718362,2100479898,-1368080016,-1368079968,-1368079968,0.261799,-0.261799,1.43637e-07,-1.5,3.94113e+12,0,0,3,1.29024,-0.799212
2230,-3.11384e-12,0,-1.52199e-06,-3.18057e-12,0,-3.62841e-12,-1.06649e-13,0,0,-2.59399,-0.457244,0.148393,1.28875,-0.802287,-0.087298,-0.180388,0,1.40601,-0.457244,-1368080016,-958718362,-1368080016,-958718362,2100479898,-1368080016,-1368079968,-1368079968,0.261799,-0.261799,1.38811e-07,-1.5,3.94113e+12,0,0,3,1.28875,-0.802287
2240,-3.11384e-12,0,-1.52199e-06,-3.18057e-12,0,0,-1.06649e-13,0,0,-2.59399,-0.457244,0.148393,1.28736,-0.805158,-0.0866015,-0.178948,0,1.40601,-0.457244,-1368080016,-958718362,-1368080016,-958718362,2100479898,-1368080016,-1368079968,-1368079968,0.261799,-0.261799,1.34418e-07,-1.5,3.94113e+12,0,0,3,1.28736,-0.805158
2250,-3.11384e-12,0,-1.52199e-06,-3.18057e-12,0,-3.62841e-12,-1.0665e-13,0,0,-2.59399,-0.457244,0.148393,1.28547,-0.809064,-0.0856518,-0.176986,0,1.40601,-0.457244,-1368080016,-958718362,-1368080016,-958718362,2100479898,-1368080016,-1368079968,-1368079968,0.261799,-0.261799,1.28576e-07,-1.5,3.94113e+12,0,0,3,1.28547,-0.809064
2260,-3.11384e-12,0,-1.52199e-06,-3.18057e-12,0,0,-1.0665e-13,0,0,-2.59399,-0.457244,0.148393,1.28368,-0.812754,-0.0847554,-0.175134,0,1.40601,-0.457244,-1368080016,-958718362,-1368080016,-958718362,2100479898,-1368080016,-1368079968,-1368079968,0.261799,-0.261799,1.23247e-07,-1.5,3.94113e+12,0,0,3,1.28368,-0.812754
2270,-3.11384e-12,0,-1.52199e-06,-3.18057e-12,0,-3.62841e-12,-1.0665e-13,0,0,-2.59399,-0.457244,0.148393,1.28183,-0.816577,-0.083826,-0.173213,0,1.40601,-0.457244,-1368080016,-958718362,-1368080016,-958718362,2100479898,-1368080016,-1368079968,-1368079968,0.261799,-0.261799,1.1789e-07,-1.5,3.94113e+12,0,0,3,1.28183,-0.816577
2280,-3.11384e-12,0,-1.52199e-06,-3.18057e-12,0,0,-1.0665e-13,0,0,-2.59399,-0.457244,0.148393,1.27506,-0.830577,-0.0803201,-0.165969,0,1.40601,-0.457244,-1368080016,-958718362,-1368080016,-958718362,2100479898,-1368080016,-1368079968,-1368079968,0.261799,-0.261799,9.84151e-08,-1.5,3.94113e+12,0,0,3,1.27506,-0.830577
2290,-3.11384e-12,0,-1.52199e-06,-3.18057e-12,0,-3.62841e-12,-1.06651e-13,0,0,-2.59399,-0.457244,0.148393,1.27331,-0.834199,-0.0794393,-0.164149,0,1.40601,-0.457244,-1368080016,-958718362,-1368080016,-958718362,2100479898,-1368080016,-1368079968,-1368079968,0.261799,-0.261799,9.41381e-08,-1.5,3.94113e+12,0,0,3,1.27331,-0.834199
2300,-3.11384e-12,0,-1.52199e-06,-3.18057e-12,0,0,-1.06651e-13,0,0,-2.59399,-0.457244,0.148393,1.27165,-0.837622,-0.0786079,-0.162431,0,1.40601,-0.457244,-1368080016,-958718362,-1368080016,-958718362,2100479898,-1368080016,-1368079968,-1368079968,0.261799,-0.261799,9.0236e-08,-1.5,3.94113e+12,0,0,3,1.27165,-0.837622
2310,-3.11384e-12,0,-1.52199e-06,-3.18057e-12,0,-3.62841e-12,-1.06651e-13,0,0,-2.59399,-0.457244,0.148393,1.26993,-0.841167,-0.0777459,-0.16065,0,1.40601,-0.457244,-1368080016,-958718362,-1368080016,-958718362,2100479898,-1368080016,-1368079968,-1368079968,0.261799,-0.261799,8.63144e-08,-1.5,3.94113e+12,0,0,3,1.26993,-0.841167
2320,-3.11384e-12,0,-1.52199e-06,-3.18057e-12,0,0,-1.06652e-13,0,0,-2.59399,-0.457244,0.148393,1.26831,-0.844516,-0.0769322,-0.158968,0,1.40601,-0.457244,-1368080016,-958718362,-1368080016,-958718362,2100479898,-1368080016,-1368079968,-1368079968,0.261799,-0.261799,8.27332e-08,-1.5,3.94113e+12,0,0,3,1.26831,-0.844516
2330,-3.11384e-12,0,-1.52199e-06,-3.18057e-12,0,-3.62841e-12,-1.06652e-13,0,0,-2.59399,-0.457244,0.148393,1.26663,-0.847986,-0.0760886,-0.157225,0,1.40601,-0.457244,-1368080016,-958718362,-1368080016,-958718362,2100479898,-1368080016,-1368079968,-1368079968,0.261799,-0.261799,7.91377e-08,-1.5,3.94113e+12,0,0,3,1.26663,-0.847986
2340,-3.11384e-12,0,-1.52199e-06,-3.18057e-12,0,0,-1.06652e-13,0,0,-2.59399,-0.457244,0.148393,1.26505,-0.851264,-0.0752923,-0.15558,0,1.40601,-0.457244,-1368080016,-958718362,-1368080016,-958718362,2100479898,-1368080016,-1368079968,-1368079968,0.261799,-0.261799,7.58573e-08,-1.5,3.94113e+12,0,0,3,1.26505,-0.851264
2350,-3.11384e-12,0,-1.52199e-06,-3.18057e-12,0,-3.62841e-12,-1.06652e-13,0,0,-2.59399,-0.457244,0.148393,1.26333,-0.854813,-0.0744293,-0.153797,0,1.40601,-0.457244,-1368080016,-958718362,-1368080016,-958718362,2100479898,-1368080016,-1368079968,-1368079968,0.261799,-0.261799,7.24149e-08,-1.5,3.94113e+12,0,0,3,1.26333,-0.854813
2360,-3.11384e-12,0,-1.52199e-06,-3.18057e-12,0,0,-1.06653e-13,0,0,-2.59399,-0.457244,0.148393,1.26214,-0.857261,-0.0738355,-0.15257,0,1.40601,-0.457244,-1368080016,-958718362,-1368080016,-958718362,2100479898,-1368080016,-1368079968,-1368079968,0.261799,-0.261799,7.0123e-08,-1.5,3.94113e+12,0,0,3,1.26214,-0.857261
2370,-3.11384e-12,0,-1.52199e-06,-3.18057e-12,0,-3.62841e-12,-1.06653e-13,0,0,-2.59399,-0.457244,0.148393,1.25673,-0.868459,-0.0710403,-0.146794,0,1.40601,-0.457244,-1368080016,-958718362,-1368080016,-958718362,2100479898,-1368080016,-1368079968,-1368079968,0.261799,-0.261799,5.96227e-08,-1.5,3.94113e+12,0,0,3,1.25673,-0.868459
2380,-3.11384e-12,0,-1.52199e-06,-3.18057e-12,0,0,-1.06653e-13,0,0,-2.59399,-0.457244,0.148393,1.2551,-0.871808,-0.0702261,-0.145111,0,1.40601,-0.457244,-1368080016,-958718362,-1368080016,-958718362,2100479898,-1368080016,-1368079968,-1368079968,0.261799,-0.261799,5.69171e-08,-1.5,3.94113e+12,0,0,3,1.2551,-0.871808
2390,-3.11384e-12,0,-1.52199e-06,-3.18057e-12,0,-3.62841e-12,-1.06653e-13,0,0,-2.59399,-0.457244,0.148393,1.25371,-0.87469,-0.0695259,-0.143664,0,1.40601,-0.457244,-1368080016,-958718362,-1368080016,-958718362,2100479898,-1368080016,-1368079968,-1368079968,0.261799,-0.261799,5.46675e-08,-1.5,3.94113e+12,0,0,3,1.25371,-0.87469
2400,-3.11384e-12,0,-1.52199e-06,-3.18057e-12,0,0,-1.06654e-13,0,0,-2.59399,-0.457244,0.148393,1.25212,-0.877967,-0.0687291,-0.142018,0,1.40601,-0.457244,-1368080016,-958718362,-1368080016,-958718362,2100479898,-1368080016,-1368079968,-1368079968,0.261799,-0.261799,5.21868e-08,-1.5,3.94113e+12,0,0,3,1.25212,-0.877967
2410,-3.11384e-12,0,-1.52199e-06,-3.18057e-12,0,-3.62841e-12,-1.06654e-13,0,0,-2.59399,-0.457244,0.148393,1.25076,-0.880788,-0.0680438,-0.140602,0,1.40601,-0.457244,-1368080016,-958718362,-1368080016,-958718362,2100479898,-1368080016,-1368079968,-1368079968,0.261799,-0.261799,5.01242e-08,-1.5,3.94113e+12,0,0,3,1.25076,-0.880788
2420,-3.11384e-12,0,-1.52199e-06,-3.18057e-12,0,0,-1.06654e-13,0,0,-2.59399,-0.457244,0.148393,1.24921,-0.883995,-0.0672638,-0.13899,0,1.40601,-0.457244,-1368080016,-958718362,-1368080016,-958718362,2100479898,-1368080016,-1368079968,-1368079968,0.261799,-0.261799,4.78472e-08,-1.5,3.94113e+12,0,0,3,1.24921,-0.883995
2430,-3.11384e-12,0,-1.52199e-06,-3.18057e-12,0,-3.62841e-12,-1.06655e-13,0,0,-2.59399,-0.457244,0.148393,1.24787,-0.886755,-0.0665931,-0.137604,0,1.40601,-0.457244,-1368080016,-958718362,-1368080016,-958718362,2100479898,-1368080016,-1368079968,-1368079968,0.261799,-0.261799,4.59562e-08,-1.5,3.94113e+12,0,0,3,1.24787,-0.886755
2440,-3.11384e-12,0,-1.52199e-06,-3.18057e-12,0,0,-1.06655e-13,0,0,-2.59399,-0.457244,0.148393,1.24635,-0.889894,-0.0658299,-0.136027,0,1.40601,-0.457244,-1368080016,-958718362,-1368080016,-958718362,2100479898,-1368080016,-1368079968,-1368079968,0.261799,-0.261799,4.38707e-08,-1.5,3.94113e+12,0,0,3,1.24635,-0.889894
2450,-3.11384e-12,0,-1.52199e-06,-3.18057e-12,0,-3.62841e-12,-1.06659e-13,0,0,-2.59399,-0.457244,0.148393,1.24115,-0.900638,-0.0631422,-0.130473,0,1.40601,-0.457244,-1368080016,-958718362,-1368080016,-958718362,2100479898,-1368080016,-1368079968,-1368079968,0.261799,-0.261799,3.67957e-08,-1.5,3.94113e+12,0,0,3,1.24115,-0.900638
2460,-3.11384e-12,0,-1.52199e-06,-3.18057e-12,0,0,-1.06659e-13,0,0,-2.59399,-0.457244,0.148393,1.23977,-0.903486,-0.0624498,-0.129043,0,1.40601,-0.457244,-1368080016,-958718362,-1368080016,-958718362,2100479898,-1368080016,-1368079968,-1368079968,0.261799,-0.261799,3.51966e-08,-1.5,3.94113e+12,0,0,3,1.23977,-0.903486
2470,-3.11384e-12,0,-1.52199e-06,-3.18057e-12,0,-3.62841e-12,-1.06659e-13,0,0,-2.59399,-0.457244,0.148393,1.23835,-0.906429,-0.0617338,-0.127563,0,1.40601,-0.457244,-1368080016,-958718362,-1368080016,-958718362,2100479898,-1368080016,-1368079968,-1368079968,0.261799,-0.261799,3.35977e-08,-1.5,3.94113e+12,0,0,3,1.23835,-0.906429
2480,-3.11384e-12,0,-1.52199e-06,-3.18057e-12,0,0,-1.0666e-13,0,0,-2.59399,-0.457244,0.148393,1.23737,-0.908459,-0.0612413,-0.126546,0,1.40601,-0.457244,-1368080016,-958718362,-1368080016,-958718362,2100479898,-1368080016,-1368079968,-1368079968,0.261799,-0.261799,3.25343e-08,-1.5,3.94113e+12,0,0,3,1.23737,-0.908459
2490,-3.11384e-12,0,-1.52199e-06,-3.18057e-12,0,-3.62841e-12,-1.0666e-13,0,0,-2.59399,-0.457244,0.148393,1.23639,-0.910473,-0.0607527,-0.125536,0,1.40601,-0.457244,-1368080016,-958718362,-1368080016,-958718362,2100479898,-1368080016,-1368079968,-1368079968,0.261799,-0.261799,3.15046e-08,-1.5,3.94113e+12,0,0,3,1.23639,-0.910473
2500,-3.11384e-12,0,-1.52199e-06,-3.18057e-12,0,0,-1.0666e-13,0,0,-2.59399,-0.457244,0.148393,1.23507,-0.913214,-0.0600867,-0.12416,0,1.40601,-0.457244,-1368080016,-958718362,-1368080016,-958718362,2100479898,-1368080016,-1368079968,-1368079968,0.261799,-0.261799,3.01368e-08,-1.5,3.94113e+12,0,0,3,1.23507,-0.913214
2510,-3.11384e-12,0,-1.52199e-06,-3.18057e-12,0,-3.62841e-12,-1.0666e-13,0,0,-2.59399,-0.457244,0.148393,1.23381,-0.915802,-0.0594577,-0.12286,0,1.40601,-0.457244,-1368080016,-958718362,-1368080016,-958718362,2100479898,-1368080016,-1368079968,-1368079968,0.261799,-0.261799,2.88864e-08,-1.5,3.94113e+12,0,0,3,1.23381,-0.915802
2520,-3.11384e-12,0,-1.52199e-06,-3.18057e-12,0,0,-1.06661e-13,0,0,-2.59399,-0.457244,0.148393,1.23252,-0.918483,-0.0588057,-0.121513,0,1.40601,-0.457244,-1368080016,-958718362,-1368080016,-958718362,2100479898,-1368080016,-1368079968,-1368079968,0.261799,-0.261799,2.76311e-08,-1.5,3.94113e+12,0,0,3,1.23252,-0.918483
2530,-3.11384e-12,0,-1.52199e-06,-3.18057e-12,0,-3.62841e-12,-1.06661e-13,0,0,-2.59399,-0.457244,0.148393,1.22782,-0.928193,-0.0563755,-0.116491,0,1.40601,-0.457244,-1368080016,-958718362,-1368080016,-958718362,2100479898,-1368080016,-1368079968,-1368079968,0.261799,-0.261799,2.31207e-08,-1.5,3.94113e+12,0,0,3,1.22782,-0.928193
2540,-3.11384e-12,0,-1.52199e-06,-3.18057e-12,0,0,-1.06661e-13,0,0,-2.59399,-0.457244,0.148393,1.22659,-0.930736,-0.0557574,-0.115214,0,1.40601,-0.457244,-1368080016,-958718362,-1368080016,-958718362,2100479898,-1368080016,-1368079968,-1368079968,0.261799,-0.261799,2.21169e-08,-1.5,3.94113e+12,0,0,3,1.22659,-0.930736
2550,-3.11384e-12,0,-1.52199e-06,-3.18057e-12,0,-3.62841e-12,-1.06661e-13,0,0,-2.59399,-0.457244,0.148393,1.22542,-0.933138,-0.0551737,-0.114008,0,1.40601,-0.457244,-1368080016,-958718362,-1368080016,-958718362,2100479898,-1368080016,-1368079968,-1368079968,0.261799,-0.261799,2.11993e-08,-1.5,3.94113e+12,0,0,3,1.22542,-0.933138
2560,-3.11386e-12,0,0,-3.18057e-12,0,0,-1.06662e-13,0,0,-2.59399,-0.457244,0.148393,1.22427,-0.935514,-0.0545962,-0.112815,0,1.40601,-0.457244,-1368080016,-958718362,-1368080016,-958718362,2100479898,-1368080016,-1368079968,-1368079968,0.261799,-0.261799,2.03197e-08,-1.5,3.94113e+12,0,0,3,1.22427,-0.935514
2570,-3.11384e-12,0,-1.52199e-06,-3.18057e-12,0,-3.62841e-12,-1.06662e-13,0,0,-2.59399,-0.457244,0.148393,1.22308,-0.937977,-0.0539976,-0.111578,0,1.40601,-0.457244,-1368080016,-958718362,-1368080016,-958718362,2100479898,-1368080016,-1368079968,-1368079968,0.261799,-0.261799,1.94375e-08,-1.5,3.94113e+12,0,0,3,1.22308,-0.937977
2580,-3.11384e-12,0,-1.52199e-06,-3.18057e-12,0,0,-1.06662e-13,0,0,-2.59399,-0.457244,0.148393,1.22196,-0.940303,-0.0534325,-0.11041,0,1.40601,-0.457244,-1368080016,-958718362,-1368080016,-958718362,2100479898,-1368080016,-1368079968,-1368079968,0.261799,-0.261799,1.86318e-08,-1.5,3.94113e+12,0,0,3,1.22196,-0.940303
2590,-3.11384e-12,0,-1.52199e-06,-3.18057e-12,0,-3.62841e-12,-1.06663e-13,0,0,-2.59399,-0.457244,0.148393,1.21929,-0.945813,-0.0520754,-0.107606,0,1.40601,-0.457244,-1368080016,-958718362,-1368080016,-958718362,2100479898,-1368080016,-1368079968,-1368079968,0.261799,-0.261799,1.67616e-08,-1.5,3.94113e+12,0,0,3,1.21929,-0.945813
2600,-3.11384e-12,0,-1.52199e-06,-3.18057e-12,0,0,-1.06663e-13,0,0,-2.59399,-0.457244,0.148393,1.218,-0.948478,-0.0514265,-0.106265,0,1.40601,-0.457244,-1368080016,-958718362,-1368080016,-958718362,2100479898,-1368080016,-1368079968,-1368079968,0.261799,-0.261799,1.59342e-08,-1.5,3.94113e+12,0,0,3,1.218,-0.948478
2610,-3.11384e-12,0,-1.52199e-06,-3.18057e-12,0,-3.62841e-12,-1.06663e-13,0,0,-2.59399,-0.457244,0.148393,1.21718,-0.95017,-0.0510163,-0.105417,0,1.40601,-0.457244,-1368080016,-958718362,-1368080016,-958718362,2100479898,-1368080016,-1368079968,-1368079968,0.261799,-0.261799,1.54302e-08,-1.5,3.94113e+12,0,0,3,1.21718,-0.95017
2620,-3.11384e-12,0,-1.52199e-06,-3.18057e-12,0,0,-1.06663e-13,0,0,-2.59399,-0.457244,0.148393,1.21363,-0.957515,-0.0491866,-0.101636,0,1.40601,-0.457244,-1368080016,-958718362,-1368080016,-958718362,2100479898,-1368080016,-1368079968,-1368079968,0.261799,-0.261799,1.32411e-08,-1.5,3.94113e+12,0,0,3,1.21363,-0.957515
2630,-3.11384e-12,0,-1.52199e-06,-3.18057e-12,0,-3.62841e-12,-1.06664e-13,0,0,-2.59399,-0.457244,0.148393,1.21265,-0.959533,-0.0486962,-0.100623,0,1.40601,-0.457244,-1368080016,-958718362,-1368080016,-958718362,2100479898,-1368080016,-1368079968,-1368079968,0.261799,-0.261799,1.27178e-08,-1.5,3.94113e+12,0,0,3,1.21265,-0.959533
2640,-3.11384e-12,0,-1.52199e-06,-3.18057e-12,0,0,-1.06664e-13,0,0,-2.59399,-0.457244,0.148393,1.21154,-0.961829,-0.0481381,-0.0994698,0,1.40601,-0.457244,-1368080016,-958718362,-1368080016,-958718362,2100479898,-1368080016,-1368079968,-1368079968,0.261799,-0.261799,1.21407e-08,-1.5,3.94113e+12,0,0,3,1.21154,-0.961829
2650,-3.11384e-12,0,-1.52199e-06,-3.18057e-12,0,-3.62841e-12,-1.06664e-13,0,0,-2.59399,-0.457244,0.148393,1.21058,-0.963804,-0.0476581,-0.0984781,0,1.40601,-0.457244,-1368080016,-958718362,-1368080016,-958718362,2100479898,-1368080016,-1368079968,-1368079968,0.261799,-0.261799,1.16608e-08,-1.5,3.94113e+12,0,0,3,1.21058,-0.963804
2660,-3.11384e-12,0,-1.52199e-06,-3.18057e-12,0,0,-1.06664e-13,0,0,-2.59399,-0.457244,0.148393,1.2095,-0.966051,-0.0471118,-0.0973492,0,1.40601,-0.457244,-1368080016,-958718362,-1368080016,-958718362,2100479898,-1368080016,-1368079968,-1368079968,0.261799,-0.261799,1.11311e-08,-1.5,3.94113e+12,0,0,3,1.2095,-0.966051
