timestamp,A_x,A_y,A_z,P,Q,R,Phi,Theta,Psi,poseX,poseY,poseZ,state_X,state_Y,state_Z,state_VzB,state_Bx,state_By,state_Bz,p1_x,p1_y,p2_x,p2_y,p3_x,p3_y,p4_x,p4_y,roll,pitch,yaw,alt,targetHeading,highLevelState,lowLevelState,gateNumber,filtered_x,filtered_y,x_OT,y_OT,vx_OT,vy_OT,filtered_vx,filtered_vygateArearansac_corr_x,ransac_corr_y,ransac_corr_vx,ransac_corr_vy,detectionTimeStamppTermX,dTermX,pTermY,dTermY,vxcmd,vycmd
9254,0.37207,0,4.63965,-0.000858723,0.000380144,-0.00300517,-0.0562446,-0.0084309,-2.22461,0,0,0,-0.00825029,0.00451607,-0.0647694,0.035456,-2.22358,0,0,0,0,0,0,0,0,0,0,0.353375,0.0817495,0.198294,-1.5,1.07784e-37,0,0,1,-0.00825029,0.00451607,-0.0273438,-0.0195312,0,0,-0.0647694,0.035456,1.9603e-19,0,0,0,0,0,0,0,0,0,2.51,-0.00903215
9275,0.428711,0,1.66113,-0.00162953,0.000444329,-0.00259765,-0.0565428,-0.00815711,-2.22724,0,0,0,-0.0104013,0.00569473,-0.07795,0.042746,-2.22616,0,0,33554303,-167645441,33554303,-167645441,-8436479,-1,-534446081,-65025,0.354183,0.0807479,0.230374,-1.5,1.07784e-37,0,0,2,-0.0104013,0.00569473,-0.0273438,-0.0195312,0,0,-0.07795,0.042746,0,0,0,0,0,0,0,0,0,0,2.51,-0.0113895
9290,0.428711,0,-1.87207,-0.00165606,-0.000459433,-0.00297372,-0.0567392,-0.00781715,-2.22979,0,0,0,-0.0116325,0.00637088,-0.0846665,0.0465529,-2.22878,0,0,33554303,-167645441,33554303,-167645441,-8436479,-1,-534446081,-65025,0.354302,0.0806547,0.24153,-1.5,1.07784e-37,0,0,3,-0.0116325,0.00637088,-0.0273438,-0.0195312,0,0,-0.0846665,0.0465529,0,0,0,0,0,0,0,0,0,0,2.51,-0.0127418
9313,0.428711,0,-1.07227,0.000361257,0.000576392,-0.00329354,-0.0568456,-0.00754194,-2.2324,-7.30813,-5.6465,-0.330609,-0.0137407,0.00753437,-0.0948632,0.0524495,-2.23137,0,0,617,153,617,153,667,142,614,216,0.354902,0.0799473,0.223367,-1.5,1.07784e-37,0,0,0,-0.0137407,0.00753437,-0.0273438,-0.0195312,0,0,-0.0948632,0.0524495,3922,0,0,0,0,0,0,0,0,0,2.51,-0.0150687
9349,0.421875,0,4.375,-0.000776362,0.000422751,-0.00240966,-0.0570753,-0.00724829,-2.23497,-4.79228,0.350729,-0.345923,-0.0174721,0.00961141,-0.110152,0.0614393,-2.23395,0,0,249,76,249,76,347,81,246,166,0.356267,0.0782729,0.214479,-1.5,1.07784e-37,0,0,1,-0.0174721,0.00961141,-0.0273438,-0.0195312,0,0,-0.110152,0.0614393,9595,0,0,0,0,0,0,0,0,0,2.51,-0.0192228
9367,0.422852,0,0.225586,-0.000344236,8.69148e-06,-0.00278731,-0.0570594,-0.00710216,-2.23683,-4.79228,0.350729,-0.345923,-0.0196655,0.010839,-0.118288,0.066331,-2.23661,0,0,249,76,249,76,347,81,246,166,0.356728,0.077775,0.231947,-1.5,1.07784e-37,0,0,2,-0.0196655,0.010839,-0.0273438,-0.0195312,0,0,-0.118288,0.066331,9595,0,0,0,0,0,0,0,0,0,2.51,-0.0216779
9383,0.456055,0,-5.51953,-0.000292807,9.21715e-06,-0.00207792,-0.0570584,-0.00710055,-2.23687,-4.79228,0.350729,-0.345923,-0.0216271,0.0119423,-0.125057,0.0704476,-2.23687,0,0,249,76,249,76,347,81,246,166,0.357641,0.0766229,0.246696,-1.5,1.07784e-37,0,0,3,-0.0216271,0.0119423,-0.0273438,-0.0195312,0,0,-0.125057,0.0704476,9595,0,0,0,0,0,0,0,0,0,2.51,-0.0238845
9405,0.474609,0,-7.29785,-0.000491166,0.000449423,-0.00301705,-0.0570653,-0.00708591,-2.23696,-7.30542,-5.64454,-0.318527,-0.0245247,0.0135811,-0.134288,0.0760621,-2.23687,0,0,617,153,617,153,667,142,614,216,0.359014,0.074875,0.226948,-1.5,1.07784e-37,0,0,0,-0.0245247,0.0135811,-0.0273438,-0.0195312,0,0,-0.134288,0.0760621,3922,0,0,0,0,0,0,0,0,0,2.51,-0.0271622
9421,0.474609,0,-2.71875,-0.000357128,0.00021275,-0.00317493,-0.0570727,-0.00708223,-2.23701,-7.30542,-5.64454,-0.318527,-0.026741,0.0148394,-0.140928,0.0801049,-2.23701,0,0,617,153,617,153,667,142,614,216,0.359992,0.0736373,0.227569,-1.5,1.07784e-37,0,0,1,-0.026741,0.0148394,-0.0273438,-0.0195312,0,0,-0.140928,0.0801049,3922,0,0,0,0,0,0,0,0,0,2.51,-0.0296787
9437,0.474609,0,-2.71875,-0.000357128,0.00021275,-0.00317493,-0.0570727,-0.00708223,-2.23701,-7.32401,-5.65016,-0.315249,-0.0290631,0.016162,-0.147515,0.0841167,-2.23701,0,0,617,153,617,153,665,142,614,216,0.361021,0.0723289,0.242323,-1.5,1.07784e-37,0,0,2,-0.0290631,0.016162,-0.0273438,-0.0195312,0,0,-0.147515,0.0841167,3848,0,0,0,0,0,0,0,0,0,2.51,-0.0323239
9452,0.40918,0,-3.29785,-0.00183618,-0.00113858,-0.00313013,-0.0570876,-0.00708051,-2.2371,-7.32401,-5.65016,-0.315249,-0.0313351,0.0174598,-0.153643,0.0878495,-2.2371,0,0,617,153,617,153,665,142,614,216,0.361975,0.0711193,0.255459,-1.5,1.07784e-37,0,0,3,-0.0313351,0.0174598,-0.0273438,-0.0195312,0,0,-0.153643,0.0878495,3848,0,0,0,0,0,0,0,0,0,2.51,-0.0349197
9468,0.40918,0,-3.29785,-0.00183618,-0.00113858,-0.00313013,-0.0570876,-0.00708051,-2.2371,-4.85357,0.352122,-0.33144,-0.0338596,0.0189058,-0.16013,0.0918018,-2.2371,0,0,251,76,251,76,347,83,246,166,0.363033,0.0697743,0.246138,-1.5,1.07784e-37,0,0,0,-0.0338596,0.0189058,-0.0273438,-0.0195312,0,0,-0.16013,0.0918018,9595,0,0,0,0,0,0,0,0,0,2.51,-0.0378115
9493,0.30957,0,-6.68457,-0.0003406,0.000621872,-0.00237205,-0.0570923,-0.00705303,-2.23723,-4.8692,0.350329,-0.327123,-0.0380503,0.021315,-0.170182,0.0979281,-2.23723,0,0,251,76,251,76,347,83,247,166,0.364692,0.0676708,0.239948,-1.5,1.07784e-37,0,0,1,-0.0380503,0.021315,-0.0273438,-0.0195312,0,0,-0.170182,0.0979281,9500,0,0,0,0,0,0,0,0,0,2.51,-0.04263
9510,0.30957,0,6.59277,-0.00117969,0.000378021,-0.00233716,-0.0571045,-0.00704293,-2.23727,-4.8692,0.350329,-0.327123,-0.04084,0.0229226,-0.176535,0.101807,-2.23727,0,0,251,76,251,76,347,83,247,166,0.36578,0.0662902,0.254646,-1.5,1.07784e-37,0,0,2,-0.04084,0.0229226,-0.0273438,-0.0195312,0,0,-0.176535,0.101807,9500,0,0,0,0,0,0,0,0,0,2.51,-0.0458452
9525,0.356445,0,-3.29199,-0.000750207,0.000685341,-0.00311741,-0.0571043,-0.00703174,-2.23736,-4.85352,0.352148,-0.331308,-0.0437309,0.024592,-0.182839,0.105656,-2.23727,0,0,251,76,251,76,347,83,246,166,0.366891,0.0648778,0.269297,-1.5,1.07784e-37,0,0,3,-0.0437309,0.024592,-0.0273438,-0.0195312,0,0,-0.182839,0.105656,9595,0,0,0,0,0,0,0,0,0,2.51,-0.049184
9544,0.389648,0,-0.286133,-0.000768301,0.000270475,-0.00314624,-0.0571029,-0.0070281,-2.23741,-7.37411,-5.69688,-0.296314,-0.0472991,0.0266571,-0.19026,0.11019,-2.23741,0,0,617,153,617,153,667,142,614,216,0.368198,0.0632255,0.254146,-1.5,1.07784e-37,0,0,0,-0.0472991,0.0266571,-0.0273438,-0.0195312,0,0,-0.19026,0.11019,3922,0,0,0,0,0,0,0,0,0,2.51,-0.0533141
9581,0.456055,0,-0.859375,0.000389714,0.000936247,-0.00299044,-0.057102,-0.00699382,-2.2375,-4.82646,0.356057,-0.33889,-0.0545549,0.0308724,-0.20418,0.118702,-2.2375,0,0,249,76,249,76,347,83,246,166,0.370795,0.0599307,0.242083,-1.5,1.07784e-37,0,0,1,-0.0545549,0.0308724,-0.0273438,-0.0195312,0,0,-0.20418,0.118702,9595,0,0,0,0,0,0,0,0,0,2.51,-0.0617447
9608,0.414062,0,6.8457,-5.94822e-05,-0.000284314,-0.00323102,-0.057097,-0.0069773,-2.23764,-4.7908,0.351099,-0.342444,-0.0604937,0.0343319,-0.214804,0.125211,-2.23759,0,0,249,76,249,76,347,81,246,166,0.37285,0.057327,0.275546,-1.5,1.07784e-37,0,0,2,-0.0604937,0.0343319,-0.0273438,-0.0195312,0,0,-0.214804,0.125211,9595,0,0,0,0,0,0,0,0,0,2.51,-0.0686638
9624,0.380859,0,-6.14551,-0.000764092,0.000805361,-0.00290161,-0.0571014,-0.00697068,-2.23769,-4.7908,0.351099,-0.342444,-0.0639917,0.0363727,-0.220792,0.128883,-2.23764,0,0,249,76,249,76,347,81,246,166,0.374037,0.0558227,0.286985,-1.5,1.07784e-37,0,0,3,-0.0639917,0.0363727,-0.0273438,-0.0195312,0,0,-0.220792,0.128883,9595,0,0,0,0,0,0,0,0,0,2.51,-0.0727454
9640,0.380859,0,-6.14551,-0.000764092,0.000805361,-0.00290161,-0.0571014,-0.00697068,-2.23769,-4.85618,0.352358,-0.330403,-0.0675868,0.0384732,-0.226733,0.132527,-2.23769,0,0,249,76,249,76,347,83,248,166,0.375239,0.0542998,0.276463,-1.5,1.07784e-37,0,0,0,-0.0675868,0.0384732,-0.0273438,-0.0195312,0,0,-0.226733,0.132527,9405,0,0,0,0,0,0,0,0,0,2.51,-0.0769463
9656,0.314453,0,6.75488,5.44595e-05,0.000340679,-0.0044887,-0.0570919,-0.00695524,-2.23778,-4.85618,0.352358,-0.330403,-0.0712747,0.0406305,-0.232624,0.136143,-2.23778,0,0,249,76,249,76,347,83,248,166,0.376446,0.0527742,0.27408,-1.5,1.07784e-37,0,0,1,-0.0712747,0.0406305,-0.0273438,-0.0195312,0,0,-0.232624,0.136143,9405,0,0,0,0,0,0,0,0,0,2.51,-0.0812609
9672,0.325195,0,5.56445,-6.68873e-05,0.00103574,-0.00288337,-0.0570854,-0.00694343,-2.23782,-4.81191,0.352064,-0.342311,-0.0750563,0.0428454,-0.238466,0.139731,-2.23782,0,0,249,76,249,76,347,83,246,166,0.377676,0.0512147,0.286506,-1.5,1.07784e-37,0,0,2,-0.0750563,0.0428454,-0.0273438,-0.0195312,0,0,-0.238466,0.139731,9595,0,0,0,0,0,0,0,0,0,2.51,-0.0856907
9687,0.358398,0,5.76855,-0.000730645,0.000512128,-0.00286583,-0.0570889,-0.00694121,-2.23785,-4.81191,0.352064,-0.342311,-0.0786859,0.0449736,-0.243899,0.14307,-2.23785,0,0,249,76,249,76,347,83,246,166,0.378843,0.0497369,0.299466,-1.5,1.07784e-37,0,0,3,-0.0786859,0.0449736,-0.0273438,-0.0195312,0,0,-0.243899,0.14307,9595,0,0,0,0,0,0,0,0,0,2.51,-0.0899473
9701,0.391602,0,-2.48438,-0.000710831,0.00141477,-0.00384021,-0.0570825,-0.00692248,-2.2379,-4.81191,0.352064,-0.342311,-0.0821451,0.0470041,-0.248931,0.146165,-2.2379,0,0,249,76,249,76,347,83,246,166,0.379939,0.0483489,0.292023,-1.5,1.07784e-37,0,0,0,-0.0821451,0.0470041,-0.0273438,-0.0195312,0,0,-0.248931,0.146165,9595,0,0,0,0,0,0,0,0,0,2.51,-0.0940081
9715,0.391602,0,-2.48438,-0.000710831,0.00141477,-0.00384021,-0.0570825,-0.00692248,-2.2379,-4.84162,0.348352,-0.333937,-0.0856733,0.049077,-0.253926,0.149239,-2.2379,0,0,249,76,249,76,347,83,248,166,0.381056,0.0469309,0.290491,-1.5,1.07784e-37,0,0,1,-0.0856733,0.049077,-0.0273438,-0.0195312,0,0,-0.253926,0.149239,9405,0,0,0,0,0,0,0,0,0,2.51,-0.098154
9731,0.391602,0,-2.48438,-0.000710831,0.00141477,-0.00384021,-0.0570825,-0.00692248,-2.2379,-4.84162,0.348352,-0.333937,-0.089794,0.0515004,-0.259594,0.152727,-2.2379,0,0,249,76,249,76,347,83,248,166,0.382345,0.045294,0.301857,-1.5,1.07784e-37,0,0,2,-0.089794,0.0515004,-0.0273438,-0.0195312,0,0,-0.259594,0.152727,9405,0,0,0,0,0,0,0,0,0,2.51,-0.103001
9746,0.391602,0,-2.48438,-0.000710831,0.00141477,-0.00384021,-0.0570825,-0.00692248,-2.2379,-7.29151,-5.62944,-0.319998,-0.0937389,0.0538227,-0.264866,0.155971,-2.2379,0,0,617,153,617,153,667,142,613,216,0.383566,0.0437445,0.314756,-1.5,1.07784e-37,0,0,3,-0.0937389,0.0538227,-0.0273438,-0.0195312,0,0,-0.264866,0.155971,3996,0,0,0,0,0,0,0,0,0,2.51,-0.107645
9762,0.447266,0,-6.73438,0.000158671,0.000273121,-0.00340402,-0.0570808,-0.00689606,-2.23811,-7.29151,-5.62944,-0.319998,-0.0980337,0.0563533,-0.270446,0.159407,-2.23807,0,0,617,153,617,153,667,142,613,216,0.384844,0.04214,0.305079,-1.5,1.07784e-37,0,0,0,-0.0980337,0.0563533,-0.0273438,-0.0195312,0,0,-0.270446,0.159407,3996,0,0,0,0,0,0,0,0,0,2.51,-0.112707
9777,0.414062,0,0.205078,-0.00156145,-9.2627e-05,-0.00259796,-0.0570831,-0.00688622,-2.23815,-4.79902,0.35448,-0.345736,-0.102141,0.0587754,-0.275634,0.162605,-2.23811,0,0,248,78,248,78,347,81,246,166,0.38608,0.0405757,0.302734,-1.5,1.07784e-37,0,0,1,-0.102141,0.0587754,-0.0273438,-0.0195312,0,0,-0.275634,0.162605,9393,0,0,0,0,0,0,0,0,0,2.51,-0.117551
9793,0.380859,0,-7.12891,-0.000978611,0.000416891,-0.00337182,-0.0570925,-0.00688081,-2.2382,-4.79902,0.35448,-0.345736,-0.106607,0.0614116,-0.281124,0.165993,-2.2382,0,0,248,78,248,78,347,81,246,166,0.387399,0.0389127,0.315616,-1.5,1.07784e-37,0,0,2,-0.106607,0.0614116,-0.0273438,-0.0195312,0,0,-0.281124,0.165993,9393,0,0,0,0,0,0,0,0,0,2.51,-0.122823
9809,0.347656,0,5.17773,-0.000266926,0.00046192,-0.00324658,-0.0570935,-0.00687728,-2.23825,-4.88421,0.348462,-0.321941,-0.11116,0.0641018,-0.28657,0.169356,-2.23825,0,0,251,76,251,76,347,83,248,166,0.388743,0.0372126,0.327812,-1.5,1.07784e-37,0,0,3,-0.11116,0.0641018,-0.0273438,-0.0195312,0,0,-0.28657,0.169356,9405,0,0,0,0,0,0,0,0,0,2.51,-0.128204
9824,0.335938,0,3.80859,-0.0010978,0.000388429,-0.00226749,-0.0571095,-0.00686868,-2.23829,-4.88421,0.348462,-0.321941,-0.115508,0.0666724,-0.291637,0.172486,-2.23829,0,0,251,76,251,76,347,83,248,166,0.390014,0.0356044,0.318691,-1.5,1.07784e-37,0,0,0,-0.115508,0.0666724,-0.0273438,-0.0195312,0,0,-0.291637,0.172486,9405,0,0,0,0,0,0,0,0,0,2.51,-0.133345
9873,0.335938,0,-3.4082,-0.000740651,-2.2743e-05,-0.0032886,-0.0571247,-0.00682676,-2.23842,-4.85597,0.352371,-0.329892,-0.130474,0.0755418,-0.308042,0.182628,-2.23842,0,0,249,76,249,76,347,83,248,166,0.394302,0.0301815,0.296716,-1.5,1.07784e-37,0,0,1,-0.130474,0.0755418,-0.0273438,-0.0195312,0,0,-0.308042,0.182628,9405,0,0,0,0,0,0,0,0,0,2.51,-0.151084
9889,0.335938,0,-3.4082,-0.000740651,-2.2743e-05,-0.0032886,-0.0571247,-0.00682676,-2.23842,-4.85597,0.352371,-0.329892,-0.135142,0.0783107,-0.312946,0.185668,-2.23842,0,0,249,76,249,76,347,83,248,166,0.39563,0.0284976,0.309623,-1.5,1.07784e-37,0,0,2,-0.135142,0.0783107,-0.0273438,-0.0195312,0,0,-0.312946,0.185668,9405,0,0,0,0,0,0,0,0,0,2.51,-0.156621
9907,0.357422,0,5.94043,-0.000424896,0.00121146,-0.00333141,-0.0571183,-0.00680014,-2.23855,-4.82608,0.356078,-0.337947,-0.141166,0.0818869,-0.319107,0.189488,-2.23855,0,0,249,76,249,76,347,83,246,166,0.397302,0.0263945,0.326539,-1.5,1.07784e-37,0,0,3,-0.141166,0.0818869,-0.0273438,-0.0195312,0,0,-0.319107,0.189488,9595,0,0,0,0,0,0,0,0,0,2.51,-0.163774
9921,0.390625,0,-2.39551,-0.00136071,0.00131804,-0.00452599,-0.0571263,-0.00678823,-2.2386,-4.82608,0.356078,-0.337947,-0.145673,0.0845639,-0.323603,0.192281,-2.2386,0,0,249,76,249,76,347,83,246,166,0.398553,0.0248155,0.322123,-1.5,1.07784e-37,0,0,0,-0.145673,0.0845639,-0.0273438,-0.0195312,0,0,-0.323603,0.192281,9595,0,0,0,0,0,0,0,0,0,2.51,-0.169128
9936,0.423828,0,-6.70508,-0.000722263,-0.000578369,-0.00338908,-0.0571222,-0.00678899,-2.23864,-4.82608,0.356078,-0.337947,-0.150573,0.0874769,-0.328386,0.195254,-2.23864,0,0,249,76,249,76,347,83,246,166,0.399907,0.0231061,0.319472,-1.5,1.07784e-37,0,0,1,-0.150573,0.0874769,-0.0273438,-0.0195312,0,0,-0.328386,0.195254,9595,0,0,0,0,0,0,0,0,0,2.51,-0.174954
9951,0.423828,0,-6.70508,-0.000722263,-0.000578369,-0.00338908,-0.0571222,-0.00678899,-2.23864,-7.20988,-5.56195,-0.324491,-0.155545,0.0904343,-0.333133,0.198205,-2.23864,0,0,617,153,617,153,665,140,614,216,0.401279,0.0213659,0.332287,-1.5,1.07784e-37,0,0,2,-0.155545,0.0904343,-0.0273438,-0.0195312,0,0,-0.333133,0.198205,3952,0,0,0,0,0,0,0,0,0,2.51,-0.180869
9967,0.460938,0,5.82715,-0.00115426,0.000108526,-0.00292671,-0.057128,-0.00679705,-2.23873,-7.20988,-5.56195,-0.324491,-0.160926,0.0936374,-0.338157,0.201328,-2.23873,0,0,617,153,617,153,665,140,614,216,0.402738,0.0195294,0.344383,-1.5,1.07784e-37,0,0,3,-0.160926,0.0936374,-0.0273438,-0.0195312,0,0,-0.338157,0.201328,3952,0,0,0,0,0,0,0,0,0,2.51,-0.187275
9982,0.460938,0,5.82715,-0.00115426,0.000108526,-0.00292671,-0.057128,-0.00679705,-2.23873,-4.86611,0.350174,-0.326323,-0.166042,0.0966847,-0.342831,0.204233,-2.23873,0,0,252,76,252,76,347,83,246,166,0.404132,0.017763,0.338331,-1.5,1.07784e-37,0,0,0,-0.166042,0.0966847,-0.0273438,-0.0195312,0,0,-0.342831,0.204233,9595,0,0,0,0,0,0,0,0,0,2.51,-0.193369
9997,0.394531,0,-0.416016,-0.000103359,-0.000217609,-0.0028242,-0.0571404,-0.0067939,-2.23885,-4.86611,0.350174,-0.326323,-0.17123,0.0997761,-0.347471,0.207118,-2.2388,0,0,252,76,252,76,347,83,246,166,0.405521,0.016015,0.335389,-1.5,1.07784e-37,0,0,1,-0.17123,0.0997761,-0.0273438,-0.0195312,0,0,-0.347471,0.207118,9595,0,0,0,0,0,0,0,0,0,2.51,-0.199552
10012,0.394531,0,-0.416016,-0.000103359,-0.000217609,-0.0028242,-0.0571404,-0.0067939,-2.23885,-7.3234,-5.6499,-0.312662,-0.176486,0.102911,-0.352077,0.209982,-2.23885,0,0,617,153,617,153,665,142,614,216,0.406927,0.0142391,0.348141,-1.5,1.07784e-37,0,0,2,-0.176486,0.102911,-0.0273438,-0.0195312,0,0,-0.352077,0.209982,3848,0,0,0,0,0,0,0,0,0,2.51,-0.205821
10027,0.333984,0,-6.2041,0.000291735,-0.000547711,-0.00307871,-0.0571372,-0.00678441,-2.23893,-7.3234,-5.6499,-0.312662,-0.181812,0.106088,-0.356649,0.212825,-2.23885,0,0,617,153,617,153,665,142,614,216,0.408352,0.012434,0.360854,-1.5,1.07784e-37,0,0,3,-0.181812,0.106088,-0.0273438,-0.0195312,0,0,-0.356649,0.212825,3848,0,0,0,0,0,0,0,0,0,2.51,-0.212176
10043,0.333984,0,-6.2041,0.000291735,-0.000547711,-0.00307871,-0.0571372,-0.00678441,-2.23893,-4.81965,0.34744,-0.333397,-0.187568,0.109524,-0.361485,0.215836,-2.23893,0,0,249,76,249,76,347,81,248,166,0.409866,0.0105306,0.353171,-1.5,1.07784e-37,0,0,0,-0.187568,0.109524,-0.0273438,-0.0195312,0,0,-0.361485,0.215836,9405,0,0,0,0,0,0,0,0,0,2.51,-0.219047
10058,0.333984,0,-4.96875,-0.000813787,0.000224553,-0.00230468,-0.0571533,-0.00677907,-2.23902,-4.81965,0.34744,-0.333397,-0.193032,0.112788,-0.365984,0.218637,-2.23902,0,0,249,76,249,76,347,81,248,166,0.411295,0.00873516,0.350666,-1.5,1.07784e-37,0,0,1,-0.193032,0.112788,-0.0273438,-0.0195312,0,0,-0.365984,0.218637,9405,0,0,0,0,0,0,0,0,0,2.51,-0.225575
10073,0.333984,0,6.6377,0.000541584,0.000810387,-0.00363838,-0.057155,-0.00676866,-2.23906,-4.82655,0.350277,-0.337299,-0.198565,0.116094,-0.370451,0.22142,-2.23906,0,0,249,76,249,76,347,83,247,166,0.412743,0.0069082,0.363357,-1.5,1.07784e-37,0,0,2,-0.198565,0.116094,-0.0273438,-0.0195312,0,0,-0.370451,0.22142,9500,0,0,0,0,0,0,0,0,0,2.51,-0.232188
10086,0.333984,0,3.83203,-0.00104252,0.000191637,-0.00279393,-0.0571578,-0.00677065,-2.2391,-4.82655,0.350277,-0.337299,-0.203412,0.118992,-0.374293,0.223816,-2.2391,0,0,249,76,249,76,347,83,247,166,0.414005,0.00531603,0.37288,-1.5,1.07784e-37,0,0,3,-0.203412,0.118992,-0.0273438,-0.0195312,0,0,-0.374293,0.223816,9500,0,0,0,0,0,0,0,0,0,2.51,-0.237984
10100,0.333984,0,6.77637,-0.000332101,1.88978e-05,-0.00360326,-0.0571557,-0.00676957,-2.23914,-4.82655,0.350277,-0.337299,-0.208688,0.122148,-0.378403,0.226378,-2.23914,0,0,249,76,249,76,347,83,247,166,0.415372,0.00359342,0.368279,-1.5,1.07784e-37,0,0,0,-0.208688,0.122148,-0.0273438,-0.0195312,0,0,-0.378403,0.226378,9500,0,0,0,0,0,0,0,0,0,2.51,-0.244295
10115,0.333984,0,6.77637,-0.000332101,1.88978e-05,-0.00360326,-0.0571557,-0.00676957,-2.23914,-4.82597,0.356121,-0.337695,-0.214405,0.125569,-0.382775,0.229105,-2.23914,0,0,249,76,249,76,347,83,246,166,0.416855,0.00171585,0.363968,-1.5,1.07784e-37,0,0,1,-0.214405,0.125569,-0.0273438,-0.0195312,0,0,-0.382775,0.229105,9595,0,0,0,0,0,0,0,0,0,2.51,-0.251138
10131,0.379883,0,1.63184,5.90874e-05,-0.00047094,-0.00347116,-0.0571687,-0.00676834,-2.23924,-4.82597,0.356121,-0.337695,-0.220189,0.129032,-0.387115,0.231812,-2.23924,0,0,249,76,249,76,347,83,246,166,0.418331,-0.000135012,0.376606,-1.5,1.07784e-37,0,0,2,-0.220189,0.129032,-0.0273438,-0.0195312,0,0,-0.387115,0.231812,9595,0,0,0,0,0,0,0,0,0,2.51,-0.258063
10146,0.413086,0,-3.92676,-0.000677857,-0.000760469,-0.0038201,-0.0571796,-0.006768,-2.23929,-4.89767,0.346564,-0.317505,-0.226037,0.132535,-0.391424,0.234501,-2.23929,0,0,252,76,252,76,347,83,248,166,0.419823,-0.00201396,0.389205,-1.5,1.07784e-37,0,0,3,-0.226037,0.132535,-0.0273438,-0.0195312,0,0,-0.391424,0.234501,9405,0,0,0,0,0,0,0,0,0,2.51,-0.26507
10161,0.446289,0,4.91602,-0.000260489,0.000580451,-0.00350066,-0.0571835,-0.00676191,-2.23934,-4.89767,0.346564,-0.317505,-0.232346,0.136316,-0.395985,0.237348,-2.23934,0,0,252,76,252,76,347,83,248,166,0.421428,-0.0040366,0.378267,-1.5,1.07784e-37,0,0,0,-0.232346,0.136316,-0.0273438,-0.0195312,0,0,-0.395985,0.237348,9405,0,0,0,0,0,0,0,0,0,2.51,-0.272632
10176,0.457031,0,-3.47559,-0.00100717,-9.3644e-05,-0.00332703,-0.0571843,-0.00676775,-2.23938,-4.87696,0.3542,-0.317657,-0.238327,0.139902,-0.400228,0.239998,-2.23938,0,0,249,76,249,76,347,83,248,164,0.422942,-0.0059434,0.374609,-1.5,1.07784e-37,0,0,1,-0.238327,0.139902,-0.0273438,-0.0195312,0,0,-0.400228,0.239998,9405,0,0,0,0,0,0,0,0,0,2.51,-0.279804
10191,0.457031,0,3.65625,-0.000197611,-0.000411551,-0.00322119,-0.0571802,-0.00677204,-2.23948,-4.87696,0.3542,-0.317657,-0.244371,0.143527,-0.404439,0.242627,-2.23938,0,0,249,76,249,76,347,83,248,164,0.424473,-0.00788166,0.387203,-1.5,1.07784e-37,0,0,2,-0.244371,0.143527,-0.0273438,-0.0195312,0,0,-0.404439,0.242627,9405,0,0,0,0,0,0,0,0,0,2.51,-0.287054
10207,0.457031,0,3.65625,-0.000197611,-0.000411551,-0.00322119,-0.0571802,-0.00677204,-2.23948,-4.87696,0.354207,-0.317658,-0.250888,0.147438,-0.408896,0.24541,-2.23948,0,0,249,76,249,76,347,83,248,164,0.4261,-0.00991898,0.401331,-1.5,1.07784e-37,0,0,3,-0.250888,0.147438,-0.0273438,-0.0195312,0,0,-0.408896,0.24541,9405,0,0,0,0,0,0,0,0,0,2.51,-0.294875
10222,0.457031,0,3.4043,-0.000952724,0.000108446,-0.00427695,-0.0571952,-0.00675169,-2.23959,-4.87696,0.354207,-0.317658,-0.25706,0.151143,-0.413042,0.247999,-2.23959,0,0,249,76,249,76,347,83,248,164,0.427633,-0.0118349,0.395051,-1.5,1.07784e-37,0,0,0,-0.25706,0.151143,-0.0273438,-0.0195312,0,0,-0.413042,0.247999,9405,0,0,0,0,0,0,0,0,0,2.51,-0.302286
10237,0.457031,0,5.5791,-0.000511568,-0.000988996,-0.00234318,-0.057192,-0.00675916,-2.23963,-4.85578,0.352463,-0.32946,-0.263296,0.154888,-0.417156,0.250573,-2.23963,0,0,249,76,249,76,347,83,248,166,0.429186,-0.0137924,0.391091,-1.5,1.07784e-37,0,0,1,-0.263296,0.154888,-0.0273438,-0.0195312,0,0,-0.417156,0.250573,9405,0,0,0,0,0,0,0,0,0,2.51,-0.309776
10252,0.457031,0,-6.03809,-0.000533044,0.000383203,-0.00192327,-0.0571994,-0.00674677,-2.23967,-4.85578,0.352463,-0.32946,-0.269593,0.158671,-0.42124,0.253128,-2.23967,0,0,249,76,249,76,347,83,248,166,0.43075,-0.0157624,0.40362,-1.5,1.07784e-37,0,0,2,-0.269593,0.158671,-0.0273438,-0.0195312,0,0,-0.42124,0.253128,9405,0,0,0,0,0,0,0,0,0,2.51,-0.317343
10266,0.457031,0,2.75391,-0.000330344,0.00100332,-0.00396514,-0.0571961,-0.00672544,-2.23973,-4.85578,0.352463,-0.32946,-0.275524,0.162236,-0.425022,0.255497,-2.23973,0,0,249,76,249,76,347,83,248,166,0.432213,-0.0175992,0.414547,-1.5,1.07784e-37,0,0,3,-0.275524,0.162236,-0.0273438,-0.0195312,0,0,-0.425022,0.255497,9405,0,0,0,0,0,0,0,0,0,2.51,-0.324472
10281,0.457031,0,2.75391,-0.000330344,0.00100332,-0.00396514,-0.0571961,-0.00672544,-2.23973,-4.87692,0.354227,-0.317563,-0.281937,0.166092,-0.429043,0.258018,-2.23973,0,0,249,76,249,76,347,83,248,164,0.433799,-0.0196063,0.408214,-1.5,1.07784e-37,0,0,0,-0.281937,0.166092,-0.0273438,-0.0195312,0,0,-0.429043,0.258018,9405,0,0,0,0,0,0,0,0,0,2.51,-0.332185
10296,0.457031,0,-5.16504,-0.000658824,0.000381296,-0.00352127,-0.0571897,-0.00671089,-2.23983,-4.87692,0.354227,-0.317563,-0.288411,0.169987,-0.433034,0.260522,-2.23983,0,0,249,76,249,76,347,83,248,164,0.43538,-0.0215816,0.404018,-1.5,1.07784e-37,0,0,1,-0.288411,0.169987,-0.0273438,-0.0195312,0,0,-0.433034,0.260522,9405,0,0,0,0,0,0,0,0,0,2.51,-0.339974
10311,0.457031,0,-4.10156,-0.00149359,-0.000540732,-0.0043987,-0.0572013,-0.0067134,-2.23987,-4.82588,0.356171,-0.337496,-0.294944,0.173918,-0.436994,0.263008,-2.23987,0,0,249,76,249,76,347,83,246,166,0.436978,-0.0235912,0.416495,-1.5,1.07784e-37,0,0,2,-0.294944,0.173918,-0.0273438,-0.0195312,0,0,-0.436994,0.263008,9595,0,0,0,0,0,0,0,0,0,2.51,-0.347836
10326,0.457031,0,6.58984,-0.00059427,-0.000385065,-0.00350549,-0.0572033,-0.00671906,-2.23991,-4.82588,0.356171,-0.337496,-0.301536,0.177887,-0.440925,0.265477,-2.23991,0,0,249,76,249,76,347,83,246,166,0.438585,-0.0256126,0.42737,-1.5,1.07784e-37,0,0,3,-0.301536,0.177887,-0.0273438,-0.0195312,0,0,-0.440925,0.265477,9595,0,0,0,0,0,0,0,0,0,2.51,-0.355773
10341,0.457031,0,-6.06445,-0.000184473,0.000196009,-0.00302667,-0.0571967,-0.00671757,-2.23996,-7.25375,-5.6052,-0.328571,-0.308187,0.181892,-0.444827,0.267927,-2.23996,0,0,617,153,617,153,667,142,614,217,0.440201,-0.0276444,0.417851,-1.5,1.07784e-37,0,0,0,-0.308187,0.181892,-0.0273438,-0.0195312,0,0,-0.444827,0.267927,3975,0,0,0,0,0,0,0,0,0,2.51,-0.363785
10356,0.457031,0,-3.45312,-0.000294144,-0.00109092,-0.00371586,-0.057191,-0.00672116,-2.24006,-7.25375,-5.6052,-0.328571,-0.314897,0.185935,-0.448699,0.270358,-2.23996,0,0,617,153,617,153,667,142,614,217,0.441831,-0.0297066,0.413482,-1.5,1.07784e-37,0,0,1,-0.314897,0.185935,-0.0273438,-0.0195312,0,0,-0.448699,0.270358,3975,0,0,0,0,0,0,0,0,0,2.51,-0.37187
10371,0.457031,0,-3.45312,-0.000294144,-0.00109092,-0.00371586,-0.057191,-0.00672116,-2.24006,-4.81949,0.347513,-0.333059,-0.321665,0.190014,-0.452542,0.272772,-2.24006,0,0,249,76,249,76,347,81,248,166,0.443456,-0.0317325,0.425921,-1.5,1.07784e-37,0,0,2,-0.321665,0.190014,-0.0273438,-0.0195312,0,0,-0.452542,0.272772,9405,0,0,0,0,0,0,0,0,0,2.51,-0.380027
10386,0.457031,0,-6.4043,0.00109686,0.000245351,-0.00284184,-0.0571774,-0.00671691,-2.24016,-4.81949,0.347513,-0.333059,-0.32849,0.194128,-0.456355,0.275167,-2.24006,0,0,249,76,249,76,347,81,248,166,0.445104,-0.0338157,0.438323,-1.5,1.07784e-37,0,0,3,-0.32849,0.194128,-0.0273438,-0.0195312,0,0,-0.456355,0.275167,9405,0,0,0,0,0,0,0,0,0,2.51,-0.388257
10401,0.44043,0,2.76855,-0.000747529,0.000154694,-0.00401048,-0.0571772,-0.00671064,-2.24021,-4.81949,0.347513,-0.333059,-0.335372,0.198279,-0.460138,0.277544,-2.24021,0,0,249,76,249,76,347,81,248,166,0.44674,-0.0358445,0.42876,-1.5,1.07784e-37,0,0,0,-0.335372,0.198279,-0.0273438,-0.0195312,0,0,-0.460138,0.277544,9405,0,0,0,0,0,0,0,0,0,2.51,-0.396558
10416,0.374023,0,-1.87012,-0.000656,-0.000555264,-0.00264533,-0.0571682,-0.00670805,-2.24025,-4.87687,0.354214,-0.317438,-0.34231,0.202465,-0.463891,0.279905,-2.24025,0,0,249,76,249,76,347,83,248,164,0.4484,-0.0379316,0.424195,-1.5,1.07784e-37,0,0,1,-0.34231,0.202465,-0.0273438,-0.0195312,0,0,-0.463891,0.279905,9405,0,0,0,0,0,0,0,0,0,2.51,-0.40493
10430,0.338867,0,-3.0498,8.07927e-05,0.00100684,-0.00376214,-0.0571692,-0.00669658,-2.2403,-4.87687,0.354214,-0.317438,-0.348835,0.206402,-0.467367,0.282091,-2.2403,0,0,249,76,249,76,347,83,248,164,0.449954,-0.0398812,0.435027,-1.5,1.07784e-37,0,0,2,-0.348835,0.206402,-0.0273438,-0.0195312,0,0,-0.467367,0.282091,9405,0,0,0,0,0,0,0,0,0,2.51,-0.412805
10443,0.338867,0,-3.0498,8.07927e-05,0.00100684,-0.00376214,-0.0571692,-0.00669658,-2.2403,-4.87685,0.354182,-0.317367,-0.354936,0.210086,-0.470571,0.284109,-2.2403,0,0,249,76,249,76,347,83,248,164,0.45141,-0.0417208,0.441135,-1.5,1.07784e-37,0,0,3,-0.354936,0.210086,-0.0273438,-0.0195312,0,0,-0.470571,0.284109,9405,0,0,0,0,0,0,0,0,0,2.51,-0.420171
10458,0.304688,0,2.69336,-0.00117096,-0.000571635,-0.00337528,-0.0571874,-0.00670843,-2.24039,-4.87685,0.354182,-0.317367,-0.362029,0.214369,-0.474244,0.286422,-2.24039,0,0,249,76,249,76,347,83,248,164,0.453086,-0.0438127,0.432261,-1.5,1.07784e-37,0,0,0,-0.362029,0.214369,-0.0273438,-0.0195312,0,0,-0.474244,0.286422,9405,0,0,0,0,0,0,0,0,0,2.51,-0.428738
10474,0.337891,0,-6.8916,-0.00126797,-1.16962e-05,-0.00406377,-0.0571893,-0.00669284,-2.24044,-7.35918,-5.68106,-0.296473,-0.369178,0.218688,-0.477892,0.288719,-2.24044,0,0,617,153,617,153,667,142,613,216,0.454776,-0.0459348,0.427634,-1.5,1.07784e-37,0,0,1,-0.369178,0.218688,-0.0273438,-0.0195312,0,0,-0.477892,0.288719,3996,0,0,0,0,0,0,0,0,0,2.51,-0.437375
10489,0.371094,0,5.24316,-0.000190541,8.63833e-05,-0.00320422,-0.0571918,-0.00668894,-2.24048,-7.35918,-5.68106,-0.296473,-0.376864,0.223332,-0.481752,0.291153,-2.24048,0,0,617,153,617,153,667,142,613,216,0.45659,-0.0482127,0.441587,-1.5,1.07784e-37,0,0,2,-0.376864,0.223332,-0.0273438,-0.0195312,0,0,-0.481752,0.291153,3996,0,0,0,0,0,0,0,0,0,2.51,-0.446664
10504,0.404297,0,4.3125,-6.86286e-05,4.25379e-05,-0.00255017,-0.0571904,-0.00669372,-2.24052,-7.35918,-5.68106,-0.296473,-0.384125,0.227721,-0.485342,0.293417,-2.24052,0,0,617,153,617,153,667,142,613,216,0.458299,-0.0503589,0.453927,-1.5,1.07784e-37,0,0,3,-0.384125,0.227721,-0.0273438,-0.0195312,0,0,-0.485342,0.293417,3996,0,0,0,0,0,0,0,0,0,2.51,-0.455442
10519,0.404297,0,4.3125,-6.86286e-05,4.25379e-05,-0.00255017,-0.0571904,-0.00669372,-2.24052,-4.88382,0.348603,-0.321039,-0.39144,0.232144,-0.488906,0.295665,-2.24052,0,0,251,76,251,76,347,83,248,166,0.46002,-0.0525331,0.444301,-1.5,1.07784e-37,0,0,0,-0.39144,0.232144,-0.0273438,-0.0195312,0,0,-0.488906,0.295665,9405,0,0,0,0,0,0,0,0,0,2.51,-0.464288
10535,0.456055,0,0.347656,-0.00152043,0.000457594,-0.00372673,-0.0572028,-0.00666354,-2.24065,-4.88382,0.348603,-0.321039,-0.399301,0.236899,-0.492678,0.298043,-2.24052,0,0,251,76,251,76,347,83,248,166,0.461865,-0.0548632,0.441022,-1.5,1.07784e-37,0,0,1,-0.399301,0.236899,-0.0273438,-0.0195312,0,0,-0.492678,0.298043,9405,0,0,0,0,0,0,0,0,0,2.51,-0.473798
10550,0.422852,0,-2.38574,-0.00144552,0.000678099,-0.00407644,-0.0572085,-0.00665927,-2.24071,-4.85563,0.352474,-0.329092,-0.406724,0.241391,-0.496185,0.300259,-2.24065,0,0,249,76,249,76,347,83,248,166,0.463587,-0.0569959,0.453351,-1.5,1.07784e-37,0,0,2,-0.406724,0.241391,-0.0273438,-0.0195312,0,0,-0.496185,0.300259,9405,0,0,0,0,0,0,0,0,0,2.51,-0.482781
10565,0.389648,0,-2.39746,-0.00110066,-0.000295819,-0.00250547,-0.057217,-0.00665178,-2.24074,-4.84216,0.354925,-0.332778,-0.4142,0.245916,-0.499666,0.302461,-2.24071,0,0,248,78,248,78,347,81,248,166,0.465328,-0.0591757,0.465643,-1.5,1.07784e-37,0,0,3,-0.4142,0.245916,-0.0273438,-0.0195312,0,0,-0.499666,0.302461,9207,0,0,0,0,0,0,0,0,0,2.51,-0.491831
10581,0.356445,0,0.268555,-0.000184297,0.000156093,-0.00379656,-0.057217,-0.00663977,-2.24079,-4.84216,0.354925,-0.332778,-0.421729,0.250474,-0.50312,0.30465,-2.24079,0,0,248,78,248,78,347,81,248,166,0.467073,-0.0613503,0.455971,-1.5,1.07784e-37,0,0,0,-0.421729,0.250474,-0.0273438,-0.0195312,0,0,-0.50312,0.30465,9207,0,0,0,0,0,0,0,0,0,2.51,-0.500948
10598,0.34082,0,5.37988,-0.00143137,-0.000324199,-0.00386931,-0.0572252,-0.00663533,-2.24085,-4.84216,0.354925,-0.332778,-0.430835,0.255989,-0.507233,0.307258,-2.24085,0,0,248,78,248,78,347,81,248,166,0.469185,-0.0639992,0.448193,-1.5,1.07784e-37,0,0,0,-0.430835,0.255989,-0.0273438,-0.0195312,0,0,-0.507233,0.307258,9207,0,0,0,0,0,0,0,0,0,2.51,-0.511979
10612,0.34082,0,5.37988,-0.00143137,-0.000324199,-0.00386931,-0.0572252,-0.00663533,-2.24085,-4.82024,0.35567,-0.344291,-0.437965,0.260309,-0.510404,0.309271,-2.24085,0,0,248,78,248,78,347,83,246,166,0.470838,-0.0660863,0.435772,-1.5,1.07784e-37,0,0,0,-0.437965,0.260309,-0.0273438,-0.0195312,0,0,-0.510404,0.309271,9393,0,0,0,0,0,0,0,0,0,2.51,-0.520618
10627,0.34082,0,-7.31836,-0.00108879,0.000307929,-0.00420048,-0.0572396,-0.0066356,-2.24097,-4.82024,0.35567,-0.344291,-0.445653,0.264969,-0.513778,0.311412,-2.24097,0,0,248,78,248,78,347,83,246,166,0.472605,-0.0682741,0.422838,-1.5,1.07784e-37,0,0,0,-0.445653,0.264969,-0.0273438,-0.0195312,0,0,-0.513778,0.311412,9393,0,0,0,0,0,0,0,0,0,2.51,-0.529937
10643,0.34082,0,4.9834,-0.000385306,0.000209265,-0.00384506,-0.0572405,-0.00662635,-2.24102,-4.88288,0.342658,-0.320608,-0.45391,0.269974,-0.517349,0.313681,-2.24102,0,0,252,76,252,76,347,83,248,166,0.474506,-0.0706547,0.409463,-1.5,1.07784e-37,0,0,0,-0.45391,0.269974,-0.0273438,-0.0195312,0,0,-0.517349,0.313681,9405,0,0,0,0,0,0,0,0,0,2.51,-0.539949
10658,0.34082,0,4.9834,-0.000385306,0.000209265,-0.00384506,-0.0572405,-0.00662635,-2.24102,-4.88288,0.342658,-0.320608,-0.461702,0.274699,-0.52067,0.315792,-2.24102,0,0,252,76,252,76,347,83,248,166,0.476301,-0.0729198,0.397316,-1.5,1.07784e-37,0,0,0,-0.461702,0.274699,-0.0273438,-0.0195312,0,0,-0.52067,0.315792,9405,0,0,0,0,0,0,0,0,0,2.51,-0.549399
10673,0.34082,0,-4.01953,-0.00124307,0.000654273,-0.00269502,-0.0572475,-0.00660906,-2.2411,-4.8555,0.352539,-0.328791,-0.469544,0.279457,-0.523966,0.317889,-2.2411,0,0,249,76,249,76,347,83,248,166,0.478097,-0.0751586,0.385523,-1.5,1.07784e-37,0,0,0,-0.469544,0.279457,-0.0273438,-0.0195312,0,0,-0.523966,0.317889,9405,0,0,0,0,0,0,0,0,0,2.51,-0.558913
10688,0.34082,0,-4.01953,-0.00124307,0.000654273,-0.00269502,-0.0572475,-0.00660906,-2.2411,-4.8555,0.352539,-0.328791,-0.477434,0.284245,-0.527237,0.319972,-2.2411,0,0,249,76,249,76,347,83,248,166,0.479908,-0.0774426,0.374086,-1.5,1.07784e-37,0,0,0,-0.477434,0.284245,-0.0273438,-0.0195312,0,0,-0.527237,0.319972,9405,0,0,0,0,0,0,0,0,0,2.51,-0.568489
10704,0.34082,0,-3.98242,-0.000323282,0.00117991,-0.003718,-0.0572706,-0.00659441,-2.24125,-4.81122,0.352247,-0.340663,-0.485374,0.289064,-0.530484,0.32204,-2.2411,0,0,249,76,249,76,347,83,246,166,0.481726,-0.0797361,0.362983,-1.5,1.07784e-37,0,0,0,-0.485374,0.289064,-0.0273438,-0.0195312,0,0,-0.530484,0.32204,9595,0,0,0,0,0,0,0,0,0,2.51,-0.578128
10719,0.34082,0,-0.696289,-5.46662e-05,0.000287765,-0.00310725,-0.0572662,-0.00658837,-2.24129,-4.81122,0.352247,-0.340663,-0.493362,0.293915,-0.533706,0.324097,-2.24129,0,0,249,76,249,76,347,83,246,166,0.483535,-0.0819482,0.352209,-1.5,1.07784e-37,0,0,0,-0.493362,0.293915,-0.0273438,-0.0195312,0,0,-0.533706,0.324097,9595,0,0,0,0,0,0,0,0,0,2.51,-0.587829
10734,0.34082,0,5.21191,-0.000471316,-0.000170444,-0.00475126,-0.0572676,-0.00658969,-2.24135,-4.81122,0.352247,-0.340663,-0.501938,0.299123,-0.537117,0.326275,-2.24135,0,0,249,76,249,76,347,83,246,166,0.485485,-0.0843835,0.341062,-1.5,1.07784e-37,0,0,0,-0.501938,0.299123,-0.0273438,-0.0195312,0,0,-0.537117,0.326275,9595,0,0,0,0,0,0,0,0,0,2.51,-0.598246
10749,0.34082,0,5.21191,-0.000471316,-0.000170444,-0.00475126,-0.0572676,-0.00658969,-2.24135,-4.82617,0.350444,-0.336422,-0.510024,0.304036,-0.540288,0.328301,-2.24135,0,0,249,76,249,76,347,83,247,166,0.487327,-0.0867051,0.330944,-1.5,1.07784e-37,0,0,0,-0.510024,0.304036,-0.0273438,-0.0195312,0,0,-0.540288,0.328301,9500,0,0,0,0,0,0,0,0,0,2.51,-0.608073
10765,0.34082,0,-4.41992,-0.000549275,0.00122989,-0.00324685,-0.057279,-0.0065932,-2.24144,-4.82617,0.350444,-0.336422,-0.518703,0.309311,-0.543647,0.330447,-2.24144,0,0,249,76,249,76,347,83,247,166,0.489291,-0.0891496,0.320476,-1.5,1.07784e-37,0,0,0,-0.518703,0.309311,-0.0273438,-0.0195312,0,0,-0.543647,0.330447,9500,0,0,0,0,0,0,0,0,0,2.51,-0.618622
10777,0.34082,0,-4.41992,-0.000549275,0.00122989,-0.00324685,-0.057279,-0.0065932,-2.24144,-4.84093,0.348581,-0.33234,-0.525245,0.313288,-0.546147,0.332045,-2.24144,0,0,249,76,249,76,347,83,248,166,0.490776,-0.0910204,0.312856,-1.5,1.07784e-37,0,0,0,-0.525245,0.313288,-0.0273438,-0.0195312,0,0,-0.546147,0.332045,9405,0,0,0,0,0,0,0,0,0,2.51,-0.626576
10790,0.34082,0,-3.24219,-0.00018423,0.000714126,-0.00335112,-0.0572776,-0.00658421,-2.24154,-4.84093,0.348581,-0.33234,-0.532367,0.317619,-0.548839,0.333765,-2.24154,0,0,249,76,249,76,347,83,248,166,0.49238,-0.0930016,0.304801,-1.5,1.07784e-37,0,0,0,-0.532367,0.317619,-0.0273438,-0.0195312,0,0,-0.548839,0.333765,9405,0,0,0,0,0,0,0,0,0,2.51,-0.635237
10806,0.34082,0,-0.560547,-0.000351374,0.000127426,-0.00383172,-0.0572795,-0.00658415,-2.2416,-4.85543,0.352591,-0.328648,-0.541183,0.322981,-0.552128,0.33587,-2.2416,0,0,249,76,249,76,347,83,248,166,0.494369,-0.0954883,0.295155,-1.5,1.07784e-37,0,0,0,-0.541183,0.322981,-0.0273438,-0.0195312,0,0,-0.552128,0.33587,9405,0,0,0,0,0,0,0,0,0,2.51,-0.645962
10821,0.34082,0,-0.869141,0.00142191,0.000723423,-0.00410776,-0.0572643,-0.00657942,-2.24165,-4.85543,0.352591,-0.328648,-0.549494,0.328038,-0.555187,0.337828,-2.24165,0,0,249,76,249,76,347,83,248,166,0.496241,-0.0978277,0.286399,-1.5,1.07784e-37,0,0,0,-0.549494,0.328038,-0.0273438,-0.0195312,0,0,-0.555187,0.337828,9405,0,0,0,0,0,0,0,0,0,2.51,-0.656075
10836,0.34082,0,1.71289,-0.00122534,0.000335219,-0.00344668,-0.0572767,-0.00657062,-2.24168,-4.8554,0.35257,-0.328577,-0.557851,0.333124,-0.558221,0.339772,-2.24168,0,0,249,76,249,76,347,83,248,166,0.498122,-0.100182,0.277898,-1.5,1.07784e-37,0,0,0,-0.557851,0.333124,-0.0273438,-0.0195312,0,0,-0.558221,0.339772,9405,0,0,0,0,0,0,0,0,0,2.51,-0.666248
10851,0.34082,0,1.71289,-0.00122534,0.000335219,-0.00344668,-0.0572767,-0.00657062,-2.24168,-4.8554,0.35257,-0.328577,-0.566253,0.338239,-0.561233,0.341703,-2.24168,0,0,249,76,249,76,347,83,248,166,0.500012,-0.102564,0.269649,-1.5,1.07784e-37,0,0,0,-0.566253,0.338239,-0.0273438,-0.0195312,0,0,-0.561233,0.341703,9405,0,0,0,0,0,0,0,0,0,2.51,-0.676478
10867,0.370117,0,5.0791,-0.00114184,0.000771329,-0.0027294,-0.0572842,-0.00654929,-2.2418,-4.8554,0.35257,-0.328577,-0.575266,0.343727,-0.564421,0.343746,-2.24168,0,0,249,76,249,76,347,83,248,166,0.502035,-0.105113,0.26112,-1.5,1.07784e-37,0,0,0,-0.575266,0.343727,-0.0273438,-0.0195312,0,0,-0.564421,0.343746,9405,0,0,0,0,0,0,0,0,0,2.51,-0.687454
10882,0.40332,0,-0.330078,-0.00146078,0.000216756,-0.00250357,-0.0572989,-0.00654337,-2.24184,-7.1728,-5.55049,-0.328647,-0.58376,0.348901,-0.567385,0.345649,-2.2418,0,0,617,153,617,153,669,140,614,216,0.503932,-0.107453,0.253374,-1.5,1.07784e-37,0,0,0,-0.58376,0.348901,-0.0273438,-0.0195312,0,0,-0.567385,0.345649,4180,0,0,0,0,0,0,0,0,0,2.51,-0.697802
10898,0.436523,0,-4.12793,-0.000745037,5.93664e-05,-0.0027699,-0.0573026,-0.0065434,-2.24188,-7.1728,-5.55049,-0.328647,-0.59287,0.354452,-0.570523,0.347667,-2.24188,0,0,617,153,617,153,669,140,614,216,0.505966,-0.109982,0.24536,-1.5,1.07784e-37,0,0,0,-0.59287,0.354452,-0.0273438,-0.0195312,0,0,-0.570523,0.347667,4180,0,0,0,0,0,0,0,0,0,2.51,-0.708904
10913,0.436523,0,-4.12793,-0.000745037,5.93664e-05,-0.0027699,-0.0573026,-0.0065434,-2.24188,-7.39272,-5.70266,-0.28808,-0.601455,0.359685,-0.573443,0.349546,-2.24188,0,0,617,153,617,153,665,142,614,216,0.507885,-0.112399,0.238081,-1.5,1.07784e-37,0,0,0,-0.601455,0.359685,-0.0273438,-0.0195312,0,0,-0.573443,0.349546,3848,0,0,0,0,0,0,0,0,0,2.51,-0.71937
10928,0.419922,0,-0.248047,-0.000460187,0.000617461,-0.00339733,-0.0573116,-0.00652987,-2.24197,-7.39272,-5.70266,-0.28808,-0.610084,0.364946,-0.57634,0.351411,-2.24197,0,0,617,153,617,153,665,142,614,216,0.509805,-0.114776,0.231018,-1.5,1.07784e-37,0,0,0,-0.610084,0.364946,-0.0273438,-0.0195312,0,0,-0.57634,0.351411,3848,0,0,0,0,0,0,0,0,0,2.51,-0.729891
10943,0.419922,0,-0.248047,-0.000460187,0.000617461,-0.00339733,-0.0573116,-0.00652987,-2.24197,-7.33728,-5.65182,-0.307324,-0.618756,0.370234,-0.579215,0.353264,-2.24197,0,0,617,153,617,153,663,142,614,216,0.511738,-0.117209,0.224165,-1.5,1.07784e-37,0,0,0,-0.618756,0.370234,-0.0273438,-0.0195312,0,0,-0.579215,0.353264,3848,0,0,0,0,0,0,0,0,0,2.51,-0.740468
10956,0.419922,0,-0.248047,-0.000460187,0.000617461,-0.00339733,-0.0573116,-0.00652987,-2.24197,-7.33728,-5.65182,-0.307324,-0.626306,0.374839,-0.581689,0.354859,-2.24197,0,0,617,153,617,153,663,142,614,216,0.513418,-0.119325,0.218395,-1.5,1.07784e-37,0,0,0,-0.626306,0.374839,-0.0273438,-0.0195312,0,0,-0.581689,0.354859,3848,0,0,0,0,0,0,0,0,0,2.51,-0.749679
10971,0.333984,0,5.38965,-0.000643147,-0.000453246,-0.00273196,-0.0573053,-0.00652145,-2.24211,-4.86174,0.350345,-0.320373,-0.635059,0.38018,-0.584524,0.356688,-2.24211,0,0,249,76,249,76,347,83,248,164,0.515355,-0.121703,0.211913,-1.5,1.07784e-37,0,0,0,-0.635059,0.38018,-0.0273438,-0.0195312,0,0,-0.584524,0.356688,9405,0,0,0,0,0,0,0,0,0,2.51,-0.76036
10987,0.367188,0,-3.89648,-0.00213127,0.000177143,-0.00327043,-0.0573228,-0.006513,-2.24216,-4.86174,0.350345,-0.320373,-0.643854,0.385548,-0.587336,0.358504,-2.24216,0,0,249,76,249,76,347,83,248,164,0.517305,-0.124136,0.205623,-1.5,1.07784e-37,0,0,0,-0.643854,0.385548,-0.0273438,-0.0195312,0,0,-0.587336,0.358504,9405,0,0,0,0,0,0,0,0,0,2.51,-0.771096
11002,0.400391,0,6.89844,-0.00189473,-0.000543823,-0.0031859,-0.057333,-0.00651762,-2.24221,-4.86174,0.350345,-0.320373,-0.653282,0.391304,-0.590315,0.36043,-2.24221,0,0,249,76,249,76,347,83,248,164,0.519392,-0.12674,0.199115,-1.5,1.07784e-37,0,0,0,-0.653282,0.391304,-0.0273438,-0.0195312,0,0,-0.590315,0.36043,9405,0,0,0,0,0,0,0,0,0,2.51,-0.782608
11017,0.433594,0,0.412109,-0.00143815,1.25302e-06,-0.00354049,-0.0573437,-0.006518,-2.24226,-4.86171,0.35036,-0.320297,-0.662163,0.396727,-0.593086,0.362221,-2.24226,0,0,249,76,249,76,347,83,248,164,0.521356,-0.129187,0.193208,-1.5,1.07784e-37,0,0,0,-0.662163,0.396727,-0.0273438,-0.0195312,0,0,-0.593086,0.362221,9405,0,0,0,0,0,0,0,0,0,2.51,-0.793455
11033,0.464844,0,-1.79102,0.000245308,-0.000627317,-0.00258581,-0.057339,-0.00652407,-2.2423,-4.81909,0.347705,-0.332175,-0.671683,0.402542,-0.59602,0.364118,-2.2423,0,0,249,76,249,76,347,81,248,166,0.523458,-0.131815,0.187097,-1.5,1.07784e-37,0,0,0,-0.671683,0.402542,-0.0273438,-0.0195312,0,0,-0.59602,0.364118,9405,0,0,0,0,0,0,0,0,0,2.51,-0.805085
11048,0.464844,0,-1.52539,-0.00110481,-7.6534e-05,-0.00362195,-0.057356,-0.006529,-2.24238,-4.81909,0.347705,-0.332175,-0.680649,0.408021,-0.598749,0.365882,-2.2423,0,0,249,76,249,76,347,81,248,166,0.525436,-0.134305,0.181912,-1.5,1.07784e-37,0,0,0,-0.680649,0.408021,-0.0273438,-0.0195312,0,0,-0.598749,0.365882,9405,0,0,0,0,0,0,0,0,0,2.51,-0.816041
11063,0.464844,0,1.34766,-0.00230475,-0.000227117,-0.00449489,-0.0573701,-0.0065356,-2.24243,-4.81909,0.347705,-0.332175,-0.689655,0.413525,-0.601459,0.367634,-2.24238,0,0,249,76,249,76,347,81,248,166,0.527418,-0.136761,0.176515,-1.5,1.07784e-37,0,0,0,-0.689655,0.413525,-0.0273438,-0.0195312,0,0,-0.601459,0.367634,9405,0,0,0,0,0,0,0,0,0,2.51,-0.827051
11078,0.464844,0,1.34766,-0.00230475,-0.000227117,-0.00449489,-0.0573701,-0.0065356,-2.24243,-7.16431,-5.54452,-0.333003,-0.698703,0.419056,-0.604152,0.369374,-2.24243,0,0,617,153,617,153,667,140,616,217,0.529408,-0.139238,0.171279,-1.5,1.07784e-37,0,0,0,-0.698703,0.419056,-0.0273438,-0.0195312,0,0,-0.604152,0.369374,3927,0,0,0,0,0,0,0,0,0,2.51,-0.838113
11093,0.464844,0,2.69727,-0.00115048,0.000163046,-0.00388582,-0.0573812,-0.00653767,-2.24252,-7.16431,-5.54452,-0.333003,-0.70779,0.424613,-0.606825,0.371102,-2.24252,0,0,617,153,617,153,667,140,616,217,0.531402,-0.141701,0.166198,-1.5,1.07784e-37,0,0,0,-0.70779,0.424613,-0.0273438,-0.0195312,0,0,-0.606825,0.371102,3927,0,0,0,0,0,0,0,0,0,2.51,-0.849226
11108,0.439453,0,-1.50879,-0.00171873,5.89101e-05,-0.00316206,-0.0573863,-0.00652773,-2.24257,-7.30409,-5.64366,-0.31272,-0.716918,0.430196,-0.609478,0.372818,-2.24257,0,0,617,153,617,153,667,142,614,216,0.533405,-0.144195,0.161265,-1.5,1.07784e-37,0,0,0,-0.716918,0.430196,-0.0273438,-0.0195312,0,0,-0.609478,0.372818,3922,0,0,0,0,0,0,0,0,0,2.51,-0.860392
11124,0.40625,0,-1.76367,-0.00156522,0.00109353,-0.00326274,-0.0573929,-0.00651793,-2.24261,-7.30409,-5.64366,-0.31272,-0.726086,0.435805,-0.612111,0.374524,-2.24261,0,0,617,153,617,153,667,142,614,216,0.535415,-0.146702,0.156478,-1.5,1.07784e-37,0,0,0,-0.726086,0.435805,-0.0273438,-0.0195312,0,0,-0.612111,0.374524,3922,0,0,0,0,0,0,0,0,0,2.51,-0.87161
11137,0.373047,0,6.54492,-0.000716115,0.00024315,-0.00387018,-0.0573994,-0.00650487,-2.24267,-4.82549,0.356421,-0.336633,-0.734677,0.441062,-0.614551,0.376106,-2.24267,0,0,249,76,249,76,347,83,246,166,0.537296,-0.14904,0.152142,-1.5,1.07784e-37,0,0,0,-0.734677,0.441062,-0.0273438,-0.0195312,0,0,-0.614551,0.376106,9595,0,0,0,0,0,0,0,0,0,2.51,-0.882125
11152,0.339844,0,-6.36328,-0.000983257,0.00121571,-0.00305958,-0.0574033,-0.00650197,-2.24271,-4.82549,0.356421,-0.336633,-0.74392,0.44672,-0.617145,0.377791,-2.24271,0,0,249,76,249,76,347,83,246,166,0.539318,-0.151559,0.147626,-1.5,1.07784e-37,0,0,0,-0.74392,0.44672,-0.0273438,-0.0195312,0,0,-0.617145,0.377791,9595,0,0,0,0,0,0,0,0,0,2.51,-0.89344
11168,0.306641,0,-6.43457,-0.00182279,-0.000451577,-0.00295086,-0.0574204,-0.00649228,-2.24275,-4.82549,0.356421,-0.336633,-0.753823,0.452783,-0.619891,0.379577,-2.24275,0,0,249,76,249,76,347,83,246,166,0.541482,-0.154259,0.142956,-1.5,1.07784e-37,0,0,0,-0.753823,0.452783,-0.0273438,-0.0195312,0,0,-0.619891,0.379577,9595,0,0,0,0,0,0,0,0,0,2.51,-0.905566
11183,0.306641,0,-6.43457,-0.00182279,-0.000451577,-0.00295086,-0.0574204,-0.00649228,-2.24275,-7.4149,-5.72431,-0.292387,-0.763145,0.458492,-0.622446,0.38124,-2.24275,0,0,617,155,617,155,667,142,613,216,0.543518,-0.156819,0.138716,-1.5,1.07784e-37,0,0,0,-0.763145,0.458492,-0.0273438,-0.0195312,0,0,-0.622446,0.38124,3996,0,0,0,0,0,0,0,0,0,2.51,-0.916985
11198,0.472656,0,3.23438,-0.00158463,-0.000420709,-0.00386491,-0.0574318,-0.0064903,-2.24292,-7.4149,-5.72431,-0.292387,-0.772506,0.464227,-0.624983,0.38289,-2.24275,0,0,617,155,617,155,667,142,613,216,0.54556,-0.159386,0.134598,-1.5,1.07784e-37,0,0,0,-0.772506,0.464227,-0.0273438,-0.0195312,0,0,-0.624983,0.38289,3996,0,0,0,0,0,0,0,0,0,2.51,-0.928454
11213,0.472656,0,3.23438,-0.00158463,-0.000420709,-0.00386491,-0.0574318,-0.0064903,-2.24292,-4.88343,0.348909,-0.320183,-0.781905,0.469986,-0.6275,0.38453,-2.24292,0,0,251,76,251,76,347,83,248,166,0.547605,-0.161871,0.130603,-1.5,1.07784e-37,0,0,0,-0.781905,0.469986,-0.0273438,-0.0195312,0,0,-0.6275,0.38453,9405,0,0,0,0,0,0,0,0,0,2.51,-0.939972
11229,0.472656,0,4.97461,-0.00228921,0.000459014,-0.0040508,-0.0574685,-0.00646953,-2.24302,-4.88343,0.348909,-0.320183,-0.791342,0.47577,-0.629999,0.386158,-2.24292,0,0,251,76,251,76,347,83,248,166,0.549659,-0.164452,0.126727,-1.5,1.07784e-37,0,0,0,-0.791342,0.47577,-0.0273438,-0.0195312,0,0,-0.629999,0.386158,9405,0,0,0,0,0,0,0,0,0,2.51,-0.95154
11243,0.472656,0,4.97461,-0.00228921,0.000459014,-0.0040508,-0.0574685,-0.00646953,-2.24302,-4.81098,0.352491,-0.340172,-0.800816,0.481578,-0.632481,0.387781,-2.24302,0,0,249,76,249,76,347,83,246,166,0.551719,-0.166987,0.122965,-1.5,1.07784e-37,0,0,0,-0.800816,0.481578,-0.0273438,-0.0195312,0,0,-0.632481,0.387781,9595,0,0,0,0,0,0,0,0,0,2.51,-0.963156
11258,0.472656,0,2.92969,-0.00112264,-0.00107064,-0.00366033,-0.0574796,-0.00648797,-2.24311,-4.81098,0.352491,-0.340172,-0.810327,0.48741,-0.634945,0.389391,-2.24311,0,0,249,76,249,76,347,83,246,166,0.553786,-0.169533,0.119315,-1.5,1.07784e-37,0,0,0,-0.810327,0.48741,-0.0273438,-0.0195312,0,0,-0.634945,0.389391,9595,0,0,0,0,0,0,0,0,0,2.51,-0.974821
11273,0.472656,0,5.43457,-0.000964859,-0.000896531,-0.00422595,-0.0574798,-0.00648564,-2.24316,-4.85518,0.352844,-0.328132,-0.819875,0.493267,-0.637392,0.390989,-2.24316,0,0,249,76,249,76,347,83,248,166,0.555858,-0.172109,0.115774,-1.5,1.07784e-37,0,0,0,-0.819875,0.493267,-0.0273438,-0.0195312,0,0,-0.637392,0.390989,9405,0,0,0,0,0,0,0,0,0,2.51,-0.986533
11291,0.472656,0,-4.61816,-0.000445226,0.000443199,-0.00361601,-0.0574754,-0.00648014,-2.24321,-4.85518,0.352844,-0.328132,-0.831383,0.500327,-0.640305,0.392893,-2.24321,0,0,249,76,249,76,347,83,248,166,0.558353,-0.175214,0.111657,-1.5,1.07784e-37,0,0,0,-0.831383,0.500327,-0.0273438,-0.0195312,0,0,-0.640305,0.392893,9405,0,0,0,0,0,0,0,0,0,2.51,-1.00065
11305,0.472656,0,4.93652,-0.00165425,-0.000239947,-0.00382926,-0.0574856,-0.00647503,-2.24326,-4.8407,0.348859,-0.3319,-0.840367,0.505841,-0.642551,0.394362,-2.24326,0,0,249,76,249,76,347,83,248,166,0.560299,-0.177631,0.108563,-1.5,1.07784e-37,0,0,0,-0.840367,0.505841,-0.0273438,-0.0195312,0,0,-0.642551,0.394362,9405,0,0,0,0,0,0,0,0,0,2.51,-1.01168
11318,0.472656,0,4.93652,-0.00165425,-0.000239947,-0.00382926,-0.0574856,-0.00647503,-2.24326,-4.8407,0.348859,-0.3319,-0.848737,0.510978,-0.644622,0.395718,-2.24326,0,0,249,76,249,76,347,83,248,166,0.56211,-0.179906,0.105768,-1.5,1.07784e-37,0,0,0,-0.848737,0.510978,-0.0273438,-0.0195312,0,0,-0.644622,0.395718,9405,0,0,0,0,0,0,0,0,0,2.51,-1.02196
11334,0.472656,0,-4.39355,2.60755e-05,-0.000393023,-0.00318416,-0.0574789,-0.00646303,-2.24335,-4.82594,0.350737,-0.335969,-0.859076,0.517327,-0.647153,0.397375,-2.24335,0,0,249,76,249,76,347,83,247,166,0.564347,-0.182664,0.102422,-1.5,1.07784e-37,0,0,0,-0.859076,0.517327,-0.0273438,-0.0195312,0,0,-0.647153,0.397375,9500,0,0,0,0,0,0,0,0,0,2.51,-1.03465
11349,0.472656,0,7.21191,-0.00120262,-0.000680449,-0.00254964,-0.0574836,-0.00645537,-2.24343,-4.82594,0.350737,-0.335969,-0.868806,0.523302,-0.649505,0.398918,-2.24335,0,0,249,76,249,76,347,83,247,166,0.566448,-0.185302,0.0993839,-1.5,1.07784e-37,0,0,0,-0.868806,0.523302,-0.0273438,-0.0195312,0,0,-0.649505,0.398918,9500,0,0,0,0,0,0,0,0,0,2.51,-1.0466
11364,0.472656,0,-3.00977,-0.000273609,6.21717e-06,-0.00314634,-0.0574832,-0.00645003,-2.24348,-4.82594,0.350737,-0.335969,-0.878571,0.5293,-0.65184,0.40045,-2.24343,0,0,249,76,249,76,347,83,247,166,0.568556,-0.187899,0.0964341,-1.5,1.07784e-37,0,0,0,-0.878571,0.5293,-0.0273438,-0.0195312,0,0,-0.65184,0.40045,9500,0,0,0,0,0,0,0,0,0,2.51,-1.0586
11379,0.472656,0,3.97852,-0.00101005,-0.000625685,-0.00383784,-0.0574915,-0.00645893,-2.24353,-7.32243,-5.64899,-0.308231,-0.888371,0.535322,-0.654157,0.401972,-2.24348,0,0,617,153,617,153,665,142,614,216,0.57067,-0.190527,0.0935717,-1.5,1.07784e-37,0,0,0,-0.888371,0.535322,-0.0273438,-0.0195312,0,0,-0.654157,0.401972,3848,0,0,0,0,0,0,0,0,0,2.51,-1.07064
11394,0.472656,0,-3.59277,-0.000909888,-0.000562017,-0.00315696,-0.0574947,-0.00645629,-2.24358,-7.32243,-5.64899,-0.308231,-0.898206,0.541366,-0.656457,0.403484,-2.24353,0,0,617,153,617,153,665,142,614,216,0.572789,-0.193157,0.0907944,-1.5,1.07784e-37,0,0,0,-0.898206,0.541366,-0.0273438,-0.0195312,0,0,-0.656457,0.403484,3848,0,0,0,0,0,0,0,0,0,2.51,-1.08273
11410,0.472656,0,-3.59277,-0.000909888,-0.000562017,-0.00315696,-0.0574947,-0.00645629,-2.24358,-4.81092,0.352571,-0.340047,-0.908734,0.547838,-0.658892,0.405084,-2.24358,0,0,249,76,249,76,347,83,246,166,0.575056,-0.195971,0.0879225,-1.5,1.07784e-37,0,0,0,-0.908734,0.547838,-0.0273438,-0.0195312,0,0,-0.658892,0.405084,9595,0,0,0,0,0,0,0,0,0,2.51,-1.09568
11425,0.435547,0,6.81348,0.000168614,-2.82338e-05,-0.00380067,-0.057482,-0.00644683,-2.24369,-4.81092,0.352571,-0.340047,-0.917977,0.553522,-0.661006,0.406474,-2.24369,0,0,249,76,249,76,347,83,246,166,0.577047,-0.198398,0.0854859,-1.5,1.07784e-37,0,0,0,-0.917977,0.553522,-0.0273438,-0.0195312,0,0,-0.661006,0.406474,9595,0,0,0,0,0,0,0,0,0,2.51,-1.10704
11440,0.369141,0,-6.88379,-8.08563e-05,0.000507799,-0.00158991,-0.0574861,-0.00643822,-2.24372,-4.86429,0.356373,-0.331576,-0.928578,0.560042,-0.663402,0.408053,-2.24372,0,0,248,78,248,78,347,83,248,166,0.579325,-0.20124,0.0829486,-1.5,1.07784e-37,0,0,0,-0.928578,0.560042,-0.0273438,-0.0195312,0,0,-0.663402,0.408053,9207,0,0,0,0,0,0,0,0,0,2.51,-1.12008
11455,0.319336,0,-2.53223,-0.00120571,-7.50882e-05,-0.00342115,-0.0575008,-0.00643738,-2.24377,-4.86429,0.356373,-0.331576,-0.93855,0.566176,-0.66563,0.409522,-2.24377,0,0,248,78,248,78,347,83,248,166,0.581467,-0.203898,0.0804878,-1.5,1.07784e-37,0,0,0,-0.93855,0.566176,-0.0273438,-0.0195312,0,0,-0.66563,0.409522,9207,0,0,0,0,0,0,0,0,0,2.51,-1.13235
11471,0.294922,0,4.5332,-0.000245888,-0.00051445,-0.00323403,-0.0574848,-0.00643958,-2.24381,-7.27514,-5.61363,-0.334207,-0.948556,0.572333,-0.667842,0.410982,-2.24381,0,0,617,155,617,155,665,142,614,218,0.583615,-0.206565,0.0780988,-1.5,1.07784e-37,0,0,0,-0.948556,0.572333,-0.0273438,-0.0195312,0,0,-0.667842,0.410982,3952,0,0,0,0,0,0,0,0,0,2.51,-1.14467
11484,0.294922,0,4.5332,-0.000245888,-0.00051445,-0.00323403,-0.0574848,-0.00643958,-2.24381,-7.27514,-5.61363,-0.334207,-0.957254,0.577686,-0.669744,0.412236,-2.24381,0,0,617,155,617,155,665,142,614,218,0.585479,-0.208903,0.0760882,-1.5,1.07784e-37,0,0,0,-0.957254,0.577686,-0.0273438,-0.0195312,0,0,-0.669744,0.412236,3952,0,0,0,0,0,0,0,0,0,2.51,-1.15537
11499,0.361328,0,6.86719,-0.000302001,-0.00034364,-0.00295271,-0.0574991,-0.00646093,-2.2439,-4.80392,0.355556,-0.336339,-0.967994,0.584298,-0.672071,0.41377,-2.2439,0,0,249,76,249,76,347,81,246,166,0.587782,-0.211737,0.07368,-1.5,1.07784e-37,0,0,0,-0.967994,0.584298,-0.0273438,-0.0195312,0,0,-0.672071,0.41377,9595,0,0,0,0,0,0,0,0,0,2.51,-1.1686
11514,0.361328,0,6.86719,-0.000302001,-0.00034364,-0.00295271,-0.0574991,-0.00646093,-2.2439,-4.80392,0.355556,-0.336339,-0.978095,0.590518,-0.674237,0.415196,-2.2439,0,0,249,76,249,76,347,81,246,166,0.589943,-0.214447,0.0714942,-1.5,1.07784e-37,0,0,0,-0.978095,0.590518,-0.0273438,-0.0195312,0,0,-0.674237,0.415196,9595,0,0,0,0,0,0,0,0,0,2.51,-1.18104
11529,0.361328,0,6.86719,-0.000302001,-0.00034364,-0.00295271,-0.0574991,-0.00646093,-2.2439,-4.80392,0.355556,-0.336339,-0.98823,0.59676,-0.676387,0.416612,-2.2439,0,0,249,76,249,76,347,81,246,166,0.592109,-0.217164,0.0693721,-1.5,1.07784e-37,0,0,0,-0.98823,0.59676,-0.0273438,-0.0195312,0,0,-0.676387,0.416612,9595,0,0,0,0,0,0,0,0,0,2.51,-1.19352
11544,0.477539,0,-2.18652,-0.0016678,0.000140579,-0.00256211,-0.0575038,-0.00645649,-2.24409,-4.78975,0.351614,-0.340098,-0.998396,0.603022,-0.67852,0.418017,-2.2439,0,0,249,76,249,76,347,81,246,166,0.59428,-0.219887,0.0673142,-1.5,1.07784e-37,0,0,0,-0.998396,0.603022,-0.0273438,-0.0195312,0,0,-0.67852,0.418017,9595,0,0,0,0,0,0,0,0,0,2.51,-1.20604
11559,0.444336,0,-2.28613,2.90085e-05,0.00121005,-0.00381437,-0.0574961,-0.00644396,-2.24415,-4.78975,0.351614,-0.340098,-1.00859,0.609306,-0.680637,0.419412,-2.24409,0,0,249,76,249,76,347,81,246,166,0.596465,-0.222504,0.0653172,-1.5,1.07784e-37,0,0,0,-1.00859,0.609306,-0.0273438,-0.0195312,0,0,-0.680637,0.419412,9595,0,0,0,0,0,0,0,0,0,2.51,-1.21861
11574,0.444336,0,-2.28613,2.90085e-05,0.00121005,-0.00381437,-0.0574961,-0.00644396,-2.24415,-4.89706,0.347031,-0.31613,-1.01882,0.61561,-0.682736,0.4208,-2.24415,0,0,252,76,252,76,347,83,248,166,0.59865,-0.225203,0.0633785,-1.5,1.07784e-37,0,0,0,-1.01882,0.61561,-0.0273438,-0.0195312,0,0,-0.682736,0.4208,9405,0,0,0,0,0,0,0,0,0,2.51,-1.23122
11589,0.444336,0,-2.28613,2.90085e-05,0.00121005,-0.00381437,-0.0574961,-0.00644396,-2.24415,-4.89706,0.347031,-0.31613,-1.02908,0.621935,-0.684819,0.422177,-2.24415,0,0,252,76,252,76,347,83,248,166,0.600837,-0.227944,0.0614973,-1.5,1.07784e-37,0,0,0,-1.02908,0.621935,-0.0273438,-0.0195312,0,0,-0.684819,0.422177,9405,0,0,0,0,0,0,0,0,0,2.51,-1.24387
11604,0.344727,0,-0.910156,-0.00114607,0.000165106,-0.00288635,-0.0574919,-0.00643726,-2.24429,-4.82533,0.356566,-0.336279,-1.03938,0.628281,-0.686887,0.423544,-2.24429,0,0,249,76,249,76,347,83,246,166,0.603037,-0.230611,0.059672,-1.5,1.07784e-37,0,0,0,-1.03938,0.628281,-0.0273438,-0.0195312,0,0,-0.686887,0.423544,9595,0,0,0,0,0,0,0,0,0,2.51,-1.25656
11619,0.330078,0,6.89258,-0.0012344,0.000392388,-0.00387165,-0.0575,-0.00643772,-2.24434,-4.82533,0.356566,-0.336279,-1.0497,0.634648,-0.688937,0.424902,-2.24434,0,0,249,76,249,76,347,83,246,166,0.605237,-0.233332,0.0579008,-1.5,1.07784e-37,0,0,0,-1.0497,0.634648,-0.0273438,-0.0195312,0,0,-0.688937,0.424902,9595,0,0,0,0,0,0,0,0,0,2.51,-1.2693
11635,0.363281,0,1.49512,-0.000310544,-9.10938e-05,-0.00304842,-0.0574995,-0.00643097,-2.24438,-4.82533,0.356566,-0.336279,-1.06075,0.641461,-0.691108,0.426341,-2.24438,0,0,249,76,249,76,347,83,246,166,0.607589,-0.236249,0.0560694,-1.5,1.07784e-37,0,0,0,-1.06075,0.641461,-0.0273438,-0.0195312,0,0,-0.691108,0.426341,9595,0,0,0,0,0,0,0,0,0,2.51,-1.28292
11648,0.363281,0,1.49512,-0.000310544,-9.10938e-05,-0.00304842,-0.0574995,-0.00643097,-2.24438,-4.80486,0.352021,-0.347272,-1.06974,0.647013,-0.692858,0.427502,-2.24438,0,0,248,78,248,78,347,83,246,166,0.609502,-0.238645,0.0546264,-1.5,1.07784e-37,0,0,0,-1.06974,0.647013,-0.0273438,-0.0195312,0,0,-0.692858,0.427502,9393,0,0,0,0,0,0,0,0,0,2.51,-1.29403
11661,0.429688,0,4.18848,-0.000624424,-0.000464875,-0.00397387,-0.0575159,-0.00644551,-2.24448,-4.80486,0.352021,-0.347272,-1.07876,0.652579,-0.694597,0.428655,-2.24448,0,0,248,78,248,78,347,83,246,166,0.611424,-0.240985,0.0532204,-1.5,1.07784e-37,0,0,0,-1.07876,0.652579,-0.0273438,-0.0195312,0,0,-0.694597,0.428655,9393,0,0,0,0,0,0,0,0,0,2.51,-1.30516
11676,0.462891,0,0.992188,-0.00145186,-0.000615341,-0.00354323,-0.0575201,-0.00644826,-2.24453,-7.26242,-5.59933,-0.336897,-1.0892,0.659021,-0.696592,0.429978,-2.24453,0,0,617,155,617,155,665,142,613,218,0.613223,-0.243207,0.0516416,-1.5,1.07784e-37,0,0,0,-1.0892,0.659021,-0.0273438,-0.0195312,0,0,-0.696592,0.429978,4028,0,0,0,0,0,0,0,0,0,2.51,-1.31804
11691,0.462891,0,0.730469,-0.00127251,0.000226776,-0.0027949,-0.0575254,-0.00644172,-2.24456,-7.26242,-5.59933,-0.336897,-1.09967,0.665483,-0.698573,0.431291,-2.24456,0,0,617,155,617,155,665,142,613,218,0.613226,-0.243185,0.0501096,-1.5,1.07784e-37,0,0,0,-1.09967,0.665483,-0.0273438,-0.0195312,0,0,-0.698573,0.431291,4028,0,0,0,0,0,0,0,0,0,2.51,-1.33097
11706,0.456055,0,2.36914,-0.00119135,0.00038259,-0.00316701,-0.0575302,-0.00643695,-2.24461,-4.84952,0.358277,-0.335589,-1.11017,0.671965,-0.700539,0.432596,-2.24461,0,0,248,78,248,78,347,83,247,166,0.613229,-0.243159,0.0486231,-1.5,1.07784e-37,0,0,0,-1.11017,0.671965,-0.0273438,-0.0195312,0,0,-0.700539,0.432596,9300,0,0,0,0,0,0,0,0,0,2.51,-1.34393
11721,0.456055,0,2.36914,-0.00119135,0.00038259,-0.00316701,-0.0575302,-0.00643695,-2.24461,-4.84952,0.358277,-0.335589,-1.12069,0.678466,-0.70249,0.433892,-2.24461,0,0,248,78,248,78,347,83,247,166,0.613229,-0.243159,0.0471806,-1.5,1.07784e-37,0,0,0,-1.12069,0.678466,-0.0273438,-0.0195312,0,0,-0.70249,0.433892,9300,0,0,0,0,0,0,0,0,0,2.51,-1.35693
11736,0.389648,0,-2.95898,-0.00071268,0.000690379,-0.00306244,-0.0575353,-0.00642635,-2.2447,-4.84952,0.358277,-0.335589,-1.13125,0.684987,-0.704426,0.435179,-2.2447,0,0,248,78,248,78,347,83,247,166,0.613235,-0.243099,0.045781,-1.5,1.07784e-37,0,0,0,-1.13125,0.684987,-0.0273438,-0.0195312,0,0,-0.704426,0.435179,9300,0,0,0,0,0,0,0,0,0,2.51,-1.36997
11751,0.356445,0,2.2002,-0.000127195,0.000218386,-0.00376703,-0.057373,-0.00634766,-2.24487,-4.82532,0.356612,-0.336258,-1.14183,0.691527,-0.706347,0.436458,-2.2447,0,0,249,76,249,76,347,83,246,166,0.613235,-0.243099,0.0444229,-1.5,1.07784e-37,0,0,0,-1.14183,0.691527,-0.0273438,-0.0195312,0,0,-0.706347,0.436458,9595,0,0,0,0,0,0,0,0,0,2.51,-1.38305
11766,0.356445,0,2.00391,-0.000410741,0.000296552,-0.00346531,-0.0575285,-0.0064221,-2.24484,-4.82532,0.356612,-0.336258,-1.15245,0.698086,-0.70824,0.437725,-2.24487,0,0,249,76,249,76,347,83,246,166,0.613247,-0.242995,0.0431043,-1.5,1.07784e-37,0,0,0,-1.15245,0.698086,-0.0273438,-0.0195312,0,0,-0.70824,0.437725,9595,0,0,0,0,0,0,0,0,0,2.51,-1.39617
11781,0.356445,0,1.7627,0.000141578,0.00027971,-0.00359146,-0.0575307,-0.00642305,-2.24489,-4.82529,0.356619,-0.33621,-1.16309,0.704664,-0.710131,0.438986,-2.24484,0,0,249,76,249,76,347,83,246,166,0.613245,-0.243014,0.0418249,-1.5,1.07784e-37,0,0,0,-1.16309,0.704664,-0.0273438,-0.0195312,0,0,-0.710131,0.438986,9595,0,0,0,0,0,0,0,0,0,2.51,-1.40933
11796,0.356445,0,-1.75684,-0.00147327,-0.000991114,-0.00386727,-0.0575408,-0.00643524,-2.24495,-4.82529,0.356619,-0.33621,-1.17376,0.711261,-0.712008,0.440238,-2.24495,0,0,249,76,249,76,347,83,246,166,0.613252,-0.242948,0.0405835,-1.5,1.07784e-37,0,0,0,-1.17376,0.711261,-0.0273438,-0.0195312,0,0,-0.712008,0.440238,9595,0,0,0,0,0,0,0,0,0,2.51,-1.42252
11811,0.356445,0,-1.75684,-0.00147327,-0.000991114,-0.00386727,-0.0575408,-0.00643524,-2.24495,-4.84058,0.348932,-0.33165,-1.18446,0.717876,-0.713873,0.441481,-2.24495,0,0,249,76,249,76,347,83,248,166,0.613252,-0.242948,0.0393789,-1.5,1.07784e-37,0,0,0,-1.18446,0.717876,-0.0273438,-0.0195312,0,0,-0.713873,0.441481,9405,0,0,0,0,0,0,0,0,0,2.51,-1.43575
11825,0.356445,0,0.154297,-0.00153653,-4.85419e-05,-0.00387558,-0.0575476,-0.00642848,-2.24506,-4.84058,0.348932,-0.33165,-1.19375,0.723624,-0.715478,0.44255,-2.24506,0,0,249,76,249,76,347,83,248,166,0.61326,-0.242879,0.0383651,-1.5,1.07784e-37,0,0,0,-1.19375,0.723624,-0.0273438,-0.0195312,0,0,-0.715478,0.44255,9405,0,0,0,0,0,0,0,0,0,2.51,-1.44725
11838,0.356445,0,4.6377,-0.00136077,0.000946428,-0.0033135,-0.0575543,-0.0064189,-2.24511,-4.86879,0.345075,-0.323676,-1.20378,0.72983,-0.717194,0.443696,-2.24511,0,0,251,76,251,76,347,83,248,166,0.613263,-0.24285,0.0373019,-1.5,1.07784e-37,0,0,0,-1.20378,0.72983,-0.0273438,-0.0195312,0,0,-0.717194,0.443696,9405,0,0,0,0,0,0,0,0,0,2.51,-1.45966
11853,0.356445,0,-5.69629,-0.000628612,-0.000255738,-0.00397144,-0.0575716,-0.0064074,-2.24516,-4.86879,0.345075,-0.323676,-1.21456,0.736497,-0.719019,0.444918,-2.24516,0,0,251,76,251,76,347,83,248,166,0.613267,-0.24282,0.0361953,-1.5,1.07784e-37,0,0,0,-1.21456,0.736497,-0.0273438,-0.0195312,0,0,-0.719019,0.444918,9405,0,0,0,0,0,0,0,0,0,2.51,-1.47299
11869,0.356445,0,2.1709,-0.000658102,-0.000844883,-0.00312226,-0.0575772,-0.00641387,-2.2452,-4.86879,0.345075,-0.323676,-1.22608,0.743629,-0.720953,0.446214,-2.2452,0,0,251,76,251,76,347,83,248,166,0.61327,-0.242793,0.0350504,-1.5,1.07784e-37,0,0,0,-1.22608,0.743629,-0.0273438,-0.0195312,0,0,-0.720953,0.446214,9405,0,0,0,0,0,0,0,0,0,2.51,-1.48726
11884,0.356445,0,2.1709,-0.000658102,-0.000844883,-0.00312226,-0.0575772,-0.00641387,-2.2452,-4.86419,0.356476,-0.331373,-1.23619,0.749886,-0.722632,0.447339,-2.2452,0,0,248,78,248,78,347,83,248,166,0.61327,-0.242793,0.034079,-1.5,1.07784e-37,0,0,0,-1.23619,0.749886,-0.0273438,-0.0195312,0,0,-0.722632,0.447339,9207,0,0,0,0,0,0,0,0,0,2.51,-1.49977
11899,0.356445,0,-5.75,-0.00116577,-0.00014644,-0.00349555,-0.0575726,-0.00638836,-2.24529,-4.86419,0.356476,-0.331373,-1.24777,0.757057,-0.724536,0.448617,-2.24529,0,0,248,78,248,78,347,83,248,166,0.613276,-0.242738,0.0330005,-1.5,1.07784e-37,0,0,0,-1.24777,0.757057,-0.0273438,-0.0195312,0,0,-0.724536,0.448617,9207,0,0,0,0,0,0,0,0,0,2.51,-1.51411
