timestamp,A_x,A_y,A_z,P,Q,R,Phi,Theta,Psi,poseX,poseY,poseZ,state_X,state_Y,state_Z,state_VzB,state_Bx,state_By,state_Bz,p1_x,p1_y,p2_x,p2_y,p3_x,p3_y,p4_x,p4_y,roll,pitch,yaw,alt,targetHeading,highLevelState,lowLevelState,gateNumber,filtered_x,filtered_y
10,0,0,0,0,0,0,0,0,0,0,0,0,0,0,0,0,0,0,0,0,0,0,0,0,0,0,0,0,-0.261799,-0.00779127,-1.5,-nan,0,0,3,0,0
20,0,0,0,0,0,0,0,0,0,0,0,0,0,0,0,0,0,0,0,0,0,0,0,0,0,0,0,0,-0.261799,-0.00751401,-1.5,-nan,0,0,3,0,0
30,-3.21065e-12,4.97321e-38,-1.57135e-06,-3.27738e-12,4.97273e-38,-3.40903e-12,-1.13703e-13,0,0,0,0,0,0,0,0,0,0,0,0,0,0,0,0,0,0,0,0,0,-0.261799,-0.00165304,-1.5,-nan,0,0,3,0,0
40,-3.21065e-12,4.97321e-38,-1.57135e-06,-3.27738e-12,4.97273e-38,0,-1.13703e-13,0,0,0,0,0,0,0,0,0,0,0,0,0,0,0,0,0,0,0,0,0,-0.261799,-0.0016105,-1.5,-nan,0,0,3,0,0
50,-3.21065e-12,4.97321e-38,-1.57135e-06,-3.27738e-12,4.97273e-38,-3.40903e-12,-1.13704e-13,0,0,0,0,0,0,0,0,0,0,0,0,0,0,0,0,0,0,0,0,0,-0.261799,-0.00155319,-1.5,-nan,0,0,3,0,0
60,-3.21065e-12,4.97321e-38,-1.57135e-06,-3.27738e-12,4.97273e-38,0,-1.13704e-13,0,0,0,0,0,0,0,0,0,0,0,0,0,0,0,0,0,0,0,0,0,-0.261799,-0.00148874,-1.5,-nan,0,0,3,0,0
70,-3.21065e-12,4.97321e-38,-1.57135e-06,-3.27738e-12,4.97273e-38,-3.40903e-12,-1.13705e-13,0,0,0,0,0,0,0,0,0,0,0,0,0,0,0,0,0,0,0,0,0,-0.261799,-0.00142697,-1.5,-nan,0,0,3,0,0
80,-3.21065e-12,4.97321e-38,-1.57135e-06,-3.27738e-12,4.97273e-38,0,-1.13705e-13,0,0,0,0,0,0,0,0,0,0,0,0,0,0,0,0,0,0,0,0,0,-0.261799,-0.00136782,-1.5,-nan,0,0,3,0,0
90,-3.21065e-12,4.97321e-38,-1.57135e-06,-3.27738e-12,4.97273e-38,-3.40903e-12,-1.13706e-13,0,0,0,0,0,0,0,0,0,0,0,0,0,0,0,0,0,0,0,0,0,-0.261799,-0.00131376,-1.5,-nan,0,0,3,0,0
100,-3.21065e-12,4.97321e-38,-1.57135e-06,-3.27738e-12,4.97273e-38,0,-1.13706e-13,0,0,0,0,0,0,0,0,0,0,0,0,0,0,0,0,0,0,0,0,0,-0.261799,-0.00125926,-1.5,-nan,0,0,3,0,0
110,-3.21065e-12,4.97321e-38,-1.57135e-06,-3.27738e-12,4.97273e-38,-3.40903e-12,-1.13707e-13,0,0,0,0,0,0,0,0,0,0,0,0,0,0,0,0,0,0,0,0,0,-0.261799,-0.00120949,-1.5,-nan,0,0,3,0,0
120,-3.21065e-12,4.97321e-38,-1.57135e-06,-3.27738e-12,4.97273e-38,0,-1.13708e-13,0,0,0,0,0,0,0,0,0,0,0,0,0,0,0,0,0,0,0,0,0,-0.261799,-0.00115222,-1.5,-nan,0,0,3,0,0
130,-3.21065e-12,4.97321e-38,-1.57135e-06,-3.27738e-12,4.97273e-38,-3.40903e-12,-1.13708e-13,0,0,0,0,0,0,0,0,0,0,0,0,0,0,0,0,0,0,0,0,0,-0.261799,-0.00110442,-1.5,-nan,0,0,3,0,0
140,-3.21065e-12,4.97321e-38,-1.57135e-06,-3.27738e-12,4.97273e-38,0,-1.13709e-13,0,0,0,0,0,0,0,0,0,0,0,0,0,0,0,0,0,0,0,0,0,-0.261799,-0.00105859,-1.5,-nan,0,0,3,0,0
150,-3.21065e-12,4.97321e-38,-1.57135e-06,-3.27738e-12,4.97273e-38,-3.40903e-12,-1.13709e-13,0,0,0,0,0,0,0,0,0,0,0,0,0,0,0,0,0,0,0,0,0,-0.261799,-0.00101467,-1.5,-nan,0,0,3,0,0
160,-3.21065e-12,4.97321e-38,-1.57135e-06,-3.27738e-12,4.97273e-38,0,-1.1371e-13,0,0,0,0,0,0,0,0,0,0,0,0,0,0,0,0,0,0,0,0,0,-0.261799,-0.000972573,-1.5,-nan,0,0,3,0,0
170,-3.21065e-12,4.97321e-38,-1.57135e-06,-3.27738e-12,4.97273e-38,-3.40903e-12,-1.1371e-13,0,0,0,0,0,0,0,0,0,0,0,0,0,0,0,0,0,0,0,0,0,-0.261799,-0.00093222,-1.5,-nan,0,0,3,0,0
180,-3.21065e-12,4.97321e-38,-1.57135e-06,-3.27738e-12,4.97273e-38,0,-1.13711e-13,0,0,0,0,0,0,0,0,0,0,0,0,0,0,0,0,0,0,0,0,0,-0.261799,-0.000891748,-1.5,-nan,0,0,3,0,0
190,-3.21065e-12,4.97321e-38,-1.57135e-06,-3.27738e-12,4.97273e-38,-3.40903e-12,-1.13711e-13,0,0,0,0,0,0,0,0,0,0,0,0,0,0,0,0,0,0,0,0,0,-0.261799,-0.000854748,-1.5,-nan,0,0,3,0,0
200,-3.21065e-12,4.97321e-38,-1.57135e-06,-3.27738e-12,4.97273e-38,0,-1.13712e-13,0,0,0,0,0,0,0,0,0,0,0,0,0,0,0,0,0,0,0,0,0,-0.261799,-0.000819284,-1.5,-nan,0,0,3,0,0
210,-3.21065e-12,4.97321e-38,-1.57135e-06,-3.27738e-12,4.97273e-38,-3.40903e-12,-1.13712e-13,0,0,0,0,0,0,0,0,0,0,0,0,0,0,0,0,0,0,0,0,0,-0.261799,-0.000745092,-1.5,-nan,0,0,3,0,0
220,-3.21065e-12,4.97321e-38,-1.57135e-06,-3.27738e-12,4.97273e-38,0,-1.13713e-13,0,0,0,0,0,0,0,0,0,0,0,0,0,0,0,0,0,0,0,0,0,-0.261799,-0.000699513,-1.5,-nan,0,0,3,0,0
230,-3.21065e-12,4.97321e-38,-1.57135e-06,-3.27738e-12,4.97273e-38,-3.40903e-12,-1.13714e-13,0,0,0,0,0,0,0,0,0,0,0,0,0,0,0,0,0,0,0,0,0,-0.261799,-0.000670489,-1.5,-nan,0,0,3,0,0
240,-3.21065e-12,4.97321e-38,-1.57135e-06,-3.27738e-12,4.97273e-38,0,-1.13714e-13,0,0,0,0,0,0,0,0,0,0,0,0,0,0,0,0,0,0,0,0,0,-0.261799,-0.00064138,-1.5,-nan,0,0,3,0,0
250,-3.21065e-12,4.97321e-38,-1.57135e-06,-3.27738e-12,4.97273e-38,-3.40903e-12,-1.13715e-13,0,0,0,0,0,0,0,0,0,0,0,0,0,0,0,0,0,0,0,0,0,-0.261799,-0.000618556,-1.5,-nan,0,0,3,0,0
260,-3.21065e-12,4.97321e-38,-1.57135e-06,-3.27738e-12,4.97273e-38,0,-1.13715e-13,0,0,0,0,0,0,0,0,0,0,0,0,0,0,0,0,0,0,0,0,0,-0.261799,-0.000600196,-1.5,-nan,0,0,3,0,0
270,-3.21065e-12,4.97321e-38,-1.57135e-06,-3.27738e-12,4.97273e-38,-3.40903e-12,-1.13716e-13,0,0,0,0,0,0,0,0,0,0,0,0,0,0,0,0,0,0,0,0,0,-0.261799,-0.000584748,-1.5,-nan,0,0,3,0,0
280,-3.21065e-12,4.97321e-38,-1.57135e-06,-3.27738e-12,4.97273e-38,0,-1.13716e-13,0,0,0,0,0,0,0,0,0,0,0,0,0,0,0,0,0,0,0,0,0,-0.261799,-0.000565104,-1.5,-nan,0,0,3,0,0
290,-3.21065e-12,4.97321e-38,-1.57135e-06,-3.27738e-12,4.97273e-38,-3.40903e-12,-1.13717e-13,0,0,0,0,0,0,0,0,0,0,0,0,0,0,0,0,0,0,0,0,0,-0.261799,-0.00054168,-1.5,-nan,0,0,3,0,0
300,-3.21065e-12,4.97321e-38,-1.57135e-06,-3.27738e-12,4.97273e-38,0,-1.13717e-13,0,0,0,0,0,0,0,0,0,0,0,0,0,0,0,0,0,0,0,0,0,-0.261799,-0.000519205,-1.5,-nan,0,0,3,0,0
310,-3.21065e-12,4.97321e-38,-1.57135e-06,-3.27738e-12,4.97273e-38,-3.40903e-12,-1.13718e-13,0,0,0,0,0,0,0,0,0,0,0,0,0,0,0,0,0,0,0,0,0,-0.261799,-0.000496641,-1.5,-nan,0,0,3,0,0
320,-3.21065e-12,4.97321e-38,-1.57135e-06,-3.27738e-12,4.97273e-38,0,-1.13718e-13,0,0,0,0,0,0,0,0,0,0,0,0,0,0,0,0,0,0,0,0,0,-0.261799,-0.000476035,-1.5,-nan,0,0,3,0,0
330,-3.21065e-12,4.97321e-38,-1.57135e-06,-3.27738e-12,4.97273e-38,-3.40903e-12,-1.13719e-13,0,0,0,0,0,0,0,0,0,0,0,0,0,0,0,0,0,0,0,0,0,-0.261799,-0.000455368,-1.5,-nan,0,0,3,0,0
340,-3.21065e-12,4.97321e-38,-1.57135e-06,-3.27738e-12,4.97273e-38,0,-1.13719e-13,0,0,0,0,0,0,0,0,0,0,0,0,0,0,0,0,0,0,0,0,0,-0.261799,-0.000436474,-1.5,-nan,0,0,3,0,0
350,-3.21065e-12,4.97321e-38,-1.57135e-06,-3.27738e-12,4.97273e-38,-3.40903e-12,-1.1372e-13,0,0,0,0,0,0,0,0,0,0,0,0,0,0,0,0,0,0,0,0,0,-0.261799,-0.000418365,-1.5,-nan,0,0,3,0,0
360,-3.21065e-12,4.97321e-38,-1.57135e-06,-3.27738e-12,4.97273e-38,0,-1.13721e-13,0,0,0,0,0,0,0,0,0,0,0,0,0,0,0,0,0,0,0,0,0,-0.261799,-0.000400201,-1.5,-nan,0,0,3,0,0
370,-3.21065e-12,4.97321e-38,-1.57135e-06,-3.27738e-12,4.97273e-38,-3.40903e-12,-1.13721e-13,0,0,0,0,0,0,0,0,0,0,0,0,0,0,0,0,0,0,0,0,0,-0.261799,-0.000383596,-1.5,-nan,0,0,3,0,0
380,-3.21065e-12,4.97321e-38,-1.57135e-06,-3.27738e-12,4.97273e-38,0,-1.13722e-13,0,0,0,0,0,0,0,0,0,0,0,0,0,0,0,0,0,0,0,0,0,-0.261799,-0.000367681,-1.5,-nan,0,0,3,0,0
390,-3.21065e-12,4.97321e-38,-1.57135e-06,-3.27738e-12,4.97273e-38,-3.40903e-12,-1.13722e-13,0,0,0,0,0,0,0,0,0,0,0,0,0,0,0,0,0,0,0,0,0,-0.261799,-0.000351718,-1.5,-nan,0,0,3,0,0
400,-3.21065e-12,4.97321e-38,-1.57135e-06,-3.27738e-12,4.97273e-38,0,-1.13723e-13,0,0,0,0,0,0,0,0,0,0,0,0,0,0,0,0,0,0,0,0,0,-0.261799,-0.000337139,-1.5,-nan,0,0,3,0,0
410,-3.21065e-12,4.97321e-38,-1.57135e-06,-3.27738e-12,4.97273e-38,-3.40903e-12,-1.13723e-13,0,0,0,0,0,0,0,0,0,0,0,0,0,0,0,0,0,0,0,0,0,-0.261799,-0.00032315,-1.5,-nan,0,0,3,0,0
420,-3.21065e-12,4.97321e-38,-1.57135e-06,-3.27738e-12,4.97273e-38,0,-1.13724e-13,0,0,0,0,0,0,0,0,0,0,0,0,0,0,0,0,0,0,0,0,0,-0.261799,-0.000309121,-1.5,-nan,0,0,3,0,0
430,-3.21065e-12,4.97321e-38,-1.57135e-06,-3.27738e-12,4.97273e-38,-3.40903e-12,-1.13724e-13,0,0,0,0,0,0,0,0,0,0,0,0,0,0,0,0,0,0,0,0,0,-0.261799,-0.000296307,-1.5,-nan,0,0,3,0,0
440,-3.21065e-12,4.97321e-38,-1.57135e-06,-3.27738e-12,4.97273e-38,0,-1.13725e-13,0,0,0,0,0,0,0,0,0,0,0,0,0,0,0,0,0,0,0,0,0,-0.261799,-0.000284013,-1.5,-nan,0,0,3,0,0
450,-3.21065e-12,4.97321e-38,-1.57135e-06,-3.27738e-12,4.97273e-38,-3.40903e-12,-1.13725e-13,0,0,0,0,0,0,0,0,0,0,0,0,0,0,0,0,0,0,0,0,0,-0.261799,-0.00027167,-1.5,-nan,0,0,3,0,0
460,-3.21065e-12,4.97321e-38,-1.57135e-06,-3.27738e-12,4.97273e-38,0,-1.13726e-13,0,0,0,0,0,0,0,0,0,0,0,0,0,0,0,0,0,0,0,0,0,-0.261799,-0.000260398,-1.5,-nan,0,0,3,0,0
470,-3.21065e-12,4.97321e-38,-1.57135e-06,-3.27738e-12,4.97273e-38,-3.40903e-12,-1.13727e-13,0,0,0,0,0,0,0,0,0,0,0,0,0,0,0,0,0,0,0,0,0,-0.261799,-0.000249093,-1.5,-nan,0,0,3,0,0
480,-3.21065e-12,4.97321e-38,-1.57135e-06,-3.27738e-12,4.97273e-38,0,-1.13727e-13,0,0,0,0,0,0,0,0,0,0,0,0,0,0,0,0,0,0,0,0,0,-0.261799,-0.000238758,-1.5,-nan,0,0,3,0,0
490,-3.21065e-12,4.97321e-38,-1.57135e-06,-3.27738e-12,4.97273e-38,-3.40903e-12,-1.13728e-13,0,0,0,0,0,0,0,0,0,0,0,0,0,0,0,0,0,0,0,0,0,-0.261799,-0.000230732,-1.5,-nan,0,0,3,0,0
500,-3.21065e-12,4.97321e-38,-1.57135e-06,-3.27738e-12,4.97273e-38,0,-1.13728e-13,0,0,0,0,0,0,0,0,0,0,0,0,0,0,0,0,0,0,0,0,0,-0.261799,-0.000223429,-1.5,-nan,0,0,3,0,0
510,-3.21065e-12,4.97321e-38,-1.57135e-06,-3.27738e-12,4.97273e-38,-3.40903e-12,-1.13729e-13,0,0,0,0,0,0,0,0,0,0,0,0,0,0,0,0,0,0,0,0,0,-0.261799,-0.000215923,-1.5,-nan,0,0,3,0,0
520,-3.21065e-12,4.97321e-38,-1.57135e-06,-3.27738e-12,4.97273e-38,0,-1.13729e-13,0,0,0,0,0,0,0,0,0,0,0,0,0,0,0,0,0,0,0,0,0,-0.261799,-0.000206964,-1.5,-nan,0,0,3,0,0
530,-3.21065e-12,4.97321e-38,-1.57135e-06,-3.27738e-12,4.97273e-38,-3.40903e-12,-1.1373e-13,0,0,0,0,0,0,0,0,0,0,0,0,0,0,0,0,0,0,0,0,0,-0.261799,-0.000198377,-1.5,-nan,0,0,3,0,0
540,-3.21065e-12,4.97321e-38,-1.57135e-06,-3.27738e-12,4.97273e-38,0,-1.1373e-13,0,0,0,0,0,0,0,0,0,0,0,0,0,0,0,0,0,0,0,0,0,-0.261799,-0.000189756,-1.5,-nan,0,0,3,0,0
550,-3.21065e-12,4.97321e-38,-1.57135e-06,-3.27738e-12,4.97273e-38,-3.40903e-12,-1.13731e-13,0,0,0,0,0,0,0,0,0,0,0,0,0,0,0,0,0,0,0,0,0,-0.261799,-0.000181517,-1.5,-nan,0,0,3,0,0
560,-3.21065e-12,4.97321e-38,-1.57135e-06,-3.27738e-12,4.97273e-38,0,-1.13731e-13,0,0,0,0,0,0,0,0,0,0,0,0,0,0,0,0,0,0,0,0,0,-0.261799,-0.000173993,-1.5,-nan,0,0,3,0,0
570,-3.21065e-12,4.97321e-38,-1.57135e-06,-3.27738e-12,4.97273e-38,-3.40903e-12,-1.13732e-13,0,0,0,0,0,0,0,0,0,0,0,0,0,0,0,0,0,0,0,0,0,-0.261799,-0.000166774,-1.5,-nan,0,0,3,0,0
580,-3.21065e-12,4.97321e-38,-1.57135e-06,-3.27738e-12,4.97273e-38,0,-1.13732e-13,0,0,0,0,0,0,0,0,0,0,0,0,0,0,0,0,0,0,0,0,0,-0.261799,-0.000159855,-1.5,-nan,0,0,3,0,0
590,-3.21065e-12,4.97321e-38,-1.57135e-06,-3.27738e-12,4.97273e-38,-3.40903e-12,-1.13733e-13,0,0,0,0,0,0,0,0,0,0,0,0,0,0,0,0,0,0,0,0,0,-0.261799,-0.000153222,-1.5,-nan,0,0,3,0,0
600,-3.21065e-12,4.97321e-38,-1.57135e-06,-3.27738e-12,4.97273e-38,0,-1.13734e-13,0,0,0,0,0,0,0,0,0,0,0,0,0,0,0,0,0,0,0,0,0,-0.261799,-0.000145357,-1.5,-nan,0,0,3,0,0
610,-3.21065e-12,4.97321e-38,-1.57135e-06,-3.27738e-12,4.97273e-38,-3.40903e-12,-1.13734e-13,0,0,0,0,0,0,0,0,0,0,0,0,0,0,0,0,0,0,0,0,0,-0.261799,-0.000139326,-1.5,-nan,0,0,3,0,0
620,-3.21065e-12,4.97321e-38,-1.57135e-06,-3.27738e-12,4.97273e-38,0,-1.13735e-13,0,0,0,0,0,0,0,0,0,0,0,0,0,0,0,0,0,0,0,0,0,-0.261799,-0.000133545,-1.5,-nan,0,0,3,0,0
630,-3.21065e-12,4.97321e-38,-1.57135e-06,-3.27738e-12,4.97273e-38,-3.40903e-12,-1.13735e-13,0,0,0,0,0,0,0,0,0,0,0,0,0,0,0,0,0,0,0,0,0,-0.261799,-0.000127742,-1.5,-nan,0,0,3,0,0
640,-3.21065e-12,4.97321e-38,-1.57135e-06,-3.27738e-12,4.97273e-38,0,-1.13736e-13,0,0,0,0,0,0,0,0,0,0,0,0,0,0,0,0,0,0,0,0,0,-0.261799,-0.000122441,-1.5,-nan,0,0,3,0,0
650,-3.21065e-12,4.97321e-38,-1.57135e-06,-3.27738e-12,4.97273e-38,-3.40903e-12,-1.13736e-13,0,0,0,0,0,0,0,0,0,0,0,0,0,0,0,0,0,0,0,0,0,-0.261799,-0.000117361,-1.5,-nan,0,0,3,0,0
660,-3.21065e-12,4.97321e-38,-1.57135e-06,-3.27738e-12,4.97273e-38,0,-1.13737e-13,0,0,0,0,0,0,0,0,0,0,0,0,0,0,0,0,0,0,0,0,0,-0.261799,-0.000112492,-1.5,-nan,0,0,3,0,0
670,-3.21065e-12,4.97321e-38,-1.57135e-06,-3.27738e-12,4.97273e-38,-3.40903e-12,-1.13737e-13,0,0,0,0,0,0,0,0,0,0,0,0,0,0,0,0,0,0,0,0,0,-0.261799,-0.000107608,-1.5,-nan,0,0,3,0,0
680,-3.21065e-12,4.97321e-38,-1.57135e-06,-3.27738e-12,4.97273e-38,0,-1.13738e-13,0,0,0,0,0,0,0,0,0,0,0,0,0,0,0,0,0,0,0,0,0,-0.261799,-0.000103143,-1.5,-nan,0,0,3,0,0
690,-3.21065e-12,4.97321e-38,-1.57135e-06,-3.27738e-12,4.97273e-38,-3.40903e-12,-1.13738e-13,0,0,0,0,0,0,0,0,0,0,0,0,0,0,0,0,0,0,0,0,0,-0.261799,-9.86652e-05,-1.5,-nan,0,0,3,0,0
700,-3.21065e-12,4.97321e-38,-1.57135e-06,-3.27738e-12,4.97273e-38,0,-1.13739e-13,0,0,0,0,0,0,0,0,0,0,0,0,0,0,0,0,0,0,0,0,0,-0.261799,-9.45754e-05,-1.5,-nan,0,0,3,0,0
710,-3.21065e-12,4.97321e-38,-1.57135e-06,-3.27738e-12,4.97273e-38,-3.40903e-12,-1.1374e-13,0,0,0,0,0,0,0,0,0,0,0,0,0,0,0,0,0,0,0,0,0,-0.261799,-9.06514e-05,-1.5,-nan,0,0,3,0,0
720,-3.21065e-12,4.97321e-38,-1.57135e-06,-3.27738e-12,4.97273e-38,0,-1.1374e-13,0,0,0,0,0,0,0,0,0,0,0,0,0,0,0,0,0,0,0,0,0,-0.261799,-8.67118e-05,-1.5,-nan,0,0,3,0,0
730,-3.21065e-12,4.97321e-38,-1.57135e-06,-3.27738e-12,4.97273e-38,-3.40903e-12,-1.13741e-13,0,0,0,0,0,0,0,0,0,0,0,0,0,0,0,0,0,0,0,0,0,-0.261799,-8.39691e-05,-1.5,-nan,0,0,3,0,0
740,-3.21065e-12,4.97321e-38,-1.57135e-06,-3.27738e-12,4.97273e-38,0,-1.13741e-13,0,0,0,0,0,0,0,0,0,0,0,0,0,0,0,0,0,0,0,0,0,-0.261799,-8.11482e-05,-1.5,-nan,0,0,3,0,0
750,-3.21065e-12,4.97321e-38,-1.57135e-06,-3.27738e-12,4.97273e-38,-3.40903e-12,-1.13742e-13,0,0,0,0,0,0,0,0,0,0,0,0,0,0,0,0,0,0,0,0,0,-0.261799,-7.85815e-05,-1.5,-nan,0,0,3,0,0
760,-3.21065e-12,4.97321e-38,-1.57135e-06,-3.27738e-12,4.97273e-38,0,-1.13742e-13,0,0,0,0,0,0,0,0,0,0,0,0,0,0,0,0,0,0,0,0,0,-0.261799,-7.53211e-05,-1.5,-nan,0,0,3,0,0
770,-3.21065e-12,4.97321e-38,-1.57135e-06,-3.27738e-12,4.97273e-38,-3.40903e-12,-1.13743e-13,0,0,0,0,0,0,0,0,0,0,0,0,0,0,0,0,0,0,0,0,0,-0.261799,-7.2196e-05,-1.5,-nan,0,0,3,0,0
780,-3.21065e-12,4.97321e-38,-1.57135e-06,-3.27738e-12,4.97273e-38,0,-1.13743e-13,0,0,0,0,0,0,0,0,0,0,0,0,0,0,0,0,0,0,0,0,0,-0.261799,-6.90616e-05,-1.5,-nan,0,0,3,0,0
790,-3.21065e-12,4.97321e-38,-1.57135e-06,-3.27738e-12,4.97273e-38,-3.40903e-12,-1.13744e-13,0,0,0,0,0,0,0,0,0,0,0,0,0,0,0,0,0,0,0,0,0,-0.261799,-6.26621e-05,-1.5,-nan,0,0,3,0,0
800,-3.21065e-12,4.97321e-38,-1.57135e-06,-3.27738e-12,4.97273e-38,0,-1.13744e-13,0,0,0,0,0,0,0,0,0,0,0,0,0,0,0,0,0,0,0,0,0,-0.261799,-5.87107e-05,-1.5,-nan,0,0,3,0,0
810,-3.21065e-12,4.97321e-38,-1.57135e-06,-3.27738e-12,4.97273e-38,-3.40903e-12,-1.13745e-13,0,0,0,0,0,0,0,0,0,0,0,0,0,0,0,0,0,0,0,0,0,-0.261799,-5.62748e-05,-1.5,-nan,0,0,3,0,0
820,-3.21065e-12,4.97321e-38,-1.57135e-06,-3.27738e-12,4.97273e-38,0,-1.13745e-13,0,0,0,0,0,0,0,0,0,0,0,0,0,0,0,0,0,0,0,0,0,-0.261799,-5.38291e-05,-1.5,-nan,0,0,3,0,0
830,-3.21065e-12,4.97321e-38,-1.57135e-06,-3.27738e-12,4.97273e-38,-3.40903e-12,-1.13746e-13,0,0,0,0,0,0,0,0,0,0,0,0,0,0,0,0,0,0,0,0,0,-0.261799,-5.15957e-05,-1.5,-nan,0,0,3,0,0
840,-3.21065e-12,4.97321e-38,-1.57135e-06,-3.27738e-12,4.97273e-38,0,-1.13747e-13,0,0,0,0,0,0,0,0,0,0,0,0,0,0,0,0,0,0,0,0,0,-0.261799,-4.93557e-05,-1.5,-nan,0,0,3,0,0
850,-3.21065e-12,4.97321e-38,-1.57135e-06,-3.27738e-12,4.97273e-38,-3.40903e-12,-1.13747e-13,0,0,0,0,0,0,0,0,0,0,0,0,0,0,0,0,0,0,0,0,0,-0.261799,-4.73079e-05,-1.5,-nan,0,0,3,0,0
860,-3.21065e-12,4.97321e-38,-1.57135e-06,-3.27738e-12,4.97273e-38,0,-1.13748e-13,0,0,0,0,0,0,0,0,0,0,0,0,0,0,0,0,0,0,0,0,0,-0.261799,-4.5345e-05,-1.5,-nan,0,0,3,0,0
870,-3.21065e-12,4.97321e-38,-1.57135e-06,-3.27738e-12,4.97273e-38,-3.40903e-12,-1.13748e-13,0,0,0,0,0,0,0,0,0,0,0,0,0,0,0,0,0,0,0,0,0,-0.261799,-4.33764e-05,-1.5,-nan,0,0,3,0,0
880,-3.21065e-12,4.97321e-38,-1.57135e-06,-3.27738e-12,4.97273e-38,0,-1.13749e-13,0,0,0,0,0,0,0,0,0,0,0,0,0,0,0,0,0,0,0,0,0,-0.261799,-4.15784e-05,-1.5,-nan,0,0,3,0,0
890,-3.21065e-12,4.97321e-38,-1.57135e-06,-3.27738e-12,4.97273e-38,-3.40903e-12,-1.13749e-13,0,0,0,0,0,0,0,0,0,0,0,0,0,0,0,0,0,0,0,0,0,-0.261799,-3.98549e-05,-1.5,-nan,0,0,3,0,0
900,-3.21065e-12,4.97321e-38,-1.57135e-06,-3.27738e-12,4.97273e-38,0,-1.1375e-13,0,0,0,0,0,0,0,0,0,0,0,0,0,0,0,0,0,0,0,0,0,-0.261799,-3.82013e-05,-1.5,-nan,0,0,3,0,0
910,-3.21065e-12,4.97321e-38,-1.57135e-06,-3.27738e-12,4.97273e-38,-3.40903e-12,-1.1375e-13,0,0,0,0,0,0,0,0,0,0,0,0,0,0,0,0,0,0,0,0,0,-0.261799,-3.66163e-05,-1.5,-nan,0,0,3,0,0
920,-3.21065e-12,4.97321e-38,-1.57135e-06,-3.27738e-12,4.97273e-38,0,-1.13751e-13,0,0,0,0,0,0,0,0,0,0,0,0,0,0,0,0,0,0,0,0,0,-0.261799,-3.50266e-05,-1.5,-nan,0,0,3,0,0
930,-3.21065e-12,4.97321e-38,-1.57135e-06,-3.27738e-12,4.97273e-38,-3.40903e-12,-1.13751e-13,0,0,0,0,0,0,0,0,0,0,0,0,0,0,0,0,0,0,0,0,0,-0.261799,-3.35733e-05,-1.5,-nan,0,0,3,0,0
940,-3.21065e-12,4.97321e-38,-1.57135e-06,-3.27738e-12,4.97273e-38,0,-1.13752e-13,0,0,0,0,0,0,0,0,0,0,0,0,0,0,0,0,0,0,0,0,0,-0.261799,-3.21157e-05,-1.5,-nan,0,0,3,0,0
950,-3.21065e-12,4.97321e-38,-1.57135e-06,-3.27738e-12,4.97273e-38,-3.40903e-12,-1.13753e-13,0,0,0,0,0,0,0,0,0,0,0,0,0,0,0,0,0,0,0,0,0,-0.261799,-3.07832e-05,-1.5,-nan,0,0,3,0,0
960,-3.21065e-12,4.97321e-38,-1.57135e-06,-3.27738e-12,4.97273e-38,0,-1.13753e-13,0,0,0,0,0,0,0,0,0,0,0,0,0,0,0,0,0,0,0,0,0,-0.261799,-2.94454e-05,-1.5,-nan,0,0,3,0,0
970,-3.21065e-12,4.97321e-38,-1.57135e-06,-3.27738e-12,4.97273e-38,-3.40903e-12,-1.13754e-13,0,0,0,0,0,0,0,0,0,0,0,0,0,0,0,0,0,0,0,0,0,-0.261799,-2.84562e-05,-1.5,-nan,0,0,3,0,0
980,-3.21065e-12,4.97321e-38,-1.57135e-06,-3.27738e-12,4.97273e-38,0,-1.13754e-13,0,0,0,0,0,0,0,0,0,0,0,0,0,0,0,0,0,0,0,0,0,-0.261799,-2.75556e-05,-1.5,-nan,0,0,3,0,0
990,-3.21065e-12,4.97321e-38,-1.57135e-06,-3.27738e-12,4.97273e-38,-3.40903e-12,-1.13755e-13,0,0,0,0,0,0,0,0,0,0,0,0,0,0,0,0,0,0,0,0,0,-0.261799,-2.66298e-05,-1.5,-nan,0,0,3,0,0
1000,-3.21065e-12,4.97321e-38,-1.57135e-06,-3.27738e-12,4.97273e-38,0,-1.13755e-13,0,0,0,0,0,0,0,0,0,0,0,0,0,0,0,0,0,0,0,0,0,-0.261799,-2.5525e-05,-1.5,-nan,0,0,3,0,0
1010,-3.21065e-12,4.97321e-38,-1.57135e-06,-3.27738e-12,4.97273e-38,-3.40903e-12,-1.13756e-13,0,0,0,0,0,0,0,0,0,0,0,0,0,0,0,0,0,0,0,0,0,-0.261799,-2.44168e-05,-1.5,-nan,0,0,3,0,0
1020,-3.21065e-12,4.97321e-38,-1.57135e-06,-3.27738e-12,4.97273e-38,0,-1.13756e-13,0,0,0,0,0,0,0,0,0,0,0,0,0,0,0,0,0,0,0,0,0,-0.261799,-2.34037e-05,-1.5,-nan,0,0,3,0,0
1030,-3.21065e-12,4.97321e-38,-1.57135e-06,-3.27738e-12,4.97273e-38,-3.40903e-12,-1.13757e-13,0,0,0,0,0,0,0,0,0,0,0,0,0,0,0,0,0,0,0,0,0,-0.261799,-2.23876e-05,-1.5,-nan,0,0,3,0,0
1040,-3.21065e-12,4.97321e-38,-1.57135e-06,-3.27738e-12,4.97273e-38,0,-1.13757e-13,0,0,0,0,0,0,0,0,0,0,0,0,0,0,0,0,0,0,0,0,0,-0.261799,-2.14596e-05,-1.5,-nan,0,0,3,0,0
1050,-3.21065e-12,4.97321e-38,-1.57135e-06,-3.27738e-12,4.97273e-38,-3.40903e-12,-1.13758e-13,0,0,0,0,0,0,0,0,0,0,0,0,0,0,0,0,0,0,0,0,0,-0.261799,-2.05693e-05,-1.5,-nan,0,0,3,0,0
1060,-3.21065e-12,4.97321e-38,-1.57135e-06,-3.27738e-12,4.97273e-38,0,-1.13759e-13,0,0,0,0,0,0,0,0,0,0,0,0,0,0,0,0,0,0,0,0,0,-0.261799,-1.96762e-05,-1.5,-nan,0,0,3,0,0
1070,-3.21065e-12,4.97321e-38,-1.57135e-06,-3.27738e-12,4.97273e-38,-3.40903e-12,-1.13759e-13,0,0,0,0,0,0,0,0,0,0,0,0,0,0,0,0,0,0,0,0,0,-0.261799,-1.88606e-05,-1.5,-nan,0,0,3,0,0
1080,-3.21065e-12,4.97321e-38,-1.57135e-06,-3.27738e-12,4.97273e-38,0,-1.1376e-13,0,0,0,0,0,0,0,0,0,0,0,0,0,0,0,0,0,0,0,0,0,-0.261799,-1.80781e-05,-1.5,-nan,0,0,3,0,0
1090,-3.21065e-12,4.97321e-38,-1.57135e-06,-3.27738e-12,4.97273e-38,-3.40903e-12,-1.1376e-13,0,0,0,0,0,0,0,0,0,0,0,0,0,0,0,0,0,0,0,0,0,-0.261799,-1.7328e-05,-1.5,-nan,0,0,3,0,0
1100,-3.21065e-12,4.97321e-38,-1.57135e-06,-3.27738e-12,4.97273e-38,0,-1.13761e-13,0,0,0,0,0,0,0,0,0,0,0,0,0,0,0,0,0,0,0,0,0,-0.261799,-1.66091e-05,-1.5,-nan,0,0,3,0,0
1110,-3.21065e-12,4.97321e-38,-1.57135e-06,-3.27738e-12,4.97273e-38,-3.40903e-12,-1.13761e-13,0,0,0,0,0,0,0,0,0,0,0,0,0,0,0,0,0,0,0,0,0,-0.261799,-1.58872e-05,-1.5,-nan,0,0,3,0,0
1120,-3.21065e-12,4.97321e-38,-1.57135e-06,-3.27738e-12,4.97273e-38,0,-1.13762e-13,0,0,0,0,0,0,0,0,0,0,0,0,0,0,0,0,0,0,0,0,0,-0.261799,-1.52287e-05,-1.5,-nan,0,0,3,0,0
1130,-3.21065e-12,4.97321e-38,-1.57135e-06,-3.27738e-12,4.97273e-38,-3.40903e-12,-1.13762e-13,0,0,0,0,0,0,0,0,0,0,0,0,0,0,0,0,0,0,0,0,0,-0.261799,-1.45376e-05,-1.5,-nan,0,0,3,0,0
1140,-3.21065e-12,4.97321e-38,-1.57135e-06,-3.27738e-12,4.97273e-38,0,-1.13763e-13,0,0,0,0,0,0,0,0,0,0,0,0,0,0,0,0,0,0,0,0,0,-0.261799,-1.39344e-05,-1.5,-nan,0,0,3,0,0
1150,-3.21065e-12,4.97321e-38,-1.57135e-06,-3.27738e-12,4.97273e-38,-3.40903e-12,-1.13763e-13,0,0,0,0,0,0,0,0,0,0,0,0,0,0,0,0,0,0,0,0,0,-0.261799,-1.33563e-05,-1.5,-nan,0,0,3,0,0
1160,-3.21065e-12,4.97321e-38,-1.57135e-06,-3.27738e-12,4.97273e-38,0,-1.13764e-13,0,0,0,0,0,0,0,0,0,0,0,0,0,0,0,0,0,0,0,0,0,-0.261799,-1.28021e-05,-1.5,-nan,0,0,3,0,0
1170,-3.21065e-12,4.97321e-38,-1.57135e-06,-3.27738e-12,4.97273e-38,-3.40903e-12,-1.13764e-13,0,0,0,0,0,0,0,0,0,0,0,0,0,0,0,0,0,0,0,0,0,-0.261799,-1.22463e-05,-1.5,-nan,0,0,3,0,0
1180,-3.21065e-12,4.97321e-38,-1.57135e-06,-3.27738e-12,4.97273e-38,0,-1.13765e-13,0,0,0,0,0,0,0,0,0,0,0,0,0,0,0,0,0,0,0,0,0,-0.261799,-1.17387e-05,-1.5,-nan,0,0,3,0,0
1190,-3.21065e-12,4.97321e-38,-1.57135e-06,-3.27738e-12,4.97273e-38,-3.40903e-12,-1.13766e-13,0,0,0,0,0,0,0,0,0,0,0,0,0,0,0,0,0,0,0,0,0,-0.261799,-1.12517e-05,-1.5,-nan,0,0,3,0,0
1200,-3.21065e-12,4.97321e-38,-1.57135e-06,-3.27738e-12,4.97273e-38,0,-1.13766e-13,0,0,0,0,0,0,0,0,0,0,0,0,0,0,0,0,0,0,0,0,0,-0.261799,-1.0719e-05,-1.5,-nan,0,0,3,0,0
1210,-3.21065e-12,4.97321e-38,-1.57135e-06,-3.27738e-12,4.97273e-38,-3.40903e-12,-1.13767e-13,0,0,0,0,0,0,0,0,0,0,0,0,0,0,0,0,0,0,0,0,0,-0.261799,-1.03797e-05,-1.5,-nan,0,0,3,0,0
1220,-3.21065e-12,4.97321e-38,-1.57135e-06,-3.27738e-12,4.97273e-38,0,-1.13767e-13,0,0,0,0,0,0,0,0,0,0,0,0,0,0,0,0,0,0,0,0,0,-0.261799,-1.00512e-05,-1.5,-nan,0,0,3,0,0
1230,-3.21065e-12,4.97321e-38,-1.57135e-06,-3.27738e-12,4.97273e-38,-3.40903e-12,-1.13768e-13,0,0,0,0,0,0,0,0,0,0,0,0,0,0,0,0,0,0,0,0,0,-0.261799,-9.71352e-06,-1.5,-nan,0,0,3,0,0
1240,-3.21065e-12,4.97321e-38,-1.57135e-06,-3.27738e-12,4.97273e-38,0,-1.13768e-13,0,0,0,0,0,0,0,0,0,0,0,0,0,0,0,0,0,0,0,0,0,-0.261799,-9.32997e-06,-1.5,-nan,0,0,3,0,0
1250,-3.21065e-12,4.97321e-38,-1.57135e-06,-3.27738e-12,4.97273e-38,-3.40903e-12,-1.13769e-13,0,0,0,0,0,0,0,0,0,0,0,0,0,0,0,0,0,0,0,0,0,-0.261799,-8.9249e-06,-1.5,-nan,0,0,3,0,0
1260,-3.21065e-12,4.97321e-38,-1.57135e-06,-3.27738e-12,4.97273e-38,0,-1.13769e-13,0,0,0,0,0,0,0,0,0,0,0,0,0,0,0,0,0,0,0,0,0,-0.261799,-8.57217e-06,-1.5,-nan,0,0,3,0,0
1270,-3.21065e-12,4.97321e-38,-1.57135e-06,-3.27738e-12,4.97273e-38,-3.40903e-12,-1.1377e-13,0,0,0,0,0,0,0,0,0,0,0,0,0,0,0,0,0,0,0,0,0,-0.261799,-8.18276e-06,-1.5,-nan,0,0,3,0,0
1280,-3.21065e-12,4.97321e-38,-1.57135e-06,-3.27738e-12,4.97273e-38,0,-1.1377e-13,0,0,0,0,0,0,0,0,0,0,0,0,0,0,0,0,0,0,0,0,0,-0.261799,-7.85964e-06,-1.5,-nan,0,0,3,0,0
1290,-3.21065e-12,4.97321e-38,-1.57135e-06,-3.27738e-12,4.97273e-38,-3.40903e-12,-1.13771e-13,0,0,0,0,0,0,0,0,0,0,0,0,0,0,0,0,0,0,0,0,0,-0.261799,-7.50298e-06,-1.5,-nan,0,0,3,0,0
1300,-3.21065e-12,4.97321e-38,-1.57135e-06,-3.27738e-12,4.97273e-38,0,-1.13772e-13,0,0,0,0,0,0,0,0,0,0,0,0,0,0,0,0,0,0,0,0,0,-0.261799,-7.20644e-06,-1.5,-nan,0,0,3,0,0
1310,-3.21065e-12,4.97321e-38,-1.57135e-06,-3.27738e-12,4.97273e-38,-3.40903e-12,-1.13772e-13,0,0,0,0,0,0,0,0,0,0,0,0,0,0,0,0,0,0,0,0,0,-0.261799,-6.89325e-06,-1.5,-nan,0,0,3,0,0
1320,-3.21065e-12,4.97321e-38,-1.57135e-06,-3.27738e-12,4.97273e-38,0,-1.13773e-13,0,0,0,0,0,0,0,0,0,0,0,0,0,0,0,0,0,0,0,0,0,-0.261799,-6.62082e-06,-1.5,-nan,0,0,3,0,0
1330,-3.21065e-12,4.97321e-38,-1.57135e-06,-3.27738e-12,4.97273e-38,-3.40903e-12,-1.13773e-13,0,0,0,0,0,0,0,0,0,0,0,0,0,0,0,0,0,0,0,0,0,-0.261799,-6.33308e-06,-1.5,-nan,0,0,3,0,0
1340,-3.21065e-12,4.97321e-38,-1.57135e-06,-3.27738e-12,4.97273e-38,0,-1.13774e-13,0,0,0,0,0,0,0,0,0,0,0,0,0,0,0,0,0,0,0,0,0,-0.261799,-6.08301e-06,-1.5,-nan,0,0,3,0,0
1350,-3.21065e-12,4.97321e-38,-1.57135e-06,-3.27738e-12,4.97273e-38,-3.40903e-12,-1.13774e-13,0,0,0,0,0,0,0,0,0,0,0,0,0,0,0,0,0,0,0,0,0,-0.261799,-5.81865e-06,-1.5,-nan,0,0,3,0,0
1360,-3.21065e-12,4.97321e-38,-1.57135e-06,-3.27738e-12,4.97273e-38,0,-1.13775e-13,0,0,0,0,0,0,0,0,0,0,0,0,0,0,0,0,0,0,0,0,0,-0.261799,-5.31383e-06,-1.5,-nan,0,0,3,0,0
1370,-3.21065e-12,4.97321e-38,-1.57135e-06,-3.27738e-12,4.97273e-38,-3.40903e-12,-1.13775e-13,0,0,0,0,0,0,0,0,0,0,0,0,0,0,0,0,0,0,0,0,0,-0.261799,-4.96831e-06,-1.5,-nan,0,0,3,0,0
1380,-3.21065e-12,4.97321e-38,-1.57135e-06,-3.27738e-12,4.97273e-38,0,-1.13776e-13,0,0,0,0,0,0,0,0,0,0,0,0,0,0,0,0,0,0,0,0,0,-0.261799,-4.77195e-06,-1.5,-nan,0,0,3,0,0
1390,-3.21065e-12,4.97321e-38,-1.57135e-06,-3.27738e-12,4.97273e-38,-3.40903e-12,-1.13776e-13,0,0,0,0,0,0,0,0,0,0,0,0,0,0,0,0,0,0,0,0,0,-0.261799,-4.5554e-06,-1.5,-nan,0,0,3,0,0
1400,-3.21065e-12,4.97321e-38,-1.57135e-06,-3.27738e-12,4.97273e-38,0,-1.13777e-13,0,0,0,0,0,0,0,0,0,0,0,0,0,0,0,0,0,0,0,0,0,-0.261799,-4.37536e-06,-1.5,-nan,0,0,3,0,0
1410,-3.21065e-12,4.97321e-38,-1.57135e-06,-3.27738e-12,4.97273e-38,-3.40903e-12,-1.13777e-13,0,0,0,0,0,0,0,0,0,0,0,0,0,0,0,0,0,0,0,0,0,-0.261799,-4.1766e-06,-1.5,-nan,0,0,3,0,0
1420,-3.21065e-12,4.97321e-38,-1.57135e-06,-3.27738e-12,4.97273e-38,0,-1.13778e-13,0,0,0,0,0,0,0,0,0,0,0,0,0,0,0,0,0,0,0,0,0,-0.261799,-4.01168e-06,-1.5,-nan,0,0,3,0,0
1430,-3.21065e-12,4.97321e-38,-1.57135e-06,-3.27738e-12,4.97273e-38,-3.40903e-12,-1.13779e-13,0,0,0,0,0,0,0,0,0,0,0,0,0,0,0,0,0,0,0,0,0,-0.261799,-3.82963e-06,-1.5,-nan,0,0,3,0,0
1440,-3.21065e-12,4.97321e-38,-1.57135e-06,-3.27738e-12,4.97273e-38,0,-1.13779e-13,0,0,0,0,0,0,0,0,0,0,0,0,0,0,0,0,0,0,0,0,0,-0.261799,-3.70842e-06,-1.5,-nan,0,0,3,0,0
1450,-3.21065e-12,4.97321e-38,-1.57135e-06,-3.27738e-12,4.97273e-38,-3.40903e-12,-1.13787e-13,0,0,0,0,0,0,0,0,0,0,0,0,0,0,0,0,0,0,0,0,0,-0.261799,-3.59105e-06,-1.5,-nan,0,0,3,0,0
1460,-3.21065e-12,4.97321e-38,-1.57135e-06,-3.27738e-12,4.97273e-38,0,-1.13787e-13,0,0,0,0,0,0,0,0,0,0,0,0,0,0,0,0,0,0,0,0,0,-0.261799,-3.47041e-06,-1.5,-nan,0,0,3,0,0
1470,-3.21065e-12,4.97321e-38,-1.57135e-06,-3.27738e-12,4.97273e-38,-3.40903e-12,-1.13788e-13,0,0,0,0,0,0,0,0,0,0,0,0,0,0,0,0,0,0,0,0,0,-0.261799,-3.33338e-06,-1.5,-nan,0,0,3,0,0
1480,-3.21065e-12,4.97321e-38,-1.57135e-06,-3.27738e-12,4.97273e-38,0,-1.13789e-13,0,0,0,0,0,0,0,0,0,0,0,0,0,0,0,0,0,0,0,0,0,-0.261799,-3.18851e-06,-1.5,-nan,0,0,3,0,0
1490,-3.21065e-12,4.97321e-38,-1.57135e-06,-3.27738e-12,4.97273e-38,-3.40903e-12,-1.13789e-13,0,0,0,0,0,0,0,0,0,0,0,0,0,0,0,0,0,0,0,0,0,-0.261799,-3.06249e-06,-1.5,-nan,0,0,3,0,0
1500,-3.21065e-12,4.97321e-38,-1.57135e-06,-3.27738e-12,4.97273e-38,0,-1.1379e-13,0,0,0,0,0,0,0,0,0,0,0,0,0,0,0,0,0,0,0,0,0,-0.261799,-2.92352e-06,-1.5,-nan,0,0,3,0,0
1510,-3.21065e-12,4.97321e-38,-1.57135e-06,-3.27738e-12,4.97273e-38,-3.40903e-12,-1.1379e-13,0,0,0,0,0,0,0,0,0,0,0,0,0,0,0,0,0,0,0,0,0,-0.261799,-2.80797e-06,-1.5,-nan,0,0,3,0,0
1520,-3.21065e-12,4.97321e-38,-1.57135e-06,-3.27738e-12,4.97273e-38,0,-1.13791e-13,0,0,0,0,0,0,0,0,0,0,0,0,0,0,0,0,0,0,0,0,0,-0.261799,-2.68055e-06,-1.5,-nan,0,0,3,0,0
1530,-3.21065e-12,4.97321e-38,-1.57135e-06,-3.27738e-12,4.97273e-38,-3.40903e-12,-1.13791e-13,0,0,0,0,0,0,0,0,0,0,0,0,0,0,0,0,0,0,0,0,0,-0.261799,-2.57988e-06,-1.5,-nan,0,0,3,0,0
1540,-3.21065e-12,4.97321e-38,-1.57135e-06,-3.27738e-12,4.97273e-38,0,-1.13792e-13,0,0,0,0,0,0,0,0,0,0,0,0,0,0,0,0,0,0,0,0,0,-0.261799,-2.46776e-06,-1.5,-nan,0,0,3,0,0
1550,-3.21065e-12,4.97321e-38,-1.57135e-06,-3.27738e-12,4.97273e-38,-3.40903e-12,-1.13792e-13,0,0,0,0,0,0,0,0,0,0,0,0,0,0,0,0,0,0,0,0,0,-0.261799,-2.37032e-06,-1.5,-nan,0,0,3,0,0
1560,-3.21065e-12,4.97321e-38,-1.57135e-06,-3.27738e-12,4.97273e-38,0,-1.13793e-13,0,0,0,0,0,0,0,0,0,0,0,0,0,0,0,0,0,0,0,0,0,-0.261799,-2.26731e-06,-1.5,-nan,0,0,3,0,0
1570,-3.21065e-12,4.97321e-38,-1.57135e-06,-3.27738e-12,4.97273e-38,-3.40903e-12,-1.13793e-13,0,0,0,0,0,0,0,0,0,0,0,0,0,0,0,0,0,0,0,0,0,-0.261799,-2.1777e-06,-1.5,-nan,0,0,3,0,0
1580,-3.21065e-12,4.97321e-38,-1.57135e-06,-3.27738e-12,4.97273e-38,0,-1.13794e-13,0,0,0,0,0,0,0,0,0,0,0,0,0,0,0,0,0,0,0,0,0,-0.261799,-2.07887e-06,-1.5,-nan,0,0,3,0,0
1590,-3.21065e-12,4.97321e-38,-1.57135e-06,-3.27738e-12,4.97273e-38,-3.40903e-12,-1.13794e-13,0,0,0,0,0,0,0,0,0,0,0,0,0,0,0,0,0,0,0,0,0,-0.261799,-1.99671e-06,-1.5,-nan,0,0,3,0,0
1600,-3.21065e-12,4.97321e-38,-1.57135e-06,-3.27738e-12,4.97273e-38,0,-1.13795e-13,0,0,0,0,0,0,0,0,0,0,0,0,0,0,0,0,0,0,0,0,0,-0.261799,-1.90994e-06,-1.5,-nan,0,0,3,0,0
1610,-3.21065e-12,4.97321e-38,-1.57135e-06,-3.27738e-12,4.97273e-38,-3.40903e-12,-1.13796e-13,0,0,0,0,0,0,0,0,0,0,0,0,0,0,0,0,0,0,0,0,0,-0.261799,-1.83077e-06,-1.5,-nan,0,0,3,0,0
1620,-3.21065e-12,4.97321e-38,-1.57135e-06,-3.27738e-12,4.97273e-38,0,-1.13796e-13,0,0,0,0,0,0,0,0,0,0,0,0,0,0,0,0,0,0,0,0,0,-0.261799,-1.7512e-06,-1.5,-nan,0,0,3,0,0
1630,-3.21065e-12,4.97321e-38,-1.57135e-06,-3.27738e-12,4.97273e-38,-3.40903e-12,-1.13797e-13,0,0,0,0,0,0,0,0,0,0,0,0,0,0,0,0,0,0,0,0,0,-0.261799,-1.68199e-06,-1.5,-nan,0,0,3,0,0
1640,-3.21065e-12,4.97321e-38,-1.57135e-06,-3.27738e-12,4.97273e-38,0,-1.13797e-13,0,0,0,0,0,0,0,0,0,0,0,0,0,0,0,0,0,0,0,0,0,-0.261799,-1.60566e-06,-1.5,-nan,0,0,3,0,0
1650,-3.21065e-12,4.97321e-38,-1.57135e-06,-3.27738e-12,4.97273e-38,-3.40903e-12,-1.13798e-13,0,0,0,0,0,0,0,0,0,0,0,0,0,0,0,0,0,0,0,0,0,-0.261799,-1.54226e-06,-1.5,-nan,0,0,3,0,0
1660,-3.21065e-12,4.97321e-38,-1.57135e-06,-3.27738e-12,4.97273e-38,0,-1.13798e-13,0,0,-3.17542,0.154746,0.410074,0,0,0,0,0,0.824583,0.154746,-1368637120,1681534023,-1368637120,1681534023,1511746676,-1368637120,-1367083344,-1367083344,0,-0.261799,-1.4297e-06,-1.5,-nan,0,0,3,0,0
1670,-3.21065e-12,4.97321e-38,-1.57135e-06,-3.27738e-12,4.97273e-38,-3.40903e-12,-1.13799e-13,0,0,-3.22823,0.165875,0.425963,0,0,0,0,0,0.771773,0.165875,-1368637120,1681534023,-1368637120,1681534023,1511746676,-1368637120,-1367083344,-1367083344,0,-0.261799,-1.37039e-06,-1.5,-nan,0,0,3,0,0
1680,-3.21065e-12,4.97321e-38,-1.57135e-06,-3.27738e-12,4.97273e-38,0,-1.13799e-13,0,0,-3.20807,0.16556,0.430976,0,0,0,0,0,0.791934,0.16556,-1368637120,1681534023,-1368637120,1681534023,1511746676,-1368637120,-1367083344,-1367083344,0,-0.261799,-1.32701e-06,-1.5,-nan,0,0,3,0,0
1690,-3.21065e-12,4.97321e-38,-1.57135e-06,-3.27738e-12,4.97273e-38,-3.40903e-12,-1.138e-13,0,0,-3.20807,0.16556,0.430976,0,0,0,0,0,0.791934,0.16556,-1368637120,1681534023,-1368637120,1681534023,1511746676,-1368637120,-1367083344,-1367083344,0,-0.261799,-1.28243e-06,-1.5,-nan,0,0,3,0,0
1700,-3.21065e-12,4.97321e-38,-1.57135e-06,-3.27738e-12,4.97273e-38,0,-1.138e-13,0,0,-3.2332,0.164852,0.439274,0,0,0,0,0,0.766803,0.164852,-1368637120,1681534023,-1368637120,1681534023,1511746676,-1368637120,-1367083344,-1367083344,0,-0.261799,-1.23175e-06,-1.5,-nan,0,0,3,0,0
1710,-3.21065e-12,4.97321e-38,-1.57135e-06,-3.27738e-12,4.97273e-38,-3.40903e-12,-1.13801e-13,0,0,-3.24059,0.166794,0.438765,0,0,0,0,0,0.759406,0.166794,-1368637120,1681534023,-1368637120,1681534023,1511746676,-1368637120,-1367083344,-1367083344,-0.201853,-0.261799,-9.32164e-07,-1.5,-nan,0,0,3,0.738384,0.168672
1720,-3.21065e-12,4.97321e-38,-1.57135e-06,-3.27738e-12,4.97273e-38,0,-1.1378e-13,0,0,-3.13496,0.181833,0.376919,0,0,0,0,0,0.865035,0.181833,-1368637120,1681534023,-1368637120,1681534023,1511746676,-1368637120,-1367083344,-1367083344,-0.258819,-0.261799,-6.14617e-07,-1.5,-nan,0,0,3,0.945707,0.19756
1730,-3.21065e-12,4.97321e-38,-1.57135e-06,-3.27738e-12,4.97273e-38,-3.40903e-12,-1.1378e-13,0,0,-3.13496,0.181833,0.376919,0,0,0,0,0,0.865035,0.181833,-1368637120,1681534023,-1368637120,1681534023,1511746676,-1368637120,-1367083344,-1367083344,-0.261781,-0.261799,-5.80689e-07,-1.5,-nan,0,0,3,0.958763,0.200105
1740,-3.21065e-12,4.97321e-38,-1.57135e-06,-3.27738e-12,4.97273e-38,0,-1.13781e-13,0,0,-3.1649,0.185995,0.398463,0,0,0,0,0,0.835101,0.185995,-1368637120,1681534023,-1368637120,1681534023,1511746676,-1368637120,-1367083344,-1367083344,-0.240831,-0.261799,-4.4802e-07,-1.5,-nan,0,0,3,0.85342,0.192234
1750,-3.21065e-12,4.97321e-38,-1.57135e-06,-3.27738e-12,4.97273e-38,-3.40903e-12,-1.13781e-13,0,0,-3.19433,0.164594,0.417163,0,0,0,0,0,0.805669,0.164594,-1368637120,1681534023,-1368637120,1681534023,1511746676,-1368637120,-1367083344,-1367083344,-0.210799,-0.261799,-3.37725e-07,-1.5,-nan,0,0,3,0.813864,0.176357
1760,-3.21065e-12,4.97321e-38,-1.57135e-06,-3.27738e-12,4.97273e-38,0,-1.13782e-13,0,0,-3.19433,0.164594,0.417163,0,0,0,0,0,0.805669,0.164594,-1368637120,1681534023,-1368637120,1681534023,1511746676,-1368637120,-1367083344,-1367083344,-0.211042,-0.261799,-3.29695e-07,-1.5,-nan,0,0,3,0.814651,0.176566
1770,-3.21065e-12,4.97321e-38,-1.57135e-06,-3.27738e-12,4.97273e-38,-3.40903e-12,-1.13782e-13,0,0,-3.21372,0.159849,0.419006,0,0,0,0,0,0.786285,0.159849,-1368637120,1681534023,-1368637120,1681534023,1511746676,-1368637120,-1367083344,-1367083344,-0.190218,-0.261799,-2.55802e-07,-1.5,-nan,0,0,3,0.816906,0.164027
1780,-3.21065e-12,4.97321e-38,-1.57135e-06,-3.27738e-12,4.97273e-38,0,-1.13783e-13,0,0,-3.23006,0.168063,0.433762,0,0,0,0,0,0.76994,0.168063,-1368637120,1681534023,-1368637120,1681534023,1511746676,-1368637120,-1367083344,-1367083344,-0.197037,-0.261799,-1.94338e-07,-1.5,-nan,0,0,3,0.787861,0.168435
1790,-3.21065e-12,4.97321e-38,-1.57135e-06,-3.27738e-12,4.97273e-38,-3.40903e-12,-1.13783e-13,0,0,-3.24035,0.171622,0.449636,0,0,0,0,0,0.75965,0.171622,-1368637120,1681534023,-1368637120,1681534023,1511746676,-1368637120,-1367083344,-1367083344,-0.19755,-0.261799,-1.47643e-07,-1.5,-nan,0,0,3,0.776914,0.16886
1800,-3.21065e-12,4.97321e-38,-1.57135e-06,-3.27738e-12,4.97273e-38,0,-1.13784e-13,0,0,-3.24035,0.171622,0.449636,0,0,0,0,0,0.75965,0.171622,-1368637120,1681534023,-1368637120,1681534023,1511746676,-1368637120,-1367083344,-1367083344,-0.202471,-0.261799,-1.08795e-07,-1.5,-nan,0,0,3,0.754595,0.172334
1810,-3.21065e-12,4.97321e-38,-1.57135e-06,-3.27738e-12,4.97273e-38,-3.40903e-12,-1.13785e-13,0,0,-3.24035,0.171622,0.449636,0,0,0,0,0,0.75965,0.171622,-1368637120,1681534023,-1368637120,1681534023,1511746676,-1368637120,-1367083344,-1367083344,-0.201549,-0.261799,-1.00724e-07,-1.5,-nan,0,0,3,0.75598,0.171756
1820,-3.21067e-12,4.9642e-38,4.96747e-38,-3.27738e-12,4.97273e-38,0,-1.13785e-13,0,0,-3.24035,0.171622,0.449636,0,0,0,0,0,0.75965,0.171622,-1368637120,1681534023,-1368637120,1681534023,1511746676,-1368637120,-1367083344,-1367083344,-0.20162,-0.261799,-9.83293e-08,-1.5,-nan,0,0,3,0.755618,0.171817
1830,-3.21065e-12,4.97321e-38,-1.57135e-06,-3.27738e-12,4.97273e-38,-3.40903e-12,-1.13786e-13,0,0,-3.14353,0.182238,0.385043,0,0,0,0,0,0.856467,0.182238,-1368637120,1681534023,-1368637120,1681534023,1511746676,-1368637120,-1367083344,-1367083344,-0.203506,-0.261799,-7.14129e-08,-1.5,-nan,0,0,3,0.759441,0.173276
1840,-3.21065e-12,4.97321e-38,-1.57135e-06,-3.27738e-12,4.97273e-38,0,-1.13786e-13,0,0,-3.16213,0.182123,0.398891,0,0,0,0,0,0.837874,0.182123,-1368637120,1681534023,-1368637120,1681534023,1511746676,-1368637120,-1367083344,-1367083344,-0.204131,-0.261799,-5.39728e-08,-1.5,-nan,0,0,3,0.800487,0.173888
1850,-3.21065e-12,4.97321e-38,-1.57135e-06,-3.27738e-12,4.97273e-38,-3.40903e-12,-1.13802e-13,0,0,-3.15582,0.180923,0.3834,0,0,0,0,0,0.84418,0.180923,-1368637120,1681534023,-1368637120,1681534023,1511746676,-1368637120,-1367083344,-1367083344,-0.211772,-0.261799,-4.0922e-08,-1.5,-nan,0,0,3,0.848957,0.179458
1860,-3.21065e-12,4.97321e-38,-1.57135e-06,-3.27738e-12,4.97273e-38,0,-1.13802e-13,0,0,-3.17784,0.182404,0.40254,0,0,0,0,0,0.82216,0.182404,-1368637120,1681534023,-1368637120,1681534023,1511746676,-1368637120,-1367083344,-1367083344,-0.217051,-0.261799,-3.08477e-08,-1.5,-nan,0,0,3,0.830699,0.183581
1870,-3.21065e-12,4.97321e-38,-1.57135e-06,-3.27738e-12,4.97273e-38,-3.40903e-12,-1.13803e-13,0,0,-3.13848,0.187466,0.383689,0,0,0,0,0,0.86152,0.187466,-1368637120,1681534023,-1368637120,1681534023,1511746676,-1368637120,-1367083344,-1367083344,-0.217811,-0.261799,-2.3375e-08,-1.5,-nan,0,0,3,0.858309,0.184328
1880,-3.21065e-12,4.97321e-38,-1.57135e-06,-3.27738e-12,4.97273e-38,0,-1.13803e-13,0,0,-3.16213,0.182123,0.398891,0,0,0,0,0,0.837874,0.182123,-1368637120,1681534023,-1368637120,1681534023,1511746676,-1368637120,-1367083344,-1367083344,-0.219154,-0.261799,-1.75392e-08,-1.5,-nan,0,0,3,0.841592,0.185528
1890,-3.21065e-12,4.97321e-38,-1.57135e-06,-3.27738e-12,4.97273e-38,-3.40903e-12,-1.13804e-13,0,0,-3.16213,0.182123,0.398891,0,0,0,0,0,0.837874,0.182123,-1368637120,1681534023,-1368637120,1681534023,1511746676,-1368637120,-1367083344,-1367083344,-0.217574,-0.261799,-1.32558e-08,-1.5,-nan,0,0,3,0.845299,0.184446
1900,-3.21065e-12,4.97321e-38,-1.57135e-06,-3.27738e-12,4.97273e-38,0,-1.13804e-13,0,0,-3.15379,0.178761,0.387317,0,0,0,0,0,0.84621,0.178761,-1368637120,1681534023,-1368637120,1681534023,1511746676,-1368637120,-1367083344,-1367083344,-0.220078,-0.261799,-9.97242e-09,-1.5,-nan,0,0,3,0.847074,0.186068
1910,-3.21065e-12,4.97321e-38,-1.57135e-06,-3.27738e-12,4.97273e-38,-3.40903e-12,-1.13805e-13,0,0,-3.17187,0.178032,0.402514,0,0,0,0,0,0.828132,0.178032,-1368637120,1681534023,-1368637120,1681534023,1511746676,-1368637120,-1367083344,-1367083344,-0.222828,-0.261799,-7.63515e-09,-1.5,-nan,0,0,3,0.855017,0.187976
1920,-3.21065e-12,4.97321e-38,-1.57135e-06,-3.27738e-12,4.97273e-38,0,-1.13805e-13,0,0,-3.16213,0.182123,0.398891,0,0,0,0,0,0.837874,0.182123,-1368637120,1681534023,-1368637120,1681534023,1511746676,-1368637120,-1367083344,-1367083344,-0.223758,-0.261799,-5.81562e-09,-1.5,-nan,0,0,3,0.855748,0.188881
1930,-3.21065e-12,4.97321e-38,-1.57135e-06,-3.27738e-12,4.97273e-38,-3.40903e-12,-1.13806e-13,0,0,-3.17784,0.182404,0.40254,0,0,0,0,0,0.82216,0.182404,-1368637120,1681534023,-1368637120,1681534023,1511746676,-1368637120,-1367083344,-1367083344,-0.216535,-0.261799,-4.46404e-09,-1.5,-nan,0,0,3,0.862729,0.18404
1940,-3.21065e-12,4.97321e-38,-1.57135e-06,-3.27738e-12,4.97273e-38,0,-1.13806e-13,0,0,-3.16213,0.182123,0.398891,0,0,0,0,0,0.837874,0.182123,-1368637120,1681534023,-1368637120,1681534023,1511746676,-1368637120,-1367083344,-1367083344,-0.217033,-0.261799,-3.29478e-09,-1.5,-nan,0,0,3,0.846052,0.184551
1950,-3.21065e-12,4.97321e-38,-1.57135e-06,-3.27738e-12,4.97273e-38,-3.40903e-12,-1.13807e-13,0,0,-3.22167,0.170974,0.433469,0,0,0,0,0,0.778328,0.170974,-1368637120,1681534023,-1368637120,1681534023,1511746676,-1368637120,-1367083344,-1367083344,-0.212204,-0.261799,-6.48475e-11,-1.5,-nan,0,0,3,0.840234,0.182287
1960,-3.21065e-12,4.97321e-38,-1.57135e-06,-3.27738e-12,4.97273e-38,0,-1.13808e-13,0,0,-3.20519,0.162628,0.423853,0.786422,0.161294,-0.0276233,-0.0109599,0,0.79481,0.162628,-1368637120,1681534023,-1368637120,1681534023,1511746676,-1368637120,-1367083344,-1367083344,-0.173306,-0.261799,4.08424e-12,-1.5,-nan,0,0,3,0.786422,0.161294
1970,-3.21065e-12,4.97321e-38,-1.57135e-06,-3.27738e-12,4.97273e-38,-3.40903e-12,-1.13808e-13,0,0,-3.15167,0.181648,0.39477,0.78473,0.160622,-0.0267567,-0.0106161,0,0.848333,0.181648,-1368637120,1681534023,-1368637120,1681534023,1511746676,-1368637120,-1367083344,-1367083344,-0.172977,-0.261799,3.578e-12,-1.5,-nan,0,0,3,0.78473,0.160622
1980,-3.21065e-12,4.97321e-38,-1.57135e-06,-3.27738e-12,4.97273e-38,0,-1.13809e-13,0,0,-3.16201,0.18183,0.397148,0.782766,0.159843,-0.0257437,-0.0102142,0,0.837991,0.18183,-1368637120,1681534023,-1368637120,1681534023,1511746676,-1368637120,-1367083344,-1367083344,-0.1726,-0.261799,3.04222e-12,-1.5,-nan,0,0,3,0.782766,0.159843
1990,-3.21065e-12,4.97321e-38,-1.57135e-06,-3.27738e-12,4.97273e-38,-3.40903e-12,-1.13809e-13,0,0,-3.16064,0.173827,0.397812,0.781359,0.159285,-0.0250255,-0.00992922,0,0.839362,0.173827,-1368637120,1681534023,-1368637120,1681534023,1511746676,-1368637120,-1367083344,-1367083344,-0.172326,-0.261799,2.70643e-12,-1.5,-nan,0,0,3,0.781359,0.159285
2000,-3.21065e-12,4.97321e-38,-1.57135e-06,-3.27738e-12,4.97273e-38,0,-1.1381e-13,0,0,-3.16064,0.173827,0.397812,0.781085,0.159176,-0.0248882,-0.00987473,0,0.839362,0.173827,-1368637120,1681534023,-1368637120,1681534023,1511746676,-1368637120,-1367083344,-1367083344,-0.172271,-0.261799,2.64741e-12,-1.5,-nan,0,0,3,0.781085,0.159176
2010,-3.21065e-12,4.97321e-38,-1.57135e-06,-3.27738e-12,4.97273e-38,-3.40903e-12,-1.1381e-13,0,0,-3.15167,0.181648,0.39477,0.780542,0.158961,-0.0246153,-0.00976644,0,0.848333,0.181648,-1368637120,1681534023,-1368637120,1681534023,1511746676,-1368637120,-1367083344,-1367083344,-0.172163,-0.261799,2.53235e-12,-1.5,-nan,0,0,3,0.780542,0.158961
2020,-3.21065e-12,4.97321e-38,-1.57135e-06,-3.27738e-12,4.97273e-38,0,-1.13811e-13,0,0,-3.15167,0.181648,0.39477,0.780028,0.158757,-0.0243577,-0.00966423,0,0.848333,0.181648,-1368637120,1681534023,-1368637120,1681534023,1511746676,-1368637120,-1367083344,-1367083344,-0.17206,-0.261799,2.42738e-12,-1.5,-nan,0,0,3,0.780028,0.158757
2030,-3.21065e-12,4.97321e-38,-1.57135e-06,-3.27738e-12,4.97273e-38,-3.40903e-12,-1.13811e-13,0,0,-3.10815,0.171765,0.366315,0.777399,0.157714,-0.0229746,-0.00911547,0,0.891851,0.171765,-1368637120,1681534023,-1368637120,1681534023,1511746676,-1368637120,-1367083344,-1367083344,-0.166865,-0.261799,1.88236e-12,-1.5,-nan,0,0,3,0.860004,0.165696
2040,-3.21065e-12,4.97321e-38,-1.57135e-06,-3.27738e-12,4.97273e-38,0,-1.13812e-13,0,0,-3.10815,0.171765,0.366315,0.777125,0.157605,-0.022837,-0.00906091,0,0.891851,0.171765,-1368637120,1681534023,-1368637120,1681534023,1511746676,-1368637120,-1367083344,-1367083344,-0.166194,-0.261799,1.83761e-12,-1.5,-nan,0,0,3,0.860903,0.165058
2050,-3.21065e-12,4.97321e-38,-1.57135e-06,-3.27738e-12,4.97273e-38,-3.40903e-12,-1.13812e-13,0,0,-3.14171,0.180683,0.392588,0.774618,0.15661,-0.0215182,-0.00853762,0,0.858287,0.180683,-1368637120,1681534023,-1368637120,1681534023,1511746676,-1368637120,-1367083344,-1367083344,-0.200621,-0.261799,1.41777e-12,-1.5,-nan,0,0,3,0.866154,0.180384
2060,-3.21065e-12,4.97321e-38,-1.57135e-06,-3.27738e-12,4.97273e-38,0,-1.13813e-13,0,0,-3.11284,0.17298,0.371703,0.772031,0.155584,-0.0201648,-0.00800066,0,0.887159,0.17298,-1368637120,1681534023,-1368637120,1681534023,1511746676,-1368637120,-1367083344,-1367083344,-0.184999,-0.261799,1.0713e-12,-1.5,-nan,0,0,3,0.901922,0.17089
2070,-3.21065e-12,4.97321e-38,-1.57135e-06,-3.27738e-12,4.97273e-38,-3.40903e-12,-1.13813e-13,0,0,-3.1198,0.178854,0.369001,0.769272,0.154489,-0.0186891,-0.00741515,0,0.880197,0.178854,-1368637120,1681534023,-1368637120,1681534023,1511746676,-1368637120,-1367083344,-1367083344,-0.198958,-0.261799,7.61751e-13,-1.5,-nan,0,0,3,0.892036,0.178306
2080,-3.21065e-12,4.97321e-38,-1.57135e-06,-3.27738e-12,4.97273e-38,0,-1.13814e-13,0,0,-3.1198,0.178854,0.369001,0.76903,0.154393,-0.0185679,-0.00736707,0,0.880197,0.178854,-1368637120,1681534023,-1368637120,1681534023,1511746676,-1368637120,-1367083344,-1367083344,-0.198966,-0.261799,7.42145e-13,-1.5,-nan,0,0,3,0.893085,0.178258
2090,-3.21065e-12,4.97321e-38,-1.57135e-06,-3.27738e-12,4.97273e-38,-3.40903e-12,-1.13815e-13,0,0,-3.12655,0.168335,0.372386,0.767018,0.153595,-0.0175171,-0.00695016,0,0.873452,0.168335,-1368637120,1681534023,-1368637120,1681534023,1511746676,-1368637120,-1367083344,-1367083344,-0.181416,-0.261799,5.77762e-13,-1.5,-nan,0,0,3,0.902288,0.166445
2100,-3.21065e-12,4.97321e-38,-1.57135e-06,-3.27738e-12,4.97273e-38,0,-1.13815e-13,0,0,-3.13345,0.178762,0.387301,0.764926,0.152765,-0.0164091,-0.00651052,0,0.866545,0.178762,-1368637120,1681534023,-1368637120,1681534023,1511746676,-1368637120,-1367083344,-1367083344,-0.200391,-0.261799,4.33253e-13,-1.5,-nan,0,0,3,0.8846,0.178266
2110,-3.21065e-12,4.97321e-38,-1.57135e-06,-3.27738e-12,4.97273e-38,-3.40903e-12,-1.13816e-13,0,0,-3.13911,0.178068,0.388809,0.763009,0.152004,-0.0153961,-0.0061086,0,0.860892,0.178068,-1368637120,1681534023,-1368637120,1681534023,1511746676,-1368637120,-1367083344,-1367083344,-0.200523,-0.261799,3.2764e-13,-1.5,-nan,0,0,3,0.889054,0.177962
2120,-3.21065e-12,4.97321e-38,-1.57135e-06,-3.27738e-12,4.97273e-38,0,-1.13816e-13,0,0,-3.18208,0.168073,0.416525,0.761211,0.151291,-0.0144452,-0.00573132,0,0.817922,0.168073,-1368637120,1681534023,-1368637120,1681534023,1511746676,-1368637120,-1367083344,-1367083344,-0.200402,-0.261799,2.47625e-13,-1.5,-nan,0,0,3,0.875457,0.177546
2130,-3.21065e-12,4.97321e-38,-1.57135e-06,-3.27738e-12,4.97273e-38,-3.40903e-12,-1.13817e-13,0,0,-3.12349,0.177102,0.37613,0.759549,0.150632,-0.0135674,-0.00538305,0,0.876512,0.177102,-1368637120,1681534023,-1368637120,1681534023,1511746676,-1368637120,-1367083344,-1367083344,-0.199996,-0.261799,1.88126e-13,-1.5,-nan,0,0,3,0.878851,0.176918
2140,-3.21065e-12,4.97321e-38,-1.57135e-06,-3.27738e-12,4.97273e-38,0,-1.13817e-13,0,0,-3.12819,0.173554,0.379741,0.757856,0.14996,-0.0126818,-0.00503167,0,0.87181,0.173554,-1368637120,1681534023,-1368637120,1681534023,1511746676,-1368637120,-1367083344,-1367083344,-0.196254,-0.261799,1.40623e-13,-1.5,-nan,0,0,3,0.880917,0.173681
2150,-3.21065e-12,4.97321e-38,-1.57135e-06,-3.27738e-12,4.97273e-38,-3.40903e-12,-1.13818e-13,0,0,-3.12636,0.180015,0.389009,0.75643,0.149394,-0.0119304,-0.00473356,0,0.873644,0.180015,-1368637120,1681534023,-1368637120,1681534023,1511746676,-1368637120,-1367083344,-1367083344,-0.200639,-0.261799,1.07725e-13,-1.5,-nan,0,0,3,0.877337,0.176707
2160,-3.21065e-12,4.97321e-38,-1.57135e-06,-3.27738e-12,4.97273e-38,0,-1.13818e-13,0,0,-3.12636,0.180015,0.389009,0.756111,0.149268,-0.0117699,-0.00466987,0,0.873644,0.180015,-1368637120,1681534023,-1368637120,1681534023,1511746676,-1368637120,-1367083344,-1367083344,-0.200694,-0.261799,1.01983e-13,-1.5,-nan,0,0,3,0.877886,0.176682
2170,-3.21065e-12,4.97321e-38,-1.57135e-06,-3.27738e-12,4.97273e-38,-3.40903e-12,-1.13819e-13,0,0,-3.12636,0.180015,0.389009,0.754792,0.148744,-0.0110813,-0.00439664,0,0.873644,0.180015,-1368637120,1681534023,-1368637120,1681534023,1511746676,-1368637120,-1367083344,-1367083344,-0.204596,-0.261799,7.85154e-14,-1.5,-nan,0,0,3,0.877645,0.178986
2180,-3.21065e-12,4.97321e-38,-1.57135e-06,-3.27738e-12,4.97273e-38,0,-1.13819e-13,0,0,-3.14106,0.181449,0.392179,0.753411,0.148196,-0.0103472,-0.00410539,0,0.858941,0.181449,-1368637120,1681534023,-1368637120,1681534023,1511746676,-1368637120,-1367083344,-1367083344,-0.20778,-0.261799,5.81045e-14,-1.5,-nan,0,0,3,0.878086,0.180871
2190,-3.21065e-12,4.97321e-38,-1.57135e-06,-3.27738e-12,4.97273e-38,-3.40903e-12,-1.1382e-13,0,0,-3.12636,0.180015,0.389009,0.752274,0.147745,-0.00975014,-0.0038685,0,0.873644,0.180015,-1368637120,1681534023,-1368637120,1681534023,1511746676,-1368637120,-1367083344,-1367083344,-0.207323,-0.261799,4.49004e-14,-1.5,-nan,0,0,3,0.881632,0.18051
2200,-3.21065e-12,4.97321e-38,-1.57135e-06,-3.27738e-12,4.97273e-38,0,-1.13821e-13,0,0,-3.13911,0.178068,0.388809,0.751228,0.14733,-0.00920232,-0.00365115,0,0.860892,0.178068,-1368637120,1681534023,-1368637120,1681534023,1511746676,-1368637120,-1367083344,-1367083344,-0.210247,-0.261799,3.49774e-14,-1.5,-nan,0,0,3,0.875801,0.182007
2210,-3.21065e-12,4.97321e-38,-1.57135e-06,-3.27738e-12,4.97273e-38,-3.40903e-12,-1.13821e-13,0,0,-3.13911,0.178068,0.388809,0.751118,0.147286,-0.00914724,-0.00362929,0,0.860892,0.178068,-1368637120,1681534023,-1368637120,1681534023,1511746676,-1368637120,-1367083344,-1367083344,-0.210366,-0.261799,3.41459e-14,-1.5,-nan,0,0,3,0.875921,0.182084
2220,-3.21065e-12,4.97321e-38,-1.57135e-06,-3.27738e-12,4.97273e-38,0,-1.13822e-13,0,0,-3.11005,0.170738,0.372288,0.750155,0.146904,-0.0086415,-0.00342864,0,0.889949,0.170738,-1368637120,1681534023,-1368637120,1681534023,1511746676,-1368637120,-1367083344,-1367083344,-0.209836,-0.261799,2.66807e-14,-1.5,-nan,0,0,3,0.874156,0.18177
2230,-3.21065e-12,4.97321e-38,-1.57135e-06,-3.27738e-12,4.97273e-38,-3.40903e-12,-1.13822e-13,0,0,-3.1645,0.182719,0.410157,0.749267,0.146552,-0.00817726,-0.00324444,0,0.835502,0.182719,-1368637120,1681534023,-1368637120,1681534023,1511746676,-1368637120,-1367083344,-1367083344,-0.211125,-0.261799,2.10353e-14,-1.5,-nan,0,0,3,0.86826,0.182554
2240,-3.21065e-12,4.97321e-38,-1.57135e-06,-3.27738e-12,4.97273e-38,0,-1.13823e-13,0,0,-3.09678,0.171667,0.35431,0.748319,0.146176,-0.00767628,-0.00304567,0,0.903224,0.171667,-1368637120,1681534023,-1368637120,1681534023,1511746676,-1368637120,-1367083344,-1367083344,-0.207235,-0.261799,1.59396e-14,-1.5,-nan,0,0,3,0.877948,0.179946
2250,-3.21065e-12,4.97321e-38,-1.57135e-06,-3.27738e-12,4.97273e-38,-3.40903e-12,-1.13823e-13,0,0,-3.13402,0.177583,0.38763,0.74751,0.145855,-0.00725225,-0.00287743,0,0.865983,0.177583,-1368637120,1681534023,-1368637120,1681534023,1511746676,-1368637120,-1367083344,-1367083344,-0.205586,-0.261799,1.24672e-14,-1.5,-nan,0,0,3,0.87903,0.178587
2260,-3.21065e-12,4.97321e-38,-1.57135e-06,-3.27738e-12,4.97273e-38,0,-1.13824e-13,0,0,-3.13345,0.178762,0.387301,0.746657,0.145516,-0.00680093,-0.00269836,0,0.866545,0.178762,-1368637120,1681534023,-1368637120,1681534023,1511746676,-1368637120,-1367083344,-1367083344,-0.206366,-0.261799,9.40361e-15,-1.5,-nan,0,0,3,0.867141,0.179007
2270,-3.21065e-12,4.97321e-38,-1.57135e-06,-3.27738e-12,4.97273e-38,-3.40903e-12,-1.13824e-13,0,0,-3.13345,0.178762,0.387301,0.745862,0.145201,-0.00638089,-0.00253171,0,0.866545,0.178762,-1368637120,1681534023,-1368637120,1681534023,1511746676,-1368637120,-1367083344,-1367083344,-0.206774,-0.261799,7.10711e-15,-1.5,-nan,0,0,3,0.867846,0.179273
2280,-3.21065e-12,4.97321e-38,-1.57135e-06,-3.27738e-12,4.97273e-38,0,-1.13825e-13,0,0,-3.14085,0.167986,0.391768,0.7451,0.144899,-0.00597726,-0.00237156,0,0.859146,0.167986,-1368637120,1681534023,-1368637120,1681534023,1511746676,-1368637120,-1367083344,-1367083344,-0.207107,-0.261799,5.32949e-15,-1.5,-nan,0,0,3,0.86523,0.179351
2290,-3.21065e-12,4.97321e-38,-1.57135e-06,-3.27738e-12,4.97273e-38,-3.40903e-12,-1.13825e-13,0,0,-3.14171,0.180683,0.392588,0.744273,0.14457,-0.00553367,-0.00219556,0,0.858287,0.180683,-1368637120,1681534023,-1368637120,1681534023,1511746676,-1368637120,-1367083344,-1367083344,-0.208024,-0.261799,3.76571e-15,-1.5,-nan,0,0,3,0.863467,0.179849
2300,-3.21065e-12,4.97321e-38,-1.57135e-06,-3.27738e-12,4.97273e-38,0,-1.13826e-13,0,0,-3.10546,0.178712,0.368793,0.743617,0.14431,-0.00518639,-0.00205777,0,0.894542,0.178712,-1368637120,1681534023,-1368637120,1681534023,1511746676,-1368637120,-1367083344,-1367083344,-0.207243,-0.261799,2.83125e-15,-1.5,-nan,0,0,3,0.865292,0.179381
2310,-3.21065e-12,4.97321e-38,-1.57135e-06,-3.27738e-12,4.97273e-38,-3.40903e-12,-1.13826e-13,0,0,-3.14106,0.181449,0.392179,0.743066,0.144092,-0.00489706,-0.00194298,0,0.858941,0.181449,-1368637120,1681534023,-1368637120,1681534023,1511746676,-1368637120,-1367083344,-1367083344,-0.206616,-0.261799,2.20669e-15,-1.5,-nan,0,0,3,0.860306,0.178939
2320,-3.21065e-12,4.97321e-38,-1.57135e-06,-3.27738e-12,4.97273e-38,0,-1.13827e-13,0,0,-3.13024,0.185143,0.395683,0.742511,0.143872,-0.00460449,-0.0018269,0,0.869764,0.185143,-1368637120,1681534023,-1368637120,1681534023,1511746676,-1368637120,-1367083344,-1367083344,-0.207266,-0.261799,1.68611e-15,-1.5,-nan,0,0,3,0.864147,0.179375
2330,-3.21065e-12,4.97321e-38,-1.57135e-06,-3.27738e-12,4.97273e-38,-3.40903e-12,-1.13828e-13,0,0,-3.1118,0.176961,0.363903,0.741985,0.143663,-0.00432699,-0.00171679,0,0.888198,0.176961,-1368637120,1681534023,-1368637120,1681534023,1511746676,-1368637120,-1367083344,-1367083344,-0.206142,-0.261799,1.28429e-15,-1.5,-nan,0,0,3,0.872141,0.178483
2340,-3.21065e-12,4.97321e-38,-1.57135e-06,-3.27738e-12,4.97273e-38,0,-1.13828e-13,0,0,-3.14117,0.171965,0.393769,0.741386,0.143425,-0.00400602,-0.00158944,0,0.858828,0.171965,-1368637120,1681534023,-1368637120,1681534023,1511746676,-1368637120,-1367083344,-1367083344,-0.20569,-0.261799,9.08155e-16,-1.5,-nan,0,0,3,0.87084,0.178091
2350,-3.21065e-12,4.97321e-38,-1.57135e-06,-3.27738e-12,4.97273e-38,-3.40903e-12,-1.13829e-13,0,0,-3.12904,0.177507,0.386539,0.740921,0.143241,-0.00376071,-0.00149211,0,0.870963,0.177507,-1368637120,1681534023,-1368637120,1681534023,1511746676,-1368637120,-1367083344,-1367083344,-0.205518,-0.261799,6.8856e-16,-1.5,-nan,0,0,3,0.869251,0.177835
2360,-3.21065e-12,4.97321e-38,-1.57135e-06,-3.27738e-12,4.97273e-38,0,-1.13829e-13,0,0,-3.14606,0.185865,0.399585,0.740479,0.143065,-0.00352656,-0.00139921,0,0.853944,0.185865,-1368637120,1681534023,-1368637120,1681534023,1511746676,-1368637120,-1367083344,-1367083344,-0.208574,-0.261799,5.19048e-16,-1.5,-nan,0,0,3,0.871865,0.179858
2370,-3.21065e-12,4.97321e-38,-1.57135e-06,-3.27738e-12,4.97273e-38,-3.40903e-12,-1.1383e-13,0,0,-3.12636,0.180015,0.389009,0.740067,0.142902,-0.00331194,-0.00131406,0,0.873644,0.180015,-1368637120,1681534023,-1368637120,1681534023,1511746676,-1368637120,-1367083344,-1367083344,-0.209195,-0.261799,3.96658e-16,-1.5,-nan,0,0,3,0.872829,0.180247
2380,-3.21065e-12,4.97321e-38,-1.57135e-06,-3.27738e-12,4.97273e-38,0,-1.1383e-13,0,0,-3.13133,0.180496,0.39012,0.739669,0.142744,-0.00310079,-0.00123028,0,0.868675,0.180496,-1368637120,1681534023,-1368637120,1681534023,1511746676,-1368637120,-1367083344,-1367083344,-0.209722,-0.261799,2.96666e-16,-1.5,-nan,0,0,3,0.870314,0.180679
2390,-3.21065e-12,4.97321e-38,-1.57135e-06,-3.27738e-12,4.97273e-38,-3.40903e-12,-1.13831e-13,0,0,-3.13518,0.185628,0.396777,0.739307,0.1426,-0.00290928,-0.0011543,0,0.864822,0.185628,-1368637120,1681534023,-1368637120,1681534023,1511746676,-1368637120,-1367083344,-1367083344,-0.21084,-0.261799,2.24216e-16,-1.5,-nan,0,0,3,0.870005,0.181428
2400,-3.21065e-12,4.97321e-38,-1.57135e-06,-3.27738e-12,4.97273e-38,0,-1.13831e-13,0,0,-3.13518,0.185628,0.396777,0.739272,0.142586,-0.00289187,-0.00114739,0,0.864822,0.185628,-1368637120,1681534023,-1368637120,1681534023,1511746676,-1368637120,-1367083344,-1367083344,-0.210885,-0.261799,2.18885e-16,-1.5,-nan,0,0,3,0.870045,0.181458
2410,-3.21065e-12,4.97321e-38,-1.57135e-06,-3.27738e-12,4.97273e-38,-3.40903e-12,-1.13832e-13,0,0,-3.13327,0.178044,0.396126,0.738967,0.142466,-0.00273198,-0.00108395,0,0.866726,0.178044,-1368637120,1681534023,-1368637120,1681534023,1511746676,-1368637120,-1367083344,-1367083344,-0.210336,-0.261799,1.7103e-16,-1.5,-nan,0,0,3,0.868895,0.181086
2420,-3.21065e-12,4.97321e-38,-1.57135e-06,-3.27738e-12,4.97273e-38,0,-1.13832e-13,0,0,-3.13133,0.180496,0.39012,0.738636,0.142334,-0.00255652,-0.00101434,0,0.868675,0.180496,-1368637120,1681534023,-1368637120,1681534023,1511746676,-1368637120,-1367083344,-1367083344,-0.210198,-0.261799,1.27659e-16,-1.5,-nan,0,0,3,0.868949,0.180878
2430,-3.21065e-12,4.97321e-38,-1.57135e-06,-3.27738e-12,4.97273e-38,-3.40903e-12,-1.13833e-13,0,0,-3.10846,0.177164,0.38165,0.738342,0.142218,-0.00240337,-0.000953571,0,0.891537,0.177164,-1368637120,1681534023,-1368637120,1681534023,1511746676,-1368637120,-1367083344,-1367083344,-0.21022,-0.261799,9.79688e-17,-1.5,-nan,0,0,3,0.87369,0.180943
2440,-3.21065e-12,4.97321e-38,-1.57135e-06,-3.27738e-12,4.97273e-38,0,-1.13834e-13,0,0,-3.10846,0.177164,0.38165,0.738306,0.142203,-0.0023854,-0.000946438,0,0.891537,0.177164,-1368637120,1681534023,-1368637120,1681534023,1511746676,-1368637120,-1367083344,-1367083344,-0.21026,-0.261799,9.50609e-17,-1.5,-nan,0,0,3,0.873827,0.180969
2450,-3.21065e-12,4.97321e-38,-1.57135e-06,-3.27738e-12,4.97273e-38,-3.40903e-12,-1.13834e-13,0,0,-3.14485,0.186588,0.398799,0.738032,0.142095,-0.00224254,-0.000889757,0,0.855146,0.186588,-1368637120,1681534023,-1368637120,1681534023,1511746676,-1368637120,-1367083344,-1367083344,-0.209645,-0.261799,7.2978e-17,-1.5,-nan,0,0,3,0.868445,0.18071
2460,-3.21065e-12,4.97321e-38,-1.57135e-06,-3.27738e-12,4.97273e-38,0,-1.13835e-13,0,0,-3.12837,0.177569,0.395053,0.737776,0.141993,-0.00210738,-0.000836132,0,0.87163,0.177569,-1368637120,1681534023,-1368637120,1681534023,1511746676,-1368637120,-1367083344,-1367083344,-0.210375,-0.261799,5.55866e-17,-1.5,-nan,0,0,3,0.866941,0.181098
2470,-3.21065e-12,4.97321e-38,-1.57135e-06,-3.27738e-12,4.97273e-38,-3.40903e-12,-1.13835e-13,0,0,-3.13007,0.18017,0.402707,0.737532,0.141896,-0.00197827,-0.000784907,0,0.869929,0.18017,-1368637120,1681534023,-1368637120,1681534023,1511746676,-1368637120,-1367083344,-1367083344,-0.208999,-0.261799,4.2121e-17,-1.5,-nan,0,0,3,0.871248,0.180257
2480,-3.21065e-12,4.97321e-38,-1.57135e-06,-3.27738e-12,4.97273e-38,0,-1.13836e-13,0,0,-3.13345,0.178762,0.387301,0.737306,0.141806,-0.0018591,-0.000737624,0,0.866545,0.178762,-1368637120,1681534023,-1368637120,1681534023,1511746676,-1368637120,-1367083344,-1367083344,-0.209183,-0.261799,3.21014e-17,-1.5,-nan,0,0,3,0.868575,0.180225
2490,-3.21065e-12,4.97321e-38,-1.57135e-06,-3.27738e-12,4.97273e-38,-3.40903e-12,-1.13836e-13,0,0,-3.141,0.185373,0.39843,0.737031,0.141697,-0.00171102,-0.00067887,0,0.858998,0.185373,-1368637120,1681534023,-1368637120,1681534023,1511746676,-1368637120,-1367083344,-1367083344,-0.209086,-0.261799,2.20062e-17,-1.5,-nan,0,0,3,0.866026,0.180087
2500,-3.21065e-12,4.97321e-38,-1.57135e-06,-3.27738e-12,4.97273e-38,0,-1.13837e-13,0,0,-3.11888,0.177344,0.384199,0.736833,0.141619,-0.00160619,-0.000637279,0,0.881123,0.177344,-1368637120,1681534023,-1368637120,1681534023,1511746676,-1368637120,-1367083344,-1367083344,-0.207531,-0.261799,1.66753e-17,-1.5,-nan,0,0,3,0.872137,0.178959
2510,-3.21065e-12,4.97321e-38,-1.57135e-06,-3.27738e-12,4.97273e-38,-3.40903e-12,-1.13837e-13,0,0,-3.14659,0.172403,0.399652,0.736641,0.141543,-0.00150464,-0.000596986,0,0.853406,0.172403,-1368637120,1681534023,-1368637120,1681534023,1511746676,-1368637120,-1367083344,-1367083344,-0.205404,-0.261799,1.25121e-17,-1.5,-nan,0,0,3,0.866325,0.177439
2520,-3.21065e-12,4.97321e-38,-1.57135e-06,-3.27738e-12,4.97273e-38,0,-1.13838e-13,0,0,-3.14659,0.172403,0.399652,0.736601,0.141527,-0.0014844,-0.000588955,0,0.853406,0.172403,-1368637120,1681534023,-1368637120,1681534023,1511746676,-1368637120,-1367083344,-1367083344,-0.205362,-0.261799,1.1846e-17,-1.5,-nan,0,0,3,0.86631,0.177393
2530,-3.21065e-12,4.97321e-38,-1.57135e-06,-3.27738e-12,4.97273e-38,-3.40903e-12,-1.13838e-13,0,0,-3.14659,0.172403,0.399652,0.73657,0.141514,-0.00146886,-0.000582791,0,0.853406,0.172403,-1368637120,1681534023,-1368637120,1681534023,1511746676,-1368637120,-1367083344,-1367083344,-0.205329,-0.261799,1.1355e-17,-1.5,-nan,0,0,3,0.866299,0.177358
2540,-3.21065e-12,4.97321e-38,-1.57135e-06,-3.27738e-12,4.97273e-38,0,-1.13839e-13,0,0,-3.14659,0.172403,0.399652,0.736541,0.141503,-0.00145422,-0.000576981,0,0.853406,0.172403,-1368637120,1681534023,-1368637120,1681534023,1511746676,-1368637120,-1367083344,-1367083344,-0.205297,-0.261799,1.09062e-17,-1.5,-nan,0,0,3,0.866288,0.177324
2550,-3.21065e-12,4.97321e-38,-1.57135e-06,-3.27738e-12,4.97273e-38,-3.40903e-12,-1.13839e-13,0,0,-3.07575,0.176962,0.349618,0.736367,0.141434,-0.00136223,-0.000540483,0,0.924251,0.176962,-1368637120,1681534023,-1368637120,1681534023,1511746676,-1368637120,-1367083344,-1367083344,-0.204195,-0.261799,8.17834e-18,-1.5,-nan,0,0,3,0.874066,0.176559
2560,-3.21065e-12,4.97321e-38,-1.57135e-06,-3.27738e-12,4.97273e-38,0,-1.1384e-13,0,0,-3.16357,0.174944,0.419876,0.736213,0.141373,-0.00128084,-0.000508193,0,0.836425,0.174944,-1368637120,1681534023,-1368637120,1681534023,1511746676,-1368637120,-1367083344,-1367083344,-0.203645,-0.261799,6.24898e-18,-1.5,-nan,0,0,3,0.863584,0.176032
2570,-3.21065e-12,4.97321e-38,-1.57135e-06,-3.27738e-12,4.97273e-38,-3.40903e-12,-1.13841e-13,0,0,-3.12984,0.171689,0.385566,0.736062,0.141313,-0.0012011,-0.000476553,0,0.870158,0.171689,-1368637120,1681534023,-1368637120,1681534023,1511746676,-1368637120,-1367083344,-1367083344,-0.202261,-0.261799,4.71059e-18,-1.5,-nan,0,0,3,0.870106,0.175034
2580,-3.21065e-12,4.97321e-38,-1.57135e-06,-3.27738e-12,4.97273e-38,0,-1.13841e-13,0,0,-3.14106,0.181449,0.392179,0.735922,0.141257,-0.00112695,-0.000447133,0,0.858941,0.181449,-1368637120,1681534023,-1368637120,1681534023,1511746676,-1368637120,-1367083344,-1367083344,-0.201789,-0.261799,3.5623e-18,-1.5,-nan,0,0,3,0.867253,0.174628
2590,-3.21065e-12,4.97321e-38,-1.57135e-06,-3.27738e-12,4.97273e-38,-3.40903e-12,-1.13842e-13,0,0,-3.13133,0.180496,0.39012,0.735789,0.141205,-0.00105781,-0.000419703,0,0.868675,0.180496,-1368637120,1681534023,-1368637120,1681534023,1511746676,-1368637120,-1367083344,-1367083344,-0.204942,-0.261799,2.71573e-18,-1.5,-nan,0,0,3,0.867547,0.176658
2600,-3.21065e-12,4.97321e-38,-1.57135e-06,-3.27738e-12,4.97273e-38,0,-1.13842e-13,0,0,-3.16324,0.189541,0.406406,0.735664,0.141155,-0.000991458,-0.000393375,0,0.836756,0.189541,-1368637120,1681534023,-1368637120,1681534023,1511746676,-1368637120,-1367083344,-1367083344,-0.210635,-0.261799,2.04306e-18,-1.5,-nan,0,0,3,0.856547,0.180796
