timestamp,A_x,A_y,A_z,P,Q,R,Phi,Theta,Psi,poseX,poseY,poseZ,state_X,state_Y,state_Z,state_VzB,state_Bx,state_By,state_Bz,p1_x,p1_y,p2_x,p2_y,p3_x,p3_y,p4_x,p4_y,roll,pitch,yaw,alt,targetHeading,highLevelState,lowLevelState,gateNumber,filtered_x,filtered_y,x_OT,y_OT,vx_OT,vy_OT,filtered_vx,filtered_vygateArea
10,0,0,0,0,0,0,0,0,0,0,0,0,0,0,0,0,0,0,0,0,0,0,0,0,0,0,0,0,-0.261799,0.00779127,-1.5,9.84106e-12,0,0,3,0,0,0,0,0,0,0,0,-0.474866
20,0,0,0,0,0,0,0,0,0,0,0,0,0,0,0,0,0,0,0,0,0,0,0,0,0,0,0,0,-0.261799,0.00752953,-1.5,9.84106e-12,0,0,3,0,0,0,0,0,0,0,0,-0.474866
30,-3.21239e-12,3.85588e-38,-1.55365e-06,-3.27827e-12,3.85564e-38,-3.40903e-12,-1.06589e-13,0,0,0,0,0,0,0,0,0,0,0,0,0,0,0,0,0,0,0,0,0,-0.261799,-0.00146419,-1.5,9.84106e-12,0,0,3,0,0,0,0,0,0,0,0,-0.474866
40,-3.21239e-12,3.85588e-38,-1.55365e-06,-3.27827e-12,3.85564e-38,0,-1.0659e-13,0,0,0,0,0,0,0,0,0,0,0,0,0,0,0,0,0,0,0,0,0,-0.261799,-0.00142073,-1.5,9.84106e-12,0,0,3,0,0,0,0,0,0,0,0,-0.474866
50,-3.21239e-12,3.85588e-38,-1.55365e-06,-3.27827e-12,3.85564e-38,-3.40903e-12,-1.0659e-13,0,0,0,0,0,0,0,0,0,0,0,0,0,0,0,0,0,0,0,0,0,-0.261799,-0.00137579,-1.5,9.84106e-12,0,0,3,0,0,0,0,0,0,0,0,-0.474866
60,-3.21239e-12,3.85588e-38,-1.55365e-06,-3.27827e-12,3.85564e-38,0,-1.0659e-13,0,0,0,0,0,0,0,0,0,0,0,0,0,0,0,0,0,0,0,0,0,-0.261799,-0.00133496,-1.5,9.84106e-12,0,0,3,0,0,0,0,0,0,0,0,-0.474866
70,-3.21239e-12,3.85588e-38,-1.55365e-06,-3.27827e-12,3.85564e-38,-3.40903e-12,-1.0659e-13,0,0,0,0,0,0,0,0,0,0,0,0,0,0,0,0,0,0,0,0,0,-0.261799,-0.00129273,-1.5,9.84106e-12,0,0,3,0,0,0,0,0,0,0,0,-0.474866
80,-3.21239e-12,3.85588e-38,-1.55365e-06,-3.27827e-12,3.85564e-38,0,-1.06591e-13,0,0,0,0,0,0,0,0,0,0,0,0,0,0,0,0,0,0,0,0,0,-0.261799,-0.00125436,-1.5,9.84106e-12,0,0,3,0,0,0,0,0,0,0,0,-0.474866
90,-3.21239e-12,3.85588e-38,-1.55365e-06,-3.27827e-12,3.85564e-38,-3.40903e-12,-1.06591e-13,0,0,0,0,0,0,0,0,0,0,0,0,0,0,0,0,0,0,0,0,0,-0.261799,-0.00121713,-1.5,9.84106e-12,0,0,3,0,0,0,0,0,0,0,0,-0.474866
100,-3.21239e-12,3.85588e-38,-1.55365e-06,-3.27827e-12,3.85564e-38,0,-1.06591e-13,0,0,0,0,0,0,0,0,0,0,0,0,0,0,0,0,0,0,0,0,0,-0.261799,-0.001181,-1.5,9.84106e-12,0,0,3,0,0,0,0,0,0,0,0,-0.474866
110,-3.21239e-12,3.85588e-38,-1.55365e-06,-3.27827e-12,3.85564e-38,-3.40903e-12,-1.06591e-13,0,0,0,0,0,0,0,0,0,0,0,0,0,0,0,0,0,0,0,0,0,-0.261799,-0.00114365,-1.5,9.84106e-12,0,0,3,0,0,0,0,0,0,0,0,-0.474866
120,-3.21239e-12,3.85588e-38,-1.55365e-06,-3.27827e-12,3.85564e-38,0,-1.06592e-13,0,0,0,0,0,0,0,0,0,0,0,0,0,0,0,0,0,0,0,0,0,-0.261799,-0.0010266,-1.5,9.84106e-12,0,0,3,0,0,0,0,0,0,0,0,-0.474866
130,-3.21239e-12,3.85588e-38,-1.55365e-06,-3.27827e-12,3.85564e-38,-3.40903e-12,-1.06592e-13,0,0,0,0,0,0,0,0,0,0,0,0,0,0,0,0,0,0,0,0,0,-0.261799,-0.000834829,-1.5,9.84106e-12,0,0,3,0,0,0,0,0,0,0,0,-0.474866
140,-3.21241e-12,3.85598e-38,3.85733e-38,-3.27827e-12,3.85564e-38,0,-1.06592e-13,0,0,0,0,0,0,0,0,0,0,0,0,0,0,0,0,0,0,0,0,0,-0.261799,-0.000675316,-1.5,9.84106e-12,0,0,3,0,0,0,0,0,0,0,0,-0.474866
150,-3.21239e-12,3.85588e-38,-1.55365e-06,-3.27827e-12,3.85564e-38,-3.40903e-12,-1.06593e-13,0,0,0,0,0,0,0,0,0,0,0,0,0,0,0,0,0,0,0,0,0,-0.261799,-0.00064198,-1.5,9.84106e-12,0,0,3,0,0,0,0,0,0,0,0,-0.474866
160,-3.21239e-12,3.85588e-38,-1.55365e-06,-3.27827e-12,3.85564e-38,0,-1.06593e-13,0,0,0,0,0,0,0,0,0,0,0,0,0,0,0,0,0,0,0,0,0,-0.261799,-0.000622925,-1.5,9.84106e-12,0,0,3,0,0,0,0,0,0,0,0,-0.474866
170,-3.21239e-12,3.85588e-38,-1.55365e-06,-3.27827e-12,3.85564e-38,-3.40903e-12,-1.06593e-13,0,0,0,0,0,0,0,0,0,0,0,0,0,0,0,0,0,0,0,0,0,-0.261799,-0.000592175,-1.5,9.84106e-12,0,0,3,0,0,0,0,0,0,0,0,-0.474866
180,-3.21239e-12,3.85588e-38,-1.55365e-06,-3.27827e-12,3.85564e-38,0,-1.06593e-13,0,0,0,0,0,0,0,0,0,0,0,0,0,0,0,0,0,0,0,0,0,-0.261799,-0.000559557,-1.5,9.84106e-12,0,0,3,0,0,0,0,0,0,0,0,-0.474866
190,-3.21239e-12,3.85588e-38,-1.55365e-06,-3.27827e-12,3.85564e-38,-3.40903e-12,-1.06594e-13,0,0,0,0,0,0,0,0,0,0,0,0,0,0,0,0,0,0,0,0,0,-0.261799,-0.000516578,-1.5,9.84106e-12,0,0,3,0,0,0,0,0,0,0,0,-0.474866
200,-3.21239e-12,3.85588e-38,-1.55365e-06,-3.27827e-12,3.85564e-38,0,-1.06594e-13,0,0,0,0,0,0,0,0,0,0,0,0,0,0,0,0,0,0,0,0,0,-0.261799,-0.000501245,-1.5,9.84106e-12,0,0,3,0,0,0,0,0,0,0,0,-0.474866
210,-3.21239e-12,3.85588e-38,-1.55365e-06,-3.27827e-12,3.85564e-38,-3.40903e-12,-1.06594e-13,0,0,0,0,0,0,0,0,0,0,0,0,0,0,0,0,0,0,0,0,0,-0.261799,-0.000475516,-1.5,9.84106e-12,0,0,3,0,0,0,0,0,0,0,0,-0.474866
220,-3.21239e-12,3.85588e-38,-1.55365e-06,-3.27827e-12,3.85564e-38,0,-1.06594e-13,0,0,0,0,0,0,0,0,0,0,0,0,0,0,0,0,0,0,0,0,0,-0.261799,-0.00045485,-1.5,9.84106e-12,0,0,3,0,0,0,0,0,0,0,0,-0.474866
230,-3.21239e-12,3.85588e-38,-1.55365e-06,-3.27827e-12,3.85564e-38,-3.40903e-12,-1.06595e-13,0,0,0,0,0,0,0,0,0,0,0,0,0,0,0,0,0,0,0,0,0,-0.261799,-0.000442245,-1.5,9.84106e-12,0,0,3,0,0,0,0,0,0,0,0,-0.474866
240,-3.21239e-12,3.85588e-38,-1.55365e-06,-3.27827e-12,3.85564e-38,0,-1.06595e-13,0,0,0,0,0,0,0,0,0,0,0,0,0,0,0,0,0,0,0,0,0,-0.261799,-0.000425651,-1.5,9.84106e-12,0,0,3,0,0,0,0,0,0,0,0,-0.474866
250,-3.21239e-12,3.85588e-38,-1.55365e-06,-3.27827e-12,3.85564e-38,-3.40903e-12,-1.06595e-13,0,0,0,0,0,0,0,0,0,0,0,0,0,0,0,0,0,0,0,0,0,-0.261799,-0.000411351,-1.5,9.84106e-12,0,0,3,0,0,0,0,0,0,0,0,-0.474866
260,-3.21239e-12,3.85588e-38,-1.55365e-06,-3.27827e-12,3.85564e-38,0,-1.06596e-13,0,0,0,0,0,0,0,0,0,0,0,0,0,0,0,0,0,0,0,0,0,-0.261799,-0.000399142,-1.5,9.84106e-12,0,0,3,0,0,0,0,0,0,0,0,-0.474866
270,-3.21239e-12,3.85588e-38,-1.55365e-06,-3.27827e-12,3.85564e-38,-3.40903e-12,-1.06596e-13,0,0,0,0,0,0,0,0,0,0,0,0,0,0,0,0,0,0,0,0,0,-0.261799,-0.000386517,-1.5,9.84106e-12,0,0,3,0,0,0,0,0,0,0,0,-0.474866
280,-3.21239e-12,3.85588e-38,-1.55365e-06,-3.27827e-12,3.85564e-38,0,-1.06596e-13,0,0,0,0,0,0,0,0,0,0,0,0,0,0,0,0,0,0,0,0,0,-0.261799,-0.00037505,-1.5,9.84106e-12,0,0,3,0,0,0,0,0,0,0,0,-0.474866
290,-3.21239e-12,3.85588e-38,-1.55365e-06,-3.27827e-12,3.85564e-38,-3.40903e-12,-1.06596e-13,0,0,0,0,0,0,0,0,0,0,0,0,0,0,0,0,0,0,0,0,0,-0.261799,-0.000363924,-1.5,9.84106e-12,0,0,3,0,0,0,0,0,0,0,0,-0.474866
300,-3.21239e-12,3.85588e-38,-1.55365e-06,-3.27827e-12,3.85564e-38,0,-1.06597e-13,0,0,0,0,0,0,0,0,0,0,0,0,0,0,0,0,0,0,0,0,0,-0.261799,-0.000351699,-1.5,9.84106e-12,0,0,3,0,0,0,0,0,0,0,0,-0.474866
310,-3.21239e-12,3.85588e-38,-1.55365e-06,-3.27827e-12,3.85564e-38,-3.40903e-12,-1.06597e-13,0,0,0,0,0,0,0,0,0,0,0,0,0,0,0,0,0,0,0,0,0,-0.261799,-0.000340567,-1.5,9.84106e-12,0,0,3,0,0,0,0,0,0,0,0,-0.474866
320,-3.21239e-12,3.85588e-38,-1.55365e-06,-3.27827e-12,3.85564e-38,0,-1.06597e-13,0,0,0,0,0,0,0,0,0,0,0,0,0,0,0,0,0,0,0,0,0,-0.261799,-0.000329795,-1.5,9.84106e-12,0,0,3,0,0,0,0,0,0,0,0,-0.474866
330,-3.21239e-12,3.85588e-38,-1.55365e-06,-3.27827e-12,3.85564e-38,-3.40903e-12,-1.06597e-13,0,0,0,0,0,0,0,0,0,0,0,0,0,0,0,0,0,0,0,0,0,-0.261799,-0.000306408,-1.5,9.84106e-12,0,0,3,0,0,0,0,0,0,0,0,-0.474866
340,-3.21239e-12,3.85588e-38,-1.55365e-06,-3.27827e-12,3.85564e-38,0,-1.06598e-13,0,0,0,0,0,0,0,0,0,0,0,0,0,0,0,0,0,0,0,0,0,-0.261799,-0.000297313,-1.5,9.84106e-12,0,0,3,0,0,0,0,0,0,0,0,-0.474866
350,-3.21239e-12,3.85588e-38,-1.55365e-06,-3.27827e-12,3.85564e-38,-3.40903e-12,-1.06598e-13,0,0,0,0,0,0,0,0,0,0,0,0,0,0,0,0,0,0,0,0,0,-0.261799,-0.000286733,-1.5,9.84106e-12,0,0,3,0,0,0,0,0,0,0,0,-0.474866
360,-3.21239e-12,3.85588e-38,-1.55365e-06,-3.27827e-12,3.85564e-38,0,-1.06598e-13,0,0,0,0,0,0,0,0,0,0,0,0,0,0,0,0,0,0,0,0,0,-0.261799,-0.000277658,-1.5,9.84106e-12,0,0,3,0,0,0,0,0,0,0,0,-0.474866
370,-3.21239e-12,3.85588e-38,-1.55365e-06,-3.27827e-12,3.85564e-38,-3.40903e-12,-1.06599e-13,0,0,0,0,0,0,0,0,0,0,0,0,0,0,0,0,0,0,0,0,0,-0.261799,-0.000268876,-1.5,9.84106e-12,0,0,3,0,0,0,0,0,0,0,0,-0.474866
380,-3.21239e-12,3.85588e-38,-1.55365e-06,-3.27827e-12,3.85564e-38,0,-1.06599e-13,0,0,0,0,0,0,0,0,0,0,0,0,0,0,0,0,0,0,0,0,0,-0.261799,-0.000260895,-1.5,9.84106e-12,0,0,3,0,0,0,0,0,0,0,0,-0.474866
390,-3.21239e-12,3.85588e-38,-1.55365e-06,-3.27827e-12,3.85564e-38,-3.40903e-12,-1.06599e-13,0,0,0,0,0,0,0,0,0,0,0,0,0,0,0,0,0,0,0,0,0,-0.261799,-0.000253151,-1.5,9.84106e-12,0,0,3,0,0,0,0,0,0,0,0,-0.474866
400,-3.21239e-12,3.85588e-38,-1.55365e-06,-3.27827e-12,3.85564e-38,0,-1.06599e-13,0,0,0,0,0,0,0,0,0,0,0,0,0,0,0,0,0,0,0,0,0,-0.261799,-0.000245144,-1.5,9.84106e-12,0,0,3,0,0,0,0,0,0,0,0,-0.474866
410,-3.21239e-12,3.85588e-38,-1.55365e-06,-3.27827e-12,3.85564e-38,-3.40903e-12,-1.066e-13,0,0,0,0,0,0,0,0,0,0,0,0,0,0,0,0,0,0,0,0,0,-0.261799,-0.000235464,-1.5,9.84106e-12,0,0,3,0,0,0,0,0,0,0,0,-0.474866
420,-3.21239e-12,3.85588e-38,-1.55365e-06,-3.27827e-12,3.85564e-38,0,-1.066e-13,0,0,0,0,0,0,0,0,0,0,0,0,0,0,0,0,0,0,0,0,0,-0.261799,-0.000228941,-1.5,9.84106e-12,0,0,3,0,0,0,0,0,0,0,0,-0.474866
430,-3.21239e-12,3.85588e-38,-1.55365e-06,-3.27827e-12,3.85564e-38,-3.40903e-12,-1.066e-13,0,0,0,0,0,0,0,0,0,0,0,0,0,0,0,0,0,0,0,0,0,-0.261799,-0.000222599,-1.5,9.84106e-12,0,0,3,0,0,0,0,0,0,0,0,-0.474866
440,-3.21239e-12,3.85588e-38,-1.55365e-06,-3.27827e-12,3.85564e-38,0,-1.066e-13,0,0,0,0,0,0,0,0,0,0,0,0,0,0,0,0,0,0,0,0,0,-0.261799,-0.000216868,-1.5,9.84106e-12,0,0,3,0,0,0,0,0,0,0,0,-0.474866
450,-3.21239e-12,3.85588e-38,-1.55365e-06,-3.27827e-12,3.85564e-38,-3.40903e-12,-1.06601e-13,0,0,0,0,0,0,0,0,0,0,0,0,0,0,0,0,0,0,0,0,0,-0.261799,-0.000210431,-1.5,9.84106e-12,0,0,3,0,0,0,0,0,0,0,0,-0.474866
460,-3.21239e-12,3.85588e-38,-1.55365e-06,-3.27827e-12,3.85564e-38,0,-1.06601e-13,0,0,0,0,0,0,0,0,0,0,0,0,0,0,0,0,0,0,0,0,0,-0.261799,-0.000204185,-1.5,9.84106e-12,0,0,3,0,0,0,0,0,0,0,0,-0.474866
470,-3.21239e-12,3.85588e-38,-1.55365e-06,-3.27827e-12,3.85564e-38,-3.40903e-12,-1.06601e-13,0,0,0,0,0,0,0,0,0,0,0,0,0,0,0,0,0,0,0,0,0,-0.261799,-0.000197727,-1.5,9.84106e-12,0,0,3,0,0,0,0,0,0,0,0,-0.474866
480,-3.21239e-12,3.85588e-38,-1.55365e-06,-3.27827e-12,3.85564e-38,0,-1.06602e-13,0,0,0,0,0,0,0,0,0,0,0,0,0,0,0,0,0,0,0,0,0,-0.261799,-0.00019108,-1.5,9.84106e-12,0,0,3,0,0,0,0,0,0,0,0,-0.474866
490,-3.21239e-12,3.85588e-38,-1.55365e-06,-3.27827e-12,3.85564e-38,-3.40903e-12,-1.06602e-13,0,0,0,0,0,0,0,0,0,0,0,0,0,0,0,0,0,0,0,0,0,-0.261799,-0.000185036,-1.5,9.84106e-12,0,0,3,0,0,0,0,0,0,0,0,-0.474866
500,-3.21239e-12,3.85588e-38,-1.55365e-06,-3.27827e-12,3.85564e-38,0,-1.06602e-13,0,0,0,0,0,0,0,0,0,0,0,0,0,0,0,0,0,0,0,0,0,-0.261799,-0.000179183,-1.5,9.84106e-12,0,0,3,0,0,0,0,0,0,0,0,-0.474866
510,-3.21239e-12,3.85588e-38,-1.55365e-06,-3.27827e-12,3.85564e-38,-3.40903e-12,-1.06602e-13,0,0,0,0,0,0,0,0,0,0,0,0,0,0,0,0,0,0,0,0,0,-0.261799,-0.000173865,-1.5,9.84106e-12,0,0,3,0,0,0,0,0,0,0,0,-0.474866
520,-3.21239e-12,3.85588e-38,-1.55365e-06,-3.27827e-12,3.85564e-38,0,-1.06603e-13,0,0,0,0,0,0,0,0,0,0,0,0,0,0,0,0,0,0,0,0,0,-0.261799,-0.000168704,-1.5,9.84106e-12,0,0,3,0,0,0,0,0,0,0,0,-0.474866
530,-3.21239e-12,3.85588e-38,-1.55365e-06,-3.27827e-12,3.85564e-38,-3.40903e-12,-1.06603e-13,0,0,0,0,0,0,0,0,0,0,0,0,0,0,0,0,0,0,0,0,0,-0.261799,-0.000163697,-1.5,9.84106e-12,0,0,3,0,0,0,0,0,0,0,0,-0.474866
540,-3.21239e-12,3.85588e-38,-1.55365e-06,-3.27827e-12,3.85564e-38,0,-1.06603e-13,0,0,0,0,0,0,0,0,0,0,0,0,0,0,0,0,0,0,0,0,0,-0.261799,-0.000157871,-1.5,9.84106e-12,0,0,3,0,0,0,0,0,0,0,0,-0.474866
550,-3.21239e-12,3.85588e-38,-1.55365e-06,-3.27827e-12,3.85564e-38,-3.40903e-12,-1.06603e-13,0,0,0,0,0,0,0,0,0,0,0,0,0,0,0,0,0,0,0,0,0,-0.261799,-0.000152568,-1.5,9.84106e-12,0,0,3,0,0,0,0,0,0,0,0,-0.474866
560,-3.21239e-12,3.85588e-38,-1.55365e-06,-3.27827e-12,3.85564e-38,0,-1.06604e-13,0,0,0,0,0,0,0,0,0,0,0,0,0,0,0,0,0,0,0,0,0,-0.261799,-0.000148039,-1.5,9.84106e-12,0,0,3,0,0,0,0,0,0,0,0,-0.474866
570,-3.21239e-12,3.85588e-38,-1.55365e-06,-3.27827e-12,3.85564e-38,-3.40903e-12,-1.06604e-13,0,0,0,0,0,0,0,0,0,0,0,0,0,0,0,0,0,0,0,0,0,-0.261799,-0.000143357,-1.5,9.84106e-12,0,0,3,0,0,0,0,0,0,0,0,-0.474866
580,-3.21239e-12,3.85588e-38,-1.55365e-06,-3.27827e-12,3.85564e-38,0,-1.06604e-13,0,0,0,0,0,0,0,0,0,0,0,0,0,0,0,0,0,0,0,0,0,-0.261799,-0.000139102,-1.5,9.84106e-12,0,0,3,0,0,0,0,0,0,0,0,-0.474866
590,-3.21239e-12,3.85588e-38,-1.55365e-06,-3.27827e-12,3.85564e-38,-3.40903e-12,-1.06605e-13,0,0,0,0,0,0,0,0,0,0,0,0,0,0,0,0,0,0,0,0,0,-0.261799,-0.000134973,-1.5,9.84106e-12,0,0,3,0,0,0,0,0,0,0,0,-0.474866
600,-3.21239e-12,3.85588e-38,-1.55365e-06,-3.27827e-12,3.85564e-38,0,-1.06605e-13,0,0,0,0,0,0,0,0,0,0,0,0,0,0,0,0,0,0,0,0,0,-0.261799,-0.000130436,-1.5,9.84106e-12,0,0,3,0,0,0,0,0,0,0,0,-0.474866
610,-3.21239e-12,3.85588e-38,-1.55365e-06,-3.27827e-12,3.85564e-38,-3.40903e-12,-1.06605e-13,0,0,0,0,0,0,0,0,0,0,0,0,0,0,0,0,0,0,0,0,0,-0.261799,-0.000126307,-1.5,9.84106e-12,0,0,3,0,0,0,0,0,0,0,0,-0.474866
620,-3.21239e-12,3.85588e-38,-1.55365e-06,-3.27827e-12,3.85564e-38,0,-1.06605e-13,0,0,0,0,0,0,0,0,0,0,0,0,0,0,0,0,0,0,0,0,0,-0.261799,-0.00012231,-1.5,9.84106e-12,0,0,3,0,0,0,0,0,0,0,0,-0.474866
630,-3.21239e-12,3.85588e-38,-1.55365e-06,-3.27827e-12,3.85564e-38,-3.40903e-12,-1.06606e-13,0,0,0,0,0,0,0,0,0,0,0,0,0,0,0,0,0,0,0,0,0,-0.261799,-0.000118922,-1.5,9.84106e-12,0,0,3,0,0,0,0,0,0,0,0,-0.474866
640,-3.21239e-12,3.85588e-38,-1.55365e-06,-3.27827e-12,3.85564e-38,0,-1.06606e-13,0,0,0,0,0,0,0,0,0,0,0,0,0,0,0,0,0,0,0,0,0,-0.261799,-0.00011586,-1.5,9.84106e-12,0,0,3,0,0,0,0,0,0,0,0,-0.474866
650,-3.21239e-12,3.85588e-38,-1.55365e-06,-3.27827e-12,3.85564e-38,-3.40903e-12,-1.06606e-13,0,0,0,0,0,0,0,0,0,0,0,0,0,0,0,0,0,0,0,0,0,-0.261799,-0.000112421,-1.5,9.84106e-12,0,0,3,0,0,0,0,0,0,0,0,-0.474866
660,-3.21239e-12,3.85588e-38,-1.55365e-06,-3.27827e-12,3.85564e-38,0,-1.06606e-13,0,0,0,0,0,0,0,0,0,0,0,0,0,0,0,0,0,0,0,0,0,-0.261799,-0.000109084,-1.5,9.84106e-12,0,0,3,0,0,0,0,0,0,0,0,-0.474866
670,-3.21239e-12,3.85588e-38,-1.55365e-06,-3.27827e-12,3.85564e-38,-3.40903e-12,-1.06607e-13,0,0,0,0,0,0,0,0,0,0,0,0,0,0,0,0,0,0,0,0,0,-0.261799,-0.000105205,-1.5,9.84106e-12,0,0,3,0,0,0,0,0,0,0,0,-0.474866
680,-3.21239e-12,3.85588e-38,-1.55365e-06,-3.27827e-12,3.85564e-38,0,-1.06607e-13,0,0,0,0,0,0,0,0,0,0,0,0,0,0,0,0,0,0,0,0,0,-0.261799,-0.000101878,-1.5,9.84106e-12,0,0,3,0,0,0,0,0,0,0,0,-0.474866
690,-3.21239e-12,3.85588e-38,-1.55365e-06,-3.27827e-12,3.85564e-38,-3.40903e-12,-1.06607e-13,0,0,0,0,0,0,0,0,0,0,0,0,0,0,0,0,0,0,0,0,0,-0.261799,-9.88538e-05,-1.5,9.84106e-12,0,0,3,0,0,0,0,0,0,0,0,-0.474866
700,-3.21239e-12,3.85588e-38,-1.55365e-06,-3.27827e-12,3.85564e-38,0,-1.06607e-13,0,0,0,0,0,0,0,0,0,0,0,0,0,0,0,0,0,0,0,0,0,-0.261799,-9.5727e-05,-1.5,9.84106e-12,0,0,3,0,0,0,0,0,0,0,0,-0.474866
710,-3.21239e-12,3.85588e-38,-1.55365e-06,-3.27827e-12,3.85564e-38,-3.40903e-12,-1.06608e-13,0,0,0,0,0,0,0,0,0,0,0,0,0,0,0,0,0,0,0,0,0,-0.261799,-9.28857e-05,-1.5,9.84106e-12,0,0,3,0,0,0,0,0,0,0,0,-0.474866
720,-3.21241e-12,3.85598e-38,3.85733e-38,-3.27827e-12,3.85564e-38,0,-1.06608e-13,0,0,0,0,0,0,0,0,0,0,0,0,0,0,0,0,0,0,0,0,0,-0.261799,-9.01301e-05,-1.5,9.84106e-12,0,0,3,0,0,0,0,0,0,0,0,-0.474866
730,-3.21239e-12,3.85588e-38,-1.55365e-06,-3.27827e-12,3.85564e-38,-3.40903e-12,-1.06608e-13,0,0,0,0,0,0,0,0,0,0,0,0,0,0,0,0,0,0,0,0,0,-0.261799,-8.71002e-05,-1.5,9.84106e-12,0,0,3,0,0,0,0,0,0,0,0,-0.474866
740,-3.21239e-12,3.85588e-38,-1.55365e-06,-3.27827e-12,3.85564e-38,0,-1.06609e-13,0,0,0,0,0,0,0,0,0,0,0,0,0,0,0,0,0,0,0,0,0,-0.261799,-8.43435e-05,-1.5,9.84106e-12,0,0,3,0,0,0,0,0,0,0,0,-0.474866
750,-3.21239e-12,3.85588e-38,-1.55365e-06,-3.27827e-12,3.85564e-38,-3.40903e-12,-1.06609e-13,0,0,0,0,0,0,0,0,0,0,0,0,0,0,0,0,0,0,0,0,0,-0.261799,-8.1674e-05,-1.5,9.84106e-12,0,0,3,0,0,0,0,0,0,0,0,-0.474866
760,-3.21239e-12,3.85588e-38,-1.55365e-06,-3.27827e-12,3.85564e-38,0,-1.06609e-13,0,0,0,0,0,0,0,0,0,0,0,0,0,0,0,0,0,0,0,0,0,-0.261799,-7.90907e-05,-1.5,9.84106e-12,0,0,3,0,0,0,0,0,0,0,0,-0.474866
770,-3.21239e-12,3.85588e-38,-1.55365e-06,-3.27827e-12,3.85564e-38,-3.40903e-12,-1.06609e-13,0,0,0,0,0,0,0,0,0,0,0,0,0,0,0,0,0,0,0,0,0,-0.261799,-7.64318e-05,-1.5,9.84106e-12,0,0,3,0,0,0,0,0,0,0,0,-0.474866
780,-3.21239e-12,3.85588e-38,-1.55365e-06,-3.27827e-12,3.85564e-38,0,-1.0661e-13,0,0,0,0,0,0,0,0,0,0,0,0,0,0,0,0,0,0,0,0,0,-0.261799,-7.41632e-05,-1.5,9.84106e-12,0,0,3,0,0,0,0,0,0,0,0,-0.474866
790,-3.21239e-12,3.85588e-38,-1.55365e-06,-3.27827e-12,3.85564e-38,-3.40903e-12,-1.0661e-13,0,0,0,0,0,0,0,0,0,0,0,0,0,0,0,0,0,0,0,0,0,-0.261799,-7.18174e-05,-1.5,9.84106e-12,0,0,3,0,0,0,0,0,0,0,0,-0.474866
800,-3.21239e-12,3.85588e-38,-1.55365e-06,-3.27827e-12,3.85564e-38,0,-1.0661e-13,0,0,0,0,0,0,0,0,0,0,0,0,0,0,0,0,0,0,0,0,0,-0.261799,-6.95458e-05,-1.5,9.84106e-12,0,0,3,0,0,0,0,0,0,0,0,-0.474866
810,-3.21239e-12,3.85588e-38,-1.55365e-06,-3.27827e-12,3.85564e-38,-3.40903e-12,-1.0661e-13,0,0,0,0,0,0,0,0,0,0,0,0,0,0,0,0,0,0,0,0,0,-0.261799,-6.7346e-05,-1.5,9.84106e-12,0,0,3,0,0,0,0,0,0,0,0,-0.474866
820,-3.21239e-12,3.85588e-38,-1.55365e-06,-3.27827e-12,3.85564e-38,0,-1.06611e-13,0,0,0,0,0,0,0,0,0,0,0,0,0,0,0,0,0,0,0,0,0,-0.261799,-6.52159e-05,-1.5,9.84106e-12,0,0,3,0,0,0,0,0,0,0,0,-0.474866
830,-3.21239e-12,3.85588e-38,-1.55365e-06,-3.27827e-12,3.85564e-38,-3.40903e-12,-1.06611e-13,0,0,0,0,0,0,0,0,0,0,0,0,0,0,0,0,0,0,0,0,0,-0.261799,-6.35374e-05,-1.5,9.84106e-12,0,0,3,0,0,0,0,0,0,0,0,-0.474866
840,-3.21239e-12,3.85588e-38,-1.55365e-06,-3.27827e-12,3.85564e-38,0,-1.06611e-13,0,0,0,0,0,0,0,0,0,0,0,0,0,0,0,0,0,0,0,0,0,-0.261799,-6.19021e-05,-1.5,9.84106e-12,0,0,3,0,0,0,0,0,0,0,0,-0.474866
850,-3.21239e-12,3.85588e-38,-1.55365e-06,-3.27827e-12,3.85564e-38,-3.40903e-12,-1.06612e-13,0,0,0,0,0,0,0,0,0,0,0,0,0,0,0,0,0,0,0,0,0,-0.261799,-6.03089e-05,-1.5,9.84106e-12,0,0,3,0,0,0,0,0,0,0,0,-0.474866
860,-3.21239e-12,3.85588e-38,-1.55365e-06,-3.27827e-12,3.85564e-38,0,-1.06612e-13,0,0,0,0,0,0,0,0,0,0,0,0,0,0,0,0,0,0,0,0,0,-0.261799,-5.82829e-05,-1.5,9.84106e-12,0,0,3,0,0,0,0,0,0,0,0,-0.474866
870,-3.21239e-12,3.85588e-38,-1.55365e-06,-3.27827e-12,3.85564e-38,-3.40903e-12,-1.06612e-13,0,0,0,0,0,0,0,0,0,0,0,0,0,0,0,0,0,0,0,0,0,-0.261799,-5.64394e-05,-1.5,9.84106e-12,0,0,3,0,0,0,0,0,0,0,0,-0.474866
880,-3.21239e-12,3.85588e-38,-1.55365e-06,-3.27827e-12,3.85564e-38,0,-1.06612e-13,0,0,0,0,0,0,0,0,0,0,0,0,0,0,0,0,0,0,0,0,0,-0.261799,-5.46542e-05,-1.5,9.84106e-12,0,0,3,0,0,0,0,0,0,0,0,-0.474866
890,-3.21239e-12,3.85588e-38,-1.55365e-06,-3.27827e-12,3.85564e-38,-3.40903e-12,-1.06613e-13,0,0,0,0,0,0,0,0,0,0,0,0,0,0,0,0,0,0,0,0,0,-0.261799,-5.3032e-05,-1.5,9.84106e-12,0,0,3,0,0,0,0,0,0,0,0,-0.474866
900,-3.21239e-12,3.85588e-38,-1.55365e-06,-3.27827e-12,3.85564e-38,0,-1.06613e-13,0,0,0,0,0,0,0,0,0,0,0,0,0,0,0,0,0,0,0,0,0,-0.261799,-5.13546e-05,-1.5,9.84106e-12,0,0,3,0,0,0,0,0,0,0,0,-0.474866
910,-3.21239e-12,3.85588e-38,-1.55365e-06,-3.27827e-12,3.85564e-38,-3.40903e-12,-1.06613e-13,0,0,0,0,0,0,0,0,0,0,0,0,0,0,0,0,0,0,0,0,0,-0.261799,-4.98311e-05,-1.5,9.84106e-12,0,0,3,0,0,0,0,0,0,0,0,-0.474866
920,-3.21239e-12,3.85588e-38,-1.55365e-06,-3.27827e-12,3.85564e-38,0,-1.06613e-13,0,0,0,0,0,0,0,0,0,0,0,0,0,0,0,0,0,0,0,0,0,-0.261799,-4.8352e-05,-1.5,9.84106e-12,0,0,3,0,0,0,0,0,0,0,0,-0.474866
930,-3.21239e-12,3.85588e-38,-1.55365e-06,-3.27827e-12,3.85564e-38,-3.40903e-12,-1.06614e-13,0,0,0,0,0,0,0,0,0,0,0,0,0,0,0,0,0,0,0,0,0,-0.261799,-4.66314e-05,-1.5,9.84106e-12,0,0,3,0,0,0,0,0,0,0,0,-0.474866
940,-3.21239e-12,3.85588e-38,-1.55365e-06,-3.27827e-12,3.85564e-38,0,-1.06614e-13,0,0,0,0,0,0,0,0,0,0,0,0,0,0,0,0,0,0,0,0,0,-0.261799,-4.51555e-05,-1.5,9.84106e-12,0,0,3,0,0,0,0,0,0,0,0,-0.474866
950,-3.21239e-12,3.85588e-38,-1.55365e-06,-3.27827e-12,3.85564e-38,-3.40903e-12,-1.06614e-13,0,0,0,0,0,0,0,0,0,0,0,0,0,0,0,0,0,0,0,0,0,-0.261799,-4.37272e-05,-1.5,9.84106e-12,0,0,3,0,0,0,0,0,0,0,0,-0.474866
960,-3.21239e-12,3.85588e-38,-1.55365e-06,-3.27827e-12,3.85564e-38,0,-1.06615e-13,0,0,0,0,0,0,0,0,0,0,0,0,0,0,0,0,0,0,0,0,0,-0.261799,-4.24293e-05,-1.5,9.84106e-12,0,0,3,0,0,0,0,0,0,0,0,-0.474866
970,-3.21239e-12,3.85588e-38,-1.55365e-06,-3.27827e-12,3.85564e-38,-3.40903e-12,-1.06615e-13,0,0,0,0,0,0,0,0,0,0,0,0,0,0,0,0,0,0,0,0,0,-0.261799,-4.117e-05,-1.5,9.84106e-12,0,0,3,0,0,0,0,0,0,0,0,-0.474866
980,-3.21239e-12,3.85588e-38,-1.55365e-06,-3.27827e-12,3.85564e-38,0,-1.06615e-13,0,0,0,0,0,0,0,0,0,0,0,0,0,0,0,0,0,0,0,0,0,-0.261799,-3.9948e-05,-1.5,9.84106e-12,0,0,3,0,0,0,0,0,0,0,0,-0.474866
990,-3.21239e-12,3.85588e-38,-1.55365e-06,-3.27827e-12,3.85564e-38,-3.40903e-12,-1.06615e-13,0,0,0,0,0,0,0,0,0,0,0,0,0,0,0,0,0,0,0,0,0,-0.261799,-3.85275e-05,-1.5,9.84106e-12,0,0,3,0,0,0,0,0,0,0,0,-0.474866
1000,-3.21239e-12,3.85588e-38,-1.55365e-06,-3.27827e-12,3.85564e-38,0,-1.06616e-13,0,0,0,0,0,0,0,0,0,0,0,0,0,0,0,0,0,0,0,0,0,-0.261799,-3.73081e-05,-1.5,9.84106e-12,0,0,3,0,0,0,0,0,0,0,0,-0.474866
1010,-3.21239e-12,3.85588e-38,-1.55365e-06,-3.27827e-12,3.85564e-38,-3.40903e-12,-1.06616e-13,0,0,0,0,0,0,0,0,0,0,0,0,0,0,0,0,0,0,0,0,0,-0.261799,-3.61273e-05,-1.5,9.84106e-12,0,0,3,0,0,0,0,0,0,0,0,-0.474866
1020,-3.21239e-12,3.85588e-38,-1.55365e-06,-3.27827e-12,3.85564e-38,0,-1.06616e-13,0,0,0,0,0,0,0,0,0,0,1.46,0,4402795,1852394582,4402795,1852394582,520,144,1280721229,541478473,0,-0.261799,-3.06639e-05,-1.5,9.84106e-12,0,0,3,0,0,0,0,0,0,0,0,0
1030,-3.21239e-12,3.85588e-38,-1.55365e-06,-3.27827e-12,3.85564e-38,-3.40903e-12,-1.06616e-13,0,0,0,0,0,0,0,0,0,0,1.46,0,4402795,1852394582,4402795,1852394582,520,144,1280721229,541478473,0,-0.261799,-2.96934e-05,-1.5,9.84106e-12,0,0,3,0,0,0,0,0,0,0,0,0
1040,-3.21239e-12,3.85588e-38,-1.55365e-06,-3.27827e-12,3.85564e-38,0,-1.06617e-13,0,0,0,0,0,0,0,0,0,0,1.46,0,4402795,1852394582,4402795,1852394582,520,144,1280721229,541478473,0,-0.261799,-2.89289e-05,-1.5,9.84106e-12,0,0,3,0,0,0,0,0,0,0,0,0
1050,-3.21239e-12,3.85588e-38,-1.55365e-06,-3.27827e-12,3.85564e-38,-3.40903e-12,-1.06617e-13,0,0,0,0,0,0,0,0,0,0,1.46,0,4402795,1852394582,4402795,1852394582,520,144,1280721229,541478473,0,-0.261799,-2.81275e-05,-1.5,9.84106e-12,0,0,3,0,0,0,0,0,0,0,0,0
1060,-3.21239e-12,3.85588e-38,-1.55365e-06,-3.27827e-12,3.85564e-38,0,-1.06617e-13,0,0,0,0,0,0,0,0,0,0,1.46,0,4402795,1852394582,4402795,1852394582,520,144,1280721229,541478473,0,-0.261799,-2.70721e-05,-1.5,9.84106e-12,0,0,3,0,0,0,0,0,0,0,0,0
1070,-3.21239e-12,3.85588e-38,-1.55365e-06,-3.27827e-12,3.85564e-38,-3.40903e-12,-1.06618e-13,0,0,0,0,0,0,0,0,0,0,1.46,0,4402795,1852394582,4402795,1852394582,520,144,1280721229,541478473,0,-0.261799,-2.62158e-05,-1.5,9.84106e-12,0,0,3,0,0,0,0,0,0,0,0,0
1080,-3.21239e-12,3.85588e-38,-1.55365e-06,-3.27827e-12,3.85564e-38,0,-1.06618e-13,0,0,0,0,0,0,0,0,0,0,1.46,0,4402795,1852394582,4402795,1852394582,520,144,1280721229,541478473,0,-0.261799,-2.53866e-05,-1.5,9.84106e-12,0,0,3,0,0,0,0,0,0,0,0,0
1090,-3.21239e-12,3.85588e-38,-1.55365e-06,-3.27827e-12,3.85564e-38,-3.40903e-12,-1.06618e-13,0,0,0,0,0,0,0,0,0,0,1.46,0,4402795,1852394582,4402795,1852394582,520,144,1280721229,541478473,0,-0.261799,-2.46335e-05,-1.5,9.84106e-12,0,0,3,0,0,0,0,0,0,0,0,0
1100,-3.21239e-12,3.85588e-38,-1.55365e-06,-3.27827e-12,3.85564e-38,0,-1.06618e-13,0,0,0,0,0,0,0,0,0,0,1.46,0,4402795,1852394582,4402795,1852394582,520,144,1280721229,541478473,0,-0.261799,-2.39027e-05,-1.5,9.84106e-12,0,0,3,0,0,0,0,0,0,0,0,0
1110,-3.21239e-12,3.85588e-38,-1.55365e-06,-3.27827e-12,3.85564e-38,-3.40903e-12,-1.06619e-13,0,0,0,0,0,0,0,0,0,0,1.46,0,4402795,1852394582,4402795,1852394582,520,144,1280721229,541478473,0,-0.261799,-2.32403e-05,-1.5,9.84106e-12,0,0,3,0,0,0,0,0,0,0,0,0
1120,-3.21239e-12,3.85588e-38,-1.55365e-06,-3.27827e-12,3.85564e-38,0,-1.06619e-13,0,0,0,0,0,0,0,0,0,0,1.46,0,4402795,1852394582,4402795,1852394582,520,144,1280721229,541478473,0,-0.261799,-2.24139e-05,-1.5,9.84106e-12,0,0,3,0,0,0,0,0,0,0,0,0
1130,-3.21239e-12,3.85588e-38,-1.55365e-06,-3.27827e-12,3.85564e-38,-3.40903e-12,-1.06619e-13,0,0,0,0,0,0,0,0,0,0,1.46,0,4402795,1852394582,4402795,1852394582,520,144,1280721229,541478473,0,-0.261799,-2.1705e-05,-1.5,9.84106e-12,0,0,3,0,0,0,0,0,0,0,0,0
1140,-3.21239e-12,3.85588e-38,-1.55365e-06,-3.27827e-12,3.85564e-38,0,-1.06619e-13,0,0,0,0,0,0,0,0,0,0,1.46,0,4402795,1852394582,4402795,1852394582,520,144,1280721229,541478473,0,-0.261799,-2.10184e-05,-1.5,9.84106e-12,0,0,3,0,0,0,0,0,0,0,0,0
1150,-3.21239e-12,3.85588e-38,-1.55365e-06,-3.27827e-12,3.85564e-38,-3.40903e-12,-1.0662e-13,0,0,0,0,0,0,0,0,0,0,1.46,0,4402795,1852394582,4402795,1852394582,520,144,1280721229,541478473,0,-0.261799,-2.03946e-05,-1.5,9.84106e-12,0,0,3,0,0,0,0,0,0,0,0,0
1160,-3.21239e-12,3.85588e-38,-1.55365e-06,-3.27827e-12,3.85564e-38,0,-1.0662e-13,0,0,0,0,0,0,0,0,0,0,1.46,0,4402795,1852394582,4402795,1852394582,520,144,1280721229,541478473,0,-0.261799,-1.97892e-05,-1.5,9.84106e-12,0,0,3,0,0,0,0,0,0,0,0,0
1170,-3.21239e-12,3.85588e-38,-1.55365e-06,-3.27827e-12,3.85564e-38,-3.40903e-12,-1.0662e-13,0,0,0,0,0,0,0,0,0,0,1.46,0,4402795,1852394582,4402795,1852394582,520,144,1280721229,541478473,0,-0.261799,-1.91633e-05,-1.5,9.84106e-12,0,0,3,0,0,0,0,0,0,0,0,0
1180,-3.21239e-12,3.85588e-38,-1.55365e-06,-3.27827e-12,3.85564e-38,0,-1.0662e-13,0,0,0,0,0,0,0,0,0,0,1.46,0,4402795,1852394582,4402795,1852394582,520,144,1280721229,541478473,0,-0.261799,-1.85191e-05,-1.5,9.84106e-12,0,0,3,0,0,0,0,0,0,0,0,0
1190,-3.21239e-12,3.85588e-38,-1.55365e-06,-3.27827e-12,3.85564e-38,-3.40903e-12,-1.06621e-13,0,0,0,0,0,0,0,0,0,0,1.46,0,4402795,1852394582,4402795,1852394582,520,144,1280721229,541478473,0,-0.261799,-1.78969e-05,-1.5,9.84106e-12,0,0,3,0,0,0,0,0,0,0,0,0
1200,-3.21239e-12,3.85588e-38,-1.55365e-06,-3.27827e-12,3.85564e-38,0,-1.06621e-13,0,0,0,0,0,0,0,0,0,0,1.46,0,4402795,1852394582,4402795,1852394582,520,144,1280721229,541478473,0,-0.261799,-1.74012e-05,-1.5,9.84106e-12,0,0,3,0,0,0,0,0,0,0,0,0
1210,-3.21239e-12,3.85588e-38,-1.55365e-06,-3.27827e-12,3.85564e-38,-3.40903e-12,-1.06621e-13,0,0,0,0,0,0,0,0,0,0,1.46,0,4402795,1852394582,4402795,1852394582,520,144,1280721229,541478473,0,-0.261799,-1.69532e-05,-1.5,9.84106e-12,0,0,3,0,0,0,0,0,0,0,0,0
1220,-3.21239e-12,3.85588e-38,-1.55365e-06,-3.27827e-12,3.85564e-38,0,-1.06622e-13,0,0,0,0,0,0,0,0,0,0,1.46,0,4402795,1852394582,4402795,1852394582,520,144,1280721229,541478473,0,-0.261799,-1.645e-05,-1.5,9.84106e-12,0,0,3,0,0,0,0,0,0,0,0,0
1230,-3.21239e-12,3.85588e-38,-1.55365e-06,-3.27827e-12,3.85564e-38,-3.40903e-12,-1.06622e-13,0,0,0,0,0,0,0,0,0,0,1.46,0,4402795,1852394582,4402795,1852394582,520,144,1280721229,541478473,0,-0.261799,-1.59617e-05,-1.5,9.84106e-12,0,0,3,0,0,0,0,0,0,0,0,0
1240,-3.21239e-12,3.85588e-38,-1.55365e-06,-3.27827e-12,3.85564e-38,0,-1.06622e-13,0,0,0,0,0,0,0,0,0,0,1.46,0,4402795,1852394582,4402795,1852394582,520,144,1280721229,541478473,0,-0.261799,-1.54568e-05,-1.5,9.84106e-12,0,0,3,0,0,0,0,0,0,0,0,0
1250,-3.21239e-12,3.85588e-38,-1.55365e-06,-3.27827e-12,3.85564e-38,-3.40903e-12,-1.06622e-13,0,0,0,0,0,0,0,0,0,0,1.46,0,4402795,1852394582,4402795,1852394582,520,144,1280721229,541478473,0,-0.261799,-1.48764e-05,-1.5,9.84106e-12,0,0,3,0,0,0,0,0,0,0,0,0
1260,-3.21239e-12,3.85588e-38,-1.55365e-06,-3.27827e-12,3.85564e-38,0,-1.06623e-13,0,0,0,0,0,0,0,0,0,0,1.46,0,4402795,1852394582,4402795,1852394582,520,144,1280721229,541478473,0,-0.261799,-1.44055e-05,-1.5,9.84106e-12,0,0,3,0,0,0,0,0,0,0,0,0
1270,-3.21239e-12,3.85588e-38,-1.55365e-06,-3.27827e-12,3.85564e-38,-3.40903e-12,-1.06623e-13,0,0,0,0,0,0,0,0,0,0,1.46,0,4402795,1852394582,4402795,1852394582,520,144,1280721229,541478473,0,-0.261799,-1.39499e-05,-1.5,9.84106e-12,0,0,3,0,0,0,0,0,0,0,0,0
1280,-3.21239e-12,3.85588e-38,-1.55365e-06,-3.27827e-12,3.85564e-38,0,-1.06623e-13,0,0,0,0,0,0,0,0,0,0,1.46,0,4402795,1852394582,4402795,1852394582,520,144,1280721229,541478473,0,-0.261799,-1.35358e-05,-1.5,9.84106e-12,0,0,3,0,0,0,0,0,0,0,0,0
1290,-3.21239e-12,3.85588e-38,-1.55365e-06,-3.27827e-12,3.85564e-38,-3.40903e-12,-1.06623e-13,0,0,0,0,0,0,0,0,0,0,1.46,0,4402795,1852394582,4402795,1852394582,520,144,1280721229,541478473,0,-0.261799,-1.31341e-05,-1.5,9.84106e-12,0,0,3,0,0,0,0,0,0,0,0,0
1300,-3.21239e-12,3.85588e-38,-1.55365e-06,-3.27827e-12,3.85564e-38,0,-1.06624e-13,0,0,0,0,0,0,0,0,0,0,1.46,0,4402795,1852394582,4402795,1852394582,520,144,1280721229,541478473,0,-0.261799,-1.27442e-05,-1.5,9.84106e-12,0,0,3,0,0,0,0,0,0,0,0,0
1310,-3.21239e-12,3.85588e-38,-1.55365e-06,-3.27827e-12,3.85564e-38,-3.40903e-12,-1.06624e-13,0,0,0,0,0,0,0,0,0,0,1.46,0,4402795,1852394582,4402795,1852394582,520,144,1280721229,541478473,0,-0.261799,-1.2266e-05,-1.5,9.84106e-12,0,0,3,0,0,0,0,0,0,0,0,0
1320,-3.21239e-12,3.85588e-38,-1.55365e-06,-3.27827e-12,3.85564e-38,0,-1.06624e-13,0,0,0,0,0,0,0,0,0,0,1.46,0,4402795,1852394582,4402795,1852394582,520,144,1280721229,541478473,0,-0.261799,-1.18781e-05,-1.5,9.84106e-12,0,0,3,0,0,0,0,0,0,0,0,0
1330,-3.21239e-12,3.85588e-38,-1.55365e-06,-3.27827e-12,3.85564e-38,-3.40903e-12,-1.06625e-13,0,0,0,0,0,0,0,0,0,0,1.46,0,4402795,1852394582,4402795,1852394582,520,144,1280721229,541478473,0,-0.261799,-1.15255e-05,-1.5,9.84106e-12,0,0,3,0,0,0,0,0,0,0,0,0
1340,-3.21239e-12,3.85588e-38,-1.55365e-06,-3.27827e-12,3.85564e-38,0,-1.06625e-13,0,0,0,0,0,0,0,0,0,0,1.46,0,4402795,1852394582,4402795,1852394582,520,144,1280721229,541478473,0,-0.261799,-1.11607e-05,-1.5,9.84106e-12,0,0,3,0,0,0,0,0,0,0,0,0
1350,-3.21239e-12,3.85588e-38,-1.55365e-06,-3.27827e-12,3.85564e-38,-3.40903e-12,-1.06625e-13,0,0,0,0,0,0,0,0,0,0,1.46,0,4402795,1852394582,4402795,1852394582,520,144,1280721229,541478473,0,-0.261799,-1.08294e-05,-1.5,9.84106e-12,0,0,3,0,0,0,0,0,0,0,0,0
1360,-3.21239e-12,3.85588e-38,-1.55365e-06,-3.27827e-12,3.85564e-38,0,-1.06625e-13,0,0,0,0,0,0,0,0,0,0,1.46,0,4402795,1852394582,4402795,1852394582,520,144,1280721229,541478473,0,-0.261799,-1.0508e-05,-1.5,9.84106e-12,0,0,3,0,0,0,0,0,0,0,0,0
1370,-3.21239e-12,3.85588e-38,-1.55365e-06,-3.27827e-12,3.85564e-38,-3.40903e-12,-1.06626e-13,0,0,0,0,0,0,0,0,0,0,1.46,0,4402795,1852394582,4402795,1852394582,520,144,1280721229,541478473,0,-0.261799,-1.01756e-05,-1.5,9.84106e-12,0,0,3,0,0,0,0,0,0,0,0,0
1380,-3.21239e-12,3.85588e-38,-1.55365e-06,-3.27827e-12,3.85564e-38,0,-1.06626e-13,0,0,0,0,0,0,0,0,0,0,1.46,0,4402795,1852394582,4402795,1852394582,520,144,1280721229,541478473,0,-0.261799,-9.89376e-06,-1.5,9.84106e-12,0,0,3,0,0,0,0,0,0,0,0,0
1390,-3.21239e-12,3.85588e-38,-1.55365e-06,-3.27827e-12,3.85564e-38,-3.40903e-12,-1.06626e-13,0,0,0,0,0,0,0,0,0,0,1.46,0,4402795,1852394582,4402795,1852394582,520,144,1280721229,541478473,0,-0.261799,-9.58082e-06,-1.5,9.84106e-12,0,0,3,0,0,0,0,0,0,0,0,0
1400,-3.21239e-12,3.85588e-38,-1.55365e-06,-3.27827e-12,3.85564e-38,0,-1.06626e-13,0,0,0,0,0,0,0,0,0,0,1.46,0,4402795,1852394582,4402795,1852394582,520,144,1280721229,541478473,0,-0.261799,-9.29645e-06,-1.5,9.84106e-12,0,0,3,0,0,0,0,0,0,0,0,0
1410,-3.21239e-12,3.85588e-38,-1.55365e-06,-3.27827e-12,3.85564e-38,-3.40903e-12,-1.06627e-13,0,0,0,0,0,0,0,0,0,0,1.46,0,4402795,1852394582,4402795,1852394582,520,144,1280721229,541478473,0,-0.261799,-9.02051e-06,-1.5,9.84106e-12,0,0,3,0,0,0,0,0,0,0,0,0
1420,-3.21239e-12,3.85588e-38,-1.55365e-06,-3.27827e-12,3.85564e-38,0,-1.06627e-13,0,0,0,0,0,0,0,0,0,0,1.46,0,4402795,1852394582,4402795,1852394582,520,144,1280721229,541478473,0,-0.261799,-8.75277e-06,-1.5,9.84106e-12,0,0,3,0,0,0,0,0,0,0,0,0
1430,-3.21239e-12,3.85588e-38,-1.55365e-06,-3.27827e-12,3.85564e-38,-3.40903e-12,-1.06627e-13,0,0,0,0,0,0,0,0,0,0,1.46,0,4402795,1852394582,4402795,1852394582,520,144,1280721229,541478473,0,-0.261799,-8.49297e-06,-1.5,9.84106e-12,0,0,3,0,0,0,0,0,0,0,0,0
1440,-3.21239e-12,3.85588e-38,-1.55365e-06,-3.27827e-12,3.85564e-38,0,-1.06628e-13,0,0,0,0,0,0,0,0,0,0,1.46,0,4402795,1852394582,4402795,1852394582,520,144,1280721229,541478473,0,-0.261799,-8.19074e-06,-1.5,9.84106e-12,0,0,3,0,0,0,0,0,0,0,0,0
1450,-3.21239e-12,3.85588e-38,-1.55365e-06,-3.27827e-12,3.85564e-38,-3.40903e-12,-1.06628e-13,0,0,0,0,0,0,0,0,0,0,1.46,0,4402795,1852394582,4402795,1852394582,520,144,1280721229,541478473,0,-0.261799,-7.94763e-06,-1.5,9.84106e-12,0,0,3,0,0,0,0,0,0,0,0,0
1460,-3.21239e-12,3.85588e-38,-1.55365e-06,-3.27827e-12,3.85564e-38,0,-1.06628e-13,0,0,0,0,0,0,0,0,0,0,1.46,0,4402795,1852394582,4402795,1852394582,520,144,1280721229,541478473,0,-0.261799,-7.69609e-06,-1.5,9.84106e-12,0,0,3,0,0,0,0,0,0,0,0,0
1470,-3.21239e-12,3.85588e-38,-1.55365e-06,-3.27827e-12,3.85564e-38,-3.40903e-12,-1.06628e-13,0,0,0,0,0,0,0,0,0,0,1.46,0,4402795,1852394582,4402795,1852394582,520,144,1280721229,541478473,0,-0.261799,-7.46765e-06,-1.5,9.84106e-12,0,0,3,0,0,0,0,0,0,0,0,0
1480,-3.21239e-12,3.85588e-38,-1.55365e-06,-3.27827e-12,3.85564e-38,0,-1.06629e-13,0,0,0,0,0,0,0,0,0,0,1.46,0,4402795,1852394582,4402795,1852394582,520,144,1280721229,541478473,0,-0.261799,-7.246e-06,-1.5,9.84106e-12,0,0,3,0,0,0,0,0,0,0,0,0
1490,-3.21239e-12,3.85588e-38,-1.55365e-06,-3.27827e-12,3.85564e-38,-3.40903e-12,-1.06629e-13,0,0,0,0,0,0,0,0,0,0,1.46,0,4402795,1852394582,4402795,1852394582,520,144,1280721229,541478473,0,-0.261799,-7.01681e-06,-1.5,9.84106e-12,0,0,3,0,0,0,0,0,0,0,0,0
1500,-3.21239e-12,3.85588e-38,-1.55365e-06,-3.27827e-12,3.85564e-38,0,-1.06629e-13,0,0,0,0,0,0,0,0,0,0,1.46,0,4402795,1852394582,4402795,1852394582,520,144,1280721229,541478473,0,-0.261799,-6.75352e-06,-1.5,9.84106e-12,0,0,3,0,0,0,0,0,0,0,0,0
1510,-3.21239e-12,3.85588e-38,-1.55365e-06,-3.27827e-12,3.85564e-38,-3.40903e-12,-1.06629e-13,0,0,0,0,0,0,0,0,0,0,1.46,0,4402795,1852394582,4402795,1852394582,520,144,1280721229,541478473,0,-0.261799,-6.53991e-06,-1.5,9.84106e-12,0,0,3,0,0,0,0,0,0,0,0,0
1520,-3.21239e-12,3.85588e-38,-1.55365e-06,-3.27827e-12,3.85564e-38,0,-1.0663e-13,0,0,0,0,0,0,0,0,0,0,1.46,0,4402795,1852394582,4402795,1852394582,520,144,1280721229,541478473,0,-0.261799,-6.33305e-06,-1.5,9.84106e-12,0,0,3,0,0,0,0,0,0,0,0,0
1530,-3.21239e-12,3.85588e-38,-1.55365e-06,-3.27827e-12,3.85564e-38,-3.40903e-12,-1.0663e-13,0,0,0,0,0,0,0,0,0,0,1.46,0,4402795,1852394582,4402795,1852394582,520,144,1280721229,541478473,0,-0.261799,-6.17e-06,-1.5,9.84106e-12,0,0,3,0,0,0,0,0,0,0,0,0
1540,-3.21239e-12,3.85588e-38,-1.55365e-06,-3.27827e-12,3.85564e-38,0,-1.0663e-13,0,0,0,0,0,0,0,0,0,0,1.46,0,4402795,1852394582,4402795,1852394582,520,144,1280721229,541478473,0,-0.261799,-6.01116e-06,-1.5,9.84106e-12,0,0,3,0,0,0,0,0,0,0,0,0
1550,-3.21239e-12,3.85588e-38,-1.55365e-06,-3.27827e-12,3.85564e-38,-3.40903e-12,-1.06631e-13,0,0,0,0,0,0,0,0,0,0,1.46,0,4402795,1852394582,4402795,1852394582,520,144,1280721229,541478473,0,-0.261799,-5.83274e-06,-1.5,9.84106e-12,0,0,3,0,0,0,0,0,0,0,0,0
1560,-3.21239e-12,3.85588e-38,-1.55365e-06,-3.27827e-12,3.85564e-38,0,-1.06631e-13,0,0,0,0,0,0,0,0,0,0,1.46,0,4402795,1852394582,4402795,1852394582,520,144,1280721229,541478473,0,-0.261799,-5.64825e-06,-1.5,9.84106e-12,0,0,3,0,0,0,0,0,0,0,0,0
1570,-3.21239e-12,3.85588e-38,-1.55365e-06,-3.27827e-12,3.85564e-38,-3.40903e-12,-1.06631e-13,0,0,0,0,0,0,0,0,0,0,1.46,0,4402795,1852394582,4402795,1852394582,520,144,1280721229,541478473,0,-0.261799,-5.4474e-06,-1.5,9.84106e-12,0,0,3,0,0,0,0,0,0,0,0,0
1580,-3.21239e-12,3.85588e-38,-1.55365e-06,-3.27827e-12,3.85564e-38,0,-1.06631e-13,0,0,0,0,0,0,0,0,0,0,1.46,0,4402795,1852394582,4402795,1852394582,520,144,1280721229,541478473,0,-0.261799,-5.2751e-06,-1.5,9.84106e-12,0,0,3,0,0,0,0,0,0,0,0,0
1590,-3.21239e-12,3.85588e-38,-1.55365e-06,-3.27827e-12,3.85564e-38,-3.40903e-12,-1.06632e-13,0,0,0,0,0,0,0,0,0,0,1.46,0,4402795,1852394582,4402795,1852394582,520,144,1280721229,541478473,0,-0.261799,-5.10825e-06,-1.5,9.84106e-12,0,0,3,0,0,0,0,0,0,0,0,0
1600,-3.21239e-12,3.85588e-38,-1.55365e-06,-3.27827e-12,3.85564e-38,0,-1.06632e-13,0,0,0,0,0,0,0,0,0,0,1.46,0,4402795,1852394582,4402795,1852394582,520,144,1280721229,541478473,0,-0.261799,-4.95663e-06,-1.5,9.84106e-12,0,0,3,0,0,0,0,0,0,0,0,0
1610,-3.21239e-12,3.85588e-38,-1.55365e-06,-3.27827e-12,3.85564e-38,-3.40903e-12,-1.06632e-13,0,0,0,0,0,0,0,0,0,0,1.46,0,4402795,1852394582,4402795,1852394582,520,144,1280721229,541478473,0,-0.261799,-4.80951e-06,-1.5,9.84106e-12,0,0,3,0,0,0,0,0,0,0,0,0
1620,-3.21239e-12,3.85588e-38,-1.55365e-06,-3.27827e-12,3.85564e-38,0,-1.06632e-13,0,0,0,0,0,0,0,0,0,0,1.46,0,4402795,1852394582,4402795,1852394582,520,144,1280721229,541478473,0,-0.261799,-4.66675e-06,-1.5,9.84106e-12,0,0,3,0,0,0,0,0,0,0,0,0
1630,-3.21239e-12,3.85588e-38,-1.55365e-06,-3.27827e-12,3.85564e-38,-3.40903e-12,-1.06633e-13,0,0,0,0,0,0,0,0,0,0,1.46,0,4402795,1852394582,4402795,1852394582,520,144,1280721229,541478473,0,-0.261799,-4.46414e-06,-1.5,9.84106e-12,0,0,3,0,0,0,0,0,0,0,0,0
1640,-3.21239e-12,3.85588e-38,-1.55365e-06,-3.27827e-12,3.85564e-38,0,-1.06633e-13,0,0,0,0,0,0,0,0,0,0,1.46,0,4402795,1852394582,4402795,1852394582,520,144,1280721229,541478473,0,-0.261799,-4.33164e-06,-1.5,9.84106e-12,0,0,3,0,0,0,0,0,0,0,0,0
1650,-3.21239e-12,3.85588e-38,-1.55365e-06,-3.27827e-12,3.85564e-38,-3.40903e-12,-1.06633e-13,0,0,0,0,0,0,0,0,0,0,1.46,0,4402795,1852394582,4402795,1852394582,520,144,1280721229,541478473,0,-0.261799,-4.19454e-06,-1.5,9.84106e-12,0,0,3,0,0,0,0,0,0,0,0,0
1660,-3.21239e-12,3.85588e-38,-1.55365e-06,-3.27827e-12,3.85564e-38,0,-1.06634e-13,0,0,0,0,0,0,0,0,0,0,1.46,0,4402795,1852394582,4402795,1852394582,520,144,1280721229,541478473,0,-0.261799,-4.07004e-06,-1.5,9.84106e-12,0,0,3,0,0,0,0,0,0,0,0,0
1670,-3.21239e-12,3.85588e-38,-1.55365e-06,-3.27827e-12,3.85564e-38,-3.40903e-12,-1.06634e-13,0,0,0,0,0,0,0,0,0,0,1.46,0,4402795,1852394582,4402795,1852394582,520,144,1280721229,541478473,0,-0.261799,-3.94924e-06,-1.5,9.84106e-12,0,0,3,0,0,0,0,0,0,0,0,0
1680,-3.21239e-12,3.85588e-38,-1.55365e-06,-3.27827e-12,3.85564e-38,0,-1.06634e-13,0,0,0,0,0,0,0,0,0,0,1.46,0,4402795,1852394582,4402795,1852394582,520,144,1280721229,541478473,0,-0.261799,-3.83202e-06,-1.5,9.84106e-12,0,0,3,0,0,0,0,0,0,0,0,0
1690,-3.21239e-12,3.85588e-38,-1.55365e-06,-3.27827e-12,3.85564e-38,-3.40903e-12,-1.06634e-13,0,0,0,0,0,0,0,0,0,0,1.46,0,4402795,1852394582,4402795,1852394582,520,144,1280721229,541478473,0,-0.261799,-3.66565e-06,-1.5,9.84106e-12,0,0,3,0,0,0,0,0,0,0,0,0
1700,-3.21239e-12,3.85588e-38,-1.55365e-06,-3.27827e-12,3.85564e-38,0,-1.06635e-13,0,0,0,0,0,0,0,0,0,0,1.46,0,4402795,1852394582,4402795,1852394582,520,144,1280721229,541478473,0,-0.261799,-3.5641e-06,-1.5,9.84106e-12,0,0,3,0,0,0,0,0,0,0,0,0
1710,-3.21239e-12,3.85588e-38,-1.55365e-06,-3.27827e-12,3.85564e-38,-3.40903e-12,-1.06635e-13,0,0,0,0,0,0,0,0,0,0,1.46,0,4402795,1852394582,4402795,1852394582,520,144,1280721229,541478473,0,-0.261799,-3.45837e-06,-1.5,9.84106e-12,0,0,3,0,0,0,0,0,0,0,0,0
1720,-3.21239e-12,3.85588e-38,-1.55365e-06,-3.27827e-12,3.85564e-38,0,-1.06635e-13,0,0,0,0,0,0,0,0,0,0,1.46,0,4402795,1852394582,4402795,1852394582,520,144,1280721229,541478473,0,-0.261799,-3.35572e-06,-1.5,9.84106e-12,0,0,3,0,0,0,0,0,0,0,0,0
1730,-3.21239e-12,3.85588e-38,-1.55365e-06,-3.27827e-12,3.85564e-38,-3.40903e-12,-1.06635e-13,0,0,0,0,0,0,0,0,0,0,1.46,0,4402795,1852394582,4402795,1852394582,520,144,1280721229,541478473,0,-0.261799,-3.25612e-06,-1.5,9.84106e-12,0,0,3,0,0,0,0,0,0,0,0,0
1740,-3.21239e-12,3.85588e-38,-1.55365e-06,-3.27827e-12,3.85564e-38,0,-1.06636e-13,0,0,0,0,0,0,0,0,0,0,1.46,0,4402795,1852394582,4402795,1852394582,520,144,1280721229,541478473,0,-0.261799,-3.15313e-06,-1.5,9.84106e-12,0,0,3,0,0,0,0,0,0,0,0,0
1750,-3.21239e-12,3.85588e-38,-1.55365e-06,-3.27827e-12,3.85564e-38,-3.40903e-12,-1.06636e-13,0,0,0,0,0,0,0,0,0,0,1.46,0,4402795,1852394582,4402795,1852394582,520,144,1280721229,541478473,0,-0.261799,-3.04092e-06,-1.5,9.84106e-12,0,0,3,0,0,0,0,0,0,0,0,0
1760,-3.21239e-12,3.85588e-38,-1.55365e-06,-3.27827e-12,3.85564e-38,0,-1.06636e-13,0,0,0,0,0,0,0,0,0,0,1.46,0,4402795,1852394582,4402795,1852394582,520,144,1280721229,541478473,0,-0.261799,-2.93876e-06,-1.5,9.84106e-12,0,0,3,0,0,0,0,0,0,0,0,0
1770,-3.21239e-12,3.85588e-38,-1.55365e-06,-3.27827e-12,3.85564e-38,-3.40903e-12,-1.06636e-13,0,0,0,0,0,0,0,0,0,0,1.46,0,4402795,1852394582,4402795,1852394582,520,144,1280721229,541478473,0,-0.261799,-2.85154e-06,-1.5,9.84106e-12,0,0,3,0,0,0,0,0,0,0,0,0
1780,-3.21239e-12,3.85588e-38,-1.55365e-06,-3.27827e-12,3.85564e-38,0,-1.06637e-13,0,0,0,0,0,0,0,0,0,0,1.46,0,4402795,1852394582,4402795,1852394582,520,144,1280721229,541478473,0,-0.261799,-2.76129e-06,-1.5,9.84106e-12,0,0,3,0,0,0,0,0,0,0,0,0
1790,-3.21239e-12,3.85588e-38,-1.55365e-06,-3.27827e-12,3.85564e-38,-3.40903e-12,-1.06637e-13,0,0,0,0,0,0,0,0,0,0,1.46,0,4402795,1852394582,4402795,1852394582,520,144,1280721229,541478473,0,-0.261799,-2.67933e-06,-1.5,9.84106e-12,0,0,3,0,0,0,0,0,0,0,0,0
1800,-3.21239e-12,3.85588e-38,-1.55365e-06,-3.27827e-12,3.85564e-38,0,-1.06637e-13,0,0,0,0,0,0,0,0,0,0,1.46,0,4402795,1852394582,4402795,1852394582,520,144,1280721229,541478473,0,-0.261799,-2.5998e-06,-1.5,9.84106e-12,0,0,3,0,0,0,0,0,0,0,0,0
1810,-3.21239e-12,3.85588e-38,-1.55365e-06,-3.27827e-12,3.85564e-38,-3.40903e-12,-1.06638e-13,0,0,0,0,0,0,0,0,0,0,1.46,0,4402795,1852394582,4402795,1852394582,520,144,1280721229,541478473,0,-0.261799,-2.51757e-06,-1.5,9.84106e-12,0,0,3,0,0,0,0,0,0,0,0,0
1820,-3.21239e-12,3.85588e-38,-1.55365e-06,-3.27827e-12,3.85564e-38,0,-1.06638e-13,0,0,0,0,0,0,0,0,0,0,1.46,0,4402795,1852394582,4402795,1852394582,520,144,1280721229,541478473,0,-0.261799,-2.43789e-06,-1.5,9.84106e-12,0,0,3,0,0,0,0,0,0,0,0,0
1830,-3.21239e-12,3.85588e-38,-1.55365e-06,-3.27827e-12,3.85564e-38,-3.40903e-12,-1.06638e-13,0,0,0,0,0,0,0,0,0,0,1.46,0,4402795,1852394582,4402795,1852394582,520,144,1280721229,541478473,0,-0.261799,-2.36078e-06,-1.5,9.84106e-12,0,0,3,0,0,0,0,0,0,0,0,0
1840,-3.21239e-12,3.85588e-38,-1.55365e-06,-3.27827e-12,3.85564e-38,0,-1.06638e-13,0,0,0,0,0,0,0,0,0,0,1.46,0,4402795,1852394582,4402795,1852394582,520,144,1280721229,541478473,0,-0.261799,-2.28611e-06,-1.5,9.84106e-12,0,0,3,0,0,0,0,0,0,0,0,0
1850,-3.21239e-12,3.85588e-38,-1.55365e-06,-3.27827e-12,3.85564e-38,-3.40903e-12,-1.06639e-13,0,0,0,0,0,0,0,0,0,0,1.46,0,4402795,1852394582,4402795,1852394582,520,144,1280721229,541478473,0,-0.261799,-2.21825e-06,-1.5,9.84106e-12,0,0,3,0,0,0,0,0,0,0,0,0
1860,-3.21239e-12,3.85588e-38,-1.55365e-06,-3.27827e-12,3.85564e-38,0,-1.06639e-13,0,0,0,0,0,0,0,0,0,0,1.46,0,4402795,1852394582,4402795,1852394582,520,144,1280721229,541478473,0,-0.261799,-2.16114e-06,-1.5,9.84106e-12,0,0,3,0,0,0,0,0,0,0,0,0
1870,-3.21239e-12,3.85588e-38,-1.55365e-06,-3.27827e-12,3.85564e-38,-3.40903e-12,-1.06639e-13,0,0,0,0,0,0,0,0,0,0,1.46,0,4402795,1852394582,4402795,1852394582,520,144,1280721229,541478473,0,-0.261799,-2.10552e-06,-1.5,9.84106e-12,0,0,3,0,0,0,0,0,0,0,0,0
1880,-3.21239e-12,3.85588e-38,-1.55365e-06,-3.27827e-12,3.85564e-38,0,-1.06639e-13,0,0,0,0,0,0,0,0,0,0,1.46,0,4402795,1852394582,4402795,1852394582,520,144,1280721229,541478473,0,-0.261799,-2.03474e-06,-1.5,9.84106e-12,0,0,3,0,0,0,0,0,0,0,0,0
1890,-3.21239e-12,3.85588e-38,-1.55365e-06,-3.27827e-12,3.85564e-38,-3.40903e-12,-1.0664e-13,0,0,0,0,0,0,0,0,0,0,1.46,0,4402795,1852394582,4402795,1852394582,520,144,1280721229,541478473,0,-0.261799,-1.96638e-06,-1.5,9.84106e-12,0,0,3,0,0,0,0,0,0,0,0,0
1900,-3.21239e-12,3.85588e-38,-1.55365e-06,-3.27827e-12,3.85564e-38,0,-1.0664e-13,0,0,0,0,0,0,0,0,0,0,1.46,0,4402795,1852394582,4402795,1852394582,520,144,1280721229,541478473,0,-0.261799,-1.90801e-06,-1.5,9.84106e-12,0,0,3,0,0,0,0,0,0,0,0,0
1910,-3.21239e-12,3.85588e-38,-1.55365e-06,-3.27827e-12,3.85564e-38,-3.40903e-12,-1.0664e-13,0,0,0,0,0,0,0,0,0,0,1.46,0,4402795,1852394582,4402795,1852394582,520,144,1280721229,541478473,0,-0.261799,-1.85138e-06,-1.5,9.84106e-12,0,0,3,0,0,0,0,0,0,0,0,0
1920,-3.21239e-12,3.85588e-38,-1.55365e-06,-3.27827e-12,3.85564e-38,0,-1.06641e-13,0,0,0,0,0,0,0,0,0,0,1.46,0,4402795,1852394582,4402795,1852394582,520,144,1280721229,541478473,0,-0.261799,-1.79643e-06,-1.5,9.84106e-12,0,0,3,0,0,0,0,0,0,0,0,0
1930,-3.21239e-12,3.85588e-38,-1.55365e-06,-3.27827e-12,3.85564e-38,-3.40903e-12,-1.06641e-13,0,0,0,0,0,0,0,0,0,0,1.46,0,4402795,1852394582,4402795,1852394582,520,144,1280721229,541478473,0,-0.261799,-1.74311e-06,-1.5,9.84106e-12,0,0,3,0,0,0,0,0,0,0,0,0
1940,-3.21239e-12,3.85588e-38,-1.55365e-06,-3.27827e-12,3.85564e-38,0,-1.06641e-13,0,0,0,0,0,0,0,0,0,0,1.46,0,4402795,1852394582,4402795,1852394582,520,144,1280721229,541478473,0,-0.261799,-1.68797e-06,-1.5,9.84106e-12,0,0,3,0,0,0,0,0,0,0,0,0
1950,-3.21239e-12,3.85588e-38,-1.55365e-06,-3.27827e-12,3.85564e-38,-3.40903e-12,-1.06641e-13,0,0,0,0,0,0,0,0,0,0,1.46,0,4402795,1852394582,4402795,1852394582,520,144,1280721229,541478473,0,-0.261799,-1.63455e-06,-1.5,9.84106e-12,0,0,3,0,0,0,0,0,0,0,0,0
1960,-3.21239e-12,3.85588e-38,-1.55365e-06,-3.27827e-12,3.85564e-38,0,-1.06642e-13,0,0,0,0,0,0,0,0,0,0,1.46,0,4402795,1852394582,4402795,1852394582,520,144,1280721229,541478473,0,-0.261799,-1.58282e-06,-1.5,9.84106e-12,0,0,3,0,0,0,0,0,0,0,0,0
1970,-3.21239e-12,3.85588e-38,-1.55365e-06,-3.27827e-12,3.85564e-38,-3.40903e-12,-1.06642e-13,0,0,0,0,0,0,0,0,0,0,1.46,0,4402795,1852394582,4402795,1852394582,520,144,1280721229,541478473,0,-0.261799,-1.53275e-06,-1.5,9.84106e-12,0,0,3,0,0,0,0,0,0,0,0,0
1980,-3.21239e-12,3.85588e-38,-1.55365e-06,-3.27827e-12,3.85564e-38,0,-1.06642e-13,0,0,0,0,0,0,0,0,0,0,1.46,0,4402795,1852394582,4402795,1852394582,520,144,1280721229,541478473,0,-0.261799,-1.48726e-06,-1.5,9.84106e-12,0,0,3,0,0,0,0,0,0,0,0,0
1990,-3.21239e-12,3.85588e-38,-1.55365e-06,-3.27827e-12,3.85564e-38,-3.40903e-12,-1.06642e-13,0,0,0,0,0,0,0,0,0,0,1.46,0,4402795,1852394582,4402795,1852394582,520,144,1280721229,541478473,0,-0.261799,-1.44311e-06,-1.5,9.84106e-12,0,0,3,0,0,0,0,0,0,0,0,0
2000,-3.21239e-12,3.85588e-38,-1.55365e-06,-3.27827e-12,3.85564e-38,0,-1.06643e-13,0,0,0,0,0,0,0,0,0,0,1.46,0,4402795,1852394582,4402795,1852394582,520,144,1280721229,541478473,0,-0.261799,-1.40028e-06,-1.5,9.84106e-12,0,0,3,0,0,0,0,0,0,0,0,0
2010,-3.21239e-12,3.85588e-38,-1.55365e-06,-3.27827e-12,3.85564e-38,-3.40903e-12,-1.06643e-13,0,0,0,0,0,0,0,0,0,0,1.46,0,4402795,1852394582,4402795,1852394582,520,144,1280721229,541478473,0,-0.261799,-1.34499e-06,-1.5,9.84106e-12,0,0,3,0,0,0,0,0,0,0,0,0
2020,-3.21239e-12,3.85588e-38,-1.55365e-06,-3.27827e-12,3.85564e-38,0,-1.06643e-13,0,0,0,0,0,0,0,0,0,0,1.46,0,4402795,1852394582,4402795,1852394582,520,144,1280721229,541478473,0,-0.261799,-1.30245e-06,-1.5,9.84106e-12,0,0,3,0,0,0,0,0,0,0,0,0
2030,-3.21239e-12,3.85588e-38,-1.55365e-06,-3.27827e-12,3.85564e-38,-3.40903e-12,-1.06644e-13,0,0,0,0,0,0,0,0,0,0,1.46,0,4402795,1852394582,4402795,1852394582,520,144,1280721229,541478473,0,-0.261799,-1.26891e-06,-1.5,9.84106e-12,0,0,3,0,0,0,0,0,0,0,0,0
2040,-3.21239e-12,3.85588e-38,-1.55365e-06,-3.27827e-12,3.85564e-38,0,-1.06644e-13,0,0,0,0,0,0,0,0,0,0,1.46,0,4402795,1852394582,4402795,1852394582,520,144,1280721229,541478473,0,-0.261799,-1.23625e-06,-1.5,9.84106e-12,0,0,3,0,0,0,0,0,0,0,0,0
2050,-3.21239e-12,3.85588e-38,-1.55365e-06,-3.27827e-12,3.85564e-38,-3.40903e-12,-1.06644e-13,0,0,0,0,0,0,0,0,0,0,1.46,0,4402795,1852394582,4402795,1852394582,520,144,1280721229,541478473,0,-0.261799,-1.19714e-06,-1.5,9.84106e-12,0,0,3,0,0,0,0,0,0,0,0,0
2060,-3.21239e-12,3.85588e-38,-1.55365e-06,-3.27827e-12,3.85564e-38,0,-1.06644e-13,0,0,0,0,0,0,0,0,0,0,1.46,0,4402795,1852394582,4402795,1852394582,520,144,1280721229,541478473,0,-0.261799,-1.16163e-06,-1.5,9.84106e-12,0,0,3,0,0,0,0,0,0,0,0,0
2070,-3.21239e-12,3.85588e-38,-1.55365e-06,-3.27827e-12,3.85564e-38,-3.40903e-12,-1.06645e-13,0,0,0,0,0,0,0,0,0,0,1.46,0,4402795,1852394582,4402795,1852394582,520,144,1280721229,541478473,0,-0.261799,-1.1226e-06,-1.5,9.84106e-12,0,0,3,0,0,0,0,0,0,0,0,0
2080,-3.21239e-12,3.85588e-38,-1.55365e-06,-3.27827e-12,3.85564e-38,0,-1.06645e-13,0,0,0,0,0,0,0,0,0,0,1.46,0,4402795,1852394582,4402795,1852394582,520,144,1280721229,541478473,0,-0.261799,-1.08707e-06,-1.5,9.84106e-12,0,0,3,0,0,0,0,0,0,0,0,0
2090,-3.21239e-12,3.85588e-38,-1.55365e-06,-3.27827e-12,3.85564e-38,-3.40903e-12,-1.06645e-13,0,0,0,0,0,0,0,0,0,0,1.46,0,4402795,1852394582,4402795,1852394582,520,144,1280721229,541478473,0,-0.261799,-1.05267e-06,-1.5,9.84106e-12,0,0,3,0,0,0,0,0,0,0,0,0
2100,-3.21239e-12,3.85588e-38,-1.55365e-06,-3.27827e-12,3.85564e-38,0,-1.06645e-13,0,0,0,0,0,0,0,0,0,0,1.46,0,4402795,1852394582,4402795,1852394582,520,144,1280721229,541478473,0,-0.261799,-1.01937e-06,-1.5,9.84106e-12,0,0,3,0,0,0,0,0,0,0,0,0
2110,-3.21239e-12,3.85588e-38,-1.55365e-06,-3.27827e-12,3.85564e-38,-3.40903e-12,-1.06646e-13,0,0,0,0,0,0,0,0,0,0,1.46,0,4402795,1852394582,4402795,1852394582,520,144,1280721229,541478473,0,-0.261799,-9.89116e-07,-1.5,9.84106e-12,0,0,3,0,0,0,0,0,0,0,0,0
2120,-3.21239e-12,3.85588e-38,-1.55365e-06,-3.27827e-12,3.85564e-38,0,-1.06646e-13,0,0,0,0,0,0,0,0,0,0,1.46,0,4402795,1852394582,4402795,1852394582,520,144,1280721229,541478473,0,-0.261799,-9.59757e-07,-1.5,9.84106e-12,0,0,3,0,0,0,0,0,0,0,0,0
2130,-3.21239e-12,3.85588e-38,-1.55365e-06,-3.27827e-12,3.85564e-38,-3.40903e-12,-1.06646e-13,0,0,0,0,0,0,0,0,0,0,1.46,0,4402795,1852394582,4402795,1852394582,520,144,1280721229,541478473,0,-0.261799,-9.3127e-07,-1.5,9.84106e-12,0,0,3,0,0,0,0,0,0,0,0,0
2140,-3.21239e-12,3.85588e-38,-1.55365e-06,-3.27827e-12,3.85564e-38,0,-1.06647e-13,0,0,0,0,0,0,0,0,0,0,1.46,0,4402795,1852394582,4402795,1852394582,520,144,1280721229,541478473,0,-0.261799,-8.98156e-07,-1.5,9.84106e-12,0,0,3,0,0,0,0,0,0,0,0,0
2150,-3.21239e-12,3.85588e-38,-1.55365e-06,-3.27827e-12,3.85564e-38,-3.40903e-12,-1.06647e-13,0,0,0,0,0,0,0,0,0,0,1.46,0,4402795,1852394582,4402795,1852394582,520,144,1280721229,541478473,0,-0.261799,-8.69747e-07,-1.5,9.84106e-12,0,0,3,0,0,0,0,0,0,0,0,0
2160,-3.21239e-12,3.85588e-38,-1.55365e-06,-3.27827e-12,3.85564e-38,0,-1.06647e-13,0,0,0,0,0,0,0,0,0,0,1.46,0,4402795,1852394582,4402795,1852394582,520,144,1280721229,541478473,0,-0.261799,-8.43931e-07,-1.5,9.84106e-12,0,0,3,0,0,0,0,0,0,0,0,0
2170,-3.21239e-12,3.85588e-38,-1.55365e-06,-3.27827e-12,3.85564e-38,-3.40903e-12,-1.06647e-13,0,0,0,0,0,0,0,0,0,0,1.46,0,4402795,1852394582,4402795,1852394582,520,144,1280721229,541478473,0,-0.261799,-8.17238e-07,-1.5,9.84106e-12,0,0,3,0,0,0,0,0,0,0,0,0
2180,-3.21239e-12,3.85588e-38,-1.55365e-06,-3.27827e-12,3.85564e-38,0,-1.06648e-13,0,0,0,0,0,0,0,0,0,0,1.46,0,4402795,1852394582,4402795,1852394582,520,144,1280721229,541478473,0,-0.261799,-7.92994e-07,-1.5,9.84106e-12,0,0,3,0,0,0,0,0,0,0,0,0
2190,-3.21239e-12,3.85588e-38,-1.55365e-06,-3.27827e-12,3.85564e-38,-3.40903e-12,-1.06648e-13,0,0,0,0,0,0,0,0,0,0,1.46,0,4402795,1852394582,4402795,1852394582,520,144,1280721229,541478473,0,-0.261799,-7.72584e-07,-1.5,9.84106e-12,0,0,3,0,0,0,0,0,0,0,0,0
2200,-3.21239e-12,3.85588e-38,-1.55365e-06,-3.27827e-12,3.85564e-38,0,-1.06648e-13,0,0,0,0,0,0,0,0,0,0,1.46,0,4402795,1852394582,4402795,1852394582,520,144,1280721229,541478473,0,-0.261799,-7.51173e-07,-1.5,9.84106e-12,0,0,3,0,0,0,0,0,0,0,0,0
2210,-3.21239e-12,3.85588e-38,-1.55365e-06,-3.27827e-12,3.85564e-38,-3.40903e-12,-1.06648e-13,0,0,0,0,0,0,0,0,0,0,1.46,0,4402795,1852394582,4402795,1852394582,520,144,1280721229,541478473,0,-0.261799,-7.25938e-07,-1.5,9.84106e-12,0,0,3,0,0,0,0,0,0,0,0,0
2220,-3.21239e-12,3.85588e-38,-1.55365e-06,-3.27827e-12,3.85564e-38,0,-1.06649e-13,0,0,0,0,0,0,0,0,0,0,1.46,0,4402795,1852394582,4402795,1852394582,520,144,1280721229,541478473,0,-0.261799,-7.01534e-07,-1.5,9.84106e-12,0,0,3,0,0,0,0,0,0,0,0,0
2230,-3.21239e-12,3.85588e-38,-1.55365e-06,-3.27827e-12,3.85564e-38,-3.40903e-12,-1.06649e-13,0,0,0,0,0,0,0,0,0,0,1.46,0,4402795,1852394582,4402795,1852394582,520,144,1280721229,541478473,0,-0.261799,-6.79344e-07,-1.5,9.84106e-12,0,0,3,0,0,0,0,0,0,0,0,0
2240,-3.21239e-12,3.85588e-38,-1.55365e-06,-3.27827e-12,3.85564e-38,0,-1.06649e-13,0,0,0,0,0,0,0,0,0,0,1.46,0,4402795,1852394582,4402795,1852394582,520,144,1280721229,541478473,0,-0.261799,-6.5918e-07,-1.5,9.84106e-12,0,0,3,0,0,0,0,0,0,0,0,0
2250,-3.21239e-12,3.85588e-38,-1.55365e-06,-3.27827e-12,3.85564e-38,-3.40903e-12,-1.06649e-13,0,0,0,0,0,0,0,0,0,0,1.46,0,4402795,1852394582,4402795,1852394582,520,144,1280721229,541478473,0,-0.261799,-6.39625e-07,-1.5,9.84106e-12,0,0,3,0,0,0,0,0,0,0,0,0
2260,-3.21239e-12,3.85588e-38,-1.55365e-06,-3.27827e-12,3.85564e-38,0,-1.0665e-13,0,0,0,0,0,0,0,0,0,0,1.46,0,4402795,1852394582,4402795,1852394582,520,144,1280721229,541478473,0,-0.261799,-6.18137e-07,-1.5,9.84106e-12,0,0,3,0,0,0,0,0,0,0,0,0
2270,-3.21239e-12,3.85588e-38,-1.55365e-06,-3.27827e-12,3.85564e-38,-3.40903e-12,-1.0665e-13,0,0,0,0,0,0,0,0,0,0,1.46,0,4402795,1852394582,4402795,1852394582,520,144,1280721229,541478473,0,-0.261799,-5.98574e-07,-1.5,9.84106e-12,0,0,3,0,0,0,0,0,0,0,0,0
2280,-3.21239e-12,3.85588e-38,-1.55365e-06,-3.27827e-12,3.85564e-38,0,-1.0665e-13,0,0,0,0,0,0,0,0,0,0,1.46,0,4402795,1852394582,4402795,1852394582,520,144,1280721229,541478473,0,-0.261799,-5.79629e-07,-1.5,9.84106e-12,0,0,3,0,0,0,0,0,0,0,0,0
2290,-3.21239e-12,3.85588e-38,-1.55365e-06,-3.27827e-12,3.85564e-38,-3.40903e-12,-1.06651e-13,0,0,0,0,0,0,0,0,0,0,1.46,0,4402795,1852394582,4402795,1852394582,520,144,1280721229,541478473,0,-0.261799,-5.61295e-07,-1.5,9.84106e-12,0,0,3,0,0,0,0,0,0,0,0,0
2300,-3.21239e-12,3.85588e-38,-1.55365e-06,-3.27827e-12,3.85564e-38,0,-1.06651e-13,0,0,0,0,0,0,0,0,0,0,1.46,0,4402795,1852394582,4402795,1852394582,520,144,1280721229,541478473,0,-0.261799,-5.44635e-07,-1.5,9.84106e-12,0,0,3,0,0,0,0,0,0,0,0,0
2310,-3.21239e-12,3.85588e-38,-1.55365e-06,-3.27827e-12,3.85564e-38,-3.40903e-12,-1.06651e-13,0,0,0,0,0,0,0,0,0,0,1.46,0,4402795,1852394582,4402795,1852394582,520,144,1280721229,541478473,0,-0.261799,-5.28469e-07,-1.5,9.84106e-12,0,0,3,0,0,0,0,0,0,0,0,0
2320,-3.21239e-12,3.85588e-38,-1.55365e-06,-3.27827e-12,3.85564e-38,0,-1.06651e-13,0,0,0,0,0,0,0,0,0,0,1.46,0,4402795,1852394582,4402795,1852394582,520,144,1280721229,541478473,0,-0.261799,-5.11754e-07,-1.5,9.84106e-12,0,0,3,0,0,0,0,0,0,0,0,0
2330,-3.21239e-12,3.85588e-38,-1.55365e-06,-3.27827e-12,3.85564e-38,-3.40903e-12,-1.06652e-13,0,0,0,0,0,0,0,0,0,0,1.46,0,4402795,1852394582,4402795,1852394582,520,144,1280721229,541478473,0,-0.261799,-4.94562e-07,-1.5,9.84106e-12,0,0,3,0,0,0,0,0,0,0,0,0
2340,-3.21239e-12,3.85588e-38,-1.55365e-06,-3.27827e-12,3.85564e-38,0,-1.06652e-13,0,0,0,0,0,0,0,0,0,0,1.46,0,4402795,1852394582,4402795,1852394582,520,144,1280721229,541478473,0,-0.261799,-4.78919e-07,-1.5,9.84106e-12,0,0,3,0,0,0,0,0,0,0,0,0
2350,-3.21239e-12,3.85588e-38,-1.55365e-06,-3.27827e-12,3.85564e-38,-3.40903e-12,-1.06652e-13,0,0,0,0,0,0,0,0,0,0,1.46,0,4402795,1852394582,4402795,1852394582,520,144,1280721229,541478473,0,-0.261799,-4.61876e-07,-1.5,9.84106e-12,0,0,3,0,0,0,0,0,0,0,0,0
2360,-3.21239e-12,3.85588e-38,-1.55365e-06,-3.27827e-12,3.85564e-38,0,-1.06652e-13,0,0,0,0,0,0,0,0,0,0,1.46,0,4402795,1852394582,4402795,1852394582,520,144,1280721229,541478473,0,-0.261799,-4.49081e-07,-1.5,9.84106e-12,0,0,3,0,0,0,0,0,0,0,0,0
2370,-3.21239e-12,3.85588e-38,-1.55365e-06,-3.27827e-12,3.85564e-38,-3.40903e-12,-1.06653e-13,0,0,0,0,0,0,0,0,0,0,1.46,0,4402795,1852394582,4402795,1852394582,520,144,1280721229,541478473,0,-0.261799,-4.38403e-07,-1.5,9.84106e-12,0,0,3,0,0,0,0,0,0,0,0,0
2380,-3.21239e-12,3.85588e-38,-1.55365e-06,-3.27827e-12,3.85564e-38,0,-1.06653e-13,0,0,0,0,0,0,0,0,0,0,1.46,0,4402795,1852394582,4402795,1852394582,520,144,1280721229,541478473,0,-0.261799,-4.24537e-07,-1.5,9.84106e-12,0,0,3,0,0,0,0,0,0,0,0,0
2390,-3.21239e-12,3.85588e-38,-1.55365e-06,-3.27827e-12,3.85564e-38,-3.40903e-12,-1.06653e-13,0,0,0,0,0,0,0,0,0,0,1.46,0,4402795,1852394582,4402795,1852394582,520,144,1280721229,541478473,0,-0.261799,-4.10265e-07,-1.5,9.84106e-12,0,0,3,0,0,0,0,0,0,0,0,0
2400,-3.21239e-12,3.85588e-38,-1.55365e-06,-3.27827e-12,3.85564e-38,0,-1.06654e-13,0,0,0,0,0,0,0,0,0,0,1.46,0,4402795,1852394582,4402795,1852394582,520,144,1280721229,541478473,0,-0.261799,-3.9728e-07,-1.5,9.84106e-12,0,0,3,0,0,0,0,0,0,0,0,0
2410,-3.21239e-12,3.85588e-38,-1.55365e-06,-3.27827e-12,3.85564e-38,-3.40903e-12,-1.06654e-13,0,0,0,0,0,0,0,0,0,0,1.46,0,4402795,1852394582,4402795,1852394582,520,144,1280721229,541478473,0,-0.261799,-3.84706e-07,-1.5,9.84106e-12,0,0,3,0,0,0,0,0,0,0,0,0
2420,-3.21239e-12,3.85588e-38,-1.55365e-06,-3.27827e-12,3.85564e-38,0,-1.06654e-13,0,0,0,0,0,0,0,0,0,0,1.46,0,4402795,1852394582,4402795,1852394582,520,144,1280721229,541478473,0,-0.261799,-3.72538e-07,-1.5,9.84106e-12,0,0,3,0,0,0,0,0,0,0,0,0
2430,-3.21239e-12,3.85588e-38,-1.55365e-06,-3.27827e-12,3.85564e-38,-3.40903e-12,-1.06654e-13,0,0,0,0,0,0,0,0,0,0,1.46,0,4402795,1852394582,4402795,1852394582,520,144,1280721229,541478473,0,-0.261799,-3.6148e-07,-1.5,9.84106e-12,0,0,3,0,0,0,0,0,0,0,0,0
2440,-3.21239e-12,3.85588e-38,-1.55365e-06,-3.27827e-12,3.85564e-38,0,-1.06655e-13,0,0,0,0,0,0,0,0,0,0,1.46,0,4402795,1852394582,4402795,1852394582,520,144,1280721229,541478473,0,-0.261799,-3.50757e-07,-1.5,9.84106e-12,0,0,3,0,0,0,0,0,0,0,0,0
2450,-3.21239e-12,3.85588e-38,-1.55365e-06,-3.27827e-12,3.85564e-38,-3.40903e-12,-1.06655e-13,0,0,0,0,0,0,0,0,0,0,1.46,0,4402795,1852394582,4402795,1852394582,520,144,1280721229,541478473,0,-0.261799,-3.39662e-07,-1.5,9.84106e-12,0,0,3,0,0,0,0,0,0,0,0,0
2460,-3.21239e-12,3.85588e-38,-1.55365e-06,-3.27827e-12,3.85564e-38,0,-1.06655e-13,0,0,0,0,0,0,0,0,0,0,1.46,0,4402795,1852394582,4402795,1852394582,520,144,1280721229,541478473,0,-0.261799,-3.28252e-07,-1.5,9.84106e-12,0,0,3,0,0,0,0,0,0,0,0,0
2470,-3.21239e-12,3.85588e-38,-1.55365e-06,-3.27827e-12,3.85564e-38,-3.40903e-12,-1.06655e-13,0,0,0,0,0,0,0,0,0,0,1.46,0,4402795,1852394582,4402795,1852394582,520,144,1280721229,541478473,0,-0.261799,-3.17869e-07,-1.5,9.84106e-12,0,0,3,0,0,0,0,0,0,0,0,0
2480,-3.21239e-12,3.85588e-38,-1.55365e-06,-3.27827e-12,3.85564e-38,0,-1.06656e-13,0,0,0,0,0,0,0,0,0,0,1.46,0,4402795,1852394582,4402795,1852394582,520,144,1280721229,541478473,0,-0.261799,-3.08434e-07,-1.5,9.84106e-12,0,0,3,0,0,0,0,0,0,0,0,0
2490,-3.21239e-12,3.85588e-38,-1.55365e-06,-3.27827e-12,3.85564e-38,-3.40903e-12,-1.06656e-13,0,0,0,0,0,0,0,0,0,0,1.46,0,4402795,1852394582,4402795,1852394582,520,144,1280721229,541478473,0,-0.261799,-2.99279e-07,-1.5,9.84106e-12,0,0,3,0,0,0,0,0,0,0,0,0
2500,-3.21239e-12,3.85588e-38,-1.55365e-06,-3.27827e-12,3.85564e-38,0,-1.06656e-13,0,0,0,0,0,0,0,0,0,0,1.46,0,4402795,1852394582,4402795,1852394582,520,144,1280721229,541478473,0,-0.261799,-2.90396e-07,-1.5,9.84106e-12,0,0,3,0,0,0,0,0,0,0,0,0
2510,-3.21239e-12,3.85588e-38,-1.55365e-06,-3.27827e-12,3.85564e-38,-3.40903e-12,-1.06657e-13,0,0,0,0,0,0,0,0,0,0,1.46,0,4402795,1852394582,4402795,1852394582,520,144,1280721229,541478473,0,-0.261799,-2.81211e-07,-1.5,9.84106e-12,0,0,3,0,0,0,0,0,0,0,0,0
2520,-3.21239e-12,3.85588e-38,-1.55365e-06,-3.27827e-12,3.85564e-38,0,-1.06657e-13,0,0,0,0,0,0,0,0,0,0,1.46,0,4402795,1852394582,4402795,1852394582,520,144,1280721229,541478473,0,-0.261799,-2.71211e-07,-1.5,9.84106e-12,0,0,3,0,0,0,0,0,0,0,0,0
2530,-3.21239e-12,3.85588e-38,-1.55365e-06,-3.27827e-12,3.85564e-38,-3.40903e-12,-1.06657e-13,0,0,0,0,0,0,0,0,0,0,1.46,0,4402795,1852394582,4402795,1852394582,520,144,1280721229,541478473,0,-0.261799,-2.63698e-07,-1.5,9.84106e-12,0,0,3,0,0,0,0,0,0,0,0,0
2540,-3.21239e-12,3.85588e-38,-1.55365e-06,-3.27827e-12,3.85564e-38,0,-1.06657e-13,0,0,0,0,0,0,0,0,0,0,1.46,0,4402795,1852394582,4402795,1852394582,520,144,1280721229,541478473,0,-0.261799,-2.55358e-07,-1.5,9.84106e-12,0,0,3,0,0,0,0,0,0,0,0,0
2550,-3.21239e-12,3.85588e-38,-1.55365e-06,-3.27827e-12,3.85564e-38,-3.40903e-12,-1.06658e-13,0,0,0,0,0,0,0,0,0,0,1.46,0,4402795,1852394582,4402795,1852394582,520,144,1280721229,541478473,0,-0.261799,-2.47778e-07,-1.5,9.84106e-12,0,0,3,0,0,0,0,0,0,0,0,0
2560,-3.21239e-12,3.85588e-38,-1.55365e-06,-3.27827e-12,3.85564e-38,0,-1.06658e-13,0,0,0,0,0,0,0,0,0,0,1.46,0,4402795,1852394582,4402795,1852394582,520,144,1280721229,541478473,0,-0.261799,-2.40424e-07,-1.5,9.84106e-12,0,0,3,0,0,0,0,0,0,0,0,0
2570,-3.21239e-12,3.85588e-38,-1.55365e-06,-3.27827e-12,3.85564e-38,-3.40903e-12,-1.06658e-13,0,0,0,0,0,0,0,0,0,0,1.46,0,4402795,1852394582,4402795,1852394582,520,144,1280721229,541478473,0,-0.261799,-2.33288e-07,-1.5,9.84106e-12,0,0,3,0,0,0,0,0,0,0,0,0
2580,-3.21239e-12,3.85588e-38,-1.55365e-06,-3.27827e-12,3.85564e-38,0,-1.06658e-13,0,0,0,0,0,0,0,0,0,0,1.46,0,4402795,1852394582,4402795,1852394582,520,144,1280721229,541478473,0,-0.261799,-2.24076e-07,-1.5,9.84106e-12,0,0,3,0,0,0,0,0,0,0,0,0
2590,-3.21239e-12,3.85588e-38,-1.55365e-06,-3.27827e-12,3.85564e-38,-3.40903e-12,-1.06659e-13,0,0,0,0,0,0,0,0,0,0,1.46,0,4402795,1852394582,4402795,1852394582,520,144,1280721229,541478473,0,-0.261799,-2.16984e-07,-1.5,9.84106e-12,0,0,3,0,0,0,0,0,0,0,0,0
2600,-3.21239e-12,3.85588e-38,-1.55365e-06,-3.27827e-12,3.85564e-38,0,-1.06659e-13,0,0,0,0,0,0,0,0,0,0,1.46,0,4402795,1852394582,4402795,1852394582,520,144,1280721229,541478473,0,-0.261799,-2.10116e-07,-1.5,9.84106e-12,0,0,3,0,0,0,0,0,0,0,0,0
