timestamp,A_x,A_y,A_z,P,Q,R,Phi,Theta,Psi,poseX,poseY,poseZ,state_X,state_Y,state_Z,state_VzB,state_Bx,state_By,state_Bz,p1_x,p1_y,p2_x,p2_y,p3_x,p3_y,p4_x,p4_y,roll,pitch,yaw,alt,targetHeading,highLevelState,lowLevelState,gateNumber,filtered_x,filtered_y,x_OT,y_OT,vx_OT,vy_OT,filtered_vx,filtered_vygateArearansac_corr_x,ransac_corr_y,ransac_corr_vx,ransac_corr_vy,detectionTimeStamp
7880,0,0,0,0,0,0,0,0,0,0,0,0,0,0,0,0,0,0,0,0,0,0,0,0,0,0,0,0,-0.261799,0.0141372,-1.5,2.51931e-09,0,0,2,0,0,0,0,0,0,0,0,1.9603e-19,0,0,0,0,0
8861,-3.2133e-12,2.22871e-38,-1.54527e-06,-3.27827e-12,2.22859e-38,0,-1.06589e-13,0,0,0,0,0,0,0,0,0,0,0,0,0,0,0,0,0,0,0,0,0,-0.261799,1.55509,-1.5,2.51931e-09,0,0,2,0,0,0,0,0,0,0,0,1.9603e-19,0,0,0,0,0
8904,-3.2133e-12,2.22871e-38,-1.54527e-06,-3.27827e-12,2.22859e-38,-3.40903e-12,-1.0659e-13,0,0,0,0,0,0,0,0,0,0,0,0,0,0,0,0,0,0,0,0,0,-0.261799,1.62106,-1.5,2.51931e-09,0,0,2,0,0,0,0,0,0,0,0,1.9603e-19,0,0,0,0,0
9140,-3.2133e-12,2.22871e-38,-1.54527e-06,-3.27827e-12,2.22859e-38,0,-1.0659e-13,0,0,0,0,0,0,0,0,0,0,0,0,0,0,0,0,0,0,0,0,0,-0.261799,1.99334,-1.5,2.51931e-09,0,0,2,0,0,0,0,0,0,0,0,1.9603e-19,0,0,0,0,0
9390,-3.2133e-12,2.22871e-38,-1.54527e-06,-3.27827e-12,2.22859e-38,-3.40903e-12,-1.0659e-13,0,0,0,0,0,0,0,0,0,0,0,0,0,0,0,0,0,0,0,0,0,-0.261799,2.38569,-1.5,2.51931e-09,0,0,2,0,0,0,0,0,0,0,0,1.9603e-19,0,0,0,0,0
9427,-3.2133e-12,2.22871e-38,-1.54527e-06,-3.27827e-12,2.22859e-38,0,-1.0659e-13,0,0,0,0,0,0,0,0,0,0,0,0,0,0,0,0,0,0,0,0,0,-0.261799,2.44078,-1.5,2.51931e-09,0,0,2,0,0,0,0,0,0,0,0,1.9603e-19,0,0,0,0,0
9593,-3.2133e-12,2.22871e-38,-1.54527e-06,-3.27827e-12,2.22859e-38,-3.40903e-12,-1.06591e-13,0,0,0,0,0,0,0,0,0,0,0,0,0,0,0,0,0,0,0,0,0,-0.261799,2.66848,-1.5,2.51931e-09,0,0,2,0,0,0,0,0,0,0,0,1.9603e-19,0,0,0,0,0
9639,-3.2133e-12,2.22871e-38,-1.54527e-06,-3.27827e-12,2.22859e-38,0,-1.06591e-13,0,0,0,0,0,0,0,0,0,0,0,0,0,0,0,0,0,0,0,0,0,-0.261799,2.71225,-1.5,2.51931e-09,0,0,2,0,0,0,0,0,0,0,0,1.9603e-19,0,0,0,0,0
9674,-3.2133e-12,2.22871e-38,-1.54527e-06,-3.27827e-12,2.22859e-38,-3.40903e-12,-1.06591e-13,0,0,0,0,0,0,0,0,0,0,0,0,0,0,0,0,0,0,0,0,0,-0.261799,2.7419,-1.5,2.51931e-09,0,0,2,0,0,0,0,0,0,0,0,1.9603e-19,0,0,0,0,0
9780,-3.2133e-12,2.22871e-38,-1.54527e-06,-3.27827e-12,2.22859e-38,0,-1.06591e-13,0,0,0,0,0,0,0,0,0,0,0,0,0,0,0,0,0,0,0,0,0,-0.261799,2.82535,-1.5,2.51931e-09,0,0,2,0,0,0,0,0,0,0,0,1.9603e-19,0,0,0,0,0
9853,-3.2133e-12,2.22871e-38,-1.54527e-06,-3.27827e-12,2.22859e-38,-3.40903e-12,-1.06592e-13,0,0,0,0,0,0,0,0,0,0,0,0,0,0,0,0,0,0,0,0,0,-0.261799,2.87083,-1.5,2.51931e-09,0,0,2,0,0,0,0,0,0,0,0,1.9603e-19,0,0,0,0,0
9873,-3.2133e-12,2.22871e-38,-1.54527e-06,-3.27827e-12,2.22859e-38,0,-1.06592e-13,0,0,0,0,0,0,0,0,0,0,0,0,0,0,0,0,0,0,0,0,0,-0.261799,2.88153,-1.5,2.51931e-09,0,0,2,0,0,0,0,0,0,0,0,1.9603e-19,0,0,0,0,0
9890,-3.2133e-12,2.22871e-38,-1.54527e-06,-3.27827e-12,2.22859e-38,-3.40903e-12,-1.06592e-13,0,0,0,0,0,0,0,0,0,0,0,0,0,0,0,0,0,0,0,0,0,-0.261799,2.89027,-1.5,2.51931e-09,0,0,2,0,0,0,0,0,0,0,0,1.9603e-19,0,0,0,0,0
10000,-3.2133e-12,2.22871e-38,-1.54527e-06,-3.27827e-12,2.22859e-38,0,-1.06593e-13,0,0,0,0,0,0,0,0,0,0,0,0,0,0,0,0,0,0,0,0,0,-0.261799,2.94472,-1.5,2.51931e-09,0,0,2,0,0,0,0,0,0,0,0,1.9603e-19,0,0,0,0,0
10045,-3.2133e-12,2.22871e-38,-1.54527e-06,-3.27827e-12,2.22859e-38,-3.40903e-12,-1.06593e-13,0,0,0,0,0,0,0,0,0,0,0,0,0,0,0,0,0,0,0,0,0,-0.261799,2.96219,-1.5,2.51931e-09,0,0,2,0,0,0,0,0,0,0,0,1.9603e-19,0,0,0,0,0
10062,-3.2133e-12,2.22871e-38,-1.54527e-06,-3.27827e-12,2.22859e-38,0,-1.06593e-13,0,0,0,0,0,0,0,0,0,0,0,0,0,0,0,0,0,0,0,0,0,-0.261799,2.96822,-1.5,2.51931e-09,0,0,2,0,0,0,0,0,0,0,0,1.9603e-19,0,0,0,0,0
10083,-3.2133e-12,2.22871e-38,-1.54527e-06,-3.27827e-12,2.22859e-38,-3.40903e-12,-1.06593e-13,0,0,0,0,0,0,0,0,0,0,0,0,0,0,0,0,0,0,0,0,0,-0.261799,2.9754,-1.5,2.51931e-09,0,0,2,0,0,0,0,0,0,0,0,1.9603e-19,0,0,0,0,0
10100,-3.2133e-12,2.22871e-38,-1.54527e-06,-3.27827e-12,2.22859e-38,0,-1.06594e-13,0,0,0,0,0,0,0,0,0,0,0,0,0,0,0,0,0,0,0,0,0,-0.261799,2.98099,-1.5,2.51931e-09,0,0,2,0,0,0,0,0,0,0,0,1.9603e-19,0,0,0,0,0
10210,-3.2133e-12,2.22871e-38,-1.54527e-06,-3.27827e-12,2.22859e-38,-3.40903e-12,-1.06594e-13,0,0,0,0,0,0,0,0,0,0,0,0,0,0,0,0,0,0,0,0,0,-0.261799,3.01578,-1.5,2.51931e-09,0,0,2,0,0,0,0,0,0,0,0,1.9603e-19,0,0,0,0,0
10277,-3.2133e-12,2.22871e-38,-1.54527e-06,-3.27827e-12,2.22859e-38,0,-1.06594e-13,0,0,0,0,0,0,0,0,0,0,0,0,0,0,0,0,0,0,0,0,0,-0.261799,3.03237,-1.5,2.51931e-09,0,0,2,0,0,0,0,0,0,0,0,1.9603e-19,0,0,0,0,0
10380,-3.2133e-12,2.22871e-38,-1.54527e-06,-3.27827e-12,2.22859e-38,-3.40903e-12,-1.06594e-13,0,0,0,0,0,0,0,0,0,0,0,0,0,0,0,0,0,0,0,0,0,-0.261799,3.05453,-1.5,2.51931e-09,0,0,2,0,0,0,0,0,0,0,0,1.9603e-19,0,0,0,0,0
10420,-3.2133e-12,2.22871e-38,-1.54527e-06,-3.27827e-12,2.22859e-38,0,-1.06595e-13,0,0,0,0,0,0,0,0,0,0,0,0,0,0,0,0,0,0,0,0,0,-0.261799,3.06138,-1.5,2.51931e-09,0,0,2,0,0,0,0,0,0,0,0,1.9603e-19,0,0,0,0,0
10446,-3.2133e-12,2.22871e-38,-1.54527e-06,-3.27827e-12,2.22859e-38,-3.40903e-12,-1.06595e-13,0,0,0,0,0,0,0,0,0,0,0,0,0,0,0,0,0,0,0,0,0,-0.261799,3.0655,-1.5,2.51931e-09,0,0,2,0,0,0,0,0,0,0,0,1.9603e-19,0,0,0,0,0
10464,-3.2133e-12,2.22871e-38,-1.54527e-06,-3.27827e-12,2.22859e-38,0,-1.06595e-13,0,0,0,0,0,0,0,0,0,0,0,0,0,0,0,0,0,0,0,0,0,-0.261799,3.06821,-1.5,2.51931e-09,0,0,2,0,0,0,0,0,0,0,0,1.9603e-19,0,0,0,0,0
10570,-3.2133e-12,2.22871e-38,-1.54527e-06,-3.27827e-12,2.22859e-38,-3.40903e-12,-1.06596e-13,0,0,0,0,0,0,0,0,0,0,0,0,0,0,0,0,0,0,0,0,0,-0.261799,3.08353,-1.5,2.51931e-09,0,0,2,0,0,0,0,0,0,0,0,1.9603e-19,0,0,0,0,0
10694,-3.2133e-12,2.22871e-38,-1.54527e-06,-3.27827e-12,2.22859e-38,0,-1.06596e-13,0,0,0,0,0,0,0,0,0,0,0,0,0,0,0,0,0,0,0,0,0,-0.261799,3.09768,-1.5,2.51931e-09,0,0,2,0,0,0,0,0,0,0,0,1.9603e-19,0,0,0,0,0
10715,-3.2133e-12,2.22871e-38,-1.54527e-06,-3.27827e-12,2.22859e-38,-3.40903e-12,-1.06596e-13,0,0,0,0,0,0,0,0,0,0,0,0,0,0,0,0,0,0,0,0,0,-0.261799,3.0995,-1.5,2.51931e-09,0,0,2,0,0,0,0,0,0,0,0,1.9603e-19,0,0,0,0,0
10732,-3.2133e-12,2.22871e-38,-1.54527e-06,-3.27827e-12,2.22859e-38,0,-1.06596e-13,0,0,0,0,0,0,0,0,0,0,0,0,0,0,0,0,0,0,0,0,0,-0.261799,3.10084,-1.5,2.51931e-09,0,0,2,0,0,0,0,0,0,0,0,1.9603e-19,0,0,0,0,0
10840,-3.2133e-12,2.22871e-38,-1.54527e-06,-3.27827e-12,2.22859e-38,-3.40903e-12,-1.06597e-13,0,0,0,0,0,0,0,0,0,0,0,0,0,0,0,0,0,0,0,0,0,-0.261799,3.1095,-1.5,2.51931e-09,0,0,2,0,0,0,0,0,0,0,0,1.9603e-19,0,0,0,0,0
10883,-3.2133e-12,2.22871e-38,-1.54527e-06,-3.27827e-12,2.22859e-38,0,-1.06597e-13,0,0,0,0,0,0,0,0,0,0,0,0,0,0,0,0,0,0,0,0,0,-0.261799,3.11216,-1.5,2.51931e-09,0,0,2,0,0,0,0,0,0,0,0,1.9603e-19,0,0,0,0,0
10899,-3.2133e-12,2.22871e-38,-1.54527e-06,-3.27827e-12,2.22859e-38,-3.40903e-12,-1.06597e-13,0,0,0,0,0,0,0,0,0,0,0,0,0,0,0,0,0,0,0,0,0,-0.261799,3.11315,-1.5,2.51931e-09,0,0,2,0,0,0,0,0,0,0,0,1.9603e-19,0,0,0,0,0
10920,-3.2133e-12,2.22871e-38,-1.54527e-06,-3.27827e-12,2.22859e-38,0,-1.06597e-13,0,0,0,0,0,0,0,0,0,0,0,0,0,0,0,0,0,0,0,0,0,-0.261799,3.11433,-1.5,2.51931e-09,0,0,2,0,0,0,0,0,0,0,0,1.9603e-19,0,0,0,0,0
11030,-3.2133e-12,2.22871e-38,-1.54527e-06,-3.27827e-12,2.22859e-38,-3.40903e-12,-1.06598e-13,0,0,0,0,0,0,0,0,0,0,0,0,0,0,0,0,0,0,0,0,0,-0.261799,3.12024,-1.5,2.51931e-09,0,0,2,0,0,0,0,0,0,0,0,1.9603e-19,0,0,0,0,0
11083,-3.2133e-12,2.22871e-38,-1.54527e-06,-3.27827e-12,2.22859e-38,0,-1.06598e-13,0,0,0,0,0,0,0,0,0,0,0,0,0,0,0,0,0,0,0,0,0,-0.261799,3.12246,-1.5,2.51931e-09,0,0,2,0,0,0,0,0,0,0,0,1.9603e-19,0,0,0,0,0
11099,-3.2133e-12,2.22871e-38,-1.54527e-06,-3.27827e-12,2.22859e-38,-3.40903e-12,-1.06598e-13,0,0,0,0,0,0,0,0,0,0,0,0,0,0,0,0,0,0,0,0,0,-0.261799,3.12307,-1.5,2.51931e-09,0,0,2,0,0,0,0,0,0,0,0,1.9603e-19,0,0,0,0,0
11117,-3.2133e-12,2.22871e-38,-1.54527e-06,-3.27827e-12,2.22859e-38,0,-1.06599e-13,0,0,0,0,0,0,0,0,0,0,0,0,0,0,0,0,0,0,0,0,0,-0.261799,3.12373,-1.5,2.51931e-09,0,0,2,0,0,0,0,0,0,0,0,1.9603e-19,0,0,0,0,0
11220,-3.2133e-12,2.22871e-38,-1.54527e-06,-3.27827e-12,2.22859e-38,-3.40903e-12,-1.06599e-13,0,0,0,0,0,0,0,0,0,0,0,0,0,0,0,0,0,0,0,0,0,-0.261799,3.12735,-1.5,2.51931e-09,0,0,2,0,0,0,0,0,0,0,0,1.9603e-19,0,0,0,0,0
11356,-3.2133e-12,2.22871e-38,-1.54527e-06,-3.27827e-12,2.22859e-38,0,-1.06599e-13,0,0,0,0,0,0,0,0,0,0,0,0,0,0,0,0,0,0,0,0,0,-0.261799,3.13117,-1.5,2.51931e-09,0,0,2,0,0,0,0,0,0,0,0,1.9603e-19,0,0,0,0,0
11378,-3.2133e-12,2.22871e-38,-1.54527e-06,-3.27827e-12,2.22859e-38,-3.40903e-12,-1.06599e-13,0,0,0,0,0,0,0,0,0,0,0,0,0,0,0,0,0,0,0,0,0,-0.261799,3.13162,-1.5,2.51931e-09,0,0,2,0,0,0,0,0,0,0,0,1.9603e-19,0,0,0,0,0
11480,-3.2133e-12,2.22871e-38,-1.54527e-06,-3.27827e-12,2.22859e-38,0,-1.066e-13,0,0,0,0,0,0,0,0,0,0,0,0,0,0,0,0,0,0,0,0,0,-0.261799,3.13362,-1.5,2.51931e-09,0,0,2,0,0,0,0,0,0,0,0,1.9603e-19,0,0,0,0,0
11548,-3.2133e-12,2.22871e-38,-1.54527e-06,-3.27827e-12,2.22859e-38,-3.40903e-12,-1.066e-13,0,0,-3.1939,-0.203549,0.270723,0,0,0,0,0,0,0,278,-58,278,-58,415,-59,277,64,0,-0.261799,3.13469,-1.5,2.51931e-09,0,0,2,0,0,0,0,0,0,0,0,16974,0,0,0,0,0
11583,-3.2133e-12,2.22871e-38,-1.54527e-06,-3.27827e-12,2.22859e-38,0,-1.066e-13,0,0,-3.1939,-0.203549,0.270723,0,0,0,0,0,0,0,278,-58,278,-58,415,-59,277,64,0,-0.261799,3.13516,-1.5,2.51931e-09,0,0,2,0,0,0,0,0,0,0,0,16974,0,0,0,0,0
11625,-3.2133e-12,2.22871e-38,-1.54527e-06,-3.27827e-12,2.22859e-38,-3.40903e-12,-1.066e-13,0,0,-3.1939,-0.203549,0.270723,0,0,0,0,0,0,0,278,-58,278,-58,415,-59,277,64,0,-0.261799,3.1357,-1.5,2.51931e-09,0,0,2,0,0,0,0,0,0,0,0,16974,0,0,0,0,0
11730,-3.2133e-12,2.22871e-38,-1.54527e-06,-3.27827e-12,2.22859e-38,0,-1.06601e-13,0,0,-3.26181,-0.185643,0.308633,0,0,0,0,0,0,0,277,-56,277,-56,411,-60,277,64,0,-0.261799,3.13692,-1.5,2.51931e-09,0,0,2,0,0,0,0,0,0,0,0,16616,0,0,0,0,0
11771,-3.2133e-12,2.22871e-38,-1.54527e-06,-3.27827e-12,2.22859e-38,-3.40903e-12,-1.06601e-13,0,0,-4.56617,-5.87935,0.276312,0,0,0,0,0,0,0,771,35,771,35,855,8,752,123,0,-0.261799,3.13729,-1.5,2.51931e-09,0,0,2,0,0,0,0,0,0,0,0,11845,0,0,0,0,0
11792,-3.2133e-12,2.22871e-38,-1.54527e-06,-3.27827e-12,2.22859e-38,0,-1.06601e-13,0,0,-3.25267,-0.194073,0.314531,0,0,0,0,0,0,0,277,-55,277,-55,415,-61,277,59,0,-0.261799,3.13746,-1.5,2.51931e-09,0,0,2,0,0,0,0,0,0,0,0,16698,0,0,0,0,0
11808,-3.2133e-12,2.22871e-38,-1.54527e-06,-3.27827e-12,2.22859e-38,-3.40903e-12,-1.06602e-13,0,0,-3.25267,-0.194073,0.314531,0,0,0,0,0,0,0,277,-55,277,-55,415,-61,277,59,0,-0.261799,3.1376,-1.5,2.51931e-09,0,0,2,0,0,0,0,0,0,0,0,16698,0,0,0,0,0
11830,-3.2133e-12,2.22871e-38,-1.54527e-06,-3.27827e-12,2.22859e-38,0,-1.06602e-13,0,0,-3.25237,-0.188339,0.314345,0,0,0,0,0,0,0,276,-58,276,-58,412,-59,277,60,0,-0.261799,3.13777,-1.5,2.51931e-09,0,0,2,0,0,0,0,0,0,0,0,16184,0,0,0,0,0
11940,-3.2133e-12,2.22871e-38,-1.54527e-06,-3.27827e-12,2.22859e-38,-3.40903e-12,-1.06602e-13,0,0,-3.28265,-0.189865,0.330591,0,0,0,0,0,0,0,277,-56,277,-56,411,-59,277,59,0,-0.261799,3.1386,-1.5,2.51931e-09,0,0,2,0,0,0,0,0,0,0,0,15946,0,0,0,0,0
12036,-3.2133e-12,2.22871e-38,-1.54527e-06,-3.27827e-12,2.22859e-38,0,-1.06602e-13,0,0,-3.30025,-0.192727,0.336896,0,0,0,0,0,0,0,278,-54,278,-54,411,-59,277,59,0,-0.261799,3.13917,-1.5,2.51931e-09,0,0,2,0,0,0,0,0,0,0,0,15946,0,0,0,0,0
12053,-3.2133e-12,2.22871e-38,-1.54527e-06,-3.27827e-12,2.22859e-38,-3.40903e-12,-1.06603e-13,0,0,-3.28265,-0.189865,0.330591,0,0,0,0,0,0,0,277,-56,277,-56,411,-59,277,59,0,-0.261799,3.13925,-1.5,2.51931e-09,0,0,2,0,0,0,0,0,0,0,0,15946,0,0,0,0,0
12074,-3.2133e-12,2.22871e-38,-1.54527e-06,-3.27827e-12,2.22859e-38,0,-1.06603e-13,0,0,-3.28265,-0.189865,0.330591,0,0,0,0,0,0,0,277,-56,277,-56,411,-59,277,59,0,-0.261799,3.13934,-1.5,2.51931e-09,0,0,2,0,0,0,0,0,0,0,0,15946,0,0,0,0,0
12180,-3.2133e-12,2.22871e-38,-1.54527e-06,-3.27827e-12,2.22859e-38,-3.40903e-12,-1.06603e-13,0,0,-3.15519,-0.179776,0.205436,0,0,0,0,0,0,0,277,-56,277,-56,411,-59,277,81,0,-0.261799,3.13981,-1.5,2.51931e-09,0,0,2,0,0,0,0,0,0,0,0,18760,0,0,0,0,0
12230,-3.2133e-12,2.22871e-38,-1.54527e-06,-3.27827e-12,2.22859e-38,0,-1.06603e-13,0,0,-3.28265,-0.189865,0.330591,0,0,0,0,0,0,0,277,-56,277,-56,411,-59,277,59,0,-0.261799,3.13999,-1.5,2.51931e-09,0,0,2,0,0,0,0,0,0,0,0,15946,0,0,0,0,0
12322,-3.2133e-12,2.22871e-38,-1.54527e-06,-3.27827e-12,2.22859e-38,-3.40903e-12,-1.06604e-13,0,0,-3.31355,-0.200584,0.349008,0,0,0,0,0,0,0,281,-56,281,-56,411,-59,277,59,0,-0.261799,3.14028,-1.5,2.51931e-09,0,0,2,0,0,0,0,0,0,0,0,15946,0,0,0,0,0
12338,-3.2133e-12,2.22871e-38,-1.54527e-06,-3.27827e-12,2.22859e-38,0,-1.06604e-13,0,0,-3.31355,-0.200584,0.349008,0,0,0,0,0,0,0,281,-56,281,-56,411,-59,277,59,0,-0.261799,3.14032,-1.5,2.51931e-09,0,0,2,0,0,0,0,0,0,0,0,15946,0,0,0,0,0
12450,-3.2133e-12,2.22871e-38,-1.54527e-06,-3.27827e-12,2.22859e-38,-3.40903e-12,-1.06604e-13,0,0,-4.6202,-5.96478,0.298852,0,0,0,0,0,0,0,771,35,771,35,858,8,757,121,0,-0.261799,3.1406,-1.5,2.51931e-09,0,0,2,0,0,0,0,0,0,0,0,11413,0,0,0,0,0
12506,-3.2133e-12,2.22871e-38,-1.54527e-06,-3.27827e-12,2.22859e-38,0,-1.06605e-13,0,0,-4.60345,-5.91832,0.29148,0,0,0,0,0,0,0,771,35,771,35,855,8,752,121,0,-0.261799,3.14071,-1.5,2.51931e-09,0,0,2,0,0,0,0,0,0,0,0,11639,0,0,0,0,0
12524,-3.2133e-12,2.22871e-38,-1.54527e-06,-3.27827e-12,2.22859e-38,-3.40903e-12,-1.06605e-13,0,0,-3.14105,-0.183094,0.1974,0,0,0,0,0,0,0,277,-56,277,-56,411,-59,277,81,0,-0.261799,3.14074,-1.5,2.51931e-09,0,0,2,0,0,0,0,0,0,0,0,18760,0,0,0,0,0
12630,-3.2133e-12,2.22871e-38,-1.54527e-06,-3.27827e-12,2.22859e-38,0,-1.06605e-13,0,0,-3.28265,-0.189865,0.330591,0,0,0,0,0,0,0,277,-56,277,-56,411,-59,277,59,0,-0.261799,3.14092,-1.5,2.51931e-09,0,0,2,0,0,0,0,0,0,0,0,15946,0,0,0,0,0
12727,-3.2133e-12,2.22871e-38,-1.54527e-06,-3.27827e-12,2.22859e-38,-3.40903e-12,-1.06605e-13,0,0,-3.1602,-0.179875,0.206353,0,0,0,0,0,0,0,277,-55,277,-55,411,-59,277,81,0,-0.261799,3.14105,-1.5,2.51931e-09,0,0,2,0,0,0,0,0,0,0,0,18760,0,0,0,0,0
12745,-3.2133e-12,2.22871e-38,-1.54527e-06,-3.27827e-12,2.22859e-38,0,-1.06606e-13,0,0,-3.1602,-0.179875,0.206353,0,0,0,0,0,0,0,277,-55,277,-55,411,-59,277,81,0,-0.261799,3.14106,-1.5,2.51931e-09,0,0,2,0,0,0,0,0,0,0,0,18760,0,0,0,0,0
12766,-3.2133e-12,2.22871e-38,-1.54527e-06,-3.27827e-12,2.22859e-38,-3.40903e-12,-1.06606e-13,0,0,-4.63547,-5.97442,0.311012,0,0,0,0,0,0,0,771,35,771,35,858,8,754,121,0,-0.261799,3.14109,-1.5,2.51931e-09,0,0,2,0,0,0,0,0,0,0,0,11752,0,0,0,0,0
12870,-3.2133e-12,2.22871e-38,-1.54527e-06,-3.27827e-12,2.22859e-38,0,-1.06606e-13,0,0,-3.26588,-0.193213,0.320778,0,0,0,0,0,0,0,277,-56,277,-56,411,-59,277,59,0,-0.261799,3.14119,-1.5,2.51931e-09,0,0,2,0,0,0,0,0,0,0,0,15946,0,0,0,0,0
12930,-3.2133e-12,2.22871e-38,-1.54527e-06,-3.27827e-12,2.22859e-38,-3.40903e-12,-1.06606e-13,0,0,-3.26588,-0.193213,0.320778,0,0,0,0,0,0,0,277,-56,277,-56,411,-59,277,59,0,-0.261799,3.14124,-1.5,2.51931e-09,0,0,2,0,0,0,0,0,0,0,0,15946,0,0,0,0,0
12947,-3.2133e-12,2.22871e-38,-1.54527e-06,-3.27827e-12,2.22859e-38,0,-1.06607e-13,0,0,-3.26588,-0.193213,0.320778,0,0,0,0,0,0,0,277,-56,277,-56,411,-59,277,59,0,-0.261799,3.14125,-1.5,2.51931e-09,0,0,2,0,0,0,0,0,0,0,0,15946,0,0,0,0,0
12965,-3.2133e-12,2.22871e-38,-1.54527e-06,-3.27827e-12,2.22859e-38,-3.40903e-12,-1.06607e-13,0,0,-3.09873,-0.186529,0.119669,0,0,0,0,0,0,0,278,-54,278,-54,412,-55,277,77,0,-0.261799,3.14126,-1.5,2.51931e-09,0,0,2,0,0,0,0,0,0,0,0,18630,0,0,0,0,0
13070,-3.2133e-12,2.22871e-38,-1.54527e-06,-3.27827e-12,2.22859e-38,0,-1.06607e-13,0,0,-4.65675,-5.97802,0.301139,0,0,0,0,0,0,0,772,33,772,33,854,12,752,123,0,-0.261799,3.14133,-1.5,2.51931e-09,0,0,2,0,0,0,0,0,0,0,0,11322,0,0,0,0,0
13162,-3.2133e-12,2.22871e-38,-1.54527e-06,-3.27827e-12,2.22859e-38,-3.40903e-12,-1.06607e-13,0,0,-3.1602,-0.179875,0.206353,0,0,0,0,0,0,0,277,-55,277,-55,411,-59,277,81,0,-0.261799,3.14138,-1.5,2.51931e-09,0,0,2,0,0,0,0,0,0,0,0,18760,0,0,0,0,0
13183,-3.2133e-12,2.22871e-38,-1.54527e-06,-3.27827e-12,2.22859e-38,0,-1.06608e-13,0,0,-3.1602,-0.179875,0.206353,0,0,0,0,0,0,0,277,-55,277,-55,411,-59,277,81,0,-0.261799,3.14139,-1.5,2.51931e-09,0,0,2,0,0,0,0,0,0,0,0,18760,0,0,0,0,0
13199,-3.2133e-12,2.22871e-38,-1.54527e-06,-3.27827e-12,2.22859e-38,-3.40903e-12,-1.06608e-13,0,0,-3.14569,-0.192317,0.211193,0,0,0,0,0,0,0,277,-56,277,-56,415,-59,277,76,0,-0.261799,3.14139,-1.5,2.51931e-09,0,0,2,0,0,0,0,0,0,0,0,18630,0,0,0,0,0
13220,-3.2133e-12,2.22871e-38,-1.54527e-06,-3.27827e-12,2.22859e-38,0,-1.06608e-13,0,0,-3.14569,-0.192317,0.211193,0,0,0,0,0,0,0,277,-56,277,-56,415,-59,277,76,0,-0.261799,3.1414,-1.5,2.51931e-09,0,0,2,0,0,0,0,0,0,0,0,18630,0,0,0,0,0
13237,-3.2133e-12,2.22871e-38,-1.54527e-06,-3.27827e-12,2.22859e-38,-3.40903e-12,-1.06609e-13,0,0,-3.14569,-0.192317,0.211193,0,0,0,0,0,0,0,277,-56,277,-56,415,-59,277,76,0,-0.261799,3.14141,-1.5,2.51931e-09,0,0,2,0,0,0,0,0,0,0,0,18630,0,0,0,0,0
13258,-3.2133e-12,2.22871e-38,-1.54527e-06,-3.27827e-12,2.22859e-38,0,-1.06609e-13,0,0,-3.14569,-0.192317,0.211193,0,0,0,0,0,0,0,277,-56,277,-56,415,-59,277,76,0,-0.261799,3.14141,-1.5,2.51931e-09,0,0,2,0,0,0,0,0,0,0,0,18630,0,0,0,0,0
13272,-3.2133e-12,2.22871e-38,-1.54527e-06,-3.27827e-12,2.22859e-38,-3.40903e-12,-1.06609e-13,0,0,-3.14569,-0.192317,0.211193,0,0,0,0,0,0,0,277,-56,277,-56,415,-59,277,76,0,-0.261799,3.14142,-1.5,2.51931e-09,0,0,2,0,0,0,0,0,0,0,0,18630,0,0,0,0,0
13290,-3.2133e-12,2.22871e-38,-1.54527e-06,-3.27827e-12,2.22859e-38,0,-1.06609e-13,0,0,-3.16718,-0.187313,0.223819,0,0,0,0,0,0,0,277,-56,277,-56,412,-59,277,76,0,-0.261799,3.14142,-1.5,2.51931e-09,0,0,2,0,0,0,0,0,0,0,0,18225,0,0,0,0,0
13307,-3.2133e-12,2.22871e-38,-1.54527e-06,-3.27827e-12,2.22859e-38,-3.40903e-12,-1.0661e-13,0,0,-3.16718,-0.187313,0.223819,0,0,0,0,0,0,0,277,-56,277,-56,412,-59,277,76,0,-0.261799,3.14143,-1.5,2.51931e-09,0,0,2,0,0,0,0,0,0,0,0,18225,0,0,0,0,0
13346,-3.2133e-12,2.22871e-38,-1.54527e-06,-3.27827e-12,2.22859e-38,0,-1.0661e-13,0,0,-3.16718,-0.187313,0.223819,0,0,0,0,0,0,0,277,-56,277,-56,412,-59,277,76,0,-0.261799,3.14144,-1.5,2.51931e-09,0,0,2,0,0,0,0,0,0,0,0,18225,0,0,0,0,0
13383,-3.2133e-12,2.22871e-38,-1.54527e-06,-3.27827e-12,2.22859e-38,-3.40903e-12,-1.0661e-13,0,0,-3.16718,-0.187313,0.223819,0,0,0,0,0,0,0,277,-56,277,-56,412,-59,277,76,0,-0.261799,3.14145,-1.5,2.51931e-09,0,0,2,0,0,0,0,0,0,0,0,18225,0,0,0,0,0
13404,-3.2133e-12,2.22871e-38,-1.54527e-06,-3.27827e-12,2.22859e-38,0,-1.0661e-13,0,0,-3.17417,-0.185614,0.227929,0,0,0,0,0,0,0,277,-56,277,-56,411,-59,277,76,0,-0.261799,3.14146,-1.5,2.51931e-09,0,0,2,0,0,0,0,0,0,0,0,18090,0,0,0,0,0
13421,-3.2133e-12,2.22871e-38,-1.54527e-06,-3.27827e-12,2.22859e-38,-3.40903e-12,-1.06611e-13,0,0,-3.17417,-0.185614,0.227929,0,0,0,0,0,0,0,277,-56,277,-56,411,-59,277,76,0,-0.261799,3.14146,-1.5,2.51931e-09,0,0,2,0,0,0,0,0,0,0,0,18090,0,0,0,0,0
13442,-3.2133e-12,2.22871e-38,-1.54527e-06,-3.27827e-12,2.22859e-38,0,-1.06611e-13,0,0,-3.17417,-0.185614,0.227929,0,0,0,0,0,0,0,277,-56,277,-56,411,-59,277,76,0,-0.261799,3.14147,-1.5,2.51931e-09,0,0,2,0,0,0,0,0,0,0,0,18090,0,0,0,0,0
13459,-3.2133e-12,2.22871e-38,-1.54527e-06,-3.27827e-12,2.22859e-38,-3.40903e-12,-1.06611e-13,0,0,-3.17417,-0.185614,0.227929,0,0,0,0,0,0,0,277,-56,277,-56,411,-59,277,76,0,-0.261799,3.14147,-1.5,2.51931e-09,0,0,2,0,0,0,0,0,0,0,0,18090,0,0,0,0,0
13477,-3.2133e-12,2.22871e-38,-1.54527e-06,-3.27827e-12,2.22859e-38,0,-1.06612e-13,0,0,-3.17417,-0.185614,0.227929,0,0,0,0,0,0,0,277,-56,277,-56,411,-59,277,76,0,-0.261799,3.14148,-1.5,2.51931e-09,0,0,2,0,0,0,0,0,0,0,0,18090,0,0,0,0,0
13528,-3.2133e-12,2.22871e-38,-1.54527e-06,-3.27827e-12,2.22859e-38,-3.40903e-12,-1.06612e-13,0,0,-3.1008,-0.181619,0.141533,0,0,0,0,0,0,0,277,-55,277,-55,411,-59,277,76,0,-0.261799,3.14149,-1.5,2.51931e-09,0,0,2,0,0,0,0,0,0,0,0,18492,0,0,0,0,0
13545,-3.2133e-12,2.22871e-38,-1.54527e-06,-3.27827e-12,2.22859e-38,0,-1.06612e-13,0,0,-3.1008,-0.181619,0.141533,0,0,0,0,0,0,0,277,-55,277,-55,411,-59,277,76,0,-0.261799,3.14149,-1.5,2.51931e-09,0,0,2,0,0,0,0,0,0,0,0,18492,0,0,0,0,0
13567,-3.2133e-12,2.22871e-38,-1.54527e-06,-3.27827e-12,2.22859e-38,-3.40903e-12,-1.06612e-13,0,0,-3.1008,-0.181619,0.141533,0,0,0,0,0,0,0,277,-55,277,-55,411,-59,277,76,0,-0.261799,3.1415,-1.5,2.51931e-09,0,0,2,0,0,0,0,0,0,0,0,18492,0,0,0,0,0
13583,-3.2133e-12,2.22871e-38,-1.54527e-06,-3.27827e-12,2.22859e-38,0,-1.06613e-13,0,0,-3.1008,-0.181619,0.141533,0,0,0,0,0,0,0,277,-55,277,-55,411,-59,277,76,0,-0.261799,3.1415,-1.5,2.51931e-09,0,0,2,0,0,0,0,0,0,0,0,18492,0,0,0,0,0
13605,-3.2133e-12,2.22871e-38,-1.54527e-06,-3.27827e-12,2.22859e-38,-3.40903e-12,-1.06613e-13,0,0,-3.1008,-0.181619,0.141533,0,0,0,0,0,0,0,277,-55,277,-55,411,-59,277,76,0,-0.261799,3.1415,-1.5,2.51931e-09,0,0,2,0,0,0,0,0,0,0,0,18492,0,0,0,0,0
13622,-3.2133e-12,2.22871e-38,-1.54527e-06,-3.27827e-12,2.22859e-38,0,-1.06613e-13,0,0,-3.16775,-0.185119,0.221925,0,0,0,0,0,0,0,277,-56,277,-56,411,-59,277,77,0,-0.261799,3.14151,-1.5,2.51931e-09,0,0,2,0,0,0,0,0,0,0,0,18224,0,0,0,0,0
13643,-3.2133e-12,2.22871e-38,-1.54527e-06,-3.27827e-12,2.22859e-38,-3.40903e-12,-1.06613e-13,0,0,-3.16775,-0.185119,0.221925,0,0,0,0,0,0,0,277,-56,277,-56,411,-59,277,77,0,-0.261799,3.14151,-1.5,2.51931e-09,0,0,2,0,0,0,0,0,0,0,0,18224,0,0,0,0,0
13657,-3.2133e-12,2.22871e-38,-1.54527e-06,-3.27827e-12,2.22859e-38,0,-1.06614e-13,0,0,-3.16775,-0.185119,0.221925,0,0,0,0,0,0,0,277,-56,277,-56,411,-59,277,77,0,-0.261799,3.14151,-1.5,2.51931e-09,0,0,2,0,0,0,0,0,0,0,0,18224,0,0,0,0,0
13675,-3.2133e-12,2.22871e-38,-1.54527e-06,-3.27827e-12,2.22859e-38,-3.40903e-12,-1.06614e-13,0,0,-3.16775,-0.185119,0.221925,0,0,0,0,0,0,0,277,-56,277,-56,411,-59,277,77,0,-0.261799,3.14151,-1.5,2.51931e-09,0,0,2,0,0,0,0,0,0,0,0,18224,0,0,0,0,0
13722,-3.2133e-12,2.22871e-38,-1.54527e-06,-3.27827e-12,2.22859e-38,0,-1.06614e-13,0,0,-3.16775,-0.185119,0.221925,0,0,0,0,0,0,0,277,-56,277,-56,411,-59,277,77,0,-0.261799,3.14152,-1.5,2.51931e-09,0,0,2,0,0,0,0,0,0,0,0,18224,0,0,0,0,0
13761,-3.2133e-12,2.22871e-38,-1.54527e-06,-3.27827e-12,2.22859e-38,-3.40903e-12,-1.06615e-13,0,0,-3.16775,-0.185119,0.221925,0,0,0,0,0,0,0,277,-56,277,-56,411,-59,277,77,0,-0.261799,3.14153,-1.5,2.51931e-09,0,0,2,0,0,0,0,0,0,0,0,18224,0,0,0,0,0
13778,-3.2133e-12,2.22871e-38,-1.54527e-06,-3.27827e-12,2.22859e-38,0,-1.06615e-13,0,0,-3.16775,-0.185119,0.221925,0,0,0,0,0,0,0,277,-56,277,-56,411,-59,277,77,0,-0.261799,3.14153,-1.5,2.51931e-09,0,0,2,0,0,0,0,0,0,0,0,18224,0,0,0,0,0
13800,-3.2133e-12,2.22871e-38,-1.54527e-06,-3.27827e-12,2.22859e-38,-3.40903e-12,-1.06615e-13,0,0,-3.17417,-0.185614,0.227929,0,0,0,0,0,0,0,277,-56,277,-56,411,-59,277,76,0,-0.261799,3.14153,-1.5,2.51931e-09,0,0,2,0,0,0,0,0,0,0,0,18090,0,0,0,0,0
13816,-3.2133e-12,2.22871e-38,-1.54527e-06,-3.27827e-12,2.22859e-38,0,-1.06615e-13,0,0,-3.17417,-0.185614,0.227929,0,0,0,0,0,0,0,277,-56,277,-56,411,-59,277,76,0,-0.261799,3.14153,-1.5,2.51931e-09,0,0,2,0,0,0,0,0,0,0,0,18090,0,0,0,0,0
13834,-3.2133e-12,2.22871e-38,-1.54527e-06,-3.27827e-12,2.22859e-38,-3.40903e-12,-1.06616e-13,0,0,-3.10196,-0.179746,0.139893,0,0,0,0,0,0,0,277,-55,277,-55,411,-59,277,76,0,-0.261799,3.14153,-1.5,2.51931e-09,0,0,2,0,0,0,0,0,0,0,0,18626,0,0,0,0,0
13855,-3.2133e-12,2.22871e-38,-1.54527e-06,-3.27827e-12,2.22859e-38,0,-1.06616e-13,0,0,-4.59999,-5.93825,0.297606,0,0,0,0,0,0,0,771,35,771,35,855,8,754,121,0,-0.261799,3.14154,-1.5,2.51931e-09,0,0,2,0,0,0,0,0,0,0,0,11413,0,0,0,0,0
13872,-3.2133e-12,2.22871e-38,-1.54527e-06,-3.27827e-12,2.22859e-38,-3.40903e-12,-1.06616e-13,0,0,-4.59999,-5.93825,0.297606,0,0,0,0,0,0,0,771,35,771,35,855,8,754,121,0,-0.261799,3.14154,-1.5,2.51931e-09,0,0,2,0,0,0,0,0,0,0,0,11413,0,0,0,0,0
13894,-3.2133e-12,2.22871e-38,-1.54527e-06,-3.27827e-12,2.22859e-38,0,-1.06616e-13,0,0,-4.61177,-5.92121,0.266743,0,0,0,0,0,0,0,771,35,771,35,847,13,752,123,0,-0.261799,3.14154,-1.5,2.51931e-09,0,0,2,0,0,0,0,0,0,0,0,10450,0,0,0,0,0
13910,-3.2133e-12,2.22871e-38,-1.54527e-06,-3.27827e-12,2.22859e-38,-3.40903e-12,-1.06617e-13,0,0,-4.61177,-5.92121,0.266743,0,0,0,0,0,0,0,771,35,771,35,847,13,752,123,0,-0.261799,3.14154,-1.5,2.51931e-09,0,0,2,0,0,0,0,0,0,0,0,10450,0,0,0,0,0
13932,-3.2133e-12,2.22871e-38,-1.54527e-06,-3.27827e-12,2.22859e-38,0,-1.06617e-13,0,0,-3.17417,-0.185614,0.227929,0,0,0,0,0,0,0,277,-56,277,-56,411,-59,277,76,0,-0.261799,3.14155,-1.5,2.51931e-09,0,0,2,0,0,0,0,0,0,0,0,18090,0,0,0,0,0
13949,-3.2133e-12,2.22871e-38,-1.54527e-06,-3.27827e-12,2.22859e-38,-3.40903e-12,-1.06617e-13,0,0,-3.17417,-0.185614,0.227929,0,0,0,0,0,0,0,277,-56,277,-56,411,-59,277,76,0,-0.261799,3.14155,-1.5,2.51931e-09,0,0,2,0,0,0,0,0,0,0,0,18090,0,0,0,0,0
13970,-3.2133e-12,2.22871e-38,-1.54527e-06,-3.27827e-12,2.22859e-38,0,-1.06618e-13,0,0,-3.22702,-0.189841,0.279401,0,0,0,0,0,0,0,277,-56,277,-56,411,-59,277,67,0,-0.261799,3.14155,-1.5,2.51931e-09,0,0,2,0,0,0,0,0,0,0,0,16884,0,0,0,0,0
14005,-3.2133e-12,2.22871e-38,-1.54527e-06,-3.27827e-12,2.22859e-38,-3.40903e-12,-1.06618e-13,0,0,-3.22702,-0.189841,0.279401,0,0,0,0,0,0,0,277,-56,277,-56,411,-59,277,67,0,-0.261799,3.14155,-1.5,2.51931e-09,0,0,2,0,0,0,0,0,0,0,0,16884,0,0,0,0,0
14027,-3.2133e-12,2.22871e-38,-1.54527e-06,-3.27827e-12,2.22859e-38,0,-1.06618e-13,0,0,-3.22702,-0.189841,0.279401,0,0,0,0,0,0,0,277,-56,277,-56,411,-59,277,67,0,-0.261799,3.14155,-1.5,2.51931e-09,0,0,2,0,0,0,0,0,0,0,0,16884,0,0,0,0,0
14040,-3.2133e-12,2.22871e-38,-1.54527e-06,-3.27827e-12,2.22859e-38,-3.40903e-12,-1.06618e-13,0,0,-3.22702,-0.189841,0.279401,0,0,0,0,0,0,0,277,-56,277,-56,411,-59,277,67,0,-0.261799,3.14156,-1.5,2.51931e-09,0,0,2,0,0,0,0,0,0,0,0,16884,0,0,0,0,0
14059,-3.2133e-12,2.22871e-38,-1.54527e-06,-3.27827e-12,2.22859e-38,0,-1.06619e-13,0,0,-3.22702,-0.189841,0.279401,0,0,0,0,0,0,0,277,-56,277,-56,411,-59,277,67,0,-0.261799,3.14156,-1.5,2.51931e-09,0,0,2,0,0,0,0,0,0,0,0,16884,0,0,0,0,0
14076,-3.2133e-12,2.22871e-38,-1.54527e-06,-3.27827e-12,2.22859e-38,-3.40903e-12,-1.06619e-13,0,0,-3.22702,-0.189841,0.279401,0,0,0,0,0,0,0,277,-56,277,-56,411,-59,277,67,0,-0.261799,3.14156,-1.5,2.51931e-09,0,0,2,0,0,0,0,0,0,0,0,16884,0,0,0,0,0
14116,-3.2133e-12,2.22871e-38,-1.54527e-06,-3.27827e-12,2.22859e-38,0,-1.06619e-13,0,0,-3.17417,-0.185614,0.227929,0,0,0,0,0,0,0,277,-56,277,-56,411,-59,277,76,0,-0.261799,3.14156,-1.5,2.51931e-09,0,0,2,0,0,0,0,0,0,0,0,18090,0,0,0,0,0
14152,-3.2133e-12,2.22871e-38,-1.54527e-06,-3.27827e-12,2.22859e-38,-3.40903e-12,-1.06619e-13,0,0,-3.15325,-0.181573,0.202295,0,0,0,0,0,0,0,277,-55,277,-55,412,-59,277,81,0,-0.261799,3.14156,-1.5,2.51931e-09,0,0,2,0,0,0,0,0,0,0,0,18900,0,0,0,0,0
14174,-3.2133e-12,2.22871e-38,-1.54527e-06,-3.27827e-12,2.22859e-38,0,-1.0662e-13,0,0,-3.15325,-0.181573,0.202295,0,0,0,0,0,0,0,277,-55,277,-55,412,-59,277,81,0,-0.261799,3.14156,-1.5,2.51931e-09,0,0,2,0,0,0,0,0,0,0,0,18900,0,0,0,0,0
14191,-3.2133e-12,2.22871e-38,-1.54527e-06,-3.27827e-12,2.22859e-38,-3.40903e-12,-1.0662e-13,0,0,-3.15325,-0.181573,0.202295,0,0,0,0,0,0,0,277,-55,277,-55,412,-59,277,81,0,-0.261799,3.14156,-1.5,2.51931e-09,0,0,2,0,0,0,0,0,0,0,0,18900,0,0,0,0,0
14209,-3.2133e-12,2.22871e-38,-1.54527e-06,-3.27827e-12,2.22859e-38,0,-1.0662e-13,0,0,-3.15325,-0.181573,0.202295,0,0,0,0,0,0,0,277,-55,277,-55,412,-59,277,81,0,-0.261799,3.14156,-1.5,2.51931e-09,0,0,2,0,0,0,0,0,0,0,0,18900,0,0,0,0,0
14230,-3.2133e-12,2.22871e-38,-1.54527e-06,-3.27827e-12,2.22859e-38,-3.40903e-12,-1.0662e-13,0,0,-4.52558,-5.80381,0.230929,0,0,0,0,0,0,0,771,35,771,35,854,10,751,126,0,-0.261799,3.14156,-1.5,2.51931e-09,0,0,2,0,0,0,0,0,0,0,0,11948,0,0,0,0,0
14247,-3.2133e-12,2.22871e-38,-1.54527e-06,-3.27827e-12,2.22859e-38,0,-1.06621e-13,0,0,-4.52558,-5.80381,0.230929,0,0,0,0,0,0,0,771,35,771,35,854,10,751,126,0,-0.261799,3.14157,-1.5,2.51931e-09,0,0,2,0,0,0,0,0,0,0,0,11948,0,0,0,0,0
14269,-3.2133e-12,2.22871e-38,-1.54527e-06,-3.27827e-12,2.22859e-38,-3.40903e-12,-1.06621e-13,0,0,-4.53375,-5.84731,0.258501,0,0,0,0,0,0,0,772,33,772,33,858,8,754,121,0,-0.261799,3.14157,-1.5,2.51931e-09,0,0,2,0,0,0,0,0,0,0,0,11752,0,0,0,0,0
14317,-3.2133e-12,2.22871e-38,-1.54527e-06,-3.27827e-12,2.22859e-38,0,-1.06621e-13,0,0,-4.53375,-5.84731,0.258501,0,0,0,0,0,0,0,772,33,772,33,858,8,754,121,0,-0.261799,3.14157,-1.5,2.51931e-09,0,0,2,0,0,0,0,0,0,0,0,11752,0,0,0,0,0
14339,-3.2133e-12,2.22871e-38,-1.54527e-06,-3.27827e-12,2.22859e-38,-3.40903e-12,-1.06622e-13,0,0,-3.08443,-0.179103,0.123347,0,0,0,0,0,0,0,277,-55,277,-55,411,-59,277,76,0,-0.261799,3.14157,-1.5,2.51931e-09,0,0,2,0,0,0,0,0,0,0,0,19028,0,0,0,0,0
14356,-3.2133e-12,2.22871e-38,-1.54527e-06,-3.27827e-12,2.22859e-38,0,-1.06622e-13,0,0,-3.08443,-0.179103,0.123347,0,0,0,0,0,0,0,277,-55,277,-55,411,-59,277,76,0,-0.261799,3.14157,-1.5,2.51931e-09,0,0,2,0,0,0,0,0,0,0,0,19028,0,0,0,0,0
14377,-3.2133e-12,2.22871e-38,-1.54527e-06,-3.27827e-12,2.22859e-38,-3.40903e-12,-1.06622e-13,0,0,-3.08443,-0.179103,0.123347,0,0,0,0,0,0,0,277,-55,277,-55,411,-59,277,76,0,-0.261799,3.14157,-1.5,2.51931e-09,0,0,2,0,0,0,0,0,0,0,0,19028,0,0,0,0,0
14394,-3.2133e-12,2.22871e-38,-1.54527e-06,-3.27827e-12,2.22859e-38,0,-1.06622e-13,0,0,-3.08443,-0.179103,0.123347,0,0,0,0,0,0,0,277,-55,277,-55,411,-59,277,76,0,-0.261799,3.14157,-1.5,2.51931e-09,0,0,2,0,0,0,0,0,0,0,0,19028,0,0,0,0,0
14414,-3.2133e-12,2.22871e-38,-1.54527e-06,-3.27827e-12,2.22859e-38,-3.40903e-12,-1.06623e-13,0,0,-3.08443,-0.179103,0.123347,0,0,0,0,0,0,0,277,-55,277,-55,411,-59,277,76,0,-0.261799,3.14157,-1.5,2.51931e-09,0,0,2,0,0,0,0,0,0,0,0,19028,0,0,0,0,0
14453,-3.2133e-12,2.22871e-38,-1.54527e-06,-3.27827e-12,2.22859e-38,0,-1.06623e-13,0,0,-3.16775,-0.185119,0.221925,0,0,0,0,0,0,0,277,-56,277,-56,411,-59,277,77,0,-0.261799,3.14157,-1.5,2.51931e-09,0,0,2,0,0,0,0,0,0,0,0,18224,0,0,0,0,0
14471,-3.2133e-12,2.22871e-38,-1.54527e-06,-3.27827e-12,2.22859e-38,-3.40903e-12,-1.06623e-13,0,0,-3.16775,-0.185119,0.221925,0,0,0,0,0,0,0,277,-56,277,-56,411,-59,277,77,0,-0.261799,3.14157,-1.5,2.51931e-09,0,0,2,0,0,0,0,0,0,0,0,18224,0,0,0,0,0
14488,-3.2133e-12,2.22871e-38,-1.54527e-06,-3.27827e-12,2.22859e-38,0,-1.06623e-13,0,0,-3.07857,-0.180876,0.124242,0,0,0,0,0,0,0,277,-56,277,-56,411,-59,277,76,0,-0.261799,3.14157,-1.5,2.51931e-09,0,0,2,0,0,0,0,0,0,0,0,18894,0,0,0,0,0
14527,-3.2133e-12,2.22871e-38,-1.54527e-06,-3.27827e-12,2.22859e-38,-3.40903e-12,-1.06624e-13,0,0,-3.07857,-0.180876,0.124242,0,0,0,0,0,0,0,277,-56,277,-56,411,-59,277,76,0,-0.261799,3.14157,-1.5,2.51931e-09,0,0,2,0,0,0,0,0,0,0,0,18894,0,0,0,0,0
14544,-3.2133e-12,2.22871e-38,-1.54527e-06,-3.27827e-12,2.22859e-38,0,-1.06624e-13,0,0,-3.07857,-0.180876,0.124242,0,0,0,0,0,0,0,277,-56,277,-56,411,-59,277,76,0,-0.261799,3.14157,-1.5,2.51931e-09,0,0,2,0,0,0,0,0,0,0,0,18894,0,0,0,0,0
14562,-3.2133e-12,2.22871e-38,-1.54527e-06,-3.27827e-12,2.22859e-38,-3.40903e-12,-1.06624e-13,0,0,-4.5058,-5.78737,0.223211,0,0,0,0,0,0,0,771,35,771,35,854,10,751,126,0,-0.261799,3.14157,-1.5,2.51931e-09,0,0,2,0,0,0,0,0,0,0,0,11948,0,0,0,0,0
14583,-3.2133e-12,2.22871e-38,-1.54527e-06,-3.27827e-12,2.22859e-38,0,-1.06625e-13,0,0,-4.5058,-5.78737,0.223211,0,0,0,0,0,0,0,771,35,771,35,854,10,751,126,0,-0.261799,3.14157,-1.5,2.51931e-09,0,0,2,0,0,0,0,0,0,0,0,11948,0,0,0,0,0
14600,-3.2133e-12,2.22871e-38,-1.54527e-06,-3.27827e-12,2.22859e-38,-3.40903e-12,-1.06625e-13,0,0,-3.0842,-0.181012,0.125378,0,0,0,0,0,0,0,277,-55,277,-55,412,-59,277,76,0,-0.261799,3.14157,-1.5,2.51931e-09,0,0,2,0,0,0,0,0,0,0,0,19035,0,0,0,0,0
14651,-3.2133e-12,2.22871e-38,-1.54527e-06,-3.27827e-12,2.22859e-38,0,-1.06625e-13,0,0,-3.07267,-0.180654,0.118706,0,0,0,0,0,0,0,277,-56,277,-56,411,-59,277,76,0,-0.261799,3.14158,-1.5,2.51931e-09,0,0,2,0,0,0,0,0,0,0,0,19028,0,0,0,0,0
14668,-3.2133e-12,2.22871e-38,-1.54527e-06,-3.27827e-12,2.22859e-38,-3.40903e-12,-1.06625e-13,0,0,-3.16775,-0.185119,0.221925,0,0,0,0,0,0,0,277,-56,277,-56,411,-59,277,77,0,-0.261799,3.14158,-1.5,2.51931e-09,0,0,2,0,0,0,0,0,0,0,0,18224,0,0,0,0,0
14689,-3.2133e-12,2.22871e-38,-1.54527e-06,-3.27827e-12,2.22859e-38,0,-1.06626e-13,0,0,-3.16775,-0.185119,0.221925,0,0,0,0,0,0,0,277,-56,277,-56,411,-59,277,77,0,-0.261799,3.14158,-1.5,2.51931e-09,0,0,2,0,0,0,0,0,0,0,0,18224,0,0,0,0,0
14706,-3.2133e-12,2.22871e-38,-1.54527e-06,-3.27827e-12,2.22859e-38,-3.40903e-12,-1.06626e-13,0,0,-3.16775,-0.185119,0.221925,0,0,0,0,0,0,0,277,-56,277,-56,411,-59,277,77,0,-0.261799,3.14158,-1.5,2.51931e-09,0,0,2,0,0,0,0,0,0,0,0,18224,0,0,0,0,0
14728,-3.2133e-12,2.22871e-38,-1.54527e-06,-3.27827e-12,2.22859e-38,0,-1.06626e-13,0,0,-3.16775,-0.185119,0.221925,0,0,0,0,0,0,0,277,-56,277,-56,411,-59,277,77,0,-0.261799,3.14158,-1.5,2.51931e-09,0,0,2,0,0,0,0,0,0,0,0,18224,0,0,0,0,0
14744,-3.2133e-12,2.22871e-38,-1.54527e-06,-3.27827e-12,2.22859e-38,-3.40903e-12,-1.06626e-13,0,0,-3.16775,-0.185119,0.221925,0,0,0,0,0,0,0,277,-56,277,-56,411,-59,277,77,0,-0.261799,3.14158,-1.5,2.51931e-09,0,0,2,0,0,0,0,0,0,0,0,18224,0,0,0,0,0
14766,-3.2133e-12,2.22871e-38,-1.54527e-06,-3.27827e-12,2.22859e-38,0,-1.06627e-13,0,0,-4.60853,-5.91323,0.274767,0,0,0,0,0,0,0,771,35,771,35,854,10,752,121,0,-0.261799,3.14158,-1.5,2.51931e-09,0,0,2,0,0,0,0,0,0,0,0,11322,0,0,0,0,0
14783,-3.2133e-12,2.22871e-38,-1.54527e-06,-3.27827e-12,2.22859e-38,-3.40903e-12,-1.06627e-13,0,0,-4.60853,-5.91323,0.274767,0,0,0,0,0,0,0,771,35,771,35,854,10,752,121,0,-0.261799,3.14158,-1.5,2.51931e-09,0,0,2,0,0,0,0,0,0,0,0,11322,0,0,0,0,0
14804,-3.2133e-12,2.22871e-38,-1.54527e-06,-3.27827e-12,2.22859e-38,0,-1.06627e-13,0,0,-4.5058,-5.78737,0.223211,0,0,0,0,0,0,0,771,35,771,35,854,10,751,126,0,-0.261799,3.14158,-1.5,2.51931e-09,0,0,2,0,0,0,0,0,0,0,0,11948,0,0,0,0,0
14818,-3.2133e-12,2.22871e-38,-1.54527e-06,-3.27827e-12,2.22859e-38,-3.40903e-12,-1.06628e-13,0,0,-4.5058,-5.78737,0.223211,0,0,0,0,0,0,0,771,35,771,35,854,10,751,126,0,-0.261799,3.14158,-1.5,2.51931e-09,0,0,2,0,0,0,0,0,0,0,0,11948,0,0,0,0,0
14836,-3.2133e-12,2.22871e-38,-1.54527e-06,-3.27827e-12,2.22859e-38,0,-1.06628e-13,0,0,-4.5058,-5.78737,0.223211,0,0,0,0,0,0,0,771,35,771,35,854,10,751,126,0,-0.261799,3.14158,-1.5,2.51931e-09,0,0,2,0,0,0,0,0,0,0,0,11948,0,0,0,0,0
14872,-3.2133e-12,2.22871e-38,-1.54527e-06,-3.27827e-12,2.22859e-38,-3.40903e-12,-1.06632e-13,0,0,-4.5058,-5.78737,0.223211,0,0,0,0,0,0,0,771,35,771,35,854,10,751,126,0,-0.261799,3.14158,-1.5,2.51931e-09,0,0,2,0,0,0,0,0,0,0,0,11948,0,0,0,0,0
14939,-3.2133e-12,2.22871e-38,-1.54527e-06,-3.27827e-12,2.22859e-38,0,-1.06632e-13,0,0,-4.5058,-5.78737,0.223211,0,0,0,0,0,0,0,771,35,771,35,854,10,751,126,0,-0.261799,3.14158,-1.5,2.51931e-09,0,0,2,0,0,0,0,0,0,0,0,11948,0,0,0,0,0
14961,-3.2133e-12,2.22871e-38,-1.54527e-06,-3.27827e-12,2.22859e-38,-3.40903e-12,-1.06632e-13,0,0,-4.5058,-5.78737,0.223211,0,0,0,0,0,0,0,771,35,771,35,854,10,751,126,0,-0.261799,3.14158,-1.5,2.51931e-09,0,0,2,0,0,0,0,0,0,0,0,11948,0,0,0,0,0
14997,-3.2133e-12,2.22871e-38,-1.54527e-06,-3.27827e-12,2.22859e-38,0,-1.06633e-13,0,0,-4.5058,-5.78737,0.223211,0,0,0,0,0,0,0,771,35,771,35,854,10,751,126,0,-0.261799,3.14158,-1.5,2.51931e-09,0,0,2,0,0,0,0,0,0,0,0,11948,0,0,0,0,0
15018,-3.2133e-12,2.22871e-38,-1.54527e-06,-3.27827e-12,2.22859e-38,-3.40903e-12,-1.06633e-13,0,0,-4.501,-5.7761,0.221576,0,0,0,0,0,0,0,772,33,772,33,851,11,751,126,0,-0.261799,3.14158,-1.5,2.51931e-09,0,0,2,0,0,0,0,0,0,0,0,11500,0,0,0,0,0
15035,-3.2133e-12,2.22871e-38,-1.54527e-06,-3.27827e-12,2.22859e-38,0,-1.06633e-13,0,0,-4.501,-5.7761,0.221576,0,0,0,0,0,0,0,772,33,772,33,851,11,751,126,0,-0.261799,3.14158,-1.5,2.51931e-09,0,0,2,0,0,0,0,0,0,0,0,11500,0,0,0,0,0
15057,-3.2133e-12,2.22871e-38,-1.54527e-06,-3.27827e-12,2.22859e-38,-3.40903e-12,-1.06633e-13,0,0,-3.09037,-0.179324,0.12891,0,0,0,0,0,0,0,277,-55,277,-55,411,-59,277,76,0,-0.261799,3.14158,-1.5,2.51931e-09,0,0,2,0,0,0,0,0,0,0,0,18894,0,0,0,0,0
15073,-3.2133e-12,2.22871e-38,-1.54527e-06,-3.27827e-12,2.22859e-38,0,-1.06634e-13,0,0,-3.09037,-0.179324,0.12891,0,0,0,0,0,0,0,277,-55,277,-55,411,-59,277,76,0,-0.261799,3.14158,-1.5,2.51931e-09,0,0,2,0,0,0,0,0,0,0,0,18894,0,0,0,0,0
15095,-3.2133e-12,2.22871e-38,-1.54527e-06,-3.27827e-12,2.22859e-38,-3.40903e-12,-1.06634e-13,0,0,-3.09037,-0.179324,0.12891,0,0,0,0,0,0,0,277,-55,277,-55,411,-59,277,76,0,-0.261799,3.14158,-1.5,2.51931e-09,0,0,2,0,0,0,0,0,0,0,0,18894,0,0,0,0,0
15112,-3.2133e-12,2.22871e-38,-1.54527e-06,-3.27827e-12,2.22859e-38,0,-1.06634e-13,0,0,-3.09037,-0.179324,0.12891,0,0,0,0,0,0,0,277,-55,277,-55,411,-59,277,76,0,-0.261799,3.14158,-1.5,2.51931e-09,0,0,2,0,0,0,0,0,0,0,0,18894,0,0,0,0,0
15133,-3.2133e-12,2.22871e-38,-1.54527e-06,-3.27827e-12,2.22859e-38,-3.40903e-12,-1.06634e-13,0,0,-4.54409,-5.85217,0.263454,0,0,0,0,0,0,0,772,33,772,33,855,8,754,121,0,-0.261799,3.14158,-1.5,2.51931e-09,0,0,2,0,0,0,0,0,0,0,0,11413,0,0,0,0,0
15150,-3.2133e-12,2.22871e-38,-1.54527e-06,-3.27827e-12,2.22859e-38,0,-1.06635e-13,0,0,-4.54409,-5.85217,0.263454,0,0,0,0,0,0,0,772,33,772,33,855,8,754,121,0,-0.261799,3.14158,-1.5,2.51931e-09,0,0,2,0,0,0,0,0,0,0,0,11413,0,0,0,0,0
15171,-3.2133e-12,2.22871e-38,-1.54527e-06,-3.27827e-12,2.22859e-38,-3.40903e-12,-1.06635e-13,0,0,-4.54409,-5.85217,0.263454,0,0,0,0,0,0,0,772,33,772,33,855,8,754,121,0,-0.261799,3.14158,-1.5,2.51931e-09,0,0,2,0,0,0,0,0,0,0,0,11413,0,0,0,0,0
15188,-3.2133e-12,2.22871e-38,-1.54527e-06,-3.27827e-12,2.22859e-38,0,-1.06635e-13,0,0,-4.54409,-5.85217,0.263454,0,0,0,0,0,0,0,772,33,772,33,855,8,754,121,0,-0.261799,3.14158,-1.5,2.51931e-09,0,0,2,0,0,0,0,0,0,0,0,11413,0,0,0,0,0
15206,-3.2133e-12,2.22871e-38,-1.54527e-06,-3.27827e-12,2.22859e-38,-3.40903e-12,-1.06636e-13,0,0,-4.54409,-5.85217,0.263454,0,0,0,0,0,0,0,772,33,772,33,855,8,754,121,0,-0.261799,3.14158,-1.5,2.51931e-09,0,0,2,0,0,0,0,0,0,0,0,11413,0,0,0,0,0
15228,-3.2133e-12,2.22871e-38,-1.54527e-06,-3.27827e-12,2.22859e-38,0,-1.06636e-13,0,0,-4.54409,-5.85217,0.263454,0,0,0,0,0,0,0,772,33,772,33,855,8,754,121,0,-0.261799,3.14158,-1.5,2.51931e-09,0,0,2,0,0,0,0,0,0,0,0,11413,0,0,0,0,0
15242,-3.2133e-12,2.22871e-38,-1.54527e-06,-3.27827e-12,2.22859e-38,-3.40903e-12,-1.06636e-13,0,0,-4.54409,-5.85217,0.263454,0,0,0,0,0,0,0,772,33,772,33,855,8,754,121,0,-0.261799,3.14158,-1.5,2.51931e-09,0,0,2,0,0,0,0,0,0,0,0,11413,0,0,0,0,0
15260,-3.2133e-12,2.22871e-38,-1.54527e-06,-3.27827e-12,2.22859e-38,0,-1.06636e-13,0,0,-4.53753,-5.86319,0.234992,0,0,0,0,0,0,0,768,41,768,41,858,8,756,124,0,-0.261799,3.14158,-1.5,2.51931e-09,0,0,2,0,0,0,0,0,0,0,0,11832,0,0,0,0,0
15277,-3.2133e-12,2.22871e-38,-1.54527e-06,-3.27827e-12,2.22859e-38,-3.40903e-12,-1.06637e-13,0,0,-4.53753,-5.86319,0.234992,0,0,0,0,0,0,0,768,41,768,41,858,8,756,124,0,-0.261799,3.14158,-1.5,2.51931e-09,0,0,2,0,0,0,0,0,0,0,0,11832,0,0,0,0,0
15316,-3.2133e-12,2.22871e-38,-1.54527e-06,-3.27827e-12,2.22859e-38,0,-1.06637e-13,0,0,-4.53753,-5.86319,0.234992,0,0,0,0,0,0,0,768,41,768,41,858,8,756,124,0,-0.261799,3.14158,-1.5,2.51931e-09,0,0,2,0,0,0,0,0,0,0,0,11832,0,0,0,0,0
15333,-3.2133e-12,2.22871e-38,-1.54527e-06,-3.27827e-12,2.22859e-38,-3.40903e-12,-1.06637e-13,0,0,-4.53753,-5.86319,0.234992,0,0,0,0,0,0,0,768,41,768,41,858,8,756,124,0,-0.261799,3.14158,-1.5,2.51931e-09,0,0,2,0,0,0,0,0,0,0,0,11832,0,0,0,0,0
15354,-3.2133e-12,2.22871e-38,-1.54527e-06,-3.27827e-12,2.22859e-38,0,-1.06637e-13,0,0,-4.53753,-5.86319,0.234992,0,0,0,0,0,0,0,768,41,768,41,858,8,756,124,0,-0.261799,3.14158,-1.5,2.51931e-09,0,0,2,0,0,0,0,0,0,0,0,11832,0,0,0,0,0
15371,-3.2133e-12,2.22871e-38,-1.54527e-06,-3.27827e-12,2.22859e-38,-3.40903e-12,-1.06638e-13,0,0,-4.53753,-5.86319,0.234992,0,0,0,0,0,0,0,768,41,768,41,858,8,756,124,0,-0.261799,3.14158,-1.5,2.51931e-09,0,0,2,0,0,0,0,0,0,0,0,11832,0,0,0,0,0
15392,-3.2133e-12,2.22871e-38,-1.54527e-06,-3.27827e-12,2.22859e-38,0,-1.06638e-13,0,0,-4.53753,-5.86319,0.234992,0,0,0,0,0,0,0,768,41,768,41,858,8,756,124,0,-0.261799,3.14159,-1.5,2.51931e-09,0,0,2,0,0,0,0,0,0,0,0,11832,0,0,0,0,0
15409,-3.2133e-12,2.22871e-38,-1.54527e-06,-3.27827e-12,2.22859e-38,-3.40903e-12,-1.06638e-13,0,0,-4.53753,-5.86319,0.234992,0,0,0,0,0,0,0,768,41,768,41,858,8,756,124,0,-0.261799,3.14159,-1.5,2.51931e-09,0,0,2,0,0,0,0,0,0,0,0,11832,0,0,0,0,0
15431,-3.2133e-12,2.22871e-38,-1.54527e-06,-3.27827e-12,2.22859e-38,0,-1.06639e-13,0,0,-4.53753,-5.86319,0.234992,0,0,0,0,0,0,0,768,41,768,41,858,8,756,124,0,-0.261799,3.14159,-1.5,2.51931e-09,0,0,2,0,0,0,0,0,0,0,0,11832,0,0,0,0,0
15447,-3.2133e-12,2.22871e-38,-1.54527e-06,-3.27827e-12,2.22859e-38,-3.40903e-12,-1.06639e-13,0,0,-4.53753,-5.86319,0.234992,0,0,0,0,0,0,0,768,41,768,41,858,8,756,124,0,-0.261799,3.14159,-1.5,2.51931e-09,0,0,2,0,0,0,0,0,0,0,0,11832,0,0,0,0,0
15496,-3.2133e-12,2.22871e-38,-1.54527e-06,-3.27827e-12,2.22859e-38,0,-1.06639e-13,0,0,-4.53753,-5.86319,0.234992,0,0,0,0,0,0,0,768,41,768,41,858,8,756,124,0,-0.261799,3.14159,-1.5,2.51931e-09,0,0,2,0,0,0,0,0,0,0,0,11832,0,0,0,0,0
15518,-3.2133e-12,2.22871e-38,-1.54527e-06,-3.27827e-12,2.22859e-38,-3.40903e-12,-1.06639e-13,0,0,-4.53753,-5.86319,0.234992,0,0,0,0,0,0,0,768,41,768,41,858,8,756,124,0,-0.261799,3.14159,-1.5,2.51931e-09,0,0,2,0,0,0,0,0,0,0,0,11832,0,0,0,0,0
15535,-3.2133e-12,2.22871e-38,-1.54527e-06,-3.27827e-12,2.22859e-38,0,-1.0664e-13,0,0,-4.66281,-5.99783,0.288574,0,0,0,0,0,0,0,768,41,768,41,858,8,759,122,0,-0.261799,3.14159,-1.5,2.51931e-09,0,0,2,0,0,0,0,0,0,0,0,11286,0,0,0,0,0
15557,-3.2133e-12,2.22871e-38,-1.54527e-06,-3.27827e-12,2.22859e-38,-3.40903e-12,-1.0664e-13,0,0,-4.61595,-5.93701,0.269175,0,0,0,0,0,0,0,768,41,768,41,858,8,756,124,0,-0.261799,3.14159,-1.5,2.51931e-09,0,0,2,0,0,0,0,0,0,0,0,11832,0,0,0,0,0
15573,-3.2133e-12,2.22871e-38,-1.54527e-06,-3.27827e-12,2.22859e-38,0,-1.0664e-13,0,0,-4.61595,-5.93701,0.269175,0,0,0,0,0,0,0,768,41,768,41,858,8,756,124,0,-0.261799,3.14159,-1.5,2.51931e-09,0,0,2,0,0,0,0,0,0,0,0,11832,0,0,0,0,0
15595,-3.2133e-12,2.22871e-38,-1.54527e-06,-3.27827e-12,2.22859e-38,-3.40903e-12,-1.0664e-13,0,0,-4.63933,-5.99012,0.274836,0,0,0,0,0,0,0,770,40,770,40,854,10,759,124,0,-0.261799,3.14159,-1.5,2.51931e-09,0,0,2,0,0,0,0,0,0,0,0,10830,0,0,0,0,0
15609,-3.2133e-12,2.22871e-38,-1.54527e-06,-3.27827e-12,2.22859e-38,0,-1.06641e-13,0,0,-4.63933,-5.99012,0.274836,0,0,0,0,0,0,0,770,40,770,40,854,10,759,124,0,-0.261799,3.14159,-1.5,2.51931e-09,0,0,2,0,0,0,0,0,0,0,0,10830,0,0,0,0,0
15627,-3.2133e-12,2.22871e-38,-1.54527e-06,-3.27827e-12,2.22859e-38,-3.40903e-12,-1.06641e-13,0,0,-4.63933,-5.99012,0.274836,0,0,0,0,0,0,0,770,40,770,40,854,10,759,124,0,-0.261799,3.14159,-1.5,2.51931e-09,0,0,2,0,0,0,0,0,0,0,0,10830,0,0,0,0,0
15644,-3.2133e-12,2.22871e-38,-1.54527e-06,-3.27827e-12,2.22859e-38,0,-1.06641e-13,0,0,-4.63933,-5.99012,0.274836,0,0,0,0,0,0,0,770,40,770,40,854,10,759,124,0,-0.261799,3.14159,-1.5,2.51931e-09,0,0,2,0,0,0,0,0,0,0,0,10830,0,0,0,0,0
15697,-3.2133e-12,2.22871e-38,-1.54527e-06,-3.27827e-12,2.22859e-38,-3.40903e-12,-1.06642e-13,0,0,-3.09037,-0.179324,0.12891,0,0,0,0,0,0,0,277,-55,277,-55,411,-59,277,76,0,-0.261799,3.14159,-1.5,2.51931e-09,0,0,2,0,0,0,0,0,0,0,0,18894,0,0,0,0,0
15714,-3.2133e-12,2.22871e-38,-1.54527e-06,-3.27827e-12,2.22859e-38,0,-1.06642e-13,0,0,-3.09037,-0.179324,0.12891,0,0,0,0,0,0,0,277,-55,277,-55,411,-59,277,76,0,-0.261799,3.14159,-1.5,2.51931e-09,0,0,2,0,0,0,0,0,0,0,0,18894,0,0,0,0,0
15799,-3.2133e-12,2.22871e-38,-1.54527e-06,-3.27827e-12,2.22859e-38,-3.40903e-12,-1.06642e-13,0,0,-4.48463,-5.76346,0.220178,0,0,0,0,0,0,0,772,33,772,33,854,10,751,126,0,-0.261799,3.14159,-1.5,2.51931e-09,0,0,2,0,0,0,0,0,0,0,0,11948,0,0,0,0,0
15816,-3.2133e-12,2.22871e-38,-1.54527e-06,-3.27827e-12,2.22859e-38,0,-1.06642e-13,0,0,-4.48463,-5.76346,0.220178,0,0,0,0,0,0,0,772,33,772,33,854,10,751,126,0,-0.261799,3.14159,-1.5,2.51931e-09,0,0,2,0,0,0,0,0,0,0,0,11948,0,0,0,0,0
15833,-3.2133e-12,2.22871e-38,-1.54527e-06,-3.27827e-12,2.22859e-38,-3.40903e-12,-1.06643e-13,0,0,-4.46983,-5.74456,0.210981,0,0,0,0,0,0,0,772,33,772,33,854,10,751,126,0,-0.261799,3.14159,-1.5,2.51931e-09,0,0,2,0,0,0,0,0,0,0,0,11948,0,0,0,0,0
15854,-3.2133e-12,2.22871e-38,-1.54527e-06,-3.27827e-12,2.22859e-38,0,-1.06643e-13,0,0,-4.56435,-5.87491,0.266098,0,0,0,0,0,0,0,771,35,771,35,855,8,754,121,0,-0.261799,3.14159,-1.5,2.51931e-09,0,0,2,0,0,0,0,0,0,0,0,11413,0,0,0,0,0
15871,-3.2133e-12,2.22871e-38,-1.54527e-06,-3.27827e-12,2.22859e-38,-3.40903e-12,-1.06643e-13,0,0,-4.56435,-5.87491,0.266098,0,0,0,0,0,0,0,771,35,771,35,855,8,754,121,0,-0.261799,3.14159,-1.5,2.51931e-09,0,0,2,0,0,0,0,0,0,0,0,11413,0,0,0,0,0
15893,-3.2133e-12,2.22871e-38,-1.54527e-06,-3.27827e-12,2.22859e-38,0,-1.06643e-13,0,0,-4.56435,-5.87491,0.266098,0,0,0,0,0,0,0,771,35,771,35,855,8,754,121,0,-0.261799,3.14159,-1.5,2.51931e-09,0,0,2,0,0,0,0,0,0,0,0,11413,0,0,0,0,0
15909,-3.2133e-12,2.22871e-38,-1.54527e-06,-3.27827e-12,2.22859e-38,-3.40903e-12,-1.06644e-13,0,0,-4.56435,-5.87491,0.266098,0,0,0,0,0,0,0,771,35,771,35,855,8,754,121,0,-0.261799,3.14159,-1.5,2.51931e-09,0,0,2,0,0,0,0,0,0,0,0,11413,0,0,0,0,0
15931,-3.2133e-12,2.22871e-38,-1.54527e-06,-3.27827e-12,2.22859e-38,0,-1.06644e-13,0,0,-4.56435,-5.87491,0.266098,0,0,0,0,0,0,0,771,35,771,35,855,8,754,121,0,-0.261799,3.14159,-1.5,2.51931e-09,0,0,2,0,0,0,0,0,0,0,0,11413,0,0,0,0,0
15948,-3.2133e-12,2.22871e-38,-1.54527e-06,-3.27827e-12,2.22859e-38,-3.40903e-12,-1.06644e-13,0,0,-4.56435,-5.87491,0.266098,0,0,0,0,0,0,0,771,35,771,35,855,8,754,121,0,-0.261799,3.14159,-1.5,2.51931e-09,0,0,2,0,0,0,0,0,0,0,0,11413,0,0,0,0,0
15970,-3.2133e-12,2.22871e-38,-1.54527e-06,-3.27827e-12,2.22859e-38,0,-1.06645e-13,0,0,-3.09165,-0.180839,0.131806,0,0,0,0,0,0,0,277,-55,277,-55,412,-59,277,78,0,-0.261799,3.14159,-1.5,2.51931e-09,0,0,2,0,0,0,0,0,0,0,0,18630,0,0,0,0,0
15987,-3.2133e-12,2.22871e-38,-1.54527e-06,-3.27827e-12,2.22859e-38,-3.40903e-12,-1.06645e-13,0,0,-3.09165,-0.180839,0.131806,0,0,0,0,0,0,0,277,-55,277,-55,412,-59,277,78,0,-0.261799,3.14159,-1.5,2.51931e-09,0,0,2,0,0,0,0,0,0,0,0,18630,0,0,0,0,0
16006,-3.2133e-12,2.22871e-38,-1.54527e-06,-3.27827e-12,2.22859e-38,0,-1.06645e-13,0,0,-3.09165,-0.180839,0.131806,0,0,0,0,0,0,0,277,-55,277,-55,412,-59,277,78,0,-0.261799,3.14159,-1.5,2.51931e-09,0,0,2,0,0,0,0,0,0,0,0,18630,0,0,0,0,0
16020,-3.2133e-12,2.22871e-38,-1.54527e-06,-3.27827e-12,2.22859e-38,-3.40903e-12,-1.06645e-13,0,0,-4.5058,-5.78737,0.223211,0,0,0,0,0,0,0,771,35,771,35,854,10,751,126,0,-0.261799,3.14159,-1.5,2.51931e-09,0,0,2,0,0,0,0,0,0,0,0,11948,0,0,0,0,0
16038,-3.2133e-12,2.22871e-38,-1.54527e-06,-3.27827e-12,2.22859e-38,0,-1.06646e-13,0,0,-4.5058,-5.78737,0.223211,0,0,0,0,0,0,0,771,35,771,35,854,10,751,126,0,-0.261799,3.14159,-1.5,2.51931e-09,0,0,2,0,0,0,0,0,0,0,0,11948,0,0,0,0,0
16056,-3.2133e-12,2.22871e-38,-1.54527e-06,-3.27827e-12,2.22859e-38,-3.40903e-12,-1.06646e-13,0,0,-4.5058,-5.78737,0.223211,0,0,0,0,0,0,0,771,35,771,35,854,10,751,126,0,-0.261799,3.14159,-1.5,2.51931e-09,0,0,2,0,0,0,0,0,0,0,0,11948,0,0,0,0,0
16117,-3.2133e-12,2.22871e-38,-1.54527e-06,-3.27827e-12,2.22859e-38,0,-1.06646e-13,0,0,-4.5058,-5.78737,0.223211,0,0,0,0,0,0,0,771,35,771,35,854,10,751,126,0,-0.261799,3.14159,-1.5,2.51931e-09,0,0,2,0,0,0,0,0,0,0,0,11948,0,0,0,0,0
16135,-3.2133e-12,2.22871e-38,-1.54527e-06,-3.27827e-12,2.22859e-38,-3.40903e-12,-1.06646e-13,0,0,-4.51614,-5.79542,0.230926,0,0,0,0,0,0,0,772,33,772,33,851,11,751,126,0,-0.261799,3.14159,-1.5,2.51931e-09,0,0,2,0,0,0,0,0,0,0,0,11500,0,0,0,0,0
16153,-3.2133e-12,2.22871e-38,-1.54527e-06,-3.27827e-12,2.22859e-38,0,-1.06647e-13,0,0,-4.51614,-5.79542,0.230926,0,0,0,0,0,0,0,772,33,772,33,851,11,751,126,0,-0.261799,3.14159,-1.5,2.51931e-09,0,0,2,0,0,0,0,0,0,0,0,11500,0,0,0,0,0
16174,-3.2133e-12,2.22871e-38,-1.54527e-06,-3.27827e-12,2.22859e-38,-3.40903e-12,-1.06647e-13,0,0,-4.51614,-5.79542,0.230926,0,0,0,0,0,0,0,772,33,772,33,851,11,751,126,0,-0.261799,3.14159,-1.5,2.51931e-09,0,0,2,0,0,0,0,0,0,0,0,11500,0,0,0,0,0
16191,-3.2133e-12,2.22871e-38,-1.54527e-06,-3.27827e-12,2.22859e-38,0,-1.06647e-13,0,0,-4.51614,-5.79542,0.230926,0,0,0,0,0,0,0,772,33,772,33,851,11,751,126,0,-0.261799,3.14159,-1.5,2.51931e-09,0,0,2,0,0,0,0,0,0,0,0,11500,0,0,0,0,0
16213,-3.2133e-12,2.22871e-38,-1.54527e-06,-3.27827e-12,2.22859e-38,-3.40903e-12,-1.06647e-13,0,0,-4.51614,-5.79542,0.230926,0,0,0,0,0,0,0,772,33,772,33,851,11,751,126,0,-0.261799,3.14159,-1.5,2.51931e-09,0,0,2,0,0,0,0,0,0,0,0,11500,0,0,0,0,0
16230,-3.2133e-12,2.22871e-38,-1.54527e-06,-3.27827e-12,2.22859e-38,0,-1.06648e-13,0,0,-4.51614,-5.79542,0.230926,0,0,0,0,0,0,0,772,33,772,33,851,11,751,126,0,-0.261799,3.14159,-1.5,2.51931e-09,0,0,2,0,0,0,0,0,0,0,0,11500,0,0,0,0,0
16251,-3.2133e-12,2.22871e-38,-1.54527e-06,-3.27827e-12,2.22859e-38,-3.40903e-12,-1.06648e-13,0,0,-4.51614,-5.79542,0.230926,0,0,0,0,0,0,0,772,33,772,33,851,11,751,126,0,-0.261799,3.14159,-1.5,2.51931e-09,0,0,2,0,0,0,0,0,0,0,0,11500,0,0,0,0,0
16267,-3.2133e-12,2.22871e-38,-1.54527e-06,-3.27827e-12,2.22859e-38,0,-1.06648e-13,0,0,-4.51614,-5.79542,0.230926,0,0,0,0,0,0,0,772,33,772,33,851,11,751,126,0,-0.261799,3.14159,-1.5,2.51931e-09,0,0,2,0,0,0,0,0,0,0,0,11500,0,0,0,0,0
16289,-3.2133e-12,2.22871e-38,-1.54527e-06,-3.27827e-12,2.22859e-38,-3.40903e-12,-1.06649e-13,0,0,-3.10065,-0.186674,0.132922,0,0,0,0,0,0,0,279,-56,279,-56,411,-57,277,76,0,-0.261799,3.14159,-1.5,2.51931e-09,0,0,2,0,0,0,0,0,0,0,0,18626,0,0,0,0,0
16305,-3.2133e-12,2.22871e-38,-1.54527e-06,-3.27827e-12,2.22859e-38,0,-1.06649e-13,0,0,-3.10065,-0.186674,0.132922,0,0,0,0,0,0,0,279,-56,279,-56,411,-57,277,76,0,-0.261799,3.14159,-1.5,2.51931e-09,0,0,2,0,0,0,0,0,0,0,0,18626,0,0,0,0,0
16327,-3.2133e-12,2.22871e-38,-1.54527e-06,-3.27827e-12,2.22859e-38,-3.40903e-12,-1.06649e-13,0,0,-3.10065,-0.186674,0.132922,0,0,0,0,0,0,0,279,-56,279,-56,411,-57,277,76,0,-0.261799,3.14159,-1.5,2.51931e-09,0,0,2,0,0,0,0,0,0,0,0,18626,0,0,0,0,0
16344,-3.2133e-12,2.22871e-38,-1.54527e-06,-3.27827e-12,2.22859e-38,0,-1.06649e-13,0,0,-3.10065,-0.186674,0.132922,0,0,0,0,0,0,0,279,-56,279,-56,411,-57,277,76,0,-0.261799,3.14159,-1.5,2.51931e-09,0,0,2,0,0,0,0,0,0,0,0,18626,0,0,0,0,0
16365,-3.2133e-12,2.22871e-38,-1.54527e-06,-3.27827e-12,2.22859e-38,-3.40903e-12,-1.0665e-13,0,0,-4.46701,-5.73498,0.197853,0,0,0,0,0,0,0,771,35,771,35,854,10,751,126,0,-0.261799,3.14159,-1.5,2.51931e-09,0,0,2,0,0,0,0,0,0,0,0,11948,0,0,0,0,0
16379,-3.2133e-12,2.22871e-38,-1.54527e-06,-3.27827e-12,2.22859e-38,0,-1.0665e-13,0,0,-4.46701,-5.73498,0.197853,0,0,0,0,0,0,0,771,35,771,35,854,10,751,126,0,-0.261799,3.14159,-1.5,2.51931e-09,0,0,2,0,0,0,0,0,0,0,0,11948,0,0,0,0,0
16397,-3.2133e-12,2.22871e-38,-1.54527e-06,-3.27827e-12,2.22859e-38,-3.40903e-12,-1.0665e-13,0,0,-3.08838,-0.184977,0.134264,0,0,0,0,0,0,0,277,-55,277,-55,414,-59,277,76,0,-0.261799,3.14159,-1.5,2.51931e-09,0,0,2,0,0,0,0,0,0,0,0,18906,0,0,0,0,0
16414,-3.2133e-12,2.22871e-38,-1.54527e-06,-3.27827e-12,2.22859e-38,0,-1.0665e-13,0,0,-3.08838,-0.184977,0.134264,0,0,0,0,0,0,0,277,-55,277,-55,414,-59,277,76,0,-0.261799,3.14159,-1.5,2.51931e-09,0,0,2,0,0,0,0,0,0,0,0,18906,0,0,0,0,0
16449,-3.2133e-12,2.22871e-38,-1.54527e-06,-3.27827e-12,2.22859e-38,-3.40903e-12,-1.06651e-13,0,0,-4.5058,-5.78737,0.223211,0,0,0,0,0,0,0,771,35,771,35,854,10,751,126,0,-0.261799,3.14159,-1.5,2.51931e-09,0,0,2,0,0,0,0,0,0,0,0,11948,0,0,0,0,0
16471,-3.2133e-12,2.22871e-38,-1.54527e-06,-3.27827e-12,2.22859e-38,0,-1.06651e-13,0,0,-4.5058,-5.78737,0.223211,0,0,0,0,0,0,0,771,35,771,35,854,10,751,126,0,-0.261799,3.14159,-1.5,2.51931e-09,0,0,2,0,0,0,0,0,0,0,0,11948,0,0,0,0,0
16488,-3.2133e-12,2.22871e-38,-1.54527e-06,-3.27827e-12,2.22859e-38,-3.40903e-12,-1.06651e-13,0,0,-4.5058,-5.78737,0.223211,0,0,0,0,0,0,0,771,35,771,35,854,10,751,126,0,-0.261799,3.14159,-1.5,2.51931e-09,0,0,2,0,0,0,0,0,0,0,0,11948,0,0,0,0,0
16529,-3.2133e-12,2.22871e-38,-1.54527e-06,-3.27827e-12,2.22859e-38,0,-1.06652e-13,0,0,-4.5058,-5.78737,0.223211,0,0,0,0,0,0,0,771,35,771,35,854,10,751,126,0,-0.261799,3.14159,-1.5,2.51931e-09,0,0,2,0,0,0,0,0,0,0,0,11948,0,0,0,0,0
16546,-3.2133e-12,2.22871e-38,-1.54527e-06,-3.27827e-12,2.22859e-38,-3.40903e-12,-1.06652e-13,0,0,-4.5058,-5.78737,0.223211,0,0,0,0,0,0,0,771,35,771,35,854,10,751,126,0,-0.261799,3.14159,-1.5,2.51931e-09,0,0,2,0,0,0,0,0,0,0,0,11948,0,0,0,0,0
16567,-3.2133e-12,2.22871e-38,-1.54527e-06,-3.27827e-12,2.22859e-38,0,-1.06652e-13,0,0,-4.5058,-5.78737,0.223211,0,0,0,0,0,0,0,771,35,771,35,854,10,751,126,0,-0.261799,3.14159,-1.5,2.51931e-09,0,0,2,0,0,0,0,0,0,0,0,11948,0,0,0,0,0
16604,-3.2133e-12,2.22871e-38,-1.54527e-06,-3.27827e-12,2.22859e-38,-3.40903e-12,-1.06652e-13,0,0,-4.62476,-5.96732,0.27378,0,0,0,0,0,0,0,768,41,768,41,858,8,759,122,0,-0.261799,3.14159,-1.5,2.51931e-09,0,0,2,0,0,0,0,0,0,0,0,11286,0,0,0,0,0
16625,-3.2133e-12,2.22871e-38,-1.54527e-06,-3.27827e-12,2.22859e-38,0,-1.06653e-13,0,0,-3.13873,-0.184829,0.194164,0,0,0,0,0,0,0,277,-55,277,-55,411,-59,277,81,0,-0.261799,3.14159,-1.5,2.51931e-09,0,0,2,0,0,0,0,0,0,0,0,18760,0,0,0,0,0
16642,-3.2133e-12,2.22871e-38,-1.54527e-06,-3.27827e-12,2.22859e-38,-3.40903e-12,-1.06653e-13,0,0,-3.13873,-0.184829,0.194164,0,0,0,0,0,0,0,277,-55,277,-55,411,-59,277,81,0,-0.261799,3.14159,-1.5,2.51931e-09,0,0,2,0,0,0,0,0,0,0,0,18760,0,0,0,0,0
16693,-3.2133e-12,2.22871e-38,-1.54527e-06,-3.27827e-12,2.22859e-38,0,-1.06653e-13,0,0,-3.32359,-0.204088,0.346821,0,0,0,0,0,0,0,281,-56,281,-56,410,-55,277,59,0,-0.261799,3.14159,-1.5,2.51931e-09,0,0,2,0,0,0,0,0,0,0,0,15428,0,0,0,0,0
16710,-3.2133e-12,2.22871e-38,-1.54527e-06,-3.27827e-12,2.22859e-38,-3.40903e-12,-1.06653e-13,0,0,-3.32359,-0.204088,0.346821,0,0,0,0,0,0,0,281,-56,281,-56,410,-55,277,59,0,-0.261799,3.14159,-1.5,2.51931e-09,0,0,2,0,0,0,0,0,0,0,0,15428,0,0,0,0,0
16731,-3.2133e-12,2.22871e-38,-1.54527e-06,-3.27827e-12,2.22859e-38,0,-1.06654e-13,0,0,-3.32359,-0.204088,0.346821,0,0,0,0,0,0,0,281,-56,281,-56,410,-55,277,59,0,-0.261799,3.14159,-1.5,2.51931e-09,0,0,2,0,0,0,0,0,0,0,0,15428,0,0,0,0,0
16748,-3.2133e-12,2.22871e-38,-1.54527e-06,-3.27827e-12,2.22859e-38,-3.40903e-12,-1.06654e-13,0,0,-3.32359,-0.204088,0.346821,0,0,0,0,0,0,0,281,-56,281,-56,410,-55,277,59,0,-0.261799,3.14159,-1.5,2.51931e-09,0,0,2,0,0,0,0,0,0,0,0,15428,0,0,0,0,0
16766,-3.2133e-12,2.22871e-38,-1.54527e-06,-3.27827e-12,2.22859e-38,0,-1.06654e-13,0,0,-3.32359,-0.204088,0.346821,0,0,0,0,0,0,0,281,-56,281,-56,410,-55,277,59,0,-0.261799,3.14159,-1.5,2.51931e-09,0,0,2,0,0,0,0,0,0,0,0,15428,0,0,0,0,0
16787,-3.2133e-12,2.22871e-38,-1.54527e-06,-3.27827e-12,2.22859e-38,-3.40903e-12,-1.06655e-13,0,0,-3.32359,-0.204088,0.346821,0,0,0,0,0,0,0,281,-56,281,-56,410,-55,277,59,0,-0.261799,3.14159,-1.5,2.51931e-09,0,0,2,0,0,0,0,0,0,0,0,15428,0,0,0,0,0
16801,-3.2133e-12,2.22871e-38,-1.54527e-06,-3.27827e-12,2.22859e-38,0,-1.06655e-13,0,0,-3.32359,-0.204088,0.346821,0,0,0,0,0,0,0,281,-56,281,-56,410,-55,277,59,0,-0.261799,3.14159,-1.5,2.51931e-09,0,0,2,0,0,0,0,0,0,0,0,15428,0,0,0,0,0
16850,-3.2133e-12,2.22871e-38,-1.54527e-06,-3.27827e-12,2.22859e-38,-3.40903e-12,-1.06655e-13,0,0,-4.54529,-5.83257,0.249205,0,0,0,0,0,0,0,772,33,772,33,851,11,751,126,0,-0.261799,3.14159,-1.5,2.51931e-09,0,0,2,0,0,0,0,0,0,0,0,11500,0,0,0,0,0
16871,-3.2133e-12,2.22871e-38,-1.54527e-06,-3.27827e-12,2.22859e-38,0,-1.06655e-13,0,0,-4.54529,-5.83257,0.249205,0,0,0,0,0,0,0,772,33,772,33,851,11,751,126,0,-0.261799,3.14159,-1.5,2.51931e-09,0,0,2,0,0,0,0,0,0,0,0,11500,0,0,0,0,0
16892,-3.2133e-12,2.22871e-38,-1.54527e-06,-3.27827e-12,2.22859e-38,-3.40903e-12,-1.06656e-13,0,0,-4.54529,-5.83257,0.249205,0,0,0,0,0,0,0,772,33,772,33,851,11,751,126,0,-0.261799,3.14159,-1.5,2.51931e-09,0,0,2,0,0,0,0,0,0,0,0,11500,0,0,0,0,0
16908,-3.2133e-12,2.22871e-38,-1.54527e-06,-3.27827e-12,2.22859e-38,0,-1.06656e-13,0,0,-4.54529,-5.83257,0.249205,0,0,0,0,0,0,0,772,33,772,33,851,11,751,126,0,-0.261799,3.14159,-1.5,2.51931e-09,0,0,2,0,0,0,0,0,0,0,0,11500,0,0,0,0,0
16930,-3.2133e-12,2.22871e-38,-1.54527e-06,-3.27827e-12,2.22859e-38,-3.40903e-12,-1.06656e-13,0,0,-4.54529,-5.83257,0.249205,0,0,0,0,0,0,0,772,33,772,33,851,11,751,126,0,-0.261799,3.14159,-1.5,2.51931e-09,0,0,2,0,0,0,0,0,0,0,0,11500,0,0,0,0,0
16946,-3.2133e-12,2.22871e-38,-1.54527e-06,-3.27827e-12,2.22859e-38,0,-1.06656e-13,0,0,-4.54529,-5.83257,0.249205,0,0,0,0,0,0,0,772,33,772,33,851,11,751,126,0,-0.261799,3.14159,-1.5,2.51931e-09,0,0,2,0,0,0,0,0,0,0,0,11500,0,0,0,0,0
16968,-3.2133e-12,2.22871e-38,-1.54527e-06,-3.27827e-12,2.22859e-38,-3.40903e-12,-1.06657e-13,0,0,-4.54529,-5.83257,0.249205,0,0,0,0,0,0,0,772,33,772,33,851,11,751,126,0,-0.261799,3.14159,-1.5,2.51931e-09,0,0,2,0,0,0,0,0,0,0,0,11500,0,0,0,0,0
16985,-3.2133e-12,2.22871e-38,-1.54527e-06,-3.27827e-12,2.22859e-38,0,-1.06657e-13,0,0,-3.29213,-0.193291,0.328145,0,0,0,0,0,0,0,277,-56,277,-56,410,-55,277,59,0,-0.261799,3.14159,-1.5,2.51931e-09,0,0,2,0,0,0,0,0,0,0,0,15428,0,0,0,0,0
17006,-3.2133e-12,2.22871e-38,-1.54527e-06,-3.27827e-12,2.22859e-38,-3.40903e-12,-1.06657e-13,0,0,-3.29213,-0.193291,0.328145,0,0,0,0,0,0,0,277,-56,277,-56,410,-55,277,59,0,-0.261799,3.14159,-1.5,2.51931e-09,0,0,2,0,0,0,0,0,0,0,0,15428,0,0,0,0,0
17023,-3.2133e-12,2.22871e-38,-1.54527e-06,-3.27827e-12,2.22859e-38,0,-1.06658e-13,0,0,-4.5058,-5.78737,0.223211,0,0,0,0,0,0,0,771,35,771,35,854,10,751,126,0,-0.261799,3.14159,-1.5,2.51931e-09,0,0,2,0,0,0,0,0,0,0,0,11948,0,0,0,0,0
17044,-3.2133e-12,2.22871e-38,-1.54527e-06,-3.27827e-12,2.22859e-38,-3.40903e-12,-1.06658e-13,0,0,-4.5058,-5.78737,0.223211,0,0,0,0,0,0,0,771,35,771,35,854,10,751,126,0,-0.261799,3.14159,-1.5,2.51931e-09,0,0,2,0,0,0,0,0,0,0,0,11948,0,0,0,0,0
17061,-3.2133e-12,2.22871e-38,-1.54527e-06,-3.27827e-12,2.22859e-38,0,-1.06658e-13,0,0,-4.5058,-5.78737,0.223211,0,0,0,0,0,0,0,771,35,771,35,854,10,751,126,0,-0.261799,3.14159,-1.5,2.51931e-09,0,0,2,0,0,0,0,0,0,0,0,11948,0,0,0,0,0
17078,-3.2133e-12,2.22871e-38,-1.54527e-06,-3.27827e-12,2.22859e-38,-3.40903e-12,-1.06658e-13,0,0,-4.5058,-5.78737,0.223211,0,0,0,0,0,0,0,771,35,771,35,854,10,751,126,0,-0.261799,3.14159,-1.5,2.51931e-09,0,0,2,0,0,0,0,0,0,0,0,11948,0,0,0,0,0
17100,-3.2133e-12,2.22871e-38,-1.54527e-06,-3.27827e-12,2.22859e-38,0,-1.06659e-13,0,0,-3.09224,-0.184427,0.124261,0,0,0,0,0,0,0,277,-56,277,-56,412,-55,277,76,0,-0.261799,3.14159,-1.5,2.51931e-09,0,0,2,0,0,0,0,0,0,0,0,18630,0,0,0,0,0
17117,-3.2133e-12,2.22871e-38,-1.54527e-06,-3.27827e-12,2.22859e-38,-3.40903e-12,-1.06659e-13,0,0,-3.09224,-0.184427,0.124261,0,0,0,0,0,0,0,277,-56,277,-56,412,-55,277,76,0,-0.261799,3.14159,-1.5,2.51931e-09,0,0,2,0,0,0,0,0,0,0,0,18630,0,0,0,0,0
17138,-3.2133e-12,2.22871e-38,-1.54527e-06,-3.27827e-12,2.22859e-38,0,-1.06659e-13,0,0,-3.17866,-0.183717,0.217344,0,0,0,0,0,0,0,278,-56,278,-56,411,-57,277,80,0,-0.261799,3.14159,-1.5,2.51931e-09,0,0,2,0,0,0,0,0,0,0,0,18358,0,0,0,0,0
17152,-3.2133e-12,2.22871e-38,-1.54527e-06,-3.27827e-12,2.22859e-38,-3.40903e-12,-1.06659e-13,0,0,-4.67369,-6.01982,0.285917,0,0,0,0,0,0,0,771,39,771,39,851,11,759,124,0,-0.261799,3.14159,-1.5,2.51931e-09,0,0,2,0,0,0,0,0,0,0,0,10396,0,0,0,0,0
17170,-3.2133e-12,2.22871e-38,-1.54527e-06,-3.27827e-12,2.22859e-38,0,-1.0666e-13,0,0,-4.67369,-6.01982,0.285917,0,0,0,0,0,0,0,771,39,771,39,851,11,759,124,0,-0.261799,3.14159,-1.5,2.51931e-09,0,0,2,0,0,0,0,0,0,0,0,10396,0,0,0,0,0
17187,-3.2133e-12,2.22871e-38,-1.54527e-06,-3.27827e-12,2.22859e-38,-3.40903e-12,-1.0666e-13,0,0,-4.67369,-6.01982,0.285917,0,0,0,0,0,0,0,771,39,771,39,851,11,759,124,0,-0.261799,3.14159,-1.5,2.51931e-09,0,0,2,0,0,0,0,0,0,0,0,10396,0,0,0,0,0
17226,-3.2133e-12,2.22871e-38,-1.54527e-06,-3.27827e-12,2.22859e-38,0,-1.0666e-13,0,0,-3.08274,-0.18159,0.120583,0,0,0,0,0,0,0,277,-56,277,-56,411,-57,277,76,0,-0.261799,3.14159,-1.5,2.51931e-09,0,0,2,0,0,0,0,0,0,0,0,18760,0,0,0,0,0
17271,-3.2133e-12,2.22871e-38,-1.54527e-06,-3.27827e-12,2.22859e-38,-3.40903e-12,-1.06661e-13,0,0,-3.08274,-0.18159,0.120583,0,0,0,0,0,0,0,277,-56,277,-56,411,-57,277,76,0,-0.261799,3.14159,-1.5,2.51931e-09,0,0,2,0,0,0,0,0,0,0,0,18760,0,0,0,0,0
17312,-3.2133e-12,2.22871e-38,-1.54527e-06,-3.27827e-12,2.22859e-38,0,-1.06661e-13,0,0,-4.56816,-5.9044,0.265187,0,0,0,0,0,0,0,774,36,774,36,855,8,756,123,0,-0.261799,3.14159,-1.5,2.51931e-09,0,0,2,0,0,0,0,0,0,0,0,11385,0,0,0,0,0
17329,-3.2133e-12,2.22871e-38,-1.54527e-06,-3.27827e-12,2.22859e-38,-3.40903e-12,-1.06661e-13,0,0,-4.56816,-5.9044,0.265187,0,0,0,0,0,0,0,774,36,774,36,855,8,756,123,0,-0.261799,3.14159,-1.5,2.51931e-09,0,0,2,0,0,0,0,0,0,0,0,11385,0,0,0,0,0
17350,-3.2133e-12,2.22871e-38,-1.54527e-06,-3.27827e-12,2.22859e-38,0,-1.06661e-13,0,0,-3.29714,-0.193394,0.329035,0,0,0,0,0,0,0,277,-55,277,-55,410,-55,277,59,0,-0.261799,3.14159,-1.5,2.51931e-09,0,0,2,0,0,0,0,0,0,0,0,15295,0,0,0,0,0
17367,-3.2133e-12,2.22871e-38,-1.54527e-06,-3.27827e-12,2.22859e-38,-3.40903e-12,-1.06662e-13,0,0,-3.29714,-0.193394,0.329035,0,0,0,0,0,0,0,277,-55,277,-55,410,-55,277,59,0,-0.261799,3.14159,-1.5,2.51931e-09,0,0,2,0,0,0,0,0,0,0,0,15295,0,0,0,0,0
