timestamp,A_x,A_y,A_z,P,Q,R,Phi,Theta,Psi,poseX,poseY,poseZ,state_X,state_Y,state_Z,state_VzB,state_Bx,state_By,state_Bz,p1_x,p1_y,p2_x,p2_y,p3_x,p3_y,p4_x,p4_y,roll,pitch,yaw,alt,targetHeading,highLevelState,lowLevelState,gateNumber,filtered_x,filtered_y,x_OT,y_OT,vx_OT,vy_OT,filtered_vx,filtered_vygateArea
10,0,0,0,0,0,0,0,0,0,0,0,0,0,0,0,0,0,0,0,0,0,0,0,0,0,0,0,0,-0.261799,0.00623302,-1.5,0,0,0,3,0,0,0,0,0,0,0,0,1.9603e-19
20,0,0,0,0,0,0,0,0,0,0,0,0,0,0,0,0,0,0,0,0,0,0,0,0,0,0,0,0,-0.261799,0.00602347,-1.5,0,0,0,3,0,0,0,0,0,0,0,0,1.9603e-19
30,-3.34207e-12,0,-1.5909e-06,-3.40794e-12,0,-3.89417e-12,-1.13703e-13,0,0,0,0,0,0,0,0,0,0,0,0,0,0,0,0,0,0,0,0,0,-0.261799,-0.00126598,-1.5,0,0,0,3,0,0,0,0,0,0,0,0,1.9603e-19
40,-3.34207e-12,0,-1.5909e-06,-3.40794e-12,0,0,-1.13703e-13,0,0,0,0,0,0,0,0,0,0,0,0,0,0,0,0,0,0,0,0,0,-0.261799,-0.0012284,-1.5,0,0,0,3,0,0,0,0,0,0,0,0,1.9603e-19
50,-3.34207e-12,0,-1.5909e-06,-3.40794e-12,0,-3.89417e-12,-1.13704e-13,0,0,0,0,0,0,0,0,0,0,0,0,0,0,0,0,0,0,0,0,0,-0.261799,-0.00118952,-1.5,0,0,0,3,0,0,0,0,0,0,0,0,1.9603e-19
60,-3.34207e-12,0,-1.5909e-06,-3.40794e-12,0,0,-1.13704e-13,0,0,0,0,0,0,0,0,0,0,0,0,0,0,0,0,0,0,0,0,0,-0.261799,-0.00114956,-1.5,0,0,0,3,0,0,0,0,0,0,0,0,1.9603e-19
70,-3.34207e-12,0,-1.5909e-06,-3.40794e-12,0,-3.89417e-12,-1.13705e-13,0,0,0,0,0,0,0,0,0,0,0,0,0,0,0,0,0,0,0,0,0,-0.261799,-0.00111544,-1.5,0,0,0,3,0,0,0,0,0,0,0,0,1.9603e-19
80,-3.34207e-12,0,-1.5909e-06,-3.40794e-12,0,0,-1.13705e-13,0,0,0,0,0,0,0,0,0,0,0,0,0,0,0,0,0,0,0,0,0,-0.261799,-0.00108233,-1.5,0,0,0,3,0,0,0,0,0,0,0,0,1.9603e-19
90,-3.34207e-12,0,-1.5909e-06,-3.40794e-12,0,-3.89417e-12,-1.13706e-13,0,0,0,0,0,0,0,0,0,0,0,0,0,0,0,0,0,0,0,0,0,-0.261799,-0.00104594,-1.5,0,0,0,3,0,0,0,0,0,0,0,0,1.9603e-19
100,-3.34207e-12,0,-1.5909e-06,-3.40794e-12,0,0,-1.13706e-13,0,0,0,0,0,0,0,0,0,0,0,0,0,0,0,0,0,0,0,0,0,-0.261799,-0.00101286,-1.5,0,0,0,3,0,0,0,0,0,0,0,0,1.9603e-19
110,-3.34207e-12,0,-1.5909e-06,-3.40794e-12,0,-3.89417e-12,-1.13707e-13,0,0,0,0,0,0,0,0,0,0,0,0,0,0,0,0,0,0,0,0,0,-0.261799,-0.00092698,-1.5,0,0,0,3,0,0,0,0,0,0,0,0,1.9603e-19
120,-3.34207e-12,0,-1.5909e-06,-3.40794e-12,0,0,-1.13708e-13,0,0,0,0,0,0,0,0,0,0,0,0,0,0,0,0,0,0,0,0,0,-0.261799,-0.000864885,-1.5,0,0,0,3,0,0,0,0,0,0,0,0,1.9603e-19
130,-3.34207e-12,0,-1.5909e-06,-3.40794e-12,0,-3.89417e-12,-1.13708e-13,0,0,0,0,0,0,0,0,0,0,0,0,0,0,0,0,0,0,0,0,0,-0.261799,-0.00068601,-1.5,0,0,0,3,0,0,0,0,0,0,0,0,1.9603e-19
140,-3.34207e-12,0,-1.5909e-06,-3.40794e-12,0,0,-1.13709e-13,0,0,0,0,0,0,0,0,0,0,0,0,0,0,0,0,0,0,0,0,0,-0.261799,-0.000555165,-1.5,0,0,0,3,0,0,0,0,0,0,0,0,1.9603e-19
150,-3.34207e-12,0,-1.5909e-06,-3.40794e-12,0,-3.89417e-12,-1.13709e-13,0,0,0,0,0,0,0,0,0,0,0,0,0,0,0,0,0,0,0,0,0,-0.261799,-0.000537594,-1.5,0,0,0,3,0,0,0,0,0,0,0,0,1.9603e-19
160,-3.34207e-12,0,-1.5909e-06,-3.40794e-12,0,0,-1.1371e-13,0,0,0,0,0,0,0,0,0,0,0,0,0,0,0,0,0,0,0,0,0,-0.261799,-0.000424293,-1.5,0,0,0,3,0,0,0,0,0,0,0,0,1.9603e-19
170,-3.34207e-12,0,-1.5909e-06,-3.40794e-12,0,-3.89417e-12,-1.1371e-13,0,0,0,0,0,0,0,0,0,0,0,0,0,0,0,0,0,0,0,0,0,-0.261799,-0.000333201,-1.5,0,0,0,3,0,0,0,0,0,0,0,0,1.9603e-19
180,-3.34207e-12,0,-1.5909e-06,-3.40794e-12,0,0,-1.13711e-13,0,0,0,0,0,0,0,0,0,0,0,0,0,0,0,0,0,0,0,0,0,-0.261799,-0.000276848,-1.5,0,0,0,3,0,0,0,0,0,0,0,0,1.9603e-19
190,-3.34207e-12,0,-1.5909e-06,-3.40794e-12,0,-3.89417e-12,-1.13711e-13,0,0,0,0,0,0,0,0,0,0,0,0,0,0,0,0,0,0,0,0,0,-0.261799,-0.000268091,-1.5,0,0,0,3,0,0,0,0,0,0,0,0,1.9603e-19
200,-3.34207e-12,0,-1.5909e-06,-3.40794e-12,0,0,-1.13712e-13,0,0,0,0,0,0,0,0,0,0,0,0,0,0,0,0,0,0,0,0,0,-0.261799,-0.000252766,-1.5,0,0,0,3,0,0,0,0,0,0,0,0,1.9603e-19
210,-3.34207e-12,0,-1.5909e-06,-3.40794e-12,0,-3.89417e-12,-1.13712e-13,0,0,0,0,0,0,0,0,0,0,0,0,0,0,0,0,0,0,0,0,0,-0.261799,-0.000240786,-1.5,0,0,0,3,0,0,0,0,0,0,0,0,1.9603e-19
220,-3.34207e-12,0,-1.5909e-06,-3.40794e-12,0,0,-1.13713e-13,0,0,0,0,0,0,0,0,0,0,0,0,0,0,0,0,0,0,0,0,0,-0.261799,-0.000232697,-1.5,0,0,0,3,0,0,0,0,0,0,0,0,1.9603e-19
230,-3.34207e-12,0,-1.5909e-06,-3.40794e-12,0,-3.89417e-12,-1.13714e-13,0,0,0,0,0,0,0,0,0,0,0,0,0,0,0,0,0,0,0,0,0,-0.261799,-0.00022579,-1.5,0,0,0,3,0,0,0,0,0,0,0,0,1.9603e-19
240,-3.34207e-12,0,-1.5909e-06,-3.40794e-12,0,0,-1.13714e-13,0,0,0,0,0,0,0,0,0,0,-0.75,0,-1367113856,-1500618607,-1367113856,-1500618607,-162947912,-1367113856,-1367113824,-1367113824,0,-0.261799,-0.000205312,-1.5,0,0,0,3,0,0,0,0,0,0,0,0,0
250,-3.34207e-12,0,-1.5909e-06,-3.40794e-12,0,-3.89417e-12,-1.13715e-13,0,0,0,0,0,0,0,0,0,0,-0.75,0,-1367113856,-1500618607,-1367113856,-1500618607,-162947912,-1367113856,-1367113824,-1367113824,0,-0.261799,-0.000198818,-1.5,0,0,0,3,0,0,0,0,0,0,0,0,0
260,-3.34207e-12,0,-1.5909e-06,-3.40794e-12,0,0,-1.13715e-13,0,0,0,0,0,0,0,0,0,0,-0.75,0,-1367113856,-1500618607,-1367113856,-1500618607,-162947912,-1367113856,-1367113824,-1367113824,0,-0.261799,-0.000191743,-1.5,0,0,0,3,0,0,0,0,0,0,0,0,0
270,-3.34207e-12,0,-1.5909e-06,-3.40794e-12,0,-3.89417e-12,-1.13716e-13,0,0,0,0,0,0,0,0,0,0,-0.75,0,-1367113856,-1500618607,-1367113856,-1500618607,-162947912,-1367113856,-1367113824,-1367113824,0,-0.261799,-0.000185678,-1.5,0,0,0,3,0,0,0,0,0,0,0,0,0
280,-3.34207e-12,0,-1.5909e-06,-3.40794e-12,0,0,-1.13716e-13,0,0,-7.42815,-0.286419,0.112155,0,0,0,0,0,11.5065,-0.286419,149,23,149,23,204,23,149,71,0,-0.261799,-0.000179805,-1.5,0,0,0,3,0,0,0,0,0,0,0,0,2640
290,-3.34207e-12,0,-1.5909e-06,-3.40794e-12,0,-3.89417e-12,-1.13717e-13,0,0,-7.42815,-0.286419,0.112155,0,0,0,0,0,11.5065,-0.286419,149,23,149,23,204,23,149,71,0,-0.261799,-0.000173058,-1.5,0,0,0,3,0,0,0,0,0,0,0,0,2640
300,-3.34207e-12,0,-1.5909e-06,-3.40794e-12,0,0,-1.13717e-13,0,0,-7.42815,-0.286419,0.112155,0,0,0,0,0,11.5065,-0.286419,149,23,149,23,204,23,149,71,0,-0.261799,-0.000167584,-1.5,0,0,0,3,0,0,0,0,0,0,0,0,2640
310,-3.34207e-12,0,-1.5909e-06,-3.40794e-12,0,-3.89417e-12,-1.13718e-13,0,0,-7.42815,-0.286419,0.112155,0,0,0,0,0,11.5065,-0.286419,149,23,149,23,204,23,149,71,0,-0.261799,-0.000161625,-1.5,0,0,0,3,0,0,0,0,0,0,0,0,2640
320,-3.34207e-12,0,-1.5909e-06,-3.40794e-12,0,0,-1.13718e-13,0,0,-7.40017,-0.211475,0.0622583,0,0,0,0,0,11.4603,-0.211475,148,22,148,22,198,22,148,76,0,-0.261799,-0.000156828,-1.5,0,0,0,3,0,0,0,0,0,0,0,0,2700
330,-3.34207e-12,0,-1.5909e-06,-3.40794e-12,0,-3.89417e-12,-1.13719e-13,0,0,-7.40017,-0.211475,0.0622583,0,0,0,0,0,11.4603,-0.211475,148,22,148,22,198,22,148,76,0,-0.261799,-0.000150019,-1.5,0,0,0,3,0,0,0,0,0,0,0,0,2700
340,-3.34207e-12,0,-1.5909e-06,-3.40794e-12,0,0,-1.13719e-13,0,0,-7.40017,-0.211475,0.0622583,0,0,0,0,0,11.4603,-0.211475,148,22,148,22,198,22,148,76,0,-0.261799,-0.000145274,-1.5,0,0,0,3,0,0,0,0,0,0,0,0,2700
350,-3.34207e-12,0,-1.5909e-06,-3.40794e-12,0,-3.89417e-12,-1.1372e-13,0,0,-7.40017,-0.211475,0.0622583,0,0,0,0,0,11.4603,-0.211475,148,22,148,22,198,22,148,76,0,-0.261799,-0.000140962,-1.5,0,0,0,3,0,0,0,0,0,0,0,0,2700
360,-3.34207e-12,0,-1.5909e-06,-3.40794e-12,0,0,-1.13721e-13,0,0,-7.40017,-0.211475,0.0622583,0,0,0,0,0,11.4603,-0.211475,148,22,148,22,198,22,148,76,0,-0.261799,-0.00013595,-1.5,0,0,0,3,0,0,0,0,0,0,0,0,2700
370,-3.34207e-12,0,-1.5909e-06,-3.40794e-12,0,-3.89417e-12,-1.13721e-13,0,0,-7.40017,-0.211475,0.0622583,0,0,0,0,0,11.4603,-0.211475,148,22,148,22,198,22,148,76,0,-0.261799,-0.000131116,-1.5,0,0,0,3,0,0,0,0,0,0,0,0,2700
380,-3.34207e-12,0,-1.5909e-06,-3.40794e-12,0,0,-1.13722e-13,0,0,-7.40017,-0.211475,0.0622583,0,0,0,0,0,11.4603,-0.211475,148,22,148,22,198,22,148,76,0,-0.261799,-0.000126708,-1.5,0,0,0,3,0,0,0,0,0,0,0,0,2700
390,-3.34207e-12,0,-1.5909e-06,-3.40794e-12,0,-3.89417e-12,-1.13722e-13,0,0,-7.40017,-0.211475,0.0622583,0,0,0,0,0,11.4603,-0.211475,148,22,148,22,198,22,148,76,0,-0.261799,-0.000122697,-1.5,0,0,0,3,0,0,0,0,0,0,0,0,2700
400,-3.34207e-12,0,-1.5909e-06,-3.40794e-12,0,0,-1.13723e-13,0,0,-7.40017,-0.211475,0.0622583,0,0,0,0,0,11.4603,-0.211475,148,22,148,22,198,22,148,76,0,-0.261799,-0.000117848,-1.5,0,0,0,3,0,0,0,0,0,0,0,0,2700
410,-3.34207e-12,0,-1.5909e-06,-3.40794e-12,0,-3.89417e-12,-1.13723e-13,0,0,-7.40017,-0.211475,0.0622583,0,0,0,0,0,11.4603,-0.211475,148,22,148,22,198,22,148,76,0,-0.261799,-0.000113889,-1.5,0,0,0,3,0,0,0,0,0,0,0,0,2700
420,-3.34207e-12,0,-1.5909e-06,-3.40794e-12,0,0,-1.13724e-13,0,0,-7.69612,-0.307718,0.164873,0,0,0,0,0,11.9486,-0.307718,150,25,150,25,204,25,150,70,0,-0.261799,-9.03347e-05,-1.5,0,0,0,3,0,0,0,0,0,0,0,0,2430
430,-3.34207e-12,0,-1.5909e-06,-3.40794e-12,0,-3.89417e-12,-1.13724e-13,0,0,-7.34608,-0.335691,0.0717799,0,0,0,0,0,11.371,-0.335691,151,24,151,24,207,24,151,72,0.261799,0.261799,-7.71859e-05,-1.5,0,0,0,3,11.3416,-0.355405,0,0,0,0,-0.397148,-0.26641,2688
440,-3.34207e-12,0,-1.5909e-06,-3.40794e-12,0,0,-1.13725e-13,0,0,-7.34608,-0.335691,0.0717799,0,0,0,0,0,11.371,-0.335691,151,24,151,24,207,24,151,72,0.261799,0.261799,-7.42897e-05,-1.5,0,0,0,3,11.3341,-0.360467,0,0,0,0,-0.397148,-0.26641,2688
450,-3.34207e-12,0,-1.5909e-06,-3.40794e-12,0,-3.89417e-12,-1.13725e-13,0,0,-7.34608,-0.335691,0.0717799,0,0,0,0,0,11.371,-0.335691,151,24,151,24,207,24,151,72,0.261799,0.261799,-7.22318e-05,-1.5,0,0,0,3,11.3285,-0.364197,0,0,0,0,-0.397148,-0.26641,2688
460,-3.34207e-12,0,-1.5909e-06,-3.40794e-12,0,0,-1.13726e-13,0,0,-7.34608,-0.335691,0.0717799,0,0,0,0,0,11.371,-0.335691,151,24,151,24,207,24,151,72,0.261799,0.261799,-7.00878e-05,-1.5,0,0,0,3,11.3226,-0.368193,0,0,0,0,-0.397148,-0.26641,2688
470,-3.34207e-12,0,-1.5909e-06,-3.40794e-12,0,-3.89417e-12,-1.13727e-13,0,0,-7.40385,-0.359615,-1.42956e-14,0,0,0,0,0,11.4663,-0.359615,154,26,154,26,206,26,154,78,0.261799,0.261799,-6.59436e-05,-1.5,0,0,0,3,11.4637,-0.366474,0,0,0,0,-0.0866227,-0.228623,2704
480,-3.34207e-12,0,-1.5909e-06,-3.40794e-12,0,0,-1.13727e-13,0,0,-7.40385,-0.359615,-1.42956e-14,0,0,0,0,0,11.4663,-0.359615,154,26,154,26,206,26,154,78,0.261799,0.261799,-6.35987e-05,-1.5,0,0,0,3,11.4622,-0.370589,0,0,0,0,-0.0866227,-0.228623,2704
490,-3.34207e-12,0,-1.5909e-06,-3.40794e-12,0,-3.89417e-12,-1.13728e-13,0,0,-7.40385,-0.359615,-1.42956e-14,0,0,0,0,0,11.4663,-0.359615,154,26,154,26,206,26,154,78,0.261799,0.261799,-6.13373e-05,-1.5,0,0,0,3,11.4606,-0.374705,0,0,0,0,-0.0866227,-0.228623,2704
500,-3.34207e-12,0,-1.5909e-06,-3.40794e-12,0,0,-1.13728e-13,0,0,-7.09834,-0.334535,-0.0371495,0,0,0,0,0,10.9623,-0.334535,151,25,151,25,208,25,151,76,0.261799,0.261799,-5.90393e-05,-1.5,0,0,0,3,11.2888,-0.335877,0,0,0,0,-0.397148,-0.0902517,2907
510,-3.34207e-12,0,-1.5909e-06,-3.40794e-12,0,-3.89417e-12,-1.13729e-13,0,0,-7.09834,-0.334535,-0.0371495,0,0,0,0,0,10.9623,-0.334535,151,25,151,25,208,25,151,76,0.261799,0.261799,-5.63602e-05,-1.5,0,0,0,3,11.2797,-0.337952,0,0,0,0,-0.397148,-0.0902517,2907
520,-3.34207e-12,0,-1.5909e-06,-3.40794e-12,0,0,-1.13729e-13,0,0,-7.09834,-0.334535,-0.0371495,0,0,0,0,0,10.9623,-0.334535,151,25,151,25,208,25,151,76,0.261799,0.261799,-5.45775e-05,-1.5,0,0,0,3,11.2737,-0.339306,0,0,0,0,-0.397148,-0.0902517,2907
530,-3.34207e-12,0,-1.5909e-06,-3.40794e-12,0,-3.89417e-12,-1.1373e-13,0,0,-7.09834,-0.334535,-0.0371495,0,0,0,0,0,10.9623,-0.334535,151,25,151,25,208,25,151,76,0.261799,0.261799,-5.28501e-05,-1.5,0,0,0,3,11.267,-0.340841,0,0,0,0,-0.397148,-0.0902517,2907
540,-3.34207e-12,0,-1.5909e-06,-3.40794e-12,0,0,-1.1373e-13,0,0,-7.09834,-0.334535,-0.0371495,0,0,0,0,0,10.9623,-0.334535,151,25,151,25,208,25,151,76,0.261799,0.261799,-5.11774e-05,-1.5,0,0,0,3,11.2606,-0.342285,0,0,0,0,-0.397148,-0.0902517,2907
550,-3.34207e-12,0,-1.5909e-06,-3.40794e-12,0,-3.89417e-12,-1.13731e-13,0,0,-7.09834,-0.334535,-0.0371495,0,0,0,0,0,10.9623,-0.334535,151,25,151,25,208,25,151,76,0.261799,0.261799,-4.9054e-05,-1.5,0,0,0,3,11.2523,-0.34418,0,0,0,0,-0.397148,-0.0902517,2907
560,-3.34207e-12,0,-1.5909e-06,-3.40794e-12,0,0,-1.13731e-13,0,0,-7.09834,-0.334535,-0.0371495,0,0,0,0,0,10.9623,-0.334535,151,25,151,25,208,25,151,76,0.261799,0.261799,-4.75015e-05,-1.5,0,0,0,3,11.2459,-0.345624,0,0,0,0,-0.397148,-0.0902517,2907
570,-3.34207e-12,0,-1.5909e-06,-3.40794e-12,0,-3.89417e-12,-1.13732e-13,0,0,-7.09834,-0.334535,-0.0371495,0,0,0,0,0,10.9623,-0.334535,151,25,151,25,208,25,151,76,0.261799,0.261799,-4.53509e-05,-1.5,0,0,0,3,10.9541,-0.347145,0,0,0,0,-0.820436,-0.0894351,2907
580,-3.34207e-12,0,-1.5909e-06,-3.40794e-12,0,0,-1.13732e-13,0,0,-7.09834,-0.334535,-0.0371495,0,0,0,0,0,10.9623,-0.334535,151,25,151,25,208,25,151,76,0.261799,0.261799,-4.38274e-05,-1.5,0,0,0,3,10.9401,-0.348666,0,0,0,0,-0.820436,-0.0894351,2907
590,-3.34207e-12,0,-1.5909e-06,-3.40794e-12,0,-3.89417e-12,-1.13733e-13,0,0,-7.09834,-0.334535,-0.0371495,0,0,0,0,0,10.9623,-0.334535,151,25,151,25,208,25,151,76,0.261799,0.261799,-4.2269e-05,-1.5,0,0,0,3,10.9253,-0.350276,0,0,0,0,-0.820436,-0.0894351,2907
600,-3.34207e-12,0,-1.5909e-06,-3.40794e-12,0,0,-1.13734e-13,0,0,-7.09834,-0.334535,-0.0371495,0,0,0,0,0,10.9623,-0.334535,151,25,151,25,208,25,151,76,0.261799,0.261799,-4.11807e-05,-1.5,0,0,0,3,10.9147,-0.351438,0,0,0,0,-0.820436,-0.0894351,2907
610,-3.34207e-12,0,-1.5909e-06,-3.40794e-12,0,-3.89417e-12,-1.13739e-13,0,0,-8.46284,-0.374799,0.308455,0,0,0,0,0,13.2137,-0.374799,156,26,156,26,201,26,156,72,0.261799,0.261799,-3.9638e-05,-1.5,0,0,0,3,10.8996,-0.374013,0,0,0,0,-0.816255,-0.121414,2070
620,-3.34207e-12,0,-1.5909e-06,-3.40794e-12,0,0,-1.13734e-13,0,0,-8.46284,-0.374799,0.308455,0,0,0,0,0,13.2137,-0.374799,156,26,156,26,201,26,156,72,0.261799,0.261799,-3.8075e-05,-1.5,0,0,0,3,10.8833,-0.376442,0,0,0,0,-0.816255,-0.121414,2070
630,-3.34207e-12,0,-1.5909e-06,-3.40794e-12,0,-3.89417e-12,-1.13735e-13,0,0,-8.46284,-0.374799,0.308455,0,0,0,0,0,13.2137,-0.374799,156,26,156,26,201,26,156,72,0.261799,0.261799,-3.65702e-05,-1.5,0,0,0,3,10.867,-0.37887,0,0,0,0,-0.816255,-0.121414,2070
640,-3.34207e-12,0,-1.5909e-06,-3.40794e-12,0,0,-1.13735e-13,0,0,-8.46284,-0.374799,0.308455,0,0,0,0,0,13.2137,-0.374799,156,26,156,26,201,26,156,72,0.261799,0.261799,-3.54134e-05,-1.5,0,0,0,3,10.8539,-0.380813,0,0,0,0,-0.816255,-0.121414,2070
650,-3.34207e-12,0,-1.5909e-06,-3.40794e-12,0,-3.89417e-12,-1.13736e-13,0,0,-8.46284,-0.374799,0.308455,0,0,0,0,0,13.2137,-0.374799,156,26,156,26,201,26,156,72,0.261799,0.261799,-3.42237e-05,-1.5,0,0,0,3,10.84,-0.382877,0,0,0,0,-0.816255,-0.121414,2070
660,-3.34207e-12,0,-1.5909e-06,-3.40794e-12,0,0,-1.13736e-13,0,0,-8.46284,-0.374799,0.308455,0,0,0,0,0,13.2137,-0.374799,156,26,156,26,201,26,156,72,0.261799,0.261799,-3.30732e-05,-1.5,0,0,0,3,10.8262,-0.384941,0,0,0,0,-0.816255,-0.121414,2070
670,-3.34207e-12,0,-1.5909e-06,-3.40794e-12,0,-3.89417e-12,-1.13737e-13,0,0,-8.46284,-0.374799,0.308455,0,0,0,0,0,13.2137,-0.374799,156,26,156,26,201,26,156,72,0.261799,0.261799,-3.18322e-05,-1.5,0,0,0,3,10.8107,-0.387248,0,0,0,0,-0.816255,-0.121414,2070
680,-3.34207e-12,0,-1.5909e-06,-3.40794e-12,0,0,-1.13737e-13,0,0,-8.46284,-0.374799,0.308455,0,0,0,0,0,13.2137,-0.374799,156,26,156,26,201,26,156,72,0.261799,0.261799,-3.08874e-05,-1.5,0,0,0,3,10.7984,-0.389069,0,0,0,0,-0.816255,-0.121414,2070
690,-3.34207e-12,0,-1.5909e-06,-3.40794e-12,0,-3.89417e-12,-1.13738e-13,0,0,-8.46284,-0.374799,0.308455,0,0,0,0,0,13.2137,-0.374799,156,26,156,26,201,26,156,72,0.261799,0.261799,-2.98502e-05,-1.5,0,0,0,3,10.7837,-0.391254,0,0,0,0,-0.816255,-0.121414,2070
700,-3.34207e-12,0,-1.5909e-06,-3.40794e-12,0,0,-1.13738e-13,0,0,-8.46284,-0.374799,0.308455,0,0,0,0,0,13.2137,-0.374799,156,26,156,26,201,26,156,72,0.261799,0.261799,-2.86117e-05,-1.5,0,0,0,3,10.7666,-0.393804,0,0,0,0,-0.816255,-0.121414,2070
710,-3.34207e-12,0,-1.5909e-06,-3.40794e-12,0,-3.89417e-12,-1.1374e-13,0,0,-8.46284,-0.374799,0.308455,0,0,0,0,0,13.2137,-0.374799,156,26,156,26,201,26,156,72,0.261799,0.261799,-2.77062e-05,-1.5,0,0,0,3,10.7535,-0.395747,0,0,0,0,-0.816255,-0.121414,2070
720,-3.34207e-12,0,-1.5909e-06,-3.40794e-12,0,0,-1.13745e-13,0,0,-8.28065,-0.354901,0.183489,0,0,0,0,0,12.9131,-0.354901,155,29,155,29,201,29,155,76,0.261799,0.261799,-2.14965e-05,-1.5,0,0,0,3,10.7105,-0.379384,0,0,0,0,-0.810683,-0.089406,2162
730,-3.34207e-12,0,-1.5909e-06,-3.40794e-12,0,-3.89417e-12,-1.13741e-13,0,0,-6.21477,-0.274971,-0.0503508,0,0,0,0,0,9.50437,-0.274971,144,14,144,14,213,14,144,66,0.261799,0.261799,-1.85787e-05,-1.5,0,0,0,3,10.8002,-0.371785,0,0,0,0,-0.65133,-0.0744848,3588
740,-3.34207e-12,0,-1.5909e-06,-3.40794e-12,0,0,-1.1374e-13,0,0,-6.21477,-0.274971,-0.0503508,0,0,0,0,0,9.50437,-0.274971,144,14,144,14,213,14,144,66,0.261799,0.261799,-1.78451e-05,-1.5,0,0,0,3,10.7872,-0.373275,0,0,0,0,-0.65133,-0.0744848,3588
750,-3.34207e-12,0,-1.5909e-06,-3.40794e-12,0,-3.89417e-12,-1.13742e-13,0,0,-6.25387,-0.285732,-0.0409135,0,0,0,0,0,9.56888,-0.285732,146,12,146,12,212,12,146,68,0.261799,-0.261799,-1.71404e-05,-1.5,0,0,0,3,9.56103,-0.369757,0,0,0,0,-2.17762,-0.0662494,3696
760,-3.34207e-12,0,-1.5909e-06,-3.40794e-12,0,0,-1.13742e-13,0,0,-6.25387,-0.285732,-0.0409135,0,0,0,0,0,9.56888,-0.285732,146,12,146,12,212,12,146,68,0.261799,-0.261799,-1.64973e-05,-1.5,0,0,0,3,9.51966,-0.371016,0,0,0,0,-2.17762,-0.0662494,3696
770,-3.34207e-12,0,-1.5909e-06,-3.40794e-12,0,-3.89417e-12,-1.13743e-13,0,0,-6.25387,-0.285732,-0.0409135,0,0,0,0,0,9.56888,-0.285732,146,12,146,12,212,12,146,68,0.261799,-0.261799,-1.60403e-05,-1.5,0,0,0,3,9.48917,-0.371943,0,0,0,0,-2.17762,-0.0662494,3696
780,-3.34207e-12,0,-1.5909e-06,-3.40794e-12,0,0,-1.13743e-13,0,0,-6.25387,-0.285732,-0.0409135,0,0,0,0,0,9.56888,-0.285732,146,12,146,12,212,12,146,68,0.261799,-0.261799,-1.55642e-05,-1.5,0,0,0,3,9.4565,-0.372937,0,0,0,0,-2.17762,-0.0662494,3696
790,-3.34207e-12,0,-1.5909e-06,-3.40794e-12,0,-3.89417e-12,-1.1375e-13,0,0,-6.72464,-0.288109,0.0989883,0,0,0,0,0,10.3457,-0.288109,148,12,148,12,208,12,148,66,0.261799,0.261799,-1.49496e-05,-1.5,0,0,0,3,10.3297,-0.32568,0,0,0,0,-1.03426,-0.0180971,3240
800,-3.34207e-12,0,-1.5909e-06,-3.40794e-12,0,0,-1.13744e-13,0,0,-6.72464,-0.288109,0.0989883,0,0,0,0,0,10.3457,-0.288109,148,12,148,12,208,12,148,66,0.261799,0.261799,-1.43293e-05,-1.5,0,0,0,3,10.308,-0.32606,0,0,0,0,-1.03426,-0.0180971,3240
810,-3.34207e-12,0,-1.5909e-06,-3.40794e-12,0,-3.89417e-12,-1.13745e-13,0,0,-6.72464,-0.288109,0.0989883,0,0,0,0,0,10.3457,-0.288109,148,12,148,12,208,12,148,66,0.261799,0.261799,-1.38758e-05,-1.5,0,0,0,3,10.2914,-0.32635,0,0,0,0,-1.03426,-0.0180971,3240
820,-3.34207e-12,0,-1.5909e-06,-3.40794e-12,0,0,-1.13747e-13,0,0,-6.56045,-0.309196,0.0562034,0,0,0,0,0,10.0747,-0.309196,149,11,149,11,210,11,149,67,0.261799,0.0186823,-1.33016e-05,-1.5,0,0,0,3,10.1109,-0.309817,0,0,0,0,-1.15785,0.0088783,3416
830,-3.34207e-12,0,-1.5909e-06,-3.40794e-12,0,-3.89417e-12,-1.13746e-13,0,0,-6.56045,-0.309196,0.0562034,0,0,0,0,0,10.0747,-0.309196,149,11,149,11,210,11,149,67,0.261799,-0.0124557,-1.28286e-05,-1.5,0,0,0,3,10.0901,-0.309657,0,0,0,0,-1.15785,0.0088783,3416
840,-3.34207e-12,0,-1.5909e-06,-3.40794e-12,0,0,-1.13747e-13,0,0,-6.56045,-0.309196,0.0562034,0,0,0,0,0,10.0747,-0.309196,149,11,149,11,210,11,149,67,0.261799,-0.0435925,-1.23721e-05,-1.5,0,0,0,3,10.0692,-0.309497,0,0,0,0,-1.15785,0.0088783,3416
850,-3.34207e-12,0,-1.5909e-06,-3.40794e-12,0,-3.89417e-12,-1.13748e-13,0,0,-6.56045,-0.309196,0.0562034,0,0,0,0,0,10.0747,-0.309196,149,11,149,11,210,11,149,67,0.261799,-0.0712708,-1.19805e-05,-1.5,0,0,0,3,10.0507,-0.309355,0,0,0,0,-1.15785,0.0088783,3416
860,-3.34207e-12,0,-1.5909e-06,-3.40794e-12,0,0,-1.1375e-13,0,0,-6.56038,-0.271715,0.0561856,0,0,0,0,0,10.0746,-0.271715,147,11,147,11,208,11,147,67,0.261799,-0.174393,-1.13678e-05,-1.5,0,0,0,3,10.0511,-0.283218,0,0,0,0,-1.23759,0.0498958,3416
870,-3.34207e-12,0,-1.5909e-06,-3.40794e-12,0,-3.89417e-12,-1.13748e-13,0,0,-6.56038,-0.271715,0.0561856,0,0,0,0,0,10.0746,-0.271715,147,11,147,11,208,11,147,67,0.261799,-0.211372,-1.09189e-05,-1.5,0,0,0,3,10.0263,-0.28222,0,0,0,0,-1.23759,0.0498958,3416
880,-3.34207e-12,0,-1.5909e-06,-3.40794e-12,0,0,-1.13749e-13,0,0,-6.56038,-0.271715,0.0561856,0,0,0,0,0,10.0746,-0.271715,147,11,147,11,208,11,147,67,0.261799,-0.242805,-1.05519e-05,-1.5,0,0,0,3,10.0053,-0.281372,0,0,0,0,-1.23759,0.0498958,3416
890,-3.34207e-12,0,-1.5909e-06,-3.40794e-12,0,-3.89417e-12,-1.13751e-13,0,0,-6.56038,-0.271715,0.0561856,0,0,0,0,0,10.0746,-0.271715,147,11,147,11,208,11,147,67,0.261799,-0.261799,-1.02181e-05,-1.5,0,0,0,3,9.98547,-0.280573,0,0,0,0,-1.23759,0.0498958,3416
900,-3.34207e-12,0,-1.5909e-06,-3.40794e-12,0,0,-1.13751e-13,0,0,-6.56038,-0.271715,0.0561856,0,0,0,0,0,10.0746,-0.271715,147,11,147,11,208,11,147,67,0.261799,-0.261799,-9.85478e-06,-1.5,0,0,0,3,9.9632,-0.279675,0,0,0,0,-1.23759,0.0498958,3416
910,-3.34207e-12,0,-1.5909e-06,-3.40794e-12,0,-3.89417e-12,-1.13752e-13,0,0,-6.56038,-0.271715,0.0561856,0,0,0,0,0,10.0746,-0.271715,147,11,147,11,208,11,147,67,0.261799,-0.261799,-9.50436e-06,-1.5,0,0,0,3,9.94092,-0.278777,0,0,0,0,-1.23759,0.0498958,3416
920,-3.34207e-12,0,-1.5909e-06,-3.40794e-12,0,0,-1.13752e-13,0,0,-6.56038,-0.271715,0.0561856,0,0,0,0,0,10.0746,-0.271715,147,11,147,11,208,11,147,67,0.261799,-0.261799,-9.09131e-06,-1.5,0,0,0,3,9.91369,-0.27768,0,0,0,0,-1.23759,0.0498958,3416
930,-3.34207e-12,0,-1.5909e-06,-3.40794e-12,0,-3.89417e-12,-1.13758e-13,0,0,-6.41213,-0.2746,0.000140595,0,0,0,0,0,9.83002,-0.2746,145,14,145,14,211,14,145,66,0.261799,-0.261799,-8.76846e-06,-1.5,0,0,0,3,9.81207,-0.278101,0,0,0,0,-1.37132,0.0511041,3432
940,-3.34207e-12,0,-1.5909e-06,-3.40794e-12,0,0,-1.13753e-13,0,0,-6.41213,-0.2746,0.000140595,0,0,0,0,0,9.83002,-0.2746,145,14,145,14,211,14,145,66,0.261799,-0.261799,-8.45667e-06,-1.5,0,0,0,3,9.78739,-0.277181,0,0,0,0,-1.37132,0.0511041,3432
950,-3.34207e-12,0,-1.5909e-06,-3.40794e-12,0,-3.89417e-12,-1.13754e-13,0,0,-6.41213,-0.2746,0.000140595,0,0,0,0,0,9.83002,-0.2746,145,14,145,14,211,14,145,66,0.261799,-0.261799,-8.18919e-06,-1.5,0,0,0,3,9.76545,-0.276363,0,0,0,0,-1.37132,0.0511041,3432
960,-3.34207e-12,0,-1.5909e-06,-3.40794e-12,0,0,-1.13754e-13,0,0,-6.41213,-0.2746,0.000140595,0,0,0,0,0,9.83002,-0.2746,145,14,145,14,211,14,145,66,0.261799,-0.261799,-7.89799e-06,-1.5,0,0,0,3,9.74076,-0.275443,0,0,0,0,-1.37132,0.0511041,3432
970,-3.34207e-12,0,-1.5909e-06,-3.40794e-12,0,-3.89417e-12,-1.13758e-13,0,0,-6.41213,-0.2746,0.000140595,0,0,0,0,0,9.83002,-0.2746,145,14,145,14,211,14,145,66,0.261799,-0.261799,-7.60201e-06,-1.5,0,0,0,3,9.81663,-0.273287,0,0,0,0,-1.17122,0.0426902,3432
980,-3.34207e-12,0,-1.5909e-06,-3.40794e-12,0,0,-1.13755e-13,0,0,-6.41213,-0.2746,0.000140595,0,0,0,0,0,9.83002,-0.2746,145,14,145,14,211,14,145,66,0.261799,-0.261799,-7.27197e-06,-1.5,0,0,0,3,9.79086,-0.272348,0,0,0,0,-1.17122,0.0426902,3432
990,-3.34207e-12,0,-1.5909e-06,-3.40794e-12,0,-3.89417e-12,-1.13755e-13,0,0,-6.41213,-0.2746,0.000140595,0,0,0,0,0,9.83002,-0.2746,145,14,145,14,211,14,145,66,0.261799,-0.261799,-7.02767e-06,-1.5,0,0,0,3,9.77095,-0.271622,0,0,0,0,-1.17122,0.0426902,3432
1000,-3.34207e-12,0,-1.5909e-06,-3.40794e-12,0,0,-1.13756e-13,0,0,-6.41213,-0.2746,0.000140595,0,0,0,0,0,9.83002,-0.2746,145,14,145,14,211,14,145,66,0.261799,-0.261799,-6.79158e-06,-1.5,0,0,0,3,9.75104,-0.270896,0,0,0,0,-1.17122,0.0426902,3432
1010,-3.34207e-12,0,-1.5909e-06,-3.40794e-12,0,-3.89417e-12,-1.13763e-13,0,0,-7.65798,-0.25155,0.330713,0,0,0,0,0,11.8857,-0.25155,148,16,148,16,201,16,148,63,0.261799,-0.261799,-6.52316e-06,-1.5,0,0,0,3,9.74059,-0.268142,0,0,0,0,-1.14925,0.0487207,2491
1020,-3.34207e-12,0,-1.5909e-06,-3.40794e-12,0,0,-1.13765e-13,0,0,-7.45373,-0.212865,0.310231,0,0,0,0,0,11.5486,-0.212865,145,15,145,15,201,15,145,61,0.261799,-0.261799,-5.13803e-06,-1.5,0,0,0,3,9.53094,-0.255315,0,0,0,0,-1.32956,0.0584964,2576
1030,-3.34207e-12,0,-1.5909e-06,-3.40794e-12,0,-3.89417e-12,-1.13762e-13,0,0,-7.50897,-0.23593,0.302915,0,0,0,0,0,11.6398,-0.23593,147,15,147,15,201,15,147,63,0.261799,-0.261799,-4.42933e-06,-1.5,0,0,0,3,9.54383,-0.251466,0,0,0,0,-1.11911,0.0571697,2592
1040,-3.34207e-12,0,-1.5909e-06,-3.40794e-12,0,0,-1.13756e-13,0,0,-7.50897,-0.23593,0.302915,0,0,0,0,0,11.6398,-0.23593,147,15,147,15,201,15,147,63,0.261799,-0.261799,-4.28053e-06,-1.5,0,0,0,3,9.5248,-0.250494,0,0,0,0,-1.11911,0.0571697,2592
1050,-3.34207e-12,0,-1.5909e-06,-3.40794e-12,0,-3.89417e-12,-1.13757e-13,0,0,-7.50897,-0.23593,0.302915,0,0,0,0,0,11.6398,-0.23593,147,15,147,15,201,15,147,63,0.261799,-0.261799,-4.12832e-06,-1.5,0,0,0,3,9.50466,-0.249465,0,0,0,0,-1.11911,0.0571697,2592
1060,-3.34207e-12,0,-1.5909e-06,-3.40794e-12,0,0,-1.13763e-13,0,0,-7.50897,-0.23593,0.302915,0,0,0,0,0,11.6398,-0.23593,147,15,147,15,201,15,147,63,0.261799,-0.261799,-3.98141e-06,-1.5,0,0,0,3,9.48451,-0.248436,0,0,0,0,-1.11911,0.0571697,2592
1070,-3.34207e-12,0,-1.5909e-06,-3.40794e-12,0,-3.89417e-12,-1.13764e-13,0,0,-7.50897,-0.23593,0.302915,0,0,0,0,0,11.6398,-0.23593,147,15,147,15,201,15,147,63,0.261799,-0.261799,-3.8554e-06,-1.5,0,0,0,3,9.46661,-0.247521,0,0,0,0,-1.11911,0.0571697,2592
1080,-3.34207e-12,0,-1.5909e-06,-3.40794e-12,0,0,-1.13759e-13,0,0,-7.12711,0.244251,0.193727,0,0,0,0,0,11.0097,0.244251,122,15,122,15,180,15,122,64,0.261799,-0.261799,-3.67267e-06,-1.5,0,0,0,3,9.42234,-0.237704,0,0,0,0,-1.20501,0.0624545,2842
1090,-3.34207e-12,0,-1.5909e-06,-3.40794e-12,0,-3.89417e-12,-1.13759e-13,0,0,-7.12711,0.244251,0.193727,0,0,0,0,0,11.0097,0.244251,122,15,122,15,180,15,122,64,0.261799,-0.261799,-3.55651e-06,-1.5,0,0,0,3,9.40306,-0.236705,0,0,0,0,-1.20501,0.0624545,2842
1100,-3.34207e-12,0,-1.5909e-06,-3.40794e-12,0,0,-1.1376e-13,0,0,-7.12711,0.244251,0.193727,0,0,0,0,0,11.0097,0.244251,122,15,122,15,180,15,122,64,0.261799,-0.261799,-3.46494e-06,-1.5,0,0,0,3,9.38739,-0.235893,0,0,0,0,-1.20501,0.0624545,2842
1110,-3.34207e-12,0,-1.5909e-06,-3.40794e-12,0,-3.89417e-12,-1.1376e-13,0,0,-7.12711,0.244251,0.193727,0,0,0,0,0,11.0097,0.244251,122,15,122,15,180,15,122,64,0.261799,-0.261799,-3.3621e-06,-1.5,0,0,0,3,9.36932,-0.234956,0,0,0,0,-1.20501,0.0624545,2842
1120,-3.34207e-12,0,-1.5909e-06,-3.40794e-12,0,0,-1.13761e-13,0,0,-7.12711,0.244251,0.193727,0,0,0,0,0,11.0097,0.244251,122,15,122,15,180,15,122,64,0.261799,-0.261799,-3.25575e-06,-1.5,0,0,0,3,9.35004,-0.233957,0,0,0,0,-1.20501,0.0624545,2842
1130,-3.34207e-12,0,-1.5909e-06,-3.40794e-12,0,-3.89417e-12,-1.13761e-13,0,0,-7.12711,0.244251,0.193727,0,0,0,0,0,11.0097,0.244251,122,15,122,15,180,15,122,64,0.261799,-0.261799,-3.13349e-06,-1.5,0,0,0,3,9.32714,-0.23277,0,0,0,0,-1.20501,0.0624545,2842
1140,-3.34207e-12,0,-1.5909e-06,-3.40794e-12,0,0,-1.13765e-13,0,0,-7.12711,0.244251,0.193727,0,0,0,0,0,11.0097,0.244251,122,15,122,15,180,15,122,64,0.261799,-0.261799,-3.03431e-06,-1.5,0,0,0,3,9.30786,-0.231771,0,0,0,0,-1.20501,0.0624545,2842
1150,-3.34207e-12,0,-1.5909e-06,-3.40794e-12,0,-3.89417e-12,-1.13766e-13,0,0,-7.12711,0.244251,0.193727,0,0,0,0,0,11.0097,0.244251,122,15,122,15,180,15,122,64,0.261799,-0.261799,-2.91439e-06,-1.5,0,0,0,3,9.28376,-0.230522,0,0,0,0,-1.20501,0.0624545,2842
1160,-3.34207e-12,0,-1.5909e-06,-3.40794e-12,0,0,-1.13766e-13,0,0,-7.12711,0.244251,0.193727,0,0,0,0,0,11.0097,0.244251,122,15,122,15,180,15,122,64,0.261714,-0.261799,-2.82221e-06,-1.5,0,0,0,3,9.26448,-0.229522,0,0,0,0,-1.20501,0.0624545,2842
1170,-3.34207e-12,0,-1.5909e-06,-3.40794e-12,0,-3.89417e-12,-1.13767e-13,0,0,-7.12711,0.244251,0.193727,0,0,0,0,0,11.0097,0.244251,122,15,122,15,180,15,122,64,0.260035,-0.261799,-2.72177e-06,-1.5,0,0,0,3,9.24279,-0.228398,0,0,0,0,-1.20501,0.0624545,2842
1180,-3.34207e-12,0,-1.5909e-06,-3.40794e-12,0,0,-1.13767e-13,0,0,-7.12711,0.244251,0.193727,0,0,0,0,0,11.0097,0.244251,122,15,122,15,180,15,122,64,0.258449,-0.261799,-2.63034e-06,-1.5,0,0,0,3,9.22231,-0.227336,0,0,0,0,-1.20501,0.0624545,2842
1190,-3.34207e-12,0,-1.5909e-06,-3.40794e-12,0,-3.89417e-12,-1.13768e-13,0,0,-7.12711,0.244251,0.193727,0,0,0,0,0,11.0097,0.244251,122,15,122,15,180,15,122,64,0.256769,-0.261799,-2.53681e-06,-1.5,0,0,0,3,9.20061,-0.226212,0,0,0,0,-1.20501,0.0624545,2842
1200,-3.34207e-12,0,-1.5909e-06,-3.40794e-12,0,0,-1.13774e-13,0,0,-7.32789,-0.125651,0.244295,0,0,0,0,0,11.341,-0.125651,144,12,144,12,194,12,144,67,0.181936,-0.261799,-2.43664e-06,-1.5,0,0,0,3,8.9009,-0.202952,0,0,0,0,-1.3381,0.0932875,2750
1210,-3.34207e-12,0,-1.5909e-06,-3.40794e-12,0,-3.89417e-12,-1.13768e-13,0,0,-7.32789,-0.125651,0.244295,0,0,0,0,0,11.341,-0.125651,144,12,144,12,194,12,144,67,0.179009,-0.261799,-2.33554e-06,-1.5,0,0,0,3,8.8728,-0.200993,0,0,0,0,-1.3381,0.0932875,2750
1220,-3.34207e-12,0,-1.5909e-06,-3.40794e-12,0,0,-1.13769e-13,0,0,-7.32789,-0.125651,0.244295,0,0,0,0,0,11.341,-0.125651,144,12,144,12,194,12,144,67,0.176779,-0.261799,-2.26162e-06,-1.5,0,0,0,3,8.85139,-0.199501,0,0,0,0,-1.3381,0.0932875,2750
1230,-3.34207e-12,0,-1.5909e-06,-3.40794e-12,0,-3.89417e-12,-1.13769e-13,0,0,-7.32789,-0.125651,0.244295,0,0,0,0,0,11.341,-0.125651,144,12,144,12,194,12,144,67,0.17441,-0.261799,-2.18559e-06,-1.5,0,0,0,3,8.82864,-0.197915,0,0,0,0,-1.3381,0.0932875,2750
1240,-3.34207e-12,0,-1.5909e-06,-3.40794e-12,0,0,-1.1377e-13,0,0,-7.32789,-0.125651,0.244295,0,0,0,0,0,11.341,-0.125651,144,12,144,12,194,12,144,67,0.17218,-0.261799,-2.11217e-06,-1.5,0,0,0,3,8.80723,-0.196422,0,0,0,0,-1.3381,0.0932875,2750
1250,-3.34207e-12,0,-1.5909e-06,-3.40794e-12,0,-3.89417e-12,-1.13771e-13,0,0,-7.32789,-0.125651,0.244295,0,0,0,0,0,11.341,-0.125651,144,12,144,12,194,12,144,67,0.169532,-0.261799,-2.04116e-06,-1.5,0,0,0,3,8.78181,-0.194649,0,0,0,0,-1.3381,0.0932875,2750
1260,-3.34207e-12,0,-1.5909e-06,-3.40794e-12,0,0,-1.13771e-13,0,0,-7.32789,-0.125651,0.244295,0,0,0,0,0,11.341,-0.125651,144,12,144,12,194,12,144,67,0.16758,-0.261799,-1.98462e-06,-1.5,0,0,0,3,8.76307,-0.193343,0,0,0,0,-1.3381,0.0932875,2750
1270,-3.34207e-12,0,-1.5909e-06,-3.40794e-12,0,-3.89417e-12,-1.13778e-13,0,0,-7.06154,-0.191661,0.1861,0,0,0,0,0,10.9015,-0.191661,145,12,145,12,200,12,145,66,0.155023,-0.261799,-1.89867e-06,-1.5,0,0,0,3,8.58735,-0.187854,0,0,0,0,-1.52224,0.0966388,2970
1280,-3.34207e-12,0,-1.5909e-06,-3.40794e-12,0,0,-1.13772e-13,0,0,-7.06154,-0.191661,0.1861,0,0,0,0,0,10.9015,-0.191661,145,12,145,12,200,12,145,66,0.152568,-0.261799,-1.83489e-06,-1.5,0,0,0,3,8.56147,-0.186211,0,0,0,0,-1.52224,0.0966388,2970
1290,-3.34207e-12,0,-1.5909e-06,-3.40794e-12,0,-3.89417e-12,-1.13772e-13,0,0,-7.06154,-0.191661,0.1861,0,0,0,0,0,10.9015,-0.191661,145,12,145,12,200,12,145,66,0.14997,-0.261799,-1.76964e-06,-1.5,0,0,0,3,8.53407,-0.184472,0,0,0,0,-1.52224,0.0966388,2970
1300,-3.34207e-12,0,-1.5909e-06,-3.40794e-12,0,0,-1.13773e-13,0,0,-7.06154,-0.191661,0.1861,0,0,0,0,0,10.9015,-0.191661,145,12,145,12,200,12,145,66,0.147804,-0.261799,-1.71712e-06,-1.5,0,0,0,3,8.51124,-0.183022,0,0,0,0,-1.52224,0.0966388,2970
1310,-3.34207e-12,0,-1.5909e-06,-3.40794e-12,0,-3.89417e-12,-1.13781e-13,0,0,-6.96711,-0.1791,0.162032,0,0,0,0,0,10.7457,-0.1791,143,13,143,13,201,13,143,65,0.139663,0.261799,-1.64276e-06,-1.5,0,0,0,3,11.2528,-0.178853,0,0,0,0,1.10342,0.0981091,3016
1320,-3.34207e-12,0,-1.5909e-06,-3.40794e-12,0,0,-1.13773e-13,0,0,-6.96711,-0.1791,0.162032,0,0,0,0,0,10.7457,-0.1791,143,13,143,13,201,13,143,65,0.124713,0.261799,-1.31329e-06,-1.5,0,0,0,3,11.3654,-0.168846,0,0,0,0,1.10342,0.0981091,3016
1330,-3.34207e-12,0,-1.5909e-06,-3.40794e-12,0,-3.89417e-12,-1.13779e-13,0,0,-6.96711,-0.1791,0.162032,0,0,0,0,0,10.7457,-0.1791,143,13,143,13,201,13,143,65,0.122221,0.261799,-1.27173e-06,-1.5,0,0,0,3,11.3841,-0.167178,0,0,0,0,1.10342,0.0981091,3016
1340,-3.34207e-12,0,-1.5909e-06,-3.40794e-12,0,0,-1.13782e-13,0,0,-7.0741,-0.181834,0.190038,0,0,0,0,0,10.9223,-0.181834,143,14,143,14,201,14,143,64,0.134783,0.261799,-1.21657e-06,-1.5,0,0,0,3,11.1547,-0.170711,0,0,0,0,1.05555,0.0925068,2900
1350,-3.34207e-12,0,-1.5909e-06,-3.40794e-12,0,-3.89417e-12,-1.13781e-13,0,0,-7.0741,-0.181834,0.190038,0,0,0,0,0,10.9223,-0.181834,143,14,143,14,201,14,143,64,0.132295,0.261799,-1.17331e-06,-1.5,0,0,0,3,11.1737,-0.169046,0,0,0,0,1.05555,0.0925068,2900
1360,-3.34207e-12,0,-1.5909e-06,-3.40794e-12,0,0,-1.13782e-13,0,0,-7.0741,-0.181834,0.190038,0,0,0,0,0,10.9223,-0.181834,143,14,143,14,201,14,143,64,0.130084,0.261799,-1.13619e-06,-1.5,0,0,0,3,11.1906,-0.167566,0,0,0,0,1.05555,0.0925068,2900
1370,-3.34207e-12,0,-1.5909e-06,-3.40794e-12,0,-3.89417e-12,-1.13784e-13,0,0,-6.75471,-0.241128,0.0877815,0,0,0,0,0,10.3953,-0.241128,145,14,145,14,206,14,145,66,0.120441,0.261799,-1.0914e-06,-1.5,0,0,0,3,10.5418,-0.16383,0,0,0,0,-1.45524,0.0956316,3172
1380,-3.34207e-12,0,-1.5909e-06,-3.40794e-12,0,0,-1.13783e-13,0,0,-6.75471,-0.241128,0.0877815,0,0,0,0,0,10.3953,-0.241128,145,14,145,14,206,14,145,66,0.117869,0.236703,-1.05259e-06,-1.5,0,0,0,3,10.5156,-0.162109,0,0,0,0,-1.45524,0.0956316,3172
1390,-3.34207e-12,0,-1.5909e-06,-3.40794e-12,0,-3.89417e-12,-1.13783e-13,0,0,-6.75471,-0.241128,0.0877815,0,0,0,0,0,10.3953,-0.241128,145,14,145,14,206,14,145,66,0.115583,0.20192,-1.0193e-06,-1.5,0,0,0,3,10.4923,-0.160579,0,0,0,0,-1.45524,0.0956316,3172
1400,-3.34207e-12,0,-1.5909e-06,-3.40794e-12,0,0,-1.13779e-13,0,0,-6.75471,-0.241128,0.0877815,0,0,0,0,0,10.3953,-0.241128,145,14,145,14,206,14,145,66,0.113297,0.167136,-9.87059e-07,-1.5,0,0,0,3,10.4691,-0.159049,0,0,0,0,-1.45524,0.0956316,3172
1410,-3.34207e-12,0,-1.5909e-06,-3.40794e-12,0,-3.89417e-12,-1.1378e-13,0,0,-6.75471,-0.241128,0.0877815,0,0,0,0,0,10.3953,-0.241128,145,14,145,14,206,14,145,66,0.111154,0.134525,-9.57761e-07,-1.5,0,0,0,3,10.4472,-0.157615,0,0,0,0,-1.45524,0.0956316,3172
1420,-3.34207e-12,0,-1.5909e-06,-3.40794e-12,0,0,-1.13775e-13,0,0,-6.75471,-0.241128,0.0877815,0,0,0,0,0,10.3953,-0.241128,145,14,145,14,206,14,145,66,0.108583,0.0953918,-9.23705e-07,-1.5,0,0,0,3,10.421,-0.155893,0,0,0,0,-1.45524,0.0956316,3172
1430,-3.34207e-12,0,-1.5909e-06,-3.40794e-12,0,-3.89417e-12,-1.13775e-13,0,0,-6.75471,-0.241128,0.0877815,0,0,0,0,0,10.3953,-0.241128,145,14,145,14,206,14,145,66,0.106582,0.0649558,-8.98117e-07,-1.5,0,0,0,3,10.4007,-0.154554,0,0,0,0,-1.45524,0.0956316,3172
1440,-3.34207e-12,0,-1.5909e-06,-3.40794e-12,0,0,-1.13776e-13,0,0,-6.75471,-0.241128,0.0877815,0,0,0,0,0,10.3953,-0.241128,145,14,145,14,206,14,145,66,0.104582,0.0345198,-8.73238e-07,-1.5,0,0,0,3,10.3803,-0.153216,0,0,0,0,-1.45524,0.0956316,3172
1450,-3.34207e-12,0,-1.5909e-06,-3.40794e-12,0,-3.89417e-12,-1.13776e-13,0,0,-6.75471,-0.241128,0.0877815,0,0,0,0,0,10.3953,-0.241128,145,14,145,14,206,14,145,66,0.102296,-0.000265634,-8.45617e-07,-1.5,0,0,0,3,10.357,-0.151686,0,0,0,0,-1.45524,0.0956316,3172
1460,-3.34207e-12,0,-1.5909e-06,-3.40794e-12,0,0,-1.13777e-13,0,0,-6.75471,-0.241128,0.0877815,0,0,0,0,0,10.3953,-0.241128,145,14,145,14,206,14,145,66,0.100153,-0.0328751,-8.20518e-07,-1.5,0,0,0,3,10.3352,-0.150251,0,0,0,0,-1.45524,0.0956316,3172
1470,-3.34207e-12,0,-1.5909e-06,-3.40794e-12,0,-3.89417e-12,-1.13777e-13,0,0,-6.75471,-0.241128,0.0877815,0,0,0,0,0,10.3953,-0.241128,145,14,145,14,206,14,145,66,0.0975819,-0.0720087,-7.91341e-07,-1.5,0,0,0,3,10.309,-0.14853,0,0,0,0,-1.45524,0.0956316,3172
1480,-3.34207e-12,0,-1.5909e-06,-3.40794e-12,0,0,-1.13784e-13,0,0,-6.75471,-0.241128,0.0877815,0,0,0,0,0,10.3953,-0.241128,145,14,145,14,206,14,145,66,0.095296,-0.106792,-7.66311e-07,-1.5,0,0,0,3,10.2857,-0.147,0,0,0,0,-1.45524,0.0956316,3172
1490,-3.34207e-12,0,-1.5909e-06,-3.40794e-12,0,-3.89417e-12,-1.13785e-13,0,0,-6.75471,-0.241128,0.0877815,0,0,0,0,0,10.3953,-0.241128,145,14,145,14,206,14,145,66,0.0930101,-0.141577,-7.42073e-07,-1.5,0,0,0,3,10.2624,-0.14547,0,0,0,0,-1.45524,0.0956316,3172
1500,-3.34207e-12,0,-1.5909e-06,-3.40794e-12,0,0,-1.13791e-13,0,0,-6.43656,-0.211406,0.0057861,0,0,0,0,0,9.87032,-0.211406,143,12,143,12,206,12,143,68,0.115039,-0.261799,-7.12771e-07,-1.5,0,0,0,3,10.1446,-0.153326,0,0,0,0,-1.53592,0.0877142,3528
1510,-3.34207e-12,0,-1.5909e-06,-3.40794e-12,0,-3.89417e-12,-1.13785e-13,0,0,-6.43656,-0.211406,0.0057861,0,0,0,0,0,9.87032,-0.211406,143,12,143,12,206,12,143,68,0.112681,-0.261799,-6.87406e-07,-1.5,0,0,0,3,10.117,-0.151747,0,0,0,0,-1.53592,0.0877142,3528
1520,-3.34207e-12,0,-1.5909e-06,-3.40794e-12,0,0,-1.13786e-13,0,0,-6.43656,-0.211406,0.0057861,0,0,0,0,0,9.87032,-0.211406,143,12,143,12,206,12,143,68,0.110584,-0.261799,-6.6565e-07,-1.5,0,0,0,3,10.0924,-0.150343,0,0,0,0,-1.53592,0.0877142,3528
1530,-3.34207e-12,0,-1.5909e-06,-3.40794e-12,0,-3.89417e-12,-1.13786e-13,0,0,-6.43656,-0.211406,0.0057861,0,0,0,0,0,9.87032,-0.211406,143,12,143,12,206,12,143,68,0.108487,-0.261799,-6.44595e-07,-1.5,0,0,0,3,10.0679,-0.14894,0,0,0,0,-1.53592,0.0877142,3528
1540,-3.34207e-12,0,-1.5909e-06,-3.40794e-12,0,0,-1.13794e-13,0,0,-6.56029,-0.215495,0.0561632,0,0,0,0,0,10.0745,-0.215495,144,11,144,11,205,11,144,67,0.127912,-0.261799,-6.19142e-07,-1.5,0,0,0,3,10.0084,-0.155028,0,0,0,0,-1.54236,0.0797683,3416
1550,-3.34207e-12,0,-1.5909e-06,-3.40794e-12,0,-3.89417e-12,-1.13792e-13,0,0,-6.56029,-0.215495,0.0561632,0,0,0,0,0,10.0745,-0.215495,144,11,144,11,205,11,144,67,0.125767,-0.261799,-5.97126e-07,-1.5,0,0,0,3,9.98066,-0.153592,0,0,0,0,-1.54236,0.0797683,3416
1560,-3.34207e-12,0,-1.5909e-06,-3.40794e-12,0,0,-1.13792e-13,0,0,-6.56029,-0.215495,0.0561632,0,0,0,0,0,10.0745,-0.215495,144,11,144,11,205,11,144,67,0.12386,-0.261799,-5.78239e-07,-1.5,0,0,0,3,9.95598,-0.152316,0,0,0,0,-1.54236,0.0797683,3416
1570,-3.34207e-12,0,-1.5909e-06,-3.40794e-12,0,-3.89417e-12,-1.13793e-13,0,0,-6.56029,-0.215495,0.0561632,0,0,0,0,0,10.0745,-0.215495,144,11,144,11,205,11,144,67,0.121715,-0.261799,-5.57662e-07,-1.5,0,0,0,3,9.92822,-0.15088,0,0,0,0,-1.54236,0.0797683,3416
1580,-3.34207e-12,0,-1.5909e-06,-3.40794e-12,0,0,-1.13787e-13,0,0,-6.56029,-0.215495,0.0561632,0,0,0,0,0,10.0745,-0.215495,144,11,144,11,205,11,144,67,0.119451,-0.261799,-5.36737e-07,-1.5,0,0,0,3,9.89892,-0.149364,0,0,0,0,-1.54236,0.0797683,3416
1590,-3.34207e-12,0,-1.5909e-06,-3.40794e-12,0,-3.89417e-12,-1.13788e-13,0,0,-6.56029,-0.215495,0.0561632,0,0,0,0,0,10.0745,-0.215495,144,11,144,11,205,11,144,67,0.117544,-0.261799,-5.1976e-07,-1.5,0,0,0,3,9.87424,-0.148088,0,0,0,0,-1.54236,0.0797683,3416
1600,-3.34207e-12,0,-1.5909e-06,-3.40794e-12,0,0,-1.13788e-13,0,0,-6.56029,-0.215495,0.0561632,0,0,0,0,0,10.0745,-0.215495,144,11,144,11,205,11,144,67,0.115876,-0.261799,-5.05362e-07,-1.5,0,0,0,3,9.85265,-0.146971,0,0,0,0,-1.54236,0.0797683,3416
1610,-3.34207e-12,0,-1.5909e-06,-3.40794e-12,0,-3.89417e-12,-1.13789e-13,0,0,-6.56029,-0.215495,0.0561632,0,0,0,0,0,10.0745,-0.215495,144,11,144,11,205,11,144,67,0.114088,-0.261799,-4.90362e-07,-1.5,0,0,0,3,9.82951,-0.145775,0,0,0,0,-1.54236,0.0797683,3416
1620,-3.34207e-12,0,-1.5909e-06,-3.40794e-12,0,0,-1.13798e-13,0,0,-6.47862,-0.212723,0.0356738,0,0,0,0,0,9.93973,-0.212723,142,13,142,13,207,13,142,65,0.235026,-0.261799,-4.70981e-07,-1.5,0,0,0,3,9.93338,-0.1976,0,0,0,0,-1.41226,0.0462988,3380
1630,-3.34207e-12,0,-1.5909e-06,-3.40794e-12,0,-3.89417e-12,-1.13789e-13,0,0,-6.47862,-0.212723,0.0356738,0,0,0,0,0,9.93973,-0.212723,142,13,142,13,207,13,142,65,0.233711,-0.261799,-4.53309e-07,-1.5,0,0,0,3,9.90655,-0.196721,0,0,0,0,-1.41226,0.0462988,3380
1640,-3.34207e-12,0,-1.5909e-06,-3.40794e-12,0,0,-1.1379e-13,0,0,-6.47862,-0.212723,0.0356738,0,0,0,0,0,9.93973,-0.212723,142,13,142,13,207,13,142,65,0.232605,-0.261799,-4.38971e-07,-1.5,0,0,0,3,9.88396,-0.19598,0,0,0,0,-1.41226,0.0462988,3380
1650,-3.34207e-12,0,-1.5909e-06,-3.40794e-12,0,-3.89417e-12,-1.1379e-13,0,0,-6.47862,-0.212723,0.0356738,0,0,0,0,0,9.93973,-0.212723,142,13,142,13,207,13,142,65,0.231567,-0.261799,-4.25941e-07,-1.5,0,0,0,3,9.86277,-0.195285,0,0,0,0,-1.41226,0.0462988,3380
1660,-3.34207e-12,0,-1.5909e-06,-3.40794e-12,0,0,-1.138e-13,0,0,-6.89567,-0.206797,0.143552,0,0,0,0,0,10.6279,-0.206797,144,13,144,13,203,13,144,65,0.240372,-0.261799,-4.07449e-07,-1.5,0,0,0,3,9.80356,-0.198875,0,0,0,0,-1.40457,0.0436513,3068
1670,-3.34207e-12,0,-1.5909e-06,-3.40794e-12,0,-3.89417e-12,-1.13799e-13,0,0,-6.89567,-0.206797,0.143552,0,0,0,0,0,10.6279,-0.206797,144,13,144,13,203,13,144,65,0.239133,-0.261799,-3.92961e-07,-1.5,0,0,0,3,9.77687,-0.198046,0,0,0,0,-1.40457,0.0436513,3068
1680,-3.34207e-12,0,-1.5909e-06,-3.40794e-12,0,0,-1.13799e-13,0,0,-6.89567,-0.206797,0.143552,0,0,0,0,0,10.6279,-0.206797,144,13,144,13,203,13,144,65,0.238155,-0.261799,-3.81297e-07,-1.5,0,0,0,3,9.7558,-0.197391,0,0,0,0,-1.40457,0.0436513,3068
1690,-3.34207e-12,0,-1.5909e-06,-3.40794e-12,0,-3.89417e-12,-1.13794e-13,0,0,-6.89571,-0.226493,0.143562,0,0,0,0,0,10.6279,-0.226493,145,13,145,13,204,13,145,65,0.247343,0.261799,-3.65528e-07,-1.5,0,0,0,3,10.6357,-0.201497,0,0,0,0,0.316216,0.0413017,3068
1700,-3.34207e-12,0,-1.5909e-06,-3.40794e-12,0,0,-1.138e-13,0,0,-6.89571,-0.226493,0.143562,0,0,0,0,0,10.6279,-0.226493,145,13,145,13,204,13,145,65,0.246294,0.261799,-3.53239e-07,-1.5,0,0,0,3,10.6411,-0.200795,0,0,0,0,0.316216,0.0413017,3068
1710,-3.34207e-12,0,-1.5909e-06,-3.40794e-12,0,-3.89417e-12,-1.13795e-13,0,0,-6.89571,-0.226493,0.143562,0,0,0,0,0,10.6279,-0.226493,145,13,145,13,204,13,145,65,0.245307,0.261799,-3.42059e-07,-1.5,0,0,0,3,10.6461,-0.200134,0,0,0,0,0.316216,0.0413017,3068
1720,-3.34207e-12,0,-1.5909e-06,-3.40794e-12,0,0,-1.13795e-13,0,0,-6.89571,-0.226493,0.143562,0,0,0,0,0,10.6279,-0.226493,145,13,145,13,204,13,145,65,0.24432,0.261799,-3.31233e-07,-1.5,0,0,0,3,10.6512,-0.199473,0,0,0,0,0.316216,0.0413017,3068
1730,-3.34207e-12,0,-1.5909e-06,-3.40794e-12,0,-3.89417e-12,-1.13796e-13,0,0,-6.89571,-0.226493,0.143562,0,0,0,0,0,10.6279,-0.226493,145,13,145,13,204,13,145,65,0.243333,0.261799,-3.20756e-07,-1.5,0,0,0,3,10.6562,-0.198812,0,0,0,0,0.316216,0.0413017,3068
1740,-3.34207e-12,0,-1.5909e-06,-3.40794e-12,0,0,-1.13796e-13,0,0,-6.89571,-0.226493,0.143562,0,0,0,0,0,10.6279,-0.226493,145,13,145,13,204,13,145,65,0.242099,0.261799,-3.08091e-07,-1.5,0,0,0,3,10.6626,-0.197986,0,0,0,0,0.316216,0.0413017,3068
1750,-3.34207e-12,0,-1.5909e-06,-3.40794e-12,0,-3.89417e-12,-1.13797e-13,0,0,-6.89571,-0.226493,0.143562,0,0,0,0,0,10.6279,-0.226493,145,13,145,13,204,13,145,65,0.241235,0.261799,-2.99556e-07,-1.5,0,0,0,3,10.667,-0.197408,0,0,0,0,0.316216,0.0413017,3068
1760,-3.34207e-12,0,-1.5909e-06,-3.40794e-12,0,0,-1.13797e-13,0,0,-6.89571,-0.226493,0.143562,0,0,0,0,0,10.6279,-0.226493,145,13,145,13,204,13,145,65,0.240371,0.261799,-2.91258e-07,-1.5,0,0,0,3,10.6714,-0.19683,0,0,0,0,0.316216,0.0413017,3068
1770,-3.34207e-12,0,-1.5909e-06,-3.40794e-12,0,-3.89417e-12,-1.13801e-13,0,0,-6.89571,-0.226493,0.143562,0,0,0,0,0,10.6279,-0.226493,145,13,145,13,204,13,145,65,0.239445,0.261799,-2.82613e-07,-1.5,0,0,0,3,10.6762,-0.196211,0,0,0,0,0.316216,0.0413017,3068
1780,-3.34207e-12,0,-1.5909e-06,-3.40794e-12,0,0,-1.13802e-13,0,0,-6.89571,-0.226493,0.143562,0,0,0,0,0,10.6279,-0.226493,145,13,145,13,204,13,145,65,0.238335,0.261799,-2.72564e-07,-1.5,0,0,0,3,10.6819,-0.195467,0,0,0,0,0.316216,0.0413017,3068
1790,-3.34207e-12,0,-1.5909e-06,-3.40794e-12,0,-3.89417e-12,-1.13802e-13,0,0,-6.89571,-0.226493,0.143562,0,0,0,0,0,10.6279,-0.226493,145,13,145,13,204,13,145,65,0.237348,0.261799,-2.63937e-07,-1.5,0,0,0,3,10.6869,-0.194806,0,0,0,0,0.316216,0.0413017,3068
1800,-3.34207e-12,0,-1.5909e-06,-3.40794e-12,0,0,-1.13803e-13,0,0,-6.89571,-0.226493,0.143562,0,0,0,0,0,10.6279,-0.226493,145,13,145,13,204,13,145,65,0.23636,0.261799,-2.55584e-07,-1.5,0,0,0,3,10.692,-0.194146,0,0,0,0,0.316216,0.0413017,3068
1810,-3.34207e-12,0,-1.5909e-06,-3.40794e-12,0,-3.89417e-12,-1.13803e-13,0,0,-6.89571,-0.226493,0.143562,0,0,0,0,0,10.6279,-0.226493,145,13,145,13,204,13,145,65,0.235373,0.261799,-2.47499e-07,-1.5,0,0,0,3,10.697,-0.193485,0,0,0,0,0.316216,0.0413017,3068
1820,-3.34207e-12,0,-1.5909e-06,-3.40794e-12,0,0,-1.13804e-13,0,0,-6.89571,-0.226493,0.143562,0,0,0,0,0,10.6279,-0.226493,145,13,145,13,204,13,145,65,0.234262,0.261799,-2.38699e-07,-1.5,0,0,0,3,10.7027,-0.192741,0,0,0,0,0.316216,0.0413017,3068
1830,-3.34207e-12,0,-1.5909e-06,-3.40794e-12,0,-3.89417e-12,-1.13804e-13,0,0,-6.89571,-0.226493,0.143562,0,0,0,0,0,10.6279,-0.226493,145,13,145,13,204,13,145,65,0.233275,0.261799,-2.31614e-07,-1.5,0,0,0,3,10.7078,-0.192081,0,0,0,0,0.316216,0.0413017,3068
1840,-3.34207e-12,0,-1.5909e-06,-3.40794e-12,0,0,-1.13805e-13,0,0,-6.89571,-0.226493,0.143562,0,0,0,0,0,10.6279,-0.226493,145,13,145,13,204,13,145,65,0.23235,0.261799,-2.24739e-07,-1.5,0,0,0,3,10.7125,-0.191461,0,0,0,0,0.316216,0.0413017,3068
1850,-3.34207e-12,0,-1.5909e-06,-3.40794e-12,0,-3.89417e-12,-1.1381e-13,0,0,-6.57145,-0.234571,0.0501433,0,0,0,0,0,10.0929,-0.234571,144,13,144,13,207,13,144,66,0.261799,-0.261799,-2.15878e-07,-1.5,0,0,0,3,9.6885,-0.204292,0,0,0,0,-1.11661,0.018779,3339
1860,-3.34207e-12,0,-1.5909e-06,-3.40794e-12,0,0,-1.13805e-13,0,0,-6.57145,-0.234571,0.0501433,0,0,0,0,0,10.0929,-0.234571,144,13,144,13,207,13,144,66,0.261799,-0.261799,-2.08202e-07,-1.5,0,0,0,3,9.6684,-0.203954,0,0,0,0,-1.11661,0.018779,3339
1870,-3.34207e-12,0,-1.5909e-06,-3.40794e-12,0,-3.89417e-12,-1.13806e-13,0,0,-6.57145,-0.234571,0.0501433,0,0,0,0,0,10.0929,-0.234571,144,13,144,13,207,13,144,66,0.261799,-0.261799,-2.01612e-07,-1.5,0,0,0,3,9.65054,-0.203653,0,0,0,0,-1.11661,0.018779,3339
1880,-3.34207e-12,0,-1.5909e-06,-3.40794e-12,0,0,-1.13806e-13,0,0,-6.57145,-0.234571,0.0501433,0,0,0,0,0,10.0929,-0.234571,144,13,144,13,207,13,144,66,0.261799,-0.261799,-1.95235e-07,-1.5,0,0,0,3,9.63267,-0.203353,0,0,0,0,-1.11661,0.018779,3339
1890,-3.34207e-12,0,-1.5909e-06,-3.40794e-12,0,-3.89417e-12,-1.1381e-13,0,0,-7.07423,-0.242449,0.190072,0,0,0,0,0,10.9225,-0.242449,146,14,146,14,204,14,146,64,0.261799,0.198817,-1.87919e-07,-1.5,0,0,0,3,10.0094,-0.215814,0,0,0,0,-0.902602,-0.00268501,2900
1900,-3.34207e-12,0,-1.5909e-06,-3.40794e-12,0,0,-1.13807e-13,0,0,-7.07423,-0.242449,0.190072,0,0,0,0,0,10.9225,-0.242449,146,14,146,14,204,14,146,64,0.261799,0.174545,-1.81237e-07,-1.5,0,0,0,3,9.99314,-0.215862,0,0,0,0,-0.902602,-0.00268501,2900
1910,-3.34207e-12,0,-1.5909e-06,-3.40794e-12,0,-3.89417e-12,-1.13808e-13,0,0,-7.07423,-0.242449,0.190072,0,0,0,0,0,10.9225,-0.242449,146,14,146,14,204,14,146,64,0.261799,0.152971,-1.75504e-07,-1.5,0,0,0,3,9.9787,-0.215905,0,0,0,0,-0.902602,-0.00268501,2900
1920,-3.34207e-12,0,-1.5909e-06,-3.40794e-12,0,0,-1.13808e-13,0,0,-7.07423,-0.242449,0.190072,0,0,0,0,0,10.9225,-0.242449,146,14,146,14,204,14,146,64,0.261799,0.134093,-1.70642e-07,-1.5,0,0,0,3,9.96606,-0.215942,0,0,0,0,-0.902602,-0.00268501,2900
1930,-3.34207e-12,0,-1.5909e-06,-3.40794e-12,0,-3.89417e-12,-1.13809e-13,0,0,-7.07423,-0.242449,0.190072,0,0,0,0,0,10.9225,-0.242449,146,14,146,14,204,14,146,64,0.261799,0.116563,-1.66249e-07,-1.5,0,0,0,3,9.95433,-0.215977,0,0,0,0,-0.902602,-0.00268501,2900
1940,-3.34207e-12,0,-1.5909e-06,-3.40794e-12,0,0,-1.13811e-13,0,0,-7.07423,-0.242449,0.190072,0,0,0,0,0,10.9225,-0.242449,146,14,146,14,204,14,146,64,0.261799,0.092292,-1.60338e-07,-1.5,0,0,0,3,9.93808,-0.216026,0,0,0,0,-0.902602,-0.00268501,2900
1950,-3.34207e-12,0,-1.5909e-06,-3.40794e-12,0,-3.89417e-12,-1.13811e-13,0,0,-7.07423,-0.242449,0.190072,0,0,0,0,0,10.9225,-0.242449,146,14,146,14,204,14,146,64,0.261799,0.0707156,-1.55263e-07,-1.5,0,0,0,3,9.92364,-0.216069,0,0,0,0,-0.902602,-0.00268501,2900
1960,-3.34207e-12,0,-1.5909e-06,-3.40794e-12,0,0,-1.13812e-13,0,0,-7.07423,-0.242449,0.190072,0,0,0,0,0,10.9225,-0.242449,146,14,146,14,204,14,146,64,0.261799,-0.066828,-1.24068e-07,-1.5,0,0,0,3,9.83158,-0.216343,0,0,0,0,-0.902602,-0.00268501,2900
1970,-3.34207e-12,0,-1.5909e-06,-3.40794e-12,0,-3.89417e-12,-1.13812e-13,0,0,-7.07423,-0.242449,0.190072,0,0,0,0,0,10.9225,-0.242449,146,14,146,14,204,14,146,64,0.261799,-0.100538,-1.17951e-07,-1.5,0,0,0,3,9.80901,-0.21641,0,0,0,0,-0.902602,-0.00268501,2900
1980,-3.34207e-12,0,-1.5909e-06,-3.40794e-12,0,0,-1.13813e-13,0,0,-7.07423,-0.242449,0.190072,0,0,0,0,0,10.9225,-0.242449,146,14,146,14,204,14,146,64,0.261799,-0.122115,-1.14218e-07,-1.5,0,0,0,3,9.79457,-0.216453,0,0,0,0,-0.902602,-0.00268501,2900
1990,-3.34207e-12,0,-1.5909e-06,-3.40794e-12,0,-3.89417e-12,-1.13813e-13,0,0,-7.07423,-0.242449,0.190072,0,0,0,0,0,10.9225,-0.242449,146,14,146,14,204,14,146,64,0.261799,-0.143689,-1.10605e-07,-1.5,0,0,0,3,9.78013,-0.216496,0,0,0,0,-0.902602,-0.00268501,2900
2000,-3.34207e-12,0,-1.5909e-06,-3.40794e-12,0,0,-1.13814e-13,0,0,-7.07423,-0.242449,0.190072,0,0,0,0,0,10.9225,-0.242449,146,14,146,14,204,14,146,64,0.261799,-0.165264,-1.07107e-07,-1.5,0,0,0,3,9.76569,-0.216539,0,0,0,0,-0.902602,-0.00268501,2900
2010,-3.34207e-12,0,-1.5909e-06,-3.40794e-12,0,-3.89417e-12,-1.13814e-13,0,0,-7.07423,-0.242449,0.190072,0,0,0,0,0,10.9225,-0.242449,146,14,146,14,204,14,146,64,0.261799,-0.186838,-1.03717e-07,-1.5,0,0,0,3,9.75125,-0.216582,0,0,0,0,-0.902602,-0.00268501,2900
2020,-3.34207e-12,0,-1.5909e-06,-3.40794e-12,0,0,-1.13815e-13,0,0,-7.07423,-0.242449,0.190072,0,0,0,0,0,10.9225,-0.242449,146,14,146,14,204,14,146,64,0.261799,-0.208414,-1.00638e-07,-1.5,0,0,0,3,9.73681,-0.216624,0,0,0,0,-0.902602,-0.00268501,2900
2030,-3.34207e-12,0,-1.5909e-06,-3.40794e-12,0,-3.89417e-12,-1.13816e-13,0,0,-7.07423,-0.242449,0.190072,0,0,0,0,0,10.9225,-0.242449,146,14,146,14,204,14,146,64,0.261799,-0.229988,-9.7453e-08,-1.5,0,0,0,3,9.72237,-0.216667,0,0,0,0,-0.902602,-0.00268501,2900
2040,-3.34207e-12,0,-1.5909e-06,-3.40794e-12,0,0,-1.13816e-13,0,0,-7.07423,-0.242449,0.190072,0,0,0,0,0,10.9225,-0.242449,146,14,146,14,204,14,146,64,0.261799,-0.251563,-9.43706e-08,-1.5,0,0,0,3,9.70792,-0.21671,0,0,0,0,-0.902602,-0.00268501,2900
2050,-3.34207e-12,0,-1.5909e-06,-3.40794e-12,0,-3.89417e-12,-1.13817e-13,0,0,-7.07423,-0.242449,0.190072,0,0,0,0,0,10.9225,-0.242449,146,14,146,14,204,14,146,64,0.261799,-0.261799,-9.10149e-08,-1.5,0,0,0,3,9.69168,-0.216759,0,0,0,0,-0.902602,-0.00268501,2900
2060,-3.34207e-12,0,-1.5909e-06,-3.40794e-12,0,0,-1.13817e-13,0,0,-7.07423,-0.242449,0.190072,0,0,0,0,0,10.9225,-0.242449,146,14,146,14,204,14,146,64,0.261799,-0.261799,-8.81361e-08,-1.5,0,0,0,3,9.67724,-0.216802,0,0,0,0,-0.902602,-0.00268501,2900
2070,-3.34207e-12,0,-1.5909e-06,-3.40794e-12,0,-3.89417e-12,-1.13818e-13,0,0,-7.07423,-0.242449,0.190072,0,0,0,0,0,10.9225,-0.242449,146,14,146,14,204,14,146,64,0.261799,-0.261799,-8.53484e-08,-1.5,0,0,0,3,9.6628,-0.216845,0,0,0,0,-0.902602,-0.00268501,2900
2080,-3.34207e-12,0,-1.5909e-06,-3.40794e-12,0,0,-1.13818e-13,0,0,-7.07423,-0.242449,0.190072,0,0,0,0,0,10.9225,-0.242449,146,14,146,14,204,14,146,64,0.261799,-0.261799,-8.3151e-08,-1.5,0,0,0,3,9.65106,-0.21688,0,0,0,0,-0.902602,-0.00268501,2900
2090,-3.34207e-12,0,-1.5909e-06,-3.40794e-12,0,-3.89417e-12,-1.13819e-13,0,0,-7.07423,-0.242449,0.190072,0,0,0,0,0,10.9225,-0.242449,146,14,146,14,204,14,146,64,0.261799,-0.261799,-8.03557e-08,-1.5,0,0,0,3,9.63572,-0.216925,0,0,0,0,-0.902602,-0.00268501,2900
2100,-3.34207e-12,0,-1.5909e-06,-3.40794e-12,0,0,-1.13819e-13,0,0,-7.07423,-0.242449,0.190072,0,0,0,0,0,10.9225,-0.242449,146,14,146,14,204,14,146,64,0.261799,-0.261799,-7.78125e-08,-1.5,0,0,0,3,9.62128,-0.216968,0,0,0,0,-0.902602,-0.00268501,2900
2110,-3.34207e-12,0,-1.5909e-06,-3.40794e-12,0,-3.89417e-12,-1.1382e-13,0,0,-7.07423,-0.242449,0.190072,0,0,0,0,0,10.9225,-0.242449,146,14,146,14,204,14,146,64,0.261799,-0.261799,-7.53497e-08,-1.5,0,0,0,3,9.60684,-0.217011,0,0,0,0,-0.902602,-0.00268501,2900
2120,-3.34207e-12,0,-1.5909e-06,-3.40794e-12,0,0,-1.13821e-13,0,0,-6.70578,-0.200985,0.0760612,0,0,0,0,0,10.3145,-0.200985,141,17,141,17,206,17,141,63,0.261799,0.261799,-7.23744e-08,-1.5,0,0,0,3,10.3091,-0.263154,0,0,0,0,-0.309345,-0.0523357,2990
2130,-3.34207e-12,0,-1.5909e-06,-3.40794e-12,0,-3.89417e-12,-1.1382e-13,0,0,-6.70578,-0.200985,0.0760612,0,0,0,0,0,10.3145,-0.200985,141,17,141,17,206,17,141,63,0.261799,0.261799,-6.98008e-08,-1.5,0,0,0,3,10.3035,-0.264096,0,0,0,0,-0.309345,-0.0523357,2990
2140,-3.34207e-12,0,-1.5909e-06,-3.40794e-12,0,0,-1.13822e-13,0,0,-6.70578,-0.200985,0.0760612,0,0,0,0,0,10.3145,-0.200985,141,17,141,17,206,17,141,63,0.261799,0.261799,-6.7593e-08,-1.5,0,0,0,3,10.2986,-0.264934,0,0,0,0,-0.309345,-0.0523357,2990
2150,-3.34207e-12,0,-1.5909e-06,-3.40794e-12,0,-3.89417e-12,-1.13822e-13,0,0,-6.70578,-0.200985,0.0760612,0,0,0,0,0,10.3145,-0.200985,141,17,141,17,206,17,141,63,0.261799,0.261799,-6.54551e-08,-1.5,0,0,0,3,10.2936,-0.265771,0,0,0,0,-0.309345,-0.0523357,2990
2160,-3.34207e-12,0,-1.5909e-06,-3.40794e-12,0,0,-1.13824e-13,0,0,-6.93943,-0.188235,0.15548,0,0,0,0,0,10.7001,-0.188235,142,15,142,15,203,15,142,63,0.261799,0.261799,-6.27442e-08,-1.5,0,0,0,3,10.3203,-0.232917,0,0,0,0,-0.251387,-0.0198522,2928
2170,-3.34207e-12,0,-1.5909e-06,-3.40794e-12,0,-3.89417e-12,-1.13823e-13,0,0,-6.93943,-0.188235,0.15548,0,0,0,0,0,10.7001,-0.188235,142,15,142,15,203,15,142,63,0.261799,0.261799,-6.03899e-08,-1.5,0,0,0,3,10.3155,-0.233294,0,0,0,0,-0.251387,-0.0198522,2928
2180,-3.34207e-12,0,-1.5909e-06,-3.40794e-12,0,0,-1.13824e-13,0,0,-6.93943,-0.188235,0.15548,0,0,0,0,0,10.7001,-0.188235,142,15,142,15,203,15,142,63,0.261799,0.261799,-5.84785e-08,-1.5,0,0,0,3,10.3115,-0.233612,0,0,0,0,-0.251387,-0.0198522,2928
2190,-3.34207e-12,0,-1.5909e-06,-3.40794e-12,0,-3.89417e-12,-1.13825e-13,0,0,-6.93943,-0.188235,0.15548,0,0,0,0,0,10.7001,-0.188235,142,15,142,15,203,15,142,63,0.261799,0.261799,-5.66289e-08,-1.5,0,0,0,3,10.3075,-0.23393,0,0,0,0,-0.251387,-0.0198522,2928
2200,-3.34207e-12,0,-1.5909e-06,-3.40794e-12,0,0,-1.13825e-13,0,0,-6.93943,-0.188235,0.15548,0,0,0,0,0,10.7001,-0.188235,142,15,142,15,203,15,142,63,0.261799,0.261799,-5.46152e-08,-1.5,0,0,0,3,10.3029,-0.234287,0,0,0,0,-0.251387,-0.0198522,2928
2210,-3.34207e-12,0,-1.5909e-06,-3.40794e-12,0,-3.89417e-12,-1.13826e-13,0,0,-6.93943,-0.188235,0.15548,0,0,0,0,0,10.7001,-0.188235,142,15,142,15,203,15,142,63,0.261799,0.261799,-5.28877e-08,-1.5,0,0,0,3,10.2989,-0.234604,0,0,0,0,-0.251387,-0.0198522,2928
2220,-3.34207e-12,0,-1.5909e-06,-3.40794e-12,0,0,-1.13826e-13,0,0,-6.93943,-0.188235,0.15548,0,0,0,0,0,10.7001,-0.188235,142,15,142,15,203,15,142,63,0.261799,0.261799,-5.12149e-08,-1.5,0,0,0,3,10.2949,-0.234922,0,0,0,0,-0.251387,-0.0198522,2928
2230,-3.34207e-12,0,-1.5909e-06,-3.40794e-12,0,-3.89417e-12,-1.13827e-13,0,0,-6.93943,-0.188235,0.15548,0,0,0,0,0,10.7001,-0.188235,142,15,142,15,203,15,142,63,0.261799,0.261799,-4.93924e-08,-1.5,0,0,0,3,10.2904,-0.235279,0,0,0,0,-0.251387,-0.0198522,2928
2240,-3.34207e-12,0,-1.5909e-06,-3.40794e-12,0,0,-1.13828e-13,0,0,-6.93943,-0.188235,0.15548,0,0,0,0,0,10.7001,-0.188235,142,15,142,15,203,15,142,63,0.261799,0.261799,-4.7636e-08,-1.5,0,0,0,3,10.2858,-0.235637,0,0,0,0,-0.251387,-0.0198522,2928
2250,-3.34207e-12,0,-1.5909e-06,-3.40794e-12,0,-3.89417e-12,-1.13828e-13,0,0,-6.93943,-0.188235,0.15548,0,0,0,0,0,10.7001,-0.188235,142,15,142,15,203,15,142,63,0.261799,0.261799,-4.63165e-08,-1.5,0,0,0,3,10.2823,-0.235915,0,0,0,0,-0.251387,-0.0198522,2928
2260,-3.34207e-12,0,-1.5909e-06,-3.40794e-12,0,0,-1.13829e-13,0,0,-6.93943,-0.188235,0.15548,0,0,0,0,0,10.7001,-0.188235,142,15,142,15,203,15,142,63,0.261799,0.261799,-4.48515e-08,-1.5,0,0,0,3,10.2783,-0.236232,0,0,0,0,-0.251387,-0.0198522,2928
2270,-3.34207e-12,0,-1.5909e-06,-3.40794e-12,0,-3.89417e-12,-1.13829e-13,0,0,-6.93943,-0.188235,0.15548,0,0,0,0,0,10.7001,-0.188235,142,15,142,15,203,15,142,63,0.261799,0.261799,-4.34328e-08,-1.5,0,0,0,3,10.2743,-0.23655,0,0,0,0,-0.251387,-0.0198522,2928
2280,-3.34207e-12,0,-1.5909e-06,-3.40794e-12,0,0,-1.1383e-13,0,0,-6.93943,-0.188235,0.15548,0,0,0,0,0,10.7001,-0.188235,142,15,142,15,203,15,142,63,0.261799,0.261799,-4.19737e-08,-1.5,0,0,0,3,10.27,-0.236887,0,0,0,0,-0.251387,-0.0198522,2928
2290,-3.34207e-12,0,-1.5909e-06,-3.40794e-12,0,-3.89417e-12,-1.1383e-13,0,0,-6.93943,-0.188235,0.15548,0,0,0,0,0,10.7001,-0.188235,142,15,142,15,203,15,142,63,0.261799,0.261799,-4.06453e-08,-1.5,0,0,0,3,10.266,-0.237205,0,0,0,0,-0.251387,-0.0198522,2928
2300,-3.34207e-12,0,-1.5909e-06,-3.40794e-12,0,0,-1.13831e-13,0,0,-6.93943,-0.188235,0.15548,0,0,0,0,0,10.7001,-0.188235,142,15,142,15,203,15,142,63,0.261799,0.261799,-3.93596e-08,-1.5,0,0,0,3,10.262,-0.237523,0,0,0,0,-0.251387,-0.0198522,2928
2310,-3.34207e-12,0,-1.5909e-06,-3.40794e-12,0,-3.89417e-12,-1.13831e-13,0,0,-6.93943,-0.188235,0.15548,0,0,0,0,0,10.7001,-0.188235,142,15,142,15,203,15,142,63,0.261799,0.261799,-3.81147e-08,-1.5,0,0,0,3,10.2579,-0.23784,0,0,0,0,-0.251387,-0.0198522,2928
2320,-3.34207e-12,0,-1.5909e-06,-3.40794e-12,0,0,-1.13832e-13,0,0,-6.93943,-0.188235,0.15548,0,0,0,0,0,10.7001,-0.188235,142,15,142,15,203,15,142,63,0.261799,0.261799,-3.68333e-08,-1.5,0,0,0,3,10.2537,-0.238178,0,0,0,0,-0.251387,-0.0198522,2928
2330,-3.34207e-12,0,-1.5909e-06,-3.40794e-12,0,-3.89417e-12,-1.13832e-13,0,0,-6.93943,-0.188235,0.15548,0,0,0,0,0,10.7001,-0.188235,142,15,142,15,203,15,142,63,0.261799,0.261799,-3.56676e-08,-1.5,0,0,0,3,10.2497,-0.238495,0,0,0,0,-0.251387,-0.0198522,2928
2340,-3.34207e-12,0,-1.5909e-06,-3.40794e-12,0,0,-1.13833e-13,0,0,-6.93943,-0.188235,0.15548,0,0,0,0,0,10.7001,-0.188235,142,15,142,15,203,15,142,63,0.261799,0.261799,-3.45387e-08,-1.5,0,0,0,3,10.2456,-0.238813,0,0,0,0,-0.251387,-0.0198522,2928
2350,-3.34207e-12,0,-1.5909e-06,-3.40794e-12,0,-3.89417e-12,-1.13834e-13,0,0,-6.93943,-0.188235,0.15548,0,0,0,0,0,10.7001,-0.188235,142,15,142,15,203,15,142,63,0.261799,0.261799,-3.34462e-08,-1.5,0,0,0,3,10.2416,-0.239131,0,0,0,0,-0.251387,-0.0198522,2928
2360,-3.34207e-12,0,-1.5909e-06,-3.40794e-12,0,0,-1.13834e-13,0,0,-6.93943,-0.188235,0.15548,0,0,0,0,0,10.7001,-0.188235,142,15,142,15,203,15,142,63,0.261799,0.261799,-3.23883e-08,-1.5,0,0,0,3,10.2376,-0.239448,0,0,0,0,-0.251387,-0.0198522,2928
2370,-3.34207e-12,0,-1.5909e-06,-3.40794e-12,0,-3.89417e-12,-1.13835e-13,0,0,-6.93943,-0.188235,0.15548,0,0,0,0,0,10.7001,-0.188235,142,15,142,15,203,15,142,63,0.261799,0.261799,-3.13633e-08,-1.5,0,0,0,3,10.2336,-0.239766,0,0,0,0,-0.251387,-0.0198522,2928
2380,-3.34207e-12,0,-1.5909e-06,-3.40794e-12,0,0,-1.13835e-13,0,0,-6.93943,-0.188235,0.15548,0,0,0,0,0,10.7001,-0.188235,142,15,142,15,203,15,142,63,0.261799,0.261799,-3.03712e-08,-1.5,0,0,0,3,10.2295,-0.240083,0,0,0,0,-0.251387,-0.0198522,2928
2390,-3.34207e-12,0,-1.5909e-06,-3.40794e-12,0,-3.89417e-12,-1.13836e-13,0,0,-6.93943,-0.188235,0.15548,0,0,0,0,0,10.7001,-0.188235,142,15,142,15,203,15,142,63,0.261799,0.261799,-2.94698e-08,-1.5,0,0,0,3,10.2255,-0.240401,0,0,0,0,-0.251387,-0.0198522,2928
2400,-3.34207e-12,0,-1.5909e-06,-3.40794e-12,0,0,-1.13836e-13,0,0,-6.93943,-0.188235,0.15548,0,0,0,0,0,10.7001,-0.188235,142,15,142,15,203,15,142,63,0.261799,0.261799,-2.85376e-08,-1.5,0,0,0,3,10.2215,-0.240719,0,0,0,0,-0.251387,-0.0198522,2928
2410,-3.34207e-12,0,-1.5909e-06,-3.40794e-12,0,-3.89417e-12,-1.13837e-13,0,0,-6.93943,-0.188235,0.15548,0,0,0,0,0,10.7001,-0.188235,142,15,142,15,203,15,142,63,0.261799,0.261799,-2.77471e-08,-1.5,0,0,0,3,10.218,-0.240997,0,0,0,0,-0.251387,-0.0198522,2928
2420,-3.34207e-12,0,-1.5909e-06,-3.40794e-12,0,0,-1.13837e-13,0,0,-6.93943,-0.188235,0.15548,0,0,0,0,0,10.7001,-0.188235,142,15,142,15,203,15,142,63,0.261799,0.261799,-2.69785e-08,-1.5,0,0,0,3,10.2145,-0.241275,0,0,0,0,-0.251387,-0.0198522,2928
2430,-3.34207e-12,0,-1.5909e-06,-3.40794e-12,0,-3.89417e-12,-1.13838e-13,0,0,-6.93943,-0.188235,0.15548,0,0,0,0,0,10.7001,-0.188235,142,15,142,15,203,15,142,63,0.261799,0.261799,-2.61251e-08,-1.5,0,0,0,3,10.2104,-0.241592,0,0,0,0,-0.251387,-0.0198522,2928
2440,-3.34207e-12,0,-1.5909e-06,-3.40794e-12,0,0,-1.13838e-13,0,0,-6.93943,-0.188235,0.15548,0,0,0,0,0,10.7001,-0.188235,142,15,142,15,203,15,142,63,0.261799,0.261799,-2.53497e-08,-1.5,0,0,0,3,10.2067,-0.24189,0,0,0,0,-0.251387,-0.0198522,2928
2450,-3.34207e-12,0,-1.5909e-06,-3.40794e-12,0,-3.89417e-12,-1.13839e-13,0,0,-6.93943,-0.188235,0.15548,0,0,0,0,0,10.7001,-0.188235,142,15,142,15,203,15,142,63,0.261799,0.261799,-2.44981e-08,-1.5,0,0,0,3,10.2021,-0.242247,0,0,0,0,-0.251387,-0.0198522,2928
2460,-3.34207e-12,0,-1.5909e-06,-3.40794e-12,0,0,-1.13839e-13,0,0,-6.93943,-0.188235,0.15548,10.1981,-0.242565,-0.250634,-0.0197927,0,10.7001,-0.188235,142,15,142,15,203,15,142,63,0.261799,0.261799,-2.37232e-08,-1.5,0,0,0,3,10.1981,-0.242565,0,0,0,0,-0.250634,-0.0197927,2928
2470,-3.34207e-12,0,-1.5909e-06,-3.40794e-12,0,-3.89417e-12,-1.1384e-13,0,0,-6.93943,-0.188235,0.15548,10.1941,-0.24288,-0.248635,-0.0196348,0,10.7001,-0.188235,142,15,142,15,203,15,142,63,0.261799,0.261799,-2.29729e-08,-1.5,0,0,0,3,10.1941,-0.24288,0,0,0,0,-0.248635,-0.0196348,2928
2480,-3.34207e-12,0,-1.5909e-06,-3.40794e-12,0,0,-1.13841e-13,0,0,-6.93943,-0.188235,0.15548,10.1904,-0.243173,-0.246775,-0.019488,0,10.7001,-0.188235,142,15,142,15,203,15,142,63,0.261799,0.261799,-2.2291e-08,-1.5,0,0,0,3,10.1904,-0.243173,0,0,0,0,-0.246775,-0.019488,2928
