timestamp,A_x,A_y,A_z,P,Q,R,Phi,Theta,Psi,poseX,poseY,poseZ,state_X,state_Y,state_Z,state_VzB,state_Bx,state_By,state_Bz,p1_x,p1_y,p2_x,p2_y,p3_x,p3_y,p4_x,p4_y,roll,pitch,yaw,alt,targetHeading,highLevelState,lowLevelState,gateNumber,filtered_x,filtered_y,x_OT,y_OT,vx_OT,vy_OT,filtered_vx,filtered_vygateArea
10,0,0,0,0,0,0,0,0,0,0,0,0,0,0,0,0,0,0,0,0,0,0,0,0,0,0,0,0,-0.261799,0.00623302,-1.5,1.81796e+31,0,0,3,0,0,0,0,0,0,0,0,1.9603e-19
20,0,0,0,0,0,0,0,0,0,0,0,0,0,0,0,0,0,0,0,0,0,0,0,0,0,0,0,0,-0.261799,0.00599914,-1.5,1.81796e+31,0,0,3,0,0,0,0,0,0,0,0,1.9603e-19
30,-3.11558e-12,6.86234e-38,-1.52571e-06,-3.18057e-12,6.86186e-38,-3.62841e-12,-1.06589e-13,0,0,0,0,0,0,0,0,0,0,0,0,0,0,0,0,0,0,0,0,0,-0.261799,-0.00128443,-1.5,1.81796e+31,0,0,3,0,0,0,0,0,0,0,0,1.9603e-19
40,-3.11558e-12,6.86234e-38,-1.52571e-06,-3.18057e-12,6.86186e-38,0,-1.0659e-13,0,0,0,0,0,0,0,0,0,0,0,0,0,0,0,0,0,0,0,0,0,-0.261799,-0.00124128,-1.5,1.81796e+31,0,0,3,0,0,0,0,0,0,0,0,1.9603e-19
50,-3.11558e-12,6.86234e-38,-1.52571e-06,-3.18057e-12,6.86186e-38,-3.62841e-12,-1.0659e-13,0,0,0,0,0,0,0,0,0,0,0,0,0,0,0,0,0,0,0,0,0,-0.261799,-0.00119958,-1.5,1.81796e+31,0,0,3,0,0,0,0,0,0,0,0,1.9603e-19
60,-3.11558e-12,6.86234e-38,-1.52571e-06,-3.18057e-12,6.86186e-38,0,-1.0659e-13,0,0,0,0,0,0,0,0,0,0,0,0,0,0,0,0,0,0,0,0,0,-0.261799,-0.00115925,-1.5,1.81796e+31,0,0,3,0,0,0,0,0,0,0,0,1.9603e-19
70,-3.11558e-12,6.86234e-38,-1.52571e-06,-3.18057e-12,6.86186e-38,-3.62841e-12,-1.0659e-13,0,0,0,0,0,0,0,0,0,0,0,0,0,0,0,0,0,0,0,0,0,-0.261799,-0.00112031,-1.5,1.81796e+31,0,0,3,0,0,0,0,0,0,0,0,1.9603e-19
80,-3.11558e-12,6.86234e-38,-1.52571e-06,-3.18057e-12,6.86186e-38,0,-1.06591e-13,0,0,0,0,0,0,0,0,0,0,0,0,0,0,0,0,0,0,0,0,0,-0.261799,-0.00108044,-1.5,1.81796e+31,0,0,3,0,0,0,0,0,0,0,0,1.9603e-19
90,-3.11558e-12,6.86234e-38,-1.52571e-06,-3.18057e-12,6.86186e-38,-3.62841e-12,-1.06591e-13,0,0,0,0,0,0,0,0,0,0,0,0,0,0,0,0,0,0,0,0,0,-0.261799,-0.00104414,-1.5,1.81796e+31,0,0,3,0,0,0,0,0,0,0,0,1.9603e-19
100,-3.11558e-12,6.86234e-38,-1.52571e-06,-3.18057e-12,6.86186e-38,0,-1.06591e-13,0,0,0,0,0,0,0,0,0,0,0,0,0,0,0,0,0,0,0,0,0,-0.261799,-0.0010111,-1.5,1.81796e+31,0,0,3,0,0,0,0,0,0,0,0,1.9603e-19
110,-3.11558e-12,6.86234e-38,-1.52571e-06,-3.18057e-12,6.86186e-38,-3.62841e-12,-1.06591e-13,0,0,0,0,0,0,0,0,0,0,0,0,0,0,0,0,0,0,0,0,0,-0.261799,-0.000933325,-1.5,1.81796e+31,0,0,3,0,0,0,0,0,0,0,0,1.9603e-19
120,-3.11558e-12,6.86234e-38,-1.52571e-06,-3.18057e-12,6.86186e-38,0,-1.06592e-13,0,0,0,0,0,0,0,0,0,0,0,0,0,0,0,0,0,0,0,0,0,-0.261799,-0.000876231,-1.5,1.81796e+31,0,0,3,0,0,0,0,0,0,0,0,1.9603e-19
130,-3.11558e-12,6.86234e-38,-1.52571e-06,-3.18057e-12,6.86186e-38,-3.62841e-12,-1.06592e-13,0,0,0,0,0,0,0,0,0,0,0,0,0,0,0,0,0,0,0,0,0,-0.261799,-0.000696734,-1.5,1.81796e+31,0,0,3,0,0,0,0,0,0,0,0,1.9603e-19
140,-3.11558e-12,6.86234e-38,-1.52571e-06,-3.18057e-12,6.86186e-38,0,-1.06592e-13,0,0,0,0,0,0,0,0,0,0,0,0,0,0,0,0,0,0,0,0,0,-0.261799,-0.000614345,-1.5,1.81796e+31,0,0,3,0,0,0,0,0,0,0,0,1.9603e-19
150,-3.11558e-12,6.86234e-38,-1.52571e-06,-3.18057e-12,6.86186e-38,-3.62841e-12,-1.06593e-13,0,0,0,0,0,0,0,0,0,0,0,0,0,0,0,0,0,0,0,0,0,-0.261799,-0.000555092,-1.5,1.81796e+31,0,0,3,0,0,0,0,0,0,0,0,1.9603e-19
160,-3.11558e-12,6.86234e-38,-1.52571e-06,-3.18057e-12,6.86186e-38,0,-1.06593e-13,0,0,0,0,0,0,0,0,0,0,0,0,0,0,0,0,0,0,0,0,0,-0.261799,-0.000530992,-1.5,1.81796e+31,0,0,3,0,0,0,0,0,0,0,0,1.9603e-19
170,-3.11558e-12,6.86234e-38,-1.52571e-06,-3.18057e-12,6.86186e-38,-3.62841e-12,-1.06593e-13,0,0,0,0,0,0,0,0,0,0,0,0,0,0,0,0,0,0,0,0,0,-0.261799,-0.000503735,-1.5,1.81796e+31,0,0,3,0,0,0,0,0,0,0,0,1.9603e-19
180,-3.11558e-12,6.86234e-38,-1.52571e-06,-3.18057e-12,6.86186e-38,0,-1.06593e-13,0,0,0,0,0,0,0,0,0,0,0,0,0,0,0,0,0,0,0,0,0,-0.261799,-0.000466034,-1.5,1.81796e+31,0,0,3,0,0,0,0,0,0,0,0,1.9603e-19
190,-3.11558e-12,6.86234e-38,-1.52571e-06,-3.18057e-12,6.86186e-38,-3.62841e-12,-1.06594e-13,0,0,0,0,0,0,0,0,0,0,0,0,0,0,0,0,0,0,0,0,0,-0.261799,-0.000450367,-1.5,1.81796e+31,0,0,3,0,0,0,0,0,0,0,0,1.9603e-19
200,-3.11558e-12,6.86234e-38,-1.52571e-06,-3.18057e-12,6.86186e-38,0,-1.06594e-13,0,0,0,0,0,0,0,0,0,0,0,0,0,0,0,0,0,0,0,0,0,-0.261799,-0.000435227,-1.5,1.81796e+31,0,0,3,0,0,0,0,0,0,0,0,1.9603e-19
210,-3.11558e-12,6.86234e-38,-1.52571e-06,-3.18057e-12,6.86186e-38,-3.62841e-12,-1.06594e-13,0,0,0,0,0,0,0,0,0,0,0,0,0,0,0,0,0,0,0,0,0,-0.261799,-0.000414599,-1.5,1.81796e+31,0,0,3,0,0,0,0,0,0,0,0,1.9603e-19
220,-3.11558e-12,6.86234e-38,-1.52571e-06,-3.18057e-12,6.86186e-38,0,-1.06594e-13,0,0,-8.10378,0.254724,0.236758,0,0,0,0,0,-0.449078,0.254724,129,24,129,24,175,24,129,73,0,-0.261799,-0.000371353,-1.5,1.81796e+31,0,0,3,0,0,0,0,0,0,0,0,2254
230,-3.11558e-12,6.86234e-38,-1.52571e-06,-3.18057e-12,6.86186e-38,-3.62841e-12,-1.06595e-13,0,0,-8.10378,0.254724,0.236758,0,0,0,0,0,-0.449078,0.254724,129,24,129,24,175,24,129,73,0,-0.261799,-0.000359607,-1.5,1.81796e+31,0,0,3,0,0,0,0,0,0,0,0,2254
240,-3.11558e-12,6.86234e-38,-1.52571e-06,-3.18057e-12,6.86186e-38,0,-1.06595e-13,0,0,-7.77686,0.24445,0.182849,0,0,0,0,0,-0.287584,0.24445,128,22,128,22,176,22,128,73,0,-0.261799,-0.000347527,-1.5,1.81796e+31,0,0,3,0,0,0,0,0,0,0,0,2448
250,-3.11558e-12,6.86234e-38,-1.52571e-06,-3.18057e-12,6.86186e-38,-3.62841e-12,-1.06595e-13,0,0,-7.77686,0.24445,0.182849,0,0,0,0,0,-0.287584,0.24445,128,22,128,22,176,22,128,73,0,-0.261799,-0.000334487,-1.5,1.81796e+31,0,0,3,0,0,0,0,0,0,0,0,2448
260,-3.11558e-12,6.86234e-38,-1.52571e-06,-3.18057e-12,6.86186e-38,0,-1.06596e-13,0,0,-7.77686,0.24445,0.182849,0,0,0,0,0,-0.287584,0.24445,128,22,128,22,176,22,128,73,0,-0.261799,-0.000321936,-1.5,1.81796e+31,0,0,3,0,0,0,0,0,0,0,0,2448
270,-3.11558e-12,6.86234e-38,-1.52571e-06,-3.18057e-12,6.86186e-38,-3.62841e-12,-1.06596e-13,0,0,-7.76838,0.277506,0.191768,0,0,0,0,0,-0.283522,0.277506,127,21,127,21,174,21,127,73,0,-0.261799,-0.000288356,-1.5,1.81796e+31,0,0,3,0,0,0,0,0,0,0,0,2444
280,-3.11558e-12,6.86234e-38,-1.52571e-06,-3.18057e-12,6.86186e-38,0,-1.06596e-13,0,0,-7.76838,0.277506,0.191768,0,0,0,0,0,-0.283522,0.277506,127,21,127,21,174,21,127,73,0,-0.261799,-0.000276969,-1.5,1.81796e+31,0,0,3,0,0,0,0,0,0,0,0,2444
290,-3.11558e-12,6.86234e-38,-1.52571e-06,-3.18057e-12,6.86186e-38,-3.62841e-12,-1.06596e-13,0,0,-7.76838,0.277506,0.191768,0,0,0,0,0,-0.283522,0.277506,127,21,127,21,174,21,127,73,0,-0.261799,-0.000267665,-1.5,1.81796e+31,0,0,3,0,0,0,0,0,0,0,0,2444
300,-3.11558e-12,6.86234e-38,-1.52571e-06,-3.18057e-12,6.86186e-38,0,-1.06597e-13,0,0,-7.76838,0.277506,0.191768,0,0,0,0,0,-0.283522,0.277506,127,21,127,21,174,21,127,73,0,-0.261799,-0.00025814,-1.5,1.81796e+31,0,0,3,0,0,0,0,0,0,0,0,2444
310,-3.11558e-12,6.86234e-38,-1.52571e-06,-3.18057e-12,6.86186e-38,-3.62841e-12,-1.06597e-13,0,0,-7.76838,0.277506,0.191768,0,0,0,0,0,-0.283522,0.277506,127,21,127,21,174,21,127,73,0,-0.261799,-0.000247937,-1.5,1.81796e+31,0,0,3,0,0,0,0,0,0,0,0,2444
320,-3.11558e-12,6.86234e-38,-1.52571e-06,-3.18057e-12,6.86186e-38,0,-1.06597e-13,0,0,-7.76838,0.277506,0.191768,0,0,0,0,0,-0.283522,0.277506,127,21,127,21,174,21,127,73,0,-0.261799,-0.000237173,-1.5,1.81796e+31,0,0,3,0,0,0,0,0,0,0,0,2444
330,-3.11558e-12,6.86234e-38,-1.52571e-06,-3.18057e-12,6.86186e-38,-3.62841e-12,-1.06597e-13,0,0,-8.84686,0.303308,0.384864,0,0,0,0,0,-0.85089,0.303308,129,28,129,28,173,28,129,71,0,-0.261799,-0.000229205,-1.5,1.81796e+31,0,0,3,0,0,0,0,0,0,0,0,1892
340,-3.11558e-12,6.86234e-38,-1.52571e-06,-3.18057e-12,6.86186e-38,0,-1.06598e-13,0,0,-8.84686,0.303308,0.384864,0,0,0,0,0,-0.85089,0.303308,129,28,129,28,173,28,129,71,0,-0.261799,-0.000219704,-1.5,1.81796e+31,0,0,3,0,0,0,0,0,0,0,0,1892
350,-3.11558e-12,6.86234e-38,-1.52571e-06,-3.18057e-12,6.86186e-38,-3.62841e-12,-1.06598e-13,0,0,-8.84686,0.303308,0.384864,0,0,0,0,0,-0.85089,0.303308,129,28,129,28,173,28,129,71,0,-0.261799,-0.000212318,-1.5,1.81796e+31,0,0,3,0,0,0,0,0,0,0,0,1892
360,-3.11558e-12,6.86234e-38,-1.52571e-06,-3.18057e-12,6.86186e-38,0,-1.06598e-13,0,0,-8.84686,0.303308,0.384864,0,0,0,0,0,-0.85089,0.303308,129,28,129,28,173,28,129,71,0,-0.261799,-0.000204345,-1.5,1.81796e+31,0,0,3,0,0,0,0,0,0,0,0,1892
370,-3.11558e-12,6.86234e-38,-1.52571e-06,-3.18057e-12,6.86186e-38,-3.62841e-12,-1.06599e-13,0,0,-8.10218,0.277776,0.236738,0,0,0,0,0,-0.448262,0.277776,127,25,127,25,175,25,127,72,0,-0.261799,-0.00019748,-1.5,1.81796e+31,0,0,3,0,0,0,0,0,0,0,0,2256
380,-3.11558e-12,6.86234e-38,-1.52571e-06,-3.18057e-12,6.86186e-38,0,-1.06599e-13,0,0,-8.10218,0.277776,0.236738,0,0,0,0,0,-0.448262,0.277776,127,25,127,25,175,25,127,72,0,-0.261799,-0.000187743,-1.5,1.81796e+31,0,0,3,0,0,0,0,0,0,0,0,2256
390,-3.11558e-12,6.86234e-38,-1.52571e-06,-3.18057e-12,6.86186e-38,-3.62841e-12,-1.06599e-13,0,0,-8.10218,0.277776,0.236738,0,0,0,0,0,-0.448262,0.277776,127,25,127,25,175,25,127,72,0,-0.261799,-0.000182909,-1.5,1.81796e+31,0,0,3,0,0,0,0,0,0,0,0,2256
400,-3.11558e-12,6.86234e-38,-1.52571e-06,-3.18057e-12,6.86186e-38,0,-1.06599e-13,0,0,-8.10218,0.277776,0.236738,0,0,0,0,0,-0.448262,0.277776,127,25,127,25,175,25,127,72,0,-0.261799,-0.00017748,-1.5,1.81796e+31,0,0,3,0,0,0,0,0,0,0,0,2256
410,-3.11558e-12,6.86234e-38,-1.52571e-06,-3.18057e-12,6.86186e-38,-3.62841e-12,-1.066e-13,0,0,-8.10218,0.277776,0.236738,0,0,0,0,0,-0.448262,0.277776,127,25,127,25,175,25,127,72,0,-0.261799,-0.000171518,-1.5,1.81796e+31,0,0,3,0,0,0,0,0,0,0,0,2256
420,-3.11558e-12,6.86234e-38,-1.52571e-06,-3.18057e-12,6.86186e-38,0,-1.066e-13,0,0,-8.10218,0.277776,0.236738,0,0,0,0,0,-0.448262,0.277776,127,25,127,25,175,25,127,72,0,-0.261799,-0.000164401,-1.5,1.81796e+31,0,0,3,0,0,0,0,0,0,0,0,2256
430,-3.11558e-12,6.86234e-38,-1.52571e-06,-3.18057e-12,6.86186e-38,-3.62841e-12,-1.066e-13,0,0,-8.10218,0.277776,0.236738,0,0,0,0,0,-0.448262,0.277776,127,25,127,25,175,25,127,72,0,-0.261799,-0.000158875,-1.5,1.81796e+31,0,0,3,0,0,0,0,0,0,0,0,2256
440,-3.11558e-12,6.86234e-38,-1.52571e-06,-3.18057e-12,6.86186e-38,0,-1.066e-13,0,0,-8.10218,0.277776,0.236738,0,0,0,0,0,-0.448262,0.277776,127,25,127,25,175,25,127,72,0,-0.261799,-0.000152283,-1.5,1.81796e+31,0,0,3,0,0,0,0,0,0,0,0,2256
450,-3.11558e-12,6.86234e-38,-1.52571e-06,-3.18057e-12,6.86186e-38,-3.62841e-12,-1.06601e-13,0,0,-8.10218,0.277776,0.236738,0,0,0,0,0,-0.448262,0.277776,127,25,127,25,175,25,127,72,0,-0.261799,-0.000146569,-1.5,1.81796e+31,0,0,3,0,0,0,0,0,0,0,0,2256
460,-3.11558e-12,6.86234e-38,-1.52571e-06,-3.18057e-12,6.86186e-38,0,-1.06601e-13,0,0,-8.10218,0.277776,0.236738,0,0,0,0,0,-0.448262,0.277776,127,25,127,25,175,25,127,72,0,-0.261799,-0.000141069,-1.5,1.81796e+31,0,0,3,0,0,0,0,0,0,0,0,2256
470,-3.11558e-12,6.86234e-38,-1.52571e-06,-3.18057e-12,6.86186e-38,-3.62841e-12,-1.06601e-13,0,0,-8.10218,0.277776,0.236738,0,0,0,0,0,-0.448262,0.277776,127,25,127,25,175,25,127,72,0,-0.261799,-0.000136604,-1.5,1.81796e+31,0,0,3,0,0,0,0,0,0,0,0,2256
480,-3.11558e-12,6.86234e-38,-1.52571e-06,-3.18057e-12,6.86186e-38,0,-1.06602e-13,0,0,-8.10218,0.277776,0.236738,0,0,0,0,0,-0.448262,0.277776,127,25,127,25,175,25,127,72,0,-0.261799,-0.000131747,-1.5,1.81796e+31,0,0,3,0,0,0,0,0,0,0,0,2256
490,-3.11558e-12,6.86234e-38,-1.52571e-06,-3.18057e-12,6.86186e-38,-3.62841e-12,-1.06602e-13,0,0,-8.10218,0.277776,0.236738,0,0,0,0,0,-0.448262,0.277776,127,25,127,25,175,25,127,72,0,-0.261799,-0.000126286,-1.5,1.81796e+31,0,0,3,0,0,0,0,0,0,0,0,2256
500,-3.11558e-12,6.86234e-38,-1.52571e-06,-3.18057e-12,6.86186e-38,0,-1.06602e-13,0,0,-8.10218,0.277776,0.236738,0,0,0,0,0,-0.448262,0.277776,127,25,127,25,175,25,127,72,0,-0.261799,-0.000122043,-1.5,1.81796e+31,0,0,3,0,0,0,0,0,0,0,0,2256
510,-3.11558e-12,6.86234e-38,-1.52571e-06,-3.18057e-12,6.86186e-38,-3.62841e-12,-1.06602e-13,0,0,-8.10218,0.277776,0.236738,0,0,0,0,0,-0.448262,0.277776,127,25,127,25,175,25,127,72,0,-0.261799,-0.000116984,-1.5,1.81796e+31,0,0,3,0,0,0,0,0,0,0,0,2256
520,-3.11558e-12,6.86234e-38,-1.52571e-06,-3.18057e-12,6.86186e-38,0,-1.06603e-13,0,0,-8.10218,0.277776,0.236738,0,0,0,0,0,-0.448262,0.277776,127,25,127,25,175,25,127,72,0,-0.261799,-0.000112827,-1.5,1.81796e+31,0,0,3,0,0,0,0,0,0,0,0,2256
530,-3.11558e-12,6.86234e-38,-1.52571e-06,-3.18057e-12,6.86186e-38,-3.62841e-12,-1.06603e-13,0,0,-8.10218,0.277776,0.236738,0,0,0,0,0,-0.448262,0.277776,127,25,127,25,175,25,127,72,0,-0.261799,-0.000108812,-1.5,1.81796e+31,0,0,3,0,0,0,0,0,0,0,0,2256
540,-3.11558e-12,6.86234e-38,-1.52571e-06,-3.18057e-12,6.86186e-38,0,-1.06603e-13,0,0,-8.10218,0.277776,0.236738,0,0,0,0,0,-0.448262,0.277776,127,25,127,25,175,25,127,72,0,-0.261799,-0.000105154,-1.5,1.81796e+31,0,0,3,0,0,0,0,0,0,0,0,2256
550,-3.11558e-12,6.86234e-38,-1.52571e-06,-3.18057e-12,6.86186e-38,-3.62841e-12,-1.06603e-13,0,0,-8.10218,0.277776,0.236738,0,0,0,0,0,-0.448262,0.277776,127,25,127,25,175,25,127,72,0,-0.261799,-0.000101002,-1.5,1.81796e+31,0,0,3,0,0,0,0,0,0,0,0,2256
560,-3.11558e-12,6.86234e-38,-1.52571e-06,-3.18057e-12,6.86186e-38,0,-1.06604e-13,0,0,-8.10218,0.277776,0.236738,0,0,0,0,0,-0.448262,0.277776,127,25,127,25,175,25,127,72,0,-0.261799,-9.78073e-05,-1.5,1.81796e+31,0,0,3,0,0,0,0,0,0,0,0,2256
570,-3.11558e-12,6.86234e-38,-1.52571e-06,-3.18057e-12,6.86186e-38,-3.62841e-12,-1.06604e-13,0,0,-8.10218,0.277776,0.236738,0,0,0,0,0,-0.448262,0.277776,127,25,127,25,175,25,127,72,0,-0.261799,-9.49058e-05,-1.5,1.81796e+31,0,0,3,0,0,0,0,0,0,0,0,2256
580,-3.11558e-12,6.86234e-38,-1.52571e-06,-3.18057e-12,6.86186e-38,0,-1.06604e-13,0,0,-8.10218,0.277776,0.236738,0,0,0,0,0,-0.448262,0.277776,127,25,127,25,175,25,127,72,0,-0.261799,-9.17175e-05,-1.5,1.81796e+31,0,0,3,0,0,0,0,0,0,0,0,2256
590,-3.11558e-12,6.86234e-38,-1.52571e-06,-3.18057e-12,6.86186e-38,-3.62841e-12,-1.06605e-13,0,0,-8.10218,0.277776,0.236738,0,0,0,0,0,-0.448262,0.277776,127,25,127,25,175,25,127,72,0,-0.261799,-8.84562e-05,-1.5,1.81796e+31,0,0,3,0,0,0,0,0,0,0,0,2256
600,-3.11558e-12,6.86234e-38,-1.52571e-06,-3.18057e-12,6.86186e-38,0,-1.06605e-13,0,0,-8.10218,0.277776,0.236738,0,0,0,0,0,-0.448262,0.277776,127,25,127,25,175,25,127,72,0,-0.261799,-8.5137e-05,-1.5,1.81796e+31,0,0,3,0,0,0,0,0,0,0,0,2256
610,-3.11558e-12,6.86234e-38,-1.52571e-06,-3.18057e-12,6.86186e-38,-3.62841e-12,-1.06605e-13,0,0,-8.10218,0.277776,0.236738,0,0,0,0,0,-0.448262,0.277776,127,25,127,25,175,25,127,72,0,-0.261799,-8.19398e-05,-1.5,1.81796e+31,0,0,3,0,0,0,0,0,0,0,0,2256
620,-3.11558e-12,6.86234e-38,-1.52571e-06,-3.18057e-12,6.86186e-38,0,-1.06605e-13,0,0,-8.55556,0.281111,0.317778,0,0,0,0,0,-0.687621,0.281111,129,27,129,27,174,27,129,72,0,-0.261799,-7.91871e-05,-1.5,1.81796e+31,0,0,3,0,0,0,0,0,0,0,0,2025
630,-3.11558e-12,6.86234e-38,-1.52571e-06,-3.18057e-12,6.86186e-38,-3.62841e-12,-1.06606e-13,0,0,-8.55556,0.281111,0.317778,0,0,0,0,0,-0.687621,0.281111,129,27,129,27,174,27,129,72,0,-0.261799,-7.59015e-05,-1.5,1.81796e+31,0,0,3,0,0,0,0,0,0,0,0,2025
640,-3.11558e-12,6.86234e-38,-1.52571e-06,-3.18057e-12,6.86186e-38,0,-1.06606e-13,0,0,-8.55556,0.281111,0.317778,0,0,0,0,0,-0.687621,0.281111,129,27,129,27,174,27,129,72,0,-0.261799,-7.32026e-05,-1.5,1.81796e+31,0,0,3,0,0,0,0,0,0,0,0,2025
650,-3.11558e-12,6.86234e-38,-1.52571e-06,-3.18057e-12,6.86186e-38,-3.62841e-12,-1.06606e-13,0,0,-8.55556,0.281111,0.317778,0,0,0,0,0,-0.687621,0.281111,129,27,129,27,174,27,129,72,0,-0.261799,-7.05996e-05,-1.5,1.81796e+31,0,0,3,0,0,0,0,0,0,0,0,2025
660,-3.11558e-12,6.86234e-38,-1.52571e-06,-3.18057e-12,6.86186e-38,0,-1.06606e-13,0,0,-8.55556,0.281111,0.317778,0,0,0,0,0,-0.687621,0.281111,129,27,129,27,174,27,129,72,0,-0.261799,-6.82279e-05,-1.5,1.81796e+31,0,0,3,0,0,0,0,0,0,0,0,2025
670,-3.11558e-12,6.86234e-38,-1.52571e-06,-3.18057e-12,6.86186e-38,-3.62841e-12,-1.06607e-13,0,0,-8.55556,0.281111,0.317778,0,0,0,0,0,-0.687621,0.281111,129,27,129,27,174,27,129,72,0,-0.261799,-6.53998e-05,-1.5,1.81796e+31,0,0,3,0,0,0,0,0,0,0,0,2025
680,-3.11558e-12,6.86234e-38,-1.52571e-06,-3.18057e-12,6.86186e-38,0,-1.06607e-13,0,0,-8.55556,0.281111,0.317778,0,0,0,0,0,-0.687621,0.281111,129,27,129,27,174,27,129,72,0,-0.261799,-6.32011e-05,-1.5,1.81796e+31,0,0,3,0,0,0,0,0,0,0,0,2025
690,-3.11558e-12,6.86234e-38,-1.52571e-06,-3.18057e-12,6.86186e-38,-3.62841e-12,-1.06607e-13,0,0,-8.55556,0.281111,0.317778,0,0,0,0,0,-0.687621,0.281111,129,27,129,27,174,27,129,72,0,-0.261799,-6.10765e-05,-1.5,1.81796e+31,0,0,3,0,0,0,0,0,0,0,0,2025
700,-3.11558e-12,6.86234e-38,-1.52571e-06,-3.18057e-12,6.86186e-38,0,-1.06607e-13,0,0,-7.85814,0.269447,0.213322,0,0,0,0,0,-0.326864,0.269447,127,22,127,22,175,22,127,72,-0.261799,-0.261799,-5.67452e-05,-1.5,1.81796e+31,0,0,3,-0.779981,0.27854,0,0,0,0,-0.546499,0.00120044,2400
710,-3.11558e-12,6.86234e-38,-1.52571e-06,-3.18057e-12,6.86186e-38,-3.62841e-12,-1.06608e-13,0,0,-7.85814,0.269447,0.213322,0,0,0,0,0,-0.326864,0.269447,127,22,127,22,175,22,127,72,-0.261799,-0.261799,-5.45045e-05,-1.5,1.81796e+31,0,0,3,-0.790911,0.278564,0,0,0,0,-0.546499,0.00120044,2400
720,-3.11558e-12,6.86234e-38,-1.52571e-06,-3.18057e-12,6.86186e-38,0,-1.06608e-13,0,0,-7.85814,0.269447,0.213322,0,0,0,0,0,-0.326864,0.269447,127,22,127,22,175,22,127,72,-0.261799,-0.261799,-5.2994e-05,-1.5,1.81796e+31,0,0,3,-0.798562,0.278581,0,0,0,0,-0.546499,0.00120044,2400
730,-3.11558e-12,6.86234e-38,-1.52571e-06,-3.18057e-12,6.86186e-38,-3.62841e-12,-1.06608e-13,0,0,-7.85814,0.269447,0.213322,0,0,0,0,0,-0.326864,0.269447,127,22,127,22,175,22,127,72,-0.261799,-0.261799,-5.13168e-05,-1.5,1.81796e+31,0,0,3,-0.807306,0.2786,0,0,0,0,-0.546499,0.00120044,2400
740,-3.11558e-12,6.86234e-38,-1.52571e-06,-3.18057e-12,6.86186e-38,0,-1.06609e-13,0,0,-7.85814,0.269447,0.213322,0,0,0,0,0,-0.326864,0.269447,127,22,127,22,175,22,127,72,-0.261799,-0.261799,-4.92904e-05,-1.5,1.81796e+31,0,0,3,-0.818236,0.278624,0,0,0,0,-0.546499,0.00120044,2400
750,-3.11558e-12,6.86234e-38,-1.52571e-06,-3.18057e-12,6.86186e-38,-3.62841e-12,-1.06609e-13,0,0,-7.85814,0.269447,0.213322,0,0,0,0,0,-0.326864,0.269447,127,22,127,22,175,22,127,72,-0.261799,-0.261799,-4.74394e-05,-1.5,1.81796e+31,0,0,3,-0.82862,0.278647,0,0,0,0,-0.546499,0.00120044,2400
760,-3.11558e-12,6.86234e-38,-1.52571e-06,-3.18057e-12,6.86186e-38,0,-1.06609e-13,0,0,-8.19149,0.269149,0.257447,0,0,0,0,0,-0.493993,0.269149,128,25,128,25,175,25,128,72,-0.261799,-0.261799,-4.4924e-05,-1.5,1.81796e+31,0,0,3,-0.496874,0.269027,0,0,0,0,-0.205791,-0.00867859,2209
770,-3.11558e-12,6.86234e-38,-1.52571e-06,-3.18057e-12,6.86186e-38,-3.62841e-12,-1.06609e-13,0,0,-8.19149,0.269149,0.257447,0,0,0,0,0,-0.493993,0.269149,128,25,128,25,175,25,128,72,-0.261799,-0.261799,-4.27064e-05,-1.5,1.81796e+31,0,0,3,-0.502019,0.26881,0,0,0,0,-0.205791,-0.00867859,2209
780,-3.11558e-12,6.86234e-38,-1.52571e-06,-3.18057e-12,6.86186e-38,0,-1.0661e-13,0,0,-8.19149,0.269149,0.257447,0,0,0,0,0,-0.493993,0.269149,128,25,128,25,175,25,128,72,-0.261799,-0.261799,-4.12707e-05,-1.5,1.81796e+31,0,0,3,-0.505518,0.268663,0,0,0,0,-0.205791,-0.00867859,2209
790,-3.11558e-12,6.86234e-38,-1.52571e-06,-3.18057e-12,6.86186e-38,-3.62841e-12,-1.0661e-13,0,0,-8.19149,0.269149,0.257447,0,0,0,0,0,-0.493993,0.269149,128,25,128,25,175,25,128,72,-0.261799,-0.261799,-3.8845e-05,-1.5,1.81796e+31,0,0,3,-0.511941,0.268729,0,0,0,0,-0.211656,-0.00834842,2209
800,-3.11558e-12,6.86234e-38,-1.52571e-06,-3.18057e-12,6.86186e-38,0,-1.0661e-13,0,0,-8.19149,0.269149,0.257447,0,0,0,0,0,-0.493993,0.269149,128,25,128,25,175,25,128,72,-0.261799,-0.261799,-3.73097e-05,-1.5,1.81796e+31,0,0,3,-0.516174,0.268562,0,0,0,0,-0.211656,-0.00834842,2209
810,-3.11558e-12,6.86234e-38,-1.52571e-06,-3.18057e-12,6.86186e-38,-3.62841e-12,-1.0661e-13,0,0,-8.19149,0.269149,0.257447,0,0,0,0,0,-0.493993,0.269149,128,25,128,25,175,25,128,72,-0.261799,-0.261799,-3.5982e-05,-1.5,1.81796e+31,0,0,3,-0.519984,0.268412,0,0,0,0,-0.211656,-0.00834842,2209
820,-3.11558e-12,6.86234e-38,-1.52571e-06,-3.18057e-12,6.86186e-38,0,-1.06611e-13,0,0,-8.19149,0.269149,0.257447,0,0,0,0,0,-0.493993,0.269149,128,25,128,25,175,25,128,72,-0.261799,-0.261799,-3.46308e-05,-1.5,1.81796e+31,0,0,3,-0.524006,0.268253,0,0,0,0,-0.211656,-0.00834842,2209
830,-3.11558e-12,6.86234e-38,-1.52571e-06,-3.18057e-12,6.86186e-38,-3.62841e-12,-1.06611e-13,0,0,-8.19149,0.269149,0.257447,0,0,0,0,0,-0.493993,0.269149,128,25,128,25,175,25,128,72,-0.261799,-0.261799,-3.34665e-05,-1.5,1.81796e+31,0,0,3,-0.527604,0.268111,0,0,0,0,-0.211656,-0.00834842,2209
840,-3.11558e-12,6.86234e-38,-1.52571e-06,-3.18057e-12,6.86186e-38,0,-1.06611e-13,0,0,-8.19149,0.269149,0.257447,0,0,0,0,0,-0.493993,0.269149,128,25,128,25,175,25,128,72,-0.261799,-0.261799,-3.19478e-05,-1.5,1.81796e+31,0,0,3,-0.532472,0.267919,0,0,0,0,-0.211656,-0.00834842,2209
850,-3.11558e-12,6.86234e-38,-1.52571e-06,-3.18057e-12,6.86186e-38,-3.62841e-12,-1.06612e-13,0,0,-8.19149,0.269149,0.257447,0,0,0,0,0,-0.493993,0.269149,128,25,128,25,175,25,128,72,-0.261799,-0.261799,-3.08746e-05,-1.5,1.81796e+31,0,0,3,-0.53607,0.267777,0,0,0,0,-0.211656,-0.00834842,2209
860,-3.11558e-12,6.86234e-38,-1.52571e-06,-3.18057e-12,6.86186e-38,0,-1.06612e-13,0,0,-8.19149,0.269149,0.257447,0,0,0,0,0,-0.493993,0.269149,128,25,128,25,175,25,128,72,-0.261799,-0.261799,-2.99582e-05,-1.5,1.81796e+31,0,0,3,-0.539457,0.267644,0,0,0,0,-0.211656,-0.00834842,2209
870,-3.11558e-12,6.86234e-38,-1.52571e-06,-3.18057e-12,6.86186e-38,-3.62841e-12,-1.06612e-13,0,0,-8.19149,0.269149,0.257447,0,0,0,0,0,-0.493993,0.269149,128,25,128,25,175,25,128,72,-0.261799,-0.261799,-2.91869e-05,-1.5,1.81796e+31,0,0,3,-0.542208,0.267535,0,0,0,0,-0.211656,-0.00834842,2209
880,-3.11558e-12,6.86234e-38,-1.52571e-06,-3.18057e-12,6.86186e-38,0,-1.06612e-13,0,0,-8.19149,0.269149,0.257447,0,0,0,0,0,-0.493993,0.269149,128,25,128,25,175,25,128,72,-0.261799,-0.261799,-2.82064e-05,-1.5,1.81796e+31,0,0,3,-0.545807,0.267393,0,0,0,0,-0.211656,-0.00834842,2209
890,-3.11558e-12,6.86234e-38,-1.52571e-06,-3.18057e-12,6.86186e-38,-3.62841e-12,-1.06613e-13,0,0,-8.19149,0.269149,0.257447,0,0,0,0,0,-0.493993,0.269149,128,25,128,25,175,25,128,72,-0.261799,-0.261799,-2.71471e-05,-1.5,1.81796e+31,0,0,3,-0.549828,0.267235,0,0,0,0,-0.211656,-0.00834842,2209
900,-3.11558e-12,6.86234e-38,-1.52571e-06,-3.18057e-12,6.86186e-38,0,-1.06613e-13,0,0,-8.19149,0.269149,0.257447,0,0,0,0,0,-0.493993,0.269149,128,25,128,25,175,25,128,72,-0.261799,-0.261799,-2.62345e-05,-1.5,1.81796e+31,0,0,3,-0.553426,0.267093,0,0,0,0,-0.211656,-0.00834842,2209
910,-3.11558e-12,6.86234e-38,-1.52571e-06,-3.18057e-12,6.86186e-38,-3.62841e-12,-1.06613e-13,0,0,-8.19149,0.269149,0.257447,0,0,0,0,0,-0.493993,0.269149,128,25,128,25,175,25,128,72,-0.261799,-0.261799,-2.50955e-05,-1.5,1.81796e+31,0,0,3,-0.558083,0.266909,0,0,0,0,-0.211656,-0.00834842,2209
920,-3.11558e-12,6.86234e-38,-1.52571e-06,-3.18057e-12,6.86186e-38,0,-1.06613e-13,0,0,-8.19149,0.269149,0.257447,0,0,0,0,0,-0.493993,0.269149,128,25,128,25,175,25,128,72,-0.261799,-0.261799,-2.42518e-05,-1.5,1.81796e+31,0,0,3,-0.561681,0.266767,0,0,0,0,-0.211656,-0.00834842,2209
930,-3.11558e-12,6.86234e-38,-1.52571e-06,-3.18057e-12,6.86186e-38,-3.62841e-12,-1.06614e-13,0,0,-8.19149,0.269149,0.257447,0,0,0,0,0,-0.493993,0.269149,128,25,128,25,175,25,128,72,-0.261799,-0.261799,-2.33418e-05,-1.5,1.81796e+31,0,0,3,-0.565703,0.266608,0,0,0,0,-0.211656,-0.00834842,2209
940,-3.11558e-12,6.86234e-38,-1.52571e-06,-3.18057e-12,6.86186e-38,0,-1.06614e-13,0,0,-8.19149,0.269149,0.257447,0,0,0,0,0,-0.493993,0.269149,128,25,128,25,175,25,128,72,-0.261799,-0.261799,-2.25577e-05,-1.5,1.81796e+31,0,0,3,-0.569301,0.266467,0,0,0,0,-0.211656,-0.00834842,2209
950,-3.11558e-12,6.86234e-38,-1.52571e-06,-3.18057e-12,6.86186e-38,-3.62841e-12,-1.06614e-13,0,0,-8.19149,0.269149,0.257447,0,0,0,0,0,-0.493993,0.269149,128,25,128,25,175,25,128,72,-0.261799,-0.261799,-2.16669e-05,-1.5,1.81796e+31,0,0,3,-0.573534,0.2663,0,0,0,0,-0.211656,-0.00834842,2209
960,-3.11558e-12,6.86234e-38,-1.52571e-06,-3.18057e-12,6.86186e-38,0,-1.06615e-13,0,0,-8.19149,0.269149,0.257447,0,0,0,0,0,-0.493993,0.269149,128,25,128,25,175,25,128,72,-0.261799,-0.261799,-2.09385e-05,-1.5,1.81796e+31,0,0,3,-0.577132,0.266158,0,0,0,0,-0.211656,-0.00834842,2209
970,-3.11558e-12,6.86234e-38,-1.52571e-06,-3.18057e-12,6.86186e-38,-3.62841e-12,-1.06615e-13,0,0,-8.19149,0.269149,0.257447,0,0,0,0,0,-0.493993,0.269149,128,25,128,25,175,25,128,72,-0.261799,-0.261799,-2.00295e-05,-1.5,1.81796e+31,0,0,3,-0.581789,0.265974,0,0,0,0,-0.211656,-0.00834842,2209
980,-3.11558e-12,6.86234e-38,-1.52571e-06,-3.18057e-12,6.86186e-38,0,-1.06615e-13,0,0,-8.19149,0.269149,0.257447,0,0,0,0,0,-0.493993,0.269149,128,25,128,25,175,25,128,72,-0.261799,-0.261799,-1.92773e-05,-1.5,1.81796e+31,0,0,3,-0.58581,0.265815,0,0,0,0,-0.211656,-0.00834842,2209
990,-3.11558e-12,6.86234e-38,-1.52571e-06,-3.18057e-12,6.86186e-38,-3.62841e-12,-1.06615e-13,0,0,-8.19149,0.269149,0.257447,0,0,0,0,0,-0.493993,0.269149,128,25,128,25,175,25,128,72,-0.261799,-0.261799,-1.85918e-05,-1.5,1.81796e+31,0,0,3,-0.58962,0.265665,0,0,0,0,-0.211656,-0.00834842,2209
1000,-3.11558e-12,6.86234e-38,-1.52571e-06,-3.18057e-12,6.86186e-38,0,-1.06616e-13,0,0,-8.19149,0.269149,0.257447,0,0,0,0,0,-0.493993,0.269149,128,25,128,25,175,25,128,72,-0.261799,-0.261799,-1.78942e-05,-1.5,1.81796e+31,0,0,3,-0.593642,0.265506,0,0,0,0,-0.211656,-0.00834842,2209
1010,-3.11558e-12,6.86234e-38,-1.52571e-06,-3.18057e-12,6.86186e-38,-3.62841e-12,-1.06616e-13,0,0,-8.19149,0.269149,0.257447,0,0,0,0,0,-0.493993,0.269149,128,25,128,25,175,25,128,72,-0.261799,-0.261799,-1.73634e-05,-1.5,1.81796e+31,0,0,3,-0.596816,0.265381,0,0,0,0,-0.211656,-0.00834842,2209
1020,-3.11558e-12,6.86234e-38,-1.52571e-06,-3.18057e-12,6.86186e-38,0,-1.06616e-13,0,0,-8.19149,0.269149,0.257447,0,0,0,0,0,-0.493993,0.269149,128,25,128,25,175,25,128,72,-0.261799,-0.261799,-1.67113e-05,-1.5,1.81796e+31,0,0,3,-0.600838,0.265223,0,0,0,0,-0.211656,-0.00834842,2209
1030,-3.11558e-12,6.86234e-38,-1.52571e-06,-3.18057e-12,6.86186e-38,-3.62841e-12,-1.06616e-13,0,0,-8.19149,0.269149,0.257447,0,0,0,0,0,-0.493993,0.269149,128,25,128,25,175,25,128,72,-0.261799,-0.261799,-1.61171e-05,-1.5,1.81796e+31,0,0,3,-0.604648,0.265072,0,0,0,0,-0.211656,-0.00834842,2209
1040,-3.11558e-12,6.86234e-38,-1.52571e-06,-3.18057e-12,6.86186e-38,0,-1.06617e-13,0,0,-8.19149,0.269149,0.257447,0,0,0,0,0,-0.493993,0.269149,128,25,128,25,175,25,128,72,-0.261799,-0.261799,-1.5544e-05,-1.5,1.81796e+31,0,0,3,-0.608458,0.264922,0,0,0,0,-0.211656,-0.00834842,2209
1050,-3.11558e-12,6.86234e-38,-1.52571e-06,-3.18057e-12,6.86186e-38,-3.62841e-12,-1.06617e-13,0,0,-8.19149,0.269149,0.257447,0,0,0,0,0,-0.493993,0.269149,128,25,128,25,175,25,128,72,-0.261799,-0.261799,-1.50218e-05,-1.5,1.81796e+31,0,0,3,-0.612056,0.26478,0,0,0,0,-0.211656,-0.00834842,2209
1060,-3.11558e-12,6.86234e-38,-1.52571e-06,-3.18057e-12,6.86186e-38,0,-1.06617e-13,0,0,-8.19149,0.269149,0.257447,-0.616495,0.264605,-0.210705,-0.00831091,0,-0.493993,0.269149,128,25,128,25,175,25,128,72,-0.261799,-0.261799,-1.43991e-05,-1.5,1.81796e+31,0,0,3,-0.616495,0.264605,0,0,0,0,-0.210705,-0.00831091,2209
1070,-3.11558e-12,6.86234e-38,-1.52571e-06,-3.18057e-12,6.86186e-38,-3.62841e-12,-1.06618e-13,0,0,-8.19149,0.269149,0.257447,-0.620887,0.264432,-0.208499,-0.00822391,0,-0.493993,0.269149,128,25,128,25,175,25,128,72,-0.261799,-0.261799,-1.38017e-05,-1.5,1.81796e+31,0,0,3,-0.620887,0.264432,0,0,0,0,-0.208499,-0.00822391,2209
1080,-3.11558e-12,6.86234e-38,-1.52571e-06,-3.18057e-12,6.86186e-38,0,-1.06618e-13,0,0,-8.0156,0.27487,0.227585,-0.642659,0.263573,-0.19708,-0.00777352,0,-0.404598,0.27487,128,23,128,23,174,23,128,73,-0.261799,-0.261799,-1.08168e-05,-1.5,1.81796e+31,0,0,3,-0.642659,0.263573,0,0,0,0,-0.19708,-0.00777352,2300
1090,-3.11558e-12,6.86234e-38,-1.52571e-06,-3.18057e-12,6.86186e-38,-3.62841e-12,-1.06618e-13,0,0,-7.11307,0.264147,0.0168456,-0.658218,0.262959,-0.18903,-0.007456,0,0.0115774,0.264147,122,22,122,22,178,22,122,74,-0.261799,-0.261799,-9.06935e-06,-1.5,1.81796e+31,0,0,3,-0.658218,0.262959,0,0,0,0,-0.18903,-0.007456,2912
1100,-3.11558e-12,6.86234e-38,-1.52571e-06,-3.18057e-12,6.86186e-38,0,-1.06618e-13,0,0,-7.757,0.288209,0.399371,-0.661413,0.262833,-0.187429,-0.00739282,0,-0.278076,0.288209,127,11,127,11,173,11,127,64,-0.261799,-0.261799,-8.76467e-06,-1.5,1.81796e+31,0,0,3,-0.661413,0.262833,0,0,0,0,-0.187429,-0.00739282,2438
1110,-3.11558e-12,6.86234e-38,-1.52571e-06,-3.18057e-12,6.86186e-38,-3.62841e-12,-1.06619e-13,0,0,-7.757,0.288209,0.399371,-0.66532,0.262679,-0.185467,-0.00731543,0,-0.278076,0.288209,127,11,127,11,173,11,127,64,-0.261799,-0.261799,-8.40102e-06,-1.5,1.81796e+31,0,0,3,-0.66532,0.262679,0,0,0,0,-0.185467,-0.00731543,2438
1120,-3.11558e-12,6.86234e-38,-1.52571e-06,-3.18057e-12,6.86186e-38,0,-1.06619e-13,0,0,-7.757,0.288209,0.399371,-0.668822,0.262541,-0.18371,-0.00724615,0,-0.278076,0.288209,127,11,127,11,173,11,127,64,-0.261799,-0.261799,-8.08579e-06,-1.5,1.81796e+31,0,0,3,-0.668822,0.262541,0,0,0,0,-0.18371,-0.00724615,2438
1130,-3.11558e-12,6.86234e-38,-1.52571e-06,-3.18057e-12,6.86186e-38,-3.62841e-12,-1.06619e-13,0,0,-7.757,0.288209,0.399371,-0.671928,0.262419,-0.182153,-0.00718474,0,-0.278076,0.288209,127,11,127,11,173,11,127,64,-0.261799,-0.261799,-7.81416e-06,-1.5,1.81796e+31,0,0,3,-0.671928,0.262419,0,0,0,0,-0.182153,-0.00718474,2438
1140,-3.11558e-12,6.86234e-38,-1.52571e-06,-3.18057e-12,6.86186e-38,0,-1.06619e-13,0,0,-7.757,0.288209,0.399371,-0.675187,0.26229,-0.180519,-0.00712028,0,-0.278076,0.288209,127,11,127,11,173,11,127,64,-0.261799,-0.261799,-7.5363e-06,-1.5,1.81796e+31,0,0,3,-0.675187,0.26229,0,0,0,0,-0.180519,-0.00712028,2438
1150,-3.11558e-12,6.86234e-38,-1.52571e-06,-3.18057e-12,6.86186e-38,-3.62841e-12,-1.0662e-13,0,0,-7.757,0.288209,0.399371,-0.678594,0.262156,-0.178809,-0.00705284,0,-0.278076,0.288209,127,11,127,11,173,11,127,64,-0.261799,-0.261799,-7.25328e-06,-1.5,1.81796e+31,0,0,3,-0.678594,0.262156,0,0,0,0,-0.178809,-0.00705284,2438
1160,-3.11558e-12,6.86234e-38,-1.52571e-06,-3.18057e-12,6.86186e-38,0,-1.0662e-13,0,0,-7.757,0.288209,0.399371,-0.681794,0.262029,-0.177205,-0.00698956,0,-0.278076,0.288209,127,11,127,11,173,11,127,64,-0.261799,-0.261799,-6.99536e-06,-1.5,1.81796e+31,0,0,3,-0.681794,0.262029,0,0,0,0,-0.177205,-0.00698956,2438
1170,-3.11558e-12,6.86234e-38,-1.52571e-06,-3.18057e-12,6.86186e-38,-3.62841e-12,-1.0662e-13,0,0,-7.757,0.288209,0.399371,-0.684965,0.261904,-0.175615,-0.00692684,0,-0.278076,0.288209,127,11,127,11,173,11,127,64,-0.261799,-0.261799,-6.74662e-06,-1.5,1.81796e+31,0,0,3,-0.684965,0.261904,0,0,0,0,-0.175615,-0.00692684,2438
1180,-3.11558e-12,6.86234e-38,-1.52571e-06,-3.18057e-12,6.86186e-38,0,-1.0662e-13,0,0,-7.52192,-0.182743,0.315659,-0.687934,0.261787,-0.174127,-0.00686814,0,-0.168128,-0.182743,148,11,148,11,195,11,148,66,-0.261799,-0.261799,-6.51997e-06,-1.5,1.81796e+31,0,0,3,-0.687934,0.261787,0,0,0,0,-0.174127,-0.00686814,2585
1190,-3.11558e-12,6.86234e-38,-1.52571e-06,-3.18057e-12,6.86186e-38,-3.62841e-12,-1.06621e-13,0,0,-7.52192,-0.182743,0.315659,-0.691564,0.261644,-0.172304,-0.00679626,0,-0.168128,-0.182743,148,11,148,11,195,11,148,66,-0.261799,-0.261799,-6.24971e-06,-1.5,1.81796e+31,0,0,3,-0.691564,0.261644,0,0,0,0,-0.172304,-0.00679626,2585
1200,-3.11558e-12,6.86234e-38,-1.52571e-06,-3.18057e-12,6.86186e-38,0,-1.06621e-13,0,0,-7.52192,-0.182743,0.315659,-0.695156,0.261502,-0.170501,-0.00672512,0,-0.168128,-0.182743,148,11,148,11,195,11,148,66,-0.261799,-0.261799,-5.9904e-06,-1.5,1.81796e+31,0,0,3,-0.695156,0.261502,0,0,0,0,-0.170501,-0.00672512,2585
1210,-3.11558e-12,6.86234e-38,-1.52571e-06,-3.18057e-12,6.86186e-38,-3.62841e-12,-1.06621e-13,0,0,-6.74849,-0.134956,0.104803,-0.698207,0.261382,-0.168971,-0.00666478,0,0.159508,-0.134956,141,11,141,11,199,11,141,67,-0.261799,-0.261799,-5.78902e-06,-1.5,1.81796e+31,0,0,3,-0.698207,0.261382,0,0,0,0,-0.168971,-0.00666478,3248
1220,-3.11558e-12,6.86234e-38,-1.52571e-06,-3.18057e-12,6.86186e-38,0,-1.06622e-13,0,0,-6.74849,-0.134956,0.104803,-0.701563,0.26125,-0.167287,-0.00659835,0,0.159508,-0.134956,141,11,141,11,199,11,141,67,-0.261799,-0.261799,-5.56043e-06,-1.5,1.81796e+31,0,0,3,-0.701563,0.26125,0,0,0,0,-0.167287,-0.00659835,3248
1230,-3.11558e-12,6.86234e-38,-1.52571e-06,-3.18057e-12,6.86186e-38,-3.62841e-12,-1.06622e-13,0,0,-6.74849,-0.134956,0.104803,-0.704721,0.261125,-0.165702,-0.00653585,0,0.159508,-0.134956,141,11,141,11,199,11,141,67,-0.261799,-0.261799,-5.35161e-06,-1.5,1.81796e+31,0,0,3,-0.704721,0.261125,0,0,0,0,-0.165702,-0.00653585,3248
1240,-3.11558e-12,6.86234e-38,-1.52571e-06,-3.18057e-12,6.86186e-38,0,-1.06622e-13,0,0,-6.74849,-0.134956,0.104803,-0.707522,0.261015,-0.164298,-0.00648046,0,0.159508,-0.134956,141,11,141,11,199,11,141,67,-0.261799,-0.261799,-5.17182e-06,-1.5,1.81796e+31,0,0,3,-0.707522,0.261015,0,0,0,0,-0.164298,-0.00648046,3248
1250,-3.11558e-12,6.86234e-38,-1.52571e-06,-3.18057e-12,6.86186e-38,-3.62841e-12,-1.06622e-13,0,0,-8.55594,0.268924,0.281026,-0.710947,0.26088,-0.162578,-0.00641262,0,-0.687832,0.268924,130,28,130,28,174,28,130,74,-0.261799,-0.261799,-4.95724e-06,-1.5,1.81796e+31,0,0,3,-0.710947,0.26088,0,0,0,0,-0.162578,-0.00641262,2024
1260,-3.11558e-12,6.86234e-38,-1.52571e-06,-3.18057e-12,6.86186e-38,0,-1.06623e-13,0,0,-8.55594,0.268924,0.281026,-0.714016,0.260759,-0.161038,-0.00635188,0,-0.687832,0.268924,130,28,130,28,174,28,130,74,-0.261799,-0.261799,-4.77108e-06,-1.5,1.81796e+31,0,0,3,-0.714016,0.260759,0,0,0,0,-0.161038,-0.00635188,2024
1270,-3.11558e-12,6.86234e-38,-1.52571e-06,-3.18057e-12,6.86186e-38,-3.62841e-12,-1.06623e-13,0,0,-8.55594,0.268924,0.281026,-0.716738,0.260651,-0.159673,-0.00629804,0,-0.687832,0.268924,130,28,130,28,174,28,130,74,-0.261799,-0.261799,-4.61068e-06,-1.5,1.81796e+31,0,0,3,-0.716738,0.260651,0,0,0,0,-0.159673,-0.00629804,2024
1280,-3.11558e-12,6.86234e-38,-1.52571e-06,-3.18057e-12,6.86186e-38,0,-1.06623e-13,0,0,-8.94429,0.319491,0.381286,-0.720226,0.260514,-0.157924,-0.00622904,0,-0.907156,0.319491,130,28,130,28,171,28,130,73,-0.261799,-0.261799,-4.41105e-06,-1.5,1.81796e+31,0,0,3,-0.839015,0.270024,0,0,0,0,-1.91079,0.0140347,1845
1290,-3.11558e-12,6.86234e-38,-1.52571e-06,-3.18057e-12,6.86186e-38,-3.62841e-12,-1.06623e-13,0,0,-8.94429,0.319491,0.381286,-0.723674,0.260378,-0.156192,-0.00616075,0,-0.907156,0.319491,130,28,130,28,171,28,130,73,-0.261799,-0.261799,-4.21955e-06,-1.5,1.81796e+31,0,0,3,-0.881026,0.270333,0,0,0,0,-1.90906,0.014103,1845
1300,-3.11558e-12,6.86234e-38,-1.52571e-06,-3.18057e-12,6.86186e-38,0,-1.06624e-13,0,0,-8.94429,0.319491,0.381286,-0.72693,0.260249,-0.154558,-0.00609627,0,-0.907156,0.319491,130,28,130,28,171,28,130,73,-0.261799,-0.261799,-4.04464e-06,-1.5,1.81796e+31,0,0,3,-0.921093,0.270631,0,0,0,0,-1.90742,0.0141675,1845
1310,-3.11558e-12,6.86234e-38,-1.52571e-06,-3.18057e-12,6.86186e-38,-3.62841e-12,-1.06624e-13,0,0,-9.61347,0.329654,0.601944,-0.73061,0.260104,-0.152711,-0.00602342,0,-1.31601,0.329654,132,27,132,27,170,27,132,69,-0.261799,-0.261799,-3.85371e-06,-1.5,1.81796e+31,0,0,3,-1.06968,0.329442,0,0,0,0,-2.10801,0.129337,1596
1320,-3.11558e-12,6.86234e-38,-1.52571e-06,-3.18057e-12,6.86186e-38,0,-1.06624e-13,0,0,-9.61347,0.329654,0.601944,-0.734693,0.259943,-0.150656,-0.0059424,0,-1.31601,0.329654,132,27,132,27,170,27,132,69,-0.261799,-0.261799,-3.64855e-06,-1.5,1.81796e+31,0,0,3,-1.12656,0.332935,0,0,0,0,-2.10596,0.129418,1596
1330,-3.11558e-12,6.86234e-38,-1.52571e-06,-3.18057e-12,6.86186e-38,-3.62841e-12,-1.06625e-13,0,0,-9.61347,0.329654,0.601944,-0.737833,0.259819,-0.149079,-0.00588019,0,-1.31601,0.329654,132,27,132,27,170,27,132,69,-0.261799,-0.261799,-3.49717e-06,-1.5,1.81796e+31,0,0,3,-1.17076,0.335654,0,0,0,0,-2.10438,0.12948,1596
1340,-3.11558e-12,6.86234e-38,-1.52571e-06,-3.18057e-12,6.86186e-38,0,-1.06625e-13,0,0,-9.61347,0.329654,0.601944,-0.752597,0.259237,-0.14136,-0.00557572,0,-1.31601,0.329654,132,27,132,27,170,27,132,69,-0.261799,-0.261799,-2.78206e-06,-1.5,1.81796e+31,0,0,3,-1.38888,0.349149,0,0,0,0,-2.09666,0.129785,1596
1350,-3.11558e-12,6.86234e-38,-1.52571e-06,-3.18057e-12,6.86186e-38,-3.62841e-12,-1.06625e-13,0,0,-6.39071,0.246418,0.00303427,-0.764671,0.25876,-0.135096,-0.00532864,0,0.293383,0.246418,118,11,118,11,181,11,118,68,-0.261799,-0.261799,-2.29514e-06,-1.5,1.81796e+31,0,0,3,-1.51818,0.249615,0,0,0,0,-2.02363,-0.0241869,3591
1360,-3.11558e-12,6.86234e-38,-1.52571e-06,-3.18057e-12,6.86186e-38,0,-1.06625e-13,0,0,-6.39071,0.246418,0.00303427,-0.767089,0.258665,-0.133884,-0.00528083,0,0.293383,0.246418,118,11,118,11,181,11,118,68,-0.261799,-0.261799,-2.21353e-06,-1.5,1.81796e+31,0,0,3,-1.55459,0.24918,0,0,0,0,-2.02241,-0.0241391,3591
1370,-3.11558e-12,6.86234e-38,-1.52571e-06,-3.18057e-12,6.86186e-38,-3.62841e-12,-1.06626e-13,0,0,-6.39071,0.246418,0.00303427,-0.769352,0.258576,-0.132749,-0.00523608,0,0.293383,0.246418,118,11,118,11,181,11,118,68,-0.261799,-0.261799,-2.13917e-06,-1.5,1.81796e+31,0,0,3,-1.58896,0.24877,0,0,0,0,-2.02128,-0.0240943,3591
1380,-3.11558e-12,6.86234e-38,-1.52571e-06,-3.18057e-12,6.86186e-38,0,-1.06626e-13,0,0,-6.39071,0.246418,0.00303427,-0.77212,0.258467,-0.13136,-0.00518128,0,0.293383,0.246418,118,11,118,11,181,11,118,68,-0.261799,-0.261799,-2.0505e-06,-1.5,1.81796e+31,0,0,3,-1.63139,0.248265,0,0,0,0,-2.01989,-0.0240395,3591
1390,-3.11558e-12,6.86234e-38,-1.52571e-06,-3.18057e-12,6.86186e-38,-3.62841e-12,-1.06626e-13,0,0,-6.39071,0.246418,0.00303427,-0.774341,0.258379,-0.130247,-0.00513737,0,0.293383,0.246418,118,11,118,11,181,11,118,68,-0.261799,-0.261799,-1.98161e-06,-1.5,1.81796e+31,0,0,3,-1.66572,0.247856,0,0,0,0,-2.01878,-0.0239956,3591
1400,-3.11558e-12,6.86234e-38,-1.52571e-06,-3.18057e-12,6.86186e-38,0,-1.06626e-13,0,0,-6.39071,0.246418,0.00303427,-0.776414,0.258297,-0.129208,-0.00509639,0,0.293383,0.246418,118,11,118,11,181,11,118,68,-0.261799,-0.261799,-1.91894e-06,-1.5,1.81796e+31,0,0,3,-1.69801,0.247473,0,0,0,0,-2.01774,-0.0239546,3591
1410,-3.11558e-12,6.86234e-38,-1.52571e-06,-3.18057e-12,6.86186e-38,-3.62841e-12,-1.06627e-13,0,0,-6.39071,0.246418,0.00303427,-0.778726,0.258206,-0.128049,-0.00505067,0,0.293383,0.246418,118,11,118,11,181,11,118,68,-0.261799,-0.261799,-1.8507e-06,-1.5,1.81796e+31,0,0,3,-1.73431,0.247042,0,0,0,0,-2.01658,-0.0239089,3591
1420,-3.11558e-12,6.86234e-38,-1.52571e-06,-3.18057e-12,6.86186e-38,0,-1.06627e-13,0,0,-6.39071,0.246418,0.00303427,-0.780891,0.258121,-0.126963,-0.00500786,0,0.293383,0.246418,118,11,118,11,181,11,118,68,-0.261799,-0.261799,-1.78848e-06,-1.5,1.81796e+31,0,0,3,-1.76858,0.246636,0,0,0,0,-2.01549,-0.0238661,3591
1430,-3.11558e-12,6.86234e-38,-1.52571e-06,-3.18057e-12,6.86186e-38,-3.62841e-12,-1.06627e-13,0,0,-6.39071,0.246418,0.00303427,-0.783162,0.258031,-0.125824,-0.00496292,0,0.293383,0.246418,118,11,118,11,181,11,118,68,-0.261799,-0.261799,-1.72484e-06,-1.5,1.81796e+31,0,0,3,-1.80485,0.246207,0,0,0,0,-2.01435,-0.0238212,3591
1440,-3.11558e-12,6.86234e-38,-1.52571e-06,-3.18057e-12,6.86186e-38,0,-1.06628e-13,0,0,-6.39071,0.246418,0.00303427,-0.785538,0.257937,-0.124632,-0.00491592,0,0.293383,0.246418,118,11,118,11,181,11,118,68,-0.261799,-0.261799,-1.66346e-06,-1.5,1.81796e+31,0,0,3,-1.84311,0.245755,0,0,0,0,-2.01316,-0.0237742,3591
1450,-3.11558e-12,6.86234e-38,-1.52571e-06,-3.18057e-12,6.86186e-38,-3.62841e-12,-1.06628e-13,0,0,-6.39071,0.246418,0.00303427,-0.787891,0.257845,-0.123452,-0.00486937,0,0.293383,0.246418,118,11,118,11,181,11,118,68,-0.261799,-0.261799,-1.60104e-06,-1.5,1.81796e+31,0,0,3,-1.88134,0.245304,0,0,0,0,-2.01198,-0.0237276,3591
1460,-3.11558e-12,6.86234e-38,-1.52571e-06,-3.18057e-12,6.86186e-38,0,-1.06628e-13,0,0,-6.39071,0.246418,0.00303427,-0.790465,0.257743,-0.12216,-0.00481841,0,0.293383,0.246418,118,11,118,11,181,11,118,68,-0.261799,-0.261799,-1.53468e-06,-1.5,1.81796e+31,0,0,3,-1.92358,0.244807,0,0,0,0,-2.01069,-0.0236766,3591
1470,-3.11558e-12,6.86234e-38,-1.52571e-06,-3.18057e-12,6.86186e-38,-3.62841e-12,-1.06628e-13,0,0,-6.39071,0.246418,0.00303427,-0.79253,0.257662,-0.121125,-0.00477758,0,0.293383,0.246418,118,11,118,11,181,11,118,68,-0.261799,-0.261799,-1.48312e-06,-1.5,1.81796e+31,0,0,3,-1.95775,0.244405,0,0,0,0,-2.00965,-0.0236358,3591
1480,-3.11558e-12,6.86234e-38,-1.52571e-06,-3.18057e-12,6.86186e-38,0,-1.06629e-13,0,0,-6.39071,0.246418,0.00303427,-0.794697,0.257576,-0.120038,-0.0047347,0,0.293383,0.246418,118,11,118,11,181,11,118,68,-0.261799,-0.261799,-1.43034e-06,-1.5,1.81796e+31,0,0,3,-1.99391,0.24398,0,0,0,0,-2.00857,-0.0235929,3591
1490,-3.11558e-12,6.86234e-38,-1.52571e-06,-3.18057e-12,6.86186e-38,-3.62841e-12,-1.06629e-13,0,0,-6.39071,0.246418,0.00303427,-0.797081,0.257482,-0.118841,-0.00468751,0,0.293383,0.246418,118,11,118,11,181,11,118,68,-0.261799,-0.261799,-1.37386e-06,-1.5,1.81796e+31,0,0,3,-2.03406,0.243508,0,0,0,0,-2.00737,-0.0235457,3591
1500,-3.11558e-12,6.86234e-38,-1.52571e-06,-3.18057e-12,6.86186e-38,0,-1.06629e-13,0,0,-6.39071,0.246418,0.00303427,-0.799091,0.257403,-0.117834,-0.00464778,0,0.293383,0.246418,118,11,118,11,181,11,118,68,-0.261799,-0.261799,-1.32771e-06,-1.5,1.81796e+31,0,0,3,-2.06817,0.243109,0,0,0,0,-2.00636,-0.023506,3591
1510,-3.11558e-12,6.86234e-38,-1.52571e-06,-3.18057e-12,6.86186e-38,-3.62841e-12,-1.06629e-13,0,0,-6.39071,0.246418,0.00303427,-0.801547,0.257306,-0.116601,-0.00459914,0,0.293383,0.246418,118,11,118,11,181,11,118,68,-0.261799,-0.261799,-1.27267e-06,-1.5,1.81796e+31,0,0,3,-2.11029,0.242616,0,0,0,0,-2.00513,-0.0234574,3591
1520,-3.11558e-12,6.86234e-38,-1.52571e-06,-3.18057e-12,6.86186e-38,0,-1.0663e-13,0,0,-6.39071,0.246418,0.00303427,-0.803863,0.257215,-0.115439,-0.00455329,0,0.293383,0.246418,118,11,118,11,181,11,118,68,-0.261799,-0.261799,-1.22237e-06,-1.5,1.81796e+31,0,0,3,-2.15037,0.242147,0,0,0,0,-2.00397,-0.0234115,3591
1530,-3.11558e-12,6.86234e-38,-1.52571e-06,-3.18057e-12,6.86186e-38,-3.62841e-12,-1.0663e-13,0,0,-6.39071,0.246418,0.00303427,-0.806042,0.257129,-0.114345,-0.00451017,0,0.293383,0.246418,118,11,118,11,181,11,118,68,-0.261799,-0.261799,-1.17651e-06,-1.5,1.81796e+31,0,0,3,-2.18844,0.241703,0,0,0,0,-2.00288,-0.0233684,3591
1540,-3.11558e-12,6.86234e-38,-1.52571e-06,-3.18057e-12,6.86186e-38,0,-1.0663e-13,0,0,-6.39071,0.246418,0.00303427,-0.807863,0.257057,-0.113433,-0.00447419,0,0.293383,0.246418,118,11,118,11,181,11,118,68,-0.261799,-0.261799,-1.13929e-06,-1.5,1.81796e+31,0,0,3,-2.22047,0.241329,0,0,0,0,-2.00196,-0.0233324,3591
1550,-3.11558e-12,6.86234e-38,-1.52571e-06,-3.18057e-12,6.86186e-38,-3.62841e-12,-1.06631e-13,0,0,-6.39071,0.246418,0.00303427,-0.80978,0.256981,-0.112472,-0.00443627,0,0.293383,0.246418,118,11,118,11,181,11,118,68,-0.261799,-0.261799,-1.10102e-06,-1.5,1.81796e+31,0,0,3,-2.25449,0.240933,0,0,0,0,-2.001,-0.0232945,3591
1560,-3.11558e-12,6.86234e-38,-1.52571e-06,-3.18057e-12,6.86186e-38,0,-1.06631e-13,0,0,-6.39071,0.246418,0.00303427,-0.812235,0.256884,-0.111239,-0.00438763,0,0.293383,0.246418,118,11,118,11,181,11,118,68,-0.261799,-0.261799,-1.05317e-06,-1.5,1.81796e+31,0,0,3,-2.29849,0.240421,0,0,0,0,-1.99977,-0.0232459,3591
1570,-3.11558e-12,6.86234e-38,-1.52571e-06,-3.18057e-12,6.86186e-38,-3.62841e-12,-1.06631e-13,0,0,-6.39071,0.246418,0.00303427,-0.814335,0.256802,-0.110185,-0.00434608,0,0.293383,0.246418,118,11,118,11,181,11,118,68,-0.261799,-0.261799,-1.01365e-06,-1.5,1.81796e+31,0,0,3,-2.33647,0.23998,0,0,0,0,-1.99871,-0.0232043,3591
1580,-3.11558e-12,6.86234e-38,-1.52571e-06,-3.18057e-12,6.86186e-38,0,-1.06631e-13,0,0,-6.39071,0.246418,0.00303427,-2.37039,0.239587,-1.9893,-0.0230828,0,0.293383,0.246418,118,11,118,11,181,11,118,68,-0.261799,-0.261799,-9.79599e-07,-1.5,1.81796e+31,0,0,3,-2.37039,0.239587,0,0,0,0,-1.9893,-0.0230828,3591
1590,-3.11558e-12,6.86234e-38,-1.52571e-06,-3.18057e-12,6.86186e-38,-3.62841e-12,-1.06632e-13,0,0,-6.39071,0.246418,0.00303427,-2.4099,0.239128,-1.96946,-0.0228526,0,0.293383,0.246418,118,11,118,11,181,11,118,68,-0.261799,-0.261799,-9.40883e-07,-1.5,1.81796e+31,0,0,3,-2.4099,0.239128,0,0,0,0,-1.96946,-0.0228526,3591
1600,-3.11558e-12,6.86234e-38,-1.52571e-06,-3.18057e-12,6.86186e-38,0,-1.06632e-13,0,0,-6.39071,0.246418,0.00303427,-2.44319,0.238742,-1.95277,-0.0226589,0,0.293383,0.246418,118,11,118,11,181,11,118,68,-0.261799,-0.261799,-9.09252e-07,-1.5,1.81796e+31,0,0,3,-2.44319,0.238742,0,0,0,0,-1.95277,-0.0226589,3591
1610,-3.11558e-12,6.86234e-38,-1.52571e-06,-3.18057e-12,6.86186e-38,-3.62841e-12,-1.06632e-13,0,0,-6.39071,0.246418,0.00303427,-2.4839,0.23827,-1.93233,-0.0224217,0,0.293383,0.246418,118,11,118,11,181,11,118,68,-0.261799,-0.261799,-8.71527e-07,-1.5,1.81796e+31,0,0,3,-2.4839,0.23827,0,0,0,0,-1.93233,-0.0224217,3591
1620,-3.11558e-12,6.86234e-38,-1.52571e-06,-3.18057e-12,6.86186e-38,0,-1.06632e-13,0,0,-6.39071,0.246418,0.00303427,-2.68212,0.23597,-1.82838,-0.0212156,0,0.293383,0.246418,118,11,118,11,181,11,118,68,-0.261799,-0.261799,-6.86133e-07,-1.5,1.81796e+31,0,0,3,-2.68212,0.23597,0,0,0,0,-1.82838,-0.0212156,3591
1630,-3.11558e-12,6.86234e-38,-1.52571e-06,-3.18057e-12,6.86186e-38,-3.62841e-12,-1.06633e-13,0,0,-6.39071,0.246418,0.00303427,-2.79931,0.23461,-1.76829,-0.0205183,0,0.293383,0.246418,118,11,118,11,181,11,118,68,-0.261799,-0.261799,-5.97044e-07,-1.5,1.81796e+31,0,0,3,-2.79931,0.23461,0,0,0,0,-1.76829,-0.0205183,3591
1640,-3.11558e-12,6.86234e-38,-1.52571e-06,-3.18057e-12,6.86186e-38,0,-1.06633e-13,0,0,-8.72178,0.348814,0.393743,-2.85691,0.233941,-1.73922,-0.020181,0,-4.77988,0.348814,126,27,126,27,172,27,126,69,-0.261799,-0.261799,-5.58171e-07,-1.5,1.81796e+31,0,0,3,-2.85691,0.233941,0,0,0,0,-1.73922,-0.020181,1932
1650,-3.11558e-12,6.86234e-38,-1.52571e-06,-3.18057e-12,6.86186e-38,-3.62841e-12,-1.06633e-13,0,0,-8.72178,0.348814,0.393743,-2.89146,0.233541,-1.72188,-0.0199798,0,-4.77988,0.348814,126,27,126,27,172,27,126,69,-0.261799,-0.261799,-5.36111e-07,-1.5,1.81796e+31,0,0,3,-2.89146,0.233541,0,0,0,0,-1.72188,-0.0199798,1932
1660,-3.11558e-12,6.86234e-38,-1.52571e-06,-3.18057e-12,6.86186e-38,0,-1.06634e-13,0,0,-8.72178,0.348814,0.393743,-2.92227,0.233183,-1.70643,-0.0198006,0,-4.77988,0.348814,126,27,126,27,172,27,126,69,-0.261799,-0.261799,-5.17047e-07,-1.5,1.81796e+31,0,0,3,-2.92227,0.233183,0,0,0,0,-1.70643,-0.0198006,1932
1670,-3.11558e-12,6.86234e-38,-1.52571e-06,-3.18057e-12,6.86186e-38,-3.62841e-12,-1.06634e-13,0,0,-8.72178,0.348814,0.393743,-2.94774,0.232888,-1.69367,-0.0196525,0,-4.77988,0.348814,126,27,126,27,172,27,126,69,-0.261799,-0.261799,-5.017e-07,-1.5,1.81796e+31,0,0,3,-2.94774,0.232888,0,0,0,0,-1.69367,-0.0196525,1932
1680,-3.11558e-12,6.86234e-38,-1.52571e-06,-3.18057e-12,6.86186e-38,0,-1.06634e-13,0,0,-8.72178,0.348814,0.393743,-2.97637,0.232555,-1.67931,-0.0194859,0,-4.77988,0.348814,126,27,126,27,172,27,126,69,-0.261799,-0.261799,-4.84834e-07,-1.5,1.81796e+31,0,0,3,-2.97637,0.232555,0,0,0,0,-1.67931,-0.0194859,1932
1690,-3.11558e-12,6.86234e-38,-1.52571e-06,-3.18057e-12,6.86186e-38,-3.62841e-12,-1.06634e-13,0,0,-8.72178,0.348814,0.393743,-3.01303,0.23213,-1.6609,-0.0192723,0,-4.77988,0.348814,126,27,126,27,172,27,126,69,-0.261799,-0.261799,-4.63785e-07,-1.5,1.81796e+31,0,0,3,-3.01303,0.23213,0,0,0,0,-1.6609,-0.0192723,1932
1700,-3.11558e-12,6.86234e-38,-1.52571e-06,-3.18057e-12,6.86186e-38,0,-1.06635e-13,0,0,-8.72178,0.348814,0.393743,-3.04275,0.231785,-1.646,-0.0190993,0,-4.77988,0.348814,126,27,126,27,172,27,126,69,-0.261799,-0.261799,-4.47293e-07,-1.5,1.81796e+31,0,0,3,-3.04275,0.231785,0,0,0,0,-1.646,-0.0190993,1932
1710,-3.11558e-12,6.86234e-38,-1.52571e-06,-3.18057e-12,6.86186e-38,-3.62841e-12,-1.06635e-13,0,0,-8.72178,0.348814,0.393743,-3.07058,0.231462,-1.63205,-0.0189375,0,-4.77988,0.348814,126,27,126,27,172,27,126,69,-0.261799,-0.261799,-4.32267e-07,-1.5,1.81796e+31,0,0,3,-3.07058,0.231462,0,0,0,0,-1.63205,-0.0189375,1932
1720,-3.11558e-12,6.86234e-38,-1.52571e-06,-3.18057e-12,6.86186e-38,0,-1.06635e-13,0,0,-8.72178,0.348814,0.393743,-3.1046,0.231067,-1.61497,-0.0187393,0,-4.77988,0.348814,126,27,126,27,172,27,126,69,-0.261799,-0.261799,-4.14349e-07,-1.5,1.81796e+31,0,0,3,-3.1046,0.231067,0,0,0,0,-1.61497,-0.0187393,1932
1730,-3.11558e-12,6.86234e-38,-1.52571e-06,-3.18057e-12,6.86186e-38,-3.62841e-12,-1.06635e-13,0,0,-8.72178,0.348814,0.393743,-3.1319,0.230751,-1.60128,-0.0185805,0,-4.77988,0.348814,126,27,126,27,172,27,126,69,-0.261799,-0.261799,-4.00419e-07,-1.5,1.81796e+31,0,0,3,-3.1319,0.230751,0,0,0,0,-1.60128,-0.0185805,1932
1740,-3.11558e-12,6.86234e-38,-1.52571e-06,-3.18057e-12,6.86186e-38,0,-1.06636e-13,0,0,-8.72178,0.348814,0.393743,-3.16528,0.230363,-1.58452,-0.018386,0,-4.77988,0.348814,126,27,126,27,172,27,126,69,-0.261799,-0.261799,-3.83806e-07,-1.5,1.81796e+31,0,0,3,-3.16528,0.230363,0,0,0,0,-1.58452,-0.018386,1932
1750,-3.11558e-12,6.86234e-38,-1.52571e-06,-3.18057e-12,6.86186e-38,-3.62841e-12,-1.06636e-13,0,0,-8.72178,0.348814,0.393743,-3.19363,0.230034,-1.5703,-0.018221,0,-4.77988,0.348814,126,27,126,27,172,27,126,69,-0.261799,-0.261799,-3.70147e-07,-1.5,1.81796e+31,0,0,3,-3.19363,0.230034,0,0,0,0,-1.5703,-0.018221,1932
1760,-3.11558e-12,6.86234e-38,-1.52571e-06,-3.18057e-12,6.86186e-38,0,-1.06636e-13,0,0,-8.72178,0.348814,0.393743,-3.22327,0.22969,-1.55543,-0.0180484,0,-4.77988,0.348814,126,27,126,27,172,27,126,69,-0.261799,-0.261799,-3.56247e-07,-1.5,1.81796e+31,0,0,3,-3.22327,0.22969,0,0,0,0,-1.55543,-0.0180484,1932
1770,-3.11558e-12,6.86234e-38,-1.52571e-06,-3.18057e-12,6.86186e-38,-3.62841e-12,-1.06636e-13,0,0,-8.72178,0.348814,0.393743,-3.25263,0.22935,-1.54069,-0.0178774,0,-4.77988,0.348814,126,27,126,27,172,27,126,69,-0.261799,-0.261799,-3.42868e-07,-1.5,1.81796e+31,0,0,3,-3.25263,0.22935,0,0,0,0,-1.54069,-0.0178774,1932
1780,-3.11558e-12,6.86234e-38,-1.52571e-06,-3.18057e-12,6.86186e-38,0,-1.06637e-13,0,0,-8.72178,0.348814,0.393743,-3.27867,0.229048,-1.52764,-0.0177259,0,-4.77988,0.348814,126,27,126,27,172,27,126,69,-0.261799,-0.261799,-3.30676e-07,-1.5,1.81796e+31,0,0,3,-3.27867,0.229048,0,0,0,0,-1.52764,-0.0177259,1932
1790,-3.11558e-12,6.86234e-38,-1.52571e-06,-3.18057e-12,6.86186e-38,-3.62841e-12,-1.06637e-13,0,0,-8.72178,0.348814,0.393743,-3.31352,0.228643,-1.51013,-0.0175227,0,-4.77988,0.348814,126,27,126,27,172,27,126,69,-0.261799,-0.261799,-3.1632e-07,-1.5,1.81796e+31,0,0,3,-3.31352,0.228643,0,0,0,0,-1.51013,-0.0175227,1932
1800,-3.11558e-12,6.86234e-38,-1.52571e-06,-3.18057e-12,6.86186e-38,0,-1.06637e-13,0,0,-8.72178,0.348814,0.393743,-3.33607,0.228382,-1.49883,-0.0173917,0,-4.77988,0.348814,126,27,126,27,172,27,126,69,-0.261799,-0.261799,-3.06936e-07,-1.5,1.81796e+31,0,0,3,-3.33607,0.228382,0,0,0,0,-1.49883,-0.0173917,1932
1810,-3.11558e-12,6.86234e-38,-1.52571e-06,-3.18057e-12,6.86186e-38,-3.62841e-12,-1.06638e-13,0,0,-8.72178,0.348814,0.393743,-3.36141,0.228088,-1.48613,-0.0172443,0,-4.77988,0.348814,126,27,126,27,172,27,126,69,-0.261799,-0.261799,-2.96625e-07,-1.5,1.81796e+31,0,0,3,-3.36141,0.228088,0,0,0,0,-1.48613,-0.0172443,1932
1820,-3.11558e-12,6.86234e-38,-1.52571e-06,-3.18057e-12,6.86186e-38,0,-1.06638e-13,0,0,-8.72178,0.348814,0.393743,-3.38947,0.227762,-1.47206,-0.017081,0,-4.77988,0.348814,126,27,126,27,172,27,126,69,-0.261799,-0.261799,-2.85494e-07,-1.5,1.81796e+31,0,0,3,-3.38947,0.227762,0,0,0,0,-1.47206,-0.017081,1932
1830,-3.11558e-12,6.86234e-38,-1.52571e-06,-3.18057e-12,6.86186e-38,-3.62841e-12,-1.06638e-13,0,0,-8.72178,0.348814,0.393743,-3.41725,0.22744,-1.45811,-0.0169192,0,-4.77988,0.348814,126,27,126,27,172,27,126,69,-0.261799,-0.261799,-2.74773e-07,-1.5,1.81796e+31,0,0,3,-3.41725,0.22744,0,0,0,0,-1.45811,-0.0169192,1932
1840,-3.11558e-12,6.86234e-38,-1.52571e-06,-3.18057e-12,6.86186e-38,0,-1.06638e-13,0,0,-8.72178,0.348814,0.393743,-3.44764,0.227087,-1.44285,-0.0167421,0,-4.77988,0.348814,126,27,126,27,172,27,126,69,-0.261799,-0.261799,-2.63372e-07,-1.5,1.81796e+31,0,0,3,-3.44764,0.227087,0,0,0,0,-1.44285,-0.0167421,1932
1850,-3.11558e-12,6.86234e-38,-1.52571e-06,-3.18057e-12,6.86186e-38,-3.62841e-12,-1.06639e-13,0,0,-7.56147,0.388666,0.38196,-3.47489,0.226771,-1.42919,-0.0165835,0,-4.18629,0.388666,117,14,117,14,173,14,117,58,-0.261799,-0.261799,-2.5349e-07,-1.5,1.81796e+31,0,0,3,-3.47489,0.226771,0,0,0,0,-1.42919,-0.0165835,2464
1860,-3.11558e-12,6.86234e-38,-1.52571e-06,-3.18057e-12,6.86186e-38,0,-1.06639e-13,0,0,-7.56147,0.388666,0.38196,-3.50187,0.226458,-1.41565,-0.0164265,0,-4.18629,0.388666,117,14,117,14,173,14,117,58,-0.261799,-0.261799,-2.43978e-07,-1.5,1.81796e+31,0,0,3,-3.50187,0.226458,0,0,0,0,-1.41565,-0.0164265,2464
1870,-3.11558e-12,6.86234e-38,-1.52571e-06,-3.18057e-12,6.86186e-38,-3.62841e-12,-1.06639e-13,0,0,-7.56147,0.388666,0.38196,-3.52859,0.226148,-1.40225,-0.0162709,0,-4.18629,0.388666,117,14,117,14,173,14,117,58,-0.261799,-0.261799,-2.34824e-07,-1.5,1.81796e+31,0,0,3,-3.52859,0.226148,0,0,0,0,-1.40225,-0.0162709,2464
1880,-3.11558e-12,6.86234e-38,-1.52571e-06,-3.18057e-12,6.86186e-38,0,-1.06639e-13,0,0,-7.56147,0.388666,0.38196,-3.5523,0.225873,-1.39036,-0.016133,0,-4.18629,0.388666,117,14,117,14,173,14,117,58,-0.261799,-0.261799,-2.26935e-07,-1.5,1.81796e+31,0,0,3,-3.5523,0.225873,0,0,0,0,-1.39036,-0.016133,2464
1890,-3.11558e-12,6.86234e-38,-1.52571e-06,-3.18057e-12,6.86186e-38,-3.62841e-12,-1.0664e-13,0,0,-7.56147,0.388666,0.38196,-3.58129,0.225536,-1.37581,-0.0159642,0,-4.18629,0.388666,117,14,117,14,173,14,117,58,-0.261799,-0.261799,-2.17528e-07,-1.5,1.81796e+31,0,0,3,-3.58129,0.225536,0,0,0,0,-1.37581,-0.0159642,2464
1900,-3.11558e-12,6.86234e-38,-1.52571e-06,-3.18057e-12,6.86186e-38,0,-1.0664e-13,0,0,-7.56147,0.388666,0.38196,-3.60862,0.225219,-1.3621,-0.0158051,0,-4.18629,0.388666,117,14,117,14,173,14,117,58,-0.261799,-0.261799,-2.08939e-07,-1.5,1.81796e+31,0,0,3,-3.60862,0.225219,0,0,0,0,-1.3621,-0.0158051,2464
1910,-3.11558e-12,6.86234e-38,-1.52571e-06,-3.18057e-12,6.86186e-38,-3.62841e-12,-1.0664e-13,0,0,-7.56147,0.388666,0.38196,-3.63165,0.224952,-1.35055,-0.0156711,0,-4.18629,0.388666,117,14,117,14,173,14,117,58,-0.261799,-0.261799,-2.01919e-07,-1.5,1.81796e+31,0,0,3,-3.63165,0.224952,0,0,0,0,-1.35055,-0.0156711,2464
1920,-3.11558e-12,6.86234e-38,-1.52571e-06,-3.18057e-12,6.86186e-38,0,-1.06641e-13,0,0,-11.6714,0.516734,1.86916,-3.76904,0.223358,-1.27861,-0.0148363,0,-2.81862,0.516734,129,11,129,11,166,11,129,38,-0.261799,-0.261799,-1.5944e-07,-1.5,1.81796e+31,0,0,3,-3.76904,0.223358,0,0,0,0,-1.27861,-0.0148363,999
1930,-3.11558e-12,6.86234e-38,-1.52571e-06,-3.18057e-12,6.86186e-38,-3.62841e-12,-1.06641e-13,0,0,-11.6714,0.516734,1.86916,-3.81934,0.222774,-1.25312,-0.0145406,0,-2.81862,0.516734,129,11,129,11,166,11,129,38,-0.261799,-0.261799,-1.46863e-07,-1.5,1.81796e+31,0,0,3,-3.81934,0.222774,0,0,0,0,-1.25312,-0.0145406,999
1940,-3.11558e-12,6.86234e-38,-1.52571e-06,-3.18057e-12,6.86186e-38,0,-1.06641e-13,0,0,-11.6714,0.516734,1.86916,-3.83929,0.222542,-1.24313,-0.0144246,0,-2.81862,0.516734,129,11,129,11,166,11,129,38,-0.261799,-0.261799,-1.42218e-07,-1.5,1.81796e+31,0,0,3,-3.83929,0.222542,0,0,0,0,-1.24313,-0.0144246,999
1950,-3.11558e-12,6.86234e-38,-1.52571e-06,-3.18057e-12,6.86186e-38,-3.62841e-12,-1.06641e-13,0,0,-11.6714,0.516734,1.86916,-3.86031,0.222299,-1.23259,-0.0143024,0,-2.81862,0.516734,129,11,129,11,166,11,129,38,-0.261799,-0.261799,-1.3744e-07,-1.5,1.81796e+31,0,0,3,-3.86031,0.222299,0,0,0,0,-1.23259,-0.0143024,999
1960,-3.11558e-12,6.86234e-38,-1.52571e-06,-3.18057e-12,6.86186e-38,0,-1.06642e-13,0,0,-11.6714,0.516734,1.86916,-3.88114,0.222057,-1.22215,-0.0141811,0,-2.81862,0.516734,129,11,129,11,166,11,129,38,-0.261799,-0.261799,-1.32819e-07,-1.5,1.81796e+31,0,0,3,-3.88114,0.222057,0,0,0,0,-1.22215,-0.0141811,999
1970,-3.11558e-12,6.86234e-38,-1.52571e-06,-3.18057e-12,6.86186e-38,-3.62841e-12,-1.06642e-13,0,0,-11.6714,0.516734,1.86916,-3.90181,0.221817,-1.21179,-0.014061,0,-2.81862,0.516734,129,11,129,11,166,11,129,38,-0.261799,-0.261799,-1.28357e-07,-1.5,1.81796e+31,0,0,3,-3.90181,0.221817,0,0,0,0,-1.21179,-0.014061,999
1980,-3.11558e-12,6.86234e-38,-1.52571e-06,-3.18057e-12,6.86186e-38,0,-1.06642e-13,0,0,-11.6714,0.516734,1.86916,-3.92469,0.221552,-1.20031,-0.0139278,0,-2.81862,0.516734,129,11,129,11,166,11,129,38,-0.261799,-0.261799,-1.23541e-07,-1.5,1.81796e+31,0,0,3,-3.92469,0.221552,0,0,0,0,-1.20031,-0.0139278,999
1990,-3.11558e-12,6.86234e-38,-1.52571e-06,-3.18057e-12,6.86186e-38,-3.62841e-12,-1.06642e-13,0,0,-11.6714,0.516734,1.86916,-3.94616,0.221302,-1.18954,-0.0138028,0,-2.81862,0.516734,129,11,129,11,166,11,129,38,-0.261799,-0.261799,-1.19148e-07,-1.5,1.81796e+31,0,0,3,-3.94616,0.221302,0,0,0,0,-1.18954,-0.0138028,999
2000,-3.11558e-12,6.86234e-38,-1.52571e-06,-3.18057e-12,6.86186e-38,0,-1.06643e-13,0,0,-11.6714,0.516734,1.86916,-3.96627,0.221069,-1.17946,-0.0136859,0,-2.81862,0.516734,129,11,129,11,166,11,129,38,-0.261799,-0.261799,-1.15145e-07,-1.5,1.81796e+31,0,0,3,-3.96627,0.221069,0,0,0,0,-1.17946,-0.0136859,999
2010,-3.11558e-12,6.86234e-38,-1.52571e-06,-3.18057e-12,6.86186e-38,-3.62841e-12,-1.06643e-13,0,0,-11.6714,0.516734,1.86916,-3.98621,0.220838,-1.16947,-0.0135699,0,-2.81862,0.516734,129,11,129,11,166,11,129,38,-0.261799,-0.261799,-1.11275e-07,-1.5,1.81796e+31,0,0,3,-3.98621,0.220838,0,0,0,0,-1.16947,-0.0135699,999
2020,-3.11558e-12,6.86234e-38,-1.52571e-06,-3.18057e-12,6.86186e-38,0,-1.06643e-13,0,0,-11.6714,0.516734,1.86916,-4.00944,0.220568,-1.15781,-0.0134346,0,-2.81862,0.516734,129,11,129,11,166,11,129,38,-0.261799,-0.261799,-1.06877e-07,-1.5,1.81796e+31,0,0,3,-4.00944,0.220568,0,0,0,0,-1.15781,-0.0134346,999
2030,-3.11558e-12,6.86234e-38,-1.52571e-06,-3.18057e-12,6.86186e-38,-3.62841e-12,-1.06644e-13,0,0,-11.6714,0.516734,1.86916,-4.03016,0.220328,-1.14742,-0.013314,0,-2.81862,0.516734,129,11,129,11,166,11,129,38,-0.261799,-0.261799,-1.03076e-07,-1.5,1.81796e+31,0,0,3,-4.03016,0.220328,0,0,0,0,-1.14742,-0.013314,999
2040,-3.11558e-12,6.86234e-38,-1.52571e-06,-3.18057e-12,6.86186e-38,0,-1.06644e-13,0,0,-11.6714,0.516734,1.86916,-4.04955,0.220103,-1.13769,-0.0132012,0,-2.81862,0.516734,129,11,129,11,166,11,129,38,-0.261799,-0.261799,-9.9814e-08,-1.5,1.81796e+31,0,0,3,-4.04955,0.220103,0,0,0,0,-1.13769,-0.0132012,999
2050,-3.11558e-12,6.86234e-38,-1.52571e-06,-3.18057e-12,6.86186e-38,-3.62841e-12,-1.06644e-13,0,0,-11.6714,0.516734,1.86916,-4.06767,0.219893,-1.12862,-0.0130959,0,-2.81862,0.516734,129,11,129,11,166,11,129,38,-0.261799,-0.261799,-9.66568e-08,-1.5,1.81796e+31,0,0,3,-4.06767,0.219893,0,0,0,0,-1.12862,-0.0130959,999
2060,-3.11558e-12,6.86234e-38,-1.52571e-06,-3.18057e-12,6.86186e-38,0,-1.06644e-13,0,0,-11.6714,0.516734,1.86916,-4.08452,0.219697,-1.12018,-0.012998,0,-2.81862,0.516734,129,11,129,11,166,11,129,38,-0.261799,-0.261799,-9.37894e-08,-1.5,1.81796e+31,0,0,3,-4.08452,0.219697,0,0,0,0,-1.12018,-0.012998,999
2070,-3.11558e-12,6.86234e-38,-1.52571e-06,-3.18057e-12,6.86186e-38,-3.62841e-12,-1.06645e-13,0,0,-11.6714,0.516734,1.86916,-4.10013,0.219516,-1.11236,-0.0129072,0,-2.81862,0.516734,129,11,129,11,166,11,129,38,-0.261799,-0.261799,-9.11913e-08,-1.5,1.81796e+31,0,0,3,-4.10013,0.219516,0,0,0,0,-1.11236,-0.0129072,999
2080,-3.11558e-12,6.86234e-38,-1.52571e-06,-3.18057e-12,6.86186e-38,0,-1.06645e-13,0,0,-11.6714,0.516734,1.86916,-4.11894,0.219298,-1.10293,-0.0127978,0,-2.81862,0.516734,129,11,129,11,166,11,129,38,-0.261799,-0.261799,-8.81278e-08,-1.5,1.81796e+31,0,0,3,-4.11894,0.219298,0,0,0,0,-1.10293,-0.0127978,999
2090,-3.11558e-12,6.86234e-38,-1.52571e-06,-3.18057e-12,6.86186e-38,-3.62841e-12,-1.06645e-13,0,0,-11.6714,0.516734,1.86916,-4.13868,0.219069,-1.09304,-0.012683,0,-2.81862,0.516734,129,11,129,11,166,11,129,38,-0.261799,-0.261799,-8.49962e-08,-1.5,1.81796e+31,0,0,3,-4.13868,0.219069,0,0,0,0,-1.09304,-0.012683,999
2100,-3.11558e-12,6.86234e-38,-1.52571e-06,-3.18057e-12,6.86186e-38,0,-1.06645e-13,0,0,-11.6714,0.516734,1.86916,-4.16039,0.218817,-1.08214,-0.0125566,0,-2.81862,0.516734,129,11,129,11,166,11,129,38,-0.261799,-0.261799,-8.164e-08,-1.5,1.81796e+31,0,0,3,-4.16039,0.218817,0,0,0,0,-1.08214,-0.0125566,999
2110,-3.11558e-12,6.86234e-38,-1.52571e-06,-3.18057e-12,6.86186e-38,-3.62841e-12,-1.06646e-13,0,0,-11.6714,0.516734,1.86916,-4.17868,0.218604,-1.07297,-0.0124502,0,-2.81862,0.516734,129,11,129,11,166,11,129,38,-0.261799,-0.261799,-7.88973e-08,-1.5,1.81796e+31,0,0,3,-4.17868,0.218604,0,0,0,0,-1.07297,-0.0124502,999
2120,-3.11558e-12,6.86234e-38,-1.52571e-06,-3.18057e-12,6.86186e-38,0,-1.06646e-13,0,0,-11.6714,0.516734,1.86916,-4.19682,0.218394,-1.06388,-0.0123447,0,-2.81862,0.516734,129,11,129,11,166,11,129,38,-0.261799,-0.261799,-7.62468e-08,-1.5,1.81796e+31,0,0,3,-4.19682,0.218394,0,0,0,0,-1.06388,-0.0123447,999
