timestamp,A_x,A_y,A_z,P,Q,R,Phi,Theta,Psi,poseX,poseY,poseZ,state_X,state_Y,state_Z,state_VzB,state_Bx,state_By,state_Bz,p1_x,p1_y,p2_x,p2_y,p3_x,p3_y,p4_x,p4_y,roll,pitch,yaw,alt,targetHeading,highLevelState,lowLevelState,gateNumber,filtered_x,filtered_y,x_OT,y_OT,vx_OT,vy_OT,filtered_vx,filtered_vygateArearansac_corr_x,ransac_corr_y,ransac_corr_vx,ransac_corr_vy
10,0,0,0,0,0,0,0,0,0,0,0,0,0,0,0,0,0,0,0,0,0,0,0,0,0,0,0,0,-0.261799,0,-1.5,0,0,0,0,0,0,0,0,0,0,0,0,1.9603e-19,0,0,0,0
20,0,0,0,0,0,0,0,0,0,0,0,0,0,0,0,0,0,0,0,0,0,0,0,0,0,0,0,0,-0.261799,0,-1.5,0,0,0,0,0,0,0,0,0,0,0,0,1.9603e-19,0,0,0,0
30,-3.11559e-12,1.42781e-38,-1.52012e-06,-3.18057e-12,1.42769e-38,-3.62841e-12,-1.06589e-13,0,0,0,0,0,0,0,0,0,0,0,0,0,0,0,0,0,0,0,0,0,-0.261799,0,-1.5,0,0,0,0,0,0,0,0,0,0,0,0,1.9603e-19,0,0,0,0
40,-3.11559e-12,1.42781e-38,-1.52012e-06,-3.18057e-12,1.42769e-38,0,-1.0659e-13,0,0,0,0,0,0,0,0,0,0,0,0,0,0,0,0,0,0,0,0,0,-0.261799,0,-1.5,0,0,0,0,0,0,0,0,0,0,0,0,1.9603e-19,0,0,0,0
50,-3.11559e-12,1.42781e-38,-1.52012e-06,-3.18057e-12,1.42769e-38,-3.62841e-12,-1.0659e-13,0,0,0,0,0,0,0,0,0,0,0,0,0,0,0,0,0,0,0,0,0,-0.261799,0,-1.5,0,0,0,0,0,0,0,0,0,0,0,0,1.9603e-19,0,0,0,0
60,-3.11559e-12,1.42781e-38,-1.52012e-06,-3.18057e-12,1.42769e-38,0,-1.0659e-13,0,0,0,0,0,0,0,0,0,0,0,0,0,0,0,0,0,0,0,0,0,-0.261799,0,-1.5,0,0,0,0,0,0,0,0,0,0,0,0,1.9603e-19,0,0,0,0
70,-3.11559e-12,1.42781e-38,-1.52012e-06,-3.18057e-12,1.42769e-38,-3.62841e-12,-1.0659e-13,0,0,0,0,0,0,0,0,0,0,0,0,0,0,0,0,0,0,0,0,0,-0.261799,0,-1.5,0,0,0,0,0,0,0,0,0,0,0,0,1.9603e-19,0,0,0,0
80,-3.11559e-12,1.42781e-38,-1.52012e-06,-3.18057e-12,1.42769e-38,0,-1.06591e-13,0,0,0,0,0,0,0,0,0,0,0,0,0,0,0,0,0,0,0,0,0,-0.261799,0,-1.5,0,0,0,0,0,0,0,0,0,0,0,0,1.9603e-19,0,0,0,0
90,-3.11559e-12,1.42781e-38,-1.52012e-06,-3.18057e-12,1.42769e-38,-3.62841e-12,-1.06591e-13,0,0,0,0,0,0,0,0,0,0,0,0,0,0,0,0,0,0,0,0,0,-0.261799,0,-1.5,0,0,0,0,0,0,0,0,0,0,0,0,1.9603e-19,0,0,0,0
100,-3.11559e-12,1.42781e-38,-1.52012e-06,-3.18057e-12,1.42769e-38,0,-1.06591e-13,0,0,0,0,0,0,0,0,0,0,0,0,0,0,0,0,0,0,0,0,0,-0.261799,0,-1.5,0,0,0,0,0,0,0,0,0,0,0,0,1.9603e-19,0,0,0,0
110,-3.11559e-12,1.42781e-38,-1.52012e-06,-3.18057e-12,1.42769e-38,-3.62841e-12,-1.06591e-13,0,0,0,0,0,0,0,0,0,0,0,0,0,0,0,0,0,0,0,0,0,-0.261799,0,-1.5,0,0,0,0,0,0,0,0,0,0,0,0,1.9603e-19,0,0,0,0
120,-3.11559e-12,1.42781e-38,-1.52012e-06,-3.18057e-12,1.42769e-38,0,-1.06592e-13,0,0,0,0,0,0,0,0,0,0,0,0,0,0,0,0,0,0,0,0,0,-0.261799,0,-1.5,0,0,0,0,0,0,0,0,0,0,0,0,1.9603e-19,0,0,0,0
130,-3.11559e-12,1.42781e-38,-1.52012e-06,-3.18057e-12,1.42769e-38,-3.62841e-12,-1.06592e-13,0,0,0,0,0,0,0,0,0,0,0,0,0,0,0,0,0,0,0,0,0,-0.261799,0,-1.5,0,0,0,0,0,0,0,0,0,0,0,0,1.9603e-19,0,0,0,0
140,-3.11559e-12,1.42781e-38,-1.52012e-06,-3.18057e-12,1.42769e-38,0,-1.06592e-13,0,0,0,0,0,0,0,0,0,0,0,0,0,0,0,0,0,0,0,0,0,-0.261799,0,-1.5,0,0,0,0,0,0,0,0,0,0,0,0,1.9603e-19,0,0,0,0
150,-3.11559e-12,1.42781e-38,-1.52012e-06,-3.18057e-12,1.42769e-38,-3.62841e-12,-1.06593e-13,0,0,0,0,0,0,0,0,0,0,0,0,0,0,0,0,0,0,0,0,0,-0.261799,0,-1.5,0,0,0,0,0,0,0,0,0,0,0,0,1.9603e-19,0,0,0,0
160,-3.11559e-12,1.42781e-38,-1.52012e-06,-3.18057e-12,1.42769e-38,0,-1.06593e-13,0,0,0,0,0,0,0,0,0,0,0,0,0,0,0,0,0,0,0,0,0,-0.261799,0,-1.5,0,0,0,0,0,0,0,0,0,0,0,0,1.9603e-19,0,0,0,0
170,-3.11559e-12,1.42781e-38,-1.52012e-06,-3.18057e-12,1.42769e-38,-3.62841e-12,-1.06593e-13,0,0,0,0,0,0,0,0,0,0,0,0,0,0,0,0,0,0,0,0,0,-0.261799,0,-1.5,0,0,0,0,0,0,0,0,0,0,0,0,1.9603e-19,0,0,0,0
180,-3.11559e-12,1.42781e-38,-1.52012e-06,-3.18057e-12,1.42769e-38,0,-1.06593e-13,0,0,0,0,0,0,0,0,0,0,0,0,0,0,0,0,0,0,0,0,0,-0.261799,0,-1.5,0,0,0,0,0,0,0,0,0,0,0,0,1.9603e-19,0,0,0,0
190,-3.11559e-12,1.42781e-38,-1.52012e-06,-3.18057e-12,1.42769e-38,-3.62841e-12,-1.06594e-13,0,0,0,0,0,0,0,0,0,0,0,0,0,0,0,0,0,0,0,0,0,-0.261799,0,-1.5,0,0,0,0,0,0,0,0,0,0,0,0,1.9603e-19,0,0,0,0
200,-3.11559e-12,1.42781e-38,-1.52012e-06,-3.18057e-12,1.42769e-38,0,-1.06594e-13,0,0,0,0,0,0,0,0,0,0,0,0,0,0,0,0,0,0,0,0,0,-0.261799,0,-1.5,0,0,0,0,0,0,0,0,0,0,0,0,1.9603e-19,0,0,0,0
210,-3.11559e-12,1.42781e-38,-1.52012e-06,-3.18057e-12,1.42769e-38,-3.62841e-12,-1.06594e-13,0,0,-6.43672,0.284946,0.00582728,0,0,0,0,0,0.276793,0.284946,116,12,116,12,179,12,116,68,0,-0.261799,0,-1.5,0,0,0,0,0,0,0,0,0,0,0,0,3528,0,0,0,0
220,-3.11559e-12,1.42781e-38,-1.52012e-06,-3.18057e-12,1.42769e-38,0,-1.06594e-13,0,0,-6.43672,0.284946,0.00582728,0,0,0,0,0,0.276793,0.284946,116,12,116,12,179,12,116,68,0,-0.261799,0,-1.5,0,0,0,0,0,0,0,0,0,0,0,0,3528,0,0,0,0
230,-3.11559e-12,1.42781e-38,-1.52012e-06,-3.18057e-12,1.42769e-38,-3.62841e-12,-1.06595e-13,0,0,-6.43672,0.284946,0.00582728,0,0,0,0,0,0.276793,0.284946,116,12,116,12,179,12,116,68,0,-0.261799,0,-1.5,0,0,0,0,0,0,0,0,0,0,0,0,3528,0,0,0,0
240,-3.11559e-12,1.42781e-38,-1.52012e-06,-3.18057e-12,1.42769e-38,0,-1.06595e-13,0,0,-6.43672,0.284946,0.00582728,0,0,0,0,0,0.276793,0.284946,116,12,116,12,179,12,116,68,0,-0.261799,0,-1.5,0,0,0,0,0,0,0,0,0,0,0,0,3528,0,0,0,0
250,-3.11559e-12,1.42781e-38,-1.52012e-06,-3.18057e-12,1.42769e-38,-3.62841e-12,-1.06595e-13,0,0,-6.82524,0.29239,0.105825,0,0,0,0,0,0.129332,0.29239,118,14,118,14,178,14,118,66,0,-0.261799,0,-1.5,0,0,0,0,0,0,0,0,0,0,0,0,3120,0,0,0,0
260,-3.11559e-12,1.42781e-38,-1.52012e-06,-3.18057e-12,1.42769e-38,0,-1.06596e-13,0,0,-6.82524,0.29239,0.105825,0,0,0,0,0,0.129332,0.29239,118,14,118,14,178,14,118,66,0,-0.261799,0,-1.5,0,0,0,0,0,0,0,0,0,0,0,0,3120,0,0,0,0
270,-3.11559e-12,1.42781e-38,-1.52012e-06,-3.18057e-12,1.42769e-38,-3.62841e-12,-1.06596e-13,0,0,-6.4794,0.286747,0.0173503,0,0,0,0,0,0.261239,0.286747,115,14,115,14,180,14,115,66,0,-0.261799,0,-1.5,0,0,0,0,0,0,0,0,0,0,0,0,3380,0,0,0,0
280,-3.11559e-12,1.42781e-38,-1.52012e-06,-3.18057e-12,1.42769e-38,0,-1.06596e-13,0,0,-6.4794,0.286747,0.0173503,0,0,0,0,0,0.261239,0.286747,115,14,115,14,180,14,115,66,0,-0.261799,0,-1.5,0,0,0,0,0,0,0,0,0,0,0,0,3380,0,0,0,0
290,-3.11559e-12,1.42781e-38,-1.52012e-06,-3.18057e-12,1.42769e-38,-3.62841e-12,-1.06596e-13,0,0,-6.4794,0.286747,0.0173503,0,0,0,0,0,0.261239,0.286747,115,14,115,14,180,14,115,66,0,-0.261799,0,-1.5,0,0,0,0,0,0,0,0,0,0,0,0,3380,0,0,0,0
300,-3.11559e-12,1.42781e-38,-1.52012e-06,-3.18057e-12,1.42769e-38,0,-1.06597e-13,0,0,-6.15469,0.272411,-0.0752132,0,0,0,0,0,0.375573,0.272411,114,12,114,12,181,12,114,69,0,-0.261799,0,-1.5,0,0,0,0,0,0,0,0,0,0,0,0,3819,0,0,0,0
310,-3.11559e-12,1.42781e-38,-1.52012e-06,-3.18057e-12,1.42769e-38,-3.62841e-12,-1.06597e-13,0,0,-6.15469,0.272411,-0.0752132,0,0,0,0,0,0.375573,0.272411,114,12,114,12,181,12,114,69,0,-0.261799,0,-1.5,0,0,0,0,0,0,0,0,0,0,0,0,3819,0,0,0,0
320,-3.11559e-12,1.42781e-38,-1.52012e-06,-3.18057e-12,1.42769e-38,0,-1.06597e-13,0,0,-6.15469,0.272411,-0.0752132,0,0,0,0,0,0.375573,0.272411,114,12,114,12,181,12,114,69,0,-0.261799,0,-1.5,0,0,0,0,0,0,0,0,0,0,0,0,3819,0,0,0,0
330,-3.11559e-12,1.42781e-38,-1.52012e-06,-3.18057e-12,1.42769e-38,-3.62841e-12,-1.06597e-13,0,0,-6.15469,0.272411,-0.0752132,0,0,0,0,0,0.375573,0.272411,114,12,114,12,181,12,114,69,0,-0.261799,0,-1.5,0,0,0,0,0,0,0,0,0,0,0,0,3819,0,0,0,0
340,-3.11559e-12,1.42781e-38,-1.52012e-06,-3.18057e-12,1.42769e-38,0,-1.06598e-13,0,0,-6.43926,0.30337,-0.00226672,0,0,0,0,0,0.275874,0.30337,114,14,114,14,179,14,114,67,0,-0.261799,0,-1.5,0,0,0,0,0,0,0,0,0,0,0,0,3445,0,0,0,0
350,-3.11559e-12,1.42781e-38,-1.52012e-06,-3.18057e-12,1.42769e-38,-3.62841e-12,-1.06598e-13,0,0,-6.43926,0.30337,-0.00226672,0,0,0,0,0,0.275874,0.30337,114,14,114,14,179,14,114,67,0,-0.261799,0,-1.5,0,0,0,0,0,0,0,0,0,0,0,0,3445,0,0,0,0
360,-3.11559e-12,1.42781e-38,-1.52012e-06,-3.18057e-12,1.42769e-38,0,-1.06598e-13,0,0,-6.43926,0.30337,-0.00226672,0,0,0,0,0,0.275874,0.30337,114,14,114,14,179,14,114,67,0,-0.261799,0,-1.5,0,0,0,0,0,0,0,0,0,0,0,0,3445,0,0,0,0
370,-3.11559e-12,1.42781e-38,-1.52012e-06,-3.18057e-12,1.42769e-38,-3.62841e-12,-1.06599e-13,0,0,-6.43926,0.30337,-0.00226672,0,0,0,0,0,0.275874,0.30337,114,14,114,14,179,14,114,67,0,-0.261799,0,-1.5,0,0,0,0,0,0,0,0,0,0,0,0,3445,0,0,0,0
380,-3.11559e-12,1.42781e-38,-1.52012e-06,-3.18057e-12,1.42769e-38,0,-1.06599e-13,0,0,-6.48224,0.249921,0.00836105,0,0,0,0,0,0.2602,0.249921,118,13,118,13,181,13,118,68,0,-0.261799,0,-1.5,0,0,0,0,0,0,0,0,0,0,0,0,3465,0,0,0,0
390,-3.11559e-12,1.42781e-38,-1.52012e-06,-3.18057e-12,1.42769e-38,-3.62841e-12,-1.06599e-13,0,0,-6.48224,0.249921,0.00836105,0,0,0,0,0,0.2602,0.249921,118,13,118,13,181,13,118,68,0,-0.261799,0,-1.5,0,0,0,0,0,0,0,0,0,0,0,0,3465,0,0,0,0
400,-3.11559e-12,1.42781e-38,-1.52012e-06,-3.18057e-12,1.42769e-38,0,-1.06599e-13,0,0,-6.48224,0.249921,0.00836105,0,0,0,0,0,0.2602,0.249921,118,13,118,13,181,13,118,68,0,-0.261799,0,-1.5,0,0,0,0,0,0,0,0,0,0,0,0,3465,0,0,0,0
410,-3.11559e-12,1.42781e-38,-1.52012e-06,-3.18057e-12,1.42769e-38,-3.62841e-12,-1.066e-13,0,0,-6.48224,0.249921,0.00836105,0,0,0,0,0,0.2602,0.249921,118,13,118,13,181,13,118,68,0,-0.261799,0,-1.5,0,0,0,0,0,0,0,0,0,0,0,0,3465,0,0,0,0
420,-3.11559e-12,1.42781e-38,-1.52012e-06,-3.18057e-12,1.42769e-38,0,-1.066e-13,0,0,-6.50519,0.260055,0.0145051,0,0,0,0,0,0.251763,0.260055,117,14,117,14,181,14,117,67,0,-0.261799,0,-1.5,0,0,0,0,0,0,0,0,0,0,0,0,3392,0,0,0,0
430,-3.11559e-12,1.42781e-38,-1.52012e-06,-3.18057e-12,1.42769e-38,-3.62841e-12,-1.066e-13,0,0,-6.50519,0.260055,0.0145051,0,0,0,0,0,0.251763,0.260055,117,14,117,14,181,14,117,67,0,-0.261799,0,-1.5,0,0,0,0,0,0,0,0,0,0,0,0,3392,0,0,0,0
440,-3.11559e-12,1.42781e-38,-1.52012e-06,-3.18057e-12,1.42769e-38,0,-1.066e-13,0,0,-6.50519,0.260055,0.0145051,0,0,0,0,0,0.251763,0.260055,117,14,117,14,181,14,117,67,0,-0.261799,0,-1.5,0,0,0,0,0,0,0,0,0,0,0,0,3392,0,0,0,0
450,-3.11559e-12,1.42781e-38,-1.52012e-06,-3.18057e-12,1.42769e-38,-3.62841e-12,-1.06601e-13,0,0,-6.50519,0.260055,0.0145051,0,0,0,0,0,0.251763,0.260055,117,14,117,14,181,14,117,67,0,-0.261799,0,-1.5,0,0,0,0,0,0,0,0,0,0,0,0,3392,0,0,0,0
460,-3.11559e-12,1.42781e-38,-1.52012e-06,-3.18057e-12,1.42769e-38,0,-1.06601e-13,0,0,-6.33133,0.271238,-0.0303206,0,0,0,0,0,0.314518,0.271238,116,12,116,12,180,12,116,69,0,-0.261799,0,-1.5,0,0,0,0,0,0,0,0,0,0,0,0,3648,0,0,0,0
470,-3.11559e-12,1.42781e-38,-1.52012e-06,-3.18057e-12,1.42769e-38,-3.62841e-12,-1.06601e-13,0,0,-6.33133,0.271238,-0.0303206,0,0,0,0,0,0.314518,0.271238,116,12,116,12,180,12,116,69,0,-0.261799,0,-1.5,0,0,0,0,0,0,0,0,0,0,0,0,3648,0,0,0,0
480,-3.11559e-12,1.42781e-38,-1.52012e-06,-3.18057e-12,1.42769e-38,0,-1.06602e-13,0,0,-6.33133,0.271238,-0.0303206,0,0,0,0,0,0.314518,0.271238,116,12,116,12,180,12,116,69,0,-0.261799,0,-1.5,0,0,0,0,0,0,0,0,0,0,0,0,3648,0,0,0,0
490,-3.11559e-12,1.42781e-38,-1.52012e-06,-3.18057e-12,1.42769e-38,-3.62841e-12,-1.06602e-13,0,0,-6.72488,0.288119,0.079831,0,0,0,0,0,0.168687,0.288119,118,13,118,13,178,13,118,67,0,-0.261799,0,-1.5,0,0,0,0,0,0,0,0,0,0,0,0,3240,0,0,0,0
500,-3.11559e-12,1.42781e-38,-1.52012e-06,-3.18057e-12,1.42769e-38,0,-1.06602e-13,0,0,-6.72488,0.288119,0.079831,0,0,0,0,0,0.168687,0.288119,118,13,118,13,178,13,118,67,0,-0.261799,0,-1.5,0,0,0,0,0,0,0,0,0,0,0,0,3240,0,0,0,0
510,-3.11559e-12,1.42781e-38,-1.52012e-06,-3.18057e-12,1.42769e-38,-3.62841e-12,-1.06602e-13,0,0,-6.72488,0.288119,0.079831,0,0,0,0,0,0.168687,0.288119,118,13,118,13,178,13,118,67,0,-0.261799,0,-1.5,0,0,0,0,0,0,0,0,0,0,0,0,3240,0,0,0,0
520,-3.11559e-12,1.42781e-38,-1.52012e-06,-3.18057e-12,1.42769e-38,0,-1.06603e-13,0,0,-6.72488,0.288119,0.079831,0,0,0,0,0,0.168687,0.288119,118,13,118,13,178,13,118,67,0,-0.261799,0,-1.5,0,0,0,0,0,0,0,0,0,0,0,0,3240,0,0,0,0
530,-3.11559e-12,1.42781e-38,-1.52012e-06,-3.18057e-12,1.42769e-38,-3.62841e-12,-1.06603e-13,0,0,-5.99214,0.316439,-0.116249,0,0,0,0,0,0.429348,0.316439,109,13,109,13,180,13,109,68,0,-0.261799,0,-1.5,0,0,0,0,0,0,0,0,0,0,0,0,3905,0,0,0,0
540,-3.11559e-12,1.42781e-38,-1.52012e-06,-3.18057e-12,1.42769e-38,0,-1.06603e-13,0,0,-5.99214,0.316439,-0.116249,0,0,0,0,0,0.429348,0.316439,109,13,109,13,180,13,109,68,0,-0.261799,0,-1.5,0,0,0,0,0,0,0,0,0,0,0,0,3905,0,0,0,0
550,-3.11559e-12,1.42781e-38,-1.52012e-06,-3.18057e-12,1.42769e-38,-3.62841e-12,-1.06603e-13,0,0,-5.99214,0.316439,-0.116249,0,0,0,0,0,0.429348,0.316439,109,13,109,13,180,13,109,68,0,-0.261799,0,-1.5,0,0,0,0,0,0,0,0,0,0,0,0,3905,0,0,0,0
560,-3.11559e-12,1.42781e-38,-1.52012e-06,-3.18057e-12,1.42769e-38,0,-1.06604e-13,0,0,-5.99214,0.316439,-0.116249,0,0,0,0,0,0.429348,0.316439,109,13,109,13,180,13,109,68,0,-0.261799,0,-1.5,0,0,0,0,0,0,0,0,0,0,0,0,3905,0,0,0,0
570,-3.11559e-12,1.42781e-38,-1.52012e-06,-3.18057e-12,1.42769e-38,-3.62841e-12,-1.06604e-13,0,0,-5.90512,0.278083,-0.146693,0,0,0,0,0,0.457186,0.278083,110,14,110,14,183,14,110,68,0,-0.261799,0,-1.5,0,0,0,0,0,0,0,0,0,0,0,0,3942,0,0,0,0
580,-3.11559e-12,1.42781e-38,-1.52012e-06,-3.18057e-12,1.42769e-38,0,-1.06604e-13,0,0,-5.90512,0.278083,-0.146693,0,0,0,0,0,0.457186,0.278083,110,14,110,14,183,14,110,68,0,-0.261799,0,-1.5,0,0,0,0,0,0,0,0,0,0,0,0,3942,0,0,0,0
590,-3.11559e-12,1.42781e-38,-1.52012e-06,-3.18057e-12,1.42769e-38,-3.62841e-12,-1.06605e-13,0,0,-5.90512,0.278083,-0.146693,0,0,0,0,0,0.457186,0.278083,110,14,110,14,183,14,110,68,0,-0.261799,0,-1.5,0,0,0,0,0,0,0,0,0,0,0,0,3942,0,0,0,0
600,-3.11559e-12,1.42781e-38,-1.52012e-06,-3.18057e-12,1.42769e-38,0,-1.06605e-13,0,0,-5.90512,0.278083,-0.146693,0,0,0,0,0,0.457186,0.278083,110,14,110,14,183,14,110,68,0,-0.261799,0,-1.5,0,0,0,0,0,0,0,0,0,0,0,0,3942,0,0,0,0
610,-3.11559e-12,1.42781e-38,-1.52012e-06,-3.18057e-12,1.42769e-38,-3.62841e-12,-1.06605e-13,0,0,-5.90512,0.278083,-0.146693,0,0,0,0,0,0.457186,0.278083,110,14,110,14,183,14,110,68,0,-0.261799,0,-1.5,0,0,0,0,0,0,0,0,0,0,0,0,3942,0,0,0,0
620,-3.11559e-12,1.42781e-38,-1.52012e-06,-3.18057e-12,1.42769e-38,0,-1.06605e-13,0,0,-6.19429,0.309523,-0.0738523,0,0,0,0,0,0.362124,0.309523,112,13,112,13,179,13,112,69,-0.261799,-0.261799,0,-1.5,0,0,0,0,0.378788,0.290708,0,0,0,0,0.165512,0.00795433,3752,0.360085,0.289809,0.165512,0.00795433
630,-3.11559e-12,1.42781e-38,-1.52012e-06,-3.18057e-12,1.42769e-38,-3.62841e-12,-1.06606e-13,0,0,-6.19429,0.309523,-0.0738523,0,0,0,0,0,0.362124,0.309523,112,13,112,13,179,13,112,69,-0.261799,-0.261799,0,-1.5,0,0,0,0,0.382264,0.290875,0,0,0,0,0.165512,0.00795433,3752,0.360085,0.289809,0.165512,0.00795433
640,-3.11559e-12,1.42781e-38,-1.52012e-06,-3.18057e-12,1.42769e-38,0,-1.06606e-13,0,0,-6.19429,0.309523,-0.0738523,0,0,0,0,0,0.362124,0.309523,112,13,112,13,179,13,112,69,-0.261799,-0.261799,0,-1.5,0,0,0,0,0.385078,0.29101,0,0,0,0,0.165512,0.00795433,3752,0.360085,0.289809,0.165512,0.00795433
650,-3.11559e-12,1.42781e-38,-1.52012e-06,-3.18057e-12,1.42769e-38,-3.62841e-12,-1.06606e-13,0,0,-6.19429,0.309523,-0.0738523,0,0,0,0,0,0.362124,0.309523,112,13,112,13,179,13,112,69,-0.261799,-0.261799,0,-1.5,0,0,0,0,0.387892,0.291145,0,0,0,0,0.165512,0.00795433,3752,0.360085,0.289809,0.165512,0.00795433
660,-3.11559e-12,1.42781e-38,-1.52012e-06,-3.18057e-12,1.42769e-38,0,-1.06606e-13,0,0,-6.03913,0.284506,-0.104581,0,0,0,0,0,0.414038,0.284506,112,12,112,12,181,12,112,69,-0.261799,-0.261799,0,-1.5,0,0,0,0,0.42633,0.284337,0,0,0,0,0.210152,-0.000754801,3933,0.406996,0.284406,0.210152,-0.000754801
670,-3.11559e-12,1.42781e-38,-1.52012e-06,-3.18057e-12,1.42769e-38,-3.62841e-12,-1.06607e-13,0,0,-6.03913,0.284506,-0.104581,0,0,0,0,0,0.414038,0.284506,112,12,112,12,181,12,112,69,-0.261799,-0.261799,0,-1.5,0,0,0,0,0.431374,0.284319,0,0,0,0,0.210152,-0.000754801,3933,0.406996,0.284406,0.210152,-0.000754801
680,-3.11559e-12,1.42781e-38,-1.52012e-06,-3.18057e-12,1.42769e-38,0,-1.06607e-13,0,0,-6.03913,0.284506,-0.104581,0,0,0,0,0,0.414038,0.284506,112,12,112,12,181,12,112,69,-0.261799,-0.261799,0,-1.5,0,0,0,0,0.434946,0.284306,0,0,0,0,0.210152,-0.000754801,3933,0.406996,0.284406,0.210152,-0.000754801
690,-3.11559e-12,1.42781e-38,-1.52012e-06,-3.18057e-12,1.42769e-38,-3.62841e-12,-1.06607e-13,0,0,-6.3088,0.279177,-0.0354495,0,0,0,0,0,0.322459,0.279177,114,14,114,14,181,14,114,67,-0.261799,-0.261799,0,-1.5,0,0,0,0,0.447359,0.278668,0,0,0,0,0.206897,-0.00836677,3551,0.429565,0.279388,0.206897,-0.00836677
700,-3.11559e-12,1.42781e-38,-1.52012e-06,-3.18057e-12,1.42769e-38,0,-1.06607e-13,0,0,-6.3088,0.279177,-0.0354495,0,0,0,0,0,0.322459,0.279177,114,14,114,14,181,14,114,67,-0.261799,-0.261799,0,-1.5,0,0,0,0,0.451704,0.278493,0,0,0,0,0.206897,-0.00836677,3551,0.429565,0.279388,0.206897,-0.00836677
710,-3.11559e-12,1.42781e-38,-1.52012e-06,-3.18057e-12,1.42769e-38,-3.62841e-12,-1.06608e-13,0,0,-6.3088,0.279177,-0.0354495,0,0,0,0,0,0.322459,0.279177,114,14,114,14,181,14,114,67,-0.261799,-0.261799,0,-1.5,0,0,0,0,0.455428,0.278342,0,0,0,0,0.206897,-0.00836677,3551,0.429565,0.279388,0.206897,-0.00836677
720,-3.11559e-12,1.42781e-38,-1.52012e-06,-3.18057e-12,1.42769e-38,0,-1.06608e-13,0,0,-6.2087,0.283606,-0.0699223,0,0,0,0,0,0.357196,0.283606,113,14,113,14,181,14,113,68,-0.261799,-0.261799,0,-1.5,0,0,0,0,0.366882,0.283802,0,0,0,0,0.0902523,-7.72262e-05,3672,0.359752,0.283808,0.0902523,-7.72262e-05
730,-3.11559e-12,1.42781e-38,-1.52012e-06,-3.18057e-12,1.42769e-38,-3.62841e-12,-1.06608e-13,0,0,-6.2087,0.283606,-0.0699223,0,0,0,0,0,0.357196,0.283606,113,14,113,14,181,14,113,68,-0.261799,-0.261799,0,-1.5,0,0,0,0,0.368597,0.283801,0,0,0,0,0.0902523,-7.72262e-05,3672,0.359752,0.283808,0.0902523,-7.72262e-05
740,-3.11559e-12,1.42781e-38,-1.52012e-06,-3.18057e-12,1.42769e-38,0,-1.06609e-13,0,0,-6.2087,0.283606,-0.0699223,0,0,0,0,0,0.357196,0.283606,113,14,113,14,181,14,113,68,-0.261799,-0.261799,0,-1.5,0,0,0,0,0.369951,0.283799,0,0,0,0,0.0902523,-7.72262e-05,3672,0.359752,0.283808,0.0902523,-7.72262e-05
750,-3.11559e-12,1.42781e-38,-1.52012e-06,-3.18057e-12,1.42769e-38,-3.62841e-12,-1.06609e-13,0,0,-6.2087,0.283606,-0.0699223,0,0,0,0,0,0.357196,0.283606,113,14,113,14,181,14,113,68,-0.261799,-0.261799,0,-1.5,0,0,0,0,0.371485,0.283798,0,0,0,0,0.0902523,-7.72262e-05,3672,0.359752,0.283808,0.0902523,-7.72262e-05
760,-3.11559e-12,1.42781e-38,-1.52012e-06,-3.18057e-12,1.42769e-38,0,-1.06609e-13,0,0,-6.24454,0.267404,-0.0517939,0,0,0,0,0,0.344859,0.267404,114,14,114,14,182,14,114,67,-0.261799,-0.261799,0,-1.5,0,0,0,0,0.372387,0.279826,0,0,0,0,0.0862505,-0.00516567,3604,0.365056,0.280265,0.0862505,-0.00516567
770,-3.11559e-12,1.42781e-38,-1.52012e-06,-3.18057e-12,1.42769e-38,-3.62841e-12,-1.06609e-13,0,0,-6.24454,0.267404,-0.0517939,0,0,0,0,0,0.344859,0.267404,114,14,114,14,182,14,114,67,-0.261799,-0.261799,0,-1.5,0,0,0,0,0.374199,0.279717,0,0,0,0,0.0862505,-0.00516567,3604,0.365056,0.280265,0.0862505,-0.00516567
780,-3.11559e-12,1.42781e-38,-1.52012e-06,-3.18057e-12,1.42769e-38,0,-1.0661e-13,0,0,-6.24454,0.267404,-0.0517939,0,0,0,0,0,0.344859,0.267404,114,14,114,14,182,14,114,67,-0.261799,-0.261799,0,-1.5,0,0,0,0,0.375665,0.279629,0,0,0,0,0.0862505,-0.00516567,3604,0.365056,0.280265,0.0862505,-0.00516567
790,-3.11559e-12,1.42781e-38,-1.52012e-06,-3.18057e-12,1.42769e-38,-3.62841e-12,-1.0661e-13,0,0,-6.24454,0.267404,-0.0517939,0,0,0,0,0,0.344859,0.267404,114,14,114,14,182,14,114,67,-0.261799,-0.261799,0,-1.5,0,0,0,0,0.361493,0.274253,0,0,0,0,0.070731,-0.00905319,3604,0.360644,0.274361,0.070731,-0.00905319
800,-3.11559e-12,1.42781e-38,-1.52012e-06,-3.18057e-12,1.42769e-38,0,-1.0661e-13,0,0,-6.24454,0.267404,-0.0517939,0,0,0,0,0,0.344859,0.267404,114,14,114,14,182,14,114,67,-0.261799,-0.261799,0,-1.5,0,0,0,0,0.362412,0.274135,0,0,0,0,0.070731,-0.00905319,3604,0.360644,0.274361,0.070731,-0.00905319
810,-3.11559e-12,1.42781e-38,-1.52012e-06,-3.18057e-12,1.42769e-38,-3.62841e-12,-1.0661e-13,0,0,-6.24454,0.267404,-0.0517939,0,0,0,0,0,0.344859,0.267404,114,14,114,14,182,14,114,67,-0.261799,-0.261799,0,-1.5,0,0,0,0,0.363756,0.273963,0,0,0,0,0.070731,-0.00905319,3604,0.360644,0.274361,0.070731,-0.00905319
820,-3.11559e-12,1.42781e-38,-1.52012e-06,-3.18057e-12,1.42769e-38,0,-1.06611e-13,0,0,-6.24454,0.267404,-0.0517939,0,0,0,0,0,0.344859,0.267404,114,14,114,14,182,14,114,67,-0.261799,-0.261799,0,-1.5,0,0,0,0,0.364959,0.273809,0,0,0,0,0.070731,-0.00905319,3604,0.360644,0.274361,0.070731,-0.00905319
830,-3.11559e-12,1.42781e-38,-1.52012e-06,-3.18057e-12,1.42769e-38,-3.62841e-12,-1.06611e-13,0,0,-6.24207,0.231783,-0.0533335,0,0,0,0,0,0.345711,0.231783,118,11,118,11,182,11,118,70,-0.261799,-0.261799,0,-1.5,0,0,0,0,0.366111,0.264286,0,0,0,0,0.0696096,-0.0168481,3776,0.359985,0.265769,0.0696096,-0.0168481
840,-3.11559e-12,1.42781e-38,-1.52012e-06,-3.18057e-12,1.42769e-38,0,-1.06611e-13,0,0,-6.24207,0.231783,-0.0533335,0,0,0,0,0,0.345711,0.231783,118,11,118,11,182,11,118,70,-0.261799,-0.261799,0,-1.5,0,0,0,0,0.367643,0.263915,0,0,0,0,0.0696096,-0.0168481,3776,0.359985,0.265769,0.0696096,-0.0168481
850,-3.11559e-12,1.42781e-38,-1.52012e-06,-3.18057e-12,1.42769e-38,-3.62841e-12,-1.06612e-13,0,0,-6.24207,0.231783,-0.0533335,0,0,0,0,0,0.345711,0.231783,118,11,118,11,182,11,118,70,-0.261799,-0.261799,0,-1.5,0,0,0,0,0.368826,0.263629,0,0,0,0,0.0696096,-0.0168481,3776,0.359985,0.265769,0.0696096,-0.0168481
860,-3.11559e-12,1.42781e-38,-1.52012e-06,-3.18057e-12,1.42769e-38,0,-1.06612e-13,0,0,-6.24207,0.231783,-0.0533335,0,0,0,0,0,0.345711,0.231783,118,11,118,11,182,11,118,70,-0.261799,-0.261799,0,-1.5,0,0,0,0,0.36994,0.263359,0,0,0,0,0.0696096,-0.0168481,3776,0.359985,0.265769,0.0696096,-0.0168481
870,-3.11559e-12,1.42781e-38,-1.52012e-06,-3.18057e-12,1.42769e-38,-3.62841e-12,-1.06612e-13,0,0,-6.18612,0.273863,-0.0675477,0,0,0,0,0,0.364909,0.273863,115,11,115,11,180,11,115,70,-0.261799,-0.261799,0,-1.5,0,0,0,0,0.378249,0.272657,0,0,0,0,0.0665603,-0.00861588,3835,0.37146,0.273536,0.0665603,-0.00861588
880,-3.11559e-12,1.42781e-38,-1.52012e-06,-3.18057e-12,1.42769e-38,0,-1.06612e-13,0,0,-6.18612,0.273863,-0.0675477,0,0,0,0,0,0.364909,0.273863,115,11,115,11,180,11,115,70,-0.261799,-0.261799,0,-1.5,0,0,0,0,0.379581,0.272485,0,0,0,0,0.0665603,-0.00861588,3835,0.37146,0.273536,0.0665603,-0.00861588
890,-3.11559e-12,1.42781e-38,-1.52012e-06,-3.18057e-12,1.42769e-38,-3.62841e-12,-1.06613e-13,0,0,-6.18612,0.273863,-0.0675477,0,0,0,0,0,0.364909,0.273863,115,11,115,11,180,11,115,70,-0.261799,-0.261799,0,-1.5,0,0,0,0,0.380712,0.272338,0,0,0,0,0.0665603,-0.00861588,3835,0.37146,0.273536,0.0665603,-0.00861588
900,-3.11559e-12,1.42781e-38,-1.52012e-06,-3.18057e-12,1.42769e-38,0,-1.06613e-13,0,0,-6.35656,0.281351,-0.023593,0,0,0,0,0,0.305577,0.281351,115,13,115,13,180,13,115,68,-0.261799,-0.261799,0,-1.5,0,0,0,0,0.3813,0.272541,0,0,0,0,0.0633272,-0.00777848,3575,0.375284,0.27328,0.0633272,-0.00777848
910,-3.11559e-12,1.42781e-38,-1.52012e-06,-3.18057e-12,1.42769e-38,-3.62841e-12,-1.06613e-13,0,0,-6.35656,0.281351,-0.023593,0,0,0,0,0,0.305577,0.281351,115,13,115,13,180,13,115,68,-0.261799,-0.261799,0,-1.5,0,0,0,0,0.382883,0.272347,0,0,0,0,0.0633272,-0.00777848,3575,0.375284,0.27328,0.0633272,-0.00777848
920,-3.11559e-12,1.42781e-38,-1.52012e-06,-3.18057e-12,1.42769e-38,0,-1.06613e-13,0,0,-6.35656,0.281351,-0.023593,0,0,0,0,0,0.305577,0.281351,115,13,115,13,180,13,115,68,-0.261799,-0.261799,0,-1.5,0,0,0,0,0.38396,0.272215,0,0,0,0,0.0633272,-0.00777848,3575,0.375284,0.27328,0.0633272,-0.00777848
930,-3.11559e-12,1.42781e-38,-1.52012e-06,-3.18057e-12,1.42769e-38,-3.62841e-12,-1.06614e-13,0,0,-6.24463,0.285235,-0.0517706,0,0,0,0,0,0.344826,0.285235,113,14,113,14,181,14,113,67,-0.261799,-0.261799,0,-1.5,0,0,0,0,0.38216,0.271795,0,0,0,0,0.0562601,-0.00766091,3604,0.376871,0.272515,0.0562601,-0.00766091
940,-3.11559e-12,1.42781e-38,-1.52012e-06,-3.18057e-12,1.42769e-38,0,-1.06614e-13,0,0,-6.89547,0.324877,0.114391,0,0,0,0,0,0.101268,0.324877,116,16,116,16,177,16,116,65,-0.261799,-0.261799,0,-1.5,0,0,0,0,0.351696,0.286875,0,0,0,0,0.0104219,0.00617646,2989,0.349966,0.285849,0.0104219,0.00617646
950,-3.11559e-12,1.42781e-38,-1.52012e-06,-3.18057e-12,1.42769e-38,-3.62841e-12,-1.06614e-13,0,0,-6.89547,0.324877,0.114391,0,0,0,0,0,0.101268,0.324877,116,16,116,16,177,16,116,65,-0.261799,-0.261799,0,-1.5,0,0,0,0,0.351915,0.287004,0,0,0,0,0.0104219,0.00617646,2989,0.349966,0.285849,0.0104219,0.00617646
960,-3.11559e-12,1.42781e-38,-1.52012e-06,-3.18057e-12,1.42769e-38,0,-1.06615e-13,0,0,-6.89547,0.324877,0.114391,0,0,0,0,0,0.101268,0.324877,116,16,116,16,177,16,116,65,-0.261799,-0.261799,0,-1.5,0,0,0,0,0.352103,0.287115,0,0,0,0,0.0104219,0.00617646,2989,0.349966,0.285849,0.0104219,0.00617646
970,-3.11559e-12,1.42781e-38,-1.52012e-06,-3.18057e-12,1.42769e-38,-3.62841e-12,-1.06615e-13,0,0,-6.89547,0.324877,0.114391,0,0,0,0,0,0.101268,0.324877,116,16,116,16,177,16,116,65,-0.261799,-0.261799,0,-1.5,0,0,0,0,0.35228,0.28722,0,0,0,0,0.0104219,0.00617646,2989,0.349966,0.285849,0.0104219,0.00617646
980,-3.11559e-12,1.42781e-38,-1.52012e-06,-3.18057e-12,1.42769e-38,0,-1.06615e-13,0,0,-6.89547,0.324877,0.114391,0,0,0,0,0,0.101268,0.324877,116,16,116,16,177,16,116,65,-0.261799,-0.261799,0,-1.5,0,0,0,0,0.352457,0.287325,0,0,0,0,0.0104219,0.00617646,2989,0.349966,0.285849,0.0104219,0.00617646
990,-3.11559e-12,1.42781e-38,-1.52012e-06,-3.18057e-12,1.42769e-38,-3.62841e-12,-1.06615e-13,0,0,-6.89547,0.324877,0.114391,0,0,0,0,0,0.101268,0.324877,116,16,116,16,177,16,116,65,-0.261799,-0.261799,0,-1.5,0,0,0,0,0.352645,0.287437,0,0,0,0,0.0104219,0.00617646,2989,0.349966,0.285849,0.0104219,0.00617646
1000,-3.11559e-12,1.42781e-38,-1.52012e-06,-3.18057e-12,1.42769e-38,0,-1.06616e-13,0,0,-6.89547,0.324877,0.114391,0,0,0,0,0,0.101268,0.324877,116,16,116,16,177,16,116,65,-0.261799,-0.261799,0,-1.5,0,0,0,0,0.352791,0.287523,0,0,0,0,0.0104219,0.00617646,2989,0.349966,0.285849,0.0104219,0.00617646
1010,-3.11559e-12,1.42781e-38,-1.52012e-06,-3.18057e-12,1.42769e-38,-3.62841e-12,-1.06616e-13,0,0,-6.89547,0.324877,0.114391,0,0,0,0,0,0.101268,0.324877,116,16,116,16,177,16,116,65,-0.261799,-0.261799,0,-1.5,0,0,0,0,0.352937,0.28761,0,0,0,0,0.0104219,0.00617646,2989,0.349966,0.285849,0.0104219,0.00617646
1020,-3.11559e-12,1.42781e-38,-1.52012e-06,-3.18057e-12,1.42769e-38,0,-1.06616e-13,0,0,-6.89547,0.324877,0.114391,0,0,0,0,0,0.101268,0.324877,116,16,116,16,177,16,116,65,-0.261799,-0.261799,0,-1.5,0,0,0,0,0.353114,0.287715,0,0,0,0,0.0104219,0.00617646,2989,0.349966,0.285849,0.0104219,0.00617646
1030,-3.11559e-12,1.42781e-38,-1.52012e-06,-3.18057e-12,1.42769e-38,-3.62841e-12,-1.06616e-13,0,0,-6.89547,0.324877,0.114391,0,0,0,0,0,0.101268,0.324877,116,16,116,16,177,16,116,65,-0.261799,-0.261799,0,-1.5,0,0,0,0,0.353301,0.287826,0,0,0,0,0.0104219,0.00617646,2989,0.349966,0.285849,0.0104219,0.00617646
1040,-3.11559e-12,1.42781e-38,-1.52012e-06,-3.18057e-12,1.42769e-38,0,-1.06617e-13,0,0,-6.89547,0.324877,0.114391,0,0,0,0,0,0.101268,0.324877,116,16,116,16,177,16,116,65,-0.261799,-0.261799,0,-1.5,0,0,0,0,0.353489,0.287937,0,0,0,0,0.0104219,0.00617646,2989,0.349966,0.285849,0.0104219,0.00617646
1050,-3.11559e-12,1.42781e-38,-1.52012e-06,-3.18057e-12,1.42769e-38,-3.62841e-12,-1.06617e-13,0,0,-6.89547,0.324877,0.114391,0,0,0,0,0,0.101268,0.324877,116,16,116,16,177,16,116,65,-0.261799,-0.261799,0,-1.5,0,0,0,0,0.353666,0.288042,0,0,0,0,0.0104219,0.00617646,2989,0.349966,0.285849,0.0104219,0.00617646
1060,-3.11559e-12,1.42781e-38,-1.52012e-06,-3.18057e-12,1.42769e-38,0,-1.06617e-13,0,0,-6.75495,0.3183,0.087844,0,0,0,0,0,0.156986,0.3183,116,14,116,14,177,14,116,66,-0.261799,-0.261799,0,-1.5,0,0,0,0,0.239076,0.282461,0,0,0,0,-0.0957961,-0.00118308,3172,0.248656,0.28258,-0.0957961,-0.00118308
1070,-3.11559e-12,1.42781e-38,-1.52012e-06,-3.18057e-12,1.42769e-38,-3.62841e-12,-1.06618e-13,0,0,-6.75495,0.3183,0.087844,0,0,0,0,0,0.156986,0.3183,116,14,116,14,177,14,116,66,-0.261799,-0.261799,0,-1.5,0,0,0,0,0.237065,0.282437,0,0,0,0,-0.0957961,-0.00118308,3172,0.248656,0.28258,-0.0957961,-0.00118308
1080,-3.11559e-12,1.42781e-38,-1.52012e-06,-3.18057e-12,1.42769e-38,0,-1.06618e-13,0,0,-6.75495,0.3183,0.087844,0,0,0,0,0,0.156986,0.3183,116,14,116,14,177,14,116,66,-0.261799,-0.261799,0,-1.5,0,0,0,0,0.235436,0.282417,0,0,0,0,-0.0957961,-0.00118308,3172,0.248656,0.28258,-0.0957961,-0.00118308
1090,-3.11559e-12,1.42781e-38,-1.52012e-06,-3.18057e-12,1.42769e-38,-3.62841e-12,-1.06618e-13,0,0,-6.52771,0.326228,0.0107511,0,0,0,0,0,0.243441,0.326228,114,14,114,14,177,14,114,68,-0.261799,-0.261799,0,-1.5,0,0,0,0,0.231807,0.289933,0,0,0,0,-0.0895343,0.00606585,3402,0.239328,0.289423,-0.0895343,0.00606585
1100,-3.11559e-12,1.42781e-38,-1.52012e-06,-3.18057e-12,1.42769e-38,0,-1.06618e-13,0,0,-6.52771,0.326228,0.0107511,0,0,0,0,0,0.243441,0.326228,114,14,114,14,177,14,114,68,-0.261799,-0.261799,0,-1.5,0,0,0,0,0.230017,0.290054,0,0,0,0,-0.0895343,0.00606585,3402,0.239328,0.289423,-0.0895343,0.00606585
1110,-3.11559e-12,1.42781e-38,-1.52012e-06,-3.18057e-12,1.42769e-38,-3.62841e-12,-1.06619e-13,0,0,-6.52771,0.326228,0.0107511,0,0,0,0,0,0.243441,0.326228,114,14,114,14,177,14,114,68,-0.261799,-0.261799,0,-1.5,0,0,0,0,0.228405,0.290163,0,0,0,0,-0.0895343,0.00606585,3402,0.239328,0.289423,-0.0895343,0.00606585
1120,-3.11559e-12,1.42781e-38,-1.52012e-06,-3.18057e-12,1.42769e-38,0,-1.06619e-13,0,0,-6.52771,0.326228,0.0107511,0,0,0,0,0,0.243441,0.326228,114,14,114,14,177,14,114,68,-0.261799,-0.261799,0,-1.5,0,0,0,0,0.226883,0.290267,0,0,0,0,-0.0895343,0.00606585,3402,0.239328,0.289423,-0.0895343,0.00606585
1130,-3.11559e-12,1.42781e-38,-1.52012e-06,-3.18057e-12,1.42769e-38,-3.62841e-12,-1.06619e-13,0,0,-6.61588,0.29282,0.0522643,0,0,0,0,0,0.210434,0.29282,116,14,116,14,179,14,116,66,-0.261799,-0.261799,0,-1.5,0,0,0,0,0.20011,0.292707,0,0,0,0,-0.106681,0.00945696,3276,0.210778,0.291762,-0.106681,0.00945696
1140,-3.11559e-12,1.42781e-38,-1.52012e-06,-3.18057e-12,1.42769e-38,0,-1.06619e-13,0,0,-6.61588,0.29282,0.0522643,0,0,0,0,0,0.210434,0.29282,116,14,116,14,179,14,116,66,-0.261799,-0.261799,0,-1.5,0,0,0,0,0.198084,0.292887,0,0,0,0,-0.106681,0.00945696,3276,0.210778,0.291762,-0.106681,0.00945696
1150,-3.11559e-12,1.42781e-38,-1.52012e-06,-3.18057e-12,1.42769e-38,-3.62841e-12,-1.0662e-13,0,0,-6.61588,0.29282,0.0522643,0,0,0,0,0,0.210434,0.29282,116,14,116,14,179,14,116,66,-0.261799,-0.261799,0,-1.5,0,0,0,0,0.19627,0.293048,0,0,0,0,-0.106681,0.00945696,3276,0.210778,0.291762,-0.106681,0.00945696
1160,-3.11559e-12,1.42781e-38,-1.52012e-06,-3.18057e-12,1.42769e-38,0,-1.0662e-13,0,0,-6.61588,0.29282,0.0522643,0,0,0,0,0,0.210434,0.29282,116,14,116,14,179,14,116,66,-0.261799,-0.261799,0,-1.5,0,0,0,0,0.194457,0.293209,0,0,0,0,-0.106681,0.00945696,3276,0.210778,0.291762,-0.106681,0.00945696
1170,-3.11559e-12,1.42781e-38,-1.52012e-06,-3.18057e-12,1.42769e-38,-3.62841e-12,-1.0662e-13,0,0,-6.61588,0.29282,0.0522643,0,0,0,0,0,0.210434,0.29282,116,14,116,14,179,14,116,66,-0.261799,-0.261799,0,-1.5,0,0,0,0,0.192643,0.293369,0,0,0,0,-0.106681,0.00945696,3276,0.210778,0.291762,-0.106681,0.00945696
1180,-3.11559e-12,1.42781e-38,-1.52012e-06,-3.18057e-12,1.42769e-38,0,-1.0662e-13,0,0,-6.61588,0.29282,0.0522643,0,0,0,0,0,0.210434,0.29282,116,14,116,14,179,14,116,66,-0.261799,-0.261799,0,-1.5,0,0,0,0,0.19051,0.293559,0,0,0,0,-0.106681,0.00945696,3276,0.210778,0.291762,-0.106681,0.00945696
1190,-3.11559e-12,1.42781e-38,-1.52012e-06,-3.18057e-12,1.42769e-38,-3.62841e-12,-1.06621e-13,0,0,-6.61588,0.29282,0.0522643,0,0,0,0,0,0.210434,0.29282,116,14,116,14,179,14,116,66,-0.261799,-0.261799,0,-1.5,0,0,0,0,0.188696,0.293719,0,0,0,0,-0.106681,0.00945696,3276,0.210778,0.291762,-0.106681,0.00945696
1200,-3.11559e-12,1.42781e-38,-1.52012e-06,-3.18057e-12,1.42769e-38,0,-1.06621e-13,0,0,-6.24463,0.285235,-0.0517706,0,0,0,0,0,0.344826,0.285235,113,14,113,14,181,14,113,67,-0.261799,-0.261799,0,-1.5,0,0,0,0,0.205666,0.308666,0,0,0,0,-0.0845324,0.0231879,3604,0.213274,0.306579,-0.0845324,0.0231879
1210,-3.11559e-12,1.42781e-38,-1.52012e-06,-3.18057e-12,1.42769e-38,-3.62841e-12,-1.06621e-13,0,0,-6.24463,0.285235,-0.0517706,0,0,0,0,0,0.344826,0.285235,113,14,113,14,181,14,113,67,-0.261799,-0.261799,0,-1.5,0,0,0,0,0.203722,0.309199,0,0,0,0,-0.0845324,0.0231879,3604,0.213274,0.306579,-0.0845324,0.0231879
1220,-3.11559e-12,1.42781e-38,-1.52012e-06,-3.18057e-12,1.42769e-38,0,-1.06622e-13,0,0,-6.24463,0.285235,-0.0517706,0,0,0,0,0,0.344826,0.285235,113,14,113,14,181,14,113,67,-0.261799,-0.261799,0,-1.5,0,0,0,0,0.202285,0.309593,0,0,0,0,-0.0845324,0.0231879,3604,0.213274,0.306579,-0.0845324,0.0231879
1230,-3.11559e-12,1.42781e-38,-1.52012e-06,-3.18057e-12,1.42769e-38,-3.62841e-12,-1.06622e-13,0,0,-6.73013,0.269053,0.0912628,0,0,0,0,0,0.166651,0.269053,118,14,118,14,180,14,118,65,-0.261799,-0.261799,0,-1.5,0,0,0,0,0.160365,0.302659,0,0,0,0,-0.109754,0.0189695,3162,0.170133,0.300971,-0.109754,0.0189695
1240,-3.11559e-12,1.42781e-38,-1.52012e-06,-3.18057e-12,1.42769e-38,0,-1.06622e-13,0,0,-6.73013,0.269053,0.0912628,0,0,0,0,0,0.166651,0.269053,118,14,118,14,180,14,118,65,-0.261799,-0.261799,0,-1.5,0,0,0,0,0.157292,0.30319,0,0,0,0,-0.109754,0.0189695,3162,0.170133,0.300971,-0.109754,0.0189695
1250,-3.11559e-12,1.42781e-38,-1.52012e-06,-3.18057e-12,1.42769e-38,-3.62841e-12,-1.06622e-13,0,0,-6.73013,0.269053,0.0912628,0,0,0,0,0,0.166651,0.269053,118,14,118,14,180,14,118,65,-0.261799,-0.261799,0,-1.5,0,0,0,0,0.155426,0.303513,0,0,0,0,-0.109754,0.0189695,3162,0.170133,0.300971,-0.109754,0.0189695
1260,-3.11559e-12,1.42781e-38,-1.52012e-06,-3.18057e-12,1.42769e-38,0,-1.06623e-13,0,0,-6.73013,0.269053,0.0912628,0,0,0,0,0,0.166651,0.269053,118,14,118,14,180,14,118,65,-0.261799,-0.261799,0,-1.5,0,0,0,0,0.15367,0.303816,0,0,0,0,-0.109754,0.0189695,3162,0.170133,0.300971,-0.109754,0.0189695
1270,-3.11559e-12,1.42781e-38,-1.52012e-06,-3.18057e-12,1.42769e-38,-3.62841e-12,-1.06623e-13,0,0,-6.52731,0.307568,0.0293073,0,0,0,0,0,0.24359,0.307568,115,13,115,13,178,13,115,67,-0.261799,-0.261799,0,-1.5,0,0,0,0,0.171465,0.308688,0,0,0,0,-0.0933458,0.0207525,3402,0.180333,0.306716,-0.0933458,0.0207525
1280,-3.11559e-12,1.42781e-38,-1.52012e-06,-3.18057e-12,1.42769e-38,0,-1.06623e-13,0,0,-6.52731,0.307568,0.0293073,0,0,0,0,0,0.24359,0.307568,115,13,115,13,178,13,115,67,-0.261799,-0.261799,0,-1.5,0,0,0,0,0.169785,0.309061,0,0,0,0,-0.0933458,0.0207525,3402,0.180333,0.306716,-0.0933458,0.0207525
1290,-3.11559e-12,1.42781e-38,-1.52012e-06,-3.18057e-12,1.42769e-38,-3.62841e-12,-1.06623e-13,0,0,-6.52731,0.307568,0.0293073,0,0,0,0,0,0.24359,0.307568,115,13,115,13,178,13,115,67,-0.261799,-0.261799,0,-1.5,0,0,0,0,0.168198,0.309414,0,0,0,0,-0.0933458,0.0207525,3402,0.180333,0.306716,-0.0933458,0.0207525
1300,-3.11559e-12,1.42781e-38,-1.52012e-06,-3.18057e-12,1.42769e-38,0,-1.06624e-13,0,0,-6.52731,0.307568,0.0293073,0,0,0,0,0,0.24359,0.307568,115,13,115,13,178,13,115,67,-0.261799,-0.261799,0,-1.5,0,0,0,0,0.166611,0.309767,0,0,0,0,-0.0933458,0.0207525,3402,0.180333,0.306716,-0.0933458,0.0207525
1310,-3.11559e-12,1.42781e-38,-1.52012e-06,-3.18057e-12,1.42769e-38,-3.62841e-12,-1.06624e-13,0,0,-6.52731,0.307568,0.0293073,0,0,0,0,0,0.24359,0.307568,115,13,115,13,178,13,115,67,-0.261799,-0.261799,0,-1.5,0,0,0,0,0.165025,0.310119,0,0,0,0,-0.0933458,0.0207525,3402,0.180333,0.306716,-0.0933458,0.0207525
1320,-3.11559e-12,1.42781e-38,-1.52012e-06,-3.18057e-12,1.42769e-38,0,-1.06624e-13,0,0,-6.52731,0.307568,0.0293073,0,0,0,0,0,0.24359,0.307568,115,13,115,13,178,13,115,67,-0.261799,-0.261799,0,-1.5,0,0,0,0,0.163251,0.310514,0,0,0,0,-0.0933458,0.0207525,3402,0.180333,0.306716,-0.0933458,0.0207525
1330,-3.11559e-12,1.42781e-38,-1.52012e-06,-3.18057e-12,1.42769e-38,-3.62841e-12,-1.06625e-13,0,0,-6.52731,0.307568,0.0293073,0,0,0,0,0,0.24359,0.307568,115,13,115,13,178,13,115,67,-0.261799,-0.261799,0,-1.5,0,0,0,0,0.161664,0.310866,0,0,0,0,-0.0933458,0.0207525,3402,0.180333,0.306716,-0.0933458,0.0207525
1340,-3.11559e-12,1.42781e-38,-1.52012e-06,-3.18057e-12,1.42769e-38,0,-1.06625e-13,0,0,-6.52731,0.307568,0.0293073,0,0,0,0,0,0.24359,0.307568,115,13,115,13,178,13,115,67,-0.261799,-0.261799,0,-1.5,0,0,0,0,0.160077,0.311219,0,0,0,0,-0.0933458,0.0207525,3402,0.180333,0.306716,-0.0933458,0.0207525
1350,-3.11559e-12,1.42781e-38,-1.52012e-06,-3.18057e-12,1.42769e-38,-3.62841e-12,-1.06625e-13,0,0,-6.52731,0.307568,0.0293073,0,0,0,0,0,0.24359,0.307568,115,13,115,13,178,13,115,67,-0.261799,-0.261799,0,-1.5,0,0,0,0,0.158491,0.311572,0,0,0,0,-0.0933458,0.0207525,3402,0.180333,0.306716,-0.0933458,0.0207525
1360,-3.11559e-12,1.42781e-38,-1.52012e-06,-3.18057e-12,1.42769e-38,0,-1.06625e-13,0,0,-6.52731,0.307568,0.0293073,0,0,0,0,0,0.24359,0.307568,115,13,115,13,178,13,115,67,-0.261799,-0.261799,0,-1.5,0,0,0,0,0.15681,0.311945,0,0,0,0,-0.0933458,0.0207525,3402,0.180333,0.306716,-0.0933458,0.0207525
1370,-3.11559e-12,1.42781e-38,-1.52012e-06,-3.18057e-12,1.42769e-38,-3.62841e-12,-1.06626e-13,0,0,-6.52731,0.307568,0.0293073,0,0,0,0,0,0.24359,0.307568,115,13,115,13,178,13,115,67,-0.261799,-0.261799,0,-1.5,0,0,0,0,0.155224,0.312298,0,0,0,0,-0.0933458,0.0207525,3402,0.180333,0.306716,-0.0933458,0.0207525
1380,-3.11559e-12,1.42781e-38,-1.52012e-06,-3.18057e-12,1.42769e-38,0,-1.06626e-13,0,0,-5.98992,0.247854,-0.116327,0,0,0,0,0,0.430064,0.247854,112,15,112,15,185,15,112,66,-0.261799,-0.261799,0,-1.5,0,0,0,0,0.185977,0.28623,0,0,0,0,-0.0669783,0.000433218,3723,0.192139,0.28619,-0.0669783,0.000433218
1390,-3.11559e-12,1.42781e-38,-1.52012e-06,-3.18057e-12,1.42769e-38,-3.62841e-12,-1.06626e-13,0,0,-5.98992,0.247854,-0.116327,0,0,0,0,0,0.430064,0.247854,112,15,112,15,185,15,112,66,-0.261799,-0.261799,0,-1.5,0,0,0,0,0.184369,0.286241,0,0,0,0,-0.0669783,0.000433218,3723,0.192139,0.28619,-0.0669783,0.000433218
1400,-3.11559e-12,1.42781e-38,-1.52012e-06,-3.18057e-12,1.42769e-38,0,-1.06626e-13,0,0,-5.98992,0.247854,-0.116327,0,0,0,0,0,0.430064,0.247854,112,15,112,15,185,15,112,66,-0.261799,-0.261799,0,-1.5,0,0,0,0,0.183298,0.286248,0,0,0,0,-0.0669783,0.000433218,3723,0.192139,0.28619,-0.0669783,0.000433218
1410,-3.11559e-12,1.42781e-38,-1.52012e-06,-3.18057e-12,1.42769e-38,-3.62841e-12,-1.06627e-13,0,0,-5.98992,0.247854,-0.116327,0,0,0,0,0,0.430064,0.247854,112,15,112,15,185,15,112,66,-0.261799,-0.261799,0,-1.5,0,0,0,0,0.18236,0.286254,0,0,0,0,-0.0669783,0.000433218,3723,0.192139,0.28619,-0.0669783,0.000433218
1420,-3.11559e-12,1.42781e-38,-1.52012e-06,-3.18057e-12,1.42769e-38,0,-1.06627e-13,0,0,-6.50493,0.297194,0.0330335,0,0,0,0,0,0.25186,0.297194,115,13,115,13,179,13,115,66,-0.261799,-0.261799,0,-1.5,0,0,0,0,0.246439,0.299168,0,0,0,0,0.00451496,0.00823029,3392,0.245992,0.298353,0.00451496,0.00823029
1430,-3.11559e-12,1.42781e-38,-1.52012e-06,-3.18057e-12,1.42769e-38,-3.62841e-12,-1.06627e-13,0,0,-6.50493,0.297194,0.0330335,0,0,0,0,0,0.25186,0.297194,115,13,115,13,179,13,115,66,-0.261799,-0.261799,0,-1.5,0,0,0,0,0.246534,0.299341,0,0,0,0,0.00451496,0.00823029,3392,0.245992,0.298353,0.00451496,0.00823029
1440,-3.11559e-12,1.42781e-38,-1.52012e-06,-3.18057e-12,1.42769e-38,0,-1.06628e-13,0,0,-6.50493,0.297194,0.0330335,0,0,0,0,0,0.25186,0.297194,115,13,115,13,179,13,115,66,-0.261799,-0.261799,0,-1.5,0,0,0,0,0.24661,0.299481,0,0,0,0,0.00451496,0.00823029,3392,0.245992,0.298353,0.00451496,0.00823029
1450,-3.11559e-12,1.42781e-38,-1.52012e-06,-3.18057e-12,1.42769e-38,-3.62841e-12,-1.06628e-13,0,0,-6.41205,0.25629,0.000118949,0,0,0,0,0,0.285713,0.25629,116,14,116,14,182,14,116,66,-0.261799,-0.261799,0,-1.5,0,0,0,0,0.293709,0.249852,0,0,0,0,0.0691033,-0.0413264,3432,0.287766,0.253406,0.0691033,-0.0413264
1460,-3.11559e-12,1.42781e-38,-1.52012e-06,-3.18057e-12,1.42769e-38,0,-1.06628e-13,0,0,-6.41205,0.25629,0.000118949,0,0,0,0,0,0.285713,0.25629,116,14,116,14,182,14,116,66,-0.261799,-0.261799,0,-1.5,0,0,0,0,0.295298,0.248902,0,0,0,0,0.0691033,-0.0413264,3432,0.287766,0.253406,0.0691033,-0.0413264
1470,-3.11559e-12,1.42781e-38,-1.52012e-06,-3.18057e-12,1.42769e-38,-3.62841e-12,-1.06628e-13,0,0,-6.41205,0.25629,0.000118949,0,0,0,0,0,0.285713,0.25629,116,14,116,14,182,14,116,66,-0.261799,-0.261799,0,-1.5,0,0,0,0,0.296473,0.248199,0,0,0,0,0.0691033,-0.0413264,3432,0.287766,0.253406,0.0691033,-0.0413264
1480,-3.11559e-12,1.42781e-38,-1.52012e-06,-3.18057e-12,1.42769e-38,0,-1.06629e-13,0,0,-6.37371,0.291165,-0.0189389,0,0,0,0,0,0.299466,0.291165,114,14,114,14,180,14,114,67,-0.261799,-0.261799,0,-1.5,0,0,0,0,0.309137,0.246409,0,0,0,0,0.092001,-0.0406258,3498,0.301409,0.249821,0.092001,-0.0406258
1490,-3.11559e-12,1.42781e-38,-1.52012e-06,-3.18057e-12,1.42769e-38,-3.62841e-12,-1.06629e-13,0,0,-6.37371,0.291165,-0.0189389,0,0,0,0,0,0.299466,0.291165,114,14,114,14,180,14,114,67,-0.261799,-0.261799,0,-1.5,0,0,0,0,0.310885,0.245637,0,0,0,0,0.092001,-0.0406258,3498,0.301409,0.249821,0.092001,-0.0406258
1500,-3.11559e-12,1.42781e-38,-1.52012e-06,-3.18057e-12,1.42769e-38,0,-1.06629e-13,0,0,-6.37371,0.291165,-0.0189389,0,0,0,0,0,0.299466,0.291165,114,14,114,14,180,14,114,67,-0.261799,-0.261799,0,-1.5,0,0,0,0,0.312541,0.244905,0,0,0,0,0.092001,-0.0406258,3498,0.301409,0.249821,0.092001,-0.0406258
1510,-3.11559e-12,1.42781e-38,-1.52012e-06,-3.18057e-12,1.42769e-38,-3.62841e-12,-1.06629e-13,0,0,-6.37371,0.291165,-0.0189389,0,0,0,0,0,0.299466,0.291165,114,14,114,14,180,14,114,67,-0.261799,-0.261799,0,-1.5,0,0,0,0,0.314105,0.244215,0,0,0,0,0.092001,-0.0406258,3498,0.301409,0.249821,0.092001,-0.0406258
1520,-3.11559e-12,1.42781e-38,-1.52012e-06,-3.18057e-12,1.42769e-38,0,-1.0663e-13,0,0,-6.77525,0.309537,0.0933338,0,0,0,0,0,0.149046,0.309537,116,15,116,15,178,15,116,65,-0.261799,-0.261799,0,-1.5,0,0,0,0,0.302973,0.24913,0,0,0,0,0.092001,-0.0406258,3100,0.301409,0.249821,0.092001,-0.0406258
1530,-3.11559e-12,1.42781e-38,-1.52012e-06,-3.18057e-12,1.42769e-38,-3.62841e-12,-1.0663e-13,0,0,-6.77525,0.309537,0.0933338,0,0,0,0,0,0.149046,0.309537,116,15,116,15,178,15,116,65,-0.261799,-0.261799,0,-1.5,0,0,0,0,0.304721,0.248359,0,0,0,0,0.092001,-0.0406258,3100,0.301409,0.249821,0.092001,-0.0406258
1540,-3.11559e-12,1.42781e-38,-1.52012e-06,-3.18057e-12,1.42769e-38,0,-1.0663e-13,0,0,-6.77525,0.309537,0.0933338,0,0,0,0,0,0.149046,0.309537,116,15,116,15,178,15,116,65,-0.261799,-0.261799,0,-1.5,0,0,0,0,0.306284,0.247668,0,0,0,0,0.092001,-0.0406258,3100,0.301409,0.249821,0.092001,-0.0406258
1550,-3.11559e-12,1.42781e-38,-1.52012e-06,-3.18057e-12,1.42769e-38,-3.62841e-12,-1.06631e-13,0,0,-6.77525,0.309537,0.0933338,0,0,0,0,0,0.149046,0.309537,116,15,116,15,178,15,116,65,-0.261799,-0.261799,0,-1.5,0,0,0,0,0.307664,0.247059,0,0,0,0,0.092001,-0.0406258,3100,0.301409,0.249821,0.092001,-0.0406258
1560,-3.11559e-12,1.42781e-38,-1.52012e-06,-3.18057e-12,1.42769e-38,0,-1.06631e-13,0,0,-6.77525,0.309537,0.0933338,0,0,0,0,0,0.149046,0.309537,116,15,116,15,178,15,116,65,-0.261799,-0.261799,0,-1.5,0,0,0,0,0.309228,0.246368,0,0,0,0,0.092001,-0.0406258,3100,0.301409,0.249821,0.092001,-0.0406258
1570,-3.11559e-12,1.42781e-38,-1.52012e-06,-3.18057e-12,1.42769e-38,-3.62841e-12,-1.06631e-13,0,0,-6.77525,0.309537,0.0933338,0,0,0,0,0,0.149046,0.309537,116,15,116,15,178,15,116,65,-0.261799,-0.261799,0,-1.5,0,0,0,0,0.310976,0.245596,0,0,0,0,0.092001,-0.0406258,3100,0.301409,0.249821,0.092001,-0.0406258
1580,-3.11559e-12,1.42781e-38,-1.52012e-06,-3.18057e-12,1.42769e-38,0,-1.06631e-13,0,0,-6.77525,0.309537,0.0933338,0,0,0,0,0,0.149046,0.309537,116,15,116,15,178,15,116,65,-0.261799,-0.261799,0,-1.5,0,0,0,0,0.31254,0.244906,0,0,0,0,0.092001,-0.0406258,3100,0.301409,0.249821,0.092001,-0.0406258
1590,-3.11559e-12,1.42781e-38,-1.52012e-06,-3.18057e-12,1.42769e-38,-3.62841e-12,-1.06632e-13,0,0,-6.77525,0.309537,0.0933338,0,0,0,0,0,0.149046,0.309537,116,15,116,15,178,15,116,65,-0.261799,-0.261799,0,-1.5,0,0,0,0,0.314104,0.244215,0,0,0,0,0.092001,-0.0406258,3100,0.301409,0.249821,0.092001,-0.0406258
1600,-3.11559e-12,1.42781e-38,-1.52012e-06,-3.18057e-12,1.42769e-38,0,-1.06632e-13,0,0,-6.24836,0.276445,-0.0505661,0,0,0,0,0,0.343537,0.276445,113,15,113,15,182,15,113,66,-0.261799,-0.261799,0,-1.5,0,0,0,0,0.310354,0.279978,0,0,0,0,0.0474334,-0.00807775,3519,0.305564,0.280794,0.0474334,-0.00807775
1610,-3.11559e-12,1.42781e-38,-1.52012e-06,-3.18057e-12,1.42769e-38,-3.62841e-12,-1.06632e-13,0,0,-6.24836,0.276445,-0.0505661,0,0,0,0,0,0.343537,0.276445,113,15,113,15,182,15,113,66,-0.261799,-0.261799,0,-1.5,0,0,0,0,0.311493,0.279784,0,0,0,0,0.0474334,-0.00807775,3519,0.305564,0.280794,0.0474334,-0.00807775
1620,-3.11559e-12,1.42781e-38,-1.52012e-06,-3.18057e-12,1.42769e-38,0,-1.06632e-13,0,0,-6.24836,0.276445,-0.0505661,0,0,0,0,0,0.343537,0.276445,113,15,113,15,182,15,113,66,-0.261799,-0.261799,0,-1.5,0,0,0,0,0.312299,0.279647,0,0,0,0,0.0474334,-0.00807775,3519,0.305564,0.280794,0.0474334,-0.00807775
1630,-3.11559e-12,1.42781e-38,-1.52012e-06,-3.18057e-12,1.42769e-38,-3.62841e-12,-1.06633e-13,0,0,-6.24836,0.276445,-0.0505661,0,0,0,0,0,0.343537,0.276445,113,15,113,15,182,15,113,66,-0.261799,-0.261799,0,-1.5,0,0,0,0,0.328806,0.275342,0,0,0,0,0.0713241,-0.0110943,3519,0.327593,0.275531,0.0713241,-0.0110943
1640,-3.11559e-12,1.42781e-38,-1.52012e-06,-3.18057e-12,1.42769e-38,0,-1.06633e-13,0,0,-6.24836,0.276445,-0.0505661,0,0,0,0,0,0.343537,0.276445,113,15,113,15,182,15,113,66,-0.261799,-0.261799,0,-1.5,0,0,0,0,0.330089,0.275143,0,0,0,0,0.0713241,-0.0110943,3519,0.327593,0.275531,0.0713241,-0.0110943
1650,-3.11559e-12,1.42781e-38,-1.52012e-06,-3.18057e-12,1.42769e-38,-3.62841e-12,-1.06633e-13,0,0,-6.24836,0.276445,-0.0505661,0,0,0,0,0,0.343537,0.276445,113,15,113,15,182,15,113,66,-0.261799,-0.261799,0,-1.5,0,0,0,0,0.331373,0.274943,0,0,0,0,0.0713241,-0.0110943,3519,0.327593,0.275531,0.0713241,-0.0110943
1660,-3.11559e-12,1.42781e-38,-1.52012e-06,-3.18057e-12,1.42769e-38,0,-1.06634e-13,0,0,-6.24836,0.276445,-0.0505661,0,0,0,0,0,0.343537,0.276445,113,15,113,15,182,15,113,66,-0.261799,-0.261799,0,-1.5,0,0,0,0,0.332586,0.274754,0,0,0,0,0.0713241,-0.0110943,3519,0.327593,0.275531,0.0713241,-0.0110943
1670,-3.11559e-12,1.42781e-38,-1.52012e-06,-3.18057e-12,1.42769e-38,-3.62841e-12,-1.06634e-13,0,0,-6.35656,0.281351,-0.023593,0,0,0,0,0,0.305577,0.281351,115,13,115,13,180,13,115,68,-0.261799,-0.261799,0,-1.5,0,0,0,0,0.344832,0.28044,0,0,0,0,0.0784973,-0.00304574,3575,0.337453,0.280727,0.0784973,-0.00304574
1680,-3.11559e-12,1.42781e-38,-1.52012e-06,-3.18057e-12,1.42769e-38,0,-1.06634e-13,0,0,-6.35656,0.281351,-0.023593,0,0,0,0,0,0.305577,0.281351,115,13,115,13,180,13,115,68,-0.261799,-0.261799,0,-1.5,0,0,0,0,0.346244,0.280386,0,0,0,0,0.0784973,-0.00304574,3575,0.337453,0.280727,0.0784973,-0.00304574
1690,-3.11559e-12,1.42781e-38,-1.52012e-06,-3.18057e-12,1.42769e-38,-3.62841e-12,-1.06634e-13,0,0,-6.35656,0.281351,-0.023593,0,0,0,0,0,0.305577,0.281351,115,13,115,13,180,13,115,68,-0.261799,-0.261799,0,-1.5,0,0,0,0,0.347422,0.28034,0,0,0,0,0.0784973,-0.00304574,3575,0.337453,0.280727,0.0784973,-0.00304574
1700,-3.11559e-12,1.42781e-38,-1.52012e-06,-3.18057e-12,1.42769e-38,0,-1.06635e-13,0,0,-6.35656,0.281351,-0.023593,0,0,0,0,0,0.305577,0.281351,115,13,115,13,180,13,115,68,-0.261799,-0.261799,0,-1.5,0,0,0,0,0.348756,0.280288,0,0,0,0,0.0784973,-0.00304574,3575,0.337453,0.280727,0.0784973,-0.00304574
1710,-3.11559e-12,1.42781e-38,-1.52012e-06,-3.18057e-12,1.42769e-38,-3.62841e-12,-1.06635e-13,0,0,-6.35656,0.281351,-0.023593,0,0,0,0,0,0.305577,0.281351,115,13,115,13,180,13,115,68,-0.261799,-0.261799,0,-1.5,0,0,0,0,0.350091,0.280236,0,0,0,0,0.0784973,-0.00304574,3575,0.337453,0.280727,0.0784973,-0.00304574
1720,-3.11559e-12,1.42781e-38,-1.52012e-06,-3.18057e-12,1.42769e-38,0,-1.06635e-13,0,0,-6.35656,0.281351,-0.023593,0,0,0,0,0,0.305577,0.281351,115,13,115,13,180,13,115,68,-0.261799,-0.261799,0,-1.5,0,0,0,0,0.351582,0.280178,0,0,0,0,0.0784973,-0.00304574,3575,0.337453,0.280727,0.0784973,-0.00304574
1730,-3.11559e-12,1.42781e-38,-1.52012e-06,-3.18057e-12,1.42769e-38,-3.62841e-12,-1.06635e-13,0,0,-6.35656,0.281351,-0.023593,0,0,0,0,0,0.305577,0.281351,115,13,115,13,180,13,115,68,-0.261799,-0.261799,0,-1.5,0,0,0,0,0.352916,0.280127,0,0,0,0,0.0784973,-0.00304574,3575,0.337453,0.280727,0.0784973,-0.00304574
1740,-3.11559e-12,1.42781e-38,-1.52012e-06,-3.18057e-12,1.42769e-38,0,-1.06636e-13,0,0,-6.33406,0.271282,-0.0201115,0,0,0,0,0,0.313555,0.271282,115,13,115,13,181,13,115,67,-0.261799,-0.261799,0,-1.5,0,0,0,0,0.320525,0.274441,0,0,0,0,0.047033,-0.00537789,3564,0.316527,0.274898,0.047033,-0.00537789
1750,-3.11559e-12,1.42781e-38,-1.52012e-06,-3.18057e-12,1.42769e-38,-3.62841e-12,-1.06636e-13,0,0,-6.33406,0.271282,-0.0201115,0,0,0,0,0,0.313555,0.271282,115,13,115,13,181,13,115,67,-0.261799,-0.261799,0,-1.5,0,0,0,0,0.321513,0.274328,0,0,0,0,0.047033,-0.00537789,3564,0.316527,0.274898,0.047033,-0.00537789
1760,-3.11559e-12,1.42781e-38,-1.52012e-06,-3.18057e-12,1.42769e-38,0,-1.06636e-13,0,0,-6.33406,0.271282,-0.0201115,0,0,0,0,0,0.313555,0.271282,115,13,115,13,181,13,115,67,-0.261799,-0.261799,0,-1.5,0,0,0,0,0.322359,0.274231,0,0,0,0,0.047033,-0.00537789,3564,0.316527,0.274898,0.047033,-0.00537789
1770,-3.11559e-12,1.42781e-38,-1.52012e-06,-3.18057e-12,1.42769e-38,-3.62841e-12,-1.06636e-13,0,0,-6.33406,0.271282,-0.0201115,0,0,0,0,0,0.313555,0.271282,115,13,115,13,181,13,115,67,-0.261799,-0.261799,0,-1.5,0,0,0,0,0.323159,0.27414,0,0,0,0,0.047033,-0.00537789,3564,0.316527,0.274898,0.047033,-0.00537789
1780,-3.11559e-12,1.42781e-38,-1.52012e-06,-3.18057e-12,1.42769e-38,0,-1.06637e-13,0,0,-6.3823,0.273255,-0.0162393,0,0,0,0,0,0.296397,0.273255,114,16,114,16,182,16,114,65,-0.261799,-0.261799,0,-1.5,0,0,0,0,0.328231,0.273695,0,0,0,0,0.0497045,-0.00456268,3332,0.323012,0.274174,0.0497045,-0.00456268
1790,-3.11559e-12,1.42781e-38,-1.52012e-06,-3.18057e-12,1.42769e-38,-3.62841e-12,-1.06637e-13,0,0,-6.3823,0.273255,-0.0162393,0,0,0,0,0,0.296397,0.273255,114,16,114,16,182,16,114,65,-0.261799,-0.261799,0,-1.5,0,0,0,0,0.329424,0.273586,0,0,0,0,0.0497045,-0.00456268,3332,0.323012,0.274174,0.0497045,-0.00456268
1800,-3.11559e-12,1.42781e-38,-1.52012e-06,-3.18057e-12,1.42769e-38,0,-1.06637e-13,0,0,-6.3823,0.273255,-0.0162393,0,0,0,0,0,0.296397,0.273255,114,16,114,16,182,16,114,65,-0.261799,-0.261799,0,-1.5,0,0,0,0,0.330269,0.273508,0,0,0,0,0.0497045,-0.00456268,3332,0.323012,0.274174,0.0497045,-0.00456268
1810,-3.11559e-12,1.42781e-38,-1.52012e-06,-3.18057e-12,1.42769e-38,-3.62841e-12,-1.06638e-13,0,0,-6.05092,0.207284,-0.101301,0,0,0,0,0,0.410167,0.207284,116,13,116,13,186,13,116,68,-0.261799,-0.261799,0,-1.5,0,0,0,0,0.328602,0.262481,0,0,0,0,0.036527,-0.0246162,3850,0.325242,0.264746,0.036527,-0.0246162
1820,-3.11559e-12,1.42781e-38,-1.52012e-06,-3.18057e-12,1.42769e-38,0,-1.06638e-13,0,0,-6.05092,0.207284,-0.101301,0,0,0,0,0,0.410167,0.207284,116,13,116,13,186,13,116,68,-0.261799,-0.261799,0,-1.5,0,0,0,0,0.329369,0.261964,0,0,0,0,0.036527,-0.0246162,3850,0.325242,0.264746,0.036527,-0.0246162
1830,-3.11559e-12,1.42781e-38,-1.52012e-06,-3.18057e-12,1.42769e-38,-3.62841e-12,-1.06638e-13,0,0,-6.05092,0.207284,-0.101301,0,0,0,0,0,0.410167,0.207284,116,13,116,13,186,13,116,68,-0.261799,-0.261799,0,-1.5,0,0,0,0,0.330027,0.261521,0,0,0,0,0.036527,-0.0246162,3850,0.325242,0.264746,0.036527,-0.0246162
1840,-3.11559e-12,1.42781e-38,-1.52012e-06,-3.18057e-12,1.42769e-38,0,-1.06638e-13,0,0,-6.05092,0.207284,-0.101301,0,0,0,0,0,0.410167,0.207284,116,13,116,13,186,13,116,68,-0.261799,-0.261799,0,-1.5,0,0,0,0,0.330647,0.261103,0,0,0,0,0.036527,-0.0246162,3850,0.325242,0.264746,0.036527,-0.0246162
1850,-3.11559e-12,1.42781e-38,-1.52012e-06,-3.18057e-12,1.42769e-38,-3.62841e-12,-1.06639e-13,0,0,-6.1459,0.219314,-0.0682272,0,0,0,0,0,0.378539,0.219314,116,13,116,13,185,13,116,67,-0.261799,-0.261799,0,-1.5,0,0,0,0,0.385793,0.254097,0,0,0,0,0.0735923,-0.0273544,3726,0.378361,0.256859,0.0735923,-0.0273544
1860,-3.11559e-12,1.42781e-38,-1.52012e-06,-3.18057e-12,1.42769e-38,0,-1.06639e-13,0,0,-6.1459,0.219314,-0.0682272,0,0,0,0,0,0.378539,0.219314,116,13,116,13,185,13,116,67,-0.261799,-0.261799,0,-1.5,0,0,0,0,0.387412,0.253495,0,0,0,0,0.0735923,-0.0273544,3726,0.378361,0.256859,0.0735923,-0.0273544
1870,-3.11559e-12,1.42781e-38,-1.52012e-06,-3.18057e-12,1.42769e-38,-3.62841e-12,-1.06639e-13,0,0,-6.1459,0.219314,-0.0682272,0,0,0,0,0,0.378539,0.219314,116,13,116,13,185,13,116,67,-0.261799,-0.261799,0,-1.5,0,0,0,0,0.388663,0.25303,0,0,0,0,0.0735923,-0.0273544,3726,0.378361,0.256859,0.0735923,-0.0273544
1880,-3.11559e-12,1.42781e-38,-1.52012e-06,-3.18057e-12,1.42769e-38,0,-1.06639e-13,0,0,-6.0877,0.304066,-0.100271,0,0,0,0,0,0.398015,0.304066,110,15,110,15,181,15,110,67,-0.261799,-0.261799,0,-1.5,0,0,0,0,0.399811,0.256669,0,0,0,0,0.0749271,-0.0239827,3692,0.393368,0.258731,0.0749271,-0.0239827
1890,-3.11559e-12,1.42781e-38,-1.52012e-06,-3.18057e-12,1.42769e-38,-3.62841e-12,-1.0664e-13,0,0,-6.0877,0.304066,-0.100271,0,0,0,0,0,0.398015,0.304066,110,15,110,15,181,15,110,67,-0.261799,-0.261799,0,-1.5,0,0,0,0,0.401609,0.256093,0,0,0,0,0.0749271,-0.0239827,3692,0.393368,0.258731,0.0749271,-0.0239827
1900,-3.11559e-12,1.42781e-38,-1.52012e-06,-3.18057e-12,1.42769e-38,0,-1.0664e-13,0,0,-6.0877,0.304066,-0.100271,0,0,0,0,0,0.398015,0.304066,110,15,110,15,181,15,110,67,-0.261799,-0.261799,0,-1.5,0,0,0,0,0.402883,0.255686,0,0,0,0,0.0749271,-0.0239827,3692,0.393368,0.258731,0.0749271,-0.0239827
1910,-3.11559e-12,1.42781e-38,-1.52012e-06,-3.18057e-12,1.42769e-38,-3.62841e-12,-1.0664e-13,0,0,-6.1087,0.209184,-0.0858848,0,0,0,0,0,0.391022,0.209184,115,16,115,16,187,16,115,65,-0.261799,-0.261799,0,-1.5,0,0,0,0,0.407377,0.238466,0,0,0,0,0.0720828,-0.0335572,3528,0.400817,0.24152,0.0720828,-0.0335572
1920,-3.11559e-12,1.42781e-38,-1.52012e-06,-3.18057e-12,1.42769e-38,0,-1.06641e-13,0,0,-6.1087,0.209184,-0.0858848,0,0,0,0,0,0.391022,0.209184,115,16,115,16,187,16,115,65,-0.261799,-0.261799,0,-1.5,0,0,0,0,0.408747,0.237829,0,0,0,0,0.0720828,-0.0335572,3528,0.400817,0.24152,0.0720828,-0.0335572
1930,-3.11559e-12,1.42781e-38,-1.52012e-06,-3.18057e-12,1.42769e-38,-3.62841e-12,-1.06641e-13,0,0,-6.1087,0.209184,-0.0858848,0,0,0,0,0,0.391022,0.209184,115,16,115,16,187,16,115,65,-0.261799,-0.261799,0,-1.5,0,0,0,0,0.410044,0.237225,0,0,0,0,0.0720828,-0.0335572,3528,0.400817,0.24152,0.0720828,-0.0335572
1940,-3.11559e-12,1.42781e-38,-1.52012e-06,-3.18057e-12,1.42769e-38,0,-1.06641e-13,0,0,-6.1087,0.209184,-0.0858848,0,0,0,0,0,0.391022,0.209184,115,16,115,16,187,16,115,65,-0.261799,-0.261799,0,-1.5,0,0,0,0,0.411125,0.236722,0,0,0,0,0.0720828,-0.0335572,3528,0.400817,0.24152,0.0720828,-0.0335572
1950,-3.11559e-12,1.42781e-38,-1.52012e-06,-3.18057e-12,1.42769e-38,-3.62841e-12,-1.06641e-13,0,0,-6.11693,0.270599,-0.0665147,0,0,0,0,0,0.38827,0.270599,112,14,112,14,183,14,112,65,-0.261799,-0.261799,0,-1.5,0,0,0,0,0.406065,0.256183,0,0,0,0,0.0643536,-0.0161295,3621,0.400145,0.257667,0.0643536,-0.0161295
1960,-3.11559e-12,1.42781e-38,-1.52012e-06,-3.18057e-12,1.42769e-38,0,-1.06642e-13,0,0,-6.11693,0.270599,-0.0665147,0,0,0,0,0,0.38827,0.270599,112,14,112,14,183,14,112,65,-0.261799,-0.261799,0,-1.5,0,0,0,0,0.407224,0.255892,0,0,0,0,0.0643536,-0.0161295,3621,0.400145,0.257667,0.0643536,-0.0161295
1970,-3.11559e-12,1.42781e-38,-1.52012e-06,-3.18057e-12,1.42769e-38,-3.62841e-12,-1.06642e-13,0,0,-6.11693,0.270599,-0.0665147,0,0,0,0,0,0.38827,0.270599,112,14,112,14,183,14,112,65,-0.261799,-0.261799,0,-1.5,0,0,0,0,0.408382,0.255602,0,0,0,0,0.0643536,-0.0161295,3621,0.400145,0.257667,0.0643536,-0.0161295
1980,-3.11559e-12,1.42781e-38,-1.52012e-06,-3.18057e-12,1.42769e-38,0,-1.06642e-13,0,0,-6.11693,0.270599,-0.0665147,0,0,0,0,0,0.38827,0.270599,112,14,112,14,183,14,112,65,-0.261799,-0.261799,0,-1.5,0,0,0,0,0.409411,0.255344,0,0,0,0,0.0643536,-0.0161295,3621,0.400145,0.257667,0.0643536,-0.0161295
1990,-3.11559e-12,1.42781e-38,-1.52012e-06,-3.18057e-12,1.42769e-38,-3.62841e-12,-1.06642e-13,0,0,-6.10832,0.261464,-0.0685096,0,0,0,0,0,0.391148,0.261464,112,15,112,15,184,15,112,64,-0.261799,-0.261799,0,-1.5,0,0,0,0,0.403936,0.260563,0,0,0,0,0.0562121,-0.0125922,3528,0.397752,0.261948,0.0562121,-0.0125922
2000,-3.11559e-12,1.42781e-38,-1.52012e-06,-3.18057e-12,1.42769e-38,0,-1.06643e-13,0,0,-6.10832,0.261464,-0.0685096,0,0,0,0,0,0.391148,0.261464,112,15,112,15,184,15,112,64,-0.261799,-0.261799,0,-1.5,0,0,0,0,0.405004,0.260323,0,0,0,0,0.0562121,-0.0125922,3528,0.397752,0.261948,0.0562121,-0.0125922
2010,-3.11559e-12,1.42781e-38,-1.52012e-06,-3.18057e-12,1.42769e-38,-3.62841e-12,-1.06643e-13,0,0,-6.10832,0.261464,-0.0685096,0,0,0,0,0,0.391148,0.261464,112,15,112,15,184,15,112,64,-0.261799,-0.261799,0,-1.5,0,0,0,0,0.406016,0.260097,0,0,0,0,0.0562121,-0.0125922,3528,0.397752,0.261948,0.0562121,-0.0125922
2020,-3.11559e-12,1.42781e-38,-1.52012e-06,-3.18057e-12,1.42769e-38,0,-1.06643e-13,0,0,-6.10832,0.261464,-0.0685096,0,0,0,0,0,0.391148,0.261464,112,15,112,15,184,15,112,64,-0.261799,-0.261799,0,-1.5,0,0,0,0,0.406971,0.259883,0,0,0,0,0.0562121,-0.0125922,3528,0.397752,0.261948,0.0562121,-0.0125922
2030,-3.11559e-12,1.42781e-38,-1.52012e-06,-3.18057e-12,1.42769e-38,-3.62841e-12,-1.06644e-13,0,0,-6.10832,0.261464,-0.0685096,0,0,0,0,0,0.391148,0.261464,112,15,112,15,184,15,112,64,-0.261799,-0.261799,0,-1.5,0,0,0,0,0.407927,0.259669,0,0,0,0,0.0562121,-0.0125922,3528,0.397752,0.261948,0.0562121,-0.0125922
2040,-3.11559e-12,1.42781e-38,-1.52012e-06,-3.18057e-12,1.42769e-38,0,-1.06644e-13,0,0,-6.10832,0.261464,-0.0685096,0,0,0,0,0,0.391148,0.261464,112,15,112,15,184,15,112,64,-0.261799,-0.261799,0,-1.5,0,0,0,0,0.408995,0.259429,0,0,0,0,0.0562121,-0.0125922,3528,0.397752,0.261948,0.0562121,-0.0125922
2050,-3.11559e-12,1.42781e-38,-1.52012e-06,-3.18057e-12,1.42769e-38,-3.62841e-12,-1.06644e-13,0,0,-6.10832,0.261464,-0.0685096,0,0,0,0,0,0.391148,0.261464,112,15,112,15,184,15,112,64,-0.261799,-0.261799,0,-1.5,0,0,0,0,0.40995,0.259215,0,0,0,0,0.0562121,-0.0125922,3528,0.397752,0.261948,0.0562121,-0.0125922
2060,-3.11559e-12,1.42781e-38,-1.52012e-06,-3.18057e-12,1.42769e-38,0,-1.06644e-13,0,0,-6.10832,0.261464,-0.0685096,0,0,0,0,0,0.391148,0.261464,112,15,112,15,184,15,112,64,-0.261799,-0.261799,0,-1.5,0,0,0,0,0.410906,0.259001,0,0,0,0,0.0562121,-0.0125922,3528,0.397752,0.261948,0.0562121,-0.0125922
2070,-3.11559e-12,1.42781e-38,-1.52012e-06,-3.18057e-12,1.42769e-38,-3.62841e-12,-1.06645e-13,0,0,-6.10832,0.261464,-0.0685096,0,0,0,0,0,0.391148,0.261464,112,15,112,15,184,15,112,64,-0.261799,-0.261799,0,-1.5,0,0,0,0,0.411861,0.258787,0,0,0,0,0.0562121,-0.0125922,3528,0.397752,0.261948,0.0562121,-0.0125922
2080,-3.11559e-12,1.42781e-38,-1.52012e-06,-3.18057e-12,1.42769e-38,0,-1.06645e-13,0,0,-6.10832,0.261464,-0.0685096,0,0,0,0,0,0.391148,0.261464,112,15,112,15,184,15,112,64,-0.261799,-0.261799,0,-1.5,0,0,0,0,0.412986,0.258535,0,0,0,0,0.0562121,-0.0125922,3528,0.397752,0.261948,0.0562121,-0.0125922
2090,-3.11559e-12,1.42781e-38,-1.52012e-06,-3.18057e-12,1.42769e-38,-3.62841e-12,-1.06645e-13,0,0,-6.10832,0.261464,-0.0685096,0,0,0,0,0,0.391148,0.261464,112,15,112,15,184,15,112,64,-0.261799,-0.261799,0,-1.5,0,0,0,0,0.413773,0.258359,0,0,0,0,0.0562121,-0.0125922,3528,0.397752,0.261948,0.0562121,-0.0125922
2100,-3.11559e-12,1.42781e-38,-1.52012e-06,-3.18057e-12,1.42769e-38,0,-1.06645e-13,0,0,-6.10832,0.261464,-0.0685096,0,0,0,0,0,0.391148,0.261464,112,15,112,15,184,15,112,64,-0.261799,-0.261799,0,-1.5,0,0,0,0,0.414728,0.258145,0,0,0,0,0.0562121,-0.0125922,3528,0.397752,0.261948,0.0562121,-0.0125922
2110,-3.11559e-12,1.42781e-38,-1.52012e-06,-3.18057e-12,1.42769e-38,-3.62841e-12,-1.06646e-13,0,0,-6.10832,0.261464,-0.0685096,0,0,0,0,0,0.391148,0.261464,112,15,112,15,184,15,112,64,-0.261799,-0.261799,0,-1.5,0,0,0,0,0.415684,0.257931,0,0,0,0,0.0562121,-0.0125922,3528,0.397752,0.261948,0.0562121,-0.0125922
2120,-3.11559e-12,1.42781e-38,-1.52012e-06,-3.18057e-12,1.42769e-38,0,-1.06646e-13,0,0,-6.10832,0.261464,-0.0685096,0,0,0,0,0,0.391148,0.261464,112,15,112,15,184,15,112,64,-0.261799,-0.261799,0,-1.5,0,0,0,0,0.416864,0.257666,0,0,0,0,0.0562121,-0.0125922,3528,0.397752,0.261948,0.0562121,-0.0125922
2130,-3.11559e-12,1.42781e-38,-1.52012e-06,-3.18057e-12,1.42769e-38,-3.62841e-12,-1.06646e-13,0,0,-6.10832,0.261464,-0.0685096,0,0,0,0,0,0.391148,0.261464,112,15,112,15,184,15,112,64,-0.261799,-0.261799,0,-1.5,0,0,0,0,0.41782,0.257452,0,0,0,0,0.0562121,-0.0125922,3528,0.397752,0.261948,0.0562121,-0.0125922
2140,-3.11559e-12,1.42781e-38,-1.52012e-06,-3.18057e-12,1.42769e-38,0,-1.06647e-13,0,0,-6.10832,0.261464,-0.0685096,0,0,0,0,0,0.391148,0.261464,112,15,112,15,184,15,112,64,-0.261799,-0.261799,0,-1.5,0,0,0,0,0.418775,0.257238,0,0,0,0,0.0562121,-0.0125922,3528,0.397752,0.261948,0.0562121,-0.0125922
