timestamp,A_x,A_y,A_z,P,Q,R,Phi,Theta,Psi,poseX,poseY,poseZ,state_X,state_Y,state_Z,state_VzB,state_Bx,state_By,state_Bz,p1_x,p1_y,p2_x,p2_y,p3_x,p3_y,p4_x,p4_y,roll,pitch,yaw,alt,targetHeading,highLevelState,lowLevelState,gateNumber,filtered_x,filtered_y,x_OT,y_OT,vx_OT,vy_OT,filtered_vx,filtered_vygateArea
10,0,0,0,0,0,0,0,0,0,0,0,0,0,0,0,0,0,0,0,0,0,0,0,0,0,0,0,0,-0.261799,0.00779127,-1.5,nan,0,0,3,0,0,0,0,0,0,0,0,1.9603e-19
20,0,0,0,0,0,0,0,0,0,0,0,0,0,0,0,0,0,0,0,0,0,0,0,0,0,0,0,0,-0.261799,0.00752953,-1.5,nan,0,0,3,0,0,0,0,0,0,0,0,1.9603e-19
30,-3.11558e-12,2.47424e-38,-1.52105e-06,-3.18057e-12,2.474e-38,-3.62841e-12,-1.06589e-13,0,0,0,0,0,0,0,0,0,0,0,0,0,0,0,0,0,0,0,0,0,-0.261799,-0.00211494,-1.5,nan,0,0,3,0,0,0,0,0,0,0,0,1.9603e-19
40,-3.11558e-12,2.47424e-38,-1.52105e-06,-3.18057e-12,2.474e-38,0,-1.0659e-13,0,0,0,0,0,0,0,0,0,0,0,0,0,0,0,0,0,0,0,0,0,-0.261799,-0.00206051,-1.5,nan,0,0,3,0,0,0,0,0,0,0,0,1.9603e-19
50,-3.11558e-12,2.47424e-38,-1.52105e-06,-3.18057e-12,2.474e-38,-3.62841e-12,-1.0659e-13,0,0,0,0,0,0,0,0,0,0,0,0,0,0,0,0,0,0,0,0,0,-0.261799,-0.00199935,-1.5,nan,0,0,3,0,0,0,0,0,0,0,0,1.9603e-19
60,-3.11558e-12,2.47424e-38,-1.52105e-06,-3.18057e-12,2.474e-38,0,-1.0659e-13,0,0,0,0,0,0,0,0,0,0,0,0,0,0,0,0,0,0,0,0,0,-0.261799,-0.00193607,-1.5,nan,0,0,3,0,0,0,0,0,0,0,0,1.9603e-19
70,-3.11558e-12,2.47424e-38,-1.52105e-06,-3.18057e-12,2.474e-38,-3.62841e-12,-1.0659e-13,0,0,0,0,0,0,0,0,0,0,0,0,0,0,0,0,0,0,0,0,0,-0.261799,-0.0018786,-1.5,nan,0,0,3,0,0,0,0,0,0,0,0,1.9603e-19
80,-3.11558e-12,2.47424e-38,-1.52105e-06,-3.18057e-12,2.474e-38,0,-1.06591e-13,0,0,0,0,0,0,0,0,0,0,0,0,0,0,0,0,0,0,0,0,0,-0.261799,-0.00182284,-1.5,nan,0,0,3,0,0,0,0,0,0,0,0,1.9603e-19
90,-3.11558e-12,2.47424e-38,-1.52105e-06,-3.18057e-12,2.474e-38,-3.62841e-12,-1.06591e-13,0,0,0,0,0,0,0,0,0,0,0,0,0,0,0,0,0,0,0,0,0,-0.261799,-0.00175803,-1.5,nan,0,0,3,0,0,0,0,0,0,0,0,1.9603e-19
100,-3.11558e-12,2.47424e-38,-1.52105e-06,-3.18057e-12,2.474e-38,0,-1.06591e-13,0,0,0,0,0,0,0,0,0,0,0,0,0,0,0,0,0,0,0,0,0,-0.261799,-0.00170585,-1.5,nan,0,0,3,0,0,0,0,0,0,0,0,1.9603e-19
110,-3.11558e-12,2.47424e-38,-1.52105e-06,-3.18057e-12,2.474e-38,-3.62841e-12,-1.06591e-13,0,0,0,0,0,0,0,0,0,0,0,0,0,0,0,0,0,0,0,0,0,-0.261799,-0.00154802,-1.5,nan,0,0,3,0,0,0,0,0,0,0,0,1.9603e-19
120,-3.11558e-12,2.47424e-38,-1.52105e-06,-3.18057e-12,2.474e-38,0,-1.06592e-13,0,0,0,0,0,0,0,0,0,0,0,0,0,0,0,0,0,0,0,0,0,-0.261799,-0.00145941,-1.5,nan,0,0,3,0,0,0,0,0,0,0,0,1.9603e-19
130,-3.11558e-12,2.47424e-38,-1.52105e-06,-3.18057e-12,2.474e-38,-3.62841e-12,-1.06592e-13,0,0,0,0,0,0,0,0,0,0,0,0,0,0,0,0,0,0,0,0,0,-0.261799,-0.00116333,-1.5,nan,0,0,3,0,0,0,0,0,0,0,0,1.9603e-19
140,-3.11558e-12,2.47424e-38,-1.52105e-06,-3.18057e-12,2.474e-38,0,-1.06592e-13,0,0,0,0,0,0,0,0,0,0,0,0,0,0,0,0,0,0,0,0,0,-0.261799,-0.000978001,-1.5,nan,0,0,3,0,0,0,0,0,0,0,0,1.9603e-19
150,-3.11558e-12,2.47424e-38,-1.52105e-06,-3.18057e-12,2.474e-38,-3.62841e-12,-1.06593e-13,0,0,0,0,0,0,0,0,0,0,0,0,0,0,0,0,0,0,0,0,0,-0.261799,-0.000931648,-1.5,nan,0,0,3,0,0,0,0,0,0,0,0,1.9603e-19
160,-3.11558e-12,2.47424e-38,-1.52105e-06,-3.18057e-12,2.474e-38,0,-1.06593e-13,0,0,0,0,0,0,0,0,0,0,0,0,0,0,0,0,0,0,0,0,0,-0.261799,-0.000878324,-1.5,nan,0,0,3,0,0,0,0,0,0,0,0,1.9603e-19
170,-3.11558e-12,2.47424e-38,-1.52105e-06,-3.18057e-12,2.474e-38,-3.62841e-12,-1.06593e-13,0,0,0,0,0,0,0,0,0,0,0,0,0,0,0,0,0,0,0,0,0,-0.261799,-0.000798664,-1.5,nan,0,0,3,0,0,0,0,0,0,0,0,1.9603e-19
180,-3.11558e-12,2.47424e-38,-1.52105e-06,-3.18057e-12,2.474e-38,0,-1.06593e-13,0,0,0,0,0,0,0,0,0,0,0,0,0,0,0,0,0,0,0,0,0,-0.261799,-0.000759283,-1.5,nan,0,0,3,0,0,0,0,0,0,0,0,1.9603e-19
190,-3.11558e-12,2.47424e-38,-1.52105e-06,-3.18057e-12,2.474e-38,-3.62841e-12,-1.06594e-13,0,0,0,0,0,0,0,0,0,0,0,0,0,0,0,0,0,0,0,0,0,-0.261799,-0.000700881,-1.5,nan,0,0,3,0,0,0,0,0,0,0,0,1.9603e-19
200,-3.11558e-12,2.47424e-38,-1.52105e-06,-3.18057e-12,2.474e-38,0,-1.06594e-13,0,0,0,0,0,0,0,0,0,0,0,0,0,0,0,0,0,0,0,0,0,-0.261799,-0.000664945,-1.5,nan,0,0,3,0,0,0,0,0,0,0,0,1.9603e-19
210,-3.11558e-12,2.47424e-38,-1.52105e-06,-3.18057e-12,2.474e-38,-3.62841e-12,-1.06594e-13,0,0,0,0,0,0,0,0,0,0,0,0,0,0,0,0,0,0,0,0,0,-0.261799,-0.000645208,-1.5,nan,0,0,3,0,0,0,0,0,0,0,0,1.9603e-19
220,-3.11558e-12,2.47424e-38,-1.52105e-06,-3.18057e-12,2.474e-38,0,-1.06594e-13,0,0,0,0,0,0,0,0,0,0,0,0,0,0,0,0,0,0,0,0,0,-0.261799,-0.000622266,-1.5,nan,0,0,3,0,0,0,0,0,0,0,0,1.9603e-19
230,-3.11558e-12,2.47424e-38,-1.52105e-06,-3.18057e-12,2.474e-38,-3.62841e-12,-1.06595e-13,0,0,0,0,0,0,0,0,0,0,0,0,0,0,0,0,0,0,0,0,0,-0.261799,-0.000608695,-1.5,nan,0,0,3,0,0,0,0,0,0,0,0,1.9603e-19
240,-3.11558e-12,2.47424e-38,-1.52105e-06,-3.18057e-12,2.474e-38,0,-1.06595e-13,0,0,0,0,0,0,0,0,0,0,0,0,0,0,0,0,0,0,0,0,0,-0.261799,-0.000589442,-1.5,nan,0,0,3,0,0,0,0,0,0,0,0,1.9603e-19
250,-3.11558e-12,2.47424e-38,-1.52105e-06,-3.18057e-12,2.474e-38,-3.62841e-12,-1.06595e-13,0,0,0,0,0,0,0,0,0,0,0,0,0,0,0,0,0,0,0,0,0,-0.261799,-0.000533748,-1.5,nan,0,0,3,0,0,0,0,0,0,0,0,1.9603e-19
260,-3.11558e-12,2.47424e-38,-1.52105e-06,-3.18057e-12,2.474e-38,0,-1.06596e-13,0,0,0,0,0,0,0,0,0,0,0,0,0,0,0,0,0,0,0,0,0,-0.261799,-0.000515817,-1.5,nan,0,0,3,0,0,0,0,0,0,0,0,1.9603e-19
270,-3.11558e-12,2.47424e-38,-1.52105e-06,-3.18057e-12,2.474e-38,-3.62841e-12,-1.06596e-13,0,0,0,0,0,0,0,0,0,0,0,0,0,0,0,0,0,0,0,0,0,-0.261799,-0.000495431,-1.5,nan,0,0,3,0,0,0,0,0,0,0,0,1.9603e-19
280,-3.11558e-12,2.47424e-38,-1.52105e-06,-3.18057e-12,2.474e-38,0,-1.06596e-13,0,0,0,0,0,0,0,0,0,0,0,0,0,0,0,0,0,0,0,0,0,-0.261799,-0.00047975,-1.5,nan,0,0,3,0,0,0,0,0,0,0,0,1.9603e-19
290,-3.11558e-12,2.47424e-38,-1.52105e-06,-3.18057e-12,2.474e-38,-3.62841e-12,-1.06596e-13,0,0,0,0,0,0,0,0,0,0,0,0,0,0,0,0,0,0,0,0,0,-0.261799,-0.000464576,-1.5,nan,0,0,3,0,0,0,0,0,0,0,0,1.9603e-19
300,-3.11558e-12,2.47424e-38,-1.52105e-06,-3.18057e-12,2.474e-38,0,-1.06597e-13,0,0,0,0,0,0,0,0,0,0,0,0,0,0,0,0,0,0,0,0,0,-0.261799,-0.000447144,-1.5,nan,0,0,3,0,0,0,0,0,0,0,0,1.9603e-19
310,-3.11558e-12,2.47424e-38,-1.52105e-06,-3.18057e-12,2.474e-38,-3.62841e-12,-1.06597e-13,0,0,0,0,0,0,0,0,0,0,0,0,0,0,0,0,0,0,0,0,0,-0.261799,-0.000433001,-1.5,nan,0,0,3,0,0,0,0,0,0,0,0,1.9603e-19
320,-3.11558e-12,2.47424e-38,-1.52105e-06,-3.18057e-12,2.474e-38,0,-1.06597e-13,0,0,0,0,0,0,0,0,0,0,0,0,0,0,0,0,0,0,0,0,0,-0.261799,-0.000419305,-1.5,nan,0,0,3,0,0,0,0,0,0,0,0,1.9603e-19
330,-3.11558e-12,2.47424e-38,-1.52105e-06,-3.18057e-12,2.474e-38,-3.62841e-12,-1.06597e-13,0,0,0,0,0,0,0,0,0,0,0,0,0,0,0,0,0,0,0,0,0,-0.261799,-0.000405209,-1.5,nan,0,0,3,0,0,0,0,0,0,0,0,1.9603e-19
340,-3.11558e-12,2.47424e-38,-1.52105e-06,-3.18057e-12,2.474e-38,0,-1.06598e-13,0,0,0,0,0,0,0,0,0,0,0,0,0,0,0,0,0,0,0,0,0,-0.261799,-0.0003908,-1.5,nan,0,0,3,0,0,0,0,0,0,0,0,1.9603e-19
350,-3.11558e-12,2.47424e-38,-1.52105e-06,-3.18057e-12,2.474e-38,-3.62841e-12,-1.06598e-13,0,0,0,0,0,0,0,0,0,0,0,0,0,0,0,0,0,0,0,0,0,-0.261799,-0.000375368,-1.5,nan,0,0,3,0,0,0,0,0,0,0,0,1.9603e-19
360,-3.11558e-12,2.47424e-38,-1.52105e-06,-3.18057e-12,2.474e-38,0,-1.06598e-13,0,0,0,0,0,0,0,0,0,0,0,0,0,0,0,0,0,0,0,0,0,-0.261799,-0.000364227,-1.5,nan,0,0,3,0,0,0,0,0,0,0,0,1.9603e-19
370,-3.11558e-12,2.47424e-38,-1.52105e-06,-3.18057e-12,2.474e-38,-3.62841e-12,-1.06599e-13,0,0,0,0,0,0,0,0,0,0,0,0,0,0,0,0,0,0,0,0,0,-0.261799,-0.000352699,-1.5,nan,0,0,3,0,0,0,0,0,0,0,0,1.9603e-19
380,-3.11558e-12,2.47424e-38,-1.52105e-06,-3.18057e-12,2.474e-38,0,-1.06599e-13,0,0,0,0,0,0,0,0,0,0,0,0,0,0,0,0,0,0,0,0,0,-0.261799,-0.000339454,-1.5,nan,0,0,3,0,0,0,0,0,0,0,0,1.9603e-19
390,-3.11558e-12,2.47424e-38,-1.52105e-06,-3.18057e-12,2.474e-38,-3.62841e-12,-1.06599e-13,0,0,0,0,0,0,0,0,0,0,0,0,0,0,0,0,0,0,0,0,0,-0.261799,-0.00032871,-1.5,nan,0,0,3,0,0,0,0,0,0,0,0,1.9603e-19
400,-3.11558e-12,2.47424e-38,-1.52105e-06,-3.18057e-12,2.474e-38,0,-1.06599e-13,0,0,0,0,0,0,0,0,0,0,0,0,0,0,0,0,0,0,0,0,0,-0.261799,-0.000318313,-1.5,nan,0,0,3,0,0,0,0,0,0,0,0,1.9603e-19
410,-3.11558e-12,2.47424e-38,-1.52105e-06,-3.18057e-12,2.474e-38,-3.62841e-12,-1.066e-13,0,0,0,0,0,0,0,0,0,0,0,0,0,0,0,0,0,0,0,0,0,-0.261799,-0.000307612,-1.5,nan,0,0,3,0,0,0,0,0,0,0,0,1.9603e-19
420,-3.11558e-12,2.47424e-38,-1.52105e-06,-3.18057e-12,2.474e-38,0,-1.066e-13,0,0,0,0,0,0,0,0,0,0,0,0,0,0,0,0,0,0,0,0,0,-0.261799,-0.000298482,-1.5,nan,0,0,3,0,0,0,0,0,0,0,0,1.9603e-19
430,-3.11558e-12,2.47424e-38,-1.52105e-06,-3.18057e-12,2.474e-38,-3.62841e-12,-1.066e-13,0,0,0,0,0,0,0,0,0,0,0,0,0,0,0,0,0,0,0,0,0,-0.261799,-0.000286685,-1.5,nan,0,0,3,0,0,0,0,0,0,0,0,1.9603e-19
440,-3.11558e-12,2.47424e-38,-1.52105e-06,-3.18057e-12,2.474e-38,0,-1.066e-13,0,0,0,0,0,0,0,0,0,0,0,0,0,0,0,0,0,0,0,0,0,-0.261799,-0.000278743,-1.5,nan,0,0,3,0,0,0,0,0,0,0,0,1.9603e-19
450,-3.11558e-12,2.47424e-38,-1.52105e-06,-3.18057e-12,2.474e-38,-3.62841e-12,-1.06601e-13,0,0,0,0,0,0,0,0,0,0,0,0,0,0,0,0,0,0,0,0,0,-0.261799,-0.000271022,-1.5,nan,0,0,3,0,0,0,0,0,0,0,0,1.9603e-19
460,-3.11558e-12,2.47424e-38,-1.52105e-06,-3.18057e-12,2.474e-38,0,-1.06601e-13,0,0,0,0,0,0,0,0,0,0,0,0,0,0,0,0,0,0,0,0,0,-0.261799,-0.000263514,-1.5,nan,0,0,3,0,0,0,0,0,0,0,0,1.9603e-19
470,-3.11558e-12,2.47424e-38,-1.52105e-06,-3.18057e-12,2.474e-38,-3.62841e-12,-1.06601e-13,0,0,0,0,0,0,0,0,0,0,0,0,0,0,0,0,0,0,0,0,0,-0.261799,-0.000255179,-1.5,nan,0,0,3,0,0,0,0,0,0,0,0,1.9603e-19
480,-3.11558e-12,2.47424e-38,-1.52105e-06,-3.18057e-12,2.474e-38,0,-1.06602e-13,0,0,0,0,0,0,0,0,0,0,0,0,0,0,0,0,0,0,0,0,0,-0.261799,-0.000247108,-1.5,nan,0,0,3,0,0,0,0,0,0,0,0,1.9603e-19
490,-3.11558e-12,2.47424e-38,-1.52105e-06,-3.18057e-12,2.474e-38,-3.62841e-12,-1.06602e-13,0,0,0,0,0,0,0,0,0,0,0,0,0,0,0,0,0,0,0,0,0,-0.261799,-0.0002388,-1.5,nan,0,0,3,0,0,0,0,0,0,0,0,1.9603e-19
500,-3.11558e-12,2.47424e-38,-1.52105e-06,-3.18057e-12,2.474e-38,0,-1.06602e-13,0,0,0,0,0,0,0,0,0,0,0,0,0,0,0,0,0,0,0,0,0,-0.261799,-0.00022984,-1.5,nan,0,0,3,0,0,0,0,0,0,0,0,1.9603e-19
510,-3.11558e-12,2.47424e-38,-1.52105e-06,-3.18057e-12,2.474e-38,-3.62841e-12,-1.06602e-13,0,0,0,0,0,0,0,0,0,0,0,0,0,0,0,0,0,0,0,0,0,-0.261799,-0.000220764,-1.5,nan,0,0,3,0,0,0,0,0,0,0,0,1.9603e-19
520,-3.11558e-12,2.47424e-38,-1.52105e-06,-3.18057e-12,2.474e-38,0,-1.06603e-13,0,0,0,0,0,0,0,0,0,0,0,0,0,0,0,0,0,0,0,0,0,-0.261799,-0.000214212,-1.5,nan,0,0,3,0,0,0,0,0,0,0,0,1.9603e-19
530,-3.11558e-12,2.47424e-38,-1.52105e-06,-3.18057e-12,2.474e-38,-3.62841e-12,-1.06603e-13,0,0,0,0,0,0,0,0,0,0,0,0,0,0,0,0,0,0,0,0,0,-0.261799,-0.00020366,-1.5,nan,0,0,3,0,0,0,0,0,0,0,0,1.9603e-19
540,-3.11558e-12,2.47424e-38,-1.52105e-06,-3.18057e-12,2.474e-38,0,-1.06603e-13,0,0,0,0,0,0,0,0,0,0,0,0,0,0,0,0,0,0,0,0,0,-0.261799,-0.000196818,-1.5,nan,0,0,3,0,0,0,0,0,0,0,0,1.9603e-19
550,-3.11558e-12,2.47424e-38,-1.52105e-06,-3.18057e-12,2.474e-38,-3.62841e-12,-1.06603e-13,0,0,0,0,0,0,0,0,0,0,0,0,0,0,0,0,0,0,0,0,0,-0.261799,-0.000190593,-1.5,nan,0,0,3,0,0,0,0,0,0,0,0,1.9603e-19
560,-3.11558e-12,2.47424e-38,-1.52105e-06,-3.18057e-12,2.474e-38,0,-1.06604e-13,0,0,0,0,0,0,0,0,0,0,0,0,0,0,0,0,0,0,0,0,0,-0.261799,-0.000184936,-1.5,nan,0,0,3,0,0,0,0,0,0,0,0,1.9603e-19
570,-3.11558e-12,2.47424e-38,-1.52105e-06,-3.18057e-12,2.474e-38,-3.62841e-12,-1.06604e-13,0,0,0,0,0,0,0,0,0,0,0,0,0,0,0,0,0,0,0,0,0,-0.261799,-0.000177633,-1.5,nan,0,0,3,0,0,0,0,0,0,0,0,1.9603e-19
580,-3.11558e-12,2.47424e-38,-1.52105e-06,-3.18057e-12,2.474e-38,0,-1.06604e-13,0,0,0,0,0,0,0,0,0,0,0,0,0,0,0,0,0,0,0,0,0,-0.261799,-0.000172015,-1.5,nan,0,0,3,0,0,0,0,0,0,0,0,1.9603e-19
590,-3.11558e-12,2.47424e-38,-1.52105e-06,-3.18057e-12,2.474e-38,-3.62841e-12,-1.06605e-13,0,0,0,0,0,0,0,0,0,0,0,0,0,0,0,0,0,0,0,0,0,-0.261799,-0.000165222,-1.5,nan,0,0,3,0,0,0,0,0,0,0,0,1.9603e-19
600,-3.11558e-12,2.47424e-38,-1.52105e-06,-3.18057e-12,2.474e-38,0,-1.06605e-13,0,0,0,0,0,0,0,0,0,0,0,0,0,0,0,0,0,0,0,0,0,-0.261799,-0.000159996,-1.5,nan,0,0,3,0,0,0,0,0,0,0,0,1.9603e-19
610,-3.11558e-12,2.47424e-38,-1.52105e-06,-3.18057e-12,2.474e-38,-3.62841e-12,-1.06605e-13,0,0,0,0,0,0,0,0,0,0,0,0,0,0,0,0,0,0,0,0,0,-0.261799,-0.000154621,-1.5,nan,0,0,3,0,0,0,0,0,0,0,0,1.9603e-19
620,-3.11558e-12,2.47424e-38,-1.52105e-06,-3.18057e-12,2.474e-38,0,-1.06605e-13,0,0,0,0,0,0,0,0,0,0,0,0,0,0,0,0,0,0,0,0,0,-0.261799,-0.000149423,-1.5,nan,0,0,3,0,0,0,0,0,0,0,0,1.9603e-19
630,-3.11558e-12,2.47424e-38,-1.52105e-06,-3.18057e-12,2.474e-38,-3.62841e-12,-1.06606e-13,0,0,0,0,0,0,0,0,0,0,0,0,0,0,0,0,0,0,0,0,0,-0.261799,-0.000144697,-1.5,nan,0,0,3,0,0,0,0,0,0,0,0,1.9603e-19
640,-3.11558e-12,2.47424e-38,-1.52105e-06,-3.18057e-12,2.474e-38,0,-1.06606e-13,0,0,0,0,0,0,0,0,0,0,0,0,0,0,0,0,0,0,0,0,0,-0.261799,-0.00014012,-1.5,nan,0,0,3,0,0,0,0,0,0,0,0,1.9603e-19
650,-3.11558e-12,2.47424e-38,-1.52105e-06,-3.18057e-12,2.474e-38,-3.62841e-12,-1.06606e-13,0,0,0,0,0,0,0,0,0,0,0,0,0,0,0,0,0,0,0,0,0,-0.261799,-0.000134858,-1.5,nan,0,0,3,0,0,0,0,0,0,0,0,1.9603e-19
660,-3.11558e-12,2.47424e-38,-1.52105e-06,-3.18057e-12,2.474e-38,0,-1.06606e-13,0,0,0,0,0,0,0,0,0,0,0,0,0,0,0,0,0,0,0,0,0,-0.261799,-0.000131122,-1.5,nan,0,0,3,0,0,0,0,0,0,0,0,1.9603e-19
670,-3.11558e-12,2.47424e-38,-1.52105e-06,-3.18057e-12,2.474e-38,-3.62841e-12,-1.06607e-13,0,0,0,0,0,0,0,0,0,0,0,0,0,0,0,0,0,0,0,0,0,-0.261799,-0.000127747,-1.5,nan,0,0,3,0,0,0,0,0,0,0,0,1.9603e-19
680,-3.11558e-12,2.47424e-38,-1.52105e-06,-3.18057e-12,2.474e-38,0,-1.06607e-13,0,0,0,0,0,0,0,0,0,0,0,0,0,0,0,0,0,0,0,0,0,-0.261799,-0.000123704,-1.5,nan,0,0,3,0,0,0,0,0,0,0,0,1.9603e-19
690,-3.11558e-12,2.47424e-38,-1.52105e-06,-3.18057e-12,2.474e-38,-3.62841e-12,-1.06607e-13,0,0,0,0,0,0,0,0,0,0,0,0,0,0,0,0,0,0,0,0,0,-0.261799,-0.000119305,-1.5,nan,0,0,3,0,0,0,0,0,0,0,0,1.9603e-19
700,-3.11558e-12,2.47424e-38,-1.52105e-06,-3.18057e-12,2.474e-38,0,-1.06607e-13,0,0,0,0,0,0,0,0,0,0,0,0,0,0,0,0,0,0,0,0,0,-0.261799,-0.000115062,-1.5,nan,0,0,3,0,0,0,0,0,0,0,0,1.9603e-19
710,-3.11558e-12,2.47424e-38,-1.52105e-06,-3.18057e-12,2.474e-38,-3.62841e-12,-1.06608e-13,0,0,0,0,0,0,0,0,0,0,0,0,0,0,0,0,0,0,0,0,0,-0.261799,-0.000111647,-1.5,nan,0,0,3,0,0,0,0,0,0,0,0,1.9603e-19
720,-3.11558e-12,2.47424e-38,-1.52105e-06,-3.18057e-12,2.474e-38,0,-1.06608e-13,0,0,0,0,0,0,0,0,0,0,0,0,0,0,0,0,0,0,0,0,0,-0.261799,-0.000108114,-1.5,nan,0,0,3,0,0,0,0,0,0,0,0,1.9603e-19
730,-3.11558e-12,2.47424e-38,-1.52105e-06,-3.18057e-12,2.474e-38,-3.62841e-12,-1.06608e-13,0,0,0,0,0,0,0,0,0,0,0,0,0,0,0,0,0,0,0,0,0,-0.261799,-0.000103845,-1.5,nan,0,0,3,0,0,0,0,0,0,0,0,1.9603e-19
740,-3.11558e-12,2.47424e-38,-1.52105e-06,-3.18057e-12,2.474e-38,0,-1.06609e-13,0,0,0,0,0,0,0,0,0,0,0,0,0,0,0,0,0,0,0,0,0,-0.261799,-0.00010056,-1.5,nan,0,0,3,0,0,0,0,0,0,0,0,1.9603e-19
750,-3.11558e-12,2.47424e-38,-1.52105e-06,-3.18057e-12,2.474e-38,-3.62841e-12,-1.06609e-13,0,0,0,0,0,0,0,0,0,0,0,0,0,0,0,0,0,0,0,0,0,-0.261799,-9.65891e-05,-1.5,nan,0,0,3,0,0,0,0,0,0,0,0,1.9603e-19
760,-3.11558e-12,2.47424e-38,-1.52105e-06,-3.18057e-12,2.474e-38,0,-1.06609e-13,0,0,0,0,0,0,0,0,0,0,0,0,0,0,0,0,0,0,0,0,0,-0.261799,-9.3534e-05,-1.5,nan,0,0,3,0,0,0,0,0,0,0,0,1.9603e-19
770,-3.11558e-12,2.47424e-38,-1.52105e-06,-3.18057e-12,2.474e-38,-3.62841e-12,-1.06609e-13,0,0,0,0,0,0,0,0,0,0,0,0,0,0,0,0,0,0,0,0,0,-0.261799,-9.02055e-05,-1.5,nan,0,0,3,0,0,0,0,0,0,0,0,1.9603e-19
780,-3.11558e-12,2.47424e-38,-1.52105e-06,-3.18057e-12,2.474e-38,0,-1.0661e-13,0,0,0,0,0,0,0,0,0,0,0,0,0,0,0,0,0,0,0,0,0,-0.261799,-8.69979e-05,-1.5,nan,0,0,3,0,0,0,0,0,0,0,0,1.9603e-19
790,-3.11558e-12,2.47424e-38,-1.52105e-06,-3.18057e-12,2.474e-38,-3.62841e-12,-1.0661e-13,0,0,0,0,0,0,0,0,0,0,0,0,0,0,0,0,0,0,0,0,0,-0.261799,-8.44157e-05,-1.5,nan,0,0,3,0,0,0,0,0,0,0,0,1.9603e-19
800,-3.11558e-12,2.47424e-38,-1.52105e-06,-3.18057e-12,2.474e-38,0,-1.0661e-13,0,0,0,0,0,0,0,0,0,0,0,0,0,0,0,0,0,0,0,0,0,-0.261799,-8.17456e-05,-1.5,nan,0,0,3,0,0,0,0,0,0,0,0,1.9603e-19
810,-3.11558e-12,2.47424e-38,-1.52105e-06,-3.18057e-12,2.474e-38,-3.62841e-12,-1.0661e-13,0,0,0,0,0,0,0,0,0,0,0,0,0,0,0,0,0,0,0,0,0,-0.261799,-7.85177e-05,-1.5,nan,0,0,3,0,0,0,0,0,0,0,0,1.9603e-19
820,-3.11558e-12,2.47424e-38,-1.52105e-06,-3.18057e-12,2.474e-38,0,-1.06611e-13,0,0,0,0,0,0,0,0,0,0,0,0,0,0,0,0,0,0,0,0,0,-0.261799,-7.60342e-05,-1.5,nan,0,0,3,0,0,0,0,0,0,0,0,1.9603e-19
830,-3.11558e-12,2.47424e-38,-1.52105e-06,-3.18057e-12,2.474e-38,-3.62841e-12,-1.06611e-13,0,0,0,0,0,0,0,0,0,0,0,0,0,0,0,0,0,0,0,0,0,-0.261799,-7.30319e-05,-1.5,nan,0,0,3,0,0,0,0,0,0,0,0,1.9603e-19
840,-3.11558e-12,2.47424e-38,-1.52105e-06,-3.18057e-12,2.474e-38,0,-1.06611e-13,0,0,0,0,0,0,0,0,0,0,0,0,0,0,0,0,0,0,0,0,0,-0.261799,-7.07218e-05,-1.5,nan,0,0,3,0,0,0,0,0,0,0,0,1.9603e-19
850,-3.11558e-12,2.47424e-38,-1.52105e-06,-3.18057e-12,2.474e-38,-3.62841e-12,-1.06612e-13,0,0,0,0,0,0,0,0,0,0,0,0,0,0,0,0,0,0,0,0,0,-0.261799,-6.84849e-05,-1.5,nan,0,0,3,0,0,0,0,0,0,0,0,1.9603e-19
860,-3.11558e-12,2.47424e-38,-1.52105e-06,-3.18057e-12,2.474e-38,0,-1.06612e-13,0,0,0,0,0,0,0,0,0,0,0,0,0,0,0,0,0,0,0,0,0,-0.261799,-6.61842e-05,-1.5,nan,0,0,3,0,0,0,0,0,0,0,0,1.9603e-19
870,-3.11558e-12,2.47424e-38,-1.52105e-06,-3.18057e-12,2.474e-38,-3.62841e-12,-1.06612e-13,0,0,0,0,0,0,0,0,0,0,0,0,0,0,0,0,0,0,0,0,0,-0.261799,-6.44803e-05,-1.5,nan,0,0,3,0,0,0,0,0,0,0,0,1.9603e-19
880,-3.11558e-12,2.47424e-38,-1.52105e-06,-3.18057e-12,2.474e-38,0,-1.06612e-13,0,0,0,0,0,0,0,0,0,0,0,0,0,0,0,0,0,0,0,0,0,-0.261799,-6.26941e-05,-1.5,nan,0,0,3,0,0,0,0,0,0,0,0,1.9603e-19
890,-3.11558e-12,2.47424e-38,-1.52105e-06,-3.18057e-12,2.474e-38,-3.62841e-12,-1.06613e-13,0,0,0,0,0,0,0,0,0,0,0,0,0,0,0,0,0,0,0,0,0,-0.261799,-6.04648e-05,-1.5,nan,0,0,3,0,0,0,0,0,0,0,0,1.9603e-19
900,-3.11558e-12,2.47424e-38,-1.52105e-06,-3.18057e-12,2.474e-38,0,-1.06613e-13,0,0,0,0,0,0,0,0,0,0,0,0,0,0,0,0,0,0,0,0,0,-0.261799,-5.85523e-05,-1.5,nan,0,0,3,0,0,0,0,0,0,0,0,1.9603e-19
910,-3.11558e-12,2.47424e-38,-1.52105e-06,-3.18057e-12,2.474e-38,-3.62841e-12,-1.06613e-13,0,0,0,0,0,0,0,0,0,0,0,0,0,0,0,0,0,0,0,0,0,-0.261799,-4.57742e-05,-1.5,nan,0,0,3,0,0,0,0,0,0,0,0,1.9603e-19
920,-3.11558e-12,2.47424e-38,-1.52105e-06,-3.18057e-12,2.474e-38,0,-1.06613e-13,0,0,0,0,0,0,0,0,0,0,0,0,0,0,0,0,0,0,0,0,0,-0.261799,-3.81091e-05,-1.5,nan,0,0,3,0,0,0,0,0,0,0,0,1.9603e-19
930,-3.11558e-12,2.47424e-38,-1.52105e-06,-3.18057e-12,2.474e-38,-3.62841e-12,-1.06614e-13,0,0,0,0,0,0,0,0,0,0,0,0,0,0,0,0,0,0,0,0,0,-0.261799,-3.69037e-05,-1.5,nan,0,0,3,0,0,0,0,0,0,0,0,1.9603e-19
940,-3.11558e-12,2.47424e-38,-1.52105e-06,-3.18057e-12,2.474e-38,0,-1.06614e-13,0,0,0,0,0,0,0,0,0,0,0,0,0,0,0,0,0,0,0,0,0,-0.261799,-3.55915e-05,-1.5,nan,0,0,3,0,0,0,0,0,0,0,0,1.9603e-19
950,-3.11558e-12,2.47424e-38,-1.52105e-06,-3.18057e-12,2.474e-38,-3.62841e-12,-1.06614e-13,0,0,0,0,0,0,0,0,0,0,0,0,0,0,0,0,0,0,0,0,0,-0.261799,-3.43259e-05,-1.5,nan,0,0,3,0,0,0,0,0,0,0,0,1.9603e-19
960,-3.11558e-12,2.47424e-38,-1.52105e-06,-3.18057e-12,2.474e-38,0,-1.06615e-13,0,0,0,0,0,0,0,0,0,0,0,0,0,0,0,0,0,0,0,0,0,-0.261799,-3.32402e-05,-1.5,nan,0,0,3,0,0,0,0,0,0,0,0,1.9603e-19
970,-3.11558e-12,2.47424e-38,-1.52105e-06,-3.18057e-12,2.474e-38,-3.62841e-12,-1.06615e-13,0,0,0,0,0,0,0,0,0,0,0,0,0,0,0,0,0,0,0,0,0,-0.261799,-3.19276e-05,-1.5,nan,0,0,3,0,0,0,0,0,0,0,0,1.9603e-19
980,-3.11558e-12,2.47424e-38,-1.52105e-06,-3.18057e-12,2.474e-38,0,-1.06615e-13,0,0,0,0,0,0,0,0,0,0,0,0,0,0,0,0,0,0,0,0,0,-0.261799,-3.09177e-05,-1.5,nan,0,0,3,0,0,0,0,0,0,0,0,1.9603e-19
990,-3.11558e-12,2.47424e-38,-1.52105e-06,-3.18057e-12,2.474e-38,-3.62841e-12,-1.06615e-13,0,0,0,0,0,0,0,0,0,0,0,0,0,0,0,0,0,0,0,0,0,-0.261799,-2.98791e-05,-1.5,nan,0,0,3,0,0,0,0,0,0,0,0,1.9603e-19
1000,-3.11558e-12,2.47424e-38,-1.52105e-06,-3.18057e-12,2.474e-38,0,-1.06616e-13,0,0,0,0,0,0,0,0,0,0,0,0,0,0,0,0,0,0,0,0,0,-0.261799,-2.89334e-05,-1.5,nan,0,0,3,0,0,0,0,0,0,0,0,1.9603e-19
1010,-3.11558e-12,2.47424e-38,-1.52105e-06,-3.18057e-12,2.474e-38,-3.62841e-12,-1.06616e-13,0,0,0,0,0,0,0,0,0,0,0,0,0,0,0,0,0,0,0,0,0,-0.261799,-2.80177e-05,-1.5,nan,0,0,3,0,0,0,0,0,0,0,0,1.9603e-19
1020,-3.11558e-12,2.47424e-38,-1.52105e-06,-3.18057e-12,2.474e-38,0,-1.06616e-13,0,0,0,0,0,0,0,0,0,0,0,0,0,0,0,0,0,0,0,0,0,-0.261799,-2.70214e-05,-1.5,nan,0,0,3,0,0,0,0,0,0,0,0,1.9603e-19
1030,-3.11558e-12,2.47424e-38,-1.52105e-06,-3.18057e-12,2.474e-38,-3.62841e-12,-1.06616e-13,0,0,0,0,0,0,0,0,0,0,0,0,0,0,0,0,0,0,0,0,0,-0.261799,-2.61662e-05,-1.5,nan,0,0,3,0,0,0,0,0,0,0,0,1.9603e-19
1040,-3.11558e-12,2.47424e-38,-1.52105e-06,-3.18057e-12,2.474e-38,0,-1.06617e-13,0,0,0,0,0,0,0,0,0,0,0,0,0,0,0,0,0,0,0,0,0,-0.261799,-2.5338e-05,-1.5,nan,0,0,3,0,0,0,0,0,0,0,0,1.9603e-19
1050,-3.11558e-12,2.47424e-38,-1.52105e-06,-3.18057e-12,2.474e-38,-3.62841e-12,-1.06617e-13,0,0,0,0,0,0,0,0,0,0,0,0,0,0,0,0,0,0,0,0,0,-0.261799,-2.43366e-05,-1.5,nan,0,0,3,0,0,0,0,0,0,0,0,1.9603e-19
1060,-3.11558e-12,2.47424e-38,-1.52105e-06,-3.18057e-12,2.474e-38,0,-1.06617e-13,0,0,0,0,0,0,0,0,0,0,0,0,0,0,0,0,0,0,0,0,0,-0.261799,-2.34712e-05,-1.5,nan,0,0,3,0,0,0,0,0,0,0,0,1.9603e-19
1070,-3.11558e-12,2.47424e-38,-1.52105e-06,-3.18057e-12,2.474e-38,-3.62841e-12,-1.06618e-13,0,0,0,0,0,0,0,0,0,0,0,0,0,0,0,0,0,0,0,0,0,-0.261799,-2.26822e-05,-1.5,nan,0,0,3,0,0,0,0,0,0,0,0,1.9603e-19
1080,-3.11558e-12,2.47424e-38,-1.52105e-06,-3.18057e-12,2.474e-38,0,-1.06618e-13,0,0,0,0,0,0,0,0,0,0,0,0,0,0,0,0,0,0,0,0,0,-0.261799,-2.20982e-05,-1.5,nan,0,0,3,0,0,0,0,0,0,0,0,1.9603e-19
1090,-3.11558e-12,2.47424e-38,-1.52105e-06,-3.18057e-12,2.474e-38,-3.62841e-12,-1.06618e-13,0,0,0,0,0,0,0,0,0,0,0,0,0,0,0,0,0,0,0,0,0,-0.261799,-2.14861e-05,-1.5,nan,0,0,3,0,0,0,0,0,0,0,0,1.9603e-19
1100,-3.11558e-12,2.47424e-38,-1.52105e-06,-3.18057e-12,2.474e-38,0,-1.06618e-13,0,0,0,0,0,0,0,0,0,0,0,0,0,0,0,0,0,0,0,0,0,-0.261799,-2.08483e-05,-1.5,nan,0,0,3,0,0,0,0,0,0,0,0,1.9603e-19
1110,-3.11558e-12,2.47424e-38,-1.52105e-06,-3.18057e-12,2.474e-38,-3.62841e-12,-1.06619e-13,0,0,0,0,0,0,0,0,0,0,0,0,0,0,0,0,0,0,0,0,0,-0.261799,-2.01064e-05,-1.5,nan,0,0,3,0,0,0,0,0,0,0,0,1.9603e-19
1120,-3.11558e-12,2.47424e-38,-1.52105e-06,-3.18057e-12,2.474e-38,0,-1.06619e-13,0,0,0,0,0,0,0,0,0,0,0,0,0,0,0,0,0,0,0,0,0,-0.261799,-1.93118e-05,-1.5,nan,0,0,3,0,0,0,0,0,0,0,0,1.9603e-19
1130,-3.11558e-12,2.47424e-38,-1.52105e-06,-3.18057e-12,2.474e-38,-3.62841e-12,-1.06619e-13,0,0,0,0,0,0,0,0,0,0,0,0,0,0,0,0,0,0,0,0,0,-0.261799,-1.87009e-05,-1.5,nan,0,0,3,0,0,0,0,0,0,0,0,1.9603e-19
1140,-3.11558e-12,2.47424e-38,-1.52105e-06,-3.18057e-12,2.474e-38,0,-1.06619e-13,0,0,0,0,0,0,0,0,0,0,0,0,0,0,0,0,0,0,0,0,0,-0.261799,-1.81094e-05,-1.5,nan,0,0,3,0,0,0,0,0,0,0,0,1.9603e-19
1150,-3.11558e-12,2.47424e-38,-1.52105e-06,-3.18057e-12,2.474e-38,-3.62841e-12,-1.0662e-13,0,0,0,0,0,0,0,0,0,0,0,0,0,0,0,0,0,0,0,0,0,-0.261799,-1.7358e-05,-1.5,nan,0,0,3,0,0,0,0,0,0,0,0,1.9603e-19
1160,-3.11558e-12,2.47424e-38,-1.52105e-06,-3.18057e-12,2.474e-38,0,-1.0662e-13,0,0,0,0,0,0,0,0,0,0,0,0,0,0,0,0,0,0,0,0,0,-0.261799,-1.68087e-05,-1.5,nan,0,0,3,0,0,0,0,0,0,0,0,1.9603e-19
1170,-3.11558e-12,2.47424e-38,-1.52105e-06,-3.18057e-12,2.474e-38,-3.62841e-12,-1.0662e-13,0,0,0,0,0,0,0,0,0,0,0,0,0,0,0,0,0,0,0,0,0,-0.261799,-1.6277e-05,-1.5,nan,0,0,3,0,0,0,0,0,0,0,0,1.9603e-19
1180,-3.11558e-12,2.47424e-38,-1.52105e-06,-3.18057e-12,2.474e-38,0,-1.0662e-13,0,0,0,0,0,0,0,0,0,0,0,0,0,0,0,0,0,0,0,0,0,-0.261799,-1.56343e-05,-1.5,nan,0,0,3,0,0,0,0,0,0,0,0,1.9603e-19
1190,-3.11558e-12,2.47424e-38,-1.52105e-06,-3.18057e-12,2.474e-38,-3.62841e-12,-1.06621e-13,0,0,0,0,0,0,0,0,0,0,0,0,0,0,0,0,0,0,0,0,0,-0.261799,-1.51398e-05,-1.5,nan,0,0,3,0,0,0,0,0,0,0,0,1.9603e-19
1200,-3.11558e-12,2.47424e-38,-1.52105e-06,-3.18057e-12,2.474e-38,0,-1.06621e-13,0,0,0,0,0,0,0,0,0,0,0,0,0,0,0,0,0,0,0,0,0,-0.261799,-1.45419e-05,-1.5,nan,0,0,3,0,0,0,0,0,0,0,0,1.9603e-19
1210,-3.11558e-12,2.47424e-38,-1.52105e-06,-3.18057e-12,2.474e-38,-3.62841e-12,-1.06621e-13,0,0,0,0,0,0,0,0,0,0,0,0,0,0,0,0,0,0,0,0,0,-0.261799,-1.4082e-05,-1.5,nan,0,0,3,0,0,0,0,0,0,0,0,1.9603e-19
1220,-3.11558e-12,2.47424e-38,-1.52105e-06,-3.18057e-12,2.474e-38,0,-1.06622e-13,0,0,0,0,0,0,0,0,0,0,0,0,0,0,0,0,0,0,0,0,0,-0.261799,-1.10864e-05,-1.5,nan,0,0,3,0,0,0,0,0,0,0,0,1.9603e-19
1230,-3.11558e-12,2.47424e-38,-1.52105e-06,-3.18057e-12,2.474e-38,-3.62841e-12,-1.06622e-13,0,0,0,0,0,0,0,0,0,0,0,0,0,0,0,0,0,0,0,0,0,-0.261799,-9.49178e-06,-1.5,nan,0,0,3,0,0,0,0,0,0,0,0,1.9603e-19
1240,-3.11558e-12,2.47424e-38,-1.52105e-06,-3.18057e-12,2.474e-38,0,-1.06622e-13,0,0,0,0,0,0,0,0,0,0,0,0,0,0,0,0,0,0,0,0,0,-0.261799,-9.19156e-06,-1.5,nan,0,0,3,0,0,0,0,0,0,0,0,1.9603e-19
1250,-3.11558e-12,2.47424e-38,-1.52105e-06,-3.18057e-12,2.474e-38,-3.62841e-12,-1.06622e-13,0,0,0,0,0,0,0,0,0,0,0,0,0,0,0,0,0,0,0,0,0,-0.261799,-8.88256e-06,-1.5,nan,0,0,3,0,0,0,0,0,0,0,0,1.9603e-19
1260,-3.11558e-12,2.47424e-38,-1.52105e-06,-3.18057e-12,2.474e-38,0,-1.06623e-13,0,0,0,0,0,0,0,0,0,0,0,0,0,0,0,0,0,0,0,0,0,-0.261799,-8.51436e-06,-1.5,nan,0,0,3,0,0,0,0,0,0,0,0,1.9603e-19
1270,-3.11558e-12,2.47424e-38,-1.52105e-06,-3.18057e-12,2.474e-38,-3.62841e-12,-1.06623e-13,0,0,0,0,0,0,0,0,0,0,0,0,0,0,0,0,0,0,0,0,0,-0.261799,-8.26164e-06,-1.5,nan,0,0,3,0,0,0,0,0,0,0,0,1.9603e-19
1280,-3.11558e-12,2.47424e-38,-1.52105e-06,-3.18057e-12,2.474e-38,0,-1.06623e-13,0,0,0,0,0,0,0,0,0,0,-1.4,0,-1368083648,-1368083648,-1368083648,-1368083648,-1368083608,1010700087,87036815,-1368083608,0,-0.261799,-7.61588e-06,-1.5,nan,0,0,3,0,0,0,0,0,0,0,0,0
1290,-3.11558e-12,2.47424e-38,-1.52105e-06,-3.18057e-12,2.474e-38,-3.62841e-12,-1.06623e-13,0,0,0,0,0,0,0,0,0,0,-1.4,0,-1368083648,-1368083648,-1368083648,-1368083648,-1368083608,1010700087,87036815,-1368083608,0,-0.261799,-7.38995e-06,-1.5,nan,0,0,3,0,0,0,0,0,0,0,0,0
1300,-3.11558e-12,2.47424e-38,-1.52105e-06,-3.18057e-12,2.474e-38,0,-1.06624e-13,0,0,0,0,0,0,0,0,0,0,-1.4,0,-1368083648,-1368083648,-1368083648,-1368083648,-1368083608,1010700087,87036815,-1368083608,0,-0.261799,-7.15606e-06,-1.5,nan,0,0,3,0,0,0,0,0,0,0,0,0
1310,-3.11558e-12,2.47424e-38,-1.52105e-06,-3.18057e-12,2.474e-38,-3.62841e-12,-1.06624e-13,0,0,0,0,0,0,0,0,0,0,-1.4,0,-1368083648,-1368083648,-1368083648,-1368083648,-1368083608,1010700087,87036815,-1368083608,0,-0.261799,-6.92957e-06,-1.5,nan,0,0,3,0,0,0,0,0,0,0,0,0
1320,-3.11558e-12,2.47424e-38,-1.52105e-06,-3.18057e-12,2.474e-38,0,-1.06624e-13,0,0,0,0,0,0,0,0,0,0,-1.4,0,-1368083648,-1368083648,-1368083648,-1368083648,-1368083608,1010700087,87036815,-1368083608,0,-0.261799,-6.66933e-06,-1.5,nan,0,0,3,0,0,0,0,0,0,0,0,0
1330,-3.11558e-12,2.47424e-38,-1.52105e-06,-3.18057e-12,2.474e-38,-3.62841e-12,-1.06625e-13,0,0,0,0,0,0,0,0,0,0,-1.4,0,-1368083648,-1368083648,-1368083648,-1368083648,-1368083608,1010700087,87036815,-1368083608,0,-0.261799,-6.41908e-06,-1.5,nan,0,0,3,0,0,0,0,0,0,0,0,0
1340,-3.11558e-12,2.47424e-38,-1.52105e-06,-3.18057e-12,2.474e-38,0,-1.06625e-13,0,0,0,0,0,0,0,0,0,0,-1.4,0,-1368083648,-1368083648,-1368083648,-1368083648,-1368083608,1010700087,87036815,-1368083608,0,-0.261799,-6.20328e-06,-1.5,nan,0,0,3,0,0,0,0,0,0,0,0,0
1350,-3.11558e-12,2.47424e-38,-1.52105e-06,-3.18057e-12,2.474e-38,-3.62841e-12,-1.06625e-13,0,0,0,0,0,0,0,0,0,0,-1.4,0,-1368083648,-1368083648,-1368083648,-1368083648,-1368083608,1010700087,87036815,-1368083608,0,-0.261799,-6.00695e-06,-1.5,nan,0,0,3,0,0,0,0,0,0,0,0,0
1360,-3.11558e-12,2.47424e-38,-1.52105e-06,-3.18057e-12,2.474e-38,0,-1.06625e-13,0,0,0,0,0,0,0,0,0,0,-1.4,0,-1368083648,-1368083648,-1368083648,-1368083648,-1368083608,1010700087,87036815,-1368083608,0,-0.261799,-5.79335e-06,-1.5,nan,0,0,3,0,0,0,0,0,0,0,0,0
1370,-3.11558e-12,2.47424e-38,-1.52105e-06,-3.18057e-12,2.474e-38,-3.62841e-12,-1.06626e-13,0,0,0,0,0,0,0,0,0,0,-1.4,0,-1368083648,-1368083648,-1368083648,-1368083648,-1368083608,1010700087,87036815,-1368083608,0,-0.261799,-5.56459e-06,-1.5,nan,0,0,3,0,0,0,0,0,0,0,0,0
1380,-3.11558e-12,2.47424e-38,-1.52105e-06,-3.18057e-12,2.474e-38,0,-1.06626e-13,0,0,0,0,0,0,0,0,0,0,-1.4,0,-1368083648,-1368083648,-1368083648,-1368083648,-1368083608,1010700087,87036815,-1368083608,0,-0.261799,-5.35561e-06,-1.5,nan,0,0,3,0,0,0,0,0,0,0,0,0
1390,-3.11558e-12,2.47424e-38,-1.52105e-06,-3.18057e-12,2.474e-38,-3.62841e-12,-1.06626e-13,0,0,0,0,0,0,0,0,0,0,-1.4,0,-1368083648,-1368083648,-1368083648,-1368083648,-1368083608,1010700087,87036815,-1368083608,0,-0.261799,-5.18622e-06,-1.5,nan,0,0,3,0,0,0,0,0,0,0,0,0
1400,-3.11558e-12,2.47424e-38,-1.52105e-06,-3.18057e-12,2.474e-38,0,-1.06626e-13,0,0,0,0,0,0,0,0,0,0,-1.4,0,-1368083648,-1368083648,-1368083648,-1368083648,-1368083608,1010700087,87036815,-1368083608,0,-0.261799,-5.01199e-06,-1.5,nan,0,0,3,0,0,0,0,0,0,0,0,0
1410,-3.11558e-12,2.47424e-38,-1.52105e-06,-3.18057e-12,2.474e-38,-3.62841e-12,-1.06627e-13,0,0,0,0,0,0,0,0,0,0,-1.4,0,-1368083648,-1368083648,-1368083648,-1368083648,-1368083608,1010700087,87036815,-1368083608,0,-0.261799,-4.85346e-06,-1.5,nan,0,0,3,0,0,0,0,0,0,0,0,0
1420,-3.11558e-12,2.47424e-38,-1.52105e-06,-3.18057e-12,2.474e-38,0,-1.06627e-13,0,0,0,0,0,0,0,0,0,0,-1.4,0,-1368083648,-1368083648,-1368083648,-1368083648,-1368083608,1010700087,87036815,-1368083608,0,-0.261799,-4.68088e-06,-1.5,nan,0,0,3,0,0,0,0,0,0,0,0,0
1430,-3.11558e-12,2.47424e-38,-1.52105e-06,-3.18057e-12,2.474e-38,-3.62841e-12,-1.06627e-13,0,0,0,0,0,0,0,0,0,0,-1.4,0,-1368083648,-1368083648,-1368083648,-1368083648,-1368083608,1010700087,87036815,-1368083608,0,-0.261799,-4.53282e-06,-1.5,nan,0,0,3,0,0,0,0,0,0,0,0,0
1440,-3.11558e-12,2.47424e-38,-1.52105e-06,-3.18057e-12,2.474e-38,0,-1.06628e-13,0,0,0,0,0,0,0,0,0,0,-1.4,0,-1368083648,-1368083648,-1368083648,-1368083648,-1368083608,1010700087,87036815,-1368083608,0,-0.261799,-4.30974e-06,-1.5,nan,0,0,3,0,0,0,0,0,0,0,0,0
1450,-3.11558e-12,2.47424e-38,-1.52105e-06,-3.18057e-12,2.474e-38,-3.62841e-12,-1.06628e-13,0,0,0,0,0,0,0,0,0,0,-1.4,0,-1368083648,-1368083648,-1368083648,-1368083648,-1368083608,1010700087,87036815,-1368083608,0,-0.261799,-4.18189e-06,-1.5,nan,0,0,3,0,0,0,0,0,0,0,0,0
1460,-3.11558e-12,2.47424e-38,-1.52105e-06,-3.18057e-12,2.474e-38,0,-1.06628e-13,0,0,0,0,0,0,0,0,0,0,-1.4,0,-1368083648,-1368083648,-1368083648,-1368083648,-1368083608,1010700087,87036815,-1368083608,0,-0.261799,-4.04962e-06,-1.5,nan,0,0,3,0,0,0,0,0,0,0,0,0
1470,-3.11558e-12,2.47424e-38,-1.52105e-06,-3.18057e-12,2.474e-38,-3.62841e-12,-1.06628e-13,0,0,0,0,0,0,0,0,0,0,-1.4,0,-1368083648,-1368083648,-1368083648,-1368083648,-1368083608,1010700087,87036815,-1368083608,0,-0.261799,-3.92942e-06,-1.5,nan,0,0,3,0,0,0,0,0,0,0,0,0
1480,-3.11558e-12,2.47424e-38,-1.52105e-06,-3.18057e-12,2.474e-38,0,-1.06629e-13,0,0,0,0,0,0,0,0,0,0,-1.4,0,-1368083648,-1368083648,-1368083648,-1368083648,-1368083608,1010700087,87036815,-1368083608,0,-0.261799,-3.77426e-06,-1.5,nan,0,0,3,0,0,0,0,0,0,0,0,0
1490,-3.11558e-12,2.47424e-38,-1.52105e-06,-3.18057e-12,2.474e-38,-3.62841e-12,-1.06629e-13,0,0,0,0,0,0,0,0,0,0,-1.4,0,-1368083648,-1368083648,-1368083648,-1368083648,-1368083608,1010700087,87036815,-1368083608,0,-0.261799,-3.65488e-06,-1.5,nan,0,0,3,0,0,0,0,0,0,0,0,0
1500,-3.11558e-12,2.47424e-38,-1.52105e-06,-3.18057e-12,2.474e-38,0,-1.06629e-13,0,0,0,0,0,0,0,0,0,0,-1.4,0,-1368083648,-1368083648,-1368083648,-1368083648,-1368083608,1010700087,87036815,-1368083608,0,-0.261799,-3.51056e-06,-1.5,nan,0,0,3,0,0,0,0,0,0,0,0,0
1510,-3.11558e-12,2.47424e-38,-1.52105e-06,-3.18057e-12,2.474e-38,-3.62841e-12,-1.06629e-13,0,0,0,0,0,0,0,0,0,0,-1.4,0,-1368083648,-1368083648,-1368083648,-1368083648,-1368083608,1010700087,87036815,-1368083608,0,-0.261799,-3.39952e-06,-1.5,nan,0,0,3,0,0,0,0,0,0,0,0,0
1520,-3.11558e-12,2.47424e-38,-1.52105e-06,-3.18057e-12,2.474e-38,0,-1.0663e-13,0,0,0,0,0,0,0,0,0,0,-1.4,0,-1368083648,-1368083648,-1368083648,-1368083648,-1368083608,1010700087,87036815,-1368083608,0,-0.261799,-2.69644e-06,-1.5,nan,0,0,3,0,0,0,0,0,0,0,0,0
1530,-3.11558e-12,2.47424e-38,-1.52105e-06,-3.18057e-12,2.474e-38,-3.62841e-12,-1.0663e-13,0,0,0,0,0,0,0,0,0,0,-1.4,0,-1368083648,-1368083648,-1368083648,-1368083648,-1368083608,1010700087,87036815,-1368083608,0,-0.261799,-2.27675e-06,-1.5,nan,0,0,3,0,0,0,0,0,0,0,0,0
1540,-3.11558e-12,2.47424e-38,-1.52105e-06,-3.18057e-12,2.474e-38,0,-1.0663e-13,0,0,0,0,0,0,0,0,0,0,-1.4,0,-1368083648,-1368083648,-1368083648,-1368083648,-1368083608,1010700087,87036815,-1368083608,0,-0.261799,-2.18676e-06,-1.5,nan,0,0,3,0,0,0,0,0,0,0,0,0
1550,-3.11558e-12,2.47424e-38,-1.52105e-06,-3.18057e-12,2.474e-38,-3.62841e-12,-1.06631e-13,0,0,0,0,0,0,0,0,0,0,-1.4,0,-1368083648,-1368083648,-1368083648,-1368083648,-1368083608,1010700087,87036815,-1368083608,0,-0.261799,-2.1133e-06,-1.5,nan,0,0,3,0,0,0,0,0,0,0,0,0
1560,-3.11558e-12,2.47424e-38,-1.52105e-06,-3.18057e-12,2.474e-38,0,-1.06631e-13,0,0,0,0,0,0,0,0,0,0,-1.4,0,-1368083648,-1368083648,-1368083648,-1368083648,-1368083608,1010700087,87036815,-1368083608,0,-0.261799,-2.04231e-06,-1.5,nan,0,0,3,0,0,0,0,0,0,0,0,0
1570,-3.11558e-12,2.47424e-38,-1.52105e-06,-3.18057e-12,2.474e-38,-3.62841e-12,-1.06631e-13,0,0,0,0,0,0,0,0,0,0,-1.4,0,-1368083648,-1368083648,-1368083648,-1368083648,-1368083608,1010700087,87036815,-1368083608,0,-0.261799,-1.98169e-06,-1.5,nan,0,0,3,0,0,0,0,0,0,0,0,0
1580,-3.11558e-12,2.47424e-38,-1.52105e-06,-3.18057e-12,2.474e-38,0,-1.06631e-13,0,0,0,0,0,0,0,0,0,0,-1.4,0,-1368083648,-1368083648,-1368083648,-1368083648,-1368083608,1010700087,87036815,-1368083608,0,-0.261799,-1.91117e-06,-1.5,nan,0,0,3,0,0,0,0,0,0,0,0,0
1590,-3.11558e-12,2.47424e-38,-1.52105e-06,-3.18057e-12,2.474e-38,-3.62841e-12,-1.06632e-13,0,0,0,0,0,0,0,0,0,0,-1.4,0,-1368083648,-1368083648,-1368083648,-1368083648,-1368083608,1010700087,87036815,-1368083608,0,-0.261799,-1.84696e-06,-1.5,nan,0,0,3,0,0,0,0,0,0,0,0,0
1600,-3.11558e-12,2.47424e-38,-1.52105e-06,-3.18057e-12,2.474e-38,0,-1.06632e-13,0,0,0,0,0,0,0,0,0,0,-1.4,0,-1368083648,-1368083648,-1368083648,-1368083648,-1368083608,1010700087,87036815,-1368083608,0,-0.261799,-1.77403e-06,-1.5,nan,0,0,3,0,0,0,0,0,0,0,0,0
1610,-3.11558e-12,2.47424e-38,-1.52105e-06,-3.18057e-12,2.474e-38,-3.62841e-12,-1.06632e-13,0,0,0,0,0,0,0,0,0,0,-1.4,0,-1368083648,-1368083648,-1368083648,-1368083648,-1368083608,1010700087,87036815,-1368083608,0,-0.261799,-1.7214e-06,-1.5,nan,0,0,3,0,0,0,0,0,0,0,0,0
1620,-3.11558e-12,2.47424e-38,-1.52105e-06,-3.18057e-12,2.474e-38,0,-1.06632e-13,0,0,0,0,0,0,0,0,0,0,-1.4,0,-1368083648,-1368083648,-1368083648,-1368083648,-1368083608,1010700087,87036815,-1368083608,0,-0.261799,-1.66696e-06,-1.5,nan,0,0,3,0,0,0,0,0,0,0,0,0
1630,-3.11558e-12,2.47424e-38,-1.52105e-06,-3.18057e-12,2.474e-38,-3.62841e-12,-1.06633e-13,0,0,0,0,0,0,0,0,0,0,-1.4,0,-1368083648,-1368083648,-1368083648,-1368083648,-1368083608,1010700087,87036815,-1368083608,0,-0.261799,-1.60768e-06,-1.5,nan,0,0,3,0,0,0,0,0,0,0,0,0
1640,-3.11558e-12,2.47424e-38,-1.52105e-06,-3.18057e-12,2.474e-38,0,-1.06633e-13,0,0,0,0,0,0,0,0,0,0,-1.4,0,-1368083648,-1368083648,-1368083648,-1368083648,-1368083608,1010700087,87036815,-1368083608,0,-0.261799,-1.55683e-06,-1.5,nan,0,0,3,0,0,0,0,0,0,0,0,0
1650,-3.11558e-12,2.47424e-38,-1.52105e-06,-3.18057e-12,2.474e-38,-3.62841e-12,-1.06633e-13,0,0,-8.00652,-0.217377,0.488281,0,0,0,0,0,-0.602606,-0.217377,150,11,150,11,195,11,150,62,0,-0.261799,-1.49536e-06,-1.5,nan,0,0,3,0,0,0,0,0,0,0,0,2295
1660,-3.11558e-12,2.47424e-38,-1.52105e-06,-3.18057e-12,2.474e-38,0,-1.06634e-13,0,0,-8.00652,-0.217377,0.488281,0,0,0,0,0,-0.602606,-0.217377,150,11,150,11,195,11,150,62,0,-0.261799,-1.44512e-06,-1.5,nan,0,0,3,0,0,0,0,0,0,0,0,2295
1670,-3.11558e-12,2.47424e-38,-1.52105e-06,-3.18057e-12,2.474e-38,-3.62841e-12,-1.06634e-13,0,0,-8.00652,-0.217377,0.488281,0,0,0,0,0,-0.602606,-0.217377,150,11,150,11,195,11,150,62,0,-0.261799,-1.39938e-06,-1.5,nan,0,0,3,0,0,0,0,0,0,0,0,2295
1680,-3.11558e-12,2.47424e-38,-1.52105e-06,-3.18057e-12,2.474e-38,0,-1.06634e-13,0,0,-8.00652,-0.217377,0.488281,0,0,0,0,0,-0.602606,-0.217377,150,11,150,11,195,11,150,62,0,-0.261799,-1.35234e-06,-1.5,nan,0,0,3,0,0,0,0,0,0,0,0,2295
1690,-3.11558e-12,2.47424e-38,-1.52105e-06,-3.18057e-12,2.474e-38,-3.62841e-12,-1.06634e-13,0,0,-8.00652,-0.217377,0.488281,0,0,0,0,0,-0.602606,-0.217377,150,11,150,11,195,11,150,62,0,-0.261799,-1.30956e-06,-1.5,nan,0,0,3,0,0,0,0,0,0,0,0,2295
1700,-3.11558e-12,2.47424e-38,-1.52105e-06,-3.18057e-12,2.474e-38,0,-1.06635e-13,0,0,-8.00652,-0.217377,0.488281,0,0,0,0,0,-0.602606,-0.217377,150,11,150,11,195,11,150,62,0,-0.261799,-1.26038e-06,-1.5,nan,0,0,3,0,0,0,0,0,0,0,0,2295
1710,-3.11558e-12,2.47424e-38,-1.52105e-06,-3.18057e-12,2.474e-38,-3.62841e-12,-1.06635e-13,0,0,-8.00652,-0.217377,0.488281,0,0,0,0,0,-0.602606,-0.217377,150,11,150,11,195,11,150,62,0,-0.261799,-1.21305e-06,-1.5,nan,0,0,3,0,0,0,0,0,0,0,0,2295
1720,-3.11558e-12,2.47424e-38,-1.52105e-06,-3.18057e-12,2.474e-38,0,-1.06635e-13,0,0,-8.00652,-0.217377,0.488281,0,0,0,0,0,-0.602606,-0.217377,150,11,150,11,195,11,150,62,0,-0.261799,-1.16511e-06,-1.5,nan,0,0,3,0,0,0,0,0,0,0,0,2295
1730,-3.11558e-12,2.47424e-38,-1.52105e-06,-3.18057e-12,2.474e-38,-3.62841e-12,-1.06635e-13,0,0,-8.00652,-0.217377,0.488281,0,0,0,0,0,-0.602606,-0.217377,150,11,150,11,195,11,150,62,0,-0.261799,-1.12826e-06,-1.5,nan,0,0,3,0,0,0,0,0,0,0,0,2295
1740,-3.11558e-12,2.47424e-38,-1.52105e-06,-3.18057e-12,2.474e-38,0,-1.06636e-13,0,0,-8.00652,-0.217377,0.488281,0,0,0,0,0,-0.602606,-0.217377,150,11,150,11,195,11,150,62,0,-0.261799,-1.0837e-06,-1.5,nan,0,0,3,0,0,0,0,0,0,0,0,2295
1750,-3.11558e-12,2.47424e-38,-1.52105e-06,-3.18057e-12,2.474e-38,-3.62841e-12,-1.06636e-13,0,0,-8.00652,-0.217377,0.488281,0,0,0,0,0,-0.602606,-0.217377,150,11,150,11,195,11,150,62,0,-0.261799,-1.04943e-06,-1.5,nan,0,0,3,0,0,0,0,0,0,0,0,2295
1760,-3.11558e-12,2.47424e-38,-1.52105e-06,-3.18057e-12,2.474e-38,0,-1.06636e-13,0,0,-8.00652,-0.217377,0.488281,0,0,0,0,0,-0.602606,-0.217377,150,11,150,11,195,11,150,62,0,-0.261799,-1.01211e-06,-1.5,nan,0,0,3,0,0,0,0,0,0,0,0,2295
1770,-3.11558e-12,2.47424e-38,-1.52105e-06,-3.18057e-12,2.474e-38,-3.62841e-12,-1.06636e-13,0,0,-8.00652,-0.217377,0.488281,0,0,0,0,0,-0.602606,-0.217377,150,11,150,11,195,11,150,62,0,-0.261799,-9.86053e-07,-1.5,nan,0,0,3,0,0,0,0,0,0,0,0,2295
1780,-3.11558e-12,2.47424e-38,-1.52105e-06,-3.18057e-12,2.474e-38,0,-1.06637e-13,0,0,-8.00652,-0.217377,0.488281,0,0,0,0,0,-0.602606,-0.217377,150,11,150,11,195,11,150,62,0,-0.261799,-9.4518e-07,-1.5,nan,0,0,3,0,0,0,0,0,0,0,0,2295
1790,-3.11558e-12,2.47424e-38,-1.52105e-06,-3.18057e-12,2.474e-38,-3.62841e-12,-1.06637e-13,0,0,-8.00652,-0.217377,0.488281,0,0,0,0,0,-0.602606,-0.217377,150,11,150,11,195,11,150,62,0,-0.261799,-9.15284e-07,-1.5,nan,0,0,3,0,0,0,0,0,0,0,0,2295
1800,-3.11558e-12,2.47424e-38,-1.52105e-06,-3.18057e-12,2.474e-38,0,-1.06637e-13,0,0,-8.00652,-0.217377,0.488281,0,0,0,0,0,-0.602606,-0.217377,150,11,150,11,195,11,150,62,0,-0.261799,-8.84536e-07,-1.5,nan,0,0,3,0,0,0,0,0,0,0,0,2295
1810,-3.11558e-12,2.47424e-38,-1.52105e-06,-3.18057e-12,2.474e-38,-3.62841e-12,-1.06638e-13,0,0,-7.05232,-0.201465,0.234278,0,0,0,0,0,-0.220928,-0.201465,145,10,145,10,201,10,145,63,0,-0.261799,-8.58281e-07,-1.5,nan,0,0,3,0,0,0,0,0,0,0,0,2968
1820,-3.11558e-12,2.47424e-38,-1.52105e-06,-3.18057e-12,2.474e-38,0,-1.06638e-13,0,0,-7.05232,-0.201465,0.234278,0,0,0,0,0,-0.220928,-0.201465,145,10,145,10,201,10,145,63,0,-0.261799,-6.79083e-07,-1.5,nan,0,0,3,0,0,0,0,0,0,0,0,2968
1830,-3.11558e-12,2.47424e-38,-1.52105e-06,-3.18057e-12,2.474e-38,-3.62841e-12,-1.06638e-13,0,0,-7.05232,-0.201465,0.234278,0,0,0,0,0,-0.220928,-0.201465,145,10,145,10,201,10,145,63,0,-0.261799,-5.86752e-07,-1.5,nan,0,0,3,0,0,0,0,0,0,0,0,2968
1840,-3.11558e-12,2.47424e-38,-1.52105e-06,-3.18057e-12,2.474e-38,0,-1.06638e-13,0,0,-7.05232,-0.201465,0.234278,0,0,0,0,0,-0.220928,-0.201465,145,10,145,10,201,10,145,63,0,-0.261799,-5.68193e-07,-1.5,nan,0,0,3,0,0,0,0,0,0,0,0,2968
1850,-3.11558e-12,2.47424e-38,-1.52105e-06,-3.18057e-12,2.474e-38,-3.62841e-12,-1.06639e-13,0,0,-7.05232,-0.201465,0.234278,0,0,0,0,0,-0.220928,-0.201465,145,10,145,10,201,10,145,63,0,-0.261799,-5.46873e-07,-1.5,nan,0,0,3,0,0,0,0,0,0,0,0,2968
1860,-3.11558e-12,2.47424e-38,-1.52105e-06,-3.18057e-12,2.474e-38,0,-1.06639e-13,0,0,-7.05232,-0.201465,0.234278,0,0,0,0,0,-0.220928,-0.201465,145,10,145,10,201,10,145,63,0,-0.261799,-5.29576e-07,-1.5,nan,0,0,3,0,0,0,0,0,0,0,0,2968
1870,-3.11558e-12,2.47424e-38,-1.52105e-06,-3.18057e-12,2.474e-38,-3.62841e-12,-1.06639e-13,0,0,-7.05232,-0.201465,0.234278,0,0,0,0,0,-0.220928,-0.201465,145,10,145,10,201,10,145,63,0,-0.261799,-5.10745e-07,-1.5,nan,0,0,3,0,0,0,0,0,0,0,0,2968
1880,-3.11558e-12,2.47424e-38,-1.52105e-06,-3.18057e-12,2.474e-38,0,-1.06639e-13,0,0,-7.05232,-0.201465,0.234278,0,0,0,0,0,-0.220928,-0.201465,145,10,145,10,201,10,145,63,0,-0.261799,-4.9459e-07,-1.5,nan,0,0,3,0,0,0,0,0,0,0,0,2968
1890,-3.11558e-12,2.47424e-38,-1.52105e-06,-3.18057e-12,2.474e-38,-3.62841e-12,-1.0664e-13,0,0,-7.05232,-0.201465,0.234278,0,0,0,0,0,-0.220928,-0.201465,145,10,145,10,201,10,145,63,0,-0.261799,-4.73117e-07,-1.5,nan,0,0,3,0,0,0,0,0,0,0,0,2968
1900,-3.11558e-12,2.47424e-38,-1.52105e-06,-3.18057e-12,2.474e-38,0,-1.0664e-13,0,0,-7.05232,-0.201465,0.234278,0,0,0,0,0,-0.220928,-0.201465,145,10,145,10,201,10,145,63,0,-0.261799,-4.58152e-07,-1.5,nan,0,0,3,0,0,0,0,0,0,0,0,2968
1910,-3.11558e-12,2.47424e-38,-1.52105e-06,-3.18057e-12,2.474e-38,-3.62841e-12,-1.0664e-13,0,0,-7.90745,-1.53579,-1.6839,0,0,0,0,0,-0.562978,-1.53579,205,109,205,109,257,109,205,154,0,-0.261799,-4.43652e-07,-1.5,nan,0,0,3,0,0,0,0,0,0,0,0,2340
1920,-3.11558e-12,2.47424e-38,-1.52105e-06,-3.18057e-12,2.474e-38,0,-1.06641e-13,0,0,-7.90745,-1.53579,-1.6839,0,0,0,0,0,-0.562978,-1.53579,205,109,205,109,257,109,205,154,0,-0.261799,-4.2961e-07,-1.5,nan,0,0,3,0,0,0,0,0,0,0,0,2340
1930,-3.11558e-12,2.47424e-38,-1.52105e-06,-3.18057e-12,2.474e-38,-3.62841e-12,-1.06641e-13,0,0,-7.90745,-1.53579,-1.6839,0,0,0,0,0,-0.562978,-1.53579,205,109,205,109,257,109,205,154,0,-0.261799,-4.10959e-07,-1.5,nan,0,0,3,0,0,0,0,0,0,0,0,2340
1940,-3.11558e-12,2.47424e-38,-1.52105e-06,-3.18057e-12,2.474e-38,0,-1.06641e-13,0,0,-7.90745,-1.53579,-1.6839,0,0,0,0,0,-0.562978,-1.53579,205,109,205,109,257,109,205,154,0,-0.261799,-3.99574e-07,-1.5,nan,0,0,3,0,0,0,0,0,0,0,0,2340
1950,-3.11558e-12,2.47424e-38,-1.52105e-06,-3.18057e-12,2.474e-38,-3.62841e-12,-1.06641e-13,0,0,-7.90745,-1.53579,-1.6839,0,0,0,0,0,-0.562978,-1.53579,205,109,205,109,257,109,205,154,0,-0.261799,-3.89287e-07,-1.5,nan,0,0,3,0,0,0,0,0,0,0,0,2340
1960,-3.11558e-12,2.47424e-38,-1.52105e-06,-3.18057e-12,2.474e-38,0,-1.06642e-13,0,0,-7.90745,-1.53579,-1.6839,0,0,0,0,0,-0.562978,-1.53579,205,109,205,109,257,109,205,154,0,-0.261799,-3.75445e-07,-1.5,nan,0,0,3,0,0,0,0,0,0,0,0,2340
1970,-3.11558e-12,2.47424e-38,-1.52105e-06,-3.18057e-12,2.474e-38,-3.62841e-12,-1.06642e-13,0,0,-7.90745,-1.53579,-1.6839,0,0,0,0,0,-0.562978,-1.53579,205,109,205,109,257,109,205,154,0,-0.261799,-3.63569e-07,-1.5,nan,0,0,3,0,0,0,0,0,0,0,0,2340
1980,-3.11558e-12,2.47424e-38,-1.52105e-06,-3.18057e-12,2.474e-38,0,-1.06642e-13,0,0,-7.90745,-1.53579,-1.6839,0,0,0,0,0,-0.562978,-1.53579,205,109,205,109,257,109,205,154,0,-0.261799,-3.51347e-07,-1.5,nan,0,0,3,0,0,0,0,0,0,0,0,2340
1990,-3.11558e-12,2.47424e-38,-1.52105e-06,-3.18057e-12,2.474e-38,-3.62841e-12,-1.06642e-13,0,0,-7.90745,-1.53579,-1.6839,0,0,0,0,0,-0.562978,-1.53579,205,109,205,109,257,109,205,154,0,-0.261799,-3.40234e-07,-1.5,nan,0,0,3,0,0,0,0,0,0,0,0,2340
2000,-3.11558e-12,2.47424e-38,-1.52105e-06,-3.18057e-12,2.474e-38,0,-1.06643e-13,0,0,-7.90745,-1.53579,-1.6839,0,0,0,0,0,-0.562978,-1.53579,205,109,205,109,257,109,205,154,0,-0.261799,-3.28136e-07,-1.5,nan,0,0,3,0,0,0,0,0,0,0,0,2340
2010,-3.11558e-12,2.47424e-38,-1.52105e-06,-3.18057e-12,2.474e-38,-3.62841e-12,-1.06643e-13,0,0,-7.90745,-1.53579,-1.6839,0,0,0,0,0,-0.562978,-1.53579,205,109,205,109,257,109,205,154,0,-0.261799,-3.17757e-07,-1.5,nan,0,0,3,0,0,0,0,0,0,0,0,2340
2020,-3.11558e-12,2.47424e-38,-1.52105e-06,-3.18057e-12,2.474e-38,0,-1.06643e-13,0,0,-7.90745,-1.53579,-1.6839,0,0,0,0,0,-0.562978,-1.53579,205,109,205,109,257,109,205,154,0,-0.261799,-3.05198e-07,-1.5,nan,0,0,3,0,0,0,0,0,0,0,0,2340
2030,-3.11558e-12,2.47424e-38,-1.52105e-06,-3.18057e-12,2.474e-38,-3.62841e-12,-1.06644e-13,0,0,-7.90745,-1.53579,-1.6839,0,0,0,0,0,-0.562978,-1.53579,205,109,205,109,257,109,205,154,0,-0.261799,-2.95545e-07,-1.5,nan,0,0,3,0,0,0,0,0,0,0,0,2340
2040,-3.11558e-12,2.47424e-38,-1.52105e-06,-3.18057e-12,2.474e-38,0,-1.06644e-13,0,0,-7.90745,-1.53579,-1.6839,0,0,0,0,0,-0.562978,-1.53579,205,109,205,109,257,109,205,154,0,-0.261799,-2.85616e-07,-1.5,nan,0,0,3,0,0,0,0,0,0,0,0,2340
2050,-3.11558e-12,2.47424e-38,-1.52105e-06,-3.18057e-12,2.474e-38,-3.62841e-12,-1.06644e-13,0,0,-7.90745,-1.53579,-1.6839,0,0,0,0,0,-0.562978,-1.53579,205,109,205,109,257,109,205,154,0,-0.261799,-2.76582e-07,-1.5,nan,0,0,3,0,0,0,0,0,0,0,0,2340
2060,-3.11558e-12,2.47424e-38,-1.52105e-06,-3.18057e-12,2.474e-38,0,-1.06644e-13,0,0,-7.90745,-1.53579,-1.6839,0,0,0,0,0,-0.562978,-1.53579,205,109,205,109,257,109,205,154,0,-0.261799,-2.66747e-07,-1.5,nan,0,0,3,0,0,0,0,0,0,0,0,2340
2070,-3.11558e-12,2.47424e-38,-1.52105e-06,-3.18057e-12,2.474e-38,-3.62841e-12,-1.06645e-13,0,0,-7.90745,-1.53579,-1.6839,0,0,0,0,0,-0.562978,-1.53579,205,109,205,109,257,109,205,154,0,-0.261799,-2.5883e-07,-1.5,nan,0,0,3,0,0,0,0,0,0,0,0,2340
2080,-3.11558e-12,2.47424e-38,-1.52105e-06,-3.18057e-12,2.474e-38,0,-1.06645e-13,0,0,-7.90745,-1.53579,-1.6839,0,0,0,0,0,-0.562978,-1.53579,205,109,205,109,257,109,205,154,0,-0.261799,-2.47593e-07,-1.5,nan,0,0,3,0,0,0,0,0,0,0,0,2340
2090,-3.11558e-12,2.47424e-38,-1.52105e-06,-3.18057e-12,2.474e-38,-3.62841e-12,-1.06645e-13,0,0,-7.90745,-1.53579,-1.6839,0,0,0,0,0,-0.562978,-1.53579,205,109,205,109,257,109,205,154,0,-0.261799,-2.39761e-07,-1.5,nan,0,0,3,0,0,0,0,0,0,0,0,2340
2100,-3.11558e-12,2.47424e-38,-1.52105e-06,-3.18057e-12,2.474e-38,0,-1.06645e-13,0,0,-7.90745,-1.53579,-1.6839,0,0,0,0,0,-0.562978,-1.53579,205,109,205,109,257,109,205,154,0,-0.261799,-2.32177e-07,-1.5,nan,0,0,3,0,0,0,0,0,0,0,0,2340
2110,-3.11558e-12,2.47424e-38,-1.52105e-06,-3.18057e-12,2.474e-38,-3.62841e-12,-1.06646e-13,0,0,-7.90745,-1.53579,-1.6839,0,0,0,0,0,-0.562978,-1.53579,205,109,205,109,257,109,205,154,0,-0.261799,-2.24378e-07,-1.5,nan,0,0,3,0,0,0,0,0,0,0,0,2340
2120,-3.11558e-12,2.47424e-38,-1.52105e-06,-3.18057e-12,2.474e-38,0,-1.06646e-13,0,0,-7.90745,-1.53579,-1.6839,0,0,0,0,0,-0.562978,-1.53579,205,109,205,109,257,109,205,154,0,-0.261799,-2.17721e-07,-1.5,nan,0,0,3,0,0,0,0,0,0,0,0,2340
2130,-3.11558e-12,2.47424e-38,-1.52105e-06,-3.18057e-12,2.474e-38,-3.62841e-12,-1.06646e-13,0,0,-7.90745,-1.53579,-1.6839,0,0,0,0,0,-0.562978,-1.53579,205,109,205,109,257,109,205,154,0,-0.261799,-2.09545e-07,-1.5,nan,0,0,3,0,0,0,0,0,0,0,0,2340
2140,-3.11558e-12,2.47424e-38,-1.52105e-06,-3.18057e-12,2.474e-38,0,-1.06647e-13,0,0,-7.90745,-1.53579,-1.6839,0,0,0,0,0,-0.562978,-1.53579,205,109,205,109,257,109,205,154,0,-0.261799,-2.02913e-07,-1.5,nan,0,0,3,0,0,0,0,0,0,0,0,2340
2150,-3.11558e-12,2.47424e-38,-1.52105e-06,-3.18057e-12,2.474e-38,-3.62841e-12,-1.06647e-13,0,0,-7.90745,-1.53579,-1.6839,0,0,0,0,0,-0.562978,-1.53579,205,109,205,109,257,109,205,154,0,-0.261799,-1.96495e-07,-1.5,nan,0,0,3,0,0,0,0,0,0,0,0,2340
2160,-3.11558e-12,2.47424e-38,-1.52105e-06,-3.18057e-12,2.474e-38,0,-1.06647e-13,0,0,-7.90745,-1.53579,-1.6839,0,0,0,0,0,-0.562978,-1.53579,205,109,205,109,257,109,205,154,0,-0.261799,-1.89508e-07,-1.5,nan,0,0,3,0,0,0,0,0,0,0,0,2340
2170,-3.11558e-12,2.47424e-38,-1.52105e-06,-3.18057e-12,2.474e-38,-3.62841e-12,-1.06647e-13,0,0,-7.90745,-1.53579,-1.6839,0,0,0,0,0,-0.562978,-1.53579,205,109,205,109,257,109,205,154,0,-0.261799,-1.8351e-07,-1.5,nan,0,0,3,0,0,0,0,0,0,0,0,2340
2180,-3.11558e-12,2.47424e-38,-1.52105e-06,-3.18057e-12,2.474e-38,0,-1.06648e-13,0,0,-7.90745,-1.53579,-1.6839,0,0,0,0,0,-0.562978,-1.53579,205,109,205,109,257,109,205,154,0,-0.261799,-1.77702e-07,-1.5,nan,0,0,3,0,0,0,0,0,0,0,0,2340
2190,-3.11558e-12,2.47424e-38,-1.52105e-06,-3.18057e-12,2.474e-38,-3.62841e-12,-1.06648e-13,0,0,-7.90745,-1.53579,-1.6839,0,0,0,0,0,-0.562978,-1.53579,205,109,205,109,257,109,205,154,0,-0.261799,-1.72081e-07,-1.5,nan,0,0,3,0,0,0,0,0,0,0,0,2340
2200,-3.11558e-12,2.47424e-38,-1.52105e-06,-3.18057e-12,2.474e-38,0,-1.06648e-13,0,0,-7.90745,-1.53579,-1.6839,0,0,0,0,0,-0.562978,-1.53579,205,109,205,109,257,109,205,154,0,-0.261799,-1.65962e-07,-1.5,nan,0,0,3,0,0,0,0,0,0,0,0,2340
2210,-3.11558e-12,2.47424e-38,-1.52105e-06,-3.18057e-12,2.474e-38,-3.62841e-12,-1.06648e-13,0,0,-7.90745,-1.53579,-1.6839,0,0,0,0,0,-0.562978,-1.53579,205,109,205,109,257,109,205,154,0,-0.261799,-1.60713e-07,-1.5,nan,0,0,3,0,0,0,0,0,0,0,0,2340
2220,-3.11558e-12,2.47424e-38,-1.52105e-06,-3.18057e-12,2.474e-38,0,-1.06649e-13,0,0,-7.90745,-1.53579,-1.6839,0,0,0,0,0,-0.562978,-1.53579,205,109,205,109,257,109,205,154,0,-0.261799,-1.55629e-07,-1.5,nan,0,0,3,0,0,0,0,0,0,0,0,2340
2230,-3.11558e-12,2.47424e-38,-1.52105e-06,-3.18057e-12,2.474e-38,-3.62841e-12,-1.06649e-13,0,0,-7.90745,-1.53579,-1.6839,0,0,0,0,0,-0.562978,-1.53579,205,109,205,109,257,109,205,154,0,-0.261799,-1.5101e-07,-1.5,nan,0,0,3,0,0,0,0,0,0,0,0,2340
2240,-3.11558e-12,2.47424e-38,-1.52105e-06,-3.18057e-12,2.474e-38,0,-1.06649e-13,0,0,-7.90745,-1.53579,-1.6839,0,0,0,0,0,-0.562978,-1.53579,205,109,205,109,257,109,205,154,0,-0.261799,-1.45636e-07,-1.5,nan,0,0,3,0,0,0,0,0,0,0,0,2340
2250,-3.11558e-12,2.47424e-38,-1.52105e-06,-3.18057e-12,2.474e-38,-3.62841e-12,-1.06649e-13,0,0,-7.90745,-1.53579,-1.6839,0,0,0,0,0,-0.562978,-1.53579,205,109,205,109,257,109,205,154,0,-0.261799,-1.41027e-07,-1.5,nan,0,0,3,0,0,0,0,0,0,0,0,2340
2260,-3.11558e-12,2.47424e-38,-1.52105e-06,-3.18057e-12,2.474e-38,0,-1.0665e-13,0,0,-7.90745,-1.53579,-1.6839,0,0,0,0,0,-0.562978,-1.53579,205,109,205,109,257,109,205,154,0,-0.261799,-1.36563e-07,-1.5,nan,0,0,3,0,0,0,0,0,0,0,0,2340
2270,-3.11558e-12,2.47424e-38,-1.52105e-06,-3.18057e-12,2.474e-38,-3.62841e-12,-1.0665e-13,0,0,-7.24108,-0.155226,0.26292,0,0,0,0,0,-0.296431,-0.155226,146,9,146,9,195,9,146,66,0,-0.261799,-1.32244e-07,-1.5,nan,0,0,3,0,0,0,0,0,0,0,0,2793
2280,-3.11558e-12,2.47424e-38,-1.52105e-06,-3.18057e-12,2.474e-38,0,-1.0665e-13,0,0,-7.24108,-0.155226,0.26292,0,0,0,0,0,-0.296431,-0.155226,146,9,146,9,195,9,146,66,0,-0.261799,-1.27541e-07,-1.5,nan,0,0,3,0,0,0,0,0,0,0,0,2793
2290,-3.11558e-12,2.47424e-38,-1.52105e-06,-3.18057e-12,2.474e-38,-3.62841e-12,-1.06651e-13,0,0,-7.24108,-0.155226,0.26292,0,0,0,0,0,-0.296431,-0.155226,146,9,146,9,195,9,146,66,0,-0.261799,-1.24008e-07,-1.5,nan,0,0,3,0,0,0,0,0,0,0,0,2793
2300,-3.11558e-12,2.47424e-38,-1.52105e-06,-3.18057e-12,2.474e-38,0,-1.06651e-13,0,0,-7.24108,-0.155226,0.26292,0,0,0,0,0,-0.296431,-0.155226,146,9,146,9,195,9,146,66,0,-0.261799,-1.20816e-07,-1.5,nan,0,0,3,0,0,0,0,0,0,0,0,2793
2310,-3.11558e-12,2.47424e-38,-1.52105e-06,-3.18057e-12,2.474e-38,-3.62841e-12,-1.06651e-13,0,0,-7.24108,-0.155226,0.26292,0,0,0,0,0,-0.296431,-0.155226,146,9,146,9,195,9,146,66,0,-0.261799,-1.16992e-07,-1.5,nan,0,0,3,0,0,0,0,0,0,0,0,2793
2320,-3.11558e-12,2.47424e-38,-1.52105e-06,-3.18057e-12,2.474e-38,0,-1.06651e-13,0,0,-7.24108,-0.155226,0.26292,0,0,0,0,0,-0.296431,-0.155226,146,9,146,9,195,9,146,66,0,-0.261799,-1.12837e-07,-1.5,nan,0,0,3,0,0,0,0,0,0,0,0,2793
2330,-3.11558e-12,2.47424e-38,-1.52105e-06,-3.18057e-12,2.474e-38,-3.62841e-12,-1.06652e-13,0,0,-7.24108,-0.155226,0.26292,0,0,0,0,0,-0.296431,-0.155226,146,9,146,9,195,9,146,66,0,-0.261799,-1.08824e-07,-1.5,nan,0,0,3,0,0,0,0,0,0,0,0,2793
2340,-3.11558e-12,2.47424e-38,-1.52105e-06,-3.18057e-12,2.474e-38,0,-1.06652e-13,0,0,-7.24108,-0.155226,0.26292,0,0,0,0,0,-0.296431,-0.155226,146,9,146,9,195,9,146,66,0,-0.261799,-1.05594e-07,-1.5,nan,0,0,3,0,0,0,0,0,0,0,0,2793
2350,-3.11558e-12,2.47424e-38,-1.52105e-06,-3.18057e-12,2.474e-38,-3.62841e-12,-1.06652e-13,0,0,-7.24108,-0.155226,0.26292,0,0,0,0,0,-0.296431,-0.155226,146,9,146,9,195,9,146,66,0,-0.261799,-1.02252e-07,-1.5,nan,0,0,3,0,0,0,0,0,0,0,0,2793
2360,-3.11558e-12,2.47424e-38,-1.52105e-06,-3.18057e-12,2.474e-38,0,-1.06652e-13,0,0,-7.24108,-0.155226,0.26292,0,0,0,0,0,-0.296431,-0.155226,146,9,146,9,195,9,146,66,0,-0.261799,-9.90159e-08,-1.5,nan,0,0,3,0,0,0,0,0,0,0,0,2793
2370,-3.11558e-12,2.47424e-38,-1.52105e-06,-3.18057e-12,2.474e-38,-3.62841e-12,-1.06653e-13,0,0,-7.24108,-0.155226,0.26292,0,0,0,0,0,-0.296431,-0.155226,146,9,146,9,195,9,146,66,0,-0.261799,-9.56895e-08,-1.5,nan,0,0,3,0,0,0,0,0,0,0,0,2793
2380,-3.11558e-12,2.47424e-38,-1.52105e-06,-3.18057e-12,2.474e-38,0,-1.06653e-13,0,0,-7.24108,-0.155226,0.26292,0,0,0,0,0,-0.296431,-0.155226,146,9,146,9,195,9,146,66,0,-0.261799,-9.26628e-08,-1.5,nan,0,0,3,0,0,0,0,0,0,0,0,2793
2390,-3.11558e-12,2.47424e-38,-1.52105e-06,-3.18057e-12,2.474e-38,-3.62841e-12,-1.06653e-13,0,0,-7.24108,-0.155226,0.26292,0,0,0,0,0,-0.296431,-0.155226,146,9,146,9,195,9,146,66,0,-0.261799,-8.99125e-08,-1.5,nan,0,0,3,0,0,0,0,0,0,0,0,2793
2400,-3.11558e-12,2.47424e-38,-1.52105e-06,-3.18057e-12,2.474e-38,0,-1.06654e-13,0,0,-7.24108,-0.155226,0.26292,0,0,0,0,0,-0.296431,-0.155226,146,9,146,9,195,9,146,66,0,-0.261799,-8.70667e-08,-1.5,nan,0,0,3,0,0,0,0,0,0,0,0,2793
2410,-3.11558e-12,2.47424e-38,-1.52105e-06,-3.18057e-12,2.474e-38,-3.62841e-12,-1.06654e-13,0,0,-7.24108,-0.155226,0.26292,0,0,0,0,0,-0.296431,-0.155226,146,9,146,9,195,9,146,66,0,-0.261799,-8.39684e-08,-1.5,nan,0,0,3,0,0,0,0,0,0,0,0,2793
2420,-3.11558e-12,2.47424e-38,-1.52105e-06,-3.18057e-12,2.474e-38,0,-1.06654e-13,0,0,-7.24108,-0.155226,0.26292,0,0,0,0,0,-0.296431,-0.155226,146,9,146,9,195,9,146,66,0,-0.261799,-8.13108e-08,-1.5,nan,0,0,3,0,0,0,0,0,0,0,0,2793
2430,-3.11558e-12,2.47424e-38,-1.52105e-06,-3.18057e-12,2.474e-38,-3.62841e-12,-1.06654e-13,0,0,-7.26619,-0.145338,0.280529,0,0,0,0,0,-0.306475,-0.145338,144,10,144,10,196,10,144,64,0,-0.261799,-7.87373e-08,-1.5,nan,0,0,3,0,0,0,0,0,0,0,0,2808
2440,-3.11558e-12,2.47424e-38,-1.52105e-06,-3.18057e-12,2.474e-38,0,-1.06655e-13,0,0,-7.26619,-0.145338,0.280529,0,0,0,0,0,-0.306475,-0.145338,144,10,144,10,196,10,144,64,0,-0.261799,-7.62468e-08,-1.5,nan,0,0,3,0,0,0,0,0,0,0,0,2808
2450,-3.11558e-12,2.47424e-38,-1.52105e-06,-3.18057e-12,2.474e-38,-3.62841e-12,-1.06655e-13,0,0,-7.26619,-0.145338,0.280529,0,0,0,0,0,-0.306475,-0.145338,144,10,144,10,196,10,144,64,0,-0.261799,-7.35356e-08,-1.5,nan,0,0,3,0,0,0,0,0,0,0,0,2808
2460,-3.11558e-12,2.47424e-38,-1.52105e-06,-3.18057e-12,2.474e-38,0,-1.06655e-13,0,0,-7.26619,-0.145338,0.280529,0,0,0,0,0,-0.306475,-0.145338,144,10,144,10,196,10,144,64,0,-0.261799,-7.16424e-08,-1.5,nan,0,0,3,0,0,0,0,0,0,0,0,2808
2470,-3.11558e-12,2.47424e-38,-1.52105e-06,-3.18057e-12,2.474e-38,-3.62841e-12,-1.06655e-13,0,0,-7.26619,-0.145338,0.280529,0,0,0,0,0,-0.306475,-0.145338,144,10,144,10,196,10,144,64,0,-0.261799,-6.9657e-08,-1.5,nan,0,0,3,0,0,0,0,0,0,0,0,2808
2480,-3.11558e-12,2.47424e-38,-1.52105e-06,-3.18057e-12,2.474e-38,0,-1.06656e-13,0,0,-7.26619,-0.145338,0.280529,0,0,0,0,0,-0.306475,-0.145338,144,10,144,10,196,10,144,64,0,-0.261799,-6.74537e-08,-1.5,nan,0,0,3,0,0,0,0,0,0,0,0,2808
2490,-3.11558e-12,2.47424e-38,-1.52105e-06,-3.18057e-12,2.474e-38,-3.62841e-12,-1.06656e-13,0,0,-7.26619,-0.145338,0.280529,0,0,0,0,0,-0.306475,-0.145338,144,10,144,10,196,10,144,64,0,-0.261799,-6.50533e-08,-1.5,nan,0,0,3,0,0,0,0,0,0,0,0,2808
2500,-3.11558e-12,2.47424e-38,-1.52105e-06,-3.18057e-12,2.474e-38,0,-1.06656e-13,0,0,-7.26619,-0.145338,0.280529,0,0,0,0,0,-0.306475,-0.145338,144,10,144,10,196,10,144,64,0,-0.261799,-6.29944e-08,-1.5,nan,0,0,3,0,0,0,0,0,0,0,0,2808
2510,-3.11558e-12,2.47424e-38,-1.52105e-06,-3.18057e-12,2.474e-38,-3.62841e-12,-1.06657e-13,0,0,-7.26619,-0.145338,0.280529,0,0,0,0,0,-0.306475,-0.145338,144,10,144,10,196,10,144,64,0,-0.261799,-6.10006e-08,-1.5,nan,0,0,3,0,0,0,0,0,0,0,0,2808
2520,-3.11558e-12,2.47424e-38,-1.52105e-06,-3.18057e-12,2.474e-38,0,-1.06657e-13,0,0,-7.26619,-0.145338,0.280529,0,0,0,0,0,-0.306475,-0.145338,144,10,144,10,196,10,144,64,0,-0.261799,-5.90712e-08,-1.5,nan,0,0,3,0,0,0,0,0,0,0,0,2808
2530,-3.11558e-12,2.47424e-38,-1.52105e-06,-3.18057e-12,2.474e-38,-3.62841e-12,-1.06657e-13,0,0,-7.26619,-0.145338,0.280529,0,0,0,0,0,-0.306475,-0.145338,144,10,144,10,196,10,144,64,0,-0.261799,-5.70853e-08,-1.5,nan,0,0,3,0,0,0,0,0,0,0,0,2808
2540,-3.11558e-12,2.47424e-38,-1.52105e-06,-3.18057e-12,2.474e-38,0,-1.06657e-13,0,0,-7.26619,-0.145338,0.280529,0,0,0,0,0,-0.306475,-0.145338,144,10,144,10,196,10,144,64,0,-0.261799,-5.52786e-08,-1.5,nan,0,0,3,0,0,0,0,0,0,0,0,2808
2550,-3.11558e-12,2.47424e-38,-1.52105e-06,-3.18057e-12,2.474e-38,-3.62841e-12,-1.06658e-13,0,0,-7.26619,-0.145338,0.280529,0,0,0,0,0,-0.306475,-0.145338,144,10,144,10,196,10,144,64,0,-0.261799,-5.36378e-08,-1.5,nan,0,0,3,0,0,0,0,0,0,0,0,2808
2560,-3.11558e-12,2.47424e-38,-1.52105e-06,-3.18057e-12,2.474e-38,0,-1.06658e-13,0,0,-7.12874,-0.162975,0.243806,0,0,0,0,0,-0.251494,-0.162975,145,9,145,9,197,9,145,65,0,-0.261799,-5.19412e-08,-1.5,nan,0,0,3,0,0,0,0,0,0,0,0,2912
2570,-3.11558e-12,2.47424e-38,-1.52105e-06,-3.18057e-12,2.474e-38,-3.62841e-12,-1.06658e-13,0,0,-7.12874,-0.162975,0.243806,0,0,0,0,0,-0.251494,-0.162975,145,9,145,9,197,9,145,65,0,-0.261799,-5.01951e-08,-1.5,nan,0,0,3,0,0,0,0,0,0,0,0,2912
2580,-3.11558e-12,2.47424e-38,-1.52105e-06,-3.18057e-12,2.474e-38,0,-1.06658e-13,0,0,-7.12874,-0.162975,0.243806,0,0,0,0,0,-0.251494,-0.162975,145,9,145,9,197,9,145,65,0,-0.261799,-4.86064e-08,-1.5,nan,0,0,3,0,0,0,0,0,0,0,0,2912
2590,-3.11558e-12,2.47424e-38,-1.52105e-06,-3.18057e-12,2.474e-38,-3.62841e-12,-1.06659e-13,0,0,-7.12874,-0.162975,0.243806,0,0,0,0,0,-0.251494,-0.162975,145,9,145,9,197,9,145,65,0,-0.261799,-4.7068e-08,-1.5,nan,0,0,3,0,0,0,0,0,0,0,0,2912
2600,-3.11558e-12,2.47424e-38,-1.52105e-06,-3.18057e-12,2.474e-38,0,-1.06659e-13,0,0,-7.12963,-0.162963,0.224074,0,0,0,0,0,-0.251852,-0.162963,144,11,144,11,198,11,144,65,0,-0.261799,-4.55793e-08,-1.5,nan,0,0,3,0,0,0,0,0,0,0,0,2916
2610,-3.11558e-12,2.47424e-38,-1.52105e-06,-3.18057e-12,2.474e-38,-3.62841e-12,-1.06659e-13,0,0,-7.12963,-0.162963,0.224074,0,0,0,0,0,-0.251852,-0.162963,144,11,144,11,198,11,144,65,0,-0.261799,-4.39573e-08,-1.5,nan,0,0,3,0,0,0,0,0,0,0,0,2916
2620,-3.11558e-12,2.47424e-38,-1.52105e-06,-3.18057e-12,2.474e-38,0,-1.0666e-13,0,0,-7.12963,-0.162963,0.224074,0,0,0,0,0,-0.251852,-0.162963,144,11,144,11,198,11,144,65,0,-0.261799,-4.2566e-08,-1.5,nan,0,0,3,0,0,0,0,0,0,0,0,2916
2630,-3.11558e-12,2.47424e-38,-1.52105e-06,-3.18057e-12,2.474e-38,-3.62841e-12,-1.0666e-13,0,0,-7.12963,-0.162963,0.224074,0,0,0,0,0,-0.251852,-0.162963,144,11,144,11,198,11,144,65,0,-0.261799,-4.12188e-08,-1.5,nan,0,0,3,0,0,0,0,0,0,0,0,2916
2640,-3.11558e-12,2.47424e-38,-1.52105e-06,-3.18057e-12,2.474e-38,0,-1.0666e-13,0,0,-7.12963,-0.162963,0.224074,0,0,0,0,0,-0.251852,-0.162963,144,11,144,11,198,11,144,65,0,-0.261799,-4.0077e-08,-1.5,nan,0,0,3,0,0,0,0,0,0,0,0,2916
2650,-3.11558e-12,2.47424e-38,-1.52105e-06,-3.18057e-12,2.474e-38,-3.62841e-12,-1.0666e-13,0,0,-7.12963,-0.162963,0.224074,0,0,0,0,0,-0.251852,-0.162963,144,11,144,11,198,11,144,65,0,-0.261799,-3.88875e-08,-1.5,nan,0,0,3,0,0,0,0,0,0,0,0,2916
2660,-3.11558e-12,2.47424e-38,-1.52105e-06,-3.18057e-12,2.474e-38,0,-1.06661e-13,0,0,-7.12963,-0.162963,0.224074,0,0,0,0,0,-0.251852,-0.162963,144,11,144,11,198,11,144,65,0,-0.261799,-3.76574e-08,-1.5,nan,0,0,3,0,0,0,0,0,0,0,0,2916
2670,-3.11558e-12,2.47424e-38,-1.52105e-06,-3.18057e-12,2.474e-38,-3.62841e-12,-1.06661e-13,0,0,-7.12963,-0.162963,0.224074,0,0,0,0,0,-0.251852,-0.162963,144,11,144,11,198,11,144,65,0,-0.261799,-3.65397e-08,-1.5,nan,0,0,3,0,0,0,0,0,0,0,0,2916
2680,-3.11558e-12,2.47424e-38,-1.52105e-06,-3.18057e-12,2.474e-38,0,-1.06661e-13,0,0,-7.12963,-0.142593,0.244444,0,0,0,0,0,-0.251852,-0.142593,143,10,143,10,197,10,143,64,0.261799,-0.261799,-3.48859e-08,-1.5,nan,0,0,3,-0.220216,-0.173171,0,0,0,0,0.210911,-0.0680533,2916
2690,-3.11558e-12,2.47424e-38,-1.52105e-06,-3.18057e-12,2.474e-38,-3.62841e-12,-1.06661e-13,0,0,-7.12963,-0.142593,0.244444,0,0,0,0,0,-0.251852,-0.142593,143,10,143,10,197,10,143,64,0.261799,-0.261799,-3.36454e-08,-1.5,nan,0,0,3,-0.21642,-0.174395,0,0,0,0,0.210911,-0.0680533,2916
2700,-3.11558e-12,2.47424e-38,-1.52105e-06,-3.18057e-12,2.474e-38,0,-1.06662e-13,0,0,-7.12963,-0.142593,0.244444,0,0,0,0,0,-0.251852,-0.142593,143,10,143,10,197,10,143,64,0.261799,-0.261799,-3.25812e-08,-1.5,nan,0,0,3,-0.213046,-0.175484,0,0,0,0,0.210911,-0.0680533,2916
2710,-3.11558e-12,2.47424e-38,-1.52105e-06,-3.18057e-12,2.474e-38,-3.62841e-12,-1.06662e-13,0,0,-7.12963,-0.142593,0.244444,0,0,0,0,0,-0.251852,-0.142593,143,10,143,10,197,10,143,64,0.261799,-0.261799,-3.16141e-08,-1.5,nan,0,0,3,-0.209882,-0.176505,0,0,0,0,0.210911,-0.0680533,2916
