timestamp,A_x,A_y,A_z,P,Q,R,Phi,Theta,Psi,poseX,poseY,poseZ,state_X,state_Y,state_Z,state_VzB,state_Bx,state_By,state_Bz,p1_x,p1_y,p2_x,p2_y,p3_x,p3_y,p4_x,p4_y,roll,pitch,yaw,alt,targetHeading,highLevelState,lowLevelState,gateNumber,filtered_x,filtered_y,x_OT,y_OT,vx_OT,vy_OT,filtered_vx,filtered_vygateArea
10,0,0,0,0,0,0,0,0,0,0,0,0,0,0,0,0,0,0,0,0,0,0,0,0,0,0,0,0,-0.261799,0.00623302,-1.5,nan,0,0,3,0,0,0,0,0,0,0,0,1.9603e-19
20,0,0,0,0,0,0,0,0,0,0,0,0,0,0,0,0,0,0,0,0,0,0,0,0,0,0,0,0,-0.261799,0.00601121,-1.5,nan,0,0,3,0,0,0,0,0,0,0,0,1.9603e-19
30,-3.21239e-12,1.02964e-37,-1.54946e-06,-3.27827e-12,1.02955e-37,-3.40903e-12,-1.06589e-13,0,0,0,0,0,0,0,0,0,0,0,0,0,0,0,0,0,0,0,0,0,-0.261799,-0.00131326,-1.5,nan,0,0,3,0,0,0,0,0,0,0,0,1.9603e-19
40,-3.21239e-12,1.02964e-37,-1.54946e-06,-3.27827e-12,1.02955e-37,0,-1.0659e-13,0,0,0,0,0,0,0,0,0,0,0,0,0,0,0,0,0,0,0,0,0,-0.261799,-0.00126911,-1.5,nan,0,0,3,0,0,0,0,0,0,0,0,1.9603e-19
50,-3.21239e-12,1.02964e-37,-1.54946e-06,-3.27827e-12,1.02955e-37,-3.40903e-12,-1.0659e-13,0,0,0,0,0,0,0,0,0,0,0,0,0,0,0,0,0,0,0,0,0,-0.261799,-0.00122645,-1.5,nan,0,0,3,0,0,0,0,0,0,0,0,1.9603e-19
60,-3.21239e-12,1.02964e-37,-1.54946e-06,-3.27827e-12,1.02955e-37,0,-1.0659e-13,0,0,0,0,0,0,0,0,0,0,0,0,0,0,0,0,0,0,0,0,0,-0.261799,-0.00117561,-1.5,nan,0,0,3,0,0,0,0,0,0,0,0,1.9603e-19
70,-3.21239e-12,1.02964e-37,-1.54946e-06,-3.27827e-12,1.02955e-37,-3.40903e-12,-1.0659e-13,0,0,0,0,0,0,0,0,0,0,0,0,0,0,0,0,0,0,0,0,0,-0.261799,-0.0011384,-1.5,nan,0,0,3,0,0,0,0,0,0,0,0,1.9603e-19
80,-3.21239e-12,1.02964e-37,-1.54946e-06,-3.27827e-12,1.02955e-37,0,-1.06591e-13,0,0,0,0,0,0,0,0,0,0,0,0,0,0,0,0,0,0,0,0,0,-0.261799,-0.00110016,-1.5,nan,0,0,3,0,0,0,0,0,0,0,0,1.9603e-19
90,-3.21239e-12,1.02964e-37,-1.54946e-06,-3.27827e-12,1.02955e-37,-3.40903e-12,-1.06591e-13,0,0,0,0,0,0,0,0,0,0,0,0,0,0,0,0,0,0,0,0,0,-0.261799,-0.00106318,-1.5,nan,0,0,3,0,0,0,0,0,0,0,0,1.9603e-19
100,-3.21239e-12,1.02964e-37,-1.54946e-06,-3.27827e-12,1.02955e-37,0,-1.06591e-13,0,0,0,0,0,0,0,0,0,0,0,0,0,0,0,0,0,0,0,0,0,-0.261799,-0.000968842,-1.5,nan,0,0,3,0,0,0,0,0,0,0,0,1.9603e-19
110,-3.21239e-12,1.02964e-37,-1.54946e-06,-3.27827e-12,1.02955e-37,-3.40903e-12,-1.06591e-13,0,0,0,0,0,0,0,0,0,0,0,0,0,0,0,0,0,0,0,0,0,-0.261799,-0.000907669,-1.5,nan,0,0,3,0,0,0,0,0,0,0,0,1.9603e-19
120,-3.21239e-12,1.02964e-37,-1.54946e-06,-3.27827e-12,1.02955e-37,0,-1.06592e-13,0,0,0,0,0,0,0,0,0,0,0,0,0,0,0,0,0,0,0,0,0,-0.261799,-0.000852144,-1.5,nan,0,0,3,0,0,0,0,0,0,0,0,1.9603e-19
130,-3.21239e-12,1.02964e-37,-1.54946e-06,-3.27827e-12,1.02955e-37,-3.40903e-12,-1.06592e-13,0,0,0,0,0,0,0,0,0,0,0,0,0,0,0,0,0,0,0,0,0,-0.261799,-0.000707771,-1.5,nan,0,0,3,0,0,0,0,0,0,0,0,1.9603e-19
140,-3.21239e-12,1.02964e-37,-1.54946e-06,-3.27827e-12,1.02955e-37,0,-1.06592e-13,0,0,0,0,0,0,0,0,0,0,0,0,0,0,0,0,0,0,0,0,0,-0.261799,-0.000571142,-1.5,nan,0,0,3,0,0,0,0,0,0,0,0,1.9603e-19
150,-3.21239e-12,1.02964e-37,-1.54946e-06,-3.27827e-12,1.02955e-37,-3.40903e-12,-1.06593e-13,0,0,0,0,0,0,0,0,0,0,0,0,0,0,0,0,0,0,0,0,0,-0.261799,-0.000544102,-1.5,nan,0,0,3,0,0,0,0,0,0,0,0,1.9603e-19
160,-3.21239e-12,1.02964e-37,-1.54946e-06,-3.27827e-12,1.02955e-37,0,-1.06593e-13,0,0,0,0,0,0,0,0,0,0,0,0,0,0,0,0,0,0,0,0,0,-0.261799,-0.000516172,-1.5,nan,0,0,3,0,0,0,0,0,0,0,0,1.9603e-19
170,-3.21239e-12,1.02964e-37,-1.54946e-06,-3.27827e-12,1.02955e-37,-3.40903e-12,-1.06593e-13,0,0,0,0,0,0,0,0,0,0,0,0,0,0,0,0,0,0,0,0,0,-0.261799,-0.000493762,-1.5,nan,0,0,3,0,0,0,0,0,0,0,0,1.9603e-19
180,-3.21239e-12,1.02964e-37,-1.54946e-06,-3.27827e-12,1.02955e-37,0,-1.06593e-13,0,0,0,0,0,0,0,0,0,0,0,0,0,0,0,0,0,0,0,0,0,-0.261799,-0.000413995,-1.5,nan,0,0,3,0,0,0,0,0,0,0,0,1.9603e-19
190,-3.21239e-12,1.02964e-37,-1.54946e-06,-3.27827e-12,1.02955e-37,-3.40903e-12,-1.06594e-13,0,0,0,0,0,0,0,0,0,0,0,0,0,0,0,0,0,0,0,0,0,-0.261799,-0.000393581,-1.5,nan,0,0,3,0,0,0,0,0,0,0,0,1.9603e-19
200,-3.21239e-12,1.02964e-37,-1.54946e-06,-3.27827e-12,1.02955e-37,0,-1.06594e-13,0,0,0,0,0,0,0,0,0,0,0,0,0,0,0,0,0,0,0,0,0,-0.261799,-0.00038035,-1.5,nan,0,0,3,0,0,0,0,0,0,0,0,1.9603e-19
210,-3.21239e-12,1.02964e-37,-1.54946e-06,-3.27827e-12,1.02955e-37,-3.40903e-12,-1.06594e-13,0,0,0,0,0,0,0,0,0,0,0,0,0,0,0,0,0,0,0,0,0,-0.261799,-0.000367563,-1.5,nan,0,0,3,0,0,0,0,0,0,0,0,1.9603e-19
220,-3.21239e-12,1.02964e-37,-1.54946e-06,-3.27827e-12,1.02955e-37,0,-1.06594e-13,0,0,0,0,0,0,0,0,0,0,0,0,0,0,0,0,0,0,0,0,0,-0.261799,-0.000355937,-1.5,nan,0,0,3,0,0,0,0,0,0,0,0,1.9603e-19
230,-3.21239e-12,1.02964e-37,-1.54946e-06,-3.27827e-12,1.02955e-37,-3.40903e-12,-1.06595e-13,0,0,0,0,0,0,0,0,0,0,0,0,0,0,0,0,0,0,0,0,0,-0.261799,-0.000343972,-1.5,nan,0,0,3,0,0,0,0,0,0,0,0,1.9603e-19
240,-3.21239e-12,1.02964e-37,-1.54946e-06,-3.27827e-12,1.02955e-37,0,-1.06595e-13,0,0,0,0,0,0,0,0,0,0,0,0,0,0,0,0,0,0,0,0,0,-0.261799,-0.000331731,-1.5,nan,0,0,3,0,0,0,0,0,0,0,0,1.9603e-19
250,-3.21239e-12,1.02964e-37,-1.54946e-06,-3.27827e-12,1.02955e-37,-3.40903e-12,-1.06595e-13,0,0,0,0,0,0,0,0,0,0,0,0,0,0,0,0,0,0,0,0,0,-0.261799,-0.000258685,-1.5,nan,0,0,3,0,0,0,0,0,0,0,0,1.9603e-19
260,-3.21239e-12,1.02964e-37,-1.54946e-06,-3.27827e-12,1.02955e-37,0,-1.06596e-13,0,0,0,0,0,0,0,0,0,0,0,0,0,0,0,0,0,0,0,0,0,-0.261799,-0.000229162,-1.5,nan,0,0,3,0,0,0,0,0,0,0,0,1.9603e-19
270,-3.21239e-12,1.02964e-37,-1.54946e-06,-3.27827e-12,1.02955e-37,-3.40903e-12,-1.06596e-13,0,0,0,0,0,0,0,0,0,0,0,0,0,0,0,0,0,0,0,0,0,-0.261799,-0.000220113,-1.5,nan,0,0,3,0,0,0,0,0,0,0,0,1.9603e-19
280,-3.21239e-12,1.02964e-37,-1.54946e-06,-3.27827e-12,1.02955e-37,0,-1.06596e-13,0,0,0,0,0,0,0,0,0,0,0,0,0,0,0,0,0,0,0,0,0,-0.261799,-0.000212713,-1.5,nan,0,0,3,0,0,0,0,0,0,0,0,1.9603e-19
290,-3.21239e-12,1.02964e-37,-1.54946e-06,-3.27827e-12,1.02955e-37,-3.40903e-12,-1.06596e-13,0,0,0,0,0,0,0,0,0,0,0,0,0,0,0,0,0,0,0,0,0,-0.261799,-0.000205562,-1.5,nan,0,0,3,0,0,0,0,0,0,0,0,1.9603e-19
300,-3.21239e-12,1.02964e-37,-1.54946e-06,-3.27827e-12,1.02955e-37,0,-1.06597e-13,0,0,0,0,0,0,0,0,0,0,0,0,0,0,0,0,0,0,0,0,0,-0.261799,-0.000196234,-1.5,nan,0,0,3,0,0,0,0,0,0,0,0,1.9603e-19
310,-3.21239e-12,1.02964e-37,-1.54946e-06,-3.27827e-12,1.02955e-37,-3.40903e-12,-1.06597e-13,0,0,0,0,0,0,0,0,0,0,0,0,0,0,0,0,0,0,0,0,0,-0.261799,-0.000189641,-1.5,nan,0,0,3,0,0,0,0,0,0,0,0,1.9603e-19
320,-3.21239e-12,1.02964e-37,-1.54946e-06,-3.27827e-12,1.02955e-37,0,-1.06597e-13,0,0,0,0,0,0,0,0,0,0,0,0,0,0,0,0,0,0,0,0,0,-0.261799,-0.000182898,-1.5,nan,0,0,3,0,0,0,0,0,0,0,0,1.9603e-19
330,-3.21239e-12,1.02964e-37,-1.54946e-06,-3.27827e-12,1.02955e-37,-3.40903e-12,-1.06597e-13,0,0,0,0,0,0,0,0,0,0,0,0,0,0,0,0,0,0,0,0,0,-0.261799,-0.000176754,-1.5,nan,0,0,3,0,0,0,0,0,0,0,0,1.9603e-19
340,-3.21239e-12,1.02964e-37,-1.54946e-06,-3.27827e-12,1.02955e-37,0,-1.06598e-13,0,0,0,0,0,0,0,0,0,0,0,0,0,0,0,0,0,0,0,0,0,-0.261799,-0.000170121,-1.5,nan,0,0,3,0,0,0,0,0,0,0,0,1.9603e-19
350,-3.21239e-12,1.02964e-37,-1.54946e-06,-3.27827e-12,1.02955e-37,-3.40903e-12,-1.06598e-13,0,0,0,0,0,0,0,0,0,0,0,0,0,0,0,0,0,0,0,0,0,-0.261799,-0.000163738,-1.5,nan,0,0,3,0,0,0,0,0,0,0,0,1.9603e-19
360,-3.21239e-12,1.02964e-37,-1.54946e-06,-3.27827e-12,1.02955e-37,0,-1.06598e-13,0,0,0,0,0,0,0,0,0,0,0,0,0,0,0,0,0,0,0,0,0,-0.261799,-0.000158237,-1.5,nan,0,0,3,0,0,0,0,0,0,0,0,1.9603e-19
370,-3.21239e-12,1.02964e-37,-1.54946e-06,-3.27827e-12,1.02955e-37,-3.40903e-12,-1.06599e-13,0,0,0,0,0,0,0,0,0,0,0,0,0,0,0,0,0,0,0,0,0,-0.261799,-0.000150442,-1.5,nan,0,0,3,0,0,0,0,0,0,0,0,1.9603e-19
380,-3.21239e-12,1.02964e-37,-1.54946e-06,-3.27827e-12,1.02955e-37,0,-1.06599e-13,0,0,0,0,0,0,0,0,0,0,0,0,0,0,0,0,0,0,0,0,0,-0.261799,-0.000143615,-1.5,nan,0,0,3,0,0,0,0,0,0,0,0,1.9603e-19
390,-3.21239e-12,1.02964e-37,-1.54946e-06,-3.27827e-12,1.02955e-37,-3.40903e-12,-1.06599e-13,0,0,0,0,0,0,0,0,0,0,0,0,0,0,0,0,0,0,0,0,0,-0.261799,-0.000138791,-1.5,nan,0,0,3,0,0,0,0,0,0,0,0,1.9603e-19
400,-3.21239e-12,1.02964e-37,-1.54946e-06,-3.27827e-12,1.02955e-37,0,-1.06599e-13,0,0,0,0,0,0,0,0,0,0,0,0,0,0,0,0,0,0,0,0,0,-0.261799,-0.000133855,-1.5,nan,0,0,3,0,0,0,0,0,0,0,0,1.9603e-19
410,-3.21239e-12,1.02964e-37,-1.54946e-06,-3.27827e-12,1.02955e-37,-3.40903e-12,-1.066e-13,0,0,0,0,0,0,0,0,0,0,0,0,0,0,0,0,0,0,0,0,0,-0.261799,-0.000129092,-1.5,nan,0,0,3,0,0,0,0,0,0,0,0,1.9603e-19
420,-3.21239e-12,1.02964e-37,-1.54946e-06,-3.27827e-12,1.02955e-37,0,-1.066e-13,0,0,0,0,0,0,0,0,0,0,0,0,0,0,0,0,0,0,0,0,0,-0.261799,-0.000124502,-1.5,nan,0,0,3,0,0,0,0,0,0,0,0,1.9603e-19
430,-3.21239e-12,1.02964e-37,-1.54946e-06,-3.27827e-12,1.02955e-37,-3.40903e-12,-1.066e-13,0,0,0,0,0,0,0,0,0,0,0,0,0,0,0,0,0,0,0,0,0,-0.261799,-0.000120316,-1.5,nan,0,0,3,0,0,0,0,0,0,0,0,1.9603e-19
440,-3.21239e-12,1.02964e-37,-1.54946e-06,-3.27827e-12,1.02955e-37,0,-1.066e-13,0,0,0,0,0,0,0,0,0,0,0,0,0,0,0,0,0,0,0,0,0,-0.261799,-0.000116983,-1.5,nan,0,0,3,0,0,0,0,0,0,0,0,1.9603e-19
450,-3.21239e-12,1.02964e-37,-1.54946e-06,-3.27827e-12,1.02955e-37,-3.40903e-12,-1.06601e-13,0,0,0,0,0,0,0,0,0,0,0,0,0,0,0,0,0,0,0,0,0,-0.261799,-0.000113283,-1.5,nan,0,0,3,0,0,0,0,0,0,0,0,1.9603e-19
460,-3.21239e-12,1.02964e-37,-1.54946e-06,-3.27827e-12,1.02955e-37,0,-1.06601e-13,0,0,0,0,0,0,0,0,0,0,0,0,0,0,0,0,0,0,0,0,0,-0.261799,-0.000109255,-1.5,nan,0,0,3,0,0,0,0,0,0,0,0,1.9603e-19
470,-3.21239e-12,1.02964e-37,-1.54946e-06,-3.27827e-12,1.02955e-37,-3.40903e-12,-1.06601e-13,0,0,0,0,0,0,0,0,0,0,0,0,0,0,0,0,0,0,0,0,0,-0.261799,-0.000105585,-1.5,nan,0,0,3,0,0,0,0,0,0,0,0,1.9603e-19
480,-3.21239e-12,1.02964e-37,-1.54946e-06,-3.27827e-12,1.02955e-37,0,-1.06602e-13,0,0,0,0,0,0,0,0,0,0,0,0,0,0,0,0,0,0,0,0,0,-0.261799,-0.00010183,-1.5,nan,0,0,3,0,0,0,0,0,0,0,0,1.9603e-19
490,-3.21239e-12,1.02964e-37,-1.54946e-06,-3.27827e-12,1.02955e-37,-3.40903e-12,-1.06602e-13,0,0,0,0,0,0,0,0,0,0,0,0,0,0,0,0,0,0,0,0,0,-0.261799,-9.80092e-05,-1.5,nan,0,0,3,0,0,0,0,0,0,0,0,1.9603e-19
500,-3.21239e-12,1.02964e-37,-1.54946e-06,-3.27827e-12,1.02955e-37,0,-1.06602e-13,0,0,0,0,0,0,0,0,0,0,0,0,0,0,0,0,0,0,0,0,0,-0.261799,-9.47167e-05,-1.5,nan,0,0,3,0,0,0,0,0,0,0,0,1.9603e-19
510,-3.21239e-12,1.02964e-37,-1.54946e-06,-3.27827e-12,1.02955e-37,-3.40903e-12,-1.06602e-13,0,0,0,0,0,0,0,0,0,0,0,0,0,0,0,0,0,0,0,0,0,-0.261799,-9.11626e-05,-1.5,nan,0,0,3,0,0,0,0,0,0,0,0,1.9603e-19
520,-3.21239e-12,1.02964e-37,-1.54946e-06,-3.27827e-12,1.02955e-37,0,-1.06603e-13,0,0,0,0,0,0,0,0,0,0,0,0,0,0,0,0,0,0,0,0,0,-0.261799,-8.81001e-05,-1.5,nan,0,0,3,0,0,0,0,0,0,0,0,1.9603e-19
530,-3.21239e-12,1.02964e-37,-1.54946e-06,-3.27827e-12,1.02955e-37,-3.40903e-12,-1.06603e-13,0,0,0,0,0,0,0,0,0,0,0,0,0,0,0,0,0,0,0,0,0,-0.261799,-8.42714e-05,-1.5,nan,0,0,3,0,0,0,0,0,0,0,0,1.9603e-19
540,-3.21239e-12,1.02964e-37,-1.54946e-06,-3.27827e-12,1.02955e-37,0,-1.06603e-13,0,0,0,0,0,0,0,0,0,0,0,0,0,0,0,0,0,0,0,0,0,-0.261799,-8.12748e-05,-1.5,nan,0,0,3,0,0,0,0,0,0,0,0,1.9603e-19
550,-3.21239e-12,1.02964e-37,-1.54946e-06,-3.27827e-12,1.02955e-37,-3.40903e-12,-1.06603e-13,0,0,0,0,0,0,0,0,0,0,0,0,0,0,0,0,0,0,0,0,0,-0.261799,-7.85444e-05,-1.5,nan,0,0,3,0,0,0,0,0,0,0,0,1.9603e-19
560,-3.21239e-12,1.02964e-37,-1.54946e-06,-3.27827e-12,1.02955e-37,0,-1.06604e-13,0,0,0,0,0,0,0,0,0,0,0,0,0,0,0,0,0,0,0,0,0,-0.261799,-6.16816e-05,-1.5,nan,0,0,3,0,0,0,0,0,0,0,0,1.9603e-19
570,-3.21239e-12,1.02964e-37,-1.54946e-06,-3.27827e-12,1.02955e-37,-3.40903e-12,-1.06604e-13,0,0,0,0,0,0,0,0,0,0,0,0,0,0,0,0,0,0,0,0,0,-0.261799,-5.33093e-05,-1.5,nan,0,0,3,0,0,0,0,0,0,0,0,1.9603e-19
580,-3.21239e-12,1.02964e-37,-1.54946e-06,-3.27827e-12,1.02955e-37,0,-1.06604e-13,0,0,0,0,0,0,0,0,0,0,0,0,0,0,0,0,0,0,0,0,0,-0.261799,-5.15184e-05,-1.5,nan,0,0,3,0,0,0,0,0,0,0,0,1.9603e-19
590,-3.21239e-12,1.02964e-37,-1.54946e-06,-3.27827e-12,1.02955e-37,-3.40903e-12,-1.06605e-13,0,0,0,0,0,0,0,0,0,0,0,0,0,0,0,0,0,0,0,0,0,-0.261799,-4.93829e-05,-1.5,nan,0,0,3,0,0,0,0,0,0,0,0,1.9603e-19
600,-3.21239e-12,1.02964e-37,-1.54946e-06,-3.27827e-12,1.02955e-37,0,-1.06605e-13,0,0,0,0,0,0,0,0,0,0,0,0,0,0,0,0,0,0,0,0,0,-0.261799,-4.75299e-05,-1.5,nan,0,0,3,0,0,0,0,0,0,0,0,1.9603e-19
610,-3.21239e-12,1.02964e-37,-1.54946e-06,-3.27827e-12,1.02955e-37,-3.40903e-12,-1.06605e-13,0,0,0,0,0,0,0,0,0,0,0,0,0,0,0,0,0,0,0,0,0,-0.261799,-4.58385e-05,-1.5,nan,0,0,3,0,0,0,0,0,0,0,0,1.9603e-19
620,-3.21239e-12,1.02964e-37,-1.54946e-06,-3.27827e-12,1.02955e-37,0,-1.06605e-13,0,0,0,0,0,0,0,0,0,0,0,0,0,0,0,0,0,0,0,0,0,-0.261799,-4.42975e-05,-1.5,nan,0,0,3,0,0,0,0,0,0,0,0,1.9603e-19
630,-3.21239e-12,1.02964e-37,-1.54946e-06,-3.27827e-12,1.02955e-37,-3.40903e-12,-1.06606e-13,0,0,0,0,0,0,0,0,0,0,0,0,0,0,0,0,0,0,0,0,0,-0.261799,-4.26353e-05,-1.5,nan,0,0,3,0,0,0,0,0,0,0,0,1.9603e-19
640,-3.21239e-12,1.02964e-37,-1.54946e-06,-3.27827e-12,1.02955e-37,0,-1.06606e-13,0,0,0,0,0,0,0,0,0,0,0,0,0,0,0,0,0,0,0,0,0,-0.261799,-4.11193e-05,-1.5,nan,0,0,3,0,0,0,0,0,0,0,0,1.9603e-19
650,-3.21239e-12,1.02964e-37,-1.54946e-06,-3.27827e-12,1.02955e-37,-3.40903e-12,-1.06606e-13,0,0,0,0,0,0,0,0,0,0,0,0,0,0,0,0,0,0,0,0,0,-0.261799,-4.00606e-05,-1.5,nan,0,0,3,0,0,0,0,0,0,0,0,1.9603e-19
660,-3.21239e-12,1.02964e-37,-1.54946e-06,-3.27827e-12,1.02955e-37,0,-1.06606e-13,0,0,0,0,0,0,0,0,0,0,0,0,0,0,0,0,0,0,0,0,0,-0.261799,-3.88716e-05,-1.5,nan,0,0,3,0,0,0,0,0,0,0,0,1.9603e-19
670,-3.21239e-12,1.02964e-37,-1.54946e-06,-3.27827e-12,1.02955e-37,-3.40903e-12,-1.06607e-13,0,0,0,0,0,0,0,0,0,0,0,0,0,0,0,0,0,0,0,0,0,-0.261799,-3.74894e-05,-1.5,nan,0,0,3,0,0,0,0,0,0,0,0,1.9603e-19
680,-3.21239e-12,1.02964e-37,-1.54946e-06,-3.27827e-12,1.02955e-37,0,-1.06607e-13,0,0,0,0,0,0,0,0,0,0,0,0,0,0,0,0,0,0,0,0,0,-0.261799,-3.6229e-05,-1.5,nan,0,0,3,0,0,0,0,0,0,0,0,1.9603e-19
690,-3.21239e-12,1.02964e-37,-1.54946e-06,-3.27827e-12,1.02955e-37,-3.40903e-12,-1.06607e-13,0,0,0,0,0,0,0,0,0,0,0,0,0,0,0,0,0,0,0,0,0,-0.261799,-3.49398e-05,-1.5,nan,0,0,3,0,0,0,0,0,0,0,0,1.9603e-19
700,-3.21239e-12,1.02964e-37,-1.54946e-06,-3.27827e-12,1.02955e-37,0,-1.06607e-13,0,0,0,0,0,0,0,0,0,0,0,0,0,0,0,0,0,0,0,0,0,-0.261799,-3.37652e-05,-1.5,nan,0,0,3,0,0,0,0,0,0,0,0,1.9603e-19
710,-3.21239e-12,1.02964e-37,-1.54946e-06,-3.27827e-12,1.02955e-37,-3.40903e-12,-1.06608e-13,0,0,0,0,0,0,0,0,0,0,0,0,0,0,0,0,0,0,0,0,0,-0.261799,-3.24972e-05,-1.5,nan,0,0,3,0,0,0,0,0,0,0,0,1.9603e-19
720,-3.21239e-12,1.02964e-37,-1.54946e-06,-3.27827e-12,1.02955e-37,0,-1.06608e-13,0,0,0,0,0,0,0,0,0,0,0,0,0,0,0,0,0,0,0,0,0,-0.261799,-3.12768e-05,-1.5,nan,0,0,3,0,0,0,0,0,0,0,0,1.9603e-19
730,-3.21239e-12,1.02964e-37,-1.54946e-06,-3.27827e-12,1.02955e-37,-3.40903e-12,-1.06608e-13,0,0,0,0,0,0,0,0,0,0,0,0,0,0,0,0,0,0,0,0,0,-0.261799,-3.02868e-05,-1.5,nan,0,0,3,0,0,0,0,0,0,0,0,1.9603e-19
740,-3.21239e-12,1.02964e-37,-1.54946e-06,-3.27827e-12,1.02955e-37,0,-1.06609e-13,0,0,0,0,0,0,0,0,0,0,0,0,0,0,0,0,0,0,0,0,0,-0.261799,-2.90302e-05,-1.5,nan,0,0,3,0,0,0,0,0,0,0,0,1.9603e-19
750,-3.21239e-12,1.02964e-37,-1.54946e-06,-3.27827e-12,1.02955e-37,-3.40903e-12,-1.06609e-13,0,0,0,0,0,0,0,0,0,0,0,0,0,0,0,0,0,0,0,0,0,-0.261799,-2.78839e-05,-1.5,nan,0,0,3,0,0,0,0,0,0,0,0,1.9603e-19
760,-3.21239e-12,1.02964e-37,-1.54946e-06,-3.27827e-12,1.02955e-37,0,-1.06609e-13,0,0,0,0,0,0,0,0,0,0,0,0,0,0,0,0,0,0,0,0,0,-0.261799,-2.69472e-05,-1.5,nan,0,0,3,0,0,0,0,0,0,0,0,1.9603e-19
770,-3.21239e-12,1.02964e-37,-1.54946e-06,-3.27827e-12,1.02955e-37,-3.40903e-12,-1.06609e-13,0,0,0,0,0,0,0,0,0,0,0,0,0,0,0,0,0,0,0,0,0,-0.261799,-2.5989e-05,-1.5,nan,0,0,3,0,0,0,0,0,0,0,0,1.9603e-19
780,-3.21239e-12,1.02964e-37,-1.54946e-06,-3.27827e-12,1.02955e-37,0,-1.0661e-13,0,0,0,0,0,0,0,0,0,0,0,0,0,0,0,0,0,0,0,0,0,-0.261799,-2.49627e-05,-1.5,nan,0,0,3,0,0,0,0,0,0,0,0,1.9603e-19
790,-3.21239e-12,1.02964e-37,-1.54946e-06,-3.27827e-12,1.02955e-37,-3.40903e-12,-1.0661e-13,0,0,0,0,0,0,0,0,0,0,0,0,0,0,0,0,0,0,0,0,0,-0.261799,-2.41241e-05,-1.5,nan,0,0,3,0,0,0,0,0,0,0,0,1.9603e-19
800,-3.21239e-12,1.02964e-37,-1.54946e-06,-3.27827e-12,1.02955e-37,0,-1.0661e-13,0,0,0,0,0,0,0,0,0,0,0,0,0,0,0,0,0,0,0,0,0,-0.261799,-2.32189e-05,-1.5,nan,0,0,3,0,0,0,0,0,0,0,0,1.9603e-19
810,-3.21239e-12,1.02964e-37,-1.54946e-06,-3.27827e-12,1.02955e-37,-3.40903e-12,-1.0661e-13,0,0,0,0,0,0,0,0,0,0,0,0,0,0,0,0,0,0,0,0,0,-0.261799,-2.24389e-05,-1.5,nan,0,0,3,0,0,0,0,0,0,0,0,1.9603e-19
820,-3.21239e-12,1.02964e-37,-1.54946e-06,-3.27827e-12,1.02955e-37,0,-1.06611e-13,0,0,0,0,0,0,0,0,0,0,0,0,0,0,0,0,0,0,0,0,0,-0.261799,-2.14206e-05,-1.5,nan,0,0,3,0,0,0,0,0,0,0,0,1.9603e-19
830,-3.21239e-12,1.02964e-37,-1.54946e-06,-3.27827e-12,1.02955e-37,-3.40903e-12,-1.06611e-13,0,0,0,0,0,0,0,0,0,0,0,0,0,0,0,0,0,0,0,0,0,-0.261799,-2.07005e-05,-1.5,nan,0,0,3,0,0,0,0,0,0,0,0,1.9603e-19
840,-3.21239e-12,1.02964e-37,-1.54946e-06,-3.27827e-12,1.02955e-37,0,-1.06611e-13,0,0,0,0,0,0,0,0,0,0,0,0,0,0,0,0,0,0,0,0,0,-0.261799,-2.00046e-05,-1.5,nan,0,0,3,0,0,0,0,0,0,0,0,1.9603e-19
850,-3.21239e-12,1.02964e-37,-1.54946e-06,-3.27827e-12,1.02955e-37,-3.40903e-12,-1.06612e-13,0,0,0,0,0,0,0,0,0,0,0,0,0,0,0,0,0,0,0,0,0,-0.261799,-1.9254e-05,-1.5,nan,0,0,3,0,0,0,0,0,0,0,0,1.9603e-19
860,-3.21239e-12,1.02964e-37,-1.54946e-06,-3.27827e-12,1.02955e-37,0,-1.06612e-13,0,0,0,0,0,0,0,0,0,0,0,0,0,0,0,0,0,0,0,0,0,-0.261799,-1.87204e-05,-1.5,nan,0,0,3,0,0,0,0,0,0,0,0,1.9603e-19
870,-3.21239e-12,1.02964e-37,-1.54946e-06,-3.27827e-12,1.02955e-37,-3.40903e-12,-1.06612e-13,0,0,0,0,0,0,0,0,0,0,0,0,0,0,0,0,0,0,0,0,0,-0.261799,-1.47381e-05,-1.5,nan,0,0,3,0,0,0,0,0,0,0,0,1.9603e-19
880,-3.21239e-12,1.02964e-37,-1.54946e-06,-3.27827e-12,1.02955e-37,0,-1.06612e-13,0,0,0,0,0,0,0,0,0,0,0,0,0,0,0,0,0,0,0,0,0,-0.261799,-1.31429e-05,-1.5,nan,0,0,3,0,0,0,0,0,0,0,0,1.9603e-19
890,-3.21239e-12,1.02964e-37,-1.54946e-06,-3.27827e-12,1.02955e-37,-3.40903e-12,-1.06613e-13,0,0,0,0,0,0,0,0,0,0,0,0,0,0,0,0,0,0,0,0,0,-0.261799,-1.27014e-05,-1.5,nan,0,0,3,0,0,0,0,0,0,0,0,1.9603e-19
900,-3.21239e-12,1.02964e-37,-1.54946e-06,-3.27827e-12,1.02955e-37,0,-1.06613e-13,0,0,0,0,0,0,0,0,0,0,0,0,0,0,0,0,0,0,0,0,0,-0.261799,-1.22248e-05,-1.5,nan,0,0,3,0,0,0,0,0,0,0,0,1.9603e-19
910,-3.21239e-12,1.02964e-37,-1.54946e-06,-3.27827e-12,1.02955e-37,-3.40903e-12,-1.06613e-13,0,0,0,0,0,0,0,0,0,0,0,0,0,0,0,0,0,0,0,0,0,-0.261799,-1.18141e-05,-1.5,nan,0,0,3,0,0,0,0,0,0,0,0,1.9603e-19
920,-3.21239e-12,1.02964e-37,-1.54946e-06,-3.27827e-12,1.02955e-37,0,-1.06613e-13,0,0,0,0,0,0,0,0,0,0,0,0,0,0,0,0,0,0,0,0,0,-0.261799,-1.14172e-05,-1.5,nan,0,0,3,0,0,0,0,0,0,0,0,1.9603e-19
930,-3.21239e-12,1.02964e-37,-1.54946e-06,-3.27827e-12,1.02955e-37,-3.40903e-12,-1.06614e-13,0,0,0,0,0,0,0,0,0,0,0,0,0,0,0,0,0,0,0,0,0,-0.261799,-1.0944e-05,-1.5,nan,0,0,3,0,0,0,0,0,0,0,0,1.9603e-19
940,-3.21239e-12,1.02964e-37,-1.54946e-06,-3.27827e-12,1.02955e-37,0,-1.06614e-13,0,0,0,0,0,0,0,0,0,0,0,0,0,0,0,0,0,0,0,0,0,-0.261799,-1.05763e-05,-1.5,nan,0,0,3,0,0,0,0,0,0,0,0,1.9603e-19
950,-3.21239e-12,1.02964e-37,-1.54946e-06,-3.27827e-12,1.02955e-37,-3.40903e-12,-1.06614e-13,0,0,0,0,0,0,0,0,0,0,0,0,0,0,0,0,0,0,0,0,0,-0.261799,-1.0221e-05,-1.5,nan,0,0,3,0,0,0,0,0,0,0,0,1.9603e-19
960,-3.21239e-12,1.02964e-37,-1.54946e-06,-3.27827e-12,1.02955e-37,0,-1.06615e-13,0,0,0,0,0,0,0,0,0,0,0,0,0,0,0,0,0,0,0,0,0,-0.261799,-9.79735e-06,-1.5,nan,0,0,3,0,0,0,0,0,0,0,0,1.9603e-19
970,-3.21239e-12,1.02964e-37,-1.54946e-06,-3.27827e-12,1.02955e-37,-3.40903e-12,-1.06615e-13,0,0,0,0,0,0,0,0,0,0,0,0,0,0,0,0,0,0,0,0,0,-0.261799,-9.39124e-06,-1.5,nan,0,0,3,0,0,0,0,0,0,0,0,1.9603e-19
980,-3.21239e-12,1.02964e-37,-1.54946e-06,-3.27827e-12,1.02955e-37,0,-1.06615e-13,0,0,0,0,0,0,0,0,0,0,0,0,0,0,0,0,0,0,0,0,0,-0.261799,-9.0573e-06,-1.5,nan,0,0,3,0,0,0,0,0,0,0,0,1.9603e-19
990,-3.21239e-12,1.02964e-37,-1.54946e-06,-3.27827e-12,1.02955e-37,-3.40903e-12,-1.06615e-13,0,0,0,0,0,0,0,0,0,0,0.8,0,-1367821504,-1367821504,-1367821504,-1367821504,-1367821464,-607549354,-1122700690,-1367821464,0,-0.261799,-8.34877e-06,-1.5,nan,0,0,3,0,0,0,0,0,0,0,0,0
1000,-3.21239e-12,1.02964e-37,-1.54946e-06,-3.27827e-12,1.02955e-37,0,-1.06616e-13,0,0,0,0,0,0,0,0,0,0,0.8,0,-1367821504,-1367821504,-1367821504,-1367821504,-1367821464,-607549354,-1122700690,-1367821464,0,-0.261799,-8.01911e-06,-1.5,nan,0,0,3,0,0,0,0,0,0,0,0,0
1010,-3.21239e-12,1.02964e-37,-1.54946e-06,-3.27827e-12,1.02955e-37,-3.40903e-12,-1.06616e-13,0,0,0,0,0,0,0,0,0,0,0.8,0,-1367821504,-1367821504,-1367821504,-1367821504,-1367821464,-607549354,-1122700690,-1367821464,0,-0.261799,-7.73396e-06,-1.5,nan,0,0,3,0,0,0,0,0,0,0,0,0
1020,-3.21239e-12,1.02964e-37,-1.54946e-06,-3.27827e-12,1.02955e-37,0,-1.06616e-13,0,0,0,0,0,0,0,0,0,0,0.8,0,-1367821504,-1367821504,-1367821504,-1367821504,-1367821464,-607549354,-1122700690,-1367821464,0,-0.261799,-7.41337e-06,-1.5,nan,0,0,3,0,0,0,0,0,0,0,0,0
1030,-3.21239e-12,1.02964e-37,-1.54946e-06,-3.27827e-12,1.02955e-37,-3.40903e-12,-1.06616e-13,0,0,-7.36405,2.07308,-1.2188,0,0,0,0,0,-0.0970082,2.07308,40,82,40,82,89,82,40,137,0,-0.261799,-7.16433e-06,-1.5,nan,0,0,3,0,0,0,0,0,0,0,0,2695
1040,-3.21239e-12,1.02964e-37,-1.54946e-06,-3.27827e-12,1.02955e-37,0,-1.06617e-13,0,0,-7.36405,2.07308,-1.2188,0,0,0,0,0,-0.0970082,2.07308,40,82,40,82,89,82,40,137,0,-0.261799,-6.8955e-06,-1.5,nan,0,0,3,0,0,0,0,0,0,0,0,2695
1050,-3.21239e-12,1.02964e-37,-1.54946e-06,-3.27827e-12,1.02955e-37,-3.40903e-12,-1.06617e-13,0,0,-7.36405,2.07308,-1.2188,0,0,0,0,0,-0.0970082,2.07308,40,82,40,82,89,82,40,137,0,-0.261799,-6.70449e-06,-1.5,nan,0,0,3,0,0,0,0,0,0,0,0,2695
1060,-3.21239e-12,1.02964e-37,-1.54946e-06,-3.27827e-12,1.02955e-37,0,-1.06617e-13,0,0,-7.36405,2.07308,-1.2188,0,0,0,0,0,-0.0970082,2.07308,40,82,40,82,89,82,40,137,0,-0.261799,-6.50559e-06,-1.5,nan,0,0,3,0,0,0,0,0,0,0,0,2695
1070,-3.21239e-12,1.02964e-37,-1.54946e-06,-3.27827e-12,1.02955e-37,-3.40903e-12,-1.06618e-13,0,0,-7.36405,2.07308,-1.2188,0,0,0,0,0,-0.0970082,2.07308,40,82,40,82,89,82,40,137,0,-0.261799,-6.3125e-06,-1.5,nan,0,0,3,0,0,0,0,0,0,0,0,2695
1080,-3.21239e-12,1.02964e-37,-1.54946e-06,-3.27827e-12,1.02955e-37,0,-1.06618e-13,0,0,-7.36405,2.07308,-1.2188,0,0,0,0,0,-0.0970082,2.07308,40,82,40,82,89,82,40,137,0,-0.261799,-6.07543e-06,-1.5,nan,0,0,3,0,0,0,0,0,0,0,0,2695
1090,-3.21239e-12,1.02964e-37,-1.54946e-06,-3.27827e-12,1.02955e-37,-3.40903e-12,-1.06618e-13,0,0,-7.36405,2.07308,-1.2188,0,0,0,0,0,-0.0970082,2.07308,40,82,40,82,89,82,40,137,0,-0.261799,-5.81167e-06,-1.5,nan,0,0,3,0,0,0,0,0,0,0,0,2695
1100,-3.21239e-12,1.02964e-37,-1.54946e-06,-3.27827e-12,1.02955e-37,0,-1.06618e-13,0,0,-7.36405,2.07308,-1.2188,0,0,0,0,0,-0.0970082,2.07308,40,82,40,82,89,82,40,137,0,-0.261799,-5.61643e-06,-1.5,nan,0,0,3,0,0,0,0,0,0,0,0,2695
1110,-3.21239e-12,1.02964e-37,-1.54946e-06,-3.27827e-12,1.02955e-37,-3.40903e-12,-1.06619e-13,0,0,-7.70989,0.958654,-1.20963,0,0,0,0,0,-0.255656,0.958654,97,83,97,83,142,83,97,137,0,-0.261799,-5.42761e-06,-1.5,nan,0,0,3,0,0,0,0,0,0,0,0,2430
1120,-3.21239e-12,1.02964e-37,-1.54946e-06,-3.27827e-12,1.02955e-37,0,-1.06619e-13,0,0,-7.70989,0.958654,-1.20963,0,0,0,0,0,-0.255656,0.958654,97,83,97,83,142,83,97,137,0,-0.261799,-5.23447e-06,-1.5,nan,0,0,3,0,0,0,0,0,0,0,0,2430
1130,-3.21239e-12,1.02964e-37,-1.54946e-06,-3.27827e-12,1.02955e-37,-3.40903e-12,-1.06619e-13,0,0,-7.70989,0.958654,-1.20963,0,0,0,0,0,-0.255656,0.958654,97,83,97,83,142,83,97,137,0,-0.261799,-5.02777e-06,-1.5,nan,0,0,3,0,0,0,0,0,0,0,0,2430
1140,-3.21239e-12,1.02964e-37,-1.54946e-06,-3.27827e-12,1.02955e-37,0,-1.06619e-13,0,0,-7.70989,0.958654,-1.20963,0,0,0,0,0,-0.255656,0.958654,97,83,97,83,142,83,97,137,0,-0.261799,-4.86865e-06,-1.5,nan,0,0,3,0,0,0,0,0,0,0,0,2430
1150,-3.21239e-12,1.02964e-37,-1.54946e-06,-3.27827e-12,1.02955e-37,-3.40903e-12,-1.0662e-13,0,0,-7.70989,0.958654,-1.20963,0,0,0,0,0,-0.255656,0.958654,97,83,97,83,142,83,97,137,0,-0.261799,-4.63814e-06,-1.5,nan,0,0,3,0,0,0,0,0,0,0,0,2430
1160,-3.21239e-12,1.02964e-37,-1.54946e-06,-3.27827e-12,1.02955e-37,0,-1.0662e-13,0,0,-7.70989,0.958654,-1.20963,0,0,0,0,0,-0.255656,0.958654,97,83,97,83,142,83,97,137,0,-0.261799,-4.47322e-06,-1.5,nan,0,0,3,0,0,0,0,0,0,0,0,2430
1170,-3.21239e-12,1.02964e-37,-1.54946e-06,-3.27827e-12,1.02955e-37,-3.40903e-12,-1.0662e-13,0,0,-7.70989,0.958654,-1.20963,0,0,0,0,0,-0.255656,0.958654,97,83,97,83,142,83,97,137,0,-0.261799,-4.32294e-06,-1.5,nan,0,0,3,0,0,0,0,0,0,0,0,2430
1180,-3.21239e-12,1.02964e-37,-1.54946e-06,-3.27827e-12,1.02955e-37,0,-1.0662e-13,0,0,-7.7492,-0.254831,-1.28499,0,0,0,0,0,-0.274349,-0.254831,155,85,155,85,194,85,155,142,0,-0.261799,-3.37783e-06,-1.5,nan,0,0,3,0,0,0,0,0,0,0,0,2223
1190,-3.21239e-12,1.02964e-37,-1.54946e-06,-3.27827e-12,1.02955e-37,-3.40903e-12,-1.06621e-13,0,0,-7.7492,-0.254831,-1.28499,0,0,0,0,0,-0.274349,-0.254831,155,85,155,85,194,85,155,142,0,-0.261799,-3.22454e-06,-1.5,nan,0,0,3,0,0,0,0,0,0,0,0,2223
1200,-3.21239e-12,1.02964e-37,-1.54946e-06,-3.27827e-12,1.02955e-37,0,-1.06621e-13,0,0,-8.35433,-0.334235,-1.07724,0,0,0,0,0,-0.579168,-0.334235,155,82,155,82,199,82,155,130,0.261799,-0.261799,-3.07188e-06,-1.5,nan,0,0,3,-0.589045,-1.38324,0,0,0,0,-1.1496,-8.07541,2112
1210,-3.21239e-12,1.02964e-37,-1.54946e-06,-3.27827e-12,1.02955e-37,-3.40903e-12,-1.06621e-13,0,0,-8.35433,-0.334235,-1.07724,0,0,0,0,0,-0.579168,-0.334235,155,82,155,82,199,82,155,130,0.261799,-0.261799,-2.95662e-06,-1.5,nan,0,0,3,-0.610887,-1.53667,0,0,0,0,-1.1496,-8.07541,2112
1220,-3.21239e-12,1.02964e-37,-1.54946e-06,-3.27827e-12,1.02955e-37,0,-1.06622e-13,0,0,-8.35433,-0.334235,-1.07724,0,0,0,0,0,-0.579168,-0.334235,155,82,155,82,199,82,155,130,0.261799,-0.261799,-2.86304e-06,-1.5,nan,0,0,3,-0.629281,-1.66588,0,0,0,0,-1.1496,-8.07541,2112
1230,-3.21239e-12,1.02964e-37,-1.54946e-06,-3.27827e-12,1.02955e-37,-3.40903e-12,-1.06622e-13,0,0,-8.35433,-0.334235,-1.07724,0,0,0,0,0,-0.579168,-0.334235,155,82,155,82,199,82,155,130,0.261799,-0.261799,-2.78373e-06,-1.5,nan,0,0,3,-0.645376,-1.77894,0,0,0,0,-1.1496,-8.07541,2112
1240,-3.21239e-12,1.02964e-37,-1.54946e-06,-3.27827e-12,1.02955e-37,0,-1.06622e-13,0,0,-8.10415,-0.208382,-1.03637,0,0,0,0,0,-0.449265,-0.208382,148,80,148,80,196,80,148,127,0.261799,-0.261799,-2.69562e-06,-1.5,nan,0,0,3,-0.461081,-0.766822,0,0,0,0,-0.738475,-4.86044,2256
1250,-3.21239e-12,1.02964e-37,-1.54946e-06,-3.27827e-12,1.02955e-37,-3.40903e-12,-1.06622e-13,0,0,-8.10415,-0.208382,-1.03637,0,0,0,0,0,-0.449265,-0.208382,148,80,148,80,196,80,148,127,0.261799,-0.261799,-2.58389e-06,-1.5,nan,0,0,3,-0.47659,-0.868893,0,0,0,0,-0.738475,-4.86044,2256
1260,-3.21239e-12,1.02964e-37,-1.54946e-06,-3.27827e-12,1.02955e-37,0,-1.06623e-13,0,0,-8.10415,-0.208382,-1.03637,0,0,0,0,0,-0.449265,-0.208382,148,80,148,80,196,80,148,127,0.261799,-0.261799,-2.49702e-06,-1.5,nan,0,0,3,-0.489144,-0.951522,0,0,0,0,-0.738475,-4.86044,2256
1270,-3.21239e-12,1.02964e-37,-1.54946e-06,-3.27827e-12,1.02955e-37,-3.40903e-12,-1.06623e-13,0,0,-7.80418,-0.267737,-0.747509,0,0,0,0,0,-0.300723,-0.267737,154,62,154,62,196,62,154,117,0.261799,-0.261799,-2.39854e-06,-1.5,nan,0,0,3,-0.503914,-0.463136,0,0,0,0,-0.738475,-3.44254,2310
1280,-3.21239e-12,1.02964e-37,-1.54946e-06,-3.27827e-12,1.02955e-37,0,-1.06623e-13,0,0,-7.80418,-0.267737,-0.747509,0,0,0,0,0,-0.300723,-0.267737,154,62,154,62,196,62,154,117,0.261799,-0.261799,-2.31791e-06,-1.5,nan,0,0,3,-0.516468,-0.521661,0,0,0,0,-0.738475,-3.44254,2310
1290,-3.21239e-12,1.02964e-37,-1.54946e-06,-3.27827e-12,1.02955e-37,-3.40903e-12,-1.06623e-13,0,0,-7.80418,-0.267737,-0.747509,0,0,0,0,0,-0.300723,-0.267737,154,62,154,62,196,62,154,117,0.261799,-0.261799,-2.23549e-06,-1.5,nan,0,0,3,-0.529761,-0.583628,0,0,0,0,-0.738475,-3.44254,2310
1300,-3.21239e-12,1.02964e-37,-1.54946e-06,-3.27827e-12,1.02955e-37,0,-1.06624e-13,0,0,-7.80418,-0.267737,-0.747509,0,0,0,0,0,-0.300723,-0.267737,154,62,154,62,196,62,154,117,0.261799,-0.261799,-2.16039e-06,-1.5,nan,0,0,3,-0.542315,-0.642152,0,0,0,0,-0.738475,-3.44254,2310
1310,-3.21239e-12,1.02964e-37,-1.54946e-06,-3.27827e-12,1.02955e-37,-3.40903e-12,-1.06624e-13,0,0,-6.70645,-0.210893,-0.864834,0,0,0,0,0,0.175817,-0.210893,148,58,148,58,200,58,148,120,0.14866,-0.261799,-2.07523e-06,-1.5,nan,0,0,3,-0.309228,-0.210004,0,0,0,0,-0.110455,0.126988,3224
1320,-3.21239e-12,1.02964e-37,-1.54946e-06,-3.27827e-12,1.02955e-37,0,-1.06624e-13,0,0,-6.70645,-0.210893,-0.864834,0,0,0,0,0,0.175817,-0.210893,148,58,148,58,200,58,148,120,0.145056,-0.261799,-1.99736e-06,-1.5,nan,0,0,3,-0.311327,-0.207591,0,0,0,0,-0.110455,0.126988,3224
1330,-3.21239e-12,1.02964e-37,-1.54946e-06,-3.27827e-12,1.02955e-37,-3.40903e-12,-1.06625e-13,0,0,-6.70645,-0.210893,-0.864834,0,0,0,0,0,0.175817,-0.210893,148,58,148,58,200,58,148,120,0.14183,-0.261799,-1.93022e-06,-1.5,nan,0,0,3,-0.313204,-0.205432,0,0,0,0,-0.110455,0.126988,3224
1340,-3.21239e-12,1.02964e-37,-1.54946e-06,-3.27827e-12,1.02955e-37,0,-1.06625e-13,0,0,-6.70645,-0.210893,-0.864834,0,0,0,0,0,0.175817,-0.210893,148,58,148,58,200,58,148,120,0.138605,-0.261799,-1.86533e-06,-1.5,nan,0,0,3,-0.315082,-0.203273,0,0,0,0,-0.110455,0.126988,3224
1350,-3.21239e-12,1.02964e-37,-1.54946e-06,-3.27827e-12,1.02955e-37,-3.40903e-12,-1.06625e-13,0,0,-6.70645,-0.210893,-0.864834,0,0,0,0,0,0.175817,-0.210893,148,58,148,58,200,58,148,120,0.13538,-0.261799,-1.80262e-06,-1.5,nan,0,0,3,-0.31696,-0.201115,0,0,0,0,-0.110455,0.126988,3224
1360,-3.21239e-12,1.02964e-37,-1.54946e-06,-3.27827e-12,1.02955e-37,0,-1.06625e-13,0,0,-6.70645,-0.210893,-0.864834,0,0,0,0,0,0.175817,-0.210893,148,58,148,58,200,58,148,120,0.131586,-0.261799,-1.73137e-06,-1.5,nan,0,0,3,-0.319169,-0.198575,0,0,0,0,-0.110455,0.126988,3224
1370,-3.21239e-12,1.02964e-37,-1.54946e-06,-3.27827e-12,1.02955e-37,-3.40903e-12,-1.06626e-13,0,0,-6.70645,-0.210893,-0.864834,0,0,0,0,0,0.175817,-0.210893,148,58,148,58,200,58,148,120,0.12874,-0.261799,-1.67998e-06,-1.5,nan,0,0,3,-0.320825,-0.19667,0,0,0,0,-0.110455,0.126988,3224
1380,-3.21239e-12,1.02964e-37,-1.54946e-06,-3.27827e-12,1.02955e-37,0,-1.06626e-13,0,0,-6.70645,-0.210893,-0.864834,0,0,0,0,0,0.175817,-0.210893,148,58,148,58,200,58,148,120,0.125894,-0.261799,-1.63012e-06,-1.5,nan,0,0,3,-0.322482,-0.194765,0,0,0,0,-0.110455,0.126988,3224
1390,-3.21239e-12,1.02964e-37,-1.54946e-06,-3.27827e-12,1.02955e-37,-3.40903e-12,-1.06626e-13,0,0,-6.70645,-0.210893,-0.864834,0,0,0,0,0,0.175817,-0.210893,148,58,148,58,200,58,148,120,0.122669,-0.261799,-1.57532e-06,-1.5,nan,0,0,3,-0.32436,-0.192607,0,0,0,0,-0.110455,0.126988,3224
1400,-3.21239e-12,1.02964e-37,-1.54946e-06,-3.27827e-12,1.02955e-37,0,-1.06626e-13,0,0,-6.70645,-0.210893,-0.864834,0,0,0,0,0,0.175817,-0.210893,148,58,148,58,200,58,148,120,0.118875,-0.261799,-1.51311e-06,-1.5,nan,0,0,3,-0.326569,-0.190067,0,0,0,0,-0.110455,0.126988,3224
1410,-3.21239e-12,1.02964e-37,-1.54946e-06,-3.27827e-12,1.02955e-37,-3.40903e-12,-1.06627e-13,0,0,-6.70645,-0.210893,-0.864834,0,0,0,0,0,0.175817,-0.210893,148,58,148,58,200,58,148,120,0.11565,-0.261799,-1.46225e-06,-1.5,nan,0,0,3,-0.328447,-0.187908,0,0,0,0,-0.110455,0.126988,3224
1420,-3.21239e-12,1.02964e-37,-1.54946e-06,-3.27827e-12,1.02955e-37,0,-1.06627e-13,0,0,-6.70645,-0.210893,-0.864834,0,0,0,0,0,0.175817,-0.210893,148,58,148,58,200,58,148,120,0.112425,-0.261799,-1.41309e-06,-1.5,nan,0,0,3,-0.330324,-0.18575,0,0,0,0,-0.110455,0.126988,3224
1430,-3.21239e-12,1.02964e-37,-1.54946e-06,-3.27827e-12,1.02955e-37,-3.40903e-12,-1.0663e-13,0,0,-8.86329,-0.53208,-0.346536,0,0,0,0,0,-0.860323,-0.53208,166,54,166,54,202,54,166,103,0.261799,-0.261799,-1.35446e-06,-1.5,nan,0,0,3,-0.703915,-0.551556,0,0,0,0,-0.734428,-0.96778,1764
1440,-3.21239e-12,1.02964e-37,-1.54946e-06,-3.27827e-12,1.02955e-37,0,-1.06627e-13,0,0,-8.86329,-0.53208,-0.346536,0,0,0,0,0,-0.860323,-0.53208,166,54,166,54,202,54,166,103,0.261799,-0.261799,-1.30363e-06,-1.5,nan,0,0,3,-0.717869,-0.569943,0,0,0,0,-0.734428,-0.96778,1764
1450,-3.21239e-12,1.02964e-37,-1.54946e-06,-3.27827e-12,1.02955e-37,-3.40903e-12,-1.06628e-13,0,0,-8.86329,-0.53208,-0.346536,0,0,0,0,0,-0.860323,-0.53208,166,54,166,54,202,54,166,103,0.261799,-0.261799,-1.25981e-06,-1.5,nan,0,0,3,-0.730354,-0.586395,0,0,0,0,-0.734428,-0.96778,1764
1460,-3.21239e-12,1.02964e-37,-1.54946e-06,-3.27827e-12,1.02955e-37,0,-1.0663e-13,0,0,-8.06909,-0.472876,-0.463352,0,0,0,0,0,-0.431497,-0.472876,163,52,163,52,204,52,163,105,0.261799,-0.261799,-1.21014e-06,-1.5,nan,0,0,3,-0.432622,-0.474648,0,0,0,0,-0.243038,-0.43797,2173
1470,-3.21239e-12,1.02964e-37,-1.54946e-06,-3.27827e-12,1.02955e-37,-3.40903e-12,-1.06628e-13,0,0,-8.06909,-0.472876,-0.463352,0,0,0,0,0,-0.431497,-0.472876,163,52,163,52,204,52,163,105,0.261799,-0.261799,-1.16473e-06,-1.5,nan,0,0,3,-0.437239,-0.482969,0,0,0,0,-0.243038,-0.43797,2173
1480,-3.21239e-12,1.02964e-37,-1.54946e-06,-3.27827e-12,1.02955e-37,0,-1.06628e-13,0,0,-8.06909,-0.472876,-0.463352,0,0,0,0,0,-0.431497,-0.472876,163,52,163,52,204,52,163,105,0.261799,-0.261799,-1.12557e-06,-1.5,nan,0,0,3,-0.441371,-0.490414,0,0,0,0,-0.243038,-0.43797,2173
1490,-3.21239e-12,1.02964e-37,-1.54946e-06,-3.27827e-12,1.02955e-37,-3.40903e-12,-1.06628e-13,0,0,-8.06909,-0.472876,-0.463352,0,0,0,0,0,-0.431497,-0.472876,163,52,163,52,204,52,163,105,0.261799,-0.261799,-1.08555e-06,-1.5,nan,0,0,3,-0.445745,-0.498297,0,0,0,0,-0.243038,-0.43797,2173
1500,-3.21239e-12,1.02964e-37,-1.54946e-06,-3.27827e-12,1.02955e-37,0,-1.06629e-13,0,0,-8.06909,-0.472876,-0.463352,0,0,0,0,0,-0.431497,-0.472876,163,52,163,52,204,52,163,105,0.261799,-0.261799,-1.04908e-06,-1.5,nan,0,0,3,-0.449877,-0.505742,0,0,0,0,-0.243038,-0.43797,2173
1510,-3.21239e-12,1.02964e-37,-1.54946e-06,-3.27827e-12,1.02955e-37,-3.40903e-12,-1.06629e-13,0,0,-8.06909,-0.472876,-0.463352,0,0,0,0,0,-0.431497,-0.472876,163,52,163,52,204,52,163,105,0.261799,-0.261799,-1.00972e-06,-1.5,nan,0,0,3,-0.454494,-0.514064,0,0,0,0,-0.243038,-0.43797,2173
1520,-3.21239e-12,1.02964e-37,-1.54946e-06,-3.27827e-12,1.02955e-37,0,-1.0663e-13,0,0,-7.40385,-0.719231,-0.465385,0,0,0,0,0,-0.11473,-0.719231,171,48,171,48,223,48,171,100,0.261799,-0.261799,-8.44897e-07,-1.5,nan,0,0,3,-0.496885,-0.795631,0,0,0,0,-0.306321,-1.01191,2704
1530,-3.21239e-12,1.02964e-37,-1.54946e-06,-3.27827e-12,1.02955e-37,-3.40903e-12,-1.06629e-13,0,0,-7.40385,-0.719231,-0.465385,0,0,0,0,0,-0.11473,-0.719231,171,48,171,48,223,48,171,100,0.261799,-0.261799,-8.23145e-07,-1.5,nan,0,0,3,-0.500867,-0.808786,0,0,0,0,-0.306321,-1.01191,2704
1540,-3.21239e-12,1.02964e-37,-1.54946e-06,-3.27827e-12,1.02955e-37,0,-1.0663e-13,0,0,-7.40385,-0.719231,-0.465385,0,0,0,0,0,-0.11473,-0.719231,171,48,171,48,223,48,171,100,0.261799,-0.261799,-7.95473e-07,-1.5,nan,0,0,3,-0.506075,-0.825987,0,0,0,0,-0.306321,-1.01191,2704
1550,-3.21239e-12,1.02964e-37,-1.54946e-06,-3.27827e-12,1.02955e-37,-3.40903e-12,-1.06631e-13,0,0,-7.40385,-0.719231,-0.465385,0,0,0,0,0,-0.11473,-0.719231,171,48,171,48,223,48,171,100,0.261799,-0.261799,-7.65599e-07,-1.5,nan,0,0,3,-0.512201,-0.846225,0,0,0,0,-0.306321,-1.01191,2704
1560,-3.21239e-12,1.02964e-37,-1.54946e-06,-3.27827e-12,1.02955e-37,0,-1.06631e-13,0,0,-7.40385,-0.719231,-0.465385,0,0,0,0,0,-0.11473,-0.719231,171,48,171,48,223,48,171,100,0.261799,-0.261799,-7.38376e-07,-1.5,nan,0,0,3,-0.517714,-0.864439,0,0,0,0,-0.306321,-1.01191,2704
1570,-3.21239e-12,1.02964e-37,-1.54946e-06,-3.27827e-12,1.02955e-37,-3.40903e-12,-1.06631e-13,0,0,-7.40385,-0.719231,-0.465385,0,0,0,0,0,-0.11473,-0.719231,171,48,171,48,223,48,171,100,0.261799,-0.261799,-7.15006e-07,-1.5,nan,0,0,3,-0.522615,-0.880628,0,0,0,0,-0.306321,-1.01191,2704
1580,-3.21239e-12,1.02964e-37,-1.54946e-06,-3.27827e-12,1.02955e-37,0,-1.06632e-13,0,0,-7.87385,-0.37143,-0.087504,0,0,0,0,0,-0.334519,-0.37143,159,33,159,33,200,33,159,88,0.261799,-0.261799,-6.83964e-07,-1.5,nan,0,0,3,-0.338989,-0.581664,0,0,0,0,-0.0553248,-0.386116,2255
1590,-3.21239e-12,1.02964e-37,-1.54946e-06,-3.27827e-12,1.02955e-37,-3.40903e-12,-1.06631e-13,0,0,-7.87385,-0.37143,-0.087504,0,0,0,0,0,-0.334519,-0.37143,159,33,159,33,200,33,159,88,0.261799,-0.261799,-6.59625e-07,-1.5,nan,0,0,3,-0.339985,-0.588614,0,0,0,0,-0.0553248,-0.386116,2255
1600,-3.21239e-12,1.02964e-37,-1.54946e-06,-3.27827e-12,1.02955e-37,0,-1.06632e-13,0,0,-7.87385,-0.37143,-0.087504,0,0,0,0,0,-0.334519,-0.37143,159,33,159,33,200,33,159,88,0.261799,-0.261799,-6.37449e-07,-1.5,nan,0,0,3,-0.340925,-0.595178,0,0,0,0,-0.0553248,-0.386116,2255
1610,-3.21239e-12,1.02964e-37,-1.54946e-06,-3.27827e-12,1.02955e-37,-3.40903e-12,-1.06633e-13,0,0,-7.00075,-0.200181,-0.0711574,0,0,0,0,0,0.058392,-0.200181,150,20,150,20,196,20,150,82,0.261799,-0.261799,-6.11072e-07,-1.5,nan,0,0,3,-0.343835,-0.415739,0,0,0,0,-0.0749807,-0.171471,2852
1620,-3.21239e-12,1.02964e-37,-1.54946e-06,-3.27827e-12,1.02955e-37,0,-1.06632e-13,0,0,-7.00075,-0.200181,-0.0711574,0,0,0,0,0,0.058392,-0.200181,150,20,150,20,196,20,150,82,0.261799,-0.261799,-5.88123e-07,-1.5,nan,0,0,3,-0.34526,-0.418997,0,0,0,0,-0.0749807,-0.171471,2852
1630,-3.21239e-12,1.02964e-37,-1.54946e-06,-3.27827e-12,1.02955e-37,-3.40903e-12,-1.06633e-13,0,0,-7.00075,-0.200181,-0.0711574,0,0,0,0,0,0.058392,-0.200181,150,20,150,20,196,20,150,82,0.261799,-0.261799,-5.6721e-07,-1.5,nan,0,0,3,-0.346609,-0.422083,0,0,0,0,-0.0749807,-0.171471,2852
1640,-3.21239e-12,1.02964e-37,-1.54946e-06,-3.27827e-12,1.02955e-37,0,-1.06633e-13,0,0,-7.00075,-0.200181,-0.0711574,0,0,0,0,0,0.058392,-0.200181,150,20,150,20,196,20,150,82,0.261799,-0.261799,-5.48155e-07,-1.5,nan,0,0,3,-0.347884,-0.424998,0,0,0,0,-0.0749807,-0.171471,2852
1650,-3.21239e-12,1.02964e-37,-1.54946e-06,-3.27827e-12,1.02955e-37,-3.40903e-12,-1.06634e-13,0,0,-7.75219,-0.199407,0.0881106,0,0,0,0,0,-0.275776,-0.199407,149,25,149,25,195,25,149,78,0.261799,-0.261799,-5.25434e-07,-1.5,nan,0,0,3,-0.302887,-0.380058,0,0,0,0,-0.0269473,-0.126689,2438
1660,-3.21239e-12,1.02964e-37,-1.54946e-06,-3.27827e-12,1.02955e-37,0,-1.06634e-13,0,0,-7.75219,-0.199407,0.0881106,0,0,0,0,0,-0.275776,-0.199407,149,25,149,25,195,25,149,78,0.261799,-0.261799,-5.03633e-07,-1.5,nan,0,0,3,-0.303452,-0.382718,0,0,0,0,-0.0269473,-0.126689,2438
1670,-3.21239e-12,1.02964e-37,-1.54946e-06,-3.27827e-12,1.02955e-37,-3.40903e-12,-1.06634e-13,0,0,-7.75219,-0.199407,0.0881106,0,0,0,0,0,-0.275776,-0.199407,149,25,149,25,195,25,149,78,0.261799,-0.261799,-4.89676e-07,-1.5,nan,0,0,3,-0.30383,-0.384492,0,0,0,0,-0.0269473,-0.126689,2438
1680,-3.21239e-12,1.02964e-37,-1.54946e-06,-3.27827e-12,1.02955e-37,0,-1.06635e-13,0,0,-7.75219,-0.199407,0.0881106,0,0,0,0,0,-0.275776,-0.199407,149,25,149,25,195,25,149,78,0.261799,-0.261799,-4.76111e-07,-1.5,nan,0,0,3,-0.304207,-0.386265,0,0,0,0,-0.0269473,-0.126689,2438
1690,-3.21239e-12,1.02964e-37,-1.54946e-06,-3.27827e-12,1.02955e-37,-3.40903e-12,-1.06635e-13,0,0,-7.75219,-0.199407,0.0881106,0,0,0,0,0,-0.275776,-0.199407,149,25,149,25,195,25,149,78,0.261799,-0.261799,-4.60116e-07,-1.5,nan,0,0,3,-0.304665,-0.388419,0,0,0,0,-0.0269473,-0.126689,2438
1700,-3.21239e-12,1.02964e-37,-1.54946e-06,-3.27827e-12,1.02955e-37,0,-1.06635e-13,0,0,-7.75219,-0.199407,0.0881106,0,0,0,0,0,-0.275776,-0.199407,149,25,149,25,195,25,149,78,0.261799,-0.261799,-4.44648e-07,-1.5,nan,0,0,3,-0.30515,-0.390699,0,0,0,0,-0.0269473,-0.126689,2438
1710,-3.21239e-12,1.02964e-37,-1.54946e-06,-3.27827e-12,1.02955e-37,-3.40903e-12,-1.06635e-13,0,0,-7.75219,-0.199407,0.0881106,0,0,0,0,0,-0.275776,-0.199407,149,25,149,25,195,25,149,78,0.261799,-0.261799,-4.297e-07,-1.5,nan,0,0,3,-0.305608,-0.392853,0,0,0,0,-0.0269473,-0.126689,2438
1720,-3.21239e-12,1.02964e-37,-1.54946e-06,-3.27827e-12,1.02955e-37,0,-1.06636e-13,0,0,-7.75219,-0.199407,0.0881106,0,0,0,0,0,-0.275776,-0.199407,149,25,149,25,195,25,149,78,0.261799,-0.261799,-4.15254e-07,-1.5,nan,0,0,3,-0.306066,-0.395006,0,0,0,0,-0.0269473,-0.126689,2438
1730,-3.21239e-12,1.02964e-37,-1.54946e-06,-3.27827e-12,1.02955e-37,-3.40903e-12,-1.06636e-13,0,0,-7.75219,-0.199407,0.0881106,0,0,0,0,0,-0.275776,-0.199407,149,25,149,25,195,25,149,78,0.261799,-0.261799,-4.01294e-07,-1.5,nan,0,0,3,-0.306524,-0.39716,0,0,0,0,-0.0269473,-0.126689,2438
1740,-3.21239e-12,1.02964e-37,-1.54946e-06,-3.27827e-12,1.02955e-37,0,-1.06636e-13,0,0,-7.75219,-0.199407,0.0881106,0,0,0,0,0,-0.275776,-0.199407,149,25,149,25,195,25,149,78,0.261799,-0.261799,-3.85448e-07,-1.5,nan,0,0,3,-0.307063,-0.399694,0,0,0,0,-0.0269473,-0.126689,2438
1750,-3.21239e-12,1.02964e-37,-1.54946e-06,-3.27827e-12,1.02955e-37,-3.40903e-12,-1.06636e-13,0,0,-7.75219,-0.199407,0.0881106,0,0,0,0,0,-0.275776,-0.199407,149,25,149,25,195,25,149,78,0.261799,-0.261799,-3.7249e-07,-1.5,nan,0,0,3,-0.307521,-0.401847,0,0,0,0,-0.0269473,-0.126689,2438
1760,-3.21239e-12,1.02964e-37,-1.54946e-06,-3.27827e-12,1.02955e-37,0,-1.06637e-13,0,0,-7.75219,-0.199407,0.0881106,0,0,0,0,0,-0.275776,-0.199407,149,25,149,25,195,25,149,78,0.261799,-0.261799,-3.59968e-07,-1.5,nan,0,0,3,-0.307979,-0.404001,0,0,0,0,-0.0269473,-0.126689,2438
1770,-3.21239e-12,1.02964e-37,-1.54946e-06,-3.27827e-12,1.02955e-37,-3.40903e-12,-1.06637e-13,0,0,-7.75219,-0.199407,0.0881106,0,0,0,0,0,-0.275776,-0.199407,149,25,149,25,195,25,149,78,0.261799,-0.261799,-3.46461e-07,-1.5,nan,0,0,3,-0.308491,-0.406408,0,0,0,0,-0.0269473,-0.126689,2438
1780,-3.21239e-12,1.02964e-37,-1.54946e-06,-3.27827e-12,1.02955e-37,0,-1.06637e-13,0,0,-7.75219,-0.199407,0.0881106,0,0,0,0,0,-0.275776,-0.199407,149,25,149,25,195,25,149,78,0.261799,-0.261799,-3.34822e-07,-1.5,nan,0,0,3,-0.30895,-0.408562,0,0,0,0,-0.0269473,-0.126689,2438
1790,-3.21239e-12,1.02964e-37,-1.54946e-06,-3.27827e-12,1.02955e-37,-3.40903e-12,-1.06638e-13,0,0,-7.75219,-0.199407,0.0881106,0,0,0,0,0,-0.275776,-0.199407,149,25,149,25,195,25,149,78,0.261799,-0.261799,-3.23574e-07,-1.5,nan,0,0,3,-0.309408,-0.410715,0,0,0,0,-0.0269473,-0.126689,2438
1800,-3.21239e-12,1.02964e-37,-1.54946e-06,-3.27827e-12,1.02955e-37,0,-1.06638e-13,0,0,-7.75219,-0.199407,0.0881106,0,0,0,0,0,-0.275776,-0.199407,149,25,149,25,195,25,149,78,0.261799,-0.261799,-3.13339e-07,-1.5,nan,0,0,3,-0.309839,-0.412742,0,0,0,0,-0.0269473,-0.126689,2438
1810,-3.21239e-12,1.02964e-37,-1.54946e-06,-3.27827e-12,1.02955e-37,-3.40903e-12,-1.06638e-13,0,0,-7.75219,-0.199407,0.0881106,0,0,0,0,0,-0.275776,-0.199407,149,25,149,25,195,25,149,78,0.261799,-0.261799,-3.03428e-07,-1.5,nan,0,0,3,-0.31027,-0.414769,0,0,0,0,-0.0269473,-0.126689,2438
1820,-3.21239e-12,1.02964e-37,-1.54946e-06,-3.27827e-12,1.02955e-37,0,-1.06638e-13,0,0,-7.75219,-0.199407,0.0881106,0,0,0,0,0,-0.275776,-0.199407,149,25,149,25,195,25,149,78,0.261799,-0.261799,-2.95019e-07,-1.5,nan,0,0,3,-0.310647,-0.416543,0,0,0,0,-0.0269473,-0.126689,2438
1830,-3.21239e-12,1.02964e-37,-1.54946e-06,-3.27827e-12,1.02955e-37,-3.40903e-12,-1.06639e-13,0,0,-7.75219,-0.199407,0.0881106,0,0,0,0,0,-0.275776,-0.199407,149,25,149,25,195,25,149,78,0.261799,-0.261799,-2.85101e-07,-1.5,nan,0,0,3,-0.311105,-0.418696,0,0,0,0,-0.0269473,-0.126689,2438
1840,-3.21239e-12,1.02964e-37,-1.54946e-06,-3.27827e-12,1.02955e-37,0,-1.06639e-13,0,0,-7.75219,-0.199407,0.0881106,0,0,0,0,0,-0.275776,-0.199407,149,25,149,25,195,25,149,78,0.261799,-0.261799,-2.75517e-07,-1.5,nan,0,0,3,-0.311563,-0.42085,0,0,0,0,-0.0269473,-0.126689,2438
1850,-3.21239e-12,1.02964e-37,-1.54946e-06,-3.27827e-12,1.02955e-37,-3.40903e-12,-1.06639e-13,0,0,-7.75219,-0.199407,0.0881106,0,0,0,0,0,-0.275776,-0.199407,149,25,149,25,195,25,149,78,0.261799,-0.261799,-2.65178e-07,-1.5,nan,0,0,3,-0.312075,-0.423257,0,0,0,0,-0.0269473,-0.126689,2438
1860,-3.21239e-12,1.02964e-37,-1.54946e-06,-3.27827e-12,1.02955e-37,0,-1.06639e-13,0,0,-7.75219,-0.199407,0.0881106,0,0,0,0,0,-0.275776,-0.199407,149,25,149,25,195,25,149,78,0.261799,-0.261799,-2.5627e-07,-1.5,nan,0,0,3,-0.312533,-0.425411,0,0,0,0,-0.0269473,-0.126689,2438
1870,-3.21239e-12,1.02964e-37,-1.54946e-06,-3.27827e-12,1.02955e-37,-3.40903e-12,-1.0664e-13,0,0,-7.75219,-0.199407,0.0881106,0,0,0,0,0,-0.275776,-0.199407,149,25,149,25,195,25,149,78,0.261799,-0.261799,-2.47661e-07,-1.5,nan,0,0,3,-0.312991,-0.427564,0,0,0,0,-0.0269473,-0.126689,2438
1880,-3.21239e-12,1.02964e-37,-1.54946e-06,-3.27827e-12,1.02955e-37,0,-1.0664e-13,0,0,-7.75219,-0.199407,0.0881106,0,0,0,0,0,-0.275776,-0.199407,149,25,149,25,195,25,149,78,0.261799,-0.261799,-2.39341e-07,-1.5,nan,0,0,3,-0.31345,-0.429718,0,0,0,0,-0.0269473,-0.126689,2438
1890,-3.21239e-12,1.02964e-37,-1.54946e-06,-3.27827e-12,1.02955e-37,-3.40903e-12,-1.0664e-13,0,0,-7.75219,-0.199407,0.0881106,0,0,0,0,0,-0.275776,-0.199407,149,25,149,25,195,25,149,78,0.261799,-0.261799,-2.2989e-07,-1.5,nan,0,0,3,-0.313988,-0.432252,0,0,0,0,-0.0269473,-0.126689,2438
1900,-3.21239e-12,1.02964e-37,-1.54946e-06,-3.27827e-12,1.02955e-37,0,-1.0664e-13,0,0,-7.75219,-0.199407,0.0881106,0,0,0,0,0,-0.275776,-0.199407,149,25,149,25,195,25,149,78,0.261799,-0.261799,-2.21715e-07,-1.5,nan,0,0,3,-0.314474,-0.434532,0,0,0,0,-0.0269473,-0.126689,2438
1910,-3.21239e-12,1.02964e-37,-1.54946e-06,-3.27827e-12,1.02955e-37,-3.40903e-12,-1.06641e-13,0,0,-7.75219,-0.199407,0.0881106,0,0,0,0,0,-0.275776,-0.199407,149,25,149,25,195,25,149,78,0.261799,-0.261799,-2.14267e-07,-1.5,nan,0,0,3,-0.314932,-0.436686,0,0,0,0,-0.0269473,-0.126689,2438
1920,-3.21239e-12,1.02964e-37,-1.54946e-06,-3.27827e-12,1.02955e-37,0,-1.06641e-13,0,0,-6.43598,-0.174625,0.0424283,0,0,0,0,0,0.277062,-0.174625,141,10,141,10,204,10,141,66,0.141333,-0.261799,-2.05377e-07,-1.5,nan,0,0,3,-0.264954,-0.167851,0,0,0,0,0.00514413,0.0841805,3528
1930,-3.21239e-12,1.02964e-37,-1.54946e-06,-3.27827e-12,1.02955e-37,-3.40903e-12,-1.06641e-13,0,0,-6.43598,-0.174625,0.0424283,0,0,0,0,0,0.277062,-0.174625,141,10,141,10,204,10,141,66,0.138944,-0.261799,-1.97671e-07,-1.5,nan,0,0,3,-0.264856,-0.166251,0,0,0,0,0.00514413,0.0841805,3528
1940,-3.21239e-12,1.02964e-37,-1.54946e-06,-3.27827e-12,1.02955e-37,0,-1.06642e-13,0,0,-6.43598,-0.174625,0.0424283,0,0,0,0,0,0.277062,-0.174625,141,10,141,10,204,10,141,66,0.136806,-0.261799,-1.9103e-07,-1.5,nan,0,0,3,-0.264769,-0.16482,0,0,0,0,0.00514413,0.0841805,3528
1950,-3.21239e-12,1.02964e-37,-1.54946e-06,-3.27827e-12,1.02955e-37,-3.40903e-12,-1.06645e-13,0,0,-6.45041,-0.147398,0.0368109,0,0,0,0,0,0.271822,-0.147398,140,10,140,10,202,10,140,67,0.107122,-0.261799,-1.83502e-07,-1.5,nan,0,0,3,0.256651,-0.152064,0,0,0,0,0.433547,0.092355,3534
1960,-3.21239e-12,1.02964e-37,-1.54946e-06,-3.27827e-12,1.02955e-37,0,-1.06642e-13,0,0,-6.45041,-0.147398,0.0368109,0,0,0,0,0,0.271822,-0.147398,140,10,140,10,202,10,140,67,0.104915,-0.261799,-1.77698e-07,-1.5,nan,0,0,3,0.263587,-0.150587,0,0,0,0,0.433547,0.092355,3534
1970,-3.21239e-12,1.02964e-37,-1.54946e-06,-3.27827e-12,1.02955e-37,-3.40903e-12,-1.06642e-13,0,0,-6.45041,-0.147398,0.0368109,0,0,0,0,0,0.271822,-0.147398,140,10,140,10,202,10,140,67,0.102983,-0.261799,-1.72775e-07,-1.5,nan,0,0,3,0.269657,-0.149294,0,0,0,0,0.433547,0.092355,3534
1980,-3.21239e-12,1.02964e-37,-1.54946e-06,-3.27827e-12,1.02955e-37,0,-1.06643e-13,0,0,-6.45041,-0.147398,0.0368109,0,0,0,0,0,0.271822,-0.147398,140,10,140,10,202,10,140,67,0.100637,-0.261799,-1.66967e-07,-1.5,nan,0,0,3,0.277027,-0.147724,0,0,0,0,0.433547,0.092355,3534
1990,-3.21239e-12,1.02964e-37,-1.54946e-06,-3.27827e-12,1.02955e-37,-3.40903e-12,-1.06644e-13,0,0,-6.52592,-0.177048,0.0849153,0,0,0,0,0,0.244104,-0.177048,141,10,141,10,204,10,141,64,0.162226,-0.261799,-1.60058e-07,-1.5,nan,0,0,3,0.245699,-0.165663,0,0,0,0,0.397251,0.065595,3402
2000,-3.21239e-12,1.02964e-37,-1.54946e-06,-3.27827e-12,1.02955e-37,0,-1.06643e-13,0,0,-6.52592,-0.177048,0.0849153,0,0,0,0,0,0.244104,-0.177048,141,10,141,10,204,10,141,64,0.160364,-0.261799,-1.54052e-07,-1.5,nan,0,0,3,0.253247,-0.164416,0,0,0,0,0.397251,0.065595,3402
2010,-3.21239e-12,1.02964e-37,-1.54946e-06,-3.27827e-12,1.02955e-37,-3.40903e-12,-1.06643e-13,0,0,-6.52592,-0.177048,0.0849153,0,0,0,0,0,0.244104,-0.177048,141,10,141,10,204,10,141,64,0.158698,-0.261799,-1.48873e-07,-1.5,nan,0,0,3,0.26,-0.163301,0,0,0,0,0.397251,0.065595,3402
2020,-3.21239e-12,1.02964e-37,-1.54946e-06,-3.27827e-12,1.02955e-37,0,-1.06643e-13,0,0,-6.52592,-0.177048,0.0849153,0,0,0,0,0,0.244104,-0.177048,141,10,141,10,204,10,141,64,0.157032,-0.261799,-1.43868e-07,-1.5,nan,0,0,3,0.266753,-0.162186,0,0,0,0,0.397251,0.065595,3402
2030,-3.21239e-12,1.02964e-37,-1.54946e-06,-3.27827e-12,1.02955e-37,-3.40903e-12,-1.06647e-13,0,0,-6.43598,-0.174625,0.0424283,0,0,0,0,0,0.277062,-0.174625,141,10,141,10,204,10,141,66,0.15668,-0.261799,-1.37899e-07,-1.5,nan,0,0,3,0.292827,-0.164747,0,0,0,0,0.434104,0.0688091,3528
2040,-3.21239e-12,1.02964e-37,-1.54946e-06,-3.27827e-12,1.02955e-37,0,-1.06644e-13,0,0,-6.43598,-0.174625,0.0424283,0,0,0,0,0,0.277062,-0.174625,141,10,141,10,204,10,141,66,0.154727,-0.261799,-1.3272e-07,-1.5,nan,0,0,3,0.301075,-0.16344,0,0,0,0,0.434104,0.0688091,3528
2050,-3.21239e-12,1.02964e-37,-1.54946e-06,-3.27827e-12,1.02955e-37,-3.40903e-12,-1.06644e-13,0,0,-6.43598,-0.174625,0.0424283,0,0,0,0,0,0.277062,-0.174625,141,10,141,10,204,10,141,66,0.152876,-0.261799,-1.28001e-07,-1.5,nan,0,0,3,0.308889,-0.162201,0,0,0,0,0.434104,0.0688091,3528
2060,-3.21239e-12,1.02964e-37,-1.54946e-06,-3.27827e-12,1.02955e-37,0,-1.06648e-13,0,0,-6.45024,-0.165818,0.0552009,0,0,0,0,0,0.271883,-0.165818,141,9,141,9,203,9,141,66,0.159435,-0.261799,-1.22707e-07,-1.5,nan,0,0,3,0.309541,-0.163069,0,0,0,0,0.416447,0.0647611,3534
2070,-3.21239e-12,1.02964e-37,-1.54946e-06,-3.27827e-12,1.02955e-37,-3.40903e-12,-1.06647e-13,0,0,-6.45024,-0.165818,0.0552009,0,0,0,0,0,0.271883,-0.165818,141,9,141,9,203,9,141,66,0.1575,-0.261799,-1.17866e-07,-1.5,nan,0,0,3,0.31787,-0.161774,0,0,0,0,0.416447,0.0647611,3534
2080,-3.21239e-12,1.02964e-37,-1.54946e-06,-3.27827e-12,1.02955e-37,0,-1.06647e-13,0,0,-6.45024,-0.165818,0.0552009,0,0,0,0,0,0.271883,-0.165818,141,9,141,9,203,9,141,66,0.155855,-0.261799,-1.13903e-07,-1.5,nan,0,0,3,0.324949,-0.160673,0,0,0,0,0.416447,0.0647611,3534
2090,-3.21239e-12,1.02964e-37,-1.54946e-06,-3.27827e-12,1.02955e-37,-3.40903e-12,-1.06648e-13,0,0,-6.45024,-0.165818,0.0552009,0,0,0,0,0,0.271883,-0.165818,141,9,141,9,203,9,141,66,0.15421,-0.261799,-1.10074e-07,-1.5,nan,0,0,3,0.332029,-0.159572,0,0,0,0,0.416447,0.0647611,3534
2100,-3.21239e-12,1.02964e-37,-1.54946e-06,-3.27827e-12,1.02955e-37,0,-1.06649e-13,0,0,-6.40256,-0.164601,0.0333541,0,0,0,0,0,0.289126,-0.164601,141,9,141,9,203,9,141,67,0.161237,-0.261799,-1.05724e-07,-1.5,nan,0,0,3,0.350535,-0.160466,0,0,0,0,0.482829,0.0603837,3596
2110,-3.21239e-12,1.02964e-37,-1.54946e-06,-3.27827e-12,1.02955e-37,-3.40903e-12,-1.06648e-13,0,0,-6.40256,-0.164601,0.0333541,0,0,0,0,0,0.289126,-0.164601,141,9,141,9,203,9,141,67,0.159703,-0.261799,-1.02172e-07,-1.5,nan,0,0,3,0.358743,-0.159439,0,0,0,0,0.482829,0.0603837,3596
2120,-3.21239e-12,1.02964e-37,-1.54946e-06,-3.27827e-12,1.02955e-37,0,-1.06648e-13,0,0,-6.40256,-0.164601,0.0333541,0,0,0,0,0,0.289126,-0.164601,141,9,141,9,203,9,141,67,0.15853,-0.261799,-9.95417e-08,-1.5,nan,0,0,3,0.365019,-0.158655,0,0,0,0,0.482829,0.0603837,3596
2130,-3.21239e-12,1.02964e-37,-1.54946e-06,-3.27827e-12,1.02955e-37,-3.40903e-12,-1.06649e-13,0,0,-6.40256,-0.164601,0.0333541,0,0,0,0,0,0.289126,-0.164601,141,9,141,9,203,9,141,67,0.156997,-0.261799,-9.61953e-08,-1.5,nan,0,0,3,0.373227,-0.157628,0,0,0,0,0.482829,0.0603837,3596
2140,-3.21239e-12,1.02964e-37,-1.54946e-06,-3.27827e-12,1.02955e-37,0,-1.0665e-13,0,0,-6.59149,-0.188249,0.102241,0,0,0,0,0,0.219633,-0.188249,142,10,142,10,204,10,142,64,0.125511,-0.261799,-9.20189e-08,-1.5,nan,0,0,3,0.347365,-0.157554,0,0,0,0,0.472007,0.0845181,3348
2150,-3.21239e-12,1.02964e-37,-1.54946e-06,-3.27827e-12,1.02955e-37,-3.40903e-12,-1.06649e-13,0,0,-6.59149,-0.188249,0.102241,0,0,0,0,0,0.219633,-0.188249,142,10,142,10,204,10,142,64,0.12286,-0.261799,-8.82046e-08,-1.5,nan,0,0,3,0.357277,-0.155779,0,0,0,0,0.472007,0.0845181,3348
2160,-3.21239e-12,1.02964e-37,-1.54946e-06,-3.27827e-12,1.02955e-37,0,-1.0665e-13,0,0,-6.59149,-0.188249,0.102241,0,0,0,0,0,0.219633,-0.188249,142,10,142,10,204,10,142,64,0.120713,-0.261799,-8.5413e-08,-1.5,nan,0,0,3,0.3653,-0.154342,0,0,0,0,0.472007,0.0845181,3348
2170,-3.21239e-12,1.02964e-37,-1.54946e-06,-3.27827e-12,1.02955e-37,-3.40903e-12,-1.06651e-13,0,0,-6.45024,-0.165818,0.0552009,0,0,0,0,0,0.271883,-0.165818,141,9,141,9,203,9,141,66,0.136279,-0.261799,-8.18806e-08,-1.5,nan,0,0,3,0.369642,-0.152411,0,0,0,0,0.468065,0.0703241,3534
2180,-3.21239e-12,1.02964e-37,-1.54946e-06,-3.27827e-12,1.02955e-37,0,-1.0665e-13,0,0,-6.45024,-0.165818,0.0552009,0,0,0,0,0,0.271883,-0.165818,141,9,141,9,203,9,141,66,0.134283,-0.261799,-7.86474e-08,-1.5,nan,0,0,3,0.378535,-0.151074,0,0,0,0,0.468065,0.0703241,3534
2190,-3.21239e-12,1.02964e-37,-1.54946e-06,-3.27827e-12,1.02955e-37,-3.40903e-12,-1.0665e-13,0,0,-6.45024,-0.165818,0.0552009,0,0,0,0,0,0.271883,-0.165818,141,9,141,9,203,9,141,66,0.132392,-0.261799,-7.60053e-08,-1.5,nan,0,0,3,0.386959,-0.149809,0,0,0,0,0.468065,0.0703241,3534
2200,-3.21239e-12,1.02964e-37,-1.54946e-06,-3.27827e-12,1.02955e-37,0,-1.06651e-13,0,0,-6.45024,-0.165818,0.0552009,0,0,0,0,0,0.271883,-0.165818,141,9,141,9,203,9,141,66,0.130606,-0.261799,-7.34519e-08,-1.5,nan,0,0,3,0.394916,-0.148613,0,0,0,0,0.468065,0.0703241,3534
2210,-3.21239e-12,1.02964e-37,-1.54946e-06,-3.27827e-12,1.02955e-37,-3.40903e-12,-1.06647e-13,0,0,-6.33037,-0.162718,0.0237163,0,0,0,0,0,0.314857,-0.162718,140,9,140,9,204,9,140,66,0.160705,-0.261799,-7.05489e-08,-1.5,nan,0,0,3,0.37191,-0.155308,0,0,0,0,0.38615,0.0548649,3648
2220,-3.21239e-12,1.02964e-37,-1.54946e-06,-3.27827e-12,1.02955e-37,0,-1.06651e-13,0,0,-6.33037,-0.162718,0.0237163,0,0,0,0,0,0.314857,-0.162718,140,9,140,9,204,9,140,66,0.158983,-0.261799,-6.77606e-08,-1.5,nan,0,0,3,0.380019,-0.154155,0,0,0,0,0.38615,0.0548649,3648
2230,-3.21239e-12,1.02964e-37,-1.54946e-06,-3.27827e-12,1.02955e-37,-3.40903e-12,-1.06645e-13,0,0,-6.33037,-0.162718,0.0237163,0,0,0,0,0,0.314857,-0.162718,140,9,140,9,204,9,140,66,0.15759,-0.261799,-6.54827e-08,-1.5,nan,0,0,3,0.386583,-0.153223,0,0,0,0,0.38615,0.0548649,3648
2240,-3.21239e-12,1.02964e-37,-1.54946e-06,-3.27827e-12,1.02955e-37,0,-1.06646e-13,0,0,-6.4976,-0.167027,0.0770997,0,0,0,0,0,0.254559,-0.167027,141,9,141,9,203,9,141,65,0.184937,-0.261799,-6.26469e-08,-1.5,nan,0,0,3,0.372843,-0.158842,0,0,0,0,0.374648,0.0402864,3472
2250,-3.21239e-12,1.02964e-37,-1.54946e-06,-3.27827e-12,1.02955e-37,-3.40903e-12,-1.06645e-13,0,0,-6.4976,-0.167027,0.0770997,0,0,0,0,0,0.254559,-0.167027,141,9,141,9,203,9,141,65,0.183794,-0.261799,-6.0298e-08,-1.5,nan,0,0,3,0.379961,-0.158077,0,0,0,0,0.374648,0.0402864,3472
2260,-3.21239e-12,1.02964e-37,-1.54946e-06,-3.27827e-12,1.02955e-37,0,-1.06645e-13,0,0,-6.4976,-0.167027,0.0770997,0,0,0,0,0,0.254559,-0.167027,141,9,141,9,203,9,141,65,0.182891,-0.261799,-5.85092e-08,-1.5,nan,0,0,3,0.385581,-0.157473,0,0,0,0,0.374648,0.0402864,3472
2270,-3.21239e-12,1.02964e-37,-1.54946e-06,-3.27827e-12,1.02955e-37,-3.40903e-12,-1.06646e-13,0,0,-6.4976,-0.167027,0.0770997,0,0,0,0,0,0.254559,-0.167027,141,9,141,9,203,9,141,65,0.182048,-0.261799,-5.70029e-08,-1.5,nan,0,0,3,0.390825,-0.156909,0,0,0,0,0.374648,0.0402864,3472
2280,-3.21239e-12,1.02964e-37,-1.54946e-06,-3.27827e-12,1.02955e-37,0,-1.06646e-13,0,0,-6.4976,-0.167027,0.0770997,0,0,0,0,0,0.254559,-0.167027,141,9,141,9,203,9,141,65,0.135672,-0.261799,-5.46454e-08,-1.5,nan,0,0,3,0.364557,-0.145063,0,0,0,0,0.356433,0.0623473,3472
2290,-3.21239e-12,1.02964e-37,-1.54946e-06,-3.27827e-12,1.02955e-37,-3.40903e-12,-1.06652e-13,0,0,-6.4976,-0.167027,0.0770997,0,0,0,0,0,0.254559,-0.167027,141,9,141,9,203,9,141,65,0.133902,-0.261799,-5.2595e-08,-1.5,nan,0,0,3,0.371329,-0.143878,0,0,0,0,0.356433,0.0623473,3472
2300,-3.21239e-12,1.02964e-37,-1.54946e-06,-3.27827e-12,1.02955e-37,0,-1.06652e-13,0,0,-6.4976,-0.167027,0.0770997,0,0,0,0,0,0.254559,-0.167027,141,9,141,9,203,9,141,65,0.132319,-0.261799,-5.08268e-08,-1.5,nan,0,0,3,0.377388,-0.142819,0,0,0,0,0.356433,0.0623473,3472
2310,-3.21239e-12,1.02964e-37,-1.54946e-06,-3.27827e-12,1.02955e-37,-3.40903e-12,-1.06652e-13,0,0,-6.4976,-0.167027,0.0770997,0,0,0,0,0,0.254559,-0.167027,141,9,141,9,203,9,141,65,0.130735,-0.261799,-4.91181e-08,-1.5,nan,0,0,3,0.383447,-0.141759,0,0,0,0,0.356433,0.0623473,3472
2320,-3.21239e-12,1.02964e-37,-1.54946e-06,-3.27827e-12,1.02955e-37,0,-1.06656e-13,0,0,-6.62244,-0.189172,0.110074,0,0,0,0,0,0.207952,-0.189172,143,9,143,9,203,9,143,65,0.202545,-0.261799,-4.70868e-08,-1.5,nan,0,0,3,0.366495,-0.161213,0,0,0,0,0.321488,0.0294661,3360
2330,-3.21239e-12,1.02964e-37,-1.54946e-06,-3.27827e-12,1.02955e-37,-3.40903e-12,-1.06653e-13,0,0,-6.62244,-0.189172,0.110074,0,0,0,0,0,0.207952,-0.189172,143,9,143,9,203,9,143,65,0.201709,-0.261799,-4.532e-08,-1.5,nan,0,0,3,0.372603,-0.160653,0,0,0,0,0.321488,0.0294661,3360
2340,-3.21239e-12,1.02964e-37,-1.54946e-06,-3.27827e-12,1.02955e-37,0,-1.06653e-13,0,0,-6.62244,-0.189172,0.110074,0,0,0,0,0,0.207952,-0.189172,143,9,143,9,203,9,143,65,0.200961,-0.261799,-4.37964e-08,-1.5,nan,0,0,3,0.378068,-0.160152,0,0,0,0,0.321488,0.0294661,3360
2350,-3.21239e-12,1.02964e-37,-1.54946e-06,-3.27827e-12,1.02955e-37,-3.40903e-12,-1.06653e-13,0,0,-6.62244,-0.189172,0.110074,0,0,0,0,0,0.207952,-0.189172,143,9,143,9,203,9,143,65,0.200212,-0.261799,-4.23241e-08,-1.5,nan,0,0,3,0.383533,-0.159651,0,0,0,0,0.321488,0.0294661,3360
2360,-3.21239e-12,1.02964e-37,-1.54946e-06,-3.27827e-12,1.02955e-37,0,-1.06657e-13,0,0,-6.86875,-0.186418,0.16551,0,0,0,0,0,0.111998,-0.186418,144,10,144,10,201,10,144,65,-0.0847158,-0.261799,-4.04847e-08,-1.5,nan,0,0,3,0.392882,-0.103568,0,0,0,0,0.332592,0.184189,3135
2370,-3.21239e-12,1.02964e-37,-1.54946e-06,-3.27827e-12,1.02955e-37,-3.40903e-12,-1.06656e-13,0,0,-6.86875,-0.186418,0.16551,0,0,0,0,0,0.111998,-0.186418,144,10,144,10,201,10,144,65,-0.0899441,-0.261799,-3.89656e-08,-1.5,nan,0,0,3,0.399201,-0.100068,0,0,0,0,0.332592,0.184189,3135
2380,-3.21239e-12,1.02964e-37,-1.54946e-06,-3.27827e-12,1.02955e-37,0,-1.06656e-13,0,0,-6.86875,-0.186418,0.16551,0,0,0,0,0,0.111998,-0.186418,144,10,144,10,201,10,144,65,-0.0946219,-0.261799,-3.76556e-08,-1.5,nan,0,0,3,0.404855,-0.0969371,0,0,0,0,0.332592,0.184189,3135
2390,-3.21239e-12,1.02964e-37,-1.54946e-06,-3.27827e-12,1.02955e-37,-3.40903e-12,-1.06658e-13,0,0,-6.55986,-0.178006,0.0935452,0,0,0,0,0,0.231484,-0.178006,142,9,142,9,203,9,142,65,0.200762,-0.261799,-3.6025e-08,-1.5,nan,0,0,3,0.363629,-0.157917,0,0,0,0,0.282545,0.0270508,3416
2400,-3.21239e-12,1.02964e-37,-1.54946e-06,-3.27827e-12,1.02955e-37,0,-1.06656e-13,0,0,-6.55986,-0.178006,0.0935452,0,0,0,0,0,0.231484,-0.178006,142,9,142,9,203,9,142,65,0.200034,-0.261799,-3.4744e-08,-1.5,nan,0,0,3,0.368715,-0.15743,0,0,0,0,0.282545,0.0270508,3416
2410,-3.21239e-12,1.02964e-37,-1.54946e-06,-3.27827e-12,1.02955e-37,-3.40903e-12,-1.06657e-13,0,0,-6.55986,-0.178006,0.0935452,0,0,0,0,0,0.231484,-0.178006,142,9,142,9,203,9,142,65,0.199428,-0.261799,-3.37133e-08,-1.5,nan,0,0,3,0.372953,-0.157025,0,0,0,0,0.282545,0.0270508,3416
2420,-3.21239e-12,1.02964e-37,-1.54946e-06,-3.27827e-12,1.02955e-37,0,-1.06657e-13,0,0,-6.55986,-0.178006,0.0935452,0,0,0,0,0,0.231484,-0.178006,142,9,142,9,203,9,142,65,0.198903,-0.261799,-3.28453e-08,-1.5,nan,0,0,3,0.376626,-0.156673,0,0,0,0,0.282545,0.0270508,3416
2430,-3.21239e-12,1.02964e-37,-1.54946e-06,-3.27827e-12,1.02955e-37,-3.40903e-12,-1.06653e-13,0,0,-6.69321,-0.15298,0.11902,0,0,0,0,0,0.180923,-0.15298,142,9,142,9,200,9,142,66,0.196072,-0.261799,-3.1423e-08,-1.5,nan,0,0,3,0.343472,-0.155558,0,0,0,0,0.236493,0.0279475,3306
2440,-3.21239e-12,1.02964e-37,-1.54946e-06,-3.27827e-12,1.02955e-37,0,-1.06654e-13,0,0,-6.69321,-0.15298,0.11902,0,0,0,0,0,0.180923,-0.15298,142,9,142,9,200,9,142,66,0.195195,-0.261799,-3.01204e-08,-1.5,nan,0,0,3,0.348438,-0.154971,0,0,0,0,0.236493,0.0279475,3306
2450,-3.21239e-12,1.02964e-37,-1.54946e-06,-3.27827e-12,1.02955e-37,-3.40903e-12,-1.06654e-13,0,0,-6.69321,-0.15298,0.11902,0,0,0,0,0,0.180923,-0.15298,142,9,142,9,200,9,142,66,0.194485,-0.261799,-2.91086e-08,-1.5,nan,0,0,3,0.352458,-0.154496,0,0,0,0,0.236493,0.0279475,3306
2460,-3.21239e-12,1.02964e-37,-1.54946e-06,-3.27827e-12,1.02955e-37,0,-1.06654e-13,0,0,-6.69321,-0.15298,0.11902,0,0,0,0,0,0.180923,-0.15298,142,9,142,9,200,9,142,66,0.191261,-0.261799,-2.79043e-08,-1.5,nan,0,0,3,0.337081,-0.154077,0,0,0,0,0.181031,0.0299453,3306
2470,-3.21239e-12,1.02964e-37,-1.54946e-06,-3.27827e-12,1.02955e-37,-3.40903e-12,-1.06654e-13,0,0,-6.69321,-0.15298,0.11902,0,0,0,0,0,0.180923,-0.15298,142,9,142,9,200,9,142,66,0.190501,-0.261799,-2.69669e-08,-1.5,nan,0,0,3,0.340158,-0.153568,0,0,0,0,0.181031,0.0299453,3306
2480,-3.21239e-12,1.02964e-37,-1.54946e-06,-3.27827e-12,1.02955e-37,0,-1.06655e-13,0,0,-6.69321,-0.15298,0.11902,0,0,0,0,0,0.180923,-0.15298,142,9,142,9,200,9,142,66,0.189651,-0.261799,-2.5955e-08,-1.5,nan,0,0,3,0.343598,-0.152999,0,0,0,0,0.181031,0.0299453,3306
