timestamp,A_x,A_y,A_z,P,Q,R,Phi,Theta,Psi,poseX,poseY,poseZ,state_X,state_Y,state_Z,state_VzB,state_Bx,state_By,state_Bz,p1_x,p1_y,p2_x,p2_y,p3_x,p3_y,p4_x,p4_y,roll,pitch,yaw,alt,targetHeading,highLevelState,lowLevelState,gateNumber,filtered_x,filtered_y,x_OT,y_OT,vx_OT,vy_OT,filtered_vx,filtered_vygateArea
10,0,0,0,0,0,0,0,0,0,0,0,0,0,0,0,0,0,0,0,0,0,0,0,0,0,0,0,0,-0.261799,0.00779127,-1.5,nan,0,0,3,0,0,0,0,0,0,0,0,1.9603e-19
20,0,0,0,0,0,0,0,0,0,0,0,0,0,0,0,0,0,0,0,0,0,0,0,0,0,0,0,0,-0.261799,0.00751401,-1.5,nan,0,0,3,0,0,0,0,0,0,0,0,1.9603e-19
30,-3.21239e-12,1.58208e-38,-1.55877e-06,-3.27827e-12,1.58196e-38,-3.40903e-12,-1.06589e-13,0,0,0,0,0,0,0,0,0,0,0,0,0,0,0,0,0,0,0,0,0,-0.261799,-0.00159721,-1.5,nan,0,0,3,0,0,0,0,0,0,0,0,1.9603e-19
40,-3.21239e-12,1.58208e-38,-1.55877e-06,-3.27827e-12,1.58196e-38,0,-1.0659e-13,0,0,0,0,0,0,0,0,0,0,0,0,0,0,0,0,0,0,0,0,0,-0.261799,-0.00154352,-1.5,nan,0,0,3,0,0,0,0,0,0,0,0,1.9603e-19
50,-3.21239e-12,1.58208e-38,-1.55877e-06,-3.27827e-12,1.58196e-38,-3.40903e-12,-1.0659e-13,0,0,0,0,0,0,0,0,0,0,0,0,0,0,0,0,0,0,0,0,0,-0.261799,-0.00149163,-1.5,nan,0,0,3,0,0,0,0,0,0,0,0,1.9603e-19
60,-3.21239e-12,1.58208e-38,-1.55877e-06,-3.27827e-12,1.58196e-38,0,-1.0659e-13,0,0,0,0,0,0,0,0,0,0,0,0,0,0,0,0,0,0,0,0,0,-0.261799,-0.00116845,-1.5,nan,0,0,3,0,0,0,0,0,0,0,0,1.9603e-19
70,-3.21239e-12,1.58208e-38,-1.55877e-06,-3.27827e-12,1.58196e-38,-3.40903e-12,-1.0659e-13,0,0,0,0,0,0,0,0,0,0,0,0,0,0,0,0,0,0,0,0,0,-0.261799,-0.000940999,-1.5,nan,0,0,3,0,0,0,0,0,0,0,0,1.9603e-19
80,-3.21239e-12,1.58208e-38,-1.55877e-06,-3.27827e-12,1.58196e-38,0,-1.06591e-13,0,0,0,0,0,0,0,0,0,0,0,0,0,0,0,0,0,0,0,0,0,-0.261799,-0.000785547,-1.5,nan,0,0,3,0,0,0,0,0,0,0,0,1.9603e-19
90,-3.21239e-12,1.58208e-38,-1.55877e-06,-3.27827e-12,1.58196e-38,-3.40903e-12,-1.06591e-13,0,0,0,0,0,0,0,0,0,0,0,0,0,0,0,0,0,0,0,0,0,-0.261799,-0.000635717,-1.5,nan,0,0,3,0,0,0,0,0,0,0,0,1.9603e-19
100,-3.21239e-12,1.58208e-38,-1.55877e-06,-3.27827e-12,1.58196e-38,0,-1.06591e-13,0,0,0,0,0,0,0,0,0,0,0,0,0,0,0,0,0,0,0,0,0,-0.261799,-0.000574402,-1.5,nan,0,0,3,0,0,0,0,0,0,0,0,1.9603e-19
110,-3.21239e-12,1.58208e-38,-1.55877e-06,-3.27827e-12,1.58196e-38,-3.40903e-12,-1.06591e-13,0,0,0,0,0,0,0,0,0,0,0,0,0,0,0,0,0,0,0,0,0,-0.261799,-0.000518915,-1.5,nan,0,0,3,0,0,0,0,0,0,0,0,1.9603e-19
120,-3.21239e-12,1.58208e-38,-1.55877e-06,-3.27827e-12,1.58196e-38,0,-1.06592e-13,0,0,0,0,0,0,0,0,0,0,0,0,0,0,0,0,0,0,0,0,0,-0.261799,-0.000500449,-1.5,nan,0,0,3,0,0,0,0,0,0,0,0,1.9603e-19
130,-3.21239e-12,1.58208e-38,-1.55877e-06,-3.27827e-12,1.58196e-38,-3.40903e-12,-1.06592e-13,0,0,0,0,0,0,0,0,0,0,0,0,0,0,0,0,0,0,0,0,0,-0.261799,-0.000483625,-1.5,nan,0,0,3,0,0,0,0,0,0,0,0,1.9603e-19
140,-3.21239e-12,1.58208e-38,-1.55877e-06,-3.27827e-12,1.58196e-38,0,-1.06592e-13,0,0,0,0,0,0,0,0,0,0,0,0,0,0,0,0,0,0,0,0,0,-0.261799,-0.000457878,-1.5,nan,0,0,3,0,0,0,0,0,0,0,0,1.9603e-19
150,-3.21239e-12,1.58208e-38,-1.55877e-06,-3.27827e-12,1.58196e-38,-3.40903e-12,-1.06593e-13,0,0,0,0,0,0,0,0,0,0,0,0,0,0,0,0,0,0,0,0,0,-0.261799,-0.000435301,-1.5,nan,0,0,3,0,0,0,0,0,0,0,0,1.9603e-19
160,-3.21239e-12,1.58208e-38,-1.55877e-06,-3.27827e-12,1.58196e-38,0,-1.06593e-13,0,0,0,0,0,0,0,0,0,0,0,0,0,0,0,0,0,0,0,0,0,-0.261799,-0.000418097,-1.5,nan,0,0,3,0,0,0,0,0,0,0,0,1.9603e-19
170,-3.21239e-12,1.58208e-38,-1.55877e-06,-3.27827e-12,1.58196e-38,-3.40903e-12,-1.06593e-13,0,0,0,0,0,0,0,0,0,0,0,0,0,0,0,0,0,0,0,0,0,-0.261799,-0.000374417,-1.5,nan,0,0,3,0,0,0,0,0,0,0,0,1.9603e-19
180,-3.21239e-12,1.58208e-38,-1.55877e-06,-3.27827e-12,1.58196e-38,0,-1.06593e-13,0,0,0,0,0,0,0,0,0,0,0,0,0,0,0,0,0,0,0,0,0,-0.261799,-0.000362567,-1.5,nan,0,0,3,0,0,0,0,0,0,0,0,1.9603e-19
190,-3.21239e-12,1.58208e-38,-1.55877e-06,-3.27827e-12,1.58196e-38,-3.40903e-12,-1.06594e-13,0,0,0,0,0,0,0,0,0,0,0,0,0,0,0,0,0,0,0,0,0,-0.261799,-0.000347538,-1.5,nan,0,0,3,0,0,0,0,0,0,0,0,1.9603e-19
200,-3.21239e-12,1.58208e-38,-1.55877e-06,-3.27827e-12,1.58196e-38,0,-1.06594e-13,0,0,0,0,0,0,0,0,0,0,0,0,0,0,0,0,0,0,0,0,0,-0.261799,-0.000335854,-1.5,nan,0,0,3,0,0,0,0,0,0,0,0,1.9603e-19
210,-3.21239e-12,1.58208e-38,-1.55877e-06,-3.27827e-12,1.58196e-38,-3.40903e-12,-1.06594e-13,0,0,0,0,0,0,0,0,0,0,0,0,0,0,0,0,0,0,0,0,0,-0.261799,-0.000324571,-1.5,nan,0,0,3,0,0,0,0,0,0,0,0,1.9603e-19
220,-3.21239e-12,1.58208e-38,-1.55877e-06,-3.27827e-12,1.58196e-38,0,-1.06594e-13,0,0,0,0,0,0,0,0,0,0,0,0,0,0,0,0,0,0,0,0,0,-0.261799,-0.000314938,-1.5,nan,0,0,3,0,0,0,0,0,0,0,0,1.9603e-19
230,-3.21239e-12,1.58208e-38,-1.55877e-06,-3.27827e-12,1.58196e-38,-3.40903e-12,-1.06595e-13,0,0,0,0,0,0,0,0,0,0,0,0,0,0,0,0,0,0,0,0,0,-0.261799,-0.000306832,-1.5,nan,0,0,3,0,0,0,0,0,0,0,0,1.9603e-19
240,-3.21239e-12,1.58208e-38,-1.55877e-06,-3.27827e-12,1.58196e-38,0,-1.06595e-13,0,0,0,0,0,0,0,0,0,0,0,0,0,0,0,0,0,0,0,0,0,-0.261799,-0.000298329,-1.5,nan,0,0,3,0,0,0,0,0,0,0,0,1.9603e-19
250,-3.21239e-12,1.58208e-38,-1.55877e-06,-3.27827e-12,1.58196e-38,-3.40903e-12,-1.06595e-13,0,0,0,0,0,0,0,0,0,0,0,0,0,0,0,0,0,0,0,0,0,-0.261799,-0.000286538,-1.5,nan,0,0,3,0,0,0,0,0,0,0,0,1.9603e-19
260,-3.21239e-12,1.58208e-38,-1.55877e-06,-3.27827e-12,1.58196e-38,0,-1.06596e-13,0,0,0,0,0,0,0,0,0,0,0,0,0,0,0,0,0,0,0,0,0,-0.261799,-0.000276905,-1.5,nan,0,0,3,0,0,0,0,0,0,0,0,1.9603e-19
270,-3.21239e-12,1.58208e-38,-1.55877e-06,-3.27827e-12,1.58196e-38,-3.40903e-12,-1.06596e-13,0,0,0,0,0,0,0,0,0,0,0,0,0,0,0,0,0,0,0,0,0,-0.261799,-0.000265416,-1.5,nan,0,0,3,0,0,0,0,0,0,0,0,1.9603e-19
280,-3.21239e-12,1.58208e-38,-1.55877e-06,-3.27827e-12,1.58196e-38,0,-1.06596e-13,0,0,0,0,0,0,0,0,0,0,0,0,0,0,0,0,0,0,0,0,0,-0.261799,-0.0002565,-1.5,nan,0,0,3,0,0,0,0,0,0,0,0,1.9603e-19
290,-3.21239e-12,1.58208e-38,-1.55877e-06,-3.27827e-12,1.58196e-38,-3.40903e-12,-1.06596e-13,0,0,0,0,0,0,0,0,0,0,0,0,0,0,0,0,0,0,0,0,0,-0.261799,-0.000248387,-1.5,nan,0,0,3,0,0,0,0,0,0,0,0,1.9603e-19
300,-3.21239e-12,1.58208e-38,-1.55877e-06,-3.27827e-12,1.58196e-38,0,-1.06597e-13,0,0,0,0,0,0,0,0,0,0,0,0,0,0,0,0,0,0,0,0,0,-0.261799,-0.000239554,-1.5,nan,0,0,3,0,0,0,0,0,0,0,0,1.9603e-19
310,-3.21239e-12,1.58208e-38,-1.55877e-06,-3.27827e-12,1.58196e-38,-3.40903e-12,-1.06597e-13,0,0,0,0,0,0,0,0,0,0,0,0,0,0,0,0,0,0,0,0,0,-0.261799,-0.000230566,-1.5,nan,0,0,3,0,0,0,0,0,0,0,0,1.9603e-19
320,-3.21239e-12,1.58208e-38,-1.55877e-06,-3.27827e-12,1.58196e-38,0,-1.06597e-13,0,0,0,0,0,0,0,0,0,0,0,0,0,0,0,0,0,0,0,0,0,-0.261799,-0.000181065,-1.5,nan,0,0,3,0,0,0,0,0,0,0,0,1.9603e-19
330,-3.21239e-12,1.58208e-38,-1.55877e-06,-3.27827e-12,1.58196e-38,-3.40903e-12,-1.06597e-13,0,0,0,0,0,0,0,0,0,0,0,0,0,0,0,0,0,0,0,0,0,-0.261799,-0.000155066,-1.5,nan,0,0,3,0,0,0,0,0,0,0,0,1.9603e-19
340,-3.21239e-12,1.58208e-38,-1.55877e-06,-3.27827e-12,1.58196e-38,0,-1.06598e-13,0,0,0,0,0,0,0,0,0,0,0,0,0,0,0,0,0,0,0,0,0,-0.261799,-0.000149247,-1.5,nan,0,0,3,0,0,0,0,0,0,0,0,1.9603e-19
350,-3.21239e-12,1.58208e-38,-1.55877e-06,-3.27827e-12,1.58196e-38,-3.40903e-12,-1.06598e-13,0,0,0,0,0,0,0,0,0,0,0,0,0,0,0,0,0,0,0,0,0,-0.261799,-0.00014394,-1.5,nan,0,0,3,0,0,0,0,0,0,0,0,1.9603e-19
360,-3.21239e-12,1.58208e-38,-1.55877e-06,-3.27827e-12,1.58196e-38,0,-1.06598e-13,0,0,0,0,0,0,0,0,0,0,0,0,0,0,0,0,0,0,0,0,0,-0.261799,-0.000139105,-1.5,nan,0,0,3,0,0,0,0,0,0,0,0,1.9603e-19
370,-3.21239e-12,1.58208e-38,-1.55877e-06,-3.27827e-12,1.58196e-38,-3.40903e-12,-1.06599e-13,0,0,0,0,0,0,0,0,0,0,0,0,0,0,0,0,0,0,0,0,0,-0.261799,-0.000134702,-1.5,nan,0,0,3,0,0,0,0,0,0,0,0,1.9603e-19
380,-3.21239e-12,1.58208e-38,-1.55877e-06,-3.27827e-12,1.58196e-38,0,-1.06599e-13,0,0,0,0,0,0,0,0,0,0,0,0,0,0,0,0,0,0,0,0,0,-0.261799,-0.000129648,-1.5,nan,0,0,3,0,0,0,0,0,0,0,0,1.9603e-19
390,-3.21239e-12,1.58208e-38,-1.55877e-06,-3.27827e-12,1.58196e-38,-3.40903e-12,-1.06599e-13,0,0,0,0,0,0,0,0,0,0,0,0,0,0,0,0,0,0,0,0,0,-0.261799,-0.000125034,-1.5,nan,0,0,3,0,0,0,0,0,0,0,0,1.9603e-19
400,-3.21239e-12,1.58208e-38,-1.55877e-06,-3.27827e-12,1.58196e-38,0,-1.06599e-13,0,0,0,0,0,0,0,0,0,0,0,0,0,0,0,0,0,0,0,0,0,-0.261799,-0.000119846,-1.5,nan,0,0,3,0,0,0,0,0,0,0,0,1.9603e-19
410,-3.21239e-12,1.58208e-38,-1.55877e-06,-3.27827e-12,1.58196e-38,-3.40903e-12,-1.066e-13,0,0,0,0,0,0,0,0,0,0,0,0,0,0,0,0,0,0,0,0,0,-0.261799,-0.000115817,-1.5,nan,0,0,3,0,0,0,0,0,0,0,0,1.9603e-19
420,-3.21239e-12,1.58208e-38,-1.55877e-06,-3.27827e-12,1.58196e-38,0,-1.066e-13,0,0,0,0,0,0,0,0,0,0,0,0,0,0,0,0,0,0,0,0,0,-0.261799,-0.000111924,-1.5,nan,0,0,3,0,0,0,0,0,0,0,0,1.9603e-19
430,-3.21239e-12,1.58208e-38,-1.55877e-06,-3.27827e-12,1.58196e-38,-3.40903e-12,-1.066e-13,0,0,0,0,0,0,0,0,0,0,0,0,0,0,0,0,0,0,0,0,0,-0.261799,-0.000108381,-1.5,nan,0,0,3,0,0,0,0,0,0,0,0,1.9603e-19
440,-3.21239e-12,1.58208e-38,-1.55877e-06,-3.27827e-12,1.58196e-38,0,-1.066e-13,0,0,0,0,0,0,0,0,0,0,0,0,0,0,0,0,0,0,0,0,0,-0.261799,-0.000105591,-1.5,nan,0,0,3,0,0,0,0,0,0,0,0,1.9603e-19
450,-3.21239e-12,1.58208e-38,-1.55877e-06,-3.27827e-12,1.58196e-38,-3.40903e-12,-1.06601e-13,0,0,0,0,0,0,0,0,0,0,0,0,0,0,0,0,0,0,0,0,0,-0.261799,-0.000102251,-1.5,nan,0,0,3,0,0,0,0,0,0,0,0,1.9603e-19
460,-3.21239e-12,1.58208e-38,-1.55877e-06,-3.27827e-12,1.58196e-38,0,-1.06601e-13,0,0,0,0,0,0,0,0,0,0,0,0,0,0,0,0,0,0,0,0,0,-0.261799,-9.90169e-05,-1.5,nan,0,0,3,0,0,0,0,0,0,0,0,1.9603e-19
470,-3.21239e-12,1.58208e-38,-1.55877e-06,-3.27827e-12,1.58196e-38,-3.40903e-12,-1.06601e-13,0,0,0,0,0,0,0,0,0,0,0,0,0,0,0,0,0,0,0,0,0,-0.261799,-9.56905e-05,-1.5,nan,0,0,3,0,0,0,0,0,0,0,0,1.9603e-19
480,-3.21239e-12,1.58208e-38,-1.55877e-06,-3.27827e-12,1.58196e-38,0,-1.06602e-13,0,0,0,0,0,0,0,0,0,0,0,0,0,0,0,0,0,0,0,0,0,-0.261799,-9.19086e-05,-1.5,nan,0,0,3,0,0,0,0,0,0,0,0,1.9603e-19
490,-3.21239e-12,1.58208e-38,-1.55877e-06,-3.27827e-12,1.58196e-38,-3.40903e-12,-1.06602e-13,0,0,0,0,0,0,0,0,0,0,0,0,0,0,0,0,0,0,0,0,0,-0.261799,-8.8821e-05,-1.5,nan,0,0,3,0,0,0,0,0,0,0,0,1.9603e-19
500,-3.21239e-12,1.58208e-38,-1.55877e-06,-3.27827e-12,1.58196e-38,0,-1.06602e-13,0,0,0,0,0,0,0,0,0,0,0,0,0,0,0,0,0,0,0,0,0,-0.261799,-8.60098e-05,-1.5,nan,0,0,3,0,0,0,0,0,0,0,0,1.9603e-19
510,-3.21239e-12,1.58208e-38,-1.55877e-06,-3.27827e-12,1.58196e-38,-3.40903e-12,-1.06602e-13,0,0,0,0,0,0,0,0,0,0,0,0,0,0,0,0,0,0,0,0,0,-0.261799,-8.22719e-05,-1.5,nan,0,0,3,0,0,0,0,0,0,0,0,1.9603e-19
520,-3.21239e-12,1.58208e-38,-1.55877e-06,-3.27827e-12,1.58196e-38,0,-1.06603e-13,0,0,0,0,0,0,0,0,0,0,0,0,0,0,0,0,0,0,0,0,0,-0.261799,-7.95081e-05,-1.5,nan,0,0,3,0,0,0,0,0,0,0,0,1.9603e-19
530,-3.21239e-12,1.58208e-38,-1.55877e-06,-3.27827e-12,1.58196e-38,-3.40903e-12,-1.06603e-13,0,0,0,0,0,0,0,0,0,0,0,0,0,0,0,0,0,0,0,0,0,-0.261799,-7.66787e-05,-1.5,nan,0,0,3,0,0,0,0,0,0,0,0,1.9603e-19
540,-3.21239e-12,1.58208e-38,-1.55877e-06,-3.27827e-12,1.58196e-38,0,-1.06603e-13,0,0,0,0,0,0,0,0,0,0,0,0,0,0,0,0,0,0,0,0,0,-0.261799,-7.36509e-05,-1.5,nan,0,0,3,0,0,0,0,0,0,0,0,1.9603e-19
550,-3.21239e-12,1.58208e-38,-1.55877e-06,-3.27827e-12,1.58196e-38,-3.40903e-12,-1.06603e-13,0,0,0,0,0,0,0,0,0,0,0,0,0,0,0,0,0,0,0,0,0,-0.261799,-7.13213e-05,-1.5,nan,0,0,3,0,0,0,0,0,0,0,0,1.9603e-19
560,-3.21239e-12,1.58208e-38,-1.55877e-06,-3.27827e-12,1.58196e-38,0,-1.06604e-13,0,0,0,0,0,0,0,0,0,0,0,0,0,0,0,0,0,0,0,0,0,-0.261799,-6.80814e-05,-1.5,nan,0,0,3,0,0,0,0,0,0,0,0,1.9603e-19
570,-3.21239e-12,1.58208e-38,-1.55877e-06,-3.27827e-12,1.58196e-38,-3.40903e-12,-1.06604e-13,0,0,0,0,0,0,0,0,0,0,0,0,0,0,0,0,0,0,0,0,0,-0.261799,-6.56605e-05,-1.5,nan,0,0,3,0,0,0,0,0,0,0,0,1.9603e-19
580,-3.21239e-12,1.58208e-38,-1.55877e-06,-3.27827e-12,1.58196e-38,0,-1.06604e-13,0,0,0,0,0,0,0,0,0,0,0,0,0,0,0,0,0,0,0,0,0,-0.261799,-6.34547e-05,-1.5,nan,0,0,3,0,0,0,0,0,0,0,0,1.9603e-19
590,-3.21239e-12,1.58208e-38,-1.55877e-06,-3.27827e-12,1.58196e-38,-3.40903e-12,-1.06605e-13,0,0,0,0,0,0,0,0,0,0,0,0,0,0,0,0,0,0,0,0,0,-0.261799,-6.13214e-05,-1.5,nan,0,0,3,0,0,0,0,0,0,0,0,1.9603e-19
600,-3.21239e-12,1.58208e-38,-1.55877e-06,-3.27827e-12,1.58196e-38,0,-1.06605e-13,0,0,0,0,0,0,0,0,0,0,0,0,0,0,0,0,0,0,0,0,0,-0.261799,-5.92614e-05,-1.5,nan,0,0,3,0,0,0,0,0,0,0,0,1.9603e-19
610,-3.21239e-12,1.58208e-38,-1.55877e-06,-3.27827e-12,1.58196e-38,-3.40903e-12,-1.06605e-13,0,0,0,0,0,0,0,0,0,0,0,0,0,0,0,0,0,0,0,0,0,-0.261799,-5.70377e-05,-1.5,nan,0,0,3,0,0,0,0,0,0,0,0,1.9603e-19
620,-3.21239e-12,1.58208e-38,-1.55877e-06,-3.27827e-12,1.58196e-38,0,-1.06605e-13,0,0,0,0,0,0,0,0,0,0,0,0,0,0,0,0,0,0,0,0,0,-0.261799,-5.46712e-05,-1.5,nan,0,0,3,0,0,0,0,0,0,0,0,1.9603e-19
630,-3.21239e-12,1.58208e-38,-1.55877e-06,-3.27827e-12,1.58196e-38,-3.40903e-12,-1.06606e-13,0,0,0,0,0,0,0,0,0,0,0,0,0,0,0,0,0,0,0,0,0,-0.261799,-4.30414e-05,-1.5,nan,0,0,3,0,0,0,0,0,0,0,0,1.9603e-19
640,-3.21239e-12,1.58208e-38,-1.55877e-06,-3.27827e-12,1.58196e-38,0,-1.06606e-13,0,0,0,0,0,0,0,0,0,0,0,0,0,0,0,0,0,0,0,0,0,-0.261799,-3.69455e-05,-1.5,nan,0,0,3,0,0,0,0,0,0,0,0,1.9603e-19
650,-3.21239e-12,1.58208e-38,-1.55877e-06,-3.27827e-12,1.58196e-38,-3.40903e-12,-1.06606e-13,0,0,0,0,0,0,0,0,0,0,0,0,0,0,0,0,0,0,0,0,0,-0.261799,-3.58495e-05,-1.5,nan,0,0,3,0,0,0,0,0,0,0,0,1.9603e-19
660,-3.21239e-12,1.58208e-38,-1.55877e-06,-3.27827e-12,1.58196e-38,0,-1.06606e-13,0,0,0,0,0,0,0,0,0,0,0,0,0,0,0,0,0,0,0,0,0,-0.261799,-3.48564e-05,-1.5,nan,0,0,3,0,0,0,0,0,0,0,0,1.9603e-19
670,-3.21239e-12,1.58208e-38,-1.55877e-06,-3.27827e-12,1.58196e-38,-3.40903e-12,-1.06607e-13,0,0,0,0,0,0,0,0,0,0,0,0,0,0,0,0,0,0,0,0,0,-0.261799,-3.38904e-05,-1.5,nan,0,0,3,0,0,0,0,0,0,0,0,1.9603e-19
680,-3.21239e-12,1.58208e-38,-1.55877e-06,-3.27827e-12,1.58196e-38,0,-1.06607e-13,0,0,0,0,0,0,0,0,0,0,0,0,0,0,0,0,0,0,0,0,0,-0.261799,-3.27511e-05,-1.5,nan,0,0,3,0,0,0,0,0,0,0,0,1.9603e-19
690,-3.21239e-12,1.58208e-38,-1.55877e-06,-3.27827e-12,1.58196e-38,-3.40903e-12,-1.06607e-13,0,0,0,0,0,0,0,0,0,0,0,0,0,0,0,0,0,0,0,0,0,-0.261799,-3.14567e-05,-1.5,nan,0,0,3,0,0,0,0,0,0,0,0,1.9603e-19
700,-3.21239e-12,1.58208e-38,-1.55877e-06,-3.27827e-12,1.58196e-38,0,-1.06607e-13,0,0,0,0,0,0,0,0,0,0,0,0,0,0,0,0,0,0,0,0,0,-0.261799,-3.03999e-05,-1.5,nan,0,0,3,0,0,0,0,0,0,0,0,1.9603e-19
710,-3.21239e-12,1.58208e-38,-1.55877e-06,-3.27827e-12,1.58196e-38,-3.40903e-12,-1.06608e-13,0,0,0,0,0,0,0,0,0,0,0,0,0,0,0,0,0,0,0,0,0,-0.261799,-2.91398e-05,-1.5,nan,0,0,3,0,0,0,0,0,0,0,0,1.9603e-19
720,-3.21239e-12,1.58208e-38,-1.55877e-06,-3.27827e-12,1.58196e-38,0,-1.06608e-13,0,0,0,0,0,0,0,0,0,0,0,0,0,0,0,0,0,0,0,0,0,-0.261799,-2.81036e-05,-1.5,nan,0,0,3,0,0,0,0,0,0,0,0,1.9603e-19
730,-3.21239e-12,1.58208e-38,-1.55877e-06,-3.27827e-12,1.58196e-38,-3.40903e-12,-1.06608e-13,0,0,0,0,0,0,0,0,0,0,0,0,0,0,0,0,0,0,0,0,0,-0.261799,-2.72142e-05,-1.5,nan,0,0,3,0,0,0,0,0,0,0,0,1.9603e-19
740,-3.21239e-12,1.58208e-38,-1.55877e-06,-3.27827e-12,1.58196e-38,0,-1.06609e-13,0,0,0,0,0,0,0,0,0,0,0,0,0,0,0,0,0,0,0,0,0,-0.261799,-2.62457e-05,-1.5,nan,0,0,3,0,0,0,0,0,0,0,0,1.9603e-19
750,-3.21239e-12,1.58208e-38,-1.55877e-06,-3.27827e-12,1.58196e-38,-3.40903e-12,-1.06609e-13,0,0,0,0,0,0,0,0,0,0,0,0,0,0,0,0,0,0,0,0,0,-0.261799,-2.5415e-05,-1.5,nan,0,0,3,0,0,0,0,0,0,0,0,1.9603e-19
760,-3.21239e-12,1.58208e-38,-1.55877e-06,-3.27827e-12,1.58196e-38,0,-1.06609e-13,0,0,0,0,0,0,0,0,0,0,0,0,0,0,0,0,0,0,0,0,0,-0.261799,-2.44123e-05,-1.5,nan,0,0,3,0,0,0,0,0,0,0,0,1.9603e-19
770,-3.21239e-12,1.58208e-38,-1.55877e-06,-3.27827e-12,1.58196e-38,-3.40903e-12,-1.06609e-13,0,0,0,0,0,0,0,0,0,0,0,0,0,0,0,0,0,0,0,0,0,-0.261799,-2.34004e-05,-1.5,nan,0,0,3,0,0,0,0,0,0,0,0,1.9603e-19
780,-3.21239e-12,1.58208e-38,-1.55877e-06,-3.27827e-12,1.58196e-38,0,-1.0661e-13,0,0,0,0,0,0,0,0,0,0,0,0,0,0,0,0,0,0,0,0,0,-0.261799,-2.26142e-05,-1.5,nan,0,0,3,0,0,0,0,0,0,0,0,1.9603e-19
790,-3.21239e-12,1.58208e-38,-1.55877e-06,-3.27827e-12,1.58196e-38,-3.40903e-12,-1.0661e-13,0,0,0,0,0,0,0,0,0,0,0,0,0,0,0,0,0,0,0,0,0,-0.261799,-2.18985e-05,-1.5,nan,0,0,3,0,0,0,0,0,0,0,0,1.9603e-19
800,-3.21239e-12,1.58208e-38,-1.55877e-06,-3.27827e-12,1.58196e-38,0,-1.0661e-13,0,0,0,0,0,0,0,0,0,0,0,0,0,0,0,0,0,0,0,0,0,-0.261799,-2.11198e-05,-1.5,nan,0,0,3,0,0,0,0,0,0,0,0,1.9603e-19
810,-3.21239e-12,1.58208e-38,-1.55877e-06,-3.27827e-12,1.58196e-38,-3.40903e-12,-1.0661e-13,0,0,0,0,0,0,0,0,0,0,0,0,0,0,0,0,0,0,0,0,0,-0.261799,-2.04514e-05,-1.5,nan,0,0,3,0,0,0,0,0,0,0,0,1.9603e-19
820,-3.21239e-12,1.58208e-38,-1.55877e-06,-3.27827e-12,1.58196e-38,0,-1.06611e-13,0,0,0,0,0,0,0,0,0,0,0,0,0,0,0,0,0,0,0,0,0,-0.261799,-1.96028e-05,-1.5,nan,0,0,3,0,0,0,0,0,0,0,0,1.9603e-19
830,-3.21239e-12,1.58208e-38,-1.55877e-06,-3.27827e-12,1.58196e-38,-3.40903e-12,-1.06611e-13,0,0,0,0,0,0,0,0,0,0,0,0,0,0,0,0,0,0,0,0,0,-0.261799,-1.89438e-05,-1.5,nan,0,0,3,0,0,0,0,0,0,0,0,1.9603e-19
840,-3.21239e-12,1.58208e-38,-1.55877e-06,-3.27827e-12,1.58196e-38,0,-1.06611e-13,0,0,0,0,0,0,0,0,0,0,0,0,0,0,0,0,0,0,0,0,0,-0.261799,-1.8307e-05,-1.5,nan,0,0,3,0,0,0,0,0,0,0,0,1.9603e-19
850,-3.21239e-12,1.58208e-38,-1.55877e-06,-3.27827e-12,1.58196e-38,-3.40903e-12,-1.06612e-13,0,0,0,0,0,0,0,0,0,0,0,0,0,0,0,0,0,0,0,0,0,-0.261799,-1.76195e-05,-1.5,nan,0,0,3,0,0,0,0,0,0,0,0,1.9603e-19
860,-3.21239e-12,1.58208e-38,-1.55877e-06,-3.27827e-12,1.58196e-38,0,-1.06612e-13,0,0,0,0,0,0,0,0,0,0,0,0,0,0,0,0,0,0,0,0,0,-0.261799,-1.71659e-05,-1.5,nan,0,0,3,0,0,0,0,0,0,0,0,1.9603e-19
870,-3.21239e-12,1.58208e-38,-1.55877e-06,-3.27827e-12,1.58196e-38,-3.40903e-12,-1.06612e-13,0,0,0,0,0,0,0,0,0,0,0,0,0,0,0,0,0,0,0,0,0,-0.261799,-1.66903e-05,-1.5,nan,0,0,3,0,0,0,0,0,0,0,0,1.9603e-19
880,-3.21239e-12,1.58208e-38,-1.55877e-06,-3.27827e-12,1.58196e-38,0,-1.06612e-13,0,0,0,0,0,0,0,0,0,0,0,0,0,0,0,0,0,0,0,0,0,-0.261799,-1.60969e-05,-1.5,nan,0,0,3,0,0,0,0,0,0,0,0,1.9603e-19
890,-3.21239e-12,1.58208e-38,-1.55877e-06,-3.27827e-12,1.58196e-38,-3.40903e-12,-1.06613e-13,0,0,0,0,0,0,0,0,0,0,0,0,0,0,0,0,0,0,0,0,0,-0.261799,-1.55557e-05,-1.5,nan,0,0,3,0,0,0,0,0,0,0,0,1.9603e-19
900,-3.21239e-12,1.58208e-38,-1.55877e-06,-3.27827e-12,1.58196e-38,0,-1.06613e-13,0,0,0,0,0,0,0,0,0,0,0.8,0,-1367821504,-1367821504,-1367821504,-1367821504,-1367821464,1168470977,-1068064231,-1367821464,0,-0.261799,-1.42204e-05,-1.5,nan,0,0,3,0,0,0,0,0,0,0,0,0
910,-3.21239e-12,1.58208e-38,-1.55877e-06,-3.27827e-12,1.58196e-38,-3.40903e-12,-1.06613e-13,0,0,0,0,0,0,0,0,0,0,0.8,0,-1367821504,-1367821504,-1367821504,-1367821504,-1367821464,1168470977,-1068064231,-1367821464,0,-0.261799,-1.37148e-05,-1.5,nan,0,0,3,0,0,0,0,0,0,0,0,0
920,-3.21239e-12,1.58208e-38,-1.55877e-06,-3.27827e-12,1.58196e-38,0,-1.06613e-13,0,0,0,0,0,0,0,0,0,0,0.8,0,-1367821504,-1367821504,-1367821504,-1367821504,-1367821464,1168470977,-1068064231,-1367821464,0,-0.261799,-1.31187e-05,-1.5,nan,0,0,3,0,0,0,0,0,0,0,0,0
930,-3.21239e-12,1.58208e-38,-1.55877e-06,-3.27827e-12,1.58196e-38,-3.40903e-12,-1.06614e-13,0,0,-6.97954,-0.189521,0.173865,0,0,0,0,0,0.0671089,-0.189521,147,9,147,9,198,9,147,68,0,-0.261799,-1.04362e-05,-1.5,nan,0,0,3,0,0,0,0,0,0,0,0,3009
940,-3.21239e-12,1.58208e-38,-1.55877e-06,-3.27827e-12,1.58196e-38,0,-1.06614e-13,0,0,-6.8201,-0.155983,0.122067,0,0,0,0,0,0.131368,-0.155983,146,8,146,8,196,8,146,70,0,-0.261799,-8.91453e-06,-1.5,nan,0,0,3,0,0,0,0,0,0,0,0,3100
950,-3.21239e-12,1.58208e-38,-1.55877e-06,-3.27827e-12,1.58196e-38,-3.40903e-12,-1.06614e-13,0,0,-6.8201,-0.155983,0.122067,0,0,0,0,0,0.131368,-0.155983,146,8,146,8,196,8,146,70,0,-0.261799,-8.58003e-06,-1.5,nan,0,0,3,0,0,0,0,0,0,0,0,3100
960,-3.21239e-12,1.58208e-38,-1.55877e-06,-3.27827e-12,1.58196e-38,0,-1.06615e-13,0,0,-6.8201,-0.155983,0.122067,0,0,0,0,0,0.131368,-0.155983,146,8,146,8,196,8,146,70,0,-0.261799,-8.22404e-06,-1.5,nan,0,0,3,0,0,0,0,0,0,0,0,3100
970,-3.21239e-12,1.58208e-38,-1.55877e-06,-3.27827e-12,1.58196e-38,-3.40903e-12,-1.06615e-13,0,0,-6.8201,-0.155983,0.122067,0,0,0,0,0,0.131368,-0.155983,146,8,146,8,196,8,146,70,0,-0.261799,-7.94756e-06,-1.5,nan,0,0,3,0,0,0,0,0,0,0,0,3100
980,-3.21239e-12,1.58208e-38,-1.55877e-06,-3.27827e-12,1.58196e-38,0,-1.06615e-13,0,0,-6.8201,-0.155983,0.122067,0,0,0,0,0,0.131368,-0.155983,146,8,146,8,196,8,146,70,0,-0.261799,-7.68057e-06,-1.5,nan,0,0,3,0,0,0,0,0,0,0,0,3100
990,-3.21239e-12,1.58208e-38,-1.55877e-06,-3.27827e-12,1.58196e-38,-3.40903e-12,-1.06615e-13,0,0,-6.8201,-0.155983,0.122067,0,0,0,0,0,0.131368,-0.155983,146,8,146,8,196,8,146,70,0,-0.261799,-7.42236e-06,-1.5,nan,0,0,3,0,0,0,0,0,0,0,0,3100
1000,-3.21239e-12,1.58208e-38,-1.55877e-06,-3.27827e-12,1.58196e-38,0,-1.06616e-13,0,0,-6.8201,-0.155983,0.122067,0,0,0,0,0,0.131368,-0.155983,146,8,146,8,196,8,146,70,0,-0.261799,-7.17284e-06,-1.5,nan,0,0,3,0,0,0,0,0,0,0,0,3100
1010,-3.21239e-12,1.58208e-38,-1.55877e-06,-3.27827e-12,1.58196e-38,-3.40903e-12,-1.06616e-13,0,0,-6.8201,-0.155983,0.122067,0,0,0,0,0,0.131368,-0.155983,146,8,146,8,196,8,146,70,0,-0.261799,-6.88935e-06,-1.5,nan,0,0,3,0,0,0,0,0,0,0,0,3100
1020,-3.21239e-12,1.58208e-38,-1.55877e-06,-3.27827e-12,1.58196e-38,0,-1.06616e-13,0,0,-6.8201,-0.155983,0.122067,0,0,0,0,0,0.131368,-0.155983,146,8,146,8,196,8,146,70,0,-0.261799,-6.65774e-06,-1.5,nan,0,0,3,0,0,0,0,0,0,0,0,3100
1030,-3.21239e-12,1.58208e-38,-1.55877e-06,-3.27827e-12,1.58196e-38,-3.40903e-12,-1.06616e-13,0,0,-6.8201,-0.155983,0.122067,0,0,0,0,0,0.131368,-0.155983,146,8,146,8,196,8,146,70,0,-0.261799,-6.39461e-06,-1.5,nan,0,0,3,0,0,0,0,0,0,0,0,3100
1040,-3.21239e-12,1.58208e-38,-1.55877e-06,-3.27827e-12,1.58196e-38,0,-1.06617e-13,0,0,-6.8201,-0.155983,0.122067,0,0,0,0,0,0.131368,-0.155983,146,8,146,8,196,8,146,70,0,-0.261799,-6.22998e-06,-1.5,nan,0,0,3,0,0,0,0,0,0,0,0,3100
1050,-3.21239e-12,1.58208e-38,-1.55877e-06,-3.27827e-12,1.58196e-38,-3.40903e-12,-1.06617e-13,0,0,-6.8201,-0.155983,0.122067,0,0,0,0,0,0.131368,-0.155983,146,8,146,8,196,8,146,70,0,-0.261799,-6.05733e-06,-1.5,nan,0,0,3,0,0,0,0,0,0,0,0,3100
1060,-3.21239e-12,1.58208e-38,-1.55877e-06,-3.27827e-12,1.58196e-38,0,-1.06617e-13,0,0,-6.8201,-0.155983,0.122067,0,0,0,0,0,0.131368,-0.155983,146,8,146,8,196,8,146,70,0,-0.261799,-5.83033e-06,-1.5,nan,0,0,3,0,0,0,0,0,0,0,0,3100
1070,-3.21239e-12,1.58208e-38,-1.55877e-06,-3.27827e-12,1.58196e-38,-3.40903e-12,-1.06618e-13,0,0,-6.8201,-0.155983,0.122067,0,0,0,0,0,0.131368,-0.155983,146,8,146,8,196,8,146,70,0,-0.261799,-5.6001e-06,-1.5,nan,0,0,3,0,0,0,0,0,0,0,0,3100
1080,-3.21239e-12,1.58208e-38,-1.55877e-06,-3.27827e-12,1.58196e-38,0,-1.06618e-13,0,0,-6.8201,-0.155983,0.122067,0,0,0,0,0,0.131368,-0.155983,146,8,146,8,196,8,146,70,0,-0.261799,-5.41197e-06,-1.5,nan,0,0,3,0,0,0,0,0,0,0,0,3100
1090,-3.21239e-12,1.58208e-38,-1.55877e-06,-3.27827e-12,1.58196e-38,-3.40903e-12,-1.06618e-13,0,0,-6.8201,-0.155983,0.122067,0,0,0,0,0,0.131368,-0.155983,146,8,146,8,196,8,146,70,0,-0.261799,-5.24068e-06,-1.5,nan,0,0,3,0,0,0,0,0,0,0,0,3100
1100,-3.21239e-12,1.58208e-38,-1.55877e-06,-3.27827e-12,1.58196e-38,0,-1.06618e-13,0,0,-6.8201,-0.155983,0.122067,0,0,0,0,0,0.131368,-0.155983,146,8,146,8,196,8,146,70,0,-0.261799,-5.02345e-06,-1.5,nan,0,0,3,0,0,0,0,0,0,0,0,3100
1110,-3.21239e-12,1.58208e-38,-1.55877e-06,-3.27827e-12,1.58196e-38,-3.40903e-12,-1.06619e-13,0,0,-6.8201,-0.155983,0.122067,0,0,0,0,0,0.131368,-0.155983,146,8,146,8,196,8,146,70,0,-0.261799,-4.86446e-06,-1.5,nan,0,0,3,0,0,0,0,0,0,0,0,3100
1120,-3.21239e-12,1.58208e-38,-1.55877e-06,-3.27827e-12,1.58196e-38,0,-1.06619e-13,0,0,-6.8201,-0.155983,0.122067,0,0,0,0,0,0.131368,-0.155983,146,8,146,8,196,8,146,70,0,-0.261799,-4.66282e-06,-1.5,nan,0,0,3,0,0,0,0,0,0,0,0,3100
1130,-3.21239e-12,1.58208e-38,-1.55877e-06,-3.27827e-12,1.58196e-38,-3.40903e-12,-1.06619e-13,0,0,-6.8201,-0.155983,0.122067,0,0,0,0,0,0.131368,-0.155983,146,8,146,8,196,8,146,70,0,-0.261799,-4.50618e-06,-1.5,nan,0,0,3,0,0,0,0,0,0,0,0,3100
1140,-3.21239e-12,1.58208e-38,-1.55877e-06,-3.27827e-12,1.58196e-38,0,-1.06619e-13,0,0,-6.8201,-0.155983,0.122067,0,0,0,0,0,0.131368,-0.155983,146,8,146,8,196,8,146,70,0,-0.261799,-4.33709e-06,-1.5,nan,0,0,3,0,0,0,0,0,0,0,0,3100
1150,-3.21239e-12,1.58208e-38,-1.55877e-06,-3.27827e-12,1.58196e-38,-3.40903e-12,-1.0662e-13,0,0,-6.8201,-0.155983,0.122067,0,0,0,0,0,0.131368,-0.155983,146,8,146,8,196,8,146,70,0,-0.261799,-4.19983e-06,-1.5,nan,0,0,3,0,0,0,0,0,0,0,0,3100
1160,-3.21239e-12,1.58208e-38,-1.55877e-06,-3.27827e-12,1.58196e-38,0,-1.0662e-13,0,0,-6.8201,-0.155983,0.122067,0,0,0,0,0,0.131368,-0.155983,146,8,146,8,196,8,146,70,0,-0.261799,-4.03384e-06,-1.5,nan,0,0,3,0,0,0,0,0,0,0,0,3100
1170,-3.21239e-12,1.58208e-38,-1.55877e-06,-3.27827e-12,1.58196e-38,-3.40903e-12,-1.0662e-13,0,0,-6.8201,-0.155983,0.122067,0,0,0,0,0,0.131368,-0.155983,146,8,146,8,196,8,146,70,0,-0.261799,-3.89029e-06,-1.5,nan,0,0,3,0,0,0,0,0,0,0,0,3100
1180,-3.21239e-12,1.58208e-38,-1.55877e-06,-3.27827e-12,1.58196e-38,0,-1.0662e-13,0,0,-6.8201,-0.155983,0.122067,0,0,0,0,0,0.131368,-0.155983,146,8,146,8,196,8,146,70,0,-0.261799,-3.74432e-06,-1.5,nan,0,0,3,0,0,0,0,0,0,0,0,3100
1190,-3.21239e-12,1.58208e-38,-1.55877e-06,-3.27827e-12,1.58196e-38,-3.40903e-12,-1.06621e-13,0,0,-6.8201,-0.155983,0.122067,0,0,0,0,0,0.131368,-0.155983,146,8,146,8,196,8,146,70,0,-0.261799,-3.61853e-06,-1.5,nan,0,0,3,0,0,0,0,0,0,0,0,3100
1200,-3.21239e-12,1.58208e-38,-1.55877e-06,-3.27827e-12,1.58196e-38,0,-1.06621e-13,0,0,-6.8201,-0.155983,0.122067,0,0,0,0,0,0.131368,-0.155983,146,8,146,8,196,8,146,70,0,-0.261799,-3.504e-06,-1.5,nan,0,0,3,0,0,0,0,0,0,0,0,3100
1210,-3.21239e-12,1.58208e-38,-1.55877e-06,-3.27827e-12,1.58196e-38,-3.40903e-12,-1.06621e-13,0,0,-6.8201,-0.155983,0.122067,0,0,0,0,0,0.131368,-0.155983,146,8,146,8,196,8,146,70,0,-0.261799,-3.37941e-06,-1.5,nan,0,0,3,0,0,0,0,0,0,0,0,3100
1220,-3.21239e-12,1.58208e-38,-1.55877e-06,-3.27827e-12,1.58196e-38,0,-1.06622e-13,0,0,-6.8201,-0.155983,0.122067,0,0,0,0,0,0.131368,-0.155983,146,8,146,8,196,8,146,70,0,-0.261799,-3.29243e-06,-1.5,nan,0,0,3,0,0,0,0,0,0,0,0,3100
1230,-3.21239e-12,1.58208e-38,-1.55877e-06,-3.27827e-12,1.58196e-38,-3.40903e-12,-1.06622e-13,0,0,-6.8201,-0.155983,0.122067,0,0,0,0,0,0.131368,-0.155983,146,8,146,8,196,8,146,70,0,-0.261799,-3.16242e-06,-1.5,nan,0,0,3,0,0,0,0,0,0,0,0,3100
1240,-3.21239e-12,1.58208e-38,-1.55877e-06,-3.27827e-12,1.58196e-38,0,-1.06622e-13,0,0,-6.8201,-0.155983,0.122067,0,0,0,0,0,0.131368,-0.155983,146,8,146,8,196,8,146,70,0,-0.261799,-2.48348e-06,-1.5,nan,0,0,3,0,0,0,0,0,0,0,0,3100
1250,-3.21239e-12,1.58208e-38,-1.55877e-06,-3.27827e-12,1.58196e-38,-3.40903e-12,-1.06622e-13,0,0,-6.8201,-0.155983,0.122067,0,0,0,0,0,0.131368,-0.155983,146,8,146,8,196,8,146,70,0,-0.261799,-2.39999e-06,-1.5,nan,0,0,3,0,0,0,0,0,0,0,0,3100
1260,-3.21239e-12,1.58208e-38,-1.55877e-06,-3.27827e-12,1.58196e-38,0,-1.06623e-13,0,0,-6.8201,-0.155983,0.122067,0,0,0,0,0,0.131368,-0.155983,146,8,146,8,196,8,146,70,0,-0.261799,-2.3193e-06,-1.5,nan,0,0,3,0,0,0,0,0,0,0,0,3100
1270,-3.21239e-12,1.58208e-38,-1.55877e-06,-3.27827e-12,1.58196e-38,-3.40903e-12,-1.06623e-13,0,0,-6.8201,-0.155983,0.122067,0,0,0,0,0,0.131368,-0.155983,146,8,146,8,196,8,146,70,0,-0.261799,-2.24139e-06,-1.5,nan,0,0,3,0,0,0,0,0,0,0,0,3100
1280,-3.21239e-12,1.58208e-38,-1.55877e-06,-3.27827e-12,1.58196e-38,0,-1.06623e-13,0,0,-6.8201,-0.155983,0.122067,0,0,0,0,0,0.131368,-0.155983,146,8,146,8,196,8,146,70,0,-0.261799,-2.17049e-06,-1.5,nan,0,0,3,0,0,0,0,0,0,0,0,3100
1290,-3.21239e-12,1.58208e-38,-1.55877e-06,-3.27827e-12,1.58196e-38,-3.40903e-12,-1.06623e-13,0,0,-6.8201,-0.155983,0.122067,0,0,0,0,0,0.131368,-0.155983,146,8,146,8,196,8,146,70,0,-0.261799,-2.09758e-06,-1.5,nan,0,0,3,0,0,0,0,0,0,0,0,3100
1300,-3.21239e-12,1.58208e-38,-1.55877e-06,-3.27827e-12,1.58196e-38,0,-1.06624e-13,0,0,-6.8201,-0.155983,0.122067,0,0,0,0,0,0.131368,-0.155983,146,8,146,8,196,8,146,70,0,-0.261799,-2.02706e-06,-1.5,nan,0,0,3,0,0,0,0,0,0,0,0,3100
1310,-3.21239e-12,1.58208e-38,-1.55877e-06,-3.27827e-12,1.58196e-38,-3.40903e-12,-1.06624e-13,0,0,-6.8201,-0.155983,0.122067,0,0,0,0,0,0.131368,-0.155983,146,8,146,8,196,8,146,70,0,-0.261799,-1.95892e-06,-1.5,nan,0,0,3,0,0,0,0,0,0,0,0,3100
1320,-3.21239e-12,1.58208e-38,-1.55877e-06,-3.27827e-12,1.58196e-38,0,-1.06624e-13,0,0,-6.8201,-0.155983,0.122067,0,0,0,0,0,0.131368,-0.155983,146,8,146,8,196,8,146,70,0,-0.261799,-1.89306e-06,-1.5,nan,0,0,3,0,0,0,0,0,0,0,0,3100
1330,-3.21239e-12,1.58208e-38,-1.55877e-06,-3.27827e-12,1.58196e-38,-3.40903e-12,-1.06625e-13,0,0,-6.8201,-0.155983,0.122067,0,0,0,0,0,0.131368,-0.155983,146,8,146,8,196,8,146,70,0,-0.261799,-1.83315e-06,-1.5,nan,0,0,3,0,0,0,0,0,0,0,0,3100
1340,-3.21239e-12,1.58208e-38,-1.55877e-06,-3.27827e-12,1.58196e-38,0,-1.06625e-13,0,0,-6.8201,-0.155983,0.122067,0,0,0,0,0,0.131368,-0.155983,146,8,146,8,196,8,146,70,0,-0.261799,-1.77156e-06,-1.5,nan,0,0,3,0,0,0,0,0,0,0,0,3100
1350,-3.21239e-12,1.58208e-38,-1.55877e-06,-3.27827e-12,1.58196e-38,-3.40903e-12,-1.06625e-13,0,0,-6.8201,-0.155983,0.122067,0,0,0,0,0,0.131368,-0.155983,146,8,146,8,196,8,146,70,0,-0.261799,-1.71205e-06,-1.5,nan,0,0,3,0,0,0,0,0,0,0,0,3100
1360,-3.21239e-12,1.58208e-38,-1.55877e-06,-3.27827e-12,1.58196e-38,0,-1.06625e-13,0,0,-6.8201,-0.155983,0.122067,0,0,0,0,0,0.131368,-0.155983,146,8,146,8,196,8,146,70,0,-0.261799,-1.65117e-06,-1.5,nan,0,0,3,0,0,0,0,0,0,0,0,3100
1370,-3.21239e-12,1.58208e-38,-1.55877e-06,-3.27827e-12,1.58196e-38,-3.40903e-12,-1.06626e-13,0,0,-6.8201,-0.155983,0.122067,0,0,0,0,0,0.131368,-0.155983,146,8,146,8,196,8,146,70,0,-0.261799,-1.59891e-06,-1.5,nan,0,0,3,0,0,0,0,0,0,0,0,3100
1380,-3.21239e-12,1.58208e-38,-1.55877e-06,-3.27827e-12,1.58196e-38,0,-1.06626e-13,0,0,-6.8201,-0.155983,0.122067,0,0,0,0,0,0.131368,-0.155983,146,8,146,8,196,8,146,70,0,-0.261799,-1.53892e-06,-1.5,nan,0,0,3,0,0,0,0,0,0,0,0,3100
1390,-3.21239e-12,1.58208e-38,-1.55877e-06,-3.27827e-12,1.58196e-38,-3.40903e-12,-1.06626e-13,0,0,-6.8201,-0.155983,0.122067,0,0,0,0,0,0.131368,-0.155983,146,8,146,8,196,8,146,70,0,-0.261799,-1.49627e-06,-1.5,nan,0,0,3,0,0,0,0,0,0,0,0,3100
1400,-3.21239e-12,1.58208e-38,-1.55877e-06,-3.27827e-12,1.58196e-38,0,-1.06626e-13,0,0,-6.8201,-0.155983,0.122067,0,0,0,0,0,0.131368,-0.155983,146,8,146,8,196,8,146,70,0,-0.261799,-1.4548e-06,-1.5,nan,0,0,3,0,0,0,0,0,0,0,0,3100
1410,-3.21239e-12,1.58208e-38,-1.55877e-06,-3.27827e-12,1.58196e-38,-3.40903e-12,-1.06627e-13,0,0,-6.8201,-0.155983,0.122067,0,0,0,0,0,0.131368,-0.155983,146,8,146,8,196,8,146,70,0,-0.261799,-1.40307e-06,-1.5,nan,0,0,3,0,0,0,0,0,0,0,0,3100
1420,-3.21239e-12,1.58208e-38,-1.55877e-06,-3.27827e-12,1.58196e-38,0,-1.06627e-13,0,0,-6.8201,-0.155983,0.122067,0,0,0,0,0,0.131368,-0.155983,146,8,146,8,196,8,146,70,0,-0.261799,-1.35318e-06,-1.5,nan,0,0,3,0,0,0,0,0,0,0,0,3100
1430,-3.21239e-12,1.58208e-38,-1.55877e-06,-3.27827e-12,1.58196e-38,-3.40903e-12,-1.06627e-13,0,0,-6.8201,-0.155983,0.122067,0,0,0,0,0,0.131368,-0.155983,146,8,146,8,196,8,146,70,0,-0.261799,-1.30772e-06,-1.5,nan,0,0,3,0,0,0,0,0,0,0,0,3100
1440,-3.21239e-12,1.58208e-38,-1.55877e-06,-3.27827e-12,1.58196e-38,0,-1.06628e-13,0,0,-6.8201,-0.155983,0.122067,0,0,0,0,0,0.131368,-0.155983,146,8,146,8,196,8,146,70,0,-0.261799,-1.26379e-06,-1.5,nan,0,0,3,0,0,0,0,0,0,0,0,3100
1450,-3.21239e-12,1.58208e-38,-1.55877e-06,-3.27827e-12,1.58196e-38,-3.40903e-12,-1.06628e-13,0,0,-6.8201,-0.155983,0.122067,0,0,0,0,0,0.131368,-0.155983,146,8,146,8,196,8,146,70,0,-0.261799,-1.22379e-06,-1.5,nan,0,0,3,0,0,0,0,0,0,0,0,3100
1460,-3.21239e-12,1.58208e-38,-1.55877e-06,-3.27827e-12,1.58196e-38,0,-1.06628e-13,0,0,-6.8201,-0.155983,0.122067,0,0,0,0,0,0.131368,-0.155983,146,8,146,8,196,8,146,70,0,-0.261799,-1.18506e-06,-1.5,nan,0,0,3,0,0,0,0,0,0,0,0,3100
1470,-3.21239e-12,1.58208e-38,-1.55877e-06,-3.27827e-12,1.58196e-38,-3.40903e-12,-1.06628e-13,0,0,-6.8201,-0.155983,0.122067,0,0,0,0,0,0.131368,-0.155983,146,8,146,8,196,8,146,70,0,-0.261799,-1.14059e-06,-1.5,nan,0,0,3,0,0,0,0,0,0,0,0,3100
1480,-3.21239e-12,1.58208e-38,-1.55877e-06,-3.27827e-12,1.58196e-38,0,-1.06629e-13,0,0,-6.8201,-0.155983,0.122067,0,0,0,0,0,0.131368,-0.155983,146,8,146,8,196,8,146,70,0,-0.261799,-1.10227e-06,-1.5,nan,0,0,3,0,0,0,0,0,0,0,0,3100
1490,-3.21239e-12,1.58208e-38,-1.55877e-06,-3.27827e-12,1.58196e-38,-3.40903e-12,-1.06629e-13,0,0,-6.8201,-0.155983,0.122067,0,0,0,0,0,0.131368,-0.155983,146,8,146,8,196,8,146,70,0,-0.261799,-1.06524e-06,-1.5,nan,0,0,3,0,0,0,0,0,0,0,0,3100
1500,-3.21239e-12,1.58208e-38,-1.55877e-06,-3.27827e-12,1.58196e-38,0,-1.06629e-13,0,0,-6.8201,-0.155983,0.122067,0,0,0,0,0,0.131368,-0.155983,146,8,146,8,196,8,146,70,0,-0.261799,-1.02946e-06,-1.5,nan,0,0,3,0,0,0,0,0,0,0,0,3100
1510,-3.21239e-12,1.58208e-38,-1.55877e-06,-3.27827e-12,1.58196e-38,-3.40903e-12,-1.06629e-13,0,0,-6.8201,-0.155983,0.122067,0,0,0,0,0,0.131368,-0.155983,146,8,146,8,196,8,146,70,0,-0.261799,-9.96875e-07,-1.5,nan,0,0,3,0,0,0,0,0,0,0,0,3100
1520,-3.21239e-12,1.58208e-38,-1.55877e-06,-3.27827e-12,1.58196e-38,0,-1.0663e-13,0,0,-6.8201,-0.155983,0.122067,0,0,0,0,0,0.131368,-0.155983,146,8,146,8,196,8,146,70,0,-0.261799,-9.65324e-07,-1.5,nan,0,0,3,0,0,0,0,0,0,0,0,3100
1530,-3.21239e-12,1.58208e-38,-1.55877e-06,-3.27827e-12,1.58196e-38,-3.40903e-12,-1.0663e-13,0,0,-6.8201,-0.155983,0.122067,0,0,0,0,0,0.131368,-0.155983,146,8,146,8,196,8,146,70,0,-0.261799,-9.29102e-07,-1.5,nan,0,0,3,0,0,0,0,0,0,0,0,3100
1540,-3.21239e-12,1.58208e-38,-1.55877e-06,-3.27827e-12,1.58196e-38,0,-1.0663e-13,0,0,-6.8201,-0.155983,0.122067,0,0,0,0,0,0.131368,-0.155983,146,8,146,8,196,8,146,70,0,-0.261799,-8.96039e-07,-1.5,nan,0,0,3,0,0,0,0,0,0,0,0,3100
1550,-3.21239e-12,1.58208e-38,-1.55877e-06,-3.27827e-12,1.58196e-38,-3.40903e-12,-1.06631e-13,0,0,-6.8201,-0.155983,0.122067,0,0,0,0,0,0.131368,-0.155983,146,8,146,8,196,8,146,70,0,-0.261799,-8.65916e-07,-1.5,nan,0,0,3,0,0,0,0,0,0,0,0,3100
1560,-3.21239e-12,1.58208e-38,-1.55877e-06,-3.27827e-12,1.58196e-38,0,-1.06631e-13,0,0,-6.8201,-0.155983,0.122067,0,0,0,0,0,0.131368,-0.155983,146,8,146,8,196,8,146,70,0,-0.261799,-8.38527e-07,-1.5,nan,0,0,3,0,0,0,0,0,0,0,0,3100
1570,-3.21239e-12,1.58208e-38,-1.55877e-06,-3.27827e-12,1.58196e-38,-3.40903e-12,-1.06631e-13,0,0,-6.8201,-0.155983,0.122067,0,0,0,0,0,0.131368,-0.155983,146,8,146,8,196,8,146,70,0,-0.261799,-8.13638e-07,-1.5,nan,0,0,3,0,0,0,0,0,0,0,0,3100
1580,-3.21239e-12,1.58208e-38,-1.55877e-06,-3.27827e-12,1.58196e-38,0,-1.06631e-13,0,0,-6.8201,-0.155983,0.122067,0,0,0,0,0,0.131368,-0.155983,146,8,146,8,196,8,146,70,0,-0.261799,-6.67782e-07,-1.5,nan,0,0,3,0,0,0,0,0,0,0,0,3100
1590,-3.21239e-12,1.58208e-38,-1.55877e-06,-3.27827e-12,1.58196e-38,-3.40903e-12,-1.06632e-13,0,0,-6.8201,-0.155983,0.122067,0,0,0,0,0,0.131368,-0.155983,146,8,146,8,196,8,146,70,0,-0.261799,-6.46647e-07,-1.5,nan,0,0,3,0,0,0,0,0,0,0,0,3100
1600,-3.21239e-12,1.58208e-38,-1.55877e-06,-3.27827e-12,1.58196e-38,0,-1.06632e-13,0,0,-6.8201,-0.155983,0.122067,0,0,0,0,0,0.131368,-0.155983,146,8,146,8,196,8,146,70,0,-0.261799,-6.24923e-07,-1.5,nan,0,0,3,0,0,0,0,0,0,0,0,3100
1610,-3.21239e-12,1.58208e-38,-1.55877e-06,-3.27827e-12,1.58196e-38,-3.40903e-12,-1.06632e-13,0,0,-6.8201,-0.155983,0.122067,0,0,0,0,0,0.131368,-0.155983,146,8,146,8,196,8,146,70,0,-0.261799,-6.02702e-07,-1.5,nan,0,0,3,0,0,0,0,0,0,0,0,3100
1620,-3.21239e-12,1.58208e-38,-1.55877e-06,-3.27827e-12,1.58196e-38,0,-1.06632e-13,0,0,-6.8201,-0.155983,0.122067,0,0,0,0,0,0.131368,-0.155983,146,8,146,8,196,8,146,70,0,-0.261799,-5.8244e-07,-1.5,nan,0,0,3,0,0,0,0,0,0,0,0,3100
1630,-3.21239e-12,1.58208e-38,-1.55877e-06,-3.27827e-12,1.58196e-38,-3.40903e-12,-1.06633e-13,0,0,-6.8201,-0.155983,0.122067,0,0,0,0,0,0.131368,-0.155983,146,8,146,8,196,8,146,70,0,-0.261799,-5.6286e-07,-1.5,nan,0,0,3,0,0,0,0,0,0,0,0,3100
1640,-3.21239e-12,1.58208e-38,-1.55877e-06,-3.27827e-12,1.58196e-38,0,-1.06633e-13,0,0,-6.8201,-0.155983,0.122067,0,0,0,0,0,0.131368,-0.155983,146,8,146,8,196,8,146,70,0,-0.261799,-5.43951e-07,-1.5,nan,0,0,3,0,0,0,0,0,0,0,0,3100
1650,-3.21239e-12,1.58208e-38,-1.55877e-06,-3.27827e-12,1.58196e-38,-3.40903e-12,-1.06633e-13,0,0,-6.8201,-0.155983,0.122067,0,0,0,0,0,0.131368,-0.155983,146,8,146,8,196,8,146,70,0,-0.261799,-5.26746e-07,-1.5,nan,0,0,3,0,0,0,0,0,0,0,0,3100
1660,-3.21239e-12,1.58208e-38,-1.55877e-06,-3.27827e-12,1.58196e-38,0,-1.06634e-13,0,0,-6.8201,-0.155983,0.122067,0,0,0,0,0,0.131368,-0.155983,146,8,146,8,196,8,146,70,0,-0.261799,-5.10074e-07,-1.5,nan,0,0,3,0,0,0,0,0,0,0,0,3100
1670,-3.21239e-12,1.58208e-38,-1.55877e-06,-3.27827e-12,1.58196e-38,-3.40903e-12,-1.06634e-13,0,0,-6.8201,-0.155983,0.122067,0,0,0,0,0,0.131368,-0.155983,146,8,146,8,196,8,146,70,0,-0.261799,-4.90919e-07,-1.5,nan,0,0,3,0,0,0,0,0,0,0,0,3100
1680,-3.21239e-12,1.58208e-38,-1.55877e-06,-3.27827e-12,1.58196e-38,0,-1.06634e-13,0,0,-6.8201,-0.155983,0.122067,0,0,0,0,0,0.131368,-0.155983,146,8,146,8,196,8,146,70,0,-0.261799,-4.74415e-07,-1.5,nan,0,0,3,0,0,0,0,0,0,0,0,3100
1690,-3.21239e-12,1.58208e-38,-1.55877e-06,-3.27827e-12,1.58196e-38,-3.40903e-12,-1.06634e-13,0,0,-6.8201,-0.155983,0.122067,0,0,0,0,0,0.131368,-0.155983,146,8,146,8,196,8,146,70,0,-0.261799,-4.58466e-07,-1.5,nan,0,0,3,0,0,0,0,0,0,0,0,3100
1700,-3.21239e-12,1.58208e-38,-1.55877e-06,-3.27827e-12,1.58196e-38,0,-1.06635e-13,0,0,-6.8201,-0.155983,0.122067,0,0,0,0,0,0.131368,-0.155983,146,8,146,8,196,8,146,70,0,-0.261799,-4.43054e-07,-1.5,nan,0,0,3,0,0,0,0,0,0,0,0,3100
1710,-3.21239e-12,1.58208e-38,-1.55877e-06,-3.27827e-12,1.58196e-38,-3.40903e-12,-1.06635e-13,0,0,-6.8201,-0.155983,0.122067,0,0,0,0,0,0.131368,-0.155983,146,8,146,8,196,8,146,70,0,-0.261799,-4.29031e-07,-1.5,nan,0,0,3,0,0,0,0,0,0,0,0,3100
1720,-3.21239e-12,1.58208e-38,-1.55877e-06,-3.27827e-12,1.58196e-38,0,-1.06635e-13,0,0,-6.8201,-0.155983,0.122067,0,0,0,0,0,0.131368,-0.155983,146,8,146,8,196,8,146,70,0,-0.261799,-4.13785e-07,-1.5,nan,0,0,3,0,0,0,0,0,0,0,0,3100
1730,-3.21239e-12,1.58208e-38,-1.55877e-06,-3.27827e-12,1.58196e-38,-3.40903e-12,-1.06635e-13,0,0,-6.8201,-0.155983,0.122067,0,0,0,0,0,0.131368,-0.155983,146,8,146,8,196,8,146,70,0,-0.261799,-3.98259e-07,-1.5,nan,0,0,3,0,0,0,0,0,0,0,0,3100
1740,-3.21239e-12,1.58208e-38,-1.55877e-06,-3.27827e-12,1.58196e-38,0,-1.06636e-13,0,0,-6.8201,-0.155983,0.122067,0,0,0,0,0,0.131368,-0.155983,146,8,146,8,196,8,146,70,0,-0.261799,-3.88006e-07,-1.5,nan,0,0,3,0,0,0,0,0,0,0,0,3100
1750,-3.21239e-12,1.58208e-38,-1.55877e-06,-3.27827e-12,1.58196e-38,-3.40903e-12,-1.06636e-13,0,0,-6.8201,-0.155983,0.122067,0,0,0,0,0,0.131368,-0.155983,146,8,146,8,196,8,146,70,0,-0.261799,-3.77257e-07,-1.5,nan,0,0,3,0,0,0,0,0,0,0,0,3100
1760,-3.21239e-12,1.58208e-38,-1.55877e-06,-3.27827e-12,1.58196e-38,0,-1.06636e-13,0,0,-6.8201,-0.155983,0.122067,0,0,0,0,0,0.131368,-0.155983,146,8,146,8,196,8,146,70,0,-0.261799,-3.65317e-07,-1.5,nan,0,0,3,0,0,0,0,0,0,0,0,3100
1770,-3.21239e-12,1.58208e-38,-1.55877e-06,-3.27827e-12,1.58196e-38,-3.40903e-12,-1.06636e-13,0,0,-6.8201,-0.155983,0.122067,0,0,0,0,0,0.131368,-0.155983,146,8,146,8,196,8,146,70,0,-0.261799,-3.53755e-07,-1.5,nan,0,0,3,0,0,0,0,0,0,0,0,3100
1780,-3.21239e-12,1.58208e-38,-1.55877e-06,-3.27827e-12,1.58196e-38,0,-1.06637e-13,0,0,-6.8201,-0.155983,0.122067,0,0,0,0,0,0.131368,-0.155983,146,8,146,8,196,8,146,70,0,-0.261799,-3.41871e-07,-1.5,nan,0,0,3,0,0,0,0,0,0,0,0,3100
1790,-3.21239e-12,1.58208e-38,-1.55877e-06,-3.27827e-12,1.58196e-38,-3.40903e-12,-1.06637e-13,0,0,-6.8201,-0.155983,0.122067,0,0,0,0,0,0.131368,-0.155983,146,8,146,8,196,8,146,70,0,-0.261799,-3.29043e-07,-1.5,nan,0,0,3,0,0,0,0,0,0,0,0,3100
1800,-3.21239e-12,1.58208e-38,-1.55877e-06,-3.27827e-12,1.58196e-38,0,-1.06637e-13,0,0,-6.8201,-0.155983,0.122067,0,0,0,0,0,0.131368,-0.155983,146,8,146,8,196,8,146,70,0,-0.261799,-3.17981e-07,-1.5,nan,0,0,3,0,0,0,0,0,0,0,0,3100
1810,-3.21239e-12,1.58208e-38,-1.55877e-06,-3.27827e-12,1.58196e-38,-3.40903e-12,-1.06638e-13,0,0,-6.8201,-0.155983,0.122067,0,0,0,0,0,0.131368,-0.155983,146,8,146,8,196,8,146,70,0,-0.261799,-3.07299e-07,-1.5,nan,0,0,3,0,0,0,0,0,0,0,0,3100
1820,-3.21239e-12,1.58208e-38,-1.55877e-06,-3.27827e-12,1.58196e-38,0,-1.06638e-13,0,0,-6.8201,-0.155983,0.122067,0,0,0,0,0,0.131368,-0.155983,146,8,146,8,196,8,146,70,0,-0.261799,-2.97573e-07,-1.5,nan,0,0,3,0,0,0,0,0,0,0,0,3100
1830,-3.21239e-12,1.58208e-38,-1.55877e-06,-3.27827e-12,1.58196e-38,-3.40903e-12,-1.06638e-13,0,0,-6.8201,-0.155983,0.122067,0,0,0,0,0,0.131368,-0.155983,146,8,146,8,196,8,146,70,0,-0.261799,-2.88155e-07,-1.5,nan,0,0,3,0,0,0,0,0,0,0,0,3100
1840,-3.21239e-12,1.58208e-38,-1.55877e-06,-3.27827e-12,1.58196e-38,0,-1.06638e-13,0,0,-6.8201,-0.155983,0.122067,0,0,0,0,0,0.131368,-0.155983,146,8,146,8,196,8,146,70,0,-0.261799,-2.78468e-07,-1.5,nan,0,0,3,0,0,0,0,0,0,0,0,3100
1850,-3.21239e-12,1.58208e-38,-1.55877e-06,-3.27827e-12,1.58196e-38,-3.40903e-12,-1.06639e-13,0,0,-6.8201,-0.155983,0.122067,0,0,0,0,0,0.131368,-0.155983,146,8,146,8,196,8,146,70,0,-0.261799,-2.68019e-07,-1.5,nan,0,0,3,0,0,0,0,0,0,0,0,3100
1860,-3.21239e-12,1.58208e-38,-1.55877e-06,-3.27827e-12,1.58196e-38,0,-1.06639e-13,0,0,-6.8201,-0.155983,0.122067,0,0,0,0,0,0.131368,-0.155983,146,8,146,8,196,8,146,70,0,-0.261799,-2.59015e-07,-1.5,nan,0,0,3,0,0,0,0,0,0,0,0,3100
1870,-3.21239e-12,1.58208e-38,-1.55877e-06,-3.27827e-12,1.58196e-38,-3.40903e-12,-1.06639e-13,0,0,-6.8201,-0.155983,0.122067,0,0,0,0,0,0.131368,-0.155983,146,8,146,8,196,8,146,70,0,-0.261799,-2.50314e-07,-1.5,nan,0,0,3,0,0,0,0,0,0,0,0,3100
1880,-3.21239e-12,1.58208e-38,-1.55877e-06,-3.27827e-12,1.58196e-38,0,-1.06639e-13,0,0,-6.8201,-0.155983,0.122067,0,0,0,0,0,0.131368,-0.155983,146,8,146,8,196,8,146,70,0,-0.261799,-2.42391e-07,-1.5,nan,0,0,3,0,0,0,0,0,0,0,0,3100
1890,-3.21239e-12,1.58208e-38,-1.55877e-06,-3.27827e-12,1.58196e-38,-3.40903e-12,-1.0664e-13,0,0,-6.8201,-0.155983,0.122067,0,0,0,0,0,0.131368,-0.155983,146,8,146,8,196,8,146,70,0,-0.261799,-2.3472e-07,-1.5,nan,0,0,3,0,0,0,0,0,0,0,0,3100
1900,-3.21239e-12,1.58208e-38,-1.55877e-06,-3.27827e-12,1.58196e-38,0,-1.0664e-13,0,0,-6.8201,-0.155983,0.122067,0,0,0,0,0,0.131368,-0.155983,146,8,146,8,196,8,146,70,0,-0.261799,-2.27291e-07,-1.5,nan,0,0,3,0,0,0,0,0,0,0,0,3100
1910,-3.21239e-12,1.58208e-38,-1.55877e-06,-3.27827e-12,1.58196e-38,-3.40903e-12,-1.0664e-13,0,0,-6.8201,-0.155983,0.122067,0,0,0,0,0,0.131368,-0.155983,146,8,146,8,196,8,146,70,0,-0.261799,-2.20101e-07,-1.5,nan,0,0,3,0,0,0,0,0,0,0,0,3100
1920,-3.21239e-12,1.58208e-38,-1.55877e-06,-3.27827e-12,1.58196e-38,0,-1.06641e-13,0,0,-6.8201,-0.155983,0.122067,0,0,0,0,0,0.131368,-0.155983,146,8,146,8,196,8,146,70,0,-0.261799,-2.14435e-07,-1.5,nan,0,0,3,0,0,0,0,0,0,0,0,3100
1930,-3.21239e-12,1.58208e-38,-1.55877e-06,-3.27827e-12,1.58196e-38,-3.40903e-12,-1.06641e-13,0,0,-6.8201,-0.155983,0.122067,0,0,0,0,0,0.131368,-0.155983,146,8,146,8,196,8,146,70,0,-0.261799,-2.08495e-07,-1.5,nan,0,0,3,0,0,0,0,0,0,0,0,3100
1940,-3.21239e-12,1.58208e-38,-1.55877e-06,-3.27827e-12,1.58196e-38,0,-1.06641e-13,0,0,-6.8201,-0.155983,0.122067,0,0,0,0,0,0.131368,-0.155983,146,8,146,8,196,8,146,70,0,-0.261799,-2.0149e-07,-1.5,nan,0,0,3,0,0,0,0,0,0,0,0,3100
1950,-3.21239e-12,1.58208e-38,-1.55877e-06,-3.27827e-12,1.58196e-38,-3.40903e-12,-1.06641e-13,0,0,-6.8201,-0.155983,0.122067,0,0,0,0,0,0.131368,-0.155983,146,8,146,8,196,8,146,70,0,-0.261799,-1.95113e-07,-1.5,nan,0,0,3,0,0,0,0,0,0,0,0,3100
1960,-3.21239e-12,1.58208e-38,-1.55877e-06,-3.27827e-12,1.58196e-38,0,-1.06642e-13,0,0,-6.8201,-0.155983,0.122067,0,0,0,0,0,0.131368,-0.155983,146,8,146,8,196,8,146,70,0,-0.261799,-1.88938e-07,-1.5,nan,0,0,3,0,0,0,0,0,0,0,0,3100
1970,-3.21239e-12,1.58208e-38,-1.55877e-06,-3.27827e-12,1.58196e-38,-3.40903e-12,-1.06642e-13,0,0,-6.8201,-0.155983,0.122067,0,0,0,0,0,0.131368,-0.155983,146,8,146,8,196,8,146,70,0,-0.261799,-1.81849e-07,-1.5,nan,0,0,3,0,0,0,0,0,0,0,0,3100
1980,-3.21239e-12,1.58208e-38,-1.55877e-06,-3.27827e-12,1.58196e-38,0,-1.06642e-13,0,0,-6.8201,-0.155983,0.122067,0,0,0,0,0,0.131368,-0.155983,146,8,146,8,196,8,146,70,0,-0.261799,-1.75735e-07,-1.5,nan,0,0,3,0,0,0,0,0,0,0,0,3100
1990,-3.21239e-12,1.58208e-38,-1.55877e-06,-3.27827e-12,1.58196e-38,-3.40903e-12,-1.06642e-13,0,0,-6.8201,-0.155983,0.122067,0,0,0,0,0,0.131368,-0.155983,146,8,146,8,196,8,146,70,0,-0.261799,-1.69827e-07,-1.5,nan,0,0,3,0,0,0,0,0,0,0,0,3100
2000,-3.21239e-12,1.58208e-38,-1.55877e-06,-3.27827e-12,1.58196e-38,0,-1.06643e-13,0,0,-6.8201,-0.155983,0.122067,0,0,0,0,0,0.131368,-0.155983,146,8,146,8,196,8,146,70,0,-0.261799,-1.64122e-07,-1.5,nan,0,0,3,0,0,0,0,0,0,0,0,3100
2010,-3.21239e-12,1.58208e-38,-1.55877e-06,-3.27827e-12,1.58196e-38,-3.40903e-12,-1.06643e-13,0,0,-6.8201,-0.155983,0.122067,0,0,0,0,0,0.131368,-0.155983,146,8,146,8,196,8,146,70,0,-0.261799,-1.58928e-07,-1.5,nan,0,0,3,0,0,0,0,0,0,0,0,3100
2020,-3.21239e-12,1.58208e-38,-1.55877e-06,-3.27827e-12,1.58196e-38,0,-1.06643e-13,0,0,-6.8201,-0.155983,0.122067,0,0,0,0,0,0.131368,-0.155983,146,8,146,8,196,8,146,70,0,-0.261799,-1.53589e-07,-1.5,nan,0,0,3,0,0,0,0,0,0,0,0,3100
2030,-3.21239e-12,1.58208e-38,-1.55877e-06,-3.27827e-12,1.58196e-38,-3.40903e-12,-1.06644e-13,0,0,-6.8201,-0.155983,0.122067,0,0,0,0,0,0.131368,-0.155983,146,8,146,8,196,8,146,70,0,-0.261799,-1.47222e-07,-1.5,nan,0,0,3,0,0,0,0,0,0,0,0,3100
2040,-3.21239e-12,1.58208e-38,-1.55877e-06,-3.27827e-12,1.58196e-38,0,-1.06644e-13,0,0,-6.8201,-0.155983,0.122067,0,0,0,0,0,0.131368,-0.155983,146,8,146,8,196,8,146,70,0,-0.261799,-1.42273e-07,-1.5,nan,0,0,3,0,0,0,0,0,0,0,0,3100
2050,-3.21239e-12,1.58208e-38,-1.55877e-06,-3.27827e-12,1.58196e-38,-3.40903e-12,-1.06644e-13,0,0,-6.8201,-0.155983,0.122067,0,0,0,0,0,0.131368,-0.155983,146,8,146,8,196,8,146,70,0,-0.261799,-1.37493e-07,-1.5,nan,0,0,3,0,0,0,0,0,0,0,0,3100
2060,-3.21239e-12,1.58208e-38,-1.55877e-06,-3.27827e-12,1.58196e-38,0,-1.06644e-13,0,0,-6.8201,-0.155983,0.122067,0,0,0,0,0,0.131368,-0.155983,146,8,146,8,196,8,146,70,0,-0.261799,-1.33142e-07,-1.5,nan,0,0,3,0,0,0,0,0,0,0,0,3100
2070,-3.21239e-12,1.58208e-38,-1.55877e-06,-3.27827e-12,1.58196e-38,-3.40903e-12,-1.06645e-13,0,0,-6.8201,-0.155983,0.122067,0,0,0,0,0,0.131368,-0.155983,146,8,146,8,196,8,146,70,0,-0.261799,-1.28669e-07,-1.5,nan,0,0,3,0,0,0,0,0,0,0,0,3100
2080,-3.21239e-12,1.58208e-38,-1.55877e-06,-3.27827e-12,1.58196e-38,0,-1.06645e-13,0,0,-6.8201,-0.155983,0.122067,0,0,0,0,0,0.131368,-0.155983,146,8,146,8,196,8,146,70,0,-0.261799,-1.2485e-07,-1.5,nan,0,0,3,0,0,0,0,0,0,0,0,3100
2090,-3.21239e-12,1.58208e-38,-1.55877e-06,-3.27827e-12,1.58196e-38,-3.40903e-12,-1.06645e-13,0,0,-6.8201,-0.155983,0.122067,0,0,0,0,0,0.131368,-0.155983,146,8,146,8,196,8,146,70,0,-0.261799,-1.20656e-07,-1.5,nan,0,0,3,0,0,0,0,0,0,0,0,3100
2100,-3.21239e-12,1.58208e-38,-1.55877e-06,-3.27827e-12,1.58196e-38,0,-1.06645e-13,0,0,-6.8201,-0.155983,0.122067,0,0,0,0,0,0.131368,-0.155983,146,8,146,8,196,8,146,70,0,-0.261799,-1.17549e-07,-1.5,nan,0,0,3,0,0,0,0,0,0,0,0,3100
2110,-3.21239e-12,1.58208e-38,-1.55877e-06,-3.27827e-12,1.58196e-38,-3.40903e-12,-1.06646e-13,0,0,-6.8201,-0.155983,0.122067,0,0,0,0,0,0.131368,-0.155983,146,8,146,8,196,8,146,70,0,-0.261799,-1.13829e-07,-1.5,nan,0,0,3,0,0,0,0,0,0,0,0,3100
2120,-3.21239e-12,1.58208e-38,-1.55877e-06,-3.27827e-12,1.58196e-38,0,-1.06646e-13,0,0,-6.8201,-0.155983,0.122067,0,0,0,0,0,0.131368,-0.155983,146,8,146,8,196,8,146,70,0,-0.261799,-1.10005e-07,-1.5,nan,0,0,3,0,0,0,0,0,0,0,0,3100
2130,-3.21239e-12,1.58208e-38,-1.55877e-06,-3.27827e-12,1.58196e-38,-3.40903e-12,-1.06646e-13,0,0,-6.8201,-0.155983,0.122067,0,0,0,0,0,0.131368,-0.155983,146,8,146,8,196,8,146,70,0,-0.261799,-1.06523e-07,-1.5,nan,0,0,3,0,0,0,0,0,0,0,0,3100
2140,-3.21239e-12,1.58208e-38,-1.55877e-06,-3.27827e-12,1.58196e-38,0,-1.06647e-13,0,0,-6.8201,-0.155983,0.122067,0,0,0,0,0,0.131368,-0.155983,146,8,146,8,196,8,146,70,0,-0.261799,-1.02945e-07,-1.5,nan,0,0,3,0,0,0,0,0,0,0,0,3100
2150,-3.21239e-12,1.58208e-38,-1.55877e-06,-3.27827e-12,1.58196e-38,-3.40903e-12,-1.06647e-13,0,0,-6.8201,-0.155983,0.122067,0,0,0,0,0,0.131368,-0.155983,146,8,146,8,196,8,146,70,0,-0.261799,-9.86734e-08,-1.5,nan,0,0,3,0,0,0,0,0,0,0,0,3100
2160,-3.21239e-12,1.58208e-38,-1.55877e-06,-3.27827e-12,1.58196e-38,0,-1.06647e-13,0,0,-6.8201,-0.155983,0.122067,0,0,0,0,0,0.131368,-0.155983,146,8,146,8,196,8,146,70,0,-0.261799,-9.53562e-08,-1.5,nan,0,0,3,0,0,0,0,0,0,0,0,3100
2170,-3.21239e-12,1.58208e-38,-1.55877e-06,-3.27827e-12,1.58196e-38,-3.40903e-12,-1.06647e-13,0,0,-6.8201,-0.155983,0.122067,0,0,0,0,0,0.131368,-0.155983,146,8,146,8,196,8,146,70,0,-0.261799,-9.21505e-08,-1.5,nan,0,0,3,0,0,0,0,0,0,0,0,3100
2180,-3.21239e-12,1.58208e-38,-1.55877e-06,-3.27827e-12,1.58196e-38,0,-1.06648e-13,0,0,-6.8201,-0.155983,0.122067,0,0,0,0,0,0.131368,-0.155983,146,8,146,8,196,8,146,70,0,-0.261799,-8.90548e-08,-1.5,nan,0,0,3,0,0,0,0,0,0,0,0,3100
2190,-3.21239e-12,1.58208e-38,-1.55877e-06,-3.27827e-12,1.58196e-38,-3.40903e-12,-1.06648e-13,0,0,-6.8201,-0.155983,0.122067,0,0,0,0,0,0.131368,-0.155983,146,8,146,8,196,8,146,70,0,-0.261799,-8.62362e-08,-1.5,nan,0,0,3,0,0,0,0,0,0,0,0,3100
2200,-3.21239e-12,1.58208e-38,-1.55877e-06,-3.27827e-12,1.58196e-38,0,-1.06648e-13,0,0,-6.8201,-0.155983,0.122067,0,0,0,0,0,0.131368,-0.155983,146,8,146,8,196,8,146,70,0,-0.261799,-8.33392e-08,-1.5,nan,0,0,3,0,0,0,0,0,0,0,0,3100
2210,-3.21239e-12,1.58208e-38,-1.55877e-06,-3.27827e-12,1.58196e-38,-3.40903e-12,-1.06648e-13,0,0,-6.8201,-0.155983,0.122067,0,0,0,0,0,0.131368,-0.155983,146,8,146,8,196,8,146,70,0,-0.261799,-8.05375e-08,-1.5,nan,0,0,3,0,0,0,0,0,0,0,0,3100
2220,-3.21239e-12,1.58208e-38,-1.55877e-06,-3.27827e-12,1.58196e-38,0,-1.06649e-13,0,0,-6.8201,-0.155983,0.122067,0,0,0,0,0,0.131368,-0.155983,146,8,146,8,196,8,146,70,0,-0.261799,-7.783e-08,-1.5,nan,0,0,3,0,0,0,0,0,0,0,0,3100
2230,-3.21239e-12,1.58208e-38,-1.55877e-06,-3.27827e-12,1.58196e-38,-3.40903e-12,-1.06649e-13,0,0,-6.8201,-0.155983,0.122067,0,0,0,0,0,0.131368,-0.155983,146,8,146,8,196,8,146,70,0,-0.261799,-7.52135e-08,-1.5,nan,0,0,3,0,0,0,0,0,0,0,0,3100
2240,-3.21239e-12,1.58208e-38,-1.55877e-06,-3.27827e-12,1.58196e-38,0,-1.06649e-13,0,0,-6.8201,-0.155983,0.122067,0,0,0,0,0,0.131368,-0.155983,146,8,146,8,196,8,146,70,0,-0.261799,-7.26868e-08,-1.5,nan,0,0,3,0,0,0,0,0,0,0,0,3100
2250,-3.21239e-12,1.58208e-38,-1.55877e-06,-3.27827e-12,1.58196e-38,-3.40903e-12,-1.06649e-13,0,0,-6.8201,-0.155983,0.122067,0,0,0,0,0,0.131368,-0.155983,146,8,146,8,196,8,146,70,0,-0.261799,-7.05305e-08,-1.5,nan,0,0,3,0,0,0,0,0,0,0,0,3100
2260,-3.21239e-12,1.58208e-38,-1.55877e-06,-3.27827e-12,1.58196e-38,0,-1.0665e-13,0,0,-6.8201,-0.155983,0.122067,0,0,0,0,0,0.131368,-0.155983,146,8,146,8,196,8,146,70,0,-0.261799,-6.87146e-08,-1.5,nan,0,0,3,0,0,0,0,0,0,0,0,3100
2270,-3.21239e-12,1.58208e-38,-1.55877e-06,-3.27827e-12,1.58196e-38,-3.40903e-12,-1.0665e-13,0,0,-6.8201,-0.155983,0.122067,0,0,0,0,0,0.131368,-0.155983,146,8,146,8,196,8,146,70,0,-0.261799,-6.65412e-08,-1.5,nan,0,0,3,0,0,0,0,0,0,0,0,3100
2280,-3.21239e-12,1.58208e-38,-1.55877e-06,-3.27827e-12,1.58196e-38,0,-1.0665e-13,0,0,-6.8201,-0.155983,0.122067,0,0,0,0,0,0.131368,-0.155983,146,8,146,8,196,8,146,70,0,-0.261799,-6.46979e-08,-1.5,nan,0,0,3,0,0,0,0,0,0,0,0,3100
2290,-3.21239e-12,1.58208e-38,-1.55877e-06,-3.27827e-12,1.58196e-38,-3.40903e-12,-1.06651e-13,0,0,-6.8201,-0.155983,0.122067,0,0,0,0,0,0.131368,-0.155983,146,8,146,8,196,8,146,70,0,-0.261799,-6.25244e-08,-1.5,nan,0,0,3,0,0,0,0,0,0,0,0,3100
2300,-3.21239e-12,1.58208e-38,-1.55877e-06,-3.27827e-12,1.58196e-38,0,-1.06651e-13,0,0,-6.8201,-0.155983,0.122067,0,0,0,0,0,0.131368,-0.155983,146,8,146,8,196,8,146,70,0,-0.261799,-6.0424e-08,-1.5,nan,0,0,3,0,0,0,0,0,0,0,0,3100
2310,-3.21239e-12,1.58208e-38,-1.55877e-06,-3.27827e-12,1.58196e-38,-3.40903e-12,-1.06651e-13,0,0,-6.8201,-0.155983,0.122067,0,0,0,0,0,0.131368,-0.155983,146,8,146,8,196,8,146,70,0,-0.261799,-5.85116e-08,-1.5,nan,0,0,3,0,0,0,0,0,0,0,0,3100
2320,-3.21239e-12,1.58208e-38,-1.55877e-06,-3.27827e-12,1.58196e-38,0,-1.06651e-13,0,0,-6.8201,-0.155983,0.122067,0,0,0,0,0,0.131368,-0.155983,146,8,146,8,196,8,146,70,0,-0.261799,-5.65459e-08,-1.5,nan,0,0,3,0,0,0,0,0,0,0,0,3100
2330,-3.21239e-12,1.58208e-38,-1.55877e-06,-3.27827e-12,1.58196e-38,-3.40903e-12,-1.06652e-13,0,0,-6.8201,-0.155983,0.122067,0,0,0,0,0,0.131368,-0.155983,146,8,146,8,196,8,146,70,0,-0.261799,-5.40909e-08,-1.5,nan,0,0,3,0,0,0,0,0,0,0,0,3100
2340,-3.21239e-12,1.58208e-38,-1.55877e-06,-3.27827e-12,1.58196e-38,0,-1.06652e-13,0,0,-6.8201,-0.155983,0.122067,0,0,0,0,0,0.131368,-0.155983,146,8,146,8,196,8,146,70,0,-0.261799,-5.22725e-08,-1.5,nan,0,0,3,0,0,0,0,0,0,0,0,3100
2350,-3.21239e-12,1.58208e-38,-1.55877e-06,-3.27827e-12,1.58196e-38,-3.40903e-12,-1.06652e-13,0,0,-6.8201,-0.155983,0.122067,0,0,0,0,0,0.131368,-0.155983,146,8,146,8,196,8,146,70,0,-0.261799,-5.05152e-08,-1.5,nan,0,0,3,0,0,0,0,0,0,0,0,3100
2360,-3.21239e-12,1.58208e-38,-1.55877e-06,-3.27827e-12,1.58196e-38,0,-1.06652e-13,0,0,-6.8201,-0.155983,0.122067,0,0,0,0,0,0.131368,-0.155983,146,8,146,8,196,8,146,70,0,-0.261799,-4.88182e-08,-1.5,nan,0,0,3,0,0,0,0,0,0,0,0,3100
2370,-3.21239e-12,1.58208e-38,-1.55877e-06,-3.27827e-12,1.58196e-38,-3.40903e-12,-1.06653e-13,0,0,-6.8201,-0.155983,0.122067,0,0,0,0,0,0.131368,-0.155983,146,8,146,8,196,8,146,70,0,-0.261799,-4.72731e-08,-1.5,nan,0,0,3,0,0,0,0,0,0,0,0,3100
2380,-3.21239e-12,1.58208e-38,-1.55877e-06,-3.27827e-12,1.58196e-38,0,-1.06653e-13,0,0,-6.8201,-0.155983,0.122067,0,0,0,0,0,0.131368,-0.155983,146,8,146,8,196,8,146,70,0,-0.261799,-4.5685e-08,-1.5,nan,0,0,3,0,0,0,0,0,0,0,0,3100
2390,-3.21239e-12,1.58208e-38,-1.55877e-06,-3.27827e-12,1.58196e-38,-3.40903e-12,-1.06653e-13,0,0,-6.8201,-0.155983,0.122067,0,0,0,0,0,0.131368,-0.155983,146,8,146,8,196,8,146,70,0,-0.261799,-4.39708e-08,-1.5,nan,0,0,3,0,0,0,0,0,0,0,0,3100
2400,-3.21239e-12,1.58208e-38,-1.55877e-06,-3.27827e-12,1.58196e-38,0,-1.06654e-13,0,0,-6.8201,-0.155983,0.122067,0,0,0,0,0,0.131368,-0.155983,146,8,146,8,196,8,146,70,0,-0.261799,-4.24926e-08,-1.5,nan,0,0,3,0,0,0,0,0,0,0,0,3100
2410,-3.21239e-12,1.58208e-38,-1.55877e-06,-3.27827e-12,1.58196e-38,-3.40903e-12,-1.06654e-13,0,0,-6.8201,-0.155983,0.122067,0,0,0,0,0,0.131368,-0.155983,146,8,146,8,196,8,146,70,0,-0.261799,-4.1064e-08,-1.5,nan,0,0,3,0,0,0,0,0,0,0,0,3100
2420,-3.21239e-12,1.58208e-38,-1.55877e-06,-3.27827e-12,1.58196e-38,0,-1.06654e-13,0,0,-6.8201,-0.155983,0.122067,0,0,0,0,0,0.131368,-0.155983,146,8,146,8,196,8,146,70,0,-0.261799,-3.97644e-08,-1.5,nan,0,0,3,0,0,0,0,0,0,0,0,3100
2430,-3.21239e-12,1.58208e-38,-1.55877e-06,-3.27827e-12,1.58196e-38,-3.40903e-12,-1.06654e-13,0,0,-6.8201,-0.155983,0.122067,0,0,0,0,0,0.131368,-0.155983,146,8,146,8,196,8,146,70,0,-0.261799,-3.85841e-08,-1.5,nan,0,0,3,0,0,0,0,0,0,0,0,3100
2440,-3.21239e-12,1.58208e-38,-1.55877e-06,-3.27827e-12,1.58196e-38,0,-1.06655e-13,0,0,-6.8201,-0.155983,0.122067,0,0,0,0,0,0.131368,-0.155983,146,8,146,8,196,8,146,70,0,-0.261799,-3.75153e-08,-1.5,nan,0,0,3,0,0,0,0,0,0,0,0,3100
2450,-3.21239e-12,1.58208e-38,-1.55877e-06,-3.27827e-12,1.58196e-38,-3.40903e-12,-1.06655e-13,0,0,-6.8201,-0.155983,0.122067,0,0,0,0,0,0.131368,-0.155983,146,8,146,8,196,8,146,70,0,-0.261799,-3.63287e-08,-1.5,nan,0,0,3,0,0,0,0,0,0,0,0,3100
2460,-3.21239e-12,1.58208e-38,-1.55877e-06,-3.27827e-12,1.58196e-38,0,-1.06655e-13,0,0,-6.8201,-0.155983,0.122067,0,0,0,0,0,0.131368,-0.155983,146,8,146,8,196,8,146,70,0,-0.261799,-3.51082e-08,-1.5,nan,0,0,3,0,0,0,0,0,0,0,0,3100
2470,-3.21239e-12,1.58208e-38,-1.55877e-06,-3.27827e-12,1.58196e-38,-3.40903e-12,-1.06655e-13,0,0,-6.8201,-0.155983,0.122067,0,0,0,0,0,0.131368,-0.155983,146,8,146,8,196,8,146,70,0,-0.261799,-3.39288e-08,-1.5,nan,0,0,3,0,0,0,0,0,0,0,0,3100
2480,-3.21239e-12,1.58208e-38,-1.55877e-06,-3.27827e-12,1.58196e-38,0,-1.06656e-13,0,0,-6.8201,-0.155983,0.122067,0,0,0,0,0,0.131368,-0.155983,146,8,146,8,196,8,146,70,0,-0.261799,-3.2855e-08,-1.5,nan,0,0,3,0,0,0,0,0,0,0,0,3100
2490,-3.21239e-12,1.58208e-38,-1.55877e-06,-3.27827e-12,1.58196e-38,-3.40903e-12,-1.06656e-13,0,0,-6.8201,-0.155983,0.122067,0,0,0,0,0,0.131368,-0.155983,146,8,146,8,196,8,146,70,0,-0.261799,-3.18151e-08,-1.5,nan,0,0,3,0,0,0,0,0,0,0,0,3100
2500,-3.21239e-12,1.58208e-38,-1.55877e-06,-3.27827e-12,1.58196e-38,0,-1.06656e-13,0,0,-6.8201,-0.155983,0.122067,0,0,0,0,0,0.131368,-0.155983,146,8,146,8,196,8,146,70,0,-0.261799,-3.07463e-08,-1.5,nan,0,0,3,0,0,0,0,0,0,0,0,3100
2510,-3.21239e-12,1.58208e-38,-1.55877e-06,-3.27827e-12,1.58196e-38,-3.40903e-12,-1.06657e-13,0,0,-6.8201,-0.155983,0.122067,0,0,0,0,0,0.131368,-0.155983,146,8,146,8,196,8,146,70,0,-0.261799,-2.94706e-08,-1.5,nan,0,0,3,0,0,0,0,0,0,0,0,3100
2520,-3.21239e-12,1.58208e-38,-1.55877e-06,-3.27827e-12,1.58196e-38,0,-1.06657e-13,0,0,-6.8201,-0.155983,0.122067,0,0,0,0,0,0.131368,-0.155983,146,8,146,8,196,8,146,70,0,-0.261799,-2.84799e-08,-1.5,nan,0,0,3,0,0,0,0,0,0,0,0,3100
2530,-3.21239e-12,1.58208e-38,-1.55877e-06,-3.27827e-12,1.58196e-38,-3.40903e-12,-1.06657e-13,0,0,-6.8201,-0.155983,0.122067,0,0,0,0,0,0.131368,-0.155983,146,8,146,8,196,8,146,70,0,-0.261799,-2.75231e-08,-1.5,nan,0,0,3,0,0,0,0,0,0,0,0,3100
2540,-3.21239e-12,1.58208e-38,-1.55877e-06,-3.27827e-12,1.58196e-38,0,-1.06657e-13,0,0,-6.8201,-0.155983,0.122067,0,0,0,0,0,0.131368,-0.155983,146,8,146,8,196,8,146,70,0,-0.261799,-2.6652e-08,-1.5,nan,0,0,3,0,0,0,0,0,0,0,0,3100
2550,-3.21239e-12,1.58208e-38,-1.55877e-06,-3.27827e-12,1.58196e-38,-3.40903e-12,-1.06658e-13,0,0,-6.8201,-0.155983,0.122067,0,0,0,0,0,0.131368,-0.155983,146,8,146,8,196,8,146,70,0,-0.261799,-2.57567e-08,-1.5,nan,0,0,3,0,0,0,0,0,0,0,0,3100
2560,-3.21239e-12,1.58208e-38,-1.55877e-06,-3.27827e-12,1.58196e-38,0,-1.06658e-13,0,0,-6.8201,-0.155983,0.122067,0,0,0,0,0,0.131368,-0.155983,146,8,146,8,196,8,146,70,0,-0.261799,-2.48914e-08,-1.5,nan,0,0,3,0,0,0,0,0,0,0,0,3100
2570,-3.21239e-12,1.58208e-38,-1.55877e-06,-3.27827e-12,1.58196e-38,-3.40903e-12,-1.06658e-13,0,0,-6.8201,-0.155983,0.122067,0,0,0,0,0,0.131368,-0.155983,146,8,146,8,196,8,146,70,0,-0.261799,-2.40552e-08,-1.5,nan,0,0,3,0,0,0,0,0,0,0,0,3100
2580,-3.21239e-12,1.58208e-38,-1.55877e-06,-3.27827e-12,1.58196e-38,0,-1.06658e-13,0,0,-6.8201,-0.155983,0.122067,0,0,0,0,0,0.131368,-0.155983,146,8,146,8,196,8,146,70,0,-0.261799,-2.32465e-08,-1.5,nan,0,0,3,0,0,0,0,0,0,0,0,3100
2590,-3.21239e-12,1.58208e-38,-1.55877e-06,-3.27827e-12,1.58196e-38,-3.40903e-12,-1.06659e-13,0,0,-6.8201,-0.155983,0.122067,0,0,0,0,0,0.131368,-0.155983,146,8,146,8,196,8,146,70,0,-0.261799,-2.2465e-08,-1.5,nan,0,0,3,0,0,0,0,0,0,0,0,3100
2600,-3.21239e-12,1.58208e-38,-1.55877e-06,-3.27827e-12,1.58196e-38,0,-1.06659e-13,0,0,-6.8201,-0.155983,0.122067,0,0,0,0,0,0.131368,-0.155983,146,8,146,8,196,8,146,70,0,-0.261799,-2.17982e-08,-1.5,nan,0,0,3,0,0,0,0,0,0,0,0,3100
2610,-3.21239e-12,1.58208e-38,-1.55877e-06,-3.27827e-12,1.58196e-38,-3.40903e-12,-1.06659e-13,0,0,-6.8201,-0.155983,0.122067,0,0,0,0,0,0.131368,-0.155983,146,8,146,8,196,8,146,70,0,-0.261799,-2.1237e-08,-1.5,nan,0,0,3,0,0,0,0,0,0,0,0,3100
2620,-3.21239e-12,1.58208e-38,-1.55877e-06,-3.27827e-12,1.58196e-38,0,-1.0666e-13,0,0,-6.8201,-0.155983,0.122067,0,0,0,0,0,0.131368,-0.155983,146,8,146,8,196,8,146,70,0,-0.261799,-2.06487e-08,-1.5,nan,0,0,3,0,0,0,0,0,0,0,0,3100
2630,-3.21239e-12,1.58208e-38,-1.55877e-06,-3.27827e-12,1.58196e-38,-3.40903e-12,-1.0666e-13,0,0,-6.8201,-0.155983,0.122067,0,0,0,0,0,0.131368,-0.155983,146,8,146,8,196,8,146,70,0,-0.261799,-1.99956e-08,-1.5,nan,0,0,3,0,0,0,0,0,0,0,0,3100
2640,-3.21239e-12,1.58208e-38,-1.55877e-06,-3.27827e-12,1.58196e-38,0,-1.0666e-13,0,0,-6.8201,-0.155983,0.122067,0,0,0,0,0,0.131368,-0.155983,146,8,146,8,196,8,146,70,0,-0.261799,-1.93238e-08,-1.5,nan,0,0,3,0,0,0,0,0,0,0,0,3100
2650,-3.21239e-12,1.58208e-38,-1.55877e-06,-3.27827e-12,1.58196e-38,-3.40903e-12,-1.0666e-13,0,0,-6.8201,-0.155983,0.122067,0,0,0,0,0,0.131368,-0.155983,146,8,146,8,196,8,146,70,0,-0.261799,-1.86747e-08,-1.5,nan,0,0,3,0,0,0,0,0,0,0,0,3100
2660,-3.21239e-12,1.58208e-38,-1.55877e-06,-3.27827e-12,1.58196e-38,0,-1.06661e-13,0,0,-6.8201,-0.155983,0.122067,0,0,0,0,0,0.131368,-0.155983,146,8,146,8,196,8,146,70,0,-0.261799,-1.80473e-08,-1.5,nan,0,0,3,0,0,0,0,0,0,0,0,3100
2670,-3.21239e-12,1.58208e-38,-1.55877e-06,-3.27827e-12,1.58196e-38,-3.40903e-12,-1.06661e-13,0,0,-6.8201,-0.155983,0.122067,0,0,0,0,0,0.131368,-0.155983,146,8,146,8,196,8,146,70,0,-0.261799,-1.74765e-08,-1.5,nan,0,0,3,0,0,0,0,0,0,0,0,3100
2680,-3.21239e-12,1.58208e-38,-1.55877e-06,-3.27827e-12,1.58196e-38,0,-1.06661e-13,0,0,-6.8201,-0.155983,0.122067,0,0,0,0,0,0.131368,-0.155983,146,8,146,8,196,8,146,70,0,-0.261799,-1.69233e-08,-1.5,nan,0,0,3,0,0,0,0,0,0,0,0,3100
2690,-3.21239e-12,1.58208e-38,-1.55877e-06,-3.27827e-12,1.58196e-38,-3.40903e-12,-1.06661e-13,0,0,-6.8201,-0.155983,0.122067,0,0,0,0,0,0.131368,-0.155983,146,8,146,8,196,8,146,70,0,-0.261799,-1.62551e-08,-1.5,nan,0,0,3,0,0,0,0,0,0,0,0,3100
2700,-3.21239e-12,1.58208e-38,-1.55877e-06,-3.27827e-12,1.58196e-38,0,-1.06662e-13,0,0,-6.8201,-0.155983,0.122067,0,0,0,0,0,0.131368,-0.155983,146,8,146,8,196,8,146,70,0,-0.261799,-1.5709e-08,-1.5,nan,0,0,3,0,0,0,0,0,0,0,0,3100
