timestamp,A_x,A_y,A_z,P,Q,R,Phi,Theta,Psi,poseX,poseY,poseZ,state_X,state_Y,state_Z,state_VzB,state_Bx,state_By,state_Bz,p1_x,p1_y,p2_x,p2_y,p3_x,p3_y,p4_x,p4_y,roll,pitch,yaw,alt,targetHeading,highLevelState,lowLevelState,gateNumber,filtered_x,filtered_y,x_OT,y_OT,vx_OT,vy_OT,filtered_vx,filtered_vygateArea
10,0,0,0,0,0,0,0,0,0,0,0,0,0,0,0,0,0,0,0,0,0,0,0,0,0,0,0,0,-0.261799,0.00623302,-1.5,0,0,0,3,0,0,0,0,0,0,0,0,1.9603e-19
20,0,0,0,0,0,0,0,0,0,0,0,0,0,0,0,0,0,0,0,0,0,0,0,0,0,0,0,0,-0.261799,0.00602347,-1.5,0,0,0,3,0,0,0,0,0,0,0,0,1.9603e-19
30,-3.34296e-12,4.21418e-38,-1.61558e-06,-3.40794e-12,4.21394e-38,-3.9599e-12,-1.13703e-13,0,0,0,0,0,0,0,0,0,0,0,0,0,0,0,0,0,0,0,0,0,-0.261799,-0.00130409,-1.5,0,0,0,3,0,0,0,0,0,0,0,0,1.9603e-19
40,-3.34296e-12,4.21418e-38,-1.61558e-06,-3.40794e-12,4.21394e-38,0,-1.13703e-13,0,0,0,0,0,0,0,0,0,0,0,0,0,0,0,0,0,0,0,0,0,-0.261799,-0.00126281,-1.5,0,0,0,3,0,0,0,0,0,0,0,0,1.9603e-19
50,-3.34296e-12,4.21418e-38,-1.61558e-06,-3.40794e-12,4.21394e-38,-3.9599e-12,-1.13704e-13,0,0,0,0,0,0,0,0,0,0,0,0,0,0,0,0,0,0,0,0,0,-0.261799,-0.00122287,-1.5,0,0,0,3,0,0,0,0,0,0,0,0,1.9603e-19
60,-3.34296e-12,4.21418e-38,-1.61558e-06,-3.40794e-12,4.21394e-38,0,-1.13704e-13,0,0,0,0,0,0,0,0,0,0,0,0,0,0,0,0,0,0,0,0,0,-0.261799,-0.00118417,-1.5,0,0,0,3,0,0,0,0,0,0,0,0,1.9603e-19
70,-3.34296e-12,4.21418e-38,-1.61558e-06,-3.40794e-12,4.21394e-38,-3.9599e-12,-1.13705e-13,0,0,0,0,0,0,0,0,0,0,0,0,0,0,0,0,0,0,0,0,0,-0.261799,-0.00114902,-1.5,0,0,0,3,0,0,0,0,0,0,0,0,1.9603e-19
80,-3.34296e-12,4.21418e-38,-1.61558e-06,-3.40794e-12,4.21394e-38,0,-1.13705e-13,0,0,0,0,0,0,0,0,0,0,0,0,0,0,0,0,0,0,0,0,0,-0.261799,-0.00111492,-1.5,0,0,0,3,0,0,0,0,0,0,0,0,1.9603e-19
90,-3.34296e-12,4.21418e-38,-1.61558e-06,-3.40794e-12,4.21394e-38,-3.9599e-12,-1.13706e-13,0,0,0,0,0,0,0,0,0,0,0,0,0,0,0,0,0,0,0,0,0,-0.261799,-0.00107527,-1.5,0,0,0,3,0,0,0,0,0,0,0,0,1.9603e-19
100,-3.34296e-12,4.21418e-38,-1.61558e-06,-3.40794e-12,4.21394e-38,0,-1.13706e-13,0,0,0,0,0,0,0,0,0,0,0,0,0,0,0,0,0,0,0,0,0,-0.261799,-0.00104335,-1.5,0,0,0,3,0,0,0,0,0,0,0,0,1.9603e-19
110,-3.34296e-12,4.21418e-38,-1.61558e-06,-3.40794e-12,4.21394e-38,-3.9599e-12,-1.13707e-13,0,0,0,0,0,0,0,0,0,0,0,0,0,0,0,0,0,0,0,0,0,-0.261799,-0.000811141,-1.5,0,0,0,3,0,0,0,0,0,0,0,0,1.9603e-19
120,-3.34298e-12,4.20971e-38,4.2143e-38,-3.40794e-12,4.21394e-38,0,-1.13708e-13,0,0,0,0,0,0,0,0,0,0,0,0,0,0,0,0,0,0,0,0,0,-0.261799,-0.000597084,-1.5,0,0,0,3,0,0,0,0,0,0,0,0,1.9603e-19
130,-3.34296e-12,4.21418e-38,-1.61558e-06,-3.40794e-12,4.21394e-38,-3.9599e-12,-1.13708e-13,0,0,0,0,0,0,0,0,0,0,0,0,0,0,0,0,0,0,0,0,0,-0.261799,-0.000472421,-1.5,0,0,0,3,0,0,0,0,0,0,0,0,1.9603e-19
140,-3.34296e-12,4.21418e-38,-1.61558e-06,-3.40794e-12,4.21394e-38,0,-1.13709e-13,0,0,0,0,0,0,0,0,0,0,0,0,0,0,0,0,0,0,0,0,0,-0.261799,-0.000380458,-1.5,0,0,0,3,0,0,0,0,0,0,0,0,1.9603e-19
150,-3.34296e-12,4.21418e-38,-1.61558e-06,-3.40794e-12,4.21394e-38,-3.9599e-12,-1.13709e-13,0,0,0,0,0,0,0,0,0,0,0,0,0,0,0,0,0,0,0,0,0,-0.261799,-0.000360929,-1.5,0,0,0,3,0,0,0,0,0,0,0,0,1.9603e-19
160,-3.34296e-12,4.21418e-38,-1.61558e-06,-3.40794e-12,4.21394e-38,0,-1.1371e-13,0,0,0,0,0,0,0,0,0,0,0,0,0,0,0,0,0,0,0,0,0,-0.261799,-0.000323281,-1.5,0,0,0,3,0,0,0,0,0,0,0,0,1.9603e-19
170,-3.34296e-12,4.21418e-38,-1.61558e-06,-3.40794e-12,4.21394e-38,-3.9599e-12,-1.1371e-13,0,0,0,0,0,0,0,0,0,0,0,0,0,0,0,0,0,0,0,0,0,-0.261799,-0.000310516,-1.5,0,0,0,3,0,0,0,0,0,0,0,0,1.9603e-19
180,-3.34296e-12,4.21418e-38,-1.61558e-06,-3.40794e-12,4.21394e-38,0,-1.13711e-13,0,0,0,0,0,0,0,0,0,0,0,0,-1366851808,261658789,-1366851808,261658789,1409771995,-1366851808,-1366851712,-1366851712,0,-0.261799,-0.000253858,-1.5,0,0,0,3,0,0,0,0,0,0,0,0,0
190,-3.34296e-12,4.21418e-38,-1.61558e-06,-3.40794e-12,4.21394e-38,-3.9599e-12,-1.13711e-13,0,0,0,0,0,0,0,0,0,0,0,0,-1366851808,261658789,-1366851808,261658789,1409771995,-1366851808,-1366851712,-1366851712,0,-0.261799,-0.000244831,-1.5,0,0,0,3,0,0,0,0,0,0,0,0,0
200,-3.34296e-12,4.21418e-38,-1.61558e-06,-3.40794e-12,4.21394e-38,0,-1.13712e-13,0,0,0,0,0,0,0,0,0,0,0,0,-1366851808,261658789,-1366851808,261658789,1409771995,-1366851808,-1366851712,-1366851712,0,-0.261799,-0.000237568,-1.5,0,0,0,3,0,0,0,0,0,0,0,0,0
210,-3.34296e-12,4.21418e-38,-1.61558e-06,-3.40794e-12,4.21394e-38,-3.9599e-12,-1.13712e-13,0,0,0,0,0,0,0,0,0,0,0,0,-1366851808,261658789,-1366851808,261658789,1409771995,-1366851808,-1366851712,-1366851712,0,-0.261799,-0.000230054,-1.5,0,0,0,3,0,0,0,0,0,0,0,0,0
220,-3.34296e-12,4.21418e-38,-1.61558e-06,-3.40794e-12,4.21394e-38,0,-1.13713e-13,0,0,0,0,0,0,0,0,0,0,0,0,-1366851808,261658789,-1366851808,261658789,1409771995,-1366851808,-1366851712,-1366851712,0,-0.261799,-0.000223678,-1.5,0,0,0,3,0,0,0,0,0,0,0,0,0
230,-3.34296e-12,4.21418e-38,-1.61558e-06,-3.40794e-12,4.21394e-38,-3.9599e-12,-1.13714e-13,0,0,0,0,0,0,0,0,0,0,0,0,-1366851808,261658789,-1366851808,261658789,1409771995,-1366851808,-1366851712,-1366851712,0,-0.261799,-0.000215718,-1.5,0,0,0,3,0,0,0,0,0,0,0,0,0
240,-3.34296e-12,4.21418e-38,-1.61558e-06,-3.40794e-12,4.21394e-38,0,-1.13714e-13,0,0,-7,0.29,0.2,0,0,0,0,0,-3,0.29,121,10,121,10,176,10,121,65,0,-0.261799,-0.000208895,-1.5,0,0,0,3,0,0,0,0,0,0,0,0,3025
250,-3.34296e-12,4.21418e-38,-1.61558e-06,-3.40794e-12,4.21394e-38,-3.9599e-12,-1.13715e-13,0,0,-7,0.29,0.2,0,0,0,0,0,-3,0.29,121,10,121,10,176,10,121,65,0,-0.261799,-0.000202283,-1.5,0,0,0,3,0,0,0,0,0,0,0,0,3025
260,-3.34296e-12,4.21418e-38,-1.61558e-06,-3.40794e-12,4.21394e-38,0,-1.13715e-13,0,0,-7,0.29,0.2,0,0,0,0,0,-3,0.29,121,10,121,10,176,10,121,65,0,-0.261799,-0.000196279,-1.5,0,0,0,3,0,0,0,0,0,0,0,0,3025
270,-3.34296e-12,4.21418e-38,-1.61558e-06,-3.40794e-12,4.21394e-38,-3.9599e-12,-1.13716e-13,0,0,-7,0.29,0.2,0,0,0,0,0,-3,0.29,121,10,121,10,176,10,121,65,0,-0.261799,-0.000190453,-1.5,0,0,0,3,0,0,0,0,0,0,0,0,3025
280,-3.34296e-12,4.21418e-38,-1.61558e-06,-3.40794e-12,4.21394e-38,0,-1.13716e-13,0,0,-7,0.29,0.2,0,0,0,0,0,-3,0.29,121,10,121,10,176,10,121,65,0,-0.261799,-0.000182926,-1.5,0,0,0,3,0,0,0,0,0,0,0,0,3025
290,-3.34296e-12,4.21418e-38,-1.61558e-06,-3.40794e-12,4.21394e-38,-3.9599e-12,-1.13717e-13,0,0,-7,0.29,0.2,0,0,0,0,0,-3,0.29,121,10,121,10,176,10,121,65,0,-0.261799,-0.00017714,-1.5,0,0,0,3,0,0,0,0,0,0,0,0,3025
300,-3.34296e-12,4.21418e-38,-1.61558e-06,-3.40794e-12,4.21394e-38,0,-1.13717e-13,0,0,-7,0.29,0.2,0,0,0,0,0,-3,0.29,121,10,121,10,176,10,121,65,0,-0.261799,-0.000170146,-1.5,0,0,0,3,0,0,0,0,0,0,0,0,3025
310,-3.34296e-12,4.21418e-38,-1.61558e-06,-3.40794e-12,4.21394e-38,-3.9599e-12,-1.13718e-13,0,0,-7,0.29,0.2,0,0,0,0,0,-3,0.29,121,10,121,10,176,10,121,65,0,-0.261799,-0.000165095,-1.5,0,0,0,3,0,0,0,0,0,0,0,0,3025
320,-3.34296e-12,4.21418e-38,-1.61558e-06,-3.40794e-12,4.21394e-38,0,-1.13718e-13,0,0,-7,0.29,0.2,0,0,0,0,0,-3,0.29,121,10,121,10,176,10,121,65,0,-0.261799,-0.000160195,-1.5,0,0,0,3,0,0,0,0,0,0,0,0,3025
330,-3.34296e-12,4.21418e-38,-1.61558e-06,-3.40794e-12,4.21394e-38,-3.9599e-12,-1.13719e-13,0,0,-7,0.29,0.2,0,0,0,0,0,-3,0.29,121,10,121,10,176,10,121,65,0,-0.261799,-0.000154813,-1.5,0,0,0,3,0,0,0,0,0,0,0,0,3025
340,-3.34296e-12,4.21418e-38,-1.61558e-06,-3.40794e-12,4.21394e-38,0,-1.13719e-13,0,0,-7,0.29,0.2,0,0,0,0,0,-3,0.29,121,10,121,10,176,10,121,65,0,-0.261799,-0.000149,-1.5,0,0,0,3,0,0,0,0,0,0,0,0,3025
350,-3.34296e-12,4.21418e-38,-1.61558e-06,-3.40794e-12,4.21394e-38,-3.9599e-12,-1.1372e-13,0,0,-7,0.29,0.2,0,0,0,0,0,-3,0.29,121,10,121,10,176,10,121,65,0,-0.261799,-0.00014399,-1.5,0,0,0,3,0,0,0,0,0,0,0,0,3025
360,-3.34296e-12,4.21418e-38,-1.61558e-06,-3.40794e-12,4.21394e-38,0,-1.13721e-13,0,0,-7,0.29,0.2,0,0,0,0,0,-3,0.29,121,10,121,10,176,10,121,65,0,-0.261799,-0.000139433,-1.5,0,0,0,3,0,0,0,0,0,0,0,0,3025
370,-3.34296e-12,4.21418e-38,-1.61558e-06,-3.40794e-12,4.21394e-38,-3.9599e-12,-1.13721e-13,0,0,-7,0.29,0.2,0,0,0,0,0,-3,0.29,121,10,121,10,176,10,121,65,0,-0.261799,-0.000110321,-1.5,0,0,0,3,0,0,0,0,0,0,0,0,3025
380,-3.34296e-12,4.21418e-38,-1.61558e-06,-3.40794e-12,4.21394e-38,0,-1.13722e-13,0,0,-7,0.29,0.2,0,0,0,0,0,-3,0.29,121,10,121,10,176,10,121,65,0,-0.261799,-9.51302e-05,-1.5,0,0,0,3,0,0,0,0,0,0,0,0,3025
390,-3.34296e-12,4.21418e-38,-1.61558e-06,-3.40794e-12,4.21394e-38,-3.9599e-12,-1.13722e-13,0,0,-7,0.29,0.2,0,0,0,0,0,-3,0.29,121,10,121,10,176,10,121,65,0,-0.261799,-9.21212e-05,-1.5,0,0,0,3,0,0,0,0,0,0,0,0,3025
400,-3.34296e-12,4.21418e-38,-1.61558e-06,-3.40794e-12,4.21394e-38,0,-1.13723e-13,0,0,-7,0.29,0.2,0,0,0,0,0,-3,0.29,121,10,121,10,176,10,121,65,0,-0.261799,-8.90243e-05,-1.5,0,0,0,3,0,0,0,0,0,0,0,0,3025
410,-3.34296e-12,4.21418e-38,-1.61558e-06,-3.40794e-12,4.21394e-38,-3.9599e-12,-1.13723e-13,0,0,-7,0.29,0.2,0,0,0,0,0,-3,0.29,121,10,121,10,176,10,121,65,0,-0.261799,-8.67324e-05,-1.5,0,0,0,3,0,0,0,0,0,0,0,0,3025
420,-3.34296e-12,4.21418e-38,-1.61558e-06,-3.40794e-12,4.21394e-38,0,-1.13724e-13,0,0,-7,0.29,0.2,0,0,0,0,0,-3,0.29,121,10,121,10,176,10,121,65,0,-0.261799,-8.44994e-05,-1.5,0,0,0,3,0,0,0,0,0,0,0,0,3025
430,-3.34296e-12,4.21418e-38,-1.61558e-06,-3.40794e-12,4.21394e-38,-3.9599e-12,-1.13724e-13,0,0,-7,0.29,0.2,0,0,0,0,0,-3,0.29,121,10,121,10,176,10,121,65,0,-0.261799,-8.09998e-05,-1.5,0,0,0,3,0,0,0,0,0,0,0,0,3025
440,-3.34296e-12,4.21418e-38,-1.61558e-06,-3.40794e-12,4.21394e-38,0,-1.13725e-13,0,0,-7,0.29,0.2,0,0,0,0,0,-3,0.29,121,10,121,10,176,10,121,65,0,-0.261799,-7.82787e-05,-1.5,0,0,0,3,0,0,0,0,0,0,0,0,3025
450,-3.34296e-12,4.21418e-38,-1.61558e-06,-3.40794e-12,4.21394e-38,-3.9599e-12,-1.13725e-13,0,0,-7,0.29,0.2,0,0,0,0,0,-3,0.29,121,10,121,10,176,10,121,65,0,-0.261799,-7.5649e-05,-1.5,0,0,0,3,0,0,0,0,0,0,0,0,3025
460,-3.34296e-12,4.21418e-38,-1.61558e-06,-3.40794e-12,4.21394e-38,0,-1.13726e-13,0,0,-7,0.29,0.2,0,0,0,0,0,-3,0.29,121,10,121,10,176,10,121,65,0,-0.261799,-7.34036e-05,-1.5,0,0,0,3,0,0,0,0,0,0,0,0,3025
470,-3.34296e-12,4.21418e-38,-1.61558e-06,-3.40794e-12,4.21394e-38,-3.9599e-12,-1.13727e-13,0,0,-7,0.29,0.2,0,0,0,0,0,-3,0.29,121,10,121,10,176,10,121,65,0,-0.261799,-7.09359e-05,-1.5,0,0,0,3,0,0,0,0,0,0,0,0,3025
480,-3.34296e-12,4.21418e-38,-1.61558e-06,-3.40794e-12,4.21394e-38,0,-1.13727e-13,0,0,-7,0.29,0.2,0,0,0,0,0,-3,0.29,121,10,121,10,176,10,121,65,0,-0.261799,-6.88304e-05,-1.5,0,0,0,3,0,0,0,0,0,0,0,0,3025
490,-3.34296e-12,4.21418e-38,-1.61558e-06,-3.40794e-12,4.21394e-38,-3.9599e-12,-1.13728e-13,0,0,-7,0.29,0.2,0,0,0,0,0,-3,0.29,121,10,121,10,176,10,121,65,0,-0.261799,-6.65165e-05,-1.5,0,0,0,3,0,0,0,0,0,0,0,0,3025
500,-3.34296e-12,4.21418e-38,-1.61558e-06,-3.40794e-12,4.21394e-38,0,-1.13728e-13,0,0,-7,0.29,0.2,0,0,0,0,0,-3,0.29,121,10,121,10,176,10,121,65,0,-0.261799,-6.38876e-05,-1.5,0,0,0,3,0,0,0,0,0,0,0,0,3025
510,-3.34296e-12,4.21418e-38,-1.61558e-06,-3.40794e-12,4.21394e-38,-3.9599e-12,-1.13729e-13,0,0,-7,0.29,0.2,0,0,0,0,0,-3,0.29,121,10,121,10,176,10,121,65,0,-0.261799,-6.18655e-05,-1.5,0,0,0,3,0,0,0,0,0,0,0,0,3025
520,-3.34296e-12,4.21418e-38,-1.61558e-06,-3.40794e-12,4.21394e-38,0,-1.13729e-13,0,0,-7,0.29,0.2,0,0,0,0,0,-3,0.29,121,10,121,10,176,10,121,65,0,-0.261799,-5.97872e-05,-1.5,0,0,0,3,0,0,0,0,0,0,0,0,3025
530,-3.34296e-12,4.21418e-38,-1.61558e-06,-3.40794e-12,4.21394e-38,-3.9599e-12,-1.1373e-13,0,0,-7,0.29,0.2,0,0,0,0,0,-3,0.29,121,10,121,10,176,10,121,65,0,-0.261799,-5.80136e-05,-1.5,0,0,0,3,0,0,0,0,0,0,0,0,3025
540,-3.34296e-12,4.21418e-38,-1.61558e-06,-3.40794e-12,4.21394e-38,0,-1.1373e-13,0,0,-7,0.29,0.2,0,0,0,0,0,-3,0.29,121,10,121,10,176,10,121,65,0,-0.261799,-5.62926e-05,-1.5,0,0,0,3,0,0,0,0,0,0,0,0,3025
550,-3.34296e-12,4.21418e-38,-1.61558e-06,-3.40794e-12,4.21394e-38,-3.9599e-12,-1.13731e-13,0,0,-7,0.29,0.2,0,0,0,0,0,-3,0.29,121,10,121,10,176,10,121,65,0,-0.261799,-5.40697e-05,-1.5,0,0,0,3,0,0,0,0,0,0,0,0,3025
560,-3.34296e-12,4.21418e-38,-1.61558e-06,-3.40794e-12,4.21394e-38,0,-1.13731e-13,0,0,-7,0.29,0.2,0,0,0,0,0,-3,0.29,121,10,121,10,176,10,121,65,0,-0.261799,-5.23595e-05,-1.5,0,0,0,3,0,0,0,0,0,0,0,0,3025
570,-3.34296e-12,4.21418e-38,-1.61558e-06,-3.40794e-12,4.21394e-38,-3.9599e-12,-1.13732e-13,0,0,-7,0.29,0.2,0,0,0,0,0,-3,0.29,121,10,121,10,176,10,121,65,0,-0.261799,-5.03932e-05,-1.5,0,0,0,3,0,0,0,0,0,0,0,0,3025
580,-3.34296e-12,4.21418e-38,-1.61558e-06,-3.40794e-12,4.21394e-38,0,-1.13732e-13,0,0,-7,0.29,0.2,0,0,0,0,0,-3,0.29,121,10,121,10,176,10,121,65,0,-0.261799,-4.87982e-05,-1.5,0,0,0,3,0,0,0,0,0,0,0,0,3025
590,-3.34296e-12,4.21418e-38,-1.61558e-06,-3.40794e-12,4.21394e-38,-3.9599e-12,-1.13733e-13,0,0,-7,0.29,0.2,0,0,0,0,0,-3,0.29,121,10,121,10,176,10,121,65,0,-0.261799,-4.73498e-05,-1.5,0,0,0,3,0,0,0,0,0,0,0,0,3025
600,-3.34296e-12,4.21418e-38,-1.61558e-06,-3.40794e-12,4.21394e-38,0,-1.13734e-13,0,0,-7,0.29,0.2,0,0,0,0,0,-3,0.29,121,10,121,10,176,10,121,65,0,-0.261799,-4.58512e-05,-1.5,0,0,0,3,0,0,0,0,0,0,0,0,3025
610,-3.34296e-12,4.21418e-38,-1.61558e-06,-3.40794e-12,4.21394e-38,-3.9599e-12,-1.13734e-13,0,0,-7,0.29,0.2,0,0,0,0,0,-3,0.29,121,10,121,10,176,10,121,65,0,-0.261799,-4.44009e-05,-1.5,0,0,0,3,0,0,0,0,0,0,0,0,3025
620,-3.34296e-12,4.21418e-38,-1.61558e-06,-3.40794e-12,4.21394e-38,0,-1.13735e-13,0,0,-7,0.29,0.2,0,0,0,0,0,-3,0.29,121,10,121,10,176,10,121,65,0,-0.261799,-4.3171e-05,-1.5,0,0,0,3,0,0,0,0,0,0,0,0,3025
630,-3.34296e-12,4.21418e-38,-1.61558e-06,-3.40794e-12,4.21394e-38,-3.9599e-12,-1.13735e-13,0,0,-7,0.29,0.2,0,0,0,0,0,-3,0.29,121,10,121,10,176,10,121,65,0,-0.261799,-4.18055e-05,-1.5,0,0,0,3,0,0,0,0,0,0,0,0,3025
640,-3.34296e-12,4.21418e-38,-1.61558e-06,-3.40794e-12,4.21394e-38,0,-1.13736e-13,0,0,-7,0.29,0.2,0,0,0,0,0,-3,0.29,121,10,121,10,176,10,121,65,0,-0.261799,-4.05646e-05,-1.5,0,0,0,3,0,0,0,0,0,0,0,0,3025
650,-3.34296e-12,4.21418e-38,-1.61558e-06,-3.40794e-12,4.21394e-38,-3.9599e-12,-1.13736e-13,0,0,-7,0.29,0.2,0,0,0,0,0,-3,0.29,121,10,121,10,176,10,121,65,0,-0.261799,-3.88816e-05,-1.5,0,0,0,3,0,0,0,0,0,0,0,0,3025
660,-3.34296e-12,4.21418e-38,-1.61558e-06,-3.40794e-12,4.21394e-38,0,-1.13737e-13,0,0,-7,0.29,0.2,0,0,0,0,0,-3,0.29,121,10,121,10,176,10,121,65,0,-0.261799,-3.77275e-05,-1.5,0,0,0,3,0,0,0,0,0,0,0,0,3025
670,-3.34296e-12,4.21418e-38,-1.61558e-06,-3.40794e-12,4.21394e-38,-3.9599e-12,-1.13737e-13,0,0,-7,0.29,0.2,0,0,0,0,0,-3,0.29,121,10,121,10,176,10,121,65,0,-0.261799,-2.96277e-05,-1.5,0,0,0,3,0,0,0,0,0,0,0,0,3025
680,-3.34296e-12,4.21418e-38,-1.61558e-06,-3.40794e-12,4.21394e-38,0,-1.13738e-13,0,0,-7,0.29,0.2,0,0,0,0,0,-3,0.29,121,10,121,10,176,10,121,65,0,-0.261799,-2.54316e-05,-1.5,0,0,0,3,0,0,0,0,0,0,0,0,3025
690,-3.34296e-12,4.21418e-38,-1.61558e-06,-3.40794e-12,4.21394e-38,-3.9599e-12,-1.13738e-13,0,0,-7,0.29,0.2,0,0,0,0,0,-3,0.29,121,10,121,10,176,10,121,65,0,-0.261799,-2.46772e-05,-1.5,0,0,0,3,0,0,0,0,0,0,0,0,3025
700,-3.34296e-12,4.21418e-38,-1.61558e-06,-3.40794e-12,4.21394e-38,0,-1.13739e-13,0,0,-7,0.29,0.2,0,0,0,0,0,-3,0.29,121,10,121,10,176,10,121,65,0,-0.261799,-2.36551e-05,-1.5,0,0,0,3,0,0,0,0,0,0,0,0,3025
710,-3.34296e-12,4.21418e-38,-1.61558e-06,-3.40794e-12,4.21394e-38,-3.9599e-12,-1.1374e-13,0,0,-7,0.29,0.2,0,0,0,0,0,-3,0.29,121,10,121,10,176,10,121,65,0,-0.261799,-2.29064e-05,-1.5,0,0,0,3,0,0,0,0,0,0,0,0,3025
720,-3.34296e-12,4.21418e-38,-1.61558e-06,-3.40794e-12,4.21394e-38,0,-1.1374e-13,0,0,-7,0.29,0.2,0,0,0,0,0,-3,0.29,121,10,121,10,176,10,121,65,0,-0.261799,-2.20919e-05,-1.5,0,0,0,3,0,0,0,0,0,0,0,0,3025
730,-3.34296e-12,4.21418e-38,-1.61558e-06,-3.40794e-12,4.21394e-38,-3.9599e-12,-1.13741e-13,0,0,-7,0.29,0.2,0,0,0,0,0,-3,0.29,121,10,121,10,176,10,121,65,0,-0.261799,-2.14361e-05,-1.5,0,0,0,3,0,0,0,0,0,0,0,0,3025
740,-3.34296e-12,4.21418e-38,-1.61558e-06,-3.40794e-12,4.21394e-38,0,-1.13741e-13,0,0,-7,0.29,0.2,0,0,0,0,0,-3,0.29,121,10,121,10,176,10,121,65,0,-0.261799,-2.07999e-05,-1.5,0,0,0,3,0,0,0,0,0,0,0,0,3025
750,-3.34296e-12,4.21418e-38,-1.61558e-06,-3.40794e-12,4.21394e-38,-3.9599e-12,-1.13742e-13,0,0,-7,0.29,0.2,0,0,0,0,0,-3,0.29,121,10,121,10,176,10,121,65,0,-0.261799,-2.01006e-05,-1.5,0,0,0,3,0,0,0,0,0,0,0,0,3025
760,-3.34296e-12,4.21418e-38,-1.61558e-06,-3.40794e-12,4.21394e-38,0,-1.13742e-13,0,0,-7,0.29,0.2,0,0,0,0,0,-3,0.29,121,10,121,10,176,10,121,65,0,-0.261799,-1.93859e-05,-1.5,0,0,0,3,0,0,0,0,0,0,0,0,3025
770,-3.34296e-12,4.21418e-38,-1.61558e-06,-3.40794e-12,4.21394e-38,-3.9599e-12,-1.13743e-13,0,0,-7,0.29,0.2,0,0,0,0,0,-3,0.29,121,10,121,10,176,10,121,65,0,-0.261799,-1.86197e-05,-1.5,0,0,0,3,0,0,0,0,0,0,0,0,3025
780,-3.34296e-12,4.21418e-38,-1.61558e-06,-3.40794e-12,4.21394e-38,0,-1.13743e-13,0,0,-7,0.29,0.2,0,0,0,0,0,-3,0.29,121,10,121,10,176,10,121,65,0,-0.261799,-1.80308e-05,-1.5,0,0,0,3,0,0,0,0,0,0,0,0,3025
790,-3.34296e-12,4.21418e-38,-1.61558e-06,-3.40794e-12,4.21394e-38,-3.9599e-12,-1.13744e-13,0,0,-7,0.29,0.2,0,0,0,0,0,-3,0.29,121,10,121,10,176,10,121,65,0,-0.261799,-1.73181e-05,-1.5,0,0,0,3,0,0,0,0,0,0,0,0,3025
800,-3.34296e-12,4.21418e-38,-1.61558e-06,-3.40794e-12,4.21394e-38,0,-1.13744e-13,0,0,-7,0.29,0.2,0,0,0,0,0,-3,0.29,121,10,121,10,176,10,121,65,0,-0.261799,-1.68723e-05,-1.5,0,0,0,3,0,0,0,0,0,0,0,0,3025
810,-3.34296e-12,4.21418e-38,-1.61558e-06,-3.40794e-12,4.21394e-38,-3.9599e-12,-1.13745e-13,0,0,-7,0.29,0.2,0,0,0,0,0,-3,0.29,121,10,121,10,176,10,121,65,0,-0.261799,-1.6438e-05,-1.5,0,0,0,3,0,0,0,0,0,0,0,0,3025
820,-3.34296e-12,4.21418e-38,-1.61558e-06,-3.40794e-12,4.21394e-38,0,-1.13745e-13,0,0,-7,0.29,0.2,0,0,0,0,0,-3,0.29,121,10,121,10,176,10,121,65,0,-0.261799,-1.58858e-05,-1.5,0,0,0,3,0,0,0,0,0,0,0,0,3025
830,-3.34296e-12,4.21418e-38,-1.61558e-06,-3.40794e-12,4.21394e-38,-3.9599e-12,-1.13746e-13,0,0,-7,0.29,0.2,0,0,0,0,0,-3,0.29,121,10,121,10,176,10,121,65,0,-0.261799,-1.53833e-05,-1.5,0,0,0,3,0,0,0,0,0,0,0,0,3025
840,-3.34296e-12,4.21418e-38,-1.61558e-06,-3.40794e-12,4.21394e-38,0,-1.13747e-13,0,0,-7,0.29,0.2,0,0,0,0,0,-3,0.29,121,10,121,10,176,10,121,65,0,-0.261799,-1.48363e-05,-1.5,0,0,0,3,0,0,0,0,0,0,0,0,3025
850,-3.34296e-12,4.21418e-38,-1.61558e-06,-3.40794e-12,4.21394e-38,-3.9599e-12,-1.13747e-13,0,0,-7,0.29,0.2,0,0,0,0,0,-3,0.29,121,10,121,10,176,10,121,65,0,-0.261799,-1.4396e-05,-1.5,0,0,0,3,0,0,0,0,0,0,0,0,3025
860,-3.34296e-12,4.21418e-38,-1.61558e-06,-3.40794e-12,4.21394e-38,0,-1.13748e-13,0,0,-7,0.29,0.2,0,0,0,0,0,-3,0.29,121,10,121,10,176,10,121,65,0,-0.261799,-1.39687e-05,-1.5,0,0,0,3,0,0,0,0,0,0,0,0,3025
870,-3.34296e-12,4.21418e-38,-1.61558e-06,-3.40794e-12,4.21394e-38,-3.9599e-12,-1.13748e-13,0,0,-7,0.29,0.2,0,0,0,0,0,-3,0.29,121,10,121,10,176,10,121,65,0,-0.261799,-1.34441e-05,-1.5,0,0,0,3,0,0,0,0,0,0,0,0,3025
880,-3.34296e-12,4.21418e-38,-1.61558e-06,-3.40794e-12,4.21394e-38,0,-1.13749e-13,0,0,-7,0.29,0.2,0,0,0,0,0,-3,0.29,121,10,121,10,176,10,121,65,0,-0.261799,-1.2966e-05,-1.5,0,0,0,3,0,0,0,0,0,0,0,0,3025
890,-3.34296e-12,4.21418e-38,-1.61558e-06,-3.40794e-12,4.21394e-38,-3.9599e-12,-1.13749e-13,0,0,-7,0.29,0.2,0,0,0,0,0,-3,0.29,121,10,121,10,176,10,121,65,0,-0.261799,-1.25305e-05,-1.5,0,0,0,3,0,0,0,0,0,0,0,0,3025
900,-3.34296e-12,4.21418e-38,-1.61558e-06,-3.40794e-12,4.21394e-38,0,-1.1375e-13,0,0,-7,0.29,0.2,0,0,0,0,0,-3,0.29,121,10,121,10,176,10,121,65,0,-0.261799,-1.21341e-05,-1.5,0,0,0,3,0,0,0,0,0,0,0,0,3025
910,-3.34296e-12,4.21418e-38,-1.61558e-06,-3.40794e-12,4.21394e-38,-3.9599e-12,-1.1375e-13,0,0,-7,0.29,0.2,0,0,0,0,0,-3,0.29,121,10,121,10,176,10,121,65,0,-0.261799,-1.1774e-05,-1.5,0,0,0,3,0,0,0,0,0,0,0,0,3025
920,-3.34296e-12,4.21418e-38,-1.61558e-06,-3.40794e-12,4.21394e-38,0,-1.13751e-13,0,0,-7,0.29,0.2,0,0,0,0,0,-3,0.29,121,10,121,10,176,10,121,65,0,-0.261799,-1.13781e-05,-1.5,0,0,0,3,0,0,0,0,0,0,0,0,3025
930,-3.34296e-12,4.21418e-38,-1.61558e-06,-3.40794e-12,4.21394e-38,-3.9599e-12,-1.13751e-13,0,0,-7,0.29,0.2,0,0,0,0,0,-3,0.29,121,10,121,10,176,10,121,65,0,-0.261799,-1.10404e-05,-1.5,0,0,0,3,0,0,0,0,0,0,0,0,3025
940,-3.34296e-12,4.21418e-38,-1.61558e-06,-3.40794e-12,4.21394e-38,0,-1.13752e-13,0,0,-7,0.29,0.2,0,0,0,0,0,-3,0.29,121,10,121,10,176,10,121,65,0,-0.261799,-1.05177e-05,-1.5,0,0,0,3,0,0,0,0,0,0,0,0,3025
950,-3.34296e-12,4.21418e-38,-1.61558e-06,-3.40794e-12,4.21394e-38,-3.9599e-12,-1.13753e-13,0,0,-7,0.29,0.2,0,0,0,0,0,-3,0.29,121,10,121,10,176,10,121,65,0,-0.261799,-1.0185e-05,-1.5,0,0,0,3,0,0,0,0,0,0,0,0,3025
960,-3.34296e-12,4.21418e-38,-1.61558e-06,-3.40794e-12,4.21394e-38,0,-1.13753e-13,0,0,-7,0.29,0.2,0,0,0,0,0,-3,0.29,121,10,121,10,176,10,121,65,0,-0.261799,-9.88273e-06,-1.5,0,0,0,3,0,0,0,0,0,0,0,0,3025
970,-3.34296e-12,4.21418e-38,-1.61558e-06,-3.40794e-12,4.21394e-38,-3.9599e-12,-1.13754e-13,0,0,-7,0.29,0.2,0,0,0,0,0,-3,0.29,121,10,121,10,176,10,121,65,0,-0.261799,-9.5505e-06,-1.5,0,0,0,3,0,0,0,0,0,0,0,0,3025
980,-3.34296e-12,4.21418e-38,-1.61558e-06,-3.40794e-12,4.21394e-38,0,-1.13754e-13,0,0,-7,0.29,0.2,0,0,0,0,0,-3,0.29,121,10,121,10,176,10,121,65,0,-0.261799,-7.48129e-06,-1.5,0,0,0,3,0,0,0,0,0,0,0,0,3025
990,-3.34296e-12,4.21418e-38,-1.61558e-06,-3.40794e-12,4.21394e-38,-3.9599e-12,-1.13755e-13,0,0,-7,0.29,0.2,0,0,0,0,0,-3,0.29,121,10,121,10,176,10,121,65,0,-0.261799,-6.43643e-06,-1.5,0,0,0,3,0,0,0,0,0,0,0,0,3025
1000,-3.34296e-12,4.21418e-38,-1.61558e-06,-3.40794e-12,4.21394e-38,0,-1.13755e-13,0,0,-7,0.29,0.2,0,0,0,0,0,-3,0.29,121,10,121,10,176,10,121,65,0,-0.261799,-6.27072e-06,-1.5,0,0,0,3,0,0,0,0,0,0,0,0,3025
1010,-3.34296e-12,4.21418e-38,-1.61558e-06,-3.40794e-12,4.21394e-38,-3.9599e-12,-1.13756e-13,0,0,-7,0.29,0.2,0,0,0,0,0,-3,0.29,121,10,121,10,176,10,121,65,0,-0.261799,-6.09701e-06,-1.5,0,0,0,3,0,0,0,0,0,0,0,0,3025
1020,-3.34296e-12,4.21418e-38,-1.61558e-06,-3.40794e-12,4.21394e-38,0,-1.13756e-13,0,0,-7,0.29,0.2,0,0,0,0,0,-3,0.29,121,10,121,10,176,10,121,65,0,-0.261799,-5.92812e-06,-1.5,0,0,0,3,0,0,0,0,0,0,0,0,3025
1030,-3.34296e-12,4.21418e-38,-1.61558e-06,-3.40794e-12,4.21394e-38,-3.9599e-12,-1.13757e-13,0,0,-7,0.29,0.2,0,0,0,0,0,-3,0.29,121,10,121,10,176,10,121,65,0,-0.261799,-5.75225e-06,-1.5,0,0,0,3,0,0,0,0,0,0,0,0,3025
1040,-3.34296e-12,4.21418e-38,-1.61558e-06,-3.40794e-12,4.21394e-38,0,-1.13757e-13,0,0,-7,0.29,0.2,0,0,0,0,0,-3,0.29,121,10,121,10,176,10,121,65,0,-0.261799,-5.52491e-06,-1.5,0,0,0,3,0,0,0,0,0,0,0,0,3025
1050,-3.34296e-12,4.21418e-38,-1.61558e-06,-3.40794e-12,4.21394e-38,-3.9599e-12,-1.13758e-13,0,0,-7,0.29,0.2,0,0,0,0,0,-3,0.29,121,10,121,10,176,10,121,65,0,-0.261799,-5.35005e-06,-1.5,0,0,0,3,0,0,0,0,0,0,0,0,3025
1060,-3.34296e-12,4.21418e-38,-1.61558e-06,-3.40794e-12,4.21394e-38,0,-1.13759e-13,0,0,-7,0.29,0.2,0,0,0,0,0,-3,0.29,121,10,121,10,176,10,121,65,0,-0.261799,-5.18083e-06,-1.5,0,0,0,3,0,0,0,0,0,0,0,0,3025
1070,-3.34296e-12,4.21418e-38,-1.61558e-06,-3.40794e-12,4.21394e-38,-3.9599e-12,-1.13759e-13,0,0,-7,0.29,0.2,0,0,0,0,0,-3,0.29,121,10,121,10,176,10,121,65,0,-0.261799,-4.98626e-06,-1.5,0,0,0,3,0,0,0,0,0,0,0,0,3025
1080,-3.34296e-12,4.21418e-38,-1.61558e-06,-3.40794e-12,4.21394e-38,0,-1.1376e-13,0,0,-7,0.29,0.2,0,0,0,0,0,-3,0.29,121,10,121,10,176,10,121,65,0,-0.261799,-4.83826e-06,-1.5,0,0,0,3,0,0,0,0,0,0,0,0,3025
1090,-3.34296e-12,4.21418e-38,-1.61558e-06,-3.40794e-12,4.21394e-38,-3.9599e-12,-1.1376e-13,0,0,-7,0.29,0.2,0,0,0,0,0,-3,0.29,121,10,121,10,176,10,121,65,0,-0.261799,-4.67572e-06,-1.5,0,0,0,3,0,0,0,0,0,0,0,0,3025
1100,-3.34296e-12,4.21418e-38,-1.61558e-06,-3.40794e-12,4.21394e-38,0,-1.13761e-13,0,0,-7,0.29,0.2,0,0,0,0,0,-3,0.29,121,10,121,10,176,10,121,65,0,-0.261799,-4.49109e-06,-1.5,0,0,0,3,0,0,0,0,0,0,0,0,3025
1110,-3.34296e-12,4.21418e-38,-1.61558e-06,-3.40794e-12,4.21394e-38,-3.9599e-12,-1.13761e-13,0,0,-7,0.29,0.2,0,0,0,0,0,-3,0.29,121,10,121,10,176,10,121,65,0,-0.261799,-4.33127e-06,-1.5,0,0,0,3,0,0,0,0,0,0,0,0,3025
1120,-3.34296e-12,4.21418e-38,-1.61558e-06,-3.40794e-12,4.21394e-38,0,-1.13762e-13,0,0,-7,0.29,0.2,0,0,0,0,0,-3,0.29,121,10,121,10,176,10,121,65,0,-0.261799,-4.19427e-06,-1.5,0,0,0,3,0,0,0,0,0,0,0,0,3025
1130,-3.34296e-12,4.21418e-38,-1.61558e-06,-3.40794e-12,4.21394e-38,-3.9599e-12,-1.13762e-13,0,0,-7,0.29,0.2,0,0,0,0,0,-3,0.29,121,10,121,10,176,10,121,65,0,-0.261799,-4.06978e-06,-1.5,0,0,0,3,0,0,0,0,0,0,0,0,3025
1140,-3.34296e-12,4.21418e-38,-1.61558e-06,-3.40794e-12,4.21394e-38,0,-1.13763e-13,0,0,-7,0.29,0.2,0,0,0,0,0,-3,0.29,121,10,121,10,176,10,121,65,0,-0.261799,-3.91694e-06,-1.5,0,0,0,3,0,0,0,0,0,0,0,0,3025
1150,-3.34296e-12,4.21418e-38,-1.61558e-06,-3.40794e-12,4.21394e-38,-3.9599e-12,-1.13763e-13,0,0,-7,0.29,0.2,0,0,0,0,0,-3,0.29,121,10,121,10,176,10,121,65,0,-0.261799,-3.80074e-06,-1.5,0,0,0,3,0,0,0,0,0,0,0,0,3025
1160,-3.34296e-12,4.21418e-38,-1.61558e-06,-3.40794e-12,4.21394e-38,0,-1.13764e-13,0,0,-7,0.29,0.2,0,0,0,0,0,-3,0.29,121,10,121,10,176,10,121,65,0,-0.261799,-3.68053e-06,-1.5,0,0,0,3,0,0,0,0,0,0,0,0,3025
1170,-3.34296e-12,4.21418e-38,-1.61558e-06,-3.40794e-12,4.21394e-38,-3.9599e-12,-1.13764e-13,0,0,-7,0.29,0.2,0,0,0,0,0,-3,0.29,121,10,121,10,176,10,121,65,0,-0.261799,-3.57853e-06,-1.5,0,0,0,3,0,0,0,0,0,0,0,0,3025
1180,-3.34296e-12,4.21418e-38,-1.61558e-06,-3.40794e-12,4.21394e-38,0,-1.13765e-13,0,0,-7,0.29,0.2,0,0,0,0,0,-3,0.29,121,10,121,10,176,10,121,65,0,-0.261799,-3.47231e-06,-1.5,0,0,0,3,0,0,0,0,0,0,0,0,3025
1190,-3.34296e-12,4.21418e-38,-1.61558e-06,-3.40794e-12,4.21394e-38,-3.9599e-12,-1.13766e-13,0,0,-7,0.29,0.2,0,0,0,0,0,-3,0.29,121,10,121,10,176,10,121,65,0,-0.261799,-3.3352e-06,-1.5,0,0,0,3,0,0,0,0,0,0,0,0,3025
1200,-3.34296e-12,4.21418e-38,-1.61558e-06,-3.40794e-12,4.21394e-38,0,-1.13766e-13,0,0,-7,0.29,0.2,0,0,0,0,0,-3,0.29,121,10,121,10,176,10,121,65,0,-0.261799,-3.24281e-06,-1.5,0,0,0,3,0,0,0,0,0,0,0,0,3025
1210,-3.34296e-12,4.21418e-38,-1.61558e-06,-3.40794e-12,4.21394e-38,-3.9599e-12,-1.13767e-13,0,0,-7,0.29,0.2,0,0,0,0,0,-3,0.29,121,10,121,10,176,10,121,65,0,-0.261799,-3.1275e-06,-1.5,0,0,0,3,0,0,0,0,0,0,0,0,3025
1220,-3.34296e-12,4.21418e-38,-1.61558e-06,-3.40794e-12,4.21394e-38,0,-1.13767e-13,0,0,-7,0.29,0.2,0,0,0,0,0,-3,0.29,121,10,121,10,176,10,121,65,0,-0.261799,-3.02243e-06,-1.5,0,0,0,3,0,0,0,0,0,0,0,0,3025
1230,-3.34296e-12,4.21418e-38,-1.61558e-06,-3.40794e-12,4.21394e-38,-3.9599e-12,-1.13768e-13,0,0,-7,0.29,0.2,0,0,0,0,0,-3,0.29,121,10,121,10,176,10,121,65,0,-0.261799,-2.92677e-06,-1.5,0,0,0,3,0,0,0,0,0,0,0,0,3025
1240,-3.34296e-12,4.21418e-38,-1.61558e-06,-3.40794e-12,4.21394e-38,0,-1.13768e-13,0,0,-7,0.29,0.2,0,0,0,0,0,-3,0.29,121,10,121,10,176,10,121,65,0,-0.261799,-2.83414e-06,-1.5,0,0,0,3,0,0,0,0,0,0,0,0,3025
1250,-3.34296e-12,4.21418e-38,-1.61558e-06,-3.40794e-12,4.21394e-38,-3.9599e-12,-1.13769e-13,0,0,-7,0.29,0.2,0,0,0,0,0,-3,0.29,121,10,121,10,176,10,121,65,0,-0.261799,-2.7445e-06,-1.5,0,0,0,3,0,0,0,0,0,0,0,0,3025
1260,-3.34296e-12,4.21418e-38,-1.61558e-06,-3.40794e-12,4.21394e-38,0,-1.13769e-13,0,0,-7,0.29,0.2,0,0,0,0,0,-3,0.29,121,10,121,10,176,10,121,65,0,-0.261799,-2.65223e-06,-1.5,0,0,0,3,0,0,0,0,0,0,0,0,3025
1270,-3.34296e-12,4.21418e-38,-1.61558e-06,-3.40794e-12,4.21394e-38,-3.9599e-12,-1.1377e-13,0,0,-7,0.29,0.2,0,0,0,0,0,-3,0.29,121,10,121,10,176,10,121,65,0,-0.261799,-2.57351e-06,-1.5,0,0,0,3,0,0,0,0,0,0,0,0,3025
1280,-3.34296e-12,4.21418e-38,-1.61558e-06,-3.40794e-12,4.21394e-38,0,-1.1377e-13,0,0,-7,0.29,0.2,0,0,0,0,0,-3,0.29,121,10,121,10,176,10,121,65,0,-0.261799,-2.05646e-06,-1.5,0,0,0,3,0,0,0,0,0,0,0,0,3025
1290,-3.34296e-12,4.21418e-38,-1.61558e-06,-3.40794e-12,4.21394e-38,-3.9599e-12,-1.13771e-13,0,0,-7,0.29,0.2,0,0,0,0,0,-3,0.29,121,10,121,10,176,10,121,65,0,-0.261799,-1.99946e-06,-1.5,0,0,0,3,0,0,0,0,0,0,0,0,3025
1300,-3.34296e-12,4.21418e-38,-1.61558e-06,-3.40794e-12,4.21394e-38,0,-1.13772e-13,0,0,-7,0.29,0.2,0,0,0,0,0,-3,0.29,121,10,121,10,176,10,121,65,0,-0.261799,-1.94015e-06,-1.5,0,0,0,3,0,0,0,0,0,0,0,0,3025
1310,-3.34296e-12,4.21418e-38,-1.61558e-06,-3.40794e-12,4.21394e-38,-3.9599e-12,-1.13772e-13,0,0,-7,0.29,0.2,0,0,0,0,0,-3,0.29,121,10,121,10,176,10,121,65,0,-0.261799,-1.85592e-06,-1.5,0,0,0,3,0,0,0,0,0,0,0,0,3025
1320,-3.34296e-12,4.21418e-38,-1.61558e-06,-3.40794e-12,4.21394e-38,0,-1.13773e-13,0,0,-7,0.29,0.2,0,0,0,0,0,-3,0.29,121,10,121,10,176,10,121,65,0,-0.261799,-1.80083e-06,-1.5,0,0,0,3,0,0,0,0,0,0,0,0,3025
1330,-3.34296e-12,4.21418e-38,-1.61558e-06,-3.40794e-12,4.21394e-38,-3.9599e-12,-1.13773e-13,0,0,-7,0.29,0.2,0,0,0,0,0,-3,0.29,121,10,121,10,176,10,121,65,0,-0.261799,-1.74383e-06,-1.5,0,0,0,3,0,0,0,0,0,0,0,0,3025
1340,-3.34296e-12,4.21418e-38,-1.61558e-06,-3.40794e-12,4.21394e-38,0,-1.13774e-13,0,0,-7,0.29,0.2,0,0,0,0,0,-3,0.29,121,10,121,10,176,10,121,65,0,-0.261799,-1.68183e-06,-1.5,0,0,0,3,0,0,0,0,0,0,0,0,3025
1350,-3.34296e-12,4.21418e-38,-1.61558e-06,-3.40794e-12,4.21394e-38,-3.9599e-12,-1.13774e-13,0,0,-7,0.29,0.2,0,0,0,0,0,-3,0.29,121,10,121,10,176,10,121,65,0,-0.261799,-1.63522e-06,-1.5,0,0,0,3,0,0,0,0,0,0,0,0,3025
1360,-3.34296e-12,4.21418e-38,-1.61558e-06,-3.40794e-12,4.21394e-38,0,-1.13775e-13,0,0,-7,0.29,0.2,0,0,0,0,0,-3,0.29,121,10,121,10,176,10,121,65,0,-0.261799,-1.58028e-06,-1.5,0,0,0,3,0,0,0,0,0,0,0,0,3025
1370,-3.34296e-12,4.21418e-38,-1.61558e-06,-3.40794e-12,4.21394e-38,-3.9599e-12,-1.13775e-13,0,0,-7,0.29,0.2,0,0,0,0,0,-3,0.29,121,10,121,10,176,10,121,65,0,-0.261799,-1.51788e-06,-1.5,0,0,0,3,0,0,0,0,0,0,0,0,3025
1380,-3.34296e-12,4.21418e-38,-1.61558e-06,-3.40794e-12,4.21394e-38,0,-1.13776e-13,0,0,-7,0.29,0.2,0,0,0,0,0,-3,0.29,121,10,121,10,176,10,121,65,0,-0.261799,-1.46387e-06,-1.5,0,0,0,3,0,0,0,0,0,0,0,0,3025
1390,-3.34296e-12,4.21418e-38,-1.61558e-06,-3.40794e-12,4.21394e-38,-3.9599e-12,-1.13776e-13,0,0,-7,0.29,0.2,0,0,0,0,0,-3,0.29,121,10,121,10,176,10,121,65,0,-0.261799,-1.42332e-06,-1.5,0,0,0,3,0,0,0,0,0,0,0,0,3025
1400,-3.34296e-12,4.21418e-38,-1.61558e-06,-3.40794e-12,4.21394e-38,0,-1.13777e-13,0,0,-7,0.29,0.2,0,0,0,0,0,-3,0.29,121,10,121,10,176,10,121,65,0,-0.261799,-1.38668e-06,-1.5,0,0,0,3,0,0,0,0,0,0,0,0,3025
1410,-3.34296e-12,4.21418e-38,-1.61558e-06,-3.40794e-12,4.21394e-38,-3.9599e-12,-1.13777e-13,0,0,-7,0.29,0.2,0,0,0,0,0,-3,0.29,121,10,121,10,176,10,121,65,0,-0.261799,-1.33734e-06,-1.5,0,0,0,3,0,0,0,0,0,0,0,0,3025
1420,-3.34296e-12,4.21418e-38,-1.61558e-06,-3.40794e-12,4.21394e-38,0,-1.13778e-13,0,0,-7,0.29,0.2,0,0,0,0,0,-3,0.29,121,10,121,10,176,10,121,65,0,-0.261799,-1.29504e-06,-1.5,0,0,0,3,0,0,0,0,0,0,0,0,3025
1430,-3.34296e-12,4.21418e-38,-1.61558e-06,-3.40794e-12,4.21394e-38,-3.9599e-12,-1.13779e-13,0,0,-7,0.29,0.2,0,0,0,0,0,-3,0.29,121,10,121,10,176,10,121,65,0,-0.261799,-1.2439e-06,-1.5,0,0,0,3,0,0,0,0,0,0,0,0,3025
1440,-3.34296e-12,4.21418e-38,-1.61558e-06,-3.40794e-12,4.21394e-38,0,-1.13779e-13,0,0,-7,0.29,0.2,0,0,0,0,0,-3,0.29,121,10,121,10,176,10,121,65,0,-0.261799,-1.20455e-06,-1.5,0,0,0,3,0,0,0,0,0,0,0,0,3025
1450,-3.34296e-12,4.21418e-38,-1.61558e-06,-3.40794e-12,4.21394e-38,-3.9599e-12,-1.1378e-13,0,0,-7,0.29,0.2,0,0,0,0,0,-3,0.29,121,10,121,10,176,10,121,65,0,-0.261799,-1.16645e-06,-1.5,0,0,0,3,0,0,0,0,0,0,0,0,3025
1460,-3.34296e-12,4.21418e-38,-1.61558e-06,-3.40794e-12,4.21394e-38,0,-1.1378e-13,0,0,-7,0.29,0.2,0,0,0,0,0,-3,0.29,121,10,121,10,176,10,121,65,0,-0.261799,-1.12724e-06,-1.5,0,0,0,3,0,0,0,0,0,0,0,0,3025
1470,-3.34296e-12,4.21418e-38,-1.61558e-06,-3.40794e-12,4.21394e-38,-3.9599e-12,-1.13781e-13,0,0,-7,0.29,0.2,0,0,0,0,0,-3,0.29,121,10,121,10,176,10,121,65,0,-0.261799,-1.09378e-06,-1.5,0,0,0,3,0,0,0,0,0,0,0,0,3025
1480,-3.34296e-12,4.21418e-38,-1.61558e-06,-3.40794e-12,4.21394e-38,0,-1.13781e-13,0,0,-7,0.29,0.2,0,0,0,0,0,-3,0.29,121,10,121,10,176,10,121,65,0,-0.261799,-1.04844e-06,-1.5,0,0,0,3,0,0,0,0,0,0,0,0,3025
1490,-3.34296e-12,4.21418e-38,-1.61558e-06,-3.40794e-12,4.21394e-38,-3.9599e-12,-1.13782e-13,0,0,-7,0.29,0.2,0,0,0,0,0,-3,0.29,121,10,121,10,176,10,121,65,0,-0.261799,-1.01526e-06,-1.5,0,0,0,3,0,0,0,0,0,0,0,0,3025
1500,-3.34296e-12,4.21418e-38,-1.61558e-06,-3.40794e-12,4.21394e-38,0,-1.13782e-13,0,0,-7,0.29,0.2,0,0,0,0,0,-3,0.29,121,10,121,10,176,10,121,65,0,-0.261799,-9.83128e-07,-1.5,0,0,0,3,0,0,0,0,0,0,0,0,3025
1510,-3.34296e-12,4.21418e-38,-1.61558e-06,-3.40794e-12,4.21394e-38,-3.9599e-12,-1.13783e-13,0,0,-7,0.29,0.2,0,0,0,0,0,-3,0.29,121,10,121,10,176,10,121,65,0,-0.261799,-9.50077e-07,-1.5,0,0,0,3,0,0,0,0,0,0,0,0,3025
1520,-3.34296e-12,4.21418e-38,-1.61558e-06,-3.40794e-12,4.21394e-38,0,-1.13783e-13,0,0,-7,0.29,0.2,0,0,0,0,0,-3,0.29,121,10,121,10,176,10,121,65,0,-0.261799,-9.21877e-07,-1.5,0,0,0,3,0,0,0,0,0,0,0,0,3025
1530,-3.34296e-12,4.21418e-38,-1.61558e-06,-3.40794e-12,4.21394e-38,-3.9599e-12,-1.13784e-13,0,0,-7,0.29,0.2,0,0,0,0,0,-3,0.29,121,10,121,10,176,10,121,65,0,-0.261799,-8.90886e-07,-1.5,0,0,0,3,0,0,0,0,0,0,0,0,3025
1540,-3.34296e-12,4.21418e-38,-1.61558e-06,-3.40794e-12,4.21394e-38,0,-1.13785e-13,0,0,-7,0.29,0.2,0,0,0,0,0,-3,0.29,121,10,121,10,176,10,121,65,0,-0.261799,-8.62707e-07,-1.5,0,0,0,3,0,0,0,0,0,0,0,0,3025
1550,-3.34296e-12,4.21418e-38,-1.61558e-06,-3.40794e-12,4.21394e-38,-3.9599e-12,-1.13785e-13,0,0,-7,0.29,0.2,0,0,0,0,0,-3,0.29,121,10,121,10,176,10,121,65,0,-0.261799,-8.32031e-07,-1.5,0,0,0,3,0,0,0,0,0,0,0,0,3025
1560,-3.34296e-12,4.21418e-38,-1.61558e-06,-3.40794e-12,4.21394e-38,0,-1.13786e-13,0,0,-7,0.29,0.2,0,0,0,0,0,-3,0.29,121,10,121,10,176,10,121,65,0,-0.261799,-7.99176e-07,-1.5,0,0,0,3,0,0,0,0,0,0,0,0,3025
1570,-3.34296e-12,4.21418e-38,-1.61558e-06,-3.40794e-12,4.21394e-38,-3.9599e-12,-1.13786e-13,0,0,-7,0.29,0.2,0,0,0,0,0,-3,0.29,121,10,121,10,176,10,121,65,0,-0.261799,-7.75455e-07,-1.5,0,0,0,3,0,0,0,0,0,0,0,0,3025
1580,-3.34296e-12,4.21418e-38,-1.61558e-06,-3.40794e-12,4.21394e-38,0,-1.13787e-13,0,0,-7,0.29,0.2,0,0,0,0,0,-3,0.29,121,10,121,10,176,10,121,65,0,-0.261799,-7.49386e-07,-1.5,0,0,0,3,0,0,0,0,0,0,0,0,3025
1590,-3.34296e-12,4.21418e-38,-1.61558e-06,-3.40794e-12,4.21394e-38,-3.9599e-12,-1.13787e-13,0,0,-7,0.29,0.2,0,0,0,0,0,-3,0.29,121,10,121,10,176,10,121,65,0,-0.261799,-7.30099e-07,-1.5,0,0,0,3,0,0,0,0,0,0,0,0,3025
1600,-3.34296e-12,4.21418e-38,-1.61558e-06,-3.40794e-12,4.21394e-38,0,-1.13788e-13,0,0,-7,0.29,0.2,0,0,0,0,0,-3,0.29,121,10,121,10,176,10,121,65,0,-0.261799,-7.0844e-07,-1.5,0,0,0,3,0,0,0,0,0,0,0,0,3025
1610,-3.34296e-12,4.21418e-38,-1.61558e-06,-3.40794e-12,4.21394e-38,-3.9599e-12,-1.13788e-13,0,0,-7,0.29,0.2,0,0,0,0,0,-3,0.29,121,10,121,10,176,10,121,65,0,-0.261799,-6.80466e-07,-1.5,0,0,0,3,0,0,0,0,0,0,0,0,3025
1620,-3.34296e-12,4.21418e-38,-1.61558e-06,-3.40794e-12,4.21394e-38,0,-1.13789e-13,0,0,-7,0.29,0.2,0,0,0,0,0,-3,0.29,121,10,121,10,176,10,121,65,0,-0.261799,-6.56251e-07,-1.5,0,0,0,3,0,0,0,0,0,0,0,0,3025
1630,-3.34296e-12,4.21418e-38,-1.61558e-06,-3.40794e-12,4.21394e-38,-3.9599e-12,-1.13789e-13,0,0,-7,0.29,0.2,0,0,0,0,0,-3,0.29,121,10,121,10,176,10,121,65,0,-0.261799,-6.30314e-07,-1.5,0,0,0,3,0,0,0,0,0,0,0,0,3025
1640,-3.34296e-12,4.21418e-38,-1.61558e-06,-3.40794e-12,4.21394e-38,0,-1.1379e-13,0,0,-7,0.29,0.2,0,0,0,0,0,-3,0.29,121,10,121,10,176,10,121,65,0,-0.261799,-6.10377e-07,-1.5,0,0,0,3,0,0,0,0,0,0,0,0,3025
1650,-3.34296e-12,4.21418e-38,-1.61558e-06,-3.40794e-12,4.21394e-38,-3.9599e-12,-1.1379e-13,0,0,-7,0.29,0.2,0,0,0,0,0,-3,0.29,121,10,121,10,176,10,121,65,0,-0.261799,-5.91071e-07,-1.5,0,0,0,3,0,0,0,0,0,0,0,0,3025
1660,-3.34296e-12,4.21418e-38,-1.61558e-06,-3.40794e-12,4.21394e-38,0,-1.13791e-13,0,0,-7,0.29,0.2,0,0,0,0,0,-3,0.29,121,10,121,10,176,10,121,65,0,-0.261799,-5.71214e-07,-1.5,0,0,0,3,0,0,0,0,0,0,0,0,3025
1670,-3.34296e-12,4.21418e-38,-1.61558e-06,-3.40794e-12,4.21394e-38,-3.9599e-12,-1.13792e-13,0,0,-7,0.29,0.2,0,0,0,0,0,-3,0.29,121,10,121,10,176,10,121,65,0,-0.261799,-5.53135e-07,-1.5,0,0,0,3,0,0,0,0,0,0,0,0,3025
1680,-3.34296e-12,4.21418e-38,-1.61558e-06,-3.40794e-12,4.21394e-38,0,-1.13792e-13,0,0,-7,0.29,0.2,0,0,0,0,0,-3,0.29,121,10,121,10,176,10,121,65,0,-0.261799,-5.33451e-07,-1.5,0,0,0,3,0,0,0,0,0,0,0,0,3025
1690,-3.34296e-12,4.21418e-38,-1.61558e-06,-3.40794e-12,4.21394e-38,-3.9599e-12,-1.13793e-13,0,0,-7,0.29,0.2,0,0,0,0,0,-3,0.29,121,10,121,10,176,10,121,65,0,-0.261799,-5.16578e-07,-1.5,0,0,0,3,0,0,0,0,0,0,0,0,3025
1700,-3.34296e-12,4.21418e-38,-1.61558e-06,-3.40794e-12,4.21394e-38,0,-1.13793e-13,0,0,-7,0.29,0.2,0,0,0,0,0,-3,0.29,121,10,121,10,176,10,121,65,0,-0.261799,-4.97179e-07,-1.5,0,0,0,3,0,0,0,0,0,0,0,0,3025
1710,-3.34296e-12,4.21418e-38,-1.61558e-06,-3.40794e-12,4.21394e-38,-3.9599e-12,-1.13794e-13,0,0,-7,0.29,0.2,0,0,0,0,0,-3,0.29,121,10,121,10,176,10,121,65,0,-0.261799,-4.82422e-07,-1.5,0,0,0,3,0,0,0,0,0,0,0,0,3025
1720,-3.34296e-12,4.21418e-38,-1.61558e-06,-3.40794e-12,4.21394e-38,0,-1.13794e-13,0,0,-7,0.29,0.2,0,0,0,0,0,-3,0.29,121,10,121,10,176,10,121,65,0,-0.261799,-4.66204e-07,-1.5,0,0,0,3,0,0,0,0,0,0,0,0,3025
1730,-3.34296e-12,4.21418e-38,-1.61558e-06,-3.40794e-12,4.21394e-38,-3.9599e-12,-1.13795e-13,0,0,-7,0.29,0.2,0,0,0,0,0,-3,0.29,121,10,121,10,176,10,121,65,0,-0.261799,-4.49626e-07,-1.5,0,0,0,3,0,0,0,0,0,0,0,0,3025
1740,-3.34296e-12,4.21418e-38,-1.61558e-06,-3.40794e-12,4.21394e-38,0,-1.13795e-13,0,0,-7,0.29,0.2,0,0,0,0,0,-3,0.29,121,10,121,10,176,10,121,65,0,-0.261799,-4.3628e-07,-1.5,0,0,0,3,0,0,0,0,0,0,0,0,3025
1750,-3.34296e-12,4.21418e-38,-1.61558e-06,-3.40794e-12,4.21394e-38,-3.9599e-12,-1.13796e-13,0,0,-7,0.29,0.2,0,0,0,0,0,-3,0.29,121,10,121,10,176,10,121,65,0,-0.261799,-4.20755e-07,-1.5,0,0,0,3,0,0,0,0,0,0,0,0,3025
1760,-3.34296e-12,4.21418e-38,-1.61558e-06,-3.40794e-12,4.21394e-38,0,-1.13796e-13,0,0,-7,0.29,0.2,0,0,0,0,0,-3,0.29,121,10,121,10,176,10,121,65,0,-0.261799,-4.08266e-07,-1.5,0,0,0,3,0,0,0,0,0,0,0,0,3025
1770,-3.34296e-12,4.21418e-38,-1.61558e-06,-3.40794e-12,4.21394e-38,-3.9599e-12,-1.13797e-13,0,0,-7,0.29,0.2,0,0,0,0,0,-3,0.29,121,10,121,10,176,10,121,65,0,-0.261799,-3.96148e-07,-1.5,0,0,0,3,0,0,0,0,0,0,0,0,3025
1780,-3.34296e-12,4.21418e-38,-1.61558e-06,-3.40794e-12,4.21394e-38,0,-1.13798e-13,0,0,-7,0.29,0.2,0,0,0,0,0,-3,0.29,121,10,121,10,176,10,121,65,0,-0.261799,-3.78171e-07,-1.5,0,0,0,3,0,0,0,0,0,0,0,0,3025
1790,-3.34296e-12,4.21418e-38,-1.61558e-06,-3.40794e-12,4.21394e-38,-3.9599e-12,-1.13798e-13,0,0,-7,0.29,0.2,0,0,0,0,0,-3,0.29,121,10,121,10,176,10,121,65,0,-0.261799,-3.67695e-07,-1.5,0,0,0,3,0,0,0,0,0,0,0,0,3025
1800,-3.34296e-12,4.21418e-38,-1.61558e-06,-3.40794e-12,4.21394e-38,0,-1.13799e-13,0,0,-7,0.29,0.2,0,0,0,0,0,-3,0.29,121,10,121,10,176,10,121,65,0,-0.261799,-3.56787e-07,-1.5,0,0,0,3,0,0,0,0,0,0,0,0,3025
1810,-3.34296e-12,4.21418e-38,-1.61558e-06,-3.40794e-12,4.21394e-38,-3.9599e-12,-1.13799e-13,0,0,-7,0.29,0.2,0,0,0,0,0,-3,0.29,121,10,121,10,176,10,121,65,0,-0.261799,-3.46197e-07,-1.5,0,0,0,3,0,0,0,0,0,0,0,0,3025
1820,-3.34296e-12,4.21418e-38,-1.61558e-06,-3.40794e-12,4.21394e-38,0,-1.138e-13,0,0,-7,0.29,0.2,0,0,0,0,0,-3,0.29,121,10,121,10,176,10,121,65,0,-0.261799,-3.35247e-07,-1.5,0,0,0,3,0,0,0,0,0,0,0,0,3025
1830,-3.34296e-12,4.21418e-38,-1.61558e-06,-3.40794e-12,4.21394e-38,-3.9599e-12,-1.138e-13,0,0,-7,0.29,0.2,0,0,0,0,0,-3,0.29,121,10,121,10,176,10,121,65,0,-0.261799,-3.23985e-07,-1.5,0,0,0,3,0,0,0,0,0,0,0,0,3025
1840,-3.34296e-12,4.21418e-38,-1.61558e-06,-3.40794e-12,4.21394e-38,0,-1.13801e-13,0,0,-7,0.29,0.2,0,0,0,0,0,-3,0.29,121,10,121,10,176,10,121,65,0,-0.261799,-3.14368e-07,-1.5,0,0,0,3,0,0,0,0,0,0,0,0,3025
1850,-3.34296e-12,4.21418e-38,-1.61558e-06,-3.40794e-12,4.21394e-38,-3.9599e-12,-1.13801e-13,0,0,-7,0.29,0.2,0,0,0,0,0,-3,0.29,121,10,121,10,176,10,121,65,0,-0.261799,-3.01337e-07,-1.5,0,0,0,3,0,0,0,0,0,0,0,0,3025
1860,-3.34296e-12,4.21418e-38,-1.61558e-06,-3.40794e-12,4.21394e-38,0,-1.13802e-13,0,0,-7,0.29,0.2,0,0,0,0,0,-3,0.29,121,10,121,10,176,10,121,65,0,-0.261799,-2.92393e-07,-1.5,0,0,0,3,0,0,0,0,0,0,0,0,3025
1870,-3.34296e-12,4.21418e-38,-1.61558e-06,-3.40794e-12,4.21394e-38,-3.9599e-12,-1.13802e-13,0,0,-7,0.29,0.2,0,0,0,0,0,-3,0.29,121,10,121,10,176,10,121,65,0,-0.261799,-2.83139e-07,-1.5,0,0,0,3,0,0,0,0,0,0,0,0,3025
1880,-3.34296e-12,4.21418e-38,-1.61558e-06,-3.40794e-12,4.21394e-38,0,-1.13803e-13,0,0,-7,0.29,0.2,0,0,0,0,0,-3,0.29,121,10,121,10,176,10,121,65,0,-0.261799,-2.74735e-07,-1.5,0,0,0,3,0,0,0,0,0,0,0,0,3025
1890,-3.34296e-12,4.21418e-38,-1.61558e-06,-3.40794e-12,4.21394e-38,-3.9599e-12,-1.13803e-13,0,0,-7,0.29,0.2,0,0,0,0,0,-3,0.29,121,10,121,10,176,10,121,65,0,-0.261799,-2.6658e-07,-1.5,0,0,0,3,0,0,0,0,0,0,0,0,3025
1900,-3.34296e-12,4.21418e-38,-1.61558e-06,-3.40794e-12,4.21394e-38,0,-1.13804e-13,0,0,-7,0.29,0.2,0,0,0,0,0,-3,0.29,121,10,121,10,176,10,121,65,0,-0.261799,-2.57625e-07,-1.5,0,0,0,3,0,0,0,0,0,0,0,0,3025
1910,-3.34296e-12,4.21418e-38,-1.61558e-06,-3.40794e-12,4.21394e-38,-3.9599e-12,-1.13805e-13,0,0,-7,0.29,0.2,0,0,0,0,0,-3,0.29,121,10,121,10,176,10,121,65,0,-0.261799,-2.48464e-07,-1.5,0,0,0,3,0,0,0,0,0,0,0,0,3025
1920,-3.34296e-12,4.21418e-38,-1.61558e-06,-3.40794e-12,4.21394e-38,0,-1.13805e-13,0,0,-7,0.29,0.2,0,0,0,0,0,-3,0.29,121,10,121,10,176,10,121,65,0,-0.261799,-2.39629e-07,-1.5,0,0,0,3,0,0,0,0,0,0,0,0,3025
1930,-3.34296e-12,4.21418e-38,-1.61558e-06,-3.40794e-12,4.21394e-38,-3.9599e-12,-1.13806e-13,0,0,-7,0.29,0.2,0,0,0,0,0,-3,0.29,121,10,121,10,176,10,121,65,0,-0.261799,-1.87711e-07,-1.5,0,0,0,3,0,0,0,0,0,0,0,0,3025
1940,-3.34296e-12,4.21418e-38,-1.61558e-06,-3.40794e-12,4.21394e-38,0,-1.13806e-13,0,0,-7,0.29,0.2,0,0,0,0,0,-3,0.29,121,10,121,10,176,10,121,65,0,-0.261799,-1.55964e-07,-1.5,0,0,0,3,0,0,0,0,0,0,0,0,3025
1950,-3.34296e-12,4.21418e-38,-1.61558e-06,-3.40794e-12,4.21394e-38,-3.9599e-12,-1.13807e-13,0,0,-7,0.29,0.2,0,0,0,0,0,-3,0.29,121,10,121,10,176,10,121,65,0,-0.261799,-1.51028e-07,-1.5,0,0,0,3,0,0,0,0,0,0,0,0,3025
1960,-3.34296e-12,4.21418e-38,-1.61558e-06,-3.40794e-12,4.21394e-38,0,-1.13807e-13,0,0,-7,0.29,0.2,0,0,0,0,0,-3,0.29,121,10,121,10,176,10,121,65,0,-0.261799,-1.46251e-07,-1.5,0,0,0,3,0,0,0,0,0,0,0,0,3025
1970,-3.34296e-12,4.21418e-38,-1.61558e-06,-3.40794e-12,4.21394e-38,-3.9599e-12,-1.13808e-13,0,0,-7,0.29,0.2,0,0,0,0,0,-3,0.29,121,10,121,10,176,10,121,65,0,-0.261799,-1.41622e-07,-1.5,0,0,0,3,0,0,0,0,0,0,0,0,3025
1980,-3.34296e-12,4.21418e-38,-1.61558e-06,-3.40794e-12,4.21394e-38,0,-1.13808e-13,0,0,-7,0.29,0.2,0,0,0,0,0,-3,0.29,121,10,121,10,176,10,121,65,0,-0.261799,-1.37977e-07,-1.5,0,0,0,3,0,0,0,0,0,0,0,0,3025
1990,-3.34296e-12,4.21418e-38,-1.61558e-06,-3.40794e-12,4.21394e-38,-3.9599e-12,-1.13809e-13,0,0,-7,0.29,0.2,0,0,0,0,0,-3,0.29,121,10,121,10,176,10,121,65,0,-0.261799,-1.33071e-07,-1.5,0,0,0,3,0,0,0,0,0,0,0,0,3025
2000,-3.34296e-12,4.21418e-38,-1.61558e-06,-3.40794e-12,4.21394e-38,0,-1.13809e-13,0,0,-7,0.29,0.2,0,0,0,0,0,-3,0.29,121,10,121,10,176,10,121,65,0,-0.261799,-1.28339e-07,-1.5,0,0,0,3,0,0,0,0,0,0,0,0,3025
2010,-3.34296e-12,4.21418e-38,-1.61558e-06,-3.40794e-12,4.21394e-38,-3.9599e-12,-1.1381e-13,0,0,-7,0.29,0.2,0,0,0,0,0,-3,0.29,121,10,121,10,176,10,121,65,0,-0.261799,-1.2428e-07,-1.5,0,0,0,3,0,0,0,0,0,0,0,0,3025
2020,-3.34296e-12,4.21418e-38,-1.61558e-06,-3.40794e-12,4.21394e-38,0,-1.13811e-13,0,0,-7,0.29,0.2,0,0,0,0,0,-3,0.29,121,10,121,10,176,10,121,65,0,-0.261799,-1.20105e-07,-1.5,0,0,0,3,0,0,0,0,0,0,0,0,3025
2030,-3.34296e-12,4.21418e-38,-1.61558e-06,-3.40794e-12,4.21394e-38,-3.9599e-12,-1.13811e-13,0,0,-7,0.29,0.2,0,0,0,0,0,-3,0.29,121,10,121,10,176,10,121,65,0,-0.261799,-1.16542e-07,-1.5,0,0,0,3,0,0,0,0,0,0,0,0,3025
2040,-3.34296e-12,4.21418e-38,-1.61558e-06,-3.40794e-12,4.21394e-38,0,-1.13812e-13,0,0,-7,0.29,0.2,0,0,0,0,0,-3,0.29,121,10,121,10,176,10,121,65,0,-0.261799,-1.13084e-07,-1.5,0,0,0,3,0,0,0,0,0,0,0,0,3025
2050,-3.34296e-12,4.21418e-38,-1.61558e-06,-3.40794e-12,4.21394e-38,-3.9599e-12,-1.13812e-13,0,0,-7,0.29,0.2,0,0,0,0,0,-3,0.29,121,10,121,10,176,10,121,65,0,-0.261799,-1.08837e-07,-1.5,0,0,0,3,0,0,0,0,0,0,0,0,3025
2060,-3.34296e-12,4.21418e-38,-1.61558e-06,-3.40794e-12,4.21394e-38,0,-1.13813e-13,0,0,-7,0.29,0.2,0,0,0,0,0,-3,0.29,121,10,121,10,176,10,121,65,0,-0.261799,-1.05393e-07,-1.5,0,0,0,3,0,0,0,0,0,0,0,0,3025
2070,-3.34296e-12,4.21418e-38,-1.61558e-06,-3.40794e-12,4.21394e-38,-3.9599e-12,-1.13813e-13,0,0,-7,0.29,0.2,0,0,0,0,0,-3,0.29,121,10,121,10,176,10,121,65,0,-0.261799,-1.01435e-07,-1.5,0,0,0,3,0,0,0,0,0,0,0,0,3025
2080,-3.34296e-12,4.21418e-38,-1.61558e-06,-3.40794e-12,4.21394e-38,0,-1.13814e-13,0,0,-7,0.29,0.2,0,0,0,0,0,-3,0.29,121,10,121,10,176,10,121,65,0,-0.261799,-9.82264e-08,-1.5,0,0,0,3,0,0,0,0,0,0,0,0,3025
2090,-3.34296e-12,4.21418e-38,-1.61558e-06,-3.40794e-12,4.21394e-38,-3.9599e-12,-1.13814e-13,0,0,-7,0.29,0.2,0,0,0,0,0,-3,0.29,121,10,121,10,176,10,121,65,0,-0.261799,-9.53125e-08,-1.5,0,0,0,3,0,0,0,0,0,0,0,0,3025
2100,-3.34296e-12,4.21418e-38,-1.61558e-06,-3.40794e-12,4.21394e-38,0,-1.13815e-13,0,0,-7,0.29,0.2,0,0,0,0,0,-3,0.29,121,10,121,10,176,10,121,65,0,-0.261799,-9.22958e-08,-1.5,0,0,0,3,0,0,0,0,0,0,0,0,3025
2110,-3.34296e-12,4.21418e-38,-1.61558e-06,-3.40794e-12,4.21394e-38,-3.9599e-12,-1.13815e-13,0,0,-7,0.29,0.2,0,0,0,0,0,-3,0.29,121,10,121,10,176,10,121,65,0,-0.261799,-8.90139e-08,-1.5,0,0,0,3,0,0,0,0,0,0,0,0,3025
2120,-3.34296e-12,4.21418e-38,-1.61558e-06,-3.40794e-12,4.21394e-38,0,-1.13816e-13,0,0,-7,0.29,0.2,0,0,0,0,0,-3,0.29,121,10,121,10,176,10,121,65,0,-0.261799,-8.58487e-08,-1.5,0,0,0,3,0,0,0,0,0,0,0,0,3025
2130,-3.34296e-12,4.21418e-38,-1.61558e-06,-3.40794e-12,4.21394e-38,-3.9599e-12,-1.13817e-13,0,0,-7,0.29,0.2,0,0,0,0,0,-3,0.29,121,10,121,10,176,10,121,65,0,-0.261799,-8.31333e-08,-1.5,0,0,0,3,0,0,0,0,0,0,0,0,3025
2140,-3.34296e-12,4.21418e-38,-1.61558e-06,-3.40794e-12,4.21394e-38,0,-1.13817e-13,0,0,-7,0.29,0.2,0,0,0,0,0,-3,0.29,121,10,121,10,176,10,121,65,0,-0.261799,-8.00113e-08,-1.5,0,0,0,3,0,0,0,0,0,0,0,0,3025
2150,-3.34296e-12,4.21418e-38,-1.61558e-06,-3.40794e-12,4.21394e-38,-3.9599e-12,-1.13818e-13,0,0,-7,0.29,0.2,0,0,0,0,0,-3,0.29,121,10,121,10,176,10,121,65,0,-0.261799,-7.76365e-08,-1.5,0,0,0,3,0,0,0,0,0,0,0,0,3025
2160,-3.34296e-12,4.21418e-38,-1.61558e-06,-3.40794e-12,4.21394e-38,0,-1.13818e-13,0,0,-7,0.29,0.2,0,0,0,0,0,-3,0.29,121,10,121,10,176,10,121,65,0,-0.261799,-7.51808e-08,-1.5,0,0,0,3,0,0,0,0,0,0,0,0,3025
2170,-3.34296e-12,4.21418e-38,-1.61558e-06,-3.40794e-12,4.21394e-38,-3.9599e-12,-1.13819e-13,0,0,-7,0.29,0.2,0,0,0,0,0,-3,0.29,121,10,121,10,176,10,121,65,0,-0.261799,-7.23598e-08,-1.5,0,0,0,3,0,0,0,0,0,0,0,0,3025
2180,-3.34296e-12,4.21418e-38,-1.61558e-06,-3.40794e-12,4.21394e-38,0,-1.13819e-13,0,0,-7,0.29,0.2,0,0,0,0,0,-3,0.29,121,10,121,10,176,10,121,65,0,-0.261799,-7.03553e-08,-1.5,0,0,0,3,0,0,0,0,0,0,0,0,3025
2190,-3.34296e-12,4.21418e-38,-1.61558e-06,-3.40794e-12,4.21394e-38,-3.9599e-12,-1.1382e-13,0,0,-7,0.29,0.2,0,0,0,0,0,-3,0.29,121,10,121,10,176,10,121,65,0,-0.261799,-6.8544e-08,-1.5,0,0,0,3,0,0,0,0,0,0,0,0,3025
2200,-3.34296e-12,4.21418e-38,-1.61558e-06,-3.40794e-12,4.21394e-38,0,-1.1382e-13,0,0,-7,0.29,0.2,0,0,0,0,0,-3,0.29,121,10,121,10,176,10,121,65,0,-0.261799,-6.6376e-08,-1.5,0,0,0,3,0,0,0,0,0,0,0,0,3025
2210,-3.34296e-12,4.21418e-38,-1.61558e-06,-3.40794e-12,4.21394e-38,-3.9599e-12,-1.13821e-13,0,0,-7,0.29,0.2,0,0,0,0,0,-3,0.29,121,10,121,10,176,10,121,65,0,-0.261799,-6.44058e-08,-1.5,0,0,0,3,0,0,0,0,0,0,0,0,3025
2220,-3.34296e-12,4.21418e-38,-1.61558e-06,-3.40794e-12,4.21394e-38,0,-1.13821e-13,0,0,-7,0.29,0.2,0,0,0,0,0,-3,0.29,121,10,121,10,176,10,121,65,0,-0.261799,-6.19871e-08,-1.5,0,0,0,3,0,0,0,0,0,0,0,0,3025
2230,-3.34296e-12,4.21418e-38,-1.61558e-06,-3.40794e-12,4.21394e-38,-3.9599e-12,-1.13822e-13,0,0,-7,0.29,0.2,0,0,0,0,0,-3,0.29,121,10,121,10,176,10,121,65,0,-0.261799,-4.9411e-08,-1.5,0,0,0,3,0,0,0,0,0,0,0,0,3025
2240,-3.34296e-12,4.21418e-38,-1.61558e-06,-3.40794e-12,4.21394e-38,0,-1.13822e-13,0,0,-7,0.29,0.2,0,0,0,0,0,-3,0.29,121,10,121,10,176,10,121,65,0,-0.261799,-4.17337e-08,-1.5,0,0,0,3,0,0,0,0,0,0,0,0,3025
2250,-3.34296e-12,4.21418e-38,-1.61558e-06,-3.40794e-12,4.21394e-38,-3.9599e-12,-1.13823e-13,0,0,-7,0.29,0.2,0,0,0,0,0,-3,0.29,121,10,121,10,176,10,121,65,0,-0.261799,-4.04956e-08,-1.5,0,0,0,3,0,0,0,0,0,0,0,0,3025
2260,-3.34296e-12,4.21418e-38,-1.61558e-06,-3.40794e-12,4.21394e-38,0,-1.13824e-13,0,0,-7,0.29,0.2,0,0,0,0,0,-3,0.29,121,10,121,10,176,10,121,65,0,-0.261799,-3.90556e-08,-1.5,0,0,0,3,0,0,0,0,0,0,0,0,3025
2270,-3.34296e-12,4.21418e-38,-1.61558e-06,-3.40794e-12,4.21394e-38,-3.9599e-12,-1.13824e-13,0,0,-7,0.29,0.2,0,0,0,0,0,-3,0.29,121,10,121,10,176,10,121,65,0,-0.261799,-3.74352e-08,-1.5,0,0,0,3,0,0,0,0,0,0,0,0,3025
2280,-3.34296e-12,4.21418e-38,-1.61558e-06,-3.40794e-12,4.21394e-38,0,-1.13825e-13,0,0,-7,0.29,0.2,0,0,0,0,0,-3,0.29,121,10,121,10,176,10,121,65,0,-0.261799,-3.62511e-08,-1.5,0,0,0,3,0,0,0,0,0,0,0,0,3025
2290,-3.34296e-12,4.21418e-38,-1.61558e-06,-3.40794e-12,4.21394e-38,-3.9599e-12,-1.13825e-13,0,0,-7,0.29,0.2,0,0,0,0,0,-3,0.29,121,10,121,10,176,10,121,65,0,-0.261799,-3.51038e-08,-1.5,0,0,0,3,0,0,0,0,0,0,0,0,3025
2300,-3.34296e-12,4.21418e-38,-1.61558e-06,-3.40794e-12,4.21394e-38,0,-1.13826e-13,0,0,-7,0.29,0.2,0,0,0,0,0,-3,0.29,121,10,121,10,176,10,121,65,0,-0.261799,-3.40618e-08,-1.5,0,0,0,3,0,0,0,0,0,0,0,0,3025
2310,-3.34296e-12,4.21418e-38,-1.61558e-06,-3.40794e-12,4.21394e-38,-3.9599e-12,-1.13826e-13,0,0,-7,0.29,0.2,0,0,0,0,0,-3,0.29,121,10,121,10,176,10,121,65,0,-0.261799,-3.30508e-08,-1.5,0,0,0,3,0,0,0,0,0,0,0,0,3025
2320,-3.34296e-12,4.21418e-38,-1.61558e-06,-3.40794e-12,4.21394e-38,0,-1.13827e-13,0,0,-7,0.29,0.2,0,0,0,0,0,-3,0.29,121,10,121,10,176,10,121,65,0,-0.261799,-3.16159e-08,-1.5,0,0,0,3,0,0,0,0,0,0,0,0,3025
2330,-3.34296e-12,4.21418e-38,-1.61558e-06,-3.40794e-12,4.21394e-38,-3.9599e-12,-1.13827e-13,0,0,-7,0.29,0.2,0,0,0,0,0,-3,0.29,121,10,121,10,176,10,121,65,0,-0.261799,-3.06159e-08,-1.5,0,0,0,3,0,0,0,0,0,0,0,0,3025
2340,-3.34296e-12,4.21418e-38,-1.61558e-06,-3.40794e-12,4.21394e-38,0,-1.13828e-13,0,0,-7,0.29,0.2,0,0,0,0,0,-3,0.29,121,10,121,10,176,10,121,65,0,-0.261799,-2.94661e-08,-1.5,0,0,0,3,0,0,0,0,0,0,0,0,3025
2350,-3.34296e-12,4.21418e-38,-1.61558e-06,-3.40794e-12,4.21394e-38,-3.9599e-12,-1.13828e-13,0,0,-7,0.29,0.2,0,0,0,0,0,-3,0.29,121,10,121,10,176,10,121,65,0,-0.261799,-2.85341e-08,-1.5,0,0,0,3,0,0,0,0,0,0,0,0,3025
2360,-3.34296e-12,4.21418e-38,-1.61558e-06,-3.40794e-12,4.21394e-38,0,-1.13829e-13,0,0,-7,0.29,0.2,0,0,0,0,0,-3,0.29,121,10,121,10,176,10,121,65,0,-0.261799,-2.76876e-08,-1.5,0,0,0,3,0,0,0,0,0,0,0,0,3025
2370,-3.34296e-12,4.21418e-38,-1.61558e-06,-3.40794e-12,4.21394e-38,-3.9599e-12,-1.1383e-13,0,0,-7,0.29,0.2,0,0,0,0,0,-3,0.29,121,10,121,10,176,10,121,65,0,-0.261799,-2.68113e-08,-1.5,0,0,0,3,0,0,0,0,0,0,0,0,3025
2380,-3.34296e-12,4.21418e-38,-1.61558e-06,-3.40794e-12,4.21394e-38,0,-1.1383e-13,0,0,-7,0.29,0.2,0,0,0,0,0,-3,0.29,121,10,121,10,176,10,121,65,0,-0.261799,-2.5858e-08,-1.5,0,0,0,3,0,0,0,0,0,0,0,0,3025
2390,-3.34296e-12,4.21418e-38,-1.61558e-06,-3.40794e-12,4.21394e-38,-3.9599e-12,-1.13831e-13,0,0,-7,0.29,0.2,0,0,0,0,0,-3,0.29,121,10,121,10,176,10,121,65,0,-0.261799,-2.51414e-08,-1.5,0,0,0,3,0,0,0,0,0,0,0,0,3025
2400,-3.34296e-12,4.21418e-38,-1.61558e-06,-3.40794e-12,4.21394e-38,0,-1.13831e-13,0,0,-7,0.29,0.2,0,0,0,0,0,-3,0.29,121,10,121,10,176,10,121,65,0,-0.261799,-2.43461e-08,-1.5,0,0,0,3,0,0,0,0,0,0,0,0,3025
2410,-3.34296e-12,4.21418e-38,-1.61558e-06,-3.40794e-12,4.21394e-38,-3.9599e-12,-1.13832e-13,0,0,-7,0.29,0.2,0,0,0,0,0,-3,0.29,121,10,121,10,176,10,121,65,0,-0.261799,-2.34318e-08,-1.5,0,0,0,3,0,0,0,0,0,0,0,0,3025
2420,-3.34296e-12,4.21418e-38,-1.61558e-06,-3.40794e-12,4.21394e-38,0,-1.13832e-13,0,0,-7,0.29,0.2,0,0,0,0,0,-3,0.29,121,10,121,10,176,10,121,65,0,-0.261799,-2.26907e-08,-1.5,0,0,0,3,0,0,0,0,0,0,0,0,3025
2430,-3.34296e-12,4.21418e-38,-1.61558e-06,-3.40794e-12,4.21394e-38,-3.9599e-12,-1.13833e-13,0,0,-7,0.29,0.2,0,0,0,0,0,-3,0.29,121,10,121,10,176,10,121,65,0,-0.261799,-2.20175e-08,-1.5,0,0,0,3,0,0,0,0,0,0,0,0,3025
2440,-3.34296e-12,4.21418e-38,-1.61558e-06,-3.40794e-12,4.21394e-38,0,-1.13833e-13,0,0,-7,0.29,0.2,0,0,0,0,0,-3,0.29,121,10,121,10,176,10,121,65,0,-0.261799,-2.11474e-08,-1.5,0,0,0,3,0,0,0,0,0,0,0,0,3025
2450,-3.34296e-12,4.21418e-38,-1.61558e-06,-3.40794e-12,4.21394e-38,-3.9599e-12,-1.13834e-13,0,0,-7,0.29,0.2,0,0,0,0,0,-3,0.29,121,10,121,10,176,10,121,65,0,-0.261799,-2.04369e-08,-1.5,0,0,0,3,0,0,0,0,0,0,0,0,3025
2460,-3.34296e-12,4.21418e-38,-1.61558e-06,-3.40794e-12,4.21394e-38,0,-1.13834e-13,0,0,-7,0.29,0.2,0,0,0,0,0,-3,0.29,121,10,121,10,176,10,121,65,0,-0.261799,-1.97499e-08,-1.5,0,0,0,3,0,0,0,0,0,0,0,0,3025
2470,-3.34296e-12,4.21418e-38,-1.61558e-06,-3.40794e-12,4.21394e-38,-3.9599e-12,-1.13835e-13,0,0,-7,0.29,0.2,0,0,0,0,0,-3,0.29,121,10,121,10,176,10,121,65,0,-0.261799,-1.91252e-08,-1.5,0,0,0,3,0,0,0,0,0,0,0,0,3025
2480,-3.34296e-12,4.21418e-38,-1.61558e-06,-3.40794e-12,4.21394e-38,0,-1.13835e-13,0,0,-7,0.29,0.2,0,0,0,0,0,-3,0.29,121,10,121,10,176,10,121,65,0,-0.261799,-1.85578e-08,-1.5,0,0,0,3,0,0,0,0,0,0,0,0,3025
2490,-3.34296e-12,4.21418e-38,-1.61558e-06,-3.40794e-12,4.21394e-38,-3.9599e-12,-1.13836e-13,0,0,-7,0.29,0.2,0,0,0,0,0,-3,0.29,121,10,121,10,176,10,121,65,0,-0.261799,-1.78615e-08,-1.5,0,0,0,3,0,0,0,0,0,0,0,0,3025
2500,-3.34296e-12,4.21418e-38,-1.61558e-06,-3.40794e-12,4.21394e-38,0,-1.13837e-13,0,0,-7,0.29,0.2,0,0,0,0,0,-3,0.29,121,10,121,10,176,10,121,65,0,-0.261799,-1.72264e-08,-1.5,0,0,0,3,0,0,0,0,0,0,0,0,3025
2510,-3.34296e-12,4.21418e-38,-1.61558e-06,-3.40794e-12,4.21394e-38,-3.9599e-12,-1.13837e-13,0,0,-7,0.29,0.2,0,0,0,0,0,-3,0.29,121,10,121,10,176,10,121,65,0,-0.261799,-1.66476e-08,-1.5,0,0,0,3,0,0,0,0,0,0,0,0,3025
2520,-3.34296e-12,4.21418e-38,-1.61558e-06,-3.40794e-12,4.21394e-38,0,-1.13838e-13,0,0,-7,0.29,0.2,0,0,0,0,0,-3,0.29,121,10,121,10,176,10,121,65,0,-0.261799,-1.61535e-08,-1.5,0,0,0,3,0,0,0,0,0,0,0,0,3025
2530,-3.34296e-12,4.21418e-38,-1.61558e-06,-3.40794e-12,4.21394e-38,-3.9599e-12,-1.13838e-13,0,0,-7,0.29,0.2,0,0,0,0,0,-3,0.29,121,10,121,10,176,10,121,65,0,-0.261799,-1.56426e-08,-1.5,0,0,0,3,0,0,0,0,0,0,0,0,3025
2540,-3.34296e-12,4.21418e-38,-1.61558e-06,-3.40794e-12,4.21394e-38,0,-1.13839e-13,0,0,-7,0.29,0.2,0,0,0,0,0,-3,0.29,121,10,121,10,176,10,121,65,0,-0.261799,-1.24998e-08,-1.5,0,0,0,3,0,0,0,0,0,0,0,0,3025
2550,-3.34296e-12,4.21418e-38,-1.61558e-06,-3.40794e-12,4.21394e-38,-3.9599e-12,-1.13839e-13,0,0,-7,0.29,0.2,0,0,0,0,0,-3,0.29,121,10,121,10,176,10,121,65,0,-0.261799,-1.05296e-08,-1.5,0,0,0,3,0,0,0,0,0,0,0,0,3025
2560,-3.34296e-12,4.21418e-38,-1.61558e-06,-3.40794e-12,4.21394e-38,0,-1.1384e-13,0,0,-7,0.29,0.2,0,0,0,0,0,-3,0.29,121,10,121,10,176,10,121,65,0,-0.261799,-1.01759e-08,-1.5,0,0,0,3,0,0,0,0,0,0,0,0,3025
2570,-3.34296e-12,4.21418e-38,-1.61558e-06,-3.40794e-12,4.21394e-38,-3.9599e-12,-1.1384e-13,0,0,-7,0.29,0.2,0,0,0,0,0,-3,0.29,121,10,121,10,176,10,121,65,0,-0.261799,-9.91399e-09,-1.5,0,0,0,3,0,0,0,0,0,0,0,0,3025
2580,-3.34296e-12,4.21418e-38,-1.61558e-06,-3.40794e-12,4.21394e-38,0,-1.13841e-13,0,0,-7,0.29,0.2,0,0,0,0,0,-3,0.29,121,10,121,10,176,10,121,65,0,-0.261799,-9.65883e-09,-1.5,0,0,0,3,0,0,0,0,0,0,0,0,3025
2590,-3.34296e-12,4.21418e-38,-1.61558e-06,-3.40794e-12,4.21394e-38,-3.9599e-12,-1.13841e-13,0,0,-7,0.29,0.2,0,0,0,0,0,-3,0.29,121,10,121,10,176,10,121,65,0,-0.261799,-9.33412e-09,-1.5,0,0,0,3,0,0,0,0,0,0,0,0,3025
2600,-3.34296e-12,4.21418e-38,-1.61558e-06,-3.40794e-12,4.21394e-38,0,-1.13842e-13,0,0,-7,0.29,0.2,0,0,0,0,0,-3,0.29,121,10,121,10,176,10,121,65,0,-0.261799,-9.0387e-09,-1.5,0,0,0,3,0,0,0,0,0,0,0,0,3025
2610,-3.34296e-12,4.21418e-38,-1.61558e-06,-3.40794e-12,4.21394e-38,-3.9599e-12,-1.13843e-13,0,0,-7,0.29,0.2,0,0,0,0,0,-3,0.29,121,10,121,10,176,10,121,65,0,-0.261799,-8.68146e-09,-1.5,0,0,0,3,0,0,0,0,0,0,0,0,3025
2620,-3.34296e-12,4.21418e-38,-1.61558e-06,-3.40794e-12,4.21394e-38,0,-1.13843e-13,0,0,-7,0.29,0.2,0,0,0,0,0,-3,0.29,121,10,121,10,176,10,121,65,0,-0.261799,-8.4067e-09,-1.5,0,0,0,3,0,0,0,0,0,0,0,0,3025
2630,-3.34296e-12,4.21418e-38,-1.61558e-06,-3.40794e-12,4.21394e-38,-3.9599e-12,-1.13844e-13,0,0,-7,0.29,0.2,0,0,0,0,0,-3,0.29,121,10,121,10,176,10,121,65,0,-0.261799,-8.15718e-09,-1.5,0,0,0,3,0,0,0,0,0,0,0,0,3025
2640,-3.34296e-12,4.21418e-38,-1.61558e-06,-3.40794e-12,4.21394e-38,0,-1.13844e-13,0,0,-7,0.29,0.2,0,0,0,0,0,-3,0.29,121,10,121,10,176,10,121,65,0,-0.261799,-7.899e-09,-1.5,0,0,0,3,0,0,0,0,0,0,0,0,3025
2650,-3.34296e-12,4.21418e-38,-1.61558e-06,-3.40794e-12,4.21394e-38,-3.9599e-12,-1.13845e-13,0,0,-7,0.29,0.2,0,0,0,0,0,-3,0.29,121,10,121,10,176,10,121,65,0,-0.261799,-7.61813e-09,-1.5,0,0,0,3,0,0,0,0,0,0,0,0,3025
2660,-3.34296e-12,4.21418e-38,-1.61558e-06,-3.40794e-12,4.21394e-38,0,-1.13845e-13,0,0,-7,0.29,0.2,0,0,0,0,0,-3,0.29,121,10,121,10,176,10,121,65,0,-0.261799,-7.33227e-09,-1.5,0,0,0,3,0,0,0,0,0,0,0,0,3025
2670,-3.34296e-12,4.21418e-38,-1.61558e-06,-3.40794e-12,4.21394e-38,-3.9599e-12,-1.13846e-13,0,0,-7,0.29,0.2,0,0,0,0,0,-3,0.29,121,10,121,10,176,10,121,65,0,-0.261799,-7.11464e-09,-1.5,0,0,0,3,0,0,0,0,0,0,0,0,3025
2680,-3.34296e-12,4.21418e-38,-1.61558e-06,-3.40794e-12,4.21394e-38,0,-1.13846e-13,0,0,-7,0.29,0.2,0,0,0,0,0,-3,0.29,121,10,121,10,176,10,121,65,0,-0.261799,-6.83345e-09,-1.5,0,0,0,3,0,0,0,0,0,0,0,0,3025
2690,-3.34296e-12,4.21418e-38,-1.61558e-06,-3.40794e-12,4.21394e-38,-3.9599e-12,-1.13847e-13,0,0,-7,0.29,0.2,0,0,0,0,0,-3,0.29,121,10,121,10,176,10,121,65,0,-0.261799,-6.63062e-09,-1.5,0,0,0,3,0,0,0,0,0,0,0,0,3025
2700,-3.34296e-12,4.21418e-38,-1.61558e-06,-3.40794e-12,4.21394e-38,0,-1.13847e-13,0,0,-7,0.29,0.2,0,0,0,0,0,-3,0.29,121,10,121,10,176,10,121,65,0,-0.261799,-6.43381e-09,-1.5,0,0,0,3,0,0,0,0,0,0,0,0,3025
2710,-3.34296e-12,4.21418e-38,-1.61558e-06,-3.40794e-12,4.21394e-38,-3.9599e-12,-1.13848e-13,0,0,-7,0.29,0.2,0,0,0,0,0,-3,0.29,121,10,121,10,176,10,121,65,0,-0.261799,-6.16735e-09,-1.5,0,0,0,3,0,0,0,0,0,0,0,0,3025
2720,-3.34296e-12,4.21418e-38,-1.61558e-06,-3.40794e-12,4.21394e-38,0,-1.13848e-13,0,0,-7,0.29,0.2,0,0,0,0,0,-3,0.29,121,10,121,10,176,10,121,65,0,-0.261799,-5.97228e-09,-1.5,0,0,0,3,0,0,0,0,0,0,0,0,3025
2730,-3.34296e-12,4.21418e-38,-1.61558e-06,-3.40794e-12,4.21394e-38,-3.9599e-12,-1.13849e-13,0,0,-7,0.29,0.2,0,0,0,0,0,-3,0.29,121,10,121,10,176,10,121,65,0,-0.261799,-5.75991e-09,-1.5,0,0,0,3,0,0,0,0,0,0,0,0,3025
2740,-3.34296e-12,4.21418e-38,-1.61558e-06,-3.40794e-12,4.21394e-38,0,-1.1385e-13,0,0,-7,0.29,0.2,0,0,0,0,0,-3,0.29,121,10,121,10,176,10,121,65,0,-0.261799,-5.58895e-09,-1.5,0,0,0,3,0,0,0,0,0,0,0,0,3025
2750,-3.34296e-12,4.21418e-38,-1.61558e-06,-3.40794e-12,4.21394e-38,-3.9599e-12,-1.1385e-13,0,0,-7,0.29,0.2,0,0,0,0,0,-3,0.29,121,10,121,10,176,10,121,65,0,-0.261799,-5.42306e-09,-1.5,0,0,0,3,0,0,0,0,0,0,0,0,3025
2760,-3.34296e-12,4.21418e-38,-1.61558e-06,-3.40794e-12,4.21394e-38,0,-1.13851e-13,0,0,-7,0.29,0.2,0,0,0,0,0,-3,0.29,121,10,121,10,176,10,121,65,0,-0.261799,-5.18738e-09,-1.5,0,0,0,3,0,0,0,0,0,0,0,0,3025
2770,-3.34296e-12,4.21418e-38,-1.61558e-06,-3.40794e-12,4.21394e-38,-3.9599e-12,-1.13851e-13,0,0,-7,0.29,0.2,0,0,0,0,0,-3,0.29,121,10,121,10,176,10,121,65,0,-0.261799,-5.01312e-09,-1.5,0,0,0,3,0,0,0,0,0,0,0,0,3025
2780,-3.34296e-12,4.21418e-38,-1.61558e-06,-3.40794e-12,4.21394e-38,0,-1.13852e-13,0,0,-7,0.29,0.2,0,0,0,0,0,-3,0.29,121,10,121,10,176,10,121,65,0,-0.261799,-4.85445e-09,-1.5,0,0,0,3,0,0,0,0,0,0,0,0,3025
2790,-3.34296e-12,4.21418e-38,-1.61558e-06,-3.40794e-12,4.21394e-38,-3.9599e-12,-1.13852e-13,0,0,-7,0.29,0.2,0,0,0,0,0,-3,0.29,121,10,121,10,176,10,121,65,0,-0.261799,-4.70081e-09,-1.5,0,0,0,3,0,0,0,0,0,0,0,0,3025
2800,-3.34296e-12,4.21418e-38,-1.61558e-06,-3.40794e-12,4.21394e-38,0,-1.13853e-13,0,0,-7,0.29,0.2,0,0,0,0,0,-3,0.29,121,10,121,10,176,10,121,65,0,-0.261799,-4.56128e-09,-1.5,0,0,0,3,0,0,0,0,0,0,0,0,3025
2810,-3.34296e-12,4.21418e-38,-1.61558e-06,-3.40794e-12,4.21394e-38,-3.9599e-12,-1.13853e-13,0,0,-7,0.29,0.2,0,0,0,0,0,-3,0.29,121,10,121,10,176,10,121,65,0,-0.261799,-4.40794e-09,-1.5,0,0,0,3,0,0,0,0,0,0,0,0,3025
2820,-3.34296e-12,4.21418e-38,-1.61558e-06,-3.40794e-12,4.21394e-38,0,-1.13854e-13,0,0,-7,0.29,0.2,0,0,0,0,0,-3,0.29,121,10,121,10,176,10,121,65,0,-0.261799,-4.26852e-09,-1.5,0,0,0,3,0,0,0,0,0,0,0,0,3025
2830,-3.34296e-12,4.21418e-38,-1.61558e-06,-3.40794e-12,4.21394e-38,-3.9599e-12,-1.13854e-13,0,0,-7,0.29,0.2,0,0,0,0,0,-3,0.29,121,10,121,10,176,10,121,65,0,-0.261799,-4.0832e-09,-1.5,0,0,0,3,0,0,0,0,0,0,0,0,3025
2840,-3.34296e-12,4.21418e-38,-1.61558e-06,-3.40794e-12,4.21394e-38,0,-1.13855e-13,0,0,-7,0.29,0.2,0,0,0,0,0,-3,0.29,121,10,121,10,176,10,121,65,0,-0.261799,-3.20013e-09,-1.5,0,0,0,3,0,0,0,0,0,0,0,0,3025
2850,-3.34296e-12,4.21418e-38,-1.61558e-06,-3.40794e-12,4.21394e-38,-3.9599e-12,-1.13856e-13,0,0,-7,0.29,0.2,0,0,0,0,0,-3,0.29,121,10,121,10,176,10,121,65,0,-0.261799,-2.82171e-09,-1.5,0,0,0,3,0,0,0,0,0,0,0,0,3025
2860,-3.34296e-12,4.21418e-38,-1.61558e-06,-3.40794e-12,4.21394e-38,0,-1.13856e-13,0,0,-7,0.29,0.2,0,0,0,0,0,-3,0.29,121,10,121,10,176,10,121,65,0,-0.261799,-2.71575e-09,-1.5,0,0,0,3,0,0,0,0,0,0,0,0,3025
