timestamp,A_x,A_y,A_z,P,Q,R,Phi,Theta,Psi,poseX,poseY,poseZ,state_X,state_Y,state_Z,state_VzB,state_Bx,state_By,state_Bz,p1_x,p1_y,p2_x,p2_y,p3_x,p3_y,p4_x,p4_y,roll,pitch,yaw,alt,targetHeading,highLevelState,lowLevelState,gateNumber,filtered_x,filtered_y,x_OT,y_OT,vx_OT,vy_OT,filtered_vx,filtered_vygateArea
10,0,0,0,0,0,0,0,0,0,0,0,0,0,0,0,0,0,0,0,0,0,0,0,0,0,0,0,0,-0.261799,0.0062205,-1.5,0,0,0,3,0,0,0,0,0,0,0,0,1.9603e-19
20,0,0,0,0,0,0,0,0,0,0,0,0,0,0,0,0,0,0,0,0,0,0,0,0,0,0,0,0,-0.261799,0.00602362,-1.5,0,0,0,3,0,0,0,0,0,0,0,0,1.9603e-19
30,-3.71585e-12,0,-1.57926e-06,-3.84759e-12,0,-3.40903e-12,-1.13703e-13,0,0,0,0,0,0,0,0,0,0,0,0,0,0,0,0,0,0,0,0,0,-0.261799,-0.00128041,-1.5,0,0,0,3,0,0,0,0,0,0,0,0,1.9603e-19
40,-3.71585e-12,0,-1.57926e-06,-3.84759e-12,0,0,-1.13703e-13,0,0,0,0,0,0,0,0,0,0,0,0,0,0,0,0,0,0,0,0,0,-0.261799,-0.00123988,-1.5,0,0,0,3,0,0,0,0,0,0,0,0,1.9603e-19
50,-3.71585e-12,0,-1.57926e-06,-3.84759e-12,0,-3.40903e-12,-1.13704e-13,0,0,0,0,0,0,0,0,0,0,0,0,0,0,0,0,0,0,0,0,0,-0.261799,-0.00120067,-1.5,0,0,0,3,0,0,0,0,0,0,0,0,1.9603e-19
60,-3.71585e-12,0,-1.57926e-06,-3.84759e-12,0,0,-1.13704e-13,0,0,0,0,0,0,0,0,0,0,0,0,0,0,0,0,0,0,0,0,0,-0.261799,-0.00116267,-1.5,0,0,0,3,0,0,0,0,0,0,0,0,1.9603e-19
70,-3.71585e-12,0,-1.57926e-06,-3.84759e-12,0,-3.40903e-12,-1.13705e-13,0,0,0,0,0,0,0,0,0,0,0,0,0,0,0,0,0,0,0,0,0,-0.261799,-0.00112816,-1.5,0,0,0,3,0,0,0,0,0,0,0,0,1.9603e-19
80,-3.71585e-12,0,-1.57926e-06,-3.84759e-12,0,0,-1.13705e-13,0,0,0,0,0,0,0,0,0,0,0,0,0,0,0,0,0,0,0,0,0,-0.261799,-0.00109247,-1.5,0,0,0,3,0,0,0,0,0,0,0,0,1.9603e-19
90,-3.71585e-12,0,-1.57926e-06,-3.84759e-12,0,-3.40903e-12,-1.13706e-13,0,0,0,0,0,0,0,0,0,0,0,0,0,0,0,0,0,0,0,0,0,-0.261799,-0.00105577,-1.5,0,0,0,3,0,0,0,0,0,0,0,0,1.9603e-19
100,-3.71585e-12,0,-1.57926e-06,-3.84759e-12,0,0,-1.13706e-13,0,0,0,0,0,0,0,0,0,0,0,0,0,0,0,0,0,0,0,0,0,-0.261799,-0.00102443,-1.5,0,0,0,3,0,0,0,0,0,0,0,0,1.9603e-19
110,-3.71585e-12,0,-1.57926e-06,-3.84759e-12,0,-3.40903e-12,-1.13707e-13,0,0,0,0,0,0,0,0,0,0,0,0,0,0,0,0,0,0,0,0,0,-0.261799,-0.000937572,-1.5,0,0,0,3,0,0,0,0,0,0,0,0,1.9603e-19
120,-3.71585e-12,0,-1.57926e-06,-3.84759e-12,0,0,-1.13708e-13,0,0,0,0,0,0,0,0,0,0,0,0,0,0,0,0,0,0,0,0,0,-0.261799,-0.000874767,-1.5,0,0,0,3,0,0,0,0,0,0,0,0,1.9603e-19
130,-3.71585e-12,0,-1.57926e-06,-3.84759e-12,0,-3.40903e-12,-1.13708e-13,0,0,0,0,0,0,0,0,0,0,0,0,0,0,0,0,0,0,0,0,0,-0.261799,-0.000692127,-1.5,0,0,0,3,0,0,0,0,0,0,0,0,1.9603e-19
140,-3.71585e-12,0,-1.57926e-06,-3.84759e-12,0,0,-1.13709e-13,0,0,0,0,0,0,0,0,0,0,0,0,0,0,0,0,0,0,0,0,0,-0.261799,-0.000561243,-1.5,0,0,0,3,0,0,0,0,0,0,0,0,1.9603e-19
150,-3.71585e-12,0,-1.57926e-06,-3.84759e-12,0,-3.40903e-12,-1.13709e-13,0,0,0,0,0,0,0,0,0,0,0,0,0,0,0,0,0,0,0,0,0,-0.261799,-0.000542375,-1.5,0,0,0,3,0,0,0,0,0,0,0,0,1.9603e-19
160,-3.71585e-12,0,-1.57926e-06,-3.84759e-12,0,0,-1.1371e-13,0,0,0,0,0,0,0,0,0,0,0,0,0,0,0,0,0,0,0,0,0,-0.261799,-0.000523089,-1.5,0,0,0,3,0,0,0,0,0,0,0,0,1.9603e-19
170,-3.71585e-12,0,-1.57926e-06,-3.84759e-12,0,-3.40903e-12,-1.1371e-13,0,0,0,0,0,0,0,0,0,0,0,0,0,0,0,0,0,0,0,0,0,-0.261799,-0.000494276,-1.5,0,0,0,3,0,0,0,0,0,0,0,0,1.9603e-19
180,-3.71585e-12,0,-1.57926e-06,-3.84759e-12,0,0,-1.13711e-13,0,0,0,0,0,0,0,0,0,0,0,0,0,0,0,0,0,0,0,0,0,-0.261799,-0.000450486,-1.5,0,0,0,3,0,0,0,0,0,0,0,0,1.9603e-19
190,-3.71585e-12,0,-1.57926e-06,-3.84759e-12,0,-3.40903e-12,-1.13711e-13,0,0,0,0,0,0,0,0,0,0,0,0,0,0,0,0,0,0,0,0,0,-0.261799,-0.00042031,-1.5,0,0,0,3,0,0,0,0,0,0,0,0,1.9603e-19
200,-3.71585e-12,0,-1.57926e-06,-3.84759e-12,0,0,-1.13712e-13,0,0,0,0,0,0,0,0,0,0,0,0,0,0,0,0,0,0,0,0,0,-0.261799,-0.000401236,-1.5,0,0,0,3,0,0,0,0,0,0,0,0,1.9603e-19
210,-3.71585e-12,0,-1.57926e-06,-3.84759e-12,0,-3.40903e-12,-1.13712e-13,0,0,0,0,0,0,0,0,0,0,0,0,0,0,0,0,0,0,0,0,0,-0.261799,-0.000385393,-1.5,0,0,0,3,0,0,0,0,0,0,0,0,1.9603e-19
220,-3.71585e-12,0,-1.57926e-06,-3.84759e-12,0,0,-1.13713e-13,0,0,0,0,0,0,0,0,0,0,0,0,0,0,0,0,0,0,0,0,0,-0.261799,-0.000373954,-1.5,0,0,0,3,0,0,0,0,0,0,0,0,1.9603e-19
230,-3.71585e-12,0,-1.57926e-06,-3.84759e-12,0,-3.40903e-12,-1.13714e-13,0,0,0,0,0,0,0,0,0,0,0,0,0,0,0,0,0,0,0,0,0,-0.261799,-0.000362118,-1.5,0,0,0,3,0,0,0,0,0,0,0,0,1.9603e-19
240,-3.71585e-12,0,-1.57926e-06,-3.84759e-12,0,0,-1.13714e-13,0,0,0,0,0,0,0,0,0,0,0,0,0,0,0,0,0,0,0,0,0,-0.261799,-0.000322213,-1.5,0,0,0,3,0,0,0,0,0,0,0,0,1.9603e-19
250,-3.71585e-12,0,-1.57926e-06,-3.84759e-12,0,-3.40903e-12,-1.13715e-13,0,0,0,0,0,0,0,0,0,0,0,0,0,0,0,0,0,0,0,0,0,-0.261799,-0.000313917,-1.5,0,0,0,3,0,0,0,0,0,0,0,0,1.9603e-19
260,-3.71585e-12,0,-1.57926e-06,-3.84759e-12,0,0,-1.13715e-13,0,0,0,0,0,0,0,0,0,0,0,0,0,0,0,0,0,0,0,0,0,-0.261799,-0.000303372,-1.5,0,0,0,3,0,0,0,0,0,0,0,0,1.9603e-19
270,-3.71585e-12,0,-1.57926e-06,-3.84759e-12,0,-3.40903e-12,-1.13716e-13,0,0,0,0,0,0,0,0,0,0,0,0,0,0,0,0,0,0,0,0,0,-0.261799,-0.000293776,-1.5,0,0,0,3,0,0,0,0,0,0,0,0,1.9603e-19
280,-3.71585e-12,0,-1.57926e-06,-3.84759e-12,0,0,-1.13716e-13,0,0,0,0,0,0,0,0,0,0,0,0,0,0,0,0,0,0,0,0,0,-0.261799,-0.000285056,-1.5,0,0,0,3,0,0,0,0,0,0,0,0,1.9603e-19
290,-3.71585e-12,0,-1.57926e-06,-3.84759e-12,0,-3.40903e-12,-1.13717e-13,0,0,0,0,0,0,0,0,0,0,0,0,0,0,0,0,0,0,0,0,0,-0.261799,-0.000276034,-1.5,0,0,0,3,0,0,0,0,0,0,0,0,1.9603e-19
300,-3.71585e-12,0,-1.57926e-06,-3.84759e-12,0,0,-1.13717e-13,0,0,0,0,0,0,0,0,0,0,0,0,0,0,0,0,0,0,0,0,0,-0.261799,-0.00026405,-1.5,0,0,0,3,0,0,0,0,0,0,0,0,1.9603e-19
310,-3.71585e-12,0,-1.57926e-06,-3.84759e-12,0,-3.40903e-12,-1.13718e-13,0,0,0,0,0,0,0,0,0,0,0,0,0,0,0,0,0,0,0,0,0,-0.261799,-0.000255698,-1.5,0,0,0,3,0,0,0,0,0,0,0,0,1.9603e-19
320,-3.71585e-12,0,-1.57926e-06,-3.84759e-12,0,0,-1.13718e-13,0,0,0,0,0,0,0,0,0,0,0,0,0,0,0,0,0,0,0,0,0,-0.261799,-0.00024761,-1.5,0,0,0,3,0,0,0,0,0,0,0,0,1.9603e-19
330,-3.71585e-12,0,-1.57926e-06,-3.84759e-12,0,-3.40903e-12,-1.13719e-13,0,0,0,0,0,0,0,0,0,0,0,0,0,0,0,0,0,0,0,0,0,-0.261799,-0.000239292,-1.5,0,0,0,3,0,0,0,0,0,0,0,0,1.9603e-19
340,-3.71585e-12,0,-1.57926e-06,-3.84759e-12,0,0,-1.13719e-13,0,0,0,0,0,0,0,0,0,0,0,0,0,0,0,0,0,0,0,0,0,-0.261799,-0.000231723,-1.5,0,0,0,3,0,0,0,0,0,0,0,0,1.9603e-19
350,-3.71585e-12,0,-1.57926e-06,-3.84759e-12,0,-3.40903e-12,-1.1372e-13,0,0,0,0,0,0,0,0,0,0,0,0,0,0,0,0,0,0,0,0,0,-0.261799,-0.000224394,-1.5,0,0,0,3,0,0,0,0,0,0,0,0,1.9603e-19
360,-3.71585e-12,0,-1.57926e-06,-3.84759e-12,0,0,-1.13721e-13,0,0,0,0,0,0,0,0,0,0,0,0,0,0,0,0,0,0,0,0,0,-0.261799,-0.00021685,-1.5,0,0,0,3,0,0,0,0,0,0,0,0,1.9603e-19
370,-3.71585e-12,0,-1.57926e-06,-3.84759e-12,0,-3.40903e-12,-1.13721e-13,0,0,0,0,0,0,0,0,0,0,0,0,0,0,0,0,0,0,0,0,0,-0.261799,-0.000209987,-1.5,0,0,0,3,0,0,0,0,0,0,0,0,1.9603e-19
380,-3.71585e-12,0,-1.57926e-06,-3.84759e-12,0,0,-1.13722e-13,0,0,0,0,0,0,0,0,0,0,0,0,0,0,0,0,0,0,0,0,0,-0.261799,-0.000202933,-1.5,0,0,0,3,0,0,0,0,0,0,0,0,1.9603e-19
390,-3.71585e-12,0,-1.57926e-06,-3.84759e-12,0,-3.40903e-12,-1.13722e-13,0,0,0,0,0,0,0,0,0,0,0,0,0,0,0,0,0,0,0,0,0,-0.261799,-0.000194919,-1.5,0,0,0,3,0,0,0,0,0,0,0,0,1.9603e-19
400,-3.71585e-12,0,-1.57926e-06,-3.84759e-12,0,0,-1.13723e-13,0,0,0,0,0,0,0,0,0,0,0,0,0,0,0,0,0,0,0,0,0,-0.261799,-0.000188754,-1.5,0,0,0,3,0,0,0,0,0,0,0,0,1.9603e-19
410,-3.71585e-12,0,-1.57926e-06,-3.84759e-12,0,-3.40903e-12,-1.13723e-13,0,0,0,0,0,0,0,0,0,0,0,0,0,0,0,0,0,0,0,0,0,-0.261799,-0.000182413,-1.5,0,0,0,3,0,0,0,0,0,0,0,0,1.9603e-19
420,-3.71585e-12,0,-1.57926e-06,-3.84759e-12,0,0,-1.13724e-13,0,0,0,0,0,0,0,0,0,0,0,0,0,0,0,0,0,0,0,0,0,-0.261799,-0.000175927,-1.5,0,0,0,3,0,0,0,0,0,0,0,0,1.9603e-19
430,-3.71585e-12,0,-1.57926e-06,-3.84759e-12,0,-3.40903e-12,-1.13724e-13,0,0,0,0,0,0,0,0,0,0,0,0,0,0,0,0,0,0,0,0,0,-0.261799,-0.000170705,-1.5,0,0,0,3,0,0,0,0,0,0,0,0,1.9603e-19
440,-3.71585e-12,0,-1.57926e-06,-3.84759e-12,0,0,-1.13725e-13,0,0,0,0,0,0,0,0,0,0,0,0,0,0,0,0,0,0,0,0,0,-0.261799,-0.000165302,-1.5,0,0,0,3,0,0,0,0,0,0,0,0,1.9603e-19
450,-3.71585e-12,0,-1.57926e-06,-3.84759e-12,0,-3.40903e-12,-1.13725e-13,0,0,0,0,0,0,0,0,0,0,0,0,0,0,0,0,0,0,0,0,0,-0.261799,-0.000159094,-1.5,0,0,0,3,0,0,0,0,0,0,0,0,1.9603e-19
460,-3.71585e-12,0,-1.57926e-06,-3.84759e-12,0,0,-1.13726e-13,0,0,0,0,0,0,0,0,0,0,0,0,0,0,0,0,0,0,0,0,0,-0.261799,-0.00015375,-1.5,0,0,0,3,0,0,0,0,0,0,0,0,1.9603e-19
470,-3.71585e-12,0,-1.57926e-06,-3.84759e-12,0,-3.40903e-12,-1.13727e-13,0,0,0,0,0,0,0,0,0,0,0,0,0,0,0,0,0,0,0,0,0,-0.261799,-0.000149186,-1.5,0,0,0,3,0,0,0,0,0,0,0,0,1.9603e-19
480,-3.71585e-12,0,-1.57926e-06,-3.84759e-12,0,0,-1.13727e-13,0,0,0,0,0,0,0,0,0,0,0,0,0,0,0,0,0,0,0,0,0,-0.261799,-0.00014329,-1.5,0,0,0,3,0,0,0,0,0,0,0,0,1.9603e-19
490,-3.71585e-12,0,-1.57926e-06,-3.84759e-12,0,-3.40903e-12,-1.13728e-13,0,0,0,0,0,0,0,0,0,0,0,0,0,0,0,0,0,0,0,0,0,-0.261799,-0.000138758,-1.5,0,0,0,3,0,0,0,0,0,0,0,0,1.9603e-19
500,-3.71585e-12,0,-1.57926e-06,-3.84759e-12,0,0,-1.13728e-13,0,0,0,0,0,0,0,0,0,0,0,0,0,0,0,0,0,0,0,0,0,-0.261799,-0.000134914,-1.5,0,0,0,3,0,0,0,0,0,0,0,0,1.9603e-19
510,-3.71585e-12,0,-1.57926e-06,-3.84759e-12,0,-3.40903e-12,-1.13729e-13,0,0,0,0,0,0,0,0,0,0,0,0,0,0,0,0,0,0,0,0,0,-0.261799,-0.000105949,-1.5,0,0,0,3,0,0,0,0,0,0,0,0,1.9603e-19
520,-3.71585e-12,0,-1.57926e-06,-3.84759e-12,0,0,-1.13729e-13,0,0,0,0,0,0,0,0,0,0,0,0,0,0,0,0,0,0,0,0,0,-0.261799,-8.86244e-05,-1.5,0,0,0,3,0,0,0,0,0,0,0,0,1.9603e-19
530,-3.71585e-12,0,-1.57926e-06,-3.84759e-12,0,-3.40903e-12,-1.1373e-13,0,0,0,0,0,0,0,0,0,0,0,0,0,0,0,0,0,0,0,0,0,-0.261799,-8.56471e-05,-1.5,0,0,0,3,0,0,0,0,0,0,0,0,1.9603e-19
540,-3.71585e-12,0,-1.57926e-06,-3.84759e-12,0,0,-1.1373e-13,0,0,0,0,0,0,0,0,0,0,0,0,0,0,0,0,0,0,0,0,0,-0.261799,-8.22652e-05,-1.5,0,0,0,3,0,0,0,0,0,0,0,0,1.9603e-19
550,-3.71585e-12,0,-1.57926e-06,-3.84759e-12,0,-3.40903e-12,-1.13731e-13,0,0,0,0,0,0,0,0,0,0,0,0,0,0,0,0,0,0,0,0,0,-0.261799,-7.98234e-05,-1.5,0,0,0,3,0,0,0,0,0,0,0,0,1.9603e-19
560,-3.71585e-12,0,-1.57926e-06,-3.84759e-12,0,0,-1.13731e-13,0,0,0,0,0,0,0,0,0,0,0,0,0,0,0,0,0,0,0,0,0,-0.261799,-7.69828e-05,-1.5,0,0,0,3,0,0,0,0,0,0,0,0,1.9603e-19
570,-3.71585e-12,0,-1.57926e-06,-3.84759e-12,0,-3.40903e-12,-1.13732e-13,0,0,0,0,0,0,0,0,0,0,0,0,0,0,0,0,0,0,0,0,0,-0.261799,-7.42454e-05,-1.5,0,0,0,3,0,0,0,0,0,0,0,0,1.9603e-19
580,-3.71585e-12,0,-1.57926e-06,-3.84759e-12,0,0,-1.13732e-13,0,0,0,0,0,0,0,0,0,0,0,0,0,0,0,0,0,0,0,0,0,-0.261799,-7.20417e-05,-1.5,0,0,0,3,0,0,0,0,0,0,0,0,1.9603e-19
590,-3.71585e-12,0,-1.57926e-06,-3.84759e-12,0,-3.40903e-12,-1.13733e-13,0,0,0,0,0,0,0,0,0,0,0,0,0,0,0,0,0,0,0,0,0,-0.261799,-6.9763e-05,-1.5,0,0,0,3,0,0,0,0,0,0,0,0,1.9603e-19
600,-3.71585e-12,0,-1.57926e-06,-3.84759e-12,0,0,-1.13734e-13,0,0,0,0,0,0,0,0,0,0,0,0,0,0,0,0,0,0,0,0,0,-0.261799,-6.71431e-05,-1.5,0,0,0,3,0,0,0,0,0,0,0,0,1.9603e-19
610,-3.71585e-12,0,-1.57926e-06,-3.84759e-12,0,-3.40903e-12,-1.13734e-13,0,0,0,0,0,0,0,0,0,0,0,0,0,0,0,0,0,0,0,0,0,-0.261799,-6.5018e-05,-1.5,0,0,0,3,0,0,0,0,0,0,0,0,1.9603e-19
620,-3.71585e-12,0,-1.57926e-06,-3.84759e-12,0,0,-1.13735e-13,0,0,0,0,0,0,0,0,0,0,0,0,0,0,0,0,0,0,0,0,0,-0.261799,-6.29615e-05,-1.5,0,0,0,3,0,0,0,0,0,0,0,0,1.9603e-19
630,-3.71585e-12,0,-1.57926e-06,-3.84759e-12,0,-3.40903e-12,-1.13735e-13,0,0,0,0,0,0,0,0,0,0,0,0,0,0,0,0,0,0,0,0,0,-0.261799,-6.04753e-05,-1.5,0,0,0,3,0,0,0,0,0,0,0,0,1.9603e-19
640,-3.71585e-12,0,-1.57926e-06,-3.84759e-12,0,0,-1.13736e-13,0,0,0,0,0,0,0,0,0,0,0,0,0,0,0,0,0,0,0,0,0,-0.261799,-5.82061e-05,-1.5,0,0,0,3,0,0,0,0,0,0,0,0,1.9603e-19
650,-3.71585e-12,0,-1.57926e-06,-3.84759e-12,0,-3.40903e-12,-1.13736e-13,0,0,0,0,0,0,0,0,0,0,0,0,0,0,0,0,0,0,0,0,0,-0.261799,-5.63651e-05,-1.5,0,0,0,3,0,0,0,0,0,0,0,0,1.9603e-19
660,-3.71585e-12,0,-1.57926e-06,-3.84759e-12,0,0,-1.13737e-13,0,0,0,0,0,0,0,0,0,0,0,0,0,0,0,0,0,0,0,0,0,-0.261799,-5.44702e-05,-1.5,0,0,0,3,0,0,0,0,0,0,0,0,1.9603e-19
670,-3.71585e-12,0,-1.57926e-06,-3.84759e-12,0,-3.40903e-12,-1.13737e-13,0,0,0,0,0,0,0,0,0,0,0,0,0,0,0,0,0,0,0,0,0,-0.261799,-5.25333e-05,-1.5,0,0,0,3,0,0,0,0,0,0,0,0,1.9603e-19
680,-3.71585e-12,0,-1.57926e-06,-3.84759e-12,0,0,-1.13738e-13,0,0,0,0,0,0,0,0,0,0,0,0,0,0,0,0,0,0,0,0,0,-0.261799,-5.08717e-05,-1.5,0,0,0,3,0,0,0,0,0,0,0,0,1.9603e-19
690,-3.71585e-12,0,-1.57926e-06,-3.84759e-12,0,-3.40903e-12,-1.13738e-13,0,0,0,0,0,0,0,0,0,0,0,0,0,0,0,0,0,0,0,0,0,-0.261799,-4.90628e-05,-1.5,0,0,0,3,0,0,0,0,0,0,0,0,1.9603e-19
700,-3.71585e-12,0,-1.57926e-06,-3.84759e-12,0,0,-1.13739e-13,0,0,0,0,0,0,0,0,0,0,0,0,0,0,0,0,0,0,0,0,0,-0.261799,-4.76065e-05,-1.5,0,0,0,3,0,0,0,0,0,0,0,0,1.9603e-19
710,-3.71585e-12,0,-1.57926e-06,-3.84759e-12,0,-3.40903e-12,-1.1374e-13,0,0,0,0,0,0,0,0,0,0,0,0,0,0,0,0,0,0,0,0,0,-0.261799,-4.59137e-05,-1.5,0,0,0,3,0,0,0,0,0,0,0,0,1.9603e-19
720,-3.71585e-12,0,-1.57926e-06,-3.84759e-12,0,0,-1.1374e-13,0,0,0,0,0,0,0,0,0,0,0,0,0,0,0,0,0,0,0,0,0,-0.261799,-4.41007e-05,-1.5,0,0,0,3,0,0,0,0,0,0,0,0,1.9603e-19
730,-3.71585e-12,0,-1.57926e-06,-3.84759e-12,0,-3.40903e-12,-1.13741e-13,0,0,0,0,0,0,0,0,0,0,0,0,0,0,0,0,0,0,0,0,0,-0.261799,-4.2879e-05,-1.5,0,0,0,3,0,0,0,0,0,0,0,0,1.9603e-19
740,-3.71585e-12,0,-1.57926e-06,-3.84759e-12,0,0,-1.13741e-13,0,0,0,0,0,0,0,0,0,0,0,0,0,0,0,0,0,0,0,0,0,-0.261799,-4.17751e-05,-1.5,0,0,0,3,0,0,0,0,0,0,0,0,1.9603e-19
750,-3.71585e-12,0,-1.57926e-06,-3.84759e-12,0,-3.40903e-12,-1.13742e-13,0,0,0,0,0,0,0,0,0,0,0,0,0,0,0,0,0,0,0,0,0,-0.261799,-4.05358e-05,-1.5,0,0,0,3,0,0,0,0,0,0,0,0,1.9603e-19
760,-3.71585e-12,0,-1.57926e-06,-3.84759e-12,0,0,-1.13742e-13,0,0,0,0,0,0,0,0,0,0,0,0,0,0,0,0,0,0,0,0,0,-0.261799,-3.93326e-05,-1.5,0,0,0,3,0,0,0,0,0,0,0,0,1.9603e-19
770,-3.71585e-12,0,-1.57926e-06,-3.84759e-12,0,-3.40903e-12,-1.13743e-13,0,0,0,0,0,0,0,0,0,0,0,0,0,0,0,0,0,0,0,0,0,-0.261799,-3.80878e-05,-1.5,0,0,0,3,0,0,0,0,0,0,0,0,1.9603e-19
780,-3.71585e-12,0,-1.57926e-06,-3.84759e-12,0,0,-1.13743e-13,0,0,0,0,0,0,0,0,0,0,0,0,0,0,0,0,0,0,0,0,0,-0.261799,-3.67334e-05,-1.5,0,0,0,3,0,0,0,0,0,0,0,0,1.9603e-19
790,-3.71585e-12,0,-1.57926e-06,-3.84759e-12,0,-3.40903e-12,-1.13744e-13,0,0,0,0,0,0,0,0,0,0,0,0,0,0,0,0,0,0,0,0,0,-0.261799,-3.56431e-05,-1.5,0,0,0,3,0,0,0,0,0,0,0,0,1.9603e-19
800,-3.71585e-12,0,-1.57926e-06,-3.84759e-12,0,0,-1.13744e-13,0,0,0,0,0,0,0,0,0,0,0,0,0,0,0,0,0,0,0,0,0,-0.261799,-3.45157e-05,-1.5,0,0,0,3,0,0,0,0,0,0,0,0,1.9603e-19
810,-3.71585e-12,0,-1.57926e-06,-3.84759e-12,0,-3.40903e-12,-1.13745e-13,0,0,0,0,0,0,0,0,0,0,0,0,0,0,0,0,0,0,0,0,0,-0.261799,-3.31528e-05,-1.5,0,0,0,3,0,0,0,0,0,0,0,0,1.9603e-19
820,-3.71585e-12,0,-1.57926e-06,-3.84759e-12,0,0,-1.13745e-13,0,0,0,0,0,0,0,0,0,0,0,0,0,0,0,0,0,0,0,0,0,-0.261799,-2.61783e-05,-1.5,0,0,0,3,0,0,0,0,0,0,0,0,1.9603e-19
830,-3.71585e-12,0,-1.57926e-06,-3.84759e-12,0,-3.40903e-12,-1.13746e-13,0,0,0,0,0,0,0,0,0,0,0,0,0,0,0,0,0,0,0,0,0,-0.261799,-2.27792e-05,-1.5,0,0,0,3,0,0,0,0,0,0,0,0,1.9603e-19
840,-3.71585e-12,0,-1.57926e-06,-3.84759e-12,0,0,-1.13747e-13,0,0,0,0,0,0,0,0,0,0,0,0,0,0,0,0,0,0,0,0,0,-0.261799,-2.20134e-05,-1.5,0,0,0,3,0,0,0,0,0,0,0,0,1.9603e-19
850,-3.71585e-12,0,-1.57926e-06,-3.84759e-12,0,-3.40903e-12,-1.13747e-13,0,0,0,0,0,0,0,0,0,0,0,0,0,0,0,0,0,0,0,0,0,-0.261799,-2.13167e-05,-1.5,0,0,0,3,0,0,0,0,0,0,0,0,1.9603e-19
860,-3.71585e-12,0,-1.57926e-06,-3.84759e-12,0,0,-1.13748e-13,0,0,0,0,0,0,0,0,0,0,0,0,0,0,0,0,0,0,0,0,0,-0.261799,-2.06425e-05,-1.5,0,0,0,3,0,0,0,0,0,0,0,0,1.9603e-19
870,-3.71585e-12,0,-1.57926e-06,-3.84759e-12,0,-3.40903e-12,-1.13748e-13,0,0,0,0,0,0,0,0,0,0,0,0,0,0,0,0,0,0,0,0,0,-0.261799,-1.98266e-05,-1.5,0,0,0,3,0,0,0,0,0,0,0,0,1.9603e-19
880,-3.71585e-12,0,-1.57926e-06,-3.84759e-12,0,0,-1.13749e-13,0,0,0,0,0,0,0,0,0,0,0,0,0,0,0,0,0,0,0,0,0,-0.261799,-1.91995e-05,-1.5,0,0,0,3,0,0,0,0,0,0,0,0,1.9603e-19
890,-3.71585e-12,0,-1.57926e-06,-3.84759e-12,0,-3.40903e-12,-1.13749e-13,0,0,0,0,0,0,0,0,0,0,0,0,0,0,0,0,0,0,0,0,0,-0.261799,-1.85922e-05,-1.5,0,0,0,3,0,0,0,0,0,0,0,0,1.9603e-19
900,-3.71585e-12,0,-1.57926e-06,-3.84759e-12,0,0,-1.1375e-13,0,0,0,0,0,0,0,0,0,0,0,0,0,0,0,0,0,0,0,0,0,-0.261799,-1.79306e-05,-1.5,0,0,0,3,0,0,0,0,0,0,0,0,1.9603e-19
910,-3.71585e-12,0,-1.57926e-06,-3.84759e-12,0,-3.40903e-12,-1.1375e-13,0,0,0,0,0,0,0,0,0,0,0,0,0,0,0,0,0,0,0,0,0,-0.261799,-1.73631e-05,-1.5,0,0,0,3,0,0,0,0,0,0,0,0,1.9603e-19
920,-3.71585e-12,0,-1.57926e-06,-3.84759e-12,0,0,-1.13751e-13,0,0,0,0,0,0,0,0,0,0,0,0,0,0,0,0,0,0,0,0,0,-0.261799,-1.67452e-05,-1.5,0,0,0,3,0,0,0,0,0,0,0,0,1.9603e-19
930,-3.71585e-12,0,-1.57926e-06,-3.84759e-12,0,-3.40903e-12,-1.13751e-13,0,0,0,0,0,0,0,0,0,0,0,0,0,0,0,0,0,0,0,0,0,-0.261799,-1.62156e-05,-1.5,0,0,0,3,0,0,0,0,0,0,0,0,1.9603e-19
940,-3.71585e-12,0,-1.57926e-06,-3.84759e-12,0,0,-1.13752e-13,0,0,0,0,0,0,0,0,0,0,0,0,0,0,0,0,0,0,0,0,0,-0.261799,-1.5639e-05,-1.5,0,0,0,3,0,0,0,0,0,0,0,0,1.9603e-19
950,-3.71585e-12,0,-1.57926e-06,-3.84759e-12,0,-3.40903e-12,-1.13753e-13,0,0,0,0,0,0,0,0,0,0,0,0,0,0,0,0,0,0,0,0,0,-0.261799,-1.49901e-05,-1.5,0,0,0,3,0,0,0,0,0,0,0,0,1.9603e-19
960,-3.71585e-12,0,-1.57926e-06,-3.84759e-12,0,0,-1.13753e-13,0,0,0,0,0,0,0,0,0,0,0,0,0,0,0,0,0,0,0,0,0,-0.261799,-1.45748e-05,-1.5,0,0,0,3,0,0,0,0,0,0,0,0,1.9603e-19
970,-3.71585e-12,0,-1.57926e-06,-3.84759e-12,0,-3.40903e-12,-1.13754e-13,0,0,0,0,0,0,0,0,0,0,0,0,0,0,0,0,0,0,0,0,0,-0.261799,-1.41996e-05,-1.5,0,0,0,3,0,0,0,0,0,0,0,0,1.9603e-19
980,-3.71585e-12,0,-1.57926e-06,-3.84759e-12,0,0,-1.13754e-13,0,0,0,0,0,0,0,0,0,0,0,0,0,0,0,0,0,0,0,0,0,-0.261799,-1.37222e-05,-1.5,0,0,0,3,0,0,0,0,0,0,0,0,1.9603e-19
990,-3.71585e-12,0,-1.57926e-06,-3.84759e-12,0,-3.40903e-12,-1.13755e-13,0,0,0,0,0,0,0,0,0,0,0,0,0,0,0,0,0,0,0,0,0,-0.261799,-1.32613e-05,-1.5,0,0,0,3,0,0,0,0,0,0,0,0,1.9603e-19
1000,-3.71585e-12,0,-1.57926e-06,-3.84759e-12,0,0,-1.13755e-13,0,0,0,0,0,0,0,0,0,0,0,0,0,0,0,0,0,0,0,0,0,-0.261799,-1.28676e-05,-1.5,0,0,0,3,0,0,0,0,0,0,0,0,1.9603e-19
1010,-3.71585e-12,0,-1.57926e-06,-3.84759e-12,0,-3.40903e-12,-1.13756e-13,0,0,0,0,0,0,0,0,0,0,0,0,0,0,0,0,0,0,0,0,0,-0.261799,-1.24097e-05,-1.5,0,0,0,3,0,0,0,0,0,0,0,0,1.9603e-19
1020,-3.71585e-12,0,-1.57926e-06,-3.84759e-12,0,0,-1.13756e-13,0,0,0,0,0,0,0,0,0,0,0,0,0,0,0,0,0,0,0,0,0,-0.261799,-1.19685e-05,-1.5,0,0,0,3,0,0,0,0,0,0,0,0,1.9603e-19
1030,-3.71585e-12,0,-1.57926e-06,-3.84759e-12,0,-3.40903e-12,-1.13757e-13,0,0,0,0,0,0,0,0,0,0,0,0,0,0,0,0,0,0,0,0,0,-0.261799,-1.15897e-05,-1.5,0,0,0,3,0,0,0,0,0,0,0,0,1.9603e-19
1040,-3.71585e-12,0,-1.57926e-06,-3.84759e-12,0,0,-1.13757e-13,0,0,0,0,0,0,0,0,0,0,0,0,0,0,0,0,0,0,0,0,0,-0.261799,-1.11316e-05,-1.5,0,0,0,3,0,0,0,0,0,0,0,0,1.9603e-19
1050,-3.71585e-12,0,-1.57926e-06,-3.84759e-12,0,-3.40903e-12,-1.13758e-13,0,0,0,0,0,0,0,0,0,0,0,0,0,0,0,0,0,0,0,0,0,-0.261799,-1.07793e-05,-1.5,0,0,0,3,0,0,0,0,0,0,0,0,1.9603e-19
1060,-3.71585e-12,0,-1.57926e-06,-3.84759e-12,0,0,-1.13759e-13,0,0,0,0,0,0,0,0,0,0,0,0,0,0,0,0,0,0,0,0,0,-0.261799,-1.0396e-05,-1.5,0,0,0,3,0,0,0,0,0,0,0,0,1.9603e-19
1070,-3.71585e-12,0,-1.57926e-06,-3.84759e-12,0,-3.40903e-12,-1.13759e-13,0,0,0,0,0,0,0,0,0,0,0,0,0,0,0,0,0,0,0,0,0,-0.261799,-1.00468e-05,-1.5,0,0,0,3,0,0,0,0,0,0,0,0,1.9603e-19
1080,-3.71585e-12,0,-1.57926e-06,-3.84759e-12,0,0,-1.1376e-13,0,0,0,0,0,0,0,0,0,0,0,0,0,0,0,0,0,0,0,0,0,-0.261799,-9.74855e-06,-1.5,0,0,0,3,0,0,0,0,0,0,0,0,1.9603e-19
1090,-3.71585e-12,0,-1.57926e-06,-3.84759e-12,0,-3.40903e-12,-1.1376e-13,0,0,0,0,0,0,0,0,0,0,0,0,0,0,0,0,0,0,0,0,0,-0.261799,-9.4402e-06,-1.5,0,0,0,3,0,0,0,0,0,0,0,0,1.9603e-19
1100,-3.71585e-12,0,-1.57926e-06,-3.84759e-12,0,0,-1.13761e-13,0,0,0,0,0,0,0,0,0,0,0,0,0,0,0,0,0,0,0,0,0,-0.261799,-9.08598e-06,-1.5,0,0,0,3,0,0,0,0,0,0,0,0,1.9603e-19
1110,-3.71585e-12,0,-1.57926e-06,-3.84759e-12,0,-3.40903e-12,-1.13761e-13,0,0,0,0,0,0,0,0,0,0,0,0,0,0,0,0,0,0,0,0,0,-0.261799,-8.79859e-06,-1.5,0,0,0,3,0,0,0,0,0,0,0,0,1.9603e-19
1120,-3.71585e-12,0,-1.57926e-06,-3.84759e-12,0,0,-1.13762e-13,0,0,0,0,0,0,0,0,0,0,0,0,0,0,0,0,0,0,0,0,0,-0.261799,-8.52029e-06,-1.5,0,0,0,3,0,0,0,0,0,0,0,0,1.9603e-19
1130,-3.71585e-12,0,-1.57926e-06,-3.84759e-12,0,-3.40903e-12,-1.13762e-13,0,0,0,0,0,0,0,0,0,0,0,0,0,0,0,0,0,0,0,0,0,-0.261799,-6.77803e-06,-1.5,0,0,0,3,0,0,0,0,0,0,0,0,1.9603e-19
1140,-3.71585e-12,0,-1.57926e-06,-3.84759e-12,0,0,-1.13763e-13,0,0,0,0,0,0,0,0,0,0,0,0,0,0,0,0,0,0,0,0,0,-0.261799,-5.7382e-06,-1.5,0,0,0,3,0,0,0,0,0,0,0,0,1.9603e-19
1150,-3.71585e-12,0,-1.57926e-06,-3.84759e-12,0,-3.40903e-12,-1.13763e-13,0,0,0,0,0,0,0,0,0,0,0,0,0,0,0,0,0,0,0,0,0,-0.261799,-5.52288e-06,-1.5,0,0,0,3,0,0,0,0,0,0,0,0,1.9603e-19
1160,-3.71585e-12,0,-1.57926e-06,-3.84759e-12,0,0,-1.13764e-13,0,0,0,0,0,0,0,0,0,0,0,0,0,0,0,0,0,0,0,0,0,-0.261799,-5.3265e-06,-1.5,0,0,0,3,0,0,0,0,0,0,0,0,1.9603e-19
1170,-3.71585e-12,0,-1.57926e-06,-3.84759e-12,0,-3.40903e-12,-1.13764e-13,0,0,0,0,0,0,0,0,0,0,0,0,0,0,0,0,0,0,0,0,0,-0.261799,-5.15802e-06,-1.5,0,0,0,3,0,0,0,0,0,0,0,0,1.9603e-19
1180,-3.71585e-12,0,-1.57926e-06,-3.84759e-12,0,0,-1.13765e-13,0,0,0,0,0,0,0,0,0,0,0,0,0,0,0,0,0,0,0,0,0,-0.261799,-4.98462e-06,-1.5,0,0,0,3,0,0,0,0,0,0,0,0,1.9603e-19
1190,-3.71585e-12,0,-1.57926e-06,-3.84759e-12,0,-3.40903e-12,-1.13766e-13,0,0,0,0,0,0,0,0,0,0,0,0,0,0,0,0,0,0,0,0,0,-0.261799,-4.778e-06,-1.5,0,0,0,3,0,0,0,0,0,0,0,0,1.9603e-19
1200,-3.71585e-12,0,-1.57926e-06,-3.84759e-12,0,0,-1.13766e-13,0,0,0,0,0,0,0,0,0,0,0,0,0,0,0,0,0,0,0,0,0,-0.261799,-4.65499e-06,-1.5,0,0,0,3,0,0,0,0,0,0,0,0,1.9603e-19
1210,-3.71585e-12,0,-1.57926e-06,-3.84759e-12,0,-3.40903e-12,-1.13767e-13,0,0,0,0,0,0,0,0,0,0,0,0,0,0,0,0,0,0,0,0,0,-0.261799,-4.52604e-06,-1.5,0,0,0,3,0,0,0,0,0,0,0,0,1.9603e-19
1220,-3.71585e-12,0,-1.57926e-06,-3.84759e-12,0,0,-1.13767e-13,0,0,0,0,0,0,0,0,0,0,0,0,0,0,0,0,0,0,0,0,0,-0.261799,-4.38279e-06,-1.5,0,0,0,3,0,0,0,0,0,0,0,0,1.9603e-19
1230,-3.71585e-12,0,-1.57926e-06,-3.84759e-12,0,-3.40903e-12,-1.13768e-13,0,0,0,0,0,0,0,0,0,0,0,0,0,0,0,0,0,0,0,0,0,-0.261799,-4.23555e-06,-1.5,0,0,0,3,0,0,0,0,0,0,0,0,1.9603e-19
1240,-3.71585e-12,0,-1.57926e-06,-3.84759e-12,0,0,-1.13768e-13,0,0,0,0,0,0,0,0,0,0,0,0,0,0,0,0,0,0,0,0,0,-0.261799,-4.10984e-06,-1.5,0,0,0,3,0,0,0,0,0,0,0,0,1.9603e-19
1250,-3.71585e-12,0,-1.57926e-06,-3.84759e-12,0,-3.40903e-12,-1.13769e-13,0,0,0,0,0,0,0,0,0,0,0,0,0,0,0,0,0,0,0,0,0,-0.261799,-3.96358e-06,-1.5,0,0,0,3,0,0,0,0,0,0,0,0,1.9603e-19
1260,-3.71585e-12,0,-1.57926e-06,-3.84759e-12,0,0,-1.13769e-13,0,0,0,0,0,0,0,0,0,0,0,0,0,0,0,0,0,0,0,0,0,-0.261799,-3.82264e-06,-1.5,0,0,0,3,0,0,0,0,0,0,0,0,1.9603e-19
1270,-3.71585e-12,0,-1.57926e-06,-3.84759e-12,0,-3.40903e-12,-1.1377e-13,0,0,0,0,0,0,0,0,0,0,0,0,0,0,0,0,0,0,0,0,0,-0.261799,-3.70173e-06,-1.5,0,0,0,3,0,0,0,0,0,0,0,0,1.9603e-19
1280,-3.71585e-12,0,-1.57926e-06,-3.84759e-12,0,0,-1.1377e-13,0,0,0,0,0,0,0,0,0,0,0,0,0,0,0,0,0,0,0,0,0,-0.261799,-3.56272e-06,-1.5,0,0,0,3,0,0,0,0,0,0,0,0,1.9603e-19
1290,-3.71585e-12,0,-1.57926e-06,-3.84759e-12,0,-3.40903e-12,-1.13771e-13,0,0,0,0,0,0,0,0,0,0,0,0,0,0,0,0,0,0,0,0,0,-0.261799,-3.44996e-06,-1.5,0,0,0,3,0,0,0,0,0,0,0,0,1.9603e-19
1300,-3.71585e-12,0,-1.57926e-06,-3.84759e-12,0,0,-1.13772e-13,0,0,0,0,0,0,0,0,0,0,0,0,0,0,0,0,0,0,0,0,0,-0.261799,-3.3206e-06,-1.5,0,0,0,3,0,0,0,0,0,0,0,0,1.9603e-19
1310,-3.71585e-12,0,-1.57926e-06,-3.84759e-12,0,-3.40903e-12,-1.13772e-13,0,0,0,0,0,0,0,0,0,0,0,0,0,0,0,0,0,0,0,0,0,-0.261799,-3.20253e-06,-1.5,0,0,0,3,0,0,0,0,0,0,0,0,1.9603e-19
1320,-3.71585e-12,0,-1.57926e-06,-3.84759e-12,0,0,-1.13773e-13,0,0,0,0,0,0,0,0,0,0,0,0,0,0,0,0,0,0,0,0,0,-0.261799,-3.10747e-06,-1.5,0,0,0,3,0,0,0,0,0,0,0,0,1.9603e-19
1330,-3.71585e-12,0,-1.57926e-06,-3.84759e-12,0,-3.40903e-12,-1.13773e-13,0,0,0,0,0,0,0,0,0,0,0,0,0,0,0,0,0,0,0,0,0,-0.261799,-3.00912e-06,-1.5,0,0,0,3,0,0,0,0,0,0,0,0,1.9603e-19
1340,-3.71585e-12,0,-1.57926e-06,-3.84759e-12,0,0,-1.13774e-13,0,0,0,0,0,0,0,0,0,0,0,0,0,0,0,0,0,0,0,0,0,-0.261799,-2.88439e-06,-1.5,0,0,0,3,0,0,0,0,0,0,0,0,1.9603e-19
1350,-3.71585e-12,0,-1.57926e-06,-3.84759e-12,0,-3.40903e-12,-1.13774e-13,0,0,0,0,0,0,0,0,0,0,0,0,0,0,0,0,0,0,0,0,0,-0.261799,-2.79315e-06,-1.5,0,0,0,3,0,0,0,0,0,0,0,0,1.9603e-19
1360,-3.71585e-12,0,-1.57926e-06,-3.84759e-12,0,0,-1.13775e-13,0,0,0,0,0,0,0,0,0,0,0,0,0,0,0,0,0,0,0,0,0,-0.261799,-2.71025e-06,-1.5,0,0,0,3,0,0,0,0,0,0,0,0,1.9603e-19
1370,-3.71585e-12,0,-1.57926e-06,-3.84759e-12,0,-3.40903e-12,-1.13775e-13,0,0,0,0,0,0,0,0,0,0,0,0,0,0,0,0,0,0,0,0,0,-0.261799,-2.60323e-06,-1.5,0,0,0,3,0,0,0,0,0,0,0,0,1.9603e-19
1380,-3.71585e-12,0,-1.57926e-06,-3.84759e-12,0,0,-1.13776e-13,0,0,0,0,0,0,0,0,0,0,0,0,0,0,0,0,0,0,0,0,0,-0.261799,-2.51066e-06,-1.5,0,0,0,3,0,0,0,0,0,0,0,0,1.9603e-19
1390,-3.71585e-12,0,-1.57926e-06,-3.84759e-12,0,-3.40903e-12,-1.13776e-13,0,0,0,0,0,0,0,0,0,0,0,0,0,0,0,0,0,0,0,0,0,-0.261799,-2.43125e-06,-1.5,0,0,0,3,0,0,0,0,0,0,0,0,1.9603e-19
1400,-3.71585e-12,0,-1.57926e-06,-3.84759e-12,0,0,-1.13777e-13,0,0,0,0,0,0,0,0,0,0,0,0,0,0,0,0,0,0,0,0,0,-0.261799,-2.34957e-06,-1.5,0,0,0,3,0,0,0,0,0,0,0,0,1.9603e-19
1410,-3.71585e-12,0,-1.57926e-06,-3.84759e-12,0,-3.40903e-12,-1.13777e-13,0,0,0,0,0,0,0,0,0,0,0,0,0,0,0,0,0,0,0,0,0,-0.261799,-2.27526e-06,-1.5,0,0,0,3,0,0,0,0,0,0,0,0,1.9603e-19
1420,-3.71585e-12,0,-1.57926e-06,-3.84759e-12,0,0,-1.13778e-13,0,0,0,0,0,0,0,0,0,0,0,0,0,0,0,0,0,0,0,0,0,-0.261799,-2.18988e-06,-1.5,0,0,0,3,0,0,0,0,0,0,0,0,1.9603e-19
1430,-3.71585e-12,0,-1.57926e-06,-3.84759e-12,0,-3.40903e-12,-1.13779e-13,0,0,0,0,0,0,0,0,0,0,0,0,0,0,0,0,0,0,0,0,0,-0.261799,-2.11201e-06,-1.5,0,0,0,3,0,0,0,0,0,0,0,0,1.9603e-19
1440,-3.71585e-12,0,-1.57926e-06,-3.84759e-12,0,0,-1.13779e-13,0,0,0,0,0,0,0,0,0,0,0,0,0,0,0,0,0,0,0,0,0,-0.261799,-1.67599e-06,-1.5,0,0,0,3,0,0,0,0,0,0,0,0,1.9603e-19
1450,-3.71585e-12,0,-1.57926e-06,-3.84759e-12,0,-3.40903e-12,-1.1378e-13,0,0,0,0,0,0,0,0,0,0,0,0,0,0,0,0,0,0,0,0,0,-0.261799,-1.48472e-06,-1.5,0,0,0,3,0,0,0,0,0,0,0,0,1.9603e-19
1460,-3.71585e-12,0,-1.57926e-06,-3.84759e-12,0,0,-1.1378e-13,0,0,0,0,0,0,0,0,0,0,0,0,0,0,0,0,0,0,0,0,0,-0.261799,-1.43776e-06,-1.5,0,0,0,3,0,0,0,0,0,0,0,0,1.9603e-19
1470,-3.71585e-12,0,-1.57926e-06,-3.84759e-12,0,-3.40903e-12,-1.13781e-13,0,0,0,0,0,0,0,0,0,0,0,0,0,0,0,0,0,0,0,0,0,-0.261799,-1.39225e-06,-1.5,0,0,0,3,0,0,0,0,0,0,0,0,1.9603e-19
1480,-3.71585e-12,0,-1.57926e-06,-3.84759e-12,0,0,-1.13781e-13,0,0,0,0,0,0,0,0,0,0,0,0,0,0,0,0,0,0,0,0,0,-0.261799,-1.34821e-06,-1.5,0,0,0,3,0,0,0,0,0,0,0,0,1.9603e-19
1490,-3.71585e-12,0,-1.57926e-06,-3.84759e-12,0,-3.40903e-12,-1.13782e-13,0,0,0,0,0,0,0,0,0,0,0,0,0,0,0,0,0,0,0,0,0,-0.261799,-1.30027e-06,-1.5,0,0,0,3,0,0,0,0,0,0,0,0,1.9603e-19
1500,-3.71585e-12,0,-1.57926e-06,-3.84759e-12,0,0,-1.13782e-13,0,0,0,0,0,0,0,0,0,0,0,0,0,0,0,0,0,0,0,0,0,-0.261799,-1.25915e-06,-1.5,0,0,0,3,0,0,0,0,0,0,0,0,1.9603e-19
1510,-3.71585e-12,0,-1.57926e-06,-3.84759e-12,0,-3.40903e-12,-1.13783e-13,0,0,0,0,0,0,0,0,0,0,0,0,0,0,0,0,0,0,0,0,0,-0.261799,-1.21932e-06,-1.5,0,0,0,3,0,0,0,0,0,0,0,0,1.9603e-19
1520,-3.71585e-12,0,-1.57926e-06,-3.84759e-12,0,0,-1.13783e-13,0,0,0,0,0,0,0,0,0,0,0,0,0,0,0,0,0,0,0,0,0,-0.261799,-1.17117e-06,-1.5,0,0,0,3,0,0,0,0,0,0,0,0,1.9603e-19
1530,-3.71585e-12,0,-1.57926e-06,-3.84759e-12,0,-3.40903e-12,-1.13784e-13,0,0,0,0,0,0,0,0,0,0,0,0,0,0,0,0,0,0,0,0,0,-0.261799,-1.1318e-06,-1.5,0,0,0,3,0,0,0,0,0,0,0,0,1.9603e-19
1540,-3.71585e-12,0,-1.57926e-06,-3.84759e-12,0,0,-1.13785e-13,0,0,0,0,0,0,0,0,0,0,0,0,0,0,0,0,0,0,0,0,0,-0.261799,-1.09598e-06,-1.5,0,0,0,3,0,0,0,0,0,0,0,0,1.9603e-19
1550,-3.71585e-12,0,-1.57926e-06,-3.84759e-12,0,-3.40903e-12,-1.13785e-13,0,0,0,0,0,0,0,0,0,0,0,0,0,0,0,0,0,0,0,0,0,-0.261799,-1.05913e-06,-1.5,0,0,0,3,0,0,0,0,0,0,0,0,1.9603e-19
1560,-3.71585e-12,0,-1.57926e-06,-3.84759e-12,0,0,-1.13786e-13,0,0,0,0,0,0,0,0,0,0,0,0,0,0,0,0,0,0,0,0,0,-0.261799,-1.02563e-06,-1.5,0,0,0,3,0,0,0,0,0,0,0,0,1.9603e-19
1570,-3.71585e-12,0,-1.57926e-06,-3.84759e-12,0,-3.40903e-12,-1.13786e-13,0,0,0,0,0,0,0,0,0,0,0,0,0,0,0,0,0,0,0,0,0,-0.261799,-9.89163e-07,-1.5,0,0,0,3,0,0,0,0,0,0,0,0,1.9603e-19
1580,-3.71585e-12,0,-1.57926e-06,-3.84759e-12,0,0,-1.13787e-13,0,0,0,0,0,0,0,0,0,0,0,0,0,0,0,0,0,0,0,0,0,-0.261799,-9.53989e-07,-1.5,0,0,0,3,0,0,0,0,0,0,0,0,1.9603e-19
1590,-3.71585e-12,0,-1.57926e-06,-3.84759e-12,0,-3.40903e-12,-1.13787e-13,0,0,0,0,0,0,0,0,0,0,0,0,0,0,0,0,0,0,0,0,0,-0.261799,-9.25674e-07,-1.5,0,0,0,3,0,0,0,0,0,0,0,0,1.9603e-19
1600,-3.71585e-12,0,-1.57926e-06,-3.84759e-12,0,0,-1.13788e-13,0,0,0,0,0,0,0,0,0,0,0,0,0,0,0,0,0,0,0,0,0,-0.261799,-8.89121e-07,-1.5,0,0,0,3,0,0,0,0,0,0,0,0,1.9603e-19
1610,-3.71585e-12,0,-1.57926e-06,-3.84759e-12,0,-3.40903e-12,-1.13788e-13,0,0,0,0,0,0,0,0,0,0,0,0,0,0,0,0,0,0,0,0,0,-0.261799,-8.57506e-07,-1.5,0,0,0,3,0,0,0,0,0,0,0,0,1.9603e-19
1620,-3.71585e-12,0,-1.57926e-06,-3.84759e-12,0,0,-1.13789e-13,0,0,0,0,0,0,0,0,0,0,0,0,0,0,0,0,0,0,0,0,0,-0.261799,-8.30366e-07,-1.5,0,0,0,3,0,0,0,0,0,0,0,0,1.9603e-19
1630,-3.71585e-12,0,-1.57926e-06,-3.84759e-12,0,-3.40903e-12,-1.13789e-13,0,0,0,0,0,0,0,0,0,0,0,0,0,0,0,0,0,0,0,0,0,-0.261799,-8.00839e-07,-1.5,0,0,0,3,0,0,0,0,0,0,0,0,1.9603e-19
1640,-3.71585e-12,0,-1.57926e-06,-3.84759e-12,0,0,-1.1379e-13,0,0,0,0,0,0,0,0,0,0,0,0,0,0,0,0,0,0,0,0,0,-0.261799,-7.77069e-07,-1.5,0,0,0,3,0,0,0,0,0,0,0,0,1.9603e-19
1650,-3.71585e-12,0,-1.57926e-06,-3.84759e-12,0,-3.40903e-12,-1.1379e-13,0,0,0,0,0,0,0,0,0,0,0,0,0,0,0,0,0,0,0,0,0,-0.261799,-7.47911e-07,-1.5,0,0,0,3,0,0,0,0,0,0,0,0,1.9603e-19
1660,-3.71585e-12,0,-1.57926e-06,-3.84759e-12,0,0,-1.13791e-13,0,0,0,0,0,0,0,0,0,0,0,0,0,0,0,0,0,0,0,0,0,-0.261799,-7.16909e-07,-1.5,0,0,0,3,0,0,0,0,0,0,0,0,1.9603e-19
1670,-3.71585e-12,0,-1.57926e-06,-3.84759e-12,0,-3.40903e-12,-1.13792e-13,0,0,0,0,0,0,0,0,0,0,0,0,0,0,0,0,0,0,0,0,0,-0.261799,-6.95642e-07,-1.5,0,0,0,3,0,0,0,0,0,0,0,0,1.9603e-19
1680,-3.71585e-12,0,-1.57926e-06,-3.84759e-12,0,0,-1.13792e-13,0,0,0,0,0,0,0,0,0,0,-1.85,0,-1367113856,293772563,-1367113856,293772563,1920325442,-1367113856,-1367113824,-1367113824,0,-0.261799,-6.43578e-07,-1.5,0,0,0,3,0,0,0,0,0,0,0,0,0
1690,-3.71585e-12,0,-1.57926e-06,-3.84759e-12,0,-3.40903e-12,-1.13793e-13,0,0,0,0,0,0,0,0,0,0,-1.85,0,-1367113856,293772563,-1367113856,293772563,1920325442,-1367113856,-1367113824,-1367113824,0,-0.261799,-6.16901e-07,-1.5,0,0,0,3,0,0,0,0,0,0,0,0,0
1700,-3.71585e-12,0,-1.57926e-06,-3.84759e-12,0,0,-1.13793e-13,0,0,0,0,0,0,0,0,0,0,-1.85,0,-1367113856,293772563,-1367113856,293772563,1920325442,-1367113856,-1367113824,-1367113824,0,-0.261799,-5.97388e-07,-1.5,0,0,0,3,0,0,0,0,0,0,0,0,0
1710,-3.71585e-12,0,-1.57926e-06,-3.84759e-12,0,-3.40903e-12,-1.13794e-13,0,0,0,0,0,0,0,0,0,0,-1.85,0,-1367113856,293772563,-1367113856,293772563,1920325442,-1367113856,-1367113824,-1367113824,0,-0.261799,-5.77319e-07,-1.5,0,0,0,3,0,0,0,0,0,0,0,0,0
1720,-3.71585e-12,0,-1.57926e-06,-3.84759e-12,0,0,-1.13794e-13,0,0,-6.60916,-0.14158,0.0784097,0,0,0,0,0,-0.163207,-0.14158,140,11,140,11,201,11,140,66,0,-0.261799,-5.59059e-07,-1.5,0,0,0,3,0,0,0,0,0,0,0,0,3355
1730,-3.71585e-12,0,-1.57926e-06,-3.84759e-12,0,-3.40903e-12,-1.13795e-13,0,0,-6.60916,-0.14158,0.0784097,0,0,0,0,0,-0.163207,-0.14158,140,11,140,11,201,11,140,66,0,-0.261799,-5.38081e-07,-1.5,0,0,0,3,0,0,0,0,0,0,0,0,3355
1740,-3.71585e-12,0,-1.57926e-06,-3.84759e-12,0,0,-1.13795e-13,0,0,-6.60916,-0.14158,0.0784097,0,0,0,0,0,-0.163207,-0.14158,140,11,140,11,201,11,140,66,0,-0.261799,-4.31223e-07,-1.5,0,0,0,3,0,0,0,0,0,0,0,0,3355
1750,-3.71585e-12,0,-1.57926e-06,-3.84759e-12,0,-3.40903e-12,-1.13796e-13,0,0,-6.60916,-0.14158,0.0784097,0,0,0,0,0,-0.163207,-0.14158,140,11,140,11,201,11,140,66,0,-0.261799,-4.17584e-07,-1.5,0,0,0,3,0,0,0,0,0,0,0,0,3355
1760,-3.71585e-12,0,-1.57926e-06,-3.84759e-12,0,0,-1.13796e-13,0,0,-6.60916,-0.14158,0.0784097,0,0,0,0,0,-0.163207,-0.14158,140,11,140,11,201,11,140,66,0,-0.261799,-3.97814e-07,-1.5,0,0,0,3,0,0,0,0,0,0,0,0,3355
1770,-3.71585e-12,0,-1.57926e-06,-3.84759e-12,0,-3.40903e-12,-1.13797e-13,0,0,-6.60916,-0.14158,0.0784097,0,0,0,0,0,-0.163207,-0.14158,140,11,140,11,201,11,140,66,0,-0.261799,-3.85231e-07,-1.5,0,0,0,3,0,0,0,0,0,0,0,0,3355
1780,-3.71585e-12,0,-1.57926e-06,-3.84759e-12,0,0,-1.13798e-13,0,0,-6.60916,-0.14158,0.0784097,0,0,0,0,0,-0.163207,-0.14158,140,11,140,11,201,11,140,66,0,-0.261799,-3.73038e-07,-1.5,0,0,0,3,0,0,0,0,0,0,0,0,3355
1790,-3.71585e-12,0,-1.57926e-06,-3.84759e-12,0,-3.40903e-12,-1.13798e-13,0,0,-6.60916,-0.14158,0.0784097,0,0,0,0,0,-0.163207,-0.14158,140,11,140,11,201,11,140,66,0,-0.261799,-3.60506e-07,-1.5,0,0,0,3,0,0,0,0,0,0,0,0,3355
1800,-3.71585e-12,0,-1.57926e-06,-3.84759e-12,0,0,-1.13799e-13,0,0,-6.60916,-0.14158,0.0784097,0,0,0,0,0,-0.163207,-0.14158,140,11,140,11,201,11,140,66,0,-0.261799,-3.49096e-07,-1.5,0,0,0,3,0,0,0,0,0,0,0,0,3355
1810,-3.71585e-12,0,-1.57926e-06,-3.84759e-12,0,-3.40903e-12,-1.13799e-13,0,0,-6.60916,-0.14158,0.0784097,0,0,0,0,0,-0.163207,-0.14158,140,11,140,11,201,11,140,66,0,-0.261799,-3.36673e-07,-1.5,0,0,0,3,0,0,0,0,0,0,0,0,3355
1820,-3.71585e-12,0,-1.57926e-06,-3.84759e-12,0,0,-1.138e-13,0,0,-6.60916,-0.14158,0.0784097,0,0,0,0,0,-0.163207,-0.14158,140,11,140,11,201,11,140,66,0,-0.261799,-3.26024e-07,-1.5,0,0,0,3,0,0,0,0,0,0,0,0,3355
1830,-3.71585e-12,0,-1.57926e-06,-3.84759e-12,0,-3.40903e-12,-1.138e-13,0,0,-6.60916,-0.14158,0.0784097,0,0,0,0,0,-0.163207,-0.14158,140,11,140,11,201,11,140,66,0,-0.261799,-3.14423e-07,-1.5,0,0,0,3,0,0,0,0,0,0,0,0,3355
1840,-3.71585e-12,0,-1.57926e-06,-3.84759e-12,0,0,-1.13801e-13,0,0,-6.60916,-0.14158,0.0784097,0,0,0,0,0,-0.163207,-0.14158,140,11,140,11,201,11,140,66,0,-0.261799,-3.0386e-07,-1.5,0,0,0,3,0,0,0,0,0,0,0,0,3355
1850,-3.71585e-12,0,-1.57926e-06,-3.84759e-12,0,-3.40903e-12,-1.13801e-13,0,0,-6.60916,-0.14158,0.0784097,0,0,0,0,0,-0.163207,-0.14158,140,11,140,11,201,11,140,66,0,-0.261799,-2.93055e-07,-1.5,0,0,0,3,0,0,0,0,0,0,0,0,3355
1860,-3.71585e-12,0,-1.57926e-06,-3.84759e-12,0,0,-1.13802e-13,0,0,-6.60916,-0.14158,0.0784097,0,0,0,0,0,-0.163207,-0.14158,140,11,140,11,201,11,140,66,0,-0.261799,-2.8551e-07,-1.5,0,0,0,3,0,0,0,0,0,0,0,0,3355
1870,-3.71585e-12,0,-1.57926e-06,-3.84759e-12,0,-3.40903e-12,-1.13802e-13,0,0,-6.60916,-0.14158,0.0784097,0,0,0,0,0,-0.163207,-0.14158,140,11,140,11,201,11,140,66,0,-0.261799,-2.7648e-07,-1.5,0,0,0,3,0,0,0,0,0,0,0,0,3355
1880,-3.71585e-12,0,-1.57926e-06,-3.84759e-12,0,0,-1.13803e-13,0,0,-6.60916,-0.14158,0.0784097,0,0,0,0,0,-0.163207,-0.14158,140,11,140,11,201,11,140,66,0,-0.261799,-2.68821e-07,-1.5,0,0,0,3,0,0,0,0,0,0,0,0,3355
1890,-3.71585e-12,0,-1.57926e-06,-3.84759e-12,0,-3.40903e-12,-1.13803e-13,0,0,-6.60916,-0.14158,0.0784097,0,0,0,0,0,-0.163207,-0.14158,140,11,140,11,201,11,140,66,0,-0.261799,-2.60318e-07,-1.5,0,0,0,3,0,0,0,0,0,0,0,0,3355
1900,-3.71585e-12,0,-1.57926e-06,-3.84759e-12,0,0,-1.13804e-13,0,0,-6.60916,-0.14158,0.0784097,0,0,0,0,0,-0.163207,-0.14158,140,11,140,11,201,11,140,66,0,-0.261799,-2.52079e-07,-1.5,0,0,0,3,0,0,0,0,0,0,0,0,3355
1910,-3.71585e-12,0,-1.57926e-06,-3.84759e-12,0,-3.40903e-12,-1.13805e-13,0,0,-6.60916,-0.14158,0.0784097,0,0,0,0,0,-0.163207,-0.14158,140,11,140,11,201,11,140,66,0,-0.261799,-2.44101e-07,-1.5,0,0,0,3,0,0,0,0,0,0,0,0,3355
1920,-3.71585e-12,0,-1.57926e-06,-3.84759e-12,0,0,-1.13805e-13,0,0,-6.60916,-0.14158,0.0784097,0,0,0,0,0,-0.163207,-0.14158,140,11,140,11,201,11,140,66,0,-0.261799,-2.34462e-07,-1.5,0,0,0,3,0,0,0,0,0,0,0,0,3355
1930,-3.71585e-12,0,-1.57926e-06,-3.84759e-12,0,-3.40903e-12,-1.13806e-13,0,0,-6.60916,-0.14158,0.0784097,0,0,0,0,0,-0.163207,-0.14158,140,11,140,11,201,11,140,66,0,-0.261799,-2.27046e-07,-1.5,0,0,0,3,0,0,0,0,0,0,0,0,3355
1940,-3.71585e-12,0,-1.57926e-06,-3.84759e-12,0,0,-1.13806e-13,0,0,-6.60916,-0.14158,0.0784097,0,0,0,0,0,-0.163207,-0.14158,140,11,140,11,201,11,140,66,0,-0.261799,-2.20307e-07,-1.5,0,0,0,3,0,0,0,0,0,0,0,0,3355
1950,-3.71585e-12,0,-1.57926e-06,-3.84759e-12,0,-3.40903e-12,-1.13807e-13,0,0,-6.60916,-0.14158,0.0784097,0,0,0,0,0,-0.163207,-0.14158,140,11,140,11,201,11,140,66,0,-0.261799,-2.10742e-07,-1.5,0,0,0,3,0,0,0,0,0,0,0,0,3355
1960,-3.71585e-12,0,-1.57926e-06,-3.84759e-12,0,0,-1.13807e-13,0,0,-6.60916,-0.14158,0.0784097,0,0,0,0,0,-0.163207,-0.14158,140,11,140,11,201,11,140,66,0,-0.261799,-2.04076e-07,-1.5,0,0,0,3,0,0,0,0,0,0,0,0,3355
1970,-3.71585e-12,0,-1.57926e-06,-3.84759e-12,0,-3.40903e-12,-1.13808e-13,0,0,-6.60916,-0.14158,0.0784097,0,0,0,0,0,-0.163207,-0.14158,140,11,140,11,201,11,140,66,0,-0.261799,-1.97617e-07,-1.5,0,0,0,3,0,0,0,0,0,0,0,0,3355
1980,-3.71585e-12,0,-1.57926e-06,-3.84759e-12,0,0,-1.13808e-13,0,0,-6.60916,-0.14158,0.0784097,0,0,0,0,0,-0.163207,-0.14158,140,11,140,11,201,11,140,66,0,-0.261799,-1.91367e-07,-1.5,0,0,0,3,0,0,0,0,0,0,0,0,3355
1990,-3.71585e-12,0,-1.57926e-06,-3.84759e-12,0,-3.40903e-12,-1.13809e-13,0,0,-6.60916,-0.14158,0.0784097,0,0,0,0,0,-0.163207,-0.14158,140,11,140,11,201,11,140,66,0,-0.261799,-1.84186e-07,-1.5,0,0,0,3,0,0,0,0,0,0,0,0,3355
2000,-3.71585e-12,0,-1.57926e-06,-3.84759e-12,0,0,-1.13809e-13,0,0,-6.60916,-0.14158,0.0784097,0,0,0,0,0,-0.163207,-0.14158,140,11,140,11,201,11,140,66,0,-0.261799,-1.7836e-07,-1.5,0,0,0,3,0,0,0,0,0,0,0,0,3355
2010,-3.71585e-12,0,-1.57926e-06,-3.84759e-12,0,-3.40903e-12,-1.1381e-13,0,0,-6.60916,-0.14158,0.0784097,0,0,0,0,0,-0.163207,-0.14158,140,11,140,11,201,11,140,66,0,-0.261799,-1.72715e-07,-1.5,0,0,0,3,0,0,0,0,0,0,0,0,3355
2020,-3.71585e-12,0,-1.57926e-06,-3.84759e-12,0,0,-1.13811e-13,0,0,-6.60916,-0.14158,0.0784097,0,0,0,0,0,-0.163207,-0.14158,140,11,140,11,201,11,140,66,0,-0.261799,-1.65895e-07,-1.5,0,0,0,3,0,0,0,0,0,0,0,0,3355
2030,-3.71585e-12,0,-1.57926e-06,-3.84759e-12,0,-3.40903e-12,-1.13811e-13,0,0,-6.60916,-0.14158,0.0784097,0,0,0,0,0,-0.163207,-0.14158,140,11,140,11,201,11,140,66,0,-0.261799,-1.60318e-07,-1.5,0,0,0,3,0,0,0,0,0,0,0,0,3355
2040,-3.71585e-12,0,-1.57926e-06,-3.84759e-12,0,0,-1.13812e-13,0,0,-6.60916,-0.14158,0.0784097,0,0,0,0,0,-0.163207,-0.14158,140,11,140,11,201,11,140,66,0,-0.261799,-1.54929e-07,-1.5,0,0,0,3,0,0,0,0,0,0,0,0,3355
2050,-3.71585e-12,0,-1.57926e-06,-3.84759e-12,0,-3.40903e-12,-1.13812e-13,0,0,-6.60916,-0.14158,0.0784097,0,0,0,0,0,-0.163207,-0.14158,140,11,140,11,201,11,140,66,0,-0.261799,-1.5094e-07,-1.5,0,0,0,3,0,0,0,0,0,0,0,0,3355
2060,-3.71585e-12,0,-1.57926e-06,-3.84759e-12,0,0,-1.13813e-13,0,0,-6.60916,-0.14158,0.0784097,0,0,0,0,0,-0.163207,-0.14158,140,11,140,11,201,11,140,66,0,-0.261799,-1.46757e-07,-1.5,0,0,0,3,0,0,0,0,0,0,0,0,3355
2070,-3.71585e-12,0,-1.57926e-06,-3.84759e-12,0,-3.40903e-12,-1.13813e-13,0,0,-6.60916,-0.14158,0.0784097,0,0,0,0,0,-0.163207,-0.14158,140,11,140,11,201,11,140,66,0,-0.261799,-1.41827e-07,-1.5,0,0,0,3,0,0,0,0,0,0,0,0,3355
2080,-3.71585e-12,0,-1.57926e-06,-3.84759e-12,0,0,-1.13814e-13,0,0,-6.60916,-0.14158,0.0784097,0,0,0,0,0,-0.163207,-0.14158,140,11,140,11,201,11,140,66,0,-0.261799,-1.37338e-07,-1.5,0,0,0,3,0,0,0,0,0,0,0,0,3355
2090,-3.71585e-12,0,-1.57926e-06,-3.84759e-12,0,-3.40903e-12,-1.13814e-13,0,0,-6.60916,-0.14158,0.0784097,0,0,0,0,0,-0.163207,-0.14158,140,11,140,11,201,11,140,66,0,-0.261799,-1.3191e-07,-1.5,0,0,0,3,0,0,0,0,0,0,0,0,3355
2100,-3.71585e-12,0,-1.57926e-06,-3.84759e-12,0,0,-1.13815e-13,0,0,-6.60916,-0.14158,0.0784097,0,0,0,0,0,-0.163207,-0.14158,140,11,140,11,201,11,140,66,0,-0.261799,-1.27738e-07,-1.5,0,0,0,3,0,0,0,0,0,0,0,0,3355
2110,-3.71585e-12,0,-1.57926e-06,-3.84759e-12,0,-3.40903e-12,-1.13815e-13,0,0,-6.60916,-0.14158,0.0784097,0,0,0,0,0,-0.163207,-0.14158,140,11,140,11,201,11,140,66,0,-0.261799,-1.22945e-07,-1.5,0,0,0,3,0,0,0,0,0,0,0,0,3355
2120,-3.71585e-12,0,-1.57926e-06,-3.84759e-12,0,0,-1.13816e-13,0,0,-6.60916,-0.14158,0.0784097,0,0,0,0,0,-0.163207,-0.14158,140,11,140,11,201,11,140,66,0,-0.261799,-1.19056e-07,-1.5,0,0,0,3,0,0,0,0,0,0,0,0,3355
2130,-3.71585e-12,0,-1.57926e-06,-3.84759e-12,0,-3.40903e-12,-1.13817e-13,0,0,-6.60916,-0.14158,0.0784097,0,0,0,0,0,-0.163207,-0.14158,140,11,140,11,201,11,140,66,0,-0.261799,-1.15522e-07,-1.5,0,0,0,3,0,0,0,0,0,0,0,0,3355
2140,-3.71585e-12,0,-1.57926e-06,-3.84759e-12,0,0,-1.13817e-13,0,0,-6.60916,-0.14158,0.0784097,0,0,0,0,0,-0.163207,-0.14158,140,11,140,11,201,11,140,66,0,-0.261799,-1.11411e-07,-1.5,0,0,0,3,0,0,0,0,0,0,0,0,3355
2150,-3.71585e-12,0,-1.57926e-06,-3.84759e-12,0,-3.40903e-12,-1.13818e-13,0,0,-6.60916,-0.14158,0.0784097,0,0,0,0,0,-0.163207,-0.14158,140,11,140,11,201,11,140,66,0,-0.261799,-1.07666e-07,-1.5,0,0,0,3,0,0,0,0,0,0,0,0,3355
2160,-3.71585e-12,0,-1.57926e-06,-3.84759e-12,0,0,-1.13818e-13,0,0,-6.60916,-0.14158,0.0784097,0,0,0,0,0,-0.163207,-0.14158,140,11,140,11,201,11,140,66,0,-0.261799,-1.03203e-07,-1.5,0,0,0,3,0,0,0,0,0,0,0,0,3355
2170,-3.71585e-12,0,-1.57926e-06,-3.84759e-12,0,-3.40903e-12,-1.13819e-13,0,0,-6.60916,-0.14158,0.0784097,0,0,0,0,0,-0.163207,-0.14158,140,11,140,11,201,11,140,66,0,-0.261799,-9.99384e-08,-1.5,0,0,0,3,0,0,0,0,0,0,0,0,3355
2180,-3.71585e-12,0,-1.57926e-06,-3.84759e-12,0,0,-1.13819e-13,0,0,-6.60916,-0.14158,0.0784097,0,0,0,0,0,-0.163207,-0.14158,140,11,140,11,201,11,140,66,0,-0.261799,-9.67754e-08,-1.5,0,0,0,3,0,0,0,0,0,0,0,0,3355
2190,-3.71585e-12,0,-1.57926e-06,-3.84759e-12,0,-3.40903e-12,-1.1382e-13,0,0,-6.60916,-0.14158,0.0784097,0,0,0,0,0,-0.163207,-0.14158,140,11,140,11,201,11,140,66,0,-0.261799,-9.33342e-08,-1.5,0,0,0,3,0,0,0,0,0,0,0,0,3355
2200,-3.71585e-12,0,-1.57926e-06,-3.84759e-12,0,0,-1.1382e-13,0,0,-6.60916,-0.14158,0.0784097,0,0,0,0,0,-0.163207,-0.14158,140,11,140,11,201,11,140,66,0,-0.261799,-9.03802e-08,-1.5,0,0,0,3,0,0,0,0,0,0,0,0,3355
2210,-3.71585e-12,0,-1.57926e-06,-3.84759e-12,0,-3.40903e-12,-1.13821e-13,0,0,-6.60916,-0.14158,0.0784097,0,0,0,0,0,-0.163207,-0.14158,140,11,140,11,201,11,140,66,0,-0.261799,-8.71664e-08,-1.5,0,0,0,3,0,0,0,0,0,0,0,0,3355
2220,-3.71585e-12,0,-1.57926e-06,-3.84759e-12,0,0,-1.13821e-13,0,0,-6.60916,-0.14158,0.0784097,0,0,0,0,0,-0.163207,-0.14158,140,11,140,11,201,11,140,66,0,-0.261799,-8.44093e-08,-1.5,0,0,0,3,0,0,0,0,0,0,0,0,3355
2230,-3.71585e-12,0,-1.57926e-06,-3.84759e-12,0,-3.40903e-12,-1.13822e-13,0,0,-6.60916,-0.14158,0.0784097,0,0,0,0,0,-0.163207,-0.14158,140,11,140,11,201,11,140,66,0,-0.261799,-8.09071e-08,-1.5,0,0,0,3,0,0,0,0,0,0,0,0,3355
2240,-3.71585e-12,0,-1.57926e-06,-3.84759e-12,0,0,-1.13822e-13,0,0,-6.60916,-0.14158,0.0784097,0,0,0,0,0,-0.163207,-0.14158,140,11,140,11,201,11,140,66,0,-0.261799,-7.88242e-08,-1.5,0,0,0,3,0,0,0,0,0,0,0,0,3355
2250,-3.71585e-12,0,-1.57926e-06,-3.84759e-12,0,-3.40903e-12,-1.13823e-13,0,0,-6.60916,-0.14158,0.0784097,0,0,0,0,0,-0.163207,-0.14158,140,11,140,11,201,11,140,66,0,-0.261799,-7.66406e-08,-1.5,0,0,0,3,0,0,0,0,0,0,0,0,3355
2260,-3.71585e-12,0,-1.57926e-06,-3.84759e-12,0,0,-1.13824e-13,0,0,-6.60916,-0.14158,0.0784097,0,0,0,0,0,-0.163207,-0.14158,140,11,140,11,201,11,140,66,0,-0.261799,-7.4367e-08,-1.5,0,0,0,3,0,0,0,0,0,0,0,0,3355
2270,-3.71585e-12,0,-1.57926e-06,-3.84759e-12,0,-3.40903e-12,-1.13824e-13,0,0,-6.60916,-0.14158,0.0784097,0,0,0,0,0,-0.163207,-0.14158,140,11,140,11,201,11,140,66,0,-0.261799,-7.18687e-08,-1.5,0,0,0,3,0,0,0,0,0,0,0,0,3355
2280,-3.71585e-12,0,-1.57926e-06,-3.84759e-12,0,0,-1.13825e-13,0,0,-6.60916,-0.14158,0.0784097,0,0,0,0,0,-0.163207,-0.14158,140,11,140,11,201,11,140,66,0,-0.261799,-6.9172e-08,-1.5,0,0,0,3,0,0,0,0,0,0,0,0,3355
2290,-3.71585e-12,0,-1.57926e-06,-3.84759e-12,0,-3.40903e-12,-1.13825e-13,0,0,-6.60916,-0.14158,0.0784097,0,0,0,0,0,-0.163207,-0.14158,140,11,140,11,201,11,140,66,0,-0.261799,-6.71188e-08,-1.5,0,0,0,3,0,0,0,0,0,0,0,0,3355
2300,-3.71585e-12,0,-1.57926e-06,-3.84759e-12,0,0,-1.13826e-13,0,0,-6.60916,-0.14158,0.0784097,0,0,0,0,0,-0.163207,-0.14158,140,11,140,11,201,11,140,66,0,-0.261799,-6.44685e-08,-1.5,0,0,0,3,0,0,0,0,0,0,0,0,3355
2310,-3.71585e-12,0,-1.57926e-06,-3.84759e-12,0,-3.40903e-12,-1.13826e-13,0,0,-6.60916,-0.14158,0.0784097,0,0,0,0,0,-0.163207,-0.14158,140,11,140,11,201,11,140,66,0,-0.261799,-6.24281e-08,-1.5,0,0,0,3,0,0,0,0,0,0,0,0,3355
2320,-3.71585e-12,0,-1.57926e-06,-3.84759e-12,0,0,-1.13827e-13,0,0,-6.60916,-0.14158,0.0784097,0,0,0,0,0,-0.163207,-0.14158,140,11,140,11,201,11,140,66,0,-0.261799,-6.04523e-08,-1.5,0,0,0,3,0,0,0,0,0,0,0,0,3355
2330,-3.71585e-12,0,-1.57926e-06,-3.84759e-12,0,-3.40903e-12,-1.13827e-13,0,0,-6.60916,-0.14158,0.0784097,0,0,0,0,0,-0.163207,-0.14158,140,11,140,11,201,11,140,66,0,-0.261799,-5.842e-08,-1.5,0,0,0,3,0,0,0,0,0,0,0,0,3355
2340,-3.71585e-12,0,-1.57926e-06,-3.84759e-12,0,0,-1.13828e-13,0,0,-6.60916,-0.14158,0.0784097,0,0,0,0,0,-0.163207,-0.14158,140,11,140,11,201,11,140,66,0,-0.261799,-5.65722e-08,-1.5,0,0,0,3,0,0,0,0,0,0,0,0,3355
2350,-3.71585e-12,0,-1.57926e-06,-3.84759e-12,0,-3.40903e-12,-1.13828e-13,0,0,-6.60916,-0.14158,0.0784097,0,0,0,0,0,-0.163207,-0.14158,140,11,140,11,201,11,140,66,0,-0.261799,-4.42039e-08,-1.5,0,0,0,3,0,0,0,0,0,0,0,0,3355
2360,-3.71585e-12,0,-1.57926e-06,-3.84759e-12,0,0,-1.13829e-13,0,0,-6.60916,-0.14158,0.0784097,0,0,0,0,0,-0.163207,-0.14158,140,11,140,11,201,11,140,66,0,-0.261799,-3.68147e-08,-1.5,0,0,0,3,0,0,0,0,0,0,0,0,3355
2370,-3.71585e-12,0,-1.57926e-06,-3.84759e-12,0,-3.40903e-12,-1.1383e-13,0,0,-6.60916,-0.14158,0.0784097,0,0,0,0,0,-0.163207,-0.14158,140,11,140,11,201,11,140,66,0,-0.261799,-3.55056e-08,-1.5,0,0,0,3,0,0,0,0,0,0,0,0,3355
2380,-3.71585e-12,0,-1.57926e-06,-3.84759e-12,0,0,-1.1383e-13,0,0,-6.60916,-0.14158,0.0784097,0,0,0,0,0,-0.163207,-0.14158,140,11,140,11,201,11,140,66,0,-0.261799,-3.43826e-08,-1.5,0,0,0,3,0,0,0,0,0,0,0,0,3355
2390,-3.71585e-12,0,-1.57926e-06,-3.84759e-12,0,-3.40903e-12,-1.13831e-13,0,0,-6.60916,-0.14158,0.0784097,0,0,0,0,0,-0.163207,-0.14158,140,11,140,11,201,11,140,66,0,-0.261799,-3.3295e-08,-1.5,0,0,0,3,0,0,0,0,0,0,0,0,3355
2400,-3.71585e-12,0,-1.57926e-06,-3.84759e-12,0,0,-1.13831e-13,0,0,-6.60916,-0.14158,0.0784097,0,0,0,0,0,-0.163207,-0.14158,140,11,140,11,201,11,140,66,0,-0.261799,-3.21757e-08,-1.5,0,0,0,3,0,0,0,0,0,0,0,0,3355
2410,-3.71585e-12,0,-1.57926e-06,-3.84759e-12,0,-3.40903e-12,-1.13832e-13,0,0,-6.60916,-0.14158,0.0784097,0,0,0,0,0,-0.163207,-0.14158,140,11,140,11,201,11,140,66,0,-0.261799,-3.1158e-08,-1.5,0,0,0,3,0,0,0,0,0,0,0,0,3355
2420,-3.71585e-12,0,-1.57926e-06,-3.84759e-12,0,0,-1.13832e-13,0,0,-6.60916,-0.14158,0.0784097,0,0,0,0,0,-0.163207,-0.14158,140,11,140,11,201,11,140,66,0,-0.261799,-2.99266e-08,-1.5,0,0,0,3,0,0,0,0,0,0,0,0,3355
2430,-3.71585e-12,0,-1.57926e-06,-3.84759e-12,0,-3.40903e-12,-1.13833e-13,0,0,-6.60916,-0.14158,0.0784097,0,0,0,0,0,-0.163207,-0.14158,140,11,140,11,201,11,140,66,0,-0.261799,-2.90976e-08,-1.5,0,0,0,3,0,0,0,0,0,0,0,0,3355
2440,-3.71585e-12,0,-1.57926e-06,-3.84759e-12,0,0,-1.13833e-13,0,0,-6.60916,-0.14158,0.0784097,0,0,0,0,0,-0.163207,-0.14158,140,11,140,11,201,11,140,66,0,-0.261799,-2.82343e-08,-1.5,0,0,0,3,0,0,0,0,0,0,0,0,3355
2450,-3.71585e-12,0,-1.57926e-06,-3.84759e-12,0,-3.40903e-12,-1.13834e-13,0,0,-6.60916,-0.14158,0.0784097,0,0,0,0,0,-0.163207,-0.14158,140,11,140,11,201,11,140,66,0,-0.261799,-2.73413e-08,-1.5,0,0,0,3,0,0,0,0,0,0,0,0,3355
2460,-3.71585e-12,0,-1.57926e-06,-3.84759e-12,0,0,-1.13834e-13,0,0,-6.60916,-0.14158,0.0784097,0,0,0,0,0,-0.163207,-0.14158,140,11,140,11,201,11,140,66,0,-0.261799,-2.64765e-08,-1.5,0,0,0,3,0,0,0,0,0,0,0,0,3355
2470,-3.71585e-12,0,-1.57926e-06,-3.84759e-12,0,-3.40903e-12,-1.13835e-13,0,0,-6.60916,-0.14158,0.0784097,0,0,0,0,0,-0.163207,-0.14158,140,11,140,11,201,11,140,66,0,-0.261799,-2.55864e-08,-1.5,0,0,0,3,0,0,0,0,0,0,0,0,3355
2480,-3.71585e-12,0,-1.57926e-06,-3.84759e-12,0,0,-1.13835e-13,0,0,-6.60916,-0.14158,0.0784097,0,0,0,0,0,-0.163207,-0.14158,140,11,140,11,201,11,140,66,0,-0.261799,-2.47771e-08,-1.5,0,0,0,3,0,0,0,0,0,0,0,0,3355
2490,-3.71585e-12,0,-1.57926e-06,-3.84759e-12,0,-3.40903e-12,-1.13836e-13,0,0,-6.60916,-0.14158,0.0784097,0,0,0,0,0,-0.163207,-0.14158,140,11,140,11,201,11,140,66,0,-0.261799,-2.37014e-08,-1.5,0,0,0,3,0,0,0,0,0,0,0,0,3355
2500,-3.71585e-12,0,-1.57926e-06,-3.84759e-12,0,0,-1.13837e-13,0,0,-6.60916,-0.14158,0.0784097,0,0,0,0,0,-0.163207,-0.14158,140,11,140,11,201,11,140,66,0,-0.261799,-2.29517e-08,-1.5,0,0,0,3,0,0,0,0,0,0,0,0,3355
2510,-3.71585e-12,0,-1.57926e-06,-3.84759e-12,0,-3.40903e-12,-1.13837e-13,0,0,-6.60916,-0.14158,0.0784097,0,0,0,0,0,-0.163207,-0.14158,140,11,140,11,201,11,140,66,0,-0.261799,-2.22258e-08,-1.5,0,0,0,3,0,0,0,0,0,0,0,0,3355
2520,-3.71585e-12,0,-1.57926e-06,-3.84759e-12,0,0,-1.13838e-13,0,0,-6.60916,-0.14158,0.0784097,0,0,0,0,0,-0.163207,-0.14158,140,11,140,11,201,11,140,66,0,-0.261799,-2.14791e-08,-1.5,0,0,0,3,0,0,0,0,0,0,0,0,3355
2530,-3.71585e-12,0,-1.57926e-06,-3.84759e-12,0,-3.40903e-12,-1.13838e-13,0,0,-6.60916,-0.14158,0.0784097,0,0,0,0,0,-0.163207,-0.14158,140,11,140,11,201,11,140,66,0,-0.261799,-2.07997e-08,-1.5,0,0,0,3,0,0,0,0,0,0,0,0,3355
2540,-3.71585e-12,0,-1.57926e-06,-3.84759e-12,0,0,-1.13839e-13,0,0,-6.60916,-0.14158,0.0784097,0,0,0,0,0,-0.163207,-0.14158,140,11,140,11,201,11,140,66,0,-0.261799,-2.00601e-08,-1.5,0,0,0,3,0,0,0,0,0,0,0,0,3355
2550,-3.71585e-12,0,-1.57926e-06,-3.84759e-12,0,-3.40903e-12,-1.13839e-13,0,0,-6.60916,-0.14158,0.0784097,0,0,0,0,0,-0.163207,-0.14158,140,11,140,11,201,11,140,66,0,-0.261799,-1.94256e-08,-1.5,0,0,0,3,0,0,0,0,0,0,0,0,3355
2560,-3.71585e-12,0,-1.57926e-06,-3.84759e-12,0,0,-1.1384e-13,0,0,-6.60916,-0.14158,0.0784097,0,0,0,0,0,-0.163207,-0.14158,140,11,140,11,201,11,140,66,0,-0.261799,-1.86204e-08,-1.5,0,0,0,3,0,0,0,0,0,0,0,0,3355
2570,-3.71585e-12,0,-1.57926e-06,-3.84759e-12,0,-3.40903e-12,-1.1384e-13,0,0,-6.60916,-0.14158,0.0784097,0,0,0,0,0,-0.163207,-0.14158,140,11,140,11,201,11,140,66,0,-0.261799,-1.80311e-08,-1.5,0,0,0,3,0,0,0,0,0,0,0,0,3355
2580,-3.71585e-12,0,-1.57926e-06,-3.84759e-12,0,0,-1.13841e-13,0,0,-6.60916,-0.14158,0.0784097,0,0,0,0,0,-0.163207,-0.14158,140,11,140,11,201,11,140,66,0,-0.261799,-1.74607e-08,-1.5,0,0,0,3,0,0,0,0,0,0,0,0,3355
2590,-3.71585e-12,0,-1.57926e-06,-3.84759e-12,0,-3.40903e-12,-1.13841e-13,0,0,-6.60916,-0.14158,0.0784097,0,0,0,0,0,-0.163207,-0.14158,140,11,140,11,201,11,140,66,0,-0.261799,-1.68742e-08,-1.5,0,0,0,3,0,0,0,0,0,0,0,0,3355
2600,-3.71585e-12,0,-1.57926e-06,-3.84759e-12,0,0,-1.13842e-13,0,0,-6.60916,-0.14158,0.0784097,0,0,0,0,0,-0.163207,-0.14158,140,11,140,11,201,11,140,66,0,-0.261799,-1.63404e-08,-1.5,0,0,0,3,0,0,0,0,0,0,0,0,3355
2610,-3.71585e-12,0,-1.57926e-06,-3.84759e-12,0,-3.40903e-12,-1.13843e-13,0,0,-6.60916,-0.14158,0.0784097,0,0,0,0,0,-0.163207,-0.14158,140,11,140,11,201,11,140,66,0,-0.261799,-1.56952e-08,-1.5,0,0,0,3,0,0,0,0,0,0,0,0,3355
2620,-3.71585e-12,0,-1.57926e-06,-3.84759e-12,0,0,-1.13843e-13,0,0,-6.60916,-0.14158,0.0784097,0,0,0,0,0,-0.163207,-0.14158,140,11,140,11,201,11,140,66,0,-0.261799,-1.52604e-08,-1.5,0,0,0,3,0,0,0,0,0,0,0,0,3355
2630,-3.71585e-12,0,-1.57926e-06,-3.84759e-12,0,-3.40903e-12,-1.13844e-13,0,0,-6.60916,-0.14158,0.0784097,0,0,0,0,0,-0.163207,-0.14158,140,11,140,11,201,11,140,66,0,-0.261799,-1.47474e-08,-1.5,0,0,0,3,0,0,0,0,0,0,0,0,3355
2640,-3.71585e-12,0,-1.57926e-06,-3.84759e-12,0,0,-1.13844e-13,0,0,-6.60916,-0.14158,0.0784097,0,0,0,0,0,-0.163207,-0.14158,140,11,140,11,201,11,140,66,0,-0.261799,-1.42809e-08,-1.5,0,0,0,3,0,0,0,0,0,0,0,0,3355
2650,-3.71585e-12,0,-1.57926e-06,-3.84759e-12,0,-3.40903e-12,-1.13845e-13,0,0,-6.60916,-0.14158,0.0784097,0,0,0,0,0,-0.163207,-0.14158,140,11,140,11,201,11,140,66,0,-0.261799,-1.13836e-08,-1.5,0,0,0,3,0,0,0,0,0,0,0,0,3355
2660,-3.71585e-12,0,-1.57926e-06,-3.84759e-12,0,0,-1.13845e-13,0,0,-6.60916,-0.14158,0.0784097,0,0,0,0,0,-0.163207,-0.14158,140,11,140,11,201,11,140,66,0,-0.261799,-9.67898e-09,-1.5,0,0,0,3,0,0,0,0,0,0,0,0,3355
2670,-3.71585e-12,0,-1.57926e-06,-3.84759e-12,0,-3.40903e-12,-1.13846e-13,0,0,-6.60916,-0.14158,0.0784097,0,0,0,0,0,-0.163207,-0.14158,140,11,140,11,201,11,140,66,0,-0.261799,-9.37284e-09,-1.5,0,0,0,3,0,0,0,0,0,0,0,0,3355
2680,-3.71585e-12,0,-1.57926e-06,-3.84759e-12,0,0,-1.13846e-13,0,0,-6.60916,-0.14158,0.0784097,0,0,0,0,0,-0.163207,-0.14158,140,11,140,11,201,11,140,66,0,-0.261799,-8.96591e-09,-1.5,0,0,0,3,0,0,0,0,0,0,0,0,3355
2690,-3.71585e-12,0,-1.57926e-06,-3.84759e-12,0,-3.40903e-12,-1.13847e-13,0,0,-6.60916,-0.14158,0.0784097,0,0,0,0,0,-0.163207,-0.14158,140,11,140,11,201,11,140,66,0,-0.261799,-8.68232e-09,-1.5,0,0,0,3,0,0,0,0,0,0,0,0,3355
2700,-3.71585e-12,0,-1.57926e-06,-3.84759e-12,0,0,-1.13847e-13,0,0,-6.60916,-0.14158,0.0784097,0,0,0,0,0,-0.163207,-0.14158,140,11,140,11,201,11,140,66,0,-0.261799,-8.40753e-09,-1.5,0,0,0,3,0,0,0,0,0,0,0,0,3355
2710,-3.71585e-12,0,-1.57926e-06,-3.84759e-12,0,-3.40903e-12,-1.13848e-13,0,0,-6.60916,-0.14158,0.0784097,0,0,0,0,0,-0.163207,-0.14158,140,11,140,11,201,11,140,66,0,-0.261799,-8.09228e-09,-1.5,0,0,0,3,0,0,0,0,0,0,0,0,3355
2720,-3.71585e-12,0,-1.57926e-06,-3.84759e-12,0,0,-1.13848e-13,0,0,-6.60916,-0.14158,0.0784097,0,0,0,0,0,-0.163207,-0.14158,140,11,140,11,201,11,140,66,0,-0.261799,-7.83632e-09,-1.5,0,0,0,3,0,0,0,0,0,0,0,0,3355
2730,-3.71585e-12,0,-1.57926e-06,-3.84759e-12,0,-3.40903e-12,-1.13849e-13,0,0,-6.60916,-0.14158,0.0784097,0,0,0,0,0,-0.163207,-0.14158,140,11,140,11,201,11,140,66,0,-0.261799,-7.55768e-09,-1.5,0,0,0,3,0,0,0,0,0,0,0,0,3355
2740,-3.71585e-12,0,-1.57926e-06,-3.84759e-12,0,0,-1.1385e-13,0,0,-6.60916,-0.14158,0.0784097,0,0,0,0,0,-0.163207,-0.14158,140,11,140,11,201,11,140,66,0,-0.261799,-7.33335e-09,-1.5,0,0,0,3,0,0,0,0,0,0,0,0,3355
2750,-3.71585e-12,0,-1.57926e-06,-3.84759e-12,0,-3.40903e-12,-1.1385e-13,0,0,-6.60916,-0.14158,0.0784097,0,0,0,0,0,-0.163207,-0.14158,140,11,140,11,201,11,140,66,0,-0.261799,-7.00022e-09,-1.5,0,0,0,3,0,0,0,0,0,0,0,0,3355
2760,-3.71585e-12,0,-1.57926e-06,-3.84759e-12,0,0,-1.13851e-13,0,0,-6.60916,-0.14158,0.0784097,0,0,0,0,0,-0.163207,-0.14158,140,11,140,11,201,11,140,66,0,-0.261799,-6.77866e-09,-1.5,0,0,0,3,0,0,0,0,0,0,0,0,3355
2770,-3.71585e-12,0,-1.57926e-06,-3.84759e-12,0,-3.40903e-12,-1.13851e-13,0,0,-6.60916,-0.14158,0.0784097,0,0,0,0,0,-0.163207,-0.14158,140,11,140,11,201,11,140,66,0,-0.261799,-6.56425e-09,-1.5,0,0,0,3,0,0,0,0,0,0,0,0,3355
2780,-3.71585e-12,0,-1.57926e-06,-3.84759e-12,0,0,-1.13852e-13,0,0,-6.60916,-0.14158,0.0784097,0,0,0,0,0,-0.163207,-0.14158,140,11,140,11,201,11,140,66,0,-0.261799,-6.34373e-09,-1.5,0,0,0,3,0,0,0,0,0,0,0,0,3355
2790,-3.71585e-12,0,-1.57926e-06,-3.84759e-12,0,-3.40903e-12,-1.13852e-13,0,0,-6.60916,-0.14158,0.0784097,0,0,0,0,0,-0.163207,-0.14158,140,11,140,11,201,11,140,66,0,-0.261799,-6.11816e-09,-1.5,0,0,0,3,0,0,0,0,0,0,0,0,3355
2800,-3.71585e-12,0,-1.57926e-06,-3.84759e-12,0,0,-1.13853e-13,0,0,-6.60916,-0.14158,0.0784097,0,0,0,0,0,-0.163207,-0.14158,140,11,140,11,201,11,140,66,0,-0.261799,-5.90061e-09,-1.5,0,0,0,3,0,0,0,0,0,0,0,0,3355
2810,-3.71585e-12,0,-1.57926e-06,-3.84759e-12,0,-3.40903e-12,-1.13853e-13,0,0,-6.60916,-0.14158,0.0784097,0,0,0,0,0,-0.163207,-0.14158,140,11,140,11,201,11,140,66,0,-0.261799,-5.74869e-09,-1.5,0,0,0,3,0,0,0,0,0,0,0,0,3355
2820,-3.71585e-12,0,-1.57926e-06,-3.84759e-12,0,0,-1.13854e-13,0,0,-7.19142,-0.133588,0.21928,0,0,0,0,0,-0.366999,-0.133588,144,11,144,11,195,11,144,67,0,-0.261799,-5.54428e-09,-1.5,0,0,0,3,0,0,0,0,0,0,0,0,2856
2830,-3.71585e-12,0,-1.57926e-06,-3.84759e-12,0,-3.40903e-12,-1.13854e-13,0,0,-7.19142,-0.133588,0.21928,0,0,0,0,0,-0.366999,-0.133588,144,11,144,11,195,11,144,67,0,-0.261799,-5.32535e-09,-1.5,0,0,0,3,0,0,0,0,0,0,0,0,2856
2840,-3.71585e-12,0,-1.57926e-06,-3.84759e-12,0,0,-1.13855e-13,0,0,-7.19142,-0.133588,0.21928,0,0,0,0,0,-0.366999,-0.133588,144,11,144,11,195,11,144,67,0,-0.261799,-5.15691e-09,-1.5,0,0,0,3,0,0,0,0,0,0,0,0,2856
2850,-3.71585e-12,0,-1.57926e-06,-3.84759e-12,0,-3.40903e-12,-1.13856e-13,0,0,-7.19142,-0.133588,0.21928,0,0,0,0,0,-0.366999,-0.133588,144,11,144,11,195,11,144,67,0,-0.261799,-4.9937e-09,-1.5,0,0,0,3,0,0,0,0,0,0,0,0,2856
2860,-3.71585e-12,0,-1.57926e-06,-3.84759e-12,0,0,-1.13856e-13,0,0,-7.19142,-0.133588,0.21928,0,0,0,0,0,-0.366999,-0.133588,144,11,144,11,195,11,144,67,0,-0.261799,-4.84548e-09,-1.5,0,0,0,3,0,0,0,0,0,0,0,0,2856
2870,-3.71585e-12,0,-1.57926e-06,-3.84759e-12,0,-3.40903e-12,-1.13857e-13,0,0,-7.19142,-0.133588,0.21928,0,0,0,0,0,-0.366999,-0.133588,144,11,144,11,195,11,144,67,0,-0.261799,-4.68258e-09,-1.5,0,0,0,3,0,0,0,0,0,0,0,0,2856
2880,-3.71585e-12,0,-1.57926e-06,-3.84759e-12,0,0,-1.13857e-13,0,0,-7.19142,-0.133588,0.21928,0,0,0,0,0,-0.366999,-0.133588,144,11,144,11,195,11,144,67,0,-0.261799,-4.53447e-09,-1.5,0,0,0,3,0,0,0,0,0,0,0,0,2856
2890,-3.71585e-12,0,-1.57926e-06,-3.84759e-12,0,-3.40903e-12,-1.13858e-13,0,0,-7.19142,-0.133588,0.21928,0,0,0,0,0,-0.366999,-0.133588,144,11,144,11,195,11,144,67,0,-0.261799,-4.35542e-09,-1.5,0,0,0,3,0,0,0,0,0,0,0,0,2856
2900,-3.71585e-12,0,-1.57926e-06,-3.84759e-12,0,0,-1.13858e-13,0,0,-7.19142,-0.133588,0.21928,0,0,0,0,0,-0.366999,-0.133588,144,11,144,11,195,11,144,67,0,-0.261799,-4.2091e-09,-1.5,0,0,0,3,0,0,0,0,0,0,0,0,2856
2910,-3.71585e-12,0,-1.57926e-06,-3.84759e-12,0,-3.40903e-12,-1.13859e-13,0,0,-7.19142,-0.133588,0.21928,0,0,0,0,0,-0.366999,-0.133588,144,11,144,11,195,11,144,67,0,-0.261799,-4.0677e-09,-1.5,0,0,0,3,0,0,0,0,0,0,0,0,2856
2920,-3.71585e-12,0,-1.57926e-06,-3.84759e-12,0,0,-1.13859e-13,0,0,-7.19142,-0.133588,0.21928,0,0,0,0,0,-0.366999,-0.133588,144,11,144,11,195,11,144,67,0,-0.261799,-3.93896e-09,-1.5,0,0,0,3,0,0,0,0,0,0,0,0,2856
2930,-3.71585e-12,0,-1.57926e-06,-3.84759e-12,0,-3.40903e-12,-1.1386e-13,0,0,-7.19142,-0.133588,0.21928,0,0,0,0,0,-0.366999,-0.133588,144,11,144,11,195,11,144,67,0,-0.261799,-3.81429e-09,-1.5,0,0,0,3,0,0,0,0,0,0,0,0,2856
2940,-3.71585e-12,0,-1.57926e-06,-3.84759e-12,0,0,-1.1386e-13,0,0,-7.19142,-0.133588,0.21928,0,0,0,0,0,-0.366999,-0.133588,144,11,144,11,195,11,144,67,0,-0.261799,-3.64884e-09,-1.5,0,0,0,3,0,0,0,0,0,0,0,0,2856
2950,-3.71585e-12,0,-1.57926e-06,-3.84759e-12,0,-3.40903e-12,-1.13861e-13,0,0,-7.19142,-0.133588,0.21928,0,0,0,0,0,-0.366999,-0.133588,144,11,144,11,195,11,144,67,0,-0.261799,-3.53343e-09,-1.5,0,0,0,3,0,0,0,0,0,0,0,0,2856
2960,-3.71585e-12,0,-1.57926e-06,-3.84759e-12,0,0,-1.13862e-13,0,0,-7.19142,-0.133588,0.21928,0,0,0,0,0,-0.366999,-0.133588,144,11,144,11,195,11,144,67,0,-0.261799,-2.76788e-09,-1.5,0,0,0,3,0,0,0,0,0,0,0,0,2856
2970,-3.71585e-12,0,-1.57926e-06,-3.84759e-12,0,-3.40903e-12,-1.13862e-13,0,0,-7.19142,-0.133588,0.21928,0,0,0,0,0,-0.366999,-0.133588,144,11,144,11,195,11,144,67,0,-0.261799,-2.39218e-09,-1.5,0,0,0,3,0,0,0,0,0,0,0,0,2856
2980,-3.71585e-12,0,-1.57926e-06,-3.84759e-12,0,0,-1.13863e-13,0,0,-7.19142,-0.133588,0.21928,0,0,0,0,0,-0.366999,-0.133588,144,11,144,11,195,11,144,67,0,-0.261799,-2.31647e-09,-1.5,0,0,0,3,0,0,0,0,0,0,0,0,2856
2990,-3.71585e-12,0,-1.57926e-06,-3.84759e-12,0,-3.40903e-12,-1.13863e-13,0,0,-7.19142,-0.133588,0.21928,0,0,0,0,0,-0.366999,-0.133588,144,11,144,11,195,11,144,67,0,-0.261799,-2.23403e-09,-1.5,0,0,0,3,0,0,0,0,0,0,0,0,2856
3000,-3.71585e-12,0,-1.57926e-06,-3.84759e-12,0,0,-1.13864e-13,0,0,-7.19142,-0.133588,0.21928,0,0,0,0,0,-0.366999,-0.133588,144,11,144,11,195,11,144,67,0,-0.261799,-2.17215e-09,-1.5,0,0,0,3,0,0,0,0,0,0,0,0,2856
3010,-3.71585e-12,0,-1.57926e-06,-3.84759e-12,0,-3.40903e-12,-1.13864e-13,0,0,-7.19142,-0.133588,0.21928,0,0,0,0,0,-0.366999,-0.133588,144,11,144,11,195,11,144,67,0,-0.261799,-2.09057e-09,-1.5,0,0,0,3,0,0,0,0,0,0,0,0,2856
3020,-3.71585e-12,0,-1.57926e-06,-3.84759e-12,0,0,-1.13865e-13,0,0,-7.19142,-0.133588,0.21928,0,0,0,0,0,-0.366999,-0.133588,144,11,144,11,195,11,144,67,0,-0.261799,-2.02445e-09,-1.5,0,0,0,3,0,0,0,0,0,0,0,0,2856
3030,-3.71585e-12,0,-1.57926e-06,-3.84759e-12,0,-3.40903e-12,-1.13865e-13,0,0,-7.19142,-0.133588,0.21928,0,0,0,0,0,-0.366999,-0.133588,144,11,144,11,195,11,144,67,0,-0.261799,-1.96042e-09,-1.5,0,0,0,3,0,0,0,0,0,0,0,0,2856
3040,-3.71585e-12,0,-1.57926e-06,-3.84759e-12,0,0,-1.13866e-13,0,0,-7.19142,-0.133588,0.21928,0,0,0,0,0,-0.366999,-0.133588,144,11,144,11,195,11,144,67,0,-0.261799,-1.89837e-09,-1.5,0,0,0,3,0,0,0,0,0,0,0,0,2856
3050,-3.71585e-12,0,-1.57926e-06,-3.84759e-12,0,-3.40903e-12,-1.13866e-13,0,0,-7.19142,-0.133588,0.21928,0,0,0,0,0,-0.366999,-0.133588,144,11,144,11,195,11,144,67,0,-0.261799,-1.83081e-09,-1.5,0,0,0,3,0,0,0,0,0,0,0,0,2856
3060,-3.71585e-12,0,-1.57926e-06,-3.84759e-12,0,0,-1.13867e-13,0,0,-7.19142,-0.133588,0.21928,0,0,0,0,0,-0.366999,-0.133588,144,11,144,11,195,11,144,67,0,-0.261799,-1.76566e-09,-1.5,0,0,0,3,0,0,0,0,0,0,0,0,2856
3070,-3.71585e-12,0,-1.57926e-06,-3.84759e-12,0,-3.40903e-12,-1.13867e-13,0,0,-7.19142,-0.133588,0.21928,0,0,0,0,0,-0.366999,-0.133588,144,11,144,11,195,11,144,67,0,-0.261799,-1.70978e-09,-1.5,0,0,0,3,0,0,0,0,0,0,0,0,2856
3080,-3.71585e-12,0,-1.57926e-06,-3.84759e-12,0,0,-1.13868e-13,0,0,-7.19142,-0.133588,0.21928,0,0,0,0,0,-0.366999,-0.133588,144,11,144,11,195,11,144,67,0,-0.261799,-1.64226e-09,-1.5,0,0,0,3,0,0,0,0,0,0,0,0,2856
3090,-3.71585e-12,0,-1.57926e-06,-3.84759e-12,0,-3.40903e-12,-1.13869e-13,0,0,-7.19142,-0.133588,0.21928,0,0,0,0,0,-0.366999,-0.133588,144,11,144,11,195,11,144,67,0,-0.261799,-1.58387e-09,-1.5,0,0,0,3,0,0,0,0,0,0,0,0,2856
