timestamp,A_x,A_y,A_z,P,Q,R,Phi,Theta,Psi,poseX,poseY,poseZ,state_X,state_Y,state_Z,state_VzB,state_Bx,state_By,state_Bz,p1_x,p1_y,p2_x,p2_y,p3_x,p3_y,p4_x,p4_y,roll,pitch,yaw,alt,targetHeading,highLevelState,lowLevelState,gateNumber,filtered_x,filtered_y,x_OT,y_OT,vx_OT,vy_OT,filtered_vx,filtered_vygateArearansac_corr_x,ransac_corr_y,ransac_corr_vx,ransac_corr_vy
10,0,0,0,0,0,0,0,0,0,0,0,0,0,0,0,0,0,0,0,0,0,0,0,0,0,0,0,0,-0.261799,0.0062205,-1.5,nan,0,0,3,0,0,0,0,0,0,0,0,1.9603e-19,0,0,0,0
20,0,0,0,0,0,0,0,0,0,0,0,0,0,0,0,0,0,0,0,0,0,0,0,0,0,0,0,0,-0.261799,0.00599931,-1.5,nan,0,0,3,0,0,0,0,0,0,0,0,1.9603e-19,0,0,0,0
30,-3.21239e-12,0,-1.55831e-06,-3.27827e-12,0,-3.40903e-12,-1.06589e-13,0,0,0,0,0,0,0,0,0,0,0,0,0,0,0,0,0,0,0,0,0,-0.261799,-0.00127524,-1.5,nan,0,0,3,0,0,0,0,0,0,0,0,1.9603e-19,0,0,0,0
40,-3.21239e-12,0,-1.55831e-06,-3.27827e-12,0,0,-1.0659e-13,0,0,0,0,0,0,0,0,0,0,0,0,0,0,0,0,0,0,0,0,0,-0.261799,-0.00123237,-1.5,nan,0,0,3,0,0,0,0,0,0,0,0,1.9603e-19,0,0,0,0
50,-3.21239e-12,0,-1.55831e-06,-3.27827e-12,0,-3.40903e-12,-1.0659e-13,0,0,0,0,0,0,0,0,0,0,0,0,0,0,0,0,0,0,0,0,0,-0.261799,-0.00119097,-1.5,nan,0,0,3,0,0,0,0,0,0,0,0,1.9603e-19,0,0,0,0
60,-3.21239e-12,0,-1.55831e-06,-3.27827e-12,0,0,-1.0659e-13,0,0,0,0,0,0,0,0,0,0,0,0,0,0,0,0,0,0,0,0,0,-0.261799,-0.00115093,-1.5,nan,0,0,3,0,0,0,0,0,0,0,0,1.9603e-19,0,0,0,0
70,-3.21239e-12,0,-1.55831e-06,-3.27827e-12,0,-3.40903e-12,-1.0659e-13,0,0,0,0,0,0,0,0,0,0,0,0,0,0,0,0,0,0,0,0,0,-0.261799,-0.00111224,-1.5,nan,0,0,3,0,0,0,0,0,0,0,0,1.9603e-19,0,0,0,0
80,-3.21239e-12,0,-1.55831e-06,-3.27827e-12,0,0,-1.06591e-13,0,0,0,0,0,0,0,0,0,0,0,0,0,0,0,0,0,0,0,0,0,-0.261799,-0.00107704,-1.5,nan,0,0,3,0,0,0,0,0,0,0,0,1.9603e-19,0,0,0,0
90,-3.21239e-12,0,-1.55831e-06,-3.27827e-12,0,-3.40903e-12,-1.06591e-13,0,0,0,0,0,0,0,0,0,0,0,0,0,0,0,0,0,0,0,0,0,-0.261799,-0.00103662,-1.5,nan,0,0,3,0,0,0,0,0,0,0,0,1.9603e-19,0,0,0,0
100,-3.21239e-12,0,-1.55831e-06,-3.27827e-12,0,0,-1.06591e-13,0,0,0,0,0,0,0,0,0,0,0,0,0,0,0,0,0,0,0,0,0,-0.261799,-0.00100381,-1.5,nan,0,0,3,0,0,0,0,0,0,0,0,1.9603e-19,0,0,0,0
110,-3.21239e-12,0,-1.55831e-06,-3.27827e-12,0,-3.40903e-12,-1.06591e-13,0,0,0,0,0,0,0,0,0,0,0,0,0,0,0,0,0,0,0,0,0,-0.261799,-0.000900919,-1.5,nan,0,0,3,0,0,0,0,0,0,0,0,1.9603e-19,0,0,0,0
120,-3.21239e-12,0,-1.55831e-06,-3.27827e-12,0,0,-1.06592e-13,0,0,0,0,0,0,0,0,0,0,0,0,0,0,0,0,0,0,0,0,0,-0.261799,-0.000805177,-1.5,nan,0,0,3,0,0,0,0,0,0,0,0,1.9603e-19,0,0,0,0
130,-3.21239e-12,0,-1.55831e-06,-3.27827e-12,0,-3.40903e-12,-1.06592e-13,0,0,0,0,0,0,0,0,0,0,0,0,0,0,0,0,0,0,0,0,0,-0.261799,-0.000651329,-1.5,nan,0,0,3,0,0,0,0,0,0,0,0,1.9603e-19,0,0,0,0
140,-3.21239e-12,0,-1.55831e-06,-3.27827e-12,0,0,-1.06592e-13,0,0,0,0,0,0,0,0,0,0,0,0,0,0,0,0,0,0,0,0,0,-0.261799,-0.000557644,-1.5,nan,0,0,3,0,0,0,0,0,0,0,0,1.9603e-19,0,0,0,0
150,-3.21239e-12,0,-1.55831e-06,-3.27827e-12,0,-3.40903e-12,-1.06593e-13,0,0,0,0,0,0,0,0,0,0,0,0,0,0,0,0,0,0,0,0,0,-0.261799,-0.000525727,-1.5,nan,0,0,3,0,0,0,0,0,0,0,0,1.9603e-19,0,0,0,0
160,-3.21239e-12,0,-1.55831e-06,-3.27827e-12,0,0,-1.06593e-13,0,0,0,0,0,0,0,0,0,0,0,0,0,0,0,0,0,0,0,0,0,-0.261799,-0.000497739,-1.5,nan,0,0,3,0,0,0,0,0,0,0,0,1.9603e-19,0,0,0,0
170,-3.21239e-12,0,-1.55831e-06,-3.27827e-12,0,-3.40903e-12,-1.06593e-13,0,0,0,0,0,0,0,0,0,0,0,0,0,0,0,0,0,0,0,0,0,-0.261799,-0.000452665,-1.5,nan,0,0,3,0,0,0,0,0,0,0,0,1.9603e-19,0,0,0,0
180,-3.21239e-12,0,-1.55831e-06,-3.27827e-12,0,0,-1.06593e-13,0,0,0,0,0,0,0,0,0,0,0,0,0,0,0,0,0,0,0,0,0,-0.261799,-0.000437458,-1.5,nan,0,0,3,0,0,0,0,0,0,0,0,1.9603e-19,0,0,0,0
190,-3.21239e-12,0,-1.55831e-06,-3.27827e-12,0,-3.40903e-12,-1.06594e-13,0,0,0,0,0,0,0,0,0,0,0,0,0,0,0,0,0,0,0,0,0,-0.261799,-0.000415864,-1.5,nan,0,0,3,0,0,0,0,0,0,0,0,1.9603e-19,0,0,0,0
200,-3.21239e-12,0,-1.55831e-06,-3.27827e-12,0,0,-1.06594e-13,0,0,0,0,0,0,0,0,0,0,0,0,0,0,0,0,0,0,0,0,0,-0.261799,-0.00039288,-1.5,nan,0,0,3,0,0,0,0,0,0,0,0,1.9603e-19,0,0,0,0
210,-3.21239e-12,0,-1.55831e-06,-3.27827e-12,0,-3.40903e-12,-1.06594e-13,0,0,0,0,0,0,0,0,0,0,0,0,0,0,0,0,0,0,0,0,0,-0.261799,-0.000379672,-1.5,nan,0,0,3,0,0,0,0,0,0,0,0,1.9603e-19,0,0,0,0
220,-3.21239e-12,0,-1.55831e-06,-3.27827e-12,0,0,-1.06594e-13,0,0,0,0,0,0,0,0,0,0,0,0,0,0,0,0,0,0,0,0,0,-0.261799,-0.000366908,-1.5,nan,0,0,3,0,0,0,0,0,0,0,0,1.9603e-19,0,0,0,0
230,-3.21239e-12,0,-1.55831e-06,-3.27827e-12,0,-3.40903e-12,-1.06595e-13,0,0,0,0,0,0,0,0,0,0,0,0,0,0,0,0,0,0,0,0,0,-0.261799,-0.000353861,-1.5,nan,0,0,3,0,0,0,0,0,0,0,0,1.9603e-19,0,0,0,0
240,-3.21239e-12,0,-1.55831e-06,-3.27827e-12,0,0,-1.06595e-13,0,0,0,0,0,0,0,0,0,0,0,0,0,0,0,0,0,0,0,0,0,-0.261799,-0.000343364,-1.5,nan,0,0,3,0,0,0,0,0,0,0,0,1.9603e-19,0,0,0,0
250,-3.21239e-12,0,-1.55831e-06,-3.27827e-12,0,-3.40903e-12,-1.06595e-13,0,0,0,0,0,0,0,0,0,0,0,0,0,0,0,0,0,0,0,0,0,-0.261799,-0.000311595,-1.5,nan,0,0,3,0,0,0,0,0,0,0,0,1.9603e-19,0,0,0,0
260,-3.21239e-12,0,-1.55831e-06,-3.27827e-12,0,0,-1.06596e-13,0,0,0,0,0,0,0,0,0,0,0,0,0,0,0,0,0,0,0,0,0,-0.261799,-0.000300507,-1.5,nan,0,0,3,0,0,0,0,0,0,0,0,1.9603e-19,0,0,0,0
270,-3.21239e-12,0,-1.55831e-06,-3.27827e-12,0,-3.40903e-12,-1.06596e-13,0,0,0,0,0,0,0,0,0,0,0,0,0,0,0,0,0,0,0,0,0,-0.261799,-0.000290404,-1.5,nan,0,0,3,0,0,0,0,0,0,0,0,1.9603e-19,0,0,0,0
280,-3.21239e-12,0,-1.55831e-06,-3.27827e-12,0,0,-1.06596e-13,0,0,0,0,0,0,0,0,0,0,0,0,0,0,0,0,0,0,0,0,0,-0.261799,-0.000277796,-1.5,nan,0,0,3,0,0,0,0,0,0,0,0,1.9603e-19,0,0,0,0
290,-3.21239e-12,0,-1.55831e-06,-3.27827e-12,0,-3.40903e-12,-1.06596e-13,0,0,0,0,0,0,0,0,0,0,0,0,0,0,0,0,0,0,0,0,0,-0.261799,-0.000267364,-1.5,nan,0,0,3,0,0,0,0,0,0,0,0,1.9603e-19,0,0,0,0
300,-3.21239e-12,0,-1.55831e-06,-3.27827e-12,0,0,-1.06597e-13,0,0,0,0,0,0,0,0,0,0,0,0,0,0,0,0,0,0,0,0,0,-0.261799,-0.000257857,-1.5,nan,0,0,3,0,0,0,0,0,0,0,0,1.9603e-19,0,0,0,0
310,-3.21239e-12,0,-1.55831e-06,-3.27827e-12,0,-3.40903e-12,-1.06597e-13,0,0,0,0,0,0,0,0,0,0,0,0,0,0,0,0,0,0,0,0,0,-0.261799,-0.000249188,-1.5,nan,0,0,3,0,0,0,0,0,0,0,0,1.9603e-19,0,0,0,0
320,-3.21239e-12,0,-1.55831e-06,-3.27827e-12,0,0,-1.06597e-13,0,0,0,0,0,0,0,0,0,0,0,0,0,0,0,0,0,0,0,0,0,-0.261799,-0.000240811,-1.5,nan,0,0,3,0,0,0,0,0,0,0,0,1.9603e-19,0,0,0,0
330,-3.21239e-12,0,-1.55831e-06,-3.27827e-12,0,-3.40903e-12,-1.06597e-13,0,0,0,0,0,0,0,0,0,0,0,0,0,0,0,0,0,0,0,0,0,-0.261799,-0.000231302,-1.5,nan,0,0,3,0,0,0,0,0,0,0,0,1.9603e-19,0,0,0,0
340,-3.21239e-12,0,-1.55831e-06,-3.27827e-12,0,0,-1.06598e-13,0,0,0,0,0,0,0,0,0,0,0,0,0,0,0,0,0,0,0,0,0,-0.261799,-0.000222623,-1.5,nan,0,0,3,0,0,0,0,0,0,0,0,1.9603e-19,0,0,0,0
350,-3.21239e-12,0,-1.55831e-06,-3.27827e-12,0,-3.40903e-12,-1.06598e-13,0,0,0,0,0,0,0,0,0,0,0,0,0,0,0,0,0,0,0,0,0,-0.261799,-0.000215577,-1.5,nan,0,0,3,0,0,0,0,0,0,0,0,1.9603e-19,0,0,0,0
360,-3.21239e-12,0,-1.55831e-06,-3.27827e-12,0,0,-1.06598e-13,0,0,0,0,0,0,0,0,0,0,0,0,0,0,0,0,0,0,0,0,0,-0.261799,-0.000207911,-1.5,nan,0,0,3,0,0,0,0,0,0,0,0,1.9603e-19,0,0,0,0
370,-3.21239e-12,0,-1.55831e-06,-3.27827e-12,0,-3.40903e-12,-1.06599e-13,0,0,0,0,0,0,0,0,0,0,0,0,0,0,0,0,0,0,0,0,0,-0.261799,-0.000199285,-1.5,nan,0,0,3,0,0,0,0,0,0,0,0,1.9603e-19,0,0,0,0
380,-3.21239e-12,0,-1.55831e-06,-3.27827e-12,0,0,-1.06599e-13,0,0,0,0,0,0,0,0,0,0,0,0,0,0,0,0,0,0,0,0,0,-0.261799,-0.000192585,-1.5,nan,0,0,3,0,0,0,0,0,0,0,0,1.9603e-19,0,0,0,0
390,-3.21239e-12,0,-1.55831e-06,-3.27827e-12,0,-3.40903e-12,-1.06599e-13,0,0,0,0,0,0,0,0,0,0,0,0,0,0,0,0,0,0,0,0,0,-0.261799,-0.000185359,-1.5,nan,0,0,3,0,0,0,0,0,0,0,0,1.9603e-19,0,0,0,0
400,-3.21239e-12,0,-1.55831e-06,-3.27827e-12,0,0,-1.06599e-13,0,0,0,0,0,0,0,0,0,0,0,0,0,0,0,0,0,0,0,0,0,-0.261799,-0.00014447,-1.5,nan,0,0,3,0,0,0,0,0,0,0,0,1.9603e-19,0,0,0,0
410,-3.21239e-12,0,-1.55831e-06,-3.27827e-12,0,-3.40903e-12,-1.066e-13,0,0,0,0,0,0,0,0,0,0,0,0,0,0,0,0,0,0,0,0,0,-0.261799,-0.000116914,-1.5,nan,0,0,3,0,0,0,0,0,0,0,0,1.9603e-19,0,0,0,0
420,-3.21239e-12,0,-1.55831e-06,-3.27827e-12,0,0,-1.066e-13,0,0,0,0,0,0,0,0,0,0,0,0,0,0,0,0,0,0,0,0,0,-0.261799,-0.000111373,-1.5,nan,0,0,3,0,0,0,0,0,0,0,0,1.9603e-19,0,0,0,0
430,-3.21239e-12,0,-1.55831e-06,-3.27827e-12,0,-3.40903e-12,-1.066e-13,0,0,0,0,0,0,0,0,0,0,0,0,0,0,0,0,0,0,0,0,0,-0.261799,-0.000107629,-1.5,nan,0,0,3,0,0,0,0,0,0,0,0,1.9603e-19,0,0,0,0
440,-3.21239e-12,0,-1.55831e-06,-3.27827e-12,0,0,-1.066e-13,0,0,0,0,0,0,0,0,0,0,0,0,0,0,0,0,0,0,0,0,0,-0.261799,-0.000104011,-1.5,nan,0,0,3,0,0,0,0,0,0,0,0,1.9603e-19,0,0,0,0
450,-3.21239e-12,0,-1.55831e-06,-3.27827e-12,0,-3.40903e-12,-1.06601e-13,0,0,0,0,0,0,0,0,0,0,0,0,0,0,0,0,0,0,0,0,0,-0.261799,-9.94951e-05,-1.5,nan,0,0,3,0,0,0,0,0,0,0,0,1.9603e-19,0,0,0,0
460,-3.21239e-12,0,-1.55831e-06,-3.27827e-12,0,0,-1.06601e-13,0,0,0,0,0,0,0,0,0,0,0,0,0,0,0,0,0,0,0,0,0,-0.261799,-9.67389e-05,-1.5,nan,0,0,3,0,0,0,0,0,0,0,0,1.9603e-19,0,0,0,0
470,-3.21239e-12,0,-1.55831e-06,-3.27827e-12,0,-3.40903e-12,-1.06601e-13,0,0,0,0,0,0,0,0,0,0,0,0,0,0,0,0,0,0,0,0,0,-0.261799,-9.42483e-05,-1.5,nan,0,0,3,0,0,0,0,0,0,0,0,1.9603e-19,0,0,0,0
480,-3.21239e-12,0,-1.55831e-06,-3.27827e-12,0,0,-1.06602e-13,0,0,0,0,0,0,0,0,0,0,0,0,0,0,0,0,0,0,0,0,0,-0.261799,-9.12673e-05,-1.5,nan,0,0,3,0,0,0,0,0,0,0,0,1.9603e-19,0,0,0,0
490,-3.21239e-12,0,-1.55831e-06,-3.27827e-12,0,-3.40903e-12,-1.06602e-13,0,0,0,0,0,0,0,0,0,0,0,0,0,0,0,0,0,0,0,0,0,-0.261799,-8.80194e-05,-1.5,nan,0,0,3,0,0,0,0,0,0,0,0,1.9603e-19,0,0,0,0
500,-3.21239e-12,0,-1.55831e-06,-3.27827e-12,0,0,-1.06602e-13,0,0,0,0,0,0,0,0,0,0,0,0,0,0,0,0,0,0,0,0,0,-0.261799,-8.48896e-05,-1.5,nan,0,0,3,0,0,0,0,0,0,0,0,1.9603e-19,0,0,0,0
510,-3.21239e-12,0,-1.55831e-06,-3.27827e-12,0,-3.40903e-12,-1.06602e-13,0,0,0,0,0,0,0,0,0,0,0,0,0,0,0,0,0,0,0,0,0,-0.261799,-8.13708e-05,-1.5,nan,0,0,3,0,0,0,0,0,0,0,0,1.9603e-19,0,0,0,0
520,-3.21239e-12,0,-1.55831e-06,-3.27827e-12,0,0,-1.06603e-13,0,0,0,0,0,0,0,0,0,0,0.8,0,-1367817408,-1367817408,-1367817408,-1367817408,-1367817368,-453554152,531358976,-1367817368,0,-0.261799,-7.51209e-05,-1.5,nan,0,0,3,0,0,0,0,0,0,0,0,0,0,0,0,0
530,-3.21241e-12,0,0,-3.27827e-12,0,-3.40903e-12,-1.06603e-13,0,0,0,0,0,0,0,0,0,0,0.8,0,-1367817408,-1367817408,-1367817408,-1367817408,-1367817368,-453554152,531358976,-1367817368,0,-0.261799,-7.22998e-05,-1.5,nan,0,0,3,0,0,0,0,0,0,0,0,0,0,0,0,0
540,-3.21239e-12,0,-1.55831e-06,-3.27827e-12,0,0,-1.06603e-13,0,0,0,0,0,0,0,0,0,0,0.8,0,-1367817408,-1367817408,-1367817408,-1367817408,-1367817368,-453554152,531358976,-1367817368,0,-0.261799,-6.97289e-05,-1.5,nan,0,0,3,0,0,0,0,0,0,0,0,0,0,0,0,0
550,-3.21239e-12,0,-1.55831e-06,-3.27827e-12,0,-3.40903e-12,-1.06603e-13,0,0,0,0,0,0,0,0,0,0,0.8,0,-1367817408,-1367817408,-1367817408,-1367817408,-1367817368,-453554152,531358976,-1367817368,0,-0.261799,-6.71125e-05,-1.5,nan,0,0,3,0,0,0,0,0,0,0,0,0,0,0,0,0
560,-3.21239e-12,0,-1.55831e-06,-3.27827e-12,0,0,-1.06604e-13,0,0,-6.82413,-0.253365,0.164057,0,0,0,0,0,0.129771,-0.253365,146,11,146,11,206,11,146,63,0,-0.261799,-6.48579e-05,-1.5,nan,0,0,3,0,0,0,0,0,0,0,0,3120,0,0,0,0
570,-3.21239e-12,0,-1.55831e-06,-3.27827e-12,0,-3.40903e-12,-1.06604e-13,0,0,-6.82413,-0.253365,0.164057,0,0,0,0,0,0.129771,-0.253365,146,11,146,11,206,11,146,63,0,-0.261799,-6.19147e-05,-1.5,nan,0,0,3,0,0,0,0,0,0,0,0,3120,0,0,0,0
580,-3.21239e-12,0,-1.55831e-06,-3.27827e-12,0,0,-1.06604e-13,0,0,-6.82413,-0.253365,0.164057,0,0,0,0,0,0.129771,-0.253365,146,11,146,11,206,11,146,63,0,-0.261799,-5.98347e-05,-1.5,nan,0,0,3,0,0,0,0,0,0,0,0,3120,0,0,0,0
590,-3.21239e-12,0,-1.55831e-06,-3.27827e-12,0,-3.40903e-12,-1.06605e-13,0,0,-6.65764,-0.256701,0.119722,0,0,0,0,0,0.194561,-0.256701,146,10,146,10,207,10,146,64,0,-0.261799,-5.79409e-05,-1.5,nan,0,0,3,0,0,0,0,0,0,0,0,3294,0,0,0,0
600,-3.21239e-12,0,-1.55831e-06,-3.27827e-12,0,0,-1.06605e-13,0,0,-6.65764,-0.256701,0.119722,0,0,0,0,0,0.194561,-0.256701,146,10,146,10,207,10,146,64,0,-0.261799,-5.5651e-05,-1.5,nan,0,0,3,0,0,0,0,0,0,0,0,3294,0,0,0,0
610,-3.21239e-12,0,-1.55831e-06,-3.27827e-12,0,-3.40903e-12,-1.06605e-13,0,0,-6.65764,-0.256701,0.119722,0,0,0,0,0,0.194561,-0.256701,146,10,146,10,207,10,146,64,0,-0.261799,-5.36721e-05,-1.5,nan,0,0,3,0,0,0,0,0,0,0,0,3294,0,0,0,0
620,-3.21239e-12,0,-1.55831e-06,-3.27827e-12,0,0,-1.06605e-13,0,0,-6.65764,-0.256701,0.119722,0,0,0,0,0,0.194561,-0.256701,146,10,146,10,207,10,146,64,0,-0.261799,-5.16582e-05,-1.5,nan,0,0,3,0,0,0,0,0,0,0,0,3294,0,0,0,0
630,-3.21239e-12,0,-1.55831e-06,-3.27827e-12,0,-3.40903e-12,-1.06606e-13,0,0,-6.65764,-0.256701,0.119722,0,0,0,0,0,0.194561,-0.256701,146,10,146,10,207,10,146,64,0,-0.261799,-4.99228e-05,-1.5,nan,0,0,3,0,0,0,0,0,0,0,0,3294,0,0,0,0
640,-3.21239e-12,0,-1.55831e-06,-3.27827e-12,0,0,-1.06606e-13,0,0,-6.65764,-0.256701,0.119722,0,0,0,0,0,0.194561,-0.256701,146,10,146,10,207,10,146,64,0,-0.261799,-4.78514e-05,-1.5,nan,0,0,3,0,0,0,0,0,0,0,0,3294,0,0,0,0
650,-3.21239e-12,0,-1.55831e-06,-3.27827e-12,0,-3.40903e-12,-1.06606e-13,0,0,-6.65764,-0.256701,0.119722,0,0,0,0,0,0.194561,-0.256701,146,10,146,10,207,10,146,64,0,-0.261799,-4.65253e-05,-1.5,nan,0,0,3,0,0,0,0,0,0,0,0,3294,0,0,0,0
660,-3.21239e-12,0,-1.55831e-06,-3.27827e-12,0,0,-1.06606e-13,0,0,-6.65764,-0.256701,0.119722,0,0,0,0,0,0.194561,-0.256701,146,10,146,10,207,10,146,64,0,-0.261799,-4.52365e-05,-1.5,nan,0,0,3,0,0,0,0,0,0,0,0,3294,0,0,0,0
670,-3.21239e-12,0,-1.55831e-06,-3.27827e-12,0,-3.40903e-12,-1.06607e-13,0,0,-6.65764,-0.256701,0.119722,0,0,0,0,0,0.194561,-0.256701,146,10,146,10,207,10,146,64,0,-0.261799,-4.38945e-05,-1.5,nan,0,0,3,0,0,0,0,0,0,0,0,3294,0,0,0,0
680,-3.21239e-12,0,-1.55831e-06,-3.27827e-12,0,0,-1.06607e-13,0,0,-6.65764,-0.256701,0.119722,0,0,0,0,0,0.194561,-0.256701,146,10,146,10,207,10,146,64,0,-0.261799,-4.23325e-05,-1.5,nan,0,0,3,0,0,0,0,0,0,0,0,3294,0,0,0,0
690,-3.21239e-12,0,-1.55831e-06,-3.27827e-12,0,-3.40903e-12,-1.06607e-13,0,0,-6.65764,-0.256701,0.119722,0,0,0,0,0,0.194561,-0.256701,146,10,146,10,207,10,146,64,0,-0.261799,-4.06609e-05,-1.5,nan,0,0,3,0,0,0,0,0,0,0,0,3294,0,0,0,0
700,-3.21239e-12,0,-1.55831e-06,-3.27827e-12,0,0,-1.06607e-13,0,0,-6.65764,-0.256701,0.119722,0,0,0,0,0,0.194561,-0.256701,146,10,146,10,207,10,146,64,0,-0.261799,-3.18672e-05,-1.5,nan,0,0,3,0,0,0,0,0,0,0,0,3294,0,0,0,0
710,-3.21239e-12,0,-1.55831e-06,-3.27827e-12,0,-3.40903e-12,-1.06608e-13,0,0,-6.65764,-0.256701,0.119722,0,0,0,0,0,0.194561,-0.256701,146,10,146,10,207,10,146,64,0,-0.261799,-2.74165e-05,-1.5,nan,0,0,3,0,0,0,0,0,0,0,0,3294,0,0,0,0
720,-3.21239e-12,0,-1.55831e-06,-3.27827e-12,0,0,-1.06608e-13,0,0,-6.65764,-0.256701,0.119722,0,0,0,0,0,0.194561,-0.256701,146,10,146,10,207,10,146,64,0,-0.261799,-2.64955e-05,-1.5,nan,0,0,3,0,0,0,0,0,0,0,0,3294,0,0,0,0
730,-3.21239e-12,0,-1.55831e-06,-3.27827e-12,0,-3.40903e-12,-1.06608e-13,0,0,-6.65764,-0.256701,0.119722,0,0,0,0,0,0.194561,-0.256701,146,10,146,10,207,10,146,64,0,-0.261799,-2.55013e-05,-1.5,nan,0,0,3,0,0,0,0,0,0,0,0,3294,0,0,0,0
740,-3.21239e-12,0,-1.55831e-06,-3.27827e-12,0,0,-1.06609e-13,0,0,-6.65764,-0.256701,0.119722,0,0,0,0,0,0.194561,-0.256701,146,10,146,10,207,10,146,64,0,-0.261799,-2.46446e-05,-1.5,nan,0,0,3,0,0,0,0,0,0,0,0,3294,0,0,0,0
750,-3.21239e-12,0,-1.55831e-06,-3.27827e-12,0,-3.40903e-12,-1.06609e-13,0,0,-6.65764,-0.256701,0.119722,0,0,0,0,0,0.194561,-0.256701,146,10,146,10,207,10,146,64,0,-0.261799,-2.37199e-05,-1.5,nan,0,0,3,0,0,0,0,0,0,0,0,3294,0,0,0,0
760,-3.21239e-12,0,-1.55831e-06,-3.27827e-12,0,0,-1.06609e-13,0,0,-6.65764,-0.256701,0.119722,0,0,0,0,0,0.194561,-0.256701,146,10,146,10,207,10,146,64,0,-0.261799,-2.27367e-05,-1.5,nan,0,0,3,0,0,0,0,0,0,0,0,3294,0,0,0,0
770,-3.21239e-12,0,-1.55831e-06,-3.27827e-12,0,-3.40903e-12,-1.06609e-13,0,0,-6.65764,-0.256701,0.119722,0,0,0,0,0,0.194561,-0.256701,146,10,146,10,207,10,146,64,0,-0.261799,-2.19728e-05,-1.5,nan,0,0,3,0,0,0,0,0,0,0,0,3294,0,0,0,0
780,-3.21239e-12,0,-1.55831e-06,-3.27827e-12,0,0,-1.0661e-13,0,0,-6.65764,-0.256701,0.119722,0,0,0,0,0,0.194561,-0.256701,146,10,146,10,207,10,146,64,0,-0.261799,-2.11052e-05,-1.5,nan,0,0,3,0,0,0,0,0,0,0,0,3294,0,0,0,0
790,-3.21239e-12,0,-1.55831e-06,-3.27827e-12,0,-3.40903e-12,-1.0661e-13,0,0,-6.65764,-0.256701,0.119722,0,0,0,0,0,0.194561,-0.256701,146,10,146,10,207,10,146,64,0,-0.261799,-2.03962e-05,-1.5,nan,0,0,3,0,0,0,0,0,0,0,0,3294,0,0,0,0
800,-3.21239e-12,0,-1.55831e-06,-3.27827e-12,0,0,-1.0661e-13,0,0,-6.82366,-0.194883,0.183436,0,0,0,0,0,0.129958,-0.194883,143,10,143,10,203,10,143,62,0,-0.261799,-1.96309e-05,-1.5,nan,0,0,3,0,0,0,0,0,0,0,0,3120,0,0,0,0
810,-3.21239e-12,0,-1.55831e-06,-3.27827e-12,0,-3.40903e-12,-1.0661e-13,0,0,-6.82366,-0.194883,0.183436,0,0,0,0,0,0.129958,-0.194883,143,10,143,10,203,10,143,62,0,-0.261799,-1.89714e-05,-1.5,nan,0,0,3,0,0,0,0,0,0,0,0,3120,0,0,0,0
820,-3.21239e-12,0,-1.55831e-06,-3.27827e-12,0,0,-1.06611e-13,0,0,-6.82366,-0.194883,0.183436,0,0,0,0,0,0.129958,-0.194883,143,10,143,10,203,10,143,62,0,-0.261799,-1.8185e-05,-1.5,nan,0,0,3,0,0,0,0,0,0,0,0,3120,0,0,0,0
830,-3.21239e-12,0,-1.55831e-06,-3.27827e-12,0,-3.40903e-12,-1.06611e-13,0,0,-6.82366,-0.194883,0.183436,0,0,0,0,0,0.129958,-0.194883,143,10,143,10,203,10,143,62,0,-0.261799,-1.76812e-05,-1.5,nan,0,0,3,0,0,0,0,0,0,0,0,3120,0,0,0,0
840,-3.21239e-12,0,-1.55831e-06,-3.27827e-12,0,0,-1.06611e-13,0,0,-6.82366,-0.194883,0.183436,0,0,0,0,0,0.129958,-0.194883,143,10,143,10,203,10,143,62,0,-0.261799,-1.71567e-05,-1.5,nan,0,0,3,0,0,0,0,0,0,0,0,3120,0,0,0,0
850,-3.21239e-12,0,-1.55831e-06,-3.27827e-12,0,-3.40903e-12,-1.06612e-13,0,0,-7.12963,-0.183333,0.264815,0,0,0,0,0,0.00458455,-0.183333,145,9,145,9,199,9,145,63,0,-0.261799,-1.66477e-05,-1.5,nan,0,0,3,0,0,0,0,0,0,0,0,2916,0,0,0,0
860,-3.21239e-12,0,-1.55831e-06,-3.27827e-12,0,0,-1.06612e-13,0,0,-7.12963,-0.183333,0.264815,0,0,0,0,0,0.00458455,-0.183333,145,9,145,9,199,9,145,63,0,-0.261799,-1.60553e-05,-1.5,nan,0,0,3,0,0,0,0,0,0,0,0,2916,0,0,0,0
870,-3.21239e-12,0,-1.55831e-06,-3.27827e-12,0,-3.40903e-12,-1.06612e-13,0,0,-7.12963,-0.183333,0.264815,0,0,0,0,0,0.00458455,-0.183333,145,9,145,9,199,9,145,63,0,-0.261799,-1.54213e-05,-1.5,nan,0,0,3,0,0,0,0,0,0,0,0,2916,0,0,0,0
880,-3.21239e-12,0,-1.55831e-06,-3.27827e-12,0,0,-1.06612e-13,0,0,-7.12963,-0.183333,0.264815,0,0,0,0,0,0.00458455,-0.183333,145,9,145,9,199,9,145,63,0,-0.261799,-1.49333e-05,-1.5,nan,0,0,3,0,0,0,0,0,0,0,0,2916,0,0,0,0
890,-3.21239e-12,0,-1.55831e-06,-3.27827e-12,0,-3.40903e-12,-1.06613e-13,0,0,-7.12963,-0.183333,0.264815,0,0,0,0,0,0.00458455,-0.183333,145,9,145,9,199,9,145,63,0,-0.261799,-1.43137e-05,-1.5,nan,0,0,3,0,0,0,0,0,0,0,0,2916,0,0,0,0
900,-3.21239e-12,0,-1.55831e-06,-3.27827e-12,0,0,-1.06613e-13,0,0,-7.12963,-0.183333,0.264815,0,0,0,0,0,0.00458455,-0.183333,145,9,145,9,199,9,145,63,0,-0.261799,-1.38047e-05,-1.5,nan,0,0,3,0,0,0,0,0,0,0,0,2916,0,0,0,0
910,-3.21239e-12,0,-1.55831e-06,-3.27827e-12,0,-3.40903e-12,-1.06613e-13,0,0,-7.12963,-0.183333,0.264815,0,0,0,0,0,0.00458455,-0.183333,145,9,145,9,199,9,145,63,0,-0.261799,-1.33409e-05,-1.5,nan,0,0,3,0,0,0,0,0,0,0,0,2916,0,0,0,0
920,-3.21239e-12,0,-1.55831e-06,-3.27827e-12,0,0,-1.06613e-13,0,0,-7.12963,-0.183333,0.264815,0,0,0,0,0,0.00458455,-0.183333,145,9,145,9,199,9,145,63,0,-0.261799,-1.28665e-05,-1.5,nan,0,0,3,0,0,0,0,0,0,0,0,2916,0,0,0,0
930,-3.21239e-12,0,-1.55831e-06,-3.27827e-12,0,-3.40903e-12,-1.06614e-13,0,0,-7.12963,-0.183333,0.264815,0,0,0,0,0,0.00458455,-0.183333,145,9,145,9,199,9,145,63,0,-0.261799,-1.23838e-05,-1.5,nan,0,0,3,0,0,0,0,0,0,0,0,2916,0,0,0,0
940,-3.21239e-12,0,-1.55831e-06,-3.27827e-12,0,0,-1.06614e-13,0,0,-7.12963,-0.183333,0.264815,0,0,0,0,0,0.00458455,-0.183333,145,9,145,9,199,9,145,63,0,-0.261799,-1.19187e-05,-1.5,nan,0,0,3,0,0,0,0,0,0,0,0,2916,0,0,0,0
950,-3.21239e-12,0,-1.55831e-06,-3.27827e-12,0,-3.40903e-12,-1.06614e-13,0,0,-7.12963,-0.183333,0.264815,0,0,0,0,0,0.00458455,-0.183333,145,9,145,9,199,9,145,63,0,-0.261799,-1.15183e-05,-1.5,nan,0,0,3,0,0,0,0,0,0,0,0,2916,0,0,0,0
960,-3.21239e-12,0,-1.55831e-06,-3.27827e-12,0,0,-1.06615e-13,0,0,-7.12963,-0.183333,0.264815,0,0,0,0,0,0.00458455,-0.183333,145,9,145,9,199,9,145,63,0,-0.261799,-1.10408e-05,-1.5,nan,0,0,3,0,0,0,0,0,0,0,0,2916,0,0,0,0
970,-3.21239e-12,0,-1.55831e-06,-3.27827e-12,0,-3.40903e-12,-1.06615e-13,0,0,-7.12963,-0.183333,0.264815,0,0,0,0,0,0.00458455,-0.183333,145,9,145,9,199,9,145,63,0,-0.261799,-1.06045e-05,-1.5,nan,0,0,3,0,0,0,0,0,0,0,0,2916,0,0,0,0
980,-3.21239e-12,0,-1.55831e-06,-3.27827e-12,0,0,-1.06615e-13,0,0,-7.12963,-0.183333,0.264815,0,0,0,0,0,0.00458455,-0.183333,145,9,145,9,199,9,145,63,0,-0.261799,-1.02066e-05,-1.5,nan,0,0,3,0,0,0,0,0,0,0,0,2916,0,0,0,0
990,-3.21239e-12,0,-1.55831e-06,-3.27827e-12,0,-3.40903e-12,-1.06615e-13,0,0,-7.12963,-0.183333,0.264815,0,0,0,0,0,0.00458455,-0.183333,145,9,145,9,199,9,145,63,0,-0.261799,-9.8637e-06,-1.5,nan,0,0,3,0,0,0,0,0,0,0,0,2916,0,0,0,0
1000,-3.21239e-12,0,-1.55831e-06,-3.27827e-12,0,0,-1.06616e-13,0,0,-7.12963,-0.183333,0.264815,0,0,0,0,0,0.00458455,-0.183333,145,9,145,9,199,9,145,63,0,-0.261799,-9.53233e-06,-1.5,nan,0,0,3,0,0,0,0,0,0,0,0,2916,0,0,0,0
1010,-3.21239e-12,0,-1.55831e-06,-3.27827e-12,0,-3.40903e-12,-1.06616e-13,0,0,-7.12963,-0.183333,0.264815,0,0,0,0,0,0.00458455,-0.183333,145,9,145,9,199,9,145,63,0,-0.261799,-7.58313e-06,-1.5,nan,0,0,3,0,0,0,0,0,0,0,0,2916,0,0,0,0
1020,-3.21239e-12,0,-1.55831e-06,-3.27827e-12,0,0,-1.06616e-13,0,0,-7.12963,-0.183333,0.264815,0,0,0,0,0,0.00458455,-0.183333,145,9,145,9,199,9,145,63,0,-0.261799,-6.43468e-06,-1.5,nan,0,0,3,0,0,0,0,0,0,0,0,2916,0,0,0,0
1030,-3.21239e-12,0,-1.55831e-06,-3.27827e-12,0,-3.40903e-12,-1.06616e-13,0,0,-7.12963,-0.183333,0.264815,0,0,0,0,0,0.00458455,-0.183333,145,9,145,9,199,9,145,63,0,-0.261799,-6.23102e-06,-1.5,nan,0,0,3,0,0,0,0,0,0,0,0,2916,0,0,0,0
1040,-3.21239e-12,0,-1.55831e-06,-3.27827e-12,0,0,-1.06617e-13,0,0,-7.12963,-0.183333,0.264815,0,0,0,0,0,0.00458455,-0.183333,145,9,145,9,199,9,145,63,0,-0.261799,-6.00945e-06,-1.5,nan,0,0,3,0,0,0,0,0,0,0,0,2916,0,0,0,0
1050,-3.21239e-12,0,-1.55831e-06,-3.27827e-12,0,-3.40903e-12,-1.06617e-13,0,0,-7.12963,-0.183333,0.264815,0,0,0,0,0,0.00458455,-0.183333,145,9,145,9,199,9,145,63,0,-0.261799,-5.78396e-06,-1.5,nan,0,0,3,0,0,0,0,0,0,0,0,2916,0,0,0,0
1060,-3.21239e-12,0,-1.55831e-06,-3.27827e-12,0,0,-1.06617e-13,0,0,-7.12963,-0.183333,0.264815,0,0,0,0,0,0.00458455,-0.183333,145,9,145,9,199,9,145,63,0,-0.261799,-5.58965e-06,-1.5,nan,0,0,3,0,0,0,0,0,0,0,0,2916,0,0,0,0
1070,-3.21239e-12,0,-1.55831e-06,-3.27827e-12,0,-3.40903e-12,-1.06618e-13,0,0,-7.12963,-0.183333,0.264815,0,0,0,0,0,0.00458455,-0.183333,145,9,145,9,199,9,145,63,0,-0.261799,-5.32502e-06,-1.5,nan,0,0,3,0,0,0,0,0,0,0,0,2916,0,0,0,0
1080,-3.21239e-12,0,-1.55831e-06,-3.27827e-12,0,0,-1.06618e-13,0,0,-7.12963,-0.183333,0.264815,0,0,0,0,0,0.00458455,-0.183333,145,9,145,9,199,9,145,63,0,-0.261799,-5.15648e-06,-1.5,nan,0,0,3,0,0,0,0,0,0,0,0,2916,0,0,0,0
1090,-3.21239e-12,0,-1.55831e-06,-3.27827e-12,0,-3.40903e-12,-1.06618e-13,0,0,-7.12963,-0.183333,0.264815,0,0,0,0,0,0.00458455,-0.183333,145,9,145,9,199,9,145,63,0,-0.261799,-4.98313e-06,-1.5,nan,0,0,3,0,0,0,0,0,0,0,0,2916,0,0,0,0
1100,-3.21239e-12,0,-1.55831e-06,-3.27827e-12,0,0,-1.06618e-13,0,0,-7.12963,-0.183333,0.264815,0,0,0,0,0,0.00458455,-0.183333,145,9,145,9,199,9,145,63,0,-0.261799,-4.79615e-06,-1.5,nan,0,0,3,0,0,0,0,0,0,0,0,2916,0,0,0,0
1110,-3.21239e-12,0,-1.55831e-06,-3.27827e-12,0,-3.40903e-12,-1.06619e-13,0,0,-7.12963,-0.183333,0.264815,0,0,0,0,0,0.00458455,-0.183333,145,9,145,9,199,9,145,63,0,-0.261799,-4.61619e-06,-1.5,nan,0,0,3,0,0,0,0,0,0,0,0,2916,0,0,0,0
1120,-3.21239e-12,0,-1.55831e-06,-3.27827e-12,0,0,-1.06619e-13,0,0,-7.12963,-0.183333,0.264815,0,0,0,0,0,0.00458455,-0.183333,145,9,145,9,199,9,145,63,0,-0.261799,-4.44283e-06,-1.5,nan,0,0,3,0,0,0,0,0,0,0,0,2916,0,0,0,0
1130,-3.21239e-12,0,-1.55831e-06,-3.27827e-12,0,-3.40903e-12,-1.06619e-13,0,0,-7.12963,-0.183333,0.264815,0,0,0,0,0,0.00458455,-0.183333,145,9,145,9,199,9,145,63,0,-0.261799,-4.29347e-06,-1.5,nan,0,0,3,0,0,0,0,0,0,0,0,2916,0,0,0,0
1140,-3.21239e-12,0,-1.55831e-06,-3.27827e-12,0,0,-1.06619e-13,0,0,-7.12963,-0.183333,0.264815,0,0,0,0,0,0.00458455,-0.183333,145,9,145,9,199,9,145,63,0,-0.261799,-4.09882e-06,-1.5,nan,0,0,3,0,0,0,0,0,0,0,0,2916,0,0,0,0
1150,-3.21239e-12,0,-1.55831e-06,-3.27827e-12,0,-3.40903e-12,-1.0662e-13,0,0,-7.12963,-0.183333,0.264815,0,0,0,0,0,0.00458455,-0.183333,145,9,145,9,199,9,145,63,0,-0.261799,-3.96103e-06,-1.5,nan,0,0,3,0,0,0,0,0,0,0,0,2916,0,0,0,0
1160,-3.21239e-12,0,-1.55831e-06,-3.27827e-12,0,0,-1.0662e-13,0,0,-7.12963,-0.183333,0.264815,0,0,0,0,0,0.00458455,-0.183333,145,9,145,9,199,9,145,63,0,-0.261799,-3.82787e-06,-1.5,nan,0,0,3,0,0,0,0,0,0,0,0,2916,0,0,0,0
1170,-3.21239e-12,0,-1.55831e-06,-3.27827e-12,0,-3.40903e-12,-1.0662e-13,0,0,-6.82438,-0.214393,0.144616,0,0,0,0,0,0.129675,-0.214393,144,12,144,12,204,12,144,64,0,-0.261799,-3.69165e-06,-1.5,nan,0,0,3,0,0,0,0,0,0,0,0,3120,0,0,0,0
1180,-3.21239e-12,0,-1.55831e-06,-3.27827e-12,0,0,-1.0662e-13,0,0,-6.82438,-0.214393,0.144616,0,0,0,0,0,0.129675,-0.214393,144,12,144,12,204,12,144,64,0,-0.261799,-3.53862e-06,-1.5,nan,0,0,3,0,0,0,0,0,0,0,0,3120,0,0,0,0
1190,-3.21239e-12,0,-1.55831e-06,-3.27827e-12,0,-3.40903e-12,-1.06621e-13,0,0,-6.82438,-0.214393,0.144616,0,0,0,0,0,0.129675,-0.214393,144,12,144,12,204,12,144,64,0,-0.261799,-3.41279e-06,-1.5,nan,0,0,3,0,0,0,0,0,0,0,0,3120,0,0,0,0
1200,-3.21239e-12,0,-1.55831e-06,-3.27827e-12,0,0,-1.06621e-13,0,0,-6.82438,-0.214393,0.144616,0,0,0,0,0,0.129675,-0.214393,144,12,144,12,204,12,144,64,0,-0.261799,-3.31821e-06,-1.5,nan,0,0,3,0,0,0,0,0,0,0,0,3120,0,0,0,0
1210,-3.21239e-12,0,-1.55831e-06,-3.27827e-12,0,-3.40903e-12,-1.06621e-13,0,0,-6.77439,-0.212833,0.141062,0,0,0,0,0,0.149383,-0.212833,144,11,144,11,204,11,144,64,0,-0.261799,-3.20666e-06,-1.5,nan,0,0,3,0,0,0,0,0,0,0,0,3180,0,0,0,0
1220,-3.21239e-12,0,-1.55831e-06,-3.27827e-12,0,0,-1.06622e-13,0,0,-6.77439,-0.212833,0.141062,0,0,0,0,0,0.149383,-0.212833,144,11,144,11,204,11,144,64,0,-0.261799,-3.08624e-06,-1.5,nan,0,0,3,0,0,0,0,0,0,0,0,3180,0,0,0,0
1230,-3.21239e-12,0,-1.55831e-06,-3.27827e-12,0,-3.40903e-12,-1.06622e-13,0,0,-6.77439,-0.212833,0.141062,0,0,0,0,0,0.149383,-0.212833,144,11,144,11,204,11,144,64,0,-0.261799,-2.97043e-06,-1.5,nan,0,0,3,0,0,0,0,0,0,0,0,3180,0,0,0,0
1240,-3.21239e-12,0,-1.55831e-06,-3.27827e-12,0,0,-1.06622e-13,0,0,-6.99353,-0.219775,0.188498,0,0,0,0,0,0.0613611,-0.219775,146,11,146,11,202,11,146,65,0,-0.261799,-2.87064e-06,-1.5,nan,0,0,3,0,0,0,0,0,0,0,0,3024,0,0,0,0
1250,-3.21239e-12,0,-1.55831e-06,-3.27827e-12,0,-3.40903e-12,-1.06622e-13,0,0,-6.99353,-0.219775,0.188498,0,0,0,0,0,0.0613611,-0.219775,146,11,146,11,202,11,146,65,0,-0.261799,-2.77421e-06,-1.5,nan,0,0,3,0,0,0,0,0,0,0,0,3024,0,0,0,0
1260,-3.21239e-12,0,-1.55831e-06,-3.27827e-12,0,0,-1.06623e-13,0,0,-6.99353,-0.219775,0.188498,0,0,0,0,0,0.0613611,-0.219775,146,11,146,11,202,11,146,65,0,-0.261799,-2.67002e-06,-1.5,nan,0,0,3,0,0,0,0,0,0,0,0,3024,0,0,0,0
1270,-3.21239e-12,0,-1.55831e-06,-3.27827e-12,0,-3.40903e-12,-1.06623e-13,0,0,-6.99353,-0.219775,0.188498,0,0,0,0,0,0.0613611,-0.219775,146,11,146,11,202,11,146,65,0,-0.261799,-2.58026e-06,-1.5,nan,0,0,3,0,0,0,0,0,0,0,0,3024,0,0,0,0
1280,-3.21239e-12,0,-1.55831e-06,-3.27827e-12,0,0,-1.06623e-13,0,0,-7.06146,-0.211833,0.226431,0,0,0,0,0,0.0332263,-0.211833,146,10,146,10,201,10,146,64,0,-0.261799,-2.47321e-06,-1.5,nan,0,0,3,0,0,0,0,0,0,0,0,2970,0,0,0,0
1290,-3.21239e-12,0,-1.55831e-06,-3.27827e-12,0,-3.40903e-12,-1.06623e-13,0,0,-7.06146,-0.211833,0.226431,0,0,0,0,0,0.0332263,-0.211833,146,10,146,10,201,10,146,64,0,-0.261799,-2.3804e-06,-1.5,nan,0,0,3,0,0,0,0,0,0,0,0,2970,0,0,0,0
1300,-3.21239e-12,0,-1.55831e-06,-3.27827e-12,0,0,-1.06624e-13,0,0,-7.06146,-0.211833,0.226431,0,0,0,0,0,0.0332263,-0.211833,146,10,146,10,201,10,146,64,0,-0.261799,-2.29109e-06,-1.5,nan,0,0,3,0,0,0,0,0,0,0,0,2970,0,0,0,0
1310,-3.21239e-12,0,-1.55831e-06,-3.27827e-12,0,-3.40903e-12,-1.06624e-13,0,0,-7.32807,-0.188481,0.265273,0,0,0,0,0,-0.0811014,-0.188481,147,11,147,11,197,11,147,66,0,-0.261799,-2.21857e-06,-1.5,nan,0,0,3,0,0,0,0,0,0,0,0,2750,0,0,0,0
1320,-3.21239e-12,0,-1.55831e-06,-3.27827e-12,0,0,-1.06624e-13,0,0,-7.32807,-0.188481,0.265273,0,0,0,0,0,-0.0811014,-0.188481,147,11,147,11,197,11,147,66,0,-0.261799,-1.73353e-06,-1.5,nan,0,0,3,0,0,0,0,0,0,0,0,2750,0,0,0,0
1330,-3.21239e-12,0,-1.55831e-06,-3.27827e-12,0,-3.40903e-12,-1.06625e-13,0,0,-7.32807,-0.188481,0.265273,0,0,0,0,0,-0.0811014,-0.188481,147,11,147,11,197,11,147,66,0,-0.261799,-1.51526e-06,-1.5,nan,0,0,3,0,0,0,0,0,0,0,0,2750,0,0,0,0
1340,-3.21239e-12,0,-1.55831e-06,-3.27827e-12,0,0,-1.06625e-13,0,0,-7.32807,-0.188481,0.265273,0,0,0,0,0,-0.0811014,-0.188481,147,11,147,11,197,11,147,66,0,-0.261799,-1.46435e-06,-1.5,nan,0,0,3,0,0,0,0,0,0,0,0,2750,0,0,0,0
1350,-3.21239e-12,0,-1.55831e-06,-3.27827e-12,0,-3.40903e-12,-1.06625e-13,0,0,-7.32807,-0.188481,0.265273,0,0,0,0,0,-0.0811014,-0.188481,147,11,147,11,197,11,147,66,0,-0.261799,-1.41224e-06,-1.5,nan,0,0,3,0,0,0,0,0,0,0,0,2750,0,0,0,0
1360,-3.21239e-12,0,-1.55831e-06,-3.27827e-12,0,0,-1.06625e-13,0,0,-7.32807,-0.188481,0.265273,0,0,0,0,0,-0.0811014,-0.188481,147,11,147,11,197,11,147,66,0,-0.261799,-1.35925e-06,-1.5,nan,0,0,3,0,0,0,0,0,0,0,0,2750,0,0,0,0
1370,-3.21239e-12,0,-1.55831e-06,-3.27827e-12,0,-3.40903e-12,-1.06626e-13,0,0,-7.32807,-0.188481,0.265273,0,0,0,0,0,-0.0811014,-0.188481,147,11,147,11,197,11,147,66,0,-0.261799,-1.31355e-06,-1.5,nan,0,0,3,0,0,0,0,0,0,0,0,2750,0,0,0,0
1380,-3.21239e-12,0,-1.55831e-06,-3.27827e-12,0,0,-1.06626e-13,0,0,-7.32807,-0.188481,0.265273,0,0,0,0,0,-0.0811014,-0.188481,147,11,147,11,197,11,147,66,0,-0.261799,-1.27717e-06,-1.5,nan,0,0,3,0,0,0,0,0,0,0,0,2750,0,0,0,0
1390,-3.21239e-12,0,-1.55831e-06,-3.27827e-12,0,-3.40903e-12,-1.06626e-13,0,0,-7.00185,-0.22008,0.190288,0,0,0,0,0,0.0579381,-0.22008,147,10,147,10,201,10,147,66,0,-0.261799,-1.23175e-06,-1.5,nan,0,0,3,0,0,0,0,0,0,0,0,3024,0,0,0,0
1400,-3.21239e-12,0,-1.55831e-06,-3.27827e-12,0,0,-1.06626e-13,0,0,-7.00185,-0.22008,0.190288,0,0,0,0,0,0.0579381,-0.22008,147,10,147,10,201,10,147,66,0,-0.261799,-1.18553e-06,-1.5,nan,0,0,3,0,0,0,0,0,0,0,0,3024,0,0,0,0
1410,-3.21239e-12,0,-1.55831e-06,-3.27827e-12,0,-3.40903e-12,-1.06627e-13,0,0,-7.00185,-0.22008,0.190288,0,0,0,0,0,0.0579381,-0.22008,147,10,147,10,201,10,147,66,0,-0.261799,-1.14568e-06,-1.5,nan,0,0,3,0,0,0,0,0,0,0,0,3024,0,0,0,0
1420,-3.21239e-12,0,-1.55831e-06,-3.27827e-12,0,0,-1.06627e-13,0,0,-6.86723,-0.186454,0.1447,0,0,0,0,0,0.112603,-0.186454,146,9,146,9,199,9,146,68,0.187978,-0.261799,-9.04873e-07,-1.5,nan,0,0,3,0.056522,-0.180486,0,0,0,0,-0.00868769,0.0628207,3127,0.0573474,-0.186454,-0.00868769,0.0628207
1430,-3.21239e-12,0,-1.55831e-06,-3.27827e-12,0,-3.40903e-12,-1.06627e-13,0,0,-6.86723,-0.186454,0.1447,0,0,0,0,0,0.112603,-0.186454,146,9,146,9,199,9,146,68,0.185538,-0.261799,-8.58528e-07,-1.5,nan,0,0,3,0.0562962,-0.178853,0,0,0,0,-0.00868769,0.0628207,3127,0.0573474,-0.186454,-0.00868769,0.0628207
1440,-3.21239e-12,0,-1.55831e-06,-3.27827e-12,0,0,-1.06628e-13,0,0,-6.86723,-0.186454,0.1447,0,0,0,0,0,0.112603,-0.186454,146,9,146,9,199,9,146,68,0.183943,-0.261799,-8.29666e-07,-1.5,nan,0,0,3,0.0561485,-0.177785,0,0,0,0,-0.00868769,0.0628207,3127,0.0573474,-0.186454,-0.00868769,0.0628207
1450,-3.21239e-12,0,-1.55831e-06,-3.27827e-12,0,-3.40903e-12,-1.06628e-13,0,0,-7.26415,-0.217925,0.249057,0,0,0,0,0,-0.0531263,-0.217925,147,12,147,12,200,12,147,65,0.261799,-0.261799,-6.50216e-07,-1.5,nan,0,0,3,-0.0716161,-0.218666,0,0,0,0,-0.186766,-0.00748809,2809,-0.0531263,-0.217925,-0.186766,-0.00748809
1460,-3.21239e-12,0,-1.55831e-06,-3.27827e-12,0,0,-1.06628e-13,0,0,-7.26415,-0.217925,0.249057,0,0,0,0,0,-0.0531263,-0.217925,147,12,147,12,200,12,147,65,0.261799,-0.261799,-6.18155e-07,-1.5,nan,0,0,3,-0.0762851,-0.218853,0,0,0,0,-0.186766,-0.00748809,2809,-0.0531263,-0.217925,-0.186766,-0.00748809
1470,-3.21239e-12,0,-1.55831e-06,-3.27827e-12,0,-3.40903e-12,-1.06628e-13,0,0,-7.26415,-0.217925,0.249057,0,0,0,0,0,-0.0531263,-0.217925,147,12,147,12,200,12,147,65,0.261799,-0.261799,-5.9496e-07,-1.5,nan,0,0,3,-0.0798336,-0.218995,0,0,0,0,-0.186766,-0.00748809,2809,-0.0531263,-0.217925,-0.186766,-0.00748809
1480,-3.21239e-12,0,-1.55831e-06,-3.27827e-12,0,0,-1.06629e-13,0,0,-7.26269,-0.217923,0.248281,0,0,0,0,0,-0.0524926,-0.217923,148,11,148,11,199,11,148,66,0.261799,-0.261799,-4.67025e-07,-1.5,nan,0,0,3,-0.071956,-0.219012,0,0,0,0,-0.159631,-0.00650301,2805,-0.0564718,-0.218381,-0.159631,-0.00650301
1490,-3.21239e-12,0,-1.55831e-06,-3.27827e-12,0,-3.40903e-12,-1.06629e-13,0,0,-7.26269,-0.217923,0.248281,0,0,0,0,0,-0.0524926,-0.217923,148,11,148,11,199,11,148,66,0.261799,-0.261799,-4.46749e-07,-1.5,nan,0,0,3,-0.0754678,-0.219155,0,0,0,0,-0.159631,-0.00650301,2805,-0.0564718,-0.218381,-0.159631,-0.00650301
1500,-3.21239e-12,0,-1.55831e-06,-3.27827e-12,0,0,-1.06629e-13,0,0,-7.26269,-0.217923,0.248281,0,0,0,0,0,-0.0524926,-0.217923,148,11,148,11,199,11,148,66,0.261799,-0.261799,-4.29971e-07,-1.5,nan,0,0,3,-0.0785007,-0.219279,0,0,0,0,-0.159631,-0.00650301,2805,-0.0564718,-0.218381,-0.159631,-0.00650301
1510,-3.21239e-12,0,-1.55831e-06,-3.27827e-12,0,-3.40903e-12,-1.06629e-13,0,0,-7.33407,-0.220054,0.256563,0,0,0,0,0,-0.0837464,-0.220054,148,12,148,12,199,12,148,66,0.261799,-0.261799,-3.36409e-07,-1.5,nan,0,0,3,-0.0954166,-0.220834,0,0,0,0,-0.1544,-0.00733854,2754,-0.080131,-0.220107,-0.1544,-0.00733854
1520,-3.21239e-12,0,-1.55831e-06,-3.27827e-12,0,0,-1.0663e-13,0,0,-7.33407,-0.220054,0.256563,0,0,0,0,0,-0.0837464,-0.220054,148,12,148,12,199,12,148,66,0.261799,-0.261799,-3.19821e-07,-1.5,nan,0,0,3,-0.0992765,-0.221017,0,0,0,0,-0.1544,-0.00733854,2754,-0.080131,-0.220107,-0.1544,-0.00733854
1530,-3.21239e-12,0,-1.55831e-06,-3.27827e-12,0,-3.40903e-12,-1.0663e-13,0,0,-7.33407,-0.220054,0.256563,0,0,0,0,0,-0.0837464,-0.220054,148,12,148,12,199,12,148,66,0.261799,-0.261799,-3.09705e-07,-1.5,nan,0,0,3,-0.101747,-0.221135,0,0,0,0,-0.1544,-0.00733854,2754,-0.080131,-0.220107,-0.1544,-0.00733854
1540,-3.21239e-12,0,-1.55831e-06,-3.27827e-12,0,0,-1.0663e-13,0,0,-7.33407,-0.220054,0.256563,0,0,0,0,0,-0.0837464,-0.220054,148,12,148,12,199,12,148,66,0.261799,-0.261799,-2.60367e-07,-1.5,nan,0,0,3,-0.114253,-0.221729,0,0,0,0,-0.1544,-0.00733854,2754,-0.080131,-0.220107,-0.1544,-0.00733854
1550,-3.21239e-12,0,-1.55831e-06,-3.27827e-12,0,-3.40903e-12,-1.06631e-13,0,0,-7.33407,-0.220054,0.256563,0,0,0,0,0,-0.0837464,-0.220054,148,12,148,12,199,12,148,66,0.261799,-0.261799,-2.4804e-07,-1.5,nan,0,0,3,-0.117958,-0.221905,0,0,0,0,-0.1544,-0.00733854,2754,-0.080131,-0.220107,-0.1544,-0.00733854
1560,-3.21239e-12,0,-1.55831e-06,-3.27827e-12,0,0,-1.06631e-13,0,0,-7.33407,-0.220054,0.256563,0,0,0,0,0,-0.0837464,-0.220054,148,12,148,12,199,12,148,66,0.261799,-0.261799,-2.39702e-07,-1.5,nan,0,0,3,-0.120583,-0.22203,0,0,0,0,-0.1544,-0.00733854,2754,-0.080131,-0.220107,-0.1544,-0.00733854
1570,-3.21239e-12,0,-1.55831e-06,-3.27827e-12,0,-3.40903e-12,-1.06631e-13,0,0,-7.33407,-0.220054,0.256563,0,0,0,0,0,-0.0837464,-0.220054,148,12,148,12,199,12,148,66,0.261799,-0.261799,-2.30708e-07,-1.5,nan,0,0,3,-0.123517,-0.222169,0,0,0,0,-0.1544,-0.00733854,2754,-0.080131,-0.220107,-0.1544,-0.00733854
1580,-3.21239e-12,0,-1.55831e-06,-3.27827e-12,0,0,-1.06631e-13,0,0,-7.33407,-0.220054,0.256563,0,0,0,0,0,-0.0837464,-0.220054,148,12,148,12,199,12,148,66,0.261799,-0.261799,-2.23406e-07,-1.5,nan,0,0,3,-0.125987,-0.222287,0,0,0,0,-0.1544,-0.00733854,2754,-0.080131,-0.220107,-0.1544,-0.00733854
1590,-3.21239e-12,0,-1.55831e-06,-3.27827e-12,0,-3.40903e-12,-1.06632e-13,0,0,-7.33407,-0.220054,0.256563,0,0,0,0,0,-0.0837464,-0.220054,148,12,148,12,199,12,148,66,0.261799,-0.261799,-2.14136e-07,-1.5,nan,0,0,3,-0.129229,-0.222441,0,0,0,0,-0.1544,-0.00733854,2754,-0.080131,-0.220107,-0.1544,-0.00733854
1600,-3.21239e-12,0,-1.55831e-06,-3.27827e-12,0,0,-1.06632e-13,0,0,-7.33407,-0.220054,0.256563,0,0,0,0,0,-0.0837464,-0.220054,148,12,148,12,199,12,148,66,0.261799,-0.261799,-2.06101e-07,-1.5,nan,0,0,3,-0.132163,-0.22258,0,0,0,0,-0.1544,-0.00733854,2754,-0.080131,-0.220107,-0.1544,-0.00733854
1610,-3.21239e-12,0,-1.55831e-06,-3.27827e-12,0,-3.40903e-12,-1.06632e-13,0,0,-7.33407,-0.220054,0.256563,0,0,0,0,0,-0.0837464,-0.220054,148,12,148,12,199,12,148,66,0.261799,-0.261799,-1.99178e-07,-1.5,nan,0,0,3,-0.134787,-0.222705,0,0,0,0,-0.1544,-0.00733854,2754,-0.080131,-0.220107,-0.1544,-0.00733854
1620,-3.21239e-12,0,-1.55831e-06,-3.27827e-12,0,0,-1.06632e-13,0,0,-7.33407,-0.220054,0.256563,0,0,0,0,0,-0.0837464,-0.220054,148,12,148,12,199,12,148,66,0.261799,-0.261799,-1.91704e-07,-1.5,nan,0,0,3,-0.137721,-0.222845,0,0,0,0,-0.1544,-0.00733854,2754,-0.080131,-0.220107,-0.1544,-0.00733854
1630,-3.21239e-12,0,-1.55831e-06,-3.27827e-12,0,-3.40903e-12,-1.06633e-13,0,0,-7.33407,-0.220054,0.256563,0,0,0,0,0,-0.0837464,-0.220054,148,12,148,12,199,12,148,66,0.261799,-0.261799,-1.84887e-07,-1.5,nan,0,0,3,-0.1405,-0.222977,0,0,0,0,-0.1544,-0.00733854,2754,-0.080131,-0.220107,-0.1544,-0.00733854
1640,-3.21239e-12,0,-1.55831e-06,-3.27827e-12,0,0,-1.06633e-13,0,0,-7.33407,-0.220054,0.256563,0,0,0,0,0,-0.0837464,-0.220054,148,12,148,12,199,12,148,66,0.261799,-0.261799,-1.76852e-07,-1.5,nan,0,0,3,-0.143897,-0.223138,0,0,0,0,-0.1544,-0.00733854,2754,-0.080131,-0.220107,-0.1544,-0.00733854
1650,-3.21239e-12,0,-1.55831e-06,-3.27827e-12,0,-3.40903e-12,-1.06633e-13,0,0,-7.33407,-0.220054,0.256563,0,0,0,0,0,-0.0837464,-0.220054,148,12,148,12,199,12,148,66,0.261799,-0.261799,-1.70907e-07,-1.5,nan,0,0,3,-0.146521,-0.223263,0,0,0,0,-0.1544,-0.00733854,2754,-0.080131,-0.220107,-0.1544,-0.00733854
1660,-3.21239e-12,0,-1.55831e-06,-3.27827e-12,0,0,-1.06634e-13,0,0,-7.33407,-0.220054,0.256563,0,0,0,0,0,-0.0837464,-0.220054,148,12,148,12,199,12,148,66,0.261799,-0.261799,-1.63816e-07,-1.5,nan,0,0,3,-0.149764,-0.223417,0,0,0,0,-0.1544,-0.00733854,2754,-0.080131,-0.220107,-0.1544,-0.00733854
1670,-3.21239e-12,0,-1.55831e-06,-3.27827e-12,0,-3.40903e-12,-1.06634e-13,0,0,-7.33407,-0.220054,0.256563,0,0,0,0,0,-0.0837464,-0.220054,148,12,148,12,199,12,148,66,0.261799,-0.261799,-1.58634e-07,-1.5,nan,0,0,3,-0.152234,-0.223534,0,0,0,0,-0.1544,-0.00733854,2754,-0.080131,-0.220107,-0.1544,-0.00733854
1680,-3.21239e-12,0,-1.55831e-06,-3.27827e-12,0,0,-1.06634e-13,0,0,-7.33407,-0.220054,0.256563,0,0,0,0,0,-0.0837464,-0.220054,148,12,148,12,199,12,148,66,0.261799,-0.261799,-1.53305e-07,-1.5,nan,0,0,3,-0.154859,-0.223659,0,0,0,0,-0.1544,-0.00733854,2754,-0.080131,-0.220107,-0.1544,-0.00733854
1690,-3.21239e-12,0,-1.55831e-06,-3.27827e-12,0,-3.40903e-12,-1.06634e-13,0,0,-7.33407,-0.220054,0.256563,-0.158409,-0.223828,-0.154091,-0.00732387,0,-0.0837464,-0.220054,148,12,148,12,199,12,148,66,0.261799,-0.261799,-1.46348e-07,-1.5,nan,0,0,3,-0.158409,-0.223828,0,0,0,0,-0.154091,-0.00732387,2754,0,0,0,0
1700,-3.21239e-12,0,-1.55831e-06,-3.27827e-12,0,0,-1.06635e-13,0,0,-7.33407,-0.220054,0.256563,-0.161014,-0.223952,-0.152785,-0.00726179,0,-0.0837464,-0.220054,148,12,148,12,199,12,148,66,0.261799,-0.261799,-1.41428e-07,-1.5,nan,0,0,3,-0.161014,-0.223952,0,0,0,0,-0.152785,-0.00726179,2754,0,0,0,0
1710,-3.21239e-12,0,-1.55831e-06,-3.27827e-12,0,-3.40903e-12,-1.06635e-13,0,0,-7.33407,-0.220054,0.256563,-0.163898,-0.224089,-0.151338,-0.00719302,0,-0.0837464,-0.220054,148,12,148,12,199,12,148,66,0.261799,-0.261799,-1.36121e-07,-1.5,nan,0,0,3,-0.163898,-0.224089,0,0,0,0,-0.151338,-0.00719302,2754,0,0,0,0
1720,-3.21239e-12,0,-1.55831e-06,-3.27827e-12,0,0,-1.06635e-13,0,0,-7.33407,-0.220054,0.256563,-0.166755,-0.224225,-0.149905,-0.0071249,0,-0.0837464,-0.220054,148,12,148,12,199,12,148,66,0.261799,-0.261799,-1.31014e-07,-1.5,nan,0,0,3,-0.166755,-0.224225,0,0,0,0,-0.149905,-0.0071249,2754,0,0,0,0
1730,-3.21239e-12,0,-1.55831e-06,-3.27827e-12,0,-3.40903e-12,-1.06635e-13,0,0,-7.33407,-0.220054,0.256563,-0.169585,-0.224359,-0.148485,-0.00705743,0,-0.0837464,-0.220054,148,12,148,12,199,12,148,66,0.261799,-0.261799,-1.26098e-07,-1.5,nan,0,0,3,-0.169585,-0.224359,0,0,0,0,-0.148485,-0.00705743,2754,0,0,0,0
1740,-3.21239e-12,0,-1.55831e-06,-3.27827e-12,0,0,-1.06636e-13,0,0,-7.33407,-0.220054,0.256563,-0.17268,-0.224506,-0.146931,-0.00698355,0,-0.0837464,-0.220054,148,12,148,12,199,12,148,66,0.261799,-0.261799,-1.20866e-07,-1.5,nan,0,0,3,-0.17268,-0.224506,0,0,0,0,-0.146931,-0.00698355,2754,0,0,0,0
1750,-3.21239e-12,0,-1.55831e-06,-3.27827e-12,0,-3.40903e-12,-1.06636e-13,0,0,-7.33407,-0.220054,0.256563,-0.175164,-0.224624,-0.145685,-0.00692436,0,-0.0837464,-0.220054,148,12,148,12,199,12,148,66,0.261799,-0.261799,-1.16803e-07,-1.5,nan,0,0,3,-0.175164,-0.224624,0,0,0,0,-0.145685,-0.00692436,2754,0,0,0,0
1760,-3.21239e-12,0,-1.55831e-06,-3.27827e-12,0,0,-1.06636e-13,0,0,-7.33407,-0.220054,0.256563,-0.17777,-0.224748,-0.144378,-0.00686222,0,-0.0837464,-0.220054,148,12,148,12,199,12,148,66,0.261799,-0.261799,-1.12646e-07,-1.5,nan,0,0,3,-0.17777,-0.224748,0,0,0,0,-0.144378,-0.00686222,2754,0,0,0,0
1770,-3.21239e-12,0,-1.55831e-06,-3.27827e-12,0,-3.40903e-12,-1.06636e-13,0,0,-7.33407,-0.220054,0.256563,-0.180638,-0.224884,-0.142939,-0.00679382,0,-0.0837464,-0.220054,148,12,148,12,199,12,148,66,0.261799,-0.261799,-1.08198e-07,-1.5,nan,0,0,3,-0.180638,-0.224884,0,0,0,0,-0.142939,-0.00679382,2754,0,0,0,0
1780,-3.21239e-12,0,-1.55831e-06,-3.27827e-12,0,0,-1.06637e-13,0,0,-7.33407,-0.220054,0.256563,-0.183055,-0.224999,-0.141728,-0.00673624,0,-0.0837464,-0.220054,148,12,148,12,199,12,148,66,0.261799,-0.261799,-1.04563e-07,-1.5,nan,0,0,3,-0.183055,-0.224999,0,0,0,0,-0.141728,-0.00673624,2754,0,0,0,0
1790,-3.21239e-12,0,-1.55831e-06,-3.27827e-12,0,-3.40903e-12,-1.06637e-13,0,0,-7.33407,-0.220054,0.256563,-0.18587,-0.225133,-0.140315,-0.0066691,0,-0.0837464,-0.220054,148,12,148,12,199,12,148,66,0.261799,-0.261799,-1.00434e-07,-1.5,nan,0,0,3,-0.18587,-0.225133,0,0,0,0,-0.140315,-0.0066691,2754,0,0,0,0
1800,-3.21239e-12,0,-1.55831e-06,-3.27827e-12,0,0,-1.06637e-13,0,0,-7.33407,-0.220054,0.256563,-0.188104,-0.225239,-0.139196,-0.0066159,0,-0.0837464,-0.220054,148,12,148,12,199,12,148,66,0.261799,-0.261799,-9.72575e-08,-1.5,nan,0,0,3,-0.188104,-0.225239,0,0,0,0,-0.139196,-0.0066159,2754,0,0,0,0
1810,-3.21239e-12,0,-1.55831e-06,-3.27827e-12,0,-3.40903e-12,-1.06638e-13,0,0,-7.33407,-0.220054,0.256563,-0.190182,-0.225338,-0.138155,-0.00656642,0,-0.0837464,-0.220054,148,12,148,12,199,12,148,66,0.261799,-0.261799,-9.43723e-08,-1.5,nan,0,0,3,-0.190182,-0.225338,0,0,0,0,-0.138155,-0.00656642,2754,0,0,0,0
1820,-3.21239e-12,0,-1.55831e-06,-3.27827e-12,0,0,-1.06638e-13,0,0,-7.33407,-0.220054,0.256563,-0.19279,-0.225462,-0.136846,-0.00650423,0,-0.0837464,-0.220054,148,12,148,12,199,12,148,66,0.261799,-0.261799,-9.08312e-08,-1.5,nan,0,0,3,-0.19279,-0.225462,0,0,0,0,-0.136846,-0.00650423,2754,0,0,0,0
1830,-3.21239e-12,0,-1.55831e-06,-3.27827e-12,0,-3.40903e-12,-1.06638e-13,0,0,-7.33407,-0.220054,0.256563,-0.194968,-0.225566,-0.135754,-0.00645234,0,-0.0837464,-0.220054,148,12,148,12,199,12,148,66,0.261799,-0.261799,-8.79564e-08,-1.5,nan,0,0,3,-0.194968,-0.225566,0,0,0,0,-0.135754,-0.00645234,2754,0,0,0,0
1840,-3.21239e-12,0,-1.55831e-06,-3.27827e-12,0,0,-1.06638e-13,0,0,-7.33407,-0.220054,0.256563,-0.197932,-0.225706,-0.134266,-0.0063816,0,-0.0837464,-0.220054,148,12,148,12,199,12,148,66,0.261799,-0.261799,-8.41377e-08,-1.5,nan,0,0,3,-0.197932,-0.225706,0,0,0,0,-0.134266,-0.0063816,2754,0,0,0,0
1850,-3.21239e-12,0,-1.55831e-06,-3.27827e-12,0,-3.40903e-12,-1.06639e-13,0,0,-7.33407,-0.220054,0.256563,-0.200202,-0.225814,-0.133128,-0.00632751,0,-0.0837464,-0.220054,148,12,148,12,199,12,148,66,0.261799,-0.261799,-8.13092e-08,-1.5,nan,0,0,3,-0.200202,-0.225814,0,0,0,0,-0.133128,-0.00632751,2754,0,0,0,0
1860,-3.21239e-12,0,-1.55831e-06,-3.27827e-12,0,0,-1.06639e-13,0,0,-7.33407,-0.220054,0.256563,-0.202583,-0.225927,-0.131933,-0.00627073,0,-0.0837464,-0.220054,148,12,148,12,199,12,148,66,0.261799,-0.261799,-7.84157e-08,-1.5,nan,0,0,3,-0.202583,-0.225927,0,0,0,0,-0.131933,-0.00627073,2754,0,0,0,0
1870,-3.21239e-12,0,-1.55831e-06,-3.27827e-12,0,-3.40903e-12,-1.06639e-13,0,0,-7.33407,-0.220054,0.256563,-0.204944,-0.22604,-0.13075,-0.00621447,0,-0.0837464,-0.220054,148,12,148,12,199,12,148,66,0.261799,-0.261799,-7.56274e-08,-1.5,nan,0,0,3,-0.204944,-0.22604,0,0,0,0,-0.13075,-0.00621447,2754,0,0,0,0
1880,-3.21239e-12,0,-1.55831e-06,-3.27827e-12,0,0,-1.06639e-13,0,0,-7.33407,-0.220054,0.256563,-0.207541,-0.226163,-0.129446,-0.00615251,0,-0.0837464,-0.220054,148,12,148,12,199,12,148,66,0.261799,-0.261799,-7.26384e-08,-1.5,nan,0,0,3,-0.207541,-0.226163,0,0,0,0,-0.129446,-0.00615251,2754,0,0,0,0
1890,-3.21239e-12,0,-1.55831e-06,-3.27827e-12,0,-3.40903e-12,-1.0664e-13,0,0,-7.33407,-0.220054,0.256563,-0.210239,-0.226291,-0.128091,-0.0060881,0,-0.0837464,-0.220054,148,12,148,12,199,12,148,66,0.261799,-0.261799,-6.96245e-08,-1.5,nan,0,0,3,-0.210239,-0.226291,0,0,0,0,-0.128091,-0.0060881,2754,0,0,0,0
1900,-3.21239e-12,0,-1.55831e-06,-3.27827e-12,0,0,-1.0664e-13,0,0,-7.33407,-0.220054,0.256563,-0.212404,-0.226394,-0.127005,-0.0060365,0,-0.0837464,-0.220054,148,12,148,12,199,12,148,66,0.261799,-0.261799,-6.72839e-08,-1.5,nan,0,0,3,-0.212404,-0.226394,0,0,0,0,-0.127005,-0.0060365,2754,0,0,0,0
1910,-3.21239e-12,0,-1.55831e-06,-3.27827e-12,0,-3.40903e-12,-1.0664e-13,0,0,-7.33407,-0.220054,0.256563,-0.214927,-0.226514,-0.125739,-0.00597632,0,-0.0837464,-0.220054,148,12,148,12,199,12,148,66,0.261799,-0.261799,-6.46247e-08,-1.5,nan,0,0,3,-0.214927,-0.226514,0,0,0,0,-0.125739,-0.00597632,2754,0,0,0,0
1920,-3.21239e-12,0,-1.55831e-06,-3.27827e-12,0,0,-1.06641e-13,0,0,-7.33407,-0.220054,0.256563,-0.217176,-0.226621,-0.124611,-0.0059227,0,-0.0837464,-0.220054,148,12,148,12,199,12,148,66,0.261799,-0.261799,-6.23267e-08,-1.5,nan,0,0,3,-0.217176,-0.226621,0,0,0,0,-0.124611,-0.0059227,2754,0,0,0,0
1930,-3.21239e-12,0,-1.55831e-06,-3.27827e-12,0,-3.40903e-12,-1.06641e-13,0,0,-7.33407,-0.220054,0.256563,-0.219406,-0.226727,-0.123493,-0.00586956,0,-0.0837464,-0.220054,148,12,148,12,199,12,148,66,0.261799,-0.261799,-6.01105e-08,-1.5,nan,0,0,3,-0.219406,-0.226727,0,0,0,0,-0.123493,-0.00586956,2754,0,0,0,0
1940,-3.21239e-12,0,-1.55831e-06,-3.27827e-12,0,0,-1.06641e-13,0,0,-7.33407,-0.220054,0.256563,-0.221494,-0.226826,-0.122446,-0.00581981,0,-0.0837464,-0.220054,148,12,148,12,199,12,148,66,0.261799,-0.261799,-5.80897e-08,-1.5,nan,0,0,3,-0.221494,-0.226826,0,0,0,0,-0.122446,-0.00581981,2754,0,0,0,0
1950,-3.21239e-12,0,-1.55831e-06,-3.27827e-12,0,-3.40903e-12,-1.06641e-13,0,0,-7.33407,-0.220054,0.256563,-0.223805,-0.226936,-0.121286,-0.00576468,0,-0.0837464,-0.220054,148,12,148,12,199,12,148,66,0.261799,-0.261799,-5.59082e-08,-1.5,nan,0,0,3,-0.223805,-0.226936,0,0,0,0,-0.121286,-0.00576468,2754,0,0,0,0
1960,-3.21239e-12,0,-1.55831e-06,-3.27827e-12,0,0,-1.06642e-13,0,0,-7.33407,-0.220054,0.256563,-0.226094,-0.227045,-0.120137,-0.00571008,0,-0.0837464,-0.220054,148,12,148,12,199,12,148,66,0.261799,-0.261799,-5.38086e-08,-1.5,nan,0,0,3,-0.226094,-0.227045,0,0,0,0,-0.120137,-0.00571008,2754,0,0,0,0
1970,-3.21239e-12,0,-1.55831e-06,-3.27827e-12,0,-3.40903e-12,-1.06642e-13,0,0,-7.33407,-0.220054,0.256563,-0.228125,-0.227141,-0.119119,-0.00566168,0,-0.0837464,-0.220054,148,12,148,12,199,12,148,66,0.261799,-0.261799,-5.19996e-08,-1.5,nan,0,0,3,-0.228125,-0.227141,0,0,0,0,-0.119119,-0.00566168,2754,0,0,0,0
1980,-3.21239e-12,0,-1.55831e-06,-3.27827e-12,0,0,-1.06642e-13,0,0,-7.33407,-0.220054,0.256563,-0.230374,-0.227248,-0.117991,-0.00560805,0,-0.0837464,-0.220054,148,12,148,12,199,12,148,66,0.261799,-0.261799,-5.00468e-08,-1.5,nan,0,0,3,-0.230374,-0.227248,0,0,0,0,-0.117991,-0.00560805,2754,0,0,0,0
1990,-3.21239e-12,0,-1.55831e-06,-3.27827e-12,0,-3.40903e-12,-1.06642e-13,0,0,-7.33407,-0.220054,0.256563,-0.233065,-0.227376,-0.116639,-0.00554378,0,-0.0837464,-0.220054,148,12,148,12,199,12,148,66,0.261799,-0.261799,-4.77757e-08,-1.5,nan,0,0,3,-0.233065,-0.227376,0,0,0,0,-0.116639,-0.00554378,2754,0,0,0,0
2000,-3.21239e-12,0,-1.55831e-06,-3.27827e-12,0,0,-1.06643e-13,0,0,-7.33407,-0.220054,0.256563,-0.235037,-0.22747,-0.11565,-0.00549679,0,-0.0837464,-0.220054,148,12,148,12,199,12,148,66,0.261799,-0.261799,-4.61696e-08,-1.5,nan,0,0,3,-0.235037,-0.22747,0,0,0,0,-0.11565,-0.00549679,2754,0,0,0,0
2010,-3.21239e-12,0,-1.55831e-06,-3.27827e-12,0,-3.40903e-12,-1.06643e-13,0,0,-7.33407,-0.220054,0.256563,-0.237106,-0.227568,-0.114612,-0.00544746,0,-0.0837464,-0.220054,148,12,148,12,199,12,148,66,0.261799,-0.261799,-4.45266e-08,-1.5,nan,0,0,3,-0.237106,-0.227568,0,0,0,0,-0.114612,-0.00544746,2754,0,0,0,0
2020,-3.21239e-12,0,-1.55831e-06,-3.27827e-12,0,0,-1.06643e-13,0,0,-7.33407,-0.220054,0.256563,-0.239269,-0.227671,-0.113527,-0.00539586,0,-0.0837464,-0.220054,148,12,148,12,199,12,148,66,0.261799,-0.261799,-4.28544e-08,-1.5,nan,0,0,3,-0.239269,-0.227671,0,0,0,0,-0.113527,-0.00539586,2754,0,0,0,0
2030,-3.21239e-12,0,-1.55831e-06,-3.27827e-12,0,-3.40903e-12,-1.06644e-13,0,0,-7.33407,-0.220054,0.256563,-0.241524,-0.227778,-0.112395,-0.00534208,0,-0.0837464,-0.220054,148,12,148,12,199,12,148,66,0.261799,-0.261799,-4.11622e-08,-1.5,nan,0,0,3,-0.241524,-0.227778,0,0,0,0,-0.112395,-0.00534208,2754,0,0,0,0
2040,-3.21239e-12,0,-1.55831e-06,-3.27827e-12,0,0,-1.06644e-13,0,0,-7.33407,-0.220054,0.256563,-0.243867,-0.22789,-0.111218,-0.00528616,0,-0.0837464,-0.220054,148,12,148,12,199,12,148,66,0.261799,-0.261799,-3.94544e-08,-1.5,nan,0,0,3,-0.243867,-0.22789,0,0,0,0,-0.111218,-0.00528616,2754,0,0,0,0
2050,-3.21239e-12,0,-1.55831e-06,-3.27827e-12,0,-3.40903e-12,-1.06644e-13,0,0,-6.93838,-0.208162,0.15388,-0.245747,-0.227979,-0.110276,-0.00524135,0,0.0839105,-0.208162,146,11,146,11,201,11,146,67,0.261799,-0.261799,-3.8128e-08,-1.5,nan,0,0,3,-0.245747,-0.227979,0,0,0,0,-0.110276,-0.00524135,3080,0,0,0,0
2060,-3.21239e-12,0,-1.55831e-06,-3.27827e-12,0,0,-1.06644e-13,0,0,-6.93838,-0.208162,0.15388,-0.247829,-0.228078,-0.109231,-0.0051917,0,0.0839105,-0.208162,146,11,146,11,201,11,146,67,0.261799,-0.261799,-3.66961e-08,-1.5,nan,0,0,3,-0.247829,-0.228078,0,0,0,0,-0.109231,-0.0051917,3080,0,0,0,0
2070,-3.21239e-12,0,-1.55831e-06,-3.27827e-12,0,-3.40903e-12,-1.06645e-13,0,0,-6.93838,-0.208162,0.15388,-0.249459,-0.228155,-0.108414,-0.00515287,0,0.0839105,-0.208162,146,11,146,11,201,11,146,67,0.261799,-0.261799,-3.56069e-08,-1.5,nan,0,0,3,-0.249459,-0.228155,0,0,0,0,-0.108414,-0.00515287,3080,0,0,0,0
2080,-3.21239e-12,0,-1.55831e-06,-3.27827e-12,0,0,-1.06645e-13,0,0,-6.93838,-0.208162,0.15388,-0.251185,-0.228237,-0.107549,-0.00511176,0,0.0839105,-0.208162,146,11,146,11,201,11,146,67,0.261799,-0.261799,-3.455e-08,-1.5,nan,0,0,3,-0.251185,-0.228237,0,0,0,0,-0.107549,-0.00511176,3080,0,0,0,0
2090,-3.21239e-12,0,-1.55831e-06,-3.27827e-12,0,-3.40903e-12,-1.06645e-13,0,0,-6.8743,-0.176804,0.156563,-0.253003,-0.228324,-0.106638,-0.00506843,0,0.109772,-0.176804,145,9,145,9,199,9,145,67,0.261799,-0.261799,-3.33885e-08,-1.5,nan,0,0,3,-0.253003,-0.228324,0,0,0,0,-0.106638,-0.00506843,3132,0,0,0,0
2100,-3.21239e-12,0,-1.55831e-06,-3.27827e-12,0,0,-1.06645e-13,0,0,-6.8743,-0.176804,0.156563,-0.25554,-0.228444,-0.105362,-0.00500782,0,0.109772,-0.176804,145,9,145,9,199,9,145,67,0.261799,-0.261799,-3.18078e-08,-1.5,nan,0,0,3,-0.25554,-0.228444,0,0,0,0,-0.105362,-0.00500782,3132,0,0,0,0
2110,-3.21239e-12,0,-1.55831e-06,-3.27827e-12,0,-3.40903e-12,-1.06646e-13,0,0,-6.8743,-0.176804,0.156563,-0.257425,-0.228534,-0.104417,-0.00496288,0,0.109772,-0.176804,145,9,145,9,199,9,145,67,0.261799,-0.261799,-3.06759e-08,-1.5,nan,0,0,3,-0.257425,-0.228534,0,0,0,0,-0.104417,-0.00496288,3132,0,0,0,0
2120,-3.21239e-12,0,-1.55831e-06,-3.27827e-12,0,0,-1.06646e-13,0,0,-6.8743,-0.176804,0.156563,-0.25919,-0.228618,-0.103532,-0.00492082,0,0.109772,-0.176804,145,9,145,9,199,9,145,67,0.261799,-0.261799,-2.96453e-08,-1.5,nan,0,0,3,-0.25919,-0.228618,0,0,0,0,-0.103532,-0.00492082,3132,0,0,0,0
2130,-3.21239e-12,0,-1.55831e-06,-3.27827e-12,0,-3.40903e-12,-1.06646e-13,0,0,-6.8743,-0.176804,0.156563,-0.261349,-0.228721,-0.102448,-0.00486932,0,0.109772,-0.176804,145,9,145,9,199,9,145,67,0.261799,-0.261799,-2.84165e-08,-1.5,nan,0,0,3,-0.261349,-0.228721,0,0,0,0,-0.102448,-0.00486932,3132,0,0,0,0
2140,-3.21239e-12,0,-1.55831e-06,-3.27827e-12,0,0,-1.06647e-13,0,0,-7.06578,-0.161512,0.217286,-0.272133,-0.229233,-0.0967842,-0.00460011,0,0.0314214,-0.161512,144,10,144,10,198,10,144,65,0.261799,-0.261799,-2.22039e-08,-1.5,nan,0,0,3,-0.272133,-0.229233,0,0,0,0,-0.0967842,-0.00460011,2970,0,0,0,0
2150,-3.21239e-12,0,-1.55831e-06,-3.27827e-12,0,-3.40903e-12,-1.06647e-13,0,0,-7.06578,-0.161512,0.217286,-0.280223,-0.229618,-0.0925917,-0.00440084,0,0.0314214,-0.161512,144,10,144,10,198,10,144,65,0.261799,-0.261799,-1.8405e-08,-1.5,nan,0,0,3,-0.280223,-0.229618,0,0,0,0,-0.0925917,-0.00440084,2970,0,0,0,0
2160,-3.21239e-12,0,-1.55831e-06,-3.27827e-12,0,0,-1.06647e-13,0,0,-7.06578,-0.161512,0.217286,-0.28197,-0.229701,-0.0917147,-0.00435916,0,0.0314214,-0.161512,144,10,144,10,198,10,144,65,0.261799,-0.261799,-1.77138e-08,-1.5,nan,0,0,3,-0.28197,-0.229701,0,0,0,0,-0.0917147,-0.00435916,2970,0,0,0,0
2170,-3.21239e-12,0,-1.55831e-06,-3.27827e-12,0,-3.40903e-12,-1.06647e-13,0,0,-6.2533,-0.21428,-0.0231829,-0.283521,-0.229774,-0.0909373,-0.00432221,0,0.341827,-0.21428,142,11,142,11,208,11,142,67,0.261799,-0.261799,-1.71183e-08,-1.5,nan,0,0,3,-0.283521,-0.229774,0,0,0,0,-0.0909373,-0.00432221,3696,0,0,0,0
2180,-3.21239e-12,0,-1.55831e-06,-3.27827e-12,0,0,-1.06648e-13,0,0,-6.2533,-0.21428,-0.0231829,-0.285416,-0.229864,-0.0899854,-0.00427696,0,0.341827,-0.21428,142,11,142,11,208,11,142,67,0.261799,-0.261799,-1.63751e-08,-1.5,nan,0,0,3,-0.285416,-0.229864,0,0,0,0,-0.0899854,-0.00427696,3696,0,0,0,0
2190,-3.21239e-12,0,-1.55831e-06,-3.27827e-12,0,-3.40903e-12,-1.06648e-13,0,0,-6.2533,-0.21428,-0.0231829,-0.287026,-0.229941,-0.089178,-0.00423859,0,0.341827,-0.21428,142,11,142,11,208,11,142,67,0.261799,-0.261799,-1.5825e-08,-1.5,nan,0,0,3,-0.287026,-0.229941,0,0,0,0,-0.089178,-0.00423859,3696,0,0,0,0
2200,-3.21239e-12,0,-1.55831e-06,-3.27827e-12,0,0,-1.06648e-13,0,0,-6.2533,-0.21428,-0.0231829,-0.288798,-0.230025,-0.0882891,-0.00419634,0,0.341827,-0.21428,142,11,142,11,208,11,142,67,0.261799,-0.261799,-1.52001e-08,-1.5,nan,0,0,3,-0.288798,-0.230025,0,0,0,0,-0.0882891,-0.00419634,3696,0,0,0,0
2210,-3.21239e-12,0,-1.55831e-06,-3.27827e-12,0,-3.40903e-12,-1.06648e-13,0,0,-6.52002,-0.204893,0.0454009,-0.290028,-0.230084,-0.0876727,-0.00416704,0,0.246288,-0.204893,144,10,144,10,204,10,144,68,0.261799,-0.261799,-1.47789e-08,-1.5,nan,0,0,3,-0.290028,-0.230084,0,0,0,0,-0.0876727,-0.00416704,3480,0,0,0,0
2220,-3.21239e-12,0,-1.55831e-06,-3.27827e-12,0,0,-1.06649e-13,0,0,-6.52002,-0.204893,0.0454009,-0.291684,-0.230162,-0.0868424,-0.00412758,0,0.246288,-0.204893,144,10,144,10,204,10,144,68,0.261799,-0.261799,-1.42243e-08,-1.5,nan,0,0,3,-0.291684,-0.230162,0,0,0,0,-0.0868424,-0.00412758,3480,0,0,0,0
2230,-3.21239e-12,0,-1.55831e-06,-3.27827e-12,0,-3.40903e-12,-1.06649e-13,0,0,-6.52002,-0.204893,0.0454009,-0.293494,-0.230248,-0.0859333,-0.00408437,0,0.246288,-0.204893,144,10,144,10,204,10,144,68,0.261799,-0.261799,-1.36341e-08,-1.5,nan,0,0,3,-0.293494,-0.230248,0,0,0,0,-0.0859333,-0.00408437,3480,0,0,0,0
2240,-3.21239e-12,0,-1.55831e-06,-3.27827e-12,0,0,-1.06649e-13,0,0,-6.52002,-0.204893,0.0454009,-0.294946,-0.230317,-0.085205,-0.00404975,0,0.246288,-0.204893,144,10,144,10,204,10,144,68,0.261799,-0.261799,-1.31758e-08,-1.5,nan,0,0,3,-0.294946,-0.230317,0,0,0,0,-0.085205,-0.00404975,3480,0,0,0,0
2250,-3.21239e-12,0,-1.55831e-06,-3.27827e-12,0,-3.40903e-12,-1.06649e-13,0,0,-6.74711,-0.173552,0.103661,-0.296471,-0.23039,-0.0844403,-0.00401341,0,0.160045,-0.173552,145,9,145,9,199,9,145,69,0.261799,-0.261799,-1.27069e-08,-1.5,nan,0,0,3,-0.296471,-0.23039,0,0,0,0,-0.0844403,-0.00401341,3240,0,0,0,0
2260,-3.21239e-12,0,-1.55831e-06,-3.27827e-12,0,0,-1.0665e-13,0,0,-6.74711,-0.173552,0.103661,-0.298064,-0.230466,-0.0836405,-0.0039754,0,0.160045,-0.173552,145,9,145,9,199,9,145,69,0.261799,-0.261799,-1.22297e-08,-1.5,nan,0,0,3,-0.298064,-0.230466,0,0,0,0,-0.0836405,-0.0039754,3240,0,0,0,0
2270,-3.21239e-12,0,-1.55831e-06,-3.27827e-12,0,-3.40903e-12,-1.0665e-13,0,0,-6.74711,-0.173552,0.103661,-0.299643,-0.230541,-0.0828483,-0.00393774,0,0.160045,-0.173552,145,9,145,9,199,9,145,69,0.261799,-0.261799,-1.17704e-08,-1.5,nan,0,0,3,-0.299643,-0.230541,0,0,0,0,-0.0828483,-0.00393774,3240,0,0,0,0
2280,-3.21239e-12,0,-1.55831e-06,-3.27827e-12,0,0,-1.0665e-13,0,0,-6.81036,-0.214096,0.110478,-0.308486,-0.230961,-0.078249,-0.00371914,0,0.135221,-0.214096,147,10,147,10,201,10,147,69,0.261799,-0.261799,-9.22458e-09,-1.5,nan,0,0,3,0.180775,-0.220991,0,0,0,0,0.125735,-0.0696402,3186,0.469066,0.0164959,0.203984,-0.065921
2290,-3.21239e-12,0,-1.55831e-06,-3.27827e-12,0,-3.40903e-12,-1.06651e-13,0,0,-6.81036,-0.214096,0.110478,-0.310271,-0.231046,-0.0773524,-0.00367652,0,0.135221,-0.214096,147,10,147,10,201,10,147,69,0.261799,-0.261799,-8.80637e-09,-1.5,nan,0,0,3,0.183681,-0.222592,0,0,0,0,0.126631,-0.0695976,3186,0.469066,0.0164959,0.203984,-0.065921
2300,-3.21239e-12,0,-1.55831e-06,-3.27827e-12,0,0,-1.06651e-13,0,0,-6.81036,-0.214096,0.110478,-0.311655,-0.231112,-0.0766582,-0.00364353,0,0.135221,-0.214096,147,10,147,10,201,10,147,69,0.261799,-0.261799,-8.49298e-09,-1.5,nan,0,0,3,0.185968,-0.223844,0,0,0,0,0.127325,-0.0695646,3186,0.469066,0.0164959,0.203984,-0.065921
2310,-3.21239e-12,0,-1.55831e-06,-3.27827e-12,0,-3.40903e-12,-1.06651e-13,0,0,-6.81036,-0.214096,0.110478,-0.313103,-0.23118,-0.0759323,-0.00360902,0,0.135221,-0.214096,147,10,147,10,201,10,147,69,0.261799,-0.261799,-8.1743e-09,-1.5,nan,0,0,3,0.188397,-0.225166,0,0,0,0,0.128051,-0.0695301,3186,0.469066,0.0164959,0.203984,-0.065921
2320,-3.21239e-12,0,-1.55831e-06,-3.27827e-12,0,0,-1.06651e-13,0,0,-6.81036,-0.214096,0.110478,-0.314536,-0.231248,-0.0752132,-0.00357485,0,0.135221,-0.214096,147,10,147,10,201,10,147,69,0.261799,-0.261799,-7.86758e-09,-1.5,nan,0,0,3,0.190839,-0.226486,0,0,0,0,0.12877,-0.0694959,3186,0.469066,0.0164959,0.203984,-0.065921
2330,-3.21239e-12,0,-1.55831e-06,-3.27827e-12,0,-3.40903e-12,-1.06652e-13,0,0,-6.81036,-0.214096,0.110478,-0.315733,-0.231305,-0.0746132,-0.00354633,0,0.135221,-0.214096,147,10,147,10,201,10,147,69,0.261799,-0.261799,-7.61873e-09,-1.5,nan,0,0,3,0.192905,-0.227598,0,0,0,0,0.12937,-0.0694674,3186,0.469066,0.0164959,0.203984,-0.065921
2340,-3.21239e-12,0,-1.55831e-06,-3.27827e-12,0,0,-1.06652e-13,0,0,-6.81036,-0.214096,0.110478,-0.316699,-0.231351,-0.0741295,-0.00352334,0,0.135221,-0.214096,147,10,147,10,201,10,147,69,0.261799,-0.261799,-7.42258e-09,-1.5,nan,0,0,3,0.194591,-0.228501,0,0,0,0,0.129854,-0.0694444,3186,0.469066,0.0164959,0.203984,-0.065921
2350,-3.21239e-12,0,-1.55831e-06,-3.27827e-12,0,-3.40903e-12,-1.06652e-13,0,0,-6.81036,-0.214096,0.110478,-0.318026,-0.231414,-0.0734643,-0.00349172,0,0.135221,-0.214096,147,10,147,10,201,10,147,69,0.261799,-0.261799,-7.15865e-09,-1.5,nan,0,0,3,0.196936,-0.22975,0,0,0,0,0.130519,-0.0694128,3186,0.469066,0.0164959,0.203984,-0.065921
2360,-3.21239e-12,0,-1.55831e-06,-3.27827e-12,0,0,-1.06652e-13,0,0,-6.81036,-0.214096,0.110478,-0.31934,-0.231477,-0.0728051,-0.00346039,0,0.135221,-0.214096,147,10,147,10,201,10,147,69,0.261799,-0.261799,-6.9039e-09,-1.5,nan,0,0,3,0.199293,-0.230999,0,0,0,0,0.131179,-0.0693814,3186,0.469066,0.0164959,0.203984,-0.065921
2370,-3.21239e-12,0,-1.55831e-06,-3.27827e-12,0,-3.40903e-12,-1.06653e-13,0,0,-6.81036,-0.214096,0.110478,-0.320643,-0.231539,-0.0721518,-0.00342934,0,0.135221,-0.214096,147,10,147,10,201,10,147,69,0.261799,-0.261799,-6.65841e-09,-1.5,nan,0,0,3,0.201662,-0.232248,0,0,0,0,0.131832,-0.0693504,3186,0.469066,0.0164959,0.203984,-0.065921
2380,-3.21239e-12,0,-1.55831e-06,-3.27827e-12,0,0,-1.06653e-13,0,0,-6.81036,-0.214096,0.110478,-0.322005,-0.231604,-0.0714686,-0.00339687,0,0.135221,-0.214096,147,10,147,10,201,10,147,69,0.261799,-0.261799,-6.40857e-09,-1.5,nan,0,0,3,0.204175,-0.233565,0,0,0,0,0.132515,-0.0693179,3186,0.469066,0.0164959,0.203984,-0.065921
2390,-3.21239e-12,0,-1.55831e-06,-3.27827e-12,0,-3.40903e-12,-1.06653e-13,0,0,-7.06524,-0.211989,0.206851,-0.329336,-0.231952,-0.067624,-0.00321413,0,0.0316486,-0.211989,147,10,147,10,200,10,147,66,0.261799,-0.261799,-5.04531e-09,-1.5,nan,0,0,3,0.161486,-0.21658,0,0,0,0,0.0738447,-0.0424975,2968,0.475544,0.0196145,0.141469,-0.0392833
