timestamp,A_x,A_y,A_z,P,Q,R,Phi,Theta,Psi,poseX,poseY,poseZ,state_X,state_Y,state_Z,state_VzB,state_Bx,state_By,state_Bz,p1_x,p1_y,p2_x,p2_y,p3_x,p3_y,p4_x,p4_y,roll,pitch,yaw,alt,targetHeading,highLevelState,lowLevelState,gateNumber,filtered_x,filtered_y,x_OT,y_OT,vx_OT,vy_OT,filtered_vx,filtered_vygateArea
10,0,0,0,0,0,0,0,0,0,0,0,0,0,0,0,0,0,0,0,0,0,0,0,0,0,0,0,0,-0.261799,0.00623302,-1.5,nan,0,0,3,0,0,0,0,0,0,0,0,1.9603e-19
20,0,0,0,0,0,0,0,0,0,0,0,0,0,0,0,0,0,0,0,0,0,0,0,0,0,0,0,0,-0.261799,0.00602347,-1.5,nan,0,0,3,0,0,0,0,0,0,0,0,1.9603e-19
30,-3.34296e-12,9.29e-38,-1.6072e-06,-3.40794e-12,9.28953e-38,-3.95812e-12,-1.13703e-13,0,0,0,0,0,0,0,0,0,0,0,0,0,0,0,0,0,0,0,0,0,-0.261799,-0.00127781,-1.5,nan,0,0,3,0,0,0,0,0,0,0,0,1.9603e-19
40,-3.34296e-12,9.29e-38,-1.6072e-06,-3.40794e-12,9.28953e-38,0,-1.13703e-13,0,0,0,0,0,0,0,0,0,0,0,0,0,0,0,0,0,0,0,0,0,-0.261799,-0.00123739,-1.5,nan,0,0,3,0,0,0,0,0,0,0,0,1.9603e-19
50,-3.34296e-12,9.29e-38,-1.6072e-06,-3.40794e-12,9.28953e-38,-3.95812e-12,-1.13704e-13,0,0,0,0,0,0,0,0,0,0,0,0,0,0,0,0,0,0,0,0,0,-0.261799,-0.00120066,-1.5,nan,0,0,3,0,0,0,0,0,0,0,0,1.9603e-19
60,-3.34296e-12,9.29e-38,-1.6072e-06,-3.40794e-12,9.28953e-38,0,-1.13704e-13,0,0,0,0,0,0,0,0,0,0,0,0,0,0,0,0,0,0,0,0,0,-0.261799,-0.00116033,-1.5,nan,0,0,3,0,0,0,0,0,0,0,0,1.9603e-19
70,-3.34296e-12,9.29e-38,-1.6072e-06,-3.40794e-12,9.28953e-38,-3.95812e-12,-1.13705e-13,0,0,0,0,0,0,0,0,0,0,0,0,0,0,0,0,0,0,0,0,0,-0.261799,-0.00112589,-1.5,nan,0,0,3,0,0,0,0,0,0,0,0,1.9603e-19
80,-3.34296e-12,9.29e-38,-1.6072e-06,-3.40794e-12,9.28953e-38,0,-1.13705e-13,0,0,0,0,0,0,0,0,0,0,0,0,0,0,0,0,0,0,0,0,0,-0.261799,-0.00109247,-1.5,nan,0,0,3,0,0,0,0,0,0,0,0,1.9603e-19
90,-3.34296e-12,9.29e-38,-1.6072e-06,-3.40794e-12,9.28953e-38,-3.95812e-12,-1.13706e-13,0,0,0,0,0,0,0,0,0,0,0,0,0,0,0,0,0,0,0,0,0,-0.261799,-0.00105362,-1.5,nan,0,0,3,0,0,0,0,0,0,0,0,1.9603e-19
100,-3.34296e-12,9.29e-38,-1.6072e-06,-3.40794e-12,9.28953e-38,0,-1.13706e-13,0,0,0,0,0,0,0,0,0,0,0,0,0,0,0,0,0,0,0,0,0,-0.261799,-0.00102235,-1.5,nan,0,0,3,0,0,0,0,0,0,0,0,1.9603e-19
110,-3.34296e-12,9.29e-38,-1.6072e-06,-3.40794e-12,9.28953e-38,-3.95812e-12,-1.13707e-13,0,0,0,0,0,0,0,0,0,0,0,0,0,0,0,0,0,0,0,0,0,-0.261799,-0.000927759,-1.5,nan,0,0,3,0,0,0,0,0,0,0,0,1.9603e-19
120,-3.34296e-12,9.29e-38,-1.6072e-06,-3.40794e-12,9.28953e-38,0,-1.13708e-13,0,0,0,0,0,0,0,0,0,0,0,0,0,0,0,0,0,0,0,0,0,-0.261799,-0.000874658,-1.5,nan,0,0,3,0,0,0,0,0,0,0,0,1.9603e-19
130,-3.34296e-12,9.29e-38,-1.6072e-06,-3.40794e-12,9.28953e-38,-3.95812e-12,-1.13708e-13,0,0,0,0,0,0,0,0,0,0,0,0,0,0,0,0,0,0,0,0,0,-0.261799,-0.000693762,-1.5,nan,0,0,3,0,0,0,0,0,0,0,0,1.9603e-19
140,-3.34296e-12,9.29e-38,-1.6072e-06,-3.40794e-12,9.28953e-38,0,-1.13709e-13,0,0,0,0,0,0,0,0,0,0,0,0,0,0,0,0,0,0,0,0,0,-0.261799,-0.000585781,-1.5,nan,0,0,3,0,0,0,0,0,0,0,0,1.9603e-19
150,-3.34296e-12,9.29e-38,-1.6072e-06,-3.40794e-12,9.28953e-38,-3.95812e-12,-1.13709e-13,0,0,0,0,0,0,0,0,0,0,0,0,0,0,0,0,0,0,0,0,0,-0.261799,-0.000556897,-1.5,nan,0,0,3,0,0,0,0,0,0,0,0,1.9603e-19
160,-3.34296e-12,9.29e-38,-1.6072e-06,-3.40794e-12,9.28953e-38,0,-1.1371e-13,0,0,0,0,0,0,0,0,0,0,0,0,0,0,0,0,0,0,0,0,0,-0.261799,-0.000526156,-1.5,nan,0,0,3,0,0,0,0,0,0,0,0,1.9603e-19
170,-3.34296e-12,9.29e-38,-1.6072e-06,-3.40794e-12,9.28953e-38,-3.95812e-12,-1.1371e-13,0,0,0,0,0,0,0,0,0,0,0,0,0,0,0,0,0,0,0,0,0,-0.261799,-0.000502254,-1.5,nan,0,0,3,0,0,0,0,0,0,0,0,1.9603e-19
180,-3.34296e-12,9.29e-38,-1.6072e-06,-3.40794e-12,9.28953e-38,0,-1.13711e-13,0,0,0,0,0,0,0,0,0,0,0,0,0,0,0,0,0,0,0,0,0,-0.261799,-0.000455785,-1.5,nan,0,0,3,0,0,0,0,0,0,0,0,1.9603e-19
190,-3.34296e-12,9.29e-38,-1.6072e-06,-3.40794e-12,9.28953e-38,-3.95812e-12,-1.13711e-13,0,0,0,0,0,0,0,0,0,0,0,0,0,0,0,0,0,0,0,0,0,-0.261799,-0.000419882,-1.5,nan,0,0,3,0,0,0,0,0,0,0,0,1.9603e-19
200,-3.34296e-12,9.29e-38,-1.6072e-06,-3.40794e-12,9.28953e-38,0,-1.13712e-13,0,0,0,0,0,0,0,0,0,0,0,0,0,0,0,0,0,0,0,0,0,-0.261799,-0.000399982,-1.5,nan,0,0,3,0,0,0,0,0,0,0,0,1.9603e-19
210,-3.34296e-12,9.29e-38,-1.6072e-06,-3.40794e-12,9.28953e-38,-3.95812e-12,-1.13712e-13,0,0,0,0,0,0,0,0,0,0,0,0,0,0,0,0,0,0,0,0,0,-0.261799,-0.000387322,-1.5,nan,0,0,3,0,0,0,0,0,0,0,0,1.9603e-19
220,-3.34296e-12,9.29e-38,-1.6072e-06,-3.40794e-12,9.28953e-38,0,-1.13713e-13,0,0,0,0,0,0,0,0,0,0,0,0,0,0,0,0,0,0,0,0,0,-0.261799,-0.000375064,-1.5,nan,0,0,3,0,0,0,0,0,0,0,0,1.9603e-19
230,-3.34296e-12,9.29e-38,-1.6072e-06,-3.40794e-12,9.28953e-38,-3.95812e-12,-1.13714e-13,0,0,0,0,0,0,0,0,0,0,0,0,-1367293160,-1367293160,-1367293160,-1367293160,-1367293120,-2081858440,430789182,-1367293120,0,-0.261799,-0.000322198,-1.5,nan,0,0,3,0,0,0,0,0,0,0,0,0
240,-3.34296e-12,9.29e-38,-1.6072e-06,-3.40794e-12,9.28953e-38,0,-1.13714e-13,0,0,0,0,0,0,0,0,0,0,0,0,-1367293160,-1367293160,-1367293160,-1367293160,-1367293120,-2081858440,430789182,-1367293120,0,-0.261799,-0.000311374,-1.5,nan,0,0,3,0,0,0,0,0,0,0,0,0
250,-3.34296e-12,9.29e-38,-1.6072e-06,-3.40794e-12,9.28953e-38,-3.95812e-12,-1.13715e-13,0,0,0,0,0,0,0,0,0,0,0,0,-1367293160,-1367293160,-1367293160,-1367293160,-1367293120,-2081858440,430789182,-1367293120,0,-0.261799,-0.000300913,-1.5,nan,0,0,3,0,0,0,0,0,0,0,0,0
260,-3.34296e-12,9.29e-38,-1.6072e-06,-3.40794e-12,9.28953e-38,0,-1.13715e-13,0,0,0,0,0,0,0,0,0,0,0,0,-1367293160,-1367293160,-1367293160,-1367293160,-1367293120,-2081858440,430789182,-1367293120,0,-0.261799,-0.000289031,-1.5,nan,0,0,3,0,0,0,0,0,0,0,0,0
270,-3.34296e-12,9.29e-38,-1.6072e-06,-3.40794e-12,9.28953e-38,-3.95812e-12,-1.13716e-13,0,0,-6.34862,0.153965,-0.0150752,0,0,0,0,0,-2.34862,0.153965,119,19,119,19,190,19,119,61,0,-0.261799,-0.000280452,-1.5,nan,0,0,3,0,0,0,0,0,0,0,0,2982
280,-3.34296e-12,9.29e-38,-1.6072e-06,-3.40794e-12,9.28953e-38,0,-1.13716e-13,0,0,-6.34862,0.153965,-0.0150752,0,0,0,0,0,-2.34862,0.153965,119,19,119,19,190,19,119,61,0,-0.261799,-0.00027048,-1.5,nan,0,0,3,0,0,0,0,0,0,0,0,2982
290,-3.34296e-12,9.29e-38,-1.6072e-06,-3.40794e-12,9.28953e-38,-3.95812e-12,-1.13717e-13,0,0,-6.34862,0.153965,-0.0150752,0,0,0,0,0,-2.34862,0.153965,119,19,119,19,190,19,119,61,0,-0.261799,-0.000260862,-1.5,nan,0,0,3,0,0,0,0,0,0,0,0,2982
300,-3.34296e-12,9.29e-38,-1.6072e-06,-3.40794e-12,9.28953e-38,0,-1.13717e-13,0,0,-6.34862,0.153965,-0.0150752,0,0,0,0,0,-2.34862,0.153965,119,19,119,19,190,19,119,61,0,-0.261799,-0.000253119,-1.5,nan,0,0,3,0,0,0,0,0,0,0,0,2982
310,-3.34296e-12,9.29e-38,-1.6072e-06,-3.40794e-12,9.28953e-38,-3.95812e-12,-1.13718e-13,0,0,-6.34862,0.153965,-0.0150752,0,0,0,0,0,-2.34862,0.153965,119,19,119,19,190,19,119,61,0,-0.261799,-0.000244112,-1.5,nan,0,0,3,0,0,0,0,0,0,0,0,2982
320,-3.34296e-12,9.29e-38,-1.6072e-06,-3.40794e-12,9.28953e-38,0,-1.13718e-13,0,0,-6.34862,0.153965,-0.0150752,0,0,0,0,0,-2.34862,0.153965,119,19,119,19,190,19,119,61,0,-0.261799,-0.000235431,-1.5,nan,0,0,3,0,0,0,0,0,0,0,0,2982
330,-3.34296e-12,9.29e-38,-1.6072e-06,-3.40794e-12,9.28953e-38,-3.95812e-12,-1.13719e-13,0,0,-6.34862,0.153965,-0.0150752,0,0,0,0,0,-2.34862,0.153965,119,19,119,19,190,19,119,61,0,-0.261799,-0.00022659,-1.5,nan,0,0,3,0,0,0,0,0,0,0,0,2982
340,-3.34296e-12,9.29e-38,-1.6072e-06,-3.40794e-12,9.28953e-38,0,-1.13719e-13,0,0,-6.34862,0.153965,-0.0150752,0,0,0,0,0,-2.34862,0.153965,119,19,119,19,190,19,119,61,0,-0.261799,-0.000219864,-1.5,nan,0,0,3,0,0,0,0,0,0,0,0,2982
350,-3.34296e-12,9.29e-38,-1.6072e-06,-3.40794e-12,9.28953e-38,-3.95812e-12,-1.1372e-13,0,0,-6.34862,0.153965,-0.0150752,0,0,0,0,0,-2.34862,0.153965,119,19,119,19,190,19,119,61,0,-0.261799,-0.000212473,-1.5,nan,0,0,3,0,0,0,0,0,0,0,0,2982
360,-3.34296e-12,9.29e-38,-1.6072e-06,-3.40794e-12,9.28953e-38,0,-1.13721e-13,0,0,-6.34862,0.153965,-0.0150752,0,0,0,0,0,-2.34862,0.153965,119,19,119,19,190,19,119,61,0,-0.261799,-0.000204918,-1.5,nan,0,0,3,0,0,0,0,0,0,0,0,2982
370,-3.34296e-12,9.29e-38,-1.6072e-06,-3.40794e-12,9.28953e-38,-3.95812e-12,-1.13721e-13,0,0,-6.34862,0.153965,-0.0150752,0,0,0,0,0,-2.34862,0.153965,119,19,119,19,190,19,119,61,0,-0.261799,-0.000197631,-1.5,nan,0,0,3,0,0,0,0,0,0,0,0,2982
380,-3.34296e-12,9.29e-38,-1.6072e-06,-3.40794e-12,9.28953e-38,0,-1.13722e-13,0,0,-6.34862,0.153965,-0.0150752,0,0,0,0,0,-2.34862,0.153965,119,19,119,19,190,19,119,61,0,-0.261799,-0.000191765,-1.5,nan,0,0,3,0,0,0,0,0,0,0,0,2982
390,-3.34296e-12,9.29e-38,-1.6072e-06,-3.40794e-12,9.28953e-38,-3.95812e-12,-1.13722e-13,0,0,-6.34862,0.153965,-0.0150752,0,0,0,0,0,-2.34862,0.153965,119,19,119,19,190,19,119,61,0,-0.261799,-0.0001857,-1.5,nan,0,0,3,0,0,0,0,0,0,0,0,2982
400,-3.34296e-12,9.29e-38,-1.6072e-06,-3.40794e-12,9.28953e-38,0,-1.13723e-13,0,0,-6.34862,0.153965,-0.0150752,0,0,0,0,0,-2.34862,0.153965,119,19,119,19,190,19,119,61,0,-0.261799,-0.000176543,-1.5,nan,0,0,3,0,0,0,0,0,0,0,0,2982
410,-3.34296e-12,9.29e-38,-1.6072e-06,-3.40794e-12,9.28953e-38,-3.95812e-12,-1.13723e-13,0,0,-6.34862,0.153965,-0.0150752,0,0,0,0,0,-2.34862,0.153965,119,19,119,19,190,19,119,61,0,-0.261799,-0.000171998,-1.5,nan,0,0,3,0,0,0,0,0,0,0,0,2982
420,-3.34296e-12,9.29e-38,-1.6072e-06,-3.40794e-12,9.28953e-38,0,-1.13724e-13,0,0,-6.34862,0.153965,-0.0150752,0,0,0,0,0,-2.34862,0.153965,119,19,119,19,190,19,119,61,0,-0.261799,-0.000166893,-1.5,nan,0,0,3,0,0,0,0,0,0,0,0,2982
430,-3.34296e-12,9.29e-38,-1.6072e-06,-3.40794e-12,9.28953e-38,-3.95812e-12,-1.13724e-13,0,0,-6.34862,0.153965,-0.0150752,0,0,0,0,0,-2.34862,0.153965,119,19,119,19,190,19,119,61,0,-0.261799,-0.000161611,-1.5,nan,0,0,3,0,0,0,0,0,0,0,0,2982
440,-3.34296e-12,9.29e-38,-1.6072e-06,-3.40794e-12,9.28953e-38,0,-1.13725e-13,0,0,-6.34862,0.153965,-0.0150752,0,0,0,0,0,-2.34862,0.153965,119,19,119,19,190,19,119,61,0,-0.261799,-0.00015586,-1.5,nan,0,0,3,0,0,0,0,0,0,0,0,2982
450,-3.34296e-12,9.29e-38,-1.6072e-06,-3.40794e-12,9.28953e-38,-3.95812e-12,-1.13725e-13,0,0,-6.34862,0.153965,-0.0150752,0,0,0,0,0,-2.34862,0.153965,119,19,119,19,190,19,119,61,0,-0.261799,-0.000150927,-1.5,nan,0,0,3,0,0,0,0,0,0,0,0,2982
460,-3.34296e-12,9.29e-38,-1.6072e-06,-3.40794e-12,9.28953e-38,0,-1.13726e-13,0,0,-6.34862,0.153965,-0.0150752,0,0,0,0,0,-2.34862,0.153965,119,19,119,19,190,19,119,61,0,-0.261799,-0.000144962,-1.5,nan,0,0,3,0,0,0,0,0,0,0,0,2982
470,-3.34296e-12,9.29e-38,-1.6072e-06,-3.40794e-12,9.28953e-38,-3.95812e-12,-1.13727e-13,0,0,-6.34862,0.153965,-0.0150752,0,0,0,0,0,-2.34862,0.153965,119,19,119,19,190,19,119,61,0,-0.261799,-0.000139526,-1.5,nan,0,0,3,0,0,0,0,0,0,0,0,2982
480,-3.34296e-12,9.29e-38,-1.6072e-06,-3.40794e-12,9.28953e-38,0,-1.13727e-13,0,0,-6.34862,0.153965,-0.0150752,0,0,0,0,0,-2.34862,0.153965,119,19,119,19,190,19,119,61,0,-0.261799,-0.000134836,-1.5,nan,0,0,3,0,0,0,0,0,0,0,0,2982
490,-3.34296e-12,9.29e-38,-1.6072e-06,-3.40794e-12,9.28953e-38,-3.95812e-12,-1.13728e-13,0,0,-6.34862,0.153965,-0.0150752,0,0,0,0,0,-2.34862,0.153965,119,19,119,19,190,19,119,61,0,-0.261799,-0.000130568,-1.5,nan,0,0,3,0,0,0,0,0,0,0,0,2982
500,-3.34296e-12,9.29e-38,-1.6072e-06,-3.40794e-12,9.28953e-38,0,-1.13728e-13,0,0,-6.34862,0.153965,-0.0150752,0,0,0,0,0,-2.34862,0.153965,119,19,119,19,190,19,119,61,0,-0.261799,-0.000125925,-1.5,nan,0,0,3,0,0,0,0,0,0,0,0,2982
510,-3.34296e-12,9.29e-38,-1.6072e-06,-3.40794e-12,9.28953e-38,-3.95812e-12,-1.13729e-13,0,0,-6.34862,0.153965,-0.0150752,0,0,0,0,0,-2.34862,0.153965,119,19,119,19,190,19,119,61,0,-0.261799,-0.000121444,-1.5,nan,0,0,3,0,0,0,0,0,0,0,0,2982
520,-3.34296e-12,9.29e-38,-1.6072e-06,-3.40794e-12,9.28953e-38,0,-1.13729e-13,0,0,-6.34862,0.153965,-0.0150752,0,0,0,0,0,-2.34862,0.153965,119,19,119,19,190,19,119,61,0,-0.261799,-0.000117601,-1.5,nan,0,0,3,0,0,0,0,0,0,0,0,2982
530,-3.34296e-12,9.29e-38,-1.6072e-06,-3.40794e-12,9.28953e-38,-3.95812e-12,-1.1373e-13,0,0,-6.34862,0.153965,-0.0150752,0,0,0,0,0,-2.34862,0.153965,119,19,119,19,190,19,119,61,0,-0.261799,-0.000112953,-1.5,nan,0,0,3,0,0,0,0,0,0,0,0,2982
540,-3.34296e-12,9.29e-38,-1.6072e-06,-3.40794e-12,9.28953e-38,0,-1.1373e-13,0,0,-6.34862,0.153965,-0.0150752,0,0,0,0,0,-2.34862,0.153965,119,19,119,19,190,19,119,61,0,-0.261799,-0.000107383,-1.5,nan,0,0,3,0,0,0,0,0,0,0,0,2982
550,-3.34296e-12,9.29e-38,-1.6072e-06,-3.40794e-12,9.28953e-38,-3.95812e-12,-1.13731e-13,0,0,-6.34862,0.153965,-0.0150752,0,0,0,0,0,-2.34862,0.153965,119,19,119,19,190,19,119,61,0,-0.261799,-0.000103773,-1.5,nan,0,0,3,0,0,0,0,0,0,0,0,2982
560,-3.34296e-12,9.29e-38,-1.6072e-06,-3.40794e-12,9.28953e-38,0,-1.13731e-13,0,0,-6.34862,0.153965,-0.0150752,0,0,0,0,0,-2.34862,0.153965,119,19,119,19,190,19,119,61,0,-0.261799,-0.000100491,-1.5,nan,0,0,3,0,0,0,0,0,0,0,0,2982
570,-3.34296e-12,9.29e-38,-1.6072e-06,-3.40794e-12,9.28953e-38,-3.95812e-12,-1.13732e-13,0,0,-6.34862,0.153965,-0.0150752,0,0,0,0,0,-2.34862,0.153965,119,19,119,19,190,19,119,61,0,-0.261799,-9.71125e-05,-1.5,nan,0,0,3,0,0,0,0,0,0,0,0,2982
580,-3.34296e-12,9.29e-38,-1.6072e-06,-3.40794e-12,9.28953e-38,0,-1.13732e-13,0,0,-6.34862,0.153965,-0.0150752,0,0,0,0,0,-2.34862,0.153965,119,19,119,19,190,19,119,61,0,-0.261799,-9.42316e-05,-1.5,nan,0,0,3,0,0,0,0,0,0,0,0,2982
590,-3.34296e-12,9.29e-38,-1.6072e-06,-3.40794e-12,9.28953e-38,-3.95812e-12,-1.13733e-13,0,0,-6.34862,0.153965,-0.0150752,0,0,0,0,0,-2.34862,0.153965,119,19,119,19,190,19,119,61,0,-0.261799,-9.16212e-05,-1.5,nan,0,0,3,0,0,0,0,0,0,0,0,2982
600,-3.34296e-12,9.29e-38,-1.6072e-06,-3.40794e-12,9.28953e-38,0,-1.13734e-13,0,0,-6.34862,0.153965,-0.0150752,0,0,0,0,0,-2.34862,0.153965,119,19,119,19,190,19,119,61,0,-0.261799,-8.87214e-05,-1.5,nan,0,0,3,0,0,0,0,0,0,0,0,2982
610,-3.34296e-12,9.29e-38,-1.6072e-06,-3.40794e-12,9.28953e-38,-3.95812e-12,-1.13734e-13,0,0,-6.34862,0.153965,-0.0150752,0,0,0,0,0,-2.34862,0.153965,119,19,119,19,190,19,119,61,0,-0.261799,-8.57409e-05,-1.5,nan,0,0,3,0,0,0,0,0,0,0,0,2982
620,-3.34296e-12,9.29e-38,-1.6072e-06,-3.40794e-12,9.28953e-38,0,-1.13735e-13,0,0,-6.34862,0.153965,-0.0150752,0,0,0,0,0,-2.34862,0.153965,119,19,119,19,190,19,119,61,0,-0.261799,-8.30289e-05,-1.5,nan,0,0,3,0,0,0,0,0,0,0,0,2982
630,-3.34296e-12,9.29e-38,-1.6072e-06,-3.40794e-12,9.28953e-38,-3.95812e-12,-1.13735e-13,0,0,-6.34862,0.153965,-0.0150752,0,0,0,0,0,-2.34862,0.153965,119,19,119,19,190,19,119,61,0,-0.261799,-8.02377e-05,-1.5,nan,0,0,3,0,0,0,0,0,0,0,0,2982
640,-3.34296e-12,9.29e-38,-1.6072e-06,-3.40794e-12,9.28953e-38,0,-1.13736e-13,0,0,-6.34862,0.153965,-0.0150752,0,0,0,0,0,-2.34862,0.153965,119,19,119,19,190,19,119,61,0,-0.261799,-7.73823e-05,-1.5,nan,0,0,3,0,0,0,0,0,0,0,0,2982
650,-3.34296e-12,9.29e-38,-1.6072e-06,-3.40794e-12,9.28953e-38,-3.95812e-12,-1.13736e-13,0,0,-6.34862,0.153965,-0.0150752,0,0,0,0,0,-2.34862,0.153965,119,19,119,19,190,19,119,61,0,-0.261799,-7.49347e-05,-1.5,nan,0,0,3,0,0,0,0,0,0,0,0,2982
660,-3.34296e-12,9.29e-38,-1.6072e-06,-3.40794e-12,9.28953e-38,0,-1.13737e-13,0,0,-6.34862,0.153965,-0.0150752,0,0,0,0,0,-2.34862,0.153965,119,19,119,19,190,19,119,61,0,-0.261799,-7.19758e-05,-1.5,nan,0,0,3,0,0,0,0,0,0,0,0,2982
670,-3.34296e-12,9.29e-38,-1.6072e-06,-3.40794e-12,9.28953e-38,-3.95812e-12,-1.13737e-13,0,0,-6.34862,0.153965,-0.0150752,0,0,0,0,0,-2.34862,0.153965,119,19,119,19,190,19,119,61,0,-0.261799,-6.96977e-05,-1.5,nan,0,0,3,0,0,0,0,0,0,0,0,2982
680,-3.34296e-12,9.29e-38,-1.6072e-06,-3.40794e-12,9.28953e-38,0,-1.13738e-13,0,0,-6.34862,0.153965,-0.0150752,0,0,0,0,0,-2.34862,0.153965,119,19,119,19,190,19,119,61,0,-0.261799,-6.73546e-05,-1.5,nan,0,0,3,0,0,0,0,0,0,0,0,2982
690,-3.34296e-12,9.29e-38,-1.6072e-06,-3.40794e-12,9.28953e-38,-3.95812e-12,-1.13738e-13,0,0,-6.34862,0.153965,-0.0150752,0,0,0,0,0,-2.34862,0.153965,119,19,119,19,190,19,119,61,0,-0.261799,-6.52242e-05,-1.5,nan,0,0,3,0,0,0,0,0,0,0,0,2982
700,-3.34296e-12,9.29e-38,-1.6072e-06,-3.40794e-12,9.28953e-38,0,-1.13739e-13,0,0,-6.34862,0.153965,-0.0150752,0,0,0,0,0,-2.34862,0.153965,119,19,119,19,190,19,119,61,0,-0.261799,-6.29049e-05,-1.5,nan,0,0,3,0,0,0,0,0,0,0,0,2982
710,-3.34296e-12,9.29e-38,-1.6072e-06,-3.40794e-12,9.28953e-38,-3.95812e-12,-1.1374e-13,0,0,-6.34862,0.153965,-0.0150752,0,0,0,0,0,-2.34862,0.153965,119,19,119,19,190,19,119,61,0,-0.261799,-6.09153e-05,-1.5,nan,0,0,3,0,0,0,0,0,0,0,0,2982
720,-3.34296e-12,9.29e-38,-1.6072e-06,-3.40794e-12,9.28953e-38,0,-1.1374e-13,0,0,-6.34862,0.153965,-0.0150752,0,0,0,0,0,-2.34862,0.153965,119,19,119,19,190,19,119,61,0,-0.261799,-4.78373e-05,-1.5,nan,0,0,3,0,0,0,0,0,0,0,0,2982
730,-3.34296e-12,9.29e-38,-1.6072e-06,-3.40794e-12,9.28953e-38,-3.95812e-12,-1.13741e-13,0,0,-6.34862,0.153965,-0.0150752,0,0,0,0,0,-2.34862,0.153965,119,19,119,19,190,19,119,61,0,-0.261799,-3.99346e-05,-1.5,nan,0,0,3,0,0,0,0,0,0,0,0,2982
740,-3.34296e-12,9.29e-38,-1.6072e-06,-3.40794e-12,9.28953e-38,0,-1.13741e-13,0,0,-6.34862,0.153965,-0.0150752,0,0,0,0,0,-2.34862,0.153965,119,19,119,19,190,19,119,61,0,-0.261799,-3.86707e-05,-1.5,nan,0,0,3,0,0,0,0,0,0,0,0,2982
750,-3.34296e-12,9.29e-38,-1.6072e-06,-3.40794e-12,9.28953e-38,-3.95812e-12,-1.13742e-13,0,0,-6.34862,0.153965,-0.0150752,0,0,0,0,0,-2.34862,0.153965,119,19,119,19,190,19,119,61,0,-0.261799,-3.72956e-05,-1.5,nan,0,0,3,0,0,0,0,0,0,0,0,2982
760,-3.34296e-12,9.29e-38,-1.6072e-06,-3.40794e-12,9.28953e-38,0,-1.13742e-13,0,0,-6.34862,0.153965,-0.0150752,0,0,0,0,0,-2.34862,0.153965,119,19,119,19,190,19,119,61,0,-0.261799,-3.6116e-05,-1.5,nan,0,0,3,0,0,0,0,0,0,0,0,2982
770,-3.34296e-12,9.29e-38,-1.6072e-06,-3.40794e-12,9.28953e-38,-3.95812e-12,-1.13743e-13,0,0,-6.34862,0.153965,-0.0150752,0,0,0,0,0,-2.34862,0.153965,119,19,119,19,190,19,119,61,0,-0.261799,-3.49018e-05,-1.5,nan,0,0,3,0,0,0,0,0,0,0,0,2982
780,-3.34296e-12,9.29e-38,-1.6072e-06,-3.40794e-12,9.28953e-38,0,-1.13743e-13,0,0,-6.34862,0.153965,-0.0150752,0,0,0,0,0,-2.34862,0.153965,119,19,119,19,190,19,119,61,0,-0.261799,-3.37972e-05,-1.5,nan,0,0,3,0,0,0,0,0,0,0,0,2982
790,-3.34296e-12,9.29e-38,-1.6072e-06,-3.40794e-12,9.28953e-38,-3.95812e-12,-1.13744e-13,0,0,-6.34862,0.153965,-0.0150752,0,0,0,0,0,-2.34862,0.153965,119,19,119,19,190,19,119,61,0,-0.261799,-3.26618e-05,-1.5,nan,0,0,3,0,0,0,0,0,0,0,0,2982
800,-3.34296e-12,9.29e-38,-1.6072e-06,-3.40794e-12,9.28953e-38,0,-1.13744e-13,0,0,-6.34862,0.153965,-0.0150752,0,0,0,0,0,-2.34862,0.153965,119,19,119,19,190,19,119,61,0,-0.261799,-3.15004e-05,-1.5,nan,0,0,3,0,0,0,0,0,0,0,0,2982
810,-3.34296e-12,9.29e-38,-1.6072e-06,-3.40794e-12,9.28953e-38,-3.95812e-12,-1.13745e-13,0,0,-6.34862,0.153965,-0.0150752,0,0,0,0,0,-2.34862,0.153965,119,19,119,19,190,19,119,61,0,-0.261799,-3.03794e-05,-1.5,nan,0,0,3,0,0,0,0,0,0,0,0,2982
820,-3.34296e-12,9.29e-38,-1.6072e-06,-3.40794e-12,9.28953e-38,0,-1.13745e-13,0,0,-6.34862,0.153965,-0.0150752,0,0,0,0,0,-2.34862,0.153965,119,19,119,19,190,19,119,61,0,-0.261799,-2.94185e-05,-1.5,nan,0,0,3,0,0,0,0,0,0,0,0,2982
830,-3.34296e-12,9.29e-38,-1.6072e-06,-3.40794e-12,9.28953e-38,-3.95812e-12,-1.13746e-13,0,0,-6.34862,0.153965,-0.0150752,0,0,0,0,0,-2.34862,0.153965,119,19,119,19,190,19,119,61,0,-0.261799,-2.82569e-05,-1.5,nan,0,0,3,0,0,0,0,0,0,0,0,2982
840,-3.34296e-12,9.29e-38,-1.6072e-06,-3.40794e-12,9.28953e-38,0,-1.13747e-13,0,0,-6.34862,0.153965,-0.0150752,0,0,0,0,0,-2.34862,0.153965,119,19,119,19,190,19,119,61,0,-0.261799,-2.72521e-05,-1.5,nan,0,0,3,0,0,0,0,0,0,0,0,2982
850,-3.34296e-12,9.29e-38,-1.6072e-06,-3.40794e-12,9.28953e-38,-3.95812e-12,-1.13747e-13,0,0,-6.34862,0.153965,-0.0150752,0,0,0,0,0,-2.34862,0.153965,119,19,119,19,190,19,119,61,0,-0.261799,-2.63896e-05,-1.5,nan,0,0,3,0,0,0,0,0,0,0,0,2982
860,-3.34296e-12,9.29e-38,-1.6072e-06,-3.40794e-12,9.28953e-38,0,-1.13748e-13,0,0,-6.34862,0.153965,-0.0150752,0,0,0,0,0,-2.34862,0.153965,119,19,119,19,190,19,119,61,0,-0.261799,-2.5503e-05,-1.5,nan,0,0,3,0,0,0,0,0,0,0,0,2982
870,-3.34296e-12,9.29e-38,-1.6072e-06,-3.40794e-12,9.28953e-38,-3.95812e-12,-1.13748e-13,0,0,-6.34862,0.153965,-0.0150752,0,0,0,0,0,-2.34862,0.153965,119,19,119,19,190,19,119,61,0,-0.261799,-2.46964e-05,-1.5,nan,0,0,3,0,0,0,0,0,0,0,0,2982
880,-3.34296e-12,9.29e-38,-1.6072e-06,-3.40794e-12,9.28953e-38,0,-1.13749e-13,0,0,-6.34862,0.153965,-0.0150752,0,0,0,0,0,-2.34862,0.153965,119,19,119,19,190,19,119,61,0,-0.261799,-2.37212e-05,-1.5,nan,0,0,3,0,0,0,0,0,0,0,0,2982
890,-3.34296e-12,9.29e-38,-1.6072e-06,-3.40794e-12,9.28953e-38,-3.95812e-12,-1.13749e-13,0,0,-6.34862,0.153965,-0.0150752,0,0,0,0,0,-2.34862,0.153965,119,19,119,19,190,19,119,61,0,-0.261799,-2.30171e-05,-1.5,nan,0,0,3,0,0,0,0,0,0,0,0,2982
900,-3.34296e-12,9.29e-38,-1.6072e-06,-3.40794e-12,9.28953e-38,0,-1.1375e-13,0,0,-6.34862,0.153965,-0.0150752,0,0,0,0,0,-2.34862,0.153965,119,19,119,19,190,19,119,61,0,-0.261799,-2.21082e-05,-1.5,nan,0,0,3,0,0,0,0,0,0,0,0,2982
910,-3.34296e-12,9.29e-38,-1.6072e-06,-3.40794e-12,9.28953e-38,-3.95812e-12,-1.1375e-13,0,0,-6.34862,0.153965,-0.0150752,0,0,0,0,0,-2.34862,0.153965,119,19,119,19,190,19,119,61,0,-0.261799,-2.13221e-05,-1.5,nan,0,0,3,0,0,0,0,0,0,0,0,2982
920,-3.34296e-12,9.29e-38,-1.6072e-06,-3.40794e-12,9.28953e-38,0,-1.13751e-13,0,0,-6.34862,0.153965,-0.0150752,0,0,0,0,0,-2.34862,0.153965,119,19,119,19,190,19,119,61,0,-0.261799,-2.06058e-05,-1.5,nan,0,0,3,0,0,0,0,0,0,0,0,2982
930,-3.34296e-12,9.29e-38,-1.6072e-06,-3.40794e-12,9.28953e-38,-3.95812e-12,-1.13751e-13,0,0,-6.34862,0.153965,-0.0150752,0,0,0,0,0,-2.34862,0.153965,119,19,119,19,190,19,119,61,0,-0.261799,-2.0035e-05,-1.5,nan,0,0,3,0,0,0,0,0,0,0,0,2982
940,-3.34296e-12,9.29e-38,-1.6072e-06,-3.40794e-12,9.28953e-38,0,-1.13752e-13,0,0,-6.34862,0.153965,-0.0150752,0,0,0,0,0,-2.34862,0.153965,119,19,119,19,190,19,119,61,0,-0.261799,-1.95192e-05,-1.5,nan,0,0,3,0,0,0,0,0,0,0,0,2982
950,-3.34296e-12,9.29e-38,-1.6072e-06,-3.40794e-12,9.28953e-38,-3.95812e-12,-1.13753e-13,0,0,-6.34862,0.153965,-0.0150752,0,0,0,0,0,-2.34862,0.153965,119,19,119,19,190,19,119,61,0,-0.261799,-1.88634e-05,-1.5,nan,0,0,3,0,0,0,0,0,0,0,0,2982
960,-3.34296e-12,9.29e-38,-1.6072e-06,-3.40794e-12,9.28953e-38,0,-1.13753e-13,0,0,-6.34862,0.153965,-0.0150752,0,0,0,0,0,-2.34862,0.153965,119,19,119,19,190,19,119,61,0,-0.261799,-1.81556e-05,-1.5,nan,0,0,3,0,0,0,0,0,0,0,0,2982
970,-3.34296e-12,9.29e-38,-1.6072e-06,-3.40794e-12,9.28953e-38,-3.95812e-12,-1.13754e-13,0,0,-6.34862,0.153965,-0.0150752,0,0,0,0,0,-2.34862,0.153965,119,19,119,19,190,19,119,61,0,-0.261799,-1.74387e-05,-1.5,nan,0,0,3,0,0,0,0,0,0,0,0,2982
980,-3.34296e-12,9.29e-38,-1.6072e-06,-3.40794e-12,9.28953e-38,0,-1.13754e-13,0,0,-6.34862,0.153965,-0.0150752,0,0,0,0,0,-2.34862,0.153965,119,19,119,19,190,19,119,61,0,-0.261799,-1.69211e-05,-1.5,nan,0,0,3,0,0,0,0,0,0,0,0,2982
990,-3.34296e-12,9.29e-38,-1.6072e-06,-3.40794e-12,9.28953e-38,-3.95812e-12,-1.13755e-13,0,0,-6.34862,0.153965,-0.0150752,0,0,0,0,0,-2.34862,0.153965,119,19,119,19,190,19,119,61,0,-0.261799,-1.62857e-05,-1.5,nan,0,0,3,0,0,0,0,0,0,0,0,2982
1000,-3.34296e-12,9.29e-38,-1.6072e-06,-3.40794e-12,9.28953e-38,0,-1.13755e-13,0,0,-6.34862,0.153965,-0.0150752,0,0,0,0,0,-2.34862,0.153965,119,19,119,19,190,19,119,61,0,-0.261799,-1.57702e-05,-1.5,nan,0,0,3,0,0,0,0,0,0,0,0,2982
1010,-3.34296e-12,9.29e-38,-1.6072e-06,-3.40794e-12,9.28953e-38,-3.95812e-12,-1.13756e-13,0,0,-6.34862,0.153965,-0.0150752,0,0,0,0,0,-2.34862,0.153965,119,19,119,19,190,19,119,61,0,-0.261799,-1.51785e-05,-1.5,nan,0,0,3,0,0,0,0,0,0,0,0,2982
1020,-3.34296e-12,9.29e-38,-1.6072e-06,-3.40794e-12,9.28953e-38,0,-1.13756e-13,0,0,-6.34862,0.153965,-0.0150752,0,0,0,0,0,-2.34862,0.153965,119,19,119,19,190,19,119,61,0,-0.261799,-1.20151e-05,-1.5,nan,0,0,3,0,0,0,0,0,0,0,0,2982
1030,-3.34296e-12,9.29e-38,-1.6072e-06,-3.40794e-12,9.28953e-38,-3.95812e-12,-1.13757e-13,0,0,-6.34862,0.153965,-0.0150752,0,0,0,0,0,-2.34862,0.153965,119,19,119,19,190,19,119,61,0,-0.261799,-1.02898e-05,-1.5,nan,0,0,3,0,0,0,0,0,0,0,0,2982
1040,-3.34296e-12,9.29e-38,-1.6072e-06,-3.40794e-12,9.28953e-38,0,-1.13757e-13,0,0,-6.34862,0.153965,-0.0150752,0,0,0,0,0,-2.34862,0.153965,119,19,119,19,190,19,119,61,0,-0.261799,-9.98442e-06,-1.5,nan,0,0,3,0,0,0,0,0,0,0,0,2982
1050,-3.34296e-12,9.29e-38,-1.6072e-06,-3.40794e-12,9.28953e-38,-3.95812e-12,-1.13758e-13,0,0,-6.34862,0.153965,-0.0150752,0,0,0,0,0,-2.34862,0.153965,119,19,119,19,190,19,119,61,0,-0.261799,-9.64876e-06,-1.5,nan,0,0,3,0,0,0,0,0,0,0,0,2982
1060,-3.34296e-12,9.29e-38,-1.6072e-06,-3.40794e-12,9.28953e-38,0,-1.13759e-13,0,0,-6.34862,0.153965,-0.0150752,0,0,0,0,0,-2.34862,0.153965,119,19,119,19,190,19,119,61,0,-0.261799,-9.30567e-06,-1.5,nan,0,0,3,0,0,0,0,0,0,0,0,2982
1070,-3.34296e-12,9.29e-38,-1.6072e-06,-3.40794e-12,9.28953e-38,-3.95812e-12,-1.13759e-13,0,0,-6.34862,0.153965,-0.0150752,0,0,0,0,0,-2.34862,0.153965,119,19,119,19,190,19,119,61,0,-0.261799,-9.01133e-06,-1.5,nan,0,0,3,0,0,0,0,0,0,0,0,2982
1080,-3.34296e-12,9.29e-38,-1.6072e-06,-3.40794e-12,9.28953e-38,0,-1.1376e-13,0,0,-6.34862,0.153965,-0.0150752,0,0,0,0,0,-2.34862,0.153965,119,19,119,19,190,19,119,61,0,-0.261799,-8.6555e-06,-1.5,nan,0,0,3,0,0,0,0,0,0,0,0,2982
1090,-3.34296e-12,9.29e-38,-1.6072e-06,-3.40794e-12,9.28953e-38,-3.95812e-12,-1.1376e-13,0,0,-6.34862,0.153965,-0.0150752,0,0,0,0,0,-2.34862,0.153965,119,19,119,19,190,19,119,61,0,-0.261799,-8.38172e-06,-1.5,nan,0,0,3,0,0,0,0,0,0,0,0,2982
1100,-3.34296e-12,9.29e-38,-1.6072e-06,-3.40794e-12,9.28953e-38,0,-1.13761e-13,0,0,-6.34862,0.153965,-0.0150752,0,0,0,0,0,-2.34862,0.153965,119,19,119,19,190,19,119,61,0,-0.261799,-8.08345e-06,-1.5,nan,0,0,3,0,0,0,0,0,0,0,0,2982
1110,-3.34296e-12,9.29e-38,-1.6072e-06,-3.40794e-12,9.28953e-38,-3.95812e-12,-1.13761e-13,0,0,-6.34862,0.153965,-0.0150752,0,0,0,0,0,-2.34862,0.153965,119,19,119,19,190,19,119,61,0,-0.261799,-7.85943e-06,-1.5,nan,0,0,3,0,0,0,0,0,0,0,0,2982
1120,-3.34296e-12,9.29e-38,-1.6072e-06,-3.40794e-12,9.28953e-38,0,-1.13762e-13,0,0,-6.34862,0.153965,-0.0150752,0,0,0,0,0,-2.34862,0.153965,119,19,119,19,190,19,119,61,0,-0.261799,-7.61084e-06,-1.5,nan,0,0,3,0,0,0,0,0,0,0,0,2982
1130,-3.34296e-12,9.29e-38,-1.6072e-06,-3.40794e-12,9.28953e-38,-3.95812e-12,-1.13762e-13,0,0,-6.34862,0.153965,-0.0150752,0,0,0,0,0,-2.34862,0.153965,119,19,119,19,190,19,119,61,0,-0.261799,-7.38494e-06,-1.5,nan,0,0,3,0,0,0,0,0,0,0,0,2982
1140,-3.34296e-12,9.29e-38,-1.6072e-06,-3.40794e-12,9.28953e-38,0,-1.13763e-13,0,0,-6.34862,0.153965,-0.0150752,0,0,0,0,0,-2.34862,0.153965,119,19,119,19,190,19,119,61,0,-0.261799,-7.06399e-06,-1.5,nan,0,0,3,0,0,0,0,0,0,0,0,2982
1150,-3.34296e-12,9.29e-38,-1.6072e-06,-3.40794e-12,9.28953e-38,-3.95812e-12,-1.13763e-13,0,0,-6.34862,0.153965,-0.0150752,0,0,0,0,0,-2.34862,0.153965,119,19,119,19,190,19,119,61,0,-0.261799,-6.84042e-06,-1.5,nan,0,0,3,0,0,0,0,0,0,0,0,2982
1160,-3.34296e-12,9.29e-38,-1.6072e-06,-3.40794e-12,9.28953e-38,0,-1.13764e-13,0,0,-6.34862,0.153965,-0.0150752,0,0,0,0,0,-2.34862,0.153965,119,19,119,19,190,19,119,61,0,-0.261799,-6.61062e-06,-1.5,nan,0,0,3,0,0,0,0,0,0,0,0,2982
1170,-3.34296e-12,9.29e-38,-1.6072e-06,-3.40794e-12,9.28953e-38,-3.95812e-12,-1.13764e-13,0,0,-6.34862,0.153965,-0.0150752,0,0,0,0,0,-2.34862,0.153965,119,19,119,19,190,19,119,61,0,-0.261799,-6.4014e-06,-1.5,nan,0,0,3,0,0,0,0,0,0,0,0,2982
1180,-3.34296e-12,9.29e-38,-1.6072e-06,-3.40794e-12,9.28953e-38,0,-1.13765e-13,0,0,-6.34862,0.153965,-0.0150752,0,0,0,0,0,-2.34862,0.153965,119,19,119,19,190,19,119,61,0,-0.261799,-6.14863e-06,-1.5,nan,0,0,3,0,0,0,0,0,0,0,0,2982
1190,-3.34296e-12,9.29e-38,-1.6072e-06,-3.40794e-12,9.28953e-38,-3.95812e-12,-1.13766e-13,0,0,-6.34862,0.153965,-0.0150752,0,0,0,0,0,-2.34862,0.153965,119,19,119,19,190,19,119,61,0,-0.261799,-5.95414e-06,-1.5,nan,0,0,3,0,0,0,0,0,0,0,0,2982
1200,-3.34296e-12,9.29e-38,-1.6072e-06,-3.40794e-12,9.28953e-38,0,-1.13766e-13,0,0,-6.34862,0.153965,-0.0150752,0,0,0,0,0,-2.34862,0.153965,119,19,119,19,190,19,119,61,0,-0.261799,-5.77742e-06,-1.5,nan,0,0,3,0,0,0,0,0,0,0,0,2982
1210,-3.34296e-12,9.29e-38,-1.6072e-06,-3.40794e-12,9.28953e-38,-3.95812e-12,-1.13767e-13,0,0,-6.34862,0.153965,-0.0150752,0,0,0,0,0,-2.34862,0.153965,119,19,119,19,190,19,119,61,0,-0.261799,-5.54908e-06,-1.5,nan,0,0,3,0,0,0,0,0,0,0,0,2982
1220,-3.34296e-12,9.29e-38,-1.6072e-06,-3.40794e-12,9.28953e-38,0,-1.13767e-13,0,0,-6.34862,0.153965,-0.0150752,0,0,0,0,0,-2.34862,0.153965,119,19,119,19,190,19,119,61,0,-0.261799,-5.37345e-06,-1.5,nan,0,0,3,0,0,0,0,0,0,0,0,2982
1230,-3.34296e-12,9.29e-38,-1.6072e-06,-3.40794e-12,9.28953e-38,-3.95812e-12,-1.13768e-13,0,0,-6.34862,0.153965,-0.0150752,0,0,0,0,0,-2.34862,0.153965,119,19,119,19,190,19,119,61,0,-0.261799,-5.19281e-06,-1.5,nan,0,0,3,0,0,0,0,0,0,0,0,2982
1240,-3.34296e-12,9.29e-38,-1.6072e-06,-3.40794e-12,9.28953e-38,0,-1.13768e-13,0,0,-6.34862,0.153965,-0.0150752,0,0,0,0,0,-2.34862,0.153965,119,19,119,19,190,19,119,61,0,-0.261799,-5.02856e-06,-1.5,nan,0,0,3,0,0,0,0,0,0,0,0,2982
1250,-3.34296e-12,9.29e-38,-1.6072e-06,-3.40794e-12,9.28953e-38,-3.95812e-12,-1.13769e-13,0,0,-6.34862,0.153965,-0.0150752,0,0,0,0,0,-2.34862,0.153965,119,19,119,19,190,19,119,61,0,-0.261799,-4.82999e-06,-1.5,nan,0,0,3,0,0,0,0,0,0,0,0,2982
1260,-3.34296e-12,9.29e-38,-1.6072e-06,-3.40794e-12,9.28953e-38,0,-1.13769e-13,0,0,-6.34862,0.153965,-0.0150752,0,0,0,0,0,-2.34862,0.153965,119,19,119,19,190,19,119,61,0,-0.261799,-4.67722e-06,-1.5,nan,0,0,3,0,0,0,0,0,0,0,0,2982
1270,-3.34296e-12,9.29e-38,-1.6072e-06,-3.40794e-12,9.28953e-38,-3.95812e-12,-1.1377e-13,0,0,-6.34862,0.153965,-0.0150752,0,0,0,0,0,-2.34862,0.153965,119,19,119,19,190,19,119,61,0,-0.261799,-4.49253e-06,-1.5,nan,0,0,3,0,0,0,0,0,0,0,0,2982
1280,-3.34296e-12,9.29e-38,-1.6072e-06,-3.40794e-12,9.28953e-38,0,-1.1377e-13,0,0,-6.34862,0.153965,-0.0150752,0,0,0,0,0,-2.34862,0.153965,119,19,119,19,190,19,119,61,0,-0.261799,-4.36808e-06,-1.5,nan,0,0,3,0,0,0,0,0,0,0,0,2982
1290,-3.34296e-12,9.29e-38,-1.6072e-06,-3.40794e-12,9.28953e-38,-3.95812e-12,-1.13771e-13,0,0,-6.34862,0.153965,-0.0150752,0,0,0,0,0,-2.34862,0.153965,119,19,119,19,190,19,119,61,0,-0.261799,-4.22992e-06,-1.5,nan,0,0,3,0,0,0,0,0,0,0,0,2982
1300,-3.34296e-12,9.29e-38,-1.6072e-06,-3.40794e-12,9.28953e-38,0,-1.13772e-13,0,0,-6.34862,0.153965,-0.0150752,0,0,0,0,0,-2.34862,0.153965,119,19,119,19,190,19,119,61,0,-0.261799,-4.08782e-06,-1.5,nan,0,0,3,0,0,0,0,0,0,0,0,2982
1310,-3.34296e-12,9.29e-38,-1.6072e-06,-3.40794e-12,9.28953e-38,-3.95812e-12,-1.13772e-13,0,0,-6.34862,0.153965,-0.0150752,0,0,0,0,0,-2.34862,0.153965,119,19,119,19,190,19,119,61,0,-0.261799,-3.96649e-06,-1.5,nan,0,0,3,0,0,0,0,0,0,0,0,2982
1320,-3.34296e-12,9.29e-38,-1.6072e-06,-3.40794e-12,9.28953e-38,0,-1.13773e-13,0,0,-6.34862,0.153965,-0.0150752,0,0,0,0,0,-2.34862,0.153965,119,19,119,19,190,19,119,61,0,-0.261799,-3.09308e-06,-1.5,nan,0,0,3,0,0,0,0,0,0,0,0,2982
1330,-3.34296e-12,9.29e-38,-1.6072e-06,-3.40794e-12,9.28953e-38,-3.95812e-12,-1.13773e-13,0,0,-6.34862,0.153965,-0.0150752,0,0,0,0,0,-2.34862,0.153965,119,19,119,19,190,19,119,61,0,-0.261799,-2.67862e-06,-1.5,nan,0,0,3,0,0,0,0,0,0,0,0,2982
1340,-3.34296e-12,9.29e-38,-1.6072e-06,-3.40794e-12,9.28953e-38,0,-1.13774e-13,0,0,-6.34862,0.153965,-0.0150752,0,0,0,0,0,-2.34862,0.153965,119,19,119,19,190,19,119,61,0,-0.261799,-2.58857e-06,-1.5,nan,0,0,3,0,0,0,0,0,0,0,0,2982
1350,-3.34296e-12,9.29e-38,-1.6072e-06,-3.40794e-12,9.28953e-38,-3.95812e-12,-1.13774e-13,0,0,-6.34862,0.153965,-0.0150752,0,0,0,0,0,-2.34862,0.153965,119,19,119,19,190,19,119,61,0,-0.261799,-2.50669e-06,-1.5,nan,0,0,3,0,0,0,0,0,0,0,0,2982
1360,-3.34296e-12,9.29e-38,-1.6072e-06,-3.40794e-12,9.28953e-38,0,-1.13775e-13,0,0,-6.34862,0.153965,-0.0150752,0,0,0,0,0,-2.34862,0.153965,119,19,119,19,190,19,119,61,0,-0.261799,-2.40279e-06,-1.5,nan,0,0,3,0,0,0,0,0,0,0,0,2982
1370,-3.34296e-12,9.29e-38,-1.6072e-06,-3.40794e-12,9.28953e-38,-3.95812e-12,-1.13775e-13,0,0,-6.34862,0.153965,-0.0150752,0,0,0,0,0,-2.34862,0.153965,119,19,119,19,190,19,119,61,0,-0.261799,-2.32674e-06,-1.5,nan,0,0,3,0,0,0,0,0,0,0,0,2982
1380,-3.34296e-12,9.29e-38,-1.6072e-06,-3.40794e-12,9.28953e-38,0,-1.13776e-13,0,0,-6.34862,0.153965,-0.0150752,0,0,0,0,0,-2.34862,0.153965,119,19,119,19,190,19,119,61,0,-0.261799,-2.23486e-06,-1.5,nan,0,0,3,0,0,0,0,0,0,0,0,2982
1390,-3.34296e-12,9.29e-38,-1.6072e-06,-3.40794e-12,9.28953e-38,-3.95812e-12,-1.13776e-13,0,0,-6.34862,0.153965,-0.0150752,0,0,0,0,0,-2.34862,0.153965,119,19,119,19,190,19,119,61,0,-0.261799,-2.15973e-06,-1.5,nan,0,0,3,0,0,0,0,0,0,0,0,2982
1400,-3.34296e-12,9.29e-38,-1.6072e-06,-3.40794e-12,9.28953e-38,0,-1.13777e-13,0,0,-6.34862,0.153965,-0.0150752,0,0,0,0,0,-2.34862,0.153965,119,19,119,19,190,19,119,61,0,-0.261799,-2.08293e-06,-1.5,nan,0,0,3,0,0,0,0,0,0,0,0,2982
1410,-3.34296e-12,9.29e-38,-1.6072e-06,-3.40794e-12,9.28953e-38,-3.95812e-12,-1.13777e-13,0,0,-6.34862,0.153965,-0.0150752,0,0,0,0,0,-2.34862,0.153965,119,19,119,19,190,19,119,61,0,-0.261799,-2.01705e-06,-1.5,nan,0,0,3,0,0,0,0,0,0,0,0,2982
1420,-3.34296e-12,9.29e-38,-1.6072e-06,-3.40794e-12,9.28953e-38,0,-1.13778e-13,0,0,-6.34862,0.153965,-0.0150752,0,0,0,0,0,-2.34862,0.153965,119,19,119,19,190,19,119,61,0,-0.261799,-1.94924e-06,-1.5,nan,0,0,3,0,0,0,0,0,0,0,0,2982
1430,-3.34296e-12,9.29e-38,-1.6072e-06,-3.40794e-12,9.28953e-38,-3.95812e-12,-1.13779e-13,0,0,-6.34862,0.153965,-0.0150752,0,0,0,0,0,-2.34862,0.153965,119,19,119,19,190,19,119,61,0,-0.261799,-1.87993e-06,-1.5,nan,0,0,3,0,0,0,0,0,0,0,0,2982
1440,-3.34296e-12,9.29e-38,-1.6072e-06,-3.40794e-12,9.28953e-38,0,-1.13779e-13,0,0,-6.34862,0.153965,-0.0150752,0,0,0,0,0,-2.34862,0.153965,119,19,119,19,190,19,119,61,0,-0.261799,-1.82043e-06,-1.5,nan,0,0,3,0,0,0,0,0,0,0,0,2982
1450,-3.34296e-12,9.29e-38,-1.6072e-06,-3.40794e-12,9.28953e-38,-3.95812e-12,-1.1378e-13,0,0,-6.34862,0.153965,-0.0150752,0,0,0,0,0,-2.34862,0.153965,119,19,119,19,190,19,119,61,0,-0.261799,-1.73782e-06,-1.5,nan,0,0,3,0,0,0,0,0,0,0,0,2982
1460,-3.34296e-12,9.29e-38,-1.6072e-06,-3.40794e-12,9.28953e-38,0,-1.1378e-13,0,0,-6.34862,0.153965,-0.0150752,0,0,0,0,0,-2.34862,0.153965,119,19,119,19,190,19,119,61,0,-0.261799,-1.69308e-06,-1.5,nan,0,0,3,0,0,0,0,0,0,0,0,2982
1470,-3.34296e-12,9.29e-38,-1.6072e-06,-3.40794e-12,9.28953e-38,-3.95812e-12,-1.13781e-13,0,0,-6.34862,0.153965,-0.0150752,0,0,0,0,0,-2.34862,0.153965,119,19,119,19,190,19,119,61,0,-0.261799,-1.63288e-06,-1.5,nan,0,0,3,0,0,0,0,0,0,0,0,2982
1480,-3.34296e-12,9.29e-38,-1.6072e-06,-3.40794e-12,9.28953e-38,0,-1.13781e-13,0,0,-6.34862,0.153965,-0.0150752,0,0,0,0,0,-2.34862,0.153965,119,19,119,19,190,19,119,61,0,-0.261799,-1.58123e-06,-1.5,nan,0,0,3,0,0,0,0,0,0,0,0,2982
1490,-3.34296e-12,9.29e-38,-1.6072e-06,-3.40794e-12,9.28953e-38,-3.95812e-12,-1.13782e-13,0,0,-6.34862,0.153965,-0.0150752,0,0,0,0,0,-2.34862,0.153965,119,19,119,19,190,19,119,61,0,-0.261799,-1.52807e-06,-1.5,nan,0,0,3,0,0,0,0,0,0,0,0,2982
1500,-3.34296e-12,9.29e-38,-1.6072e-06,-3.40794e-12,9.28953e-38,0,-1.13782e-13,0,0,-6.34862,0.153965,-0.0150752,0,0,0,0,0,-2.34862,0.153965,119,19,119,19,190,19,119,61,0,-0.261799,-1.47971e-06,-1.5,nan,0,0,3,0,0,0,0,0,0,0,0,2982
1510,-3.34296e-12,9.29e-38,-1.6072e-06,-3.40794e-12,9.28953e-38,-3.95812e-12,-1.13783e-13,0,0,-6.34862,0.153965,-0.0150752,0,0,0,0,0,-2.34862,0.153965,119,19,119,19,190,19,119,61,0,-0.261799,-1.41547e-06,-1.5,nan,0,0,3,0,0,0,0,0,0,0,0,2982
1520,-3.34296e-12,9.29e-38,-1.6072e-06,-3.40794e-12,9.28953e-38,0,-1.13783e-13,0,0,-6.34862,0.153965,-0.0150752,0,0,0,0,0,-2.34862,0.153965,119,19,119,19,190,19,119,61,0,-0.261799,-1.37069e-06,-1.5,nan,0,0,3,0,0,0,0,0,0,0,0,2982
1530,-3.34296e-12,9.29e-38,-1.6072e-06,-3.40794e-12,9.28953e-38,-3.95812e-12,-1.13784e-13,0,0,-6.34862,0.153965,-0.0150752,0,0,0,0,0,-2.34862,0.153965,119,19,119,19,190,19,119,61,0,-0.261799,-1.32465e-06,-1.5,nan,0,0,3,0,0,0,0,0,0,0,0,2982
1540,-3.34296e-12,9.29e-38,-1.6072e-06,-3.40794e-12,9.28953e-38,0,-1.13785e-13,0,0,-6.34862,0.153965,-0.0150752,0,0,0,0,0,-2.34862,0.153965,119,19,119,19,190,19,119,61,0,-0.261799,-1.28275e-06,-1.5,nan,0,0,3,0,0,0,0,0,0,0,0,2982
1550,-3.34296e-12,9.29e-38,-1.6072e-06,-3.40794e-12,9.28953e-38,-3.95812e-12,-1.13785e-13,0,0,-6.34862,0.153965,-0.0150752,0,0,0,0,0,-2.34862,0.153965,119,19,119,19,190,19,119,61,0,-0.261799,-1.24467e-06,-1.5,nan,0,0,3,0,0,0,0,0,0,0,0,2982
1560,-3.34296e-12,9.29e-38,-1.6072e-06,-3.40794e-12,9.28953e-38,0,-1.13786e-13,0,0,-6.34862,0.153965,-0.0150752,0,0,0,0,0,-2.34862,0.153965,119,19,119,19,190,19,119,61,0,-0.261799,-1.20042e-06,-1.5,nan,0,0,3,0,0,0,0,0,0,0,0,2982
1570,-3.34296e-12,9.29e-38,-1.6072e-06,-3.40794e-12,9.28953e-38,-3.95812e-12,-1.13786e-13,0,0,-6.34862,0.153965,-0.0150752,0,0,0,0,0,-2.34862,0.153965,119,19,119,19,190,19,119,61,0,-0.261799,-1.16245e-06,-1.5,nan,0,0,3,0,0,0,0,0,0,0,0,2982
1580,-3.34296e-12,9.29e-38,-1.6072e-06,-3.40794e-12,9.28953e-38,0,-1.13787e-13,0,0,-6.34862,0.153965,-0.0150752,0,0,0,0,0,-2.34862,0.153965,119,19,119,19,190,19,119,61,0,-0.261799,-1.11879e-06,-1.5,nan,0,0,3,0,0,0,0,0,0,0,0,2982
1590,-3.34296e-12,9.29e-38,-1.6072e-06,-3.40794e-12,9.28953e-38,-3.95812e-12,-1.13787e-13,0,0,-6.34862,0.153965,-0.0150752,0,0,0,0,0,-2.34862,0.153965,119,19,119,19,190,19,119,61,0,-0.261799,-1.08121e-06,-1.5,nan,0,0,3,0,0,0,0,0,0,0,0,2982
1600,-3.34296e-12,9.29e-38,-1.6072e-06,-3.40794e-12,9.28953e-38,0,-1.13788e-13,0,0,-6.34862,0.153965,-0.0150752,0,0,0,0,0,-2.34862,0.153965,119,19,119,19,190,19,119,61,0,-0.261799,-1.04699e-06,-1.5,nan,0,0,3,0,0,0,0,0,0,0,0,2982
1610,-3.34296e-12,9.29e-38,-1.6072e-06,-3.40794e-12,9.28953e-38,-3.95812e-12,-1.13788e-13,0,0,-6.34862,0.153965,-0.0150752,0,0,0,0,0,-2.34862,0.153965,119,19,119,19,190,19,119,61,0,-0.261799,-1.01385e-06,-1.5,nan,0,0,3,0,0,0,0,0,0,0,0,2982
1620,-3.34296e-12,9.29e-38,-1.6072e-06,-3.40794e-12,9.28953e-38,0,-1.13789e-13,0,0,-6.34862,0.153965,-0.0150752,0,0,0,0,0,-2.34862,0.153965,119,19,119,19,190,19,119,61,0,-0.261799,-9.66009e-07,-1.5,nan,0,0,3,0,0,0,0,0,0,0,0,2982
1630,-3.34296e-12,9.29e-38,-1.6072e-06,-3.40794e-12,9.28953e-38,-3.95812e-12,-1.13789e-13,0,0,-6.34862,0.153965,-0.0150752,0,0,0,0,0,-2.34862,0.153965,119,19,119,19,190,19,119,61,0,-0.261799,-7.70023e-07,-1.5,nan,0,0,3,0,0,0,0,0,0,0,0,2982
1640,-3.34296e-12,9.29e-38,-1.6072e-06,-3.40794e-12,9.28953e-38,0,-1.1379e-13,0,0,-6.34862,0.153965,-0.0150752,0,0,0,0,0,-2.34862,0.153965,119,19,119,19,190,19,119,61,0,-0.261799,-6.80629e-07,-1.5,nan,0,0,3,0,0,0,0,0,0,0,0,2982
1650,-3.34296e-12,9.29e-38,-1.6072e-06,-3.40794e-12,9.28953e-38,-3.95812e-12,-1.1379e-13,0,0,-6.34862,0.153965,-0.0150752,0,0,0,0,0,-2.34862,0.153965,119,19,119,19,190,19,119,61,0,-0.261799,-6.60427e-07,-1.5,nan,0,0,3,0,0,0,0,0,0,0,0,2982
1660,-3.34296e-12,9.29e-38,-1.6072e-06,-3.40794e-12,9.28953e-38,0,-1.13791e-13,0,0,-6.34862,0.153965,-0.0150752,0,0,0,0,0,-2.34862,0.153965,119,19,119,19,190,19,119,61,0,-0.261799,-6.39538e-07,-1.5,nan,0,0,3,0,0,0,0,0,0,0,0,2982
1670,-3.34296e-12,9.29e-38,-1.6072e-06,-3.40794e-12,9.28953e-38,-3.95812e-12,-1.13792e-13,0,0,-6.34862,0.153965,-0.0150752,0,0,0,0,0,-2.34862,0.153965,119,19,119,19,190,19,119,61,0,-0.261799,-6.18053e-07,-1.5,nan,0,0,3,0,0,0,0,0,0,0,0,2982
1680,-3.34296e-12,9.29e-38,-1.6072e-06,-3.40794e-12,9.28953e-38,0,-1.13792e-13,0,0,-6.34862,0.153965,-0.0150752,0,0,0,0,0,-2.34862,0.153965,119,19,119,19,190,19,119,61,0,-0.261799,-5.98492e-07,-1.5,nan,0,0,3,0,0,0,0,0,0,0,0,2982
1690,-3.34296e-12,9.29e-38,-1.6072e-06,-3.40794e-12,9.28953e-38,-3.95812e-12,-1.13793e-13,0,0,-6.34862,0.153965,-0.0150752,0,0,0,0,0,-2.34862,0.153965,119,19,119,19,190,19,119,61,0,-0.261799,-5.7721e-07,-1.5,nan,0,0,3,0,0,0,0,0,0,0,0,2982
1700,-3.34296e-12,9.29e-38,-1.6072e-06,-3.40794e-12,9.28953e-38,0,-1.13793e-13,0,0,-6.34862,0.153965,-0.0150752,0,0,0,0,0,-2.34862,0.153965,119,19,119,19,190,19,119,61,0,-0.261799,-5.58953e-07,-1.5,nan,0,0,3,0,0,0,0,0,0,0,0,2982
1710,-3.34296e-12,9.29e-38,-1.6072e-06,-3.40794e-12,9.28953e-38,-3.95812e-12,-1.13794e-13,0,0,-6.34862,0.153965,-0.0150752,0,0,0,0,0,-2.34862,0.153965,119,19,119,19,190,19,119,61,0,-0.261799,-5.35784e-07,-1.5,nan,0,0,3,0,0,0,0,0,0,0,0,2982
1720,-3.34296e-12,9.29e-38,-1.6072e-06,-3.40794e-12,9.28953e-38,0,-1.13794e-13,0,0,-6.34862,0.153965,-0.0150752,0,0,0,0,0,-2.34862,0.153965,119,19,119,19,190,19,119,61,0,-0.261799,-5.18837e-07,-1.5,nan,0,0,3,0,0,0,0,0,0,0,0,2982
1730,-3.34296e-12,9.29e-38,-1.6072e-06,-3.40794e-12,9.28953e-38,-3.95812e-12,-1.13795e-13,0,0,-6.34862,0.153965,-0.0150752,0,0,0,0,0,-2.34862,0.153965,119,19,119,19,190,19,119,61,0,-0.261799,-5.01407e-07,-1.5,nan,0,0,3,0,0,0,0,0,0,0,0,2982
1740,-3.34296e-12,9.29e-38,-1.6072e-06,-3.40794e-12,9.28953e-38,0,-1.13795e-13,0,0,-6.34862,0.153965,-0.0150752,0,0,0,0,0,-2.34862,0.153965,119,19,119,19,190,19,119,61,0,-0.261799,-4.85547e-07,-1.5,nan,0,0,3,0,0,0,0,0,0,0,0,2982
1750,-3.34296e-12,9.29e-38,-1.6072e-06,-3.40794e-12,9.28953e-38,-3.95812e-12,-1.13796e-13,0,0,-6.34862,0.153965,-0.0150752,0,0,0,0,0,-2.34862,0.153965,119,19,119,19,190,19,119,61,0,-0.261799,-4.68282e-07,-1.5,nan,0,0,3,0,0,0,0,0,0,0,0,2982
1760,-3.34296e-12,9.29e-38,-1.6072e-06,-3.40794e-12,9.28953e-38,0,-1.13796e-13,0,0,-6.34862,0.153965,-0.0150752,0,0,0,0,0,-2.34862,0.153965,119,19,119,19,190,19,119,61,0,-0.261799,-4.5347e-07,-1.5,nan,0,0,3,0,0,0,0,0,0,0,0,2982
1770,-3.34296e-12,9.29e-38,-1.6072e-06,-3.40794e-12,9.28953e-38,-3.95812e-12,-1.13797e-13,0,0,-6.34862,0.153965,-0.0150752,0,0,0,0,0,-2.34862,0.153965,119,19,119,19,190,19,119,61,0,-0.261799,-4.36441e-07,-1.5,nan,0,0,3,0,0,0,0,0,0,0,0,2982
1780,-3.34296e-12,9.29e-38,-1.6072e-06,-3.40794e-12,9.28953e-38,0,-1.13798e-13,0,0,-6.34862,0.153965,-0.0150752,0,0,0,0,0,-2.34862,0.153965,119,19,119,19,190,19,119,61,0,-0.261799,-4.20921e-07,-1.5,nan,0,0,3,0,0,0,0,0,0,0,0,2982
1790,-3.34296e-12,9.29e-38,-1.6072e-06,-3.40794e-12,9.28953e-38,-3.95812e-12,-1.13798e-13,0,0,-6.34862,0.153965,-0.0150752,0,0,0,0,0,-2.34862,0.153965,119,19,119,19,190,19,119,61,0,-0.261799,-4.07608e-07,-1.5,nan,0,0,3,0,0,0,0,0,0,0,0,2982
1800,-3.34296e-12,9.29e-38,-1.6072e-06,-3.40794e-12,9.28953e-38,0,-1.13799e-13,0,0,-6.34862,0.153965,-0.0150752,0,0,0,0,0,-2.34862,0.153965,119,19,119,19,190,19,119,61,0,-0.261799,-3.91512e-07,-1.5,nan,0,0,3,0,0,0,0,0,0,0,0,2982
1810,-3.34296e-12,9.29e-38,-1.6072e-06,-3.40794e-12,9.28953e-38,-3.95812e-12,-1.13799e-13,0,0,-6.34862,0.153965,-0.0150752,0,0,0,0,0,-2.34862,0.153965,119,19,119,19,190,19,119,61,0,-0.261799,-3.81433e-07,-1.5,nan,0,0,3,0,0,0,0,0,0,0,0,2982
1820,-3.34296e-12,9.29e-38,-1.6072e-06,-3.40794e-12,9.28953e-38,0,-1.138e-13,0,0,-6.34862,0.153965,-0.0150752,0,0,0,0,0,-2.34862,0.153965,119,19,119,19,190,19,119,61,0,-0.261799,-3.6787e-07,-1.5,nan,0,0,3,0,0,0,0,0,0,0,0,2982
1830,-3.34296e-12,9.29e-38,-1.6072e-06,-3.40794e-12,9.28953e-38,-3.95812e-12,-1.138e-13,0,0,-6.34862,0.153965,-0.0150752,0,0,0,0,0,-2.34862,0.153965,119,19,119,19,190,19,119,61,0,-0.261799,-3.56234e-07,-1.5,nan,0,0,3,0,0,0,0,0,0,0,0,2982
1840,-3.34296e-12,9.29e-38,-1.6072e-06,-3.40794e-12,9.28953e-38,0,-1.13801e-13,0,0,-6.34862,0.153965,-0.0150752,0,0,0,0,0,-2.34862,0.153965,119,19,119,19,190,19,119,61,0,-0.261799,-3.42856e-07,-1.5,nan,0,0,3,0,0,0,0,0,0,0,0,2982
1850,-3.34296e-12,9.29e-38,-1.6072e-06,-3.40794e-12,9.28953e-38,-3.95812e-12,-1.13801e-13,0,0,-6.34862,0.153965,-0.0150752,0,0,0,0,0,-2.34862,0.153965,119,19,119,19,190,19,119,61,0,-0.261799,-3.32004e-07,-1.5,nan,0,0,3,0,0,0,0,0,0,0,0,2982
1860,-3.34296e-12,9.29e-38,-1.6072e-06,-3.40794e-12,9.28953e-38,0,-1.13802e-13,0,0,-6.34862,0.153965,-0.0150752,0,0,0,0,0,-2.34862,0.153965,119,19,119,19,190,19,119,61,0,-0.261799,-3.19547e-07,-1.5,nan,0,0,3,0,0,0,0,0,0,0,0,2982
1870,-3.34296e-12,9.29e-38,-1.6072e-06,-3.40794e-12,9.28953e-38,-3.95812e-12,-1.13802e-13,0,0,-6.34862,0.153965,-0.0150752,0,0,0,0,0,-2.34862,0.153965,119,19,119,19,190,19,119,61,0,-0.261799,-3.09433e-07,-1.5,nan,0,0,3,0,0,0,0,0,0,0,0,2982
1880,-3.34296e-12,9.29e-38,-1.6072e-06,-3.40794e-12,9.28953e-38,0,-1.13803e-13,0,0,-6.34862,0.153965,-0.0150752,0,0,0,0,0,-2.34862,0.153965,119,19,119,19,190,19,119,61,0,-0.261799,-2.98422e-07,-1.5,nan,0,0,3,0,0,0,0,0,0,0,0,2982
1890,-3.34296e-12,9.29e-38,-1.6072e-06,-3.40794e-12,9.28953e-38,-3.95812e-12,-1.13803e-13,0,0,-6.34862,0.153965,-0.0150752,0,0,0,0,0,-2.34862,0.153965,119,19,119,19,190,19,119,61,0,-0.261799,-2.88982e-07,-1.5,nan,0,0,3,0,0,0,0,0,0,0,0,2982
1900,-3.34296e-12,9.29e-38,-1.6072e-06,-3.40794e-12,9.28953e-38,0,-1.13804e-13,0,0,-6.34862,0.153965,-0.0150752,0,0,0,0,0,-2.34862,0.153965,119,19,119,19,190,19,119,61,0,-0.261799,-2.79267e-07,-1.5,nan,0,0,3,0,0,0,0,0,0,0,0,2982
1910,-3.34296e-12,9.29e-38,-1.6072e-06,-3.40794e-12,9.28953e-38,-3.95812e-12,-1.13805e-13,0,0,-6.34862,0.153965,-0.0150752,0,0,0,0,0,-2.34862,0.153965,119,19,119,19,190,19,119,61,0,-0.261799,-2.6823e-07,-1.5,nan,0,0,3,0,0,0,0,0,0,0,0,2982
1920,-3.34296e-12,9.29e-38,-1.6072e-06,-3.40794e-12,9.28953e-38,0,-1.13805e-13,0,0,-6.34862,0.153965,-0.0150752,0,0,0,0,0,-2.34862,0.153965,119,19,119,19,190,19,119,61,0,-0.261799,-2.59741e-07,-1.5,nan,0,0,3,0,0,0,0,0,0,0,0,2982
1930,-3.34296e-12,9.29e-38,-1.6072e-06,-3.40794e-12,9.28953e-38,-3.95812e-12,-1.13806e-13,0,0,-6.34862,0.153965,-0.0150752,0,0,0,0,0,-2.34862,0.153965,119,19,119,19,190,19,119,61,0,-0.261799,-2.3877e-07,-1.5,nan,0,0,3,0,0,0,0,0,0,0,0,2982
1940,-3.34296e-12,9.29e-38,-1.6072e-06,-3.40794e-12,9.28953e-38,0,-1.13806e-13,0,0,-6.34862,0.153965,-0.0150752,0,0,0,0,0,-2.34862,0.153965,119,19,119,19,190,19,119,61,0,-0.261799,-2.31218e-07,-1.5,nan,0,0,3,0,0,0,0,0,0,0,0,2982
1950,-3.34296e-12,9.29e-38,-1.6072e-06,-3.40794e-12,9.28953e-38,-3.95812e-12,-1.13807e-13,0,0,-6.34862,0.153965,-0.0150752,0,0,0,0,0,-2.34862,0.153965,119,19,119,19,190,19,119,61,0,-0.261799,-2.20725e-07,-1.5,nan,0,0,3,0,0,0,0,0,0,0,0,2982
1960,-3.34296e-12,9.29e-38,-1.6072e-06,-3.40794e-12,9.28953e-38,0,-1.13807e-13,0,0,-6.34862,0.153965,-0.0150752,0,0,0,0,0,-2.34862,0.153965,119,19,119,19,190,19,119,61,0,-0.261799,-2.1331e-07,-1.5,nan,0,0,3,0,0,0,0,0,0,0,0,2982
1970,-3.34296e-12,9.29e-38,-1.6072e-06,-3.40794e-12,9.28953e-38,-3.95812e-12,-1.13808e-13,0,0,-6.34862,0.153965,-0.0150752,0,0,0,0,0,-2.34862,0.153965,119,19,119,19,190,19,119,61,0,-0.261799,-2.05725e-07,-1.5,nan,0,0,3,0,0,0,0,0,0,0,0,2982
1980,-3.34296e-12,9.29e-38,-1.6072e-06,-3.40794e-12,9.28953e-38,0,-1.13808e-13,0,0,-6.34862,0.153965,-0.0150752,0,0,0,0,0,-2.34862,0.153965,119,19,119,19,190,19,119,61,0,-0.261799,-2.00429e-07,-1.5,nan,0,0,3,0,0,0,0,0,0,0,0,2982
1990,-3.34296e-12,9.29e-38,-1.6072e-06,-3.40794e-12,9.28953e-38,-3.95812e-12,-1.13809e-13,0,0,-6.34862,0.153965,-0.0150752,0,0,0,0,0,-2.34862,0.153965,119,19,119,19,190,19,119,61,0,-0.261799,-1.94089e-07,-1.5,nan,0,0,3,0,0,0,0,0,0,0,0,2982
2000,-3.34296e-12,9.29e-38,-1.6072e-06,-3.40794e-12,9.28953e-38,0,-1.13809e-13,0,0,-6.34862,0.153965,-0.0150752,0,0,0,0,0,-2.34862,0.153965,119,19,119,19,190,19,119,61,0,-0.261799,-1.87569e-07,-1.5,nan,0,0,3,0,0,0,0,0,0,0,0,2982
2010,-3.34296e-12,9.29e-38,-1.6072e-06,-3.40794e-12,9.28953e-38,-3.95812e-12,-1.1381e-13,0,0,-6.34862,0.153965,-0.0150752,0,0,0,0,0,-2.34862,0.153965,119,19,119,19,190,19,119,61,0,-0.261799,-1.81268e-07,-1.5,nan,0,0,3,0,0,0,0,0,0,0,0,2982
2020,-3.34296e-12,9.29e-38,-1.6072e-06,-3.40794e-12,9.28953e-38,0,-1.13811e-13,0,0,-6.34862,0.153965,-0.0150752,0,0,0,0,0,-2.34862,0.153965,119,19,119,19,190,19,119,61,0,-0.261799,-1.75887e-07,-1.5,nan,0,0,3,0,0,0,0,0,0,0,0,2982
2030,-3.34296e-12,9.29e-38,-1.6072e-06,-3.40794e-12,9.28953e-38,-3.95812e-12,-1.13811e-13,0,0,-6.34862,0.153965,-0.0150752,0,0,0,0,0,-2.34862,0.153965,119,19,119,19,190,19,119,61,0,-0.261799,-1.70321e-07,-1.5,nan,0,0,3,0,0,0,0,0,0,0,0,2982
2040,-3.34298e-12,9.28108e-38,9.29043e-38,-3.40794e-12,9.28953e-38,0,-1.13812e-13,0,0,-6.34862,0.153965,-0.0150752,0,0,0,0,0,-2.34862,0.153965,119,19,119,19,190,19,119,61,0,-0.261799,-1.64595e-07,-1.5,nan,0,0,3,0,0,0,0,0,0,0,0,2982
2050,-3.34296e-12,9.29e-38,-1.6072e-06,-3.40794e-12,9.28953e-38,-3.95812e-12,-1.13812e-13,0,0,-6.34862,0.153965,-0.0150752,0,0,0,0,0,-2.34862,0.153965,119,19,119,19,190,19,119,61,0,-0.261799,-1.59065e-07,-1.5,nan,0,0,3,0,0,0,0,0,0,0,0,2982
2060,-3.34296e-12,9.29e-38,-1.6072e-06,-3.40794e-12,9.28953e-38,0,-1.13813e-13,0,0,-6.34862,0.153965,-0.0150752,0,0,0,0,0,-2.34862,0.153965,119,19,119,19,190,19,119,61,0,-0.261799,-1.53718e-07,-1.5,nan,0,0,3,0,0,0,0,0,0,0,0,2982
2070,-3.34296e-12,9.29e-38,-1.6072e-06,-3.40794e-12,9.28953e-38,-3.95812e-12,-1.13813e-13,0,0,-6.34862,0.153965,-0.0150752,0,0,0,0,0,-2.34862,0.153965,119,19,119,19,190,19,119,61,0,-0.261799,-1.48853e-07,-1.5,nan,0,0,3,0,0,0,0,0,0,0,0,2982
2080,-3.34296e-12,9.29e-38,-1.6072e-06,-3.40794e-12,9.28953e-38,0,-1.13814e-13,0,0,-6.34862,0.153965,-0.0150752,0,0,0,0,0,-2.34862,0.153965,119,19,119,19,190,19,119,61,0,-0.261799,-1.41805e-07,-1.5,nan,0,0,3,0,0,0,0,0,0,0,0,2982
2090,-3.34296e-12,9.29e-38,-1.6072e-06,-3.40794e-12,9.28953e-38,-3.95812e-12,-1.13814e-13,0,0,-6.34862,0.153965,-0.0150752,0,0,0,0,0,-2.34862,0.153965,119,19,119,19,190,19,119,61,0,-0.261799,-1.37317e-07,-1.5,nan,0,0,3,0,0,0,0,0,0,0,0,2982
2100,-3.34296e-12,9.29e-38,-1.6072e-06,-3.40794e-12,9.28953e-38,0,-1.13815e-13,0,0,-6.34862,0.153965,-0.0150752,0,0,0,0,0,-2.34862,0.153965,119,19,119,19,190,19,119,61,0,-0.261799,-1.32971e-07,-1.5,nan,0,0,3,0,0,0,0,0,0,0,0,2982
2110,-3.34296e-12,9.29e-38,-1.6072e-06,-3.40794e-12,9.28953e-38,-3.95812e-12,-1.13815e-13,0,0,-6.34862,0.153965,-0.0150752,0,0,0,0,0,-2.34862,0.153965,119,19,119,19,190,19,119,61,0,-0.261799,-1.28765e-07,-1.5,nan,0,0,3,0,0,0,0,0,0,0,0,2982
2120,-3.34296e-12,9.29e-38,-1.6072e-06,-3.40794e-12,9.28953e-38,0,-1.13816e-13,0,0,-6.34862,0.153965,-0.0150752,0,0,0,0,0,-2.34862,0.153965,119,19,119,19,190,19,119,61,0,-0.261799,-1.2393e-07,-1.5,nan,0,0,3,0,0,0,0,0,0,0,0,2982
2130,-3.34296e-12,9.29e-38,-1.6072e-06,-3.40794e-12,9.28953e-38,-3.95812e-12,-1.13817e-13,0,0,-6.34862,0.153965,-0.0150752,0,0,0,0,0,-2.34862,0.153965,119,19,119,19,190,19,119,61,0,-0.261799,-1.20007e-07,-1.5,nan,0,0,3,0,0,0,0,0,0,0,0,2982
2140,-3.34296e-12,9.29e-38,-1.6072e-06,-3.40794e-12,9.28953e-38,0,-1.13817e-13,0,0,-6.34862,0.153965,-0.0150752,0,0,0,0,0,-2.34862,0.153965,119,19,119,19,190,19,119,61,0,-0.261799,-1.16209e-07,-1.5,nan,0,0,3,0,0,0,0,0,0,0,0,2982
2150,-3.34296e-12,9.29e-38,-1.6072e-06,-3.40794e-12,9.28953e-38,-3.95812e-12,-1.13818e-13,0,0,-6.34862,0.153965,-0.0150752,0,0,0,0,0,-2.34862,0.153965,119,19,119,19,190,19,119,61,0,-0.261799,-1.11164e-07,-1.5,nan,0,0,3,0,0,0,0,0,0,0,0,2982
2160,-3.34296e-12,9.29e-38,-1.6072e-06,-3.40794e-12,9.28953e-38,0,-1.13818e-13,0,0,-6.34862,0.153965,-0.0150752,0,0,0,0,0,-2.34862,0.153965,119,19,119,19,190,19,119,61,0,-0.261799,-1.07864e-07,-1.5,nan,0,0,3,0,0,0,0,0,0,0,0,2982
2170,-3.34296e-12,9.29e-38,-1.6072e-06,-3.40794e-12,9.28953e-38,-3.95812e-12,-1.13819e-13,0,0,-6.34862,0.153965,-0.0150752,0,0,0,0,0,-2.34862,0.153965,119,19,119,19,190,19,119,61,0,-0.261799,-1.04663e-07,-1.5,nan,0,0,3,0,0,0,0,0,0,0,0,2982
2180,-3.34296e-12,9.29e-38,-1.6072e-06,-3.40794e-12,9.28953e-38,0,-1.13819e-13,0,0,-6.34862,0.153965,-0.0150752,0,0,0,0,0,-2.34862,0.153965,119,19,119,19,190,19,119,61,0,-0.261799,-1.01352e-07,-1.5,nan,0,0,3,0,0,0,0,0,0,0,0,2982
2190,-3.34296e-12,9.29e-38,-1.6072e-06,-3.40794e-12,9.28953e-38,-3.95812e-12,-1.1382e-13,0,0,-6.34862,0.153965,-0.0150752,0,0,0,0,0,-2.34862,0.153965,119,19,119,19,190,19,119,61,0,-0.261799,-9.77483e-08,-1.5,nan,0,0,3,0,0,0,0,0,0,0,0,2982
2200,-3.34296e-12,9.29e-38,-1.6072e-06,-3.40794e-12,9.28953e-38,0,-1.1382e-13,0,0,-6.34862,0.153965,-0.0150752,0,0,0,0,0,-2.34862,0.153965,119,19,119,19,190,19,119,61,0,-0.261799,-9.44622e-08,-1.5,nan,0,0,3,0,0,0,0,0,0,0,0,2982
2210,-3.34296e-12,9.29e-38,-1.6072e-06,-3.40794e-12,9.28953e-38,-3.95812e-12,-1.13821e-13,0,0,-6.34862,0.153965,-0.0150752,0,0,0,0,0,-2.34862,0.153965,119,19,119,19,190,19,119,61,0,-0.261799,-9.09148e-08,-1.5,nan,0,0,3,0,0,0,0,0,0,0,0,2982
2220,-3.34296e-12,9.29e-38,-1.6072e-06,-3.40794e-12,9.28953e-38,0,-1.13821e-13,0,0,-6.34862,0.153965,-0.0150752,0,0,0,0,0,-2.34862,0.153965,119,19,119,19,190,19,119,61,0,-0.261799,-8.82163e-08,-1.5,nan,0,0,3,0,0,0,0,0,0,0,0,2982
2230,-3.34296e-12,9.29e-38,-1.6072e-06,-3.40794e-12,9.28953e-38,-3.95812e-12,-1.13822e-13,0,0,-6.34862,0.153965,-0.0150752,0,0,0,0,0,-2.34862,0.153965,119,19,119,19,190,19,119,61,0,-0.261799,-8.52506e-08,-1.5,nan,0,0,3,0,0,0,0,0,0,0,0,2982
2240,-3.34296e-12,9.29e-38,-1.6072e-06,-3.40794e-12,9.28953e-38,0,-1.13822e-13,0,0,-6.34862,0.153965,-0.0150752,0,0,0,0,0,-2.34862,0.153965,119,19,119,19,190,19,119,61,0,-0.261799,-8.23867e-08,-1.5,nan,0,0,3,0,0,0,0,0,0,0,0,2982
2250,-3.34296e-12,9.29e-38,-1.6072e-06,-3.40794e-12,9.28953e-38,-3.95812e-12,-1.13823e-13,0,0,-6.34862,0.153965,-0.0150752,0,0,0,0,0,-2.34862,0.153965,119,19,119,19,190,19,119,61,0,-0.261799,-7.97808e-08,-1.5,nan,0,0,3,0,0,0,0,0,0,0,0,2982
2260,-3.34296e-12,9.29e-38,-1.6072e-06,-3.40794e-12,9.28953e-38,0,-1.13824e-13,0,0,-6.34862,0.153965,-0.0150752,0,0,0,0,0,-2.34862,0.153965,119,19,119,19,190,19,119,61,0,-0.261799,-7.70987e-08,-1.5,nan,0,0,3,0,0,0,0,0,0,0,0,2982
2270,-3.34296e-12,9.29e-38,-1.6072e-06,-3.40794e-12,9.28953e-38,-3.95812e-12,-1.13824e-13,0,0,-6.34862,0.153965,-0.0150752,0,0,0,0,0,-2.34862,0.153965,119,19,119,19,190,19,119,61,0,-0.261799,-7.46586e-08,-1.5,nan,0,0,3,0,0,0,0,0,0,0,0,2982
2280,-3.34296e-12,9.29e-38,-1.6072e-06,-3.40794e-12,9.28953e-38,0,-1.13825e-13,0,0,-6.34862,0.153965,-0.0150752,0,0,0,0,0,-2.34862,0.153965,119,19,119,19,190,19,119,61,0,-0.261799,-7.15639e-08,-1.5,nan,0,0,3,0,0,0,0,0,0,0,0,2982
2290,-3.34296e-12,9.29e-38,-1.6072e-06,-3.40794e-12,9.28953e-38,-3.95812e-12,-1.13825e-13,0,0,-6.34862,0.153965,-0.0150752,0,0,0,0,0,-2.34862,0.153965,119,19,119,19,190,19,119,61,0,-0.261799,-6.94397e-08,-1.5,nan,0,0,3,0,0,0,0,0,0,0,0,2982
2300,-3.34296e-12,9.29e-38,-1.6072e-06,-3.40794e-12,9.28953e-38,0,-1.13826e-13,0,0,-6.34862,0.153965,-0.0150752,0,0,0,0,0,-2.34862,0.153965,119,19,119,19,190,19,119,61,0,-0.261799,-6.71053e-08,-1.5,nan,0,0,3,0,0,0,0,0,0,0,0,2982
2310,-3.34296e-12,9.29e-38,-1.6072e-06,-3.40794e-12,9.28953e-38,-3.95812e-12,-1.13826e-13,0,0,-6.34862,0.153965,-0.0150752,0,0,0,0,0,-2.34862,0.153965,119,19,119,19,190,19,119,61,0,-0.261799,-6.49828e-08,-1.5,nan,0,0,3,0,0,0,0,0,0,0,0,2982
2320,-3.34296e-12,9.29e-38,-1.6072e-06,-3.40794e-12,9.28953e-38,0,-1.13827e-13,0,0,-6.34862,0.153965,-0.0150752,0,0,0,0,0,-2.34862,0.153965,119,19,119,19,190,19,119,61,0,-0.261799,-6.25445e-08,-1.5,nan,0,0,3,0,0,0,0,0,0,0,0,2982
2330,-3.34296e-12,9.29e-38,-1.6072e-06,-3.40794e-12,9.28953e-38,-3.95812e-12,-1.13827e-13,0,0,-6.34862,0.153965,-0.0150752,0,0,0,0,0,-2.34862,0.153965,119,19,119,19,190,19,119,61,0,-0.261799,-6.09342e-08,-1.5,nan,0,0,3,0,0,0,0,0,0,0,0,2982
2340,-3.34296e-12,9.29e-38,-1.6072e-06,-3.40794e-12,9.28953e-38,0,-1.13828e-13,0,0,-6.34862,0.153965,-0.0150752,0,0,0,0,0,-2.34862,0.153965,119,19,119,19,190,19,119,61,0,-0.261799,-5.87675e-08,-1.5,nan,0,0,3,0,0,0,0,0,0,0,0,2982
2350,-3.34296e-12,9.29e-38,-1.6072e-06,-3.40794e-12,9.28953e-38,-3.95812e-12,-1.13828e-13,0,0,-6.34862,0.153965,-0.0150752,0,0,0,0,0,-2.34862,0.153965,119,19,119,19,190,19,119,61,0,-0.261799,-5.66801e-08,-1.5,nan,0,0,3,0,0,0,0,0,0,0,0,2982
2360,-3.34296e-12,9.29e-38,-1.6072e-06,-3.40794e-12,9.28953e-38,0,-1.13829e-13,0,0,-6.34862,0.153965,-0.0150752,0,0,0,0,0,-2.34862,0.153965,119,19,119,19,190,19,119,61,0,-0.261799,-5.46647e-08,-1.5,nan,0,0,3,0,0,0,0,0,0,0,0,2982
2370,-3.34296e-12,9.29e-38,-1.6072e-06,-3.40794e-12,9.28953e-38,-3.95812e-12,-1.1383e-13,0,0,-6.34862,0.153965,-0.0150752,0,0,0,0,0,-2.34862,0.153965,119,19,119,19,190,19,119,61,0,-0.261799,-5.30421e-08,-1.5,nan,0,0,3,0,0,0,0,0,0,0,0,2982
2380,-3.34296e-12,9.29e-38,-1.6072e-06,-3.40794e-12,9.28953e-38,0,-1.1383e-13,0,0,-6.34862,0.153965,-0.0150752,0,0,0,0,0,-2.34862,0.153965,119,19,119,19,190,19,119,61,0,-0.261799,-5.13644e-08,-1.5,nan,0,0,3,0,0,0,0,0,0,0,0,2982
2390,-3.34296e-12,9.29e-38,-1.6072e-06,-3.40794e-12,9.28953e-38,-3.95812e-12,-1.13831e-13,0,0,-6.34862,0.153965,-0.0150752,0,0,0,0,0,-2.34862,0.153965,119,19,119,19,190,19,119,61,0,-0.261799,-4.9538e-08,-1.5,nan,0,0,3,0,0,0,0,0,0,0,0,2982
2400,-3.34296e-12,9.29e-38,-1.6072e-06,-3.40794e-12,9.28953e-38,0,-1.13831e-13,0,0,-6.34862,0.153965,-0.0150752,0,0,0,0,0,-2.34862,0.153965,119,19,119,19,190,19,119,61,0,-0.261799,-4.79711e-08,-1.5,nan,0,0,3,0,0,0,0,0,0,0,0,2982
2410,-3.34296e-12,9.29e-38,-1.6072e-06,-3.40794e-12,9.28953e-38,-3.95812e-12,-1.13832e-13,0,0,-6.34862,0.153965,-0.0150752,0,0,0,0,0,-2.34862,0.153965,119,19,119,19,190,19,119,61,0,-0.261799,-4.60751e-08,-1.5,nan,0,0,3,0,0,0,0,0,0,0,0,2982
2420,-3.34296e-12,9.29e-38,-1.6072e-06,-3.40794e-12,9.28953e-38,0,-1.13832e-13,0,0,-6.34862,0.153965,-0.0150752,0,0,0,0,0,-2.34862,0.153965,119,19,119,19,190,19,119,61,0,-0.261799,-4.46178e-08,-1.5,nan,0,0,3,0,0,0,0,0,0,0,0,2982
2430,-3.34296e-12,9.29e-38,-1.6072e-06,-3.40794e-12,9.28953e-38,-3.95812e-12,-1.13833e-13,0,0,-6.34862,0.153965,-0.0150752,0,0,0,0,0,-2.34862,0.153965,119,19,119,19,190,19,119,61,0,-0.261799,-4.29436e-08,-1.5,nan,0,0,3,0,0,0,0,0,0,0,0,2982
2440,-3.34296e-12,9.29e-38,-1.6072e-06,-3.40794e-12,9.28953e-38,0,-1.13833e-13,0,0,-6.34862,0.153965,-0.0150752,0,0,0,0,0,-2.34862,0.153965,119,19,119,19,190,19,119,61,0,-0.261799,-4.15853e-08,-1.5,nan,0,0,3,0,0,0,0,0,0,0,0,2982
2450,-3.34296e-12,9.29e-38,-1.6072e-06,-3.40794e-12,9.28953e-38,-3.95812e-12,-1.13834e-13,0,0,-6.34862,0.153965,-0.0150752,0,0,0,0,0,-2.34862,0.153965,119,19,119,19,190,19,119,61,0,-0.261799,-4.01873e-08,-1.5,nan,0,0,3,0,0,0,0,0,0,0,0,2982
2460,-3.34296e-12,9.29e-38,-1.6072e-06,-3.40794e-12,9.28953e-38,0,-1.13834e-13,0,0,-6.34862,0.153965,-0.0150752,0,0,0,0,0,-2.34862,0.153965,119,19,119,19,190,19,119,61,0,-0.261799,-3.89154e-08,-1.5,nan,0,0,3,0,0,0,0,0,0,0,0,2982
2470,-3.34296e-12,9.29e-38,-1.6072e-06,-3.40794e-12,9.28953e-38,-3.95812e-12,-1.13835e-13,0,0,-6.34862,0.153965,-0.0150752,0,0,0,0,0,-2.34862,0.153965,119,19,119,19,190,19,119,61,0,-0.261799,-3.7073e-08,-1.5,nan,0,0,3,0,0,0,0,0,0,0,0,2982
2480,-3.34296e-12,9.29e-38,-1.6072e-06,-3.40794e-12,9.28953e-38,0,-1.13835e-13,0,0,-6.34862,0.153965,-0.0150752,0,0,0,0,0,-2.34862,0.153965,119,19,119,19,190,19,119,61,0,-0.261799,-3.58996e-08,-1.5,nan,0,0,3,0,0,0,0,0,0,0,0,2982
2490,-3.34296e-12,9.29e-38,-1.6072e-06,-3.40794e-12,9.28953e-38,-3.95812e-12,-1.13836e-13,0,0,-6.34862,0.153965,-0.0150752,0,0,0,0,0,-2.34862,0.153965,119,19,119,19,190,19,119,61,0,-0.261799,-3.47641e-08,-1.5,nan,0,0,3,0,0,0,0,0,0,0,0,2982
2500,-3.34296e-12,9.29e-38,-1.6072e-06,-3.40794e-12,9.28953e-38,0,-1.13837e-13,0,0,-6.34862,0.153965,-0.0150752,0,0,0,0,0,-2.34862,0.153965,119,19,119,19,190,19,119,61,0,-0.261799,-3.35962e-08,-1.5,nan,0,0,3,0,0,0,0,0,0,0,0,2982
2510,-3.34296e-12,9.29e-38,-1.6072e-06,-3.40794e-12,9.28953e-38,-3.95812e-12,-1.13837e-13,0,0,-6.34862,0.153965,-0.0150752,0,0,0,0,0,-2.34862,0.153965,119,19,119,19,190,19,119,61,0,-0.261799,-3.25336e-08,-1.5,nan,0,0,3,0,0,0,0,0,0,0,0,2982
2520,-3.34296e-12,9.29e-38,-1.6072e-06,-3.40794e-12,9.28953e-38,0,-1.13838e-13,0,0,-6.34862,0.153965,-0.0150752,0,0,0,0,0,-2.34862,0.153965,119,19,119,19,190,19,119,61,0,-0.261799,-3.15045e-08,-1.5,nan,0,0,3,0,0,0,0,0,0,0,0,2982
2530,-3.34296e-12,9.29e-38,-1.6072e-06,-3.40794e-12,9.28953e-38,-3.95812e-12,-1.13838e-13,0,0,-6.34862,0.153965,-0.0150752,0,0,0,0,0,-2.34862,0.153965,119,19,119,19,190,19,119,61,0,-0.261799,-2.52368e-08,-1.5,nan,0,0,3,0,0,0,0,0,0,0,0,2982
2540,-3.34296e-12,9.29e-38,-1.6072e-06,-3.40794e-12,9.28953e-38,0,-1.13839e-13,0,0,-6.34862,0.153965,-0.0150752,0,0,0,0,0,-2.34862,0.153965,119,19,119,19,190,19,119,61,0,-0.261799,-2.06216e-08,-1.5,nan,0,0,3,0,0,0,0,0,0,0,0,2982
2550,-3.34296e-12,9.29e-38,-1.6072e-06,-3.40794e-12,9.28953e-38,-3.95812e-12,-1.13839e-13,0,0,-6.34862,0.153965,-0.0150752,0,0,0,0,0,-2.34862,0.153965,119,19,119,19,190,19,119,61,0,-0.261799,-1.99693e-08,-1.5,nan,0,0,3,0,0,0,0,0,0,0,0,2982
2560,-3.34296e-12,9.29e-38,-1.6072e-06,-3.40794e-12,9.28953e-38,0,-1.1384e-13,0,0,-6.34862,0.153965,-0.0150752,0,0,0,0,0,-2.34862,0.153965,119,19,119,19,190,19,119,61,0,-0.261799,-1.9298e-08,-1.5,nan,0,0,3,0,0,0,0,0,0,0,0,2982
2570,-3.34296e-12,9.29e-38,-1.6072e-06,-3.40794e-12,9.28953e-38,-3.95812e-12,-1.1384e-13,0,0,-6.34862,0.153965,-0.0150752,0,0,0,0,0,-2.34862,0.153965,119,19,119,19,190,19,119,61,0,-0.261799,-1.84981e-08,-1.5,nan,0,0,3,0,0,0,0,0,0,0,0,2982
2580,-3.34296e-12,9.29e-38,-1.6072e-06,-3.40794e-12,9.28953e-38,0,-1.13841e-13,0,0,-6.34862,0.153965,-0.0150752,0,0,0,0,0,-2.34862,0.153965,119,19,119,19,190,19,119,61,0,-0.261799,-1.77677e-08,-1.5,nan,0,0,3,0,0,0,0,0,0,0,0,2982
2590,-3.34296e-12,9.29e-38,-1.6072e-06,-3.40794e-12,9.28953e-38,-3.95812e-12,-1.13841e-13,0,0,-6.34862,0.153965,-0.0150752,0,0,0,0,0,-2.34862,0.153965,119,19,119,19,190,19,119,61,0,-0.261799,-1.72057e-08,-1.5,nan,0,0,3,0,0,0,0,0,0,0,0,2982
