timestamp,A_x,A_y,A_z,P,Q,R,Phi,Theta,Psi,poseX,poseY,poseZ,state_X,state_Y,state_Z,state_VzB,state_Bx,state_By,state_Bz,p1_x,p1_y,p2_x,p2_y,p3_x,p3_y,p4_x,p4_y,roll,pitch,yaw,alt,targetHeading,highLevelState,lowLevelState,gateNumber,filtered_x,filtered_y,x_OT,y_OT,vx_OT,vy_OT,filtered_vx,filtered_vygateArearansac_corr_x,ransac_corr_y,ransac_corr_vx,ransac_corr_vy,detectionTimeStamppTermX,dTermX,pTermY,dTermY
7989,0,0,0,0,0,0,0,0,0,0,0,0,0,0,0,0,0,0,0,0,0,0,0,0,0,0,0,0,-0,0,-1.5,3.94113e+12,0,0,0,0,0,0,0,0,0,0,0,1.9603e-19,0,0,0,0,0,0,0,0,0
8971,-3.11482e-12,4.53369e-38,-1.51454e-06,-3.18057e-12,4.53346e-38,0,-1.06589e-13,0,0,0,0,0,0,0,0,0,0,0,0,0,0,0,0,0,0,0,0,0,-0,0,-1.5,3.94113e+12,0,0,0,0,0,0,0,0,0,0,0,1.9603e-19,0,0,0,0,0,0,0,0,0
9012,-3.11482e-12,4.53369e-38,-1.51454e-06,-3.18057e-12,4.53346e-38,0,-1.0659e-13,0,0,0,0,0,0,0,0,0,0,0,0,0,0,0,0,0,0,0,0,0,-0,0,-1.5,3.94113e+12,0,0,0,0,0,0,0,0,0,0,0,1.9603e-19,0,0,0,0,0,0,0,0,0
9240,-3.11482e-12,4.53369e-38,-1.51454e-06,-3.18057e-12,4.53346e-38,0,-1.0659e-13,0,0,0,0,0,0,0,0,0,0,0,0,0,0,0,0,0,0,0,0,0,-0,0,-1.5,3.94113e+12,0,0,0,0,0,0,0,0,0,0,0,1.9603e-19,0,0,0,0,0,0,0,0,0
9303,-3.11482e-12,4.53369e-38,-1.51454e-06,-3.18057e-12,4.53346e-38,0,-1.0659e-13,0,0,0,0,0,0,0,0,0,0,0,0,0,0,0,0,0,0,0,0,0,-0,0,-1.5,3.94113e+12,0,0,0,0,0,0,0,0,0,0,0,1.9603e-19,0,0,0,0,0,0,0,0,0
9550,-3.11482e-12,4.53369e-38,-1.51454e-06,-3.18057e-12,4.53346e-38,0,-1.0659e-13,0,0,-3.57668,-0.141542,0.434655,0,0,0,0,0,-0.500047,-0.141542,274,-56,274,-56,401,-68,273,66,0,-0,0,-1.5,3.94113e+12,0,0,0,0,0,0,0,0,0,0,0,17152,0,0,0,0,9542,0,0,0,0
9654,-3.11482e-12,4.53369e-38,-1.51454e-06,-3.18057e-12,4.53346e-38,0,-1.06591e-13,0,0,-3.62266,-0.118651,0.44947,0,0,0,0,0,-0.563049,-0.118651,274,-56,274,-56,392,-68,273,71,0,-0,0,-1.5,3.94113e+12,0,0,0,0,0,0,0,0,0,0,0,17097,0,0,0,0,9645,0,0,0,0
9682,-3.11482e-12,4.53369e-38,-1.51454e-06,-3.18057e-12,4.53346e-38,0,-1.06591e-13,0,0,-3.62266,-0.118651,0.44947,0,0,0,0,0,-0.563049,-0.118651,274,-56,274,-56,392,-68,273,71,0,-0,0,-1.5,3.94113e+12,0,0,0,0,0,0,0,0,0,0,0,17097,0,0,0,0,9645,0,0,0,0
9703,-3.11482e-12,4.53369e-38,-1.51454e-06,-3.18057e-12,4.53346e-38,0,-1.06591e-13,0,0,-3.60733,-0.127311,0.463109,0,0,0,0,0,-0.542048,-0.127311,272,-58,272,-58,401,-68,273,66,0,-0,0,-1.5,3.94113e+12,0,0,0,0,0,0,0,0,0,0,0,17286,0,0,0,0,9697,0,0,0,0
9859,-3.11482e-12,4.53369e-38,-1.51454e-06,-3.18057e-12,4.53346e-38,0,-1.06591e-13,0,0,-3.59867,-0.0904909,0.47097,0,0,0,0,0,-0.530172,-0.0904909,266,-57,266,-57,392,-73,272,67,-0.0243255,-0.183858,0,-1.5,3.94113e+12,0,0,0,-0.49665,-0.0617789,0,0,0,0,0.214882,0.184051,17780,-0.530172,-0.0904909,0.214882,0.184051,9802,0.248325,-0.0644669,0.0308894,-0.0552149
9883,-3.11482e-12,4.53369e-38,-1.51454e-06,-3.18057e-12,4.53346e-38,0,-1.06592e-13,0,0,-3.60017,-0.0885939,0.476582,0,0,0,0,0,-0.53223,-0.0885939,266,-58,266,-58,388,-73,272,66,0.013948,-0.247438,0,-1.5,3.94113e+12,0,0,0,-0.530793,-0.0862594,0,0,0,0,0.0598636,0.0972712,18070,-0.53223,-0.0885939,0.0598636,0.0972712,9871,0.265397,-0.0179589,0.0431297,-0.0291817
9916,-3.11482e-12,4.53369e-38,-1.51454e-06,-3.18057e-12,4.53346e-38,0,-1.06592e-13,0,0,-3.60017,-0.0885939,0.476582,0,0,0,0,0,-0.53223,-0.0885939,266,-58,266,-58,388,-73,272,66,0.0123423,-0.246447,0,-1.5,3.94113e+12,0,0,0,-0.528818,-0.0830494,0,0,0,0,0.0598636,0.0972712,18070,-0.53223,-0.0885939,0.0598636,0.0972712,9871,0.264409,-0.0179619,0.0415247,-0.0291824
9940,-3.11482e-12,4.53369e-38,-1.51454e-06,-3.18057e-12,4.53346e-38,0,-1.06592e-13,0,0,-3.6072,-0.088972,0.474454,0,0,0,0,0,-0.54187,-0.088972,269,-58,269,-58,388,-71,269,67,0.019186,-0.245732,0,-1.5,3.94113e+12,0,0,0,-0.527381,-0.0870258,0,0,0,0,0.0598636,0.0810893,17526,-0.528818,-0.088972,0.0598636,0.0810893,9928,0.26369,-0.0179589,0.0435129,-0.0243269
9957,-3.11482e-12,4.53369e-38,-1.51454e-06,-3.18057e-12,4.53346e-38,0,-1.06593e-13,0,0,-3.6072,-0.088972,0.474454,0,0,0,0,0,-0.54187,-0.088972,269,-58,269,-58,388,-71,269,67,0.0184949,-0.24522,0,-1.5,3.94113e+12,0,0,0,-0.526363,-0.0856472,0,0,0,0,0.0598636,0.0810893,17526,-0.528818,-0.088972,0.0598636,0.0810893,9928,0.263182,-0.0179619,0.0428236,-0.0243288
10063,-3.11482e-12,4.53369e-38,-1.51454e-06,-3.18057e-12,4.53346e-38,0,-1.06593e-13,0,0,-3.61228,-0.049547,0.496104,0,0,0,0,0,-0.548822,-0.049547,263,-60,263,-60,384,-76,268,64,0.00519164,-0.261799,0,-1.5,3.94113e+12,0,0,0,-0.541752,-0.0687504,0,0,0,0,0.000802789,0.0972713,17640,-0.541837,-0.0790612,0.000802789,0.0972713,10052,0.270876,-0.000241399,0.0343752,-0.0291836
10117,-3.11482e-12,4.53369e-38,-1.51454e-06,-3.18057e-12,4.53346e-38,0,-1.06593e-13,0,0,-3.61323,-0.0583432,0.497792,0,0,0,0,0,-0.550131,-0.0583432,263,-60,263,-60,384,-73,268,64,-0.00927131,-0.261799,0,-1.5,3.94113e+12,0,0,0,-0.551318,-0.051995,0,0,0,0,-0.021967,0.117558,17810,-0.550131,-0.0583432,-0.021967,0.117558,10105,0.275659,0.00659823,0.0259975,-0.0352688
10224,-3.11482e-12,4.53369e-38,-1.51454e-06,-3.18057e-12,4.53346e-38,0,-1.06596e-13,0,0,-3.61357,-0.048881,0.507884,0,0,0,0,0,-0.550591,-0.048881,263,-60,263,-60,384,-78,268,64,-0.0175825,-0.261799,0,-1.5,3.94113e+12,0,0,0,-0.553135,-0.0373448,0,0,0,0,-0.0208733,0.120849,17892,-0.550902,-0.0502757,-0.0208733,0.120849,10212,0.276568,0.00626445,0.0186724,-0.0362549
10343,-3.11482e-12,4.53369e-38,-1.51454e-06,-3.18057e-12,4.53346e-38,0,-1.06596e-13,0,0,-3.5851,-0.114724,0.443523,0,0,0,0,0,-0.51159,-0.114724,272,-57,272,-57,392,-70,272,70,-0.0245911,-0.261799,0,-1.5,3.94113e+12,0,0,0,-0.552505,-0.0241477,0,0,0,0,-0.0169583,0.12221,17640,-0.550487,-0.0386907,-0.0169583,0.12221,10331,0.276253,0.00508726,0.0120738,-0.036665
10365,-3.11482e-12,4.53369e-38,-1.51454e-06,-3.18057e-12,4.53346e-38,0,-1.06594e-13,0,0,-3.60924,-0.123183,0.458309,0,0,0,0,0,-0.54466,-0.123183,272,-58,272,-58,395,-66,272,67,0.436332,0.00348467,0,-1.5,3.94113e+12,0,0,0,-0.547235,-0.0841139,0,0,0,0,-0.00711666,0.00935939,16758,-0.547192,-0.0841701,-0.00711666,0.00935939,10361,0.273617,-0.277102,0.0420569,3.09608
10385,-3.11482e-12,4.53369e-38,-1.51454e-06,-3.18057e-12,4.53346e-38,0,-1.06593e-13,0,0,-3.60924,-0.123183,0.458309,0,0,0,0,0,-0.54466,-0.123183,272,-58,272,-58,395,-66,272,67,0.039156,-0.261799,0,-1.5,3.94113e+12,0,0,0,-0.547377,-0.0839267,0,0,0,0,-0.00711666,0.00935939,16758,-0.547192,-0.0841701,-0.00711666,0.00935939,10361,0.273689,0.00212789,0.0419634,-0.00280738
10494,-3.11482e-12,4.53369e-38,-1.51454e-06,-3.18057e-12,4.53346e-38,0,-1.06594e-13,0,0,-3.69281,-0.134933,0.504488,0,0,0,0,0,-0.659156,-0.134933,274,-56,274,-56,393,-66,276,66,0.081089,-0.261799,0,-1.5,3.94113e+12,0,0,0,-0.547548,-0.129317,0,0,0,0,-0.00591062,-0.0547642,16368,-0.546904,-0.123347,-0.00591062,-0.0547642,10482,0.273774,0.00177026,0.0646583,0.0164308
10538,-3.11482e-12,4.53369e-38,-1.51454e-06,-3.18057e-12,4.53346e-38,0,-1.06595e-13,0,0,-3.56156,-0.129988,0.428106,0,0,0,0,0,-0.479336,-0.129988,272,-57,272,-57,399,-68,272,67,0.0807609,-0.261799,0,-1.5,3.94113e+12,0,0,0,-0.542534,-0.131664,0,0,0,0,0.00721633,-0.0497598,17145,-0.542852,-0.129475,0.00721633,-0.0497598,10526,0.271267,-0.00216365,0.0658322,0.0149287
10555,-3.11482e-12,4.53369e-38,-1.51454e-06,-3.18057e-12,4.53346e-38,0,-1.06594e-13,0,0,-3.56156,-0.129988,0.428106,0,0,0,0,0,-0.479336,-0.129988,272,-57,272,-57,399,-68,272,67,0.0811839,-0.261799,0,-1.5,3.94113e+12,0,0,0,-0.542412,-0.13251,0,0,0,0,0.00721633,-0.0497598,17145,-0.542852,-0.129475,0.00721633,-0.0497598,10526,0.271206,-0.00216365,0.0662551,0.0149287
10580,-3.11482e-12,4.53369e-38,-1.51454e-06,-3.18057e-12,4.53346e-38,0,-1.06595e-13,0,0,-3.68903,-0.137315,0.497525,0,0,0,0,0,-0.653975,-0.137315,274,-56,274,-56,393,-66,277,66,0.0856433,-0.261799,0,-1.5,3.94113e+12,0,0,0,-0.550677,-0.136011,0,0,0,0,-0.00886726,-0.0587858,16368,-0.550455,-0.134541,-0.00886726,-0.0587858,10568,0.275338,0.00265539,0.0680055,0.0176378
10602,-3.11482e-12,4.53369e-38,-1.51454e-06,-3.18057e-12,4.53346e-38,0,-1.06596e-13,0,0,-3.65129,-0.134125,0.459551,0,0,0,0,0,-0.602261,-0.134125,277,-56,277,-56,396,-65,273,68,0.0853429,-0.261799,0,-1.5,3.94113e+12,0,0,0,-0.573731,-0.136246,0,0,0,0,-0.0438601,-0.0574027,16359,-0.57338,-0.135787,-0.0438601,-0.0574027,10596,0.286865,0.0131607,0.0681231,0.0172198
10622,-3.11482e-12,4.53369e-38,-1.51454e-06,-3.18057e-12,4.53346e-38,0,-1.06595e-13,0,0,-3.65129,-0.134125,0.459551,0,0,0,0,0,-0.602261,-0.134125,277,-56,277,-56,396,-65,273,68,0.0859192,-0.261799,0,-1.5,3.94113e+12,0,0,0,-0.574608,-0.137394,0,0,0,0,-0.0438601,-0.0574027,16359,-0.57338,-0.135787,-0.0438601,-0.0574027,10596,0.287304,0.0131607,0.0686971,0.017222
10669,-3.11482e-12,4.53369e-38,-1.51454e-06,-3.18057e-12,4.53346e-38,0,-1.06599e-13,0,0,-3.64452,-0.122532,0.468959,0,0,0,0,0,-0.592991,-0.122532,274,-58,274,-58,395,-66,273,68,0.0848347,-0.261799,0,-1.5,3.94113e+12,0,0,0,-0.583966,-0.137773,0,0,0,0,-0.0544206,-0.0531575,16348,-0.58353,-0.137348,-0.0544206,-0.0531575,10663,0.291983,0.0163257,0.0688867,0.015948
10684,-3.11482e-12,4.53369e-38,-1.51454e-06,-3.18057e-12,4.53346e-38,0,-1.06596e-13,0,0,-3.64452,-0.122532,0.468959,0,0,0,0,0,-0.592991,-0.122532,274,-58,274,-58,395,-66,273,68,0.0852068,-0.261799,0,-1.5,3.94113e+12,0,0,0,-0.584728,-0.138518,0,0,0,0,-0.0544206,-0.0531575,16348,-0.58353,-0.137348,-0.0544206,-0.0531575,10663,0.292364,0.0163257,0.0692588,0.015948
10709,-3.11482e-12,4.53369e-38,-1.51454e-06,-3.18057e-12,4.53346e-38,0,-1.066e-13,0,0,-3.64452,-0.122532,0.468959,0,0,0,0,0,-0.592991,-0.122532,274,-58,274,-58,395,-66,273,68,0.0841554,-0.261799,0,-1.5,3.94113e+12,0,0,0,-0.594804,-0.138337,0,0,0,0,-0.063489,-0.0499569,16348,-0.593154,-0.137038,-0.063489,-0.0499569,10697,0.297402,0.0190526,0.0691685,0.0149868
10805,-3.11482e-12,4.53369e-38,-1.51454e-06,-3.18057e-12,4.53346e-38,0,-1.06599e-13,0,0,-3.66224,-0.142674,0.478995,0,0,0,0,0,-0.617263,-0.142674,280,-56,280,-56,398,-68,273,68,0.0854951,-0.261799,0,-1.5,3.94113e+12,0,0,0,-0.606577,-0.142299,0,0,0,0,-0.0729195,-0.0478164,17000,-0.605702,-0.141726,-0.0729195,-0.0478164,10795,0.303289,0.0218779,0.0711497,0.0143453
10827,-3.11482e-12,4.53369e-38,-1.51454e-06,-3.18057e-12,4.53346e-38,0,-1.06599e-13,0,0,-3.66224,-0.142674,0.478995,0,0,0,0,0,-0.617263,-0.142674,280,-56,280,-56,398,-68,273,68,0.0860211,-0.261799,0,-1.5,3.94113e+12,0,0,0,-0.608182,-0.143351,0,0,0,0,-0.0729195,-0.0478164,17000,-0.605702,-0.141726,-0.0729195,-0.0478164,10795,0.304091,0.0218779,0.0716757,0.0143453
10848,-3.11482e-12,4.53369e-38,-1.51454e-06,-3.18057e-12,4.53346e-38,0,-1.06599e-13,0,0,-3.68615,-0.132874,0.493357,0,0,0,0,0,-0.650022,-0.132874,277,-56,277,-56,396,-66,273,66,0.0849044,-0.261799,0,-1.5,3.94113e+12,0,0,0,-0.609666,-0.142987,0,0,0,0,-0.0725336,-0.044696,16236,-0.608143,-0.142048,-0.0725336,-0.044696,10835,0.304833,0.0217617,0.0714933,0.013411
10872,-3.11482e-12,4.53369e-38,-1.51454e-06,-3.18057e-12,4.53346e-38,0,-1.06597e-13,0,0,-3.69242,-0.132978,0.499336,0,0,0,0,0,-0.658616,-0.132978,277,-56,277,-56,396,-66,273,66,0.084618,-0.261799,0,-1.5,3.94113e+12,0,0,0,-0.622637,-0.142418,0,0,0,0,-0.0847723,-0.0446925,16236,-0.621535,-0.141837,-0.0847723,-0.0446925,10862,0.311319,0.0254363,0.0712091,0.0134088
10893,-3.11482e-12,4.53369e-38,-1.51454e-06,-3.18057e-12,4.53346e-38,0,-1.06597e-13,0,0,-3.69242,-0.132978,0.499336,0,0,0,0,0,-0.658616,-0.132978,277,-56,277,-56,396,-66,273,66,0.0850872,-0.261799,0,-1.5,3.94113e+12,0,0,0,-0.624417,-0.143357,0,0,0,0,-0.0847723,-0.0446925,16236,-0.621535,-0.141837,-0.0847723,-0.0446925,10862,0.312209,0.0254273,0.0716784,0.0134088
10915,-3.11482e-12,4.53369e-38,-1.51454e-06,-3.18057e-12,4.53346e-38,0,-1.06598e-13,0,0,-3.65749,-0.125291,0.483476,0,0,0,0,0,-0.610765,-0.125291,274,-58,274,-58,396,-66,273,66,0.0864845,-0.261799,0,-1.5,3.94113e+12,0,0,0,-0.616536,-0.145525,0,0,0,0,-0.0743737,-0.0457319,16236,-0.614974,-0.144565,-0.0743737,-0.0457319,10902,0.308268,0.022316,0.0727627,0.0137217
10936,-3.11482e-12,4.53369e-38,-1.51454e-06,-3.18057e-12,4.53346e-38,0,-1.06597e-13,0,0,-3.67379,-0.132298,0.485718,0,0,0,0,0,-0.633094,-0.132298,277,-58,277,-58,395,-66,274,69,0.0796634,-0.261799,0,-1.5,3.94113e+12,0,0,0,-0.629294,-0.136801,0,0,0,0,-0.082359,-0.0375451,16335,-0.628636,-0.1365,-0.082359,-0.0375451,10930,0.314647,0.0247031,0.0684004,0.011263
10953,-3.11482e-12,4.53369e-38,-1.51454e-06,-3.18057e-12,4.53346e-38,0,-1.06598e-13,0,0,-3.67379,-0.132298,0.485718,0,0,0,0,0,-0.633094,-0.132298,277,-58,277,-58,395,-66,274,69,0.0799826,-0.261799,0,-1.5,3.94113e+12,0,0,0,-0.630695,-0.137439,0,0,0,0,-0.082359,-0.0375451,16335,-0.628636,-0.1365,-0.082359,-0.0375451,10930,0.315347,0.0247031,0.0687195,0.011263
10982,-3.11482e-12,4.53369e-38,-1.51454e-06,-3.18057e-12,4.53346e-38,0,-1.066e-13,0,0,-3.70453,-0.133167,0.511061,0,0,0,0,0,-0.675201,-0.133167,277,-56,277,-56,396,-66,273,66,0.0798498,-0.261799,0,-1.5,3.94113e+12,0,0,0,-0.634819,-0.138358,0,0,0,0,-0.0847015,-0.0355697,16236,-0.632362,-0.137327,-0.0847015,-0.0355697,10969,0.317409,0.0254095,0.0691791,0.0106707
11001,-3.11482e-12,4.53369e-38,-1.51454e-06,-3.18057e-12,4.53346e-38,0,-1.066e-13,0,0,-3.70453,-0.133167,0.511061,0,0,0,0,0,-0.675201,-0.133167,277,-56,277,-56,396,-66,273,66,0.0792217,-0.261799,0,-1.5,3.94113e+12,0,0,0,-0.63993,-0.137933,0,0,0,0,-0.0902701,-0.0341806,16236,-0.639117,-0.137626,-0.0902701,-0.0341806,10994,0.319965,0.0270814,0.0689667,0.010255
11018,-3.11482e-12,4.53369e-38,-1.51454e-06,-3.18057e-12,4.53346e-38,0,-1.06598e-13,0,0,-3.70453,-0.133167,0.511061,0,0,0,0,0,-0.675201,-0.133167,277,-56,277,-56,396,-66,273,66,0.0794929,-0.261799,0,-1.5,3.94113e+12,0,0,0,-0.641374,-0.13848,0,0,0,0,-0.0902701,-0.0341806,16236,-0.639117,-0.137626,-0.0902701,-0.0341806,10994,0.320687,0.0270903,0.0692401,0.0102527
11046,-3.11482e-12,4.53369e-38,-1.51454e-06,-3.18057e-12,4.53346e-38,0,-1.06601e-13,0,0,-3.69637,-0.132798,0.499474,0,0,0,0,0,-0.664025,-0.132798,277,-56,277,-56,396,-65,273,68,0.0757911,-0.261799,0,-1.5,3.94113e+12,0,0,0,-0.642699,-0.135779,0,0,0,0,-0.0903438,-0.0263335,16359,-0.640079,-0.135016,-0.0903438,-0.0263335,11033,0.321349,0.0270993,0.0678897,0.00790134
11069,-3.11482e-12,4.53369e-38,-1.51454e-06,-3.18057e-12,4.53346e-38,0,-1.06601e-13,0,0,-3.69637,-0.132798,0.499474,0,0,0,0,0,-0.664025,-0.132798,277,-56,277,-56,396,-65,273,68,0.0772167,-0.261799,0,-1.5,3.94113e+12,0,0,0,-0.653071,-0.137071,0,0,0,0,-0.0962884,-0.0289343,16359,-0.652204,-0.13681,-0.0962884,-0.0289343,11062,0.326536,0.0288874,0.0685353,0.00868142
11085,-3.11482e-12,4.53369e-38,-1.51454e-06,-3.18057e-12,4.53346e-38,0,-1.06601e-13,0,0,-3.69637,-0.132798,0.499474,0,0,0,0,0,-0.664025,-0.132798,277,-56,277,-56,396,-65,273,68,0.077446,-0.261799,0,-1.5,3.94113e+12,0,0,0,-0.654612,-0.137534,0,0,0,0,-0.0962884,-0.0289343,16359,-0.652204,-0.13681,-0.0962884,-0.0289343,11062,0.327306,0.0288874,0.0687668,0.00867918
11107,-3.11482e-12,4.53369e-38,-1.51454e-06,-3.18057e-12,4.53346e-38,0,-1.06601e-13,0,0,-3.73949,-0.14111,0.528777,0,0,0,0,0,-0.723104,-0.14111,275,-55,275,-55,396,-66,278,66,0.0763784,-0.261799,0,-1.5,3.94113e+12,0,0,0,-0.667191,-0.137245,0,0,0,0,-0.104863,-0.0258511,15972,-0.664884,-0.136676,-0.104863,-0.0258511,11094,0.333595,0.0314534,0.0686224,0.00775605
11152,-3.11482e-12,4.53369e-38,-1.51454e-06,-3.18057e-12,4.53346e-38,0,-1.06602e-13,0,0,-3.67818,-0.128004,0.500074,0,0,0,0,0,-0.639104,-0.128004,274,-58,274,-58,396,-66,274,66,0.0762449,-0.261799,0,-1.5,3.94113e+12,0,0,0,-0.672796,-0.13759,0,0,0,0,-0.105928,-0.024834,16104,-0.668135,-0.136497,-0.105928,-0.024834,11138,0.336398,0.0317842,0.0687951,0.00744984
11202,-3.11482e-12,4.53369e-38,-1.51454e-06,-3.18057e-12,4.53346e-38,0,-1.06602e-13,0,0,-3.6196,-0.134804,0.452404,0,0,0,0,0,-0.558856,-0.134804,274,-58,274,-58,400,-65,274,69,0.0811843,-0.261799,0,-1.5,3.94113e+12,0,0,0,-0.675746,-0.141702,0,0,0,0,-0.106701,-0.0344432,16884,-0.674679,-0.141358,-0.106701,-0.0344432,11194,0.337873,0.0320077,0.070851,0.0103332
11220,-3.11482e-12,4.53369e-38,-1.51454e-06,-3.18057e-12,4.53346e-38,0,-1.06602e-13,0,0,-3.6196,-0.134804,0.452404,0,0,0,0,0,-0.558856,-0.134804,274,-58,274,-58,400,-65,274,69,0.081477,-0.261799,0,-1.5,3.94113e+12,0,0,0,-0.67756,-0.142288,0,0,0,0,-0.106701,-0.0344432,16884,-0.674679,-0.141358,-0.106701,-0.0344432,11194,0.33878,0.0320166,0.0711438,0.0103332
11247,-3.11482e-12,4.53369e-38,-1.51454e-06,-3.18057e-12,4.53346e-38,0,-1.06602e-13,0,0,-3.66656,-0.125508,0.486296,0,0,0,0,0,-0.623181,-0.125508,274,-58,274,-58,395,-66,274,67,0.0808334,-0.261799,0,-1.5,3.94113e+12,0,0,0,-0.662429,-0.142127,0,0,0,0,-0.0920478,-0.0325655,16093,-0.659852,-0.141215,-0.0920478,-0.0325655,11233,0.331215,0.0276178,0.0710634,0.00976995
11270,-3.11482e-12,4.53369e-38,-1.51454e-06,-3.18057e-12,4.53346e-38,0,-1.06603e-13,0,0,-3.70453,-0.133167,0.511061,0,0,0,0,0,-0.675201,-0.133167,277,-56,277,-56,396,-66,273,66,0.0809314,-0.261799,0,-1.5,3.94113e+12,0,0,0,-0.674949,-0.142207,0,0,0,0,-0.101737,-0.032755,16236,-0.673931,-0.141879,-0.101737,-0.032755,11262,0.337474,0.0305235,0.0711033,0.00982806
11284,-3.11482e-12,4.53369e-38,-1.51454e-06,-3.18057e-12,4.53346e-38,0,-1.06603e-13,0,0,-3.70453,-0.133167,0.511061,0,0,0,0,0,-0.675201,-0.133167,277,-56,277,-56,396,-66,273,66,0.08116,-0.261799,0,-1.5,3.94113e+12,0,0,0,-0.676373,-0.142665,0,0,0,0,-0.101737,-0.032755,16236,-0.673931,-0.141879,-0.101737,-0.032755,11262,0.338186,0.0305176,0.0713326,0.00982732
11308,-3.11482e-12,4.53369e-38,-1.51454e-06,-3.18057e-12,4.53346e-38,0,-1.06603e-13,0,0,-3.59117,-0.13544,0.442184,0,0,0,0,0,-0.519902,-0.13544,274,-58,274,-58,401,-68,274,69,0.0774238,-0.261799,0,-1.5,3.94113e+12,0,0,0,-0.67637,-0.139885,0,0,0,0,-0.102294,-0.0249361,17399,-0.674938,-0.139536,-0.102294,-0.0249361,11296,0.338185,0.0306845,0.0699427,0.00748113
11325,-3.11482e-12,4.53369e-38,-1.51454e-06,-3.18057e-12,4.53346e-38,0,-1.06604e-13,0,0,-3.59117,-0.13544,0.442184,0,0,0,0,0,-0.519902,-0.13544,274,-58,274,-58,401,-68,274,69,0.0776358,-0.261799,0,-1.5,3.94113e+12,0,0,0,-0.678109,-0.140309,0,0,0,0,-0.102294,-0.0249361,17399,-0.674938,-0.139536,-0.102294,-0.0249361,11296,0.339055,0.0306934,0.0701547,0.00748113
11347,-3.11482e-12,4.53369e-38,-1.51454e-06,-3.18057e-12,4.53346e-38,0,-1.06604e-13,0,0,-3.66967,-0.138259,0.485794,0,0,0,0,0,-0.627447,-0.138259,277,-55,277,-55,398,-68,274,67,0.0721882,-0.261799,0,-1.5,3.94113e+12,0,0,0,-0.672684,-0.136446,0,0,0,0,-0.0959083,-0.0132169,16740,-0.670574,-0.136155,-0.0959083,-0.0132169,11333,0.336342,0.0287712,0.068223,0.0039652
11372,-3.11482e-12,4.53369e-38,-1.51454e-06,-3.18057e-12,4.53346e-38,0,-1.06604e-13,0,0,-3.65047,-0.12261,0.474723,0,0,0,0,0,-0.60114,-0.12261,274,-58,274,-58,395,-66,273,68,0.0711387,-0.261799,0,-1.5,3.94113e+12,0,0,0,-0.678714,-0.136399,0,0,0,0,-0.101855,-0.00979352,16348,-0.677491,-0.136281,-0.101855,-0.00979352,11362,0.339357,0.0305593,0.0681994,0.00293925
11393,-3.11482e-12,4.53369e-38,-1.51454e-06,-3.18057e-12,4.53346e-38,0,-1.06604e-13,0,0,-3.65047,-0.12261,0.474723,0,0,0,0,0,-0.60114,-0.12261,274,-58,274,-58,395,-66,273,68,0.0712415,-0.261799,0,-1.5,3.94113e+12,0,0,0,-0.680853,-0.136604,0,0,0,0,-0.101855,-0.00979352,16348,-0.677491,-0.136281,-0.101855,-0.00979352,11362,0.340426,0.0305593,0.0683022,0.00293925
11447,-3.11482e-12,4.53369e-38,-1.51454e-06,-3.18057e-12,4.53346e-38,0,-1.06605e-13,0,0,-3.58667,-0.137507,0.433595,0,0,0,0,0,-0.513735,-0.137507,274,-56,274,-56,401,-67,273,68,0.0703385,-0.261799,0,-1.5,3.94113e+12,0,0,0,-0.676616,-0.136511,0,0,0,0,-0.0950652,-0.00694644,17280,-0.671483,-0.136135,-0.0950652,-0.00694644,11433,0.338308,0.0285208,0.0682553,0.00208318
11469,-3.11482e-12,4.53369e-38,-1.51454e-06,-3.18057e-12,4.53346e-38,0,-1.06605e-13,0,0,-3.67218,-0.12784,0.485263,0,0,0,0,0,-0.630889,-0.12784,274,-56,274,-56,396,-66,274,66,0.0670163,-0.261799,0,-1.5,3.94113e+12,0,0,0,-0.63144,-0.133474,0,0,0,0,-0.0219187,-0.000934495,16104,-0.631221,-0.133464,-0.0219187,-0.000934495,11461,0.31572,0.00657141,0.0667369,0.000279397
11493,-3.11482e-12,4.53369e-38,-1.51454e-06,-3.18057e-12,4.53346e-38,0,-1.06605e-13,0,0,-3.67218,-0.12784,0.485263,0,0,0,0,0,-0.630889,-0.12784,274,-56,274,-56,396,-66,274,66,0.0670293,-0.261799,0,-1.5,3.94113e+12,0,0,0,-0.631945,-0.133495,0,0,0,0,-0.0219187,-0.000934495,16104,-0.631221,-0.133464,-0.0219187,-0.000934495,11461,0.315972,0.00657141,0.0667476,0.000281632
11588,-3.11482e-12,4.53369e-38,-1.51454e-06,-3.18057e-12,4.53346e-38,0,-1.06605e-13,0,0,-3.65281,-0.135998,0.456295,0,0,0,0,0,-0.604354,-0.135998,277,-56,277,-56,396,-63,273,71,0.0671667,-0.261799,0,-1.5,3.94113e+12,0,0,0,-0.624308,-0.133685,0,0,0,0,0.0132175,-0.00107829,16482,-0.625577,-0.133582,0.0132175,-0.00107829,11574,0.312154,-0.00396073,0.0668426,0.0003241
11612,-3.11482e-12,4.53369e-38,-1.51454e-06,-3.18057e-12,4.53346e-38,0,-1.06606e-13,0,0,-3.60151,-0.129742,0.42475,0,0,0,0,0,-0.534074,-0.129742,274,-56,274,-56,398,-63,272,71,0.0663485,-0.261799,0,-1.5,3.94113e+12,0,0,0,-0.610479,-0.132925,0,0,0,0,0.0397021,0.000374209,16884,-0.611432,-0.132934,0.0397021,0.000374209,11598,0.305239,-0.011909,0.0664625,-0.000113994
11626,-3.11482e-12,4.53369e-38,-1.51454e-06,-3.18057e-12,4.53346e-38,0,-1.06606e-13,0,0,-3.60151,-0.129742,0.42475,0,0,0,0,0,-0.534074,-0.129742,274,-56,274,-56,398,-63,272,71,0.0663481,-0.261799,0,-1.5,3.94113e+12,0,0,0,-0.609923,-0.13292,0,0,0,0,0.0397021,0.000374209,16884,-0.611432,-0.132934,0.0397021,0.000374209,11598,0.304961,-0.011909,0.0664599,-0.000111759
11650,-3.11482e-12,4.53369e-38,-1.51454e-06,-3.18057e-12,4.53346e-38,0,-1.06606e-13,0,0,-3.58086,-0.137205,0.408702,0,0,0,0,0,-0.505782,-0.137205,275,-55,275,-55,399,-63,272,73,0.0669939,-0.261799,0,-1.5,3.94113e+12,0,0,0,-0.602461,-0.133572,0,0,0,0,0.0460341,-0.000688241,17272,-0.603566,-0.133556,0.0460341,-0.000688241,11636,0.301231,-0.0138134,0.0667861,0.000207871
11673,-3.11482e-12,4.53369e-38,-1.51454e-06,-3.18057e-12,4.53346e-38,0,-1.06607e-13,0,0,-3.6193,-0.141148,0.435194,0,0,0,0,0,-0.558444,-0.141148,276,-55,276,-55,398,-63,273,71,0.0672431,-0.261799,0,-1.5,3.94113e+12,0,0,0,-0.594981,-0.133892,0,0,0,0,0.0531565,-0.000991852,16750,-0.595619,-0.13388,0.0531565,-0.000991852,11663,0.29749,-0.0159502,0.0669458,0.000297278
11689,-3.11482e-12,4.53369e-38,-1.51454e-06,-3.18057e-12,4.53346e-38,0,-1.06607e-13,0,0,-3.6193,-0.141148,0.435194,0,0,0,0,0,-0.558444,-0.141148,276,-55,276,-55,398,-63,273,71,0.067251,-0.261799,0,-1.5,3.94113e+12,0,0,0,-0.59413,-0.133908,0,0,0,0,0.0531565,-0.000991852,16750,-0.595619,-0.13388,0.0531565,-0.000991852,11663,0.297065,-0.0159413,0.0669538,0.000297278
11740,-3.11482e-12,4.53369e-38,-1.51454e-06,-3.18057e-12,4.53346e-38,0,-1.06607e-13,0,0,-3.64456,-0.135291,0.471619,0,0,0,0,0,-0.593049,-0.135291,275,-55,275,-55,396,-68,274,66,0.0681435,-0.261799,0,-1.5,3.94113e+12,0,0,0,-0.588267,-0.134924,0,0,0,0,0.0705259,-0.00226782,16482,-0.589254,-0.134892,0.0705259,-0.00226782,11729,0.294133,-0.0211537,0.0674618,0.000681728
11760,-3.11482e-12,4.53369e-38,-1.51454e-06,-3.18057e-12,4.53346e-38,0,-1.06607e-13,0,0,-3.64456,-0.135291,0.471619,0,0,0,0,0,-0.593049,-0.135291,275,-55,275,-55,396,-68,274,66,0.0681662,-0.261799,0,-1.5,3.94113e+12,0,0,0,-0.586856,-0.134969,0,0,0,0,0.0705259,-0.00226782,16482,-0.589254,-0.134892,0.0705259,-0.00226782,11729,0.293428,-0.0211537,0.0674845,0.000681728
11783,-3.11482e-12,4.53369e-38,-1.51454e-06,-3.18057e-12,4.53346e-38,0,-1.06608e-13,0,0,-3.67218,-0.12784,0.485263,0,0,0,0,0,-0.630889,-0.12784,274,-56,274,-56,396,-66,274,66,0.0686658,-0.261799,0,-1.5,3.94113e+12,0,0,0,-0.589913,-0.135467,0,0,0,0,0.063964,-0.00311173,16104,-0.59132,-0.135399,0.063964,-0.00311173,11768,0.294956,-0.0191867,0.0677337,0.000932068
11823,-3.11482e-12,4.53369e-38,-1.51454e-06,-3.18057e-12,4.53346e-38,0,-1.06608e-13,0,0,-3.64292,-0.124566,0.470362,0,0,0,0,0,-0.590803,-0.124566,274,-58,274,-58,396,-66,273,68,0.0674158,-0.261799,0,-1.5,3.94113e+12,0,0,0,-0.584537,-0.134121,0,0,0,0,0.0739493,-0.00118657,16482,-0.587569,-0.134072,0.0739493,-0.00118657,11809,0.292269,-0.0221908,0.0670604,0.000355393
11845,-3.11482e-12,4.53369e-38,-1.51454e-06,-3.18057e-12,4.53346e-38,0,-1.06608e-13,0,0,-3.64292,-0.124566,0.470362,0,0,0,0,0,-0.590803,-0.124566,274,-58,274,-58,396,-66,273,68,0.067431,-0.261799,0,-1.5,3.94113e+12,0,0,0,-0.58291,-0.134147,0,0,0,0,0.0739493,-0.00118657,16482,-0.587569,-0.134072,0.0739493,-0.00118657,11809,0.291455,-0.0221908,0.0670734,0.000357628
11868,-3.11482e-12,4.53369e-38,-1.51454e-06,-3.18057e-12,4.53346e-38,0,-1.06608e-13,0,0,-3.64678,-0.11485,0.487684,0,0,0,0,0,-0.596092,-0.11485,274,-58,274,-58,392,-71,273,68,0.0285885,-0.261799,0,-1.5,3.94113e+12,0,0,0,-0.583254,-0.133152,0,0,0,0,0.0736048,-7.47411e-05,16819,-0.583842,-0.133151,0.0736048,-7.47411e-05,11862,0.291627,0.0544734,0.0665758,-0.0379873
11887,-3.11482e-12,4.53369e-38,-1.51454e-06,-3.18057e-12,4.53346e-38,0,-1.06609e-13,0,0,-3.64678,-0.11485,0.487684,0,0,0,0,0,-0.596092,-0.11485,274,-58,274,-58,392,-71,273,68,0.0665989,-0.261799,0,-1.5,3.94113e+12,0,0,0,-0.581855,-0.133153,0,0,0,0,0.0736048,-7.47411e-05,16819,-0.583842,-0.133151,0.0736048,-7.47411e-05,11862,0.290928,-0.0220835,0.0665765,2.23517e-05
11915,-3.11482e-12,4.53369e-38,-1.51454e-06,-3.18057e-12,4.53346e-38,0,-1.06609e-13,0,0,-3.69271,-0.106975,0.52161,0,0,0,0,0,-0.65901,-0.106975,274,-58,274,-58,391,-70,272,68,0.065904,-0.261799,0,-1.5,3.94113e+12,0,0,0,-0.582952,-0.132374,0,0,0,0,0.0698577,0.00094472,16560,-0.584908,-0.132401,0.0698577,0.00094472,11900,0.291476,-0.020957,0.0661871,-0.000283122
11934,-3.11482e-12,4.53369e-38,-1.51454e-06,-3.18057e-12,4.53346e-38,0,-1.06609e-13,0,0,-3.59128,-0.0901006,0.473043,0,0,0,0,0,-0.520056,-0.0901006,266,-57,266,-57,392,-75,272,66,-0.117946,-0.103916,0,-1.5,3.94113e+12,0,0,0,-0.577798,-0.128116,0,0,0,0,0.0742119,0.00537121,17907,-0.578317,-0.128154,0.0742119,0.00537121,11929,0.288899,-0.184983,0.0640581,-0.182004
11951,-3.11482e-12,4.53369e-38,-1.51454e-06,-3.18057e-12,4.53346e-38,0,-1.0661e-13,0,0,-3.59128,-0.0901006,0.473043,0,0,0,0,0,-0.520056,-0.0901006,266,-57,266,-57,392,-75,272,66,0.0624009,-0.261799,0,-1.5,3.94113e+12,0,0,0,-0.576536,-0.128025,0,0,0,0,0.0742119,0.00537121,17907,-0.578317,-0.128154,0.0742119,0.00537121,11929,0.288268,-0.0222623,0.0640124,-0.00161156
11977,-3.11482e-12,4.53369e-38,-1.51454e-06,-3.18057e-12,4.53346e-38,0,-1.0661e-13,0,0,-3.56107,-0.0809059,0.440641,0,0,0,0,0,-0.47866,-0.0809059,266,-58,266,-58,388,-71,269,70,0.0617753,-0.261799,0,-1.5,3.94113e+12,0,0,0,-0.5733,-0.12714,0,0,0,0,0.0762627,0.00598354,18330,-0.575283,-0.127296,0.0762627,0.00598354,11963,0.28665,-0.0228792,0.0635701,-0.00179484
12004,-3.11482e-12,4.53369e-38,-1.51454e-06,-3.18057e-12,4.53346e-38,0,-1.0661e-13,0,0,-3.63787,-0.0757936,0.492009,0,0,0,0,0,-0.583876,-0.0757936,266,-55,266,-55,388,-73,270,66,0.0600025,-0.261649,0,-1.5,3.94113e+12,0,0,0,-0.572204,-0.124846,0,0,0,0,0.0815075,0.00807276,17514,-0.572938,-0.124919,0.0815075,0.00807276,11997,0.286102,-0.0244528,0.0624232,-0.00242069
12021,-3.11482e-12,4.53369e-38,-1.51454e-06,-3.18057e-12,4.53346e-38,0,-1.0661e-13,0,0,-3.63787,-0.0757936,0.492009,0,0,0,0,0,-0.583876,-0.0757936,266,-55,266,-55,388,-73,270,66,0.0599328,-0.260957,0,-1.5,3.94113e+12,0,0,0,-0.570819,-0.124709,0,0,0,0,0.0815075,0.00807276,17514,-0.572938,-0.124919,0.0815075,0.00807276,11997,0.285409,-0.0244528,0.0623546,-0.00242181
12176,-3.11482e-12,4.53369e-38,-1.51454e-06,-3.18057e-12,4.53346e-38,0,-1.06611e-13,0,0,-3.65361,-0.0657208,0.501041,0,0,0,0,0,-0.605441,-0.0657208,266,-58,266,-58,386,-71,269,67,0.055708,-0.25335,0,-1.5,3.94113e+12,0,0,0,-0.557179,-0.119134,0,0,0,0,0.0841402,0.0128643,17112,-0.570137,-0.121115,0.0841402,0.0128643,12030,0.27859,-0.0252396,0.059567,-0.00385903
12203,-3.11482e-12,4.53369e-38,-1.51454e-06,-3.18057e-12,4.53346e-38,0,-1.06611e-13,0,0,-3.62329,-0.0785144,0.479957,0,0,0,0,0,-0.563907,-0.0785144,266,-57,266,-57,386,-69,269,66,0.0437895,-0.246188,0,-1.5,3.94113e+12,0,0,0,-0.550008,-0.105092,0,0,0,0,0.0960585,0.029191,17550,-0.552697,-0.105909,0.0960585,0.029191,12189,0.275004,-0.0288159,0.0525458,-0.00875629
12220,-3.11482e-12,4.53369e-38,-1.51454e-06,-3.18057e-12,4.53346e-38,0,-1.06611e-13,0,0,-3.62329,-0.0785144,0.479957,0,0,0,0,0,-0.563907,-0.0785144,266,-57,266,-57,386,-69,269,66,0.0435414,-0.245372,0,-1.5,3.94113e+12,0,0,0,-0.548375,-0.104595,0,0,0,0,0.0960585,0.029191,17550,-0.552697,-0.105909,0.0960585,0.029191,12189,0.274187,-0.0288159,0.0522977,-0.00875629
12275,-3.11482e-12,4.53369e-38,-1.51454e-06,-3.18057e-12,4.53346e-38,0,-1.06611e-13,0,0,-3.67443,-0.0811597,0.535078,0,0,0,0,0,-0.633965,-0.0811597,266,-58,266,-58,388,-76,274,64,0.0326517,-0.25484,0,-1.5,3.94113e+12,0,0,0,-0.555045,-0.0905207,0,0,0,0,0.0755912,0.0420292,17360,-0.559202,-0.0928323,0.0755912,0.0420292,12261,0.277522,-0.0226825,0.0452603,-0.0126086
12293,-3.11482e-12,4.53369e-38,-1.51454e-06,-3.18057e-12,4.53346e-38,0,-1.06612e-13,0,0,-3.67443,-0.0811597,0.535078,0,0,0,0,0,-0.633965,-0.0811597,266,-58,266,-58,388,-76,274,64,0.0322742,-0.254169,0,-1.5,3.94113e+12,0,0,0,-0.553684,-0.0897642,0,0,0,0,0.0755912,0.0420292,17360,-0.559202,-0.0928323,0.0755912,0.0420292,12261,0.276842,-0.0226736,0.0448821,-0.0126079
12316,-3.11482e-12,4.53369e-38,-1.51454e-06,-3.18057e-12,4.53346e-38,0,-1.06612e-13,0,0,-3.63411,-0.0582028,0.518432,0,0,0,0,0,-0.578733,-0.0582028,263,-60,263,-60,387,-75,269,64,0.026044,-0.260581,0,-1.5,3.94113e+12,0,0,0,-0.559804,-0.0814246,0,0,0,0,0.0644009,0.0488961,17514,-0.561285,-0.0825492,0.0644009,0.0488961,12302,0.279902,-0.0193208,0.0407123,-0.0146683
12336,-3.11482e-12,4.53369e-38,-1.51454e-06,-3.18057e-12,4.53346e-38,0,-1.06612e-13,0,0,-3.62847,-0.0561228,0.514956,0,0,0,0,0,-0.571004,-0.0561228,263,-60,263,-60,385,-76,269,63,0.0213287,-0.261799,0,-1.5,3.94113e+12,0,0,0,-0.569178,-0.0750092,0,0,0,0,0.0481759,0.0539252,17653,-0.569659,-0.0755485,0.0481759,0.0539252,12328,0.284589,-0.0144482,0.0375046,-0.016176
12350,-3.11482e-12,4.53369e-38,-1.51454e-06,-3.18057e-12,4.53346e-38,0,-1.06613e-13,0,0,-3.62847,-0.0561228,0.514956,0,0,0,0,0,-0.571004,-0.0561228,263,-60,263,-60,385,-76,269,63,0.0209501,-0.261799,0,-1.5,3.94113e+12,0,0,0,-0.568503,-0.0742543,0,0,0,0,0.0481759,0.0539252,17653,-0.569659,-0.0755485,0.0481759,0.0539252,12328,0.284252,-0.0144571,0.0371272,-0.0161771
12377,-3.11482e-12,4.53369e-38,-1.51454e-06,-3.18057e-12,4.53346e-38,0,-1.06613e-13,0,0,-3.61742,-0.0528375,0.506271,0,0,0,0,0,-0.55586,-0.0528375,263,-59,263,-59,385,-76,268,66,0.0138955,-0.261799,0,-1.5,3.94113e+12,0,0,0,-0.564089,-0.0657265,0,0,0,0,0.049642,0.0632318,18034,-0.56543,-0.0674337,0.049642,0.0632318,12363,0.282045,-0.0148952,0.0328632,-0.0189677
12400,-3.11482e-12,4.53369e-38,-1.51454e-06,-3.18057e-12,4.53346e-38,0,-1.06613e-13,0,0,-3.54889,-0.0361107,0.482373,0,0,0,0,0,-0.461979,-0.0361107,260,-62,260,-62,384,-80,266,67,-0.436332,-0.180535,0,-1.5,3.94113e+12,0,0,0,-0.560963,-0.0532926,0,0,0,0,0.052549,0.0787023,18963,-0.561331,-0.0538435,0.052549,0.0787023,12395,0.280482,-0.0999468,0.0266463,-0.489521
12420,-3.11482e-12,4.53369e-38,-1.51454e-06,-3.18057e-12,4.53346e-38,0,-1.06613e-13,0,0,-3.54889,-0.0361107,0.482373,0,0,0,0,0,-0.461979,-0.0361107,260,-62,260,-62,384,-80,266,67,0.00225028,-0.261799,0,-1.5,3.94113e+12,0,0,0,-0.559912,-0.0517186,0,0,0,0,0.052549,0.0787023,18963,-0.561331,-0.0538435,0.052549,0.0787023,12395,0.279956,-0.0157624,0.0258593,-0.023609
12443,-3.11482e-12,4.53369e-38,-1.51454e-06,-3.18057e-12,4.53346e-38,0,-1.06614e-13,0,0,-3.64871,-0.0420093,0.539918,0,0,0,0,0,-0.598727,-0.0420093,263,-59,263,-59,382,-80,268,63,0.000598613,-0.261799,0,-1.5,3.94113e+12,0,0,0,-0.565222,-0.0491719,0,0,0,0,0.0429451,0.0799646,17875,-0.565823,-0.0502913,0.0429451,0.0799646,12431,0.282611,-0.0128835,0.0245859,-0.0239873
12470,-3.11482e-12,4.53369e-38,-1.51454e-06,-3.18057e-12,4.53346e-38,0,-1.06614e-13,0,0,-3.58752,-0.0475564,0.49958,0,0,0,0,0,-0.514909,-0.0475564,263,-60,263,-60,384,-78,266,66,-0.00854262,-0.188231,0,-1.5,3.94113e+12,0,0,0,-0.561933,-0.0468008,0,0,0,0,0.0426453,0.0804384,18432,-0.562274,-0.0474443,0.0426453,0.0804384,12464,0.280967,-0.0927351,0.0234004,-0.031943
12487,-3.11482e-12,4.53369e-38,-1.51454e-06,-3.18057e-12,4.53346e-38,0,-1.06614e-13,0,0,-3.58752,-0.0475564,0.49958,0,0,0,0,0,-0.514909,-0.0475564,263,-60,263,-60,384,-78,266,66,-0.00141313,-0.261799,0,-1.5,3.94113e+12,0,0,0,-0.561208,-0.0454334,0,0,0,0,0.0426453,0.0804384,18432,-0.562274,-0.0474443,0.0426453,0.0804384,12464,0.280604,-0.0127912,0.0227167,-0.0241298
12512,-3.11482e-12,4.53369e-38,-1.51454e-06,-3.18057e-12,4.53346e-38,0,-1.06614e-13,0,0,-3.63537,-0.0378592,0.525323,0,0,0,0,0,-0.58046,-0.0378592,263,-60,263,-60,384,-78,266,64,-0.0057565,-0.261799,0,-1.5,3.94113e+12,0,0,0,-0.566156,-0.0398234,0,0,0,0,0.0332115,0.0855656,17466,-0.566987,-0.0419624,0.0332115,0.0855656,12498,0.283078,-0.00995994,0.0199117,-0.0256682
12561,-3.11482e-12,4.53369e-38,-1.51454e-06,-3.18057e-12,4.53346e-38,0,-1.06615e-13,0,0,-3.62391,-0.0550883,0.49981,0,0,0,0,0,-0.564751,-0.0550883,263,-62,263,-62,388,-69,266,64,-0.00833675,-0.261799,0,-1.5,3.94113e+12,0,0,0,-0.56187,-0.0356318,0,0,0,0,0.0384706,0.0871816,16758,-0.563755,-0.0399036,0.0384706,0.0871816,12547,0.280935,-0.0115424,0.0178159,-0.0261527
12586,-3.11482e-12,4.53369e-38,-1.51454e-06,-3.18057e-12,4.53346e-38,0,-1.06615e-13,0,0,-3.62593,-0.0926102,0.49249,0,0,0,0,0,-0.567523,-0.0926102,269,-60,269,-60,389,-69,269,64,-0.0117632,-0.261799,0,-1.5,3.94113e+12,0,0,0,-0.565735,-0.032847,0,0,0,0,0.0311262,0.0939619,16891,-0.566482,-0.035102,0.0311262,0.0939619,12571,0.282867,-0.00934303,0.0164235,-0.0281867
12605,-3.11482e-12,4.53369e-38,-1.51454e-06,-3.18057e-12,4.53346e-38,0,-1.06615e-13,0,0,-3.64243,-0.107526,0.479909,0,0,0,0,0,-0.590136,-0.107526,272,-55,272,-55,392,-68,270,68,-0.0106353,-0.261799,0,-1.5,3.94113e+12,0,0,0,-0.566063,-0.0338096,0,0,0,0,0.0298388,0.0918068,17136,-0.566421,-0.0349113,0.0298388,0.0918068,12595,0.283031,-0.00894964,0.0169048,-0.0275401
12625,-3.11482e-12,4.53369e-38,-1.51454e-06,-3.18057e-12,4.53346e-38,0,-1.06616e-13,0,0,-3.64243,-0.107526,0.479909,0,0,0,0,0,-0.590136,-0.107526,272,-55,272,-55,392,-68,270,68,-0.0115534,-0.261799,0,-1.5,3.94113e+12,0,0,0,-0.565466,-0.0319736,0,0,0,0,0.0298388,0.0918068,17136,-0.566421,-0.0349113,0.0298388,0.0918068,12595,0.282733,-0.00894964,0.0159868,-0.0275401
12651,-3.11482e-12,4.53369e-38,-1.51454e-06,-3.18057e-12,4.53346e-38,0,-1.06616e-13,0,0,-3.60351,-0.111772,0.456206,0,0,0,0,0,-0.536811,-0.111772,273,-57,273,-57,396,-70,270,66,-0.0120944,-0.261799,0,-1.5,3.94113e+12,0,0,0,-0.565664,-0.0312463,0,0,0,0,0.0280205,0.0923989,17136,-0.566393,-0.0336486,0.0280205,0.0923989,12637,0.282832,-0.0084132,0.0156231,-0.0277176
12674,-3.11482e-12,4.53369e-38,-1.51454e-06,-3.18057e-12,4.53346e-38,0,-1.06616e-13,0,0,-3.70442,-0.121134,0.517218,0,0,0,0,0,-0.675059,-0.121134,276,-55,276,-55,393,-70,273,66,-0.00757835,-0.261799,0,-1.5,3.94113e+12,0,0,0,-0.564763,-0.0363473,0,0,0,0,0.0260185,0.0858467,16320,-0.565127,-0.0375491,0.0260185,0.0858467,12662,0.282381,-0.00780523,0.0181736,-0.025752
12691,-3.11482e-12,4.53369e-38,-1.51454e-06,-3.18057e-12,4.53346e-38,0,-1.06616e-13,0,0,-3.70442,-0.121134,0.517218,0,0,0,0,0,-0.675059,-0.121134,276,-55,276,-55,393,-70,273,66,-0.00830858,-0.261799,0,-1.5,3.94113e+12,0,0,0,-0.564321,-0.034888,0,0,0,0,0.0260185,0.0858467,16320,-0.565127,-0.0375491,0.0260185,0.0858467,12662,0.28216,-0.00780523,0.017444,-0.0257526
12720,-3.11482e-12,4.53369e-38,-1.51454e-06,-3.18057e-12,4.53346e-38,0,-1.06617e-13,0,0,-3.65042,-0.116983,0.485902,0,0,0,0,0,-0.601069,-0.116983,272,-55,272,-55,396,-70,273,66,-0.00729719,-0.261799,0,-1.5,3.94113e+12,0,0,0,-0.562945,-0.0353987,0,0,0,0,0.0302497,0.0833292,16864,-0.563822,-0.0378151,0.0302497,0.0833292,12706,0.281472,-0.00907481,0.0176993,-0.0249965
12744,-3.11482e-12,4.53369e-38,-1.51454e-06,-3.18057e-12,4.53346e-38,0,-1.06617e-13,0,0,-3.6614,-0.108502,0.498416,0,0,0,0,0,-0.616116,-0.108502,274,-58,274,-58,392,-71,272,68,-0.00487784,-0.261799,0,-1.5,3.94113e+12,0,0,0,-0.570306,-0.0378737,0,0,0,0,0.0215626,0.0793865,16680,-0.570824,-0.0397789,0.0215626,0.0793865,12730,0.285153,-0.00647306,0.0189368,-0.0238147
12785,-3.11482e-12,4.53369e-38,-1.51454e-06,-3.18057e-12,4.53346e-38,0,-1.06617e-13,0,0,-3.64291,-0.12395,0.471207,0,0,0,0,0,-0.590793,-0.12395,274,-56,274,-56,393,-66,272,68,-0.00917373,-0.261799,0,-1.5,3.94113e+12,0,0,0,-0.579035,-0.0320166,0,0,0,0,0.0035316,0.0839467,16884,-0.579177,-0.0353744,0.0035316,0.0839467,12770,0.289518,-0.00106394,0.0160083,-0.025182
12807,-3.11482e-12,4.53369e-38,-1.51454e-06,-3.18057e-12,4.53346e-38,0,-1.06617e-13,0,0,-3.6312,-0.123867,0.468689,0,0,0,0,0,-0.574748,-0.123867,274,-58,274,-58,393,-66,272,68,0.0370394,-0.261799,0,-1.5,3.94113e+12,0,0,0,-0.575567,-0.0872172,0,0,0,0,0.0152511,0.0218996,16884,-0.57578,-0.0875238,0.0152511,0.0218996,12796,0.287783,-0.00457764,0.0436086,-0.00656918
12834,-3.11482e-12,4.53369e-38,-1.51454e-06,-3.18057e-12,4.53346e-38,0,-1.06618e-13,0,0,-3.65129,-0.117942,0.482334,0,0,0,0,0,-0.602265,-0.117942,272,-57,272,-57,398,-66,272,66,0.0792065,-0.23142,0,-1.5,3.94113e+12,0,0,0,-0.573798,-0.0877434,0,0,0,0,0.0163151,0.0198968,16632,-0.573928,-0.0879026,0.0163151,0.0198968,12828,0.286899,-0.0554793,0.0438717,0.0353348
12853,-3.11482e-12,4.53369e-38,-1.51454e-06,-3.18057e-12,4.53346e-38,0,-1.06618e-13,0,0,-3.65129,-0.117942,0.482334,0,0,0,0,0,-0.602265,-0.117942,272,-57,272,-57,398,-66,272,66,0.0377148,-0.261799,0,-1.5,3.94113e+12,0,0,0,-0.573488,-0.0873654,0,0,0,0,0.0163151,0.0198968,16632,-0.573928,-0.0879026,0.0163151,0.0198968,12828,0.286744,-0.00489056,0.0436827,-0.00596792
12886,-3.11482e-12,4.53369e-38,-1.51454e-06,-3.18057e-12,4.53346e-38,0,-1.06618e-13,0,0,-3.5288,-0.119207,0.426025,0,0,0,0,0,-0.434456,-0.119207,269,-57,269,-57,398,-73,272,66,0.0635675,-0.261799,0,-1.5,3.94113e+12,0,0,0,-0.573031,-0.111314,0,0,0,0,0.0174902,-0.0263719,17931,-0.573591,-0.110471,0.0174902,-0.0263719,12871,0.286516,-0.00524819,0.0556572,0.00791028
12910,-3.11482e-12,4.53369e-38,-1.51454e-06,-3.18057e-12,4.53346e-38,0,-1.06618e-13,0,0,-3.68571,-0.112345,0.499688,0,0,0,0,0,-0.649424,-0.112345,274,-58,274,-58,393,-66,272,68,0.0662668,-0.261799,0,-1.5,3.94113e+12,0,0,0,-0.579665,-0.113568,0,0,0,0,0.0085614,-0.0316094,16214,-0.579879,-0.112778,0.0085614,-0.0316094,12896,0.289832,-0.00256598,0.0567841,0.00948273
12966,-3.11482e-12,4.53369e-38,-1.51454e-06,-3.18057e-12,4.53346e-38,0,-1.06619e-13,0,0,-3.6623,-0.118293,0.48613,0,0,0,0,0,-0.617346,-0.118293,274,-58,274,-58,396,-66,272,68,0.0682286,-0.261799,0,-1.5,3.94113e+12,0,0,0,-0.592104,-0.114816,0,0,0,0,-0.0094723,-0.0360695,16616,-0.591573,-0.112796,-0.0094723,-0.0360695,12952,0.296052,0.0028342,0.0574082,0.0108205
12990,-3.11482e-12,4.53369e-38,-1.51454e-06,-3.18057e-12,4.53346e-38,0,-1.06619e-13,0,0,-3.57869,-0.11669,0.439802,0,0,0,0,0,-0.502802,-0.11669,272,-57,272,-57,393,-70,272,70,0.0711883,-0.261799,0,-1.5,3.94113e+12,0,0,0,-0.585624,-0.118447,0,0,0,0,-0.00448132,-0.039885,17640,-0.58557,-0.117968,-0.00448132,-0.039885,12979,0.292812,0.0013411,0.0592235,0.0119649
13026,-3.11482e-12,4.53369e-38,-1.51454e-06,-3.18057e-12,4.53346e-38,0,-1.06619e-13,0,0,-3.57869,-0.11669,0.439802,0,0,0,0,0,-0.502802,-0.11669,272,-57,272,-57,393,-70,272,70,0.0719051,-0.261799,0,-1.5,3.94113e+12,0,0,0,-0.585785,-0.119883,0,0,0,0,-0.00448132,-0.039885,17640,-0.58557,-0.117968,-0.00448132,-0.039885,12979,0.292893,0.00135005,0.0599414,0.0119638
13047,-3.11482e-12,4.53369e-38,-1.51454e-06,-3.18057e-12,4.53346e-38,0,-1.0662e-13,0,0,-3.57869,-0.11669,0.439802,0,0,0,0,0,-0.502802,-0.11669,272,-57,272,-57,393,-70,272,70,0.072325,-0.261799,0,-1.5,3.94113e+12,0,0,0,-0.58588,-0.12072,0,0,0,0,-0.00448132,-0.039885,17640,-0.58557,-0.117968,-0.00448132,-0.039885,12979,0.29294,0.00135005,0.0603602,0.0119649
13069,-3.11482e-12,4.53369e-38,-1.51454e-06,-3.18057e-12,4.53346e-38,0,-1.0662e-13,0,0,-3.65323,-0.106207,0.489571,0,0,0,0,0,-0.604928,-0.106207,272,-57,272,-57,392,-70,272,67,0.0760476,-0.261799,0,-1.5,3.94113e+12,0,0,0,-0.598443,-0.124039,0,0,0,0,-0.0309853,-0.0467628,16577,-0.598164,-0.123618,-0.0309853,-0.0467628,13062,0.299221,0.00929832,0.0620197,0.014028
13089,-3.11482e-12,4.53369e-38,-1.51454e-06,-3.18057e-12,4.53346e-38,0,-1.0662e-13,0,0,-3.65323,-0.106207,0.489571,0,0,0,0,0,-0.604928,-0.106207,272,-57,272,-57,392,-70,272,67,0.0765141,-0.261799,0,-1.5,3.94113e+12,0,0,0,-0.599062,-0.124975,0,0,0,0,-0.0309853,-0.0467628,16577,-0.598164,-0.123618,-0.0309853,-0.0467628,13062,0.299531,0.00928938,0.0624873,0.0140268
13117,-3.11482e-12,4.53369e-38,-1.51454e-06,-3.18057e-12,4.53346e-38,0,-1.0662e-13,0,0,-3.60281,-0.117888,0.460458,0,0,0,0,0,-0.535847,-0.117888,272,-58,272,-58,392,-70,273,68,0.0786563,-0.261799,0,-1.5,3.94113e+12,0,0,0,-0.606961,-0.126798,0,0,0,0,-0.041859,-0.0508579,17388,-0.60583,-0.125425,-0.041859,-0.0508579,13102,0.30348,0.0125527,0.063399,0.0152573
13139,-3.11482e-12,4.53369e-38,-1.51454e-06,-3.18057e-12,4.53346e-38,0,-1.06621e-13,0,0,-3.65042,-0.116983,0.485902,0,0,0,0,0,-0.601069,-0.116983,272,-55,272,-55,396,-70,273,66,0.0770776,-0.261799,0,-1.5,3.94113e+12,0,0,0,-0.608095,-0.124955,0,0,0,0,-0.0449206,-0.0486706,16864,-0.607601,-0.124419,-0.0449206,-0.0486706,13130,0.304047,0.0134736,0.0624774,0.0146002
13156,-3.11482e-12,4.53369e-38,-1.51454e-06,-3.18057e-12,4.53346e-38,0,-1.06621e-13,0,0,-3.65042,-0.116983,0.485902,0,0,0,0,0,-0.601069,-0.116983,272,-55,272,-55,396,-70,273,66,0.0774912,-0.261799,0,-1.5,3.94113e+12,0,0,0,-0.608858,-0.125782,0,0,0,0,-0.0449206,-0.0486706,16864,-0.607601,-0.124419,-0.0449206,-0.0486706,13130,0.304429,0.0134736,0.0628911,0.0146002
13176,-3.11482e-12,4.53369e-38,-1.51454e-06,-3.18057e-12,4.53346e-38,0,-1.06621e-13,0,0,-3.57318,-0.116669,0.438707,0,0,0,0,0,-0.495258,-0.116669,272,-58,272,-58,393,-70,272,70,0.0765886,-0.261799,0,-1.5,3.94113e+12,0,0,0,-0.597079,-0.125349,0,0,0,0,-0.0246765,-0.0463851,17640,-0.596585,-0.124422,-0.0246765,-0.0463851,13162,0.298539,0.0074029,0.0626746,0.013914
13195,-3.11482e-12,4.53369e-38,-1.51454e-06,-3.18057e-12,4.53346e-38,0,-1.06621e-13,0,0,-3.57318,-0.116669,0.438707,0,0,0,0,0,-0.495258,-0.116669,272,-58,272,-58,393,-70,272,70,0.0770293,-0.261799,0,-1.5,3.94113e+12,0,0,0,-0.597548,-0.126231,0,0,0,0,-0.0246765,-0.0463851,17640,-0.596585,-0.124422,-0.0246765,-0.0463851,13162,0.298774,0.0074029,0.0631153,0.013914
13218,-3.11482e-12,4.53369e-38,-1.51454e-06,-3.18057e-12,4.53346e-38,0,-1.06622e-13,0,0,-3.62713,-0.120631,0.472863,0,0,0,0,0,-0.569168,-0.120631,272,-55,272,-55,393,-70,273,66,0.0754592,-0.261799,0,-1.5,3.94113e+12,0,0,0,-0.570799,-0.129616,0,0,0,0,0.0102303,-0.053264,17136,-0.571024,-0.128444,0.0102303,-0.053264,13203,0.285399,-0.00204444,0.0648079,0.0106514
13243,-3.11482e-12,4.53369e-38,-1.51454e-06,-3.18057e-12,4.53346e-38,0,-1.06622e-13,0,0,-3.62774,-0.123205,0.457775,0,0,0,0,0,-0.570004,-0.123205,274,-56,274,-56,393,-66,272,70,0.0779965,-0.261799,0,-1.5,3.94113e+12,0,0,0,-0.570467,-0.126529,0,0,0,0,0.00931168,-0.0491089,17136,-0.570709,-0.125252,0.00931168,-0.0491089,13229,0.285233,-0.00279844,0.0632645,0.014732
13271,-3.11482e-12,4.53369e-38,-1.51454e-06,-3.18057e-12,4.53346e-38,0,-1.06622e-13,0,0,-3.60269,-0.124506,0.462894,0,0,0,0,0,-0.535686,-0.124506,272,-57,272,-57,395,-70,273,66,0.0762639,-0.261799,0,-1.5,3.94113e+12,0,0,0,-0.570461,-0.12558,0,0,0,0,0.0090245,-0.0449124,17136,-0.570542,-0.125176,0.0090245,-0.0449124,13263,0.285231,-0.00270903,0.0627902,0.0134736
13288,-3.11482e-12,4.53369e-38,-1.51454e-06,-3.18057e-12,4.53346e-38,0,-1.06623e-13,0,0,-3.60269,-0.124506,0.462894,0,0,0,0,0,-0.535686,-0.124506,272,-57,272,-57,395,-70,273,66,0.0766456,-0.261799,0,-1.5,3.94113e+12,0,0,0,-0.570308,-0.126344,0,0,0,0,0.0090245,-0.0449124,17136,-0.570542,-0.125176,0.0090245,-0.0449124,13263,0.285154,-0.00270009,0.063172,0.0134736
13311,-3.11482e-12,4.53369e-38,-1.51454e-06,-3.18057e-12,4.53346e-38,0,-1.06623e-13,0,0,-3.602,-0.122347,0.451275,0,0,0,0,0,-0.534733,-0.122347,274,-58,274,-58,393,-68,272,70,0.0805056,-0.261799,0,-1.5,3.94113e+12,0,0,0,-0.567297,-0.128525,0,0,0,0,0.0128646,-0.0541494,17388,-0.567593,-0.12728,0.0128646,-0.0541494,13296,0.283649,-0.00386238,0.0642626,0.016243
13334,-3.11482e-12,4.53369e-38,-1.51454e-06,-3.18057e-12,4.53346e-38,0,-1.06623e-13,0,0,-3.69812,-0.112407,0.502547,0,0,0,0,0,-0.666425,-0.112407,274,-56,274,-56,393,-66,272,68,0.128602,-0.261799,0,-1.5,3.94113e+12,0,0,0,-0.568819,-0.130865,0,0,0,0,0.00973371,-0.069848,16214,-0.568887,-0.130377,0.00973371,-0.069848,13328,0.284409,0.0740341,0.0654327,0.0631692
13357,-3.11482e-12,4.53369e-38,-1.51454e-06,-3.18057e-12,4.53346e-38,0,-1.06623e-13,0,0,-3.69812,-0.112407,0.502547,0,0,0,0,0,-0.666425,-0.112407,274,-56,274,-56,393,-66,272,68,0.0872234,-0.261799,0,-1.5,3.94113e+12,0,0,0,-0.568585,-0.132542,0,0,0,0,0.00973371,-0.069848,16214,-0.568887,-0.130377,0.00973371,-0.069848,13328,0.284293,-0.00291467,0.0662709,0.0209525
13381,-3.11482e-12,4.53369e-38,-1.51454e-06,-3.18057e-12,4.53346e-38,0,-1.06624e-13,0,0,-3.69812,-0.112407,0.502547,0,0,0,0,0,-0.666425,-0.112407,274,-56,274,-56,393,-66,272,68,0.0779743,-0.261799,0,-1.5,3.94113e+12,0,0,0,-0.585349,-0.129229,0,0,0,0,-0.0147458,-0.0445405,16214,-0.58501,-0.128205,-0.0147458,-0.0445405,13366,0.292674,0.00442564,0.0646147,0.0133596
13422,-3.11482e-12,4.53369e-38,-1.51454e-06,-3.18057e-12,4.53346e-38,0,-1.06624e-13,0,0,-3.64743,-0.106197,0.488337,0,0,0,0,0,-0.596979,-0.106197,272,-58,272,-58,392,-70,272,67,0.0760736,-0.261799,0,-1.5,3.94113e+12,0,0,0,-0.599216,-0.129578,0,0,0,0,-0.034684,-0.0376207,16577,-0.597759,-0.127998,-0.034684,-0.0376207,13407,0.299608,0.010401,0.064789,0.0112847
13449,-3.11482e-12,4.53369e-38,-1.51454e-06,-3.18057e-12,4.53346e-38,0,-1.06624e-13,0,0,-3.70599,-0.112761,0.509474,0,0,0,0,0,-0.677208,-0.112761,274,-56,274,-56,393,-66,272,67,0.0663991,-0.261799,0,-1.5,3.94113e+12,0,0,0,-0.595669,-0.122255,0,0,0,0,-0.0150896,-0.0175727,16093,-0.595261,-0.12178,-0.0150896,-0.0175727,13435,0.297834,0.00452399,0.0611275,0.00527166
13469,-3.11482e-12,4.53369e-38,-1.51454e-06,-3.18057e-12,4.53346e-38,0,-1.06624e-13,0,0,-3.71373,-0.113111,0.516332,0,0,0,0,0,-0.687805,-0.113111,274,-56,274,-56,393,-66,272,66,0.0665055,-0.261799,0,-1.5,3.94113e+12,0,0,0,-0.610658,-0.122617,0,0,0,0,-0.0302795,-0.0173229,15972,-0.610385,-0.122461,-0.0302795,-0.0173229,13462,0.305329,0.00908375,0.0613087,0.00519678
13486,-3.11482e-12,4.53369e-38,-1.51454e-06,-3.18057e-12,4.53346e-38,0,-1.06625e-13,0,0,-3.71373,-0.113111,0.516332,0,0,0,0,0,-0.687805,-0.113111,274,-56,274,-56,393,-66,272,66,0.0666527,-0.261799,0,-1.5,3.94113e+12,0,0,0,-0.611172,-0.122912,0,0,0,0,-0.0302795,-0.0173229,15972,-0.610385,-0.122461,-0.0302795,-0.0173229,13462,0.305586,0.00908375,0.0614559,0.00519678
13509,-3.11482e-12,4.53369e-38,-1.51454e-06,-3.18057e-12,4.53346e-38,0,-1.06625e-13,0,0,-3.64006,-0.105954,0.472774,0,0,0,0,0,-0.586884,-0.105954,272,-58,272,-58,393,-68,272,70,0.0626885,-0.261799,0,-1.5,3.94113e+12,0,0,0,-0.602744,-0.119635,0,0,0,0,-0.0224322,-0.0095684,16698,-0.602228,-0.119415,-0.0224322,-0.0095684,13495,0.301372,0.00673234,0.0598174,0.00287108
13536,-3.11482e-12,4.53369e-38,-1.51454e-06,-3.18057e-12,4.53346e-38,0,-1.06625e-13,0,0,-3.69812,-0.112407,0.502547,0,0,0,0,0,-0.666425,-0.112407,274,-56,274,-56,393,-66,272,68,0.0546981,-0.261799,0,-1.5,3.94113e+12,0,0,0,-0.614929,-0.112575,0,0,0,0,-0.0324691,0.00529819,16214,-0.614605,-0.112628,-0.0324691,0.00529819,13528,0.307465,0.00973642,0.0562873,-0.00158921
13555,-3.11482e-12,4.53369e-38,-1.51454e-06,-3.18057e-12,4.53346e-38,0,-1.06626e-13,0,0,-3.69812,-0.112407,0.502547,0,0,0,0,0,-0.666425,-0.112407,274,-56,274,-56,393,-66,272,68,0.0546478,-0.261799,0,-1.5,3.94113e+12,0,0,0,-0.615546,-0.112474,0,0,0,0,-0.0324691,0.00529819,16214,-0.614605,-0.112628,-0.0324691,0.00529819,13528,0.307773,0.00973642,0.056237,-0.00158921
13609,-3.11482e-12,4.53369e-38,-1.51454e-06,-3.18057e-12,4.53346e-38,0,-1.06626e-13,0,0,-3.71373,-0.113111,0.516332,0,0,0,0,0,-0.687805,-0.113111,274,-56,274,-56,393,-66,272,66,0.0546689,-0.261799,0,-1.5,3.94113e+12,0,0,0,-0.640314,-0.112531,0,0,0,0,-0.0652043,0.00532125,15972,-0.636793,-0.112819,-0.0652043,0.00532125,13595,0.320157,0.0195563,0.0562656,-0.00159666
13636,-3.11482e-12,4.53369e-38,-1.51454e-06,-3.18057e-12,4.53346e-38,0,-1.06626e-13,0,0,-3.69779,-0.117108,0.507101,0,0,0,0,0,-0.665973,-0.117108,274,-56,274,-56,395,-66,272,66,0.0538821,-0.261799,0,-1.5,3.94113e+12,0,0,0,-0.664789,-0.112009,0,0,0,0,-0.0885311,0.00707542,16236,-0.663904,-0.11208,-0.0885311,0.00707542,13628,0.332395,0.0265628,0.0560044,-0.0021223
13653,-3.11482e-12,4.53369e-38,-1.51454e-06,-3.18057e-12,4.53346e-38,0,-1.06626e-13,0,0,-3.69779,-0.117108,0.507101,0,0,0,0,0,-0.665973,-0.117108,274,-56,274,-56,395,-66,272,66,0.0538209,-0.261799,0,-1.5,3.94113e+12,0,0,0,-0.666294,-0.111889,0,0,0,0,-0.0885311,0.00707542,16236,-0.663904,-0.11208,-0.0885311,0.00707542,13628,0.333147,0.0265628,0.0559443,-0.00212342
13701,-3.11482e-12,4.53369e-38,-1.51454e-06,-3.18057e-12,4.53346e-38,0,-1.06627e-13,0,0,-3.71373,-0.113111,0.516332,0,0,0,0,0,-0.687805,-0.113111,274,-56,274,-56,393,-66,272,66,0.0686033,-0.261799,0,-1.5,3.94113e+12,0,0,0,-0.66849,-0.112402,0,0,0,0,-0.0985093,0.00738116,15972,-0.667702,-0.112461,-0.0985093,0.00738116,13695,0.334245,1.41689,0.0562009,0.0124024
13721,-3.11482e-12,4.53369e-38,-1.51454e-06,-3.18057e-12,4.53346e-38,0,-1.06627e-13,0,0,-3.71373,-0.113111,0.516332,0,0,0,0,0,-0.687805,-0.113111,274,-56,274,-56,393,-66,272,66,0.053912,-0.261799,0,-1.5,3.94113e+12,0,0,0,-0.67046,-0.112254,0,0,0,0,-0.0985093,0.00738116,15972,-0.667702,-0.112461,-0.0985093,0.00738116,13695,0.33523,0.029549,0.0561271,-0.00221506
13747,-3.11482e-12,4.53369e-38,-1.51454e-06,-3.18057e-12,4.53346e-38,0,-1.06627e-13,0,0,-3.68572,-0.108047,0.504452,0,0,0,0,0,-0.649432,-0.108047,272,-58,272,-58,393,-66,272,66,0.0532058,-0.261799,0,-1.5,3.94113e+12,0,0,0,-0.651342,-0.11139,0,0,0,0,-0.0592658,0.00829844,15972,-0.649801,-0.111606,-0.0592658,0.00829844,13733,0.325671,0.0177801,0.055695,-0.00248924
13767,-3.11482e-12,4.53369e-38,-1.51454e-06,-3.18057e-12,4.53346e-38,0,-1.06627e-13,0,0,-3.679,-0.109879,0.495751,0,0,0,0,0,-0.640227,-0.109879,272,-58,272,-58,393,-66,273,68,0.0212115,-0.261799,0,-1.5,3.94113e+12,0,0,0,-0.653328,-0.110496,0,0,0,0,-0.068646,0.00906001,16214,-0.652848,-0.11056,-0.068646,0.00906001,13761,0.326664,0.0546506,0.0552481,-0.0340366
13786,-3.11482e-12,4.53369e-38,-1.51454e-06,-3.18057e-12,4.53346e-38,0,-1.06628e-13,0,0,-3.679,-0.109879,0.495751,0,0,0,0,0,-0.640227,-0.109879,272,-58,272,-58,393,-66,273,68,0.0524396,-0.261799,0,-1.5,3.94113e+12,0,0,0,-0.654701,-0.110315,0,0,0,0,-0.068646,0.00906001,16214,-0.652848,-0.11056,-0.068646,0.00906001,13761,0.32735,0.0205904,0.0551575,-0.00271797
13838,-3.11482e-12,4.53369e-38,-1.51454e-06,-3.18057e-12,4.53346e-38,0,-1.06628e-13,0,0,-3.69812,-0.112407,0.502547,0,0,0,0,0,-0.666425,-0.112407,274,-56,274,-56,393,-66,272,68,0.0517417,-0.261799,0,-1.5,3.94113e+12,0,0,0,-0.658155,-0.109402,0,0,0,0,-0.0781948,0.00986387,16214,-0.657373,-0.109501,-0.0781948,0.00986387,13830,0.329077,0.0234604,0.054701,-0.00295937
13855,-3.11482e-12,4.53369e-38,-1.51454e-06,-3.18057e-12,4.53346e-38,0,-1.06628e-13,0,0,-3.69812,-0.112407,0.502547,0,0,0,0,0,-0.666425,-0.112407,274,-56,274,-56,393,-66,272,68,0.0516589,-0.261799,0,-1.5,3.94113e+12,0,0,0,-0.659484,-0.109234,0,0,0,0,-0.0781948,0.00986387,16214,-0.657373,-0.109501,-0.0781948,0.00986387,13830,0.329742,0.0234604,0.0546172,-0.00295825
13878,-3.11482e-12,4.53369e-38,-1.51454e-06,-3.18057e-12,4.53346e-38,0,-1.06629e-13,0,0,-3.60793,-0.1181,0.466031,0,0,0,0,0,-0.54287,-0.1181,272,-57,272,-57,393,-70,272,66,0.0515119,-0.261799,0,-1.5,3.94113e+12,0,0,0,-0.65585,-0.110386,0,0,0,0,-0.0730872,0.0081816,17136,-0.654169,-0.110575,-0.0730872,0.0081816,13864,0.327925,0.0328928,0.0551932,-0.00368133
13907,-3.11482e-12,4.53369e-38,-1.51454e-06,-3.18057e-12,4.53346e-38,0,-1.06629e-13,0,0,-3.67436,-0.10893,0.4883,0,0,0,0,0,-0.633877,-0.10893,274,-56,274,-56,392,-68,272,70,0.0516068,-0.261799,0,-1.5,3.94113e+12,0,0,0,-0.6552,-0.108884,0,0,0,0,-0.0700992,0.00944979,16560,-0.654218,-0.109016,-0.0700992,0.00944979,13895,0.3276,0.0210285,0.0544421,-0.00283532
13924,-3.11482e-12,4.53369e-38,-1.51454e-06,-3.18057e-12,4.53346e-38,0,-1.06629e-13,0,0,-3.67436,-0.10893,0.4883,0,0,0,0,0,-0.633877,-0.10893,274,-56,274,-56,392,-68,272,70,0.0515264,-0.261799,0,-1.5,3.94113e+12,0,0,0,-0.656391,-0.108724,0,0,0,0,-0.0700992,0.00944979,16560,-0.654218,-0.109016,-0.0700992,0.00944979,13895,0.328196,0.0210285,0.0543618,-0.00283532
13947,-3.11482e-12,4.53369e-38,-1.51454e-06,-3.18057e-12,4.53346e-38,0,-1.06629e-13,0,0,-3.64981,-0.124209,0.474715,0,0,0,0,0,-0.60024,-0.124209,274,-56,274,-56,398,-66,272,68,0.0527316,-0.261799,0,-1.5,3.94113e+12,0,0,0,-0.66938,-0.11022,0,0,0,0,-0.125642,0.00793103,16884,-0.666491,-0.110402,-0.125642,0.00793103,13933,0.33469,0.037694,0.0551098,-0.00237823
14090,-3.11482e-12,4.53369e-38,-1.51454e-06,-3.18057e-12,4.53346e-38,0,-1.0663e-13,0,0,-3.65718,-0.122329,0.481807,0,0,0,0,0,-0.610341,-0.122329,274,-56,274,-56,392,-66,272,67,0.0533701,-0.261799,0,-1.5,3.94113e+12,0,0,0,-0.661008,-0.110249,0,0,0,0,-0.0627188,0.00584866,16758,-0.65204,-0.111086,-0.0627188,0.00584866,13966,0.330504,0.0188112,0.0551247,-0.00175461
14115,-3.11482e-12,4.53369e-38,-1.51454e-06,-3.18057e-12,4.53346e-38,0,-1.0663e-13,0,0,-3.66659,-0.115667,0.479613,0,0,0,0,0,-0.623223,-0.115667,274,-56,274,-56,395,-66,272,70,0.0539938,-0.261799,0,-1.5,3.94113e+12,0,0,0,-0.651186,-0.111007,0,0,0,0,-0.051459,0.00503465,16728,-0.649899,-0.111133,-0.051459,0.00503465,14101,0.325593,0.0154316,0.0555036,-0.00150986
14131,-3.11482e-12,4.53369e-38,-1.51454e-06,-3.18057e-12,4.53346e-38,0,-1.0663e-13,0,0,-3.66659,-0.115667,0.479613,0,0,0,0,0,-0.623223,-0.115667,274,-56,274,-56,395,-66,272,70,0.0539531,-0.261799,0,-1.5,3.94113e+12,0,0,0,-0.652009,-0.110927,0,0,0,0,-0.051459,0.00503465,16728,-0.649899,-0.111133,-0.051459,0.00503465,14101,0.326004,0.0154376,0.0554634,-0.00151023
14142,-3.11482e-12,4.53369e-38,-1.51454e-06,-3.18057e-12,4.53346e-38,0,-1.0663e-13,0,0,-3.66659,-0.115667,0.479613,0,0,0,0,0,-0.623223,-0.115667,274,-56,274,-56,395,-66,272,70,0.0539258,-0.261799,0,-1.5,3.94113e+12,0,0,0,-0.652575,-0.110871,0,0,0,0,-0.051459,0.00503465,16728,-0.649899,-0.111133,-0.051459,0.00503465,14101,0.326287,0.0154406,0.0554357,-0.00150986
14160,-3.11482e-12,4.53369e-38,-1.51454e-06,-3.18057e-12,4.53346e-38,0,-1.06631e-13,0,0,-3.66659,-0.115667,0.479613,0,0,0,0,0,-0.623223,-0.115667,274,-56,274,-56,395,-66,272,70,0.0538805,-0.261799,0,-1.5,3.94113e+12,0,0,0,-0.653501,-0.110781,0,0,0,0,-0.051459,0.00503465,16728,-0.649899,-0.111133,-0.051459,0.00503465,14101,0.326751,0.0154316,0.0553904,-0.00150986
14182,-3.11482e-12,4.53369e-38,-1.51454e-06,-3.18057e-12,4.53346e-38,0,-1.06631e-13,0,0,-3.71373,-0.113111,0.516332,0,0,0,0,0,-0.687805,-0.113111,274,-56,274,-56,393,-66,272,66,0.0538132,-0.261799,0,-1.5,3.94113e+12,0,0,0,-0.689768,-0.110653,0,0,0,0,-0.117646,0.00504536,15972,-0.68718,-0.110764,-0.117646,0.00504536,14168,0.344884,0.0352889,0.0553264,-0.00151321
14205,-3.11482e-12,4.53369e-38,-1.51454e-06,-3.18057e-12,4.53346e-38,0,-1.06631e-13,0,0,-3.70599,-0.112761,0.509474,0,0,0,0,0,-0.677208,-0.112761,274,-56,274,-56,393,-66,272,67,0.055875,-0.261799,0,-1.5,3.94113e+12,0,0,0,-0.678728,-0.11245,0,0,0,0,-0.0865509,0.00116403,16093,-0.677689,-0.112464,-0.0865509,0.00116403,14195,0.339364,0.0259638,0.0562248,-0.000349805
14225,-3.11482e-12,4.53369e-38,-1.51454e-06,-3.18057e-12,4.53346e-38,0,-1.06632e-13,0,0,-3.70599,-0.112761,0.509474,0,0,0,0,0,-0.677208,-0.112761,274,-56,274,-56,393,-66,272,67,0.0558651,-0.261799,0,-1.5,3.94113e+12,0,0,0,-0.680372,-0.112428,0,0,0,0,-0.0865509,0.00116403,16093,-0.677689,-0.112464,-0.0865509,0.00116403,14195,0.340186,0.0259638,0.0562138,-0.000348687
14251,-3.11482e-12,4.53369e-38,-1.51454e-06,-3.18057e-12,4.53346e-38,0,-1.06632e-13,0,0,-3.71373,-0.113111,0.516332,0,0,0,0,0,-0.687805,-0.113111,274,-56,274,-56,393,-66,272,66,0.0561228,-0.261799,0,-1.5,3.94113e+12,0,0,0,-0.692044,-0.112849,0,0,0,0,-0.109705,0.00100816,15972,-0.689082,-0.112876,-0.109705,0.00100816,14237,0.346022,0.0329107,0.0564246,-0.000301749
14274,-3.11482e-12,4.53369e-38,-1.51454e-06,-3.18057e-12,4.53346e-38,0,-1.06632e-13,0,0,-3.68198,-0.111692,0.488491,0,0,0,0,0,-0.644317,-0.111692,274,-56,274,-56,393,-66,272,70,0.0558074,-0.261799,0,-1.5,3.94113e+12,0,0,0,-0.687587,-0.112551,0,0,0,0,-0.0942589,0.00155997,16456,-0.686268,-0.112573,-0.0942589,0.00155997,14262,0.343794,0.0282794,0.0562757,-0.000468269
14291,-3.11482e-12,4.53369e-38,-1.51454e-06,-3.18057e-12,4.53346e-38,0,-1.06632e-13,0,0,-3.68198,-0.111692,0.488491,0,0,0,0,0,-0.644317,-0.111692,274,-56,274,-56,393,-66,272,70,0.0557952,-0.261799,0,-1.5,3.94113e+12,0,0,0,-0.689189,-0.112525,0,0,0,0,-0.0942589,0.00155997,16456,-0.686268,-0.112573,-0.0942589,0.00155997,14262,0.344595,0.0282705,0.0562624,-0.000467151
14321,-3.11482e-12,4.53369e-38,-1.51454e-06,-3.18057e-12,4.53346e-38,0,-1.06633e-13,0,0,-3.67038,-0.107371,0.490837,0,0,0,0,0,-0.628419,-0.107371,272,-58,272,-58,393,-66,272,68,0.0565363,-0.261799,0,-1.5,3.94113e+12,0,0,0,-0.691035,-0.113102,0,0,0,0,-0.100064,5.05207e-05,16214,-0.688033,-0.113103,-0.100064,5.05207e-05,14306,0.345517,0.0300229,0.0565508,-1.45286e-05
14375,-3.11482e-12,4.53369e-38,-1.51454e-06,-3.18057e-12,4.53346e-38,0,-1.06633e-13,0,0,-3.68245,-0.116393,0.493492,0,0,0,0,0,-0.64496,-0.116393,274,-56,274,-56,395,-66,272,68,0.0561102,-0.261799,0,-1.5,3.94113e+12,0,0,0,-0.648777,-0.112687,0,0,0,0,-0.0143546,0.000778399,16482,-0.648002,-0.11273,-0.0143546,0.000778399,14361,0.324388,0.00430942,0.0563437,-0.000233576
14392,-3.11482e-12,4.53369e-38,-1.51454e-06,-3.18057e-12,4.53346e-38,0,-1.06633e-13,0,0,-3.68245,-0.116393,0.493492,0,0,0,0,0,-0.64496,-0.116393,274,-56,274,-56,395,-66,272,68,0.0561035,-0.261799,0,-1.5,3.94113e+12,0,0,0,-0.649021,-0.112674,0,0,0,0,-0.0143546,0.000778399,16482,-0.648002,-0.11273,-0.0143546,0.000778399,14361,0.32451,0.00430942,0.0563371,-0.000233576
14412,-3.11482e-12,4.53369e-38,-1.51454e-06,-3.18057e-12,4.53346e-38,0,-1.06633e-13,0,0,-3.63005,-0.117268,0.470386,0,0,0,0,0,-0.573172,-0.117268,272,-58,272,-58,392,-66,272,67,0.0567911,-0.261799,0,-1.5,3.94113e+12,0,0,0,-0.639028,-0.113336,0,0,0,0,0.0141974,-0.000410939,16758,-0.639312,-0.113328,0.0141974,-0.000410939,14398,0.319514,-0.00426173,0.0566681,0.000122935
14436,-3.11482e-12,4.53369e-38,-1.51454e-06,-3.18057e-12,4.53346e-38,0,-1.06634e-13,0,0,-3.6355,-0.123138,0.477652,0,0,0,0,0,-0.580637,-0.123138,272,-55,272,-55,393,-70,274,66,0.0725073,0.261799,0,-1.5,3.94113e+12,0,0,0,-0.621449,-0.11376,0,0,0,0,0.0392509,-0.00102169,17136,-0.621763,-0.113751,0.0392509,-0.00102169,14430,0.310725,-0.650704,0.0568798,0.0156275
14453,-3.11482e-12,4.53369e-38,-1.51454e-06,-3.18057e-12,4.53346e-38,0,-1.06634e-13,0,0,-3.6355,-0.123138,0.477652,0,0,0,0,0,-0.580637,-0.123138,272,-55,272,-55,393,-70,274,66,0.0571947,-0.261799,0,-1.5,3.94113e+12,0,0,0,-0.620782,-0.113777,0,0,0,0,0.0392509,-0.00102169,17136,-0.621763,-0.113751,0.0392509,-0.00102169,14430,0.310391,-0.0117749,0.0568885,0.000306219
14476,-3.11482e-12,4.53369e-38,-1.51454e-06,-3.18057e-12,4.53346e-38,0,-1.06634e-13,0,0,-3.68572,-0.108047,0.504452,0,0,0,0,0,-0.649432,-0.108047,272,-58,272,-58,393,-66,272,66,0.0566823,-0.261799,0,-1.5,3.94113e+12,0,0,0,-0.620887,-0.113036,0,0,0,0,0.039992,-0.00054982,15972,-0.621807,-0.113023,0.039992,-0.00054982,14462,0.310444,-0.0119895,0.056518,0.000164285
14503,-3.11482e-12,4.53369e-38,-1.51454e-06,-3.18057e-12,4.53346e-38,0,-1.06634e-13,0,0,-3.65817,-0.111321,0.486281,0,0,0,0,0,-0.611689,-0.111321,272,-58,272,-58,393,-66,272,68,0.0567975,-0.261799,0,-1.5,3.94113e+12,0,0,0,-0.620385,-0.113186,0,0,0,0,0.0409519,-0.000680144,16348,-0.620795,-0.113179,0.0409519,-0.000680144,14495,0.310193,-0.0122845,0.056593,0.000204518
14522,-3.11482e-12,4.53369e-38,-1.51454e-06,-3.18057e-12,4.53346e-38,0,-1.06635e-13,0,0,-3.65817,-0.111321,0.486281,0,0,0,0,0,-0.611689,-0.111321,272,-58,272,-58,393,-66,272,68,0.0568029,-0.261799,0,-1.5,3.94113e+12,0,0,0,-0.619607,-0.113199,0,0,0,0,0.0409519,-0.000680144,16348,-0.620795,-0.113179,0.0409519,-0.000680144,14495,0.309804,-0.0122845,0.0565995,0.000203401
