timestamp,A_x,A_y,A_z,P,Q,R,Phi,Theta,Psi,poseX,poseY,poseZ,state_X,state_Y,state_Z,state_VzB,state_Bx,state_By,state_Bz,p1_x,p1_y,p2_x,p2_y,p3_x,p3_y,p4_x,p4_y,roll,pitch,yaw,alt,targetHeading,highLevelState,lowLevelState,gateNumber,filtered_x,filtered_y,x_OT,y_OT,vx_OT,vy_OT,filtered_vx,filtered_vygateArearansac_corr_x,ransac_corr_y,ransac_corr_vx,ransac_corr_vy,detectionTimeStamppTermX,dTermX,pTermY,dTermY
7805,0,0,0,0,0,0,0,0,0,0,0,0,0,0,0,0,0,0,0,0,0,0,0,0,0,0,0,0,-0,0,-1.5,-nan,0,0,0,0,0,0,0,0,0,0,0,1.9603e-19,0,0,0,0,0,0,0,0,0
8781,-3.21252e-12,3.01002e-38,-1.55831e-06,-3.27827e-12,3.00978e-38,0,-1.06589e-13,0,0,0,0,0,0,0,0,0,0,0,0,0,0,0,0,0,0,0,0,0,-0,0,-1.5,-nan,0,0,0,0,0,0,0,0,0,0,0,1.9603e-19,0,0,0,0,0,0,0,0,0
8824,-3.21252e-12,3.01002e-38,-1.55831e-06,-3.27827e-12,3.00978e-38,0,-1.0659e-13,0,0,0,0,0,0,0,0,0,0,0,0,0,0,0,0,0,0,0,0,0,-0,0,-1.5,-nan,0,0,0,0,0,0,0,0,0,0,0,1.9603e-19,0,0,0,0,0,0,0,0,0
9060,-3.21252e-12,3.01002e-38,-1.55831e-06,-3.27827e-12,3.00978e-38,0,-1.0659e-13,0,0,0,0,0,0,0,0,0,0,0,0,0,0,0,0,0,0,0,0,0,-0,0,-1.5,-nan,0,0,0,0,0,0,0,0,0,0,0,1.9603e-19,0,0,0,0,0,0,0,0,0
9122,-3.21252e-12,3.01002e-38,-1.55831e-06,-3.27827e-12,3.00978e-38,0,-1.0659e-13,0,0,0,0,0,0,0,0,0,0,0,0,0,0,0,0,0,0,0,0,0,-0,0,-1.5,-nan,0,0,0,0,0,0,0,0,0,0,0,1.9603e-19,0,0,0,0,0,0,0,0,0
9275,-3.21252e-12,3.01002e-38,-1.55831e-06,-3.27827e-12,3.00978e-38,0,-1.0659e-13,0,0,0,0,0,0,0,0,0,0,0,0,0,0,0,0,0,0,0,0,0,-0,0,-1.5,-nan,0,0,0,0,0,0,0,0,0,0,0,1.9603e-19,0,0,0,0,0,0,0,0,0
9350,-3.21252e-12,3.01002e-38,-1.55831e-06,-3.27827e-12,3.00978e-38,0,-1.06591e-13,0,0,0,0,0,0,0,0,0,0,0,0,0,0,0,0,0,0,0,0,0,-0,0,-1.5,-nan,0,0,0,0,0,0,0,0,0,0,0,1.9603e-19,0,0,0,0,0,0,0,0,0
9381,-3.21252e-12,3.01002e-38,-1.55831e-06,-3.27827e-12,3.00978e-38,0,-1.06591e-13,0,0,0,0,0,0,0,0,0,0,0,0,0,0,0,0,0,0,0,0,0,-0,0,-1.5,-nan,0,0,0,0,0,0,0,0,0,0,0,1.9603e-19,0,0,0,0,0,0,0,0,0
9417,-3.21252e-12,3.01002e-38,-1.55831e-06,-3.27827e-12,3.00978e-38,0,-1.06591e-13,0,0,0,0,0,0,0,0,0,0,0,0,0,0,0,0,0,0,0,0,0,-0,0,-1.5,-nan,0,0,0,0,0,0,0,0,0,0,0,1.9603e-19,0,0,0,0,0,0,0,0,0
9437,-3.21252e-12,3.01002e-38,-1.55831e-06,-3.27827e-12,3.00978e-38,0,-1.06591e-13,0,0,0,0,0,0,0,0,0,0,0,0,0,0,0,0,0,0,0,0,0,-0,0,-1.5,-nan,0,0,0,0,0,0,0,0,0,0,0,1.9603e-19,0,0,0,0,0,0,0,0,0
9455,-3.21252e-12,3.01002e-38,-1.55831e-06,-3.27827e-12,3.00978e-38,0,-1.06592e-13,0,0,0,0,0,0,0,0,0,0,0,0,0,0,0,0,0,0,0,0,0,-0,0,-1.5,-nan,0,0,0,0,0,0,0,0,0,0,0,1.9603e-19,0,0,0,0,0,0,0,0,0
9472,-3.21252e-12,3.01002e-38,-1.55831e-06,-3.27827e-12,3.00978e-38,0,-1.06592e-13,0,0,0,0,0,0,0,0,0,0,0,0,0,0,0,0,0,0,0,0,0,-0,0,-1.5,-nan,0,0,0,0,0,0,0,0,0,0,0,1.9603e-19,0,0,0,0,0,0,0,0,0
9493,-3.21252e-12,3.01002e-38,-1.55831e-06,-3.27827e-12,3.00978e-38,0,-1.06592e-13,0,0,0,0,0,0,0,0,0,0,0,0,0,0,0,0,0,0,0,0,0,-0,0,-1.5,-nan,0,0,0,0,0,0,0,0,0,0,0,1.9603e-19,0,0,0,0,0,0,0,0,0
9510,-3.21252e-12,3.01002e-38,-1.55831e-06,-3.27827e-12,3.00978e-38,0,-1.06593e-13,0,0,0,0,0,0,0,0,0,0,0,0,0,0,0,0,0,0,0,0,0,-0,0,-1.5,-nan,0,0,0,0,0,0,0,0,0,0,0,1.9603e-19,0,0,0,0,0,0,0,0,0
9528,-3.21252e-12,3.01002e-38,-1.55831e-06,-3.27827e-12,3.00978e-38,0,-1.06593e-13,0,0,0,0,0,0,0,0,0,0,0,0,0,0,0,0,0,0,0,0,0,-0,0,-1.5,-nan,0,0,0,0,0,0,0,0,0,0,0,1.9603e-19,0,0,0,0,0,0,0,0,0
9548,-3.21252e-12,3.01002e-38,-1.55831e-06,-3.27827e-12,3.00978e-38,0,-1.06593e-13,0,0,0,0,0,0,0,0,0,0,0,0,0,0,0,0,0,0,0,0,0,-0,0,-1.5,-nan,0,0,0,0,0,0,0,0,0,0,0,1.9603e-19,0,0,0,0,0,0,0,0,0
9566,-3.21252e-12,3.01002e-38,-1.55831e-06,-3.27827e-12,3.00978e-38,0,-1.06593e-13,0,0,0,0,0,0,0,0,0,0,0,0,0,0,0,0,0,0,0,0,0,-0,0,-1.5,-nan,0,0,0,0,0,0,0,0,0,0,0,1.9603e-19,0,0,0,0,0,0,0,0,0
9586,-3.21252e-12,3.01002e-38,-1.55831e-06,-3.27827e-12,3.00978e-38,0,-1.06594e-13,0,0,0,0,0,0,0,0,0,0,0,0,0,0,0,0,0,0,0,0,0,-0,0,-1.5,-nan,0,0,0,0,0,0,0,0,0,0,0,1.9603e-19,0,0,0,0,0,0,0,0,0
9604,-3.21252e-12,3.01002e-38,-1.55831e-06,-3.27827e-12,3.00978e-38,0,-1.06594e-13,0,0,0,0,0,0,0,0,0,0,0,0,0,0,0,0,0,0,0,0,0,-0,0,-1.5,-nan,0,0,0,0,0,0,0,0,0,0,0,1.9603e-19,0,0,0,0,0,0,0,0,0
9621,-3.21252e-12,3.01002e-38,-1.55831e-06,-3.27827e-12,3.00978e-38,0,-1.06594e-13,0,0,0,0,0,0,0,0,0,0,0,0,0,0,0,0,0,0,0,0,0,-0,0,-1.5,-nan,0,0,0,0,0,0,0,0,0,0,0,1.9603e-19,0,0,0,0,0,0,0,0,0
9667,-3.21252e-12,3.01002e-38,-1.55831e-06,-3.27827e-12,3.00978e-38,0,-1.06594e-13,0,0,0,0,0,0,0,0,0,0,0,0,0,0,0,0,0,0,0,0,0,-0,0,-1.5,-nan,0,0,0,0,0,0,0,0,0,0,0,1.9603e-19,0,0,0,0,0,0,0,0,0
9682,-3.21252e-12,3.01002e-38,-1.55831e-06,-3.27827e-12,3.00978e-38,0,-1.06595e-13,0,0,0,0,0,0,0,0,0,0,0,0,0,0,0,0,0,0,0,0,0,-0,0,-1.5,-nan,0,0,0,0,0,0,0,0,0,0,0,1.9603e-19,0,0,0,0,0,0,0,0,0
9696,-3.21252e-12,3.01002e-38,-1.55831e-06,-3.27827e-12,3.00978e-38,0,-1.06595e-13,0,0,0,0,0,0,0,0,0,0,0,0,0,0,0,0,0,0,0,0,0,-0,0,-1.5,-nan,0,0,0,0,0,0,0,0,0,0,0,1.9603e-19,0,0,0,0,0,0,0,0,0
9724,-3.21252e-12,3.01002e-38,-1.55831e-06,-3.27827e-12,3.00978e-38,0,-1.06595e-13,0,0,0,0,0,0,0,0,0,0,0,0,0,0,0,0,0,0,0,0,0,-0,0,-1.5,-nan,0,0,0,0,0,0,0,0,0,0,0,1.9603e-19,0,0,0,0,0,0,0,0,0
9741,-3.21252e-12,3.01002e-38,-1.55831e-06,-3.27827e-12,3.00978e-38,0,-1.06596e-13,0,0,0,0,0,0,0,0,0,0,0,0,0,0,0,0,0,0,0,0,0,-0,0,-1.5,-nan,0,0,0,0,0,0,0,0,0,0,0,1.9603e-19,0,0,0,0,0,0,0,0,0
9759,-3.21252e-12,3.01002e-38,-1.55831e-06,-3.27827e-12,3.00978e-38,0,-1.06596e-13,0,0,0,0,0,0,0,0,0,0,0,0,0,0,0,0,0,0,0,0,0,-0,0,-1.5,-nan,0,0,0,0,0,0,0,0,0,0,0,1.9603e-19,0,0,0,0,0,0,0,0,0
9776,-3.21252e-12,3.01002e-38,-1.55831e-06,-3.27827e-12,3.00978e-38,0,-1.06596e-13,0,0,0,0,0,0,0,0,0,0,0,0,0,0,0,0,0,0,0,0,0,-0,0,-1.5,-nan,0,0,0,0,0,0,0,0,0,0,0,1.9603e-19,0,0,0,0,0,0,0,0,0
9794,-3.21252e-12,3.01002e-38,-1.55831e-06,-3.27827e-12,3.00978e-38,0,-1.06596e-13,0,0,0,0,0,0,0,0,0,0,0,0,0,0,0,0,0,0,0,0,0,-0,0,-1.5,-nan,0,0,0,0,0,0,0,0,0,0,0,1.9603e-19,0,0,0,0,0,0,0,0,0
9814,-3.21252e-12,3.01002e-38,-1.55831e-06,-3.27827e-12,3.00978e-38,0,-1.06597e-13,0,0,0,0,0,0,0,0,0,0,0,0,0,0,0,0,0,0,0,0,0,-0,0,-1.5,-nan,0,0,0,0,0,0,0,0,0,0,0,1.9603e-19,0,0,0,0,0,0,0,0,0
9832,-3.21252e-12,3.01002e-38,-1.55831e-06,-3.27827e-12,3.00978e-38,0,-1.06597e-13,0,0,0,0,0,0,0,0,0,0,0,0,0,0,0,0,0,0,0,0,0,-0,0,-1.5,-nan,0,0,0,0,0,0,0,0,0,0,0,1.9603e-19,0,0,0,0,0,0,0,0,0
9849,-3.21252e-12,3.01002e-38,-1.55831e-06,-3.27827e-12,3.00978e-38,0,-1.06597e-13,0,0,0,0,0,0,0,0,0,0,0,0,0,0,0,0,0,0,0,0,0,-0,0,-1.5,-nan,0,0,0,0,0,0,0,0,0,0,0,1.9603e-19,0,0,0,0,0,0,0,0,0
9870,-3.21252e-12,3.01002e-38,-1.55831e-06,-3.27827e-12,3.00978e-38,0,-1.06597e-13,0,0,0,0,0,0,0,0,0,0,0,0,0,0,0,0,0,0,0,0,0,-0,0,-1.5,-nan,0,0,0,0,0,0,0,0,0,0,0,1.9603e-19,0,0,0,0,0,0,0,0,0
9918,-3.21252e-12,3.01002e-38,-1.55831e-06,-3.27827e-12,3.00978e-38,0,-1.06598e-13,0,0,0,0,0,0,0,0,0,0,0,0,0,0,0,0,0,0,0,0,0,-0,0,-1.5,-nan,0,0,0,0,0,0,0,0,0,0,0,1.9603e-19,0,0,0,0,0,0,0,0,0
9936,-3.21252e-12,3.01002e-38,-1.55831e-06,-3.27827e-12,3.00978e-38,0,-1.06598e-13,0,0,0,0,0,0,0,0,0,0,0,0,0,0,0,0,0,0,0,0,0,-0,0,-1.5,-nan,0,0,0,0,0,0,0,0,0,0,0,1.9603e-19,0,0,0,0,0,0,0,0,0
9956,-3.21252e-12,3.01002e-38,-1.55831e-06,-3.27827e-12,3.00978e-38,0,-1.06598e-13,0,0,0,0,0,0,0,0,0,0,0,0,0,0,0,0,0,0,0,0,0,-0,0,-1.5,-nan,0,0,0,0,0,0,0,0,0,0,0,1.9603e-19,0,0,0,0,0,0,0,0,0
9974,-3.21252e-12,3.01002e-38,-1.55831e-06,-3.27827e-12,3.00978e-38,0,-1.06599e-13,0,0,0,0,0,0,0,0,0,0,0,0,0,0,0,0,0,0,0,0,0,-0,0,-1.5,-nan,0,0,0,0,0,0,0,0,0,0,0,1.9603e-19,0,0,0,0,0,0,0,0,0
9994,-3.21252e-12,3.01002e-38,-1.55831e-06,-3.27827e-12,3.00978e-38,0,-1.06599e-13,0,0,0,0,0,0,0,0,0,0,0,0,0,0,0,0,0,0,0,0,0,-0,0,-1.5,-nan,0,0,0,0,0,0,0,0,0,0,0,1.9603e-19,0,0,0,0,0,0,0,0,0
10012,-3.21252e-12,3.01002e-38,-1.55831e-06,-3.27827e-12,3.00978e-38,0,-1.06599e-13,0,0,0,0,0,0,0,0,0,0,0,0,0,0,0,0,0,0,0,0,0,-0,0,-1.5,-nan,0,0,0,0,0,0,0,0,0,0,0,1.9603e-19,0,0,0,0,0,0,0,0,0
10078,-3.21252e-12,3.01002e-38,-1.55831e-06,-3.27827e-12,3.00978e-38,0,-1.06599e-13,0,0,0,0,0,0,0,0,0,0,0,0,0,0,0,0,0,0,0,0,0,-0,0,-1.5,-nan,0,0,0,0,0,0,0,0,0,0,0,1.9603e-19,0,0,0,0,0,0,0,0,0
10098,-3.21252e-12,3.01002e-38,-1.55831e-06,-3.27827e-12,3.00978e-38,0,-1.066e-13,0,0,0,0,0,0,0,0,0,0,0,0,0,0,0,0,0,0,0,0,0,-0,0,-1.5,-nan,0,0,0,0,0,0,0,0,0,0,0,1.9603e-19,0,0,0,0,0,0,0,0,0
10116,-3.21252e-12,3.01002e-38,-1.55831e-06,-3.27827e-12,3.00978e-38,0,-1.066e-13,0,0,0,0,0,0,0,0,0,0,0,0,0,0,0,0,0,0,0,0,0,-0,0,-1.5,-nan,0,0,0,0,0,0,0,0,0,0,0,1.9603e-19,0,0,0,0,0,0,0,0,0
10162,-3.21252e-12,3.01002e-38,-1.55831e-06,-3.27827e-12,3.00978e-38,0,-1.066e-13,0,0,0,0,0,0,0,0,0,0,0,0,0,0,0,0,0,0,0,0,0,-0,0,-1.5,-nan,0,0,0,0,0,0,0,0,0,0,0,1.9603e-19,0,0,0,0,0,0,0,0,0
10182,-3.21252e-12,3.01002e-38,-1.55831e-06,-3.27827e-12,3.00978e-38,0,-1.066e-13,0,0,0,0,0,0,0,0,0,0,0,0,0,0,0,0,0,0,0,0,0,-0,0,-1.5,-nan,0,0,0,0,0,0,0,0,0,0,0,1.9603e-19,0,0,0,0,0,0,0,0,0
10197,-3.21252e-12,3.01002e-38,-1.55831e-06,-3.27827e-12,3.00978e-38,0,-1.06601e-13,0,0,0,0,0,0,0,0,0,0,0,0,0,0,0,0,0,0,0,0,0,-0,0,-1.5,-nan,0,0,0,0,0,0,0,0,0,0,0,1.9603e-19,0,0,0,0,0,0,0,0,0
10214,-3.21252e-12,3.01002e-38,-1.55831e-06,-3.27827e-12,3.00978e-38,0,-1.06601e-13,0,0,0,0,0,0,0,0,0,0,0,0,0,0,0,0,0,0,0,0,0,-0,0,-1.5,-nan,0,0,0,0,0,0,0,0,0,0,0,1.9603e-19,0,0,0,0,0,0,0,0,0
10232,-3.21252e-12,3.01002e-38,-1.55831e-06,-3.27827e-12,3.00978e-38,0,-1.06601e-13,0,0,0,0,0,0,0,0,0,0,0,0,0,0,0,0,0,0,0,0,0,-0,0,-1.5,-nan,0,0,0,0,0,0,0,0,0,0,0,1.9603e-19,0,0,0,0,0,0,0,0,0
10250,-3.21252e-12,3.01002e-38,-1.55831e-06,-3.27827e-12,3.00978e-38,0,-1.06602e-13,0,0,0,0,0,0,0,0,0,0,0,0,0,0,0,0,0,0,0,0,0,-0,0,-1.5,-nan,0,0,0,0,0,0,0,0,0,0,0,1.9603e-19,0,0,0,0,0,0,0,0,0
10270,-3.21252e-12,3.01002e-38,-1.55831e-06,-3.27827e-12,3.00978e-38,0,-1.06602e-13,0,0,0,0,0,0,0,0,0,0,0,0,0,0,0,0,0,0,0,0,0,-0,0,-1.5,-nan,0,0,0,0,0,0,0,0,0,0,0,1.9603e-19,0,0,0,0,0,0,0,0,0
10304,-3.21252e-12,3.01002e-38,-1.55831e-06,-3.27827e-12,3.00978e-38,0,-1.06602e-13,0,0,0,0,0,0,0,0,0,0,0,0,0,0,0,0,0,0,0,0,0,-0,0,-1.5,-nan,0,0,0,0,0,0,0,0,0,0,0,1.9603e-19,0,0,0,0,0,0,0,0,0
10322,-3.21252e-12,3.01002e-38,-1.55831e-06,-3.27827e-12,3.00978e-38,0,-1.06602e-13,0,0,0,0,0,0,0,0,0,0,0,0,0,0,0,0,0,0,0,0,0,-0,0,-1.5,-nan,0,0,0,0,0,0,0,0,0,0,0,1.9603e-19,0,0,0,0,0,0,0,0,0
10343,-3.21252e-12,3.01002e-38,-1.55831e-06,-3.27827e-12,3.00978e-38,0,-1.06603e-13,0,0,0,0,0,0,0,0,0,0,0,0,0,0,0,0,0,0,0,0,0,-0,0,-1.5,-nan,0,0,0,0,0,0,0,0,0,0,0,1.9603e-19,0,0,0,0,0,0,0,0,0
10360,-3.21252e-12,3.01002e-38,-1.55831e-06,-3.27827e-12,3.00978e-38,0,-1.06603e-13,0,0,0,0,0,0,0,0,0,0,0,0,0,0,0,0,0,0,0,0,0,-0,0,-1.5,-nan,0,0,0,0,0,0,0,0,0,0,0,1.9603e-19,0,0,0,0,0,0,0,0,0
10399,-3.21252e-12,3.01002e-38,-1.55831e-06,-3.27827e-12,3.00978e-38,0,-1.06603e-13,0,0,0,0,0,0,0,0,0,0,0,0,0,0,0,0,0,0,0,0,0,-0,0,-1.5,-nan,0,0,0,0,0,0,0,0,0,0,0,1.9603e-19,0,0,0,0,0,0,0,0,0
10417,-3.21252e-12,3.01002e-38,-1.55831e-06,-3.27827e-12,3.00978e-38,0,-1.06603e-13,0,0,0,0,0,0,0,0,0,0,0,0,0,0,0,0,0,0,0,0,0,-0,0,-1.5,-nan,0,0,0,0,0,0,0,0,0,0,0,1.9603e-19,0,0,0,0,0,0,0,0,0
10434,-3.21252e-12,3.01002e-38,-1.55831e-06,-3.27827e-12,3.00978e-38,0,-1.06604e-13,0,0,0,0,0,0,0,0,0,0,0,0,0,0,0,0,0,0,0,0,0,-0,0,-1.5,-nan,0,0,0,0,0,0,0,0,0,0,0,1.9603e-19,0,0,0,0,0,0,0,0,0
10456,-3.21252e-12,3.01002e-38,-1.55831e-06,-3.27827e-12,3.00978e-38,0,-1.06604e-13,0,0,0,0,0,0,0,0,0,0,0,0,0,0,0,0,0,0,0,0,0,-0,0,-1.5,-nan,0,0,0,0,0,0,0,0,0,0,0,1.9603e-19,0,0,0,0,0,0,0,0,0
10473,-3.21252e-12,3.01002e-38,-1.55831e-06,-3.27827e-12,3.00978e-38,0,-1.06604e-13,0,0,0,0,0,0,0,0,0,0,0,0,0,0,0,0,0,0,0,0,0,-0,0,-1.5,-nan,0,0,0,0,0,0,0,0,0,0,0,1.9603e-19,0,0,0,0,0,0,0,0,0
10490,-3.21252e-12,3.01002e-38,-1.55831e-06,-3.27827e-12,3.00978e-38,0,-1.06605e-13,0,0,0,0,0,0,0,0,0,0,0,0,0,0,0,0,0,0,0,0,0,-0,0,-1.5,-nan,0,0,0,0,0,0,0,0,0,0,0,1.9603e-19,0,0,0,0,0,0,0,0,0
10541,-3.21252e-12,3.01002e-38,-1.55831e-06,-3.27827e-12,3.00978e-38,0,-1.06605e-13,0,0,0,0,0,0,0,0,0,0,0,0,0,0,0,0,0,0,0,0,0,-0,0,-1.5,-nan,0,0,0,0,0,0,0,0,0,0,0,1.9603e-19,0,0,0,0,0,0,0,0,0
10559,-3.21252e-12,3.01002e-38,-1.55831e-06,-3.27827e-12,3.00978e-38,0,-1.06605e-13,0,0,0,0,0,0,0,0,0,0,0,0,0,0,0,0,0,0,0,0,0,-0,0,-1.5,-nan,0,0,0,0,0,0,0,0,0,0,0,1.9603e-19,0,0,0,0,0,0,0,0,0
10580,-3.21252e-12,3.01002e-38,-1.55831e-06,-3.27827e-12,3.00978e-38,0,-1.06605e-13,0,0,0,0,0,0,0,0,0,0,0,0,0,0,0,0,0,0,0,0,0,-0,0,-1.5,-nan,0,0,0,0,0,0,0,0,0,0,0,1.9603e-19,0,0,0,0,0,0,0,0,0
10597,-3.21252e-12,3.01002e-38,-1.55831e-06,-3.27827e-12,3.00978e-38,0,-1.06606e-13,0,0,0,0,0,0,0,0,0,0,0,0,0,0,0,0,0,0,0,0,0,-0,0,-1.5,-nan,0,0,0,0,0,0,0,0,0,0,0,1.9603e-19,0,0,0,0,0,0,0,0,0
10615,-3.21252e-12,3.01002e-38,-1.55831e-06,-3.27827e-12,3.00978e-38,0,-1.06606e-13,0,0,0,0,0,0,0,0,0,0,0,0,0,0,0,0,0,0,0,0,0,-0,0,-1.5,-nan,0,0,0,0,0,0,0,0,0,0,0,1.9603e-19,0,0,0,0,0,0,0,0,0
10636,-3.21252e-12,3.01002e-38,-1.55831e-06,-3.27827e-12,3.00978e-38,0,-1.06606e-13,0,0,0,0,0,0,0,0,0,0,0,0,0,0,0,0,0,0,0,0,0,-0,0,-1.5,-nan,0,0,0,0,0,0,0,0,0,0,0,1.9603e-19,0,0,0,0,0,0,0,0,0
10650,-3.21252e-12,3.01002e-38,-1.55831e-06,-3.27827e-12,3.00978e-38,0,-1.06606e-13,0,0,0,0,0,0,0,0,0,0,0,0,0,0,0,0,0,0,0,0,0,-0,0,-1.5,-nan,0,0,0,0,0,0,0,0,0,0,0,1.9603e-19,0,0,0,0,0,0,0,0,0
10665,-3.21252e-12,3.01002e-38,-1.55831e-06,-3.27827e-12,3.00978e-38,0,-1.06607e-13,0,0,0,0,0,0,0,0,0,0,0,0,0,0,0,0,0,0,0,0,0,-0,0,-1.5,-nan,0,0,0,0,0,0,0,0,0,0,0,1.9603e-19,0,0,0,0,0,0,0,0,0
10683,-3.21252e-12,3.01002e-38,-1.55831e-06,-3.27827e-12,3.00978e-38,0,-1.06607e-13,0,0,0,0,0,0,0,0,0,0,0,0,0,0,0,0,0,0,0,0,0,-0,0,-1.5,-nan,0,0,0,0,0,0,0,0,0,0,0,1.9603e-19,0,0,0,0,0,0,0,0,0
10700,-3.21252e-12,3.01002e-38,-1.55831e-06,-3.27827e-12,3.00978e-38,0,-1.06607e-13,0,0,0,0,0,0,0,0,0,0,0,0,0,0,0,0,0,0,0,0,0,-0,0,-1.5,-nan,0,0,0,0,0,0,0,0,0,0,0,1.9603e-19,0,0,0,0,0,0,0,0,0
10721,-3.21252e-12,3.01002e-38,-1.55831e-06,-3.27827e-12,3.00978e-38,0,-1.06607e-13,0,0,0,0,0,0,0,0,0,0,0,0,0,0,0,0,0,0,0,0,0,-0,0,-1.5,-nan,0,0,0,0,0,0,0,0,0,0,0,1.9603e-19,0,0,0,0,0,0,0,0,0
10780,-3.21252e-12,3.01002e-38,-1.55831e-06,-3.27827e-12,3.00978e-38,0,-1.06608e-13,0,0,0,0,0,0,0,0,0,0,0,0,0,0,0,0,0,0,0,0,0,-0,0,-1.5,-nan,0,0,0,0,0,0,0,0,0,0,0,1.9603e-19,0,0,0,0,0,0,0,0,0
10815,-3.21252e-12,3.01002e-38,-1.55831e-06,-3.27827e-12,3.00978e-38,0,-1.06608e-13,0,0,0,0,0,0,0,0,0,0,0,0,0,0,0,0,0,0,0,0,0,-0,0,-1.5,-nan,0,0,0,0,0,0,0,0,0,0,0,1.9603e-19,0,0,0,0,0,0,0,0,0
10837,-3.21252e-12,3.01002e-38,-1.55831e-06,-3.27827e-12,3.00978e-38,0,-1.06608e-13,0,0,0,0,0,0,0,0,0,0,0,0,0,0,0,0,0,0,0,0,0,-0,0,-1.5,-nan,0,0,0,0,0,0,0,0,0,0,0,1.9603e-19,0,0,0,0,0,0,0,0,0
10854,-3.21252e-12,3.01002e-38,-1.55831e-06,-3.27827e-12,3.00978e-38,0,-1.06609e-13,0,0,0,0,0,0,0,0,0,0,0,0,0,0,0,0,0,0,0,0,0,-0,0,-1.5,-nan,0,0,0,0,0,0,0,0,0,0,0,1.9603e-19,0,0,0,0,0,0,0,0,0
10871,-3.21252e-12,3.01002e-38,-1.55831e-06,-3.27827e-12,3.00978e-38,0,-1.06609e-13,0,0,0,0,0,0,0,0,0,0,0,0,0,0,0,0,0,0,0,0,0,-0,0,-1.5,-nan,0,0,0,0,0,0,0,0,0,0,0,1.9603e-19,0,0,0,0,0,0,0,0,0
10893,-3.21252e-12,3.01002e-38,-1.55831e-06,-3.27827e-12,3.00978e-38,0,-1.06609e-13,0,0,0,0,0,0,0,0,0,0,0,0,0,0,0,0,0,0,0,0,0,-0,0,-1.5,-nan,0,0,0,0,0,0,0,0,0,0,0,1.9603e-19,0,0,0,0,0,0,0,0,0
10910,-3.21252e-12,3.01002e-38,-1.55831e-06,-3.27827e-12,3.00978e-38,0,-1.06609e-13,0,0,0,0,0,0,0,0,0,0,0,0,0,0,0,0,0,0,0,0,0,-0,0,-1.5,-nan,0,0,0,0,0,0,0,0,0,0,0,1.9603e-19,0,0,0,0,0,0,0,0,0
10932,-3.21252e-12,3.01002e-38,-1.55831e-06,-3.27827e-12,3.00978e-38,0,-1.0661e-13,0,0,0,0,0,0,0,0,0,0,0,0,0,0,0,0,0,0,0,0,0,-0,0,-1.5,-nan,0,0,0,0,0,0,0,0,0,0,0,1.9603e-19,0,0,0,0,0,0,0,0,0
10949,-3.21252e-12,3.01002e-38,-1.55831e-06,-3.27827e-12,3.00978e-38,0,-1.0661e-13,0,0,0,0,0,0,0,0,0,0,0,0,0,0,0,0,0,0,0,0,0,-0,0,-1.5,-nan,0,0,0,0,0,0,0,0,0,0,0,1.9603e-19,0,0,0,0,0,0,0,0,0
10995,-3.21252e-12,3.01002e-38,-1.55831e-06,-3.27827e-12,3.00978e-38,0,-1.0661e-13,0,0,0,0,0,0,0,0,0,0,0,0,0,0,0,0,0,0,0,0,0,-0,0,-1.5,-nan,0,0,0,0,0,0,0,0,0,0,0,1.9603e-19,0,0,0,0,0,0,0,0,0
11017,-3.21252e-12,3.01002e-38,-1.55831e-06,-3.27827e-12,3.00978e-38,0,-1.0661e-13,0,0,0,0,0,0,0,0,0,0,0,0,0,0,0,0,0,0,0,0,0,-0,0,-1.5,-nan,0,0,0,0,0,0,0,0,0,0,0,1.9603e-19,0,0,0,0,0,0,0,0,0
11034,-3.21252e-12,3.01002e-38,-1.55831e-06,-3.27827e-12,3.00978e-38,0,-1.06611e-13,0,0,0,0,0,0,0,0,0,0,0,0,0,0,0,0,0,0,0,0,0,-0,0,-1.5,-nan,0,0,0,0,0,0,0,0,0,0,0,1.9603e-19,0,0,0,0,0,0,0,0,0
11052,-3.21252e-12,3.01002e-38,-1.55831e-06,-3.27827e-12,3.00978e-38,0,-1.06611e-13,0,0,0,0,0,0,0,0,0,0,0,0,0,0,0,0,0,0,0,0,0,-0,0,-1.5,-nan,0,0,0,0,0,0,0,0,0,0,0,1.9603e-19,0,0,0,0,0,0,0,0,0
11073,-3.21252e-12,3.01002e-38,-1.55831e-06,-3.27827e-12,3.00978e-38,0,-1.06611e-13,0,0,0,0,0,0,0,0,0,0,0,0,0,0,0,0,0,0,0,0,0,-0,0,-1.5,-nan,0,0,0,0,0,0,0,0,0,0,0,1.9603e-19,0,0,0,0,0,0,0,0,0
11090,-3.21252e-12,3.01002e-38,-1.55831e-06,-3.27827e-12,3.00978e-38,0,-1.06612e-13,0,0,0,0,0,0,0,0,0,0,0,0,0,0,0,0,0,0,0,0,0,-0,0,-1.5,-nan,0,0,0,0,0,0,0,0,0,0,0,1.9603e-19,0,0,0,0,0,0,0,0,0
11111,-3.21252e-12,3.01002e-38,-1.55831e-06,-3.27827e-12,3.00978e-38,0,-1.06612e-13,0,0,0,0,0,0,0,0,0,0,0,0,0,0,0,0,0,0,0,0,0,-0,0,-1.5,-nan,0,0,0,0,0,0,0,0,0,0,0,1.9603e-19,0,0,0,0,0,0,0,0,0
11148,-3.21252e-12,3.01002e-38,-1.55831e-06,-3.27827e-12,3.00978e-38,0,-1.06612e-13,0,0,0,0,0,0,0,0,0,0,0,0,0,0,0,0,0,0,0,0,0,-0,0,-1.5,-nan,0,0,0,0,0,0,0,0,0,0,0,1.9603e-19,0,0,0,0,0,0,0,0,0
11162,-3.21252e-12,3.01002e-38,-1.55831e-06,-3.27827e-12,3.00978e-38,0,-1.06612e-13,0,0,0,0,0,0,0,0,0,0,0,0,0,0,0,0,0,0,0,0,0,-0,0,-1.5,-nan,0,0,0,0,0,0,0,0,0,0,0,1.9603e-19,0,0,0,0,0,0,0,0,0
11196,-3.21252e-12,3.01002e-38,-1.55831e-06,-3.27827e-12,3.00978e-38,0,-1.06613e-13,0,0,0,0,0,0,0,0,0,0,0,0,0,0,0,0,0,0,0,0,0,-0,0,-1.5,-nan,0,0,0,0,0,0,0,0,0,0,0,1.9603e-19,0,0,0,0,0,0,0,0,0
11214,-3.21252e-12,3.01002e-38,-1.55831e-06,-3.27827e-12,3.00978e-38,0,-1.06613e-13,0,0,0,0,0,0,0,0,0,0,0,0,0,0,0,0,0,0,0,0,0,-0,0,-1.5,-nan,0,0,0,0,0,0,0,0,0,0,0,1.9603e-19,0,0,0,0,0,0,0,0,0
11231,-3.21252e-12,3.01002e-38,-1.55831e-06,-3.27827e-12,3.00978e-38,0,-1.06613e-13,0,0,0,0,0,0,0,0,0,0,0,0,0,0,0,0,0,0,0,0,0,-0,0,-1.5,-nan,0,0,0,0,0,0,0,0,0,0,0,1.9603e-19,0,0,0,0,0,0,0,0,0
11253,-3.21252e-12,3.01002e-38,-1.55831e-06,-3.27827e-12,3.00978e-38,0,-1.06613e-13,0,0,0,0,0,0,0,0,0,0,0,0,0,0,0,0,0,0,0,0,0,-0,0,-1.5,-nan,0,0,0,0,0,0,0,0,0,0,0,1.9603e-19,0,0,0,0,0,0,0,0,0
11270,-3.21252e-12,3.01002e-38,-1.55831e-06,-3.27827e-12,3.00978e-38,0,-1.06614e-13,0,0,0,0,0,0,0,0,0,0,0,0,0,0,0,0,0,0,0,0,0,-0,0,-1.5,-nan,0,0,0,0,0,0,0,0,0,0,0,1.9603e-19,0,0,0,0,0,0,0,0,0
11292,-3.21252e-12,3.01002e-38,-1.55831e-06,-3.27827e-12,3.00978e-38,0,-1.06614e-13,0,0,0,0,0,0,0,0,0,0,0,0,0,0,0,0,0,0,0,0,0,-0,0,-1.5,-nan,0,0,0,0,0,0,0,0,0,0,0,1.9603e-19,0,0,0,0,0,0,0,0,0
11309,-3.21252e-12,3.01002e-38,-1.55831e-06,-3.27827e-12,3.00978e-38,0,-1.06614e-13,0,0,0,0,0,0,0,0,0,0,0,0,0,0,0,0,0,0,0,0,0,-0,0,-1.5,-nan,0,0,0,0,0,0,0,0,0,0,0,1.9603e-19,0,0,0,0,0,0,0,0,0
11326,-3.21252e-12,3.01002e-38,-1.55831e-06,-3.27827e-12,3.00978e-38,0,-1.06615e-13,0,0,0,0,0,0,0,0,0,0,0,0,0,0,0,0,0,0,0,0,0,-0,0,-1.5,-nan,0,0,0,0,0,0,0,0,0,0,0,1.9603e-19,0,0,0,0,0,0,0,0,0
11348,-3.21252e-12,3.01002e-38,-1.55831e-06,-3.27827e-12,3.00978e-38,0,-1.06615e-13,0,0,0,0,0,0,0,0,0,0,0,0,0,0,0,0,0,0,0,0,0,-0,0,-1.5,-nan,0,0,0,0,0,0,0,0,0,0,0,1.9603e-19,0,0,0,0,0,0,0,0,0
11365,-3.21252e-12,3.01002e-38,-1.55831e-06,-3.27827e-12,3.00978e-38,0,-1.06615e-13,0,0,0,0,0,0,0,0,0,0,0,0,0,0,0,0,0,0,0,0,0,-0,0,-1.5,-nan,0,0,0,0,0,0,0,0,0,0,0,1.9603e-19,0,0,0,0,0,0,0,0,0
11383,-3.21252e-12,3.01002e-38,-1.55831e-06,-3.27827e-12,3.00978e-38,0,-1.06615e-13,0,0,0,0,0,0,0,0,0,0,0,0,0,0,0,0,0,0,0,0,0,-0,0,-1.5,-nan,0,0,0,0,0,0,0,0,0,0,0,1.9603e-19,0,0,0,0,0,0,0,0,0
11404,-3.21252e-12,3.01002e-38,-1.55831e-06,-3.27827e-12,3.00978e-38,0,-1.06616e-13,0,0,0,0,0,0,0,0,0,0,0,0,0,0,0,0,0,0,0,0,0,-0,0,-1.5,-nan,0,0,0,0,0,0,0,0,0,0,0,1.9603e-19,0,0,0,0,0,0,0,0,0
11438,-3.21252e-12,3.01002e-38,-1.55831e-06,-3.27827e-12,3.00978e-38,0,-1.06616e-13,0,0,0,0,0,0,0,0,0,0,0,0,0,0,0,0,0,0,0,0,0,-0,0,-1.5,-nan,0,0,0,0,0,0,0,0,0,0,0,1.9603e-19,0,0,0,0,0,0,0,0,0
11461,-3.21252e-12,3.01002e-38,-1.55831e-06,-3.27827e-12,3.00978e-38,0,-1.06616e-13,0,0,0,0,0,0,0,0,0,0,0,0,0,0,0,0,0,0,0,0,0,-0,0,-1.5,-nan,0,0,0,0,0,0,0,0,0,0,0,1.9603e-19,0,0,0,0,0,0,0,0,0
11478,-3.21252e-12,3.01002e-38,-1.55831e-06,-3.27827e-12,3.00978e-38,0,-1.06616e-13,0,0,0,0,0,0,0,0,0,0,0,0,0,0,0,0,0,0,0,0,0,-0,0,-1.5,-nan,0,0,0,0,0,0,0,0,0,0,0,1.9603e-19,0,0,0,0,0,0,0,0,0
11495,-3.21252e-12,3.01002e-38,-1.55831e-06,-3.27827e-12,3.00978e-38,0,-1.06617e-13,0,0,0,0,0,0,0,0,0,0,0,0,0,0,0,0,0,0,0,0,0,-0,0,-1.5,-nan,0,0,0,0,0,0,0,0,0,0,0,1.9603e-19,0,0,0,0,0,0,0,0,0
11590,-3.21252e-12,3.01002e-38,-1.55831e-06,-3.27827e-12,3.00978e-38,0,-1.06617e-13,0,0,0,0,0,0,0,0,0,0,0,0,0,0,0,0,0,0,0,0,0,-0,0,-1.5,-nan,0,0,0,0,0,0,0,0,0,0,0,1.9603e-19,0,0,0,0,0,0,0,0,0
11607,-3.21252e-12,3.01002e-38,-1.55831e-06,-3.27827e-12,3.00978e-38,0,-1.06617e-13,0,0,0,0,0,0,0,0,0,0,0,0,0,0,0,0,0,0,0,0,0,-0,0,-1.5,-nan,0,0,0,0,0,0,0,0,0,0,0,1.9603e-19,0,0,0,0,0,0,0,0,0
11646,-3.21252e-12,3.01002e-38,-1.55831e-06,-3.27827e-12,3.00978e-38,0,-1.06618e-13,0,0,0,0,0,0,0,0,0,0,0,0,0,0,0,0,0,0,0,0,0,-0,0,-1.5,-nan,0,0,0,0,0,0,0,0,0,0,0,1.9603e-19,0,0,0,0,0,0,0,0,0
11666,-3.21252e-12,3.01002e-38,-1.55831e-06,-3.27827e-12,3.00978e-38,0,-1.06618e-13,0,0,0,0,0,0,0,0,0,0,0,0,0,0,0,0,0,0,0,0,0,-0,0,-1.5,-nan,0,0,0,0,0,0,0,0,0,0,0,1.9603e-19,0,0,0,0,0,0,0,0,0
11680,-3.21252e-12,3.01002e-38,-1.55831e-06,-3.27827e-12,3.00978e-38,0,-1.06618e-13,0,0,0,0,0,0,0,0,0,0,0,0,0,0,0,0,0,0,0,0,0,-0,0,-1.5,-nan,0,0,0,0,0,0,0,0,0,0,0,1.9603e-19,0,0,0,0,0,0,0,0,0
11698,-3.21252e-12,3.01002e-38,-1.55831e-06,-3.27827e-12,3.00978e-38,0,-1.06618e-13,0,0,0,0,0,0,0,0,0,0,0,0,0,0,0,0,0,0,0,0,0,-0,0,-1.5,-nan,0,0,0,0,0,0,0,0,0,0,0,1.9603e-19,0,0,0,0,0,0,0,0,0
11716,-3.21252e-12,3.01002e-38,-1.55831e-06,-3.27827e-12,3.00978e-38,0,-1.06619e-13,0,0,0,0,0,0,0,0,0,0,0,0,0,0,0,0,0,0,0,0,0,-0,0,-1.5,-nan,0,0,0,0,0,0,0,0,0,0,0,1.9603e-19,0,0,0,0,0,0,0,0,0
11733,-3.21252e-12,3.01002e-38,-1.55831e-06,-3.27827e-12,3.00978e-38,0,-1.06619e-13,0,0,0,0,0,0,0,0,0,0,0,0,0,0,0,0,0,0,0,0,0,-0,0,-1.5,-nan,0,0,0,0,0,0,0,0,0,0,0,1.9603e-19,0,0,0,0,0,0,0,0,0
11784,-3.21252e-12,3.01002e-38,-1.55831e-06,-3.27827e-12,3.00978e-38,0,-1.06619e-13,0,0,0,0,0,0,0,0,0,0,0,0,0,0,0,0,0,0,0,0,0,-0,0,-1.5,-nan,0,0,0,0,0,0,0,0,0,0,0,1.9603e-19,0,0,0,0,0,0,0,0,0
11801,-3.21252e-12,3.01002e-38,-1.55831e-06,-3.27827e-12,3.00978e-38,0,-1.06619e-13,0,0,0,0,0,0,0,0,0,0,0,0,0,0,0,0,0,0,0,0,0,-0,0,-1.5,-nan,0,0,0,0,0,0,0,0,0,0,0,1.9603e-19,0,0,0,0,0,0,0,0,0
11819,-3.21252e-12,3.01002e-38,-1.55831e-06,-3.27827e-12,3.00978e-38,0,-1.0662e-13,0,0,0,0,0,0,0,0,0,0,0,0,0,0,0,0,0,0,0,0,0,-0,0,-1.5,-nan,0,0,0,0,0,0,0,0,0,0,0,1.9603e-19,0,0,0,0,0,0,0,0,0
11860,-3.21252e-12,3.01002e-38,-1.55831e-06,-3.27827e-12,3.00978e-38,0,-1.0662e-13,0,0,0,0,0,0,0,0,0,0,0,0,0,0,0,0,0,0,0,0,0,-0,0,-1.5,-nan,0,0,0,0,0,0,0,0,0,0,0,1.9603e-19,0,0,0,0,0,0,0,0,0
11877,-3.21252e-12,3.01002e-38,-1.55831e-06,-3.27827e-12,3.00978e-38,0,-1.0662e-13,0,0,0,0,0,0,0,0,0,0,0,0,0,0,0,0,0,0,0,0,0,-0,0,-1.5,-nan,0,0,0,0,0,0,0,0,0,0,0,1.9603e-19,0,0,0,0,0,0,0,0,0
11899,-3.21252e-12,3.01002e-38,-1.55831e-06,-3.27827e-12,3.00978e-38,0,-1.0662e-13,0,0,0,0,0,0,0,0,0,0,0,0,0,0,0,0,0,0,0,0,0,-0,0,-1.5,-nan,0,0,0,0,0,0,0,0,0,0,0,1.9603e-19,0,0,0,0,0,0,0,0,0
11916,-3.21252e-12,3.01002e-38,-1.55831e-06,-3.27827e-12,3.00978e-38,0,-1.06621e-13,0,0,0,0,0,0,0,0,0,0,0,0,0,0,0,0,0,0,0,0,0,-0,0,-1.5,-nan,0,0,0,0,0,0,0,0,0,0,0,1.9603e-19,0,0,0,0,0,0,0,0,0
11934,-3.21252e-12,3.01002e-38,-1.55831e-06,-3.27827e-12,3.00978e-38,0,-1.06621e-13,0,0,0,0,0,0,0,0,0,0,0,0,0,0,0,0,0,0,0,0,0,-0,0,-1.5,-nan,0,0,0,0,0,0,0,0,0,0,0,1.9603e-19,0,0,0,0,0,0,0,0,0
11955,-3.21252e-12,3.01002e-38,-1.55831e-06,-3.27827e-12,3.00978e-38,0,-1.06621e-13,0,0,0,0,0,0,0,0,0,0,0,0,0,0,0,0,0,0,0,0,0,-0,0,-1.5,-nan,0,0,0,0,0,0,0,0,0,0,0,1.9603e-19,0,0,0,0,0,0,0,0,0
11972,-3.21252e-12,3.01002e-38,-1.55831e-06,-3.27827e-12,3.00978e-38,0,-1.06622e-13,0,0,0,0,0,0,0,0,0,0,0,0,0,0,0,0,0,0,0,0,0,-0,0,-1.5,-nan,0,0,0,0,0,0,0,0,0,0,0,1.9603e-19,0,0,0,0,0,0,0,0,0
11990,-3.21252e-12,3.01002e-38,-1.55831e-06,-3.27827e-12,3.00978e-38,0,-1.06622e-13,0,0,0,0,0,0,0,0,0,0,0,0,0,0,0,0,0,0,0,0,0,-0,0,-1.5,-nan,0,0,0,0,0,0,0,0,0,0,0,1.9603e-19,0,0,0,0,0,0,0,0,0
12056,-3.21252e-12,3.01002e-38,-1.55831e-06,-3.27827e-12,3.00978e-38,0,-1.06622e-13,0,0,0,0,0,0,0,0,0,0,0,0,0,0,0,0,0,0,0,0,0,-0,0,-1.5,-nan,0,0,0,0,0,0,0,0,0,0,0,1.9603e-19,0,0,0,0,0,0,0,0,0
12073,-3.21252e-12,3.01002e-38,-1.55831e-06,-3.27827e-12,3.00978e-38,0,-1.06622e-13,0,0,0,0,0,0,0,0,0,0,0,0,0,0,0,0,0,0,0,0,0,-0,0,-1.5,-nan,0,0,0,0,0,0,0,0,0,0,0,1.9603e-19,0,0,0,0,0,0,0,0,0
12095,-3.21252e-12,3.01002e-38,-1.55831e-06,-3.27827e-12,3.00978e-38,0,-1.06623e-13,0,0,0,0,0,0,0,0,0,0,0,0,0,0,0,0,0,0,0,0,0,-0,0,-1.5,-nan,0,0,0,0,0,0,0,0,0,0,0,1.9603e-19,0,0,0,0,0,0,0,0,0
12112,-3.21252e-12,3.01002e-38,-1.55831e-06,-3.27827e-12,3.00978e-38,0,-1.06623e-13,0,0,0,0,0,0,0,0,0,0,0,0,0,0,0,0,0,0,0,0,0,-0,0,-1.5,-nan,0,0,0,0,0,0,0,0,0,0,0,1.9603e-19,0,0,0,0,0,0,0,0,0
12129,-3.21252e-12,3.01002e-38,-1.55831e-06,-3.27827e-12,3.00978e-38,0,-1.06623e-13,0,0,0,0,0,0,0,0,0,0,0,0,0,0,0,0,0,0,0,0,0,-0,0,-1.5,-nan,0,0,0,0,0,0,0,0,0,0,0,1.9603e-19,0,0,0,0,0,0,0,0,0
12151,-3.21252e-12,3.01002e-38,-1.55831e-06,-3.27827e-12,3.00978e-38,0,-1.06623e-13,0,0,0,0,0,0,0,0,0,0,0,0,0,0,0,0,0,0,0,0,0,-0,0,-1.5,-nan,0,0,0,0,0,0,0,0,0,0,0,1.9603e-19,0,0,0,0,0,0,0,0,0
12165,-3.21252e-12,3.01002e-38,-1.55831e-06,-3.27827e-12,3.00978e-38,0,-1.06624e-13,0,0,0,0,0,0,0,0,0,0,0,0,0,0,0,0,0,0,0,0,0,-0,0,-1.5,-nan,0,0,0,0,0,0,0,0,0,0,0,1.9603e-19,0,0,0,0,0,0,0,0,0
12180,-3.21252e-12,3.01002e-38,-1.55831e-06,-3.27827e-12,3.00978e-38,0,-1.06624e-13,0,0,0,0,0,0,0,0,0,0,0,0,0,0,0,0,0,0,0,0,0,-0,0,-1.5,-nan,0,0,0,0,0,0,0,0,0,0,0,1.9603e-19,0,0,0,0,0,0,0,0,0
12198,-3.21252e-12,3.01002e-38,-1.55831e-06,-3.27827e-12,3.00978e-38,0,-1.06624e-13,0,0,0,0,0,0,0,0,0,0,0,0,0,0,0,0,0,0,0,0,0,-0,0,-1.5,-nan,0,0,0,0,0,0,0,0,0,0,0,1.9603e-19,0,0,0,0,0,0,0,0,0
12215,-3.21252e-12,3.01002e-38,-1.55831e-06,-3.27827e-12,3.00978e-38,0,-1.06625e-13,0,0,0,0,0,0,0,0,0,0,0,0,0,0,0,0,0,0,0,0,0,-0,0,-1.5,-nan,0,0,0,0,0,0,0,0,0,0,0,1.9603e-19,0,0,0,0,0,0,0,0,0
12237,-3.21252e-12,3.01002e-38,-1.55831e-06,-3.27827e-12,3.00978e-38,0,-1.06625e-13,0,0,0,0,0,0,0,0,0,0,0,0,0,0,0,0,0,0,0,0,0,-0,0,-1.5,-nan,0,0,0,0,0,0,0,0,0,0,0,1.9603e-19,0,0,0,0,0,0,0,0,0
12254,-3.21252e-12,3.01002e-38,-1.55831e-06,-3.27827e-12,3.00978e-38,0,-1.06625e-13,0,0,0,0,0,0,0,0,0,0,0,0,0,0,0,0,0,0,0,0,0,-0,0,-1.5,-nan,0,0,0,0,0,0,0,0,0,0,0,1.9603e-19,0,0,0,0,0,0,0,0,0
12272,-3.21252e-12,3.01002e-38,-1.55831e-06,-3.27827e-12,3.00978e-38,0,-1.06625e-13,0,0,0,0,0,0,0,0,0,0,0,0,0,0,0,0,0,0,0,0,0,-0,0,-1.5,-nan,0,0,0,0,0,0,0,0,0,0,0,1.9603e-19,0,0,0,0,0,0,0,0,0
12293,-3.21252e-12,3.01002e-38,-1.55831e-06,-3.27827e-12,3.00978e-38,0,-1.06626e-13,0,0,0,0,0,0,0,0,0,0,0,0,0,0,0,0,0,0,0,0,0,-0,0,-1.5,-nan,0,0,0,0,0,0,0,0,0,0,0,1.9603e-19,0,0,0,0,0,0,0,0,0
12311,-3.21252e-12,3.01002e-38,-1.55831e-06,-3.27827e-12,3.00978e-38,0,-1.06626e-13,0,0,0,0,0,0,0,0,0,0,0,0,0,0,0,0,0,0,0,0,0,-0,0,-1.5,-nan,0,0,0,0,0,0,0,0,0,0,0,1.9603e-19,0,0,0,0,0,0,0,0,0
12357,-3.21252e-12,3.01002e-38,-1.55831e-06,-3.27827e-12,3.00978e-38,0,-1.06626e-13,0,0,0,0,0,0,0,0,0,0,0,0,0,0,0,0,0,0,0,0,0,-0,0,-1.5,-nan,0,0,0,0,0,0,0,0,0,0,0,1.9603e-19,0,0,0,0,0,0,0,0,0
12396,-3.21252e-12,3.01002e-38,-1.55831e-06,-3.27827e-12,3.00978e-38,0,-1.06626e-13,0,0,0,0,0,0,0,0,0,0,0,0,0,0,0,0,0,0,0,0,0,-0,0,-1.5,-nan,0,0,0,0,0,0,0,0,0,0,0,1.9603e-19,0,0,0,0,0,0,0,0,0
12413,-3.21252e-12,3.01002e-38,-1.55831e-06,-3.27827e-12,3.00978e-38,0,-1.06627e-13,0,0,0,0,0,0,0,0,0,0,0,0,0,0,0,0,0,0,0,0,0,-0,0,-1.5,-nan,0,0,0,0,0,0,0,0,0,0,0,1.9603e-19,0,0,0,0,0,0,0,0,0
12434,-3.21252e-12,3.01002e-38,-1.55831e-06,-3.27827e-12,3.00978e-38,0,-1.06627e-13,0,0,0,0,0,0,0,0,0,0,0,0,0,0,0,0,0,0,0,0,0,-0,0,-1.5,-nan,0,0,0,0,0,0,0,0,0,0,0,1.9603e-19,0,0,0,0,0,0,0,0,0
12451,-3.21252e-12,3.01002e-38,-1.55831e-06,-3.27827e-12,3.00978e-38,0,-1.06627e-13,0,0,0,0,0,0,0,0,0,0,0,0,0,0,0,0,0,0,0,0,0,-0,0,-1.5,-nan,0,0,0,0,0,0,0,0,0,0,0,1.9603e-19,0,0,0,0,0,0,0,0,0
12469,-3.21252e-12,3.01002e-38,-1.55831e-06,-3.27827e-12,3.00978e-38,0,-1.06628e-13,0,0,0,0,0,0,0,0,0,0,0,0,0,0,0,0,0,0,0,0,0,-0,0,-1.5,-nan,0,0,0,0,0,0,0,0,0,0,0,1.9603e-19,0,0,0,0,0,0,0,0,0
12491,-3.21252e-12,3.01002e-38,-1.55831e-06,-3.27827e-12,3.00978e-38,0,-1.06628e-13,0,0,0,0,0,0,0,0,0,0,0,0,0,0,0,0,0,0,0,0,0,-0,0,-1.5,-nan,0,0,0,0,0,0,0,0,0,0,0,1.9603e-19,0,0,0,0,0,0,0,0,0
12508,-3.21252e-12,3.01002e-38,-1.55831e-06,-3.27827e-12,3.00978e-38,0,-1.06628e-13,0,0,0,0,0,0,0,0,0,0,0,0,0,0,0,0,0,0,0,0,0,-0,0,-1.5,-nan,0,0,0,0,0,0,0,0,0,0,0,1.9603e-19,0,0,0,0,0,0,0,0,0
12525,-3.21252e-12,3.01002e-38,-1.55831e-06,-3.27827e-12,3.00978e-38,0,-1.06628e-13,0,0,0,0,0,0,0,0,0,0,0,0,0,0,0,0,0,0,0,0,0,-0,0,-1.5,-nan,0,0,0,0,0,0,0,0,0,0,0,1.9603e-19,0,0,0,0,0,0,0,0,0
12546,-3.21252e-12,3.01002e-38,-1.55831e-06,-3.27827e-12,3.00978e-38,0,-1.06629e-13,0,0,0,0,0,0,0,0,0,0,0,0,0,0,0,0,0,0,0,0,0,-0,0,-1.5,-nan,0,0,0,0,0,0,0,0,0,0,0,1.9603e-19,0,0,0,0,0,0,0,0,0
12563,-3.21252e-12,3.01002e-38,-1.55831e-06,-3.27827e-12,3.00978e-38,0,-1.06629e-13,0,0,0,0,0,0,0,0,0,0,0,0,0,0,0,0,0,0,0,0,0,-0,0,-1.5,-nan,0,0,0,0,0,0,0,0,0,0,0,1.9603e-19,0,0,0,0,0,0,0,0,0
12584,-3.21252e-12,3.01002e-38,-1.55831e-06,-3.27827e-12,3.00978e-38,0,-1.06629e-13,0,0,0,0,0,0,0,0,0,0,0,0,0,0,0,0,0,0,0,0,0,-0,0,-1.5,-nan,0,0,0,0,0,0,0,0,0,0,0,1.9603e-19,0,0,0,0,0,0,0,0,0
12609,-3.21252e-12,3.01002e-38,-1.55831e-06,-3.27827e-12,3.00978e-38,0,-1.06629e-13,0,0,-3.69554,-0.138425,0.592867,0,0,0,0,0,-0.662893,-0.138425,281,-75,281,-75,396,-70,272,54,0,-0,0,-1.5,-nan,0,0,0,0,0,0,0,0,0,0,0,16120,0,0,0,0,12600,0,0,0,0
12632,-3.21252e-12,3.01002e-38,-1.55831e-06,-3.27827e-12,3.00978e-38,0,-1.0663e-13,0,0,-3.69513,-0.167987,0.498537,0,0,0,0,0,-0.662326,-0.167987,281,-61,281,-61,403,-60,276,59,0,-0,0,-1.5,-nan,0,0,0,0,0,0,0,0,0,0,0,16383,0,0,0,0,12623,0,0,0,0
12651,-3.21252e-12,3.01002e-38,-1.55831e-06,-3.27827e-12,3.00978e-38,0,-1.0663e-13,0,0,-3.6754,-0.179816,0.480981,0,0,0,0,0,-0.635298,-0.179816,281,-58,281,-58,409,-59,276,60,0,-0,0,-1.5,-nan,0,0,0,0,0,0,0,0,0,0,0,16625,0,0,0,0,12642,0,0,0,0
12667,-3.21252e-12,3.01002e-38,-1.55831e-06,-3.27827e-12,3.00978e-38,0,-1.0663e-13,0,0,-3.6754,-0.179816,0.480981,0,0,0,0,0,-0.635298,-0.179816,281,-58,281,-58,409,-59,276,60,0,-0,0,-1.5,-nan,0,0,0,0,0,0,0,0,0,0,0,16625,0,0,0,0,12642,0,0,0,0
12695,-3.21252e-12,3.01002e-38,-1.55831e-06,-3.27827e-12,3.00978e-38,0,-1.06631e-13,0,0,-3.69839,-0.168519,0.471197,0,0,0,0,0,-0.666794,-0.168519,281,-58,281,-58,403,-56,276,61,0.0917191,-0.261799,0,-1.5,-nan,0,0,0,-0.668951,-0.168775,0,0,0,0,-0.0770358,-0.00916416,16510,-0.666794,-0.168519,-0.0770358,-0.00916416,12680,0.334475,0.0231117,0.0843877,0.00733137
12715,-3.21252e-12,3.01002e-38,-1.55831e-06,-3.27827e-12,3.00978e-38,0,-1.06631e-13,0,0,-3.71731,-0.164928,0.498157,0,0,0,0,0,-0.69271,-0.164928,284,-61,284,-61,401,-56,273,61,0.00839026,-0.261799,0,-1.5,-nan,0,0,0,-0.698691,-0.164099,0,0,0,0,-0.66453,0.0920755,16512,-0.69271,-0.164928,-0.66453,0.0920755,12708,0.349345,0.199351,0.0820497,-0.0736594
12753,-3.21252e-12,3.01002e-38,-1.55831e-06,-3.27827e-12,3.00978e-38,0,-1.06631e-13,0,0,-3.65816,-0.157609,0.459678,0,0,0,0,0,-0.611679,-0.157609,281,-61,281,-61,403,-56,272,63,-0.0383617,-0.18951,0,-1.5,-nan,0,0,0,-0.60749,-0.156009,0,0,0,0,0.380811,0.145468,16899,-0.611679,-0.157609,0.380811,0.145468,12744,0.303745,-0.114235,0.0780044,-0.116366
12795,-3.21252e-12,3.01002e-38,-1.55831e-06,-3.27827e-12,3.00978e-38,0,-1.06631e-13,0,0,-3.70873,-0.169005,0.493037,0,0,0,0,0,-0.680955,-0.169005,281,-61,281,-61,403,-56,276,61,0.00470728,-0.261799,0,-1.5,-nan,0,0,0,-0.687872,-0.156733,0,0,0,0,-0.164672,0.0920755,16383,-0.680955,-0.160601,-0.164672,0.0920755,12784,0.343936,0.0493973,0.0783667,-0.0736594
12815,-3.21252e-12,3.01002e-38,-1.55831e-06,-3.27827e-12,3.00978e-38,0,-1.06632e-13,0,0,-3.67263,-0.189939,0.470213,0,0,0,0,0,-0.631509,-0.189939,284,-61,284,-61,409,-55,276,61,0.0903724,-0.261799,0,-1.5,-nan,0,0,0,-0.630425,-0.169444,0,0,0,0,0.154863,-0.00707046,17157,-0.631509,-0.169394,0.154863,-0.00707046,12810,0.315212,-0.0464559,0.0847219,0.00565052
12832,-3.21252e-12,3.01002e-38,-1.55831e-06,-3.27827e-12,3.00978e-38,0,-1.06632e-13,0,0,-3.67263,-0.189939,0.470213,0,0,0,0,0,-0.631509,-0.189939,284,-61,284,-61,409,-55,276,61,0.0904385,-0.261799,0,-1.5,-nan,0,0,0,-0.627792,-0.169564,0,0,0,0,0.154863,-0.00707046,17157,-0.631509,-0.169394,0.154863,-0.00707046,12810,0.313896,-0.0464559,0.084782,0.00565648
12857,-3.21252e-12,3.01002e-38,-1.55831e-06,-3.27827e-12,3.00978e-38,0,-1.06635e-13,0,0,-3.66522,-0.180424,0.463815,0,0,0,0,0,-0.621354,-0.180424,281,-60,281,-60,409,-55,276,61,0.13823,-0.258172,0,-1.5,-nan,0,0,0,-0.619876,-0.181473,0,0,0,0,0.172551,-0.0593728,17024,-0.62419,-0.179989,0.172551,-0.0593728,12845,0.309938,-0.0517666,0.0907366,0.047493
12874,-3.21252e-12,3.01002e-38,-1.55831e-06,-3.27827e-12,3.00978e-38,0,-1.06632e-13,0,0,-3.66522,-0.180424,0.463815,0,0,0,0,0,-0.621354,-0.180424,281,-60,281,-60,409,-55,276,61,0.138734,-0.256714,0,-1.5,-nan,0,0,0,-0.616943,-0.182482,0,0,0,0,0.172551,-0.0593728,17024,-0.62419,-0.179989,0.172551,-0.0593728,12845,0.308472,-0.0517577,0.0912412,0.047493
12894,-3.21252e-12,3.01002e-38,-1.55831e-06,-3.27827e-12,3.00978e-38,0,-1.06635e-13,0,0,-3.67169,-0.182669,0.463353,0,0,0,0,0,-0.630213,-0.182669,281,-58,281,-58,409,-55,276,61,0.136327,-0.261799,0,-1.5,-nan,0,0,0,-0.624538,-0.18382,0,0,0,0,0.128991,-0.0555269,16758,-0.627118,-0.182709,0.128991,-0.0555269,12882,0.312269,-0.0386953,0.0919098,0.0444174
12920,-3.21252e-12,3.01002e-38,-1.55831e-06,-3.27827e-12,3.00978e-38,0,-1.06632e-13,0,0,-3.68941,-0.17657,0.468786,0,0,0,0,0,-0.654492,-0.17657,281,-58,281,-58,406,-55,276,63,0.118838,-0.261799,0,-1.5,-nan,0,0,0,-0.626345,-0.178762,0,0,0,0,0.118516,-0.0368229,16380,-0.627412,-0.178431,0.118516,-0.0368229,12912,0.313173,-0.0355572,0.0893811,0.0294566
12933,-3.21252e-12,3.01002e-38,-1.55831e-06,-3.27827e-12,3.00978e-38,0,-1.06635e-13,0,0,-3.68941,-0.17657,0.468786,0,0,0,0,0,-0.654492,-0.17657,281,-58,281,-58,406,-55,276,63,0.119095,-0.261799,0,-1.5,-nan,0,0,0,-0.624686,-0.179278,0,0,0,0,0.118516,-0.0368229,16380,-0.627412,-0.178431,0.118516,-0.0368229,12912,0.312343,-0.0355482,0.0896389,0.0294566
12980,-3.21252e-12,3.01002e-38,-1.55831e-06,-3.27827e-12,3.00978e-38,0,-1.06633e-13,0,0,-3.66109,-0.177697,0.440567,0,0,0,0,0,-0.6157,-0.177697,286,-60,286,-60,404,-55,274,67,-0.157164,0.261799,0,-1.5,-nan,0,0,0,-0.61684,-0.178257,0,0,0,0,0.12338,-0.0275004,17030,-0.61758,-0.178092,0.12338,-0.0275004,12977,0.30842,-1.60375,0.0891283,-0.246292
13001,-3.21252e-12,3.01002e-38,-1.55831e-06,-3.27827e-12,3.00978e-38,0,-1.06633e-13,0,0,-3.66109,-0.177697,0.440567,0,0,0,0,0,-0.6157,-0.177697,286,-60,286,-60,404,-55,274,67,0.111417,-0.261799,0,-1.5,-nan,0,0,0,-0.614249,-0.178834,0,0,0,0,0.12338,-0.0275004,17030,-0.61758,-0.178092,0.12338,-0.0275004,12977,0.307124,-0.0370055,0.089417,0.0220001
13023,-3.21252e-12,3.01002e-38,-1.55831e-06,-3.27827e-12,3.00978e-38,0,-1.06634e-13,0,0,-3.65847,-0.177167,0.430636,0,0,0,0,0,-0.61211,-0.177167,284,-56,284,-56,406,-55,274,66,0.113772,-0.261799,0,-1.5,-nan,0,0,0,-0.611756,-0.179956,0,0,0,0,0.122708,-0.0297406,16896,-0.614333,-0.179332,0.122708,-0.0297406,13010,0.305878,-0.0368088,0.0899782,0.0237942
13039,-3.21252e-12,3.01002e-38,-1.55831e-06,-3.27827e-12,3.00978e-38,0,-1.06633e-13,0,0,-3.65847,-0.177167,0.430636,0,0,0,0,0,-0.61211,-0.177167,284,-56,284,-56,406,-55,274,66,0.114019,-0.261799,0,-1.5,-nan,0,0,0,-0.60967,-0.180462,0,0,0,0,0.122708,-0.0297406,16896,-0.614333,-0.179332,0.122708,-0.0297406,13010,0.304835,-0.0368088,0.090231,0.0237882
13065,-3.21252e-12,3.01002e-38,-1.55831e-06,-3.27827e-12,3.00978e-38,0,-1.06636e-13,0,0,-3.63361,-0.175804,0.416174,0,0,0,0,0,-0.578041,-0.175804,284,-58,284,-58,406,-55,274,69,0.111104,-0.261799,0,-1.5,-nan,0,0,0,-0.606089,-0.18008,0,0,0,0,0.123952,-0.0263315,17028,-0.609312,-0.179395,0.123952,-0.0263315,13053,0.303045,-0.0371844,0.0900401,0.0210643
13082,-3.21252e-12,3.01002e-38,-1.55831e-06,-3.27827e-12,3.00978e-38,0,-1.06634e-13,0,0,-3.63361,-0.175804,0.416174,0,0,0,0,0,-0.578041,-0.175804,284,-58,284,-58,406,-55,274,69,0.111328,-0.261799,0,-1.5,-nan,0,0,0,-0.603982,-0.180528,0,0,0,0,0.123952,-0.0263315,17028,-0.609312,-0.179395,0.123952,-0.0263315,13053,0.301991,-0.0371844,0.0902639,0.0210643
13110,-3.21252e-12,3.01002e-38,-1.55831e-06,-3.27827e-12,3.00978e-38,0,-1.06638e-13,0,0,-3.71964,-0.188373,0.460795,0,0,0,0,0,-0.695907,-0.188373,286,-58,286,-58,405,-50,276,64,0.11408,-0.261356,0,-1.5,-nan,0,0,0,-0.598421,-0.182066,0,0,0,0,0.126204,-0.0288112,16899,-0.601955,-0.181259,0.126204,-0.0288112,13097,0.29921,-0.0378549,0.091033,0.0230471
13131,-3.21252e-12,3.01002e-38,-1.55831e-06,-3.27827e-12,3.00978e-38,0,-1.06639e-13,0,0,-3.68712,-0.186257,0.433868,0,0,0,0,0,-0.651357,-0.186257,286,-56,286,-56,405,-50,274,66,0.117993,-0.261799,0,-1.5,-nan,0,0,0,-0.607898,-0.18394,0,0,0,0,0.102385,-0.0325322,16899,-0.610048,-0.183257,0.102385,-0.0325322,13118,0.303949,-0.0307202,0.0919699,0.0260234
13157,-3.21252e-12,3.01002e-38,-1.55831e-06,-3.27827e-12,3.00978e-38,0,-1.06639e-13,0,0,-3.69902,-0.193381,0.460453,0,0,0,0,0,-0.667655,-0.193381,284,-58,284,-58,406,-53,278,64,0.122779,-0.261799,0,-1.5,-nan,0,0,0,-0.648802,-0.186557,0,0,0,0,0.0181567,-0.0368795,16512,-0.649274,-0.185598,0.0181567,-0.0368795,13144,0.324401,-0.00544786,0.0932784,0.0295003
13179,-3.21252e-12,3.01002e-38,-1.55831e-06,-3.27827e-12,3.00978e-38,0,-1.0664e-13,0,0,-3.74992,-0.209724,0.489004,0,0,0,0,0,-0.737391,-0.209724,287,-58,287,-58,406,-53,281,64,0.280199,-0.261799,0,-1.5,-nan,0,0,0,-0.65233,-0.188541,0,0,0,0,-0.00176957,-0.0395279,16125,-0.652319,-0.188304,-0.00176957,-0.0395279,13175,0.326165,0.190943,0.0942707,0.185929
13193,-3.21252e-12,3.01002e-38,-1.55831e-06,-3.27827e-12,3.00978e-38,0,-1.06639e-13,0,0,-3.74992,-0.209724,0.489004,0,0,0,0,0,-0.737391,-0.209724,287,-58,287,-58,406,-53,281,64,0.126166,-0.261799,0,-1.5,-nan,0,0,0,-0.652355,-0.189095,0,0,0,0,-0.00176957,-0.0395279,16125,-0.652319,-0.188304,-0.00176957,-0.0395279,13175,0.326177,0.000530481,0.0945473,0.0316183
13215,-3.21252e-12,3.01002e-38,-1.55831e-06,-3.27827e-12,3.00978e-38,0,-1.0664e-13,0,0,-3.70827,-0.200421,0.46091,0,0,0,0,0,-0.680328,-0.200421,287,-58,287,-58,406,-53,278,66,0.136055,-0.261799,0,-1.5,-nan,0,0,0,-0.672665,-0.194362,0,0,0,0,-0.0567041,-0.0485967,16512,-0.671985,-0.193778,-0.0567041,-0.0485967,13205,0.336333,0.0170141,0.0971808,0.0388741
13254,-3.21252e-12,3.01002e-38,-1.55831e-06,-3.27827e-12,3.00978e-38,0,-1.06636e-13,0,0,-3.63274,-0.202404,0.418746,0,0,0,0,0,-0.57685,-0.202404,284,-56,284,-56,411,-54,277,66,0.137962,-0.261799,0,-1.5,-nan,0,0,0,-0.649678,-0.197175,0,0,0,0,0.0149141,-0.0492173,16884,-0.649857,-0.196585,0.0149141,-0.0492173,13244,0.324839,-0.00447929,0.0985876,0.0393748
13272,-3.21252e-12,3.01002e-38,-1.55831e-06,-3.27827e-12,3.00978e-38,0,-1.0664e-13,0,0,-3.63274,-0.202404,0.418746,0,0,0,0,0,-0.57685,-0.202404,284,-56,284,-56,411,-54,277,66,0.138401,-0.261799,0,-1.5,-nan,0,0,0,-0.64941,-0.198061,0,0,0,0,0.0149141,-0.0492173,16884,-0.649857,-0.196585,0.0149141,-0.0492173,13244,0.324705,-0.00447035,0.0990305,0.0393709
13298,-3.21252e-12,3.01002e-38,-1.55831e-06,-3.27827e-12,3.00978e-38,0,-1.06636e-13,0,0,-3.74136,-0.217437,0.468731,0,0,0,0,0,-0.725658,-0.217437,287,-54,287,-54,408,-52,281,67,0.154409,-0.261799,0,-1.5,-nan,0,0,0,-0.678998,-0.204807,0,0,0,0,-0.0648243,-0.0650106,15748,-0.677312,-0.203117,-0.0648243,-0.0650106,13285,0.339499,0.019446,0.102403,0.052005
13319,-3.21252e-12,3.01002e-38,-1.55831e-06,-3.27827e-12,3.00978e-38,0,-1.06636e-13,0,0,-3.66079,-0.215059,0.414327,0,0,0,0,0,-0.615281,-0.215059,289,-54,289,-54,411,-52,277,69,0.157401,-0.261799,0,-1.5,-nan,0,0,0,-0.64907,-0.207489,0,0,0,0,0.00839987,-0.067074,16884,-0.649154,-0.206818,0.00839987,-0.067074,13311,0.324535,-0.00252128,0.103745,0.0536561
13336,-3.21252e-12,3.01002e-38,-1.55831e-06,-3.27827e-12,3.00978e-38,0,-1.06634e-13,0,0,-3.66079,-0.215059,0.414327,0,0,0,0,0,-0.615281,-0.215059,289,-54,289,-54,411,-52,277,69,0.157971,-0.261799,0,-1.5,-nan,0,0,0,-0.648928,-0.208629,0,0,0,0,0.00839987,-0.067074,16884,-0.649154,-0.206818,0.00839987,-0.067074,13311,0.324464,-0.00252128,0.104315,0.0536561
13391,-3.21252e-12,3.01002e-38,-1.55831e-06,-3.27827e-12,3.00978e-38,0,-1.06637e-13,0,0,-3.64773,-0.20982,0.40705,0,0,0,0,0,-0.597394,-0.20982,287,-54,287,-54,411,-52,277,69,0.161744,-0.261799,0,-1.5,-nan,0,0,0,-0.643887,-0.212981,0,0,0,0,0.0191897,-0.0690751,16884,-0.644943,-0.209181,0.0191897,-0.0690751,13378,0.321944,-0.00575781,0.10649,0.0552535
13408,-3.21252e-12,3.01002e-38,-1.55831e-06,-3.27827e-12,3.00978e-38,0,-1.06637e-13,0,0,-3.64773,-0.20982,0.40705,0,0,0,0,0,-0.597394,-0.20982,287,-54,287,-54,411,-52,277,69,0.162331,-0.261799,0,-1.5,-nan,0,0,0,-0.643561,-0.214155,0,0,0,0,0.0191897,-0.0690751,16884,-0.644943,-0.209181,0.0191897,-0.0690751,13378,0.32178,-0.00575781,0.107077,0.0552535
13429,-3.21252e-12,3.01002e-38,-1.55831e-06,-3.27827e-12,3.00978e-38,0,-1.06638e-13,0,0,-3.67683,-0.211697,0.427861,0,0,0,0,0,-0.637259,-0.211697,287,-54,287,-54,411,-52,278,67,0.159689,-0.261799,0,-1.5,-nan,0,0,0,-0.635781,-0.214116,0,0,0,0,0.02832,-0.0657968,16758,-0.636376,-0.212735,0.02832,-0.0657968,13416,0.317891,-0.00849366,0.107058,0.0526309
13451,-3.21252e-12,3.01002e-38,-1.55831e-06,-3.27827e-12,3.00978e-38,0,-1.0664e-13,0,0,-3.65776,-0.204568,0.428443,0,0,0,0,0,-0.611136,-0.204568,284,-56,284,-56,411,-52,278,64,0.159008,-0.261799,0,-1.5,-nan,0,0,0,-0.628726,-0.214245,0,0,0,0,0.0398847,-0.0648614,17024,-0.629085,-0.213661,0.0398847,-0.0648614,13444,0.314363,-0.0119627,0.107122,0.0518858
13495,-3.21252e-12,3.01002e-38,-1.55831e-06,-3.27827e-12,3.00978e-38,0,-1.06641e-13,0,0,-3.74815,-0.200008,0.472818,0,0,0,0,0,-0.734968,-0.200008,286,-53,286,-53,406,-52,278,64,0.1601,-0.261799,0,-1.5,-nan,0,0,0,-0.629882,-0.217262,0,0,0,0,0.0366947,-0.0643441,16000,-0.631496,-0.214431,0.0366947,-0.0643441,13482,0.314941,-0.011006,0.108631,0.0514686
13535,-3.21252e-12,3.01002e-38,-1.55831e-06,-3.27827e-12,3.00978e-38,0,-1.06641e-13,0,0,-3.70391,-0.19348,0.456891,0,0,0,0,0,-0.67435,-0.19348,283,-56,283,-56,406,-52,278,64,0.150461,-0.261799,0,-1.5,-nan,0,0,0,-0.636599,-0.215008,0,0,0,0,0.0278443,-0.0536951,16256,-0.637685,-0.212914,0.0278443,-0.0536951,13521,0.3183,-0.00835955,0.107504,0.0429571
13581,-3.21252e-12,3.01002e-38,-1.55831e-06,-3.27827e-12,3.00978e-38,0,-1.06641e-13,0,0,-3.65264,-0.185931,0.422619,0,0,0,0,0,-0.604117,-0.185931,283,-58,283,-58,406,-53,277,69,0.107389,0.261799,0,-1.5,-nan,0,0,0,-0.642442,-0.210875,0,0,0,0,0.0159193,-0.0459269,16641,-0.642554,-0.210553,0.0159193,-0.0459269,13576,0.321221,-1.52857,0.105437,0.00195163
13602,-3.21252e-12,3.01002e-38,-1.55831e-06,-3.27827e-12,3.00978e-38,0,-1.06637e-13,0,0,-3.65264,-0.185931,0.422619,0,0,0,0,0,-0.604117,-0.185931,283,-58,283,-58,406,-53,277,69,0.14266,-0.261799,0,-1.5,-nan,0,0,0,-0.642108,-0.211839,0,0,0,0,0.0159193,-0.0459269,16641,-0.642554,-0.210553,0.0159193,-0.0459269,13576,0.321054,-0.00477433,0.10592,0.0367403
13654,-3.21252e-12,3.01002e-38,-1.55831e-06,-3.27827e-12,3.00978e-38,0,-1.06641e-13,0,0,-3.60383,-0.196245,0.386095,0,0,0,0,0,-0.537241,-0.196245,284,-56,284,-56,411,-54,277,70,0.135584,-0.261799,0,-1.5,-nan,0,0,0,-0.631072,-0.208141,0,0,0,0,0.0297405,-0.0393956,17286,-0.632618,-0.206093,0.0297405,-0.0393956,13640,0.315536,-0.00892282,0.104071,0.031513
13671,-3.21252e-12,3.01002e-38,-1.55831e-06,-3.27827e-12,3.00978e-38,0,-1.06638e-13,0,0,-3.60383,-0.196245,0.386095,0,0,0,0,0,-0.537241,-0.196245,284,-56,284,-56,411,-54,277,70,0.135918,-0.261799,0,-1.5,-nan,0,0,0,-0.630566,-0.208811,0,0,0,0,0.0297405,-0.0393956,17286,-0.632618,-0.206093,0.0297405,-0.0393956,13640,0.315283,-0.00892282,0.104405,0.031513
13698,-3.21252e-12,3.01002e-38,-1.55831e-06,-3.27827e-12,3.00978e-38,0,-1.06642e-13,0,0,-3.72167,-0.183702,0.466746,0,0,0,0,0,-0.698686,-0.183702,284,-58,284,-58,405,-50,276,64,0.137755,-0.261799,0,-1.5,-nan,0,0,0,-0.669834,-0.210493,0,0,0,0,-0.0326883,-0.0406332,16641,-0.668952,-0.209396,-0.0326883,-0.0406332,13684,0.334917,0.00980794,0.105247,0.0325084
13721,-3.21252e-12,3.01002e-38,-1.55831e-06,-3.27827e-12,3.00978e-38,0,-1.06642e-13,0,0,-3.7675,-0.158271,0.506331,0,0,0,0,0,-0.76148,-0.158271,284,-58,284,-58,400,-53,273,61,0.137595,-0.261799,0,-1.5,-nan,0,0,0,-0.689155,-0.2109,0,0,0,0,-0.062768,-0.0401862,16383,-0.688401,-0.210418,-0.062768,-0.0401862,13711,0.344577,0.0188291,0.10545,0.0321448
13738,-3.21252e-12,3.01002e-38,-1.55831e-06,-3.27827e-12,3.00978e-38,0,-1.06642e-13,0,0,-3.7675,-0.158271,0.506331,0,0,0,0,0,-0.76148,-0.158271,284,-58,284,-58,400,-53,273,61,0.137936,-0.261799,0,-1.5,-nan,0,0,0,-0.690222,-0.211583,0,0,0,0,-0.062768,-0.0401862,16383,-0.688401,-0.210418,-0.062768,-0.0401862,13711,0.345111,0.0188291,0.105792,0.0321448
13765,-3.21252e-12,3.01002e-38,-1.55831e-06,-3.27827e-12,3.00978e-38,0,-1.06643e-13,0,0,-3.72097,-0.122067,0.538837,0,0,0,0,0,-0.697724,-0.122067,277,-65,277,-65,397,-60,270,56,0.118091,-0.261799,0,-1.5,-nan,0,0,0,-0.695127,-0.200909,0,0,0,0,-0.0666635,-0.0220505,16383,-0.693327,-0.200314,-0.0666635,-0.0220505,13751,0.347564,0.0200003,0.100454,0.017637
13787,-3.21252e-12,3.01002e-38,-1.55831e-06,-3.27827e-12,3.00978e-38,0,-1.06643e-13,0,0,-3.66685,-0.0868869,0.520313,0,0,0,0,0,-0.623586,-0.0868869,273,-69,273,-69,395,-61,265,57,0.113635,-0.261799,0,-1.5,-nan,0,0,0,-0.696084,-0.198409,0,0,0,0,-0.0666163,-0.0180376,17030,-0.695352,-0.198211,-0.0666163,-0.0180376,13778,0.348042,0.0199825,0.0992045,0.0144303
13828,-3.21252e-12,3.01002e-38,-1.55831e-06,-3.27827e-12,3.00978e-38,0,-1.06643e-13,0,0,-3.72979,-0.0637726,0.560574,0,0,0,0,0,-0.709807,-0.0637726,271,-67,271,-67,392,-59,262,53,0.114304,-0.261799,0,-1.5,-nan,0,0,0,-0.704615,-0.199951,0,0,0,0,-0.071764,-0.017916,16640,-0.701673,-0.199216,-0.071764,-0.017916,13814,0.352307,0.0215292,0.0999753,0.014329
13842,-3.21252e-12,3.01002e-38,-1.55831e-06,-3.27827e-12,3.00978e-38,0,-1.06643e-13,0,0,-3.72979,-0.0637726,0.560574,0,0,0,0,0,-0.709807,-0.0637726,271,-67,271,-67,392,-59,262,53,0.11443,-0.261799,0,-1.5,-nan,0,0,0,-0.70562,-0.200201,0,0,0,0,-0.071764,-0.017916,16640,-0.701673,-0.199216,-0.071764,-0.017916,13814,0.35281,0.0215292,0.100101,0.014329
13865,-3.21252e-12,3.01002e-38,-1.55831e-06,-3.27827e-12,3.00978e-38,0,-1.06644e-13,0,0,-3.61326,-0.0472254,0.498467,0,0,0,0,0,-0.550169,-0.0472254,267,-65,267,-65,395,-65,258,54,0.0928228,-0.261799,0,-1.5,-nan,0,0,0,-0.703394,-0.186707,0,0,0,0,-0.0708128,0.000663865,17262,-0.701765,-0.186722,-0.0708128,0.000663865,13851,0.351697,0.0212431,0.0933533,-0.000530481
13888,-3.21252e-12,3.01002e-38,-1.55831e-06,-3.27827e-12,3.00978e-38,0,-1.06644e-13,0,0,-3.68503,-0.0223834,0.540349,0,0,0,0,0,-0.648491,-0.0223834,264,-69,264,-69,389,-61,259,54,0.0947552,-0.261799,0,-1.5,-nan,0,0,0,-0.695108,-0.187985,0,0,0,0,-0.0602761,-0.000951768,16900,-0.694264,-0.187971,-0.0602761,-0.000951768,13876,0.347554,0.0180781,0.0939923,0.000762939
13905,-3.21252e-12,3.01002e-38,-1.55831e-06,-3.27827e-12,3.00978e-38,0,-1.06644e-13,0,0,-3.68503,-0.0223834,0.540349,0,0,0,0,0,-0.648491,-0.0223834,264,-69,264,-69,389,-61,259,54,0.0947633,-0.261799,0,-1.5,-nan,0,0,0,-0.696133,-0.188001,0,0,0,0,-0.0602761,-0.000951768,16900,-0.694264,-0.187971,-0.0602761,-0.000951768,13876,0.348066,0.0180781,0.0940003,0.000762939
13932,-3.21252e-12,3.01002e-38,-1.55831e-06,-3.27827e-12,3.00978e-38,0,-1.06644e-13,0,0,-3.57737,-0.0253988,0.46962,0,0,0,0,0,-0.500997,-0.0253988,264,-69,264,-69,392,-64,257,58,0.0735771,-0.261799,0,-1.5,-nan,0,0,0,-0.647301,-0.177326,0,0,0,0,-0.00046418,0.0188523,17820,-0.647288,-0.177835,-0.00046418,0.0188523,13918,0.32365,0.00013411,0.088663,-0.0150859
13955,-3.21252e-12,3.01002e-38,-1.55831e-06,-3.27827e-12,3.00978e-38,0,-1.06645e-13,0,0,-3.69559,-0.0221043,0.51503,0,0,0,0,0,-0.66296,-0.0221043,264,-65,264,-65,384,-59,260,58,0.0250456,-0.261799,0,-1.5,-nan,0,0,0,-0.652761,-0.144553,0,0,0,0,0.00092574,0.059042,16120,-0.652774,-0.145379,0.00092574,0.059042,13943,0.32638,-0.000277162,0.0722763,-0.0472307
13972,-3.21252e-12,3.01002e-38,-1.55831e-06,-3.27827e-12,3.00978e-38,0,-1.06645e-13,0,0,-3.69559,-0.0221043,0.51503,0,0,0,0,0,-0.66296,-0.0221043,264,-65,264,-65,384,-59,260,58,0.0245437,-0.261799,0,-1.5,-nan,0,0,0,-0.652745,-0.143549,0,0,0,0,0.00092574,0.059042,16120,-0.652774,-0.145379,0.00092574,0.059042,13943,0.326373,-0.000277162,0.0717745,-0.0472307
13999,-3.21252e-12,3.01002e-38,-1.55831e-06,-3.27827e-12,3.00978e-38,0,-1.06645e-13,0,0,-3.73713,-0.0452058,0.482229,0,0,0,0,0,-0.719864,-0.0452058,270,-58,270,-58,390,-52,261,63,-0.0805389,-0.261799,0,-1.5,-nan,0,0,0,-0.664618,-0.0808515,0,0,0,0,-0.0147962,0.151215,16641,-0.664219,-0.0849343,-0.0147962,0.151215,13985,0.332309,0.00443459,0.0404258,-0.120965
14022,-3.21252e-12,3.01002e-38,-1.55831e-06,-3.27827e-12,3.00978e-38,0,-1.06646e-13,0,0,-3.70692,-0.040684,0.454382,0,0,0,0,0,-0.678477,-0.040684,270,-58,270,-58,388,-49,258,65,-0.138834,-0.261799,0,-1.5,-nan,0,0,0,-0.679188,-0.0407317,0,0,0,0,-0.0577161,0.199014,16770,-0.67838,-0.0435177,-0.0577161,0.199014,14010,0.339594,0.0173181,0.0203658,-0.1592
14039,-3.21252e-12,3.01002e-38,-1.55831e-06,-3.27827e-12,3.00978e-38,0,-1.06646e-13,0,0,-3.70692,-0.040684,0.454382,0,0,0,0,0,-0.678477,-0.040684,270,-58,270,-58,388,-49,258,65,-0.140526,-0.261799,0,-1.5,-nan,0,0,0,-0.680169,-0.0373486,0,0,0,0,-0.0577161,0.199014,16770,-0.67838,-0.0435177,-0.0577161,0.199014,14010,0.340084,0.0173152,0.0186743,-0.1592
14061,-3.21252e-12,3.01002e-38,-1.55831e-06,-3.27827e-12,3.00978e-38,0,-1.06646e-13,0,0,-3.77666,-0.0551238,0.49354,0,0,0,0,0,-0.774024,-0.0551238,272,-57,272,-57,388,-49,262,64,-0.148982,-0.261799,0,-1.5,-nan,0,0,0,-0.682586,-0.0329434,0,0,0,0,-0.0326247,0.206833,16128,-0.681868,-0.0374936,-0.0326247,0.206833,14047,0.341293,0.00978112,0.0164717,-0.165454
14088,-3.21252e-12,3.01002e-38,-1.55831e-06,-3.27827e-12,3.00978e-38,0,-1.06646e-13,0,0,-3.74083,-0.0616274,0.475516,0,0,0,0,0,-0.724933,-0.0616274,272,-58,272,-58,391,-49,262,64,-0.124448,-0.261799,0,-1.5,-nan,0,0,0,-0.684758,-0.048066,0,0,0,0,-0.0214581,0.185616,16641,-0.684457,-0.0506646,-0.0214581,0.185616,14077,0.342379,0.0064373,0.024033,-0.148481
14102,-3.21252e-12,3.01002e-38,-1.55831e-06,-3.27827e-12,3.00978e-38,0,-1.06647e-13,0,0,-3.74083,-0.0616274,0.475516,0,0,0,0,0,-0.724933,-0.0616274,272,-58,272,-58,391,-49,262,64,-0.125747,-0.261799,0,-1.5,-nan,0,0,0,-0.685058,-0.0454675,0,0,0,0,-0.0214581,0.185616,16641,-0.684457,-0.0506646,-0.0214581,0.185616,14077,0.342529,0.0064373,0.0227338,-0.148481
14125,-3.21252e-12,3.01002e-38,-1.55831e-06,-3.27827e-12,3.00978e-38,0,-1.06647e-13,0,0,-3.70572,-0.0625022,0.460337,0,0,0,0,0,-0.676839,-0.0625022,272,-57,272,-57,391,-52,261,65,-0.148004,-0.261799,0,-1.5,-nan,0,0,0,-0.678061,-0.0369292,0,0,0,0,-0.00664336,0.208101,16510,-0.677908,-0.0417154,-0.00664336,0.208101,14111,0.33903,0.00198483,0.0184646,-0.166468
14151,-3.21252e-12,3.01002e-38,-1.55831e-06,-3.27827e-12,3.00978e-38,0,-1.06647e-13,0,0,-3.69105,-0.0580228,0.456538,0,0,0,0,0,-0.656742,-0.0580228,270,-58,270,-58,391,-52,261,64,-0.143962,-0.261799,0,-1.5,-nan,0,0,0,-0.676914,-0.0377731,0,0,0,0,-0.00745578,0.203575,16640,-0.676847,-0.0396052,-0.00745578,0.203575,14144,0.338457,0.00223517,0.0188865,-0.162849
14168,-3.21252e-12,3.01002e-38,-1.55831e-06,-3.27827e-12,3.00978e-38,0,-1.06647e-13,0,0,-3.69105,-0.0580228,0.456538,0,0,0,0,0,-0.656742,-0.0580228,270,-58,270,-58,391,-52,261,64,-0.145691,-0.261799,0,-1.5,-nan,0,0,0,-0.677041,-0.0343124,0,0,0,0,-0.00745578,0.203575,16640,-0.676847,-0.0396052,-0.00745578,0.203575,14144,0.33852,0.00223517,0.0171562,-0.162847
14191,-3.21252e-12,3.01002e-38,-1.55831e-06,-3.27827e-12,3.00978e-38,0,-1.06648e-13,0,0,-3.67549,-0.0511722,0.450079,0,0,0,0,0,-0.63542,-0.0511722,267,-58,267,-58,391,-52,261,63,-0.146089,-0.261799,0,-1.5,-nan,0,0,0,-0.677978,-0.0326711,0,0,0,0,-0.0114338,0.203044,16640,-0.677715,-0.037341,-0.0114338,0.203044,14177,0.338989,0.00343323,0.0163356,-0.162424
14217,-3.21252e-12,3.01002e-38,-1.55831e-06,-3.27827e-12,3.00978e-38,0,-1.06648e-13,0,0,-3.66647,-0.0795716,0.453355,0,0,0,0,0,-0.623063,-0.0795716,270,-57,270,-57,397,-56,265,61,-0.138559,-0.261799,0,-1.5,-nan,0,0,0,-0.657988,-0.0357827,0,0,0,0,0.0200172,0.195577,16896,-0.658168,-0.0375429,0.0200172,0.195577,14210,0.328994,-0.00599921,0.0178914,-0.15645
14293,-3.21252e-12,3.01002e-38,-1.55831e-06,-3.27827e-12,3.00978e-38,0,-1.06648e-13,0,0,-3.70585,-0.0561899,0.476303,0,0,0,0,0,-0.677019,-0.0561899,270,-60,270,-60,390,-52,261,63,-0.149426,-0.261799,0,-1.5,-nan,0,0,0,-0.678879,-0.0188238,0,0,0,0,-0.0441652,0.198561,16512,-0.675522,-0.0339143,-0.0441652,0.198561,14279,0.339439,0.0132501,0.00941188,-0.158837
14334,-3.21252e-12,3.01002e-38,-1.55831e-06,-3.27827e-12,3.00978e-38,0,-1.06649e-13,0,0,-3.72779,-0.0605407,0.47055,0,0,0,0,0,-0.707066,-0.0605407,267,-55,267,-55,391,-52,265,63,-0.146087,-0.261799,0,-1.5,-nan,0,0,0,-0.684333,-0.0174965,0,0,0,0,-0.0542362,0.193558,15876,-0.682164,-0.0252387,-0.0542362,0.193558,14320,0.342167,0.0162721,0.00874825,-0.154835
14356,-3.21252e-12,3.01002e-38,-1.55831e-06,-3.27827e-12,3.00978e-38,0,-1.06649e-13,0,0,-3.68258,-0.0524472,0.465183,0,0,0,0,0,-0.645128,-0.0524472,267,-57,267,-57,391,-56,262,63,-0.149256,-0.261799,0,-1.5,-nan,0,0,0,-0.681046,-0.0144291,0,0,0,0,-0.0420298,0.195603,16125,-0.680457,-0.0171674,-0.0420298,0.195603,14344,0.340523,0.0126153,0.00721454,-0.156471
14383,-3.21252e-12,3.01002e-38,-1.55831e-06,-3.27827e-12,3.00978e-38,0,-1.06649e-13,0,0,-3.72186,-0.0654626,0.473638,0,0,0,0,0,-0.698946,-0.0654626,269,-58,269,-58,391,-52,265,63,-0.299733,-0.261799,0,-1.5,-nan,0,0,0,-0.687025,-0.00786007,0,0,0,0,-0.0524044,0.199241,16254,-0.686658,-0.00925476,-0.0524044,0.199241,14378,0.343513,0.220232,0.00393004,-0.303663
14401,-3.21252e-12,3.01002e-38,-1.55831e-06,-3.27827e-12,3.00978e-38,0,-1.06649e-13,0,0,-3.72186,-0.0654626,0.473638,0,0,0,0,0,-0.698946,-0.0654626,269,-58,269,-58,391,-52,265,63,-0.157245,-0.261799,0,-1.5,-nan,0,0,0,-0.687968,-0.0042738,0,0,0,0,-0.0524044,0.199241,16254,-0.686658,-0.00925476,-0.0524044,0.199241,14378,0.343984,0.0157267,0.0021369,-0.159382
14568,-3.21252e-12,3.01002e-38,-1.55831e-06,-3.27827e-12,3.00978e-38,0,-1.0665e-13,0,0,-3.689,-0.0643521,0.461246,0,0,0,0,0,-0.653928,-0.0643521,269,-58,269,-58,391,-56,265,63,-0.183707,-0.261799,0,-1.5,-nan,0,0,0,-0.693186,0.0314519,0,0,0,0,-0.0473008,0.20999,16380,-0.685287,-0.00361634,-0.0473008,0.20999,14446,0.346593,0.0141889,-0.0157259,-0.167981
14588,-3.21252e-12,3.01002e-38,-1.55831e-06,-3.27827e-12,3.00978e-38,0,-1.0665e-13,0,0,-3.689,-0.0643521,0.461246,0,0,0,0,0,-0.653928,-0.0643521,269,-58,269,-58,391,-56,265,63,0.436332,0.261799,0,-1.5,-nan,0,0,0,-0.65336,0.0222084,0,0,0,0,0.015035,0.196708,16380,-0.65348,0.0206348,0.015035,0.196708,14582,0.32668,-1.51475,-0.0111042,1.17633
14605,-3.21252e-12,3.01002e-38,-1.55831e-06,-3.27827e-12,3.00978e-38,0,-1.0665e-13,0,0,-3.689,-0.0643521,0.461246,0,0,0,0,0,-0.653928,-0.0643521,269,-58,269,-58,391,-56,265,63,-0.170033,-0.261799,0,-1.5,-nan,0,0,0,-0.653119,0.0253556,0,0,0,0,0.015035,0.196708,16380,-0.65348,0.0206348,0.015035,0.196708,14582,0.32656,-0.00451505,-0.0126778,-0.157355
14627,-3.21252e-12,3.01002e-38,-1.55831e-06,-3.27827e-12,3.00978e-38,0,-1.0665e-13,0,0,-3.74632,-0.0635302,0.499555,0,0,0,0,0,-0.73246,-0.0635302,269,-58,269,-58,391,-52,264,61,-0.155854,-0.261799,0,-1.5,-nan,0,0,0,-0.677095,0.016562,0,0,0,0,-0.00206174,0.18448,16002,-0.677066,0.0139793,-0.00206174,0.18448,14615,0.338547,0.000616908,-0.00828099,-0.147573
14648,-3.21252e-12,3.01002e-38,-1.55831e-06,-3.27827e-12,3.00978e-38,0,-1.06651e-13,0,0,-3.74632,-0.0635302,0.499555,0,0,0,0,0,-0.73246,-0.0635302,269,-58,269,-58,391,-52,264,61,-0.157792,-0.261799,0,-1.5,-nan,0,0,0,-0.677138,0.0204359,0,0,0,0,-0.00206174,0.18448,16002,-0.677066,0.0139793,-0.00206174,0.18448,14615,0.338569,0.000625849,-0.010218,-0.147574
14665,-3.21252e-12,3.01002e-38,-1.55831e-06,-3.27827e-12,3.00978e-38,0,-1.06651e-13,0,0,-3.74632,-0.0635302,0.499555,0,0,0,0,0,-0.73246,-0.0635302,269,-58,269,-58,391,-52,264,61,-0.159359,-0.261799,0,-1.5,-nan,0,0,0,-0.677173,0.023572,0,0,0,0,-0.00206174,0.18448,16002,-0.677066,0.0139793,-0.00206174,0.18448,14615,0.338587,0.000619888,-0.011786,-0.147573
14687,-3.21252e-12,3.01002e-38,-1.55831e-06,-3.27827e-12,3.00978e-38,0,-1.06651e-13,0,0,-3.72641,-0.0660822,0.496714,0,0,0,0,0,-0.705187,-0.0660822,269,-62,269,-62,391,-52,265,61,-0.0811271,-0.261799,0,-1.5,-nan,0,0,0,-0.675573,-0.0150346,0,0,0,0,0.00346169,0.110814,16380,-0.675611,-0.0162535,0.00346169,0.110814,14678,0.337787,-0.00103712,0.00751732,-0.0886444
14708,-3.21252e-12,3.01002e-38,-1.55831e-06,-3.27827e-12,3.00978e-38,0,-1.06652e-13,0,0,-3.72641,-0.0660822,0.496714,0,0,0,0,0,-0.705187,-0.0660822,269,-62,269,-62,391,-52,265,61,-0.0822906,-0.261799,0,-1.5,-nan,0,0,0,-0.675501,-0.0127076,0,0,0,0,0.00346169,0.110814,16380,-0.675611,-0.0162535,0.00346169,0.110814,14678,0.33775,-0.00103712,0.00635381,-0.0886444
14731,-3.21252e-12,3.01002e-38,-1.55831e-06,-3.27827e-12,3.00978e-38,0,-1.06652e-13,0,0,-3.74039,-0.0683142,0.488886,0,0,0,0,0,-0.724332,-0.0683142,270,-58,270,-58,391,-52,265,61,-0.0162146,-0.261799,0,-1.5,-nan,0,0,0,-0.707771,-0.0406849,0,0,0,0,-0.0477156,0.0457009,16254,-0.706674,-0.041736,-0.0477156,0.0457009,14717,0.353886,0.0143141,0.0203424,-0.036557
14754,-3.21252e-12,3.01002e-38,-1.55831e-06,-3.27827e-12,3.00978e-38,0,-1.06652e-13,0,0,-3.72441,-0.0643778,0.488839,0,0,0,0,0,-0.702435,-0.0643778,270,-57,270,-57,391,-56,264,63,0.0259815,-0.261799,0,-1.5,-nan,0,0,0,-0.70316,-0.0602301,0,0,0,0,-0.0442227,0.00516707,15875,-0.702674,-0.0602869,-0.0442227,0.00516707,14744,0.35158,0.013268,0.0301151,-0.00413358
14770,-3.21252e-12,3.01002e-38,-1.55831e-06,-3.27827e-12,3.00978e-38,0,-1.06652e-13,0,0,-3.72441,-0.0643778,0.488839,0,0,0,0,0,-0.702435,-0.0643778,270,-57,270,-57,391,-56,264,63,0.0259376,-0.261799,0,-1.5,-nan,0,0,0,-0.703912,-0.0601423,0,0,0,0,-0.0442227,0.00516707,15875,-0.702674,-0.0602869,-0.0442227,0.00516707,14744,0.351956,0.0132591,0.0300711,-0.00413358
14794,-3.21252e-12,3.01002e-38,-1.55831e-06,-3.27827e-12,3.00978e-38,0,-1.06653e-13,0,0,-3.67589,-0.0525105,0.463501,0,0,0,0,0,-0.635965,-0.0525105,267,-58,267,-58,391,-56,262,63,0.0298016,-0.261799,0,-1.5,-nan,0,0,0,-0.707902,-0.0626491,0,0,0,0,-0.0513059,0.00190391,16254,-0.706671,-0.0626948,-0.0513059,0.00190391,14780,0.353951,0.0153959,0.0313245,-0.0015229
14809,-3.21252e-12,3.01002e-38,-1.55831e-06,-3.27827e-12,3.00978e-38,0,-1.06653e-13,0,0,-3.67589,-0.0525105,0.463501,0,0,0,0,0,-0.635965,-0.0525105,267,-58,267,-58,391,-56,262,63,0.0297874,-0.261799,0,-1.5,-nan,0,0,0,-0.708672,-0.0626205,0,0,0,0,-0.0513059,0.00190391,16254,-0.706671,-0.0626948,-0.0513059,0.00190391,14780,0.354336,0.0153959,0.0313103,-0.0015229
14831,-3.21252e-12,3.01002e-38,-1.55831e-06,-3.27827e-12,3.00978e-38,0,-1.06653e-13,0,0,-3.72641,-0.0660822,0.496714,0,0,0,0,0,-0.705187,-0.0660822,269,-62,269,-62,391,-52,265,61,0.0447631,-0.261799,0,-1.5,-nan,0,0,0,-0.705711,-0.0675917,0,0,0,0,-0.0437001,-0.0137069,16380,-0.70475,-0.0672901,-0.0437001,-0.0137069,14817,0.352856,0.0131071,0.0337958,0.0109673
14858,-3.21253e-12,3.00556e-38,3.01017e-38,-3.27827e-12,3.00978e-38,0,-1.06653e-13,0,0,-3.66056,-0.0572219,0.445339,0,0,0,0,0,-0.614964,-0.0572219,269,-58,269,-58,391,-56,262,63,0.0392747,-0.261799,0,-1.5,-nan,0,0,0,-0.696777,-0.0647212,0,0,0,0,-0.0235223,-0.00864368,16770,-0.696142,-0.0644878,-0.0235223,-0.00864368,14844,0.348389,0.00705421,0.0323606,0.00691414
14875,-3.21252e-12,3.01002e-38,-1.55831e-06,-3.27827e-12,3.00978e-38,0,-1.06654e-13,0,0,-3.66056,-0.0572219,0.445339,0,0,0,0,0,-0.614964,-0.0572219,269,-58,269,-58,391,-56,262,63,0.0393482,-0.261799,0,-1.5,-nan,0,0,0,-0.697177,-0.0648681,0,0,0,0,-0.0235223,-0.00864368,16770,-0.696142,-0.0644878,-0.0235223,-0.00864368,14844,0.348589,0.00706315,0.032434,0.00691414
14920,-3.21252e-12,3.01002e-38,-1.55831e-06,-3.27827e-12,3.00978e-38,0,-1.06654e-13,0,0,-3.71601,-0.0600756,0.490888,0,0,0,0,0,-0.690934,-0.0600756,267,-58,267,-58,391,-56,265,61,0.0435709,-0.261799,0,-1.5,-nan,0,0,0,-0.710708,-0.0667511,0,0,0,0,-0.0504428,-0.0127432,15876,-0.710103,-0.0665982,-0.0504428,-0.0127432,14910,0.355354,0.0151277,0.0333755,0.0101954
