timestamp,A_x,A_y,A_z,P,Q,R,Phi,Theta,Psi,poseX,poseY,poseZ,state_X,state_Y,state_Z,state_VzB,state_Bx,state_By,state_Bz,p1_x,p1_y,p2_x,p2_y,p3_x,p3_y,p4_x,p4_y,roll,pitch,yaw,alt,targetHeading,highLevelState,lowLevelState,gateNumber,filtered_x,filtered_y
10,0,0,0,0,0,0,0,0,0,0,0,0,0,0,0,0,0,0,0,0,0,0,0,0,0,0,0,0,-0.261799,-0.00623302,-1.5,nan,0,0,0,0,0
20,0,0,0,0,0,0,0,0,0,0,0,0,0,0,0,0,0,0,0,0,0,0,0,0,0,0,0,0,-0.261799,-0.00496845,-1.5,nan,0,0,0,0,0
30,-3.34121e-12,0,-1.60441e-06,-3.40794e-12,0,-3.92437e-12,-1.13703e-13,0,0,0,0,0,0,0,0,0,0,0,0,0,0,0,0,0,0,0,0,0,-0.261799,0.00605071,-1.5,nan,0,0,0,0,0
40,-3.34121e-12,0,-1.60441e-06,-3.40794e-12,0,0,-1.13703e-13,0,0,0,0,0,0,0,0,0,0,0,0,0,0,0,0,0,0,0,0,0,-0.261799,0.00589494,-1.5,nan,0,0,0,0,0
50,-3.34121e-12,0,-1.60441e-06,-3.40794e-12,0,-3.92437e-12,-1.13704e-13,0,0,0,0,0,0,0,0,0,0,0,0,0,0,0,0,0,0,0,0,0,-0.261799,0.00566196,-1.5,nan,0,0,0,0,0
60,-3.34121e-12,0,-1.60441e-06,-3.40794e-12,0,0,-1.13704e-13,0,0,0,0,0,0,0,0,0,0,0,0,0,0,0,0,0,0,0,0,0,-0.261799,0.00543818,-1.5,nan,0,0,0,0,0
70,-3.34121e-12,0,-1.60441e-06,-3.40794e-12,0,-3.92437e-12,-1.13705e-13,0,0,0,0,0,0,0,0,0,0,0,0,0,0,0,0,0,0,0,0,0,-0.261799,0.00520184,-1.5,nan,0,0,0,0,0
80,-3.34121e-12,0,-1.60441e-06,-3.40794e-12,0,0,-1.13705e-13,0,0,0,0,0,0,0,0,0,0,0,0,0,0,0,0,0,0,0,0,0,-0.261799,0.00499625,-1.5,nan,0,0,0,0,0
90,-3.34121e-12,0,-1.60441e-06,-3.40794e-12,0,-3.92437e-12,-1.13706e-13,0,0,0,0,0,0,0,0,0,0,0,0,0,0,0,0,0,0,0,0,0,-0.261799,0.00472045,-1.5,nan,0,0,0,0,0
100,-3.34121e-12,0,-1.60441e-06,-3.40794e-12,0,0,-1.13706e-13,0,0,0,0,0,0,0,0,0,0,0,0,0,0,0,0,0,0,0,0,0,-0.261799,0.00456176,-1.5,nan,0,0,0,0,0
110,-3.34121e-12,0,-1.60441e-06,-3.40794e-12,0,-3.92437e-12,-1.13707e-13,0,0,0,0,0,0,0,0,0,0,0,0,0,0,0,0,0,0,0,0,0,-0.261799,0.00435453,-1.5,nan,0,0,0,0,0
120,-3.34121e-12,0,-1.60441e-06,-3.40794e-12,0,0,-1.13708e-13,0,0,0,0,0,0,0,0,0,0,0,0,0,0,0,0,0,0,0,0,0,-0.261799,0.00418243,-1.5,nan,0,0,0,0,0
130,-3.34121e-12,0,-1.60441e-06,-3.40794e-12,0,-3.92437e-12,-1.13708e-13,0,0,0,0,0,0,0,0,0,0,0,0,0,0,0,0,0,0,0,0,0,-0.261799,0.00399263,-1.5,nan,0,0,0,0,0
140,-3.34121e-12,0,-1.60441e-06,-3.40794e-12,0,0,-1.13709e-13,0,0,0,0,0,0,0,0,0,0,0,0,0,0,0,0,0,0,0,0,0,-0.261799,0.00383484,-1.5,nan,0,0,0,0,0
150,-3.34121e-12,0,-1.60441e-06,-3.40794e-12,0,-3.92437e-12,-1.13709e-13,0,0,0,0,0,0,0,0,0,0,0,0,0,0,0,0,0,0,0,0,0,-0.261799,0.00366818,-1.5,nan,0,0,0,0,0
160,-3.34121e-12,0,-1.60441e-06,-3.40794e-12,0,0,-1.1371e-13,0,0,0,0,0,0,0,0,0,0,0,0,0,0,0,0,0,0,0,0,0,-0.261799,0.00351613,-1.5,nan,0,0,0,0,0
170,-3.34121e-12,0,-1.60441e-06,-3.40794e-12,0,-3.92437e-12,-1.1371e-13,0,0,0,0,0,0,0,0,0,0,0,0,0,0,0,0,0,0,0,0,0,-0.261799,0.00337024,-1.5,nan,0,0,0,0,0
180,-3.34121e-12,0,-1.60441e-06,-3.40794e-12,0,0,-1.13711e-13,0,0,0,0,0,0,0,0,0,0,0,0,0,0,0,0,0,0,0,0,0,-0.261799,0.00323704,-1.5,nan,0,0,0,0,0
190,-3.34121e-12,0,-1.60441e-06,-3.40794e-12,0,-3.92437e-12,-1.13711e-13,0,0,0,0,0,0,0,0,0,0,0,0,0,0,0,0,0,0,0,0,0,-0.261799,0.00309636,-1.5,nan,0,0,0,0,0
200,-3.34121e-12,0,-1.60441e-06,-3.40794e-12,0,0,-1.13712e-13,0,0,0,0,0,0,0,0,0,0,0,0,0,0,0,0,0,0,0,0,0,-0.261799,0.00296801,-1.5,nan,0,0,0,0,0
210,-3.34121e-12,0,-1.60441e-06,-3.40794e-12,0,-3.92437e-12,-1.13712e-13,0,0,0,0,0,0,0,0,0,0,0,0,0,0,0,0,0,0,0,0,0,-0.261799,0.00283903,-1.5,nan,0,0,0,0,0
220,-3.34121e-12,0,-1.60441e-06,-3.40794e-12,0,0,-1.13713e-13,0,0,0,0,0,0,0,0,0,0,0,0,0,0,0,0,0,0,0,0,0,-0.261799,0.00272682,-1.5,nan,0,0,0,0,0
230,-3.34121e-12,0,-1.60441e-06,-3.40794e-12,0,-3.92437e-12,-1.13714e-13,0,0,0,0,0,0,0,0,0,0,0,0,0,0,0,0,0,0,0,0,0,-0.261799,0.00260832,-1.5,nan,0,0,0,0,0
240,-3.34121e-12,0,-1.60441e-06,-3.40794e-12,0,0,-1.13714e-13,0,0,0,0,0,0,0,0,0,0,0,0,0,0,0,0,0,0,0,0,0,-0.261799,0.0025002,-1.5,nan,0,0,0,0,0
250,-3.34121e-12,0,-1.60441e-06,-3.40794e-12,0,-3.92437e-12,-1.13715e-13,0,0,0,0,0,0,0,0,0,0,0,0,0,0,0,0,0,0,0,0,0,-0.261799,0.00239165,-1.5,nan,0,0,0,0,0
260,-3.34121e-12,0,-1.60441e-06,-3.40794e-12,0,0,-1.13715e-13,0,0,0,0,0,0,0,0,0,0,0,0,0,0,0,0,0,0,0,0,0,-0.261799,0.00229721,-1.5,nan,0,0,0,0,0
270,-3.34121e-12,0,-1.60441e-06,-3.40794e-12,0,-3.92437e-12,-1.13716e-13,0,0,0,0,0,0,0,0,0,0,0,0,0,0,0,0,0,0,0,0,0,-0.261799,0.00219738,-1.5,nan,0,0,0,0,0
280,-3.34121e-12,0,-1.60441e-06,-3.40794e-12,0,0,-1.13716e-13,0,0,0,0,0,0,0,0,0,0,0,0,0,0,0,0,0,0,0,0,0,-0.261799,0.00212351,-1.5,nan,0,0,0,0,0
290,-3.34121e-12,0,-1.60441e-06,-3.40794e-12,0,-3.92437e-12,-1.13717e-13,0,0,0,0,0,0,0,0,0,0,0,0,0,0,0,0,0,0,0,0,0,-0.261799,0.00203958,-1.5,nan,0,0,0,0,0
300,-3.34121e-12,0,-1.60441e-06,-3.40794e-12,0,0,-1.13717e-13,0,0,0,0,0,0,0,0,0,0,0,0,0,0,0,0,0,0,0,0,0,-0.261799,0.00197101,-1.5,nan,0,0,0,0,0
310,-3.34121e-12,0,-1.60441e-06,-3.40794e-12,0,-3.92437e-12,-1.13718e-13,0,0,0,0,0,0,0,0,0,0,0,0,0,0,0,0,0,0,0,0,0,-0.261799,0.00190863,-1.5,nan,0,0,0,0,0
320,-3.34121e-12,0,-1.60441e-06,-3.40794e-12,0,0,-1.13718e-13,0,0,0,0,0,0,0,0,0,0,0,0,0,0,0,0,0,0,0,0,0,-0.261799,0.00182944,-1.5,nan,0,0,0,0,0
330,-3.34121e-12,0,-1.60441e-06,-3.40794e-12,0,-3.92437e-12,-1.13719e-13,0,0,0,0,0,0,0,0,0,0,0,0,0,0,0,0,0,0,0,0,0,-0.261799,0.00174994,-1.5,nan,0,0,0,0,0
340,-3.34121e-12,0,-1.60441e-06,-3.40794e-12,0,0,-1.13719e-13,0,0,0,0,0,0,0,0,0,0,0,0,0,0,0,0,0,0,0,0,0,-0.261799,0.00167396,-1.5,nan,0,0,0,0,0
350,-3.34121e-12,0,-1.60441e-06,-3.40794e-12,0,-3.92437e-12,-1.1372e-13,0,0,0,0,0,0,0,0,0,0,0,0,0,0,0,0,0,0,0,0,0,-0.261799,0.00160451,-1.5,nan,0,0,0,0,0
360,-3.34121e-12,0,-1.60441e-06,-3.40794e-12,0,0,-1.13721e-13,0,0,0,0,0,0,0,0,0,0,0,0,0,0,0,0,0,0,0,0,0,-0.261799,0.00153485,-1.5,nan,0,0,0,0,0
370,-3.34121e-12,0,-1.60441e-06,-3.40794e-12,0,-3.92437e-12,-1.13721e-13,0,0,0,0,0,0,0,0,0,0,0,0,0,0,0,0,0,0,0,0,0,-0.261799,0.00147116,-1.5,nan,0,0,0,0,0
380,-3.34121e-12,0,-1.60441e-06,-3.40794e-12,0,0,-1.13722e-13,0,0,0,0,0,0,0,0,0,0,0,0,0,0,0,0,0,0,0,0,0,-0.261799,0.00141013,-1.5,nan,0,0,0,0,0
390,-3.34121e-12,0,-1.60441e-06,-3.40794e-12,0,-3.92437e-12,-1.13722e-13,0,0,0,0,0,0,0,0,0,0,0,0,0,0,0,0,0,0,0,0,0,-0.261799,0.00134884,-1.5,nan,0,0,0,0,0
400,-3.34121e-12,0,-1.60441e-06,-3.40794e-12,0,0,-1.13723e-13,0,0,0,0,0,0,0,0,0,0,0,0,0,0,0,0,0,0,0,0,0,-0.261799,0.00128763,-1.5,nan,0,0,0,0,0
410,-3.34121e-12,0,-1.60441e-06,-3.40794e-12,0,-3.92437e-12,-1.13723e-13,0,0,0,0,0,0,0,0,0,0,0,0,0,0,0,0,0,0,0,0,0,-0.261799,0.00123421,-1.5,nan,0,0,0,0,0
420,-3.34121e-12,0,-1.60441e-06,-3.40794e-12,0,0,-1.13724e-13,0,0,0,0,0,0,0,0,0,0,0,0,0,0,0,0,0,0,0,0,0,-0.261799,0.00118062,-1.5,nan,0,0,0,0,0
430,-3.34121e-12,0,-1.60441e-06,-3.40794e-12,0,-3.92437e-12,-1.13724e-13,0,0,0,0,0,0,0,0,0,0,0,0,0,0,0,0,0,0,0,0,0,-0.261799,0.00113164,-1.5,nan,0,0,0,0,0
440,-3.34121e-12,0,-1.60441e-06,-3.40794e-12,0,0,-1.13725e-13,0,0,0,0,0,0,0,0,0,0,0,0,0,0,0,0,0,0,0,0,0,-0.261799,0.00108251,-1.5,nan,0,0,0,0,0
450,-3.34121e-12,0,-1.60441e-06,-3.40794e-12,0,-3.92437e-12,-1.13725e-13,0,0,0,0,0,0,0,0,0,0,0,0,0,0,0,0,0,0,0,0,0,-0.261799,0.00103551,-1.5,nan,0,0,0,0,0
460,-3.34121e-12,0,-1.60441e-06,-3.40794e-12,0,0,-1.13726e-13,0,0,0,0,0,0,0,0,0,0,0,0,0,0,0,0,0,0,0,0,0,-0.261799,0.000992587,-1.5,nan,0,0,0,0,0
470,-3.34121e-12,0,-1.60441e-06,-3.40794e-12,0,-3.92437e-12,-1.13727e-13,0,0,0,0,0,0,0,0,0,0,0,0,0,0,0,0,0,0,0,0,0,-0.261799,0.000949494,-1.5,nan,0,0,0,0,0
480,-3.34121e-12,0,-1.60441e-06,-3.40794e-12,0,0,-1.13727e-13,0,0,0,0,0,0,0,0,0,0,0,0,0,0,0,0,0,0,0,0,0,-0.261799,0.000908271,-1.5,nan,0,0,0,0,0
490,-3.34121e-12,0,-1.60441e-06,-3.40794e-12,0,-3.92437e-12,-1.13728e-13,0,0,0,0,0,0,0,0,0,0,0,0,0,0,0,0,0,0,0,0,0,-0.261799,0.000870622,-1.5,nan,0,0,0,0,0
500,-3.34121e-12,0,-1.60441e-06,-3.40794e-12,0,0,-1.13728e-13,0,0,0,0,0,0,0,0,0,0,0,0,0,0,0,0,0,0,0,0,0,-0.261799,0.000834499,-1.5,nan,0,0,0,0,0
510,-3.34121e-12,0,-1.60441e-06,-3.40794e-12,0,-3.92437e-12,-1.13729e-13,0,0,0,0,0,0,0,0,0,0,0,0,0,0,0,0,0,0,0,0,0,-0.261799,0.000798233,-1.5,nan,0,0,0,0,0
520,-3.34121e-12,0,-1.60441e-06,-3.40794e-12,0,0,-1.13729e-13,0,0,0,0,0,0,0,0,0,0,0,0,0,0,0,0,0,0,0,0,0,-0.261799,0.000765114,-1.5,nan,0,0,0,0,0
530,-3.34121e-12,0,-1.60441e-06,-3.40794e-12,0,-3.92437e-12,-1.1373e-13,0,0,0,0,0,0,0,0,0,0,0,0,0,0,0,0,0,0,0,0,0,-0.261799,0.000724333,-1.5,nan,0,0,0,0,0
540,-3.34121e-12,0,-1.60441e-06,-3.40794e-12,0,0,-1.1373e-13,0,0,0,0,0,0,0,0,0,0,0,0,0,0,0,0,0,0,0,0,0,-0.261799,0.000690003,-1.5,nan,0,0,0,0,0
550,-3.34121e-12,0,-1.60441e-06,-3.40794e-12,0,-3.92437e-12,-1.13731e-13,0,0,0,0,0,0,0,0,0,0,0,0,0,0,0,0,0,0,0,0,0,-0.261799,0.000673597,-1.5,nan,0,0,0,0,0
560,-3.34121e-12,0,-1.60441e-06,-3.40794e-12,0,0,-1.13731e-13,0,0,0,0,0,0,0,0,0,0,0,0,0,0,0,0,0,0,0,0,0,-0.261799,0.000654929,-1.5,nan,0,0,0,0,0
570,-3.34121e-12,0,-1.60441e-06,-3.40794e-12,0,-3.92437e-12,-1.13732e-13,0,0,0,0,0,0,0,0,0,0,0,0,0,0,0,0,0,0,0,0,0,-0.261799,0.000603264,-1.5,nan,0,0,0,0,0
580,-3.34121e-12,0,-1.60441e-06,-3.40794e-12,0,0,-1.13732e-13,0,0,0,0,0,0,0,0,0,0,0,0,0,0,0,0,0,0,0,0,0,-0.261799,0.000582984,-1.5,nan,0,0,0,0,0
590,-3.34121e-12,0,-1.60441e-06,-3.40794e-12,0,-3.92437e-12,-1.13733e-13,0,0,0,0,0,0,0,0,0,0,0,0,0,0,0,0,0,0,0,0,0,-0.261799,0.000564532,-1.5,nan,0,0,0,0,0
600,-3.34121e-12,0,-1.60441e-06,-3.40794e-12,0,0,-1.13734e-13,0,0,0,0,0,0,0,0,0,0,0,0,0,0,0,0,0,0,0,0,0,-0.261799,0.000539999,-1.5,nan,0,0,0,0,0
610,-3.34121e-12,0,-1.60441e-06,-3.40794e-12,0,-3.92437e-12,-1.13734e-13,0,0,0,0,0,0,0,0,0,0,0,0,0,0,0,0,0,0,0,0,0,-0.261799,0.000517594,-1.5,nan,0,0,0,0,0
620,-3.34121e-12,0,-1.60441e-06,-3.40794e-12,0,0,-1.13735e-13,0,0,0,0,0,0,0,0,0,0,0,0,0,0,0,0,0,0,0,0,0,-0.261799,0.000494081,-1.5,nan,0,0,0,0,0
630,-3.34121e-12,0,-1.60441e-06,-3.40794e-12,0,-3.92437e-12,-1.13735e-13,0,0,0,0,0,0,0,0,0,0,0,0,0,0,0,0,0,0,0,0,0,-0.261799,0.000474553,-1.5,nan,0,0,0,0,0
640,-3.34121e-12,0,-1.60441e-06,-3.40794e-12,0,0,-1.13736e-13,0,0,0,0,0,0,0,0,0,0,0,0,0,0,0,0,0,0,0,0,0,-0.261799,0.000452996,-1.5,nan,0,0,0,0,0
650,-3.34121e-12,0,-1.60441e-06,-3.40794e-12,0,-3.92437e-12,-1.13736e-13,0,0,0,0,0,0,0,0,0,0,0,0,0,0,0,0,0,0,0,0,0,-0.261799,0.000434219,-1.5,nan,0,0,0,0,0
660,-3.34121e-12,0,-1.60441e-06,-3.40794e-12,0,0,-1.13737e-13,0,0,0,0,0,0,0,0,0,0,0,0,0,0,0,0,0,0,0,0,0,-0.261799,0.000415348,-1.5,nan,0,0,0,0,0
670,-3.34121e-12,0,-1.60441e-06,-3.40794e-12,0,-3.92437e-12,-1.13737e-13,0,0,0,0,0,0,0,0,0,0,0,0,0,0,0,0,0,0,0,0,0,-0.261799,0.000398131,-1.5,nan,0,0,0,0,0
680,-3.34121e-12,0,-1.60441e-06,-3.40794e-12,0,0,-1.13738e-13,0,0,0,0,0,0,0,0,0,0,0,0,0,0,0,0,0,0,0,0,0,-0.261799,0.000380829,-1.5,nan,0,0,0,0,0
690,-3.34121e-12,0,-1.60441e-06,-3.40794e-12,0,-3.92437e-12,-1.13738e-13,0,0,0,0,0,0,0,0,0,0,0,0,0,0,0,0,0,0,0,0,0,-0.261799,0.000365043,-1.5,nan,0,0,0,0,0
700,-3.34121e-12,0,-1.60441e-06,-3.40794e-12,0,0,-1.13739e-13,0,0,0,0,0,0,0,0,0,0,0,0,0,0,0,0,0,0,0,0,0,-0.261799,0.000349179,-1.5,nan,0,0,0,0,0
710,-3.34121e-12,0,-1.60441e-06,-3.40794e-12,0,-3.92437e-12,-1.1374e-13,0,0,0,0,0,0,0,0,0,0,0,0,0,0,0,0,0,0,0,0,0,-0.261799,0.000334705,-1.5,nan,0,0,0,0,0
720,-3.34121e-12,0,-1.60441e-06,-3.40794e-12,0,0,-1.1374e-13,0,0,0,0,0,0,0,0,0,0,0,0,0,0,0,0,0,0,0,0,0,-0.261799,0.000320159,-1.5,nan,0,0,0,0,0
730,-3.34121e-12,0,-1.60441e-06,-3.40794e-12,0,-3.92437e-12,-1.13741e-13,0,0,0,0,0,0,0,0,0,0,0,0,0,0,0,0,0,0,0,0,0,-0.261799,0.000306888,-1.5,nan,0,0,0,0,0
740,-3.34121e-12,0,-1.60441e-06,-3.40794e-12,0,0,-1.13741e-13,0,0,0,0,0,0,0,0,0,0,0,0,0,0,0,0,0,0,0,0,0,-0.261799,0.000293551,-1.5,nan,0,0,0,0,0
750,-3.34121e-12,0,-1.60441e-06,-3.40794e-12,0,-3.92437e-12,-1.13742e-13,0,0,0,0,0,0,0,0,0,0,0,0,0,0,0,0,0,0,0,0,0,-0.261799,0.000281949,-1.5,nan,0,0,0,0,0
760,-3.34121e-12,0,-1.60441e-06,-3.40794e-12,0,0,-1.13742e-13,0,0,0,0,0,0,0,0,0,0,0,0,0,0,0,0,0,0,0,0,0,-0.261799,0.000269141,-1.5,nan,0,0,0,0,0
770,-3.34121e-12,0,-1.60441e-06,-3.40794e-12,0,-3.92437e-12,-1.13743e-13,0,0,0,0,0,0,0,0,0,0,0,0,0,0,0,0,0,0,0,0,0,-0.261799,0.000258504,-1.5,nan,0,0,0,0,0
780,-3.34121e-12,0,-1.60441e-06,-3.40794e-12,0,0,-1.13743e-13,0,0,0,0,0,0,0,0,0,0,0,0,0,0,0,0,0,0,0,0,0,-0.261799,0.000246761,-1.5,nan,0,0,0,0,0
790,-3.34121e-12,0,-1.60441e-06,-3.40794e-12,0,-3.92437e-12,-1.13744e-13,0,0,0,0,0,0,0,0,0,0,0,0,0,0,0,0,0,0,0,0,0,-0.261799,0.000237008,-1.5,nan,0,0,0,0,0
800,-3.34121e-12,0,-1.60441e-06,-3.40794e-12,0,0,-1.13744e-13,0,0,0,0,0,0,0,0,0,0,0,0,0,0,0,0,0,0,0,0,0,-0.261799,0.000226253,-1.5,nan,0,0,0,0,0
810,-3.34121e-12,0,-1.60441e-06,-3.40794e-12,0,-3.92437e-12,-1.13745e-13,0,0,0,0,0,0,0,0,0,0,0,0,0,0,0,0,0,0,0,0,0,-0.261799,0.000217311,-1.5,nan,0,0,0,0,0
820,-3.34121e-12,0,-1.60441e-06,-3.40794e-12,0,0,-1.13745e-13,0,0,0,0,0,0,0,0,0,0,0,0,0,0,0,0,0,0,0,0,0,-0.261799,0.000207022,-1.5,nan,0,0,0,0,0
830,-3.34121e-12,0,-1.60441e-06,-3.40794e-12,0,-3.92437e-12,-1.13746e-13,0,0,0,0,0,0,0,0,0,0,0,0,0,0,0,0,0,0,0,0,0,-0.261799,0.00020047,-1.5,nan,0,0,0,0,0
840,-3.34121e-12,0,-1.60441e-06,-3.40794e-12,0,0,-1.13747e-13,0,0,0,0,0,0,0,0,0,0,0,0,0,0,0,0,0,0,0,0,0,-0.261799,0.000194125,-1.5,nan,0,0,0,0,0
850,-3.34121e-12,0,-1.60441e-06,-3.40794e-12,0,-3.92437e-12,-1.13747e-13,0,0,0,0,0,0,0,0,0,0,0,0,0,0,0,0,0,0,0,0,0,-0.261799,0.000187599,-1.5,nan,0,0,0,0,0
860,-3.34121e-12,0,-1.60441e-06,-3.40794e-12,0,0,-1.13748e-13,0,0,0,0,0,0,0,0,0,0,0,0,0,0,0,0,0,0,0,0,0,-0.261799,0.000181662,-1.5,nan,0,0,0,0,0
870,-3.34121e-12,0,-1.60441e-06,-3.40794e-12,0,-3.92437e-12,-1.13748e-13,0,0,0,0,0,0,0,0,0,0,0,0,0,0,0,0,0,0,0,0,0,-0.261799,0.000173767,-1.5,nan,0,0,0,0,0
880,-3.34121e-12,0,-1.60441e-06,-3.40794e-12,0,0,-1.13749e-13,0,0,0,0,0,0,0,0,0,0,0,0,0,0,0,0,0,0,0,0,0,-0.261799,0.000166557,-1.5,nan,0,0,0,0,0
890,-3.34121e-12,0,-1.60441e-06,-3.40794e-12,0,-3.92437e-12,-1.13749e-13,0,0,0,0,0,0,0,0,0,0,0,0,0,0,0,0,0,0,0,0,0,-0.261799,0.000158999,-1.5,nan,0,0,0,0,0
900,-3.34121e-12,0,-1.60441e-06,-3.40794e-12,0,0,-1.1375e-13,0,0,0,0,0,0,0,0,0,0,0,0,0,0,0,0,0,0,0,0,0,-0.261799,0.000153028,-1.5,nan,0,0,0,0,0
910,-3.34121e-12,0,-1.60441e-06,-3.40794e-12,0,-3.92437e-12,-1.1375e-13,0,0,0,0,0,0,0,0,0,0,0,0,0,0,0,0,0,0,0,0,0,-0.261799,0.000146083,-1.5,nan,0,0,0,0,0
920,-3.34121e-12,0,-1.60441e-06,-3.40794e-12,0,0,-1.13751e-13,0,0,0,0,0,0,0,0,0,0,0,0,0,0,0,0,0,0,0,0,0,-0.261799,0.000137446,-1.5,nan,0,0,0,0,0
930,-3.34121e-12,0,-1.60441e-06,-3.40794e-12,0,-3.92437e-12,-1.13751e-13,0,0,0,0,0,0,0,0,0,0,0,0,0,0,0,0,0,0,0,0,0,-0.261799,0.000131472,-1.5,nan,0,0,0,0,0
940,-3.34121e-12,0,-1.60441e-06,-3.40794e-12,0,0,-1.13752e-13,0,0,0,0,0,0,0,0,0,0,0,0,0,0,0,0,0,0,0,0,0,-0.261799,0.000126276,-1.5,nan,0,0,0,0,0
950,-3.34121e-12,0,-1.60441e-06,-3.40794e-12,0,-3.92437e-12,-1.13753e-13,0,0,0,0,0,0,0,0,0,0,0,0,0,0,0,0,0,0,0,0,0,-0.261799,0.00012054,-1.5,nan,0,0,0,0,0
960,-3.34121e-12,0,-1.60441e-06,-3.40794e-12,0,0,-1.13753e-13,0,0,0,0,0,0,0,0,0,0,0,0,0,0,0,0,0,0,0,0,0,-0.261799,0.000115776,-1.5,nan,0,0,0,0,0
970,-3.34121e-12,0,-1.60441e-06,-3.40794e-12,0,-3.92437e-12,-1.13754e-13,0,0,0,0,0,0,0,0,0,0,0,0,0,0,0,0,0,0,0,0,0,-0.261799,0.000110516,-1.5,nan,0,0,0,0,0
980,-3.34121e-12,0,-1.60441e-06,-3.40794e-12,0,0,-1.13754e-13,0,0,0,0,0,0,0,0,0,0,0,0,0,0,0,0,0,0,0,0,0,-0.261799,0.000105931,-1.5,nan,0,0,0,0,0
990,-3.34121e-12,0,-1.60441e-06,-3.40794e-12,0,-3.92437e-12,-1.13755e-13,0,0,0,0,0,0,0,0,0,0,0,0,0,0,0,0,0,0,0,0,0,-0.261799,0.000101327,-1.5,nan,0,0,0,0,0
1000,-3.34121e-12,0,-1.60441e-06,-3.40794e-12,0,0,-1.13755e-13,0,0,0,0,0,0,0,0,0,0,0,0,0,0,0,0,0,0,0,0,0,-0.261799,9.71272e-05,-1.5,nan,0,0,0,0,0
1010,-3.34121e-12,0,-1.60441e-06,-3.40794e-12,0,-3.92437e-12,-1.13756e-13,0,0,0,0,0,0,0,0,0,0,0,0,0,0,0,0,0,0,0,0,0,-0.261799,9.27196e-05,-1.5,nan,0,0,0,0,0
1020,-3.34121e-12,0,-1.60441e-06,-3.40794e-12,0,0,-1.13756e-13,0,0,0,0,0,0,0,0,0,0,0,0,0,0,0,0,0,0,0,0,0,-0.261799,8.43232e-05,-1.5,nan,0,0,0,0,0
1030,-3.34121e-12,0,-1.60441e-06,-3.40794e-12,0,-3.92437e-12,-1.13757e-13,0,0,0,0,0,0,0,0,0,0,0,0,0,0,0,0,0,0,0,0,0,-0.261799,7.8999e-05,-1.5,nan,0,0,0,0,0
1040,-3.34121e-12,0,-1.60441e-06,-3.40794e-12,0,0,-1.13757e-13,0,0,0,0,0,0,0,0,0,0,0,0,0,0,0,0,0,0,0,0,0,-0.261799,7.57212e-05,-1.5,nan,0,0,0,0,0
1050,-3.34121e-12,0,-1.60441e-06,-3.40794e-12,0,-3.92437e-12,-1.13758e-13,0,0,0,0,0,0,0,0,0,0,0,0,0,0,0,0,0,0,0,0,0,-0.261799,7.24305e-05,-1.5,nan,0,0,0,0,0
1060,-3.34121e-12,0,-1.60441e-06,-3.40794e-12,0,0,-1.13759e-13,0,0,0,0,0,0,0,0,0,0,0,0,0,0,0,0,0,0,0,0,0,-0.261799,6.94253e-05,-1.5,nan,0,0,0,0,0
1070,-3.34121e-12,0,-1.60441e-06,-3.40794e-12,0,-3.92437e-12,-1.13759e-13,0,0,0,0,0,0,0,0,0,0,0,0,0,0,0,0,0,0,0,0,0,-0.261799,6.64081e-05,-1.5,nan,0,0,0,0,0
1080,-3.34121e-12,0,-1.60441e-06,-3.40794e-12,0,0,-1.1376e-13,0,0,0,0,0,0,0,0,0,0,0,0,0,0,0,0,0,0,0,0,0,-0.261799,6.37835e-05,-1.5,nan,0,0,0,0,0
1090,-3.34121e-12,0,-1.60441e-06,-3.40794e-12,0,-3.92437e-12,-1.1376e-13,0,0,0,0,0,0,0,0,0,0,0,0,0,0,0,0,0,0,0,0,0,-0.261799,6.0886e-05,-1.5,nan,0,0,0,0,0
1100,-3.34121e-12,0,-1.60441e-06,-3.40794e-12,0,0,-1.13761e-13,0,0,0,0,0,0,0,0,0,0,0,0,0,0,0,0,0,0,0,0,0,-0.261799,5.84796e-05,-1.5,nan,0,0,0,0,0
1110,-3.34121e-12,0,-1.60441e-06,-3.40794e-12,0,-3.92437e-12,-1.13761e-13,0,0,0,0,0,0,0,0,0,0,0,0,0,0,0,0,0,0,0,0,0,-0.261799,5.66299e-05,-1.5,nan,0,0,0,0,0
1120,-3.34121e-12,0,-1.60441e-06,-3.40794e-12,0,0,-1.13762e-13,0,0,0,0,0,0,0,0,0,0,0,0,0,0,0,0,0,0,0,0,0,-0.261799,5.48376e-05,-1.5,nan,0,0,0,0,0
1130,-3.34121e-12,0,-1.60441e-06,-3.40794e-12,0,-3.92437e-12,-1.13762e-13,0,0,0,0,0,0,0,0,0,0,0,0,0,0,0,0,0,0,0,0,0,-0.261799,5.28861e-05,-1.5,nan,0,0,0,0,0
1140,-3.34121e-12,0,-1.60441e-06,-3.40794e-12,0,0,-1.13763e-13,0,0,0,0,0,0,0,0,0,0,0,0,0,0,0,0,0,0,0,0,0,-0.261799,5.04837e-05,-1.5,nan,0,0,0,0,0
1150,-3.34121e-12,0,-1.60441e-06,-3.40794e-12,0,-3.92437e-12,-1.13763e-13,0,0,0,0,0,0,0,0,0,0,0,0,0,0,0,0,0,0,0,0,0,-0.261799,4.84884e-05,-1.5,nan,0,0,0,0,0
1160,-3.34121e-12,0,-1.60441e-06,-3.40794e-12,0,0,-1.13764e-13,0,0,0,0,0,0,0,0,0,0,0,0,0,0,0,0,0,0,0,0,0,-0.261799,4.62857e-05,-1.5,nan,0,0,0,0,0
1170,-3.34121e-12,0,-1.60441e-06,-3.40794e-12,0,-3.92437e-12,-1.13764e-13,0,0,0,0,0,0,0,0,0,0,0,0,0,0,0,0,0,0,0,0,0,-0.261799,4.44564e-05,-1.5,nan,0,0,0,0,0
1180,-3.34121e-12,0,-1.60441e-06,-3.40794e-12,0,0,-1.13765e-13,0,0,0,0,0,0,0,0,0,0,0,0,0,0,0,0,0,0,0,0,0,-0.261799,4.2439e-05,-1.5,nan,0,0,0,0,0
1190,-3.34121e-12,0,-1.60441e-06,-3.40794e-12,0,-3.92437e-12,-1.13766e-13,0,0,0,0,0,0,0,0,0,0,0,0,0,0,0,0,0,0,0,0,0,-0.261799,4.07617e-05,-1.5,nan,0,0,0,0,0
1200,-3.34121e-12,0,-1.60441e-06,-3.40794e-12,0,0,-1.13766e-13,0,0,0,0,0,0,0,0,0,0,0,0,0,0,0,0,0,0,0,0,0,-0.261799,3.89902e-05,-1.5,nan,0,0,0,0,0
1210,-3.34121e-12,0,-1.60441e-06,-3.40794e-12,0,-3.92437e-12,-1.13767e-13,0,0,0,0,0,0,0,0,0,0,0,0,0,0,0,0,0,0,0,0,0,-0.261799,3.7374e-05,-1.5,nan,0,0,0,0,0
1220,-3.34121e-12,0,-1.60441e-06,-3.40794e-12,0,0,-1.13767e-13,0,0,0,0,0,0,0,0,0,0,0,0,0,0,0,0,0,0,0,0,0,-0.261799,3.57498e-05,-1.5,nan,0,0,0,0,0
1230,-3.34121e-12,0,-1.60441e-06,-3.40794e-12,0,-3.92437e-12,-1.13768e-13,0,0,0,0,0,0,0,0,0,0,0,0,0,0,0,0,0,0,0,0,0,-0.261799,3.43369e-05,-1.5,nan,0,0,0,0,0
1240,-3.34121e-12,0,-1.60441e-06,-3.40794e-12,0,0,-1.13768e-13,0,0,0,0,0,0,0,0,0,0,0,0,0,0,0,0,0,0,0,0,0,-0.261799,3.27771e-05,-1.5,nan,0,0,0,0,0
1250,-3.34121e-12,0,-1.60441e-06,-3.40794e-12,0,-3.92437e-12,-1.13769e-13,0,0,0,0,0,0,0,0,0,0,0,0,0,0,0,0,0,0,0,0,0,-0.261799,3.14184e-05,-1.5,nan,0,0,0,0,0
1260,-3.34121e-12,0,-1.60441e-06,-3.40794e-12,0,0,-1.13769e-13,0,0,0,0,0,0,0,0,0,0,0,0,0,0,0,0,0,0,0,0,0,-0.261799,3.00544e-05,-1.5,nan,0,0,0,0,0
1270,-3.34121e-12,0,-1.60441e-06,-3.40794e-12,0,-3.92437e-12,-1.1377e-13,0,0,0,0,0,0,0,0,0,0,0,0,0,0,0,0,0,0,0,0,0,-0.261799,2.88665e-05,-1.5,nan,0,0,0,0,0
1280,-3.34121e-12,0,-1.60441e-06,-3.40794e-12,0,0,-1.1377e-13,0,0,0,0,0,0,0,0,0,0,0,0,0,0,0,0,0,0,0,0,0,-0.261799,2.75552e-05,-1.5,nan,0,0,0,0,0
1290,-3.34121e-12,0,-1.60441e-06,-3.40794e-12,0,-3.92437e-12,-1.13771e-13,0,0,0,0,0,0,0,0,0,0,0,0,0,0,0,0,0,0,0,0,0,-0.261799,2.64662e-05,-1.5,nan,0,0,0,0,0
1300,-3.34121e-12,0,-1.60441e-06,-3.40794e-12,0,0,-1.13772e-13,0,0,0,0,0,0,0,0,0,0,0,0,0,0,0,0,0,0,0,0,0,-0.261799,2.52639e-05,-1.5,nan,0,0,0,0,0
1310,-3.34121e-12,0,-1.60441e-06,-3.40794e-12,0,-3.92437e-12,-1.13772e-13,0,0,0,0,0,0,0,0,0,0,0,0,0,0,0,0,0,0,0,0,0,-0.261799,2.42654e-05,-1.5,nan,0,0,0,0,0
1320,-3.34121e-12,0,-1.60441e-06,-3.40794e-12,0,0,-1.13773e-13,0,0,0,0,0,0,0,0,0,0,0,0,0,0,0,0,0,0,0,0,0,-0.261799,2.32108e-05,-1.5,nan,0,0,0,0,0
1330,-3.34121e-12,0,-1.60441e-06,-3.40794e-12,0,-3.92437e-12,-1.13773e-13,0,0,0,0,0,0,0,0,0,0,0,0,0,0,0,0,0,0,0,0,0,-0.261799,2.22478e-05,-1.5,nan,0,0,0,0,0
1340,-3.34121e-12,0,-1.60441e-06,-3.40794e-12,0,0,-1.13774e-13,0,0,0,0,0,0,0,0,0,0,0,0,0,0,0,0,0,0,0,0,0,-0.261799,2.12809e-05,-1.5,nan,0,0,0,0,0
1350,-3.34121e-12,0,-1.60441e-06,-3.40794e-12,0,-3.92437e-12,-1.13774e-13,0,0,0,0,0,0,0,0,0,0,0,0,0,0,0,0,0,0,0,0,0,-0.261799,2.03988e-05,-1.5,nan,0,0,0,0,0
1360,-3.34121e-12,0,-1.60441e-06,-3.40794e-12,0,0,-1.13775e-13,0,0,0,0,0,0,0,0,0,0,0,0,0,0,0,0,0,0,0,0,0,-0.261799,1.94731e-05,-1.5,nan,0,0,0,0,0
1370,-3.34121e-12,0,-1.60441e-06,-3.40794e-12,0,-3.92437e-12,-1.13775e-13,0,0,0,0,0,0,0,0,0,0,0,0,0,0,0,0,0,0,0,0,0,-0.261799,1.86659e-05,-1.5,nan,0,0,0,0,0
1380,-3.34121e-12,0,-1.60441e-06,-3.40794e-12,0,0,-1.13776e-13,0,0,0,0,0,0,0,0,0,0,0,0,0,0,0,0,0,0,0,0,0,-0.261799,1.80755e-05,-1.5,nan,0,0,0,0,0
1390,-3.34121e-12,0,-1.60441e-06,-3.40794e-12,0,-3.92437e-12,-1.13776e-13,0,0,0,0,0,0,0,0,0,0,0,0,0,0,0,0,0,0,0,0,0,-0.261799,1.75034e-05,-1.5,nan,0,0,0,0,0
1400,-3.34121e-12,0,-1.60441e-06,-3.40794e-12,0,0,-1.13777e-13,0,0,0,0,0,0,0,0,0,0,0,0,0,0,0,0,0,0,0,0,0,-0.261799,1.69495e-05,-1.5,nan,0,0,0,0,0
1410,-3.34121e-12,0,-1.60441e-06,-3.40794e-12,0,-3.92437e-12,-1.13777e-13,0,0,0,0,0,0,0,0,0,0,0,0,0,0,0,0,0,0,0,0,0,-0.261799,1.62462e-05,-1.5,nan,0,0,0,0,0
1420,-3.34121e-12,0,-1.60441e-06,-3.40794e-12,0,0,-1.13778e-13,0,0,0,0,0,0,0,0,0,0,0,0,0,0,0,0,0,0,0,0,0,-0.261799,1.55722e-05,-1.5,nan,0,0,0,0,0
1430,-3.34121e-12,0,-1.60441e-06,-3.40794e-12,0,-3.92437e-12,-1.13779e-13,0,0,0,0,0,0,0,0,0,0,0,0,0,0,0,0,0,0,0,0,0,-0.261799,1.48961e-05,-1.5,nan,0,0,0,0,0
1440,-3.34123e-12,0,0,-3.40794e-12,0,0,-1.13779e-13,0,0,0,0,0,0,0,0,0,0,0,0,0,0,0,0,0,0,0,0,0,-0.261799,1.4278e-05,-1.5,nan,0,0,0,0,0
1450,-3.34121e-12,0,-1.60441e-06,-3.40794e-12,0,-3.92437e-12,-1.13787e-13,0,0,0,0,0,0,0,0,0,0,0,0,0,0,0,0,0,0,0,0,0,-0.261799,1.36856e-05,-1.5,nan,0,0,0,0,0
1460,-3.34121e-12,0,-1.60441e-06,-3.40794e-12,0,0,-1.13787e-13,0,0,0,0,0,0,0,0,0,0,0,0,0,0,0,0,0,0,0,0,0,-0.261799,1.30909e-05,-1.5,nan,0,0,0,0,0
1470,-3.34121e-12,0,-1.60441e-06,-3.40794e-12,0,-3.92437e-12,-1.13788e-13,0,0,0,0,0,0,0,0,0,0,0,0,0,0,0,0,0,0,0,0,0,-0.261799,1.25477e-05,-1.5,nan,0,0,0,0,0
1480,-3.34121e-12,0,-1.60441e-06,-3.40794e-12,0,0,-1.13789e-13,0,0,0,0,0,0,0,0,0,0,0,0,0,0,0,0,0,0,0,0,0,-0.261799,1.20029e-05,-1.5,nan,0,0,0,0,0
1490,-3.34121e-12,0,-1.60441e-06,-3.40794e-12,0,-3.92437e-12,-1.13789e-13,0,0,0,0,0,0,0,0,0,0,0,0,0,0,0,0,0,0,0,0,0,-0.261799,1.15049e-05,-1.5,nan,0,0,0,0,0
1500,-3.34121e-12,0,-1.60441e-06,-3.40794e-12,0,0,-1.1379e-13,0,0,0,0,0,0,0,0,0,0,0,0,0,0,0,0,0,0,0,0,0,-0.261799,1.10054e-05,-1.5,nan,0,0,0,0,0
1510,-3.34121e-12,0,-1.60441e-06,-3.40794e-12,0,-3.92437e-12,-1.1379e-13,0,0,0,0,0,0,0,0,0,0,0,0,0,0,0,0,0,0,0,0,0,-0.261799,1.05488e-05,-1.5,nan,0,0,0,0,0
1520,-3.34121e-12,0,-1.60441e-06,-3.40794e-12,0,0,-1.13791e-13,0,0,0,0,0,0,0,0,0,0,0,0,0,0,0,0,0,0,0,0,0,-0.261799,1.00908e-05,-1.5,nan,0,0,0,0,0
1530,-3.34121e-12,0,-1.60441e-06,-3.40794e-12,0,-3.92437e-12,-1.13791e-13,0,0,0,0,0,0,0,0,0,0,0,0,0,0,0,0,0,0,0,0,0,-0.261799,9.67256e-06,-1.5,nan,0,0,0,0,0
1540,-3.34121e-12,0,-1.60441e-06,-3.40794e-12,0,0,-1.13792e-13,0,0,0,0,0,0,0,0,0,0,0,0,0,0,0,0,0,0,0,0,0,-0.261799,9.27124e-06,-1.5,nan,0,0,0,0,0
1550,-3.34121e-12,0,-1.60441e-06,-3.40794e-12,0,-3.92437e-12,-1.13792e-13,0,0,0,0,0,0,0,0,0,0,0,0,0,0,0,0,0,0,0,0,0,-0.261799,8.88657e-06,-1.5,nan,0,0,0,0,0
1560,-3.34121e-12,0,-1.60441e-06,-3.40794e-12,0,0,-1.13793e-13,0,0,0,0,0,0,0,0,0,0,0,0,0,0,0,0,0,0,0,0,0,-0.261799,8.50076e-06,-1.5,nan,0,0,0,0,0
1570,-3.34121e-12,0,-1.60441e-06,-3.40794e-12,0,-3.92437e-12,-1.13793e-13,0,0,0,0,0,0,0,0,0,0,0,0,0,0,0,0,0,0,0,0,0,-0.261799,8.14805e-06,-1.5,nan,0,0,0,0,0
1580,-3.34121e-12,0,-1.60441e-06,-3.40794e-12,0,0,-1.13794e-13,0,0,0,0,0,0,0,0,0,0,0,0,0,0,0,0,0,0,0,0,0,-0.261799,7.80998e-06,-1.5,nan,0,0,0,0,0
1590,-3.34121e-12,0,-1.60441e-06,-3.40794e-12,0,-3.92437e-12,-1.13794e-13,0,0,0,0,0,0,0,0,0,0,0,0,0,0,0,0,0,0,0,0,0,-0.261799,7.04137e-06,-1.5,nan,0,0,0,0,0
1600,-3.34121e-12,0,-1.60441e-06,-3.40794e-12,0,0,-1.13795e-13,0,0,0,0,0,0,0,0,0,0,0,0,0,0,0,0,0,0,0,0,0,-0.261799,6.54134e-06,-1.5,nan,0,0,0,0,0
1610,-3.34121e-12,0,-1.60441e-06,-3.40794e-12,0,-3.92437e-12,-1.13796e-13,0,0,0,0,0,0,0,0,0,0,0,0,0,0,0,0,0,0,0,0,0,-0.261799,6.12831e-06,-1.5,nan,0,0,0,0,0
1620,-3.34121e-12,0,-1.60441e-06,-3.40794e-12,0,0,-1.13796e-13,0,0,0,0,0,0,0,0,0,0,0,0,0,0,0,0,0,0,0,0,0,-0.261799,5.87404e-06,-1.5,nan,0,0,0,0,0
1630,-3.34121e-12,0,-1.60441e-06,-3.40794e-12,0,-3.92437e-12,-1.13797e-13,0,0,0,0,0,0,0,0,0,0,0,0,0,0,0,0,0,0,0,0,0,-0.261799,5.63033e-06,-1.5,nan,0,0,0,0,0
1640,-3.34121e-12,0,-1.60441e-06,-3.40794e-12,0,0,-1.13797e-13,0,0,0,0,0,0,0,0,0,0,0,0,0,0,0,0,0,0,0,0,0,-0.261799,5.36347e-06,-1.5,nan,0,0,0,0,0
1650,-3.34121e-12,0,-1.60441e-06,-3.40794e-12,0,-3.92437e-12,-1.13798e-13,0,0,0,0,0,0,0,0,0,0,0,0,0,0,0,0,0,0,0,0,0,-0.261799,5.18317e-06,-1.5,nan,0,0,0,0,0
1660,-3.34121e-12,0,-1.60441e-06,-3.40794e-12,0,0,-1.13798e-13,0,0,0,0,0,0,0,0,0,0,0,0,0,0,0,0,0,0,0,0,0,-0.261799,5.02932e-06,-1.5,nan,0,0,0,0,0
1670,-3.34121e-12,0,-1.60441e-06,-3.40794e-12,0,-3.92437e-12,-1.13799e-13,0,0,0,0,0,0,0,0,0,0,0,0,0,0,0,0,0,0,0,0,0,-0.261799,4.86025e-06,-1.5,nan,0,0,0,0,0
1680,-3.34121e-12,0,-1.60441e-06,-3.40794e-12,0,0,-1.13799e-13,0,0,0,0,0,0,0,0,0,0,0,0,0,0,0,0,0,0,0,0,0,-0.261799,4.66816e-06,-1.5,nan,0,0,0,0,0
1690,-3.34121e-12,0,-1.60441e-06,-3.40794e-12,0,-3.92437e-12,-1.138e-13,0,0,0,0,0,0,0,0,0,0,0,0,0,0,0,0,0,0,0,0,0,-0.261799,4.4561e-06,-1.5,nan,0,0,0,0,0
1700,-3.34121e-12,0,-1.60441e-06,-3.40794e-12,0,0,-1.138e-13,0,0,0,0,0,0,0,0,0,0,0,0,0,0,0,0,0,0,0,0,0,-0.261799,4.27998e-06,-1.5,nan,0,0,0,0,0
1710,-3.34121e-12,0,-1.60441e-06,-3.40794e-12,0,-3.92437e-12,-1.13801e-13,0,0,0,0,0,0,0,0,0,0,0,0,0,0,0,0,0,0,0,0,0,-0.261799,4.08555e-06,-1.5,nan,0,0,0,0,0
1720,-3.34121e-12,0,-1.60441e-06,-3.40794e-12,0,0,-1.13802e-13,0,0,0,0,0,0,0,0,0,0,0,0,0,0,0,0,0,0,0,0,0,-0.261799,3.9162e-06,-1.5,nan,0,0,0,0,0
1730,-3.34121e-12,0,-1.60441e-06,-3.40794e-12,0,-3.92437e-12,-1.13802e-13,0,0,0,0,0,0,0,0,0,0,0,0,0,0,0,0,0,0,0,0,0,-0.261799,3.74601e-06,-1.5,nan,0,0,0,0,0
1740,-3.34121e-12,0,-1.60441e-06,-3.40794e-12,0,0,-1.13803e-13,0,0,0,0,0,0,0,0,0,0,0,0,0,0,0,0,0,0,0,0,0,-0.261799,3.59073e-06,-1.5,nan,0,0,0,0,0
1750,-3.34121e-12,0,-1.60441e-06,-3.40794e-12,0,-3.92437e-12,-1.13803e-13,0,0,0,0,0,0,0,0,0,0,0,0,0,0,0,0,0,0,0,0,0,-0.261799,3.43468e-06,-1.5,nan,0,0,0,0,0
1760,-3.34121e-12,0,-1.60441e-06,-3.40794e-12,0,0,-1.13804e-13,0,0,0,0,0,0,0,0,0,0,0,0,0,0,0,0,0,0,0,0,0,-0.261799,3.29893e-06,-1.5,nan,0,0,0,0,0
1770,-3.34121e-12,0,-1.60441e-06,-3.40794e-12,0,-3.92437e-12,-1.13804e-13,0,0,0,0,0,0,0,0,0,0,0,0,0,0,0,0,0,0,0,0,0,-0.261799,3.14907e-06,-1.5,nan,0,0,0,0,0
1780,-3.34121e-12,0,-1.60441e-06,-3.40794e-12,0,0,-1.13805e-13,0,0,0,0,0,0,0,0,0,0,0,0,0,0,0,0,0,0,0,0,0,-0.261799,3.02461e-06,-1.5,nan,0,0,0,0,0
1790,-3.34121e-12,0,-1.60441e-06,-3.40794e-12,0,-3.92437e-12,-1.13805e-13,0,0,0,0,0,0,0,0,0,0,0,0,0,0,0,0,0,0,0,0,0,-0.261799,2.89317e-06,-1.5,nan,0,0,0,0,0
1800,-3.34121e-12,0,-1.60441e-06,-3.40794e-12,0,0,-1.13806e-13,0,0,0,0,0,0,0,0,0,0,0,0,0,0,0,0,0,0,0,0,0,-0.261799,2.77313e-06,-1.5,nan,0,0,0,0,0
1810,-3.34121e-12,0,-1.60441e-06,-3.40794e-12,0,-3.92437e-12,-1.13806e-13,0,0,0,0,0,0,0,0,0,0,0,0,0,0,0,0,0,0,0,0,0,-0.261799,2.65261e-06,-1.5,nan,0,0,0,0,0
1820,-3.34121e-12,0,-1.60441e-06,-3.40794e-12,0,0,-1.13807e-13,0,0,0,0,0,0,0,0,0,0,0,0,0,0,0,0,0,0,0,0,0,-0.261799,2.54266e-06,-1.5,nan,0,0,0,0,0
1830,-3.34121e-12,0,-1.60441e-06,-3.40794e-12,0,-3.92437e-12,-1.13808e-13,0,0,0,0,0,0,0,0,0,0,0,0,0,0,0,0,0,0,0,0,0,-0.261799,2.42727e-06,-1.5,nan,0,0,0,0,0
1840,-3.34121e-12,0,-1.60441e-06,-3.40794e-12,0,0,-1.13808e-13,0,0,0,0,0,0,0,0,0,0,0,0,0,0,0,0,0,0,0,0,0,-0.261799,2.33143e-06,-1.5,nan,0,0,0,0,0
1850,-3.34121e-12,0,-1.60441e-06,-3.40794e-12,0,-3.92437e-12,-1.13809e-13,0,0,0,0,0,0,0,0,0,0,0,0,0,0,0,0,0,0,0,0,0,-0.261799,2.2301e-06,-1.5,nan,0,0,0,0,0
1860,-3.34121e-12,0,-1.60441e-06,-3.40794e-12,0,0,-1.13809e-13,0,0,0,0,0,0,0,0,0,0,0,0,0,0,0,0,0,0,0,0,0,-0.261799,2.13758e-06,-1.5,nan,0,0,0,0,0
1870,-3.34121e-12,0,-1.60441e-06,-3.40794e-12,0,-3.92437e-12,-1.1381e-13,0,0,0,0,0,0,0,0,0,0,0,0,0,0,0,0,0,0,0,0,0,-0.261799,2.04468e-06,-1.5,nan,0,0,0,0,0
1880,-3.34121e-12,0,-1.60441e-06,-3.40794e-12,0,0,-1.1381e-13,0,0,0,0,0,0,0,0,0,0,0,0,0,0,0,0,0,0,0,0,0,-0.261799,1.95984e-06,-1.5,nan,0,0,0,0,0
1890,-3.34121e-12,0,-1.60441e-06,-3.40794e-12,0,-3.92437e-12,-1.13811e-13,0,0,0,0,0,0,0,0,0,0,0,0,0,0,0,0,0,0,0,0,0,-0.261799,1.87467e-06,-1.5,nan,0,0,0,0,0
1900,-3.34121e-12,0,-1.60441e-06,-3.40794e-12,0,0,-1.13811e-13,0,0,0,0,0,0,0,0,0,0,0,0,0,0,0,0,0,0,0,0,0,-0.261799,1.79696e-06,-1.5,nan,0,0,0,0,0
1910,-3.34121e-12,0,-1.60441e-06,-3.40794e-12,0,-3.92437e-12,-1.13812e-13,0,0,0,0,0,0,0,0,0,0,0,0,0,0,0,0,0,0,0,0,0,-0.261799,1.71887e-06,-1.5,nan,0,0,0,0,0
1920,-3.34121e-12,0,-1.60441e-06,-3.40794e-12,0,0,-1.13812e-13,0,0,0,0,0,0,0,0,0,0,0,0,0,0,0,0,0,0,0,0,0,-0.261799,1.66108e-06,-1.5,nan,0,0,0,0,0
1930,-3.34121e-12,0,-1.60441e-06,-3.40794e-12,0,-3.92437e-12,-1.13813e-13,0,0,0,0,0,0,0,0,0,0,0,0,0,0,0,0,0,0,0,0,0,-0.261799,1.60854e-06,-1.5,nan,0,0,0,0,0
1940,-3.34121e-12,0,-1.60441e-06,-3.40794e-12,0,0,-1.13813e-13,0,0,0,0,0,0,0,0,0,0,0,0,0,0,0,0,0,0,0,0,0,-0.261799,1.55763e-06,-1.5,nan,0,0,0,0,0
1950,-3.34121e-12,0,-1.60441e-06,-3.40794e-12,0,-3.92437e-12,-1.13814e-13,0,0,0,0,0,0,0,0,0,0,0,0,0,0,0,0,0,0,0,0,0,-0.261799,1.49607e-06,-1.5,nan,0,0,0,0,0
1960,-3.34121e-12,0,-1.60441e-06,-3.40794e-12,0,0,-1.13815e-13,0,0,0,0,0,0,0,0,0,0,0,0,0,0,0,0,0,0,0,0,0,-0.261799,1.42818e-06,-1.5,nan,0,0,0,0,0
1970,-3.34121e-12,0,-1.60441e-06,-3.40794e-12,0,-3.92437e-12,-1.13815e-13,0,0,0,0,0,0,0,0,0,0,0,0,0,0,0,0,0,0,0,0,0,-0.261799,1.37179e-06,-1.5,nan,0,0,0,0,0
1980,-3.34121e-12,0,-1.60441e-06,-3.40794e-12,0,0,-1.13816e-13,0,0,0,0,0,0,0,0,0,0,0,0,0,0,0,0,0,0,0,0,0,-0.261799,1.31217e-06,-1.5,nan,0,0,0,0,0
1990,-3.34121e-12,0,-1.60441e-06,-3.40794e-12,0,-3.92437e-12,-1.13816e-13,0,0,0,0,0,0,0,0,0,0,0,0,0,0,0,0,0,0,0,0,0,-0.261799,1.26031e-06,-1.5,nan,0,0,0,0,0
2000,-3.34121e-12,0,-1.60441e-06,-3.40794e-12,0,0,-1.13817e-13,0,0,0,0,0,0,0,0,0,0,0,0,0,0,0,0,0,0,0,0,0,-0.261799,1.20312e-06,-1.5,nan,0,0,0,0,0
2010,-3.34121e-12,0,-1.60441e-06,-3.40794e-12,0,-3.92437e-12,-1.13817e-13,0,0,0,0,0,0,0,0,0,0,0,0,0,0,0,0,0,0,0,0,0,-0.261799,1.15557e-06,-1.5,nan,0,0,0,0,0
2020,-3.34121e-12,0,-1.60441e-06,-3.40794e-12,0,0,-1.13818e-13,0,0,0,0,0,0,0,0,0,0,0,0,0,0,0,0,0,0,0,0,0,-0.261799,1.10313e-06,-1.5,nan,0,0,0,0,0
2030,-3.34121e-12,0,-1.60441e-06,-3.40794e-12,0,-3.92437e-12,-1.13818e-13,0,0,0,0,0,0,0,0,0,0,0,0,0,0,0,0,0,0,0,0,0,-0.261799,1.05957e-06,-1.5,nan,0,0,0,0,0
2040,-3.34121e-12,0,-1.60441e-06,-3.40794e-12,0,0,-1.13819e-13,0,0,0,0,0,0,0,0,0,0,0,0,0,0,0,0,0,0,0,0,0,-0.261799,1.01149e-06,-1.5,nan,0,0,0,0,0
2050,-3.34121e-12,0,-1.60441e-06,-3.40794e-12,0,-3.92437e-12,-1.13819e-13,0,0,0,0,0,0,0,0,0,0,0,0,0,0,0,0,0,0,0,0,0,-0.261799,9.71546e-07,-1.5,nan,0,0,0,0,0
2060,-3.34121e-12,0,-1.60441e-06,-3.40794e-12,0,0,-1.1382e-13,0,0,0,0,0,0,0,0,0,0,0,0,0,0,0,0,0,0,0,0,0,-0.261799,9.27457e-07,-1.5,nan,0,0,0,0,0
2070,-3.34121e-12,0,-1.60441e-06,-3.40794e-12,0,-3.92437e-12,-1.13821e-13,0,0,0,0,0,0,0,0,0,0,0,0,0,0,0,0,0,0,0,0,0,-0.261799,8.90802e-07,-1.5,nan,0,0,0,0,0
2080,-3.34121e-12,0,-1.60441e-06,-3.40794e-12,0,0,-1.13821e-13,0,0,0,0,0,0,0,0,0,0,0,0,0,0,0,0,0,0,0,0,0,-0.261799,8.50377e-07,-1.5,nan,0,0,0,0,0
2090,-3.34121e-12,0,-1.60441e-06,-3.40794e-12,0,-3.92437e-12,-1.13822e-13,0,0,0,0,0,0,0,0,0,0,0,0,0,0,0,0,0,0,0,0,0,-0.261799,8.16768e-07,-1.5,nan,0,0,0,0,0
2100,-3.34121e-12,0,-1.60441e-06,-3.40794e-12,0,0,-1.13822e-13,0,0,0,0,0,0,0,0,0,0,0,0,0,0,0,0,0,0,0,0,0,-0.261799,7.79703e-07,-1.5,nan,0,0,0,0,0
2110,-3.34121e-12,0,-1.60441e-06,-3.40794e-12,0,-3.92437e-12,-1.13823e-13,0,0,0,0,0,0,0,0,0,0,0,0,0,0,0,0,0,0,0,0,0,-0.261799,7.48915e-07,-1.5,nan,0,0,0,0,0
2120,-3.34121e-12,0,-1.60441e-06,-3.40794e-12,0,0,-1.13823e-13,0,0,0,0,0,0,0,0,0,0,0,0,0,0,0,0,0,0,0,0,0,-0.261799,7.16368e-07,-1.5,nan,0,0,0,0,0
2130,-3.34121e-12,0,-1.60441e-06,-3.40794e-12,0,-3.92437e-12,-1.13824e-13,0,0,0,0,0,0,0,0,0,0,0,0,0,0,0,0,0,0,0,0,0,-0.261799,6.61266e-07,-1.5,nan,0,0,0,0,0
2140,-3.34121e-12,0,-1.60441e-06,-3.40794e-12,0,0,-1.13824e-13,0,0,0,0,0,0,0,0,0,0,0,0,0,0,0,0,0,0,0,0,0,-0.261799,6.31227e-07,-1.5,nan,0,0,0,0,0
2150,-3.34121e-12,0,-1.60441e-06,-3.40794e-12,0,-3.92437e-12,-1.13825e-13,0,0,0,0,0,0,0,0,0,0,0,0,0,0,0,0,0,0,0,0,0,-0.261799,6.06302e-07,-1.5,nan,0,0,0,0,0
2160,-3.34121e-12,0,-1.60441e-06,-3.40794e-12,0,0,-1.13825e-13,0,0,0,0,0,0,0,0,0,0,0,0,0,0,0,0,0,0,0,0,0,-0.261799,5.78788e-07,-1.5,nan,0,0,0,0,0
2170,-3.34121e-12,0,-1.60441e-06,-3.40794e-12,0,-3.92437e-12,-1.13826e-13,0,0,0,0,0,0,0,0,0,0,0,0,0,0,0,0,0,0,0,0,0,-0.261799,5.55913e-07,-1.5,nan,0,0,0,0,0
2180,-3.34121e-12,0,-1.60441e-06,-3.40794e-12,0,0,-1.13826e-13,0,0,0,0,0,0,0,0,0,0,0,0,0,0,0,0,0,0,0,0,0,-0.261799,5.30686e-07,-1.5,nan,0,0,0,0,0
2190,-3.34121e-12,0,-1.60441e-06,-3.40794e-12,0,-3.92437e-12,-1.13827e-13,0,0,0,0,0,0,0,0,0,0,0,0,0,0,0,0,0,0,0,0,0,-0.261799,5.12845e-07,-1.5,nan,0,0,0,0,0
2200,-3.34121e-12,0,-1.60441e-06,-3.40794e-12,0,0,-1.13828e-13,0,0,0,0,0,0,0,0,0,0,0,0,0,0,0,0,0,0,0,0,0,-0.261799,4.96624e-07,-1.5,nan,0,0,0,0,0
2210,-3.34121e-12,0,-1.60441e-06,-3.40794e-12,0,-3.92437e-12,-1.13828e-13,0,0,0,0,0,0,0,0,0,0,0,0,0,0,0,0,0,0,0,0,0,-0.261799,4.7994e-07,-1.5,nan,0,0,0,0,0
2220,-3.34121e-12,0,-1.60441e-06,-3.40794e-12,0,0,-1.13829e-13,0,0,0,0,0,0,0,0,0,0,0,0,0,0,0,0,0,0,0,0,0,-0.261799,4.60989e-07,-1.5,nan,0,0,0,0,0
2230,-3.34121e-12,0,-1.60441e-06,-3.40794e-12,0,-3.92437e-12,-1.13829e-13,0,0,0,0,0,0,0,0,0,0,0,0,0,0,0,0,0,0,0,0,0,-0.261799,4.40069e-07,-1.5,nan,0,0,0,0,0
2240,-3.34121e-12,0,-1.60441e-06,-3.40794e-12,0,0,-1.1383e-13,0,0,0,0,0,0,0,0,0,0,0,0,0,0,0,0,0,0,0,0,0,-0.261799,4.20944e-07,-1.5,nan,0,0,0,0,0
2250,-3.34121e-12,0,-1.60441e-06,-3.40794e-12,0,-3.92437e-12,-1.1383e-13,0,0,0,0,0,0,0,0,0,0,0,0,0,0,0,0,0,0,0,0,0,-0.261799,3.47969e-07,-1.5,nan,0,0,0,0,0
2260,-3.34121e-12,0,-1.60441e-06,-3.40794e-12,0,0,-1.13831e-13,0,0,0,0,0,0,0,0,0,0,0,0,0,0,0,0,0,0,0,0,0,-0.261799,2.71894e-07,-1.5,nan,0,0,0,0,0
2270,-3.34121e-12,0,-1.60441e-06,-3.40794e-12,0,-3.92437e-12,-1.13831e-13,0,0,0,0,0,0,0,0,0,0,0,0,0,0,0,0,0,0,0,0,0,-0.261799,1.96931e-07,-1.5,nan,0,0,0,0,0
2280,-3.34121e-12,0,-1.60441e-06,-3.40794e-12,0,0,-1.13832e-13,0,0,0,0,0,0,0,0,0,0,0,0,0,0,0,0,0,0,0,0,0,-0.261799,1.46512e-07,-1.5,nan,0,0,0,0,0
2290,-3.34121e-12,0,-1.60441e-06,-3.40794e-12,0,-3.92437e-12,-1.13832e-13,0,0,0,0,0,0,0,0,0,0,0,0,0,0,0,0,0,0,0,0,0,-0.261799,1.3382e-07,-1.5,nan,0,0,0,0,0
2300,-3.34121e-12,0,-1.60441e-06,-3.40794e-12,0,0,-1.13833e-13,0,0,0,0,0,0,0,0,0,0,0,0,0,0,0,0,0,0,0,0,0,-0.261799,9.0077e-08,-1.5,nan,0,0,0,0,0
2310,-3.34121e-12,0,-1.60441e-06,-3.40794e-12,0,-3.92437e-12,-1.13834e-13,0,0,0,0,0,0,0,0,0,0,0,0,0,0,0,0,0,0,0,0,0,-0.261799,6.70152e-08,-1.5,nan,0,0,0,0,0
2320,-3.34121e-12,0,-1.60441e-06,-3.40794e-12,0,0,-1.13834e-13,0,0,0,0,0,0,0,0,0,0,0,0,0,0,0,0,0,0,0,0,0,-0.261799,4.85387e-08,-1.5,nan,0,0,0,0,0
2330,-3.34121e-12,0,-1.60441e-06,-3.40794e-12,0,-3.92437e-12,-1.13835e-13,0,0,0,0,0,0,0,0,0,0,0,0,0,0,0,0,0,0,0,0,0,-0.261799,4.49007e-08,-1.5,nan,0,0,0,0,0
2340,-3.34121e-12,0,-1.60441e-06,-3.40794e-12,0,0,-1.13835e-13,0,0,0,0,0,0,0,0,0,0,0,0,0,0,0,0,0,0,0,0,0,-0.261799,3.41121e-08,-1.5,nan,0,0,0,0,0
2350,-3.34121e-12,0,-1.60441e-06,-3.40794e-12,0,-3.92437e-12,-1.13836e-13,0,0,0,0,0,0,0,0,0,0,0,0,0,0,0,0,0,0,0,0,0,-0.261799,3.26967e-08,-1.5,nan,0,0,0,0,0
2360,-3.34121e-12,0,-1.60441e-06,-3.40794e-12,0,0,-1.13836e-13,0,0,0,0,0,0,0,0,0,0,0,0,0,0,0,0,0,0,0,0,0,-0.261799,3.12758e-08,-1.5,nan,0,0,0,0,0
2370,-3.34121e-12,0,-1.60441e-06,-3.40794e-12,0,-3.92437e-12,-1.13837e-13,0,0,0,0,0,0,0,0,0,0,0,0,0,0,0,0,0,0,0,0,0,-0.261799,3.00397e-08,-1.5,nan,0,0,0,0,0
2380,-3.34121e-12,0,-1.60441e-06,-3.40794e-12,0,0,-1.13837e-13,0,0,0,0,0,0,0,0,0,0,0,0,0,0,0,0,0,0,0,0,0,-0.261799,2.86765e-08,-1.5,nan,0,0,0,0,0
2390,-3.34121e-12,0,-1.60441e-06,-3.40794e-12,0,-3.92437e-12,-1.13838e-13,0,0,0,0,0,0,0,0,0,0,0,0,0,0,0,0,0,0,0,0,0,-0.261799,2.75441e-08,-1.5,nan,0,0,0,0,0
2400,-3.34121e-12,0,-1.60441e-06,-3.40794e-12,0,0,-1.13838e-13,0,0,0,0,0,0,0,0,0,0,0,0,0,0,0,0,0,0,0,0,0,-0.261799,2.63471e-08,-1.5,nan,0,0,0,0,0
2410,-3.34121e-12,0,-1.60441e-06,-3.40794e-12,0,-3.92437e-12,-1.13839e-13,0,0,0,0,0,0,0,0,0,0,0,0,0,0,0,0,0,0,0,0,0,-0.261799,2.5255e-08,-1.5,nan,0,0,0,0,0
2420,-3.34121e-12,0,-1.60441e-06,-3.40794e-12,0,0,-1.13839e-13,0,0,0,0,0,0,0,0,0,0,0,0,0,0,0,0,0,0,0,0,0,-0.261799,2.41574e-08,-1.5,nan,0,0,0,0,0
2430,-3.34121e-12,0,-1.60441e-06,-3.40794e-12,0,-3.92437e-12,-1.1384e-13,0,0,0,0,0,0,0,0,0,0,0,0,0,0,0,0,0,0,0,0,0,-0.261799,2.31561e-08,-1.5,nan,0,0,0,0,0
2440,-3.34121e-12,0,-1.60441e-06,-3.40794e-12,0,0,-1.13841e-13,0,0,0,0,0,0,0,0,0,0,0,0,0,0,0,0,0,0,0,0,0,-0.261799,2.21497e-08,-1.5,nan,0,0,0,0,0
2450,-3.34121e-12,0,-1.60441e-06,-3.40794e-12,0,-3.92437e-12,-1.13841e-13,0,0,0,0,0,0,0,0,0,0,0,0,0,0,0,0,0,0,0,0,0,-0.261799,2.12743e-08,-1.5,nan,0,0,0,0,0
2460,-3.34121e-12,0,-1.60441e-06,-3.40794e-12,0,0,-1.13842e-13,0,0,0,0,0,0,0,0,0,0,0,0,0,0,0,0,0,0,0,0,0,-0.261799,2.05173e-08,-1.5,nan,0,0,0,0,0
2470,-3.34121e-12,0,-1.60441e-06,-3.40794e-12,0,-3.92437e-12,-1.13842e-13,0,0,0,0,0,0,0,0,0,0,0,0,0,0,0,0,0,0,0,0,0,-0.261799,1.98275e-08,-1.5,nan,0,0,0,0,0
2480,-3.34121e-12,0,-1.60441e-06,-3.40794e-12,0,0,-1.13843e-13,0,0,0,0,0,0,0,0,0,0,0,0,0,0,0,0,0,0,0,0,0,-0.261799,1.92e-08,-1.5,nan,0,0,0,0,0
2490,-3.34121e-12,0,-1.60441e-06,-3.40794e-12,0,-3.92437e-12,-1.13843e-13,0,0,0,0,0,0,0,0,0,0,0,0,0,0,0,0,0,0,0,0,0,-0.261799,1.83656e-08,-1.5,nan,0,0,0,0,0
2500,-3.34121e-12,0,-1.60441e-06,-3.40794e-12,0,0,-1.13844e-13,0,0,0,0,0,0,0,0,0,0,0,0,0,0,0,0,0,0,0,0,0,-0.261799,1.76036e-08,-1.5,nan,0,0,0,0,0
2510,-3.34121e-12,0,-1.60441e-06,-3.40794e-12,0,-3.92437e-12,-1.13844e-13,0,0,0,0,0,0,0,0,0,0,0,0,0,0,0,0,0,0,0,0,0,-0.261799,1.68385e-08,-1.5,nan,0,0,0,0,0
2520,-3.34121e-12,0,-1.60441e-06,-3.40794e-12,0,0,-1.13845e-13,0,0,0,0,0,0,0,0,0,0,0,0,0,0,0,0,0,0,0,0,0,-0.261799,1.61405e-08,-1.5,nan,0,0,0,0,0
2530,-3.34121e-12,0,-1.60441e-06,-3.40794e-12,0,-3.92437e-12,-1.13845e-13,0,0,0,0,0,0,0,0,0,0,0,0,0,0,0,0,0,0,0,0,0,-0.261799,1.54081e-08,-1.5,nan,0,0,0,0,0
2540,-3.34121e-12,0,-1.60441e-06,-3.40794e-12,0,0,-1.13846e-13,0,0,0,0,0,0,0,0,0,0,0,0,0,0,0,0,0,0,0,0,0,-0.261799,1.47997e-08,-1.5,nan,0,0,0,0,0
2550,-3.34121e-12,0,-1.60441e-06,-3.40794e-12,0,-3.92437e-12,-1.13847e-13,0,0,0,0,0,0,0,0,0,0,0,0,0,0,0,0,0,0,0,0,0,-0.261799,1.41565e-08,-1.5,nan,0,0,0,0,0
2560,-3.34121e-12,0,-1.60441e-06,-3.40794e-12,0,0,-1.13847e-13,0,0,0,0,0,0,0,0,0,0,0,0,0,0,0,0,0,0,0,0,0,-0.261799,1.35697e-08,-1.5,nan,0,0,0,0,0
2570,-3.34121e-12,0,-1.60441e-06,-3.40794e-12,0,-3.92437e-12,-1.13848e-13,0,0,0,0,0,0,0,0,0,0,0,0,0,0,0,0,0,0,0,0,0,-0.261799,1.298e-08,-1.5,nan,0,0,0,0,0
2580,-3.34121e-12,0,-1.60441e-06,-3.40794e-12,0,0,-1.13848e-13,0,0,0,0,0,0,0,0,0,0,0,0,0,0,0,0,0,0,0,0,0,-0.261799,1.24419e-08,-1.5,nan,0,0,0,0,0
2590,-3.34121e-12,0,-1.60441e-06,-3.40794e-12,0,-3.92437e-12,-1.13849e-13,0,0,0,0,0,0,0,0,0,0,0,0,0,0,0,0,0,0,0,0,0,-0.261799,1.19012e-08,-1.5,nan,0,0,0,0,0
2600,-3.34121e-12,0,-1.60441e-06,-3.40794e-12,0,0,-1.13849e-13,0,0,0,0,0,0,0,0,0,0,0,0,0,0,0,0,0,0,0,0,0,-0.261799,1.14079e-08,-1.5,nan,0,0,0,0,0
2610,-3.34121e-12,0,-1.60441e-06,-3.40794e-12,0,-3.92437e-12,-1.1385e-13,0,0,0,0,0,0,0,0,0,0,0,0,0,0,0,0,0,0,0,0,0,-0.261799,1.09121e-08,-1.5,nan,0,0,0,0,0
2620,-3.34121e-12,0,-1.60441e-06,-3.40794e-12,0,0,-1.1385e-13,0,0,0,0,0,0,0,0,0,0,0,0,0,0,0,0,0,0,0,0,0,-0.261799,1.04594e-08,-1.5,nan,0,0,0,0,0
2630,-3.34121e-12,0,-1.60441e-06,-3.40794e-12,0,-3.92437e-12,-1.13851e-13,0,0,0,0,0,0,0,0,0,0,0,0,0,0,0,0,0,0,0,0,0,-0.261799,1.00048e-08,-1.5,nan,0,0,0,0,0
2640,-3.34121e-12,0,-1.60441e-06,-3.40794e-12,0,0,-1.13851e-13,0,0,0,0,0,0,0,0,0,0,0,0,0,0,0,0,0,0,0,0,0,-0.261799,9.58971e-09,-1.5,nan,0,0,0,0,0
2650,-3.34121e-12,0,-1.60441e-06,-3.40794e-12,0,-3.92437e-12,-1.13852e-13,0,0,0,0,0,0,0,0,0,0,0,0,0,0,0,0,0,0,0,0,0,-0.261799,9.17295e-09,-1.5,nan,0,0,0,0,0
2660,-3.34121e-12,0,-1.60441e-06,-3.40794e-12,0,0,-1.13853e-13,0,0,0,0,0,0,0,0,0,0,0,0,0,0,0,0,0,0,0,0,0,-0.261799,8.79272e-09,-1.5,nan,0,0,0,0,0
2670,-3.34121e-12,0,-1.60441e-06,-3.40794e-12,0,-3.92437e-12,-1.13853e-13,0,0,0,0,0,0,0,0,0,0,0,0,0,0,0,0,0,0,0,0,0,-0.261799,8.4106e-09,-1.5,nan,0,0,0,0,0
2680,-3.34121e-12,0,-1.60441e-06,-3.40794e-12,0,0,-1.13854e-13,0,0,0,0,0,0,0,0,0,0,0,0,0,0,0,0,0,0,0,0,0,-0.261799,8.06197e-09,-1.5,nan,0,0,0,0,0
2690,-3.34121e-12,0,-1.60441e-06,-3.40794e-12,0,-3.92437e-12,-1.13854e-13,0,0,0,0,0,0,0,0,0,0,0,0,0,0,0,0,0,0,0,0,0,-0.261799,7.71196e-09,-1.5,nan,0,0,0,0,0
2700,-3.34121e-12,0,-1.60441e-06,-3.40794e-12,0,0,-1.13855e-13,0,0,0,0,0,0,0,0,0,0,0,0,0,0,0,0,0,0,0,0,0,-0.261799,7.40716e-09,-1.5,nan,0,0,0,0,0
2710,-3.34121e-12,0,-1.60441e-06,-3.40794e-12,0,-3.92437e-12,-1.13855e-13,0,0,0,0,0,0,0,0,0,0,0,0,0,0,0,0,0,0,0,0,0,-0.261799,7.07103e-09,-1.5,nan,0,0,0,0,0
2720,-3.34121e-12,0,-1.60441e-06,-3.40794e-12,0,0,-1.13856e-13,0,0,0,0,0,0,0,0,0,0,0,0,0,0,0,0,0,0,0,0,0,-0.261799,6.75014e-09,-1.5,nan,0,0,0,0,0
2730,-3.34121e-12,0,-1.60441e-06,-3.40794e-12,0,-3.92437e-12,-1.13856e-13,0,0,0,0,0,0,0,0,0,0,0,0,0,0,0,0,0,0,0,0,0,-0.261799,6.36427e-09,-1.5,nan,0,0,0,0,0
2740,-3.34121e-12,0,-1.60441e-06,-3.40794e-12,0,0,-1.13857e-13,0,0,0,0,0,0,0,0,0,0,0,0,0,0,0,0,0,0,0,0,0,-0.261799,6.15032e-09,-1.5,nan,0,0,0,0,0
2750,-3.34121e-12,0,-1.60441e-06,-3.40794e-12,0,-3.92437e-12,-1.13857e-13,0,0,0,0,0,0,0,0,0,0,0,0,0,0,0,0,0,0,0,0,0,-0.261799,5.96777e-09,-1.5,nan,0,0,0,0,0
2760,-3.34121e-12,0,-1.60441e-06,-3.40794e-12,0,0,-1.13858e-13,0,0,0,0,0,0,0,0,0,0,0,0,0,0,0,0,0,0,0,0,0,-0.261799,5.7554e-09,-1.5,nan,0,0,0,0,0
2770,-3.34121e-12,0,-1.60441e-06,-3.40794e-12,0,-3.92437e-12,-1.13858e-13,0,0,0,0,0,0,0,0,0,0,0,0,0,0,0,0,0,0,0,0,0,-0.261799,5.5166e-09,-1.5,nan,0,0,0,0,0
2780,-3.34121e-12,0,-1.60441e-06,-3.40794e-12,0,0,-1.13859e-13,0,0,0,0,0,0,0,0,0,0,0,0,0,0,0,0,0,0,0,0,0,-0.261799,5.27685e-09,-1.5,nan,0,0,0,0,0
2790,-3.34121e-12,0,-1.60441e-06,-3.40794e-12,0,-3.92437e-12,-1.1386e-13,0,0,0,0,0,0,0,0,0,0,0,0,0,0,0,0,0,0,0,0,0,-0.261799,5.05791e-09,-1.5,nan,0,0,0,0,0
2800,-3.34121e-12,0,-1.60441e-06,-3.40794e-12,0,0,-1.1386e-13,0,0,0,0,0,0,0,0,0,0,0,0,0,0,0,0,0,0,0,0,0,-0.261799,4.83832e-09,-1.5,nan,0,0,0,0,0
2810,-3.34121e-12,0,-1.60441e-06,-3.40794e-12,0,-3.92437e-12,-1.13861e-13,0,0,0,0,0,0,0,0,0,0,0,0,0,0,0,0,0,0,0,0,0,-0.261799,4.62826e-09,-1.5,nan,0,0,0,0,0
2820,-3.34121e-12,0,-1.60441e-06,-3.40794e-12,0,0,-1.13861e-13,0,0,0,0,0,0,0,0,0,0,0,0,0,0,0,0,0,0,0,0,0,-0.261799,4.43623e-09,-1.5,nan,0,0,0,0,0
2830,-3.34121e-12,0,-1.60441e-06,-3.40794e-12,0,-3.92437e-12,-1.13862e-13,0,0,0,0,0,0,0,0,0,0,0,0,0,0,0,0,0,0,0,0,0,-0.261799,4.24363e-09,-1.5,nan,0,0,0,0,0
2840,-3.34121e-12,0,-1.60441e-06,-3.40794e-12,0,0,-1.13862e-13,0,0,0,0,0,0,0,0,0,0,0,0,0,0,0,0,0,0,0,0,0,-0.261799,4.05939e-09,-1.5,nan,0,0,0,0,0
2850,-3.34121e-12,0,-1.60441e-06,-3.40794e-12,0,-3.92437e-12,-1.13863e-13,0,0,0,0,0,0,0,0,0,0,0,0,0,0,0,0,0,0,0,0,0,-0.261799,3.89113e-09,-1.5,nan,0,0,0,0,0
2860,-3.34121e-12,0,-1.60441e-06,-3.40794e-12,0,0,-1.13863e-13,0,0,0,0,0,0,0,0,0,0,0,0,0,0,0,0,0,0,0,0,0,-0.261799,3.72219e-09,-1.5,nan,0,0,0,0,0
2870,-3.34121e-12,0,-1.60441e-06,-3.40794e-12,0,-3.92437e-12,-1.13864e-13,0,0,0,0,0,0,0,0,0,0,0,0,0,0,0,0,0,0,0,0,0,-0.261799,3.56776e-09,-1.5,nan,0,0,0,0,0
2880,-3.34121e-12,0,-1.60441e-06,-3.40794e-12,0,0,-1.13864e-13,0,0,0,0,0,0,0,0,0,0,0,0,0,0,0,0,0,0,0,0,0,-0.261799,3.41286e-09,-1.5,nan,0,0,0,0,0
2890,-3.34121e-12,0,-1.60441e-06,-3.40794e-12,0,-3.92437e-12,-1.13865e-13,0,0,0,0,0,0,0,0,0,0,0,0,0,0,0,0,0,0,0,0,0,-0.261799,3.27126e-09,-1.5,nan,0,0,0,0,0
2900,-3.34121e-12,0,-1.60441e-06,-3.40794e-12,0,0,-1.13866e-13,0,0,0,0,0,0,0,0,0,0,0,0,0,0,0,0,0,0,0,0,0,-0.261799,3.12923e-09,-1.5,nan,0,0,0,0,0
2910,-3.34121e-12,0,-1.60441e-06,-3.40794e-12,0,-3.92437e-12,-1.13866e-13,0,0,0,0,0,0,0,0,0,0,0,0,0,0,0,0,0,0,0,0,0,-0.261799,2.99952e-09,-1.5,nan,0,0,0,0,0
2920,-3.34123e-12,0,0,-3.40794e-12,0,0,-1.13867e-13,0,0,0,0,0,0,0,0,0,0,0,0,0,0,0,0,0,0,0,0,0,-0.261799,2.8693e-09,-1.5,nan,0,0,0,0,0
2930,-3.34121e-12,0,-1.60441e-06,-3.40794e-12,0,-3.92437e-12,-1.13867e-13,0,0,0,0,0,0,0,0,0,0,0,0,0,0,0,0,0,0,0,0,0,-0.261799,2.75025e-09,-1.5,nan,0,0,0,0,0
2940,-3.34121e-12,0,-1.60441e-06,-3.40794e-12,0,0,-1.13868e-13,0,0,0,0,0,0,0,0,0,0,0,0,0,0,0,0,0,0,0,0,0,-0.261799,2.63614e-09,-1.5,nan,0,0,0,0,0
2950,-3.34121e-12,0,-1.60441e-06,-3.40794e-12,0,-3.92437e-12,-1.13868e-13,0,0,0,0,0,0,0,0,0,0,0,0,0,0,0,0,0,0,0,0,0,-0.261799,2.52169e-09,-1.5,nan,0,0,0,0,0
2960,-3.34121e-12,0,-1.60441e-06,-3.40794e-12,0,0,-1.13869e-13,0,0,0,0,0,0,0,0,0,0,0,0,0,0,0,0,0,0,0,0,0,-0.261799,2.41706e-09,-1.5,nan,0,0,0,0,0
2970,-3.34121e-12,0,-1.60441e-06,-3.40794e-12,0,-3.92437e-12,-1.13869e-13,0,0,0,0,0,0,0,0,0,0,0,0,0,0,0,0,0,0,0,0,0,-0.261799,2.31212e-09,-1.5,nan,0,0,0,0,0
2980,-3.34121e-12,0,-1.60441e-06,-3.40794e-12,0,0,-1.1387e-13,0,0,0,0,0,0,0,0,0,0,0,0,0,0,0,0,0,0,0,0,0,-0.261799,2.21174e-09,-1.5,nan,0,0,0,0,0
2990,-3.34121e-12,0,-1.60441e-06,-3.40794e-12,0,-3.92437e-12,-1.1387e-13,0,0,0,0,0,0,0,0,0,0,0,0,0,0,0,0,0,0,0,0,0,-0.261799,2.11998e-09,-1.5,nan,0,0,0,0,0
3000,-3.34121e-12,0,-1.60441e-06,-3.40794e-12,0,0,-1.13871e-13,0,0,0,0,0,0,0,0,0,0,0,0,0,0,0,0,0,0,0,0,0,-0.261799,2.05288e-09,-1.5,nan,0,0,0,0,0
3010,-3.34121e-12,0,-1.60441e-06,-3.40794e-12,0,-3.92437e-12,-1.13871e-13,0,0,0,0,0,0,0,0,0,0,0,0,0,0,0,0,0,0,0,0,0,-0.261799,1.98391e-09,-1.5,nan,0,0,0,0,0
3020,-3.34121e-12,0,-1.60441e-06,-3.40794e-12,0,0,-1.13872e-13,0,0,0,0,0,0,0,0,0,0,0,0,0,0,0,0,0,0,0,0,0,-0.261799,1.92503e-09,-1.5,nan,0,0,0,0,0
3030,-3.34121e-12,0,-1.60441e-06,-3.40794e-12,0,-3.92437e-12,-1.13873e-13,0,0,0,0,0,0,0,0,0,0,0,0,0,0,0,0,0,0,0,0,0,-0.261799,1.86031e-09,-1.5,nan,0,0,0,0,0
3040,-3.34121e-12,0,-1.60441e-06,-3.40794e-12,0,0,-1.13873e-13,0,0,0,0,0,0,0,0,0,0,0,0,0,0,0,0,0,0,0,0,0,-0.261799,1.78313e-09,-1.5,nan,0,0,0,0,0
3050,-3.34121e-12,0,-1.60441e-06,-3.40794e-12,0,-3.92437e-12,-1.13874e-13,0,0,0,0,0,0,0,0,0,0,0,0,0,0,0,0,0,0,0,0,0,-0.261799,1.70571e-09,-1.5,nan,0,0,0,0,0
3060,-3.34121e-12,0,-1.60441e-06,-3.40794e-12,0,0,-1.13874e-13,0,0,0,0,0,0,0,0,0,0,0,0,0,0,0,0,0,0,0,0,0,-0.261799,1.63501e-09,-1.5,nan,0,0,0,0,0
3070,-3.34121e-12,0,-1.60441e-06,-3.40794e-12,0,-3.92437e-12,-1.13875e-13,0,0,0,0,0,0,0,0,0,0,0,0,0,0,0,0,0,0,0,0,0,-0.261799,1.56717e-09,-1.5,nan,0,0,0,0,0
3080,-3.34121e-12,0,-1.60441e-06,-3.40794e-12,0,0,-1.13875e-13,0,0,0,0,0,0,0,0,0,0,0,0,0,0,0,0,0,0,0,0,0,-0.261799,1.50215e-09,-1.5,nan,0,0,0,0,0
3090,-3.34121e-12,0,-1.60441e-06,-3.40794e-12,0,-3.92437e-12,-1.13876e-13,0,0,0,0,0,0,0,0,0,0,0,0,0,0,0,0,0,0,0,0,0,-0.261799,1.43693e-09,-1.5,nan,0,0,0,0,0
3100,-3.34121e-12,0,-1.60441e-06,-3.40794e-12,0,0,-1.13876e-13,0,0,0,0,0,0,0,0,0,0,0,0,0,0,0,0,0,0,0,0,0,-0.261799,1.37737e-09,-1.5,nan,0,0,0,0,0
3110,-3.34121e-12,0,-1.60441e-06,-3.40794e-12,0,-3.92437e-12,-1.13877e-13,0,0,0,0,0,0,0,0,0,0,0,0,0,0,0,0,0,0,0,0,0,-0.261799,1.32022e-09,-1.5,nan,0,0,0,0,0
3120,-3.34121e-12,0,-1.60441e-06,-3.40794e-12,0,0,-1.13877e-13,0,0,0,0,0,0,0,0,0,0,0,0,0,0,0,0,0,0,0,0,0,-0.261799,1.26544e-09,-1.5,nan,0,0,0,0,0
3130,-3.34121e-12,0,-1.60441e-06,-3.40794e-12,0,-3.92437e-12,-1.13878e-13,0,0,0,0,0,0,0,0,0,0,0,0,0,0,0,0,0,0,0,0,0,-0.261799,1.2105e-09,-1.5,nan,0,0,0,0,0
3140,-3.34121e-12,0,-1.60441e-06,-3.40794e-12,0,0,-1.13879e-13,0,0,0,0,0,0,0,0,0,0,0,0,0,0,0,0,0,0,0,0,0,-0.261799,1.16033e-09,-1.5,nan,0,0,0,0,0
3150,-3.34121e-12,0,-1.60441e-06,-3.40794e-12,0,-3.92437e-12,-1.1378e-13,0,0,0,0,0,0,0,0,0,0,0,0,0,0,0,0,0,0,0,0,0,-0.261799,1.11218e-09,-1.5,nan,0,0,0,0,0
3160,-3.34121e-12,0,-1.60441e-06,-3.40794e-12,0,0,-1.1378e-13,0,0,0,0,0,0,0,0,0,0,0,0,0,0,0,0,0,0,0,0,0,-0.261799,1.06604e-09,-1.5,nan,0,0,0,0,0
3170,-3.34121e-12,0,-1.60441e-06,-3.40794e-12,0,-3.92437e-12,-1.13781e-13,0,0,0,0,0,0,0,0,0,0,0,0,0,0,0,0,0,0,0,0,0,-0.261799,1.02181e-09,-1.5,nan,0,0,0,0,0
3180,-3.34121e-12,0,-1.60441e-06,-3.40794e-12,0,0,-1.13781e-13,0,0,0,0,0,0,0,0,0,0,0,0,0,0,0,0,0,0,0,0,0,-0.261799,9.79452e-10,-1.5,nan,0,0,0,0,0
3190,-3.34121e-12,0,-1.60441e-06,-3.40794e-12,0,-3.92437e-12,-1.13782e-13,0,0,0,0,0,0,0,0,0,0,0,0,0,0,0,0,0,0,0,0,0,-0.261799,9.38814e-10,-1.5,nan,0,0,0,0,0
3200,-3.34121e-12,0,-1.60441e-06,-3.40794e-12,0,0,-1.13782e-13,0,0,0,0,0,0,0,0,0,0,0,0,0,0,0,0,0,0,0,0,0,-0.261799,8.99862e-10,-1.5,nan,0,0,0,0,0
3210,-3.34121e-12,0,-1.60441e-06,-3.40794e-12,0,-3.92437e-12,-1.13783e-13,0,0,0,0,0,0,0,0,0,0,0,0,0,0,0,0,0,0,0,0,0,-0.261799,8.62526e-10,-1.5,nan,0,0,0,0,0
3220,-3.34121e-12,0,-1.60441e-06,-3.40794e-12,0,0,-1.13783e-13,0,0,0,0,0,0,0,0,0,0,0,0,0,0,0,0,0,0,0,0,0,-0.261799,8.26739e-10,-1.5,nan,0,0,0,0,0
3230,-3.34121e-12,0,-1.60441e-06,-3.40794e-12,0,-3.92437e-12,-1.13784e-13,0,0,0,0,0,0,0,0,0,0,0,0,0,0,0,0,0,0,0,0,0,-0.261799,7.90846e-10,-1.5,nan,0,0,0,0,0
3240,-3.34121e-12,0,-1.60441e-06,-3.40794e-12,0,0,-1.13785e-13,0,0,0,0,0,0,0,0,0,0,0,0,0,0,0,0,0,0,0,0,0,-0.261799,7.58033e-10,-1.5,nan,0,0,0,0,0
3250,-3.34121e-12,0,-1.60441e-06,-3.40794e-12,0,-3.92437e-12,-1.13785e-13,0,0,0,0,0,0,0,0,0,0,0,0,0,0,0,0,0,0,0,0,0,-0.261799,7.26582e-10,-1.5,nan,0,0,0,0,0
3260,-3.34121e-12,0,-1.60441e-06,-3.40794e-12,0,0,-1.13786e-13,0,0,0,0,0,0,0,0,0,0,0,0,0,0,0,0,0,0,0,0,0,-0.261799,6.96436e-10,-1.5,nan,0,0,0,0,0
3270,-3.34121e-12,0,-1.60441e-06,-3.40794e-12,0,-3.92437e-12,-1.13786e-13,0,0,0,0,0,0,0,0,0,0,0,0,0,0,0,0,0,0,0,0,0,-0.261799,6.74393e-10,-1.5,nan,0,0,0,0,0
3280,-3.34121e-12,0,-1.60441e-06,-3.40794e-12,0,0,-1.13879e-13,0,0,0,0,0,0,0,0,0,0,0,0,0,0,0,0,0,0,0,0,0,-0.261799,6.51738e-10,-1.5,nan,0,0,0,0,0
3290,-3.34121e-12,0,-1.60441e-06,-3.40794e-12,0,-3.92437e-12,-1.1388e-13,0,0,0,0,0,0,0,0,0,0,0,0,0,0,0,0,0,0,0,0,0,-0.261799,6.32393e-10,-1.5,nan,0,0,0,0,0
3300,-3.34121e-12,0,-1.60441e-06,-3.40794e-12,0,0,-1.1388e-13,0,0,0,0,0,0,0,0,0,0,0,0,0,0,0,0,0,0,0,0,0,-0.261799,6.11133e-10,-1.5,nan,0,0,0,0,0
3310,-3.34121e-12,0,-1.60441e-06,-3.40794e-12,0,-3.92437e-12,-1.13881e-13,0,0,0,0,0,0,0,0,0,0,0,0,0,0,0,0,0,0,0,0,0,-0.261799,5.85777e-10,-1.5,nan,0,0,0,0,0
3320,-3.34121e-12,0,-1.60441e-06,-3.40794e-12,0,0,-1.13881e-13,0,0,0,0,0,0,0,0,0,0,0,0,0,0,0,0,0,0,0,0,0,-0.261799,5.61473e-10,-1.5,nan,0,0,0,0,0
3330,-3.34121e-12,0,-1.60441e-06,-3.40794e-12,0,-3.92437e-12,-1.13882e-13,0,0,0,0,0,0,0,0,0,0,0,0,0,0,0,0,0,0,0,0,0,-0.261799,5.09445e-10,-1.5,nan,0,0,0,0,0
3340,-3.34121e-12,0,-1.60441e-06,-3.40794e-12,0,0,-1.13882e-13,0,0,0,0,0,0,0,0,0,0,0,0,0,0,0,0,0,0,0,0,0,-0.261799,4.7828e-10,-1.5,nan,0,0,0,0,0
3350,-3.34121e-12,0,-1.60441e-06,-3.40794e-12,0,-3.92437e-12,-1.13883e-13,0,0,0,0,0,0,0,0,0,0,0,0,0,0,0,0,0,0,0,0,0,-0.261799,4.57516e-10,-1.5,nan,0,0,0,0,0
3360,-3.34121e-12,0,-1.60441e-06,-3.40794e-12,0,0,-1.13883e-13,0,0,0,0,0,0,0,0,0,0,0,0,0,0,0,0,0,0,0,0,0,-0.261799,4.38533e-10,-1.5,nan,0,0,0,0,0
3370,-3.34121e-12,0,-1.60441e-06,-3.40794e-12,0,-3.92437e-12,-1.13884e-13,0,0,0,0,0,0,0,0,0,0,0,0,0,0,0,0,0,0,0,0,0,-0.261799,4.20338e-10,-1.5,nan,0,0,0,0,0
3380,-3.34121e-12,0,-1.60441e-06,-3.40794e-12,0,0,-1.13884e-13,0,0,0,0,0,0,0,0,0,0,0,0,0,0,0,0,0,0,0,0,0,-0.261799,4.02089e-10,-1.5,nan,0,0,0,0,0
3390,-3.34121e-12,0,-1.60441e-06,-3.40794e-12,0,-3.92437e-12,-1.13885e-13,0,0,0,0,0,0,0,0,0,0,0,0,0,0,0,0,0,0,0,0,0,-0.261799,3.85406e-10,-1.5,nan,0,0,0,0,0
3400,-3.34121e-12,0,-1.60441e-06,-3.40794e-12,0,0,-1.13886e-13,0,0,0,0,0,0,0,0,0,0,0,0,0,0,0,0,0,0,0,0,0,-0.261799,3.68673e-10,-1.5,nan,0,0,0,0,0
3410,-3.34121e-12,0,-1.60441e-06,-3.40794e-12,0,-3.92437e-12,-1.13886e-13,0,0,0,0,0,0,0,0,0,0,0,0,0,0,0,0,0,0,0,0,0,-0.261799,3.53377e-10,-1.5,nan,0,0,0,0,0
3420,-3.34121e-12,0,-1.60441e-06,-3.40794e-12,0,0,-1.13887e-13,0,0,0,0,0,0,0,0,0,0,0,0,0,0,0,0,0,0,0,0,0,-0.261799,3.38715e-10,-1.5,nan,0,0,0,0,0
3430,-3.34121e-12,0,-1.60441e-06,-3.40794e-12,0,-3.92437e-12,-1.13887e-13,0,0,0,0,0,0,0,0,0,0,0,0,0,0,0,0,0,0,0,0,0,-0.261799,3.24009e-10,-1.5,nan,0,0,0,0,0
3440,-3.34121e-12,0,-1.60441e-06,-3.40794e-12,0,0,-1.13888e-13,0,0,0,0,0,0,0,0,0,0,0,0,0,0,0,0,0,0,0,0,0,-0.261799,3.10566e-10,-1.5,nan,0,0,0,0,0
3450,-3.34121e-12,0,-1.60441e-06,-3.40794e-12,0,-3.92437e-12,-1.13888e-13,0,0,0,0,0,0,0,0,0,0,0,0,0,0,0,0,0,0,0,0,0,-0.261799,2.97083e-10,-1.5,nan,0,0,0,0,0
3460,-3.34121e-12,0,-1.60441e-06,-3.40794e-12,0,0,-1.13889e-13,0,0,0,0,0,0,0,0,0,0,0,0,0,0,0,0,0,0,0,0,0,-0.261799,2.84756e-10,-1.5,nan,0,0,0,0,0
3470,-3.34121e-12,0,-1.60441e-06,-3.40794e-12,0,-3.92437e-12,-1.13889e-13,0,0,0,0,0,0,0,0,0,0,0,0,0,0,0,0,0,0,0,0,0,-0.261799,2.72942e-10,-1.5,nan,0,0,0,0,0
3480,-3.34121e-12,0,-1.60441e-06,-3.40794e-12,0,0,-1.1389e-13,0,0,0,0,0,0,0,0,0,0,0,0,0,0,0,0,0,0,0,0,0,-0.261799,2.61092e-10,-1.5,nan,0,0,0,0,0
3490,-3.34121e-12,0,-1.60441e-06,-3.40794e-12,0,-3.92437e-12,-1.1389e-13,0,0,0,0,0,0,0,0,0,0,0,0,0,0,0,0,0,0,0,0,0,-0.261799,2.50259e-10,-1.5,nan,0,0,0,0,0
3500,-3.34121e-12,0,-1.60441e-06,-3.40794e-12,0,0,-1.13891e-13,0,0,0,0,0,0,0,0,0,0,0,0,0,0,0,0,0,0,0,0,0,-0.261799,2.39876e-10,-1.5,nan,0,0,0,0,0
3510,-3.34121e-12,0,-1.60441e-06,-3.40794e-12,0,-3.92437e-12,-1.13892e-13,0,0,0,0,0,0,0,0,0,0,0,0,0,0,0,0,0,0,0,0,0,-0.261799,2.29461e-10,-1.5,nan,0,0,0,0,0
3520,-3.34121e-12,0,-1.60441e-06,-3.40794e-12,0,0,-1.13892e-13,0,0,0,0,0,0,0,0,0,0,0,0,0,0,0,0,0,0,0,0,0,-0.261799,2.19941e-10,-1.5,nan,0,0,0,0,0
3530,-3.34121e-12,0,-1.60441e-06,-3.40794e-12,0,-3.92437e-12,-1.13893e-13,0,0,0,0,0,0,0,0,0,0,0,0,0,0,0,0,0,0,0,0,0,-0.261799,2.10392e-10,-1.5,nan,0,0,0,0,0
3540,-3.34121e-12,0,-1.60441e-06,-3.40794e-12,0,0,-1.13893e-13,0,0,0,0,0,0,0,0,0,0,0,0,0,0,0,0,0,0,0,0,0,-0.261799,2.04147e-10,-1.5,nan,0,0,0,0,0
3550,-3.34121e-12,0,-1.60441e-06,-3.40794e-12,0,-3.92437e-12,-1.13894e-13,0,0,0,0,0,0,0,0,0,0,0,0,0,0,0,0,0,0,0,0,0,-0.261799,1.97284e-10,-1.5,nan,0,0,0,0,0
3560,-3.34121e-12,0,-1.60441e-06,-3.40794e-12,0,0,-1.13894e-13,0,0,0,0,0,0,0,0,0,0,0,0,0,0,0,0,0,0,0,0,0,-0.261799,1.91044e-10,-1.5,nan,0,0,0,0,0
3570,-3.34121e-12,0,-1.60441e-06,-3.40794e-12,0,-3.92437e-12,-1.13895e-13,0,0,0,0,0,0,0,0,0,0,0,0,0,0,0,0,0,0,0,0,0,-0.261799,1.84622e-10,-1.5,nan,0,0,0,0,0
3580,-3.34121e-12,0,-1.60441e-06,-3.40794e-12,0,0,-1.13895e-13,0,0,0,0,0,0,0,0,0,0,0,0,0,0,0,0,0,0,0,0,0,-0.261799,1.76606e-10,-1.5,nan,0,0,0,0,0
3590,-3.34121e-12,0,-1.60441e-06,-3.40794e-12,0,-3.92437e-12,-1.13896e-13,0,0,0,0,0,0,0,0,0,0,0,0,0,0,0,0,0,0,0,0,0,-0.261799,1.69279e-10,-1.5,nan,0,0,0,0,0
3600,-3.34121e-12,0,-1.60441e-06,-3.40794e-12,0,0,-1.13896e-13,0,0,0,0,0,0,0,0,0,0,0,0,0,0,0,0,0,0,0,0,0,-0.261799,1.61922e-10,-1.5,nan,0,0,0,0,0
3610,-3.34121e-12,0,-1.60441e-06,-3.40794e-12,0,-3.92437e-12,-1.13897e-13,0,0,0,0,0,0,0,0,0,0,0,0,0,0,0,0,0,0,0,0,0,-0.261799,1.54892e-10,-1.5,nan,0,0,0,0,0
3620,-3.34121e-12,0,-1.60441e-06,-3.40794e-12,0,0,-1.13897e-13,0,0,0,0,0,0,0,0,0,0,0,0,0,0,0,0,0,0,0,0,0,-0.261799,1.48465e-10,-1.5,nan,0,0,0,0,0
3630,-3.34121e-12,0,-1.60441e-06,-3.40794e-12,0,-3.92437e-12,-1.13898e-13,0,0,0,0,0,0,0,0,0,0,0,0,0,0,0,0,0,0,0,0,0,-0.261799,1.4202e-10,-1.5,nan,0,0,0,0,0
3640,-3.34121e-12,0,-1.60441e-06,-3.40794e-12,0,0,-1.13899e-13,0,0,0,0,0,0,0,0,0,0,0,0,0,0,0,0,0,0,0,0,0,-0.261799,1.36127e-10,-1.5,nan,0,0,0,0,0
3650,-3.34121e-12,0,-1.60441e-06,-3.40794e-12,0,-3.92437e-12,-1.13899e-13,0,0,0,0,0,0,0,0,0,0,0,0,0,0,0,0,0,0,0,0,0,-0.261799,1.30217e-10,-1.5,nan,0,0,0,0,0
3660,-3.34121e-12,0,-1.60441e-06,-3.40794e-12,0,0,-1.139e-13,0,0,0,0,0,0,0,0,0,0,0,0,0,0,0,0,0,0,0,0,0,-0.261799,1.24814e-10,-1.5,nan,0,0,0,0,0
3670,-3.34121e-12,0,-1.60441e-06,-3.40794e-12,0,-3.92437e-12,-1.139e-13,0,0,0,0,0,0,0,0,0,0,0,0,0,0,0,0,0,0,0,0,0,-0.261799,1.19395e-10,-1.5,nan,0,0,0,0,0
3680,-3.34121e-12,0,-1.60441e-06,-3.40794e-12,0,0,-1.13901e-13,0,0,0,0,0,0,0,0,0,0,0,0,0,0,0,0,0,0,0,0,0,-0.261799,1.14442e-10,-1.5,nan,0,0,0,0,0
3690,-3.34121e-12,0,-1.60441e-06,-3.40794e-12,0,-3.92437e-12,-1.13901e-13,0,0,0,0,0,0,0,0,0,0,0,0,0,0,0,0,0,0,0,0,0,-0.261799,1.09473e-10,-1.5,nan,0,0,0,0,0
3700,-3.34121e-12,0,-1.60441e-06,-3.40794e-12,0,0,-1.13902e-13,0,0,0,0,0,0,0,0,0,0,0,0,0,0,0,0,0,0,0,0,0,-0.261799,1.04931e-10,-1.5,nan,0,0,0,0,0
3710,-3.34121e-12,0,-1.60441e-06,-3.40794e-12,0,-3.92437e-12,-1.13902e-13,0,0,0,0,0,0,0,0,0,0,0,0,0,0,0,0,0,0,0,0,0,-0.261799,1.00371e-10,-1.5,nan,0,0,0,0,0
3720,-3.34121e-12,0,-1.60441e-06,-3.40794e-12,0,0,-1.13903e-13,0,0,0,0,0,0,0,0,0,0,0,0,0,0,0,0,0,0,0,0,0,-0.261799,9.62063e-11,-1.5,nan,0,0,0,0,0
3730,-3.34121e-12,0,-1.60441e-06,-3.40794e-12,0,-3.92437e-12,-1.13903e-13,0,0,0,0,0,0,0,0,0,0,0,0,0,0,0,0,0,0,0,0,0,-0.261799,9.20295e-11,-1.5,nan,0,0,0,0,0
3740,-3.34121e-12,0,-1.60441e-06,-3.40794e-12,0,0,-1.13904e-13,0,0,0,0,0,0,0,0,0,0,0,0,0,0,0,0,0,0,0,0,0,-0.261799,8.8034e-11,-1.5,nan,0,0,0,0,0
3750,-3.34121e-12,0,-1.60441e-06,-3.40794e-12,0,-3.92437e-12,-1.13905e-13,0,0,0,0,0,0,0,0,0,0,0,0,0,0,0,0,0,0,0,0,0,-0.261799,8.43814e-11,-1.5,nan,0,0,0,0,0
3760,-3.34121e-12,0,-1.60441e-06,-3.40794e-12,0,0,-1.13905e-13,0,0,0,0,0,0,0,0,0,0,0,0,0,0,0,0,0,0,0,0,0,-0.261799,8.05482e-11,-1.5,nan,0,0,0,0,0
3770,-3.34121e-12,0,-1.60441e-06,-3.40794e-12,0,-3.92437e-12,-1.13906e-13,0,0,0,0,0,0,0,0,0,0,0,0,0,0,0,0,0,0,0,0,0,-0.261799,7.72094e-11,-1.5,nan,0,0,0,0,0
3780,-3.34121e-12,0,-1.60441e-06,-3.40794e-12,0,0,-1.13906e-13,0,0,0,0,0,0,0,0,0,0,0,0,0,0,0,0,0,0,0,0,0,-0.261799,7.38573e-11,-1.5,nan,0,0,0,0,0
3790,-3.34121e-12,0,-1.60441e-06,-3.40794e-12,0,-3.92437e-12,-1.13907e-13,0,0,0,0,0,0,0,0,0,0,0,0,0,0,0,0,0,0,0,0,0,-0.261799,7.09383e-11,-1.5,nan,0,0,0,0,0
3800,-3.34121e-12,0,-1.60441e-06,-3.40794e-12,0,0,-1.13907e-13,0,0,0,0,0,0,0,0,0,0,0,0,0,0,0,0,0,0,0,0,0,-0.261799,6.77191e-11,-1.5,nan,0,0,0,0,0
3810,-3.34121e-12,0,-1.60441e-06,-3.40794e-12,0,-3.92437e-12,-1.13908e-13,0,0,0,0,0,0,0,0,0,0,0,0,0,0,0,0,0,0,0,0,0,-0.261799,6.47761e-11,-1.5,nan,0,0,0,0,0
3820,-3.34121e-12,0,-1.60441e-06,-3.40794e-12,0,0,-1.13908e-13,0,0,0,0,0,0,0,0,0,0,0,0,0,0,0,0,0,0,0,0,0,-0.261799,6.2726e-11,-1.5,nan,0,0,0,0,0
3830,-3.34121e-12,0,-1.60441e-06,-3.40794e-12,0,-3.92437e-12,-1.13909e-13,0,0,0,0,0,0,0,0,0,0,0,0,0,0,0,0,0,0,0,0,0,-0.261799,6.06172e-11,-1.5,nan,0,0,0,0,0
3840,-3.34121e-12,0,-1.60441e-06,-3.40794e-12,0,0,-1.13909e-13,0,0,0,0,0,0,0,0,0,0,0,0,0,0,0,0,0,0,0,0,0,-0.261799,5.86987e-11,-1.5,nan,0,0,0,0,0
3850,-3.34121e-12,0,-1.60441e-06,-3.40794e-12,0,-3.92437e-12,-1.1391e-13,0,0,0,0,0,0,0,0,0,0,0,0,0,0,0,0,0,0,0,0,0,-0.261799,5.62633e-11,-1.5,nan,0,0,0,0,0
3860,-3.34121e-12,0,-1.60441e-06,-3.40794e-12,0,0,-1.13911e-13,0,0,0,0,0,0,0,0,0,0,0,0,0,0,0,0,0,0,0,0,0,-0.261799,5.39289e-11,-1.5,nan,0,0,0,0,0
3870,-3.34121e-12,0,-1.60441e-06,-3.40794e-12,0,-3.92437e-12,-1.13911e-13,0,0,0,0,0,0,0,0,0,0,0,0,0,0,0,0,0,0,0,0,0,-0.261799,5.15875e-11,-1.5,nan,0,0,0,0,0
3880,-3.34121e-12,0,-1.60441e-06,-3.40794e-12,0,0,-1.13912e-13,0,0,0,0,0,0,0,0,0,0,0,0,0,0,0,0,0,0,0,0,0,-0.261799,4.94471e-11,-1.5,nan,0,0,0,0,0
3890,-3.34121e-12,0,-1.60441e-06,-3.40794e-12,0,-3.92437e-12,-1.13912e-13,0,0,0,0,0,0,0,0,0,0,0,0,0,0,0,0,0,0,0,0,0,-0.261799,4.72982e-11,-1.5,nan,0,0,0,0,0
3900,-3.34121e-12,0,-1.60441e-06,-3.40794e-12,0,0,-1.13913e-13,0,0,0,0,0,0,0,0,0,0,0,0,0,0,0,0,0,0,0,0,0,-0.261799,4.26434e-11,-1.5,nan,0,0,0,0,0
3910,-3.34121e-12,0,-1.60441e-06,-3.40794e-12,0,-3.92437e-12,-1.13913e-13,0,0,0,0,0,0,0,0,0,0,0,0,0,0,0,0,0,0,0,0,0,-0.261799,3.96151e-11,-1.5,nan,0,0,0,0,0
3920,-3.34121e-12,0,-1.60441e-06,-3.40794e-12,0,0,-1.13914e-13,0,0,0,0,0,0,0,0,0,0,0,0,0,0,0,0,0,0,0,0,0,-0.261799,3.71171e-11,-1.5,nan,0,0,0,0,0
3930,-3.34121e-12,0,-1.60441e-06,-3.40794e-12,0,-3.92437e-12,-1.13914e-13,0,0,0,0,0,0,0,0,0,0,0,0,0,0,0,0,0,0,0,0,0,-0.261799,3.55771e-11,-1.5,nan,0,0,0,0,0
3940,-3.34121e-12,0,-1.60441e-06,-3.40794e-12,0,0,-1.13915e-13,0,0,0,0,0,0,0,0,0,0,0,0,0,0,0,0,0,0,0,0,0,-0.261799,3.40325e-11,-1.5,nan,0,0,0,0,0
3950,-3.34121e-12,0,-1.60441e-06,-3.40794e-12,0,-3.92437e-12,-1.13915e-13,0,0,0,0,0,0,0,0,0,0,0,0,0,0,0,0,0,0,0,0,0,-0.261799,3.26218e-11,-1.5,nan,0,0,0,0,0
3960,-3.34121e-12,0,-1.60441e-06,-3.40794e-12,0,0,-1.13916e-13,0,0,0,0,0,0,0,0,0,0,0,0,0,0,0,0,0,0,0,0,0,-0.261799,3.12055e-11,-1.5,nan,0,0,0,0,0
