timestamp,A_x,A_y,A_z,P,Q,R,Phi,Theta,Psi,poseX,poseY,poseZ,state_X,state_Y,state_Z,state_VzB,state_Bx,state_By,state_Bz,p1_x,p1_y,p2_x,p2_y,p3_x,p3_y,p4_x,p4_y,roll,pitch,yaw,alt,targetHeading,highLevelState,lowLevelState,gateNumber,filtered_x,filtered_y,x_OT,y_OT,vx_OT,vy_OT
10,0,0,0,0,0,0,0,0,0,0,0,0,0,0,0,0,0,0,0,0,0,0,0,0,0,0,0,0,-0.261799,0.0062205,-1.5,3.94113e+12,0,0,3,0,0,0,0,0,0
20,-3.21068e-12,0,-1.57041e-06,-3.27738e-12,0,0,-1.13703e-13,0,0,0,0,0,0,0,0,0,0,0,0,0,0,0,0,0,0,0,0,0,-0.261799,0.00161093,-1.5,3.94113e+12,0,0,3,0,0,0,0,0,0
30,-3.21068e-12,0,-1.57041e-06,-3.27738e-12,0,-3.40903e-12,-1.13703e-13,0,0,0,0,0,0,0,0,0,0,0,0,0,0,0,0,0,0,0,0,0,-0.261799,0.00156947,-1.5,3.94113e+12,0,0,3,0,0,0,0,0,0
40,-3.21068e-12,0,-1.57041e-06,-3.27738e-12,0,0,-1.13704e-13,0,0,0,0,0,0,0,0,0,0,0,0,0,0,0,0,0,0,0,0,0,-0.261799,0.00130403,-1.5,3.94113e+12,0,0,3,0,0,0,0,0,0
50,-3.21068e-12,0,-1.57041e-06,-3.27738e-12,0,-3.40903e-12,-1.13704e-13,0,0,0,0,0,0,0,0,0,0,0,0,0,0,0,0,0,0,0,0,0,-0.261799,0.00125254,-1.5,3.94113e+12,0,0,3,0,0,0,0,0,0
60,-3.21068e-12,0,-1.57041e-06,-3.27738e-12,0,0,-1.13705e-13,0,0,0,0,0,0,0,0,0,0,0,0,0,0,0,0,0,0,0,0,0,-0.261799,0.001028,-1.5,3.94113e+12,0,0,3,0,0,0,0,0,0
70,-3.21068e-12,0,-1.57041e-06,-3.27738e-12,0,-3.40903e-12,-1.13705e-13,0,0,0,0,0,0,0,0,0,0,0,0,-1368604256,-436093444,-1368604256,-436093444,-1450951726,-1368604256,-1368604208,-1368604208,0,-0.261799,0.00098741,-1.5,3.94113e+12,0,0,3,0,0,0,0,0,0
80,-3.21068e-12,0,-1.57041e-06,-3.27738e-12,0,0,-1.13706e-13,0,0,-3.2768,0.00874262,0.402243,0,0,0,0,0,0.723196,0.00874262,-1368604256,-436093444,-1368604256,-436093444,-1450951726,-1368604256,-1368604208,-1368604208,0,-0.261799,0.000940612,-1.5,3.94113e+12,0,0,3,0,0,0,0,0,0
90,-3.21068e-12,0,-1.57041e-06,-3.27738e-12,0,-3.40903e-12,-1.13706e-13,0,0,-3.26837,0.00979827,0.396484,0,0,0,0,0,0.731627,0.00979827,-1368604256,-436093444,-1368604256,-436093444,-1450951726,-1368604256,-1368604208,-1368604208,0,-0.261799,0.000790507,-1.5,3.94113e+12,0,0,3,0,0,0,0,0,0
100,-3.21068e-12,0,-1.57041e-06,-3.27738e-12,0,0,-1.13707e-13,0,0,-3.35237,-0.00312892,0.443547,0,0,0,0,0,0.647628,-0.00312892,-1368604256,-436093444,-1368604256,-436093444,-1450951726,-1368604256,-1368604208,-1368604208,0,-0.261799,0.000756152,-1.5,3.94113e+12,0,0,3,0,0,0,0,0,0
110,-3.21068e-12,0,-1.57041e-06,-3.27738e-12,0,-3.40903e-12,-1.13708e-13,0,0,-3.35237,-0.00312892,0.443547,0,0,0,0,0,0.647628,-0.00312892,-1368604256,-436093444,-1368604256,-436093444,-1450951726,-1368604256,-1368604208,-1368604208,0,-0.261799,0.000633996,-1.5,3.94113e+12,0,0,3,0,0,0,0,0,0
120,-3.21068e-12,0,-1.57041e-06,-3.27738e-12,0,0,-1.13708e-13,0,0,-3.35237,-0.00312892,0.443547,0,0,0,0,0,0.647628,-0.00312892,-1368604256,-436093444,-1368604256,-436093444,-1450951726,-1368604256,-1368604208,-1368604208,0,-0.261799,0.000529261,-1.5,3.94113e+12,0,0,3,0,0,0,0,0,0
130,-3.21068e-12,0,-1.57041e-06,-3.27738e-12,0,-3.40903e-12,-1.13709e-13,0,0,-3.35237,-0.00312892,0.443547,0,0,0,0,0,0.647628,-0.00312892,-1368604256,-436093444,-1368604256,-436093444,-1450951726,-1368604256,-1368604208,-1368604208,0,-0.261799,0.000509385,-1.5,3.94113e+12,0,0,3,0,0,0,0,0,0
140,-3.21068e-12,0,-1.57041e-06,-3.27738e-12,0,0,-1.13709e-13,0,0,-3.35237,-0.00312892,0.443547,0,0,0,0,0,0.647628,-0.00312892,-1368604256,-436093444,-1368604256,-436093444,-1450951726,-1368604256,-1368604208,-1368604208,0,-0.261799,0.000427236,-1.5,3.94113e+12,0,0,3,0,0,0,0,0,0
150,-3.21068e-12,0,-1.57041e-06,-3.27738e-12,0,-3.40903e-12,-1.1371e-13,0,0,-3.35237,-0.00312892,0.443547,0,0,0,0,0,0.647628,-0.00312892,-1368604256,-436093444,-1368604256,-436093444,-1450951726,-1368604256,-1368604208,-1368604208,0,-0.261799,0.000411192,-1.5,3.94113e+12,0,0,3,0,0,0,0,0,0
160,-3.21068e-12,0,-1.57041e-06,-3.27738e-12,0,0,-1.1371e-13,0,0,-3.35237,-0.00312892,0.443547,0,0,0,0,0,0.647628,-0.00312892,-1368604256,-436093444,-1368604256,-436093444,-1450951726,-1368604256,-1368604208,-1368604208,0,-0.261799,0.000344763,-1.5,3.94113e+12,0,0,3,0,0,0,0,0,0
170,-3.21068e-12,0,-1.57041e-06,-3.27738e-12,0,-3.40903e-12,-1.13711e-13,0,0,-3.35237,-0.00312892,0.443547,0,0,0,0,0,0.647628,-0.00312892,-1368604256,-436093444,-1368604256,-436093444,-1450951726,-1368604256,-1368604208,-1368604208,0,-0.261799,0.000331137,-1.5,3.94113e+12,0,0,3,0,0,0,0,0,0
180,-3.21068e-12,0,-1.57041e-06,-3.27738e-12,0,0,-1.13711e-13,0,0,-3.29988,0.00645608,0.421235,0,0,0,0,0,0.700123,0.00645608,-1368604256,-436093444,-1368604256,-436093444,-1450951726,-1368604256,-1368604208,-1368604208,-0.00220199,-0.261799,0.000249766,-1.5,3.94113e+12,0,0,3,0.694272,0.00587633,0,0,0,0
190,-3.21068e-12,0,-1.57041e-06,-3.27738e-12,0,-3.40903e-12,-1.13712e-13,0,0,-3.3243,0.00880918,0.431593,0,0,0,0,0,0.675699,0.00880918,-1368604256,-436093444,-1368604256,-436093444,-1450951726,-1368604256,-1368604208,-1368604208,-0.0103656,-0.261799,0.000234017,-1.5,3.94113e+12,0,0,3,0.67324,0.00881263,0,0,0,0
200,-3.21068e-12,0,-1.57041e-06,-3.27738e-12,0,0,-1.13712e-13,0,0,-3.3243,0.00880918,0.431593,0,0,0,0,0,0.675699,0.00880918,-1368604256,-436093444,-1368604256,-436093444,-1450951726,-1368604256,-1368604208,-1368604208,-0.0103672,-0.261799,0.000227994,-1.5,3.94113e+12,0,0,3,0.67224,0.00881403,0,0,0,0
210,-3.21068e-12,0,-1.57041e-06,-3.27738e-12,0,-3.40903e-12,-1.13713e-13,0,0,-3.30367,0.00921877,0.416082,0,0,0,0,0,0.696333,0.00921877,-1368604256,-436093444,-1368604256,-436093444,-1450951726,-1368604256,-1368604208,-1368604208,-0.010398,-0.261799,0.000117569,-1.5,3.94113e+12,0,0,3,0.680653,0.00884053,0,0,0,0
220,-3.21068e-12,0,-1.57041e-06,-3.27738e-12,0,0,-1.13714e-13,0,0,-3.30367,0.00921877,0.416082,0,0,0,0,0,0.696333,0.00921877,-1368604256,-436093444,-1368604256,-436093444,-1450951726,-1368604256,-1368604208,-1368604208,-0.0103995,-0.261799,0.000114773,-1.5,3.94113e+12,0,0,3,0.680092,0.00884182,0,0,0,0
230,-3.21068e-12,0,-1.57041e-06,-3.27738e-12,0,-3.40903e-12,-1.13714e-13,0,0,-3.30367,0.00921877,0.416082,0,0,0,0,0,0.696333,0.00921877,-1368604256,-436093444,-1368604256,-436093444,-1450951726,-1368604256,-1368604208,-1368604208,-0.0104094,-0.261799,9.69092e-05,-1.5,3.94113e+12,0,0,3,0.676394,0.00885033,0,0,0,0
240,-3.21068e-12,0,-1.57041e-06,-3.27738e-12,0,0,-1.13715e-13,0,0,-3.30367,0.00921877,0.416082,0,0,0,0,0,0.696333,0.00921877,-1368604256,-436093444,-1368604256,-436093444,-1450951726,-1368604256,-1368604208,-1368604208,-0.0104197,-0.261799,8.12535e-05,-1.5,3.94113e+12,0,0,3,0.672557,0.00885916,0,0,0,0
250,-3.21068e-12,0,-1.57041e-06,-3.27738e-12,0,-3.40903e-12,-1.13715e-13,0,0,-3.30367,0.00921877,0.416082,0,0,0,0,0,0.696333,0.00921877,-1368604256,-436093444,-1368604256,-436093444,-1450951726,-1368604256,-1368604208,-1368604208,-0.0104224,-0.261799,7.78822e-05,-1.5,3.94113e+12,0,0,3,0.671574,0.00886142,0,0,0,0
260,-3.21068e-12,0,-1.57041e-06,-3.27738e-12,0,0,-1.13716e-13,0,0,-3.30367,0.00921877,0.416082,0.667784,0.00887014,-0.0465911,0.000107222,0,0.696333,0.00921877,-1368604256,-436093444,-1368604256,-436093444,-1450951726,-1368604256,-1368604208,-1368604208,-0.010432,-0.261799,6.54752e-05,-1.5,3.94113e+12,0,0,3,0.667784,0.00887014,0,0,0,0
270,-3.21068e-12,0,-1.57041e-06,-3.27738e-12,0,-3.40903e-12,-1.13716e-13,0,0,-3.30367,0.00921877,0.416082,0.666859,0.00887227,-0.0461266,0.000106153,0,0.696333,0.00921877,-1368604256,-436093444,-1368604256,-436093444,-1450951726,-1368604256,-1368604208,-1368604208,-0.0104334,-0.261799,6.28874e-05,-1.5,3.94113e+12,0,0,3,0.666859,0.00887227,0,0,0,0
280,-3.21068e-12,0,-1.57041e-06,-3.27738e-12,0,0,-1.13717e-13,0,0,-3.30941,0.0093796,0.422138,0.662836,0.00888153,-0.0440358,0.000101341,0,0.690592,0.0093796,-1368604256,-436093444,-1368604256,-436093444,-1450951726,-1368604256,-1368604208,-1368604208,-0.0104394,-0.261799,5.1614e-05,-1.5,3.94113e+12,0,0,3,0.662836,0.00888153,0,0,0,0
290,-3.21068e-12,0,-1.57041e-06,-3.27738e-12,0,-3.40903e-12,-1.13717e-13,0,0,-3.3165,0.016033,0.414008,0.659318,0.00888963,-0.0422159,9.7153e-05,0,0.683502,0.016033,-1368604256,-436093444,-1368604256,-436093444,-1450951726,-1368604256,-1368604208,-1368604208,-0.0104446,-0.261799,4.31888e-05,-1.5,3.94113e+12,0,0,3,0.659318,0.00888963,0,0,0,0
300,-3.21068e-12,0,-1.57041e-06,-3.27738e-12,0,0,-1.13718e-13,0,0,-3.3165,0.016033,0.414008,0.658437,0.00889165,-0.0417741,9.61363e-05,0,0.683502,0.016033,-1368604256,-436093444,-1368604256,-436093444,-1450951726,-1368604256,-1368604208,-1368604208,-0.010446,-0.261799,4.13986e-05,-1.5,3.94113e+12,0,0,3,0.658437,0.00889165,0,0,0,0
310,-3.21068e-12,0,-1.57041e-06,-3.27738e-12,0,-3.40903e-12,-1.13718e-13,0,0,-3.25247,0.0106988,0.38448,0.65769,0.00889337,-0.0413992,9.52735e-05,0,0.747533,0.0106988,-1368604256,-436093444,-1368604256,-436093444,-1450951726,-1368604256,-1368604208,-1368604208,-0.0104471,-0.261799,3.99253e-05,-1.5,3.94113e+12,0,0,3,0.65769,0.00889337,0,0,0,0
320,-3.21068e-12,0,-1.57041e-06,-3.27738e-12,0,0,-1.13719e-13,0,0,-3.25247,0.0106988,0.38448,0.657113,0.0088947,-0.0411102,9.46083e-05,0,0.747533,0.0106988,-1368604256,-436093444,-1368604256,-436093444,-1450951726,-1368604256,-1368604208,-1368604208,-0.010448,-0.261799,3.88189e-05,-1.5,3.94113e+12,0,0,3,0.657113,0.0088947,0,0,0,0
330,-3.21068e-12,0,-1.57041e-06,-3.27738e-12,0,-3.40903e-12,-1.13719e-13,0,0,-3.3165,0.016033,0.414008,0.654056,0.00890173,-0.039534,9.09811e-05,0,0.683502,0.016033,-1368604256,-436093444,-1368604256,-436093444,-1450951726,-1368604256,-1368604208,-1368604208,-0.0104526,-0.261799,3.29398e-05,-1.5,3.94113e+12,0,0,3,0.654056,0.00890173,0,0,0,0
340,-3.21068e-12,0,-1.57041e-06,-3.27738e-12,0,0,-1.1372e-13,0,0,-3.3165,0.016033,0.414008,0.650934,0.00890892,-0.0379199,8.72664e-05,0,0.683502,0.016033,-1368604256,-436093444,-1368604256,-436093444,-1450951726,-1368604256,-1368604208,-1368604208,-0.0104572,-0.261799,2.76276e-05,-1.5,3.94113e+12,0,0,3,0.650934,0.00890892,0,0,0,0
350,-3.21068e-12,0,-1.57041e-06,-3.27738e-12,0,-3.40903e-12,-1.13721e-13,0,0,-3.3165,0.016033,0.414008,0.647975,0.00891573,-0.0363899,8.37454e-05,0,0.683502,0.016033,-1368604256,-436093444,-1368604256,-436093444,-1450951726,-1368604256,-1368604208,-1368604208,-0.0104616,-0.261799,2.32187e-05,-1.5,3.94113e+12,0,0,3,0.647975,0.00891573,0,0,0,0
360,-3.21068e-12,0,-1.57041e-06,-3.27738e-12,0,0,-1.13721e-13,0,0,-3.3165,0.016033,0.414008,0.647217,0.00891747,-0.036009,8.28687e-05,0,0.683502,0.016033,-1368604256,-436093444,-1368604256,-436093444,-1450951726,-1368604256,-1368604208,-1368604208,-0.0104628,-0.261799,2.22554e-05,-1.5,3.94113e+12,0,0,3,0.647217,0.00891747,0,0,0,0
370,-3.21068e-12,0,-1.57041e-06,-3.27738e-12,0,-3.40903e-12,-1.13722e-13,0,0,-3.3165,0.016033,0.414008,0.644373,0.00892402,-0.0345388,7.94853e-05,0,0.683502,0.016033,-1368604256,-436093444,-1368604256,-436093444,-1450951726,-1368604256,-1368604208,-1368604208,-0.010467,-0.261799,1.86663e-05,-1.5,3.94113e+12,0,0,3,0.644373,0.00892402,0,0,0,0
380,-3.21068e-12,0,-1.57041e-06,-3.27738e-12,0,0,-1.13722e-13,0,0,-3.3165,0.016033,0.414008,0.641517,0.00893059,-0.0330598,7.60818e-05,0,0.683502,0.016033,-1368604256,-436093444,-1368604256,-436093444,-1450951726,-1368604256,-1368604208,-1368604208,-0.0104712,-0.261799,1.55093e-05,-1.5,3.94113e+12,0,0,3,0.641517,0.00893059,0,0,0,0
390,-3.21068e-12,0,-1.57041e-06,-3.27738e-12,0,-3.40903e-12,-1.13723e-13,0,0,-3.32927,0.00856626,0.426091,0.66042,-0.00606042,-0.01071,-0.0151914,0,0.670732,0.00856626,-1368604256,-436093444,-1368604256,-436093444,-1450951726,-1368604256,-1368604208,-1368604208,0.0222457,-0.261799,-1.37669e-05,-1.5,3.94113e+12,0,0,3,0.66042,-0.00606042,0,0,0,0
400,-3.21068e-12,0,-1.57041e-06,-3.27738e-12,0,0,-1.13723e-13,0,0,-3.31672,0.0159361,0.423659,0.660282,-0.00625712,-0.0106406,-0.0150929,0,0.683278,0.0159361,-1368604256,-436093444,-1368604256,-436093444,-1450951726,-1368604256,-1368604208,-1368604208,0.0223762,-0.261799,-1.34125e-05,-1.5,3.94113e+12,0,0,3,0.660282,-0.00625712,0,0,0,0
410,-3.21068e-12,0,-1.57041e-06,-3.27738e-12,0,-3.40903e-12,-1.13724e-13,0,0,-3.29931,0.0869512,0.38247,0.658298,-0.00907021,-0.00954357,-0.0135369,0,0.70069,0.0869512,-1368604256,-436093444,-1368604256,-436093444,-1450951726,-1368604256,-1368604208,-1368604208,0.0240946,-0.261799,-7.94588e-06,-1.5,3.94113e+12,0,0,3,0.658298,-0.00907021,0,0,0,0
420,-3.21068e-12,0,-1.57041e-06,-3.27738e-12,0,0,-1.13724e-13,0,0,-3.29931,0.0869512,0.38247,0.658015,-0.00947159,-0.00940089,-0.0133345,0,0.70069,0.0869512,-1368604256,-436093444,-1368604256,-436093444,-1450951726,-1368604256,-1368604208,-1368604208,0.0243594,-0.261799,-7.47545e-06,-1.5,3.94113e+12,0,0,3,0.658015,-0.00947159,0,0,0,0
430,-3.21068e-12,0,-1.57041e-06,-3.27738e-12,0,-3.40903e-12,-1.13725e-13,0,0,-3.28496,0.0843221,0.391883,0.657838,-0.00972328,-0.00931184,-0.0132082,0,0.715043,0.0843221,-1368604256,-436093444,-1368604256,-436093444,-1450951726,-1368604256,-1368604208,-1368604208,0.0245261,-0.261799,-7.19472e-06,-1.5,3.94113e+12,0,0,3,0.657838,-0.00972328,0,0,0,0
440,-3.21068e-12,0,-1.57041e-06,-3.27738e-12,0,0,-1.13725e-13,0,0,-3.363,-0.0152673,0.457507,0.656336,-0.0118539,-0.00852924,-0.0120981,0,0.636999,-0.0152673,-1368604256,-436093444,-1368604256,-436093444,-1450951726,-1368604256,-1368604208,-1368604208,0.261799,-0.261799,-4.94312e-06,-1.5,3.94113e+12,0,0,3,0.620118,-0.0423736,0,0,0,0
450,-3.21068e-12,0,-1.57041e-06,-3.27738e-12,0,-3.40903e-12,-1.13726e-13,0,0,-3.25189,-0.00220148,0.397868,0.656041,-0.0122722,-0.0083808,-0.0118876,0,0.748107,-0.00220148,-1368604256,-436093444,-1368604256,-436093444,-1450951726,-1368604256,-1368604208,-1368604208,0.205244,-0.261799,-4.60464e-06,-1.5,3.94113e+12,0,0,3,0.728916,-0.0055807,0,0,0,0
460,-3.21068e-12,0,-1.57041e-06,-3.27738e-12,0,0,-1.13727e-13,0,0,-3.25189,-0.00220148,0.397868,0.655924,-0.0124379,-0.00832228,-0.0118046,0,0.748107,-0.00220148,-1368604256,-436093444,-1368604256,-436093444,-1450951726,-1368604256,-1368604208,-1368604208,0.208399,-0.261799,-4.47703e-06,-1.5,3.94113e+12,0,0,3,0.729781,-0.00836252,0,0,0,0
470,-3.21068e-12,0,-1.57041e-06,-3.27738e-12,0,-3.40903e-12,-1.13727e-13,0,0,-3.31299,-0.00107906,0.425625,0.65428,-0.0147699,-0.0074067,-0.0105059,0,0.687012,-0.00107906,-1368604256,-436093444,-1368604256,-436093444,-1450951726,-1368604256,-1368604208,-1368604208,0.257883,-0.261799,-2.53266e-06,-1.5,3.94113e+12,0,0,3,0.681049,-0.0519906,0,0,0,0
480,-3.21068e-12,0,-1.57041e-06,-3.27738e-12,0,0,-1.13728e-13,0,0,-3.25456,-0.00756129,0.38215,0.654125,-0.0149891,-0.00732921,-0.010396,0,0.74544,-0.00756129,-1368604256,-436093444,-1368604256,-436093444,-1450951726,-1368604256,-1368604208,-1368604208,0.234548,-0.261799,-2.42776e-06,-1.5,3.94113e+12,0,0,3,0.746427,-0.0451552,0,0,0,0
490,-3.21068e-12,0,-1.57041e-06,-3.27738e-12,0,-3.40903e-12,-1.13728e-13,0,0,-3.25456,-0.00756129,0.38215,0.654045,-0.015103,-0.00728899,-0.0103389,0,0.74544,-0.00756129,-1368604256,-436093444,-1368604256,-436093444,-1450951726,-1368604256,-1368604208,-1368604208,0.23682,-0.261799,-2.37481e-06,-1.5,3.94113e+12,0,0,3,0.747152,-0.0471566,0,0,0,0
500,-3.21068e-12,0,-1.57041e-06,-3.27738e-12,0,0,-1.13729e-13,0,0,-3.31427,-0.0108449,0.405321,0.65193,-0.0181027,-0.00601844,-0.00853673,0,0.685725,-0.0108449,-1368604256,-436093444,-1368604256,-436093444,-1450951726,-1368604256,-1368604208,-1368604208,0.0572797,-0.261799,-7.38505e-07,-1.5,3.94113e+12,0,0,3,0.677554,-0.0211568,0,0,0,0
510,-3.21068e-12,0,-1.57041e-06,-3.27738e-12,0,-3.40903e-12,-1.13729e-13,0,0,-3.31427,-0.0108449,0.405321,0.651864,-0.0181963,-0.00598541,-0.00848989,0,0.685725,-0.0108449,-1368604256,-436093444,-1368604256,-436093444,-1450951726,-1368604256,-1368604208,-1368604208,0.0576505,-0.261799,-7.22399e-07,-1.5,3.94113e+12,0,0,3,0.677346,-0.0215156,0,0,0,0
520,-3.21068e-12,0,-1.57041e-06,-3.27738e-12,0,0,-1.1373e-13,0,0,-3.31427,-0.0108449,0.405321,0.651799,-0.0182894,-0.00595256,-0.00844329,0,0.685725,-0.0108449,-1368604256,-436093444,-1368604256,-436093444,-1450951726,-1368604256,-1368604208,-1368604208,0.058021,-0.261799,-7.06644e-07,-1.5,3.94113e+12,0,0,3,0.677138,-0.021874,0,0,0,0
530,-3.21068e-12,0,-1.57041e-06,-3.27738e-12,0,-3.40903e-12,-1.1373e-13,0,0,-3.31427,-0.0108449,0.405321,0.651542,-0.018654,-0.00582207,-0.0082582,0,0.685725,-0.0108449,-1368604256,-436093444,-1368604256,-436093444,-1450951726,-1368604256,-1368604208,-1368604208,0.0594955,-0.261799,-6.45336e-07,-1.5,3.94113e+12,0,0,3,0.676311,-0.0232997,0,0,0,0
540,-3.21068e-12,0,-1.57041e-06,-3.27738e-12,0,0,-1.13731e-13,0,0,-3.31427,-0.0108449,0.405321,0.651273,-0.0190346,-0.00568579,-0.0080649,0,0.685725,-0.0108449,-1368604256,-436093444,-1368604256,-436093444,-1450951726,-1368604256,-1368604208,-1368604208,0.0610645,-0.261799,-5.85629e-07,-1.5,3.94113e+12,0,0,3,0.675435,-0.0248138,0,0,0,0
550,-3.21068e-12,0,-1.57041e-06,-3.27738e-12,0,-3.40903e-12,-1.13731e-13,0,0,-3.31427,-0.0108449,0.405321,0.651172,-0.0191789,-0.00563477,-0.00799252,0,0.685725,-0.0108449,-1368604256,-436093444,-1368604256,-436093444,-1450951726,-1368604256,-1368604208,-1368604208,0.0616654,-0.261799,-5.64789e-07,-1.5,3.94113e+12,0,0,3,0.6751,-0.0253921,0,0,0,0
560,-3.21068e-12,0,-1.57041e-06,-3.27738e-12,0,0,-1.13732e-13,0,0,-3.31427,-0.0108449,0.405321,0.651093,-0.0192903,-0.00559543,-0.00793672,0,0.685725,-0.0108449,-1368604256,-436093444,-1368604256,-436093444,-1450951726,-1368604256,-1368604208,-1368604208,0.0621323,-0.261799,-5.49143e-07,-1.5,3.94113e+12,0,0,3,0.674841,-0.0258412,0,0,0,0
570,-3.21068e-12,0,-1.57041e-06,-3.27738e-12,0,-3.40903e-12,-1.13732e-13,0,0,-3.31427,-0.0108449,0.405321,0.674508,-0.0264168,-0.0184328,-0.0318857,0,0.685725,-0.0108449,-1368604256,-436093444,-1368604256,-436093444,-1450951726,-1368604256,-1368604208,-1368604208,0.0626347,-0.261799,-5.29601e-07,-1.5,3.94113e+12,0,0,3,0.674508,-0.0264168,0,0,0,0
580,-3.21068e-12,0,-1.57041e-06,-3.27738e-12,0,0,-1.13733e-13,0,0,-3.23809,0.0112709,0.356854,0.674124,-0.0270814,-0.0182399,-0.0315519,0,0.761912,0.0112709,-1368604256,-436093444,-1368604256,-436093444,-1450951726,-1368604256,-1368604208,-1368604208,0.0630745,-0.261799,-5.07628e-07,-1.5,3.94113e+12,0,0,3,0.674124,-0.0270814,0,0,0,0
590,-3.21068e-12,0,-1.57041e-06,-3.27738e-12,0,-3.40903e-12,-1.13734e-13,0,0,-3.20627,0.00580758,0.354584,0.673744,-0.0277391,-0.0180489,-0.0312216,0,0.793732,0.00580758,-1368604256,-436093444,-1368604256,-436093444,-1450951726,-1368604256,-1368604208,-1368604208,0.0635098,-0.261799,-4.86566e-07,-1.5,3.94113e+12,0,0,3,0.673744,-0.0277391,0,0,0,0
600,-3.21068e-12,0,-1.57041e-06,-3.27738e-12,0,0,-1.13734e-13,0,0,-3.33763,-0.025929,0.475474,0.673367,-0.0283898,-0.01786,-0.0308948,0,0.662372,-0.025929,-1368604256,-436093444,-1368604256,-436093444,-1450951726,-1368604256,-1368604208,-1368604208,0.0639404,-0.261799,-4.66378e-07,-1.5,3.94113e+12,0,0,3,0.673367,-0.0283898,0,0,0,0
610,-3.21068e-12,0,-1.57041e-06,-3.27738e-12,0,-3.40903e-12,-1.13735e-13,0,0,-3.33763,-0.025929,0.475474,0.672995,-0.0290338,-0.017673,-0.0305714,0,0.662372,-0.025929,-1368604256,-436093444,-1368604256,-436093444,-1450951726,-1368604256,-1368604208,-1368604208,0.0643666,-0.261799,-4.47027e-07,-1.5,3.94113e+12,0,0,3,0.672995,-0.0290338,0,0,0,0
620,-3.21068e-12,0,-1.57041e-06,-3.27738e-12,0,0,-1.13735e-13,0,0,-3.24454,-0.0158759,0.442046,0.672609,-0.0297012,-0.0174793,-0.0302362,0,0.755465,-0.0158759,-1368604256,-436093444,-1368604256,-436093444,-1450951726,-1368604256,-1368604208,-1368604208,0.0648083,-0.261799,-4.28498e-07,-1.5,3.94113e+12,0,0,3,0.672609,-0.0297012,0,0,0,0
630,-3.21068e-12,0,-1.57041e-06,-3.27738e-12,0,-3.40903e-12,-1.13736e-13,0,0,-3.24454,-0.0158759,0.442046,0.672262,-0.0303017,-0.017305,-0.0299348,0,0.755465,-0.0158759,-1368604256,-436093444,-1368604256,-436093444,-1450951726,-1368604256,-1368604208,-1368604208,0.0652058,-0.261799,-4.11562e-07,-1.5,3.94113e+12,0,0,3,0.672262,-0.0303017,0,0,0,0
640,-3.21068e-12,0,-1.57041e-06,-3.27738e-12,0,0,-1.13736e-13,0,0,-3.35709,-0.0603949,0.507197,0.670533,-0.0332933,-0.0164004,-0.0283699,0,0.642907,-0.0603949,-1368604256,-436093444,-1368604256,-436093444,-1450951726,-1368604256,-1368604208,-1368604208,0.261799,-0.261799,-3.26596e-07,-1.5,3.94113e+12,0,0,3,0.49221,-0.12637,0,0,0,0
650,-3.21068e-12,0,-1.57041e-06,-3.27738e-12,0,-3.40903e-12,-1.13737e-13,0,0,-3.35709,-0.0603949,0.507197,0.670272,-0.0337448,-0.0162695,-0.0281435,0,0.642907,-0.0603949,-1368604256,-436093444,-1368604256,-436093444,-1450951726,-1368604256,-1368604208,-1368604208,0.261799,-0.261799,-3.1626e-07,-1.5,3.94113e+12,0,0,3,0.46925,-0.136419,0,0,0,0
660,-3.21068e-12,0,-1.57041e-06,-3.27738e-12,0,0,-1.13737e-13,0,0,-3.35709,-0.0603949,0.507197,0.670013,-0.0341927,-0.0161397,-0.027919,0,0.642907,-0.0603949,-1368604256,-436093444,-1368604256,-436093444,-1450951726,-1368604256,-1368604208,-1368604208,0.261799,-0.261799,-3.0625e-07,-1.5,3.94113e+12,0,0,3,0.446292,-0.146464,0,0,0,0
670,-3.21068e-12,0,-1.57041e-06,-3.27738e-12,0,-3.40903e-12,-1.13738e-13,0,0,-3.35709,-0.0603949,0.507197,0.669708,-0.0347197,-0.0159868,-0.0276546,0,0.642907,-0.0603949,-1368604256,-436093444,-1368604256,-436093444,-1450951726,-1368604256,-1368604208,-1368604208,0.261799,-0.261799,-2.94749e-07,-1.5,3.94113e+12,0,0,3,0.419032,-0.158388,0,0,0,0
680,-3.21068e-12,0,-1.57041e-06,-3.27738e-12,0,0,-1.13738e-13,0,0,-3.35709,-0.0603949,0.507197,0.669485,-0.0351052,-0.0158752,-0.0274615,0,0.642907,-0.0603949,-1368604256,-436093444,-1368604256,-436093444,-1450951726,-1368604256,-1368604208,-1368604208,0.261799,-0.261799,-2.86581e-07,-1.5,3.94113e+12,0,0,3,0.398947,-0.167171,0,0,0,0
690,-3.21068e-12,0,-1.57041e-06,-3.27738e-12,0,-3.40903e-12,-1.13739e-13,0,0,-3.35709,-0.0603949,0.507197,0.669217,-0.0355695,-0.0157407,-0.0272288,0,0.642907,-0.0603949,-1368604256,-436093444,-1368604256,-436093444,-1450951726,-1368604256,-1368604208,-1368604208,0.261799,-0.261799,-2.76953e-07,-1.5,3.94113e+12,0,0,3,0.374561,-0.177832,0,0,0,0
700,-3.21068e-12,0,-1.57041e-06,-3.27738e-12,0,0,-1.1374e-13,0,0,-3.35709,-0.0603949,0.507197,0.668889,-0.036137,-0.0155759,-0.0269437,0,0.642907,-0.0603949,-1368604256,-436093444,-1368604256,-436093444,-1450951726,-1368604256,-1368604208,-1368604208,0.261799,-0.261799,-2.65462e-07,-1.5,3.94113e+12,0,0,3,0.34444,-0.190996,0,0,0,0
710,-3.21068e-12,0,-1.57041e-06,-3.27738e-12,0,-3.40903e-12,-1.1374e-13,0,0,-3.35709,-0.0603949,0.507197,0.668579,-0.0366722,-0.0154207,-0.0266752,0,0.642907,-0.0603949,-1368604256,-436093444,-1368604256,-436093444,-1450951726,-1368604256,-1368604208,-1368604208,0.261799,-0.261799,-2.5498e-07,-1.5,3.94113e+12,0,0,3,0.315757,-0.203528,0,0,0,0
720,-3.21068e-12,0,-1.57041e-06,-3.27738e-12,0,0,-1.13741e-13,0,0,-3.35709,-0.0603949,0.507197,0.668258,-0.0372282,-0.0152592,-0.0263959,0,0.642907,-0.0603949,-1368604256,-436093444,-1368604256,-436093444,-1450951726,-1368604256,-1368604208,-1368604208,0.261799,-0.261799,-2.44401e-07,-1.5,3.94113e+12,0,0,3,0.285643,-0.21668,0,0,0,0
730,-3.21068e-12,0,-1.57041e-06,-3.27738e-12,0,-3.40903e-12,-1.13741e-13,0,0,-3.35709,-0.0603949,0.507197,0.667955,-0.0377525,-0.0151071,-0.0261328,0,0.642907,-0.0603949,-1368604256,-436093444,-1368604256,-436093444,-1450951726,-1368604256,-1368604208,-1368604208,0.261799,-0.261799,-2.34741e-07,-1.5,3.94113e+12,0,0,3,0.256965,-0.229201,0,0,0,0
740,-3.21068e-12,0,-1.57041e-06,-3.27738e-12,0,0,-1.13742e-13,0,0,-3.35709,-0.0603949,0.507197,0.667625,-0.038323,-0.0149415,-0.0258463,0,0.642907,-0.0603949,-1368604256,-436093444,-1368604256,-436093444,-1450951726,-1368604256,-1368604208,-1368604208,0.261799,-0.261799,-2.2455e-07,-1.5,3.94113e+12,0,0,3,0.225424,-0.242968,0,0,0,0
750,-3.21068e-12,0,-1.57041e-06,-3.27738e-12,0,-3.40903e-12,-1.13742e-13,0,0,-3.35709,-0.0603949,0.507197,0.667343,-0.0388109,-0.0147999,-0.0256014,0,0.642907,-0.0603949,-1368604256,-436093444,-1368604256,-436093444,-1450951726,-1368604256,-1368604208,-1368604208,0.261799,-0.261799,-2.16117e-07,-1.5,3.94113e+12,0,0,3,0.198187,-0.254853,0,0,0,0
760,-3.21068e-12,0,-1.57041e-06,-3.27738e-12,0,0,-1.13743e-13,0,0,-3.35709,-0.0603949,0.507197,0.66702,-0.0393696,-0.0146376,-0.0253207,0,0.642907,-0.0603949,-1368604256,-436093444,-1368604256,-436093444,-1450951726,-1368604256,-1368604208,-1368604208,0.261799,-0.261799,-2.06725e-07,-1.5,3.94113e+12,0,0,3,0.166652,-0.268608,0,0,0,0
770,-3.21068e-12,0,-1.57041e-06,-3.27738e-12,0,-3.40903e-12,-1.13743e-13,0,0,-3.35709,-0.0603949,0.507197,0.666744,-0.0398476,-0.014499,-0.0250808,0,0.642907,-0.0603949,-1368604256,-436093444,-1368604256,-436093444,-1450951726,-1368604256,-1368604208,-1368604208,0.261799,-0.261799,-1.98961e-07,-1.5,3.94113e+12,0,0,3,0.13942,-0.280482,0,0,0,0
780,-3.21068e-12,0,-1.57041e-06,-3.27738e-12,0,0,-1.13744e-13,0,0,-3.35709,-0.0603949,0.507197,0.666427,-0.040395,-0.01434,-0.0248058,0,0.642907,-0.0603949,-1368604256,-436093444,-1368604256,-436093444,-1450951726,-1368604256,-1368604208,-1368604208,0.261799,-0.261799,-1.90315e-07,-1.5,3.94113e+12,0,0,3,0.107892,-0.294226,0,0,0,0
790,-3.21068e-12,0,-1.57041e-06,-3.27738e-12,0,-3.40903e-12,-1.13744e-13,0,0,-3.35709,-0.0603949,0.507197,0.666142,-0.0408878,-0.0141971,-0.0245586,0,0.642907,-0.0603949,-1368604256,-436093444,-1368604256,-436093444,-1450951726,-1368604256,-1368604208,-1368604208,0.261799,-0.261799,-1.828e-07,-1.5,3.94113e+12,0,0,3,0.0792332,-0.306715,0,0,0,0
800,-3.21068e-12,0,-1.57041e-06,-3.27738e-12,0,0,-1.13745e-13,0,0,-3.35709,-0.0603949,0.507197,0.665931,-0.0412544,-0.0140909,-0.0243749,0,0.642907,-0.0603949,-1368604256,-436093444,-1368604256,-436093444,-1450951726,-1368604256,-1368604208,-1368604208,0.261799,-0.261799,-1.77374e-07,-1.5,3.94113e+12,0,0,3,0.057741,-0.316079,0,0,0,0
810,-3.21068e-12,0,-1.57041e-06,-3.27738e-12,0,-3.40903e-12,-1.13745e-13,0,0,-3.35709,-0.0603949,0.507197,0.665623,-0.0417865,-0.0139364,-0.0241076,0,0.642907,-0.0603949,-1368604256,-436093444,-1368604256,-436093444,-1450951726,-1368604256,-1368604208,-1368604208,0.261799,-0.261799,-1.69673e-07,-1.5,3.94113e+12,0,0,3,0.0262219,-0.329808,0,0,0,0
820,-3.21068e-12,0,-1.57041e-06,-3.27738e-12,0,0,-1.13746e-13,0,0,-3.35709,-0.0603949,0.507197,0.66536,-0.0422416,-0.0138044,-0.0238793,0,0.642907,-0.0603949,-1368604256,-436093444,-1368604256,-436093444,-1450951726,-1368604256,-1368604208,-1368604208,0.261799,-0.261799,-1.63301e-07,-1.5,3.94113e+12,0,0,3,-0.000996769,-0.34166,0,0,0,0
830,-3.21068e-12,0,-1.57041e-06,-3.27738e-12,0,-3.40903e-12,-1.13747e-13,0,0,-3.35709,-0.0603949,0.507197,0.665058,-0.0427627,-0.013653,-0.0236174,0,0.642907,-0.0603949,-1368604256,-436093444,-1368604256,-436093444,-1450951726,-1368604256,-1368604208,-1368604208,0.261799,-0.261799,-1.56204e-07,-1.5,3.94113e+12,0,0,3,-0.0325095,-0.355377,0,0,0,0
840,-3.21068e-12,0,-1.57041e-06,-3.27738e-12,0,0,-1.13747e-13,0,0,-3.24266,-0.0591257,0.4406,0.663391,-0.0456467,-0.0127694,-0.0220889,0,0.757336,-0.0591257,-1368604256,-436093444,-1368604256,-436093444,-1450951726,-1368604256,-1368604208,-1368604208,0.160523,-0.261799,-1.16286e-07,-1.5,3.94113e+12,0,0,3,0.758154,-0.0694907,0,0,0,0
850,-3.21068e-12,0,-1.57041e-06,-3.27738e-12,0,-3.40903e-12,-1.13748e-13,0,0,-3.33669,-0.0616689,0.502453,0.66207,-0.0479324,-0.0120761,-0.0208896,0,0.663307,-0.0616689,-1368604256,-436093444,-1368604256,-436093444,-1450951726,-1368604256,-1368604208,-1368604208,0.126108,-0.261799,-9.13202e-08,-1.5,3.94113e+12,0,0,3,0.647991,-0.0669314,0,0,0,0
860,-3.21068e-12,0,-1.57041e-06,-3.27738e-12,0,0,-1.13748e-13,0,0,-3.27125,0.0431779,0.391145,0.661618,-0.0487141,-0.0118475,-0.0204942,0,0.728746,0.0431779,-1368604256,-436093444,-1368604256,-436093444,-1450951726,-1368604256,-1368604208,-1368604208,0.12783,-0.261799,-8.44855e-08,-1.5,3.94113e+12,0,0,3,0.727496,-0.0687509,0,0,0,0
870,-3.21068e-12,0,-1.57041e-06,-3.27738e-12,0,-3.40903e-12,-1.13749e-13,0,0,-3.27125,0.0431779,0.391145,0.661488,-0.0489388,-0.0117825,-0.0203818,0,0.728746,0.0431779,-1368604256,-436093444,-1368604256,-436093444,-1450951726,-1368604256,-1368604208,-1368604208,0.128329,-0.261799,-8.2643e-08,-1.5,3.94113e+12,0,0,3,0.727135,-0.069276,0,0,0,0
880,-3.21068e-12,0,-1.57041e-06,-3.27738e-12,0,0,-1.13749e-13,0,0,-3.27125,0.0431779,0.391145,0.661277,-0.0493035,-0.0116768,-0.0201989,0,0.728746,0.0431779,-1368604256,-436093444,-1368604256,-436093444,-1450951726,-1368604256,-1368604208,-1368604208,0.129143,-0.261799,-7.97021e-08,-1.5,3.94113e+12,0,0,3,0.726546,-0.0701322,0,0,0,0
890,-3.21068e-12,0,-1.57041e-06,-3.27738e-12,0,-3.40903e-12,-1.1375e-13,0,0,-3.27125,0.0431779,0.391145,0.661034,-0.0497245,-0.0115545,-0.0199874,0,0.728746,0.0431779,-1368604256,-436093444,-1368604256,-436093444,-1450951726,-1368604256,-1368604208,-1368604208,0.130089,-0.261799,-7.63952e-08,-1.5,3.94113e+12,0,0,3,0.725861,-0.0711267,0,0,0,0
900,-3.21068e-12,0,-1.57041e-06,-3.27738e-12,0,0,-1.1375e-13,0,0,-3.29534,0.0221817,0.426774,0.659859,-0.0517569,-0.0109387,-0.0189222,0,0.704659,0.0221817,-1368604256,-436093444,-1368604256,-436093444,-1450951726,-1368604256,-1368604208,-1368604208,-0.0839909,-0.261799,-6.02945e-08,-1.5,3.94113e+12,0,0,3,0.708967,0.0238193,0,0,0,0
910,-3.21068e-12,0,-1.57041e-06,-3.27738e-12,0,-3.40903e-12,-1.13751e-13,0,0,-3.33547,0.0483008,0.422439,0.658985,-0.0532682,-0.0104865,-0.0181398,0,0.664527,0.0483008,-1368604256,-436093444,-1368604256,-436093444,-1450951726,-1368604256,-1368604208,-1368604208,-0.09586,-0.261799,-5.04352e-08,-1.5,3.94113e+12,0,0,3,0.67578,0.0331143,0,0,0,0
920,-3.21068e-12,0,-1.57041e-06,-3.27738e-12,0,0,-1.13751e-13,0,0,-3.25304,0.0573164,0.39079,0.657724,-0.0554504,-0.00981791,-0.0169833,0,0.74696,0.0573164,-1368604256,-436093444,-1368604256,-436093444,-1450951726,-1368604256,-1368604208,-1368604208,-0.157055,-0.261799,-3.77211e-08,-1.5,3.94113e+12,0,0,3,0.697472,0.064143,0,0,0,0
930,-3.21068e-12,0,-1.57041e-06,-3.27738e-12,0,-3.40903e-12,-1.13752e-13,0,0,-3.31904,0.0370136,0.447267,0.657529,-0.0557879,-0.00972006,-0.0168141,0,0.680955,0.0370136,-1368604256,-436093444,-1368604256,-436093444,-1450951726,-1368604256,-1368604208,-1368604208,-0.117939,-0.261799,-3.62327e-08,-1.5,3.94113e+12,0,0,3,0.680504,0.0468375,0,0,0,0
940,-3.21068e-12,0,-1.57041e-06,-3.27738e-12,0,0,-1.13753e-13,0,0,-3.31904,0.0370136,0.447267,0.657403,-0.0560055,-0.00965704,-0.0167051,0,0.680955,0.0370136,-1368604256,-436093444,-1368604256,-436093444,-1450951726,-1368604256,-1368604208,-1368604208,-0.119009,-0.261799,-3.52999e-08,-1.5,3.94113e+12,0,0,3,0.679685,0.0476628,0,0,0,0
950,-3.21068e-12,0,-1.57041e-06,-3.27738e-12,0,-3.40903e-12,-1.13753e-13,0,0,-3.31904,0.0370136,0.447267,0.65724,-0.0562879,-0.00957518,-0.0165635,0,0.680955,0.0370136,-1368604256,-436093444,-1368604256,-436093444,-1450951726,-1368604256,-1368604208,-1368604208,-0.120409,-0.261799,-3.41132e-08,-1.5,3.94113e+12,0,0,3,0.678616,0.0487444,0,0,0,0
960,-3.21068e-12,0,-1.57041e-06,-3.27738e-12,0,0,-1.13754e-13,0,0,-3.31904,0.0370136,0.447267,0.657125,-0.056486,-0.00951787,-0.0164643,0,0.680955,0.0370136,-1368604256,-436093444,-1368604256,-436093444,-1450951726,-1368604256,-1368604208,-1368604208,-0.121398,-0.261799,-3.33022e-08,-1.5,3.94113e+12,0,0,3,0.677862,0.0495091,0,0,0,0
970,-3.21068e-12,0,-1.57041e-06,-3.27738e-12,0,-3.40903e-12,-1.13754e-13,0,0,-3.31904,0.0370136,0.447267,0.656908,-0.0568616,-0.00940878,-0.0162756,0,0.680955,0.0370136,-1368604256,-436093444,-1368604256,-436093444,-1450951726,-1368604256,-1368604208,-1368604208,-0.123298,-0.261799,-3.17909e-08,-1.5,3.94113e+12,0,0,3,0.676419,0.0509788,0,0,0,0
980,-3.21068e-12,0,-1.57041e-06,-3.27738e-12,0,0,-1.13755e-13,0,0,-3.2995,0.0177646,0.424103,0.655951,-0.0585173,-0.00890755,-0.0154086,0,0.700497,0.0177646,-1368604256,-436093444,-1368604256,-436093444,-1450951726,-1368604256,-1368604208,-1368604208,-0.112118,-0.261799,-2.51029e-08,-1.5,3.94113e+12,0,0,3,0.682741,0.04787,0,0,0,0
990,-3.21068e-12,0,-1.57041e-06,-3.27738e-12,0,-3.40903e-12,-1.13755e-13,0,0,-3.29131,0.0230673,0.393539,0.655757,-0.0588538,-0.00880992,-0.0152397,0,0.708693,0.0230673,-1368604256,-436093444,-1368604256,-436093444,-1450951726,-1368604256,-1368604208,-1368604208,-0.114358,-0.261799,-2.40139e-08,-1.5,3.94113e+12,0,0,3,0.696747,0.0483663,0,0,0,0
1000,-3.21068e-12,0,-1.57041e-06,-3.27738e-12,0,0,-1.13756e-13,0,0,-3.29131,0.0230673,0.393539,0.65566,-0.0590209,-0.00876157,-0.0151561,0,0.708693,0.0230673,-1368604256,-436093444,-1368604256,-436093444,-1450951726,-1368604256,-1368604208,-1368604208,-0.115186,-0.261799,-2.34902e-08,-1.5,3.94113e+12,0,0,3,0.696446,0.0490055,0,0,0,0
1010,-3.21068e-12,0,-1.57041e-06,-3.27738e-12,0,-3.40903e-12,-1.13756e-13,0,0,-3.29131,0.0230673,0.393539,0.655503,-0.0592921,-0.00868296,-0.0150201,0,0.708693,0.0230673,-1368604256,-436093444,-1368604256,-436093444,-1450951726,-1368604256,-1368604208,-1368604208,-0.116542,-0.261799,-2.26549e-08,-1.5,3.94113e+12,0,0,3,0.695955,0.0500536,0,0,0,0
1020,-3.21068e-12,0,-1.57041e-06,-3.27738e-12,0,0,-1.13757e-13,0,0,-3.29131,0.0230673,0.393539,0.655339,-0.0595756,-0.00860071,-0.0148778,0,0.708693,0.0230673,-1368604256,-436093444,-1368604256,-436093444,-1450951726,-1368604256,-1368604208,-1368604208,-0.117975,-0.261799,-2.18042e-08,-1.5,3.94113e+12,0,0,3,0.695438,0.0511628,0,0,0,0
1030,-3.21068e-12,0,-1.57041e-06,-3.27738e-12,0,-3.40903e-12,-1.13757e-13,0,0,-3.29131,0.0230673,0.393539,0.655185,-0.0598418,-0.00852353,-0.0147443,0,0.708693,0.0230673,-1368604256,-436093444,-1368604256,-436093444,-1450951726,-1368604256,-1368604208,-1368604208,-0.119334,-0.261799,-2.10282e-08,-1.5,3.94113e+12,0,0,3,0.694949,0.052216,0,0,0,0
1040,-3.21068e-12,0,-1.57041e-06,-3.27738e-12,0,0,-1.13758e-13,0,0,-3.29131,0.0230673,0.393539,0.654329,-0.061323,-0.00808004,-0.0139771,0,0.708693,0.0230673,-1368604256,-436093444,-1368604256,-436093444,-1450951726,-1368604256,-1368604208,-1368604208,-0.0712667,-0.261799,-1.67686e-08,-1.5,3.94113e+12,0,0,3,0.707191,0.0301378,0,0,0,0
1050,-3.21068e-12,0,-1.57041e-06,-3.27738e-12,0,-3.40903e-12,-1.13759e-13,0,0,-3.29131,0.0230673,0.393539,0.654225,-0.061504,-0.00802764,-0.0138865,0,0.708693,0.0230673,-1368604256,-436093444,-1368604256,-436093444,-1450951726,-1368604256,-1368604208,-1368604208,-0.0719058,-0.261799,-1.63369e-08,-1.5,3.94113e+12,0,0,3,0.707206,0.0306089,0,0,0,0
1060,-3.21068e-12,0,-1.57041e-06,-3.27738e-12,0,0,-1.13759e-13,0,0,-3.29131,0.0230673,0.393539,0.654089,-0.0617387,-0.00795961,-0.0137688,0,0.708693,0.0230673,-1368604256,-436093444,-1368604256,-436093444,-1450951726,-1368604256,-1368604208,-1368604208,-0.0727428,-0.261799,-1.57881e-08,-1.5,3.94113e+12,0,0,3,0.707226,0.0312269,0,0,0,0
1070,-3.21068e-12,0,-1.57041e-06,-3.27738e-12,0,-3.40903e-12,-1.1376e-13,0,0,-3.29131,0.0230673,0.393539,0.653939,-0.0619987,-0.00788424,-0.0136384,0,0.708693,0.0230673,-1368604256,-436093444,-1368604256,-436093444,-1450951726,-1368604256,-1368604208,-1368604208,-0.0736799,-0.261799,-1.51957e-08,-1.5,3.94113e+12,0,0,3,0.70725,0.03192,0,0,0,0
1080,-3.21068e-12,0,-1.57041e-06,-3.27738e-12,0,0,-1.1376e-13,0,0,-3.31513,0.0274749,0.430811,0.653147,-0.0633683,-0.00747387,-0.0129286,0,0.684867,0.0274749,-1368604256,-436093444,-1368604256,-436093444,-1450951726,-1368604256,-1368604208,-1368604208,-0.0754808,-0.261799,-1.21133e-08,-1.5,3.94113e+12,0,0,3,0.685111,0.0333657,0,0,0,0
1090,-3.21068e-12,0,-1.57041e-06,-3.27738e-12,0,-3.40903e-12,-1.13761e-13,0,0,-3.31513,0.0274749,0.430811,0.653043,-0.0635485,-0.00742168,-0.0128383,0,0.684867,0.0274749,-1368604256,-436093444,-1368604256,-436093444,-1450951726,-1368604256,-1368604208,-1368604208,-0.0761691,-0.261799,-1.17776e-08,-1.5,3.94113e+12,0,0,3,0.684652,0.0338795,0,0,0,0
1100,-3.21068e-12,0,-1.57041e-06,-3.27738e-12,0,0,-1.13761e-13,0,0,-3.31513,0.0274749,0.430811,0.652924,-0.0637529,-0.00736248,-0.0127359,0,0.684867,0.0274749,-1368604256,-436093444,-1368604256,-436093444,-1450951726,-1368604256,-1368604208,-1368604208,-0.0769568,-0.261799,-1.14051e-08,-1.5,3.94113e+12,0,0,3,0.684128,0.0344682,0,0,0,0
1110,-3.21068e-12,0,-1.57041e-06,-3.27738e-12,0,-3.40903e-12,-1.13762e-13,0,0,-3.31513,0.0274749,0.430811,0.652785,-0.0639933,-0.00729276,-0.0126153,0,0.684867,0.0274749,-1368604256,-436093444,-1368604256,-436093444,-1450951726,-1368604256,-1368604208,-1368604208,-0.0778938,-0.261799,-1.09771e-08,-1.5,3.94113e+12,0,0,3,0.683507,0.0351696,0,0,0,0
1120,-3.21068e-12,0,-1.57041e-06,-3.27738e-12,0,0,-1.13762e-13,0,0,-3.31513,0.0274749,0.430811,0.652626,-0.0642688,-0.00721281,-0.012477,0,0.684867,0.0274749,-1368604256,-436093444,-1368604256,-436093444,-1450951726,-1368604256,-1368604208,-1368604208,-0.0789809,-0.261799,-1.05005e-08,-1.5,3.94113e+12,0,0,3,0.682791,0.0359848,0,0,0,0
1130,-3.21068e-12,0,-1.57041e-06,-3.27738e-12,0,-3.40903e-12,-1.13763e-13,0,0,-3.33938,0.0348545,0.445866,0.651912,-0.0655038,-0.00683917,-0.0118306,0,0.660624,0.0348545,-1368604256,-436093444,-1368604256,-436093444,-1450951726,-1368604256,-1368604208,-1368604208,-0.0880257,-0.261799,-8.34949e-09,-1.5,3.94113e+12,0,0,3,0.676276,0.0415895,0,0,0,0
1140,-3.21068e-12,0,-1.57041e-06,-3.27738e-12,0,0,-1.13763e-13,0,0,-3.2826,0.0373275,0.423637,0.651736,-0.0658085,-0.00675057,-0.0116774,0,0.717396,0.0373275,-1368604256,-436093444,-1368604256,-436093444,-1450951726,-1368604256,-1368604208,-1368604208,-0.0882722,-0.261799,-7.9214e-09,-1.5,3.94113e+12,0,0,3,0.684052,0.0427865,0,0,0,0
1150,-3.21068e-12,0,-1.57041e-06,-3.27738e-12,0,-3.40903e-12,-1.13764e-13,0,0,-3.23643,0.0398805,0.378743,0.651031,-0.0670287,-0.00638103,-0.0110381,0,0.763566,0.0398805,-1368604256,-436093444,-1368604256,-436093444,-1450951726,-1368604256,-1368604208,-1368604208,-0.0863009,-0.261799,-6.21128e-09,-1.5,3.94113e+12,0,0,3,0.712723,0.0429322,0,0,0,0
1160,-3.21068e-12,0,-1.57041e-06,-3.27738e-12,0,0,-1.13764e-13,0,0,-3.30181,0.0347153,0.426288,0.650829,-0.0673775,-0.00627928,-0.0108621,0,0.698191,0.0347153,-1368604256,-436093444,-1368604256,-436093444,-1450951726,-1368604256,-1368604208,-1368604208,-0.0629014,-0.261799,-5.8191e-09,-1.5,3.94113e+12,0,0,3,0.698592,0.0390628,0,0,0,0
1170,-3.21068e-12,0,-1.57041e-06,-3.27738e-12,0,-3.40903e-12,-1.13765e-13,0,0,-3.30181,0.0347153,0.426288,0.650735,-0.0675396,-0.00623231,-0.0107809,0,0.698191,0.0347153,-1368604256,-436093444,-1368604256,-436093444,-1450951726,-1368604256,-1368604208,-1368604208,-0.0632879,-0.261799,-5.64638e-09,-1.5,3.94113e+12,0,0,3,0.698508,0.0393251,0,0,0,0
1180,-3.21068e-12,0,-1.57041e-06,-3.27738e-12,0,0,-1.13766e-13,0,0,-3.30181,0.0347153,0.426288,0.650642,-0.0677005,-0.0061857,-0.0107002,0,0.698191,0.0347153,-1368604256,-436093444,-1368604256,-436093444,-1450951726,-1368604256,-1368604208,-1368604208,-0.0636753,-0.261799,-5.47878e-09,-1.5,3.94113e+12,0,0,3,0.698426,0.0395885,0,0,0,0
1190,-3.21068e-12,0,-1.57041e-06,-3.27738e-12,0,-3.40903e-12,-1.13766e-13,0,0,-3.30181,0.0347153,0.426288,0.650526,-0.0679025,-0.0061271,-0.0105989,0,0.698191,0.0347153,-1368604256,-436093444,-1368604256,-436093444,-1450951726,-1368604256,-1368604208,-1368604208,-0.0641673,-0.261799,-5.27303e-09,-1.5,3.94113e+12,0,0,3,0.698322,0.0399241,0,0,0,0
1200,-3.21068e-12,0,-1.57041e-06,-3.27738e-12,0,0,-1.13767e-13,0,0,-3.30181,0.0347153,0.426288,0.64991,-0.0689669,-0.00580818,-0.0100472,0,0.698191,0.0347153,-1368604256,-436093444,-1368604256,-436093444,-1450951726,-1368604256,-1368604208,-1368604208,-0.0581399,-0.261799,-4.20323e-09,-1.5,3.94113e+12,0,0,3,0.696972,0.0375072,0,0,0,0
1210,-3.21068e-12,0,-1.57041e-06,-3.27738e-12,0,-3.40903e-12,-1.13767e-13,0,0,-3.30181,0.0347153,0.426288,0.649761,-0.0692256,-0.00573291,-0.00991699,0,0.698191,0.0347153,-1368604256,-436093444,-1368604256,-436093444,-1450951726,-1368604256,-1368604208,-1368604208,-0.0587114,-0.261799,-3.98747e-09,-1.5,3.94113e+12,0,0,3,0.696888,0.0378862,0,0,0,0
1220,-3.21068e-12,0,-1.57041e-06,-3.27738e-12,0,0,-1.13768e-13,0,0,-3.30181,0.0347153,0.426288,0.649658,-0.069403,-0.00568147,-0.009828,0,0.698191,0.0347153,-1368604256,-436093444,-1368604256,-436093444,-1450951726,-1368604256,-1368604208,-1368604208,-0.0591078,-0.261799,-3.84557e-09,-1.5,3.94113e+12,0,0,3,0.69683,0.0381503,0,0,0,0
1230,-3.21068e-12,0,-1.57041e-06,-3.27738e-12,0,-3.40903e-12,-1.13768e-13,0,0,-3.30181,0.0347153,0.426288,0.649529,-0.0696272,-0.00561633,-0.00971533,0,0.698191,0.0347153,-1368604256,-436093444,-1368604256,-436093444,-1450951726,-1368604256,-1368604208,-1368604208,-0.0596162,-0.261799,-3.67088e-09,-1.5,3.94113e+12,0,0,3,0.696758,0.0384903,0,0,0,0
1240,-3.21068e-12,0,-1.57041e-06,-3.27738e-12,0,0,-1.13769e-13,0,0,-3.35009,0.0292757,0.461551,0.648944,-0.0706375,-0.00531276,-0.0091902,0,0.649912,0.0292757,-1368604256,-436093444,-1368604256,-436093444,-1450951726,-1368604256,-1368604208,-1368604208,-0.0468573,-0.261799,-2.89681e-09,-1.5,3.94113e+12,0,0,3,0.695802,0.0360078,0,0,0,0
1250,-3.21068e-12,0,-1.57041e-06,-3.27738e-12,0,-3.40903e-12,-1.13769e-13,0,0,-3.35009,0.0292757,0.461551,0.648761,-0.0709553,-0.00522031,-0.00903027,0,0.649912,0.0292757,-1368604256,-436093444,-1368604256,-436093444,-1450951726,-1368604256,-1368604208,-1368604208,-0.0446505,-0.261799,-2.69852e-09,-1.5,3.94113e+12,0,0,3,0.698038,0.0355773,0,0,0,0
1260,-3.21068e-12,0,-1.57041e-06,-3.27738e-12,0,0,-1.1377e-13,0,0,-3.35009,0.0292757,0.461551,0.648688,-0.0710812,-0.00518386,-0.00896723,0,0.649912,0.0292757,-1368604256,-436093444,-1368604256,-436093444,-1450951726,-1368604256,-1368604208,-1368604208,-0.0447669,-0.261799,-2.62377e-09,-1.5,3.94113e+12,0,0,3,0.698056,0.0356231,0,0,0,0
1270,-3.21068e-12,0,-1.57041e-06,-3.27738e-12,0,-3.40903e-12,-1.1377e-13,0,0,-3.35009,0.0292757,0.461551,0.648605,-0.0712239,-0.00514251,-0.00889569,0,0.649912,0.0292757,-1368604256,-436093444,-1368604256,-436093444,-1450951726,-1368604256,-1368604208,-1368604208,-0.0449008,-0.261799,-2.54072e-09,-1.5,3.94113e+12,0,0,3,0.698076,0.0356767,0,0,0,0
1280,-3.21068e-12,0,-1.57041e-06,-3.27738e-12,0,0,-1.13771e-13,0,0,-3.35009,0.0292757,0.461551,0.648473,-0.071453,-0.00507587,-0.00878042,0,0.649912,0.0292757,-1368604256,-436093444,-1368604256,-436093444,-1450951726,-1368604256,-1368604208,-1368604208,-0.0451208,-0.261799,-2.4103e-09,-1.5,3.94113e+12,0,0,3,0.698111,0.0357667,0,0,0,0
1290,-3.21068e-12,0,-1.57041e-06,-3.27738e-12,0,-3.40903e-12,-1.13772e-13,0,0,-3.34507,0.0348624,0.458986,0.647646,-0.0728829,-0.00462587,-0.00800199,0,0.654933,0.0348624,-1368604256,-436093444,-1368604256,-436093444,-1450951726,-1368604256,-1368604208,-1368604208,-0.0431721,-0.261799,-1.5655e-09,-1.5,3.94113e+12,0,0,3,0.649831,0.0350474,0,0,0,0
1300,-3.2107e-12,0,0,-3.27738e-12,0,0,-1.13772e-13,0,0,-3.30125,0.0437164,0.422165,0.647123,-0.0737892,-0.00434938,-0.00752371,0,0.698752,0.0437164,-1368604256,-436093444,-1368604256,-436093444,-1450951726,-1368604256,-1368604208,-1368604208,-0.0435433,-0.261799,-1.19551e-09,-1.5,3.94113e+12,0,0,3,0.68812,0.0352816,0,0,0,0
1310,-3.21068e-12,0,-1.57041e-06,-3.27738e-12,0,-3.40903e-12,-1.13773e-13,0,0,-3.30125,0.0437164,0.422165,0.647071,-0.0738792,-0.00432334,-0.00747867,0,0.698752,0.0437164,-1368604256,-436093444,-1368604256,-436093444,-1450951726,-1368604256,-1368604208,-1368604208,-0.0436233,-0.261799,-1.16708e-09,-1.5,3.94113e+12,0,0,3,0.688042,0.0353116,0,0,0,0
1320,-3.21068e-12,0,-1.57041e-06,-3.27738e-12,0,0,-1.13773e-13,0,0,-3.24941,0.0427813,0.398281,0.646665,-0.0745806,-0.00411275,-0.00711438,0,0.750592,0.0427813,-1368604256,-436093444,-1368604256,-436093444,-1450951726,-1368604256,-1368604208,-1368604208,-0.0475262,-0.261799,-9.43701e-10,-1.5,3.94113e+12,0,0,3,0.697737,0.0371222,0,0,0,0
1330,-3.21068e-12,0,-1.57041e-06,-3.27738e-12,0,-3.40903e-12,-1.13774e-13,0,0,-3.24941,0.0427813,0.398281,0.646604,-0.0746868,-0.00408199,-0.00706116,0,0.750592,0.0427813,-1368604256,-436093444,-1368604256,-436093444,-1450951726,-1368604256,-1368604208,-1368604208,-0.0476553,-0.261799,-9.1569e-10,-1.5,3.94113e+12,0,0,3,0.697763,0.0371874,0,0,0,0
1340,-3.21068e-12,0,-1.57041e-06,-3.27738e-12,0,0,-1.13774e-13,0,0,-3.24941,0.0427813,0.398281,0.646547,-0.0747852,-0.00405349,-0.00701186,0,0.750592,0.0427813,-1368604256,-436093444,-1368604256,-436093444,-1450951726,-1368604256,-1368604208,-1368604208,-0.0477764,-0.261799,-8.90313e-10,-1.5,3.94113e+12,0,0,3,0.697787,0.037249,0,0,0,0
1350,-3.21068e-12,0,-1.57041e-06,-3.27738e-12,0,-3.40903e-12,-1.13775e-13,0,0,-3.24941,0.0427813,0.398281,0.646478,-0.0749037,-0.00401913,-0.00695243,0,0.750592,0.0427813,-1368604256,-436093444,-1368604256,-436093444,-1450951726,-1368604256,-1368604208,-1368604208,-0.047924,-0.261799,-8.60383e-10,-1.5,3.94113e+12,0,0,3,0.697818,0.0373248,0,0,0,0
1360,-3.21068e-12,0,-1.57041e-06,-3.27738e-12,0,0,-1.13775e-13,0,0,-3.24941,0.0427813,0.398281,0.646391,-0.0750555,-0.00397507,-0.00687621,0,0.750592,0.0427813,-1368604256,-436093444,-1368604256,-436093444,-1450951726,-1368604256,-1368604208,-1368604208,-0.0481163,-0.261799,-8.23029e-10,-1.5,3.94113e+12,0,0,3,0.697858,0.0374245,0,0,0,0
1370,-3.21068e-12,0,-1.57041e-06,-3.27738e-12,0,-3.40903e-12,-1.13776e-13,0,0,-3.33018,0.0452642,0.434376,0.645983,-0.0757609,-0.00376123,-0.00650631,0,0.669818,0.0452642,-1368604256,-436093444,-1368604256,-436093444,-1450951726,-1368604256,-1368604208,-1368604208,-0.0684873,-0.261799,-6.47951e-10,-1.5,3.94113e+12,0,0,3,0.675505,0.0466229,0,0,0,0
1380,-3.21068e-12,0,-1.57041e-06,-3.27738e-12,0,0,-1.13776e-13,0,0,-3.34337,0.038567,0.43722,0.645839,-0.0760106,-0.00368814,-0.00637988,0,0.656628,0.038567,-1368604256,-436093444,-1368604256,-436093444,-1450951726,-1368604256,-1368604208,-1368604208,-0.0734447,-0.261799,-5.98112e-10,-1.5,3.94113e+12,0,0,3,0.66449,0.0478529,0,0,0,0
1390,-3.21068e-12,0,-1.57041e-06,-3.27738e-12,0,-3.40903e-12,-1.13777e-13,0,0,-3.34337,0.038567,0.43722,0.645795,-0.0760869,-0.00366606,-0.00634169,0,0.656628,0.038567,-1368604256,-436093444,-1368604256,-436093444,-1450951726,-1368604256,-1368604208,-1368604208,-0.073731,-0.261799,-5.83893e-10,-1.5,3.94113e+12,0,0,3,0.664214,0.0480661,0,0,0,0
1400,-3.21068e-12,0,-1.57041e-06,-3.27738e-12,0,0,-1.13777e-13,0,0,-3.34337,0.038567,0.43722,0.645714,-0.0762253,-0.00362586,-0.00627215,0,0.656628,0.038567,-1368604256,-436093444,-1368604256,-436093444,-1450951726,-1368604256,-1368604208,-1368604208,-0.0742572,-0.261799,-5.58518e-10,-1.5,3.94113e+12,0,0,3,0.663708,0.0484584,0,0,0,0
1410,-3.21068e-12,0,-1.57041e-06,-3.27738e-12,0,-3.40903e-12,-1.13778e-13,0,0,-3.34337,0.038567,0.43722,0.645635,-0.0763622,-0.0035861,-0.00620337,0,0.656628,0.038567,-1368604256,-436093444,-1368604256,-436093444,-1450951726,-1368604256,-1368604208,-1368604208,-0.0747844,-0.261799,-5.34245e-10,-1.5,3.94113e+12,0,0,3,0.663203,0.0488522,0,0,0,0
1420,-3.21068e-12,0,-1.57041e-06,-3.27738e-12,0,0,-1.13779e-13,0,0,-3.29045,0.0465226,0.409841,0.645277,-0.0769818,-0.00339855,-0.00587893,0,0.709553,0.0465226,-1368604256,-436093444,-1368604256,-436093444,-1450951726,-1368604256,-1368604208,-1368604208,-0.0748296,-0.261799,-4.23753e-10,-1.5,3.94113e+12,0,0,3,0.679439,0.0498328,0,0,0,0
1430,-3.21068e-12,0,-1.57041e-06,-3.27738e-12,0,-3.40903e-12,-1.13779e-13,0,0,-3.29045,0.0465226,0.409841,0.645186,-0.0771389,-0.00335282,-0.00579982,0,0.709553,0.0465226,-1368604256,-436093444,-1368604256,-436093444,-1450951726,-1368604256,-1368604208,-1368604208,-0.0754393,-0.261799,-4.01167e-10,-1.5,3.94113e+12,0,0,3,0.679085,0.0502887,0,0,0,0
1440,-3.21068e-12,0,-1.57041e-06,-3.27738e-12,0,0,-1.1378e-13,0,0,-3.29045,0.0465226,0.409841,0.64512,-0.0772541,-0.00331939,-0.005742,0,0.709553,0.0465226,-1368604256,-436093444,-1368604256,-436093444,-1450951726,-1368604256,-1368604208,-1368604208,-0.0758916,-0.261799,-3.85312e-10,-1.5,3.94113e+12,0,0,3,0.678824,0.0506275,0,0,0,0
1450,-3.21068e-12,0,-1.57041e-06,-3.27738e-12,0,-3.40903e-12,-1.1378e-13,0,0,-3.29045,0.0465226,0.409841,0.645047,-0.0773795,-0.003283,-0.00567905,0,0.709553,0.0465226,-1368604256,-436093444,-1368604256,-436093444,-1450951726,-1368604256,-1368604208,-1368604208,-0.07639,-0.261799,-3.69325e-10,-1.5,3.94113e+12,0,0,3,0.678537,0.0510016,0,0,0,0
1460,-3.21068e-12,0,-1.57041e-06,-3.27738e-12,0,0,-1.13781e-13,0,0,-3.29045,0.0465226,0.409841,0.644982,-0.0774923,-0.00325027,-0.00562244,0,0.709553,0.0465226,-1368604256,-436093444,-1368604256,-436093444,-1450951726,-1368604256,-1368604208,-1368604208,-0.0768438,-0.261799,-3.54742e-10,-1.5,3.94113e+12,0,0,3,0.678278,0.0513429,0,0,0,0
1470,-3.21068e-12,0,-1.57041e-06,-3.27738e-12,0,-3.40903e-12,-1.13781e-13,0,0,-3.31375,0.0128525,0.442414,0.644654,-0.078059,-0.00307866,-0.00532558,0,0.68625,0.0128525,-1368604256,-436093444,-1368604256,-436093444,-1450951726,-1368604256,-1368604208,-1368604208,-0.0728758,-0.261799,-2.80676e-10,-1.5,3.94113e+12,0,0,3,0.684827,0.050479,0,0,0,0
1480,-3.21068e-12,0,-1.57041e-06,-3.27738e-12,0,0,-1.13782e-13,0,0,-3.29112,0.0273868,0.434147,0.644341,-0.0786007,-0.00291466,-0.00504188,0,0.708879,0.0273868,-1368604256,-436093444,-1368604256,-436093444,-1450951726,-1368604256,-1368604208,-1368604208,-0.057722,-0.261799,-2.21629e-10,-1.5,3.94113e+12,0,0,3,0.704977,0.0430821,0,0,0,0
1490,-3.21068e-12,0,-1.57041e-06,-3.27738e-12,0,-3.40903e-12,-1.13782e-13,0,0,-3.24461,0.0220797,0.400785,0.644246,-0.078765,-0.00286674,-0.004959,0,0.755393,0.0220797,-1368604256,-436093444,-1368604256,-436093444,-1450951726,-1368604256,-1368604208,-1368604208,-0.0282794,-0.261799,-2.07218e-10,-1.5,3.94113e+12,0,0,3,0.708418,0.0269435,0,0,0,0
1500,-3.21068e-12,0,-1.57041e-06,-3.27738e-12,0,0,-1.13783e-13,0,0,-3.24461,0.0220797,0.400785,0.644215,-0.0788194,-0.00285101,-0.00493178,0,0.755393,0.0220797,-1368604256,-436093444,-1368604256,-436093444,-1450951726,-1368604256,-1368604208,-1368604208,-0.0282674,-0.261799,-2.02699e-10,-1.5,3.94113e+12,0,0,3,0.708512,0.0269098,0,0,0,0
1510,-3.21068e-12,0,-1.57041e-06,-3.27738e-12,0,-3.40903e-12,-1.13783e-13,0,0,-3.24461,0.0220797,0.400785,0.644181,-0.0788783,-0.00283394,-0.00490226,0,0.755393,0.0220797,-1368604256,-436093444,-1368604256,-436093444,-1450951726,-1368604256,-1368604208,-1368604208,-0.0282545,-0.261799,-1.9788e-10,-1.5,3.94113e+12,0,0,3,0.708615,0.0268733,0,0,0,0
1520,-3.21068e-12,0,-1.57041e-06,-3.27738e-12,0,0,-1.13784e-13,0,0,-3.24461,0.0220797,0.400785,0.644102,-0.0790142,-0.00279441,-0.00483387,0,0.755393,0.0220797,-1368604256,-436093444,-1368604256,-436093444,-1450951726,-1368604256,-1368604208,-1368604208,-0.0282259,-0.261799,-1.86957e-10,-1.5,3.94113e+12,0,0,3,0.708856,0.02679,0,0,0,0
1530,-3.21068e-12,0,-1.57041e-06,-3.27738e-12,0,-3.40903e-12,-1.13785e-13,0,0,-3.24461,0.0220797,0.400785,0.643824,-0.079495,-0.00265029,-0.00458457,0,0.755393,0.0220797,-1368604256,-436093444,-1368604256,-436093444,-1450951726,-1368604256,-1368604208,-1368604208,-0.0275872,-0.261799,-1.49333e-10,-1.5,3.94113e+12,0,0,3,0.709801,0.0262636,0,0,0,0
1540,-3.21068e-12,0,-1.57041e-06,-3.27738e-12,0,0,-1.13785e-13,0,0,-3.24461,0.0220797,0.400785,0.64379,-0.0795544,-0.00263311,-0.00455484,0,0.755393,0.0220797,-1368604256,-436093444,-1368604256,-436093444,-1450951726,-1368604256,-1368604208,-1368604208,-0.027572,-0.261799,-1.45489e-10,-1.5,3.94113e+12,0,0,3,0.709909,0.0262251,0,0,0,0
1550,-3.21068e-12,0,-1.57041e-06,-3.27738e-12,0,-3.40903e-12,-1.13786e-13,0,0,-3.24461,0.0220797,0.400785,0.643751,-0.0796224,-0.00261341,-0.00452077,0,0.755393,0.0220797,-1368604256,-436093444,-1368604256,-436093444,-1450951726,-1368604256,-1368604208,-1368604208,-0.0275549,-0.261799,-1.4117e-10,-1.5,3.94113e+12,0,0,3,0.710035,0.0261811,0,0,0,0
1560,-3.21068e-12,0,-1.57041e-06,-3.27738e-12,0,0,-1.13786e-13,0,0,-3.24461,0.0220797,0.400785,0.643701,-0.0797077,-0.00258866,-0.00447795,0,0.755393,0.0220797,-1368604256,-436093444,-1368604256,-436093444,-1450951726,-1368604256,-1368604208,-1368604208,-0.0275338,-0.261799,-1.35869e-10,-1.5,3.94113e+12,0,0,3,0.710195,0.0261262,0,0,0,0
1570,-3.21068e-12,0,-1.57041e-06,-3.27738e-12,0,-3.40903e-12,-1.13787e-13,0,0,-3.24461,0.0220797,0.400785,0.643645,-0.0798054,-0.00256027,-0.00442885,0,0.755393,0.0220797,-1368604256,-436093444,-1368604256,-436093444,-1450951726,-1368604256,-1368604208,-1368604208,-0.0275101,-0.261799,-1.29964e-10,-1.5,3.94113e+12,0,0,3,0.71038,0.0260637,0,0,0,0
1580,-3.21068e-12,0,-1.57041e-06,-3.27738e-12,0,0,-1.13787e-13,0,0,-3.23264,-0.0180199,0.423602,0.643109,-0.0807314,-0.00225934,-0.00390829,0,0.767356,-0.0180199,-1368604256,-436093444,-1368604256,-436093444,-1450951726,-1368604256,-1368604208,-1368604208,-0.0164786,-0.261799,-6.9576e-11,-1.5,3.94113e+12,0,0,3,0.738778,0.019716,0,0,0,0
1590,-3.21068e-12,0,-1.57041e-06,-3.27738e-12,0,-3.40903e-12,-1.13788e-13,0,0,-3.23264,-0.0180199,0.423602,0.643051,-0.080832,-0.00223006,-0.00385764,0,0.767356,-0.0180199,-1368604256,-436093444,-1368604256,-436093444,-1450951726,-1368604256,-1368604208,-1368604208,-0.0163345,-0.261799,-6.60045e-11,-1.5,3.94113e+12,0,0,3,0.739582,0.0195487,0,0,0,0
1600,-3.21068e-12,0,-1.57041e-06,-3.27738e-12,0,0,-1.13788e-13,0,0,-3.25412,-0.0185614,0.444681,0.642588,-0.0816327,-0.00197016,-0.00340806,0,0.745876,-0.0185614,-1368604256,-436093444,-1368604256,-436093444,-1450951726,-1368604256,-1368604208,-1368604208,0.0164169,-0.261799,-3.55952e-11,-1.5,3.94113e+12,0,0,3,0.796086,0.00443783,0,0,0,0
1610,-3.21068e-12,0,-1.57041e-06,-3.27738e-12,0,-3.40903e-12,-1.13789e-13,0,0,-3.25412,-0.0185614,0.444681,0.642565,-0.0816734,-0.00195837,-0.00338766,0,0.745876,-0.0185614,-1368604256,-436093444,-1368604256,-436093444,-1450951726,-1368604256,-1368604208,-1368604208,0.0166978,-0.261799,-3.47489e-11,-1.5,3.94113e+12,0,0,3,0.797019,0.00417901,0,0,0,0
1620,-3.21068e-12,0,-1.57041e-06,-3.27738e-12,0,0,-1.13789e-13,0,0,-2.92104,-0.0869675,0.839915,0.642176,-0.0823453,-0.00174194,-0.00301328,0,1.07896,-0.0869675,-1368604256,-436093444,-1368604256,-436093444,-1450951726,-1368604256,-1368604208,-1368604208,0.0940119,-0.261799,-1.95892e-11,-1.5,3.94113e+12,0,0,3,0.825186,-0.040546,0,0,0,0
1630,-3.21068e-12,0,-1.57041e-06,-3.27738e-12,0,-3.40903e-12,-1.1379e-13,0,0,-2.92104,-0.0869675,0.839915,0.642135,-0.082417,-0.00172111,-0.00297723,0,1.07896,-0.0869675,-1368604256,-436093444,-1368604256,-436093444,-1450951726,-1368604256,-1368604208,-1368604208,0.0952829,-0.261799,-1.86608e-11,-1.5,3.94113e+12,0,0,3,0.827135,-0.0416689,0,0,0,0
1640,-3.21068e-12,0,-1.57041e-06,-3.27738e-12,0,0,-1.1379e-13,0,0,-2.92104,-0.0869675,0.839915,0.642114,-0.0824526,-0.0017108,-0.00295941,0,1.07896,-0.0869675,-1368604256,-436093444,-1368604256,-436093444,-1450951726,-1368604256,-1368604208,-1368604208,0.0959184,-0.261799,-1.82171e-11,-1.5,3.94113e+12,0,0,3,0.82811,-0.0422301,0,0,0,0
1650,-3.21068e-12,0,-1.57041e-06,-3.27738e-12,0,-3.40903e-12,-1.13791e-13,0,0,-2.92104,-0.0869675,0.839915,0.641975,-0.0826944,-0.00163837,-0.00283411,0,1.07896,-0.0869675,-1368604256,-436093444,-1368604256,-436093444,-1450951726,-1368604256,-1368604208,-1368604208,0.100408,-0.261799,-1.51666e-11,-1.5,3.94113e+12,0,0,3,0.83502,-0.0461952,0,0,0,0
1660,-3.21068e-12,0,-1.57041e-06,-3.27738e-12,0,0,-1.13792e-13,0,0,-2.92104,-0.0869675,0.839915,0.641841,-0.082926,-0.00156903,-0.00271416,0,1.07896,-0.0869675,-1368604256,-436093444,-1368604256,-436093444,-1450951726,-1368604256,-1368604208,-1368604208,0.104892,-0.261799,-1.26313e-11,-1.5,3.94113e+12,0,0,3,0.841937,-0.0501501,0,0,0,0
1670,-3.21068e-12,0,-1.57041e-06,-3.27738e-12,0,-3.40903e-12,-1.13792e-13,0,0,-2.92104,-0.0869675,0.839915,0.848857,-0.0540942,0.0810708,-0.0462058,0,1.07896,-0.0869675,-1368604256,-436093444,-1368604256,-436093444,-1450951726,-1368604256,-1368604208,-1368604208,0.109171,-0.261799,-1.05198e-11,-1.5,3.94113e+12,0,0,3,0.848857,-0.0540942,0,0,0,0
1680,-3.21068e-12,0,-1.57041e-06,-3.27738e-12,0,0,-1.13793e-13,0,0,-2.92104,-0.0869675,0.839915,0.850467,-0.055012,0.0802627,-0.0457452,0,1.07896,-0.0869675,-1368604256,-436093444,-1368604256,-436093444,-1450951726,-1368604256,-1368604208,-1368604208,0.109779,-0.261799,-1.01044e-11,-1.5,3.94113e+12,0,0,3,0.850467,-0.055012,0,0,0,0
1690,-3.21068e-12,0,-1.57041e-06,-3.27738e-12,0,-3.40903e-12,-1.13793e-13,0,0,-2.92104,-0.0869675,0.839915,0.856878,-0.0586656,0.0769443,-0.0438539,0,1.07896,-0.0869675,-1368604256,-436093444,-1368604256,-436093444,-1450951726,-1368604256,-1368604208,-1368604208,0.11214,-0.261799,-8.45217e-12,-1.5,3.94113e+12,0,0,3,0.856878,-0.0586656,0,0,0,0
1700,-3.21068e-12,0,-1.57041e-06,-3.27738e-12,0,0,-1.13794e-13,0,0,-2.92104,-0.0869675,0.839915,0.863094,-0.0622085,0.0737248,-0.042019,0,1.07896,-0.0869675,-1368604256,-436093444,-1368604256,-436093444,-1450951726,-1368604256,-1368604208,-1368604208,0.114429,-0.261799,-7.05345e-12,-1.5,3.94113e+12,0,0,3,0.863094,-0.0622085,0,0,0,0
1710,-3.21068e-12,0,-1.57041e-06,-3.27738e-12,0,-3.40903e-12,-1.13794e-13,0,0,-2.92104,-0.0869675,0.839915,0.864703,-0.0631257,0.0729163,-0.0415582,0,1.07896,-0.0869675,-1368604256,-436093444,-1368604256,-436093444,-1450951726,-1368604256,-1368604208,-1368604208,0.115036,-0.261799,-6.74691e-12,-1.5,3.94113e+12,0,0,3,0.864703,-0.0631257,0,0,0,0
1720,-3.21068e-12,0,-1.57041e-06,-3.27738e-12,0,0,-1.13795e-13,0,0,-2.92104,-0.0869675,0.839915,0.870661,-0.0665213,0.069829,-0.0397986,0,1.07896,-0.0869675,-1368604256,-436093444,-1368604256,-436093444,-1450951726,-1368604256,-1368604208,-1368604208,0.117229,-0.261799,-5.61711e-12,-1.5,3.94113e+12,0,0,3,0.870661,-0.0665213,0,0,0,0
1730,-3.21068e-12,0,-1.57041e-06,-3.27738e-12,0,-3.40903e-12,-1.13795e-13,0,0,-2.92104,-0.0869675,0.839915,0.876497,-0.0698478,0.0668042,-0.0380747,0,1.07896,-0.0869675,-1368604256,-436093444,-1368604256,-436093444,-1450951726,-1368604256,-1368604208,-1368604208,0.119377,-0.261799,-4.65607e-12,-1.5,3.94113e+12,0,0,3,0.876497,-0.0698478,0,0,0,0
1740,-3.21068e-12,0,-1.57041e-06,-3.27738e-12,0,0,-1.13796e-13,0,0,-2.92104,-0.0869675,0.839915,0.877824,-0.070604,0.0661382,-0.0376951,0,1.07896,-0.0869675,-1368604256,-436093444,-1368604256,-436093444,-1450951726,-1368604256,-1368604208,-1368604208,0.119878,-0.261799,-4.47205e-12,-1.5,3.94113e+12,0,0,3,0.877824,-0.070604,0,0,0,0
1750,-3.21068e-12,0,-1.57041e-06,-3.27738e-12,0,-3.40903e-12,-1.13796e-13,0,0,-2.92104,-0.0869675,0.839915,0.883228,-0.0736839,0.0633379,-0.036099,0,1.07896,-0.0869675,-1368604256,-436093444,-1368604256,-436093444,-1450951726,-1368604256,-1368604208,-1368604208,0.121867,-0.261799,-3.72318e-12,-1.5,3.94113e+12,0,0,3,0.883228,-0.0736839,0,0,0,0
1760,-3.21068e-12,0,-1.57041e-06,-3.27738e-12,0,0,-1.13797e-13,0,0,-2.92104,-0.0869675,0.839915,0.887405,-0.0760643,0.0611923,-0.0348762,0,1.07896,-0.0869675,-1368604256,-436093444,-1368604256,-436093444,-1450951726,-1368604256,-1368604208,-1368604208,0.123415,-0.261799,-3.22429e-12,-1.5,3.94113e+12,0,0,3,0.887405,-0.0760643,0,0,0,0
1770,-3.21068e-12,0,-1.57041e-06,-3.27738e-12,0,-3.40903e-12,-1.13798e-13,0,0,-2.92104,-0.0869675,0.839915,0.88862,-0.076757,0.0605823,-0.0345285,0,1.07896,-0.0869675,-1368604256,-436093444,-1368604256,-436093444,-1450951726,-1368604256,-1368604208,-1368604208,0.123873,-0.261799,-3.09686e-12,-1.5,3.94113e+12,0,0,3,0.88862,-0.076757,0,0,0,0
1780,-3.21068e-12,0,-1.57041e-06,-3.27738e-12,0,0,-1.13798e-13,0,0,-2.92104,-0.0869675,0.839915,0.893792,-0.0797049,0.0578965,-0.0329978,0,1.07896,-0.0869675,-1368604256,-436093444,-1368604256,-436093444,-1450951726,-1368604256,-1368604208,-1368604208,0.125774,-0.261799,-2.5539e-12,-1.5,3.94113e+12,0,0,3,0.893792,-0.0797049,0,0,0,0
1790,-3.21068e-12,0,-1.57041e-06,-3.27738e-12,0,-3.40903e-12,-1.13799e-13,0,0,-2.92104,-0.0869675,0.839915,0.898523,-0.0824011,0.0554452,-0.0316006,0,1.07896,-0.0869675,-1368604256,-436093444,-1368604256,-436093444,-1450951726,-1368604256,-1368604208,-1368604208,0.127515,-0.261799,-2.12623e-12,-1.5,3.94113e+12,0,0,3,0.898523,-0.0824011,0,0,0,0
1800,-3.21068e-12,0,-1.57041e-06,-3.27738e-12,0,0,-1.13799e-13,0,0,-2.92104,-0.0869675,0.839915,0.899733,-0.0830908,0.0548371,-0.0312541,0,1.07896,-0.0869675,-1368604256,-436093444,-1368604256,-436093444,-1450951726,-1368604256,-1368604208,-1368604208,0.127971,-0.261799,-2.03383e-12,-1.5,3.94113e+12,0,0,3,0.899733,-0.0830908,0,0,0,0
1810,-3.21068e-12,0,-1.57041e-06,-3.27738e-12,0,-3.40903e-12,-1.138e-13,0,0,-2.92104,-0.0869675,0.839915,0.904316,-0.0857031,0.0524618,-0.0299003,0,1.07896,-0.0869675,-1368604256,-436093444,-1368604256,-436093444,-1450951726,-1368604256,-1368604208,-1368604208,0.129658,-0.261799,-1.68586e-12,-1.5,3.94113e+12,0,0,3,0.904316,-0.0857031,0,0,0,0
