timestamp,A_x,A_y,A_z,P,Q,R,Phi,Theta,Psi,poseX,poseY,poseZ,state_X,state_Y,state_Z,state_VzB,state_Bx,state_By,state_Bz,p1_x,p1_y,p2_x,p2_y,p3_x,p3_y,p4_x,p4_y,roll,pitch,yaw,alt,targetHeading,highLevelState,lowLevelState,gateNumber,filtered_x,filtered_y,x_OT,y_OT,vx_OT,vy_OTfiltered_vx,filtered_vygateArea
10,0,0,0,0,0,0,0,0,0,0,0,0,0,0,0,0,0,0,0,0,0,0,0,0,0,0,0,0,-0.261799,0.00779127,-1.5,2.65527e-06,0,0,3,0,0,0,0,0,0,0,0,0
20,0,0,0,0,0,0,0,0,0,0,0,0,0,0,0,0,0,0,0,0,0,0,0,0,0,0,0,0,-0.261799,0.00622589,-1.5,2.65527e-06,0,0,3,0,0,0,0,0,0,0,0,0
30,1.13478e-29,0,-3.72116e-12,3.69453e-38,-1.58438e-06,-3.85292e-12,-1.13703e-13,0,0,0,0,0,0,0,0,0,0,0,0,0,0,0,0,0,0,0,0,0,-0.261799,-0.00267818,-1.5,2.65527e-06,0,0,3,0,0,0,0,0,0,0,0,0
40,5.1517e-26,0,-3.72116e-12,3.69453e-38,-1.58438e-06,-3.85292e-12,-1.13703e-13,0,0,0,0,0,0,0,0,0,0,0,0,0,0,0,0,0,0,0,0,0,-0.261799,-0.0021401,-1.5,2.65527e-06,0,0,3,0,0,0,0,0,0,0,0,0
50,2.05341e-23,0,-3.72116e-12,3.69453e-38,-1.58438e-06,-3.85292e-12,-1.13704e-13,0,0,0,0,0,0,0,0,0,0,0,0,0,0,0,0,0,0,0,0,0,-0.261799,-0.001837,-1.5,2.65527e-06,0,0,3,0,0,0,0,0,0,0,0,0
60,7.14315e-22,0,-3.72116e-12,3.69453e-38,-1.58438e-06,-3.85292e-12,-1.13704e-13,0,0,0,0,0,0,0,0,0,0,0,0,0,0,0,0,0,0,0,0,0,-0.261799,-0.00168124,-1.5,2.65527e-06,0,0,3,0,0,0,0,0,0,0,0,0
70,8.45446e-19,0,-3.72116e-12,3.69453e-38,-1.58438e-06,-3.85292e-12,-1.13705e-13,0,0,0,0,0,0,0,0,0,0,0,0,0,0,0,0,0,0,0,0,0,-0.261799,-0.0013964,-1.5,2.65527e-06,0,0,3,0,0,0,0,0,0,0,0,0
80,6.8746e-15,0,-3.72116e-12,3.69453e-38,-1.58438e-06,-3.85292e-12,-1.13705e-13,0,0,0,0,0,0,0,0,0,0,0,0,0,0,0,0,0,0,0,0,0,-0.261799,-0.0010966,-1.5,2.65527e-06,0,0,3,0,0,0,0,0,0,0,0,0
90,8.66656e-13,0,-3.72116e-12,3.69453e-38,-1.58438e-06,-3.85292e-12,-1.13706e-13,0,0,0,0,0,0,0,0,0,0,0,0,0,0,0,0,0,0,0,0,0,-0.261799,-0.000971247,-1.5,2.65527e-06,0,0,3,0,0,0,0,0,0,0,0,0
100,2.39499e-11,0,-3.72116e-12,3.69453e-38,-1.58438e-06,-3.85292e-12,-1.13706e-13,0,0,0,0,0,0,0,0,0,0,0,0,0,0,0,0,0,0,0,0,0,-0.261799,-0.000894844,-1.5,2.65527e-06,0,0,3,0,0,0,0,0,0,0,0,0
110,1.84991e-09,0,-3.72116e-12,3.69453e-38,-1.58438e-06,-3.85292e-12,-1.13707e-13,0,0,0,0,0,0,0,0,0,0,0,0,0,0,0,0,0,0,0,0,0,-0.261799,-0.000801357,-1.5,2.65527e-06,0,0,3,0,0,0,0,0,0,0,0,0
120,1.47356e-05,0,-3.72116e-12,3.69453e-38,-1.58438e-06,-3.85292e-12,-1.13708e-13,0,0,0,0,0,0,0,0,0,0,0,0,0,0,0,0,0,0,0,0,0,-0.261799,-0.000629312,-1.5,2.65527e-06,0,0,3,0,0,0,0,0,0,0,0,0
130,0.000799926,0,-3.72116e-12,3.69453e-38,-1.58438e-06,-3.85292e-12,-1.13708e-13,0,0,0,0,0,0,0,0,0,0,0,0,0,0,0,0,0,0,0,0,0,-0.261799,-0.000569759,-1.5,2.65527e-06,0,0,3,0,0,0,0,0,0,0,0,0
140,0.0342108,0,-3.72116e-12,3.69453e-38,-1.58438e-06,-3.85292e-12,-1.13709e-13,0,0,0,0,0,0,0,0,0,0,-0.05,0,-1368607656,-1368607656,-1368607656,-1368607656,-1368607616,1956249633,295759519,-1368607616,0,-0.261799,-0.000518163,-1.5,2.65527e-06,0,0,3,0,0,0,0,0,0,0,0,1.50258e+09
150,0.19233,0,-3.72116e-12,3.69453e-38,-1.58438e-06,-3.85292e-12,-1.13709e-13,0,0,0,0,0,0,0,0,0,0,-0.05,0,-1368607656,-1368607656,-1368607656,-1368607656,-1368607616,1956249633,295759519,-1368607616,0,-0.261799,-0.000497703,-1.5,2.65527e-06,0,0,3,0,0,0,0,0,0,0,0,1.50258e+09
160,1.03012,0,-3.72116e-12,3.69453e-38,-1.58438e-06,-3.85292e-12,-1.1371e-13,0,0,0,0,0,0,0,0,0,0,-0.05,0,-1368607656,-1368607656,-1368607656,-1368607656,-1368607616,1956249633,295759519,-1368607616,0,-0.261799,-0.000477072,-1.5,2.65527e-06,0,0,3,0,0,0,0,0,0,0,0,1.50258e+09
170,6584.6,0,-3.72116e-12,3.69453e-38,-1.58438e-06,-3.85292e-12,-1.1371e-13,0,0,-6.73572,2.81895,1.93977,0,0,0,0,0,2.18104,-2.70308,-1368607656,-1368607656,-1368607656,-1368607656,-1368607616,1956249633,295759519,-1368607616,0,-0.261799,-0.000377645,-1.5,2.65527e-06,0,0,3,0,0,0,0,0,0,0,0,1.50258e+09
180,130190,0,-3.72116e-12,3.69453e-38,-1.58438e-06,-3.85292e-12,-1.13711e-13,0,0,-6.73572,2.81895,1.93977,0,0,0,0,0,2.18104,-2.70308,-1368607656,-1368607656,-1368607656,-1368607656,-1368607616,1956249633,295759519,-1368607616,0,-0.261799,-0.000350827,-1.5,2.65527e-06,0,0,3,0,0,0,0,0,0,0,0,1.50258e+09
190,557638,0,-3.72116e-12,3.69453e-38,-1.58438e-06,-3.85292e-12,-1.13711e-13,0,0,-6.73572,2.81895,1.93977,0,0,0,0,0,2.18104,-2.70308,-1368607656,-1368607656,-1368607656,-1368607656,-1368607616,1956249633,295759519,-1368607616,0,-0.261799,-0.000338352,-1.5,2.65527e-06,0,0,3,0,0,0,0,0,0,0,0,1.50258e+09
200,2.77826e+06,0,-3.72116e-12,3.69453e-38,-1.58438e-06,-3.85292e-12,-1.13712e-13,0,0,-6.73572,2.81895,1.93977,0,0,0,0,0,2.18104,-2.70308,-1368607656,-1368607656,-1368607656,-1368607656,-1368607616,1956249633,295759519,-1368607616,0,-0.261799,-0.000325656,-1.5,2.65527e-06,0,0,3,0,0,0,0,0,0,0,0,1.50258e+09
210,1.782e+10,0,-3.72116e-12,3.69453e-38,-1.58438e-06,-3.85292e-12,-1.13712e-13,0,0,-6.73572,2.81895,1.93977,0,0,0,0,0,2.18104,-2.70308,-1368607656,-1368607656,-1368607656,-1368607656,-1368607616,1956249633,295759519,-1368607616,0,-0.261799,-0.000257663,-1.5,2.65527e-06,0,0,3,0,0,0,0,0,0,0,0,1.50258e+09
220,1.01845e+15,0,-3.72116e-12,3.69453e-38,-1.58438e-06,-3.85292e-12,-1.13713e-13,0,0,-7.34254,3.1669,2.12729,0,0,0,0,0,1.83309,-3.44334,-1368607656,-1368607656,-1368607656,-1368607656,-1368607616,1956249633,295759519,-1368607616,0,-0.261799,-0.000190298,-1.5,2.65527e-06,0,0,3,0,0,0,0,0,0,0,0,1.50258e+09
230,5.6649e+15,0,-3.72116e-12,3.69453e-38,-1.58438e-06,-3.85292e-12,-1.13714e-13,0,0,-7.34254,3.1669,2.12729,0,0,0,0,0,1.83309,-3.44334,-1368607656,-1368607656,-1368607656,-1368607656,-1368607616,1956249633,295759519,-1368607616,0,-0.261799,-0.000182784,-1.5,2.65527e-06,0,0,3,0,0,0,0,0,0,0,0,1.50258e+09
240,3.79051e+19,0,-3.72116e-12,3.69453e-38,-1.58438e-06,-3.85292e-12,-1.13714e-13,0,0,-7.34254,3.1669,2.12729,0,0,0,0,0,1.83309,-3.44334,-1368607656,-1368607656,-1368607656,-1368607656,-1368607616,1956249633,295759519,-1368607616,0,-0.261799,-0.000144261,-1.5,2.65527e-06,0,0,3,0,0,0,0,0,0,0,0,1.50258e+09
250,1.89636e+24,0,-3.72116e-12,3.69453e-38,-1.58438e-06,-3.85292e-12,-1.13715e-13,0,0,-7.34254,3.1669,2.12729,0,0,0,0,0,1.83309,-3.44334,-1368607656,-1368607656,-1368607656,-1368607656,-1368607616,1956249633,295759519,-1368607616,0,-0.261799,-0.000107111,-1.5,2.65527e-06,0,0,3,0,0,0,0,0,0,0,0,1.50258e+09
260,6.74715e+27,0,-3.72116e-12,3.69453e-38,-1.58438e-06,-3.85292e-12,-1.13715e-13,0,0,-7.34254,3.1669,2.12729,0,0,0,0,0,1.83309,-3.44334,-1368607656,-1368607656,-1368607656,-1368607656,-1368607616,1956249633,295759519,-1368607616,0,-0.261799,-8.6261e-05,-1.5,2.65527e-06,0,0,3,0,0,0,0,0,0,0,0,1.50258e+09
270,6.44517e+28,0,-3.72116e-12,3.69453e-38,-1.58438e-06,-3.85292e-12,-1.13716e-13,0,0,-7.36502,3.12421,2.12806,0,0,0,0,0,1.87578,-3.47401,-1368607656,-1368607656,-1368607656,-1368607656,-1368607616,1956249633,295759519,-1368607616,0,-0.261799,-8.16687e-05,-1.5,2.65527e-06,0,0,3,0,0,0,0,0,0,0,0,1.50258e+09
280,2.6318e+32,0,-3.72116e-12,3.69453e-38,-1.58438e-06,-3.85292e-12,-1.13716e-13,0,0,-7.3963,3.13792,2.14353,0,0,0,0,0,1.86207,-3.51271,-1368607656,-1368607656,-1368607656,-1368607656,-1368607616,1956249633,295759519,-1368607616,0.261799,-0.261799,-6.54501e-05,-1.5,2.65527e-06,0,0,3,1.8219,-3.61467,0,0,0,0,-0.39772,-1.00951,1.50258e+09
290,-1.19653e-37,0,-3.72116e-12,3.69453e-38,-1.58438e-06,-3.85292e-12,-1.13717e-13,0,0,-7.54902,3.22451,2.17843,0,0,0,0,0,1.77548,-3.70106,-1368607656,-1368607656,-1368607656,-1368607656,-1368607616,1956249633,295759519,-1368607616,0.261799,-0.261799,-3.77965e-05,-1.5,2.65527e-06,0,0,3,1.73639,-3.83172,0,0,0,0,-0.397721,-1.00951,1.50258e+09
300,-7.91986e-08,0,-3.72116e-12,3.69453e-38,-1.58438e-06,-3.85292e-12,-1.13717e-13,0,0,-7.61004,3.23937,2.2098,1.40589,-4.6706,-0.395934,-1.00498,0,1.76062,-3.77747,-1368607656,-1368607656,-1368607656,-1368607656,-1368607616,1956249633,295759519,-1368607616,0.261799,-0.261799,2.39057e-05,-1.5,2.65527e-06,0,0,3,1.40589,-4.6706,0,0,0,0,-0.395934,-1.00498,1.50258e+09
310,-0.00123586,0,-3.72116e-12,3.69453e-38,-1.58438e-06,-3.85292e-12,-1.13718e-13,0,0,-7.4056,3.14231,2.10541,1.36208,-4.78181,-0.37287,-0.946436,0,1.85767,-3.52421,-1368607656,-1368607656,-1368607656,-1368607656,-1368607616,1956249633,295759519,-1368607616,0.261799,-0.261799,1.8407e-05,-1.5,2.65527e-06,0,0,3,1.36208,-4.78181,0,0,0,0,-0.37287,-0.946436,1.50258e+09
320,-2.7371e+19,0,-3.72116e-12,3.69453e-38,-1.58438e-06,-3.85292e-12,-1.13718e-13,0,0,-7.8595,3.34612,2.41419,1.20136,-5.18975,-0.257367,-0.65326,0,1.65387,-4.08857,-1368607656,-1368607656,-1368607656,-1368607656,-1368607616,1956249633,295759519,-1368607616,0.261799,-0.261799,-4.13005e-06,-1.5,2.65527e-06,0,0,3,1.20136,-5.18975,0,0,0,0,-0.257367,-0.65326,1.50258e+09
330,-1.88362e+23,0,-3.72116e-12,3.69453e-38,-1.58438e-06,-3.85292e-12,-1.13719e-13,0,0,-7.8595,3.34612,2.41419,1.17519,-5.25618,-0.24365,-0.618444,0,1.65387,-4.08857,-1368607656,-1368607656,-1368607656,-1368607656,-1368607616,1956249633,295759519,-1368607616,0.261799,-0.261799,-3.25962e-06,-1.5,2.65527e-06,0,0,3,1.17519,-5.25618,0,0,0,0,-0.24365,-0.618444,1.50258e+09
340,-1.11636e+30,0,-3.72116e-12,3.69453e-38,-1.58438e-06,-3.85292e-12,-1.13719e-13,0,0,-7.8595,3.34612,2.41419,1.13329,-5.36253,-0.220726,-0.560256,0,1.65387,-4.08857,-1368607656,-1368607656,-1368607656,-1368607656,-1368607616,1956249633,295759519,-1368607616,0.261799,-0.261799,-2.04886e-06,-1.5,2.65527e-06,0,0,3,1.13329,-5.36253,0,0,0,0,-0.220726,-0.560256,1.50258e+09
350,-1.11354e+34,0,-3.72116e-12,3.69453e-38,-1.58438e-06,-3.85292e-12,-1.1372e-13,0,0,-8.02083,3.39167,2.45208,1.10985,-5.42203,-0.208418,-0.529015,0,1.60832,-4.29144,-1368607656,-1368607656,-1368607656,-1368607656,-1368607616,1956249633,295759519,-1368607616,0.261799,-0.261799,-1.5977e-06,-1.5,2.65527e-06,0,0,3,1.10985,-5.42203,0,0,0,0,-0.208418,-0.529015,1.50258e+09
360,-9.92156e+35,0,-3.72116e-12,3.69453e-38,-1.58438e-06,-3.85292e-12,-1.13721e-13,0,0,-8.18846,3.47469,2.54893,1.09885,-5.44994,-0.202813,-0.514789,0,1.5253,-4.50162,-1368607656,-1368607656,-1368607656,-1368607656,-1368607616,1956249633,295759519,-1368607616,0.261799,-0.261799,-1.42791e-06,-1.5,2.65527e-06,0,0,3,1.09885,-5.44994,0,0,0,0,-0.202813,-0.514789,1.50258e+09
370,-6.90932e+36,0,-3.72116e-12,3.69453e-38,-1.58438e-06,-3.85292e-12,-1.13721e-13,0,0,-8.18846,3.47469,2.54893,1.09422,-5.46169,-0.200489,-0.508889,0,1.5253,-4.50162,-1368607656,-1368607656,-1368607656,-1368607656,-1368607616,1956249633,295759519,-1368607616,0.261799,-0.261799,-1.36312e-06,-1.5,2.65527e-06,0,0,3,1.09422,-5.46169,0,0,0,0,-0.200489,-0.508889,1.50258e+09
380,-2.87962e+37,0,-3.72116e-12,3.69453e-38,-1.58438e-06,-3.85292e-12,-1.13722e-13,0,0,-8.18846,3.47469,2.54893,1.09083,-5.47029,-0.198789,-0.504576,0,1.5253,-4.50162,-1368607656,-1368607656,-1368607656,-1368607656,-1368607616,1956249633,295759519,-1368607616,0.261799,-0.261799,-1.31729e-06,-1.5,2.65527e-06,0,0,3,1.09083,-5.47029,0,0,0,0,-0.198789,-0.504576,1.50258e+09
390,-1.20219e+38,0,-3.72116e-12,3.69453e-38,-1.58438e-06,-3.85292e-12,-1.13722e-13,0,0,-7.90323,3.3301,2.39265,1.08728,-5.47932,-0.197006,-0.500049,0,1.66989,-4.14459,-1368607656,-1368607656,-1368607656,-1368607656,-1368607616,1956249633,295759519,-1368607616,0.261799,-0.261799,-1.27045e-06,-1.5,2.65527e-06,0,0,3,1.08728,-5.47932,0,0,0,0,-0.197006,-0.500049,1.50258e+09
400,7.55295e-36,0,-3.72116e-12,3.69453e-38,-1.58438e-06,-3.85292e-12,-1.13723e-13,0,0,-7.90323,3.3301,2.39265,1.06724,-5.53017,-0.186506,-0.473398,0,1.66989,-4.14459,-1368607656,-1368607656,-1368607656,-1368607656,-1368607616,1956249633,295759519,-1368607616,0.261799,-0.261799,-1.0027e-06,-1.5,2.65527e-06,0,0,3,1.06724,-5.53017,0,0,0,0,-0.186506,-0.473398,1.50258e+09
410,1.22607e-34,0,-3.72116e-12,3.69453e-38,-1.58438e-06,-3.85292e-12,-1.13723e-13,0,0,-8.19149,3.47553,2.55106,1.06099,-5.54605,-0.183347,-0.46538,0,1.52446,-4.50545,-1368607656,-1368607656,-1368607656,-1368607656,-1368607616,1956249633,295759519,-1368607616,0.261799,-0.261799,-9.35529e-07,-1.5,2.65527e-06,0,0,3,1.06099,-5.54605,0,0,0,0,-0.183347,-0.46538,1.50258e+09
420,5.11438e-34,0,-3.72116e-12,3.69453e-38,-1.58438e-06,-3.85292e-12,-1.13724e-13,0,0,-8.19149,3.47553,2.55106,1.05789,-5.55391,-0.181793,-0.461436,0,1.52446,-4.50545,-1368607656,-1368607656,-1368607656,-1368607656,-1368607616,1956249633,295759519,-1368607616,0.261799,-0.261799,-9.04078e-07,-1.5,2.65527e-06,0,0,3,1.05789,-5.55391,0,0,0,0,-0.181793,-0.461436,1.50258e+09
430,2.26047e-33,0,-3.72116e-12,3.69453e-38,-1.58438e-06,-3.85292e-12,-1.13724e-13,0,0,-8.19149,3.47553,2.55106,1.05464,-5.56217,-0.180162,-0.457295,0,1.52446,-4.50545,-1368607656,-1368607656,-1368607656,-1368607656,-1368607616,1956249633,295759519,-1368607616,0.261799,-0.261799,-8.71905e-07,-1.5,2.65527e-06,0,0,3,1.05464,-5.56217,0,0,0,0,-0.180162,-0.457295,1.50258e+09
440,1.29663e-32,0,-3.72116e-12,3.69453e-38,-1.58438e-06,-3.85292e-12,-1.13725e-13,0,0,-8.19149,3.47553,2.55106,1.0507,-5.57215,-0.178187,-0.452281,0,1.52446,-4.50545,-1368607656,-1368607656,-1368607656,-1368607656,-1368607616,1956249633,295759519,-1368607616,0.261799,-0.261799,-8.34051e-07,-1.5,2.65527e-06,0,0,3,1.0507,-5.57215,0,0,0,0,-0.178187,-0.452281,1.50258e+09
450,1.44501e-28,0,-3.72116e-12,3.69453e-38,-1.58438e-06,-3.85292e-12,-1.13725e-13,0,0,-8.06746,3.38779,2.51122,1.03179,-5.62017,-0.168246,-0.42705,0,1.6122,-4.35072,-1368607656,-1368607656,-1368607656,-1368607656,-1368607616,1956249633,295759519,-1368607616,0.261799,-0.261799,-6.50063e-07,-1.5,2.65527e-06,0,0,3,1.64605,-4.28997,0,0,0,0,0.30287,0.544027,1.50258e+09
460,1.22533e-24,0,-3.72116e-12,3.69453e-38,-1.58438e-06,-3.85292e-12,-1.13726e-13,0,0,-8.06746,3.38779,2.51122,1.01422,-5.66476,-0.159032,-0.403662,0,1.6122,-4.35072,-1368607656,-1368607656,-1368607656,-1368607656,-1368607616,1956249633,295759519,-1368607616,0.261799,-0.261799,-5.09475e-07,-1.5,2.65527e-06,0,0,3,1.6803,-4.22775,0,0,0,0,0.312084,0.567414,1.50258e+09
470,5.3784e-24,0,-3.72116e-12,3.69453e-38,-1.58438e-06,-3.85292e-12,-1.13727e-13,0,0,-8.06746,3.38779,2.51122,1.01137,-5.67198,-0.157605,-0.400041,0,1.6122,-4.35072,-1368607656,-1368607656,-1368607656,-1368607656,-1368607616,1956249633,295759519,-1368607616,0.261799,-0.261799,-4.91358e-07,-1.5,2.65527e-06,0,0,3,1.68594,-4.21749,0,0,0,0,0.313511,0.571036,1.50258e+09
480,1.9436e-22,0,-3.72116e-12,3.69453e-38,-1.58438e-06,-3.85292e-12,-1.13727e-13,0,0,-7.59427,3.28667,2.21293,1.00472,-5.68888,-0.154229,-0.39147,0,1.71332,-3.7553,-1368607656,-1368607656,-1368607656,-1368607656,-1368607616,1956249633,295759519,-1368607616,0.261799,-0.261799,-4.49696e-07,-1.5,2.65527e-06,0,0,3,1.72906,-3.6943,0,0,0,0,0.366677,1.41997,1.50258e+09
490,1.55107e-18,0,-3.72116e-12,3.69453e-38,-1.58438e-06,-3.85292e-12,-1.13728e-13,0,0,-7.24548,3.11511,2.04576,0.988758,-5.72938,-0.145855,-0.370216,0,1.88488,-3.32385,-1368607656,-1368607656,-1368607656,-1368607656,-1368607616,1956249633,295759519,-1368607616,0.261799,-0.261799,-3.5315e-07,-1.5,2.65527e-06,0,0,3,1.76988,-3.53736,0,0,0,0,0.375051,1.44123,1.50258e+09
500,1.32753e-16,0,-3.72116e-12,3.69453e-38,-1.58438e-06,-3.85292e-12,-1.13728e-13,0,0,-7.39695,3.1382,2.05932,0.981063,-5.74892,-0.141933,-0.360261,0,1.86179,-3.51352,-1368607656,-1368607656,-1368607656,-1368607656,-1368607616,1956249633,295759519,-1368607616,0.261799,-0.261799,-3.1562e-07,-1.5,2.65527e-06,0,0,3,1.8893,-3.4334,0,0,0,0,0.509903,1.48514,1.50258e+09
510,5.44529e-16,0,-3.72116e-12,3.69453e-38,-1.58438e-06,-3.85292e-12,-1.13729e-13,0,0,-7.39695,3.1382,2.05932,0.978664,-5.75501,-0.14073,-0.357208,0,1.86179,-3.51352,-1368607656,-1368607656,-1368607656,-1368607656,-1368607616,1956249633,295759519,-1368607616,0.261799,-0.261799,-3.05017e-07,-1.5,2.65527e-06,0,0,3,1.89798,-3.40812,0,0,0,0,0.511105,1.48819,1.50258e+09
520,5.07157e-15,0,-3.72116e-12,3.69453e-38,-1.58438e-06,-3.85292e-12,-1.13734e-13,0,0,-7.62527,3.2463,2.19517,0.9749,-5.76456,-0.138838,-0.352404,0,1.75369,-3.7964,-1368607656,-1368607656,-1368607656,-1368607656,-1368607616,1956249633,295759519,-1368607616,0.261799,-0.261799,-2.88797e-07,-1.5,2.65527e-06,0,0,3,1.80071,-3.37755,0,0,0,0,0.3797,1.48392,1.50258e+09
530,2.31363e-14,0,-3.72116e-12,3.69453e-38,-1.58438e-06,-3.85292e-12,-1.13729e-13,0,0,-7.62527,3.2463,2.19517,0.972416,-5.77086,-0.137592,-0.349242,0,1.75369,-3.7964,-1368607656,-1368607656,-1368607656,-1368607656,-1368607616,1956249633,295759519,-1368607616,0.261799,-0.261799,-2.78528e-07,-1.5,2.65527e-06,0,0,3,1.80756,-3.3508,0,0,0,0,0.380946,1.48708,1.50258e+09
540,3.19542e-10,0,-3.72116e-12,3.69453e-38,-1.58438e-06,-3.85292e-12,-1.13736e-13,0,0,-7.67733,3.2679,2.29891,0.957442,-5.80887,-0.129711,-0.329237,0,1.73208,-3.86124,-1368607656,-1368607656,-1368607656,-1368607656,-1368607616,1956249633,295759519,-1368607616,0.261799,-0.261799,-2.15441e-07,-1.5,2.65527e-06,0,0,3,1.80733,-3.63007,0,0,0,0,0.335152,0.998745,1.50258e+09
550,6.11969e-09,0,-3.72116e-12,3.69453e-38,-1.58438e-06,-3.85292e-12,-1.13735e-13,0,0,-7.67733,3.2679,2.29891,0.952841,-5.82055,-0.127384,-0.323331,0,1.73208,-3.86124,-1368607656,-1368607656,-1368607656,-1368607656,-1368607616,1956249633,295759519,-1368607616,0.261799,-0.261799,-2.00142e-07,-1.5,2.65527e-06,0,0,3,1.81946,-3.59394,0,0,0,0,0.337478,1.00465,1.50258e+09
560,2.38749e-08,0,-3.72116e-12,3.69453e-38,-1.58438e-06,-3.85292e-12,-1.13731e-13,0,0,-7.67795,3.31204,2.29923,0.950687,-5.82602,-0.126305,-0.320592,0,1.68795,-3.86005,-1368607656,-1368607656,-1368607656,-1368607656,-1368607616,1956249633,295759519,-1368607616,0.261799,-0.261799,-1.93425e-07,-1.5,2.65527e-06,0,0,3,1.81294,-3.56901,0,0,0,0,0.315689,1.02976,1.50258e+09
570,1.03639e-07,0,-3.72116e-12,3.69453e-38,-1.58438e-06,-3.85292e-12,-1.1373e-13,0,0,-7.67795,3.31204,2.29923,0.948426,-5.83176,-0.125171,-0.317716,0,1.68795,-3.86005,-1368607656,-1368607656,-1368607656,-1368607656,-1368607616,1956249633,295759519,-1368607616,0.261799,-0.261799,-1.86547e-07,-1.5,2.65527e-06,0,0,3,1.81863,-3.55044,0,0,0,0,0.316822,1.03264,1.50258e+09
580,0.000852606,0,-3.72116e-12,3.69453e-38,-1.58438e-06,-3.85292e-12,-1.13732e-13,0,0,-7.5277,3.25797,2.25422,0.935468,-5.86465,-0.118379,-0.300474,0,1.74202,-3.67247,-1368607656,-1368607656,-1368607656,-1368607656,-1368607616,1956249633,295759519,-1368607616,0.261799,-0.261799,-1.4657e-07,-1.5,2.65527e-06,0,0,3,1.81719,-3.55608,0,0,0,0,0.277327,0.926696,1.50258e+09
590,0.0315508,0,-3.72116e-12,3.69453e-38,-1.58438e-06,-3.85292e-12,-1.13731e-13,0,0,-7.5277,3.25797,2.25422,0.930353,-5.87763,-0.115785,-0.293889,0,1.74202,-3.67247,-1368607656,-1368607656,-1368607656,-1368607656,-1368607616,1956249633,295759519,-1368607616,0.261799,-0.261799,-1.34142e-07,-1.5,2.65527e-06,0,0,3,1.82948,-3.51507,0,0,0,0,0.279921,0.93328,1.50258e+09
600,0.186269,0,-3.72116e-12,3.69453e-38,-1.58438e-06,-3.85292e-12,-1.13733e-13,0,0,-7.39782,3.16951,2.16643,0.927938,-5.88376,-0.114573,-0.290815,0,1.83048,-3.51295,-1368607656,-1368607656,-1368607656,-1368607656,-1368607616,1956249633,295759519,-1368607616,0.261799,-0.261799,-1.28594e-07,-1.5,2.65527e-06,0,0,3,1.82729,-3.51437,0,0,0,0,0.271519,0.942709,1.50258e+09
610,0.774701,0,-3.72116e-12,3.69453e-38,-1.58438e-06,-3.85292e-12,-1.13734e-13,0,0,-7.39782,3.16951,2.16643,0.926001,-5.88868,-0.113603,-0.288351,0,1.83048,-3.51295,-1368607656,-1368607656,-1368607656,-1368607656,-1368607616,1956249633,295759519,-1368607616,0.261799,-0.261799,-1.24274e-07,-1.5,2.65527e-06,0,0,3,1.83192,-3.49832,0,0,0,0,0.27249,0.945174,1.50258e+09
620,4.63931,0,-3.72116e-12,3.69453e-38,-1.58438e-06,-3.85292e-12,-1.13732e-13,0,0,-7.39782,3.16951,2.16643,0.923521,-5.89497,-0.112357,-0.28519,0,1.83048,-3.51295,-1368607656,-1368607656,-1368607656,-1368607656,-1368607616,1956249633,295759519,-1368607616,0.261799,-0.261799,-1.18879e-07,-1.5,2.65527e-06,0,0,3,1.83793,-3.47748,0,0,0,0,0.273735,0.948335,1.50258e+09
630,29804.6,0,-3.72116e-12,3.69453e-38,-1.58438e-06,-3.85292e-12,-1.13737e-13,0,0,-7.52842,3.23677,2.19006,0.912191,-5.92373,-0.106427,-0.270139,0,1.76322,-3.67443,-1368607656,-1368607656,-1368607656,-1368607656,-1368607616,1956249633,295759519,-1368607616,0.261799,-0.261799,-9.4103e-08,-1.5,2.65527e-06,0,0,3,1.86713,-3.38278,0,0,0,0,0.279825,0.945176,1.50258e+09
640,1.48004e+10,0,-3.72116e-12,3.69453e-38,-1.58438e-06,-3.85292e-12,-1.13738e-13,0,0,-7.52778,3.21499,2.21124,0.896541,-5.96345,-0.0980032,-0.248756,0,1.785,-3.67469,-1368607656,-1368607656,-1368607656,-1368607656,-1368607616,1956249633,295759519,-1368607616,0.261799,-0.261799,-6.46943e-08,-1.5,2.65527e-06,0,0,3,1.81481,-3.22852,0,0,0,0,0.147852,0.971563,1.50258e+09
650,6.01922e+10,0,-3.72116e-12,3.69453e-38,-1.58438e-06,-3.85292e-12,-1.13736e-13,0,0,-7.52778,3.21499,2.21124,0.894884,-5.96766,-0.0971726,-0.246648,0,1.785,-3.67469,-1368607656,-1368607656,-1368607656,-1368607656,-1368607616,1956249633,295759519,-1368607616,0.261799,-0.261799,-6.25209e-08,-1.5,2.65527e-06,0,0,3,1.81733,-3.21198,0,0,0,0,0.148683,0.973671,1.50258e+09
660,4.49073e+11,0,-3.72116e-12,3.69453e-38,-1.58438e-06,-3.85292e-12,-1.13743e-13,0,0,-7.83411,3.27869,2.27881,0.892572,-5.97353,-0.0960106,-0.243698,0,1.7213,-4.05911,-1368607656,-1368607656,-1368607656,-1368607656,-1368607616,1956249633,295759519,-1368607616,0.261799,-0.261799,-5.95609e-08,-1.5,2.65527e-06,0,0,3,1.81826,-3.38374,0,0,0,0,0.151962,0.672135,1.50258e+09
670,2.35001e+16,0,-3.72116e-12,3.69453e-38,-1.58438e-06,-3.85292e-12,-1.13744e-13,0,0,-7.48534,3.15365,2.10447,0.88077,-6.00349,-0.089746,-0.227797,0,1.84633,-3.62419,-1368607656,-1368607656,-1368607656,-1368607656,-1368607616,1956249633,295759519,-1368607616,0.261799,-0.261799,-4.41947e-08,-1.5,2.65527e-06,0,0,3,1.83524,-3.44279,0,0,0,0,0.156501,0.569093,1.50258e+09
680,1.17573e+17,0,-3.72116e-12,3.69453e-38,-1.58438e-06,-3.85292e-12,-1.13738e-13,0,0,-7.48534,3.15365,2.10447,0.878987,-6.00801,-0.0888516,-0.225527,0,1.84633,-3.62419,-1368607656,-1368607656,-1368607656,-1368607656,-1368607616,1956249633,295759519,-1368607616,0.261799,-0.261799,-4.24496e-08,-1.5,2.65527e-06,0,0,3,1.83838,-3.43138,0,0,0,0,0.157396,0.571363,1.50258e+09
690,6.96937e+17,0,-3.72116e-12,3.69453e-38,-1.58438e-06,-3.85292e-12,-1.13739e-13,0,0,-7.48534,3.15365,2.10447,0.877135,-6.01271,-0.0879215,-0.223166,0,1.84633,-3.62419,-1368607656,-1368607656,-1368607656,-1368607656,-1368607616,1956249633,295759519,-1368607616,0.261799,-0.261799,-4.06883e-08,-1.5,2.65527e-06,0,0,3,1.8417,-3.41934,0,0,0,0,0.158326,0.573724,1.50258e+09
700,4.00397e+18,0,-3.72116e-12,3.69453e-38,-1.58438e-06,-3.85292e-12,-1.13746e-13,0,0,-7.36705,3.08297,2.00279,0.875214,-6.01759,-0.0869581,-0.220721,0,1.91702,-3.4788,-1368607656,-1368607656,-1368607656,-1368607656,-1368607616,1956249633,295759519,-1368607616,0.261799,-0.261799,-3.89257e-08,-1.5,2.65527e-06,0,0,3,1.88007,-3.43678,0,0,0,0,0.186216,0.557927,1.50258e+09
710,4.3875e+22,0,-3.72116e-12,3.69453e-38,-1.58438e-06,-3.85292e-12,-1.13744e-13,0,0,-7.36705,3.08297,2.00279,0.865983,-6.04102,-0.0821071,-0.208408,0,1.91702,-3.4788,-1368607656,-1368607656,-1368607656,-1368607656,-1368607616,1956249633,295759519,-1368607616,0.261799,-0.261799,-3.03388e-08,-1.5,2.65527e-06,0,0,3,1.90143,-3.37301,0,0,0,0,0.191067,0.57024,1.50258e+09
720,6.49963e+25,0,-3.72116e-12,3.69453e-38,-1.58438e-06,-3.85292e-12,-1.13745e-13,0,0,-7.36705,3.08297,2.00279,0.859048,-6.05862,-0.078508,-0.199272,0,1.91702,-3.4788,-1368607656,-1368607656,-1368607656,-1368607656,-1368607616,1956249633,295759519,-1368607616,0.261799,-0.261799,-2.50793e-08,-1.5,2.65527e-06,0,0,3,1.91853,-3.32209,0,0,0,0,0.194666,0.579376,1.50258e+09
730,4.36473e+26,0,-3.72116e-12,3.69453e-38,-1.58438e-06,-3.85292e-12,-1.13739e-13,0,0,-7.36705,3.08297,2.00279,0.857258,-6.06317,-0.0776079,-0.196988,0,1.91702,-3.4788,-1368607656,-1368607656,-1368607656,-1368607656,-1368607616,1956249633,295759519,-1368607616,0.261799,-0.261799,-2.394e-08,-1.5,2.65527e-06,0,0,3,1.92303,-3.30872,0,0,0,0,0.195566,0.58166,1.50258e+09
740,1.84382e+27,0,-3.72116e-12,3.69453e-38,-1.58438e-06,-3.85292e-12,-1.1374e-13,0,0,-7.36705,3.08297,2.00279,0.855869,-6.06669,-0.0769116,-0.19522,0,1.91702,-3.4788,-1368607656,-1368607656,-1368607656,-1368607656,-1368607616,1956249633,295759519,-1368607616,0.261799,-0.261799,-2.30887e-08,-1.5,2.65527e-06,0,0,3,1.92655,-3.29823,0,0,0,0,0.196262,0.583428,1.50258e+09
750,4.86475e+28,0,-3.72116e-12,3.69453e-38,-1.58438e-06,-3.85292e-12,-1.13748e-13,0,0,-7.83479,3.30136,2.25676,0.852842,-6.07437,-0.0753793,-0.191331,0,1.69863,-4.05906,-1368607656,-1368607656,-1368607656,-1368607656,-1368607616,1956249633,295759519,-1368607616,0.261799,-0.261799,-2.127e-08,-1.5,2.65527e-06,0,0,3,1.89585,-3.42655,0,0,0,0,0.169617,0.411668,1.50258e+09
760,5.06802e+32,0,-3.72116e-12,3.69453e-38,-1.58438e-06,-3.85292e-12,-1.13746e-13,0,0,-7.83479,3.30136,2.25676,0.844907,-6.09451,-0.0712117,-0.180753,0,1.69863,-4.05906,-1368607656,-1368607656,-1368607656,-1368607656,-1368607616,1956249633,295759519,-1368607616,0.261799,-0.261799,-1.66198e-08,-1.5,2.65527e-06,0,0,3,1.91511,-3.37975,0,0,0,0,0.173785,0.422246,1.50258e+09
770,9.65489e+34,0,-3.72116e-12,3.69453e-38,-1.58438e-06,-3.85292e-12,-1.13747e-13,0,0,-7.83479,3.30136,2.25676,0.840479,-6.10575,-0.0689413,-0.17499,0,1.69863,-4.05906,-1368607656,-1368607656,-1368607656,-1368607656,-1368607616,1956249633,295759519,-1368607616,0.261799,-0.261799,-1.45236e-08,-1.5,2.65527e-06,0,0,3,1.92636,-3.3524,0,0,0,0,0.176055,0.428009,1.50258e+09
780,2.79863e+35,0,-3.72116e-12,3.69453e-38,-1.58438e-06,-3.85292e-12,-1.13747e-13,0,0,-7.83479,3.30136,2.25676,0.839586,-6.10802,-0.0684943,-0.173855,0,1.69863,-4.05906,-1368607656,-1368607656,-1368607656,-1368607656,-1368607616,1956249633,295759519,-1368607616,0.261799,-0.261799,-1.41498e-08,-1.5,2.65527e-06,0,0,3,1.92866,-3.34683,0,0,0,0,0.176502,0.429143,1.50258e+09
790,-1.18234e-38,0,-3.72116e-12,3.69453e-38,-1.58438e-06,-3.85292e-12,-1.13748e-13,0,0,-7.83479,3.30136,2.25676,0.832868,-6.12507,-0.0649803,-0.164936,0,1.69863,-4.05906,-1368607656,-1368607656,-1368607656,-1368607656,-1368607616,1956249633,295759519,-1368607616,0.261799,-0.261799,-1.12791e-08,-1.5,2.65527e-06,0,0,3,1.94717,-3.30178,0,0,0,0,0.180016,0.438063,1.50258e+09
800,-2.05281e-36,0,-3.72116e-12,3.69453e-38,-1.58438e-06,-3.85292e-12,-1.1374e-13,0,0,-7.83479,3.30136,2.25676,0.828947,-6.13503,-0.0629741,-0.159844,0,1.69863,-4.05906,-1368607656,-1368607656,-1368607656,-1368607656,-1368607616,1956249633,295759519,-1368607616,0.261799,-0.261799,-9.90321e-09,-1.5,2.65527e-06,0,0,3,1.95844,-3.27434,0,0,0,0,0.182022,0.443155,1.50258e+09
810,-4.21699e-35,0,-3.72116e-12,3.69453e-38,-1.58438e-06,-3.85292e-12,-1.13741e-13,0,0,-7.83479,3.30136,2.25676,0.826651,-6.14085,-0.0618135,-0.156898,0,1.69863,-4.05906,-1368607656,-1368607656,-1368607656,-1368607656,-1368607616,1956249633,295759519,-1368607616,0.261799,-0.261799,-9.18147e-09,-1.5,2.65527e-06,0,0,3,1.96521,-3.25786,0,0,0,0,0.183183,0.446101,1.50258e+09
820,-2.27234e-34,0,-3.72116e-12,3.69453e-38,-1.58438e-06,-3.85292e-12,-1.13741e-13,0,0,-7.83479,3.30136,2.25676,0.825424,-6.14397,-0.0611974,-0.155334,0,1.69863,-4.05906,-1368607656,-1368607656,-1368607656,-1368607656,-1368607616,1956249633,295759519,-1368607616,0.261799,-0.261799,-8.81893e-09,-1.5,2.65527e-06,0,0,3,1.96888,-3.24892,0,0,0,0,0.183799,0.447665,1.50258e+09
830,-9.80642e-34,0,-3.72116e-12,3.69453e-38,-1.58438e-06,-3.85292e-12,-1.13742e-13,0,0,-7.83479,3.30136,2.25676,0.824329,-6.14675,-0.0606483,-0.15394,0,1.69863,-4.05906,-1368607656,-1368607656,-1368607656,-1368607656,-1368607616,1956249633,295759519,-1368607616,0.261799,-0.261799,-8.50534e-09,-1.5,2.65527e-06,0,0,3,1.9722,-3.24084,0,0,0,0,0.184348,0.449059,1.50258e+09
840,-5.25792e-30,0,-3.72116e-12,3.69453e-38,-1.58438e-06,-3.85292e-12,-1.13742e-13,0,0,-7.83479,3.30136,2.25676,1.99166,-3.19339,0.186388,0.45432,0,1.69863,-4.05906,-1368607656,-1368607656,-1368607656,-1368607656,-1368607616,1956249633,295759519,-1368607616,0.261799,-0.261799,-6.76614e-09,-1.5,2.65527e-06,0,0,3,1.99166,-3.19339,0,0,0,0,0.186388,0.45432,1.50258e+09
850,-6.79076e-28,0,-3.72116e-12,3.69453e-38,-1.58438e-06,-3.85292e-12,-1.13749e-13,0,0,-7.83479,3.30136,2.25676,2.0022,-3.16771,0.181002,0.441193,0,1.69863,-4.05906,-1368607656,-1368607656,-1368607656,-1368607656,-1368607616,1956249633,295759519,-1368607616,0.261799,-0.261799,-5.99268e-09,-1.5,2.65527e-06,0,0,3,2.0022,-3.16771,0,0,0,0,0.181002,0.441193,1.50258e+09
860,-3.56711e-27,0,-3.72116e-12,3.69453e-38,-1.58438e-06,-3.85292e-12,-1.1375e-13,0,0,-7.83479,3.30136,2.25676,2.00597,-3.15851,0.179108,0.436576,0,1.69863,-4.05906,-1368607656,-1368607656,-1368607656,-1368607656,-1368607616,1956249633,295759519,-1368607616,0.261799,-0.261799,-5.74427e-09,-1.5,2.65527e-06,0,0,3,2.00597,-3.15851,0,0,0,0,0.179108,0.436576,1.50258e+09
870,-2.13667e-26,0,-3.72116e-12,3.69453e-38,-1.58438e-06,-3.85292e-12,-1.1375e-13,0,0,-7.83479,3.30136,2.25676,2.00971,-3.14941,0.177233,0.432006,0,1.69863,-4.05906,-1368607656,-1368607656,-1368607656,-1368607656,-1368607616,1956249633,295759519,-1368607616,0.261799,-0.261799,-5.50594e-09,-1.5,2.65527e-06,0,0,3,2.00971,-3.14941,0,0,0,0,0.177233,0.432006,1.50258e+09
880,-1.75904e-22,0,-3.72116e-12,3.69453e-38,-1.58438e-06,-3.85292e-12,-1.13751e-13,0,0,-7.83479,3.30136,2.25676,2.02805,-3.10471,0.167611,0.408551,0,1.69863,-4.05906,-1368607656,-1368607656,-1368607656,-1368607656,-1368607616,1956249633,295759519,-1368607616,0.261799,-0.261799,-4.32386e-09,-1.5,2.65527e-06,0,0,3,2.02805,-3.10471,0,0,0,0,0.167611,0.408551,1.50258e+09
890,-5.83952e-08,0,-3.72116e-12,3.69453e-38,-1.58438e-06,-3.85292e-12,-1.13751e-13,0,0,-7.65748,3.2483,2.25617,2.08258,-2.97177,0.133736,0.325983,0,1.75169,-3.83703,-1368607656,-1368607656,-1368607656,-1368607656,-1368607616,1956249633,295759519,-1368607616,0.261799,-0.261799,-8.74789e-10,-1.5,2.65527e-06,0,0,3,2.08258,-2.97177,0,0,0,0,0.133736,0.325983,1.50258e+09
900,-331892,0,-3.72116e-12,3.69453e-38,-1.58438e-06,-3.85292e-12,-1.13752e-13,0,0,-7.46245,3.14456,2.1243,2.12174,-2.87634,0.110158,0.268511,0,1.85543,-3.59579,-1368607656,-1368607656,-1368607656,-1368607656,-1368607616,1956249633,295759519,-1368607616,0.261799,-0.261799,-2.6515e-10,-1.5,2.65527e-06,0,0,3,2.12174,-2.87634,0,0,0,0,0.110158,0.268511,1.50258e+09
910,-8.58898e+07,0,-3.72116e-12,3.69453e-38,-1.58438e-06,-3.85292e-12,-1.13752e-13,0,0,-7.46245,3.14456,2.1243,2.129,-2.85863,0.106428,0.259419,0,1.85543,-3.59579,-1368607656,-1368607656,-1368607656,-1368607656,-1368607616,1956249633,295759519,-1368607616,0.261799,-0.261799,-2.29681e-10,-1.5,2.65527e-06,0,0,3,2.129,-2.85863,0,0,0,0,0.106428,0.259419,1.50258e+09
920,-4.28131e+09,0,-3.72116e-12,3.69453e-38,-1.58438e-06,-3.85292e-12,-1.13753e-13,0,0,-7.46245,3.14456,2.1243,2.13401,-2.84642,0.103884,0.253218,0,1.85543,-3.59579,-1368607656,-1368607656,-1368607656,-1368607656,-1368607616,1956249633,295759519,-1368607616,0.261799,-0.261799,-2.07979e-10,-1.5,2.65527e-06,0,0,3,2.13401,-2.84642,0,0,0,0,0.103884,0.253218,1.50258e+09
930,-2.4626e+10,0,-3.72116e-12,3.69453e-38,-1.58438e-06,-3.85292e-12,-1.13753e-13,0,0,-7.46245,3.14456,2.1243,2.13607,-2.84139,0.102849,0.250694,0,1.85543,-3.59579,-1368607656,-1368607656,-1368607656,-1368607656,-1368607616,1956249633,295759519,-1368607616,0.261799,-0.261799,-1.99767e-10,-1.5,2.65527e-06,0,0,3,2.13607,-2.84139,0,0,0,0,0.102849,0.250694,1.50258e+09
940,-1.38116e+11,0,-3.72116e-12,3.69453e-38,-1.58438e-06,-3.85292e-12,-1.13754e-13,0,0,-7.46245,3.14456,2.1243,2.13832,-2.83592,0.101721,0.247945,0,1.85543,-3.59579,-1368607656,-1368607656,-1368607656,-1368607656,-1368607616,1956249633,295759519,-1368607616,0.261799,-0.261799,-1.91094e-10,-1.5,2.65527e-06,0,0,3,2.13832,-2.83592,0,0,0,0,0.101721,0.247945,1.50258e+09
950,-7.12779e+14,0,-3.72116e-12,3.69453e-38,-1.58438e-06,-3.85292e-12,-1.13754e-13,0,0,-7.85714,3.35612,2.33469,2.1482,-2.81182,0.096553,0.235348,0,1.64387,-4.08519,-1368607656,-1368607656,-1368607656,-1368607656,-1368607616,1956249633,295759519,-1368607616,0.261799,-0.261799,-1.527e-10,-1.5,2.65527e-06,0,0,3,2.1482,-2.81182,0,0,0,0,0.096553,0.235348,1.50258e+09
960,-2.53797e+16,0,-3.72116e-12,3.69453e-38,-1.58438e-06,-3.85292e-12,-1.13755e-13,0,0,-7.85714,3.35612,2.33469,2.15238,-2.80166,0.0944371,0.230191,0,1.64387,-4.08519,-1368607656,-1368607656,-1368607656,-1368607656,-1368607616,1956249633,295759519,-1368607616,0.261799,-0.261799,-1.39472e-10,-1.5,2.65527e-06,0,0,3,2.15238,-2.80166,0,0,0,0,0.0944371,0.230191,1.50258e+09
970,-1.20026e+17,0,-3.72116e-12,3.69453e-38,-1.58438e-06,-3.85292e-12,-1.13755e-13,0,0,-7.85714,3.35612,2.33469,2.15416,-2.79731,0.0935428,0.228011,0,1.64387,-4.08519,-1368607656,-1368607656,-1368607656,-1368607656,-1368607616,1956249633,295759519,-1368607616,0.261799,-0.261799,-1.34239e-10,-1.5,2.65527e-06,0,0,3,2.15416,-2.79731,0,0,0,0,0.0935428,0.228011,1.50258e+09
980,-7.27198e+17,0,-3.72116e-12,3.69453e-38,-1.58438e-06,-3.85292e-12,-1.13756e-13,0,0,-7.85714,3.35612,2.33469,2.15611,-2.79256,0.0925636,0.225624,0,1.64387,-4.08519,-1368607656,-1368607656,-1368607656,-1368607656,-1368607616,1956249633,295759519,-1368607616,0.261799,-0.261799,-1.28669e-10,-1.5,2.65527e-06,0,0,3,2.15611,-2.79256,0,0,0,0,0.0925636,0.225624,1.50258e+09
990,-3.07049e+18,0,-3.72116e-12,3.69453e-38,-1.58438e-06,-3.85292e-12,-1.13757e-13,0,0,-7.85714,3.35612,2.33469,2.15776,-2.78852,0.0917331,0.2236,0,1.64387,-4.08519,-1368607656,-1368607656,-1368607656,-1368607656,-1368607616,1956249633,295759519,-1368607616,0.261799,-0.261799,-1.24094e-10,-1.5,2.65527e-06,0,0,3,2.15776,-2.78852,0,0,0,0,0.0917331,0.2236,1.50258e+09
1000,-5.96636e+25,0,-3.72116e-12,3.69453e-38,-1.58438e-06,-3.85292e-12,-1.13757e-13,0,0,-7.30642,3.09945,2.02479,2.17459,-2.74752,0.0824672,0.201014,0,1.90054,-3.40154,-1368607656,-1368607656,-1368607656,-1368607656,-1368607616,1956249633,295759519,-1368607616,0.261799,-0.261799,-7.45874e-11,-1.5,2.65527e-06,0,0,3,2.17459,-2.74752,0,0,0,0,0.0824672,0.201014,1.50258e+09
1010,-2.6161e+26,0,-3.72116e-12,3.69453e-38,-1.58438e-06,-3.85292e-12,-1.13758e-13,0,0,-7.30642,3.09945,2.02479,2.17606,-2.74392,0.0817273,0.19921,0,1.90054,-3.40154,-1368607656,-1368607656,-1368607656,-1368607656,-1368607616,1956249633,295759519,-1368607616,0.261799,-0.261799,-7.19352e-11,-1.5,2.65527e-06,0,0,3,2.17606,-2.74392,0,0,0,0,0.0817273,0.19921,1.50258e+09
1020,-1.58389e+27,0,-3.72116e-12,3.69453e-38,-1.58438e-06,-3.85292e-12,-1.13758e-13,0,0,-7.30642,3.09945,2.02479,2.17785,-2.73957,0.0808313,0.197026,0,1.90054,-3.40154,-1368607656,-1368607656,-1368607656,-1368607656,-1368607616,1956249633,295759519,-1368607616,0.261799,-0.261799,-6.88121e-11,-1.5,2.65527e-06,0,0,3,2.17785,-2.73957,0,0,0,0,0.0808313,0.197026,1.50258e+09
1030,-9.78211e+30,0,-3.72116e-12,3.69453e-38,-1.58438e-06,-3.85292e-12,-1.13759e-13,0,0,-7.67942,3.26879,2.16833,2.186,-2.7197,0.0765654,0.186628,0,1.7312,-3.86385,-1368607656,-1368607656,-1368607656,-1368607656,-1368607616,1956249633,295759519,-1368607616,0.261799,-0.261799,-5.44708e-11,-1.5,2.65527e-06,0,0,3,2.186,-2.7197,0,0,0,0,0.0765654,0.186628,1.50258e+09
1040,-9.37989e+32,0,-3.72116e-12,3.69453e-38,-1.58438e-06,-3.85292e-12,-1.13759e-13,0,0,-7.67942,3.26879,2.16833,2.19003,-2.70986,0.0745057,0.181608,0,1.7312,-3.86385,-1368607656,-1368607656,-1368607656,-1368607656,-1368607616,1956249633,295759519,-1368607616,0.261799,-0.261799,-4.86729e-11,-1.5,2.65527e-06,0,0,3,2.19003,-2.70986,0,0,0,0,0.0745057,0.181608,1.50258e+09
1050,-5.53409e+33,0,-3.72116e-12,3.69453e-38,-1.58438e-06,-3.85292e-12,-1.1376e-13,0,0,-7.67942,3.26879,2.16833,2.19166,-2.7059,0.0736886,0.179616,0,1.7312,-3.86385,-1368607656,-1368607656,-1368607656,-1368607656,-1368607616,1956249633,295759519,-1368607616,0.261799,-0.261799,-4.65576e-11,-1.5,2.65527e-06,0,0,3,2.19166,-2.7059,0,0,0,0,0.0736886,0.179616,1.50258e+09
1060,-2.30387e+34,0,-3.72116e-12,3.69453e-38,-1.58438e-06,-3.85292e-12,-1.1376e-13,0,0,-7.67942,3.26879,2.16833,2.19291,-2.70286,0.0730641,0.178094,0,1.7312,-3.86385,-1368607656,-1368607656,-1368607656,-1368607656,-1368607616,1956249633,295759519,-1368607616,0.261799,-0.261799,-4.49925e-11,-1.5,2.65527e-06,0,0,3,2.19291,-2.70286,0,0,0,0,0.0730641,0.178094,1.50258e+09
1070,-1.06093e+35,0,-3.72116e-12,3.69453e-38,-1.58438e-06,-3.85292e-12,-1.13761e-13,0,0,-7.67942,3.26879,2.16833,2.19429,-2.6995,0.0723721,0.176407,0,1.7312,-3.86385,-1368607656,-1368607656,-1368607656,-1368607656,-1368607616,1956249633,295759519,-1368607616,0.261799,-0.261799,-4.33042e-11,-1.5,2.65527e-06,0,0,3,2.19429,-2.6995,0,0,0,0,0.0723721,0.176407,1.50258e+09
1080,0,0,-3.72116e-12,3.69453e-38,-1.58438e-06,-3.85292e-12,-1.13761e-13,0,0,-7.5092,3.17465,2.14835,2.20164,-2.68156,0.068515,0.167005,0,1.82534,-3.65323,-1368607656,-1368607656,-1368607656,-1368607656,-1368607616,1956249633,295759519,-1368607616,0.261799,-0.261799,-3.41776e-11,-1.5,2.65527e-06,0,0,3,2.20164,-2.68156,0,0,0,0,0.068515,0.167005,1.50258e+09
1090,4.72327e-37,0,-3.72116e-12,3.69453e-38,-1.58438e-06,-3.85292e-12,-1.13762e-13,0,0,-7.5092,3.17465,2.14835,2.20513,-2.67307,0.0667407,0.162681,0,1.82534,-3.65323,-1368607656,-1368607656,-1368607656,-1368607656,-1368607616,1956249633,295759519,-1368607616,0.261799,-0.261799,-3.06798e-11,-1.5,2.65527e-06,0,0,3,2.20513,-2.67307,0,0,0,0,0.0667407,0.162681,1.50258e+09
1100,2.39049e-36,0,-3.72116e-12,3.69453e-38,-1.58438e-06,-3.85292e-12,-1.13763e-13,0,0,-7.5092,3.17465,2.14835,2.20639,-2.67,0.0661085,0.16114,0,1.82534,-3.65323,-1368607656,-1368607656,-1368607656,-1368607656,-1368607616,1956249633,295759519,-1368607616,0.261799,-0.261799,-2.95276e-11,-1.5,2.65527e-06,0,0,3,2.20639,-2.67,0,0,0,0,0.0661085,0.16114,1.50258e+09
1110,4.40924e-35,0,-3.72116e-12,3.69453e-38,-1.58438e-06,-3.85292e-12,-1.13763e-13,0,0,-7.57068,3.20055,2.1904,2.20874,-2.66427,0.0649238,0.158252,0,1.79944,-3.72959,-1368607656,-1368607656,-1368607656,-1368607656,-1368607616,1956249633,295759519,-1368607616,0.261799,-0.261799,-2.74388e-11,-1.5,2.65527e-06,0,0,3,1.78792,-3.77617,0,0,0,0,-0.177428,-0.580837,1.50258e+09
1120,5.92658e-33,0,-3.72116e-12,3.69453e-38,-1.58438e-06,-3.85292e-12,-1.13764e-13,0,0,-7.57068,3.20055,2.1904,2.21247,-2.65518,0.0630156,0.153601,0,1.79944,-3.72959,-1368607656,-1368607656,-1368607656,-1368607656,-1368607616,1956249633,295759519,-1368607616,0.261799,-0.261799,-2.42482e-11,-1.5,2.65527e-06,0,0,3,1.77736,-3.81068,0,0,0,0,-0.179336,-0.585489,1.50258e+09
1130,4.31608e-29,0,-3.72116e-12,3.69453e-38,-1.58438e-06,-3.85292e-12,-1.13764e-13,0,0,-7.65806,3.22666,2.2127,2.21894,-2.63942,0.0596272,0.145341,0,1.77332,-3.83875,-1368607656,-1368607656,-1368607656,-1368607656,-1368607616,1956249633,295759519,-1368607616,0.261799,-0.261799,-1.90993e-11,-1.5,2.65527e-06,0,0,3,1.75765,-3.87474,0,0,0,0,-0.182724,-0.593748,1.50258e+09
1140,6.71667e-27,0,-3.72116e-12,3.69453e-38,-1.58438e-06,-3.85292e-12,-1.13765e-13,0,0,-8.01297,3.49114,2.39111,2.22248,-2.63079,0.0578153,0.140925,0,1.50885,-4.278,-1368607656,-1368607656,-1368607656,-1368607656,-1368607616,1956249633,295759519,-1368607616,0.261799,-0.261799,-1.68032e-11,-1.5,2.65527e-06,0,0,3,1.74145,-3.94572,0,0,0,0,-0.19003,-0.636398,1.50258e+09
1150,2.7702e-26,0,-3.72116e-12,3.69453e-38,-1.58438e-06,-3.85292e-12,-1.13765e-13,0,0,-8.01297,3.49114,2.39111,2.22345,-2.62841,0.0573252,0.13973,0,1.50885,-4.278,-1368607656,-1368607656,-1368607656,-1368607656,-1368607616,1956249633,295759519,-1368607616,0.261799,-0.261799,-1.62383e-11,-1.5,2.65527e-06,0,0,3,1.73821,-3.95655,0,0,0,0,-0.19052,-0.637593,1.50258e+09
1160,1.89594e-25,0,-3.72116e-12,3.69453e-38,-1.58438e-06,-3.85292e-12,-1.13766e-13,0,0,-8.01297,3.49114,2.39111,2.22476,-2.62522,0.056668,0.138128,0,1.50885,-4.278,-1368607656,-1368607656,-1368607656,-1368607656,-1368607616,1956249633,295759519,-1368607616,0.261799,-0.261799,-1.55007e-11,-1.5,2.65527e-06,0,0,3,1.73382,-3.97124,0,0,0,0,-0.191177,-0.639194,1.50258e+09
1170,7.79272e-25,0,-3.72116e-12,3.69453e-38,-1.58438e-06,-3.85292e-12,-1.13766e-13,0,0,-8.01297,3.49114,2.39111,2.22577,-2.62275,0.0561596,0.136889,0,1.50885,-4.278,-1368607656,-1368607656,-1368607656,-1368607656,-1368607616,1956249633,295759519,-1368607616,0.261799,-0.261799,-1.49796e-11,-1.5,2.65527e-06,0,0,3,1.73037,-3.98276,0,0,0,0,-0.191686,-0.640434,1.50258e+09
1180,9.74438e-21,0,-3.72116e-12,3.69453e-38,-1.58438e-06,-3.85292e-12,-1.13767e-13,0,0,-7.61128,3.28338,2.14518,2.23179,-2.60807,0.0530029,0.129195,0,1.71661,-3.77697,-1368607656,-1368607656,-1368607656,-1368607656,-1368607616,1956249633,295759519,-1368607616,0.261799,-0.261799,-1.16634e-11,-1.5,2.65527e-06,0,0,3,1.71517,-3.83205,0,0,0,0,-0.188374,-0.271774,1.50258e+09
1190,2.92673e-19,0,-3.72116e-12,3.69453e-38,-1.58438e-06,-3.85292e-12,-1.13767e-13,0,0,-7.61128,3.28338,2.14518,2.23398,-2.60274,0.0518942,0.126492,0,1.71661,-3.77697,-1368607656,-1368607656,-1368607656,-1368607656,-1368607616,1956249633,295759519,-1368607616,0.261799,-0.261799,-1.06989e-11,-1.5,2.65527e-06,0,0,3,1.70722,-3.84356,0,0,0,0,-0.189483,-0.274476,1.50258e+09
1200,1.24589e-18,0,-3.72116e-12,3.69453e-38,-1.58438e-06,-3.85292e-12,-1.13768e-13,0,0,-7.61128,3.28338,2.14518,2.23486,-2.6006,0.0514544,0.12542,0,1.71661,-3.77697,-1368607656,-1368607656,-1368607656,-1368607656,-1368607616,1956249633,295759519,-1368607616,0.261799,-0.261799,-1.03394e-11,-1.5,2.65527e-06,0,0,3,1.70399,-3.84824,0,0,0,0,-0.189923,-0.275548,1.50258e+09
1210,5.35247e-18,0,-3.72116e-12,3.69453e-38,-1.58438e-06,-3.85292e-12,-1.13768e-13,0,0,-7.61128,3.28338,2.14518,2.23578,-2.59836,0.0509927,0.124295,0,1.71661,-3.77697,-1368607656,-1368607656,-1368607656,-1368607656,-1368607616,1956249633,295759519,-1368607616,0.261799,-0.261799,-9.97178e-12,-1.5,2.65527e-06,0,0,3,1.70057,-3.85321,0,0,0,0,-0.190385,-0.276674,1.50258e+09
1220,1.41851e-16,0,-3.72116e-12,3.69453e-38,-1.58438e-06,-3.85292e-12,-1.13774e-13,0,0,-7.36747,3.10419,2.00299,2.23774,-2.59359,0.0500018,0.12188,0,1.89579,-3.47819,-1368607656,-1368607656,-1368607656,-1368607656,-1368607616,1956249633,295759519,-1368607616,0.261799,-0.261799,-9.20477e-12,-1.5,2.65527e-06,0,0,3,1.69311,-3.84319,0,0,0,0,-0.191375,-0.217211,1.50258e+09
1230,8.66449e-11,0,-3.72116e-12,3.69453e-38,-1.58438e-06,-3.85292e-12,-1.1377e-13,0,0,-7.40385,3.10962,2.03077,2.24522,-2.57536,0.0459692,0.11205,0,1.89037,-3.52373,-1368607656,-1368607656,-1368607656,-1368607656,-1368607616,1956249633,295759519,-1368607616,0.261799,-0.261799,-6.27389e-12,-1.5,2.65527e-06,0,0,3,1.90776,-3.77738,0,0,0,0,0.132844,-0.033514,1.50258e+09
1240,3.59512e-10,0,-3.72116e-12,3.69453e-38,-1.58438e-06,-3.85292e-12,-1.13769e-13,0,0,-7.40385,3.10962,2.03077,2.24599,-2.57346,0.0455797,0.1111,0,1.89037,-3.52373,-1368607656,-1368607656,-1368607656,-1368607656,-1368607616,1956249633,295759519,-1368607616,0.261799,-0.261799,-6.06312e-12,-1.5,2.65527e-06,0,0,3,1.91001,-3.77796,0,0,0,0,0.132455,-0.0344636,1.50258e+09
1250,1.83336e-09,0,-3.72116e-12,3.69453e-38,-1.58438e-06,-3.85292e-12,-1.13771e-13,0,0,-8.10401,3.49665,2.41316,2.2469,-2.57125,0.0451252,0.109993,0,1.50334,-4.39359,-1368607656,-1368607656,-1368607656,-1368607656,-1368607616,1956249633,295759519,-1368607616,0.261799,-0.261799,-5.82349e-12,-1.5,2.65527e-06,0,0,3,1.65674,-3.93295,0,0,0,0,-0.194726,-0.329204,1.50258e+09
1260,7.19911e-09,0,-3.72116e-12,3.69453e-38,-1.58438e-06,-3.85292e-12,-1.1377e-13,0,0,-8.10401,3.49665,2.41316,2.24766,-2.56939,0.0447428,0.109061,0,1.50334,-4.39359,-1368607656,-1368607656,-1368607656,-1368607656,-1368607616,1956249633,295759519,-1368607616,0.261799,-0.261799,-5.62785e-12,-1.5,2.65527e-06,0,0,3,1.65343,-3.93856,0,0,0,0,-0.195108,-0.330136,1.50258e+09
1270,4.80923e-05,0,-3.72116e-12,3.69453e-38,-1.58438e-06,-3.85292e-12,-1.13772e-13,0,0,-7.40511,3.14211,2.0417,2.25217,-2.5584,0.0423815,0.103305,0,1.85788,-3.5236,-1368607656,-1368607656,-1368607656,-1368607656,-1368607616,1956249633,295759519,-1368607616,0.261799,-0.261799,-4.45495e-12,-1.5,2.65527e-06,0,0,3,1.84758,-3.78371,0,0,0,0,0.0331604,-0.0422588,1.50258e+09
1280,1.11916,0,-3.72116e-12,3.69453e-38,-1.58438e-06,-3.85292e-12,-1.13772e-13,0,0,-7.76791,3.31858,2.18888,2.25705,-2.54651,0.0398073,0.0970304,0,1.68141,-3.97368,-1368607656,-1368607656,-1368607656,-1368607656,-1368607616,1956249633,295759519,-1368607616,0.261799,-0.261799,-3.38647e-12,-1.5,2.65527e-06,0,0,3,1.69097,-4.00466,0,0,0,0,-0.125577,-0.331675,1.50258e+09
1290,4.83245,0,-3.72116e-12,3.69453e-38,-1.58438e-06,-3.85292e-12,-1.13773e-13,0,0,-7.76791,3.31858,2.18888,2.25772,-2.54487,0.0394699,0.096208,0,1.68141,-3.97368,-1368607656,-1368607656,-1368607656,-1368607656,-1368607616,1956249633,295759519,-1368607616,0.261799,-0.261799,-3.27263e-12,-1.5,2.65527e-06,0,0,3,1.68883,-4.01031,0,0,0,0,-0.125914,-0.332498,1.50258e+09
1300,28.0278,0,-3.72116e-12,3.69453e-38,-1.58438e-06,-3.85292e-12,-1.13774e-13,0,0,-7.76791,3.31858,2.18888,2.25859,-2.54277,0.0390372,0.0951532,0,1.68141,-3.97368,-1368607656,-1368607656,-1368607656,-1368607656,-1368607616,1956249633,295759519,-1368607616,0.261799,-0.261799,-3.13054e-12,-1.5,2.65527e-06,0,0,3,1.68605,-4.01764,0,0,0,0,-0.126347,-0.333552,1.50258e+09
1310,173888,0,-3.72116e-12,3.69453e-38,-1.58438e-06,-3.85292e-12,-1.13775e-13,0,0,-7.76791,3.31858,2.18888,2.26249,-2.53326,0.0369955,0.0901767,0,1.68141,-3.97368,-1368607656,-1368607656,-1368607656,-1368607656,-1368607616,1956249633,295759519,-1368607616,0.261799,-0.261799,-2.48309e-12,-1.5,2.65527e-06,0,0,3,1.67259,-4.05315,0,0,0,0,-0.128389,-0.338529,1.50258e+09
1320,1.55286e+07,0,-3.72116e-12,3.69453e-38,-1.58438e-06,-3.85292e-12,-1.13775e-13,0,0,-7.76791,3.31858,2.18888,2.26447,-2.52842,0.0359823,0.0877068,0,1.68141,-3.97368,-1368607656,-1368607656,-1368607656,-1368607656,-1368607616,1956249633,295759519,-1368607616,0.261799,-0.261799,-2.21433e-12,-1.5,2.65527e-06,0,0,3,1.66548,-4.07189,0,0,0,0,-0.129402,-0.340999,1.50258e+09
1330,5.71621e+07,0,-3.72116e-12,3.69453e-38,-1.58438e-06,-3.85292e-12,-1.13776e-13,0,0,-7.76791,3.31858,2.18888,2.26501,-2.52711,0.0357131,0.0870508,0,1.68141,-3.97368,-1368607656,-1368607656,-1368607656,-1368607656,-1368607616,1956249633,295759519,-1368607616,0.261799,-0.261799,-2.14861e-12,-1.5,2.65527e-06,0,0,3,1.66354,-4.07701,0,0,0,0,-0.129671,-0.341655,1.50258e+09
1340,3.26568e+08,0,-3.72116e-12,3.69453e-38,-1.58438e-06,-3.85292e-12,-1.13777e-13,0,0,-7.76791,3.31858,2.18888,2.26575,-2.5253,0.0353393,0.0861395,0,1.68141,-3.97368,-1368607656,-1368607656,-1368607656,-1368607656,-1368607616,1956249633,295759519,-1368607616,0.261799,-0.261799,-2.05946e-12,-1.5,2.65527e-06,0,0,3,1.66081,-4.0842,0,0,0,0,-0.130045,-0.342566,1.50258e+09
1350,2.54972e+12,0,-3.72116e-12,3.69453e-38,-1.58438e-06,-3.85292e-12,-1.13777e-13,0,0,-7.76791,3.31858,2.18888,2.26941,-2.51638,0.0334206,0.0814628,0,1.68141,-3.97368,-1368607656,-1368607656,-1368607656,-1368607656,-1368607616,1956249633,295759519,-1368607616,0.261799,-0.261799,-1.61731e-12,-1.5,2.65527e-06,0,0,3,1.64644,-4.12201,0,0,0,0,-0.131964,-0.347243,1.50258e+09
1360,1.7416e+14,0,-3.72116e-12,3.69453e-38,-1.58438e-06,-3.85292e-12,-1.13778e-13,0,0,-7.76791,3.31858,2.18888,1.63967,-4.1398,-0.132069,-0.347386,0,1.68141,-3.97368,-1368607656,-1368607656,-1368607656,-1368607656,-1368607616,1956249633,295759519,-1368607616,0.261799,-0.261799,-1.45497e-12,-1.5,2.65527e-06,0,0,3,1.63967,-4.1398,0,0,0,0,-0.132069,-0.347386,1.50258e+09
1370,8.7831e+14,0,-3.72116e-12,3.69453e-38,-1.58438e-06,-3.85292e-12,-1.13778e-13,0,0,-7.76791,3.31858,2.18888,1.63718,-4.14636,-0.130818,-0.344095,0,1.68141,-3.97368,-1368607656,-1368607656,-1368607656,-1368607656,-1368607616,1956249633,295759519,-1368607616,0.261799,-0.261799,-1.40033e-12,-1.5,2.65527e-06,0,0,3,1.63718,-4.14636,0,0,0,0,-0.130818,-0.344095,1.50258e+09
1380,5.05617e+15,0,-3.72116e-12,3.69453e-38,-1.58438e-06,-3.85292e-12,-1.13779e-13,0,0,-7.93799,3.81036,2.3302,1.63433,-4.15387,-0.129384,-0.340323,0,1.18963,-4.17083,-1368607656,-1368607656,-1368607656,-1368607656,-1368607616,1956249633,295759519,-1368607616,0.261799,-0.261799,-1.33953e-12,-1.5,2.65527e-06,0,0,3,1.63433,-4.15387,0,0,0,0,-0.129384,-0.340323,1.50258e+09
1390,1.97896e+16,0,-3.72116e-12,3.69453e-38,-1.58438e-06,-3.85292e-12,-1.13779e-13,0,0,-7.93799,3.81036,2.3302,1.63214,-4.15962,-0.128288,-0.337439,0,1.18963,-4.17083,-1368607656,-1368607656,-1368607656,-1368607656,-1368607616,1956249633,295759519,-1368607616,0.261799,-0.261799,-1.29453e-12,-1.5,2.65527e-06,0,0,3,1.63214,-4.15962,0,0,0,0,-0.128288,-0.337439,1.50258e+09
1400,8.79265e+19,0,-3.72116e-12,3.69453e-38,-1.58438e-06,-3.85292e-12,-1.1378e-13,0,0,-8.18641,3.92923,2.44347,1.61979,-4.19211,-0.121834,-0.320463,0,1.07076,-4.48556,-1368607656,-1368607656,-1368607656,-1368607656,-1368607616,1956249633,295759519,-1368607616,0.261799,-0.261799,-1.03699e-12,-1.5,2.65527e-06,0,0,3,1.61979,-4.19211,0,0,0,0,-0.121834,-0.320463,1.50258e+09
1410,7.26451e+21,0,-3.72116e-12,3.69453e-38,-1.58438e-06,-3.85292e-12,-1.1378e-13,0,0,-8.18641,3.92923,2.44347,1.61348,-4.20871,-0.118617,-0.312001,0,1.07076,-4.48556,-1368607656,-1368607656,-1368607656,-1368607656,-1368607616,1956249633,295759519,-1368607616,0.261799,-0.261799,-9.28651e-13,-1.5,2.65527e-06,0,0,3,1.61348,-4.20871,0,0,0,0,-0.118617,-0.312001,1.50258e+09
1420,2.93472e+22,0,-3.72116e-12,3.69453e-38,-1.58438e-06,-3.85292e-12,-1.13781e-13,0,0,-8.18641,3.92923,2.44347,1.61147,-4.21398,-0.117612,-0.309357,0,1.07076,-4.48556,-1368607656,-1368607656,-1368607656,-1368607656,-1368607616,1956249633,295759519,-1368607616,0.261799,-0.261799,-8.97432e-13,-1.5,2.65527e-06,0,0,3,1.61147,-4.21398,0,0,0,0,-0.117612,-0.309357,1.50258e+09
1430,1.20269e+23,0,-3.72116e-12,3.69453e-38,-1.58438e-06,-3.85292e-12,-1.13781e-13,0,0,-8.18641,3.92923,2.44347,1.60948,-4.21921,-0.116615,-0.306735,0,1.07076,-4.48556,-1368607656,-1368607656,-1368607656,-1368607656,-1368607616,1956249633,295759519,-1368607616,0.261799,-0.261799,-8.67262e-13,-1.5,2.65527e-06,0,0,3,1.60948,-4.21921,0,0,0,0,-0.116615,-0.306735,1.50258e+09
1440,5.75405e+26,0,-3.72116e-12,3.69453e-38,-1.58438e-06,-3.85292e-12,-1.13782e-13,0,0,-8.18641,3.92923,2.44347,1.59805,-4.2493,-0.110632,-0.290998,0,1.07076,-4.48556,-1368607656,-1368607656,-1368607656,-1368607656,-1368607616,1956249633,295759519,-1368607616,0.261799,-0.261799,-6.9131e-13,-1.5,2.65527e-06,0,0,3,1.59805,-4.2493,0,0,0,0,-0.110632,-0.290998,1.50258e+09
1450,5.37474e+28,0,-3.72116e-12,3.69453e-38,-1.58438e-06,-3.85292e-12,-1.13782e-13,0,0,-8.18641,3.92923,2.44347,1.5921,-4.26493,-0.107602,-0.283028,0,1.07076,-4.48556,-1368607656,-1368607656,-1368607656,-1368607656,-1368607616,1956249633,295759519,-1368607616,0.261799,-0.261799,-6.16486e-13,-1.5,2.65527e-06,0,0,3,1.5921,-4.26493,0,0,0,0,-0.107602,-0.283028,1.50258e+09
1460,3.05422e+30,0,-3.72116e-12,3.69453e-38,-1.58438e-06,-3.85292e-12,-1.13783e-13,0,0,-7.85714,3.44592,2.37959,1.58694,-4.27851,-0.104976,-0.276121,0,1.55407,-4.08165,-1368607656,-1368607656,-1368607656,-1368607656,-1368607616,1956249633,295759519,-1368607616,0.261799,-0.261799,-5.57026e-13,-1.5,2.65527e-06,0,0,3,1.58694,-4.27851,0,0,0,0,-0.104976,-0.276121,1.50258e+09
1470,1.19815e+31,0,-3.72116e-12,3.69453e-38,-1.58438e-06,-3.85292e-12,-1.13784e-13,0,0,-7.85714,3.44592,2.37959,1.58527,-4.28291,-0.104138,-0.273918,0,1.55407,-4.08165,-1368607656,-1368607656,-1368607656,-1368607656,-1368607616,1956249633,295759519,-1368607616,0.261799,-0.261799,-5.39396e-13,-1.5,2.65527e-06,0,0,3,1.58527,-4.28291,0,0,0,0,-0.104138,-0.273918,1.50258e+09
1480,4.74947e+31,0,-3.72116e-12,3.69453e-38,-1.58438e-06,-3.85292e-12,-1.13784e-13,0,0,-7.85714,3.44592,2.37959,1.58351,-4.28754,-0.103256,-0.271597,0,1.55407,-4.08165,-1368607656,-1368607656,-1368607656,-1368607656,-1368607616,1956249633,295759519,-1368607616,0.261799,-0.261799,-5.21275e-13,-1.5,2.65527e-06,0,0,3,1.58351,-4.28754,0,0,0,0,-0.103256,-0.271597,1.50258e+09
1490,2.51355e+35,0,-3.72116e-12,3.69453e-38,-1.58438e-06,-3.85292e-12,-1.13785e-13,0,0,-7.85714,3.44592,2.37959,1.57338,-4.31418,-0.0979585,-0.257663,0,1.55407,-4.08165,-1368607656,-1368607656,-1368607656,-1368607656,-1368607616,1956249633,295759519,-1368607616,0.261799,-0.261799,-4.15518e-13,-1.5,2.65527e-06,0,0,3,1.57338,-4.31418,0,0,0,0,-0.0979585,-0.257663,1.50258e+09
1500,1.46042e+37,0,-3.72116e-12,3.69453e-38,-1.58438e-06,-3.85292e-12,-1.13785e-13,0,0,-7.85714,3.44592,2.37959,1.56858,-4.32679,-0.0955193,-0.251247,0,1.55407,-4.08165,-1368607656,-1368607656,-1368607656,-1368607656,-1368607616,1956249633,295759519,-1368607616,0.261799,-0.261799,-3.74625e-13,-1.5,2.65527e-06,0,0,3,1.56858,-4.32679,0,0,0,0,-0.0955193,-0.251247,1.50258e+09
1510,-0,0,-3.72116e-12,3.69453e-38,-1.58438e-06,-3.85292e-12,-1.13786e-13,0,0,-7.85714,3.44592,2.37959,1.56409,-4.33861,-0.0932359,-0.245241,0,1.55407,-4.08165,-1368607656,-1368607656,-1368607656,-1368607656,-1368607616,1956249633,295759519,-1368607616,0.261799,-0.261799,-3.39228e-13,-1.5,2.65527e-06,0,0,3,1.56409,-4.33861,0,0,0,0,-0.0932359,-0.245241,1.50258e+09
1520,-4.44165e-38,0,-3.72116e-12,3.69453e-38,-1.58438e-06,-3.85292e-12,-1.13786e-13,0,0,-7.85714,3.44592,2.37959,1.56196,-4.3442,-0.0921673,-0.24243,0,1.55407,-4.08165,-1368607656,-1368607656,-1368607656,-1368607656,-1368607616,1956249633,295759519,-1368607616,0.261799,-0.261799,-3.23834e-13,-1.5,2.65527e-06,0,0,3,1.56196,-4.3442,0,0,0,0,-0.0921673,-0.24243,1.50258e+09
1530,-1.86005e-37,0,-3.72116e-12,3.69453e-38,-1.58438e-06,-3.85292e-12,-1.13787e-13,0,0,-7.85714,3.44592,2.37959,1.56031,-4.34854,-0.0913404,-0.240255,0,1.55407,-4.08165,-1368607656,-1368607656,-1368607656,-1368607656,-1368607616,1956249633,295759519,-1368607616,0.261799,-0.261799,-3.12319e-13,-1.5,2.65527e-06,0,0,3,1.56031,-4.34854,0,0,0,0,-0.0913404,-0.240255,1.50258e+09
1540,-2.97633e-33,0,-3.72116e-12,3.69453e-38,-1.58438e-06,-3.85292e-12,-1.13787e-13,0,0,-7.61097,3.32674,2.21027,1.55019,-4.37517,-0.0860268,-0.226279,0,1.67325,-3.77455,-1368607656,-1368607656,-1368607656,-1368607656,-1368607616,1956249633,295759519,-1368607616,0.261799,-0.261799,-2.40861e-13,-1.5,2.65527e-06,0,0,3,1.73303,-3.76784,0,0,0,0,0.859611,0.959588,1.50258e+09
1550,-1.88767e-29,0,-3.72116e-12,3.69453e-38,-1.58438e-06,-3.85292e-12,-1.13788e-13,0,0,-7.69269,3.37356,2.27355,1.5416,-4.39777,-0.0815276,-0.214444,0,1.62642,-3.87598,-1368607656,-1368607656,-1368607656,-1368607656,-1368607616,1956249633,295759519,-1368607616,0.261799,-0.261799,-1.91046e-13,-1.5,2.65527e-06,0,0,3,1.82373,-3.66592,0,0,0,0,0.86411,0.971422,1.50258e+09
1560,-3.55251e-28,0,-3.72116e-12,3.69453e-38,-1.58438e-06,-3.85292e-12,-1.13788e-13,0,0,-7.69269,3.37356,2.27355,1.53871,-4.40538,-0.0800657,-0.210599,0,1.62642,-3.87598,-1368607656,-1368607656,-1368607656,-1368607656,-1368607616,1956249633,295759519,-1368607616,0.261799,-0.261799,-1.77498e-13,-1.5,2.65527e-06,0,0,3,1.85488,-3.63084,0,0,0,0,0.865572,0.975267,1.50258e+09
1570,-6.82888e-24,0,-3.72116e-12,3.69453e-38,-1.58438e-06,-3.85292e-12,-1.13789e-13,0,0,-7.25595,3.10947,2.22705,1.5297,-4.42906,-0.0753221,-0.198122,0,1.89051,-3.33738,-1368607656,-1368607656,-1368607656,-1368607656,-1368607616,1956249633,295759519,-1368607616,0.261799,-0.261799,-1.357e-13,-1.5,2.65527e-06,0,0,3,1.95841,-3.5134,0,0,0,0,0.870315,0.987744,1.50258e+09
1580,-1.65768e-21,0,-3.72116e-12,3.69453e-38,-1.58438e-06,-3.85292e-12,-1.13794e-13,0,0,-7.8728,3.41829,2.63608,1.52481,-4.44194,-0.0728082,-0.191509,0,1.5817,-4.10261,-1368607656,-1368607656,-1368607656,-1368607656,-1368607616,1956249633,295759519,-1368607616,0.261799,-0.261799,-1.18051e-13,-1.5,2.65527e-06,0,0,3,1.92876,-3.52425,0,0,0,0,0.71264,0.924426,1.50258e+09
1590,-6.71566e-21,0,-3.72116e-12,3.69453e-38,-1.58438e-06,-3.85292e-12,-1.1379e-13,0,0,-7.8728,3.41829,2.63608,1.52358,-4.44517,-0.0721911,-0.189886,0,1.5817,-4.10261,-1368607656,-1368607656,-1368607656,-1368607656,-1368607616,1956249633,295759519,-1368607616,0.261799,-0.261799,-1.14085e-13,-1.5,2.65527e-06,0,0,3,1.94089,-3.50852,0,0,0,0,0.713257,0.926049,1.50258e+09
1600,-4.79842e-20,0,-3.72116e-12,3.69453e-38,-1.58438e-06,-3.85292e-12,-1.1379e-13,0,0,-7.8728,3.41829,2.63608,1.52193,-4.4495,-0.0713635,-0.187709,0,1.5817,-4.10261,-1368607656,-1368607656,-1368607656,-1368607656,-1368607616,1956249633,295759519,-1368607616,0.261799,-0.261799,-1.08903e-13,-1.5,2.65527e-06,0,0,3,1.95731,-3.48718,0,0,0,0,0.714084,0.928226,1.50258e+09
1610,-1.97577e-19,0,-3.72116e-12,3.69453e-38,-1.58438e-06,-3.85292e-12,-1.13791e-13,0,0,-7.8728,3.41829,2.63608,1.52065,-4.45286,-0.0707233,-0.186025,0,1.5817,-4.10261,-1368607656,-1368607656,-1368607656,-1368607656,-1368607616,1956249633,295759519,-1368607616,0.261799,-0.261799,-1.0503e-13,-1.5,2.65527e-06,0,0,3,1.97017,-3.47045,0,0,0,0,0.714725,0.92991,1.50258e+09
1620,-1.6836e-15,0,-3.72116e-12,3.69453e-38,-1.58438e-06,-3.85292e-12,-1.13791e-13,0,0,-7.8728,3.41829,2.63608,1.51334,-4.47211,-0.0668835,-0.175925,0,1.5817,-4.10261,-1368607656,-1368607656,-1368607656,-1368607656,-1368607616,1956249633,295759519,-1368607616,0.261799,-0.261799,-8.2481e-14,-1.5,2.65527e-06,0,0,3,2.04846,-3.36807,0,0,0,0,0.718564,0.94001,1.50258e+09
1630,-6.12847e-14,0,-3.72116e-12,3.69453e-38,-1.58438e-06,-3.85292e-12,-1.13792e-13,0,0,-7.8728,3.41829,2.63608,1.51045,-4.47971,-0.0654178,-0.17207,0,1.5817,-4.10261,-1368607656,-1368607656,-1368607656,-1368607656,-1368607616,1956249633,295759519,-1368607616,0.261799,-0.261799,-7.53358e-14,-1.5,2.65527e-06,0,0,3,2.08013,-3.32657,0,0,0,0,0.72003,0.943865,1.50258e+09
1640,-2.9789e-13,0,-3.72116e-12,3.69453e-38,-1.58438e-06,-3.85292e-12,-1.13792e-13,0,0,-7.8728,3.41829,2.63608,1.50928,-4.48279,-0.0648308,-0.170526,0,1.5817,-4.10261,-1368607656,-1368607656,-1368607656,-1368607656,-1368607616,1956249633,295759519,-1368607616,0.261799,-0.261799,-7.26549e-14,-1.5,2.65527e-06,0,0,3,2.0931,-3.30956,0,0,0,0,0.720617,0.945409,1.50258e+09
1650,-1.40336e-12,0,-3.72116e-12,3.69453e-38,-1.58438e-06,-3.85292e-12,-1.13793e-13,0,0,-7.8728,3.41829,2.63608,1.50805,-4.48601,-0.0642167,-0.168911,0,1.5817,-4.10261,-1368607656,-1368607656,-1368607656,-1368607656,-1368607616,1956249633,295759519,-1368607616,0.261799,-0.261799,-6.99264e-14,-1.5,2.65527e-06,0,0,3,2.1068,-3.29158,0,0,0,0,0.721231,0.947025,1.50258e+09
1660,-1.15354e-08,0,-3.72116e-12,3.69453e-38,-1.58438e-06,-3.85292e-12,-1.13793e-13,0,0,-7.8728,3.41829,2.63608,1.50141,-4.50349,-0.0607302,-0.15974,0,1.5817,-4.10261,-1368607656,-1368607656,-1368607656,-1368607656,-1368607616,1956249633,295759519,-1368607616,0.261799,-0.261799,-5.49138e-14,-1.5,2.65527e-06,0,0,3,2.18577,-3.18742,0,0,0,0,0.724718,0.956195,1.50258e+09
1670,-4.28489e-07,0,-3.72116e-12,3.69453e-38,-1.58438e-06,-3.85292e-12,-1.13795e-13,0,0,-7.8728,3.41829,2.63608,1.49878,-4.51039,-0.0593989,-0.156238,0,1.5817,-4.10261,-1368607656,-1368607656,-1368607656,-1368607656,-1368607616,1956249633,295759519,-1368607616,0.261799,-0.261799,-5.01495e-14,-1.5,2.65527e-06,0,0,3,2.2177,-3.14522,0,0,0,0,0.726049,0.959697,1.50258e+09
1680,-1.71234e-06,0,-3.72116e-12,3.69453e-38,-1.58438e-06,-3.85292e-12,-1.13795e-13,0,0,-7.8728,3.41829,2.63608,1.49778,-4.51303,-0.0588955,-0.154914,0,1.5817,-4.10261,-1368607656,-1368607656,-1368607656,-1368607656,-1368607616,1956249633,295759519,-1368607616,0.261799,-0.261799,-4.84648e-14,-1.5,2.65527e-06,0,0,3,2.23005,-3.12889,0,0,0,0,0.726552,0.961021,1.50258e+09
1690,-1.03297e-05,0,-3.72116e-12,3.69453e-38,-1.58438e-06,-3.85292e-12,-1.13796e-13,0,0,-7.8728,3.41829,2.63608,2.24604,-3.10773,0.725236,0.959931,0,1.5817,-4.10261,-1368607656,-1368607656,-1368607656,-1368607656,-1368607616,1956249633,295759519,-1368607616,0.261799,-0.261799,-4.63606e-14,-1.5,2.65527e-06,0,0,3,2.24604,-3.10773,0,0,0,0,0.725236,0.959931,1.50258e+09
1700,-5.8614e-05,0,-3.72116e-12,3.69453e-38,-1.58438e-06,-3.85292e-12,-1.13796e-13,0,0,-7.8728,3.41829,2.63608,2.26115,-3.08772,0.717644,0.949883,0,1.5817,-4.10261,-1368607656,-1368607656,-1368607656,-1368607656,-1368607616,1956249633,295759519,-1368607616,0.261799,-0.261799,-4.44371e-14,-1.5,2.65527e-06,0,0,3,2.26115,-3.08772,0,0,0,0,0.717644,0.949883,1.50258e+09
1710,-0.393845,0,-3.72116e-12,3.69453e-38,-1.58438e-06,-3.85292e-12,-1.13797e-13,0,0,-7.8728,3.41829,2.63608,2.33348,-2.99199,0.679753,0.899731,0,1.5817,-4.10261,-1368607656,-1368607656,-1368607656,-1368607656,-1368607616,1956249633,295759519,-1368607616,0.261799,-0.261799,-3.51592e-14,-1.5,2.65527e-06,0,0,3,2.33348,-2.99199,0,0,0,0,0.679753,0.899731,1.50258e+09
