timestamp,A_x,A_y,A_z,P,Q,R,Phi,Theta,Psi,poseX,poseY,poseZ,state_X,state_Y,state_Z,state_VzB,state_Bx,state_By,state_Bz,p1_x,p1_y,p2_x,p2_y,p3_x,p3_y,p4_x,p4_y,roll,pitch,yaw,alt,targetHeading,highLevelState,lowLevelState,gateNumber,filtered_x,filtered_y,x_OT,y_OT,vx_OT,vy_OT,filtered_vx,filtered_vygateArearansac_corr_x,ransac_corr_y,ransac_corr_vx,ransac_corr_vy,detectionTimeStamppTermX,dTermX,pTermY,dTermY,vxcmd,vycmd
8389,0,-3.32016e+25,0,-2.07845e-18,-3.7544e-12,-2.07847e-18,-1.13703e-13,0,0,0,0,0,0,0,0,0,0,0,0,0,0,0,0,0,0,0,0,0,-0.375,0.859225,-1.5,2.51931e-09,0,0,2,0,0,0,0,0,0,0,0,1.9603e-19,0,0,0,0,0,0,0,0,0,2.5,0
8402,-3.3423e-12,0,-1.61326e-06,-3.40794e-12,0,0,-1.13703e-13,0,0,0,0,0,0,0,0,0,0,0,0,0,0,0,0,0,0,0,0,0,-0.375,0.879645,-1.5,2.51931e-09,0,0,2,0,0,0,0,0,0,0,0,1.9603e-19,0,0,0,0,0,0,0,0,0,2.5,0
8418,-3.3423e-12,0,-1.61326e-06,-3.40794e-12,0,0,-1.13704e-13,0,0,0,0,0,0,0,0,0,0,0,0,0,0,0,0,0,0,0,0,0,-0.375,0.904778,-1.5,2.51931e-09,0,0,2,0,0,0,0,0,0,0,0,1.9603e-19,0,0,0,0,0,0,0,0,0,2.5,0
8434,-3.3423e-12,0,-1.61326e-06,-3.40794e-12,0,0,-1.13704e-13,0,0,0,0,0,0,0,0,0,0,0,0,0,0,0,0,0,0,0,0,0,-0.375,0.929911,-1.5,2.51931e-09,0,0,2,0,0,0,0,0,0,0,0,1.9603e-19,0,0,0,0,0,0,0,0,0,2.5,0
8449,-3.3423e-12,0,-1.61326e-06,-3.40794e-12,0,0,-1.13705e-13,0,0,0,0,0,0,0,0,0,0,0,0,0,0,0,0,0,0,0,0,0,-0.375,0.953472,-1.5,2.51931e-09,0,0,2,0,0,0,0,0,0,0,0,1.9603e-19,0,0,0,0,0,0,0,0,0,2.5,0
8465,-3.3423e-12,0,-1.61326e-06,-3.40794e-12,0,0,-1.13705e-13,0,0,0,0,0,0,0,0,0,0,0,0,0,0,0,0,0,0,0,0,0,-0.375,0.978605,-1.5,2.51931e-09,0,0,2,0,0,0,0,0,0,0,0,1.9603e-19,0,0,0,0,0,0,0,0,0,2.5,0
8481,-3.3423e-12,0,-1.61326e-06,-3.40794e-12,0,0,-1.13706e-13,0,0,0,0,0,0,0,0,0,0,0,0,0,0,0,0,0,0,0,0,0,-0.375,1.00217,-1.5,2.51931e-09,0,0,2,0,0,0,0,0,0,0,0,1.9603e-19,0,0,0,0,0,0,0,0,0,2.5,0
8496,-3.3423e-12,0,-1.61326e-06,-3.40794e-12,0,0,-1.13706e-13,0,0,0,0,0,0,0,0,0,0,0,0,0,0,0,0,0,0,0,0,0,-0.375,1.02573,-1.5,2.51931e-09,0,0,2,0,0,0,0,0,0,0,0,1.9603e-19,0,0,0,0,0,0,0,0,0,2.5,0
8512,-3.3423e-12,0,-1.61326e-06,-3.40794e-12,0,0,-1.13707e-13,0,0,0,0,0,0,0,0,0,0,0,0,0,0,0,0,0,0,0,0,0,-0.375,1.05086,-1.5,2.51931e-09,0,0,2,0,0,0,0,0,0,0,0,1.9603e-19,0,0,0,0,0,0,0,0,0,2.5,0
8537,-3.3423e-12,0,-1.61326e-06,-3.40794e-12,0,0,-1.13708e-13,0,0,0,0,0,0,0,0,0,0,0,0,0,0,0,0,0,0,0,0,0,-0.375,1.09013,-1.5,2.51931e-09,0,0,2,0,0,0,0,0,0,0,0,1.9603e-19,0,0,0,0,0,0,0,0,0,2.5,0
8564,-3.3423e-12,0,-1.61326e-06,-3.40794e-12,0,0,-1.13708e-13,0,0,0,0,0,0,0,0,0,0,0,0,0,0,0,0,0,0,0,0,0,-0.375,1.13254,-1.5,2.51931e-09,0,0,2,0,0,0,0,0,0,0,0,1.9603e-19,0,0,0,0,0,0,0,0,0,2.5,0
8580,-3.3423e-12,0,-1.61326e-06,-3.40794e-12,0,0,-1.13709e-13,0,0,0,0,0,0,0,0,0,0,0,0,0,0,0,0,0,0,0,0,0,-0.375,1.15768,-1.5,2.51931e-09,0,0,2,0,0,0,0,0,0,0,0,1.9603e-19,0,0,0,0,0,0,0,0,0,2.5,0
8639,-3.3423e-12,0,-1.61326e-06,-3.40794e-12,0,0,-1.13709e-13,0,0,0,0,0,0,0,0,0,0,0,0,0,0,0,0,0,0,0,0,0,-0.375,1.25035,-1.5,2.51931e-09,0,0,2,0,0,0,0,0,0,0,0,1.9603e-19,0,0,0,0,0,0,0,0,0,2.5,0
8677,-3.3423e-12,0,-1.61326e-06,-3.40794e-12,0,0,-1.1371e-13,0,0,-3.85436,0.320114,0.481396,0,0,0,0,0,0,0,228,-50,228,-50,346,-41,227,70,0,-0.375,1.31004,-1.5,2.51931e-09,0,0,2,0,0,0,0,0,0,0,0,14756,0,0,0,0,0,0,0,0,0,2.5,0
8695,-3.3423e-12,0,-1.61326e-06,-3.40794e-12,0,0,-1.1371e-13,0,0,-3.80384,0.29218,0.460181,0,0,0,0,0,0,0,235,-53,235,-53,349,-43,226,69,0,-0.375,1.33832,-1.5,2.51931e-09,0,0,2,0,0,0,0,0,0,0,0,15990,0,0,0,0,0,0,0,0,0,2.5,0
8710,-3.3423e-12,0,-1.61326e-06,-3.40794e-12,0,0,-1.13711e-13,0,0,-3.80384,0.29218,0.460181,0,0,0,0,0,0,0,235,-53,235,-53,349,-43,226,69,0,-0.375,1.36188,-1.5,2.51931e-09,0,0,2,0,0,0,0,0,0,0,0,15990,0,0,0,0,0,0,0,0,0,2.5,0
8725,-3.3423e-12,0,-1.61326e-06,-3.40794e-12,0,0,-1.13711e-13,0,0,-3.80384,0.29218,0.460181,0,0,0,0,0,0,0,235,-53,235,-53,349,-43,226,69,0,-0.375,1.38544,-1.5,2.51931e-09,0,0,2,0,0,0,0,0,0,0,0,15990,0,0,0,0,0,0,0,0,0,2.5,0
8741,-3.3423e-12,0,-1.61326e-06,-3.40794e-12,0,0,-1.13712e-13,0,0,-3.80384,0.29218,0.460181,0,0,0,0,0,0,0,235,-53,235,-53,349,-43,226,69,0,-0.375,1.41058,-1.5,2.51931e-09,0,0,2,0,0,0,0,0,0,0,0,15990,0,0,0,0,0,0,0,0,0,2.5,0
8757,-3.3423e-12,0,-1.61326e-06,-3.40794e-12,0,0,-1.13712e-13,0,0,-3.80559,0.296073,0.477486,0,0,0,0,0,0,0,233,-57,233,-57,350,-41,226,67,0,-0.375,1.43571,-1.5,2.51931e-09,0,0,2,0,0,0,0,0,0,0,0,16244,0,0,0,0,0,0,0,0,0,2.5,0
8773,-3.3423e-12,0,-1.61326e-06,-3.40794e-12,0,0,-1.13713e-13,0,0,-3.80559,0.296073,0.477486,0,0,0,0,0,0,0,233,-57,233,-57,350,-41,226,67,0,-0.375,1.45927,-1.5,2.51931e-09,0,0,2,0,0,0,0,0,0,0,0,16244,0,0,0,0,0,0,0,0,0,2.5,0
8786,-3.3423e-12,0,-1.61326e-06,-3.40794e-12,0,0,-1.13714e-13,0,0,-3.78308,0.294025,0.457735,0,0,0,0,0,0,0,233,-57,233,-57,349,-41,226,67,0,-0.375,1.48126,-1.5,2.51931e-09,0,0,2,0,0,0,0,0,0,0,0,16482,0,0,0,0,0,0,0,0,0,2.5,0
8799,-3.3423e-12,0,-1.61326e-06,-3.40794e-12,0,0,-1.13714e-13,0,0,-3.78308,0.294025,0.457735,0,0,0,0,0,0,0,233,-57,233,-57,349,-41,226,67,0,-0.375,1.50168,-1.5,2.51931e-09,0,0,2,0,0,0,0,0,0,0,0,16482,0,0,0,0,0,0,0,0,0,2.5,0
8815,-3.3423e-12,0,-1.61326e-06,-3.40794e-12,0,0,-1.13715e-13,0,0,-3.78308,0.294025,0.457735,0,0,0,0,0,0,0,233,-57,233,-57,349,-41,226,67,0,-0.375,1.52681,-1.5,2.51931e-09,0,0,2,0,0,0,0,0,0,0,0,16482,0,0,0,0,0,0,0,0,0,2.5,0
8832,-3.3423e-12,0,-1.61326e-06,-3.40794e-12,0,0,-1.13715e-13,0,0,-3.75217,0.284899,0.447409,0,0,0,0,0,0,0,232,-57,232,-57,352,-43,227,66,0,-0.375,1.55352,-1.5,2.51931e-09,0,0,2,0,0,0,0,0,0,0,0,16750,0,0,0,0,0,0,0,0,0,2.5,0
8848,-3.3423e-12,0,-1.61326e-06,-3.40794e-12,0,0,-1.13716e-13,0,0,-3.83771,0.294211,0.490978,0,0,0,0,0,0,0,235,-55,235,-55,349,-41,226,67,0,-0.375,1.57865,-1.5,2.51931e-09,0,0,2,0,0,0,0,0,0,0,0,15867,0,0,0,0,0,0,0,0,0,2.5,0
8864,-3.3423e-12,0,-1.61326e-06,-3.40794e-12,0,0,-1.13716e-13,0,0,-3.83771,0.294211,0.490978,0,0,0,0,0,0,0,235,-55,235,-55,349,-41,226,67,0,-0.375,1.60221,-1.5,2.51931e-09,0,0,2,0,0,0,0,0,0,0,0,15867,0,0,0,0,0,0,0,0,0,2.5,0
8879,-3.3423e-12,0,-1.61326e-06,-3.40794e-12,0,0,-1.13717e-13,0,0,-3.83771,0.294211,0.490978,0,0,0,0,0,0,0,235,-55,235,-55,349,-41,226,67,0,-0.375,1.62735,-1.5,2.51931e-09,0,0,2,0,0,0,0,0,0,0,0,15867,0,0,0,0,0,0,0,0,0,2.5,0
8895,-3.3423e-12,0,-1.61326e-06,-3.40794e-12,0,0,-1.13717e-13,0,0,-3.77192,0.282226,0.451811,0,0,0,0,0,0,0,235,-55,235,-55,352,-43,226,67,0,-0.375,1.65248,-1.5,2.51931e-09,0,0,2,0,0,0,0,0,0,0,0,16632,0,0,0,0,0,0,0,0,0,2.5,0
8912,-3.3423e-12,0,-1.61326e-06,-3.40794e-12,0,0,-1.13718e-13,0,0,-3.75619,0.28805,0.451814,0,0,0,0,0,0,0,232,-58,232,-58,352,-43,227,69,0,-0.375,1.67918,-1.5,2.51931e-09,0,0,2,0,0,0,0,0,0,0,0,16500,0,0,0,0,0,0,0,0,0,2.5,0
8928,-3.3423e-12,0,-1.61326e-06,-3.40794e-12,0,0,-1.13718e-13,0,0,-3.75619,0.28805,0.451814,0,0,0,0,0,0,0,232,-58,232,-58,352,-43,227,69,0,-0.375,1.70432,-1.5,2.51931e-09,0,0,2,0,0,0,0,0,0,0,0,16500,0,0,0,0,0,0,0,0,0,2.5,0
8943,-3.3423e-12,0,-1.61326e-06,-3.40794e-12,0,0,-1.13719e-13,0,0,-3.75619,0.28805,0.451814,0,0,0,0,0,0,0,232,-58,232,-58,352,-43,227,69,0,-0.375,1.72788,-1.5,2.51931e-09,0,0,2,0,0,0,0,0,0,0,0,16500,0,0,0,0,0,0,0,0,0,2.5,0
8959,-3.3423e-12,0,-1.61326e-06,-3.40794e-12,0,0,-1.13719e-13,0,0,-3.80726,0.296445,0.474077,0,0,0,0,0,0,0,232,-55,232,-55,350,-41,226,67,0,-0.375,1.75301,-1.5,2.51931e-09,0,0,2,0,0,0,0,0,0,0,0,15996,0,0,0,0,0,0,0,0,0,2.5,0
8974,-3.3423e-12,0,-1.61326e-06,-3.40794e-12,0,0,-1.1372e-13,0,0,-3.80726,0.296445,0.474077,0,0,0,0,0,0,0,232,-55,232,-55,350,-41,226,67,0,-0.375,1.77657,-1.5,2.51931e-09,0,0,2,0,0,0,0,0,0,0,0,15996,0,0,0,0,0,0,0,0,0,2.5,0
8990,-3.3423e-12,0,-1.61326e-06,-3.40794e-12,0,0,-1.13721e-13,0,0,-3.77817,0.286943,0.462373,0,0,0,0,0,0,0,233,-57,233,-57,352,-41,226,67,0,-0.375,1.80171,-1.5,2.51931e-09,0,0,2,0,0,0,0,0,0,0,0,16506,0,0,0,0,0,0,0,0,0,2.5,0
9006,-3.3423e-12,0,-1.61326e-06,-3.40794e-12,0,0,-1.13721e-13,0,0,-3.77817,0.286943,0.462373,0,0,0,0,0,0,0,233,-57,233,-57,352,-41,226,67,0,-0.375,1.82684,-1.5,2.51931e-09,0,0,2,0,0,0,0,0,0,0,0,16506,0,0,0,0,0,0,0,0,0,2.5,0
9023,-3.3423e-12,0,-1.61326e-06,-3.40794e-12,0,0,-1.13722e-13,0,0,-3.79213,0.297176,0.472183,0,0,0,0,0,0,0,232,-58,232,-58,349,-41,226,67,0,-0.375,1.85354,-1.5,2.51931e-09,0,0,2,0,0,0,0,0,0,0,0,16236,0,0,0,0,0,0,0,0,0,2.5,0
9038,-3.3423e-12,0,-1.61326e-06,-3.40794e-12,0,0,-1.13722e-13,0,0,-3.79213,0.297176,0.472183,0,0,0,0,0,0,0,232,-58,232,-58,349,-41,226,67,0,-0.375,1.8771,-1.5,2.51931e-09,0,0,2,0,0,0,0,0,0,0,0,16236,0,0,0,0,0,0,0,0,0,2.5,0
9054,-3.3423e-12,0,-1.61326e-06,-3.40794e-12,0,0,-1.13723e-13,0,0,-3.80375,0.289629,0.476058,0,0,0,0,0,0,0,235,-57,235,-57,350,-43,227,69,0,-0.375,1.90224,-1.5,2.51931e-09,0,0,2,0,0,0,0,0,0,0,0,16113,0,0,0,0,0,0,0,0,0,2.5,0
9068,-3.3423e-12,0,-1.61326e-06,-3.40794e-12,0,0,-1.13723e-13,0,0,-3.80375,0.289629,0.476058,0,0,0,0,0,0,0,235,-57,235,-57,350,-43,227,69,0,-0.375,1.92266,-1.5,2.51931e-09,0,0,2,0,0,0,0,0,0,0,0,16113,0,0,0,0,0,0,0,0,0,2.5,0
9081,-3.3423e-12,0,-1.61326e-06,-3.40794e-12,0,0,-1.13724e-13,0,0,-3.81211,0.291829,0.483346,0,0,0,0,0,0,0,235,-58,235,-58,349,-41,226,67,0,-0.375,1.94465,-1.5,2.51931e-09,0,0,2,0,0,0,0,0,0,0,0,16236,0,0,0,0,0,0,0,0,0,2.5,0
9097,-3.3423e-12,0,-1.61326e-06,-3.40794e-12,0,0,-1.13724e-13,0,0,-3.81211,0.291829,0.483346,0,0,0,0,0,0,0,235,-58,235,-58,349,-41,226,67,0,-0.375,1.96978,-1.5,2.51931e-09,0,0,2,0,0,0,0,0,0,0,0,16236,0,0,0,0,0,0,0,0,0,2.5,0
9113,-3.3423e-12,0,-1.61326e-06,-3.40794e-12,0,0,-1.13725e-13,0,0,-3.80801,0.291942,0.488006,0,0,0,0,0,0,0,235,-58,235,-58,349,-43,226,67,0,-0.375,1.99491,-1.5,2.51931e-09,0,0,2,0,0,0,0,0,0,0,0,16113,0,0,0,0,0,0,0,0,0,2.5,0
9130,-3.3423e-12,0,-1.61326e-06,-3.40794e-12,0,0,-1.13725e-13,0,0,-3.80801,0.291942,0.488006,0,0,0,0,0,0,0,235,-58,235,-58,349,-43,226,67,0,-0.375,2.02162,-1.5,2.51931e-09,0,0,2,0,0,0,0,0,0,0,0,16113,0,0,0,0,0,0,0,0,0,2.5,0
9146,-3.3423e-12,0,-1.61326e-06,-3.40794e-12,0,0,-1.13726e-13,0,0,-3.80801,0.291942,0.488006,0,0,0,0,0,0,0,235,-58,235,-58,349,-43,226,67,0,-0.375,2.04675,-1.5,2.51931e-09,0,0,2,0,0,0,0,0,0,0,0,16113,0,0,0,0,0,0,0,0,0,2.5,0
9161,-3.3423e-12,0,-1.61326e-06,-3.40794e-12,0,0,-1.13727e-13,0,0,-3.8085,0.292019,0.483656,0,0,0,0,0,0,0,235,-57,235,-57,349,-43,226,67,0,-0.375,2.07031,-1.5,2.51931e-09,0,0,2,0,0,0,0,0,0,0,0,16113,0,0,0,0,0,0,0,0,0,2.5,0
9177,-3.3423e-12,0,-1.61326e-06,-3.40794e-12,0,0,-1.13727e-13,0,0,-3.8085,0.292019,0.483656,0,0,0,0,0,0,0,235,-57,235,-57,349,-43,226,67,0,-0.375,2.09545,-1.5,2.51931e-09,0,0,2,0,0,0,0,0,0,0,0,16113,0,0,0,0,0,0,0,0,0,2.5,0
9193,-3.3423e-12,0,-1.61326e-06,-3.40794e-12,0,0,-1.13728e-13,0,0,-3.74561,0.293151,0.450214,0,0,0,0,0,0,0,232,-60,232,-60,349,-43,226,66,0,-0.375,2.12058,-1.5,2.51931e-09,0,0,2,0,0,0,0,0,0,0,0,16851,0,0,0,0,0,0,0,0,0,2.5,0
9209,-3.3423e-12,0,-1.61326e-06,-3.40794e-12,0,0,-1.13728e-13,0,0,-3.74561,0.293151,0.450214,0,0,0,0,0,0,0,232,-60,232,-60,349,-43,226,66,0,-0.375,2.14571,-1.5,2.51931e-09,0,0,2,0,0,0,0,0,0,0,0,16851,0,0,0,0,0,0,0,0,0,2.5,0
9224,-3.3423e-12,0,-1.61326e-06,-3.40794e-12,0,0,-1.13729e-13,0,0,-3.7551,0.28754,0.4468,0,0,0,0,0,0,0,233,-57,233,-57,349,-43,226,67,0,-0.375,2.16927,-1.5,2.51931e-09,0,0,2,0,0,0,0,0,0,0,0,16482,0,0,0,0,0,0,0,0,0,2.5,0
9240,-3.3423e-12,0,-1.61326e-06,-3.40794e-12,0,0,-1.13729e-13,0,0,-3.7551,0.28754,0.4468,0,0,0,0,0,0,0,233,-57,233,-57,349,-43,226,67,0,-0.375,2.19441,-1.5,2.51931e-09,0,0,2,0,0,0,0,0,0,0,0,16482,0,0,0,0,0,0,0,0,0,2.5,0
9256,-3.3423e-12,0,-1.61326e-06,-3.40794e-12,0,0,-1.1373e-13,0,0,-3.77535,0.289044,0.460117,0,0,0,0,0,0,0,235,-58,235,-58,349,-43,226,67,0,-0.375,2.21954,-1.5,2.51931e-09,0,0,2,0,0,0,0,0,0,0,0,16605,0,0,0,0,0,0,0,0,0,2.5,0
9273,-3.3423e-12,0,-1.61326e-06,-3.40794e-12,0,0,-1.1373e-13,0,0,-3.77535,0.289044,0.460117,0,0,0,0,0,0,0,235,-58,235,-58,349,-43,226,67,0,-0.375,2.24467,-1.5,2.51931e-09,0,0,2,0,0,0,0,0,0,0,0,16605,0,0,0,0,0,0,0,0,0,2.5,0
9288,-3.3423e-12,0,-1.61326e-06,-3.40794e-12,0,0,-1.13731e-13,0,0,-3.75615,0.294389,0.449408,0,0,0,0,0,0,0,232,-58,232,-58,349,-43,226,67,0,-0.375,2.26981,-1.5,2.51931e-09,0,0,2,0,0,0,0,0,0,0,0,16605,0,0,0,0,0,0,0,0,0,2.5,0
9304,-3.3423e-12,0,-1.61326e-06,-3.40794e-12,0,0,-1.13731e-13,0,0,-3.75615,0.294389,0.449408,0,0,0,0,0,0,0,232,-58,232,-58,349,-43,226,67,0,-0.375,2.29494,-1.5,2.51931e-09,0,0,2,0,0,0,0,0,0,0,0,16605,0,0,0,0,0,0,0,0,0,2.5,0
9320,-3.3423e-12,0,-1.61326e-06,-3.40794e-12,0,0,-1.13732e-13,0,0,-3.77877,0.291607,0.462636,0,0,0,0,0,0,0,232,-57,232,-57,352,-41,226,67,0,-0.375,2.32007,-1.5,2.51931e-09,0,0,2,0,0,0,0,0,0,0,0,16506,0,0,0,0,0,0,0,0,0,2.5,0
9336,-3.3423e-12,0,-1.61326e-06,-3.40794e-12,0,0,-1.13732e-13,0,0,-3.77877,0.291607,0.462636,0,0,0,0,0,0,0,232,-57,232,-57,352,-41,226,67,0,-0.375,2.3452,-1.5,2.51931e-09,0,0,2,0,0,0,0,0,0,0,0,16506,0,0,0,0,0,0,0,0,0,2.5,0
9349,-3.3423e-12,0,-1.61326e-06,-3.40794e-12,0,0,-1.13733e-13,0,0,-3.79628,0.298077,0.479235,0,0,0,0,0,0,0,232,-57,232,-57,349,-43,226,67,0,-0.375,2.36559,-1.5,2.51931e-09,0,0,2,0,0,0,0,0,0,0,0,15990,0,0,0,0,0,0,0,0,0,2.5,0
9363,-3.3423e-12,0,-1.61326e-06,-3.40794e-12,0,0,-1.13734e-13,0,0,-3.79628,0.298077,0.479235,0,0,0,0,0,0,0,232,-57,232,-57,349,-43,226,67,0,-0.375,2.38709,-1.5,2.51931e-09,0,0,2,0,0,0,0,0,0,0,0,15990,0,0,0,0,0,0,0,0,0,2.5,0
9378,-3.3423e-12,0,-1.61326e-06,-3.40794e-12,0,0,-1.13734e-13,0,0,-3.79628,0.298077,0.479235,0,0,0,0,0,0,0,232,-57,232,-57,349,-43,226,67,0,-0.375,2.40949,-1.5,2.51931e-09,0,0,2,0,0,0,0,0,0,0,0,15990,0,0,0,0,0,0,0,0,0,2.5,0
9394,-3.3423e-12,0,-1.61326e-06,-3.40794e-12,0,0,-1.13735e-13,0,0,-3.80025,0.290969,0.493349,0,0,0,0,0,0,0,233,-58,233,-58,352,-43,226,64,0,-0.375,2.43264,-1.5,2.51931e-09,0,0,2,0,0,0,0,0,0,0,0,16380,0,0,0,0,0,0,0,0,0,2.5,0
9409,-3.3423e-12,0,-1.61326e-06,-3.40794e-12,0,0,-1.13735e-13,0,0,-3.80025,0.290969,0.493349,0,0,0,0,0,0,0,233,-58,233,-58,352,-43,226,64,0,-0.375,2.45369,-1.5,2.51931e-09,0,0,2,0,0,0,0,0,0,0,0,16380,0,0,0,0,0,0,0,0,0,2.5,0
9425,-3.3423e-12,0,-1.61326e-06,-3.40794e-12,0,0,-1.13736e-13,0,0,-3.7841,0.291976,0.511317,0,0,0,0,0,0,0,234,-62,234,-62,349,-48,226,61,0,-0.375,2.47545,-1.5,2.51931e-09,0,0,2,0,0,0,0,0,0,0,0,16482,0,0,0,0,0,0,0,0,0,2.5,0
9440,-3.3423e-12,0,-1.61326e-06,-3.40794e-12,0,0,-1.13736e-13,0,0,-3.7841,0.291976,0.511317,0,0,0,0,0,0,0,234,-62,234,-62,349,-48,226,61,0,-0.375,2.49522,-1.5,2.51931e-09,0,0,2,0,0,0,0,0,0,0,0,16482,0,0,0,0,0,0,0,0,0,2.5,0
9456,-3.3423e-12,0,-1.61326e-06,-3.40794e-12,0,0,-1.13737e-13,0,0,-3.77231,0.291249,0.559607,0,0,0,0,0,0,0,234,-69,234,-69,349,-54,226,57,0,-0.375,2.51566,-1.5,2.51931e-09,0,0,2,0,0,0,0,0,0,0,0,16482,0,0,0,0,0,0,0,0,0,2.5,0
9471,-3.3423e-12,0,-1.61326e-06,-3.40794e-12,0,0,-1.13737e-13,0,0,-3.77231,0.291249,0.559607,0,0,0,0,0,0,0,234,-69,234,-69,349,-54,226,57,0,-0.375,2.53424,-1.5,2.51931e-09,0,0,2,0,0,0,0,0,0,0,0,16482,0,0,0,0,0,0,0,0,0,2.5,0
9487,-3.3423e-12,0,-1.61326e-06,-3.40794e-12,0,0,-1.13738e-13,0,0,-3.77231,0.291249,0.559607,0,0,0,0,0,0,0,234,-69,234,-69,349,-54,226,57,0,-0.375,2.55345,-1.5,2.51931e-09,0,0,2,0,0,0,0,0,0,0,0,16482,0,0,0,0,0,0,0,0,0,2.5,0
9503,-3.3423e-12,0,-1.61326e-06,-3.40794e-12,0,0,-1.13738e-13,0,0,-3.77231,0.291249,0.559607,0,0,0,0,0,0,0,234,-69,234,-69,349,-54,226,57,0,-0.375,2.57091,-1.5,2.51931e-09,0,0,2,0,0,0,0,0,0,0,0,16482,0,0,0,0,0,0,0,0,0,2.5,0
9519,-3.3423e-12,0,-1.61326e-06,-3.40794e-12,0,0,-1.13739e-13,0,0,-3.77231,0.291249,0.559607,0,0,0,0,0,0,0,234,-69,234,-69,349,-54,226,57,0,-0.375,2.59009,-1.5,2.51931e-09,0,0,2,0,0,0,0,0,0,0,0,16482,0,0,0,0,0,0,0,0,0,2.5,0
9535,-3.3423e-12,0,-1.61326e-06,-3.40794e-12,0,0,-1.1374e-13,0,0,-3.77231,0.291249,0.559607,0,0,0,0,0,0,0,234,-69,234,-69,349,-54,226,57,0,-0.375,2.60754,-1.5,2.51931e-09,0,0,2,0,0,0,0,0,0,0,0,16482,0,0,0,0,0,0,0,0,0,2.5,0
9550,-3.3423e-12,0,-1.61326e-06,-3.40794e-12,0,0,-1.1374e-13,0,0,-3.77231,0.291249,0.559607,0,0,0,0,0,0,0,234,-69,234,-69,349,-54,226,57,0,-0.375,2.62339,-1.5,2.51931e-09,0,0,2,0,0,0,0,0,0,0,0,16482,0,0,0,0,0,0,0,0,0,2.5,0
9566,-3.3423e-12,0,-1.61326e-06,-3.40794e-12,0,0,-1.13741e-13,0,0,-3.77231,0.291249,0.559607,0,0,0,0,0,0,0,234,-69,234,-69,349,-54,226,57,0,-0.375,2.63978,-1.5,2.51931e-09,0,0,2,0,0,0,0,0,0,0,0,16482,0,0,0,0,0,0,0,0,0,2.5,0
9608,-3.3423e-12,0,-1.61326e-06,-3.40794e-12,0,0,-1.13741e-13,0,0,-3.77231,0.291249,0.559607,0,0,0,0,0,0,0,234,-69,234,-69,349,-54,226,57,0,-0.375,2.68128,-1.5,2.51931e-09,0,0,2,0,0,0,0,0,0,0,0,16482,0,0,0,0,0,0,0,0,0,2.5,0
9624,-3.3423e-12,0,-1.61326e-06,-3.40794e-12,0,0,-1.13742e-13,0,0,-3.77231,0.291249,0.559607,0,0,0,0,0,0,0,234,-69,234,-69,349,-54,226,57,0,-0.375,2.69584,-1.5,2.51931e-09,0,0,2,0,0,0,0,0,0,0,0,16482,0,0,0,0,0,0,0,0,0,2.5,0
9640,-3.3423e-12,0,-1.61326e-06,-3.40794e-12,0,0,-1.13742e-13,0,0,-3.77231,0.291249,0.559607,0,0,0,0,0,0,0,234,-69,234,-69,349,-54,226,57,0,-0.375,2.70994,-1.5,2.51931e-09,0,0,2,0,0,0,0,0,0,0,0,16482,0,0,0,0,0,0,0,0,0,2.5,0
9658,-3.3423e-12,0,-1.61326e-06,-3.40794e-12,0,0,-1.13743e-13,0,0,-3.77231,0.291249,0.559607,0,0,0,0,0,0,0,234,-69,234,-69,349,-54,226,57,0,-0.375,2.72529,-1.5,2.51931e-09,0,0,2,0,0,0,0,0,0,0,0,16482,0,0,0,0,0,0,0,0,0,2.5,0
9672,-3.3423e-12,0,-1.61326e-06,-3.40794e-12,0,0,-1.13743e-13,0,0,-3.77231,0.291249,0.559607,0,0,0,0,0,0,0,234,-69,234,-69,349,-54,226,57,0,-0.375,2.73682,-1.5,2.51931e-09,0,0,2,0,0,0,0,0,0,0,0,16482,0,0,0,0,0,0,0,0,0,2.5,0
9685,-3.3423e-12,0,-1.61326e-06,-3.40794e-12,0,0,-1.13744e-13,0,0,-3.77231,0.291249,0.559607,0,0,0,0,0,0,0,234,-69,234,-69,349,-54,226,57,0,-0.375,2.74724,-1.5,2.51931e-09,0,0,2,0,0,0,0,0,0,0,0,16482,0,0,0,0,0,0,0,0,0,2.5,0
9701,-3.3423e-12,0,-1.61326e-06,-3.40794e-12,0,0,-1.13744e-13,0,0,-3.77231,0.291249,0.559607,0,0,0,0,0,0,0,234,-69,234,-69,349,-54,226,57,0,-0.375,2.75895,-1.5,2.51931e-09,0,0,2,0,0,0,0,0,0,0,0,16482,0,0,0,0,0,0,0,0,0,2.5,0
9717,-3.3423e-12,0,-1.61326e-06,-3.40794e-12,0,0,-1.13745e-13,0,0,-3.77231,0.291249,0.559607,0,0,0,0,0,0,0,234,-69,234,-69,349,-54,226,57,0,-0.375,2.77106,-1.5,2.51931e-09,0,0,2,0,0,0,0,0,0,0,0,16482,0,0,0,0,0,0,0,0,0,2.5,0
9732,-3.3423e-12,0,-1.61326e-06,-3.40794e-12,0,0,-1.13745e-13,0,0,-3.77231,0.291249,0.559607,0,0,0,0,0,0,0,234,-69,234,-69,349,-54,226,57,0,-0.375,2.78278,-1.5,2.51931e-09,0,0,2,0,0,0,0,0,0,0,0,16482,0,0,0,0,0,0,0,0,0,2.5,0
9748,-3.3423e-12,0,-1.61326e-06,-3.40794e-12,0,0,-1.13746e-13,0,0,-3.77231,0.291249,0.559607,0,0,0,0,0,0,0,234,-69,234,-69,349,-54,226,57,0,-0.375,2.79413,-1.5,2.51931e-09,0,0,2,0,0,0,0,0,0,0,0,16482,0,0,0,0,0,0,0,0,0,2.5,0
9763,-3.3423e-12,0,-1.61326e-06,-3.40794e-12,0,0,-1.13747e-13,0,0,-3.77231,0.291249,0.559607,0,0,0,0,0,0,0,234,-69,234,-69,349,-54,226,57,0,-0.375,2.80444,-1.5,2.51931e-09,0,0,2,0,0,0,0,0,0,0,0,16482,0,0,0,0,0,0,0,0,0,2.5,0
9780,-3.3423e-12,0,-1.61326e-06,-3.40794e-12,0,0,-1.13747e-13,0,0,-3.77231,0.291249,0.559607,0,0,0,0,0,0,0,234,-69,234,-69,349,-54,226,57,0,-0.375,2.81511,-1.5,2.51931e-09,0,0,2,0,0,0,0,0,0,0,0,16482,0,0,0,0,0,0,0,0,0,2.5,0
9796,-3.3423e-12,0,-1.61326e-06,-3.40794e-12,0,0,-1.13748e-13,0,0,-3.77231,0.291249,0.559607,0,0,0,0,0,0,0,234,-69,234,-69,349,-54,226,57,0,-0.375,2.82608,-1.5,2.51931e-09,0,0,2,0,0,0,0,0,0,0,0,16482,0,0,0,0,0,0,0,0,0,2.5,0
9812,-3.3423e-12,0,-1.61326e-06,-3.40794e-12,0,0,-1.13748e-13,0,0,-3.77231,0.291249,0.559607,0,0,0,0,0,0,0,234,-69,234,-69,349,-54,226,57,0,-0.375,2.83606,-1.5,2.51931e-09,0,0,2,0,0,0,0,0,0,0,0,16482,0,0,0,0,0,0,0,0,0,2.5,0
9827,-3.3423e-12,0,-1.61326e-06,-3.40794e-12,0,0,-1.13749e-13,0,0,-3.77231,0.291249,0.559607,0,0,0,0,0,0,0,234,-69,234,-69,349,-54,226,57,0,-0.375,2.84513,-1.5,2.51931e-09,0,0,2,0,0,0,0,0,0,0,0,16482,0,0,0,0,0,0,0,0,0,2.5,0
9843,-3.34232e-12,0,0,-3.40794e-12,0,0,-1.13749e-13,0,0,-3.77231,0.291249,0.559607,0,0,0,0,0,0,0,234,-69,234,-69,349,-54,226,57,0,-0.375,2.85393,-1.5,2.51931e-09,0,0,2,0,0,0,0,0,0,0,0,16482,0,0,0,0,0,0,0,0,0,2.5,0
9858,-3.3423e-12,0,-1.61326e-06,-3.40794e-12,0,0,-1.1375e-13,0,0,-3.77231,0.291249,0.559607,0,0,0,0,0,0,0,234,-69,234,-69,349,-54,226,57,0,-0.375,2.86302,-1.5,2.51931e-09,0,0,2,0,0,0,0,0,0,0,0,16482,0,0,0,0,0,0,0,0,0,2.5,0
9873,-3.3423e-12,0,-1.61326e-06,-3.40794e-12,0,0,-1.1375e-13,0,0,-3.77231,0.291249,0.559607,0,0,0,0,0,0,0,234,-69,234,-69,349,-54,226,57,0,-0.375,2.87129,-1.5,2.51931e-09,0,0,2,0,0,0,0,0,0,0,0,16482,0,0,0,0,0,0,0,0,0,2.5,0
9889,-3.3423e-12,0,-1.61326e-06,-3.40794e-12,0,0,-1.13751e-13,0,0,-3.77231,0.291249,0.559607,0,0,0,0,0,0,0,234,-69,234,-69,349,-54,226,57,0,-0.375,2.87985,-1.5,2.51931e-09,0,0,2,0,0,0,0,0,0,0,0,16482,0,0,0,0,0,0,0,0,0,2.5,0
9906,-3.3423e-12,0,-1.61326e-06,-3.40794e-12,0,0,-1.13751e-13,0,0,-3.77231,0.291249,0.559607,0,0,0,0,0,0,0,234,-69,234,-69,349,-54,226,57,0,-0.375,2.88864,-1.5,2.51931e-09,0,0,2,0,0,0,0,0,0,0,0,16482,0,0,0,0,0,0,0,0,0,2.5,0
9922,-3.3423e-12,0,-1.61326e-06,-3.40794e-12,0,0,-1.13752e-13,0,0,-3.77231,0.291249,0.559607,0,0,0,0,0,0,0,234,-69,234,-69,349,-54,226,57,0,-0.375,2.89615,-1.5,2.51931e-09,0,0,2,0,0,0,0,0,0,0,0,16482,0,0,0,0,0,0,0,0,0,2.5,0
9937,-3.3423e-12,0,-1.61326e-06,-3.40794e-12,0,0,-1.13753e-13,0,0,-3.77231,0.291249,0.559607,0,0,0,0,0,0,0,234,-69,234,-69,349,-54,226,57,0,-0.375,2.90391,-1.5,2.51931e-09,0,0,2,0,0,0,0,0,0,0,0,16482,0,0,0,0,0,0,0,0,0,2.5,0
9951,-3.3423e-12,0,-1.61326e-06,-3.40794e-12,0,0,-1.13753e-13,0,0,-3.77231,0.291249,0.559607,0,0,0,0,0,0,0,234,-69,234,-69,349,-54,226,57,0,-0.375,2.9105,-1.5,2.51931e-09,0,0,2,0,0,0,0,0,0,0,0,16482,0,0,0,0,0,0,0,0,0,2.5,0
9964,-3.3423e-12,0,-1.61326e-06,-3.40794e-12,0,0,-1.13754e-13,0,0,-3.77231,0.291249,0.559607,0,0,0,0,0,0,0,234,-69,234,-69,349,-54,226,57,0,-0.375,2.91599,-1.5,2.51931e-09,0,0,2,0,0,0,0,0,0,0,0,16482,0,0,0,0,0,0,0,0,0,2.5,0
9980,-3.3423e-12,0,-1.61326e-06,-3.40794e-12,0,0,-1.13754e-13,0,0,-3.77231,0.291249,0.559607,0,0,0,0,0,0,0,234,-69,234,-69,349,-54,226,57,0,-0.375,2.92313,-1.5,2.51931e-09,0,0,2,0,0,0,0,0,0,0,0,16482,0,0,0,0,0,0,0,0,0,2.5,0
9996,-3.3423e-12,0,-1.61326e-06,-3.40794e-12,0,0,-1.13755e-13,0,0,-3.77231,0.291249,0.559607,0,0,0,0,0,0,0,234,-69,234,-69,349,-54,226,57,0,-0.375,2.93004,-1.5,2.51931e-09,0,0,2,0,0,0,0,0,0,0,0,16482,0,0,0,0,0,0,0,0,0,2.5,0
10013,-3.3423e-12,0,-1.61326e-06,-3.40794e-12,0,0,-1.13755e-13,0,0,-3.77231,0.291249,0.559607,0,0,0,0,0,0,0,234,-69,234,-69,349,-54,226,57,0,-0.375,2.93714,-1.5,2.51931e-09,0,0,2,0,0,0,0,0,0,0,0,16482,0,0,0,0,0,0,0,0,0,2.5,0
10049,-3.3423e-12,0,-1.61326e-06,-3.40794e-12,0,0,-1.13756e-13,0,0,-3.77231,0.291249,0.559607,0,0,0,0,0,0,0,234,-69,234,-69,349,-54,226,57,0,-0.375,2.95126,-1.5,2.51931e-09,0,0,2,0,0,0,0,0,0,0,0,16482,0,0,0,0,0,0,0,0,0,2.5,0
10064,-3.3423e-12,0,-1.61326e-06,-3.40794e-12,0,0,-1.13756e-13,0,0,-3.77231,0.291249,0.559607,0,0,0,0,0,0,0,234,-69,234,-69,349,-54,226,57,0,-0.375,2.95728,-1.5,2.51931e-09,0,0,2,0,0,0,0,0,0,0,0,16482,0,0,0,0,0,0,0,0,0,2.5,0
10081,-3.3423e-12,0,-1.61326e-06,-3.40794e-12,0,0,-1.13757e-13,0,0,-3.77231,0.291249,0.559607,0,0,0,0,0,0,0,234,-69,234,-69,349,-54,226,57,0,-0.375,2.96311,-1.5,2.51931e-09,0,0,2,0,0,0,0,0,0,0,0,16482,0,0,0,0,0,0,0,0,0,2.5,0
10096,-3.3423e-12,0,-1.61326e-06,-3.40794e-12,0,0,-1.13757e-13,0,0,-3.77231,0.291249,0.559607,0,0,0,0,0,0,0,234,-69,234,-69,349,-54,226,57,0,-0.375,2.96876,-1.5,2.51931e-09,0,0,2,0,0,0,0,0,0,0,0,16482,0,0,0,0,0,0,0,0,0,2.5,0
10112,-3.3423e-12,0,-1.61326e-06,-3.40794e-12,0,0,-1.13758e-13,0,0,-3.77231,0.291249,0.559607,0,0,0,0,0,0,0,234,-69,234,-69,349,-54,226,57,0,-0.375,2.97422,-1.5,2.51931e-09,0,0,2,0,0,0,0,0,0,0,0,16482,0,0,0,0,0,0,0,0,0,2.5,0
10127,-3.3423e-12,0,-1.61326e-06,-3.40794e-12,0,0,-1.13759e-13,0,0,-3.77231,0.291249,0.559607,0,0,0,0,0,0,0,234,-69,234,-69,349,-54,226,57,0,-0.375,2.97919,-1.5,2.51931e-09,0,0,2,0,0,0,0,0,0,0,0,16482,0,0,0,0,0,0,0,0,0,2.5,0
10143,-3.3423e-12,0,-1.61326e-06,-3.40794e-12,0,0,-1.13759e-13,0,0,-3.77231,0.291249,0.559607,0,0,0,0,0,0,0,234,-69,234,-69,349,-54,226,57,0,-0.375,2.98433,-1.5,2.51931e-09,0,0,2,0,0,0,0,0,0,0,0,16482,0,0,0,0,0,0,0,0,0,2.5,0
10159,-3.3423e-12,0,-1.61326e-06,-3.40794e-12,0,0,-1.1376e-13,0,0,-3.77231,0.291249,0.559607,0,0,0,0,0,0,0,234,-69,234,-69,349,-54,226,57,0,-0.375,2.989,-1.5,2.51931e-09,0,0,2,0,0,0,0,0,0,0,0,16482,0,0,0,0,0,0,0,0,0,2.5,0
10175,-3.3423e-12,0,-1.61326e-06,-3.40794e-12,0,0,-1.1376e-13,0,0,-3.77231,0.291249,0.559607,0,0,0,0,0,0,0,234,-69,234,-69,349,-54,226,57,0,-0.375,2.99383,-1.5,2.51931e-09,0,0,2,0,0,0,0,0,0,0,0,16482,0,0,0,0,0,0,0,0,0,2.5,0
10190,-3.3423e-12,0,-1.61326e-06,-3.40794e-12,0,0,-1.13761e-13,0,0,-3.77231,0.291249,0.559607,0,0,0,0,0,0,0,234,-69,234,-69,349,-54,226,57,0,-0.375,2.99821,-1.5,2.51931e-09,0,0,2,0,0,0,0,0,0,0,0,16482,0,0,0,0,0,0,0,0,0,2.5,0
10206,-3.3423e-12,0,-1.61326e-06,-3.40794e-12,0,0,-1.13761e-13,0,0,-3.77231,0.291249,0.559607,0,0,0,0,0,0,0,234,-69,234,-69,349,-54,226,57,0,-0.375,3.00275,-1.5,2.51931e-09,0,0,2,0,0,0,0,0,0,0,0,16482,0,0,0,0,0,0,0,0,0,2.5,0
10222,-3.3423e-12,0,-1.61326e-06,-3.40794e-12,0,0,-1.13762e-13,0,0,-3.77231,0.291249,0.559607,0,0,0,0,0,0,0,234,-69,234,-69,349,-54,226,57,0,-0.375,3.00687,-1.5,2.51931e-09,0,0,2,0,0,0,0,0,0,0,0,16482,0,0,0,0,0,0,0,0,0,2.5,0
10237,-3.3423e-12,0,-1.61326e-06,-3.40794e-12,0,0,-1.13762e-13,0,0,-3.77231,0.291249,0.559607,0,0,0,0,0,0,0,234,-69,234,-69,349,-54,226,57,0,-0.375,3.01113,-1.5,2.51931e-09,0,0,2,0,0,0,0,0,0,0,0,16482,0,0,0,0,0,0,0,0,0,2.5,0
10251,-3.3423e-12,0,-1.61326e-06,-3.40794e-12,0,0,-1.13763e-13,0,0,-3.77231,0.291249,0.559607,0,0,0,0,0,0,0,234,-69,234,-69,349,-54,226,57,0,-0.375,3.01475,-1.5,2.51931e-09,0,0,2,0,0,0,0,0,0,0,0,16482,0,0,0,0,0,0,0,0,0,2.5,0
10264,-3.3423e-12,0,-1.61326e-06,-3.40794e-12,0,0,-1.13763e-13,0,0,-3.77231,0.291249,0.559607,0,0,0,0,0,0,0,234,-69,234,-69,349,-54,226,57,0,-0.375,3.01801,-1.5,2.51931e-09,0,0,2,0,0,0,0,0,0,0,0,16482,0,0,0,0,0,0,0,0,0,2.5,0
10280,-3.3423e-12,0,-1.61326e-06,-3.40794e-12,0,0,-1.13764e-13,0,0,-3.77231,0.291249,0.559607,0,0,0,0,0,0,0,234,-69,234,-69,349,-54,226,57,0,-0.375,3.02192,-1.5,2.51931e-09,0,0,2,0,0,0,0,0,0,0,0,16482,0,0,0,0,0,0,0,0,0,2.5,0
10296,-3.3423e-12,0,-1.61326e-06,-3.40794e-12,0,0,-1.13764e-13,0,0,-3.77231,0.291249,0.559607,0,0,0,0,0,0,0,234,-69,234,-69,349,-54,226,57,0,-0.375,3.02571,-1.5,2.51931e-09,0,0,2,0,0,0,0,0,0,0,0,16482,0,0,0,0,0,0,0,0,0,2.5,0
10313,-3.3423e-12,0,-1.61326e-06,-3.40794e-12,0,0,-1.13765e-13,0,0,-3.77231,0.291249,0.559607,0,0,0,0,0,0,0,234,-69,234,-69,349,-54,226,57,0,-0.375,3.0296,-1.5,2.51931e-09,0,0,2,0,0,0,0,0,0,0,0,16482,0,0,0,0,0,0,0,0,0,2.5,0
10328,-3.3423e-12,0,-1.61326e-06,-3.40794e-12,0,0,-1.13766e-13,0,0,-3.77231,0.291249,0.559607,0,0,0,0,0,0,0,234,-69,234,-69,349,-54,226,57,0,-0.375,3.03292,-1.5,2.51931e-09,0,0,2,0,0,0,0,0,0,0,0,16482,0,0,0,0,0,0,0,0,0,2.5,0
10344,-3.3423e-12,0,-1.61326e-06,-3.40794e-12,0,0,-1.13766e-13,0,0,-3.77231,0.291249,0.559607,0,0,0,0,0,0,0,234,-69,234,-69,349,-54,226,57,0,-0.375,3.03636,-1.5,2.51931e-09,0,0,2,0,0,0,0,0,0,0,0,16482,0,0,0,0,0,0,0,0,0,2.5,0
10360,-3.3423e-12,0,-1.61326e-06,-3.40794e-12,0,0,-1.13767e-13,0,0,-3.77231,0.291249,0.559607,0,0,0,0,0,0,0,234,-69,234,-69,349,-54,226,57,0,-0.375,3.03969,-1.5,2.51931e-09,0,0,2,0,0,0,0,0,0,0,0,16482,0,0,0,0,0,0,0,0,0,2.5,0
10375,-3.3423e-12,0,-1.61326e-06,-3.40794e-12,0,0,-1.13767e-13,0,0,-3.77231,0.291249,0.559607,0,0,0,0,0,0,0,234,-69,234,-69,349,-54,226,57,0,-0.375,3.04272,-1.5,2.51931e-09,0,0,2,0,0,0,0,0,0,0,0,16482,0,0,0,0,0,0,0,0,0,2.5,0
10391,-3.3423e-12,0,-1.61326e-06,-3.40794e-12,0,0,-1.13768e-13,0,0,-3.77231,0.291249,0.559607,0,0,0,0,0,0,0,234,-69,234,-69,349,-54,226,57,0,-0.375,3.04565,-1.5,2.51931e-09,0,0,2,0,0,0,0,0,0,0,0,16482,0,0,0,0,0,0,0,0,0,2.5,0
10406,-3.3423e-12,0,-1.61326e-06,-3.40794e-12,0,0,-1.13768e-13,0,0,-3.77231,0.291249,0.559607,0,0,0,0,0,0,0,234,-69,234,-69,349,-54,226,57,0,-0.375,3.04869,-1.5,2.51931e-09,0,0,2,0,0,0,0,0,0,0,0,16482,0,0,0,0,0,0,0,0,0,2.5,0
10423,-3.3423e-12,0,-1.61326e-06,-3.40794e-12,0,0,-1.13769e-13,0,0,-3.77231,0.291249,0.559607,0,0,0,0,0,0,0,234,-69,234,-69,349,-54,226,57,0,-0.375,3.05181,-1.5,2.51931e-09,0,0,2,0,0,0,0,0,0,0,0,16482,0,0,0,0,0,0,0,0,0,2.5,0
10439,-3.3423e-12,0,-1.61326e-06,-3.40794e-12,0,0,-1.13769e-13,0,0,-3.77231,0.291249,0.559607,0,0,0,0,0,0,0,234,-69,234,-69,349,-54,226,57,0,-0.375,3.05465,-1.5,2.51931e-09,0,0,2,0,0,0,0,0,0,0,0,16482,0,0,0,0,0,0,0,0,0,2.5,0
10455,-3.3423e-12,0,-1.61326e-06,-3.40794e-12,0,0,-1.1377e-13,0,0,-3.77231,0.291249,0.559607,0,0,0,0,0,0,0,234,-69,234,-69,349,-54,226,57,0,-0.375,3.05723,-1.5,2.51931e-09,0,0,2,0,0,0,0,0,0,0,0,16482,0,0,0,0,0,0,0,0,0,2.5,0
10470,-3.3423e-12,0,-1.61326e-06,-3.40794e-12,0,0,-1.1377e-13,0,0,-3.77231,0.291249,0.559607,0,0,0,0,0,0,0,234,-69,234,-69,349,-54,226,57,0,-0.375,3.0599,-1.5,2.51931e-09,0,0,2,0,0,0,0,0,0,0,0,16482,0,0,0,0,0,0,0,0,0,2.5,0
10486,-3.3423e-12,0,-1.61326e-06,-3.40794e-12,0,0,-1.13771e-13,0,0,-3.77231,0.291249,0.559607,0,0,0,0,0,0,0,234,-69,234,-69,349,-54,226,57,0,-0.375,3.06248,-1.5,2.51931e-09,0,0,2,0,0,0,0,0,0,0,0,16482,0,0,0,0,0,0,0,0,0,2.5,0
10501,-3.3423e-12,0,-1.61326e-06,-3.40794e-12,0,0,-1.13772e-13,0,0,-3.77231,0.291249,0.559607,0,0,0,0,0,0,0,234,-69,234,-69,349,-54,226,57,0,-0.375,3.06483,-1.5,2.51931e-09,0,0,2,0,0,0,0,0,0,0,0,16482,0,0,0,0,0,0,0,0,0,2.5,0
10517,-3.3423e-12,0,-1.61326e-06,-3.40794e-12,0,0,-1.13772e-13,0,0,-3.77231,0.291249,0.559607,0,0,0,0,0,0,0,234,-69,234,-69,349,-54,226,57,0,-0.375,3.06726,-1.5,2.51931e-09,0,0,2,0,0,0,0,0,0,0,0,16482,0,0,0,0,0,0,0,0,0,2.5,0
10531,-3.3423e-12,0,-1.61326e-06,-3.40794e-12,0,0,-1.13773e-13,0,0,-3.77231,0.291249,0.559607,0,0,0,0,0,0,0,234,-69,234,-69,349,-54,226,57,0,-0.375,3.06917,-1.5,2.51931e-09,0,0,2,0,0,0,0,0,0,0,0,16482,0,0,0,0,0,0,0,0,0,2.5,0
10545,-3.3423e-12,0,-1.61326e-06,-3.40794e-12,0,0,-1.13773e-13,0,0,-3.77231,0.291249,0.559607,0,0,0,0,0,0,0,234,-69,234,-69,349,-54,226,57,0,-0.375,3.07132,-1.5,2.51931e-09,0,0,2,0,0,0,0,0,0,0,0,16482,0,0,0,0,0,0,0,0,0,2.5,0
10559,-3.3423e-12,0,-1.61326e-06,-3.40794e-12,0,0,-1.13774e-13,0,0,-3.77231,0.291249,0.559607,0,0,0,0,0,0,0,234,-69,234,-69,349,-54,226,57,0,-0.375,3.07327,-1.5,2.51931e-09,0,0,2,0,0,0,0,0,0,0,0,16482,0,0,0,0,0,0,0,0,0,2.5,0
10574,-3.3423e-12,0,-1.61326e-06,-3.40794e-12,0,0,-1.13774e-13,0,0,-3.77231,0.291249,0.559607,0,0,0,0,0,0,0,234,-69,234,-69,349,-54,226,57,0,-0.375,3.0753,-1.5,2.51931e-09,0,0,2,0,0,0,0,0,0,0,0,16482,0,0,0,0,0,0,0,0,0,2.5,0
10590,-3.3423e-12,0,-1.61326e-06,-3.40794e-12,0,0,-1.13775e-13,0,0,-3.77231,0.291249,0.559607,0,0,0,0,0,0,0,234,-69,234,-69,349,-54,226,57,0,-0.375,3.07739,-1.5,2.51931e-09,0,0,2,0,0,0,0,0,0,0,0,16482,0,0,0,0,0,0,0,0,0,2.5,0
10606,-3.3423e-12,0,-1.61326e-06,-3.40794e-12,0,0,-1.13775e-13,0,0,-3.77231,0.291249,0.559607,0,0,0,0,0,0,0,234,-69,234,-69,349,-54,226,57,0,-0.375,3.07942,-1.5,2.51931e-09,0,0,2,0,0,0,0,0,0,0,0,16482,0,0,0,0,0,0,0,0,0,2.5,0
10622,-3.3423e-12,0,-1.61326e-06,-3.40794e-12,0,0,-1.13776e-13,0,0,-3.77231,0.291249,0.559607,0,0,0,0,0,0,0,234,-69,234,-69,349,-54,226,57,0,-0.375,3.08139,-1.5,2.51931e-09,0,0,2,0,0,0,0,0,0,0,0,16482,0,0,0,0,0,0,0,0,0,2.5,0
10637,-3.3423e-12,0,-1.61326e-06,-3.40794e-12,0,0,-1.13776e-13,0,0,-3.77231,0.291249,0.559607,0,0,0,0,0,0,0,234,-69,234,-69,349,-54,226,57,0,-0.375,3.08318,-1.5,2.51931e-09,0,0,2,0,0,0,0,0,0,0,0,16482,0,0,0,0,0,0,0,0,0,2.5,0
10653,-3.3423e-12,0,-1.61326e-06,-3.40794e-12,0,0,-1.13777e-13,0,0,-3.77231,0.291249,0.559607,0,0,0,0,0,0,0,234,-69,234,-69,349,-54,226,57,0,-0.375,3.08503,-1.5,2.51931e-09,0,0,2,0,0,0,0,0,0,0,0,16482,0,0,0,0,0,0,0,0,0,2.5,0
10670,-3.3423e-12,0,-1.61326e-06,-3.40794e-12,0,0,-1.13777e-13,0,0,-3.77231,0.291249,0.559607,0,0,0,0,0,0,0,234,-69,234,-69,349,-54,226,57,0,-0.375,3.08682,-1.5,2.51931e-09,0,0,2,0,0,0,0,0,0,0,0,16482,0,0,0,0,0,0,0,0,0,2.5,0
10686,-3.3423e-12,0,-1.61326e-06,-3.40794e-12,0,0,-1.13778e-13,0,0,-3.77231,0.291249,0.559607,0,0,0,0,0,0,0,234,-69,234,-69,349,-54,226,57,0,-0.375,3.08855,-1.5,2.51931e-09,0,0,2,0,0,0,0,0,0,0,0,16482,0,0,0,0,0,0,0,0,0,2.5,0
10701,-3.3423e-12,0,-1.61326e-06,-3.40794e-12,0,0,-1.13779e-13,0,0,-3.77231,0.291249,0.559607,0,0,0,0,0,0,0,234,-69,234,-69,349,-54,226,57,0,-0.375,3.09012,-1.5,2.51931e-09,0,0,2,0,0,0,0,0,0,0,0,16482,0,0,0,0,0,0,0,0,0,2.5,0
10717,-3.3423e-12,0,-1.61326e-06,-3.40794e-12,0,0,-1.13779e-13,0,0,-3.77231,0.291249,0.559607,0,0,0,0,0,0,0,234,-69,234,-69,349,-54,226,57,0,-0.375,3.09175,-1.5,2.51931e-09,0,0,2,0,0,0,0,0,0,0,0,16482,0,0,0,0,0,0,0,0,0,2.5,0
10733,-3.3423e-12,0,-1.61326e-06,-3.40794e-12,0,0,-1.1378e-13,0,0,-3.77231,0.291249,0.559607,0,0,0,0,0,0,0,234,-69,234,-69,349,-54,226,57,0,-0.375,3.09333,-1.5,2.51931e-09,0,0,2,0,0,0,0,0,0,0,0,16482,0,0,0,0,0,0,0,0,0,2.5,0
10749,-3.3423e-12,0,-1.61326e-06,-3.40794e-12,0,0,-1.1378e-13,0,0,-3.77231,0.291249,0.559607,0,0,0,0,0,0,0,234,-69,234,-69,349,-54,226,57,0,-0.375,3.09476,-1.5,2.51931e-09,0,0,2,0,0,0,0,0,0,0,0,16482,0,0,0,0,0,0,0,0,0,2.5,0
10763,-3.3423e-12,0,-1.61326e-06,-3.40794e-12,0,0,-1.13781e-13,0,0,-3.77231,0.291249,0.559607,0,0,0,0,0,0,0,234,-69,234,-69,349,-54,226,57,0,-0.375,3.09606,-1.5,2.51931e-09,0,0,2,0,0,0,0,0,0,0,0,16482,0,0,0,0,0,0,0,0,0,2.5,0
10780,-3.3423e-12,0,-1.61326e-06,-3.40794e-12,0,0,-1.13781e-13,0,0,-3.77231,0.291249,0.559607,0,0,0,0,0,0,0,234,-69,234,-69,349,-54,226,57,0,-0.375,3.09759,-1.5,2.51931e-09,0,0,2,0,0,0,0,0,0,0,0,16482,0,0,0,0,0,0,0,0,0,2.5,0
10795,-3.3423e-12,0,-1.61326e-06,-3.40794e-12,0,0,-1.13782e-13,0,0,-3.77231,0.291249,0.559607,0,0,0,0,0,0,0,234,-69,234,-69,349,-54,226,57,0,-0.375,3.09889,-1.5,2.51931e-09,0,0,2,0,0,0,0,0,0,0,0,16482,0,0,0,0,0,0,0,0,0,2.5,0
10814,-3.3423e-12,0,-1.61326e-06,-3.40794e-12,0,0,-1.13782e-13,0,0,-3.77231,0.291249,0.559607,0,0,0,0,0,0,0,234,-69,234,-69,349,-54,226,57,0,-0.375,3.1005,-1.5,2.51931e-09,0,0,2,0,0,0,0,0,0,0,0,16482,0,0,0,0,0,0,0,0,0,2.5,0
10828,-3.3423e-12,0,-1.61326e-06,-3.40794e-12,0,0,-1.13783e-13,0,0,-3.77231,0.291249,0.559607,0,0,0,0,0,0,0,234,-69,234,-69,349,-54,226,57,0,-0.375,3.10164,-1.5,2.51931e-09,0,0,2,0,0,0,0,0,0,0,0,16482,0,0,0,0,0,0,0,0,0,2.5,0
10842,-3.3423e-12,0,-1.61326e-06,-3.40794e-12,0,0,-1.13783e-13,0,0,-3.77231,0.291249,0.559607,0,0,0,0,0,0,0,234,-69,234,-69,349,-54,226,57,0,-0.375,3.10274,-1.5,2.51931e-09,0,0,2,0,0,0,0,0,0,0,0,16482,0,0,0,0,0,0,0,0,0,2.5,0
10857,-3.3423e-12,0,-1.61326e-06,-3.40794e-12,0,0,-1.13784e-13,0,0,-3.77231,0.291249,0.559607,0,0,0,0,0,0,0,234,-69,234,-69,349,-54,226,57,0,-0.375,3.1039,-1.5,2.51931e-09,0,0,2,0,0,0,0,0,0,0,0,16482,0,0,0,0,0,0,0,0,0,2.5,0
10873,-3.3423e-12,0,-1.61326e-06,-3.40794e-12,0,0,-1.13785e-13,0,0,-3.77231,0.291249,0.559607,0,0,0,0,0,0,0,234,-69,234,-69,349,-54,226,57,0,-0.375,3.10509,-1.5,2.51931e-09,0,0,2,0,0,0,0,0,0,0,0,16482,0,0,0,0,0,0,0,0,0,2.5,0
10889,-3.3423e-12,0,-1.61326e-06,-3.40794e-12,0,0,-1.13785e-13,0,0,-3.77231,0.291249,0.559607,0,0,0,0,0,0,0,234,-69,234,-69,349,-54,226,57,0,-0.375,3.10617,-1.5,2.51931e-09,0,0,2,0,0,0,0,0,0,0,0,16482,0,0,0,0,0,0,0,0,0,2.5,0
10904,-3.3423e-12,0,-1.61326e-06,-3.40794e-12,0,0,-1.13786e-13,0,0,-3.77231,0.291249,0.559607,0,0,0,0,0,0,0,234,-69,234,-69,349,-54,226,57,0,-0.375,3.10729,-1.5,2.51931e-09,0,0,2,0,0,0,0,0,0,0,0,16482,0,0,0,0,0,0,0,0,0,2.5,0
10920,-3.3423e-12,0,-1.61326e-06,-3.40794e-12,0,0,-1.13786e-13,0,0,-3.77231,0.291249,0.559607,0,0,0,0,0,0,0,234,-69,234,-69,349,-54,226,57,0,-0.375,3.10838,-1.5,2.51931e-09,0,0,2,0,0,0,0,0,0,0,0,16482,0,0,0,0,0,0,0,0,0,2.5,0
10936,-3.3423e-12,0,-1.61326e-06,-3.40794e-12,0,0,-1.13787e-13,0,0,-3.77231,0.291249,0.559607,0,0,0,0,0,0,0,234,-69,234,-69,349,-54,226,57,0,-0.375,3.10943,-1.5,2.51931e-09,0,0,2,0,0,0,0,0,0,0,0,16482,0,0,0,0,0,0,0,0,0,2.5,0
10953,-3.3423e-12,0,-1.61326e-06,-3.40794e-12,0,0,-1.13787e-13,0,0,-3.77231,0.291249,0.559607,0,0,0,0,0,0,0,234,-69,234,-69,349,-54,226,57,0,-0.375,3.11051,-1.5,2.51931e-09,0,0,2,0,0,0,0,0,0,0,0,16482,0,0,0,0,0,0,0,0,0,2.5,0
10968,-3.3423e-12,0,-1.61326e-06,-3.40794e-12,0,0,-1.13788e-13,0,0,-3.77231,0.291249,0.559607,0,0,0,0,0,0,0,234,-69,234,-69,349,-54,226,57,0,-0.375,3.11143,-1.5,2.51931e-09,0,0,2,0,0,0,0,0,0,0,0,16482,0,0,0,0,0,0,0,0,0,2.5,0
10984,-3.3423e-12,0,-1.61326e-06,-3.40794e-12,0,0,-1.13788e-13,0,0,-3.77231,0.291249,0.559607,0,0,0,0,0,0,0,234,-69,234,-69,349,-54,226,57,0,-0.375,3.11239,-1.5,2.51931e-09,0,0,2,0,0,0,0,0,0,0,0,16482,0,0,0,0,0,0,0,0,0,2.5,0
10999,-3.3423e-12,0,-1.61326e-06,-3.40794e-12,0,0,-1.13789e-13,0,0,-3.77231,0.291249,0.559607,0,0,0,0,0,0,0,234,-69,234,-69,349,-54,226,57,0,-0.375,3.11325,-1.5,2.51931e-09,0,0,2,0,0,0,0,0,0,0,0,16482,0,0,0,0,0,0,0,0,0,2.5,0
11015,-3.3423e-12,0,-1.61326e-06,-3.40794e-12,0,0,-1.13789e-13,0,0,-3.77231,0.291249,0.559607,0,0,0,0,0,0,0,234,-69,234,-69,349,-54,226,57,0,-0.375,3.11415,-1.5,2.51931e-09,0,0,2,0,0,0,0,0,0,0,0,16482,0,0,0,0,0,0,0,0,0,2.5,0
11031,-3.3423e-12,0,-1.61326e-06,-3.40794e-12,0,0,-1.1379e-13,0,0,-3.77231,0.291249,0.559607,0,0,0,0,0,0,0,234,-69,234,-69,349,-54,226,57,0,-0.375,3.11502,-1.5,2.51931e-09,0,0,2,0,0,0,0,0,0,0,0,16482,0,0,0,0,0,0,0,0,0,2.5,0
11047,-3.3423e-12,0,-1.61326e-06,-3.40794e-12,0,0,-1.1379e-13,0,0,-3.77231,0.291249,0.559607,0,0,0,0,0,0,0,234,-69,234,-69,349,-54,226,57,0,-0.375,3.11586,-1.5,2.51931e-09,0,0,2,0,0,0,0,0,0,0,0,16482,0,0,0,0,0,0,0,0,0,2.5,0
11063,-3.3423e-12,0,-1.61326e-06,-3.40794e-12,0,0,-1.13791e-13,0,0,-3.77231,0.291249,0.559607,0,0,0,0,0,0,0,234,-69,234,-69,349,-54,226,57,0,-0.375,3.11667,-1.5,2.51931e-09,0,0,2,0,0,0,0,0,0,0,0,16482,0,0,0,0,0,0,0,0,0,2.5,0
11079,-3.3423e-12,0,-1.61326e-06,-3.40794e-12,0,0,-1.13792e-13,0,0,-3.77231,0.291249,0.559607,0,0,0,0,0,0,0,234,-69,234,-69,349,-54,226,57,0,-0.375,3.11746,-1.5,2.51931e-09,0,0,2,0,0,0,0,0,0,0,0,16482,0,0,0,0,0,0,0,0,0,2.5,0
11095,-3.3423e-12,0,-1.61326e-06,-3.40794e-12,0,0,-1.13792e-13,0,0,-3.77231,0.291249,0.559607,0,0,0,0,0,0,0,234,-69,234,-69,349,-54,226,57,0,-0.375,3.11822,-1.5,2.51931e-09,0,0,2,0,0,0,0,0,0,0,0,16482,0,0,0,0,0,0,0,0,0,2.5,0
11109,-3.3423e-12,0,-1.61326e-06,-3.40794e-12,0,0,-1.13793e-13,0,0,-3.77231,0.291249,0.559607,0,0,0,0,0,0,0,234,-69,234,-69,349,-54,226,57,0,-0.375,3.11887,-1.5,2.51931e-09,0,0,2,0,0,0,0,0,0,0,0,16482,0,0,0,0,0,0,0,0,0,2.5,0
11122,-3.3423e-12,0,-1.61326e-06,-3.40794e-12,0,0,-1.13793e-13,0,0,-3.77231,0.291249,0.559607,0,0,0,0,0,0,0,234,-69,234,-69,349,-54,226,57,0,-0.375,3.11946,-1.5,2.51931e-09,0,0,2,0,0,0,0,0,0,0,0,16482,0,0,0,0,0,0,0,0,0,2.5,0
11137,-3.3423e-12,0,-1.61326e-06,-3.40794e-12,0,0,-1.13794e-13,0,0,-3.77231,0.291249,0.559607,0,0,0,0,0,0,0,234,-69,234,-69,349,-54,226,57,0,-0.375,3.12011,-1.5,2.51931e-09,0,0,2,0,0,0,0,0,0,0,0,16482,0,0,0,0,0,0,0,0,0,2.5,0
11153,-3.3423e-12,0,-1.61326e-06,-3.40794e-12,0,0,-1.13794e-13,0,0,-3.77231,0.291249,0.559607,0,0,0,0,0,0,0,234,-69,234,-69,349,-54,226,57,0,-0.375,3.12079,-1.5,2.51931e-09,0,0,2,0,0,0,0,0,0,0,0,16482,0,0,0,0,0,0,0,0,0,2.5,0
11169,-3.3423e-12,0,-1.61326e-06,-3.40794e-12,0,0,-1.13795e-13,0,0,-3.77231,0.291249,0.559607,0,0,0,0,0,0,0,234,-69,234,-69,349,-54,226,57,0,-0.375,3.12141,-1.5,2.51931e-09,0,0,2,0,0,0,0,0,0,0,0,16482,0,0,0,0,0,0,0,0,0,2.5,0
11185,-3.3423e-12,0,-1.61326e-06,-3.40794e-12,0,0,-1.13795e-13,0,0,-3.77231,0.291249,0.559607,0,0,0,0,0,0,0,234,-69,234,-69,349,-54,226,57,0,-0.375,3.12209,-1.5,2.51931e-09,0,0,2,0,0,0,0,0,0,0,0,16482,0,0,0,0,0,0,0,0,0,2.5,0
11201,-3.3423e-12,0,-1.61326e-06,-3.40794e-12,0,0,-1.13796e-13,0,0,-3.77231,0.291249,0.559607,0,0,0,0,0,0,0,234,-69,234,-69,349,-54,226,57,0,-0.375,3.12271,-1.5,2.51931e-09,0,0,2,0,0,0,0,0,0,0,0,16482,0,0,0,0,0,0,0,0,0,2.5,0
11217,-3.3423e-12,0,-1.61326e-06,-3.40794e-12,0,0,-1.13796e-13,0,0,-3.77231,0.291249,0.559607,0,0,0,0,0,0,0,234,-69,234,-69,349,-54,226,57,0,-0.375,3.1233,-1.5,2.51931e-09,0,0,2,0,0,0,0,0,0,0,0,16482,0,0,0,0,0,0,0,0,0,2.5,0
11233,-3.3423e-12,0,-1.61326e-06,-3.40794e-12,0,0,-1.13797e-13,0,0,-3.77231,0.291249,0.559607,0,0,0,0,0,0,0,234,-69,234,-69,349,-54,226,57,0,-0.375,3.12385,-1.5,2.51931e-09,0,0,2,0,0,0,0,0,0,0,0,16482,0,0,0,0,0,0,0,0,0,2.5,0
11248,-3.3423e-12,0,-1.61326e-06,-3.40794e-12,0,0,-1.13798e-13,0,0,-3.77231,0.291249,0.559607,0,0,0,0,0,0,0,234,-69,234,-69,349,-54,226,57,0,-0.375,3.12441,-1.5,2.51931e-09,0,0,2,0,0,0,0,0,0,0,0,16482,0,0,0,0,0,0,0,0,0,2.5,0
11264,-3.3423e-12,0,-1.61326e-06,-3.40794e-12,0,0,-1.13798e-13,0,0,-3.77231,0.291249,0.559607,0,0,0,0,0,0,0,234,-69,234,-69,349,-54,226,57,0,-0.375,3.12495,-1.5,2.51931e-09,0,0,2,0,0,0,0,0,0,0,0,16482,0,0,0,0,0,0,0,0,0,2.5,0
11280,-3.3423e-12,0,-1.61326e-06,-3.40794e-12,0,0,-1.13799e-13,0,0,-3.77231,0.291249,0.559607,0,0,0,0,0,0,0,234,-69,234,-69,349,-54,226,57,0,-0.375,3.12548,-1.5,2.51931e-09,0,0,2,0,0,0,0,0,0,0,0,16482,0,0,0,0,0,0,0,0,0,2.5,0
11296,-3.3423e-12,0,-1.61326e-06,-3.40794e-12,0,0,-1.13799e-13,0,0,-3.77231,0.291249,0.559607,0,0,0,0,0,0,0,234,-69,234,-69,349,-54,226,57,0,-0.375,3.12596,-1.5,2.51931e-09,0,0,2,0,0,0,0,0,0,0,0,16482,0,0,0,0,0,0,0,0,0,2.5,0
11313,-3.3423e-12,0,-1.61326e-06,-3.40794e-12,0,0,-1.138e-13,0,0,-3.77231,0.291249,0.559607,0,0,0,0,0,0,0,234,-69,234,-69,349,-54,226,57,0,-0.375,3.12651,-1.5,2.51931e-09,0,0,2,0,0,0,0,0,0,0,0,16482,0,0,0,0,0,0,0,0,0,2.5,0
11328,-3.3423e-12,0,-1.61326e-06,-3.40794e-12,0,0,-1.138e-13,0,0,-3.77231,0.291249,0.559607,0,0,0,0,0,0,0,234,-69,234,-69,349,-54,226,57,0,-0.375,3.12696,-1.5,2.51931e-09,0,0,2,0,0,0,0,0,0,0,0,16482,0,0,0,0,0,0,0,0,0,2.5,0
11344,-3.3423e-12,0,-1.61326e-06,-3.40794e-12,0,0,-1.13801e-13,0,0,-3.77231,0.291249,0.559607,0,0,0,0,0,0,0,234,-69,234,-69,349,-54,226,57,0,-0.375,3.12742,-1.5,2.51931e-09,0,0,2,0,0,0,0,0,0,0,0,16482,0,0,0,0,0,0,0,0,0,2.5,0
11359,-3.3423e-12,0,-1.61326e-06,-3.40794e-12,0,0,-1.13801e-13,0,0,-3.77231,0.291249,0.559607,0,0,0,0,0,0,0,234,-69,234,-69,349,-54,226,57,0,-0.375,3.12784,-1.5,2.51931e-09,0,0,2,0,0,0,0,0,0,0,0,16482,0,0,0,0,0,0,0,0,0,2.5,0
11375,-3.3423e-12,0,-1.61326e-06,-3.40794e-12,0,0,-1.13802e-13,0,0,-3.77231,0.291249,0.559607,0,0,0,0,0,0,0,234,-69,234,-69,349,-54,226,57,0,-0.375,3.12828,-1.5,2.51931e-09,0,0,2,0,0,0,0,0,0,0,0,16482,0,0,0,0,0,0,0,0,0,2.5,0
11388,-3.3423e-12,0,-1.61326e-06,-3.40794e-12,0,0,-1.13802e-13,0,0,-3.77231,0.291249,0.559607,0,0,0,0,0,0,0,234,-69,234,-69,349,-54,226,57,0,-0.375,3.12862,-1.5,2.51931e-09,0,0,2,0,0,0,0,0,0,0,0,16482,0,0,0,0,0,0,0,0,0,2.5,0
11401,-3.3423e-12,0,-1.61326e-06,-3.40794e-12,0,0,-1.13803e-13,0,0,-3.77231,0.291249,0.559607,0,0,0,0,0,0,0,234,-69,234,-69,349,-54,226,57,0,-0.375,3.12895,-1.5,2.51931e-09,0,0,2,0,0,0,0,0,0,0,0,16482,0,0,0,0,0,0,0,0,0,2.5,0
11417,-3.3423e-12,0,-1.61326e-06,-3.40794e-12,0,0,-1.13803e-13,0,0,-3.77231,0.291249,0.559607,0,0,0,0,0,0,0,234,-69,234,-69,349,-54,226,57,0,-0.375,3.12935,-1.5,2.51931e-09,0,0,2,0,0,0,0,0,0,0,0,16482,0,0,0,0,0,0,0,0,0,2.5,0
11433,-3.3423e-12,0,-1.61326e-06,-3.40794e-12,0,0,-1.13804e-13,0,0,-3.77231,0.291249,0.559607,0,0,0,0,0,0,0,234,-69,234,-69,349,-54,226,57,0,-0.375,3.12974,-1.5,2.51931e-09,0,0,2,0,0,0,0,0,0,0,0,16482,0,0,0,0,0,0,0,0,0,2.5,0
11450,-3.3423e-12,0,-1.61326e-06,-3.40794e-12,0,0,-1.13805e-13,0,0,-3.77231,0.291249,0.559607,0,0,0,0,0,0,0,234,-69,234,-69,349,-54,226,57,0,-0.375,3.13014,-1.5,2.51931e-09,0,0,2,0,0,0,0,0,0,0,0,16482,0,0,0,0,0,0,0,0,0,2.5,0
11466,-3.3423e-12,0,-1.61326e-06,-3.40794e-12,0,0,-1.13805e-13,0,0,-3.77231,0.291249,0.559607,0,0,0,0,0,0,0,234,-69,234,-69,349,-54,226,57,0,-0.375,3.1305,-1.5,2.51931e-09,0,0,2,0,0,0,0,0,0,0,0,16482,0,0,0,0,0,0,0,0,0,2.5,0
11482,-3.3423e-12,0,-1.61326e-06,-3.40794e-12,0,0,-1.13806e-13,0,0,-3.77231,0.291249,0.559607,0,0,0,0,0,0,0,234,-69,234,-69,349,-54,226,57,0,-0.375,3.13085,-1.5,2.51931e-09,0,0,2,0,0,0,0,0,0,0,0,16482,0,0,0,0,0,0,0,0,0,2.5,0
11497,-3.3423e-12,0,-1.61326e-06,-3.40794e-12,0,0,-1.13806e-13,0,0,-3.77231,0.291249,0.559607,0,0,0,0,0,0,0,234,-69,234,-69,349,-54,226,57,0,-0.375,3.13117,-1.5,2.51931e-09,0,0,2,0,0,0,0,0,0,0,0,16482,0,0,0,0,0,0,0,0,0,2.5,0
11513,-3.3423e-12,0,-1.61326e-06,-3.40794e-12,0,0,-1.13807e-13,0,0,-3.77231,0.291249,0.559607,0,0,0,0,0,0,0,234,-69,234,-69,349,-54,226,57,0,-0.375,3.1315,-1.5,2.51931e-09,0,0,2,0,0,0,0,0,0,0,0,16482,0,0,0,0,0,0,0,0,0,2.5,0
11528,-3.3423e-12,0,-1.61326e-06,-3.40794e-12,0,0,-1.13807e-13,0,0,-3.77231,0.291249,0.559607,0,0,0,0,0,0,0,234,-69,234,-69,349,-54,226,57,0,-0.375,3.1318,-1.5,2.51931e-09,0,0,2,0,0,0,0,0,0,0,0,16482,0,0,0,0,0,0,0,0,0,2.5,0
11545,-3.3423e-12,0,-1.61326e-06,-3.40794e-12,0,0,-1.13808e-13,0,0,-3.77231,0.291249,0.559607,0,0,0,0,0,0,0,234,-69,234,-69,349,-54,226,57,0,-0.375,3.13211,-1.5,2.51931e-09,0,0,2,0,0,0,0,0,0,0,0,16482,0,0,0,0,0,0,0,0,0,2.5,0
11560,-3.3423e-12,0,-1.61326e-06,-3.40794e-12,0,0,-1.13808e-13,0,0,-3.77231,0.291249,0.559607,0,0,0,0,0,0,0,234,-69,234,-69,349,-54,226,57,0,-0.375,3.13241,-1.5,2.51931e-09,0,0,2,0,0,0,0,0,0,0,0,16482,0,0,0,0,0,0,0,0,0,2.5,0
11576,-3.3423e-12,0,-1.61326e-06,-3.40794e-12,0,0,-1.13809e-13,0,0,-3.77231,0.291249,0.559607,0,0,0,0,0,0,0,234,-69,234,-69,349,-54,226,57,0,-0.375,3.1327,-1.5,2.51931e-09,0,0,2,0,0,0,0,0,0,0,0,16482,0,0,0,0,0,0,0,0,0,2.5,0
11592,-3.3423e-12,0,-1.61326e-06,-3.40794e-12,0,0,-1.13809e-13,0,0,-3.77231,0.291249,0.559607,0,0,0,0,0,0,0,234,-69,234,-69,349,-54,226,57,0,-0.375,3.13298,-1.5,2.51931e-09,0,0,2,0,0,0,0,0,0,0,0,16482,0,0,0,0,0,0,0,0,0,2.5,0
11608,-3.3423e-12,0,-1.61326e-06,-3.40794e-12,0,0,-1.1381e-13,0,0,-3.77231,0.291249,0.559607,0,0,0,0,0,0,0,234,-69,234,-69,349,-54,226,57,0,-0.375,3.13325,-1.5,2.51931e-09,0,0,2,0,0,0,0,0,0,0,0,16482,0,0,0,0,0,0,0,0,0,2.5,0
11624,-3.3423e-12,0,-1.61326e-06,-3.40794e-12,0,0,-1.13811e-13,0,0,-3.77231,0.291249,0.559607,0,0,0,0,0,0,0,234,-69,234,-69,349,-54,226,57,0,-0.375,3.1335,-1.5,2.51931e-09,0,0,2,0,0,0,0,0,0,0,0,16482,0,0,0,0,0,0,0,0,0,2.5,0
11639,-3.3423e-12,0,-1.61326e-06,-3.40794e-12,0,0,-1.13811e-13,0,0,-3.77231,0.291249,0.559607,0,0,0,0,0,0,0,234,-69,234,-69,349,-54,226,57,0,-0.375,3.13376,-1.5,2.51931e-09,0,0,2,0,0,0,0,0,0,0,0,16482,0,0,0,0,0,0,0,0,0,2.5,0
11655,-3.3423e-12,0,-1.61326e-06,-3.40794e-12,0,0,-1.13812e-13,0,0,-3.77231,0.291249,0.559607,0,0,0,0,0,0,0,234,-69,234,-69,349,-54,226,57,0,-0.375,3.13401,-1.5,2.51931e-09,0,0,2,0,0,0,0,0,0,0,0,16482,0,0,0,0,0,0,0,0,0,2.5,0
11668,-3.3423e-12,0,-1.61326e-06,-3.40794e-12,0,0,-1.13812e-13,0,0,-3.77231,0.291249,0.559607,0,0,0,0,0,0,0,234,-69,234,-69,349,-54,226,57,0,-0.375,3.1342,-1.5,2.51931e-09,0,0,2,0,0,0,0,0,0,0,0,16482,0,0,0,0,0,0,0,0,0,2.5,0
11683,-3.3423e-12,0,-1.61326e-06,-3.40794e-12,0,0,-1.13813e-13,0,0,-3.77231,0.291249,0.559607,0,0,0,0,0,0,0,234,-69,234,-69,349,-54,226,57,0,-0.375,3.13442,-1.5,2.51931e-09,0,0,2,0,0,0,0,0,0,0,0,16482,0,0,0,0,0,0,0,0,0,2.5,0
11697,-3.3423e-12,0,-1.61326e-06,-3.40794e-12,0,0,-1.13813e-13,0,0,-3.77231,0.291249,0.559607,0,0,0,0,0,0,0,234,-69,234,-69,349,-54,226,57,0,-0.375,3.13462,-1.5,2.51931e-09,0,0,2,0,0,0,0,0,0,0,0,16482,0,0,0,0,0,0,0,0,0,2.5,0
11713,-3.3423e-12,0,-1.61326e-06,-3.40794e-12,0,0,-1.13814e-13,0,0,-3.77231,0.291249,0.559607,0,0,0,0,0,0,0,234,-69,234,-69,349,-54,226,57,0,-0.375,3.13484,-1.5,2.51931e-09,0,0,2,0,0,0,0,0,0,0,0,16482,0,0,0,0,0,0,0,0,0,2.5,0
11728,-3.3423e-12,0,-1.61326e-06,-3.40794e-12,0,0,-1.13814e-13,0,0,-3.77231,0.291249,0.559607,0,0,0,0,0,0,0,234,-69,234,-69,349,-54,226,57,0,-0.375,3.13504,-1.5,2.51931e-09,0,0,2,0,0,0,0,0,0,0,0,16482,0,0,0,0,0,0,0,0,0,2.5,0
11744,-3.3423e-12,0,-1.61326e-06,-3.40794e-12,0,0,-1.13815e-13,0,0,-3.77231,0.291249,0.559607,0,0,0,0,0,0,0,234,-69,234,-69,349,-54,226,57,0,-0.375,3.13525,-1.5,2.51931e-09,0,0,2,0,0,0,0,0,0,0,0,16482,0,0,0,0,0,0,0,0,0,2.5,0
11760,-3.3423e-12,0,-1.61326e-06,-3.40794e-12,0,0,-1.13815e-13,0,0,-3.77231,0.291249,0.559607,0,0,0,0,0,0,0,234,-69,234,-69,349,-54,226,57,0,-0.375,3.13545,-1.5,2.51931e-09,0,0,2,0,0,0,0,0,0,0,0,16482,0,0,0,0,0,0,0,0,0,2.5,0
11775,-3.3423e-12,0,-1.61326e-06,-3.40794e-12,0,0,-1.13816e-13,0,0,-3.77231,0.291249,0.559607,0,0,0,0,0,0,0,234,-69,234,-69,349,-54,226,57,0,-0.375,3.13563,-1.5,2.51931e-09,0,0,2,0,0,0,0,0,0,0,0,16482,0,0,0,0,0,0,0,0,0,2.5,0
11791,-3.3423e-12,0,-1.61326e-06,-3.40794e-12,0,0,-1.13817e-13,0,0,-3.77231,0.291249,0.559607,0,0,0,0,0,0,0,234,-69,234,-69,349,-54,226,57,0,-0.375,3.13582,-1.5,2.51931e-09,0,0,2,0,0,0,0,0,0,0,0,16482,0,0,0,0,0,0,0,0,0,2.5,0
11806,-3.3423e-12,0,-1.61326e-06,-3.40794e-12,0,0,-1.13817e-13,0,0,-3.77231,0.291249,0.559607,0,0,0,0,0,0,0,234,-69,234,-69,349,-54,226,57,0,-0.375,3.13599,-1.5,2.51931e-09,0,0,2,0,0,0,0,0,0,0,0,16482,0,0,0,0,0,0,0,0,0,2.5,0
11822,-3.3423e-12,0,-1.61326e-06,-3.40794e-12,0,0,-1.13818e-13,0,0,-3.77231,0.291249,0.559607,0,0,0,0,0,0,0,234,-69,234,-69,349,-54,226,57,0,-0.375,3.13617,-1.5,2.51931e-09,0,0,2,0,0,0,0,0,0,0,0,16482,0,0,0,0,0,0,0,0,0,2.5,0
11839,-3.3423e-12,0,-1.61326e-06,-3.40794e-12,0,0,-1.13818e-13,0,0,-3.77231,0.291249,0.559607,0,0,0,0,0,0,0,234,-69,234,-69,349,-54,226,57,0,-0.375,3.13634,-1.5,2.51931e-09,0,0,2,0,0,0,0,0,0,0,0,16482,0,0,0,0,0,0,0,0,0,2.5,0
11855,-3.3423e-12,0,-1.61326e-06,-3.40794e-12,0,0,-1.13819e-13,0,0,-3.77231,0.291249,0.559607,0,0,0,0,0,0,0,234,-69,234,-69,349,-54,226,57,0,-0.375,3.1365,-1.5,2.51931e-09,0,0,2,0,0,0,0,0,0,0,0,16482,0,0,0,0,0,0,0,0,0,2.5,0
11870,-3.3423e-12,0,-1.61326e-06,-3.40794e-12,0,0,-1.13819e-13,0,0,-3.77231,0.291249,0.559607,0,0,0,0,0,0,0,234,-69,234,-69,349,-54,226,57,0,-0.375,3.13665,-1.5,2.51931e-09,0,0,2,0,0,0,0,0,0,0,0,16482,0,0,0,0,0,0,0,0,0,2.5,0
11886,-3.3423e-12,0,-1.61326e-06,-3.40794e-12,0,0,-1.1382e-13,0,0,-3.77231,0.291249,0.559607,0,0,0,0,0,0,0,234,-69,234,-69,349,-54,226,57,0,-0.375,3.13681,-1.5,2.51931e-09,0,0,2,0,0,0,0,0,0,0,0,16482,0,0,0,0,0,0,0,0,0,2.5,0
11901,-3.3423e-12,0,-1.61326e-06,-3.40794e-12,0,0,-1.1382e-13,0,0,-3.77231,0.291249,0.559607,0,0,0,0,0,0,0,234,-69,234,-69,349,-54,226,57,0,-0.375,3.13695,-1.5,2.51931e-09,0,0,2,0,0,0,0,0,0,0,0,16482,0,0,0,0,0,0,0,0,0,2.5,0
11918,-3.3423e-12,0,-1.61326e-06,-3.40794e-12,0,0,-1.13821e-13,0,0,-3.77231,0.291249,0.559607,0,0,0,0,0,0,0,234,-69,234,-69,349,-54,226,57,0,-0.375,3.13711,-1.5,2.51931e-09,0,0,2,0,0,0,0,0,0,0,0,16482,0,0,0,0,0,0,0,0,0,2.5,0
11933,-3.3423e-12,0,-1.61326e-06,-3.40794e-12,0,0,-1.13821e-13,0,0,-3.77231,0.291249,0.559607,0,0,0,0,0,0,0,234,-69,234,-69,349,-54,226,57,0,-0.375,3.13724,-1.5,2.51931e-09,0,0,2,0,0,0,0,0,0,0,0,16482,0,0,0,0,0,0,0,0,0,2.5,0
11952,-3.3423e-12,0,-1.61326e-06,-3.40794e-12,0,0,-1.13822e-13,0,0,-3.77231,0.291249,0.559607,0,0,0,0,0,0,0,234,-69,234,-69,349,-54,226,57,0,-0.375,3.1374,-1.5,2.51931e-09,0,0,2,0,0,0,0,0,0,0,0,16482,0,0,0,0,0,0,0,0,0,2.5,0
11966,-3.3423e-12,0,-1.61326e-06,-3.40794e-12,0,0,-1.13822e-13,0,0,-3.77231,0.291249,0.559607,0,0,0,0,0,0,0,234,-69,234,-69,349,-54,226,57,0,-0.375,3.13752,-1.5,2.51931e-09,0,0,2,0,0,0,0,0,0,0,0,16482,0,0,0,0,0,0,0,0,0,2.5,0
11980,-3.3423e-12,0,-1.61326e-06,-3.40794e-12,0,0,-1.13823e-13,0,0,-3.77231,0.291249,0.559607,0,0,0,0,0,0,0,234,-69,234,-69,349,-54,226,57,0,-0.375,3.13763,-1.5,2.51931e-09,0,0,2,0,0,0,0,0,0,0,0,16482,0,0,0,0,0,0,0,0,0,2.5,0
11995,-3.3423e-12,0,-1.61326e-06,-3.40794e-12,0,0,-1.13824e-13,0,0,-3.77231,0.291249,0.559607,0,0,0,0,0,0,0,234,-69,234,-69,349,-54,226,57,0,-0.375,3.13775,-1.5,2.51931e-09,0,0,2,0,0,0,0,0,0,0,0,16482,0,0,0,0,0,0,0,0,0,2.5,0
12011,-3.3423e-12,0,-1.61326e-06,-3.40794e-12,0,0,-1.13824e-13,0,0,-3.77231,0.291249,0.559607,0,0,0,0,0,0,0,234,-69,234,-69,349,-54,226,57,0,-0.375,3.13787,-1.5,2.51931e-09,0,0,2,0,0,0,0,0,0,0,0,16482,0,0,0,0,0,0,0,0,0,2.5,0
12027,-3.3423e-12,0,-1.61326e-06,-3.40794e-12,0,0,-1.13825e-13,0,0,-3.77231,0.291249,0.559607,0,0,0,0,0,0,0,234,-69,234,-69,349,-54,226,57,0,-0.375,3.13799,-1.5,2.51931e-09,0,0,2,0,0,0,0,0,0,0,0,16482,0,0,0,0,0,0,0,0,0,2.5,0
12042,-3.3423e-12,0,-1.61326e-06,-3.40794e-12,0,0,-1.13825e-13,0,0,-3.77231,0.291249,0.559607,0,0,0,0,0,0,0,234,-69,234,-69,349,-54,226,57,0,-0.375,3.1381,-1.5,2.51931e-09,0,0,2,0,0,0,0,0,0,0,0,16482,0,0,0,0,0,0,0,0,0,2.5,0
12057,-3.3423e-12,0,-1.61326e-06,-3.40794e-12,0,0,-1.13826e-13,0,0,-3.77231,0.291249,0.559607,0,0,0,0,0,0,0,234,-69,234,-69,349,-54,226,57,0,-0.375,3.1382,-1.5,2.51931e-09,0,0,2,0,0,0,0,0,0,0,0,16482,0,0,0,0,0,0,0,0,0,2.5,0
12073,-3.3423e-12,0,-1.61326e-06,-3.40794e-12,0,0,-1.13826e-13,0,0,-3.77231,0.291249,0.559607,0,0,0,0,0,0,0,234,-69,234,-69,349,-54,226,57,0,-0.375,3.13831,-1.5,2.51931e-09,0,0,2,0,0,0,0,0,0,0,0,16482,0,0,0,0,0,0,0,0,0,2.5,0
12090,-3.3423e-12,0,-1.61326e-06,-3.40794e-12,0,0,-1.13827e-13,0,0,-3.77231,0.291249,0.559607,0,0,0,0,0,0,0,234,-69,234,-69,349,-54,226,57,0,-0.375,3.13842,-1.5,2.51931e-09,0,0,2,0,0,0,0,0,0,0,0,16482,0,0,0,0,0,0,0,0,0,2.5,0
12106,-3.3423e-12,0,-1.61326e-06,-3.40794e-12,0,0,-1.13827e-13,0,0,-3.77231,0.291249,0.559607,0,0,0,0,0,0,0,234,-69,234,-69,349,-54,226,57,0,-0.375,3.13852,-1.5,2.51931e-09,0,0,2,0,0,0,0,0,0,0,0,16482,0,0,0,0,0,0,0,0,0,2.5,0
12122,-3.3423e-12,0,-1.61326e-06,-3.40794e-12,0,0,-1.13828e-13,0,0,-3.77231,0.291249,0.559607,0,0,0,0,0,0,0,234,-69,234,-69,349,-54,226,57,0,-0.375,3.13861,-1.5,2.51931e-09,0,0,2,0,0,0,0,0,0,0,0,16482,0,0,0,0,0,0,0,0,0,2.5,0
12137,-3.3423e-12,0,-1.61326e-06,-3.40794e-12,0,0,-1.13828e-13,0,0,-3.77231,0.291249,0.559607,0,0,0,0,0,0,0,234,-69,234,-69,349,-54,226,57,0,-0.375,3.1387,-1.5,2.51931e-09,0,0,2,0,0,0,0,0,0,0,0,16482,0,0,0,0,0,0,0,0,0,2.5,0
12153,-3.3423e-12,0,-1.61326e-06,-3.40794e-12,0,0,-1.13829e-13,0,0,-3.77231,0.291249,0.559607,0,0,0,0,0,0,0,234,-69,234,-69,349,-54,226,57,0,-0.375,3.13879,-1.5,2.51931e-09,0,0,2,0,0,0,0,0,0,0,0,16482,0,0,0,0,0,0,0,0,0,2.5,0
12168,-3.3423e-12,0,-1.61326e-06,-3.40794e-12,0,0,-1.1383e-13,0,0,-3.77231,0.291249,0.559607,0,0,0,0,0,0,0,234,-69,234,-69,349,-54,226,57,0,-0.375,3.13888,-1.5,2.51931e-09,0,0,2,0,0,0,0,0,0,0,0,16482,0,0,0,0,0,0,0,0,0,2.5,0
12184,-3.3423e-12,0,-1.61326e-06,-3.40794e-12,0,0,-1.1383e-13,0,0,-3.77231,0.291249,0.559607,0,0,0,0,0,0,0,234,-69,234,-69,349,-54,226,57,0,-0.375,3.13896,-1.5,2.51931e-09,0,0,2,0,0,0,0,0,0,0,0,16482,0,0,0,0,0,0,0,0,0,2.5,0
12200,-3.3423e-12,0,-1.61326e-06,-3.40794e-12,0,0,-1.13831e-13,0,0,-3.77231,0.291249,0.559607,0,0,0,0,0,0,0,234,-69,234,-69,349,-54,226,57,0,-0.375,3.13904,-1.5,2.51931e-09,0,0,2,0,0,0,0,0,0,0,0,16482,0,0,0,0,0,0,0,0,0,2.5,0
12216,-3.3423e-12,0,-1.61326e-06,-3.40794e-12,0,0,-1.13831e-13,0,0,-3.77231,0.291249,0.559607,0,0,0,0,0,0,0,234,-69,234,-69,349,-54,226,57,0,-0.375,3.13913,-1.5,2.51931e-09,0,0,2,0,0,0,0,0,0,0,0,16482,0,0,0,0,0,0,0,0,0,2.5,0
12232,-3.3423e-12,0,-1.61326e-06,-3.40794e-12,0,0,-1.13832e-13,0,0,-3.77231,0.291249,0.559607,0,0,0,0,0,0,0,234,-69,234,-69,349,-54,226,57,0,-0.375,3.1392,-1.5,2.51931e-09,0,0,2,0,0,0,0,0,0,0,0,16482,0,0,0,0,0,0,0,0,0,2.5,0
12246,-3.3423e-12,0,-1.61326e-06,-3.40794e-12,0,0,-1.13832e-13,0,0,-3.77231,0.291249,0.559607,0,0,0,0,0,0,0,234,-69,234,-69,349,-54,226,57,0,-0.375,3.13927,-1.5,2.51931e-09,0,0,2,0,0,0,0,0,0,0,0,16482,0,0,0,0,0,0,0,0,0,2.5,0
12259,-3.3423e-12,0,-1.61326e-06,-3.40794e-12,0,0,-1.13833e-13,0,0,-3.77231,0.291249,0.559607,0,0,0,0,0,0,0,234,-69,234,-69,349,-54,226,57,0,-0.375,3.13933,-1.5,2.51931e-09,0,0,2,0,0,0,0,0,0,0,0,16482,0,0,0,0,0,0,0,0,0,2.5,0
12275,-3.3423e-12,0,-1.61326e-06,-3.40794e-12,0,0,-1.13833e-13,0,0,-3.77231,0.291249,0.559607,0,0,0,0,0,0,0,234,-69,234,-69,349,-54,226,57,0,-0.375,3.1394,-1.5,2.51931e-09,0,0,2,0,0,0,0,0,0,0,0,16482,0,0,0,0,0,0,0,0,0,2.5,0
12290,-3.3423e-12,0,-1.61326e-06,-3.40794e-12,0,0,-1.13834e-13,0,0,-3.77231,0.291249,0.559607,0,0,0,0,0,0,0,234,-69,234,-69,349,-54,226,57,0,-0.375,3.13947,-1.5,2.51931e-09,0,0,2,0,0,0,0,0,0,0,0,16482,0,0,0,0,0,0,0,0,0,2.5,0
12305,-3.3423e-12,0,-1.61326e-06,-3.40794e-12,0,0,-1.13834e-13,0,0,-3.77231,0.291249,0.559607,0,0,0,0,0,0,0,234,-69,234,-69,349,-54,226,57,0,-0.375,3.13953,-1.5,2.51931e-09,0,0,2,0,0,0,0,0,0,0,0,16482,0,0,0,0,0,0,0,0,0,2.5,0
12321,-3.3423e-12,0,-1.61326e-06,-3.40794e-12,0,0,-1.13835e-13,0,0,-3.77231,0.291249,0.559607,0,0,0,0,0,0,0,234,-69,234,-69,349,-54,226,57,0,-0.375,3.1396,-1.5,2.51931e-09,0,0,2,0,0,0,0,0,0,0,0,16482,0,0,0,0,0,0,0,0,0,2.5,0
12338,-3.3423e-12,0,-1.61326e-06,-3.40794e-12,0,0,-1.13835e-13,0,0,-3.77231,0.291249,0.559607,0,0,0,0,0,0,0,234,-69,234,-69,349,-54,226,57,0,-0.375,3.13966,-1.5,2.51931e-09,0,0,2,0,0,0,0,0,0,0,0,16482,0,0,0,0,0,0,0,0,0,2.5,0
12353,-3.3423e-12,0,-1.61326e-06,-3.40794e-12,0,0,-1.13836e-13,0,0,-3.77231,0.291249,0.559607,0,0,0,0,0,0,0,234,-69,234,-69,349,-54,226,57,0,-0.375,3.13972,-1.5,2.51931e-09,0,0,2,0,0,0,0,0,0,0,0,16482,0,0,0,0,0,0,0,0,0,2.5,0
12368,-3.3423e-12,0,-1.61326e-06,-3.40794e-12,0,0,-1.13837e-13,0,0,-3.77231,0.291249,0.559607,0,0,0,0,0,0,0,234,-69,234,-69,349,-54,226,57,0,-0.375,3.13978,-1.5,2.51931e-09,0,0,2,0,0,0,0,0,0,0,0,16482,0,0,0,0,0,0,0,0,0,2.5,0
12384,-3.3423e-12,0,-1.61326e-06,-3.40794e-12,0,0,-1.13837e-13,0,0,-3.77231,0.291249,0.559607,0,0,0,0,0,0,0,234,-69,234,-69,349,-54,226,57,0,-0.375,3.13983,-1.5,2.51931e-09,0,0,2,0,0,0,0,0,0,0,0,16482,0,0,0,0,0,0,0,0,0,2.5,0
12399,-3.3423e-12,0,-1.61326e-06,-3.40794e-12,0,0,-1.13838e-13,0,0,-3.77231,0.291249,0.559607,0,0,0,0,0,0,0,234,-69,234,-69,349,-54,226,57,0,-0.375,3.13989,-1.5,2.51931e-09,0,0,2,0,0,0,0,0,0,0,0,16482,0,0,0,0,0,0,0,0,0,2.5,0
12415,-3.3423e-12,0,-1.61326e-06,-3.40794e-12,0,0,-1.13838e-13,0,0,-3.77231,0.291249,0.559607,0,0,0,0,0,0,0,234,-69,234,-69,349,-54,226,57,0,-0.375,3.13994,-1.5,2.51931e-09,0,0,2,0,0,0,0,0,0,0,0,16482,0,0,0,0,0,0,0,0,0,2.5,0
12430,-3.3423e-12,0,-1.61326e-06,-3.40794e-12,0,0,-1.13839e-13,0,0,-3.77231,0.291249,0.559607,0,0,0,0,0,0,0,234,-69,234,-69,349,-54,226,57,0,-0.375,3.13999,-1.5,2.51931e-09,0,0,2,0,0,0,0,0,0,0,0,16482,0,0,0,0,0,0,0,0,0,2.5,0
12446,-3.3423e-12,0,-1.61326e-06,-3.40794e-12,0,0,-1.13839e-13,0,0,-3.77231,0.291249,0.559607,0,0,0,0,0,0,0,234,-69,234,-69,349,-54,226,57,0,-0.375,3.14004,-1.5,2.51931e-09,0,0,2,0,0,0,0,0,0,0,0,16482,0,0,0,0,0,0,0,0,0,2.5,0
12461,-3.3423e-12,0,-1.61326e-06,-3.40794e-12,0,0,-1.1384e-13,0,0,-3.77231,0.291249,0.559607,0,0,0,0,0,0,0,234,-69,234,-69,349,-54,226,57,0,-0.375,3.14008,-1.5,2.51931e-09,0,0,2,0,0,0,0,0,0,0,0,16482,0,0,0,0,0,0,0,0,0,2.5,0
12478,-3.3423e-12,0,-1.61326e-06,-3.40794e-12,0,0,-1.1384e-13,0,0,-3.77231,0.291249,0.559607,0,0,0,0,0,0,0,234,-69,234,-69,349,-54,226,57,0,-0.375,3.14014,-1.5,2.51931e-09,0,0,2,0,0,0,0,0,0,0,0,16482,0,0,0,0,0,0,0,0,0,2.5,0
12493,-3.3423e-12,0,-1.61326e-06,-3.40794e-12,0,0,-1.13841e-13,0,0,-3.77231,0.291249,0.559607,0,0,0,0,0,0,0,234,-69,234,-69,349,-54,226,57,0,-0.375,3.14018,-1.5,2.51931e-09,0,0,2,0,0,0,0,0,0,0,0,16482,0,0,0,0,0,0,0,0,0,2.5,0
12509,-3.3423e-12,0,-1.61326e-06,-3.40794e-12,0,0,-1.13841e-13,0,0,-3.77231,0.291249,0.559607,0,0,0,0,0,0,0,234,-69,234,-69,349,-54,226,57,0,-0.375,3.14022,-1.5,2.51931e-09,0,0,2,0,0,0,0,0,0,0,0,16482,0,0,0,0,0,0,0,0,0,2.5,0
12522,-3.3423e-12,0,-1.61326e-06,-3.40794e-12,0,0,-1.13842e-13,0,0,-3.77231,0.291249,0.559607,0,0,0,0,0,0,0,234,-69,234,-69,349,-54,226,57,0,-0.375,3.14026,-1.5,2.51931e-09,0,0,2,0,0,0,0,0,0,0,0,16482,0,0,0,0,0,0,0,0,0,2.5,0
12535,-3.3423e-12,0,-1.61326e-06,-3.40794e-12,0,0,-1.13843e-13,0,0,-3.77231,0.291249,0.559607,0,0,0,0,0,0,0,234,-69,234,-69,349,-54,226,57,0,-0.375,3.14029,-1.5,2.51931e-09,0,0,2,0,0,0,0,0,0,0,0,16482,0,0,0,0,0,0,0,0,0,2.5,0
12551,-3.3423e-12,0,-1.61326e-06,-3.40794e-12,0,0,-1.13843e-13,0,0,-3.77231,0.291249,0.559607,0,0,0,0,0,0,0,234,-69,234,-69,349,-54,226,57,0,-0.375,3.14033,-1.5,2.51931e-09,0,0,2,0,0,0,0,0,0,0,0,16482,0,0,0,0,0,0,0,0,0,2.5,0
12567,-3.3423e-12,0,-1.61326e-06,-3.40794e-12,0,0,-1.13844e-13,0,0,-3.77231,0.291249,0.559607,0,0,0,0,0,0,0,234,-69,234,-69,349,-54,226,57,0,-0.375,3.14037,-1.5,2.51931e-09,0,0,2,0,0,0,0,0,0,0,0,16482,0,0,0,0,0,0,0,0,0,2.5,0
12584,-3.3423e-12,0,-1.61326e-06,-3.40794e-12,0,0,-1.13844e-13,0,0,-3.77231,0.291249,0.559607,0,0,0,0,0,0,0,234,-69,234,-69,349,-54,226,57,0,-0.375,3.14041,-1.5,2.51931e-09,0,0,2,0,0,0,0,0,0,0,0,16482,0,0,0,0,0,0,0,0,0,2.5,0
12600,-3.3423e-12,0,-1.61326e-06,-3.40794e-12,0,0,-1.13845e-13,0,0,-3.77231,0.291249,0.559607,0,0,0,0,0,0,0,234,-69,234,-69,349,-54,226,57,0,-0.375,3.14045,-1.5,2.51931e-09,0,0,2,0,0,0,0,0,0,0,0,16482,0,0,0,0,0,0,0,0,0,2.5,0
12616,-3.3423e-12,0,-1.61326e-06,-3.40794e-12,0,0,-1.13845e-13,0,0,-3.77231,0.291249,0.559607,0,0,0,0,0,0,0,234,-69,234,-69,349,-54,226,57,0,-0.375,3.14048,-1.5,2.51931e-09,0,0,2,0,0,0,0,0,0,0,0,16482,0,0,0,0,0,0,0,0,0,2.5,0
12631,-3.3423e-12,0,-1.61326e-06,-3.40794e-12,0,0,-1.13846e-13,0,0,-3.77231,0.291249,0.559607,0,0,0,0,0,0,0,234,-69,234,-69,349,-54,226,57,0,-0.375,3.14052,-1.5,2.51931e-09,0,0,2,0,0,0,0,0,0,0,0,16482,0,0,0,0,0,0,0,0,0,2.5,0
12647,-3.3423e-12,0,-1.61326e-06,-3.40794e-12,0,0,-1.13846e-13,0,0,-3.77231,0.291249,0.559607,0,0,0,0,0,0,0,234,-69,234,-69,349,-54,226,57,0,-0.375,3.14055,-1.5,2.51931e-09,0,0,2,0,0,0,0,0,0,0,0,16482,0,0,0,0,0,0,0,0,0,2.5,0
12662,-3.3423e-12,0,-1.61326e-06,-3.40794e-12,0,0,-1.13847e-13,0,0,-3.77231,0.291249,0.559607,0,0,0,0,0,0,0,234,-69,234,-69,349,-54,226,57,0,-0.375,3.14058,-1.5,2.51931e-09,0,0,2,0,0,0,0,0,0,0,0,16482,0,0,0,0,0,0,0,0,0,2.5,0
