timestamp,A_x,A_y,A_z,P,Q,R,Phi,Theta,Psi,poseX,poseY,poseZ,state_X,state_Y,state_Z,state_VzB,state_Bx,state_By,state_Bz,p1_x,p1_y,p2_x,p2_y,p3_x,p3_y,p4_x,p4_y,roll,pitch,yaw,alt,targetHeading,highLevelState,lowLevelState,gateNumber,filtered_x,filtered_y,x_OT,y_OT,vx_OT,vy_OT,filtered_vx,filtered_vygateArearansac_corr_x,ransac_corr_y,ransac_corr_vx,ransac_corr_vy
10,0,0,0,0,0,0,0,0,0,0,0,0,0,0,0,0,0,0,0,0,0,0,0,0,0,0,0,0,-0.261799,0.00779127,-1.5,nan,0,0,3,0,0,0,0,0,0,0,0,1.9603e-19,0,0,0,0
20,0,0,0,0,0,0,0,0,0,0,0,0,0,0,0,0,0,0,0,0,0,0,0,0,0,0,0,0,-0.261799,0.00751401,-1.5,nan,0,0,3,0,0,0,0,0,0,0,0,1.9603e-19,0,0,0,0
30,-3.21239e-12,1.41218e-38,-1.56576e-06,-3.27827e-12,1.41206e-38,-3.40903e-12,-1.06589e-13,0,0,0,0,0,0,0,0,0,0,0,0,0,0,0,0,0,0,0,0,0,-0.261799,-0.00159401,-1.5,nan,0,0,3,0,0,0,0,0,0,0,0,1.9603e-19,0,0,0,0
40,-3.21239e-12,1.41218e-38,-1.56576e-06,-3.27827e-12,1.41206e-38,0,-1.0659e-13,0,0,0,0,0,0,0,0,0,0,0,0,0,0,0,0,0,0,0,0,0,-0.261799,-0.00154042,-1.5,nan,0,0,3,0,0,0,0,0,0,0,0,1.9603e-19,0,0,0,0
50,-3.21239e-12,1.41218e-38,-1.56576e-06,-3.27827e-12,1.41206e-38,-3.40903e-12,-1.0659e-13,0,0,0,0,0,0,0,0,0,0,0,0,0,0,0,0,0,0,0,0,0,-0.261799,-0.00148867,-1.5,nan,0,0,3,0,0,0,0,0,0,0,0,1.9603e-19,0,0,0,0
60,-3.21239e-12,1.41218e-38,-1.56576e-06,-3.27827e-12,1.41206e-38,0,-1.0659e-13,0,0,0,0,0,0,0,0,0,0,0,0,0,0,0,0,0,0,0,0,0,-0.261799,-0.00144155,-1.5,nan,0,0,3,0,0,0,0,0,0,0,0,1.9603e-19,0,0,0,0
70,-3.21239e-12,1.41218e-38,-1.56576e-06,-3.27827e-12,1.41206e-38,-3.40903e-12,-1.0659e-13,0,0,0,0,0,0,0,0,0,0,0,0,0,0,0,0,0,0,0,0,0,-0.261799,-0.00139312,-1.5,nan,0,0,3,0,0,0,0,0,0,0,0,1.9603e-19,0,0,0,0
80,-3.21239e-12,1.41218e-38,-1.56576e-06,-3.27827e-12,1.41206e-38,0,-1.06591e-13,0,0,0,0,0,0,0,0,0,0,0,0,0,0,0,0,0,0,0,0,0,-0.261799,-0.00134903,-1.5,nan,0,0,3,0,0,0,0,0,0,0,0,1.9603e-19,0,0,0,0
90,-3.21239e-12,1.41218e-38,-1.56576e-06,-3.27827e-12,1.41206e-38,-3.40903e-12,-1.06591e-13,0,0,0,0,0,0,0,0,0,0,0,0,0,0,0,0,0,0,0,0,0,-0.261799,-0.00130371,-1.5,nan,0,0,3,0,0,0,0,0,0,0,0,1.9603e-19,0,0,0,0
100,-3.21239e-12,1.41218e-38,-1.56576e-06,-3.27827e-12,1.41206e-38,0,-1.06591e-13,0,0,0,0,0,0,0,0,0,0,0,0,0,0,0,0,0,0,0,0,0,-0.261799,-0.00126245,-1.5,nan,0,0,3,0,0,0,0,0,0,0,0,1.9603e-19,0,0,0,0
110,-3.21239e-12,1.41218e-38,-1.56576e-06,-3.27827e-12,1.41206e-38,-3.40903e-12,-1.06591e-13,0,0,0,0,0,0,0,0,0,0,0,0,0,0,0,0,0,0,0,0,0,-0.261799,-0.0011405,-1.5,nan,0,0,3,0,0,0,0,0,0,0,0,1.9603e-19,0,0,0,0
120,-3.21239e-12,1.41218e-38,-1.56576e-06,-3.27827e-12,1.41206e-38,0,-1.06592e-13,0,0,0,0,0,0,0,0,0,0,0,0,0,0,0,0,0,0,0,0,0,-0.261799,-0.0010393,-1.5,nan,0,0,3,0,0,0,0,0,0,0,0,1.9603e-19,0,0,0,0
130,-3.21239e-12,1.41218e-38,-1.56576e-06,-3.27827e-12,1.41206e-38,-3.40903e-12,-1.06592e-13,0,0,0,0,0,0,0,0,0,0,0,0,0,0,0,0,0,0,0,0,0,-0.261799,-0.000830493,-1.5,nan,0,0,3,0,0,0,0,0,0,0,0,1.9603e-19,0,0,0,0
140,-3.21239e-12,1.41218e-38,-1.56576e-06,-3.27827e-12,1.41206e-38,0,-1.06592e-13,0,0,0,0,0,0,0,0,0,0,0,0,0,0,0,0,0,0,0,0,0,-0.261799,-0.000707769,-1.5,nan,0,0,3,0,0,0,0,0,0,0,0,1.9603e-19,0,0,0,0
150,-3.21239e-12,1.41218e-38,-1.56576e-06,-3.27827e-12,1.41206e-38,-3.40903e-12,-1.06593e-13,0,0,0,0,0,0,0,0,0,0,0,0,0,0,0,0,0,0,0,0,0,-0.261799,-0.000683992,-1.5,nan,0,0,3,0,0,0,0,0,0,0,0,1.9603e-19,0,0,0,0
160,-3.21239e-12,1.41218e-38,-1.56576e-06,-3.27827e-12,1.41206e-38,0,-1.06593e-13,0,0,0,0,0,0,0,0,0,0,0,0,0,0,0,0,0,0,0,0,0,-0.261799,-0.000658305,-1.5,nan,0,0,3,0,0,0,0,0,0,0,0,1.9603e-19,0,0,0,0
170,-3.21239e-12,1.41218e-38,-1.56576e-06,-3.27827e-12,1.41206e-38,-3.40903e-12,-1.06593e-13,0,0,0,0,0,0,0,0,0,0,0,0,0,0,0,0,0,0,0,0,0,-0.261799,-0.000624552,-1.5,nan,0,0,3,0,0,0,0,0,0,0,0,1.9603e-19,0,0,0,0
180,-3.21239e-12,1.41218e-38,-1.56576e-06,-3.27827e-12,1.41206e-38,0,-1.06593e-13,0,0,0,0,0,0,0,0,0,0,0,0,0,0,0,0,0,0,0,0,0,-0.261799,-0.000571675,-1.5,nan,0,0,3,0,0,0,0,0,0,0,0,1.9603e-19,0,0,0,0
190,-3.21239e-12,1.41218e-38,-1.56576e-06,-3.27827e-12,1.41206e-38,-3.40903e-12,-1.06594e-13,0,0,0,0,0,0,0,0,0,0,0,0,0,0,0,0,0,0,0,0,0,-0.261799,-0.00055247,-1.5,nan,0,0,3,0,0,0,0,0,0,0,0,1.9603e-19,0,0,0,0
200,-3.21239e-12,1.41218e-38,-1.56576e-06,-3.27827e-12,1.41206e-38,0,-1.06594e-13,0,0,0,0,0,0,0,0,0,0,0,0,0,0,0,0,0,0,0,0,0,-0.261799,-0.000525198,-1.5,nan,0,0,3,0,0,0,0,0,0,0,0,1.9603e-19,0,0,0,0
210,-3.21239e-12,1.41218e-38,-1.56576e-06,-3.27827e-12,1.41206e-38,-3.40903e-12,-1.06594e-13,0,0,0,0,0,0,0,0,0,0,0,0,0,0,0,0,0,0,0,0,0,-0.261799,-0.00047343,-1.5,nan,0,0,3,0,0,0,0,0,0,0,0,1.9603e-19,0,0,0,0
220,-3.21239e-12,1.41218e-38,-1.56576e-06,-3.27827e-12,1.41206e-38,0,-1.06594e-13,0,0,0,0,0,0,0,0,0,0,0,0,0,0,0,0,0,0,0,0,0,-0.261799,-0.000459385,-1.5,nan,0,0,3,0,0,0,0,0,0,0,0,1.9603e-19,0,0,0,0
230,-3.21239e-12,1.41218e-38,-1.56576e-06,-3.27827e-12,1.41206e-38,-3.40903e-12,-1.06595e-13,0,0,0,0,0,0,0,0,0,0,0,0,0,0,0,0,0,0,0,0,0,-0.261799,-0.00044666,-1.5,nan,0,0,3,0,0,0,0,0,0,0,0,1.9603e-19,0,0,0,0
240,-3.21239e-12,1.41218e-38,-1.56576e-06,-3.27827e-12,1.41206e-38,0,-1.06595e-13,0,0,0,0,0,0,0,0,0,0,0,0,0,0,0,0,0,0,0,0,0,-0.261799,-0.0004299,-1.5,nan,0,0,3,0,0,0,0,0,0,0,0,1.9603e-19,0,0,0,0
250,-3.21239e-12,1.41218e-38,-1.56576e-06,-3.27827e-12,1.41206e-38,-3.40903e-12,-1.06595e-13,0,0,0,0,0,0,0,0,0,0,0,0,0,0,0,0,0,0,0,0,0,-0.261799,-0.000415457,-1.5,nan,0,0,3,0,0,0,0,0,0,0,0,1.9603e-19,0,0,0,0
260,-3.21239e-12,1.41218e-38,-1.56576e-06,-3.27827e-12,1.41206e-38,0,-1.06596e-13,0,0,0,0,0,0,0,0,0,0,0,0,0,0,0,0,0,0,0,0,0,-0.261799,-0.0004015,-1.5,nan,0,0,3,0,0,0,0,0,0,0,0,1.9603e-19,0,0,0,0
270,-3.21239e-12,1.41218e-38,-1.56576e-06,-3.27827e-12,1.41206e-38,-3.40903e-12,-1.06596e-13,0,0,0,0,0,0,0,0,0,0,0,0,0,0,0,0,0,0,0,0,0,-0.261799,-0.000388012,-1.5,nan,0,0,3,0,0,0,0,0,0,0,0,1.9603e-19,0,0,0,0
280,-3.21239e-12,1.41218e-38,-1.56576e-06,-3.27827e-12,1.41206e-38,0,-1.06596e-13,0,0,0,0,0,0,0,0,0,0,0,0,0,0,0,0,0,0,0,0,0,-0.261799,-0.000374215,-1.5,nan,0,0,3,0,0,0,0,0,0,0,0,1.9603e-19,0,0,0,0
290,-3.21239e-12,1.41218e-38,-1.56576e-06,-3.27827e-12,1.41206e-38,-3.40903e-12,-1.06596e-13,0,0,0,0,0,0,0,0,0,0,0,0,0,0,0,0,0,0,0,0,0,-0.261799,-0.000361644,-1.5,nan,0,0,3,0,0,0,0,0,0,0,0,1.9603e-19,0,0,0,0
300,-3.21239e-12,1.41218e-38,-1.56576e-06,-3.27827e-12,1.41206e-38,0,-1.06597e-13,0,0,0,0,0,0,0,0,0,0,0,0,0,0,0,0,0,0,0,0,0,-0.261799,-0.000349495,-1.5,nan,0,0,3,0,0,0,0,0,0,0,0,1.9603e-19,0,0,0,0
310,-3.21239e-12,1.41218e-38,-1.56576e-06,-3.27827e-12,1.41206e-38,-3.40903e-12,-1.06597e-13,0,0,0,0,0,0,0,0,0,0,0,0,0,0,0,0,0,0,0,0,0,-0.261799,-0.000337057,-1.5,nan,0,0,3,0,0,0,0,0,0,0,0,1.9603e-19,0,0,0,0
320,-3.21239e-12,1.41218e-38,-1.56576e-06,-3.27827e-12,1.41206e-38,0,-1.06597e-13,0,0,0,0,0,0,0,0,0,0,0,0,0,0,0,0,0,0,0,0,0,-0.261799,-0.000325072,-1.5,nan,0,0,3,0,0,0,0,0,0,0,0,1.9603e-19,0,0,0,0
330,-3.21239e-12,1.41218e-38,-1.56576e-06,-3.27827e-12,1.41206e-38,-3.40903e-12,-1.06597e-13,0,0,0,0,0,0,0,0,0,0,0,0,0,0,0,0,0,0,0,0,0,-0.261799,-0.000314152,-1.5,nan,0,0,3,0,0,0,0,0,0,0,0,1.9603e-19,0,0,0,0
340,-3.21239e-12,1.41218e-38,-1.56576e-06,-3.27827e-12,1.41206e-38,0,-1.06598e-13,0,0,0,0,0,0,0,0,0,0,0,0,0,0,0,0,0,0,0,0,0,-0.261799,-0.000303598,-1.5,nan,0,0,3,0,0,0,0,0,0,0,0,1.9603e-19,0,0,0,0
350,-3.21239e-12,1.41218e-38,-1.56576e-06,-3.27827e-12,1.41206e-38,-3.40903e-12,-1.06598e-13,0,0,0,0,0,0,0,0,0,0,0,0,0,0,0,0,0,0,0,0,0,-0.261799,-0.000292206,-1.5,nan,0,0,3,0,0,0,0,0,0,0,0,1.9603e-19,0,0,0,0
360,-3.21239e-12,1.41218e-38,-1.56576e-06,-3.27827e-12,1.41206e-38,0,-1.06598e-13,0,0,0,0,0,0,0,0,0,0,0,0,0,0,0,0,0,0,0,0,0,-0.261799,-0.000282383,-1.5,nan,0,0,3,0,0,0,0,0,0,0,0,1.9603e-19,0,0,0,0
370,-3.21239e-12,1.41218e-38,-1.56576e-06,-3.27827e-12,1.41206e-38,-3.40903e-12,-1.06599e-13,0,0,0,0,0,0,0,0,0,0,0,0,0,0,0,0,0,0,0,0,0,-0.261799,-0.00027289,-1.5,nan,0,0,3,0,0,0,0,0,0,0,0,1.9603e-19,0,0,0,0
380,-3.21239e-12,1.41218e-38,-1.56576e-06,-3.27827e-12,1.41206e-38,0,-1.06599e-13,0,0,0,0,0,0,0,0,0,0,0,0,0,0,0,0,0,0,0,0,0,-0.261799,-0.000263716,-1.5,nan,0,0,3,0,0,0,0,0,0,0,0,1.9603e-19,0,0,0,0
390,-3.21239e-12,1.41218e-38,-1.56576e-06,-3.27827e-12,1.41206e-38,-3.40903e-12,-1.06599e-13,0,0,0,0,0,0,0,0,0,0,0,0,0,0,0,0,0,0,0,0,0,-0.261799,-0.00025382,-1.5,nan,0,0,3,0,0,0,0,0,0,0,0,1.9603e-19,0,0,0,0
400,-3.21239e-12,1.41218e-38,-1.56576e-06,-3.27827e-12,1.41206e-38,0,-1.06599e-13,0,0,0,0,0,0,0,0,0,0,0,0,0,0,0,0,0,0,0,0,0,-0.261799,-0.000245293,-1.5,nan,0,0,3,0,0,0,0,0,0,0,0,1.9603e-19,0,0,0,0
410,-3.21239e-12,1.41218e-38,-1.56576e-06,-3.27827e-12,1.41206e-38,-3.40903e-12,-1.066e-13,0,0,0,0,0,0,0,0,0,0,0,0,0,0,0,0,0,0,0,0,0,-0.261799,-0.000237535,-1.5,nan,0,0,3,0,0,0,0,0,0,0,0,1.9603e-19,0,0,0,0
420,-3.21239e-12,1.41218e-38,-1.56576e-06,-3.27827e-12,1.41206e-38,0,-1.066e-13,0,0,0,0,0,0,0,0,0,0,0,0,0,0,0,0,0,0,0,0,0,-0.261799,-0.000231419,-1.5,nan,0,0,3,0,0,0,0,0,0,0,0,1.9603e-19,0,0,0,0
430,-3.21239e-12,1.41218e-38,-1.56576e-06,-3.27827e-12,1.41206e-38,-3.40903e-12,-1.066e-13,0,0,0,0,0,0,0,0,0,0,0,0,0,0,0,0,0,0,0,0,0,-0.261799,-0.000223645,-1.5,nan,0,0,3,0,0,0,0,0,0,0,0,1.9603e-19,0,0,0,0
440,-3.21239e-12,1.41218e-38,-1.56576e-06,-3.27827e-12,1.41206e-38,0,-1.066e-13,0,0,0,0,0,0,0,0,0,0,0,0,0,0,0,0,0,0,0,0,0,-0.261799,-0.000217007,-1.5,nan,0,0,3,0,0,0,0,0,0,0,0,1.9603e-19,0,0,0,0
450,-3.21239e-12,1.41218e-38,-1.56576e-06,-3.27827e-12,1.41206e-38,-3.40903e-12,-1.06601e-13,0,0,0,0,0,0,0,0,0,0,0,0,0,0,0,0,0,0,0,0,0,-0.261799,-0.000209711,-1.5,nan,0,0,3,0,0,0,0,0,0,0,0,1.9603e-19,0,0,0,0
460,-3.21239e-12,1.41218e-38,-1.56576e-06,-3.27827e-12,1.41206e-38,0,-1.06601e-13,0,0,0,0,0,0,0,0,0,0,0,0,0,0,0,0,0,0,0,0,0,-0.261799,-0.000202661,-1.5,nan,0,0,3,0,0,0,0,0,0,0,0,1.9603e-19,0,0,0,0
470,-3.21239e-12,1.41218e-38,-1.56576e-06,-3.27827e-12,1.41206e-38,-3.40903e-12,-1.06601e-13,0,0,0,0,0,0,0,0,0,0,0,0,0,0,0,0,0,0,0,0,0,-0.261799,-0.000195057,-1.5,nan,0,0,3,0,0,0,0,0,0,0,0,1.9603e-19,0,0,0,0
480,-3.21239e-12,1.41218e-38,-1.56576e-06,-3.27827e-12,1.41206e-38,0,-1.06602e-13,0,0,0,0,0,0,0,0,0,0,0,0,0,0,0,0,0,0,0,0,0,-0.261799,-0.0001885,-1.5,nan,0,0,3,0,0,0,0,0,0,0,0,1.9603e-19,0,0,0,0
490,-3.21239e-12,1.41218e-38,-1.56576e-06,-3.27827e-12,1.41206e-38,-3.40903e-12,-1.06602e-13,0,0,0,0,0,0,0,0,0,0,0,0,0,0,0,0,0,0,0,0,0,-0.261799,-0.000182163,-1.5,nan,0,0,3,0,0,0,0,0,0,0,0,1.9603e-19,0,0,0,0
500,-3.21239e-12,1.41218e-38,-1.56576e-06,-3.27827e-12,1.41206e-38,0,-1.06602e-13,0,0,0,0,0,0,0,0,0,0,0,0,0,0,0,0,0,0,0,0,0,-0.261799,-0.000176043,-1.5,nan,0,0,3,0,0,0,0,0,0,0,0,1.9603e-19,0,0,0,0
510,-3.21239e-12,1.41218e-38,-1.56576e-06,-3.27827e-12,1.41206e-38,-3.40903e-12,-1.06602e-13,0,0,0,0,0,0,0,0,0,0,0,0,0,0,0,0,0,0,0,0,0,-0.261799,-0.000169437,-1.5,nan,0,0,3,0,0,0,0,0,0,0,0,1.9603e-19,0,0,0,0
520,-3.21239e-12,1.41218e-38,-1.56576e-06,-3.27827e-12,1.41206e-38,0,-1.06603e-13,0,0,0,0,0,0,0,0,0,0,0,0,0,0,0,0,0,0,0,0,0,-0.261799,-0.000163741,-1.5,nan,0,0,3,0,0,0,0,0,0,0,0,1.9603e-19,0,0,0,0
530,-3.21239e-12,1.41218e-38,-1.56576e-06,-3.27827e-12,1.41206e-38,-3.40903e-12,-1.06603e-13,0,0,0,0,0,0,0,0,0,0,0,0,0,0,0,0,0,0,0,0,0,-0.261799,-0.000158237,-1.5,nan,0,0,3,0,0,0,0,0,0,0,0,1.9603e-19,0,0,0,0
540,-3.21239e-12,1.41218e-38,-1.56576e-06,-3.27827e-12,1.41206e-38,0,-1.06603e-13,0,0,0,0,0,0,0,0,0,0,0,0,0,0,0,0,0,0,0,0,0,-0.261799,-0.000152299,-1.5,nan,0,0,3,0,0,0,0,0,0,0,0,1.9603e-19,0,0,0,0
550,-3.21239e-12,1.41218e-38,-1.56576e-06,-3.27827e-12,1.41206e-38,-3.40903e-12,-1.06603e-13,0,0,0,0,0,0,0,0,0,0,0,0,0,0,0,0,0,0,0,0,0,-0.261799,-0.000147183,-1.5,nan,0,0,3,0,0,0,0,0,0,0,0,1.9603e-19,0,0,0,0
560,-3.21239e-12,1.41218e-38,-1.56576e-06,-3.27827e-12,1.41206e-38,0,-1.06604e-13,0,0,0,0,0,0,0,0,0,0,0,0,0,0,0,0,0,0,0,0,0,-0.261799,-0.000142524,-1.5,nan,0,0,3,0,0,0,0,0,0,0,0,1.9603e-19,0,0,0,0
570,-3.21239e-12,1.41218e-38,-1.56576e-06,-3.27827e-12,1.41206e-38,-3.40903e-12,-1.06604e-13,0,0,0,0,0,0,0,0,0,0,0,0,0,0,0,0,0,0,0,0,0,-0.261799,-0.000137736,-1.5,nan,0,0,3,0,0,0,0,0,0,0,0,1.9603e-19,0,0,0,0
580,-3.21239e-12,1.41218e-38,-1.56576e-06,-3.27827e-12,1.41206e-38,0,-1.06604e-13,0,0,0,0,0,0,0,0,0,0,0,0,0,0,0,0,0,0,0,0,0,-0.261799,-0.000132568,-1.5,nan,0,0,3,0,0,0,0,0,0,0,0,1.9603e-19,0,0,0,0
590,-3.21239e-12,1.41218e-38,-1.56576e-06,-3.27827e-12,1.41206e-38,-3.40903e-12,-1.06605e-13,0,0,0,0,0,0,0,0,0,0,0,0,0,0,0,0,0,0,0,0,0,-0.261799,-0.000128115,-1.5,nan,0,0,3,0,0,0,0,0,0,0,0,1.9603e-19,0,0,0,0
600,-3.21239e-12,1.41218e-38,-1.56576e-06,-3.27827e-12,1.41206e-38,0,-1.06605e-13,0,0,0,0,0,0,0,0,0,0,0,0,0,0,0,0,0,0,0,0,0,-0.261799,-0.000123808,-1.5,nan,0,0,3,0,0,0,0,0,0,0,0,1.9603e-19,0,0,0,0
610,-3.21239e-12,1.41218e-38,-1.56576e-06,-3.27827e-12,1.41206e-38,-3.40903e-12,-1.06605e-13,0,0,0,0,0,0,0,0,0,0,0,0,0,0,0,0,0,0,0,0,0,-0.261799,-0.000119646,-1.5,nan,0,0,3,0,0,0,0,0,0,0,0,1.9603e-19,0,0,0,0
620,-3.21239e-12,1.41218e-38,-1.56576e-06,-3.27827e-12,1.41206e-38,0,-1.06605e-13,0,0,0,0,0,0,0,0,0,0,0,0,0,0,0,0,0,0,0,0,0,-0.261799,-0.000115861,-1.5,nan,0,0,3,0,0,0,0,0,0,0,0,1.9603e-19,0,0,0,0
630,-3.21239e-12,1.41218e-38,-1.56576e-06,-3.27827e-12,1.41206e-38,-3.40903e-12,-1.06606e-13,0,0,0,0,0,0,0,0,0,0,0,0,0,0,0,0,0,0,0,0,0,-0.261799,-0.000112652,-1.5,nan,0,0,3,0,0,0,0,0,0,0,0,1.9603e-19,0,0,0,0
640,-3.21239e-12,1.41218e-38,-1.56576e-06,-3.27827e-12,1.41206e-38,0,-1.06606e-13,0,0,0,0,0,0,0,0,0,0,0,0,0,0,0,0,0,0,0,0,0,-0.261799,-0.000109751,-1.5,nan,0,0,3,0,0,0,0,0,0,0,0,1.9603e-19,0,0,0,0
650,-3.21239e-12,1.41218e-38,-1.56576e-06,-3.27827e-12,1.41206e-38,-3.40903e-12,-1.06606e-13,0,0,0,0,0,0,0,0,0,0,0,0,0,0,0,0,0,0,0,0,0,-0.261799,-0.000106062,-1.5,nan,0,0,3,0,0,0,0,0,0,0,0,1.9603e-19,0,0,0,0
660,-3.21239e-12,1.41218e-38,-1.56576e-06,-3.27827e-12,1.41206e-38,0,-1.06606e-13,0,0,0,0,0,0,0,0,0,0,0,0,0,0,0,0,0,0,0,0,0,-0.261799,-0.000102496,-1.5,nan,0,0,3,0,0,0,0,0,0,0,0,1.9603e-19,0,0,0,0
670,-3.21239e-12,1.41218e-38,-1.56576e-06,-3.27827e-12,1.41206e-38,-3.40903e-12,-1.06607e-13,0,0,0,0,0,0,0,0,0,0,0,0,0,0,0,0,0,0,0,0,0,-0.261799,-9.88516e-05,-1.5,nan,0,0,3,0,0,0,0,0,0,0,0,1.9603e-19,0,0,0,0
680,-3.21241e-12,1.40995e-38,1.41225e-38,-3.27827e-12,1.41206e-38,0,-1.06607e-13,0,0,0,0,0,0,0,0,0,0,0,0,0,0,0,0,0,0,0,0,0,-0.261799,-9.55307e-05,-1.5,nan,0,0,3,0,0,0,0,0,0,0,0,1.9603e-19,0,0,0,0
690,-3.21239e-12,1.41218e-38,-1.56576e-06,-3.27827e-12,1.41206e-38,-3.40903e-12,-1.06607e-13,0,0,0,0,0,0,0,0,0,0,0,0,0,0,0,0,0,0,0,0,0,-0.261799,-9.23214e-05,-1.5,nan,0,0,3,0,0,0,0,0,0,0,0,1.9603e-19,0,0,0,0
700,-3.21239e-12,1.41218e-38,-1.56576e-06,-3.27827e-12,1.41206e-38,0,-1.06607e-13,0,0,0,0,0,0,0,0,0,0,0,0,0,0,0,0,0,0,0,0,0,-0.261799,-8.88573e-05,-1.5,nan,0,0,3,0,0,0,0,0,0,0,0,1.9603e-19,0,0,0,0
710,-3.21239e-12,1.41218e-38,-1.56576e-06,-3.27827e-12,1.41206e-38,-3.40903e-12,-1.06608e-13,0,0,0,0,0,0,0,0,0,0,0,0,0,0,0,0,0,0,0,0,0,-0.261799,-8.58701e-05,-1.5,nan,0,0,3,0,0,0,0,0,0,0,0,1.9603e-19,0,0,0,0
720,-3.21239e-12,1.41218e-38,-1.56576e-06,-3.27827e-12,1.41206e-38,0,-1.06608e-13,0,0,0,0,0,0,0,0,0,0,0,0,0,0,0,0,0,0,0,0,0,-0.261799,-8.29833e-05,-1.5,nan,0,0,3,0,0,0,0,0,0,0,0,1.9603e-19,0,0,0,0
730,-3.21239e-12,1.41218e-38,-1.56576e-06,-3.27827e-12,1.41206e-38,-3.40903e-12,-1.06608e-13,0,0,0,0,0,0,0,0,0,0,0,0,0,0,0,0,0,0,0,0,0,-0.261799,-8.01936e-05,-1.5,nan,0,0,3,0,0,0,0,0,0,0,0,1.9603e-19,0,0,0,0
740,-3.21239e-12,1.41218e-38,-1.56576e-06,-3.27827e-12,1.41206e-38,0,-1.06609e-13,0,0,0,0,0,0,0,0,0,0,0,0,0,0,0,0,0,0,0,0,0,-0.261799,-7.68694e-05,-1.5,nan,0,0,3,0,0,0,0,0,0,0,0,1.9603e-19,0,0,0,0
750,-3.21239e-12,1.41218e-38,-1.56576e-06,-3.27827e-12,1.41206e-38,-3.40903e-12,-1.06609e-13,0,0,0,0,0,0,0,0,0,0,0,0,0,0,0,0,0,0,0,0,0,-0.261799,-7.42852e-05,-1.5,nan,0,0,3,0,0,0,0,0,0,0,0,1.9603e-19,0,0,0,0
760,-3.21239e-12,1.41218e-38,-1.56576e-06,-3.27827e-12,1.41206e-38,0,-1.06609e-13,0,0,0,0,0,0,0,0,0,0,0,0,0,0,0,0,0,0,0,0,0,-0.261799,-7.17879e-05,-1.5,nan,0,0,3,0,0,0,0,0,0,0,0,1.9603e-19,0,0,0,0
770,-3.21239e-12,1.41218e-38,-1.56576e-06,-3.27827e-12,1.41206e-38,-3.40903e-12,-1.06609e-13,0,0,0,0,0,0,0,0,0,0,0,0,0,0,0,0,0,0,0,0,0,-0.261799,-6.92353e-05,-1.5,nan,0,0,3,0,0,0,0,0,0,0,0,1.9603e-19,0,0,0,0
780,-3.21239e-12,1.41218e-38,-1.56576e-06,-3.27827e-12,1.41206e-38,0,-1.0661e-13,0,0,0,0,0,0,0,0,0,0,0,0,0,0,0,0,0,0,0,0,0,-0.261799,-6.64989e-05,-1.5,nan,0,0,3,0,0,0,0,0,0,0,0,1.9603e-19,0,0,0,0
790,-3.21239e-12,1.41218e-38,-1.56576e-06,-3.27827e-12,1.41206e-38,-3.40903e-12,-1.0661e-13,0,0,0,0,0,0,0,0,0,0,0,0,0,0,0,0,0,0,0,0,0,-0.261799,-6.41343e-05,-1.5,nan,0,0,3,0,0,0,0,0,0,0,0,1.9603e-19,0,0,0,0
800,-3.21239e-12,1.41218e-38,-1.56576e-06,-3.27827e-12,1.41206e-38,0,-1.0661e-13,0,0,0,0,0,0,0,0,0,0,0,0,0,0,0,0,0,0,0,0,0,-0.261799,-6.19798e-05,-1.5,nan,0,0,3,0,0,0,0,0,0,0,0,1.9603e-19,0,0,0,0
810,-3.21239e-12,1.41218e-38,-1.56576e-06,-3.27827e-12,1.41206e-38,-3.40903e-12,-1.0661e-13,0,0,0,0,0,0,0,0,0,0,0,0,0,0,0,0,0,0,0,0,0,-0.261799,-5.96541e-05,-1.5,nan,0,0,3,0,0,0,0,0,0,0,0,1.9603e-19,0,0,0,0
820,-3.21239e-12,1.41218e-38,-1.56576e-06,-3.27827e-12,1.41206e-38,0,-1.06611e-13,0,0,0,0,0,0,0,0,0,0,0,0,0,0,0,0,0,0,0,0,0,-0.261799,-5.77673e-05,-1.5,nan,0,0,3,0,0,0,0,0,0,0,0,1.9603e-19,0,0,0,0
830,-3.21239e-12,1.41218e-38,-1.56576e-06,-3.27827e-12,1.41206e-38,-3.40903e-12,-1.06611e-13,0,0,0,0,0,0,0,0,0,0,0,0,0,0,0,0,0,0,0,0,0,-0.261799,-5.6167e-05,-1.5,nan,0,0,3,0,0,0,0,0,0,0,0,1.9603e-19,0,0,0,0
840,-3.21239e-12,1.41218e-38,-1.56576e-06,-3.27827e-12,1.41206e-38,0,-1.06611e-13,0,0,0,0,0,0,0,0,0,0,0,0,0,0,0,0,0,0,0,0,0,-0.261799,-5.4721e-05,-1.5,nan,0,0,3,0,0,0,0,0,0,0,0,1.9603e-19,0,0,0,0
850,-3.21239e-12,1.41218e-38,-1.56576e-06,-3.27827e-12,1.41206e-38,-3.40903e-12,-1.06612e-13,0,0,0,0,0,0,0,0,0,0,0,0,0,0,0,0,0,0,0,0,0,-0.261799,-5.28814e-05,-1.5,nan,0,0,3,0,0,0,0,0,0,0,0,1.9603e-19,0,0,0,0
860,-3.21239e-12,1.41218e-38,-1.56576e-06,-3.27827e-12,1.41206e-38,0,-1.06612e-13,0,0,0,0,0,0,0,0,0,0,0,0,0,0,0,0,0,0,0,0,0,-0.261799,-5.06894e-05,-1.5,nan,0,0,3,0,0,0,0,0,0,0,0,1.9603e-19,0,0,0,0
870,-3.21239e-12,1.41218e-38,-1.56576e-06,-3.27827e-12,1.41206e-38,-3.40903e-12,-1.06612e-13,0,0,0,0,0,0,0,0,0,0,0,0,0,0,0,0,0,0,0,0,0,-0.261799,-4.89865e-05,-1.5,nan,0,0,3,0,0,0,0,0,0,0,0,1.9603e-19,0,0,0,0
880,-3.21239e-12,1.41218e-38,-1.56576e-06,-3.27827e-12,1.41206e-38,0,-1.06612e-13,0,0,0,0,0,0,0,0,0,0,0,0,0,0,0,0,0,0,0,0,0,-0.261799,-4.73409e-05,-1.5,nan,0,0,3,0,0,0,0,0,0,0,0,1.9603e-19,0,0,0,0
890,-3.21239e-12,1.41218e-38,-1.56576e-06,-3.27827e-12,1.41206e-38,-3.40903e-12,-1.06613e-13,0,0,0,0,0,0,0,0,0,0,0,0,0,0,0,0,0,0,0,0,0,-0.261799,-4.55645e-05,-1.5,nan,0,0,3,0,0,0,0,0,0,0,0,1.9603e-19,0,0,0,0
900,-3.21239e-12,1.41218e-38,-1.56576e-06,-3.27827e-12,1.41206e-38,0,-1.06613e-13,0,0,0,0,0,0,0,0,0,0,0,0,0,0,0,0,0,0,0,0,0,-0.261799,-4.40327e-05,-1.5,nan,0,0,3,0,0,0,0,0,0,0,0,1.9603e-19,0,0,0,0
910,-3.21239e-12,1.41218e-38,-1.56576e-06,-3.27827e-12,1.41206e-38,-3.40903e-12,-1.06613e-13,0,0,0,0,0,0,0,0,0,0,0,0,0,0,0,0,0,0,0,0,0,-0.261799,-4.25524e-05,-1.5,nan,0,0,3,0,0,0,0,0,0,0,0,1.9603e-19,0,0,0,0
920,-3.21239e-12,1.41218e-38,-1.56576e-06,-3.27827e-12,1.41206e-38,0,-1.06613e-13,0,0,0,0,0,0,0,0,0,0,0,0,0,0,0,0,0,0,0,0,0,-0.261799,-4.10393e-05,-1.5,nan,0,0,3,0,0,0,0,0,0,0,0,1.9603e-19,0,0,0,0
930,-3.21239e-12,1.41218e-38,-1.56576e-06,-3.27827e-12,1.41206e-38,-3.40903e-12,-1.06614e-13,0,0,0,0,0,0,0,0,0,0,0,0,0,0,0,0,0,0,0,0,0,-0.261799,-3.94994e-05,-1.5,nan,0,0,3,0,0,0,0,0,0,0,0,1.9603e-19,0,0,0,0
940,-3.21239e-12,1.41218e-38,-1.56576e-06,-3.27827e-12,1.41206e-38,0,-1.06614e-13,0,0,0,0,0,0,0,0,0,0,0,0,0,0,0,0,0,0,0,0,0,-0.261799,-3.80949e-05,-1.5,nan,0,0,3,0,0,0,0,0,0,0,0,1.9603e-19,0,0,0,0
950,-3.21239e-12,1.41218e-38,-1.56576e-06,-3.27827e-12,1.41206e-38,-3.40903e-12,-1.06614e-13,0,0,0,0,0,0,0,0,0,0,0,0,0,0,0,0,0,0,0,0,0,-0.261799,-3.68892e-05,-1.5,nan,0,0,3,0,0,0,0,0,0,0,0,1.9603e-19,0,0,0,0
960,-3.21239e-12,1.41218e-38,-1.56576e-06,-3.27827e-12,1.41206e-38,0,-1.06615e-13,0,0,0,0,0,0,0,0,0,0,0,0,0,0,0,0,0,0,0,0,0,-0.261799,-3.5649e-05,-1.5,nan,0,0,3,0,0,0,0,0,0,0,0,1.9603e-19,0,0,0,0
970,-3.21239e-12,1.41218e-38,-1.56576e-06,-3.27827e-12,1.41206e-38,-3.40903e-12,-1.06615e-13,0,0,0,0,0,0,0,0,0,0,0,0,0,0,0,0,0,0,0,0,0,-0.261799,-3.42414e-05,-1.5,nan,0,0,3,0,0,0,0,0,0,0,0,1.9603e-19,0,0,0,0
980,-3.21239e-12,1.41218e-38,-1.56576e-06,-3.27827e-12,1.41206e-38,0,-1.06615e-13,0,0,0,0,0,0,0,0,0,0,0,0,0,0,0,0,0,0,0,0,0,-0.261799,-3.3091e-05,-1.5,nan,0,0,3,0,0,0,0,0,0,0,0,1.9603e-19,0,0,0,0
990,-3.21239e-12,1.41218e-38,-1.56576e-06,-3.27827e-12,1.41206e-38,-3.40903e-12,-1.06615e-13,0,0,0,0,0,0,0,0,0,0,0,0,0,0,0,0,0,0,0,0,0,-0.261799,-3.19794e-05,-1.5,nan,0,0,3,0,0,0,0,0,0,0,0,1.9603e-19,0,0,0,0
1000,-3.21239e-12,1.41218e-38,-1.56576e-06,-3.27827e-12,1.41206e-38,0,-1.06616e-13,0,0,0,0,0,0,0,0,0,0,0,0,0,0,0,0,0,0,0,0,0,-0.261799,-3.0905e-05,-1.5,nan,0,0,3,0,0,0,0,0,0,0,0,1.9603e-19,0,0,0,0
1010,-3.21239e-12,1.41218e-38,-1.56576e-06,-3.27827e-12,1.41206e-38,-3.40903e-12,-1.06616e-13,0,0,0,0,0,0,0,0,0,0,0,0,0,0,0,0,0,0,0,0,0,-0.261799,-2.98061e-05,-1.5,nan,0,0,3,0,0,0,0,0,0,0,0,1.9603e-19,0,0,0,0
1020,-3.21239e-12,1.41218e-38,-1.56576e-06,-3.27827e-12,1.41206e-38,0,-1.06616e-13,0,0,0,0,0,0,0,0,0,0,0,0,0,0,0,0,0,0,0,0,0,-0.261799,-2.88628e-05,-1.5,nan,0,0,3,0,0,0,0,0,0,0,0,1.9603e-19,0,0,0,0
1030,-3.21239e-12,1.41218e-38,-1.56576e-06,-3.27827e-12,1.41206e-38,-3.40903e-12,-1.06616e-13,0,0,0,0,0,0,0,0,0,0,0,0,0,0,0,0,0,0,0,0,0,-0.261799,-2.80632e-05,-1.5,nan,0,0,3,0,0,0,0,0,0,0,0,1.9603e-19,0,0,0,0
1040,-3.21239e-12,1.41218e-38,-1.56576e-06,-3.27827e-12,1.41206e-38,0,-1.06617e-13,0,0,0,0,0,0,0,0,0,0,0,0,0,0,0,0,0,0,0,0,0,-0.261799,-2.73407e-05,-1.5,nan,0,0,3,0,0,0,0,0,0,0,0,1.9603e-19,0,0,0,0
1050,-3.21239e-12,1.41218e-38,-1.56576e-06,-3.27827e-12,1.41206e-38,-3.40903e-12,-1.06617e-13,0,0,0,0,0,0,0,0,0,0,0,0,0,0,0,0,0,0,0,0,0,-0.261799,-2.6314e-05,-1.5,nan,0,0,3,0,0,0,0,0,0,0,0,1.9603e-19,0,0,0,0
1060,-3.21239e-12,1.41218e-38,-1.56576e-06,-3.27827e-12,1.41206e-38,0,-1.06617e-13,0,0,0,0,0,0,0,0,0,0,0,0,0,0,0,0,0,0,0,0,0,-0.261799,-2.53783e-05,-1.5,nan,0,0,3,0,0,0,0,0,0,0,0,1.9603e-19,0,0,0,0
1070,-3.21239e-12,1.41218e-38,-1.56576e-06,-3.27827e-12,1.41206e-38,-3.40903e-12,-1.06618e-13,0,0,0,0,0,0,0,0,0,0,0,0,0,0,0,0,0,0,0,0,0,-0.261799,-2.45751e-05,-1.5,nan,0,0,3,0,0,0,0,0,0,0,0,1.9603e-19,0,0,0,0
1080,-3.21239e-12,1.41218e-38,-1.56576e-06,-3.27827e-12,1.41206e-38,0,-1.06618e-13,0,0,-8.54735,0.341865,0.157316,0,0,0,0,0,-0.683131,0.341865,126,34,126,34,172,34,126,78,0,-0.261799,-2.23979e-05,-1.5,nan,0,0,3,0,0,0,0,0,0,0,0,2024,0,0,0,0
1090,-3.21239e-12,1.41218e-38,-1.56576e-06,-3.27827e-12,1.41206e-38,-3.40903e-12,-1.06618e-13,0,0,-8.54735,0.341865,0.157316,0,0,0,0,0,-0.683131,0.341865,126,34,126,34,172,34,126,78,0,-0.261799,-2.16008e-05,-1.5,nan,0,0,3,0,0,0,0,0,0,0,0,2024,0,0,0,0
1100,-3.21239e-12,1.41218e-38,-1.56576e-06,-3.27827e-12,1.41206e-38,0,-1.06618e-13,0,0,-8.85161,0.341433,0.246691,0,0,0,0,0,-0.853613,0.341433,128,33,128,33,171,33,128,77,0,-0.261799,-2.08747e-05,-1.5,nan,0,0,3,0,0,0,0,0,0,0,0,1892,0,0,0,0
1110,-3.21239e-12,1.41218e-38,-1.56576e-06,-3.27827e-12,1.41206e-38,-3.40903e-12,-1.06619e-13,0,0,-8.85161,0.341433,0.246691,0,0,0,0,0,-0.853613,0.341433,128,33,128,33,171,33,128,77,0,-0.261799,-2.01324e-05,-1.5,nan,0,0,3,0,0,0,0,0,0,0,0,1892,0,0,0,0
1120,-3.21239e-12,1.41218e-38,-1.56576e-06,-3.27827e-12,1.41206e-38,0,-1.06619e-13,0,0,-8.85161,0.341433,0.246691,0,0,0,0,0,-0.853613,0.341433,128,33,128,33,171,33,128,77,0,-0.261799,-1.9456e-05,-1.5,nan,0,0,3,0,0,0,0,0,0,0,0,1892,0,0,0,0
1130,-3.21239e-12,1.41218e-38,-1.56576e-06,-3.27827e-12,1.41206e-38,-3.40903e-12,-1.06619e-13,0,0,-8.85161,0.341433,0.246691,0,0,0,0,0,-0.853613,0.341433,128,33,128,33,171,33,128,77,0,-0.261799,-1.8802e-05,-1.5,nan,0,0,3,0,0,0,0,0,0,0,0,1892,0,0,0,0
1140,-3.21239e-12,1.41218e-38,-1.56576e-06,-3.27827e-12,1.41206e-38,0,-1.06619e-13,0,0,-8.85161,0.341433,0.246691,0,0,0,0,0,-0.853613,0.341433,128,33,128,33,171,33,128,77,0,-0.261799,-1.82069e-05,-1.5,nan,0,0,3,0,0,0,0,0,0,0,0,1892,0,0,0,0
1150,-3.21239e-12,1.41218e-38,-1.56576e-06,-3.27827e-12,1.41206e-38,-3.40903e-12,-1.0662e-13,0,0,-8.85161,0.341433,0.246691,0,0,0,0,0,-0.853613,0.341433,128,33,128,33,171,33,128,77,0,-0.261799,-1.75237e-05,-1.5,nan,0,0,3,0,0,0,0,0,0,0,0,1892,0,0,0,0
1160,-3.21239e-12,1.41218e-38,-1.56576e-06,-3.27827e-12,1.41206e-38,0,-1.0662e-13,0,0,-8.85161,0.341433,0.246691,0,0,0,0,0,-0.853613,0.341433,128,33,128,33,171,33,128,77,0,-0.261799,-1.6935e-05,-1.5,nan,0,0,3,0,0,0,0,0,0,0,0,1892,0,0,0,0
1170,-3.21239e-12,1.41218e-38,-1.56576e-06,-3.27827e-12,1.41206e-38,-3.40903e-12,-1.0662e-13,0,0,-8.85161,0.341433,0.246691,0,0,0,0,0,-0.853613,0.341433,128,33,128,33,171,33,128,77,0,-0.261799,-1.63657e-05,-1.5,nan,0,0,3,0,0,0,0,0,0,0,0,1892,0,0,0,0
1180,-3.21239e-12,1.41218e-38,-1.56576e-06,-3.27827e-12,1.41206e-38,0,-1.0662e-13,0,0,-8.85161,0.341433,0.246691,0,0,0,0,0,-0.853613,0.341433,128,33,128,33,171,33,128,77,0,-0.261799,-1.58159e-05,-1.5,nan,0,0,3,0,0,0,0,0,0,0,0,1892,0,0,0,0
1190,-3.21239e-12,1.41218e-38,-1.56576e-06,-3.27827e-12,1.41206e-38,-3.40903e-12,-1.06621e-13,0,0,-8.85161,0.341433,0.246691,0,0,0,0,0,-0.853613,0.341433,128,33,128,33,171,33,128,77,0,-0.261799,-1.52225e-05,-1.5,nan,0,0,3,0,0,0,0,0,0,0,0,1892,0,0,0,0
1200,-3.21239e-12,1.41218e-38,-1.56576e-06,-3.27827e-12,1.41206e-38,0,-1.06621e-13,0,0,-8.85161,0.341433,0.246691,0,0,0,0,0,-0.853613,0.341433,128,33,128,33,171,33,128,77,0,-0.261799,-1.46807e-05,-1.5,nan,0,0,3,0,0,0,0,0,0,0,0,1892,0,0,0,0
1210,-3.21239e-12,1.41218e-38,-1.56576e-06,-3.27827e-12,1.41206e-38,-3.40903e-12,-1.06621e-13,0,0,-8.85161,0.341433,0.246691,0,0,0,0,0,-0.853613,0.341433,128,33,128,33,171,33,128,77,0,-0.261799,-1.4245e-05,-1.5,nan,0,0,3,0,0,0,0,0,0,0,0,1892,0,0,0,0
1220,-3.21239e-12,1.41218e-38,-1.56576e-06,-3.27827e-12,1.41206e-38,0,-1.06622e-13,0,0,-8.85161,0.341433,0.246691,0,0,0,0,0,-0.853613,0.341433,128,33,128,33,171,33,128,77,0,-0.261799,-1.38222e-05,-1.5,nan,0,0,3,0,0,0,0,0,0,0,0,1892,0,0,0,0
1230,-3.21239e-12,1.41218e-38,-1.56576e-06,-3.27827e-12,1.41206e-38,-3.40903e-12,-1.06622e-13,0,0,-8.85161,0.341433,0.246691,0,0,0,0,0,-0.853613,0.341433,128,33,128,33,171,33,128,77,0,-0.261799,-1.33035e-05,-1.5,nan,0,0,3,0,0,0,0,0,0,0,0,1892,0,0,0,0
1240,-3.21239e-12,1.41218e-38,-1.56576e-06,-3.27827e-12,1.41206e-38,0,-1.06622e-13,0,0,-8.85161,0.341433,0.246691,0,0,0,0,0,-0.853613,0.341433,128,33,128,33,171,33,128,77,0,-0.261799,-1.28566e-05,-1.5,nan,0,0,3,0,0,0,0,0,0,0,0,1892,0,0,0,0
1250,-3.21239e-12,1.41218e-38,-1.56576e-06,-3.27827e-12,1.41206e-38,-3.40903e-12,-1.06622e-13,0,0,-8.85161,0.341433,0.246691,0,0,0,0,0,-0.853613,0.341433,128,33,128,33,171,33,128,77,0,-0.261799,-1.24247e-05,-1.5,nan,0,0,3,0,0,0,0,0,0,0,0,1892,0,0,0,0
1260,-3.21239e-12,1.41218e-38,-1.56576e-06,-3.27827e-12,1.41206e-38,0,-1.06623e-13,0,0,-8.85161,0.341433,0.246691,0,0,0,0,0,-0.853613,0.341433,128,33,128,33,171,33,128,77,0,-0.261799,-1.20073e-05,-1.5,nan,0,0,3,0,0,0,0,0,0,0,0,1892,0,0,0,0
1270,-3.21239e-12,1.41218e-38,-1.56576e-06,-3.27827e-12,1.41206e-38,-3.40903e-12,-1.06623e-13,0,0,-8.85161,0.341433,0.246691,0,0,0,0,0,-0.853613,0.341433,128,33,128,33,171,33,128,77,0,-0.261799,-1.15568e-05,-1.5,nan,0,0,3,0,0,0,0,0,0,0,0,1892,0,0,0,0
1280,-3.21239e-12,1.41218e-38,-1.56576e-06,-3.27827e-12,1.41206e-38,0,-1.06623e-13,0,0,-8.85161,0.341433,0.246691,0,0,0,0,0,-0.853613,0.341433,128,33,128,33,171,33,128,77,0,-0.261799,-1.11685e-05,-1.5,nan,0,0,3,0,0,0,0,0,0,0,0,1892,0,0,0,0
1290,-3.21239e-12,1.41218e-38,-1.56576e-06,-3.27827e-12,1.41206e-38,-3.40903e-12,-1.06623e-13,0,0,-8.85161,0.341433,0.246691,0,0,0,0,0,-0.853613,0.341433,128,33,128,33,171,33,128,77,0,-0.261799,-1.07933e-05,-1.5,nan,0,0,3,0,0,0,0,0,0,0,0,1892,0,0,0,0
1300,-3.21239e-12,1.41218e-38,-1.56576e-06,-3.27827e-12,1.41206e-38,0,-1.06624e-13,0,0,-8.85161,0.341433,0.246691,0,0,0,0,0,-0.853613,0.341433,128,33,128,33,171,33,128,77,0,-0.261799,-1.04307e-05,-1.5,nan,0,0,3,0,0,0,0,0,0,0,0,1892,0,0,0,0
1310,-3.21239e-12,1.41218e-38,-1.56576e-06,-3.27827e-12,1.41206e-38,-3.40903e-12,-1.06624e-13,0,0,-8.85161,0.341433,0.246691,0,0,0,0,0,-0.853613,0.341433,128,33,128,33,171,33,128,77,0,-0.261799,-8.5814e-06,-1.5,nan,0,0,3,0,0,0,0,0,0,0,0,1892,0,0,0,0
1320,-3.21239e-12,1.41218e-38,-1.56576e-06,-3.27827e-12,1.41206e-38,0,-1.06624e-13,0,0,-8.85161,0.341433,0.246691,0,0,0,0,0,-0.853613,0.341433,128,33,128,33,171,33,128,77,0,-0.261799,-8.27626e-06,-1.5,nan,0,0,3,0,0,0,0,0,0,0,0,1892,0,0,0,0
1330,-3.21239e-12,1.41218e-38,-1.56576e-06,-3.27827e-12,1.41206e-38,-3.40903e-12,-1.06625e-13,0,0,-8.85161,0.341433,0.246691,0,0,0,0,0,-0.853613,0.341433,128,33,128,33,171,33,128,77,0,-0.261799,-7.99822e-06,-1.5,nan,0,0,3,0,0,0,0,0,0,0,0,1892,0,0,0,0
1340,-3.21239e-12,1.41218e-38,-1.56576e-06,-3.27827e-12,1.41206e-38,0,-1.06625e-13,0,0,-8.85161,0.341433,0.246691,0,0,0,0,0,-0.853613,0.341433,128,33,128,33,171,33,128,77,0,-0.261799,-7.69811e-06,-1.5,nan,0,0,3,0,0,0,0,0,0,0,0,1892,0,0,0,0
1350,-3.21239e-12,1.41218e-38,-1.56576e-06,-3.27827e-12,1.41206e-38,-3.40903e-12,-1.06625e-13,0,0,-8.85161,0.341433,0.246691,0,0,0,0,0,-0.853613,0.341433,128,33,128,33,171,33,128,77,0,-0.261799,-7.4395e-06,-1.5,nan,0,0,3,0,0,0,0,0,0,0,0,1892,0,0,0,0
1360,-3.21239e-12,1.41218e-38,-1.56576e-06,-3.27827e-12,1.41206e-38,0,-1.06625e-13,0,0,-8.85161,0.341433,0.246691,0,0,0,0,0,-0.853613,0.341433,128,33,128,33,171,33,128,77,0,-0.261799,-7.20418e-06,-1.5,nan,0,0,3,0,0,0,0,0,0,0,0,1892,0,0,0,0
1370,-3.21239e-12,1.41218e-38,-1.56576e-06,-3.27827e-12,1.41206e-38,-3.40903e-12,-1.06626e-13,0,0,-8.85161,0.341433,0.246691,0,0,0,0,0,-0.853613,0.341433,128,33,128,33,171,33,128,77,0,-0.261799,-7.01871e-06,-1.5,nan,0,0,3,0,0,0,0,0,0,0,0,1892,0,0,0,0
1380,-3.21239e-12,1.41218e-38,-1.56576e-06,-3.27827e-12,1.41206e-38,0,-1.06626e-13,0,0,-8.85161,0.341433,0.246691,0,0,0,0,0,-0.853613,0.341433,128,33,128,33,171,33,128,77,0,-0.261799,-6.78306e-06,-1.5,nan,0,0,3,0,0,0,0,0,0,0,0,1892,0,0,0,0
1390,-3.21239e-12,1.41218e-38,-1.56576e-06,-3.27827e-12,1.41206e-38,-3.40903e-12,-1.06626e-13,0,0,-8.85161,0.341433,0.246691,0,0,0,0,0,-0.853613,0.341433,128,33,128,33,171,33,128,77,0,-0.261799,-6.55503e-06,-1.5,nan,0,0,3,0,0,0,0,0,0,0,0,1892,0,0,0,0
1400,-3.21239e-12,1.41218e-38,-1.56576e-06,-3.27827e-12,1.41206e-38,0,-1.06626e-13,0,0,-8.85161,0.341433,0.246691,0,0,0,0,0,-0.853613,0.341433,128,33,128,33,171,33,128,77,0,-0.261799,-6.33466e-06,-1.5,nan,0,0,3,0,0,0,0,0,0,0,0,1892,0,0,0,0
1410,-3.21239e-12,1.41218e-38,-1.56576e-06,-3.27827e-12,1.41206e-38,-3.40903e-12,-1.06627e-13,0,0,-8.85161,0.341433,0.246691,0,0,0,0,0,-0.853613,0.341433,128,33,128,33,171,33,128,77,0,-0.261799,-6.1217e-06,-1.5,nan,0,0,3,0,0,0,0,0,0,0,0,1892,0,0,0,0
1420,-3.21239e-12,1.41218e-38,-1.56576e-06,-3.27827e-12,1.41206e-38,0,-1.06627e-13,0,0,-8.85161,0.341433,0.246691,0,0,0,0,0,-0.853613,0.341433,128,33,128,33,171,33,128,77,0,-0.261799,-5.892e-06,-1.5,nan,0,0,3,0,0,0,0,0,0,0,0,1892,0,0,0,0
1430,-3.21239e-12,1.41218e-38,-1.56576e-06,-3.27827e-12,1.41206e-38,-3.40903e-12,-1.06627e-13,0,0,-8.85161,0.341433,0.246691,0,0,0,0,0,-0.853613,0.341433,128,33,128,33,171,33,128,77,0,-0.261799,-5.69392e-06,-1.5,nan,0,0,3,0,0,0,0,0,0,0,0,1892,0,0,0,0
1440,-3.21239e-12,1.41218e-38,-1.56576e-06,-3.27827e-12,1.41206e-38,0,-1.06628e-13,0,0,-8.85161,0.341433,0.246691,0,0,0,0,0,-0.853613,0.341433,128,33,128,33,171,33,128,77,0,-0.261799,-5.50251e-06,-1.5,nan,0,0,3,0,0,0,0,0,0,0,0,1892,0,0,0,0
1450,-3.21239e-12,1.41218e-38,-1.56576e-06,-3.27827e-12,1.41206e-38,-3.40903e-12,-1.06628e-13,0,0,-8.85161,0.341433,0.246691,0,0,0,0,0,-0.853613,0.341433,128,33,128,33,171,33,128,77,0,-0.261799,-5.31752e-06,-1.5,nan,0,0,3,0,0,0,0,0,0,0,0,1892,0,0,0,0
1460,-3.21239e-12,1.41218e-38,-1.56576e-06,-3.27827e-12,1.41206e-38,0,-1.06628e-13,0,0,-8.85161,0.341433,0.246691,0,0,0,0,0,-0.853613,0.341433,128,33,128,33,171,33,128,77,0,-0.261799,-5.11783e-06,-1.5,nan,0,0,3,0,0,0,0,0,0,0,0,1892,0,0,0,0
1470,-3.21239e-12,1.41218e-38,-1.56576e-06,-3.27827e-12,1.41206e-38,-3.40903e-12,-1.06628e-13,0,0,-8.85161,0.341433,0.246691,0,0,0,0,0,-0.853613,0.341433,128,33,128,33,171,33,128,77,0,-0.261799,-4.94578e-06,-1.5,nan,0,0,3,0,0,0,0,0,0,0,0,1892,0,0,0,0
1480,-3.21239e-12,1.41218e-38,-1.56576e-06,-3.27827e-12,1.41206e-38,0,-1.06629e-13,0,0,-8.85161,0.341433,0.246691,0,0,0,0,0,-0.853613,0.341433,128,33,128,33,171,33,128,77,0,-0.261799,-4.77951e-06,-1.5,nan,0,0,3,0,0,0,0,0,0,0,0,1892,0,0,0,0
1490,-3.21239e-12,1.41218e-38,-1.56576e-06,-3.27827e-12,1.41206e-38,-3.40903e-12,-1.06629e-13,0,0,-8.85161,0.341433,0.246691,0,0,0,0,0,-0.853613,0.341433,128,33,128,33,171,33,128,77,0,-0.261799,-4.61883e-06,-1.5,nan,0,0,3,0,0,0,0,0,0,0,0,1892,0,0,0,0
1500,-3.21239e-12,1.41218e-38,-1.56576e-06,-3.27827e-12,1.41206e-38,0,-1.06629e-13,0,0,-8.85161,0.341433,0.246691,0,0,0,0,0,-0.853613,0.341433,128,33,128,33,171,33,128,77,0,-0.261799,-4.45459e-06,-1.5,nan,0,0,3,0,0,0,0,0,0,0,0,1892,0,0,0,0
1510,-3.21239e-12,1.41218e-38,-1.56576e-06,-3.27827e-12,1.41206e-38,-3.40903e-12,-1.06629e-13,0,0,-8.85161,0.341433,0.246691,0,0,0,0,0,-0.853613,0.341433,128,33,128,33,171,33,128,77,0,-0.261799,-4.30494e-06,-1.5,nan,0,0,3,0,0,0,0,0,0,0,0,1892,0,0,0,0
1520,-3.21239e-12,1.41218e-38,-1.56576e-06,-3.27827e-12,1.41206e-38,0,-1.0663e-13,0,0,-8.85161,0.341433,0.246691,0,0,0,0,0,-0.853613,0.341433,128,33,128,33,171,33,128,77,0,-0.261799,-4.16032e-06,-1.5,nan,0,0,3,0,0,0,0,0,0,0,0,1892,0,0,0,0
1530,-3.21239e-12,1.41218e-38,-1.56576e-06,-3.27827e-12,1.41206e-38,-3.40903e-12,-1.0663e-13,0,0,-8.85161,0.341433,0.246691,0,0,0,0,0,-0.853613,0.341433,128,33,128,33,171,33,128,77,0,-0.261799,-4.01239e-06,-1.5,nan,0,0,3,0,0,0,0,0,0,0,0,1892,0,0,0,0
1540,-3.21239e-12,1.41218e-38,-1.56576e-06,-3.27827e-12,1.41206e-38,0,-1.0663e-13,0,0,-8.85161,0.341433,0.246691,0,0,0,0,0,-0.853613,0.341433,128,33,128,33,171,33,128,77,0,-0.261799,-3.90124e-06,-1.5,nan,0,0,3,0,0,0,0,0,0,0,0,1892,0,0,0,0
1550,-3.21239e-12,1.41218e-38,-1.56576e-06,-3.27827e-12,1.41206e-38,-3.40903e-12,-1.06631e-13,0,0,-8.85161,0.341433,0.246691,0,0,0,0,0,-0.853613,0.341433,128,33,128,33,171,33,128,77,0,-0.261799,-3.8008e-06,-1.5,nan,0,0,3,0,0,0,0,0,0,0,0,1892,0,0,0,0
1560,-3.21239e-12,1.41218e-38,-1.56576e-06,-3.27827e-12,1.41206e-38,0,-1.06631e-13,0,0,-8.85161,0.341433,0.246691,0,0,0,0,0,-0.853613,0.341433,128,33,128,33,171,33,128,77,0,-0.261799,-3.67302e-06,-1.5,nan,0,0,3,0,0,0,0,0,0,0,0,1892,0,0,0,0
1570,-3.21239e-12,1.41218e-38,-1.56576e-06,-3.27827e-12,1.41206e-38,-3.40903e-12,-1.06631e-13,0,0,-8.85161,0.341433,0.246691,0,0,0,0,0,-0.853613,0.341433,128,33,128,33,171,33,128,77,0,-0.261799,-3.54242e-06,-1.5,nan,0,0,3,0,0,0,0,0,0,0,0,1892,0,0,0,0
1580,-3.21239e-12,1.41218e-38,-1.56576e-06,-3.27827e-12,1.41206e-38,0,-1.06631e-13,0,0,-8.85161,0.341433,0.246691,0,0,0,0,0,-0.853613,0.341433,128,33,128,33,171,33,128,77,0,-0.261799,-3.42341e-06,-1.5,nan,0,0,3,0,0,0,0,0,0,0,0,1892,0,0,0,0
1590,-3.21239e-12,1.41218e-38,-1.56576e-06,-3.27827e-12,1.41206e-38,-3.40903e-12,-1.06632e-13,0,0,-8.85161,0.341433,0.246691,0,0,0,0,0,-0.853613,0.341433,128,33,128,33,171,33,128,77,0,-0.261799,-3.30832e-06,-1.5,nan,0,0,3,0,0,0,0,0,0,0,0,1892,0,0,0,0
1600,-3.21239e-12,1.41218e-38,-1.56576e-06,-3.27827e-12,1.41206e-38,0,-1.06632e-13,0,0,-8.85161,0.341433,0.246691,0,0,0,0,0,-0.853613,0.341433,128,33,128,33,171,33,128,77,0,-0.261799,-3.19718e-06,-1.5,nan,0,0,3,0,0,0,0,0,0,0,0,1892,0,0,0,0
1610,-3.21239e-12,1.41218e-38,-1.56576e-06,-3.27827e-12,1.41206e-38,-3.40903e-12,-1.06632e-13,0,0,-8.85161,0.341433,0.246691,0,0,0,0,0,-0.853613,0.341433,128,33,128,33,171,33,128,77,0,-0.261799,-3.07102e-06,-1.5,nan,0,0,3,0,0,0,0,0,0,0,0,1892,0,0,0,0
1620,-3.21239e-12,1.41218e-38,-1.56576e-06,-3.27827e-12,1.41206e-38,0,-1.06632e-13,0,0,-8.85161,0.341433,0.246691,0,0,0,0,0,-0.853613,0.341433,128,33,128,33,171,33,128,77,0,-0.261799,-2.96182e-06,-1.5,nan,0,0,3,0,0,0,0,0,0,0,0,1892,0,0,0,0
1630,-3.21239e-12,1.41218e-38,-1.56576e-06,-3.27827e-12,1.41206e-38,-3.40903e-12,-1.06633e-13,0,0,-8.85161,0.341433,0.246691,0,0,0,0,0,-0.853613,0.341433,128,33,128,33,171,33,128,77,0,-0.261799,-2.86225e-06,-1.5,nan,0,0,3,0,0,0,0,0,0,0,0,1892,0,0,0,0
1640,-3.21239e-12,1.41218e-38,-1.56576e-06,-3.27827e-12,1.41206e-38,0,-1.06633e-13,0,0,-8.85161,0.341433,0.246691,0,0,0,0,0,-0.853613,0.341433,128,33,128,33,171,33,128,77,0,-0.261799,-2.76603e-06,-1.5,nan,0,0,3,0,0,0,0,0,0,0,0,1892,0,0,0,0
1650,-3.21239e-12,1.41218e-38,-1.56576e-06,-3.27827e-12,1.41206e-38,-3.40903e-12,-1.06633e-13,0,0,-8.85161,0.341433,0.246691,0,0,0,0,0,-0.853613,0.341433,128,33,128,33,171,33,128,77,0,-0.261799,-2.65671e-06,-1.5,nan,0,0,3,0,0,0,0,0,0,0,0,1892,0,0,0,0
1660,-3.21239e-12,1.41218e-38,-1.56576e-06,-3.27827e-12,1.41206e-38,0,-1.06634e-13,0,0,-8.85161,0.341433,0.246691,0,0,0,0,0,-0.853613,0.341433,128,33,128,33,171,33,128,77,0,-0.261799,-2.56224e-06,-1.5,nan,0,0,3,0,0,0,0,0,0,0,0,1892,0,0,0,0
1670,-3.21239e-12,1.41218e-38,-1.56576e-06,-3.27827e-12,1.41206e-38,-3.40903e-12,-1.06634e-13,0,0,-8.85161,0.341433,0.246691,0,0,0,0,0,-0.853613,0.341433,128,33,128,33,171,33,128,77,0,-0.261799,-2.47616e-06,-1.5,nan,0,0,3,0,0,0,0,0,0,0,0,1892,0,0,0,0
1680,-3.21239e-12,1.41218e-38,-1.56576e-06,-3.27827e-12,1.41206e-38,0,-1.06634e-13,0,0,-8.85161,0.341433,0.246691,0,0,0,0,0,-0.853613,0.341433,128,33,128,33,171,33,128,77,0,-0.261799,-2.39779e-06,-1.5,nan,0,0,3,0,0,0,0,0,0,0,0,1892,0,0,0,0
1690,-3.21239e-12,1.41218e-38,-1.56576e-06,-3.27827e-12,1.41206e-38,-3.40903e-12,-1.06634e-13,0,0,-8.85161,0.341433,0.246691,0,0,0,0,0,-0.853613,0.341433,128,33,128,33,171,33,128,77,0,-0.261799,-2.30782e-06,-1.5,nan,0,0,3,0,0,0,0,0,0,0,0,1892,0,0,0,0
1700,-3.21239e-12,1.41218e-38,-1.56576e-06,-3.27827e-12,1.41206e-38,0,-1.06635e-13,0,0,-8.85161,0.341433,0.246691,0,0,0,0,0,-0.853613,0.341433,128,33,128,33,171,33,128,77,0,-0.261799,-2.23932e-06,-1.5,nan,0,0,3,0,0,0,0,0,0,0,0,1892,0,0,0,0
1710,-3.21239e-12,1.41218e-38,-1.56576e-06,-3.27827e-12,1.41206e-38,-3.40903e-12,-1.06635e-13,0,0,-8.85161,0.341433,0.246691,0,0,0,0,0,-0.853613,0.341433,128,33,128,33,171,33,128,77,0,-0.261799,-2.17729e-06,-1.5,nan,0,0,3,0,0,0,0,0,0,0,0,1892,0,0,0,0
1720,-3.21239e-12,1.41218e-38,-1.56576e-06,-3.27827e-12,1.41206e-38,0,-1.06635e-13,0,0,-8.85161,0.341433,0.246691,0,0,0,0,0,-0.853613,0.341433,128,33,128,33,171,33,128,77,0,-0.261799,-2.11698e-06,-1.5,nan,0,0,3,0,0,0,0,0,0,0,0,1892,0,0,0,0
1730,-3.21239e-12,1.41218e-38,-1.56576e-06,-3.27827e-12,1.41206e-38,-3.40903e-12,-1.06635e-13,0,0,-8.85161,0.341433,0.246691,0,0,0,0,0,-0.853613,0.341433,128,33,128,33,171,33,128,77,0,-0.261799,-2.03754e-06,-1.5,nan,0,0,3,0,0,0,0,0,0,0,0,1892,0,0,0,0
1740,-3.21239e-12,1.41218e-38,-1.56576e-06,-3.27827e-12,1.41206e-38,0,-1.06636e-13,0,0,-8.85161,0.341433,0.246691,0,0,0,0,0,-0.853613,0.341433,128,33,128,33,171,33,128,77,0,-0.261799,-1.96909e-06,-1.5,nan,0,0,3,0,0,0,0,0,0,0,0,1892,0,0,0,0
1750,-3.21239e-12,1.41218e-38,-1.56576e-06,-3.27827e-12,1.41206e-38,-3.40903e-12,-1.06636e-13,0,0,-8.85161,0.341433,0.246691,0,0,0,0,0,-0.853613,0.341433,128,33,128,33,171,33,128,77,0,-0.261799,-1.90294e-06,-1.5,nan,0,0,3,0,0,0,0,0,0,0,0,1892,0,0,0,0
1760,-3.21239e-12,1.41218e-38,-1.56576e-06,-3.27827e-12,1.41206e-38,0,-1.06636e-13,0,0,-8.85161,0.341433,0.246691,0,0,0,0,0,-0.853613,0.341433,128,33,128,33,171,33,128,77,0,-0.261799,-1.83901e-06,-1.5,nan,0,0,3,0,0,0,0,0,0,0,0,1892,0,0,0,0
1770,-3.21239e-12,1.41218e-38,-1.56576e-06,-3.27827e-12,1.41206e-38,-3.40903e-12,-1.06636e-13,0,0,-8.85161,0.341433,0.246691,0,0,0,0,0,-0.853613,0.341433,128,33,128,33,171,33,128,77,0,-0.261799,-1.77001e-06,-1.5,nan,0,0,3,0,0,0,0,0,0,0,0,1892,0,0,0,0
1780,-3.21239e-12,1.41218e-38,-1.56576e-06,-3.27827e-12,1.41206e-38,0,-1.06637e-13,0,0,-8.85161,0.341433,0.246691,0,0,0,0,0,-0.853613,0.341433,128,33,128,33,171,33,128,77,0,-0.261799,-1.71055e-06,-1.5,nan,0,0,3,0,0,0,0,0,0,0,0,1892,0,0,0,0
1790,-3.21239e-12,1.41218e-38,-1.56576e-06,-3.27827e-12,1.41206e-38,-3.40903e-12,-1.06637e-13,0,0,-8.85161,0.341433,0.246691,0,0,0,0,0,-0.853613,0.341433,128,33,128,33,171,33,128,77,0,-0.261799,-1.65308e-06,-1.5,nan,0,0,3,0,0,0,0,0,0,0,0,1892,0,0,0,0
1800,-3.21239e-12,1.41218e-38,-1.56576e-06,-3.27827e-12,1.41206e-38,0,-1.06637e-13,0,0,-8.85161,0.341433,0.246691,0,0,0,0,0,-0.853613,0.341433,128,33,128,33,171,33,128,77,0,-0.261799,-1.59426e-06,-1.5,nan,0,0,3,0,0,0,0,0,0,0,0,1892,0,0,0,0
1810,-3.21239e-12,1.41218e-38,-1.56576e-06,-3.27827e-12,1.41206e-38,-3.40903e-12,-1.06638e-13,0,0,-8.85161,0.341433,0.246691,0,0,0,0,0,-0.853613,0.341433,128,33,128,33,171,33,128,77,0,-0.261799,-1.53757e-06,-1.5,nan,0,0,3,0,0,0,0,0,0,0,0,1892,0,0,0,0
1820,-3.21239e-12,1.41218e-38,-1.56576e-06,-3.27827e-12,1.41206e-38,0,-1.06638e-13,0,0,-8.85161,0.341433,0.246691,0,0,0,0,0,-0.853613,0.341433,128,33,128,33,171,33,128,77,0,-0.261799,-1.48591e-06,-1.5,nan,0,0,3,0,0,0,0,0,0,0,0,1892,0,0,0,0
1830,-3.21239e-12,1.41218e-38,-1.56576e-06,-3.27827e-12,1.41206e-38,-3.40903e-12,-1.06638e-13,0,0,-8.64842,0.28415,0.228025,0,0,0,0,0,-0.738863,0.28415,129,32,129,32,174,32,129,76,0,-0.261799,-1.43599e-06,-1.5,nan,0,0,3,0,0,0,0,0,0,0,0,1980,0,0,0,0
1840,-3.21239e-12,1.41218e-38,-1.56576e-06,-3.27827e-12,1.41206e-38,0,-1.06638e-13,0,0,-8.64842,0.28415,0.228025,0,0,0,0,0,-0.738863,0.28415,129,32,129,32,174,32,129,76,0,-0.261799,-1.38211e-06,-1.5,nan,0,0,3,0,0,0,0,0,0,0,0,1980,0,0,0,0
1850,-3.21239e-12,1.41218e-38,-1.56576e-06,-3.27827e-12,1.41206e-38,-3.40903e-12,-1.06639e-13,0,0,-8.64842,0.28415,0.228025,0,0,0,0,0,-0.738863,0.28415,129,32,129,32,174,32,129,76,0,-0.261799,-1.33568e-06,-1.5,nan,0,0,3,0,0,0,0,0,0,0,0,1980,0,0,0,0
1860,-3.21239e-12,1.41218e-38,-1.56576e-06,-3.27827e-12,1.41206e-38,0,-1.06639e-13,0,0,-8.64842,0.28415,0.228025,0,0,0,0,0,-0.738863,0.28415,129,32,129,32,174,32,129,76,0,-0.261799,-1.29343e-06,-1.5,nan,0,0,3,0,0,0,0,0,0,0,0,1980,0,0,0,0
1870,-3.21239e-12,1.41218e-38,-1.56576e-06,-3.27827e-12,1.41206e-38,-3.40903e-12,-1.06639e-13,0,0,-8.64842,0.28415,0.228025,0,0,0,0,0,-0.738863,0.28415,129,32,129,32,174,32,129,76,0,-0.261799,-1.26013e-06,-1.5,nan,0,0,3,0,0,0,0,0,0,0,0,1980,0,0,0,0
1880,-3.21239e-12,1.41218e-38,-1.56576e-06,-3.27827e-12,1.41206e-38,0,-1.06639e-13,0,0,-8.64842,0.28415,0.228025,0,0,0,0,0,-0.738863,0.28415,129,32,129,32,174,32,129,76,0,-0.261799,-1.22028e-06,-1.5,nan,0,0,3,0,0,0,0,0,0,0,0,1980,0,0,0,0
1890,-3.21239e-12,1.41218e-38,-1.56576e-06,-3.27827e-12,1.41206e-38,-3.40903e-12,-1.0664e-13,0,0,-8.64842,0.28415,0.228025,0,0,0,0,0,-0.738863,0.28415,129,32,129,32,174,32,129,76,0,-0.261799,-1.18647e-06,-1.5,nan,0,0,3,0,0,0,0,0,0,0,0,1980,0,0,0,0
1900,-3.21239e-12,1.41218e-38,-1.56576e-06,-3.27827e-12,1.41206e-38,0,-1.0664e-13,0,0,-8.64842,0.28415,0.228025,0,0,0,0,0,-0.738863,0.28415,129,32,129,32,174,32,129,76,0,-0.261799,-1.14658e-06,-1.5,nan,0,0,3,0,0,0,0,0,0,0,0,1980,0,0,0,0
1910,-3.21239e-12,1.41218e-38,-1.56576e-06,-3.27827e-12,1.41206e-38,-3.40903e-12,-1.0664e-13,0,0,-8.64842,0.28415,0.228025,0,0,0,0,0,-0.738863,0.28415,129,32,129,32,174,32,129,76,0,-0.261799,-1.10356e-06,-1.5,nan,0,0,3,0,0,0,0,0,0,0,0,1980,0,0,0,0
1920,-3.21239e-12,1.41218e-38,-1.56576e-06,-3.27827e-12,1.41206e-38,0,-1.06641e-13,0,0,-8.64842,0.28415,0.228025,0,0,0,0,0,-0.738863,0.28415,129,32,129,32,174,32,129,76,0,-0.261799,-1.06215e-06,-1.5,nan,0,0,3,0,0,0,0,0,0,0,0,1980,0,0,0,0
1930,-3.21239e-12,1.41218e-38,-1.56576e-06,-3.27827e-12,1.41206e-38,-3.40903e-12,-1.06641e-13,0,0,-8.64842,0.28415,0.228025,0,0,0,0,0,-0.738863,0.28415,129,32,129,32,174,32,129,76,0,-0.261799,-1.02645e-06,-1.5,nan,0,0,3,0,0,0,0,0,0,0,0,1980,0,0,0,0
1940,-3.21239e-12,1.41218e-38,-1.56576e-06,-3.27827e-12,1.41206e-38,0,-1.06641e-13,0,0,-8.64842,0.28415,0.228025,0,0,0,0,0,-0.738863,0.28415,129,32,129,32,174,32,129,76,0,-0.261799,-9.91938e-07,-1.5,nan,0,0,3,0,0,0,0,0,0,0,0,1980,0,0,0,0
1950,-3.21239e-12,1.41218e-38,-1.56576e-06,-3.27827e-12,1.41206e-38,-3.40903e-12,-1.06641e-13,0,0,-8.95349,0.345349,0.281395,0,0,0,0,0,-0.91251,0.345349,128,33,128,33,171,33,128,76,0,-0.261799,-9.56667e-07,-1.5,nan,0,0,3,0,0,0,0,0,0,0,0,1849,0,0,0,0
1960,-3.21239e-12,1.41218e-38,-1.56576e-06,-3.27827e-12,1.41206e-38,0,-1.06642e-13,0,0,-8.95349,0.345349,0.281395,0,0,0,0,0,-0.91251,0.345349,128,33,128,33,171,33,128,76,0,-0.261799,-9.2077e-07,-1.5,nan,0,0,3,0,0,0,0,0,0,0,0,1849,0,0,0,0
1970,-3.21239e-12,1.41218e-38,-1.56576e-06,-3.27827e-12,1.41206e-38,-3.40903e-12,-1.06642e-13,0,0,-8.95349,0.345349,0.281395,0,0,0,0,0,-0.91251,0.345349,128,33,128,33,171,33,128,76,0,-0.261799,-8.89815e-07,-1.5,nan,0,0,3,0,0,0,0,0,0,0,0,1849,0,0,0,0
1980,-3.21239e-12,1.41218e-38,-1.56576e-06,-3.27827e-12,1.41206e-38,0,-1.06642e-13,0,0,-8.95349,0.345349,0.281395,0,0,0,0,0,-0.91251,0.345349,128,33,128,33,171,33,128,76,0,-0.261799,-8.59902e-07,-1.5,nan,0,0,3,0,0,0,0,0,0,0,0,1849,0,0,0,0
1990,-3.21239e-12,1.41218e-38,-1.56576e-06,-3.27827e-12,1.41206e-38,-3.40903e-12,-1.06642e-13,0,0,-8.95349,0.345349,0.281395,0,0,0,0,0,-0.91251,0.345349,128,33,128,33,171,33,128,76,0,-0.261799,-8.29325e-07,-1.5,nan,0,0,3,0,0,0,0,0,0,0,0,1849,0,0,0,0
2000,-3.21239e-12,1.41218e-38,-1.56576e-06,-3.27827e-12,1.41206e-38,0,-1.06643e-13,0,0,-8.95349,0.345349,0.281395,0,0,0,0,0,-0.91251,0.345349,128,33,128,33,171,33,128,76,0,-0.261799,-7.99812e-07,-1.5,nan,0,0,3,0,0,0,0,0,0,0,0,1849,0,0,0,0
2010,-3.21239e-12,1.41218e-38,-1.56576e-06,-3.27827e-12,1.41206e-38,-3.40903e-12,-1.06643e-13,0,0,-8.95349,0.345349,0.281395,0,0,0,0,0,-0.91251,0.345349,128,33,128,33,171,33,128,76,0,-0.261799,-7.72924e-07,-1.5,nan,0,0,3,0,0,0,0,0,0,0,0,1849,0,0,0,0
2020,-3.21239e-12,1.41218e-38,-1.56576e-06,-3.27827e-12,1.41206e-38,0,-1.06643e-13,0,0,-8.95349,0.345349,0.281395,0,0,0,0,0,-0.91251,0.345349,128,33,128,33,171,33,128,76,0,-0.261799,-7.4694e-07,-1.5,nan,0,0,3,0,0,0,0,0,0,0,0,1849,0,0,0,0
2030,-3.21239e-12,1.41218e-38,-1.56576e-06,-3.27827e-12,1.41206e-38,-3.40903e-12,-1.06644e-13,0,0,-8.95349,0.345349,0.281395,0,0,0,0,0,-0.91251,0.345349,128,33,128,33,171,33,128,76,0,-0.261799,-7.11539e-07,-1.5,nan,0,0,3,0,0,0,0,0,0,0,0,1849,0,0,0,0
2040,-3.21239e-12,1.41218e-38,-1.56576e-06,-3.27827e-12,1.41206e-38,0,-1.06644e-13,0,0,-8.95349,0.345349,0.281395,0,0,0,0,0,-0.91251,0.345349,128,33,128,33,171,33,128,76,0,-0.261799,-6.89033e-07,-1.5,nan,0,0,3,0,0,0,0,0,0,0,0,1849,0,0,0,0
2050,-3.21239e-12,1.41218e-38,-1.56576e-06,-3.27827e-12,1.41206e-38,-3.40903e-12,-1.06644e-13,0,0,-8.95349,0.345349,0.281395,0,0,0,0,0,-0.91251,0.345349,128,33,128,33,171,33,128,76,0,-0.261799,-6.69945e-07,-1.5,nan,0,0,3,0,0,0,0,0,0,0,0,1849,0,0,0,0
2060,-3.21239e-12,1.41218e-38,-1.56576e-06,-3.27827e-12,1.41206e-38,0,-1.06644e-13,0,0,-8.95349,0.345349,0.281395,0,0,0,0,0,-0.91251,0.345349,128,33,128,33,171,33,128,76,0,-0.261799,-6.48742e-07,-1.5,nan,0,0,3,0,0,0,0,0,0,0,0,1849,0,0,0,0
2070,-3.21239e-12,1.41218e-38,-1.56576e-06,-3.27827e-12,1.41206e-38,-3.40903e-12,-1.06645e-13,0,0,-8.95349,0.345349,0.281395,0,0,0,0,0,-0.91251,0.345349,128,33,128,33,171,33,128,76,0,-0.261799,-6.26948e-07,-1.5,nan,0,0,3,0,0,0,0,0,0,0,0,1849,0,0,0,0
2080,-3.21239e-12,1.41218e-38,-1.56576e-06,-3.27827e-12,1.41206e-38,0,-1.06645e-13,0,0,-8.95349,0.345349,0.281395,0,0,0,0,0,-0.91251,0.345349,128,33,128,33,171,33,128,76,0,-0.261799,-6.03423e-07,-1.5,nan,0,0,3,0,0,0,0,0,0,0,0,1849,0,0,0,0
2090,-3.21239e-12,1.41218e-38,-1.56576e-06,-3.27827e-12,1.41206e-38,-3.40903e-12,-1.06645e-13,0,0,-8.95349,0.345349,0.281395,0,0,0,0,0,-0.91251,0.345349,128,33,128,33,171,33,128,76,0,-0.261799,-5.83151e-07,-1.5,nan,0,0,3,0,0,0,0,0,0,0,0,1849,0,0,0,0
2100,-3.21239e-12,1.41218e-38,-1.56576e-06,-3.27827e-12,1.41206e-38,0,-1.06645e-13,0,0,-8.3697,0.32286,0.179211,0,0,0,0,0,-0.587328,0.32286,127,30,127,30,172,30,127,77,0,-0.261799,-5.63561e-07,-1.5,nan,0,0,3,0,0,0,0,0,0,0,0,2115,0,0,0,0
2110,-3.21239e-12,1.41218e-38,-1.56576e-06,-3.27827e-12,1.41206e-38,-3.40903e-12,-1.06646e-13,0,0,-8.3697,0.32286,0.179211,0,0,0,0,0,-0.587328,0.32286,127,30,127,30,172,30,127,77,0,-0.261799,-5.42415e-07,-1.5,nan,0,0,3,0,0,0,0,0,0,0,0,2115,0,0,0,0
2120,-3.21239e-12,1.41218e-38,-1.56576e-06,-3.27827e-12,1.41206e-38,0,-1.06646e-13,0,0,-8.3697,0.32286,0.179211,0,0,0,0,0,-0.587328,0.32286,127,30,127,30,172,30,127,77,0,-0.261799,-5.2418e-07,-1.5,nan,0,0,3,0,0,0,0,0,0,0,0,2115,0,0,0,0
2130,-3.21239e-12,1.41218e-38,-1.56576e-06,-3.27827e-12,1.41206e-38,-3.40903e-12,-1.06646e-13,0,0,-8.3697,0.32286,0.179211,0,0,0,0,0,-0.587328,0.32286,127,30,127,30,172,30,127,77,0,-0.261799,-5.06558e-07,-1.5,nan,0,0,3,0,0,0,0,0,0,0,0,2115,0,0,0,0
2140,-3.21239e-12,1.41218e-38,-1.56576e-06,-3.27827e-12,1.41206e-38,0,-1.06647e-13,0,0,-8.3697,0.32286,0.179211,0,0,0,0,0,-0.587328,0.32286,127,30,127,30,172,30,127,77,0,-0.261799,-4.89528e-07,-1.5,nan,0,0,3,0,0,0,0,0,0,0,0,2115,0,0,0,0
2150,-3.21239e-12,1.41218e-38,-1.56576e-06,-3.27827e-12,1.41206e-38,-3.40903e-12,-1.06647e-13,0,0,-8.3697,0.32286,0.179211,0,0,0,0,0,-0.587328,0.32286,127,30,127,30,172,30,127,77,0,-0.261799,-4.7116e-07,-1.5,nan,0,0,3,0,0,0,0,0,0,0,0,2115,0,0,0,0
2160,-3.21239e-12,1.41218e-38,-1.56576e-06,-3.27827e-12,1.41206e-38,0,-1.06647e-13,0,0,-8.3697,0.32286,0.179211,0,0,0,0,0,-0.587328,0.32286,127,30,127,30,172,30,127,77,0,-0.261799,-4.54406e-07,-1.5,nan,0,0,3,0,0,0,0,0,0,0,0,2115,0,0,0,0
2170,-3.21239e-12,1.41218e-38,-1.56576e-06,-3.27827e-12,1.41206e-38,-3.40903e-12,-1.06647e-13,0,0,-8.3697,0.32286,0.179211,0,0,0,0,0,-0.587328,0.32286,127,30,127,30,172,30,127,77,0,-0.261799,-4.40024e-07,-1.5,nan,0,0,3,0,0,0,0,0,0,0,0,2115,0,0,0,0
2180,-3.21239e-12,1.41218e-38,-1.56576e-06,-3.27827e-12,1.41206e-38,0,-1.06648e-13,0,0,-7.5968,0.27125,1.31203e-06,0,0,0,0,0,-0.202626,0.27125,124,30,124,30,177,30,124,78,0,-0.261799,-4.25232e-07,-1.5,nan,0,0,3,0,0,0,0,0,0,0,0,2544,0,0,0,0
2190,-3.21239e-12,1.41218e-38,-1.56576e-06,-3.27827e-12,1.41206e-38,-3.40903e-12,-1.06648e-13,0,0,-7.5968,0.27125,1.31203e-06,0,0,0,0,0,-0.202626,0.27125,124,30,124,30,177,30,124,78,0,-0.261799,-4.08425e-07,-1.5,nan,0,0,3,0,0,0,0,0,0,0,0,2544,0,0,0,0
2200,-3.21239e-12,1.41218e-38,-1.56576e-06,-3.27827e-12,1.41206e-38,0,-1.06648e-13,0,0,-7.5968,0.27125,1.31203e-06,0,0,0,0,0,-0.202626,0.27125,124,30,124,30,177,30,124,78,0,-0.261799,-3.94705e-07,-1.5,nan,0,0,3,0,0,0,0,0,0,0,0,2544,0,0,0,0
2210,-3.21239e-12,1.41218e-38,-1.56576e-06,-3.27827e-12,1.41206e-38,-3.40903e-12,-1.06648e-13,0,0,-7.5968,0.27125,1.31203e-06,0,0,0,0,0,-0.202626,0.27125,124,30,124,30,177,30,124,78,0,-0.261799,-3.84543e-07,-1.5,nan,0,0,3,0,0,0,0,0,0,0,0,2544,0,0,0,0
2220,-3.21239e-12,1.41218e-38,-1.56576e-06,-3.27827e-12,1.41206e-38,0,-1.06649e-13,0,0,-8.09151,0.288943,0.107261,0,0,0,0,0,-0.442847,0.288943,126,31,126,31,175,31,126,77,0,-0.261799,-3.7389e-07,-1.5,nan,0,0,3,0,0,0,0,0,0,0,0,2254,0,0,0,0
2230,-3.21239e-12,1.41218e-38,-1.56576e-06,-3.27827e-12,1.41206e-38,-3.40903e-12,-1.06649e-13,0,0,-8.09151,0.288943,0.107261,0,0,0,0,0,-0.442847,0.288943,126,31,126,31,175,31,126,77,0,-0.261799,-3.58392e-07,-1.5,nan,0,0,3,0,0,0,0,0,0,0,0,2254,0,0,0,0
2240,-3.21239e-12,1.41218e-38,-1.56576e-06,-3.27827e-12,1.41206e-38,0,-1.06649e-13,0,0,-8.09151,0.288943,0.107261,0,0,0,0,0,-0.442847,0.288943,126,31,126,31,175,31,126,77,0,-0.261799,-3.46352e-07,-1.5,nan,0,0,3,0,0,0,0,0,0,0,0,2254,0,0,0,0
2250,-3.21239e-12,1.41218e-38,-1.56576e-06,-3.27827e-12,1.41206e-38,-3.40903e-12,-1.06649e-13,0,0,-8.09151,0.288943,0.107261,0,0,0,0,0,-0.442847,0.288943,126,31,126,31,175,31,126,77,0,-0.261799,-3.34717e-07,-1.5,nan,0,0,3,0,0,0,0,0,0,0,0,2254,0,0,0,0
2260,-3.21239e-12,1.41218e-38,-1.56576e-06,-3.27827e-12,1.41206e-38,0,-1.0665e-13,0,0,-8.65285,0.296682,0.265905,0,0,0,0,0,-0.74133,0.296682,129,30,129,30,173,30,129,75,0,-0.261799,-3.23472e-07,-1.5,nan,0,0,3,0,0,0,0,0,0,0,0,1980,0,0,0,0
2270,-3.21239e-12,1.41218e-38,-1.56576e-06,-3.27827e-12,1.41206e-38,-3.40903e-12,-1.0665e-13,0,0,-8.65285,0.296682,0.265905,0,0,0,0,0,-0.74133,0.296682,129,30,129,30,173,30,129,75,0,-0.261799,-3.10051e-07,-1.5,nan,0,0,3,0,0,0,0,0,0,0,0,1980,0,0,0,0
2280,-3.21239e-12,1.41218e-38,-1.56576e-06,-3.27827e-12,1.41206e-38,0,-1.0665e-13,0,0,-8.65285,0.296682,0.265905,0,0,0,0,0,-0.74133,0.296682,129,30,129,30,173,30,129,75,0,-0.261799,-2.99026e-07,-1.5,nan,0,0,3,0,0,0,0,0,0,0,0,1980,0,0,0,0
2290,-3.21239e-12,1.41218e-38,-1.56576e-06,-3.27827e-12,1.41206e-38,-3.40903e-12,-1.06651e-13,0,0,-8.65285,0.296682,0.265905,0,0,0,0,0,-0.74133,0.296682,129,30,129,30,173,30,129,75,0,-0.261799,-2.88981e-07,-1.5,nan,0,0,3,0,0,0,0,0,0,0,0,1980,0,0,0,0
2300,-3.21239e-12,1.41218e-38,-1.56576e-06,-3.27827e-12,1.41206e-38,0,-1.06651e-13,0,0,-8.65285,0.296682,0.265905,0,0,0,0,0,-0.74133,0.296682,129,30,129,30,173,30,129,75,0,-0.261799,-2.79273e-07,-1.5,nan,0,0,3,0,0,0,0,0,0,0,0,1980,0,0,0,0
2310,-3.21239e-12,1.41218e-38,-1.56576e-06,-3.27827e-12,1.41206e-38,-3.40903e-12,-1.06651e-13,0,0,-8.65285,0.296682,0.265905,0,0,0,0,0,-0.74133,0.296682,129,30,129,30,173,30,129,75,0,-0.261799,-2.69884e-07,-1.5,nan,0,0,3,0,0,0,0,0,0,0,0,1980,0,0,0,0
2320,-3.21239e-12,1.41218e-38,-1.56576e-06,-3.27827e-12,1.41206e-38,0,-1.06651e-13,0,0,-8.65285,0.296682,0.265905,0,0,0,0,0,-0.74133,0.296682,129,30,129,30,173,30,129,75,0,-0.261799,-2.60811e-07,-1.5,nan,0,0,3,0,0,0,0,0,0,0,0,1980,0,0,0,0
2330,-3.21239e-12,1.41218e-38,-1.56576e-06,-3.27827e-12,1.41206e-38,-3.40903e-12,-1.06652e-13,0,0,-9.03878,0.387454,0.273564,0,0,0,0,0,-0.962512,0.387454,128,33,128,33,168,33,128,78,0,-0.261799,-2.51537e-07,-1.5,nan,0,0,3,0,0,0,0,0,0,0,0,1800,0,0,0,0
2340,-3.21239e-12,1.41218e-38,-1.56576e-06,-3.27827e-12,1.41206e-38,0,-1.06652e-13,0,0,-9.03878,0.387454,0.273564,0,0,0,0,0,-0.962512,0.387454,128,33,128,33,168,33,128,78,0,-0.261799,-2.42586e-07,-1.5,nan,0,0,3,0,0,0,0,0,0,0,0,1800,0,0,0,0
2350,-3.21239e-12,1.41218e-38,-1.56576e-06,-3.27827e-12,1.41206e-38,-3.40903e-12,-1.06652e-13,0,0,-9.03878,0.387454,0.273564,0,0,0,0,0,-0.962512,0.387454,128,33,128,33,168,33,128,78,0,-0.261799,-2.34431e-07,-1.5,nan,0,0,3,0,0,0,0,0,0,0,0,1800,0,0,0,0
2360,-3.21239e-12,1.41218e-38,-1.56576e-06,-3.27827e-12,1.41206e-38,0,-1.06652e-13,0,0,-9.03878,0.387454,0.273564,0,0,0,0,0,-0.962512,0.387454,128,33,128,33,168,33,128,78,0,-0.261799,-2.26555e-07,-1.5,nan,0,0,3,0,0,0,0,0,0,0,0,1800,0,0,0,0
2370,-3.21239e-12,1.41218e-38,-1.56576e-06,-3.27827e-12,1.41206e-38,-3.40903e-12,-1.06653e-13,0,0,-9.03878,0.387454,0.273564,0,0,0,0,0,-0.962512,0.387454,128,33,128,33,168,33,128,78,0,-0.261799,-2.19389e-07,-1.5,nan,0,0,3,0,0,0,0,0,0,0,0,1800,0,0,0,0
2380,-3.21239e-12,1.41218e-38,-1.56576e-06,-3.27827e-12,1.41206e-38,0,-1.06653e-13,0,0,-9.03878,0.387454,0.273564,0,0,0,0,0,-0.962512,0.387454,128,33,128,33,168,33,128,78,0,-0.261799,-2.12877e-07,-1.5,nan,0,0,3,0,0,0,0,0,0,0,0,1800,0,0,0,0
2390,-3.21239e-12,1.41218e-38,-1.56576e-06,-3.27827e-12,1.41206e-38,-3.40903e-12,-1.06653e-13,0,0,-9.03878,0.387454,0.273564,0,0,0,0,0,-0.962512,0.387454,128,33,128,33,168,33,128,78,0,-0.261799,-2.06562e-07,-1.5,nan,0,0,3,0,0,0,0,0,0,0,0,1800,0,0,0,0
2400,-3.21239e-12,1.41218e-38,-1.56576e-06,-3.27827e-12,1.41206e-38,0,-1.06654e-13,0,0,-9.03878,0.387454,0.273564,0,0,0,0,0,-0.962512,0.387454,128,33,128,33,168,33,128,78,0,-0.261799,-2.00024e-07,-1.5,nan,0,0,3,0,0,0,0,0,0,0,0,1800,0,0,0,0
2410,-3.21239e-12,1.41218e-38,-1.56576e-06,-3.27827e-12,1.41206e-38,-3.40903e-12,-1.06654e-13,0,0,-8.44627,0.349992,0.183636,0,0,0,0,0,-0.628283,0.349992,127,30,127,30,170,30,127,78,0,-0.261799,-1.933e-07,-1.5,nan,0,0,3,0,0,0,0,0,0,0,0,2064,0,0,0,0
2420,-3.21239e-12,1.41218e-38,-1.56576e-06,-3.27827e-12,1.41206e-38,0,-1.06654e-13,0,0,-8.44627,0.349992,0.183636,0,0,0,0,0,-0.628283,0.349992,127,30,127,30,170,30,127,78,0,-0.261799,-1.86802e-07,-1.5,nan,0,0,3,0,0,0,0,0,0,0,0,2064,0,0,0,0
2430,-3.21239e-12,1.41218e-38,-1.56576e-06,-3.27827e-12,1.41206e-38,-3.40903e-12,-1.06654e-13,0,0,-8.44627,0.349992,0.183636,0,0,0,0,0,-0.628283,0.349992,127,30,127,30,170,30,127,78,0,-0.261799,-1.80159e-07,-1.5,nan,0,0,3,0,0,0,0,0,0,0,0,2064,0,0,0,0
2440,-3.21239e-12,1.41218e-38,-1.56576e-06,-3.27827e-12,1.41206e-38,0,-1.06655e-13,0,0,-8.44627,0.349992,0.183636,0,0,0,0,0,-0.628283,0.349992,127,30,127,30,170,30,127,78,0,-0.261799,-1.74107e-07,-1.5,nan,0,0,3,0,0,0,0,0,0,0,0,2064,0,0,0,0
2450,-3.21239e-12,1.41218e-38,-1.56576e-06,-3.27827e-12,1.41206e-38,-3.40903e-12,-1.06655e-13,0,0,-8.44627,0.349992,0.183636,0,0,0,0,0,-0.628283,0.349992,127,30,127,30,170,30,127,78,0,-0.261799,-1.68258e-07,-1.5,nan,0,0,3,0,0,0,0,0,0,0,0,2064,0,0,0,0
2460,-3.21239e-12,1.41218e-38,-1.56576e-06,-3.27827e-12,1.41206e-38,0,-1.06655e-13,0,0,-8.44627,0.349992,0.183636,0,0,0,0,0,-0.628283,0.349992,127,30,127,30,170,30,127,78,0,-0.261799,-1.61944e-07,-1.5,nan,0,0,3,0,0,0,0,0,0,0,0,2064,0,0,0,0
2470,-3.21239e-12,1.41218e-38,-1.56576e-06,-3.27827e-12,1.41206e-38,-3.40903e-12,-1.06655e-13,0,0,-8.44627,0.349992,0.183636,0,0,0,0,0,-0.628283,0.349992,127,30,127,30,170,30,127,78,0,-0.261799,-1.56186e-07,-1.5,nan,0,0,3,0,0,0,0,0,0,0,0,2064,0,0,0,0
2480,-3.21239e-12,1.41218e-38,-1.56576e-06,-3.27827e-12,1.41206e-38,0,-1.06656e-13,0,0,-8.44627,0.349992,0.183636,0,0,0,0,0,-0.628283,0.349992,127,30,127,30,170,30,127,78,0,-0.261799,-1.50939e-07,-1.5,nan,0,0,3,0,0,0,0,0,0,0,0,2064,0,0,0,0
2490,-3.21239e-12,1.41218e-38,-1.56576e-06,-3.27827e-12,1.41206e-38,-3.40903e-12,-1.06656e-13,0,0,-8.44627,0.349992,0.183636,0,0,0,0,0,-0.628283,0.349992,127,30,127,30,170,30,127,78,0,-0.261799,-1.45868e-07,-1.5,nan,0,0,3,0,0,0,0,0,0,0,0,2064,0,0,0,0
2500,-3.21239e-12,1.41218e-38,-1.56576e-06,-3.27827e-12,1.41206e-38,0,-1.06656e-13,0,0,-8.44627,0.349992,0.183636,0,0,0,0,0,-0.628283,0.349992,127,30,127,30,170,30,127,78,0,-0.261799,-1.40395e-07,-1.5,nan,0,0,3,0,0,0,0,0,0,0,0,2064,0,0,0,0
2510,-3.21239e-12,1.41218e-38,-1.56576e-06,-3.27827e-12,1.41206e-38,-3.40903e-12,-1.06657e-13,0,0,-8.44627,0.349992,0.183636,0,0,0,0,0,-0.628283,0.349992,127,30,127,30,170,30,127,78,0,-0.261799,-1.35678e-07,-1.5,nan,0,0,3,0,0,0,0,0,0,0,0,2064,0,0,0,0
2520,-3.21239e-12,1.41218e-38,-1.56576e-06,-3.27827e-12,1.41206e-38,0,-1.06657e-13,0,0,-8.44627,0.349992,0.183636,0,0,0,0,0,-0.628283,0.349992,127,30,127,30,170,30,127,78,0,-0.261799,-1.3112e-07,-1.5,nan,0,0,3,0,0,0,0,0,0,0,0,2064,0,0,0,0
2530,-3.21239e-12,1.41218e-38,-1.56576e-06,-3.27827e-12,1.41206e-38,-3.40903e-12,-1.06657e-13,0,0,-8.44627,0.349992,0.183636,0,0,0,0,0,-0.628283,0.349992,127,30,127,30,170,30,127,78,0,-0.261799,-1.26716e-07,-1.5,nan,0,0,3,0,0,0,0,0,0,0,0,2064,0,0,0,0
2540,-3.21239e-12,1.41218e-38,-1.56576e-06,-3.27827e-12,1.41206e-38,0,-1.06657e-13,0,0,-8.44627,0.349992,0.183636,0,0,0,0,0,-0.628283,0.349992,127,30,127,30,170,30,127,78,0,-0.261799,-1.21707e-07,-1.5,nan,0,0,3,0,0,0,0,0,0,0,0,2064,0,0,0,0
2550,-3.21239e-12,1.41218e-38,-1.56576e-06,-3.27827e-12,1.41206e-38,-3.40903e-12,-1.06658e-13,0,0,-8.44627,0.349992,0.183636,0,0,0,0,0,-0.628283,0.349992,127,30,127,30,170,30,127,78,0,-0.261799,-1.18095e-07,-1.5,nan,0,0,3,0,0,0,0,0,0,0,0,2064,0,0,0,0
2560,-3.21239e-12,1.41218e-38,-1.56576e-06,-3.27827e-12,1.41206e-38,0,-1.06658e-13,0,0,-8.44627,0.349992,0.183636,0,0,0,0,0,-0.628283,0.349992,127,30,127,30,170,30,127,78,0,-0.261799,-1.14592e-07,-1.5,nan,0,0,3,0,0,0,0,0,0,0,0,2064,0,0,0,0
2570,-3.21239e-12,1.41218e-38,-1.56576e-06,-3.27827e-12,1.41206e-38,-3.40903e-12,-1.06658e-13,0,0,-8.44627,0.349992,0.183636,0,0,0,0,0,-0.628283,0.349992,127,30,127,30,170,30,127,78,0,-0.261799,-1.10742e-07,-1.5,nan,0,0,3,0,0,0,0,0,0,0,0,2064,0,0,0,0
2580,-3.21239e-12,1.41218e-38,-1.56576e-06,-3.27827e-12,1.41206e-38,0,-1.06658e-13,0,0,-8.44627,0.349992,0.183636,0,0,0,0,0,-0.628283,0.349992,127,30,127,30,170,30,127,78,0,-0.261799,-1.06587e-07,-1.5,nan,0,0,3,0,0,0,0,0,0,0,0,2064,0,0,0,0
2590,-3.21239e-12,1.41218e-38,-1.56576e-06,-3.27827e-12,1.41206e-38,-3.40903e-12,-1.06659e-13,0,0,-8.44627,0.349992,0.183636,0,0,0,0,0,-0.628283,0.349992,127,30,127,30,170,30,127,78,0,-0.261799,-1.03003e-07,-1.5,nan,0,0,3,0,0,0,0,0,0,0,0,2064,0,0,0,0
2600,-3.21239e-12,1.41218e-38,-1.56576e-06,-3.27827e-12,1.41206e-38,0,-1.06659e-13,0,0,-8.44627,0.349992,0.183636,0,0,0,0,0,-0.628283,0.349992,127,30,127,30,170,30,127,78,0,-0.261799,-9.95406e-08,-1.5,nan,0,0,3,0,0,0,0,0,0,0,0,2064,0,0,0,0
2610,-3.21239e-12,1.41218e-38,-1.56576e-06,-3.27827e-12,1.41206e-38,-3.40903e-12,-1.06659e-13,0,0,-8.44627,0.349992,0.183636,0,0,0,0,0,-0.628283,0.349992,127,30,127,30,170,30,127,78,0,-0.261799,-9.61942e-08,-1.5,nan,0,0,3,0,0,0,0,0,0,0,0,2064,0,0,0,0
2620,-3.21239e-12,1.41218e-38,-1.56576e-06,-3.27827e-12,1.41206e-38,0,-1.0666e-13,0,0,-8.44627,0.349992,0.183636,0,0,0,0,0,-0.628283,0.349992,127,30,127,30,170,30,127,78,0,-0.261799,-9.27711e-08,-1.5,nan,0,0,3,0,0,0,0,0,0,0,0,2064,0,0,0,0
