timestamp,A_x,A_y,A_z,P,Q,R,Phi,Theta,Psi,poseX,poseY,poseZ,state_X,state_Y,state_Z,state_VzB,state_Bx,state_By,state_Bz,p1_x,p1_y,p2_x,p2_y,p3_x,p3_y,p4_x,p4_y,roll,pitch,yaw,alt,targetHeading,highLevelState,lowLevelState,gateNumber,filtered_x,filtered_y,x_OT,y_OT,vx_OT,vy_OT,filtered_vx,filtered_vygateArearansac_corr_x,ransac_corr_y,ransac_corr_vx,ransac_corr_vy,detectionTimeStamp
7852,0,0,0,0,0,0,0,0,0,0,0,0,0,0,0,0,0,0,0,0,0,0,0,0,0,0,0,0,-0,0,-1.5,-nan,0,0,0,0,0,0,0,0,0,0,0,1.9603e-19,0,0,0,0,0
7867,0,0,0,0,0,0,0,0,0,0,0,0,0,0,0,0,0,0,0,0,0,0,0,0,0,0,0,0,-0,0,-1.5,-nan,0,0,0,0,0,0,0,0,0,0,0,1.9603e-19,0,0,0,0,0
8622,-3.21337e-12,8.05648e-38,-1.56343e-06,-3.27827e-12,8.05601e-38,-3.40904e-12,-1.06589e-13,0,0,0,0,0,0,0,0,0,0,0,0,0,0,0,0,0,0,0,0,0,-0,0,-1.5,-nan,0,0,0,0,0,0,0,0,0,0,0,1.9603e-19,0,0,0,0,0
8664,-3.21337e-12,8.05648e-38,-1.56343e-06,-3.27827e-12,8.05601e-38,0,-1.0659e-13,0,0,0,0,0,0,0,0,0,0,0,0,0,0,0,0,0,0,0,0,0,-0,0,-1.5,-nan,0,0,0,0,0,0,0,0,0,0,0,1.9603e-19,0,0,0,0,0
8900,-3.21337e-12,8.05648e-38,-1.56343e-06,-3.27827e-12,8.05601e-38,-3.40904e-12,-1.0659e-13,0,0,0,0,0,0,0,0,0,0,0,0,0,0,0,0,0,0,0,0,0,-0,0,-1.5,-nan,0,0,0,0,0,0,0,0,0,0,0,1.9603e-19,0,0,0,0,0
8957,-3.21337e-12,8.05648e-38,-1.56343e-06,-3.27827e-12,8.05601e-38,0,-1.0659e-13,0,0,0,0,0,0,0,0,0,0,0,0,0,0,0,0,0,0,0,0,0,-0,0,-1.5,-nan,0,0,0,0,0,0,0,0,0,0,0,1.9603e-19,0,0,0,0,0
9210,-3.21337e-12,8.05648e-38,-1.56343e-06,-3.27827e-12,8.05601e-38,-3.40904e-12,-1.0659e-13,0,0,0,0,0,0,0,0,0,0,0,0,0,0,0,0,0,0,0,0,0,-0,0,-1.5,-nan,0,0,0,0,0,0,0,0,0,0,0,1.9603e-19,0,0,0,0,0
9320,-3.21337e-12,8.05648e-38,-1.56343e-06,-3.27827e-12,8.05601e-38,0,-1.06591e-13,0,0,-3.63333,-0.140857,0.502425,0,0,0,0,0,-0.577666,-0.140857,278,-70,278,-70,399,-63,272,60,0,-0,0,-1.5,-nan,0,0,0,0,0,0,0,0,0,0,0,16637,0,0,0,0,9311
9337,-3.21337e-12,8.05648e-38,-1.56343e-06,-3.27827e-12,8.05601e-38,-3.40904e-12,-1.06591e-13,0,0,-3.63333,-0.140857,0.502425,0,0,0,0,0,-0.577666,-0.140857,278,-70,278,-70,399,-63,272,60,0,-0,0,-1.5,-nan,0,0,0,0,0,0,0,0,0,0,0,16637,0,0,0,0,9329
9355,-3.21337e-12,8.05648e-38,-1.56343e-06,-3.27827e-12,8.05601e-38,0,-1.06591e-13,0,0,-3.63333,-0.140857,0.502425,0,0,0,0,0,-0.577666,-0.140857,278,-70,278,-70,399,-63,272,60,0,-0,0,-1.5,-nan,0,0,0,0,0,0,0,0,0,0,0,16637,0,0,0,0,9329
9375,-3.21337e-12,8.05648e-38,-1.56343e-06,-3.27827e-12,8.05601e-38,-3.40904e-12,-1.06591e-13,0,0,-3.61873,-0.140608,0.497981,0,0,0,0,0,-0.557654,-0.140608,278,-72,278,-72,399,-63,272,60,0,-0,0,-1.5,-nan,0,0,0,0,0,0,0,0,0,0,0,16891,0,0,0,0,9367
9400,-3.21337e-12,8.05648e-38,-1.56343e-06,-3.27827e-12,8.05601e-38,0,-1.06592e-13,0,0,-3.64334,-0.139497,0.501942,0,0,0,0,0,-0.591375,-0.139497,277,-70,277,-70,399,-60,272,60,0.261799,-0.261799,0,-1.5,-nan,0,0,0,-0.593113,-0.139325,0,0,0,0,-0.193079,0.0191466,16637,-0.591375,-0.139497,-0.193079,0.0191466,9393
9420,-3.21337e-12,8.05648e-38,-1.56343e-06,-3.27827e-12,8.05601e-38,-3.40904e-12,-1.06592e-13,0,0,-3.64334,-0.139497,0.501942,0,0,0,0,0,-0.591375,-0.139497,277,-70,277,-70,399,-60,272,60,0.063728,-0.261799,0,-1.5,-nan,0,0,0,-0.596974,-0.138942,0,0,0,0,-0.193079,0.0191466,16637,-0.591375,-0.139497,-0.193079,0.0191466,9393
9441,-3.21337e-12,8.05648e-38,-1.56343e-06,-3.27827e-12,8.05601e-38,0,-1.06592e-13,0,0,-3.63333,-0.140857,0.502425,0,0,0,0,0,-0.577666,-0.140857,278,-70,278,-70,399,-63,272,60,0.0678656,-0.261799,0,-1.5,-nan,0,0,0,-0.577666,-0.139996,0,0,0,0,2.73424e-07,0.00711168,16637,-0.577666,-0.140145,2.73424e-07,0.00711168,9430
9462,-3.21337e-12,8.05648e-38,-1.56343e-06,-3.27827e-12,8.05601e-38,-3.40904e-12,-1.06593e-13,0,0,-3.61873,-0.140608,0.497981,0,0,0,0,0,-0.557654,-0.140608,278,-72,278,-72,399,-63,272,60,0.0697453,-0.261799,0,-1.5,-nan,0,0,0,-0.577666,-0.140595,0,0,0,0,2.73424e-07,0.00184377,16891,-0.577666,-0.140608,2.73424e-07,0.00184377,9457
9482,-3.21337e-12,8.05648e-38,-1.56343e-06,-3.27827e-12,8.05601e-38,0,-1.06593e-13,0,0,-3.61873,-0.140608,0.497981,0,0,0,0,0,-0.557654,-0.140608,278,-72,278,-72,399,-63,272,60,0.0697246,-0.261799,0,-1.5,-nan,0,0,0,-0.577666,-0.140558,0,0,0,0,2.73424e-07,0.00184377,16891,-0.577666,-0.140608,2.73424e-07,0.00184377,9457
9534,-3.21337e-12,8.05648e-38,-1.56343e-06,-3.27827e-12,8.05601e-38,-3.40904e-12,-1.06593e-13,0,0,-3.67779,-0.138858,0.517818,0,0,0,0,0,-0.638575,-0.138858,278,-70,278,-70,397,-58,272,60,0.067535,-0.261799,0,-1.5,-nan,0,0,0,-0.577666,-0.139335,0,0,0,0,-2.73424e-07,0.00711169,16375,-0.577666,-0.139704,-2.73424e-07,0.00711169,9523
9548,-3.21337e-12,8.05648e-38,-1.56343e-06,-3.27827e-12,8.05601e-38,0,-1.06593e-13,0,0,-3.67779,-0.138858,0.517818,0,0,0,0,0,-0.638575,-0.138858,278,-70,278,-70,397,-58,272,60,0.0674829,-0.261799,0,-1.5,-nan,0,0,0,-0.577666,-0.139235,0,0,0,0,-2.73424e-07,0.00711169,16375,-0.577666,-0.139704,-2.73424e-07,0.00711169,9523
9569,-3.21337e-12,8.05648e-38,-1.56343e-06,-3.27827e-12,8.05601e-38,-3.40904e-12,-1.06594e-13,0,0,-3.61071,-0.142505,0.493261,0,0,0,0,0,-0.546677,-0.142505,278,-72,278,-72,400,-63,272,60,0.0703038,-0.231142,0,-1.5,-nan,0,0,0,-0.543822,-0.140608,0,0,0,0,0.13592,6.27492e-08,17024,-0.546677,-0.140608,0.13592,6.27492e-08,9558
9586,-3.21337e-12,8.05648e-38,-1.56343e-06,-3.27827e-12,8.05601e-38,0,-1.06594e-13,0,0,-3.61071,-0.142505,0.493261,0,0,0,0,0,-0.546677,-0.142505,278,-72,278,-72,400,-63,272,60,0.0703038,-0.229977,0,-1.5,-nan,0,0,0,-0.541512,-0.140608,0,0,0,0,0.13592,6.27492e-08,17024,-0.546677,-0.140608,0.13592,6.27492e-08,9558
9611,-3.21337e-12,8.05648e-38,-1.56343e-06,-3.27827e-12,8.05601e-38,-3.40904e-12,-1.06597e-13,0,0,-3.67185,-0.152085,0.522518,0,0,0,0,0,-0.630435,-0.152085,278,-72,278,-72,399,-60,276,60,0.0746037,-0.261799,0,-1.5,-nan,0,0,0,-0.626707,-0.143056,0,0,0,0,-0.252907,-0.0102559,16359,-0.620637,-0.14281,-0.252907,-0.0102559,9599
9650,-3.21337e-12,8.05648e-38,-1.56343e-06,-3.27827e-12,8.05601e-38,0,-1.06597e-13,0,0,-3.61071,-0.142505,0.493261,0,0,0,0,0,-0.546677,-0.142505,278,-72,278,-72,400,-63,272,60,0.0737041,-0.242902,0,-1.5,-nan,0,0,0,-0.545529,-0.142777,0,0,0,0,0.0995275,-0.00771935,17024,-0.54951,-0.142468,0.0995275,-0.00771935,9638
9672,-3.21337e-12,8.05648e-38,-1.56343e-06,-3.27827e-12,8.05601e-38,-3.40904e-12,-1.06595e-13,0,0,-3.67331,-0.146885,0.535322,0,0,0,0,0,-0.632438,-0.146885,280,-70,280,-70,399,-63,272,58,0.0757342,-0.261799,0,-1.5,-nan,0,0,0,-0.634652,-0.143918,0,0,0,0,-0.208641,-0.0125831,16383,-0.63027,-0.143654,-0.208641,-0.0125831,9660
9695,-3.21337e-12,8.05648e-38,-1.56343e-06,-3.27827e-12,8.05601e-38,0,-1.06595e-13,0,0,-3.61873,-0.140608,0.497981,0,0,0,0,0,-0.557654,-0.140608,278,-72,278,-72,399,-63,272,60,0.023739,0.261799,0,-1.5,-nan,0,0,0,-0.558662,-0.143358,0,0,0,0,0.0361735,-0.00887547,16891,-0.558843,-0.143314,0.0361735,-0.00887547,9692
9713,-3.21337e-12,8.05648e-38,-1.56343e-06,-3.27827e-12,8.05601e-38,-3.40904e-12,-1.06594e-13,0,0,-3.61873,-0.140608,0.497981,0,0,0,0,0,-0.557654,-0.140608,278,-72,278,-72,399,-63,272,60,0.074421,-0.261799,0,-1.5,-nan,0,0,0,-0.558011,-0.143518,0,0,0,0,0.0361735,-0.00887547,16891,-0.558843,-0.143314,0.0361735,-0.00887547,9692
9734,-3.21337e-12,8.05648e-38,-1.56343e-06,-3.27827e-12,8.05601e-38,0,-1.06596e-13,0,0,-3.63333,-0.140857,0.502425,0,0,0,0,0,-0.577666,-0.140857,278,-70,278,-70,399,-63,272,60,0.0715176,-0.261799,0,-1.5,-nan,0,0,0,-0.574003,-0.141614,0,0,0,0,0.00880708,-0.00236526,16637,-0.574109,-0.141585,0.00880708,-0.00236526,9725
9755,-3.21337e-12,8.05648e-38,-1.56343e-06,-3.27827e-12,8.05601e-38,-3.40904e-12,-1.06595e-13,0,0,-3.63333,-0.140857,0.502425,0,0,0,0,0,-0.577666,-0.140857,278,-70,278,-70,399,-63,272,60,0.071539,-0.261799,0,-1.5,-nan,0,0,0,-0.573827,-0.141661,0,0,0,0,0.00880708,-0.00236526,16637,-0.574109,-0.141585,0.00880708,-0.00236526,9725
9776,-3.21337e-12,8.05648e-38,-1.56343e-06,-3.27827e-12,8.05601e-38,0,-1.06596e-13,0,0,-3.63333,-0.140857,0.502425,0,0,0,0,0,-0.577666,-0.140857,278,-70,278,-70,399,-63,272,60,0.0705027,-0.261799,0,-1.5,-nan,0,0,0,-0.577217,-0.140867,0,0,0,0,0.00354801,-0.000229583,16637,-0.577295,-0.140862,0.00354801,-0.000229583,9764
9800,-3.21337e-12,8.05648e-38,-1.56343e-06,-3.27827e-12,8.05601e-38,-3.40904e-12,-1.06596e-13,0,0,-3.58433,-0.130668,0.475471,0,0,0,0,0,-0.510526,-0.130668,274,-72,274,-72,399,-63,272,60,0.0707399,-0.261799,0,-1.5,-nan,0,0,0,-0.575812,-0.140988,0,0,0,0,0.0023579,-0.000816114,17018,-0.575836,-0.14098,0.0023579,-0.000816114,9792
9819,-3.21337e-12,8.05648e-38,-1.56343e-06,-3.27827e-12,8.05601e-38,0,-1.06596e-13,0,0,-3.58433,-0.130668,0.475471,0,0,0,0,0,-0.510526,-0.130668,274,-72,274,-72,399,-63,272,60,0.0707454,-0.261799,0,-1.5,-nan,0,0,0,-0.575767,-0.141004,0,0,0,0,0.0023579,-0.000816114,17018,-0.575836,-0.14098,0.0023579,-0.000816114,9792
9855,-3.21337e-12,8.05648e-38,-1.56343e-06,-3.27827e-12,8.05601e-38,-3.40904e-12,-1.066e-13,0,0,-3.68757,-0.154416,0.525463,0,0,0,0,0,-0.651973,-0.154416,278,-68,278,-68,400,-61,276,59,0.0712672,-0.261799,0,-1.5,-nan,0,0,0,-0.576606,-0.141524,0,0,0,0,0.00516642,-0.00168168,16120,-0.576792,-0.141464,0.00516642,-0.00168168,9842
9890,-3.21337e-12,8.05648e-38,-1.56343e-06,-3.27827e-12,8.05601e-38,0,-1.066e-13,0,0,-3.66658,-0.158065,0.508985,0,0,0,0,0,-0.623208,-0.158065,280,-68,280,-68,400,-60,274,60,0.0751032,-0.261799,0,-1.5,-nan,0,0,0,-0.578803,-0.144945,0,0,0,0,-0.00989274,-0.008768,16380,-0.578467,-0.144647,-0.00989274,-0.008768,9876
9910,-3.21337e-12,8.05648e-38,-1.56343e-06,-3.27827e-12,8.05601e-38,-3.40904e-12,-1.066e-13,0,0,-3.66007,-0.15814,0.49803,0,0,0,0,0,-0.614296,-0.15814,281,-68,281,-68,400,-60,274,60,0.0788975,-0.261799,0,-1.5,-nan,0,0,0,-0.61385,-0.148309,0,0,0,0,-0.0758331,-0.0158103,16758,-0.612258,-0.147977,-0.0758331,-0.0158103,9897
9932,-3.21337e-12,8.05648e-38,-1.56343e-06,-3.27827e-12,8.05601e-38,0,-1.06601e-13,0,0,-3.66881,-0.149207,0.510144,0,0,0,0,0,-0.626273,-0.149207,278,-68,278,-68,400,-60,274,60,0.079951,-0.261799,0,-1.5,-nan,0,0,0,-0.617647,-0.149152,0,0,0,0,-0.0761329,-0.0179199,16380,-0.616962,-0.148991,-0.0761329,-0.0179199,9925
9953,-3.21337e-12,8.05648e-38,-1.56343e-06,-3.27827e-12,8.05601e-38,-3.40904e-12,-1.06601e-13,0,0,-3.66881,-0.149207,0.510144,0,0,0,0,0,-0.626273,-0.149207,278,-68,278,-68,400,-60,274,60,0.0801399,-0.261799,0,-1.5,-nan,0,0,0,-0.619246,-0.149529,0,0,0,0,-0.0761329,-0.0179199,16380,-0.616962,-0.148991,-0.0761329,-0.0179199,9925
9975,-3.21337e-12,8.05648e-38,-1.56343e-06,-3.27827e-12,8.05601e-38,0,-1.06601e-13,0,0,-3.67735,-0.159263,0.52571,0,0,0,0,0,-0.637966,-0.159263,280,-72,280,-72,400,-60,276,59,0.0802833,-0.261799,0,-1.5,-nan,0,0,0,-0.628052,-0.150115,0,0,0,0,-0.0918365,-0.0174215,16616,-0.626123,-0.149749,-0.0918365,-0.0174215,9962
9996,-3.21337e-12,8.05648e-38,-1.56343e-06,-3.27827e-12,8.05601e-38,-3.40904e-12,-1.06597e-13,0,0,-3.68561,-0.161747,0.544088,0,0,0,0,0,-0.649292,-0.161747,281,-72,281,-72,400,-63,276,56,0.261799,-0.261799,0,-1.5,-nan,0,0,0,-0.633125,-0.157334,0,0,0,0,-0.0992496,-0.0300437,16616,-0.63253,-0.157154,-0.0992496,-0.0300437,9992
10018,-3.21337e-12,8.05648e-38,-1.56343e-06,-3.27827e-12,8.05601e-38,0,-1.06598e-13,0,0,-3.68561,-0.161747,0.544088,0,0,0,0,0,-0.649292,-0.161747,281,-72,281,-72,400,-63,276,56,0.0879946,-0.261799,0,-1.5,-nan,0,0,0,-0.63521,-0.157965,0,0,0,0,-0.0992496,-0.0300437,16616,-0.63253,-0.157154,-0.0992496,-0.0300437,9992
10095,-3.21337e-12,8.05648e-38,-1.56343e-06,-3.27827e-12,8.05601e-38,-3.40904e-12,-1.066e-13,0,0,-3.61906,-0.137844,0.619885,0,0,0,0,0,-0.558116,-0.137844,278,-82,278,-82,398,-80,271,44,0.0815687,-0.261799,0,-1.5,-nan,0,0,0,-0.640933,-0.152298,0,0,0,0,-0.0939358,-0.0180675,16637,-0.633606,-0.150889,-0.0939358,-0.0180675,10080
10116,-3.21337e-12,8.05648e-38,-1.56343e-06,-3.27827e-12,8.05601e-38,0,-1.06598e-13,0,0,-3.61906,-0.137844,0.619885,0,0,0,0,0,-0.558116,-0.137844,278,-82,278,-82,398,-80,271,44,0.0817592,-0.261799,0,-1.5,-nan,0,0,0,-0.642906,-0.152678,0,0,0,0,-0.0939358,-0.0180675,16637,-0.633606,-0.150889,-0.0939358,-0.0180675,10080
10134,-3.21337e-12,8.05648e-38,-1.56343e-06,-3.27827e-12,8.05601e-38,-3.40904e-12,-1.06598e-13,0,0,-3.61906,-0.137844,0.619885,0,0,0,0,0,-0.558116,-0.137844,278,-82,278,-82,398,-80,271,44,0.0819218,-0.261799,0,-1.5,-nan,0,0,0,-0.644597,-0.153003,0,0,0,0,-0.0939358,-0.0180675,16637,-0.633606,-0.150889,-0.0939358,-0.0180675,10080
10151,-3.21337e-12,8.05648e-38,-1.56343e-06,-3.27827e-12,8.05601e-38,0,-1.06598e-13,0,0,-3.61906,-0.137844,0.619885,0,0,0,0,0,-0.558116,-0.137844,278,-82,278,-82,398,-80,271,44,0.0820754,-0.261799,0,-1.5,-nan,0,0,0,-0.646193,-0.15331,0,0,0,0,-0.0939358,-0.0180675,16637,-0.633606,-0.150889,-0.0939358,-0.0180675,10080
10173,-3.21337e-12,8.05648e-38,-1.56343e-06,-3.27827e-12,8.05601e-38,-3.40904e-12,-1.06599e-13,0,0,-3.61906,-0.137844,0.619885,0,0,0,0,0,-0.558116,-0.137844,278,-82,278,-82,398,-80,271,44,0.0822741,-0.261799,0,-1.5,-nan,0,0,0,-0.64826,-0.153708,0,0,0,0,-0.0939358,-0.0180675,16637,-0.633606,-0.150889,-0.0939358,-0.0180675,10080
10187,-3.21337e-12,8.05648e-38,-1.56343e-06,-3.27827e-12,8.05601e-38,0,-1.06599e-13,0,0,-3.61906,-0.137844,0.619885,0,0,0,0,0,-0.558116,-0.137844,278,-82,278,-82,398,-80,271,44,0.0824006,-0.261799,0,-1.5,-nan,0,0,0,-0.649575,-0.153961,0,0,0,0,-0.0939358,-0.0180675,16637,-0.633606,-0.150889,-0.0939358,-0.0180675,10080
10204,-3.21337e-12,8.05648e-38,-1.56343e-06,-3.27827e-12,8.05601e-38,-3.40904e-12,-1.06599e-13,0,0,-3.61906,-0.137844,0.619885,0,0,0,0,0,-0.558116,-0.137844,278,-82,278,-82,398,-80,271,44,0.0825542,-0.261799,0,-1.5,-nan,0,0,0,-0.651172,-0.154268,0,0,0,0,-0.0939358,-0.0180675,16637,-0.633606,-0.150889,-0.0939358,-0.0180675,10080
10256,-3.21337e-12,8.05648e-38,-1.56343e-06,-3.27827e-12,8.05601e-38,0,-1.06602e-13,0,0,-3.61906,-0.137844,0.619885,0,0,0,0,0,-0.558116,-0.137844,278,-82,278,-82,398,-80,271,44,0.0830239,-0.261799,0,-1.5,-nan,0,0,0,-0.656057,-0.155207,0,0,0,0,-0.0939358,-0.0180675,16637,-0.633606,-0.150889,-0.0939358,-0.0180675,10080
10292,-3.21337e-12,8.05648e-38,-1.56343e-06,-3.27827e-12,8.05601e-38,-3.40904e-12,-1.06602e-13,0,0,-3.61906,-0.137844,0.619885,0,0,0,0,0,-0.558116,-0.137844,278,-82,278,-82,398,-80,271,44,0.0833492,-0.261799,0,-1.5,-nan,0,0,0,-0.659439,-0.155858,0,0,0,0,-0.0939358,-0.0180675,16637,-0.633606,-0.150889,-0.0939358,-0.0180675,10080
10314,-3.21337e-12,8.05648e-38,-1.56343e-06,-3.27827e-12,8.05601e-38,0,-1.06602e-13,0,0,-3.61906,-0.137844,0.619885,0,0,0,0,0,-0.558116,-0.137844,278,-82,278,-82,398,-80,271,44,0.0835501,-0.261799,0,-1.5,-nan,0,0,0,-0.661505,-0.156255,0,0,0,0,-0.0939358,-0.0180675,16637,-0.633606,-0.150889,-0.0939358,-0.0180675,10080
10331,-3.21337e-12,8.05648e-38,-1.56343e-06,-3.27827e-12,8.05601e-38,-3.40904e-12,-1.06602e-13,0,0,-3.61906,-0.137844,0.619885,0,0,0,0,0,-0.558116,-0.137844,278,-82,278,-82,398,-80,271,44,0.0837015,-0.261799,0,-1.5,-nan,0,0,0,-0.663102,-0.156562,0,0,0,0,-0.0939358,-0.0180675,16637,-0.633606,-0.150889,-0.0939358,-0.0180675,10080
10348,-3.21337e-12,8.05648e-38,-1.56343e-06,-3.27827e-12,8.05601e-38,0,-1.06603e-13,0,0,-3.61906,-0.137844,0.619885,0,0,0,0,0,-0.558116,-0.137844,278,-82,278,-82,398,-80,271,44,0.0838558,-0.261799,0,-1.5,-nan,0,0,0,-0.664699,-0.15687,0,0,0,0,-0.0939358,-0.0180675,16637,-0.633606,-0.150889,-0.0939358,-0.0180675,10080
10369,-3.21337e-12,8.05648e-38,-1.56343e-06,-3.27827e-12,8.05601e-38,-3.40904e-12,-1.06603e-13,0,0,-3.61906,-0.137844,0.619885,0,0,0,0,0,-0.558116,-0.137844,278,-82,278,-82,398,-80,271,44,0.0840448,-0.261799,0,-1.5,-nan,0,0,0,-0.666672,-0.157249,0,0,0,0,-0.0939358,-0.0180675,16637,-0.633606,-0.150889,-0.0939358,-0.0180675,10080
10386,-3.21337e-12,8.05648e-38,-1.56343e-06,-3.27827e-12,8.05601e-38,0,-1.06603e-13,0,0,-3.61906,-0.137844,0.619885,0,0,0,0,0,-0.558116,-0.137844,278,-82,278,-82,398,-80,271,44,0.0841991,-0.261799,0,-1.5,-nan,0,0,0,-0.668269,-0.157556,0,0,0,0,-0.0939358,-0.0180675,16637,-0.633606,-0.150889,-0.0939358,-0.0180675,10080
10402,-3.21337e-12,8.05648e-38,-1.56343e-06,-3.27827e-12,8.05601e-38,-3.40904e-12,-1.06603e-13,0,0,-3.61906,-0.137844,0.619885,0,0,0,0,0,-0.558116,-0.137844,278,-82,278,-82,398,-80,271,44,0.0843429,-0.261799,0,-1.5,-nan,0,0,0,-0.669772,-0.157845,0,0,0,0,-0.0939358,-0.0180675,16637,-0.633606,-0.150889,-0.0939358,-0.0180675,10080
10495,-3.21337e-12,8.05648e-38,-1.56343e-06,-3.27827e-12,8.05601e-38,0,-1.06604e-13,0,0,-3.61906,-0.137844,0.619885,0,0,0,0,0,-0.558116,-0.137844,278,-82,278,-82,398,-80,271,44,0.0851838,-0.261799,0,-1.5,-nan,0,0,0,-0.678508,-0.159525,0,0,0,0,-0.0939358,-0.0180675,16637,-0.633606,-0.150889,-0.0939358,-0.0180675,10080
10513,-3.21337e-12,8.05648e-38,-1.56343e-06,-3.27827e-12,8.05601e-38,-3.40904e-12,-1.06604e-13,0,0,-3.61906,-0.137844,0.619885,0,0,0,0,0,-0.558116,-0.137844,278,-82,278,-82,398,-80,271,44,0.0853456,-0.261799,0,-1.5,-nan,0,0,0,-0.680199,-0.159851,0,0,0,0,-0.0939358,-0.0180675,16637,-0.633606,-0.150889,-0.0939358,-0.0180675,10080
10575,-3.21337e-12,8.05648e-38,-1.56343e-06,-3.27827e-12,8.05601e-38,0,-1.06604e-13,0,0,-3.61906,-0.137844,0.619885,-0.68602,-0.16097,-0.0935138,-0.0179863,0,-0.558116,-0.137844,278,-82,278,-82,398,-80,271,44,0.0858809,-0.261799,0,-1.5,-nan,0,0,0,-0.68602,-0.16097,0,0,0,0,-0.0935138,-0.0179863,16637,0,0,0,0,10080
10612,-3.21337e-12,8.05648e-38,-1.56343e-06,-3.27827e-12,8.05601e-38,-3.40904e-12,-1.06605e-13,0,0,-3.61906,-0.137844,0.619885,-0.68943,-0.161626,-0.0917903,-0.0176548,0,-0.558116,-0.137844,278,-82,278,-82,398,-80,271,44,0.0861089,-0.261799,0,-1.5,-nan,0,0,0,-0.68943,-0.161626,0,0,0,0,-0.0917903,-0.0176548,16637,0,0,0,0,10080
10660,-3.21337e-12,8.05648e-38,-1.56343e-06,-3.27827e-12,8.05601e-38,0,-1.06605e-13,0,0,-3.61906,-0.137844,0.619885,-0.693747,-0.162457,-0.0895961,-0.0172328,0,-0.558116,-0.137844,278,-82,278,-82,398,-80,271,44,0.0863983,-0.261799,0,-1.5,-nan,0,0,0,-0.693747,-0.162457,0,0,0,0,-0.0895961,-0.0172328,16637,0,0,0,0,10080
10681,-3.21337e-12,8.05648e-38,-1.56343e-06,-3.27827e-12,8.05601e-38,-3.40904e-12,-1.06605e-13,0,0,-3.61906,-0.137844,0.619885,-0.695615,-0.162816,-0.0886582,-0.0170524,0,-0.558116,-0.137844,278,-82,278,-82,398,-80,271,44,0.0865242,-0.261799,0,-1.5,-nan,0,0,0,-0.695615,-0.162816,0,0,0,0,-0.0886582,-0.0170524,16637,0,0,0,0,10080
10699,-3.21337e-12,8.05648e-38,-1.56343e-06,-3.27827e-12,8.05601e-38,0,-1.06605e-13,0,0,-3.61906,-0.137844,0.619885,-0.697201,-0.163121,-0.0878627,-0.0168994,0,-0.558116,-0.137844,278,-82,278,-82,398,-80,271,44,0.0866298,-0.261799,0,-1.5,-nan,0,0,0,-0.697201,-0.163121,0,0,0,0,-0.0878627,-0.0168994,16637,0,0,0,0,10080
10716,-3.21337e-12,8.05648e-38,-1.56343e-06,-3.27827e-12,8.05601e-38,-3.40904e-12,-1.06606e-13,0,0,-3.61906,-0.137844,0.619885,-0.6986,-0.16339,-0.0871618,-0.0167646,0,-0.558116,-0.137844,278,-82,278,-82,398,-80,271,44,0.0850477,-0.261799,0,-1.5,-nan,0,0,0,-0.6986,-0.16339,0,0,0,0,-0.0871618,-0.0167646,16637,0,0,0,0,10080
10737,-3.21337e-12,8.05648e-38,-1.56343e-06,-3.27827e-12,8.05601e-38,0,-1.06606e-13,0,0,-3.61906,-0.137844,0.619885,-0.700502,-0.163756,-0.0862059,-0.0165807,0,-0.558116,-0.137844,278,-82,278,-82,398,-80,271,44,0.0868511,-0.261799,0,-1.5,-nan,0,0,0,-0.700502,-0.163756,0,0,0,0,-0.0862059,-0.0165807,16637,0,0,0,0,10080
10754,-3.21337e-12,8.05648e-38,-1.56343e-06,-3.27827e-12,8.05601e-38,-3.40904e-12,-1.06606e-13,0,0,-3.61906,-0.137844,0.619885,-0.701959,-0.164036,-0.0854753,-0.0164402,0,-0.558116,-0.137844,278,-82,278,-82,398,-80,271,44,0.086951,-0.261799,0,-1.5,-nan,0,0,0,-0.701959,-0.164036,0,0,0,0,-0.0854753,-0.0164402,16637,0,0,0,0,10080
10771,-3.21337e-12,8.05648e-38,-1.56343e-06,-3.27827e-12,8.05601e-38,0,-1.06606e-13,0,0,-3.61906,-0.137844,0.619885,-0.703404,-0.164314,-0.0847509,-0.0163009,0,-0.558116,-0.137844,278,-82,278,-82,398,-80,271,44,0.0870476,-0.261799,0,-1.5,-nan,0,0,0,-0.703404,-0.164314,0,0,0,0,-0.0847509,-0.0163009,16637,0,0,0,0,10080
10792,-3.21337e-12,8.05648e-38,-1.56343e-06,-3.27827e-12,8.05601e-38,-3.40904e-12,-1.06607e-13,0,0,-3.61906,-0.137844,0.619885,-0.705171,-0.164654,-0.0838637,-0.0161302,0,-0.558116,-0.137844,278,-82,278,-82,398,-80,271,44,0.087166,-0.261799,0,-1.5,-nan,0,0,0,-0.705171,-0.164654,0,0,0,0,-0.0838637,-0.0161302,16637,0,0,0,0,10080
10809,-3.21337e-12,8.05648e-38,-1.56343e-06,-3.27827e-12,8.05601e-38,0,-1.06607e-13,0,0,-3.61906,-0.137844,0.619885,-0.706589,-0.164926,-0.083153,-0.0159935,0,-0.558116,-0.137844,278,-82,278,-82,398,-80,271,44,0.0872621,-0.261799,0,-1.5,-nan,0,0,0,-0.706589,-0.164926,0,0,0,0,-0.083153,-0.0159935,16637,0,0,0,0,10080
10831,-3.21337e-12,8.05648e-38,-1.56343e-06,-3.27827e-12,8.05601e-38,-3.40904e-12,-1.06607e-13,0,0,-3.61906,-0.137844,0.619885,-0.708322,-0.16526,-0.0822826,-0.0158261,0,-0.558116,-0.137844,278,-82,278,-82,398,-80,271,44,0.0873774,-0.261799,0,-1.5,-nan,0,0,0,-0.708322,-0.16526,0,0,0,0,-0.0822826,-0.0158261,16637,0,0,0,0,10080
10848,-3.21337e-12,8.05648e-38,-1.56343e-06,-3.27827e-12,8.05601e-38,0,-1.06607e-13,0,0,-3.61906,-0.137844,0.619885,-0.709713,-0.165527,-0.0815851,-0.015692,0,-0.558116,-0.137844,278,-82,278,-82,398,-80,271,44,0.0874709,-0.261799,0,-1.5,-nan,0,0,0,-0.709713,-0.165527,0,0,0,0,-0.0815851,-0.015692,16637,0,0,0,0,10080
10879,-3.21337e-12,8.05648e-38,-1.56343e-06,-3.27827e-12,8.05601e-38,-3.40904e-12,-1.06608e-13,0,0,-3.61906,-0.137844,0.619885,-0.71229,-0.166023,-0.0802842,-0.0154417,0,-0.558116,-0.137844,278,-82,278,-82,398,-80,271,44,0.0876451,-0.261799,0,-1.5,-nan,0,0,0,-0.71229,-0.166023,0,0,0,0,-0.0802842,-0.0154417,16637,0,0,0,0,10080
10898,-3.21337e-12,8.05648e-38,-1.56343e-06,-3.27827e-12,8.05601e-38,0,-1.06608e-13,0,0,-3.61906,-0.137844,0.619885,-0.713806,-0.166315,-0.0795239,-0.0152955,0,-0.558116,-0.137844,278,-82,278,-82,398,-80,271,44,0.0877462,-0.261799,0,-1.5,-nan,0,0,0,-0.713806,-0.166315,0,0,0,0,-0.0795239,-0.0152955,16637,0,0,0,0,10080
10915,-3.21337e-12,8.05648e-38,-1.56343e-06,-3.27827e-12,8.05601e-38,-3.40904e-12,-1.06608e-13,0,0,-3.61906,-0.137844,0.619885,-0.715151,-0.166573,-0.0788499,-0.0151659,0,-0.558116,-0.137844,278,-82,278,-82,398,-80,271,44,0.0878375,-0.261799,0,-1.5,-nan,0,0,0,-0.715151,-0.166573,0,0,0,0,-0.0788499,-0.0151659,16637,0,0,0,0,10080
10932,-3.21337e-12,8.05648e-38,-1.56343e-06,-3.27827e-12,8.05601e-38,0,-1.06609e-13,0,0,-3.61906,-0.137844,0.619885,-0.716484,-0.16683,-0.0781816,-0.0150373,0,-0.558116,-0.137844,278,-82,278,-82,398,-80,271,44,0.0879254,-0.261799,0,-1.5,-nan,0,0,0,-0.716484,-0.16683,0,0,0,0,-0.0781816,-0.0150373,16637,0,0,0,0,10080
10953,-3.21337e-12,8.05648e-38,-1.56343e-06,-3.27827e-12,8.05601e-38,-3.40904e-12,-1.06609e-13,0,0,-3.61906,-0.137844,0.619885,-0.718113,-0.167143,-0.0773632,-0.0148799,0,-0.558116,-0.137844,278,-82,278,-82,398,-80,271,44,0.0880352,-0.261799,0,-1.5,-nan,0,0,0,-0.718113,-0.167143,0,0,0,0,-0.0773632,-0.0148799,16637,0,0,0,0,10080
10971,-3.21337e-12,8.05648e-38,-1.56343e-06,-3.27827e-12,8.05601e-38,0,-1.06609e-13,0,0,-3.61906,-0.137844,0.619885,-0.719421,-0.167395,-0.0767075,-0.0147538,0,-0.558116,-0.137844,278,-82,278,-82,398,-80,271,44,0.0881229,-0.261799,0,-1.5,-nan,0,0,0,-0.719421,-0.167395,0,0,0,0,-0.0767075,-0.0147538,16637,0,0,0,0,10080
10987,-3.21337e-12,8.05648e-38,-1.56343e-06,-3.27827e-12,8.05601e-38,-3.40904e-12,-1.06609e-13,0,0,-3.61906,-0.137844,0.619885,-0.720717,-0.167644,-0.0760573,-0.0146287,0,-0.558116,-0.137844,278,-82,278,-82,398,-80,271,44,0.0882096,-0.261799,0,-1.5,-nan,0,0,0,-0.720717,-0.167644,0,0,0,0,-0.0760573,-0.0146287,16637,0,0,0,0,10080
11027,-3.21337e-12,8.05648e-38,-1.56343e-06,-3.27827e-12,8.05601e-38,0,-1.0661e-13,0,0,-3.61906,-0.137844,0.619885,-0.723636,-0.168205,-0.0745793,-0.0143445,0,-0.558116,-0.137844,278,-82,278,-82,398,-80,271,44,0.0884054,-0.261799,0,-1.5,-nan,0,0,0,-0.723636,-0.168205,0,0,0,0,-0.0745793,-0.0143445,16637,0,0,0,0,10080
11044,-3.21337e-12,8.05648e-38,-1.56343e-06,-3.27827e-12,8.05601e-38,-3.40904e-12,-1.0661e-13,0,0,-3.61906,-0.137844,0.619885,-0.724971,-0.168462,-0.0739102,-0.0142158,0,-0.558116,-0.137844,278,-82,278,-82,398,-80,271,44,0.0884957,-0.261799,0,-1.5,-nan,0,0,0,-0.724971,-0.168462,0,0,0,0,-0.0739102,-0.0142158,16637,0,0,0,0,10080
11065,-3.21337e-12,8.05648e-38,-1.56343e-06,-3.27827e-12,8.05601e-38,0,-1.0661e-13,0,0,-3.61906,-0.137844,0.619885,-0.726511,-0.168758,-0.0731365,-0.014067,0,-0.558116,-0.137844,278,-82,278,-82,398,-80,271,44,0.0885992,-0.261799,0,-1.5,-nan,0,0,0,-0.726511,-0.168758,0,0,0,0,-0.0731365,-0.014067,16637,0,0,0,0,10080
11082,-3.21337e-12,8.05648e-38,-1.56343e-06,-3.27827e-12,8.05601e-38,-3.40904e-12,-1.0661e-13,0,0,-3.61906,-0.137844,0.619885,-0.727748,-0.168996,-0.0725166,-0.0139477,0,-0.558116,-0.137844,278,-82,278,-82,398,-80,271,44,0.0886823,-0.261799,0,-1.5,-nan,0,0,0,-0.727748,-0.168996,0,0,0,0,-0.0725166,-0.0139477,16637,0,0,0,0,10080
11119,-3.21337e-12,8.05648e-38,-1.56343e-06,-3.27827e-12,8.05601e-38,0,-1.06611e-13,0,0,-3.61906,-0.137844,0.619885,-0.73039,-0.169504,-0.0711797,-0.0136906,0,-0.558116,-0.137844,278,-82,278,-82,398,-80,271,44,0.0888605,-0.261799,0,-1.5,-nan,0,0,0,-0.73039,-0.169504,0,0,0,0,-0.0711797,-0.0136906,16637,0,0,0,0,10080
11141,-3.21337e-12,8.05648e-38,-1.56343e-06,-3.27827e-12,8.05601e-38,-3.40904e-12,-1.06611e-13,0,0,-3.61906,-0.137844,0.619885,-0.731944,-0.169803,-0.0703993,-0.0135405,0,-0.558116,-0.137844,278,-82,278,-82,398,-80,271,44,0.088963,-0.261799,0,-1.5,-nan,0,0,0,-0.731944,-0.169803,0,0,0,0,-0.0703993,-0.0135405,16637,0,0,0,0,10080
11155,-3.21337e-12,8.05648e-38,-1.56343e-06,-3.27827e-12,8.05601e-38,0,-1.06611e-13,0,0,-3.61906,-0.137844,0.619885,-0.732926,-0.169992,-0.0699078,-0.013446,0,-0.558116,-0.137844,278,-82,278,-82,398,-80,271,44,0.0890305,-0.261799,0,-1.5,-nan,0,0,0,-0.732926,-0.169992,0,0,0,0,-0.0699078,-0.013446,16637,0,0,0,0,10080
11172,-3.21337e-12,8.05648e-38,-1.56343e-06,-3.27827e-12,8.05601e-38,-3.40904e-12,-1.06612e-13,0,0,-3.61906,-0.137844,0.619885,-0.734107,-0.170219,-0.0693152,-0.013332,0,-0.558116,-0.137844,278,-82,278,-82,398,-80,271,44,0.0891084,-0.261799,0,-1.5,-nan,0,0,0,-0.734107,-0.170219,0,0,0,0,-0.0693152,-0.013332,16637,0,0,0,0,10080
11223,-3.21337e-12,8.05648e-38,-1.56343e-06,-3.27827e-12,8.05601e-38,0,-1.06612e-13,0,0,-3.61906,-0.137844,0.619885,-0.737565,-0.170884,-0.0675541,-0.0129932,0,-0.558116,-0.137844,278,-82,278,-82,398,-80,271,44,0.0893403,-0.261799,0,-1.5,-nan,0,0,0,-0.737565,-0.170884,0,0,0,0,-0.0675541,-0.0129932,16637,0,0,0,0,10080
11240,-3.21337e-12,8.05648e-38,-1.56343e-06,-3.27827e-12,8.05601e-38,-3.40904e-12,-1.06612e-13,0,0,-3.61906,-0.137844,0.619885,-0.738707,-0.171104,-0.0669815,-0.0128831,0,-0.558116,-0.137844,278,-82,278,-82,398,-80,271,44,0.0894166,-0.261799,0,-1.5,-nan,0,0,0,-0.738707,-0.171104,0,0,0,0,-0.0669815,-0.0128831,16637,0,0,0,0,10080
11262,-3.21337e-12,8.05648e-38,-1.56343e-06,-3.27827e-12,8.05601e-38,0,-1.06612e-13,0,0,-3.61906,-0.137844,0.619885,-0.740103,-0.171373,-0.0662803,-0.0127483,0,-0.558116,-0.137844,278,-82,278,-82,398,-80,271,44,0.0895106,-0.261799,0,-1.5,-nan,0,0,0,-0.740103,-0.171373,0,0,0,0,-0.0662803,-0.0127483,16637,0,0,0,0,10080
11278,-3.21337e-12,8.05648e-38,-1.56343e-06,-3.27827e-12,8.05601e-38,-3.40904e-12,-1.06613e-13,0,0,-3.61906,-0.137844,0.619885,-0.741223,-0.171588,-0.0657185,-0.0126402,0,-0.558116,-0.137844,278,-82,278,-82,398,-80,271,44,0.0895871,-0.261799,0,-1.5,-nan,0,0,0,-0.741223,-0.171588,0,0,0,0,-0.0657185,-0.0126402,16637,0,0,0,0,10080
11295,-3.21337e-12,8.05648e-38,-1.56343e-06,-3.27827e-12,8.05601e-38,0,-1.06613e-13,0,0,-3.61906,-0.137844,0.619885,-0.742334,-0.171802,-0.0651615,-0.0125331,0,-0.558116,-0.137844,278,-82,278,-82,398,-80,271,44,0.0896604,-0.261799,0,-1.5,-nan,0,0,0,-0.742334,-0.171802,0,0,0,0,-0.0651615,-0.0125331,16637,0,0,0,0,10080
11316,-3.21337e-12,8.05648e-38,-1.56343e-06,-3.27827e-12,8.05601e-38,-3.40904e-12,-1.06613e-13,0,0,-3.61906,-0.137844,0.619885,-0.743693,-0.172063,-0.0644794,-0.0124019,0,-0.558116,-0.137844,278,-82,278,-82,398,-80,271,44,0.089753,-0.261799,0,-1.5,-nan,0,0,0,-0.743693,-0.172063,0,0,0,0,-0.0644794,-0.0124019,16637,0,0,0,0,10080
11333,-3.21337e-12,8.05648e-38,-1.56343e-06,-3.27827e-12,8.05601e-38,0,-1.06613e-13,0,0,-3.61906,-0.137844,0.619885,-0.744783,-0.172273,-0.0639328,-0.0122967,0,-0.558116,-0.137844,278,-82,278,-82,398,-80,271,44,0.0898243,-0.261799,0,-1.5,-nan,0,0,0,-0.744783,-0.172273,0,0,0,0,-0.0639328,-0.0122967,16637,0,0,0,0,10080
11350,-3.21337e-12,8.05648e-38,-1.56343e-06,-3.27827e-12,8.05601e-38,-3.40904e-12,-1.06614e-13,0,0,-3.61906,-0.137844,0.619885,-0.745863,-0.17248,-0.0633909,-0.0121925,0,-0.558116,-0.137844,278,-82,278,-82,398,-80,271,44,0.089897,-0.261799,0,-1.5,-nan,0,0,0,-0.745863,-0.17248,0,0,0,0,-0.0633909,-0.0121925,16637,0,0,0,0,10080
11371,-3.21337e-12,8.05648e-38,-1.56343e-06,-3.27827e-12,8.05601e-38,0,-1.06614e-13,0,0,-3.61906,-0.137844,0.619885,-0.747184,-0.172735,-0.0627274,-0.0120649,0,-0.558116,-0.137844,278,-82,278,-82,398,-80,271,44,0.089986,-0.261799,0,-1.5,-nan,0,0,0,-0.747184,-0.172735,0,0,0,0,-0.0627274,-0.0120649,16637,0,0,0,0,10080
11388,-3.21337e-12,8.05648e-38,-1.56343e-06,-3.27827e-12,8.05601e-38,-3.40904e-12,-1.06614e-13,0,0,-3.61906,-0.137844,0.619885,-0.748245,-0.172938,-0.0621957,-0.0119626,0,-0.558116,-0.137844,278,-82,278,-82,398,-80,271,44,0.0900589,-0.261799,0,-1.5,-nan,0,0,0,-0.748245,-0.172938,0,0,0,0,-0.0621957,-0.0119626,16637,0,0,0,0,10080
11402,-3.21337e-12,8.05648e-38,-1.56343e-06,-3.27827e-12,8.05601e-38,0,-1.06615e-13,0,0,-3.61906,-0.137844,0.619885,-0.749112,-0.173105,-0.0617614,-0.0118791,0,-0.558116,-0.137844,278,-82,278,-82,398,-80,271,44,0.0901155,-0.261799,0,-1.5,-nan,0,0,0,-0.749112,-0.173105,0,0,0,0,-0.0617614,-0.0118791,16637,0,0,0,0,10080
11438,-3.21337e-12,8.05648e-38,-1.56343e-06,-3.27827e-12,8.05601e-38,-3.40904e-12,-1.06615e-13,0,0,-3.61906,-0.137844,0.619885,-0.751303,-0.173527,-0.0606535,-0.011666,0,-0.558116,-0.137844,278,-82,278,-82,398,-80,271,44,0.0902636,-0.261799,0,-1.5,-nan,0,0,0,-0.751303,-0.173527,0,0,0,0,-0.0606535,-0.011666,16637,0,0,0,0,10080
11455,-3.21337e-12,8.05648e-38,-1.56343e-06,-3.27827e-12,8.05601e-38,0,-1.06615e-13,0,0,-3.61906,-0.137844,0.619885,-0.752328,-0.173724,-0.0601394,-0.0115671,0,-0.558116,-0.137844,278,-82,278,-82,398,-80,271,44,0.0903331,-0.261799,0,-1.5,-nan,0,0,0,-0.752328,-0.173724,0,0,0,0,-0.0601394,-0.0115671,16637,0,0,0,0,10080
11476,-3.21337e-12,8.05648e-38,-1.56343e-06,-3.27827e-12,8.05601e-38,-3.40904e-12,-1.06615e-13,0,0,-3.61906,-0.137844,0.619885,-0.753581,-0.173965,-0.0595099,-0.011446,0,-0.558116,-0.137844,278,-82,278,-82,398,-80,271,44,0.0904157,-0.261799,0,-1.5,-nan,0,0,0,-0.753581,-0.173965,0,0,0,0,-0.0595099,-0.011446,16637,0,0,0,0,10080
11493,-3.21337e-12,8.05648e-38,-1.56343e-06,-3.27827e-12,8.05601e-38,0,-1.06616e-13,0,0,-3.61906,-0.137844,0.619885,-0.754587,-0.174158,-0.0590055,-0.011349,0,-0.558116,-0.137844,278,-82,278,-82,398,-80,271,44,0.0904834,-0.261799,0,-1.5,-nan,0,0,0,-0.754587,-0.174158,0,0,0,0,-0.0590055,-0.011349,16637,0,0,0,0,10080
11510,-3.21337e-12,8.05648e-38,-1.56343e-06,-3.27827e-12,8.05601e-38,-3.40904e-12,-1.06616e-13,0,0,-3.61906,-0.137844,0.619885,-0.755585,-0.17435,-0.0585053,-0.0112528,0,-0.558116,-0.137844,278,-82,278,-82,398,-80,271,44,0.0905502,-0.261799,0,-1.5,-nan,0,0,0,-0.755585,-0.17435,0,0,0,0,-0.0585053,-0.0112528,16637,0,0,0,0,10080
11532,-3.21337e-12,8.05648e-38,-1.56343e-06,-3.27827e-12,8.05601e-38,0,-1.06616e-13,0,0,-3.61906,-0.137844,0.619885,-0.756804,-0.174585,-0.0578929,-0.011135,0,-0.558116,-0.137844,278,-82,278,-82,398,-80,271,44,0.090634,-0.261799,0,-1.5,-nan,0,0,0,-0.756804,-0.174585,0,0,0,0,-0.0578929,-0.011135,16637,0,0,0,0,10080
11549,-3.21337e-12,8.05648e-38,-1.56343e-06,-3.27827e-12,8.05601e-38,-3.40904e-12,-1.06616e-13,0,0,-3.61906,-0.137844,0.619885,-0.75784,-0.174784,-0.0573735,-0.0110351,0,-0.558116,-0.137844,278,-82,278,-82,398,-80,271,44,0.0907023,-0.261799,0,-1.5,-nan,0,0,0,-0.75784,-0.174784,0,0,0,0,-0.0573735,-0.0110351,16637,0,0,0,0,10080
11566,-3.21337e-12,8.05648e-38,-1.56343e-06,-3.27827e-12,8.05601e-38,0,-1.06617e-13,0,0,-3.61906,-0.137844,0.619885,-0.75881,-0.174971,-0.0568873,-0.0109416,0,-0.558116,-0.137844,278,-82,278,-82,398,-80,271,44,0.0907688,-0.261799,0,-1.5,-nan,0,0,0,-0.75881,-0.174971,0,0,0,0,-0.0568873,-0.0109416,16637,0,0,0,0,10080
11587,-3.21337e-12,8.05648e-38,-1.56343e-06,-3.27827e-12,8.05601e-38,-3.40904e-12,-1.06617e-13,0,0,-3.61906,-0.137844,0.619885,-0.759996,-0.175199,-0.0562919,-0.0108271,0,-0.558116,-0.137844,278,-82,278,-82,398,-80,271,44,0.0908471,-0.261799,0,-1.5,-nan,0,0,0,-0.759996,-0.175199,0,0,0,0,-0.0562919,-0.0108271,16637,0,0,0,0,10080
11604,-3.21337e-12,8.05648e-38,-1.56343e-06,-3.27827e-12,8.05601e-38,0,-1.06617e-13,0,0,-3.61906,-0.137844,0.619885,-0.760948,-0.175382,-0.0558149,-0.0107354,0,-0.558116,-0.137844,278,-82,278,-82,398,-80,271,44,0.0909118,-0.261799,0,-1.5,-nan,0,0,0,-0.760948,-0.175382,0,0,0,0,-0.0558149,-0.0107354,16637,0,0,0,0,10080
11643,-3.21337e-12,8.05648e-38,-1.56343e-06,-3.27827e-12,8.05601e-38,-3.40904e-12,-1.06618e-13,0,0,-3.61906,-0.137844,0.619885,-0.763091,-0.175794,-0.0547307,-0.0105268,0,-0.558116,-0.137844,278,-82,278,-82,398,-80,271,44,0.0910553,-0.261799,0,-1.5,-nan,0,0,0,-0.763091,-0.175794,0,0,0,0,-0.0547307,-0.0105268,16637,0,0,0,0,10080
11661,-3.21337e-12,8.05648e-38,-1.56343e-06,-3.27827e-12,8.05601e-38,0,-1.06618e-13,0,0,-3.61906,-0.137844,0.619885,-0.76407,-0.175982,-0.0542395,-0.0104323,0,-0.558116,-0.137844,278,-82,278,-82,398,-80,271,44,0.0911204,-0.261799,0,-1.5,-nan,0,0,0,-0.76407,-0.175982,0,0,0,0,-0.0542395,-0.0104323,16637,0,0,0,0,10080
11675,-3.21337e-12,8.05648e-38,-1.56343e-06,-3.27827e-12,8.05601e-38,-3.40904e-12,-1.06618e-13,0,0,-3.61906,-0.137844,0.619885,-0.764826,-0.176128,-0.0538608,-0.0103595,0,-0.558116,-0.137844,278,-82,278,-82,398,-80,271,44,0.0927264,-0.261799,0,-1.5,-nan,0,0,0,-0.764826,-0.176128,0,0,0,0,-0.0538608,-0.0103595,16637,0,0,0,0,10080
11693,-3.21337e-12,8.05648e-38,-1.56343e-06,-3.27827e-12,8.05601e-38,0,-1.06618e-13,0,0,-3.61906,-0.137844,0.619885,-0.765789,-0.176313,-0.0533775,-0.0102665,0,-0.558116,-0.137844,278,-82,278,-82,398,-80,271,44,0.0912366,-0.261799,0,-1.5,-nan,0,0,0,-0.765789,-0.176313,0,0,0,0,-0.0533775,-0.0102665,16637,0,0,0,0,10080
11710,-3.21337e-12,8.05648e-38,-1.56343e-06,-3.27827e-12,8.05601e-38,-3.40904e-12,-1.06619e-13,0,0,-3.61906,-0.137844,0.619885,-0.766692,-0.176487,-0.0529251,-0.0101795,0,-0.558116,-0.137844,278,-82,278,-82,398,-80,271,44,0.0912965,-0.261799,0,-1.5,-nan,0,0,0,-0.766692,-0.176487,0,0,0,0,-0.0529251,-0.0101795,16637,0,0,0,0,10080
11758,-3.21337e-12,8.05648e-38,-1.56343e-06,-3.27827e-12,8.05601e-38,0,-1.06619e-13,0,0,-3.61906,-0.137844,0.619885,-0.76918,-0.176965,-0.0516595,-0.00993611,0,-0.558116,-0.137844,278,-82,278,-82,398,-80,271,44,0.0914643,-0.261799,0,-1.5,-nan,0,0,0,-0.76918,-0.176965,0,0,0,0,-0.0516595,-0.00993611,16637,0,0,0,0,10080
11780,-3.21337e-12,8.05648e-38,-1.56343e-06,-3.27827e-12,8.05601e-38,-3.40904e-12,-1.06619e-13,0,0,-3.61906,-0.137844,0.619885,-0.770308,-0.177182,-0.0510931,-0.00982718,0,-0.558116,-0.137844,278,-82,278,-82,398,-80,271,44,0.0915393,-0.261799,0,-1.5,-nan,0,0,0,-0.770308,-0.177182,0,0,0,0,-0.0510931,-0.00982718,16637,0,0,0,0,10080
11817,-3.21337e-12,8.05648e-38,-1.56343e-06,-3.27827e-12,8.05601e-38,0,-1.06619e-13,0,0,-3.61906,-0.137844,0.619885,-0.772171,-0.17754,-0.0501515,-0.00964607,0,-0.558116,-0.137844,278,-82,278,-82,398,-80,271,44,0.0916648,-0.261799,0,-1.5,-nan,0,0,0,-0.772171,-0.17754,0,0,0,0,-0.0501515,-0.00964607,16637,0,0,0,0,10080
11834,-3.21337e-12,8.05648e-38,-1.56343e-06,-3.27827e-12,8.05601e-38,-3.40904e-12,-1.0662e-13,0,0,-3.61906,-0.137844,0.619885,-0.773019,-0.177703,-0.0497264,-0.00956431,0,-0.558116,-0.137844,278,-82,278,-82,398,-80,271,44,0.0917217,-0.261799,0,-1.5,-nan,0,0,0,-0.773019,-0.177703,0,0,0,0,-0.0497264,-0.00956431,16637,0,0,0,0,10080
11873,-3.21337e-12,8.05648e-38,-1.56343e-06,-3.27827e-12,8.05601e-38,0,-1.0662e-13,0,0,-3.61906,-0.137844,0.619885,-0.774927,-0.178071,-0.0487601,-0.00937845,0,-0.558116,-0.137844,278,-82,278,-82,398,-80,271,44,0.0918493,-0.261799,0,-1.5,-nan,0,0,0,-0.774927,-0.178071,0,0,0,0,-0.0487601,-0.00937845,16637,0,0,0,0,10080
11891,-3.21337e-12,8.05648e-38,-1.56343e-06,-3.27827e-12,8.05601e-38,-3.40904e-12,-1.0662e-13,0,0,-3.61906,-0.137844,0.619885,-0.7758,-0.178238,-0.0483226,-0.00929431,0,-0.558116,-0.137844,278,-82,278,-82,398,-80,271,44,0.0919064,-0.261799,0,-1.5,-nan,0,0,0,-0.7758,-0.178238,0,0,0,0,-0.0483226,-0.00929431,16637,0,0,0,0,10080
11943,-3.21337e-12,8.05648e-38,-1.56343e-06,-3.27827e-12,8.05601e-38,0,-1.0662e-13,0,0,-3.61906,-0.137844,0.619885,-0.778256,-0.178711,-0.0470708,-0.00905353,0,-0.558116,-0.137844,278,-82,278,-82,398,-80,271,44,0.0920712,-0.261799,0,-1.5,-nan,0,0,0,-0.778256,-0.178711,0,0,0,0,-0.0470708,-0.00905353,16637,0,0,0,0,10080
11961,-3.21337e-12,8.05648e-38,-1.56343e-06,-3.27827e-12,8.05601e-38,-3.40904e-12,-1.06621e-13,0,0,-3.61906,-0.137844,0.619885,-0.779098,-0.178873,-0.0466485,-0.0089723,0,-0.558116,-0.137844,278,-82,278,-82,398,-80,271,44,0.0921276,-0.261799,0,-1.5,-nan,0,0,0,-0.779098,-0.178873,0,0,0,0,-0.0466485,-0.0089723,16637,0,0,0,0,10080
11978,-3.21337e-12,8.05648e-38,-1.56343e-06,-3.27827e-12,8.05601e-38,0,-1.06621e-13,0,0,-3.61906,-0.137844,0.619885,-0.779841,-0.179016,-0.0462763,-0.00890072,0,-0.558116,-0.137844,278,-82,278,-82,398,-80,271,44,0.0921789,-0.261799,0,-1.5,-nan,0,0,0,-0.779841,-0.179016,0,0,0,0,-0.0462763,-0.00890072,16637,0,0,0,0,10080
11999,-3.21337e-12,8.05648e-38,-1.56343e-06,-3.27827e-12,8.05601e-38,-3.40904e-12,-1.06621e-13,0,0,-3.61906,-0.137844,0.619885,-0.780851,-0.17921,-0.0457688,-0.00880311,0,-0.558116,-0.137844,278,-82,278,-82,398,-80,271,44,0.0922469,-0.261799,0,-1.5,-nan,0,0,0,-0.780851,-0.17921,0,0,0,0,-0.0457688,-0.00880311,16637,0,0,0,0,10080
12013,-3.21337e-12,8.05648e-38,-1.56343e-06,-3.27827e-12,8.05601e-38,0,-1.06622e-13,0,0,-3.61906,-0.137844,0.619885,-0.781489,-0.179333,-0.0454493,-0.00874165,0,-0.558116,-0.137844,278,-82,278,-82,398,-80,271,44,0.0922882,-0.261799,0,-1.5,-nan,0,0,0,-0.781489,-0.179333,0,0,0,0,-0.0454493,-0.00874165,16637,0,0,0,0,10080
12031,-3.21337e-12,8.05648e-38,-1.56343e-06,-3.27827e-12,8.05601e-38,-3.40904e-12,-1.06622e-13,0,0,-3.61906,-0.137844,0.619885,-0.782302,-0.179489,-0.0450415,-0.00866321,0,-0.558116,-0.137844,278,-82,278,-82,398,-80,271,44,0.0923433,-0.261799,0,-1.5,-nan,0,0,0,-0.782302,-0.179489,0,0,0,0,-0.0450415,-0.00866321,16637,0,0,0,0,10080
12052,-3.21337e-12,8.05648e-38,-1.56343e-06,-3.27827e-12,8.05601e-38,0,-1.06622e-13,0,0,-3.61906,-0.137844,0.619885,-0.783241,-0.17967,-0.0445701,-0.00857255,0,-0.558116,-0.137844,278,-82,278,-82,398,-80,271,44,0.0924075,-0.261799,0,-1.5,-nan,0,0,0,-0.783241,-0.17967,0,0,0,0,-0.0445701,-0.00857255,16637,0,0,0,0,10080
12069,-3.21337e-12,8.05648e-38,-1.56343e-06,-3.27827e-12,8.05601e-38,-3.40904e-12,-1.06622e-13,0,0,-3.61906,-0.137844,0.619885,-0.783995,-0.179815,-0.0441923,-0.00849989,0,-0.558116,-0.137844,278,-82,278,-82,398,-80,271,44,0.0924576,-0.261799,0,-1.5,-nan,0,0,0,-0.783995,-0.179815,0,0,0,0,-0.0441923,-0.00849989,16637,0,0,0,0,10080
12086,-3.21337e-12,8.05648e-38,-1.56343e-06,-3.27827e-12,8.05601e-38,0,-1.06623e-13,0,0,-3.61906,-0.137844,0.619885,-0.784742,-0.179958,-0.0438178,-0.00842784,0,-0.558116,-0.137844,278,-82,278,-82,398,-80,271,44,0.0925071,-0.261799,0,-1.5,-nan,0,0,0,-0.784742,-0.179958,0,0,0,0,-0.0438178,-0.00842784,16637,0,0,0,0,10080
12108,-3.21337e-12,8.05648e-38,-1.56343e-06,-3.27827e-12,8.05601e-38,-3.40904e-12,-1.06623e-13,0,0,-3.61906,-0.137844,0.619885,-0.785698,-0.180142,-0.0433374,-0.00833545,0,-0.558116,-0.137844,278,-82,278,-82,398,-80,271,44,0.0925723,-0.261799,0,-1.5,-nan,0,0,0,-0.785698,-0.180142,0,0,0,0,-0.0433374,-0.00833545,16637,0,0,0,0,10080
12125,-3.21337e-12,8.05648e-38,-1.56343e-06,-3.27827e-12,8.05601e-38,0,-1.06623e-13,0,0,-3.61906,-0.137844,0.619885,-0.786431,-0.180283,-0.04297,-0.00826479,0,-0.558116,-0.137844,278,-82,278,-82,398,-80,271,44,0.0926204,-0.261799,0,-1.5,-nan,0,0,0,-0.786431,-0.180283,0,0,0,0,-0.04297,-0.00826479,16637,0,0,0,0,10080
12147,-3.21337e-12,8.05648e-38,-1.56343e-06,-3.27827e-12,8.05601e-38,-3.40904e-12,-1.06623e-13,0,0,-3.61906,-0.137844,0.619885,-0.787369,-0.180464,-0.0424989,-0.00817418,0,-0.558116,-0.137844,278,-82,278,-82,398,-80,271,44,0.0926845,-0.261799,0,-1.5,-nan,0,0,0,-0.787369,-0.180464,0,0,0,0,-0.0424989,-0.00817418,16637,0,0,0,0,10080
12164,-3.21337e-12,8.05648e-38,-1.56343e-06,-3.27827e-12,8.05601e-38,0,-1.06624e-13,0,0,-3.61906,-0.137844,0.619885,-0.788087,-0.180602,-0.0421387,-0.0081049,0,-0.558116,-0.137844,278,-82,278,-82,398,-80,271,44,0.0927328,-0.261799,0,-1.5,-nan,0,0,0,-0.788087,-0.180602,0,0,0,0,-0.0421387,-0.0081049,16637,0,0,0,0,10080
12181,-3.21337e-12,8.05648e-38,-1.56343e-06,-3.27827e-12,8.05601e-38,-3.40904e-12,-1.06624e-13,0,0,-3.61906,-0.137844,0.619885,-0.7888,-0.180739,-0.0417816,-0.00803621,0,-0.558116,-0.137844,278,-82,278,-82,398,-80,271,44,0.0927812,-0.261799,0,-1.5,-nan,0,0,0,-0.7888,-0.180739,0,0,0,0,-0.0417816,-0.00803621,16637,0,0,0,0,10080
12203,-3.21337e-12,8.05648e-38,-1.56343e-06,-3.27827e-12,8.05601e-38,0,-1.06624e-13,0,0,-3.61906,-0.137844,0.619885,-0.789712,-0.180914,-0.0413236,-0.00794811,0,-0.558116,-0.137844,278,-82,278,-82,398,-80,271,44,0.0928421,-0.261799,0,-1.5,-nan,0,0,0,-0.789712,-0.180914,0,0,0,0,-0.0413236,-0.00794811,16637,0,0,0,0,10080
12220,-3.21337e-12,8.05648e-38,-1.56343e-06,-3.27827e-12,8.05601e-38,-3.40904e-12,-1.06625e-13,0,0,-3.61906,-0.137844,0.619885,-0.79041,-0.181049,-0.0409734,-0.00788076,0,-0.558116,-0.137844,278,-82,278,-82,398,-80,271,44,0.0928891,-0.261799,0,-1.5,-nan,0,0,0,-0.79041,-0.181049,0,0,0,0,-0.0409734,-0.00788076,16637,0,0,0,0,10080
12234,-3.21337e-12,8.05648e-38,-1.56343e-06,-3.27827e-12,8.05601e-38,0,-1.06625e-13,0,0,-3.56764,-0.201685,0.684406,-0.790982,-0.181158,-0.0406873,-0.00782574,0,-0.487667,-0.201685,281,-97,281,-97,405,-92,283,35,0.0929262,-0.261799,0,-1.5,-nan,0,0,0,-0.790982,-0.181158,0,0,0,0,-0.0406873,-0.00782574,16988,0,0,0,0,12228
12270,-3.21337e-12,8.05648e-38,-1.56343e-06,-3.27827e-12,8.05601e-38,-3.40904e-12,-1.06625e-13,0,0,-3.54597,-0.222208,0.624416,-0.792426,-0.181436,-0.0399577,-0.00768541,0,-0.457981,-0.222208,286,-93,286,-93,410,-87,283,41,0.0930248,-0.261799,0,-1.5,-nan,0,0,0,-0.792426,-0.181436,0,0,0,0,-0.0399577,-0.00768541,17653,0,0,0,0,12261
12287,-3.21337e-12,8.05648e-38,-1.56343e-06,-3.27827e-12,8.05601e-38,0,-1.06625e-13,0,0,-3.54597,-0.222208,0.624416,-0.793101,-0.181566,-0.0396191,-0.00762028,0,-0.457981,-0.222208,286,-93,286,-93,410,-87,283,41,0.0930697,-0.261799,0,-1.5,-nan,0,0,0,-0.793101,-0.181566,0,0,0,0,-0.0396191,-0.00762028,17653,0,0,0,0,12261
12304,-3.21337e-12,8.05648e-38,-1.56343e-06,-3.27827e-12,8.05601e-38,-3.40904e-12,-1.06626e-13,0,0,-3.59333,-0.233197,0.60322,-0.793771,-0.181695,-0.0392833,-0.00755569,0,-0.522858,-0.233197,287,-82,287,-82,413,-81,283,44,0.093114,-0.261799,0,-1.5,-nan,0,0,0,-0.793771,-0.181695,0,0,0,0,-0.0392833,-0.00755569,17160,0,0,0,0,12296
12362,-3.21337e-12,8.05648e-38,-1.56343e-06,-3.27827e-12,8.05601e-38,0,-1.06626e-13,0,0,-3.52524,-0.224948,0.543132,-0.795994,-0.182123,-0.0381495,-0.00733763,0,-0.429579,-0.224948,285,-84,285,-84,413,-78,282,49,0.125244,-0.14323,0,-1.5,-nan,0,0,0,-0.427928,-0.227202,0,0,0,0,0.235804,-0.0388164,17816,0.366148,-0.0448588,0.273953,-0.0314788,12357
12379,-3.21337e-12,8.05648e-38,-1.56343e-06,-3.27827e-12,8.05601e-38,-3.40904e-12,-1.06626e-13,0,0,-3.52524,-0.224948,0.543132,-0.796639,-0.182247,-0.0378262,-0.00727543,0,-0.429579,-0.224948,285,-84,285,-84,413,-78,282,49,0.125553,-0.141125,0,-1.5,-nan,0,0,0,-0.423916,-0.227861,0,0,0,0,0.236127,-0.0387542,17816,0.366148,-0.0448588,0.273953,-0.0314788,12357
12404,-3.21337e-12,8.05648e-38,-1.56343e-06,-3.27827e-12,8.05601e-38,0,-1.06626e-13,0,0,-3.58666,-0.22674,0.563978,-0.797576,-0.182427,-0.037355,-0.00718481,0,-0.513723,-0.22674,287,-82,287,-82,410,-74,282,51,0.123035,-0.261799,0,-1.5,-nan,0,0,0,-0.523295,-0.227514,0,0,0,0,-0.382773,-0.0309311,17152,0.282916,-0.0444931,-0.345418,-0.0237463,12393
12421,-3.21337e-12,8.05648e-38,-1.56343e-06,-3.27827e-12,8.05601e-38,-3.40904e-12,-1.06627e-13,0,0,-3.58666,-0.22674,0.563978,-0.798208,-0.182548,-0.0370384,-0.00712392,0,-0.513723,-0.22674,287,-82,287,-82,410,-74,282,51,0.12328,-0.261799,0,-1.5,-nan,0,0,0,-0.529799,-0.228039,0,0,0,0,-0.382456,-0.0308702,17152,0.282916,-0.0444931,-0.345418,-0.0237463,12393
12461,-3.21337e-12,8.05648e-38,-1.56343e-06,-3.27827e-12,8.05601e-38,0,-1.06627e-13,0,0,-3.5618,-0.231934,0.548733,-0.799666,-0.182829,-0.036301,-0.00698208,0,-0.479669,-0.231934,287,-82,287,-82,413,-74,282,50,0.195232,-0.261799,0,-1.5,-nan,0,0,0,-0.480148,-0.232151,0,0,0,0,-0.0956936,-0.0434258,17685,0.319816,-0.0491403,-0.0593926,-0.0364437,12458
12478,-3.21337e-12,8.05648e-38,-1.56343e-06,-3.27827e-12,8.05601e-38,-3.40904e-12,-1.06627e-13,0,0,-3.5618,-0.231934,0.548733,-0.80028,-0.182947,-0.0359934,-0.00692291,0,-0.479669,-0.231934,287,-82,287,-82,413,-74,282,50,0.129453,-0.261799,0,-1.5,-nan,0,0,0,-0.481771,-0.232889,0,0,0,0,-0.0953859,-0.0433666,17685,0.319816,-0.0491403,-0.0593926,-0.0364437,12458
12503,-3.21337e-12,8.05648e-38,-1.56343e-06,-3.27827e-12,8.05601e-38,0,-1.0663e-13,0,0,-3.59412,-0.22939,0.562166,-0.801172,-0.183118,-0.0355453,-0.00683673,0,-0.523944,-0.22939,287,-82,287,-82,412,-71,282,53,0.125432,-0.261799,0,-1.5,-nan,0,0,0,-0.482861,-0.231381,0,0,0,0,-0.0909164,-0.0324694,17550,0.318699,-0.0480835,-0.0553711,-0.0256327,12498
12520,-3.21337e-12,8.05648e-38,-1.56343e-06,-3.27827e-12,8.05601e-38,-3.40904e-12,-1.06628e-13,0,0,-3.59412,-0.22939,0.562166,-0.801773,-0.183234,-0.035244,-0.00677879,0,-0.523944,-0.22939,287,-82,287,-82,412,-71,282,53,0.125689,-0.261799,0,-1.5,-nan,0,0,0,-0.484403,-0.231933,0,0,0,0,-0.0906152,-0.0324115,17550,0.318699,-0.0480835,-0.0553711,-0.0256327,12498
12557,-3.21337e-12,8.05648e-38,-1.56343e-06,-3.27827e-12,8.05601e-38,0,-1.06631e-13,0,0,-3.51652,-0.217716,0.525195,-0.803058,-0.183481,-0.0345943,-0.00665381,0,-0.417638,-0.217716,282,-82,282,-82,413,-76,282,51,0.123318,-0.261799,0,-1.5,-nan,0,0,0,-0.487736,-0.231106,0,0,0,0,-0.0899653,-0.0258868,17554,0.31737,-0.046913,-0.0553711,-0.019233,12545
12579,-3.21337e-12,8.05648e-38,-1.56343e-06,-3.27827e-12,8.05601e-38,-3.40904e-12,-1.06628e-13,0,0,-3.61283,-0.224498,0.562511,-0.803813,-0.183626,-0.034215,-0.00658086,0,-0.549574,-0.224498,287,-80,287,-80,409,-71,282,51,0.118962,-0.261799,0,-1.5,-nan,0,0,0,-0.50106,-0.229158,0,0,0,0,-0.136923,-0.0146099,17145,0.305013,-0.0453551,-0.102708,-0.00802908,12567
12600,-3.21337e-12,8.05648e-38,-1.56343e-06,-3.27827e-12,8.05601e-38,0,-1.06628e-13,0,0,-3.58354,-0.218328,0.544868,-0.804527,-0.183764,-0.0338571,-0.00651202,0,-0.509443,-0.218328,284,-80,284,-80,409,-71,282,51,0.110796,-0.261799,0,-1.5,-nan,0,0,0,-0.504619,-0.224547,0,0,0,0,-0.136987,0.00493146,17145,0.300939,-0.0408977,-0.10313,0.0114435,12592
12617,-3.21337e-12,8.05648e-38,-1.56343e-06,-3.27827e-12,8.05601e-38,-3.40904e-12,-1.0663e-13,0,0,-3.58354,-0.218328,0.544868,-0.805065,-0.183867,-0.033587,-0.00646007,0,-0.509443,-0.218328,284,-80,284,-80,409,-71,282,51,0.110738,-0.261799,0,-1.5,-nan,0,0,0,-0.506808,-0.224467,0,0,0,0,-0.136717,0.00498342,17145,0.300939,-0.0408977,-0.10313,0.0114435,12592
12642,-3.21337e-12,8.05648e-38,-1.56343e-06,-3.27827e-12,8.05601e-38,0,-1.06629e-13,0,0,-3.60425,-0.219169,0.560033,-0.80593,-0.184034,-0.0331519,-0.00637638,0,-0.537826,-0.219169,284,-79,284,-79,409,-71,282,51,0.100784,-0.261799,0,-1.5,-nan,0,0,0,-0.524904,-0.218555,0,0,0,0,-0.159968,0.0283169,16764,0.284323,-0.0354236,-0.126816,0.0346933,12630
12663,-3.21337e-12,8.05648e-38,-1.56343e-06,-3.27827e-12,8.05601e-38,-3.40904e-12,-1.06629e-13,0,0,-3.59598,-0.220859,0.555094,-0.806622,-0.184167,-0.0328051,-0.00630968,0,-0.526492,-0.220859,284,-79,284,-79,409,-71,282,51,0.239141,-0.261799,0,-1.5,-nan,0,0,0,-0.527865,-0.220706,0,0,0,0,-0.158303,0.0216799,16764,0.27951,-0.036707,-0.125498,0.0279895,12659
12679,-3.21337e-12,8.05648e-38,-1.56343e-06,-3.27827e-12,8.05601e-38,0,-1.06628e-13,0,0,-3.59598,-0.220859,0.555094,-0.807144,-0.184267,-0.0325433,-0.00625934,0,-0.526492,-0.220859,284,-79,284,-79,409,-71,282,51,0.103661,-0.261799,0,-1.5,-nan,0,0,0,-0.530394,-0.220358,0,0,0,0,-0.158041,0.0217302,16764,0.27951,-0.036707,-0.125498,0.0279895,12659
12705,-3.21337e-12,8.05648e-38,-1.56343e-06,-3.27827e-12,8.05601e-38,-3.40904e-12,-1.06631e-13,0,0,-3.65964,-0.242892,0.597894,-0.807982,-0.184428,-0.0321218,-0.00617825,0,-0.613702,-0.242892,288,-80,288,-80,409,-71,286,50,0.104237,-0.261799,0,-1.5,-nan,0,0,0,-0.53834,-0.220317,0,0,0,0,-0.178889,0.0197347,16359,0.273458,-0.0365621,-0.146768,0.0259129,12693
12722,-3.21337e-12,8.05648e-38,-1.56343e-06,-3.27827e-12,8.05601e-38,0,-1.06629e-13,0,0,-3.65964,-0.242892,0.597894,-0.808525,-0.184533,-0.0318495,-0.0061259,0,-0.613702,-0.242892,288,-80,288,-80,409,-71,286,50,0.104056,-0.261799,0,-1.5,-nan,0,0,0,-0.541378,-0.219981,0,0,0,0,-0.178617,0.019787,16359,0.273458,-0.0365621,-0.146768,0.0259129,12693
12765,-3.21337e-12,8.05648e-38,-1.56343e-06,-3.27827e-12,8.05601e-38,-3.40904e-12,-1.06634e-13,0,0,-3.55874,-0.239303,0.537636,-0.809872,-0.184792,-0.0311683,-0.00599487,0,-0.475474,-0.239303,287,-80,287,-80,413,-76,285,54,0.117438,-0.261799,0,-1.5,-nan,0,0,0,-0.538917,-0.22931,0,0,0,0,-0.159543,-0.00928721,17152,0.272111,-0.0444882,-0.128375,-0.00329234,12759
12782,-3.21337e-12,8.05648e-38,-1.56343e-06,-3.27827e-12,8.05601e-38,0,-1.06631e-13,0,0,-3.55874,-0.239303,0.537636,-0.810399,-0.184893,-0.0309041,-0.00594405,0,-0.475474,-0.239303,287,-80,287,-80,413,-76,285,54,0.117503,-0.261799,0,-1.5,-nan,0,0,0,-0.541626,-0.229467,0,0,0,0,-0.159279,-0.0092364,17152,0.272111,-0.0444882,-0.128375,-0.00329234,12759
12806,-3.21337e-12,8.05648e-38,-1.56343e-06,-3.27827e-12,8.05601e-38,-3.40904e-12,-1.06634e-13,0,0,-3.57233,-0.247014,0.546918,-0.811134,-0.185035,-0.0305345,-0.00587295,0,-0.494096,-0.247014,287,-79,287,-79,413,-74,285,52,0.12298,-0.261799,0,-1.5,-nan,0,0,0,-0.538242,-0.234748,0,0,0,0,-0.139976,-0.018689,16768,0.275519,-0.049406,-0.109442,-0.012816,12794
12821,-3.21337e-12,8.05648e-38,-1.56343e-06,-3.27827e-12,8.05601e-38,0,-1.06634e-13,0,0,-3.57233,-0.247014,0.546918,-0.81159,-0.185122,-0.0303061,-0.00582903,0,-0.494096,-0.247014,287,-79,287,-79,413,-74,285,52,0.123106,-0.261799,0,-1.5,-nan,0,0,0,-0.540339,-0.235028,0,0,0,0,-0.139748,-0.0186451,16768,0.275519,-0.049406,-0.109442,-0.012816,12794
12842,-3.21337e-12,8.05648e-38,-1.56343e-06,-3.27827e-12,8.05601e-38,-3.40904e-12,-1.06633e-13,0,0,-3.57962,-0.249702,0.551345,-0.812222,-0.185244,-0.0299889,-0.00576802,0,-0.504086,-0.249702,288,-79,288,-79,413,-74,285,52,0.127497,-0.261799,0,-1.5,-nan,0,0,0,-0.53832,-0.239086,0,0,0,0,-0.128178,-0.0265166,16768,0.275964,-0.0534067,-0.0981894,-0.0207486,12829
12867,-3.21337e-12,8.05648e-38,-1.56343e-06,-3.27827e-12,8.05601e-38,0,-1.06636e-13,0,0,-3.60845,-0.269351,0.568977,-0.812965,-0.185387,-0.0296156,-0.00569622,0,-0.543571,-0.269351,290,-79,290,-79,415,-73,288,52,0.130809,-0.261799,0,-1.5,-nan,0,0,0,-0.543604,-0.242498,0,0,0,0,-0.13148,-0.0318654,16637,0.270381,-0.0568492,-0.101864,-0.0261691,12859
12884,-3.21337e-12,8.05648e-38,-1.56343e-06,-3.27827e-12,8.05601e-38,-3.40904e-12,-1.06635e-13,0,0,-3.60845,-0.269351,0.568977,-0.813466,-0.185483,-0.0293646,-0.00564794,0,-0.543571,-0.269351,290,-79,290,-79,415,-73,288,52,0.131064,-0.261799,0,-1.5,-nan,0,0,0,-0.545836,-0.243039,0,0,0,0,-0.131229,-0.0318171,16637,0.270381,-0.0568492,-0.101864,-0.0261691,12859
12906,-3.21337e-12,8.05648e-38,-1.56343e-06,-3.27827e-12,8.05601e-38,0,-1.06632e-13,0,0,-3.65391,-0.290819,0.583476,-0.814107,-0.185606,-0.0290426,-0.00558602,0,-0.605858,-0.290819,292,-77,292,-77,415,-71,292,52,0.140106,-0.261799,0,-1.5,-nan,0,0,0,-0.552247,-0.252353,0,0,0,0,-0.138235,-0.046409,15990,0.264262,-0.0658485,-0.109192,-0.040823,12893
12931,-3.21337e-12,8.05648e-38,-1.56343e-06,-3.27827e-12,8.05601e-38,-3.40904e-12,-1.06632e-13,0,0,-3.60414,-0.310926,0.54646,-0.814827,-0.185745,-0.0286811,-0.00551648,0,-0.537676,-0.310926,298,-77,298,-77,420,-71,290,54,0.143247,-0.261799,0,-1.5,-nan,0,0,0,-0.551505,-0.255487,0,0,0,0,-0.128088,-0.0516819,17030,0.264117,-0.069373,-0.099407,-0.0461654,12925
12982,-3.21337e-12,8.05648e-38,-1.56343e-06,-3.27827e-12,8.05601e-38,0,-1.06632e-13,0,0,-3.59878,-0.302335,0.514268,-0.816258,-0.18602,-0.0279523,-0.00537631,0,-0.530323,-0.302335,297,-75,297,-75,418,-68,290,56,0.142725,-0.261799,0,-1.5,-nan,0,0,0,-0.553778,-0.256902,0,0,0,0,-0.118397,-0.0475892,17280,0.267093,-0.0687287,-0.0904448,-0.0422129,12969
13004,-3.21337e-12,8.05648e-38,-1.56343e-06,-3.27827e-12,8.05601e-38,-3.40904e-12,-1.06633e-13,0,0,-3.65115,-0.301735,0.533393,-0.816868,-0.186137,-0.0276458,-0.00531735,0,-0.60207,-0.301735,295,-71,295,-71,418,-64,290,57,0.147686,-0.261799,0,-1.5,-nan,0,0,0,-0.561553,-0.26137,0,0,0,0,-0.130782,-0.056646,16384,0.257584,-0.0741037,-0.103136,-0.0513286,12991
13030,-3.21337e-12,8.05648e-38,-1.56343e-06,-3.27827e-12,8.05601e-38,0,-1.06636e-13,0,0,-3.59061,-0.302923,0.501172,-0.81758,-0.186274,-0.0272879,-0.00524853,0,-0.519134,-0.302923,295,-71,295,-71,421,-68,290,57,0.261799,-0.049669,0,-1.5,-nan,0,0,0,-0.558675,-0.276557,0,0,0,0,-0.120489,-0.0761866,17030,0.259558,-0.0897858,-0.0932009,-0.0709381,13025
13047,-3.21337e-12,8.05648e-38,-1.56343e-06,-3.27827e-12,8.05601e-38,-3.40904e-12,-1.06631e-13,0,0,-3.59061,-0.302923,0.501172,-0.818042,-0.186363,-0.0270567,-0.00520405,0,-0.519134,-0.302923,295,-71,295,-71,421,-68,290,57,0.161765,-0.261799,0,-1.5,-nan,0,0,0,-0.560721,-0.277851,0,0,0,0,-0.120258,-0.0761422,17030,0.259558,-0.0897858,-0.0932009,-0.0709381,13025
13069,-3.21337e-12,8.05648e-38,-1.56343e-06,-3.27827e-12,8.05601e-38,0,-1.06635e-13,0,0,-3.61492,-0.298378,0.515664,-0.818633,-0.186477,-0.0267602,-0.00514702,0,-0.552445,-0.298378,295,-71,295,-71,418,-68,290,57,0.17234,-0.261799,0,-1.5,-nan,0,0,0,-0.556955,-0.289399,0,0,0,0,-0.109143,-0.0921275,16640,0.262749,-0.101791,-0.0823824,-0.0869805,13058
13083,-3.21337e-12,8.05648e-38,-1.56343e-06,-3.27827e-12,8.05601e-38,-3.40904e-12,-1.06633e-13,0,0,-3.61492,-0.298378,0.515664,-0.818979,-0.186543,-0.0265867,-0.00511365,0,-0.552445,-0.298378,295,-71,295,-71,418,-68,290,57,0.17292,-0.261799,0,-1.5,-nan,0,0,0,-0.558372,-0.290596,0,0,0,0,-0.108969,-0.0920941,16640,0.262749,-0.101791,-0.0823824,-0.0869805,13058
13106,-3.21337e-12,8.05648e-38,-1.56343e-06,-3.27827e-12,8.05601e-38,0,-1.06636e-13,0,0,-3.61597,-0.294795,0.505609,-0.819612,-0.186665,-0.0262688,-0.0050525,0,-0.553876,-0.294795,293,-71,293,-71,418,-64,290,57,0.177625,-0.261799,0,-1.5,-nan,0,0,0,-0.557539,-0.297279,0,0,0,0,-0.107348,-0.0966385,16768,0.264018,-0.108416,-0.0810789,-0.091586,13093
13123,-3.21337e-12,8.05648e-38,-1.56343e-06,-3.27827e-12,8.05601e-38,-3.40904e-12,-1.06635e-13,0,0,-3.61597,-0.294795,0.505609,-0.820056,-0.186751,-0.0260462,-0.00500968,0,-0.553876,-0.294795,293,-71,293,-71,418,-64,290,57,0.178438,-0.261799,0,-1.5,-nan,0,0,0,-0.559362,-0.298921,0,0,0,0,-0.107125,-0.0965957,16768,0.264018,-0.108416,-0.0810789,-0.091586,13093
13144,-3.21337e-12,8.05648e-38,-1.56343e-06,-3.27827e-12,8.05601e-38,0,-1.06636e-13,0,0,-3.62909,-0.299997,0.513689,-0.820599,-0.186855,-0.0257735,-0.00495724,0,-0.57185,-0.299997,294,-70,294,-70,418,-64,290,57,0.179403,-0.261799,0,-1.5,-nan,0,0,0,-0.563895,-0.300156,0,0,0,0,-0.107461,-0.0977705,16512,0.25842,-0.111352,-0.0816874,-0.0928132,13131
13166,-3.21337e-12,8.05648e-38,-1.56343e-06,-3.27827e-12,8.05601e-38,-3.40904e-12,-1.06637e-13,0,0,-3.62909,-0.299997,0.513689,-0.821162,-0.186963,-0.0254909,-0.00490289,0,-0.57185,-0.299997,294,-70,294,-70,418,-64,290,57,0.180465,-0.261799,0,-1.5,-nan,0,0,0,-0.566255,-0.302306,0,0,0,0,-0.107178,-0.0977161,16512,0.25842,-0.111352,-0.0816874,-0.0928132,13131
13183,-3.21337e-12,8.05648e-38,-1.56343e-06,-3.27827e-12,8.05601e-38,0,-1.06637e-13,0,0,-3.62909,-0.299997,0.513689,-0.821593,-0.187046,-0.0252749,-0.00486134,0,-0.57185,-0.299997,294,-70,294,-70,418,-64,290,57,0.181286,-0.261799,0,-1.5,-nan,0,0,0,-0.568074,-0.303966,0,0,0,0,-0.106962,-0.0976746,16512,0.25842,-0.111352,-0.0816874,-0.0928132,13131
13205,-3.21337e-12,8.05648e-38,-1.56343e-06,-3.27827e-12,8.05601e-38,-3.40904e-12,-1.06637e-13,0,0,-3.61118,-0.320066,0.532664,-0.822144,-0.187152,-0.0249978,-0.00480804,0,-0.547323,-0.320066,298,-75,298,-75,421,-70,293,57,0.184628,-0.261799,0,-1.5,-nan,0,0,0,-0.567463,-0.308351,0,0,0,0,-0.104418,-0.101505,16896,0.256429,-0.119072,-0.0794198,-0.0966973,13191
13248,-3.21337e-12,8.05648e-38,-1.56343e-06,-3.27827e-12,8.05601e-38,0,-1.06637e-13,0,0,-3.60774,-0.326352,0.528695,-0.8232,-0.187355,-0.0244625,-0.00470507,0,-0.542603,-0.326352,297,-73,297,-73,424,-70,294,55,0.187297,-0.261799,0,-1.5,-nan,0,0,0,-0.571567,-0.313672,0,0,0,0,-0.100555,-0.10155,16900,0.254905,-0.122152,-0.0760922,-0.0968448,13234
13291,-3.21337e-12,8.05648e-38,-1.56343e-06,-3.27827e-12,8.05601e-38,-3.40904e-12,-1.06638e-13,0,0,-3.61312,-0.30723,0.538364,-0.824234,-0.187554,-0.0239386,-0.00460431,0,-0.54998,-0.30723,295,-75,295,-75,418,-71,293,55,0.188079,-0.261799,0,-1.5,-nan,0,0,0,-0.568671,-0.315996,0,0,0,0,-0.0798887,-0.100271,16500,0.257968,-0.124328,-0.0559502,-0.0956671,13276
13338,-3.21337e-12,8.05648e-38,-1.56343e-06,-3.27827e-12,8.05601e-38,0,-1.06638e-13,0,0,-3.57023,-0.317121,0.562991,-0.825339,-0.187767,-0.0233792,-0.00449671,0,-0.491221,-0.317121,295,-82,295,-82,421,-75,293,49,0.195061,-0.261799,0,-1.5,-nan,0,0,0,-0.555871,-0.323568,0,0,0,0,-0.0513413,-0.110925,17024,0.26986,-0.134312,-0.0279622,-0.106428,13326
13355,-3.21337e-12,8.05648e-38,-1.56343e-06,-3.27827e-12,8.05601e-38,-3.40904e-12,-1.06638e-13,0,0,-3.57023,-0.317121,0.562991,-0.825734,-0.187843,-0.023181,-0.00445861,0,-0.491221,-0.317121,295,-82,295,-82,421,-75,293,49,0.195991,-0.261799,0,-1.5,-nan,0,0,0,-0.556741,-0.325454,0,0,0,0,-0.0511432,-0.110887,17024,0.26986,-0.134312,-0.0279622,-0.106428,13326
13495,-3.21337e-12,8.05648e-38,-1.56343e-06,-3.27827e-12,8.05601e-38,0,-1.06638e-13,0,0,-3.61018,-0.329373,0.607235,-0.828766,-0.188426,-0.0215654,-0.00414785,0,-0.545942,-0.329372,295,-84,295,-84,421,-77,297,47,0.20901,-0.261799,0,-1.5,-nan,0,0,0,-0.560113,-0.346065,0,0,0,0,-0.0437135,-0.119922,16632,0.271754,-0.141431,-0.0221481,-0.115774,13368
13543,-3.21337e-12,8.05648e-38,-1.56343e-06,-3.27827e-12,8.05601e-38,-3.40904e-12,-1.06639e-13,0,0,-3.60214,-0.332521,0.560294,-0.82978,-0.188621,-0.0210496,-0.00404866,0,-0.53493,-0.332521,301,-78,301,-78,421,-75,293,52,0.214393,-0.261799,0,-1.5,-nan,0,0,0,-0.550237,-0.353076,0,0,0,0,-0.0224264,-0.126189,16896,0.279609,-0.158592,-0.00137671,-0.12214,13529
13566,-3.21337e-12,8.05648e-38,-1.56343e-06,-3.27827e-12,8.05601e-38,0,-1.06639e-13,0,0,-3.58905,-0.322371,0.543644,-0.83024,-0.188709,-0.020819,-0.00400429,0,-0.516996,-0.322371,298,-78,298,-78,420,-73,293,55,0.216627,-0.261799,0,-1.5,-nan,0,0,0,-0.551657,-0.356838,0,0,0,0,-0.0265177,-0.127381,16891,0.278635,-0.167018,-0.00569871,-0.123377,13558
13587,-3.21337e-12,8.05648e-38,-1.56343e-06,-3.27827e-12,8.05601e-38,-3.40904e-12,-1.06639e-13,0,0,-3.58905,-0.322371,0.543644,-0.830695,-0.188797,-0.0205908,-0.00396039,0,-0.516996,-0.322371,298,-78,298,-78,420,-73,293,55,0.218019,-0.261799,0,-1.5,-nan,0,0,0,-0.552237,-0.35964,0,0,0,0,-0.0262895,-0.127337,16891,0.278635,-0.167018,-0.00569871,-0.123377,13558
13610,-3.21337e-12,8.05648e-38,-1.56343e-06,-3.27827e-12,8.05601e-38,0,-1.0664e-13,0,0,-3.54285,-0.316694,0.631632,-0.831164,-0.188887,-0.0203548,-0.003915,0,-0.453709,-0.316694,295,-94,295,-94,422,-86,294,42,0.217918,-0.261799,0,-1.5,-nan,0,0,0,-0.542044,-0.360263,0,0,0,0,-0.010473,-0.125959,17408,0.288893,-0.168569,0.00988174,-0.122044,13596
13632,-3.21337e-12,8.05648e-38,-1.56343e-06,-3.27827e-12,8.05601e-38,-3.40904e-12,-1.0664e-13,0,0,-3.5555,-0.331322,0.627833,-0.831609,-0.188973,-0.0201318,-0.00387211,0,-0.471031,-0.331322,297,-91,297,-91,425,-82,293,40,0.218055,-0.261799,0,-1.5,-nan,0,0,0,-0.538714,-0.361581,0,0,0,0,-0.00530291,-0.124216,17556,0.292762,-0.171525,0.0148289,-0.120344,13625
