timestamp,A_x,A_y,A_z,P,Q,R,Phi,Theta,Psi,poseX,poseY,poseZ,state_X,state_Y,state_Z,state_VzB,state_Bx,state_By,state_Bz,p1_x,p1_y,p2_x,p2_y,p3_x,p3_y,p4_x,p4_y,roll,pitch,yaw,alt,targetHeading,highLevelState,lowLevelState,gateNumber,filtered_x,filtered_y,x_OT,y_OT,vx_OT,vy_OT,filtered_vx,filtered_vygateArearansac_corr_x,ransac_corr_y,ransac_corr_vx,ransac_corr_vy,detectionTimeStamp
8054,0,0,0,0,0,0,0,0,0,0,0,0,0,0,0,0,0,0,0,0,0,0,0,0,0,0,0,0,-0,0,-1.5,nan,0,0,0,0,0,0,0,0,0,0,0,1.9603e-19,0,0,0,0,0
8069,0,0,0,0,0,0,0,0,0,0,0,0,0,0,0,0,0,0,0,0,0,0,0,0,0,0,0,0,-0,0,-1.5,nan,0,0,0,0,0,0,0,0,0,0,0,1.9603e-19,0,0,0,0,0
8821,-3.11567e-12,1.51779e-38,-1.52804e-06,-3.18057e-12,1.51767e-38,-3.62842e-12,-1.06589e-13,0,0,0,0,0,0,0,0,0,0,0,0,0,0,0,0,0,0,0,0,0,-0,0,-1.5,nan,0,0,0,0,0,0,0,0,0,0,0,1.9603e-19,0,0,0,0,0
8863,-3.11567e-12,1.51779e-38,-1.52804e-06,-3.18057e-12,1.51767e-38,0,-1.0659e-13,0,0,0,0,0,0,0,0,0,0,0,0,0,0,0,0,0,0,0,0,0,-0,0,-1.5,nan,0,0,0,0,0,0,0,0,0,0,0,1.9603e-19,0,0,0,0,0
9090,-3.11567e-12,1.51779e-38,-1.52804e-06,-3.18057e-12,1.51767e-38,-3.62842e-12,-1.0659e-13,0,0,0,0,0,0,0,0,0,0,0,0,0,0,0,0,0,0,0,0,0,-0,0,-1.5,nan,0,0,0,0,0,0,0,0,0,0,0,1.9603e-19,0,0,0,0,0
9170,-3.11567e-12,1.51779e-38,-1.52804e-06,-3.18057e-12,1.51767e-38,0,-1.0659e-13,0,0,0,0,0,0,0,0,0,0,0,0,0,0,0,0,0,0,0,0,0,-0,0,-1.5,nan,0,0,0,0,0,0,0,0,0,0,0,1.9603e-19,0,0,0,0,0
9411,-3.11567e-12,1.51779e-38,-1.52804e-06,-3.18057e-12,1.51767e-38,-3.62842e-12,-1.0659e-13,0,0,-3.65743,-0.0122151,0.526005,0,0,0,0,0,-0.610679,-0.0122151,260,-64,260,-64,383,-69,261,60,0,-0,0,-1.5,nan,0,0,0,0,0,0,0,0,0,0,0,15867,0,0,0,0,9402
9461,-3.11567e-12,1.51779e-38,-1.52804e-06,-3.18057e-12,1.51767e-38,0,-1.06591e-13,0,0,-3.66134,-0.0253078,0.532209,0,0,0,0,0,-0.61603,-0.0253078,260,-64,260,-64,385,-71,265,60,0,-0,0,-1.5,nan,0,0,0,0,0,0,0,0,0,0,0,16375,0,0,0,0,9461
9639,-3.11567e-12,1.51779e-38,-1.52804e-06,-3.18057e-12,1.51767e-38,-3.62842e-12,-1.06591e-13,0,0,-3.62579,-0.0538869,0.555236,0,0,0,0,0,-0.567332,-0.0538869,266,-71,266,-71,388,-76,265,57,0.436332,0.261799,0,-1.5,nan,0,0,0,-0.412302,-0.207507,0,0,0,0,0.870958,-0.863038,16359,-0.567332,-0.0538869,0.870958,-0.863038,9562
9730,-3.11567e-12,1.51779e-38,-1.52804e-06,-3.18057e-12,1.51767e-38,0,-1.06591e-13,0,0,-3.56865,-0.082967,0.584127,0,0,0,0,0,-0.489053,-0.082967,268,-77,268,-77,391,-85,267,50,-0.436332,-0.261799,0,-1.5,nan,0,0,0,-0.487106,-0.0840509,0,0,0,0,0.389517,-0.216764,17010,-0.489053,-0.0829671,0.389517,-0.216764,9727
9748,-3.11567e-12,1.51779e-38,-1.52804e-06,-3.18057e-12,1.51767e-38,-3.62842e-12,-1.06591e-13,0,0,-3.56865,-0.082967,0.584127,0,0,0,0,0,-0.489053,-0.082967,268,-77,268,-77,391,-85,267,50,0.261363,-0.168481,0,-1.5,nan,0,0,0,-0.480094,-0.0879526,0,0,0,0,0.389517,-0.216764,17010,-0.489053,-0.0829671,0.389517,-0.216764,9727
9772,-3.11567e-12,1.51779e-38,-1.52804e-06,-3.18057e-12,1.51767e-38,0,-1.06592e-13,0,0,-3.5681,-0.100558,0.55899,0,0,0,0,0,-0.488297,-0.100558,271,-76,271,-76,398,-82,269,54,0.31511,-0.159133,0,-1.5,nan,0,0,0,-0.470746,-0.106807,0,0,0,0,0.389517,-0.26038,17544,-0.480094,-0.100558,0.389517,-0.26038,9761
9791,-3.11567e-12,1.51779e-38,-1.52804e-06,-3.18057e-12,1.51767e-38,-3.62842e-12,-1.06592e-13,0,0,-3.5681,-0.100558,0.55899,0,0,0,0,0,-0.488297,-0.100558,271,-76,271,-76,398,-82,269,54,0.320054,-0.151744,0,-1.5,nan,0,0,0,-0.463345,-0.111754,0,0,0,0,0.389517,-0.26038,17544,-0.480094,-0.100558,0.389517,-0.26038,9761
9903,-3.11567e-12,1.51779e-38,-1.52804e-06,-3.18057e-12,1.51767e-38,0,-1.06592e-13,0,0,-3.53789,-0.0976418,0.542917,0,0,0,0,0,-0.446904,-0.0976418,268,-76,268,-76,398,-82,269,53,0.296352,-0.108094,0,-1.5,nan,0,0,0,-0.419719,-0.122044,0,0,0,0,0.389517,-0.217874,17550,-0.463345,-0.0976418,0.389517,-0.217874,9892
9976,-3.11567e-12,1.51779e-38,-1.52804e-06,-3.18057e-12,1.51767e-38,-3.62842e-12,-1.06595e-13,0,0,-3.54841,-0.142789,0.644353,0,0,0,0,0,-0.461329,-0.142789,274,-86,274,-86,400,-95,275,43,0.372815,-0.08075,0,-1.5,nan,0,0,0,-0.391409,-0.161552,0,0,0,0,0.388299,-0.264062,17388,-0.419755,-0.142276,0.388299,-0.264062,9964
9994,-3.11567e-12,1.51779e-38,-1.52804e-06,-3.18057e-12,1.51767e-38,0,-1.06593e-13,0,0,-3.54841,-0.142789,0.644353,0,0,0,0,0,-0.461329,-0.142789,274,-86,274,-86,400,-95,275,43,0.377562,-0.0737724,0,-1.5,nan,0,0,0,-0.38442,-0.166306,0,0,0,0,0.388299,-0.264062,17388,-0.419755,-0.142276,0.388299,-0.264062,9964
10014,-3.11567e-12,1.51779e-38,-1.52804e-06,-3.18057e-12,1.51767e-38,-3.62842e-12,-1.06596e-13,0,0,-3.52059,-0.143647,0.636706,0,0,0,0,0,-0.423204,-0.143647,276,-88,276,-88,404,-97,273,43,0.332163,-0.200833,0,-1.5,nan,0,0,0,-0.417282,-0.151132,0,0,0,0,0.270546,-0.226278,18340,-0.422693,-0.146606,0.270546,-0.226278,10002
10192,-3.11567e-12,1.51779e-38,-1.52804e-06,-3.18057e-12,1.51767e-38,0,-1.06593e-13,0,0,-3.64019,-0.0918816,0.533575,0,0,0,0,0,-0.587066,-0.0918816,271,-67,271,-67,391,-71,268,60,0.363552,-0.151479,0,-1.5,nan,0,0,0,-0.367665,-0.18677,0,0,0,0,0.27023,-0.220966,16244,-0.415766,-0.147438,0.27023,-0.220966,10180
10213,-3.11567e-12,1.51779e-38,-1.52804e-06,-3.18057e-12,1.51767e-38,-3.62842e-12,-1.06593e-13,0,0,-3.60708,-0.0752993,0.517802,0,0,0,0,0,-0.541704,-0.0752993,266,-67,266,-67,392,-73,268,60,0.315715,-0.164154,0,-1.5,nan,0,0,0,-0.371935,-0.1736,0,0,0,0,0.259712,-0.177637,16758,-0.37713,-0.170047,0.259712,-0.177637,10200
10324,-3.11567e-12,1.51779e-38,-1.52804e-06,-3.18057e-12,1.51767e-38,0,-1.06593e-13,0,0,-3.59926,-0.082154,0.507281,0,0,0,0,0,-0.530989,-0.082154,266,-67,266,-67,391,-70,268,60,0.1927,-0.261799,0,-1.5,nan,0,0,0,-0.440951,-0.127761,0,0,0,0,0.137675,-0.0811726,16510,-0.456371,-0.11867,0.137675,-0.0811726,10312
10405,-3.11567e-12,1.51779e-38,-1.52804e-06,-3.18057e-12,1.51767e-38,-3.62842e-12,-1.06594e-13,0,0,-3.59689,-0.073352,0.513594,0,0,0,0,0,-0.527734,-0.073352,266,-69,266,-69,391,-73,268,60,0.108727,-0.261799,0,-1.5,nan,0,0,0,-0.527393,-0.0906218,0,0,0,0,0.0187638,-0.022629,16625,-0.527619,-0.0903503,0.0187638,-0.022629,10395
10426,-3.11567e-12,1.51779e-38,-1.52804e-06,-3.18057e-12,1.51767e-38,0,-1.06595e-13,0,0,-3.59689,-0.073352,0.513594,0,0,0,0,0,-0.527734,-0.073352,266,-69,266,-69,391,-73,268,60,0.109179,-0.261799,0,-1.5,nan,0,0,0,-0.527018,-0.0910744,0,0,0,0,0.0187638,-0.022629,16625,-0.527619,-0.0903503,0.0187638,-0.022629,10395
10449,-3.11567e-12,1.51779e-38,-1.52804e-06,-3.18057e-12,1.51767e-38,-3.62842e-12,-1.06595e-13,0,0,-3.60893,-0.0712763,0.523178,0,0,0,0,0,-0.54423,-0.0712763,266,-69,266,-69,389,-73,268,60,0.0948268,-0.261799,0,-1.5,nan,0,0,0,-0.545117,-0.0846732,0,0,0,0,-0.052589,-0.012693,16492,-0.543908,-0.0843812,-0.052589,-0.012693,10436
10568,-3.11567e-12,1.51779e-38,-1.52804e-06,-3.18057e-12,1.51767e-38,0,-1.06598e-13,0,0,-3.59982,-0.0820524,0.520771,0,0,0,0,0,-0.531752,-0.0820524,266,-67,266,-67,391,-73,268,57,0.0965033,-0.261799,0,-1.5,nan,0,0,0,-0.53206,-0.0862483,0,0,0,0,-0.0030008,-0.01282,16510,-0.53203,-0.0861201,-0.0030008,-0.01282,10560
10620,-3.11567e-12,1.51779e-38,-1.52804e-06,-3.18057e-12,1.51767e-38,-3.62842e-12,-1.06595e-13,0,0,-3.60954,-0.0819494,0.519607,0,0,0,0,0,-0.545074,-0.0819494,268,-67,268,-67,389,-73,268,60,0.0892759,-0.261799,0,-1.5,nan,0,0,0,-0.547895,-0.082782,0,0,0,0,-0.0383564,-0.00811884,16625,-0.545901,-0.0823598,-0.0383564,-0.00811884,10608
10675,-3.11567e-12,1.51779e-38,-1.52804e-06,-3.18057e-12,1.51767e-38,0,-1.06599e-13,0,0,-3.65121,-0.0774072,0.549008,0,0,0,0,0,-0.602155,-0.0774072,266,-69,266,-69,391,-70,269,57,0.0889885,-0.261799,0,-1.5,nan,0,0,0,-0.562578,-0.0837343,0,0,0,0,-0.0692498,-0.00656549,15875,-0.55877,-0.0833732,-0.0692498,-0.00656549,10662
10693,-3.11567e-12,1.51779e-38,-1.52804e-06,-3.18057e-12,1.51767e-38,-3.62842e-12,-1.06594e-13,0,0,-3.65121,-0.0774072,0.549008,0,0,0,0,0,-0.602155,-0.0774072,266,-69,266,-69,391,-70,269,57,0.0890971,-0.261799,0,-1.5,nan,0,0,0,-0.563756,-0.0838459,0,0,0,0,-0.0692498,-0.00656549,15875,-0.55877,-0.0833732,-0.0692498,-0.00656549,10662
10717,-3.11567e-12,1.51779e-38,-1.52804e-06,-3.18057e-12,1.51767e-38,0,-1.06596e-13,0,0,-3.59552,-0.0860076,0.51124,0,0,0,0,0,-0.525859,-0.0860076,268,-67,268,-67,391,-73,268,60,0.0951887,-0.261799,0,-1.5,nan,0,0,0,-0.550942,-0.0865549,0,0,0,0,-0.0396084,-0.0107903,16625,-0.549951,-0.0862852,-0.0396084,-0.0107903,10704
10744,-3.11567e-12,1.51779e-38,-1.52804e-06,-3.18057e-12,1.51767e-38,-3.62842e-12,-1.06597e-13,0,0,-3.60306,-0.0712855,0.517368,0,0,0,0,0,-0.536197,-0.0712855,266,-69,266,-69,389,-73,268,60,0.0876046,-0.261799,0,-1.5,nan,0,0,0,-0.537266,-0.0827946,0,0,0,0,-0.0119033,-0.00400781,16492,-0.536945,-0.0826863,-0.0119033,-0.00400781,10731
10759,-3.11567e-12,1.51779e-38,-1.52804e-06,-3.18057e-12,1.51767e-38,0,-1.06596e-13,0,0,-3.60306,-0.0712855,0.517368,0,0,0,0,0,-0.536197,-0.0712855,266,-69,266,-69,389,-73,268,60,0.0860614,-0.261799,0,-1.5,nan,0,0,0,-0.537445,-0.0828547,0,0,0,0,-0.0119033,-0.00400781,16492,-0.536945,-0.0826863,-0.0119033,-0.00400781,10731
10780,-3.11567e-12,1.51779e-38,-1.52804e-06,-3.18057e-12,1.51767e-38,-3.62842e-12,-1.06598e-13,0,0,-3.59552,-0.0860076,0.51124,0,0,0,0,0,-0.525859,-0.0860076,268,-67,268,-67,391,-73,268,60,0.0943422,-0.261799,0,-1.5,nan,0,0,0,-0.535839,-0.0861198,0,0,0,0,-0.00537572,-0.0102751,16625,-0.535726,-0.085904,-0.00537572,-0.0102751,10767
10806,-3.11567e-12,1.51779e-38,-1.52804e-06,-3.18057e-12,1.51767e-38,0,-1.06599e-13,0,0,-3.61482,-0.0732659,0.522411,0,0,0,0,0,-0.552297,-0.0732659,266,-67,266,-67,391,-73,268,60,0.0830464,-0.261799,0,-1.5,nan,0,0,0,-0.54168,-0.0826679,0,0,0,0,-0.017104,-0.000474206,16625,-0.541457,-0.0826617,-0.017104,-0.000474206,10795
10823,-3.11567e-12,1.51779e-38,-1.52804e-06,-3.18057e-12,1.51767e-38,-3.62842e-12,-1.06597e-13,0,0,-3.61482,-0.0732659,0.522411,0,0,0,0,0,-0.552297,-0.0732659,266,-67,266,-67,391,-73,268,60,0.0830544,-0.261799,0,-1.5,nan,0,0,0,-0.541971,-0.0826759,0,0,0,0,-0.017104,-0.000474206,16625,-0.541457,-0.0826617,-0.017104,-0.000474206,10795
10848,-3.11567e-12,1.51779e-38,-1.52804e-06,-3.18057e-12,1.51767e-38,0,-1.066e-13,0,0,-3.57284,-0.0832551,0.497737,0,0,0,0,0,-0.494792,-0.0832551,266,-67,266,-67,392,-73,268,60,0.0882034,-0.261799,0,-1.5,nan,0,0,0,-0.53244,-0.0836943,0,0,0,0,0.00067804,-0.00563302,16891,-0.532457,-0.0835535,0.00067804,-0.00563302,10835
10891,-3.11567e-12,1.51779e-38,-1.52804e-06,-3.18057e-12,1.51767e-38,-3.62842e-12,-1.066e-13,0,0,-3.61568,-0.0739314,0.522961,0,0,0,0,0,-0.553475,-0.0739314,266,-69,266,-69,391,-71,268,60,0.0845112,-0.261799,0,-1.5,nan,0,0,0,-0.538115,-0.0832357,0,0,0,0,-0.00823579,-0.00159653,16375,-0.537761,-0.083167,-0.00823579,-0.00159653,10877
10918,-3.11567e-12,1.51779e-38,-1.52804e-06,-3.18057e-12,1.51767e-38,0,-1.06601e-13,0,0,-3.5905,-0.0818454,0.499898,0,0,0,0,0,-0.518978,-0.0818454,268,-67,268,-67,391,-70,266,61,0.0839679,-0.261799,0,-1.5,nan,0,0,0,-0.536801,-0.0831364,0,0,0,0,-0.00780252,-0.00103749,16637,-0.53659,-0.0831084,-0.00780252,-0.00103749,10905
10940,-3.11567e-12,1.51779e-38,-1.52804e-06,-3.18057e-12,1.51767e-38,-3.62842e-12,-1.06601e-13,0,0,-3.66727,-0.0858065,0.558354,0,0,0,0,0,-0.624166,-0.0858065,271,-67,271,-67,391,-73,268,58,0.0822942,-0.261799,0,-1.5,nan,0,0,0,-0.541507,-0.0817518,0,0,0,0,-0.0124765,-0.000677507,16113,-0.541233,-0.0817369,-0.0124765,-0.000677507,10927
10957,-3.11567e-12,1.51779e-38,-1.52804e-06,-3.18057e-12,1.51767e-38,0,-1.06597e-13,0,0,-3.66727,-0.0858065,0.558354,0,0,0,0,0,-0.624166,-0.0858065,271,-67,271,-67,391,-73,268,58,0.0823027,-0.261799,0,-1.5,nan,0,0,0,-0.541719,-0.0817633,0,0,0,0,-0.0124765,-0.000677507,16113,-0.541233,-0.0817369,-0.0124765,-0.000677507,10927
11006,-3.11567e-12,1.51779e-38,-1.52804e-06,-3.18057e-12,1.51767e-38,-3.62842e-12,-1.06598e-13,0,0,-3.63749,-0.166676,0.483204,0,0,0,0,0,-0.583363,-0.166676,280,-60,280,-60,399,-67,276,66,0.0936733,-0.261799,0,-1.5,nan,0,0,0,-0.558061,-0.0867204,0,0,0,0,-0.0306398,-0.00868951,16625,-0.557662,-0.0866075,-0.0306398,-0.00868951,10995
11031,-3.11567e-12,1.51779e-38,-1.52804e-06,-3.18057e-12,1.51767e-38,0,-1.06598e-13,0,0,-3.71048,-0.136341,0.561896,0,0,0,0,0,-0.683362,-0.136341,277,-63,277,-63,396,-70,274,60,-0.160179,-0.261799,0,-1.5,nan,0,0,0,-0.561016,-0.0847338,0,0,0,0,-0.0356677,-0.00550316,15860,-0.560766,-0.0846953,-0.0356677,-0.00550316,11026
11048,-3.11567e-12,1.51779e-38,-1.52804e-06,-3.18057e-12,1.51767e-38,-3.62842e-12,-1.06599e-13,0,0,-3.71048,-0.136341,0.561896,0,0,0,0,0,-0.683362,-0.136341,277,-63,277,-63,396,-70,274,60,0.0892292,-0.261799,0,-1.5,nan,0,0,0,-0.561623,-0.0848274,0,0,0,0,-0.0356677,-0.00550316,15860,-0.560766,-0.0846953,-0.0356677,-0.00550316,11026
11076,-3.11567e-12,1.51779e-38,-1.52804e-06,-3.18057e-12,1.51767e-38,0,-1.06601e-13,0,0,-3.61955,-0.122271,0.521678,0,0,0,0,0,-0.558787,-0.122271,274,-67,274,-67,396,-70,270,60,0.0945623,-0.261799,0,-1.5,nan,0,0,0,-0.568344,-0.0877077,0,0,0,0,-0.0599477,-0.00856912,16380,-0.566725,-0.0874764,-0.0599477,-0.00856912,11062
11115,-3.11567e-12,1.51779e-38,-1.52804e-06,-3.18057e-12,1.51767e-38,-3.62842e-12,-1.06602e-13,0,0,-3.58467,-0.10282,0.517207,0,0,0,0,0,-0.511004,-0.10282,271,-67,271,-67,398,-77,269,58,0.0906929,-0.261799,0,-1.5,nan,0,0,0,-0.573361,-0.086765,0,0,0,0,-0.0616768,-0.00490978,17415,-0.570893,-0.0865686,-0.0616768,-0.00490978,11101
11138,-3.11567e-12,1.51779e-38,-1.52804e-06,-3.18057e-12,1.51767e-38,0,-1.06602e-13,0,0,-3.55787,-0.0937535,0.496582,0,0,0,0,0,-0.47428,-0.0937535,268,-69,268,-69,398,-75,269,60,0.0868565,-0.261799,0,-1.5,nan,0,0,0,-0.570998,-0.085721,0,0,0,0,-0.0592663,-0.00141869,17550,-0.570169,-0.0857011,-0.0592663,-0.00141869,11126
11159,-3.11567e-12,1.51779e-38,-1.52804e-06,-3.18057e-12,1.51767e-38,-3.62842e-12,-1.066e-13,0,0,-3.55787,-0.0937535,0.496582,0,0,0,0,0,-0.47428,-0.0937535,268,-69,268,-69,398,-75,269,60,0.0868863,-0.261799,0,-1.5,nan,0,0,0,-0.572243,-0.0857508,0,0,0,0,-0.0592663,-0.00141869,17550,-0.570169,-0.0857011,-0.0592663,-0.00141869,11126
11176,-3.11567e-12,1.51779e-38,-1.52804e-06,-3.18057e-12,1.51767e-38,0,-1.06602e-13,0,0,-3.55787,-0.0937535,0.496582,0,0,0,0,0,-0.47428,-0.0937535,268,-69,268,-69,398,-75,269,60,0.0869104,-0.261799,0,-1.5,nan,0,0,0,-0.573251,-0.0857749,0,0,0,0,-0.0592663,-0.00141869,17550,-0.570169,-0.0857011,-0.0592663,-0.00141869,11126
11206,-3.11567e-12,1.51779e-38,-1.52804e-06,-3.18057e-12,1.51767e-38,-3.62842e-12,-1.06602e-13,0,0,-3.61871,-0.086633,0.533034,0,0,0,0,0,-0.557629,-0.086633,271,-69,271,-69,392,-75,268,60,0.0889837,-0.261799,0,-1.5,nan,0,0,0,-0.570572,-0.0871122,0,0,0,0,-0.0557932,-0.0023387,16740,-0.569791,-0.0870794,-0.0557932,-0.0023387,11194
11223,-3.11567e-12,1.51779e-38,-1.52804e-06,-3.18057e-12,1.51767e-38,0,-1.06603e-13,0,0,-3.61871,-0.086633,0.533034,0,0,0,0,0,-0.557629,-0.086633,271,-69,271,-69,392,-75,268,60,0.0890235,-0.261799,0,-1.5,nan,0,0,0,-0.57152,-0.0871519,0,0,0,0,-0.0557932,-0.0023387,16740,-0.569791,-0.0870794,-0.0557932,-0.0023387,11194
11245,-3.11567e-12,1.51779e-38,-1.52804e-06,-3.18057e-12,1.51767e-38,-3.62842e-12,-1.06603e-13,0,0,-3.6835,-0.0885543,0.570333,0,0,0,0,0,-0.646389,-0.0885542,271,-67,271,-67,391,-73,269,57,0.0780661,-0.261799,0,-1.5,nan,0,0,0,-0.577043,-0.083514,0,0,0,0,-0.0569246,0.00680836,15860,-0.57579,-0.0836638,-0.0569246,0.00680836,11231
11272,-3.11567e-12,1.51779e-38,-1.52804e-06,-3.18057e-12,1.51767e-38,0,-1.06603e-13,0,0,-3.59191,-0.100926,0.512743,0,0,0,0,0,-0.520918,-0.100926,271,-67,271,-67,398,-75,269,60,0.0904369,-0.261799,0,-1.5,nan,0,0,0,-0.564491,-0.08785,0,0,0,0,-0.0311741,-0.00323426,17415,-0.564117,-0.0878112,-0.0311741,-0.00323426,11263
11314,-3.11567e-12,1.51779e-38,-1.52804e-06,-3.18057e-12,1.51767e-38,-3.62842e-12,-1.06603e-13,0,0,-3.54361,-0.0954244,0.485848,0,0,0,0,0,-0.454744,-0.0954244,268,-69,268,-69,398,-75,269,61,0.0931509,-0.261799,0,-1.5,nan,0,0,0,-0.562829,-0.0885852,0,0,0,0,-0.0286934,-0.00570726,17680,-0.561653,-0.0883512,-0.0286934,-0.00570726,11299
11339,-3.11567e-12,1.51779e-38,-1.52804e-06,-3.18057e-12,1.51767e-38,0,-1.06604e-13,0,0,-3.54619,-0.117159,0.503266,0,0,0,0,0,-0.458282,-0.117159,271,-69,271,-69,398,-77,270,57,0.114779,-0.261799,0,-1.5,nan,0,0,0,-0.544896,-0.0982444,0,0,0,0,-0.00106011,-0.0206637,17152,-0.544882,-0.0979551,-0.00106011,-0.0206637,11327
11366,-3.11567e-12,1.51779e-38,-1.52804e-06,-3.18057e-12,1.51767e-38,-3.62842e-12,-1.06604e-13,0,0,-3.60637,-0.110564,0.524733,0,0,0,0,0,-0.54072,-0.110564,271,-67,271,-67,394,-73,270,58,0.0990434,0.224659,0,-1.5,nan,0,0,0,-0.537297,-0.0986411,0,0,0,0,0.00790751,-0.0204601,16506,-0.53736,-0.0984774,0.00790751,-0.0204601,11360
11383,-3.11567e-12,1.51779e-38,-1.52804e-06,-3.18057e-12,1.51767e-38,0,-1.06604e-13,0,0,-3.60637,-0.110564,0.524733,0,0,0,0,0,-0.54072,-0.110564,271,-67,271,-67,394,-73,270,58,0.115359,-0.261799,0,-1.5,nan,0,0,0,-0.537162,-0.0989889,0,0,0,0,0.00790751,-0.0204601,16506,-0.53736,-0.0984774,0.00790751,-0.0204601,11360
11405,-3.11567e-12,1.51779e-38,-1.52804e-06,-3.18057e-12,1.51767e-38,-3.62842e-12,-1.06605e-13,0,0,-3.5913,-0.10313,0.523492,0,0,0,0,0,-0.520087,-0.10313,271,-67,271,-67,398,-77,269,57,0.11842,-0.261799,0,-1.5,nan,0,0,0,-0.537657,-0.100437,0,0,0,0,0.00434962,-0.0224765,17286,-0.53771,-0.100168,0.00434962,-0.0224765,11395
11423,-3.11567e-12,1.51779e-38,-1.52804e-06,-3.18057e-12,1.51767e-38,0,-1.06605e-13,0,0,-3.5913,-0.10313,0.523492,0,0,0,0,0,-0.520087,-0.10313,271,-67,271,-67,398,-77,269,57,0.118825,-0.261799,0,-1.5,nan,0,0,0,-0.537579,-0.100842,0,0,0,0,0.00434962,-0.0224765,17286,-0.53771,-0.100168,0.00434962,-0.0224765,11395
11445,-3.11567e-12,1.51779e-38,-1.52804e-06,-3.18057e-12,1.51767e-38,-3.62842e-12,-1.06605e-13,0,0,-3.57737,-0.102584,0.501835,0,0,0,0,0,-0.500992,-0.102584,271,-67,271,-67,398,-75,269,61,0.121371,-0.261799,0,-1.5,nan,0,0,0,-0.51657,-0.102446,0,0,0,0,0.0271587,-0.0236559,17544,-0.517167,-0.101926,0.0271587,-0.0236559,11431
11491,-3.11567e-12,1.51779e-38,-1.52804e-06,-3.18057e-12,1.51767e-38,0,-1.06605e-13,0,0,-3.69949,-0.090618,0.580414,0,0,0,0,0,-0.668304,-0.090618,271,-65,271,-65,391,-73,269,57,0.126621,-0.261799,0,-1.5,nan,0,0,0,-0.51688,-0.104713,0,0,0,0,0.0319986,-0.0273831,15860,-0.518352,-0.103453,0.0319986,-0.0273831,11477
11517,-3.11567e-12,1.51779e-38,-1.52804e-06,-3.18057e-12,1.51767e-38,-3.62842e-12,-1.06606e-13,0,0,-3.6238,-0.0777189,0.556334,0,0,0,0,0,-0.564607,-0.0777189,268,-70,268,-70,391,-77,268,57,0.126656,-0.261799,0,-1.5,nan,0,0,0,-0.536206,-0.105359,0,0,0,0,0.0076568,-0.0266206,16482,-0.536405,-0.104667,0.0076568,-0.0266206,11502
11540,-3.11567e-12,1.51779e-38,-1.52804e-06,-3.18057e-12,1.51767e-38,0,-1.06606e-13,0,0,-3.63876,-0.0864342,0.582722,0,0,0,0,0,-0.585099,-0.0864343,271,-72,271,-72,391,-80,269,57,0.120967,-0.261799,0,-1.5,nan,0,0,0,-0.544413,-0.103089,0,0,0,0,-0.000554853,-0.0223487,16714,-0.544406,-0.102798,-0.000554853,-0.0223487,11528
11566,-3.11567e-12,1.51779e-38,-1.52804e-06,-3.18057e-12,1.51767e-38,-3.62842e-12,-1.06606e-13,0,0,-3.63561,-0.0825237,0.603427,0,0,0,0,0,-0.580788,-0.0825237,271,-76,271,-76,391,-80,267,54,-0.119407,-0.261799,0,-1.5,nan,0,0,0,-0.56546,-0.101602,0,0,0,0,-0.0221974,-0.019109,16616,-0.565305,-0.101468,-0.0221974,-0.019109,11561
11583,-3.11567e-12,1.51779e-38,-1.52804e-06,-3.18057e-12,1.51767e-38,0,-1.06606e-13,0,0,-3.63561,-0.0825237,0.603427,0,0,0,0,0,-0.580788,-0.0825237,271,-76,271,-76,391,-80,267,54,0.117213,-0.261799,0,-1.5,nan,0,0,0,-0.565838,-0.101927,0,0,0,0,-0.0221974,-0.019109,16616,-0.565305,-0.101468,-0.0221974,-0.019109,11561
11609,-3.11567e-12,1.51779e-38,-1.52804e-06,-3.18057e-12,1.51767e-38,-3.62842e-12,-1.06607e-13,0,0,-3.5589,-0.064574,0.594553,0,0,0,0,0,-0.475699,-0.064574,265,-79,265,-79,390,-89,267,51,0.119313,-0.261799,0,-1.5,nan,0,0,0,-0.540252,-0.0992027,0,0,0,0,0.00199483,-0.0167599,17500,-0.540304,-0.0987669,0.00199483,-0.0167599,11595
11636,-3.11567e-12,1.51779e-38,-1.52804e-06,-3.18057e-12,1.51767e-38,0,-1.06607e-13,0,0,-3.5629,-0.0796444,0.643417,0,0,0,0,0,-0.481177,-0.0796444,268,-83,268,-83,389,-94,267,45,0.102521,-0.261799,0,-1.5,nan,0,0,0,-0.540448,-0.0937294,0,0,0,0,0.00798585,-0.0109872,17653,-0.540528,-0.0936195,0.00798585,-0.0109872,11629
11653,-3.11567e-12,1.51779e-38,-1.52804e-06,-3.18057e-12,1.51767e-38,-3.62842e-12,-1.06607e-13,0,0,-3.5629,-0.0796444,0.643417,0,0,0,0,0,-0.481177,-0.0796444,268,-83,268,-83,389,-94,267,45,0.102708,-0.261799,0,-1.5,nan,0,0,0,-0.540312,-0.0939162,0,0,0,0,0.00798585,-0.0109872,17653,-0.540528,-0.0936195,0.00798585,-0.0109872,11629
11754,-3.11567e-12,1.51779e-38,-1.52804e-06,-3.18057e-12,1.51767e-38,0,-1.06608e-13,0,0,-3.54352,-0.0732416,0.71324,0,0,0,0,0,-0.454618,-0.0732416,265,-94,265,-94,389,-102,267,35,0.0981944,-0.261799,0,-1.5,nan,0,0,0,-0.502018,-0.0923621,0,0,0,0,0.0537269,-0.00729175,17673,-0.507445,-0.0916256,0.0537269,-0.00729175,11739
11772,-3.11567e-12,1.51779e-38,-1.52804e-06,-3.18057e-12,1.51767e-38,-3.62842e-12,-1.06608e-13,0,0,-3.54352,-0.0732416,0.71324,0,0,0,0,0,-0.454618,-0.0732416,265,-94,265,-94,389,-102,267,35,0.0983286,-0.261799,0,-1.5,nan,0,0,0,-0.501051,-0.0924933,0,0,0,0,0.0537269,-0.00729175,17673,-0.507445,-0.0916256,0.0537269,-0.00729175,11739
11786,-3.11567e-12,1.51779e-38,-1.52804e-06,-3.18057e-12,1.51767e-38,0,-1.06608e-13,0,0,-3.54352,-0.0732416,0.71324,0,0,0,0,0,-0.454618,-0.0732416,265,-94,265,-94,389,-102,267,35,0.0984307,-0.261799,0,-1.5,nan,0,0,0,-0.500299,-0.0925954,0,0,0,0,0.0537269,-0.00729175,17673,-0.507445,-0.0916256,0.0537269,-0.00729175,11739
11858,-3.11567e-12,1.51779e-38,-1.52804e-06,-3.18057e-12,1.51767e-38,-3.62842e-12,-1.06608e-13,0,0,-3.54352,-0.0732416,0.71324,0,0,0,0,0,-0.454618,-0.0732416,265,-94,265,-94,389,-102,267,35,0.0989557,-0.261799,0,-1.5,nan,0,0,0,-0.496431,-0.0931204,0,0,0,0,0.0537269,-0.00729175,17673,-0.507445,-0.0916256,0.0537269,-0.00729175,11739
11875,-3.11567e-12,1.51779e-38,-1.52804e-06,-3.18057e-12,1.51767e-38,0,-1.06609e-13,0,0,-3.54352,-0.0732416,0.71324,0,0,0,0,0,-0.454618,-0.0732416,265,-94,265,-94,389,-102,267,35,0.0990767,-0.261799,0,-1.5,nan,0,0,0,-0.495517,-0.0932444,0,0,0,0,0.0537269,-0.00729175,17673,-0.507445,-0.0916256,0.0537269,-0.00729175,11739
11895,-3.11567e-12,1.51779e-38,-1.52804e-06,-3.18057e-12,1.51767e-38,-3.62842e-12,-1.06609e-13,0,0,-3.54352,-0.0732416,0.71324,0,0,0,0,0,-0.454618,-0.0732416,265,-94,265,-94,389,-102,267,35,0.0992255,-0.261799,0,-1.5,nan,0,0,0,-0.494443,-0.0933902,0,0,0,0,0.0537269,-0.00729175,17673,-0.507445,-0.0916256,0.0537269,-0.00729175,11739
11917,-3.11567e-12,1.51779e-38,-1.52804e-06,-3.18057e-12,1.51767e-38,0,-1.06609e-13,0,0,-3.54352,-0.0732416,0.71324,0,0,0,0,0,-0.454618,-0.0732416,265,-94,265,-94,389,-102,267,35,0.0993756,-0.261799,0,-1.5,nan,0,0,0,-0.493315,-0.0935433,0,0,0,0,0.0537269,-0.00729175,17673,-0.507445,-0.0916256,0.0537269,-0.00729175,11739
11952,-3.11567e-12,1.51779e-38,-1.52804e-06,-3.18057e-12,1.51767e-38,-3.62842e-12,-1.06609e-13,0,0,-3.54352,-0.0732416,0.71324,0,0,0,0,0,-0.454618,-0.0732416,265,-94,265,-94,389,-102,267,35,0.0996381,-0.261799,0,-1.5,nan,0,0,0,-0.491381,-0.0938058,0,0,0,0,0.0537269,-0.00729175,17673,-0.507445,-0.0916256,0.0537269,-0.00729175,11739
11969,-3.11567e-12,1.51779e-38,-1.52804e-06,-3.18057e-12,1.51767e-38,0,-1.0661e-13,0,0,-3.54352,-0.0732416,0.71324,0,0,0,0,0,-0.454618,-0.0732416,265,-94,265,-94,389,-102,267,35,0.0997621,-0.261799,0,-1.5,nan,0,0,0,-0.490467,-0.0939298,0,0,0,0,0.0537269,-0.00729175,17673,-0.507445,-0.0916256,0.0537269,-0.00729175,11739
11993,-3.11567e-12,1.51779e-38,-1.52804e-06,-3.18057e-12,1.51767e-38,-3.62842e-12,-1.0661e-13,0,0,-3.54352,-0.0732416,0.71324,0,0,0,0,0,-0.454618,-0.0732416,265,-94,265,-94,389,-102,267,35,0.0999371,-0.261799,0,-1.5,nan,0,0,0,-0.489178,-0.0941048,0,0,0,0,0.0537269,-0.00729175,17673,-0.507445,-0.0916256,0.0537269,-0.00729175,11739
12010,-3.11567e-12,1.51779e-38,-1.52804e-06,-3.18057e-12,1.51767e-38,0,-1.0661e-13,0,0,-3.54352,-0.0732416,0.71324,0,0,0,0,0,-0.454618,-0.0732416,265,-94,265,-94,389,-102,267,35,0.100064,-0.261799,0,-1.5,nan,0,0,0,-0.488265,-0.0942287,0,0,0,0,0.0537269,-0.00729175,17673,-0.507445,-0.0916256,0.0537269,-0.00729175,11739
12027,-3.11567e-12,1.51779e-38,-1.52804e-06,-3.18057e-12,1.51767e-38,-3.62842e-12,-1.06611e-13,0,0,-3.54352,-0.0732416,0.71324,0,0,0,0,0,-0.454618,-0.0732416,265,-94,265,-94,389,-102,267,35,0.100188,-0.261799,0,-1.5,nan,0,0,0,-0.487351,-0.0943527,0,0,0,0,0.0537269,-0.00729175,17673,-0.507445,-0.0916256,0.0537269,-0.00729175,11739
12063,-3.11567e-12,1.51779e-38,-1.52804e-06,-3.18057e-12,1.51767e-38,0,-1.06611e-13,0,0,-3.54352,-0.0732416,0.71324,0,0,0,0,0,-0.454618,-0.0732416,265,-94,265,-94,389,-102,267,35,0.100447,-0.261799,0,-1.5,nan,0,0,0,-0.485417,-0.0946152,0,0,0,0,0.0537269,-0.00729175,17673,-0.507445,-0.0916256,0.0537269,-0.00729175,11739
12082,-3.11567e-12,1.51779e-38,-1.52804e-06,-3.18057e-12,1.51767e-38,-3.62842e-12,-1.06611e-13,0,0,-3.54352,-0.0732416,0.71324,0,0,0,0,0,-0.454618,-0.0732416,265,-94,265,-94,389,-102,267,35,0.100586,-0.261799,0,-1.5,nan,0,0,0,-0.484396,-0.0947537,0,0,0,0,0.0537269,-0.00729175,17673,-0.507445,-0.0916256,0.0537269,-0.00729175,11739
12104,-3.11567e-12,1.51779e-38,-1.52804e-06,-3.18057e-12,1.51767e-38,0,-1.06611e-13,0,0,-3.54352,-0.0732416,0.71324,0,0,0,0,0,-0.454618,-0.0732416,265,-94,265,-94,389,-102,267,35,0.100746,-0.261799,0,-1.5,nan,0,0,0,-0.483214,-0.0949141,0,0,0,0,0.0537269,-0.00729175,17673,-0.507445,-0.0916256,0.0537269,-0.00729175,11739
12118,-3.11567e-12,1.51779e-38,-1.52804e-06,-3.18057e-12,1.51767e-38,-3.62842e-12,-1.06612e-13,0,0,-3.54352,-0.0732416,0.71324,0,0,0,0,0,-0.454618,-0.0732416,265,-94,265,-94,389,-102,267,35,0.100849,-0.261799,0,-1.5,nan,0,0,0,-0.482462,-0.0950162,0,0,0,0,0.0537269,-0.00729175,17673,-0.507445,-0.0916256,0.0537269,-0.00729175,11739
12138,-3.11567e-12,1.51779e-38,-1.52804e-06,-3.18057e-12,1.51767e-38,0,-1.06612e-13,0,0,-3.54352,-0.0732416,0.71324,0,0,0,0,0,-0.454618,-0.0732416,265,-94,265,-94,389,-102,267,35,0.100997,-0.261799,0,-1.5,nan,0,0,0,-0.481388,-0.095162,0,0,0,0,0.0537269,-0.00729175,17673,-0.507445,-0.0916256,0.0537269,-0.00729175,11739
12159,-3.11567e-12,1.51779e-38,-1.52804e-06,-3.18057e-12,1.51767e-38,-3.62842e-12,-1.06612e-13,0,0,-3.54352,-0.0732416,0.71324,-0.48026,-0.0953151,0.0536195,-0.00727718,0,-0.454618,-0.0732416,265,-94,265,-94,389,-102,267,35,0.101136,-0.261799,0,-1.5,nan,0,0,0,-0.48026,-0.0953151,0,0,0,0,0.0536195,-0.00727718,17673,0,0,0,0,11739
12188,-3.11567e-12,1.51779e-38,-1.52804e-06,-3.18057e-12,1.51767e-38,0,-1.06612e-13,0,0,-3.54352,-0.0732416,0.71324,-0.478722,-0.0955238,0.0528446,-0.00717201,0,-0.454618,-0.0732416,265,-94,265,-94,389,-102,267,35,0.101261,-0.261799,0,-1.5,nan,0,0,0,-0.478722,-0.0955238,0,0,0,0,0.0528446,-0.00717201,17673,0,0,0,0,11739
12205,-3.11567e-12,1.51779e-38,-1.52804e-06,-3.18057e-12,1.51767e-38,-3.62842e-12,-1.06613e-13,0,0,-3.54352,-0.0732416,0.71324,-0.477829,-0.095645,0.0523967,-0.00711122,0,-0.454618,-0.0732416,265,-94,265,-94,389,-102,267,35,0.101334,-0.261799,0,-1.5,nan,0,0,0,-0.477829,-0.095645,0,0,0,0,0.0523967,-0.00711122,17673,0,0,0,0,11739
12229,-3.11567e-12,1.51779e-38,-1.52804e-06,-3.18057e-12,1.51767e-38,0,-1.06613e-13,0,0,-3.54352,-0.0732416,0.71324,-0.476583,-0.0958142,0.0517699,-0.00702615,0,-0.454618,-0.0732416,265,-94,265,-94,389,-102,267,35,0.101435,-0.261799,0,-1.5,nan,0,0,0,-0.476583,-0.0958142,0,0,0,0,0.0517699,-0.00702615,17673,0,0,0,0,11739
12246,-3.11567e-12,1.51779e-38,-1.52804e-06,-3.18057e-12,1.51767e-38,-3.62842e-12,-1.06613e-13,0,0,-3.54352,-0.0732416,0.71324,-0.475707,-0.095933,0.0513312,-0.00696661,0,-0.454618,-0.0732416,265,-94,265,-94,389,-102,267,35,0.101506,-0.261799,0,-1.5,nan,0,0,0,-0.475707,-0.095933,0,0,0,0,0.0513312,-0.00696661,17673,0,0,0,0,11739
12263,-3.11567e-12,1.51779e-38,-1.52804e-06,-3.18057e-12,1.51767e-38,0,-1.06614e-13,0,0,-3.54352,-0.0732416,0.71324,-0.47484,-0.0960508,0.0508961,-0.00690756,0,-0.454618,-0.0732416,265,-94,265,-94,389,-102,267,35,0.101576,-0.261799,0,-1.5,nan,0,0,0,-0.47484,-0.0960508,0,0,0,0,0.0508961,-0.00690756,17673,0,0,0,0,11739
12284,-3.11567e-12,1.51779e-38,-1.52804e-06,-3.18057e-12,1.51767e-38,-3.62842e-12,-1.06614e-13,0,0,-3.54352,-0.0732416,0.71324,-0.473779,-0.0961947,0.0503633,-0.00683525,0,-0.454618,-0.0732416,265,-94,265,-94,389,-102,267,35,0.101663,-0.261799,0,-1.5,nan,0,0,0,-0.473779,-0.0961947,0,0,0,0,0.0503633,-0.00683525,17673,0,0,0,0,11739
12304,-3.11567e-12,1.51779e-38,-1.52804e-06,-3.18057e-12,1.51767e-38,0,-1.06614e-13,0,0,-3.54352,-0.0732416,0.71324,-0.472779,-0.0963305,0.0498612,-0.0067671,0,-0.454618,-0.0732416,265,-94,265,-94,389,-102,267,35,0.101746,-0.261799,0,-1.5,nan,0,0,0,-0.472779,-0.0963305,0,0,0,0,0.0498612,-0.0067671,17673,0,0,0,0,11739
12325,-3.11567e-12,1.51779e-38,-1.52804e-06,-3.18057e-12,1.51767e-38,-3.62842e-12,-1.06614e-13,0,0,-3.54352,-0.0732416,0.71324,-0.471739,-0.0964715,0.0493393,-0.00669626,0,-0.454618,-0.0732416,265,-94,265,-94,389,-102,267,35,0.10183,-0.261799,0,-1.5,nan,0,0,0,-0.471739,-0.0964715,0,0,0,0,0.0493393,-0.00669626,17673,0,0,0,0,11739
12342,-3.11567e-12,1.51779e-38,-1.52804e-06,-3.18057e-12,1.51767e-38,0,-1.06615e-13,0,0,-3.54352,-0.0732416,0.71324,-0.470905,-0.0965847,0.0489211,-0.00663951,0,-0.454618,-0.0732416,265,-94,265,-94,389,-102,267,35,0.101896,-0.261799,0,-1.5,nan,0,0,0,-0.470905,-0.0965847,0,0,0,0,0.0489211,-0.00663951,17673,0,0,0,0,11739
12357,-3.11567e-12,1.51779e-38,-1.52804e-06,-3.18057e-12,1.51767e-38,-3.62842e-12,-1.06615e-13,0,0,-3.54352,-0.0732416,0.71324,-0.470175,-0.0966839,0.0485552,-0.00658985,0,-0.454618,-0.0732416,265,-94,265,-94,389,-102,267,35,0.101956,-0.261799,0,-1.5,nan,0,0,0,-0.470175,-0.0966839,0,0,0,0,0.0485552,-0.00658985,17673,0,0,0,0,11739
12375,-3.11567e-12,1.51779e-38,-1.52804e-06,-3.18057e-12,1.51767e-38,0,-1.06615e-13,0,0,-3.54352,-0.0732416,0.71324,-0.469306,-0.0968018,0.0481195,-0.00653072,0,-0.454618,-0.0732416,265,-94,265,-94,389,-102,267,35,0.102026,-0.261799,0,-1.5,nan,0,0,0,-0.469306,-0.0968018,0,0,0,0,0.0481195,-0.00653072,17673,0,0,0,0,11739
12407,-3.11567e-12,1.51779e-38,-1.52804e-06,-3.18057e-12,1.51767e-38,-3.62842e-12,-1.06615e-13,0,0,-3.54352,-0.0732416,0.71324,-0.467832,-0.0970018,0.0473762,-0.00642984,0,-0.454618,-0.0732416,265,-94,265,-94,389,-102,267,35,0.102146,-0.261799,0,-1.5,nan,0,0,0,-0.467832,-0.0970018,0,0,0,0,0.0473762,-0.00642984,17673,0,0,0,0,11739
12434,-3.11567e-12,1.51779e-38,-1.52804e-06,-3.18057e-12,1.51767e-38,0,-1.06616e-13,0,0,-3.54352,-0.0732416,0.71324,-0.46652,-0.0971799,0.0467151,-0.00634011,0,-0.454618,-0.0732416,265,-94,265,-94,389,-102,267,35,0.102252,-0.261799,0,-1.5,nan,0,0,0,-0.46652,-0.0971799,0,0,0,0,0.0467151,-0.00634011,17673,0,0,0,0,11739
12455,-3.11567e-12,1.51779e-38,-1.52804e-06,-3.18057e-12,1.51767e-38,-3.62842e-12,-1.06616e-13,0,0,-3.54352,-0.0732416,0.71324,-0.465546,-0.097312,0.0462261,-0.00627375,0,-0.454618,-0.0732416,265,-94,265,-94,389,-102,267,35,0.102331,-0.261799,0,-1.5,nan,0,0,0,-0.465546,-0.097312,0,0,0,0,0.0462261,-0.00627375,17673,0,0,0,0,11739
12472,-3.11567e-12,1.51779e-38,-1.52804e-06,-3.18057e-12,1.51767e-38,0,-1.06616e-13,0,0,-3.54352,-0.0732416,0.71324,-0.464765,-0.0974181,0.0458342,-0.00622057,0,-0.454618,-0.0732416,265,-94,265,-94,389,-102,267,35,0.102395,-0.261799,0,-1.5,nan,0,0,0,-0.464765,-0.0974181,0,0,0,0,0.0458342,-0.00622057,17673,0,0,0,0,11739
12492,-3.11567e-12,1.51779e-38,-1.52804e-06,-3.18057e-12,1.51767e-38,-3.62842e-12,-1.06616e-13,0,0,-3.54352,-0.0732416,0.71324,-0.463855,-0.0975416,0.0453774,-0.00615856,0,-0.454618,-0.0732416,265,-94,265,-94,389,-102,267,35,0.102468,-0.261799,0,-1.5,nan,0,0,0,-0.463855,-0.0975416,0,0,0,0,0.0453774,-0.00615856,17673,0,0,0,0,11739
12513,-3.11567e-12,1.51779e-38,-1.52804e-06,-3.18057e-12,1.51767e-38,0,-1.06617e-13,0,0,-3.54352,-0.0732416,0.71324,-0.462909,-0.09767,0.0449024,-0.0060941,0,-0.454618,-0.0732416,265,-94,265,-94,389,-102,267,35,0.102546,-0.261799,0,-1.5,nan,0,0,0,-0.462909,-0.09767,0,0,0,0,0.0449024,-0.0060941,17673,0,0,0,0,11739
12531,-3.11567e-12,1.51779e-38,-1.52804e-06,-3.18057e-12,1.51767e-38,-3.62842e-12,-1.06617e-13,0,0,-3.54352,-0.0732416,0.71324,-0.462105,-0.0977791,0.0444995,-0.00603942,0,-0.454618,-0.0732416,265,-94,265,-94,389,-102,267,35,0.102611,-0.261799,0,-1.5,nan,0,0,0,-0.462105,-0.0977791,0,0,0,0,0.0444995,-0.00603942,17673,0,0,0,0,11739
12552,-3.11567e-12,1.51779e-38,-1.52804e-06,-3.18057e-12,1.51767e-38,0,-1.06617e-13,0,0,-3.54352,-0.0732416,0.71324,-0.461178,-0.097905,0.0440338,-0.00597621,0,-0.454618,-0.0732416,265,-94,265,-94,389,-102,267,35,0.102685,-0.261799,0,-1.5,nan,0,0,0,-0.461178,-0.097905,0,0,0,0,0.0440338,-0.00597621,17673,0,0,0,0,11739
12571,-3.11567e-12,1.51779e-38,-1.52804e-06,-3.18057e-12,1.51767e-38,-3.62842e-12,-1.06618e-13,0,0,-3.54352,-0.0732416,0.71324,-0.460346,-0.0980178,0.0436167,-0.00591961,0,-0.454618,-0.0732416,265,-94,265,-94,389,-102,267,35,0.102753,-0.261799,0,-1.5,nan,0,0,0,-0.460346,-0.0980178,0,0,0,0,0.0436167,-0.00591961,17673,0,0,0,0,11739
12588,-3.11567e-12,1.51779e-38,-1.52804e-06,-3.18057e-12,1.51767e-38,0,-1.06618e-13,0,0,-3.54352,-0.0732416,0.71324,-0.459609,-0.0981178,0.043247,-0.00586943,0,-0.454618,-0.0732416,265,-94,265,-94,389,-102,267,35,0.102815,-0.261799,0,-1.5,nan,0,0,0,-0.459609,-0.0981178,0,0,0,0,0.043247,-0.00586943,17673,0,0,0,0,11739
12610,-3.11567e-12,1.51779e-38,-1.52804e-06,-3.18057e-12,1.51767e-38,-3.62842e-12,-1.06618e-13,0,0,-3.54352,-0.0732416,0.71324,-0.458665,-0.098246,0.0427729,-0.00580508,0,-0.454618,-0.0732416,265,-94,265,-94,389,-102,267,35,0.102889,-0.261799,0,-1.5,nan,0,0,0,-0.458665,-0.098246,0,0,0,0,0.0427729,-0.00580508,17673,0,0,0,0,11739
12624,-3.11567e-12,1.51779e-38,-1.52804e-06,-3.18057e-12,1.51767e-38,0,-1.06618e-13,0,0,-3.54352,-0.0732416,0.71324,-0.458069,-0.0983269,0.0424742,-0.00576455,0,-0.454618,-0.0732416,265,-94,265,-94,389,-102,267,35,0.102937,-0.261799,0,-1.5,nan,0,0,0,-0.458069,-0.0983269,0,0,0,0,0.0424742,-0.00576455,17673,0,0,0,0,11739
12641,-3.11567e-12,1.51779e-38,-1.52804e-06,-3.18057e-12,1.51767e-38,-3.62842e-12,-1.06619e-13,0,0,-3.54352,-0.0732416,0.71324,-0.457351,-0.0984243,0.0421142,-0.00571569,0,-0.454618,-0.0732416,265,-94,265,-94,389,-102,267,35,0.102996,-0.261799,0,-1.5,nan,0,0,0,-0.457351,-0.0984243,0,0,0,0,0.0421142,-0.00571569,17673,0,0,0,0,11739
12663,-3.11567e-12,1.51779e-38,-1.52804e-06,-3.18057e-12,1.51767e-38,0,-1.06619e-13,0,0,-3.54352,-0.0732416,0.71324,-0.456473,-0.0985435,0.0416734,-0.00565586,0,-0.454618,-0.0732416,265,-94,265,-94,389,-102,267,35,0.103067,-0.261799,0,-1.5,nan,0,0,0,-0.456473,-0.0985435,0,0,0,0,0.0416734,-0.00565586,17673,0,0,0,0,11739
12695,-3.11567e-12,1.51779e-38,-1.52804e-06,-3.18057e-12,1.51767e-38,-3.62842e-12,-1.06619e-13,0,0,-3.54352,-0.0732416,0.71324,-0.455115,-0.0987277,0.0409883,-0.00556288,0,-0.454618,-0.0732416,265,-94,265,-94,389,-102,267,35,0.103177,-0.261799,0,-1.5,nan,0,0,0,-0.455115,-0.0987277,0,0,0,0,0.0409883,-0.00556288,17673,0,0,0,0,11739
12716,-3.11567e-12,1.51779e-38,-1.52804e-06,-3.18057e-12,1.51767e-38,0,-1.06619e-13,0,0,-3.54352,-0.0732416,0.71324,-0.454261,-0.0988437,0.0405593,-0.00550465,0,-0.454618,-0.0732416,265,-94,265,-94,389,-102,267,35,0.103248,-0.261799,0,-1.5,nan,0,0,0,-0.454261,-0.0988437,0,0,0,0,0.0405593,-0.00550465,17673,0,0,0,0,11739
12736,-3.11567e-12,1.51779e-38,-1.52804e-06,-3.18057e-12,1.51767e-38,-3.62842e-12,-1.0662e-13,0,0,-3.54352,-0.0732416,0.71324,-0.453495,-0.0989476,0.0401751,-0.00545251,0,-0.454618,-0.0732416,265,-94,265,-94,389,-102,267,35,0.103311,-0.261799,0,-1.5,nan,0,0,0,-0.453495,-0.0989476,0,0,0,0,0.0401751,-0.00545251,17673,0,0,0,0,11739
12753,-3.11567e-12,1.51779e-38,-1.52804e-06,-3.18057e-12,1.51767e-38,0,-1.0662e-13,0,0,-3.54352,-0.0732416,0.71324,-0.452816,-0.0990398,0.0398345,-0.0054063,0,-0.454618,-0.0732416,265,-94,265,-94,389,-102,267,35,0.103364,-0.261799,0,-1.5,nan,0,0,0,-0.452816,-0.0990398,0,0,0,0,0.0398345,-0.0054063,17673,0,0,0,0,11739
12774,-3.11567e-12,1.51779e-38,-1.52804e-06,-3.18057e-12,1.51767e-38,-3.62842e-12,-1.0662e-13,0,0,-3.54352,-0.0732416,0.71324,-0.451947,-0.0991578,0.0393978,-0.00534702,0,-0.454618,-0.0732416,265,-94,265,-94,389,-102,267,35,0.103434,-0.261799,0,-1.5,nan,0,0,0,-0.451947,-0.0991578,0,0,0,0,0.0393978,-0.00534702,17673,0,0,0,0,11739
12791,-3.11567e-12,1.51779e-38,-1.52804e-06,-3.18057e-12,1.51767e-38,0,-1.06621e-13,0,0,-3.54352,-0.0732416,0.71324,-0.451281,-0.0992482,0.0390639,-0.00530171,0,-0.454618,-0.0732416,265,-94,265,-94,389,-102,267,35,0.103489,-0.261799,0,-1.5,nan,0,0,0,-0.451281,-0.0992482,0,0,0,0,0.0390639,-0.00530171,17673,0,0,0,0,11739
12810,-3.11567e-12,1.51779e-38,-1.52804e-06,-3.18057e-12,1.51767e-38,-3.62842e-12,-1.06621e-13,0,0,-3.54352,-0.0732416,0.71324,-0.450543,-0.0993483,0.0386939,-0.00525149,0,-0.454618,-0.0732416,265,-94,265,-94,389,-102,267,35,0.10355,-0.261799,0,-1.5,nan,0,0,0,-0.450543,-0.0993483,0,0,0,0,0.0386939,-0.00525149,17673,0,0,0,0,11739
12862,-3.11567e-12,1.51779e-38,-1.52804e-06,-3.18057e-12,1.51767e-38,0,-1.06621e-13,0,0,-3.54352,-0.0732416,0.71324,-0.448575,-0.0996153,0.0376919,-0.0051155,0,-0.454618,-0.0732416,265,-94,265,-94,389,-102,267,35,0.103707,-0.261799,0,-1.5,nan,0,0,0,-0.448575,-0.0996153,0,0,0,0,0.0376919,-0.0051155,17673,0,0,0,0,11739
12880,-3.11567e-12,1.51779e-38,-1.52804e-06,-3.18057e-12,1.51767e-38,-3.62842e-12,-1.06621e-13,0,0,-3.54352,-0.0732416,0.71324,-0.447901,-0.0997069,0.0373537,-0.0050696,0,-0.454618,-0.0732416,265,-94,265,-94,389,-102,267,35,0.103763,-0.261799,0,-1.5,nan,0,0,0,-0.447901,-0.0997069,0,0,0,0,0.0373537,-0.0050696,17673,0,0,0,0,11739
12894,-3.11567e-12,1.51779e-38,-1.52804e-06,-3.18057e-12,1.51767e-38,0,-1.06622e-13,0,0,-3.54352,-0.0732416,0.71324,-0.44738,-0.0997775,0.0370929,-0.00503421,0,-0.454618,-0.0732416,265,-94,265,-94,389,-102,267,35,0.103804,-0.261799,0,-1.5,nan,0,0,0,-0.44738,-0.0997775,0,0,0,0,0.0370929,-0.00503421,17673,0,0,0,0,11739
12912,-3.11567e-12,1.51779e-38,-1.52804e-06,-3.18057e-12,1.51767e-38,-3.62842e-12,-1.06622e-13,0,0,-3.54352,-0.0732416,0.71324,-0.446717,-0.0998676,0.0367601,-0.00498903,0,-0.454618,-0.0732416,265,-94,265,-94,389,-102,267,35,0.103858,-0.261799,0,-1.5,nan,0,0,0,-0.446717,-0.0998676,0,0,0,0,0.0367601,-0.00498903,17673,0,0,0,0,11739
12930,-3.11567e-12,1.51779e-38,-1.52804e-06,-3.18057e-12,1.51767e-38,0,-1.06622e-13,0,0,-3.54352,-0.0732416,0.71324,-0.446059,-0.0999569,0.0364303,-0.00494427,0,-0.454618,-0.0732416,265,-94,265,-94,389,-102,267,35,0.103912,-0.261799,0,-1.5,nan,0,0,0,-0.446059,-0.0999569,0,0,0,0,0.0364303,-0.00494427,17673,0,0,0,0,11739
12981,-3.11567e-12,1.51779e-38,-1.52804e-06,-3.18057e-12,1.51767e-38,-3.62842e-12,-1.06622e-13,0,0,-3.54352,-0.0732416,0.71324,-0.444241,-0.100204,0.035505,-0.00481869,0,-0.454618,-0.0732416,265,-94,265,-94,389,-102,267,35,0.10406,-0.261799,0,-1.5,nan,0,0,0,-0.444241,-0.100204,0,0,0,0,0.035505,-0.00481869,17673,0,0,0,0,11739
12998,-3.11567e-12,1.51779e-38,-1.52804e-06,-3.18057e-12,1.51767e-38,0,-1.06623e-13,0,0,-3.54352,-0.0732416,0.71324,-0.443641,-0.100285,0.035204,-0.00477785,0,-0.454618,-0.0732416,265,-94,265,-94,389,-102,267,35,0.104109,-0.261799,0,-1.5,nan,0,0,0,-0.443641,-0.100285,0,0,0,0,0.035204,-0.00477785,17673,0,0,0,0,11739
13018,-3.11567e-12,1.51779e-38,-1.52804e-06,-3.18057e-12,1.51767e-38,-3.62842e-12,-1.06623e-13,0,0,-3.54352,-0.0732416,0.71324,-0.442941,-0.10038,0.0348531,-0.00473022,0,-0.454618,-0.0732416,265,-94,265,-94,389,-102,267,35,0.104165,-0.261799,0,-1.5,nan,0,0,0,-0.442941,-0.10038,0,0,0,0,0.0348531,-0.00473022,17673,0,0,0,0,11739
13039,-3.11567e-12,1.51779e-38,-1.52804e-06,-3.18057e-12,1.51767e-38,0,-1.06623e-13,0,0,-3.54352,-0.0732416,0.71324,-0.442215,-0.100479,0.0344883,-0.00468071,0,-0.454618,-0.0732416,265,-94,265,-94,389,-102,267,35,0.104222,-0.261799,0,-1.5,nan,0,0,0,-0.442215,-0.100479,0,0,0,0,0.0344883,-0.00468071,17673,0,0,0,0,11739
13056,-3.11567e-12,1.51779e-38,-1.52804e-06,-3.18057e-12,1.51767e-38,-3.62842e-12,-1.06624e-13,0,0,-3.54352,-0.0732416,0.71324,-0.441632,-0.100558,0.034196,-0.00464103,0,-0.454618,-0.0732416,265,-94,265,-94,389,-102,267,35,0.104271,-0.261799,0,-1.5,nan,0,0,0,-0.441632,-0.100558,0,0,0,0,0.034196,-0.00464103,17673,0,0,0,0,11739
13073,-3.11567e-12,1.51779e-38,-1.52804e-06,-3.18057e-12,1.51767e-38,0,-1.06624e-13,0,0,-3.54352,-0.0732416,0.71324,-0.441054,-0.100636,0.0339061,-0.00460169,0,-0.454618,-0.0732416,265,-94,265,-94,389,-102,267,35,0.104317,-0.261799,0,-1.5,nan,0,0,0,-0.441054,-0.100636,0,0,0,0,0.0339061,-0.00460169,17673,0,0,0,0,11739
13097,-3.11567e-12,1.51779e-38,-1.52804e-06,-3.18057e-12,1.51767e-38,-3.62842e-12,-1.06624e-13,0,0,-3.54352,-0.0732416,0.71324,-0.440247,-0.100746,0.0335007,-0.00454666,0,-0.454618,-0.0732416,265,-94,265,-94,389,-102,267,35,0.104382,-0.261799,0,-1.5,nan,0,0,0,-0.440247,-0.100746,0,0,0,0,0.0335007,-0.00454666,17673,0,0,0,0,11739
13114,-3.11567e-12,1.51779e-38,-1.52804e-06,-3.18057e-12,1.51767e-38,0,-1.06624e-13,0,0,-3.54352,-0.0732416,0.71324,-0.439681,-0.100823,0.0332168,-0.00450813,0,-0.454618,-0.0732416,265,-94,265,-94,389,-102,267,35,0.104429,-0.261799,0,-1.5,nan,0,0,0,-0.439681,-0.100823,0,0,0,0,0.0332168,-0.00450813,17673,0,0,0,0,11739
13131,-3.11567e-12,1.51779e-38,-1.52804e-06,-3.18057e-12,1.51767e-38,-3.62842e-12,-1.06625e-13,0,0,-3.54352,-0.0732416,0.71324,-0.439119,-0.100899,0.0329352,-0.00446992,0,-0.454618,-0.0732416,265,-94,265,-94,389,-102,267,35,0.104475,-0.261799,0,-1.5,nan,0,0,0,-0.439119,-0.100899,0,0,0,0,0.0329352,-0.00446992,17673,0,0,0,0,11739
13152,-3.11567e-12,1.51779e-38,-1.52804e-06,-3.18057e-12,1.51767e-38,0,-1.06625e-13,0,0,-3.54352,-0.0732416,0.71324,-0.438433,-0.100992,0.0325904,-0.00442313,0,-0.454618,-0.0732416,265,-94,265,-94,389,-102,267,35,0.104529,-0.261799,0,-1.5,nan,0,0,0,-0.438433,-0.100992,0,0,0,0,0.0325904,-0.00442313,17673,0,0,0,0,11739
13167,-3.11567e-12,1.51779e-38,-1.52804e-06,-3.18057e-12,1.51767e-38,-3.62842e-12,-1.06625e-13,0,0,-3.54352,-0.0732416,0.71324,-0.437946,-0.101058,0.0323467,-0.00439005,0,-0.454618,-0.0732416,265,-94,265,-94,389,-102,267,35,0.104569,-0.261799,0,-1.5,nan,0,0,0,-0.437946,-0.101058,0,0,0,0,0.0323467,-0.00439005,17673,0,0,0,0,11739
13185,-3.11567e-12,1.51779e-38,-1.52804e-06,-3.18057e-12,1.51767e-38,0,-1.06625e-13,0,0,-3.54352,-0.0732416,0.71324,-0.437368,-0.101136,0.0320565,-0.00435066,0,-0.454618,-0.0732416,265,-94,265,-94,389,-102,267,35,0.104617,-0.261799,0,-1.5,nan,0,0,0,-0.437368,-0.101136,0,0,0,0,0.0320565,-0.00435066,17673,0,0,0,0,11739
13202,-3.11567e-12,1.51779e-38,-1.52804e-06,-3.18057e-12,1.51767e-38,-3.62842e-12,-1.06626e-13,0,0,-3.54352,-0.0732416,0.71324,-0.436826,-0.10121,0.0317848,-0.00431378,0,-0.454618,-0.0732416,265,-94,265,-94,389,-102,267,35,0.104661,-0.261799,0,-1.5,nan,0,0,0,-0.436826,-0.10121,0,0,0,0,0.0317848,-0.00431378,17673,0,0,0,0,11739
13221,-3.11567e-12,1.51779e-38,-1.52804e-06,-3.18057e-12,1.51767e-38,0,-1.06626e-13,0,0,-3.54352,-0.0732416,0.71324,-0.436226,-0.101291,0.0314837,-0.00427292,0,-0.454618,-0.0732416,265,-94,265,-94,389,-102,267,35,0.10471,-0.261799,0,-1.5,nan,0,0,0,-0.436226,-0.101291,0,0,0,0,0.0314837,-0.00427292,17673,0,0,0,0,11739
13260,-3.11567e-12,1.51779e-38,-1.52804e-06,-3.18057e-12,1.51767e-38,-3.62842e-12,-1.06626e-13,0,0,-3.54352,-0.0732416,0.71324,-0.435018,-0.101455,0.0308719,-0.00418989,0,-0.454618,-0.0732416,265,-94,265,-94,389,-102,267,35,0.104808,-0.261799,0,-1.5,nan,0,0,0,-0.435018,-0.101455,0,0,0,0,0.0308719,-0.00418989,17673,0,0,0,0,11739
13277,-3.11567e-12,1.51779e-38,-1.52804e-06,-3.18057e-12,1.51767e-38,0,-1.06627e-13,0,0,-3.54352,-0.0732416,0.71324,-0.434496,-0.101526,0.0306103,-0.00415438,0,-0.454618,-0.0732416,265,-94,265,-94,389,-102,267,35,0.104849,-0.261799,0,-1.5,nan,0,0,0,-0.434496,-0.101526,0,0,0,0,0.0306103,-0.00415438,17673,0,0,0,0,11739
13294,-3.11567e-12,1.51779e-38,-1.52804e-06,-3.18057e-12,1.51767e-38,-3.62842e-12,-1.06627e-13,0,0,-3.54352,-0.0732416,0.71324,-0.433978,-0.101596,0.0303508,-0.00411917,0,-0.454618,-0.0732416,265,-94,265,-94,389,-102,267,35,0.104893,-0.261799,0,-1.5,nan,0,0,0,-0.433978,-0.101596,0,0,0,0,0.0303508,-0.00411917,17673,0,0,0,0,11739
13316,-3.11567e-12,1.51779e-38,-1.52804e-06,-3.18057e-12,1.51767e-38,0,-1.06627e-13,0,0,-3.54352,-0.0732416,0.71324,-0.433316,-0.101686,0.0300181,-0.00407401,0,-0.454618,-0.0732416,265,-94,265,-94,389,-102,267,35,0.104947,-0.261799,0,-1.5,nan,0,0,0,-0.433316,-0.101686,0,0,0,0,0.0300181,-0.00407401,17673,0,0,0,0,11739
13336,-3.11567e-12,1.51779e-38,-1.52804e-06,-3.18057e-12,1.51767e-38,-3.62842e-12,-1.06627e-13,0,0,-3.54352,-0.0732416,0.71324,-0.432719,-0.101767,0.0297189,-0.0040334,0,-0.454618,-0.0732416,265,-94,265,-94,389,-102,267,35,0.104994,-0.261799,0,-1.5,nan,0,0,0,-0.432719,-0.101767,0,0,0,0,0.0297189,-0.0040334,17673,0,0,0,0,11739
13353,-3.11567e-12,1.51779e-38,-1.52804e-06,-3.18057e-12,1.51767e-38,0,-1.06628e-13,0,0,-3.54352,-0.0732416,0.71324,-0.432246,-0.101832,0.0294818,-0.00400122,0,-0.454618,-0.0732416,265,-94,265,-94,389,-102,267,35,0.105032,-0.261799,0,-1.5,nan,0,0,0,-0.432246,-0.101832,0,0,0,0,0.0294818,-0.00400122,17673,0,0,0,0,11739
13405,-3.11567e-12,1.51779e-38,-1.52804e-06,-3.18057e-12,1.51767e-38,-3.62842e-12,-1.06628e-13,0,0,-3.54352,-0.0732416,0.71324,-0.43072,-0.102039,0.0287033,-0.00389557,0,-0.454618,-0.0732416,265,-94,265,-94,389,-102,267,35,0.105156,-0.261799,0,-1.5,nan,0,0,0,-0.43072,-0.102039,0,0,0,0,0.0287033,-0.00389557,17673,0,0,0,0,11739
13424,-3.11567e-12,1.51779e-38,-1.52804e-06,-3.18057e-12,1.51767e-38,0,-1.06628e-13,0,0,-3.54352,-0.0732416,0.71324,-0.430178,-0.102112,0.0284314,-0.00385868,0,-0.454618,-0.0732416,265,-94,265,-94,389,-102,267,35,0.1052,-0.261799,0,-1.5,nan,0,0,0,-0.430178,-0.102112,0,0,0,0,0.0284314,-0.00385868,17673,0,0,0,0,11739
13447,-3.11567e-12,1.51779e-38,-1.52804e-06,-3.18057e-12,1.51767e-38,-3.62842e-12,-1.06628e-13,0,0,-3.54352,-0.0732416,0.71324,-0.429557,-0.102196,0.0281197,-0.00381636,0,-0.454618,-0.0732416,265,-94,265,-94,389,-102,267,35,0.105248,-0.261799,0,-1.5,nan,0,0,0,-0.429557,-0.102196,0,0,0,0,0.0281197,-0.00381636,17673,0,0,0,0,11739
13480,-3.11567e-12,1.51779e-38,-1.52804e-06,-3.18057e-12,1.51767e-38,0,-1.06629e-13,0,0,-3.54352,-0.0732416,0.71324,-0.428614,-0.102325,0.0276434,-0.00375173,0,-0.454618,-0.0732416,265,-94,265,-94,389,-102,267,35,0.105327,-0.261799,0,-1.5,nan,0,0,0,-0.428614,-0.102325,0,0,0,0,0.0276434,-0.00375173,17673,0,0,0,0,11739
13499,-3.11567e-12,1.51779e-38,-1.52804e-06,-3.18057e-12,1.51767e-38,-3.62842e-12,-1.06629e-13,0,0,-3.54352,-0.0732416,0.71324,-0.428092,-0.102395,0.0273816,-0.00371619,0,-0.454618,-0.0732416,265,-94,265,-94,389,-102,267,35,0.10537,-0.261799,0,-1.5,nan,0,0,0,-0.428092,-0.102395,0,0,0,0,0.0273816,-0.00371619,17673,0,0,0,0,11739
13521,-3.11567e-12,1.51779e-38,-1.52804e-06,-3.18057e-12,1.51767e-38,0,-1.06629e-13,0,0,-3.54352,-0.0732416,0.71324,-0.427494,-0.102477,0.0270814,-0.00367545,0,-0.454618,-0.0732416,265,-94,265,-94,389,-102,267,35,0.105418,-0.261799,0,-1.5,nan,0,0,0,-0.427494,-0.102477,0,0,0,0,0.0270814,-0.00367545,17673,0,0,0,0,11739
13591,-3.11567e-12,1.51779e-38,-1.52804e-06,-3.18057e-12,1.51767e-38,-3.62842e-12,-1.06629e-13,0,0,-3.54352,-0.0732416,0.71324,-0.425657,-0.102726,0.0261375,-0.00354734,0,-0.454618,-0.0732416,265,-94,265,-94,389,-102,267,35,0.105563,-0.261799,0,-1.5,nan,0,0,0,-0.425657,-0.102726,0,0,0,0,0.0261375,-0.00354734,17673,0,0,0,0,11739
13628,-3.11567e-12,1.51779e-38,-1.52804e-06,-3.18057e-12,1.51767e-38,0,-1.0663e-13,0,0,-3.54352,-0.0732416,0.71324,-0.424704,-0.102855,0.0256557,-0.00348196,0,-0.454618,-0.0732416,265,-94,265,-94,389,-102,267,35,0.105642,-0.261799,0,-1.5,nan,0,0,0,-0.424704,-0.102855,0,0,0,0,0.0256557,-0.00348196,17673,0,0,0,0,11739
13649,-3.11567e-12,1.51779e-38,-1.52804e-06,-3.18057e-12,1.51767e-38,-3.62842e-12,-1.0663e-13,0,0,-3.54352,-0.0732416,0.71324,-0.424169,-0.102928,0.0253872,-0.00344551,0,-0.454618,-0.0732416,265,-94,265,-94,389,-102,267,35,0.105684,-0.261799,0,-1.5,nan,0,0,0,-0.424169,-0.102928,0,0,0,0,0.0253872,-0.00344551,17673,0,0,0,0,11739
13669,-3.11567e-12,1.51779e-38,-1.52804e-06,-3.18057e-12,1.51767e-38,0,-1.0663e-13,0,0,-3.54352,-0.0732416,0.71324,-0.423665,-0.102996,0.0251341,-0.00341116,0,-0.454618,-0.0732416,265,-94,265,-94,389,-102,267,35,0.105726,-0.261799,0,-1.5,nan,0,0,0,-0.423665,-0.102996,0,0,0,0,0.0251341,-0.00341116,17673,0,0,0,0,11739
13691,-3.11567e-12,1.51779e-38,-1.52804e-06,-3.18057e-12,1.51767e-38,-3.62842e-12,-1.06631e-13,0,0,-3.54352,-0.0732416,0.71324,-0.423116,-0.103071,0.0248585,-0.00337376,0,-0.454618,-0.0732416,265,-94,265,-94,389,-102,267,35,0.105769,-0.261799,0,-1.5,nan,0,0,0,-0.423116,-0.103071,0,0,0,0,0.0248585,-0.00337376,17673,0,0,0,0,11739
13708,-3.11567e-12,1.51779e-38,-1.52804e-06,-3.18057e-12,1.51767e-38,0,-1.06631e-13,0,0,-3.54352,-0.0732416,0.71324,-0.422721,-0.103124,0.0246602,-0.00334685,0,-0.454618,-0.0732416,265,-94,265,-94,389,-102,267,35,0.105801,-0.261799,0,-1.5,nan,0,0,0,-0.422721,-0.103124,0,0,0,0,0.0246602,-0.00334685,17673,0,0,0,0,11739
13725,-3.11567e-12,1.51779e-38,-1.52804e-06,-3.18057e-12,1.51767e-38,-3.62842e-12,-1.06631e-13,0,0,-3.54352,-0.0732416,0.71324,-0.422304,-0.103181,0.0244512,-0.00331848,0,-0.454618,-0.0732416,265,-94,265,-94,389,-102,267,35,0.105836,-0.261799,0,-1.5,nan,0,0,0,-0.422304,-0.103181,0,0,0,0,0.0244512,-0.00331848,17673,0,0,0,0,11739
13766,-3.11567e-12,1.51779e-38,-1.52804e-06,-3.18057e-12,1.51767e-38,0,-1.06631e-13,0,0,-3.54352,-0.0732416,0.71324,-0.421295,-0.103318,0.0239395,-0.00324904,0,-0.454618,-0.0732416,265,-94,265,-94,389,-102,267,35,0.105917,-0.261799,0,-1.5,nan,0,0,0,-0.421295,-0.103318,0,0,0,0,0.0239395,-0.00324904,17673,0,0,0,0,11739
13784,-3.11567e-12,1.51779e-38,-1.52804e-06,-3.18057e-12,1.51767e-38,-3.62842e-12,-1.06632e-13,0,0,-3.54352,-0.0732416,0.71324,-0.420867,-0.103376,0.0237247,-0.00321989,0,-0.454618,-0.0732416,265,-94,265,-94,389,-102,267,35,0.105951,-0.261799,0,-1.5,nan,0,0,0,-0.420867,-0.103376,0,0,0,0,0.0237247,-0.00321989,17673,0,0,0,0,11739
13798,-3.11567e-12,1.51779e-38,-1.52804e-06,-3.18057e-12,1.51767e-38,0,-1.06632e-13,0,0,-3.54352,-0.0732416,0.71324,-0.420536,-0.103421,0.0235591,-0.0031974,0,-0.454618,-0.0732416,265,-94,265,-94,389,-102,267,35,0.105978,-0.261799,0,-1.5,nan,0,0,0,-0.420536,-0.103421,0,0,0,0,0.0235591,-0.0031974,17673,0,0,0,0,11739
13816,-3.11567e-12,1.51779e-38,-1.52804e-06,-3.18057e-12,1.51767e-38,-3.62842e-12,-1.06632e-13,0,0,-3.54352,-0.0732416,0.71324,-0.420114,-0.103478,0.0233477,-0.00316871,0,-0.454618,-0.0732416,265,-94,265,-94,389,-102,267,35,0.106014,-0.261799,0,-1.5,nan,0,0,0,-0.420114,-0.103478,0,0,0,0,0.0233477,-0.00316871,17673,0,0,0,0,11739
13834,-3.11567e-12,1.51779e-38,-1.52804e-06,-3.18057e-12,1.51767e-38,0,-1.06632e-13,0,0,-3.54352,-0.0732416,0.71324,-0.419697,-0.103535,0.0231382,-0.00314028,0,-0.454618,-0.0732416,265,-94,265,-94,389,-102,267,35,0.106047,-0.261799,0,-1.5,nan,0,0,0,-0.419697,-0.103535,0,0,0,0,0.0231382,-0.00314028,17673,0,0,0,0,11739
13851,-3.11567e-12,1.51779e-38,-1.52804e-06,-3.18057e-12,1.51767e-38,-3.62842e-12,-1.06633e-13,0,0,-3.54352,-0.0732416,0.71324,-0.419305,-0.103588,0.0229421,-0.00311367,0,-0.454618,-0.0732416,265,-94,265,-94,389,-102,267,35,0.106079,-0.261799,0,-1.5,nan,0,0,0,-0.419305,-0.103588,0,0,0,0,0.0229421,-0.00311367,17673,0,0,0,0,11739
13873,-3.11567e-12,1.51779e-38,-1.52804e-06,-3.18057e-12,1.51767e-38,0,-1.06633e-13,0,0,-3.54352,-0.0732416,0.71324,-0.418805,-0.103656,0.0226906,-0.00307953,0,-0.454618,-0.0732416,265,-94,265,-94,389,-102,267,35,0.10612,-0.261799,0,-1.5,nan,0,0,0,-0.418805,-0.103656,0,0,0,0,0.0226906,-0.00307953,17673,0,0,0,0,11739
13892,-3.11567e-12,1.51779e-38,-1.52804e-06,-3.18057e-12,1.51767e-38,-3.62842e-12,-1.06633e-13,0,0,-3.54352,-0.0732416,0.71324,-0.418376,-0.103714,0.0224756,-0.00305036,0,-0.454618,-0.0732416,265,-94,265,-94,389,-102,267,35,0.106155,-0.261799,0,-1.5,nan,0,0,0,-0.418376,-0.103714,0,0,0,0,0.0224756,-0.00305036,17673,0,0,0,0,11739
13914,-3.11567e-12,1.51779e-38,-1.52804e-06,-3.18057e-12,1.51767e-38,0,-1.06634e-13,0,0,-3.54352,-0.0732416,0.71324,-0.417886,-0.103781,0.0222292,-0.00301692,0,-0.454618,-0.0732416,265,-94,265,-94,389,-102,267,35,0.106195,-0.261799,0,-1.5,nan,0,0,0,-0.417886,-0.103781,0,0,0,0,0.0222292,-0.00301692,17673,0,0,0,0,11739
13931,-3.11567e-12,1.51779e-38,-1.52804e-06,-3.18057e-12,1.51767e-38,-3.62842e-12,-1.06634e-13,0,0,-3.54352,-0.0732416,0.71324,-0.41751,-0.103832,0.0220408,-0.00299135,0,-0.454618,-0.0732416,265,-94,265,-94,389,-102,267,35,0.106225,-0.261799,0,-1.5,nan,0,0,0,-0.41751,-0.103832,0,0,0,0,0.0220408,-0.00299135,17673,0,0,0,0,11739
13948,-3.11567e-12,1.51779e-38,-1.52804e-06,-3.18057e-12,1.51767e-38,0,-1.06634e-13,0,0,-3.54352,-0.0732416,0.71324,-0.417137,-0.103882,0.021854,-0.00296599,0,-0.454618,-0.0732416,265,-94,265,-94,389,-102,267,35,0.106254,-0.261799,0,-1.5,nan,0,0,0,-0.417137,-0.103882,0,0,0,0,0.021854,-0.00296599,17673,0,0,0,0,11739
13970,-3.11567e-12,1.51779e-38,-1.52804e-06,-3.18057e-12,1.51767e-38,-3.62842e-12,-1.06634e-13,0,0,-3.54352,-0.0732416,0.71324,-0.41666,-0.103947,0.0216143,-0.00293347,0,-0.454618,-0.0732416,265,-94,265,-94,389,-102,267,35,0.106292,-0.261799,0,-1.5,nan,0,0,0,-0.41666,-0.103947,0,0,0,0,0.0216143,-0.00293347,17673,0,0,0,0,11739
13989,-3.11567e-12,1.51779e-38,-1.52804e-06,-3.18057e-12,1.51767e-38,0,-1.06635e-13,0,0,-3.54352,-0.0732416,0.71324,-0.416252,-0.104002,0.0214096,-0.00290568,0,-0.454618,-0.0732416,265,-94,265,-94,389,-102,267,35,0.106327,-0.261799,0,-1.5,nan,0,0,0,-0.416252,-0.104002,0,0,0,0,0.0214096,-0.00290568,17673,0,0,0,0,11739
14007,-3.11567e-12,1.51779e-38,-1.52804e-06,-3.18057e-12,1.51767e-38,-3.62842e-12,-1.06635e-13,0,0,-3.54352,-0.0732416,0.71324,-0.415869,-0.104054,0.0212175,-0.00287961,0,-0.454618,-0.0732416,265,-94,265,-94,389,-102,267,35,0.106358,-0.261799,0,-1.5,nan,0,0,0,-0.415869,-0.104054,0,0,0,0,0.0212175,-0.00287961,17673,0,0,0,0,11739
14027,-3.11567e-12,1.51779e-38,-1.52804e-06,-3.18057e-12,1.51767e-38,0,-1.06635e-13,0,0,-3.54352,-0.0732416,0.71324,-0.415448,-0.104111,0.021006,-0.00285091,0,-0.454618,-0.0732416,265,-94,265,-94,389,-102,267,35,0.106391,-0.261799,0,-1.5,nan,0,0,0,-0.415448,-0.104111,0,0,0,0,0.021006,-0.00285091,17673,0,0,0,0,11739
14043,-3.11567e-12,1.51779e-38,-1.52804e-06,-3.18057e-12,1.51767e-38,-3.62842e-12,-1.06635e-13,0,0,-3.54352,-0.0732416,0.71324,-0.415113,-0.104157,0.0208385,-0.00282817,0,-0.454618,-0.0732416,265,-94,265,-94,389,-102,267,35,0.106419,-0.261799,0,-1.5,nan,0,0,0,-0.415113,-0.104157,0,0,0,0,0.0208385,-0.00282817,17673,0,0,0,0,11739
14062,-3.11567e-12,1.51779e-38,-1.52804e-06,-3.18057e-12,1.51767e-38,0,-1.06636e-13,0,0,-3.54352,-0.0732416,0.71324,-0.41472,-0.10421,0.0206411,-0.00280139,0,-0.454618,-0.0732416,265,-94,265,-94,389,-102,267,35,0.106451,-0.261799,0,-1.5,nan,0,0,0,-0.41472,-0.10421,0,0,0,0,0.0206411,-0.00280139,17673,0,0,0,0,11739
14079,-3.11567e-12,1.51779e-38,-1.52804e-06,-3.18057e-12,1.51767e-38,-3.62842e-12,-1.06636e-13,0,0,-3.54352,-0.0732416,0.71324,-0.414371,-0.104258,0.0204662,-0.00277764,0,-0.454618,-0.0732416,265,-94,265,-94,389,-102,267,35,0.106479,-0.261799,0,-1.5,nan,0,0,0,-0.414371,-0.104258,0,0,0,0,0.0204662,-0.00277764,17673,0,0,0,0,11739
14096,-3.11567e-12,1.51779e-38,-1.52804e-06,-3.18057e-12,1.51767e-38,0,-1.06636e-13,0,0,-3.54352,-0.0732416,0.71324,-0.414025,-0.104305,0.0202927,-0.0027541,0,-0.454618,-0.0732416,265,-94,265,-94,389,-102,267,35,0.106507,-0.261799,0,-1.5,nan,0,0,0,-0.414025,-0.104305,0,0,0,0,0.0202927,-0.0027541,17673,0,0,0,0,11739
14168,-3.11567e-12,1.51779e-38,-1.52804e-06,-3.18057e-12,1.51767e-38,-3.62842e-12,-1.06637e-13,0,0,-3.54352,-0.0732416,0.71324,-0.412611,-0.104496,0.0195649,-0.00265532,0,-0.454618,-0.0732416,265,-94,265,-94,389,-102,267,35,0.106621,-0.261799,0,-1.5,nan,0,0,0,-0.412611,-0.104496,0,0,0,0,0.0195649,-0.00265532,17673,0,0,0,0,11739
14186,-3.11567e-12,1.51779e-38,-1.52804e-06,-3.18057e-12,1.51767e-38,0,-1.06637e-13,0,0,-3.54352,-0.0732416,0.71324,-0.412261,-0.104544,0.0193894,-0.0026315,0,-0.454618,-0.0732416,265,-94,265,-94,389,-102,267,35,0.106648,-0.261799,0,-1.5,nan,0,0,0,-0.412261,-0.104544,0,0,0,0,0.0193894,-0.0026315,17673,0,0,0,0,11739
14203,-3.11567e-12,1.51779e-38,-1.52804e-06,-3.18057e-12,1.51767e-38,-3.62842e-12,-1.06637e-13,0,0,-3.54352,-0.0732416,0.71324,-0.411933,-0.104588,0.019225,-0.00260919,0,-0.454618,-0.0732416,265,-94,265,-94,389,-102,267,35,0.106675,-0.261799,0,-1.5,nan,0,0,0,-0.411933,-0.104588,0,0,0,0,0.019225,-0.00260919,17673,0,0,0,0,11739
14225,-3.11567e-12,1.51779e-38,-1.52804e-06,-3.18057e-12,1.51767e-38,0,-1.06637e-13,0,0,-3.54352,-0.0732416,0.71324,-0.411532,-0.104643,0.0190238,-0.00258188,0,-0.454618,-0.0732416,265,-94,265,-94,389,-102,267,35,0.106708,-0.261799,0,-1.5,nan,0,0,0,-0.411532,-0.104643,0,0,0,0,0.0190238,-0.00258188,17673,0,0,0,0,11739
14241,-3.11567e-12,1.51779e-38,-1.52804e-06,-3.18057e-12,1.51767e-38,-3.62842e-12,-1.06638e-13,0,0,-3.54352,-0.0732416,0.71324,-0.411211,-0.104686,0.0188625,-0.00256,0,-0.454618,-0.0732416,265,-94,265,-94,389,-102,267,35,0.106734,-0.261799,0,-1.5,nan,0,0,0,-0.411211,-0.104686,0,0,0,0,0.0188625,-0.00256,17673,0,0,0,0,11739
14261,-3.11567e-12,1.51779e-38,-1.52804e-06,-3.18057e-12,1.51767e-38,0,-1.06638e-13,0,0,-3.54352,-0.0732416,0.71324,-0.410836,-0.104737,0.0186745,-0.00253448,0,-0.454618,-0.0732416,265,-94,265,-94,389,-102,267,35,0.106764,-0.261799,0,-1.5,nan,0,0,0,-0.410836,-0.104737,0,0,0,0,0.0186745,-0.00253448,17673,0,0,0,0,11739
14302,-3.11567e-12,1.51779e-38,-1.52804e-06,-3.18057e-12,1.51767e-38,-3.62842e-12,-1.06638e-13,0,0,-3.54352,-0.0732416,0.71324,-0.410083,-0.10484,0.0182932,-0.00248272,0,-0.454618,-0.0732416,265,-94,265,-94,389,-102,267,35,0.106824,-0.261799,0,-1.5,nan,0,0,0,-0.410083,-0.10484,0,0,0,0,0.0182932,-0.00248272,17673,0,0,0,0,11739
14337,-3.11567e-12,1.51779e-38,-1.52804e-06,-3.18057e-12,1.51767e-38,0,-1.06638e-13,0,0,-3.54352,-0.0732416,0.71324,-0.40947,-0.104923,0.0179832,-0.00244066,0,-0.454618,-0.0732416,265,-94,265,-94,389,-102,267,35,0.106875,-0.261799,0,-1.5,nan,0,0,0,-0.40947,-0.104923,0,0,0,0,0.0179832,-0.00244066,17673,0,0,0,0,11739
14358,-3.11567e-12,1.51779e-38,-1.52804e-06,-3.18057e-12,1.51767e-38,-3.62842e-12,-1.06639e-13,0,0,-3.54352,-0.0732416,0.71324,-0.409077,-0.104976,0.0177861,-0.0024139,0,-0.454618,-0.0732416,265,-94,265,-94,389,-102,267,35,0.106907,-0.261799,0,-1.5,nan,0,0,0,-0.409077,-0.104976,0,0,0,0,0.0177861,-0.0024139,17673,0,0,0,0,11739
14372,-3.11567e-12,1.51779e-38,-1.52804e-06,-3.18057e-12,1.51767e-38,0,-1.06639e-13,0,0,-3.54352,-0.0732416,0.71324,-0.408847,-0.105007,0.0176708,-0.00239825,0,-0.454618,-0.0732416,265,-94,265,-94,389,-102,267,35,0.106927,-0.261799,0,-1.5,nan,0,0,0,-0.408847,-0.105007,0,0,0,0,0.0176708,-0.00239825,17673,0,0,0,0,11739
14388,-3.11567e-12,1.51779e-38,-1.52804e-06,-3.18057e-12,1.51767e-38,-3.62842e-12,-1.06639e-13,0,0,-3.54352,-0.0732416,0.71324,-0.408548,-0.105048,0.017521,-0.00237792,0,-0.454618,-0.0732416,265,-94,265,-94,389,-102,267,35,0.106949,-0.261799,0,-1.5,nan,0,0,0,-0.408548,-0.105048,0,0,0,0,0.017521,-0.00237792,17673,0,0,0,0,11739
14410,-3.11567e-12,1.51779e-38,-1.52804e-06,-3.18057e-12,1.51767e-38,0,-1.0664e-13,0,0,-3.54352,-0.0732416,0.71324,-0.408166,-0.1051,0.0173288,-0.00235185,0,-0.454618,-0.0732416,265,-94,265,-94,389,-102,267,35,0.10698,-0.261799,0,-1.5,nan,0,0,0,-0.408166,-0.1051,0,0,0,0,0.0173288,-0.00235185,17673,0,0,0,0,11739
14430,-3.11567e-12,1.51779e-38,-1.52804e-06,-3.18057e-12,1.51767e-38,-3.62842e-12,-1.0664e-13,0,0,-3.54352,-0.0732416,0.71324,-0.407822,-0.105146,0.0171561,-0.0023284,0,-0.454618,-0.0732416,265,-94,265,-94,389,-102,267,35,0.107009,-0.261799,0,-1.5,nan,0,0,0,-0.407822,-0.105146,0,0,0,0,0.0171561,-0.0023284,17673,0,0,0,0,11739
14447,-3.11567e-12,1.51779e-38,-1.52804e-06,-3.18057e-12,1.51767e-38,0,-1.0664e-13,0,0,-3.54352,-0.0732416,0.71324,-0.407531,-0.105186,0.0170107,-0.00230867,0,-0.454618,-0.0732416,265,-94,265,-94,389,-102,267,35,0.107034,-0.261799,0,-1.5,nan,0,0,0,-0.407531,-0.105186,0,0,0,0,0.0170107,-0.00230867,17673,0,0,0,0,11739
14469,-3.11567e-12,1.51779e-38,-1.52804e-06,-3.18057e-12,1.51767e-38,-3.62842e-12,-1.0664e-13,0,0,-3.54352,-0.0732416,0.71324,-0.40716,-0.105236,0.0168242,-0.00228336,0,-0.454618,-0.0732416,265,-94,265,-94,389,-102,267,35,0.107063,-0.261799,0,-1.5,nan,0,0,0,-0.40716,-0.105236,0,0,0,0,0.0168242,-0.00228336,17673,0,0,0,0,11739
