timestamp,A_x,A_y,A_z,P,Q,R,Phi,Theta,Psi,poseX,poseY,poseZ,state_X,state_Y,state_Z,state_VzB,state_Bx,state_By,state_Bz,p1_x,p1_y,p2_x,p2_y,p3_x,p3_y,p4_x,p4_y,roll,pitch,yaw,alt,targetHeading,highLevelState,lowLevelState,gateNumber,filtered_x,filtered_y,x_OT,y_OT,vx_OT,vy_OT,filtered_vx,filtered_vygateArearansac_corr_x,ransac_corr_y,ransac_corr_vx,ransac_corr_vy,detectionTimeStamppTermX,dTermX,pTermY,dTermY
8008,0,0,0,0,0,0,0,0,0,0,0,0,0,0,0,0,0,0,0,0,0,0,0,0,0,0,0,0,-0,0,-1.5,-nan,0,0,0,0,0,0,0,0,0,0,0,1.9603e-19,0,0,0,0,0,0,0,0,0
8991,-3.11483e-12,1.77477e-38,-1.51454e-06,-3.18057e-12,1.77466e-38,0,-1.06589e-13,0,0,0,0,0,0,0,0,0,0,0,0,0,0,0,0,0,0,0,0,0,-0,0,-1.5,-nan,0,0,0,0,0,0,0,0,0,0,0,1.9603e-19,0,0,0,0,0,0,0,0,0
9034,-3.11483e-12,1.77477e-38,-1.51454e-06,-3.18057e-12,1.77466e-38,0,-1.0659e-13,0,0,0,0,0,0,0,0,0,0,0,0,0,0,0,0,0,0,0,0,0,-0,0,-1.5,-nan,0,0,0,0,0,0,0,0,0,0,0,1.9603e-19,0,0,0,0,0,0,0,0,0
9270,-3.11483e-12,1.77477e-38,-1.51454e-06,-3.18057e-12,1.77466e-38,0,-1.0659e-13,0,0,0,0,0,0,0,0,0,0,0,0,0,0,0,0,0,0,0,0,0,-0,0,-1.5,-nan,0,0,0,0,0,0,0,0,0,0,0,1.9603e-19,0,0,0,0,0,0,0,0,0
9330,-3.11483e-12,1.77477e-38,-1.51454e-06,-3.18057e-12,1.77466e-38,0,-1.0659e-13,0,0,0,0,0,0,0,0,0,0,0,0,0,0,0,0,0,0,0,0,0,-0,0,-1.5,-nan,0,0,0,0,0,0,0,0,0,0,0,1.9603e-19,0,0,0,0,0,0,0,0,0
9521,-3.11483e-12,1.77477e-38,-1.51454e-06,-3.18057e-12,1.77466e-38,0,-1.0659e-13,0,0,-3.82797,0.199452,0.481437,0,0,0,0,0,-0.844323,0.199452,241,-43,241,-43,359,-50,238,70,0,-0,0,-1.5,-nan,0,0,0,0,0,0,0,0,0,0,0,14520,0,0,0,0,9512,0,0,0,0
9571,-3.11483e-12,1.77477e-38,-1.51454e-06,-3.18057e-12,1.77466e-38,0,-1.06591e-13,0,0,-3.77099,0.191058,0.463233,0,0,0,0,0,-0.76626,0.191058,241,-48,241,-48,360,-51,238,69,0,-0,0,-1.5,-nan,0,0,0,0,0,0,0,0,0,0,0,14884,0,0,0,0,9563,0,0,0,0
9680,-3.11483e-12,1.77477e-38,-1.51454e-06,-3.18057e-12,1.77466e-38,0,-1.06591e-13,0,0,-3.80632,0.195703,0.483235,0,0,0,0,0,-0.814663,0.195703,241,-46,241,-46,360,-51,238,69,0,-0,0,-1.5,-nan,0,0,0,0,0,0,0,0,0,0,0,14640,0,0,0,0,9672,0,0,0,0
9741,-3.11483e-12,1.77477e-38,-1.51454e-06,-3.18057e-12,1.77466e-38,0,-1.06591e-13,0,0,-3.75632,0.190645,0.459416,0,0,0,0,0,-0.746161,0.190645,241,-48,241,-48,360,-53,238,69,-0.00926428,-0.0872664,0,-1.5,-nan,0,0,0,-0.738451,0.190486,0,0,0,0,0.126407,-0.00260103,15128,-0.746161,0.190645,0.126407,-0.00260103,9725,0.738451,-0.0379175,-0.0095243,0.000260025
9785,-3.11483e-12,1.77477e-38,-1.51454e-06,-3.18057e-12,1.77466e-38,0,-1.06591e-13,0,0,-3.79357,0.194746,0.480573,0,0,0,0,0,-0.797185,0.194746,241,-48,241,-48,360,-51,238,69,-0.214593,-0.0872664,0,-1.5,-nan,0,0,0,-0.797782,0.190372,0,0,0,0,-0.119403,-0.00260083,14640,-0.797185,0.190385,-0.119403,-0.00260083,9782,0.797782,0,-0.00951858,-0.205074
9802,-3.11483e-12,1.77477e-38,-1.51454e-06,-3.18057e-12,1.77466e-38,0,-1.06592e-13,0,0,-3.79357,0.194746,0.480573,0,0,0,0,0,-0.797185,0.194746,241,-48,241,-48,360,-51,238,69,-0.00925635,-0.0872664,0,-1.5,-nan,0,0,0,-0.799812,0.190327,0,0,0,0,-0.119403,-0.00260083,14640,-0.797185,0.190385,-0.119403,-0.00260083,9782,0.799812,0.0358164,-0.00951637,0.000260025
9824,-3.11483e-12,1.77477e-38,-1.51454e-06,-3.18057e-12,1.77466e-38,0,-1.06592e-13,0,0,-3.80261,0.197533,0.485598,0,0,0,0,0,-0.809577,0.197533,241,-48,241,-48,359,-51,238,69,-0.0111917,-0.0872664,0,-1.5,-nan,0,0,0,-0.811214,0.195358,0,0,0,0,-0.148854,0.0142373,14520,-0.809577,0.195201,-0.148854,0.0142373,9814,0.811214,0.0446588,-0.0097679,-0.00142381
9933,-3.11483e-12,1.77477e-38,-1.51454e-06,-3.18057e-12,1.77466e-38,0,-1.06592e-13,0,0,-3.72508,0.17385,0.437622,0,0,0,0,0,-0.703358,0.17385,244,-48,244,-48,359,-53,238,73,-0.00923931,-0.0872664,0,-1.5,-nan,0,0,0,-0.815454,0.189987,0,0,0,0,-0.119403,-0.00260083,15750,-0.80232,0.190273,-0.119403,-0.00260083,9922,0.815454,0.0358164,-0.00949934,0.000260025
9978,-3.11483e-12,1.77477e-38,-1.51454e-06,-3.18057e-12,1.77466e-38,0,-1.06595e-13,0,0,-3.81938,0.182783,0.501728,0,0,0,0,0,-0.832556,0.182783,244,-48,244,-48,360,-53,240,70,-0.00651022,-0.0872664,0,-1.5,-nan,0,0,0,-0.838134,0.182001,0,0,0,0,-0.158696,-0.0258975,14760,-0.830993,0.183166,-0.158696,-0.0258975,9966,0.838134,0.0476092,-0.00910005,0.00258982
10004,-3.11483e-12,1.77477e-38,-1.51454e-06,-3.18057e-12,1.77466e-38,0,-1.06595e-13,0,0,-3.7445,0.16783,0.450327,0,0,0,0,0,-0.729962,0.16783,244,-48,244,-48,366,-53,240,72,-0.00551656,-0.0872664,0,-1.5,-nan,0,0,0,-0.832218,0.180084,0,0,0,0,-0.137521,-0.0348782,15750,-0.831118,0.180363,-0.137521,-0.0348782,9998,0.832218,0.0412613,-0.00900418,0.00348762
10144,-3.11483e-12,1.77477e-38,-1.51454e-06,-3.18057e-12,1.77466e-38,0,-1.06593e-13,0,0,-3.77401,0.196352,0.473818,0,0,0,0,0,-0.770399,0.196352,241,-49,241,-49,359,-53,238,70,-0.00626496,-0.0872664,0,-1.5,-nan,0,0,0,-0.759875,0.177483,0,0,0,0,0.0726581,-0.0260908,14883,-0.770047,0.181136,0.0726581,-0.0260908,10132,0.759875,-0.0217974,-0.00887415,0.00260919
10193,-3.11483e-12,1.77477e-38,-1.51454e-06,-3.18057e-12,1.77466e-38,0,-1.06593e-13,0,0,-3.79299,0.185679,0.486635,0,0,0,0,0,-0.796396,0.185679,241,-49,241,-49,360,-53,241,69,-0.00795863,-0.0872664,0,-1.5,-nan,0,0,0,-0.796921,0.184207,0,0,0,0,0.000635612,-0.0125101,14518,-0.796952,0.18482,0.000635612,-0.0125101,10181,0.796921,-0.000196695,-0.00921033,0.0012517
10244,-3.11483e-12,1.77477e-38,-1.51454e-06,-3.18057e-12,1.77466e-38,0,-1.06593e-13,0,0,-3.75438,0.188333,0.465297,0,0,0,0,0,-0.743495,0.188333,241,-49,241,-49,362,-53,238,69,-0.00822262,-0.0872664,0,-1.5,-nan,0,0,0,-0.759966,0.184837,0,0,0,0,0.0790797,-0.0101903,15128,-0.763999,0.185357,0.0790797,-0.0101903,10232,0.759966,-0.0237286,-0.00924186,0.00101924
10358,-3.11483e-12,1.77477e-38,-1.51454e-06,-3.18057e-12,1.77466e-38,0,-1.06594e-13,0,0,-3.69977,0.196249,0.591113,0,0,0,0,0,-0.66868,0.196249,237,-68,237,-68,359,-74,241,59,-0.00895134,-0.0872664,0,-1.5,-nan,0,0,0,-0.738511,0.187669,0,0,0,0,0.0898131,-0.00432277,16226,-0.739409,0.187713,0.0898131,-0.00432277,10350,0.738511,-0.0269383,-0.00938347,0.000432134
10489,-3.11483e-12,1.77477e-38,-1.51454e-06,-3.18057e-12,1.77466e-38,0,-1.06593e-13,0,0,-3.69977,0.196249,0.591113,0,0,0,0,0,-0.66868,0.196249,237,-68,237,-68,359,-74,241,59,-0.00892303,-0.0872664,0,-1.5,-nan,0,0,0,-0.726745,0.187103,0,0,0,0,0.0898131,-0.00432277,16226,-0.739409,0.187713,0.0898131,-0.00432277,10350,0.726745,-0.0269473,-0.00935516,0.000432134
10507,-3.11483e-12,1.77477e-38,-1.51454e-06,-3.18057e-12,1.77466e-38,0,-1.06594e-13,0,0,-3.69977,0.196249,0.591113,0,0,0,0,0,-0.66868,0.196249,237,-68,237,-68,359,-74,241,59,-0.00891839,-0.0872664,0,-1.5,-nan,0,0,0,-0.725129,0.187025,0,0,0,0,0.0898131,-0.00432277,16226,-0.739409,0.187713,0.0898131,-0.00432277,10350,0.725129,-0.0269473,-0.00935127,0.000432879
10525,-3.11483e-12,1.77477e-38,-1.51454e-06,-3.18057e-12,1.77466e-38,0,-1.06594e-13,0,0,-3.69977,0.196249,0.591113,0,0,0,0,0,-0.66868,0.196249,237,-68,237,-68,359,-74,241,59,-0.00891524,-0.0872664,0,-1.5,-nan,0,0,0,-0.723512,0.186948,0,0,0,0,0.0898131,-0.00432277,16226,-0.739409,0.187713,0.0898131,-0.00432277,10350,0.723512,-0.0269473,-0.00934738,0.000432134
10543,-3.11483e-12,1.77477e-38,-1.51454e-06,-3.18057e-12,1.77466e-38,0,-1.06595e-13,0,0,-3.69977,0.196249,0.591113,0,0,0,0,0,-0.66868,0.196249,237,-68,237,-68,359,-74,241,59,-0.00891135,-0.0872664,0,-1.5,-nan,0,0,0,-0.721895,0.18687,0,0,0,0,0.0898131,-0.00432277,16226,-0.739409,0.187713,0.0898131,-0.00432277,10350,0.721895,-0.0269413,-0.00934349,0.000432134
10650,-3.11483e-12,1.77477e-38,-1.51454e-06,-3.18057e-12,1.77466e-38,0,-1.06596e-13,0,0,-3.69977,0.196249,0.591113,0,0,0,0,0,-0.66868,0.196249,237,-68,237,-68,359,-74,241,59,-0.00888748,-0.0872664,0,-1.5,-nan,0,0,0,-0.712285,0.186407,0,0,0,0,0.0898131,-0.00432277,16226,-0.739409,0.187713,0.0898131,-0.00432277,10350,0.712285,-0.0269473,-0.00932036,0.000432879
10722,-3.11483e-12,1.77477e-38,-1.51454e-06,-3.18057e-12,1.77466e-38,0,-1.06596e-13,0,0,-3.69977,0.196249,0.591113,0,0,0,0,0,-0.66868,0.196249,237,-68,237,-68,359,-74,241,59,-0.00887192,-0.0872664,0,-1.5,-nan,0,0,0,-0.705819,0.186096,0,0,0,0,0.0898131,-0.00432277,16226,-0.739409,0.187713,0.0898131,-0.00432277,10350,0.705819,-0.0269473,-0.0093048,0.000432879
10740,-3.11483e-12,1.77477e-38,-1.51454e-06,-3.18057e-12,1.77466e-38,0,-1.06596e-13,0,0,-3.69977,0.196249,0.591113,0,0,0,0,0,-0.66868,0.196249,237,-68,237,-68,359,-74,241,59,-0.00886803,-0.0872664,0,-1.5,-nan,0,0,0,-0.704202,0.186018,0,0,0,0,0.0898131,-0.00432277,16226,-0.739409,0.187713,0.0898131,-0.00432277,10350,0.704202,-0.0269473,-0.00930091,0.000432879
10761,-3.11483e-12,1.77477e-38,-1.51454e-06,-3.18057e-12,1.77466e-38,0,-1.06596e-13,0,0,-3.69977,0.196249,0.591113,0,0,0,0,0,-0.66868,0.196249,237,-68,237,-68,359,-74,241,59,-0.00886349,-0.0872664,0,-1.5,-nan,0,0,0,-0.702316,0.185927,0,0,0,0,0.0898131,-0.00432277,16226,-0.739409,0.187713,0.0898131,-0.00432277,10350,0.702316,-0.0269473,-0.00929637,0.000432879
10870,-3.11483e-12,1.77477e-38,-1.51454e-06,-3.18057e-12,1.77466e-38,0,-1.06597e-13,0,0,-3.69977,0.196249,0.591113,-0.692528,0.185456,0.0894544,-0.00430551,0,-0.66868,0.196249,237,-68,237,-68,359,-74,241,59,-0.00884217,-0.0872664,0,-1.5,-nan,0,0,0,-0.692528,0.185456,0,0,0,0,0.0894544,-0.00430551,16226,0,0,0,0,10350,0.692528,-0.02684,-0.00927281,0.000430644
10926,-3.11483e-12,1.77477e-38,-1.51454e-06,-3.18057e-12,1.77466e-38,0,-1.06597e-13,0,0,-3.69977,0.196249,0.591113,-0.687641,0.185221,0.0869588,-0.00418539,0,-0.66868,0.196249,237,-68,237,-68,359,-74,241,59,-0.00884233,-0.0872664,0,-1.5,-nan,0,0,0,-0.687641,0.185221,0,0,0,0,0.0869588,-0.00418539,16226,0,0,0,0,10350,0.687641,-0.026089,-0.00926105,0.000418723
10978,-3.11483e-12,1.77477e-38,-1.51454e-06,-3.18057e-12,1.77466e-38,0,-1.06597e-13,0,0,-3.69977,0.196249,0.591113,-0.68322,0.185008,0.084706,-0.00407696,0,-0.66868,0.196249,237,-68,237,-68,359,-74,241,59,-0.00884287,-0.0872664,0,-1.5,-nan,0,0,0,-0.68322,0.185008,0,0,0,0,0.084706,-0.00407696,16226,0,0,0,0,10350,0.68322,-0.0254095,-0.00925041,0.000407547
10995,-3.11483e-12,1.77477e-38,-1.51454e-06,-3.18057e-12,1.77466e-38,0,-1.06598e-13,0,0,-3.69977,0.196249,0.591113,-0.681788,0.184939,0.083988,-0.00404241,0,-0.66868,0.196249,237,-68,237,-68,359,-74,241,59,-0.0088424,-0.0872664,0,-1.5,-nan,0,0,0,-0.681788,0.184939,0,0,0,0,0.083988,-0.00404241,16226,0,0,0,0,10350,0.681788,-0.0251949,-0.00924697,0.000404566
11012,-3.11483e-12,1.77477e-38,-1.51454e-06,-3.18057e-12,1.77466e-38,0,-1.06598e-13,0,0,-3.69977,0.196249,0.591113,-0.680368,0.184871,0.0832762,-0.00400814,0,-0.66868,0.196249,237,-68,237,-68,359,-74,241,59,-0.00884271,-0.0872664,0,-1.5,-nan,0,0,0,-0.680368,0.184871,0,0,0,0,0.0832762,-0.00400814,16226,0,0,0,0,10350,0.680368,-0.0249803,-0.00924355,0.000400841
11120,-3.11483e-12,1.77477e-38,-1.51454e-06,-3.18057e-12,1.77466e-38,0,-1.06598e-13,0,0,-3.69977,0.196249,0.591113,-0.671826,0.18446,0.0787964,-0.00379253,0,-0.66868,0.196249,237,-68,237,-68,359,-74,241,59,-0.00884376,-0.0872664,0,-1.5,-nan,0,0,0,-0.671826,0.18446,0,0,0,0,0.0787964,-0.00379253,16226,0,0,0,0,10350,0.671826,-0.0236392,-0.00922299,0.000379235
11166,-3.11483e-12,1.77477e-38,-1.51454e-06,-3.18057e-12,1.77466e-38,0,-1.06598e-13,0,0,-3.69977,0.196249,0.591113,-0.66827,0.184289,0.0769912,-0.00370564,0,-0.66868,0.196249,237,-68,237,-68,359,-74,241,59,-0.00884414,-0.0872664,0,-1.5,-nan,0,0,0,-0.66827,0.184289,0,0,0,0,0.0769912,-0.00370564,16226,0,0,0,0,10350,0.66827,-0.0230938,-0.00921444,0.000370294
11182,-3.11483e-12,1.77477e-38,-1.51454e-06,-3.18057e-12,1.77466e-38,0,-1.06599e-13,0,0,-3.69977,0.196249,0.591113,-0.667045,0.18423,0.076377,-0.00367608,0,-0.66868,0.196249,237,-68,237,-68,359,-74,241,59,-0.00884417,-0.0872664,0,-1.5,-nan,0,0,0,-0.667045,0.18423,0,0,0,0,0.076377,-0.00367608,16226,0,0,0,0,10350,0.667045,-0.022915,-0.00921149,0.000367314
11199,-3.11483e-12,1.77477e-38,-1.51454e-06,-3.18057e-12,1.77466e-38,0,-1.06599e-13,0,0,-3.69977,0.196249,0.591113,-0.665754,0.184168,0.0757296,-0.00364492,0,-0.66868,0.196249,237,-68,237,-68,359,-74,241,59,-0.00884405,-0.0872664,0,-1.5,-nan,0,0,0,-0.665754,0.184168,0,0,0,0,0.0757296,-0.00364492,16226,0,0,0,0,10350,0.665754,-0.0227183,-0.00920838,0.000364333
11220,-3.11483e-12,1.77477e-38,-1.51454e-06,-3.18057e-12,1.77466e-38,0,-1.06599e-13,0,0,-3.69977,0.196249,0.591113,-0.664175,0.184092,0.0749369,-0.00360677,0,-0.66868,0.196249,237,-68,237,-68,359,-74,241,59,-0.00884397,-0.0872664,0,-1.5,-nan,0,0,0,-0.664175,0.184092,0,0,0,0,0.0749369,-0.00360677,16226,0,0,0,0,10350,0.664175,-0.0224769,-0.00920458,0.000360608
11330,-3.11483e-12,1.77477e-38,-1.51454e-06,-3.18057e-12,1.77466e-38,0,-1.06599e-13,0,0,-3.69977,0.196249,0.591113,-0.656354,0.183715,0.070831,-0.00340915,0,-0.66868,0.196249,237,-68,237,-68,359,-74,241,59,-0.00884452,-0.0872664,0,-1.5,-nan,0,0,0,-0.656354,0.183715,0,0,0,0,0.070831,-0.00340915,16226,0,0,0,0,10350,0.656354,-0.021252,-0.00918576,0.000341237
11379,-3.11483e-12,1.77477e-38,-1.51454e-06,-3.18057e-12,1.77466e-38,0,-1.066e-13,0,0,-3.69977,0.196249,0.591113,-0.653023,0.183555,0.0691372,-0.00332762,0,-0.66868,0.196249,237,-68,237,-68,359,-74,241,59,-0.0088447,-0.0872664,0,-1.5,-nan,0,0,0,-0.653023,0.183555,0,0,0,0,0.0691372,-0.00332762,16226,0,0,0,0,10350,0.653023,-0.0207424,-0.00917774,0.000333041
11396,-3.11483e-12,1.77477e-38,-1.51454e-06,-3.18057e-12,1.77466e-38,0,-1.066e-13,0,0,-3.69977,0.196249,0.591113,-0.651786,0.183495,0.0685167,-0.00329776,0,-0.66868,0.196249,237,-68,237,-68,359,-74,241,59,-0.00884471,-0.0872664,0,-1.5,-nan,0,0,0,-0.651786,0.183495,0,0,0,0,0.0685167,-0.00329776,16226,0,0,0,0,10350,0.651786,-0.0205547,-0.00917477,0.000330061
11414,-3.11483e-12,1.77477e-38,-1.51454e-06,-3.18057e-12,1.77466e-38,0,-1.066e-13,0,0,-3.69977,0.196249,0.591113,-0.65056,0.183436,0.067902,-0.00326817,0,-0.66868,0.196249,237,-68,237,-68,359,-74,241,59,-0.00884474,-0.0872664,0,-1.5,-nan,0,0,0,-0.65056,0.183436,0,0,0,0,0.067902,-0.00326817,16226,0,0,0,0,10350,0.65056,-0.0203669,-0.00917182,0.00032708
11520,-3.11483e-12,1.77477e-38,-1.51454e-06,-3.18057e-12,1.77466e-38,0,-1.06601e-13,0,0,-3.69977,0.196249,0.591113,-0.643717,0.183107,0.0643169,-0.00309562,0,-0.66868,0.196249,237,-68,237,-68,359,-74,241,59,-0.00884615,-0.0872664,0,-1.5,-nan,0,0,0,-0.643717,0.183107,0,0,0,0,0.0643169,-0.00309562,16226,0,0,0,0,10350,0.643717,-0.019294,-0.00915535,0.000309199
11561,-3.11483e-12,1.77477e-38,-1.51454e-06,-3.18057e-12,1.77466e-38,0,-1.06601e-13,0,0,-3.69977,0.196249,0.591113,-0.641187,0.182985,0.063035,-0.00303392,0,-0.66868,0.196249,237,-68,237,-68,359,-74,241,59,-0.00884602,-0.0872664,0,-1.5,-nan,0,0,0,-0.641187,0.182985,0,0,0,0,0.063035,-0.00303392,16226,0,0,0,0,10350,0.641187,-0.0189096,-0.00914926,0.000303239
11600,-3.11483e-12,1.77477e-38,-1.51454e-06,-3.18057e-12,1.77466e-38,0,-1.06601e-13,0,0,-3.69977,0.196249,0.591113,-0.638706,0.182866,0.0617792,-0.00297348,0,-0.66868,0.196249,237,-68,237,-68,359,-74,241,59,-0.00884576,-0.0872664,0,-1.5,-nan,0,0,0,-0.638706,0.182866,0,0,0,0,0.0617792,-0.00297348,16226,0,0,0,0,10350,0.638706,-0.0185311,-0.00914329,0.000297527
11637,-3.11483e-12,1.77477e-38,-1.51454e-06,-3.18057e-12,1.77466e-38,0,-1.06601e-13,0,0,-3.69977,0.196249,0.591113,-0.636454,0.182757,0.0606406,-0.00291868,0,-0.66868,0.196249,237,-68,237,-68,359,-74,241,59,-0.00884581,-0.0872664,0,-1.5,-nan,0,0,0,-0.636454,0.182757,0,0,0,0,0.0606406,-0.00291868,16226,0,0,0,0,10350,0.636454,-0.0181913,-0.00913787,0.000292063
11740,-3.11483e-12,1.77477e-38,-1.51454e-06,-3.18057e-12,1.77466e-38,0,-1.06602e-13,0,0,-3.69977,0.196249,0.591113,-0.630506,0.182471,0.0575295,-0.00276894,0,-0.66868,0.196249,237,-68,237,-68,359,-74,241,59,-0.00884639,-0.0872664,0,-1.5,-nan,0,0,0,-0.630506,0.182471,0,0,0,0,0.0575295,-0.00276894,16226,0,0,0,0,10350,0.630506,-0.0172555,-0.00912355,0.000277162
11857,-3.11483e-12,1.77477e-38,-1.51454e-06,-3.18057e-12,1.77466e-38,0,-1.06602e-13,0,0,-3.69977,0.196249,0.591113,-0.624194,0.182167,0.0542055,-0.00260895,0,-0.66868,0.196249,237,-68,237,-68,359,-74,241,59,-0.00884759,-0.0872664,0,-1.5,-nan,0,0,0,-0.624194,0.182167,0,0,0,0,0.0542055,-0.00260895,16226,0,0,0,0,10350,0.624194,-0.0162631,-0.00910836,0.00026077
11944,-3.11483e-12,1.77477e-38,-1.51454e-06,-3.18057e-12,1.77466e-38,0,-1.06602e-13,0,0,-3.69977,0.196249,0.591113,-0.619615,0.181947,0.0518295,-0.00249459,0,-0.66868,0.196249,237,-68,237,-68,359,-74,241,59,-0.00884775,-0.0872664,0,-1.5,-nan,0,0,0,-0.619615,0.181947,0,0,0,0,0.0518295,-0.00249459,16226,0,0,0,0,10350,0.619615,-0.0155479,-0.00909735,0.000249594
11961,-3.11483e-12,1.77477e-38,-1.51454e-06,-3.18057e-12,1.77466e-38,0,-1.06602e-13,0,0,-3.69977,0.196249,0.591113,-0.618739,0.181905,0.0513902,-0.00247345,0,-0.66868,0.196249,237,-68,237,-68,359,-74,241,59,-0.00884788,-0.0872664,0,-1.5,-nan,0,0,0,-0.618739,0.181905,0,0,0,0,0.0513902,-0.00247345,16226,0,0,0,0,10350,0.618739,-0.0154138,-0.00909524,0.000247359
11981,-3.11483e-12,1.77477e-38,-1.51454e-06,-3.18057e-12,1.77466e-38,0,-1.06603e-13,0,0,-3.69977,0.196249,0.591113,-0.617719,0.181856,0.0508778,-0.00244879,0,-0.66868,0.196249,237,-68,237,-68,359,-74,241,59,-0.00884766,-0.0872664,0,-1.5,-nan,0,0,0,-0.617719,0.181856,0,0,0,0,0.0508778,-0.00244879,16226,0,0,0,0,10350,0.617719,-0.0152618,-0.00909278,0.000245124
12090,-3.11483e-12,1.77477e-38,-1.51454e-06,-3.18057e-12,1.77466e-38,0,-1.06603e-13,0,0,-3.69977,0.196249,0.591113,-0.612454,0.181602,0.0481155,-0.00231584,0,-0.66868,0.196249,237,-68,237,-68,359,-74,241,59,-0.0088484,-0.0872664,0,-1.5,-nan,0,0,0,-0.612454,0.181602,0,0,0,0,0.0481155,-0.00231584,16226,0,0,0,0,10350,0.612454,-0.0144303,-0.00908011,0.000231713
12128,-3.11483e-12,1.77477e-38,-1.51454e-06,-3.18057e-12,1.77466e-38,0,-1.06603e-13,0,0,-3.69977,0.196249,0.591113,-0.610654,0.181516,0.0472045,-0.00227199,0,-0.66868,0.196249,237,-68,237,-68,359,-74,241,59,-0.00884854,-0.0872664,0,-1.5,-nan,0,0,0,-0.610654,0.181516,0,0,0,0,0.0472045,-0.00227199,16226,0,0,0,0,10350,0.610654,-0.0141621,-0.00907578,0.000227243
12145,-3.11483e-12,1.77477e-38,-1.51454e-06,-3.18057e-12,1.77466e-38,0,-1.06604e-13,0,0,-3.69977,0.196249,0.591113,-0.609856,0.181477,0.0468044,-0.00225273,0,-0.66868,0.196249,237,-68,237,-68,359,-74,241,59,-0.00884885,-0.0872664,0,-1.5,-nan,0,0,0,-0.609856,0.181477,0,0,0,0,0.0468044,-0.00225273,16226,0,0,0,0,10350,0.609856,-0.0140369,-0.00907386,0.000225008
12250,-3.11483e-12,1.77477e-38,-1.51454e-06,-3.18057e-12,1.77466e-38,0,-1.06604e-13,0,0,-3.69977,0.196249,0.591113,-0.605181,0.181252,0.0443565,-0.00213491,0,-0.66868,0.196249,237,-68,237,-68,359,-74,241,59,-0.00884878,-0.0872664,0,-1.5,-nan,0,0,0,-0.605181,0.181252,0,0,0,0,0.0443565,-0.00213491,16226,0,0,0,0,10350,0.605181,-0.0133038,-0.00906261,0.000213832
12299,-3.11483e-12,1.77477e-38,-1.51454e-06,-3.18057e-12,1.77466e-38,0,-1.06604e-13,0,0,-3.69977,0.196249,0.591113,-0.603053,0.18115,0.0432737,-0.0020828,0,-0.66868,0.196249,237,-68,237,-68,359,-74,241,59,-0.00884887,-0.0872664,0,-1.5,-nan,0,0,0,-0.603053,0.18115,0,0,0,0,0.0432737,-0.0020828,16226,0,0,0,0,10350,0.603053,-0.0129819,-0.00905749,0.000208616
12316,-3.11483e-12,1.77477e-38,-1.51454e-06,-3.18057e-12,1.77466e-38,0,-1.06604e-13,0,0,-3.69977,0.196249,0.591113,-0.602321,0.181115,0.042907,-0.00206514,0,-0.66868,0.196249,237,-68,237,-68,359,-74,241,59,-0.00884934,-0.0872664,0,-1.5,-nan,0,0,0,-0.602321,0.181115,0,0,0,0,0.042907,-0.00206514,16226,0,0,0,0,10350,0.602321,-0.0128746,-0.00905573,0.000206381
12337,-3.11483e-12,1.77477e-38,-1.51454e-06,-3.18057e-12,1.77466e-38,0,-1.06605e-13,0,0,-3.69977,0.196249,0.591113,-0.601427,0.181071,0.0424579,-0.00204353,0,-0.66868,0.196249,237,-68,237,-68,359,-74,241,59,-0.00884943,-0.0872664,0,-1.5,-nan,0,0,0,-0.601427,0.181071,0,0,0,0,0.0424579,-0.00204353,16226,0,0,0,0,10350,0.601427,-0.0127405,-0.00905357,0.000204146
12354,-3.11483e-12,1.77477e-38,-1.51454e-06,-3.18057e-12,1.77466e-38,0,-1.06605e-13,0,0,-3.8784,0.220162,0.487672,-0.600751,0.181039,0.0421192,-0.00202723,0,-0.913405,0.220162,242,-48,242,-48,357,-41,236,68,-0.00884929,-0.0872664,0,-1.5,-nan,0,0,0,-0.600751,0.181039,0,0,0,0,0.0421192,-0.00202723,15125,0,0,0,0,12347,0.600751,-0.0126332,-0.00905195,0.000202656
12370,-3.11483e-12,1.77477e-38,-1.51454e-06,-3.18057e-12,1.77466e-38,0,-1.06605e-13,0,0,-3.8784,0.220162,0.487672,-0.600039,0.181005,0.0417622,-0.00201005,0,-0.913405,0.220162,242,-48,242,-48,357,-41,236,68,-0.00884907,-0.0872664,0,-1.5,-nan,0,0,0,-0.600039,0.181005,0,0,0,0,0.0417622,-0.00201005,15125,0,0,0,0,12347,0.600039,-0.0125259,-0.00905023,0.000201166
12480,-3.11483e-12,1.77477e-38,-1.51454e-06,-3.18057e-12,1.77466e-38,0,-1.06605e-13,0,0,-3.79012,0.222778,0.48051,-0.59568,0.180795,0.039474,-0.00189991,0,-0.79246,0.222778,238,-48,238,-48,356,-53,236,70,-0.00884975,-0.0872664,0,-1.5,-nan,0,0,0,-0.59568,0.180795,0,0,0,0,0.039474,-0.00189991,14760,0,0,0,0,12480,0.59568,-0.0118464,-0.00903974,0.00018999
12557,-3.11483e-12,1.77477e-38,-1.51454e-06,-3.18057e-12,1.77466e-38,0,-1.06606e-13,0,0,-3.72101,0.201194,0.448808,-0.592741,0.180653,0.0379624,-0.00182716,0,-0.697779,0.201194,238,-53,238,-53,363,-50,236,68,-0.0165613,-0.0872664,0,-1.5,-nan,0,0,0,-0.759957,0.226899,0,0,0,0,0.404521,0.0521704,15621,-0.171615,0.0455972,0.366558,0.0539976,12548,0.759957,-0.121355,-0.0113449,-0.0052164
12570,-3.11483e-12,1.77477e-38,-1.51454e-06,-3.18057e-12,1.77466e-38,0,-1.06606e-13,0,0,-3.72101,0.201194,0.448808,-0.59225,0.18063,0.0377163,-0.00181531,0,-0.697779,0.201194,238,-53,238,-53,363,-50,236,68,-0.0165965,-0.0872664,0,-1.5,-nan,0,0,0,-0.754701,0.227577,0,0,0,0,0.404275,0.0521823,15621,-0.171615,0.0455972,0.366558,0.0539976,12548,0.754701,-0.121272,-0.0113788,-0.00521764
12686,-3.11483e-12,1.77477e-38,-1.51454e-06,-3.18057e-12,1.77466e-38,0,-1.06606e-13,0,0,-3.70745,0.205648,0.457363,-0.588106,0.18043,0.03554,-0.00171057,0,-0.679204,0.205648,238,-53,238,-53,363,-53,234,67,-0.00652911,-0.0872664,0,-1.5,-nan,0,0,0,-0.674634,0.205312,0,0,0,0,0.507801,-0.0373641,15480,-0.0907786,0.0252021,0.472261,-0.0356535,12679,0.674634,-0.152341,-0.0102656,0.00373647
12791,-3.11483e-12,1.77477e-38,-1.51454e-06,-3.18057e-12,1.77466e-38,0,-1.06607e-13,0,0,-3.72834,0.216448,0.464496,-0.584549,0.180259,0.0336845,-0.00162126,0,-0.707827,0.216448,238,-53,238,-53,355,-53,234,70,-0.0108738,-0.0872664,0,-1.5,-nan,0,0,0,-0.704491,0.216895,0,0,0,0,0.277694,0.000297348,15252,-0.12287,0.036613,0.244009,0.00191861,12781,0.704491,-0.0833005,-0.0108448,-2.90573e-05
12808,-3.11483e-12,1.77477e-38,-1.51454e-06,-3.18057e-12,1.77466e-38,0,-1.06607e-13,0,0,-3.72834,0.216448,0.464496,-0.584013,0.180233,0.0334158,-0.00160833,0,-0.707827,0.216448,238,-53,238,-53,355,-53,234,70,-0.0108755,-0.0872664,0,-1.5,-nan,0,0,0,-0.700051,0.2169,0,0,0,0,0.277425,0.000310283,15252,-0.12287,0.036613,0.244009,0.00191861,12781,0.700051,-0.08322,-0.010845,-3.05474e-05
12850,-3.11483e-12,1.77477e-38,-1.51454e-06,-3.18057e-12,1.77466e-38,0,-1.0661e-13,0,0,-3.78557,0.212726,0.499583,-0.5826,0.180165,0.0327008,-0.00157392,0,-0.786227,0.212726,241,-51,241,-51,355,-53,234,67,0.013507,-0.0872664,0,-1.5,-nan,0,0,0,-0.692964,0.214918,0,0,0,0,0.263278,-0.00502826,14880,-0.111748,0.0347735,0.230577,-0.00345434,12846,0.692964,0.157905,-0.0107459,0.0242529
12867,-3.11483e-12,1.77477e-38,-1.51454e-06,-3.18057e-12,1.77466e-38,0,-1.06607e-13,0,0,-3.78557,0.212726,0.499583,-0.582047,0.180139,0.0324237,-0.00156058,0,-0.786227,0.212726,241,-51,241,-51,355,-53,234,67,-0.0102402,-0.0872664,0,-1.5,-nan,0,0,0,-0.688491,0.214833,0,0,0,0,0.263,-0.00501492,14880,-0.111748,0.0347735,0.230577,-0.00345434,12846,0.688491,-0.0788927,-0.0107416,0.000501424
12974,-3.11483e-12,1.77477e-38,-1.51454e-06,-3.18057e-12,1.77466e-38,0,-1.06608e-13,0,0,-3.77029,0.22383,0.492003,-0.578748,0.17998,0.0306964,-0.00147744,0,-0.765295,0.22383,238,-53,238,-53,355,-55,236,70,-0.0108046,-0.0872664,0,-1.5,-nan,0,0,0,-0.670686,0.216613,0,0,0,0,0.246096,-0.000262728,14875,-0.114985,0.0365027,0.215399,0.00121472,12962,0.670686,-0.0738233,-0.0108306,2.6077e-05
13036,-3.11483e-12,1.77477e-38,-1.51454e-06,-3.18057e-12,1.77466e-38,0,-1.06608e-13,0,0,-3.76296,0.218367,0.486805,-0.576896,0.179891,0.0297487,-0.00143183,0,-0.755257,0.218367,238,-51,238,-51,355,-53,234,67,-0.0108039,-0.0872664,0,-1.5,-nan,0,0,0,-0.712586,0.216585,0,0,0,0,0.13322,-0.000259271,14880,-0.142104,0.0366212,0.103471,0.00117256,13024,0.712586,-0.039956,-0.0108292,2.5332e-05
13057,-3.11483e-12,1.77477e-38,-1.51454e-06,-3.18057e-12,1.77466e-38,0,-1.06609e-13,0,0,-3.76263,0.228169,0.492692,-0.576276,0.179861,0.0294375,-0.00141685,0,-0.754797,0.228169,238,-53,238,-53,355,-55,234,70,-0.0111208,-0.0872664,0,-1.5,-nan,0,0,0,-0.74961,0.217991,0,0,0,0,0.0219513,0.00221477,15125,-0.173245,0.0380866,-0.00748623,0.00363162,13047,0.74961,-0.00658929,-0.0108996,-0.000221282
13074,-3.11483e-12,1.77477e-38,-1.51454e-06,-3.18057e-12,1.77466e-38,0,-1.06607e-13,0,0,-3.76263,0.228169,0.492692,-0.575778,0.179837,0.029188,-0.00140484,0,-0.754797,0.228169,238,-53,238,-53,355,-55,234,70,-0.0111235,-0.0872664,0,-1.5,-nan,0,0,0,-0.74924,0.218029,0,0,0,0,0.0217018,0.00222678,15125,-0.173245,0.0380866,-0.00748623,0.00363162,13047,0.74924,-0.00650883,-0.0109014,-0.000222027
13099,-3.11483e-12,1.77477e-38,-1.51454e-06,-3.18057e-12,1.77466e-38,0,-1.06609e-13,0,0,-3.71437,0.215957,0.460937,-0.575055,0.179802,0.0288244,-0.00138734,0,-0.688684,0.215957,238,-53,238,-53,355,-55,234,70,-0.0108594,-0.0872664,0,-1.5,-nan,0,0,0,-0.695717,0.217174,0,0,0,0,0.149063,3.93705e-06,15500,-0.123668,0.0373368,0.120239,0.00139128,13087,0.695717,-0.0447124,-0.0108587,-7.45058e-07
13118,-3.11483e-12,1.77477e-38,-1.51454e-06,-3.18057e-12,1.77466e-38,0,-1.06612e-13,0,0,-3.81282,0.221793,0.523979,-0.574511,0.179776,0.0285515,-0.00137421,0,-0.823559,0.221793,241,-51,241,-51,356,-55,234,67,-0.0263954,-0.0872664,0,-1.5,-nan,0,0,0,-0.752089,0.218103,0,0,0,0,0.0256687,0.00189828,14884,-0.177561,0.0383077,-0.00288283,0.00327249,13114,0.752089,0,-0.0109052,-0.0154903
13135,-3.11483e-12,1.77477e-38,-1.51454e-06,-3.18057e-12,1.77466e-38,0,-1.06608e-13,0,0,-3.81282,0.221793,0.523979,-0.574028,0.179753,0.0283096,-0.00136256,0,-0.823559,0.221793,241,-51,241,-51,356,-55,234,67,-0.011098,-0.0872664,0,-1.5,-nan,0,0,0,-0.751655,0.218136,0,0,0,0,0.0254267,0.00190993,14884,-0.177561,0.0383077,-0.00288283,0.00327249,13114,0.751655,-0.00762939,-0.0109068,-0.000191232
13156,-3.11483e-12,1.77477e-38,-1.51454e-06,-3.18057e-12,1.77466e-38,0,-1.06613e-13,0,0,-3.71437,0.215957,0.460937,-0.573438,0.179724,0.0280134,-0.00134831,0,-0.688684,0.215957,238,-53,238,-53,355,-55,234,70,-0.010739,-0.0872664,0,-1.5,-nan,0,0,0,-0.69355,0.216017,0,0,0,0,0.135867,-0.000621409,15500,-0.121191,0.0362852,0.107854,0.000726898,13148,0.69355,-0.0407517,-0.0108008,6.18398e-05
13175,-3.11483e-12,1.77477e-38,-1.51454e-06,-3.18057e-12,1.77466e-38,0,-1.06612e-13,0,0,-3.71437,0.215957,0.460937,-0.572909,0.179699,0.0277481,-0.00133554,0,-0.688684,0.215957,238,-53,238,-53,355,-55,234,70,-0.0107399,-0.0872664,0,-1.5,-nan,0,0,0,-0.690972,0.216005,0,0,0,0,0.135602,-0.000608638,15500,-0.121191,0.0362852,0.107854,0.000726898,13148,0.690972,-0.0406802,-0.0108003,6.03497e-05
13201,-3.11483e-12,1.77477e-38,-1.51454e-06,-3.18057e-12,1.77466e-38,0,-1.06613e-13,0,0,-3.72834,0.216448,0.464496,-0.572195,0.179664,0.0273885,-0.00131823,0,-0.707827,0.216448,238,-53,238,-53,355,-53,234,70,-0.0107475,-0.0872664,0,-1.5,-nan,0,0,0,-0.702199,0.216231,0,0,0,0,0.10619,-0.000650808,15252,-0.132053,0.0365496,0.0788018,0.000667421,13189,0.702199,-0.0318557,-0.0108116,6.4075e-05
13243,-3.11485e-12,1.77255e-38,1.77485e-38,-3.18057e-12,1.77466e-38,0,-1.06614e-13,0,0,-3.75927,0.230038,0.48593,-0.571064,0.17961,0.0268156,-0.00129065,0,-0.750202,0.230038,238,-53,238,-53,355,-55,234,70,-0.0107795,-0.0872664,0,-1.5,-nan,0,0,0,-0.700331,0.216334,0,0,0,0,0.112774,-0.000376343,15125,-0.132877,0.0366857,0.0859587,0.000914311,13230,0.700331,-0.0338316,-0.0108167,3.72529e-05
13265,-3.11483e-12,1.77477e-38,-1.51454e-06,-3.18057e-12,1.77466e-38,0,-1.06614e-13,0,0,-3.81618,0.223969,0.523373,-0.570505,0.179583,0.0265349,-0.00127714,0,-0.828164,0.223969,241,-51,241,-51,356,-55,234,66,-0.0112767,-0.0872664,0,-1.5,-nan,0,0,0,-0.749672,0.219201,0,0,0,0,0.0198192,0.00315731,14762,-0.179026,0.0395245,-0.00671567,0.00443446,13252,0.749672,-0.00594556,-0.01096,-0.00031665
13282,-3.11483e-12,1.77477e-38,-1.51454e-06,-3.18057e-12,1.77466e-38,0,-1.06613e-13,0,0,-3.81618,0.223969,0.523373,-0.57003,0.17956,0.0262968,-0.00126568,0,-0.828164,0.223969,241,-51,241,-51,356,-55,234,66,-0.0112795,-0.0872664,0,-1.5,-nan,0,0,0,-0.749318,0.219258,0,0,0,0,0.0195811,0.00316877,14762,-0.179026,0.0395245,-0.00671567,0.00443446,13252,0.749318,-0.00587404,-0.0109629,-0.00031665
13306,-3.11483e-12,1.77477e-38,-1.51454e-06,-3.18057e-12,1.77466e-38,0,-1.06614e-13,0,0,-3.81618,0.223969,0.523373,-0.56943,0.179531,0.0259953,-0.00125117,0,-0.828164,0.223969,241,-51,241,-51,356,-55,234,66,-0.0112847,-0.0872664,0,-1.5,-nan,0,0,0,-0.748873,0.219331,0,0,0,0,0.0192796,0.00318328,14762,-0.179026,0.0395245,-0.00671567,0.00443446,13252,0.748873,-0.00578463,-0.0109665,-0.00031814
13327,-3.11483e-12,1.77477e-38,-1.51454e-06,-3.18057e-12,1.77466e-38,0,-1.06614e-13,0,0,-3.77336,0.228214,0.501124,-0.568863,0.179504,0.0257103,-0.00123745,0,-0.7695,0.228214,238,-53,238,-53,356,-55,234,67,-0.0127417,-0.0872664,0,-1.5,-nan,0,0,0,-0.749217,0.224986,0,0,0,0,0.0117193,0.014922,14884,-0.180046,0.0451266,-0.0139909,0.0161595,13315,0.749217,-0.00351369,-0.0112493,-0.00149235
13341,-3.11483e-12,1.77477e-38,-1.51454e-06,-3.18057e-12,1.77466e-38,0,-1.06609e-13,0,0,-3.77336,0.228214,0.501124,-0.568505,0.179487,0.0255307,-0.00122881,0,-0.7695,0.228214,238,-53,238,-53,356,-55,234,67,-0.0127529,-0.0872664,0,-1.5,-nan,0,0,0,-0.749054,0.225195,0,0,0,0,0.0115398,0.0149307,14884,-0.180046,0.0451266,-0.0139909,0.0161595,13315,0.749054,-0.00346899,-0.0112598,-0.0014931
13365,-3.11483e-12,1.77477e-38,-1.51454e-06,-3.18057e-12,1.77466e-38,0,-1.0661e-13,0,0,-3.81553,0.230394,0.511695,-0.567897,0.179458,0.0252254,-0.00121412,0,-0.827278,0.230394,238,-51,238,-51,356,-51,234,67,-0.0129109,-0.0872664,0,-1.5,-nan,0,0,0,-0.749376,0.225808,0,0,0,0,0.00833456,0.0162123,14396,-0.181073,0.0459326,-0.0168909,0.0174264,13352,0.749376,-0.00249445,-0.0112904,-0.0016205
13391,-3.11483e-12,1.77477e-38,-1.51454e-06,-3.18057e-12,1.77466e-38,0,-1.0661e-13,0,0,-3.77336,0.228214,0.501124,-0.567247,0.179426,0.0248989,-0.0011984,0,-0.7695,0.228214,238,-53,238,-53,356,-55,234,67,-0.0131787,-0.0872664,0,-1.5,-nan,0,0,0,-0.766156,0.227259,0,0,0,0,-0.0262266,0.0181614,14884,-0.198244,0.0475814,-0.0511255,0.0193598,13380,0.766156,0.00787675,-0.011363,-0.00181571
13408,-3.11483e-12,1.77477e-38,-1.51454e-06,-3.18057e-12,1.77466e-38,0,-1.06609e-13,0,0,-3.77336,0.228214,0.501124,-0.566826,0.179406,0.0246879,-0.00118825,0,-0.7695,0.228214,238,-53,238,-53,356,-55,234,67,-0.0131956,-0.0872664,0,-1.5,-nan,0,0,0,-0.766604,0.227568,0,0,0,0,-0.0264376,0.0181716,14884,-0.198244,0.0475814,-0.0511255,0.0193598,13380,0.766604,0.0079304,-0.0113784,-0.0018172
13461,-3.11483e-12,1.77477e-38,-1.51454e-06,-3.18057e-12,1.77466e-38,0,-1.06611e-13,0,0,-3.77846,0.228869,0.487999,-0.565571,0.179346,0.0240483,-0.00115746,0,-0.776488,0.228869,238,-51,238,-51,356,-53,234,70,-0.0134072,-0.0872664,0,-1.5,-nan,0,0,0,-0.773357,0.22967,0,0,0,0,-0.0385752,0.0192357,15006,-0.204529,0.0492639,-0.0626235,0.0203932,13447,0.773357,0.0115693,-0.0114835,-0.00192374
13500,-3.11483e-12,1.77477e-38,-1.51454e-06,-3.18057e-12,1.77466e-38,0,-1.06611e-13,0,0,-3.73236,0.215035,0.466955,-0.564625,0.1793,0.023569,-0.0011344,0,-0.713336,0.215035,238,-50,238,-50,356,-55,234,69,-0.0131245,-0.0872664,0,-1.5,-nan,0,0,0,-0.771902,0.22838,0,0,0,0,-0.0327704,0.0170537,15376,-0.205024,0.0483526,-0.0563394,0.0181881,13487,0.771902,0.00982583,-0.011419,-0.00170544
13529,-3.11483e-12,1.77477e-38,-1.51454e-06,-3.18057e-12,1.77466e-38,0,-1.06611e-13,0,0,-3.74991,0.210824,0.476677,-0.563949,0.179268,0.0232284,-0.001118,0,-0.737376,0.210824,241,-53,241,-53,355,-53,234,70,-0.0130166,-0.0872664,0,-1.5,-nan,0,0,0,-0.751562,0.228429,0,0,0,0,0.00225549,0.0159552,15252,-0.187005,0.0486663,-0.0209729,0.0170732,13516,0.751562,-0.000661612,-0.0114215,-0.00159517
13552,-3.11483e-12,1.77477e-38,-1.51454e-06,-3.18057e-12,1.77466e-38,0,-1.06615e-13,0,0,-3.80052,0.229752,0.516987,-0.563419,0.179242,0.0229624,-0.0011052,0,-0.806711,0.229752,238,-53,238,-53,355,-53,234,67,-0.0210718,-0.0872664,0,-1.5,-nan,0,0,0,-0.771236,0.229357,0,0,0,0,-0.0210426,0.0171283,14520,-0.207509,0.049987,-0.044005,0.0182335,13547,0.771236,0,-0.0114678,-0.00960401
13569,-3.11483e-12,1.77477e-38,-1.51454e-06,-3.18057e-12,1.77466e-38,0,-1.06611e-13,0,0,-3.80052,0.229752,0.516987,-0.563031,0.179223,0.0227678,-0.00109583,0,-0.806711,0.229752,238,-53,238,-53,355,-53,234,67,-0.013196,-0.0872664,0,-1.5,-nan,0,0,0,-0.771596,0.229648,0,0,0,0,-0.0212372,0.0171377,14520,-0.207509,0.049987,-0.044005,0.0182335,13547,0.771596,0.00636578,-0.0114824,-0.00171363
13591,-3.11483e-12,1.77477e-38,-1.51454e-06,-3.18057e-12,1.77466e-38,0,-1.06615e-13,0,0,-3.79448,0.222466,0.503921,-0.562556,0.179201,0.0225296,-0.00108437,0,-0.798441,0.222466,241,-53,241,-53,355,-53,234,69,-0.0131005,-0.0872664,0,-1.5,-nan,0,0,0,-0.780027,0.229555,0,0,0,0,-0.0412038,0.0162335,14762,-0.216643,0.050129,-0.0637334,0.0173179,13580,0.780027,0.012356,-0.0114777,-0.00162274
13610,-3.11483e-12,1.77477e-38,-1.51454e-06,-3.18057e-12,1.77466e-38,0,-1.06615e-13,0,0,-3.79448,0.222466,0.503921,-0.562108,0.179179,0.022305,-0.00107356,0,-0.798441,0.222466,241,-53,241,-53,355,-53,234,69,-0.0131182,-0.0872664,0,-1.5,-nan,0,0,0,-0.780854,0.229879,0,0,0,0,-0.0414284,0.0162444,14762,-0.216643,0.050129,-0.0637334,0.0173179,13580,0.780854,0.0124365,-0.011494,-0.00162423
13629,-3.11483e-12,1.77477e-38,-1.51454e-06,-3.18057e-12,1.77466e-38,0,-1.06615e-13,0,0,-3.76263,0.228169,0.492692,-0.561687,0.179159,0.0220937,-0.00106339,0,-0.754797,0.228169,238,-53,238,-53,355,-55,234,70,-0.0128267,-0.0872664,0,-1.5,-nan,0,0,0,-0.777403,0.228832,0,0,0,0,-0.0356698,0.0138563,15125,-0.214618,0.04939,-0.0577636,0.0149197,13615,0.777403,0.010702,-0.0114416,-0.00138506
13646,-3.11483e-12,1.77477e-38,-1.51454e-06,-3.18057e-12,1.77466e-38,0,-1.06616e-13,0,0,-3.76263,0.228169,0.492692,-0.561314,0.179141,0.0219065,-0.00105438,0,-0.754797,0.228169,238,-53,238,-53,355,-55,234,70,-0.0128399,-0.0872664,0,-1.5,-nan,0,0,0,-0.778011,0.229068,0,0,0,0,-0.0358571,0.0138653,15125,-0.214618,0.04939,-0.0577636,0.0149197,13615,0.778011,0.0107557,-0.0114534,-0.00138655
13668,-3.11483e-12,1.77477e-38,-1.51454e-06,-3.18057e-12,1.77466e-38,0,-1.06616e-13,0,0,-3.72834,0.216448,0.464496,-0.560835,0.179118,0.0216663,-0.00104282,0,-0.707827,0.216448,238,-53,238,-53,355,-53,234,70,-0.0127011,-0.0872664,0,-1.5,-nan,0,0,0,-0.756133,0.228794,0,0,0,0,-0.00437234,0.0126132,15252,-0.194725,0.0493759,-0.0260387,0.0136561,13655,0.756133,0.00131428,-0.0114397,-0.00126138
13693,-3.11483e-12,1.77477e-38,-1.51454e-06,-3.18057e-12,1.77466e-38,0,-1.06616e-13,0,0,-3.72834,0.216448,0.464496,-0.560298,0.179092,0.0213966,-0.00102984,0,-0.707827,0.216448,238,-53,238,-53,355,-53,234,70,-0.0117188,-0.0872664,0,-1.5,-nan,0,0,0,-0.753151,0.223185,0,0,0,0,-0.00105982,0.0055907,15252,-0.192539,0.0440003,-0.0224565,0.00662053,13681,0.753151,0.000312924,-0.0111592,-0.000559539
13720,-3.11483e-12,1.77477e-38,-1.51454e-06,-3.18057e-12,1.77466e-38,0,-1.06617e-13,0,0,-3.74991,0.210824,0.476677,-0.559726,0.179064,0.0211091,-0.001016,0,-0.737376,0.210824,241,-53,241,-53,355,-53,234,70,-0.0117966,-0.0872664,0,-1.5,-nan,0,0,0,-0.753683,0.222894,0,0,0,0,-0.00206993,0.00651551,15252,-0.193726,0.0437544,-0.023179,0.00753151,13713,0.753683,0.000625849,-0.0111447,-0.000651926
13737,-3.11483e-12,1.77477e-38,-1.51454e-06,-3.18057e-12,1.77466e-38,0,-1.06617e-13,0,0,-3.74991,0.210824,0.476677,-0.559369,0.179047,0.0209302,-0.00100738,0,-0.737376,0.210824,241,-53,241,-53,355,-53,234,70,-0.0118029,-0.0872664,0,-1.5,-nan,0,0,0,-0.75372,0.223005,0,0,0,0,-0.00224885,0.00652412,15252,-0.193726,0.0437544,-0.023179,0.00753151,13713,0.75372,0.000670552,-0.0111502,-0.000652671
13760,-3.11483e-12,1.77477e-38,-1.51454e-06,-3.18057e-12,1.77466e-38,0,-1.06617e-13,0,0,-3.75713,0.208726,0.494704,-0.558891,0.179024,0.0206905,-0.000995848,0,-0.747273,0.208726,241,-53,241,-53,356,-55,234,66,-0.0118598,-0.0872664,0,-1.5,-nan,0,0,0,-0.752379,0.223189,0,0,0,0,-0.0016825,0.00700418,15004,-0.193175,0.0440529,-0.022373,0.00800003,13748,0.752379,0.00050962,-0.0111595,-0.000700355
13777,-3.11483e-12,1.77477e-38,-1.51454e-06,-3.18057e-12,1.77466e-38,0,-1.06617e-13,0,0,-3.75713,0.208726,0.494704,-0.558541,0.179007,0.0205151,-0.000987408,0,-0.747273,0.208726,241,-53,241,-53,356,-55,234,66,-0.0118658,-0.0872664,0,-1.5,-nan,0,0,0,-0.75241,0.223308,0,0,0,0,-0.00185785,0.00701262,15004,-0.193175,0.0440529,-0.022373,0.00800003,13748,0.75241,0.000563264,-0.0111654,-0.000700355
13806,-3.11483e-12,1.77477e-38,-1.51454e-06,-3.18057e-12,1.77466e-38,0,-1.06618e-13,0,0,-3.75001,0.208461,0.48828,-0.557953,0.178979,0.0202186,-0.000973138,0,-0.737519,0.208461,241,-53,241,-53,356,-55,234,67,-0.0112154,-0.0872664,0,-1.5,-nan,0,0,0,-0.748025,0.218885,0,0,0,0,-0.00306393,0.0027122,15128,-0.189397,0.039799,-0.0232826,0.00368534,13792,0.748025,0.000929832,-0.0109442,-0.000271201
13829,-3.11483e-12,1.77477e-38,-1.51454e-06,-3.18057e-12,1.77466e-38,0,-1.06618e-13,0,0,-3.75001,0.208461,0.48828,-0.557492,0.178957,0.0199868,-0.000961982,0,-0.737519,0.208461,241,-53,241,-53,356,-55,234,67,-0.0106725,-0.0872664,0,-1.5,-nan,0,0,0,-0.746468,0.216267,0,0,0,0,0.00393372,-0.00141024,15128,-0.188607,0.0373206,-0.0160531,-0.000448258,13815,0.746468,-0.00118911,-0.0108134,0.000140816
13868,-3.11483e-12,1.77477e-38,-1.51454e-06,-3.18057e-12,1.77466e-38,0,-1.06618e-13,0,0,-3.78064,0.228526,0.507656,-0.556725,0.17892,0.0195985,-0.000943289,0,-0.779477,0.228526,238,-53,238,-53,356,-55,234,66,-0.0106632,-0.0872664,0,-1.5,-nan,0,0,0,-0.742,0.216647,0,0,0,0,0.00793441,-0.00169171,14762,-0.18482,0.0377562,-0.011664,-0.000748425,13854,0.742,-0.00237823,-0.0108323,0.000169128
13894,-3.11483e-12,1.77477e-38,-1.51454e-06,-3.18057e-12,1.77466e-38,0,-1.06618e-13,0,0,-3.77613,0.212877,0.48263,-0.55624,0.178897,0.0193543,-0.000931535,0,-0.773294,0.212877,241,-49,241,-49,355,-53,234,70,-0.00975473,-0.0872664,0,-1.5,-nan,0,0,0,-0.749719,0.2139,0,0,0,0,0.00130492,-0.0094034,15252,-0.193028,0.0352152,-0.0180493,-0.00847186,13880,0.749719,-0.000393391,-0.010695,0.000940263
13921,-3.11483e-12,1.77477e-38,-1.51454e-06,-3.18057e-12,1.77466e-38,0,-1.06619e-13,0,0,-3.78639,0.2293,0.504083,-0.555722,0.178872,0.0190942,-0.000919017,0,-0.787358,0.2293,238,-51,238,-51,356,-55,234,67,-0.0443639,-0.0872664,0,-1.5,-nan,0,0,0,-0.751287,0.216061,0,0,0,0,-0.00120846,-0.00191188,14884,-0.195423,0.0371966,-0.0203026,-0.000992862,13915,0.751287,0.068192,-0.0108031,-0.0335608
13937,-3.11483e-12,1.77477e-38,-1.51454e-06,-3.18057e-12,1.77466e-38,0,-1.06619e-13,0,0,-3.78639,0.2293,0.504083,-0.555399,0.178856,0.0189324,-0.000911229,0,-0.787358,0.2293,238,-51,238,-51,356,-55,234,67,-0.0106115,-0.0872664,0,-1.5,-nan,0,0,0,-0.751309,0.216029,0,0,0,0,-0.00137028,-0.00190409,14884,-0.195423,0.0371966,-0.0203026,-0.000992862,13915,0.751309,0.000420213,-0.0108014,0.00018999
13960,-3.11483e-12,1.77477e-38,-1.51454e-06,-3.18057e-12,1.77466e-38,0,-1.06619e-13,0,0,-3.7281,0.214086,0.475842,-0.554966,0.178835,0.0187155,-0.000900793,0,-0.707499,0.214086,238,-53,238,-53,356,-55,234,67,-0.00977899,-0.0872664,0,-1.5,-nan,0,0,0,-0.745181,0.213759,0,0,0,0,0.00893395,-0.00908801,15128,-0.190078,0.0350386,-0.00978158,-0.00818722,13948,0.745181,-0.00268221,-0.010688,0.000908971
13977,-3.11483e-12,1.77477e-38,-1.51454e-06,-3.18057e-12,1.77466e-38,0,-1.0662e-13,0,0,-3.7281,0.214086,0.475842,-0.55465,0.17882,0.0185569,-0.000893159,0,-0.707499,0.214086,238,-53,238,-53,356,-55,234,67,-0.00977201,-0.0872664,0,-1.5,-nan,0,0,0,-0.745031,0.213605,0,0,0,0,0.00877535,-0.00908038,15128,-0.190078,0.0350386,-0.00978158,-0.00818722,13948,0.745031,-0.00264645,-0.0106802,0.000908226
14140,-3.11483e-12,1.77477e-38,-1.51454e-06,-3.18057e-12,1.77466e-38,0,-1.0662e-13,0,0,-3.77982,0.221932,0.499998,-0.551819,0.178684,0.0170696,-0.000821575,0,-0.77836,0.221932,241,-53,241,-53,356,-55,234,69,-0.00989101,-0.0872664,0,-1.5,-nan,0,0,0,-0.746122,0.213526,0,0,0,0,0.00309621,-0.00785385,15128,-0.192529,0.0357355,-0.0139734,-0.00703228,14015,0.746122,-0.000929832,-0.0106763,0.000785291
14182,-3.11483e-12,1.77477e-38,-1.51454e-06,-3.18057e-12,1.77466e-38,0,-1.0662e-13,0,0,-3.82804,0.222413,0.518805,-0.551114,0.17865,0.0167124,-0.000804383,0,-0.84442,0.222413,241,-49,241,-49,356,-53,234,67,-0.0101137,-0.0872664,0,-1.5,-nan,0,0,0,-0.757747,0.214746,0,0,0,0,-0.00820054,-0.00623761,14640,-0.205586,0.0363245,-0.024913,-0.00543323,14168,0.757747,0.00244975,-0.0107373,0.000623614
14236,-3.11483e-12,1.77477e-38,-1.51454e-06,-3.18057e-12,1.77466e-38,0,-1.0662e-13,0,0,-3.75836,0.22756,0.487837,-0.550233,0.178607,0.016263,-0.000782752,0,-0.748949,0.22756,238,-53,238,-53,356,-55,234,69,-0.0110095,-0.0872664,0,-1.5,-nan,0,0,0,-0.749498,0.221546,0,0,0,0,-0.00260652,-0.000675385,15128,-0.198247,0.0429325,-0.0188695,0.000107367,14222,0.749498,0.000777841,-0.0110773,6.78003e-05
14261,-3.11483e-12,1.77477e-38,-1.51454e-06,-3.18057e-12,1.77466e-38,0,-1.06621e-13,0,0,-3.70649,0.213229,0.456514,-0.54983,0.178588,0.0160604,-0.000773001,0,-0.677895,0.213229,238,-53,238,-53,356,-55,234,70,-0.0100841,-0.0872664,0,-1.5,-nan,0,0,0,-0.746367,0.214288,0,0,0,0,-0.000436315,-0.00630271,15500,-0.196125,0.035838,-0.0164968,-0.00552971,14247,0.746367,0.00013113,-0.0107144,0.000630319
14295,-3.11483e-12,1.77477e-38,-1.51454e-06,-3.18057e-12,1.77466e-38,0,-1.06621e-13,0,0,-3.77336,0.228214,0.501124,-0.549307,0.178563,0.0157963,-0.00076029,0,-0.7695,0.228214,238,-53,238,-53,356,-55,234,67,-0.0110237,-0.0872664,0,-1.5,-nan,0,0,0,-0.745701,0.221115,0,0,0,0,0.0109454,-0.000322811,14884,-0.196234,0.0425374,-0.0048509,0.000437479,14280,0.745701,-0.00328124,-0.0110557,3.20375e-05
14312,-3.11483e-12,1.77477e-38,-1.51454e-06,-3.18057e-12,1.77466e-38,0,-1.06621e-13,0,0,-3.77336,0.228214,0.501124,-0.549024,0.178549,0.0156546,-0.000753467,0,-0.7695,0.228214,238,-53,238,-53,356,-55,234,67,-0.0110234,-0.0872664,0,-1.5,-nan,0,0,0,-0.745505,0.221109,0,0,0,0,0.0108037,-0.000315988,14884,-0.196234,0.0425374,-0.0048509,0.000437479,14280,0.745505,-0.00323653,-0.0110554,3.20375e-05
14335,-3.11483e-12,1.77477e-38,-1.51454e-06,-3.18057e-12,1.77466e-38,0,-1.06621e-13,0,0,-3.7281,0.214086,0.475842,-0.548667,0.178532,0.0154752,-0.000744832,0,-0.707499,0.214086,238,-53,238,-53,356,-55,234,67,-0.00976629,-0.0872664,0,-1.5,-nan,0,0,0,-0.748606,0.213684,0,0,0,0,-0.00105887,-0.00917632,15128,-0.199559,0.0353459,-0.016534,-0.00843148,14321,0.748606,0.000321865,-0.0106842,0.000917912
14358,-3.11483e-12,1.77477e-38,-1.51454e-06,-3.18057e-12,1.77466e-38,0,-1.06622e-13,0,0,-3.81553,0.230394,0.511695,-0.548314,0.178515,0.0152979,-0.000736301,0,-0.827278,0.230394,238,-51,238,-51,356,-51,234,67,-0.00977662,-0.0872664,0,-1.5,-nan,0,0,0,-0.74972,0.214293,0,0,0,0,5.9926e-05,-0.00937999,14396,-0.201223,0.0358816,-0.015238,-0.00864369,14348,0.74972,-8.9407e-06,-0.0107146,0.000938028
14375,-3.11483e-12,1.77477e-38,-1.51454e-06,-3.18057e-12,1.77466e-38,0,-1.06622e-13,0,0,-3.81553,0.230394,0.511695,-0.548055,0.178503,0.0151683,-0.000730061,0,-0.827278,0.230394,238,-51,238,-51,356,-51,234,67,-0.0097694,-0.0872664,0,-1.5,-nan,0,0,0,-0.749721,0.214134,0,0,0,0,-6.9716e-05,-0.00937375,14396,-0.201223,0.0358816,-0.015238,-0.00864369,14348,0.749721,2.68221e-05,-0.0107067,0.000937283
14402,-3.11483e-12,1.77477e-38,-1.51454e-06,-3.18057e-12,1.77466e-38,0,-1.06622e-13,0,0,-3.73502,0.214354,0.482141,-0.54765,0.178483,0.0149642,-0.000720237,0,-0.71698,0.214354,238,-53,238,-53,356,-55,234,66,-0.00948403,-0.0872664,0,-1.5,-nan,0,0,0,-0.726196,0.21315,0,0,0,0,0.035774,-0.0117342,15004,-0.179108,0.0349643,0.0208099,-0.0110139,14388,0.726196,-0.0107288,-0.0106575,0.00117347
14428,-3.11483e-12,1.77477e-38,-1.51454e-06,-3.18057e-12,1.77466e-38,0,-1.06623e-13,0,0,-3.79366,0.229611,0.510605,-0.547279,0.178465,0.0147777,-0.000711263,0,-0.797312,0.229611,238,-51,238,-51,356,-55,234,66,-0.00979631,-0.0872664,0,-1.5,-nan,0,0,0,-0.745134,0.21415,0,0,0,0,0.0166503,-0.00911014,14762,-0.197901,0.035895,0.00187256,-0.00839887,14414,0.745134,-0.00498891,-0.0107075,0.000911206
14445,-3.11483e-12,1.77477e-38,-1.51454e-06,-3.18057e-12,1.77466e-38,0,-1.06623e-13,0,0,-3.79366,0.229611,0.510605,-0.547029,0.178453,0.0146525,-0.000705234,0,-0.797312,0.229611,238,-51,238,-51,356,-55,234,66,-0.0100923,-0.0872664,0,-1.5,-nan,0,0,0,-0.744852,0.213995,0,0,0,0,0.016525,-0.00910411,14762,-0.197901,0.035895,0.00187256,-0.00839887,14414,0.744852,-0.0033021,-0.0106998,0.000607471
14467,-3.11483e-12,1.77477e-38,-1.51454e-06,-3.18057e-12,1.77466e-38,0,-1.06623e-13,0,0,-3.78064,0.228526,0.507656,-0.546695,0.178437,0.0144845,-0.000697152,0,-0.779477,0.228526,238,-53,238,-53,356,-55,234,66,-0.0109162,-0.0872664,0,-1.5,-nan,0,0,0,-0.745687,0.22123,0,0,0,0,0.0145947,-0.00145476,14762,-0.198995,0.0428101,0.000110144,-0.000757604,14453,0.745687,-0.00438094,-0.0110615,0.000145286
14490,-3.11483e-12,1.77477e-38,-1.51454e-06,-3.18057e-12,1.77466e-38,0,-1.06623e-13,0,0,-3.8087,0.22366,0.516721,-0.546364,0.178421,0.0143186,-0.000689168,0,-0.817925,0.22366,241,-51,241,-51,356,-55,234,67,-0.0116382,-0.0872664,0,-1.5,-nan,0,0,0,-0.776235,0.223943,0,0,0,0,-0.0286206,0.0044121,14884,-0.229355,0.0454602,-0.0429392,0.00510127,14480,0.776235,0.00859499,-0.0111971,-0.000441074
14509,-3.11483e-12,1.77477e-38,-1.51454e-06,-3.18057e-12,1.77466e-38,0,-1.06624e-13,0,0,-3.8087,0.22366,0.516721,-0.546094,0.178408,0.014183,-0.00068264,0,-0.817925,0.22366,241,-51,241,-51,356,-55,234,67,-0.0116424,-0.0872664,0,-1.5,-nan,0,0,0,-0.776781,0.224026,0,0,0,0,-0.0287562,0.00441863,14884,-0.229355,0.0454602,-0.0429392,0.00510127,14480,0.776781,0.00862777,-0.0112013,-0.000441074
14529,-3.11483e-12,1.77477e-38,-1.51454e-06,-3.18057e-12,1.77466e-38,0,-1.06624e-13,0,0,-3.75001,0.208461,0.48828,-0.545812,0.178395,0.0140416,-0.000675835,0,-0.737519,0.208461,241,-53,241,-53,356,-55,234,67,-0.0121169,-0.0872664,0,-1.5,-nan,0,0,0,-0.780517,0.22453,0,0,0,0,-0.0409917,0.00890176,15128,-0.233604,0.0459441,-0.0550334,0.0095776,14515,0.780517,0.0123024,-0.0112265,-0.000890344
14552,-3.11483e-12,1.77477e-38,-1.51454e-06,-3.18057e-12,1.77466e-38,0,-1.06624e-13,0,0,-3.7808,0.226355,0.505349,-0.545492,0.178379,0.0138808,-0.000668095,0,-0.779699,0.226355,239,-53,239,-53,356,-55,234,67,-0.033475,-0.0872664,0,-1.5,-nan,0,0,0,-0.783647,0.226436,0,0,0,0,-0.0482407,0.0107772,14884,-0.237658,0.0479654,-0.0621215,0.0114453,14546,0.783647,0.0942841,-0.0113218,-0.0221532
14569,-3.11483e-12,1.77477e-38,-1.51454e-06,-3.18057e-12,1.77466e-38,0,-1.06624e-13,0,0,-3.7808,0.226355,0.505349,-0.545271,0.178369,0.0137701,-0.000662765,0,-0.779699,0.226355,239,-53,239,-53,356,-55,234,67,-0.0120487,-0.0872664,0,-1.5,-nan,0,0,0,-0.78442,0.226609,0,0,0,0,-0.0483514,0.0107825,14884,-0.237658,0.0479654,-0.0621215,0.0114453,14546,0.78442,0.00967383,-0.0113304,-0.000718236
14598,-3.11483e-12,1.77477e-38,-1.51454e-06,-3.18057e-12,1.77466e-38,0,-1.06625e-13,0,0,-3.74067,0.208619,0.471465,-0.544863,0.178349,0.0135642,-0.000652856,0,-0.724715,0.208619,241,-51,241,-51,356,-55,234,70,-0.0121196,-0.0872664,0,-1.5,-nan,0,0,0,-0.782264,0.224763,0,0,0,0,-0.0469957,0.00882003,15500,-0.235584,0.0461302,-0.0605599,0.00947289,14584,0.782264,0.0140995,-0.0112382,-0.000881404
14621,-3.11483e-12,1.77477e-38,-1.51454e-06,-3.18057e-12,1.77466e-38,0,-1.06625e-13,0,0,-3.75836,0.22756,0.487837,-0.544553,0.178334,0.0134089,-0.000645379,0,-0.748949,0.22756,238,-53,238,-53,356,-55,234,69,-0.0125531,-0.0872664,0,-1.5,-nan,0,0,0,-0.757782,0.227355,0,0,0,0,-0.0155272,0.0118605,15128,-0.21294,0.0488958,-0.028936,0.0125059,14614,0.757782,0.0046581,-0.0113677,-0.00118539
14638,-3.11483e-12,1.77477e-38,-1.51454e-06,-3.18057e-12,1.77466e-38,0,-1.06625e-13,0,0,-3.75836,0.22756,0.487837,-0.544326,0.178323,0.0132952,-0.000639909,0,-0.748949,0.22756,238,-53,238,-53,356,-55,234,69,-0.012564,-0.0872664,0,-1.5,-nan,0,0,0,-0.758048,0.227556,0,0,0,0,-0.0156408,0.0118659,15128,-0.21294,0.0488958,-0.028936,0.0125059,14614,0.758048,0.00469387,-0.0113778,-0.00118613
14661,-3.11483e-12,1.77477e-38,-1.51454e-06,-3.18057e-12,1.77466e-38,0,-1.06625e-13,0,0,-3.7281,0.214086,0.475842,-0.544023,0.178308,0.0131428,-0.000632575,0,-0.707499,0.214086,238,-53,238,-53,356,-55,234,67,-0.0122665,-0.0872664,0,-1.5,-nan,0,0,0,-0.749763,0.226049,0,0,0,0,-0.00275253,0.00963967,15128,-0.205375,0.0475042,-0.0158954,0.0102722,14647,0.749763,0.000822544,-0.0113024,-0.000964105
14706,-3.11483e-12,1.77477e-38,-1.51454e-06,-3.18057e-12,1.77466e-38,0,-1.06626e-13,0,0,-3.75013,0.217326,0.48394,-0.543442,0.178281,0.0128483,-0.000618398,0,-0.737675,0.217326,238,-53,238,-53,355,-53,234,67,-0.0122044,-0.0872664,0,-1.5,-nan,0,0,0,-0.750671,0.225799,0,0,0,0,-0.00716331,0.00914663,14880,-0.206328,0.0470788,-0.0200116,0.00976502,14691,0.750671,0.00214577,-0.0112899,-0.000914435
14731,-3.11483e-12,1.77477e-38,-1.51454e-06,-3.18057e-12,1.77466e-38,0,-1.06626e-13,0,0,-3.80735,0.226578,0.504193,-0.543124,0.178265,0.0126882,-0.000610695,0,-0.816063,0.226578,241,-49,241,-49,355,-55,234,70,-0.012269,-0.0872664,0,-1.5,-nan,0,0,0,-0.763856,0.226143,0,0,0,0,-0.0294416,0.00962074,15125,-0.219679,0.0476217,-0.0421298,0.0102314,14717,0.763856,0.00883341,-0.0113071,-0.00096187
14754,-3.11483e-12,1.77477e-38,-1.51454e-06,-3.18057e-12,1.77466e-38,0,-1.06626e-13,0,0,-3.73502,0.214354,0.482141,-0.542834,0.178251,0.0125429,-0.0006037,0,-0.71698,0.214354,238,-53,238,-53,356,-55,234,66,-0.022347,-0.0872664,0,-1.5,-nan,0,0,0,-0.751033,0.227166,0,0,0,0,-0.0159049,0.0140672,15004,-0.207972,0.0487975,-0.0284478,0.0146709,14748,0.751033,0,-0.0113583,-0.0109887
14768,-3.11483e-12,1.77477e-38,-1.51454e-06,-3.18057e-12,1.77466e-38,0,-1.06627e-13,0,0,-3.73502,0.214354,0.482141,-0.542659,0.178243,0.0124554,-0.000599486,0,-0.71698,0.214354,238,-53,238,-53,356,-55,234,66,-0.0127756,-0.0872664,0,-1.5,-nan,0,0,0,-0.751257,0.227363,0,0,0,0,-0.0159924,0.0140714,15004,-0.207972,0.0487975,-0.0284478,0.0146709,14748,0.751257,0.00480115,-0.0113682,-0.00140741
14793,-3.11483e-12,1.77477e-38,-1.51454e-06,-3.18057e-12,1.77466e-38,0,-1.06627e-13,0,0,-3.75713,0.208726,0.494704,-0.542351,0.178228,0.0123003,-0.000592025,0,-0.747273,0.208726,241,-53,241,-53,356,-55,234,66,-0.0112223,-0.0872664,0,-1.5,-nan,0,0,0,-0.749997,0.218263,0,0,0,0,-0.00737873,0.00308842,15004,-0.207371,0.0399833,-0.0196791,0.00368045,14781,0.749997,0.00220835,-0.0109131,-0.000309199
14839,-3.11483e-12,1.77477e-38,-1.51454e-06,-3.18057e-12,1.77466e-38,0,-1.06627e-13,0,0,-3.78639,0.2293,0.504083,-0.541796,0.178201,0.0120184,-0.000578457,0,-0.787358,0.2293,238,-51,238,-51,356,-55,234,67,-0.0130259,-0.0872664,0,-1.5,-nan,0,0,0,-0.749429,0.228779,0,0,0,0,-0.00381718,0.0158773,14884,-0.206905,0.0498211,-0.0158356,0.0164557,14825,0.749429,0.00115335,-0.011439,-0.00158697
14862,-3.11483e-12,1.77477e-38,-1.51454e-06,-3.18057e-12,1.77466e-38,0,-1.06627e-13,0,0,-3.75836,0.22756,0.487837,-0.541522,0.178188,0.0118807,-0.000571827,0,-0.748949,0.22756,238,-53,238,-53,356,-55,234,69,-0.0128987,-0.0872664,0,-1.5,-nan,0,0,0,-0.750044,0.228067,0,0,0,0,-0.00698533,0.0149611,15128,-0.208089,0.0495212,-0.018866,0.0155329,14848,0.750044,0.00209212,-0.0114033,-0.00149533
14921,-3.11483e-12,1.77477e-38,-1.51454e-06,-3.18057e-12,1.77466e-38,0,-1.06628e-13,0,0,-3.77903,0.226659,0.496867,-0.540837,0.178155,0.0115323,-0.000555057,0,-0.777265,0.226659,238,-53,238,-53,355,-55,236,70,0.00101209,-0.0872664,0,-1.5,-nan,0,0,0,-0.749069,0.228105,0,0,0,0,0.0193846,0.0103383,14875,-0.208295,0.0498623,0.00785229,0.0108934,14915,0.749069,0.00744313,-0.0114052,0.0124173
14963,-3.11483e-12,1.77477e-38,-1.51454e-06,-3.18057e-12,1.77466e-38,0,-1.06628e-13,0,0,-3.73565,0.210338,0.472981,-0.540361,0.178132,0.0112909,-0.000543441,0,-0.717844,0.210338,241,-53,241,-53,355,-55,234,70,-0.0118351,-0.0872664,0,-1.5,-nan,0,0,0,-0.745852,0.226287,0,0,0,0,0.0251847,0.00520792,15500,-0.206074,0.0479132,0.0138937,0.00575136,14949,0.745852,-0.00754595,-0.0113143,-0.000520796
14993,-3.11483e-12,1.77477e-38,-1.51454e-06,-3.18057e-12,1.77466e-38,0,-1.06628e-13,0,0,-3.72834,0.216448,0.464496,-0.540026,0.178116,0.0111224,-0.000535328,0,-0.707827,0.216448,238,-53,238,-53,355,-53,234,70,-0.011886,-0.0872664,0,-1.5,-nan,0,0,0,-0.744384,0.226798,0,0,0,0,0.0203503,0.00546363,15252,-0.204487,0.0485981,0.00922797,0.00599896,14981,0.744384,-0.00609756,-0.0113399,-0.000546128
15010,-3.11483e-12,1.77477e-38,-1.51454e-06,-3.18057e-12,1.77466e-38,0,-1.06628e-13,0,0,-3.72834,0.216448,0.464496,-0.539838,0.178107,0.0110281,-0.000530791,0,-0.707827,0.216448,238,-53,238,-53,355,-53,234,70,-0.0118922,-0.0872664,0,-1.5,-nan,0,0,0,-0.744039,0.226891,0,0,0,0,0.0202561,0.00546816,15252,-0.204487,0.0485981,0.00922797,0.00599896,14981,0.744039,-0.00607073,-0.0113446,-0.000547618
15033,-3.11483e-12,1.77477e-38,-1.51454e-06,-3.18057e-12,1.77466e-38,0,-1.06629e-13,0,0,-3.76296,0.218367,0.486805,-0.539597,0.178095,0.0109072,-0.00052497,0,-0.755257,0.218367,238,-51,238,-51,355,-53,234,67,-0.010546,-0.0872664,0,-1.5,-nan,0,0,0,-0.746986,0.2184,0,0,0,0,0.00536192,-0.00373938,14880,-0.207267,0.0403752,-0.00554524,-0.00321441,15018,0.746986,-0.00160933,-0.01092,0.000374019
15055,-3.11483e-12,1.77477e-38,-1.51454e-06,-3.18057e-12,1.77466e-38,0,-1.06629e-13,0,0,-3.7571,0.217599,0.490275,-0.539348,0.178083,0.0107823,-0.000518958,0,-0.747231,0.217599,238,-53,238,-53,355,-53,234,66,-0.0105257,-0.0872664,0,-1.5,-nan,0,0,0,-0.747724,0.218054,0,0,0,0,-0.000536886,-0.0037641,14756,-0.208274,0.04,-0.0113191,-0.00324514,15048,0.747724,0.000160933,-0.0109027,0.000376999
15076,-3.11483e-12,1.77477e-38,-1.51454e-06,-3.18057e-12,1.77466e-38,0,-1.06629e-13,0,0,-3.7571,0.217599,0.490275,-0.539123,0.178073,0.0106694,-0.000513525,0,-0.747231,0.217599,238,-53,238,-53,355,-53,234,66,-0.0105233,-0.0872664,0,-1.5,-nan,0,0,0,-0.747737,0.217975,0,0,0,0,-0.000649756,-0.00375867,14756,-0.208274,0.04,-0.0113191,-0.00324514,15048,0.747737,0.000196695,-0.0108988,0.000375509
15096,-3.11483e-12,1.77477e-38,-1.51454e-06,-3.18057e-12,1.77466e-38,0,-1.0663e-13,0,0,-3.7719,0.221594,0.493116,-0.538912,0.178062,0.010563,-0.000508407,0,-0.767506,0.221594,241,-53,241,-53,356,-55,234,70,-0.0104593,-0.0872664,0,-1.5,-nan,0,0,0,-0.748597,0.218067,0,0,0,0,0.0024261,-0.0044429,15250,-0.209522,0.0400837,-0.00813693,-0.00393449,15082,0.748597,-0.000733137,-0.0109034,0.000444055
15113,-3.11483e-12,1.77477e-38,-1.51454e-06,-3.18057e-12,1.77466e-38,0,-1.0663e-13,0,0,-3.7719,0.221594,0.493116,-0.538733,0.178054,0.0104735,-0.000504097,0,-0.767506,0.221594,241,-53,241,-53,356,-55,234,70,-0.0104555,-0.0872664,0,-1.5,-nan,0,0,0,-0.748556,0.217992,0,0,0,0,0.00233657,-0.00443859,15250,-0.209522,0.0400837,-0.00813693,-0.00393449,15082,0.748556,-0.000697374,-0.0108996,0.000444055
15130,-3.11483e-12,1.77477e-38,-1.51454e-06,-3.18057e-12,1.77466e-38,0,-1.0663e-13,0,0,-3.7719,0.221594,0.493116,-0.538556,0.178045,0.0103847,-0.000499825,0,-0.767506,0.221594,241,-53,241,-53,356,-55,234,70,-0.0104525,-0.0872664,0,-1.5,-nan,0,0,0,-0.748518,0.217917,0,0,0,0,0.00224781,-0.00443432,15250,-0.209522,0.0400837,-0.00813693,-0.00393449,15082,0.748518,-0.000670552,-0.0108958,0.00044331
15155,-3.11483e-12,1.77477e-38,-1.51454e-06,-3.18057e-12,1.77466e-38,0,-1.0663e-13,0,0,-3.76284,0.209464,0.491146,-0.538298,0.178033,0.0102555,-0.000493604,0,-0.755087,0.209464,241,-51,241,-51,356,-55,234,67,-0.0104109,-0.0872664,0,-1.5,-nan,0,0,0,-0.743309,0.217606,0,0,0,0,0.0269273,-0.00469254,15128,-0.205178,0.0396149,0.0166718,-0.00419894,15147,0.743309,-0.00807345,-0.0108803,0.000469387
15176,-3.11483e-12,1.77477e-38,-1.51454e-06,-3.18057e-12,1.77466e-38,0,-1.06631e-13,0,0,-3.76284,0.209464,0.491146,-0.538085,0.178023,0.0101481,-0.000488437,0,-0.755087,0.209464,241,-51,241,-51,356,-55,234,67,-0.0104067,-0.0872664,0,-1.5,-nan,0,0,0,-0.742745,0.217507,0,0,0,0,0.0268199,-0.00468738,15128,-0.205178,0.0396149,0.0166718,-0.00419894,15147,0.742745,-0.00804663,-0.0108754,0.000468642
15199,-3.11483e-12,1.77477e-38,-1.51454e-06,-3.18057e-12,1.77466e-38,0,-1.06631e-13,0,0,-3.79331,0.223013,0.503189,-0.537853,0.178011,0.0100318,-0.000482839,0,-0.796836,0.223013,241,-51,241,-51,356,-55,234,69,-0.00985719,-0.0872664,0,-1.5,-nan,0,0,0,-0.755007,0.216366,0,0,0,0,-0.0108033,-0.00961327,15128,-0.216674,0.0385647,-0.0208351,-0.00913044,15185,0.755007,0.00324547,-0.0108183,0.000961125
15222,-3.11483e-12,1.77477e-38,-1.51454e-06,-3.18057e-12,1.77466e-38,0,-1.06631e-13,0,0,-3.84592,0.225052,0.531277,-0.537624,0.178,0.00991694,-0.000477309,0,-0.868914,0.225052,241,-51,241,-51,356,-51,234,66,-0.00980997,-0.0872664,0,-1.5,-nan,0,0,0,-0.759054,0.216395,0,0,0,0,-0.0206397,-0.0100958,14274,-0.221124,0.0384912,-0.0305566,-0.00961852,15214,0.759054,0.00618696,-0.0108198,0.0010098
15238,-3.11483e-12,1.77477e-38,-1.51454e-06,-3.18057e-12,1.77466e-38,0,-1.06631e-13,0,0,-3.84592,0.225052,0.531277,-0.537466,0.177993,0.00983782,-0.000473501,0,-0.868914,0.225052,241,-51,241,-51,356,-51,234,66,-0.00980214,-0.0872664,0,-1.5,-nan,0,0,0,-0.759385,0.216234,0,0,0,0,-0.0207188,-0.010092,14274,-0.221124,0.0384912,-0.0305566,-0.00961852,15214,0.759385,0.00622272,-0.0108117,0.00100955
15292,-3.11483e-12,1.77477e-38,-1.51454e-06,-3.18057e-12,1.77466e-38,0,-1.06632e-13,0,0,-3.71437,0.215957,0.460937,-0.536946,0.177968,0.00957374,-0.000460791,0,-0.688684,0.215957,238,-53,238,-53,355,-55,234,70,-0.00977431,-0.0872664,0,-1.5,-nan,0,0,0,-0.741971,0.215945,0,0,0,0,0.0225435,-0.0102276,15500,-0.20518,0.0380948,0.0129698,-0.00976681,15282,0.741971,-0.00675917,-0.0107973,0.00102296
15309,-3.11483e-12,1.77477e-38,-1.51454e-06,-3.18057e-12,1.77466e-38,0,-1.06632e-13,0,0,-3.71437,0.215957,0.460937,-0.536785,0.17796,0.00949259,-0.000456885,0,-0.688684,0.215957,238,-53,238,-53,355,-55,234,70,-0.00976636,-0.0872664,0,-1.5,-nan,0,0,0,-0.741588,0.215772,0,0,0,0,0.0224624,-0.0102237,15500,-0.20518,0.0380948,0.0129698,-0.00976681,15282,0.741588,-0.00674129,-0.0107886,0.00102222
15329,-3.11483e-12,1.77477e-38,-1.51454e-06,-3.18057e-12,1.77466e-38,0,-1.06632e-13,0,0,-3.75927,0.230038,0.48593,-0.536596,0.177951,0.00939795,-0.00045233,0,-0.750202,0.230038,238,-53,238,-53,355,-55,234,70,-0.00983215,-0.0872664,0,-1.5,-nan,0,0,0,-0.748691,0.215612,0,0,0,0,-0.00117327,-0.00948403,15125,-0.211884,0.0378418,-0.0105712,-0.0090317,15315,0.748691,0.000357628,-0.0107806,0.000948459
15354,-3.11483e-12,1.77477e-38,-1.51454e-06,-3.18057e-12,1.77466e-38,0,-1.06633e-13,0,0,-3.75927,0.230038,0.48593,-0.536363,0.17794,0.00928099,-0.000446701,0,-0.750202,0.230038,238,-53,238,-53,355,-55,234,70,-0.0106688,-0.0872664,0,-1.5,-nan,0,0,0,-0.749799,0.220677,0,0,0,0,0.0138624,-0.00364851,15125,-0.213477,0.0427665,0.00458137,-0.00320181,15347,0.749799,-0.00415742,-0.0110339,0.000365078
15376,-3.11483e-12,1.77477e-38,-1.51454e-06,-3.18057e-12,1.77466e-38,0,-1.06633e-13,0,0,-3.75927,0.230038,0.48593,-0.53616,0.17793,0.00917924,-0.000441803,0,-0.750202,0.230038,238,-53,238,-53,355,-55,234,70,-0.0106663,-0.0872664,0,-1.5,-nan,0,0,0,-0.749496,0.220597,0,0,0,0,0.0137606,-0.00364362,15125,-0.213477,0.0427665,0.00458137,-0.00320181,15347,0.749496,-0.0041306,-0.0110299,0.000363588
15393,-3.11483e-12,1.77477e-38,-1.51454e-06,-3.18057e-12,1.77466e-38,0,-1.06633e-13,0,0,-3.75927,0.230038,0.48593,-0.536005,0.177923,0.00910143,-0.000438058,0,-0.750202,0.230038,238,-53,238,-53,355,-55,234,70,-0.0106639,-0.0872664,0,-1.5,-nan,0,0,0,-0.749263,0.220535,0,0,0,0,0.0136828,-0.00363987,15125,-0.213477,0.0427665,0.00458137,-0.00320181,15347,0.749263,-0.00409484,-0.0110268,0.000362843
15410,-3.11483e-12,1.77477e-38,-1.51454e-06,-3.18057e-12,1.77466e-38,0,-1.06633e-13,0,0,-3.75927,0.230038,0.48593,-0.535851,0.177915,0.0090243,-0.000434346,0,-0.750202,0.230038,238,-53,238,-53,355,-55,234,70,-0.0106601,-0.0872664,0,-1.5,-nan,0,0,0,-0.749031,0.220473,0,0,0,0,0.0136057,-0.00363616,15125,-0.213477,0.0427665,0.00458137,-0.00320181,15347,0.749031,-0.0040859,-0.0110237,0.000363588
