timestamp,A_x,A_y,A_z,P,Q,R,Phi,Theta,Psi,poseX,poseY,poseZ,state_X,state_Y,state_Z,state_VzB,state_Bx,state_By,state_Bz,p1_x,p1_y,p2_x,p2_y,p3_x,p3_y,p4_x,p4_y,roll,pitch,yaw,alt,targetHeading,highLevelState,lowLevelState,gateNumber,filtered_x,filtered_y,x_OT,y_OT,vx_OT,vy_OT,filtered_vx,filtered_vygateArearansac_corr_x,ransac_corr_y,ransac_corr_vx,ransac_corr_vy,detectionTimeStamppTermX,dTermX,pTermY,dTermY,vxcmd,vycmd
7881,0,0,6.71875,-0.00175499,-0.00108045,-0.000682875,0.0105637,-0.00348661,-1.64122,0,0,0,3.39199e-06,-1.24483e-06,0.000718613,-0.000265995,-1.64099,0,0,0,0,0,0,0,0,0,0,0.435253,-0.143773,0.00469354,-1.5,0,0,0,1,3.39199e-06,-1.24483e-06,0,0,0,0,0.000718613,-0.000265995,1.9603e-19,0,0,0,0,0,0,0,0,0,2.51,2.48966e-06
7902,0,0,6.67285,-0.0016547,0.000287885,-0.00079362,0.0101671,-0.00392901,-1.6417,0,0,0,4.82079e-05,-1.87498e-05,0.00281934,-0.00113055,-1.64145,0,0,0,0,0,0,0,0,0,0,0.435223,-0.143352,0.0265434,-1.5,0,0,0,2,4.82079e-05,-1.87498e-05,0,0,0,0,0.00281934,-0.00113055,1.9603e-19,0,0,0,0,0,0,0,0,0,2.51,3.74997e-05
7926,0,0,2.4209,0.000202365,-0.000734642,3.66985e-05,0.00982047,-0.00444929,-1.6422,0,0,0,0.000154078,-6.36308e-05,0.00509984,-0.00220931,-1.642,0,0,0,0,0,0,0,0,0,0,0.435185,-0.142822,0.0529746,-1.5,0,0,0,3,0.000154078,-6.36308e-05,0,0,0,0,0.00509984,-0.00220931,1.9603e-19,0,0,0,0,0,0,0,0,0,2.51,0.000127262
7942,0,0,-3.37598,-0.000221759,-0.00135218,-0.000884192,0.00979461,-0.00477862,-1.64248,0,0,0,0.000257783,-0.000110258,0.00663931,-0.00304631,-1.64247,0,0,0,0,0,0,0,0,0,0,0.435153,-0.142382,0.044959,-1.5,0,0,0,0,0.000257783,-0.000110258,0,0,0,0,0.00663931,-0.00304631,1.9603e-19,0,0,0,0,0,0,0,0,0,2.51,0.000220517
7958,0,0,0.25293,-0.000382924,-0.000688335,-0.000161663,0.00978557,-0.00478716,-1.64248,0,0,0,0.000378972,-0.000167747,0.00806144,-0.00387837,-1.64248,0,0,0,0,0,0,0,0,0,0,0.435136,-0.142142,0.0471917,-1.5,0,0,0,1,0.000378972,-0.000167747,0,0,0,0,0.00806144,-0.00387837,1.9603e-19,0,0,0,0,0,0,0,0,0,2.51,0.000335493
7974,0,0,2.8584,-0.000877878,-0.00126147,0.000157779,0.00975589,-0.00482219,-1.64248,0,0,0,0.000522332,-0.000238233,0.00947001,-0.00470547,-1.64248,0,0,0,0,0,0,0,0,0,0,0.435118,-0.1419,0.0626606,-1.5,0,0,0,2,0.000522332,-0.000238233,0,0,0,0,0.00947001,-0.00470547,1.9603e-19,0,0,0,0,0,0,0,0,0,2.51,0.000476466
7991,0,0,2.38184,0.000467618,-0.00160877,-0.000809435,0.00975573,-0.00483974,-1.64249,0,0,0,0.000688526,-0.000322175,0.0108647,-0.00552902,-1.64248,0,0,0,0,0,0,0,0,0,0,0.435101,-0.141653,0.0780802,-1.5,0,0,0,3,0.000688526,-0.000322175,0,0,0,0,0.0108647,-0.00552902,1.9603e-19,0,0,0,0,0,0,0,0,0,2.51,0.000644349
8011,0,0,4.97656,-0.000642956,-0.000357883,-0.00139572,0.00974919,-0.00484799,-1.64251,0,0,0,0.000943772,-0.000454373,0.012678,-0.00660646,-1.64251,0,0,0,0,0,0,0,0,0,0,0.435076,-0.141307,0.0605708,-1.5,0,0,0,0,0.000943772,-0.000454373,0,0,0,0,0.012678,-0.00660646,1.9603e-19,0,0,0,0,0,0,0,0,0,2.51,0.000908746
8028,0,0,-2.87109,-0.00180665,-8.55693e-05,0.000228572,0.00973101,-0.00485522,-1.64251,0,0,0,0.00116099,-0.000568633,0.0140436,-0.00742037,-1.64251,0,0,0,0,0,0,0,0,0,0,0.435057,-0.141047,0.0624923,-1.5,0,0,0,1,0.00116099,-0.000568633,0,0,0,0,0.0140436,-0.00742037,1.9603e-19,0,0,0,0,0,0,0,0,0,2.51,0.00113727
8043,0,0,2.19922,-0.00302688,-0.00087517,-0.000289643,0.00972459,-0.00488219,-1.64252,0,0,0,0.00139992,-0.00069586,0.0153977,-0.00822919,-1.64252,0,0,0,0,0,0,0,0,0,0,0.435038,-0.140778,0.0779,-1.5,0,0,0,2,0.00139992,-0.00069586,0,0,0,0,0.0153977,-0.00822919,1.9603e-19,0,0,0,0,0,0,0,0,0,2.51,0.00139172
8060,0,0,1.21582,4.91491e-05,-0.000599242,-0.000530168,0.00970687,-0.00490642,-1.64252,0,0,0,0.00166042,-0.000835984,0.0167409,-0.00903392,-1.64252,0,0,0,0,0,0,0,0,0,0,0.435018,-0.140507,0.0932587,-1.5,0,0,0,3,0.00166042,-0.000835984,0,0,0,0,0.0167409,-0.00903392,1.9603e-19,0,0,0,0,0,0,0,0,0,2.51,0.00167197
8075,0,0,1.21582,4.91491e-05,-0.000599242,-0.000530168,0.00970687,-0.00490642,-1.64252,0,0,0,0.00194223,-0.00098897,0.0180678,-0.00983678,-1.64252,0,0,0,0,0,0,0,0,0,0,0.434998,-0.140228,0.0835111,-1.5,0,0,0,0,0.00194223,-0.00098897,0,0,0,0,0.0180678,-0.00983678,1.9603e-19,0,0,0,0,0,0,0,0,0,2.51,0.00197794
8093,0,0,6.6748,-0.00119521,0.000122608,-2.17845e-05,0.00968151,-0.00493667,-1.64253,0,0,0,0.00228557,-0.00117701,0.0195469,-0.0107344,-1.64253,0,0,0,0,0,0,0,0,0,0,0.434975,-0.139907,0.0846426,-1.5,0,0,0,1,0.00228557,-0.00117701,0,0,0,0,0.0195469,-0.0107344,1.9603e-19,0,0,0,0,0,0,0,0,0,2.51,0.00235402
8107,0,0,-3.36523,-0.000291388,-0.000355615,5.59518e-05,0.00967725,-0.00494824,-1.64254,0,0,0,0.00256907,-0.0013333,0.0206843,-0.0114297,-1.64254,0,0,0,0,0,0,0,0,0,0,0.434957,-0.139653,0.0968327,-1.5,0,0,0,2,0.00256907,-0.0013333,0,0,0,0,0.0206843,-0.0114297,1.9603e-19,0,0,0,0,0,0,0,0,0,2.51,0.00266661
8132,0,0,-3.36523,-0.000291388,-0.000355615,5.59518e-05,0.00967725,-0.00494824,-1.64254,0,0,0,0.00312262,-0.00164135,0.0226991,-0.0126631,-1.64254,0,0,0,0,0,0,0,0,0,0,0.434924,-0.139192,0.123067,-1.5,0,0,0,3,0.00312262,-0.00164135,0,0,0,0,0.0226991,-0.0126631,1.9603e-19,0,0,0,0,0,0,0,0,0,2.51,0.0032827
8148,0,0,2.83984,-0.00140803,-0.000493769,-0.000429021,0.0096068,-0.00499721,-1.64256,0,0,0,0.00349919,-0.00185217,0.0239704,-0.013445,-1.64256,0,0,0,0,0,0,0,0,0,0,0.434901,-0.138881,0.1132,-1.5,0,0,0,0,0.00349919,-0.00185217,0,0,0,0,0.0239704,-0.013445,1.9603e-19,0,0,0,0,0,0,0,0,0,2.51,0.00370434
8164,0,0,2.39648,-0.00274647,-0.000721294,-0.000538195,0.00957727,-0.00500693,-1.64257,0,0,0,0.00389589,-0.0020755,0.0252212,-0.0142262,-1.64257,0,0,0,0,0,0,0,0,0,0,0.434879,-0.138571,0.114073,-1.5,0,0,0,1,0.00389589,-0.0020755,0,0,0,0,0.0252212,-0.0142262,1.9603e-19,0,0,0,0,0,0,0,0,0,2.51,0.00415101
8181,0,0,2.39648,-0.00274647,-0.000721294,-0.000538195,0.00957727,-0.00500693,-1.64257,0,0,0,0.00433914,-0.00232643,0.0265362,-0.0150503,-1.64257,0,0,0,0,0,0,0,0,0,0,0.434855,-0.13824,0.129021,-1.5,0,0,0,2,0.00433914,-0.00232643,0,0,0,0,0.0265362,-0.0150503,1.9603e-19,0,0,0,0,0,0,0,0,0,2.51,0.00465286
8199,0,0,-2.86426,7.04637e-05,6.71482e-05,0.000234451,0.00956978,-0.00502396,-1.64257,0,0,0,0.00483315,-0.00260759,0.0279159,-0.0159164,-1.64257,0,0,0,0,0,0,0,0,0,0,0.43483,-0.137885,0.14731,-1.5,0,0,0,3,0.00483315,-0.00260759,0,0,0,0,0.0279159,-0.0159164,1.9603e-19,0,0,0,0,0,0,0,0,0,2.51,0.00521519
8235,0,0,1.21875,-0.000746202,0.000370163,-0.0014412,0.00951806,-0.00505733,-1.6426,0,0,0,0.00588515,-0.00321186,0.0305688,-0.0175901,-1.6426,0,0,0,0,0,0,0,0,0,0,0.434777,-0.137152,0.107621,-1.5,0,0,0,0,0.00588515,-0.00321186,0,0,0,0,0.0305688,-0.0175901,1.9603e-19,0,0,0,0,0,0,0,0,0,2.51,0.00642372
8263,0,0,6.70117,0.000138159,-0.00042954,-0.00134502,0.00949395,-0.0050781,-1.64263,0,0,0,0.00678561,-0.0037328,0.0326405,-0.0189138,-1.64263,0,0,0,0,0,0,0,0,0,0,0.434733,-0.13655,0.106032,-1.5,0,0,0,1,0.00678561,-0.0037328,0,0,0,0,0.0326405,-0.0189138,1.9603e-19,0,0,0,0,0,0,0,0,0,2.51,0.00746561
8284,0,0,0.270508,7.63522e-06,-0.000434361,-0.000586514,0.0094638,-0.00510044,-1.64264,0,0,0,0.00752908,-0.00416522,0.0342398,-0.0199437,-1.64264,0,0,0,0,0,0,0,0,0,0,0.434699,-0.136072,0.130652,-1.5,0,0,0,2,0.00752908,-0.00416522,0,0,0,0,0.0342398,-0.0199437,1.9603e-19,0,0,0,0,0,0,0,0,0,2.51,0.00833044
8301,0,0,-7.32617,-0.00155046,-0.000561384,-0.000300859,0.00945083,-0.00510966,-1.64265,0,0,0,0.00812458,-0.00451297,0.0354573,-0.0207341,-1.64265,0,0,0,0,0,0,0,0,0,0,0.434672,-0.135697,0.14552,-1.5,0,0,0,3,0.00812458,-0.00451297,0,0,0,0,0.0354573,-0.0207341,1.9603e-19,0,0,0,0,0,0,0,0,0,2.51,0.00902594
8317,0,0,2.84961,0.00123196,-5.86699e-05,-0.000834209,0.00945225,-0.00512544,-1.64267,0,0,0,0.00870347,-0.00485225,0.0365924,-0.0214735,-1.64267,0,0,0,0,0,0,0,0,0,0,0.434646,-0.135337,0.136859,-1.5,0,0,0,0,0.00870347,-0.00485225,0,0,0,0,0.0365924,-0.0214735,1.9603e-19,0,0,0,0,0,0,0,0,0,2.51,0.0097045
8367,0,0,5.68262,9.93815e-05,-0.00199585,-0.00066445,0.00943132,-0.00519366,-1.64269,0,0,0,0.0106813,-0.00602268,0.0401069,-0.0237693,-1.64269,0,0,0,0,0,0,0,0,0,0,0.434561,-0.134169,0.129827,-1.5,0,0,0,1,0.0106813,-0.00602268,0,0,0,0,0.0401069,-0.0237693,1.9603e-19,0,0,0,0,0,0,0,0,0,2.51,0.0120454
8383,0,0,2.18164,0.00202986,-0.00100581,0.000301067,0.00944314,-0.00521617,-1.64269,0,0,0,0.0113342,-0.00641041,0.0412013,-0.0244974,-1.64269,0,0,0,0,0,0,0,0,0,0,0.434535,-0.133796,0.144966,-1.5,0,0,0,2,0.0113342,-0.00641041,0,0,0,0,0.0412013,-0.0244974,1.9603e-19,0,0,0,0,0,0,0,0,0,2.51,0.0128208
8402,0,0,2.18164,0.00202986,-0.00100581,0.000301067,0.00944314,-0.00521617,-1.64269,0,0,0,0.0121334,-0.0068868,0.0424915,-0.0253582,-1.64269,0,0,0,0,0,0,0,0,0,0,0.434502,-0.133343,0.161621,-1.5,0,0,0,3,0.0121334,-0.0068868,0,0,0,0,0.0424915,-0.0253582,1.9603e-19,0,0,0,0,0,0,0,0,0,2.51,0.0137736
8416,0,0,2.40918,-0.00245271,-0.00228955,-0.00166979,0.00943547,-0.00524344,-1.64271,0,0,0,0.0127364,-0.00724726,0.0434331,-0.0259885,-1.64271,0,0,0,0,0,0,0,0,0,0,0.434477,-0.132999,0.157864,-1.5,0,0,0,0,0.0127364,-0.00724726,0,0,0,0,0.0434331,-0.0259885,1.9603e-19,0,0,0,0,0,0,0,0,0,2.51,0.0144945
8429,0,0,6.66309,0.000687437,-0.000335649,0.000152514,0.00943254,-0.00525454,-1.64271,0,0,0,0.0133081,-0.00758983,0.0443006,-0.0265723,-1.64271,0,0,0,0,0,0,0,0,0,0,0.434454,-0.132683,0.158789,-1.5,0,0,0,1,0.0133081,-0.00758983,0,0,0,0,0.0443006,-0.0265723,1.9603e-19,0,0,0,0,0,0,0,0,0,2.51,0.0151797
8445,0,0,0.234375,0.000446304,-0.000661332,-0.00102189,0.00944377,-0.00528068,-1.64272,0,0,0,0.0140277,-0.00802228,0.0453605,-0.0272866,-1.64271,0,0,0,0,0,0,0,0,0,0,0.434426,-0.13229,0.170683,-1.5,0,0,0,2,0.0140277,-0.00802228,0,0,0,0,0.0453605,-0.0272866,1.9603e-19,0,0,0,0,0,0,0,0,0,2.51,0.0160446
8461,0,0,-7.33496,0.000998317,0.000766716,-0.00064129,0.00945149,-0.00527845,-1.64273,0,0,0,0.0147642,-0.00846611,0.0464129,-0.0279977,-1.64272,0,0,0,0,0,0,0,0,0,0,0.434397,-0.131884,0.183749,-1.5,0,0,0,3,0.0147642,-0.00846611,0,0,0,0,0.0464129,-0.0279977,1.9603e-19,0,0,0,0,0,0,0,0,0,2.51,0.0169322
8476,0,0,2.85059,-0.00152761,-0.000562089,-0.000333069,0.00944526,-0.00527712,-1.64273,0,0,0,0.0154699,-0.00889249,0.0473934,-0.0286606,-1.64273,0,0,0,0,0,0,0,0,0,0,0.434369,-0.131501,0.175204,-1.5,0,0,0,0,0.0154699,-0.00889249,0,0,0,0,0.0473934,-0.0286606,1.9603e-19,0,0,0,0,0,0,0,0,0,2.51,0.017785
8492,0,0,2.39844,-0.000216733,-0.000995024,-0.000369679,0.00943996,-0.00530239,-1.64274,0,0,0,0.0162391,-0.00935844,0.0484304,-0.0293631,-1.64274,0,0,0,0,0,0,0,0,0,0,0.434339,-0.13109,0.17484,-1.5,0,0,0,1,0.0162391,-0.00935844,0,0,0,0,0.0484304,-0.0293631,1.9603e-19,0,0,0,0,0,0,0,0,0,2.51,0.0187169
8508,0,0,4.95996,0.00095927,0.000991461,-0.000666336,0.00944457,-0.00529093,-1.64275,0,0,0,0.0170245,-0.00983538,0.0494582,-0.0300623,-1.64275,0,0,0,0,0,0,0,0,0,0,0.434309,-0.130673,0.189804,-1.5,0,0,0,2,0.0170245,-0.00983538,0,0,0,0,0.0494582,-0.0300623,1.9603e-19,0,0,0,0,0,0,0,0,0,2.51,0.0196708
8523,0,0,-2.85742,-0.0011798,-0.000615594,-0.00134826,0.00943202,-0.00529917,-1.64277,0,0,0,0.0177756,-0.0102926,0.0504142,-0.030712,-1.64277,0,0,0,0,0,0,0,0,0,0,0.43428,-0.130276,0.203151,-1.5,0,0,0,3,0.0177756,-0.0102926,0,0,0,0,0.0504142,-0.030712,1.9603e-19,0,0,0,0,0,0,0,0,0,2.51,0.0205852
8539,0,0,-2.85742,-0.0011798,-0.000615594,-0.00134826,0.00943202,-0.00529917,-1.64277,0,0,0,0.018541,-0.0107595,0.0513618,-0.0313575,-1.64277,0,0,0,0,0,0,0,0,0,0,0.434252,-0.129882,0.194528,-1.5,0,0,0,0,0.018541,-0.0107595,0,0,0,0,0.0513618,-0.0313575,1.9603e-19,0,0,0,0,0,0,0,0,0,2.51,0.0215191
8554,0,0,2.18262,0.000331955,0.00137543,-6.34709e-05,0.00942245,-0.00529209,-1.64278,0,0,0,0.0193733,-0.0112684,0.0523645,-0.0320404,-1.64278,0,0,0,0,0,0,0,0,0,0,0.434221,-0.129456,0.193779,-1.5,0,0,0,1,0.0193733,-0.0112684,0,0,0,0,0.0523645,-0.0320404,1.9603e-19,0,0,0,0,0,0,0,0,0,2.51,0.0225369
8570,0,0,2.40234,0.000801451,-0.000910126,-5.28245e-05,0.00941661,-0.0053229,-1.6428,0,0,0,0.0202213,-0.011788,0.0533581,-0.032717,-1.64278,0,0,0,0,0,0,0,0,0,0,0.43419,-0.129028,0.208662,-1.5,0,0,0,2,0.0202213,-0.011788,0,0,0,0,0.0533581,-0.032717,1.9603e-19,0,0,0,0,0,0,0,0,0,2.51,0.023576
8585,0,0,6.66797,0.00123005,-0.000390998,-0.000815904,0.00943709,-0.00533278,-1.64281,0,0,0,0.0210306,-0.0122849,0.0542812,-0.0333509,-1.6428,0,0,0,0,0,0,0,0,0,0,0.43416,-0.128611,0.221933,-1.5,0,0,0,3,0.0210306,-0.0122849,0,0,0,0,0.0542812,-0.0333509,1.9603e-19,0,0,0,0,0,0,0,0,0,2.51,0.0245698
8601,0,0,6.66797,0.00123005,-0.000390998,-0.000815904,0.00943709,-0.00533278,-1.64281,0,0,0,0.0219094,-0.0128256,0.0552614,-0.0340237,-1.64281,0,0,0,0,0,0,0,0,0,0,0.434128,-0.12817,0.211671,-1.5,0,0,0,0,0.0219094,-0.0128256,0,0,0,0,0.0552614,-0.0340237,1.9603e-19,0,0,0,0,0,0,0,0,0,2.51,0.0256511
8617,0,0,0.240234,-0.000381066,0.000541248,0.000432739,0.00941217,-0.0053505,-1.64281,0,0,0,0.0228035,-0.0133768,0.0562327,-0.0346917,-1.64281,0,0,0,0,0,0,0,0,0,0,0.434096,-0.127727,0.212566,-1.5,0,0,0,1,0.0228035,-0.0133768,0,0,0,0,0.0562327,-0.0346917,1.9603e-19,0,0,0,0,0,0,0,0,0,2.51,0.0267535
8631,0,0,-7.34961,0.000311217,0.000117638,-0.00100001,0.00941848,-0.00534805,-1.64282,0,0,0,0.023598,-0.0138675,0.0570736,-0.0352732,-1.64282,0,0,0,0,0,0,0,0,0,0,0.434067,-0.127334,0.22268,-1.5,0,0,0,2,0.023598,-0.0138675,0,0,0,0,0.0570736,-0.0352732,1.9603e-19,0,0,0,0,0,0,0,0,0,2.51,0.027735
8646,0,0,2.85156,-0.00210461,-0.00095483,0.0015761,0.00939725,-0.00535894,-1.64281,0,0,0,0.0244626,-0.0144024,0.0579675,-0.0358921,-1.64281,0,0,0,0,0,0,0,0,0,0,0.434037,-0.126917,0.232766,-1.5,0,0,0,3,0.0244626,-0.0144024,0,0,0,0,0.0579675,-0.0358921,1.9603e-19,0,0,0,0,0,0,0,0,0,2.51,0.0288048
8662,0,0,2.40137,1.27618e-05,-0.000917842,-0.000484318,0.00939957,-0.00537485,-1.64282,0,0,0,0.0254,-0.0149836,0.0589119,-0.0365492,-1.64282,0,0,0,0,0,0,0,0,0,0,0.434004,-0.126461,0.22246,-1.5,0,0,0,0,0.0254,-0.0149836,0,0,0,0,0.0589119,-0.0365492,1.9603e-19,0,0,0,0,0,0,0,0,0,2.51,0.0299672
8677,0,0,4.96973,0.000828918,-0.000148376,-0.000157721,0.00941674,-0.00538009,-1.64282,0,0,0,0.0262922,-0.0155377,0.0597914,-0.0371623,-1.64282,0,0,0,0,0,0,0,0,0,0,0.433973,-0.126032,0.221598,-1.5,0,0,0,1,0.0262922,-0.0155377,0,0,0,0,0.0597914,-0.0371623,1.9603e-19,0,0,0,0,0,0,0,0,0,2.51,0.0310755
8694,0,0,5.69824,-5.1329e-05,-0.000315532,-0.00159468,0.00939372,-0.00540411,-1.64284,0,0,0,0.0272586,-0.0161392,0.0607227,-0.0378127,-1.64283,0,0,0,0,0,0,0,0,0,0,0.433939,-0.125563,0.236369,-1.5,0,0,0,2,0.0272586,-0.0161392,0,0,0,0,0.0607227,-0.0378127,1.9603e-19,0,0,0,0,0,0,0,0,0,2.51,0.0322784
8709,0,0,2.18848,-0.000259634,-0.000253598,-0.000573328,0.00939934,-0.00541199,-1.64284,0,0,0,0.0282396,-0.0167508,0.0616441,-0.0384601,-1.64284,0,0,0,0,0,0,0,0,0,0,0.433905,-0.125092,0.249041,-1.5,0,0,0,3,0.0282396,-0.0167508,0,0,0,0,0.0616441,-0.0384601,1.9603e-19,0,0,0,0,0,0,0,0,0,2.51,0.0335016
8725,0,0,1.24219,-0.00174553,-0.00111607,0.000558259,0.00937603,-0.00542891,-1.64284,0,0,0,0.0292352,-0.0173727,0.0625582,-0.0391043,-1.64284,0,0,0,0,0,0,0,0,0,0,0.433871,-0.12462,0.239758,-1.5,0,0,0,0,0.0292352,-0.0173727,0,0,0,0,0.0625582,-0.0391043,1.9603e-19,0,0,0,0,0,0,0,0,0,2.51,0.0347454
8740,0,0,2.40723,0.00100554,-0.000461898,-0.000706571,0.00938451,-0.00544105,-1.64286,0,0,0,0.0301818,-0.0179651,0.0634057,-0.0397061,-1.64286,0,0,0,0,0,0,0,0,0,0,0.433838,-0.12417,0.238585,-1.5,0,0,0,1,0.0301818,-0.0179651,0,0,0,0,0.0634057,-0.0397061,1.9603e-19,0,0,0,0,0,0,0,0,0,2.51,0.0359302
8756,0,0,6.66797,0.000460375,7.62103e-05,-0.000666143,0.00939044,-0.00544332,-1.64286,0,0,0,0.0312055,-0.0186069,0.0643038,-0.0403446,-1.64286,0,0,0,0,0,0,0,0,0,0,0.433803,-0.123687,0.253289,-1.5,0,0,0,2,0.0312055,-0.0186069,0,0,0,0,0.0643038,-0.0403446,1.9603e-19,0,0,0,0,0,0,0,0,0,2.51,0.0372138
8771,0,0,6.66797,0.000460375,7.62103e-05,-0.000666143,0.00939044,-0.00544332,-1.64286,0,0,0,0.0321781,-0.0192178,0.0651398,-0.0409388,-1.64286,0,0,0,0,0,0,0,0,0,0,0.433771,-0.123234,0.266381,-1.5,0,0,0,3,0.0321781,-0.0192178,0,0,0,0,0.0651398,-0.0409388,1.9603e-19,0,0,0,0,0,0,0,0,0,2.51,0.0384357
8787,0,0,0.228516,0.00138537,0.000519315,-0.00111237,0.00939586,-0.00545337,-1.64289,0,0,0,0.0332294,-0.0198793,0.066025,-0.0415684,-1.64289,0,0,0,0,0,0,0,0,0,0,0.433734,-0.122736,0.256995,-1.5,0,0,0,0,0.0332294,-0.0198793,0,0,0,0,0.066025,-0.0415684,1.9603e-19,0,0,0,0,0,0,0,0,0,2.51,0.0397586
8803,0,0,0.228516,0.00138537,0.000519315,-0.00111237,0.00939586,-0.00545337,-1.64289,0,0,0,0.0342947,-0.0205508,0.0669036,-0.0421941,-1.64289,0,0,0,0,0,0,0,0,0,0,0.433699,-0.122246,0.257077,-1.5,0,0,0,1,0.0342947,-0.0205508,0,0,0,0,0.0669036,-0.0421941,1.9603e-19,0,0,0,0,0,0,0,0,0,2.51,0.0411015
8819,0,0,2.39551,0.00129242,0.000921625,-0.00115478,0.00940819,-0.00544672,-1.64291,0,0,0,0.0353062,-0.0211893,0.0677208,-0.0427761,-1.64289,0,0,0,0,0,0,0,0,0,0,0.433665,-0.121782,0.270142,-1.5,0,0,0,2,0.0353062,-0.0211893,0,0,0,0,0.0677208,-0.0427761,1.9603e-19,0,0,0,0,0,0,0,0,0,2.51,0.0423786
8832,0,0,4.95801,4.96467e-05,-0.000575975,0.000365222,0.00941066,-0.00545747,-1.64293,0,0,0,0.036261,-0.0217929,0.068479,-0.0433148,-1.64291,0,0,0,0,0,0,0,0,0,0,0.433632,-0.121336,0.281602,-1.5,0,0,0,3,0.036261,-0.0217929,0,0,0,0,0.068479,-0.0433148,1.9603e-19,0,0,0,0,0,0,0,0,0,2.51,0.0435859
8846,0,0,-2.85449,-0.000275778,2.40407e-05,-0.00185459,0.00941807,-0.00546279,-1.64295,0,0,0,0.0371569,-0.0223601,0.069179,-0.0438122,-1.64293,0,0,0,0,0,0,0,0,0,0,0.433602,-0.120924,0.275795,-1.5,0,0,0,0,0.0371569,-0.0223601,0,0,0,0,0.069179,-0.0438122,1.9603e-19,0,0,0,0,0,0,0,0,0,2.51,0.0447201
8862,0,0,-2.85449,-0.000275778,2.40407e-05,-0.00185459,0.00941807,-0.00546279,-1.64295,0,0,0,0.0382728,-0.0230675,0.0700353,-0.0444213,-1.64295,0,0,0,0,0,0,0,0,0,0,0.433565,-0.120408,0.273426,-1.5,0,0,0,1,0.0382728,-0.0230675,0,0,0,0,0.0700353,-0.0444213,1.9603e-19,0,0,0,0,0,0,0,0,0,2.51,0.0461349
8877,0,0,2.20215,-0.00111623,-0.000493537,-0.000870669,0.00941174,-0.00547809,-1.64297,0,0,0,0.0394023,-0.0237846,0.0708851,-0.0450264,-1.64297,0,0,0,0,0,0,0,0,0,0,0.433527,-0.11989,0.28799,-1.5,0,0,0,2,0.0394023,-0.0237846,0,0,0,0,0.0708851,-0.0450264,1.9603e-19,0,0,0,0,0,0,0,0,0,2.51,0.0475691
8893,0,0,1.26367,0.000617739,0.000311637,-0.00154978,0.00941068,-0.0054953,-1.64298,0,0,0,0.0405453,-0.0245113,0.0717271,-0.0456294,-1.64298,0,0,0,0,0,0,0,0,0,0,0.433489,-0.119373,0.302508,-1.5,0,0,0,3,0.0405453,-0.0245113,0,0,0,0,0.0717271,-0.0456294,1.9603e-19,0,0,0,0,0,0,0,0,0,2.51,0.0490226
8909,0,0,2.43164,0.000640208,0.000954767,-0.00125236,0.00941292,-0.00550207,-1.64299,0,0,0,0.0417014,-0.0252475,0.072562,-0.0462299,-1.64299,0,0,0,0,0,0,0,0,0,0,0.433451,-0.118852,0.292905,-1.5,0,0,0,0,0.0417014,-0.0252475,0,0,0,0,0.072562,-0.0462299,1.9603e-19,0,0,0,0,0,0,0,0,0,2.51,0.050495
8925,0,0,6.72168,-0.00110194,-0.000483129,-0.000408463,0.00939121,-0.00551042,-1.64301,0,0,0,0.0428711,-0.0259935,0.0733892,-0.0468268,-1.64301,0,0,0,0,0,0,0,0,0,0,0.433413,-0.118326,0.290195,-1.5,0,0,0,1,0.0428711,-0.0259935,0,0,0,0,0.0733892,-0.0468268,1.9603e-19,0,0,0,0,0,0,0,0,0,2.51,0.0519869
8941,0,0,6.72168,-0.00110194,-0.000483129,-0.000408463,0.00939121,-0.00551042,-1.64301,0,0,0,0.0440537,-0.0267487,0.0742076,-0.0474195,-1.64301,0,0,0,0,0,0,0,0,0,0,0.433375,-0.117801,0.302525,-1.5,0,0,0,2,0.0440537,-0.0267487,0,0,0,0,0.0742076,-0.0474195,1.9603e-19,0,0,0,0,0,0,0,0,0,2.51,0.0534975
8956,0,0,-7.34961,0.000277749,-0.000352839,9.71637e-05,0.00937955,-0.00553032,-1.64302,0,0,0,0.0451742,-0.0274654,0.0749688,-0.0479708,-1.64301,0,0,0,0,0,0,0,0,0,0,0.433339,-0.117306,0.31542,-1.5,0,0,0,3,0.0451742,-0.0274654,0,0,0,0,0.0749688,-0.0479708,1.9603e-19,0,0,0,0,0,0,0,0,0,2.51,0.0549307
8972,0,0,2.83789,-0.000383834,-0.000408358,-0.00210531,0.00938566,-0.00552909,-1.64303,0,0,0,0.0463822,-0.028239,0.0757737,-0.048556,-1.64302,0,0,0,0,0,0,0,0,0,0,0.4333,-0.116769,0.304784,-1.5,0,0,0,0,0.0463822,-0.028239,0,0,0,0,0.0757737,-0.048556,1.9603e-19,0,0,0,0,0,0,0,0,0,2.51,0.0564781
8988,0,0,2.39746,-0.00116665,-0.000526567,-0.00064262,0.00938678,-0.00553033,-1.64304,0,0,0,0.0476027,-0.0290219,0.0765719,-0.0491378,-1.64304,0,0,0,0,0,0,0,0,0,0,0.43326,-0.116224,0.30088,-1.5,0,0,0,1,0.0476027,-0.0290219,0,0,0,0,0.0765719,-0.0491378,1.9603e-19,0,0,0,0,0,0,0,0,0,2.51,0.0580438
9004,0,0,2.39746,-0.00116665,-0.000526567,-0.00064262,0.00938678,-0.00553033,-1.64304,0,0,0,0.0488359,-0.029814,0.0773639,-0.0497152,-1.64304,0,0,0,0,0,0,0,0,0,0,0.433221,-0.115685,0.31534,-1.5,0,0,0,2,0.0488359,-0.029814,0,0,0,0,0.0773639,-0.0497152,1.9603e-19,0,0,0,0,0,0,0,0,0,2.51,0.059628
9019,0,0,2.39746,-0.00116665,-0.000526567,-0.00064262,0.00938678,-0.00553033,-1.64304,0,0,0,0.0500035,-0.0305649,0.0781007,-0.0502523,-1.64304,0,0,0,0,0,0,0,0,0,0,0.433184,-0.115177,0.328184,-1.5,0,0,0,3,0.0500035,-0.0305649,0,0,0,0,0.0781007,-0.0502523,1.9603e-19,0,0,0,0,0,0,0,0,0,2.51,0.0611298
9035,0,0,2.39746,-0.00116665,-0.000526567,-0.00064262,0.00938678,-0.00553033,-1.64304,0,0,0,0.0512613,-0.0313749,0.0788806,-0.0508208,-1.64304,0,0,0,0,0,0,0,0,0,0,0.433144,-0.114631,0.317497,-1.5,0,0,0,0,0.0512613,-0.0313749,0,0,0,0,0.0788806,-0.0508208,1.9603e-19,0,0,0,0,0,0,0,0,0,2.51,0.0627498
9049,0,0,2.19531,-0.00109049,-0.000760976,-0.00170861,0.00934963,-0.00555542,-1.64308,0,0,0,0.0522918,-0.0320393,0.0795071,-0.0512806,-1.64308,0,0,0,0,0,0,0,0,0,0,0.43311,-0.114167,0.316194,-1.5,0,0,0,1,0.0522918,-0.0320393,0,0,0,0,0.0795071,-0.0512806,1.9603e-19,0,0,0,0,0,0,0,0,0,2.51,0.0640786
9062,0,0,1.23242,-0.000612135,-0.000779349,-0.000824882,0.00933107,-0.00557839,-1.6431,0,0,0,0.0534109,-0.0327616,0.0801733,-0.0517754,-1.6431,0,0,0,0,0,0,0,0,0,0,0.433074,-0.113677,0.327458,-1.5,0,0,0,2,0.0534109,-0.0327616,0,0,0,0,0.0801733,-0.0517754,1.9603e-19,0,0,0,0,0,0,0,0,0,2.51,0.0655232
9078,0,0,2.41797,0.000414342,-0.000235936,-0.000447173,0.00934274,-0.00557933,-1.6431,0,0,0,0.0547013,-0.0335958,0.0809281,-0.0523388,-1.6431,0,0,0,0,0,0,0,0,0,0,0.433033,-0.113118,0.339583,-1.5,0,0,0,3,0.0547013,-0.0335958,0,0,0,0,0.0809281,-0.0523388,1.9603e-19,0,0,0,0,0,0,0,0,0,2.51,0.0671915
9094,0,0,-3.3916,5.10776e-05,-6.30407e-05,9.40871e-05,0.00931251,-0.00560454,-1.64312,0,0,0,0.0560041,-0.0344391,0.081676,-0.0528987,-1.64311,0,0,0,0,0,0,0,0,0,0,0.432992,-0.112554,0.32885,-1.5,0,0,0,0,0.0560041,-0.0344391,0,0,0,0,0.081676,-0.0528987,1.9603e-19,0,0,0,0,0,0,0,0,0,2.51,0.0688782
9110,0,0,0.228516,-0.00101076,-0.000750791,-3.09523e-05,0.00930728,-0.00562067,-1.64313,0,0,0,0.0572359,-0.0352376,0.0823686,-0.0534215,-1.64312,0,0,0,0,0,0,0,0,0,0,0.432953,-0.112021,0.326078,-1.5,0,0,0,1,0.0572359,-0.0352376,0,0,0,0,0.0823686,-0.0534215,1.9603e-19,0,0,0,0,0,0,0,0,0,2.51,0.0704752
9126,0,0,-7.34277,0.000354017,-0.000326309,-0.0010302,0.00930354,-0.00562291,-1.64315,0,0,0,0.0586447,-0.0361523,0.0831465,-0.0540129,-1.64315,0,0,0,0,0,0,0,0,0,0,0.432908,-0.111406,0.342003,-1.5,0,0,0,2,0.0586447,-0.0361523,0,0,0,0,0.0831465,-0.0540129,1.9603e-19,0,0,0,0,0,0,0,0,0,2.51,0.0723046
9141,0,0,2.83008,0.00300044,0.000722269,-0.00104491,0.00933784,-0.0056169,-1.64316,0,0,0,0.0598985,-0.0369675,0.083828,-0.0545305,-1.64316,0,0,0,0,0,0,0,0,0,0,0.432868,-0.110866,0.35474,-1.5,0,0,0,3,0.0598985,-0.0369675,0,0,0,0,0.083828,-0.0545305,1.9603e-19,0,0,0,0,0,0,0,0,0,2.51,0.073935
9157,0,0,2.40625,-0.000986692,-0.00114493,-0.000227992,0.00933831,-0.00563254,-1.64316,0,0,0,0.0612472,-0.0378456,0.0845534,-0.0550786,-1.64316,0,0,0,0,0,0,0,0,0,0,0.432826,-0.110291,0.347082,-1.5,0,0,0,0,0.0612472,-0.0378456,0,0,0,0,0.0845534,-0.0550786,1.9603e-19,0,0,0,0,0,0,0,0,0,2.51,0.0756911
9172,0,0,2.40625,-0.000986692,-0.00114493,-0.000227992,0.00933831,-0.00563254,-1.64316,0,0,0,0.062522,-0.0386767,0.0852281,-0.0555902,-1.64316,0,0,0,0,0,0,0,0,0,0,0.432787,-0.109749,0.343983,-1.5,0,0,0,1,0.062522,-0.0386767,0,0,0,0,0.0852281,-0.0555902,1.9603e-19,0,0,0,0,0,0,0,0,0,2.51,0.0773534
9188,0,0,-2.87012,0.00131768,0.00148344,-0.000322147,0.0093463,-0.00563181,-1.64317,0,0,0,0.0638929,-0.0395717,0.0859428,-0.0561316,-1.64317,0,0,0,0,0,0,0,0,0,0,0.432744,-0.109161,0.355136,-1.5,0,0,0,2,0.0638929,-0.0395717,0,0,0,0,0.0859428,-0.0561316,1.9603e-19,0,0,0,0,0,0,0,0,0,2.51,0.0791433
9204,0,0,-2.87012,0.00131768,0.00148344,-0.000322147,0.0093463,-0.00563181,-1.64317,0,0,0,0.0652753,-0.0404753,0.0866524,-0.0566688,-1.64317,0,0,0,0,0,0,0,0,0,0,0.432702,-0.108577,0.366256,-1.5,0,0,0,3,0.0652753,-0.0404753,0,0,0,0,0.0866524,-0.0566688,1.9603e-19,0,0,0,0,0,0,0,0,0,2.51,0.0809505
9219,0,0,1.23926,-0.00202374,-0.000872093,-0.000908706,0.00931781,-0.00567087,-1.64319,0,0,0,0.0665812,-0.04133,0.0873125,-0.0571684,-1.64317,0,0,0,0,0,0,0,0,0,0,0.432662,-0.108026,0.360117,-1.5,0,0,0,0,0.0665812,-0.04133,0,0,0,0,0.0873125,-0.0571684,1.9603e-19,0,0,0,0,0,0,0,0,0,2.51,0.08266
9235,0,0,2.41895,-0.00083203,-0.000271371,-0.00139684,0.00929221,-0.00568423,-1.6432,0,0,0,0.0679856,-0.0422503,0.0880089,-0.0577003,-1.64319,0,0,0,0,0,0,0,0,0,0,0.432618,-0.107428,0.356066,-1.5,0,0,0,1,0.0679856,-0.0422503,0,0,0,0,0.0880089,-0.0577003,1.9603e-19,0,0,0,0,0,0,0,0,0,2.51,0.0845005
9253,0,0,6.68945,5.9686e-06,0.001363,-0.000825217,0.00928891,-0.00567777,-1.64321,0,0,0,0.0695792,-0.0432962,0.0887783,-0.0582987,-1.64321,0,0,0,0,0,0,0,0,0,0,0.432568,-0.106748,0.373429,-1.5,0,0,0,2,0.0695792,-0.0432962,0,0,0,0,0.0887783,-0.0582987,1.9603e-19,0,0,0,0,0,0,0,0,0,2.51,0.0865924
9268,0,0,6.68945,5.9686e-06,0.001363,-0.000825217,0.00928891,-0.00567777,-1.64321,0,0,0,0.070917,-0.0441755,0.0894136,-0.0587923,-1.64321,0,0,0,0,0,0,0,0,0,0,0.432527,-0.106186,0.386041,-1.5,0,0,0,3,0.070917,-0.0441755,0,0,0,0,0.0894136,-0.0587923,1.9603e-19,0,0,0,0,0,0,0,0,0,2.51,0.0883509
9281,0,0,0.207031,-0.000498596,-0.00115289,-0.00132334,0.00927808,-0.00569588,-1.64324,0,0,0,0.0720837,-0.0449431,0.0899597,-0.0592177,-1.64324,0,0,0,0,0,0,0,0,0,0,0.43249,-0.105685,0.380621,-1.5,0,0,0,0,0.0720837,-0.0449431,0,0,0,0,0.0899597,-0.0592177,1.9603e-19,0,0,0,0,0,0,0,0,0,2.51,0.0898863
9297,0,0,-7.34766,7.17197e-05,-0.000137772,-0.000995911,0.00926695,-0.00570109,-1.64326,0,0,0,0.0735301,-0.0458961,0.0906253,-0.0597399,-1.64326,0,0,0,0,0,0,0,0,0,0,0.432444,-0.10507,0.376162,-1.5,0,0,0,1,0.0735301,-0.0458961,0,0,0,0,0.0906253,-0.0597399,1.9603e-19,0,0,0,0,0,0,0,0,0,2.51,0.0917922
9313,0,0,2.85547,0.000564108,-0.000445892,-0.00046547,0.00928211,-0.00571229,-1.64327,0,0,0,0.0748954,-0.0467969,0.0912442,-0.0602268,-1.64327,0,0,0,0,0,0,0,0,0,0,0.432402,-0.104496,0.38875,-1.5,0,0,0,2,0.0748954,-0.0467969,0,0,0,0,0.0912442,-0.0602268,1.9603e-19,0,0,0,0,0,0,0,0,0,2.51,0.0935938
9329,0,0,4.95312,0.00105873,0.000112275,-0.00165824,0.00928459,-0.00571509,-1.64331,0,0,0,0.0763622,-0.047766,0.0919001,-0.0607435,-1.64329,0,0,0,0,0,0,0,0,0,0,0.432356,-0.103875,0.402866,-1.5,0,0,0,3,0.0763622,-0.047766,0,0,0,0,0.0919001,-0.0607435,1.9603e-19,0,0,0,0,0,0,0,0,0,2.51,0.0955319
9344,0,0,-2.85645,0.000899802,0.000125412,-0.000459436,0.00929022,-0.00571658,-1.64331,0,0,0,0.0778393,-0.0487431,0.0925509,-0.0612564,-1.64331,0,0,0,0,0,0,0,0,0,0,0.43231,-0.103252,0.395015,-1.5,0,0,0,0,0.0778393,-0.0487431,0,0,0,0,0.0925509,-0.0612564,1.9603e-19,0,0,0,0,0,0,0,0,0,2.51,0.0974862
9360,0,0,5.67676,-0.00116516,-0.00104509,-4.74369e-05,0.0092714,-0.00573099,-1.64332,0,0,0,0.0793267,-0.0497284,0.0931976,-0.0617654,-1.64331,0,0,0,0,0,0,0,0,0,0,0.432265,-0.102632,0.39262,-1.5,0,0,0,1,0.0793267,-0.0497284,0,0,0,0,0.0931976,-0.0617654,1.9603e-19,0,0,0,0,0,0,0,0,0,2.51,0.0994568
9375,0,0,2.19336,0.000121325,-0.000375035,-0.000869769,0.00927816,-0.00573926,-1.64333,0,0,0,0.0807304,-0.0506595,0.0937969,-0.0622412,-1.64333,0,0,0,0,0,0,0,0,0,0,0.432221,-0.10204,0.405143,-1.5,0,0,0,2,0.0807304,-0.0506595,0,0,0,0,0.0937969,-0.0622412,1.9603e-19,0,0,0,0,0,0,0,0,0,2.51,0.101319
9391,0,0,1.20312,-0.000400833,0.000174892,-0.000906449,0.00927106,-0.00574003,-1.64334,0,0,0,0.0822379,-0.0516606,0.0944317,-0.0627459,-1.64334,0,0,0,0,0,0,0,0,0,0,0.432175,-0.101411,0.419193,-1.5,0,0,0,3,0.0822379,-0.0516606,0,0,0,0,0.0944317,-0.0627459,1.9603e-19,0,0,0,0,0,0,0,0,0,2.51,0.103321
9407,0,0,1.20312,-0.000400833,0.000174892,-0.000906449,0.00927106,-0.00574003,-1.64334,0,0,0,0.0837552,-0.0526697,0.0950605,-0.0632466,-1.64334,0,0,0,0,0,0,0,0,0,0,0.432129,-0.100783,0.408135,-1.5,0,0,0,0,0.0837552,-0.0526697,0,0,0,0,0.0950605,-0.0632466,1.9603e-19,0,0,0,0,0,0,0,0,0,2.51,0.105339
9422,0,0,6.69531,-0.000674136,0.000443131,0.000284433,0.00924384,-0.00575291,-1.64334,0,0,0,0.0851867,-0.0536229,0.0956438,-0.063713,-1.64334,0,0,0,0,0,0,0,0,0,0,0.432086,-0.10019,0.40394,-1.5,0,0,0,1,0.0851867,-0.0536229,0,0,0,0,0.0956438,-0.063713,1.9603e-19,0,0,0,0,0,0,0,0,0,2.51,0.107246
9437,0,0,6.69531,-0.000674136,0.000443131,0.000284433,0.00924384,-0.00575291,-1.64334,0,0,0,0.086627,-0.0545831,0.0962203,-0.0641768,-1.64334,0,0,0,0,0,0,0,0,0,0,0.432043,-0.0995958,0.416418,-1.5,0,0,0,2,0.086627,-0.0545831,0,0,0,0,0.0962203,-0.0641768,1.9603e-19,0,0,0,0,0,0,0,0,0,2.51,0.109166
9453,0,0,-7.33887,0.00045465,-5.61254e-05,-0.00103838,0.00926175,-0.00577107,-1.64338,0,0,0,0.0881727,-0.0556149,0.0968304,-0.0646678,-1.64334,0,0,0,0,0,0,0,0,0,0,0.431997,-0.0989588,0.428009,-1.5,0,0,0,3,0.0881727,-0.0556149,0,0,0,0,0.0968304,-0.0646678,1.9603e-19,0,0,0,0,0,0,0,0,0,2.51,0.11123
9469,0,0,2.84473,-0.00205266,-0.000114056,0.000337385,0.00924471,-0.00578128,-1.64336,0,0,0,0.0897282,-0.0566546,0.0974371,-0.0651566,-1.64338,0,0,0,0,0,0,0,0,0,0,0.431948,-0.0983047,0.420058,-1.5,0,0,0,0,0.0897282,-0.0566546,0,0,0,0,0.0974371,-0.0651566,1.9603e-19,0,0,0,0,0,0,0,0,0,2.51,0.113309
9482,0,0,2.39746,-0.000687127,-0.000199482,9.63206e-05,0.00922974,-0.00578875,-1.64337,0,0,0,0.0909988,-0.0575048,0.097925,-0.0655529,-1.64336,0,0,0,0,0,0,0,0,0,0,0.431911,-0.0977871,0.419724,-1.5,0,0,0,1,0.0909988,-0.0575048,0,0,0,0,0.097925,-0.0655529,1.9603e-19,0,0,0,0,0,0,0,0,0,2.51,0.11501
9496,0,0,2.39746,-0.000687127,-0.000199482,9.63206e-05,0.00922974,-0.00578875,-1.64337,0,0,0,0.0923742,-0.0584262,0.0984455,-0.0659774,-1.64337,0,0,0,0,0,0,0,0,0,0,0.431869,-0.0972171,0.43058,-1.5,0,0,0,2,0.0923742,-0.0584262,0,0,0,0,0.0984455,-0.0659774,1.9603e-19,0,0,0,0,0,0,0,0,0,2.51,0.116852
9511,0,0,-2.82422,0.000305788,-0.00106898,-0.000984932,0.00925541,-0.00580562,-1.64341,0,0,0,0.0938561,-0.0594201,0.0989985,-0.0664294,-1.64337,0,0,0,0,0,0,0,0,0,0,0.431825,-0.0966088,0.439835,-1.5,0,0,0,3,0.0938561,-0.0594201,0,0,0,0,0.0989985,-0.0664294,1.9603e-19,0,0,0,0,0,0,0,0,0,2.51,0.11884
9527,0,0,5.67285,0.000878765,-0.000618969,0.00013359,0.00926251,-0.00582307,-1.64341,0,0,0,0.0954461,-0.0604879,0.0995877,-0.0669112,-1.64341,0,0,0,0,0,0,0,0,0,0,0.431774,-0.0959411,0.429408,-1.5,0,0,0,0,0.0954461,-0.0604879,0,0,0,0,0.0995877,-0.0669112,1.9603e-19,0,0,0,0,0,0,0,0,0,2.51,0.120976
9543,0,0,2.19043,0.000383018,0.000351467,-0.000924429,0.00927277,-0.00581597,-1.64342,0,0,0,0.0970455,-0.0615634,0.100174,-0.0673913,-1.64342,0,0,0,0,0,0,0,0,0,0,0.431726,-0.0952811,0.423267,-1.5,0,0,0,1,0.0970455,-0.0615634,0,0,0,0,0.100174,-0.0673913,1.9603e-19,0,0,0,0,0,0,0,0,0,2.51,0.123127
9559,0,0,1.21289,-0.000348712,0.000592628,0.000881484,0.0092731,-0.00581934,-1.64342,0,0,0,0.0986542,-0.0626465,0.100756,-0.0678671,-1.64342,0,0,0,0,0,0,0,0,0,0,0.431678,-0.0946229,0.437238,-1.5,0,0,0,2,0.0986542,-0.0626465,0,0,0,0,0.100756,-0.0678671,1.9603e-19,0,0,0,0,0,0,0,0,0,2.51,0.125293
9574,0,0,2.39355,0.000520618,0.000585724,-0.000527426,0.00926862,-0.00581963,-1.64343,0,0,0,0.100171,-0.0636688,0.101297,-0.0683101,-1.64343,0,0,0,0,0,0,0,0,0,0,0.431632,-0.0939977,0.449595,-1.5,0,0,0,3,0.100171,-0.0636688,0,0,0,0,0.101297,-0.0683101,1.9603e-19,0,0,0,0,0,0,0,0,0,2.51,0.127338
9590,0,0,6.70801,0.000417311,0.000312185,-0.00039435,0.0092816,-0.00582098,-1.64343,0,0,0,0.101797,-0.0647665,0.101871,-0.068779,-1.64343,0,0,0,0,0,0,0,0,0,0,0.431584,-0.0933337,0.438416,-1.5,0,0,0,0,0.101797,-0.0647665,0,0,0,0,0.101871,-0.068779,1.9603e-19,0,0,0,0,0,0,0,0,0,2.51,0.129533
9605,0,0,0.25,0.00016696,0.000211291,-0.00154759,0.00926165,-0.00582629,-1.64346,0,0,0,0.103331,-0.0658024,0.102406,-0.0692154,-1.64343,0,0,0,0,0,0,0,0,0,0,0.431538,-0.0927083,0.433678,-1.5,0,0,0,1,0.103331,-0.0658024,0,0,0,0,0.102406,-0.0692154,1.9603e-19,0,0,0,0,0,0,0,0,0,2.51,0.131605
9620,0,0,-7.31836,0.000938534,-0.000722142,-0.00107497,0.00927457,-0.00582623,-1.64348,0,0,0,0.104872,-0.0668448,0.102935,-0.0696489,-1.64346,0,0,0,0,0,0,0,0,0,0,0.43149,-0.0920644,0.446036,-1.5,0,0,0,2,0.104872,-0.0668448,0,0,0,0,0.102935,-0.0696489,1.9603e-19,0,0,0,0,0,0,0,0,0,2.51,0.13369
9636,0,0,2.81934,-0.00238331,-0.00136377,-0.00149642,0.0092459,-0.00584833,-1.64349,0,0,0,0.106525,-0.067964,0.103494,-0.0701087,-1.64349,0,0,0,0,0,0,0,0,0,0,0.431438,-0.0913786,0.459922,-1.5,0,0,0,3,0.106525,-0.067964,0,0,0,0,0.103494,-0.0701087,1.9603e-19,0,0,0,0,0,0,0,0,0,2.51,0.135928
9652,0,0,2.38867,0.00117126,0.000128009,0.000181203,0.00924225,-0.00584311,-1.64349,0,0,0,0.108186,-0.0690905,0.104045,-0.0705672,-1.64349,0,0,0,0,0,0,0,0,0,0,0.431389,-0.0907032,0.451843,-1.5,0,0,0,0,0.108186,-0.0690905,0,0,0,0,0.104045,-0.0705672,1.9603e-19,0,0,0,0,0,0,0,0,0,2.51,0.138181
9668,0,0,2.38867,0.00117126,0.000128009,0.000181203,0.00924225,-0.00584311,-1.64349,0,0,0,0.109856,-0.0702242,0.104592,-0.0710214,-1.64349,0,0,0,0,0,0,0,0,0,0,0.43134,-0.0900246,0.445967,-1.5,0,0,0,1,0.109856,-0.0702242,0,0,0,0,0.104592,-0.0710214,1.9603e-19,0,0,0,0,0,0,0,0,0,2.51,0.140448
9683,0,0,-2.8457,-0.00190358,-0.000873305,-0.000623853,0.00920604,-0.00585906,-1.64349,0,0,0,0.11143,-0.0712936,0.105098,-0.0714448,-1.64349,0,0,0,0,0,0,0,0,0,0,0.431293,-0.0893864,0.458276,-1.5,0,0,0,2,0.11143,-0.0712936,0,0,0,0,0.105098,-0.0714448,1.9603e-19,0,0,0,0,0,0,0,0,0,2.51,0.142587
9697,0,0,5.67871,0.000210777,0.000766071,-0.000506788,0.00921048,-0.00585766,-1.6435,0,0,0,0.112906,-0.0722972,0.105564,-0.071838,-1.6435,0,0,0,0,0,0,0,0,0,0,0.431249,-0.0887833,0.465856,-1.5,0,0,0,3,0.112906,-0.0722972,0,0,0,0,0.105564,-0.071838,1.9603e-19,0,0,0,0,0,0,0,0,0,2.51,0.144594
9710,0,0,2.16895,-0.000751581,-0.000289245,-0.00151189,0.00920724,-0.00585395,-1.64351,0,0,0,0.114281,-0.073234,0.105994,-0.0722003,-1.64351,0,0,0,0,0,0,0,0,0,0,0.431207,-0.0882211,0.459956,-1.5,0,0,0,0,0.114281,-0.073234,0,0,0,0,0.105994,-0.0722003,1.9603e-19,0,0,0,0,0,0,0,0,0,2.51,0.146468
9726,0,0,1.21582,-0.00112043,-0.000229134,-0.00144459,0.00918397,-0.00586306,-1.64353,0,0,0,0.115983,-0.0743938,0.106517,-0.0726433,-1.64353,0,0,0,0,0,0,0,0,0,0,0.431156,-0.0875258,0.453916,-1.5,0,0,0,1,0.115983,-0.0743938,0,0,0,0,0.106517,-0.0726433,1.9603e-19,0,0,0,0,0,0,0,0,0,2.51,0.148788
9741,0,0,2.42188,0.00138733,-7.19926e-05,-0.000635839,0.00921535,-0.00585923,-1.64354,0,0,0,0.117585,-0.0754875,0.107004,-0.073056,-1.64354,0,0,0,0,0,0,0,0,0,0,0.431108,-0.0868745,0.466193,-1.5,0,0,0,2,0.117585,-0.0754875,0,0,0,0,0.107004,-0.073056,1.9603e-19,0,0,0,0,0,0,0,0,0,2.51,0.150975
9757,0,0,-3.39355,0.000190513,-0.00169516,-0.00161346,0.00918351,-0.00589061,-1.64357,0,0,0,0.119303,-0.0766608,0.107523,-0.0734927,-1.64354,0,0,0,0,0,0,0,0,0,0,0.431057,-0.0861805,0.480005,-1.5,0,0,0,3,0.119303,-0.0766608,0,0,0,0,0.107523,-0.0734927,1.9603e-19,0,0,0,0,0,0,0,0,0,2.51,0.153322
9773,0,0,0.222656,0.000936816,9.51179e-05,-0.000476087,0.00920645,-0.00589827,-1.64357,0,0,0,0.121028,-0.0778412,0.108034,-0.0739285,-1.64357,0,0,0,0,0,0,0,0,0,0,0.431003,-0.0854666,0.468704,-1.5,0,0,0,0,0.121028,-0.0778412,0,0,0,0,0.108034,-0.0739285,1.9603e-19,0,0,0,0,0,0,0,0,0,2.51,0.155682
9788,0,0,-7.34473,-0.00164506,-0.000541196,-0.000327406,0.00917964,-0.0059166,-1.64358,0,0,0,0.122653,-0.078954,0.10851,-0.0743374,-1.64358,0,0,0,0,0,0,0,0,0,0,0.430954,-0.0848058,0.463423,-1.5,0,0,0,1,0.122653,-0.078954,0,0,0,0,0.10851,-0.0743374,1.9603e-19,0,0,0,0,0,0,0,0,0,2.51,0.157908
9804,0,0,-7.34473,-0.00164506,-0.000541196,-0.000327406,0.00917964,-0.0059166,-1.64358,0,0,0,0.124286,-0.0800731,0.108978,-0.0747454,-1.64358,0,0,0,0,0,0,0,0,0,0,0.430906,-0.0841461,0.475662,-1.5,0,0,0,2,0.124286,-0.0800731,0,0,0,0,0.108978,-0.0747454,1.9603e-19,0,0,0,0,0,0,0,0,0,2.51,0.160146
9819,0,0,-7.34473,-0.00164506,-0.000541196,-0.000327406,0.00917964,-0.0059166,-1.64358,0,0,0,0.126034,-0.0812734,0.109475,-0.0751772,-1.64358,0,0,0,0,0,0,0,0,0,0,0.430855,-0.0834398,0.487865,-1.5,0,0,0,3,0.126034,-0.0812734,0,0,0,0,0.109475,-0.0751772,1.9603e-19,0,0,0,0,0,0,0,0,0,2.51,0.162547
9835,0,0,-7.34473,-0.00164506,-0.000541196,-0.000327406,0.00917964,-0.0059166,-1.64358,0,0,0,0.127791,-0.0824806,0.109967,-0.0756055,-1.64358,0,0,0,0,0,0,0,0,0,0,0.430803,-0.082731,0.479675,-1.5,0,0,0,0,0.127791,-0.0824806,0,0,0,0,0.109967,-0.0756055,1.9603e-19,0,0,0,0,0,0,0,0,0,2.51,0.164961
9850,0,0,-2.83691,0.0012956,-0.000431998,-0.000898954,0.00920947,-0.00594385,-1.64361,0,0,0,0.129445,-0.0836185,0.110427,-0.0760057,-1.64361,0,0,0,0,0,0,0,0,0,0,0.430752,-0.0820541,0.474197,-1.5,0,0,0,1,0.129445,-0.0836185,0,0,0,0,0.110427,-0.0760057,1.9603e-19,0,0,0,0,0,0,0,0,0,2.51,0.167237
9866,0,0,5.66602,-0.000276144,-0.000911837,-0.000147184,0.00919773,-0.00595842,-1.64361,0,0,0,0.131217,-0.0848391,0.110915,-0.076433,-1.64361,0,0,0,0,0,0,0,0,0,0,0.4307,-0.0813379,0.487957,-1.5,0,0,0,2,0.131217,-0.0848391,0,0,0,0,0.110915,-0.076433,1.9603e-19,0,0,0,0,0,0,0,0,0,2.51,0.169678
9882,0,0,1.22559,0.000466825,-0.000168766,-0.00151836,0.00919404,-0.00596928,-1.64364,0,0,0,0.132885,-0.0859895,0.111367,-0.0768323,-1.64363,0,0,0,0,0,0,0,0,0,0,0.430649,-0.0806571,0.500111,-1.5,0,0,0,3,0.132885,-0.0859895,0,0,0,0,0.111367,-0.0768323,1.9603e-19,0,0,0,0,0,0,0,0,0,2.51,0.171979
9898,0,0,1.22559,0.000466825,-0.000168766,-0.00151836,0.00919404,-0.00596928,-1.64364,0,0,0,0.134784,-0.0873006,0.111875,-0.0772825,-1.64364,0,0,0,0,0,0,0,0,0,0,0.430592,-0.0798854,0.487166,-1.5,0,0,0,0,0.134784,-0.0873006,0,0,0,0,0.111875,-0.0772825,1.9603e-19,0,0,0,0,0,0,0,0,0,2.51,0.174601
9911,0,0,1.22559,0.000466825,-0.000168766,-0.00151836,0.00919404,-0.00596928,-1.64364,0,0,0,0.136241,-0.088308,0.112261,-0.0776239,-1.64364,0,0,0,0,0,0,0,0,0,0,0.430549,-0.0792979,0.4829,-1.5,0,0,0,1,0.136241,-0.088308,0,0,0,0,0.112261,-0.0776239,1.9603e-19,0,0,0,0,0,0,0,0,0,2.51,0.176616
9925,0,0,-3.33887,0.000359342,-0.00112579,-0.000694907,0.00917003,-0.00600435,-1.64366,0,0,0,0.137816,-0.0893979,0.112674,-0.0779891,-1.64364,0,0,0,0,0,0,0,0,0,0,0.430503,-0.0786634,0.493503,-1.5,0,0,0,2,0.137816,-0.0893979,0,0,0,0,0.112674,-0.0779891,1.9603e-19,0,0,0,0,0,0,0,0,0,2.51,0.178796
9940,0,0,0.253906,6.18095e-05,0.000430562,-0.000199305,0.009174,-0.0060048,-1.64367,0,0,0,0.139511,-0.0905714,0.113109,-0.0783825,-1.64366,0,0,0,0,0,0,0,0,0,0,0.430451,-0.0779706,0.502506,-1.5,0,0,0,3,0.139511,-0.0905714,0,0,0,0,0.113109,-0.0783825,1.9603e-19,0,0,0,0,0,0,0,0,0,2.51,0.181143
9956,0,0,-7.33789,0.000383407,0.000241639,-0.00113966,0.00916143,-0.00600899,-1.64368,0,0,0,0.141211,-0.0917509,0.113541,-0.0787733,-1.64368,0,0,0,0,0,0,0,0,0,0,0.430399,-0.077277,0.492686,-1.5,0,0,0,0,0.141211,-0.0917509,0,0,0,0,0.113541,-0.0787733,1.9603e-19,0,0,0,0,0,0,0,0,0,2.51,0.183502
9971,0,0,-7.33789,0.000383407,0.000241639,-0.00113966,0.00916143,-0.00600899,-1.64368,0,0,0,0.143033,-0.0930157,0.113997,-0.0791874,-1.64368,0,0,0,0,0,0,0,0,0,0,0.430345,-0.0765431,0.485993,-1.5,0,0,0,1,0.143033,-0.0930157,0,0,0,0,0.113997,-0.0791874,1.9603e-19,0,0,0,0,0,0,0,0,0,2.51,0.186031
9987,0,0,2.40039,-0.000443709,-0.000946278,-9.64526e-05,0.00915972,-0.00602516,-1.64369,0,0,0,0.144747,-0.0942072,0.114421,-0.0795735,-1.64369,0,0,0,0,0,0,0,0,0,0,0.430294,-0.0758466,0.498142,-1.5,0,0,0,2,0.144747,-0.0942072,0,0,0,0,0.114421,-0.0795735,1.9603e-19,0,0,0,0,0,0,0,0,0,2.51,0.188414
10002,0,0,2.40039,-0.000443709,-0.000946278,-9.64526e-05,0.00915972,-0.00602516,-1.64369,0,0,0,0.146582,-0.0954846,0.114869,-0.0799837,-1.64369,0,0,0,0,0,0,0,0,0,0,0.43024,-0.0751073,0.510255,-1.5,0,0,0,3,0.146582,-0.0954846,0,0,0,0,0.114869,-0.0799837,1.9603e-19,0,0,0,0,0,0,0,0,0,2.51,0.190969
10017,0,0,2.40039,-0.000443709,-0.000946278,-9.64526e-05,0.00915972,-0.00602516,-1.64369,0,0,0,0.148309,-0.096688,0.115286,-0.0803652,-1.64369,0,0,0,0,0,0,0,0,0,0,0.430189,-0.0744121,0.500404,-1.5,0,0,0,0,0.148309,-0.096688,0,0,0,0,0.115286,-0.0803652,1.9603e-19,0,0,0,0,0,0,0,0,0,2.51,0.193376
10078,0,0,6.69922,0.00044561,-9.43144e-05,-0.000387222,0.00914595,-0.00606795,-1.64373,0,0,0,0.155431,-0.101672,0.116966,-0.0819053,-1.64373,0,0,0,0,0,0,0,0,0,0,0.429975,-0.0715257,0.449697,-1.5,0,0,0,1,0.155431,-0.101672,0,0,0,0,0.116966,-0.0819053,1.9603e-19,0,0,0,0,0,0,0,0,0,2.51,0.203344
10093,0,0,-3.37305,-0.000736865,-0.00102252,-0.000164618,0.00915118,-0.00607868,-1.64374,0,0,0,0.157189,-0.102904,0.117365,-0.0822791,-1.64374,0,0,0,0,0,0,0,0,0,0,0.429923,-0.0708158,0.461992,-1.5,0,0,0,2,0.157189,-0.102904,0,0,0,0,0.117365,-0.0822791,1.9603e-19,0,0,0,0,0,0,0,0,0,2.51,0.205808
10109,0,0,0.21582,-0.00101017,-0.000176776,-0.00123758,0.00913927,-0.00607464,-1.64375,0,0,0,0.159071,-0.104225,0.117788,-0.0826757,-1.64375,0,0,0,0,0,0,0,0,0,0,0.429866,-0.0700514,0.47582,-1.5,0,0,0,3,0.159071,-0.104225,0,0,0,0,0.117788,-0.0826757,1.9603e-19,0,0,0,0,0,0,0,0,0,2.51,0.208449
10124,0,0,-7.3457,0.00109306,0.000339191,-0.0023326,0.00913956,-0.00607551,-1.64378,0,0,0,0.160842,-0.105468,0.118179,-0.0830443,-1.64378,0,0,0,0,0,0,0,0,0,0,0.429812,-0.0693295,0.469242,-1.5,0,0,0,0,0.160842,-0.105468,0,0,0,0,0.118179,-0.0830443,1.9603e-19,0,0,0,0,0,0,0,0,0,2.51,0.210936
10140,0,0,-7.3457,0.00109306,0.000339191,-0.0023326,0.00913956,-0.00607551,-1.64378,0,0,0,0.162618,-0.106717,0.118568,-0.0834102,-1.64378,0,0,0,0,0,0,0,0,0,0,0.429759,-0.0686153,0.463951,-1.5,0,0,0,1,0.162618,-0.106717,0,0,0,0,0.118568,-0.0834102,1.9603e-19,0,0,0,0,0,0,0,0,0,2.51,0.213435
10158,0,0,4.98047,0.000434901,2.94888e-05,-0.000268802,0.00912996,-0.00608952,-1.64378,0,0,0,0.164877,-0.108308,0.119056,-0.0838709,-1.64378,0,0,0,0,0,0,0,0,0,0,0.429692,-0.0677048,0.482453,-1.5,0,0,0,2,0.164877,-0.108308,0,0,0,0,0.119056,-0.0838709,1.9603e-19,0,0,0,0,0,0,0,0,0,2.51,0.216616
10172,0,0,-2.82812,0.000868731,-0.000408624,-0.000623752,0.00914302,-0.00609167,-1.64379,0,0,0,0.166428,-0.109401,0.119386,-0.0841844,-1.64378,0,0,0,0,0,0,0,0,0,0,0.429647,-0.0670808,0.4915,-1.5,0,0,0,3,0.166428,-0.109401,0,0,0,0,0.119386,-0.0841844,1.9603e-19,0,0,0,0,0,0,0,0,0,2.51,0.218802
10185,0,0,5.66016,-0.00122606,4.80538e-05,-0.00048702,0.00911767,-0.00609822,-1.6438,0,0,0,0.168102,-0.110582,0.11974,-0.0845201,-1.64379,0,0,0,0,0,0,0,0,0,0,0.429597,-0.0664074,0.486424,-1.5,0,0,0,0,0.168102,-0.110582,0,0,0,0,0.11974,-0.0845201,1.9603e-19,0,0,0,0,0,0,0,0,0,2.51,0.221165
10201,0,0,2.20215,0.000151752,-0.00021633,-0.000822201,0.00911674,-0.00610217,-1.64381,0,0,0,0.169902,-0.111854,0.120116,-0.0848777,-1.6438,0,0,0,0,0,0,0,0,0,0,0.429543,-0.0656799,0.480824,-1.5,0,0,0,1,0.169902,-0.111854,0,0,0,0,0.120116,-0.0848777,1.9603e-19,0,0,0,0,0,0,0,0,0,2.51,0.223707
10216,0,0,1.24219,-0.0017363,-5.60749e-05,-0.00100288,0.00911423,-0.00610175,-1.64382,0,0,0,0.171828,-0.113216,0.120511,-0.0852573,-1.64381,0,0,0,0,0,0,0,0,0,0,0.429485,-0.0649013,0.49143,-1.5,0,0,0,2,0.171828,-0.113216,0,0,0,0,0.120511,-0.0852573,1.9603e-19,0,0,0,0,0,0,0,0,0,2.51,0.226431
10232,0,0,2.44336,8.7628e-05,-0.000939231,-0.00131101,0.00910591,-0.00612057,-1.64385,0,0,0,0.17376,-0.114583,0.120902,-0.0856344,-1.64385,0,0,0,0,0,0,0,0,0,0,0.429424,-0.0641074,0.502005,-1.5,0,0,0,3,0.17376,-0.114583,0,0,0,0,0.120902,-0.0856344,1.9603e-19,0,0,0,0,0,0,0,0,0,2.51,0.229167
10247,0,0,6.69238,0.00030877,-0.000110683,-0.000298948,0.00910819,-0.00612633,-1.64385,0,0,0,0.175577,-0.115871,0.121265,-0.0859875,-1.64385,0,0,0,0,0,0,0,0,0,0,0.42937,-0.0633759,0.492187,-1.5,0,0,0,0,0.175577,-0.115871,0,0,0,0,0.121265,-0.0859875,1.9603e-19,0,0,0,0,0,0,0,0,0,2.51,0.231743
10263,0,0,-3.3584,-0.00186328,-0.00061781,8.38534e-05,0.00909743,-0.00613414,-1.64385,0,0,0,0.177521,-0.117251,0.121649,-0.0863624,-1.64385,0,0,0,0,0,0,0,0,0,0,0.429313,-0.0625932,0.485504,-1.5,0,0,0,1,0.177521,-0.117251,0,0,0,0,0.121649,-0.0863624,1.9603e-19,0,0,0,0,0,0,0,0,0,2.51,0.234502
10279,0,0,0.270508,0.000136116,-0.000891326,-0.00134905,0.0090847,-0.00614658,-1.64387,0,0,0,0.179349,-0.11855,0.122004,-0.0867124,-1.64387,0,0,0,0,0,0,0,0,0,0,0.429257,-0.0618495,0.497655,-1.5,0,0,0,2,0.179349,-0.11855,0,0,0,0,0.122004,-0.0867124,1.9603e-19,0,0,0,0,0,0,0,0,0,2.51,0.2371
10295,0,0,-7.32031,0.000949742,-0.00100778,-0.000266733,0.00909866,-0.00616335,-1.64388,0,0,0,0.181305,-0.119941,0.122379,-0.0870851,-1.64388,0,0,0,0,0,0,0,0,0,0,0.429198,-0.0610602,0.511335,-1.5,0,0,0,3,0.181305,-0.119941,0,0,0,0,0.122379,-0.0870851,1.9603e-19,0,0,0,0,0,0,0,0,0,2.51,0.239883
10310,0,0,2.39844,0.000494553,4.62249e-05,-0.00129133,0.0090867,-0.00616274,-1.6439,0,0,0,0.183267,-0.121338,0.122753,-0.0874561,-1.64389,0,0,0,0,0,0,0,0,0,0,0.429139,-0.0602661,0.50305,-1.5,0,0,0,0,0.183267,-0.121338,0,0,0,0,0.122753,-0.0874561,1.9603e-19,0,0,0,0,0,0,0,0,0,2.51,0.242677
10326,0,0,4.96289,0.000512501,0.000748487,-0.00137065,0.0090889,-0.00615211,-1.64392,0,0,0,0.185235,-0.122741,0.123122,-0.087824,-1.6439,0,0,0,0,0,0,0,0,0,0,0.42908,-0.0594698,0.498717,-1.5,0,0,0,1,0.185235,-0.122741,0,0,0,0,0.123122,-0.087824,1.9603e-19,0,0,0,0,0,0,0,0,0,2.51,0.245483
10341,0,0,-2.84082,-0.00075114,-0.000668274,-0.00132903,0.00907822,-0.00615734,-1.64393,0,0,0,0.187085,-0.124062,0.123465,-0.0881651,-1.64393,0,0,0,0,0,0,0,0,0,0,0.429023,-0.0587155,0.510815,-1.5,0,0,0,2,0.187085,-0.124062,0,0,0,0,0.123465,-0.0881651,1.9603e-19,0,0,0,0,0,0,0,0,0,2.51,0.248124
10357,0,0,5.70312,0.000434832,0.000513619,-0.000960979,0.00908103,-0.00615693,-1.64394,0,0,0,0.188941,-0.125388,0.123804,-0.0885043,-1.64394,0,0,0,0,0,0,0,0,0,0,0.428966,-0.0579634,0.522878,-1.5,0,0,0,3,0.188941,-0.125388,0,0,0,0,0.123804,-0.0885043,1.9603e-19,0,0,0,0,0,0,0,0,0,2.51,0.250776
10372,0,0,5.70312,0.000434832,0.000513619,-0.000960979,0.00908103,-0.00615693,-1.64394,0,0,0,0.190925,-0.126808,0.124164,-0.0888632,-1.64394,0,0,0,0,0,0,0,0,0,0,0.428908,-0.0571658,0.511412,-1.5,0,0,0,0,0.190925,-0.126808,0,0,0,0,0.124164,-0.0888632,1.9603e-19,0,0,0,0,0,0,0,0,0,2.51,0.253615
10385,0,0,1.21973,-0.0013996,-0.000743794,0.000614876,0.00908921,-0.0061752,-1.64394,0,0,0,0.192542,-0.127965,0.124454,-0.0891534,-1.64394,0,0,0,0,0,0,0,0,0,0,0.428861,-0.0565168,0.507401,-1.5,0,0,0,1,0.192542,-0.127965,0,0,0,0,0.124454,-0.0891534,1.9603e-19,0,0,0,0,0,0,0,0,0,2.51,0.255931
10399,0,0,1.21973,-0.0013996,-0.000743794,0.000614876,0.00908921,-0.0061752,-1.64394,0,0,0,0.194287,-0.129216,0.124765,-0.0894656,-1.64394,0,0,0,0,0,0,0,0,0,0,0.428809,-0.0558151,0.5179,-1.5,0,0,0,2,0.194287,-0.129216,0,0,0,0,0.124765,-0.0894656,1.9603e-19,0,0,0,0,0,0,0,0,0,2.51,0.258432
10414,0,0,6.69629,-0.00102142,0.000215856,-0.000447166,0.0090965,-0.0061927,-1.64396,0,0,0,0.196161,-0.130561,0.125096,-0.0897988,-1.64396,0,0,0,0,0,0,0,0,0,0,0.428751,-0.0550523,0.529935,-1.5,0,0,0,3,0.196161,-0.130561,0,0,0,0,0.125096,-0.0897988,1.9603e-19,0,0,0,0,0,0,0,0,0,2.51,0.261123
10430,0,0,-3.37891,-0.00107154,-0.000492565,-0.000353564,0.0090891,-0.00619575,-1.64396,0,0,0,0.198167,-0.132002,0.125447,-0.0901534,-1.64396,0,0,0,0,0,0,0,0,0,0,0.428692,-0.0542455,0.51844,-1.5,0,0,0,0,0.198167,-0.132002,0,0,0,0,0.125447,-0.0901534,1.9603e-19,0,0,0,0,0,0,0,0,0,2.51,0.264004
10446,0,0,0.245117,0.00060886,0.000303019,-0.000806411,0.00909192,-0.00619638,-1.64397,0,0,0,0.200177,-0.133448,0.125794,-0.0905055,-1.64397,0,0,0,0,0,0,0,0,0,0,0.428632,-0.0534337,0.511238,-1.5,0,0,0,1,0.200177,-0.133448,0,0,0,0,0.125794,-0.0905055,1.9603e-19,0,0,0,0,0,0,0,0,0,2.51,0.266896
10462,0,0,-7.34473,-0.000834373,-0.000914467,-0.00025571,0.00909469,-0.00621521,-1.64398,0,0,0,0.202194,-0.1349,0.126139,-0.0908561,-1.64398,0,0,0,0,0,0,0,0,0,0,0.428572,-0.0526202,0.524857,-1.5,0,0,0,2,0.202194,-0.1349,0,0,0,0,0.126139,-0.0908561,1.9603e-19,0,0,0,0,0,0,0,0,0,2.51,0.269799
10477,0,0,-7.34473,-0.000834373,-0.000914467,-0.00025571,0.00909469,-0.00621521,-1.64398,0,0,0,0.204089,-0.136266,0.12646,-0.0911837,-1.64398,0,0,0,0,0,0,0,0,0,0,0.428516,-0.0518574,0.534236,-1.5,0,0,0,3,0.204089,-0.136266,0,0,0,0,0.12646,-0.0911837,1.9603e-19,0,0,0,0,0,0,0,0,0,2.51,0.272531
10493,0,0,4.95117,-0.00118182,-2.09202e-05,-0.00137903,0.00908269,-0.00622878,-1.64399,0,0,0,0.206116,-0.137728,0.1268,-0.0915308,-1.64399,0,0,0,0,0,0,0,0,0,0,0.428454,-0.0510335,0.523243,-1.5,0,0,0,0,0.206116,-0.137728,0,0,0,0,0.1268,-0.0915308,1.9603e-19,0,0,0,0,0,0,0,0,0,2.51,0.275456
10508,0,0,-2.85059,-0.000584804,0.000312773,-0.000970689,0.00907253,-0.00623494,-1.644,0,0,0,0.208021,-0.139104,0.127113,-0.0918556,-1.644,0,0,0,0,0,0,0,0,0,0,0.428397,-0.050263,0.516983,-1.5,0,0,0,1,0.208021,-0.139104,0,0,0,0,0.127113,-0.0918556,1.9603e-19,0,0,0,0,0,0,0,0,0,2.51,0.278208
10524,0,0,5.7002,0.000869656,-0.000140568,-0.00137049,0.00908401,-0.00623436,-1.64402,0,0,0,0.210058,-0.140577,0.127445,-0.0922,-1.64402,0,0,0,0,0,0,0,0,0,0,0.428334,-0.0494325,0.530573,-1.5,0,0,0,2,0.210058,-0.140577,0,0,0,0,0.127445,-0.0922,1.9603e-19,0,0,0,0,0,0,0,0,0,2.51,0.281155
10539,0,0,5.7002,0.000869656,-0.000140568,-0.00137049,0.00908401,-0.00623436,-1.64402,0,0,0,0.211973,-0.141964,0.127754,-0.0925204,-1.64402,0,0,0,0,0,0,0,0,0,0,0.428277,-0.0486614,0.542556,-1.5,0,0,0,3,0.211973,-0.141964,0,0,0,0,0.127754,-0.0925204,1.9603e-19,0,0,0,0,0,0,0,0,0,2.51,0.283927
10555,0,0,1.22363,-0.000255479,-0.000192829,-0.000598507,0.0090718,-0.00625079,-1.64404,0,0,0,0.21402,-0.143447,0.128081,-0.0928605,-1.64404,0,0,0,0,0,0,0,0,0,0,0.428214,-0.0478294,0.531011,-1.5,0,0,0,0,0.21402,-0.143447,0,0,0,0,0.128081,-0.0928605,1.9603e-19,0,0,0,0,0,0,0,0,0,2.51,0.286895
10570,0,0,1.22363,-0.000255479,-0.000192829,-0.000598507,0.0090718,-0.00625079,-1.64404,0,0,0,0.215944,-0.144843,0.128383,-0.0931783,-1.64404,0,0,0,0,0,0,0,0,0,0,0.428158,-0.047054,0.524612,-1.5,0,0,0,1,0.215944,-0.144843,0,0,0,0,0.128383,-0.0931783,1.9603e-19,0,0,0,0,0,0,0,0,0,2.51,0.289687
10586,0,0,-3.39355,0.000825429,0.000132471,-0.00169967,0.00908941,-0.00628145,-1.64409,0,0,0,0.218002,-0.146338,0.128704,-0.0935146,-1.64404,0,0,0,0,0,0,0,0,0,0,0.428097,-0.046225,0.535042,-1.5,0,0,0,2,0.218002,-0.146338,0,0,0,0,0.128704,-0.0935146,1.9603e-19,0,0,0,0,0,0,0,0,0,2.51,0.292675
10600,0,0,0.248047,0.00189836,-0.00104521,-0.00110594,0.00910453,-0.00629623,-1.64411,0,0,0,0.219677,-0.147556,0.128963,-0.0937883,-1.64409,0,0,0,0,0,0,0,0,0,0,0.428041,-0.0455282,0.543879,-1.5,0,0,0,3,0.219677,-0.147556,0,0,0,0,0.128963,-0.0937883,1.9603e-19,0,0,0,0,0,0,0,0,0,2.51,0.295111
10613,0,0,-7.35547,-0.00167423,-0.000430698,-0.00116914,0.0090893,-0.00630021,-1.64412,0,0,0,0.221485,-0.148871,0.129243,-0.0940842,-1.64411,0,0,0,0,0,0,0,0,0,0,0.427985,-0.0447925,0.538593,-1.5,0,0,0,0,0.221485,-0.148871,0,0,0,0,0.129243,-0.0940842,1.9603e-19,0,0,0,0,0,0,0,0,0,2.51,0.297742
10629,0,0,2.80859,0.000648399,0.000556713,-0.000141739,0.00908885,-0.00630312,-1.64412,0,0,0,0.223556,-0.15038,0.129559,-0.0944211,-1.64412,0,0,0,0,0,0,0,0,0,0,0.427922,-0.0439513,0.533622,-1.5,0,0,0,1,0.223556,-0.15038,0,0,0,0,0.129559,-0.0944211,1.9603e-19,0,0,0,0,0,0,0,0,0,2.51,0.30076
10644,0,0,2.4209,-0.00129258,0.000191109,-0.00121467,0.00907407,-0.00630208,-1.64413,0,0,0,0.225502,-0.151799,0.129853,-0.0947352,-1.64412,0,0,0,0,0,0,0,0,0,0,0.427864,-0.043162,0.545581,-1.5,0,0,0,2,0.225502,-0.151799,0,0,0,0,0.129853,-0.0947352,1.9603e-19,0,0,0,0,0,0,0,0,0,2.51,0.303599
10660,0,0,4.99609,0.000211885,0.000190916,-0.00127162,0.00906994,-0.0063046,-1.64415,0,0,0,0.227583,-0.153319,0.130161,-0.0950674,-1.64415,0,0,0,0,0,0,0,0,0,0,0.427799,-0.0423107,0.559069,-1.5,0,0,0,3,0.227583,-0.153319,0,0,0,0,0.130161,-0.0950674,1.9603e-19,0,0,0,0,0,0,0,0,0,2.51,0.306637
10676,0,0,-2.83691,0.000726765,-0.000255563,-0.000809668,0.00907322,-0.00630995,-1.64416,0,0,0,0.229669,-0.154843,0.130466,-0.0953974,-1.64416,0,0,0,0,0,0,0,0,0,0,0.427736,-0.0414654,0.547451,-1.5,0,0,0,0,0.229669,-0.154843,0,0,0,0,0.130466,-0.0953974,1.9603e-19,0,0,0,0,0,0,0,0,0,2.51,0.309686
10692,0,0,5.67383,0.000149014,-0.0004188,-0.000644249,0.00907745,-0.00632326,-1.64416,0,0,0,0.231759,-0.156373,0.130769,-0.0957264,-1.64416,0,0,0,0,0,0,0,0,0,0,0.427673,-0.040617,0.539192,-1.5,0,0,0,1,0.231759,-0.156373,0,0,0,0,0.130769,-0.0957264,1.9603e-19,0,0,0,0,0,0,0,0,0,2.51,0.312746
10707,0,0,5.67383,0.000149014,-0.0004188,-0.000644249,0.00907745,-0.00632326,-1.64416,0,0,0,0.233723,-0.157812,0.131052,-0.0960335,-1.64416,0,0,0,0,0,0,0,0,0,0,0.427614,-0.039823,0.549564,-1.5,0,0,0,2,0.233723,-0.157812,0,0,0,0,0.131052,-0.0960335,1.9603e-19,0,0,0,0,0,0,0,0,0,2.51,0.315623
10723,0,0,5.67383,0.000149014,-0.0004188,-0.000644249,0.00907745,-0.00632326,-1.64416,0,0,0,0.235692,-0.159255,0.131332,-0.0963383,-1.64416,0,0,0,0,0,0,0,0,0,0,0.427556,-0.0390272,0.561472,-1.5,0,0,0,3,0.235692,-0.159255,0,0,0,0,0.131332,-0.0963383,1.9603e-19,0,0,0,0,0,0,0,0,0,2.51,0.31851
10738,0,0,6.67188,-0.000571621,-0.00129841,-0.00041847,0.00907442,-0.00636433,-1.6442,0,0,0,0.237796,-0.1608,0.131629,-0.096661,-1.64416,0,0,0,0,0,0,0,0,0,0,0.427493,-0.0381764,0.549851,-1.5,0,0,0,0,0.237796,-0.1608,0,0,0,0,0.131629,-0.096661,1.9603e-19,0,0,0,0,0,0,0,0,0,2.51,0.3216
10754,0,0,-3.35156,0.00138439,-0.000538607,-0.000299593,0.00908367,-0.00637348,-1.64422,0,0,0,0.239773,-0.162253,0.131905,-0.0969644,-1.6442,0,0,0,0,0,0,0,0,0,0,0.427429,-0.0373598,0.543114,-1.5,0,0,0,1,0.239773,-0.162253,0,0,0,0,0.131905,-0.0969644,1.9603e-19,0,0,0,0,0,0,0,0,0,2.51,0.324505
10769,0,0,0.274414,-0.000287962,-0.000906371,-0.000378013,0.0090772,-0.00638653,-1.64422,0,0,0,0.241887,-0.163808,0.132197,-0.0972901,-1.64422,0,0,0,0,0,0,0,0,0,0,0.427364,-0.0364966,0.556599,-1.5,0,0,0,2,0.241887,-0.163808,0,0,0,0,0.132197,-0.0972901,1.9603e-19,0,0,0,0,0,0,0,0,0,2.51,0.327615
10785,0,0,-7.30273,-0.000372694,-0.000827135,-0.000390489,0.00906943,-0.00639411,-1.64423,0,0,0,0.244005,-0.165367,0.132486,-0.0976154,-1.64423,0,0,0,0,0,0,0,0,0,0,0.427299,-0.0356314,0.567349,-1.5,0,0,0,3,0.244005,-0.165367,0,0,0,0,0.132486,-0.0976154,1.9603e-19,0,0,0,0,0,0,0,0,0,2.51,0.330735
10801,0,0,2.83594,0.00191852,-0.000628325,0.000426147,0.00909071,-0.00639794,-1.64423,0,0,0,0.246128,-0.166933,0.132772,-0.0979393,-1.64423,0,0,0,0,0,0,0,0,0,0,0.427236,-0.0347728,0.556157,-1.5,0,0,0,0,0.246128,-0.166933,0,0,0,0,0.132772,-0.0979393,1.9603e-19,0,0,0,0,0,0,0,0,0,2.51,0.333865
10814,0,0,2.40332,0.00125528,0.000327287,-0.000569497,0.00909389,-0.00640314,-1.64424,0,0,0,0.247856,-0.168208,0.133005,-0.098201,-1.64424,0,0,0,0,0,0,0,0,0,0,0.427184,-0.0340682,0.554195,-1.5,0,0,0,1,0.247856,-0.168208,0,0,0,0,0.133005,-0.098201,1.9603e-19,0,0,0,0,0,0,0,0,0,2.51,0.336416
10828,0,0,4.98242,0.000872579,-0.00074037,-0.000333162,0.00909577,-0.00641228,-1.64424,0,0,0,0.24972,-0.169585,0.133255,-0.0984821,-1.64424,0,0,0,0,0,0,0,0,0,0,0.427127,-0.0333086,0.564507,-1.5,0,0,0,2,0.24972,-0.169585,0,0,0,0,0.133255,-0.0984821,1.9603e-19,0,0,0,0,0,0,0,0,0,2.51,0.33917
10843,0,0,-2.83691,8.03822e-05,-0.0014905,-0.000134554,0.00910689,-0.00643425,-1.64424,0,0,0,0.251721,-0.171065,0.133521,-0.0987833,-1.64424,0,0,0,0,0,0,0,0,0,0,0.427067,-0.0324944,0.576355,-1.5,0,0,0,3,0.251721,-0.171065,0,0,0,0,0.133521,-0.0987833,1.9603e-19,0,0,0,0,0,0,0,0,0,2.51,0.342131
10859,0,0,5.69629,-0.00127241,-0.00217993,-0.000809057,0.00908852,-0.00645785,-1.64425,0,0,0,0.253861,-0.172649,0.133802,-0.0991056,-1.64425,0,0,0,0,0,0,0,0,0,0,0.427001,-0.0316199,0.564675,-1.5,0,0,0,0,0.253861,-0.172649,0,0,0,0,0.133802,-0.0991056,1.9603e-19,0,0,0,0,0,0,0,0,0,2.51,0.345298
10875,0,0,2.18652,0.000621509,-0.00040634,-0.000200444,0.00909253,-0.00646652,-1.64427,0,0,0,0.256004,-0.174238,0.134079,-0.0994281,-1.64427,0,0,0,0,0,0,0,0,0,0,0.426935,-0.0307416,0.556107,-1.5,0,0,0,1,0.256004,-0.174238,0,0,0,0,0.134079,-0.0994281,1.9603e-19,0,0,0,0,0,0,0,0,0,2.51,0.348476
10891,0,0,2.44824,0.000761772,-0.00122789,-0.00192838,0.00910528,-0.00650416,-1.64429,0,0,0,0.258152,-0.175832,0.134355,-0.0997502,-1.64427,0,0,0,0,0,0,0,0,0,0,0.426871,-0.0298659,0.566411,-1.5,0,0,0,2,0.258152,-0.175832,0,0,0,0,0.134355,-0.0997502,1.9603e-19,0,0,0,0,0,0,0,0,0,2.51,0.351665
10906,0,0,6.73242,0.00123906,-0.000418733,-0.00188874,0.00912435,-0.00650823,-1.6443,0,0,0,0.26017,-0.177331,0.134613,-0.100053,-1.64429,0,0,0,0,0,0,0,0,0,0,0.426808,-0.0290357,0.578251,-1.5,0,0,0,3,0.26017,-0.177331,0,0,0,0,0.134613,-0.100053,1.9603e-19,0,0,0,0,0,0,0,0,0,2.51,0.354663
10922,0,0,-3.34668,-0.000765901,0.00019951,-0.000110939,0.0091225,-0.00651756,-1.6443,0,0,0,0.262327,-0.178936,0.134889,-0.100376,-1.6443,0,0,0,0,0,0,0,0,0,0,0.426741,-0.028149,0.569699,-1.5,0,0,0,0,0.262327,-0.178936,0,0,0,0,0.134889,-0.100376,1.9603e-19,0,0,0,0,0,0,0,0,0,2.51,0.357871
10937,0,0,-3.34668,-0.000765901,0.00019951,-0.000110939,0.0091225,-0.00651756,-1.6443,0,0,0,0.264353,-0.180444,0.135145,-0.100677,-1.6443,0,0,0,0,0,0,0,0,0,0,0.42668,-0.0273216,0.562605,-1.5,0,0,0,1,0.264353,-0.180444,0,0,0,0,0.135145,-0.100677,1.9603e-19,0,0,0,0,0,0,0,0,0,2.51,0.360888
10953,0,0,-7.3584,0.0016478,-0.001438,-0.00100592,0.00913184,-0.00653572,-1.64434,0,0,0,0.266518,-0.182058,0.135416,-0.100997,-1.64434,0,0,0,0,0,0,0,0,0,0,0.426609,-0.0264202,0.573301,-1.5,0,0,0,2,0.266518,-0.182058,0,0,0,0,0.135416,-0.100997,1.9603e-19,0,0,0,0,0,0,0,0,0,2.51,0.364116
10969,0,0,-7.3584,0.0016478,-0.001438,-0.00100592,0.00913184,-0.00653572,-1.64434,0,0,0,0.268687,-0.183677,0.135686,-0.101317,-1.64434,0,0,0,0,0,0,0,0,0,0,0.426543,-0.0255331,0.586684,-1.5,0,0,0,3,0.268687,-0.183677,0,0,0,0,0.135686,-0.101317,1.9603e-19,0,0,0,0,0,0,0,0,0,2.51,0.367355
10984,0,0,2.39258,0.000187833,-0.000591905,0.000562201,0.00912518,-0.00656237,-1.64435,0,0,0,0.270589,-0.185098,0.13592,-0.101596,-1.64435,0,0,0,0,0,0,0,0,0,0,0.426485,-0.0247521,0.578092,-1.5,0,0,0,0,0.270589,-0.185098,0,0,0,0,0.13592,-0.101596,1.9603e-19,0,0,0,0,0,0,0,0,0,2.51,0.370197
11000,0,0,-2.83398,-0.0010805,-3.75078e-05,-0.000414868,0.00912288,-0.00655263,-1.64436,0,0,0,0.272902,-0.186829,0.136201,-0.101935,-1.64435,0,0,0,0,0,0,0,0,0,0,0.426415,-0.0238037,0.569696,-1.5,0,0,0,1,0.272902,-0.186829,0,0,0,0,0.136201,-0.101935,1.9603e-19,0,0,0,0,0,0,0,0,0,2.51,0.373659
11018,0,0,5.70801,4.70687e-05,-0.000229066,0.000137379,0.00910991,-0.00655079,-1.64436,0,0,0,0.275358,-0.188668,0.136497,-0.102289,-1.64436,0,0,0,0,0,0,0,0,0,0,0.426339,-0.022794,0.586204,-1.5,0,0,0,2,0.275358,-0.188668,0,0,0,0,0.136497,-0.102289,1.9603e-19,0,0,0,0,0,0,0,0,0,2.51,0.377337
11033,0,0,2.20117,0.00116389,-0.000173948,-0.00073461,0.00912625,-0.0065591,-1.64436,0,0,0,0.277407,-0.190206,0.136739,-0.102581,-1.64436,0,0,0,0,0,0,0,0,0,0,0.426277,-0.021952,0.595215,-1.5,0,0,0,3,0.277407,-0.190206,0,0,0,0,0.136739,-0.102581,1.9603e-19,0,0,0,0,0,0,0,0,0,2.51,0.380411
11046,0,0,1.2002,-0.00191737,0.000714735,-0.00139327,0.00910588,-0.00655008,-1.64438,0,0,0,0.279187,-0.191541,0.136948,-0.102833,-1.64438,0,0,0,0,0,0,0,0,0,0,0.42622,-0.0212154,0.591289,-1.5,0,0,0,0,0.279187,-0.191541,0,0,0,0,0.136948,-0.102833,1.9603e-19,0,0,0,0,0,0,0,0,0,2.51,0.383082
11062,0,0,2.4043,0.000789188,-0.000411948,-0.00103148,0.00910233,-0.00655892,-1.64439,0,0,0,0.28138,-0.19319,0.137202,-0.103141,-1.64439,0,0,0,0,0,0,0,0,0,0,0.426153,-0.0203153,0.582243,-1.5,0,0,0,1,0.28138,-0.19319,0,0,0,0,0.137202,-0.103141,1.9603e-19,0,0,0,0,0,0,0,0,0,2.51,0.386379
11077,0,0,6.68066,0.00103216,0.000375367,-0.0011774,0.00911613,-0.00655164,-1.64441,0,0,0,0.283441,-0.194739,0.137438,-0.103427,-1.64441,0,0,0,0,0,0,0,0,0,0,0.426087,-0.0194608,0.594007,-1.5,0,0,0,2,0.283441,-0.194739,0,0,0,0,0.137438,-0.103427,1.9603e-19,0,0,0,0,0,0,0,0,0,2.51,0.389479
11093,0,0,-3.35645,-0.00111732,-0.000410879,-0.00185725,0.00910135,-0.00656557,-1.64442,0,0,0,0.285642,-0.196397,0.137688,-0.10373,-1.64442,0,0,0,0,0,0,0,0,0,0,0.426019,-0.0185532,0.607301,-1.5,0,0,0,3,0.285642,-0.196397,0,0,0,0,0.137688,-0.10373,1.9603e-19,0,0,0,0,0,0,0,0,0,2.51,0.392795
11108,0,0,-3.35645,-0.00111732,-0.000410879,-0.00185725,0.00910135,-0.00656557,-1.64442,0,0,0,0.28771,-0.197956,0.137919,-0.104014,-1.64442,0,0,0,0,0,0,0,0,0,0,0.425956,-0.0177053,0.597062,-1.5,0,0,0,0,0.28771,-0.197956,0,0,0,0,0.137919,-0.104014,1.9603e-19,0,0,0,0,0,0,0,0,0,2.51,0.395912
11125,0,0,2.82617,0.000215376,-0.00106909,-0.000952362,0.00910263,-0.00656708,-1.64445,0,0,0,0.289919,-0.199623,0.138165,-0.104313,-1.64444,0,0,0,0,0,0,0,0,0,0,0.425886,-0.016791,0.588288,-1.5,0,0,0,1,0.289919,-0.199623,0,0,0,0,0.138165,-0.104313,1.9603e-19,0,0,0,0,0,0,0,0,0,2.51,0.399247
