timestamp,A_x,A_y,A_z,P,Q,R,Phi,Theta,Psi,poseX,poseY,poseZ,state_X,state_Y,state_Z,state_VzB,state_Bx,state_By,state_Bz,p1_x,p1_y,p2_x,p2_y,p3_x,p3_y,p4_x,p4_y,roll,pitch,yaw,alt,targetHeading,highLevelState,lowLevelState,gateNumber,filtered_x,filtered_y,x_OT,y_OT,vx_OT,vy_OT,filtered_vx,filtered_vygateArearansac_corr_x,ransac_corr_y,ransac_corr_vx,ransac_corr_vy,detectionTimeStamp
7891,0,0,0,0,0,0,0,0,0,0,0,0,0,0,0,0,0,0,0,0,0,0,0,0,0,0,0,0,-0,0,-1.5,-nan,0,0,0,0,0,0,0,0,0,0,0,1.9603e-19,0,0,0,0,0
7905,0,0,0,0,0,0,0,0,0,0,0,0,0,0,0,0,0,0,0,0,0,0,0,0,0,0,0,0,-0,0,-1.5,-nan,0,0,0,0,0,0,0,0,0,0,0,1.9603e-19,0,0,0,0,0
8653,-3.7178e-12,1.09923e-37,-1.57926e-06,-3.84759e-12,1.09914e-37,-3.40904e-12,-1.13703e-13,0,0,0,0,0,0,0,0,0,0,0,0,0,0,0,0,0,0,0,0,0,-0,0,-1.5,-nan,0,0,0,0,0,0,0,0,0,0,0,1.9603e-19,0,0,0,0,0
8695,-3.7178e-12,1.09923e-37,-1.57926e-06,-3.84759e-12,1.09914e-37,0,-1.13703e-13,0,0,0,0,0,0,0,0,0,0,0,0,0,0,0,0,0,0,0,0,0,-0,0,-1.5,-nan,0,0,0,0,0,0,0,0,0,0,0,1.9603e-19,0,0,0,0,0
8930,-3.7178e-12,1.09923e-37,-1.57926e-06,-3.84759e-12,1.09914e-37,-3.40904e-12,-1.13704e-13,0,0,0,0,0,0,0,0,0,0,0,0,0,0,0,0,0,0,0,0,0,-0,0,-1.5,-nan,0,0,0,0,0,0,0,0,0,0,0,1.9603e-19,0,0,0,0,0
9003,-3.7178e-12,1.09923e-37,-1.57926e-06,-3.84759e-12,1.09914e-37,0,-1.13704e-13,0,0,0,0,0,0,0,0,0,0,0,0,0,0,0,0,0,0,0,0,0,-0,0,-1.5,-nan,0,0,0,0,0,0,0,0,0,0,0,1.9603e-19,0,0,0,0,0
9260,-3.7178e-12,1.09923e-37,-1.57926e-06,-3.84759e-12,1.09914e-37,-3.40904e-12,-1.13705e-13,0,0,-3.69419,-0.164789,0.383465,0,0,0,0,0,-0.661037,-0.164789,284,-51,284,-51,404,-43,272,70,0,-0,0,-1.5,-nan,0,0,0,0,0,0,0,0,0,0,0,17424,0,0,0,0,9252
9329,-3.7178e-12,1.09923e-37,-1.57926e-06,-3.84759e-12,1.09914e-37,0,-1.13705e-13,0,0,-3.61676,-0.18819,0.33691,0,0,0,0,0,-0.554968,-0.18819,286,-51,286,-51,411,-42,272,70,0,-0,0,-1.5,-nan,0,0,0,0,0,0,0,0,0,0,0,18487,0,0,0,0,9321
9376,-3.7178e-12,1.09923e-37,-1.57926e-06,-3.84759e-12,1.09914e-37,-3.40904e-12,-1.13706e-13,0,0,-3.66703,-0.00149264,0.438792,0,0,0,0,0,-0.623837,-0.00149264,260,-54,260,-54,382,-55,257,70,0,-0,0,-1.5,-nan,0,0,0,0,0,0,0,0,0,0,0,15625,0,0,0,0,9368
9396,-3.7178e-12,1.09923e-37,-1.57926e-06,-3.84759e-12,1.09914e-37,0,-1.13706e-13,0,0,-3.66703,-0.00149264,0.438792,0,0,0,0,0,-0.623837,-0.00149264,260,-54,260,-54,382,-55,257,70,0,-0,0,-1.5,-nan,0,0,0,0,0,0,0,0,0,0,0,15625,0,0,0,0,9368
9421,-3.7178e-12,1.09923e-37,-1.57926e-06,-3.84759e-12,1.09914e-37,-3.40904e-12,-1.13707e-13,0,0,-3.6023,0.0170749,0.435723,0,0,0,0,0,-0.535145,0.0170749,257,-62,257,-62,382,-61,256,65,-0.261799,-0.261799,0,-1.5,-nan,0,0,0,-0.531501,0.0548075,0,0,0,0,0.145758,1.50931,16380,-0.535145,0.0170749,0.145758,1.50931,9405
9444,-3.7178e-12,1.09923e-37,-1.57926e-06,-3.84759e-12,1.09914e-37,0,-1.13708e-13,0,0,-3.61692,0.0312066,0.457359,0,0,0,0,0,-0.555179,0.0312066,257,-62,257,-62,380,-64,254,65,-0.261799,-0.261799,0,-1.5,-nan,0,0,0,-0.555207,0.0880121,0,0,0,0,-0.00130906,1.50931,16254,-0.555179,0.0548075,-0.00130906,1.50931,9432
9464,-3.7178e-12,1.09923e-37,-1.57926e-06,-3.84759e-12,1.09914e-37,-3.40904e-12,-1.13708e-13,0,0,-3.63483,0.00710527,0.469709,0,0,0,0,0,-0.579713,0.00710527,257,-62,257,-62,383,-64,260,65,0.261799,-0.261799,0,-1.5,-nan,0,0,0,-0.555235,0.0898032,0,0,0,0,-0.00130906,1.36272,16254,-0.555228,0.0829896,-0.00130906,1.36272,9461
9484,-3.7178e-12,1.09923e-37,-1.57926e-06,-3.84759e-12,1.09914e-37,0,-1.13709e-13,0,0,-3.63483,0.00710527,0.469709,0,0,0,0,0,-0.579713,0.00710527,257,-62,257,-62,383,-64,260,65,-0.261799,-0.261799,0,-1.5,-nan,0,0,0,-0.555261,0.117057,0,0,0,0,-0.00130906,1.36272,16254,-0.555228,0.0829896,-0.00130906,1.36272,9461
9505,-3.7178e-12,1.09923e-37,-1.57926e-06,-3.84759e-12,1.09914e-37,-3.40904e-12,-1.13709e-13,0,0,-3.54324,0.00909546,0.413291,0,0,0,0,0,-0.454237,0.00909546,257,-61,257,-61,383,-64,254,65,-0.0431499,-0.261799,0,-1.5,-nan,0,0,0,-0.555287,0.0100815,0,0,0,0,-0.00130867,0.066138,16641,-0.555273,0.00935395,-0.00130867,0.066138,9495
9522,-3.7178e-12,1.09923e-37,-1.57926e-06,-3.84759e-12,1.09914e-37,0,-1.1371e-13,0,0,-3.54324,0.00909546,0.413291,0,0,0,0,0,-0.454237,0.00909546,257,-61,257,-61,383,-64,254,65,-0.0443404,-0.261799,0,-1.5,-nan,0,0,0,-0.555311,0.0112719,0,0,0,0,-0.00130867,0.066138,16641,-0.555273,0.00935395,-0.00130867,0.066138,9495
9542,-3.7178e-12,1.09923e-37,-1.57926e-06,-3.84759e-12,1.09914e-37,-3.40904e-12,-1.1371e-13,0,0,-3.55058,0.0140603,0.414878,0,0,0,0,0,-0.4643,0.0140603,257,-61,257,-61,386,-64,254,68,-0.0559643,-0.171929,0,-1.5,-nan,0,0,0,-0.453054,0.015672,0,0,0,0,0.562265,0.0805857,17424,-0.4643,0.0140603,0.562265,0.0805857,9531
9591,-3.7178e-12,1.09923e-37,-1.57926e-06,-3.84759e-12,1.09914e-37,0,-1.13716e-13,0,0,-3.57184,0.00733346,0.437641,0,0,0,0,0,-0.493414,0.00733346,257,-62,257,-62,386,-66,257,65,-0.0480618,-0.261799,0,-1.5,-nan,0,0,0,-0.484757,0.0155626,0,0,0,0,0.240012,0.0649994,16899,-0.496518,0.0123776,0.240012,0.0649994,9579
9612,-3.7178e-12,1.09923e-37,-1.57926e-06,-3.84759e-12,1.09914e-37,-3.40904e-12,-1.13716e-13,0,0,-3.60954,0.00644835,0.451403,0,0,0,0,0,-0.545066,0.00644835,257,-62,257,-62,386,-61,257,64,-0.049427,-0.261799,0,-1.5,-nan,0,0,0,-0.48686,0.0169275,0,0,0,0,0.232607,0.0649994,16254,-0.491745,0.0155626,0.232607,0.0649994,9600
9654,-3.7178e-12,1.09923e-37,-1.57926e-06,-3.84759e-12,1.09914e-37,0,-1.13712e-13,0,0,-3.55058,0.0140603,0.414878,0,0,0,0,0,-0.4643,0.0140603,257,-61,257,-61,386,-64,254,68,-0.0467029,-0.261799,0,-1.5,-nan,0,0,0,-0.464892,0.017799,0,0,0,0,0.266702,0.0578075,17424,-0.476093,0.0153711,0.266702,0.0578075,9641
9675,-3.7178e-12,1.09923e-37,-1.57926e-06,-3.84759e-12,1.09914e-37,-3.40904e-12,-1.13712e-13,0,0,-3.6008,0.0294852,0.441484,0,0,0,0,0,-0.533095,0.0294852,257,-61,257,-61,379,-64,254,68,-0.0494497,-0.261799,0,-1.5,-nan,0,0,0,-0.491841,0.0199203,0,0,0,0,0.157092,0.0590591,16500,-0.49514,0.0186801,0.157092,0.0590591,9663
9716,-3.7178e-12,1.09923e-37,-1.57926e-06,-3.84759e-12,1.09914e-37,0,-1.13713e-13,0,0,-3.54242,0.00925836,0.404186,0,0,0,0,0,-0.453113,0.00925836,257,-61,257,-61,383,-62,254,68,-0.0475322,-0.261799,0,-1.5,-nan,0,0,0,-0.444918,0.0202207,0,0,0,0,0.276661,0.0546234,16770,-0.456261,0.0179812,0.276661,0.0546234,9704
9738,-3.7178e-12,1.09923e-37,-1.57926e-06,-3.84759e-12,1.09914e-37,-3.40904e-12,-1.13714e-13,0,0,-3.59042,0.0225151,0.431386,0,0,0,0,0,-0.518874,0.0225151,257,-61,257,-61,382,-62,254,68,-0.0516188,-0.261799,0,-1.5,-nan,0,0,0,-0.491017,0.0227762,0,0,0,0,0.136199,0.0576854,16640,-0.492379,0.0221993,0.136199,0.0576854,9730
9758,-3.7178e-12,1.09923e-37,-1.57926e-06,-3.84759e-12,1.09914e-37,0,-1.13711e-13,0,0,-3.59042,0.0225151,0.431386,0,0,0,0,0,-0.518874,0.0225151,257,-61,257,-61,382,-62,254,68,-0.0527725,-0.261799,0,-1.5,-nan,0,0,0,-0.488293,0.0239299,0,0,0,0,0.136199,0.0576854,16640,-0.492379,0.0221993,0.136199,0.0576854,9730
9780,-3.7178e-12,1.09923e-37,-1.57926e-06,-3.84759e-12,1.09914e-37,-3.40904e-12,-1.13715e-13,0,0,-3.57759,0.0227594,0.428132,0,0,0,0,0,-0.501296,0.0227594,257,-61,257,-61,382,-64,254,68,-0.0512977,-0.261799,0,-1.5,-nan,0,0,0,-0.500252,0.0243802,0,0,0,0,0.100091,0.0538358,16896,-0.502454,0.0231958,0.100091,0.0538358,9768
9802,-3.7178e-12,1.09923e-37,-1.57926e-06,-3.84759e-12,1.09914e-37,0,-1.13721e-13,0,0,-3.60967,0.01366,0.455399,0,0,0,0,0,-0.545241,0.01366,257,-62,257,-62,383,-64,257,65,-0.0493999,-0.261799,0,-1.5,-nan,0,0,0,-0.500388,0.0243226,0,0,0,0,0.102258,0.0501555,16254,-0.50141,0.0238211,0.102258,0.0501555,9794
9822,-3.7178e-12,1.09923e-37,-1.57926e-06,-3.84759e-12,1.09914e-37,-3.40904e-12,-1.13715e-13,0,0,-3.60967,0.01366,0.455399,0,0,0,0,0,-0.545241,0.01366,257,-62,257,-62,383,-64,257,65,-0.050403,-0.261799,0,-1.5,-nan,0,0,0,-0.498343,0.0253257,0,0,0,0,0.102258,0.0501555,16254,-0.50141,0.0238211,0.102258,0.0501555,9794
9844,-3.7178e-12,1.09923e-37,-1.57926e-06,-3.84759e-12,1.09914e-37,0,-1.13722e-13,0,0,-3.56529,0.0156474,0.430371,0,0,0,0,0,-0.48445,0.0156474,257,-62,257,-62,380,-64,254,65,-0.0490112,-0.261799,0,-1.5,-nan,0,0,0,-0.487594,0.0252984,0,0,0,0,0.120993,0.0474262,16512,-0.490256,0.024255,0.120993,0.0474262,9832
9862,-3.7178e-12,1.09923e-37,-1.57926e-06,-3.84759e-12,1.09914e-37,-3.40904e-12,-1.13713e-13,0,0,-3.56529,0.0156474,0.430371,0,0,0,0,0,-0.48445,0.0156474,257,-62,257,-62,380,-64,254,65,-0.0498649,-0.261799,0,-1.5,-nan,0,0,0,-0.485416,0.026152,0,0,0,0,0.120993,0.0474262,16512,-0.490256,0.024255,0.120993,0.0474262,9832
9887,-3.7178e-12,1.09923e-37,-1.57926e-06,-3.84759e-12,1.09914e-37,0,-1.13723e-13,0,0,-3.61765,0.0150613,0.446779,0,0,0,0,0,-0.556177,0.0150613,257,-62,257,-62,382,-61,257,65,-0.0261709,-0.261799,0,-1.5,-nan,0,0,0,-0.489375,0.0166432,0,0,0,0,0.107813,0.0190554,16125,-0.49207,0.0161668,0.107813,0.0190554,9874
9906,-3.7178e-12,1.09923e-37,-1.57926e-06,-3.84759e-12,1.09914e-37,-3.40904e-12,-1.13725e-13,0,0,-3.64139,0.0128085,0.472105,0,0,0,0,0,-0.588707,0.0128085,257,-62,257,-62,383,-61,257,62,-0.0264347,-0.261799,0,-1.5,-nan,0,0,0,-0.505013,0.0167308,0,0,0,0,0.0797845,0.0194069,16002,-0.50589,0.0165173,0.0797845,0.0194069,9897
9923,-3.71784e-12,1.09745e-37,1.09931e-37,-3.84759e-12,1.09914e-37,0,-1.13724e-13,0,0,-3.64139,0.0128085,0.472105,0,0,0,0,0,-0.588707,0.0128085,257,-62,257,-62,383,-61,257,62,-0.0267646,-0.261799,0,-1.5,-nan,0,0,0,-0.503656,0.0170607,0,0,0,0,0.0797845,0.0194069,16002,-0.50589,0.0165173,0.0797845,0.0194069,9897
9946,-3.7178e-12,1.09923e-37,-1.57926e-06,-3.84759e-12,1.09914e-37,-3.40904e-12,-1.13726e-13,0,0,-3.67337,0.0100426,0.470868,0,0,0,0,0,-0.632515,0.0100426,260,-55,260,-55,382,-62,256,65,-0.0243439,-0.261799,0,-1.5,-nan,0,0,0,-0.526492,0.016328,0,0,0,0,0.0258467,0.016031,16002,-0.527087,0.0159593,0.0258467,0.016031,9933
9985,-3.7178e-12,1.09923e-37,-1.57926e-06,-3.84759e-12,1.09914e-37,0,-1.1372e-13,0,0,-3.65923,0.010328,0.466964,0,0,0,0,0,-0.613139,0.010328,260,-55,260,-55,382,-64,256,65,-0.0273074,-0.261799,0,-1.5,-nan,0,0,0,-0.548164,0.0175616,0,0,0,0,-0.0201318,0.0194904,16254,-0.547379,0.0168015,-0.0201318,0.0194904,9972
10011,-3.7178e-12,1.09923e-37,-1.57926e-06,-3.84759e-12,1.09914e-37,-3.40904e-12,-1.13717e-13,0,0,-3.57493,0.00050707,0.434167,0,0,0,0,0,-0.49765,0.00050707,257,-61,257,-61,385,-62,256,65,-0.0185592,-0.261799,0,-1.5,-nan,0,0,0,-0.518741,0.014127,0,0,0,0,0.0387607,0.00886421,16383,-0.519749,0.0138965,0.0387607,0.00886421,9998
10059,-3.7178e-12,1.09923e-37,-1.57926e-06,-3.84759e-12,1.09914e-37,0,-1.13725e-13,0,0,-3.57493,0.00050707,0.434167,0,0,0,0,0,-0.49765,0.00050707,257,-61,257,-61,385,-62,256,65,-0.0189849,-0.261799,0,-1.5,-nan,0,0,0,-0.516881,0.0145525,0,0,0,0,0.0387607,0.00886421,16383,-0.519749,0.0138965,0.0387607,0.00886421,9998
10081,-3.7178e-12,1.09923e-37,-1.57926e-06,-3.84759e-12,1.09914e-37,-3.40904e-12,-1.13718e-13,0,0,-3.55254,0.022961,0.437501,0,0,0,0,0,-0.46698,0.022961,257,-64,257,-64,383,-67,253,67,-0.0255983,-0.261799,0,-1.5,-nan,0,0,0,-0.496113,0.0179805,0,0,0,0,0.0704672,0.0152347,17420,-0.497664,0.0176454,0.0704672,0.0152347,10068
10126,-3.7178e-12,1.09923e-37,-1.57926e-06,-3.84759e-12,1.09914e-37,0,-1.13718e-13,0,0,-3.58122,0.0208694,0.463476,0,0,0,0,0,-0.506273,0.0208694,257,-62,257,-62,386,-68,253,62,-0.0288947,-0.261799,0,-1.5,-nan,0,0,0,-0.497323,0.0200462,0,0,0,0,0.0629784,0.0176962,17290,-0.500157,0.0192499,0.0629784,0.0176962,10112
10148,-3.7178e-12,1.09923e-37,-1.57926e-06,-3.84759e-12,1.09914e-37,-3.40904e-12,-1.13726e-13,0,0,-3.60668,0.0309895,0.497824,0,0,0,0,0,-0.541152,0.0309895,257,-67,257,-67,381,-69,253,59,-0.0326669,-0.261799,0,-1.5,-nan,0,0,0,-0.50228,0.0218203,0,0,0,0,0.0551833,0.0216919,16512,-0.503494,0.0213431,0.0551833,0.0216919,10135
10206,-3.7178e-12,1.09923e-37,-1.57926e-06,-3.84759e-12,1.09914e-37,0,-1.13727e-13,0,0,-3.59928,0.0313041,0.508636,0,0,0,0,0,-0.531011,0.0313041,257,-69,257,-69,382,-71,253,59,-0.0359218,-0.261799,0,-1.5,-nan,0,0,0,-0.528896,0.0243887,0,0,0,0,0.0093926,0.023065,16770,-0.529441,0.023051,0.0093926,0.023065,10192
10223,-3.7178e-12,1.09923e-37,-1.57926e-06,-3.84759e-12,1.09914e-37,-3.40904e-12,-1.13721e-13,0,0,-3.59928,0.0313041,0.508636,0,0,0,0,0,-0.531011,0.0313041,257,-69,257,-69,382,-71,253,59,-0.0363143,-0.261799,0,-1.5,-nan,0,0,0,-0.528736,0.0247808,0,0,0,0,0.0093926,0.023065,16770,-0.529441,0.023051,0.0093926,0.023065,10192
10245,-3.7178e-12,1.09923e-37,-1.57926e-06,-3.84759e-12,1.09914e-37,0,-1.13727e-13,0,0,-3.59692,0.0246925,0.537793,0,0,0,0,0,-0.527775,0.0246925,257,-76,257,-76,383,-71,254,51,-0.0363084,-0.261799,0,-1.5,-nan,0,0,0,-0.528169,0.0247637,0,0,0,0,0.00819823,0.0230888,17286,-0.528349,0.0242558,0.00819823,0.0230888,10232
10272,-3.7178e-12,1.09923e-37,-1.57926e-06,-3.84759e-12,1.09914e-37,-3.40904e-12,-1.13728e-13,0,0,-3.58822,0.0340028,0.552344,0,0,0,0,0,-0.515865,0.0340028,258,-78,258,-78,382,-74,251,51,-0.0379926,-0.261799,0,-1.5,-nan,0,0,0,-0.525576,0.0261807,0,0,0,0,0.0133084,0.0236231,17292,-0.525722,0.0259208,0.0133084,0.0236231,10263
10285,-3.7178e-12,1.09923e-37,-1.57926e-06,-3.84759e-12,1.09914e-37,0,-1.13723e-13,0,0,-3.58822,0.0340028,0.552344,0,0,0,0,0,-0.515865,0.0340028,258,-78,258,-78,382,-74,251,51,-0.0382998,-0.261799,0,-1.5,-nan,0,0,0,-0.525403,0.0264878,0,0,0,0,0.0133084,0.0236231,17292,-0.525722,0.0259208,0.0133084,0.0236231,10263
10338,-3.7178e-12,1.09923e-37,-1.57926e-06,-3.84759e-12,1.09914e-37,-3.40904e-12,-1.13719e-13,0,0,-3.55241,0.0337631,0.55889,0,0,0,0,0,-0.466805,0.0337631,257,-81,257,-81,381,-78,250,48,-0.0436603,-0.261799,0,-1.5,-nan,0,0,0,-0.513173,0.0302092,0,0,0,0,0.0287268,0.0269003,17292,-0.514667,0.0288104,0.0287268,0.0269003,10324
10359,-3.7178e-12,1.09923e-37,-1.57926e-06,-3.84759e-12,1.09914e-37,0,-1.13719e-13,0,0,-3.55241,0.0337631,0.55889,0,0,0,0,0,-0.466805,0.0337631,257,-81,257,-81,381,-78,250,48,-0.0442521,-0.261799,0,-1.5,-nan,0,0,0,-0.512541,0.030801,0,0,0,0,0.0287268,0.0269003,17292,-0.514667,0.0288104,0.0287268,0.0269003,10324
10381,-3.7178e-12,1.09923e-37,-1.57926e-06,-3.84759e-12,1.09914e-37,-3.40904e-12,-1.13729e-13,0,0,-3.56108,0.0298613,0.64834,0,0,0,0,0,-0.478677,0.0298613,258,-94,258,-94,383,-85,251,35,-0.0425501,-0.261799,0,-1.5,-nan,0,0,0,-0.496687,0.0300727,0,0,0,0,0.0498051,0.0249536,18348,-0.497783,0.0295237,0.0498051,0.0249536,10368
10408,-3.7178e-12,1.09923e-37,-1.57926e-06,-3.84759e-12,1.09914e-37,0,-1.13729e-13,0,0,-3.49053,0.0230757,0.712044,0,0,0,0,0,-0.382032,0.0230757,256,-107,256,-107,385,-98,250,24,-0.0437115,-0.261799,0,-1.5,-nan,0,0,0,-0.485662,0.0310102,0,0,0,0,0.0611289,0.0254015,18630,-0.486396,0.0307053,0.0611289,0.0254015,10399
10425,-3.7178e-12,1.09923e-37,-1.57926e-06,-3.84759e-12,1.09914e-37,-3.40904e-12,-1.1373e-13,0,0,-3.49053,0.0230757,0.712044,0,0,0,0,0,-0.382032,0.0230757,256,-107,256,-107,385,-98,250,24,-0.0441434,-0.261799,0,-1.5,-nan,0,0,0,-0.484623,0.031442,0,0,0,0,0.0611289,0.0254015,18630,-0.486396,0.0307053,0.0611289,0.0254015,10399
10462,-3.7178e-12,1.09923e-37,-1.57926e-06,-3.84759e-12,1.09914e-37,0,-1.1373e-13,0,0,-3.49053,0.0230757,0.712044,0,0,0,0,0,-0.382032,0.0230757,256,-107,256,-107,385,-98,250,24,-0.0450832,-0.261799,0,-1.5,-nan,0,0,0,-0.482361,0.0323819,0,0,0,0,0.0611289,0.0254015,18630,-0.486396,0.0307053,0.0611289,0.0254015,10399
10484,-3.7178e-12,1.09923e-37,-1.57926e-06,-3.84759e-12,1.09914e-37,-3.40904e-12,-1.13731e-13,0,0,-3.49053,0.0230757,0.712044,0,0,0,0,0,-0.382032,0.0230757,256,-107,256,-107,385,-98,250,24,-0.0456415,-0.261799,0,-1.5,-nan,0,0,0,-0.481016,0.0329407,0,0,0,0,0.0611289,0.0254015,18630,-0.486396,0.0307053,0.0611289,0.0254015,10399
10501,-3.7178e-12,1.09923e-37,-1.57926e-06,-3.84759e-12,1.09914e-37,0,-1.13731e-13,0,0,-3.49053,0.0230757,0.712044,0,0,0,0,0,-0.382032,0.0230757,256,-107,256,-107,385,-98,250,24,-0.0460739,-0.261799,0,-1.5,-nan,0,0,0,-0.479977,0.0333725,0,0,0,0,0.0611289,0.0254015,18630,-0.486396,0.0307053,0.0611289,0.0254015,10399
10518,-3.7178e-12,1.09923e-37,-1.57926e-06,-3.84759e-12,1.09914e-37,-3.40904e-12,-1.13732e-13,0,0,-3.49053,0.0230757,0.712044,0,0,0,0,0,-0.382032,0.0230757,256,-107,256,-107,385,-98,250,24,-0.0465057,-0.261799,0,-1.5,-nan,0,0,0,-0.478938,0.0338044,0,0,0,0,0.0611289,0.0254015,18630,-0.486396,0.0307053,0.0611289,0.0254015,10399
10540,-3.7178e-12,1.09923e-37,-1.57926e-06,-3.84759e-12,1.09914e-37,0,-1.13732e-13,0,0,-3.49053,0.0230757,0.712044,0,0,0,0,0,-0.382032,0.0230757,256,-107,256,-107,385,-98,250,24,-0.0470646,-0.261799,0,-1.5,-nan,0,0,0,-0.477593,0.0343632,0,0,0,0,0.0611289,0.0254015,18630,-0.486396,0.0307053,0.0611289,0.0254015,10399
10557,-3.7178e-12,1.09923e-37,-1.57926e-06,-3.84759e-12,1.09914e-37,-3.40904e-12,-1.13733e-13,0,0,-3.49053,0.0230757,0.712044,0,0,0,0,0,-0.382032,0.0230757,256,-107,256,-107,385,-98,250,24,-0.0474955,-0.261799,0,-1.5,-nan,0,0,0,-0.476554,0.034795,0,0,0,0,0.0611289,0.0254015,18630,-0.486396,0.0307053,0.0611289,0.0254015,10399
10620,-3.7178e-12,1.09923e-37,-1.57926e-06,-3.84759e-12,1.09914e-37,0,-1.13733e-13,0,0,-3.49053,0.0230757,0.712044,0,0,0,0,0,-0.382032,0.0230757,256,-107,256,-107,385,-98,250,24,-0.0490713,-0.261799,0,-1.5,-nan,0,0,0,-0.472764,0.0363699,0,0,0,0,0.0611289,0.0254015,18630,-0.486396,0.0307053,0.0611289,0.0254015,10399
10634,-3.7178e-12,1.09923e-37,-1.57926e-06,-3.84759e-12,1.09914e-37,-3.40904e-12,-1.13734e-13,0,0,-3.49053,0.0230757,0.712044,0,0,0,0,0,-0.382032,0.0230757,256,-107,256,-107,385,-98,250,24,-0.0494523,-0.261799,0,-1.5,-nan,0,0,0,-0.471847,0.036751,0,0,0,0,0.0611289,0.0254015,18630,-0.486396,0.0307053,0.0611289,0.0254015,10399
10651,-3.7178e-12,1.09923e-37,-1.57926e-06,-3.84759e-12,1.09914e-37,0,-1.13735e-13,0,0,-3.49053,0.0230757,0.712044,0,0,0,0,0,-0.382032,0.0230757,256,-107,256,-107,385,-98,250,24,-0.0498842,-0.261799,0,-1.5,-nan,0,0,0,-0.470808,0.0371828,0,0,0,0,0.0611289,0.0254015,18630,-0.486396,0.0307053,0.0611289,0.0254015,10399
10672,-3.7178e-12,1.09923e-37,-1.57926e-06,-3.84759e-12,1.09914e-37,-3.40904e-12,-1.13735e-13,0,0,-3.49053,0.0230757,0.712044,0,0,0,0,0,-0.382032,0.0230757,256,-107,256,-107,385,-98,250,24,-0.0504176,-0.261799,0,-1.5,-nan,0,0,0,-0.469524,0.0377162,0,0,0,0,0.0611289,0.0254015,18630,-0.486396,0.0307053,0.0611289,0.0254015,10399
10689,-3.7178e-12,1.09923e-37,-1.57926e-06,-3.84759e-12,1.09914e-37,0,-1.13736e-13,0,0,-3.49053,0.0230757,0.712044,0,0,0,0,0,-0.382032,0.0230757,256,-107,256,-107,385,-98,250,24,-0.0508495,-0.261799,0,-1.5,-nan,0,0,0,-0.468485,0.0381481,0,0,0,0,0.0611289,0.0254015,18630,-0.486396,0.0307053,0.0611289,0.0254015,10399
10707,-3.7178e-12,1.09923e-37,-1.57926e-06,-3.84759e-12,1.09914e-37,-3.40904e-12,-1.13736e-13,0,0,-3.49053,0.0230757,0.712044,0,0,0,0,0,-0.382032,0.0230757,256,-107,256,-107,385,-98,250,24,-0.0513067,-0.261799,0,-1.5,-nan,0,0,0,-0.467384,0.0386053,0,0,0,0,0.0611289,0.0254015,18630,-0.486396,0.0307053,0.0611289,0.0254015,10399
10728,-3.7178e-12,1.09923e-37,-1.57926e-06,-3.84759e-12,1.09914e-37,0,-1.13737e-13,0,0,-3.49053,0.0230757,0.712044,0,0,0,0,0,-0.382032,0.0230757,256,-107,256,-107,385,-98,250,24,-0.0518401,-0.261799,0,-1.5,-nan,0,0,0,-0.466101,0.0391388,0,0,0,0,0.0611289,0.0254015,18630,-0.486396,0.0307053,0.0611289,0.0254015,10399
10745,-3.7178e-12,1.09923e-37,-1.57926e-06,-3.84759e-12,1.09914e-37,-3.40904e-12,-1.13737e-13,0,0,-3.49053,0.0230757,0.712044,0,0,0,0,0,-0.382032,0.0230757,256,-107,256,-107,385,-98,250,24,-0.052272,-0.261799,0,-1.5,-nan,0,0,0,-0.465061,0.0395706,0,0,0,0,0.0611289,0.0254015,18630,-0.486396,0.0307053,0.0611289,0.0254015,10399
10767,-3.7178e-12,1.09923e-37,-1.57926e-06,-3.84759e-12,1.09914e-37,0,-1.13738e-13,0,0,-3.49053,0.0230757,0.712044,0,0,0,0,0,-0.382032,0.0230757,256,-107,256,-107,385,-98,250,24,-0.0528308,-0.261799,0,-1.5,-nan,0,0,0,-0.463717,0.0401294,0,0,0,0,0.0611289,0.0254015,18630,-0.486396,0.0307053,0.0611289,0.0254015,10399
10784,-3.7178e-12,1.09923e-37,-1.57926e-06,-3.84759e-12,1.09914e-37,-3.40904e-12,-1.13738e-13,0,0,-3.49053,0.0230757,0.712044,0,0,0,0,0,-0.382032,0.0230757,256,-107,256,-107,385,-98,250,24,-0.0532626,-0.261799,0,-1.5,-nan,0,0,0,-0.462677,0.0405613,0,0,0,0,0.0611289,0.0254015,18630,-0.486396,0.0307053,0.0611289,0.0254015,10399
10801,-3.7178e-12,1.09923e-37,-1.57926e-06,-3.84759e-12,1.09914e-37,0,-1.13739e-13,0,0,-3.49053,0.0230757,0.712044,0,0,0,0,0,-0.382032,0.0230757,256,-107,256,-107,385,-98,250,24,-0.0536945,-0.261799,0,-1.5,-nan,0,0,0,-0.461638,0.0409931,0,0,0,0,0.0611289,0.0254015,18630,-0.486396,0.0307053,0.0611289,0.0254015,10399
10896,-3.7178e-12,1.09923e-37,-1.57926e-06,-3.84759e-12,1.09914e-37,-3.40904e-12,-1.13739e-13,0,0,-3.49053,0.0230757,0.712044,-0.455831,0.0434062,0.0611289,0.0254015,0,-0.382032,0.0230757,256,-107,256,-107,385,-98,250,24,-0.0561076,-0.261799,0,-1.5,-nan,0,0,0,-0.455831,0.0434062,0,0,0,0,0.0611289,0.0254015,18630,0,0,0,0,10399
10914,-3.7178e-12,1.09923e-37,-1.57926e-06,-3.84759e-12,1.09914e-37,0,-1.1374e-13,0,0,-3.49053,0.0230757,0.712044,-0.454737,0.0438607,0.0605803,0.0251736,0,-0.382032,0.0230757,256,-107,256,-107,385,-98,250,24,-0.0564475,-0.261799,0,-1.5,-nan,0,0,0,-0.454737,0.0438607,0,0,0,0,0.0605803,0.0251736,18630,0,0,0,0,10399
10928,-3.7178e-12,1.09923e-37,-1.57926e-06,-3.84759e-12,1.09914e-37,-3.40904e-12,-1.13741e-13,0,0,-3.49053,0.0230757,0.712044,-0.453893,0.0442116,0.0601574,0.0249978,0,-0.382032,0.0230757,256,-107,256,-107,385,-98,250,24,-0.0567108,-0.261799,0,-1.5,-nan,0,0,0,-0.453893,0.0442116,0,0,0,0,0.0601574,0.0249978,18630,0,0,0,0,10399
10946,-3.7178e-12,1.09923e-37,-1.57926e-06,-3.84759e-12,1.09914e-37,0,-1.13741e-13,0,0,-3.49053,0.0230757,0.712044,-0.452817,0.0446588,0.0596175,0.0247735,0,-0.382032,0.0230757,256,-107,256,-107,385,-98,250,24,-0.0570454,-0.261799,0,-1.5,-nan,0,0,0,-0.452817,0.0446588,0,0,0,0,0.0596175,0.0247735,18630,0,0,0,0,10399
10995,-3.7178e-12,1.09923e-37,-1.57926e-06,-3.84759e-12,1.09914e-37,-3.40904e-12,-1.13742e-13,0,0,-3.49053,0.0230757,0.712044,-0.449955,0.0458478,0.0581627,0.0241689,0,-0.382032,0.0230757,256,-107,256,-107,385,-98,250,24,-0.0579326,-0.261799,0,-1.5,-nan,0,0,0,-0.449955,0.0458478,0,0,0,0,0.0581627,0.0241689,18630,0,0,0,0,10399
11032,-3.7178e-12,1.09923e-37,-1.57926e-06,-3.84759e-12,1.09914e-37,0,-1.13742e-13,0,0,-3.49053,0.0230757,0.712044,-0.447836,0.0467286,0.0570904,0.0237233,0,-0.382032,0.0230757,256,-107,256,-107,385,-98,250,24,-0.0585899,-0.261799,0,-1.5,-nan,0,0,0,-0.447836,0.0467286,0,0,0,0,0.0570904,0.0237233,18630,0,0,0,0,10399
11049,-3.7178e-12,1.09923e-37,-1.57926e-06,-3.84759e-12,1.09914e-37,-3.40904e-12,-1.13743e-13,0,0,-3.49053,0.0230757,0.712044,-0.446871,0.0471296,0.0566065,0.0235223,0,-0.382032,0.0230757,256,-107,256,-107,385,-98,250,24,-0.0588903,-0.261799,0,-1.5,-nan,0,0,0,-0.446871,0.0471296,0,0,0,0,0.0566065,0.0235223,18630,0,0,0,0,10399
11067,-3.7178e-12,1.09923e-37,-1.57926e-06,-3.84759e-12,1.09914e-37,0,-1.13743e-13,0,0,-3.49053,0.0230757,0.712044,-0.445858,0.0475505,0.0560986,0.0233112,0,-0.382032,0.0230757,256,-107,256,-107,385,-98,250,24,-0.059206,-0.261799,0,-1.5,-nan,0,0,0,-0.445858,0.0475505,0,0,0,0,0.0560986,0.0233112,18630,0,0,0,0,10399
11105,-3.7178e-12,1.09923e-37,-1.57926e-06,-3.84759e-12,1.09914e-37,-3.40904e-12,-1.13744e-13,0,0,-3.49053,0.0230757,0.712044,-0.443758,0.0484229,0.0550368,0.02287,0,-0.382032,0.0230757,256,-107,256,-107,385,-98,250,24,-0.0598577,-0.261799,0,-1.5,-nan,0,0,0,-0.443758,0.0484229,0,0,0,0,0.0550368,0.02287,18630,0,0,0,0,10399
11122,-3.7178e-12,1.09923e-37,-1.57926e-06,-3.84759e-12,1.09914e-37,0,-1.13744e-13,0,0,-3.49053,0.0230757,0.712044,-0.442828,0.0488095,0.0545704,0.0226762,0,-0.382032,0.0230757,256,-107,256,-107,385,-98,250,24,-0.0601474,-0.261799,0,-1.5,-nan,0,0,0,-0.442828,0.0488095,0,0,0,0,0.0545704,0.0226762,18630,0,0,0,0,10399
11139,-3.7178e-12,1.09923e-37,-1.57926e-06,-3.84759e-12,1.09914e-37,-3.40904e-12,-1.13745e-13,0,0,-3.49053,0.0230757,0.712044,-0.441905,0.0491928,0.0541078,0.022484,0,-0.382032,0.0230757,256,-107,256,-107,385,-98,250,24,-0.0604348,-0.261799,0,-1.5,-nan,0,0,0,-0.441905,0.0491928,0,0,0,0,0.0541078,0.022484,18630,0,0,0,0,10399
11160,-3.7178e-12,1.09923e-37,-1.57926e-06,-3.84759e-12,1.09914e-37,0,-1.13745e-13,0,0,-3.49053,0.0230757,0.712044,-0.440778,0.0496615,0.0535414,0.0222486,0,-0.382032,0.0230757,256,-107,256,-107,385,-98,250,24,-0.0607861,-0.261799,0,-1.5,-nan,0,0,0,-0.440778,0.0496615,0,0,0,0,0.0535414,0.0222486,18630,0,0,0,0,10399
11177,-3.7178e-12,1.09923e-37,-1.57926e-06,-3.84759e-12,1.09914e-37,-3.40904e-12,-1.13746e-13,0,0,-3.49053,0.0230757,0.712044,-0.439873,0.0500376,0.0530876,0.02206,0,-0.382032,0.0230757,256,-107,256,-107,385,-98,250,24,-0.0610672,-0.261799,0,-1.5,-nan,0,0,0,-0.439873,0.0500376,0,0,0,0,0.0530876,0.02206,18630,0,0,0,0,10399
11198,-3.7178e-12,1.09923e-37,-1.57926e-06,-3.84759e-12,1.09914e-37,0,-1.13746e-13,0,0,-3.49053,0.0230757,0.712044,-0.438766,0.0504974,0.0525319,0.0218291,0,-0.382032,0.0230757,256,-107,256,-107,385,-98,250,24,-0.0614115,-0.261799,0,-1.5,-nan,0,0,0,-0.438766,0.0504974,0,0,0,0,0.0525319,0.0218291,18630,0,0,0,0,10399
11215,-3.7178e-12,1.09923e-37,-1.57926e-06,-3.84759e-12,1.09914e-37,-3.40904e-12,-1.13747e-13,0,0,-3.49053,0.0230757,0.712044,-0.437878,0.0508664,0.0520866,0.0216441,0,-0.382032,0.0230757,256,-107,256,-107,385,-98,250,24,-0.0616883,-0.261799,0,-1.5,-nan,0,0,0,-0.437878,0.0508664,0,0,0,0,0.0520866,0.0216441,18630,0,0,0,0,10399
11230,-3.7178e-12,1.09923e-37,-1.57926e-06,-3.84759e-12,1.09914e-37,0,-1.13748e-13,0,0,-3.49053,0.0230757,0.712044,-0.437152,0.051168,0.051723,0.021493,0,-0.382032,0.0230757,256,-107,256,-107,385,-98,250,24,-0.0619146,-0.261799,0,-1.5,-nan,0,0,0,-0.437152,0.051168,0,0,0,0,0.051723,0.021493,18630,0,0,0,0,10399
11267,-3.7178e-12,1.09923e-37,-1.57926e-06,-3.84759e-12,1.09914e-37,-3.40904e-12,-1.13748e-13,0,0,-3.49053,0.0230757,0.712044,-0.435217,0.0519721,0.0507436,0.021086,0,-0.382032,0.0230757,256,-107,256,-107,385,-98,250,24,-0.0625147,-0.261799,0,-1.5,-nan,0,0,0,-0.435217,0.0519721,0,0,0,0,0.0507436,0.021086,18630,0,0,0,0,10399
11284,-3.7178e-12,1.09923e-37,-1.57926e-06,-3.84759e-12,1.09914e-37,0,-1.13749e-13,0,0,-3.49053,0.0230757,0.712044,-0.434359,0.0523285,0.0503135,0.0209073,0,-0.382032,0.0230757,256,-107,256,-107,385,-98,250,24,-0.0627826,-0.261799,0,-1.5,-nan,0,0,0,-0.434359,0.0523285,0,0,0,0,0.0503135,0.0209073,18630,0,0,0,0,10399
11301,-3.7178e-12,1.09923e-37,-1.57926e-06,-3.84759e-12,1.09914e-37,-3.40904e-12,-1.13749e-13,0,0,-3.49053,0.0230757,0.712044,-0.433509,0.0526819,0.0498871,0.0207301,0,-0.382032,0.0230757,256,-107,256,-107,385,-98,250,24,-0.0630466,-0.261799,0,-1.5,-nan,0,0,0,-0.433509,0.0526819,0,0,0,0,0.0498871,0.0207301,18630,0,0,0,0,10399
11323,-3.7178e-12,1.09923e-37,-1.57926e-06,-3.84759e-12,1.09914e-37,0,-1.1375e-13,0,0,-3.49053,0.0230757,0.712044,-0.432469,0.053114,0.0493648,0.0205131,0,-0.382032,0.0230757,256,-107,256,-107,385,-98,250,24,-0.0633707,-0.261799,0,-1.5,-nan,0,0,0,-0.432469,0.053114,0,0,0,0,0.0493648,0.0205131,18630,0,0,0,0,10399
11340,-3.7178e-12,1.09923e-37,-1.57926e-06,-3.84759e-12,1.09914e-37,-3.40904e-12,-1.1375e-13,0,0,-3.49053,0.0230757,0.712044,-0.431586,0.053481,0.0489218,0.020329,0,-0.382032,0.0230757,256,-107,256,-107,385,-98,250,24,-0.0636455,-0.261799,0,-1.5,-nan,0,0,0,-0.431586,0.053481,0,0,0,0,0.0489218,0.020329,18630,0,0,0,0,10399
11357,-3.7178e-12,1.09923e-37,-1.57926e-06,-3.84759e-12,1.09914e-37,0,-1.13751e-13,0,0,-3.49053,0.0230757,0.712044,-0.430759,0.0538247,0.0485073,0.0201567,0,-0.382032,0.0230757,256,-107,256,-107,385,-98,250,24,-0.0639035,-0.261799,0,-1.5,-nan,0,0,0,-0.430759,0.0538247,0,0,0,0,0.0485073,0.0201567,18630,0,0,0,0,10399
11379,-3.7178e-12,1.09923e-37,-1.57926e-06,-3.84759e-12,1.09914e-37,-3.40904e-12,-1.13751e-13,0,0,-3.49053,0.0230757,0.712044,-0.4297,0.0542648,0.0479755,0.0199357,0,-0.382032,0.0230757,256,-107,256,-107,385,-98,250,24,-0.0642324,-0.261799,0,-1.5,-nan,0,0,0,-0.4297,0.0542648,0,0,0,0,0.0479755,0.0199357,18630,0,0,0,0,10399
11396,-3.7178e-12,1.09923e-37,-1.57926e-06,-3.84759e-12,1.09914e-37,0,-1.13752e-13,0,0,-3.49053,0.0230757,0.712044,-0.428889,0.0546018,0.0475688,0.0197668,0,-0.382032,0.0230757,256,-107,256,-107,385,-98,250,24,-0.064485,-0.261799,0,-1.5,-nan,0,0,0,-0.428889,0.0546018,0,0,0,0,0.0475688,0.0197668,18630,0,0,0,0,10399
11417,-3.7178e-12,1.09923e-37,-1.57926e-06,-3.84759e-12,1.09914e-37,-3.40904e-12,-1.13752e-13,0,0,-3.49053,0.0230757,0.712044,-0.427897,0.0550138,0.0470709,0.0195598,0,-0.382032,0.0230757,256,-107,256,-107,385,-98,250,24,-0.0647936,-0.261799,0,-1.5,-nan,0,0,0,-0.427897,0.0550138,0,0,0,0,0.0470709,0.0195598,18630,0,0,0,0,10399
11435,-3.7178e-12,1.09923e-37,-1.57926e-06,-3.84759e-12,1.09914e-37,0,-1.13753e-13,0,0,-3.49053,0.0230757,0.712044,-0.427055,0.0553638,0.0466485,0.0193843,0,-0.382032,0.0230757,256,-107,256,-107,385,-98,250,24,-0.065056,-0.261799,0,-1.5,-nan,0,0,0,-0.427055,0.0553638,0,0,0,0,0.0466485,0.0193843,18630,0,0,0,0,10399
11452,-3.7178e-12,1.09923e-37,-1.57926e-06,-3.84759e-12,1.09914e-37,-3.40904e-12,-1.13754e-13,0,0,-3.49053,0.0230757,0.712044,-0.426266,0.0556915,0.0462532,0.0192201,0,-0.382032,0.0230757,256,-107,256,-107,385,-98,250,24,-0.0653015,-0.261799,0,-1.5,-nan,0,0,0,-0.426266,0.0556915,0,0,0,0,0.0462532,0.0192201,18630,0,0,0,0,10399
11474,-3.7178e-12,1.09923e-37,-1.57926e-06,-3.84759e-12,1.09914e-37,0,-1.13754e-13,0,0,-3.49053,0.0230757,0.712044,-0.425302,0.0560921,0.045769,0.0190189,0,-0.382032,0.0230757,256,-107,256,-107,385,-98,250,24,-0.0656018,-0.261799,0,-1.5,-nan,0,0,0,-0.425302,0.0560921,0,0,0,0,0.045769,0.0190189,18630,0,0,0,0,10399
11495,-3.7178e-12,1.09923e-37,-1.57926e-06,-3.84759e-12,1.09914e-37,-3.40904e-12,-1.13755e-13,0,0,-3.49053,0.0230757,0.712044,-0.424348,0.0564885,0.0452899,0.0188198,0,-0.382032,0.0230757,256,-107,256,-107,385,-98,250,24,-0.0658986,-0.261799,0,-1.5,-nan,0,0,0,-0.424348,0.0564885,0,0,0,0,0.0452899,0.0188198,18630,0,0,0,0,10399
11511,-3.7178e-12,1.09923e-37,-1.57926e-06,-3.84759e-12,1.09914e-37,0,-1.13755e-13,0,0,-3.49053,0.0230757,0.712044,-0.423582,0.0568067,0.0449061,0.0186603,0,-0.382032,0.0230757,256,-107,256,-107,385,-98,250,24,-0.0661367,-0.261799,0,-1.5,-nan,0,0,0,-0.423582,0.0568067,0,0,0,0,0.0449061,0.0186603,18630,0,0,0,0,10399
11532,-3.7178e-12,1.09923e-37,-1.57926e-06,-3.84759e-12,1.09914e-37,-3.40904e-12,-1.13756e-13,0,0,-3.49053,0.0230757,0.712044,-0.422646,0.0571957,0.044436,0.018465,0,-0.382032,0.0230757,256,-107,256,-107,385,-98,250,24,-0.0664279,-0.261799,0,-1.5,-nan,0,0,0,-0.422646,0.0571957,0,0,0,0,0.044436,0.018465,18630,0,0,0,0,10399
11580,-3.7178e-12,1.09923e-37,-1.57926e-06,-3.84759e-12,1.09914e-37,0,-1.13756e-13,0,0,-3.49053,0.0230757,0.712044,-0.420557,0.0580639,0.0433734,0.0180234,0,-0.382032,0.0230757,256,-107,256,-107,385,-98,250,24,-0.0670754,-0.261799,0,-1.5,-nan,0,0,0,-0.420557,0.0580639,0,0,0,0,0.0433734,0.0180234,18630,0,0,0,0,10399
11602,-3.7178e-12,1.09923e-37,-1.57926e-06,-3.84759e-12,1.09914e-37,-3.40904e-12,-1.13757e-13,0,0,-3.49053,0.0230757,0.712044,-0.41961,0.0584573,0.0428977,0.0178257,0,-0.382032,0.0230757,256,-107,256,-107,385,-98,250,24,-0.06737,-0.261799,0,-1.5,-nan,0,0,0,-0.41961,0.0584573,0,0,0,0,0.0428977,0.0178257,18630,0,0,0,0,10399
11619,-3.7178e-12,1.09923e-37,-1.57926e-06,-3.84759e-12,1.09914e-37,0,-1.13757e-13,0,0,-3.49053,0.0230757,0.712044,-0.418885,0.0587586,0.0425341,0.0176746,0,-0.382032,0.0230757,256,-107,256,-107,385,-98,250,24,-0.0675959,-0.261799,0,-1.5,-nan,0,0,0,-0.418885,0.0587586,0,0,0,0,0.0425341,0.0176746,18630,0,0,0,0,10399
11637,-3.7178e-12,1.09923e-37,-1.57926e-06,-3.84759e-12,1.09914e-37,-3.40904e-12,-1.13758e-13,0,0,-3.49053,0.0230757,0.712044,-0.418124,0.0590749,0.0421525,0.0175161,0,-0.382032,0.0230757,256,-107,256,-107,385,-98,250,24,-0.067833,-0.261799,0,-1.5,-nan,0,0,0,-0.418124,0.0590749,0,0,0,0,0.0421525,0.0175161,18630,0,0,0,0,10399
11658,-3.7178e-12,1.09923e-37,-1.57926e-06,-3.84759e-12,1.09914e-37,0,-1.13758e-13,0,0,-3.49053,0.0230757,0.712044,-0.417246,0.0594399,0.0417112,0.0173327,0,-0.382032,0.0230757,256,-107,256,-107,385,-98,250,24,-0.0681059,-0.261799,0,-1.5,-nan,0,0,0,-0.417246,0.0594399,0,0,0,0,0.0417112,0.0173327,18630,0,0,0,0,10399
11676,-3.7178e-12,1.09923e-37,-1.57926e-06,-3.84759e-12,1.09914e-37,-3.40904e-12,-1.13759e-13,0,0,-3.49053,0.0230757,0.712044,-0.416499,0.0597501,0.041337,0.0171772,0,-0.382032,0.0230757,256,-107,256,-107,385,-98,250,24,-0.0683388,-0.261799,0,-1.5,-nan,0,0,0,-0.416499,0.0597501,0,0,0,0,0.041337,0.0171772,18630,0,0,0,0,10399
11693,-3.7178e-12,1.09923e-37,-1.57926e-06,-3.84759e-12,1.09914e-37,0,-1.13759e-13,0,0,-3.49053,0.0230757,0.712044,-0.4158,0.0600405,0.0409867,0.0170316,0,-0.382032,0.0230757,256,-107,256,-107,385,-98,250,24,-0.0685565,-0.261799,0,-1.5,-nan,0,0,0,-0.4158,0.0600405,0,0,0,0,0.0409867,0.0170316,18630,0,0,0,0,10399
11714,-3.7178e-12,1.09923e-37,-1.57926e-06,-3.84759e-12,1.09914e-37,-3.40904e-12,-1.1376e-13,0,0,-3.49053,0.0230757,0.712044,-0.414946,0.0603956,0.0405577,0.0168534,0,-0.382032,0.0230757,256,-107,256,-107,385,-98,250,24,-0.0688222,-0.261799,0,-1.5,-nan,0,0,0,-0.414946,0.0603956,0,0,0,0,0.0405577,0.0168534,18630,0,0,0,0,10399
11731,-3.7178e-12,1.09923e-37,-1.57926e-06,-3.84759e-12,1.09914e-37,0,-1.13761e-13,0,0,-3.49053,0.0230757,0.712044,-0.41426,0.0606805,0.040214,0.0167105,0,-0.382032,0.0230757,256,-107,256,-107,385,-98,250,24,-0.0690354,-0.261799,0,-1.5,-nan,0,0,0,-0.41426,0.0606805,0,0,0,0,0.040214,0.0167105,18630,0,0,0,0,10399
11753,-3.7178e-12,1.09923e-37,-1.57926e-06,-3.84759e-12,1.09914e-37,-3.40904e-12,-1.13761e-13,0,0,-3.49053,0.0230757,0.712044,-0.413382,0.0610453,0.0397731,0.0165273,0,-0.382032,0.0230757,256,-107,256,-107,385,-98,250,24,-0.0693089,-0.261799,0,-1.5,-nan,0,0,0,-0.413382,0.0610453,0,0,0,0,0.0397731,0.0165273,18630,0,0,0,0,10399
11785,-3.7178e-12,1.09923e-37,-1.57926e-06,-3.84759e-12,1.09914e-37,0,-1.13762e-13,0,0,-3.49053,0.0230757,0.712044,-0.412126,0.0615675,0.0391389,0.0162638,0,-0.382032,0.0230757,256,-107,256,-107,385,-98,250,24,-0.0696998,-0.261799,0,-1.5,-nan,0,0,0,-0.412126,0.0615675,0,0,0,0,0.0391389,0.0162638,18630,0,0,0,0,10399
11802,-3.7178e-12,1.09923e-37,-1.57926e-06,-3.84759e-12,1.09914e-37,-3.40904e-12,-1.13762e-13,0,0,-3.49053,0.0230757,0.712044,-0.411464,0.0618424,0.0388071,0.0161259,0,-0.382032,0.0230757,256,-107,256,-107,385,-98,250,24,-0.0699058,-0.261799,0,-1.5,-nan,0,0,0,-0.411464,0.0618424,0,0,0,0,0.0388071,0.0161259,18630,0,0,0,0,10399
11854,-3.7178e-12,1.09923e-37,-1.57926e-06,-3.84759e-12,1.09914e-37,0,-1.13763e-13,0,0,-3.49053,0.0230757,0.712044,-0.409491,0.0626622,0.0378018,0.0157082,0,-0.382032,0.0230757,256,-107,256,-107,385,-98,250,24,-0.070517,-0.261799,0,-1.5,-nan,0,0,0,-0.409491,0.0626622,0,0,0,0,0.0378018,0.0157082,18630,0,0,0,0,10399
11872,-3.7178e-12,1.09923e-37,-1.57926e-06,-3.84759e-12,1.09914e-37,-3.40904e-12,-1.13763e-13,0,0,-3.49053,0.0230757,0.712044,-0.408815,0.0629433,0.0374626,0.0155672,0,-0.382032,0.0230757,256,-107,256,-107,385,-98,250,24,-0.0707273,-0.261799,0,-1.5,-nan,0,0,0,-0.408815,0.0629433,0,0,0,0,0.0374626,0.0155672,18630,0,0,0,0,10399
11889,-3.7178e-12,1.09923e-37,-1.57926e-06,-3.84759e-12,1.09914e-37,0,-1.13764e-13,0,0,-3.49053,0.0230757,0.712044,-0.408181,0.0632065,0.0371451,0.0154353,0,-0.382032,0.0230757,256,-107,256,-107,385,-98,250,24,-0.0709234,-0.261799,0,-1.5,-nan,0,0,0,-0.408181,0.0632065,0,0,0,0,0.0371451,0.0154353,18630,0,0,0,0,10399
11928,-3.7178e-12,1.09923e-37,-1.57926e-06,-3.84759e-12,1.09914e-37,-3.40904e-12,-1.13764e-13,0,0,-3.49053,0.0230757,0.712044,-0.406755,0.063799,0.0364236,0.0151355,0,-0.382032,0.0230757,256,-107,256,-107,385,-98,250,24,-0.0713669,-0.261799,0,-1.5,-nan,0,0,0,-0.406755,0.063799,0,0,0,0,0.0364236,0.0151355,18630,0,0,0,0,10399
11945,-3.7178e-12,1.09923e-37,-1.57926e-06,-3.84759e-12,1.09914e-37,0,-1.13765e-13,0,0,-3.49053,0.0230757,0.712044,-0.40614,0.0640549,0.0361149,0.0150072,0,-0.382032,0.0230757,256,-107,256,-107,385,-98,250,24,-0.0715576,-0.261799,0,-1.5,-nan,0,0,0,-0.40614,0.0640549,0,0,0,0,0.0361149,0.0150072,18630,0,0,0,0,10399
11984,-3.7178e-12,1.09923e-37,-1.57926e-06,-3.84759e-12,1.09914e-37,-3.40904e-12,-1.13765e-13,0,0,-3.49053,0.0230757,0.712044,-0.404754,0.0646308,0.0354131,0.0147156,0,-0.382032,0.0230757,256,-107,256,-107,385,-98,250,24,-0.0719882,-0.261799,0,-1.5,-nan,0,0,0,-0.404754,0.0646308,0,0,0,0,0.0354131,0.0147156,18630,0,0,0,0,10399
12002,-3.7178e-12,1.09923e-37,-1.57926e-06,-3.84759e-12,1.09914e-37,0,-1.13766e-13,0,0,-3.49053,0.0230757,0.712044,-0.40412,0.0648941,0.0350953,0.0145835,0,-0.382032,0.0230757,256,-107,256,-107,385,-98,250,24,-0.0721863,-0.261799,0,-1.5,-nan,0,0,0,-0.40412,0.0648941,0,0,0,0,0.0350953,0.0145835,18630,0,0,0,0,10399
12019,-3.7178e-12,1.09923e-37,-1.57926e-06,-3.84759e-12,1.09914e-37,-3.40904e-12,-1.13767e-13,0,0,-3.49053,0.0230757,0.712044,-0.403527,0.0651406,0.0347979,0.0144599,0,-0.382032,0.0230757,256,-107,256,-107,385,-98,250,24,-0.0723714,-0.261799,0,-1.5,-nan,0,0,0,-0.403527,0.0651406,0,0,0,0,0.0347979,0.0144599,18630,0,0,0,0,10399
12041,-3.7178e-12,1.09923e-37,-1.57926e-06,-3.84759e-12,1.09914e-37,0,-1.13767e-13,0,0,-3.49053,0.0230757,0.712044,-0.402767,0.0654563,0.0344164,0.0143014,0,-0.382032,0.0230757,256,-107,256,-107,385,-98,250,24,-0.072607,-0.261799,0,-1.5,-nan,0,0,0,-0.402767,0.0654563,0,0,0,0,0.0344164,0.0143014,18630,0,0,0,0,10399
12059,-3.7178e-12,1.09923e-37,-1.57926e-06,-3.84759e-12,1.09914e-37,-3.40904e-12,-1.13768e-13,0,0,-3.49053,0.0230757,0.712044,-0.402151,0.0657122,0.0341076,0.0141731,0,-0.382032,0.0230757,256,-107,256,-107,385,-98,250,24,-0.0727996,-0.261799,0,-1.5,-nan,0,0,0,-0.402151,0.0657122,0,0,0,0,0.0341076,0.0141731,18630,0,0,0,0,10399
12072,-3.7178e-12,1.09923e-37,-1.57926e-06,-3.84759e-12,1.09914e-37,0,-1.13768e-13,0,0,-3.49053,0.0230757,0.712044,-0.40171,0.0658957,0.0338865,0.0140812,0,-0.382032,0.0230757,256,-107,256,-107,385,-98,250,24,-0.0729365,-0.261799,0,-1.5,-nan,0,0,0,-0.40171,0.0658957,0,0,0,0,0.0338865,0.0140812,18630,0,0,0,0,10399
12090,-3.7178e-12,1.09923e-37,-1.57926e-06,-3.84759e-12,1.09914e-37,-3.40904e-12,-1.13769e-13,0,0,-3.49053,0.0230757,0.712044,-0.401103,0.0661476,0.0335824,0.0139548,0,-0.382032,0.0230757,256,-107,256,-107,385,-98,250,24,-0.0731251,-0.261799,0,-1.5,-nan,0,0,0,-0.401103,0.0661476,0,0,0,0,0.0335824,0.0139548,18630,0,0,0,0,10399
12107,-3.7178e-12,1.09923e-37,-1.57926e-06,-3.84759e-12,1.09914e-37,0,-1.13769e-13,0,0,-3.49053,0.0230757,0.712044,-0.400536,0.0663835,0.0332977,0.0138365,0,-0.382032,0.0230757,256,-107,256,-107,385,-98,250,24,-0.0733014,-0.261799,0,-1.5,-nan,0,0,0,-0.400536,0.0663835,0,0,0,0,0.0332977,0.0138365,18630,0,0,0,0,10399
12128,-3.7178e-12,1.09923e-37,-1.57926e-06,-3.84759e-12,1.09914e-37,-3.40904e-12,-1.1377e-13,0,0,-3.49053,0.0230757,0.712044,-0.399842,0.0666719,0.0329492,0.0136917,0,-0.382032,0.0230757,256,-107,256,-107,385,-98,250,24,-0.0735172,-0.261799,0,-1.5,-nan,0,0,0,-0.399842,0.0666719,0,0,0,0,0.0329492,0.0136917,18630,0,0,0,0,10399
12175,-3.7178e-12,1.09923e-37,-1.57926e-06,-3.84759e-12,1.09914e-37,0,-1.1377e-13,0,0,-3.49053,0.0230757,0.712044,-0.398323,0.0673029,0.0321779,0.0133712,0,-0.382032,0.0230757,256,-107,256,-107,385,-98,250,24,-0.0739879,-0.261799,0,-1.5,-nan,0,0,0,-0.398323,0.0673029,0,0,0,0,0.0321779,0.0133712,18630,0,0,0,0,10399
12192,-3.7178e-12,1.09923e-37,-1.57926e-06,-3.84759e-12,1.09914e-37,-3.40904e-12,-1.13771e-13,0,0,-3.49053,0.0230757,0.712044,-0.397779,0.0675289,0.0319052,0.0132579,0,-0.382032,0.0230757,256,-107,256,-107,385,-98,250,24,-0.0741581,-0.261799,0,-1.5,-nan,0,0,0,-0.397779,0.0675289,0,0,0,0,0.0319052,0.0132579,18630,0,0,0,0,10399
12213,-3.7178e-12,1.09923e-37,-1.57926e-06,-3.84759e-12,1.09914e-37,0,-1.13771e-13,0,0,-3.49053,0.0230757,0.712044,-0.397114,0.0678053,0.0315712,0.0131191,0,-0.382032,0.0230757,256,-107,256,-107,385,-98,250,24,-0.0743655,-0.261799,0,-1.5,-nan,0,0,0,-0.397114,0.0678053,0,0,0,0,0.0315712,0.0131191,18630,0,0,0,0,10399
12230,-3.7178e-12,1.09923e-37,-1.57926e-06,-3.84759e-12,1.09914e-37,-3.40904e-12,-1.13772e-13,0,0,-3.49053,0.0230757,0.712044,-0.396581,0.068027,0.0313036,0.0130079,0,-0.382032,0.0230757,256,-107,256,-107,385,-98,250,24,-0.0745314,-0.261799,0,-1.5,-nan,0,0,0,-0.396581,0.068027,0,0,0,0,0.0313036,0.0130079,18630,0,0,0,0,10399
12247,-3.7178e-12,1.09923e-37,-1.57926e-06,-3.84759e-12,1.09914e-37,0,-1.13772e-13,0,0,-3.49053,0.0230757,0.712044,-0.396051,0.0682469,0.0310384,0.0128977,0,-0.382032,0.0230757,256,-107,256,-107,385,-98,250,24,-0.0746954,-0.261799,0,-1.5,-nan,0,0,0,-0.396051,0.0682469,0,0,0,0,0.0310384,0.0128977,18630,0,0,0,0,10399
12268,-3.7178e-12,1.09923e-37,-1.57926e-06,-3.84759e-12,1.09914e-37,-3.40904e-12,-1.13773e-13,0,0,-3.49053,0.0230757,0.712044,-0.395405,0.0685158,0.0307135,0.0127627,0,-0.382032,0.0230757,256,-107,256,-107,385,-98,250,24,-0.0748972,-0.261799,0,-1.5,-nan,0,0,0,-0.395405,0.0685158,0,0,0,0,0.0307135,0.0127627,18630,0,0,0,0,10399
12285,-3.7178e-12,1.09923e-37,-1.57926e-06,-3.84759e-12,1.09914e-37,0,-1.13774e-13,0,0,-3.49053,0.0230757,0.712044,-0.394885,0.0687315,0.0304531,0.0126545,0,-0.382032,0.0230757,256,-107,256,-107,385,-98,250,24,-0.0750589,-0.261799,0,-1.5,-nan,0,0,0,-0.394885,0.0687315,0,0,0,0,0.0304531,0.0126545,18630,0,0,0,0,10399
12302,-3.7178e-12,1.09923e-37,-1.57926e-06,-3.84759e-12,1.09914e-37,-3.40904e-12,-1.13774e-13,0,0,-3.49053,0.0230757,0.712044,-0.394371,0.0689454,0.030195,0.0125472,0,-0.382032,0.0230757,256,-107,256,-107,385,-98,250,24,-0.0752188,-0.261799,0,-1.5,-nan,0,0,0,-0.394371,0.0689454,0,0,0,0,0.030195,0.0125472,18630,0,0,0,0,10399
12341,-3.7178e-12,1.09923e-37,-1.57926e-06,-3.84759e-12,1.09914e-37,0,-1.13775e-13,0,0,-3.49053,0.0230757,0.712044,-0.393212,0.0694269,0.0296082,0.0123034,0,-0.382032,0.0230757,256,-107,256,-107,385,-98,250,24,-0.0755792,-0.261799,0,-1.5,-nan,0,0,0,-0.393212,0.0694269,0,0,0,0,0.0296082,0.0123034,18630,0,0,0,0,10399
12356,-3.7178e-12,1.09923e-37,-1.57926e-06,-3.84759e-12,1.09914e-37,-3.40904e-12,-1.13775e-13,0,0,-3.49053,0.0230757,0.712044,-0.39277,0.0696106,0.0293868,0.0122114,0,-0.382032,0.0230757,256,-107,256,-107,385,-98,250,24,-0.0757164,-0.261799,0,-1.5,-nan,0,0,0,-0.39277,0.0696106,0,0,0,0,0.0293868,0.0122114,18630,0,0,0,0,10399
12374,-3.7178e-12,1.09923e-37,-1.57926e-06,-3.84759e-12,1.09914e-37,0,-1.13776e-13,0,0,-3.49053,0.0230757,0.712044,-0.392244,0.0698291,0.0291231,0.0121018,0,-0.382032,0.0230757,256,-107,256,-107,385,-98,250,24,-0.0758808,-0.261799,0,-1.5,-nan,0,0,0,-0.392244,0.0698291,0,0,0,0,0.0291231,0.0121018,18630,0,0,0,0,10399
12391,-3.7178e-12,1.09923e-37,-1.57926e-06,-3.84759e-12,1.09914e-37,-3.40904e-12,-1.13776e-13,0,0,-3.49053,0.0230757,0.712044,-0.391752,0.0700337,0.0288763,0.0119993,0,-0.382032,0.0230757,256,-107,256,-107,385,-98,250,24,-0.0760332,-0.261799,0,-1.5,-nan,0,0,0,-0.391752,0.0700337,0,0,0,0,0.0288763,0.0119993,18630,0,0,0,0,10399
12408,-3.7178e-12,1.09923e-37,-1.57926e-06,-3.84759e-12,1.09914e-37,0,-1.13777e-13,0,0,-3.49053,0.0230757,0.712044,-0.391264,0.0702365,0.0286315,0.0118976,0,-0.382032,0.0230757,256,-107,256,-107,385,-98,250,24,-0.0761858,-0.261799,0,-1.5,-nan,0,0,0,-0.391264,0.0702365,0,0,0,0,0.0286315,0.0118976,18630,0,0,0,0,10399
12430,-3.7178e-12,1.09923e-37,-1.57926e-06,-3.84759e-12,1.09914e-37,-3.40904e-12,-1.13777e-13,0,0,-3.49053,0.0230757,0.712044,-0.390667,0.0704845,0.0283318,0.011773,0,-0.382032,0.0230757,256,-107,256,-107,385,-98,250,24,-0.0763704,-0.261799,0,-1.5,-nan,0,0,0,-0.390667,0.0704845,0,0,0,0,0.0283318,0.011773,18630,0,0,0,0,10399
12447,-3.7178e-12,1.09923e-37,-1.57926e-06,-3.84759e-12,1.09914e-37,0,-1.13778e-13,0,0,-3.49053,0.0230757,0.712044,-0.390188,0.0706835,0.0280917,0.0116732,0,-0.382032,0.0230757,256,-107,256,-107,385,-98,250,24,-0.076521,-0.261799,0,-1.5,-nan,0,0,0,-0.390188,0.0706835,0,0,0,0,0.0280917,0.0116732,18630,0,0,0,0,10399
12464,-3.7178e-12,1.09923e-37,-1.57926e-06,-3.84759e-12,1.09914e-37,-3.40904e-12,-1.13778e-13,0,0,-3.49053,0.0230757,0.712044,-0.389685,0.0708924,0.0278396,0.0115685,0,-0.382032,0.0230757,256,-107,256,-107,385,-98,250,24,-0.0766759,-0.261799,0,-1.5,-nan,0,0,0,-0.389685,0.0708924,0,0,0,0,0.0278396,0.0115685,18630,0,0,0,0,10399
12485,-3.7178e-12,1.09923e-37,-1.57926e-06,-3.84759e-12,1.09914e-37,0,-1.13779e-13,0,0,-3.49053,0.0230757,0.712044,-0.389105,0.0711335,0.0275482,0.0114474,0,-0.382032,0.0230757,256,-107,256,-107,385,-98,250,24,-0.0768574,-0.261799,0,-1.5,-nan,0,0,0,-0.389105,0.0711335,0,0,0,0,0.0275482,0.0114474,18630,0,0,0,0,10399
12503,-3.7178e-12,1.09923e-37,-1.57926e-06,-3.84759e-12,1.09914e-37,-3.40904e-12,-1.1378e-13,0,0,-3.49053,0.0230757,0.712044,-0.388612,0.0713383,0.027301,0.0113447,0,-0.382032,0.0230757,256,-107,256,-107,385,-98,250,24,-0.0770107,-0.261799,0,-1.5,-nan,0,0,0,-0.388612,0.0713383,0,0,0,0,0.027301,0.0113447,18630,0,0,0,0,10399
12524,-3.7178e-12,1.09923e-37,-1.57926e-06,-3.84759e-12,1.09914e-37,0,-1.1378e-13,0,0,-3.49053,0.0230757,0.712044,-0.388043,0.0715749,0.0270153,0.0112259,0,-0.382032,0.0230757,256,-107,256,-107,385,-98,250,24,-0.077187,-0.261799,0,-1.5,-nan,0,0,0,-0.388043,0.0715749,0,0,0,0,0.0270153,0.0112259,18630,0,0,0,0,10399
12560,-3.7178e-12,1.09923e-37,-1.57926e-06,-3.84759e-12,1.09914e-37,-3.40904e-12,-1.13781e-13,0,0,-3.49053,0.0230757,0.712044,-0.387085,0.0719731,0.0265307,0.0110246,0,-0.382032,0.0230757,256,-107,256,-107,385,-98,250,24,-0.0774847,-0.261799,0,-1.5,-nan,0,0,0,-0.387085,0.0719731,0,0,0,0,0.0265307,0.0110246,18630,0,0,0,0,10399
12577,-3.7178e-12,1.09923e-37,-1.57926e-06,-3.84759e-12,1.09914e-37,0,-1.13781e-13,0,0,-3.49053,0.0230757,0.712044,-0.386636,0.0721595,0.0263059,0.0109311,0,-0.382032,0.0230757,256,-107,256,-107,385,-98,250,24,-0.0776245,-0.261799,0,-1.5,-nan,0,0,0,-0.386636,0.0721595,0,0,0,0,0.0263059,0.0109311,18630,0,0,0,0,10399
12599,-3.7178e-12,1.09923e-37,-1.57926e-06,-3.84759e-12,1.09914e-37,-3.40904e-12,-1.13782e-13,0,0,-3.49053,0.0230757,0.712044,-0.386088,0.0723873,0.0260305,0.0108167,0,-0.382032,0.0230757,256,-107,256,-107,385,-98,250,24,-0.0777964,-0.261799,0,-1.5,-nan,0,0,0,-0.386088,0.0723873,0,0,0,0,0.0260305,0.0108167,18630,0,0,0,0,10399
12612,-3.7178e-12,1.09923e-37,-1.57926e-06,-3.84759e-12,1.09914e-37,0,-1.13782e-13,0,0,-3.49053,0.0230757,0.712044,-0.385725,0.0725381,0.0258488,0.0107412,0,-0.382032,0.0230757,256,-107,256,-107,385,-98,250,24,-0.0779081,-0.261799,0,-1.5,-nan,0,0,0,-0.385725,0.0725381,0,0,0,0,0.0258488,0.0107412,18630,0,0,0,0,10399
12648,-3.7178e-12,1.09923e-37,-1.57926e-06,-3.84759e-12,1.09914e-37,-3.40904e-12,-1.13783e-13,0,0,-3.49053,0.0230757,0.712044,-0.384808,0.0729191,0.0253851,0.0105485,0,-0.382032,0.0230757,256,-107,256,-107,385,-98,250,24,-0.0781941,-0.261799,0,-1.5,-nan,0,0,0,-0.384808,0.0729191,0,0,0,0,0.0253851,0.0105485,18630,0,0,0,0,10399
12670,-3.7178e-12,1.09923e-37,-1.57926e-06,-3.84759e-12,1.09914e-37,0,-1.13783e-13,0,0,-3.49053,0.0230757,0.712044,-0.384254,0.0731494,0.0251067,0.0104328,0,-0.382032,0.0230757,256,-107,256,-107,385,-98,250,24,-0.0783666,-0.261799,0,-1.5,-nan,0,0,0,-0.384254,0.0731494,0,0,0,0,0.0251067,0.0104328,18630,0,0,0,0,10399
12687,-3.7178e-12,1.09923e-37,-1.57926e-06,-3.84759e-12,1.09914e-37,-3.40904e-12,-1.13784e-13,0,0,-3.49053,0.0230757,0.712044,-0.383829,0.0733257,0.0248939,0.0103444,0,-0.382032,0.0230757,256,-107,256,-107,385,-98,250,24,-0.0784983,-0.261799,0,-1.5,-nan,0,0,0,-0.383829,0.0733257,0,0,0,0,0.0248939,0.0103444,18630,0,0,0,0,10399
12755,-3.7178e-12,1.09923e-37,-1.57926e-06,-3.84759e-12,1.09914e-37,0,-1.13784e-13,0,0,-3.49053,0.0230757,0.712044,-0.382187,0.0740081,0.024051,0.00999415,0,-0.382032,0.0230757,256,-107,256,-107,385,-98,250,24,-0.0790056,-0.261799,0,-1.5,-nan,0,0,0,-0.382187,0.0740081,0,0,0,0,0.024051,0.00999415,18630,0,0,0,0,10399
12772,-3.7178e-12,1.09923e-37,-1.57926e-06,-3.84759e-12,1.09914e-37,-3.40904e-12,-1.13785e-13,0,0,-3.49053,0.0230757,0.712044,-0.381781,0.0741771,0.0238471,0.00990944,0,-0.382032,0.0230757,256,-107,256,-107,385,-98,250,24,-0.0791317,-0.261799,0,-1.5,-nan,0,0,0,-0.381781,0.0741771,0,0,0,0,0.0238471,0.00990944,18630,0,0,0,0,10399
12789,-3.7178e-12,1.09923e-37,-1.57926e-06,-3.84759e-12,1.09914e-37,0,-1.13786e-13,0,0,-3.49053,0.0230757,0.712044,-0.381377,0.0743446,0.023645,0.00982545,0,-0.382032,0.0230757,256,-107,256,-107,385,-98,250,24,-0.0792564,-0.261799,0,-1.5,-nan,0,0,0,-0.381377,0.0743446,0,0,0,0,0.023645,0.00982545,18630,0,0,0,0,10399
12811,-3.7178e-12,1.09923e-37,-1.57926e-06,-3.84759e-12,1.09914e-37,-3.40904e-12,-1.13786e-13,0,0,-3.49053,0.0230757,0.712044,-0.380861,0.0745591,0.0233858,0.00971773,0,-0.382032,0.0230757,256,-107,256,-107,385,-98,250,24,-0.0794187,-0.261799,0,-1.5,-nan,0,0,0,-0.380861,0.0745591,0,0,0,0,0.0233858,0.00971773,18630,0,0,0,0,10399
12828,-3.7178e-12,1.09923e-37,-1.57926e-06,-3.84759e-12,1.09914e-37,0,-1.13787e-13,0,0,-3.49053,0.0230757,0.712044,-0.380466,0.0747233,0.0231876,0.00963536,0,-0.382032,0.0230757,256,-107,256,-107,385,-98,250,24,-0.0795401,-0.261799,0,-1.5,-nan,0,0,0,-0.380466,0.0747233,0,0,0,0,0.0231876,0.00963536,18630,0,0,0,0,10399
12845,-3.7178e-12,1.09923e-37,-1.57926e-06,-3.84759e-12,1.09914e-37,-3.40904e-12,-1.13787e-13,0,0,-3.49053,0.0230757,0.712044,-0.380074,0.0748862,0.0229911,0.00955371,0,-0.382032,0.0230757,256,-107,256,-107,385,-98,250,24,-0.0796639,-0.261799,0,-1.5,-nan,0,0,0,-0.380074,0.0748862,0,0,0,0,0.0229911,0.00955371,18630,0,0,0,0,10399
12867,-3.7178e-12,1.09923e-37,-1.57926e-06,-3.84759e-12,1.09914e-37,0,-1.13788e-13,0,0,-3.49053,0.0230757,0.712044,-0.379572,0.0750948,0.022739,0.00944897,0,-0.382032,0.0230757,256,-107,256,-107,385,-98,250,24,-0.0798185,-0.261799,0,-1.5,-nan,0,0,0,-0.379572,0.0750948,0,0,0,0,0.022739,0.00944897,18630,0,0,0,0,10399
12884,-3.7178e-12,1.09923e-37,-1.57926e-06,-3.84759e-12,1.09914e-37,-3.40904e-12,-1.13788e-13,0,0,-3.49053,0.0230757,0.712044,-0.379188,0.0752546,0.0225463,0.00936889,0,-0.382032,0.0230757,256,-107,256,-107,385,-98,250,24,-0.0799385,-0.261799,0,-1.5,-nan,0,0,0,-0.379188,0.0752546,0,0,0,0,0.0225463,0.00936889,18630,0,0,0,0,10399
12906,-3.7178e-12,1.09923e-37,-1.57926e-06,-3.84759e-12,1.09914e-37,0,-1.13789e-13,0,0,-3.49053,0.0230757,0.712044,-0.378695,0.0754591,0.0222991,0.00926618,0,-0.382032,0.0230757,256,-107,256,-107,385,-98,250,24,-0.0800921,-0.261799,0,-1.5,-nan,0,0,0,-0.378695,0.0754591,0,0,0,0,0.0222991,0.00926618,18630,0,0,0,0,10399
12919,-3.7178e-12,1.09923e-37,-1.57926e-06,-3.84759e-12,1.09914e-37,-3.40904e-12,-1.13789e-13,0,0,-3.49053,0.0230757,0.712044,-0.378407,0.0755791,0.0221545,0.00920609,0,-0.382032,0.0230757,256,-107,256,-107,385,-98,250,24,-0.0801817,-0.261799,0,-1.5,-nan,0,0,0,-0.378407,0.0755791,0,0,0,0,0.0221545,0.00920609,18630,0,0,0,0,10399
12937,-3.7178e-12,1.09923e-37,-1.57926e-06,-3.84759e-12,1.09914e-37,0,-1.1379e-13,0,0,-3.49053,0.0230757,0.712044,-0.37801,0.0757438,0.0219557,0.00912349,0,-0.382032,0.0230757,256,-107,256,-107,385,-98,250,24,-0.0803054,-0.261799,0,-1.5,-nan,0,0,0,-0.37801,0.0757438,0,0,0,0,0.0219557,0.00912349,18630,0,0,0,0,10399
12958,-3.7178e-12,1.09923e-37,-1.57926e-06,-3.84759e-12,1.09914e-37,-3.40904e-12,-1.1379e-13,0,0,-3.49053,0.0230757,0.712044,-0.377553,0.075934,0.0217259,0.00902799,0,-0.382032,0.0230757,256,-107,256,-107,385,-98,250,24,-0.0804472,-0.261799,0,-1.5,-nan,0,0,0,-0.377553,0.075934,0,0,0,0,0.0217259,0.00902799,18630,0,0,0,0,10399
12976,-3.7178e-12,1.09923e-37,-1.57926e-06,-3.84759e-12,1.09914e-37,0,-1.13791e-13,0,0,-3.49053,0.0230757,0.712044,-0.377164,0.0760955,0.021531,0.00894699,0,-0.382032,0.0230757,256,-107,256,-107,385,-98,250,24,-0.0805696,-0.261799,0,-1.5,-nan,0,0,0,-0.377164,0.0760955,0,0,0,0,0.021531,0.00894699,18630,0,0,0,0,10399
12993,-3.7178e-12,1.09923e-37,-1.57926e-06,-3.84759e-12,1.09914e-37,-3.40904e-12,-1.13791e-13,0,0,-3.49053,0.0230757,0.712044,-0.3768,0.0762468,0.0213485,0.00887117,0,-0.382032,0.0230757,256,-107,256,-107,385,-98,250,24,-0.0806824,-0.261799,0,-1.5,-nan,0,0,0,-0.3768,0.0762468,0,0,0,0,0.0213485,0.00887117,18630,0,0,0,0,10399
13014,-3.7178e-12,1.09923e-37,-1.57926e-06,-3.84759e-12,1.09914e-37,0,-1.13792e-13,0,0,-3.49053,0.0230757,0.712044,-0.376355,0.0764317,0.0211251,0.00877833,0,-0.382032,0.0230757,256,-107,256,-107,385,-98,250,24,-0.0808201,-0.261799,0,-1.5,-nan,0,0,0,-0.376355,0.0764317,0,0,0,0,0.0211251,0.00877833,18630,0,0,0,0,10399
13032,-3.7178e-12,1.09923e-37,-1.57926e-06,-3.84759e-12,1.09914e-37,-3.40904e-12,-1.13793e-13,0,0,-3.49053,0.0230757,0.712044,-0.375998,0.0765801,0.020946,0.00870392,0,-0.382032,0.0230757,256,-107,256,-107,385,-98,250,24,-0.0809312,-0.261799,0,-1.5,-nan,0,0,0,-0.375998,0.0765801,0,0,0,0,0.020946,0.00870392,18630,0,0,0,0,10399
13048,-3.7178e-12,1.09923e-37,-1.57926e-06,-3.84759e-12,1.09914e-37,0,-1.13793e-13,0,0,-3.49053,0.0230757,0.712044,-0.375644,0.0767272,0.0207685,0.00863015,0,-0.382032,0.0230757,256,-107,256,-107,385,-98,250,24,-0.081043,-0.261799,0,-1.5,-nan,0,0,0,-0.375644,0.0767272,0,0,0,0,0.0207685,0.00863015,18630,0,0,0,0,10399
13070,-3.7178e-12,1.09923e-37,-1.57926e-06,-3.84759e-12,1.09914e-37,-3.40904e-12,-1.13794e-13,0,0,-3.49053,0.0230757,0.712044,-0.37519,0.0769156,0.0205407,0.00853551,0,-0.382032,0.0230757,256,-107,256,-107,385,-98,250,24,-0.0811829,-0.261799,0,-1.5,-nan,0,0,0,-0.37519,0.0769156,0,0,0,0,0.0205407,0.00853551,18630,0,0,0,0,10399
13087,-3.7178e-12,1.09923e-37,-1.57926e-06,-3.84759e-12,1.09914e-37,0,-1.13794e-13,0,0,-3.49053,0.0230757,0.712044,-0.374843,0.0770599,0.0203666,0.00846316,0,-0.382032,0.0230757,256,-107,256,-107,385,-98,250,24,-0.0812918,-0.261799,0,-1.5,-nan,0,0,0,-0.374843,0.0770599,0,0,0,0,0.0203666,0.00846316,18630,0,0,0,0,10399
13109,-3.7178e-12,1.09923e-37,-1.57926e-06,-3.84759e-12,1.09914e-37,-3.40904e-12,-1.13795e-13,0,0,-3.49053,0.0230757,0.712044,-0.374398,0.0772446,0.0201433,0.00837035,0,-0.382032,0.0230757,256,-107,256,-107,385,-98,250,24,-0.08143,-0.261799,0,-1.5,-nan,0,0,0,-0.374398,0.0772446,0,0,0,0,0.0201433,0.00837035,18630,0,0,0,0,10399
13127,-3.7178e-12,1.09923e-37,-1.57926e-06,-3.84759e-12,1.09914e-37,0,-1.13795e-13,0,0,-3.49053,0.0230757,0.712044,-0.374038,0.0773943,0.0199625,0.00829524,0,-0.382032,0.0230757,256,-107,256,-107,385,-98,250,24,-0.0815425,-0.261799,0,-1.5,-nan,0,0,0,-0.374038,0.0773943,0,0,0,0,0.0199625,0.00829524,18630,0,0,0,0,10399
13148,-3.7178e-12,1.09923e-37,-1.57926e-06,-3.84759e-12,1.09914e-37,-3.40904e-12,-1.13796e-13,0,0,-3.49053,0.0230757,0.712044,-0.373622,0.0775672,0.0197536,0.0082084,0,-0.382032,0.0230757,256,-107,256,-107,385,-98,250,24,-0.0816707,-0.261799,0,-1.5,-nan,0,0,0,-0.373622,0.0775672,0,0,0,0,0.0197536,0.0082084,18630,0,0,0,0,10399
13167,-3.7178e-12,1.09923e-37,-1.57926e-06,-3.84759e-12,1.09914e-37,0,-1.13796e-13,0,0,-3.49053,0.0230757,0.712044,-0.373249,0.0777222,0.0195665,0.00813067,0,-0.382032,0.0230757,256,-107,256,-107,385,-98,250,24,-0.0817878,-0.261799,0,-1.5,-nan,0,0,0,-0.373249,0.0777222,0,0,0,0,0.0195665,0.00813067,18630,0,0,0,0,10399
13184,-3.7178e-12,1.09923e-37,-1.57926e-06,-3.84759e-12,1.09914e-37,-3.40904e-12,-1.13797e-13,0,0,-3.49053,0.0230757,0.712044,-0.372938,0.0778516,0.0194104,0.0080658,0,-0.382032,0.0230757,256,-107,256,-107,385,-98,250,24,-0.0818843,-0.261799,0,-1.5,-nan,0,0,0,-0.372938,0.0778516,0,0,0,0,0.0194104,0.0080658,18630,0,0,0,0,10399
13201,-3.7178e-12,1.09923e-37,-1.57926e-06,-3.84759e-12,1.09914e-37,0,-1.13797e-13,0,0,-3.49053,0.0230757,0.712044,-0.37259,0.0779959,0.0192362,0.00799343,0,-0.382032,0.0230757,256,-107,256,-107,385,-98,250,24,-0.0819932,-0.261799,0,-1.5,-nan,0,0,0,-0.37259,0.0779959,0,0,0,0,0.0192362,0.00799343,18630,0,0,0,0,10399
13222,-3.7178e-12,1.09923e-37,-1.57926e-06,-3.84759e-12,1.09914e-37,-3.40904e-12,-1.13798e-13,0,0,-3.49053,0.0230757,0.712044,-0.372189,0.0781626,0.0190349,0.00790975,0,-0.382032,0.0230757,256,-107,256,-107,385,-98,250,24,-0.082117,-0.261799,0,-1.5,-nan,0,0,0,-0.372189,0.0781626,0,0,0,0,0.0190349,0.00790975,18630,0,0,0,0,10399
13240,-3.7178e-12,1.09923e-37,-1.57926e-06,-3.84759e-12,1.09914e-37,0,-1.13799e-13,0,0,-3.49053,0.0230757,0.712044,-0.371868,0.0782963,0.0188735,0.00784271,0,-0.382032,0.0230757,256,-107,256,-107,385,-98,250,24,-0.0822171,-0.261799,0,-1.5,-nan,0,0,0,-0.371868,0.0782963,0,0,0,0,0.0188735,0.00784271,18630,0,0,0,0,10399
13309,-3.7178e-12,1.09923e-37,-1.57926e-06,-3.84759e-12,1.09914e-37,-3.40904e-12,-1.13799e-13,0,0,-3.49053,0.0230757,0.712044,-0.370588,0.0788281,0.0182154,0.00756923,0,-0.382032,0.0230757,256,-107,256,-107,385,-98,250,24,-0.082613,-0.261799,0,-1.5,-nan,0,0,0,-0.370588,0.0788281,0,0,0,0,0.0182154,0.00756923,18630,0,0,0,0,10399
13327,-3.7178e-12,1.09923e-37,-1.57926e-06,-3.84759e-12,1.09914e-37,0,-1.138e-13,0,0,-3.49053,0.0230757,0.712044,-0.370262,0.0789635,0.0180519,0.00750131,0,-0.382032,0.0230757,256,-107,256,-107,385,-98,250,24,-0.0827149,-0.261799,0,-1.5,-nan,0,0,0,-0.370262,0.0789635,0,0,0,0,0.0180519,0.00750131,18630,0,0,0,0,10399
13362,-3.7178e-12,1.09923e-37,-1.57926e-06,-3.84759e-12,1.09914e-37,-3.40904e-12,-1.138e-13,0,0,-3.49053,0.0230757,0.712044,-0.369639,0.0792224,0.0177371,0.00737048,0,-0.382032,0.0230757,256,-107,256,-107,385,-98,250,24,-0.0829067,-0.261799,0,-1.5,-nan,0,0,0,-0.369639,0.0792224,0,0,0,0,0.0177371,0.00737048,18630,0,0,0,0,10399
13415,-3.7178e-12,1.09923e-37,-1.57926e-06,-3.84759e-12,1.09914e-37,0,-1.13801e-13,0,0,-3.49053,0.0230757,0.712044,-0.36872,0.0796042,0.017269,0.00717595,0,-0.382032,0.0230757,256,-107,256,-107,385,-98,250,24,-0.0831917,-0.261799,0,-1.5,-nan,0,0,0,-0.36872,0.0796042,0,0,0,0,0.017269,0.00717595,18630,0,0,0,0,10399
13432,-3.7178e-12,1.09923e-37,-1.57926e-06,-3.84759e-12,1.09914e-37,-3.40904e-12,-1.13801e-13,0,0,-3.49053,0.0230757,0.712044,-0.368428,0.0797255,0.0171226,0.00711513,0,-0.382032,0.0230757,256,-107,256,-107,385,-98,250,24,-0.0832832,-0.261799,0,-1.5,-nan,0,0,0,-0.368428,0.0797255,0,0,0,0,0.0171226,0.00711513,18630,0,0,0,0,10399
13449,-3.7178e-12,1.09923e-37,-1.57926e-06,-3.84759e-12,1.09914e-37,0,-1.13802e-13,0,0,-3.49053,0.0230757,0.712044,-0.368139,0.0798458,0.0169775,0.00705482,0,-0.382032,0.0230757,256,-107,256,-107,385,-98,250,24,-0.0833736,-0.261799,0,-1.5,-nan,0,0,0,-0.368139,0.0798458,0,0,0,0,0.0169775,0.00705482,18630,0,0,0,0,10399
13471,-3.7178e-12,1.09923e-37,-1.57926e-06,-3.84759e-12,1.09914e-37,-3.40904e-12,-1.13802e-13,0,0,-3.49053,0.0230757,0.712044,-0.367768,0.0799998,0.0167913,0.00697745,0,-0.382032,0.0230757,256,-107,256,-107,385,-98,250,24,-0.0834885,-0.261799,0,-1.5,-nan,0,0,0,-0.367768,0.0799998,0,0,0,0,0.0167913,0.00697745,18630,0,0,0,0,10399
13485,-3.7178e-12,1.09923e-37,-1.57926e-06,-3.84759e-12,1.09914e-37,0,-1.13803e-13,0,0,-3.49053,0.0230757,0.712044,-0.367534,0.080097,0.0166741,0.00692874,0,-0.382032,0.0230757,256,-107,256,-107,385,-98,250,24,-0.0835615,-0.261799,0,-1.5,-nan,0,0,0,-0.367534,0.080097,0,0,0,0,0.0166741,0.00692874,18630,0,0,0,0,10399
13502,-3.7178e-12,1.09923e-37,-1.57926e-06,-3.84759e-12,1.09914e-37,-3.40904e-12,-1.13803e-13,0,0,-3.49053,0.0230757,0.712044,-0.367252,0.0802142,0.0165327,0.00687002,0,-0.382032,0.0230757,256,-107,256,-107,385,-98,250,24,-0.0836489,-0.261799,0,-1.5,-nan,0,0,0,-0.367252,0.0802142,0,0,0,0,0.0165327,0.00687002,18630,0,0,0,0,10399
13523,-3.7178e-12,1.09923e-37,-1.57926e-06,-3.84759e-12,1.09914e-37,0,-1.13804e-13,0,0,-3.49053,0.0230757,0.712044,-0.366908,0.0803574,0.0163597,0.0067981,0,-0.382032,0.0230757,256,-107,256,-107,385,-98,250,24,-0.0837567,-0.261799,0,-1.5,-nan,0,0,0,-0.366908,0.0803574,0,0,0,0,0.0163597,0.0067981,18630,0,0,0,0,10399
13541,-3.7178e-12,1.09923e-37,-1.57926e-06,-3.84759e-12,1.09914e-37,-3.40904e-12,-1.13804e-13,0,0,-3.49053,0.0230757,0.712044,-0.366615,0.080479,0.0162129,0.00673711,0,-0.382032,0.0230757,256,-107,256,-107,385,-98,250,24,-0.0838467,-0.261799,0,-1.5,-nan,0,0,0,-0.366615,0.080479,0,0,0,0,0.0162129,0.00673711,18630,0,0,0,0,10399
13562,-3.7178e-12,1.09923e-37,-1.57926e-06,-3.84759e-12,1.09914e-37,0,-1.13805e-13,0,0,-3.49053,0.0230757,0.712044,-0.366277,0.0806194,0.0160432,0.0066666,0,-0.382032,0.0230757,256,-107,256,-107,385,-98,250,24,-0.0839536,-0.261799,0,-1.5,-nan,0,0,0,-0.366277,0.0806194,0,0,0,0,0.0160432,0.0066666,18630,0,0,0,0,10399
13597,-3.7178e-12,1.09923e-37,-1.57926e-06,-3.84759e-12,1.09914e-37,-3.40904e-12,-1.13806e-13,0,0,-3.49053,0.0230757,0.712044,-0.365723,0.0808495,0.0157634,0.00655033,0,-0.382032,0.0230757,256,-107,256,-107,385,-98,250,24,-0.084124,-0.261799,0,-1.5,-nan,0,0,0,-0.365723,0.0808495,0,0,0,0,0.0157634,0.00655033,18630,0,0,0,0,10399
