timestamp,A_x,A_y,A_z,P,Q,R,Phi,Theta,Psi,poseX,poseY,poseZ,state_X,state_Y,state_Z,state_VzB,state_Bx,state_By,state_Bz,p1_x,p1_y,p2_x,p2_y,p3_x,p3_y,p4_x,p4_y,roll,pitch,yaw,alt,targetHeading,highLevelState,lowLevelState,gateNumber,filtered_x,filtered_y,x_OT,y_OT,vx_OT,vy_OT,filtered_vx,filtered_vygateArearansac_corr_x,ransac_corr_y,ransac_corr_vx,ransac_corr_vy,detectionTimeStamppTermX,dTermX,pTermY,dTermY,vxcmd,vycmd
8039,0,0,0,0,0,0,0,0,0,0,0,0,0,0,0,0,0,0,0,0,0,0,0,0,0,0,0,0,-0.0872664,0,-1.5,3.94113e+12,0,0,0,0,0,0,0,0,0,0,0,1.9603e-19,0,0,0,0,0,0,0,0,0,2,0
9021,-3.71265e-12,2.86688e-38,-1.57833e-06,-3.84404e-12,2.86664e-38,0,-1.13703e-13,0,0,0,0,0,0,0,0,0,0,0,0,0,0,0,0,0,0,0,0,0,-0.0872664,0,-1.5,3.94113e+12,0,0,0,0,0,0,0,0,0,0,0,1.9603e-19,0,0,0,0,0,0,0,0,0,2,0
9065,-3.71265e-12,2.86688e-38,-1.57833e-06,-3.84404e-12,2.86664e-38,0,-1.13703e-13,0,0,0,0,0,0,0,0,0,0,0,0,0,0,0,0,0,0,0,0,0,-0.0872664,0,-1.5,3.94113e+12,0,0,0,0,0,0,0,0,0,0,0,1.9603e-19,0,0,0,0,0,0,0,0,0,2,0
9300,-3.71265e-12,2.86688e-38,-1.57833e-06,-3.84404e-12,2.86664e-38,0,-1.13704e-13,0,0,0,0,0,0,0,0,0,0,0,0,0,0,0,0,0,0,0,0,0,-0.0872664,0,-1.5,3.94113e+12,0,0,0,0,0,0,0,0,0,0,0,1.9603e-19,0,0,0,0,0,0,0,0,0,2,0
9364,-3.71265e-12,2.86688e-38,-1.57833e-06,-3.84404e-12,2.86664e-38,0,-1.13704e-13,0,0,0,0,0,0,0,0,0,0,0,0,0,0,0,0,0,0,0,0,0,-0.0872664,0,-1.5,3.94113e+12,0,0,0,0,0,0,0,0,0,0,0,1.9603e-19,0,0,0,0,0,0,0,0,0,2,0
9516,-3.71265e-12,2.86688e-38,-1.57833e-06,-3.84404e-12,2.86664e-38,0,-1.13705e-13,0,0,0,0,0,0,0,0,0,0,0,0,0,0,0,0,0,0,0,0,0,-0.0872664,0,-1.5,3.94113e+12,0,0,0,0,0,0,0,0,0,0,0,1.9603e-19,0,0,0,0,0,0,0,0,0,2,0
9564,-3.71265e-12,2.86688e-38,-1.57833e-06,-3.84404e-12,2.86664e-38,0,-1.13705e-13,0,0,0,0,0,0,0,0,0,0,0,0,0,0,0,0,0,0,0,0,0,-0.0872664,0,-1.5,3.94113e+12,0,0,0,0,0,0,0,0,0,0,0,1.9603e-19,0,0,0,0,0,0,0,0,0,2,0
9670,-3.71265e-12,2.86688e-38,-1.57833e-06,-3.84404e-12,2.86664e-38,0,-1.13706e-13,0,0,0,0,0,0,0,0,0,0,0,0,0,0,0,0,0,0,0,0,0,-0.0872664,0,-1.5,3.94113e+12,0,0,0,0,0,0,0,0,0,0,0,1.9603e-19,0,0,0,0,0,0,0,0,0,2,0
9745,-3.71265e-12,2.86688e-38,-1.57833e-06,-3.84404e-12,2.86664e-38,0,-1.13706e-13,0,0,0,0,0,0,0,0,0,0,0,0,0,0,0,0,0,0,0,0,0,-0.0872664,0,-1.5,3.94113e+12,0,0,0,0,0,0,0,0,0,0,0,1.9603e-19,0,0,0,0,0,0,0,0,0,2,0
9764,-3.71265e-12,2.86688e-38,-1.57833e-06,-3.84404e-12,2.86664e-38,0,-1.13707e-13,0,0,0,0,0,0,0,0,0,0,0,0,0,0,0,0,0,0,0,0,0,-0.0872664,0,-1.5,3.94113e+12,0,0,0,0,0,0,0,0,0,0,0,1.9603e-19,0,0,0,0,0,0,0,0,0,2,0
9782,-3.71265e-12,2.86688e-38,-1.57833e-06,-3.84404e-12,2.86664e-38,0,-1.13708e-13,0,0,0,0,0,0,0,0,0,0,0,0,0,0,0,0,0,0,0,0,0,-0.0872664,0,-1.5,3.94113e+12,0,0,0,0,0,0,0,0,0,0,0,1.9603e-19,0,0,0,0,0,0,0,0,0,2,0
9832,-3.71265e-12,2.86688e-38,-1.57833e-06,-3.84404e-12,2.86664e-38,0,-1.13708e-13,0,0,0,0,0,0,0,0,0,0,0,0,0,0,0,0,0,0,0,0,0,-0.0872664,0,-1.5,3.94113e+12,0,0,0,0,0,0,0,0,0,0,0,1.9603e-19,0,0,0,0,0,0,0,0,0,2,0
9940,-3.71265e-12,2.86688e-38,-1.57833e-06,-3.84404e-12,2.86664e-38,0,-1.13709e-13,0,0,0,0,0,0,0,0,0,0,0,0,0,0,0,0,0,0,0,0,0,-0.0872664,0,-1.5,3.94113e+12,0,0,0,0,0,0,0,0,0,0,0,1.9603e-19,0,0,0,0,0,0,0,0,0,2,0
9985,-3.71265e-12,2.86688e-38,-1.57833e-06,-3.84404e-12,2.86664e-38,0,-1.13709e-13,0,0,0,0,0,0,0,0,0,0,0,0,0,0,0,0,0,0,0,0,0,-0.0872664,0,-1.5,3.94113e+12,0,0,0,0,0,0,0,0,0,0,0,1.9603e-19,0,0,0,0,0,0,0,0,0,2,0
10002,-3.71265e-12,2.86688e-38,-1.57833e-06,-3.84404e-12,2.86664e-38,0,-1.1371e-13,0,0,0,0,0,0,0,0,0,0,0,0,0,0,0,0,0,0,0,0,0,-0.0872664,0,-1.5,3.94113e+12,0,0,0,0,0,0,0,0,0,0,0,1.9603e-19,0,0,0,0,0,0,0,0,0,2,0
10019,-3.71265e-12,2.86688e-38,-1.57833e-06,-3.84404e-12,2.86664e-38,0,-1.1371e-13,0,0,0,0,0,0,0,0,0,0,0,0,0,0,0,0,0,0,0,0,0,-0.0872664,0,-1.5,3.94113e+12,0,0,0,0,0,0,0,0,0,0,0,1.9603e-19,0,0,0,0,0,0,0,0,0,2,0
10120,-3.71265e-12,2.86688e-38,-1.57833e-06,-3.84404e-12,2.86664e-38,0,-1.13711e-13,0,0,0,0,0,0,0,0,0,0,0,0,0,0,0,0,0,0,0,0,0,-0.0872664,0,-1.5,3.94113e+12,0,0,0,0,0,0,0,0,0,0,0,1.9603e-19,0,0,0,0,0,0,0,0,0,2,0
10211,-3.71265e-12,2.86688e-38,-1.57833e-06,-3.84404e-12,2.86664e-38,0,-1.13711e-13,0,0,0,0,0,0,0,0,0,0,0,0,0,0,0,0,0,0,0,0,0,-0.0872664,0,-1.5,3.94113e+12,0,0,0,0,0,0,0,0,0,0,0,1.9603e-19,0,0,0,0,0,0,0,0,0,2,0
10228,-3.71265e-12,2.86688e-38,-1.57833e-06,-3.84404e-12,2.86664e-38,0,-1.13712e-13,0,0,0,0,0,0,0,0,0,0,0,0,0,0,0,0,0,0,0,0,0,-0.0872664,0,-1.5,3.94113e+12,0,0,0,0,0,0,0,0,0,0,0,1.9603e-19,0,0,0,0,0,0,0,0,0,2,0
10384,-3.71265e-12,2.86688e-38,-1.57833e-06,-3.84404e-12,2.86664e-38,0,-1.13712e-13,0,0,0,0,0,0,0,0,0,0,0,0,0,0,0,0,0,0,0,0,0,-0.0872664,0,-1.5,3.94113e+12,0,0,0,0,0,0,0,0,0,0,0,1.9603e-19,0,0,0,0,0,0,0,0,0,2,0
10406,-3.71265e-12,2.86688e-38,-1.57833e-06,-3.84404e-12,2.86664e-38,0,-1.13713e-13,0,0,0,0,0,0,0,0,0,0,0,0,0,0,0,0,0,0,0,0,0,-0.0872664,0,-1.5,3.94113e+12,0,0,0,0,0,0,0,0,0,0,0,1.9603e-19,0,0,0,0,0,0,0,0,0,2,0
10424,-3.71265e-12,2.86688e-38,-1.57833e-06,-3.84404e-12,2.86664e-38,0,-1.13714e-13,0,0,0,0,0,0,0,0,0,0,0,0,0,0,0,0,0,0,0,0,0,-0.0872664,0,-1.5,3.94113e+12,0,0,0,0,0,0,0,0,0,0,0,1.9603e-19,0,0,0,0,0,0,0,0,0,2,0
10530,-3.71265e-12,2.86688e-38,-1.57833e-06,-3.84404e-12,2.86664e-38,0,-1.13714e-13,0,0,0,0,0,0,0,0,0,0,0,0,0,0,0,0,0,0,0,0,0,-0.0872664,0,-1.5,3.94113e+12,0,0,0,0,0,0,0,0,0,0,0,1.9603e-19,0,0,0,0,0,0,0,0,0,2,0
10636,-3.71265e-12,2.86688e-38,-1.57833e-06,-3.84404e-12,2.86664e-38,0,-1.13715e-13,0,0,0,0,0,0,0,0,0,0,0,0,0,0,0,0,0,0,0,0,0,-0.0872664,0,-1.5,3.94113e+12,0,0,0,0,0,0,0,0,0,0,0,1.9603e-19,0,0,0,0,0,0,0,0,0,2,0
10670,-3.71265e-12,2.86688e-38,-1.57833e-06,-3.84404e-12,2.86664e-38,0,-1.13715e-13,0,0,0,0,0,0,0,0,0,0,0,0,0,0,0,0,0,0,0,0,0,-0.0872664,0,-1.5,3.94113e+12,0,0,0,0,0,0,0,0,0,0,0,1.9603e-19,0,0,0,0,0,0,0,0,0,2,0
10718,-3.71265e-12,2.86688e-38,-1.57833e-06,-3.84404e-12,2.86664e-38,0,-1.13716e-13,0,0,0,0,0,0,0,0,0,0,0,0,0,0,0,0,0,0,0,0,0,-0.0872664,0,-1.5,3.94113e+12,0,0,0,0,0,0,0,0,0,0,0,1.9603e-19,0,0,0,0,0,0,0,0,0,2,0
10820,-3.71265e-12,2.86688e-38,-1.57833e-06,-3.84404e-12,2.86664e-38,0,-1.13716e-13,0,0,0,0,0,0,0,0,0,0,0,0,0,0,0,0,0,0,0,0,0,-0.0872664,0,-1.5,3.94113e+12,0,0,0,0,0,0,0,0,0,0,0,1.9603e-19,0,0,0,0,0,0,0,0,0,2,0
10881,-3.71265e-12,2.86688e-38,-1.57833e-06,-3.84404e-12,2.86664e-38,0,-1.13717e-13,0,0,0,0,0,0,0,0,0,0,0,0,0,0,0,0,0,0,0,0,0,-0.0872664,0,-1.5,3.94113e+12,0,0,0,0,0,0,0,0,0,0,0,1.9603e-19,0,0,0,0,0,0,0,0,0,2,0
10902,-3.71265e-12,2.86688e-38,-1.57833e-06,-3.84404e-12,2.86664e-38,0,-1.13717e-13,0,0,0,0,0,0,0,0,0,0,0,0,0,0,0,0,0,0,0,0,0,-0.0872664,0,-1.5,3.94113e+12,0,0,0,0,0,0,0,0,0,0,0,1.9603e-19,0,0,0,0,0,0,0,0,0,2,0
10919,-3.71265e-12,2.86688e-38,-1.57833e-06,-3.84404e-12,2.86664e-38,0,-1.13718e-13,0,0,0,0,0,0,0,0,0,0,0,0,0,0,0,0,0,0,0,0,0,-0.0872664,0,-1.5,3.94113e+12,0,0,0,0,0,0,0,0,0,0,0,1.9603e-19,0,0,0,0,0,0,0,0,0,2,0
11030,-3.71265e-12,2.86688e-38,-1.57833e-06,-3.84404e-12,2.86664e-38,0,-1.13718e-13,0,0,0,0,0,0,0,0,0,0,0,0,0,0,0,0,0,0,0,0,0,-0.0872664,0,-1.5,3.94113e+12,0,0,0,0,0,0,0,0,0,0,0,1.9603e-19,0,0,0,0,0,0,0,0,0,2,0
11082,-3.71265e-12,2.86688e-38,-1.57833e-06,-3.84404e-12,2.86664e-38,0,-1.13719e-13,0,0,0,0,0,0,0,0,0,0,0,0,0,0,0,0,0,0,0,0,0,-0.0872664,0,-1.5,3.94113e+12,0,0,0,0,0,0,0,0,0,0,0,1.9603e-19,0,0,0,0,0,0,0,0,0,2,0
11100,-3.71265e-12,2.86688e-38,-1.57833e-06,-3.84404e-12,2.86664e-38,0,-1.13719e-13,0,0,0,0,0,0,0,0,0,0,0,0,0,0,0,0,0,0,0,0,0,-0.0872664,0,-1.5,3.94113e+12,0,0,0,0,0,0,0,0,0,0,0,1.9603e-19,0,0,0,0,0,0,0,0,0,2,0
11121,-3.71265e-12,2.86688e-38,-1.57833e-06,-3.84404e-12,2.86664e-38,0,-1.1372e-13,0,0,0,0,0,0,0,0,0,0,0,0,0,0,0,0,0,0,0,0,0,-0.0872664,0,-1.5,3.94113e+12,0,0,0,0,0,0,0,0,0,0,0,1.9603e-19,0,0,0,0,0,0,0,0,0,2,0
11230,-3.71265e-12,2.86688e-38,-1.57833e-06,-3.84404e-12,2.86664e-38,0,-1.13721e-13,0,0,0,0,0,0,0,0,0,0,0,0,0,0,0,0,0,0,0,0,0,-0.0872664,0,-1.5,3.94113e+12,0,0,0,0,0,0,0,0,0,0,0,1.9603e-19,0,0,0,0,0,0,0,0,0,2,0
11276,-3.71265e-12,2.86688e-38,-1.57833e-06,-3.84404e-12,2.86664e-38,0,-1.13721e-13,0,0,0,0,0,0,0,0,0,0,0,0,0,0,0,0,0,0,0,0,0,-0.0872664,0,-1.5,3.94113e+12,0,0,0,0,0,0,0,0,0,0,0,1.9603e-19,0,0,0,0,0,0,0,0,0,2,0
11292,-3.71265e-12,2.86688e-38,-1.57833e-06,-3.84404e-12,2.86664e-38,0,-1.13722e-13,0,0,0,0,0,0,0,0,0,0,0,0,0,0,0,0,0,0,0,0,0,-0.0872664,0,-1.5,3.94113e+12,0,0,0,0,0,0,0,0,0,0,0,1.9603e-19,0,0,0,0,0,0,0,0,0,2,0
11310,-3.71265e-12,2.86688e-38,-1.57833e-06,-3.84404e-12,2.86664e-38,0,-1.13722e-13,0,0,0,0,0,0,0,0,0,0,0,0,0,0,0,0,0,0,0,0,0,-0.0872664,0,-1.5,3.94113e+12,0,0,0,0,0,0,0,0,0,0,0,1.9603e-19,0,0,0,0,0,0,0,0,0,2,0
11420,-3.71265e-12,2.86688e-38,-1.57833e-06,-3.84404e-12,2.86664e-38,0,-1.13723e-13,0,0,0,0,0,0,0,0,0,0,0,0,0,0,0,0,0,0,0,0,0,-0.0872664,0,-1.5,3.94113e+12,0,0,0,0,0,0,0,0,0,0,0,1.9603e-19,0,0,0,0,0,0,0,0,0,2,0
11474,-3.71265e-12,2.86688e-38,-1.57833e-06,-3.84404e-12,2.86664e-38,0,-1.13723e-13,0,0,0,0,0,0,0,0,0,0,0,0,0,0,0,0,0,0,0,0,0,-0.0872664,0,-1.5,3.94113e+12,0,0,0,0,0,0,0,0,0,0,0,1.9603e-19,0,0,0,0,0,0,0,0,0,2,0
11505,-3.71265e-12,2.86688e-38,-1.57833e-06,-3.84404e-12,2.86664e-38,0,-1.13724e-13,0,0,0,0,0,0,0,0,0,0,0,0,0,0,0,0,0,0,0,0,0,-0.0872664,0,-1.5,3.94113e+12,0,0,0,0,0,0,0,0,0,0,0,1.9603e-19,0,0,0,0,0,0,0,0,0,2,0
11610,-3.71265e-12,2.86688e-38,-1.57833e-06,-3.84404e-12,2.86664e-38,0,-1.13724e-13,0,0,0,0,0,0,0,0,0,0,0,0,0,0,0,0,0,0,0,0,0,-0.0872664,0,-1.5,3.94113e+12,0,0,0,0,0,0,0,0,0,0,0,1.9603e-19,0,0,0,0,0,0,0,0,0,2,0
11671,-3.71265e-12,2.86688e-38,-1.57833e-06,-3.84404e-12,2.86664e-38,0,-1.13725e-13,0,0,0,0,0,0,0,0,0,0,0,0,0,0,0,0,0,0,0,0,0,-0.0872664,0,-1.5,3.94113e+12,0,0,0,0,0,0,0,0,0,0,0,1.9603e-19,0,0,0,0,0,0,0,0,0,2,0
11724,-3.71265e-12,2.86688e-38,-1.57833e-06,-3.84404e-12,2.86664e-38,0,-1.13725e-13,0,0,0,0,0,0,0,0,0,0,0,0,0,0,0,0,0,0,0,0,0,-0.0872664,0,-1.5,3.94113e+12,0,0,0,0,0,0,0,0,0,0,0,1.9603e-19,0,0,0,0,0,0,0,0,0,2,0
11740,-3.71265e-12,2.86688e-38,-1.57833e-06,-3.84404e-12,2.86664e-38,0,-1.13726e-13,0,0,0,0,0,0,0,0,0,0,0,0,0,0,0,0,0,0,0,0,0,-0.0872664,0,-1.5,3.94113e+12,0,0,0,0,0,0,0,0,0,0,0,1.9603e-19,0,0,0,0,0,0,0,0,0,2,0
11765,-3.71265e-12,2.86688e-38,-1.57833e-06,-3.84404e-12,2.86664e-38,0,-1.13727e-13,0,0,0,0,0,0,0,0,0,0,0,0,0,0,0,0,0,0,0,0,0,-0.0872664,0,-1.5,3.94113e+12,0,0,0,0,0,0,0,0,0,0,0,1.9603e-19,0,0,0,0,0,0,0,0,0,2,0
11782,-3.71265e-12,2.86688e-38,-1.57833e-06,-3.84404e-12,2.86664e-38,0,-1.13727e-13,0,0,0,0,0,0,0,0,0,0,0,0,0,0,0,0,0,0,0,0,0,-0.0872664,0,-1.5,3.94113e+12,0,0,0,0,0,0,0,0,0,0,0,1.9603e-19,0,0,0,0,0,0,0,0,0,2,0
11803,-3.71265e-12,2.86688e-38,-1.57833e-06,-3.84404e-12,2.86664e-38,0,-1.13728e-13,0,0,0,0,0,0,0,0,0,0,0,0,0,0,0,0,0,0,0,0,0,-0.0872664,0,-1.5,3.94113e+12,0,0,0,0,0,0,0,0,0,0,0,1.9603e-19,0,0,0,0,0,0,0,0,0,2,0
11820,-3.71265e-12,2.86688e-38,-1.57833e-06,-3.84404e-12,2.86664e-38,0,-1.13728e-13,0,0,0,0,0,0,0,0,0,0,0,0,0,0,0,0,0,0,0,0,0,-0.0872664,0,-1.5,3.94113e+12,0,0,0,0,0,0,0,0,0,0,0,1.9603e-19,0,0,0,0,0,0,0,0,0,2,0
11840,-3.71265e-12,2.86688e-38,-1.57833e-06,-3.84404e-12,2.86664e-38,0,-1.13729e-13,0,0,0,0,0,0,0,0,0,0,0,0,0,0,0,0,0,0,0,0,0,-0.0872664,0,-1.5,3.94113e+12,0,0,0,0,0,0,0,0,0,0,0,1.9603e-19,0,0,0,0,0,0,0,0,0,2,0
11862,-3.71265e-12,2.86688e-38,-1.57833e-06,-3.84404e-12,2.86664e-38,0,-1.13729e-13,0,0,0,0,0,0,0,0,0,0,0,0,0,0,0,0,0,0,0,0,0,-0.0872664,0,-1.5,3.94113e+12,0,0,0,0,0,0,0,0,0,0,0,1.9603e-19,0,0,0,0,0,0,0,0,0,2,0
11879,-3.71265e-12,2.86688e-38,-1.57833e-06,-3.84404e-12,2.86664e-38,0,-1.1373e-13,0,0,0,0,0,0,0,0,0,0,0,0,0,0,0,0,0,0,0,0,0,-0.0872664,0,-1.5,3.94113e+12,0,0,0,0,0,0,0,0,0,0,0,1.9603e-19,0,0,0,0,0,0,0,0,0,2,0
11900,-3.71265e-12,2.86688e-38,-1.57833e-06,-3.84404e-12,2.86664e-38,0,-1.1373e-13,0,0,0,0,0,0,0,0,0,0,0,0,0,0,0,0,0,0,0,0,0,-0.0872664,0,-1.5,3.94113e+12,0,0,0,0,0,0,0,0,0,0,0,1.9603e-19,0,0,0,0,0,0,0,0,0,2,0
11920,-3.71265e-12,2.86688e-38,-1.57833e-06,-3.84404e-12,2.86664e-38,0,-1.13731e-13,0,0,0,0,0,0,0,0,0,0,0,0,0,0,0,0,0,0,0,0,0,-0.0872664,0,-1.5,3.94113e+12,0,0,0,0,0,0,0,0,0,0,0,1.9603e-19,0,0,0,0,0,0,0,0,0,2,0
11940,-3.71265e-12,2.86688e-38,-1.57833e-06,-3.84404e-12,2.86664e-38,0,-1.13731e-13,0,0,0,0,0,0,0,0,0,0,4.4,0,-1368604304,139060236,-1368604304,139060236,-739443960,-1368604304,-1368604256,-1368604256,0,-0.0872664,0,-1.5,3.94113e+12,0,0,0,0,0,0,0,0,0,0,0,0,0,0,0,0,11932,0,0,0,0,2,0
12035,-3.71265e-12,2.86688e-38,-1.57833e-06,-3.84404e-12,2.86664e-38,0,-1.13732e-13,0,0,-3.55077,0.230291,0.631328,0,0,0,0,0,-0.464555,0.230291,231,-90,231,-90,358,-86,230,38,0,-0.0872664,0,-1.5,3.94113e+12,0,0,0,0,0,0,0,0,0,0,0,17152,0,0,0,0,12026,0,0,0,0,2,0
12055,-3.71265e-12,2.86688e-38,-1.57833e-06,-3.84404e-12,2.86664e-38,0,-1.13732e-13,0,0,-3.54678,0.24225,0.63727,0,0,0,0,0,-0.459092,0.24225,230,-90,230,-90,355,-89,229,41,0,-0.0872664,0,-1.5,3.94113e+12,0,0,0,0,0,0,0,0,0,0,0,16506,0,0,0,0,12046,0,0,0,0,2,0
12081,-3.71265e-12,2.86688e-38,-1.57833e-06,-3.84404e-12,2.86664e-38,0,-1.13733e-13,0,0,-3.54866,0.248171,0.679445,0,0,0,0,0,-0.461663,0.248171,230,-96,230,-96,354,-93,228,35,-0.436332,-0.0872664,0,-1.5,3.94113e+12,0,0,0,-0.461466,0.24939,0,0,0,0,0.0219126,0.135459,16758,-0.461663,0.248171,0.0219126,0.135459,12074,0,0,0,0,2,-0.374086
12094,-3.71265e-12,2.86688e-38,-1.57833e-06,-3.84404e-12,2.86664e-38,0,-1.13734e-13,0,0,-3.54866,0.248171,0.679445,0,0,0,0,0,-0.461663,0.248171,230,-96,230,-96,354,-93,228,35,-0.436332,-0.0872664,0,-1.5,3.94113e+12,0,0,0,-0.461181,0.251151,0,0,0,0,0.0219126,0.135459,16758,-0.461663,0.248171,0.0219126,0.135459,12074,0,0,0,0,2,-0.376727
12115,-3.71268e-12,2.86242e-38,2.86701e-38,-3.84404e-12,2.86664e-38,0,-1.13734e-13,0,0,-3.54866,0.248171,0.679445,0,0,0,0,0,-0.461663,0.248171,230,-96,230,-96,354,-93,228,35,-0.436332,-0.0872664,0,-1.5,3.94113e+12,0,0,0,-0.460721,0.253996,0,0,0,0,0.0219126,0.135459,16758,-0.461663,0.248171,0.0219126,0.135459,12074,0,0,0,0,2,-0.380994
12187,-3.71265e-12,2.86688e-38,-1.57833e-06,-3.84404e-12,2.86664e-38,0,-1.13735e-13,0,0,-3.50076,0.229049,0.713939,0,0,0,0,0,-0.396048,0.229049,232,-103,232,-103,357,-104,229,31,-0.436332,-0.0872664,0,-1.5,3.94113e+12,0,0,0,-0.393457,0.22943,0,0,0,0,0.287849,-0.0843418,17280,-0.396048,0.230189,0.287849,-0.0843418,12180,0,0,0,0,2,-0.344145
12204,-3.71265e-12,2.86688e-38,-1.57833e-06,-3.84404e-12,2.86664e-38,0,-1.13735e-13,0,0,-3.50076,0.229049,0.713939,0,0,0,0,0,-0.396048,0.229049,232,-103,232,-103,357,-104,229,31,-0.436332,-0.0872664,0,-1.5,3.94113e+12,0,0,0,-0.388564,0.227997,0,0,0,0,0.287849,-0.0843418,17280,-0.396048,0.230189,0.287849,-0.0843418,12180,0,0,0,0,2,-0.341995
12224,-3.71265e-12,2.86688e-38,-1.57833e-06,-3.84404e-12,2.86664e-38,0,-1.13736e-13,0,0,-3.56906,0.230897,0.779977,0,0,0,0,0,-0.489616,0.230897,229,-103,229,-103,357,-104,233,25,-0.436332,-0.0872664,0,-1.5,3.94113e+12,0,0,0,-0.448281,0.230375,0,0,0,0,0.0575076,-0.0474803,16512,-0.448913,0.230897,0.0575076,-0.0474803,12214,0,0,0,0,2,-0.345563
12250,-3.71265e-12,2.86688e-38,-1.57833e-06,-3.84404e-12,2.86664e-38,0,-1.13736e-13,0,0,-3.48118,0.226191,0.732754,0,0,0,0,0,-0.369214,0.226191,229,-108,229,-108,357,-106,230,23,-0.436332,-0.0872664,0,-1.5,3.94113e+12,0,0,0,-0.375323,0.225525,0,0,0,0,0.287849,-0.0739083,17408,-0.377914,0.226191,0.287849,-0.0739083,12243,0,0,0,0,2,-0.338288
12267,-3.71265e-12,2.86688e-38,-1.57833e-06,-3.84404e-12,2.86664e-38,0,-1.13737e-13,0,0,-3.48118,0.226191,0.732754,0,0,0,0,0,-0.369214,0.226191,229,-108,229,-108,357,-106,230,23,-0.436332,-0.0872664,0,-1.5,3.94113e+12,0,0,0,-0.37043,0.224269,0,0,0,0,0.287849,-0.0739083,17408,-0.377914,0.226191,0.287849,-0.0739083,12243,0,0,0,0,2,-0.336404
12305,-3.71265e-12,2.86688e-38,-1.57833e-06,-3.84404e-12,2.86664e-38,0,-1.13742e-13,0,0,-3.49149,0.225108,0.746518,0,0,0,0,0,-0.383342,0.225108,229,-108,229,-108,359,-106,230,23,-0.436332,-0.0872664,0,-1.5,3.94113e+12,0,0,0,-0.36933,0.222234,0,0,0,0,0.256527,-0.0724386,17290,-0.379077,0.224987,0.256527,-0.0724386,12293,0,0,0,0,2,-0.333351
12330,-3.71265e-12,2.86688e-38,-1.57833e-06,-3.84404e-12,2.86664e-38,0,-1.13743e-13,0,0,-3.55644,0.225306,0.785805,0,0,0,0,0,-0.472324,0.225306,229,-107,229,-107,357,-106,235,24,-0.436332,-0.0872664,0,-1.5,3.94113e+12,0,0,0,-0.36685,0.222793,0,0,0,0,0.277149,-0.0578765,16896,-0.373779,0.22424,0.277149,-0.0578765,12318,0,0,0,0,2,-0.33419
12350,-3.71265e-12,2.86688e-38,-1.57833e-06,-3.84404e-12,2.86664e-38,0,-1.13738e-13,0,0,-3.41531,0.239935,0.670855,0,0,0,0,0,-0.278975,0.239935,226,-107,226,-107,356,-106,227,31,-0.436332,-0.0872664,0,-1.5,3.94113e+12,0,0,0,-0.360965,0.222906,0,0,0,0,0.265896,-0.0493746,17940,-0.362295,0.223153,0.265896,-0.0493746,12347,0,0,0,0,2,-0.334359
12370,-3.71265e-12,2.86688e-38,-1.57833e-06,-3.84404e-12,2.86664e-38,0,-1.13737e-13,0,0,-3.41531,0.239935,0.670855,0,0,0,0,0,-0.278975,0.239935,226,-107,226,-107,356,-106,227,31,-0.436332,-0.0872664,0,-1.5,3.94113e+12,0,0,0,-0.355913,0.221968,0,0,0,0,0.265896,-0.0493746,17940,-0.362295,0.223153,0.265896,-0.0493746,12347,0,0,0,0,2,-0.332952
12395,-3.71265e-12,2.86688e-38,-1.57833e-06,-3.84404e-12,2.86664e-38,0,-1.13739e-13,0,0,-3.48069,0.259575,0.700472,0,0,0,0,0,-0.368546,0.259575,226,-103,226,-103,354,-104,226,31,-0.436332,-0.0872664,0,-1.5,3.94113e+12,0,0,0,-0.354591,0.226409,0,0,0,0,0.243071,-0.0244279,17280,-0.360911,0.227044,0.243071,-0.0244279,12383,0,0,0,0,2,-0.339613
12409,-3.71265e-12,2.86688e-38,-1.57833e-06,-3.84404e-12,2.86664e-38,0,-1.13739e-13,0,0,-3.48069,0.259575,0.700472,0,0,0,0,0,-0.368546,0.259575,226,-103,226,-103,354,-104,226,31,-0.436332,-0.0872664,0,-1.5,3.94113e+12,0,0,0,-0.351188,0.226067,0,0,0,0,0.243071,-0.0244279,17280,-0.360911,0.227044,0.243071,-0.0244279,12383,0,0,0,0,2,-0.3391
12432,-3.71265e-12,2.86688e-38,-1.57833e-06,-3.84404e-12,2.86664e-38,0,-1.13741e-13,0,0,-3.5501,0.272927,0.719861,0,0,0,0,0,-0.463641,0.272927,225,-98,225,-98,351,-98,226,31,-0.436332,-0.0872664,0,-1.5,3.94113e+12,0,0,0,-0.34749,0.239564,0,0,0,0,0.228479,0.0193822,16383,-0.352744,0.239118,0.228479,0.0193822,12420,0,0,0,0,2,-0.359346
12457,-3.71265e-12,2.86688e-38,-1.57833e-06,-3.84404e-12,2.86664e-38,0,-1.1374e-13,0,0,-3.47228,0.297111,0.637127,0,0,0,0,0,-0.357029,0.297111,221,-100,221,-100,350,-95,222,34,-0.436332,-0.0872664,0,-1.5,3.94113e+12,0,0,0,-0.348789,0.243681,0,0,0,0,0.228626,0.0246556,18060,-0.351533,0.243385,0.228626,0.0246556,12447,0,0,0,0,2,-0.365521
12474,-3.71265e-12,2.86688e-38,-1.57833e-06,-3.84404e-12,2.86664e-38,0,-1.13741e-13,0,0,-3.47228,0.297111,0.637127,0,0,0,0,0,-0.357029,0.297111,221,-100,221,-100,350,-95,222,34,-0.436332,-0.0872664,0,-1.5,3.94113e+12,0,0,0,-0.344903,0.2441,0,0,0,0,0.228626,0.0246556,18060,-0.351533,0.243385,0.228626,0.0246556,12447,0,0,0,0,2,-0.366149
12490,-3.71265e-12,2.86688e-38,-1.57833e-06,-3.84404e-12,2.86664e-38,0,-1.13742e-13,0,0,-3.47228,0.297111,0.637127,0,0,0,0,0,-0.357029,0.297111,221,-100,221,-100,350,-95,222,34,-0.436332,-0.0872664,0,-1.5,3.94113e+12,0,0,0,-0.341245,0.244494,0,0,0,0,0.228626,0.0246556,18060,-0.351533,0.243385,0.228626,0.0246556,12447,0,0,0,0,2,-0.366741
12538,-3.71265e-12,2.86688e-38,-1.57833e-06,-3.84404e-12,2.86664e-38,0,-1.13744e-13,0,0,-3.49114,0.315246,0.581913,0,0,0,0,0,-0.382859,0.315246,220,-91,220,-91,348,-86,219,39,-0.436332,-0.0872664,0,-1.5,3.94113e+12,0,0,0,-0.339914,0.274482,0,0,0,0,0.201122,0.0915635,18060,-0.349567,0.270087,0.201122,0.0915635,12525,0,0,0,0,2,-0.411723
12562,-3.71265e-12,2.86688e-38,-1.57833e-06,-3.84404e-12,2.86664e-38,0,-1.1375e-13,0,0,-3.50974,0.312499,0.494245,0,0,0,0,0,-0.40835,0.312499,219,-75,219,-75,345,-75,220,54,-0.436332,-0.0872664,0,-1.5,3.94113e+12,0,0,0,-0.372575,0.287226,0,0,0,0,0.146011,0.116632,16899,-0.37608,0.284427,0.146011,0.116632,12549,0,0,0,0,2,-0.430839
12583,-3.71265e-12,2.86688e-38,-1.57833e-06,-3.84404e-12,2.86664e-38,0,-1.1375e-13,0,0,-3.57294,0.314055,0.520172,0,0,0,0,0,-0.49493,0.314055,222,-71,222,-71,344,-73,220,54,-0.436332,-0.0872664,0,-1.5,3.94113e+12,0,0,0,-0.370639,0.295374,0,0,0,0,0.144945,0.127463,16510,-0.371798,0.294354,0.144945,0.127463,12577,0,0,0,0,2,-0.443061
12604,-3.71265e-12,2.86688e-38,-1.57833e-06,-3.84404e-12,2.86664e-38,0,-1.13744e-13,0,0,-3.57294,0.314055,0.520172,0,0,0,0,0,-0.49493,0.314055,222,-71,222,-71,344,-73,220,54,-0.436332,-0.0872664,0,-1.5,3.94113e+12,0,0,0,-0.367595,0.298051,0,0,0,0,0.144945,0.127463,16510,-0.371798,0.294354,0.144945,0.127463,12577,0,0,0,0,2,-0.447076
12673,-3.71265e-12,2.86688e-38,-1.57833e-06,-3.84404e-12,2.86664e-38,0,-1.13751e-13,0,0,-3.55842,0.311047,0.517828,0,0,0,0,0,-0.475029,0.311047,222,-71,222,-71,345,-75,220,54,-0.436332,-0.0872664,0,-1.5,3.94113e+12,0,0,0,-0.393944,0.321612,0,0,0,0,0.0915562,0.154316,16770,-0.40017,0.311119,0.0915562,0.154316,12660,0,0,0,0,2,-0.482418
12697,-3.71265e-12,2.86688e-38,-1.57833e-06,-3.84404e-12,2.86664e-38,0,-1.13753e-13,0,0,-3.58707,0.33946,0.564808,0,0,0,0,0,-0.51429,0.33946,219,-78,219,-78,342,-77,220,53,-0.436332,-0.0872664,0,-1.5,3.94113e+12,0,0,0,-0.415765,0.325545,0,0,0,0,0.055347,0.157049,16375,-0.417149,0.321619,0.055347,0.157049,12684,0,0,0,0,2,-0.488317
12723,-3.71265e-12,2.86688e-38,-1.57833e-06,-3.84404e-12,2.86664e-38,0,-1.13754e-13,0,0,-3.64201,0.338389,0.652497,0,0,0,0,0,-0.589551,0.338389,219,-85,219,-85,345,-78,221,42,-0.436332,-0.0872664,0,-1.5,3.94113e+12,0,0,0,-0.488679,0.340301,0,0,0,0,-0.117542,0.177937,16254,-0.487151,0.337988,-0.117542,0.177937,12712,0,0,0,0,2,-0.510451
12737,-3.71265e-12,2.86688e-38,-1.57833e-06,-3.84404e-12,2.86664e-38,0,-1.13752e-13,0,0,-3.64201,0.338389,0.652497,0,0,0,0,0,-0.589551,0.338389,219,-85,219,-85,345,-78,221,42,-0.436332,-0.0872664,0,-1.5,3.94113e+12,0,0,0,-0.490324,0.342792,0,0,0,0,-0.117542,0.177937,16254,-0.487151,0.337988,-0.117542,0.177937,12712,0,0,0,0,2,-0.514188
12761,-3.71265e-12,2.86688e-38,-1.57833e-06,-3.84404e-12,2.86664e-38,0,-1.13749e-13,0,0,-3.56218,0.345965,0.64983,0,0,0,0,0,-0.480193,0.345965,217,-91,217,-91,345,-86,217,36,-0.436332,-0.0872664,0,-1.5,3.94113e+12,0,0,0,-0.485879,0.347678,0,0,0,0,-0.0710527,0.182102,17024,-0.484174,0.343307,-0.0710527,0.182102,12748,0,0,0,0,2,-0.521516
12787,-3.71265e-12,2.86688e-38,-1.57833e-06,-3.84404e-12,2.86664e-38,0,-1.13745e-13,0,0,-3.53176,0.32996,0.644053,0,0,0,0,0,-0.438515,0.32996,218,-91,218,-91,350,-87,216,33,-0.436332,-0.0872664,0,-1.5,3.94113e+12,0,0,0,-0.480558,0.352285,0,0,0,0,-0.0503249,0.182881,17554,-0.47925,0.34753,-0.0503249,0.182881,12774,0,0,0,0,2,-0.528427
12804,-3.71265e-12,2.86688e-38,-1.57833e-06,-3.84404e-12,2.86664e-38,0,-1.13753e-13,0,0,-3.53176,0.32996,0.644053,0,0,0,0,0,-0.438515,0.32996,218,-91,218,-91,350,-87,216,33,-0.436332,-0.0872664,0,-1.5,3.94113e+12,0,0,0,-0.481363,0.355211,0,0,0,0,-0.0503249,0.182881,17554,-0.47925,0.34753,-0.0503249,0.182881,12774,0,0,0,0,2,-0.532816
12830,-3.71265e-12,2.86688e-38,-1.57833e-06,-3.84404e-12,2.86664e-38,0,-1.13745e-13,0,0,-3.51588,0.345218,0.648188,0,0,0,0,0,-0.41675,0.345218,215,-91,215,-91,344,-93,216,35,-0.436332,-0.0872664,0,-1.5,3.94113e+12,0,0,0,-0.448184,0.349502,0,0,0,0,0.0071752,0.159851,16770,-0.44837,0.345346,0.0071752,0.159851,12817,0,0,0,0,2,-0.524253
12851,-3.71265e-12,2.86688e-38,-1.57833e-06,-3.84404e-12,2.86664e-38,0,-1.13746e-13,0,0,-3.59666,0.358108,0.674763,0,0,0,0,0,-0.527428,0.358108,216,-86,216,-86,340,-89,217,38,-0.436332,-0.0872664,0,-1.5,3.94113e+12,0,0,0,-0.474906,0.358539,0,0,0,0,-0.0224648,0.168114,16256,-0.474771,0.35753,-0.0224648,0.168114,12847,0,0,0,0,2,-0.537808
12871,-3.71265e-12,2.86688e-38,-1.57833e-06,-3.84404e-12,2.86664e-38,0,-1.13751e-13,0,0,-3.59666,0.358108,0.674763,0,0,0,0,0,-0.527428,0.358108,216,-86,216,-86,340,-89,217,38,-0.436332,-0.0872664,0,-1.5,3.94113e+12,0,0,0,-0.475355,0.361901,0,0,0,0,-0.0224648,0.168114,16256,-0.474771,0.35753,-0.0224648,0.168114,12847,0,0,0,0,2,-0.542852
12897,-3.71265e-12,2.86688e-38,-1.57833e-06,-3.84404e-12,2.86664e-38,0,-1.13747e-13,0,0,-3.63051,0.377043,0.651385,0,0,0,0,0,-0.573801,0.377043,216,-82,216,-82,337,-85,217,44,-0.436332,-0.0872664,0,-1.5,3.94113e+12,0,0,0,-0.496429,0.367106,0,0,0,0,-0.0746021,0.167985,15996,-0.49449,0.362739,-0.0746021,0.167985,12884,0,0,0,0,2,-0.55066
12914,-3.71265e-12,2.86688e-38,-1.57833e-06,-3.84404e-12,2.86664e-38,0,-1.13747e-13,0,0,-3.63051,0.377043,0.651385,0,0,0,0,0,-0.573801,0.377043,216,-82,216,-82,337,-85,217,44,-0.436332,-0.0872664,0,-1.5,3.94113e+12,0,0,0,-0.497698,0.369962,0,0,0,0,-0.0746021,0.167985,15996,-0.49449,0.362739,-0.0746021,0.167985,12884,0,0,0,0,2,-0.554943
12930,-3.71265e-12,2.86688e-38,-1.57833e-06,-3.84404e-12,2.86664e-38,0,-1.13748e-13,0,0,-3.63051,0.377043,0.651385,0,0,0,0,0,-0.573801,0.377043,216,-82,216,-82,337,-85,217,44,-0.436332,-0.0872664,0,-1.5,3.94113e+12,0,0,0,-0.498891,0.37265,0,0,0,0,-0.0746021,0.167985,15996,-0.49449,0.362739,-0.0746021,0.167985,12884,0,0,0,0,2,-0.558974
12955,-3.71265e-12,2.86688e-38,-1.57833e-06,-3.84404e-12,2.86664e-38,0,-1.13748e-13,0,0,-3.63051,0.377043,0.651385,0,0,0,0,0,-0.573801,0.377043,216,-82,216,-82,337,-85,217,44,-0.436332,-0.0872664,0,-1.5,3.94113e+12,0,0,0,-0.500682,0.376681,0,0,0,0,-0.0746021,0.167985,15996,-0.49449,0.362739,-0.0746021,0.167985,12884,0,0,0,0,2,-0.565022
13002,-3.71265e-12,2.86688e-38,-1.57833e-06,-3.84404e-12,2.86664e-38,0,-1.13754e-13,0,0,-3.63051,0.377043,0.651385,0,0,0,0,0,-0.573801,0.377043,216,-82,216,-82,337,-85,217,44,-0.436332,-0.0872664,0,-1.5,3.94113e+12,0,0,0,-0.504262,0.384744,0,0,0,0,-0.0746021,0.167985,15996,-0.49449,0.362739,-0.0746021,0.167985,12884,0,0,0,0,2,-0.577116
13021,-3.71265e-12,2.86688e-38,-1.57833e-06,-3.84404e-12,2.86664e-38,0,-1.13755e-13,0,0,-3.90303,0.558634,0.418408,0,0,0,0,0,-0.947153,0.558634,198,-26,198,-26,321,-31,202,80,-0.436332,-0.0872664,0,-1.5,3.94113e+12,0,0,0,-0.553829,0.398987,0,0,0,0,-0.172142,0.19952,14097,-0.551935,0.396792,-0.172142,0.19952,13012,0,0,0,0,2,-0.598481
13039,-3.71265e-12,2.86688e-38,-1.57833e-06,-3.84404e-12,2.86664e-38,0,-1.13755e-13,0,0,-3.90303,0.558634,0.418408,0,0,0,0,0,-0.947153,0.558634,198,-26,198,-26,321,-31,202,80,-0.436332,-0.0872664,0,-1.5,3.94113e+12,0,0,0,-0.556927,0.402578,0,0,0,0,-0.172142,0.19952,14097,-0.551935,0.396792,-0.172142,0.19952,13012,0,0,0,0,2,-0.603868
13061,-3.71265e-12,2.86688e-38,-1.57833e-06,-3.84404e-12,2.86664e-38,0,-1.13756e-13,0,0,-4.02664,0.582521,0.42294,0,0,0,0,0,-1.11649,0.582521,201,-17,201,-17,321,-23,200,80,-0.436332,-0.0872664,0,-1.5,3.94113e+12,0,0,0,-0.570631,0.412246,0,0,0,0,-0.186999,0.20872,12463,-0.566517,0.407655,-0.186999,0.20872,13047,0,0,0,0,2,-0.61837
13082,-3.71265e-12,2.86688e-38,-1.57833e-06,-3.84404e-12,2.86664e-38,0,-1.13757e-13,0,0,-3.69277,0.556816,0.324594,0,0,0,0,0,-0.659093,0.556816,195,-39,195,-39,317,-41,199,83,-0.436332,-0.0872664,0,-1.5,3.94113e+12,0,0,0,-0.606019,0.416054,0,0,0,0,-0.22911,0.209955,15748,-0.604416,0.414585,-0.22911,0.209955,13078,0,0,0,0,2,-0.624082
13180,-3.71265e-12,2.86688e-38,-1.57833e-06,-3.84404e-12,2.86664e-38,0,-1.13757e-13,0,0,-3.6712,0.549214,0.337494,0,0,0,0,0,-0.62954,0.549214,198,-44,198,-44,317,-44,198,83,-0.436332,-0.0872664,0,-1.5,3.94113e+12,0,0,0,-0.621801,0.449191,0,0,0,0,-0.210846,0.232345,15748,-0.601138,0.426422,-0.210846,0.232345,13166,0,0,0,0,2,-0.673787
13197,-3.71265e-12,2.86688e-38,-1.57833e-06,-3.84404e-12,2.86664e-38,0,-1.13758e-13,0,0,-3.6712,0.549214,0.337494,0,0,0,0,0,-0.62954,0.549214,198,-44,198,-44,317,-44,198,83,-0.436332,-0.0872664,0,-1.5,3.94113e+12,0,0,0,-0.625385,0.453141,0,0,0,0,-0.210846,0.232345,15748,-0.601138,0.426422,-0.210846,0.232345,13166,0,0,0,0,2,-0.679712
13222,-3.71265e-12,2.86688e-38,-1.57833e-06,-3.84404e-12,2.86664e-38,0,-1.13758e-13,0,0,-3.90463,0.548897,0.555926,0,0,0,0,0,-0.949341,0.548897,198,-41,198,-41,325,-41,201,57,-0.436332,-0.0872664,0,-1.5,3.94113e+12,0,0,0,-0.639645,0.491491,0,0,0,0,-0.236635,0.265504,12827,-0.636569,0.48804,-0.236635,0.265504,13211,0,0,0,0,2,-0.737236
13267,-3.71265e-12,2.86688e-38,-1.57833e-06,-3.84404e-12,2.86664e-38,0,-1.13759e-13,0,0,-3.59298,0.487465,0.514081,0,0,0,0,0,-0.522376,0.487465,202,-73,202,-73,328,-68,202,55,-0.436332,-0.0872664,0,-1.5,3.94113e+12,0,0,0,-0.644307,0.498824,0,0,0,0,-0.220482,0.256647,16506,-0.634606,0.487532,-0.220482,0.256647,13252,0,0,0,0,2,-0.748236
13289,-3.71265e-12,2.86688e-38,-1.57833e-06,-3.84404e-12,2.86664e-38,0,-1.13759e-13,0,0,-3.5558,0.485468,0.472086,0,0,0,0,0,-0.471444,0.485468,199,-73,199,-73,329,-64,202,55,-0.436332,-0.0872664,0,-1.5,3.94113e+12,0,0,0,-0.639269,0.503976,0,0,0,0,-0.210648,0.257717,17680,-0.636741,0.500883,-0.210648,0.257717,13279,0,0,0,0,2,-0.755963
13305,-3.71265e-12,2.86688e-38,-1.57833e-06,-3.84404e-12,2.86664e-38,0,-1.1376e-13,0,0,-3.5558,0.485468,0.472086,0,0,0,0,0,-0.471444,0.485468,199,-73,199,-73,329,-64,202,55,-0.436332,-0.0872664,0,-1.5,3.94113e+12,0,0,0,-0.642639,0.508099,0,0,0,0,-0.210648,0.257717,17680,-0.636741,0.500883,-0.210648,0.257717,13279,0,0,0,0,2,-0.762148
13335,-3.71265e-12,2.86688e-38,-1.57833e-06,-3.84404e-12,2.86664e-38,0,-1.1376e-13,0,0,-3.55764,0.490609,0.449929,0,0,0,0,0,-0.473966,0.490609,199,-69,199,-69,329,-61,200,59,-0.436332,-0.0872664,0,-1.5,3.94113e+12,0,0,0,-0.62443,0.514354,0,0,0,0,-0.193474,0.262993,17160,-0.618626,0.506464,-0.193474,0.262993,13321,0,0,0,0,2,-0.771531
13359,-3.71265e-12,2.86688e-38,-1.57833e-06,-3.84404e-12,2.86664e-38,0,-1.13761e-13,0,0,-3.60723,0.490931,0.498427,0,0,0,0,0,-0.541906,0.490931,202,-71,202,-71,327,-64,202,56,-0.436332,-0.0872664,0,-1.5,3.94113e+12,0,0,0,-0.614057,0.520877,0,0,0,0,-0.181923,0.262136,16625,-0.609691,0.514586,-0.181923,0.262136,13345,0,0,0,0,2,-0.781315
13373,-3.71265e-12,2.86688e-38,-1.57833e-06,-3.84404e-12,2.86664e-38,0,-1.13761e-13,0,0,-3.60723,0.490931,0.498427,0,0,0,0,0,-0.541906,0.490931,202,-71,202,-71,327,-64,202,56,-0.436332,-0.0872664,0,-1.5,3.94113e+12,0,0,0,-0.616604,0.524546,0,0,0,0,-0.181923,0.262136,16625,-0.609691,0.514586,-0.181923,0.262136,13345,0,0,0,0,2,-0.78682
13420,-3.71265e-12,2.86688e-38,-1.57833e-06,-3.84404e-12,2.86664e-38,0,-1.13762e-13,0,0,-3.52864,0.471499,0.462872,0,0,0,0,0,-0.434243,0.471499,202,-69,202,-69,331,-70,201,59,-0.436332,-0.0872664,0,-1.5,3.94113e+12,0,0,0,-0.553184,0.521106,0,0,0,0,-0.107741,0.248167,16770,-0.552214,0.518872,-0.107741,0.248167,13413,0,0,0,0,2,-0.781659
13437,-3.71265e-12,2.86688e-38,-1.57833e-06,-3.84404e-12,2.86664e-38,0,-1.13763e-13,0,0,-3.52864,0.471499,0.462872,0,0,0,0,0,-0.434243,0.471499,202,-69,202,-69,331,-70,201,59,-0.436332,-0.0872664,0,-1.5,3.94113e+12,0,0,0,-0.555015,0.525324,0,0,0,0,-0.107741,0.248167,16770,-0.552214,0.518872,-0.107741,0.248167,13413,0,0,0,0,2,-0.787987
13454,-3.71265e-12,2.86688e-38,-1.57833e-06,-3.84404e-12,2.86664e-38,0,-1.13763e-13,0,0,-3.52864,0.471499,0.462872,0,0,0,0,0,-0.434243,0.471499,202,-69,202,-69,331,-70,201,59,-0.436332,-0.0872664,0,-1.5,3.94113e+12,0,0,0,-0.556847,0.529543,0,0,0,0,-0.107741,0.248167,16770,-0.552214,0.518872,-0.107741,0.248167,13413,0,0,0,0,2,-0.794315
13475,-3.71265e-12,2.86688e-38,-1.57833e-06,-3.84404e-12,2.86664e-38,0,-1.13764e-13,0,0,-3.52864,0.471499,0.462872,0,0,0,0,0,-0.434243,0.471499,202,-69,202,-69,331,-70,201,59,-0.436332,-0.0872664,0,-1.5,3.94113e+12,0,0,0,-0.559109,0.534755,0,0,0,0,-0.107741,0.248167,16770,-0.552214,0.518872,-0.107741,0.248167,13413,0,0,0,0,2,-0.802132
13497,-3.71265e-12,2.86688e-38,-1.57833e-06,-3.84404e-12,2.86664e-38,0,-1.13764e-13,0,0,-3.9353,0.512466,0.596825,0,0,0,0,0,-0.991358,0.512466,205,-45,205,-45,329,-44,205,56,-0.436332,-0.0872664,0,-1.5,3.94113e+12,0,0,0,-0.636696,0.535641,0,0,0,0,-0.203246,0.245936,12772,-0.632225,0.53023,-0.203246,0.245936,13483,0,0,0,0,2,-0.803461
13523,-3.71265e-12,2.86688e-38,-1.57833e-06,-3.84404e-12,2.86664e-38,0,-1.13765e-13,0,0,-3.53985,0.461525,0.479577,0,0,0,0,0,-0.449589,0.461525,202,-73,202,-73,329,-70,205,58,-0.436332,-0.0872664,0,-1.5,3.94113e+12,0,0,0,-0.564885,0.535708,0,0,0,0,-0.117411,0.238804,16768,-0.563359,0.532604,-0.117411,0.238804,13511,0,0,0,0,2,-0.803562
13543,-3.71265e-12,2.86688e-38,-1.57833e-06,-3.84404e-12,2.86664e-38,0,-1.13765e-13,0,0,-3.53985,0.461525,0.479577,0,0,0,0,0,-0.449589,0.461525,202,-73,202,-73,329,-70,205,58,-0.436332,-0.0872664,0,-1.5,3.94113e+12,0,0,0,-0.567351,0.540723,0,0,0,0,-0.117411,0.238804,16768,-0.563359,0.532604,-0.117411,0.238804,13511,0,0,0,0,2,-0.811084
13565,-3.71265e-12,2.86688e-38,-1.57833e-06,-3.84404e-12,2.86664e-38,0,-1.13766e-13,0,0,-3.59184,0.429201,0.511028,0,0,0,0,0,-0.520826,0.429201,211,-72,211,-72,331,-70,208,58,-0.436332,-0.0872664,0,-1.5,3.94113e+12,0,0,0,-0.54644,0.548461,0,0,0,0,-0.0682284,0.240989,16380,-0.544939,0.543159,-0.0682284,0.240989,13551,0,0,0,0,2,-0.822691
13588,-3.71265e-12,2.86688e-38,-1.57833e-06,-3.84404e-12,2.86664e-38,0,-1.13766e-13,0,0,-3.5744,0.416188,0.500366,0,0,0,0,0,-0.496932,0.416188,209,-72,209,-72,335,-70,211,58,-0.436332,-0.0872664,0,-1.5,3.94113e+12,0,0,0,-0.55245,0.546097,0,0,0,0,-0.078456,0.229457,16380,-0.551508,0.543344,-0.078456,0.229457,13578,0,0,0,0,2,-0.819146
13617,-3.71265e-12,2.86688e-38,-1.57833e-06,-3.84404e-12,2.86664e-38,0,-1.13767e-13,0,0,-3.60452,0.41597,0.498982,0,0,0,0,0,-0.538191,0.41597,211,-68,211,-68,334,-68,211,61,-0.436332,-0.0872664,0,-1.5,3.94113e+12,0,0,0,-0.536997,0.542696,0,0,0,0,-0.0589233,0.217599,15996,-0.536526,0.540955,-0.0589233,0.217599,13611,0,0,0,0,2,-0.814043
13634,-3.71265e-12,2.86688e-38,-1.57833e-06,-3.84404e-12,2.86664e-38,0,-1.13767e-13,0,0,-3.60452,0.41597,0.498982,0,0,0,0,0,-0.538191,0.41597,211,-68,211,-68,334,-68,211,61,-0.436332,-0.0872664,0,-1.5,3.94113e+12,0,0,0,-0.537999,0.546395,0,0,0,0,-0.0589233,0.217599,15996,-0.536526,0.540955,-0.0589233,0.217599,13611,0,0,0,0,2,-0.819592
13708,-3.71265e-12,2.86688e-38,-1.57833e-06,-3.84404e-12,2.86664e-38,0,-1.13768e-13,0,0,-3.6,0.367172,0.509863,0,0,0,0,0,-0.531999,0.367172,217,-68,217,-68,342,-70,215,58,-0.436332,-0.0872664,0,-1.5,3.94113e+12,0,0,0,-0.533283,0.54437,0,0,0,0,-0.0510155,0.197171,16256,-0.529508,0.529779,-0.0510155,0.197171,13694,0,0,0,0,2,-0.816555
13727,-3.71265e-12,2.86688e-38,-1.57833e-06,-3.84404e-12,2.86664e-38,0,-1.13768e-13,0,0,-3.5806,0.373822,0.495903,0,0,0,0,0,-0.505428,0.373822,214,-68,214,-68,342,-70,215,58,-0.436332,-0.0872664,0,-1.5,3.94113e+12,0,0,0,-0.538056,0.5349,0,0,0,0,-0.0448254,0.183696,16384,-0.537563,0.532879,-0.0448254,0.183696,13718,0,0,0,0,2,-0.80235
13750,-3.71265e-12,2.86688e-38,-1.57833e-06,-3.84404e-12,2.86664e-38,0,-1.13769e-13,0,0,-3.5827,0.358168,0.50497,0,0,0,0,0,-0.508302,0.358168,214,-72,214,-72,344,-70,220,58,-0.436332,-0.0872664,0,-1.5,3.94113e+12,0,0,0,-0.529215,0.526441,0,0,0,0,-0.0339636,0.167761,16900,-0.528876,0.524763,-0.0339636,0.167761,13742,0,0,0,0,2,-0.789661
13771,-3.71265e-12,2.86688e-38,-1.57833e-06,-3.84404e-12,2.86664e-38,0,-1.1377e-13,0,0,-3.5827,0.358168,0.50497,0,0,0,0,0,-0.508302,0.358168,214,-72,214,-72,344,-70,220,58,-0.436332,-0.0872664,0,-1.5,3.94113e+12,0,0,0,-0.529929,0.529964,0,0,0,0,-0.0339636,0.167761,16900,-0.528876,0.524763,-0.0339636,0.167761,13742,0,0,0,0,2,-0.794946
13794,-3.71265e-12,2.86688e-38,-1.57833e-06,-3.84404e-12,2.86664e-38,0,-1.1377e-13,0,0,-3.59946,0.364246,0.514904,0,0,0,0,0,-0.53126,0.364246,214,-72,214,-72,342,-70,220,58,-0.436332,-0.0872664,0,-1.5,3.94113e+12,0,0,0,-0.534452,0.534544,0,0,0,0,-0.0227705,0.175206,16640,-0.533951,0.53069,-0.0227705,0.175206,13780,0,0,0,0,2,-0.801817
13819,-3.71265e-12,2.86688e-38,-1.57833e-06,-3.84404e-12,2.86664e-38,0,-1.13771e-13,0,0,-3.61712,0.375377,0.515652,0,0,0,0,0,-0.555455,0.375377,215,-72,215,-72,341,-64,215,55,-0.436332,-0.0872664,0,-1.5,3.94113e+12,0,0,0,-0.5296,0.450609,0,0,0,0,-0.00836274,0.0787175,16506,-0.529516,0.449822,-0.00836274,0.0787175,13811,0,0,0,0,2,-0.675913
13840,-3.71265e-12,2.86688e-38,-1.57833e-06,-3.84404e-12,2.86664e-38,0,-1.13771e-13,0,0,-3.61712,0.375377,0.515652,0,0,0,0,0,-0.555455,0.375377,215,-72,215,-72,341,-64,215,55,-0.436332,-0.0872664,0,-1.5,3.94113e+12,0,0,0,-0.529776,0.452262,0,0,0,0,-0.00836274,0.0787175,16506,-0.529516,0.449822,-0.00836274,0.0787175,13811,0,0,0,0,2,-0.678393
13857,-3.71265e-12,2.86688e-38,-1.57833e-06,-3.84404e-12,2.86664e-38,0,-1.13772e-13,0,0,-3.61712,0.375377,0.515652,0,0,0,0,0,-0.555455,0.375377,215,-72,215,-72,341,-64,215,55,-0.436332,-0.0872664,0,-1.5,3.94113e+12,0,0,0,-0.529918,0.4536,0,0,0,0,-0.00836274,0.0787175,16506,-0.529516,0.449822,-0.00836274,0.0787175,13811,0,0,0,0,2,-0.6804
13879,-3.71265e-12,2.86688e-38,-1.57833e-06,-3.84404e-12,2.86664e-38,0,-1.13772e-13,0,0,-3.6304,0.371077,0.536467,0,0,0,0,0,-0.573654,0.371077,216,-72,216,-72,341,-68,217,55,-0.436332,-0.0872664,0,-1.5,3.94113e+12,0,0,0,-0.531425,0.450165,0,0,0,0,-0.0164659,0.076366,16125,-0.53131,0.449631,-0.0164659,0.076366,13874,0,0,0,0,2,-0.675248
13901,-3.71265e-12,2.86688e-38,-1.57833e-06,-3.84404e-12,2.86664e-38,0,-1.13773e-13,0,0,-3.6304,0.371077,0.536467,0,0,0,0,0,-0.573654,0.371077,216,-72,216,-72,341,-68,217,55,-0.436332,-0.0872664,0,-1.5,3.94113e+12,0,0,0,-0.531788,0.451845,0,0,0,0,-0.0164659,0.076366,16125,-0.53131,0.449631,-0.0164659,0.076366,13874,0,0,0,0,2,-0.677768
13926,-3.71265e-12,2.86688e-38,-1.57833e-06,-3.84404e-12,2.86664e-38,0,-1.13773e-13,0,0,-3.6074,0.370884,0.522731,0,0,0,0,0,-0.542133,0.370884,214,-72,214,-72,341,-68,217,55,-0.436332,-0.0872664,0,-1.5,3.94113e+12,0,0,0,-0.521998,0.417959,0,0,0,0,0.00643507,0.00512994,16383,-0.522159,0.417831,0.00643507,0.00512994,13912,0,0,0,0,2,-0.626939
13943,-3.71265e-12,2.86688e-38,-1.57833e-06,-3.84404e-12,2.86664e-38,0,-1.13774e-13,0,0,-3.6074,0.370884,0.522731,0,0,0,0,0,-0.542133,0.370884,214,-72,214,-72,341,-68,217,55,-0.436332,-0.0872664,0,-1.5,3.94113e+12,0,0,0,-0.521888,0.418046,0,0,0,0,0.00643507,0.00512994,16383,-0.522159,0.417831,0.00643507,0.00512994,13912,0,0,0,0,2,-0.62707
13970,-3.71265e-12,2.86688e-38,-1.57833e-06,-3.84404e-12,2.86664e-38,0,-1.13774e-13,0,0,-3.58511,0.375482,0.513731,0,0,0,0,0,-0.511603,0.375482,214,-72,214,-72,341,-70,215,55,-0.436332,-0.0872664,0,-1.5,3.94113e+12,0,0,0,-0.526348,0.367674,0,0,0,0,0.000593212,-0.14903,16383,-0.526363,0.371549,0.000593212,-0.14903,13955,0,0,0,0,2,-0.551511
14015,-3.71265e-12,2.86688e-38,-1.57833e-06,-3.84404e-12,2.86664e-38,0,-1.13775e-13,0,0,-3.59058,0.359433,0.485162,0,0,0,0,0,-0.519101,0.359433,217,-66,217,-66,339,-66,215,60,-0.436332,-0.0872664,0,-1.5,3.94113e+12,0,0,0,-0.517515,0.339977,0,0,0,0,0.0198291,-0.209948,16380,-0.517693,0.341867,0.0198291,-0.209948,14008,0,0,0,0,2,-0.509966
14032,-3.71265e-12,2.86688e-38,-1.57833e-06,-3.84404e-12,2.86664e-38,0,-1.13776e-13,0,0,-3.59058,0.359433,0.485162,0,0,0,0,0,-0.519101,0.359433,217,-66,217,-66,339,-66,215,60,-0.436332,-0.0872664,0,-1.5,3.94113e+12,0,0,0,-0.517178,0.336408,0,0,0,0,0.0198291,-0.209948,16380,-0.517693,0.341867,0.0198291,-0.209948,14008,0,0,0,0,2,-0.504612
14059,-3.71265e-12,2.86688e-38,-1.57833e-06,-3.84404e-12,2.86664e-38,0,-1.13776e-13,0,0,-3.55381,0.357884,0.463456,0,0,0,0,0,-0.468715,0.357884,214,-66,214,-66,341,-66,215,60,-0.436332,-0.0872664,0,-1.5,3.94113e+12,0,0,0,-0.509833,0.330235,0,0,0,0,0.0388311,-0.21619,16506,-0.510882,0.336072,0.0388311,-0.21619,14045,0,0,0,0,2,-0.495353
14203,-3.71265e-12,2.86688e-38,-1.57833e-06,-3.84404e-12,2.86664e-38,0,-1.13777e-13,0,0,-3.56863,0.363764,0.472145,0,0,0,0,0,-0.489022,0.363764,214,-66,214,-66,339,-66,215,60,-0.436332,-0.0872664,0,-1.5,3.94113e+12,0,0,0,-0.48731,0.302441,0,0,0,0,0.0585258,-0.213304,16506,-0.494918,0.330171,0.0585258,-0.213304,14074,0,0,0,0,2,-0.453662
14229,-3.71265e-12,2.86688e-38,-1.57833e-06,-3.84404e-12,2.86664e-38,0,-1.13777e-13,0,0,-3.50174,0.349987,0.440436,0,0,0,0,0,-0.397382,0.349987,214,-70,214,-70,342,-68,215,60,-0.436332,-0.0872664,0,-1.5,3.94113e+12,0,0,0,-0.465729,0.298969,0,0,0,0,0.0942848,-0.211504,17030,-0.467049,0.30193,0.0942848,-0.211504,14217,0,0,0,0,2,-0.448453
14278,-3.71265e-12,2.86688e-38,-1.57833e-06,-3.84404e-12,2.86664e-38,0,-1.13778e-13,0,0,-3.55879,0.349742,0.474725,0,0,0,0,0,-0.475541,0.349742,218,-68,218,-68,341,-68,215,60,-0.436332,-0.0872664,0,-1.5,3.94113e+12,0,0,0,-0.466066,0.291126,0,0,0,0,0.111453,-0.211863,16640,-0.471527,0.301507,0.111453,-0.211863,14264,0,0,0,0,2,-0.436689
14332,-3.71265e-12,2.86688e-38,-1.57833e-06,-3.84404e-12,2.86664e-38,0,-1.13778e-13,0,0,-3.60173,0.371544,0.49545,0,0,0,0,0,-0.534374,0.371544,215,-70,215,-70,342,-64,215,55,-0.436332,-0.0872664,0,-1.5,3.94113e+12,0,0,0,-0.47469,0.298195,0,0,0,0,0.0620384,-0.18858,16764,-0.47804,0.308378,0.0620384,-0.18858,14318,0,0,0,0,2,-0.447292
14374,-3.71265e-12,2.86688e-38,-1.57833e-06,-3.84404e-12,2.86664e-38,0,-1.13779e-13,0,0,-3.60173,0.371544,0.49545,0,0,0,0,0,-0.534374,0.371544,215,-70,215,-70,342,-64,215,55,-0.436332,-0.0872664,0,-1.5,3.94113e+12,0,0,0,-0.493142,0.296628,0,0,0,0,0.0341027,-0.180316,16764,-0.494574,0.304201,0.0341027,-0.180316,14360,0,0,0,0,2,-0.444942
14404,-3.71265e-12,2.86688e-38,-1.57833e-06,-3.84404e-12,2.86664e-38,0,-1.13779e-13,0,0,-3.60173,0.371544,0.49545,0,0,0,0,0,-0.534374,0.371544,215,-70,215,-70,342,-64,215,55,-0.436332,-0.0872664,0,-1.5,3.94113e+12,0,0,0,-0.504251,0.297432,0,0,0,0,0.0182572,-0.168363,16764,-0.504799,0.302483,0.0182572,-0.168363,14390,0,0,0,0,2,-0.446148
14427,-3.71265e-12,2.86688e-38,-1.57833e-06,-3.84404e-12,2.86664e-38,0,-1.1378e-13,0,0,-3.60173,0.371544,0.49545,0,0,0,0,0,-0.534374,0.371544,215,-70,215,-70,342,-64,215,55,-0.436332,-0.0872664,0,-1.5,3.94113e+12,0,0,0,-0.529529,0.310953,0,0,0,0,-0.0275652,-0.147347,16764,-0.528895,0.314342,-0.0275652,-0.147347,14413,0,0,0,0,2,-0.46643
14444,-3.71265e-12,2.86688e-38,-1.57833e-06,-3.84404e-12,2.86664e-38,0,-1.1378e-13,0,0,-3.60173,0.371544,0.49545,0,0,0,0,0,-0.534374,0.371544,215,-70,215,-70,342,-64,215,55,-0.436332,-0.0872664,0,-1.5,3.94113e+12,0,0,0,-0.529997,0.308449,0,0,0,0,-0.0275652,-0.147347,16764,-0.528895,0.314342,-0.0275652,-0.147347,14413,0,0,0,0,2,-0.462673
14466,-3.71265e-12,2.86688e-38,-1.57833e-06,-3.84404e-12,2.86664e-38,0,-1.13781e-13,0,0,-3.60173,0.371544,0.49545,0,0,0,0,0,-0.534374,0.371544,215,-70,215,-70,342,-64,215,55,-0.436332,-0.0872664,0,-1.5,3.94113e+12,0,0,0,-0.537151,0.308496,0,0,0,0,-0.0396266,-0.142977,16764,-0.536279,0.311642,-0.0396266,-0.142977,14452,0,0,0,0,2,-0.462745
14486,-3.71265e-12,2.86688e-38,-1.57833e-06,-3.84404e-12,2.86664e-38,0,-1.13781e-13,0,0,-3.60737,0.371991,0.501079,0,0,0,0,0,-0.542095,0.371991,215,-70,215,-70,342,-64,215,54,-0.436332,-0.0872664,0,-1.5,3.94113e+12,0,0,0,-0.538997,0.316957,0,0,0,0,-0.0447301,-0.118581,16764,-0.538595,0.318024,-0.0447301,-0.118581,14478,0,0,0,0,2,-0.475436
14502,-3.71265e-12,2.86688e-38,-1.57833e-06,-3.84404e-12,2.86664e-38,0,-1.13782e-13,0,0,-3.60737,0.371991,0.501079,0,0,0,0,0,-0.542095,0.371991,215,-70,215,-70,342,-64,215,54,-0.436332,-0.0872664,0,-1.5,3.94113e+12,0,0,0,-0.539758,0.314941,0,0,0,0,-0.0447301,-0.118581,16764,-0.538595,0.318024,-0.0447301,-0.118581,14478,0,0,0,0,2,-0.472412
14532,-3.71265e-12,2.86688e-38,-1.57833e-06,-3.84404e-12,2.86664e-38,0,-1.13783e-13,0,0,-3.57337,0.367331,0.502724,0,0,0,0,0,-0.495522,0.367331,214,-72,214,-72,341,-68,215,55,-0.436332,-0.0872664,0,-1.5,3.94113e+12,0,0,0,-0.538134,0.321741,0,0,0,0,-0.0327521,-0.102396,16383,-0.537151,0.324813,-0.0327521,-0.102396,14518,0,0,0,0,2,-0.482611
14555,-3.71265e-12,2.86688e-38,-1.57833e-06,-3.84404e-12,2.86664e-38,0,-1.13783e-13,0,0,-3.60422,0.370547,0.521091,0,0,0,0,0,-0.537783,0.370547,216,-72,216,-72,341,-68,215,55,-0.436332,-0.0872664,0,-1.5,3.94113e+12,0,0,0,-0.538817,0.357014,0,0,0,0,-0.0324587,-0.0566943,16254,-0.538103,0.358261,-0.0324587,-0.0566943,14541,0,0,0,0,2,-0.535521
14571,-3.71265e-12,2.86688e-38,-1.57833e-06,-3.84404e-12,2.86664e-38,0,-1.13784e-13,0,0,-3.60422,0.370547,0.521091,0,0,0,0,0,-0.537783,0.370547,216,-72,216,-72,341,-68,215,55,-0.436332,-0.0872664,0,-1.5,3.94113e+12,0,0,0,-0.539369,0.35605,0,0,0,0,-0.0324587,-0.0566943,16254,-0.538103,0.358261,-0.0324587,-0.0566943,14541,0,0,0,0,2,-0.534075
14592,-3.71265e-12,2.86688e-38,-1.57833e-06,-3.84404e-12,2.86664e-38,0,-1.13784e-13,0,0,-3.60422,0.370547,0.521091,0,0,0,0,0,-0.537783,0.370547,216,-72,216,-72,341,-68,215,55,-0.436332,-0.0872664,0,-1.5,3.94113e+12,0,0,0,-0.54005,0.354859,0,0,0,0,-0.0324587,-0.0566943,16254,-0.538103,0.358261,-0.0324587,-0.0566943,14541,0,0,0,0,2,-0.532289
14609,-3.71265e-12,2.86688e-38,-1.57833e-06,-3.84404e-12,2.86664e-38,0,-1.13785e-13,0,0,-3.60422,0.370547,0.521091,0,0,0,0,0,-0.537783,0.370547,216,-72,216,-72,341,-68,215,55,-0.436332,-0.0872664,0,-1.5,3.94113e+12,0,0,0,-0.540602,0.353896,0,0,0,0,-0.0324587,-0.0566943,16254,-0.538103,0.358261,-0.0324587,-0.0566943,14541,0,0,0,0,2,-0.530843
14634,-3.71265e-12,2.86688e-38,-1.57833e-06,-3.84404e-12,2.86664e-38,0,-1.13785e-13,0,0,-3.60334,0.362308,0.520598,0,0,0,0,0,-0.536574,0.362308,217,-70,217,-70,341,-70,216,55,-0.436332,-0.0872664,0,-1.5,3.94113e+12,0,0,0,-0.540442,0.361037,0,0,0,0,-0.0343382,-0.0207077,15875,-0.539583,0.361554,-0.0343382,-0.0207077,14620,0,0,0,0,2,-0.541555
14661,-3.71265e-12,2.86688e-38,-1.57833e-06,-3.84404e-12,2.86664e-38,0,-1.13786e-13,0,0,-3.61766,0.353435,0.518006,0,0,0,0,0,-0.556197,0.353435,220,-68,220,-68,342,-70,217,58,-0.436332,-0.0872664,0,-1.5,3.94113e+12,0,0,0,-0.545567,0.361064,0,0,0,0,-0.0407063,-0.0194922,16000,-0.544468,0.36159,-0.0407063,-0.0194922,14647,0,0,0,0,2,-0.541596
14684,-3.71265e-12,2.86688e-38,-1.57833e-06,-3.84404e-12,2.86664e-38,0,-1.13786e-13,0,0,-3.61017,0.346024,0.504717,0,0,0,0,0,-0.545938,0.346024,220,-68,220,-68,344,-68,218,60,-0.436332,-0.0872664,0,-1.5,3.94113e+12,0,0,0,-0.540632,0.361554,0,0,0,0,-0.0225767,-0.0158887,16128,-0.540474,0.361666,-0.0225767,-0.0158887,14678,0,0,0,0,2,-0.542332
14700,-3.71265e-12,2.86688e-38,-1.57833e-06,-3.84404e-12,2.86664e-38,0,-1.13787e-13,0,0,-3.61017,0.346024,0.504717,0,0,0,0,0,-0.545938,0.346024,220,-68,220,-68,344,-68,218,60,-0.436332,-0.0872664,0,-1.5,3.94113e+12,0,0,0,-0.541016,0.361284,0,0,0,0,-0.0225767,-0.0158887,16128,-0.540474,0.361666,-0.0225767,-0.0158887,14678,0,0,0,0,2,-0.541927
14730,-3.71265e-12,2.86688e-38,-1.57833e-06,-3.84404e-12,2.86664e-38,0,-1.13787e-13,0,0,-3.59794,0.355956,0.495044,0,0,0,0,0,-0.529181,0.355956,217,-68,217,-68,342,-68,218,61,-0.436332,-0.0872664,0,-1.5,3.94113e+12,0,0,0,-0.54329,0.358092,0,0,0,0,-0.0326979,-0.0166466,16125,-0.542309,0.358592,-0.0326979,-0.0166466,14716,0,0,0,0,2,-0.537138
14744,-3.71265e-12,2.86688e-38,-1.57833e-06,-3.84404e-12,2.86664e-38,0,-1.13788e-13,0,0,-3.59794,0.355956,0.495044,0,0,0,0,0,-0.529181,0.355956,217,-68,217,-68,342,-68,218,61,-0.436332,-0.0872664,0,-1.5,3.94113e+12,0,0,0,-0.543747,0.357859,0,0,0,0,-0.0326979,-0.0166466,16125,-0.542309,0.358592,-0.0326979,-0.0166466,14716,0,0,0,0,2,-0.536789
14764,-3.71265e-12,2.86688e-38,-1.57833e-06,-3.84404e-12,2.86664e-38,0,-1.13789e-13,0,0,-3.59794,0.355956,0.495044,0,0,0,0,0,-0.529181,0.355956,217,-68,217,-68,342,-68,218,61,-0.436332,-0.0872664,0,-1.5,3.94113e+12,0,0,0,-0.544401,0.357526,0,0,0,0,-0.0326979,-0.0166466,16125,-0.542309,0.358592,-0.0326979,-0.0166466,14716,0,0,0,0,2,-0.536289
14822,-3.71265e-12,2.86688e-38,-1.57833e-06,-3.84404e-12,2.86664e-38,0,-1.13789e-13,0,0,-3.96599,0.384611,0.564718,0,0,0,0,0,-1.0334,0.384611,219,-33,219,-33,342,-39,217,58,-0.436332,-0.0872664,0,-1.5,3.94113e+12,0,0,0,-0.542815,0.36398,0,0,0,0,-0.0234469,-0.0083835,12474,-0.541456,0.364466,-0.0234469,-0.0083835,14808,0,0,0,0,2,-0.54597
14842,-3.71265e-12,2.86688e-38,-1.57833e-06,-3.84404e-12,2.86664e-38,0,-1.1379e-13,0,0,-3.96599,0.384611,0.564718,0,0,0,0,0,-1.0334,0.384611,219,-33,219,-33,342,-39,217,58,-0.436332,-0.0872664,0,-1.5,3.94113e+12,0,0,0,-0.543284,0.363812,0,0,0,0,-0.0234469,-0.0083835,12474,-0.541456,0.364466,-0.0234469,-0.0083835,14808,0,0,0,0,2,-0.545718
14864,-3.71265e-12,2.86688e-38,-1.57833e-06,-3.84404e-12,2.86664e-38,0,-1.1379e-13,0,0,-3.62891,0.358924,0.494027,0,0,0,0,0,-0.571606,0.358924,220,-64,220,-64,341,-66,216,61,-0.436332,-0.0872664,0,-1.5,3.94113e+12,0,0,0,-0.55169,0.359904,0,0,0,0,-0.0371918,-0.0111123,15875,-0.550871,0.360149,-0.0371918,-0.0111123,14850,0,0,0,0,2,-0.539856
14891,-3.71265e-12,2.86688e-38,-1.57833e-06,-3.84404e-12,2.86664e-38,0,-1.13791e-13,0,0,-3.56971,0.345931,0.467435,0,0,0,0,0,-0.490503,0.345931,217,-68,217,-68,345,-66,218,61,-0.436332,-0.0872664,0,-1.5,3.94113e+12,0,0,0,-0.545699,0.359723,0,0,0,0,-0.0221547,-0.0110493,16512,-0.545389,0.359877,-0.0221547,-0.0110493,14880,0,0,0,0,2,-0.539584
14908,-3.71265e-12,2.86688e-38,-1.57833e-06,-3.84404e-12,2.86664e-38,0,-1.13791e-13,0,0,-3.56971,0.345931,0.467435,0,0,0,0,0,-0.490503,0.345931,217,-68,217,-68,345,-66,218,61,-0.436332,-0.0872664,0,-1.5,3.94113e+12,0,0,0,-0.546076,0.359535,0,0,0,0,-0.0221547,-0.0110493,16512,-0.545389,0.359877,-0.0221547,-0.0110493,14880,0,0,0,0,2,-0.539302
14933,-3.71265e-12,2.86688e-38,-1.57833e-06,-3.84404e-12,2.86664e-38,0,-1.13792e-13,0,0,-3.6182,0.344347,0.491838,0,0,0,0,0,-0.556934,0.344347,221,-66,221,-66,344,-66,218,61,-0.436332,-0.0872664,0,-1.5,3.94113e+12,0,0,0,-0.555843,0.358602,0,0,0,0,-0.0426495,-0.0112384,16002,-0.554777,0.358883,-0.0426495,-0.0112384,14919,0,0,0,0,2,-0.537902
14960,-3.71265e-12,2.86688e-38,-1.57833e-06,-3.84404e-12,2.86664e-38,0,-1.13792e-13,0,0,-3.57792,0.348919,0.472236,0,0,0,0,0,-0.50175,0.348919,217,-68,217,-68,344,-66,218,61,-0.436332,-0.0872664,0,-1.5,3.94113e+12,0,0,0,-0.554148,0.355627,0,0,0,0,-0.0380957,-0.0141784,16383,-0.55312,0.356009,-0.0380957,-0.0141784,14946,0,0,0,0,2,-0.53344
14977,-3.71265e-12,2.86688e-38,-1.57833e-06,-3.84404e-12,2.86664e-38,0,-1.13793e-13,0,0,-3.57792,0.348919,0.472236,0,0,0,0,0,-0.50175,0.348919,217,-68,217,-68,344,-66,218,61,-0.436332,-0.0872664,0,-1.5,3.94113e+12,0,0,0,-0.554796,0.355386,0,0,0,0,-0.0380957,-0.0141784,16383,-0.55312,0.356009,-0.0380957,-0.0141784,14946,0,0,0,0,2,-0.533078
14994,-3.71265e-12,2.86688e-38,-1.57833e-06,-3.84404e-12,2.86664e-38,0,-1.13793e-13,0,0,-3.57792,0.348919,0.472236,0,0,0,0,0,-0.50175,0.348919,217,-68,217,-68,344,-66,218,61,-0.436332,-0.0872664,0,-1.5,3.94113e+12,0,0,0,-0.555443,0.355145,0,0,0,0,-0.0380957,-0.0141784,16383,-0.55312,0.356009,-0.0380957,-0.0141784,14946,0,0,0,0,2,-0.532717
15021,-3.71265e-12,2.86688e-38,-1.57833e-06,-3.84404e-12,2.86664e-38,0,-1.13794e-13,0,0,-3.59898,0.344413,0.484694,0,0,0,0,0,-0.530609,0.344413,220,-68,220,-68,344,-66,218,61,-0.436332,-0.0872664,0,-1.5,3.94113e+12,0,0,0,-0.549374,0.350088,0,0,0,0,-0.0319372,-0.0184473,16254,-0.54899,0.350309,-0.0319372,-0.0184473,15012,0,0,0,0,2,-0.525132
15035,-3.71265e-12,2.86688e-38,-1.57833e-06,-3.84404e-12,2.86664e-38,0,-1.13794e-13,0,0,-3.59898,0.344413,0.484694,0,0,0,0,0,-0.530609,0.344413,220,-68,220,-68,344,-66,218,61,-0.436332,-0.0872664,0,-1.5,3.94113e+12,0,0,0,-0.549821,0.349829,0,0,0,0,-0.0319372,-0.0184473,16254,-0.54899,0.350309,-0.0319372,-0.0184473,15012,0,0,0,0,2,-0.524744
15057,-3.71265e-12,2.86688e-38,-1.57833e-06,-3.84404e-12,2.86664e-38,0,-1.13795e-13,0,0,-3.65075,0.344953,0.51151,0,0,0,0,0,-0.601526,0.344953,220,-64,220,-64,345,-65,219,58,-0.436332,-0.0872664,0,-1.5,3.94113e+12,0,0,0,-0.554491,0.346765,0,0,0,0,-0.0320316,-0.0205199,15750,-0.554043,0.347052,-0.0320316,-0.0205199,15046,0,0,0,0,2,-0.520147
15084,-3.71265e-12,2.86688e-38,-1.57833e-06,-3.84404e-12,2.86664e-38,0,-1.13796e-13,0,0,-3.66983,0.353592,0.515822,0,0,0,0,0,-0.627671,0.353592,220,-64,220,-64,342,-64,219,60,-0.436332,-0.0872664,0,-1.5,3.94113e+12,0,0,0,-0.567499,0.348494,0,0,0,0,-0.0470976,-0.0194058,15252,-0.566934,0.348727,-0.0470976,-0.0194058,15074,0,0,0,0,2,-0.522741
15154,-3.71265e-12,2.86688e-38,-1.57833e-06,-3.84404e-12,2.86664e-38,0,-1.13796e-13,0,0,-3.62614,0.352695,0.49881,0,0,0,0,0,-0.56781,0.352695,220,-68,220,-68,342,-64,217,58,-0.436332,-0.0872664,0,-1.5,3.94113e+12,0,0,0,-0.571521,0.351796,0,0,0,0,-0.0527978,-0.0152769,16250,-0.57094,0.351964,-0.0527978,-0.0152769,15144,0,0,0,0,2,-0.527693
15171,-3.71265e-12,2.86688e-38,-1.57833e-06,-3.84404e-12,2.86664e-38,0,-1.13797e-13,0,0,-3.62614,0.352695,0.49881,0,0,0,0,0,-0.56781,0.352695,220,-68,220,-68,342,-64,217,58,-0.436332,-0.0872664,0,-1.5,3.94113e+12,0,0,0,-0.572471,0.351521,0,0,0,0,-0.0527978,-0.0152769,16250,-0.57094,0.351964,-0.0527978,-0.0152769,15144,0,0,0,0,2,-0.527281
15198,-3.71265e-12,2.86688e-38,-1.57833e-06,-3.84404e-12,2.86664e-38,0,-1.13797e-13,0,0,-3.60739,0.347823,0.479217,0,0,0,0,0,-0.542128,0.347823,218,-64,218,-64,344,-65,218,61,-0.436332,-0.0872664,0,-1.5,3.94113e+12,0,0,0,-0.576844,0.350814,0,0,0,0,-0.062142,-0.0116255,15876,-0.575166,0.351128,-0.062142,-0.0116255,15184,0,0,0,0,2,-0.52622
15215,-3.71265e-12,2.86688e-38,-1.57833e-06,-3.84404e-12,2.86664e-38,0,-1.13798e-13,0,0,-3.60739,0.347823,0.479217,0,0,0,0,0,-0.542128,0.347823,218,-64,218,-64,344,-65,218,61,-0.436332,-0.0872664,0,-1.5,3.94113e+12,0,0,0,-0.5779,0.350616,0,0,0,0,-0.062142,-0.0116255,15876,-0.575166,0.351128,-0.062142,-0.0116255,15184,0,0,0,0,2,-0.525924
15234,-3.71265e-12,2.86688e-38,-1.57833e-06,-3.84404e-12,2.86664e-38,0,-1.13798e-13,0,0,-3.60739,0.347823,0.479217,0,0,0,0,0,-0.542128,0.347823,218,-64,218,-64,344,-65,218,61,-0.436332,-0.0872664,0,-1.5,3.94113e+12,0,0,0,-0.579081,0.350395,0,0,0,0,-0.062142,-0.0116255,15876,-0.575166,0.351128,-0.062142,-0.0116255,15184,0,0,0,0,2,-0.525593
15262,-3.71265e-12,2.86688e-38,-1.57833e-06,-3.84404e-12,2.86664e-38,0,-1.13799e-13,0,0,-3.63124,0.35369,0.501452,0,0,0,0,0,-0.574806,0.35369,217,-68,217,-68,342,-64,220,60,-0.436332,-0.0872664,0,-1.5,3.94113e+12,0,0,0,-0.577754,0.350804,0,0,0,0,-0.0578644,-0.0108339,16000,-0.576192,0.351096,-0.0578644,-0.0108339,15248,0,0,0,0,2,-0.526206
15302,-3.71265e-12,2.86688e-38,-1.57833e-06,-3.84404e-12,2.86664e-38,0,-1.13799e-13,0,0,-3.63004,0.347809,0.492465,0,0,0,0,0,-0.573157,0.347809,220,-64,220,-64,344,-65,218,61,-0.436332,-0.0872664,0,-1.5,3.94113e+12,0,0,0,-0.575878,0.350235,0,0,0,0,-0.0480808,-0.0111392,15876,-0.573907,0.350691,-0.0480808,-0.0111392,15288,0,0,0,0,2,-0.525352
15355,-3.71265e-12,2.86688e-38,-1.57833e-06,-3.84404e-12,2.86664e-38,0,-1.138e-13,0,0,-3.66165,0.357396,0.508771,0,0,0,0,0,-0.616467,0.357396,220,-64,220,-64,341,-64,218,61,-0.436332,-0.0872664,0,-1.5,3.94113e+12,0,0,0,-0.583638,0.347109,0,0,0,0,-0.0600847,-0.0204809,15375,-0.580454,0.348194,-0.0600847,-0.0204809,15341,0,0,0,0,2,-0.520663
15382,-3.71265e-12,2.86688e-38,-1.57833e-06,-3.84404e-12,2.86664e-38,0,-1.138e-13,0,0,-3.61609,0.347665,0.499711,0,0,0,0,0,-0.554048,0.347665,220,-68,220,-68,344,-65,217,58,-0.436332,-0.0872664,0,-1.5,3.94113e+12,0,0,0,-0.579063,0.345656,0,0,0,0,-0.0466148,-0.0233915,16256,-0.57855,0.345913,-0.0466148,-0.0233915,15373,0,0,0,0,2,-0.518484
15396,-3.71265e-12,2.86688e-38,-1.57833e-06,-3.84404e-12,2.86664e-38,0,-1.13801e-13,0,0,-3.61609,0.347665,0.499711,0,0,0,0,0,-0.554048,0.347665,220,-68,220,-68,344,-65,217,58,-0.436332,-0.0872664,0,-1.5,3.94113e+12,0,0,0,-0.579715,0.345329,0,0,0,0,-0.0466148,-0.0233915,16256,-0.57855,0.345913,-0.0466148,-0.0233915,15373,0,0,0,0,2,-0.517993
15418,-3.71265e-12,2.86688e-38,-1.57833e-06,-3.84404e-12,2.86664e-38,0,-1.13802e-13,0,0,-3.58528,0.344662,0.478761,0,0,0,0,0,-0.511829,0.344662,217,-68,217,-68,345,-66,219,58,-0.436332,-0.0872664,0,-1.5,3.94113e+12,0,0,0,-0.577965,0.344723,0,0,0,0,-0.0448729,-0.0237279,16640,-0.577561,0.344936,-0.0448729,-0.0237279,15411,0,0,0,0,2,-0.517084
15439,-3.71265e-12,2.86688e-38,-1.57833e-06,-3.84404e-12,2.86664e-38,0,-1.13802e-13,0,0,-3.58528,0.344662,0.478761,0,0,0,0,0,-0.511829,0.344662,217,-68,217,-68,345,-66,219,58,-0.436332,-0.0872664,0,-1.5,3.94113e+12,0,0,0,-0.578907,0.344224,0,0,0,0,-0.0448729,-0.0237279,16640,-0.577561,0.344936,-0.0448729,-0.0237279,15411,0,0,0,0,2,-0.516336
15465,-3.71265e-12,2.86688e-38,-1.57833e-06,-3.84404e-12,2.86664e-38,0,-1.13803e-13,0,0,-3.56609,0.347549,0.460692,0,0,0,0,0,-0.48554,0.347549,217,-68,217,-68,344,-66,218,61,-0.436332,-0.0872664,0,-1.5,3.94113e+12,0,0,0,-0.580259,0.343769,0,0,0,0,-0.0444084,-0.0244166,16510,-0.579104,0.344404,-0.0444084,-0.0244166,15451,0,0,0,0,2,-0.515654
15487,-3.71265e-12,2.86688e-38,-1.57833e-06,-3.84404e-12,2.86664e-38,0,-1.13803e-13,0,0,-3.60504,0.353257,0.481886,0,0,0,0,0,-0.5389,0.353257,217,-68,217,-68,343,-63,218,61,-0.436332,-0.0872664,0,-1.5,3.94113e+12,0,0,0,-0.557146,0.343111,0,0,0,0,-0.0198563,-0.0243233,16254,-0.556928,0.343379,-0.0198563,-0.0243233,15478,0,0,0,0,2,-0.514667
15514,-3.71265e-12,2.86688e-38,-1.57833e-06,-3.84404e-12,2.86664e-38,0,-1.13804e-13,0,0,-3.66719,0.350258,0.527331,0,0,0,0,0,-0.624044,0.350258,220,-68,220,-68,342,-64,220,58,-0.436332,-0.0872664,0,-1.5,3.94113e+12,0,0,0,-0.58465,0.34359,0,0,0,0,-0.0461606,-0.02287,15616,-0.584188,0.343819,-0.0461606,-0.02287,15506,0,0,0,0,2,-0.515386
15531,-3.71265e-12,2.86688e-38,-1.57833e-06,-3.84404e-12,2.86664e-38,0,-1.13804e-13,0,0,-3.66719,0.350258,0.527331,0,0,0,0,0,-0.624044,0.350258,220,-68,220,-68,342,-64,220,58,-0.436332,-0.0872664,0,-1.5,3.94113e+12,0,0,0,-0.585388,0.343225,0,0,0,0,-0.0461606,-0.02287,15616,-0.584188,0.343819,-0.0461606,-0.02287,15506,0,0,0,0,2,-0.514837
15556,-3.71265e-12,2.86688e-38,-1.57833e-06,-3.84404e-12,2.86664e-38,0,-1.13805e-13,0,0,-3.63613,0.359998,0.502939,0,0,0,0,0,-0.581493,0.359998,217,-68,217,-68,342,-61,217,58,-0.436332,-0.0872664,0,-1.5,3.94113e+12,0,0,0,-0.585644,0.343651,0,0,0,0,-0.0453368,-0.0212934,16000,-0.585009,0.343949,-0.0453368,-0.0212934,15544,0,0,0,0,2,-0.515477
15582,-3.71265e-12,2.86688e-38,-1.57833e-06,-3.84404e-12,2.86664e-38,0,-1.13805e-13,0,0,-3.65059,0.354582,0.506429,0,0,0,0,0,-0.601306,0.354582,217,-68,217,-68,342,-61,220,58,-0.436332,-0.0872664,0,-1.5,3.94113e+12,0,0,0,-0.588549,0.344289,0,0,0,0,-0.0468702,-0.018647,16250,-0.588221,0.344419,-0.0468702,-0.018647,15577,0,0,0,0,2,-0.516433
15599,-3.71265e-12,2.86688e-38,-1.57833e-06,-3.84404e-12,2.86664e-38,0,-1.13806e-13,0,0,-3.65059,0.354582,0.506429,0,0,0,0,0,-0.601306,0.354582,217,-68,217,-68,342,-61,220,58,-0.436332,-0.0872664,0,-1.5,3.94113e+12,0,0,0,-0.589346,0.343972,0,0,0,0,-0.0468702,-0.018647,16250,-0.588221,0.344419,-0.0468702,-0.018647,15577,0,0,0,0,2,-0.515958
15616,-3.71265e-12,2.86688e-38,-1.57833e-06,-3.84404e-12,2.86664e-38,0,-1.13806e-13,0,0,-3.65059,0.354582,0.506429,0,0,0,0,0,-0.601306,0.354582,217,-68,217,-68,342,-61,220,58,-0.436332,-0.0872664,0,-1.5,3.94113e+12,0,0,0,-0.590143,0.343655,0,0,0,0,-0.0468702,-0.018647,16250,-0.588221,0.344419,-0.0468702,-0.018647,15577,0,0,0,0,2,-0.515482
15644,-3.71265e-12,2.86688e-38,-1.57833e-06,-3.84404e-12,2.86664e-38,0,-1.13807e-13,0,0,-3.6071,0.343396,0.459137,0,0,0,0,0,-0.54172,0.343396,217,-66,217,-66,346,-58,219,60,-0.436332,-0.0872664,0,-1.5,3.94113e+12,0,0,0,-0.587577,0.342919,0,0,0,0,-0.0410547,-0.0184628,16899,-0.586427,0.343436,-0.0410547,-0.0184628,15630,0,0,0,0,2,-0.514379
15664,-3.71265e-12,2.86688e-38,-1.57833e-06,-3.84404e-12,2.86664e-38,0,-1.13808e-13,0,0,-3.5879,0.354182,0.458245,0,0,0,0,0,-0.515426,0.354182,217,-66,217,-66,342,-64,218,63,-0.436332,-0.0872664,0,-1.5,3.94113e+12,0,0,0,-0.580661,0.347506,0,0,0,0,-0.0353791,-0.00894847,16125,-0.579954,0.347685,-0.0353791,-0.00894847,15650,0,0,0,0,2,-0.521259
15686,-3.71265e-12,2.86688e-38,-1.57833e-06,-3.84404e-12,2.86664e-38,0,-1.13808e-13,0,0,-3.61323,0.350599,0.477698,0,0,0,0,0,-0.550128,0.350599,217,-68,217,-68,343,-61,219,58,-0.436332,-0.0872664,0,-1.5,3.94113e+12,0,0,0,-0.559834,0.349178,0,0,0,0,-0.0149665,-0.00630846,16758,-0.5597,0.349235,-0.0149665,-0.00630846,15679,0,0,0,0,2,-0.523767
15712,-3.71265e-12,2.86688e-38,-1.57833e-06,-3.84404e-12,2.86664e-38,0,-1.13809e-13,0,0,-3.6273,0.348674,0.48616,0,0,0,0,0,-0.569403,0.348674,220,-66,220,-66,343,-63,218,60,-0.436332,-0.0872664,0,-1.5,3.94113e+12,0,0,0,-0.567704,0.348804,0,0,0,0,-0.020513,-0.00634199,16125,-0.56752,0.348861,-0.020513,-0.00634199,15705,0,0,0,0,2,-0.523206
15732,-3.71265e-12,2.86688e-38,-1.57833e-06,-3.84404e-12,2.86664e-38,0,-1.13809e-13,0,0,-3.6273,0.348674,0.48616,0,0,0,0,0,-0.569403,0.348674,220,-66,220,-66,343,-63,218,60,-0.436332,-0.0872664,0,-1.5,3.94113e+12,0,0,0,-0.568114,0.348677,0,0,0,0,-0.020513,-0.00634199,16125,-0.56752,0.348861,-0.020513,-0.00634199,15705,0,0,0,0,2,-0.523016
15755,-3.71265e-12,2.86688e-38,-1.57833e-06,-3.84404e-12,2.86664e-38,0,-1.1381e-13,0,0,-3.60058,0.355413,0.461472,0,0,0,0,0,-0.532795,0.355413,217,-65,217,-65,342,-63,218,63,-0.436332,-0.0872664,0,-1.5,3.94113e+12,0,0,0,-0.551511,0.350373,0,0,0,0,0.00514819,-0.002576,16000,-0.551572,0.350404,0.00514819,-0.002576,15745,0,0,0,0,2,-0.52556
15828,-3.71265e-12,2.86688e-38,-1.57833e-06,-3.84404e-12,2.86664e-38,0,-1.1381e-13,0,0,-3.59151,0.340747,0.458398,0,0,0,0,0,-0.520373,0.340747,220,-66,220,-66,345,-63,218,61,-0.436332,-0.0872664,0,-1.5,3.94113e+12,0,0,0,-0.552611,0.349201,0,0,0,0,0.00310901,-0.00339242,16637,-0.552838,0.349449,0.00310901,-0.00339242,15814,0,0,0,0,2,-0.523801
