timestamp,A_x,A_y,A_z,P,Q,R,Phi,Theta,Psi,poseX,poseY,poseZ,state_X,state_Y,state_Z,state_VzB,state_Bx,state_By,state_Bz,p1_x,p1_y,p2_x,p2_y,p3_x,p3_y,p4_x,p4_y,roll,pitch,yaw,alt,targetHeading,highLevelState,lowLevelState,gateNumber,filtered_x,filtered_y,x_OT,y_OT,vx_OT,vy_OT,filtered_vx,filtered_vygateArearansac_corr_x,ransac_corr_y,ransac_corr_vx,ransac_corr_vy,detectionTimeStamppTermX,dTermX,pTermY,dTermY
8091,0,0,0,0,0,0,0,0,0,0,0,0,0,0,0,0,0,0,0,0,0,0,0,0,0,0,0,0,-0,0,-1.5,3.94113e+12,0,0,0,0,0,0,0,0,0,0,0,1.9603e-19,0,0,0,0,0,0,0,0,0
9073,-3.21253e-12,1.12104e-37,-1.57321e-06,-3.27827e-12,1.12094e-37,0,-1.13703e-13,0,0,0,0,0,0,0,0,0,0,0,0,0,0,0,0,0,0,0,0,0,-0,0,-1.5,3.94113e+12,0,0,0,0,0,0,0,0,0,0,0,1.9603e-19,0,0,0,0,0,0,0,0,0
9116,-3.21253e-12,1.12104e-37,-1.57321e-06,-3.27827e-12,1.12094e-37,0,-1.13703e-13,0,0,0,0,0,0,0,0,0,0,0,0,0,0,0,0,0,0,0,0,0,-0,0,-1.5,3.94113e+12,0,0,0,0,0,0,0,0,0,0,0,1.9603e-19,0,0,0,0,0,0,0,0,0
9350,-3.21253e-12,1.12104e-37,-1.57321e-06,-3.27827e-12,1.12094e-37,0,-1.13704e-13,0,0,0,0,0,0,0,0,0,0,0,0,0,0,0,0,0,0,0,0,0,-0,0,-1.5,3.94113e+12,0,0,0,0,0,0,0,0,0,0,0,1.9603e-19,0,0,0,0,0,0,0,0,0
9445,-3.21253e-12,1.12104e-37,-1.57321e-06,-3.27827e-12,1.12094e-37,0,-1.13704e-13,0,0,0,0,0,0,0,0,0,0,0,0,0,0,0,0,0,0,0,0,0,-0,0,-1.5,3.94113e+12,0,0,0,0,0,0,0,0,0,0,0,1.9603e-19,0,0,0,0,0,0,0,0,0
9602,-3.21253e-12,1.12104e-37,-1.57321e-06,-3.27827e-12,1.12094e-37,0,-1.13705e-13,0,0,0,0,0,0,0,0,0,0,0,0,0,0,0,0,0,0,0,0,0,-0,0,-1.5,3.94113e+12,0,0,0,0,0,0,0,0,0,0,0,1.9603e-19,0,0,0,0,0,0,0,0,0
9649,-3.21253e-12,1.12104e-37,-1.57321e-06,-3.27827e-12,1.12094e-37,0,-1.13705e-13,0,0,0,0,0,0,0,0,0,0,0,0,0,0,0,0,0,0,0,0,0,-0,0,-1.5,3.94113e+12,0,0,0,0,0,0,0,0,0,0,0,1.9603e-19,0,0,0,0,0,0,0,0,0
9760,-3.21253e-12,1.12104e-37,-1.57321e-06,-3.27827e-12,1.12094e-37,0,-1.13706e-13,0,0,0,0,0,0,0,0,0,0,0,0,0,0,0,0,0,0,0,0,0,-0,0,-1.5,3.94113e+12,0,0,0,0,0,0,0,0,0,0,0,1.9603e-19,0,0,0,0,0,0,0,0,0
9814,-3.21253e-12,1.12104e-37,-1.57321e-06,-3.27827e-12,1.12094e-37,0,-1.13706e-13,0,0,0,0,0,0,0,0,0,0,0,0,0,0,0,0,0,0,0,0,0,-0,0,-1.5,3.94113e+12,0,0,0,0,0,0,0,0,0,0,0,1.9603e-19,0,0,0,0,0,0,0,0,0
9845,-3.21253e-12,1.12104e-37,-1.57321e-06,-3.27827e-12,1.12094e-37,0,-1.13707e-13,0,0,0,0,0,0,0,0,0,0,0,0,0,0,0,0,0,0,0,0,0,-0,0,-1.5,3.94113e+12,0,0,0,0,0,0,0,0,0,0,0,1.9603e-19,0,0,0,0,0,0,0,0,0
9862,-3.21253e-12,1.12104e-37,-1.57321e-06,-3.27827e-12,1.12094e-37,0,-1.13708e-13,0,0,0,0,0,0,0,0,0,0,0,0,0,0,0,0,0,0,0,0,0,-0,0,-1.5,3.94113e+12,0,0,0,0,0,0,0,0,0,0,0,1.9603e-19,0,0,0,0,0,0,0,0,0
9970,-3.21253e-12,1.12104e-37,-1.57321e-06,-3.27827e-12,1.12094e-37,0,-1.13708e-13,0,0,0,0,0,0,0,0,0,0,0,0,0,0,0,0,0,0,0,0,0,-0,0,-1.5,3.94113e+12,0,0,0,0,0,0,0,0,0,0,0,1.9603e-19,0,0,0,0,0,0,0,0,0
10017,-3.21253e-12,1.12104e-37,-1.57321e-06,-3.27827e-12,1.12094e-37,0,-1.13709e-13,0,0,0,0,0,0,0,0,0,0,0,0,0,0,0,0,0,0,0,0,0,-0,0,-1.5,3.94113e+12,0,0,0,0,0,0,0,0,0,0,0,1.9603e-19,0,0,0,0,0,0,0,0,0
10071,-3.21253e-12,1.12104e-37,-1.57321e-06,-3.27827e-12,1.12094e-37,0,-1.13709e-13,0,0,0,0,0,0,0,0,0,0,0,0,0,0,0,0,0,0,0,0,0,-0,0,-1.5,3.94113e+12,0,0,0,0,0,0,0,0,0,0,0,1.9603e-19,0,0,0,0,0,0,0,0,0
10091,-3.21253e-12,1.12104e-37,-1.57321e-06,-3.27827e-12,1.12094e-37,0,-1.1371e-13,0,0,0,0,0,0,0,0,0,0,0,0,0,0,0,0,0,0,0,0,0,-0,0,-1.5,3.94113e+12,0,0,0,0,0,0,0,0,0,0,0,1.9603e-19,0,0,0,0,0,0,0,0,0
10200,-3.21253e-12,1.12104e-37,-1.57321e-06,-3.27827e-12,1.12094e-37,0,-1.1371e-13,0,0,0,0,0,0,0,0,0,0,0,0,0,0,0,0,0,0,0,0,0,-0,0,-1.5,3.94113e+12,0,0,0,0,0,0,0,0,0,0,0,1.9603e-19,0,0,0,0,0,0,0,0,0
10257,-3.21253e-12,1.12104e-37,-1.57321e-06,-3.27827e-12,1.12094e-37,0,-1.13711e-13,0,0,0,0,0,0,0,0,0,0,0,0,0,0,0,0,0,0,0,0,0,-0,0,-1.5,3.94113e+12,0,0,0,0,0,0,0,0,0,0,0,1.9603e-19,0,0,0,0,0,0,0,0,0
10277,-3.21253e-12,1.12104e-37,-1.57321e-06,-3.27827e-12,1.12094e-37,0,-1.13711e-13,0,0,0,0,0,0,0,0,0,0,0,0,0,0,0,0,0,0,0,0,0,-0,0,-1.5,3.94113e+12,0,0,0,0,0,0,0,0,0,0,0,1.9603e-19,0,0,0,0,0,0,0,0,0
10294,-3.21253e-12,1.12104e-37,-1.57321e-06,-3.27827e-12,1.12094e-37,0,-1.13712e-13,0,0,0,0,0,0,0,0,0,0,0,0,0,0,0,0,0,0,0,0,0,-0,0,-1.5,3.94113e+12,0,0,0,0,0,0,0,0,0,0,0,1.9603e-19,0,0,0,0,0,0,0,0,0
10400,-3.21253e-12,1.12104e-37,-1.57321e-06,-3.27827e-12,1.12094e-37,0,-1.13712e-13,0,0,0,0,0,0,0,0,0,0,0,0,0,0,0,0,0,0,0,0,0,-0,0,-1.5,3.94113e+12,0,0,0,0,0,0,0,0,0,0,0,1.9603e-19,0,0,0,0,0,0,0,0,0
10510,-3.21253e-12,1.12104e-37,-1.57321e-06,-3.27827e-12,1.12094e-37,0,-1.13713e-13,0,0,0,0,0,0,0,0,0,0,4.4,0,-1368616648,-216588300,-1368616648,-216588300,1624975085,-1368616648,-1368608352,-1368608352,0,-0,0,-1.5,3.94113e+12,0,0,0,0,0,0,0,0,0,0,0,0,0,0,0,0,10510,0,0,0,0
10567,-3.21253e-12,1.12104e-37,-1.57321e-06,-3.27827e-12,1.12094e-37,0,-1.13714e-13,0,0,-3.72662,0.00755698,0.581535,0,0,0,0,0,-0.705472,0.00755698,263,-65,263,-65,382,-67,255,57,0,-0,0,-1.5,3.94113e+12,0,0,0,0,0,0,0,0,0,0,0,15748,0,0,0,0,10563,0,0,0,0
10711,-3.21253e-12,1.12104e-37,-1.57321e-06,-3.27827e-12,1.12094e-37,0,-1.13714e-13,0,0,-3.83509,0.0238112,0.649089,0,0,0,0,0,-0.854079,0.0238112,262,-62,262,-62,379,-66,255,52,-0.016263,-0.0872664,0,-1.5,3.94113e+12,0,0,0,-1.24055,0.03884,0,0,0,0,-2.68381,0.104366,14756,-0.854079,0.0238112,-2.68381,0.104366,10662,3.72164,0,-0.005826,-0.010437
10732,-3.21253e-12,1.12104e-37,-1.57321e-06,-3.27827e-12,1.12094e-37,0,-1.13715e-13,0,0,-3.78879,0.0198252,0.643802,0,0,0,0,0,-0.790644,0.0198252,260,-69,260,-69,380,-67,257,49,-0.00398122,-0.0872664,0,-1.5,3.94113e+12,0,0,0,-0.8,0.0200303,0,0,0,0,-0.445488,0.00976572,15129,-0.790644,0.0198252,-0.445488,0.00976572,10721,2.4,0.222757,-0.00300454,-0.000976678
10770,-3.21253e-12,1.12104e-37,-1.57321e-06,-3.27827e-12,1.12094e-37,0,-1.13715e-13,0,0,-3.78285,0.0249397,0.626809,0,0,0,0,0,-0.78251,0.0249397,260,-66,260,-66,380,-66,255,51,-0.00711087,-0.0872664,0,-1.5,3.94113e+12,0,0,0,-0.796445,0.0261511,0,0,0,0,-0.366706,0.03188,15000,-0.78251,0.0249397,-0.366706,0.03188,10759,2.38933,0.183359,-0.00392267,-0.0031882
10791,-3.21253e-12,1.12104e-37,-1.57321e-06,-3.27827e-12,1.12094e-37,0,-1.13716e-13,0,0,-3.78285,0.0249397,0.626809,0,0,0,0,0,-0.78251,0.0249397,260,-66,260,-66,380,-66,255,51,-0.0072112,-0.0872664,0,-1.5,3.94113e+12,0,0,0,-0.804146,0.0268206,0,0,0,0,-0.366706,0.03188,15000,-0.78251,0.0249397,-0.366706,0.03188,10759,2.41244,0.183359,-0.00402309,-0.0031881
10813,-3.21253e-12,1.12104e-37,-1.57321e-06,-3.27827e-12,1.12094e-37,0,-1.13716e-13,0,0,-3.76901,0.0237581,0.601963,0,0,0,0,0,-0.763546,0.0237581,263,-64,263,-64,379,-67,254,57,-0.00573122,-0.0872664,0,-1.5,3.94113e+12,0,0,0,-0.812213,0.0242197,0,0,0,0,-0.366706,0.0209814,15500,-0.804146,0.0237581,-0.366706,0.0209814,10801,2.43664,0.183374,-0.00363295,-0.00209827
10923,-3.21253e-12,1.12104e-37,-1.57321e-06,-3.27827e-12,1.12094e-37,0,-1.13717e-13,0,0,-3.82994,0.0350898,0.641009,0,0,0,0,0,-0.847024,0.0350898,263,-64,263,-64,376,-65,253,54,-0.00784252,-0.0872664,0,-1.5,3.94113e+12,0,0,0,-0.885089,0.0310288,0,0,0,0,-0.445488,0.03188,14637,-0.836085,0.027522,-0.445488,0.03188,10912,2.65527,0.222757,-0.00465432,-0.0031882
10974,-3.21253e-12,1.12104e-37,-1.57321e-06,-3.27827e-12,1.12094e-37,0,-1.13722e-13,0,0,-3.69884,0.0909748,0.587773,0,0,0,0,0,-0.667415,0.0909747,254,-68,254,-68,369,-70,245,55,-0.0185973,-0.0872664,0,-1.5,3.94113e+12,0,0,0,-0.662814,0.0519262,0,0,0,0,0.474624,0.108078,15875,-0.66851,0.0506292,0.474624,0.108078,10964,1.98844,-0.237316,-0.00778893,-0.0108084
10992,-3.21253e-12,1.12104e-37,-1.57321e-06,-3.27827e-12,1.12094e-37,0,-1.13717e-13,0,0,-3.69884,0.0909748,0.587773,0,0,0,0,0,-0.667415,0.0909747,254,-68,254,-68,369,-70,245,55,-0.0188889,-0.0872664,0,-1.5,3.94113e+12,0,0,0,-0.654271,0.0538716,0,0,0,0,0.474624,0.108078,15875,-0.66851,0.0506292,0.474624,0.108078,10964,1.96281,-0.237331,-0.00808075,-0.0108082
11044,-3.21253e-12,1.12104e-37,-1.57321e-06,-3.27827e-12,1.12094e-37,0,-1.13719e-13,0,0,-3.76633,0.246555,0.659885,0,0,0,0,0,-0.759878,0.246555,237,-72,237,-72,352,-73,232,52,-0.029886,-0.0872664,0,-1.5,3.94113e+12,0,0,0,-0.751603,0.0878291,0,0,0,0,0.0949093,0.16711,15000,-0.756539,0.0791393,0.0949093,0.16711,11032,2.25481,-0.0474602,-0.0131744,-0.0167117
11062,-3.21253e-12,1.12104e-37,-1.57321e-06,-3.27827e-12,1.12094e-37,0,-1.13718e-13,0,0,-3.76633,0.246555,0.659885,0,0,0,0,0,-0.759878,0.246555,237,-72,237,-72,352,-73,232,52,-0.0303372,-0.0872664,0,-1.5,3.94113e+12,0,0,0,-0.749895,0.0908371,0,0,0,0,0.0949093,0.16711,15000,-0.756539,0.0791393,0.0949093,0.16711,11032,2.24968,-0.0474602,-0.0136256,-0.0167117
11174,-3.21253e-12,1.12104e-37,-1.57321e-06,-3.27827e-12,1.12094e-37,0,-1.1372e-13,0,0,-3.74852,0.269512,0.619612,0,0,0,0,0,-0.735472,0.269512,234,-70,234,-70,351,-68,228,53,-0.0373262,-0.0872664,0,-1.5,3.94113e+12,0,0,0,-0.717268,0.124039,0,0,0,0,0.145485,0.187195,15129,-0.733417,0.10326,0.145485,0.187195,11162,2.15181,-0.0727326,-0.0186059,-0.0187203
11231,-3.21253e-12,1.12104e-37,-1.57321e-06,-3.27827e-12,1.12094e-37,0,-1.1372e-13,0,0,-3.7773,0.239376,0.59116,0,0,0,0,0,-0.7749,0.239376,237,-63,237,-63,356,-63,232,56,-0.0711514,-0.0872664,0,-1.5,3.94113e+12,0,0,0,-0.748439,0.239441,0,0,0,0,0.0445057,0.352338,14880,-0.748795,0.236622,0.0445057,0.352338,11225,2.24532,-0.0222623,-0.0359161,-0.0352353
11248,-3.21253e-12,1.12104e-37,-1.57321e-06,-3.27827e-12,1.12094e-37,0,-1.13719e-13,0,0,-3.7773,0.239376,0.59116,0,0,0,0,0,-0.7749,0.239376,237,-63,237,-63,356,-63,232,56,-0.0720499,-0.0872664,0,-1.5,3.94113e+12,0,0,0,-0.747682,0.245431,0,0,0,0,0.0445057,0.352338,14880,-0.748795,0.236622,0.0445057,0.352338,11225,2.24305,-0.0222474,-0.0368146,-0.0352353
11273,-3.21253e-12,1.12104e-37,-1.57321e-06,-3.27827e-12,1.12094e-37,0,-1.13722e-13,0,0,-3.76942,0.232193,0.572764,0,0,0,0,0,-0.764109,0.232193,237,-62,237,-62,356,-61,233,59,-0.0695414,-0.0872664,0,-1.5,3.94113e+12,0,0,0,-0.748318,0.241269,0,0,0,0,0.0381938,0.333494,14883,-0.748777,0.237267,0.0381938,0.333494,11263,2.24495,-0.0191033,-0.0361904,-0.033351
11384,-3.21253e-12,1.12104e-37,-1.57321e-06,-3.27827e-12,1.12094e-37,0,-1.13727e-13,0,0,-3.69448,0.195899,0.553697,0,0,0,0,0,-0.661432,0.195899,240,-65,240,-65,361,-65,234,56,-0.0733072,-0.0872664,0,-1.5,3.94113e+12,0,0,0,-0.751944,0.272499,0,0,0,0,0.0183893,0.324308,15367,-0.753986,0.236501,0.0183893,0.324308,11372,2.25583,-0.00919402,-0.0408749,-0.0324324
11505,-3.21253e-12,1.12104e-37,-1.57321e-06,-3.27827e-12,1.12094e-37,0,-1.13728e-13,0,0,-3.67328,0.206277,0.554138,0,0,0,0,0,-0.632397,0.206277,237,-67,237,-67,363,-67,234,56,-0.0650649,-0.0872664,0,-1.5,3.94113e+12,0,0,0,-0.666595,0.257028,0,0,0,0,0.15341,0.265093,15867,-0.667822,0.254908,0.15341,0.265093,11499,1.99979,-0.0767112,-0.0385543,-0.0265107
11526,-3.21253e-12,1.12104e-37,-1.57321e-06,-3.27827e-12,1.12094e-37,0,-1.13721e-13,0,0,-3.67328,0.206277,0.554138,0,0,0,0,0,-0.632397,0.206277,237,-67,237,-67,363,-67,234,56,-0.0659,-0.0872664,0,-1.5,3.94113e+12,0,0,0,-0.663374,0.262595,0,0,0,0,0.15341,0.265093,15867,-0.667822,0.254908,0.15341,0.265093,11499,1.99012,-0.0766963,-0.0393893,-0.0265107
11543,-3.21253e-12,1.12104e-37,-1.57321e-06,-3.27827e-12,1.12094e-37,0,-1.13723e-13,0,0,-3.67328,0.206277,0.554138,0,0,0,0,0,-0.632397,0.206277,237,-67,237,-67,363,-67,234,56,-0.0665362,-0.0872664,0,-1.5,3.94113e+12,0,0,0,-0.660919,0.266837,0,0,0,0,0.15341,0.265093,15867,-0.667822,0.254908,0.15341,0.265093,11499,1.98276,-0.0767112,-0.0400255,-0.0265107
11581,-3.21253e-12,1.12104e-37,-1.57321e-06,-3.27827e-12,1.12094e-37,0,-1.13731e-13,0,0,-3.64139,0.195567,0.53539,0,0,0,0,0,-0.588699,0.195567,237,-67,237,-67,363,-67,234,56,-0.0635039,-0.0872664,0,-1.5,3.94113e+12,0,0,0,-0.640559,0.2594,0,0,0,0,0.17045,0.245943,15867,-0.647206,0.249808,0.17045,0.245943,11568,1.92168,-0.0852247,-0.0389101,-0.0245939
11699,-3.21253e-12,1.12104e-37,-1.57321e-06,-3.27827e-12,1.12094e-37,0,-1.13723e-13,0,0,-3.79306,0.117616,0.625972,0,0,0,0,0,-0.796486,0.117616,251,-66,251,-66,368,-65,245,53,0.363548,-0.0872664,0,-1.5,3.94113e+12,0,0,0,-0.638736,0.243565,0,0,0,0,0.149835,0.206799,14760,-0.639635,0.242325,0.149835,0.206799,11695,1.91621,0.385284,-0.0365348,0.400083
11723,-3.21253e-12,1.12104e-37,-1.57321e-06,-3.27827e-12,1.12094e-37,0,-1.13729e-13,0,0,-3.79306,0.117616,0.625972,0,0,0,0,0,-0.796486,0.117616,251,-66,251,-66,368,-65,245,53,-0.0579599,-0.0872664,0,-1.5,3.94113e+12,0,0,0,-0.63514,0.248529,0,0,0,0,0.149835,0.206799,14760,-0.639635,0.242325,0.149835,0.206799,11695,1.90542,-0.0749081,-0.0372793,-0.0206806
11744,-3.21253e-12,1.12104e-37,-1.57321e-06,-3.27827e-12,1.12094e-37,0,-1.13729e-13,0,0,-3.70418,0.0961644,0.566036,0,0,0,0,0,-0.674731,0.0961644,252,-62,252,-62,375,-69,245,56,-0.0535798,-0.0872664,0,-1.5,3.94113e+12,0,0,0,-0.649261,0.234532,0,0,0,0,0.126698,0.183994,16250,-0.651922,0.230669,0.126698,0.183994,11731,1.94778,-0.0633448,-0.0351799,-0.0184
11758,-3.21253e-12,1.12104e-37,-1.57321e-06,-3.27827e-12,1.12094e-37,0,-1.1373e-13,0,0,-3.70418,0.0961644,0.566036,0,0,0,0,0,-0.674731,0.0961644,252,-62,252,-62,375,-69,245,56,-0.0539657,-0.0872664,0,-1.5,3.94113e+12,0,0,0,-0.647487,0.237108,0,0,0,0,0.126698,0.183994,16250,-0.651922,0.230669,0.126698,0.183994,11731,1.94246,-0.0633498,-0.0355663,-0.0183995
11869,-3.21253e-12,1.12104e-37,-1.57321e-06,-3.27827e-12,1.12094e-37,0,-1.13724e-13,0,0,-3.77741,0.102125,0.603199,0,0,0,0,0,-0.775052,0.102125,252,-62,252,-62,370,-65,246,56,-0.02553,-0.0872664,0,-1.5,3.94113e+12,0,0,0,-0.660875,0.1702,0,0,0,0,0.0972892,0.111818,15004,-0.661458,0.169529,0.0972892,0.111818,11865,1.98262,-0.0732342,-0.02553,0
11970,-3.21253e-12,1.12104e-37,-1.57321e-06,-3.27827e-12,1.12094e-37,0,-1.13725e-13,0,0,-3.77833,0.110385,0.614727,0,0,0,0,0,-0.776318,0.110385,251,-66,251,-66,370,-65,246,54,-0.0375322,-0.0872664,0,-1.5,3.94113e+12,0,0,0,-0.728047,0.178093,0,0,0,0,0.0301283,0.108191,14880,-0.73109,0.167166,0.0301283,0.108191,11957,2.18414,-0.0150651,-0.026714,-0.0108182
11987,-3.21253e-12,1.12104e-37,-1.57321e-06,-3.27827e-12,1.12094e-37,0,-1.1373e-13,0,0,-3.77833,0.110385,0.614727,0,0,0,0,0,-0.776318,0.110385,251,-66,251,-66,370,-65,246,54,-0.0378081,-0.0872664,0,-1.5,3.94113e+12,0,0,0,-0.727535,0.179932,0,0,0,0,0.0301283,0.108191,14880,-0.73109,0.167166,0.0301283,0.108191,11957,2.1826,-0.0150651,-0.0269898,-0.0108182
12009,-3.21253e-12,1.12104e-37,-1.57321e-06,-3.27827e-12,1.12094e-37,0,-1.13725e-13,0,0,-3.77833,0.110385,0.614727,0,0,0,0,0,-0.776318,0.110385,251,-66,251,-66,370,-65,246,54,-0.0381651,-0.0872664,0,-1.5,3.94113e+12,0,0,0,-0.726872,0.182312,0,0,0,0,0.0301283,0.108191,14880,-0.73109,0.167166,0.0301283,0.108191,11957,2.18062,-0.0150651,-0.0273469,-0.0108182
12031,-3.21253e-12,1.12104e-37,-1.57321e-06,-3.27827e-12,1.12094e-37,0,-1.13726e-13,0,0,-3.79847,0.110878,0.619939,0,0,0,0,0,-0.803901,0.110878,253,-64,253,-64,369,-65,245,53,-0.0220091,-0.0872664,0,-1.5,3.94113e+12,0,0,0,-0.747208,0.146727,0,0,0,0,0.00522572,0.080583,15004,-0.747244,0.146163,0.00522572,0.080583,12026,2.24162,0,-0.0220091,0
12145,-3.21253e-12,1.12104e-37,-1.57321e-06,-3.27827e-12,1.12094e-37,0,-1.13732e-13,0,0,-3.74704,0.109918,0.58671,0,0,0,0,0,-0.733439,0.109918,250,-63,250,-63,371,-67,246,54,-0.0287013,-0.0872664,0,-1.5,3.94113e+12,0,0,0,-0.739553,0.142143,0,0,0,0,0.0163734,0.0738038,15500,-0.741419,0.13373,0.0163734,0.0738038,12132,2.21866,-0.00819564,-0.0213215,-0.0073798
12189,-3.21253e-12,1.12104e-37,-1.57321e-06,-3.27827e-12,1.12094e-37,0,-1.13732e-13,0,0,-3.79224,0.116345,0.623186,0,0,0,0,0,-0.795374,0.116345,250,-63,250,-63,369,-67,246,54,-0.0285398,-0.0872664,0,-1.5,3.94113e+12,0,0,0,-0.76055,0.146461,0,0,0,0,-0.00901906,0.065714,14883,-0.760153,0.14357,-0.00901906,0.065714,12175,2.28165,0.00451505,-0.0219691,-0.00657067
12210,-3.21253e-12,1.12104e-37,-1.57321e-06,-3.27827e-12,1.12094e-37,0,-1.13733e-13,0,0,-3.78285,0.108511,0.613093,0,0,0,0,0,-0.782509,0.108511,251,-64,251,-64,370,-65,246,54,-0.0253173,-0.0872664,0,-1.5,3.94113e+12,0,0,0,-0.780072,0.126016,0,0,0,0,-0.0309048,0.0641551,14756,-0.779423,0.124669,-0.0309048,0.0641551,12197,2.34021,0.0154525,-0.0189024,-0.00641495
12252,-3.21253e-12,1.12104e-37,-1.57321e-06,-3.27827e-12,1.12094e-37,0,-1.13733e-13,0,0,-3.7639,0.112211,0.594587,0,0,0,0,0,-0.756546,0.112211,250,-64,250,-64,369,-65,246,54,-0.0228681,-0.0872664,0,-1.5,3.94113e+12,0,0,0,-0.762239,0.128586,0,0,0,0,-0.00846705,0.0537037,15006,-0.761892,0.126384,-0.00846705,0.0537037,12238,2.28672,0.00282129,-0.0192879,-0.00358025
12367,-3.21253e-12,1.12104e-37,-1.57321e-06,-3.27827e-12,1.12094e-37,0,-1.13726e-13,0,0,-3.76698,0.112663,0.603661,0,0,0,0,0,-0.760767,0.112663,249,-64,249,-64,370,-65,246,54,-0.0268746,-0.0872664,0,-1.5,3.94113e+12,0,0,0,-0.762512,0.143401,0,0,0,0,-0.00673733,0.0536438,14756,-0.761737,0.137232,-0.00673733,0.0536438,12352,2.28754,0.00336766,-0.0215102,-0.00536442
12421,-3.21253e-12,1.12104e-37,-1.57321e-06,-3.27827e-12,1.12094e-37,0,-1.13734e-13,0,0,-3.78955,0.117812,0.619493,0,0,0,0,0,-0.791682,0.117812,250,-64,250,-64,369,-65,245,53,-0.0239387,-0.0872664,0,-1.5,3.94113e+12,0,0,0,-0.765483,0.131671,0,0,0,0,-0.00487575,0.0418849,14756,-0.765215,0.129368,-0.00487575,0.0418849,12407,2.29645,0.00244379,-0.0197507,-0.00418797
12441,-3.21253e-12,1.12104e-37,-1.57321e-06,-3.27827e-12,1.12094e-37,0,-1.13734e-13,0,0,-3.75606,0.107517,0.587563,0,0,0,0,0,-0.745799,0.107517,251,-64,251,-64,370,-65,246,55,-0.0186213,-0.0872664,0,-1.5,3.94113e+12,0,0,0,-0.761154,0.118258,0,0,0,0,-0.000739904,0.00882814,15128,-0.761146,0.118161,-0.000739904,0.00882814,12431,2.28346,0.000372529,-0.0177388,-0.000882521
12556,-3.21253e-12,1.12104e-37,-1.57321e-06,-3.27827e-12,1.12094e-37,0,-1.13735e-13,0,0,-3.70509,0.109325,0.573274,0,0,0,0,0,-0.67597,0.109325,249,-64,249,-64,371,-69,245,55,-0.018915,-0.0872664,0,-1.5,3.94113e+12,0,0,0,-0.755638,0.117216,0,0,0,0,0.00158401,0.0133246,15624,-0.755822,0.115671,0.00158401,0.0133246,12542,2.26691,-0.000789761,-0.0175825,-0.00133254
12610,-3.21253e-12,1.12104e-37,-1.57321e-06,-3.27827e-12,1.12094e-37,0,-1.13735e-13,0,0,-3.80532,0.111217,0.631221,0,0,0,0,0,-0.813286,0.111217,251,-64,251,-64,370,-65,246,52,-0.0157097,-0.0872664,0,-1.5,3.94113e+12,0,0,0,-0.760631,0.109216,0,0,0,0,-0.00660947,-0.00672733,14756,-0.760274,0.10958,-0.00660947,-0.00672733,12597,2.28189,0.00330806,-0.0163824,0.000672787
12627,-3.21253e-12,1.12104e-37,-1.57321e-06,-3.27827e-12,1.12094e-37,0,-1.13727e-13,0,0,-3.80532,0.111217,0.631221,0,0,0,0,0,-0.813286,0.111217,251,-64,251,-64,370,-65,246,52,-0.0156925,-0.0872664,0,-1.5,3.94113e+12,0,0,0,-0.760743,0.109102,0,0,0,0,-0.00660947,-0.00672733,14756,-0.760274,0.10958,-0.00660947,-0.00672733,12597,2.28223,0.00330806,-0.0163653,0.000672787
12709,-3.21253e-12,1.12104e-37,-1.57321e-06,-3.27827e-12,1.12094e-37,0,-1.13736e-13,0,0,-3.75556,0.115079,0.598809,0,0,0,0,0,-0.745118,0.115079,249,-64,249,-64,369,-67,246,55,-0.0122058,-0.0872664,0,-1.5,3.94113e+12,0,0,0,-0.765866,0.0994545,0,0,0,0,-0.0185632,-0.0271249,15006,-0.765624,0.0998071,-0.0185632,-0.0271249,12697,2.2976,0.00928342,-0.0149182,0.00271238
12731,-3.21253e-12,1.12104e-37,-1.57321e-06,-3.27827e-12,1.12094e-37,0,-1.13736e-13,0,0,-3.78917,0.115378,0.621605,0,0,0,0,0,-0.791165,0.115378,249,-64,249,-64,370,-65,246,52,-0.00547934,-0.0872664,0,-1.5,3.94113e+12,0,0,0,-0.771949,0.0865198,0,0,0,0,-0.0259838,-0.0749943,14756,-0.771715,0.0871948,-0.0259838,-0.0749943,12724,2.31585,0.0129789,-0.012978,0.00749864
12846,-3.21253e-12,1.12104e-37,-1.57321e-06,-3.27827e-12,1.12094e-37,0,-1.13737e-13,0,0,-3.73145,0.116933,0.588877,0,0,0,0,0,-0.712093,0.116933,249,-64,249,-64,369,-69,245,55,-0.00425227,-0.0872664,0,-1.5,3.94113e+12,0,0,0,-0.764382,0.0786374,0,0,0,0,-0.0165549,-0.0754414,15376,-0.762495,0.0872377,-0.0165549,-0.0754414,12832,2.29315,0.00828505,-0.0117956,0.00754334
12919,-3.21253e-12,1.12104e-37,-1.57321e-06,-3.27827e-12,1.12094e-37,0,-1.13737e-13,0,0,-3.7925,0.106854,0.632418,0,0,0,0,0,-0.795726,0.106854,253,-64,253,-64,369,-69,246,52,-0.000509797,-0.0872664,0,-1.5,3.94113e+12,0,0,0,-0.771009,0.0655713,0,0,0,0,-0.0179479,-0.0932641,15129,-0.769681,0.0724727,-0.0179479,-0.0932641,12905,2.31303,0.0089705,-0.00983569,0.00932589
12942,-3.21253e-12,1.12104e-37,-1.57321e-06,-3.27827e-12,1.12094e-37,0,-1.13738e-13,0,0,-3.7925,0.106854,0.632418,0,0,0,0,0,-0.795726,0.106854,253,-64,253,-64,369,-69,246,52,-0.00445613,-0.0872664,0,-1.5,3.94113e+12,0,0,0,-0.778576,0.0773763,0,0,0,0,-0.0256542,-0.0715098,15129,-0.778217,0.0783774,-0.0256542,-0.0715098,12930,2.33573,0.012815,-0.0116064,0.00715032
13042,-3.21253e-12,1.12104e-37,-1.57321e-06,-3.27827e-12,1.12094e-37,0,-1.13739e-13,0,0,-3.74198,0.121961,0.592665,0,0,0,0,0,-0.726513,0.121961,249,-64,249,-64,368,-69,245,56,-0.0131092,-0.0872664,0,-1.5,3.94113e+12,0,0,0,-0.775115,0.100851,0,0,0,0,-0.0204998,-0.020186,15375,-0.773065,0.102869,-0.0204998,-0.020186,13028,2.32534,0.010252,-0.0151276,0.00201836
13060,-3.21253e-12,1.12104e-37,-1.57321e-06,-3.27827e-12,1.12094e-37,0,-1.13739e-13,0,0,-3.74198,0.121961,0.592665,0,0,0,0,0,-0.726513,0.121961,249,-64,249,-64,368,-69,245,56,-0.0130547,-0.0872664,0,-1.5,3.94113e+12,0,0,0,-0.775484,0.100487,0,0,0,0,-0.0204998,-0.020186,15375,-0.773065,0.102869,-0.0204998,-0.020186,13028,2.32645,0.0102371,-0.0150731,0.00201836
13176,-3.21253e-12,1.12104e-37,-1.57321e-06,-3.27827e-12,1.12094e-37,0,-1.1374e-13,0,0,-3.79011,0.11571,0.626635,0,0,0,0,0,-0.792455,0.11571,251,-64,251,-64,369,-67,245,52,-0.0130939,-0.0872664,0,-1.5,3.94113e+12,0,0,0,-0.801708,0.0992558,0,0,0,0,-0.0448374,-0.0179468,15004,-0.796551,0.10132,-0.0448374,-0.0179468,13162,2.40512,0.0224113,-0.0148884,0.00179447
13204,-3.21253e-12,1.12104e-37,-1.57321e-06,-3.27827e-12,1.12094e-37,0,-1.1374e-13,0,0,-3.7689,0.114706,0.606732,0,0,0,0,0,-0.763388,0.114706,251,-64,251,-64,369,-67,245,52,-0.015171,-0.0872664,0,-1.5,3.94113e+12,0,0,0,-0.801421,0.10677,0,0,0,0,-0.0454535,-0.00844555,15376,-0.800784,0.106888,-0.0454535,-0.00844555,13192,2.40426,0.0227243,-0.0160155,0.000844523
13225,-3.21253e-12,1.12104e-37,-1.57321e-06,-3.27827e-12,1.12094e-37,0,-1.13741e-13,0,0,-3.7689,0.114706,0.606732,0,0,0,0,0,-0.763388,0.114706,251,-64,251,-64,369,-67,245,52,-0.0151444,-0.0872664,0,-1.5,3.94113e+12,0,0,0,-0.802375,0.106593,0,0,0,0,-0.0454535,-0.00844555,15376,-0.800784,0.106888,-0.0454535,-0.00844555,13192,2.40713,0.0227243,-0.0159889,0.000844523
13247,-3.21253e-12,1.12104e-37,-1.57321e-06,-3.27827e-12,1.12094e-37,0,-1.13741e-13,0,0,-3.75146,0.117163,0.60798,0,0,0,0,0,-0.739497,0.117163,249,-64,249,-64,369,-69,245,52,-0.016997,-0.0872664,0,-1.5,3.94113e+12,0,0,0,-0.799507,0.113768,0,0,0,0,-0.0546417,-0.000682688,15252,-0.798305,0.113783,-0.0546417,-0.000682688,13233,2.39852,0.0273287,-0.0170652,6.81728e-05
13356,-3.21253e-12,1.12104e-37,-1.57321e-06,-3.27827e-12,1.12094e-37,0,-1.13742e-13,0,0,-3.80335,0.112085,0.634474,0,0,0,0,0,-0.810583,0.112085,253,-62,253,-62,369,-69,245,52,-0.0175254,-0.0872664,0,-1.5,3.94113e+12,0,0,0,-0.808272,0.115165,0,0,0,0,-0.0499224,0.0025083,15252,-0.80283,0.114891,-0.0499224,0.0025083,13342,2.42482,0.0249594,-0.0172747,-0.000250712
13463,-3.21253e-12,1.12104e-37,-1.57321e-06,-3.27827e-12,1.12094e-37,0,-1.13742e-13,0,0,-3.7574,0.110461,0.611496,0,0,0,0,0,-0.747644,0.110461,251,-64,251,-64,371,-69,245,52,-0.0174966,-0.0872664,0,-1.5,3.94113e+12,0,0,0,-0.774448,0.115303,0,0,0,0,-0.0143691,0.00201393,15498,-0.77291,0.115087,-0.0143691,0.00201393,13448,2.32334,0.00718236,-0.0172954,-0.000201166
13479,-3.21253e-12,1.12104e-37,-1.57321e-06,-3.27827e-12,1.12094e-37,0,-1.13743e-13,0,0,-3.7574,0.110461,0.611496,0,0,0,0,0,-0.747644,0.110461,251,-64,251,-64,371,-69,245,52,-0.0175014,-0.0872664,0,-1.5,3.94113e+12,0,0,0,-0.774677,0.115335,0,0,0,0,-0.0143691,0.00201393,15498,-0.77291,0.115087,-0.0143691,0.00201393,13448,2.32403,0.00718236,-0.0173002,-0.000201166
13502,-3.21253e-12,1.12104e-37,-1.57321e-06,-3.27827e-12,1.12094e-37,0,-1.13743e-13,0,0,-3.75905,0.117131,0.596627,0,0,0,0,0,-0.749897,0.117131,249,-64,249,-64,369,-65,245,55,-0.0463658,-0.0872664,0,-1.5,3.94113e+12,0,0,0,-0.759589,0.117378,0,0,0,0,-0.00180101,0.0042771,14880,-0.759577,0.117348,-0.00180101,0.0042771,13496,2.27877,0,-0.0176067,-0.028759
13536,-3.21253e-12,1.12104e-37,-1.57321e-06,-3.27827e-12,1.12094e-37,0,-1.13744e-13,0,0,-3.75905,0.117131,0.596627,0,0,0,0,0,-0.749897,0.117131,249,-64,249,-64,369,-65,245,55,-0.0180569,-0.0872664,0,-1.5,3.94113e+12,0,0,0,-0.759652,0.117528,0,0,0,0,-0.00180101,0.0042771,14880,-0.759577,0.117348,-0.00180101,0.0042771,13496,2.27896,0.00089407,-0.0176292,-0.000427663
13557,-3.21253e-12,1.12104e-37,-1.57321e-06,-3.27827e-12,1.12094e-37,0,-1.13745e-13,0,0,-3.75905,0.117131,0.596627,0,0,0,0,0,-0.749897,0.117131,249,-64,249,-64,369,-65,245,55,-0.0180703,-0.0872664,0,-1.5,3.94113e+12,0,0,0,-0.75969,0.117618,0,0,0,0,-0.00180101,0.0042771,14880,-0.759577,0.117348,-0.00180101,0.0042771,13496,2.27907,0.000908971,-0.0176427,-0.000427663
13671,-3.21253e-12,1.12104e-37,-1.57321e-06,-3.27827e-12,1.12094e-37,0,-1.13745e-13,0,0,-3.81483,0.113826,0.636865,0,0,0,0,0,-0.826312,0.113826,251,-64,251,-64,369,-65,246,52,-0.0178987,-0.0872664,0,-1.5,3.94113e+12,0,0,0,-0.790681,0.116631,0,0,0,0,-0.0213894,0.00404154,14637,-0.790382,0.116574,-0.0213894,0.00404154,13660,2.37204,0.010699,-0.0174946,-0.00040407
13720,-3.21253e-12,1.12104e-37,-1.57321e-06,-3.27827e-12,1.12094e-37,0,-1.13746e-13,0,0,-3.76968,0.111195,0.611584,0,0,0,0,0,-0.76446,0.111195,253,-64,253,-64,369,-69,245,55,-0.0173779,-0.0872664,0,-1.5,3.94113e+12,0,0,0,-0.76615,0.11434,0,0,0,0,-0.00335104,0.00226778,15376,-0.765986,0.114229,-0.00335104,0.00226778,13706,2.29845,0.00168383,-0.017151,-0.00022687
13744,-3.21253e-12,1.12104e-37,-1.57321e-06,-3.27827e-12,1.12094e-37,0,-1.13746e-13,0,0,-3.748,0.115316,0.600822,0,0,0,0,0,-0.73476,0.115316,251,-64,251,-64,369,-70,245,55,-0.0174921,-0.0872664,0,-1.5,3.94113e+12,0,0,0,-0.761823,0.114988,0,0,0,0,0.00477837,0.0024389,15500,-0.761937,0.11493,0.00477837,0.0024389,13730,2.28547,-0.00239412,-0.0172482,-0.000243882
13761,-3.21253e-12,1.12104e-37,-1.57321e-06,-3.27827e-12,1.12094e-37,0,-1.13747e-13,0,0,-3.748,0.115316,0.600822,0,0,0,0,0,-0.73476,0.115316,251,-64,251,-64,369,-70,245,55,-0.0176203,-0.0872664,0,-1.5,3.94113e+12,0,0,0,-0.761741,0.11503,0,0,0,0,0.00477837,0.0024389,15500,-0.761937,0.11493,0.00477837,0.0024389,13730,2.28522,-0.00359118,-0.0172545,-0.000365824
14024,-3.21253e-12,1.12104e-37,-1.57321e-06,-3.27827e-12,1.12094e-37,0,-1.13747e-13,0,0,-3.75271,0.108813,0.603712,0,0,0,0,0,-0.741215,0.108813,253,-64,253,-64,369,-70,245,56,-0.0173147,-0.0872664,0,-1.5,3.94113e+12,0,0,0,-0.750185,0.114391,0,0,0,0,0.0117592,0.00156265,15624,-0.753278,0.11398,0.0117592,0.00156265,13862,2.25056,-0.00587106,-0.0171586,-0.00015609
14046,-3.21253e-12,1.12104e-37,-1.57321e-06,-3.27827e-12,1.12094e-37,0,-1.13748e-13,0,0,-3.7925,0.106854,0.632418,0,0,0,0,0,-0.795726,0.106854,253,-64,253,-64,369,-69,246,52,-0.0167118,-0.0872664,0,-1.5,3.94113e+12,0,0,0,-0.767887,0.111702,0,0,0,0,-0.00458103,-0.000434703,15129,-0.767846,0.111706,-0.00458103,-0.000434703,14039,2.30366,0.00229478,-0.0167553,4.35859e-05
14155,-3.21253e-12,1.12104e-37,-1.57321e-06,-3.27827e-12,1.12094e-37,0,-1.13748e-13,0,0,-3.7515,0.106728,0.607921,0,0,0,0,0,-0.739553,0.106728,250,-68,250,-68,372,-65,246,52,-0.01668,-0.0872664,0,-1.5,3.94113e+12,0,0,0,-0.765688,0.11158,0,0,0,0,-0.003054,-0.000570168,15372,-0.765355,0.111642,-0.003054,-0.000570168,14142,2.29706,0.00153482,-0.016737,5.69969e-05
14237,-3.21253e-12,1.12104e-37,-1.57321e-06,-3.27827e-12,1.12094e-37,0,-1.13749e-13,0,0,-3.69386,0.112635,0.579779,0,0,0,0,0,-0.660589,0.112635,248,-68,248,-68,372,-69,245,53,-0.0167372,-0.0872664,0,-1.5,3.94113e+12,0,0,0,-0.765001,0.112364,0,0,0,0,-0.00933752,-0.00117018,15621,-0.764898,0.112377,-0.00933752,-0.00117018,14228,2.295,0.00466406,-0.0168546,0.000117347
14278,-3.21253e-12,1.12104e-37,-1.57321e-06,-3.27827e-12,1.12094e-37,0,-1.13749e-13,0,0,-3.70942,0.115243,0.591456,0,0,0,0,0,-0.681907,0.115243,248,-68,248,-68,371,-69,245,52,-0.0167927,-0.0872664,0,-1.5,3.94113e+12,0,0,0,-0.733451,0.112567,0,0,0,0,0.0245049,-0.000925956,15498,-0.734456,0.112605,0.0245049,-0.000925956,14265,2.20035,-0.0122488,-0.0168851,9.23872e-05
14300,-3.21253e-12,1.12104e-37,-1.57321e-06,-3.27827e-12,1.12094e-37,0,-1.1375e-13,0,0,-3.70942,0.115243,0.591456,0,0,0,0,0,-0.681907,0.115243,248,-68,248,-68,371,-69,245,52,-0.0167896,-0.0872664,0,-1.5,3.94113e+12,0,0,0,-0.732912,0.112547,0,0,0,0,0.0245049,-0.000925956,15498,-0.734456,0.112605,0.0245049,-0.000925956,14265,2.19874,-0.0122488,-0.016882,9.23872e-05
14317,-3.21253e-12,1.12104e-37,-1.57321e-06,-3.27827e-12,1.12094e-37,0,-1.1375e-13,0,0,-3.70942,0.115243,0.591456,0,0,0,0,0,-0.681907,0.115243,248,-68,248,-68,371,-69,245,52,-0.0167873,-0.0872664,0,-1.5,3.94113e+12,0,0,0,-0.732496,0.112531,0,0,0,0,0.0245049,-0.000925956,15498,-0.734456,0.112605,0.0245049,-0.000925956,14265,2.19749,-0.0122488,-0.0168797,9.23872e-05
14425,-3.21253e-12,1.12104e-37,-1.57321e-06,-3.27827e-12,1.12094e-37,0,-1.13751e-13,0,0,-3.75525,0.115373,0.602986,0,0,0,0,0,-0.744699,0.115373,251,-64,251,-64,369,-69,245,55,-0.0174831,-0.0872664,0,-1.5,3.94113e+12,0,0,0,-0.747945,0.115295,0,0,0,0,-0.00107449,0.0018898,15376,-0.747829,0.11509,-0.00107449,0.0018898,14412,2.24383,0.000536442,-0.0172942,-0.000188872
14510,-3.21253e-12,1.12104e-37,-1.57321e-06,-3.27827e-12,1.12094e-37,0,-1.13752e-13,0,0,-3.77421,0.114196,0.609876,0,0,0,0,0,-0.770674,0.114196,252,-62,252,-62,369,-69,245,56,-0.0171387,-0.0872664,0,-1.5,3.94113e+12,0,0,0,-0.74728,0.114187,0,0,0,0,0.00211773,0.000107735,15500,-0.74746,0.114178,0.00211773,0.000107735,14497,2.24184,-0.00106295,-0.0171281,-1.06792e-05
14528,-3.21253e-12,1.12104e-37,-1.57321e-06,-3.27827e-12,1.12094e-37,0,-1.13752e-13,0,0,-3.77421,0.114196,0.609876,0,0,0,0,0,-0.770674,0.114196,252,-62,252,-62,369,-69,245,56,-0.0171391,-0.0872664,0,-1.5,3.94113e+12,0,0,0,-0.747244,0.114189,0,0,0,0,0.00211773,0.000107735,15500,-0.74746,0.114178,0.00211773,0.000107735,14497,2.24173,-0.00105798,-0.0171283,-1.08033e-05
14640,-3.21253e-12,1.12104e-37,-1.57321e-06,-3.27827e-12,1.12094e-37,0,-1.13753e-13,0,0,-3.78886,0.111946,0.625653,0,0,0,0,0,-0.790736,0.111946,253,-62,253,-62,368,-70,245,53,-0.0166776,-0.0872664,0,-1.5,3.94113e+12,0,0,0,-0.753448,0.112265,0,0,0,0,0.0108059,-0.00162067,15252,-0.753567,0.112283,0.0108059,-0.00162067,14631,2.26035,-0.00540415,-0.0168398,0.000162174
14670,-3.21253e-12,1.12104e-37,-1.57321e-06,-3.27827e-12,1.12094e-37,0,-1.13753e-13,0,0,-3.79562,0.112267,0.632115,0,0,0,0,0,-0.799996,0.112267,253,-62,253,-62,368,-70,245,53,-0.016707,-0.0872664,0,-1.5,3.94113e+12,0,0,0,-0.759043,0.112398,0,0,0,0,0.00573524,-0.00152843,15129,-0.759094,0.112412,0.00573524,-0.00152843,14663,2.27713,-0.00286102,-0.0168597,0.000152737
14691,-3.21253e-12,1.12104e-37,-1.57321e-06,-3.27827e-12,1.12094e-37,0,-1.13754e-13,0,0,-3.79562,0.112267,0.632115,0,0,0,0,0,-0.799996,0.112267,253,-62,253,-62,368,-70,245,53,-0.0167022,-0.0872664,0,-1.5,3.94113e+12,0,0,0,-0.758922,0.112366,0,0,0,0,0.00573524,-0.00152843,15129,-0.759094,0.112412,0.00573524,-0.00152843,14663,2.27677,-0.00287592,-0.0168549,0.000152737
14713,-3.21253e-12,1.12104e-37,-1.57321e-06,-3.27827e-12,1.12094e-37,0,-1.13754e-13,0,0,-3.73901,0.112343,0.602912,0,0,0,0,0,-0.722445,0.112343,249,-64,249,-64,372,-69,245,52,-0.0166706,-0.0872664,0,-1.5,3.94113e+12,0,0,0,-0.756322,0.112187,0,0,0,0,0.00710075,-0.00157436,15494,-0.756478,0.112222,0.00710075,-0.00157436,14700,2.26896,-0.00355641,-0.016828,0.000157456
14735,-3.21253e-12,1.12104e-37,-1.57321e-06,-3.27827e-12,1.12094e-37,0,-1.13755e-13,0,0,-3.75023,0.110671,0.609379,0,0,0,0,0,-0.737818,0.110671,251,-64,251,-64,371,-70,245,53,-0.0176963,-0.0872664,0,-1.5,3.94113e+12,0,0,0,-0.737421,0.112224,0,0,0,0,0.0249366,-0.00113726,15498,-0.737595,0.112232,0.0249366,-0.00113726,14730,2.21226,0,-0.0168336,-0.000862777
14755,-3.21253e-12,1.12104e-37,-1.57321e-06,-3.27827e-12,1.12094e-37,0,-1.13755e-13,0,0,-3.75023,0.110671,0.609379,0,0,0,0,0,-0.737818,0.110671,251,-64,251,-64,371,-70,245,53,-0.0167165,-0.0872664,0,-1.5,3.94113e+12,0,0,0,-0.736922,0.112201,0,0,0,0,0.0249366,-0.00113726,15498,-0.737595,0.112232,0.0249366,-0.00113726,14730,2.21077,-0.0124723,-0.0168302,0.000113621
14781,-3.21253e-12,1.12104e-37,-1.57321e-06,-3.27827e-12,1.12094e-37,0,-1.13756e-13,0,0,-3.74454,0.101178,0.592271,0,0,0,0,0,-0.730023,0.101178,253,-61,253,-61,372,-70,245,52,-0.0166204,-0.0872664,0,-1.5,3.94113e+12,0,0,0,-0.736047,0.111935,0,0,0,0,0.018061,-0.00169782,16129,-0.736517,0.11198,0.018061,-0.00169782,14768,2.20814,-0.0090301,-0.0167903,0.000169873
14803,-3.21253e-12,1.12104e-37,-1.57321e-06,-3.27827e-12,1.12094e-37,0,-1.13756e-13,0,0,-3.80944,0.11267,0.635885,0,0,0,0,0,-0.818928,0.11267,253,-61,253,-61,369,-69,245,53,-0.0166746,-0.0872664,0,-1.5,3.94113e+12,0,0,0,-0.740896,0.112135,0,0,0,0,0.014118,-0.00145659,15128,-0.741024,0.112148,0.014118,-0.00145659,14796,2.22269,-0.00706315,-0.0168203,0.000145659
14820,-3.21253e-12,1.12104e-37,-1.57321e-06,-3.27827e-12,1.12094e-37,0,-1.13757e-13,0,0,-3.80944,0.11267,0.635885,0,0,0,0,0,-0.818928,0.11267,253,-61,253,-61,369,-69,245,53,-0.0166709,-0.0872664,0,-1.5,3.94113e+12,0,0,0,-0.740656,0.112111,0,0,0,0,0.014118,-0.00145659,15128,-0.741024,0.112148,0.014118,-0.00145659,14796,2.22197,-0.00706315,-0.0168166,0.000145659
14878,-3.21253e-12,1.12104e-37,-1.57321e-06,-3.27827e-12,1.12094e-37,0,-1.13758e-13,0,0,-3.789,0.114936,0.618609,0,0,0,0,0,-0.790929,0.114936,253,-61,253,-61,368,-70,245,56,-0.0167392,-0.0872664,0,-1.5,3.94113e+12,0,0,0,-0.759121,0.112372,0,0,0,0,0.00245913,-0.00116474,15498,-0.759263,0.112439,0.00245913,-0.00116474,14865,2.27736,-0.0012368,-0.0168558,0.000116602
14898,-3.21253e-12,1.12104e-37,-1.57321e-06,-3.27827e-12,1.12094e-37,0,-1.13758e-13,0,0,-3.79324,0.113967,0.635211,0,0,0,0,0,-0.796732,0.113967,251,-64,251,-64,369,-69,246,52,-0.0116077,-0.0872664,0,-1.5,3.94113e+12,0,0,0,-0.779387,0.111993,0,0,0,0,-0.0206562,-0.00164775,15006,-0.779243,0.112005,-0.0206562,-0.00164775,14893,2.33816,0,-0.016799,0.00519125
14914,-3.21253e-12,1.12104e-37,-1.57321e-06,-3.27827e-12,1.12094e-37,0,-1.13759e-13,0,0,-3.79324,0.113967,0.635211,0,0,0,0,0,-0.796732,0.113967,251,-64,251,-64,369,-69,246,52,-0.0166304,-0.0872664,0,-1.5,3.94113e+12,0,0,0,-0.779718,0.111967,0,0,0,0,-0.0206562,-0.00164775,15006,-0.779243,0.112005,-0.0206562,-0.00164775,14893,2.33915,0.0103265,-0.016795,0.000164658
14961,-3.21253e-12,1.12104e-37,-1.57321e-06,-3.27827e-12,1.12094e-37,0,-1.13759e-13,0,0,-3.73936,0.119717,0.593515,0,0,0,0,0,-0.722923,0.119717,249,-64,249,-64,369,-69,245,56,-0.0167174,-0.0872664,0,-1.5,3.94113e+12,0,0,0,-0.760389,0.112333,0,0,0,0,-0.00360008,-0.00132503,15500,-0.76022,0.112396,-0.00360008,-0.00132503,14947,2.28117,0.00180304,-0.01685,0.00013262
14983,-3.21253e-12,1.12104e-37,-1.57321e-06,-3.27827e-12,1.12094e-37,0,-1.1376e-13,0,0,-3.75148,0.102209,0.594286,0,0,0,0,0,-0.739533,0.102209,253,-61,253,-61,372,-69,245,56,-0.016892,-0.0872664,0,-1.5,3.94113e+12,0,0,0,-0.740682,0.112641,0,0,0,0,0.0103595,-4.05332e-05,15875,-0.74091,0.112642,0.0103595,-4.05332e-05,14970,2.22205,-0.0051856,-0.0168961,4.09782e-06
15005,-3.21253e-12,1.12104e-37,-1.57321e-06,-3.27827e-12,1.12094e-37,0,-1.1376e-13,0,0,-3.73321,0.1194,0.58746,0,0,0,0,0,-0.714491,0.1194,249,-64,249,-64,369,-69,245,56,-0.0169075,-0.0872664,0,-1.5,3.94113e+12,0,0,0,-0.738736,0.112704,0,0,0,0,0.0107064,2.0342e-05,15500,-0.738854,0.112704,0.0107064,2.0342e-05,14996,2.21621,-0.00534952,-0.0169056,-1.86265e-06
15022,-3.21253e-12,1.12104e-37,-1.57321e-06,-3.27827e-12,1.12094e-37,0,-1.13761e-13,0,0,-3.73321,0.1194,0.58746,0,0,0,0,0,-0.714491,0.1194,249,-64,249,-64,369,-69,245,56,-0.0169076,-0.0872664,0,-1.5,3.94113e+12,0,0,0,-0.738554,0.112705,0,0,0,0,0.0107064,2.0342e-05,15500,-0.738854,0.112704,0.0107064,2.0342e-05,14996,2.21566,-0.00534952,-0.0169057,-1.86265e-06
15049,-3.21253e-12,1.12104e-37,-1.57321e-06,-3.27827e-12,1.12094e-37,0,-1.13761e-13,0,0,-3.70767,0.103013,0.584334,0,0,0,0,0,-0.679511,0.103013,250,-68,250,-68,375,-65,244,51,-0.0168251,-0.0872664,0,-1.5,3.94113e+12,0,0,0,-0.738235,0.112513,0,0,0,0,0.0120104,-0.000519058,15982,-0.738559,0.112527,0.0120104,-0.000519058,15035,2.21471,-0.00600517,-0.0168769,5.17815e-05
15074,-3.21253e-12,1.12104e-37,-1.57321e-06,-3.27827e-12,1.12094e-37,0,-1.13762e-13,0,0,-3.80668,0.102746,0.629801,0,0,0,0,0,-0.815153,0.102746,253,-61,253,-61,372,-67,246,52,-0.0169452,-0.0872664,0,-1.5,3.94113e+12,0,0,0,-0.740736,0.112745,0,0,0,0,0.00627004,0.000334066,15246,-0.740817,0.11274,0.00627004,0.000334066,15063,2.22221,-0.00312924,-0.0169117,-3.35276e-05
15091,-3.21253e-12,1.12104e-37,-1.57321e-06,-3.27827e-12,1.12094e-37,0,-1.13762e-13,0,0,-3.80668,0.102746,0.629801,0,0,0,0,0,-0.815153,0.102746,253,-61,253,-61,372,-67,246,52,-0.0169461,-0.0872664,0,-1.5,3.94113e+12,0,0,0,-0.740629,0.11275,0,0,0,0,0.00627004,0.000334066,15246,-0.740817,0.11274,0.00627004,0.000334066,15063,2.22189,-0.00314414,-0.0169125,-3.35276e-05
15138,-3.21253e-12,1.12104e-37,-1.57321e-06,-3.27827e-12,1.12094e-37,0,-1.13763e-13,0,0,-3.78147,0.112094,0.614193,0,0,0,0,0,-0.780614,0.112094,253,-62,253,-62,369,-69,245,56,-0.0168748,-0.0872664,0,-1.5,3.94113e+12,0,0,0,-0.756958,0.112421,0,0,0,0,-0.00102488,0.000116001,15500,-0.75691,0.112415,-0.00102488,0.000116001,15123,2.27087,0.000506639,-0.0168631,-1.16726e-05
15155,-3.21253e-12,1.12104e-37,-1.57321e-06,-3.27827e-12,1.12094e-37,0,-1.13763e-13,0,0,-3.78147,0.112094,0.614193,0,0,0,0,0,-0.780614,0.112094,253,-62,253,-62,369,-69,245,56,-0.0168749,-0.0872664,0,-1.5,3.94113e+12,0,0,0,-0.756975,0.112423,0,0,0,0,-0.00102488,0.000116001,15500,-0.75691,0.112415,-0.00102488,0.000116001,15123,2.27092,0.000506639,-0.0168634,-1.15484e-05
15174,-3.21253e-12,1.12104e-37,-1.57321e-06,-3.27827e-12,1.12094e-37,0,-1.13764e-13,0,0,-3.70085,0.114802,0.581272,0,0,0,0,0,-0.670163,0.114802,248,-68,248,-68,369,-70,246,52,-0.0169464,-0.0872664,0,-1.5,3.94113e+12,0,0,0,-0.740244,0.112591,0,0,0,0,0.00805814,0.000578633,15621,-0.740357,0.112583,0.00805814,0.000578633,15163,2.22073,-0.00403821,-0.0168886,-5.7742e-05
15191,-3.21253e-12,1.12104e-37,-1.57321e-06,-3.27827e-12,1.12094e-37,0,-1.13765e-13,0,0,-3.70085,0.114802,0.581272,0,0,0,0,0,-0.670163,0.114802,248,-68,248,-68,369,-70,246,52,-0.0169478,-0.0872664,0,-1.5,3.94113e+12,0,0,0,-0.740107,0.112601,0,0,0,0,0.00805814,0.000578633,15621,-0.740357,0.112583,0.00805814,0.000578633,15163,2.22032,-0.00403821,-0.0168901,-5.7742e-05
15218,-3.21253e-12,1.12104e-37,-1.57321e-06,-3.27827e-12,1.12094e-37,0,-1.13765e-13,0,0,-3.77122,0.109798,0.608127,0,0,0,0,0,-0.766571,0.109798,253,-61,253,-61,369,-70,245,56,-0.0167539,-0.0872664,0,-1.5,3.94113e+12,0,0,0,-0.759382,0.112062,0,0,0,0,-0.00325697,-0.00055669,15624,-0.759294,0.112077,-0.00325697,-0.00055669,15204,2.27815,0.00162423,-0.0168094,5.55068e-05
15241,-3.21253e-12,1.12104e-37,-1.57321e-06,-3.27827e-12,1.12094e-37,0,-1.13766e-13,0,0,-3.72121,0.116247,0.591366,0,0,0,0,0,-0.698056,0.116247,250,-68,250,-68,369,-69,245,56,-0.0169919,-0.0872664,0,-1.5,3.94113e+12,0,0,0,-0.734789,0.112857,0,0,0,0,0.0197698,0.000633236,15500,-0.735026,0.11285,0.0197698,0.000633236,15231,2.20437,-0.00987947,-0.0169286,-6.33299e-05
15302,-3.21253e-12,1.12104e-37,-1.57321e-06,-3.27827e-12,1.12094e-37,0,-1.13766e-13,0,0,-3.71856,0.118079,0.601511,0,0,0,0,0,-0.694425,0.118079,248,-68,248,-68,369,-70,245,52,-0.033169,-0.0872664,0,-1.5,3.94113e+12,0,0,0,-0.736752,0.113143,0,0,0,0,0.00448958,0.00112493,15252,-0.736788,0.113134,0.00448958,0.00112493,15297,2.21026,-0.0344776,-0.0169714,-0.0161977
15345,-3.21253e-12,1.12104e-37,-1.57321e-06,-3.27827e-12,1.12094e-37,0,-1.13767e-13,0,0,-3.77997,0.112353,0.613314,0,0,0,0,0,-0.77856,0.112353,253,-61,253,-61,368,-70,245,56,-0.0168449,-0.0872664,0,-1.5,3.94113e+12,0,0,0,-0.739025,0.112422,0,0,0,0,0.00115016,-0.000182417,15498,-0.739074,0.112429,0.00115016,-0.000182417,15331,2.21707,-0.000576178,-0.0168632,1.83781e-05
15372,-3.21253e-12,1.12104e-37,-1.57321e-06,-3.27827e-12,1.12094e-37,0,-1.13767e-13,0,0,-3.68395,0.109097,0.553555,0,0,0,0,0,-0.647008,0.109097,249,-64,249,-64,372,-69,245,58,-0.0167787,-0.0872664,0,-1.5,3.94113e+12,0,0,0,-0.734233,0.112069,0,0,0,0,0.00957885,-0.000317818,16129,-0.734348,0.112073,0.00957885,-0.000317818,15362,2.2027,-0.00478327,-0.0168104,3.1665e-05
15389,-3.21253e-12,1.12104e-37,-1.57321e-06,-3.27827e-12,1.12094e-37,0,-1.13768e-13,0,0,-3.68395,0.109097,0.553555,0,0,0,0,0,-0.647008,0.109097,249,-64,249,-64,372,-69,245,58,-0.0167779,-0.0872664,0,-1.5,3.94113e+12,0,0,0,-0.73407,0.112064,0,0,0,0,0.00957885,-0.000317818,16129,-0.734348,0.112073,0.00957885,-0.000317818,15362,2.20221,-0.00478327,-0.0168096,3.1665e-05
15414,-3.21253e-12,1.12104e-37,-1.57321e-06,-3.27827e-12,1.12094e-37,0,-1.13768e-13,0,0,-3.66524,0.110193,0.560133,0,0,0,0,0,-0.621382,0.110193,248,-68,248,-68,372,-70,245,56,-0.0166318,-0.0872664,0,-1.5,3.94113e+12,0,0,0,-0.705857,0.111656,0,0,0,0,0.0487811,-0.00116502,16002,-0.707076,0.111685,0.0487811,-0.00116502,15400,2.11757,-0.0243932,-0.0167484,0.000116602
15442,-3.21253e-12,1.12104e-37,-1.57321e-06,-3.27827e-12,1.12094e-37,0,-1.13769e-13,0,0,-3.789,0.114936,0.618609,0,0,0,0,0,-0.790929,0.114936,253,-61,253,-61,368,-70,245,56,-0.0164539,-0.0872664,0,-1.5,3.94113e+12,0,0,0,-0.736708,0.111242,0,0,0,0,0.00708991,-0.00232468,15498,-0.7368,0.111273,0.00708991,-0.00232468,15430,2.21012,-0.00354648,-0.0166863,0.000232458
15459,-3.21253e-12,1.12104e-37,-1.57321e-06,-3.27827e-12,1.12094e-37,0,-1.13769e-13,0,0,-3.789,0.114936,0.618609,0,0,0,0,0,-0.790929,0.114936,253,-61,253,-61,368,-70,245,56,-0.016448,-0.0872664,0,-1.5,3.94113e+12,0,0,0,-0.736587,0.111203,0,0,0,0,0.00708991,-0.00232468,15498,-0.7368,0.111273,0.00708991,-0.00232468,15430,2.20976,-0.00354648,-0.0166804,0.000232458
15478,-3.21253e-12,1.12104e-37,-1.57321e-06,-3.27827e-12,1.12094e-37,0,-1.1377e-13,0,0,-3.7292,0.110445,0.58965,0,0,0,0,0,-0.709008,0.110445,251,-64,251,-64,371,-70,245,56,-0.0162329,-0.0872664,0,-1.5,3.94113e+12,0,0,0,-0.708025,0.110402,0,0,0,0,0.0403245,-0.00327702,15876,-0.708831,0.110468,0.0403245,-0.00327702,15464,2.12407,-0.0201613,-0.0165603,0.000327453
15504,-3.21253e-12,1.12104e-37,-1.57321e-06,-3.27827e-12,1.12094e-37,0,-1.13771e-13,0,0,-3.80879,0.112682,0.640119,0,0,0,0,0,-0.818048,0.112682,253,-61,253,-61,369,-70,245,52,-0.0164264,-0.0872664,0,-1.5,3.94113e+12,0,0,0,-0.735481,0.111081,0,0,0,0,0.00597193,-0.00235926,15252,-0.735535,0.111103,0.00597193,-0.00235926,15497,2.20644,-0.00299513,-0.0166622,0.000235811
15549,-3.21253e-12,1.12104e-37,-1.57321e-06,-3.27827e-12,1.12094e-37,0,-1.13771e-13,0,0,-3.67781,0.110361,0.576782,0,0,0,0,0,-0.638595,0.110361,248,-68,248,-68,373,-71,245,53,-0.0161873,-0.0872664,0,-1.5,3.94113e+12,0,0,0,-0.713795,0.110166,0,0,0,0,0.0438208,-0.00337595,15872,-0.715767,0.110318,0.0438208,-0.00337595,15535,2.14139,-0.0219047,-0.0165249,0.000337511
15572,-3.21253e-12,1.12104e-37,-1.57321e-06,-3.27827e-12,1.12094e-37,0,-1.13772e-13,0,0,-3.78182,0.104933,0.61953,0,0,0,0,0,-0.78109,0.104933,253,-61,253,-61,371,-69,245,53,-0.0161657,-0.0872664,0,-1.5,3.94113e+12,0,0,0,-0.707486,0.110044,0,0,0,0,0.0511782,-0.00340709,15372,-0.707998,0.110078,0.0511782,-0.00340709,15565,2.12246,-0.0255853,-0.0165066,0.000340864
15589,-3.21253e-12,1.12104e-37,-1.57321e-06,-3.27827e-12,1.12094e-37,0,-1.13772e-13,0,0,-3.78182,0.104933,0.61953,0,0,0,0,0,-0.78109,0.104933,253,-61,253,-61,371,-69,245,53,-0.0161574,-0.0872664,0,-1.5,3.94113e+12,0,0,0,-0.706616,0.109986,0,0,0,0,0.0511782,-0.00340709,15372,-0.707998,0.110078,0.0511782,-0.00340709,15565,2.11985,-0.0255853,-0.0164979,0.000340492
15619,-3.21253e-12,1.12104e-37,-1.57321e-06,-3.27827e-12,1.12094e-37,0,-1.13773e-13,0,0,-3.73221,0.119654,0.591406,0,0,0,0,0,-0.713131,0.119654,249,-64,249,-64,369,-70,245,56,-0.0163169,-0.0872664,0,-1.5,3.94113e+12,0,0,0,-0.710869,0.110508,0,0,0,0,0.0446192,-0.00259225,15624,-0.712207,0.110586,0.0446192,-0.00259225,15605,2.13261,-0.022307,-0.0165762,0.00025928
15643,-3.21253e-12,1.12104e-37,-1.57321e-06,-3.27827e-12,1.12094e-37,0,-1.13773e-13,0,0,-3.7485,0.104139,0.592293,0,0,0,0,0,-0.735439,0.104139,253,-62,253,-62,371,-69,245,56,-0.0162654,-0.0872664,0,-1.5,3.94113e+12,0,0,0,-0.710972,0.11011,0,0,0,0,0.0443268,-0.00251168,15750,-0.711548,0.110143,0.0443268,-0.00251168,15631,2.13292,-0.022158,-0.0165165,0.000251085
15665,-3.21253e-12,1.12104e-37,-1.57321e-06,-3.27827e-12,1.12094e-37,0,-1.13774e-13,0,0,-3.7485,0.104139,0.592293,0,0,0,0,0,-0.735439,0.104139,253,-62,253,-62,371,-69,245,56,-0.0177637,-0.0872664,0,-1.5,3.94113e+12,0,0,0,-0.736287,0.110171,0,0,0,0,0.00464672,-0.00217509,15750,-0.736324,0.110189,0.00464672,-0.00217509,15659,2.20886,0,-0.0165257,-0.00123801
15682,-3.21253e-12,1.12104e-37,-1.57321e-06,-3.27827e-12,1.12094e-37,0,-1.13774e-13,0,0,-3.7485,0.104139,0.592293,0,0,0,0,0,-0.735439,0.104139,253,-62,253,-62,371,-69,245,56,-0.0163026,-0.0872664,0,-1.5,3.94113e+12,0,0,0,-0.736208,0.110134,0,0,0,0,0.00464672,-0.00217509,15750,-0.736324,0.110189,0.00464672,-0.00217509,15659,2.20862,-0.00232458,-0.0165202,0.000217557
15709,-3.21253e-12,1.12104e-37,-1.57321e-06,-3.27827e-12,1.12094e-37,0,-1.13775e-13,0,0,-3.72061,0.120551,0.600294,0,0,0,0,0,-0.697237,0.120551,248,-68,248,-68,369,-70,245,53,-0.0162299,-0.0872664,0,-1.5,3.94113e+12,0,0,0,-0.726065,0.109913,0,0,0,0,0.0134125,-0.00256942,15252,-0.726427,0.109982,0.0134125,-0.00256942,15695,2.17819,-0.00670552,-0.016487,0.000257045
15734,-3.21253e-12,1.12104e-37,-1.57321e-06,-3.27827e-12,1.12094e-37,0,-1.13775e-13,0,0,-3.71609,0.0983008,0.577315,0,0,0,0,0,-0.691049,0.0983008,253,-62,253,-62,373,-71,245,53,-0.0125608,-0.0872664,0,-1.5,3.94113e+12,0,0,0,-0.709596,0.109595,0,0,0,0,0.0290837,-0.00293758,16384,-0.7098,0.109616,0.0290837,-0.00293758,15729,2.12879,0,-0.0164393,0.00387845
15748,-3.21253e-12,1.12104e-37,-1.57321e-06,-3.27827e-12,1.12094e-37,0,-1.13776e-13,0,0,-3.71609,0.0983008,0.577315,0,0,0,0,0,-0.691049,0.0983008,253,-62,253,-62,373,-71,245,53,-0.0161392,-0.0872664,0,-1.5,3.94113e+12,0,0,0,-0.709189,0.109554,0,0,0,0,0.0290837,-0.00293758,16384,-0.7098,0.109616,0.0290837,-0.00293758,15729,2.12757,-0.0145435,-0.0164331,0.000293925
15772,-3.21253e-12,1.12104e-37,-1.57321e-06,-3.27827e-12,1.12094e-37,0,-1.13777e-13,0,0,-3.757,0.106675,0.597274,0,0,0,0,0,-0.747092,0.106675,253,-62,253,-62,371,-69,245,56,-0.00838185,-0.0872664,0,-1.5,3.94113e+12,0,0,0,-0.733615,0.108947,0,0,0,0,0.00680238,-0.00403073,15750,-0.733662,0.108975,0.00680238,-0.00403073,15767,2.20084,0,-0.0163421,0.0079602
15792,-3.21253e-12,1.12104e-37,-1.57321e-06,-3.27827e-12,1.12094e-37,0,-1.13777e-13,0,0,-3.757,0.106675,0.597274,0,0,0,0,0,-0.747092,0.106675,253,-62,253,-62,371,-69,245,56,-0.0159269,-0.0872664,0,-1.5,3.94113e+12,0,0,0,-0.733479,0.108866,0,0,0,0,0.00680238,-0.00403073,15750,-0.733662,0.108975,0.00680238,-0.00403073,15767,2.20044,-0.00339746,-0.01633,0.000403076
15815,-3.21253e-12,1.12104e-37,-1.57321e-06,-3.27827e-12,1.12094e-37,0,-1.13778e-13,0,0,-3.75586,0.106927,0.601155,0,0,0,0,0,-0.745525,0.106927,253,-62,253,-62,371,-70,245,56,-0.015209,-0.0872664,0,-1.5,3.94113e+12,0,0,0,-0.735372,0.106663,0,0,0,0,0.00439176,-0.00790493,15876,-0.735473,0.106845,0.00439176,-0.00790493,15801,2.20612,-0.00220537,-0.0159995,0.000790507
15842,-3.21253e-12,1.12104e-37,-1.57321e-06,-3.27827e-12,1.12094e-37,0,-1.13778e-13,0,0,-3.76909,0.104529,0.597981,0,0,0,0,0,-0.763651,0.104529,253,-61,253,-61,371,-67,245,56,-0.0151878,-0.0872664,0,-1.5,3.94113e+12,0,0,0,-0.735874,0.106557,0,0,0,0,0.00552868,-0.00795773,15498,-0.735952,0.106668,0.00552868,-0.00795773,15830,2.20762,-0.00277162,-0.0159835,0.000795722
15859,-3.21253e-12,1.12104e-37,-1.57321e-06,-3.27827e-12,1.12094e-37,0,-1.13779e-13,0,0,-3.76909,0.104529,0.597981,0,0,0,0,0,-0.763651,0.104529,253,-61,253,-61,371,-67,245,56,-0.0151675,-0.0872664,0,-1.5,3.94113e+12,0,0,0,-0.73578,0.106421,0,0,0,0,0.00552868,-0.00795773,15498,-0.735952,0.106668,0.00552868,-0.00795773,15830,2.20734,-0.00275671,-0.0159632,0.000795722
15882,-3.21253e-12,1.12104e-37,-1.57321e-06,-3.27827e-12,1.12094e-37,0,-1.13779e-13,0,0,-3.7001,0.112983,0.590395,0,0,0,0,0,-0.66914,0.112983,248,-68,248,-68,372,-70,245,52,-0.0150467,-0.0872664,0,-1.5,3.94113e+12,0,0,0,-0.734709,0.105857,0,0,0,0,0.00255009,-0.00831708,15621,-0.734765,0.10604,0.00255009,-0.00831708,15868,2.20413,-0.0012666,-0.0158786,0.000831857
15907,-3.21253e-12,1.12104e-37,-1.57321e-06,-3.27827e-12,1.12094e-37,0,-1.1378e-13,0,0,-3.77385,0.112023,0.611884,0,0,0,0,0,-0.770169,0.112023,253,-62,253,-62,368,-70,245,56,-0.0152868,-0.0872664,0,-1.5,3.94113e+12,0,0,0,-0.740143,0.106638,0,0,0,0,-0.0164438,-0.0070906,15498,-0.739963,0.106716,-0.0164438,-0.0070906,15898,2.22043,0.00822544,-0.0159958,0.000708923
15987,-3.21253e-12,1.12104e-37,-1.57321e-06,-3.27827e-12,1.12094e-37,0,-1.1378e-13,0,0,-3.70971,0.109875,0.573806,0,0,0,0,0,-0.682302,0.109875,249,-63,249,-63,372,-69,245,56,-0.0157887,-0.0872664,0,-1.5,3.94113e+12,0,0,0,-0.735663,0.108166,0,0,0,0,-0.011396,-0.00436143,15875,-0.734752,0.108515,-0.011396,-0.00436143,15973,2.20699,0.00569224,-0.0162249,0.000436231
16010,-3.21253e-12,1.12104e-37,-1.57321e-06,-3.27827e-12,1.12094e-37,0,-1.13781e-13,0,0,-3.77901,0.106215,0.613191,0,0,0,0,0,-0.777245,0.106215,251,-64,251,-64,372,-65,246,54,-0.0154767,-0.0872664,0,-1.5,3.94113e+12,0,0,0,-0.748884,0.106894,0,0,0,0,-0.0317367,-0.00557317,14994,-0.748155,0.107022,-0.0317367,-0.00557317,15996,2.24665,0.0158697,-0.016034,0.000557303
16027,-3.21253e-12,1.12104e-37,-1.57321e-06,-3.27827e-12,1.12094e-37,0,-1.13781e-13,0,0,-3.77901,0.106215,0.613191,0,0,0,0,0,-0.777245,0.106215,251,-64,251,-64,372,-65,246,54,-0.0154625,-0.0872664,0,-1.5,3.94113e+12,0,0,0,-0.749424,0.106799,0,0,0,0,-0.0317367,-0.00557317,14994,-0.748155,0.107022,-0.0317367,-0.00557317,15996,2.24827,0.0158697,-0.0160198,0.000557303
16074,-3.21253e-12,1.12104e-37,-1.57321e-06,-3.27827e-12,1.12094e-37,0,-1.13782e-13,0,0,-3.66978,0.107872,0.572027,0,0,0,0,0,-0.627597,0.107872,248,-68,248,-68,373,-71,245,53,-0.0156289,-0.0872664,0,-1.5,3.94113e+12,0,0,0,-0.748448,0.107381,0,0,0,0,-0.0301518,-0.0047855,15872,-0.747031,0.107606,-0.0301518,-0.0047855,16060,2.24534,0.01508,-0.0161072,0.000478327
16089,-3.21253e-12,1.12104e-37,-1.57321e-06,-3.27827e-12,1.12094e-37,0,-1.13782e-13,0,0,-3.66978,0.107872,0.572027,0,0,0,0,0,-0.627597,0.107872,248,-68,248,-68,373,-71,245,53,-0.0156181,-0.0872664,0,-1.5,3.94113e+12,0,0,0,-0.748901,0.107309,0,0,0,0,-0.0301518,-0.0047855,15872,-0.747031,0.107606,-0.0301518,-0.0047855,16060,2.2467,0.0150651,-0.0160964,0.000478327
16111,-3.21253e-12,1.12104e-37,-1.57321e-06,-3.27827e-12,1.12094e-37,0,-1.13783e-13,0,0,-3.71912,0.112639,0.597175,0,0,0,0,0,-0.695189,0.112639,248,-70,248,-70,371,-67,246,52,-0.0157324,-0.0872664,0,-1.5,3.94113e+12,0,0,0,-0.693382,0.107702,0,0,0,0,0.0533327,-0.00422894,15500,-0.694555,0.107795,0.0533327,-0.00422894,16097,2.08015,-0.0266582,-0.0161553,0.00042282
16271,-3.21253e-12,1.12104e-37,-1.57321e-06,-3.27827e-12,1.12094e-37,0,-1.13784e-13,0,0,-3.68583,0.105981,0.583938,0,0,0,0,0,-0.649589,0.105981,248,-68,248,-68,373,-71,246,52,-0.015453,-0.0872664,0,-1.5,3.94113e+12,0,0,0,-0.683117,0.106301,0,0,0,0,0.0612162,-0.00492193,15748,-0.691994,0.107015,0.0612162,-0.00492193,16127,2.04935,-0.030607,-0.0159452,0.000492111
16297,-3.21253e-12,1.12104e-37,-1.57321e-06,-3.27827e-12,1.12094e-37,0,-1.13784e-13,0,0,-3.7001,0.112983,0.590395,0,0,0,0,0,-0.66914,0.112983,248,-68,248,-68,372,-70,245,52,-0.0156114,-0.0872664,0,-1.5,3.94113e+12,0,0,0,-0.67076,0.106922,0,0,0,0,0.0623613,-0.0042697,15621,-0.671633,0.106982,0.0623613,-0.0042697,16285,2.01228,-0.0311732,-0.0160383,0.000426918
16319,-3.21253e-12,1.12104e-37,-1.57321e-06,-3.27827e-12,1.12094e-37,0,-1.13785e-13,0,0,-3.79678,0.115533,0.631176,0,0,0,0,0,-0.801587,0.115533,251,-64,251,-64,370,-65,244,51,-0.016406,-0.0872664,0,-1.5,3.94113e+12,0,0,0,-0.68426,0.109716,0,0,0,0,0.0399977,-0.000513856,14868,-0.68514,0.109727,0.0399977,-0.000513856,16306,2.05278,-0.0199974,-0.0164574,5.1409e-05
16336,-3.21253e-12,1.12104e-37,-1.57321e-06,-3.27827e-12,1.12094e-37,0,-1.13785e-13,0,0,-3.79678,0.115533,0.631176,0,0,0,0,0,-0.801587,0.115533,251,-64,251,-64,370,-65,244,51,-0.0164047,-0.0872664,0,-1.5,3.94113e+12,0,0,0,-0.68358,0.109707,0,0,0,0,0.0399977,-0.000513856,14868,-0.68514,0.109727,0.0399977,-0.000513856,16306,2.05074,-0.0199974,-0.0164561,5.1409e-05
16359,-3.21253e-12,1.12104e-37,-1.57321e-06,-3.27827e-12,1.12094e-37,0,-1.13786e-13,0,0,-3.79678,0.115533,0.631176,0,0,0,0,0,-0.801587,0.115533,251,-64,251,-64,370,-65,244,51,-0.0164029,-0.0872664,0,-1.5,3.94113e+12,0,0,0,-0.68266,0.109695,0,0,0,0,0.0399977,-0.000513856,14868,-0.68514,0.109727,0.0399977,-0.000513856,16306,2.04798,-0.0199974,-0.0164543,5.1409e-05
16382,-3.21253e-12,1.12104e-37,-1.57321e-06,-3.27827e-12,1.12094e-37,0,-1.13786e-13,0,0,-3.75465,0.10443,0.598352,0,0,0,0,0,-0.743874,0.10443,253,-62,253,-62,371,-69,245,56,-0.0155169,-0.0872664,0,-1.5,3.94113e+12,0,0,0,-0.682206,0.106374,0,0,0,0,0.0468726,-0.00439568,15750,-0.683284,0.106475,0.0468726,-0.00439568,16368,2.04662,-0.0234395,-0.0159561,0.000439212
16405,-3.21253e-12,1.12104e-37,-1.57321e-06,-3.27827e-12,1.12094e-37,0,-1.13787e-13,0,0,-3.69435,0.112931,0.584631,0,0,0,0,0,-0.661262,0.112931,248,-68,248,-68,371,-70,245,53,-0.0163211,-0.0872664,0,-1.5,3.94113e+12,0,0,0,-0.680421,0.109473,0,0,0,0,0.0401703,-0.000996434,15498,-0.680903,0.109485,0.0401703,-0.000996434,16395,2.04126,-0.0200719,-0.016421,9.98378e-05
16422,-3.21253e-12,1.12104e-37,-1.57321e-06,-3.27827e-12,1.12094e-37,0,-1.13787e-13,0,0,-3.69435,0.112931,0.584631,0,0,0,0,0,-0.661262,0.112931,248,-68,248,-68,371,-70,245,53,-0.016319,-0.0872664,0,-1.5,3.94113e+12,0,0,0,-0.679738,0.109456,0,0,0,0,0.0401703,-0.000996434,15498,-0.680903,0.109485,0.0401703,-0.000996434,16395,2.03922,-0.0200868,-0.0164184,9.94653e-05
16449,-3.21253e-12,1.12104e-37,-1.57321e-06,-3.27827e-12,1.12094e-37,0,-1.13788e-13,0,0,-3.67781,0.110361,0.576782,0,0,0,0,0,-0.638595,0.110361,248,-68,248,-68,373,-71,245,53,-0.0165467,-0.0872664,0,-1.5,3.94113e+12,0,0,0,-0.658597,0.110255,0,0,0,0,0.0664364,8.2411e-05,15872,-0.660391,0.110253,0.0664364,8.2411e-05,16435,1.97579,-0.0332197,-0.0165382,-8.44399e-06
16468,-3.21253e-12,1.12104e-37,-1.57321e-06,-3.27827e-12,1.12094e-37,0,-1.13788e-13,0,0,-3.74609,0.104344,0.595591,0,0,0,0,0,-0.732138,0.104344,253,-62,253,-62,368,-70,245,56,-0.00253318,-0.0872664,0,-1.5,3.94113e+12,0,0,0,-0.679617,0.109286,0,0,0,0,0.0380635,-0.00114029,15624,-0.679884,0.109294,0.0380635,-0.00114029,16463,2.03885,0,-0.0163929,0.0138597
16488,-3.21253e-12,1.12104e-37,-1.57321e-06,-3.27827e-12,1.12094e-37,0,-1.13789e-13,0,0,-3.74609,0.104344,0.595591,0,0,0,0,0,-0.732138,0.104344,253,-62,253,-62,368,-70,245,56,-0.0162756,-0.0872664,0,-1.5,3.94113e+12,0,0,0,-0.678894,0.109264,0,0,0,0,0.0380635,-0.00114029,15624,-0.679884,0.109294,0.0380635,-0.00114029,16463,2.03668,-0.0190288,-0.0163896,0.000113994
16515,-3.21253e-12,1.12104e-37,-1.57321e-06,-3.27827e-12,1.12094e-37,0,-1.1379e-13,0,0,-3.6915,0.110457,0.585472,0,0,0,0,0,-0.657356,0.110457,248,-68,248,-68,369,-70,245,52,-0.0163937,-0.0872664,0,-1.5,3.94113e+12,0,0,0,-0.654059,0.109684,0,0,0,0,0.087012,-0.000589382,15252,-0.656496,0.1097,0.087012,-0.000589382,16501,1.96218,-0.0435114,-0.0164526,5.88596e-05
16538,-3.21253e-12,1.12104e-37,-1.57321e-06,-3.27827e-12,1.12094e-37,0,-1.1379e-13,0,0,-3.65123,0.102917,0.565347,0,0,0,0,0,-0.602179,0.102917,248,-68,248,-68,375,-72,245,52,-0.0163529,-0.0872664,0,-1.5,3.94113e+12,0,0,0,-0.651545,0.109429,0,0,0,0,0.0682168,-0.000614492,16250,-0.6525,0.109438,0.0682168,-0.000614492,16526,1.95463,-0.0341088,-0.0164144,6.14673e-05
16555,-3.21253e-12,1.12104e-37,-1.57321e-06,-3.27827e-12,1.12094e-37,0,-1.13791e-13,0,0,-3.65123,0.102917,0.565347,0,0,0,0,0,-0.602179,0.102917,248,-68,248,-68,375,-72,245,52,-0.0163515,-0.0872664,0,-1.5,3.94113e+12,0,0,0,-0.650453,0.10942,0,0,0,0,0.0682168,-0.000614492,16250,-0.6525,0.109438,0.0682168,-0.000614492,16526,1.95136,-0.0340939,-0.0164129,6.14673e-05
16577,-3.21253e-12,1.12104e-37,-1.57321e-06,-3.27827e-12,1.12094e-37,0,-1.13791e-13,0,0,-3.71856,0.118079,0.601511,0,0,0,0,0,-0.694425,0.118079,248,-68,248,-68,369,-70,245,52,-0.0165225,-0.0872664,0,-1.5,3.94113e+12,0,0,0,-0.651142,0.110118,0,0,0,0,0.086465,4.87898e-05,15252,-0.653131,0.110116,0.086465,4.87898e-05,16563,1.95343,-0.0432283,-0.0165176,-4.84288e-06
16606,-3.21253e-12,1.12104e-37,-1.57321e-06,-3.27827e-12,1.12094e-37,0,-1.13792e-13,0,0,-3.71912,0.112639,0.597175,0,0,0,0,0,-0.695189,0.112639,248,-70,248,-70,371,-67,246,52,-0.0166007,-0.0872664,0,-1.5,3.94113e+12,0,0,0,-0.6465,0.110406,0,0,0,0,0.0919674,0.000398706,15500,-0.647511,0.110401,0.0919674,0.000398706,16597,1.9395,-0.045985,-0.0165609,-3.98606e-05
16624,-3.21253e-12,1.12104e-37,-1.57321e-06,-3.27827e-12,1.12094e-37,0,-1.13792e-13,0,0,-3.71912,0.112639,0.597175,0,0,0,0,0,-0.695189,0.112639,248,-70,248,-70,371,-67,246,52,-0.0166017,-0.0872664,0,-1.5,3.94113e+12,0,0,0,-0.644936,0.110412,0,0,0,0,0.0919674,0.000398706,15500,-0.647511,0.110401,0.0919674,0.000398706,16597,1.93481,-0.045985,-0.0165619,-3.98606e-05
16646,-3.21253e-12,1.12104e-37,-1.57321e-06,-3.27827e-12,1.12094e-37,0,-1.13793e-13,0,0,-3.66978,0.107872,0.572027,0,0,0,0,0,-0.627597,0.107872,248,-68,248,-68,373,-71,245,53,-0.0166934,-0.0872664,0,-1.5,3.94113e+12,0,0,0,-0.64537,0.110537,0,0,0,0,0.0875513,0.00112829,15872,-0.647384,0.110511,0.0875513,0.00112829,16632,1.93611,-0.0437796,-0.0165805,-0.000112876
16673,-3.21253e-12,1.12104e-37,-1.57321e-06,-3.27827e-12,1.12094e-37,0,-1.13793e-13,0,0,-3.71882,0.11241,0.579213,0,0,0,0,0,-0.694784,0.11241,249,-63,249,-63,371,-69,245,56,-0.0173102,-0.0872664,0,-1.5,3.94113e+12,0,0,0,-0.641702,0.111842,0,0,0,0,0.0912228,0.00534026,15750,-0.642705,0.111783,0.0912228,0.00534026,16664,1.9251,-0.0456125,-0.0167763,-0.000533834
16690,-3.21253e-12,1.12104e-37,-1.57321e-06,-3.27827e-12,1.12094e-37,0,-1.13794e-13,0,0,-3.71882,0.11241,0.579213,0,0,0,0,0,-0.694784,0.11241,249,-63,249,-63,371,-69,245,56,-0.0173238,-0.0872664,0,-1.5,3.94113e+12,0,0,0,-0.640151,0.111933,0,0,0,0,0.0912228,0.00534026,15750,-0.642705,0.111783,0.0912228,0.00534026,16664,1.92045,-0.0455975,-0.0167899,-0.000533834
16718,-3.21253e-12,1.12104e-37,-1.57321e-06,-3.27827e-12,1.12094e-37,0,-1.13794e-13,0,0,-3.77227,0.111315,0.623056,0,0,0,0,0,-0.768014,0.111315,252,-62,252,-62,371,-70,244,51,-0.0172778,-0.0872664,0,-1.5,3.94113e+12,0,0,0,-0.691594,0.111731,0,0,0,0,0.0187991,0.00518134,15621,-0.69212,0.111586,0.0187991,0.00518134,16704,2.07478,-0.00940263,-0.0167596,-0.000518188
16770,-3.21253e-12,1.12104e-37,-1.57321e-06,-3.27827e-12,1.12094e-37,0,-1.13795e-13,0,0,-3.69746,0.111009,0.591252,0,0,0,0,0,-0.665523,0.111009,248,-68,248,-68,372,-70,245,53,-0.0173265,-0.0872664,0,-1.5,3.94113e+12,0,0,0,-0.662444,0.11202,0,0,0,0,0.0645728,0.0052356,15621,-0.665801,0.111748,0.0645728,0.0052356,16756,1.98733,-0.0322759,-0.0168031,-0.000523403
16822,-3.21253e-12,1.12104e-37,-1.57321e-06,-3.27827e-12,1.12094e-37,0,-1.13795e-13,0,0,-3.71109,0.0967965,0.576706,0,0,0,0,0,-0.684187,0.0967965,253,-62,253,-62,375,-71,245,56,-0.0172745,-0.0872664,0,-1.5,3.94113e+12,0,0,0,-0.680644,0.112097,0,0,0,0,0.0268904,0.00460093,16510,-0.682042,0.111858,0.0268904,0.00460093,16807,2.04193,-0.0134508,-0.0168146,-0.000459949
16847,-3.21253e-12,1.12104e-37,-1.57321e-06,-3.27827e-12,1.12094e-37,0,-1.13796e-13,0,0,-3.73602,0.107524,0.607698,0,0,0,0,0,-0.718352,0.107524,251,-66,251,-66,371,-70,245,52,-0.017298,-0.0872664,0,-1.5,3.94113e+12,0,0,0,-0.679308,0.111957,0,0,0,0,0.0429552,0.00504557,15498,-0.680382,0.111831,0.0429552,0.00504557,16833,2.03792,-0.0214726,-0.0167936,-0.000504404
16870,-3.21253e-12,1.12104e-37,-1.57321e-06,-3.27827e-12,1.12094e-37,0,-1.13797e-13,0,0,-3.70971,0.109875,0.573806,0,0,0,0,0,-0.682302,0.109875,249,-63,249,-63,372,-69,245,56,-0.0152709,-0.0872664,0,-1.5,3.94113e+12,0,0,0,-0.682061,0.111912,0,0,0,0,0.019428,0.00474415,15875,-0.682216,0.111874,0.019428,0.00474415,16864,2.04618,0.212286,-0.0167868,0.00151591
