timestamp,A_x,A_y,A_z,P,Q,R,Phi,Theta,Psi,poseX,poseY,poseZ,state_X,state_Y,state_Z,state_VzB,state_Bx,state_By,state_Bz,p1_x,p1_y,p2_x,p2_y,p3_x,p3_y,p4_x,p4_y,roll,pitch,yaw,alt,targetHeading,highLevelState,lowLevelState,gateNumber,filtered_x,filtered_y,x_OT,y_OT,vx_OT,vy_OT,filtered_vx,filtered_vygateArearansac_corr_x,ransac_corr_y,ransac_corr_vx,ransac_corr_vy,detectionTimeStamp
7963,0,0,0,0,0,0,0,0,0,0,0,0,0,0,0,0,0,0,0,0,0,0,0,0,0,0,0,0,-0.261799,0.0141372,-1.5,nan,0,0,2,0,0,0,0,0,0,0,0,1.9603e-19,0,0,0,0,0
8941,-3.34297e-12,2.14801e-38,-1.61093e-06,-3.40794e-12,2.14789e-38,0,-1.13703e-13,0,0,0,0,0,0,0,0,0,0,0,0,0,0,0,0,0,0,0,0,0,-0.261799,1.55037,-1.5,nan,0,0,2,0,0,0,0,0,0,0,0,1.9603e-19,0,0,0,0,0
8985,-3.34297e-12,2.14801e-38,-1.61093e-06,-3.40794e-12,2.14789e-38,-3.96878e-12,-1.13703e-13,0,0,0,0,0,0,0,0,0,0,0,0,0,0,0,0,0,0,0,0,0,-0.261799,1.61949,-1.5,nan,0,0,2,0,0,0,0,0,0,0,0,1.9603e-19,0,0,0,0,0
9220,-3.34297e-12,2.14801e-38,-1.61093e-06,-3.40794e-12,2.14789e-38,0,-1.13704e-13,0,0,0,0,0,0,0,0,0,0,0,0,0,0,0,0,0,0,0,0,0,-0.261799,1.98863,-1.5,nan,0,0,2,0,0,0,0,0,0,0,0,1.9603e-19,0,0,0,0,0
9281,-3.34297e-12,2.14801e-38,-1.61093e-06,-3.40794e-12,2.14789e-38,-3.96878e-12,-1.13704e-13,0,0,0,0,0,0,0,0,0,0,0,0,0,0,0,0,0,0,0,0,0,-0.261799,2.08445,-1.5,nan,0,0,2,0,0,0,0,0,0,0,0,1.9603e-19,0,0,0,0,0
9438,-3.34297e-12,2.14801e-38,-1.61093e-06,-3.40794e-12,2.14789e-38,0,-1.13705e-13,0,0,0,0,0,0,0,0,0,0,0,0,0,0,0,0,0,0,0,0,0,-0.261799,2.33106,-1.5,nan,0,0,2,0,0,0,0,0,0,0,0,1.9603e-19,0,0,0,0,0
9482,-3.34297e-12,2.14801e-38,-1.61093e-06,-3.40794e-12,2.14789e-38,-3.96878e-12,-1.13705e-13,0,0,0,0,0,0,0,0,0,0,0,0,0,0,0,0,0,0,0,0,0,-0.261799,2.3996,-1.5,nan,0,0,2,0,0,0,0,0,0,0,0,1.9603e-19,0,0,0,0,0
9527,-3.34297e-12,2.14801e-38,-1.61093e-06,-3.40794e-12,2.14789e-38,0,-1.13706e-13,0,0,0,0,0,0,0,0,0,0,0,0,0,0,0,0,0,0,0,0,0,-0.261799,2.46544,-1.5,nan,0,0,2,0,0,0,0,0,0,0,0,1.9603e-19,0,0,0,0,0
9593,-3.34297e-12,2.14801e-38,-1.61093e-06,-3.40794e-12,2.14789e-38,-3.96878e-12,-1.13706e-13,0,0,0,0,0,0,0,0,0,0,0,0,0,0,0,0,0,0,0,0,0,-0.261799,2.55338,-1.5,nan,0,0,2,0,0,0,0,0,0,0,0,1.9603e-19,0,0,0,0,0
9614,-3.34297e-12,2.14801e-38,-1.61093e-06,-3.40794e-12,2.14789e-38,0,-1.13707e-13,0,0,0,0,0,0,0,0,0,0,0,0,0,0,0,0,0,0,0,0,0,-0.261799,2.57776,-1.5,nan,0,0,2,0,0,0,0,0,0,0,0,1.9603e-19,0,0,0,0,0
9631,-3.34297e-12,2.14801e-38,-1.61093e-06,-3.40794e-12,2.14789e-38,-3.96878e-12,-1.13708e-13,0,0,0,0,0,0,0,0,0,0,0,0,0,0,0,0,0,0,0,0,0,-0.261799,2.59671,-1.5,nan,0,0,2,0,0,0,0,0,0,0,0,1.9603e-19,0,0,0,0,0
9649,-3.34297e-12,2.14801e-38,-1.61093e-06,-3.40794e-12,2.14789e-38,0,-1.13708e-13,0,0,0,0,0,0,0,0,0,0,0,0,0,0,0,0,0,0,0,0,0,-0.261799,2.61609,-1.5,nan,0,0,2,0,0,0,0,0,0,0,0,1.9603e-19,0,0,0,0,0
9669,-3.34297e-12,2.14801e-38,-1.61093e-06,-3.40794e-12,2.14789e-38,-3.96878e-12,-1.13709e-13,0,0,0,0,0,0,0,0,0,0,0,0,0,0,0,0,0,0,0,0,0,-0.261799,2.63686,-1.5,nan,0,0,2,0,0,0,0,0,0,0,0,1.9603e-19,0,0,0,0,0
9687,-3.34297e-12,2.14801e-38,-1.61093e-06,-3.40794e-12,2.14789e-38,0,-1.13709e-13,0,0,0,0,0,0,0,0,0,0,0,0,0,0,0,0,0,0,0,0,0,-0.261799,2.65383,-1.5,nan,0,0,2,0,0,0,0,0,0,0,0,1.9603e-19,0,0,0,0,0
9707,-3.34297e-12,2.14801e-38,-1.61093e-06,-3.40794e-12,2.14789e-38,-3.96878e-12,-1.1371e-13,0,0,0,0,0,0,0,0,0,0,0,0,0,0,0,0,0,0,0,0,0,-0.261799,2.67404,-1.5,nan,0,0,2,0,0,0,0,0,0,0,0,1.9603e-19,0,0,0,0,0
9724,-3.34297e-12,2.14801e-38,-1.61093e-06,-3.40794e-12,2.14789e-38,0,-1.1371e-13,0,0,0,0,0,0,0,0,0,0,0,0,0,0,0,0,0,0,0,0,0,-0.261799,2.68976,-1.5,nan,0,0,2,0,0,0,0,0,0,0,0,1.9603e-19,0,0,0,0,0
9742,-3.34297e-12,2.14801e-38,-1.61093e-06,-3.40794e-12,2.14789e-38,-3.96878e-12,-1.13711e-13,0,0,0,0,0,0,0,0,0,0,0,0,0,0,0,0,0,0,0,0,0,-0.261799,2.70583,-1.5,nan,0,0,2,0,0,0,0,0,0,0,0,1.9603e-19,0,0,0,0,0
9762,-3.34297e-12,2.14801e-38,-1.61093e-06,-3.40794e-12,2.14789e-38,0,-1.13711e-13,0,0,0,0,0,0,0,0,0,0,0,0,0,0,0,0,0,0,0,0,0,-0.261799,2.72305,-1.5,nan,0,0,2,0,0,0,0,0,0,0,0,1.9603e-19,0,0,0,0,0
9810,-3.34297e-12,2.14801e-38,-1.61093e-06,-3.40794e-12,2.14789e-38,-3.96878e-12,-1.13712e-13,0,0,0,0,0,0,0,0,0,0,0,0,0,0,0,0,0,0,0,0,0,-0.261799,2.76266,-1.5,nan,0,0,2,0,0,0,0,0,0,0,0,1.9603e-19,0,0,0,0,0
9828,-3.34297e-12,2.14801e-38,-1.61093e-06,-3.40794e-12,2.14789e-38,0,-1.13712e-13,0,0,0,0,0,0,0,0,0,0,0,0,0,0,0,0,0,0,0,0,0,-0.261799,2.7754,-1.5,nan,0,0,2,0,0,0,0,0,0,0,0,1.9603e-19,0,0,0,0,0
9842,-3.34297e-12,2.14801e-38,-1.61093e-06,-3.40794e-12,2.14789e-38,-3.96878e-12,-1.13713e-13,0,0,0,0,0,0,0,0,0,0,0,0,0,0,0,0,0,0,0,0,0,-0.261799,2.78626,-1.5,nan,0,0,2,0,0,0,0,0,0,0,0,1.9603e-19,0,0,0,0,0
9857,-3.34297e-12,2.14801e-38,-1.61093e-06,-3.40794e-12,2.14789e-38,0,-1.13714e-13,0,0,0,0,0,0,0,0,0,0,0,0,0,0,0,0,0,0,0,0,0,-0.261799,2.79681,-1.5,nan,0,0,2,0,0,0,0,0,0,0,0,1.9603e-19,0,0,0,0,0
9874,-3.34297e-12,2.14801e-38,-1.61093e-06,-3.40794e-12,2.14789e-38,-3.96878e-12,-1.13714e-13,0,0,0,0,0,0,0,0,0,0,0,0,0,0,0,0,0,0,0,0,0,-0.261799,2.8084,-1.5,nan,0,0,2,0,0,0,0,0,0,0,0,1.9603e-19,0,0,0,0,0
9896,-3.34297e-12,2.14801e-38,-1.61093e-06,-3.40794e-12,2.14789e-38,0,-1.13715e-13,0,0,0,0,0,0,0,0,0,0,0,0,0,0,0,0,0,0,0,0,0,-0.261799,2.82222,-1.5,nan,0,0,2,0,0,0,0,0,0,0,0,1.9603e-19,0,0,0,0,0
9913,-3.34297e-12,2.14801e-38,-1.61093e-06,-3.40794e-12,2.14789e-38,-3.96878e-12,-1.13715e-13,0,0,0,0,0,0,0,0,0,0,0,0,0,0,0,0,0,0,0,0,0,-0.261799,2.83358,-1.5,nan,0,0,2,0,0,0,0,0,0,0,0,1.9603e-19,0,0,0,0,0
9930,-3.34297e-12,2.14801e-38,-1.61093e-06,-3.40794e-12,2.14789e-38,0,-1.13716e-13,0,0,0,0,0,0,0,0,0,0,0,0,0,0,0,0,0,0,0,0,0,-0.261799,2.84393,-1.5,nan,0,0,2,0,0,0,0,0,0,0,0,1.9603e-19,0,0,0,0,0
9948,-3.34297e-12,2.14801e-38,-1.61093e-06,-3.40794e-12,2.14789e-38,-3.96878e-12,-1.13716e-13,0,0,0,0,0,0,0,0,0,0,0,0,0,0,0,0,0,0,0,0,0,-0.261799,2.85394,-1.5,nan,0,0,2,0,0,0,0,0,0,0,0,1.9603e-19,0,0,0,0,0
9968,-3.34297e-12,2.14801e-38,-1.61093e-06,-3.40794e-12,2.14789e-38,0,-1.13717e-13,0,0,0,0,0,0,0,0,0,0,0,0,0,0,0,0,0,0,0,0,0,-0.261799,2.86586,-1.5,nan,0,0,2,0,0,0,0,0,0,0,0,1.9603e-19,0,0,0,0,0
9985,-3.34297e-12,2.14801e-38,-1.61093e-06,-3.40794e-12,2.14789e-38,-3.96878e-12,-1.13717e-13,0,0,0,0,0,0,0,0,0,0,0,0,0,0,0,0,0,0,0,0,0,-0.261799,2.87513,-1.5,nan,0,0,2,0,0,0,0,0,0,0,0,1.9603e-19,0,0,0,0,0
10003,-3.34297e-12,2.14801e-38,-1.61093e-06,-3.40794e-12,2.14789e-38,0,-1.13718e-13,0,0,0,0,0,0,0,0,0,0,0,0,0,0,0,0,0,0,0,0,0,-0.261799,2.88461,-1.5,nan,0,0,2,0,0,0,0,0,0,0,0,1.9603e-19,0,0,0,0,0
10023,-3.34297e-12,2.14801e-38,-1.61093e-06,-3.40794e-12,2.14789e-38,-3.96878e-12,-1.13718e-13,0,0,0,0,0,0,0,0,0,0,0,0,0,0,0,0,0,0,0,0,0,-0.261799,2.89476,-1.5,nan,0,0,2,0,0,0,0,0,0,0,0,1.9603e-19,0,0,0,0,0
10041,-3.34297e-12,2.14801e-38,-1.61093e-06,-3.40794e-12,2.14789e-38,0,-1.13719e-13,0,0,0,0,0,0,0,0,0,0,0,0,0,0,0,0,0,0,0,0,0,-0.261799,2.90354,-1.5,nan,0,0,2,0,0,0,0,0,0,0,0,1.9603e-19,0,0,0,0,0
10061,-3.34297e-12,2.14801e-38,-1.61093e-06,-3.40794e-12,2.14789e-38,-3.96878e-12,-1.13719e-13,0,0,0,0,0,0,0,0,0,0,0,0,0,0,0,0,0,0,0,0,0,-0.261799,2.91294,-1.5,nan,0,0,2,0,0,0,0,0,0,0,0,1.9603e-19,0,0,0,0,0
10119,-3.34297e-12,2.14801e-38,-1.61093e-06,-3.40794e-12,2.14789e-38,0,-1.1372e-13,0,0,0,0,0,0,0,0,0,0,0,0,0,0,0,0,0,0,0,0,0,-0.261799,2.93908,-1.5,nan,0,0,2,0,0,0,0,0,0,0,0,1.9603e-19,0,0,0,0,0
10137,-3.34297e-12,2.14801e-38,-1.61093e-06,-3.40794e-12,2.14789e-38,-3.96878e-12,-1.13721e-13,0,0,0,0,0,0,0,0,0,0,0,0,0,0,0,0,0,0,0,0,0,-0.261799,2.94628,-1.5,nan,0,0,2,0,0,0,0,0,0,0,0,1.9603e-19,0,0,0,0,0
10188,-3.34297e-12,2.14801e-38,-1.61093e-06,-3.40794e-12,2.14789e-38,0,-1.13721e-13,0,0,0,0,0,0,0,0,0,0,0,0,0,0,0,0,0,0,0,0,0,-0.261799,2.96592,-1.5,nan,0,0,2,0,0,0,0,0,0,0,0,1.9603e-19,0,0,0,0,0
10206,-3.34297e-12,2.14801e-38,-1.61093e-06,-3.40794e-12,2.14789e-38,-3.96878e-12,-1.13722e-13,0,0,0,0,0,0,0,0,0,0,0,0,0,0,0,0,0,0,0,0,0,-0.261799,2.97216,-1.5,nan,0,0,2,0,0,0,0,0,0,0,0,1.9603e-19,0,0,0,0,0
10256,-3.34297e-12,2.14801e-38,-1.61093e-06,-3.40794e-12,2.14789e-38,0,-1.13722e-13,0,0,0,0,0,0,0,0,0,0,0,0,0,0,0,0,0,0,0,0,0,-0.261799,2.98853,-1.5,nan,0,0,2,0,0,0,0,0,0,0,0,1.9603e-19,0,0,0,0,0
10292,-3.34297e-12,2.14801e-38,-1.61093e-06,-3.40794e-12,2.14789e-38,-3.96878e-12,-1.13723e-13,0,0,0,0,0,0,0,0,0,0,0,0,0,0,0,0,0,0,0,0,0,-0.261799,2.99968,-1.5,nan,0,0,2,0,0,0,0,0,0,0,0,1.9603e-19,0,0,0,0,0
10310,-3.34297e-12,2.14801e-38,-1.61093e-06,-3.40794e-12,2.14789e-38,0,-1.13723e-13,0,0,0,0,0,0,0,0,0,0,0,0,0,0,0,0,0,0,0,0,0,-0.261799,3.00473,-1.5,nan,0,0,2,0,0,0,0,0,0,0,0,1.9603e-19,0,0,0,0,0
10330,-3.34297e-12,2.14801e-38,-1.61093e-06,-3.40794e-12,2.14789e-38,-3.96878e-12,-1.13724e-13,0,0,0,0,0,0,0,0,0,0,0,0,0,0,0,0,0,0,0,0,0,-0.261799,3.01014,-1.5,nan,0,0,2,0,0,0,0,0,0,0,0,1.9603e-19,0,0,0,0,0
10345,-3.34297e-12,2.14801e-38,-1.61093e-06,-3.40794e-12,2.14789e-38,0,-1.13724e-13,0,0,0,0,0,0,0,0,0,0,0,0,0,0,0,0,0,0,0,0,0,-0.261799,3.01404,-1.5,nan,0,0,2,0,0,0,0,0,0,0,0,1.9603e-19,0,0,0,0,0
10362,-3.34297e-12,2.14801e-38,-1.61093e-06,-3.40794e-12,2.14789e-38,-3.96878e-12,-1.13725e-13,0,0,0,0,0,0,0,0,0,0,0,0,0,0,0,0,0,0,0,0,0,-0.261799,3.01833,-1.5,nan,0,0,2,0,0,0,0,0,0,0,0,1.9603e-19,0,0,0,0,0
10379,-3.34297e-12,2.14801e-38,-1.61093e-06,-3.40794e-12,2.14789e-38,0,-1.13725e-13,0,0,0,0,0,0,0,0,0,0,0,0,0,0,0,0,0,0,0,0,0,-0.261799,3.02247,-1.5,nan,0,0,2,0,0,0,0,0,0,0,0,1.9603e-19,0,0,0,0,0
10397,-3.34297e-12,2.14801e-38,-1.61093e-06,-3.40794e-12,2.14789e-38,-3.96878e-12,-1.13726e-13,0,0,0,0,0,0,0,0,0,0,0,0,0,0,0,0,0,0,0,0,0,-0.261799,3.02671,-1.5,nan,0,0,2,0,0,0,0,0,0,0,0,1.9603e-19,0,0,0,0,0
10417,-3.34297e-12,2.14801e-38,-1.61093e-06,-3.40794e-12,2.14789e-38,0,-1.13727e-13,0,0,0,0,0,0,0,0,0,0,0,0,0,0,0,0,0,0,0,0,0,-0.261799,3.03124,-1.5,nan,0,0,2,0,0,0,0,0,0,0,0,1.9603e-19,0,0,0,0,0
10451,-3.34297e-12,2.14801e-38,-1.61093e-06,-3.40794e-12,2.14789e-38,-3.96878e-12,-1.13727e-13,0,0,0,0,0,0,0,0,0,0,0,0,0,0,0,0,0,0,0,0,0,-0.261799,3.03863,-1.5,nan,0,0,2,0,0,0,0,0,0,0,0,1.9603e-19,0,0,0,0,0
10472,-3.34297e-12,2.14801e-38,-1.61093e-06,-3.40794e-12,2.14789e-38,0,-1.13728e-13,0,0,0,0,0,0,0,0,0,0,0,0,0,0,0,0,0,0,0,0,0,-0.261799,3.04291,-1.5,nan,0,0,2,0,0,0,0,0,0,0,0,1.9603e-19,0,0,0,0,0
10489,-3.34297e-12,2.14801e-38,-1.61093e-06,-3.40794e-12,2.14789e-38,-3.96878e-12,-1.13728e-13,0,0,0,0,0,0,0,0,0,0,0,0,0,0,0,0,0,0,0,0,0,-0.261799,3.04622,-1.5,nan,0,0,2,0,0,0,0,0,0,0,0,1.9603e-19,0,0,0,0,0
10506,-3.34297e-12,2.14801e-38,-1.61093e-06,-3.40794e-12,2.14789e-38,0,-1.13729e-13,0,0,0,0,0,0,0,0,0,0,0,0,0,0,0,0,0,0,0,0,0,-0.261799,3.04943,-1.5,nan,0,0,2,0,0,0,0,0,0,0,0,1.9603e-19,0,0,0,0,0
10527,-3.34297e-12,2.14801e-38,-1.61093e-06,-3.40794e-12,2.14789e-38,-3.96878e-12,-1.13729e-13,0,0,0,0,0,0,0,0,0,0,0,0,0,0,0,0,0,0,0,0,0,-0.261799,3.05325,-1.5,nan,0,0,2,0,0,0,0,0,0,0,0,1.9603e-19,0,0,0,0,0
10544,-3.34297e-12,2.14801e-38,-1.61093e-06,-3.40794e-12,2.14789e-38,0,-1.1373e-13,0,0,0,0,0,0,0,0,0,0,0,0,0,0,0,0,0,0,0,0,0,-0.261799,3.05622,-1.5,nan,0,0,2,0,0,0,0,0,0,0,0,1.9603e-19,0,0,0,0,0
10565,-3.34297e-12,2.14801e-38,-1.61093e-06,-3.40794e-12,2.14789e-38,-3.96878e-12,-1.1373e-13,0,0,0,0,0,0,0,0,0,0,0,0,0,0,0,0,0,0,0,0,0,-0.261799,3.05976,-1.5,nan,0,0,2,0,0,0,0,0,0,0,0,1.9603e-19,0,0,0,0,0
10582,-3.34297e-12,2.14801e-38,-1.61093e-06,-3.40794e-12,2.14789e-38,0,-1.13731e-13,0,0,0,0,0,0,0,0,0,0,0,0,0,0,0,0,0,0,0,0,0,-0.261799,3.06251,-1.5,nan,0,0,2,0,0,0,0,0,0,0,0,1.9603e-19,0,0,0,0,0
10617,-3.34297e-12,2.14801e-38,-1.61093e-06,-3.40794e-12,2.14789e-38,-3.96878e-12,-1.13731e-13,0,0,0,0,0,0,0,0,0,0,0,0,0,0,0,0,0,0,0,0,0,-0.261799,3.06797,-1.5,nan,0,0,2,0,0,0,0,0,0,0,0,1.9603e-19,0,0,0,0,0
10639,-3.34297e-12,2.14801e-38,-1.61093e-06,-3.40794e-12,2.14789e-38,0,-1.13732e-13,0,0,0,0,0,0,0,0,0,0,0,0,0,0,0,0,0,0,0,0,0,-0.261799,3.07116,-1.5,nan,0,0,2,0,0,0,0,0,0,0,0,1.9603e-19,0,0,0,0,0
10655,-3.34297e-12,2.14801e-38,-1.61093e-06,-3.40794e-12,2.14789e-38,-3.96878e-12,-1.13732e-13,0,0,0,0,0,0,0,0,0,0,0,0,0,0,0,0,0,0,0,0,0,-0.261799,3.07339,-1.5,nan,0,0,2,0,0,0,0,0,0,0,0,1.9603e-19,0,0,0,0,0
10673,-3.34297e-12,2.14801e-38,-1.61093e-06,-3.40794e-12,2.14789e-38,0,-1.13733e-13,0,0,0,0,0,0,0,0,0,0,0,0,0,0,0,0,0,0,0,0,0,-0.261799,3.07582,-1.5,nan,0,0,2,0,0,0,0,0,0,0,0,1.9603e-19,0,0,0,0,0
10694,-3.34297e-12,2.14801e-38,-1.61093e-06,-3.40794e-12,2.14789e-38,-3.96878e-12,-1.13734e-13,0,0,0,0,0,0,0,0,0,0,0,0,0,0,0,0,0,0,0,0,0,-0.261799,3.07855,-1.5,nan,0,0,2,0,0,0,0,0,0,0,0,1.9603e-19,0,0,0,0,0
10711,-3.34297e-12,2.14801e-38,-1.61093e-06,-3.40794e-12,2.14789e-38,0,-1.13734e-13,0,0,0,0,0,0,0,0,0,0,0,0,0,0,0,0,0,0,0,0,0,-0.261799,3.08067,-1.5,nan,0,0,2,0,0,0,0,0,0,0,0,1.9603e-19,0,0,0,0,0
10732,-3.34297e-12,2.14801e-38,-1.61093e-06,-3.40794e-12,2.14789e-38,-3.96878e-12,-1.13735e-13,0,0,0,0,0,0,0,0,0,0,0,0,0,0,0,0,0,0,0,0,0,-0.261799,3.08319,-1.5,nan,0,0,2,0,0,0,0,0,0,0,0,1.9603e-19,0,0,0,0,0
10745,-3.34297e-12,2.14801e-38,-1.61093e-06,-3.40794e-12,2.14789e-38,0,-1.13735e-13,0,0,0,0,0,0,0,0,0,0,0,0,0,0,0,0,0,0,0,0,0,-0.261799,3.08469,-1.5,nan,0,0,2,0,0,0,0,0,0,0,0,1.9603e-19,0,0,0,0,0
10779,-3.34297e-12,2.14801e-38,-1.61093e-06,-3.40794e-12,2.14789e-38,-3.96878e-12,-1.13736e-13,0,0,0,0,0,0,0,0,0,0,0,0,0,0,0,0,0,0,0,0,0,-0.261799,3.08851,-1.5,nan,0,0,2,0,0,0,0,0,0,0,0,1.9603e-19,0,0,0,0,0
10797,-3.34297e-12,2.14801e-38,-1.61093e-06,-3.40794e-12,2.14789e-38,0,-1.13736e-13,0,0,0,0,0,0,0,0,0,0,0,0,0,0,0,0,0,0,0,0,0,-0.261799,3.0904,-1.5,nan,0,0,2,0,0,0,0,0,0,0,0,1.9603e-19,0,0,0,0,0
10814,-3.34297e-12,2.14801e-38,-1.61093e-06,-3.40794e-12,2.14789e-38,-3.96878e-12,-1.13737e-13,0,0,0,0,0,0,0,0,0,0,0,0,0,0,0,0,0,0,0,0,0,-0.261799,3.09212,-1.5,nan,0,0,2,0,0,0,0,0,0,0,0,1.9603e-19,0,0,0,0,0
10835,-3.34297e-12,2.14801e-38,-1.61093e-06,-3.40794e-12,2.14789e-38,0,-1.13737e-13,0,0,0,0,0,0,0,0,0,0,0,0,0,0,0,0,0,0,0,0,0,-0.261799,3.09417,-1.5,nan,0,0,2,0,0,0,0,0,0,0,0,1.9603e-19,0,0,0,0,0
10871,-3.34297e-12,2.14801e-38,-1.61093e-06,-3.40794e-12,2.14789e-38,-3.96878e-12,-1.13738e-13,0,0,0,0,0,0,0,0,0,0,0,0,0,0,0,0,0,0,0,0,0,-0.261799,3.09754,-1.5,nan,0,0,2,0,0,0,0,0,0,0,0,1.9603e-19,0,0,0,0,0
10889,-3.34297e-12,2.14801e-38,-1.61093e-06,-3.40794e-12,2.14789e-38,0,-1.13738e-13,0,0,0,0,0,0,0,0,0,0,0,0,0,0,0,0,0,0,0,0,0,-0.261799,3.09911,-1.5,nan,0,0,2,0,0,0,0,0,0,0,0,1.9603e-19,0,0,0,0,0
10910,-3.34297e-12,2.14801e-38,-1.61093e-06,-3.40794e-12,2.14789e-38,-3.96878e-12,-1.13739e-13,0,0,0,0,0,0,0,0,0,0,0,0,0,0,0,0,0,0,0,0,0,-0.261799,3.10087,-1.5,nan,0,0,2,0,0,0,0,0,0,0,0,1.9603e-19,0,0,0,0,0
10927,-3.34297e-12,2.14801e-38,-1.61093e-06,-3.40794e-12,2.14789e-38,0,-1.1374e-13,0,0,0,0,0,0,0,0,0,0,0,0,0,0,0,0,0,0,0,0,0,-0.261799,3.10224,-1.5,nan,0,0,2,0,0,0,0,0,0,0,0,1.9603e-19,0,0,0,0,0
10997,-3.34297e-12,2.14801e-38,-1.61093e-06,-3.40794e-12,2.14789e-38,-3.96878e-12,-1.1374e-13,0,0,0,0,0,0,0,0,0,0,0,0,0,0,0,0,0,0,0,0,0,-0.261799,3.10767,-1.5,nan,0,0,2,0,0,0,0,0,0,0,0,1.9603e-19,0,0,0,0,0
11014,-3.34297e-12,2.14801e-38,-1.61093e-06,-3.40794e-12,2.14789e-38,0,-1.13741e-13,0,0,0,0,0,0,0,0,0,0,0,0,0,0,0,0,0,0,0,0,0,-0.261799,3.10881,-1.5,nan,0,0,2,0,0,0,0,0,0,0,0,1.9603e-19,0,0,0,0,0
11031,-3.34297e-12,2.14801e-38,-1.61093e-06,-3.40794e-12,2.14789e-38,-3.96878e-12,-1.13741e-13,0,0,0,0,0,0,0,0,0,0,0,0,0,0,0,0,0,0,0,0,0,-0.261799,3.10991,-1.5,nan,0,0,2,0,0,0,0,0,0,0,0,1.9603e-19,0,0,0,0,0
11053,-3.34297e-12,2.14801e-38,-1.61093e-06,-3.40794e-12,2.14789e-38,0,-1.13742e-13,0,0,0,0,0,0,0,0,0,0,0,0,0,0,0,0,0,0,0,0,0,-0.261799,3.11122,-1.5,nan,0,0,2,0,0,0,0,0,0,0,0,1.9603e-19,0,0,0,0,0
11070,-3.34297e-12,2.14801e-38,-1.61093e-06,-3.40794e-12,2.14789e-38,-3.96878e-12,-1.13742e-13,0,0,0,0,0,0,0,0,0,0,0,0,0,0,0,0,0,0,0,0,0,-0.261799,3.11224,-1.5,nan,0,0,2,0,0,0,0,0,0,0,0,1.9603e-19,0,0,0,0,0
11091,-3.34297e-12,2.14801e-38,-1.61093e-06,-3.40794e-12,2.14789e-38,0,-1.13743e-13,0,0,0,0,0,0,0,0,0,0,0,0,0,0,0,0,0,0,0,0,0,-0.261799,3.11346,-1.5,nan,0,0,2,0,0,0,0,0,0,0,0,1.9603e-19,0,0,0,0,0
11108,-3.34297e-12,2.14801e-38,-1.61093e-06,-3.40794e-12,2.14789e-38,-3.96878e-12,-1.13743e-13,0,0,0,0,0,0,0,0,0,0,0,0,0,0,0,0,0,0,0,0,0,-0.261799,3.11441,-1.5,nan,0,0,2,0,0,0,0,0,0,0,0,1.9603e-19,0,0,0,0,0
11126,-3.34297e-12,2.14801e-38,-1.61093e-06,-3.40794e-12,2.14789e-38,0,-1.13744e-13,0,0,0,0,0,0,0,0,0,0,0,0,0,0,0,0,0,0,0,0,0,-0.261799,3.11537,-1.5,nan,0,0,2,0,0,0,0,0,0,0,0,1.9603e-19,0,0,0,0,0
11148,-3.34297e-12,2.14801e-38,-1.61093e-06,-3.40794e-12,2.14789e-38,-3.96878e-12,-1.13744e-13,0,0,0,0,0,0,0,0,0,0,0,0,0,0,0,0,0,0,0,0,0,-0.261799,3.11651,-1.5,nan,0,0,2,0,0,0,0,0,0,0,0,1.9603e-19,0,0,0,0,0
11165,-3.34297e-12,2.14801e-38,-1.61093e-06,-3.40794e-12,2.14789e-38,0,-1.13745e-13,0,0,0,0,0,0,0,0,0,0,0,0,0,0,0,0,0,0,0,0,0,-0.261799,3.11735,-1.5,nan,0,0,2,0,0,0,0,0,0,0,0,1.9603e-19,0,0,0,0,0
11186,-3.34297e-12,2.14801e-38,-1.61093e-06,-3.40794e-12,2.14789e-38,-3.96878e-12,-1.13745e-13,0,0,0,0,0,0,0,0,0,0,0,0,0,0,0,0,0,0,0,0,0,-0.261799,3.11836,-1.5,nan,0,0,2,0,0,0,0,0,0,0,0,1.9603e-19,0,0,0,0,0
11200,-3.34297e-12,2.14801e-38,-1.61093e-06,-3.40794e-12,2.14789e-38,0,-1.13746e-13,0,0,0,0,0,0,0,0,0,0,0,0,0,0,0,0,0,0,0,0,0,-0.261799,3.119,-1.5,nan,0,0,2,0,0,0,0,0,0,0,0,1.9603e-19,0,0,0,0,0
11215,-3.34297e-12,2.14801e-38,-1.61093e-06,-3.40794e-12,2.14789e-38,-3.96878e-12,-1.13747e-13,0,0,0,0,0,0,0,0,0,0,0,0,0,0,0,0,0,0,0,0,0,-0.261799,3.11967,-1.5,nan,0,0,2,0,0,0,0,0,0,0,0,1.9603e-19,0,0,0,0,0
11233,-3.34297e-12,2.14801e-38,-1.61093e-06,-3.40794e-12,2.14789e-38,0,-1.13747e-13,0,0,0,0,0,0,0,0,0,0,0,0,0,0,0,0,0,0,0,0,0,-0.261799,3.12045,-1.5,nan,0,0,2,0,0,0,0,0,0,0,0,1.9603e-19,0,0,0,0,0
11250,-3.34297e-12,2.14801e-38,-1.61093e-06,-3.40794e-12,2.14789e-38,-3.96878e-12,-1.13748e-13,0,0,0,0,0,0,0,0,0,0,0,0,0,0,0,0,0,0,0,0,0,-0.261799,3.12116,-1.5,nan,0,0,2,0,0,0,0,0,0,0,0,1.9603e-19,0,0,0,0,0
11267,-3.34297e-12,2.14801e-38,-1.61093e-06,-3.40794e-12,2.14789e-38,0,-1.13748e-13,0,0,0,0,0,0,0,0,0,0,0,0,0,0,0,0,0,0,0,0,0,-0.261799,3.12185,-1.5,nan,0,0,2,0,0,0,0,0,0,0,0,1.9603e-19,0,0,0,0,0
11289,-3.34297e-12,2.14801e-38,-1.61093e-06,-3.40794e-12,2.14789e-38,-3.96878e-12,-1.13749e-13,0,0,0,0,0,0,0,0,0,0,0,0,0,0,0,0,0,0,0,0,0,-0.261799,3.12267,-1.5,nan,0,0,2,0,0,0,0,0,0,0,0,1.9603e-19,0,0,0,0,0
11305,-3.34297e-12,2.14801e-38,-1.61093e-06,-3.40794e-12,2.14789e-38,0,-1.13749e-13,0,0,0,0,0,0,0,0,0,0,0,0,0,0,0,0,0,0,0,0,0,-0.261799,3.1233,-1.5,nan,0,0,2,0,0,0,0,0,0,0,0,1.9603e-19,0,0,0,0,0
11397,-3.34297e-12,2.14801e-38,-1.61093e-06,-3.40794e-12,2.14789e-38,-3.96878e-12,-1.1375e-13,0,0,0,0,0,0,0,0,0,0,0,0,0,0,0,0,0,0,0,0,0,-0.261799,3.12662,-1.5,nan,0,0,2,0,0,0,0,0,0,0,0,1.9603e-19,0,0,0,0,0
11414,-3.34297e-12,2.14801e-38,-1.61093e-06,-3.40794e-12,2.14789e-38,0,-1.1375e-13,0,0,0,0,0,0,0,0,0,0,0,0,0,0,0,0,0,0,0,0,0,-0.261799,3.12712,-1.5,nan,0,0,2,0,0,0,0,0,0,0,0,1.9603e-19,0,0,0,0,0
11432,-3.34297e-12,2.14801e-38,-1.61093e-06,-3.40794e-12,2.14789e-38,-3.96878e-12,-1.13751e-13,0,0,0,0,0,0,0,0,0,0,0,0,0,0,0,0,0,0,0,0,0,-0.261799,3.12761,-1.5,nan,0,0,2,0,0,0,0,0,0,0,0,1.9603e-19,0,0,0,0,0
11453,-3.34297e-12,2.14801e-38,-1.61093e-06,-3.40794e-12,2.14789e-38,0,-1.13751e-13,0,0,0,0,0,0,0,0,0,0,0,0,0,0,0,0,0,0,0,0,0,-0.261799,3.12821,-1.5,nan,0,0,2,0,0,0,0,0,0,0,0,1.9603e-19,0,0,0,0,0
11470,-3.34297e-12,2.14801e-38,-1.61093e-06,-3.40794e-12,2.14789e-38,-3.96878e-12,-1.13752e-13,0,0,0,0,0,0,0,0,0,0,0,0,0,0,0,0,0,0,0,0,0,-0.261799,3.12866,-1.5,nan,0,0,2,0,0,0,0,0,0,0,0,1.9603e-19,0,0,0,0,0
11491,-3.34297e-12,2.14801e-38,-1.61093e-06,-3.40794e-12,2.14789e-38,0,-1.13753e-13,0,0,0,0,0,0,0,0,0,0,0,0,0,0,0,0,0,0,0,0,0,-0.261799,3.1292,-1.5,nan,0,0,2,0,0,0,0,0,0,0,0,1.9603e-19,0,0,0,0,0
11525,-3.34297e-12,2.14801e-38,-1.61093e-06,-3.40794e-12,2.14789e-38,-3.96878e-12,-1.13753e-13,0,0,0,0,0,0,0,0,0,0,0,0,0,0,0,0,0,0,0,0,0,-0.261799,3.13003,-1.5,nan,0,0,2,0,0,0,0,0,0,0,0,1.9603e-19,0,0,0,0,0
11542,-3.34297e-12,2.14801e-38,-1.61093e-06,-3.40794e-12,2.14789e-38,0,-1.13754e-13,0,0,0,0,0,0,0,0,0,0,0,0,0,0,0,0,0,0,0,0,0,-0.261799,3.13042,-1.5,nan,0,0,2,0,0,0,0,0,0,0,0,1.9603e-19,0,0,0,0,0
11563,-3.34297e-12,2.14801e-38,-1.61093e-06,-3.40794e-12,2.14789e-38,-3.96878e-12,-1.13754e-13,0,0,0,0,0,0,0,0,0,0,0,0,0,0,0,0,0,0,0,0,0,-0.261799,3.13088,-1.5,nan,0,0,2,0,0,0,0,0,0,0,0,1.9603e-19,0,0,0,0,0
11580,-3.34297e-12,2.14801e-38,-1.61093e-06,-3.40794e-12,2.14789e-38,0,-1.13755e-13,0,0,0,0,0,0,0,0,0,0,0,0,0,0,0,0,0,0,0,0,0,-0.261799,3.13124,-1.5,nan,0,0,2,0,0,0,0,0,0,0,0,1.9603e-19,0,0,0,0,0
11671,-3.34297e-12,2.14801e-38,-1.61093e-06,-3.40794e-12,2.14789e-38,-3.96878e-12,-1.13755e-13,0,0,0,0,0,0,0,0,0,0,0,0,0,0,0,0,0,0,0,0,0,-0.261799,3.1331,-1.5,nan,0,0,2,0,0,0,0,0,0,0,0,1.9603e-19,0,0,0,0,0
11688,-3.34297e-12,2.14801e-38,-1.61093e-06,-3.40794e-12,2.14789e-38,0,-1.13756e-13,0,0,0,0,0,0,0,0,0,0,0,0,0,0,0,0,0,0,0,0,0,-0.261799,3.13338,-1.5,nan,0,0,2,0,0,0,0,0,0,0,0,1.9603e-19,0,0,0,0,0
11706,-3.34297e-12,2.14801e-38,-1.61093e-06,-3.40794e-12,2.14789e-38,-3.96878e-12,-1.13756e-13,0,0,0,0,0,0,0,0,0,0,0,0,0,0,0,0,0,0,0,0,0,-0.261799,3.13367,-1.5,nan,0,0,2,0,0,0,0,0,0,0,0,1.9603e-19,0,0,0,0,0
11726,-3.34297e-12,2.14801e-38,-1.61093e-06,-3.40794e-12,2.14789e-38,0,-1.13757e-13,0,0,0,0,0,0,0,0,0,0,0,0,0,0,0,0,0,0,0,0,0,-0.261799,3.13399,-1.5,nan,0,0,2,0,0,0,0,0,0,0,0,1.9603e-19,0,0,0,0,0
11740,-3.34297e-12,2.14801e-38,-1.61093e-06,-3.40794e-12,2.14789e-38,-3.96878e-12,-1.13757e-13,0,0,0,0,0,0,0,0,0,0,0,0,0,0,0,0,0,0,0,0,0,-0.261799,3.1342,-1.5,nan,0,0,2,0,0,0,0,0,0,0,0,1.9603e-19,0,0,0,0,0
11758,-3.34297e-12,2.14801e-38,-1.61093e-06,-3.40794e-12,2.14789e-38,0,-1.13758e-13,0,0,0,0,0,0,0,0,0,0,0,0,0,0,0,0,0,0,0,0,0,-0.261799,3.13446,-1.5,nan,0,0,2,0,0,0,0,0,0,0,0,1.9603e-19,0,0,0,0,0
11775,-3.34297e-12,2.14801e-38,-1.61093e-06,-3.40794e-12,2.14789e-38,-3.96878e-12,-1.13759e-13,0,0,0,0,0,0,0,0,0,0,0,0,0,0,0,0,0,0,0,0,0,-0.261799,3.1347,-1.5,nan,0,0,2,0,0,0,0,0,0,0,0,1.9603e-19,0,0,0,0,0
11793,-3.34297e-12,2.14801e-38,-1.61093e-06,-3.40794e-12,2.14789e-38,0,-1.13759e-13,0,0,0,0,0,0,0,0,0,0,0,0,0,0,0,0,0,0,0,0,0,-0.261799,3.13495,-1.5,nan,0,0,2,0,0,0,0,0,0,0,0,1.9603e-19,0,0,0,0,0
11835,-3.34297e-12,2.14801e-38,-1.61093e-06,-3.40794e-12,2.14789e-38,-3.96878e-12,-1.1376e-13,0,0,0,0,0,0,0,0,0,0,0,0,0,0,0,0,0,0,0,0,0,-0.261799,3.1355,-1.5,nan,0,0,2,0,0,0,0,0,0,0,0,1.9603e-19,0,0,0,0,0
11853,-3.34297e-12,2.14801e-38,-1.61093e-06,-3.40794e-12,2.14789e-38,0,-1.1376e-13,0,0,0,0,0,0,0,0,0,0,0,0,0,0,0,0,0,0,0,0,0,-0.261799,3.13571,-1.5,nan,0,0,2,0,0,0,0,0,0,0,0,1.9603e-19,0,0,0,0,0
11894,-3.34297e-12,2.14801e-38,-1.61093e-06,-3.40794e-12,2.14789e-38,-3.96878e-12,-1.13761e-13,0,0,0,0,0,0,0,0,0,0,0,0,0,0,0,0,0,0,0,0,0,-0.261799,3.13619,-1.5,nan,0,0,2,0,0,0,0,0,0,0,0,1.9603e-19,0,0,0,0,0
11911,-3.34297e-12,2.14801e-38,-1.61093e-06,-3.40794e-12,2.14789e-38,0,-1.13761e-13,0,0,0,0,0,0,0,0,0,0,0,0,0,0,0,0,0,0,0,0,0,-0.261799,3.13637,-1.5,nan,0,0,2,0,0,0,0,0,0,0,0,1.9603e-19,0,0,0,0,0
11929,-3.34297e-12,2.14801e-38,-1.61093e-06,-3.40794e-12,2.14789e-38,-3.96878e-12,-1.13762e-13,0,0,0,0,0,0,0,0,0,0,0,0,0,0,0,0,0,0,0,0,0,-0.261799,3.13655,-1.5,nan,0,0,2,0,0,0,0,0,0,0,0,1.9603e-19,0,0,0,0,0
11950,-3.34297e-12,2.14801e-38,-1.61093e-06,-3.40794e-12,2.14789e-38,0,-1.13762e-13,0,0,0,0,0,0,0,0,0,0,0,0,0,0,0,0,0,0,0,0,0,-0.261799,3.13676,-1.5,nan,0,0,2,0,0,0,0,0,0,0,0,1.9603e-19,0,0,0,0,0
11967,-3.34297e-12,2.14801e-38,-1.61093e-06,-3.40794e-12,2.14789e-38,-3.96878e-12,-1.13763e-13,0,0,0,0,0,0,0,0,0,0,0,0,0,0,0,0,0,0,0,0,0,-0.261799,3.13693,-1.5,nan,0,0,2,0,0,0,0,0,0,0,0,1.9603e-19,0,0,0,0,0
12016,-3.34297e-12,2.14801e-38,-1.61093e-06,-3.40794e-12,2.14789e-38,0,-1.13763e-13,0,0,0,0,0,0,0,0,0,0,0,0,0,0,0,0,0,0,0,0,0,-0.261799,3.13738,-1.5,nan,0,0,2,0,0,0,0,0,0,0,0,1.9603e-19,0,0,0,0,0
12068,-3.34297e-12,2.14801e-38,-1.61093e-06,-3.40794e-12,2.14789e-38,-3.96878e-12,-1.13764e-13,0,0,0,0,0,0,0,0,0,0,0,0,0,0,0,0,0,0,0,0,0,-0.261799,3.13781,-1.5,nan,0,0,2,0,0,0,0,0,0,0,0,1.9603e-19,0,0,0,0,0
12085,-3.34297e-12,2.14801e-38,-1.61093e-06,-3.40794e-12,2.14789e-38,0,-1.13764e-13,0,0,0,0,0,0,0,0,0,0,0,0,0,0,0,0,0,0,0,0,0,-0.261799,3.13793,-1.5,nan,0,0,2,0,0,0,0,0,0,0,0,1.9603e-19,0,0,0,0,0
12107,-3.34297e-12,2.14801e-38,-1.61093e-06,-3.40794e-12,2.14789e-38,-3.96878e-12,-1.13765e-13,0,0,0,0,0,0,0,0,0,0,0,0,0,0,0,0,0,0,0,0,0,-0.261799,3.13809,-1.5,nan,0,0,2,0,0,0,0,0,0,0,0,1.9603e-19,0,0,0,0,0
12124,-3.34297e-12,2.14801e-38,-1.61093e-06,-3.40794e-12,2.14789e-38,0,-1.13766e-13,0,0,0,0,0,0,0,0,0,0,0,0,0,0,0,0,0,0,0,0,0,-0.261799,3.1382,-1.5,nan,0,0,2,0,0,0,0,0,0,0,0,1.9603e-19,0,0,0,0,0
12142,-3.34297e-12,2.14801e-38,-1.61093e-06,-3.40794e-12,2.14789e-38,-3.96878e-12,-1.13766e-13,0,0,0,0,0,0,0,0,0,0,0,0,0,0,0,0,0,0,0,0,0,-0.261799,3.13832,-1.5,nan,0,0,2,0,0,0,0,0,0,0,0,1.9603e-19,0,0,0,0,0
12163,-3.34297e-12,2.14801e-38,-1.61093e-06,-3.40794e-12,2.14789e-38,0,-1.13767e-13,0,0,0,0,0,0,0,0,0,0,0,0,0,0,0,0,0,0,0,0,0,-0.261799,3.13847,-1.5,nan,0,0,2,0,0,0,0,0,0,0,0,1.9603e-19,0,0,0,0,0
12180,-3.34297e-12,2.14801e-38,-1.61093e-06,-3.40794e-12,2.14789e-38,-3.96878e-12,-1.13767e-13,0,0,0,0,0,0,0,0,0,0,0,0,0,0,0,0,0,0,0,0,0,-0.261799,3.13857,-1.5,nan,0,0,2,0,0,0,0,0,0,0,0,1.9603e-19,0,0,0,0,0
12201,-3.34297e-12,2.14801e-38,-1.61093e-06,-3.40794e-12,2.14789e-38,0,-1.13768e-13,0,0,0,0,0,0,0,0,0,0,0,0,0,0,0,0,0,0,0,0,0,-0.261799,3.1387,-1.5,nan,0,0,2,0,0,0,0,0,0,0,0,1.9603e-19,0,0,0,0,0
12224,-3.34297e-12,2.14801e-38,-1.61093e-06,-3.40794e-12,2.14789e-38,-3.96878e-12,-1.13768e-13,0,0,0,0,0,0,0,0,0,0,0,0,0,0,0,0,0,0,0,0,0,-0.261799,3.13883,-1.5,nan,0,0,2,0,0,0,0,0,0,0,0,1.9603e-19,0,0,0,0,0
12239,-3.34297e-12,2.14801e-38,-1.61093e-06,-3.40794e-12,2.14789e-38,0,-1.13769e-13,0,0,0,0,0,0,0,0,0,0,0,0,0,0,0,0,0,0,0,0,0,-0.261799,3.13891,-1.5,nan,0,0,2,0,0,0,0,0,0,0,0,1.9603e-19,0,0,0,0,0
12257,-3.34297e-12,2.14801e-38,-1.61093e-06,-3.40794e-12,2.14789e-38,-3.96878e-12,-1.13769e-13,0,0,0,0,0,0,0,0,0,0,0,0,0,0,0,0,0,0,0,0,0,-0.261799,3.13901,-1.5,nan,0,0,2,0,0,0,0,0,0,0,0,1.9603e-19,0,0,0,0,0
12274,-3.34297e-12,2.14801e-38,-1.61093e-06,-3.40794e-12,2.14789e-38,0,-1.1377e-13,0,0,0,0,0,0,0,0,0,0,0,0,0,0,0,0,0,0,0,0,0,-0.261799,3.13909,-1.5,nan,0,0,2,0,0,0,0,0,0,0,0,1.9603e-19,0,0,0,0,0
12296,-3.34297e-12,2.14801e-38,-1.61093e-06,-3.40794e-12,2.14789e-38,-3.96878e-12,-1.1377e-13,0,0,0,0,0,0,0,0,0,0,0,0,0,0,0,0,0,0,0,0,0,-0.261799,3.1392,-1.5,nan,0,0,2,0,0,0,0,0,0,0,0,1.9603e-19,0,0,0,0,0
12313,-3.34297e-12,2.14801e-38,-1.61093e-06,-3.40794e-12,2.14789e-38,0,-1.13771e-13,0,0,0,0,0,0,0,0,0,0,0,0,0,0,0,0,0,0,0,0,0,-0.261799,3.13928,-1.5,nan,0,0,2,0,0,0,0,0,0,0,0,1.9603e-19,0,0,0,0,0
12330,-3.34297e-12,2.14801e-38,-1.61093e-06,-3.40794e-12,2.14789e-38,-3.96878e-12,-1.13772e-13,0,0,0,0,0,0,0,0,0,0,0,0,0,0,0,0,0,0,0,0,0,-0.261799,3.13935,-1.5,nan,0,0,2,0,0,0,0,0,0,0,0,1.9603e-19,0,0,0,0,0
12352,-3.34297e-12,2.14801e-38,-1.61093e-06,-3.40794e-12,2.14789e-38,0,-1.13772e-13,0,0,0,0,0,0,0,0,0,0,0,0,0,0,0,0,0,0,0,0,0,-0.261799,3.13945,-1.5,nan,0,0,2,0,0,0,0,0,0,0,0,1.9603e-19,0,0,0,0,0
12370,-3.34297e-12,2.14801e-38,-1.61093e-06,-3.40794e-12,2.14789e-38,-3.96878e-12,-1.13773e-13,0,0,0,0,0,0,0,0,0,0,0,0,0,0,0,0,0,0,0,0,0,-0.261799,3.13953,-1.5,nan,0,0,2,0,0,0,0,0,0,0,0,1.9603e-19,0,0,0,0,0
12391,-3.34297e-12,2.14801e-38,-1.61093e-06,-3.40794e-12,2.14789e-38,0,-1.13773e-13,0,0,0,0,0,0,0,0,0,0,0,0,0,0,0,0,0,0,0,0,0,-0.261799,3.13961,-1.5,nan,0,0,2,0,0,0,0,0,0,0,0,1.9603e-19,0,0,0,0,0
12408,-3.34297e-12,2.14801e-38,-1.61093e-06,-3.40794e-12,2.14789e-38,-3.96878e-12,-1.13774e-13,0,0,0,0,0,0,0,0,0,0,0,0,0,0,0,0,0,0,0,0,0,-0.261799,3.13968,-1.5,nan,0,0,2,0,0,0,0,0,0,0,0,1.9603e-19,0,0,0,0,0
12426,-3.34297e-12,2.14801e-38,-1.61093e-06,-3.40794e-12,2.14789e-38,0,-1.13774e-13,0,0,0,0,0,0,0,0,0,0,0,0,0,0,0,0,0,0,0,0,0,-0.261799,3.13975,-1.5,nan,0,0,2,0,0,0,0,0,0,0,0,1.9603e-19,0,0,0,0,0
12447,-3.34297e-12,2.14801e-38,-1.61093e-06,-3.40794e-12,2.14789e-38,-3.96878e-12,-1.13775e-13,0,0,0,0,0,0,0,0,0,0,0,0,0,0,0,0,0,0,0,0,0,-0.261799,3.13982,-1.5,nan,0,0,2,0,0,0,0,0,0,0,0,1.9603e-19,0,0,0,0,0
12464,-3.34297e-12,2.14801e-38,-1.61093e-06,-3.40794e-12,2.14789e-38,0,-1.13775e-13,0,0,0,0,0,0,0,0,0,0,0,0,0,0,0,0,0,0,0,0,0,-0.261799,3.13988,-1.5,nan,0,0,2,0,0,0,0,0,0,0,0,1.9603e-19,0,0,0,0,0
12486,-3.34297e-12,2.14801e-38,-1.61093e-06,-3.40794e-12,2.14789e-38,-3.96878e-12,-1.13776e-13,0,0,0,0,0,0,0,0,0,0,0,0,0,0,0,0,0,0,0,0,0,-0.261799,3.13996,-1.5,nan,0,0,2,0,0,0,0,0,0,0,0,1.9603e-19,0,0,0,0,0
12503,-3.34297e-12,2.14801e-38,-1.61093e-06,-3.40794e-12,2.14789e-38,0,-1.13776e-13,0,0,0,0,0,0,0,0,0,0,0,0,0,0,0,0,0,0,0,0,0,-0.261799,3.14001,-1.5,nan,0,0,2,0,0,0,0,0,0,0,0,1.9603e-19,0,0,0,0,0
12521,-3.34297e-12,2.14801e-38,-1.61093e-06,-3.40794e-12,2.14789e-38,-3.96878e-12,-1.13777e-13,0,0,0,0,0,0,0,0,0,0,0,0,0,0,0,0,0,0,0,0,0,-0.261799,3.14006,-1.5,nan,0,0,2,0,0,0,0,0,0,0,0,1.9603e-19,0,0,0,0,0
12543,-3.34297e-12,2.14801e-38,-1.61093e-06,-3.40794e-12,2.14789e-38,0,-1.13777e-13,0,0,0,0,0,0,0,0,0,0,0,0,0,0,0,0,0,0,0,0,0,-0.261799,3.14013,-1.5,nan,0,0,2,0,0,0,0,0,0,0,0,1.9603e-19,0,0,0,0,0
12559,-3.34297e-12,2.14801e-38,-1.61093e-06,-3.40794e-12,2.14789e-38,-3.96878e-12,-1.13778e-13,0,0,0,0,0,0,0,0,0,0,0,0,0,0,0,0,0,0,0,0,0,-0.261799,3.14018,-1.5,nan,0,0,2,0,0,0,0,0,0,0,0,1.9603e-19,0,0,0,0,0
12599,-3.34297e-12,2.14801e-38,-1.61093e-06,-3.40794e-12,2.14789e-38,0,-1.13779e-13,0,0,0,0,0,0,0,0,0,0,0,0,0,0,0,0,0,0,0,0,0,-0.261799,3.14029,-1.5,nan,0,0,2,0,0,0,0,0,0,0,0,1.9603e-19,0,0,0,0,0
12629,-3.34297e-12,2.14801e-38,-1.61093e-06,-3.40794e-12,2.14789e-38,-3.96878e-12,-1.13779e-13,0,0,0,0,0,0,0,0,0,0,0,0,0,0,0,0,0,0,0,0,0,-0.261799,3.14037,-1.5,nan,0,0,2,0,0,0,0,0,0,0,0,1.9603e-19,0,0,0,0,0
12652,-3.34297e-12,2.14801e-38,-1.61093e-06,-3.40794e-12,2.14789e-38,0,-1.1378e-13,0,0,0,0,0,0,0,0,0,0,0,0,0,0,0,0,0,0,0,0,0,-0.261799,3.14042,-1.5,nan,0,0,2,0,0,0,0,0,0,0,0,1.9603e-19,0,0,0,0,0
12670,-3.34297e-12,2.14801e-38,-1.61093e-06,-3.40794e-12,2.14789e-38,-3.96878e-12,-1.13788e-13,0,0,0,0,0,0,0,0,0,0,0,0,0,0,0,0,0,0,0,0,0,-0.261799,3.14046,-1.5,nan,0,0,2,0,0,0,0,0,0,0,0,1.9603e-19,0,0,0,0,0
12687,-3.34297e-12,2.14801e-38,-1.61093e-06,-3.40794e-12,2.14789e-38,0,-1.13788e-13,0,0,0,0,0,0,0,0,0,0,0,0,0,0,0,0,0,0,0,0,0,-0.261799,3.1405,-1.5,nan,0,0,2,0,0,0,0,0,0,0,0,1.9603e-19,0,0,0,0,0
12705,-3.34297e-12,2.14801e-38,-1.61093e-06,-3.40794e-12,2.14789e-38,-3.96878e-12,-1.13789e-13,0,0,0,0,0,0,0,0,0,0,0,0,0,0,0,0,0,0,0,0,0,-0.261799,3.14054,-1.5,nan,0,0,2,0,0,0,0,0,0,0,0,1.9603e-19,0,0,0,0,0
12726,-3.34297e-12,2.14801e-38,-1.61093e-06,-3.40794e-12,2.14789e-38,0,-1.13789e-13,0,0,0,0,0,0,0,0,0,0,0,0,0,0,0,0,0,0,0,0,0,-0.261799,3.14058,-1.5,nan,0,0,2,0,0,0,0,0,0,0,0,1.9603e-19,0,0,0,0,0
12744,-3.34297e-12,2.14801e-38,-1.61093e-06,-3.40794e-12,2.14789e-38,-3.96878e-12,-1.1379e-13,0,0,0,0,0,0,0,0,0,0,0,0,0,0,0,0,0,0,0,0,0,-0.261799,3.14062,-1.5,nan,0,0,2,0,0,0,0,0,0,0,0,1.9603e-19,0,0,0,0,0
12777,-3.34297e-12,2.14801e-38,-1.61093e-06,-3.40794e-12,2.14789e-38,0,-1.1379e-13,0,0,0,0,0,0,0,0,0,0,0,0,0,0,0,0,0,0,0,0,0,-0.261799,3.14068,-1.5,nan,0,0,2,0,0,0,0,0,0,0,0,1.9603e-19,0,0,0,0,0
12794,-3.34297e-12,2.14801e-38,-1.61093e-06,-3.40794e-12,2.14789e-38,-3.96878e-12,-1.13791e-13,0,0,0,0,0,0,0,0,0,0,0,0,0,0,0,0,0,0,0,0,0,-0.261799,3.14071,-1.5,nan,0,0,2,0,0,0,0,0,0,0,0,1.9603e-19,0,0,0,0,0
12812,-3.34297e-12,2.14801e-38,-1.61093e-06,-3.40794e-12,2.14789e-38,0,-1.13791e-13,0,0,0,0,0,0,0,0,0,0,0,0,0,0,0,0,0,0,0,0,0,-0.261799,3.14074,-1.5,nan,0,0,2,0,0,0,0,0,0,0,0,1.9603e-19,0,0,0,0,0
12833,-3.34297e-12,2.14801e-38,-1.61093e-06,-3.40794e-12,2.14789e-38,-3.96878e-12,-1.13792e-13,0,0,0,0,0,0,0,0,0,0,0,0,0,0,0,0,0,0,0,0,0,-0.261799,3.14078,-1.5,nan,0,0,2,0,0,0,0,0,0,0,0,1.9603e-19,0,0,0,0,0
12850,-3.34297e-12,2.14801e-38,-1.61093e-06,-3.40794e-12,2.14789e-38,0,-1.13792e-13,0,0,0,0,0,0,0,0,0,0,0,0,0,0,0,0,0,0,0,0,0,-0.261799,3.14081,-1.5,nan,0,0,2,0,0,0,0,0,0,0,0,1.9603e-19,0,0,0,0,0
12871,-3.34297e-12,2.14801e-38,-1.61093e-06,-3.40794e-12,2.14789e-38,-3.96878e-12,-1.13793e-13,0,0,0,0,0,0,0,0,0,0,0,0,0,0,0,0,0,0,0,0,0,-0.261799,3.14084,-1.5,nan,0,0,2,0,0,0,0,0,0,0,0,1.9603e-19,0,0,0,0,0
12888,-3.34297e-12,2.14801e-38,-1.61093e-06,-3.40794e-12,2.14789e-38,0,-1.13794e-13,0,0,0,0,0,0,0,0,0,0,0,0,0,0,0,0,0,0,0,0,0,-0.261799,3.14086,-1.5,nan,0,0,2,0,0,0,0,0,0,0,0,1.9603e-19,0,0,0,0,0
12936,-3.34297e-12,2.14801e-38,-1.61093e-06,-3.40794e-12,2.14789e-38,-3.96878e-12,-1.13794e-13,0,0,0,0,0,0,0,0,0,0,0,0,0,0,0,0,0,0,0,0,0,-0.261799,3.14093,-1.5,nan,0,0,2,0,0,0,0,0,0,0,0,1.9603e-19,0,0,0,0,0
12971,-3.34297e-12,2.14801e-38,-1.61093e-06,-3.40794e-12,2.14789e-38,0,-1.13795e-13,0,0,0,0,0,0,0,0,0,0,0,0,0,0,0,0,0,0,0,0,0,-0.261799,3.14098,-1.5,nan,0,0,2,0,0,0,0,0,0,0,0,1.9603e-19,0,0,0,0,0
12988,-3.34297e-12,2.14801e-38,-1.61093e-06,-3.40794e-12,2.14789e-38,-3.96878e-12,-1.13795e-13,0,0,0,0,0,0,0,0,0,0,0,0,0,0,0,0,0,0,0,0,0,-0.261799,3.141,-1.5,nan,0,0,2,0,0,0,0,0,0,0,0,1.9603e-19,0,0,0,0,0
13010,-3.34297e-12,2.14801e-38,-1.61093e-06,-3.40794e-12,2.14789e-38,0,-1.13796e-13,0,0,0,0,0,0,0,0,0,0,0,0,0,0,0,0,0,0,0,0,0,-0.261799,3.14102,-1.5,nan,0,0,2,0,0,0,0,0,0,0,0,1.9603e-19,0,0,0,0,0
13027,-3.34297e-12,2.14801e-38,-1.61093e-06,-3.40794e-12,2.14789e-38,-3.96878e-12,-1.13796e-13,0,0,0,0,0,0,0,0,0,0,0,0,0,0,0,0,0,0,0,0,0,-0.261799,3.14104,-1.5,nan,0,0,2,0,0,0,0,0,0,0,0,1.9603e-19,0,0,0,0,0
13045,-3.34297e-12,2.14801e-38,-1.61093e-06,-3.40794e-12,2.14789e-38,0,-1.13797e-13,0,0,0,0,0,0,0,0,0,0,0,0,0,0,0,0,0,0,0,0,0,-0.261799,3.14106,-1.5,nan,0,0,2,0,0,0,0,0,0,0,0,1.9603e-19,0,0,0,0,0
13066,-3.34297e-12,2.14801e-38,-1.61093e-06,-3.40794e-12,2.14789e-38,-3.96878e-12,-1.13797e-13,0,0,0,0,0,0,0,0,0,0,0,0,0,0,0,0,0,0,0,0,0,-0.261799,3.14108,-1.5,nan,0,0,2,0,0,0,0,0,0,0,0,1.9603e-19,0,0,0,0,0
13079,-3.34297e-12,2.14801e-38,-1.61093e-06,-3.40794e-12,2.14789e-38,0,-1.13798e-13,0,0,0,0,0,0,0,0,0,0,0,0,0,0,0,0,0,0,0,0,0,-0.261799,3.1411,-1.5,nan,0,0,2,0,0,0,0,0,0,0,0,1.9603e-19,0,0,0,0,0
13098,-3.34297e-12,2.14801e-38,-1.61093e-06,-3.40794e-12,2.14789e-38,-3.96878e-12,-1.13798e-13,0,0,0,0,0,0,0,0,0,0,0,0,0,0,0,0,0,0,0,0,0,-0.261799,3.14111,-1.5,nan,0,0,2,0,0,0,0,0,0,0,0,1.9603e-19,0,0,0,0,0
13114,-3.34297e-12,2.14801e-38,-1.61093e-06,-3.40794e-12,2.14789e-38,0,-1.13799e-13,0,0,0,0,0,0,0,0,0,0,0,0,0,0,0,0,0,0,0,0,0,-0.261799,3.14113,-1.5,nan,0,0,2,0,0,0,0,0,0,0,0,1.9603e-19,0,0,0,0,0
13132,-3.34297e-12,2.14801e-38,-1.61093e-06,-3.40794e-12,2.14789e-38,-3.96878e-12,-1.13799e-13,0,0,0,0,0,0,0,0,0,0,0,0,0,0,0,0,0,0,0,0,0,-0.261799,3.14115,-1.5,nan,0,0,2,0,0,0,0,0,0,0,0,1.9603e-19,0,0,0,0,0
13153,-3.34297e-12,2.14801e-38,-1.61093e-06,-3.40794e-12,2.14789e-38,0,-1.138e-13,0,0,0,0,0,0,0,0,0,0,0,0,0,0,0,0,0,0,0,0,0,-0.261799,3.14117,-1.5,nan,0,0,2,0,0,0,0,0,0,0,0,1.9603e-19,0,0,0,0,0
13201,-3.34297e-12,2.14801e-38,-1.61093e-06,-3.40794e-12,2.14789e-38,-3.96878e-12,-1.13801e-13,0,0,0,0,0,0,0,0,0,0,0,0,0,0,0,0,0,0,0,0,0,-0.261799,3.14121,-1.5,nan,0,0,2,0,0,0,0,0,0,0,0,1.9603e-19,0,0,0,0,0
13222,-3.34297e-12,2.14801e-38,-1.61093e-06,-3.40794e-12,2.14789e-38,0,-1.13801e-13,0,0,0,0,0,0,0,0,0,0,0,0,0,0,0,0,0,0,0,0,0,-0.261799,3.14122,-1.5,nan,0,0,2,0,0,0,0,0,0,0,0,1.9603e-19,0,0,0,0,0
13239,-3.34297e-12,2.14801e-38,-1.61093e-06,-3.40794e-12,2.14789e-38,-3.96878e-12,-1.13802e-13,0,0,0,0,0,0,0,0,0,0,0,0,0,0,0,0,0,0,0,0,0,-0.261799,3.14123,-1.5,nan,0,0,2,0,0,0,0,0,0,0,0,1.9603e-19,0,0,0,0,0
13256,-3.34297e-12,2.14801e-38,-1.61093e-06,-3.40794e-12,2.14789e-38,0,-1.13802e-13,0,0,0,0,0,0,0,0,0,0,0,0,0,0,0,0,0,0,0,0,0,-0.261799,3.14125,-1.5,nan,0,0,2,0,0,0,0,0,0,0,0,1.9603e-19,0,0,0,0,0
13278,-3.34297e-12,2.14801e-38,-1.61093e-06,-3.40794e-12,2.14789e-38,-3.96878e-12,-1.13803e-13,0,0,0,0,0,0,0,0,0,0,0,0,0,0,0,0,0,0,0,0,0,-0.261799,3.14126,-1.5,nan,0,0,2,0,0,0,0,0,0,0,0,1.9603e-19,0,0,0,0,0
13294,-3.34297e-12,2.14801e-38,-1.61093e-06,-3.40794e-12,2.14789e-38,0,-1.13803e-13,0,0,0,0,0,0,0,0,0,0,0,0,0,0,0,0,0,0,0,0,0,-0.261799,3.14127,-1.5,nan,0,0,2,0,0,0,0,0,0,0,0,1.9603e-19,0,0,0,0,0
13312,-3.34297e-12,2.14801e-38,-1.61093e-06,-3.40794e-12,2.14789e-38,-3.96878e-12,-1.13804e-13,0,0,0,0,0,0,0,0,0,0,0,0,0,0,0,0,0,0,0,0,0,-0.261799,3.14128,-1.5,nan,0,0,2,0,0,0,0,0,0,0,0,1.9603e-19,0,0,0,0,0
13350,-3.34297e-12,2.14801e-38,-1.61093e-06,-3.40794e-12,2.14789e-38,0,-1.13804e-13,0,0,0,0,0,0,0,0,0,0,0,0,0,0,0,0,0,0,0,0,0,-0.261799,3.14131,-1.5,nan,0,0,2,0,0,0,0,0,0,0,0,1.9603e-19,0,0,0,0,0
13367,-3.34297e-12,2.14801e-38,-1.61093e-06,-3.40794e-12,2.14789e-38,-3.96878e-12,-1.13805e-13,0,0,0,0,0,0,0,0,0,0,0,0,0,0,0,0,0,0,0,0,0,-0.261799,3.14132,-1.5,nan,0,0,2,0,0,0,0,0,0,0,0,1.9603e-19,0,0,0,0,0
13388,-3.34297e-12,2.14801e-38,-1.61093e-06,-3.40794e-12,2.14789e-38,0,-1.13805e-13,0,0,0,0,0,0,0,0,0,0,0,0,0,0,0,0,0,0,0,0,0,-0.261799,3.14133,-1.5,nan,0,0,2,0,0,0,0,0,0,0,0,1.9603e-19,0,0,0,0,0
13405,-3.34297e-12,2.14801e-38,-1.61093e-06,-3.40794e-12,2.14789e-38,-3.96878e-12,-1.13806e-13,0,0,0,0,0,0,0,0,0,0,0,0,0,0,0,0,0,0,0,0,0,-0.261799,3.14134,-1.5,nan,0,0,2,0,0,0,0,0,0,0,0,1.9603e-19,0,0,0,0,0
13423,-3.34297e-12,2.14801e-38,-1.61093e-06,-3.40794e-12,2.14789e-38,0,-1.13807e-13,0,0,0,0,0,0,0,0,0,0,0,0,0,0,0,0,0,0,0,0,0,-0.261799,3.14134,-1.5,nan,0,0,2,0,0,0,0,0,0,0,0,1.9603e-19,0,0,0,0,0
13444,-3.34297e-12,2.14801e-38,-1.61093e-06,-3.40794e-12,2.14789e-38,-3.96878e-12,-1.13807e-13,0,0,0,0,0,0,0,0,0,0,0,0,0,0,0,0,0,0,0,0,0,-0.261799,3.14135,-1.5,nan,0,0,2,0,0,0,0,0,0,0,0,1.9603e-19,0,0,0,0,0
13461,-3.34297e-12,2.14801e-38,-1.61093e-06,-3.40794e-12,2.14789e-38,0,-1.13808e-13,0,0,0,0,0,0,0,0,0,0,0,0,0,0,0,0,0,0,0,0,0,-0.261799,3.14136,-1.5,nan,0,0,2,0,0,0,0,0,0,0,0,1.9603e-19,0,0,0,0,0
13481,-3.34297e-12,2.14801e-38,-1.61093e-06,-3.40794e-12,2.14789e-38,-3.96878e-12,-1.13808e-13,0,0,0,0,0,0,0,0,0,0,0,0,0,0,0,0,0,0,0,0,0,-0.261799,3.14137,-1.5,nan,0,0,2,0,0,0,0,0,0,0,0,1.9603e-19,0,0,0,0,0
13495,-3.34297e-12,2.14801e-38,-1.61093e-06,-3.40794e-12,2.14789e-38,0,-1.13809e-13,0,0,0,0,0,0,0,0,0,0,0,0,0,0,0,0,0,0,0,0,0,-0.261799,3.14138,-1.5,nan,0,0,2,0,0,0,0,0,0,0,0,1.9603e-19,0,0,0,0,0
13509,-3.34297e-12,2.14801e-38,-1.61093e-06,-3.40794e-12,2.14789e-38,-3.96878e-12,-1.13809e-13,0,0,0,0,0,0,0,0,0,0,0,0,0,0,0,0,0,0,0,0,0,-0.261799,3.14138,-1.5,nan,0,0,2,0,0,0,0,0,0,0,0,1.9603e-19,0,0,0,0,0
13527,-3.34297e-12,2.14801e-38,-1.61093e-06,-3.40794e-12,2.14789e-38,0,-1.1381e-13,0,0,0,0,0,0,0,0,0,0,0,0,0,0,0,0,0,0,0,0,0,-0.261799,3.14139,-1.5,nan,0,0,2,0,0,0,0,0,0,0,0,1.9603e-19,0,0,0,0,0
13544,-3.34297e-12,2.14801e-38,-1.61093e-06,-3.40794e-12,2.14789e-38,-3.96878e-12,-1.1381e-13,0,0,0,0,0,0,0,0,0,0,0,0,0,0,0,0,0,0,0,0,0,-0.261799,3.1414,-1.5,nan,0,0,2,0,0,0,0,0,0,0,0,1.9603e-19,0,0,0,0,0
13565,-3.34297e-12,2.14801e-38,-1.61093e-06,-3.40794e-12,2.14789e-38,0,-1.13811e-13,0,0,0,0,0,0,0,0,0,0,0,0,0,0,0,0,0,0,0,0,0,-0.261799,3.14141,-1.5,nan,0,0,2,0,0,0,0,0,0,0,0,1.9603e-19,0,0,0,0,0
13601,-3.34297e-12,2.14801e-38,-1.61093e-06,-3.40794e-12,2.14789e-38,-3.96878e-12,-1.13811e-13,0,0,0,0,0,0,0,0,0,0,0,0,0,0,0,0,0,0,0,0,0,-0.261799,3.14142,-1.5,nan,0,0,2,0,0,0,0,0,0,0,0,1.9603e-19,0,0,0,0,0
13619,-3.34297e-12,2.14801e-38,-1.61093e-06,-3.40794e-12,2.14789e-38,0,-1.13812e-13,0,0,0,0,0,0,0,0,0,0,0,0,0,0,0,0,0,0,0,0,0,-0.261799,3.14142,-1.5,nan,0,0,2,0,0,0,0,0,0,0,0,1.9603e-19,0,0,0,0,0
13660,-3.34297e-12,2.14801e-38,-1.61093e-06,-3.40794e-12,2.14789e-38,-3.96878e-12,-1.13812e-13,0,0,0,0,0,0,0,0,0,0,0,0,0,0,0,0,0,0,0,0,0,-0.261799,3.14144,-1.5,nan,0,0,2,0,0,0,0,0,0,0,0,1.9603e-19,0,0,0,0,0
13677,-3.34297e-12,2.14801e-38,-1.61093e-06,-3.40794e-12,2.14789e-38,0,-1.13813e-13,0,0,0,0,0,0,0,0,0,0,0,0,0,0,0,0,0,0,0,0,0,-0.261799,3.14144,-1.5,nan,0,0,2,0,0,0,0,0,0,0,0,1.9603e-19,0,0,0,0,0
13716,-3.34297e-12,2.14801e-38,-1.61093e-06,-3.40794e-12,2.14789e-38,-3.96878e-12,-1.13814e-13,0,0,0,0,0,0,0,0,0,0,0,0,0,0,0,0,0,0,0,0,0,-0.261799,3.14145,-1.5,nan,0,0,2,0,0,0,0,0,0,0,0,1.9603e-19,0,0,0,0,0
13733,-3.34297e-12,2.14801e-38,-1.61093e-06,-3.40794e-12,2.14789e-38,0,-1.13814e-13,0,0,0,0,0,0,0,0,0,0,0,0,0,0,0,0,0,0,0,0,0,-0.261799,3.14146,-1.5,nan,0,0,2,0,0,0,0,0,0,0,0,1.9603e-19,0,0,0,0,0
13781,-3.34297e-12,2.14801e-38,-1.61093e-06,-3.40794e-12,2.14789e-38,-3.96878e-12,-1.13815e-13,0,0,0,0,0,0,0,0,0,0,0,0,0,0,0,0,0,0,0,0,0,-0.261799,3.14147,-1.5,nan,0,0,2,0,0,0,0,0,0,0,0,1.9603e-19,0,0,0,0,0
13803,-3.34297e-12,2.14801e-38,-1.61093e-06,-3.40794e-12,2.14789e-38,0,-1.13815e-13,0,0,0,0,0,0,0,0,0,0,0,0,0,0,0,0,0,0,0,0,0,-0.261799,3.14148,-1.5,nan,0,0,2,0,0,0,0,0,0,0,0,1.9603e-19,0,0,0,0,0
13820,-3.34297e-12,2.14801e-38,-1.61093e-06,-3.40794e-12,2.14789e-38,-3.96878e-12,-1.13816e-13,0,0,0,0,0,0,0,0,0,0,0,0,0,0,0,0,0,0,0,0,0,-0.261799,3.14148,-1.5,nan,0,0,2,0,0,0,0,0,0,0,0,1.9603e-19,0,0,0,0,0
13841,-3.34297e-12,2.14801e-38,-1.61093e-06,-3.40794e-12,2.14789e-38,0,-1.13816e-13,0,0,0,0,0,0,0,0,0,0,0,0,0,0,0,0,0,0,0,0,0,-0.261799,3.14148,-1.5,nan,0,0,2,0,0,0,0,0,0,0,0,1.9603e-19,0,0,0,0,0
13858,-3.34297e-12,2.14801e-38,-1.61093e-06,-3.40794e-12,2.14789e-38,-3.96878e-12,-1.13817e-13,0,0,0,0,0,0,0,0,0,0,0,0,0,0,0,0,0,0,0,0,0,-0.261799,3.14149,-1.5,nan,0,0,2,0,0,0,0,0,0,0,0,1.9603e-19,0,0,0,0,0
13907,-3.34297e-12,2.14801e-38,-1.61093e-06,-3.40794e-12,2.14789e-38,0,-1.13817e-13,0,0,0,0,0,0,0,0,0,0,0,0,0,0,0,0,0,0,0,0,0,-0.261799,3.1415,-1.5,nan,0,0,2,0,0,0,0,0,0,0,0,1.9603e-19,0,0,0,0,0
13929,-3.34297e-12,2.14801e-38,-1.61093e-06,-3.40794e-12,2.14789e-38,-3.96878e-12,-1.13818e-13,0,0,0,0,0,0,0,0,0,0,0,0,0,0,0,0,0,0,0,0,0,-0.261799,3.1415,-1.5,nan,0,0,2,0,0,0,0,0,0,0,0,1.9603e-19,0,0,0,0,0
13946,-3.34297e-12,2.14801e-38,-1.61093e-06,-3.40794e-12,2.14789e-38,0,-1.13818e-13,0,0,0,0,0,0,0,0,0,0,0,0,0,0,0,0,0,0,0,0,0,-0.261799,3.1415,-1.5,nan,0,0,2,0,0,0,0,0,0,0,0,1.9603e-19,0,0,0,0,0
13964,-3.34297e-12,2.14801e-38,-1.61093e-06,-3.40794e-12,2.14789e-38,-3.96878e-12,-1.13819e-13,0,0,0,0,0,0,0,0,0,0,0,0,0,0,0,0,0,0,0,0,0,-0.261799,3.14151,-1.5,nan,0,0,2,0,0,0,0,0,0,0,0,1.9603e-19,0,0,0,0,0
13985,-3.34297e-12,2.14801e-38,-1.61093e-06,-3.40794e-12,2.14789e-38,0,-1.1382e-13,0,0,0,0,0,0,0,0,0,0,0,0,0,0,0,0,0,0,0,0,0,-0.261799,3.14151,-1.5,nan,0,0,2,0,0,0,0,0,0,0,0,1.9603e-19,0,0,0,0,0
14000,-3.34297e-12,2.14801e-38,-1.61093e-06,-3.40794e-12,2.14789e-38,-3.96878e-12,-1.1382e-13,0,0,0,0,0,0,0,0,0,0,0,0,0,0,0,0,0,0,0,0,0,-0.261799,3.14151,-1.5,nan,0,0,2,0,0,0,0,0,0,0,0,1.9603e-19,0,0,0,0,0
14018,-3.34297e-12,2.14801e-38,-1.61093e-06,-3.40794e-12,2.14789e-38,0,-1.13821e-13,0,0,0,0,0,0,0,0,0,0,0,0,0,0,0,0,0,0,0,0,0,-0.261799,3.14152,-1.5,nan,0,0,2,0,0,0,0,0,0,0,0,1.9603e-19,0,0,0,0,0
14035,-3.34297e-12,2.14801e-38,-1.61093e-06,-3.40794e-12,2.14789e-38,-3.96878e-12,-1.13821e-13,0,0,0,0,0,0,0,0,0,0,0,0,0,0,0,0,0,0,0,0,0,-0.261799,3.14152,-1.5,nan,0,0,2,0,0,0,0,0,0,0,0,1.9603e-19,0,0,0,0,0
14053,-3.34297e-12,2.14801e-38,-1.61093e-06,-3.40794e-12,2.14789e-38,0,-1.13822e-13,0,0,0,0,0,0,0,0,0,0,0,0,0,0,0,0,0,0,0,0,0,-0.261799,3.14152,-1.5,nan,0,0,2,0,0,0,0,0,0,0,0,1.9603e-19,0,0,0,0,0
14074,-3.34297e-12,2.14801e-38,-1.61093e-06,-3.40794e-12,2.14789e-38,-3.96878e-12,-1.13822e-13,0,0,0,0,0,0,0,0,0,0,0,0,0,0,0,0,0,0,0,0,0,-0.261799,3.14152,-1.5,nan,0,0,2,0,0,0,0,0,0,0,0,1.9603e-19,0,0,0,0,0
14109,-3.34297e-12,2.14801e-38,-1.61093e-06,-3.40794e-12,2.14789e-38,0,-1.13823e-13,0,0,0,0,0,0,0,0,0,0,0,0,0,0,0,0,0,0,0,0,0,-0.261799,3.14153,-1.5,nan,0,0,2,0,0,0,0,0,0,0,0,1.9603e-19,0,0,0,0,0
14131,-3.34297e-12,2.14801e-38,-1.61093e-06,-3.40794e-12,2.14789e-38,-3.96878e-12,-1.13823e-13,0,0,0,0,0,0,0,0,0,0,0,0,0,0,0,0,0,0,0,0,0,-0.261799,3.14153,-1.5,nan,0,0,2,0,0,0,0,0,0,0,0,1.9603e-19,0,0,0,0,0
14148,-3.34297e-12,2.14801e-38,-1.61093e-06,-3.40794e-12,2.14789e-38,0,-1.13824e-13,0,0,0,0,0,0,0,0,0,0,0,0,0,0,0,0,0,0,0,0,0,-0.261799,3.14153,-1.5,nan,0,0,2,0,0,0,0,0,0,0,0,1.9603e-19,0,0,0,0,0
14166,-3.34297e-12,2.14801e-38,-1.61093e-06,-3.40794e-12,2.14789e-38,-3.96878e-12,-1.13824e-13,0,0,0,0,0,0,0,0,0,0,0,0,0,0,0,0,0,0,0,0,0,-0.261799,3.14153,-1.5,nan,0,0,2,0,0,0,0,0,0,0,0,1.9603e-19,0,0,0,0,0
14187,-3.34297e-12,2.14801e-38,-1.61093e-06,-3.40794e-12,2.14789e-38,0,-1.13825e-13,0,0,0,0,0,0,0,0,0,0,0,0,0,0,0,0,0,0,0,0,0,-0.261799,3.14154,-1.5,nan,0,0,2,0,0,0,0,0,0,0,0,1.9603e-19,0,0,0,0,0
14204,-3.34297e-12,2.14801e-38,-1.61093e-06,-3.40794e-12,2.14789e-38,-3.96878e-12,-1.13826e-13,0,0,0,0,0,0,0,0,0,0,0,0,0,0,0,0,0,0,0,0,0,-0.261799,3.14154,-1.5,nan,0,0,2,0,0,0,0,0,0,0,0,1.9603e-19,0,0,0,0,0
14226,-3.34297e-12,2.14801e-38,-1.61093e-06,-3.40794e-12,2.14789e-38,0,-1.13826e-13,0,0,0,0,0,0,0,0,0,0,0,0,0,0,0,0,0,0,0,0,0,-0.261799,3.14154,-1.5,nan,0,0,2,0,0,0,0,0,0,0,0,1.9603e-19,0,0,0,0,0
14243,-3.34297e-12,2.14801e-38,-1.61093e-06,-3.40794e-12,2.14789e-38,-3.96878e-12,-1.13827e-13,0,0,0,0,0,0,0,0,0,0,0,0,0,0,0,0,0,0,0,0,0,-0.261799,3.14154,-1.5,nan,0,0,2,0,0,0,0,0,0,0,0,1.9603e-19,0,0,0,0,0
14260,-3.34297e-12,2.14801e-38,-1.61093e-06,-3.40794e-12,2.14789e-38,0,-1.13827e-13,0,0,0,0,0,0,0,0,0,0,0,0,0,0,0,0,0,0,0,0,0,-0.261799,3.14154,-1.5,nan,0,0,2,0,0,0,0,0,0,0,0,1.9603e-19,0,0,0,0,0
14282,-3.34297e-12,2.14801e-38,-1.61093e-06,-3.40794e-12,2.14789e-38,-3.96878e-12,-1.13828e-13,0,0,0,0,0,0,0,0,0,0,0,0,0,0,0,0,0,0,0,0,0,-0.261799,3.14155,-1.5,nan,0,0,2,0,0,0,0,0,0,0,0,1.9603e-19,0,0,0,0,0
14299,-3.34297e-12,2.14801e-38,-1.61093e-06,-3.40794e-12,2.14789e-38,0,-1.13828e-13,0,0,0,0,0,0,0,0,0,0,0,0,0,0,0,0,0,0,0,0,0,-0.261799,3.14155,-1.5,nan,0,0,2,0,0,0,0,0,0,0,0,1.9603e-19,0,0,0,0,0
14348,-3.34297e-12,2.14801e-38,-1.61093e-06,-3.40794e-12,2.14789e-38,-3.96878e-12,-1.13829e-13,0,0,0,0,0,0,0,0,0,0,0,0,0,0,0,0,0,0,0,0,0,-0.261799,3.14155,-1.5,nan,0,0,2,0,0,0,0,0,0,0,0,1.9603e-19,0,0,0,0,0
14365,-3.34297e-12,2.14801e-38,-1.61093e-06,-3.40794e-12,2.14789e-38,0,-1.13829e-13,0,0,0,0,0,0,0,0,0,0,0,0,0,0,0,0,0,0,0,0,0,-0.261799,3.14155,-1.5,nan,0,0,2,0,0,0,0,0,0,0,0,1.9603e-19,0,0,0,0,0
14383,-3.34297e-12,2.14801e-38,-1.61093e-06,-3.40794e-12,2.14789e-38,-3.96878e-12,-1.1383e-13,0,0,0,0,0,0,0,0,0,0,0,0,0,0,0,0,0,0,0,0,0,-0.261799,3.14156,-1.5,nan,0,0,2,0,0,0,0,0,0,0,0,1.9603e-19,0,0,0,0,0
14404,-3.34297e-12,2.14801e-38,-1.61093e-06,-3.40794e-12,2.14789e-38,0,-1.1383e-13,0,0,0,0,0,0,0,0,0,0,0,0,0,0,0,0,0,0,0,0,0,-0.261799,3.14156,-1.5,nan,0,0,2,0,0,0,0,0,0,0,0,1.9603e-19,0,0,0,0,0
14453,-3.34297e-12,2.14801e-38,-1.61093e-06,-3.40794e-12,2.14789e-38,-3.96878e-12,-1.13831e-13,0,0,0,0,0,0,0,0,0,0,0,0,0,0,0,0,0,0,0,0,0,-0.261799,3.14156,-1.5,nan,0,0,2,0,0,0,0,0,0,0,0,1.9603e-19,0,0,0,0,0
14471,-3.34297e-12,2.14801e-38,-1.61093e-06,-3.40794e-12,2.14789e-38,0,-1.13831e-13,0,0,0,0,0,0,0,0,0,0,0,0,0,0,0,0,0,0,0,0,0,-0.261799,3.14156,-1.5,nan,0,0,2,0,0,0,0,0,0,0,0,1.9603e-19,0,0,0,0,0
14498,-3.34297e-12,2.14801e-38,-1.61093e-06,-3.40794e-12,2.14789e-38,-3.96878e-12,-1.13832e-13,0,0,0,0,0,0,0,0,0,0,0,0,0,0,0,0,0,0,0,0,0,-0.261799,3.14156,-1.5,nan,0,0,2,0,0,0,0,0,0,0,0,1.9603e-19,0,0,0,0,0
14548,-3.34297e-12,2.14801e-38,-1.61093e-06,-3.40794e-12,2.14789e-38,0,-1.13833e-13,0,0,0,0,0,0,0,0,0,0,0,0,0,0,0,0,0,0,0,0,0,-0.261799,3.14157,-1.5,nan,0,0,2,0,0,0,0,0,0,0,0,1.9603e-19,0,0,0,0,0
14570,-3.34297e-12,2.14801e-38,-1.61093e-06,-3.40794e-12,2.14789e-38,-3.96878e-12,-1.13833e-13,0,0,0,0,0,0,0,0,0,0,0,0,0,0,0,0,0,0,0,0,0,-0.261799,3.14157,-1.5,nan,0,0,2,0,0,0,0,0,0,0,0,1.9603e-19,0,0,0,0,0
14586,-3.34297e-12,2.14801e-38,-1.61093e-06,-3.40794e-12,2.14789e-38,0,-1.13834e-13,0,0,0,0,0,0,0,0,0,0,0,0,0,0,0,0,0,0,0,0,0,-0.261799,3.14157,-1.5,nan,0,0,2,0,0,0,0,0,0,0,0,1.9603e-19,0,0,0,0,0
14605,-3.34297e-12,2.14801e-38,-1.61093e-06,-3.40794e-12,2.14789e-38,-3.96878e-12,-1.13834e-13,0,0,0,0,0,0,0,0,0,0,0,0,0,0,0,0,0,0,0,0,0,-0.261799,3.14157,-1.5,nan,0,0,2,0,0,0,0,0,0,0,0,1.9603e-19,0,0,0,0,0
14626,-3.34297e-12,2.14801e-38,-1.61093e-06,-3.40794e-12,2.14789e-38,0,-1.13835e-13,0,0,0,0,0,0,0,0,0,0,0,0,0,0,0,0,0,0,0,0,0,-0.261799,3.14157,-1.5,nan,0,0,2,0,0,0,0,0,0,0,0,1.9603e-19,0,0,0,0,0
14659,-3.34297e-12,2.14801e-38,-1.61093e-06,-3.40794e-12,2.14789e-38,-3.96878e-12,-1.13835e-13,0,0,0,0,0,0,0,0,0,0,0,0,0,0,0,0,0,0,0,0,0,-0.261799,3.14157,-1.5,nan,0,0,2,0,0,0,0,0,0,0,0,1.9603e-19,0,0,0,0,0
14699,-3.34297e-12,2.14801e-38,-1.61093e-06,-3.40794e-12,2.14789e-38,0,-1.13836e-13,0,0,0,0,0,0,0,0,0,0,0,0,0,0,0,0,0,0,0,0,0,-0.261799,3.14157,-1.5,nan,0,0,2,0,0,0,0,0,0,0,0,1.9603e-19,0,0,0,0,0
14716,-3.34297e-12,2.14801e-38,-1.61093e-06,-3.40794e-12,2.14789e-38,-3.96878e-12,-1.13836e-13,0,0,0,0,0,0,0,0,0,0,0,0,0,0,0,0,0,0,0,0,0,-0.261799,3.14157,-1.5,nan,0,0,2,0,0,0,0,0,0,0,0,1.9603e-19,0,0,0,0,0
14734,-3.34297e-12,2.14801e-38,-1.61093e-06,-3.40794e-12,2.14789e-38,0,-1.13837e-13,0,0,0,0,0,0,0,0,0,0,0,0,0,0,0,0,0,0,0,0,0,-0.261799,3.14157,-1.5,nan,0,0,2,0,0,0,0,0,0,0,0,1.9603e-19,0,0,0,0,0
14755,-3.34297e-12,2.14801e-38,-1.61093e-06,-3.40794e-12,2.14789e-38,-3.96878e-12,-1.13837e-13,0,0,0,0,0,0,0,0,0,0,0,0,0,0,0,0,0,0,0,0,0,-0.261799,3.14157,-1.5,nan,0,0,2,0,0,0,0,0,0,0,0,1.9603e-19,0,0,0,0,0
14772,-3.34297e-12,2.14801e-38,-1.61093e-06,-3.40794e-12,2.14789e-38,0,-1.13838e-13,0,0,0,0,0,0,0,0,0,0,0,0,0,0,0,0,0,0,0,0,0,-0.261799,3.14157,-1.5,nan,0,0,2,0,0,0,0,0,0,0,0,1.9603e-19,0,0,0,0,0
14793,-3.34297e-12,2.14801e-38,-1.61093e-06,-3.40794e-12,2.14789e-38,-3.96878e-12,-1.13839e-13,0,0,0,0,0,0,0,0,0,0,0,0,0,0,0,0,0,0,0,0,0,-0.261799,3.14157,-1.5,nan,0,0,2,0,0,0,0,0,0,0,0,1.9603e-19,0,0,0,0,0
14811,-3.34297e-12,2.14801e-38,-1.61093e-06,-3.40794e-12,2.14789e-38,0,-1.13839e-13,0,0,0,0,0,0,0,0,0,0,0,0,0,0,0,0,0,0,0,0,0,-0.261799,3.14157,-1.5,nan,0,0,2,0,0,0,0,0,0,0,0,1.9603e-19,0,0,0,0,0
14828,-3.34297e-12,2.14801e-38,-1.61093e-06,-3.40794e-12,2.14789e-38,-3.96878e-12,-1.1384e-13,0,0,0,0,0,0,0,0,0,0,0,0,0,0,0,0,0,0,0,0,0,-0.261799,3.14157,-1.5,nan,0,0,2,0,0,0,0,0,0,0,0,1.9603e-19,0,0,0,0,0
14881,-3.34297e-12,2.14801e-38,-1.61093e-06,-3.40794e-12,2.14789e-38,0,-1.1384e-13,0,0,0,0,0,0,0,0,0,0,0,0,0,0,0,0,0,0,0,0,0,-0.261799,3.14157,-1.5,nan,0,0,2,0,0,0,0,0,0,0,0,1.9603e-19,0,0,0,0,0
14898,-3.34297e-12,2.14801e-38,-1.61093e-06,-3.40794e-12,2.14789e-38,-3.96878e-12,-1.13841e-13,0,0,0,0,0,0,0,0,0,0,0,0,0,0,0,0,0,0,0,0,0,-0.261799,3.14157,-1.5,nan,0,0,2,0,0,0,0,0,0,0,0,1.9603e-19,0,0,0,0,0
14969,-3.34297e-12,2.14801e-38,-1.61093e-06,-3.40794e-12,2.14789e-38,0,-1.13841e-13,0,0,0,0,0,0,0,0,0,0,0,0,0,0,0,0,0,0,0,0,0,-0.261799,3.14158,-1.5,nan,0,0,2,0,0,0,0,0,0,0,0,1.9603e-19,0,0,0,0,0
14983,-3.34297e-12,2.14801e-38,-1.61093e-06,-3.40794e-12,2.14789e-38,-3.96878e-12,-1.13842e-13,0,0,0,0,0,0,0,0,0,0,0,0,0,0,0,0,0,0,0,0,0,-0.261799,3.14158,-1.5,nan,0,0,2,0,0,0,0,0,0,0,0,1.9603e-19,0,0,0,0,0
14997,-3.34297e-12,2.14801e-38,-1.61093e-06,-3.40794e-12,2.14789e-38,0,-1.13842e-13,0,0,0,0,0,0,0,0,0,0,0,0,0,0,0,0,0,0,0,0,0,-0.261799,3.14158,-1.5,nan,0,0,2,0,0,0,0,0,0,0,0,1.9603e-19,0,0,0,0,0
15016,-3.34297e-12,2.14801e-38,-1.61093e-06,-3.40794e-12,2.14789e-38,-3.96878e-12,-1.13843e-13,0,0,0,0,0,0,0,0,0,0,0,0,0,0,0,0,0,0,0,0,0,-0.261799,3.14158,-1.5,nan,0,0,2,0,0,0,0,0,0,0,0,1.9603e-19,0,0,0,0,0
15064,-3.34297e-12,2.14801e-38,-1.61093e-06,-3.40794e-12,2.14789e-38,0,-1.13843e-13,0,0,0,0,0,0,0,0,0,0,0,0,0,0,0,0,0,0,0,0,0,-0.261799,3.14158,-1.5,nan,0,0,2,0,0,0,0,0,0,0,0,1.9603e-19,0,0,0,0,0
15085,-3.34297e-12,2.14801e-38,-1.61093e-06,-3.40794e-12,2.14789e-38,-3.96878e-12,-1.13844e-13,0,0,0,0,0,0,0,0,0,0,0,0,0,0,0,0,0,0,0,0,0,-0.261799,3.14158,-1.5,nan,0,0,2,0,0,0,0,0,0,0,0,1.9603e-19,0,0,0,0,0
15103,-3.34297e-12,2.14801e-38,-1.61093e-06,-3.40794e-12,2.14789e-38,0,-1.13844e-13,0,0,0,0,0,0,0,0,0,0,0,0,0,0,0,0,0,0,0,0,0,-0.261799,3.14158,-1.5,nan,0,0,2,0,0,0,0,0,0,0,0,1.9603e-19,0,0,0,0,0
15120,-3.34297e-12,2.14801e-38,-1.61093e-06,-3.40794e-12,2.14789e-38,-3.96878e-12,-1.13845e-13,0,0,0,0,0,0,0,0,0,0,0,0,0,0,0,0,0,0,0,0,0,-0.261799,3.14158,-1.5,nan,0,0,2,0,0,0,0,0,0,0,0,1.9603e-19,0,0,0,0,0
15142,-3.34297e-12,2.14801e-38,-1.61093e-06,-3.40794e-12,2.14789e-38,0,-1.13846e-13,0,0,0,0,0,0,0,0,0,0,0,0,0,0,0,0,0,0,0,0,0,-0.261799,3.14158,-1.5,nan,0,0,2,0,0,0,0,0,0,0,0,1.9603e-19,0,0,0,0,0
15159,-3.34297e-12,2.14801e-38,-1.61093e-06,-3.40794e-12,2.14789e-38,-3.96878e-12,-1.13846e-13,0,0,0,0,0,0,0,0,0,0,0,0,0,0,0,0,0,0,0,0,0,-0.261799,3.14158,-1.5,nan,0,0,2,0,0,0,0,0,0,0,0,1.9603e-19,0,0,0,0,0
15181,-3.34297e-12,2.14801e-38,-1.61093e-06,-3.40794e-12,2.14789e-38,0,-1.13847e-13,0,0,0,0,0,0,0,0,0,0,0,0,0,0,0,0,0,0,0,0,0,-0.261799,3.14158,-1.5,nan,0,0,2,0,0,0,0,0,0,0,0,1.9603e-19,0,0,0,0,0
15198,-3.34297e-12,2.14801e-38,-1.61093e-06,-3.40794e-12,2.14789e-38,-3.96878e-12,-1.13847e-13,0,0,0,0,0,0,0,0,0,0,0,0,0,0,0,0,0,0,0,0,0,-0.261799,3.14158,-1.5,nan,0,0,2,0,0,0,0,0,0,0,0,1.9603e-19,0,0,0,0,0
15216,-3.34297e-12,2.14801e-38,-1.61093e-06,-3.40794e-12,2.14789e-38,0,-1.13848e-13,0,0,0,0,0,0,0,0,0,0,0,0,0,0,0,0,0,0,0,0,0,-0.261799,3.14158,-1.5,nan,0,0,2,0,0,0,0,0,0,0,0,1.9603e-19,0,0,0,0,0
15237,-3.34297e-12,2.14801e-38,-1.61093e-06,-3.40794e-12,2.14789e-38,-3.96878e-12,-1.13848e-13,0,0,0,0,0,0,0,0,0,0,0,0,0,0,0,0,0,0,0,0,0,-0.261799,3.14158,-1.5,nan,0,0,2,0,0,0,0,0,0,0,0,1.9603e-19,0,0,0,0,0
15254,-3.34297e-12,2.14801e-38,-1.61093e-06,-3.40794e-12,2.14789e-38,0,-1.13849e-13,0,0,0,0,0,0,0,0,0,0,0,0,0,0,0,0,0,0,0,0,0,-0.261799,3.14158,-1.5,nan,0,0,2,0,0,0,0,0,0,0,0,1.9603e-19,0,0,0,0,0
15272,-3.34297e-12,2.14801e-38,-1.61093e-06,-3.40794e-12,2.14789e-38,-3.96878e-12,-1.13849e-13,0,0,0,0,0,0,0,0,0,0,0,0,0,0,0,0,0,0,0,0,0,-0.261799,3.14158,-1.5,nan,0,0,2,0,0,0,0,0,0,0,0,1.9603e-19,0,0,0,0,0
15293,-3.34297e-12,2.14801e-38,-1.61093e-06,-3.40794e-12,2.14789e-38,0,-1.1385e-13,0,0,0,0,0,0,0,0,0,0,0,0,0,0,0,0,0,0,0,0,0,-0.261799,3.14158,-1.5,nan,0,0,2,0,0,0,0,0,0,0,0,1.9603e-19,0,0,0,0,0
15329,-3.34297e-12,2.14801e-38,-1.61093e-06,-3.40794e-12,2.14789e-38,-3.96878e-12,-1.1385e-13,0,0,0,0,0,0,0,0,0,0,0,0,0,0,0,0,0,0,0,0,0,-0.261799,3.14158,-1.5,nan,0,0,2,0,0,0,0,0,0,0,0,1.9603e-19,0,0,0,0,0
15351,-3.34297e-12,2.14801e-38,-1.61093e-06,-3.40794e-12,2.14789e-38,0,-1.13851e-13,0,0,0,0,0,0,0,0,0,0,0,0,0,0,0,0,0,0,0,0,0,-0.261799,3.14158,-1.5,nan,0,0,2,0,0,0,0,0,0,0,0,1.9603e-19,0,0,0,0,0
15368,-3.34297e-12,2.14801e-38,-1.61093e-06,-3.40794e-12,2.14789e-38,-3.96878e-12,-1.13852e-13,0,0,0,0,0,0,0,0,0,0,0,0,0,0,0,0,0,0,0,0,0,-0.261799,3.14158,-1.5,nan,0,0,2,0,0,0,0,0,0,0,0,1.9603e-19,0,0,0,0,0
15385,-3.34297e-12,2.14801e-38,-1.61093e-06,-3.40794e-12,2.14789e-38,0,-1.13852e-13,0,0,0,0,0,0,0,0,0,0,0,0,0,0,0,0,0,0,0,0,0,-0.261799,3.14158,-1.5,nan,0,0,2,0,0,0,0,0,0,0,0,1.9603e-19,0,0,0,0,0
15406,-3.34297e-12,2.14801e-38,-1.61093e-06,-3.40794e-12,2.14789e-38,-3.96878e-12,-1.13853e-13,0,0,0,0,0,0,0,0,0,0,0,0,0,0,0,0,0,0,0,0,0,-0.261799,3.14158,-1.5,nan,0,0,2,0,0,0,0,0,0,0,0,1.9603e-19,0,0,0,0,0
15420,-3.34297e-12,2.14801e-38,-1.61093e-06,-3.40794e-12,2.14789e-38,0,-1.13853e-13,0,0,0,0,0,0,0,0,0,0,0,0,0,0,0,0,0,0,0,0,0,-0.261799,3.14158,-1.5,nan,0,0,2,0,0,0,0,0,0,0,0,1.9603e-19,0,0,0,0,0
15438,-3.34297e-12,2.14801e-38,-1.61093e-06,-3.40794e-12,2.14789e-38,-3.96878e-12,-1.13854e-13,0,0,0,0,0,0,0,0,0,0,0,0,0,0,0,0,0,0,0,0,0,-0.261799,3.14158,-1.5,nan,0,0,2,0,0,0,0,0,0,0,0,1.9603e-19,0,0,0,0,0
15455,-3.34297e-12,2.14801e-38,-1.61093e-06,-3.40794e-12,2.14789e-38,0,-1.13854e-13,0,0,0,0,0,0,0,0,0,0,0,0,0,0,0,0,0,0,0,0,0,-0.261799,3.14158,-1.5,nan,0,0,2,0,0,0,0,0,0,0,0,1.9603e-19,0,0,0,0,0
15473,-3.34297e-12,2.14801e-38,-1.61093e-06,-3.40794e-12,2.14789e-38,-3.96878e-12,-1.13855e-13,0,0,0,0,0,0,0,0,0,0,0,0,0,0,0,0,0,0,0,0,0,-0.261799,3.14158,-1.5,nan,0,0,2,0,0,0,0,0,0,0,0,1.9603e-19,0,0,0,0,0
15494,-3.34297e-12,2.14801e-38,-1.61093e-06,-3.40794e-12,2.14789e-38,0,-1.13855e-13,0,0,0,0,0,0,0,0,0,0,0,0,0,0,0,0,0,0,0,0,0,-0.261799,3.14158,-1.5,nan,0,0,2,0,0,0,0,0,0,0,0,1.9603e-19,0,0,0,0,0
15511,-3.34297e-12,2.14801e-38,-1.61093e-06,-3.40794e-12,2.14789e-38,-3.96878e-12,-1.13856e-13,0,0,0,0,0,0,0,0,0,0,0,0,0,0,0,0,0,0,0,0,0,-0.261799,3.14158,-1.5,nan,0,0,2,0,0,0,0,0,0,0,0,1.9603e-19,0,0,0,0,0
15532,-3.34297e-12,2.14801e-38,-1.61093e-06,-3.40794e-12,2.14789e-38,0,-1.13856e-13,0,0,0,0,0,0,0,0,0,0,0,0,0,0,0,0,0,0,0,0,0,-0.261799,3.14158,-1.5,nan,0,0,2,0,0,0,0,0,0,0,0,1.9603e-19,0,0,0,0,0
15569,-3.34297e-12,2.14801e-38,-1.61093e-06,-3.40794e-12,2.14789e-38,-3.96878e-12,-1.13857e-13,0,0,0,0,0,0,0,0,0,0,0,0,0,0,0,0,0,0,0,0,0,-0.261799,3.14158,-1.5,nan,0,0,2,0,0,0,0,0,0,0,0,1.9603e-19,0,0,0,0,0
15617,-3.34297e-12,2.14801e-38,-1.61093e-06,-3.40794e-12,2.14789e-38,0,-1.13857e-13,0,0,0,0,0,0,0,0,0,0,0,0,0,0,0,0,0,0,0,0,0,-0.261799,3.14158,-1.5,nan,0,0,2,0,0,0,0,0,0,0,0,1.9603e-19,0,0,0,0,0
15639,-3.34297e-12,2.14801e-38,-1.61093e-06,-3.40794e-12,2.14789e-38,-3.96878e-12,-1.13858e-13,0,0,0,0,0,0,0,0,0,0,0,0,0,0,0,0,0,0,0,0,0,-0.261799,3.14158,-1.5,nan,0,0,2,0,0,0,0,0,0,0,0,1.9603e-19,0,0,0,0,0
15656,-3.34297e-12,2.14801e-38,-1.61093e-06,-3.40794e-12,2.14789e-38,0,-1.13859e-13,0,0,0,0,0,0,0,0,0,0,0,0,0,0,0,0,0,0,0,0,0,-0.261799,3.14158,-1.5,nan,0,0,2,0,0,0,0,0,0,0,0,1.9603e-19,0,0,0,0,0
15677,-3.34297e-12,2.14801e-38,-1.61093e-06,-3.40794e-12,2.14789e-38,-3.96878e-12,-1.13859e-13,0,0,0,0,0,0,0,0,0,0,0,0,0,0,0,0,0,0,0,0,0,-0.261799,3.14159,-1.5,nan,0,0,2,0,0,0,0,0,0,0,0,1.9603e-19,0,0,0,0,0
15712,-3.34297e-12,2.14801e-38,-1.61093e-06,-3.40794e-12,2.14789e-38,0,-1.1386e-13,0,0,0,0,0,0,0,0,0,0,0,0,0,0,0,0,0,0,0,0,0,-0.261799,3.14159,-1.5,nan,0,0,2,0,0,0,0,0,0,0,0,1.9603e-19,0,0,0,0,0
15740,-3.34297e-12,2.14801e-38,-1.61093e-06,-3.40794e-12,2.14789e-38,-3.96878e-12,-1.1386e-13,0,0,0,0,0,0,0,0,0,0,0,0,0,0,0,0,0,0,0,0,0,-0.261799,3.14159,-1.5,nan,0,0,2,0,0,0,0,0,0,0,0,1.9603e-19,0,0,0,0,0
15761,-3.34297e-12,2.14801e-38,-1.61093e-06,-3.40794e-12,2.14789e-38,0,-1.13861e-13,0,0,0,0,0,0,0,0,0,0,0,0,0,0,0,0,0,0,0,0,0,-0.261799,3.14159,-1.5,nan,0,0,2,0,0,0,0,0,0,0,0,1.9603e-19,0,0,0,0,0
15778,-3.34297e-12,2.14801e-38,-1.61093e-06,-3.40794e-12,2.14789e-38,-3.96878e-12,-1.13861e-13,0,0,0,0,0,0,0,0,0,0,0,0,0,0,0,0,0,0,0,0,0,-0.261799,3.14159,-1.5,nan,0,0,2,0,0,0,0,0,0,0,0,1.9603e-19,0,0,0,0,0
15800,-3.34297e-12,2.14801e-38,-1.61093e-06,-3.40794e-12,2.14789e-38,0,-1.13862e-13,0,0,0,0,0,0,0,0,0,0,0,0,0,0,0,0,0,0,0,0,0,-0.261799,3.14159,-1.5,nan,0,0,2,0,0,0,0,0,0,0,0,1.9603e-19,0,0,0,0,0
15816,-3.34297e-12,2.14801e-38,-1.61093e-06,-3.40794e-12,2.14789e-38,-3.96878e-12,-1.13862e-13,0,0,0,0,0,0,0,0,0,0,0,0,0,0,0,0,0,0,0,0,0,-0.261799,3.14159,-1.5,nan,0,0,2,0,0,0,0,0,0,0,0,1.9603e-19,0,0,0,0,0
15834,-3.34297e-12,2.14801e-38,-1.61093e-06,-3.40794e-12,2.14789e-38,0,-1.13863e-13,0,0,0,0,0,0,0,0,0,0,0,0,0,0,0,0,0,0,0,0,0,-0.261799,3.14159,-1.5,nan,0,0,2,0,0,0,0,0,0,0,0,1.9603e-19,0,0,0,0,0
15886,-3.34297e-12,2.14801e-38,-1.61093e-06,-3.40794e-12,2.14789e-38,-3.96878e-12,-1.13863e-13,0,0,0,0,0,0,0,0,0,0,0,0,0,0,0,0,0,0,0,0,0,-0.261799,3.14159,-1.5,nan,0,0,2,0,0,0,0,0,0,0,0,1.9603e-19,0,0,0,0,0
15900,-3.34297e-12,2.14801e-38,-1.61093e-06,-3.40794e-12,2.14789e-38,0,-1.13864e-13,0,0,0,0,0,0,0,0,0,0,0,0,0,0,0,0,0,0,0,0,0,-0.261799,3.14159,-1.5,nan,0,0,2,0,0,0,0,0,0,0,0,1.9603e-19,0,0,0,0,0
15918,-3.34297e-12,2.14801e-38,-1.61093e-06,-3.40794e-12,2.14789e-38,-3.96878e-12,-1.13865e-13,0,0,0,0,0,0,0,0,0,0,0,0,0,0,0,0,0,0,0,0,0,-0.261799,3.14159,-1.5,nan,0,0,2,0,0,0,0,0,0,0,0,1.9603e-19,0,0,0,0,0
15935,-3.34297e-12,2.14801e-38,-1.61093e-06,-3.40794e-12,2.14789e-38,0,-1.13865e-13,0,0,0,0,0,0,0,0,0,0,0,0,0,0,0,0,0,0,0,0,0,-0.261799,3.14159,-1.5,nan,0,0,2,0,0,0,0,0,0,0,0,1.9603e-19,0,0,0,0,0
15953,-3.34297e-12,2.14801e-38,-1.61093e-06,-3.40794e-12,2.14789e-38,-3.96878e-12,-1.13866e-13,0,0,0,0,0,0,0,0,0,0,0,0,0,0,0,0,0,0,0,0,0,-0.261799,3.14159,-1.5,nan,0,0,2,0,0,0,0,0,0,0,0,1.9603e-19,0,0,0,0,0
15975,-3.34297e-12,2.14801e-38,-1.61093e-06,-3.40794e-12,2.14789e-38,0,-1.13866e-13,0,0,0,0,0,0,0,0,0,0,0,0,0,0,0,0,0,0,0,0,0,-0.261799,3.14159,-1.5,nan,0,0,2,0,0,0,0,0,0,0,0,1.9603e-19,0,0,0,0,0
15991,-3.34297e-12,2.14801e-38,-1.61093e-06,-3.40794e-12,2.14789e-38,-3.96878e-12,-1.13867e-13,0,0,0,0,0,0,0,0,0,0,0,0,0,0,0,0,0,0,0,0,0,-0.261799,3.14159,-1.5,nan,0,0,2,0,0,0,0,0,0,0,0,1.9603e-19,0,0,0,0,0
16009,-3.34297e-12,2.14801e-38,-1.61093e-06,-3.40794e-12,2.14789e-38,0,-1.13867e-13,0,0,0,0,0,0,0,0,0,0,0,0,0,0,0,0,0,0,0,0,0,-0.261799,3.14159,-1.5,nan,0,0,2,0,0,0,0,0,0,0,0,1.9603e-19,0,0,0,0,0
16031,-3.34297e-12,2.14801e-38,-1.61093e-06,-3.40794e-12,2.14789e-38,-3.96878e-12,-1.13868e-13,0,0,0,0,0,0,0,0,0,0,0,0,0,0,0,0,0,0,0,0,0,-0.261799,3.14159,-1.5,nan,0,0,2,0,0,0,0,0,0,0,0,1.9603e-19,0,0,0,0,0
16048,-3.34297e-12,2.14801e-38,-1.61093e-06,-3.40794e-12,2.14789e-38,0,-1.13868e-13,0,0,0,0,0,0,0,0,0,0,0,0,0,0,0,0,0,0,0,0,0,-0.261799,3.14159,-1.5,nan,0,0,2,0,0,0,0,0,0,0,0,1.9603e-19,0,0,0,0,0
16080,-3.34297e-12,2.14801e-38,-1.61093e-06,-3.40794e-12,2.14789e-38,-3.96878e-12,-1.13869e-13,0,0,0,0,0,0,0,0,0,0,0,0,0,0,0,0,0,0,0,0,0,-0.261799,3.14159,-1.5,nan,0,0,2,0,0,0,0,0,0,0,0,1.9603e-19,0,0,0,0,0
16097,-3.34297e-12,2.14801e-38,-1.61093e-06,-3.40794e-12,2.14789e-38,0,-1.13869e-13,0,0,0,0,0,0,0,0,0,0,0,0,0,0,0,0,0,0,0,0,0,-0.261799,3.14159,-1.5,nan,0,0,2,0,0,0,0,0,0,0,0,1.9603e-19,0,0,0,0,0
