timestamp,A_x,A_y,A_z,P,Q,R,Phi,Theta,Psi,poseX,poseY,poseZ,state_X,state_Y,state_Z,state_VzB,state_Bx,state_By,state_Bz,p1_x,p1_y,p2_x,p2_y,p3_x,p3_y,p4_x,p4_y,roll,pitch,yaw,alt,targetHeading,highLevelState,lowLevelState,gateNumber,filtered_x,filtered_y,x_OT,y_OT,vx_OT,vy_OT,filtered_vx,filtered_vygateArearansac_corr_x,ransac_corr_y,ransac_corr_vx,ransac_corr_vy,detectionTimeStamp
8126,0,0,0,0,0,0,0,0,0,0,0,0,0,0,0,0,0,0,0,0,0,0,0,0,0,0,0,0,-0,0,-1.5,6.40901e-10,0,0,0,0,0,0,0,0,0,0,0,1.9603e-19,0,0,0,0,0
8141,0,0,0,0,0,0,0,0,0,0,0,0,0,0,0,0,0,0,0,0,0,0,0,0,0,0,0,0,-0,0,-1.5,6.40901e-10,0,0,0,0,0,0,0,0,0,0,0,1.9603e-19,0,0,0,0,0
8699,-3.11567e-12,1.89754e-38,-1.52478e-06,-3.18057e-12,1.89742e-38,-3.62842e-12,-1.06589e-13,0,0,0,0,0,0,0,0,0,0,0,0,0,0,0,0,0,0,0,0,0,-0,0,-1.5,6.40901e-10,0,0,0,0,0,0,0,0,0,0,0,1.9603e-19,0,0,0,0,0
8800,-3.11567e-12,1.89754e-38,-1.52478e-06,-3.18057e-12,1.89742e-38,0,-1.0659e-13,0,0,0,0,0,0,0,0,0,0,0,0,0,0,0,0,0,0,0,0,0,-0,0,-1.5,6.40901e-10,0,0,0,0,0,0,0,0,0,0,0,1.9603e-19,0,0,0,0,0
8940,-3.11567e-12,1.89754e-38,-1.52478e-06,-3.18057e-12,1.89742e-38,-3.62842e-12,-1.0659e-13,0,0,0,0,0,0,0,0,0,0,0,0,0,0,0,0,0,0,0,0,0,-0,0,-1.5,6.40901e-10,0,0,0,0,0,0,0,0,0,0,0,1.9603e-19,0,0,0,0,0
9140,-3.11567e-12,1.89754e-38,-1.52478e-06,-3.18057e-12,1.89742e-38,0,-1.0659e-13,0,0,0,0,0,0,0,0,0,0,0,0,0,0,0,0,0,0,0,0,0,-0,0,-1.5,6.40901e-10,0,0,0,0,0,0,0,0,0,0,0,1.9603e-19,0,0,0,0,0
9280,-3.11567e-12,1.89754e-38,-1.52478e-06,-3.18057e-12,1.89742e-38,-3.62842e-12,-1.0659e-13,0,0,0,0,0,0,0,0,0,0,0,0,0,0,0,0,0,0,0,0,0,-0,0,-1.5,6.40901e-10,0,0,0,0,0,0,0,0,0,0,0,1.9603e-19,0,0,0,0,0
9390,-3.11567e-12,1.89754e-38,-1.52478e-06,-3.18057e-12,1.89742e-38,0,-1.06591e-13,0,0,0,0,0,0,0,0,0,0,0,0,0,0,0,0,0,0,0,0,0,-0,0,-1.5,6.40901e-10,0,0,0,0,0,0,0,0,0,0,0,1.9603e-19,0,0,0,0,0
9720,-3.11567e-12,1.89754e-38,-1.52478e-06,-3.18057e-12,1.89742e-38,-3.62842e-12,-1.06591e-13,0,0,-3.63117,0.291611,0.366349,0,0,0,0,0,-0.5747,0.291611,225,-49,225,-49,343,-53,228,79,0,-0,0,-1.5,6.40901e-10,0,0,0,0,0,0,0,0,0,0,0,16896,0,0,0,0,9712
9847,-3.11567e-12,1.89754e-38,-1.52478e-06,-3.18057e-12,1.89742e-38,0,-1.06591e-13,0,0,-3.63117,0.291611,0.366349,0,0,0,0,0,-0.5747,0.291611,225,-49,225,-49,343,-53,228,79,0,-0,0,-1.5,6.40901e-10,0,0,0,0,0,0,0,0,0,0,0,16896,0,0,0,0,9712
9950,-3.11567e-12,1.89754e-38,-1.52478e-06,-3.18057e-12,1.89742e-38,-3.62842e-12,-1.06591e-13,0,0,-3.60548,0.26689,0.505817,0,0,0,0,0,-0.539514,0.26689,231,-74,231,-74,352,-65,226,59,0,-0,0,-1.5,6.40901e-10,0,0,0,0,0,0,0,0,0,0,0,16758,0,0,0,0,9942
10045,-3.11567e-12,1.89754e-38,-1.52478e-06,-3.18057e-12,1.89742e-38,0,-1.06592e-13,0,0,-3.61891,0.26762,0.518409,0,0,0,0,0,-0.557902,0.26762,231,-74,231,-74,352,-65,226,57,-0.134644,-0.261799,0,-1.5,6.40901e-10,0,0,0,-0.563588,0.267846,0,0,0,0,-0.120976,0.00480765,16758,-0.557902,0.26762,-0.120976,0.00480765,10000
10070,-3.11567e-12,1.89754e-38,-1.52478e-06,-3.18057e-12,1.89742e-38,-3.62842e-12,-1.06592e-13,0,0,-3.55661,0.250241,0.485673,0,0,0,0,0,-0.472553,0.250241,231,-74,231,-74,358,-67,226,57,-0.129856,-0.215645,0,-1.5,6.40901e-10,0,0,0,-0.482341,0.263098,0,0,0,0,0.255236,-0.0169245,17556,-0.488722,0.263522,0.255236,-0.0169245,10059
10088,-3.11567e-12,1.89754e-38,-1.52478e-06,-3.18057e-12,1.89742e-38,0,-1.06592e-13,0,0,-3.55661,0.250241,0.485673,0,0,0,0,0,-0.472553,0.250241,231,-74,231,-74,358,-67,226,57,-0.129713,-0.213475,0,-1.5,6.40901e-10,0,0,0,-0.478001,0.262811,0,0,0,0,0.255236,-0.0169245,17556,-0.488722,0.263522,0.255236,-0.0169245,10059
10193,-3.11567e-12,1.89754e-38,-1.52478e-06,-3.18057e-12,1.89742e-38,-3.62842e-12,-1.06593e-13,0,0,-3.65836,0.276334,0.522169,0,0,0,0,0,-0.611952,0.276334,228,-67,228,-67,351,-65,228,59,-0.134759,-0.261799,0,-1.5,6.40901e-10,0,0,0,-0.581492,0.268558,0,0,0,0,-0.120976,0.0048078,15498,-0.568669,0.268048,-0.120976,0.0048078,10182
10246,-3.11567e-12,1.89754e-38,-1.52478e-06,-3.18057e-12,1.89742e-38,0,-1.06593e-13,0,0,-3.63511,0.264397,0.51641,0,0,0,0,0,-0.580099,0.264397,229,-72,229,-72,352,-65,230,57,-0.13129,-0.261799,0,-1.5,6.40901e-10,0,0,0,-0.586298,0.264016,0,0,0,0,-0.11696,-0.00718421,16482,-0.580099,0.264397,-0.11696,-0.00718421,10235
10263,-3.11567e-12,1.89754e-38,-1.52478e-06,-3.18057e-12,1.89742e-38,-3.62842e-12,-1.06593e-13,0,0,-3.63511,0.264397,0.51641,0,0,0,0,0,-0.580099,0.264397,229,-72,229,-72,352,-65,230,57,-0.131227,-0.261799,0,-1.5,6.40901e-10,0,0,0,-0.588286,0.263894,0,0,0,0,-0.11696,-0.00718421,16482,-0.580099,0.264397,-0.11696,-0.00718421,10235
10373,-3.11567e-12,1.89754e-38,-1.52478e-06,-3.18057e-12,1.89742e-38,0,-1.06593e-13,0,0,-3.6706,0.277486,0.534088,0,0,0,0,0,-0.628718,0.277486,228,-67,228,-67,351,-65,228,59,-0.144513,-0.261799,0,-1.5,6.40901e-10,0,0,0,-0.658114,0.281581,0,0,0,0,-0.26723,0.0372271,15498,-0.628718,0.277486,-0.26723,0.0372271,10362
10423,-3.11567e-12,1.89754e-38,-1.52478e-06,-3.18057e-12,1.89742e-38,-3.62842e-12,-1.06596e-13,0,0,-3.65839,0.26765,0.532855,0,0,0,0,0,-0.611992,0.26765,228,-74,228,-74,352,-61,230,57,-0.134019,-0.261799,0,-1.5,6.40901e-10,0,0,0,-0.618476,0.267802,0,0,0,0,-0.138801,0.00118442,16492,-0.611536,0.267743,-0.138801,0.00118442,10411
10463,-3.11567e-12,1.89754e-38,-1.52478e-06,-3.18057e-12,1.89742e-38,0,-1.06596e-13,0,0,-3.63367,0.278365,0.522889,0,0,0,0,0,-0.578132,0.278365,229,-72,229,-72,352,-65,226,59,-0.138162,-0.261799,0,-1.5,6.40901e-10,0,0,0,-0.611816,0.273656,0,0,0,0,-0.116815,0.0133279,16506,-0.607144,0.273123,-0.116815,0.0133279,10451
10485,-3.11567e-12,1.89754e-38,-1.52478e-06,-3.18057e-12,1.89742e-38,-3.62842e-12,-1.06594e-13,0,0,-3.57347,0.268526,0.479894,0,0,0,0,0,-0.495652,0.268526,229,-74,229,-74,352,-65,226,59,-0.134654,-0.261799,0,-1.5,6.40901e-10,0,0,0,-0.603801,0.268459,0,0,0,0,-0.0954451,0.00424928,17136,-0.601701,0.268366,-0.0954451,0.00424928,10473
10512,-3.11567e-12,1.89754e-38,-1.52478e-06,-3.18057e-12,1.89742e-38,0,-1.06594e-13,0,0,-3.60328,0.257881,0.518022,0,0,0,0,0,-0.5365,0.257881,229,-74,229,-74,356,-66,228,56,-0.134363,-0.261799,0,-1.5,6.40901e-10,0,0,0,-0.5767,0.268336,0,0,0,0,-0.0441512,0.00194213,16768,-0.575508,0.268283,-0.0441512,0.00194213,10500
10530,-3.11567e-12,1.89754e-38,-1.52478e-06,-3.18057e-12,1.89742e-38,-3.62842e-12,-1.06594e-13,0,0,-3.60328,0.257881,0.518022,0,0,0,0,0,-0.5365,0.257881,229,-74,229,-74,356,-66,228,56,-0.134381,-0.261799,0,-1.5,6.40901e-10,0,0,0,-0.577495,0.268371,0,0,0,0,-0.0441512,0.00194213,16768,-0.575508,0.268283,-0.0441512,0.00194213,10500
10554,-3.11567e-12,1.89754e-38,-1.52478e-06,-3.18057e-12,1.89742e-38,0,-1.06595e-13,0,0,-3.57376,0.255613,0.489877,0,0,0,0,0,-0.496055,0.255613,229,-72,229,-72,358,-65,226,56,-0.13393,-0.261799,0,-1.5,6.40901e-10,0,0,0,-0.578885,0.267633,0,0,0,0,-0.05227,0.00113003,17292,-0.57763,0.267606,-0.05227,0.00113003,10542
10642,-3.11567e-12,1.89754e-38,-1.52478e-06,-3.18057e-12,1.89742e-38,-3.62842e-12,-1.06596e-13,0,0,-3.62564,0.272683,0.520536,0,0,0,0,0,-0.567123,0.272683,229,-72,229,-72,352,-65,226,56,-0.133967,-0.261799,0,-1.5,6.40901e-10,0,0,0,-0.565553,0.267719,0,0,0,0,-0.0321335,0.00108138,16506,-0.565168,0.267706,-0.0321335,0.00108138,10632
10663,-3.11567e-12,1.89754e-38,-1.52478e-06,-3.18057e-12,1.89742e-38,0,-1.06596e-13,0,0,-3.62564,0.272683,0.520536,0,0,0,0,0,-0.567123,0.272683,229,-72,229,-72,352,-65,226,56,-0.133978,-0.261799,0,-1.5,6.40901e-10,0,0,0,-0.566196,0.267741,0,0,0,0,-0.0321335,0.00108138,16506,-0.565168,0.267706,-0.0321335,0.00108138,10632
10688,-3.11567e-12,1.89754e-38,-1.52478e-06,-3.18057e-12,1.89742e-38,-3.62842e-12,-1.06599e-13,0,0,-3.52407,0.251678,0.459434,0,0,0,0,0,-0.427981,0.251678,229,-74,229,-74,358,-67,226,56,-0.129495,-0.260581,0,-1.5,6.40901e-10,0,0,0,-0.529006,0.260563,0,0,0,0,0.0392259,-0.00786503,18084,-0.530026,0.260768,0.0392259,-0.00786503,10675
10710,-3.11567e-12,1.89754e-38,-1.52478e-06,-3.18057e-12,1.89742e-38,0,-1.06599e-13,0,0,-3.57977,0.251978,0.506121,0,0,0,0,0,-0.504282,0.251978,229,-74,229,-74,358,-67,228,56,-0.124994,-0.243615,0,-1.5,6.40901e-10,0,0,0,-0.502757,0.253684,0,0,0,0,0.0776376,-0.0184729,17030,-0.504465,0.25409,0.0776376,-0.0184729,10697
10731,-3.11567e-12,1.89754e-38,-1.52478e-06,-3.18057e-12,1.89742e-38,-3.62842e-12,-1.06599e-13,0,0,-3.54342,0.253377,0.477769,0,0,0,0,0,-0.454483,0.253377,229,-74,229,-74,358,-67,226,56,-0.129218,-0.0595529,0,-1.5,6.40901e-10,0,0,0,-0.490452,0.253553,0,0,0,0,0.0893632,-0.0165504,17688,-0.490988,0.253652,0.0893632,-0.0165504,10727
10752,-3.11567e-12,1.89754e-38,-1.52478e-06,-3.18057e-12,1.89742e-38,0,-1.06595e-13,0,0,-3.54342,0.253377,0.477769,0,0,0,0,0,-0.454483,0.253377,229,-74,229,-74,358,-67,226,56,-0.124949,-0.23535,0,-1.5,6.40901e-10,0,0,0,-0.488575,0.253205,0,0,0,0,0.0893632,-0.0165504,17688,-0.490988,0.253652,0.0893632,-0.0165504,10727
10788,-3.11567e-12,1.89754e-38,-1.52478e-06,-3.18057e-12,1.89742e-38,-3.62842e-12,-1.066e-13,0,0,-3.5616,0.255003,0.495475,0,0,0,0,0,-0.479393,0.255003,229,-74,229,-74,358,-67,226,56,-0.124552,-0.229941,0,-1.5,6.40901e-10,0,0,0,-0.478731,0.252723,0,0,0,0,0.0942493,-0.0180947,17292,-0.482124,0.253374,0.0942493,-0.0180947,10775
10811,-3.11567e-12,1.89754e-38,-1.52478e-06,-3.18057e-12,1.89742e-38,0,-1.06601e-13,0,0,-3.53065,0.252252,0.465613,0,0,0,0,0,-0.436988,0.252252,229,-74,229,-74,358,-67,226,56,-0.124065,-0.222166,0,-1.5,6.40901e-10,0,0,0,-0.466814,0.251826,0,0,0,0,0.11242,-0.0184675,17952,-0.4694,0.252251,0.11242,-0.0184675,10798
10828,-3.11567e-12,1.89754e-38,-1.52478e-06,-3.18057e-12,1.89742e-38,-3.62842e-12,-1.066e-13,0,0,-3.53065,0.252252,0.465613,0,0,0,0,0,-0.436988,0.252252,229,-74,229,-74,358,-67,226,56,-0.12391,-0.22121,0,-1.5,6.40901e-10,0,0,0,-0.464903,0.251512,0,0,0,0,0.11242,-0.0184675,17952,-0.4694,0.252251,0.11242,-0.0184675,10798
10852,-3.11567e-12,1.89754e-38,-1.52478e-06,-3.18057e-12,1.89742e-38,0,-1.06598e-13,0,0,-3.59918,0.244412,0.512913,0,0,0,0,0,-0.530876,0.244412,231,-74,231,-74,358,-67,230,56,-0.123654,-0.223495,0,-1.5,6.40901e-10,0,0,0,-0.467964,0.251021,0,0,0,0,0.104867,-0.0185655,17024,-0.470481,0.251467,0.104867,-0.0185655,10839
10878,-3.11567e-12,1.89754e-38,-1.52478e-06,-3.18057e-12,1.89742e-38,-3.62842e-12,-1.06597e-13,0,0,-3.56875,0.240427,0.474886,0,0,0,0,0,-0.489194,0.240427,234,-72,234,-72,358,-67,228,59,-0.122749,-0.235795,0,-1.5,6.40901e-10,0,0,0,-0.487366,0.249683,0,0,0,0,0.0788775,-0.0209246,17550,-0.488391,0.249955,0.0788775,-0.0209246,10867
10895,-3.11567e-12,1.89754e-38,-1.52478e-06,-3.18057e-12,1.89742e-38,0,-1.06595e-13,0,0,-3.56875,0.240427,0.474886,0,0,0,0,0,-0.489194,0.240427,234,-72,234,-72,358,-67,228,59,-0.122582,-0.235165,0,-1.5,6.40901e-10,0,0,0,-0.486104,0.249348,0,0,0,0,0.0788775,-0.0209246,17550,-0.488391,0.249955,0.0788775,-0.0209246,10867
10916,-3.11567e-12,1.89754e-38,-1.52478e-06,-3.18057e-12,1.89742e-38,-3.62842e-12,-1.06597e-13,0,0,-3.66908,0.260643,0.568439,0,0,0,0,0,-0.626642,0.260643,231,-74,231,-74,351,-68,230,54,-0.123686,-0.237958,0,-1.5,6.40901e-10,0,0,0,-0.485103,0.249899,0,0,0,0,0.0688974,-0.0189417,15730,-0.48655,0.250297,0.0688974,-0.0189417,10903
10944,-3.11567e-12,1.89754e-38,-1.52478e-06,-3.18057e-12,1.89742e-38,0,-1.06597e-13,0,0,-3.62368,0.265968,0.572019,0,0,0,0,0,-0.564438,0.265968,229,-78,229,-78,352,-72,228,50,-0.122797,-0.234879,0,-1.5,6.40901e-10,0,0,0,-0.48503,0.249446,0,0,0,0,0.0763544,-0.0192553,16368,-0.486022,0.249697,0.0763544,-0.0192553,10933
10961,-3.11567e-12,1.89754e-38,-1.52478e-06,-3.18057e-12,1.89742e-38,-3.62842e-12,-1.066e-13,0,0,-3.62368,0.265968,0.572019,0,0,0,0,0,-0.564438,0.265968,229,-78,229,-78,352,-72,228,50,-0.122634,-0.234229,0,-1.5,6.40901e-10,0,0,0,-0.483732,0.249119,0,0,0,0,0.0763544,-0.0192553,16368,-0.486022,0.249697,0.0763544,-0.0192553,10933
10983,-3.11567e-12,1.89754e-38,-1.52478e-06,-3.18057e-12,1.89742e-38,0,-1.066e-13,0,0,-3.62158,0.259081,0.651091,0,0,0,0,0,-0.561569,0.259081,229,-90,229,-90,352,-82,232,43,-0.124565,-0.258463,0,-1.5,6.40901e-10,0,0,0,-0.520258,0.251851,0,0,0,0,0.0166634,-0.0136007,16728,-0.520608,0.252137,0.0166634,-0.0136007,10969
11009,-3.11567e-12,1.89754e-38,-1.52478e-06,-3.18057e-12,1.89742e-38,-3.62842e-12,-1.06601e-13,0,0,-3.56434,0.294377,0.73521,0,0,0,0,0,-0.48315,0.294377,220,-102,220,-102,348,-96,227,29,-0.124799,-0.234781,0,-1.5,6.40901e-10,0,0,0,-0.482372,0.252134,0,0,0,0,0.0640534,-0.0126791,17157,-0.483076,0.252274,0.0640534,-0.0126791,11000
11028,-3.11567e-12,1.89754e-38,-1.52478e-06,-3.18057e-12,1.89742e-38,0,-1.06601e-13,0,0,-3.56434,0.294377,0.73521,0,0,0,0,0,-0.48315,0.294377,220,-102,220,-102,348,-96,227,29,-0.124672,-0.234141,0,-1.5,6.40901e-10,0,0,0,-0.481091,0.251881,0,0,0,0,0.0640534,-0.0126791,17157,-0.483076,0.252274,0.0640534,-0.0126791,11000
11075,-3.11567e-12,1.89754e-38,-1.52478e-06,-3.18057e-12,1.89742e-38,-3.62842e-12,-1.06602e-13,0,0,-3.5526,0.294627,0.817509,0,0,0,0,0,-0.467061,0.294627,220,-109,220,-109,351,-106,224,20,-0.127326,-0.231944,0,-1.5,6.40901e-10,0,0,0,-0.477615,0.256392,0,0,0,0,0.0686315,-0.00869315,16899,-0.480841,0.256801,0.0686315,-0.00869315,11059
11089,-3.11567e-12,1.89754e-38,-1.52478e-06,-3.18057e-12,1.89742e-38,0,-1.06602e-13,0,0,-3.5526,0.294627,0.817509,0,0,0,0,0,-0.467061,0.294627,220,-109,220,-109,351,-106,224,20,-0.127269,-0.231498,0,-1.5,6.40901e-10,0,0,0,-0.476723,0.256279,0,0,0,0,0.0686315,-0.00869315,16899,-0.480841,0.256801,0.0686315,-0.00869315,11059
11139,-3.11567e-12,1.89754e-38,-1.52478e-06,-3.18057e-12,1.89742e-38,-3.62842e-12,-1.06598e-13,0,0,-3.5526,0.294627,0.817509,0,0,0,0,0,-0.467061,0.294627,220,-109,220,-109,351,-106,224,20,-0.127049,-0.229748,0,-1.5,6.40901e-10,0,0,0,-0.473223,0.255836,0,0,0,0,0.0686315,-0.00869315,16899,-0.480841,0.256801,0.0686315,-0.00869315,11059
11161,-3.11567e-12,1.89754e-38,-1.52478e-06,-3.18057e-12,1.89742e-38,0,-1.06598e-13,0,0,-3.5526,0.294627,0.817509,0,0,0,0,0,-0.467061,0.294627,220,-109,220,-109,351,-106,224,20,-0.126952,-0.228993,0,-1.5,6.40901e-10,0,0,0,-0.471713,0.255645,0,0,0,0,0.0686315,-0.00869315,16899,-0.480841,0.256801,0.0686315,-0.00869315,11059
11178,-3.11567e-12,1.89754e-38,-1.52478e-06,-3.18057e-12,1.89742e-38,-3.62842e-12,-1.06602e-13,0,0,-3.5526,0.294627,0.817509,0,0,0,0,0,-0.467061,0.294627,220,-109,220,-109,351,-106,224,20,-0.126878,-0.22841,0,-1.5,6.40901e-10,0,0,0,-0.470546,0.255497,0,0,0,0,0.0686315,-0.00869315,16899,-0.480841,0.256801,0.0686315,-0.00869315,11059
11213,-3.11567e-12,1.89754e-38,-1.52478e-06,-3.18057e-12,1.89742e-38,0,-1.06603e-13,0,0,-3.5526,0.294627,0.817509,0,0,0,0,0,-0.467061,0.294627,220,-109,220,-109,351,-106,224,20,-0.126728,-0.227209,0,-1.5,6.40901e-10,0,0,0,-0.468144,0.255193,0,0,0,0,0.0686315,-0.00869315,16899,-0.480841,0.256801,0.0686315,-0.00869315,11059
11235,-3.11567e-12,1.89754e-38,-1.52478e-06,-3.18057e-12,1.89742e-38,-3.62842e-12,-1.06603e-13,0,0,-3.5526,0.294627,0.817509,0,0,0,0,0,-0.467061,0.294627,220,-109,220,-109,351,-106,224,20,-0.126632,-0.226454,0,-1.5,6.40901e-10,0,0,0,-0.466634,0.255001,0,0,0,0,0.0686315,-0.00869315,16899,-0.480841,0.256801,0.0686315,-0.00869315,11059
11254,-3.11567e-12,1.89754e-38,-1.52478e-06,-3.18057e-12,1.89742e-38,0,-1.06603e-13,0,0,-3.5526,0.294627,0.817509,0,0,0,0,0,-0.467061,0.294627,220,-109,220,-109,351,-106,224,20,-0.126548,-0.225802,0,-1.5,6.40901e-10,0,0,0,-0.46533,0.254836,0,0,0,0,0.0686315,-0.00869315,16899,-0.480841,0.256801,0.0686315,-0.00869315,11059
11272,-3.11567e-12,1.89754e-38,-1.52478e-06,-3.18057e-12,1.89742e-38,-3.62842e-12,-1.06604e-13,0,0,-3.5526,0.294627,0.817509,0,0,0,0,0,-0.467061,0.294627,220,-109,220,-109,351,-106,224,20,-0.126471,-0.225184,0,-1.5,6.40901e-10,0,0,0,-0.464095,0.25468,0,0,0,0,0.0686315,-0.00869315,16899,-0.480841,0.256801,0.0686315,-0.00869315,11059
11293,-3.11567e-12,1.89754e-38,-1.52478e-06,-3.18057e-12,1.89742e-38,0,-1.06604e-13,0,0,-3.5526,0.294627,0.817509,0,0,0,0,0,-0.467061,0.294627,220,-109,220,-109,351,-106,224,20,-0.12638,-0.224463,0,-1.5,6.40901e-10,0,0,0,-0.462653,0.254497,0,0,0,0,0.0686315,-0.00869315,16899,-0.480841,0.256801,0.0686315,-0.00869315,11059
11310,-3.11567e-12,1.89754e-38,-1.52478e-06,-3.18057e-12,1.89742e-38,-3.62842e-12,-1.06604e-13,0,0,-3.5526,0.294627,0.817509,0,0,0,0,0,-0.467061,0.294627,220,-109,220,-109,351,-106,224,20,-0.126304,-0.22388,0,-1.5,6.40901e-10,0,0,0,-0.461487,0.254349,0,0,0,0,0.0686315,-0.00869315,16899,-0.480841,0.256801,0.0686315,-0.00869315,11059
11406,-3.11567e-12,1.89754e-38,-1.52478e-06,-3.18057e-12,1.89742e-38,0,-1.06604e-13,0,0,-3.5526,0.294627,0.817509,0,0,0,0,0,-0.467061,0.294627,220,-109,220,-109,351,-106,224,20,-0.125887,-0.220586,0,-1.5,6.40901e-10,0,0,0,-0.454898,0.253515,0,0,0,0,0.0686315,-0.00869315,16899,-0.480841,0.256801,0.0686315,-0.00869315,11059
11425,-3.11567e-12,1.89754e-38,-1.52478e-06,-3.18057e-12,1.89742e-38,-3.62842e-12,-1.06605e-13,0,0,-3.5526,0.294627,0.817509,0,0,0,0,0,-0.467061,0.294627,220,-109,220,-109,351,-106,224,20,-0.125805,-0.219934,0,-1.5,6.40901e-10,0,0,0,-0.453594,0.25335,0,0,0,0,0.0686315,-0.00869315,16899,-0.480841,0.256801,0.0686315,-0.00869315,11059
11439,-3.11567e-12,1.89754e-38,-1.52478e-06,-3.18057e-12,1.89742e-38,0,-1.06605e-13,0,0,-3.5526,0.294627,0.817509,0,0,0,0,0,-0.467061,0.294627,220,-109,220,-109,351,-106,224,20,-0.125744,-0.219453,0,-1.5,6.40901e-10,0,0,0,-0.452633,0.253228,0,0,0,0,0.0686315,-0.00869315,16899,-0.480841,0.256801,0.0686315,-0.00869315,11059
11457,-3.11567e-12,1.89754e-38,-1.52478e-06,-3.18057e-12,1.89742e-38,-3.62842e-12,-1.06605e-13,0,0,-3.5526,0.294627,0.817509,0,0,0,0,0,-0.467061,0.294627,220,-109,220,-109,351,-106,224,20,-0.125667,-0.218835,0,-1.5,6.40901e-10,0,0,0,-0.451398,0.253071,0,0,0,0,0.0686315,-0.00869315,16899,-0.480841,0.256801,0.0686315,-0.00869315,11059
11474,-3.11567e-12,1.89754e-38,-1.52478e-06,-3.18057e-12,1.89742e-38,0,-1.06605e-13,0,0,-3.5526,0.294627,0.817509,0,0,0,0,0,-0.467061,0.294627,220,-109,220,-109,351,-106,224,20,-0.125593,-0.218252,0,-1.5,6.40901e-10,0,0,0,-0.450231,0.252924,0,0,0,0,0.0686315,-0.00869315,16899,-0.480841,0.256801,0.0686315,-0.00869315,11059
11491,-3.11567e-12,1.89754e-38,-1.52478e-06,-3.18057e-12,1.89742e-38,-3.62842e-12,-1.06606e-13,0,0,-3.5526,0.294627,0.817509,0,0,0,0,0,-0.467061,0.294627,220,-109,220,-109,351,-106,224,20,-0.125519,-0.217669,0,-1.5,6.40901e-10,0,0,0,-0.449064,0.252776,0,0,0,0,0.0686315,-0.00869315,16899,-0.480841,0.256801,0.0686315,-0.00869315,11059
11513,-3.11567e-12,1.89754e-38,-1.52478e-06,-3.18057e-12,1.89742e-38,0,-1.06606e-13,0,0,-3.5526,0.294627,0.817509,0,0,0,0,0,-0.467061,0.294627,220,-109,220,-109,351,-106,224,20,-0.125424,-0.216914,0,-1.5,6.40901e-10,0,0,0,-0.447554,0.252585,0,0,0,0,0.0686315,-0.00869315,16899,-0.480841,0.256801,0.0686315,-0.00869315,11059
11548,-3.11567e-12,1.89754e-38,-1.52478e-06,-3.18057e-12,1.89742e-38,-3.62842e-12,-1.06606e-13,0,0,-3.5526,0.294627,0.817509,-0.445154,0.25228,0.0683574,-0.00865843,0,-0.467061,0.294627,220,-109,220,-109,351,-106,224,20,-0.125274,-0.215742,0,-1.5,6.40901e-10,0,0,0,-0.445154,0.25228,0,0,0,0,0.0683574,-0.00865843,16899,0,0,0,0,11059
11568,-3.11567e-12,1.89754e-38,-1.52478e-06,-3.18057e-12,1.89742e-38,0,-1.06607e-13,0,0,-3.5526,0.294627,0.817509,-0.443796,0.252109,0.0676759,-0.00857211,0,-0.467061,0.294627,220,-109,220,-109,351,-106,224,20,-0.125197,-0.21513,0,-1.5,6.40901e-10,0,0,0,-0.443796,0.252109,0,0,0,0,0.0676759,-0.00857211,16899,0,0,0,0,11059
11590,-3.11567e-12,1.89754e-38,-1.52478e-06,-3.18057e-12,1.89742e-38,-3.62842e-12,-1.06607e-13,0,0,-3.5526,0.294627,0.817509,-0.442385,0.25193,0.0669675,-0.00848237,0,-0.467061,0.294627,220,-109,220,-109,351,-106,224,20,-0.125117,-0.214496,0,-1.5,6.40901e-10,0,0,0,-0.442385,0.25193,0,0,0,0,0.0669675,-0.00848237,16899,0,0,0,0,11059
11607,-3.11567e-12,1.89754e-38,-1.52478e-06,-3.18057e-12,1.89742e-38,0,-1.06607e-13,0,0,-3.5526,0.294627,0.817509,-0.441187,0.251778,0.0663666,-0.00840627,0,-0.467061,0.294627,220,-109,220,-109,351,-106,224,20,-0.125049,-0.213957,0,-1.5,6.40901e-10,0,0,0,-0.441187,0.251778,0,0,0,0,0.0663666,-0.00840627,16899,0,0,0,0,11059
11624,-3.11567e-12,1.89754e-38,-1.52478e-06,-3.18057e-12,1.89742e-38,-3.62842e-12,-1.06607e-13,0,0,-3.5526,0.294627,0.817509,-0.440065,0.251636,0.0658042,-0.00833503,0,-0.467061,0.294627,220,-109,220,-109,351,-106,224,20,-0.124985,-0.213452,0,-1.5,6.40901e-10,0,0,0,-0.440065,0.251636,0,0,0,0,0.0658042,-0.00833503,16899,0,0,0,0,11059
11648,-3.11567e-12,1.89754e-38,-1.52478e-06,-3.18057e-12,1.89742e-38,0,-1.06608e-13,0,0,-3.5526,0.294627,0.817509,-0.4385,0.251438,0.0650171,-0.00823533,0,-0.467061,0.294627,220,-109,220,-109,351,-106,224,20,-0.124895,-0.212748,0,-1.5,6.40901e-10,0,0,0,-0.4385,0.251438,0,0,0,0,0.0650171,-0.00823533,16899,0,0,0,0,11059
11666,-3.11567e-12,1.89754e-38,-1.52478e-06,-3.18057e-12,1.89742e-38,-3.62842e-12,-1.06608e-13,0,0,-3.5526,0.294627,0.817509,-0.437336,0.25129,0.0644337,-0.00816144,0,-0.467061,0.294627,220,-109,220,-109,351,-106,224,20,-0.124829,-0.212225,0,-1.5,6.40901e-10,0,0,0,-0.437336,0.25129,0,0,0,0,0.0644337,-0.00816144,16899,0,0,0,0,11059
11687,-3.11567e-12,1.89754e-38,-1.52478e-06,-3.18057e-12,1.89742e-38,0,-1.06608e-13,0,0,-3.5526,0.294627,0.817509,-0.435993,0.25112,0.0637592,-0.008076,0,-0.467061,0.294627,220,-109,220,-109,351,-106,224,20,-0.124752,-0.21162,0,-1.5,6.40901e-10,0,0,0,-0.435993,0.25112,0,0,0,0,0.0637592,-0.008076,16899,0,0,0,0,11059
11719,-3.11567e-12,1.89754e-38,-1.52478e-06,-3.18057e-12,1.89742e-38,-3.62842e-12,-1.06608e-13,0,0,-3.5526,0.294627,0.817509,-0.433978,0.250865,0.0627428,-0.00794726,0,-0.467061,0.294627,220,-109,220,-109,351,-106,224,20,-0.124638,-0.210714,0,-1.5,6.40901e-10,0,0,0,-0.433978,0.250865,0,0,0,0,0.0627428,-0.00794726,16899,0,0,0,0,11059
11737,-3.11567e-12,1.89754e-38,-1.52478e-06,-3.18057e-12,1.89742e-38,0,-1.06609e-13,0,0,-3.5526,0.294627,0.817509,-0.432855,0.250723,0.0621799,-0.00787596,0,-0.467061,0.294627,220,-109,220,-109,351,-106,224,20,-0.124574,-0.21021,0,-1.5,6.40901e-10,0,0,0,-0.432855,0.250723,0,0,0,0,0.0621799,-0.00787596,16899,0,0,0,0,11059
11789,-3.11567e-12,1.89754e-38,-1.52478e-06,-3.18057e-12,1.89742e-38,-3.62842e-12,-1.06609e-13,0,0,-3.5526,0.294627,0.817509,-0.429693,0.250322,0.0605697,-0.007672,0,-0.467061,0.294627,220,-109,220,-109,351,-106,224,20,-0.124394,-0.208789,0,-1.5,6.40901e-10,0,0,0,-0.429693,0.250322,0,0,0,0,0.0605697,-0.007672,16899,0,0,0,0,11059
11806,-3.11567e-12,1.89754e-38,-1.52478e-06,-3.18057e-12,1.89742e-38,0,-1.06609e-13,0,0,-3.5526,0.294627,0.817509,-0.428669,0.250193,0.0600563,-0.00760697,0,-0.467061,0.294627,220,-109,220,-109,351,-106,224,20,-0.124336,-0.208329,0,-1.5,6.40901e-10,0,0,0,-0.428669,0.250193,0,0,0,0,0.0600563,-0.00760697,16899,0,0,0,0,11059
11826,-3.11567e-12,1.89754e-38,-1.52478e-06,-3.18057e-12,1.89742e-38,-3.62842e-12,-1.06609e-13,0,0,-3.5526,0.294627,0.817509,-0.427476,0.250041,0.0594576,-0.00753115,0,-0.467061,0.294627,220,-109,220,-109,351,-106,224,20,-0.124268,-0.207793,0,-1.5,6.40901e-10,0,0,0,-0.427476,0.250041,0,0,0,0,0.0594576,-0.00753115,16899,0,0,0,0,11059
11848,-3.11567e-12,1.89754e-38,-1.52478e-06,-3.18057e-12,1.89742e-38,0,-1.0661e-13,0,0,-3.5526,0.294627,0.817509,-0.426178,0.249877,0.0588058,-0.00744858,0,-0.467061,0.294627,220,-109,220,-109,351,-106,224,20,-0.124193,-0.207209,0,-1.5,6.40901e-10,0,0,0,-0.426178,0.249877,0,0,0,0,0.0588058,-0.00744858,16899,0,0,0,0,11059
11865,-3.11567e-12,1.89754e-38,-1.52478e-06,-3.18057e-12,1.89742e-38,-3.62842e-12,-1.0661e-13,0,0,-3.5526,0.294627,0.817509,-0.425184,0.249751,0.0583073,-0.00738545,0,-0.467061,0.294627,220,-109,220,-109,351,-106,224,20,-0.124137,-0.206761,0,-1.5,6.40901e-10,0,0,0,-0.425184,0.249751,0,0,0,0,0.0583073,-0.00738545,16899,0,0,0,0,11059
11882,-3.11567e-12,1.89754e-38,-1.52478e-06,-3.18057e-12,1.89742e-38,0,-1.0661e-13,0,0,-3.5526,0.294627,0.817509,-0.424199,0.249626,0.0578131,-0.00732285,0,-0.467061,0.294627,220,-109,220,-109,351,-106,224,20,-0.124081,-0.206318,0,-1.5,6.40901e-10,0,0,0,-0.424199,0.249626,0,0,0,0,0.0578131,-0.00732285,16899,0,0,0,0,11059
11904,-3.11567e-12,1.89754e-38,-1.52478e-06,-3.18057e-12,1.89742e-38,-3.62842e-12,-1.06611e-13,0,0,-3.5526,0.294627,0.817509,-0.422936,0.249466,0.0571793,-0.00724257,0,-0.467061,0.294627,220,-109,220,-109,351,-106,224,20,-0.124009,-0.205751,0,-1.5,6.40901e-10,0,0,0,-0.422936,0.249466,0,0,0,0,0.0571793,-0.00724257,16899,0,0,0,0,11059
11924,-3.11567e-12,1.89754e-38,-1.52478e-06,-3.18057e-12,1.89742e-38,0,-1.06611e-13,0,0,-3.5526,0.294627,0.817509,-0.421801,0.249323,0.0566094,-0.00717037,0,-0.467061,0.294627,220,-109,220,-109,351,-106,224,20,-0.123944,-0.20524,0,-1.5,6.40901e-10,0,0,0,-0.421801,0.249323,0,0,0,0,0.0566094,-0.00717037,16899,0,0,0,0,11059
11941,-3.11567e-12,1.89754e-38,-1.52478e-06,-3.18057e-12,1.89742e-38,-3.62842e-12,-1.06611e-13,0,0,-3.5526,0.294627,0.817509,-0.420844,0.249201,0.0561295,-0.0071096,0,-0.467061,0.294627,220,-109,220,-109,351,-106,224,20,-0.12389,-0.204809,0,-1.5,6.40901e-10,0,0,0,-0.420844,0.249201,0,0,0,0,0.0561295,-0.0071096,16899,0,0,0,0,11059
12050,-3.11567e-12,1.89754e-38,-1.52478e-06,-3.18057e-12,1.89742e-38,0,-1.06611e-13,0,0,-3.5526,0.294627,0.817509,-0.415036,0.248466,0.0530821,-0.0067236,0,-0.467061,0.294627,220,-109,220,-109,351,-106,224,20,-0.123561,-0.20221,0,-1.5,6.40901e-10,0,0,0,-0.415036,0.248466,0,0,0,0,0.0530821,-0.0067236,16899,0,0,0,0,11059
12492,-3.11567e-12,1.89754e-38,-1.52478e-06,-3.18057e-12,1.89742e-38,-3.62842e-12,-1.06612e-13,0,0,-3.53478,0.10187,0.567124,-0.396654,0.246137,0.041403,-0.00524428,0,-0.442652,0.10187,246,-85,246,-85,374,-79,244,45,-0.122544,-0.194186,0,-1.5,6.40901e-10,0,0,0,-0.396654,0.246137,0,0,0,0,0.041403,-0.00524428,17550,0,0,0,0,12483
12740,-3.11567e-12,1.89754e-38,-1.52478e-06,-3.18057e-12,1.89742e-38,0,-1.06612e-13,0,0,-3.48365,0.105501,0.530647,-0.387619,0.244993,0.0362891,-0.00459653,0,-0.372597,0.105501,243,-84,243,-84,375,-81,244,48,-0.122037,-0.190181,0,-1.5,6.40901e-10,0,0,0,-0.387619,0.244993,0,0,0,0,0.0362891,-0.00459653,17688,0,0,0,0,12732
12763,-3.11567e-12,1.89754e-38,-1.52478e-06,-3.18057e-12,1.89742e-38,-3.62842e-12,-1.06612e-13,0,0,-3.48365,0.105501,0.530647,-0.386791,0.244888,0.0358732,-0.00454385,0,-0.372597,0.105501,243,-84,243,-84,375,-81,244,48,-0.12199,-0.189809,0,-1.5,6.40901e-10,0,0,0,-0.386791,0.244888,0,0,0,0,0.0358732,-0.00454385,17688,0,0,0,0,12732
12782,-3.11567e-12,1.89754e-38,-1.52478e-06,-3.18057e-12,1.89742e-38,0,-1.06612e-13,0,0,-3.48701,0.103134,0.528958,-0.386114,0.244802,0.0355334,-0.00450081,0,-0.377206,0.103134,243,-84,243,-84,372,-79,244,48,-0.121951,-0.189503,0,-1.5,6.40901e-10,0,0,0,-0.386114,0.244802,0,0,0,0,0.0355334,-0.00450081,17286,0,0,0,0,12774
12806,-3.11567e-12,1.89754e-38,-1.52478e-06,-3.18057e-12,1.89742e-38,-3.62842e-12,-1.06613e-13,0,0,-3.55632,0.114059,0.569281,-0.385268,0.244695,0.0351087,-0.00444701,0,-0.472157,0.114059,246,-84,246,-84,369,-79,244,49,-0.0599767,-0.261799,0,-1.5,6.40901e-10,0,0,0,-0.475105,0.114313,0,0,0,0,-0.327614,0.0282083,16750,-0.0865727,-0.130677,-0.362723,0.0326553,12799
12823,-3.11567e-12,1.89754e-38,-1.52478e-06,-3.18057e-12,1.89742e-38,0,-1.06613e-13,0,0,-3.55632,0.114059,0.569281,-0.384674,0.24462,0.0348111,-0.00440932,0,-0.472157,0.114059,246,-84,246,-84,369,-79,244,49,-0.0602204,-0.261799,0,-1.5,6.40901e-10,0,0,0,-0.480678,0.114792,0,0,0,0,-0.327912,0.028246,16750,-0.0865727,-0.130677,-0.362723,0.0326553,12799
12843,-3.11567e-12,1.89754e-38,-1.52478e-06,-3.18057e-12,1.89742e-38,-3.62842e-12,-1.06613e-13,0,0,-3.48365,0.105501,0.530647,-0.383983,0.244532,0.0344641,-0.00436536,0,-0.372597,0.105501,243,-84,243,-84,375,-81,244,48,-0.0527742,-0.191229,0,-1.5,6.40901e-10,0,0,0,-0.378671,0.105505,0,0,0,0,-0.0189403,0.000218889,17688,0.00638039,-0.139119,-0.0534044,0.00458425,12831
12869,-3.11567e-12,1.89754e-38,-1.52478e-06,-3.18057e-12,1.89742e-38,0,-1.06614e-13,0,0,-3.59004,0.0932321,0.595404,-0.383095,0.24442,0.0340178,-0.00430884,0,-0.518356,0.0932321,248,-82,248,-82,375,-78,246,46,-0.0502713,-0.261799,0,-1.5,6.40901e-10,0,0,0,-0.495783,0.102229,0,0,0,0,-0.328705,-0.00843322,16770,-0.109424,-0.142154,-0.362723,-0.00412438,12862
12886,-3.11567e-12,1.89754e-38,-1.52478e-06,-3.18057e-12,1.89742e-38,-3.62842e-12,-1.06614e-13,0,0,-3.59004,0.0932321,0.595404,-0.38252,0.244347,0.0337295,-0.00427232,0,-0.518356,0.0932321,248,-82,248,-82,375,-78,246,46,-0.0502036,-0.261799,0,-1.5,6.40901e-10,0,0,0,-0.501374,0.102086,0,0,0,0,-0.328993,-0.0083967,16770,-0.109424,-0.142154,-0.362723,-0.00412438,12862
12906,-3.11567e-12,1.89754e-38,-1.52478e-06,-3.18057e-12,1.89742e-38,0,-1.06614e-13,0,0,-3.51519,0.0959012,0.54779,-0.38185,0.244262,0.0333934,-0.00422975,0,-0.415812,0.0959012,246,-84,246,-84,375,-81,246,49,-0.0501236,-0.219475,0,-1.5,6.40901e-10,0,0,0,-0.417018,0.101918,0,0,0,0,-0.109664,-0.00835413,17286,-0.0335943,-0.142298,-0.143057,-0.00412438,12897
12923,-3.11567e-12,1.89754e-38,-1.52478e-06,-3.18057e-12,1.89742e-38,-3.62842e-12,-1.06614e-13,0,0,-3.51519,0.0959012,0.54779,-0.381285,0.244191,0.0331104,-0.0041939,0,-0.415812,0.0959012,246,-84,246,-84,375,-81,246,49,-0.0500565,-0.220435,0,-1.5,6.40901e-10,0,0,0,-0.418885,0.101777,0,0,0,0,-0.109947,-0.00831828,17286,-0.0335943,-0.142298,-0.143057,-0.00412438,12897
12948,-3.11567e-12,1.89754e-38,-1.52478e-06,-3.18057e-12,1.89742e-38,0,-1.06615e-13,0,0,-3.48614,0.0995971,0.52548,-0.380465,0.244087,0.032698,-0.00414166,0,-0.376014,0.0995971,246,-84,246,-84,375,-81,244,51,-0.0482997,-0.221856,0,-1.5,6.40901e-10,0,0,0,-0.421641,0.0992637,0,0,0,0,-0.110359,-0.0133232,17685,-0.0375997,-0.144594,-0.143057,-0.00918159,12936
12962,-3.11567e-12,1.89754e-38,-1.52478e-06,-3.18057e-12,1.89742e-38,-3.62842e-12,-1.06615e-13,0,0,-3.48614,0.0995971,0.52548,-0.380009,0.244029,0.0324697,-0.00411274,0,-0.376014,0.0995971,246,-84,246,-84,375,-81,244,51,-0.0482095,-0.222651,0,-1.5,6.40901e-10,0,0,0,-0.423188,0.0990774,0,0,0,0,-0.110587,-0.0132943,17685,-0.0375997,-0.144594,-0.143057,-0.00918159,12936
12982,-3.11567e-12,1.89754e-38,-1.52478e-06,-3.18057e-12,1.89742e-38,0,-1.06617e-13,0,0,-3.56129,0.105962,0.583391,-0.379364,0.243947,0.0321459,-0.00407174,0,-0.478971,0.105962,248,-84,248,-84,371,-81,244,48,-0.0495921,-0.231475,0,-1.5,6.40901e-10,0,0,0,-0.435093,0.101144,0,0,0,0,-0.139301,-0.00980594,16764,-0.0522997,-0.142688,-0.171447,-0.0057342,12970
13008,-3.11567e-12,1.89754e-38,-1.52478e-06,-3.18057e-12,1.89742e-38,-3.62842e-12,-1.06617e-13,0,0,-3.56989,0.110433,0.590759,-0.378536,0.243842,0.0317298,-0.00401903,0,-0.490755,0.110433,248,-85,248,-85,369,-81,244,48,-0.0530737,-0.261799,0,-1.5,6.40901e-10,0,0,0,-0.491723,0.10589,0,0,0,0,-0.23451,0.0012876,16625,-0.109993,-0.138016,-0.26624,0.00530663,12998
13027,-3.11567e-12,1.89754e-38,-1.52478e-06,-3.18057e-12,1.89742e-38,0,-1.06615e-13,0,0,-3.56989,0.110433,0.590759,-0.377937,0.243767,0.0314292,-0.00398096,0,-0.490755,0.110433,248,-85,248,-85,369,-81,244,48,-0.0530899,-0.261799,0,-1.5,6.40901e-10,0,0,0,-0.496183,0.105915,0,0,0,0,-0.234811,0.00132567,16625,-0.109993,-0.138016,-0.26624,0.00530663,12998
13048,-3.11567e-12,1.89754e-38,-1.52478e-06,-3.18057e-12,1.89742e-38,-3.62842e-12,-1.06616e-13,0,0,-3.55609,0.113803,0.569134,-0.377282,0.243684,0.0311002,-0.00393929,0,-0.471849,0.113803,246,-84,246,-84,369,-79,244,48,-0.0533987,-0.258453,0,-1.5,6.40901e-10,0,0,0,-0.476593,0.106215,0,0,0,0,-0.201587,0.00291255,16875,-0.0944249,-0.137612,-0.232687,0.00685184,13036
13074,-3.11567e-12,1.89754e-38,-1.52478e-06,-3.18057e-12,1.89742e-38,0,-1.06616e-13,0,0,-3.55011,0.0994309,0.5724,-0.37648,0.243582,0.0306976,-0.00388829,0,-0.463656,0.0994309,248,-82,248,-82,374,-81,244,48,-0.053197,-0.256096,0,-1.5,6.40901e-10,0,0,0,-0.475527,0.105926,0,0,0,0,-0.183342,0.00233859,16900,-0.0964783,-0.137731,-0.21404,0.00622688,13064
13125,-3.11567e-12,1.89754e-38,-1.52478e-06,-3.18057e-12,1.89742e-38,-3.62842e-12,-1.06616e-13,0,0,-3.55736,0.100092,0.559194,-0.374949,0.243388,0.0299177,-0.00378949,0,-0.473581,0.100092,249,-84,249,-84,372,-76,244,48,-0.0488968,-0.258654,0,-1.5,6.40901e-10,0,0,0,-0.482004,0.0997038,0,0,0,0,-0.176545,-0.00954957,17536,-0.0965256,-0.143391,-0.206463,-0.00576008,13113
13147,-3.11567e-12,1.89754e-38,-1.52478e-06,-3.18057e-12,1.89742e-38,0,-1.06615e-13,0,0,-3.56129,0.105962,0.583391,-0.374325,0.243309,0.0296045,-0.00374983,0,-0.478971,0.105962,248,-84,248,-84,371,-81,244,48,-0.0526931,-0.254978,0,-1.5,6.40901e-10,0,0,0,-0.486036,0.105366,0,0,0,0,-0.179431,0.000147047,16764,-0.107321,-0.138025,-0.209036,0.00389687,13134
13171,-3.11567e-12,1.89754e-38,-1.52478e-06,-3.18057e-12,1.89742e-38,-3.62842e-12,-1.06618e-13,0,0,-3.58206,0.110486,0.594189,-0.373591,0.243216,0.029236,-0.00370315,0,-0.507424,0.110486,248,-85,248,-85,369,-79,244,48,-0.0533431,-0.261799,0,-1.5,6.40901e-10,0,0,0,-0.491347,0.106183,0,0,0,0,-0.17945,0.00251882,16625,-0.115043,-0.137114,-0.208686,0.00622197,13161
13214,-3.11567e-12,1.89754e-38,-1.52478e-06,-3.18057e-12,1.89742e-38,0,-1.0662e-13,0,0,-3.58873,0.110845,0.59628,-0.372356,0.24306,0.0286099,-0.00362385,0,-0.516562,0.110845,248,-84,248,-84,369,-79,244,48,-0.0533552,-0.261799,0,-1.5,6.40901e-10,0,0,0,-0.508741,0.106321,0,0,0,0,-0.19587,0.00194647,16500,-0.126733,-0.136979,-0.22448,0.00557031,13201
13236,-3.11567e-12,1.89754e-38,-1.52478e-06,-3.18057e-12,1.89742e-38,-3.62842e-12,-1.0662e-13,0,0,-3.57382,0.113882,0.573887,-0.371731,0.242981,0.0282964,-0.00358414,0,-0.49613,0.113882,246,-84,246,-84,369,-76,244,48,-0.146109,-0.106554,0,-1.5,6.40901e-10,0,0,0,-0.503176,0.111766,0,0,0,0,-0.18311,0.0182344,16875,-0.130176,-0.131346,-0.211406,0.0218186,13232
13273,-3.11567e-12,1.89754e-38,-1.52478e-06,-3.18057e-12,1.89742e-38,0,-1.0662e-13,0,0,-3.55832,0.102681,0.566442,-0.370699,0.24285,0.0277755,-0.00351816,0,-0.474903,0.102681,248,-84,248,-84,372,-77,244,48,-0.0533842,-0.261799,0,-1.5,6.40901e-10,0,0,0,-0.508811,0.106402,0,0,0,0,-0.178026,0.0018313,17280,-0.136466,-0.136491,-0.205801,0.00534946,13267
13291,-3.11567e-12,1.89754e-38,-1.52478e-06,-3.18057e-12,1.89742e-38,-3.62842e-12,-1.06617e-13,0,0,-3.55832,0.102681,0.566442,-0.370202,0.242787,0.0275262,-0.00348659,0,-0.474903,0.102681,248,-84,248,-84,372,-77,244,48,-0.0534034,-0.261799,0,-1.5,6.40901e-10,0,0,0,-0.512018,0.106435,0,0,0,0,-0.178275,0.00186287,17280,-0.136466,-0.136491,-0.205801,0.00534946,13267
13313,-3.11567e-12,1.89754e-38,-1.52478e-06,-3.18057e-12,1.89742e-38,0,-1.06619e-13,0,0,-3.58283,0.103582,0.586425,-0.369601,0.242711,0.0272245,-0.00344836,0,-0.508476,0.103582,248,-84,248,-84,372,-76,244,48,-0.0533857,-0.261799,0,-1.5,6.40901e-10,0,0,0,-0.512577,0.106388,0,0,0,0,-0.17483,0.00191928,16896,-0.138531,-0.136441,-0.202055,0.00536764,13300
13330,-3.11567e-12,1.89754e-38,-1.52478e-06,-3.18057e-12,1.89742e-38,-3.62842e-12,-1.06618e-13,0,0,-3.58283,0.103582,0.586425,-0.36914,0.242652,0.0269937,-0.00341914,0,-0.508476,0.103582,248,-84,248,-84,372,-76,244,48,-0.0534051,-0.261799,0,-1.5,6.40901e-10,0,0,0,-0.515551,0.106421,0,0,0,0,-0.175061,0.0019485,16896,-0.138531,-0.136441,-0.202055,0.00536764,13300
13355,-3.11567e-12,1.89754e-38,-1.52478e-06,-3.18057e-12,1.89742e-38,0,-1.06619e-13,0,0,-3.58283,0.103582,0.586425,-0.368472,0.242568,0.0266574,-0.00337654,0,-0.508476,0.103582,248,-84,248,-84,372,-76,244,48,-0.0521561,-0.261799,0,-1.5,6.40901e-10,0,0,0,-0.520087,0.104409,0,0,0,0,-0.176183,-0.000487217,16896,-0.146545,-0.138231,-0.20284,0.00288932,13342
13380,-3.11567e-12,1.89754e-38,-1.52478e-06,-3.18057e-12,1.89742e-38,-3.62842e-12,-1.06619e-13,0,0,-3.56079,0.105381,0.574374,-0.367811,0.242484,0.0263253,-0.00333448,0,-0.478284,0.105381,248,-84,248,-84,371,-79,244,48,-0.0527634,-0.261799,0,-1.5,6.40901e-10,0,0,0,-0.524263,0.105373,0,0,0,0,-0.173959,0.000776607,17018,-0.151445,-0.137214,-0.200285,0.00411108,13367
13397,-3.11567e-12,1.89754e-38,-1.52478e-06,-3.18057e-12,1.89742e-38,0,-1.06618e-13,0,0,-3.56079,0.105381,0.574374,-0.367366,0.242428,0.0261022,-0.00330621,0,-0.478284,0.105381,248,-84,248,-84,371,-79,244,48,-0.0527735,-0.261799,0,-1.5,6.40901e-10,0,0,0,-0.527223,0.105386,0,0,0,0,-0.174183,0.00080487,17018,-0.151445,-0.137214,-0.200285,0.00411108,13367
13419,-3.11567e-12,1.89754e-38,-1.52478e-06,-3.18057e-12,1.89742e-38,-3.62842e-12,-1.0662e-13,0,0,-3.5509,0.102067,0.555211,-0.366797,0.242355,0.025816,-0.00326997,0,-0.46473,0.102067,248,-84,248,-84,372,-76,244,48,-0.0517969,-0.261799,0,-1.5,6.40901e-10,0,0,0,-0.526904,0.103776,0,0,0,0,-0.163497,-0.00091318,17536,-0.155943,-0.138631,-0.189313,0.00235679,13406
13472,-3.11567e-12,1.89754e-38,-1.52478e-06,-3.18057e-12,1.89742e-38,0,-1.06622e-13,0,0,-3.56984,0.10762,0.569694,-0.365457,0.242186,0.0251356,-0.00318378,0,-0.490687,0.10762,246,-82,246,-82,372,-76,244,48,-0.052793,-0.261799,0,-1.5,6.40901e-10,0,0,0,-0.527672,0.105445,0,0,0,0,-0.143169,0.000701021,16896,-0.1607,-0.136776,-0.168305,0.0038848,13465
13512,-3.11567e-12,1.89754e-38,-1.52478e-06,-3.18057e-12,1.89742e-38,-3.62842e-12,-1.06621e-13,0,0,-3.58283,0.103582,0.586425,-0.364468,0.242061,0.0246346,-0.00312033,0,-0.508476,0.103582,248,-84,248,-84,372,-76,244,48,-0.0527448,-0.261799,0,-1.5,6.40901e-10,0,0,0,-0.510181,0.1054,0,0,0,0,-0.0864412,0.000448836,16896,-0.141269,-0.136803,-0.111076,0.00356916,13499
13537,-3.11567e-12,1.89754e-38,-1.52478e-06,-3.18057e-12,1.89742e-38,0,-1.06622e-13,0,0,-3.57994,0.104009,0.590857,-0.363857,0.241983,0.024328,-0.00308149,0,-0.504521,0.104009,249,-84,249,-84,371,-79,244,48,-0.0519175,-0.261799,0,-1.5,6.40901e-10,0,0,0,-0.510355,0.103939,0,0,0,0,-0.0840071,-0.00051781,16764,-0.145306,-0.138072,-0.108335,0.00256368,13528
13558,-3.11567e-12,1.89754e-38,-1.52478e-06,-3.18057e-12,1.89742e-38,-3.62842e-12,-1.06618e-13,0,0,-3.57994,0.104009,0.590857,-0.36335,0.241919,0.0240733,-0.00304923,0,-0.504521,0.104009,249,-84,249,-84,371,-79,244,48,-0.0519165,-0.261799,0,-1.5,6.40901e-10,0,0,0,-0.512123,0.103929,0,0,0,0,-0.0842617,-0.000485553,16764,-0.145306,-0.138072,-0.108335,0.00256368,13528
13577,-3.11567e-12,1.89754e-38,-1.52478e-06,-3.18057e-12,1.89742e-38,0,-1.06623e-13,0,0,-3.54753,0.0964486,0.560092,-0.362896,0.241861,0.0238454,-0.00302036,0,-0.460112,0.0964486,248,-82,248,-82,375,-78,244,48,-0.0519218,-0.261799,0,-1.5,6.40901e-10,0,0,0,-0.510032,0.103902,0,0,0,0,-0.0751879,-0.000292935,17292,-0.145849,-0.137995,-0.0990333,0.00272743,13566
13597,-3.11567e-12,1.89754e-38,-1.52478e-06,-3.18057e-12,1.89742e-38,-3.62842e-12,-1.06622e-13,0,0,-3.54753,0.0964486,0.560092,-0.362422,0.241801,0.0236077,-0.00299026,0,-0.460112,0.0964486,248,-82,248,-82,375,-78,244,48,-0.051922,-0.261799,0,-1.5,6.40901e-10,0,0,0,-0.511539,0.103896,0,0,0,0,-0.0754256,-0.000262828,17292,-0.145849,-0.137995,-0.0990333,0.00272743,13566
13619,-3.11567e-12,1.89754e-38,-1.52478e-06,-3.18057e-12,1.89742e-38,0,-1.06623e-13,0,0,-3.52862,0.0955051,0.550183,-0.361907,0.241736,0.0233489,-0.00295747,0,-0.434214,0.0955051,248,-84,248,-84,375,-78,244,48,-0.0515769,-0.261799,0,-1.5,6.40901e-10,0,0,0,-0.510354,0.103342,0,0,0,0,-0.0708142,-0.000939232,17685,-0.146376,-0.138438,-0.0941631,0.00201824,13606
13763,-3.11567e-12,1.89754e-38,-1.52478e-06,-3.18057e-12,1.89742e-38,-3.62842e-12,-1.06623e-13,0,0,-3.53483,0.0957904,0.556304,-0.358772,0.241339,0.0216751,-0.00274545,0,-0.442722,0.0957904,248,-84,248,-84,375,-78,244,48,-0.0514394,-0.255284,0,-1.5,6.40901e-10,0,0,0,-0.501783,0.103061,0,0,0,0,-0.0439103,-0.000913109,17554,-0.133567,-0.138542,-0.0655854,0.00183235,13632
13806,-3.11567e-12,1.89754e-38,-1.52478e-06,-3.18057e-12,1.89742e-38,0,-1.06621e-13,0,0,-3.57062,0.100701,0.571969,-0.357877,0.241226,0.0212215,-0.002688,0,-0.491747,0.100701,249,-84,249,-84,372,-76,244,48,-0.0508236,-0.260247,0,-1.5,6.40901e-10,0,0,0,-0.509503,0.102161,0,0,0,0,-0.0549618,-0.00257006,17280,-0.148426,-0.139069,-0.0761833,0.000117946,13792
13822,-3.11567e-12,1.89754e-38,-1.52478e-06,-3.18057e-12,1.89742e-38,-3.62842e-12,-1.06621e-13,0,0,-3.57062,0.100701,0.571969,-0.357519,0.24118,0.0210416,-0.00266522,0,-0.491747,0.100701,249,-84,249,-84,372,-76,244,48,-0.0508041,-0.260733,0,-1.5,6.40901e-10,0,0,0,-0.510439,0.102118,0,0,0,0,-0.0551417,-0.00254727,17280,-0.148426,-0.139069,-0.0761833,0.000117946,13792
13849,-3.11567e-12,1.89754e-38,-1.52478e-06,-3.18057e-12,1.89742e-38,0,-1.06624e-13,0,0,-3.57062,0.100701,0.571969,-0.356957,0.241109,0.0207585,-0.00262936,0,-0.491747,0.100701,249,-84,249,-84,372,-76,244,48,-0.0506548,-0.249937,0,-1.5,6.40901e-10,0,0,0,-0.493755,0.101876,0,0,0,0,-0.030593,-0.0028313,17280,-0.135412,-0.139228,-0.0513514,-0.00020194,13835
13872,-3.11567e-12,1.89754e-38,-1.52478e-06,-3.18057e-12,1.89742e-38,-3.62842e-12,-1.06624e-13,0,0,-3.52407,0.117518,0.53393,-0.356483,0.241049,0.0205207,-0.00259924,0,-0.427978,0.117518,244,-82,244,-82,369,-79,244,51,-0.0418551,-0.261799,0,-1.5,6.40901e-10,0,0,0,-0.496429,0.101137,0,0,0,0,-0.0337596,-0.00418,16875,-0.139512,-0.1399,-0.0542804,-0.00158076,13866
13949,-3.11567e-12,1.89754e-38,-1.52478e-06,-3.18057e-12,1.89742e-38,0,-1.06624e-13,0,0,-3.60824,0.108655,0.588953,-0.354957,0.240856,0.019734,-0.00249959,0,-0.543285,0.108655,245,-77,245,-77,371,-79,247,51,-0.0509307,-0.251434,0,-1.5,6.40901e-10,0,0,0,-0.496545,0.102315,0,0,0,0,-0.0316179,-0.00227197,16380,-0.137634,-0.138558,-0.0513519,0.000227617,13935
13966,-3.11567e-12,1.89754e-38,-1.52478e-06,-3.18057e-12,1.89742e-38,-3.62842e-12,-1.06625e-13,0,0,-3.60824,0.108655,0.588953,-0.354623,0.240814,0.0195667,-0.0024784,0,-0.543285,0.108655,245,-77,245,-77,371,-79,247,51,-0.050913,-0.251719,0,-1.5,6.40901e-10,0,0,0,-0.497084,0.102277,0,0,0,0,-0.0317852,-0.00225078,16380,-0.137634,-0.138558,-0.0513519,0.000227617,13935
13985,-3.11567e-12,1.89754e-38,-1.52478e-06,-3.18057e-12,1.89742e-38,0,-1.06625e-13,0,0,-3.60824,0.108655,0.588953,-0.354254,0.240767,0.0193814,-0.00245493,0,-0.543285,0.108655,245,-77,245,-77,371,-79,247,51,-0.0508946,-0.252041,0,-1.5,6.40901e-10,0,0,0,-0.49769,0.102234,0,0,0,0,-0.0319705,-0.00222731,16380,-0.137634,-0.138558,-0.0513519,0.000227617,13935
14005,-3.11567e-12,1.89754e-38,-1.52478e-06,-3.18057e-12,1.89742e-38,-3.62842e-12,-1.06625e-13,0,0,-3.57196,0.116663,0.555345,-0.353869,0.240718,0.0191883,-0.00243047,0,-0.493589,0.116663,245,-77,245,-77,368,-79,245,55,-0.0872955,-0.248686,0,-1.5,6.40901e-10,0,0,0,-0.498048,0.104992,0,0,0,0,-0.0266743,0.00251711,16616,-0.143812,-0.135766,-0.0458626,0.00494758,13999
14022,-3.11567e-12,1.89754e-38,-1.52478e-06,-3.18057e-12,1.89742e-38,0,-1.06625e-13,0,0,-3.57196,0.116663,0.555345,-0.353544,0.240677,0.0190257,-0.00240987,0,-0.493589,0.116663,245,-77,245,-77,368,-79,245,55,-0.0527711,-0.251936,0,-1.5,6.40901e-10,0,0,0,-0.498503,0.105035,0,0,0,0,-0.0268369,0.00253771,16616,-0.143812,-0.135766,-0.0458626,0.00494758,13999
14049,-3.11567e-12,1.89754e-38,-1.52478e-06,-3.18057e-12,1.89742e-38,-3.62842e-12,-1.06626e-13,0,0,-3.57581,0.112464,0.5726,-0.353036,0.240612,0.0187697,-0.00237744,0,-0.498863,0.112464,248,-84,248,-84,368,-77,244,51,-0.0563698,-0.250933,0,-1.5,6.40901e-10,0,0,0,-0.497097,0.110682,0,0,0,0,-0.0238503,0.0102868,16740,-0.142911,-0.130273,-0.0426199,0.0126642,14035
14075,-3.11567e-12,1.89754e-38,-1.52478e-06,-3.18057e-12,1.89742e-38,0,-1.06626e-13,0,0,-3.58626,0.137713,0.600968,-0.352552,0.240551,0.0185267,-0.00234667,0,-0.513182,0.137713,242,-84,242,-84,365,-81,244,49,-0.0562711,-0.252324,0,-1.5,6.40901e-10,0,0,0,-0.499271,0.110634,0,0,0,0,-0.0268842,0.00954144,16492,-0.146175,-0.13006,-0.0454109,0.0118881,14065
14092,-3.11567e-12,1.89754e-38,-1.52478e-06,-3.18057e-12,1.89742e-38,-3.62842e-12,-1.06626e-13,0,0,-3.58626,0.137713,0.600968,-0.352239,0.240511,0.0183697,-0.00232679,0,-0.513182,0.137713,242,-84,242,-84,365,-81,244,49,-0.0563545,-0.25257,0,-1.5,6.40901e-10,0,0,0,-0.49973,0.110796,0,0,0,0,-0.0270412,0.00956133,16492,-0.146175,-0.13006,-0.0454109,0.0118881,14065
14119,-3.11567e-12,1.89754e-38,-1.52478e-06,-3.18057e-12,1.89742e-38,0,-1.06626e-13,0,0,-3.59896,0.138516,0.604735,-0.351748,0.240449,0.0181225,-0.00229548,0,-0.53057,0.138516,242,-82,242,-82,365,-81,244,49,-0.0578785,-0.253783,0,-1.5,6.40901e-10,0,0,0,-0.501868,0.113479,0,0,0,0,-0.0284773,0.0113874,16244,-0.148862,-0.127339,-0.0465998,0.0136829,14105
14142,-3.11567e-12,1.89754e-38,-1.52478e-06,-3.18057e-12,1.89742e-38,-3.62842e-12,-1.06627e-13,0,0,-3.56701,0.128489,0.576235,-0.351335,0.240397,0.0179148,-0.00226916,0,-0.486803,0.128489,242,-82,242,-82,369,-79,244,51,-0.0580539,-0.253027,0,-1.5,6.40901e-10,0,0,0,-0.500993,0.11379,0,0,0,0,-0.0253126,0.0115926,16891,-0.148665,-0.126926,-0.0432274,0.0138618,14128
14159,-3.11567e-12,1.89754e-38,-1.52478e-06,-3.18057e-12,1.89742e-38,0,-1.06627e-13,0,0,-3.56701,0.128489,0.576235,-0.351032,0.240359,0.017763,-0.00224993,0,-0.486803,0.128489,242,-82,242,-82,369,-79,244,51,-0.0581548,-0.253258,0,-1.5,6.40901e-10,0,0,0,-0.501425,0.113987,0,0,0,0,-0.0254645,0.0116118,16891,-0.148665,-0.126926,-0.0432274,0.0138618,14128
14185,-3.11567e-12,1.89754e-38,-1.52478e-06,-3.18057e-12,1.89742e-38,-3.62842e-12,-1.06627e-13,0,0,-3.54587,0.133621,0.551709,-0.350574,0.240301,0.0175329,-0.00222078,0,-0.457844,0.133621,241,-82,241,-82,367,-79,244,51,-0.0620557,-0.250273,0,-1.5,6.40901e-10,0,0,0,-0.49725,0.120388,0,0,0,0,-0.0164786,0.0186202,16758,-0.145791,-0.120455,-0.0340114,0.020841,14171
14212,-3.11567e-12,1.89754e-38,-1.52478e-06,-3.18057e-12,1.89742e-38,0,-1.06627e-13,0,0,-3.57185,0.137141,0.574531,-0.350105,0.240241,0.0172972,-0.00219094,0,-0.493433,0.137141,241,-82,241,-82,367,-79,244,51,-0.0631944,-0.252017,0,-1.5,6.40901e-10,0,0,0,-0.499236,0.122316,0,0,0,0,-0.0240105,0.0203655,16758,-0.148553,-0.118241,-0.0413077,0.0225564,14200
14230,-3.11567e-12,1.89754e-38,-1.52478e-06,-3.18057e-12,1.89742e-38,-3.62842e-12,-1.06628e-13,0,0,-3.57185,0.137141,0.574531,-0.349796,0.240202,0.017142,-0.00217128,0,-0.493433,0.137141,241,-82,241,-82,367,-79,244,51,-0.0633797,-0.252252,0,-1.5,6.40901e-10,0,0,0,-0.49967,0.122682,0,0,0,0,-0.0241657,0.0203852,16758,-0.148553,-0.118241,-0.0413077,0.0225564,14200
14275,-3.11567e-12,1.89754e-38,-1.52478e-06,-3.18057e-12,1.89742e-38,0,-1.06628e-13,0,0,-3.56582,0.145766,0.59021,-0.349054,0.240108,0.0167668,-0.00212376,0,-0.485169,0.145766,239,-84,239,-84,365,-82,244,49,-0.0678033,-0.248559,0,-1.5,6.40901e-10,0,0,0,-0.495339,0.130054,0,0,0,0,-0.00889893,0.0277633,16758,-0.145951,-0.110442,-0.0256658,0.029887,14263
14293,-3.11567e-12,1.89754e-38,-1.52478e-06,-3.18057e-12,1.89742e-38,-3.62842e-12,-1.06628e-13,0,0,-3.56582,0.145766,0.59021,-0.348738,0.240068,0.016608,-0.00210364,0,-0.485169,0.145766,239,-84,239,-84,365,-82,244,49,-0.0680687,-0.248661,0,-1.5,6.40901e-10,0,0,0,-0.49551,0.130582,0,0,0,0,-0.00905772,0.0277834,16758,-0.145951,-0.110442,-0.0256658,0.029887,14263
14319,-3.11567e-12,1.89754e-38,-1.52478e-06,-3.18057e-12,1.89742e-38,0,-1.06629e-13,0,0,-3.62458,0.127884,0.611598,-0.34831,0.240014,0.0163928,-0.00207638,0,-0.565676,0.127884,244,-82,244,-82,367,-79,246,49,-0.0666822,-0.24841,0,-1.5,6.40901e-10,0,0,0,-0.495056,0.128413,0,0,0,0,-0.00882475,0.0247683,16113,-0.146091,-0.112299,-0.0252176,0.0268447,14305
14342,-3.11567e-12,1.89754e-38,-1.52478e-06,-3.18057e-12,1.89742e-38,-3.62842e-12,-1.06629e-13,0,0,-3.5638,0.142177,0.575768,-0.347952,0.239968,0.0162132,-0.00205363,0,-0.482402,0.142177,242,-82,242,-82,365,-82,243,53,-0.0686764,-0.247345,0,-1.5,6.40901e-10,0,0,0,-0.493623,0.13174,0,0,0,0,-0.00533005,0.0280709,16605,-0.145477,-0.1085,-0.0215433,0.0301245,14334
14363,-3.11567e-12,1.89754e-38,-1.52478e-06,-3.18057e-12,1.89742e-38,0,-1.06629e-13,0,0,-3.5638,0.142177,0.575768,-0.347614,0.239926,0.0160435,-0.00203213,0,-0.482402,0.142177,242,-82,242,-82,365,-82,243,53,-0.0689743,-0.247419,0,-1.5,6.40901e-10,0,0,0,-0.493737,0.132329,0,0,0,0,-0.00549977,0.0280924,16605,-0.145477,-0.1085,-0.0215433,0.0301245,14334
14385,-3.11567e-12,1.89754e-38,-1.52478e-06,-3.18057e-12,1.89742e-38,-3.62842e-12,-1.06629e-13,0,0,-3.4954,0.152216,0.541408,-0.347248,0.239879,0.0158596,-0.00200884,0,-0.3887,0.152216,236,-84,236,-84,365,-84,243,53,-0.0716196,-0.247536,0,-1.5,6.40901e-10,0,0,0,-0.493865,0.136768,0,0,0,0,-0.00603152,0.0323661,17673,-0.146113,-0.103902,-0.0218911,0.0343749,14371
14411,-3.11567e-12,1.89754e-38,-1.52478e-06,-3.18057e-12,1.89742e-38,0,-1.0663e-13,0,0,-3.49395,0.156384,0.527796,-0.346839,0.239828,0.0156544,-0.00198285,0,-0.386714,0.156384,236,-83,236,-83,364,-82,242,55,-0.0761058,-0.245269,0,-1.5,6.40901e-10,0,0,0,-0.489989,0.143934,0,0,0,0,-0.00274493,0.0413922,17802,-0.142892,-0.0965012,-0.0183993,0.0433751,14399
14452,-3.11567e-12,1.89754e-38,-1.52478e-06,-3.18057e-12,1.89742e-38,-3.62842e-12,-1.0663e-13,0,0,-3.58401,0.156,0.590781,-0.346208,0.239748,0.0153347,-0.00194235,0,-0.510087,0.156,239,-81,239,-81,362,-82,243,51,-0.0776229,-0.249533,0,-1.5,6.40901e-10,0,0,0,-0.496652,0.146548,0,0,0,0,-0.0120781,0.0435,16758,-0.14932,-0.0950626,-0.0274128,0.0454424,14438
14479,-3.11567e-12,1.89754e-38,-1.52478e-06,-3.18057e-12,1.89742e-38,0,-1.0663e-13,0,0,-3.58588,0.153727,0.593914,-0.345798,0.239696,0.0151283,-0.00191622,0,-0.51265,0.153727,239,-82,239,-82,362,-82,244,51,-0.0789447,-0.248317,0,-1.5,6.40901e-10,0,0,0,-0.495128,0.148843,0,0,0,0,-0.00751538,0.0452369,16758,-0.148719,-0.0921258,-0.0226437,0.0471531,14465
14496,-3.11567e-12,1.89754e-38,-1.52478e-06,-3.18057e-12,1.89742e-38,-3.62842e-12,-1.0663e-13,0,0,-3.58588,0.153727,0.593914,-0.345542,0.239663,0.0150001,-0.00189998,0,-0.51265,0.153727,239,-82,239,-82,362,-82,244,51,-0.0793308,-0.248393,0,-1.5,6.40901e-10,0,0,0,-0.495257,0.149612,0,0,0,0,-0.00764361,0.0452531,16758,-0.148719,-0.0921258,-0.0226437,0.0471531,14465
14521,-3.11567e-12,1.89754e-38,-1.52478e-06,-3.18057e-12,1.89742e-38,0,-1.06631e-13,0,0,-3.55407,0.160074,0.574518,-0.345171,0.239616,0.0148132,-0.0018763,0,-0.469078,0.160074,236,-84,236,-84,364,-79,242,50,-0.0813494,-0.249923,0,-1.5,6.40901e-10,0,0,0,-0.497629,0.152798,0,0,0,0,-0.0110832,0.0495068,17152,-0.15181,-0.0881024,-0.0258964,0.0513831,14507
14580,-3.11567e-12,1.89754e-38,-1.52478e-06,-3.18057e-12,1.89742e-38,-3.62842e-12,-1.06631e-13,0,0,-3.52123,0.157438,0.562339,-0.344319,0.239508,0.014378,-0.00182118,0,-0.42409,0.157438,236,-83,236,-83,364,-84,242,50,-0.0862503,-0.247562,0,-1.5,6.40901e-10,0,0,0,-0.493631,0.160565,0,0,0,0,-0.00745786,0.0596835,17286,-0.148024,-0.0825723,-0.0218359,0.0615047,14566
14594,-3.11567e-12,1.89754e-38,-1.52478e-06,-3.18057e-12,1.89742e-38,0,-1.06631e-13,0,0,-3.52123,0.157438,0.562339,-0.344119,0.239483,0.0142776,-0.00180846,0,-0.42409,0.157438,236,-83,236,-83,364,-84,242,50,-0.0866681,-0.247625,0,-1.5,6.40901e-10,0,0,0,-0.493737,0.1614,0,0,0,0,-0.00755825,0.0596962,17286,-0.148024,-0.0825723,-0.0218359,0.0615047,14566
14650,-3.11567e-12,1.89754e-38,-1.52478e-06,-3.18057e-12,1.89742e-38,-3.62842e-12,-1.06632e-13,0,0,-3.53749,0.15987,0.561443,-0.343339,0.239384,0.0138793,-0.00175801,0,-0.44636,0.15987,236,-83,236,-83,362,-82,243,51,-0.0885532,-0.243688,0,-1.5,6.40901e-10,0,0,0,-0.487039,0.164955,0,0,0,0,-0.00167693,0.0607654,17286,-0.142829,-0.0779309,-0.0155562,0.0625235,14636
14678,-3.11567e-12,1.89754e-38,-1.52478e-06,-3.18057e-12,1.89742e-38,0,-1.06632e-13,0,0,-3.59185,0.160279,0.597982,-0.342968,0.239337,0.0136925,-0.00173435,0,-0.520838,0.160279,239,-82,239,-82,362,-81,242,50,-0.0894384,-0.245943,0,-1.5,6.40901e-10,0,0,0,-0.49118,0.166467,0,0,0,0,-0.00353426,0.0620565,16500,-0.147747,-0.0745924,-0.0172268,0.0637909,14664
14695,-3.11567e-12,1.89754e-38,-1.52478e-06,-3.18057e-12,1.89742e-38,-3.62842e-12,-1.06632e-13,0,0,-3.59185,0.160279,0.597982,-0.342736,0.239308,0.0135765,-0.00171965,0,-0.520838,0.160279,239,-82,239,-82,362,-81,242,50,-0.0899682,-0.245986,0,-1.5,6.40901e-10,0,0,0,-0.491241,0.167522,0,0,0,0,-0.00365032,0.0620712,16500,-0.147747,-0.0745924,-0.0172268,0.0637909,14664
14717,-3.11567e-12,1.89754e-38,-1.52478e-06,-3.18057e-12,1.89742e-38,0,-1.06632e-13,0,0,-3.56212,0.156956,0.568435,-0.342427,0.239269,0.0134209,-0.00169994,0,-0.480098,0.156956,239,-81,239,-81,361,-81,242,52,-0.0904363,-0.240312,0,-1.5,6.40901e-10,0,0,0,-0.482102,0.168295,0,0,0,0,0.00738601,0.0629001,16891,-0.139537,-0.0724598,-0.00603486,0.0646001,14703
14740,-3.11567e-12,1.89754e-38,-1.52478e-06,-3.18057e-12,1.89742e-38,-3.62842e-12,-1.06633e-13,0,0,-3.56212,0.156956,0.568435,-0.342133,0.239231,0.0132738,-0.00168132,0,-0.480098,0.156956,239,-81,239,-81,361,-81,242,52,-0.0886034,-0.240188,0,-1.5,6.40901e-10,0,0,0,-0.481368,0.168903,0,0,0,0,0.00743596,0.0622858,16891,-0.139182,-0.0709044,-0.00583785,0.0639671,14732
14769,-3.11567e-12,1.89754e-38,-1.52478e-06,-3.18057e-12,1.89742e-38,0,-1.06633e-13,0,0,-3.61765,0.161454,0.601252,-0.341739,0.239182,0.0130757,-0.00165622,0,-0.556174,0.161454,239,-79,239,-79,362,-79,242,50,-0.0921426,-0.239342,0,-1.5,6.40901e-10,0,0,0,-0.480139,0.171278,0,0,0,0,0.00730099,0.065037,16125,-0.138342,-0.0685705,-0.00577466,0.0666932,14761
14787,-3.11567e-12,1.89754e-38,-1.52478e-06,-3.18057e-12,1.89742e-38,-3.62842e-12,-1.06633e-13,0,0,-3.61765,0.161454,0.601252,-0.341518,0.239154,0.0129648,-0.00164218,0,-0.556174,0.161454,239,-79,239,-79,362,-79,242,50,-0.0926969,-0.239288,0,-1.5,6.40901e-10,0,0,0,-0.480016,0.172384,0,0,0,0,0.00719016,0.065051,16125,-0.138342,-0.0685705,-0.00577466,0.0666932,14761
14809,-3.11567e-12,1.89754e-38,-1.52478e-06,-3.18057e-12,1.89742e-38,0,-1.06633e-13,0,0,-3.55575,0.154919,0.567207,-0.341222,0.239116,0.0128163,-0.00162337,0,-0.471381,0.154919,236,-79,236,-79,364,-81,243,51,-0.0933964,-0.24072,0,-1.5,6.40901e-10,0,0,0,-0.482172,0.17373,0,0,0,0,0.00365839,0.0653131,17160,-0.14084,-0.0661888,-0.00915793,0.0669365,14800
14830,-3.11567e-12,1.89754e-38,-1.52478e-06,-3.18057e-12,1.89742e-38,-3.62842e-12,-1.06634e-13,0,0,-3.55575,0.154919,0.567207,-0.340955,0.239082,0.0126822,-0.00160637,0,-0.471381,0.154919,236,-79,236,-79,364,-81,243,51,-0.0940838,-0.240696,0,-1.5,6.40901e-10,0,0,0,-0.482097,0.175102,0,0,0,0,0.00352423,0.0653301,17160,-0.14084,-0.0661888,-0.00915793,0.0669365,14800
14853,-3.11567e-12,1.89754e-38,-1.52478e-06,-3.18057e-12,1.89742e-38,0,-1.06634e-13,0,0,-3.59541,0.139291,0.584986,-0.340666,0.239046,0.0125368,-0.00158796,0,-0.525707,0.139291,239,-77,239,-77,367,-81,246,51,-0.0945433,-0.238705,0,-1.5,6.40901e-10,0,0,0,-0.479085,0.17605,0,0,0,0,0.00837783,0.0651812,16896,-0.138323,-0.0645317,-0.00415899,0.0667692,14839
14882,-3.11567e-12,1.89754e-38,-1.52478e-06,-3.18057e-12,1.89742e-38,-3.62842e-12,-1.06634e-13,0,0,-3.48351,0.140824,0.534596,-0.340306,0.239,0.0123556,-0.00156501,0,-0.372409,0.140824,236,-83,236,-83,370,-83,243,51,-0.0936789,-0.237233,0,-1.5,6.40901e-10,0,0,0,-0.476966,0.175029,0,0,0,0,0.0125093,0.0616541,17956,-0.136664,-0.0658047,0.000153709,0.0632191,14868
14905,-3.11567e-12,1.89754e-38,-1.52478e-06,-3.18057e-12,1.89742e-38,0,-1.06635e-13,0,0,-3.52539,0.130045,0.548062,-0.340024,0.238964,0.0122141,-0.00154709,0,-0.42979,0.130045,241,-79,241,-79,370,-83,243,51,0.00846779,-0.194245,0,-1.5,6.40901e-10,0,0,0,-0.473384,0.168535,0,0,0,0,0.0162411,0.0495357,17286,-0.133392,-0.0708383,0.00402695,0.0510828,14899
14926,-3.11567e-12,1.89754e-38,-1.52478e-06,-3.18057e-12,1.89742e-38,-3.62842e-12,-1.06635e-13,0,0,-3.52539,0.130045,0.548062,-0.33977,0.238932,0.0120863,-0.00153089,0,-0.42979,0.130045,241,-79,241,-79,370,-83,243,51,-0.0897437,-0.23491,0,-1.5,6.40901e-10,0,0,0,-0.473044,0.169575,0,0,0,0,0.0161132,0.0495519,17286,-0.133392,-0.0708383,0.00402695,0.0510828,14899
14952,-3.11567e-12,1.89754e-38,-1.52478e-06,-3.18057e-12,1.89742e-38,0,-1.06635e-13,0,0,-3.60174,0.147797,0.591368,-0.339458,0.238893,0.0119297,-0.00151106,0,-0.534387,0.147797,239,-79,239,-79,365,-79,244,51,-0.0893275,-0.235473,0,-1.5,6.40901e-10,0,0,0,-0.474502,0.169483,0,0,0,0,0.0177657,0.0458637,16380,-0.135195,-0.070641,0.00583604,0.0473747,14938
14975,-3.11567e-12,1.89754e-38,-1.52478e-06,-3.18057e-12,1.89742e-38,-3.62842e-12,-1.06635e-13,0,0,-3.60174,0.147797,0.591368,-0.339186,0.238858,0.011793,-0.00149374,0,-0.534387,0.147797,239,-79,239,-79,365,-79,244,51,-0.0867369,-0.236524,0,-1.5,6.40901e-10,0,0,0,-0.475933,0.165964,0,0,0,0,0.0144379,0.0375504,16380,-0.136808,-0.0737926,0.00264496,0.0390442,14961
14996,-3.11567e-12,1.89754e-38,-1.52478e-06,-3.18057e-12,1.89742e-38,0,-1.06636e-13,0,0,-3.60174,0.147797,0.591368,-0.338952,0.238829,0.0116754,-0.00147885,0,-0.534387,0.147797,239,-79,239,-79,365,-79,244,51,-0.087114,-0.236391,0,-1.5,6.40901e-10,0,0,0,-0.475646,0.166715,0,0,0,0,0.0143203,0.0375653,16380,-0.136808,-0.0737926,0.00264496,0.0390442,14961
15018,-3.11567e-12,1.89754e-38,-1.52478e-06,-3.18057e-12,1.89742e-38,-3.62842e-12,-1.06636e-13,0,0,-3.58528,0.157934,0.578917,-0.338686,0.238795,0.0115416,-0.0014619,0,-0.511828,0.157934,236,-79,236,-79,362,-79,244,51,-0.0832522,-0.234315,0,-1.5,6.40901e-10,0,0,0,-0.473011,0.160957,0,0,0,0,0.0219098,0.0277388,16900,-0.134564,-0.0785096,0.0103682,0.0292007,15004
15044,-3.11567e-12,1.89754e-38,-1.52478e-06,-3.18057e-12,1.89742e-38,0,-1.06636e-13,0,0,-3.62435,0.153681,0.60303,-0.3384,0.238759,0.0113979,-0.00144371,0,-0.565362,0.153681,241,-77,241,-77,362,-81,243,51,-0.0817666,-0.257583,0,-1.5,6.40901e-10,0,0,0,-0.510631,0.159128,0,0,0,0,-0.0226792,0.0220253,16368,-0.171788,-0.0799352,-0.0340771,0.023469,15032
15065,-3.11567e-12,1.89754e-38,-1.52478e-06,-3.18057e-12,1.89742e-38,-3.62842e-12,-1.06636e-13,0,0,-3.62435,0.153681,0.60303,-0.338151,0.238727,0.0112729,-0.00142788,0,-0.565362,0.153681,241,-77,241,-77,362,-81,243,51,-0.0820097,-0.257846,0,-1.5,6.40901e-10,0,0,0,-0.511132,0.159613,0,0,0,0,-0.0228042,0.0220411,16368,-0.171788,-0.0799352,-0.0340771,0.023469,15032
15087,-3.11567e-12,1.89754e-38,-1.52478e-06,-3.18057e-12,1.89742e-38,0,-1.06637e-13,0,0,-3.54394,0.133133,0.564013,-0.337905,0.238696,0.0111493,-0.00141222,0,-0.455191,0.133133,241,-79,241,-79,370,-83,243,51,-0.081717,-0.238552,0,-1.5,6.40901e-10,0,0,0,-0.47961,0.159208,0,0,0,0,0.0125412,0.0211354,17286,-0.141736,-0.0799838,0.00139187,0.0225476,15073
15110,-3.11567e-12,1.89754e-38,-1.52478e-06,-3.18057e-12,1.89742e-38,-3.62842e-12,-1.06637e-13,0,0,-3.56227,0.136226,0.562559,-0.33765,0.238664,0.0110216,-0.00139604,0,-0.480316,0.136226,241,-77,241,-77,369,-81,243,53,-0.0790295,-0.238496,0,-1.5,6.40901e-10,0,0,0,-0.478559,0.154745,0,0,0,0,0.0078388,0.0165633,17152,-0.140871,-0.0841341,-0.00318283,0.0179593,15100
15149,-3.11567e-12,1.89754e-38,-1.52478e-06,-3.18057e-12,1.89742e-38,0,-1.06637e-13,0,0,-3.57057,0.145715,0.582381,-0.337227,0.23861,0.0108075,-0.00136893,0,-0.491684,0.145715,239,-84,239,-84,365,-79,244,51,-0.0751351,-0.239059,0,-1.5,6.40901e-10,0,0,0,-0.478958,0.149323,0,0,0,0,0.00419968,0.00474097,17010,-0.141474,-0.0895257,-0.00660785,0.0061099,15135
15174,-3.11567e-12,1.89754e-38,-1.52478e-06,-3.18057e-12,1.89742e-38,-3.62842e-12,-1.06638e-13,0,0,-3.54377,0.139902,0.552806,-0.33697,0.238577,0.0106784,-0.00135257,0,-0.454962,0.139902,241,-82,241,-82,367,-79,242,50,-0.0746921,-0.240389,0,-1.5,6.40901e-10,0,0,0,-0.481265,0.148766,0,0,0,0,0.00241698,0.00309867,16758,-0.144221,-0.0898517,-0.00826139,0.00445123,15166
15190,-3.11567e-12,1.89754e-38,-1.52478e-06,-3.18057e-12,1.89742e-38,0,-1.06638e-13,0,0,-3.54377,0.139902,0.552806,-0.336789,0.238555,0.0105879,-0.0013411,0,-0.454962,0.139902,241,-82,241,-82,367,-79,242,50,-0.07472,-0.24038,0,-1.5,6.40901e-10,0,0,0,-0.481225,0.148819,0,0,0,0,0.00232647,0.00311013,16758,-0.144221,-0.0898517,-0.00826139,0.00445123,15166
15213,-3.11567e-12,1.89754e-38,-1.52478e-06,-3.18057e-12,1.89742e-38,-3.62842e-12,-1.06638e-13,0,0,-3.63848,0.118497,0.606622,-0.336548,0.238524,0.0104665,-0.00132573,0,-0.584718,0.118497,248,-82,248,-82,367,-77,246,48,-0.0716784,-0.247656,0,-1.5,6.40901e-10,0,0,0,-0.492635,0.144954,0,0,0,0,-0.0133806,-0.00798061,16335,-0.155539,-0.0934167,-0.0238471,-0.00665488,15199
15240,-3.11567e-12,1.89754e-38,-1.52478e-06,-3.18057e-12,1.89742e-38,0,-1.06638e-13,0,0,-3.569,0.114526,0.573029,-0.336268,0.238489,0.0103258,-0.00130791,0,-0.48953,0.114526,246,-82,246,-82,369,-79,244,48,-0.0709359,-0.243614,0,-1.5,6.40901e-10,0,0,0,-0.486809,0.144018,0,0,0,0,-0.00211332,-0.0107304,16625,-0.150417,-0.0943767,-0.0124391,-0.0094225,15232
15295,-3.11567e-12,1.89754e-38,-1.52478e-06,-3.18057e-12,1.89742e-38,-3.62842e-12,-1.06639e-13,0,0,-3.58271,0.117213,0.592516,-0.335713,0.238418,0.010043,-0.00127209,0,-0.508308,0.117213,246,-84,246,-84,368,-79,244,48,-0.0668109,-0.247685,0,-1.5,6.40901e-10,0,0,0,-0.492669,0.137653,0,0,0,0,-0.0135075,-0.0201555,16368,-0.155661,-0.0997271,-0.0235505,-0.0188834,15281
