timestamp,A_x,A_y,A_z,P,Q,R,Phi,Theta,Psi,poseX,poseY,poseZ,state_X,state_Y,state_Z,state_VzB,state_Bx,state_By,state_Bz,p1_x,p1_y,p2_x,p2_y,p3_x,p3_y,p4_x,p4_y,roll,pitch,yaw,alt,targetHeading,highLevelState,lowLevelState,gateNumber,filtered_x,filtered_y,x_OT,y_OT,vx_OT,vy_OT,filtered_vx,filtered_vygateArearansac_corr_x,ransac_corr_y,ransac_corr_vx,ransac_corr_vy,detectionTimeStamppTermX,dTermX,pTermY,dTermY
8134,0,0,0,0,0,0,0,0,0,0,0,0,0,0,0,0,0,0,0,0,0,0,0,0,0,0,0,0,-0,0,-1.5,3.94113e+12,0,0,0,0,0,0,0,0,0,0,0,1.9603e-19,0,0,0,0,0,0,0,0,0
9095,-3.21252e-12,0,-1.56203e-06,-3.27827e-12,0,0,-1.06589e-13,0,0,0,0,0,0,0,0,0,0,0,0,0,0,0,0,0,0,0,0,0,-0,0,-1.5,3.94113e+12,0,0,0,0,0,0,0,0,0,0,0,1.9603e-19,0,0,0,0,0,0,0,0,0
9134,-3.21252e-12,0,-1.56203e-06,-3.27827e-12,0,-3.40904e-12,-1.0659e-13,0,0,0,0,0,0,0,0,0,0,0,0,0,0,0,0,0,0,0,0,0,-0,0,-1.5,3.94113e+12,0,0,0,0,0,0,0,0,0,0,0,1.9603e-19,0,0,0,0,0,0,0,0,0
9370,-3.21252e-12,0,-1.56203e-06,-3.27827e-12,0,0,-1.0659e-13,0,0,0,0,0,0,0,0,0,0,0,0,0,0,0,0,0,0,0,0,0,-0,0,-1.5,3.94113e+12,0,0,0,0,0,0,0,0,0,0,0,1.9603e-19,0,0,0,0,0,0,0,0,0
9442,-3.21252e-12,0,-1.56203e-06,-3.27827e-12,0,-3.40904e-12,-1.0659e-13,0,0,0,0,0,0,0,0,0,0,4.4,0,-1367830216,576215614,-1367830216,576215614,-2057981145,-1367830216,-1367821920,-1367821920,0,-0,0,-1.5,3.94113e+12,0,0,0,0,0,0,0,0,0,0,0,0,0,0,0,0,9442,0,0,0,0
9598,-3.21252e-12,0,-1.56203e-06,-3.27827e-12,0,0,-1.0659e-13,0,0,0,0,0,0,0,0,0,0,4.4,0,-1367830216,576215614,-1367830216,576215614,-2057981145,-1367830216,-1367821920,-1367821920,0,-0,0,-1.5,3.94113e+12,0,0,0,0,0,0,0,0,0,0,0,0,0,0,0,0,9442,0,0,0,0
9669,-3.21252e-12,0,-1.56203e-06,-3.27827e-12,0,-3.40904e-12,-1.06591e-13,0,0,-3.52436,0.0805573,0.530524,0,0,0,0,0,-0.428378,0.0805573,245,-71,245,-71,375,-85,250,54,0,-0,0,-1.5,3.94113e+12,0,0,0,0,0,0,0,0,0,0,0,18070,0,0,0,0,9660,0,0,0,0
9780,-3.21252e-12,0,-1.56203e-06,-3.27827e-12,0,0,-1.06591e-13,0,0,-3.52436,0.0805573,0.530524,0,0,0,0,0,-0.428378,0.0805573,245,-71,245,-71,375,-85,250,54,0,-0,0,-1.5,3.94113e+12,0,0,0,0,0,0,0,0,0,0,0,18070,0,0,0,0,9660,0,0,0,0
9825,-3.21252e-12,0,-1.56203e-06,-3.27827e-12,0,-3.40904e-12,-1.06591e-13,0,0,-3.52436,0.0805573,0.530524,0,0,0,0,0,-0.428378,0.0805573,245,-71,245,-71,375,-85,250,54,0,-0,0,-1.5,3.94113e+12,0,0,0,0,0,0,0,0,0,0,0,18070,0,0,0,0,9660,0,0,0,0
9854,-3.21252e-12,0,-1.56203e-06,-3.27827e-12,0,0,-1.06591e-13,0,0,-3.52436,0.0805573,0.530524,0,0,0,0,0,-0.428378,0.0805573,245,-71,245,-71,375,-85,250,54,0,-0,0,-1.5,3.94113e+12,0,0,0,0,0,0,0,0,0,0,0,18070,0,0,0,0,9660,0,0,0,0
9871,-3.21252e-12,0,-1.56203e-06,-3.27827e-12,0,-3.40904e-12,-1.06592e-13,0,0,-3.52436,0.0805573,0.530524,0,0,0,0,0,-0.428378,0.0805573,245,-71,245,-71,375,-85,250,54,0,-0,0,-1.5,3.94113e+12,0,0,0,0,0,0,0,0,0,0,0,18070,0,0,0,0,9660,0,0,0,0
9980,-3.21252e-12,0,-1.56203e-06,-3.27827e-12,0,0,-1.06592e-13,0,0,-3.52436,0.0805573,0.530524,0,0,0,0,0,-0.428378,0.0805573,245,-71,245,-71,375,-85,250,54,0,-0,0,-1.5,3.94113e+12,0,0,0,0,0,0,0,0,0,0,0,18070,0,0,0,0,9660,0,0,0,0
10078,-3.21252e-12,0,-1.56203e-06,-3.27827e-12,0,-3.40904e-12,-1.06592e-13,0,0,-3.52436,0.0805573,0.530524,0,0,0,0,0,-0.428378,0.0805573,245,-71,245,-71,375,-85,250,54,0,-0,0,-1.5,3.94113e+12,0,0,0,0,0,0,0,0,0,0,0,18070,0,0,0,0,9660,0,0,0,0
10099,-3.21252e-12,0,-1.56203e-06,-3.27827e-12,0,0,-1.06593e-13,0,0,-3.52436,0.0805573,0.530524,0,0,0,0,0,-0.428378,0.0805573,245,-71,245,-71,375,-85,250,54,0,-0,0,-1.5,3.94113e+12,0,0,0,0,0,0,0,0,0,0,0,18070,0,0,0,0,9660,0,0,0,0
10210,-3.21252e-12,0,-1.56203e-06,-3.27827e-12,0,-3.40904e-12,-1.06593e-13,0,0,-3.52436,0.0805573,0.530524,0,0,0,0,0,-0.428378,0.0805573,245,-71,245,-71,375,-85,250,54,0,-0,0,-1.5,3.94113e+12,0,0,0,0,0,0,0,0,0,0,0,18070,0,0,0,0,9660,0,0,0,0
10251,-3.21252e-12,0,-1.56203e-06,-3.27827e-12,0,0,-1.06593e-13,0,0,-3.52436,0.0805573,0.530524,0,0,0,0,0,-0.428378,0.0805573,245,-71,245,-71,375,-85,250,54,0,-0,0,-1.5,3.94113e+12,0,0,0,0,0,0,0,0,0,0,0,18070,0,0,0,0,9660,0,0,0,0
10268,-3.21252e-12,0,-1.56203e-06,-3.27827e-12,0,-3.40904e-12,-1.06593e-13,0,0,-3.52436,0.0805573,0.530524,0,0,0,0,0,-0.428378,0.0805573,245,-71,245,-71,375,-85,250,54,0,-0,0,-1.5,3.94113e+12,0,0,0,0,0,0,0,0,0,0,0,18070,0,0,0,0,9660,0,0,0,0
10316,-3.21252e-12,0,-1.56203e-06,-3.27827e-12,0,0,-1.06594e-13,0,0,-3.52436,0.0805573,0.530524,0,0,0,0,0,-0.428378,0.0805573,245,-71,245,-71,375,-85,250,54,0,-0,0,-1.5,3.94113e+12,0,0,0,0,0,0,0,0,0,0,0,18070,0,0,0,0,9660,0,0,0,0
10420,-3.21252e-12,0,-1.56203e-06,-3.27827e-12,0,-3.40904e-12,-1.06594e-13,0,0,-3.52436,0.0805573,0.530524,0,0,0,0,0,-0.428378,0.0805573,245,-71,245,-71,375,-85,250,54,0,-0,0,-1.5,3.94113e+12,0,0,0,0,0,0,0,0,0,0,0,18070,0,0,0,0,9660,0,0,0,0
10563,-3.21252e-12,0,-1.56203e-06,-3.27827e-12,0,0,-1.06594e-13,0,0,-3.52436,0.0805573,0.530524,0,0,0,0,0,-0.428378,0.0805573,245,-71,245,-71,375,-85,250,54,0,-0,0,-1.5,3.94113e+12,0,0,0,0,0,0,0,0,0,0,0,18070,0,0,0,0,9660,0,0,0,0
10670,-3.21252e-12,0,-1.56203e-06,-3.27827e-12,0,-3.40904e-12,-1.06594e-13,0,0,-3.52436,0.0805573,0.530524,0,0,0,0,0,-0.428378,0.0805573,245,-71,245,-71,375,-85,250,54,0,-0,0,-1.5,3.94113e+12,0,0,0,0,0,0,0,0,0,0,0,18070,0,0,0,0,9660,0,0,0,0
10755,-3.21252e-12,0,-1.56203e-06,-3.27827e-12,0,0,-1.06595e-13,0,0,-3.52436,0.0805573,0.530524,0,0,0,0,0,-0.428378,0.0805573,245,-71,245,-71,375,-85,250,54,0,-0,0,-1.5,3.94113e+12,0,0,0,0,0,0,0,0,0,0,0,18070,0,0,0,0,9660,0,0,0,0
10772,-3.21252e-12,0,-1.56203e-06,-3.27827e-12,0,-3.40904e-12,-1.06595e-13,0,0,-3.52436,0.0805573,0.530524,0,0,0,0,0,-0.428378,0.0805573,245,-71,245,-71,375,-85,250,54,0,-0,0,-1.5,3.94113e+12,0,0,0,0,0,0,0,0,0,0,0,18070,0,0,0,0,9660,0,0,0,0
10790,-3.21252e-12,0,-1.56203e-06,-3.27827e-12,0,0,-1.06595e-13,0,0,-3.52436,0.0805573,0.530524,0,0,0,0,0,-0.428378,0.0805573,245,-71,245,-71,375,-85,250,54,0,-0,0,-1.5,3.94113e+12,0,0,0,0,0,0,0,0,0,0,0,18070,0,0,0,0,9660,0,0,0,0
10900,-3.21252e-12,0,-1.56203e-06,-3.27827e-12,0,-3.40904e-12,-1.06596e-13,0,0,-3.52436,0.0805573,0.530524,0,0,0,0,0,-0.428378,0.0805573,245,-71,245,-71,375,-85,250,54,0,-0,0,-1.5,3.94113e+12,0,0,0,0,0,0,0,0,0,0,0,18070,0,0,0,0,9660,0,0,0,0
10971,-3.21252e-12,0,-1.56203e-06,-3.27827e-12,0,0,-1.06596e-13,0,0,-3.52436,0.0805573,0.530524,0,0,0,0,0,-0.428378,0.0805573,245,-71,245,-71,375,-85,250,54,0,-0,0,-1.5,3.94113e+12,0,0,0,0,0,0,0,0,0,0,0,18070,0,0,0,0,9660,0,0,0,0
10992,-3.21252e-12,0,-1.56203e-06,-3.27827e-12,0,-3.40904e-12,-1.06596e-13,0,0,-3.52436,0.0805573,0.530524,0,0,0,0,0,-0.428378,0.0805573,245,-71,245,-71,375,-85,250,54,0,-0,0,-1.5,3.94113e+12,0,0,0,0,0,0,0,0,0,0,0,18070,0,0,0,0,9660,0,0,0,0
11010,-3.21252e-12,0,-1.56203e-06,-3.27827e-12,0,0,-1.06596e-13,0,0,-3.52436,0.0805573,0.530524,0,0,0,0,0,-0.428378,0.0805573,245,-71,245,-71,375,-85,250,54,0,-0,0,-1.5,3.94113e+12,0,0,0,0,0,0,0,0,0,0,0,18070,0,0,0,0,9660,0,0,0,0
11120,-3.21252e-12,0,-1.56203e-06,-3.27827e-12,0,-3.40904e-12,-1.06597e-13,0,0,-3.52436,0.0805573,0.530524,0,0,0,0,0,-0.428378,0.0805573,245,-71,245,-71,375,-85,250,54,0,-0,0,-1.5,3.94113e+12,0,0,0,0,0,0,0,0,0,0,0,18070,0,0,0,0,9660,0,0,0,0
11175,-3.21252e-12,0,-1.56203e-06,-3.27827e-12,0,0,-1.06597e-13,0,0,-3.52436,0.0805573,0.530524,0,0,0,0,0,-0.428378,0.0805573,245,-71,245,-71,375,-85,250,54,0,-0,0,-1.5,3.94113e+12,0,0,0,0,0,0,0,0,0,0,0,18070,0,0,0,0,9660,0,0,0,0
11196,-3.21252e-12,0,-1.56203e-06,-3.27827e-12,0,-3.40904e-12,-1.06597e-13,0,0,-3.52436,0.0805573,0.530524,0,0,0,0,0,-0.428378,0.0805573,245,-71,245,-71,375,-85,250,54,0,-0,0,-1.5,3.94113e+12,0,0,0,0,0,0,0,0,0,0,0,18070,0,0,0,0,9660,0,0,0,0
11213,-3.21252e-12,0,-1.56203e-06,-3.27827e-12,0,0,-1.06597e-13,0,0,-3.52436,0.0805573,0.530524,0,0,0,0,0,-0.428378,0.0805573,245,-71,245,-71,375,-85,250,54,0,-0,0,-1.5,3.94113e+12,0,0,0,0,0,0,0,0,0,0,0,18070,0,0,0,0,9660,0,0,0,0
11320,-3.21252e-12,0,-1.56203e-06,-3.27827e-12,0,-3.40904e-12,-1.06598e-13,0,0,-3.52436,0.0805573,0.530524,0,0,0,0,0,-0.428378,0.0805573,245,-71,245,-71,375,-85,250,54,0,-0,0,-1.5,3.94113e+12,0,0,0,0,0,0,0,0,0,0,0,18070,0,0,0,0,9660,0,0,0,0
11430,-3.21252e-12,0,-1.56203e-06,-3.27827e-12,0,0,-1.06598e-13,0,0,-3.52436,0.0805573,0.530524,0,0,0,0,0,-0.428378,0.0805573,245,-71,245,-71,375,-85,250,54,0,-0,0,-1.5,3.94113e+12,0,0,0,0,0,0,0,0,0,0,0,18070,0,0,0,0,9660,0,0,0,0
11455,-3.21252e-12,0,-1.56203e-06,-3.27827e-12,0,-3.40904e-12,-1.06598e-13,0,0,-3.52436,0.0805573,0.530524,0,0,0,0,0,-0.428378,0.0805573,245,-71,245,-71,375,-85,250,54,0,-0,0,-1.5,3.94113e+12,0,0,0,0,0,0,0,0,0,0,0,18070,0,0,0,0,9660,0,0,0,0
11504,-3.21252e-12,0,-1.56203e-06,-3.27827e-12,0,0,-1.06599e-13,0,0,-3.52436,0.0805573,0.530524,0,0,0,0,0,-0.428378,0.0805573,245,-71,245,-71,375,-85,250,54,0,-0,0,-1.5,3.94113e+12,0,0,0,0,0,0,0,0,0,0,0,18070,0,0,0,0,9660,0,0,0,0
11638,-3.21252e-12,0,-1.56203e-06,-3.27827e-12,0,-3.40904e-12,-1.06599e-13,0,0,-3.52436,0.0805573,0.530524,0,0,0,0,0,-0.428378,0.0805573,245,-71,245,-71,375,-85,250,54,0,-0,0,-1.5,3.94113e+12,0,0,0,0,0,0,0,0,0,0,0,18070,0,0,0,0,9660,0,0,0,0
11674,-3.21252e-12,0,-1.56203e-06,-3.27827e-12,0,0,-1.06599e-13,0,0,-3.52436,0.0805573,0.530524,0,0,0,0,0,-0.428378,0.0805573,245,-71,245,-71,375,-85,250,54,0,-0,0,-1.5,3.94113e+12,0,0,0,0,0,0,0,0,0,0,0,18070,0,0,0,0,9660,0,0,0,0
11691,-3.21252e-12,0,-1.56203e-06,-3.27827e-12,0,-3.40904e-12,-1.06599e-13,0,0,-3.52436,0.0805573,0.530524,0,0,0,0,0,-0.428378,0.0805573,245,-71,245,-71,375,-85,250,54,0,-0,0,-1.5,3.94113e+12,0,0,0,0,0,0,0,0,0,0,0,18070,0,0,0,0,9660,0,0,0,0
11800,-3.21252e-12,0,-1.56203e-06,-3.27827e-12,0,0,-1.066e-13,0,0,-3.52436,0.0805573,0.530524,0,0,0,0,0,-0.428378,0.0805573,245,-71,245,-71,375,-85,250,54,0,-0,0,-1.5,3.94113e+12,0,0,0,0,0,0,0,0,0,0,0,18070,0,0,0,0,9660,0,0,0,0
11908,-3.21252e-12,0,-1.56203e-06,-3.27827e-12,0,-3.40904e-12,-1.066e-13,0,0,-3.52436,0.0805573,0.530524,0,0,0,0,0,-0.428378,0.0805573,245,-71,245,-71,375,-85,250,54,0,-0,0,-1.5,3.94113e+12,0,0,0,0,0,0,0,0,0,0,0,18070,0,0,0,0,9660,0,0,0,0
11946,-3.21252e-12,0,-1.56203e-06,-3.27827e-12,0,0,-1.066e-13,0,0,-3.52436,0.0805573,0.530524,0,0,0,0,0,-0.428378,0.0805573,245,-71,245,-71,375,-85,250,54,0,-0,0,-1.5,3.94113e+12,0,0,0,0,0,0,0,0,0,0,0,18070,0,0,0,0,9660,0,0,0,0
11964,-3.21252e-12,0,-1.56203e-06,-3.27827e-12,0,-3.40904e-12,-1.066e-13,0,0,-3.52436,0.0805573,0.530524,0,0,0,0,0,-0.428378,0.0805573,245,-71,245,-71,375,-85,250,54,0,-0,0,-1.5,3.94113e+12,0,0,0,0,0,0,0,0,0,0,0,18070,0,0,0,0,9660,0,0,0,0
12070,-3.21252e-12,0,-1.56203e-06,-3.27827e-12,0,0,-1.06601e-13,0,0,-3.52436,0.0805573,0.530524,0,0,0,0,0,-0.428378,0.0805573,245,-71,245,-71,375,-85,250,54,0,-0,0,-1.5,3.94113e+12,0,0,0,0,0,0,0,0,0,0,0,18070,0,0,0,0,9660,0,0,0,0
12126,-3.21252e-12,0,-1.56203e-06,-3.27827e-12,0,-3.40904e-12,-1.06601e-13,0,0,-3.52436,0.0805573,0.530524,0,0,0,0,0,-0.428378,0.0805573,245,-71,245,-71,375,-85,250,54,0,-0,0,-1.5,3.94113e+12,0,0,0,0,0,0,0,0,0,0,0,18070,0,0,0,0,9660,0,0,0,0
12148,-3.21252e-12,0,-1.56203e-06,-3.27827e-12,0,0,-1.06601e-13,0,0,-3.52436,0.0805573,0.530524,0,0,0,0,0,-0.428378,0.0805573,245,-71,245,-71,375,-85,250,54,0,-0,0,-1.5,3.94113e+12,0,0,0,0,0,0,0,0,0,0,0,18070,0,0,0,0,9660,0,0,0,0
12250,-3.21252e-12,0,-1.56203e-06,-3.27827e-12,0,-3.40904e-12,-1.06602e-13,0,0,-3.52436,0.0805573,0.530524,0,0,0,0,0,-0.428378,0.0805573,245,-71,245,-71,375,-85,250,54,0,-0,0,-1.5,3.94113e+12,0,0,0,0,0,0,0,0,0,0,0,18070,0,0,0,0,9660,0,0,0,0
12335,-3.21252e-12,0,-1.56203e-06,-3.27827e-12,0,0,-1.06602e-13,0,0,-3.52436,0.0805573,0.530524,0,0,0,0,0,-0.428378,0.0805573,245,-71,245,-71,375,-85,250,54,0,-0,0,-1.5,3.94113e+12,0,0,0,0,0,0,0,0,0,0,0,18070,0,0,0,0,9660,0,0,0,0
12357,-3.21252e-12,0,-1.56203e-06,-3.27827e-12,0,-3.40904e-12,-1.06602e-13,0,0,-3.52436,0.0805573,0.530524,0,0,0,0,0,-0.428378,0.0805573,245,-71,245,-71,375,-85,250,54,0,-0,0,-1.5,3.94113e+12,0,0,0,0,0,0,0,0,0,0,0,18070,0,0,0,0,9660,0,0,0,0
12374,-3.21252e-12,0,-1.56203e-06,-3.27827e-12,0,0,-1.06602e-13,0,0,-3.52436,0.0805573,0.530524,0,0,0,0,0,-0.428378,0.0805573,245,-71,245,-71,375,-85,250,54,0,-0,0,-1.5,3.94113e+12,0,0,0,0,0,0,0,0,0,0,0,18070,0,0,0,0,9660,0,0,0,0
12480,-3.21252e-12,0,-1.56203e-06,-3.27827e-12,0,-3.40904e-12,-1.06603e-13,0,0,-3.52436,0.0805573,0.530524,0,0,0,0,0,-0.428378,0.0805573,245,-71,245,-71,375,-85,250,54,0,-0,0,-1.5,3.94113e+12,0,0,0,0,0,0,0,0,0,0,0,18070,0,0,0,0,9660,0,0,0,0
12536,-3.21252e-12,0,-1.56203e-06,-3.27827e-12,0,0,-1.06603e-13,0,0,-3.52436,0.0805573,0.530524,0,0,0,0,0,-0.428378,0.0805573,245,-71,245,-71,375,-85,250,54,0,-0,0,-1.5,3.94113e+12,0,0,0,0,0,0,0,0,0,0,0,18070,0,0,0,0,9660,0,0,0,0
12557,-3.21252e-12,0,-1.56203e-06,-3.27827e-12,0,-3.40904e-12,-1.06603e-13,0,0,-3.52436,0.0805573,0.530524,0,0,0,0,0,-0.428378,0.0805573,245,-71,245,-71,375,-85,250,54,0,-0,0,-1.5,3.94113e+12,0,0,0,0,0,0,0,0,0,0,0,18070,0,0,0,0,9660,0,0,0,0
12660,-3.21252e-12,0,-1.56203e-06,-3.27827e-12,0,0,-1.06603e-13,0,0,-3.52436,0.0805573,0.530524,0,0,0,0,0,-0.428378,0.0805573,245,-71,245,-71,375,-85,250,54,0,-0,0,-1.5,3.94113e+12,0,0,0,0,0,0,0,0,0,0,0,18070,0,0,0,0,9660,0,0,0,0
12731,-3.21252e-12,0,-1.56203e-06,-3.27827e-12,0,-3.40904e-12,-1.06604e-13,0,0,-3.52436,0.0805573,0.530524,0,0,0,0,0,-0.428378,0.0805573,245,-71,245,-71,375,-85,250,54,0,-0,0,-1.5,3.94113e+12,0,0,0,0,0,0,0,0,0,0,0,18070,0,0,0,0,9660,0,0,0,0
12747,-3.21252e-12,0,-1.56203e-06,-3.27827e-12,0,0,-1.06604e-13,0,0,-3.52436,0.0805573,0.530524,0,0,0,0,0,-0.428378,0.0805573,245,-71,245,-71,375,-85,250,54,0,-0,0,-1.5,3.94113e+12,0,0,0,0,0,0,0,0,0,0,0,18070,0,0,0,0,9660,0,0,0,0
12768,-3.21252e-12,0,-1.56203e-06,-3.27827e-12,0,-3.40904e-12,-1.06604e-13,0,0,-3.52436,0.0805573,0.530524,0,0,0,0,0,-0.428378,0.0805573,245,-71,245,-71,375,-85,250,54,0,-0,0,-1.5,3.94113e+12,0,0,0,0,0,0,0,0,0,0,0,18070,0,0,0,0,9660,0,0,0,0
12870,-3.21252e-12,0,-1.56203e-06,-3.27827e-12,0,0,-1.06605e-13,0,0,-3.52436,0.0805573,0.530524,0,0,0,0,0,-0.428378,0.0805573,245,-71,245,-71,375,-85,250,54,0,-0,0,-1.5,3.94113e+12,0,0,0,0,0,0,0,0,0,0,0,18070,0,0,0,0,9660,0,0,0,0
12908,-3.21252e-12,0,-1.56203e-06,-3.27827e-12,0,-3.40904e-12,-1.06605e-13,0,0,-3.52436,0.0805573,0.530524,0,0,0,0,0,-0.428378,0.0805573,245,-71,245,-71,375,-85,250,54,0,-0,0,-1.5,3.94113e+12,0,0,0,0,0,0,0,0,0,0,0,18070,0,0,0,0,9660,0,0,0,0
12942,-3.21252e-12,0,-1.56203e-06,-3.27827e-12,0,0,-1.06605e-13,0,0,-3.52436,0.0805573,0.530524,0,0,0,0,0,-0.428378,0.0805573,245,-71,245,-71,375,-85,250,54,0,-0,0,-1.5,3.94113e+12,0,0,0,0,0,0,0,0,0,0,0,18070,0,0,0,0,9660,0,0,0,0
12960,-3.21252e-12,0,-1.56203e-06,-3.27827e-12,0,-3.40904e-12,-1.06605e-13,0,0,-3.52436,0.0805573,0.530524,0,0,0,0,0,-0.428378,0.0805573,245,-71,245,-71,375,-85,250,54,0,-0,0,-1.5,3.94113e+12,0,0,0,0,0,0,0,0,0,0,0,18070,0,0,0,0,9660,0,0,0,0
12999,-3.21252e-12,0,-1.56203e-06,-3.27827e-12,0,0,-1.06606e-13,0,0,-3.52436,0.0805573,0.530524,0,0,0,0,0,-0.428378,0.0805573,245,-71,245,-71,375,-85,250,54,0,-0,0,-1.5,3.94113e+12,0,0,0,0,0,0,0,0,0,0,0,18070,0,0,0,0,9660,0,0,0,0
13047,-3.21252e-12,0,-1.56203e-06,-3.27827e-12,0,-3.40904e-12,-1.06606e-13,0,0,-3.52436,0.0805573,0.530524,0,0,0,0,0,-0.428378,0.0805573,245,-71,245,-71,375,-85,250,54,0,-0,0,-1.5,3.94113e+12,0,0,0,0,0,0,0,0,0,0,0,18070,0,0,0,0,9660,0,0,0,0
13099,-3.21252e-12,0,-1.56203e-06,-3.27827e-12,0,0,-1.06606e-13,0,0,-3.52436,0.0805573,0.530524,0,0,0,0,0,-0.428378,0.0805573,245,-71,245,-71,375,-85,250,54,0,-0,0,-1.5,3.94113e+12,0,0,0,0,0,0,0,0,0,0,0,18070,0,0,0,0,9660,0,0,0,0
13115,-3.21252e-12,0,-1.56203e-06,-3.27827e-12,0,-3.40904e-12,-1.06606e-13,0,0,-3.52436,0.0805573,0.530524,0,0,0,0,0,-0.428378,0.0805573,245,-71,245,-71,375,-85,250,54,0,-0,0,-1.5,3.94113e+12,0,0,0,0,0,0,0,0,0,0,0,18070,0,0,0,0,9660,0,0,0,0
13137,-3.21252e-12,0,-1.56203e-06,-3.27827e-12,0,0,-1.06607e-13,0,0,-3.52436,0.0805573,0.530524,0,0,0,0,0,-0.428378,0.0805573,245,-71,245,-71,375,-85,250,54,0,-0,0,-1.5,3.94113e+12,0,0,0,0,0,0,0,0,0,0,0,18070,0,0,0,0,9660,0,0,0,0
13153,-3.21252e-12,0,-1.56203e-06,-3.27827e-12,0,-3.40904e-12,-1.06607e-13,0,0,-3.52436,0.0805573,0.530524,0,0,0,0,0,-0.428378,0.0805573,245,-71,245,-71,375,-85,250,54,0,-0,0,-1.5,3.94113e+12,0,0,0,0,0,0,0,0,0,0,0,18070,0,0,0,0,9660,0,0,0,0
13174,-3.21252e-12,0,-1.56203e-06,-3.27827e-12,0,0,-1.06607e-13,0,0,-3.52436,0.0805573,0.530524,0,0,0,0,0,-0.428378,0.0805573,245,-71,245,-71,375,-85,250,54,0,-0,0,-1.5,3.94113e+12,0,0,0,0,0,0,0,0,0,0,0,18070,0,0,0,0,9660,0,0,0,0
13191,-3.21252e-12,0,-1.56203e-06,-3.27827e-12,0,-3.40904e-12,-1.06607e-13,0,0,-3.52436,0.0805573,0.530524,0,0,0,0,0,-0.428378,0.0805573,245,-71,245,-71,375,-85,250,54,0,-0,0,-1.5,3.94113e+12,0,0,0,0,0,0,0,0,0,0,0,18070,0,0,0,0,9660,0,0,0,0
13213,-3.21252e-12,0,-1.56203e-06,-3.27827e-12,0,0,-1.06608e-13,0,0,-3.52436,0.0805573,0.530524,0,0,0,0,0,-0.428378,0.0805573,245,-71,245,-71,375,-85,250,54,0,-0,0,-1.5,3.94113e+12,0,0,0,0,0,0,0,0,0,0,0,18070,0,0,0,0,9660,0,0,0,0
13227,-3.21252e-12,0,-1.56203e-06,-3.27827e-12,0,-3.40904e-12,-1.06608e-13,0,0,-3.52436,0.0805573,0.530524,0,0,0,0,0,-0.428378,0.0805573,245,-71,245,-71,375,-85,250,54,0,-0,0,-1.5,3.94113e+12,0,0,0,0,0,0,0,0,0,0,0,18070,0,0,0,0,9660,0,0,0,0
13265,-3.21252e-12,0,-1.56203e-06,-3.27827e-12,0,0,-1.06608e-13,0,0,-3.52436,0.0805573,0.530524,0,0,0,0,0,-0.428378,0.0805573,245,-71,245,-71,375,-85,250,54,0,-0,0,-1.5,3.94113e+12,0,0,0,0,0,0,0,0,0,0,0,18070,0,0,0,0,9660,0,0,0,0
13282,-3.21252e-12,0,-1.56203e-06,-3.27827e-12,0,-3.40904e-12,-1.06609e-13,0,0,-3.52436,0.0805573,0.530524,0,0,0,0,0,-0.428378,0.0805573,245,-71,245,-71,375,-85,250,54,0,-0,0,-1.5,3.94113e+12,0,0,0,0,0,0,0,0,0,0,0,18070,0,0,0,0,9660,0,0,0,0
13299,-3.21252e-12,0,-1.56203e-06,-3.27827e-12,0,0,-1.06609e-13,0,0,-3.52436,0.0805573,0.530524,0,0,0,0,0,-0.428378,0.0805573,245,-71,245,-71,375,-85,250,54,0,-0,0,-1.5,3.94113e+12,0,0,0,0,0,0,0,0,0,0,0,18070,0,0,0,0,9660,0,0,0,0
13321,-3.21252e-12,0,-1.56203e-06,-3.27827e-12,0,-3.40904e-12,-1.06609e-13,0,0,-3.52436,0.0805573,0.530524,0,0,0,0,0,-0.428378,0.0805573,245,-71,245,-71,375,-85,250,54,0,-0,0,-1.5,3.94113e+12,0,0,0,0,0,0,0,0,0,0,0,18070,0,0,0,0,9660,0,0,0,0
13386,-3.21252e-12,0,-1.56203e-06,-3.27827e-12,0,0,-1.06609e-13,0,0,-3.52436,0.0805573,0.530524,0,0,0,0,0,-0.428378,0.0805573,245,-71,245,-71,375,-85,250,54,0,-0,0,-1.5,3.94113e+12,0,0,0,0,0,0,0,0,0,0,0,18070,0,0,0,0,9660,0,0,0,0
13408,-3.21252e-12,0,-1.56203e-06,-3.27827e-12,0,-3.40904e-12,-1.0661e-13,0,0,-3.52436,0.0805573,0.530524,0,0,0,0,0,-0.428378,0.0805573,245,-71,245,-71,375,-85,250,54,0,-0,0,-1.5,3.94113e+12,0,0,0,0,0,0,0,0,0,0,0,18070,0,0,0,0,9660,0,0,0,0
13425,-3.21252e-12,0,-1.56203e-06,-3.27827e-12,0,0,-1.0661e-13,0,0,-3.52436,0.0805573,0.530524,0,0,0,0,0,-0.428378,0.0805573,245,-71,245,-71,375,-85,250,54,0,-0,0,-1.5,3.94113e+12,0,0,0,0,0,0,0,0,0,0,0,18070,0,0,0,0,9660,0,0,0,0
13446,-3.21252e-12,0,-1.56203e-06,-3.27827e-12,0,-3.40904e-12,-1.0661e-13,0,0,-3.52436,0.0805573,0.530524,0,0,0,0,0,-0.428378,0.0805573,245,-71,245,-71,375,-85,250,54,0,-0,0,-1.5,3.94113e+12,0,0,0,0,0,0,0,0,0,0,0,18070,0,0,0,0,9660,0,0,0,0
13463,-3.21252e-12,0,-1.56203e-06,-3.27827e-12,0,0,-1.0661e-13,0,0,-3.52436,0.0805573,0.530524,0,0,0,0,0,-0.428378,0.0805573,245,-71,245,-71,375,-85,250,54,0,-0,0,-1.5,3.94113e+12,0,0,0,0,0,0,0,0,0,0,0,18070,0,0,0,0,9660,0,0,0,0
13485,-3.21252e-12,0,-1.56203e-06,-3.27827e-12,0,-3.40904e-12,-1.06611e-13,0,0,-3.52436,0.0805573,0.530524,0,0,0,0,0,-0.428378,0.0805573,245,-71,245,-71,375,-85,250,54,0,-0,0,-1.5,3.94113e+12,0,0,0,0,0,0,0,0,0,0,0,18070,0,0,0,0,9660,0,0,0,0
13502,-3.21252e-12,0,-1.56203e-06,-3.27827e-12,0,0,-1.06611e-13,0,0,-3.52436,0.0805573,0.530524,0,0,0,0,0,-0.428378,0.0805573,245,-71,245,-71,375,-85,250,54,0,-0,0,-1.5,3.94113e+12,0,0,0,0,0,0,0,0,0,0,0,18070,0,0,0,0,9660,0,0,0,0
13524,-3.21252e-12,0,-1.56203e-06,-3.27827e-12,0,-3.40904e-12,-1.06611e-13,0,0,-3.52436,0.0805573,0.530524,0,0,0,0,0,-0.428378,0.0805573,245,-71,245,-71,375,-85,250,54,0,-0,0,-1.5,3.94113e+12,0,0,0,0,0,0,0,0,0,0,0,18070,0,0,0,0,9660,0,0,0,0
13541,-3.21252e-12,0,-1.56203e-06,-3.27827e-12,0,0,-1.06612e-13,0,0,-3.52436,0.0805573,0.530524,0,0,0,0,0,-0.428378,0.0805573,245,-71,245,-71,375,-85,250,54,0,-0,0,-1.5,3.94113e+12,0,0,0,0,0,0,0,0,0,0,0,18070,0,0,0,0,9660,0,0,0,0
13559,-3.21252e-12,0,-1.56203e-06,-3.27827e-12,0,-3.40904e-12,-1.06612e-13,0,0,-3.52436,0.0805573,0.530524,0,0,0,0,0,-0.428378,0.0805573,245,-71,245,-71,375,-85,250,54,0,-0,0,-1.5,3.94113e+12,0,0,0,0,0,0,0,0,0,0,0,18070,0,0,0,0,9660,0,0,0,0
13581,-3.21252e-12,0,-1.56203e-06,-3.27827e-12,0,0,-1.06612e-13,0,0,-3.52436,0.0805573,0.530524,0,0,0,0,0,-0.428378,0.0805573,245,-71,245,-71,375,-85,250,54,0,-0,0,-1.5,3.94113e+12,0,0,0,0,0,0,0,0,0,0,0,18070,0,0,0,0,9660,0,0,0,0
13598,-3.21252e-12,0,-1.56203e-06,-3.27827e-12,0,-3.40904e-12,-1.06612e-13,0,0,-3.52436,0.0805573,0.530524,0,0,0,0,0,-0.428378,0.0805573,245,-71,245,-71,375,-85,250,54,0,-0,0,-1.5,3.94113e+12,0,0,0,0,0,0,0,0,0,0,0,18070,0,0,0,0,9660,0,0,0,0
13620,-3.21252e-12,0,-1.56203e-06,-3.27827e-12,0,0,-1.06613e-13,0,0,-3.52436,0.0805573,0.530524,0,0,0,0,0,-0.428378,0.0805573,245,-71,245,-71,375,-85,250,54,0,-0,0,-1.5,3.94113e+12,0,0,0,0,0,0,0,0,0,0,0,18070,0,0,0,0,9660,0,0,0,0
13634,-3.21252e-12,0,-1.56203e-06,-3.27827e-12,0,-3.40904e-12,-1.06613e-13,0,0,-3.52436,0.0805573,0.530524,0,0,0,0,0,-0.428378,0.0805573,245,-71,245,-71,375,-85,250,54,0,-0,0,-1.5,3.94113e+12,0,0,0,0,0,0,0,0,0,0,0,18070,0,0,0,0,9660,0,0,0,0
13652,-3.21252e-12,0,-1.56203e-06,-3.27827e-12,0,0,-1.06613e-13,0,0,-3.52436,0.0805573,0.530524,0,0,0,0,0,-0.428378,0.0805573,245,-71,245,-71,375,-85,250,54,0,-0,0,-1.5,3.94113e+12,0,0,0,0,0,0,0,0,0,0,0,18070,0,0,0,0,9660,0,0,0,0
13669,-3.21252e-12,0,-1.56203e-06,-3.27827e-12,0,-3.40904e-12,-1.06613e-13,0,0,-3.52436,0.0805573,0.530524,0,0,0,0,0,-0.428378,0.0805573,245,-71,245,-71,375,-85,250,54,0,-0,0,-1.5,3.94113e+12,0,0,0,0,0,0,0,0,0,0,0,18070,0,0,0,0,9660,0,0,0,0
13691,-3.21252e-12,0,-1.56203e-06,-3.27827e-12,0,0,-1.06614e-13,0,0,-3.52436,0.0805573,0.530524,0,0,0,0,0,-0.428378,0.0805573,245,-71,245,-71,375,-85,250,54,0,-0,0,-1.5,3.94113e+12,0,0,0,0,0,0,0,0,0,0,0,18070,0,0,0,0,9660,0,0,0,0
13708,-3.21252e-12,0,-1.56203e-06,-3.27827e-12,0,-3.40904e-12,-1.06614e-13,0,0,-3.52436,0.0805573,0.530524,0,0,0,0,0,-0.428378,0.0805573,245,-71,245,-71,375,-85,250,54,0,-0,0,-1.5,3.94113e+12,0,0,0,0,0,0,0,0,0,0,0,18070,0,0,0,0,9660,0,0,0,0
13746,-3.21252e-12,0,-1.56203e-06,-3.27827e-12,0,0,-1.06614e-13,0,0,-3.52436,0.0805573,0.530524,0,0,0,0,0,-0.428378,0.0805573,245,-71,245,-71,375,-85,250,54,0,-0,0,-1.5,3.94113e+12,0,0,0,0,0,0,0,0,0,0,0,18070,0,0,0,0,9660,0,0,0,0
13763,-3.21252e-12,0,-1.56203e-06,-3.27827e-12,0,-3.40904e-12,-1.06615e-13,0,0,-3.52436,0.0805573,0.530524,0,0,0,0,0,-0.428378,0.0805573,245,-71,245,-71,375,-85,250,54,0,-0,0,-1.5,3.94113e+12,0,0,0,0,0,0,0,0,0,0,0,18070,0,0,0,0,9660,0,0,0,0
13785,-3.21252e-12,0,-1.56203e-06,-3.27827e-12,0,0,-1.06615e-13,0,0,-3.52436,0.0805573,0.530524,0,0,0,0,0,-0.428378,0.0805573,245,-71,245,-71,375,-85,250,54,0,-0,0,-1.5,3.94113e+12,0,0,0,0,0,0,0,0,0,0,0,18070,0,0,0,0,9660,0,0,0,0
13802,-3.21252e-12,0,-1.56203e-06,-3.27827e-12,0,-3.40904e-12,-1.06615e-13,0,0,-3.52436,0.0805573,0.530524,0,0,0,0,0,-0.428378,0.0805573,245,-71,245,-71,375,-85,250,54,0,-0,0,-1.5,3.94113e+12,0,0,0,0,0,0,0,0,0,0,0,18070,0,0,0,0,9660,0,0,0,0
13820,-3.21252e-12,0,-1.56203e-06,-3.27827e-12,0,0,-1.06615e-13,0,0,-3.52436,0.0805573,0.530524,0,0,0,0,0,-0.428378,0.0805573,245,-71,245,-71,375,-85,250,54,0,-0,0,-1.5,3.94113e+12,0,0,0,0,0,0,0,0,0,0,0,18070,0,0,0,0,9660,0,0,0,0
13841,-3.21252e-12,0,-1.56203e-06,-3.27827e-12,0,-3.40904e-12,-1.06616e-13,0,0,-3.52436,0.0805573,0.530524,0,0,0,0,0,-0.428378,0.0805573,245,-71,245,-71,375,-85,250,54,0,-0,0,-1.5,3.94113e+12,0,0,0,0,0,0,0,0,0,0,0,18070,0,0,0,0,9660,0,0,0,0
13858,-3.21252e-12,0,-1.56203e-06,-3.27827e-12,0,0,-1.06616e-13,0,0,-3.52436,0.0805573,0.530524,0,0,0,0,0,-0.428378,0.0805573,245,-71,245,-71,375,-85,250,54,0,-0,0,-1.5,3.94113e+12,0,0,0,0,0,0,0,0,0,0,0,18070,0,0,0,0,9660,0,0,0,0
13898,-3.21252e-12,0,-1.56203e-06,-3.27827e-12,0,-3.40904e-12,-1.06616e-13,0,0,-3.52436,0.0805573,0.530524,0,0,0,0,0,-0.428378,0.0805573,245,-71,245,-71,375,-85,250,54,0,-0,0,-1.5,3.94113e+12,0,0,0,0,0,0,0,0,0,0,0,18070,0,0,0,0,9660,0,0,0,0
13947,-3.21252e-12,0,-1.56203e-06,-3.27827e-12,0,0,-1.06616e-13,0,0,-3.52436,0.0805573,0.530524,0,0,0,0,0,-0.428378,0.0805573,245,-71,245,-71,375,-85,250,54,0,-0,0,-1.5,3.94113e+12,0,0,0,0,0,0,0,0,0,0,0,18070,0,0,0,0,9660,0,0,0,0
13968,-3.21252e-12,0,-1.56203e-06,-3.27827e-12,0,-3.40904e-12,-1.06617e-13,0,0,-3.52436,0.0805573,0.530524,0,0,0,0,0,-0.428378,0.0805573,245,-71,245,-71,375,-85,250,54,0,-0,0,-1.5,3.94113e+12,0,0,0,0,0,0,0,0,0,0,0,18070,0,0,0,0,9660,0,0,0,0
13986,-3.21252e-12,0,-1.56203e-06,-3.27827e-12,0,0,-1.06617e-13,0,0,-3.52436,0.0805573,0.530524,0,0,0,0,0,-0.428378,0.0805573,245,-71,245,-71,375,-85,250,54,0,-0,0,-1.5,3.94113e+12,0,0,0,0,0,0,0,0,0,0,0,18070,0,0,0,0,9660,0,0,0,0
14006,-3.21252e-12,0,-1.56203e-06,-3.27827e-12,0,-3.40904e-12,-1.06617e-13,0,0,-3.52436,0.0805573,0.530524,0,0,0,0,0,-0.428378,0.0805573,245,-71,245,-71,375,-85,250,54,0,-0,0,-1.5,3.94113e+12,0,0,0,0,0,0,0,0,0,0,0,18070,0,0,0,0,9660,0,0,0,0
14019,-3.21252e-12,0,-1.56203e-06,-3.27827e-12,0,0,-1.06618e-13,0,0,-3.52436,0.0805573,0.530524,0,0,0,0,0,-0.428378,0.0805573,245,-71,245,-71,375,-85,250,54,0,-0,0,-1.5,3.94113e+12,0,0,0,0,0,0,0,0,0,0,0,18070,0,0,0,0,9660,0,0,0,0
14057,-3.21252e-12,0,-1.56203e-06,-3.27827e-12,0,-3.40904e-12,-1.06618e-13,0,0,-3.54418,0.225352,0.734675,0,0,0,0,0,-0.455527,0.225352,230,-96,230,-96,354,-106,234,33,0,-0,0,-1.5,3.94113e+12,0,0,0,0,0,0,0,0,0,0,0,17931,0,0,0,0,14048,0,0,0,0
14074,-3.21252e-12,0,-1.56203e-06,-3.27827e-12,0,0,-1.06618e-13,0,0,-3.54418,0.225352,0.734675,0,0,0,0,0,-0.455527,0.225352,230,-96,230,-96,354,-106,234,33,0,-0,0,-1.5,3.94113e+12,0,0,0,0,0,0,0,0,0,0,0,17931,0,0,0,0,14048,0,0,0,0
14095,-3.21252e-12,0,-1.56203e-06,-3.27827e-12,0,-3.40904e-12,-1.06618e-13,0,0,-3.48471,0.223827,0.675579,0,0,0,0,0,-0.374053,0.223827,230,-96,230,-96,353,-104,232,38,0,-0,0,-1.5,3.94113e+12,0,0,0,0,0,0,0,0,0,0,0,18602,0,0,0,0,14087,0,0,0,0
14112,-3.21252e-12,0,-1.56203e-06,-3.27827e-12,0,0,-1.06619e-13,0,0,-3.54392,0.231397,0.683612,0,0,0,0,0,-0.455174,0.231397,230,-92,230,-92,353,-102,235,39,0,-0,0,-1.5,3.94113e+12,0,0,0,0,0,0,0,0,0,0,0,17766,0,0,0,0,14110,0,0,0,0
14153,-3.21252e-12,0,-1.56203e-06,-3.27827e-12,0,-3.40904e-12,-1.06619e-13,0,0,-3.48243,0.207098,0.600066,0,0,0,0,0,-0.370933,0.207098,230,-86,230,-86,355,-95,235,47,-0.0219004,-0.17024,0,-1.5,3.94113e+12,0,0,0,-0.37019,0.203115,0,0,0,0,0.0495237,-0.26554,19028,-0.370933,0.207098,0.0495237,-0.26554,14139,0.185095,-0.014855,-0.101558,0.0796571
14211,-3.21252e-12,0,-1.56203e-06,-3.27827e-12,0,0,-1.06619e-13,0,0,-3.56454,0.19549,0.572489,0,0,0,0,0,-0.483425,0.19549,236,-79,236,-79,359,-82,236,55,0.436332,-0.261799,0,-1.5,3.94113e+12,0,0,0,-0.48674,0.194631,0,0,0,0,-0.828592,-0.214678,16988,-0.483425,0.19549,-0.828592,-0.214678,14208,0.24337,0.873732,-0.0973155,1.04955
14228,-3.21252e-12,0,-1.56203e-06,-3.27827e-12,0,-3.40904e-12,-1.06619e-13,0,0,-3.56454,0.19549,0.572489,0,0,0,0,0,-0.483425,0.19549,236,-79,236,-79,359,-82,236,55,-0.0310909,-0.261799,0,-1.5,3.94113e+12,0,0,0,-0.500825,0.190982,0,0,0,0,-0.828592,-0.214678,16988,-0.483425,0.19549,-0.828592,-0.214678,14208,0.250413,0.248556,-0.0954908,0.0643998
14248,-3.21252e-12,0,-1.56203e-06,-3.27827e-12,0,0,-1.0662e-13,0,0,-3.5974,0.192634,0.597254,0,0,0,0,0,-0.528436,0.192634,236,-79,236,-79,359,-82,238,53,-0.0397252,-0.261799,0,-1.5,3.94113e+12,0,0,0,-0.517397,0.191513,0,0,0,0,-0.828592,-0.186788,16740,-0.512425,0.192634,-0.828592,-0.186788,14243,0.258698,0.24856,-0.0957565,0.0560313
14269,-3.21252e-12,0,-1.56203e-06,-3.27827e-12,0,-3.40904e-12,-1.0662e-13,0,0,-3.5974,0.192634,0.597254,0,0,0,0,0,-0.528436,0.192634,236,-79,236,-79,359,-82,238,53,-0.0376706,-0.261799,0,-1.5,3.94113e+12,0,0,0,-0.535625,0.187404,0,0,0,0,-0.828592,-0.186788,16740,-0.512425,0.192634,-0.828592,-0.186788,14243,0.267813,0.24856,-0.0937019,0.0560313
14288,-3.21252e-12,0,-1.56203e-06,-3.27827e-12,0,0,-1.0662e-13,0,0,-3.54806,0.18873,0.594935,0,0,0,0,0,-0.46084,0.18873,236,-79,236,-79,360,-89,236,49,-0.0358961,-0.261799,0,-1.5,3.94113e+12,0,0,0,-0.537855,0.183855,0,0,0,0,-0.765446,-0.186788,17388,-0.523312,0.187404,-0.765446,-0.186788,14277,0.268927,0.229615,-0.0919275,0.0560313
14306,-3.21252e-12,0,-1.56203e-06,-3.27827e-12,0,-3.40904e-12,-1.0662e-13,0,0,-3.54806,0.18873,0.594935,0,0,0,0,0,-0.46084,0.18873,236,-79,236,-79,360,-89,236,49,-0.0342129,-0.261799,0,-1.5,3.94113e+12,0,0,0,-0.551632,0.180493,0,0,0,0,-0.765446,-0.186788,17388,-0.523312,0.187404,-0.765446,-0.186788,14277,0.275816,0.229624,-0.0902464,0.0560336
14330,-3.21252e-12,0,-1.56203e-06,-3.27827e-12,0,0,-1.06623e-13,0,0,-3.54714,0.188687,0.569662,0,0,0,0,0,-0.459577,0.188687,236,-79,236,-79,360,-86,238,55,-0.0338249,-0.261799,0,-1.5,3.94113e+12,0,0,0,-0.486857,0.177053,0,0,0,0,-0.316338,-0.182352,17484,-0.479265,0.181429,-0.316338,-0.182352,14318,0.243428,0.0948921,-0.0885263,0.0547014
14351,-3.21252e-12,0,-1.56203e-06,-3.27827e-12,0,-3.40904e-12,-1.06624e-13,0,0,-3.51204,0.173781,0.552854,0,0,0,0,0,-0.41149,0.173781,236,-79,236,-79,360,-86,238,53,-0.0280702,-0.261799,0,-1.5,3.94113e+12,0,0,0,-0.471285,0.171163,0,0,0,0,-0.183077,-0.191717,18070,-0.467441,0.175189,-0.183077,-0.191717,14339,0.235643,0.0549227,-0.0855813,0.057511
14365,-3.21252e-12,0,-1.56203e-06,-3.27827e-12,0,0,-1.06621e-13,0,0,-3.51204,0.173781,0.552854,0,0,0,0,0,-0.41149,0.173781,236,-79,236,-79,360,-86,238,53,-0.0267283,-0.261799,0,-1.5,3.94113e+12,0,0,0,-0.473848,0.168479,0,0,0,0,-0.183077,-0.191717,18070,-0.467441,0.175189,-0.183077,-0.191717,14339,0.236924,0.0549182,-0.0842393,0.057511
14387,-3.21252e-12,0,-1.56203e-06,-3.27827e-12,0,-3.40904e-12,-1.06621e-13,0,0,-3.55342,0.175039,0.592345,0,0,0,0,0,-0.468182,0.175039,236,-79,236,-79,360,-86,238,47,-0.0305449,-0.261799,0,-1.5,3.94113e+12,0,0,0,-0.474846,0.168043,0,0,0,0,-0.163816,-0.178267,17290,-0.471242,0.171965,-0.163816,-0.178267,14375,0.237423,0.0491425,-0.0840214,0.0534765
14404,-3.21252e-12,0,-1.56203e-06,-3.27827e-12,0,0,-1.06621e-13,0,0,-3.55342,0.175039,0.592345,0,0,0,0,0,-0.468182,0.175039,236,-79,236,-79,360,-86,238,47,-0.0290297,-0.261799,0,-1.5,3.94113e+12,0,0,0,-0.477631,0.165012,0,0,0,0,-0.163816,-0.178267,17290,-0.471242,0.171965,-0.163816,-0.178267,14375,0.238815,0.0491381,-0.0825062,0.0534765
14424,-3.21252e-12,0,-1.56203e-06,-3.27827e-12,0,-3.40904e-12,-1.06622e-13,0,0,-3.55342,0.175039,0.592345,0,0,0,0,0,-0.468182,0.175039,236,-79,236,-79,360,-86,238,47,-0.0338653,-0.261799,0,-1.5,3.94113e+12,0,0,0,-0.478812,0.1656,0,0,0,0,-0.163541,-0.163129,17290,-0.475541,0.168862,-0.163541,-0.163129,14412,0.239406,0.0490576,-0.0828,0.0489347
14449,-3.21252e-12,0,-1.56203e-06,-3.27827e-12,0,0,-1.06622e-13,0,0,-3.52511,0.174106,0.556954,0,0,0,0,0,-0.429401,0.174106,236,-79,236,-79,360,-84,238,53,-0.0318262,-0.261799,0,-1.5,3.94113e+12,0,0,0,-0.473438,0.161522,0,0,0,0,-0.138598,-0.163129,17810,-0.471774,0.163479,-0.138598,-0.163129,14439,0.236719,0.0415742,-0.0807609,0.0489347
14466,-3.21252e-12,0,-1.56203e-06,-3.27827e-12,0,-3.40904e-12,-1.06622e-13,0,0,-3.52511,0.174106,0.556954,0,0,0,0,0,-0.429401,0.174106,236,-79,236,-79,360,-84,238,53,-0.0304397,-0.261799,0,-1.5,3.94113e+12,0,0,0,-0.475794,0.158749,0,0,0,0,-0.138598,-0.163129,17810,-0.471774,0.163479,-0.138598,-0.163129,14439,0.237897,0.0415742,-0.0793743,0.0489347
14487,-3.21252e-12,0,-1.56203e-06,-3.27827e-12,0,0,-1.06623e-13,0,0,-3.52491,0.178719,0.560825,0,0,0,0,0,-0.429121,0.178719,236,-79,236,-79,358,-86,238,53,-0.0387781,-0.261799,0,-1.5,3.94113e+12,0,0,0,-0.47425,0.162967,0,0,0,0,-0.0849978,-0.142359,18070,-0.472551,0.165814,-0.0849978,-0.142359,14474,0.237125,0.0254989,-0.0814833,0.0427052
14512,-3.21252e-12,0,-1.56203e-06,-3.27827e-12,0,-3.40904e-12,-1.06624e-13,0,0,-3.55456,0.186667,0.578936,0,0,0,0,0,-0.469751,0.186667,236,-79,236,-79,360,-86,238,53,-0.304198,-0.0163797,0,-1.5,3.94113e+12,0,0,0,-0.472288,0.163824,0,0,0,0,-0.046794,-0.120078,17375,-0.472054,0.164425,-0.046794,-0.120078,14508,0.236144,-0.219764,-0.0819122,-0.222285
14562,-3.21252e-12,0,-1.56203e-06,-3.27827e-12,0,0,-1.06626e-13,0,0,-3.5322,0.17896,0.567644,0,0,0,0,0,-0.439113,0.17896,236,-79,236,-79,358,-86,238,52,-0.0475481,-0.229686,0,-1.5,3.94113e+12,0,0,0,-0.457406,0.160386,0,0,0,0,-0.00328407,-0.108825,17940,-0.457238,0.165936,-0.00328407,-0.108825,14550,0.228703,0.000983477,-0.0801928,0.0326447
14583,-3.21252e-12,0,-1.56203e-06,-3.27827e-12,0,-3.40904e-12,-1.06627e-13,0,0,-3.52943,0.168163,0.55558,0,0,0,0,0,-0.435321,0.168163,237,-77,237,-77,362,-84,238,53,-0.0468205,-0.213991,0,-1.5,3.94113e+12,0,0,0,-0.442574,0.158676,0,0,0,0,0.0243114,-0.108401,17673,-0.442865,0.159976,0.0243114,-0.108401,14573,0.221287,-0.00729561,-0.0793378,0.0325173
14626,-3.21252e-12,0,-1.56203e-06,-3.27827e-12,0,0,-1.06627e-13,0,0,-3.54827,0.181389,0.581809,0,0,0,0,0,-0.461127,0.181389,233,-79,233,-79,362,-86,240,49,-0.0568628,-0.232169,0,-1.5,3.94113e+12,0,0,0,-0.460234,0.16349,0,0,0,0,-0.00683375,-0.0829466,17415,-0.45994,0.167056,-0.00683375,-0.0829466,14614,0.230117,0.00205189,-0.0817448,0.024882
14648,-3.21252e-12,0,-1.56203e-06,-3.27827e-12,0,-3.40904e-12,-1.06628e-13,0,0,-3.63876,0.147676,0.599442,0,0,0,0,0,-0.585097,0.147676,242,-73,242,-73,365,-79,242,50,-0.043787,-0.232941,0,-1.5,3.94113e+12,0,0,0,-0.461663,0.151853,0,0,0,0,-0.00703338,-0.107143,15867,-0.461599,0.152817,-0.00703338,-0.107143,14642,0.230831,0.00211,-0.0759266,0.0321396
14662,-3.21252e-12,0,-1.56203e-06,-3.27827e-12,0,0,-1.06627e-13,0,0,-3.63876,0.147676,0.599442,0,0,0,0,0,-0.585097,0.147676,242,-73,242,-73,365,-79,242,50,-0.0430363,-0.23299,0,-1.5,3.94113e+12,0,0,0,-0.461761,0.150353,0,0,0,0,-0.00703338,-0.107143,15867,-0.461599,0.152817,-0.00703338,-0.107143,14642,0.23088,0.00211,-0.0751766,0.0321403
14685,-3.21252e-12,0,-1.56203e-06,-3.27827e-12,0,-3.40904e-12,-1.06628e-13,0,0,-3.54977,0.146292,0.543944,0,0,0,0,0,-0.463179,0.146292,242,-75,242,-75,365,-82,240,52,-0.0404588,-0.240217,0,-1.5,3.94113e+12,0,0,0,-0.463063,0.146971,0,0,0,0,-0.0289561,-0.110097,16884,-0.462715,0.148293,-0.0289561,-0.110097,14674,0.231531,0.00868589,-0.0734857,0.0330269
14701,-3.21252e-12,0,-1.56203e-06,-3.27827e-12,0,0,-1.06628e-13,0,0,-3.54977,0.146292,0.543944,0,0,0,0,0,-0.463179,0.146292,242,-75,242,-75,365,-82,240,52,-0.039523,-0.240463,0,-1.5,3.94113e+12,0,0,0,-0.463555,0.1451,0,0,0,0,-0.0289561,-0.110097,16884,-0.462715,0.148293,-0.0289561,-0.110097,14674,0.231778,0.00868589,-0.0725499,0.0330269
14723,-3.21252e-12,0,-1.56203e-06,-3.27827e-12,0,-3.40904e-12,-1.06626e-13,0,0,-3.51261,0.141638,0.538433,0,0,0,0,0,-0.412276,0.141638,241,-75,241,-75,365,-86,240,52,-0.0356877,-0.234529,0,-1.5,3.94113e+12,0,0,0,-0.463596,0.140867,0,0,0,0,-0.00910626,-0.115826,17802,-0.463395,0.143415,-0.00910626,-0.115826,14710,0.231798,0.00273138,-0.0704334,0.0347458
14745,-3.21252e-12,0,-1.56203e-06,-3.27827e-12,0,0,-1.06624e-13,0,0,-3.60268,0.153775,0.589843,0,0,0,0,0,-0.535677,0.153775,240,-73,240,-73,365,-84,242,50,-0.0383003,-0.2423,0,-1.5,3.94113e+12,0,0,0,-0.465842,0.141416,0,0,0,0,-0.0312644,-0.108031,16750,-0.465498,0.142605,-0.0312644,-0.108031,14736,0.232921,0.00937879,-0.0707081,0.0324078
14766,-3.21252e-12,0,-1.56203e-06,-3.27827e-12,0,-3.40904e-12,-1.06623e-13,0,0,-3.60268,0.153775,0.589843,0,0,0,0,0,-0.535677,0.153775,240,-73,240,-73,365,-84,242,50,-0.037166,-0.242628,0,-1.5,3.94113e+12,0,0,0,-0.466499,0.139148,0,0,0,0,-0.0312644,-0.108031,16750,-0.465498,0.142605,-0.0312644,-0.108031,14736,0.233249,0.00937879,-0.0695738,0.0324078
14811,-3.21252e-12,0,-1.56203e-06,-3.27827e-12,0,0,-1.06628e-13,0,0,-3.58184,0.141927,0.568153,0,0,0,0,0,-0.507125,0.141927,242,-73,242,-73,367,-83,242,52,-0.0489143,-0.261799,0,-1.5,3.94113e+12,0,0,0,-0.474127,0.138738,0,0,0,0,-0.0434389,-0.100799,16875,-0.473867,0.139343,-0.0434389,-0.100799,14807,0.237064,0.302617,-0.0693691,0.0204548
14829,-3.21252e-12,0,-1.56203e-06,-3.27827e-12,0,-3.40904e-12,-1.06624e-13,0,0,-3.58184,0.141927,0.568153,0,0,0,0,0,-0.507125,0.141927,242,-73,242,-73,367,-83,242,52,-0.0382245,-0.250481,0,-1.5,3.94113e+12,0,0,0,-0.474909,0.136924,0,0,0,0,-0.0434389,-0.100799,16875,-0.473867,0.139343,-0.0434389,-0.100799,14807,0.237455,0.0130266,-0.068462,0.0302374
14879,-3.21252e-12,0,-1.56203e-06,-3.27827e-12,0,0,-1.06629e-13,0,0,-3.55573,0.122831,0.534612,0,0,0,0,0,-0.471349,0.122831,245,-75,245,-75,367,-79,243,56,-0.0274989,-0.245206,0,-1.5,3.94113e+12,0,0,0,-0.474524,0.123524,0,0,0,0,-0.0264931,-0.114216,17010,-0.474286,0.124552,-0.0264931,-0.114216,14872,0.237262,0.00794381,-0.0617619,0.034263
14896,-3.21252e-12,0,-1.56203e-06,-3.27827e-12,0,-3.40904e-12,-1.06625e-13,0,0,-3.55573,0.122831,0.534612,0,0,0,0,0,-0.471349,0.122831,245,-75,245,-75,367,-79,243,56,-0.0265281,-0.245435,0,-1.5,3.94113e+12,0,0,0,-0.474974,0.121582,0,0,0,0,-0.0264931,-0.114216,17010,-0.474286,0.124552,-0.0264931,-0.114216,14872,0.237487,0.00794828,-0.0607911,0.034263
14918,-3.21252e-12,0,-1.56203e-06,-3.27827e-12,0,0,-1.06629e-13,0,0,-3.54789,0.117703,0.536478,0,0,0,0,0,-0.460611,0.117703,242,-77,242,-77,371,-77,245,55,-0.0233929,-0.247628,0,-1.5,3.94113e+12,0,0,0,-0.474728,0.117426,0,0,0,0,-0.0342269,-0.117742,17028,-0.474284,0.118957,-0.0342269,-0.117742,14907,0.237364,0.0102639,-0.0587131,0.0353202
14939,-3.21252e-12,0,-1.56203e-06,-3.27827e-12,0,-3.40904e-12,-1.06625e-13,0,0,-3.54789,0.117703,0.536478,0,0,0,0,0,-0.460611,0.117703,242,-77,242,-77,371,-77,245,55,-0.0221567,-0.247992,0,-1.5,3.94113e+12,0,0,0,-0.475447,0.114954,0,0,0,0,-0.0342269,-0.117742,17028,-0.474284,0.118957,-0.0342269,-0.117742,14907,0.237724,0.0102684,-0.0574769,0.0353202
14958,-3.21252e-12,0,-1.56203e-06,-3.27827e-12,0,0,-1.06625e-13,0,0,-3.59948,0.127829,0.574906,0,0,0,0,0,-0.531291,0.127829,242,-77,242,-77,367,-77,245,52,-0.0252684,-0.248456,0,-1.5,3.94113e+12,0,0,0,-0.478851,0.116671,0,0,0,0,-0.0300963,-0.110234,16254,-0.47828,0.118765,-0.0300963,-0.110234,14944,0.239426,0.0090301,-0.0583355,0.0330672
14980,-3.21252e-12,0,-1.56203e-06,-3.27827e-12,0,-3.40904e-12,-1.06629e-13,0,0,-3.55186,0.122585,0.551622,0,0,0,0,0,-0.466053,0.122585,242,-77,242,-77,369,-81,245,53,-0.0302823,-0.247148,0,-1.5,3.94113e+12,0,0,0,-0.476227,0.121339,0,0,0,0,-0.0301282,-0.101299,17018,-0.475956,0.122251,-0.0301282,-0.101299,14973,0.238113,0.00903457,-0.0606695,0.0303872
15001,-3.21252e-12,0,-1.56203e-06,-3.27827e-12,0,0,-1.06625e-13,0,0,-3.55186,0.122585,0.551622,0,0,0,0,0,-0.466053,0.122585,242,-77,242,-77,369,-81,245,53,-0.0292176,-0.247464,0,-1.5,3.94113e+12,0,0,0,-0.47686,0.119212,0,0,0,0,-0.0301282,-0.101299,17018,-0.475956,0.122251,-0.0301282,-0.101299,14973,0.23843,0.00903457,-0.0596059,0.0303883
15023,-3.21252e-12,0,-1.56203e-06,-3.27827e-12,0,-3.40904e-12,-1.06629e-13,0,0,-3.54742,0.10353,0.532358,0,0,0,0,0,-0.459962,0.10353,245,-73,245,-73,371,-79,245,55,-0.0208685,-0.242998,0,-1.5,3.94113e+12,0,0,0,-0.473005,0.108533,0,0,0,0,-0.0216535,-0.111334,17018,-0.472528,0.110982,-0.0216535,-0.111334,15010,0.236502,0.00649542,-0.0542664,0.033398
15046,-3.21252e-12,0,-1.56203e-06,-3.27827e-12,0,0,-1.0663e-13,0,0,-3.49373,0.110402,0.500665,0,0,0,0,0,-0.386415,0.110402,242,-75,242,-75,374,-81,245,56,-0.14054,0.017598,0,-1.5,3.94113e+12,0,0,0,-0.466639,0.109155,0,0,0,0,-0.0126658,-0.107334,18084,-0.466537,0.110014,-0.0126658,-0.107334,15040,0.233319,-0.250917,-0.0545776,-0.085962
15067,-3.21252e-12,0,-1.56203e-06,-3.27827e-12,0,-3.40904e-12,-1.06626e-13,0,0,-3.49373,0.110402,0.500665,0,0,0,0,0,-0.386415,0.110402,242,-75,242,-75,374,-81,245,56,-0.0212519,-0.237252,0,-1.5,3.94113e+12,0,0,0,-0.466904,0.106901,0,0,0,0,-0.0126658,-0.107334,18084,-0.466537,0.110014,-0.0126658,-0.107334,15040,0.233452,0.0037998,-0.0534507,0.0321988
15090,-3.21252e-12,0,-1.56203e-06,-3.27827e-12,0,0,-1.0663e-13,0,0,-3.53895,0.124742,0.528179,0,0,0,0,0,-0.44836,0.124742,242,-75,242,-75,368,-81,245,56,-0.0202025,-0.237779,0,-1.5,3.94113e+12,0,0,0,-0.468996,0.104834,0,0,0,0,-0.010939,-0.107391,17262,-0.468756,0.107196,-0.010939,-0.107391,15076,0.234498,0.00328124,-0.052417,0.0322144
15130,-3.21252e-12,0,-1.56203e-06,-3.27827e-12,0,-3.40904e-12,-1.0663e-13,0,0,-3.57217,0.125127,0.542568,0,0,0,0,0,-0.493877,0.125127,242,-75,242,-75,368,-77,245,55,-0.0253361,-0.237065,0,-1.5,3.94113e+12,0,0,0,-0.468157,0.107902,0,0,0,0,-0.00995115,-0.095388,16632,-0.467749,0.111812,-0.00995115,-0.095388,15116,0.234079,0.00298619,-0.0539508,0.0286147
15158,-3.21252e-12,0,-1.56203e-06,-3.27827e-12,0,0,-1.06631e-13,0,0,-3.49279,0.110284,0.508621,0,0,0,0,0,-0.385119,0.110284,242,-77,242,-77,374,-81,245,56,-0.0249789,-0.236262,0,-1.5,3.94113e+12,0,0,0,-0.467643,0.106389,0,0,0,0,-0.00813545,-0.0940593,18084,-0.467423,0.108929,-0.00813545,-0.0940593,15144,0.233821,0.00244081,-0.0531946,0.0282157
15180,-3.21252e-12,0,-1.56203e-06,-3.27827e-12,0,-3.40904e-12,-1.06631e-13,0,0,-3.52628,0.115832,0.527305,0,0,0,0,0,-0.431007,0.115832,242,-75,242,-75,372,-81,245,55,-0.0252329,-0.227097,0,-1.5,3.94113e+12,0,0,0,-0.459112,0.105654,0,0,0,0,0.00820316,-0.0919879,17680,-0.459186,0.106482,0.00820316,-0.0919879,15173,0.229556,-0.00245869,-0.0528272,0.0275943
15234,-3.21252e-12,0,-1.56203e-06,-3.27827e-12,0,0,-1.06631e-13,0,0,-3.49279,0.110284,0.508621,0,0,0,0,0,-0.385119,0.110284,242,-77,242,-77,374,-81,245,56,-0.0318425,-0.228993,0,-1.5,3.94113e+12,0,0,0,-0.459339,0.100679,0,0,0,0,0.00337667,-0.0924884,18084,-0.459518,0.105581,0.00337667,-0.0924884,15220,0.229669,-0.000676513,-0.0503393,0.0184968
15259,-3.21252e-12,0,-1.56203e-06,-3.27827e-12,0,-3.40904e-12,-1.06631e-13,0,0,-3.52513,0.102989,0.535218,0,0,0,0,0,-0.429421,0.102989,245,-75,245,-75,375,-83,245,53,-0.0223293,-0.227467,0,-1.5,3.94113e+12,0,0,0,-0.457822,0.099103,0,0,0,0,0.00480712,-0.0907485,17680,-0.457947,0.101462,0.00480712,-0.0907485,15245,0.228911,-0.00144392,-0.0495515,0.0272222
15279,-3.21252e-12,0,-1.56203e-06,-3.27827e-12,0,0,-1.06632e-13,0,0,-3.49279,0.110284,0.508621,0,0,0,0,0,-0.385119,0.110284,242,-77,242,-77,374,-81,245,56,-0.0881147,0.261799,0,-1.5,3.94113e+12,0,0,0,-0.439422,0.0990432,0,0,0,0,0.0310971,-0.0871518,18084,-0.439671,0.0997404,0.0310971,-0.0871518,15273,0.219711,-0.687848,-0.0495216,-0.0385931
15296,-3.21252e-12,0,-1.56203e-06,-3.27827e-12,0,-3.40904e-12,-1.06632e-13,0,0,-3.49279,0.110284,0.508621,0,0,0,0,0,-0.385119,0.110284,242,-77,242,-77,374,-81,245,56,-0.0226371,-0.210121,0,-1.5,3.94113e+12,0,0,0,-0.438893,0.0975617,0,0,0,0,0.0310971,-0.0871518,18084,-0.439671,0.0997404,0.0310971,-0.0871518,15273,0.219447,-0.00932515,-0.0487808,0.0261437
15323,-3.21252e-12,0,-1.56203e-06,-3.27827e-12,0,0,-1.06632e-13,0,0,-3.50639,0.102158,0.516985,0,0,0,0,0,-0.403756,0.102158,245,-77,245,-77,375,-81,245,56,-0.0215484,-0.207732,0,-1.5,3.94113e+12,0,0,0,-0.436194,0.0951301,0,0,0,0,0.0345572,-0.0867302,17810,-0.437127,0.0974718,0.0345572,-0.0867302,15309,0.218097,-0.0103652,-0.0475651,0.0260167
15345,-3.21252e-12,0,-1.56203e-06,-3.27827e-12,0,-3.40904e-12,-1.06632e-13,0,0,-3.53238,0.118099,0.535354,0,0,0,0,0,-0.439365,0.118099,245,-77,245,-77,369,-81,243,56,-0.165865,-0.0957251,0,-1.5,3.94113e+12,0,0,0,-0.432859,0.0965727,0,0,0,0,0.037494,-0.0827595,17262,-0.433122,0.097152,0.037494,-0.0827595,15340,0.21643,-0.120705,-0.0482864,-0.117579
15362,-3.21252e-12,0,-1.56203e-06,-3.27827e-12,0,0,-1.06633e-13,0,0,-3.53238,0.118099,0.535354,0,0,0,0,0,-0.439365,0.118099,245,-77,245,-77,369,-81,243,56,-0.0227569,-0.204864,0,-1.5,3.94113e+12,0,0,0,-0.432222,0.0951659,0,0,0,0,0.037494,-0.0827595,17262,-0.433122,0.097152,0.037494,-0.0827595,15340,0.216111,-0.0112474,-0.0475829,0.0248261
15389,-3.21252e-12,0,-1.56203e-06,-3.27827e-12,0,-3.40904e-12,-1.06633e-13,0,0,-3.53141,0.130303,0.523785,0,0,0,0,0,-0.438025,0.130303,242,-77,242,-77,367,-79,243,56,-0.0221725,-0.20766,0,-1.5,3.94113e+12,0,0,0,-0.436723,0.0939302,0,0,0,0,0.0356725,-0.0826483,17010,-0.437687,0.0961616,0.0356725,-0.0826483,15375,0.218362,-0.010702,-0.0469651,0.0247926
15412,-3.21252e-12,0,-1.56203e-06,-3.27827e-12,0,0,-1.06633e-13,0,0,-3.5297,0.128609,0.54221,0,0,0,0,0,-0.435696,0.128609,242,-77,242,-77,368,-83,243,53,-0.0344448,-0.140469,0,-1.5,3.94113e+12,0,0,0,-0.434146,0.0923773,0,0,0,0,0.0390294,-0.0815944,17136,-0.434458,0.0930301,0.0390294,-0.0815944,15406,0.217073,-0.0766039,-0.0461887,0.0117439
15429,-3.21252e-12,0,-1.56203e-06,-3.27827e-12,0,-3.40904e-12,-1.06634e-13,0,0,-3.5297,0.128609,0.54221,0,0,0,0,0,-0.435696,0.128609,242,-77,242,-77,368,-83,243,53,-0.0210185,-0.205035,0,-1.5,3.94113e+12,0,0,0,-0.433482,0.0909903,0,0,0,0,0.0390294,-0.0815944,17136,-0.434458,0.0930301,0.0390294,-0.0815944,15406,0.216741,-0.0117064,-0.0454951,0.0244766
15456,-3.21252e-12,0,-1.56203e-06,-3.27827e-12,0,0,-1.06634e-13,0,0,-3.55291,0.12499,0.558606,0,0,0,0,0,-0.467483,0.12499,242,-77,242,-77,368,-83,245,52,-0.024613,-0.205805,0,-1.5,3.94113e+12,0,0,0,-0.433723,0.0931815,0,0,0,0,0.0368593,-0.0732637,17010,-0.434718,0.0951596,0.0368593,-0.0732637,15442,0.216862,-0.0110567,-0.0465907,0.0219777
15478,-3.21252e-12,0,-1.56203e-06,-3.27827e-12,0,-3.40904e-12,-1.06634e-13,0,0,-3.55291,0.12499,0.558606,0,0,0,0,0,-0.467483,0.12499,242,-77,242,-77,368,-83,245,52,-0.303084,-0.209282,0,-1.5,3.94113e+12,0,0,0,-0.433002,0.0980111,0,0,0,0,0.0368885,-0.0602237,17010,-0.43326,0.0984326,0.0368885,-0.0602237,15473,0.216501,-0.00721897,-0.0490055,-0.254078
15495,-3.21252e-12,0,-1.56203e-06,-3.27827e-12,0,0,-1.06634e-13,0,0,-3.55291,0.12499,0.558606,0,0,0,0,0,-0.467483,0.12499,242,-77,242,-77,368,-83,245,52,-0.0304279,-0.205119,0,-1.5,3.94113e+12,0,0,0,-0.432375,0.0969873,0,0,0,0,0.0368885,-0.0602237,17010,-0.43326,0.0984326,0.0368885,-0.0602237,15473,0.216187,-0.0110686,-0.0484936,0.0180658
15515,-3.21252e-12,0,-1.56203e-06,-3.27827e-12,0,-3.40904e-12,-1.06635e-13,0,0,-3.54192,0.127491,0.529951,0,0,0,0,0,-0.452431,0.127491,242,-75,242,-75,367,-81,245,58,-0.0347414,-0.206562,0,-1.5,3.94113e+12,0,0,0,-0.433347,0.101178,0,0,0,0,0.0337068,-0.0528315,17514,-0.433685,0.101706,0.0337068,-0.0528315,15507,0.216674,-0.0101119,-0.0505888,0.0158474
15533,-3.21252e-12,0,-1.56203e-06,-3.27827e-12,0,0,-1.06635e-13,0,0,-3.54192,0.127491,0.529951,0,0,0,0,0,-0.452431,0.127491,242,-75,242,-75,367,-81,245,58,-0.0342652,-0.206258,0,-1.5,3.94113e+12,0,0,0,-0.432741,0.100227,0,0,0,0,0.0337068,-0.0528315,17514,-0.433685,0.101706,0.0337068,-0.0528315,15507,0.21637,-0.0101119,-0.0501134,0.0158481
15555,-3.21252e-12,0,-1.56203e-06,-3.27827e-12,0,-3.40904e-12,-1.06635e-13,0,0,-3.51417,0.111612,0.513565,0,0,0,0,0,-0.414412,0.111612,242,-73,242,-73,374,-81,245,56,-0.0389596,-0.199972,0,-1.5,3.94113e+12,0,0,0,-0.428662,0.104167,0,0,0,0,0.0478664,-0.0437487,18084,-0.429332,0.104779,0.0478664,-0.0437487,15543,0.214331,-0.0143588,-0.0520834,0.0131238
15572,-3.21252e-12,0,-1.56203e-06,-3.27827e-12,0,0,-1.06635e-13,0,0,-3.51417,0.111612,0.513565,0,0,0,0,0,-0.414412,0.111612,242,-73,242,-73,374,-81,245,56,-0.0385877,-0.199565,0,-1.5,3.94113e+12,0,0,0,-0.427848,0.103423,0,0,0,0,0.0478664,-0.0437487,18084,-0.429332,0.104779,0.0478664,-0.0437487,15543,0.213924,-0.0143588,-0.0517116,0.0131238
15616,-3.21252e-12,0,-1.56203e-06,-3.27827e-12,0,-3.40904e-12,-1.06636e-13,0,0,-3.49399,0.112501,0.509721,0,0,0,0,0,-0.386761,0.112501,242,-77,242,-77,367,-81,245,56,-0.0464478,-0.193693,0,-1.5,3.94113e+12,0,0,0,-0.422792,0.109628,0,0,0,0,0.0590214,-0.0278927,18084,-0.425388,0.110855,0.0590214,-0.0278927,15602,0.211396,-0.0177026,-0.0548141,0.00836626
15633,-3.21252e-12,0,-1.56203e-06,-3.27827e-12,0,0,-1.06636e-13,0,0,-3.49399,0.112501,0.509721,0,0,0,0,0,-0.386761,0.112501,242,-77,242,-77,367,-81,245,56,-0.0462107,-0.193192,0,-1.5,3.94113e+12,0,0,0,-0.421788,0.109154,0,0,0,0,0.0590214,-0.0278927,18084,-0.425388,0.110855,0.0590214,-0.0278927,15602,0.210894,-0.0177026,-0.054577,0.00836626
15692,-3.21252e-12,0,-1.56203e-06,-3.27827e-12,0,-3.40904e-12,-1.06636e-13,0,0,-3.5662,0.103368,0.540816,0,0,0,0,0,-0.485694,0.103368,248,-75,248,-75,372,-79,245,55,-0.0454808,-0.191953,0,-1.5,3.94113e+12,0,0,0,-0.418855,0.107471,0,0,0,0,0.0582499,-0.0275174,17018,-0.422292,0.109094,0.0582499,-0.0275174,15678,0.209428,-0.0174746,-0.0537353,0.0082545
15719,-3.21252e-12,0,-1.56203e-06,-3.27827e-12,0,0,-1.06637e-13,0,0,-3.57552,0.105253,0.555217,0,0,0,0,0,-0.498464,0.105253,248,-77,248,-77,371,-79,245,53,-0.044162,-0.192256,0,-1.5,3.94113e+12,0,0,0,-0.418021,0.105591,0,0,0,0,0.0558444,-0.0287813,16632,-0.418803,0.105994,0.0558444,-0.0287813,15707,0.209011,-0.0167549,-0.0527954,0.00863336
15736,-3.21252e-12,0,-1.56203e-06,-3.27827e-12,0,-3.40904e-12,-1.06637e-13,0,0,-3.57552,0.105253,0.555217,0,0,0,0,0,-0.498464,0.105253,248,-77,248,-77,371,-79,245,53,-0.0439162,-0.191785,0,-1.5,3.94113e+12,0,0,0,-0.417072,0.105101,0,0,0,0,0.0558444,-0.0287813,16632,-0.418803,0.105994,0.0558444,-0.0287813,15707,0.208536,-0.0167504,-0.0525507,0.00863448
15758,-3.21252e-12,0,-1.56203e-06,-3.27827e-12,0,0,-1.06637e-13,0,0,-3.56177,0.105101,0.542222,0,0,0,0,0,-0.479625,0.105101,248,-77,248,-77,371,-79,245,55,-0.0437628,-0.189612,0,-1.5,3.94113e+12,0,0,0,-0.414639,0.104564,0,0,0,0,0.0590223,-0.0284001,16884,-0.415937,0.105189,0.0590223,-0.0284001,15744,0.207319,-0.017707,-0.0522822,0.00851937
15785,-3.21252e-12,0,-1.56203e-06,-3.27827e-12,0,-3.40904e-12,-1.06637e-13,0,0,-3.56814,0.0924175,0.529007,0,0,0,0,0,-0.488347,0.0924175,251,-75,251,-75,374,-76,245,58,-0.0448236,-0.190123,0,-1.5,3.94113e+12,0,0,0,-0.415222,0.103919,0,0,0,0,0.0583091,-0.0237892,17286,-0.416038,0.104252,0.0583091,-0.0237892,15773,0.207611,-0.017488,-0.0519594,0.00713579
15802,-3.21252e-12,0,-1.56203e-06,-3.27827e-12,0,0,-1.06638e-13,0,0,-3.56814,0.0924175,0.529007,0,0,0,0,0,-0.488347,0.0924175,251,-75,251,-75,374,-76,245,58,-0.0446203,-0.189623,0,-1.5,3.94113e+12,0,0,0,-0.414231,0.103514,0,0,0,0,0.0583091,-0.0237892,17286,-0.416038,0.104252,0.0583091,-0.0237892,15773,0.207115,-0.0174925,-0.0517572,0.00713691
15822,-3.21252e-12,0,-1.56203e-06,-3.27827e-12,0,-3.40904e-12,-1.06638e-13,0,0,-3.53336,0.0700131,0.508774,0,0,0,0,0,-0.440701,0.0700131,251,-73,251,-73,377,-76,246,56,-0.0453266,-0.21323,0,-1.5,3.94113e+12,0,0,0,-0.440489,0.103358,0,0,0,0,0.0233809,-0.0211786,17292,-0.440933,0.10376,0.0233809,-0.0211786,15808,0.220244,-0.00701398,-0.0516789,0.00635237
15968,-3.21252e-12,0,-1.56203e-06,-3.27827e-12,0,0,-1.06638e-13,0,0,-3.61102,0.0844493,0.551244,0,0,0,0,0,-0.547097,0.0844493,251,-73,251,-73,374,-74,247,56,-0.0411472,-0.215333,0,-1.5,3.94113e+12,0,0,0,-0.438424,0.0993343,0,0,0,0,0.0222073,-0.0223762,16510,-0.441288,0.102221,0.0222073,-0.0223762,15840,0.219212,-0.00387846,-0.0496671,0.00851993
15993,-3.21252e-12,0,-1.56203e-06,-3.27827e-12,0,-3.40904e-12,-1.06638e-13,0,0,-3.55506,0.0743301,0.542987,0,0,0,0,0,-0.470431,0.0743301,251,-76,251,-76,378,-79,247,52,-0.0416387,-0.241509,0,-1.5,3.94113e+12,0,0,0,-0.470394,0.0970617,0,0,0,0,-0.0210438,-0.0229755,17161,-0.470184,0.0972915,-0.0210438,-0.0229755,15986,0.235197,0.00631213,-0.0485309,0.00689216
16009,-3.21252e-12,0,-1.56203e-06,-3.27827e-12,0,0,-1.06639e-13,0,0,-3.55506,0.0743301,0.542987,0,0,0,0,0,-0.470431,0.0743301,251,-76,251,-76,378,-79,247,52,-0.0414549,-0.241678,0,-1.5,3.94113e+12,0,0,0,-0.470731,0.0966941,0,0,0,0,-0.0210438,-0.0229755,17161,-0.470184,0.0972915,-0.0210438,-0.0229755,15986,0.235365,0.00631213,-0.0483471,0.00689216
16030,-3.21252e-12,0,-1.56203e-06,-3.27827e-12,0,-3.40904e-12,-1.06639e-13,0,0,-3.55506,0.0743301,0.542987,0,0,0,0,0,-0.470431,0.0743301,251,-76,251,-76,378,-79,247,52,-0.0412137,-0.241899,0,-1.5,3.94113e+12,0,0,0,-0.471173,0.0962117,0,0,0,0,-0.0210438,-0.0229755,17161,-0.470184,0.0972915,-0.0210438,-0.0229755,15986,0.235586,0.00631213,-0.0481058,0.00689216
16053,-3.21252e-12,0,-1.56203e-06,-3.27827e-12,0,0,-1.06639e-13,0,0,-3.55461,0.0891811,0.546765,0,0,0,0,0,-0.469817,0.0891811,248,-78,248,-78,374,-79,247,52,-0.0372412,-0.242902,0,-1.5,3.94113e+12,0,0,0,-0.471195,0.0914296,0,0,0,0,-0.0243438,-0.0282467,16637,-0.470855,0.091825,-0.0243438,-0.0282467,16041,0.235598,0.00730455,-0.0457148,0.00847355
16070,-3.21252e-12,0,-1.56203e-06,-3.27827e-12,0,-3.40904e-12,-1.0664e-13,0,0,-3.55461,0.0891811,0.546765,0,0,0,0,0,-0.469817,0.0891811,248,-78,248,-78,374,-79,247,52,-0.0370011,-0.243105,0,-1.5,3.94113e+12,0,0,0,-0.471609,0.0909494,0,0,0,0,-0.0243438,-0.0282467,16637,-0.470855,0.091825,-0.0243438,-0.0282467,16041,0.235805,0.00730008,-0.0454747,0.00847355
16096,-3.21252e-12,0,-1.56203e-06,-3.27827e-12,0,0,-1.0664e-13,0,0,-3.57758,0.0603786,0.548162,0,0,0,0,0,-0.501287,0.0603786,251,-73,251,-73,377,-79,251,54,-0.0352428,-0.248215,0,-1.5,3.94113e+12,0,0,0,-0.474034,0.0886152,0,0,0,0,-0.0373325,-0.0302189,16758,-0.473063,0.0894008,-0.0373325,-0.0302189,16082,0.237017,0.0111982,-0.0443076,0.00906475
16119,-3.21252e-12,0,-1.56203e-06,-3.27827e-12,0,-3.40904e-12,-1.0664e-13,0,0,-3.60784,0.0718895,0.575773,0,0,0,0,0,-0.542747,0.0718895,251,-73,251,-73,378,-79,249,52,-0.0262632,-0.261799,0,-1.5,3.94113e+12,0,0,0,-0.504914,0.077842,0,0,0,0,-0.0835098,-0.0421965,16899,-0.503744,0.0784327,-0.0835098,-0.0421965,16107,0.252457,0.0250518,-0.038921,0.0126578
16136,-3.21252e-12,0,-1.56203e-06,-3.27827e-12,0,0,-1.0664e-13,0,0,-3.60784,0.0718895,0.575773,0,0,0,0,0,-0.542747,0.0718895,251,-73,251,-73,378,-79,249,52,-0.0259034,-0.261799,0,-1.5,3.94113e+12,0,0,0,-0.506333,0.0771246,0,0,0,0,-0.0835098,-0.0421965,16899,-0.503744,0.0784327,-0.0835098,-0.0421965,16107,0.253167,0.0250518,-0.0385623,0.0126589
16158,-3.21252e-12,0,-1.56203e-06,-3.27827e-12,0,-3.40904e-12,-1.06641e-13,0,0,-3.51888,0.0999838,0.531493,0,0,0,0,0,-0.420864,0.0999838,245,-78,245,-78,369,-81,246,54,-0.0334379,-0.261799,0,-1.5,3.94113e+12,0,0,0,-0.509013,0.0856178,0,0,0,0,-0.086862,-0.0312363,17415,-0.507102,0.086305,-0.086862,-0.0312363,16144,0.254506,0.0260621,-0.0428089,0.00937097
16181,-3.21252e-12,0,-1.56203e-06,-3.27827e-12,0,0,-1.06641e-13,0,0,-3.5152,0.102577,0.527032,0,0,0,0,0,-0.415824,0.102577,245,-80,245,-80,375,-78,244,51,-0.0354118,-0.254876,0,-1.5,3.94113e+12,0,0,0,-0.480463,0.0878378,0,0,0,0,-0.0488198,-0.0283592,17161,-0.480024,0.088093,-0.0488198,-0.0283592,16173,0.240231,0.0146449,-0.0439189,0.00850707
16219,-3.21252e-12,0,-1.56203e-06,-3.27827e-12,0,-3.40904e-12,-1.06641e-13,0,0,-3.59162,0.106726,0.571944,0,0,0,0,0,-0.520513,0.106726,248,-75,248,-75,371,-81,245,53,-0.0413544,-0.261799,0,-1.5,3.94113e+12,0,0,0,-0.51479,0.094866,0,0,0,0,-0.0880569,-0.0202628,16884,-0.511356,0.0956562,-0.0880569,-0.0202628,16205,0.257395,0.0264198,-0.047433,0.00607856
16236,-3.21252e-12,0,-1.56203e-06,-3.27827e-12,0,0,-1.06641e-13,0,0,-3.59162,0.106726,0.571944,0,0,0,0,0,-0.520513,0.106726,248,-75,248,-75,371,-81,245,53,-0.0411818,-0.261799,0,-1.5,3.94113e+12,0,0,0,-0.516287,0.0945215,0,0,0,0,-0.0880569,-0.0202628,16884,-0.511356,0.0956562,-0.0880569,-0.0202628,16205,0.258144,0.0264168,-0.0472608,0.00607893
16292,-3.21252e-12,0,-1.56203e-06,-3.27827e-12,0,-3.40904e-12,-1.06642e-13,0,0,-3.54092,0.0920151,0.534072,0,0,0,0,0,-0.451059,0.0920151,248,-77,248,-77,375,-79,246,56,-0.0370413,-0.261799,0,-1.5,3.94113e+12,0,0,0,-0.491254,0.0898987,0,0,0,0,-0.0557548,-0.0263621,17415,-0.488132,0.0913749,-0.0557548,-0.0263621,16278,0.245627,0.0167236,-0.0449493,0.00790805
16314,-3.21252e-12,0,-1.56203e-06,-3.27827e-12,0,0,-1.06642e-13,0,0,-3.57292,0.0908359,0.539536,0,0,0,0,0,-0.4949,0.0908359,248,-73,248,-73,371,-76,246,56,-0.0378718,-0.261799,0,-1.5,3.94113e+12,0,0,0,-0.496488,0.0897424,0,0,0,0,-0.0611544,-0.0233326,16896,-0.495938,0.0899524,-0.0611544,-0.0233326,16307,0.248244,0.0183463,-0.0448712,0.00699945
16331,-3.21252e-12,0,-1.56203e-06,-3.27827e-12,0,-3.40904e-12,-1.06642e-13,0,0,-3.57292,0.0908359,0.539536,0,0,0,0,0,-0.4949,0.0908359,248,-73,248,-73,371,-76,246,56,-0.0376734,-0.261799,0,-1.5,3.94113e+12,0,0,0,-0.497528,0.0893458,0,0,0,0,-0.0611544,-0.0233326,16896,-0.495938,0.0899524,-0.0611544,-0.0233326,16307,0.248764,0.0183463,-0.0446729,0.00699945
16358,-3.21252e-12,0,-1.56203e-06,-3.27827e-12,0,0,-1.06643e-13,0,0,-3.54955,0.0926613,0.520852,0,0,0,0,0,-0.462877,0.0926612,248,-73,248,-73,371,-76,245,58,-0.0381967,-0.261799,0,-1.5,3.94113e+12,0,0,0,-0.498438,0.0896078,0,0,0,0,-0.0613804,-0.0220259,17286,-0.496842,0.0901804,-0.0613804,-0.0220259,16344,0.249219,0.0184134,-0.0448039,0.00660717
16380,-3.21252e-12,0,-1.56203e-06,-3.27827e-12,0,-3.40904e-12,-1.06643e-13,0,0,-3.57292,0.0908359,0.539536,0,0,0,0,0,-0.4949,0.0908359,248,-73,248,-73,371,-76,246,56,-0.0387931,-0.261799,0,-1.5,3.94113e+12,0,0,0,-0.49525,0.0906106,0,0,0,0,-0.0559677,-0.0217115,16896,-0.494691,0.0908277,-0.0559677,-0.0217115,16372,0.247625,0.0167906,-0.0453053,0.00651218
16397,-3.21252e-12,0,-1.56203e-06,-3.27827e-12,0,0,-1.06643e-13,0,0,-3.57292,0.0908359,0.539536,0,0,0,0,0,-0.4949,0.0908359,248,-73,248,-73,371,-76,246,56,-0.0386183,-0.261799,0,-1.5,3.94113e+12,0,0,0,-0.496146,0.0902632,0,0,0,0,-0.0559677,-0.0217115,16896,-0.494691,0.0908277,-0.0559677,-0.0217115,16372,0.248073,0.0167906,-0.0451316,0.0065133
16423,-3.21252e-12,0,-1.56203e-06,-3.27827e-12,0,-3.40904e-12,-1.06643e-13,0,0,-3.53493,0.0973832,0.521722,0,0,0,0,0,-0.442856,0.0973832,248,-73,248,-73,375,-81,245,58,-0.0381815,-0.261799,0,-1.5,3.94113e+12,0,0,0,-0.496107,0.0895483,0,0,0,0,-0.0557227,-0.0219761,18070,-0.494603,0.0901417,-0.0557227,-0.0219761,16409,0.248054,0.0167146,-0.0447742,0.00659265
16445,-3.21252e-12,0,-1.56203e-06,-3.27827e-12,0,0,-1.06644e-13,0,0,-3.48177,0.108389,0.493354,0,0,0,0,0,-0.370024,0.108389,242,-75,242,-75,375,-81,245,58,-0.064603,-0.0833859,0,-1.5,3.94113e+12,0,0,0,-0.493135,0.0896798,0,0,0,0,-0.0496056,-0.0224041,18487,-0.492788,0.0898367,-0.0496056,-0.0224041,16440,0.246568,-0.163182,-0.0448399,-0.0197631
16462,-3.21252e-12,0,-1.56203e-06,-3.27827e-12,0,-3.40904e-12,-1.06644e-13,0,0,-3.48177,0.108389,0.493354,0,0,0,0,0,-0.370024,0.108389,242,-75,242,-75,375,-81,245,58,-0.0379294,-0.261799,0,-1.5,3.94113e+12,0,0,0,-0.493979,0.089299,0,0,0,0,-0.0496056,-0.0224041,18487,-0.492788,0.0898367,-0.0496056,-0.0224041,16440,0.246989,0.0148773,-0.0446495,0.00672005
16489,-3.21252e-12,0,-1.56203e-06,-3.27827e-12,0,0,-1.06644e-13,0,0,-3.56097,0.125351,0.533428,0,0,0,0,0,-0.478532,0.125351,242,-75,242,-75,368,-77,245,58,-0.0362442,-0.25543,0,-1.5,3.94113e+12,0,0,0,-0.486399,0.0877189,0,0,0,0,-0.0407656,-0.0253841,17010,-0.485298,0.0884043,-0.0407656,-0.0253841,16475,0.2432,0.0122309,-0.0438595,0.00761524
16503,-3.21252e-12,0,-1.56203e-06,-3.27827e-12,0,-3.40904e-12,-1.06644e-13,0,0,-3.56097,0.125351,0.533428,0,0,0,0,0,-0.478532,0.125351,242,-75,242,-75,368,-77,245,58,-0.0360677,-0.255711,0,-1.5,3.94113e+12,0,0,0,-0.48697,0.0873636,0,0,0,0,-0.0407656,-0.0253841,17010,-0.485298,0.0884043,-0.0407656,-0.0253841,16475,0.243485,0.0122264,-0.0436818,0.00761412
16539,-3.21252e-12,0,-1.56203e-06,-3.27827e-12,0,0,-1.06645e-13,0,0,-3.57406,0.108771,0.545993,0,0,0,0,0,-0.496463,0.108771,245,-73,245,-73,371,-79,246,56,-0.0361643,-0.261518,0,-1.5,3.94113e+12,0,0,0,-0.49533,0.0871657,0,0,0,0,-0.0461809,-0.0247323,17010,-0.493713,0.0880313,-0.0461809,-0.0247323,16524,0.247665,0.0138536,-0.0435829,0.00741854
16561,-3.21252e-12,0,-1.56203e-06,-3.27827e-12,0,-3.40904e-12,-1.06645e-13,0,0,-3.63738,0.0927813,0.57564,0,0,0,0,0,-0.583211,0.0927813,248,-70,248,-70,371,-79,250,54,-0.0366916,-0.258872,0,-1.5,3.94113e+12,0,0,0,-0.493595,0.0879208,0,0,0,0,-0.0402568,-0.0242332,16359,-0.49267,0.0884782,-0.0402568,-0.0242332,16547,0.246798,0.0120744,-0.0439604,0.00726879
16615,-3.21252e-12,0,-1.56203e-06,-3.27827e-12,0,0,-1.06645e-13,0,0,-3.60444,0.114097,0.542484,0,0,0,0,0,-0.538076,0.114097,246,-70,246,-70,368,-77,246,58,-0.0369729,-0.256082,0,-1.5,3.94113e+12,0,0,0,-0.495829,0.0872429,0,0,0,0,-0.0272153,-0.0221663,16605,-0.495584,0.0874424,-0.0272153,-0.0221663,16608,0.247914,0.00816733,-0.0436215,0.00664853
16669,-3.21252e-12,0,-1.56203e-06,-3.27827e-12,0,-3.40904e-12,-1.06645e-13,0,0,-3.54598,0.120805,0.508534,0,0,0,0,0,-0.457994,0.120805,243,-72,243,-72,367,-79,246,59,-0.0414048,-0.255484,0,-1.5,3.94113e+12,0,0,0,-0.496475,0.091395,0,0,0,0,-0.0241508,-0.0143104,17388,-0.49517,0.0921677,-0.0241508,-0.0143104,16655,0.248237,0.00724643,-0.0456975,0.00429265
