timestamp,A_x,A_y,A_z,P,Q,R,Phi,Theta,Psi,poseX,poseY,poseZ,state_X,state_Y,state_Z,state_VzB,state_Bx,state_By,state_Bz,p1_x,p1_y,p2_x,p2_y,p3_x,p3_y,p4_x,p4_y,roll,pitch,yaw,alt,targetHeading,highLevelState,lowLevelState,gateNumber,filtered_x,filtered_y,x_OT,y_OT,vx_OT,vy_OT,filtered_vx,filtered_vygateArearansac_corr_x,ransac_corr_y,ransac_corr_vx,ransac_corr_vy,detectionTimeStamppTermX,dTermX,pTermY,dTermY,vxcmd,vycmd
8149,0,0,0,0,0,0,0,0,0,0,0,0,0,0,0,0,0,0,0,0,0,0,0,0,0,0,0,0.4,-0.08,0,-1.5,3.94113e+12,0,0,0,0,0,0,0,0,0,0,0,1.9603e-19,0,0,0,0,0,0,0,0,0,0.2,1
9122,-3.11491e-12,1.9988e-38,-1.51267e-06,-3.18057e-12,1.99868e-38,0,-1.06589e-13,0,0,0,0,0,0,0,0,0,0,0,0,0,0,0,0,0,0,0,0,0.4,-0.08,0,-1.5,3.94113e+12,0,0,0,0,0,0,0,0,0,0,0,1.9603e-19,0,0,0,0,0,0,0,0,0,0.2,1
9164,-3.11491e-12,1.9988e-38,-1.51267e-06,-3.18057e-12,1.99868e-38,0,-1.0659e-13,0,0,0,0,0,0,0,0,0,0,0,0,0,0,0,0,0,0,0,0,0.4,-0.08,0,-1.5,3.94113e+12,0,0,0,0,0,0,0,0,0,0,0,1.9603e-19,0,0,0,0,0,0,0,0,0,0.2,1
9400,-3.11491e-12,1.9988e-38,-1.51267e-06,-3.18057e-12,1.99868e-38,0,-1.0659e-13,0,0,0,0,0,0,0,0,0,0,0,0,0,0,0,0,0,0,0,0,0.4,-0.08,0,-1.5,3.94113e+12,0,0,0,0,0,0,0,0,0,0,0,1.9603e-19,0,0,0,0,0,0,0,0,0,0.2,1
9493,-3.11491e-12,1.9988e-38,-1.51267e-06,-3.18057e-12,1.99868e-38,0,-1.0659e-13,0,0,0,0,0,0,0,0,0,0,0,0,0,0,0,0,0,0,0,0,0.4,-0.08,0,-1.5,3.94113e+12,0,0,0,0,0,0,0,0,0,0,0,1.9603e-19,0,0,0,0,0,0,0,0,0,0.2,1
9658,-3.11491e-12,1.9988e-38,-1.51267e-06,-3.18057e-12,1.99868e-38,0,-1.0659e-13,0,0,0,0,0,0,0,0,0,0,0,0,0,0,0,0,0,0,0,0,0.4,-0.08,0,-1.5,3.94113e+12,0,0,0,0,0,0,0,0,0,0,0,1.9603e-19,0,0,0,0,0,0,0,0,0,0.2,1
9763,-3.11491e-12,1.9988e-38,-1.51267e-06,-3.18057e-12,1.99868e-38,0,-1.06591e-13,0,0,0,0,0,0,0,0,0,0,0,0,0,0,0,0,0,0,0,0,0.4,-0.08,0,-1.5,3.94113e+12,0,0,0,0,0,0,0,0,0,0,0,1.9603e-19,0,0,0,0,0,0,0,0,0,0.2,1
9870,-3.11491e-12,1.9988e-38,-1.51267e-06,-3.18057e-12,1.99868e-38,0,-1.06591e-13,0,0,0,0,0,0,0,0,0,0,0,0,0,0,0,0,0,0,0,0,0.4,-0.08,0,-1.5,3.94113e+12,0,0,0,0,0,0,0,0,0,0,0,1.9603e-19,0,0,0,0,0,0,0,0,0,0.2,1
9936,-3.11491e-12,1.9988e-38,-1.51267e-06,-3.18057e-12,1.99868e-38,0,-1.06591e-13,0,0,0,0,0,0,0,0,0,0,0,0,0,0,0,0,0,0,0,0,0.4,-0.08,0,-1.5,3.94113e+12,0,0,0,0,0,0,0,0,0,0,0,1.9603e-19,0,0,0,0,0,0,0,0,0,0.2,1
9957,-3.11491e-12,1.9988e-38,-1.51267e-06,-3.18057e-12,1.99868e-38,0,-1.06591e-13,0,0,0,0,0,0,0,0,0,0,0,0,0,0,0,0,0,0,0,0,0.4,-0.08,0,-1.5,3.94113e+12,0,0,0,0,0,0,0,0,0,0,0,1.9603e-19,0,0,0,0,0,0,0,0,0,0.2,1
9974,-3.11491e-12,1.9988e-38,-1.51267e-06,-3.18057e-12,1.99868e-38,0,-1.06592e-13,0,0,0,0,0,0,0,0,0,0,0,0,0,0,0,0,0,0,0,0,0.4,-0.08,0,-1.5,3.94113e+12,0,0,0,0,0,0,0,0,0,0,0,1.9603e-19,0,0,0,0,0,0,0,0,0,0.2,1
10080,-3.11491e-12,1.9988e-38,-1.51267e-06,-3.18057e-12,1.99868e-38,0,-1.06592e-13,0,0,0,0,0,0,0,0,0,0,0,0,0,0,0,0,0,0,0,0,0.4,-0.08,0,-1.5,3.94113e+12,0,0,0,0,0,0,0,0,0,0,0,1.9603e-19,0,0,0,0,0,0,0,0,0,0.2,1
10204,-3.11491e-12,1.9988e-38,-1.51267e-06,-3.18057e-12,1.99868e-38,0,-1.06592e-13,0,0,0,0,0,0,0,0,0,0,0,0,0,0,0,0,0,0,0,0,0.4,-0.08,0,-1.5,3.94113e+12,0,0,0,0,0,0,0,0,0,0,0,1.9603e-19,0,0,0,0,0,0,0,0,0,0.2,1
10222,-3.11491e-12,1.9988e-38,-1.51267e-06,-3.18057e-12,1.99868e-38,0,-1.06593e-13,0,0,0,0,0,0,0,0,0,0,0,0,0,0,0,0,0,0,0,0,0.4,-0.08,0,-1.5,3.94113e+12,0,0,0,0,0,0,0,0,0,0,0,1.9603e-19,0,0,0,0,0,0,0,0,0,0.2,1
10330,-3.11491e-12,1.9988e-38,-1.51267e-06,-3.18057e-12,1.99868e-38,0,-1.06593e-13,0,0,0,0,0,0,0,0,0,0,0,0,0,0,0,0,0,0,0,0,0.4,-0.08,0,-1.5,3.94113e+12,0,0,0,0,0,0,0,0,0,0,0,1.9603e-19,0,0,0,0,0,0,0,0,0,0.2,1
10373,-3.11491e-12,1.9988e-38,-1.51267e-06,-3.18057e-12,1.99868e-38,0,-1.06593e-13,0,0,0,0,0,0,0,0,0,0,0,0,0,0,0,0,0,0,0,0,0.4,-0.08,0,-1.5,3.94113e+12,0,0,0,0,0,0,0,0,0,0,0,1.9603e-19,0,0,0,0,0,0,0,0,0,0.2,1
10394,-3.11491e-12,1.9988e-38,-1.51267e-06,-3.18057e-12,1.99868e-38,0,-1.06593e-13,0,0,0,0,0,0,0,0,0,0,0,0,0,0,0,0,0,0,0,0,0.4,-0.08,0,-1.5,3.94113e+12,0,0,0,0,0,0,0,0,0,0,0,1.9603e-19,0,0,0,0,0,0,0,0,0,0.2,1
10412,-3.11491e-12,1.9988e-38,-1.51267e-06,-3.18057e-12,1.99868e-38,0,-1.06594e-13,0,0,0,0,0,0,0,0,0,0,0,0,0,0,0,0,0,0,0,0,0.4,-0.08,0,-1.5,3.94113e+12,0,0,0,0,0,0,0,0,0,0,0,1.9603e-19,0,0,0,0,0,0,0,0,0,0.2,1
10432,-3.11491e-12,1.9988e-38,-1.51267e-06,-3.18057e-12,1.99868e-38,0,-1.06594e-13,0,0,0,0,0,0,0,0,0,0,0,0,0,0,0,0,0,0,0,0,0.4,-0.08,0,-1.5,3.94113e+12,0,0,0,0,0,0,0,0,0,0,0,1.9603e-19,0,0,0,0,0,0,0,0,0,0.2,1
10463,-3.11491e-12,1.9988e-38,-1.51267e-06,-3.18057e-12,1.99868e-38,0,-1.06594e-13,0,0,0,0,0,0,0,0,0,0,0,0,0,0,0,0,0,0,0,0,0.4,-0.08,0,-1.5,3.94113e+12,0,0,0,0,0,0,0,0,0,0,0,1.9603e-19,0,0,0,0,0,0,0,0,0,0.2,1
10483,-3.11491e-12,1.9988e-38,-1.51267e-06,-3.18057e-12,1.99868e-38,0,-1.06594e-13,0,0,0,0,0,0,0,0,0,0,0,0,0,0,0,0,0,0,0,0,0.4,-0.08,0,-1.5,3.94113e+12,0,0,0,0,0,0,0,0,0,0,0,1.9603e-19,0,0,0,0,0,0,0,0,0,0.2,1
10501,-3.11491e-12,1.9988e-38,-1.51267e-06,-3.18057e-12,1.99868e-38,0,-1.06595e-13,0,0,0,0,0,0,0,0,0,0,0,0,0,0,0,0,0,0,0,0,0.4,-0.08,0,-1.5,3.94113e+12,0,0,0,0,0,0,0,0,0,0,0,1.9603e-19,0,0,0,0,0,0,0,0,0,0.2,1
10536,-3.11491e-12,1.9988e-38,-1.51267e-06,-3.18057e-12,1.99868e-38,0,-1.06595e-13,0,0,0,0,0,0,0,0,0,0,0,0,0,0,0,0,0,0,0,0,0.4,-0.08,0,-1.5,3.94113e+12,0,0,0,0,0,0,0,0,0,0,0,1.9603e-19,0,0,0,0,0,0,0,0,0,0.2,1
10560,-3.11491e-12,1.9988e-38,-1.51267e-06,-3.18057e-12,1.99868e-38,0,-1.06595e-13,0,0,0,0,0,0,0,0,0,0,0,0,0,0,0,0,0,0,0,0,0.4,-0.08,0,-1.5,3.94113e+12,0,0,0,0,0,0,0,0,0,0,0,1.9603e-19,0,0,0,0,0,0,0,0,0,0.2,1
10578,-3.11491e-12,1.9988e-38,-1.51267e-06,-3.18057e-12,1.99868e-38,0,-1.06596e-13,0,0,0,0,0,0,0,0,0,0,0,0,0,0,0,0,0,0,0,0,0.4,-0.08,0,-1.5,3.94113e+12,0,0,0,0,0,0,0,0,0,0,0,1.9603e-19,0,0,0,0,0,0,0,0,0,0.2,1
10627,-3.11491e-12,1.9988e-38,-1.51267e-06,-3.18057e-12,1.99868e-38,0,-1.06596e-13,0,0,0,0,0,0,0,0,0,0,0,0,0,0,0,0,0,0,0,0,0.4,-0.08,0,-1.5,3.94113e+12,0,0,0,0,0,0,0,0,0,0,0,1.9603e-19,0,0,0,0,0,0,0,0,0,0.2,1
10648,-3.11491e-12,1.9988e-38,-1.51267e-06,-3.18057e-12,1.99868e-38,0,-1.06596e-13,0,0,0,0,0,0,0,0,0,0,0,0,0,0,0,0,0,0,0,0,0.4,-0.08,0,-1.5,3.94113e+12,0,0,0,0,0,0,0,0,0,0,0,1.9603e-19,0,0,0,0,0,0,0,0,0,0.2,1
10668,-3.11491e-12,1.9988e-38,-1.51267e-06,-3.18057e-12,1.99868e-38,0,-1.06596e-13,0,0,0,0,0,0,0,0,0,0,0,0,0,0,0,0,0,0,0,0,0.4,-0.08,0,-1.5,3.94113e+12,0,0,0,0,0,0,0,0,0,0,0,1.9603e-19,0,0,0,0,0,0,0,0,0,0.2,1
10690,-3.11491e-12,1.9988e-38,-1.51267e-06,-3.18057e-12,1.99868e-38,0,-1.06597e-13,0,0,0,0,0,0,0,0,0,0,0,0,0,0,0,0,0,0,0,0,0.4,-0.08,0,-1.5,3.94113e+12,0,0,0,0,0,0,0,0,0,0,0,1.9603e-19,0,0,0,0,0,0,0,0,0,0.2,1
10706,-3.11491e-12,1.9988e-38,-1.51267e-06,-3.18057e-12,1.99868e-38,0,-1.06597e-13,0,0,0,0,0,0,0,0,0,0,0,0,0,0,0,0,0,0,0,0,0.4,-0.08,0,-1.5,3.94113e+12,0,0,0,0,0,0,0,0,0,0,0,1.9603e-19,0,0,0,0,0,0,0,0,0,0.2,1
10727,-3.11491e-12,1.9988e-38,-1.51267e-06,-3.18057e-12,1.99868e-38,0,-1.06597e-13,0,0,0,0,0,0,0,0,0,0,0,0,0,0,0,0,0,0,0,0,0.4,-0.08,0,-1.5,3.94113e+12,0,0,0,0,0,0,0,0,0,0,0,1.9603e-19,0,0,0,0,0,0,0,0,0,0.2,1
10749,-3.11491e-12,1.9988e-38,-1.51267e-06,-3.18057e-12,1.99868e-38,0,-1.06597e-13,0,0,0,0,0,0,0,0,0,0,0,0,0,0,0,0,0,0,0,0,0.4,-0.08,0,-1.5,3.94113e+12,0,0,0,0,0,0,0,0,0,0,0,1.9603e-19,0,0,0,0,0,0,0,0,0,0.2,1
10796,-3.11491e-12,1.9988e-38,-1.51267e-06,-3.18057e-12,1.99868e-38,0,-1.06598e-13,0,0,0,0,0,0,0,0,0,0,0,0,0,0,0,0,0,0,0,0,0.4,-0.08,0,-1.5,3.94113e+12,0,0,0,0,0,0,0,0,0,0,0,1.9603e-19,0,0,0,0,0,0,0,0,0,0.2,1
10818,-3.11491e-12,1.9988e-38,-1.51267e-06,-3.18057e-12,1.99868e-38,0,-1.06598e-13,0,0,0,0,0,0,0,0,0,0,0,0,0,0,0,0,0,0,0,0,0.4,-0.08,0,-1.5,3.94113e+12,0,0,0,0,0,0,0,0,0,0,0,1.9603e-19,0,0,0,0,0,0,0,0,0,0.2,1
10837,-3.11491e-12,1.9988e-38,-1.51267e-06,-3.18057e-12,1.99868e-38,0,-1.06598e-13,0,0,0,0,0,0,0,0,0,0,0,0,0,0,0,0,0,0,0,0,0.4,-0.08,0,-1.5,3.94113e+12,0,0,0,0,0,0,0,0,0,0,0,1.9603e-19,0,0,0,0,0,0,0,0,0,0.2,1
10855,-3.11491e-12,1.9988e-38,-1.51267e-06,-3.18057e-12,1.99868e-38,0,-1.06599e-13,0,0,0,0,0,0,0,0,0,0,0,0,0,0,0,0,0,0,0,0,0.4,-0.08,0,-1.5,3.94113e+12,0,0,0,0,0,0,0,0,0,0,0,1.9603e-19,0,0,0,0,0,0,0,0,0,0.2,1
10948,-3.11491e-12,1.9988e-38,-1.51267e-06,-3.18057e-12,1.99868e-38,0,-1.06599e-13,0,0,0,0,0,0,0,0,0,0,0,0,0,0,0,0,0,0,0,0,0.4,-0.08,0,-1.5,3.94113e+12,0,0,0,0,0,0,0,0,0,0,0,1.9603e-19,0,0,0,0,0,0,0,0,0,0.2,1
10965,-3.11491e-12,1.9988e-38,-1.51267e-06,-3.18057e-12,1.99868e-38,0,-1.06599e-13,0,0,0,0,0,0,0,0,0,0,0,0,0,0,0,0,0,0,0,0,0.4,-0.08,0,-1.5,3.94113e+12,0,0,0,0,0,0,0,0,0,0,0,1.9603e-19,0,0,0,0,0,0,0,0,0,0.2,1
10987,-3.11491e-12,1.9988e-38,-1.51267e-06,-3.18057e-12,1.99868e-38,0,-1.06599e-13,0,0,0,0,0,0,0,0,0,0,0,0,0,0,0,0,0,0,0,0,0.4,-0.08,0,-1.5,3.94113e+12,0,0,0,0,0,0,0,0,0,0,0,1.9603e-19,0,0,0,0,0,0,0,0,0,0.2,1
11001,-3.11491e-12,1.9988e-38,-1.51267e-06,-3.18057e-12,1.99868e-38,0,-1.066e-13,0,0,0,0,0,0,0,0,0,0,0,0,0,0,0,0,0,0,0,0,0.4,-0.08,0,-1.5,3.94113e+12,0,0,0,0,0,0,0,0,0,0,0,1.9603e-19,0,0,0,0,0,0,0,0,0,0.2,1
11022,-3.11491e-12,1.9988e-38,-1.51267e-06,-3.18057e-12,1.99868e-38,0,-1.066e-13,0,0,0,0,0,0,0,0,0,0,0,0,0,0,0,0,0,0,0,0,0.4,-0.08,0,-1.5,3.94113e+12,0,0,0,0,0,0,0,0,0,0,0,1.9603e-19,0,0,0,0,0,0,0,0,0,0.2,1
11056,-3.11491e-12,1.9988e-38,-1.51267e-06,-3.18057e-12,1.99868e-38,0,-1.066e-13,0,0,0,0,0,0,0,0,0,0,0,0,0,0,0,0,0,0,0,0,0.4,-0.08,0,-1.5,3.94113e+12,0,0,0,0,0,0,0,0,0,0,0,1.9603e-19,0,0,0,0,0,0,0,0,0,0.2,1
11074,-3.11491e-12,1.9988e-38,-1.51267e-06,-3.18057e-12,1.99868e-38,0,-1.066e-13,0,0,0,0,0,0,0,0,0,0,0,0,0,0,0,0,0,0,0,0,0.4,-0.08,0,-1.5,3.94113e+12,0,0,0,0,0,0,0,0,0,0,0,1.9603e-19,0,0,0,0,0,0,0,0,0,0.2,1
11095,-3.11491e-12,1.9988e-38,-1.51267e-06,-3.18057e-12,1.99868e-38,0,-1.06601e-13,0,0,0,0,0,0,0,0,0,0,0,0,0,0,0,0,0,0,0,0,0.4,-0.08,0,-1.5,3.94113e+12,0,0,0,0,0,0,0,0,0,0,0,1.9603e-19,0,0,0,0,0,0,0,0,0,0.2,1
11112,-3.11491e-12,1.9988e-38,-1.51267e-06,-3.18057e-12,1.99868e-38,0,-1.06601e-13,0,0,0,0,0,0,0,0,0,0,0,0,0,0,0,0,0,0,0,0,0.4,-0.08,0,-1.5,3.94113e+12,0,0,0,0,0,0,0,0,0,0,0,1.9603e-19,0,0,0,0,0,0,0,0,0,0.2,1
11136,-3.11491e-12,1.9988e-38,-1.51267e-06,-3.18057e-12,1.99868e-38,0,-1.06601e-13,0,0,0,0,0,0,0,0,0,0,0,0,0,0,0,0,0,0,0,0,0.4,-0.08,0,-1.5,3.94113e+12,0,0,0,0,0,0,0,0,0,0,0,1.9603e-19,0,0,0,0,0,0,0,0,0,0.2,1
11153,-3.11491e-12,1.9988e-38,-1.51267e-06,-3.18057e-12,1.99868e-38,0,-1.06602e-13,0,0,0,0,0,0,0,0,0,0,0,0,0,0,0,0,0,0,0,0,0.4,-0.08,0,-1.5,3.94113e+12,0,0,0,0,0,0,0,0,0,0,0,1.9603e-19,0,0,0,0,0,0,0,0,0,0.2,1
11170,-3.11491e-12,1.9988e-38,-1.51267e-06,-3.18057e-12,1.99868e-38,0,-1.06602e-13,0,0,0,0,0,0,0,0,0,0,0,0,0,0,0,0,0,0,0,0,0.4,-0.08,0,-1.5,3.94113e+12,0,0,0,0,0,0,0,0,0,0,0,1.9603e-19,0,0,0,0,0,0,0,0,0,0.2,1
11192,-3.11491e-12,1.9988e-38,-1.51267e-06,-3.18057e-12,1.99868e-38,0,-1.06602e-13,0,0,0,0,0,0,0,0,0,0,0,0,0,0,0,0,0,0,0,0,0.4,-0.08,0,-1.5,3.94113e+12,0,0,0,0,0,0,0,0,0,0,0,1.9603e-19,0,0,0,0,0,0,0,0,0,0.2,1
11211,-3.11491e-12,1.9988e-38,-1.51267e-06,-3.18057e-12,1.99868e-38,0,-1.06602e-13,0,0,0,0,0,0,0,0,0,0,0,0,0,0,0,0,0,0,0,0,0.4,-0.08,0,-1.5,3.94113e+12,0,0,0,0,0,0,0,0,0,0,0,1.9603e-19,0,0,0,0,0,0,0,0,0,0.2,1
11232,-3.11491e-12,1.9988e-38,-1.51267e-06,-3.18057e-12,1.99868e-38,0,-1.06603e-13,0,0,0,0,0,0,0,0,0,0,0,0,0,0,0,0,0,0,0,0,0.4,-0.08,0,-1.5,3.94113e+12,0,0,0,0,0,0,0,0,0,0,0,1.9603e-19,0,0,0,0,0,0,0,0,0,0.2,1
11249,-3.11491e-12,1.9988e-38,-1.51267e-06,-3.18057e-12,1.99868e-38,0,-1.06603e-13,0,0,0,0,0,0,0,0,0,0,0,0,0,0,0,0,0,0,0,0,0.4,-0.08,0,-1.5,3.94113e+12,0,0,0,0,0,0,0,0,0,0,0,1.9603e-19,0,0,0,0,0,0,0,0,0,0.2,1
11269,-3.11491e-12,1.9988e-38,-1.51267e-06,-3.18057e-12,1.99868e-38,0,-1.06603e-13,0,0,0,0,0,0,0,0,0,0,0,0,0,0,0,0,0,0,0,0,0.4,-0.08,0,-1.5,3.94113e+12,0,0,0,0,0,0,0,0,0,0,0,1.9603e-19,0,0,0,0,0,0,0,0,0,0.2,1
11290,-3.11491e-12,1.9988e-38,-1.51267e-06,-3.18057e-12,1.99868e-38,0,-1.06603e-13,0,0,0,0,0,0,0,0,0,0,0,0,0,0,0,0,0,0,0,0,0.4,-0.08,0,-1.5,3.94113e+12,0,0,0,0,0,0,0,0,0,0,0,1.9603e-19,0,0,0,0,0,0,0,0,0,0.2,1
11307,-3.11491e-12,1.9988e-38,-1.51267e-06,-3.18057e-12,1.99868e-38,0,-1.06604e-13,0,0,0,0,0,0,0,0,0,0,0,0,0,0,0,0,0,0,0,0,0.4,-0.08,0,-1.5,3.94113e+12,0,0,0,0,0,0,0,0,0,0,0,1.9603e-19,0,0,0,0,0,0,0,0,0,0.2,1
11328,-3.11491e-12,1.9988e-38,-1.51267e-06,-3.18057e-12,1.99868e-38,0,-1.06604e-13,0,0,0,0,0,0,0,0,0,0,0,0,0,0,0,0,0,0,0,0,0.4,-0.08,0,-1.5,3.94113e+12,0,0,0,0,0,0,0,0,0,0,0,1.9603e-19,0,0,0,0,0,0,0,0,0,0.2,1
11348,-3.11491e-12,1.9988e-38,-1.51267e-06,-3.18057e-12,1.99868e-38,0,-1.06604e-13,0,0,0,0,0,0,0,0,0,0,0,0,0,0,0,0,0,0,0,0,0.4,-0.08,0,-1.5,3.94113e+12,0,0,0,0,0,0,0,0,0,0,0,1.9603e-19,0,0,0,0,0,0,0,0,0,0.2,1
11365,-3.11491e-12,1.9988e-38,-1.51267e-06,-3.18057e-12,1.99868e-38,0,-1.06605e-13,0,0,0,0,0,0,0,0,0,0,0,0,0,0,0,0,0,0,0,0,0.4,-0.08,0,-1.5,3.94113e+12,0,0,0,0,0,0,0,0,0,0,0,1.9603e-19,0,0,0,0,0,0,0,0,0,0.2,1
11404,-3.11491e-12,1.9988e-38,-1.51267e-06,-3.18057e-12,1.99868e-38,0,-1.06605e-13,0,0,0,0,0,0,0,0,0,0,0,0,0,0,0,0,0,0,0,0,0.4,-0.08,0,-1.5,3.94113e+12,0,0,0,0,0,0,0,0,0,0,0,1.9603e-19,0,0,0,0,0,0,0,0,0,0.2,1
11420,-3.11491e-12,1.9988e-38,-1.51267e-06,-3.18057e-12,1.99868e-38,0,-1.06605e-13,0,0,0,0,0,0,0,0,0,0,0,0,0,0,0,0,0,0,0,0,0.4,-0.08,0,-1.5,3.94113e+12,0,0,0,0,0,0,0,0,0,0,0,1.9603e-19,0,0,0,0,0,0,0,0,0,0.2,1
11455,-3.11491e-12,1.9988e-38,-1.51267e-06,-3.18057e-12,1.99868e-38,0,-1.06605e-13,0,0,0,0,0,0,0,0,0,0,0,0,0,0,0,0,0,0,0,0,0.4,-0.08,0,-1.5,3.94113e+12,0,0,0,0,0,0,0,0,0,0,0,1.9603e-19,0,0,0,0,0,0,0,0,0,0.2,1
11471,-3.11491e-12,1.9988e-38,-1.51267e-06,-3.18057e-12,1.99868e-38,0,-1.06606e-13,0,0,0,0,0,0,0,0,0,0,0,0,0,0,0,0,0,0,0,0,0.4,-0.08,0,-1.5,3.94113e+12,0,0,0,0,0,0,0,0,0,0,0,1.9603e-19,0,0,0,0,0,0,0,0,0,0.2,1
11489,-3.11491e-12,1.9988e-38,-1.51267e-06,-3.18057e-12,1.99868e-38,0,-1.06606e-13,0,0,0,0,0,0,0,0,0,0,0,0,0,0,0,0,0,0,0,0,0.4,-0.08,0,-1.5,3.94113e+12,0,0,0,0,0,0,0,0,0,0,0,1.9603e-19,0,0,0,0,0,0,0,0,0,0.2,1
11513,-3.11491e-12,1.9988e-38,-1.51267e-06,-3.18057e-12,1.99868e-38,0,-1.06606e-13,0,0,0,0,0,0,0,0,0,0,0,0,0,0,0,0,0,0,0,0,0.4,-0.08,0,-1.5,3.94113e+12,0,0,0,0,0,0,0,0,0,0,0,1.9603e-19,0,0,0,0,0,0,0,0,0,0.2,1
11530,-3.11491e-12,1.9988e-38,-1.51267e-06,-3.18057e-12,1.99868e-38,0,-1.06606e-13,0,0,0,0,0,0,0,0,0,0,0,0,0,0,0,0,0,0,0,0,0.4,-0.08,0,-1.5,3.94113e+12,0,0,0,0,0,0,0,0,0,0,0,1.9603e-19,0,0,0,0,0,0,0,0,0,0.2,1
11551,-3.11491e-12,1.9988e-38,-1.51267e-06,-3.18057e-12,1.99868e-38,0,-1.06607e-13,0,0,0,0,0,0,0,0,0,0,0,0,0,0,0,0,0,0,0,0,0.4,-0.08,0,-1.5,3.94113e+12,0,0,0,0,0,0,0,0,0,0,0,1.9603e-19,0,0,0,0,0,0,0,0,0,0.2,1
11568,-3.11491e-12,1.9988e-38,-1.51267e-06,-3.18057e-12,1.99868e-38,0,-1.06607e-13,0,0,0,0,0,0,0,0,0,0,0,0,0,0,0,0,0,0,0,0,0.4,-0.08,0,-1.5,3.94113e+12,0,0,0,0,0,0,0,0,0,0,0,1.9603e-19,0,0,0,0,0,0,0,0,0,0.2,1
11611,-3.11491e-12,1.9988e-38,-1.51267e-06,-3.18057e-12,1.99868e-38,0,-1.06607e-13,0,0,0,0,0,0,0,0,0,0,4.4,0,-1368084064,621224803,-1368084064,621224803,478086381,-1368084064,-1368084016,-1368084016,0.4,-0.08,0,-1.5,3.94113e+12,0,0,0,0,0,0,0,0,0,0,0,0,0,0,0,0,11602,0,0,0,0,0.2,1
11628,-3.11491e-12,1.9988e-38,-1.51267e-06,-3.18057e-12,1.99868e-38,0,-1.06607e-13,0,0,0,0,0,0,0,0,0,0,4.4,0,-1368084064,621224803,-1368084064,621224803,478086381,-1368084064,-1368084016,-1368084016,0.4,-0.08,0,-1.5,3.94113e+12,0,0,0,0,0,0,0,0,0,0,0,0,0,0,0,0,11602,0,0,0,0,0.2,1
11680,-3.11491e-12,1.9988e-38,-1.51267e-06,-3.18057e-12,1.99868e-38,0,-1.06608e-13,0,0,0,0,0,0,0,0,0,0,4.4,0,-1368084064,621224803,-1368084064,621224803,478086381,-1368084064,-1368084016,-1368084016,0.4,-0.08,0,-1.5,3.94113e+12,0,0,0,0,0,0,0,0,0,0,0,0,0,0,0,0,11602,0,0,0,0,0.2,1
11697,-3.11491e-12,1.9988e-38,-1.51267e-06,-3.18057e-12,1.99868e-38,0,-1.06608e-13,0,0,0,0,0,0,0,0,0,0,4.4,0,-1368084064,621224803,-1368084064,621224803,478086381,-1368084064,-1368084016,-1368084016,0.4,-0.08,0,-1.5,3.94113e+12,0,0,0,0,0,0,0,0,0,0,0,0,0,0,0,0,11602,0,0,0,0,0.2,1
11721,-3.11491e-12,1.9988e-38,-1.51267e-06,-3.18057e-12,1.99868e-38,0,-1.06608e-13,0,0,0,0,0,0,0,0,0,0,4.4,0,-1368084064,621224803,-1368084064,621224803,478086381,-1368084064,-1368084016,-1368084016,0.4,-0.08,0,-1.5,3.94113e+12,0,0,0,0,0,0,0,0,0,0,0,0,0,0,0,0,11602,0,0,0,0,0.2,1
11738,-3.11491e-12,1.9988e-38,-1.51267e-06,-3.18057e-12,1.99868e-38,0,-1.06609e-13,0,0,0,0,0,0,0,0,0,0,4.4,0,-1368084064,621224803,-1368084064,621224803,478086381,-1368084064,-1368084016,-1368084016,0.4,-0.08,0,-1.5,3.94113e+12,0,0,0,0,0,0,0,0,0,0,0,0,0,0,0,0,11602,0,0,0,0,0.2,1
11760,-3.11491e-12,1.9988e-38,-1.51267e-06,-3.18057e-12,1.99868e-38,0,-1.06609e-13,0,0,0,0,0,0,0,0,0,0,4.4,0,-1368084064,621224803,-1368084064,621224803,478086381,-1368084064,-1368084016,-1368084016,0.4,-0.08,0,-1.5,3.94113e+12,0,0,0,0,0,0,0,0,0,0,0,0,0,0,0,0,11602,0,0,0,0,0.2,1
11777,-3.11491e-12,1.9988e-38,-1.51267e-06,-3.18057e-12,1.99868e-38,0,-1.06609e-13,0,0,0,0,0,0,0,0,0,0,4.4,0,-1368084064,621224803,-1368084064,621224803,478086381,-1368084064,-1368084016,-1368084016,0.4,-0.08,0,-1.5,3.94113e+12,0,0,0,0,0,0,0,0,0,0,0,0,0,0,0,0,11602,0,0,0,0,0.2,1
11819,-3.11491e-12,1.9988e-38,-1.51267e-06,-3.18057e-12,1.99868e-38,0,-1.06609e-13,0,0,0,0,0,0,0,0,0,0,4.4,0,-1368084064,621224803,-1368084064,621224803,478086381,-1368084064,-1368084016,-1368084016,0.4,-0.08,0,-1.5,3.94113e+12,0,0,0,0,0,0,0,0,0,0,0,0,0,0,0,0,11602,0,0,0,0,0.2,1
11833,-3.11491e-12,1.9988e-38,-1.51267e-06,-3.18057e-12,1.99868e-38,0,-1.0661e-13,0,0,0,0,0,0,0,0,0,0,4.4,0,-1368084064,621224803,-1368084064,621224803,478086381,-1368084064,-1368084016,-1368084016,0.4,-0.08,0,-1.5,3.94113e+12,0,0,0,0,0,0,0,0,0,0,0,0,0,0,0,0,11602,0,0,0,0,0.2,1
11871,-3.11491e-12,1.9988e-38,-1.51267e-06,-3.18057e-12,1.99868e-38,0,-1.0661e-13,0,0,0,0,0,0,0,0,0,0,4.4,0,-1368084064,621224803,-1368084064,621224803,478086381,-1368084064,-1368084016,-1368084016,0.4,-0.08,0,-1.5,3.94113e+12,0,0,0,0,0,0,0,0,0,0,0,0,0,0,0,0,11602,0,0,0,0,0.2,1
11891,-3.11491e-12,1.9988e-38,-1.51267e-06,-3.18057e-12,1.99868e-38,0,-1.0661e-13,0,0,0,0,0,0,0,0,0,0,4.4,0,-1368084064,621224803,-1368084064,621224803,478086381,-1368084064,-1368084016,-1368084016,0.4,-0.08,0,-1.5,3.94113e+12,0,0,0,0,0,0,0,0,0,0,0,0,0,0,0,0,11602,0,0,0,0,0.2,1
11908,-3.11491e-12,1.9988e-38,-1.51267e-06,-3.18057e-12,1.99868e-38,0,-1.0661e-13,0,0,0,0,0,0,0,0,0,0,4.4,0,-1368084064,621224803,-1368084064,621224803,478086381,-1368084064,-1368084016,-1368084016,0.4,-0.08,0,-1.5,3.94113e+12,0,0,0,0,0,0,0,0,0,0,0,0,0,0,0,0,11602,0,0,0,0,0.2,1
11930,-3.11491e-12,1.9988e-38,-1.51267e-06,-3.18057e-12,1.99868e-38,0,-1.06611e-13,0,0,0,0,0,0,0,0,0,0,4.4,0,-1368084064,621224803,-1368084064,621224803,478086381,-1368084064,-1368084016,-1368084016,0.4,-0.08,0,-1.5,3.94113e+12,0,0,0,0,0,0,0,0,0,0,0,0,0,0,0,0,11602,0,0,0,0,0.2,1
11946,-3.11491e-12,1.9988e-38,-1.51267e-06,-3.18057e-12,1.99868e-38,0,-1.06611e-13,0,0,0,0,0,0,0,0,0,0,4.4,0,-1368084064,621224803,-1368084064,621224803,478086381,-1368084064,-1368084016,-1368084016,0.4,-0.08,0,-1.5,3.94113e+12,0,0,0,0,0,0,0,0,0,0,0,0,0,0,0,0,11602,0,0,0,0,0.2,1
11971,-3.11491e-12,1.9988e-38,-1.51267e-06,-3.18057e-12,1.99868e-38,0,-1.06611e-13,0,0,0,0,0,0,0,0,0,0,4.4,0,-1368084064,621224803,-1368084064,621224803,478086381,-1368084064,-1368084016,-1368084016,0.4,-0.08,0,-1.5,3.94113e+12,0,0,0,0,0,0,0,0,0,0,0,0,0,0,0,0,11602,0,0,0,0,0.2,1
11988,-3.11491e-12,1.9988e-38,-1.51267e-06,-3.18057e-12,1.99868e-38,0,-1.06612e-13,0,0,-3.48283,-0.0358537,0.454441,0,0,0,0,0,-0.371484,-0.0358537,257,-66,257,-66,390,-78,262,58,0.4,-0.08,0,-1.5,3.94113e+12,0,0,0,0,0,0,0,0,0,0,0,18088,0,0,0,0,11988,0,0,0,0,0.2,1
12009,-3.11491e-12,1.9988e-38,-1.51267e-06,-3.18057e-12,1.99868e-38,0,-1.06612e-13,0,0,-3.48283,-0.0358537,0.454441,0,0,0,0,0,-0.371484,-0.0358537,257,-66,257,-66,390,-78,262,58,0.4,-0.08,0,-1.5,3.94113e+12,0,0,0,0,0,0,0,0,0,0,0,18088,0,0,0,0,11988,0,0,0,0,0.2,1
12027,-3.11491e-12,1.9988e-38,-1.51267e-06,-3.18057e-12,1.99868e-38,0,-1.06612e-13,0,0,-3.57897,-0.0366629,0.483704,0,0,0,0,0,-0.503196,-0.0366629,257,-64,257,-64,390,-64,261,57,0.4,-0.08,0,-1.5,3.94113e+12,0,0,0,0,0,0,0,0,0,0,0,16093,0,0,0,0,12020,0,0,0,0,0.2,1
12091,-3.11491e-12,1.9988e-38,-1.51267e-06,-3.18057e-12,1.99868e-38,0,-1.06612e-13,0,0,-3.3481,-0.0400144,0.446577,0,0,0,0,0,-0.186903,-0.0400144,256,-92,256,-92,391,-82,263,55,0.420947,0.0872664,0,-1.5,3.94113e+12,0,0,0,-0.169598,-0.0404857,0,0,0,0,1.92276,-0.0523686,19845,-0.186902,-0.0400144,1.92276,-0.0523686,12084,0,0,0,0,0.2,1
12108,-3.11491e-12,1.9988e-38,-1.51267e-06,-3.18057e-12,1.99868e-38,0,-1.06613e-13,0,0,-3.3481,-0.0400144,0.446577,0,0,0,0,0,-0.186903,-0.0400144,256,-92,256,-92,391,-82,263,55,0.420947,0.0872664,0,-1.5,3.94113e+12,0,0,0,-0.136913,-0.041376,0,0,0,0,1.92276,-0.0523686,19845,-0.186902,-0.0400144,1.92276,-0.0523686,12084,0,0,0,0,0.2,1
12133,-3.11491e-12,1.9988e-38,-1.51267e-06,-3.18057e-12,1.99868e-38,0,-1.06613e-13,0,0,-3.35421,-0.0360881,0.448281,0,0,0,0,0,-0.195266,-0.0360881,256,-92,256,-92,388,-82,263,55,0.400768,0.0872664,0,-1.5,3.94113e+12,0,0,0,-0.159156,-0.0361361,0,0,0,0,1.44444,-0.00192079,19698,-0.195266,-0.0360881,1.44444,-0.00192079,12122,0,0,0,0,0.2,1
12150,-3.11491e-12,1.9988e-38,-1.51267e-06,-3.18057e-12,1.99868e-38,0,-1.06613e-13,0,0,-3.35421,-0.0360881,0.448281,0,0,0,0,0,-0.195266,-0.0360881,256,-92,256,-92,388,-82,263,55,0.400768,0.0872664,0,-1.5,3.94113e+12,0,0,0,-0.134602,-0.0361687,0,0,0,0,1.44444,-0.00192079,19698,-0.195266,-0.0360881,1.44444,-0.00192079,12122,0,0,0,0,0.2,1
12163,-3.11491e-12,1.9988e-38,-1.51267e-06,-3.18057e-12,1.99868e-38,0,-1.06613e-13,0,0,-3.35421,-0.0360881,0.448281,0,0,0,0,0,-0.195266,-0.0360881,256,-92,256,-92,388,-82,263,55,0.400768,0.0872664,0,-1.5,3.94113e+12,0,0,0,-0.115824,-0.0361937,0,0,0,0,1.44444,-0.00192079,19698,-0.195266,-0.0360881,1.44444,-0.00192079,12122,0,0,0,0,0.2,1
12181,-3.11491e-12,1.9988e-38,-1.51267e-06,-3.18057e-12,1.99868e-38,0,-1.06614e-13,0,0,-3.35421,-0.0360881,0.448281,0,0,0,0,0,-0.195266,-0.0360881,256,-92,256,-92,388,-82,263,55,0.400768,0.0872664,0,-1.5,3.94113e+12,0,0,0,-0.089825,-0.0362283,0,0,0,0,1.44444,-0.00192079,19698,-0.195266,-0.0360881,1.44444,-0.00192079,12122,0,0,0,0,0.2,1
12204,-3.11492e-12,1.99657e-38,1.99891e-38,-3.18057e-12,1.99868e-38,0,-1.06614e-13,0,0,-3.42282,-0.0259368,0.488143,0,0,0,0,0,-0.289261,-0.0259368,254,-82,254,-82,387,-85,263,54,0.400768,0.0872664,0,-1.5,3.94113e+12,0,0,0,-0.0566039,-0.0362725,0,0,0,0,1.44444,-0.00192082,18765,-0.0898251,-0.0362283,1.44444,-0.00192082,12193,0,0,0,0,0.2,1
12227,-3.11491e-12,1.9988e-38,-1.51267e-06,-3.18057e-12,1.99868e-38,0,-1.06614e-13,0,0,-3.4722,-0.0389098,0.51647,0,0,0,0,0,-0.356919,-0.0389098,257,-81,257,-81,387,-85,266,54,0.405269,-0.0872664,0,-1.5,3.94113e+12,0,0,0,-0.336823,-0.0390283,0,0,0,0,-1.03396,-0.0131728,18348,-0.327517,-0.0389097,-1.03396,-0.0131728,12220,0,0,0,0,0.2,1
12248,-3.11491e-12,1.9988e-38,-1.51267e-06,-3.18057e-12,1.99868e-38,0,-1.06615e-13,0,0,-3.4722,-0.0389098,0.51647,0,0,0,0,0,-0.356919,-0.0389098,257,-81,257,-81,387,-85,266,54,0.405269,-0.0872664,0,-1.5,3.94113e+12,0,0,0,-0.358535,-0.0393049,0,0,0,0,-1.03396,-0.0131728,18348,-0.327517,-0.0389097,-1.03396,-0.0131728,12220,0,0,0,0,0.2,1
12269,-3.11491e-12,1.9988e-38,-1.51267e-06,-3.18057e-12,1.99868e-38,0,-1.06617e-13,0,0,-3.45118,-0.0323052,0.503691,0,0,0,0,0,-0.32812,-0.0323052,257,-81,257,-81,387,-85,263,54,0.393779,-0.0872664,0,-1.5,3.94113e+12,0,0,0,-0.3534,-0.0320637,0,0,0,0,-0.864603,0.0155515,18348,-0.335244,-0.0323902,-0.864603,0.0155515,12257,0,0,0,0,0.2,1
12290,-3.11491e-12,1.9988e-38,-1.51267e-06,-3.18057e-12,1.99868e-38,0,-1.06618e-13,0,0,-3.45118,-0.0323052,0.503691,0,0,0,0,0,-0.32812,-0.0323052,257,-81,257,-81,387,-85,263,54,0.394543,-0.0872664,0,-1.5,3.94113e+12,0,0,0,-0.336255,-0.0322941,0,0,0,0,-0.402959,0.0136424,18348,-0.333837,-0.0323759,-0.402959,0.0136424,12286,0,0,0,0,0.2,1
12311,-3.11491e-12,1.9988e-38,-1.51267e-06,-3.18057e-12,1.99868e-38,0,-1.06615e-13,0,0,-3.45118,-0.0323052,0.503691,0,0,0,0,0,-0.32812,-0.0323052,257,-81,257,-81,387,-85,263,54,0.394543,-0.0872664,0,-1.5,3.94113e+12,0,0,0,-0.344717,-0.0320076,0,0,0,0,-0.402959,0.0136424,18348,-0.333837,-0.0323759,-0.402959,0.0136424,12286,0,0,0,0,0.2,1
12335,-3.11491e-12,1.9988e-38,-1.51267e-06,-3.18057e-12,1.99868e-38,0,-1.06615e-13,0,0,-3.43657,-0.0279495,0.494808,0,0,0,0,0,-0.3081,-0.0279495,257,-81,257,-81,387,-85,261,54,0.393986,-0.0872664,0,-1.5,3.94113e+12,0,0,0,-0.349061,-0.0314247,0,0,0,0,-0.379782,0.0150358,18348,-0.339946,-0.0317855,-0.379782,0.0150358,12323,0,0,0,0,0.2,1
12352,-3.11491e-12,1.9988e-38,-1.51267e-06,-3.18057e-12,1.99868e-38,0,-1.06615e-13,0,0,-3.43657,-0.0279495,0.494808,0,0,0,0,0,-0.3081,-0.0279495,257,-81,257,-81,387,-85,261,54,0.393986,-0.0872664,0,-1.5,3.94113e+12,0,0,0,-0.355517,-0.0311691,0,0,0,0,-0.379782,0.0150358,18348,-0.339946,-0.0317855,-0.379782,0.0150358,12323,0,0,0,0,0.2,1
12377,-3.11491e-12,1.9988e-38,-1.51267e-06,-3.18057e-12,1.99868e-38,0,-1.06616e-13,0,0,-3.46402,-0.0282078,0.511632,0,0,0,0,0,-0.345714,-0.0282078,257,-81,257,-81,385,-85,263,54,0.390831,-0.0872664,0,-1.5,3.94113e+12,0,0,0,-0.365011,-0.0282206,0,0,0,0,-0.379782,0.022922,18348,-0.355517,-0.0287937,-0.379782,0.022922,12365,0,0,0,0,0.2,1
12399,-3.11491e-12,1.9988e-38,-1.51267e-06,-3.18057e-12,1.99868e-38,0,-1.06616e-13,0,0,-3.44719,-0.0448865,0.501265,0,0,0,0,0,-0.322645,-0.0448865,257,-81,257,-81,387,-85,266,54,0.394977,-0.0872664,0,-1.5,3.94113e+12,0,0,0,-0.353725,-0.030793,0,0,0,0,-0.283496,0.012557,18765,-0.347488,-0.0310692,-0.283496,0.012557,12387,0,0,0,0,0.2,1
12435,-3.11491e-12,1.9988e-38,-1.51267e-06,-3.18057e-12,1.99868e-38,0,-1.06617e-13,0,0,-3.43657,-0.0279495,0.494808,0,0,0,0,0,-0.3081,-0.0279495,257,-81,257,-81,387,-85,261,54,0.392377,-0.0872664,0,-1.5,3.94113e+12,0,0,0,-0.325978,-0.028684,0,0,0,0,-0.057601,0.0190566,18348,-0.323962,-0.029351,-0.057601,0.0190566,12422,0,0,0,0,0.2,1
12456,-3.11491e-12,1.9988e-38,-1.51267e-06,-3.18057e-12,1.99868e-38,0,-1.06616e-13,0,0,-3.46402,-0.0282078,0.511632,0,0,0,0,0,-0.345714,-0.0282078,257,-81,257,-81,385,-85,263,54,0.392432,-0.0872664,0,-1.5,3.94113e+12,0,0,0,-0.347692,-0.0280862,0,0,0,0,-0.207126,0.0189202,18348,-0.346657,-0.0281808,-0.207126,0.0189202,12453,0,0,0,0,0.2,1
12473,-3.11491e-12,1.9988e-38,-1.51267e-06,-3.18057e-12,1.99868e-38,0,-1.06617e-13,0,0,-3.46402,-0.0282078,0.511632,0,0,0,0,0,-0.345714,-0.0282078,257,-81,257,-81,385,-85,263,54,0.392432,-0.0872664,0,-1.5,3.94113e+12,0,0,0,-0.351213,-0.0277646,0,0,0,0,-0.207126,0.0189202,18348,-0.346657,-0.0281808,-0.207126,0.0189202,12453,0,0,0,0,0.2,1
12491,-3.11491e-12,1.9988e-38,-1.51267e-06,-3.18057e-12,1.99868e-38,0,-1.06618e-13,0,0,-3.46402,-0.0282078,0.511632,0,0,0,0,0,-0.345714,-0.0282078,257,-81,257,-81,385,-85,263,54,0.392432,-0.0872664,0,-1.5,3.94113e+12,0,0,0,-0.354942,-0.027424,0,0,0,0,-0.207126,0.0189202,18348,-0.346657,-0.0281808,-0.207126,0.0189202,12453,0,0,0,0,0.2,1
12514,-3.11491e-12,1.9988e-38,-1.51267e-06,-3.18057e-12,1.99868e-38,0,-1.06618e-13,0,0,-3.46402,-0.0282078,0.511632,0,0,0,0,0,-0.345714,-0.0282078,257,-81,257,-81,385,-85,263,54,0.392432,-0.0872664,0,-1.5,3.94113e+12,0,0,0,-0.359705,-0.0269889,0,0,0,0,-0.207126,0.0189202,18348,-0.346657,-0.0281808,-0.207126,0.0189202,12453,0,0,0,0,0.2,1
12536,-3.11491e-12,1.9988e-38,-1.51267e-06,-3.18057e-12,1.99868e-38,0,-1.06621e-13,0,0,-3.45118,-0.0323052,0.503691,0,0,0,0,0,-0.32812,-0.0323052,257,-81,257,-81,387,-85,263,54,0.392496,-0.0872664,0,-1.5,3.94113e+12,0,0,0,-0.329057,-0.0269579,0,0,0,0,-0.0398053,0.0187604,18348,-0.328182,-0.0273706,-0.0398053,0.0187604,12523,0,0,0,0,0.2,1
12557,-3.11491e-12,1.9988e-38,-1.51267e-06,-3.18057e-12,1.99868e-38,0,-1.06621e-13,0,0,-3.44942,-0.0238517,0.502753,0,0,0,0,0,-0.325701,-0.0238517,257,-81,257,-81,385,-85,261,54,0.39221,-0.0794543,0,-1.5,3.94113e+12,0,0,0,-0.324137,-0.0260651,0,0,0,0,0.00135736,0.019476,18348,-0.324145,-0.0261819,0.00135736,0.019476,12553,0,0,0,0,0.2,1
12601,-3.11491e-12,1.9988e-38,-1.51267e-06,-3.18057e-12,1.99868e-38,0,-1.06622e-13,0,0,-3.43559,-0.0218482,0.496048,0,0,0,0,0,-0.306759,-0.0218482,254,-82,254,-82,385,-85,263,54,0.391467,-0.0872002,0,-1.5,3.94113e+12,0,0,0,-0.325889,-0.0243336,0,0,0,0,-0.0180006,0.0213336,18765,-0.325097,-0.0252722,-0.0180006,0.0213336,12588,0,0,0,0,0.2,1
12622,-3.11491e-12,1.9988e-38,-1.51267e-06,-3.18057e-12,1.99868e-38,0,-1.06622e-13,0,0,-3.44942,-0.0238517,0.502753,0,0,0,0,0,-0.325701,-0.0238517,257,-81,257,-81,385,-85,261,54,0.391231,-0.0834658,0,-1.5,3.94113e+12,0,0,0,-0.325758,-0.0235773,0,0,0,0,-0.00866614,0.0219216,18348,-0.325706,-0.0237089,-0.00866614,0.0219216,12618,0,0,0,0,0.2,1
12642,-3.11491e-12,1.9988e-38,-1.51267e-06,-3.18057e-12,1.99868e-38,0,-1.06622e-13,0,0,-3.44942,-0.0238517,0.502753,0,0,0,0,0,-0.325701,-0.0238517,257,-81,257,-81,385,-85,261,54,0.391231,-0.0834665,0,-1.5,3.94113e+12,0,0,0,-0.325923,-0.0231608,0,0,0,0,-0.00866614,0.0219216,18348,-0.325706,-0.0237089,-0.00866614,0.0219216,12618,0,0,0,0,0.2,1
12663,-3.11491e-12,1.9988e-38,-1.51267e-06,-3.18057e-12,1.99868e-38,0,-1.06622e-13,0,0,-3.44942,-0.0238517,0.502753,0,0,0,0,0,-0.325701,-0.0238517,257,-81,257,-81,385,-85,261,54,0.391231,-0.0834665,0,-1.5,3.94113e+12,0,0,0,-0.326113,-0.0226786,0,0,0,0,-0.00866614,0.0219216,18348,-0.325706,-0.0237089,-0.00866614,0.0219216,12618,0,0,0,0,0.2,1
12698,-3.11491e-12,1.9988e-38,-1.51267e-06,-3.18057e-12,1.99868e-38,0,-1.06618e-13,0,0,-3.44942,-0.0238517,0.502753,0,0,0,0,0,-0.325701,-0.0238517,257,-81,257,-81,385,-85,261,54,0.391231,-0.0834665,0,-1.5,3.94113e+12,0,0,0,-0.326417,-0.0219113,0,0,0,0,-0.00866614,0.0219216,18348,-0.325706,-0.0237089,-0.00866614,0.0219216,12618,0,0,0,0,0.2,1
12776,-3.11491e-12,1.9988e-38,-1.51267e-06,-3.18057e-12,1.99868e-38,0,-1.06621e-13,0,0,-3.45663,-0.0260159,0.507208,0,0,0,0,0,-0.335583,-0.0260159,258,-81,258,-81,385,-85,261,54,0.39225,-0.0852558,0,-1.5,3.94113e+12,0,0,0,-0.328348,-0.0217526,0,0,0,0,-0.0131394,0.019376,18209,-0.327336,-0.0232445,-0.0131394,0.019376,12763,0,0,0,0,0.2,1
12794,-3.11491e-12,1.9988e-38,-1.51267e-06,-3.18057e-12,1.99868e-38,0,-1.06619e-13,0,0,-3.45663,-0.0260159,0.507208,0,0,0,0,0,-0.335583,-0.0260159,258,-81,258,-81,385,-85,261,54,0.39225,-0.0852558,0,-1.5,3.94113e+12,0,0,0,-0.328597,-0.0213845,0,0,0,0,-0.0131394,0.019376,18209,-0.327336,-0.0232445,-0.0131394,0.019376,12763,0,0,0,0,0.2,1
12811,-3.11491e-12,1.9988e-38,-1.51267e-06,-3.18057e-12,1.99868e-38,0,-1.06619e-13,0,0,-3.45663,-0.0260159,0.507208,0,0,0,0,0,-0.335583,-0.0260159,258,-81,258,-81,385,-85,261,54,0.39225,-0.0852558,0,-1.5,3.94113e+12,0,0,0,-0.328821,-0.0210551,0,0,0,0,-0.0131394,0.019376,18209,-0.327336,-0.0232445,-0.0131394,0.019376,12763,0,0,0,0,0.2,1
12828,-3.11491e-12,1.9988e-38,-1.51267e-06,-3.18057e-12,1.99868e-38,0,-1.06619e-13,0,0,-3.45663,-0.0260159,0.507208,0,0,0,0,0,-0.335583,-0.0260159,258,-81,258,-81,385,-85,261,54,0.39225,-0.0852558,0,-1.5,3.94113e+12,0,0,0,-0.329044,-0.0207257,0,0,0,0,-0.0131394,0.019376,18209,-0.327336,-0.0232445,-0.0131394,0.019376,12763,0,0,0,0,0.2,1
12856,-3.11491e-12,1.9988e-38,-1.51267e-06,-3.18057e-12,1.99868e-38,0,-1.0662e-13,0,0,-3.46402,-0.0282078,0.511632,0,0,0,0,0,-0.345714,-0.0282078,257,-81,257,-81,385,-85,263,54,0.392747,-0.0872664,0,-1.5,3.94113e+12,0,0,0,-0.341801,-0.0212809,0,0,0,0,-0.040148,0.0181332,18348,-0.341561,-0.0213897,-0.040148,0.0181332,12852,0,0,0,0,0.2,1
12874,-3.11491e-12,1.9988e-38,-1.51267e-06,-3.18057e-12,1.99868e-38,0,-1.0662e-13,0,0,-3.46402,-0.0282078,0.511632,0,0,0,0,0,-0.345714,-0.0282078,257,-81,257,-81,385,-85,263,54,0.392747,-0.0872664,0,-1.5,3.94113e+12,0,0,0,-0.342524,-0.0209545,0,0,0,0,-0.040148,0.0181332,18348,-0.341561,-0.0213897,-0.040148,0.0181332,12852,0,0,0,0,0.2,1
12891,-3.11491e-12,1.9988e-38,-1.51267e-06,-3.18057e-12,1.99868e-38,0,-1.0662e-13,0,0,-3.46402,-0.0282078,0.511632,0,0,0,0,0,-0.345714,-0.0282078,257,-81,257,-81,385,-85,263,54,0.392747,-0.0872664,0,-1.5,3.94113e+12,0,0,0,-0.343207,-0.0206463,0,0,0,0,-0.040148,0.0181332,18348,-0.341561,-0.0213897,-0.040148,0.0181332,12852,0,0,0,0,0.2,1
12913,-3.11491e-12,1.9988e-38,-1.51267e-06,-3.18057e-12,1.99868e-38,0,-1.0662e-13,0,0,-3.46402,-0.0282078,0.511632,0,0,0,0,0,-0.345714,-0.0282078,257,-81,257,-81,385,-85,263,54,0.392747,-0.0872664,0,-1.5,3.94113e+12,0,0,0,-0.34405,-0.0202655,0,0,0,0,-0.040148,0.0181332,18348,-0.341561,-0.0213897,-0.040148,0.0181332,12852,0,0,0,0,0.2,1
12934,-3.11491e-12,1.9988e-38,-1.51267e-06,-3.18057e-12,1.99868e-38,0,-1.06623e-13,0,0,-3.46402,-0.0282078,0.511632,0,0,0,0,0,-0.345714,-0.0282078,257,-81,257,-81,385,-85,263,54,0.394394,-0.0872664,0,-1.5,3.94113e+12,0,0,0,-0.346623,-0.0226285,0,0,0,0,-0.0493555,0.0140161,18348,-0.345538,-0.0229368,-0.0493555,0.0140161,12921,0,0,0,0,0.2,1
12954,-3.11491e-12,1.9988e-38,-1.51267e-06,-3.18057e-12,1.99868e-38,0,-1.06623e-13,0,0,-3.46402,-0.0282078,0.511632,0,0,0,0,0,-0.345714,-0.0282078,257,-81,257,-81,385,-85,263,54,0.394394,-0.0872664,0,-1.5,3.94113e+12,0,0,0,-0.347611,-0.0223482,0,0,0,0,-0.0493555,0.0140161,18348,-0.345538,-0.0229368,-0.0493555,0.0140161,12921,0,0,0,0,0.2,1
12975,-3.11491e-12,1.9988e-38,-1.51267e-06,-3.18057e-12,1.99868e-38,0,-1.06623e-13,0,0,-3.46402,-0.0282078,0.511632,0,0,0,0,0,-0.345714,-0.0282078,257,-81,257,-81,385,-85,263,54,0.394394,-0.0872664,0,-1.5,3.94113e+12,0,0,0,-0.348647,-0.0220539,0,0,0,0,-0.0493555,0.0140161,18348,-0.345538,-0.0229368,-0.0493555,0.0140161,12921,0,0,0,0,0.2,1
12992,-3.11491e-12,1.9988e-38,-1.51267e-06,-3.18057e-12,1.99868e-38,0,-1.06623e-13,0,0,-3.46402,-0.0282078,0.511632,0,0,0,0,0,-0.345714,-0.0282078,257,-81,257,-81,385,-85,263,54,0.394394,-0.0872664,0,-1.5,3.94113e+12,0,0,0,-0.349486,-0.0218156,0,0,0,0,-0.0493555,0.0140161,18348,-0.345538,-0.0229368,-0.0493555,0.0140161,12921,0,0,0,0,0.2,1
13008,-3.11491e-12,1.9988e-38,-1.51267e-06,-3.18057e-12,1.99868e-38,0,-1.06624e-13,0,0,-3.46402,-0.0282078,0.511632,0,0,0,0,0,-0.345714,-0.0282078,257,-81,257,-81,385,-85,263,54,0.394394,-0.0872664,0,-1.5,3.94113e+12,0,0,0,-0.350276,-0.0215913,0,0,0,0,-0.0493555,0.0140161,18348,-0.345538,-0.0229368,-0.0493555,0.0140161,12921,0,0,0,0,0.2,1
13031,-3.11491e-12,1.9988e-38,-1.51267e-06,-3.18057e-12,1.99868e-38,0,-1.06624e-13,0,0,-3.45663,-0.0260159,0.507208,0,0,0,0,0,-0.335583,-0.0260159,258,-81,258,-81,385,-85,261,54,0.394838,-0.0872664,0,-1.5,3.94113e+12,0,0,0,-0.348417,-0.022229,0,0,0,0,-0.037993,0.0129062,18209,-0.347543,-0.0225259,-0.037993,0.0129062,13018,0,0,0,0,0.2,1
13048,-3.11491e-12,1.9988e-38,-1.51267e-06,-3.18057e-12,1.99868e-38,0,-1.06624e-13,0,0,-3.45663,-0.0260159,0.507208,0,0,0,0,0,-0.335583,-0.0260159,258,-81,258,-81,385,-85,261,54,0.394838,-0.0872664,0,-1.5,3.94113e+12,0,0,0,-0.349063,-0.0220096,0,0,0,0,-0.037993,0.0129062,18209,-0.347543,-0.0225259,-0.037993,0.0129062,13018,0,0,0,0,0.2,1
13070,-3.11491e-12,1.9988e-38,-1.51267e-06,-3.18057e-12,1.99868e-38,0,-1.06625e-13,0,0,-3.42177,-0.0175508,0.487643,0,0,0,0,0,-0.287825,-0.0175508,254,-82,254,-82,385,-85,261,54,0.394352,-0.0872664,0,-1.5,3.94113e+12,0,0,0,-0.339838,-0.0205626,0,0,0,0,-0.0208444,0.0141198,18765,-0.339379,-0.0208733,-0.0208444,0.0141198,13057,0,0,0,0,0.2,1
13094,-3.11491e-12,1.9988e-38,-1.51267e-06,-3.18057e-12,1.99868e-38,0,-1.06625e-13,0,0,-3.42177,-0.0175508,0.487643,0,0,0,0,0,-0.287825,-0.0175508,254,-82,254,-82,385,-85,261,54,0.394352,-0.0872664,0,-1.5,3.94113e+12,0,0,0,-0.340338,-0.0202238,0,0,0,0,-0.0208444,0.0141198,18765,-0.339379,-0.0208733,-0.0208444,0.0141198,13057,0,0,0,0,0.2,1
13111,-3.11491e-12,1.9988e-38,-1.51267e-06,-3.18057e-12,1.99868e-38,0,-1.06625e-13,0,0,-3.42177,-0.0175508,0.487643,0,0,0,0,0,-0.287825,-0.0175508,254,-82,254,-82,385,-85,261,54,0.394352,-0.0872664,0,-1.5,3.94113e+12,0,0,0,-0.340692,-0.0199837,0,0,0,0,-0.0208444,0.0141198,18765,-0.339379,-0.0208733,-0.0208444,0.0141198,13057,0,0,0,0,0.2,1
13147,-3.11491e-12,1.9988e-38,-1.51267e-06,-3.18057e-12,1.99868e-38,0,-1.06625e-13,0,0,-3.42177,-0.0175508,0.487643,0,0,0,0,0,-0.287825,-0.0175508,254,-82,254,-82,385,-85,261,54,0.394352,-0.0872664,0,-1.5,3.94113e+12,0,0,0,-0.341443,-0.0194754,0,0,0,0,-0.0208444,0.0141198,18765,-0.339379,-0.0208733,-0.0208444,0.0141198,13057,0,0,0,0,0.2,1
13168,-3.11491e-12,1.9988e-38,-1.51267e-06,-3.18057e-12,1.99868e-38,0,-1.06626e-13,0,0,-3.42177,-0.0175508,0.487643,0,0,0,0,0,-0.287825,-0.0175508,254,-82,254,-82,385,-85,261,54,0.394352,-0.0872664,0,-1.5,3.94113e+12,0,0,0,-0.34188,-0.0191789,0,0,0,0,-0.0208444,0.0141198,18765,-0.339379,-0.0208733,-0.0208444,0.0141198,13057,0,0,0,0,0.2,1
13185,-3.11491e-12,1.9988e-38,-1.51267e-06,-3.18057e-12,1.99868e-38,0,-1.06626e-13,0,0,-3.42177,-0.0175508,0.487643,0,0,0,0,0,-0.287825,-0.0175508,254,-82,254,-82,385,-85,261,54,0.394352,-0.0872664,0,-1.5,3.94113e+12,0,0,0,-0.342235,-0.0189389,0,0,0,0,-0.0208444,0.0141198,18765,-0.339379,-0.0208733,-0.0208444,0.0141198,13057,0,0,0,0,0.2,1
13205,-3.11492e-12,1.99657e-38,1.99891e-38,-3.18057e-12,1.99868e-38,0,-1.06626e-13,0,0,-3.42177,-0.0175508,0.487643,0,0,0,0,0,-0.287825,-0.0175508,254,-82,254,-82,385,-85,261,54,0.394352,-0.0872664,0,-1.5,3.94113e+12,0,0,0,-0.342652,-0.0186565,0,0,0,0,-0.0208444,0.0141198,18765,-0.339379,-0.0208733,-0.0208444,0.0141198,13057,0,0,0,0,0.2,1
13227,-3.11491e-12,1.9988e-38,-1.51267e-06,-3.18057e-12,1.99868e-38,0,-1.06626e-13,0,0,-3.42177,-0.0175508,0.487643,0,0,0,0,0,-0.287825,-0.0175508,254,-82,254,-82,385,-85,261,54,0.394352,-0.0872664,0,-1.5,3.94113e+12,0,0,0,-0.34311,-0.0183459,0,0,0,0,-0.0208444,0.0141198,18765,-0.339379,-0.0208733,-0.0208444,0.0141198,13057,0,0,0,0,0.2,1
13262,-3.11491e-12,1.9988e-38,-1.51267e-06,-3.18057e-12,1.99868e-38,0,-1.06627e-13,0,0,-3.42177,-0.0175508,0.487643,0,0,0,0,0,-0.287825,-0.0175508,254,-82,254,-82,385,-85,261,54,0.394352,-0.0872664,0,-1.5,3.94113e+12,0,0,0,-0.34384,-0.0178517,0,0,0,0,-0.0208444,0.0141198,18765,-0.339379,-0.0208733,-0.0208444,0.0141198,13057,0,0,0,0,0.2,1
13278,-3.11491e-12,1.9988e-38,-1.51267e-06,-3.18057e-12,1.99868e-38,0,-1.06627e-13,0,0,-3.42177,-0.0175508,0.487643,0,0,0,0,0,-0.287825,-0.0175508,254,-82,254,-82,385,-85,261,54,0.394352,-0.0872664,0,-1.5,3.94113e+12,0,0,0,-0.344173,-0.0176258,0,0,0,0,-0.0208444,0.0141198,18765,-0.339379,-0.0208733,-0.0208444,0.0141198,13057,0,0,0,0,0.2,1
13333,-3.11491e-12,1.9988e-38,-1.51267e-06,-3.18057e-12,1.99868e-38,0,-1.06627e-13,0,0,-3.43468,-0.0195493,0.493651,0,0,0,0,0,-0.305515,-0.0195493,255,-81,255,-81,385,-85,261,54,0.394975,-0.0847599,0,-1.5,3.94113e+12,0,0,0,-0.338313,-0.0186458,0,0,0,0,-0.0118996,0.0125637,18626,-0.33767,-0.0193242,-0.0118996,0.0125637,13320,0,0,0,0,0.2,1
13383,-3.11491e-12,1.9988e-38,-1.51267e-06,-3.18057e-12,1.99868e-38,0,-1.06628e-13,0,0,-3.43468,-0.0195493,0.493651,0,0,0,0,0,-0.305515,-0.0195493,255,-81,255,-81,385,-85,261,54,0.394975,-0.0847599,0,-1.5,3.94113e+12,0,0,0,-0.33892,-0.0180051,0,0,0,0,-0.0118996,0.0125637,18626,-0.33767,-0.0193242,-0.0118996,0.0125637,13320,0,0,0,0,0.2,1
13423,-3.11491e-12,1.9988e-38,-1.51267e-06,-3.18057e-12,1.99868e-38,0,-1.06628e-13,0,0,-3.44881,-0.02387,0.502238,0,0,0,0,0,-0.324873,-0.02387,255,-81,255,-81,385,-85,263,54,0.394982,-0.0794747,0,-1.5,3.94113e+12,0,0,0,-0.323944,-0.0175722,0,0,0,0,0.00131323,0.0125453,18626,-0.323997,-0.018074,0.00131323,0.0125453,13409,0,0,0,0,0.2,1
13444,-3.11491e-12,1.9988e-38,-1.51267e-06,-3.18057e-12,1.99868e-38,0,-1.06628e-13,0,0,-3.44881,-0.02387,0.502238,0,0,0,0,0,-0.324873,-0.02387,255,-81,255,-81,385,-85,263,54,0.394982,-0.0794747,0,-1.5,3.94113e+12,0,0,0,-0.323917,-0.0173087,0,0,0,0,0.00131323,0.0125453,18626,-0.323997,-0.018074,0.00131323,0.0125453,13409,0,0,0,0,0.2,1
13464,-3.11491e-12,1.9988e-38,-1.51267e-06,-3.18057e-12,1.99868e-38,0,-1.06628e-13,0,0,-3.44881,-0.02387,0.502238,0,0,0,0,0,-0.324873,-0.02387,255,-81,255,-81,385,-85,263,54,0.394982,-0.0794747,0,-1.5,3.94113e+12,0,0,0,-0.323891,-0.0170578,0,0,0,0,0.00131323,0.0125453,18626,-0.323997,-0.018074,0.00131323,0.0125453,13409,0,0,0,0,0.2,1
13481,-3.11491e-12,1.9988e-38,-1.51267e-06,-3.18057e-12,1.99868e-38,0,-1.06629e-13,0,0,-3.44881,-0.02387,0.502238,0,0,0,0,0,-0.324873,-0.02387,255,-81,255,-81,385,-85,263,54,0.394982,-0.0794747,0,-1.5,3.94113e+12,0,0,0,-0.323868,-0.0168446,0,0,0,0,0.00131323,0.0125453,18626,-0.323997,-0.018074,0.00131323,0.0125453,13409,0,0,0,0,0.2,1
13503,-3.11491e-12,1.9988e-38,-1.51267e-06,-3.18057e-12,1.99868e-38,0,-1.06629e-13,0,0,-3.44881,-0.02387,0.502238,0,0,0,0,0,-0.324873,-0.02387,255,-81,255,-81,385,-85,263,54,0.394982,-0.0794747,0,-1.5,3.94113e+12,0,0,0,-0.323839,-0.0165686,0,0,0,0,0.00131323,0.0125453,18626,-0.323997,-0.018074,0.00131323,0.0125453,13409,0,0,0,0,0.2,1
13521,-3.11491e-12,1.9988e-38,-1.51267e-06,-3.18057e-12,1.99868e-38,0,-1.06629e-13,0,0,-3.44881,-0.02387,0.502238,0,0,0,0,0,-0.324873,-0.02387,255,-81,255,-81,385,-85,263,54,0.394982,-0.0794747,0,-1.5,3.94113e+12,0,0,0,-0.323816,-0.0163428,0,0,0,0,0.00131323,0.0125453,18626,-0.323997,-0.018074,0.00131323,0.0125453,13409,0,0,0,0,0.2,1
13545,-3.11491e-12,1.9988e-38,-1.51267e-06,-3.18057e-12,1.99868e-38,0,-1.06629e-13,0,0,-3.44881,-0.02387,0.502238,0,0,0,0,0,-0.324873,-0.02387,255,-81,255,-81,385,-85,263,54,0.394982,-0.0794747,0,-1.5,3.94113e+12,0,0,0,-0.323786,-0.0160542,0,0,0,0,0.00131323,0.0125453,18626,-0.323997,-0.018074,0.00131323,0.0125453,13409,0,0,0,0,0.2,1
13562,-3.11491e-12,1.9988e-38,-1.51267e-06,-3.18057e-12,1.99868e-38,0,-1.0663e-13,0,0,-3.44881,-0.02387,0.502238,0,0,0,0,0,-0.324873,-0.02387,255,-81,255,-81,385,-85,263,54,0.394982,-0.0794747,0,-1.5,3.94113e+12,0,0,0,-0.323762,-0.0158284,0,0,0,0,0.00131323,0.0125453,18626,-0.323997,-0.018074,0.00131323,0.0125453,13409,0,0,0,0,0.2,1
13579,-3.11491e-12,1.9988e-38,-1.51267e-06,-3.18057e-12,1.99868e-38,0,-1.0663e-13,0,0,-3.44881,-0.02387,0.502238,0,0,0,0,0,-0.324873,-0.02387,255,-81,255,-81,385,-85,263,54,0.394982,-0.0794747,0,-1.5,3.94113e+12,0,0,0,-0.32374,-0.0156152,0,0,0,0,0.00131323,0.0125453,18626,-0.323997,-0.018074,0.00131323,0.0125453,13409,0,0,0,0,0.2,1
13599,-3.11491e-12,1.9988e-38,-1.51267e-06,-3.18057e-12,1.99868e-38,0,-1.0663e-13,0,0,-3.44881,-0.02387,0.502238,0,0,0,0,0,-0.324873,-0.02387,255,-81,255,-81,385,-85,263,54,0.394982,-0.0794747,0,-1.5,3.94113e+12,0,0,0,-0.323713,-0.0153643,0,0,0,0,0.00131323,0.0125453,18626,-0.323997,-0.018074,0.00131323,0.0125453,13409,0,0,0,0,0.2,1
13613,-3.11491e-12,1.9988e-38,-1.51267e-06,-3.18057e-12,1.99868e-38,0,-1.06631e-13,0,0,-3.44881,-0.02387,0.502238,0,0,0,0,0,-0.324873,-0.02387,255,-81,255,-81,385,-85,263,54,0.394982,-0.0794747,0,-1.5,3.94113e+12,0,0,0,-0.323695,-0.0151886,0,0,0,0,0.00131323,0.0125453,18626,-0.323997,-0.018074,0.00131323,0.0125453,13409,0,0,0,0,0.2,1
13638,-3.11491e-12,1.9988e-38,-1.51267e-06,-3.18057e-12,1.99868e-38,0,-1.06631e-13,0,0,-3.44881,-0.02387,0.502238,0,0,0,0,0,-0.324873,-0.02387,255,-81,255,-81,385,-85,263,54,0.394982,-0.0794747,0,-1.5,3.94113e+12,0,0,0,-0.323662,-0.014875,0,0,0,0,0.00131323,0.0125453,18626,-0.323997,-0.018074,0.00131323,0.0125453,13409,0,0,0,0,0.2,1
13660,-3.11491e-12,1.9988e-38,-1.51267e-06,-3.18057e-12,1.99868e-38,0,-1.06631e-13,0,0,-3.44881,-0.02387,0.502238,0,0,0,0,0,-0.324873,-0.02387,255,-81,255,-81,385,-85,263,54,0.394982,-0.0794747,0,-1.5,3.94113e+12,0,0,0,-0.323635,-0.0146116,0,0,0,0,0.00131323,0.0125453,18626,-0.323997,-0.018074,0.00131323,0.0125453,13409,0,0,0,0,0.2,1
13676,-3.11491e-12,1.9988e-38,-1.51267e-06,-3.18057e-12,1.99868e-38,0,-1.06631e-13,0,0,-3.44881,-0.02387,0.502238,0,0,0,0,0,-0.324873,-0.02387,255,-81,255,-81,385,-85,263,54,0.394982,-0.0794747,0,-1.5,3.94113e+12,0,0,0,-0.323612,-0.0143983,0,0,0,0,0.00131323,0.0125453,18626,-0.323997,-0.018074,0.00131323,0.0125453,13409,0,0,0,0,0.2,1
13696,-3.11491e-12,1.9988e-38,-1.51267e-06,-3.18057e-12,1.99868e-38,0,-1.06632e-13,0,0,-3.44881,-0.02387,0.502238,0,0,0,0,0,-0.324873,-0.02387,255,-81,255,-81,385,-85,263,54,0.394982,-0.0794747,0,-1.5,3.94113e+12,0,0,0,-0.323586,-0.0141474,0,0,0,0,0.00131323,0.0125453,18626,-0.323997,-0.018074,0.00131323,0.0125453,13409,0,0,0,0,0.2,1
13717,-3.11491e-12,1.9988e-38,-1.51267e-06,-3.18057e-12,1.99868e-38,0,-1.06632e-13,0,0,-3.44881,-0.02387,0.502238,0,0,0,0,0,-0.324873,-0.02387,255,-81,255,-81,385,-85,263,54,0.394982,-0.0794747,0,-1.5,3.94113e+12,0,0,0,-0.323558,-0.013884,0,0,0,0,0.00131323,0.0125453,18626,-0.323997,-0.018074,0.00131323,0.0125453,13409,0,0,0,0,0.2,1
13739,-3.11491e-12,1.9988e-38,-1.51267e-06,-3.18057e-12,1.99868e-38,0,-1.06632e-13,0,0,-3.42177,-0.0175508,0.487643,0,0,0,0,0,-0.287825,-0.0175508,254,-82,254,-82,385,-85,261,54,0.396034,-0.07817,0,-1.5,3.94113e+12,0,0,0,-0.321297,-0.017217,0,0,0,0,0.004575,0.00991586,18765,-0.321398,-0.0174352,0.004575,0.00991586,13726,0,0,0,0,0.2,1
13761,-3.11491e-12,1.9988e-38,-1.51267e-06,-3.18057e-12,1.99868e-38,0,-1.06632e-13,0,0,-3.48434,-0.023542,0.499856,0,0,0,0,0,-0.373549,-0.023542,256,-67,256,-67,387,-87,261,54,0.396105,-0.0838574,0,-1.5,3.94113e+12,0,0,0,-0.338517,-0.0172904,0,0,0,0,-0.0096435,0.00973737,18753,-0.338411,-0.0173976,-0.0096435,0.00973737,13752,0,0,0,0,0.2,1
13785,-3.11491e-12,1.9988e-38,-1.51267e-06,-3.18057e-12,1.99868e-38,0,-1.06633e-13,0,0,-3.48434,-0.023542,0.499856,0,0,0,0,0,-0.373549,-0.023542,256,-67,256,-67,387,-87,261,54,0.396105,-0.0838574,0,-1.5,3.94113e+12,0,0,0,-0.338748,-0.0170568,0,0,0,0,-0.0096435,0.00973737,18753,-0.338411,-0.0173976,-0.0096435,0.00973737,13752,0,0,0,0,0.2,1
13807,-3.11491e-12,1.9988e-38,-1.51267e-06,-3.18057e-12,1.99868e-38,0,-1.06633e-13,0,0,-3.49235,-0.0257542,0.504749,0,0,0,0,0,-0.384524,-0.0257542,257,-67,257,-67,387,-87,261,54,0.39694,-0.0872664,0,-1.5,3.94113e+12,0,0,0,-0.35678,-0.0201548,0,0,0,0,-0.0249825,0.00764997,18612,-0.356231,-0.0203231,-0.0249825,0.00764997,13794,0,0,0,0,0.2,1
13829,-3.11491e-12,1.9988e-38,-1.51267e-06,-3.18057e-12,1.99868e-38,0,-1.06633e-13,0,0,-3.48853,-0.0234046,0.50036,0,0,0,0,0,-0.379292,-0.0234046,256,-66,256,-66,387,-87,261,54,0.397049,-0.0872664,0,-1.5,3.94113e+12,0,0,0,-0.378632,-0.0205486,0,0,0,0,-0.0426052,0.00737799,18753,-0.378164,-0.0206298,-0.0426052,0.00737799,13820,0,0,0,0,0.2,1
13850,-3.11491e-12,1.9988e-38,-1.51267e-06,-3.18057e-12,1.99868e-38,0,-1.06634e-13,0,0,-3.48853,-0.0234046,0.50036,0,0,0,0,0,-0.379292,-0.0234046,256,-66,256,-66,387,-87,261,54,0.397049,-0.0872664,0,-1.5,3.94113e+12,0,0,0,-0.379527,-0.0203937,0,0,0,0,-0.0426052,0.00737799,18753,-0.378164,-0.0206298,-0.0426052,0.00737799,13820,0,0,0,0,0.2,1
13869,-3.11491e-12,1.9988e-38,-1.51267e-06,-3.18057e-12,1.99868e-38,0,-1.06634e-13,0,0,-3.50806,-0.0302073,0.514339,0,0,0,0,0,-0.406039,-0.0302073,259,-67,259,-67,387,-87,261,54,0.397215,-0.0872664,0,-1.5,3.94113e+12,0,0,0,-0.379742,-0.0208596,0,0,0,0,-0.0390655,0.00696293,18330,-0.379,-0.0209919,-0.0390655,0.00696293,13856,0,0,0,0,0.2,1
13891,-3.11491e-12,1.9988e-38,-1.51267e-06,-3.18057e-12,1.99868e-38,0,-1.06634e-13,0,0,-3.4325,-0.0172719,0.490324,0,0,0,0,0,-0.302523,-0.0172719,254,-80,254,-80,385,-85,261,54,0.397183,-0.0872664,0,-1.5,3.94113e+12,0,0,0,-0.377179,-0.0204737,0,0,0,0,-0.0401616,0.0070423,18765,-0.376858,-0.0205301,-0.0401616,0.0070423,13886,0,0,0,0,0.2,1
13912,-3.11491e-12,1.9988e-38,-1.51267e-06,-3.18057e-12,1.99868e-38,0,-1.06634e-13,0,0,-3.4325,-0.0172719,0.490324,0,0,0,0,0,-0.302523,-0.0172719,254,-80,254,-80,385,-85,261,54,0.397183,-0.0872664,0,-1.5,3.94113e+12,0,0,0,-0.378023,-0.0203259,0,0,0,0,-0.0401616,0.0070423,18765,-0.376858,-0.0205301,-0.0401616,0.0070423,13886,0,0,0,0,0.2,1
13966,-3.11491e-12,1.9988e-38,-1.51267e-06,-3.18057e-12,1.99868e-38,0,-1.06635e-13,0,0,-3.41706,-0.0130154,0.480797,0,0,0,0,0,-0.281374,-0.0130154,252,-80,252,-80,385,-85,261,54,0.39682,-0.0872664,0,-1.5,3.94113e+12,0,0,0,-0.355053,-0.0185,0,0,0,0,-0.0201756,0.00795106,19043,-0.353964,-0.0189294,-0.0201756,0.00795106,13952,0,0,0,0,0.2,1
13986,-3.11491e-12,1.9988e-38,-1.51267e-06,-3.18057e-12,1.99868e-38,0,-1.06635e-13,0,0,-3.41706,-0.0130154,0.480797,0,0,0,0,0,-0.281374,-0.0130154,252,-80,252,-80,385,-85,261,54,0.39682,-0.0872664,0,-1.5,3.94113e+12,0,0,0,-0.355457,-0.018341,0,0,0,0,-0.0201756,0.00795106,19043,-0.353964,-0.0189294,-0.0201756,0.00795106,13952,0,0,0,0,0.2,1
14007,-3.11491e-12,1.9988e-38,-1.51267e-06,-3.18057e-12,1.99868e-38,0,-1.06635e-13,0,0,-3.41706,-0.0130154,0.480797,0,0,0,0,0,-0.281374,-0.0130154,252,-80,252,-80,385,-85,261,54,0.39682,-0.0872664,0,-1.5,3.94113e+12,0,0,0,-0.35588,-0.0181741,0,0,0,0,-0.0201756,0.00795106,19043,-0.353964,-0.0189294,-0.0201756,0.00795106,13952,0,0,0,0,0.2,1
14030,-3.11491e-12,1.9988e-38,-1.51267e-06,-3.18057e-12,1.99868e-38,0,-1.06635e-13,0,0,-3.41706,-0.0130154,0.480797,0,0,0,0,0,-0.281374,-0.0130154,252,-80,252,-80,385,-85,261,54,0.396506,-0.0788232,0,-1.5,3.94113e+12,0,0,0,-0.322276,-0.0167387,0,0,0,0,0.0029419,0.00873412,19043,-0.322312,-0.0168435,0.0029419,0.00873412,14021,0,0,0,0,0.2,1
14047,-3.11491e-12,1.9988e-38,-1.51267e-06,-3.18057e-12,1.99868e-38,0,-1.06636e-13,0,0,-3.41706,-0.0130154,0.480797,0,0,0,0,0,-0.281374,-0.0130154,252,-80,252,-80,385,-85,261,54,0.396506,-0.0788232,0,-1.5,3.94113e+12,0,0,0,-0.322226,-0.0165902,0,0,0,0,0.0029419,0.00873412,19043,-0.322312,-0.0168435,0.0029419,0.00873412,14021,0,0,0,0,0.2,1
14095,-3.11491e-12,1.9988e-38,-1.51267e-06,-3.18057e-12,1.99868e-38,0,-1.06636e-13,0,0,-3.48467,-0.0181561,0.504249,0,0,0,0,0,-0.373995,-0.0181561,254,-71,254,-71,385,-85,262,54,0.397227,-0.0862874,0,-1.5,3.94113e+12,0,0,0,-0.350458,-0.0175327,0,0,0,0,-0.0157184,0.00693161,18765,-0.349703,-0.0178654,-0.0157184,0.00693161,14081,0,0,0,0,0.2,1
14138,-3.11491e-12,1.9988e-38,-1.51267e-06,-3.18057e-12,1.99868e-38,0,-1.06636e-13,0,0,-3.49342,-0.0203582,0.50967,0,0,0,0,0,-0.385981,-0.0203582,256,-71,256,-71,385,-85,261,54,0.39767,-0.0872664,0,-1.5,3.94113e+12,0,0,0,-0.370752,-0.0179525,0,0,0,0,-0.0271473,0.00582502,18487,-0.369612,-0.0181972,-0.0271473,0.00582502,14124,0,0,0,0,0.2,1
14180,-3.11491e-12,1.9988e-38,-1.51267e-06,-3.18057e-12,1.99868e-38,0,-1.06636e-13,0,0,-3.48467,-0.0181561,0.504249,0,0,0,0,0,-0.373995,-0.0181561,254,-71,254,-71,385,-85,262,54,0.397562,-0.0872664,0,-1.5,3.94113e+12,0,0,0,-0.37586,-0.0177863,0,0,0,0,-0.028205,0.00609432,18765,-0.374647,-0.0180484,-0.028205,0.00609432,14166,0,0,0,0,0.2,1
14202,-3.11491e-12,1.9988e-38,-1.51267e-06,-3.18057e-12,1.99868e-38,0,-1.06637e-13,0,0,-3.48467,-0.0181561,0.504249,0,0,0,0,0,-0.373995,-0.0181561,254,-71,254,-71,385,-85,262,54,0.397562,-0.0872664,0,-1.5,3.94113e+12,0,0,0,-0.376452,-0.0176584,0,0,0,0,-0.028205,0.00609432,18765,-0.374647,-0.0180484,-0.028205,0.00609432,14166,0,0,0,0,0.2,1
14216,-3.11491e-12,1.9988e-38,-1.51267e-06,-3.18057e-12,1.99868e-38,0,-1.06637e-13,0,0,-3.48467,-0.0181561,0.504249,0,0,0,0,0,-0.373995,-0.0181561,254,-71,254,-71,385,-85,262,54,0.397562,-0.0872664,0,-1.5,3.94113e+12,0,0,0,-0.376847,-0.0175731,0,0,0,0,-0.028205,0.00609432,18765,-0.374647,-0.0180484,-0.028205,0.00609432,14166,0,0,0,0,0.2,1
14238,-3.11491e-12,1.9988e-38,-1.51267e-06,-3.18057e-12,1.99868e-38,0,-1.06637e-13,0,0,-3.4133,-0.0154394,0.482339,0,0,0,0,0,-0.276225,-0.0154394,252,-82,252,-82,385,-85,262,54,0.397499,-0.0872664,0,-1.5,3.94113e+12,0,0,0,-0.371668,-0.0170031,0,0,0,0,-0.0251934,0.00625334,19043,-0.371114,-0.0171407,-0.0251934,0.00625334,14224,0,0,0,0,0.2,1
14259,-3.11491e-12,1.9988e-38,-1.51267e-06,-3.18057e-12,1.99868e-38,0,-1.06638e-13,0,0,-3.4133,-0.0154394,0.482339,0,0,0,0,0,-0.276225,-0.0154394,252,-82,252,-82,385,-85,262,54,0.397499,-0.0872664,0,-1.5,3.94113e+12,0,0,0,-0.372222,-0.0168656,0,0,0,0,-0.0251934,0.00625334,19043,-0.371114,-0.0171407,-0.0251934,0.00625334,14224,0,0,0,0,0.2,1
14276,-3.11491e-12,1.9988e-38,-1.51267e-06,-3.18057e-12,1.99868e-38,0,-1.06638e-13,0,0,-3.4133,-0.0154394,0.482339,0,0,0,0,0,-0.276225,-0.0154394,252,-82,252,-82,385,-85,262,54,0.397499,-0.0872664,0,-1.5,3.94113e+12,0,0,0,-0.37265,-0.0167593,0,0,0,0,-0.0251934,0.00625334,19043,-0.371114,-0.0171407,-0.0251934,0.00625334,14224,0,0,0,0,0.2,1
14301,-3.11491e-12,1.9988e-38,-1.51267e-06,-3.18057e-12,1.99868e-38,0,-1.06638e-13,0,0,-3.48467,-0.0181561,0.504249,0,0,0,0,0,-0.373995,-0.0181561,254,-71,254,-71,385,-85,262,54,0.397838,-0.0872664,0,-1.5,3.94113e+12,0,0,0,-0.376534,-0.0176107,0,0,0,0,-0.0288937,0.00540621,18765,-0.375812,-0.0177459,-0.0288937,0.00540621,14288,0,0,0,0,0.2,1
14322,-3.11491e-12,1.9988e-38,-1.51267e-06,-3.18057e-12,1.99868e-38,0,-1.06638e-13,0,0,-3.48467,-0.0181561,0.504249,0,0,0,0,0,-0.373995,-0.0181561,254,-71,254,-71,385,-85,262,54,0.397838,-0.0872664,0,-1.5,3.94113e+12,0,0,0,-0.377141,-0.0174972,0,0,0,0,-0.0288937,0.00540621,18765,-0.375812,-0.0177459,-0.0288937,0.00540621,14288,0,0,0,0,0.2,1
14344,-3.11491e-12,1.9988e-38,-1.51267e-06,-3.18057e-12,1.99868e-38,0,-1.06639e-13,0,0,-3.42386,-0.0151477,0.484927,0,0,0,0,0,-0.290694,-0.0151477,252,-80,252,-80,385,-85,262,54,0.39753,-0.0872664,0,-1.5,3.94113e+12,0,0,0,-0.368757,-0.0164127,0,0,0,0,-0.0236382,0.00617582,19043,-0.368237,-0.0165486,-0.0236382,0.00617582,14330,0,0,0,0,0.2,1
14366,-3.11491e-12,1.9988e-38,-1.51267e-06,-3.18057e-12,1.99868e-38,0,-1.06639e-13,0,0,-3.48467,-0.0181561,0.504249,0,0,0,0,0,-0.373995,-0.0181561,254,-71,254,-71,385,-85,262,54,0.397751,-0.0872664,0,-1.5,3.94113e+12,0,0,0,-0.374229,-0.016871,0,0,0,0,-0.0271927,0.00562219,18765,-0.373631,-0.0169947,-0.0271927,0.00562219,14353,0,0,0,0,0.2,1
14394,-3.11491e-12,1.9988e-38,-1.51267e-06,-3.18057e-12,1.99868e-38,0,-1.06639e-13,0,0,-3.41706,-0.0130154,0.480797,0,0,0,0,0,-0.281374,-0.0130154,252,-80,252,-80,385,-85,261,54,0.397553,-0.0872664,0,-1.5,3.94113e+12,0,0,0,-0.368202,-0.0160781,0,0,0,0,-0.0220808,0.00611806,19043,-0.368047,-0.0161209,-0.0220808,0.00611806,14389,0,0,0,0,0.2,1
14411,-3.11491e-12,1.9988e-38,-1.51267e-06,-3.18057e-12,1.99868e-38,0,-1.06639e-13,0,0,-3.41706,-0.0130154,0.480797,0,0,0,0,0,-0.281374,-0.0130154,252,-80,252,-80,385,-85,261,54,0.397553,-0.0872664,0,-1.5,3.94113e+12,0,0,0,-0.368577,-0.0159741,0,0,0,0,-0.0220808,0.00611806,19043,-0.368047,-0.0161209,-0.0220808,0.00611806,14389,0,0,0,0,0.2,1
14428,-3.11491e-12,1.9988e-38,-1.51267e-06,-3.18057e-12,1.99868e-38,0,-1.0664e-13,0,0,-3.41706,-0.0130154,0.480797,0,0,0,0,0,-0.281374,-0.0130154,252,-80,252,-80,385,-85,261,54,0.397553,-0.0872664,0,-1.5,3.94113e+12,0,0,0,-0.368953,-0.0158701,0,0,0,0,-0.0220808,0.00611806,19043,-0.368047,-0.0161209,-0.0220808,0.00611806,14389,0,0,0,0,0.2,1
14450,-3.11491e-12,1.9988e-38,-1.51267e-06,-3.18057e-12,1.99868e-38,0,-1.0664e-13,0,0,-3.41706,-0.0130154,0.480797,0,0,0,0,0,-0.281374,-0.0130154,252,-80,252,-80,385,-85,261,54,0.397553,-0.0872664,0,-1.5,3.94113e+12,0,0,0,-0.369416,-0.0157416,0,0,0,0,-0.0220808,0.00611806,19043,-0.368047,-0.0161209,-0.0220808,0.00611806,14389,0,0,0,0,0.2,1
14469,-3.11491e-12,1.9988e-38,-1.51267e-06,-3.18057e-12,1.99868e-38,0,-1.0664e-13,0,0,-3.41706,-0.0130154,0.480797,0,0,0,0,0,-0.281374,-0.0130154,252,-80,252,-80,385,-85,261,54,0.397651,-0.0790277,0,-1.5,3.94113e+12,0,0,0,-0.323509,-0.0155774,0,0,0,0,0.00243077,0.00587345,19043,-0.323555,-0.015689,0.00243077,0.00587345,14455,0,0,0,0,0.2,1
14490,-3.11491e-12,1.9988e-38,-1.51267e-06,-3.18057e-12,1.99868e-38,0,-1.06641e-13,0,0,-3.42386,-0.0151477,0.484927,0,0,0,0,0,-0.290694,-0.0151477,252,-80,252,-80,385,-85,262,54,0.397642,-0.070771,0,-1.5,3.94113e+12,0,0,0,-0.292428,-0.0152834,0,0,0,0,0.0230695,0.00589507,19043,-0.292589,-0.0153247,0.0230695,0.00589507,14485,0,0,0,0,0.2,1
14511,-3.11491e-12,1.9988e-38,-1.51267e-06,-3.18057e-12,1.99868e-38,0,-1.06641e-13,0,0,-3.42386,-0.0151477,0.484927,0,0,0,0,0,-0.290694,-0.0151477,252,-80,252,-80,385,-85,262,54,0.397642,-0.0707722,0,-1.5,3.94113e+12,0,0,0,-0.291943,-0.0151596,0,0,0,0,0.0230695,0.00589507,19043,-0.292589,-0.0153247,0.0230695,0.00589507,14485,0,0,0,0,0.2,1
14533,-3.11491e-12,1.9988e-38,-1.51267e-06,-3.18057e-12,1.99868e-38,0,-1.06641e-13,0,0,-3.42386,-0.0151477,0.484927,0,0,0,0,0,-0.290694,-0.0151477,252,-80,252,-80,385,-85,262,54,0.397562,-0.0711748,0,-1.5,3.94113e+12,0,0,0,-0.297123,-0.0148213,0,0,0,0,0.0220631,0.00609593,19043,-0.29741,-0.0149005,0.0220631,0.00609593,14522,0,0,0,0,0.2,1
14552,-3.11491e-12,1.9988e-38,-1.51267e-06,-3.18057e-12,1.99868e-38,0,-1.06641e-13,0,0,-3.42386,-0.0151477,0.484927,0,0,0,0,0,-0.290694,-0.0151477,252,-80,252,-80,385,-85,262,54,0.397562,-0.0711748,0,-1.5,3.94113e+12,0,0,0,-0.296704,-0.0147055,0,0,0,0,0.0220631,0.00609593,19043,-0.29741,-0.0149005,0.0220631,0.00609593,14522,0,0,0,0,0.2,1
14626,-3.11491e-12,1.9988e-38,-1.51267e-06,-3.18057e-12,1.99868e-38,0,-1.06642e-13,0,0,-3.42386,-0.0151477,0.484927,0,0,0,0,0,-0.290694,-0.0151477,252,-80,252,-80,385,-85,262,54,0.397377,-0.069893,0,-1.5,3.94113e+12,0,0,0,-0.289137,-0.0143637,0,0,0,0,0.0252675,0.00655742,19043,-0.291007,-0.0148489,0.0252675,0.00655742,14613,0,0,0,0,0.2,1
14643,-3.11491e-12,1.9988e-38,-1.51267e-06,-3.18057e-12,1.99868e-38,0,-1.06642e-13,0,0,-3.42386,-0.0151477,0.484927,0,0,0,0,0,-0.290694,-0.0151477,252,-80,252,-80,385,-85,262,54,0.397377,-0.069893,0,-1.5,3.94113e+12,0,0,0,-0.288708,-0.0142522,0,0,0,0,0.0252675,0.00655742,19043,-0.291007,-0.0148489,0.0252675,0.00655742,14613,0,0,0,0,0.2,1
14660,-3.11491e-12,1.9988e-38,-1.51267e-06,-3.18057e-12,1.99868e-38,0,-1.06642e-13,0,0,-3.42386,-0.0151477,0.484927,0,0,0,0,0,-0.290694,-0.0151477,252,-80,252,-80,385,-85,262,54,0.397377,-0.069893,0,-1.5,3.94113e+12,0,0,0,-0.288278,-0.0141408,0,0,0,0,0.0252675,0.00655742,19043,-0.291007,-0.0148489,0.0252675,0.00655742,14613,0,0,0,0,0.2,1
14684,-3.11491e-12,1.9988e-38,-1.51267e-06,-3.18057e-12,1.99868e-38,0,-1.06642e-13,0,0,-3.42386,-0.0151477,0.484927,0,0,0,0,0,-0.290694,-0.0151477,252,-80,252,-80,385,-85,262,54,0.397377,-0.069893,0,-1.5,3.94113e+12,0,0,0,-0.287672,-0.0139834,0,0,0,0,0.0252675,0.00655742,19043,-0.291007,-0.0148489,0.0252675,0.00655742,14613,0,0,0,0,0.2,1
14701,-3.11491e-12,1.9988e-38,-1.51267e-06,-3.18057e-12,1.99868e-38,0,-1.06643e-13,0,0,-3.42386,-0.0151477,0.484927,0,0,0,0,0,-0.290694,-0.0151477,252,-80,252,-80,385,-85,262,54,0.397377,-0.069893,0,-1.5,3.94113e+12,0,0,0,-0.287242,-0.0138719,0,0,0,0,0.0252675,0.00655742,19043,-0.291007,-0.0148489,0.0252675,0.00655742,14613,0,0,0,0,0.2,1
14718,-3.11491e-12,1.9988e-38,-1.51267e-06,-3.18057e-12,1.99868e-38,0,-1.06643e-13,0,0,-3.42386,-0.0151477,0.484927,0,0,0,0,0,-0.290694,-0.0151477,252,-80,252,-80,385,-85,262,54,0.397377,-0.069893,0,-1.5,3.94113e+12,0,0,0,-0.286813,-0.0137604,0,0,0,0,0.0252675,0.00655742,19043,-0.291007,-0.0148489,0.0252675,0.00655742,14613,0,0,0,0,0.2,1
14742,-3.11491e-12,1.9988e-38,-1.51267e-06,-3.18057e-12,1.99868e-38,0,-1.06643e-13,0,0,-3.41706,-0.0130154,0.480797,0,0,0,0,0,-0.281374,-0.0130154,252,-80,252,-80,385,-85,261,54,0.397074,-0.0692647,0,-1.5,3.94113e+12,0,0,0,-0.284816,-0.0133798,0,0,0,0,0.0268382,0.00731613,19043,-0.28546,-0.0135554,0.0268382,0.00731613,14729,0,0,0,0,0.2,1
14761,-3.11491e-12,1.9988e-38,-1.51267e-06,-3.18057e-12,1.99868e-38,0,-1.06644e-13,0,0,-3.41706,-0.0130154,0.480797,0,0,0,0,0,-0.281374,-0.0130154,252,-80,252,-80,385,-85,261,54,0.397021,-0.0682445,0,-1.5,3.94113e+12,0,0,0,-0.28203,-0.0128839,0,0,0,0,0.0293889,0.00744819,19043,-0.282294,-0.0129509,0.0293889,0.00744819,14755,0,0,0,0,0.2,1
14778,-3.11491e-12,1.9988e-38,-1.51267e-06,-3.18057e-12,1.99868e-38,0,-1.06644e-13,0,0,-3.41706,-0.0130154,0.480797,0,0,0,0,0,-0.281374,-0.0130154,252,-80,252,-80,385,-85,261,54,0.397021,-0.0682445,0,-1.5,3.94113e+12,0,0,0,-0.28153,-0.0127573,0,0,0,0,0.0293889,0.00744819,19043,-0.282294,-0.0129509,0.0293889,0.00744819,14755,0,0,0,0,0.2,1
14805,-3.11491e-12,1.9988e-38,-1.51267e-06,-3.18057e-12,1.99868e-38,0,-1.06644e-13,0,0,-3.41706,-0.0130154,0.480797,0,0,0,0,0,-0.281374,-0.0130154,252,-80,252,-80,385,-85,261,54,0.396927,-0.0698362,0,-1.5,3.94113e+12,0,0,0,-0.279874,-0.012624,0,0,0,0,0.0254096,0.00768223,19043,-0.28056,-0.0128314,0.0254096,0.00768223,14791,0,0,0,0,0.2,1
14827,-3.11491e-12,1.9988e-38,-1.51267e-06,-3.18057e-12,1.99868e-38,0,-1.06644e-13,0,0,-3.45678,-0.0260248,0.507228,0,0,0,0,0,-0.335788,-0.0260248,257,-81,257,-81,385,-85,262,54,0.397006,-0.0692613,0,-1.5,3.94113e+12,0,0,0,-0.280564,-0.012523,0,0,0,0,0.0268467,0.00748573,18348,-0.280805,-0.0125904,0.0268467,0.00748573,14820,0,0,0,0,0.2,1
14846,-3.11491e-12,1.9988e-38,-1.51267e-06,-3.18057e-12,1.99868e-38,0,-1.06645e-13,0,0,-3.45678,-0.0260248,0.507228,0,0,0,0,0,-0.335788,-0.0260248,257,-81,257,-81,385,-85,262,54,0.397006,-0.0692613,0,-1.5,3.94113e+12,0,0,0,-0.280054,-0.0123808,0,0,0,0,0.0268467,0.00748573,18348,-0.280805,-0.0125904,0.0268467,0.00748573,14820,0,0,0,0,0.2,1
14868,-3.11491e-12,1.9988e-38,-1.51267e-06,-3.18057e-12,1.99868e-38,0,-1.06645e-13,0,0,-3.45678,-0.0260248,0.507228,0,0,0,0,0,-0.335788,-0.0260248,257,-81,257,-81,385,-85,262,54,0.397006,-0.0692613,0,-1.5,3.94113e+12,0,0,0,-0.279463,-0.0122161,0,0,0,0,0.0268467,0.00748573,18348,-0.280805,-0.0125904,0.0268467,0.00748573,14820,0,0,0,0,0.2,1
