timestamp,A_x,A_y,A_z,P,Q,R,Phi,Theta,Psi,poseX,poseY,poseZ,state_X,state_Y,state_Z,state_VzB,state_Bx,state_By,state_Bz,p1_x,p1_y,p2_x,p2_y,p3_x,p3_y,p4_x,p4_y,roll,pitch,yaw,alt,targetHeading,highLevelState,lowLevelState,gateNumber,filtered_x,filtered_y,x_OT,y_OT,vx_OT,vy_OT,filtered_vx,filtered_vygateArearansac_corr_x,ransac_corr_y,ransac_corr_vx,ransac_corr_vy,detectionTimeStamppTermX,dTermX,pTermY,dTermY,vxcmd,vycmd
8170,0,0,0,0,0,0,0,0,0,0,0,0,0,0,0,0,0,0,0,0,0,0,0,0,0,0,0,0.4,-0.08,0,-1.5,3.94113e+12,0,0,0,0,0,0,0,0,0,0,0,1.9603e-19,0,0,0,0,0,0,0,0,0,0.2,1
9151,-3.11491e-12,2.65566e-38,-1.52897e-06,-3.18057e-12,2.65542e-38,0,-1.06589e-13,0,0,0,0,0,0,0,0,0,0,0,0,0,0,0,0,0,0,0,0,0.4,-0.08,0,-1.5,3.94113e+12,0,0,0,0,0,0,0,0,0,0,0,1.9603e-19,0,0,0,0,0,0,0,0,0,0.2,1
9192,-3.11491e-12,2.65566e-38,-1.52897e-06,-3.18057e-12,2.65542e-38,0,-1.0659e-13,0,0,0,0,0,0,0,0,0,0,0,0,0,0,0,0,0,0,0,0,0.4,-0.08,0,-1.5,3.94113e+12,0,0,0,0,0,0,0,0,0,0,0,1.9603e-19,0,0,0,0,0,0,0,0,0,0.2,1
9420,-3.11491e-12,2.65566e-38,-1.52897e-06,-3.18057e-12,2.65542e-38,0,-1.0659e-13,0,0,0,0,0,0,0,0,0,0,0,0,0,0,0,0,0,0,0,0,0.4,-0.08,0,-1.5,3.94113e+12,0,0,0,0,0,0,0,0,0,0,0,1.9603e-19,0,0,0,0,0,0,0,0,0,0.2,1
9483,-3.11491e-12,2.65566e-38,-1.52897e-06,-3.18057e-12,2.65542e-38,0,-1.0659e-13,0,0,0,0,0,0,0,0,0,0,0,0,0,0,0,0,0,0,0,0,0.4,-0.08,0,-1.5,3.94113e+12,0,0,0,0,0,0,0,0,0,0,0,1.9603e-19,0,0,0,0,0,0,0,0,0,0.2,1
9640,-3.11491e-12,2.65566e-38,-1.52897e-06,-3.18057e-12,2.65542e-38,0,-1.0659e-13,0,0,0,0,0,0,0,0,0,0,0,0,0,0,0,0,0,0,0,0,0.4,-0.08,0,-1.5,3.94113e+12,0,0,0,0,0,0,0,0,0,0,0,1.9603e-19,0,0,0,0,0,0,0,0,0,0.2,1
9688,-3.11491e-12,2.65566e-38,-1.52897e-06,-3.18057e-12,2.65542e-38,0,-1.06591e-13,0,0,0,0,0,0,0,0,0,0,0,0,0,0,0,0,0,0,0,0,0.4,-0.08,0,-1.5,3.94113e+12,0,0,0,0,0,0,0,0,0,0,0,1.9603e-19,0,0,0,0,0,0,0,0,0,0.2,1
9790,-3.11491e-12,2.65566e-38,-1.52897e-06,-3.18057e-12,2.65542e-38,0,-1.06591e-13,0,0,0,0,0,0,0,0,0,0,0,0,0,0,0,0,0,0,0,0,0.4,-0.08,0,-1.5,3.94113e+12,0,0,0,0,0,0,0,0,0,0,0,1.9603e-19,0,0,0,0,0,0,0,0,0,0.2,1
9851,-3.11491e-12,2.65566e-38,-1.52897e-06,-3.18057e-12,2.65542e-38,0,-1.06591e-13,0,0,0,0,0,0,0,0,0,0,0,0,0,0,0,0,0,0,0,0,0.4,-0.08,0,-1.5,3.94113e+12,0,0,0,0,0,0,0,0,0,0,0,1.9603e-19,0,0,0,0,0,0,0,0,0,0.2,1
9892,-3.11491e-12,2.65566e-38,-1.52897e-06,-3.18057e-12,2.65542e-38,0,-1.06591e-13,0,0,0,0,0,0,0,0,0,0,4.4,0,-1368084064,-306952338,-1368084064,-306952338,923307496,-1368084064,-1368084016,-1368084016,0.4,-0.08,0,-1.5,3.94113e+12,0,0,0,0,0,0,0,0,0,0,0,0,0,0,0,0,9884,0,0,0,0,0.2,1
9910,-3.11491e-12,2.65566e-38,-1.52897e-06,-3.18057e-12,2.65542e-38,0,-1.06592e-13,0,0,-3.49711,-0.174172,0.429223,0,0,0,0,0,-0.391037,-0.174172,272,-57,272,-57,402,-77,281,66,0.4,-0.08,0,-1.5,3.94113e+12,0,0,0,0,0,0,0,0,0,0,0,19591,0,0,0,0,9909,0,0,0,0,0.2,1
9930,-3.11491e-12,2.65566e-38,-1.52897e-06,-3.18057e-12,2.65542e-38,0,-1.06592e-13,0,0,-3.49711,-0.174172,0.429223,0,0,0,0,0,-0.391037,-0.174172,272,-57,272,-57,402,-77,281,66,0.4,-0.08,0,-1.5,3.94113e+12,0,0,0,0,0,0,0,0,0,0,0,19591,0,0,0,0,9909,0,0,0,0,0.2,1
10040,-3.11491e-12,2.65566e-38,-1.52897e-06,-3.18057e-12,2.65542e-38,0,-1.06592e-13,0,0,-3.46784,-0.177293,0.41981,0,0,0,0,0,-0.350946,-0.177293,273,-60,273,-60,403,-79,281,66,0.4,-0.08,0,-1.5,3.94113e+12,0,0,0,0,0,0,0,0,0,0,0,19720,0,0,0,0,10032,0,0,0,0,0.2,1
10138,-3.11491e-12,2.65566e-38,-1.52897e-06,-3.18057e-12,2.65542e-38,0,-1.06593e-13,0,0,-3.52604,-0.19796,0.460823,0,0,0,0,0,-0.430676,-0.19796,279,-60,279,-60,406,-79,281,63,0.436332,-0.0872664,0,-1.5,3.94113e+12,0,0,0,-0.459586,-0.21531,0,0,0,0,-0.298037,-0.178863,18318,-0.430676,-0.19796,-0.298037,-0.178863,10122,0,0,0,0,0.2,1
10186,-3.11492e-12,2.65119e-38,2.65579e-38,-3.18057e-12,2.65542e-38,0,-1.06593e-13,0,0,-3.52604,-0.19796,0.460823,0,0,0,0,0,-0.430676,-0.19796,279,-60,279,-60,406,-79,281,63,0.436332,-0.0872664,0,-1.5,3.94113e+12,0,0,0,-0.474189,-0.224074,0,0,0,0,-0.298037,-0.178863,18318,-0.430676,-0.19796,-0.298037,-0.178863,10122,0,0,0,0,0.2,1
10203,-3.11491e-12,2.65566e-38,-1.52897e-06,-3.18057e-12,2.65542e-38,0,-1.06593e-13,0,0,-3.52604,-0.19796,0.460823,0,0,0,0,0,-0.430676,-0.19796,279,-60,279,-60,406,-79,281,63,0.436332,-0.0872664,0,-1.5,3.94113e+12,0,0,0,-0.479256,-0.227115,0,0,0,0,-0.298037,-0.178863,18318,-0.430676,-0.19796,-0.298037,-0.178863,10122,0,0,0,0,0.2,1
10316,-3.11491e-12,2.65566e-38,-1.52897e-06,-3.18057e-12,2.65542e-38,0,-1.06593e-13,0,0,-3.53249,-0.175021,0.444057,0,0,0,0,0,-0.439512,-0.175021,272,-57,272,-57,402,-74,281,63,0.414872,-0.0872664,0,-1.5,3.94113e+12,0,0,0,-0.512935,-0.191644,0,0,0,0,-0.298036,-0.0371808,18632,-0.510252,-0.19131,-0.298036,-0.0371808,10309,0,0,0,0,0.2,1
10371,-3.11491e-12,2.65566e-38,-1.52897e-06,-3.18057e-12,2.65542e-38,0,-1.06594e-13,0,0,-3.53514,-0.170627,0.445263,0,0,0,0,0,-0.443148,-0.170627,272,-57,272,-57,401,-75,281,64,0.39759,-0.0872664,0,-1.5,3.94113e+12,0,0,0,-0.450155,-0.174636,0,0,0,0,-0.127409,0.00602455,18765,-0.443148,-0.174967,-0.127409,0.00602455,10360,0,0,0,0,0.2,1
10408,-3.11491e-12,2.65566e-38,-1.52897e-06,-3.18057e-12,2.65542e-38,0,-1.06594e-13,0,0,-3.53514,-0.170627,0.445263,0,0,0,0,0,-0.443148,-0.170627,272,-57,272,-57,401,-75,281,64,0.39759,-0.0872664,0,-1.5,3.94113e+12,0,0,0,-0.454869,-0.174413,0,0,0,0,-0.127409,0.00602455,18765,-0.443148,-0.174967,-0.127409,0.00602455,10360,0,0,0,0,0.2,1
10433,-3.11491e-12,2.65566e-38,-1.52897e-06,-3.18057e-12,2.65542e-38,0,-1.06594e-13,0,0,-3.43668,-0.170177,0.412474,0,0,0,0,0,-0.308248,-0.170177,273,-57,273,-57,403,-88,281,64,0.394046,-0.0872664,0,-1.5,3.94113e+12,0,0,0,-0.454782,-0.169805,0,0,0,0,-0.121188,0.014886,20368,-0.451752,-0.170177,-0.121188,0.014886,10421,0,0,0,0,0.2,1
10450,-3.11491e-12,2.65566e-38,-1.52897e-06,-3.18057e-12,2.65542e-38,0,-1.06594e-13,0,0,-3.43668,-0.170177,0.412474,0,0,0,0,0,-0.308248,-0.170177,273,-57,273,-57,403,-88,281,64,0.394046,-0.0872664,0,-1.5,3.94113e+12,0,0,0,-0.456842,-0.169552,0,0,0,0,-0.121188,0.014886,20368,-0.451752,-0.170177,-0.121188,0.014886,10421,0,0,0,0,0.2,1
10467,-3.11491e-12,2.65566e-38,-1.52897e-06,-3.18057e-12,2.65542e-38,0,-1.06595e-13,0,0,-3.43668,-0.170177,0.412474,0,0,0,0,0,-0.308248,-0.170177,273,-57,273,-57,403,-88,281,64,0.394046,-0.0872664,0,-1.5,3.94113e+12,0,0,0,-0.458781,-0.169314,0,0,0,0,-0.121188,0.014886,20368,-0.451752,-0.170177,-0.121188,0.014886,10421,0,0,0,0,0.2,1
10491,-3.11491e-12,2.65566e-38,-1.52897e-06,-3.18057e-12,2.65542e-38,0,-1.06598e-13,0,0,-3.42294,-0.17158,0.406504,0,0,0,0,0,-0.289428,-0.17158,272,-57,272,-57,405,-88,281,63,0.395235,-0.0872664,0,-1.5,3.94113e+12,0,0,0,-0.463681,-0.17066,0,0,0,0,-0.124437,0.011912,20385,-0.46057,-0.170958,-0.124437,0.011912,10480,0,0,0,0,0.2,1
10516,-3.11491e-12,2.65566e-38,-1.52897e-06,-3.18057e-12,2.65542e-38,0,-1.06598e-13,0,0,-3.42267,-0.175757,0.406425,0,0,0,0,0,-0.289061,-0.175757,273,-57,273,-57,405,-88,281,63,0.397565,-0.012554,0,-1.5,3.94113e+12,0,0,0,-0.288587,-0.173566,0,0,0,0,0.168615,0.00608876,20385,-0.290273,-0.173626,0.168615,0.00608876,10508,0,0,0,0,0.2,1
10537,-3.11491e-12,2.65566e-38,-1.52897e-06,-3.18057e-12,2.65542e-38,0,-1.06595e-13,0,0,-3.42267,-0.175757,0.406425,0,0,0,0,0,-0.289061,-0.175757,273,-57,273,-57,405,-88,281,63,0.397565,-0.012554,0,-1.5,3.94113e+12,0,0,0,-0.285046,-0.173438,0,0,0,0,0.168615,0.00608876,20385,-0.290273,-0.173626,0.168615,0.00608876,10508,0,0,0,0,0.2,1
10572,-3.11491e-12,2.65566e-38,-1.52897e-06,-3.18057e-12,2.65542e-38,0,-1.06595e-13,0,0,-3.42267,-0.175757,0.406425,0,0,0,0,0,-0.289061,-0.175757,273,-57,273,-57,405,-88,281,63,0.397565,-0.012554,0,-1.5,3.94113e+12,0,0,0,-0.279145,-0.173225,0,0,0,0,0.168615,0.00608876,20385,-0.290273,-0.173626,0.168615,0.00608876,10508,0,0,0,0,0.2,1
10593,-3.11491e-12,2.65566e-38,-1.52897e-06,-3.18057e-12,2.65542e-38,0,-1.06596e-13,0,0,-3.51905,-0.187117,0.442095,0,0,0,0,0,-0.421103,-0.187117,274,-58,274,-58,405,-76,282,63,0.397566,-0.0781466,0,-1.5,3.94113e+12,0,0,0,-0.399469,-0.173144,0,0,0,0,0.00463345,0.00608452,18626,-0.399566,-0.173271,0.00463345,0.00608452,10581,0,0,0,0,0.2,1
10652,-3.11491e-12,2.65566e-38,-1.52897e-06,-3.18057e-12,2.65542e-38,0,-1.06596e-13,0,0,-3.53897,-0.192101,0.447336,0,0,0,0,0,-0.448385,-0.192101,276,-56,276,-56,405,-76,282,64,0.39991,-0.0872664,0,-1.5,3.94113e+12,0,0,0,-0.419185,-0.17545,0,0,0,0,-0.0399649,0.000225307,18480,-0.418705,-0.175453,-0.0399649,0.000225307,10642,0,0,0,0,0.2,1
10670,-3.11491e-12,2.65566e-38,-1.52897e-06,-3.18057e-12,2.65542e-38,0,-1.06596e-13,0,0,-3.53897,-0.192101,0.447336,0,0,0,0,0,-0.448385,-0.192101,276,-56,276,-56,405,-76,282,64,0.39991,-0.0872664,0,-1.5,3.94113e+12,0,0,0,-0.419904,-0.175446,0,0,0,0,-0.0399649,0.000225307,18480,-0.418705,-0.175453,-0.0399649,0.000225307,10642,0,0,0,0,0.2,1
10684,-3.11491e-12,2.65566e-38,-1.52897e-06,-3.18057e-12,2.65542e-38,0,-1.06596e-13,0,0,-3.53897,-0.192101,0.447336,0,0,0,0,0,-0.448385,-0.192101,276,-56,276,-56,405,-76,282,64,0.39991,-0.0872664,0,-1.5,3.94113e+12,0,0,0,-0.420464,-0.175443,0,0,0,0,-0.0399649,0.000225307,18480,-0.418705,-0.175453,-0.0399649,0.000225307,10642,0,0,0,0,0.2,1
10702,-3.11491e-12,2.65566e-38,-1.52897e-06,-3.18057e-12,2.65542e-38,0,-1.06597e-13,0,0,-3.53897,-0.192101,0.447336,0,0,0,0,0,-0.448385,-0.192101,276,-56,276,-56,405,-76,282,64,0.39991,-0.0872664,0,-1.5,3.94113e+12,0,0,0,-0.421183,-0.175439,0,0,0,0,-0.0399649,0.000225307,18480,-0.418705,-0.175453,-0.0399649,0.000225307,10642,0,0,0,0,0.2,1
10723,-3.11491e-12,2.65566e-38,-1.52897e-06,-3.18057e-12,2.65542e-38,0,-1.06598e-13,0,0,-3.52733,-0.193482,0.427578,0,0,0,0,0,-0.432439,-0.193482,276,-53,276,-53,405,-76,282,64,0.406469,-0.0872664,0,-1.5,3.94113e+12,0,0,0,-0.439095,-0.188616,0,0,0,0,-0.0594315,-0.0161731,18620,-0.437906,-0.188293,-0.0594315,-0.0161731,10711,0,0,0,0,0.2,1
10739,-3.11491e-12,2.65566e-38,-1.52897e-06,-3.18057e-12,2.65542e-38,0,-1.06597e-13,0,0,-3.52733,-0.193482,0.427578,0,0,0,0,0,-0.432439,-0.193482,276,-53,276,-53,405,-76,282,64,0.406469,-0.0872664,0,-1.5,3.94113e+12,0,0,0,-0.440105,-0.188891,0,0,0,0,-0.0594315,-0.0161731,18620,-0.437906,-0.188293,-0.0594315,-0.0161731,10711,0,0,0,0,0.2,1
10765,-3.11491e-12,2.65566e-38,-1.52897e-06,-3.18057e-12,2.65542e-38,0,-1.06597e-13,0,0,-3.50009,-0.194169,0.409427,0,0,0,0,0,-0.39513,-0.194169,275,-53,275,-53,407,-76,282,64,0.407503,-0.0872664,0,-1.5,3.94113e+12,0,0,0,-0.430812,-0.19091,0,0,0,0,-0.0349625,-0.0187587,18760,-0.429903,-0.190422,-0.0349625,-0.0187587,10752,0,0,0,0,0.2,1
10805,-3.11491e-12,2.65566e-38,-1.52897e-06,-3.18057e-12,2.65542e-38,0,-1.06599e-13,0,0,-3.52318,-0.191488,0.408155,0,0,0,0,0,-0.426761,-0.191488,275,-53,275,-53,405,-72,282,67,0.407622,-0.0872664,0,-1.5,3.94113e+12,0,0,0,-0.426287,-0.191782,0,0,0,0,-0.0349642,-0.019056,18626,-0.424889,-0.19102,-0.0349642,-0.019056,10793,0,0,0,0,0.2,1
10830,-3.11491e-12,2.65566e-38,-1.52897e-06,-3.18057e-12,2.65542e-38,0,-1.06601e-13,0,0,-3.52899,-0.191353,0.394304,0,0,0,0,0,-0.434711,-0.191353,275,-48,275,-48,405,-72,282,67,0.407094,-0.0872664,0,-1.5,3.94113e+12,0,0,0,-0.429542,-0.191941,0,0,0,0,-0.0377002,-0.0177353,18626,-0.428599,-0.191498,-0.0377002,-0.0177353,10817,0,0,0,0,0.2,1
10855,-3.11491e-12,2.65566e-38,-1.52897e-06,-3.18057e-12,2.65542e-38,0,-1.06602e-13,0,0,-3.59981,-0.20442,0.405544,0,0,0,0,0,-0.531746,-0.20442,275,-51,275,-51,406,-58,284,69,0.407788,-0.0872664,0,-1.5,3.94113e+12,0,0,0,-0.434937,-0.192616,0,0,0,0,-0.0481378,-0.0194699,17018,-0.433733,-0.19213,-0.0481378,-0.0194699,10843,0,0,0,0,0.2,1
10872,-3.11491e-12,2.65566e-38,-1.52897e-06,-3.18057e-12,2.65542e-38,0,-1.06598e-13,0,0,-3.59981,-0.20442,0.405544,0,0,0,0,0,-0.531746,-0.20442,275,-51,275,-51,406,-58,284,69,0.407788,-0.0872664,0,-1.5,3.94113e+12,0,0,0,-0.435755,-0.192947,0,0,0,0,-0.0481378,-0.0194699,17018,-0.433733,-0.19213,-0.0481378,-0.0194699,10843,0,0,0,0,0.2,1
10889,-3.11491e-12,2.65566e-38,-1.52897e-06,-3.18057e-12,2.65542e-38,0,-1.06599e-13,0,0,-3.59981,-0.20442,0.405544,0,0,0,0,0,-0.531746,-0.20442,275,-51,275,-51,406,-58,284,69,0.407788,-0.0872664,0,-1.5,3.94113e+12,0,0,0,-0.436525,-0.193259,0,0,0,0,-0.0481378,-0.0194699,17018,-0.433733,-0.19213,-0.0481378,-0.0194699,10843,0,0,0,0,0.2,1
10989,-3.11491e-12,2.65566e-38,-1.52897e-06,-3.18057e-12,2.65542e-38,0,-1.06601e-13,0,0,-3.50299,-0.249254,0.34581,0,0,0,0,0,-0.399101,-0.249254,282,-45,282,-45,409,-67,288,74,0.407816,-0.0872664,0,-1.5,3.94113e+12,0,0,0,-0.432678,-0.195389,0,0,0,0,-0.0246802,-0.0195394,19458,-0.430185,-0.193415,-0.0246802,-0.0195394,10977,0,0,0,0,0.2,1
11012,-3.11491e-12,2.65566e-38,-1.52897e-06,-3.18057e-12,2.65542e-38,0,-1.06603e-13,0,0,-3.46035,-0.254211,0.331493,0,0,0,0,0,-0.340676,-0.254211,282,-46,282,-46,412,-71,289,74,0.40959,-0.0872664,0,-1.5,3.94113e+12,0,0,0,-0.439058,-0.200459,0,0,0,0,-0.0406547,-0.0239751,20010,-0.438773,-0.200291,-0.0406547,-0.0239751,11007,0,0,0,0,0.2,1
11025,-3.11491e-12,2.65566e-38,-1.52897e-06,-3.18057e-12,2.65542e-38,0,-1.06602e-13,0,0,-3.46035,-0.254211,0.331493,0,0,0,0,0,-0.340676,-0.254211,282,-46,282,-46,412,-71,289,74,0.40959,-0.0872664,0,-1.5,3.94113e+12,0,0,0,-0.439586,-0.200771,0,0,0,0,-0.0406547,-0.0239751,20010,-0.438773,-0.200291,-0.0406547,-0.0239751,11007,0,0,0,0,0.2,1
11048,-3.11491e-12,2.65566e-38,-1.52897e-06,-3.18057e-12,2.65542e-38,0,-1.06603e-13,0,0,-3.56121,-0.284805,0.393374,0,0,0,0,0,-0.478853,-0.284805,287,-49,287,-49,414,-67,293,72,0.409154,-0.0872664,0,-1.5,3.94113e+12,0,0,0,-0.442838,-0.202033,0,0,0,0,-0.0447796,-0.0228839,18348,-0.442435,-0.201827,-0.0447796,-0.0228839,11041,0,0,0,0,0.2,1
11065,-3.11491e-12,2.65566e-38,-1.52897e-06,-3.18057e-12,2.65542e-38,0,-1.06602e-13,0,0,-3.56121,-0.284805,0.393374,0,0,0,0,0,-0.478853,-0.284805,287,-49,287,-49,414,-67,293,72,0.409154,-0.0872664,0,-1.5,3.94113e+12,0,0,0,-0.4436,-0.202422,0,0,0,0,-0.0447796,-0.0228839,18348,-0.442435,-0.201827,-0.0447796,-0.0228839,11041,0,0,0,0,0.2,1
11086,-3.11491e-12,2.65566e-38,-1.52897e-06,-3.18057e-12,2.65542e-38,0,-1.06602e-13,0,0,-3.50645,-0.305844,0.383089,0,0,0,0,0,-0.403842,-0.305844,289,-53,289,-53,417,-71,296,72,0.409206,-0.0872664,0,-1.5,3.94113e+12,0,0,0,-0.436212,-0.201912,0,0,0,0,-0.0294421,-0.023016,19162,-0.435859,-0.201636,-0.0294421,-0.023016,11076,0,0,0,0,0.2,1
11125,-3.11491e-12,2.65566e-38,-1.52897e-06,-3.18057e-12,2.65542e-38,0,-1.06603e-13,0,0,-3.50645,-0.305844,0.383089,0,0,0,0,0,-0.403842,-0.305844,289,-53,289,-53,417,-71,296,72,0.409206,-0.0872664,0,-1.5,3.94113e+12,0,0,0,-0.43736,-0.20281,0,0,0,0,-0.0294421,-0.023016,19162,-0.435859,-0.201636,-0.0294421,-0.023016,11076,0,0,0,0,0.2,1
11147,-3.11491e-12,2.65566e-38,-1.52897e-06,-3.18057e-12,2.65542e-38,0,-1.06599e-13,0,0,-3.37975,-0.313667,0.361741,0,0,0,0,0,-0.230258,-0.313667,291,-77,291,-77,422,-70,296,69,0.422575,-0.0748956,0,-1.5,3.94113e+12,0,0,0,-0.413863,-0.223571,0,0,0,0,0.0127611,-0.0564373,19272,-0.413978,-0.223063,0.0127611,-0.0564373,11140,0,0,0,0,0.2,1
11167,-3.11491e-12,2.65566e-38,-1.52897e-06,-3.18057e-12,2.65542e-38,0,-1.066e-13,0,0,-3.37975,-0.313667,0.361741,0,0,0,0,0,-0.230258,-0.313667,291,-77,291,-77,422,-70,296,69,0.422575,-0.0748956,0,-1.5,3.94113e+12,0,0,0,-0.413608,-0.2247,0,0,0,0,0.0127611,-0.0564373,19272,-0.413978,-0.223063,0.0127611,-0.0564373,11140,0,0,0,0,0.2,1
11189,-3.11491e-12,2.65566e-38,-1.52897e-06,-3.18057e-12,2.65542e-38,0,-1.066e-13,0,0,-3.37975,-0.313667,0.361741,0,0,0,0,0,-0.230258,-0.313667,291,-77,291,-77,422,-70,296,69,0.422575,-0.0748956,0,-1.5,3.94113e+12,0,0,0,-0.413327,-0.225942,0,0,0,0,0.0127611,-0.0564373,19272,-0.413978,-0.223063,0.0127611,-0.0564373,11140,0,0,0,0,0.2,1
11206,-3.11491e-12,2.65566e-38,-1.52897e-06,-3.18057e-12,2.65542e-38,0,-1.066e-13,0,0,-3.37975,-0.313667,0.361741,0,0,0,0,0,-0.230258,-0.313667,291,-77,291,-77,422,-70,296,69,0.422575,-0.0748956,0,-1.5,3.94113e+12,0,0,0,-0.41311,-0.226901,0,0,0,0,0.0127611,-0.0564373,19272,-0.413978,-0.223063,0.0127611,-0.0564373,11140,0,0,0,0,0.2,1
11223,-3.11491e-12,2.65566e-38,-1.52897e-06,-3.18057e-12,2.65542e-38,0,-1.066e-13,0,0,-3.37975,-0.313667,0.361741,0,0,0,0,0,-0.230258,-0.313667,291,-77,291,-77,422,-70,296,69,0.422575,-0.0748956,0,-1.5,3.94113e+12,0,0,0,-0.412893,-0.227861,0,0,0,0,0.0127611,-0.0564373,19272,-0.413978,-0.223063,0.0127611,-0.0564373,11140,0,0,0,0,0.2,1
11247,-3.11491e-12,2.65566e-38,-1.52897e-06,-3.18057e-12,2.65542e-38,0,-1.06601e-13,0,0,-3.37975,-0.313667,0.361741,0,0,0,0,0,-0.230258,-0.313667,291,-77,291,-77,422,-70,296,69,0.422575,-0.0748956,0,-1.5,3.94113e+12,0,0,0,-0.412587,-0.229215,0,0,0,0,0.0127611,-0.0564373,19272,-0.413978,-0.223063,0.0127611,-0.0564373,11140,0,0,0,0,0.2,1
11264,-3.11491e-12,2.65566e-38,-1.52897e-06,-3.18057e-12,2.65542e-38,0,-1.06604e-13,0,0,-3.37975,-0.313667,0.361741,0,0,0,0,0,-0.230258,-0.313667,291,-77,291,-77,422,-70,296,69,0.422575,-0.0748956,0,-1.5,3.94113e+12,0,0,0,-0.41237,-0.230175,0,0,0,0,0.0127611,-0.0564373,19272,-0.413978,-0.223063,0.0127611,-0.0564373,11140,0,0,0,0,0.2,1
11278,-3.11491e-12,2.65566e-38,-1.52897e-06,-3.18057e-12,2.65542e-38,0,-1.06604e-13,0,0,-3.37975,-0.313667,0.361741,0,0,0,0,0,-0.230258,-0.313667,291,-77,291,-77,422,-70,296,69,0.422575,-0.0748956,0,-1.5,3.94113e+12,0,0,0,-0.412192,-0.230965,0,0,0,0,0.0127611,-0.0564373,19272,-0.413978,-0.223063,0.0127611,-0.0564373,11140,0,0,0,0,0.2,1
11312,-3.11491e-12,2.65566e-38,-1.52897e-06,-3.18057e-12,2.65542e-38,0,-1.06604e-13,0,0,-3.37975,-0.313667,0.361741,0,0,0,0,0,-0.230258,-0.313667,291,-77,291,-77,422,-70,296,69,0.422575,-0.0748956,0,-1.5,3.94113e+12,0,0,0,-0.411758,-0.232884,0,0,0,0,0.0127611,-0.0564373,19272,-0.413978,-0.223063,0.0127611,-0.0564373,11140,0,0,0,0,0.2,1
11332,-3.11491e-12,2.65566e-38,-1.52897e-06,-3.18057e-12,2.65542e-38,0,-1.06604e-13,0,0,-3.37975,-0.313667,0.361741,0,0,0,0,0,-0.230258,-0.313667,291,-77,291,-77,422,-70,296,69,0.422575,-0.0748956,0,-1.5,3.94113e+12,0,0,0,-0.411502,-0.234012,0,0,0,0,0.0127611,-0.0564373,19272,-0.413978,-0.223063,0.0127611,-0.0564373,11140,0,0,0,0,0.2,1
11367,-3.11491e-12,2.65566e-38,-1.52897e-06,-3.18057e-12,2.65542e-38,0,-1.06605e-13,0,0,-3.37975,-0.313667,0.361741,0,0,0,0,0,-0.230258,-0.313667,291,-77,291,-77,422,-70,296,69,0.422575,-0.0748956,0,-1.5,3.94113e+12,0,0,0,-0.411056,-0.235988,0,0,0,0,0.0127611,-0.0564373,19272,-0.413978,-0.223063,0.0127611,-0.0564373,11140,0,0,0,0,0.2,1
11389,-3.11491e-12,2.65566e-38,-1.52897e-06,-3.18057e-12,2.65542e-38,0,-1.06605e-13,0,0,-3.37975,-0.313667,0.361741,0,0,0,0,0,-0.230258,-0.313667,291,-77,291,-77,422,-70,296,69,0.422575,-0.0748956,0,-1.5,3.94113e+12,0,0,0,-0.410775,-0.237229,0,0,0,0,0.0127611,-0.0564373,19272,-0.413978,-0.223063,0.0127611,-0.0564373,11140,0,0,0,0,0.2,1
11406,-3.11491e-12,2.65566e-38,-1.52897e-06,-3.18057e-12,2.65542e-38,0,-1.06605e-13,0,0,-3.37975,-0.313667,0.361741,0,0,0,0,0,-0.230258,-0.313667,291,-77,291,-77,422,-70,296,69,0.422575,-0.0748956,0,-1.5,3.94113e+12,0,0,0,-0.410558,-0.238189,0,0,0,0,0.0127611,-0.0564373,19272,-0.413978,-0.223063,0.0127611,-0.0564373,11140,0,0,0,0,0.2,1
11423,-3.11491e-12,2.65566e-38,-1.52897e-06,-3.18057e-12,2.65542e-38,0,-1.06605e-13,0,0,-3.37975,-0.313667,0.361741,0,0,0,0,0,-0.230258,-0.313667,291,-77,291,-77,422,-70,296,69,0.422575,-0.0748956,0,-1.5,3.94113e+12,0,0,0,-0.410354,-0.239092,0,0,0,0,0.0127611,-0.0564373,19272,-0.413978,-0.223063,0.0127611,-0.0564373,11140,0,0,0,0,0.2,1
11451,-3.11491e-12,2.65566e-38,-1.52897e-06,-3.18057e-12,2.65542e-38,0,-1.06606e-13,0,0,-3.52541,-0.27377,0.359874,0,0,0,0,0,-0.429807,-0.27377,286,-48,286,-48,416,-66,290,72,0.435448,-0.0793585,0,-1.5,3.94113e+12,0,0,0,-0.425124,-0.271823,0,0,0,0,0.00160369,-0.088619,18078,-0.425141,-0.270937,0.00160369,-0.088619,11443,0,0,0,0,0.2,1
11468,-3.11491e-12,2.65566e-38,-1.52897e-06,-3.18057e-12,2.65542e-38,0,-1.06606e-13,0,0,-3.52541,-0.27377,0.359874,0,0,0,0,0,-0.429807,-0.27377,286,-48,286,-48,416,-66,290,72,0.435448,-0.0793585,0,-1.5,3.94113e+12,0,0,0,-0.425097,-0.27333,0,0,0,0,0.00160369,-0.088619,18078,-0.425141,-0.270937,0.00160369,-0.088619,11443,0,0,0,0,0.2,1
11490,-3.11491e-12,2.65566e-38,-1.52897e-06,-3.18057e-12,2.65542e-38,0,-1.06606e-13,0,0,-3.55043,-0.270938,0.365298,0,0,0,0,0,-0.464087,-0.270938,287,-46,287,-46,413,-66,290,74,0.43516,-0.082215,0,-1.5,3.94113e+12,0,0,0,-0.427423,-0.276124,0,0,0,0,-0.00553738,-0.0879012,18200,-0.427302,-0.27419,-0.00553738,-0.0879012,11477,0,0,0,0,0.2,1
11516,-3.11491e-12,2.65566e-38,-1.52897e-06,-3.18057e-12,2.65542e-38,0,-1.06607e-13,0,0,-3.51648,-0.272057,0.323955,0,0,0,0,0,-0.417577,-0.272057,283,-55,283,-55,413,-49,290,76,0.435093,-0.0842972,0,-1.5,3.94113e+12,0,0,0,-0.431808,-0.275016,0,0,0,0,-0.0107429,-0.0877318,18078,-0.431711,-0.274227,-0.0107429,-0.0877318,11509,0,0,0,0,0.2,1
11533,-3.11491e-12,2.65566e-38,-1.52897e-06,-3.18057e-12,2.65542e-38,0,-1.06607e-13,0,0,-3.51648,-0.272057,0.323955,0,0,0,0,0,-0.417577,-0.272057,283,-55,283,-55,413,-49,290,76,0.435093,-0.0842972,0,-1.5,3.94113e+12,0,0,0,-0.43199,-0.276508,0,0,0,0,-0.0107429,-0.0877318,18078,-0.431711,-0.274227,-0.0107429,-0.0877318,11509,0,0,0,0,0.2,1
11566,-3.11491e-12,2.65566e-38,-1.52897e-06,-3.18057e-12,2.65542e-38,0,-1.06607e-13,0,0,-3.49161,-0.260143,0.332027,0,0,0,0,0,-0.383506,-0.260143,283,-55,283,-55,413,-60,290,76,0.43399,-0.0785368,0,-1.5,3.94113e+12,0,0,0,-0.416855,-0.280679,0,0,0,0,0.00365792,-0.0849759,18224,-0.416975,-0.277875,0.00365792,-0.0849759,11553,0,0,0,0,0.2,1
11590,-3.11491e-12,2.65566e-38,-1.52897e-06,-3.18057e-12,2.65542e-38,0,-1.06607e-13,0,0,-3.54546,-0.268905,0.371277,0,0,0,0,0,-0.457286,-0.268905,286,-48,286,-48,413,-66,290,72,0.430535,-0.082576,0,-1.5,3.94113e+12,0,0,0,-0.428682,-0.273355,0,0,0,0,-0.00644004,-0.0763385,18078,-0.428527,-0.271522,-0.00644004,-0.0763385,11577,0,0,0,0,0.2,1
11631,-3.11491e-12,2.65566e-38,-1.52897e-06,-3.18057e-12,2.65542e-38,0,-1.06608e-13,0,0,-3.49413,-0.2901,0.362298,0,0,0,0,0,-0.386962,-0.2901,289,-51,289,-51,415,-73,294,72,0.43372,-0.0778663,0,-1.5,3.94113e+12,0,0,0,-0.416439,-0.282894,0,0,0,0,0.00533425,-0.0843005,18995,-0.416658,-0.279437,0.00533425,-0.0843005,11618,0,0,0,0,0.2,1
11656,-3.11491e-12,2.65566e-38,-1.52897e-06,-3.18057e-12,2.65542e-38,0,-1.06608e-13,0,0,-3.45716,-0.261221,0.435628,0,0,0,0,0,-0.336309,-0.261221,283,-56,283,-56,410,-90,294,63,0.431856,-0.0750606,0,-1.5,3.94113e+12,0,0,0,-0.410392,-0.278557,0,0,0,0,0.0123484,-0.0796406,20961,-0.410701,-0.276566,0.0123484,-0.0796406,11643,0,0,0,0,0.2,1
11682,-3.11491e-12,2.65566e-38,-1.52897e-06,-3.18057e-12,2.65542e-38,0,-1.06608e-13,0,0,-3.52232,-0.238878,0.44188,0,0,0,0,0,-0.42558,-0.238878,277,-58,277,-58,408,-69,288,63,0.430129,-0.0785682,0,-1.5,3.94113e+12,0,0,0,-0.417809,-0.278752,0,0,0,0,0.00357957,-0.0753224,18876,-0.417842,-0.278074,0.00357957,-0.0753224,11675,0,0,0,0,0.2,1
11699,-3.11491e-12,2.65566e-38,-1.52897e-06,-3.18057e-12,2.65542e-38,0,-1.06608e-13,0,0,-3.52232,-0.238878,0.44188,0,0,0,0,0,-0.42558,-0.238878,277,-58,277,-58,408,-69,288,63,0.430129,-0.0785682,0,-1.5,3.94113e+12,0,0,0,-0.417748,-0.280033,0,0,0,0,0.00357957,-0.0753224,18876,-0.417842,-0.278074,0.00357957,-0.0753224,11675,0,0,0,0,0.2,1
11726,-3.11491e-12,2.65566e-38,-1.52897e-06,-3.18057e-12,2.65542e-38,0,-1.06609e-13,0,0,-3.58608,-0.246522,0.480662,0,0,0,0,0,-0.512935,-0.246522,281,-60,281,-60,411,-69,288,62,0.428259,-0.0816927,0,-1.5,3.94113e+12,0,0,0,-0.426592,-0.274683,0,0,0,0,-0.00423161,-0.070648,17423,-0.426477,-0.272776,-0.00423161,-0.070648,11712,0,0,0,0,0.2,1
11746,-3.11491e-12,2.65566e-38,-1.52897e-06,-3.18057e-12,2.65542e-38,0,-1.06609e-13,0,0,-3.58608,-0.246522,0.480662,0,0,0,0,0,-0.512935,-0.246522,281,-60,281,-60,411,-69,288,62,0.428259,-0.0816927,0,-1.5,3.94113e+12,0,0,0,-0.426672,-0.276026,0,0,0,0,-0.00423161,-0.070648,17423,-0.426477,-0.272776,-0.00423161,-0.070648,11712,0,0,0,0,0.2,1
11762,-3.11491e-12,2.65566e-38,-1.52897e-06,-3.18057e-12,2.65542e-38,0,-1.06609e-13,0,0,-3.58608,-0.246522,0.480662,0,0,0,0,0,-0.512935,-0.246522,281,-60,281,-60,411,-69,288,62,0.428259,-0.0816927,0,-1.5,3.94113e+12,0,0,0,-0.426744,-0.277227,0,0,0,0,-0.00423161,-0.070648,17423,-0.426477,-0.272776,-0.00423161,-0.070648,11712,0,0,0,0,0.2,1
11790,-3.11491e-12,2.65566e-38,-1.52897e-06,-3.18057e-12,2.65542e-38,0,-1.0661e-13,0,0,-3.5674,-0.245179,0.469771,0,0,0,0,0,-0.487339,-0.245179,280,-60,280,-60,411,-69,288,62,0.42853,-0.0794293,0,-1.5,3.94113e+12,0,0,0,-0.425436,-0.277512,0,0,0,0,0.00142669,-0.0713241,17685,-0.425475,-0.275586,0.00142669,-0.0713241,11776,0,0,0,0,0.2,1
11807,-3.11491e-12,2.65566e-38,-1.52897e-06,-3.18057e-12,2.65542e-38,0,-1.0661e-13,0,0,-3.5674,-0.245179,0.469771,0,0,0,0,0,-0.487339,-0.245179,280,-60,280,-60,411,-69,288,62,0.42853,-0.0794293,0,-1.5,3.94113e+12,0,0,0,-0.425412,-0.278724,0,0,0,0,0.00142669,-0.0713241,17685,-0.425475,-0.275586,0.00142669,-0.0713241,11776,0,0,0,0,0.2,1
11826,-3.11491e-12,2.65566e-38,-1.52897e-06,-3.18057e-12,2.65542e-38,0,-1.0661e-13,0,0,-3.5674,-0.245179,0.469771,0,0,0,0,0,-0.487339,-0.245179,280,-60,280,-60,411,-69,288,62,0.42853,-0.0794293,0,-1.5,3.94113e+12,0,0,0,-0.425383,-0.280151,0,0,0,0,0.00142669,-0.0713241,17685,-0.425475,-0.275586,0.00142669,-0.0713241,11776,0,0,0,0,0.2,1
11853,-3.11491e-12,2.65566e-38,-1.52897e-06,-3.18057e-12,2.65542e-38,0,-1.0661e-13,0,0,-3.32175,-0.234176,0.398955,0,0,0,0,0,-0.150793,-0.234176,278,-84,278,-84,410,-81,288,62,0.429004,-0.0769057,0,-1.5,3.94113e+12,0,0,0,-0.413823,-0.281499,0,0,0,0,0.00773581,-0.0725091,20732,-0.413916,-0.280629,0.00773581,-0.0725091,11844,0,0,0,0,0.2,1
11867,-3.11491e-12,2.65566e-38,-1.52897e-06,-3.18057e-12,2.65542e-38,0,-1.06611e-13,0,0,-3.32175,-0.234176,0.398955,0,0,0,0,0,-0.150793,-0.234176,278,-84,278,-84,410,-81,288,62,0.429004,-0.0769057,0,-1.5,3.94113e+12,0,0,0,-0.413715,-0.282514,0,0,0,0,0.00773581,-0.0725091,20732,-0.413916,-0.280629,0.00773581,-0.0725091,11844,0,0,0,0,0.2,1
11892,-3.11491e-12,2.65566e-38,-1.52897e-06,-3.18057e-12,2.65542e-38,0,-1.06611e-13,0,0,-3.38411,-0.249738,0.417489,0,0,0,0,0,-0.23623,-0.249738,280,-74,280,-74,413,-81,289,60,0.428213,-0.0705957,0,-1.5,3.94113e+12,0,0,0,-0.398867,-0.280276,0,0,0,0,0.0235106,-0.0705316,19740,-0.399455,-0.278512,0.0235106,-0.0705316,11878,0,0,0,0,0.2,1
11987,-3.11491e-12,2.65566e-38,-1.52897e-06,-3.18057e-12,2.65542e-38,0,-1.06611e-13,0,0,-3.35847,-0.239288,0.405999,0,0,0,0,0,-0.201101,-0.239288,280,-74,280,-74,412,-83,286,60,0.427471,-0.0662497,0,-1.5,3.94113e+12,0,0,0,-0.373918,-0.283393,0,0,0,0,0.0343758,-0.0686778,20020,-0.377184,-0.276869,0.0343758,-0.0686778,11973,0,0,0,0,0.2,1
12004,-3.11491e-12,2.65566e-38,-1.52897e-06,-3.18057e-12,2.65542e-38,0,-1.06611e-13,0,0,-3.35847,-0.239288,0.405999,0,0,0,0,0,-0.201101,-0.239288,280,-74,280,-74,412,-83,286,60,0.427471,-0.0662497,0,-1.5,3.94113e+12,0,0,0,-0.373333,-0.28456,0,0,0,0,0.0343758,-0.0686778,20020,-0.377184,-0.276869,0.0343758,-0.0686778,11973,0,0,0,0,0.2,1
12027,-3.11491e-12,2.65566e-38,-1.52897e-06,-3.18057e-12,2.65542e-38,0,-1.06612e-13,0,0,-3.39461,-0.244434,0.421997,0,0,0,0,0,-0.250621,-0.244434,280,-74,280,-74,411,-80,288,60,0.425758,-0.0643453,0,-1.5,3.94113e+12,0,0,0,-0.368028,-0.280642,0,0,0,0,0.0391367,-0.0643945,19600,-0.368928,-0.279161,0.0391367,-0.0643945,12013,0,0,0,0,0.2,1
12070,-3.11491e-12,2.65566e-38,-1.52897e-06,-3.18057e-12,2.65542e-38,0,-1.06612e-13,0,0,-3.44938,-0.251841,0.432576,0,0,0,0,0,-0.325645,-0.251841,280,-60,280,-60,412,-83,290,60,0.422564,-0.0663847,0,-1.5,3.94113e+12,0,0,0,-0.36969,-0.270612,0,0,0,0,0.0340382,-0.0564091,20020,-0.371154,-0.268186,0.0340382,-0.0564091,12056,0,0,0,0,0.2,1
12095,-3.11491e-12,2.65566e-38,-1.52897e-06,-3.18057e-12,2.65542e-38,0,-1.06612e-13,0,0,-3.47131,-0.247596,0.437015,0,0,0,0,0,-0.355696,-0.247596,281,-61,281,-61,414,-80,288,62,0.418271,-0.0569049,0,-1.5,3.94113e+12,0,0,0,-0.351383,-0.260196,0,0,0,0,0.0577377,-0.0456779,19170,-0.352826,-0.259054,0.0577377,-0.0456779,12081,0,0,0,0,0.2,1
12118,-3.11491e-12,2.65566e-38,-1.52897e-06,-3.18057e-12,2.65542e-38,0,-1.06613e-13,0,0,-3.49024,-0.271957,0.453317,0,0,0,0,0,-0.381624,-0.271957,287,-68,287,-68,414,-80,292,63,0.420672,-0.0591595,0,-1.5,3.94113e+12,0,0,0,-0.354188,-0.268172,0,0,0,0,0.0521013,-0.0516795,18447,-0.354813,-0.267551,0.0521013,-0.0516795,12108,0,0,0,0,0.2,1
12144,-3.11491e-12,2.65566e-38,-1.52897e-06,-3.18057e-12,2.65542e-38,0,-1.06613e-13,0,0,-3.53225,-0.273879,0.461846,0,0,0,0,0,-0.439184,-0.273879,287,-60,287,-60,414,-80,292,63,0.420589,-0.0612362,0,-1.5,3.94113e+12,0,0,0,-0.361501,-0.270956,0,0,0,0,0.0469098,-0.0514721,18447,-0.361829,-0.270595,0.0469098,-0.0514721,12139,0,0,0,0,0.2,1
12161,-3.11491e-12,2.65566e-38,-1.52897e-06,-3.18057e-12,2.65542e-38,0,-1.06613e-13,0,0,-3.53225,-0.273879,0.461846,0,0,0,0,0,-0.439184,-0.273879,287,-60,287,-60,414,-80,292,63,0.420589,-0.0612361,0,-1.5,3.94113e+12,0,0,0,-0.360703,-0.271831,0,0,0,0,0.0469098,-0.0514721,18447,-0.361829,-0.270595,0.0469098,-0.0514721,12139,0,0,0,0,0.2,1
12186,-3.11491e-12,2.65566e-38,-1.52897e-06,-3.18057e-12,2.65542e-38,0,-1.06613e-13,0,0,-3.51663,-0.257631,0.455831,0,0,0,0,0,-0.41778,-0.257631,283,-60,283,-60,411,-78,290,62,0.418037,-0.0611228,0,-1.5,3.94113e+12,0,0,0,-0.360789,-0.267176,0,0,0,0,0.047193,-0.0450912,18900,-0.36145,-0.266545,0.047193,-0.0450912,12175,0,0,0,0,0.2,1
12206,-3.11491e-12,2.65566e-38,-1.52897e-06,-3.18057e-12,2.65542e-38,0,-1.06614e-13,0,0,-3.51663,-0.257631,0.455831,0,0,0,0,0,-0.41778,-0.257631,283,-60,283,-60,411,-78,290,62,0.418037,-0.0611228,0,-1.5,3.94113e+12,0,0,0,-0.359845,-0.268078,0,0,0,0,0.047193,-0.0450912,18900,-0.36145,-0.266545,0.047193,-0.0450912,12175,0,0,0,0,0.2,1
12225,-3.11491e-12,2.65566e-38,-1.52897e-06,-3.18057e-12,2.65542e-38,0,-1.06614e-13,0,0,-3.50341,-0.246214,0.448434,0,0,0,0,0,-0.399677,-0.246214,280,-61,280,-61,410,-76,289,62,0.40289,-0.065782,0,-1.5,3.94113e+12,0,0,0,-0.375219,-0.255489,0,0,0,0,0.035545,-0.007224,19044,-0.375895,-0.255352,0.035545,-0.007224,12211,0,0,0,0,0.2,1
12251,-3.11491e-12,2.65566e-38,-1.52897e-06,-3.18057e-12,2.65542e-38,0,-1.06614e-13,0,0,-3.46512,-0.251211,0.454651,0,0,0,0,0,-0.347213,-0.251211,281,-65,281,-65,413,-81,289,62,0.400669,-0.0630598,0,-1.5,3.94113e+12,0,0,0,-0.362235,-0.253671,0,0,0,0,0.0423505,-0.00167294,19591,-0.362701,-0.253653,0.0423505,-0.00167294,12241,0,0,0,0,0.2,1
12290,-3.11491e-12,2.65566e-38,-1.52897e-06,-3.18057e-12,2.65542e-38,0,-1.06614e-13,0,0,-3.46512,-0.251211,0.454651,0,0,0,0,0,-0.347213,-0.251211,281,-65,281,-65,413,-81,289,62,0.400669,-0.0630598,0,-1.5,3.94113e+12,0,0,0,-0.360541,-0.253738,0,0,0,0,0.0423505,-0.00167294,19591,-0.362701,-0.253653,0.0423505,-0.00167294,12241,0,0,0,0,0.2,1
12307,-3.11491e-12,2.65566e-38,-1.52897e-06,-3.18057e-12,2.65542e-38,0,-1.06615e-13,0,0,-3.46512,-0.251211,0.454651,0,0,0,0,0,-0.347213,-0.251211,281,-65,281,-65,413,-81,289,62,0.400669,-0.0630598,0,-1.5,3.94113e+12,0,0,0,-0.359821,-0.253767,0,0,0,0,0.0423505,-0.00167294,19591,-0.362701,-0.253653,0.0423505,-0.00167294,12241,0,0,0,0,0.2,1
12324,-3.11491e-12,2.65566e-38,-1.52897e-06,-3.18057e-12,2.65542e-38,0,-1.06615e-13,0,0,-3.46512,-0.251211,0.454651,0,0,0,0,0,-0.347213,-0.251211,281,-65,281,-65,413,-81,289,62,0.400669,-0.0630598,0,-1.5,3.94113e+12,0,0,0,-0.359144,-0.253794,0,0,0,0,0.0423505,-0.00167294,19591,-0.362701,-0.253653,0.0423505,-0.00167294,12241,0,0,0,0,0.2,1
12347,-3.11491e-12,2.65566e-38,-1.52897e-06,-3.18057e-12,2.65542e-38,0,-1.06615e-13,0,0,-3.46512,-0.251211,0.454651,0,0,0,0,0,-0.347213,-0.251211,281,-65,281,-65,413,-81,289,62,0.400669,-0.0630598,0,-1.5,3.94113e+12,0,0,0,-0.358127,-0.253834,0,0,0,0,0.0423505,-0.00167294,19591,-0.362701,-0.253653,0.0423505,-0.00167294,12241,0,0,0,0,0.2,1
12364,-3.11491e-12,2.65566e-38,-1.52897e-06,-3.18057e-12,2.65542e-38,0,-1.06616e-13,0,0,-3.46512,-0.251211,0.454651,0,0,0,0,0,-0.347213,-0.251211,281,-65,281,-65,413,-81,289,62,0.400669,-0.0630598,0,-1.5,3.94113e+12,0,0,0,-0.357407,-0.253862,0,0,0,0,0.0423505,-0.00167294,19591,-0.362701,-0.253653,0.0423505,-0.00167294,12241,0,0,0,0,0.2,1
12381,-3.11491e-12,2.65566e-38,-1.52897e-06,-3.18057e-12,2.65542e-38,0,-1.06616e-13,0,0,-3.46512,-0.251211,0.454651,0,0,0,0,0,-0.347213,-0.251211,281,-65,281,-65,413,-81,289,62,0.400669,-0.0630598,0,-1.5,3.94113e+12,0,0,0,-0.356687,-0.253891,0,0,0,0,0.0423505,-0.00167294,19591,-0.362701,-0.253653,0.0423505,-0.00167294,12241,0,0,0,0,0.2,1
12402,-3.11491e-12,2.65566e-38,-1.52897e-06,-3.18057e-12,2.65542e-38,0,-1.06616e-13,0,0,-3.46512,-0.251211,0.454651,0,0,0,0,0,-0.347213,-0.251211,281,-65,281,-65,413,-81,289,62,0.400669,-0.0630598,0,-1.5,3.94113e+12,0,0,0,-0.355798,-0.253926,0,0,0,0,0.0423505,-0.00167294,19591,-0.362701,-0.253653,0.0423505,-0.00167294,12241,0,0,0,0,0.2,1
12437,-3.11491e-12,2.65566e-38,-1.52897e-06,-3.18057e-12,2.65542e-38,0,-1.06616e-13,0,0,-3.46512,-0.251211,0.454651,0,0,0,0,0,-0.347213,-0.251211,281,-65,281,-65,413,-81,289,62,0.400669,-0.0630598,0,-1.5,3.94113e+12,0,0,0,-0.354316,-0.253984,0,0,0,0,0.0423505,-0.00167294,19591,-0.362701,-0.253653,0.0423505,-0.00167294,12241,0,0,0,0,0.2,1
12457,-3.11491e-12,2.65566e-38,-1.52897e-06,-3.18057e-12,2.65542e-38,0,-1.06617e-13,0,0,-3.46512,-0.251211,0.454651,0,0,0,0,0,-0.347213,-0.251211,281,-65,281,-65,413,-81,289,62,0.400669,-0.0630598,0,-1.5,3.94113e+12,0,0,0,-0.353469,-0.254018,0,0,0,0,0.0423505,-0.00167294,19591,-0.362701,-0.253653,0.0423505,-0.00167294,12241,0,0,0,0,0.2,1
12478,-3.11491e-12,2.65566e-38,-1.52897e-06,-3.18057e-12,2.65542e-38,0,-1.06617e-13,0,0,-3.46512,-0.251211,0.454651,0,0,0,0,0,-0.347213,-0.251211,281,-65,281,-65,413,-81,289,62,0.400669,-0.0630598,0,-1.5,3.94113e+12,0,0,0,-0.352579,-0.254053,0,0,0,0,0.0423505,-0.00167294,19591,-0.362701,-0.253653,0.0423505,-0.00167294,12241,0,0,0,0,0.2,1
12492,-3.11491e-12,2.65566e-38,-1.52897e-06,-3.18057e-12,2.65542e-38,0,-1.06617e-13,0,0,-3.46512,-0.251211,0.454651,0,0,0,0,0,-0.347213,-0.251211,281,-65,281,-65,413,-81,289,62,0.400669,-0.0630598,0,-1.5,3.94113e+12,0,0,0,-0.351987,-0.254076,0,0,0,0,0.0423505,-0.00167294,19591,-0.362701,-0.253653,0.0423505,-0.00167294,12241,0,0,0,0,0.2,1
12512,-3.11491e-12,2.65566e-38,-1.52897e-06,-3.18057e-12,2.65542e-38,0,-1.06617e-13,0,0,-3.46512,-0.251211,0.454651,0,0,0,0,0,-0.347213,-0.251211,281,-65,281,-65,413,-81,289,62,0.400669,-0.0630598,0,-1.5,3.94113e+12,0,0,0,-0.35114,-0.25411,0,0,0,0,0.0423505,-0.00167294,19591,-0.362701,-0.253653,0.0423505,-0.00167294,12241,0,0,0,0,0.2,1
12549,-3.11491e-12,2.65566e-38,-1.52897e-06,-3.18057e-12,2.65542e-38,0,-1.06618e-13,0,0,-3.46512,-0.251211,0.454651,0,0,0,0,0,-0.347213,-0.251211,281,-65,281,-65,413,-81,289,62,0.400669,-0.0630598,0,-1.5,3.94113e+12,0,0,0,-0.349573,-0.254172,0,0,0,0,0.0423505,-0.00167294,19591,-0.362701,-0.253653,0.0423505,-0.00167294,12241,0,0,0,0,0.2,1
12566,-3.11491e-12,2.65566e-38,-1.52897e-06,-3.18057e-12,2.65542e-38,0,-1.06618e-13,0,0,-3.46512,-0.251211,0.454651,0,0,0,0,0,-0.347213,-0.251211,281,-65,281,-65,413,-81,289,62,0.400669,-0.0630598,0,-1.5,3.94113e+12,0,0,0,-0.348895,-0.254198,0,0,0,0,0.0423505,-0.00167294,19591,-0.362701,-0.253653,0.0423505,-0.00167294,12241,0,0,0,0,0.2,1
12614,-3.11491e-12,2.65566e-38,-1.52897e-06,-3.18057e-12,2.65542e-38,0,-1.06618e-13,0,0,-3.46512,-0.251211,0.454651,0,0,0,0,0,-0.347213,-0.251211,281,-65,281,-65,413,-81,289,62,0.400669,-0.0630598,0,-1.5,3.94113e+12,0,0,0,-0.346862,-0.254279,0,0,0,0,0.0423505,-0.00167294,19591,-0.362701,-0.253653,0.0423505,-0.00167294,12241,0,0,0,0,0.2,1
12638,-3.11491e-12,2.65566e-38,-1.52897e-06,-3.18057e-12,2.65542e-38,0,-1.06618e-13,0,0,-3.46512,-0.251211,0.454651,0,0,0,0,0,-0.347213,-0.251211,281,-65,281,-65,413,-81,289,62,0.400669,-0.0630598,0,-1.5,3.94113e+12,0,0,0,-0.345846,-0.254319,0,0,0,0,0.0423505,-0.00167294,19591,-0.362701,-0.253653,0.0423505,-0.00167294,12241,0,0,0,0,0.2,1
12655,-3.11491e-12,2.65566e-38,-1.52897e-06,-3.18057e-12,2.65542e-38,0,-1.06619e-13,0,0,-3.46512,-0.251211,0.454651,0,0,0,0,0,-0.347213,-0.251211,281,-65,281,-65,413,-81,289,62,0.400669,-0.0630598,0,-1.5,3.94113e+12,0,0,0,-0.345084,-0.254349,0,0,0,0,0.0423505,-0.00167294,19591,-0.362701,-0.253653,0.0423505,-0.00167294,12241,0,0,0,0,0.2,1
12672,-3.11491e-12,2.65566e-38,-1.52897e-06,-3.18057e-12,2.65542e-38,0,-1.06619e-13,0,0,-3.46512,-0.251211,0.454651,0,0,0,0,0,-0.347213,-0.251211,281,-65,281,-65,413,-81,289,62,0.400669,-0.0630598,0,-1.5,3.94113e+12,0,0,0,-0.344364,-0.254377,0,0,0,0,0.0423505,-0.00167294,19591,-0.362701,-0.253653,0.0423505,-0.00167294,12241,0,0,0,0,0.2,1
12693,-3.11491e-12,2.65566e-38,-1.52897e-06,-3.18057e-12,2.65542e-38,0,-1.06619e-13,0,0,-3.46512,-0.251211,0.454651,0,0,0,0,0,-0.347213,-0.251211,281,-65,281,-65,413,-81,289,62,0.400669,-0.0630598,0,-1.5,3.94113e+12,0,0,0,-0.343474,-0.254413,0,0,0,0,0.0423505,-0.00167294,19591,-0.362701,-0.253653,0.0423505,-0.00167294,12241,0,0,0,0,0.2,1
12710,-3.11491e-12,2.65566e-38,-1.52897e-06,-3.18057e-12,2.65542e-38,0,-1.0662e-13,0,0,-3.46512,-0.251211,0.454651,0,0,0,0,0,-0.347213,-0.251211,281,-65,281,-65,413,-81,289,62,0.400669,-0.0630598,0,-1.5,3.94113e+12,0,0,0,-0.342754,-0.254441,0,0,0,0,0.0423505,-0.00167294,19591,-0.362701,-0.253653,0.0423505,-0.00167294,12241,0,0,0,0,0.2,1
12730,-3.11491e-12,2.65566e-38,-1.52897e-06,-3.18057e-12,2.65542e-38,0,-1.0662e-13,0,0,-3.46512,-0.251211,0.454651,0,0,0,0,0,-0.347213,-0.251211,281,-65,281,-65,413,-81,289,62,0.400669,-0.0630598,0,-1.5,3.94113e+12,0,0,0,-0.341907,-0.254474,0,0,0,0,0.0423505,-0.00167294,19591,-0.362701,-0.253653,0.0423505,-0.00167294,12241,0,0,0,0,0.2,1
12751,-3.11491e-12,2.65566e-38,-1.52897e-06,-3.18057e-12,2.65542e-38,0,-1.0662e-13,0,0,-3.46512,-0.251211,0.454651,-0.341019,-0.25451,0.0421814,-0.00166626,0,-0.347213,-0.251211,281,-65,281,-65,413,-81,289,62,0.400667,-0.0631275,0,-1.5,3.94113e+12,0,0,0,-0.341019,-0.25451,0,0,0,0,0.0421814,-0.00166626,19591,0,0,0,0,12241,0,0,0,0,0.2,1
12765,-3.11491e-12,2.65566e-38,-1.52897e-06,-3.18057e-12,2.65542e-38,0,-1.0662e-13,0,0,-3.46512,-0.251211,0.454651,-0.340431,-0.254533,0.0418869,-0.00165462,0,-0.347213,-0.251211,281,-65,281,-65,413,-81,289,62,0.400662,-0.0632453,0,-1.5,3.94113e+12,0,0,0,-0.340431,-0.254533,0,0,0,0,0.0418869,-0.00165462,19591,0,0,0,0,12241,0,0,0,0,0.2,1
12785,-3.11491e-12,2.65566e-38,-1.52897e-06,-3.18057e-12,2.65542e-38,0,-1.06621e-13,0,0,-3.46512,-0.251211,0.454651,-0.339599,-0.254566,0.0414693,-0.00163813,0,-0.347213,-0.251211,281,-65,281,-65,413,-81,289,62,0.400655,-0.0634123,0,-1.5,3.94113e+12,0,0,0,-0.339599,-0.254566,0,0,0,0,0.0414693,-0.00163813,19591,0,0,0,0,12241,0,0,0,0,0.2,1
12806,-3.11491e-12,2.65566e-38,-1.52897e-06,-3.18057e-12,2.65542e-38,0,-1.06621e-13,0,0,-3.46512,-0.251211,0.454651,-0.338734,-0.2546,0.0410353,-0.00162098,0,-0.347213,-0.251211,281,-65,281,-65,413,-81,289,62,0.400648,-0.0635859,0,-1.5,3.94113e+12,0,0,0,-0.338734,-0.2546,0,0,0,0,0.0410353,-0.00162098,19591,0,0,0,0,12241,0,0,0,0,0.2,1
12823,-3.11491e-12,2.65566e-38,-1.52897e-06,-3.18057e-12,2.65542e-38,0,-1.06621e-13,0,0,-3.46512,-0.251211,0.454651,-0.338041,-0.254627,0.0406875,-0.00160724,0,-0.347213,-0.251211,281,-65,281,-65,413,-81,289,62,0.400643,-0.063725,0,-1.5,3.94113e+12,0,0,0,-0.338041,-0.254627,0,0,0,0,0.0406875,-0.00160724,19591,0,0,0,0,12241,0,0,0,0,0.2,1
12840,-3.11491e-12,2.65566e-38,-1.52897e-06,-3.18057e-12,2.65542e-38,0,-1.06621e-13,0,0,-3.46512,-0.251211,0.454651,-0.337393,-0.254653,0.0403629,-0.00159442,0,-0.347213,-0.251211,281,-65,281,-65,413,-81,289,62,0.400638,-0.0638548,0,-1.5,3.94113e+12,0,0,0,-0.337393,-0.254653,0,0,0,0,0.0403629,-0.00159442,19591,0,0,0,0,12241,0,0,0,0,0.2,1
12863,-3.11491e-12,2.65566e-38,-1.52897e-06,-3.18057e-12,2.65542e-38,0,-1.06622e-13,0,0,-3.46512,-0.251211,0.454651,-0.336433,-0.254691,0.0398801,-0.00157535,0,-0.347213,-0.251211,281,-65,281,-65,413,-81,289,62,0.40063,-0.064048,0,-1.5,3.94113e+12,0,0,0,-0.336433,-0.254691,0,0,0,0,0.0398801,-0.00157535,19591,0,0,0,0,12241,0,0,0,0,0.2,1
12881,-3.11491e-12,2.65566e-38,-1.52897e-06,-3.18057e-12,2.65542e-38,0,-1.06622e-13,0,0,-3.46512,-0.251211,0.454651,-0.335719,-0.254719,0.0395223,-0.00156122,0,-0.347213,-0.251211,281,-65,281,-65,413,-81,289,62,0.400624,-0.0641911,0,-1.5,3.94113e+12,0,0,0,-0.335719,-0.254719,0,0,0,0,0.0395223,-0.00156122,19591,0,0,0,0,12241,0,0,0,0,0.2,1
12897,-3.11491e-12,2.65566e-38,-1.52897e-06,-3.18057e-12,2.65542e-38,0,-1.06622e-13,0,0,-3.46512,-0.251211,0.454651,-0.33509,-0.254744,0.039207,-0.00154876,0,-0.347213,-0.251211,281,-65,281,-65,413,-81,289,62,0.40062,-0.0643172,0,-1.5,3.94113e+12,0,0,0,-0.33509,-0.254744,0,0,0,0,0.039207,-0.00154876,19591,0,0,0,0,12241,0,0,0,0,0.2,1
12919,-3.11491e-12,2.65566e-38,-1.52897e-06,-3.18057e-12,2.65542e-38,0,-1.06623e-13,0,0,-3.46512,-0.251211,0.454651,-0.334234,-0.254778,0.0387771,-0.00153178,0,-0.347213,-0.251211,281,-65,281,-65,413,-81,289,62,0.400613,-0.0644892,0,-1.5,3.94113e+12,0,0,0,-0.334234,-0.254778,0,0,0,0,0.0387771,-0.00153178,19591,0,0,0,0,12241,0,0,0,0,0.2,1
12936,-3.11491e-12,2.65566e-38,-1.52897e-06,-3.18057e-12,2.65542e-38,0,-1.06623e-13,0,0,-3.46512,-0.251211,0.454651,-0.333579,-0.254803,0.0384485,-0.0015188,0,-0.347213,-0.251211,281,-65,281,-65,413,-81,289,62,0.400608,-0.0646206,0,-1.5,3.94113e+12,0,0,0,-0.333579,-0.254803,0,0,0,0,0.0384485,-0.0015188,19591,0,0,0,0,12241,0,0,0,0,0.2,1
12972,-3.11491e-12,2.65566e-38,-1.52897e-06,-3.18057e-12,2.65542e-38,0,-1.06623e-13,0,0,-3.46512,-0.251211,0.454651,-0.332215,-0.254857,0.0377588,-0.00149155,0,-0.347213,-0.251211,281,-65,281,-65,413,-81,289,62,0.400597,-0.0648965,0,-1.5,3.94113e+12,0,0,0,-0.332215,-0.254857,0,0,0,0,0.0377588,-0.00149155,19591,0,0,0,0,12241,0,0,0,0,0.2,1
12996,-3.11491e-12,2.65566e-38,-1.52897e-06,-3.18057e-12,2.65542e-38,0,-1.06623e-13,0,0,-3.46512,-0.251211,0.454651,-0.331317,-0.254893,0.0373071,-0.00147371,0,-0.347213,-0.251211,281,-65,281,-65,413,-81,289,62,0.400589,-0.0650772,0,-1.5,3.94113e+12,0,0,0,-0.331317,-0.254893,0,0,0,0,0.0373071,-0.00147371,19591,0,0,0,0,12241,0,0,0,0,0.2,1
13010,-3.11491e-12,2.65566e-38,-1.52897e-06,-3.18057e-12,2.65542e-38,0,-1.06624e-13,0,0,-3.46512,-0.251211,0.454651,-0.330797,-0.254913,0.0370467,-0.00146342,0,-0.347213,-0.251211,281,-65,281,-65,413,-81,289,62,0.400585,-0.0651813,0,-1.5,3.94113e+12,0,0,0,-0.330797,-0.254913,0,0,0,0,0.0370467,-0.00146342,19591,0,0,0,0,12241,0,0,0,0,0.2,1
13048,-3.11491e-12,2.65566e-38,-1.52897e-06,-3.18057e-12,2.65542e-38,0,-1.06624e-13,0,0,-3.46512,-0.251211,0.454651,-0.329411,-0.254968,0.0363452,-0.00143572,0,-0.347213,-0.251211,281,-65,281,-65,413,-81,289,62,0.400574,-0.0654619,0,-1.5,3.94113e+12,0,0,0,-0.329411,-0.254968,0,0,0,0,0.0363452,-0.00143572,19591,0,0,0,0,12241,0,0,0,0,0.2,1
13070,-3.11491e-12,2.65566e-38,-1.52897e-06,-3.18057e-12,2.65542e-38,0,-1.06624e-13,0,0,-3.46512,-0.251211,0.454651,-0.328653,-0.254998,0.0359648,-0.00142069,0,-0.347213,-0.251211,281,-65,281,-65,413,-81,289,62,0.400568,-0.0656141,0,-1.5,3.94113e+12,0,0,0,-0.328653,-0.254998,0,0,0,0,0.0359648,-0.00142069,19591,0,0,0,0,12241,0,0,0,0,0.2,1
13086,-3.11491e-12,2.65566e-38,-1.52897e-06,-3.18057e-12,2.65542e-38,0,-1.06624e-13,0,0,-3.46512,-0.251211,0.454651,-0.328045,-0.255022,0.0356599,-0.00140864,0,-0.347213,-0.251211,281,-65,281,-65,413,-81,289,62,0.400563,-0.065736,0,-1.5,3.94113e+12,0,0,0,-0.328045,-0.255022,0,0,0,0,0.0356599,-0.00140864,19591,0,0,0,0,12241,0,0,0,0,0.2,1
13103,-3.11491e-12,2.65566e-38,-1.52897e-06,-3.18057e-12,2.65542e-38,0,-1.06625e-13,0,0,-3.46512,-0.251211,0.454651,-0.327442,-0.255046,0.0353577,-0.0013967,0,-0.347213,-0.251211,281,-65,281,-65,413,-81,289,62,0.400559,-0.0658569,0,-1.5,3.94113e+12,0,0,0,-0.327442,-0.255046,0,0,0,0,0.0353577,-0.0013967,19591,0,0,0,0,12241,0,0,0,0,0.2,1
13144,-3.11491e-12,2.65566e-38,-1.52897e-06,-3.18057e-12,2.65542e-38,0,-1.06625e-13,0,0,-3.46512,-0.251211,0.454651,-0.326017,-0.255102,0.0346354,-0.00136817,0,-0.347213,-0.251211,281,-65,281,-65,413,-81,289,62,0.400547,-0.0661458,0,-1.5,3.94113e+12,0,0,0,-0.326017,-0.255102,0,0,0,0,0.0346354,-0.00136817,19591,0,0,0,0,12241,0,0,0,0,0.2,1
13195,-3.11491e-12,2.65566e-38,-1.52897e-06,-3.18057e-12,2.65542e-38,0,-1.06625e-13,0,0,-3.46512,-0.251211,0.454651,-0.324323,-0.255169,0.0337726,-0.00133409,0,-0.347213,-0.251211,281,-65,281,-65,413,-81,289,62,0.400534,-0.066491,0,-1.5,3.94113e+12,0,0,0,-0.324323,-0.255169,0,0,0,0,0.0337726,-0.00133409,19591,0,0,0,0,12241,0,0,0,0,0.2,1
13212,-3.11491e-12,2.65566e-38,-1.52897e-06,-3.18057e-12,2.65542e-38,0,-1.06626e-13,0,0,-3.46512,-0.251211,0.454651,-0.323718,-0.255193,0.0334696,-0.00132212,0,-0.347213,-0.251211,281,-65,281,-65,413,-81,289,62,0.400529,-0.0666122,0,-1.5,3.94113e+12,0,0,0,-0.323718,-0.255193,0,0,0,0,0.0334696,-0.00132212,19591,0,0,0,0,12241,0,0,0,0,0.2,1
13233,-3.11491e-12,2.65566e-38,-1.52897e-06,-3.18057e-12,2.65542e-38,0,-1.06626e-13,0,0,-3.46512,-0.251211,0.454651,-0.323021,-0.255221,0.0331193,-0.00130828,0,-0.347213,-0.251211,281,-65,281,-65,413,-81,289,62,0.400523,-0.0667523,0,-1.5,3.94113e+12,0,0,0,-0.323021,-0.255221,0,0,0,0,0.0331193,-0.00130828,19591,0,0,0,0,12241,0,0,0,0,0.2,1
13250,-3.11491e-12,2.65566e-38,-1.52897e-06,-3.18057e-12,2.65542e-38,0,-1.06626e-13,0,0,-3.46512,-0.251211,0.454651,-0.322461,-0.255243,0.0328385,-0.00129719,0,-0.347213,-0.251211,281,-65,281,-65,413,-81,289,62,0.400519,-0.0668646,0,-1.5,3.94113e+12,0,0,0,-0.322461,-0.255243,0,0,0,0,0.0328385,-0.00129719,19591,0,0,0,0,12241,0,0,0,0,0.2,1
13270,-3.11491e-12,2.65566e-38,-1.52897e-06,-3.18057e-12,2.65542e-38,0,-1.06626e-13,0,0,-3.46512,-0.251211,0.454651,-0.321808,-0.255268,0.0325112,-0.00128426,0,-0.347213,-0.251211,281,-65,281,-65,413,-81,289,62,0.400514,-0.0669955,0,-1.5,3.94113e+12,0,0,0,-0.321808,-0.255268,0,0,0,0,0.0325112,-0.00128426,19591,0,0,0,0,12241,0,0,0,0,0.2,1
13320,-3.11491e-12,2.65566e-38,-1.52897e-06,-3.18057e-12,2.65542e-38,0,-1.06627e-13,0,0,-3.46512,-0.251211,0.454651,-0.320218,-0.255331,0.0317013,-0.00125227,0,-0.347213,-0.251211,281,-65,281,-65,413,-81,289,62,0.400501,-0.0673195,0,-1.5,3.94113e+12,0,0,0,-0.320218,-0.255331,0,0,0,0,0.0317013,-0.00125227,19591,0,0,0,0,12241,0,0,0,0,0.2,1
13335,-3.11491e-12,2.65566e-38,-1.52897e-06,-3.18057e-12,2.65542e-38,0,-1.06627e-13,0,0,-3.46512,-0.251211,0.454651,-0.319744,-0.25535,0.0314642,-0.00124291,0,-0.347213,-0.251211,281,-65,281,-65,413,-81,289,62,0.400497,-0.0674143,0,-1.5,3.94113e+12,0,0,0,-0.319744,-0.25535,0,0,0,0,0.0314642,-0.00124291,19591,0,0,0,0,12241,0,0,0,0,0.2,1
13353,-3.11491e-12,2.65566e-38,-1.52897e-06,-3.18057e-12,2.65542e-38,0,-1.06627e-13,0,0,-3.46512,-0.251211,0.454651,-0.319181,-0.255372,0.0311819,-0.00123175,0,-0.347213,-0.251211,281,-65,281,-65,413,-81,289,62,0.400493,-0.0675272,0,-1.5,3.94113e+12,0,0,0,-0.319181,-0.255372,0,0,0,0,0.0311819,-0.00123175,19591,0,0,0,0,12241,0,0,0,0,0.2,1
13370,-3.11491e-12,2.65566e-38,-1.52897e-06,-3.18057e-12,2.65542e-38,0,-1.06627e-13,0,0,-3.46512,-0.251211,0.454651,-0.318654,-0.255393,0.0309176,-0.00122131,0,-0.347213,-0.251211,281,-65,281,-65,413,-81,289,62,0.400489,-0.067633,0,-1.5,3.94113e+12,0,0,0,-0.318654,-0.255393,0,0,0,0,0.0309176,-0.00122131,19591,0,0,0,0,12241,0,0,0,0,0.2,1
13387,-3.11491e-12,2.65566e-38,-1.52897e-06,-3.18057e-12,2.65542e-38,0,-1.06628e-13,0,0,-3.46512,-0.251211,0.454651,-0.318132,-0.255414,0.0306555,-0.00121096,0,-0.347213,-0.251211,281,-65,281,-65,413,-81,289,62,0.400484,-0.0677378,0,-1.5,3.94113e+12,0,0,0,-0.318132,-0.255414,0,0,0,0,0.0306555,-0.00121096,19591,0,0,0,0,12241,0,0,0,0,0.2,1
13426,-3.11491e-12,2.65566e-38,-1.52897e-06,-3.18057e-12,2.65542e-38,0,-1.06628e-13,0,0,-3.46512,-0.251211,0.454651,-0.316955,-0.25546,0.0300598,-0.00118743,0,-0.347213,-0.251211,281,-65,281,-65,413,-81,289,62,0.400475,-0.0679761,0,-1.5,3.94113e+12,0,0,0,-0.316955,-0.25546,0,0,0,0,0.0300598,-0.00118743,19591,0,0,0,0,12241,0,0,0,0,0.2,1
13446,-3.11491e-12,2.65566e-38,-1.52897e-06,-3.18057e-12,2.65542e-38,0,-1.06628e-13,0,0,-3.46512,-0.251211,0.454651,-0.316358,-0.255484,0.0297601,-0.00117559,0,-0.347213,-0.251211,281,-65,281,-65,413,-81,289,62,0.40047,-0.068096,0,-1.5,3.94113e+12,0,0,0,-0.316358,-0.255484,0,0,0,0,0.0297601,-0.00117559,19591,0,0,0,0,12241,0,0,0,0,0.2,1
13463,-3.11491e-12,2.65566e-38,-1.52897e-06,-3.18057e-12,2.65542e-38,0,-1.06629e-13,0,0,-3.46512,-0.251211,0.454651,-0.315855,-0.255503,0.0295079,-0.00116562,0,-0.347213,-0.251211,281,-65,281,-65,413,-81,289,62,0.400466,-0.0681969,0,-1.5,3.94113e+12,0,0,0,-0.315855,-0.255503,0,0,0,0,0.0295079,-0.00116562,19591,0,0,0,0,12241,0,0,0,0,0.2,1
13485,-3.11491e-12,2.65566e-38,-1.52897e-06,-3.18057e-12,2.65542e-38,0,-1.06629e-13,0,0,-3.46512,-0.251211,0.454651,-0.315211,-0.255529,0.0291843,-0.00115284,0,-0.347213,-0.251211,281,-65,281,-65,413,-81,289,62,0.400461,-0.0683263,0,-1.5,3.94113e+12,0,0,0,-0.315211,-0.255529,0,0,0,0,0.0291843,-0.00115284,19591,0,0,0,0,12241,0,0,0,0,0.2,1
13502,-3.11491e-12,2.65566e-38,-1.52897e-06,-3.18057e-12,2.65542e-38,0,-1.06629e-13,0,0,-3.46512,-0.251211,0.454651,-0.314718,-0.255548,0.028937,-0.00114307,0,-0.347213,-0.251211,281,-65,281,-65,413,-81,289,62,0.400457,-0.0684252,0,-1.5,3.94113e+12,0,0,0,-0.314718,-0.255548,0,0,0,0,0.028937,-0.00114307,19591,0,0,0,0,12241,0,0,0,0,0.2,1
13522,-3.11491e-12,2.65566e-38,-1.52897e-06,-3.18057e-12,2.65542e-38,0,-1.06629e-13,0,0,-3.46512,-0.251211,0.454651,-0.314143,-0.255571,0.0286485,-0.00113168,0,-0.347213,-0.251211,281,-65,281,-65,413,-81,289,62,0.400453,-0.0685406,0,-1.5,3.94113e+12,0,0,0,-0.314143,-0.255571,0,0,0,0,0.0286485,-0.00113168,19591,0,0,0,0,12241,0,0,0,0,0.2,1
13543,-3.11491e-12,2.65566e-38,-1.52897e-06,-3.18057e-12,2.65542e-38,0,-1.0663e-13,0,0,-3.46512,-0.251211,0.454651,-0.313546,-0.255595,0.0283486,-0.00111983,0,-0.347213,-0.251211,281,-65,281,-65,413,-81,289,62,0.400448,-0.0686605,0,-1.5,3.94113e+12,0,0,0,-0.313546,-0.255595,0,0,0,0,0.0283486,-0.00111983,19591,0,0,0,0,12241,0,0,0,0,0.2,1
13560,-3.11491e-12,2.65566e-38,-1.52897e-06,-3.18057e-12,2.65542e-38,0,-1.0663e-13,0,0,-3.46512,-0.251211,0.454651,-0.313067,-0.255614,0.0281083,-0.00111034,0,-0.347213,-0.251211,281,-65,281,-65,413,-81,289,62,0.400444,-0.0687567,0,-1.5,3.94113e+12,0,0,0,-0.313067,-0.255614,0,0,0,0,0.0281083,-0.00111034,19591,0,0,0,0,12241,0,0,0,0,0.2,1
13574,-3.11491e-12,2.65566e-38,-1.52897e-06,-3.18057e-12,2.65542e-38,0,-1.0663e-13,0,0,-3.46512,-0.251211,0.454651,-0.312675,-0.255629,0.0279121,-0.00110259,0,-0.347213,-0.251211,281,-65,281,-65,413,-81,289,62,0.400441,-0.0688352,0,-1.5,3.94113e+12,0,0,0,-0.312675,-0.255629,0,0,0,0,0.0279121,-0.00110259,19591,0,0,0,0,12241,0,0,0,0,0.2,1
13592,-3.11491e-12,2.65566e-38,-1.52897e-06,-3.18057e-12,2.65542e-38,0,-1.0663e-13,0,0,-3.46512,-0.251211,0.454651,-0.312176,-0.255649,0.0276616,-0.00109269,0,-0.347213,-0.251211,281,-65,281,-65,413,-81,289,62,0.400437,-0.0689354,0,-1.5,3.94113e+12,0,0,0,-0.312176,-0.255649,0,0,0,0,0.0276616,-0.00109269,19591,0,0,0,0,12241,0,0,0,0,0.2,1
13610,-3.11491e-12,2.65566e-38,-1.52897e-06,-3.18057e-12,2.65542e-38,0,-1.06631e-13,0,0,-3.46512,-0.251211,0.454651,-0.311681,-0.255668,0.0274134,-0.00108289,0,-0.347213,-0.251211,281,-65,281,-65,413,-81,289,62,0.400433,-0.0690346,0,-1.5,3.94113e+12,0,0,0,-0.311681,-0.255668,0,0,0,0,0.0274134,-0.00108289,19591,0,0,0,0,12241,0,0,0,0,0.2,1
13626,-3.11491e-12,2.65566e-38,-1.52897e-06,-3.18057e-12,2.65542e-38,0,-1.06631e-13,0,0,-3.46512,-0.251211,0.454651,-0.311244,-0.255686,0.0271947,-0.00107425,0,-0.347213,-0.251211,281,-65,281,-65,413,-81,289,62,0.40043,-0.0691221,0,-1.5,3.94113e+12,0,0,0,-0.311244,-0.255686,0,0,0,0,0.0271947,-0.00107425,19591,0,0,0,0,12241,0,0,0,0,0.2,1
13648,-3.11491e-12,2.65566e-38,-1.52897e-06,-3.18057e-12,2.65542e-38,0,-1.06631e-13,0,0,-3.46512,-0.251211,0.454651,-0.310651,-0.255709,0.0268966,-0.00106247,0,-0.347213,-0.251211,281,-65,281,-65,413,-81,289,62,0.400425,-0.0692414,0,-1.5,3.94113e+12,0,0,0,-0.310651,-0.255709,0,0,0,0,0.0268966,-0.00106247,19591,0,0,0,0,12241,0,0,0,0,0.2,1
13667,-3.11491e-12,2.65566e-38,-1.52897e-06,-3.18057e-12,2.65542e-38,0,-1.06632e-13,0,0,-3.46512,-0.251211,0.454651,-0.310143,-0.255729,0.0266418,-0.00105241,0,-0.347213,-0.251211,281,-65,281,-65,413,-81,289,62,0.400421,-0.0693433,0,-1.5,3.94113e+12,0,0,0,-0.310143,-0.255729,0,0,0,0,0.0266418,-0.00105241,19591,0,0,0,0,12241,0,0,0,0,0.2,1
13685,-3.11491e-12,2.65566e-38,-1.52897e-06,-3.18057e-12,2.65542e-38,0,-1.06632e-13,0,0,-3.46512,-0.251211,0.454651,-0.309666,-0.255748,0.0264028,-0.00104297,0,-0.347213,-0.251211,281,-65,281,-65,413,-81,289,62,0.400417,-0.0694389,0,-1.5,3.94113e+12,0,0,0,-0.309666,-0.255748,0,0,0,0,0.0264028,-0.00104297,19591,0,0,0,0,12241,0,0,0,0,0.2,1
13737,-3.11491e-12,2.65566e-38,-1.52897e-06,-3.18057e-12,2.65542e-38,0,-1.06632e-13,0,0,-3.46512,-0.251211,0.454651,-0.308349,-0.2558,0.0257319,-0.00101647,0,-0.347213,-0.251211,281,-65,281,-65,413,-81,289,62,0.400407,-0.0697072,0,-1.5,3.94113e+12,0,0,0,-0.308349,-0.2558,0,0,0,0,0.0257319,-0.00101647,19591,0,0,0,0,12241,0,0,0,0,0.2,1
13805,-3.11491e-12,2.65566e-38,-1.52897e-06,-3.18057e-12,2.65542e-38,0,-1.06632e-13,0,0,-3.46512,-0.251211,0.454651,-0.306653,-0.255867,0.0248603,-0.000982035,0,-0.347213,-0.251211,281,-65,281,-65,413,-81,289,62,0.400393,-0.0700559,0,-1.5,3.94113e+12,0,0,0,-0.306653,-0.255867,0,0,0,0,0.0248603,-0.000982035,19591,0,0,0,0,12241,0,0,0,0,0.2,1
13825,-3.11491e-12,2.65566e-38,-1.52897e-06,-3.18057e-12,2.65542e-38,0,-1.06633e-13,0,0,-3.46512,-0.251211,0.454651,-0.306159,-0.255886,0.0246124,-0.000972244,0,-0.347213,-0.251211,281,-65,281,-65,413,-81,289,62,0.400389,-0.070155,0,-1.5,3.94113e+12,0,0,0,-0.306159,-0.255886,0,0,0,0,0.0246124,-0.000972244,19591,0,0,0,0,12241,0,0,0,0,0.2,1
13846,-3.11491e-12,2.65566e-38,-1.52897e-06,-3.18057e-12,2.65542e-38,0,-1.06633e-13,0,0,-3.46512,-0.251211,0.454651,-0.305622,-0.255908,0.0243425,-0.000961582,0,-0.347213,-0.251211,281,-65,281,-65,413,-81,289,62,0.400385,-0.070263,0,-1.5,3.94113e+12,0,0,0,-0.305622,-0.255908,0,0,0,0,0.0243425,-0.000961582,19591,0,0,0,0,12241,0,0,0,0,0.2,1
13863,-3.11491e-12,2.65566e-38,-1.52897e-06,-3.18057e-12,2.65542e-38,0,-1.06633e-13,0,0,-3.46512,-0.251211,0.454651,-0.30521,-0.255924,0.0241362,-0.000953433,0,-0.347213,-0.251211,281,-65,281,-65,413,-81,289,62,0.400381,-0.0703455,0,-1.5,3.94113e+12,0,0,0,-0.30521,-0.255924,0,0,0,0,0.0241362,-0.000953433,19591,0,0,0,0,12241,0,0,0,0,0.2,1
13909,-3.11491e-12,2.65566e-38,-1.52897e-06,-3.18057e-12,2.65542e-38,0,-1.06633e-13,0,0,-3.46512,-0.251211,0.454651,-0.304121,-0.255967,0.0235831,-0.000931582,0,-0.347213,-0.251211,281,-65,281,-65,413,-81,289,62,0.400373,-0.0705668,0,-1.5,3.94113e+12,0,0,0,-0.304121,-0.255967,0,0,0,0,0.0235831,-0.000931582,19591,0,0,0,0,12241,0,0,0,0,0.2,1
13947,-3.11491e-12,2.65566e-38,-1.52897e-06,-3.18057e-12,2.65542e-38,0,-1.06634e-13,0,0,-3.46512,-0.251211,0.454651,-0.303239,-0.256002,0.0231367,-0.00091395,0,-0.347213,-0.251211,281,-65,281,-65,413,-81,289,62,0.400366,-0.0707453,0,-1.5,3.94113e+12,0,0,0,-0.303239,-0.256002,0,0,0,0,0.0231367,-0.00091395,19591,0,0,0,0,12241,0,0,0,0,0.2,1
13964,-3.11491e-12,2.65566e-38,-1.52897e-06,-3.18057e-12,2.65542e-38,0,-1.06634e-13,0,0,-3.46512,-0.251211,0.454651,-0.302848,-0.256017,0.0229406,-0.000906205,0,-0.347213,-0.251211,281,-65,281,-65,413,-81,289,62,0.400362,-0.0708238,0,-1.5,3.94113e+12,0,0,0,-0.302848,-0.256017,0,0,0,0,0.0229406,-0.000906205,19591,0,0,0,0,12241,0,0,0,0,0.2,1
13981,-3.11491e-12,2.65566e-38,-1.52897e-06,-3.18057e-12,2.65542e-38,0,-1.06634e-13,0,0,-3.46512,-0.251211,0.454651,-0.30246,-0.256032,0.0227462,-0.000898524,0,-0.347213,-0.251211,281,-65,281,-65,413,-81,289,62,0.400359,-0.0709015,0,-1.5,3.94113e+12,0,0,0,-0.30246,-0.256032,0,0,0,0,0.0227462,-0.000898524,19591,0,0,0,0,12241,0,0,0,0,0.2,1
14002,-3.11491e-12,2.65566e-38,-1.52897e-06,-3.18057e-12,2.65542e-38,0,-1.06634e-13,0,0,-3.46512,-0.251211,0.454651,-0.301986,-0.256051,0.0225081,-0.000889118,0,-0.347213,-0.251211,281,-65,281,-65,413,-81,289,62,0.400356,-0.0709968,0,-1.5,3.94113e+12,0,0,0,-0.301986,-0.256051,0,0,0,0,0.0225081,-0.000889118,19591,0,0,0,0,12241,0,0,0,0,0.2,1
14019,-3.11491e-12,2.65566e-38,-1.52897e-06,-3.18057e-12,2.65542e-38,0,-1.06635e-13,0,0,-3.46512,-0.251211,0.454651,-0.301605,-0.256066,0.0223173,-0.000881582,0,-0.347213,-0.251211,281,-65,281,-65,413,-81,289,62,0.400353,-0.0710731,0,-1.5,3.94113e+12,0,0,0,-0.301605,-0.256066,0,0,0,0,0.0223173,-0.000881582,19591,0,0,0,0,12241,0,0,0,0,0.2,1
14039,-3.11491e-12,2.65566e-38,-1.52897e-06,-3.18057e-12,2.65542e-38,0,-1.06635e-13,0,0,-3.46512,-0.251211,0.454651,-0.301162,-0.256084,0.0220948,-0.000872794,0,-0.347213,-0.251211,281,-65,281,-65,413,-81,289,62,0.400349,-0.0711621,0,-1.5,3.94113e+12,0,0,0,-0.301162,-0.256084,0,0,0,0,0.0220948,-0.000872794,19591,0,0,0,0,12241,0,0,0,0,0.2,1
14060,-3.11491e-12,2.65566e-38,-1.52897e-06,-3.18057e-12,2.65542e-38,0,-1.06635e-13,0,0,-3.46512,-0.251211,0.454651,-0.300701,-0.256102,0.0218636,-0.000863658,0,-0.347213,-0.251211,281,-65,281,-65,413,-81,289,62,0.400345,-0.0712546,0,-1.5,3.94113e+12,0,0,0,-0.300701,-0.256102,0,0,0,0,0.0218636,-0.000863658,19591,0,0,0,0,12241,0,0,0,0,0.2,1
14077,-3.11491e-12,2.65566e-38,-1.52897e-06,-3.18057e-12,2.65542e-38,0,-1.06636e-13,0,0,-3.46512,-0.251211,0.454651,-0.300332,-0.256117,0.0216782,-0.000856337,0,-0.347213,-0.251211,281,-65,281,-65,413,-81,289,62,0.400343,-0.0713287,0,-1.5,3.94113e+12,0,0,0,-0.300332,-0.256117,0,0,0,0,0.0216782,-0.000856337,19591,0,0,0,0,12241,0,0,0,0,0.2,1
14094,-3.11491e-12,2.65566e-38,-1.52897e-06,-3.18057e-12,2.65542e-38,0,-1.06636e-13,0,0,-3.46512,-0.251211,0.454651,-0.299965,-0.256131,0.0214945,-0.00084908,0,-0.347213,-0.251211,281,-65,281,-65,413,-81,289,62,0.40034,-0.0714022,0,-1.5,3.94113e+12,0,0,0,-0.299965,-0.256131,0,0,0,0,0.0214945,-0.00084908,19591,0,0,0,0,12241,0,0,0,0,0.2,1
14118,-3.11491e-12,2.65566e-38,-1.52897e-06,-3.18057e-12,2.65542e-38,0,-1.06636e-13,0,0,-3.46512,-0.251211,0.454651,-0.299454,-0.256151,0.0212374,-0.000838924,0,-0.347213,-0.251211,281,-65,281,-65,413,-81,289,62,0.400336,-0.071505,0,-1.5,3.94113e+12,0,0,0,-0.299454,-0.256151,0,0,0,0,0.0212374,-0.000838924,19591,0,0,0,0,12241,0,0,0,0,0.2,1
14135,-3.11491e-12,2.65566e-38,-1.52897e-06,-3.18057e-12,2.65542e-38,0,-1.06636e-13,0,0,-3.46512,-0.251211,0.454651,-0.299095,-0.256165,0.0210574,-0.000831813,0,-0.347213,-0.251211,281,-65,281,-65,413,-81,289,62,0.400333,-0.071577,0,-1.5,3.94113e+12,0,0,0,-0.299095,-0.256165,0,0,0,0,0.0210574,-0.000831813,19591,0,0,0,0,12241,0,0,0,0,0.2,1
14149,-3.11491e-12,2.65566e-38,-1.52897e-06,-3.18057e-12,2.65542e-38,0,-1.06637e-13,0,0,-3.46512,-0.251211,0.454651,-0.298801,-0.256177,0.0209104,-0.000826005,0,-0.347213,-0.251211,281,-65,281,-65,413,-81,289,62,0.40033,-0.0716358,0,-1.5,3.94113e+12,0,0,0,-0.298801,-0.256177,0,0,0,0,0.0209104,-0.000826005,19591,0,0,0,0,12241,0,0,0,0,0.2,1
14168,-3.11491e-12,2.65566e-38,-1.52897e-06,-3.18057e-12,2.65542e-38,0,-1.06637e-13,0,0,-3.46512,-0.251211,0.454651,-0.298427,-0.256192,0.0207227,-0.000818593,0,-0.347213,-0.251211,281,-65,281,-65,413,-81,289,62,0.400327,-0.0717109,0,-1.5,3.94113e+12,0,0,0,-0.298427,-0.256192,0,0,0,0,0.0207227,-0.000818593,19591,0,0,0,0,12241,0,0,0,0,0.2,1
14185,-3.11491e-12,2.65566e-38,-1.52897e-06,-3.18057e-12,2.65542e-38,0,-1.06637e-13,0,0,-3.46512,-0.251211,0.454651,-0.298057,-0.256206,0.0205368,-0.000811248,0,-0.347213,-0.251211,281,-65,281,-65,413,-81,289,62,0.400324,-0.0717853,0,-1.5,3.94113e+12,0,0,0,-0.298057,-0.256206,0,0,0,0,0.0205368,-0.000811248,19591,0,0,0,0,12241,0,0,0,0,0.2,1
14202,-3.11491e-12,2.65566e-38,-1.52897e-06,-3.18057e-12,2.65542e-38,0,-1.06637e-13,0,0,-3.46512,-0.251211,0.454651,-0.29773,-0.256219,0.0203729,-0.000804776,0,-0.347213,-0.251211,281,-65,281,-65,413,-81,289,62,0.400322,-0.0718508,0,-1.5,3.94113e+12,0,0,0,-0.29773,-0.256219,0,0,0,0,0.0203729,-0.000804776,19591,0,0,0,0,12241,0,0,0,0,0.2,1
14223,-3.11491e-12,2.65566e-38,-1.52897e-06,-3.18057e-12,2.65542e-38,0,-1.06638e-13,0,0,-3.46512,-0.251211,0.454651,-0.297285,-0.256237,0.0201495,-0.000795951,0,-0.347213,-0.251211,281,-65,281,-65,413,-81,289,62,0.400318,-0.0719402,0,-1.5,3.94113e+12,0,0,0,-0.297285,-0.256237,0,0,0,0,0.0201495,-0.000795951,19591,0,0,0,0,12241,0,0,0,0,0.2,1
14240,-3.11491e-12,2.65566e-38,-1.52897e-06,-3.18057e-12,2.65542e-38,0,-1.06638e-13,0,0,-3.46512,-0.251211,0.454651,-0.296944,-0.25625,0.0199788,-0.000789204,0,-0.347213,-0.251211,281,-65,281,-65,413,-81,289,62,0.400316,-0.0720085,0,-1.5,3.94113e+12,0,0,0,-0.296944,-0.25625,0,0,0,0,0.0199788,-0.000789204,19591,0,0,0,0,12241,0,0,0,0,0.2,1
