timestamp,A_x,A_y,A_z,P,Q,R,Phi,Theta,Psi,poseX,poseY,poseZ,state_X,state_Y,state_Z,state_VzB,state_Bx,state_By,state_Bz,p1_x,p1_y,p2_x,p2_y,p3_x,p3_y,p4_x,p4_y,roll,pitch,yaw,alt,targetHeading,highLevelState,lowLevelState,gateNumber,filtered_x,filtered_y,x_OT,y_OT,vx_OT,vy_OT,filtered_vx,filtered_vygateArearansac_corr_x,ransac_corr_y,ransac_corr_vx,ransac_corr_vy,detectionTimeStamppTermX,dTermX,pTermY,dTermY
8177,0,0,0,0,0,0,0,0,0,0,0,0,0,0,0,0,0,0,0,0,0,0,0,0,0,0,0,0,-0,0,-1.5,nan,0,0,0,0,0,0,0,0,0,0,0,1.9603e-19,0,0,0,0,0,0,0,0,0
9151,-3.11482e-12,3.67499e-38,-1.51314e-06,-3.18057e-12,3.67475e-38,0,-1.06589e-13,0,0,0,0,0,0,0,0,0,0,0,0,0,0,0,0,0,0,0,0,0,-0,0,-1.5,nan,0,0,0,0,0,0,0,0,0,0,0,1.9603e-19,0,0,0,0,0,0,0,0,0
9193,-3.11482e-12,3.67499e-38,-1.51314e-06,-3.18057e-12,3.67475e-38,0,-1.0659e-13,0,0,0,0,0,0,0,0,0,0,0,0,0,0,0,0,0,0,0,0,0,-0,0,-1.5,nan,0,0,0,0,0,0,0,0,0,0,0,1.9603e-19,0,0,0,0,0,0,0,0,0
9430,-3.11482e-12,3.67499e-38,-1.51314e-06,-3.18057e-12,3.67475e-38,0,-1.0659e-13,0,0,0,0,0,0,0,0,0,0,0,0,0,0,0,0,0,0,0,0,0,-0,0,-1.5,nan,0,0,0,0,0,0,0,0,0,0,0,1.9603e-19,0,0,0,0,0,0,0,0,0
9487,-3.11482e-12,3.67499e-38,-1.51314e-06,-3.18057e-12,3.67475e-38,0,-1.0659e-13,0,0,0,0,0,0,0,0,0,0,0,0,0,0,0,0,0,0,0,0,0,-0,0,-1.5,nan,0,0,0,0,0,0,0,0,0,0,0,1.9603e-19,0,0,0,0,0,0,0,0,0
9639,-3.11482e-12,3.67499e-38,-1.51314e-06,-3.18057e-12,3.67475e-38,0,-1.0659e-13,0,0,0,0,0,0,0,0,0,0,0,0,0,0,0,0,0,0,0,0,0,-0,0,-1.5,nan,0,0,0,0,0,0,0,0,0,0,0,1.9603e-19,0,0,0,0,0,0,0,0,0
9684,-3.11482e-12,3.67499e-38,-1.51314e-06,-3.18057e-12,3.67475e-38,0,-1.06591e-13,0,0,0,0,0,0,0,0,0,0,0,0,0,0,0,0,0,0,0,0,0,-0,0,-1.5,nan,0,0,0,0,0,0,0,0,0,0,0,1.9603e-19,0,0,0,0,0,0,0,0,0
9790,-3.11482e-12,3.67499e-38,-1.51314e-06,-3.18057e-12,3.67475e-38,0,-1.06591e-13,0,0,0,0,0,0,0,0,0,0,0,0,0,0,0,0,0,0,0,0,0,-0,0,-1.5,nan,0,0,0,0,0,0,0,0,0,0,0,1.9603e-19,0,0,0,0,0,0,0,0,0
9905,-3.11482e-12,3.67499e-38,-1.51314e-06,-3.18057e-12,3.67475e-38,0,-1.06591e-13,0,0,0,0,0,0,0,0,0,0,0,0,0,0,0,0,0,0,0,0,0,-0,0,-1.5,nan,0,0,0,0,0,0,0,0,0,0,0,1.9603e-19,0,0,0,0,0,0,0,0,0
9926,-3.11482e-12,3.67499e-38,-1.51314e-06,-3.18057e-12,3.67475e-38,0,-1.06591e-13,0,0,0,0,0,0,0,0,0,0,0,0,0,0,0,0,0,0,0,0,0,-0,0,-1.5,nan,0,0,0,0,0,0,0,0,0,0,0,1.9603e-19,0,0,0,0,0,0,0,0,0
9943,-3.11482e-12,3.67499e-38,-1.51314e-06,-3.18057e-12,3.67475e-38,0,-1.06592e-13,0,0,0,0,0,0,0,0,0,0,0,0,0,0,0,0,0,0,0,0,0,-0,0,-1.5,nan,0,0,0,0,0,0,0,0,0,0,0,1.9603e-19,0,0,0,0,0,0,0,0,0
10050,-3.11482e-12,3.67499e-38,-1.51314e-06,-3.18057e-12,3.67475e-38,0,-1.06592e-13,0,0,0,0,0,0,0,0,0,0,0,0,0,0,0,0,0,0,0,0,0,-0,0,-1.5,nan,0,0,0,0,0,0,0,0,0,0,0,1.9603e-19,0,0,0,0,0,0,0,0,0
10144,-3.11482e-12,3.67499e-38,-1.51314e-06,-3.18057e-12,3.67475e-38,0,-1.06592e-13,0,0,0,0,0,0,0,0,0,0,0,0,0,0,0,0,0,0,0,0,0,-0,0,-1.5,nan,0,0,0,0,0,0,0,0,0,0,0,1.9603e-19,0,0,0,0,0,0,0,0,0
10162,-3.11482e-12,3.67499e-38,-1.51314e-06,-3.18057e-12,3.67475e-38,0,-1.06593e-13,0,0,0,0,0,0,0,0,0,0,0,0,0,0,0,0,0,0,0,0,0,-0,0,-1.5,nan,0,0,0,0,0,0,0,0,0,0,0,1.9603e-19,0,0,0,0,0,0,0,0,0
10270,-3.11482e-12,3.67499e-38,-1.51314e-06,-3.18057e-12,3.67475e-38,0,-1.06593e-13,0,0,0,0,0,0,0,0,0,0,0,0,0,0,0,0,0,0,0,0,0,-0,0,-1.5,nan,0,0,0,0,0,0,0,0,0,0,0,1.9603e-19,0,0,0,0,0,0,0,0,0
10324,-3.11482e-12,3.67499e-38,-1.51314e-06,-3.18057e-12,3.67475e-38,0,-1.06593e-13,0,0,0,0,0,0,0,0,0,0,0,0,0,0,0,0,0,0,0,0,0,-0,0,-1.5,nan,0,0,0,0,0,0,0,0,0,0,0,1.9603e-19,0,0,0,0,0,0,0,0,0
10341,-3.11482e-12,3.67499e-38,-1.51314e-06,-3.18057e-12,3.67475e-38,0,-1.06593e-13,0,0,0,0,0,0,0,0,0,0,0,0,0,0,0,0,0,0,0,0,0,-0,0,-1.5,nan,0,0,0,0,0,0,0,0,0,0,0,1.9603e-19,0,0,0,0,0,0,0,0,0
10359,-3.11482e-12,3.67499e-38,-1.51314e-06,-3.18057e-12,3.67475e-38,0,-1.06594e-13,0,0,0,0,0,0,0,0,0,0,0,0,0,0,0,0,0,0,0,0,0,-0,0,-1.5,nan,0,0,0,0,0,0,0,0,0,0,0,1.9603e-19,0,0,0,0,0,0,0,0,0
10460,-3.11482e-12,3.67499e-38,-1.51314e-06,-3.18057e-12,3.67475e-38,0,-1.06594e-13,0,0,0,0,0,0,0,0,0,0,0,0,0,0,0,0,0,0,0,0,0,-0,0,-1.5,nan,0,0,0,0,0,0,0,0,0,0,0,1.9603e-19,0,0,0,0,0,0,0,0,0
10507,-3.11482e-12,3.67499e-38,-1.51314e-06,-3.18057e-12,3.67475e-38,0,-1.06594e-13,0,0,0,0,0,0,0,0,0,0,0,0,0,0,0,0,0,0,0,0,0,-0,0,-1.5,nan,0,0,0,0,0,0,0,0,0,0,0,1.9603e-19,0,0,0,0,0,0,0,0,0
10525,-3.11482e-12,3.67499e-38,-1.51314e-06,-3.18057e-12,3.67475e-38,0,-1.06594e-13,0,0,0,0,0,0,0,0,0,0,0,0,0,0,0,0,0,0,0,0,0,-0,0,-1.5,nan,0,0,0,0,0,0,0,0,0,0,0,1.9603e-19,0,0,0,0,0,0,0,0,0
10540,-3.11482e-12,3.67499e-38,-1.51314e-06,-3.18057e-12,3.67475e-38,0,-1.06595e-13,0,0,0,0,0,0,0,0,0,0,0,0,0,0,0,0,0,0,0,0,0,-0,0,-1.5,nan,0,0,0,0,0,0,0,0,0,0,0,1.9603e-19,0,0,0,0,0,0,0,0,0
10554,-3.11482e-12,3.67499e-38,-1.51314e-06,-3.18057e-12,3.67475e-38,0,-1.06595e-13,0,0,0,0,0,0,0,0,0,0,0,0,0,0,0,0,0,0,0,0,0,-0,0,-1.5,nan,0,0,0,0,0,0,0,0,0,0,0,1.9603e-19,0,0,0,0,0,0,0,0,0
10571,-3.11482e-12,3.67499e-38,-1.51314e-06,-3.18057e-12,3.67475e-38,0,-1.06595e-13,0,0,0,0,0,0,0,0,0,0,0,0,0,0,0,0,0,0,0,0,0,-0,0,-1.5,nan,0,0,0,0,0,0,0,0,0,0,0,1.9603e-19,0,0,0,0,0,0,0,0,0
10655,-3.11482e-12,3.67499e-38,-1.51314e-06,-3.18057e-12,3.67475e-38,0,-1.06596e-13,0,0,0,0,0,0,0,0,0,0,0,0,0,0,0,0,0,0,0,0,0,-0,0,-1.5,nan,0,0,0,0,0,0,0,0,0,0,0,1.9603e-19,0,0,0,0,0,0,0,0,0
10673,-3.11482e-12,3.67499e-38,-1.51314e-06,-3.18057e-12,3.67475e-38,0,-1.06596e-13,0,0,0,0,0,0,0,0,0,0,0,0,0,0,0,0,0,0,0,0,0,-0,0,-1.5,nan,0,0,0,0,0,0,0,0,0,0,0,1.9603e-19,0,0,0,0,0,0,0,0,0
10694,-3.11482e-12,3.67499e-38,-1.51314e-06,-3.18057e-12,3.67475e-38,0,-1.06596e-13,0,0,0,0,0,0,0,0,0,0,0,0,0,0,0,0,0,0,0,0,0,-0,0,-1.5,nan,0,0,0,0,0,0,0,0,0,0,0,1.9603e-19,0,0,0,0,0,0,0,0,0
10745,-3.11482e-12,3.67499e-38,-1.51314e-06,-3.18057e-12,3.67475e-38,0,-1.06596e-13,0,0,0,0,0,0,0,0,0,0,0,0,0,0,0,0,0,0,0,0,0,-0,0,-1.5,nan,0,0,0,0,0,0,0,0,0,0,0,1.9603e-19,0,0,0,0,0,0,0,0,0
10765,-3.11482e-12,3.67499e-38,-1.51314e-06,-3.18057e-12,3.67475e-38,0,-1.06597e-13,0,0,0,0,0,0,0,0,0,0,0,0,0,0,0,0,0,0,0,0,0,-0,0,-1.5,nan,0,0,0,0,0,0,0,0,0,0,0,1.9603e-19,0,0,0,0,0,0,0,0,0
10784,-3.11482e-12,3.67499e-38,-1.51314e-06,-3.18057e-12,3.67475e-38,0,-1.06597e-13,0,0,0,0,0,0,0,0,0,0,0,0,0,0,0,0,0,0,0,0,0,-0,0,-1.5,nan,0,0,0,0,0,0,0,0,0,0,0,1.9603e-19,0,0,0,0,0,0,0,0,0
10803,-3.11482e-12,3.67499e-38,-1.51314e-06,-3.18057e-12,3.67475e-38,0,-1.06597e-13,0,0,0,0,0,0,0,0,0,0,0,0,0,0,0,0,0,0,0,0,0,-0,0,-1.5,nan,0,0,0,0,0,0,0,0,0,0,0,1.9603e-19,0,0,0,0,0,0,0,0,0
10824,-3.11482e-12,3.67499e-38,-1.51314e-06,-3.18057e-12,3.67475e-38,0,-1.06597e-13,0,0,0,0,0,0,0,0,0,0,0,0,0,0,0,0,0,0,0,0,0,-0,0,-1.5,nan,0,0,0,0,0,0,0,0,0,0,0,1.9603e-19,0,0,0,0,0,0,0,0,0
10842,-3.11482e-12,3.67499e-38,-1.51314e-06,-3.18057e-12,3.67475e-38,0,-1.06598e-13,0,0,0,0,0,0,0,0,0,0,0,0,0,0,0,0,0,0,0,0,0,-0,0,-1.5,nan,0,0,0,0,0,0,0,0,0,0,0,1.9603e-19,0,0,0,0,0,0,0,0,0
10860,-3.11482e-12,3.67499e-38,-1.51314e-06,-3.18057e-12,3.67475e-38,0,-1.06598e-13,0,0,0,0,0,0,0,0,0,0,0,0,0,0,0,0,0,0,0,0,0,-0,0,-1.5,nan,0,0,0,0,0,0,0,0,0,0,0,1.9603e-19,0,0,0,0,0,0,0,0,0
10882,-3.11482e-12,3.67499e-38,-1.51314e-06,-3.18057e-12,3.67475e-38,0,-1.06598e-13,0,0,0,0,0,0,0,0,0,0,0,0,0,0,0,0,0,0,0,0,0,-0,0,-1.5,nan,0,0,0,0,0,0,0,0,0,0,0,1.9603e-19,0,0,0,0,0,0,0,0,0
10900,-3.11482e-12,3.67499e-38,-1.51314e-06,-3.18057e-12,3.67475e-38,0,-1.06599e-13,0,0,0,0,0,0,0,0,0,0,0,0,0,0,0,0,0,0,0,0,0,-0,0,-1.5,nan,0,0,0,0,0,0,0,0,0,0,0,1.9603e-19,0,0,0,0,0,0,0,0,0
10921,-3.11482e-12,3.67499e-38,-1.51314e-06,-3.18057e-12,3.67475e-38,0,-1.06599e-13,0,0,0,0,0,0,0,0,0,0,0,0,0,0,0,0,0,0,0,0,0,-0,0,-1.5,nan,0,0,0,0,0,0,0,0,0,0,0,1.9603e-19,0,0,0,0,0,0,0,0,0
10938,-3.11482e-12,3.67499e-38,-1.51314e-06,-3.18057e-12,3.67475e-38,0,-1.06599e-13,0,0,0,0,0,0,0,0,0,0,0,0,0,0,0,0,0,0,0,0,0,-0,0,-1.5,nan,0,0,0,0,0,0,0,0,0,0,0,1.9603e-19,0,0,0,0,0,0,0,0,0
10977,-3.11482e-12,3.67499e-38,-1.51314e-06,-3.18057e-12,3.67475e-38,0,-1.06599e-13,0,0,0,0,0,0,0,0,0,0,0,0,0,0,0,0,0,0,0,0,0,-0,0,-1.5,nan,0,0,0,0,0,0,0,0,0,0,0,1.9603e-19,0,0,0,0,0,0,0,0,0
10998,-3.11482e-12,3.67499e-38,-1.51314e-06,-3.18057e-12,3.67475e-38,0,-1.066e-13,0,0,0,0,0,0,0,0,0,0,0,0,0,0,0,0,0,0,0,0,0,-0,0,-1.5,nan,0,0,0,0,0,0,0,0,0,0,0,1.9603e-19,0,0,0,0,0,0,0,0,0
11016,-3.11482e-12,3.67499e-38,-1.51314e-06,-3.18057e-12,3.67475e-38,0,-1.066e-13,0,0,0,0,0,0,0,0,0,0,0,0,0,0,0,0,0,0,0,0,0,-0,0,-1.5,nan,0,0,0,0,0,0,0,0,0,0,0,1.9603e-19,0,0,0,0,0,0,0,0,0
11036,-3.11482e-12,3.67499e-38,-1.51314e-06,-3.18057e-12,3.67475e-38,0,-1.066e-13,0,0,0,0,0,0,0,0,0,0,0,0,0,0,0,0,0,0,0,0,0,-0,0,-1.5,nan,0,0,0,0,0,0,0,0,0,0,0,1.9603e-19,0,0,0,0,0,0,0,0,0
11058,-3.11482e-12,3.67499e-38,-1.51314e-06,-3.18057e-12,3.67475e-38,0,-1.066e-13,0,0,0,0,0,0,0,0,0,0,0,0,0,0,0,0,0,0,0,0,0,-0,0,-1.5,nan,0,0,0,0,0,0,0,0,0,0,0,1.9603e-19,0,0,0,0,0,0,0,0,0
11089,-3.11482e-12,3.67499e-38,-1.51314e-06,-3.18057e-12,3.67475e-38,0,-1.06601e-13,0,0,0,0,0,0,0,0,0,0,0,0,0,0,0,0,0,0,0,0,0,-0,0,-1.5,nan,0,0,0,0,0,0,0,0,0,0,0,1.9603e-19,0,0,0,0,0,0,0,0,0
11118,-3.11482e-12,3.67499e-38,-1.51314e-06,-3.18057e-12,3.67475e-38,0,-1.06601e-13,0,0,-3.43883,-0.376891,0.683929,0,0,0,0,0,-0.311195,-0.376891,302,-103,302,-103,431,-110,301,36,0,-0,0,-1.5,nan,0,0,0,0,0,0,0,0,0,0,0,18980,0,0,0,0,11109,0,0,0,0
11134,-3.11482e-12,3.67499e-38,-1.51314e-06,-3.18057e-12,3.67475e-38,0,-1.06601e-13,0,0,-3.48444,-0.378738,0.64252,0,0,0,0,0,-0.37368,-0.378738,302,-94,302,-94,430,-101,302,40,0,-0,0,-1.5,nan,0,0,0,0,0,0,0,0,0,0,0,18048,0,0,0,0,11125,0,0,0,0
11156,-3.11482e-12,3.67499e-38,-1.51314e-06,-3.18057e-12,3.67475e-38,0,-1.06602e-13,0,0,-3.61752,-0.43388,0.662996,0,0,0,0,0,-0.556006,-0.43388,310,-84,310,-84,434,-87,305,42,0,-0,0,-1.5,nan,0,0,0,0,0,0,0,0,0,0,0,16641,0,0,0,0,11151,0,0,0,0
11172,-3.11482e-12,3.67499e-38,-1.51314e-06,-3.18057e-12,3.67475e-38,0,-1.06602e-13,0,0,-3.61752,-0.43388,0.662996,0,0,0,0,0,-0.556006,-0.43388,310,-84,310,-84,434,-87,305,42,0,-0,0,-1.5,nan,0,0,0,0,0,0,0,0,0,0,0,16641,0,0,0,0,11151,0,0,0,0
11201,-3.11482e-12,3.67499e-38,-1.51314e-06,-3.18057e-12,3.67475e-38,0,-1.06602e-13,0,0,-3.51988,-0.410144,0.568289,0,0,0,0,0,-0.422242,-0.410144,305,-80,305,-80,434,-87,304,50,0.436332,-0.261799,0,-1.5,nan,0,0,0,-0.446964,-0.426133,0,0,0,0,-0.882925,-0.571025,17810,-0.422242,-0.410144,-0.882925,-0.571025,11185,0.223482,0.264886,0.213067,0.285521
11258,-3.11482e-12,3.67499e-38,-1.51314e-06,-3.18057e-12,3.67475e-38,0,-1.06602e-13,0,0,-3.57195,-0.408833,0.594701,0,0,0,0,0,-0.493567,-0.408833,305,-75,305,-75,432,-88,304,49,0.195824,-0.261799,0,-1.5,nan,0,0,0,-0.501741,-0.408679,0,0,0,0,-0.908222,0.0170375,17536,-0.493567,-0.408833,-0.908222,0.0170375,11251,0.25087,0.272481,0.20434,-0.00851601
11275,-3.11482e-12,3.67499e-38,-1.51314e-06,-3.18057e-12,3.67475e-38,0,-1.06603e-13,0,0,-3.57195,-0.408833,0.594701,0,0,0,0,0,-0.493567,-0.408833,305,-75,305,-75,432,-88,304,49,0.195679,-0.261799,0,-1.5,nan,0,0,0,-0.517181,-0.40839,0,0,0,0,-0.908222,0.0170375,17536,-0.493567,-0.408833,-0.908222,0.0170375,11251,0.25859,0.272477,0.204195,-0.00851601
11295,-3.11482e-12,3.67499e-38,-1.51314e-06,-3.18057e-12,3.67475e-38,0,-1.06603e-13,0,0,-3.59486,-0.418116,0.608887,0,0,0,0,0,-0.524961,-0.418116,308,-75,308,-75,432,-88,304,49,0.24853,-0.261799,0,-1.5,nan,0,0,0,-0.544111,-0.419664,0,0,0,0,-0.957462,-0.0773926,17536,-0.524961,-0.418116,-0.957462,-0.0773926,11284,0.272055,0.287247,0.209832,0.0386983
11370,-3.11482e-12,3.67499e-38,-1.51314e-06,-3.18057e-12,3.67475e-38,0,-1.06603e-13,0,0,-3.56748,-0.40593,0.603039,0,0,0,0,0,-0.487442,-0.40593,305,-75,305,-75,431,-90,303,47,0.193798,-0.224532,0,-1.5,nan,0,0,0,-0.490468,-0.406953,0,0,0,0,0.0689994,0.0193662,17536,-0.491158,-0.407147,0.0689994,0.0193662,11362,0.245234,-0.0207022,0.203476,-0.0096783
11391,-3.11482e-12,3.67499e-38,-1.51314e-06,-3.18057e-12,3.67475e-38,0,-1.06606e-13,0,0,-3.57931,-0.407518,0.599315,0,0,0,0,0,-0.503655,-0.407518,305,-75,305,-75,431,-88,304,49,0.197517,-0.261799,0,-1.5,nan,0,0,0,-0.506004,-0.407312,0,0,0,0,-0.0652511,0.0122843,17399,-0.505352,-0.407435,-0.0652511,0.0122843,11383,0.253002,0.0195801,0.203656,-0.00613928
11407,-3.11482e-12,3.67499e-38,-1.51314e-06,-3.18057e-12,3.67475e-38,0,-1.06603e-13,0,0,-3.57931,-0.407518,0.599315,0,0,0,0,0,-0.503655,-0.407518,305,-75,305,-75,431,-88,304,49,0.197419,-0.261799,0,-1.5,nan,0,0,0,-0.507048,-0.407116,0,0,0,0,-0.0652511,0.0122843,17399,-0.505352,-0.407435,-0.0652511,0.0122843,11383,0.253524,0.0195801,0.203558,-0.00613928
11446,-3.11482e-12,3.67499e-38,-1.51314e-06,-3.18057e-12,3.67475e-38,0,-1.06604e-13,0,0,-3.59611,-0.418334,0.616771,0,0,0,0,0,-0.526676,-0.418334,308,-75,308,-75,432,-88,303,47,0.19563,-0.261799,0,-1.5,nan,0,0,0,-0.516966,-0.407755,0,0,0,0,-0.087831,0.016489,17415,-0.513541,-0.408398,-0.087831,0.016489,11434,0.258483,0.0263482,0.203877,-0.00824779
11472,-3.11482e-12,3.67499e-38,-1.51314e-06,-3.18057e-12,3.67475e-38,0,-1.06604e-13,0,0,-3.5853,-0.418924,0.603011,0,0,0,0,0,-0.511858,-0.418924,308,-75,308,-75,432,-88,304,50,0.227326,-0.261799,0,-1.5,nan,0,0,0,-0.511334,-0.420393,0,0,0,0,-0.066211,-0.0342576,17664,-0.509612,-0.419503,-0.066211,-0.0342576,11460,0.255667,0.0198662,0.210197,0.0171289
11489,-3.11482e-12,3.67499e-38,-1.51314e-06,-3.18057e-12,3.67475e-38,0,-1.06605e-13,0,0,-3.57178,-0.424466,0.577821,0,0,0,0,0,-0.49334,-0.424466,308,-75,308,-75,432,-83,304,52,0.225427,-0.261799,0,-1.5,nan,0,0,0,-0.512459,-0.420038,0,0,0,0,-0.0662104,-0.0308128,17280,-0.511996,-0.419822,-0.0662104,-0.0308128,11484,0.25623,0.0198662,0.210019,0.0154078
11506,-3.11482e-12,3.67499e-38,-1.51314e-06,-3.18057e-12,3.67475e-38,0,-1.06604e-13,0,0,-3.57178,-0.424466,0.577821,0,0,0,0,0,-0.49334,-0.424466,308,-75,308,-75,432,-83,304,52,0.225688,-0.261799,0,-1.5,nan,0,0,0,-0.513585,-0.420561,0,0,0,0,-0.0662104,-0.0308128,17280,-0.511996,-0.419822,-0.0662104,-0.0308128,11484,0.256792,0.0198662,0.210281,0.0154078
11532,-3.11482e-12,3.67499e-38,-1.51314e-06,-3.18057e-12,3.67475e-38,0,-1.06605e-13,0,0,-3.57514,-0.420345,0.601322,0,0,0,0,0,-0.497944,-0.420345,308,-75,308,-75,434,-88,303,47,0.226695,-0.24561,0,-1.5,nan,0,0,0,-0.500143,-0.421695,0,0,0,0,0.0148671,-0.031704,17685,-0.50053,-0.420871,0.0148671,-0.031704,11520,0.250072,-0.00446141,0.210848,0.0158474
11575,-3.11482e-12,3.67499e-38,-1.51314e-06,-3.18057e-12,3.67475e-38,0,-1.06606e-13,0,0,-3.57004,-0.412005,0.610779,0,0,0,0,0,-0.490952,-0.412005,305,-80,305,-80,432,-88,305,46,0.228193,-0.235313,0,-1.5,nan,0,0,0,-0.493522,-0.422888,0,0,0,0,0.0381587,-0.0334884,17018,-0.495163,-0.421448,0.0381587,-0.0334884,11563,0.246761,-0.0114486,0.211444,0.0167489
11597,-3.11482e-12,3.67499e-38,-1.51314e-06,-3.18057e-12,3.67475e-38,0,-1.06609e-13,0,0,-3.60512,-0.417455,0.622314,0,0,0,0,0,-0.539021,-0.417455,308,-75,308,-75,432,-88,303,46,0.218356,-0.242228,0,-1.5,nan,0,0,0,-0.497144,-0.41813,0,0,0,0,0.0211462,-0.0185778,17286,-0.497588,-0.41774,0.0211462,-0.0185778,11584,0.248572,-0.00634342,0.209065,0.00929087
11622,-3.11482e-12,3.67499e-38,-1.51314e-06,-3.18057e-12,3.67475e-38,0,-1.06609e-13,0,0,-3.60696,-0.419935,0.599156,0,0,0,0,0,-0.541532,-0.419935,308,-75,308,-75,432,-83,304,52,0.364138,-0.261799,0,-1.5,nan,0,0,0,-0.527873,-0.420349,0,0,0,0,-0.0850427,-0.0224111,17280,-0.527362,-0.420214,-0.0850427,-0.0224111,11618,0.263936,1.5576,0.210174,0.153964
11639,-3.11482e-12,3.67499e-38,-1.51314e-06,-3.18057e-12,3.67475e-38,0,-1.06605e-13,0,0,-3.60696,-0.419935,0.599156,0,0,0,0,0,-0.541532,-0.419935,308,-75,308,-75,432,-83,304,52,0.221571,-0.261799,0,-1.5,nan,0,0,0,-0.529318,-0.42073,0,0,0,0,-0.0850427,-0.0224111,17280,-0.527362,-0.420214,-0.0850427,-0.0224111,11618,0.264659,0.0255078,0.210365,0.0112057
11663,-3.11482e-12,3.67499e-38,-1.51314e-06,-3.18057e-12,3.67475e-38,0,-1.06609e-13,0,0,-3.60696,-0.419935,0.599156,0,0,0,0,0,-0.541532,-0.419935,308,-75,308,-75,432,-83,304,52,0.221323,-0.261799,0,-1.5,nan,0,0,0,-0.544206,-0.420472,0,0,0,0,-0.132439,-0.0221702,17280,-0.54116,-0.419963,-0.132439,-0.0221702,11650,0.272103,0.0397325,0.210236,0.0110865
11688,-3.11482e-12,3.67499e-38,-1.51314e-06,-3.18057e-12,3.67475e-38,0,-1.0661e-13,0,0,-3.5942,-0.420727,0.609287,0,0,0,0,0,-0.524053,-0.420727,308,-75,308,-75,432,-86,303,47,0.221501,-0.261799,0,-1.5,nan,0,0,0,-0.531452,-0.421067,0,0,0,0,-0.0862448,-0.021947,17157,-0.530762,-0.420891,-0.0862448,-0.021947,11682,0.265726,0.0258744,0.210533,0.0109673
11788,-3.11482e-12,3.67499e-38,-1.51314e-06,-3.18057e-12,3.67475e-38,0,-1.06611e-13,0,0,-3.61233,-0.41876,0.624812,0,0,0,0,0,-0.54889,-0.41876,308,-76,308,-76,432,-86,303,46,0.221223,-0.261799,0,-1.5,nan,0,0,0,-0.548843,-0.422628,0,0,0,0,-0.105189,-0.0198214,17028,-0.548001,-0.42247,-0.105189,-0.0198214,11782,0.274422,0.0315607,0.211314,0.00990927
11806,-3.11482e-12,3.67499e-38,-1.51314e-06,-3.18057e-12,3.67475e-38,0,-1.0661e-13,0,0,-3.61233,-0.41876,0.624812,0,0,0,0,0,-0.54889,-0.41876,308,-76,308,-76,432,-86,303,46,0.221402,-0.261799,0,-1.5,nan,0,0,0,-0.550736,-0.422985,0,0,0,0,-0.105189,-0.0198214,17028,-0.548001,-0.42247,-0.105189,-0.0198214,11782,0.275368,0.0315517,0.211493,0.00990927
11827,-3.11482e-12,3.67499e-38,-1.51314e-06,-3.18057e-12,3.67475e-38,0,-1.06608e-13,0,0,-3.58149,-0.416946,0.583044,0,0,0,0,0,-0.506635,-0.416946,308,-75,308,-75,431,-85,304,52,0.218125,-0.261799,0,-1.5,nan,0,0,0,-0.550742,-0.42123,0,0,0,0,-0.0964856,-0.015015,17399,-0.549585,-0.421049,-0.0964856,-0.015015,11817,0.275371,0.02895,0.210615,0.00751018
11845,-3.11482e-12,3.67499e-38,-1.51314e-06,-3.18057e-12,3.67475e-38,0,-1.0661e-13,0,0,-3.58149,-0.416946,0.583044,0,0,0,0,0,-0.506635,-0.416946,308,-75,308,-75,431,-85,304,52,0.21826,-0.261799,0,-1.5,nan,0,0,0,-0.552479,-0.4215,0,0,0,0,-0.0964856,-0.015015,17399,-0.549585,-0.421049,-0.0964856,-0.015015,11817,0.27624,0.02895,0.21075,0.00751018
11866,-3.11482e-12,3.67499e-38,-1.51314e-06,-3.18057e-12,3.67475e-38,0,-1.06606e-13,0,0,-3.58162,-0.423253,0.600784,0,0,0,0,0,-0.506819,-0.423253,307,-80,307,-80,434,-83,305,46,0.221742,-0.261799,0,-1.5,nan,0,0,0,-0.541186,-0.423904,0,0,0,0,-0.0693597,-0.0195838,16641,-0.53973,-0.423493,-0.0693597,-0.0195838,11854,0.270593,0.020805,0.211952,0.00979006
11888,-3.11482e-12,3.67499e-38,-1.51314e-06,-3.18057e-12,3.67475e-38,0,-1.06607e-13,0,0,-3.60314,-0.419592,0.614751,0,0,0,0,0,-0.536297,-0.419592,308,-75,308,-75,432,-86,303,47,0.219036,-0.261799,0,-1.5,nan,0,0,0,-0.534602,-0.422395,0,0,0,0,-0.0513883,-0.0156873,17157,-0.53414,-0.422254,-0.0513883,-0.0156873,11881,0.267301,0.0154138,0.211198,0.00783801
11912,-3.11482e-12,3.67499e-38,-1.51314e-06,-3.18057e-12,3.67475e-38,0,-1.06609e-13,0,0,-3.60314,-0.419592,0.614751,0,0,0,0,0,-0.536297,-0.419592,308,-75,308,-75,432,-86,303,47,0.219216,-0.261799,0,-1.5,nan,0,0,0,-0.535784,-0.422756,0,0,0,0,-0.0513883,-0.0156873,17157,-0.53414,-0.422254,-0.0513883,-0.0156873,11881,0.267892,0.0154138,0.211378,0.00783801
11934,-3.11482e-12,3.67499e-38,-1.51314e-06,-3.18057e-12,3.67475e-38,0,-1.06607e-13,0,0,-3.59373,-0.416759,0.606274,0,0,0,0,0,-0.523408,-0.416759,308,-76,308,-76,432,-86,303,47,0.211618,-0.261799,0,-1.5,nan,0,0,0,-0.539975,-0.419959,0,0,0,0,-0.0594192,-0.00326973,17157,-0.538668,-0.419887,-0.0594192,-0.00326973,11920,0.269987,0.0178277,0.209979,0.00163913
11956,-3.11482e-12,3.67499e-38,-1.51314e-06,-3.18057e-12,3.67475e-38,0,-1.06611e-13,0,0,-3.57551,-0.417137,0.577105,0,0,0,0,0,-0.498451,-0.417137,308,-75,308,-75,431,-85,304,49,0.203495,-0.0731317,0,-1.5,nan,0,0,0,-0.536374,-0.41992,0,0,0,0,-0.048175,-0.00284448,17018,-0.536037,-0.419901,-0.048175,-0.00284448,11951,0.268187,-0.195055,0.20996,-0.00646497
12029,-3.11482e-12,3.67499e-38,-1.51314e-06,-3.18057e-12,3.67475e-38,0,-1.06611e-13,0,0,-3.60611,-0.41792,0.618601,0,0,0,0,0,-0.540365,-0.41792,308,-76,308,-76,432,-86,303,47,0.210799,-0.261799,0,-1.5,nan,0,0,0,-0.543809,-0.419527,0,0,0,0,-0.0563824,-0.00207397,17157,-0.539693,-0.419376,-0.0563824,-0.00207397,12016,0.271904,0.0169158,0.209763,0.00103563
12047,-3.11482e-12,3.67499e-38,-1.51314e-06,-3.18057e-12,3.67475e-38,0,-1.06607e-13,0,0,-3.60611,-0.41792,0.618601,0,0,0,0,0,-0.540365,-0.41792,308,-76,308,-76,432,-86,303,47,0.210825,-0.261799,0,-1.5,nan,0,0,0,-0.544824,-0.419564,0,0,0,0,-0.0563824,-0.00207397,17157,-0.539693,-0.419376,-0.0563824,-0.00207397,12016,0.272412,0.0169158,0.209782,0.00104308
12071,-3.11482e-12,3.67499e-38,-1.51314e-06,-3.18057e-12,3.67475e-38,0,-1.06607e-13,0,0,-3.58633,-0.417088,0.59267,0,0,0,0,0,-0.513273,-0.417088,308,-75,308,-75,431,-86,304,52,0.209383,-0.261799,0,-1.5,nan,0,0,0,-0.530629,-0.418334,0,0,0,0,-0.0334389,-0.000433067,17526,-0.529827,-0.418323,-0.0334389,-0.000433067,12058,0.265315,0.0100315,0.209167,0.000216067
12098,-3.11482e-12,3.67499e-38,-1.51314e-06,-3.18057e-12,3.67475e-38,0,-1.06611e-13,0,0,-3.5578,-0.42119,0.579983,0,0,0,0,0,-0.474189,-0.42119,308,-75,308,-75,432,-86,303,47,0.210272,-0.261799,0,-1.5,nan,0,0,0,-0.529044,-0.419263,0,0,0,0,-0.0296008,-0.00128049,17157,-0.528245,-0.419228,-0.0296008,-0.00128049,12084,0.264522,0.00887811,0.209631,0.00064075
12120,-3.11482e-12,3.67499e-38,-1.51314e-06,-3.18057e-12,3.67475e-38,0,-1.06612e-13,0,0,-3.60611,-0.41792,0.618601,0,0,0,0,0,-0.540365,-0.41792,308,-76,308,-76,432,-86,303,47,0.128193,-0.261799,0,-1.5,nan,0,0,0,-0.534684,-0.41815,0,0,0,0,-0.0373167,0.000148199,17157,-0.534423,-0.418151,-0.0373167,0.000148199,12115,0.267342,0.222672,0.209075,-0.0808814
12134,-3.11482e-12,3.67499e-38,-1.51314e-06,-3.18057e-12,3.67475e-38,0,-1.06608e-13,0,0,-3.60611,-0.41792,0.618601,0,0,0,0,0,-0.540365,-0.41792,308,-76,308,-76,432,-86,303,47,0.208999,-0.261799,0,-1.5,nan,0,0,0,-0.535206,-0.418148,0,0,0,0,-0.0373167,0.000148199,17157,-0.534423,-0.418151,-0.0373167,0.000148199,12115,0.267603,0.0111938,0.209074,-7.45058e-05
12157,-3.11482e-12,3.67499e-38,-1.51314e-06,-3.18057e-12,3.67475e-38,0,-1.06612e-13,0,0,-3.60611,-0.41792,0.618601,0,0,0,0,0,-0.540365,-0.41792,308,-76,308,-76,432,-86,303,47,0.208783,-0.261799,0,-1.5,nan,0,0,0,-0.539159,-0.418029,0,0,0,0,-0.0385428,0.000472327,17157,-0.538773,-0.418033,-0.0385428,0.000472327,12149,0.269579,0.0115603,0.209014,-0.000230968
12201,-3.11482e-12,3.67499e-38,-1.51314e-06,-3.18057e-12,3.67475e-38,0,-1.06612e-13,0,0,-3.59832,-0.421105,0.593917,0,0,0,0,0,-0.529696,-0.421105,308,-75,308,-75,432,-83,304,52,0.209353,-0.261799,0,-1.5,nan,0,0,0,-0.531667,-0.418542,0,0,0,0,-0.0253069,-0.000161926,17280,-0.530553,-0.418535,-0.0253069,-0.000161926,12187,0.265833,0.00759065,0.209271,8.19564e-05
12224,-3.11482e-12,3.67499e-38,-1.51314e-06,-3.18057e-12,3.67475e-38,0,-1.06613e-13,0,0,-3.56046,-0.423076,0.583602,0,0,0,0,0,-0.477833,-0.423076,308,-76,308,-76,432,-86,304,50,0.211052,-0.261799,0,-1.5,nan,0,0,0,-0.533111,-0.420017,0,0,0,0,-0.0305105,-0.00208386,17408,-0.532806,-0.419997,-0.0305105,-0.00208386,12216,0.266556,0.00915527,0.210009,0.00104308
12244,-3.11482e-12,3.67499e-38,-1.51314e-06,-3.18057e-12,3.67475e-38,0,-1.06608e-13,0,0,-3.56046,-0.423076,0.583602,0,0,0,0,0,-0.477833,-0.423076,308,-76,308,-76,432,-86,304,50,0.211073,-0.261799,0,-1.5,nan,0,0,0,-0.533722,-0.420059,0,0,0,0,-0.0305105,-0.00208386,17408,-0.532806,-0.419997,-0.0305105,-0.00208386,12216,0.266861,0.00914931,0.21003,0.00104308
12271,-3.11482e-12,3.67499e-38,-1.51314e-06,-3.18057e-12,3.67475e-38,0,-1.06613e-13,0,0,-3.56873,-0.410661,0.581868,0,0,0,0,0,-0.489163,-0.410661,308,-75,308,-75,431,-86,302,52,0.20986,-0.261799,0,-1.5,nan,0,0,0,-0.532255,-0.418976,0,0,0,0,-0.0244174,-0.000748891,17802,-0.531595,-0.418955,-0.0244174,-0.000748891,12257,0.266127,0.00732243,0.209488,0.000372529
12294,-3.11482e-12,3.67499e-38,-1.51314e-06,-3.18057e-12,3.67475e-38,0,-1.06613e-13,0,0,-3.58687,-0.417466,0.593048,0,0,0,0,0,-0.514009,-0.417466,308,-76,308,-76,431,-85,304,52,0.208803,-0.259262,0,-1.5,nan,0,0,0,-0.515699,-0.417943,0,0,0,0,-0.00470995,0.000343005,17399,-0.515643,-0.417947,-0.00470995,0.000343005,12284,0.25785,0.00141263,0.208971,-0.00016888
12310,-3.11482e-12,3.67499e-38,-1.51314e-06,-3.18057e-12,3.67475e-38,0,-1.06613e-13,0,0,-3.58687,-0.417466,0.593048,0,0,0,0,0,-0.514009,-0.417466,308,-76,308,-76,431,-85,304,52,0.208797,-0.2593,0,-1.5,nan,0,0,0,-0.515774,-0.417937,0,0,0,0,-0.00470995,0.000343005,17399,-0.515643,-0.417947,-0.00470995,0.000343005,12284,0.257887,0.00141263,0.208969,-0.000171363
12340,-3.11482e-12,3.67499e-38,-1.51314e-06,-3.18057e-12,3.67475e-38,0,-1.06614e-13,0,0,-3.56552,-0.416391,0.588013,0,0,0,0,0,-0.484763,-0.416391,308,-80,308,-80,432,-85,304,49,0.208541,-0.256935,0,-1.5,nan,0,0,0,-0.514066,-0.417724,0,0,0,0,0.000352585,0.000639528,17152,-0.514077,-0.417743,0.000352585,0.000639528,12326,0.257033,-9.83477e-05,0.208862,-0.000320375
12363,-3.11482e-12,3.67499e-38,-1.51314e-06,-3.18057e-12,3.67475e-38,0,-1.06614e-13,0,0,-3.61197,-0.418432,0.620152,0,0,0,0,0,-0.548398,-0.418432,308,-75,308,-75,432,-86,303,47,0.208823,-0.261799,0,-1.5,nan,0,0,0,-0.532311,-0.418048,0,0,0,0,-0.0234533,0.000399504,17157,-0.531983,-0.418054,-0.0234533,0.000399504,12351,0.266156,0.00703633,0.209024,-0.000201166
12386,-3.11482e-12,3.67499e-38,-1.51314e-06,-3.18057e-12,3.67475e-38,0,-1.06614e-13,0,0,-3.57259,-0.424465,0.591366,0,0,0,0,0,-0.494443,-0.424465,308,-75,308,-75,432,-86,304,49,0.18089,0.261799,0,-1.5,nan,0,0,0,-0.516283,-0.417651,0,0,0,0,-0.00490502,0.00111273,17280,-0.516249,-0.417659,-0.00490502,0.00111273,12380,0.258141,-0.702018,0.208826,-0.0279354
12399,-3.11482e-12,3.67499e-38,-1.51314e-06,-3.18057e-12,3.67475e-38,0,-1.06614e-13,0,0,-3.57259,-0.424465,0.591366,0,0,0,0,0,-0.494443,-0.424465,308,-75,308,-75,432,-86,304,49,0.208259,-0.259642,0,-1.5,nan,0,0,0,-0.516352,-0.417636,0,0,0,0,-0.00490502,0.00111273,17280,-0.516249,-0.417659,-0.00490502,0.00111273,12380,0.258176,0.00146627,0.208818,-0.000558794
12423,-3.11482e-12,3.67499e-38,-1.51314e-06,-3.18057e-12,3.67475e-38,0,-1.06615e-13,0,0,-3.564,-0.410538,0.572344,0,0,0,0,0,-0.482679,-0.410538,308,-75,308,-75,431,-85,302,52,0.20764,-0.246847,0,-1.5,nan,0,0,0,-0.50562,-0.417261,0,0,0,0,0.0198683,0.00198094,17673,-0.505799,-0.417279,0.0198683,0.00198094,12416,0.25281,-0.00596344,0.208631,-0.000990927
12465,-3.11482e-12,3.67499e-38,-1.51314e-06,-3.18057e-12,3.67475e-38,0,-1.06615e-13,0,0,-3.57585,-0.413052,0.585852,0,0,0,0,0,-0.498919,-0.413052,308,-76,308,-76,432,-86,303,47,0.207334,-0.238964,0,-1.5,nan,0,0,0,-0.497848,-0.417111,0,0,0,0,0.0331983,0.00244077,17415,-0.499242,-0.417213,0.0331983,0.00244077,12451,0.248924,-0.00995994,0.208555,-0.0012219
12483,-3.11482e-12,3.67499e-38,-1.51314e-06,-3.18057e-12,3.67475e-38,0,-1.06615e-13,0,0,-3.57585,-0.413052,0.585852,0,0,0,0,0,-0.498919,-0.413052,308,-76,308,-76,432,-86,303,47,0.207313,-0.238686,0,-1.5,nan,0,0,0,-0.497283,-0.417069,0,0,0,0,0.0331983,0.00244077,17415,-0.499242,-0.417213,0.0331983,0.00244077,12451,0.248642,-0.00995547,0.208535,-0.0012219
12527,-3.11482e-12,3.67499e-38,-1.51314e-06,-3.18057e-12,3.67475e-38,0,-1.06616e-13,0,0,-3.62497,-0.420564,0.624152,0,0,0,0,0,-0.566206,-0.420564,308,-76,308,-76,432,-83,303,47,0.20653,-0.242969,0,-1.5,nan,0,0,0,-0.501657,-0.416473,0,0,0,0,0.0261965,0.00340121,16770,-0.502836,-0.416626,0.0261965,0.00340121,12513,0.250828,-0.00785887,0.208237,-0.00170618
12546,-3.11482e-12,3.67499e-38,-1.51314e-06,-3.18057e-12,3.67475e-38,0,-1.06616e-13,0,0,-3.62497,-0.420564,0.624152,0,0,0,0,0,-0.566206,-0.420564,308,-76,308,-76,432,-83,303,47,0.206506,-0.242721,0,-1.5,nan,0,0,0,-0.501159,-0.416409,0,0,0,0,0.0261965,0.00340121,16770,-0.502836,-0.416626,0.0261965,0.00340121,12513,0.25058,-0.00785887,0.208204,-0.00169873
12569,-3.11482e-12,3.67499e-38,-1.51314e-06,-3.18057e-12,3.67475e-38,0,-1.06616e-13,0,0,-3.58542,-0.426605,0.595286,0,0,0,0,0,-0.512021,-0.426605,308,-76,308,-76,432,-83,304,49,0.206524,-0.249247,0,-1.5,nan,0,0,0,-0.509025,-0.41649,0,0,0,0,0.0175397,0.00344249,16896,-0.509429,-0.416569,0.0175397,0.00344249,12555,0.254513,-0.00526607,0.208245,-0.00172108
12597,-3.11482e-12,3.67499e-38,-1.51314e-06,-3.18057e-12,3.67475e-38,0,-1.06616e-13,0,0,-3.58873,-0.41815,0.598609,0,0,0,0,0,-0.516555,-0.41815,308,-76,308,-76,431,-86,304,49,0.20858,-0.24706,0,-1.5,nan,0,0,0,-0.507233,-0.418044,0,0,0,0,0.0218532,0.000887138,17145,-0.507845,-0.418069,0.0218532,0.000887138,12583,0.253616,-0.00655651,0.209022,-0.000442068
12614,-3.11482e-12,3.67499e-38,-1.51314e-06,-3.18057e-12,3.67475e-38,0,-1.06617e-13,0,0,-3.58873,-0.41815,0.598609,0,0,0,0,0,-0.516555,-0.41815,308,-76,308,-76,431,-86,304,49,0.208568,-0.246888,0,-1.5,nan,0,0,0,-0.506883,-0.41803,0,0,0,0,0.0218532,0.000887138,17145,-0.507845,-0.418069,0.0218532,0.000887138,12583,0.253442,-0.00655353,0.209015,-0.000447035
12639,-3.11482e-12,3.67499e-38,-1.51314e-06,-3.18057e-12,3.67475e-38,0,-1.06617e-13,0,0,-3.58708,-0.420063,0.582383,0,0,0,0,0,-0.514302,-0.420063,308,-75,308,-75,432,-83,304,52,0.208866,-0.243087,0,-1.5,nan,0,0,0,-0.504829,-0.41821,0,0,0,0,0.0310833,0.000470949,17280,-0.505638,-0.418222,0.0310833,0.000470949,12625,0.252415,-0.00932813,0.209105,-0.000238419
12692,-3.11482e-12,3.67499e-38,-1.51314e-06,-3.18057e-12,3.67475e-38,0,-1.06617e-13,0,0,-3.59415,-0.416868,0.615326,0,0,0,0,0,-0.523979,-0.416868,308,-78,308,-78,432,-86,303,47,0.208442,-0.244115,0,-1.5,nan,0,0,0,-0.505951,-0.418001,0,0,0,0,0.0295295,0.00111699,17157,-0.507516,-0.41806,0.0295295,0.00111699,12678,0.252976,-0.00886023,0.209,-0.000558794
12719,-3.11482e-12,3.67499e-38,-1.51314e-06,-3.18057e-12,3.67475e-38,0,-1.06617e-13,0,0,-3.58982,-0.418238,0.594764,0,0,0,0,0,-0.518058,-0.418238,308,-75,308,-75,432,-86,304,49,0.209932,-0.261799,0,-1.5,nan,0,0,0,-0.511976,-0.417995,0,0,0,0,0.0147303,0.00112938,17280,-0.512094,-0.418004,0.0147303,0.00112938,12713,0.255988,0.246971,0.208997,0.000935048
12733,-3.11482e-12,3.67499e-38,-1.51314e-06,-3.18057e-12,3.67475e-38,0,-1.06618e-13,0,0,-3.58982,-0.418238,0.594764,0,0,0,0,0,-0.518058,-0.418238,308,-75,308,-75,432,-86,304,49,0.208423,-0.251462,0,-1.5,nan,0,0,0,-0.51177,-0.417979,0,0,0,0,0.0147303,0.00112938,17280,-0.512094,-0.418004,0.0147303,0.00112938,12713,0.255885,-0.00442266,0.208989,-0.000566244
12756,-3.11482e-12,3.67499e-38,-1.51314e-06,-3.18057e-12,3.67475e-38,0,-1.06618e-13,0,0,-3.59086,-0.418438,0.602498,0,0,0,0,0,-0.519475,-0.418438,308,-75,308,-75,432,-86,303,47,0.208664,-0.25395,0,-1.5,nan,0,0,0,-0.514265,-0.418073,0,0,0,0,0.0106031,0.000745052,17157,-0.514372,-0.41808,0.0106031,0.000745052,12748,0.257133,-0.00318289,0.209036,-0.000372529
12777,-3.11482e-12,3.67499e-38,-1.51314e-06,-3.18057e-12,3.67475e-38,0,-1.06618e-13,0,0,-3.59086,-0.418438,0.602498,0,0,0,0,0,-0.519475,-0.418438,308,-75,308,-75,432,-86,303,47,0.208656,-0.253847,0,-1.5,nan,0,0,0,-0.514043,-0.418057,0,0,0,0,0.0106031,0.000745052,17157,-0.514372,-0.41808,0.0106031,0.000745052,12748,0.257021,-0.00317395,0.209028,-0.000372529
12801,-3.11482e-12,3.67499e-38,-1.51314e-06,-3.18057e-12,3.67475e-38,0,-1.06619e-13,0,0,-3.60611,-0.41792,0.618601,0,0,0,0,0,-0.540365,-0.41792,308,-76,308,-76,432,-86,303,47,0.208925,-0.255387,0,-1.5,nan,0,0,0,-0.515529,-0.418163,0,0,0,0,0.00791699,0.000312451,17157,-0.515719,-0.41817,0.00791699,0.000312451,12787,0.257765,-0.00237823,0.209081,-0.000156462
12826,-3.11482e-12,3.67499e-38,-1.51314e-06,-3.18057e-12,3.67475e-38,0,-1.06619e-13,0,0,-3.58633,-0.417088,0.59267,0,0,0,0,0,-0.513273,-0.417088,308,-75,308,-75,431,-86,304,52,0.209069,-0.254844,0,-1.5,nan,0,0,0,-0.513676,-0.418138,0,0,0,0,0.00664556,-3.47516e-06,17526,-0.513756,-0.418138,0.00664556,-3.47516e-06,12817,0.256838,-0.00199378,0.209069,0
12853,-3.11482e-12,3.67499e-38,-1.51314e-06,-3.18057e-12,3.67475e-38,0,-1.06619e-13,0,0,-3.6206,-0.423259,0.60795,0,0,0,0,0,-0.560222,-0.423259,308,-78,308,-78,432,-79,304,49,0.199197,-0.261799,0,-1.5,nan,0,0,0,-0.519048,-0.417982,0,0,0,0,-0.00894273,-3.58257e-05,16384,-0.518976,-0.417981,-0.00894273,-3.58257e-05,12847,0.259524,0.206164,0.208991,-0.00979379
12870,-3.11482e-12,3.67499e-38,-1.51314e-06,-3.18057e-12,3.67475e-38,0,-1.06619e-13,0,0,-3.6206,-0.423259,0.60795,0,0,0,0,0,-0.560222,-0.423259,308,-78,308,-78,432,-79,304,49,0.209006,-0.261799,0,-1.5,nan,0,0,0,-0.5192,-0.417982,0,0,0,0,-0.00894273,-3.58257e-05,16384,-0.518976,-0.417981,-0.00894273,-3.58257e-05,12847,0.2596,0.00268221,0.208991,1.49012e-05
12893,-3.11482e-12,3.67499e-38,-1.51314e-06,-3.18057e-12,3.67475e-38,0,-1.0662e-13,0,0,-3.5804,-0.416565,0.591079,0,0,0,0,0,-0.505146,-0.416565,308,-76,308,-76,431,-86,304,52,0.20937,-0.261799,0,-1.5,nan,0,0,0,-0.520512,-0.418279,0,0,0,0,-0.0117984,-0.000462104,17526,-0.520382,-0.418274,-0.0117984,-0.000462104,12883,0.260256,0.00354052,0.209139,0.000230968
12914,-3.11482e-12,3.67499e-38,-1.51314e-06,-3.18057e-12,3.67475e-38,0,-1.0662e-13,0,0,-3.5804,-0.416565,0.591079,0,0,0,0,0,-0.505146,-0.416565,308,-76,308,-76,431,-86,304,52,0.209378,-0.261799,0,-1.5,nan,0,0,0,-0.520772,-0.418289,0,0,0,0,-0.0117984,-0.000462104,17526,-0.520382,-0.418274,-0.0117984,-0.000462104,12883,0.260386,0.00354052,0.209144,0.000233452
12939,-3.11482e-12,3.67499e-38,-1.51314e-06,-3.18057e-12,3.67475e-38,0,-1.0662e-13,0,0,-3.58097,-0.419515,0.580692,0,0,0,0,0,-0.505928,-0.419515,308,-76,308,-76,432,-83,304,52,0.209592,-0.257669,0,-1.5,nan,0,0,0,-0.514497,-0.418573,0,0,0,0,-0.00138801,-0.000604564,17280,-0.514464,-0.418558,-0.00138801,-0.000604564,12924,0.257249,0.000420213,0.209286,0.000305474
13079,-3.11482e-12,3.67499e-38,-1.51314e-06,-3.18057e-12,3.67475e-38,0,-1.0662e-13,0,0,-3.58126,-0.419518,0.576502,0,0,0,0,0,-0.506331,-0.419518,308,-75,308,-75,432,-83,304,52,0.209704,-0.250998,0,-1.5,nan,0,0,0,-0.508988,-0.418663,0,0,0,0,0.0116421,-0.000748954,17280,-0.510502,-0.418566,0.0116421,-0.000748954,12951,0.254494,-0.00349581,0.209332,0.000372529
13121,-3.11482e-12,3.67499e-38,-1.51314e-06,-3.18057e-12,3.67475e-38,0,-1.06621e-13,0,0,-3.61247,-0.418809,0.620507,0,0,0,0,0,-0.549079,-0.418809,308,-76,308,-76,432,-85,303,47,0.209849,-0.258314,0,-1.5,nan,0,0,0,-0.515466,-0.418805,0,0,0,0,-0.00193341,-0.000888986,17028,-0.515385,-0.418767,-0.00193341,-0.000888986,13107,0.257733,0.000581145,0.209402,0.000447035
13146,-3.11482e-12,3.67499e-38,-1.51314e-06,-3.18057e-12,3.67475e-38,0,-1.06621e-13,0,0,-3.57515,-0.418969,0.574807,0,0,0,0,0,-0.497949,-0.418969,308,-76,308,-76,432,-83,304,52,0.209874,-0.256868,0,-1.5,nan,0,0,0,-0.513504,-0.418854,0,0,0,0,-0.000380066,-0.00089959,17280,-0.5135,-0.418844,-0.000380066,-0.00089959,13136,0.256752,0.000116229,0.209427,0.000447035
13192,-3.11482e-12,3.67499e-38,-1.51314e-06,-3.18057e-12,3.67475e-38,0,-1.06621e-13,0,0,-3.59287,-0.417997,0.594676,0,0,0,0,0,-0.522231,-0.417997,308,-75,308,-75,431,-85,304,52,0.210035,-0.261799,0,-1.5,nan,0,0,0,-0.521095,-0.419011,0,0,0,0,-0.00908964,-0.0010511,17399,-0.521005,-0.419001,-0.00908964,-0.0010511,13184,0.260548,0.00272691,0.209506,0.000528991
13211,-3.11482e-12,3.67499e-38,-1.51314e-06,-3.18057e-12,3.67475e-38,0,-1.06622e-13,0,0,-3.59287,-0.417997,0.594676,0,0,0,0,0,-0.522231,-0.417997,308,-75,308,-75,431,-85,304,52,0.210045,-0.261799,0,-1.5,nan,0,0,0,-0.521268,-0.419031,0,0,0,0,-0.00908964,-0.0010511,17399,-0.521005,-0.419001,-0.00908964,-0.0010511,13184,0.260634,0.00272691,0.209516,0.000528991
13238,-3.11482e-12,3.67499e-38,-1.51314e-06,-3.18057e-12,3.67475e-38,0,-1.06622e-13,0,0,-3.60139,-0.419062,0.606534,0,0,0,0,0,-0.533907,-0.419062,308,-75,308,-75,432,-86,304,50,0.210179,-0.261799,0,-1.5,nan,0,0,0,-0.530613,-0.419197,0,0,0,0,-0.0263564,-0.0011693,17408,-0.529902,-0.419165,-0.0263564,-0.0011693,13224,0.265307,0.00790358,0.209598,0.000581145
13261,-3.11482e-12,3.67499e-38,-1.51314e-06,-3.18057e-12,3.67475e-38,0,-1.06622e-13,0,0,-3.59373,-0.416759,0.606274,0,0,0,0,0,-0.523408,-0.416759,308,-76,308,-76,432,-86,303,47,0.209877,-0.261799,0,-1.5,nan,0,0,0,-0.523401,-0.418919,0,0,0,0,-0.0110702,-0.000842437,17157,-0.523146,-0.4189,-0.0110702,-0.000842437,13247,0.2617,0.00332594,0.20946,0.000417232
13278,-3.11482e-12,3.67499e-38,-1.51314e-06,-3.18057e-12,3.67475e-38,0,-1.06622e-13,0,0,-3.59373,-0.416759,0.606274,0,0,0,0,0,-0.523408,-0.416759,308,-76,308,-76,432,-86,303,47,0.209891,-0.261799,0,-1.5,nan,0,0,0,-0.523589,-0.418934,0,0,0,0,-0.0110702,-0.000842437,17157,-0.523146,-0.4189,-0.0110702,-0.000842437,13247,0.261794,0.00332594,0.209467,0.000424683
13301,-3.11482e-12,3.67499e-38,-1.51314e-06,-3.18057e-12,3.67475e-38,0,-1.06623e-13,0,0,-3.58097,-0.419515,0.580692,0,0,0,0,0,-0.505928,-0.419515,308,-76,308,-76,432,-83,304,52,0.210163,-0.261799,0,-1.5,nan,0,0,0,-0.523627,-0.419089,0,0,0,0,-0.0118486,-0.00124145,17280,-0.523366,-0.419062,-0.0118486,-0.00124145,13286,0.261813,0.00354946,0.209544,0.000618398
13330,-3.11482e-12,3.67499e-38,-1.51314e-06,-3.18057e-12,3.67475e-38,0,-1.06623e-13,0,0,-3.59518,-0.424506,0.591784,0,0,0,0,0,-0.525393,-0.424506,308,-76,308,-76,432,-83,305,47,0.210235,-0.261799,0,-1.5,nan,0,0,0,-0.524616,-0.419174,0,0,0,0,-0.0153472,-0.00129957,16764,-0.524156,-0.419135,-0.0153472,-0.00129957,13316,0.262308,0.00460446,0.209587,0.0006482
13352,-3.11482e-12,3.67499e-38,-1.51314e-06,-3.18057e-12,3.67475e-38,0,-1.06623e-13,0,0,-3.59635,-0.419245,0.609951,0,0,0,0,0,-0.527,-0.419245,308,-78,308,-78,432,-85,304,49,0.212279,-0.261799,0,-1.5,nan,0,0,0,-0.526511,-0.419231,0,0,0,0,-0.0183081,-0.00142871,17152,-0.526383,-0.419221,-0.0183081,-0.00142871,13347,0.263255,0.0713314,0.209616,0.00266305
13394,-3.11482e-12,3.67499e-38,-1.51314e-06,-3.18057e-12,3.67475e-38,0,-1.06623e-13,0,0,-3.58362,-0.41779,0.579929,0,0,0,0,0,-0.509555,-0.41779,308,-76,308,-76,432,-83,304,52,0.210507,-0.261799,0,-1.5,nan,0,0,0,-0.526765,-0.41933,0,0,0,0,-0.0172395,-0.00167251,17280,-0.526523,-0.419306,-0.0172395,-0.00167251,13382,0.263382,0.00516772,0.209665,0.000841916
13412,-3.11482e-12,3.67499e-38,-1.51314e-06,-3.18057e-12,3.67475e-38,0,-1.06624e-13,0,0,-3.58362,-0.41779,0.579929,0,0,0,0,0,-0.509555,-0.41779,308,-76,308,-76,432,-83,304,52,0.210514,-0.261799,0,-1.5,nan,0,0,0,-0.527075,-0.41936,0,0,0,0,-0.0172395,-0.00167251,17280,-0.526523,-0.419306,-0.0172395,-0.00167251,13382,0.263537,0.00516772,0.20968,0.000834465
13461,-3.11482e-12,3.67499e-38,-1.51314e-06,-3.18057e-12,3.67475e-38,0,-1.06624e-13,0,0,-3.58948,-0.418338,0.585844,0,0,0,0,0,-0.517587,-0.418338,308,-76,308,-76,432,-83,304,52,0.209954,-0.261799,0,-1.5,nan,0,0,0,-0.52614,-0.419058,0,0,0,0,-0.0149166,-0.00084987,17280,-0.525976,-0.419048,-0.0149166,-0.00084987,13452,0.26307,0.00447929,0.209529,0.000424683
13515,-3.11482e-12,3.67499e-38,-1.51314e-06,-3.18057e-12,3.67475e-38,0,-1.06624e-13,0,0,-3.59669,-0.419859,0.601437,0,0,0,0,0,-0.527469,-0.419859,308,-78,308,-78,432,-83,304,49,0.210081,-0.261799,0,-1.5,nan,0,0,0,-0.525709,-0.419297,0,0,0,0,-0.0095068,-0.000869173,16896,-0.525196,-0.41925,-0.0095068,-0.000869173,13500,0.262855,0.00285208,0.209649,0.000432134
13542,-3.11482e-12,3.67499e-38,-1.51314e-06,-3.18057e-12,3.67475e-38,0,-1.06625e-13,0,0,-3.60922,-0.420983,0.605023,0,0,0,0,0,-0.544628,-0.420983,308,-76,308,-76,432,-83,304,49,0.21052,-0.261799,0,-1.5,nan,0,0,0,-0.528986,-0.419566,0,0,0,0,-0.0162896,-0.0014767,16896,-0.528546,-0.419526,-0.0162896,-0.0014767,13528,0.264493,0.00489056,0.209783,0.000737607
13567,-3.11482e-12,3.67499e-38,-1.51314e-06,-3.18057e-12,3.67475e-38,0,-1.06625e-13,0,0,-3.55688,-0.414432,0.576063,0,0,0,0,0,-0.472919,-0.414432,308,-78,308,-78,431,-86,304,52,0.210734,-0.261799,0,-1.5,nan,0,0,0,-0.526964,-0.41974,0,0,0,0,-0.0120729,-0.00172267,17526,-0.526662,-0.419697,-0.0120729,-0.00172267,13553,0.263482,0.00362098,0.20987,0.000864267
13590,-3.11482e-12,3.67499e-38,-1.51314e-06,-3.18057e-12,3.67475e-38,0,-1.06625e-13,0,0,-3.57677,-0.416558,0.582083,0,0,0,0,0,-0.500179,-0.416558,308,-76,308,-76,432,-85,304,52,0.210423,-0.25995,0,-1.5,nan,0,0,0,-0.51906,-0.419536,0,0,0,0,-0.00138132,-0.00131915,17536,-0.519048,-0.419524,-0.00138132,-0.00131915,13583,0.25953,0.000420213,0.209768,0.000655651
13607,-3.11482e-12,3.67499e-38,-1.51314e-06,-3.18057e-12,3.67475e-38,0,-1.06625e-13,0,0,-3.57677,-0.416558,0.582083,0,0,0,0,0,-0.500179,-0.416558,308,-76,308,-76,432,-85,304,52,0.210442,-0.259962,0,-1.5,nan,0,0,0,-0.519083,-0.419558,0,0,0,0,-0.00138132,-0.00131915,17536,-0.519048,-0.419524,-0.00138132,-0.00131915,13583,0.259542,0.000420213,0.209779,0.000663102
13634,-3.11482e-12,3.67499e-38,-1.51314e-06,-3.18057e-12,3.67475e-38,0,-1.06626e-13,0,0,-3.58429,-0.41811,0.597841,0,0,0,0,0,-0.510475,-0.41811,308,-78,308,-78,432,-85,304,49,0.208425,-0.258736,0,-1.5,nan,0,0,0,-0.518277,-0.418072,0,0,0,0,0.00135098,0.00122055,17152,-0.518314,-0.418105,0.00135098,0.00122055,13620,0.259139,-0.000402331,0.209036,-0.000610948
13657,-3.11482e-12,3.67499e-38,-1.51314e-06,-3.18057e-12,3.67475e-38,0,-1.06626e-13,0,0,-3.56861,-0.427105,0.576962,0,0,0,0,0,-0.488997,-0.427105,310,-78,310,-78,435,-83,304,52,0.210036,-0.258678,0,-1.5,nan,0,0,0,-0.517071,-0.419194,0,0,0,0,-0.000465453,-0.00086942,17685,-0.517066,-0.419185,-0.000465453,-0.00086942,13649,0.258535,0.000143051,0.209597,0.000439584
13700,-3.11482e-12,3.67499e-38,-1.51314e-06,-3.18057e-12,3.67475e-38,0,-1.06626e-13,0,0,-3.5569,-0.417235,0.556712,0,0,0,0,0,-0.472956,-0.417235,308,-76,308,-76,432,-83,304,52,0.209178,-0.257138,0,-1.5,nan,0,0,0,-0.516028,-0.418385,0,0,0,0,0.00290328,3.54186e-05,17280,-0.51615,-0.418387,0.00290328,3.54186e-05,13686,0.258014,-0.000876188,0.209193,-1.49012e-05
13727,-3.11482e-12,3.67499e-38,-1.51314e-06,-3.18057e-12,3.67475e-38,0,-1.06626e-13,0,0,-3.60301,-0.420396,0.59887,0,0,0,0,0,-0.536128,-0.420396,308,-76,308,-76,432,-83,304,49,0.210486,-0.258552,0,-1.5,nan,0,0,0,-0.517605,-0.419662,0,0,0,0,0.000834243,-0.00131129,16896,-0.517615,-0.419646,0.000834243,-0.00131129,13717,0.258802,-0.00025034,0.209831,0.000655651
13744,-3.11482e-12,3.67499e-38,-1.51314e-06,-3.18057e-12,3.67475e-38,0,-1.06627e-13,0,0,-3.60301,-0.420396,0.59887,0,0,0,0,0,-0.536128,-0.420396,308,-76,308,-76,432,-83,304,49,0.210497,-0.258545,0,-1.5,nan,0,0,0,-0.517592,-0.419683,0,0,0,0,0.000834243,-0.00131129,16896,-0.517615,-0.419646,0.000834243,-0.00131129,13717,0.258796,-0.00025034,0.209841,0.000655651
13766,-3.11482e-12,3.67499e-38,-1.51314e-06,-3.18057e-12,3.67475e-38,0,-1.06627e-13,0,0,-3.59565,-0.418889,0.587564,0,0,0,0,0,-0.526035,-0.418889,308,-75,308,-75,432,-83,304,52,0.209634,-0.256282,0,-1.5,nan,0,0,0,-0.515855,-0.41885,0,0,0,0,0.00547323,-0.000403732,17280,-0.515981,-0.418841,0.00547323,-0.000403732,13752,0.257928,-0.00164509,0.209425,0.000208616
13825,-3.11482e-12,3.67499e-38,-1.51314e-06,-3.18057e-12,3.67475e-38,0,-1.06627e-13,0,0,-3.57179,-0.409583,0.581651,0,0,0,0,0,-0.493347,-0.409583,305,-77,305,-77,432,-83,304,52,0.20957,-0.245305,0,-1.5,nan,0,0,0,-0.505577,-0.418992,0,0,0,0,0.0249398,-0.000154782,17280,-0.505826,-0.41899,0.0249398,-0.000154782,13817,0.252788,-0.00748336,0.209496,7.45058e-05
13842,-3.11482e-12,3.67499e-38,-1.51314e-06,-3.18057e-12,3.67475e-38,0,-1.06627e-13,0,0,-3.57179,-0.409583,0.581651,0,0,0,0,0,-0.493347,-0.409583,305,-77,305,-77,432,-83,304,52,0.209572,-0.245093,0,-1.5,nan,0,0,0,-0.505153,-0.418994,0,0,0,0,0.0249398,-0.000154782,17280,-0.505826,-0.41899,0.0249398,-0.000154782,13817,0.252576,-0.00748336,0.209497,7.45058e-05
13865,-3.11482e-12,3.67499e-38,-1.51314e-06,-3.18057e-12,3.67475e-38,0,-1.06628e-13,0,0,-3.59669,-0.419859,0.601437,0,0,0,0,0,-0.527469,-0.419859,308,-78,308,-78,432,-83,304,49,0.209311,-0.23992,0,-1.5,nan,0,0,0,-0.501136,-0.418845,0,0,0,0,0.0354755,0.000224977,16896,-0.501917,-0.41885,0.0354755,0.000224977,13851,0.250568,-0.0106484,0.209423,-0.000111759
13890,-3.11482e-12,3.67499e-38,-1.51314e-06,-3.18057e-12,3.67475e-38,0,-1.06628e-13,0,0,-3.59669,-0.419859,0.601437,0,0,0,0,0,-0.527469,-0.419859,308,-78,308,-78,432,-83,304,49,0.209251,-0.261799,0,-1.5,nan,0,0,0,-0.522742,-0.41883,0,0,0,0,-0.0100138,0.000330203,16896,-0.522622,-0.418834,-0.0100138,0.000330203,13880,0.261371,0.00300407,0.209415,-0.000163913
13911,-3.11482e-12,3.67499e-38,-1.51314e-06,-3.18057e-12,3.67475e-38,0,-1.06628e-13,0,0,-3.59669,-0.419859,0.601437,0,0,0,0,0,-0.527469,-0.419859,308,-78,308,-78,432,-83,304,49,0.20924,-0.261799,0,-1.5,nan,0,0,0,-0.522953,-0.418823,0,0,0,0,-0.0100138,0.000330203,16896,-0.522622,-0.418834,-0.0100138,0.000330203,13880,0.261476,0.00300407,0.209411,-0.000171363
13934,-3.11482e-12,3.67499e-38,-1.51314e-06,-3.18057e-12,3.67475e-38,0,-1.06629e-13,0,0,-3.58097,-0.419515,0.580692,0,0,0,0,0,-0.505928,-0.419515,308,-76,308,-76,432,-83,304,52,0.209544,-0.246359,0,-1.5,nan,0,0,0,-0.506272,-0.419088,0,0,0,0,0.0225892,-5.2078e-06,17280,-0.506792,-0.419088,0.0225892,-5.2078e-06,13920,0.253136,-0.00677705,0.209544,0
13957,-3.11482e-12,3.67499e-38,-1.51314e-06,-3.18057e-12,3.67475e-38,0,-1.06629e-13,0,0,-3.58398,-0.417759,0.588874,0,0,0,0,0,-0.510053,-0.417759,308,-76,308,-76,432,-85,304,50,0.209484,-0.250272,0,-1.5,nan,0,0,0,-0.509896,-0.419014,0,0,0,0,0.015575,4.72343e-05,17280,-0.510036,-0.419014,0.015575,4.72343e-05,13949,0.254948,-0.00467598,0.209507,-2.23517e-05
13978,-3.11482e-12,3.67499e-38,-1.51314e-06,-3.18057e-12,3.67475e-38,0,-1.06629e-13,0,0,-3.58398,-0.417759,0.588874,0,0,0,0,0,-0.510053,-0.417759,308,-76,308,-76,432,-85,304,50,0.209484,-0.25011,0,-1.5,nan,0,0,0,-0.509553,-0.419012,0,0,0,0,0.015575,4.72343e-05,17280,-0.510036,-0.419014,0.015575,4.72343e-05,13949,0.254777,-0.00466704,0.209506,-2.23517e-05
14003,-3.11482e-12,3.67499e-38,-1.51314e-06,-3.18057e-12,3.67475e-38,0,-1.06629e-13,0,0,-3.60358,-0.419622,0.588079,0,0,0,0,0,-0.536911,-0.419622,308,-78,308,-78,432,-79,304,49,0.20944,-0.249882,0,-1.5,nan,0,0,0,-0.508991,-0.418999,0,0,0,0,0.0153664,0.000105595,16384,-0.509376,-0.419002,0.0153664,0.000105595,13989,0.254496,-0.0046134,0.2095,-5.96046e-05
14026,-3.11482e-12,3.67499e-38,-1.51314e-06,-3.18057e-12,3.67475e-38,0,-1.0663e-13,0,0,-3.55482,-0.422897,0.56486,0,0,0,0,0,-0.470104,-0.422897,308,-76,308,-76,432,-83,304,52,0.209997,-0.245256,0,-1.5,nan,0,0,0,-0.503959,-0.419488,0,0,0,0,0.0224051,-0.000519984,17280,-0.504183,-0.419483,0.0224051,-0.000519984,14018,0.251979,-0.0067234,0.209744,0.00025332
14051,-3.11482e-12,3.67499e-38,-1.51314e-06,-3.18057e-12,3.67475e-38,0,-1.0663e-13,0,0,-3.59669,-0.419859,0.601437,0,0,0,0,0,-0.527469,-0.419859,308,-78,308,-78,432,-83,304,49,0.216211,-0.261799,0,-1.5,nan,0,0,0,-0.508158,-0.4196,0,0,0,0,0.0179549,-0.000567957,16896,-0.508301,-0.419595,0.0179549,-0.000567957,14045,0.254079,0.171746,0.2098,0.00641122
14065,-3.11482e-12,3.67499e-38,-1.51314e-06,-3.18057e-12,3.67475e-38,0,-1.0663e-13,0,0,-3.59669,-0.419859,0.601437,0,0,0,0,0,-0.527469,-0.419859,308,-78,308,-78,432,-83,304,49,0.210087,-0.248571,0,-1.5,nan,0,0,0,-0.507924,-0.419607,0,0,0,0,0.0179549,-0.000567957,16896,-0.508301,-0.419595,0.0179549,-0.000567957,14045,0.253962,-0.00539124,0.209804,0.000283122
14082,-3.11482e-12,3.67499e-38,-1.51314e-06,-3.18057e-12,3.67475e-38,0,-1.0663e-13,0,0,-3.59669,-0.419859,0.601437,0,0,0,0,0,-0.527469,-0.419859,308,-78,308,-78,432,-83,304,49,0.210092,-0.248409,0,-1.5,nan,0,0,0,-0.507601,-0.419617,0,0,0,0,0.0179549,-0.000567957,16896,-0.508301,-0.419595,0.0179549,-0.000567957,14045,0.253801,-0.00539124,0.209809,0.000283122
14130,-3.11482e-12,3.67499e-38,-1.51314e-06,-3.18057e-12,3.67475e-38,0,-1.06631e-13,0,0,-3.59669,-0.419859,0.601437,0,0,0,0,0,-0.527469,-0.419859,308,-78,308,-78,432,-83,304,49,0.210693,-0.247997,0,-1.5,nan,0,0,0,-0.506383,-0.419806,0,0,0,0,0.0172929,-0.00157991,16896,-0.506625,-0.419784,0.0172929,-0.00157991,14118,0.253192,-0.00519454,0.209903,0.000789761
14156,-3.11482e-12,3.67499e-38,-1.51314e-06,-3.18057e-12,3.67475e-38,0,-1.06631e-13,0,0,-3.59669,-0.419859,0.601437,0,0,0,0,0,-0.527469,-0.419859,308,-78,308,-78,432,-83,304,49,0.210941,-0.249514,0,-1.5,nan,0,0,0,-0.507629,-0.41987,0,0,0,0,0.0143354,-0.00202079,16896,-0.50783,-0.419841,0.0143354,-0.00202079,14145,0.253815,-0.00430048,0.209935,0.00100583
14209,-3.11482e-12,3.67499e-38,-1.51314e-06,-3.18057e-12,3.67475e-38,0,-1.06631e-13,0,0,-3.53619,-0.420241,0.559413,0,0,0,0,0,-0.444579,-0.420241,308,-76,308,-76,432,-86,304,52,0.210953,-0.245965,0,-1.5,nan,0,0,0,-0.503464,-0.420029,0,0,0,0,0.0192266,-0.00188141,17664,-0.504483,-0.419929,0.0192266,-0.00188141,14195,0.251732,-0.00576675,0.210014,0.000938773
14259,-3.11482e-12,3.67499e-38,-1.51314e-06,-3.18057e-12,3.67475e-38,0,-1.06632e-13,0,0,-3.56428,-0.410806,0.568407,0,0,0,0,0,-0.483069,-0.410806,305,-75,305,-75,432,-83,304,52,0.210689,-0.247065,0,-1.5,nan,0,0,0,-0.504091,-0.420007,0,0,0,0,0.0166086,-0.00135994,17280,-0.50424,-0.419995,0.0166086,-0.00135994,14251,0.252045,-0.00497997,0.210004,0.000685453
14280,-3.11482e-12,3.67499e-38,-1.51314e-06,-3.18057e-12,3.67475e-38,0,-1.06632e-13,0,0,-3.56428,-0.410806,0.568407,0,0,0,0,0,-0.483069,-0.410806,305,-75,305,-75,432,-83,304,52,0.210704,-0.246883,0,-1.5,nan,0,0,0,-0.503725,-0.420037,0,0,0,0,0.0166086,-0.00135994,17280,-0.50424,-0.419995,0.0166086,-0.00135994,14251,0.251863,-0.00497997,0.210019,0.000685453
14344,-3.11482e-12,3.67499e-38,-1.51314e-06,-3.18057e-12,3.67475e-38,0,-1.06632e-13,0,0,-3.61221,-0.426717,0.609185,0,0,0,0,0,-0.548734,-0.426717,307,-78,307,-78,436,-80,305,47,0.211055,-0.24517,0,-1.5,nan,0,0,0,-0.501194,-0.420262,0,0,0,0,0.0180838,-0.00184634,16637,-0.502351,-0.420144,0.0180838,-0.00184634,14330,0.250597,-0.005427,0.210131,0.000923872
14367,-3.11482e-12,3.67499e-38,-1.51314e-06,-3.18057e-12,3.67475e-38,0,-1.06632e-13,0,0,-3.58264,-0.417429,0.579303,0,0,0,0,0,-0.508211,-0.417429,308,-76,308,-76,432,-83,304,53,0.211153,-0.249178,0,-1.5,nan,0,0,0,-0.505275,-0.42025,0,0,0,0,0.0115432,-0.00206309,17408,-0.505541,-0.420203,0.0115432,-0.00206309,14353,0.252638,-0.00346005,0.210125,0.00102818
14394,-3.11482e-12,3.67499e-38,-1.51314e-06,-3.18057e-12,3.67475e-38,0,-1.06633e-13,0,0,-3.61266,-0.421114,0.611258,0,0,0,0,0,-0.549345,-0.421114,308,-76,308,-76,431,-85,305,49,0.21124,-0.252337,0,-1.5,nan,0,0,0,-0.50784,-0.420333,0,0,0,0,0.00525986,-0.00214392,16884,-0.507898,-0.42031,0.00525986,-0.00214392,14384,0.25392,-0.0015825,0.210167,0.00107288
14413,-3.11482e-12,3.67499e-38,-1.51314e-06,-3.18057e-12,3.67475e-38,0,-1.06633e-13,0,0,-3.61266,-0.421114,0.611258,0,0,0,0,0,-0.549345,-0.421114,308,-76,308,-76,431,-85,305,49,0.211261,-0.252285,0,-1.5,nan,0,0,0,-0.507734,-0.420376,0,0,0,0,0.00525986,-0.00214392,16884,-0.507898,-0.42031,0.00525986,-0.00214392,14384,0.253867,-0.0015825,0.210188,0.00107288
14433,-3.11482e-12,3.67499e-38,-1.51314e-06,-3.18057e-12,3.67475e-38,0,-1.06633e-13,0,0,-3.59008,-0.418335,0.594955,0,0,0,0,0,-0.518413,-0.418335,308,-76,308,-76,432,-85,304,50,0.211074,-0.252695,0,-1.5,nan,0,0,0,-0.508704,-0.420558,0,0,0,0,0.00828405,-0.00239402,17280,-0.508861,-0.420513,0.00828405,-0.00239402,14419,0.254352,-0.00165701,0.210279,0.000794729
14455,-3.11482e-12,3.67499e-38,-1.51314e-06,-3.18057e-12,3.67475e-38,0,-1.06633e-13,0,0,-3.57155,-0.413779,0.578623,0,0,0,0,0,-0.493024,-0.413779,308,-76,308,-76,431,-86,304,52,0.193068,-0.261799,0,-1.5,nan,0,0,0,-0.509381,-0.420357,0,0,0,0,0.000994834,-0.00176712,17526,-0.509388,-0.420345,0.000994834,-0.00176712,14450,0.254691,0.0347103,0.210179,-0.0171108
14479,-3.11482e-12,3.67499e-38,-1.51314e-06,-3.18057e-12,3.67475e-38,0,-1.06634e-13,0,0,-3.57155,-0.413779,0.578623,0,0,0,0,0,-0.493024,-0.413779,308,-76,308,-76,431,-86,304,52,0.211084,-0.254381,0,-1.5,nan,0,0,0,-0.509357,-0.4204,0,0,0,0,0.000994834,-0.00176712,17526,-0.509388,-0.420345,0.000994834,-0.00176712,14450,0.254679,-0.000298023,0.2102,0.000884136
14502,-3.11482e-12,3.67499e-38,-1.51314e-06,-3.18057e-12,3.67475e-38,0,-1.06634e-13,0,0,-3.59654,-0.419203,0.601279,0,0,0,0,0,-0.527258,-0.419203,308,-76,308,-76,432,-85,304,49,0.209297,-0.261799,0,-1.5,nan,0,0,0,-0.518781,-0.419269,0,0,0,0,-0.0147226,0.000670589,17152,-0.518443,-0.419284,-0.0147226,0.000670589,14488,0.259391,0.0044167,0.209634,-0.00033776
14524,-3.11482e-12,3.67499e-38,-1.51314e-06,-3.18057e-12,3.67475e-38,0,-1.06634e-13,0,0,-3.58174,-0.419786,0.589901,0,0,0,0,0,-0.506979,-0.419786,308,-76,308,-76,432,-85,304,49,0.210345,-0.261799,0,-1.5,nan,0,0,0,-0.519849,-0.419825,0,0,0,0,-0.0200426,-0.000868103,17152,-0.519648,-0.419817,-0.0200426,-0.000868103,14517,0.259924,0.00601709,0.209913,0.000432134
14551,-3.11482e-12,3.67499e-38,-1.51314e-06,-3.18057e-12,3.67475e-38,0,-1.06635e-13,0,0,-3.59048,-0.41927,0.595278,0,0,0,0,0,-0.518957,-0.41927,308,-78,308,-78,432,-83,304,49,0.209988,-0.261799,0,-1.5,nan,0,0,0,-0.520784,-0.419843,0,0,0,0,-0.0211291,-0.000936365,16896,-0.520615,-0.419835,-0.0211291,-0.000936365,14545,0.260392,0.0207983,0.209921,6.70552e-05
14568,-3.11482e-12,3.67499e-38,-1.51314e-06,-3.18057e-12,3.67475e-38,0,-1.06635e-13,0,0,-3.59048,-0.41927,0.595278,0,0,0,0,0,-0.518957,-0.41927,308,-78,308,-78,432,-83,304,49,0.210391,-0.261799,0,-1.5,nan,0,0,0,-0.521143,-0.419859,0,0,0,0,-0.0211291,-0.000936365,16896,-0.520615,-0.419835,-0.0211291,-0.000936365,14545,0.260572,0.00633895,0.209929,0.000461936
14593,-3.11482e-12,3.67499e-38,-1.51314e-06,-3.18057e-12,3.67475e-38,0,-1.06635e-13,0,0,-3.5319,-0.412566,0.550255,0,0,0,0,0,-0.4387,-0.412566,305,-77,305,-77,434,-83,304,49,0.209559,-0.261799,0,-1.5,nan,0,0,0,-0.520067,-0.419268,0,0,0,0,-0.0179052,0.000151171,17160,-0.51987,-0.419269,-0.0179052,0.000151171,14584,0.260034,0.00536442,0.209634,-7.45058e-05
14620,-3.11482e-12,3.67499e-38,-1.51314e-06,-3.18057e-12,3.67475e-38,0,-1.06635e-13,0,0,-3.59654,-0.419203,0.601279,0,0,0,0,0,-0.527258,-0.419203,308,-76,308,-76,432,-85,304,49,0.202066,-0.217402,0,-1.5,nan,0,0,0,-0.519281,-0.419145,0,0,0,0,-0.0127426,0.000730101,17152,-0.519179,-0.419151,-0.0127426,0.000730101,14614,0.259641,-0.0422381,0.209572,-0.00750646
14637,-3.11482e-12,3.67499e-38,-1.51314e-06,-3.18057e-12,3.67475e-38,0,-1.06636e-13,0,0,-3.59654,-0.419203,0.601279,0,0,0,0,0,-0.527258,-0.419203,308,-76,308,-76,432,-85,304,49,0.209201,-0.261799,0,-1.5,nan,0,0,0,-0.519498,-0.419132,0,0,0,0,-0.0127426,0.000730101,17152,-0.519179,-0.419151,-0.0127426,0.000730101,14614,0.259749,0.00381768,0.209566,-0.000365078
14660,-3.11482e-12,3.67499e-38,-1.51314e-06,-3.18057e-12,3.67475e-38,0,-1.06636e-13,0,0,-3.58097,-0.419515,0.580692,0,0,0,0,0,-0.505928,-0.419515,308,-76,308,-76,432,-83,304,52,0.209276,-0.261799,0,-1.5,nan,0,0,0,-0.52093,-0.419179,0,0,0,0,-0.0173326,0.00062375,17280,-0.520722,-0.419186,-0.0173326,0.00062375,14650,0.260465,0.00519753,0.209589,-0.000312924
14674,-3.11482e-12,3.67499e-38,-1.51314e-06,-3.18057e-12,3.67475e-38,0,-1.06636e-13,0,0,-3.58097,-0.419515,0.580692,0,0,0,0,0,-0.505928,-0.419515,308,-76,308,-76,432,-83,304,52,0.209272,-0.261799,0,-1.5,nan,0,0,0,-0.521156,-0.419171,0,0,0,0,-0.0173326,0.00062375,17280,-0.520722,-0.419186,-0.0173326,0.00062375,14650,0.260578,0.00520349,0.209585,-0.000312924
14698,-3.11482e-12,3.67499e-38,-1.51314e-06,-3.18057e-12,3.67475e-38,0,-1.06636e-13,0,0,-3.59669,-0.419859,0.601437,0,0,0,0,0,-0.527469,-0.419859,308,-78,308,-78,432,-83,304,49,0.2097,-0.261799,0,-1.5,nan,0,0,0,-0.520837,-0.419519,0,0,0,0,-0.014493,0.000119128,16896,-0.520489,-0.419522,-0.014493,0.000119128,14684,0.260418,0.00434518,0.20976,-5.96046e-05
14714,-3.11482e-12,3.67499e-38,-1.51314e-06,-3.18057e-12,3.67475e-38,0,-1.06637e-13,0,0,-3.59669,-0.419859,0.601437,0,0,0,0,0,-0.527469,-0.419859,308,-78,308,-78,432,-83,304,49,0.209699,-0.261799,0,-1.5,nan,0,0,0,-0.521083,-0.419517,0,0,0,0,-0.014493,0.000119128,16896,-0.520489,-0.419522,-0.014493,0.000119128,14684,0.260542,0.00434518,0.209759,-5.96046e-05
14739,-3.11482e-12,3.67499e-38,-1.51314e-06,-3.18057e-12,3.67475e-38,0,-1.06637e-13,0,0,-3.59654,-0.419203,0.601279,0,0,0,0,0,-0.527258,-0.419203,308,-76,308,-76,432,-85,304,49,0.209456,-0.259345,0,-1.5,nan,0,0,0,-0.518565,-0.41927,0,0,0,0,-0.000194773,0.000354302,17152,-0.51856,-0.419279,-0.000194773,0.000354302,14725,0.259283,6.25849e-05,0.209635,-0.000178814
14894,-3.11482e-12,3.67499e-38,-1.51314e-06,-3.18057e-12,3.67475e-38,0,-1.06637e-13,0,0,-3.50391,-0.414664,0.551934,0,0,0,0,0,-0.400354,-0.414663,305,-78,305,-78,437,-87,304,49,0.2093,-0.261799,0,-1.5,nan,0,0,0,-0.52385,-0.419121,0,0,0,0,-0.0131927,0.000518774,18088,-0.521805,-0.419201,-0.0131927,0.000518774,14770,0.261925,0.00396073,0.20956,-0.00026077
14917,-3.11482e-12,3.67499e-38,-1.51314e-06,-3.18057e-12,3.67475e-38,0,-1.06638e-13,0,0,-3.52884,-0.4076,0.541591,0,0,0,0,0,-0.434511,-0.4076,305,-77,305,-77,432,-83,304,52,0.207707,0.261799,0,-1.5,nan,0,0,0,-0.507064,-0.419084,0,0,0,0,0.000985017,0.000678174,17280,-0.507072,-0.419089,0.000985017,0.000678174,14911,0.253532,-0.63689,0.209542,-0.00183471
14942,-3.11482e-12,3.67499e-38,-1.51314e-06,-3.18057e-12,3.67475e-38,0,-1.06638e-13,0,0,-3.59669,-0.419859,0.601437,0,0,0,0,0,-0.527469,-0.419859,308,-78,308,-78,432,-83,304,49,0.209387,-0.261799,0,-1.5,nan,0,0,0,-0.522171,-0.419191,0,0,0,0,-0.0119383,0.000423406,16896,-0.522052,-0.419196,-0.0119383,0.000423406,14934,0.261085,0.00358522,0.209596,-0.000208616
15000,-3.11482e-12,3.67499e-38,-1.51314e-06,-3.18057e-12,3.67475e-38,0,-1.06638e-13,0,0,-3.58097,-0.419515,0.580692,0,0,0,0,0,-0.505928,-0.419515,308,-76,308,-76,432,-83,304,52,0.20883,-0.247341,0,-1.5,nan,0,0,0,-0.505328,-0.418693,0,0,0,0,0.0177588,0.00103866,17280,-0.506358,-0.418753,0.0177588,0.00103866,14986,0.252664,-0.0053227,0.209347,-0.000516574
15022,-3.11482e-12,3.67499e-38,-1.51314e-06,-3.18057e-12,3.67475e-38,0,-1.06638e-13,0,0,-3.53398,-0.422604,0.57047,0,0,0,0,0,-0.441552,-0.422604,308,-78,308,-78,437,-87,304,49,0.252218,-0.187694,0,-1.5,nan,0,0,0,-0.503566,-0.419274,0,0,0,0,0.00879985,0.000358456,18088,-0.503628,-0.419276,0.00879985,0.000358456,15017,0.251783,-0.0640895,0.209637,0.0425811
15039,-3.11482e-12,3.67499e-38,-1.51314e-06,-3.18057e-12,3.67475e-38,0,-1.06639e-13,0,0,-3.53398,-0.422604,0.57047,0,0,0,0,0,-0.441552,-0.422604,308,-78,308,-78,437,-87,304,49,0.209455,-0.249071,0,-1.5,nan,0,0,0,-0.503417,-0.419268,0,0,0,0,0.00879985,0.000358456,18088,-0.503628,-0.419276,0.00879985,0.000358456,15017,0.251708,-0.00263751,0.209634,-0.000178814
15064,-3.11482e-12,3.67499e-38,-1.51314e-06,-3.18057e-12,3.67475e-38,0,-1.06639e-13,0,0,-3.6206,-0.423259,0.60795,0,0,0,0,0,-0.560222,-0.423259,308,-78,308,-78,432,-79,304,49,0.209738,-0.25241,0,-1.5,nan,0,0,0,-0.506412,-0.419521,0,0,0,0,0.00263136,5.54005e-05,16384,-0.506478,-0.419523,0.00263136,5.54005e-05,15050,0.253206,-0.000795722,0.209761,-2.23517e-05
15081,-3.11482e-12,3.67499e-38,-1.51314e-06,-3.18057e-12,3.67475e-38,0,-1.06639e-13,0,0,-3.6206,-0.423259,0.60795,0,0,0,0,0,-0.560222,-0.423259,308,-78,308,-78,432,-79,304,49,0.20973,-0.252397,0,-1.5,nan,0,0,0,-0.506367,-0.419521,0,0,0,0,0.00263136,5.54005e-05,16384,-0.506478,-0.419523,0.00263136,5.54005e-05,15050,0.253184,-0.000786781,0.20976,-2.98023e-05
15100,-3.11482e-12,3.67499e-38,-1.51314e-06,-3.18057e-12,3.67475e-38,0,-1.06639e-13,0,0,-3.59322,-0.421894,0.584039,0,0,0,0,0,-0.522709,-0.421894,308,-78,308,-78,433,-79,304,52,0.209878,-0.261799,0,-1.5,nan,0,0,0,-0.525225,-0.419682,0,0,0,0,-0.0129335,-7.72831e-05,16899,-0.52498,-0.41968,-0.0129335,-7.72831e-05,15086,0.262613,0.00388026,0.209841,3.72529e-05
15144,-3.11482e-12,3.67499e-38,-1.51314e-06,-3.18057e-12,3.67475e-38,0,-1.0664e-13,0,0,-3.58282,-0.427379,0.58656,0,0,0,0,0,-0.508468,-0.427379,308,-78,308,-78,436,-80,304,49,0.210143,-0.249906,0,-1.5,nan,0,0,0,-0.507786,-0.419944,0,0,0,0,0.0133024,-0.000341631,17028,-0.508358,-0.419929,0.0133024,-0.000341631,15130,0.253893,-0.00398755,0.209972,0.000171363
15171,-3.11482e-12,3.67499e-38,-1.51314e-06,-3.18057e-12,3.67475e-38,0,-1.0664e-13,0,0,-3.5794,-0.416203,0.581406,0,0,0,0,0,-0.503777,-0.416203,308,-78,308,-78,432,-83,304,49,0.209515,-0.252905,0,-1.5,nan,0,0,0,-0.50699,-0.419358,0,0,0,0,0.00196752,0.000333493,16896,-0.507045,-0.419367,0.00196752,0.000333493,15157,0.253495,-0.000590086,0.209679,-0.000163913
15194,-3.11482e-12,3.67499e-38,-1.51314e-06,-3.18057e-12,3.67475e-38,0,-1.0664e-13,0,0,-3.62613,-0.426334,0.615997,0,0,0,0,0,-0.567799,-0.426334,307,-78,307,-78,433,-79,305,47,0.210328,-0.251441,0,-1.5,nan,0,0,0,-0.507746,-0.41991,0,0,0,0,0.00810837,-0.000751399,16128,-0.507835,-0.419902,0.00810837,-0.000751399,15184,0.253873,-0.00243187,0.209955,0.000372529
15235,-3.11482e-12,3.67499e-38,-1.51314e-06,-3.18057e-12,3.67475e-38,0,-1.0664e-13,0,0,-3.6206,-0.423259,0.60795,0,0,0,0,0,-0.560222,-0.423259,308,-78,308,-78,432,-79,304,49,0.212687,-0.261799,0,-1.5,nan,0,0,0,-0.526417,-0.421827,0,0,0,0,-0.0182681,-0.00354586,16384,-0.525649,-0.421678,-0.0182681,-0.00354586,15221,0.263208,0.00548065,0.210913,0.00177324
