timestamp,A_x,A_y,A_z,P,Q,R,Phi,Theta,Psi,poseX,poseY,poseZ,state_X,state_Y,state_Z,state_VzB,state_Bx,state_By,state_Bz,p1_x,p1_y,p2_x,p2_y,p3_x,p3_y,p4_x,p4_y,roll,pitch,yaw,alt,targetHeading,highLevelState,lowLevelState,gateNumber,filtered_x,filtered_y,x_OT,y_OT,vx_OT,vy_OT,filtered_vx,filtered_vygateArearansac_corr_x,ransac_corr_y,ransac_corr_vx,ransac_corr_vy,detectionTimeStamp
10,0,0,0,0,0,0,0,0,0,0,0,0,0,0,0,0,0,0,0,0,0,0,0,0,0,0,0,0,-0.261799,0,-1.5,nan,0,0,0,0,0,0,0,0,0,0,0,1.9603e-19,0,0,0,0,0
20,0,0,0,0,0,0,0,0,0,0,0,0,0,0,0,0,0,0,0,0,0,0,0,0,0,0,0,0,-0.261799,0,-1.5,nan,0,0,0,0,0,0,0,0,0,0,0,1.9603e-19,0,0,0,0,0
30,-3.34297e-12,0,-1.61046e-06,-3.40794e-12,0,-3.96878e-12,-1.13703e-13,0,0,0,0,0,0,0,0,0,0,0,0,0,0,0,0,0,0,0,0,0,-0.261799,0,-1.5,nan,0,0,0,0,0,0,0,0,0,0,0,1.9603e-19,0,0,0,0,0
40,-3.34297e-12,0,-1.61046e-06,-3.40794e-12,0,0,-1.13703e-13,0,0,0,0,0,0,0,0,0,0,0,0,0,0,0,0,0,0,0,0,0,-0.261799,0,-1.5,nan,0,0,0,0,0,0,0,0,0,0,0,1.9603e-19,0,0,0,0,0
50,-3.34297e-12,0,-1.61046e-06,-3.40794e-12,0,-3.96878e-12,-1.13704e-13,0,0,0,0,0,0,0,0,0,0,0,0,0,0,0,0,0,0,0,0,0,-0.261799,0,-1.5,nan,0,0,0,0,0,0,0,0,0,0,0,1.9603e-19,0,0,0,0,0
60,-3.34297e-12,0,-1.61046e-06,-3.40794e-12,0,0,-1.13704e-13,0,0,0,0,0,0,0,0,0,0,0,0,0,0,0,0,0,0,0,0,0,-0.261799,0,-1.5,nan,0,0,0,0,0,0,0,0,0,0,0,1.9603e-19,0,0,0,0,0
70,-3.34297e-12,0,-1.61046e-06,-3.40794e-12,0,-3.96878e-12,-1.13705e-13,0,0,0,0,0,0,0,0,0,0,0,0,0,0,0,0,0,0,0,0,0,-0.261799,0,-1.5,nan,0,0,0,0,0,0,0,0,0,0,0,1.9603e-19,0,0,0,0,0
80,-3.34297e-12,0,-1.61046e-06,-3.40794e-12,0,0,-1.13705e-13,0,0,0,0,0,0,0,0,0,0,0,0,0,0,0,0,0,0,0,0,0,-0.261799,0,-1.5,nan,0,0,0,0,0,0,0,0,0,0,0,1.9603e-19,0,0,0,0,0
90,-3.34297e-12,0,-1.61046e-06,-3.40794e-12,0,-3.96878e-12,-1.13706e-13,0,0,0,0,0,0,0,0,0,0,0,0,0,0,0,0,0,0,0,0,0,-0.261799,0,-1.5,nan,0,0,0,0,0,0,0,0,0,0,0,1.9603e-19,0,0,0,0,0
100,-3.34297e-12,0,-1.61046e-06,-3.40794e-12,0,0,-1.13706e-13,0,0,0,0,0,0,0,0,0,0,0,0,0,0,0,0,0,0,0,0,0,-0.261799,0,-1.5,nan,0,0,0,0,0,0,0,0,0,0,0,1.9603e-19,0,0,0,0,0
110,-3.34297e-12,0,-1.61046e-06,-3.40794e-12,0,-3.96878e-12,-1.13707e-13,0,0,0,0,0,0,0,0,0,0,0,0,0,0,0,0,0,0,0,0,0,-0.261799,0,-1.5,nan,0,0,0,0,0,0,0,0,0,0,0,1.9603e-19,0,0,0,0,0
120,-3.34297e-12,0,-1.61046e-06,-3.40794e-12,0,0,-1.13708e-13,0,0,0,0,0,0,0,0,0,0,0,0,0,0,0,0,0,0,0,0,0,-0.261799,0,-1.5,nan,0,0,0,0,0,0,0,0,0,0,0,1.9603e-19,0,0,0,0,0
130,-3.34297e-12,0,-1.61046e-06,-3.40794e-12,0,-3.96878e-12,-1.13708e-13,0,0,0,0,0,0,0,0,0,0,0,0,0,0,0,0,0,0,0,0,0,-0.261799,0,-1.5,nan,0,0,0,0,0,0,0,0,0,0,0,1.9603e-19,0,0,0,0,0
140,-3.34297e-12,0,-1.61046e-06,-3.40794e-12,0,0,-1.13709e-13,0,0,0,0,0,0,0,0,0,0,0,0,0,0,0,0,0,0,0,0,0,-0.261799,0,-1.5,nan,0,0,0,0,0,0,0,0,0,0,0,1.9603e-19,0,0,0,0,0
150,-3.34297e-12,0,-1.61046e-06,-3.40794e-12,0,-3.96878e-12,-1.13709e-13,0,0,0,0,0,0,0,0,0,0,0,0,0,0,0,0,0,0,0,0,0,-0.261799,0,-1.5,nan,0,0,0,0,0,0,0,0,0,0,0,1.9603e-19,0,0,0,0,0
160,-3.34297e-12,0,-1.61046e-06,-3.40794e-12,0,0,-1.1371e-13,0,0,0,0,0,0,0,0,0,0,0,0,0,0,0,0,0,0,0,0,0,-0.261799,0,-1.5,nan,0,0,0,0,0,0,0,0,0,0,0,1.9603e-19,0,0,0,0,0
170,-3.34297e-12,0,-1.61046e-06,-3.40794e-12,0,-3.96878e-12,-1.1371e-13,0,0,0,0,0,0,0,0,0,0,0,0,0,0,0,0,0,0,0,0,0,-0.261799,0,-1.5,nan,0,0,0,0,0,0,0,0,0,0,0,1.9603e-19,0,0,0,0,0
180,-3.34297e-12,0,-1.61046e-06,-3.40794e-12,0,0,-1.13711e-13,0,0,-2.99658,0.0889137,0.321554,0,0,0,0,0,0.233934,-0.411086,236,-85,236,-85,376,-91,247,55,0,-0.261799,0,-1.5,nan,0,0,0,0,0,0,0,0,0,0,0,21316,0,0,0,0,10281
190,-3.34297e-12,0,-1.61046e-06,-3.40794e-12,0,-3.96878e-12,-1.13711e-13,0,0,-3.13875,0.0834261,0.299203,0,0,0,0,0,0.0694776,-0.416574,241,-68,241,-68,374,-71,248,62,0,-0.261799,0,-1.5,nan,0,0,0,0,0,0,0,0,0,0,0,18753,0,0,0,0,10310
200,-3.34297e-12,0,-1.61046e-06,-3.40794e-12,0,0,-1.13712e-13,0,0,-3.07167,0.0832918,0.227257,0,0,0,0,0,0.147326,-0.416708,242,-63,242,-63,377,-76,247,69,0,-0.261799,0,-1.5,nan,0,0,0,0,0,0,0,0,0,0,0,19865,0,0,0,0,10412
210,-3.34297e-12,0,-1.61046e-06,-3.40794e-12,0,-3.96878e-12,-1.13712e-13,0,0,-3.07167,0.0832918,0.227257,0,0,0,0,0,0.147326,-0.416708,242,-63,242,-63,377,-76,247,69,0,-0.261799,0,-1.5,nan,0,0,0,0,0,0,0,0,0,0,0,19865,0,0,0,0,10412
220,-3.34297e-12,0,-1.61046e-06,-3.40794e-12,0,0,-1.13713e-13,0,0,-3.07167,0.0832918,0.227257,0,0,0,0,0,0.147326,-0.416708,242,-63,242,-63,377,-76,247,69,0,-0.261799,0,-1.5,nan,0,0,0,0,0,0,0,0,0,0,0,19865,0,0,0,0,10412
230,-3.34297e-12,0,-1.61046e-06,-3.40794e-12,0,-3.96878e-12,-1.13714e-13,0,0,-3.07167,0.0832918,0.227257,0,0,0,0,0,0.147326,-0.416708,242,-63,242,-63,377,-76,247,69,0,-0.261799,0,-1.5,nan,0,0,0,0,0,0,0,0,0,0,0,19865,0,0,0,0,10412
240,-3.34297e-12,0,-1.61046e-06,-3.40794e-12,0,0,-1.13714e-13,0,0,-3.07167,0.0832918,0.227257,0,0,0,0,0,0.147326,-0.416708,242,-63,242,-63,377,-76,247,69,0,-0.261799,0,-1.5,nan,0,0,0,0,0,0,0,0,0,0,0,19865,0,0,0,0,10412
250,-3.34297e-12,0,-1.61046e-06,-3.40794e-12,0,-3.96878e-12,-1.13715e-13,0,0,-3.07685,0.0719701,0.16454,0,0,0,0,0,0.141331,-0.42803,242,-51,242,-51,379,-71,250,75,0,-0.261799,0,-1.5,nan,0,0,0,0,0,0,0,0,0,0,0,20148,0,0,0,0,10556
260,-3.34297e-12,0,-1.61046e-06,-3.40794e-12,0,0,-1.13715e-13,0,0,-3.07685,0.0719701,0.16454,0,0,0,0,0,0.141331,-0.42803,242,-51,242,-51,379,-71,250,75,0,-0.261799,0,-1.5,nan,0,0,0,0,0,0,0,0,0,0,0,20148,0,0,0,0,10556
270,-3.34297e-12,0,-1.61046e-06,-3.40794e-12,0,-3.96878e-12,-1.13716e-13,0,0,-3.21095,0.0645033,0.202804,0,0,0,0,0,-0.0148211,-0.435497,245,-52,245,-52,380,-50,250,75,0,-0.261799,0,-1.5,nan,0,0,0,0,0,0,0,0,0,0,0,17145,0,0,0,0,10591
280,-3.34297e-12,0,-1.61046e-06,-3.40794e-12,0,0,-1.13716e-13,0,0,-3.21095,0.0645033,0.202804,0,0,0,0,0,-0.0148211,-0.435497,245,-52,245,-52,380,-50,250,75,0,-0.261799,0,-1.5,nan,0,0,0,0,0,0,0,0,0,0,0,17145,0,0,0,0,10591
290,-3.34297e-12,0,-1.61046e-06,-3.40794e-12,0,-3.96878e-12,-1.13717e-13,0,0,-3.20836,0.0667763,0.19929,0,0,0,0,0,-0.0117846,-0.433224,244,-51,244,-51,380,-50,250,75,0.261799,-0.261799,0,-1.5,nan,0,0,0,-0.0884698,-0.441184,0,0,0,0,-0.521667,-0.0541485,17136,-0.0117846,-0.433224,-0.521667,-0.0541485,10639
300,-3.34297e-12,0,-1.61046e-06,-3.40794e-12,0,0,-1.13717e-13,0,0,-3.20579,0.0649507,0.201883,0,0,0,0,0,-0.0087738,-0.435049,245,-51,245,-51,380,-52,250,75,0.261799,-0.261799,0,-1.5,nan,0,0,0,-0.0547055,-0.445418,0,0,0,0,-0.34535,-0.0489705,17145,-0.0087738,-0.438905,-0.34535,-0.0489705,10775
310,-3.34297e-12,0,-1.61046e-06,-3.40794e-12,0,-3.96878e-12,-1.13718e-13,0,0,-3.08874,0.0718804,0.167695,0,0,0,0,0,0.127558,-0.42812,242,-51,242,-51,379,-69,250,75,0.261799,-0.261799,0,-1.5,nan,0,0,0,-0.0847393,-0.445159,0,0,0,0,-0.256945,-0.0339741,19872,-0.0426002,-0.439587,-0.256945,-0.0339741,10909
320,-3.34297e-12,0,-1.61046e-06,-3.40794e-12,0,0,-1.13718e-13,0,0,-3.08874,0.0718804,0.167695,0,0,0,0,0,0.127558,-0.42812,242,-51,242,-51,379,-69,250,75,0.261799,-0.261799,0,-1.5,nan,0,0,0,-0.104267,-0.447741,0,0,0,0,-0.256945,-0.0339741,19872,-0.0426002,-0.439587,-0.256945,-0.0339741,10909
330,-3.34297e-12,0,-1.61046e-06,-3.40794e-12,0,-3.96878e-12,-1.13719e-13,0,0,-3.08874,0.0718804,0.167695,0,0,0,0,0,0.127558,-0.42812,242,-51,242,-51,379,-69,250,75,0.261799,-0.261799,0,-1.5,nan,0,0,0,-0.109663,-0.448454,0,0,0,0,-0.256945,-0.0339741,19872,-0.0426002,-0.439587,-0.256945,-0.0339741,10909
340,-3.34297e-12,0,-1.61046e-06,-3.40794e-12,0,0,-1.13719e-13,0,0,-3.08874,0.0718804,0.167695,0,0,0,0,0,0.127558,-0.42812,242,-51,242,-51,379,-69,250,75,0.261799,-0.261799,0,-1.5,nan,0,0,0,-0.114031,-0.449032,0,0,0,0,-0.256945,-0.0339741,19872,-0.0426002,-0.439587,-0.256945,-0.0339741,10909
350,-3.34297e-12,0,-1.61046e-06,-3.40794e-12,0,-3.96878e-12,-1.1372e-13,0,0,-3.08874,0.0718804,0.167695,0,0,0,0,0,0.127558,-0.42812,242,-51,242,-51,379,-69,250,75,0.261799,-0.261799,0,-1.5,nan,0,0,0,-0.13099,-0.451274,0,0,0,0,-0.256945,-0.0339741,19872,-0.0426002,-0.439587,-0.256945,-0.0339741,10909
360,-3.34297e-12,0,-1.61046e-06,-3.40794e-12,0,0,-1.13721e-13,0,0,-3.08874,0.0718804,0.167695,0,0,0,0,0,0.127558,-0.42812,242,-51,242,-51,379,-69,250,75,0.261799,-0.261799,0,-1.5,nan,0,0,0,-0.136643,-0.452021,0,0,0,0,-0.256945,-0.0339741,19872,-0.0426002,-0.439587,-0.256945,-0.0339741,10909
370,-3.34297e-12,0,-1.61046e-06,-3.40794e-12,0,-3.96878e-12,-1.13721e-13,0,0,-3.08874,0.0718804,0.167695,0,0,0,0,0,0.127558,-0.42812,242,-51,242,-51,379,-69,250,75,0.261799,-0.261799,0,-1.5,nan,0,0,0,-0.141268,-0.452633,0,0,0,0,-0.256945,-0.0339741,19872,-0.0426002,-0.439587,-0.256945,-0.0339741,10909
380,-3.34297e-12,0,-1.61046e-06,-3.40794e-12,0,0,-1.13722e-13,0,0,-3.20017,0.0730214,0.194594,0,0,0,0,0,-0.00219631,-0.426979,242,-51,242,-51,379,-50,250,75,0.261799,-0.261799,0,-1.5,nan,0,0,0,-0.0177189,-0.429973,0,0,0,0,-0.113651,-0.00331997,17262,-0.00203503,-0.429515,-0.113651,-0.00331997,11291
390,-3.34297e-12,0,-1.61046e-06,-3.40794e-12,0,-3.96878e-12,-1.13722e-13,0,0,-3.04019,0.065135,0.139074,0,0,0,0,0,0.183699,-0.434865,239,-53,239,-53,378,-69,253,79,0.261799,-0.261799,0,-1.5,nan,0,0,0,0.1885,-0.435288,0,0,0,0,0.0940667,-0.00854001,21460,0.177023,-0.434246,0.0940667,-0.00854001,11428
400,-3.34297e-12,0,-1.61046e-06,-3.40794e-12,0,0,-1.13723e-13,0,0,-3.20737,0.0710444,0.198607,0,0,0,0,0,-0.0106211,-0.428956,242,-51,242,-51,379,-50,251,75,0.261799,-0.261799,0,-1.5,nan,0,0,0,-0.019838,-0.431888,0,0,0,0,-0.0709507,-0.00492654,17262,-0.0104725,-0.431238,-0.0709507,-0.00492654,11560
410,-3.34297e-12,0,-1.61046e-06,-3.40794e-12,0,-3.96878e-12,-1.13723e-13,0,0,-3.20737,0.0710444,0.198607,0,0,0,0,0,-0.0106211,-0.428956,242,-51,242,-51,379,-50,251,75,0.261799,-0.261799,0,-1.5,nan,0,0,0,-0.0249547,-0.42932,0,0,0,0,-0.0714885,-0.00175734,17262,-0.0154467,-0.429086,-0.0714885,-0.00175734,11691
420,-3.34297e-12,0,-1.61046e-06,-3.40794e-12,0,0,-1.13724e-13,0,0,-3.20737,0.0710444,0.198607,0,0,0,0,0,-0.0106211,-0.428956,242,-51,242,-51,379,-50,251,75,0.261799,-0.261799,0,-1.5,nan,0,0,0,-0.0261262,-0.429428,0,0,0,0,-0.0621565,-0.00210332,17262,-0.0180459,-0.429154,-0.0621565,-0.00210332,11823
430,-3.34297e-12,0,-1.61046e-06,-3.40794e-12,0,-3.96878e-12,-1.13724e-13,0,0,-3.20017,0.0730214,0.194594,0,0,0,0,0,-0.00219631,-0.426979,242,-51,242,-51,379,-50,250,75,0.261799,-0.261799,0,-1.5,nan,0,0,0,-0.0254827,-0.429978,0,0,0,0,-0.0570088,-0.00155097,17262,-0.0183566,-0.429785,-0.0570088,-0.00155097,11973
440,-3.34297e-12,0,-1.61046e-06,-3.40794e-12,0,0,-1.13725e-13,0,0,-3.20737,0.0710444,0.198607,0,0,0,0,0,-0.0106211,-0.428956,242,-51,242,-51,379,-50,251,75,0.261799,-0.261799,0,-1.5,nan,0,0,0,-0.0336092,-0.429515,0,0,0,0,-0.0552953,-0.00102548,17262,-0.0261997,-0.429378,-0.0552953,-0.00102548,12106
450,-3.34297e-12,0,-1.61046e-06,-3.40794e-12,0,-3.96878e-12,-1.13725e-13,0,0,-3.08017,0.0597489,0.159139,0,0,0,0,0,0.137486,-0.440251,244,-49,244,-49,379,-69,250,75,0.261799,-0.261799,0,-1.5,nan,0,0,0,-0.0316486,-0.42982,0,0,0,0,-0.0645465,-0.00113609,20160,-0.0218376,-0.429647,-0.0645465,-0.00113609,12261
460,-3.34297e-12,0,-1.61046e-06,-3.40794e-12,0,0,-1.13726e-13,0,0,-3.1857,0.0684206,0.186341,0.00299119,-0.428175,0.00513067,0.000563979,0,0.0147245,-0.431579,242,-51,242,-51,381,-50,250,75,0.261799,-0.261799,0,-1.5,nan,0,0,0,0.00299119,-0.428175,0,0,0,0,0.00513067,0.000563979,17514,0,0,0,0,12672
470,-3.34297e-12,0,-1.61046e-06,-3.40794e-12,0,-3.96878e-12,-1.13727e-13,0,0,-3.1857,0.0684206,0.186341,0.00383942,-0.428082,0.00466814,0.000513137,0,0.0147245,-0.431579,242,-51,242,-51,381,-50,250,75,0.261799,-0.261799,0,-1.5,nan,0,0,0,0.00383942,-0.428082,0,0,0,0,0.00466814,0.000513137,17514,0,0,0,0,13371
480,-3.34297e-12,0,-1.61046e-06,-3.40794e-12,0,0,-1.13727e-13,0,0,-3.1857,0.0684206,0.186341,0.00389523,-0.428076,0.0046402,0.000510066,0,0.0147245,-0.431579,242,-51,242,-51,381,-50,250,75,0.261799,-0.261799,0,-1.5,nan,0,0,0,0.00389523,-0.428076,0,0,0,0,0.0046402,0.000510066,17514,0,0,0,0,13389
490,-3.34297e-12,0,-1.61046e-06,-3.40794e-12,0,-3.96878e-12,-1.13728e-13,0,0,-3.1857,0.0684206,0.186341,0.00397367,-0.428067,0.00460087,0.000505742,0,0.0147245,-0.431579,242,-51,242,-51,381,-50,250,75,0.261799,-0.261799,0,-1.5,nan,0,0,0,0.00397367,-0.428067,0,0,0,0,0.00460087,0.000505742,17514,0,0,0,0,13389
500,-3.34297e-12,0,-1.61046e-06,-3.40794e-12,0,0,-1.13728e-13,0,0,-3.19372,0.0579215,0.190952,0.00406957,-0.428057,0.00455271,0.000500448,0,0.00534797,-0.442078,245,-51,245,-51,383,-50,250,75,0.261799,-0.261799,0,-1.5,nan,0,0,0,0.00406957,-0.428057,0,0,0,0,0.00455271,0.000500448,17388,0,0,0,0,13423
510,-3.34297e-12,0,-1.61046e-06,-3.40794e-12,0,-3.96878e-12,-1.13729e-13,0,0,-3.19372,0.0579215,0.190952,0.00415999,-0.428047,0.00450732,0.000495459,0,0.00534797,-0.442078,245,-51,245,-51,383,-50,250,75,0.261799,-0.261799,0,-1.5,nan,0,0,0,0.00415999,-0.428047,0,0,0,0,0.00450732,0.000495459,17388,0,0,0,0,13423
520,-3.34297e-12,0,-1.61046e-06,-3.40794e-12,0,0,-1.13729e-13,0,0,-3.1857,0.0684206,0.186341,0.00435898,-0.428025,0.00440626,0.00048435,0,0.0147245,-0.431579,242,-51,242,-51,381,-50,250,75,0.261799,-0.261799,0,-1.5,nan,0,0,0,0.00435898,-0.428025,0,0,0,0,0.00440626,0.00048435,17514,0,0,0,0,13486
530,-3.34297e-12,0,-1.61046e-06,-3.40794e-12,0,-3.96878e-12,-1.1373e-13,0,0,-3.1857,0.0684206,0.186341,0.00443782,-0.428016,0.00436673,0.000480005,0,0.0147245,-0.431579,242,-51,242,-51,381,-50,250,75,0.261799,-0.261799,0,-1.5,nan,0,0,0,0.00443782,-0.428016,0,0,0,0,0.00436673,0.000480005,17514,0,0,0,0,13486
540,-3.34297e-12,0,-1.61046e-06,-3.40794e-12,0,0,-1.1373e-13,0,0,-3.20017,0.0730214,0.194594,0.00460961,-0.427997,0.0042797,0.000470438,0,-0.00219631,-0.426979,242,-51,242,-51,379,-50,250,75,0.261799,-0.261799,0,-1.5,nan,0,0,0,0.00460961,-0.427997,0,0,0,0,0.0042797,0.000470438,17262,0,0,0,0,13544
550,-3.34297e-12,0,-1.61046e-06,-3.40794e-12,0,-3.96878e-12,-1.13731e-13,0,0,-3.20083,0.0602209,0.195095,0.00525359,-0.427927,0.00394009,0.000433107,0,-0.00297642,-0.439779,245,-51,245,-51,381,-50,250,75,0.261799,-0.261799,0,-1.5,nan,0,0,0,-0.0144786,-0.440608,0,0,0,0,-0.0898651,-0.0277273,17136,-0.00772518,-0.00907703,-0.0938051,-0.0281604,13587
560,-3.34297e-12,0,-1.61046e-06,-3.40794e-12,0,0,-1.13731e-13,0,0,-3.1857,0.0684206,0.186341,0.00576463,-0.42787,0.00367053,0.000403477,0,0.0147245,-0.431579,242,-51,242,-51,381,-50,250,75,0.261799,-0.261799,0,-1.5,nan,0,0,0,0.0146682,-0.431586,0,0,0,0,-0.00046126,-5.09848e-05,17514,0.00942001,-0.00365838,-0.00413179,-0.000454462,13728
570,-3.34297e-12,0,-1.61046e-06,-3.40794e-12,0,-3.96878e-12,-1.13732e-13,0,0,-3.1857,0.0684206,0.186341,0.00623817,-0.427818,0.00341824,0.000375744,0,0.0147245,-0.431579,242,-51,242,-51,381,-50,250,75,0.261799,-0.261799,0,-1.5,nan,0,0,0,0.014627,-0.43159,0,0,0,0,-0.000596675,-6.57837e-05,17514,0.00894285,-0.00371084,-0.00401492,-0.000441528,13868
580,-3.34297e-12,0,-1.61046e-06,-3.40794e-12,0,0,-1.13732e-13,0,0,-3.1857,0.0684206,0.186341,0.00630608,-0.427811,0.00338417,0.000371999,0,0.0147245,-0.431579,242,-51,242,-51,381,-50,250,75,0.261799,-0.261799,0,-1.5,nan,0,0,0,0.0146146,-0.431592,0,0,0,0,-0.000630748,-6.95291e-05,17514,0.00894285,-0.00371084,-0.00401492,-0.000441528,13868
590,-3.34297e-12,0,-1.61046e-06,-3.40794e-12,0,-3.96878e-12,-1.13733e-13,0,0,-3.1857,0.0684206,0.186341,0.00675366,-0.427762,0.00314752,0.000345986,0,0.0147245,-0.431579,242,-51,242,-51,381,-50,250,75,0.261799,-0.261799,0,-1.5,nan,0,0,0,0.0146717,-0.431585,0,0,0,0,-0.000378184,-4.14488e-05,17514,0.00837283,-0.00377346,-0.00352571,-0.000387435,14023
600,-3.34297e-12,0,-1.61046e-06,-3.40794e-12,0,0,-1.13734e-13,0,0,-3.1857,0.0684206,0.186341,0.00681926,-0.427755,0.00311458,0.000342364,0,0.0147245,-0.431579,242,-51,242,-51,381,-50,250,75,0.261799,-0.261799,0,-1.5,nan,0,0,0,0.0146632,-0.431586,0,0,0,0,-0.000411132,-4.50706e-05,17514,0.00837283,-0.00377346,-0.00352571,-0.000387435,14023
610,-3.34297e-12,0,-1.61046e-06,-3.40794e-12,0,-3.96878e-12,-1.13734e-13,0,0,-3.17087,0.0638549,0.177885,0.00721568,-0.427711,0.0029036,0.000319173,0,0.0320413,-0.436145,242,-51,242,-51,383,-50,250,75,0.261799,-0.261799,0,-1.5,nan,0,0,0,0.0144164,-0.431611,0,0,0,0,-0.00102095,-0.000109266,17766,0.0077345,-0.00384132,-0.00392455,-0.000428439,14184
620,-3.34297e-12,0,-1.61046e-06,-3.40794e-12,0,0,-1.13735e-13,0,0,-3.1857,0.0684206,0.186341,0.0082024,-0.427603,0.00228034,0.000250663,0,0.0147245,-0.431579,242,-51,242,-51,381,-50,250,75,0.261799,-0.261799,0,-1.5,nan,0,0,0,0.0141262,-0.431691,0,0,0,0,-0.00124495,-0.000180769,17514,0.0074432,-0.00390233,-0.00352529,-0.000431432,14319
630,-3.34297e-12,0,-1.61046e-06,-3.40794e-12,0,-3.96878e-12,-1.13735e-13,0,0,-3.17087,0.0638549,0.177885,0.0454153,-0.431927,0.0169051,-0.000282859,0,0.0320413,-0.436145,242,-51,242,-51,383,-50,250,75,0.261799,-0.261799,0,-1.5,nan,0,0,0,0.0454153,-0.431927,0,0,0,0,0.0169051,-0.000282859,17766,0,0,0,0,15012
640,-3.34297e-12,0,-1.61046e-06,-3.40794e-12,0,0,-1.13736e-13,0,0,-3.20861,0.0624894,0.199446,0.0471646,-0.431956,0.0159873,-0.000267502,0,-0.0120797,-0.437511,245,-51,245,-51,381,-50,250,75,0.261799,-0.261799,0,-1.5,nan,0,0,0,0.0471646,-0.431956,0,0,0,0,0.0159873,-0.000267502,17136,0,0,0,0,15682
650,-3.34297e-12,0,-1.61046e-06,-3.40794e-12,0,-3.96878e-12,-1.13736e-13,0,0,-3.20861,0.0624894,0.199446,0.0473557,-0.43196,0.0158916,-0.0002659,0,-0.0120797,-0.437511,245,-51,245,-51,381,-50,250,75,0.261799,-0.261799,0,-1.5,nan,0,0,0,0.0473557,-0.43196,0,0,0,0,0.0158916,-0.0002659,17136,0,0,0,0,15682
660,-3.34297e-12,0,-1.61046e-06,-3.40794e-12,0,0,-1.13737e-13,0,0,-3.20861,0.0624894,0.199446,0.0476557,-0.431965,0.015741,-0.000263382,0,-0.0120797,-0.437511,245,-51,245,-51,381,-50,250,75,0.261799,-0.261799,0,-1.5,nan,0,0,0,0.0476557,-0.431965,0,0,0,0,0.015741,-0.000263382,17136,0,0,0,0,15682
670,-3.34297e-12,0,-1.61046e-06,-3.40794e-12,0,-3.96878e-12,-1.13737e-13,0,0,-3.19563,0.059713,0.187981,0.0479838,-0.43197,0.0155763,-0.000260625,0,0.00311208,-0.440287,244,-51,244,-51,383,-48,250,75,0.261799,-0.261799,0,-1.5,nan,0,0,0,0.0479838,-0.43197,0,0,0,0,0.0155763,-0.000260625,17514,0,0,0,0,15734
680,-3.34297e-12,0,-1.61046e-06,-3.40794e-12,0,0,-1.13738e-13,0,0,-3.19563,0.059713,0.187981,0.0482471,-0.431975,0.0154442,-0.000258416,0,0.00311208,-0.440287,244,-51,244,-51,383,-48,250,75,0.261799,-0.261799,0,-1.5,nan,0,0,0,0.0482471,-0.431975,0,0,0,0,0.0154442,-0.000258416,17514,0,0,0,0,15755
690,-3.34297e-12,0,-1.61046e-06,-3.40794e-12,0,-3.96878e-12,-1.13738e-13,0,0,-3.19563,0.059713,0.187981,0.048569,-0.43198,0.0152826,-0.00025571,0,0.00311208,-0.440287,244,-51,244,-51,383,-48,250,75,0.261799,-0.261799,0,-1.5,nan,0,0,0,0.048569,-0.43198,0,0,0,0,0.0152826,-0.00025571,17514,0,0,0,0,15755
700,-3.34297e-12,0,-1.61046e-06,-3.40794e-12,0,0,-1.13739e-13,0,0,-3.19563,0.059713,0.187981,0.0488726,-0.431985,0.0151302,-0.000253162,0,0.00311208,-0.440287,244,-51,244,-51,383,-48,250,75,0.261799,-0.261799,0,-1.5,nan,0,0,0,0.0488726,-0.431985,0,0,0,0,0.0151302,-0.000253162,17514,0,0,0,0,15755
710,-3.34297e-12,0,-1.61046e-06,-3.40794e-12,0,-3.96878e-12,-1.1374e-13,0,0,-3.1857,0.0684206,0.186341,0.0491879,-0.43199,0.0149718,-0.000250511,0,0.0147245,-0.431579,242,-51,242,-51,381,-50,250,75,0.261799,-0.261799,0,-1.5,nan,0,0,0,0.0491879,-0.43199,0,0,0,0,0.0149718,-0.000250511,17514,0,0,0,0,15819
720,-3.34297e-12,0,-1.61046e-06,-3.40794e-12,0,0,-1.1374e-13,0,0,-3.1857,0.0684206,0.186341,0.0498919,-0.432002,0.0146138,-0.000244521,0,0.0147245,-0.431579,242,-51,242,-51,381,-50,250,75,0.261799,-0.261799,0,-1.5,nan,0,0,0,0.0498919,-0.432002,0,0,0,0,0.0146138,-0.000244521,17514,0,0,0,0,15819
730,-3.34297e-12,0,-1.61046e-06,-3.40794e-12,0,-3.96878e-12,-1.13741e-13,0,0,-3.20861,0.0624894,0.199446,0.0503962,-0.43201,0.0143589,-0.000240256,0,-0.0120797,-0.437511,245,-51,245,-51,381,-50,250,75,0.261799,-0.261799,0,-1.5,nan,0,0,0,0.0503962,-0.43201,0,0,0,0,0.0143589,-0.000240256,17136,0,0,0,0,15896
740,-3.34297e-12,0,-1.61046e-06,-3.40794e-12,0,0,-1.13741e-13,0,0,-3.20861,0.0624894,0.199446,0.0507097,-0.432016,0.0142015,-0.000237622,0,-0.0120797,-0.437511,245,-51,245,-51,381,-50,250,75,0.261799,-0.261799,0,-1.5,nan,0,0,0,0.0507097,-0.432016,0,0,0,0,0.0142015,-0.000237622,17136,0,0,0,0,15921
750,-3.34297e-12,0,-1.61046e-06,-3.40794e-12,0,-3.96878e-12,-1.13742e-13,0,0,-3.20861,0.0624894,0.199446,0.0509918,-0.43202,0.01406,-0.000235254,0,-0.0120797,-0.437511,245,-51,245,-51,381,-50,250,75,0.261799,-0.261799,0,-1.5,nan,0,0,0,0.0509918,-0.43202,0,0,0,0,0.01406,-0.000235254,17136,0,0,0,0,15921
760,-3.34297e-12,0,-1.61046e-06,-3.40794e-12,0,0,-1.13742e-13,0,0,-3.23801,0.0630764,0.216235,0.0531175,-0.432056,0.0129115,-0.000216038,0,-0.046545,-0.436924,247,-51,247,-51,379,-50,250,75,0.261799,-0.261799,0,-1.5,nan,0,0,0,-0.0440268,-0.434467,0,0,0,0,-0.133035,0.0149809,16632,-0.0732092,-0.00490317,-0.145946,0.0151969,15976
770,-3.34297e-12,0,-1.61046e-06,-3.40794e-12,0,-3.96878e-12,-1.13743e-13,0,0,-3.19563,0.059713,0.187981,0.0547384,-0.432083,0.0120498,-0.000201619,0,0.00311208,-0.440287,244,-51,244,-51,383,-48,250,75,0.261799,-0.261799,0,-1.5,nan,0,0,0,-0.0377375,-0.432941,0,0,0,0,-0.0796002,0.0140704,17514,-0.0801948,-0.00277067,-0.0916499,0.014272,16121
780,-3.34297e-12,0,-1.61046e-06,-3.40794e-12,0,0,-1.13743e-13,0,0,-3.1857,0.0684206,0.186341,0.056188,-0.432108,0.0112815,-0.000188765,0,0.0147245,-0.431579,242,-51,242,-51,381,-50,250,75,0.261799,-0.261799,0,-1.5,nan,0,0,0,0.00251669,-0.429499,0,0,0,0,-0.00270208,0.0167175,17514,-0.0518814,0.000444318,-0.0139836,0.0169063,16253
790,-3.34297e-12,0,-1.61046e-06,-3.40794e-12,0,-3.96878e-12,-1.13744e-13,0,0,-3.20861,0.0624894,0.199446,0.0575551,-0.43213,0.0105567,-0.000176636,0,-0.0120797,-0.437511,245,-51,245,-51,381,-50,250,75,0.261799,-0.261799,0,-1.5,nan,0,0,0,-0.0154591,-0.437507,0,0,0,0,-0.0263713,3.17136e-05,17136,-0.0682505,-0.00540305,-0.036928,0.00020835,16381
800,-3.34297e-12,0,-1.61046e-06,-3.40794e-12,0,0,-1.13744e-13,0,0,-3.20861,0.0624894,0.199446,0.0588573,-0.432152,0.00986997,-0.000165146,0,-0.0120797,-0.437511,245,-51,245,-51,381,-50,250,75,0.261799,-0.261799,0,-1.5,nan,0,0,0,-0.0164548,-0.437501,0,0,0,0,-0.0240463,-0.000212925,17136,-0.0711744,-0.00534321,-0.0339163,-4.77787e-05,16512
810,-3.34297e-12,0,-1.61046e-06,-3.40794e-12,0,-3.96878e-12,-1.13745e-13,0,0,-3.19372,0.0579215,0.190952,0.0600964,-0.432173,0.00921122,-0.000154124,0,0.00534797,-0.442078,245,-51,245,-51,383,-50,250,75,0.261799,-0.261799,0,-1.5,nan,0,0,0,-0.00402842,-0.437563,0,0,0,0,-0.00934775,-0.000237896,17388,-0.0616379,-0.0053786,-0.018559,-8.37727e-05,16646
820,-3.34297e-12,0,-1.61046e-06,-3.40794e-12,0,0,-1.13745e-13,0,0,-3.19563,0.059713,0.187981,0.0615972,-0.432198,0.00839499,-0.000140466,0,0.00311208,-0.440287,244,-51,244,-51,383,-48,250,75,0.261799,-0.261799,0,-1.5,nan,0,0,0,0.00275348,-0.437487,0,0,0,0,-0.00247508,6.30564e-05,17514,-0.0569088,-0.00532494,-0.0108701,0.000203523,16803
830,-3.34297e-12,0,-1.61046e-06,-3.40794e-12,0,-3.96878e-12,-1.13746e-13,0,0,-3.19563,0.059713,0.187981,0.0626438,-0.432215,0.00783887,-0.000131161,0,0.00311208,-0.440287,244,-51,244,-51,383,-48,250,75,0.261799,-0.261799,0,-1.5,nan,0,0,0,0.00229631,-0.4404,0,0,0,0,-0.00307896,-0.00242345,17514,-0.0588954,-0.00787954,-0.0109178,-0.00229229,16958
840,-3.34297e-12,0,-1.61046e-06,-3.40794e-12,0,0,-1.13747e-13,0,0,-3.19563,0.059713,0.187981,-0.000549837,-0.441716,-0.00508113,-0.00219952,0,0.00311208,-0.440287,244,-51,244,-51,383,-48,250,75,0.261799,-0.261799,0,-1.5,nan,0,0,0,-0.000549837,-0.441716,0,0,0,0,-0.00508113,-0.00219952,17514,0,0,0,0,17362
850,-3.34297e-12,0,-1.61046e-06,-3.40794e-12,0,-3.96878e-12,-1.13747e-13,0,0,-3.17258,0.0529912,0.175112,-0.00104366,-0.44193,-0.00482298,-0.00208777,0,0.0300496,-0.447009,244,-51,244,-51,383,-48,250,75,0.261799,-0.261799,0,-1.5,nan,0,0,0,-0.00104366,-0.44193,0,0,0,0,-0.00482298,-0.00208777,17514,0,0,0,0,17852
860,-3.34297e-12,0,-1.61046e-06,-3.40794e-12,0,0,-1.13748e-13,0,0,-3.19372,0.0579215,0.190952,-0.00199266,-0.44234,-0.00429477,-0.00185912,0,0.00534797,-0.442078,245,-51,245,-51,383,-50,250,75,0.261799,-0.261799,0,-1.5,nan,0,0,0,-0.00199266,-0.44234,0,0,0,0,-0.00429477,-0.00185912,17388,0,0,0,0,18071
870,-3.34297e-12,0,-1.61046e-06,-3.40794e-12,0,-3.96878e-12,-1.13748e-13,0,0,-3.22314,0.0670928,0.20773,-0.00223951,-0.442447,-0.00416854,-0.00180448,0,-0.0290995,-0.432907,245,-51,245,-51,379,-50,250,75,0.261799,-0.261799,0,-1.5,nan,0,0,0,-0.00223951,-0.442447,0,0,0,0,-0.00416854,-0.00180448,16884,0,0,0,0,18131
880,-3.34297e-12,0,-1.61046e-06,-3.40794e-12,0,0,-1.13749e-13,0,0,-3.22346,0.058472,0.207935,-0.00243559,-0.442532,-0.00406889,-0.00176134,0,-0.0294704,-0.441528,247,-51,247,-51,381,-50,250,75,0.261799,-0.261799,0,-1.5,nan,0,0,0,-0.00243559,-0.442532,0,0,0,0,-0.00406889,-0.00176134,16884,0,0,0,0,18178
890,-3.34297e-12,0,-1.61046e-06,-3.40794e-12,0,-3.96878e-12,-1.13749e-13,0,0,-3.20096,0.0516552,0.195189,-0.00250437,-0.442562,-0.0040344,-0.00174641,0,-0.00312376,-0.448345,247,-51,247,-51,383,-50,250,75,0.261799,-0.261799,0,-1.5,nan,0,0,0,-0.00250437,-0.442562,0,0,0,0,-0.0040344,-0.00174641,17136,0,0,0,0,18196
900,-3.34297e-12,0,-1.61046e-06,-3.40794e-12,0,0,-1.1375e-13,0,0,-3.20096,0.0516552,0.195189,-0.00258846,-0.442598,-0.00399217,-0.00172813,0,-0.00312376,-0.448345,247,-51,247,-51,383,-50,250,75,0.261799,-0.261799,0,-1.5,nan,0,0,0,-0.00258846,-0.442598,0,0,0,0,-0.00399217,-0.00172813,17136,0,0,0,0,18196
910,-3.34297e-12,0,-1.61046e-06,-3.40794e-12,0,-3.96878e-12,-1.1375e-13,0,0,-3.20096,0.0516552,0.195189,-0.0026441,-0.442622,-0.0039643,-0.00171607,0,-0.00312376,-0.448345,247,-51,247,-51,383,-50,250,75,0.261799,-0.261799,0,-1.5,nan,0,0,0,-0.0026441,-0.442622,0,0,0,0,-0.0039643,-0.00171607,17136,0,0,0,0,18196
920,-3.34297e-12,0,-1.61046e-06,-3.40794e-12,0,0,-1.13751e-13,0,0,-3.20096,0.0516552,0.195189,-0.00280394,-0.442692,-0.00388334,-0.00168102,0,-0.00312376,-0.448345,247,-51,247,-51,383,-50,250,75,0.261799,-0.261799,0,-1.5,nan,0,0,0,-0.00280394,-0.442692,0,0,0,0,-0.00388334,-0.00168102,17136,0,0,0,0,18196
930,-3.34297e-12,0,-1.61046e-06,-3.40794e-12,0,-3.96878e-12,-1.13751e-13,0,0,-3.20096,0.0516552,0.195189,-0.00287724,-0.442723,-0.00384656,-0.0016651,0,-0.00312376,-0.448345,247,-51,247,-51,383,-50,250,75,0.261799,-0.261799,0,-1.5,nan,0,0,0,-0.00287724,-0.442723,0,0,0,0,-0.00384656,-0.0016651,17136,0,0,0,0,18196
940,-3.34297e-12,0,-1.61046e-06,-3.40794e-12,0,0,-1.13752e-13,0,0,-3.20096,0.0516552,0.195189,-0.00294607,-0.442753,-0.00381205,-0.00165016,0,-0.00312376,-0.448345,247,-51,247,-51,383,-50,250,75,0.261799,-0.261799,0,-1.5,nan,0,0,0,-0.00294607,-0.442753,0,0,0,0,-0.00381205,-0.00165016,17136,0,0,0,0,18196
950,-3.34297e-12,0,-1.61046e-06,-3.40794e-12,0,-3.96878e-12,-1.13753e-13,0,0,-3.20096,0.0516552,0.195189,-0.00302178,-0.442786,-0.00377404,-0.00163371,0,-0.00312376,-0.448345,247,-51,247,-51,383,-50,250,75,0.261799,-0.261799,0,-1.5,nan,0,0,0,-0.00302178,-0.442786,0,0,0,0,-0.00377404,-0.00163371,17136,0,0,0,0,18196
960,-3.34297e-12,0,-1.61046e-06,-3.40794e-12,0,0,-1.13753e-13,0,0,-3.20096,0.0516552,0.195189,-0.00316302,-0.442847,-0.00370261,-0.00160279,0,-0.00312376,-0.448345,247,-51,247,-51,383,-50,250,75,0.261799,-0.261799,0,-1.5,nan,0,0,0,-0.00316302,-0.442847,0,0,0,0,-0.00370261,-0.00160279,17136,0,0,0,0,18196
970,-3.34297e-12,0,-1.61046e-06,-3.40794e-12,0,-3.96878e-12,-1.13754e-13,0,0,-3.20096,0.0516552,0.195189,-0.00324019,-0.442881,-0.00366385,-0.00158601,0,-0.00312376,-0.448345,247,-51,247,-51,383,-50,250,75,0.261799,-0.261799,0,-1.5,nan,0,0,0,-0.00324019,-0.442881,0,0,0,0,-0.00366385,-0.00158601,17136,0,0,0,0,18196
980,-3.34297e-12,0,-1.61046e-06,-3.40794e-12,0,0,-1.13754e-13,0,0,-3.20096,0.0516552,0.195189,-0.00331296,-0.442912,-0.00362732,-0.0015702,0,-0.00312376,-0.448345,247,-51,247,-51,383,-50,250,75,0.261799,-0.261799,0,-1.5,nan,0,0,0,-0.00331296,-0.442912,0,0,0,0,-0.00362732,-0.0015702,17136,0,0,0,0,18196
990,-3.34297e-12,0,-1.61046e-06,-3.40794e-12,0,-3.96878e-12,-1.13755e-13,0,0,-3.20096,0.0516552,0.195189,-0.00337785,-0.44294,-0.00359477,-0.00155611,0,-0.00312376,-0.448345,247,-51,247,-51,383,-50,250,75,0.261799,-0.261799,0,-1.5,nan,0,0,0,-0.00337785,-0.44294,0,0,0,0,-0.00359477,-0.00155611,17136,0,0,0,0,18196
1000,-3.34297e-12,0,-1.61046e-06,-3.40794e-12,0,0,-1.13755e-13,0,0,-3.20096,0.0516552,0.195189,-0.00344924,-0.442971,-0.00355893,-0.00154059,0,-0.00312376,-0.448345,247,-51,247,-51,383,-50,250,75,0.261799,-0.261799,0,-1.5,nan,0,0,0,-0.00344924,-0.442971,0,0,0,0,-0.00355893,-0.00154059,17136,0,0,0,0,18196
1010,-3.34297e-12,0,-1.61046e-06,-3.40794e-12,0,-3.96878e-12,-1.13756e-13,0,0,-3.20096,0.0516552,0.195189,-0.00352344,-0.443003,-0.00352168,-0.00152447,0,-0.00312376,-0.448345,247,-51,247,-51,383,-50,250,75,0.261799,-0.261799,0,-1.5,nan,0,0,0,-0.00352344,-0.443003,0,0,0,0,-0.00352168,-0.00152447,17136,0,0,0,0,18196
1020,-3.34297e-12,0,-1.61046e-06,-3.40794e-12,0,0,-1.13756e-13,0,0,-3.20096,0.0516552,0.195189,-0.00364501,-0.443056,-0.00346029,-0.00149789,0,-0.00312376,-0.448345,247,-51,247,-51,383,-50,250,75,0.261799,-0.261799,0,-1.5,nan,0,0,0,-0.00364501,-0.443056,0,0,0,0,-0.00346029,-0.00149789,17136,0,0,0,0,18196
1030,-3.34297e-12,0,-1.61046e-06,-3.40794e-12,0,-3.96878e-12,-1.13757e-13,0,0,-3.20096,0.0516552,0.195189,-0.00371714,-0.443087,-0.00342406,-0.00148221,0,-0.00312376,-0.448345,247,-51,247,-51,383,-50,250,75,0.261799,-0.261799,0,-1.5,nan,0,0,0,-0.00371714,-0.443087,0,0,0,0,-0.00342406,-0.00148221,17136,0,0,0,0,18196
1040,-3.34297e-12,0,-1.61046e-06,-3.40794e-12,0,0,-1.13757e-13,0,0,-3.1857,0.0684206,0.186341,-0.00383197,-0.443137,-0.00336605,-0.0014571,0,0.0147245,-0.431579,242,-51,242,-51,381,-50,250,75,0.261799,-0.261799,0,-1.5,nan,0,0,0,-0.00383197,-0.443137,0,0,0,0,-0.00336605,-0.0014571,17514,0,0,0,0,18557
1050,-3.34297e-12,0,-1.61046e-06,-3.40794e-12,0,-3.96878e-12,-1.13758e-13,0,0,-3.1857,0.0684206,0.186341,-0.0038922,-0.443163,-0.00333585,-0.00144403,0,0.0147245,-0.431579,242,-51,242,-51,381,-50,250,75,0.261799,-0.261799,0,-1.5,nan,0,0,0,-0.0038922,-0.443163,0,0,0,0,-0.00333585,-0.00144403,17514,0,0,0,0,18557
1060,-3.34297e-12,0,-1.61046e-06,-3.40794e-12,0,0,-1.13759e-13,0,0,-3.22314,0.0670928,0.20773,-0.00429351,-0.443337,-0.00312318,-0.00135196,0,-0.0290995,-0.432907,245,-51,245,-51,379,-50,250,75,0.261799,-0.261799,0,-1.5,nan,0,0,0,-0.0350951,-0.431239,0,0,0,0,-0.0468291,0.0130389,16884,-0.0252073,0.0102557,-0.0437059,0.0143909,18591
1070,-3.34297e-12,0,-1.61046e-06,-3.40794e-12,0,-3.96878e-12,-1.13759e-13,0,0,-3.22346,0.058472,0.207935,-0.00466375,-0.443497,-0.00292717,-0.00126712,0,-0.0294704,-0.441528,247,-51,247,-51,381,-50,250,75,0.261799,-0.261799,0,-1.5,nan,0,0,0,-0.0345148,-0.429586,0,0,0,0,-0.0400235,0.0131237,16884,-0.0251769,0.0120977,-0.0370963,0.0143909,18723
1080,-3.34297e-12,0,-1.61046e-06,-3.40794e-12,0,0,-1.1376e-13,0,0,-3.20017,0.0730214,0.194594,-0.00500436,-0.443644,-0.00274846,-0.00118975,0,-0.00219631,-0.426979,242,-51,242,-51,379,-50,250,75,0.261799,-0.261799,0,-1.5,nan,0,0,0,-0.0332628,-0.42649,0,0,0,0,-0.0199376,0.0144702,17262,-0.0262989,0.0153689,-0.0171892,0.01566,18848
1090,-3.34297e-12,0,-1.61046e-06,-3.40794e-12,0,-3.96878e-12,-1.1376e-13,0,0,-3.20861,0.0624894,0.199446,-0.00533981,-0.44379,-0.00257049,-0.00111272,0,-0.0120797,-0.437511,245,-51,245,-51,381,-50,250,75,0.261799,-0.261799,0,-1.5,nan,0,0,0,-0.0134136,-0.429047,0,0,0,0,-0.0030661,0.0110555,17136,-0.0080094,0.013161,-0.000495609,0.0121682,18973
1100,-3.34297e-12,0,-1.61046e-06,-3.40794e-12,0,0,-1.13761e-13,0,0,-3.1857,0.0684206,0.186341,0.0198885,-0.425387,0.0276843,0.00902261,0,0.0147245,-0.431579,242,-51,242,-51,381,-50,250,75,0.261799,-0.261799,0,-1.5,nan,0,0,0,0.0198885,-0.425387,0,0,0,0,0.0276843,0.00902261,17514,0,0,0,0,19202
1110,-3.34297e-12,0,-1.61046e-06,-3.40794e-12,0,-3.96878e-12,-1.13761e-13,0,0,-3.22673,0.0526318,0.17877,0.022579,-0.42451,0.0262777,0.00856421,0,-0.0333071,-0.447368,247,-39,247,-39,380,-50,250,78,0.261799,-0.261799,0,-1.5,nan,0,0,0,0.022579,-0.42451,0,0,0,0,0.0262777,0.00856421,17536,0,0,0,0,19872
1120,-3.34297e-12,0,-1.61046e-06,-3.40794e-12,0,0,-1.13762e-13,0,0,-3.22673,0.0526318,0.17877,0.0283364,-0.422634,0.0230205,0.00750265,0,-0.0333071,-0.447368,247,-39,247,-39,380,-50,250,78,0.261799,-0.261799,0,-1.5,nan,0,0,0,0.0283364,-0.422634,0,0,0,0,0.0230205,0.00750265,17536,0,0,0,0,19872
1130,-3.34297e-12,0,-1.61046e-06,-3.40794e-12,0,-3.96878e-12,-1.13762e-13,0,0,-3.22673,0.0526318,0.17877,0.0285888,-0.422552,0.0228942,0.00746147,0,-0.0333071,-0.447368,247,-39,247,-39,380,-50,250,78,0.261799,-0.261799,0,-1.5,nan,0,0,0,0.0285888,-0.422552,0,0,0,0,0.0228942,0.00746147,17536,0,0,0,0,19872
1140,-3.34297e-12,0,-1.61046e-06,-3.40794e-12,0,0,-1.13763e-13,0,0,-3.22635,0.0551286,0.174494,0.0305853,-0.421901,0.0218564,0.00712326,0,-0.0328641,-0.444871,247,-37,247,-37,380,-50,249,78,0.261799,-0.261799,0,-1.5,nan,0,0,0,0.0305853,-0.421901,0,0,0,0,0.0218564,0.00712326,17536,0,0,0,0,20223
1150,-3.34297e-12,0,-1.61046e-06,-3.40794e-12,0,-3.96878e-12,-1.13763e-13,0,0,-3.22635,0.0551286,0.174494,0.0310194,-0.421759,0.0216386,0.00705225,0,-0.0328641,-0.444871,247,-37,247,-37,380,-50,249,78,0.261799,-0.261799,0,-1.5,nan,0,0,0,0.0310194,-0.421759,0,0,0,0,0.0216386,0.00705225,17536,0,0,0,0,20223
1160,-3.34297e-12,0,-1.61046e-06,-3.40794e-12,0,0,-1.13764e-13,0,0,-3.2612,0.0661146,0.197657,0.0313853,-0.42164,0.0214552,0.00699249,0,-0.0737925,-0.433885,246,-39,246,-39,380,-50,250,78,0.261799,-0.261799,0,-1.5,nan,0,0,0,0.0313853,-0.42164,0,0,0,0,0.0214552,0.00699249,17152,0,0,0,0,20259
1170,-3.34297e-12,0,-1.61046e-06,-3.40794e-12,0,-3.96878e-12,-1.13764e-13,0,0,-3.20272,0.0612206,0.161241,0.03225,-0.421358,0.0210169,0.00684965,0,-0.00518847,-0.438779,244,-37,244,-37,380,-50,249,78,0.261799,-0.261799,0,-1.5,nan,0,0,0,0.03225,-0.421358,0,0,0,0,0.0210169,0.00684965,17920,0,0,0,0,20301
1180,-3.34297e-12,0,-1.61046e-06,-3.40794e-12,0,0,-1.13765e-13,0,0,-3.20272,0.0612206,0.161241,0.032626,-0.421236,0.0208283,0.00678818,0,-0.00518847,-0.438779,244,-37,244,-37,380,-50,249,78,0.261799,-0.261799,0,-1.5,nan,0,0,0,0.032626,-0.421236,0,0,0,0,0.0208283,0.00678818,17920,0,0,0,0,20301
1190,-3.34297e-12,0,-1.61046e-06,-3.40794e-12,0,-3.96878e-12,-1.13766e-13,0,0,-3.20272,0.0612206,0.161241,0.0329781,-0.421121,0.0206518,0.00673065,0,-0.00518847,-0.438779,244,-37,244,-37,380,-50,249,78,0.261799,-0.261799,0,-1.5,nan,0,0,0,0.0329781,-0.421121,0,0,0,0,0.0206518,0.00673065,17920,0,0,0,0,20301
1200,-3.34297e-12,0,-1.61046e-06,-3.40794e-12,0,0,-1.13766e-13,0,0,-3.20272,0.0612206,0.161241,0.0334086,-0.420981,0.0204356,0.00666019,0,-0.00518847,-0.438779,244,-37,244,-37,380,-50,249,78,0.261799,-0.261799,0,-1.5,nan,0,0,0,0.0334086,-0.420981,0,0,0,0,0.0204356,0.00666019,17920,0,0,0,0,20301
1210,-3.34297e-12,0,-1.61046e-06,-3.40794e-12,0,-3.96878e-12,-1.13767e-13,0,0,-3.20272,0.0612206,0.161241,0.0338145,-0.420848,0.0202319,0.00659381,0,-0.00518847,-0.438779,244,-37,244,-37,380,-50,249,78,0.261799,-0.261799,0,-1.5,nan,0,0,0,0.0338145,-0.420848,0,0,0,0,0.0202319,0.00659381,17920,0,0,0,0,20301
1220,-3.34297e-12,0,-1.61046e-06,-3.40794e-12,0,0,-1.13767e-13,0,0,-3.20272,0.0612206,0.161241,0.0341565,-0.420737,0.0200604,0.00653792,0,-0.00518847,-0.438779,244,-37,244,-37,380,-50,249,78,0.261799,-0.261799,0,-1.5,nan,0,0,0,0.0341565,-0.420737,0,0,0,0,0.0200604,0.00653792,17920,0,0,0,0,20301
1230,-3.34297e-12,0,-1.61046e-06,-3.40794e-12,0,-3.96878e-12,-1.13768e-13,0,0,-3.2193,0.0528578,0.170546,0.0345747,-0.420601,0.0198504,0.00646948,0,-0.0246029,-0.447142,247,-37,247,-37,381,-50,249,78,0.261799,-0.261799,0,-1.5,nan,0,0,0,0.0345747,-0.420601,0,0,0,0,0.0198504,0.00646948,17536,0,0,0,0,20421
1240,-3.34297e-12,0,-1.61046e-06,-3.40794e-12,0,0,-1.13768e-13,0,0,-3.2193,0.0528578,0.170546,0.0349102,-0.420491,0.0196822,0.00641464,0,-0.0246029,-0.447142,247,-37,247,-37,381,-50,249,78,0.261799,-0.261799,0,-1.5,nan,0,0,0,0.0349102,-0.420491,0,0,0,0,0.0196822,0.00641464,17536,0,0,0,0,20421
1250,-3.34297e-12,0,-1.61046e-06,-3.40794e-12,0,-3.96878e-12,-1.13769e-13,0,0,-3.26135,0.0642746,0.193641,0.0353978,-0.420332,0.019437,0.00633474,0,-0.0739622,-0.435725,247,-37,247,-37,381,-50,249,78,0.261799,-0.261799,0,-1.5,nan,0,0,0,0.0353978,-0.420332,0,0,0,0,0.019437,0.00633474,17152,0,0,0,0,20456
1260,-3.34297e-12,0,-1.61046e-06,-3.40794e-12,0,0,-1.13769e-13,0,0,-3.26135,0.0642746,0.193641,0.0357072,-0.420232,0.0192819,0.0062842,0,-0.0739622,-0.435725,247,-37,247,-37,381,-50,249,78,0.261799,-0.261799,0,-1.5,nan,0,0,0,0.0357072,-0.420232,0,0,0,0,0.0192819,0.0062842,17152,0,0,0,0,20456
1270,-3.34297e-12,0,-1.61046e-06,-3.40794e-12,0,-3.96878e-12,-1.1377e-13,0,0,-3.2492,0.0634959,0.193119,0.0379591,-0.419498,0.018091,0.00589607,0,-0.0596895,-0.436504,247,-40,247,-40,381,-50,249,78,0.261799,-0.261799,0,-1.5,nan,0,0,0,-0.069781,-0.435266,0,0,0,0,-0.0814528,0.00996538,17152,-0.0953967,-0.0162725,-0.0995438,0.00406931,20490
1280,-3.34297e-12,0,-1.61046e-06,-3.40794e-12,0,0,-1.1377e-13,0,0,-3.25334,0.0637571,0.19335,0.040419,-0.418696,0.0167761,0.00546752,0,-0.0645466,-0.436243,247,-39,247,-39,381,-50,249,78,0.261799,-0.261799,0,-1.5,nan,0,0,0,-0.0749765,-0.43387,0,0,0,0,-0.0715108,0.00953683,17152,-0.102506,-0.0157679,-0.0882869,0.00406931,20634
1290,-3.34297e-12,0,-1.61046e-06,-3.40794e-12,0,-3.96878e-12,-1.13771e-13,0,0,-3.25334,0.0637571,0.19335,0.0407523,-0.418587,0.0166089,0.00541302,0,-0.0645466,-0.436243,247,-39,247,-39,381,-50,249,78,0.261799,-0.261799,0,-1.5,nan,0,0,0,-0.076409,-0.43368,0,0,0,0,-0.071678,0.00948233,17152,-0.102506,-0.0157679,-0.0882869,0.00406931,20634
1300,-3.34297e-12,0,-1.61046e-06,-3.40794e-12,0,0,-1.13772e-13,0,0,-3.25334,0.0637571,0.19335,0.041033,-0.418496,0.0164681,0.00536714,0,-0.0645466,-0.436243,247,-39,247,-39,381,-50,249,78,0.261799,-0.261799,0,-1.5,nan,0,0,0,-0.077629,-0.433519,0,0,0,0,-0.0718188,0.00943645,17152,-0.102506,-0.0157679,-0.0882869,0.00406931,20634
1310,-3.34297e-12,0,-1.61046e-06,-3.40794e-12,0,-3.96878e-12,-1.13772e-13,0,0,-3.25334,0.0637571,0.19335,0.0412626,-0.418421,0.0163531,0.00532966,0,-0.0645466,-0.436243,247,-39,247,-39,381,-50,249,78,0.261799,-0.261799,0,-1.5,nan,0,0,0,-0.0786354,-0.433387,0,0,0,0,-0.0719338,0.00939898,17152,-0.102506,-0.0157679,-0.0882869,0.00406931,20634
1320,-3.34297e-12,0,-1.61046e-06,-3.40794e-12,0,0,-1.13773e-13,0,0,-3.19372,0.0579215,0.190952,0.0434288,-0.417715,0.0151965,0.00495272,0,0.00534797,-0.442078,245,-51,245,-51,383,-50,250,75,0.261799,-0.261799,0,-1.5,nan,0,0,0,-0.0860542,-0.433703,0,0,0,0,-0.0694402,0.00643715,17388,-0.117465,-0.0161984,-0.0846367,0.00148443,20811
1330,-3.34297e-12,0,-1.61046e-06,-3.40794e-12,0,-3.96878e-12,-1.13773e-13,0,0,-3.19372,0.0579215,0.190952,0.044012,-0.417525,0.0149012,0.00485647,0,0.00534797,-0.442078,245,-51,245,-51,383,-50,250,75,0.261799,-0.261799,0,-1.5,nan,0,0,0,-0.0887718,-0.433455,0,0,0,0,-0.0697355,0.0063409,17388,-0.117465,-0.0161984,-0.0846367,0.00148443,20811
1340,-3.34297e-12,0,-1.61046e-06,-3.40794e-12,0,0,-1.13774e-13,0,0,-3.19372,0.0579215,0.190952,0.0457716,-0.416952,0.0139763,0.00455502,0,0.00534797,-0.442078,245,-51,245,-51,383,-50,250,75,0.261799,-0.261799,0,-1.5,nan,0,0,0,0.0128528,-0.44229,0,0,0,0,0.0589556,-0.00682857,17388,-0.0380463,-0.0240408,0.0449794,-0.0113836,20996
1350,-3.34297e-12,0,-1.61046e-06,-3.40794e-12,0,-3.96878e-12,-1.13774e-13,0,0,-3.19372,0.0579215,0.190952,0.0459387,-0.416897,0.0138926,0.00452776,0,0.00534797,-0.442078,245,-51,245,-51,383,-50,250,75,0.261799,-0.261799,0,-1.5,nan,0,0,0,0.0135597,-0.442372,0,0,0,0,0.058872,-0.00685584,17388,-0.0380463,-0.0240408,0.0449794,-0.0113836,20996
1360,-3.34297e-12,0,-1.61046e-06,-3.40794e-12,0,0,-1.13775e-13,0,0,-3.21814,0.0666098,0.200792,0.0479698,-0.416235,0.0127998,0.00417161,0,-0.0232439,-0.43339,244,-51,244,-51,380,-48,250,75,0.261799,-0.261799,0,-1.5,nan,0,0,0,-0.0136094,-0.435879,0,0,0,0,0.0145027,0.00173389,17136,-0.0618483,-0.0192584,0.0017029,-0.00243773,21135
1370,-3.34297e-12,0,-1.61046e-06,-3.40794e-12,0,-3.96878e-12,-1.13775e-13,0,0,-3.22346,0.058472,0.207935,0.0496662,-0.415682,0.011895,0.00387671,0,-0.0294704,-0.441528,247,-51,247,-51,381,-50,250,75,0.261799,-0.261799,0,-1.5,nan,0,0,0,-0.0174972,-0.441642,0,0,0,0,0.0162406,-0.00365988,16884,-0.0677805,-0.0248891,0.00434565,-0.00753659,21287
1380,-3.34297e-12,0,-1.61046e-06,-3.40794e-12,0,0,-1.13776e-13,0,0,-3.22314,0.0670928,0.20773,0.0510659,-0.415226,0.0111544,0.00363534,0,-0.0290995,-0.432907,245,-51,245,-51,379,-50,250,75,0.261799,-0.261799,0,-1.5,nan,0,0,0,-0.0289236,-0.432386,0,0,0,0,0.00180204,0.00326599,16884,-0.0788204,-0.0171138,-0.00935234,-0.00036935,21431
1390,-3.34297e-12,0,-1.61046e-06,-3.40794e-12,0,-3.96878e-12,-1.13776e-13,0,0,-3.22314,0.0670928,0.20773,0.0523882,-0.414795,0.0104543,0.00340719,0,-0.0290995,-0.432907,245,-51,245,-51,379,-50,250,75,0.261799,-0.261799,0,-1.5,nan,0,0,0,-0.0277732,-0.432126,0,0,0,0,0.00110537,0.00288343,16884,-0.0789835,-0.017265,-0.00934898,-0.000523763,21557
1400,-3.34297e-12,0,-1.61046e-06,-3.40794e-12,0,0,-1.13777e-13,0,0,-3.17697,0.0534833,0.181744,0.0540561,-0.414252,0.00954835,0.00311192,0,0.0249193,-0.446517,245,-51,245,-51,381,-50,250,75,0.261799,-0.261799,0,-1.5,nan,0,0,0,-0.0293361,-0.433897,0,0,0,0,-0.003873,0.00151661,17388,-0.0810568,-0.0193676,-0.0134214,-0.0015953,21729
1410,-3.34297e-12,0,-1.61046e-06,-3.40794e-12,0,-3.96878e-12,-1.13777e-13,0,0,-3.21565,0.056202,0.203568,0.055197,-0.41388,0.00894463,0.00291516,0,-0.0203223,-0.443798,247,-51,247,-51,381,-50,250,75,0.261799,-0.261799,0,-1.5,nan,0,0,0,-0.0132613,-0.44463,0,0,0,0,0.02327,-0.00693799,16884,-0.0702776,-0.0294988,0.0143254,-0.00985314,21857
1420,-3.34297e-12,0,-1.61046e-06,-3.40794e-12,0,0,-1.13778e-13,0,0,-3.20861,0.0624894,0.199446,0.056624,-0.413415,0.00816947,0.00266252,0,-0.0120797,-0.437511,245,-51,245,-51,381,-50,250,75,0.261799,-0.261799,0,-1.5,nan,0,0,0,-0.00791877,-0.438154,0,0,0,0,0.0242252,-0.00240753,17136,-0.0673365,-0.0238576,0.0160558,-0.00507005,22012
1430,-3.34297e-12,0,-1.61046e-06,-3.40794e-12,0,-3.96878e-12,-1.13779e-13,0,0,-3.22314,0.0670928,0.20773,0.0575669,-0.413107,0.00767455,0.00250122,0,-0.0290995,-0.432907,245,-51,245,-51,379,-50,250,75,0.261799,-0.261799,0,-1.5,nan,0,0,0,-0.0200239,-0.438051,0,0,0,0,0.000961697,-0.00189614,16884,-0.0768255,-0.024442,-0.00671285,-0.00439737,22156
1440,-3.34297e-12,0,-1.61046e-06,-3.40794e-12,0,0,-1.13779e-13,0,0,-3.22314,0.0670928,0.20773,0.0577345,-0.413053,0.00759041,0.0024738,0,-0.0290995,-0.432907,245,-51,245,-51,379,-50,250,75,0.261799,-0.261799,0,-1.5,nan,0,0,0,-0.020004,-0.438093,0,0,0,0,0.000877558,-0.00192356,16884,-0.0768255,-0.024442,-0.00671285,-0.00439737,22156
1450,-3.34297e-12,0,-1.61046e-06,-3.40794e-12,0,-3.96878e-12,-1.13787e-13,0,0,-3.20017,0.0730214,0.194594,0.0588185,-0.412699,0.00700847,0.00228414,0,-0.00219631,-0.426979,242,-51,242,-51,379,-50,250,75,0.261799,-0.261799,0,-1.5,nan,0,0,0,0.000430217,-0.433869,0,0,0,0,0.0259747,-9.45451e-05,17262,-0.0613091,-0.0208034,0.0189662,-0.00237869,22303
1460,-3.34297e-12,0,-1.61046e-06,-3.40794e-12,0,0,-1.13788e-13,0,0,-3.20853,0.0539036,0.19942,0.0599313,-0.412337,0.00640488,0.00208742,0,-0.0119786,-0.446096,247,-51,247,-51,383,-50,250,75,0.261799,-0.261799,0,-1.5,nan,0,0,0,-0.0105072,-0.436607,0,0,0,0,0.00798099,0.00104627,17136,-0.0707112,-0.0240905,0.00157612,-0.00104115,22503
1470,-3.34297e-12,0,-1.61046e-06,-3.40794e-12,0,-3.96878e-12,-1.13788e-13,0,0,-3.22314,0.0670928,0.20773,0.0606962,-0.412087,0.00599973,0.00195538,0,-0.0290995,-0.432907,245,-51,245,-51,379,-50,250,75,0.261799,-0.261799,0,-1.5,nan,0,0,0,-0.018059,-0.431905,0,0,0,0,0.00109036,0.00474952,16884,-0.0781318,-0.0201728,-0.00490937,0.00279414,22628
1480,-3.34297e-12,0,-1.61046e-06,-3.40794e-12,0,0,-1.13789e-13,0,0,-3.20861,0.0624894,0.199446,0.061609,-0.41179,0.00551758,0.00179824,0,-0.0120797,-0.437511,245,-51,245,-51,381,-50,250,75,0.261799,-0.261799,0,-1.5,nan,0,0,0,-0.0108534,-0.435596,0,0,0,0,0.00454251,0.0017937,17136,-0.0723327,-0.0238052,-0.000975071,-4.54683e-06,22776
1490,-3.34297e-12,0,-1.61046e-06,-3.40794e-12,0,-3.96878e-12,-1.13789e-13,0,0,-3.22314,0.0670928,0.20773,0.062292,-0.411567,0.00515482,0.00168002,0,-0.0290995,-0.432907,245,-51,245,-51,379,-50,250,75,0.261799,-0.261799,0,-1.5,nan,0,0,0,-0.0101514,-0.433995,0,0,0,0,0.00679215,-0.00105321,16884,-0.0726595,-0.0220665,0.00163734,-0.00273323,22923
1500,-3.34297e-12,0,-1.61046e-06,-3.40794e-12,0,0,-1.1379e-13,0,0,-3.21512,0.0648021,0.203243,0.0630973,-0.411305,0.00472284,0.00153923,0,-0.0197024,-0.435198,245,-51,245,-51,379,-50,250,75,0.261799,-0.261799,0,-1.5,nan,0,0,0,-0.0193576,-0.434298,0,0,0,0,0.00201252,0.00201551,17010,-0.0820402,-0.0230656,-0.00271032,0.000476278,23057
1510,-3.34297e-12,0,-1.61046e-06,-3.40794e-12,0,-3.96878e-12,-1.1379e-13,0,0,-3.17087,0.0638549,0.177885,0.0637258,-0.4111,0.00439012,0.00143079,0,0.0320413,-0.436145,242,-51,242,-51,383,-50,250,75,0.261799,-0.261799,0,-1.5,nan,0,0,0,-0.00877211,-0.436236,0,0,0,0,0.00593214,-0.00267891,17766,-0.0726983,-0.0246018,0.00154201,-0.00410971,23222
1520,-3.34297e-12,0,-1.61046e-06,-3.40794e-12,0,0,-1.13791e-13,0,0,-3.20861,0.0624894,0.199446,0.0642282,-0.410936,0.00412612,0.00134475,0,-0.0120797,-0.437511,245,-51,245,-51,381,-50,250,75,0.261799,-0.261799,0,-1.5,nan,0,0,0,-0.0109665,-0.435978,0,0,0,0,0.00341709,0.00035148,17136,-0.0751181,-0.0249341,-0.000709029,-0.000993271,23365
1530,-3.34297e-12,0,-1.61046e-06,-3.40794e-12,0,-3.96878e-12,-1.13791e-13,0,0,-3.22314,0.0670928,0.20773,0.0647272,-0.410774,0.00386428,0.00125941,0,-0.0290995,-0.432907,245,-51,245,-51,379,-50,250,75,0.261799,-0.261799,0,-1.5,nan,0,0,0,-0.024417,-0.432541,0,0,0,0,-0.00916814,0.00486384,16884,-0.0876585,-0.0221778,-0.0130324,0.00360443,23487
1540,-3.34297e-12,0,-1.61046e-06,-3.40794e-12,0,0,-1.13792e-13,0,0,-3.19372,0.0579215,0.190952,0.0652659,-0.410598,0.00357572,0.00116537,0,0.00534797,-0.442078,245,-51,245,-51,383,-50,250,75,0.261799,-0.261799,0,-1.5,nan,0,0,0,-0.0119264,-0.435898,0,0,0,0,0.00198178,0.000308368,17388,-0.0769532,-0.0251716,-0.00159393,-0.000856999,23632
1550,-3.34297e-12,0,-1.61046e-06,-3.40794e-12,0,-3.96878e-12,-1.13792e-13,0,0,-3.22314,0.0670928,0.20773,0.0656817,-0.410463,0.00335722,0.00109416,0,-0.0290995,-0.432907,245,-51,245,-51,379,-50,250,75,0.261799,-0.261799,0,-1.5,nan,0,0,0,-0.0270204,-0.437754,0,0,0,0,-0.0096752,-0.00336783,16884,-0.0912555,-0.0267959,-0.0130324,-0.00446199,23763
1560,-3.34299e-12,0,0,-3.40794e-12,0,0,-1.13793e-13,0,0,-3.18032,0.0518592,0.177048,0.0661751,-0.410302,0.00309136,0.00100751,0,0.021009,-0.448141,247,-51,247,-51,379,-50,250,78,0.261799,-0.261799,0,-1.5,nan,0,0,0,-0.00351664,-0.440274,0,0,0,0,0.0114014,-0.00522215,17673,-0.071013,-0.0289819,0.00831002,-0.00622966,23913
1570,-3.34297e-12,0,-1.61046e-06,-3.40794e-12,0,-3.96878e-12,-1.13794e-13,0,0,-3.18032,0.0518592,0.177048,0.0662818,-0.410267,0.00303744,0.000989938,0,0.021009,-0.448141,247,-51,247,-51,379,-50,250,78,0.261799,-0.261799,0,-1.5,nan,0,0,0,-0.00311909,-0.440457,0,0,0,0,0.0113475,-0.00523972,17673,-0.071013,-0.0289819,0.00831002,-0.00622966,23913
1580,-3.34297e-12,0,-1.61046e-06,-3.40794e-12,0,0,-1.13794e-13,0,0,-3.18032,0.0518592,0.177048,0.0663331,-0.41025,0.0030117,0.000981547,0,0.021009,-0.448141,247,-51,247,-51,379,-50,250,78,0.261799,-0.261799,0,-1.5,nan,0,0,0,-0.00292644,-0.440547,0,0,0,0,0.0113217,-0.00524811,17673,-0.071013,-0.0289819,0.00831002,-0.00622966,23913
1590,-3.34297e-12,0,-1.61046e-06,-3.40794e-12,0,-3.96878e-12,-1.13795e-13,0,0,-3.18032,0.0518592,0.177048,0.066387,-0.410233,0.00298468,0.00097274,0,0.021009,-0.448141,247,-51,247,-51,379,-50,250,78,0.261799,-0.261799,0,-1.5,nan,0,0,0,-0.00272294,-0.440641,0,0,0,0,0.0112947,-0.00525692,17673,-0.071013,-0.0289819,0.00831002,-0.00622966,23913
1600,-3.34297e-12,0,-1.61046e-06,-3.40794e-12,0,0,-1.13795e-13,0,0,-3.15677,0.0485668,0.166291,0.0667663,-0.410109,0.00278492,0.000907637,0,0.0484834,-0.451433,244,-51,244,-51,383,-48,250,75,0.261799,-0.261799,0,-1.5,nan,0,0,0,0.018295,-0.44839,0,0,0,0,0.0199281,-0.0114122,17640,-0.05046,-0.0368515,0.0171432,-0.0123199,24122
1610,-3.34297e-12,0,-1.61046e-06,-3.40794e-12,0,-3.96878e-12,-1.13796e-13,0,0,-3.22346,0.058472,0.207935,0.0671059,-0.409998,0.00260694,0.000849633,0,-0.0294704,-0.441528,247,-51,247,-51,381,-50,250,75,0.261799,-0.261799,0,-1.5,nan,0,0,0,-0.00643137,-0.442355,0,0,0,0,0.005193,-0.00575423,16884,-0.0738346,-0.0315967,0.00258605,-0.00660386,24253
1620,-3.34297e-12,0,-1.61046e-06,-3.40794e-12,0,0,-1.13796e-13,0,0,-3.22314,0.0670928,0.20773,0.0674196,-0.409896,0.00244082,0.00079549,0,-0.0290995,-0.432907,245,-51,245,-51,379,-50,250,75,0.261799,-0.261799,0,-1.5,nan,0,0,0,-0.0184549,-0.442752,0,0,0,0,-0.000680543,-0.00563144,16884,-0.085475,-0.0320332,-0.00312136,-0.00642693,24377
1630,-3.34297e-12,0,-1.61046e-06,-3.40794e-12,0,-3.96878e-12,-1.13797e-13,0,0,-3.19372,0.0579215,0.190952,0.0677134,-0.4098,0.00228527,0.000744798,0,0.00534797,-0.442078,245,-51,245,-51,383,-50,250,75,0.261799,-0.261799,0,-1.5,nan,0,0,0,0.00706552,-0.44316,0,0,0,0,0.014748,-0.00529552,17388,-0.0622432,-0.0325866,0.0124628,-0.00604031,24504
1640,-3.34297e-12,0,-1.61046e-06,-3.40794e-12,0,0,-1.13797e-13,0,0,-3.20083,0.0602209,0.195095,0.0679885,-0.409711,0.00213965,0.000697335,0,-0.00297642,-0.439779,245,-51,245,-51,381,-50,250,75,0.261799,-0.261799,0,-1.5,nan,0,0,0,-0.00232551,-0.443723,0,0,0,0,0.00925045,-0.00528838,17136,-0.0712242,-0.0332459,0.00711081,-0.00598572,24633
1650,-3.34297e-12,0,-1.61046e-06,-3.40794e-12,0,-3.96878e-12,-1.13798e-13,0,0,-3.22314,0.0670928,0.20773,0.0682441,-0.409627,0.00200436,0.000653245,0,-0.0290995,-0.432907,245,-51,245,-51,379,-50,250,75,0.261799,-0.261799,0,-1.5,nan,0,0,0,-0.00101596,-0.440866,0,0,0,0,0.00872186,-0.00347177,16884,-0.0701132,-0.0307149,0.0067175,-0.00412502,24760
1660,-3.34297e-12,0,-1.61046e-06,-3.40794e-12,0,0,-1.13798e-13,0,0,-3.1918,0.0625481,0.18311,0.0686334,-0.409501,0.00178934,0.000583166,0,0.00759101,-0.437452,245,-51,245,-51,381,-50,250,78,0.261799,-0.261799,0,-1.5,nan,0,0,0,-7.78688e-05,-0.440824,0,0,0,0,0.00665851,-0.00259325,17544,-0.0697289,-0.03066,0.00486917,-0.00317642,24885
1670,-3.34297e-12,0,-1.61046e-06,-3.40794e-12,0,-3.96878e-12,-1.13799e-13,0,0,-3.22314,0.0670928,0.20773,0.0688674,-0.409424,0.00166462,0.00054252,0,-0.0290995,-0.432907,245,-51,245,-51,379,-50,250,75,0.261799,-0.261799,0,-1.5,nan,0,0,0,-0.02523,-0.437476,0,0,0,0,-0.00795577,-0.000317319,16884,-0.0927505,-0.0279317,-0.00962039,-0.000859839,25115
1680,-3.34297e-12,0,-1.61046e-06,-3.40794e-12,0,0,-1.13799e-13,0,0,-3.19563,0.059713,0.187981,0.0690672,-0.409359,0.00155977,0.000508347,0,0.00311208,-0.440287,244,-51,244,-51,383,-48,250,75,0.261799,-0.261799,0,-1.5,nan,0,0,0,0.00340133,-0.436089,0,0,0,0,0.0083018,0.00301424,17514,-0.0664277,-0.0270126,0.00674204,0.0025059,25248
1690,-3.34297e-12,0,-1.61046e-06,-3.40794e-12,0,-3.96878e-12,-1.138e-13,0,0,-3.19563,0.059713,0.187981,0.0692616,-0.409296,0.00145644,0.000474672,0,0.00311208,-0.440287,244,-51,244,-51,383,-48,250,75,0.261799,-0.261799,0,-1.5,nan,0,0,0,0.00448539,-0.439405,0,0,0,0,0.0102566,0.000633609,17514,-0.0659467,-0.0301301,0.00880012,0.000158938,25375
1700,-3.34297e-12,0,-1.61046e-06,-3.40794e-12,0,0,-1.13801e-13,0,0,-3.19563,0.059713,0.187981,0.0692862,-0.409288,0.0014441,0.000470648,0,0.00311208,-0.440287,244,-51,244,-51,383,-48,250,75,0.261799,-0.261799,0,-1.5,nan,0,0,0,0.00465964,-0.439394,0,0,0,0,0.0102442,0.000629586,17514,-0.0659467,-0.0301301,0.00880012,0.000158938,25375
1710,-3.34297e-12,0,-1.61046e-06,-3.40794e-12,0,-3.96878e-12,-1.13801e-13,0,0,-3.19563,0.059713,0.187981,0.0693149,-0.409278,0.0014297,0.000465956,0,0.00311208,-0.440287,244,-51,244,-51,383,-48,250,75,0.261799,-0.261799,0,-1.5,nan,0,0,0,0.00486435,-0.439381,0,0,0,0,0.0102298,0.000624894,17514,-0.0659467,-0.0301301,0.00880012,0.000158938,25375
1720,-3.34297e-12,0,-1.61046e-06,-3.40794e-12,0,0,-1.13802e-13,0,0,-3.19563,0.059713,0.187981,0.0693712,-0.40926,0.00140121,0.000456669,0,0.00311208,-0.440287,244,-51,244,-51,383,-48,250,75,0.261799,-0.261799,0,-1.5,nan,0,0,0,0.00527262,-0.439357,0,0,0,0,0.0102013,0.000615607,17514,-0.0659467,-0.0301301,0.00880012,0.000158938,25375
1730,-3.34297e-12,0,-1.61046e-06,-3.40794e-12,0,-3.96878e-12,-1.13802e-13,0,0,-3.19563,0.059713,0.187981,0.0693949,-0.409252,0.00138933,0.000452799,0,0.00311208,-0.440287,244,-51,244,-51,383,-48,250,75,0.261799,-0.261799,0,-1.5,nan,0,0,0,0.00544595,-0.439346,0,0,0,0,0.0101895,0.000611736,17514,-0.0659467,-0.0301301,0.00880012,0.000158938,25375
1740,-3.34297e-12,0,-1.61046e-06,-3.40794e-12,0,0,-1.13803e-13,0,0,-3.19563,0.059713,0.187981,0.0694184,-0.409245,0.00137755,0.000448961,0,0.00311208,-0.440287,244,-51,244,-51,383,-48,250,75,0.261799,-0.261799,0,-1.5,nan,0,0,0,0.00561908,-0.439336,0,0,0,0,0.0101777,0.000607898,17514,-0.0659467,-0.0301301,0.00880012,0.000158938,25375
1750,-3.34297e-12,0,-1.61046e-06,-3.40794e-12,0,-3.96878e-12,-1.13803e-13,0,0,-3.19563,0.059713,0.187981,0.0694484,-0.409235,0.00136245,0.000444039,0,0.00311208,-0.440287,244,-51,244,-51,383,-48,250,75,0.261799,-0.261799,0,-1.5,nan,0,0,0,0.00584278,-0.439323,0,0,0,0,0.0101626,0.000602976,17514,-0.0659467,-0.0301301,0.00880012,0.000158938,25375
1760,-3.34297e-12,0,-1.61046e-06,-3.40794e-12,0,0,-1.13804e-13,0,0,-3.19563,0.059713,0.187981,0.0694741,-0.409227,0.00134955,0.000439833,0,0.00311208,-0.440287,244,-51,244,-51,383,-48,250,75,0.261799,-0.261799,0,-1.5,nan,0,0,0,0.00603572,-0.439311,0,0,0,0,0.0101497,0.00059877,17514,-0.0659467,-0.0301301,0.00880012,0.000158938,25375
1770,-3.34297e-12,0,-1.61046e-06,-3.40794e-12,0,-3.96878e-12,-1.13804e-13,0,0,-3.19563,0.059713,0.187981,0.0694983,-0.409219,0.00133744,0.000435886,0,0.00311208,-0.440287,244,-51,244,-51,383,-48,250,75,0.261799,-0.261799,0,-1.5,nan,0,0,0,0.00621831,-0.439301,0,0,0,0,0.0101376,0.000594824,17514,-0.0659467,-0.0301301,0.00880012,0.000158938,25375
1780,-3.34297e-12,0,-1.61046e-06,-3.40794e-12,0,0,-1.13805e-13,0,0,-3.19563,0.059713,0.187981,0.0695196,-0.409212,0.00132677,0.000432409,0,0.00311208,-0.440287,244,-51,244,-51,383,-48,250,75,0.261799,-0.261799,0,-1.5,nan,0,0,0,0.00638042,-0.439291,0,0,0,0,0.0101269,0.000591347,17514,-0.0659467,-0.0301301,0.00880012,0.000158938,25375
1790,-3.34297e-12,0,-1.61046e-06,-3.40794e-12,0,-3.96878e-12,-1.13805e-13,0,0,-3.19563,0.059713,0.187981,0.0695394,-0.409205,0.00131684,0.000429175,0,0.00311208,-0.440287,244,-51,244,-51,383,-48,250,75,0.261799,-0.261799,0,-1.5,nan,0,0,0,0.00653226,-0.439282,0,0,0,0,0.010117,0.000588112,17514,-0.0659467,-0.0301301,0.00880012,0.000158938,25375
1800,-3.34297e-12,0,-1.61046e-06,-3.40794e-12,0,0,-1.13806e-13,0,0,-3.19563,0.059713,0.187981,0.0695603,-0.409198,0.00130634,0.000425751,0,0.00311208,-0.440287,244,-51,244,-51,383,-48,250,75,0.261799,-0.261799,0,-1.5,nan,0,0,0,0.00669404,-0.439273,0,0,0,0,0.0101065,0.000584688,17514,-0.0659467,-0.0301301,0.00880012,0.000158938,25375
1810,-3.34297e-12,0,-1.61046e-06,-3.40794e-12,0,-3.96878e-12,-1.13807e-13,0,0,-3.19563,0.059713,0.187981,0.0695889,-0.409189,0.00129201,0.000421082,0,0.00311208,-0.440287,244,-51,244,-51,383,-48,250,75,0.261799,-0.261799,0,-1.5,nan,0,0,0,0.00691618,-0.43926,0,0,0,0,0.0100921,0.000580019,17514,-0.0659467,-0.0301301,0.00880012,0.000158938,25375
1820,-3.34297e-12,0,-1.61046e-06,-3.40794e-12,0,0,-1.13807e-13,0,0,-3.19563,0.059713,0.187981,0.0696133,-0.409181,0.00127977,0.000417093,0,0.00311208,-0.440287,244,-51,244,-51,383,-48,250,75,0.261799,-0.261799,0,-1.5,nan,0,0,0,0.00710781,-0.439249,0,0,0,0,0.0100799,0.000576031,17514,-0.0659467,-0.0301301,0.00880012,0.000158938,25375
1830,-3.34297e-12,0,-1.61046e-06,-3.40794e-12,0,-3.96878e-12,-1.13808e-13,0,0,-3.19563,0.059713,0.187981,0.0696587,-0.409166,0.00125683,0.000409614,0,0.00311208,-0.440287,244,-51,244,-51,383,-48,250,75,0.261799,-0.261799,0,-1.5,nan,0,0,0,0.00747006,-0.439229,0,0,0,0,0.0100569,0.000568552,17514,-0.0659467,-0.0301301,0.00880012,0.000158938,25375
1840,-3.34297e-12,0,-1.61046e-06,-3.40794e-12,0,0,-1.13808e-13,0,0,-3.19563,0.059713,0.187981,0.0696849,-0.409158,0.00124367,0.000405326,0,0.00311208,-0.440287,244,-51,244,-51,383,-48,250,75,0.261799,-0.261799,0,-1.5,nan,0,0,0,0.0076811,-0.439217,0,0,0,0,0.0100438,0.000564264,17514,-0.0659467,-0.0301301,0.00880012,0.000158938,25375
1850,-3.34297e-12,0,-1.61046e-06,-3.40794e-12,0,-3.96878e-12,-1.13809e-13,0,0,-3.19372,0.0579215,0.190952,0.0698405,-0.409107,0.00116153,0.000378558,0,0.00534797,-0.442078,245,-51,245,-51,383,-50,250,75,0.261799,-0.261799,0,-1.5,nan,0,0,0,0.00529217,-0.440949,0,0,0,0,0.00740678,-0.000855372,17388,-0.0652978,-0.0316942,0.00624525,-0.00123393,25822
1860,-3.34297e-12,0,-1.61046e-06,-3.40794e-12,0,0,-1.13809e-13,0,0,-3.20861,0.0624894,0.199446,0.0699819,-0.409061,0.00108722,0.000354337,0,-0.0120797,-0.437511,245,-51,245,-51,381,-50,250,75,0.261799,-0.261799,0,-1.5,nan,0,0,0,0.00801442,-0.43767,0,0,0,0,0.0179048,0.00142935,17136,-0.0639352,-0.0287352,0.0168175,0.00107501,25955
1870,-3.34297e-12,0,-1.61046e-06,-3.40794e-12,0,-3.96878e-12,-1.1381e-13,0,0,-3.20853,0.0539036,0.19942,0.0701837,-0.408995,0.000975672,0.000317983,0,-0.0119786,-0.446096,247,-51,247,-51,383,-50,250,75,0.261799,-0.261799,0,-1.5,nan,0,0,0,-0.0116167,-0.443924,0,0,0,0,-0.00246084,-0.00399071,17136,-0.0810924,-0.0340406,-0.00343651,-0.00430869,26108
1880,-3.34297e-12,0,-1.61046e-06,-3.40794e-12,0,0,-1.1381e-13,0,0,-3.22314,0.0670928,0.20773,0.0702968,-0.408958,0.000915925,0.000298511,0,-0.0290995,-0.432907,245,-51,245,-51,379,-50,250,75,0.261799,-0.261799,0,-1.5,nan,0,0,0,-0.0155061,-0.439734,0,0,0,0,-0.0108762,7.39206e-05,16884,-0.0843525,-0.0307481,-0.0117921,-0.00022459,26284
1890,-3.34297e-12,0,-1.61046e-06,-3.40794e-12,0,-3.96878e-12,-1.13811e-13,0,0,-3.20861,0.0624894,0.199446,0.0704055,-0.408923,0.000858469,0.000279785,0,-0.0120797,-0.437511,245,-51,245,-51,381,-50,250,75,0.261799,-0.261799,0,-1.5,nan,0,0,0,-0.0143108,-0.437366,0,0,0,0,-0.00627692,8.36657e-05,17136,-0.0838172,-0.0284185,-0.00713538,-0.000196119,26409
1900,-3.34297e-12,0,-1.61046e-06,-3.40794e-12,0,0,-1.13811e-13,0,0,-3.20861,0.0624894,0.199446,0.0705092,-0.408889,0.00080395,0.000262016,0,-0.0120797,-0.437511,245,-51,245,-51,381,-50,250,75,0.261799,-0.261799,0,-1.5,nan,0,0,0,-0.0158783,-0.437567,0,0,0,0,-0.0131648,-0.000206304,17136,-0.0847392,-0.0286223,-0.0139687,-0.000468321,26537
1910,-3.34297e-12,0,-1.61046e-06,-3.40794e-12,0,-3.96878e-12,-1.13812e-13,0,0,-3.16302,0.0490009,0.173784,0.0705991,-0.40886,0.000756801,0.00024665,0,0.0411966,-0.450999,245,-51,245,-51,383,-50,250,75,0.261799,-0.261799,0,-1.5,nan,0,0,0,-0.01752,-0.437511,0,0,0,0,-0.0138346,0.00049122,17388,-0.0865285,-0.0286781,-0.0145914,0.00024457,26663
1920,-3.34297e-12,0,-1.61046e-06,-3.40794e-12,0,0,-1.13812e-13,0,0,-3.20853,0.0539036,0.19942,0.0707109,-0.408823,0.000696491,0.000226995,0,-0.0119786,-0.446096,247,-51,247,-51,383,-50,250,75,0.261799,-0.261799,0,-1.5,nan,0,0,0,-0.0120808,-0.445841,0,0,0,0,-0.000205809,-0.00369676,17136,-0.0826474,-0.0363901,-0.0009023,-0.00392376,26816
1930,-3.34297e-12,0,-1.61046e-06,-3.40794e-12,0,-3.96878e-12,-1.13813e-13,0,0,-3.20861,0.0624894,0.199446,0.0708008,-0.408794,0.000648618,0.000211392,0,-0.0120797,-0.437511,245,-51,245,-51,381,-50,250,75,0.261799,-0.261799,0,-1.5,nan,0,0,0,-0.0155363,-0.437315,0,0,0,0,-0.0105938,0.00189814,17136,-0.0847856,-0.028754,-0.0112424,0.00168675,26949
1940,-3.34297e-12,0,-1.61046e-06,-3.40794e-12,0,0,-1.13814e-13,0,0,-3.21095,0.0645033,0.202804,0.0708867,-0.408766,0.000602765,0.000196448,0,-0.0148211,-0.435497,245,-52,245,-52,380,-50,250,75,0.261799,-0.261799,0,-1.5,nan,0,0,0,-0.0170468,-0.436648,0,0,0,0,-0.0106396,0.00172729,17145,-0.0863371,-0.0280988,-0.0112424,0.00153084,27077
1950,-3.34297e-12,0,-1.61046e-06,-3.40794e-12,0,-3.96878e-12,-1.13814e-13,0,0,-3.19372,0.0579215,0.190952,0.0709593,-0.408743,0.000564354,0.000183929,0,0.00534797,-0.442078,245,-51,245,-51,383,-50,250,75,0.261799,-0.261799,0,-1.5,nan,0,0,0,-0.0122043,-0.436676,0,0,0,0,-0.000364313,0.0019252,17388,-0.0830447,-0.0281568,-0.000928667,0.00174127,27222
1960,-3.34297e-12,0,-1.61046e-06,-3.40794e-12,0,0,-1.13815e-13,0,0,-3.20853,0.0539036,0.19942,0.0710484,-0.408714,0.000516501,0.000168334,0,-0.0119786,-0.446096,247,-51,247,-51,383,-50,250,75,0.261799,-0.261799,0,-1.5,nan,0,0,0,-0.0120898,-0.442996,0,0,0,0,-0.000266184,-0.00342094,17136,-0.0830153,-0.033719,-0.000782685,-0.00358927,27354
