timestamp,A_x,A_y,A_z,P,Q,R,Phi,Theta,Psi,poseX,poseY,poseZ,state_X,state_Y,state_Z,state_VzB,state_Bx,state_By,state_Bz,p1_x,p1_y,p2_x,p2_y,p3_x,p3_y,p4_x,p4_y,roll,pitch,yaw,alt,targetHeading,highLevelState,lowLevelState,gateNumber,filtered_x,filtered_y,x_OT,y_OT,vx_OT,vy_OT,filtered_vx,filtered_vygateArearansac_corr_x,ransac_corr_y,ransac_corr_vx,ransac_corr_vy,detectionTimeStamppTermX,dTermX,pTermY,dTermY,vxcmd,vycmd
8228,0,0,0,0,0,0,0,0,0,0,0,0,0,0,0,0,0,0,0,0,0,0,0,0,0,0,0,0.4,-0.08,0,-1.5,-nan,0,0,0,0,0,0,0,0,0,0,0,1.9603e-19,0,0,0,0,0,0,0,0,0,0.2,1
9212,-3.11491e-12,1.42236e-38,-1.52711e-06,-3.18057e-12,1.42224e-38,0,-1.06589e-13,0,0,0,0,0,0,0,0,0,0,0,0,0,0,0,0,0,0,0,0,0.4,-0.08,0,-1.5,-nan,0,0,0,0,0,0,0,0,0,0,0,1.9603e-19,0,0,0,0,0,0,0,0,0,0.2,1
9253,-3.11491e-12,1.42236e-38,-1.52711e-06,-3.18057e-12,1.42224e-38,0,-1.0659e-13,0,0,0,0,0,0,0,0,0,0,0,0,0,0,0,0,0,0,0,0,0.4,-0.08,0,-1.5,-nan,0,0,0,0,0,0,0,0,0,0,0,1.9603e-19,0,0,0,0,0,0,0,0,0,0.2,1
9490,-3.11491e-12,1.42236e-38,-1.52711e-06,-3.18057e-12,1.42224e-38,0,-1.0659e-13,0,0,0,0,0,0,0,0,0,0,0,0,0,0,0,0,0,0,0,0,0.4,-0.08,0,-1.5,-nan,0,0,0,0,0,0,0,0,0,0,0,1.9603e-19,0,0,0,0,0,0,0,0,0,0.2,1
9547,-3.11491e-12,1.42236e-38,-1.52711e-06,-3.18057e-12,1.42224e-38,0,-1.0659e-13,0,0,0,0,0,0,0,0,0,0,0,0,0,0,0,0,0,0,0,0,0.4,-0.08,0,-1.5,-nan,0,0,0,0,0,0,0,0,0,0,0,1.9603e-19,0,0,0,0,0,0,0,0,0,0.2,1
9696,-3.11491e-12,1.42236e-38,-1.52711e-06,-3.18057e-12,1.42224e-38,0,-1.0659e-13,0,0,0,0,0,0,0,0,0,0,0,0,0,0,0,0,0,0,0,0,0.4,-0.08,0,-1.5,-nan,0,0,0,0,0,0,0,0,0,0,0,1.9603e-19,0,0,0,0,0,0,0,0,0,0.2,1
9773,-3.11491e-12,1.42236e-38,-1.52711e-06,-3.18057e-12,1.42224e-38,0,-1.06591e-13,0,0,0,0,0,0,0,0,0,0,0,0,0,0,0,0,0,0,0,0,0.4,-0.08,0,-1.5,-nan,0,0,0,0,0,0,0,0,0,0,0,1.9603e-19,0,0,0,0,0,0,0,0,0,0.2,1
9880,-3.11491e-12,1.42236e-38,-1.52711e-06,-3.18057e-12,1.42224e-38,0,-1.06591e-13,0,0,0,0,0,0,0,0,0,0,0,0,0,0,0,0,0,0,0,0,0.4,-0.08,0,-1.5,-nan,0,0,0,0,0,0,0,0,0,0,0,1.9603e-19,0,0,0,0,0,0,0,0,0,0.2,1
9938,-3.11491e-12,1.42236e-38,-1.52711e-06,-3.18057e-12,1.42224e-38,0,-1.06591e-13,0,0,0,0,0,0,0,0,0,0,0,0,0,0,0,0,0,0,0,0,0.4,-0.08,0,-1.5,-nan,0,0,0,0,0,0,0,0,0,0,0,1.9603e-19,0,0,0,0,0,0,0,0,0,0.2,1
9982,-3.11491e-12,1.42236e-38,-1.52711e-06,-3.18057e-12,1.42224e-38,0,-1.06591e-13,0,0,0,0,0,0,0,0,0,0,0,0,0,0,0,0,0,0,0,0,0.4,-0.08,0,-1.5,-nan,0,0,0,0,0,0,0,0,0,0,0,1.9603e-19,0,0,0,0,0,0,0,0,0,0.2,1
10090,-3.11491e-12,1.42236e-38,-1.52711e-06,-3.18057e-12,1.42224e-38,0,-1.06592e-13,0,0,0,0,0,0,0,0,0,0,0,0,0,0,0,0,0,0,0,0,0.4,-0.08,0,-1.5,-nan,0,0,0,0,0,0,0,0,0,0,0,1.9603e-19,0,0,0,0,0,0,0,0,0,0.2,1
10200,-3.11491e-12,1.42236e-38,-1.52711e-06,-3.18057e-12,1.42224e-38,0,-1.06592e-13,0,0,0,0,0,0,0,0,0,0,0,0,0,0,0,0,0,0,0,0,0.4,-0.08,0,-1.5,-nan,0,0,0,0,0,0,0,0,0,0,0,1.9603e-19,0,0,0,0,0,0,0,0,0,0.2,1
10254,-3.11491e-12,1.42236e-38,-1.52711e-06,-3.18057e-12,1.42224e-38,0,-1.06592e-13,0,0,0,0,0,0,0,0,0,0,0,0,0,0,0,0,0,0,0,0,0.4,-0.08,0,-1.5,-nan,0,0,0,0,0,0,0,0,0,0,0,1.9603e-19,0,0,0,0,0,0,0,0,0,0.2,1
10272,-3.11491e-12,1.42236e-38,-1.52711e-06,-3.18057e-12,1.42224e-38,0,-1.06593e-13,0,0,0,0,0,0,0,0,0,0,0,0,0,0,0,0,0,0,0,0,0.4,-0.08,0,-1.5,-nan,0,0,0,0,0,0,0,0,0,0,0,1.9603e-19,0,0,0,0,0,0,0,0,0,0.2,1
10293,-3.11491e-12,1.42236e-38,-1.52711e-06,-3.18057e-12,1.42224e-38,0,-1.06593e-13,0,0,0,0,0,0,0,0,0,0,0,0,0,0,0,0,0,0,0,0,0.4,-0.08,0,-1.5,-nan,0,0,0,0,0,0,0,0,0,0,0,1.9603e-19,0,0,0,0,0,0,0,0,0,0.2,1
10400,-3.11491e-12,1.42236e-38,-1.52711e-06,-3.18057e-12,1.42224e-38,0,-1.06593e-13,0,0,0,0,0,0,0,0,0,0,0,0,0,0,0,0,0,0,0,0,0.4,-0.08,0,-1.5,-nan,0,0,0,0,0,0,0,0,0,0,0,1.9603e-19,0,0,0,0,0,0,0,0,0,0.2,1
10434,-3.11491e-12,1.42236e-38,-1.52711e-06,-3.18057e-12,1.42224e-38,0,-1.06593e-13,0,0,0,0,0,0,0,0,0,0,0,0,0,0,0,0,0,0,0,0,0.4,-0.08,0,-1.5,-nan,0,0,0,0,0,0,0,0,0,0,0,1.9603e-19,0,0,0,0,0,0,0,0,0,0.2,1
10451,-3.11491e-12,1.42236e-38,-1.52711e-06,-3.18057e-12,1.42224e-38,0,-1.06594e-13,0,0,0,0,0,0,0,0,0,0,0,0,0,0,0,0,0,0,0,0,0.4,-0.08,0,-1.5,-nan,0,0,0,0,0,0,0,0,0,0,0,1.9603e-19,0,0,0,0,0,0,0,0,0,0.2,1
10469,-3.11491e-12,1.42236e-38,-1.52711e-06,-3.18057e-12,1.42224e-38,0,-1.06594e-13,0,0,0,0,0,0,0,0,0,0,0,0,0,0,0,0,0,0,0,0,0.4,-0.08,0,-1.5,-nan,0,0,0,0,0,0,0,0,0,0,0,1.9603e-19,0,0,0,0,0,0,0,0,0,0.2,1
10490,-3.11491e-12,1.42236e-38,-1.52711e-06,-3.18057e-12,1.42224e-38,0,-1.06594e-13,0,0,0,0,0,0,0,0,0,0,0,0,0,0,0,0,0,0,0,0,0.4,-0.08,0,-1.5,-nan,0,0,0,0,0,0,0,0,0,0,0,1.9603e-19,0,0,0,0,0,0,0,0,0,0.2,1
10521,-3.11491e-12,1.42236e-38,-1.52711e-06,-3.18057e-12,1.42224e-38,0,-1.06594e-13,0,0,0,0,0,0,0,0,0,0,0,0,0,0,0,0,0,0,0,0,0.4,-0.08,0,-1.5,-nan,0,0,0,0,0,0,0,0,0,0,0,1.9603e-19,0,0,0,0,0,0,0,0,0,0.2,1
10540,-3.11491e-12,1.42236e-38,-1.52711e-06,-3.18057e-12,1.42224e-38,0,-1.06595e-13,0,0,0,0,0,0,0,0,0,0,0,0,0,0,0,0,0,0,0,0,0.4,-0.08,0,-1.5,-nan,0,0,0,0,0,0,0,0,0,0,0,1.9603e-19,0,0,0,0,0,0,0,0,0,0.2,1
10557,-3.11491e-12,1.42236e-38,-1.52711e-06,-3.18057e-12,1.42224e-38,0,-1.06595e-13,0,0,0,0,0,0,0,0,0,0,0,0,0,0,0,0,0,0,0,0,0.4,-0.08,0,-1.5,-nan,0,0,0,0,0,0,0,0,0,0,0,1.9603e-19,0,0,0,0,0,0,0,0,0,0.2,1
10592,-3.11491e-12,1.42236e-38,-1.52711e-06,-3.18057e-12,1.42224e-38,0,-1.06595e-13,0,0,0,0,0,0,0,0,0,0,0,0,0,0,0,0,0,0,0,0,0.4,-0.08,0,-1.5,-nan,0,0,0,0,0,0,0,0,0,0,0,1.9603e-19,0,0,0,0,0,0,0,0,0,0.2,1
10618,-3.11491e-12,1.42236e-38,-1.52711e-06,-3.18057e-12,1.42224e-38,0,-1.06596e-13,0,0,0,0,0,0,0,0,0,0,0,0,0,0,0,0,0,0,0,0,0.4,-0.08,0,-1.5,-nan,0,0,0,0,0,0,0,0,0,0,0,1.9603e-19,0,0,0,0,0,0,0,0,0,0.2,1
10635,-3.11491e-12,1.42236e-38,-1.52711e-06,-3.18057e-12,1.42224e-38,0,-1.06596e-13,0,0,0,0,0,0,0,0,0,0,0,0,0,0,0,0,0,0,0,0,0.4,-0.08,0,-1.5,-nan,0,0,0,0,0,0,0,0,0,0,0,1.9603e-19,0,0,0,0,0,0,0,0,0,0.2,1
10653,-3.11491e-12,1.42236e-38,-1.52711e-06,-3.18057e-12,1.42224e-38,0,-1.06596e-13,0,0,0,0,0,0,0,0,0,0,0,0,0,0,0,0,0,0,0,0,0.4,-0.08,0,-1.5,-nan,0,0,0,0,0,0,0,0,0,0,0,1.9603e-19,0,0,0,0,0,0,0,0,0,0.2,1
10674,-3.11491e-12,1.42236e-38,-1.52711e-06,-3.18057e-12,1.42224e-38,0,-1.06596e-13,0,0,0,0,0,0,0,0,0,0,0,0,0,0,0,0,0,0,0,0,0.4,-0.08,0,-1.5,-nan,0,0,0,0,0,0,0,0,0,0,0,1.9603e-19,0,0,0,0,0,0,0,0,0,0.2,1
10694,-3.11491e-12,1.42236e-38,-1.52711e-06,-3.18057e-12,1.42224e-38,0,-1.06597e-13,0,0,0,0,0,0,0,0,0,0,0,0,0,0,0,0,0,0,0,0,0.4,-0.08,0,-1.5,-nan,0,0,0,0,0,0,0,0,0,0,0,1.9603e-19,0,0,0,0,0,0,0,0,0,0.2,1
10716,-3.11491e-12,1.42236e-38,-1.52711e-06,-3.18057e-12,1.42224e-38,0,-1.06597e-13,0,0,0,0,0,0,0,0,0,0,0,0,0,0,0,0,0,0,0,0,0.4,-0.08,0,-1.5,-nan,0,0,0,0,0,0,0,0,0,0,0,1.9603e-19,0,0,0,0,0,0,0,0,0,0.2,1
10733,-3.11491e-12,1.42236e-38,-1.52711e-06,-3.18057e-12,1.42224e-38,0,-1.06597e-13,0,0,0,0,0,0,0,0,0,0,0,0,0,0,0,0,0,0,0,0,0.4,-0.08,0,-1.5,-nan,0,0,0,0,0,0,0,0,0,0,0,1.9603e-19,0,0,0,0,0,0,0,0,0,0.2,1
10754,-3.11491e-12,1.42236e-38,-1.52711e-06,-3.18057e-12,1.42224e-38,0,-1.06597e-13,0,0,0,0,0,0,0,0,0,0,0,0,0,0,0,0,0,0,0,0,0.4,-0.08,0,-1.5,-nan,0,0,0,0,0,0,0,0,0,0,0,1.9603e-19,0,0,0,0,0,0,0,0,0,0.2,1
10776,-3.11491e-12,1.42236e-38,-1.52711e-06,-3.18057e-12,1.42224e-38,0,-1.06598e-13,0,0,0,0,0,0,0,0,0,0,0,0,0,0,0,0,0,0,0,0,0.4,-0.08,0,-1.5,-nan,0,0,0,0,0,0,0,0,0,0,0,1.9603e-19,0,0,0,0,0,0,0,0,0,0.2,1
10793,-3.11491e-12,1.42236e-38,-1.52711e-06,-3.18057e-12,1.42224e-38,0,-1.06598e-13,0,0,0,0,0,0,0,0,0,0,0,0,0,0,0,0,0,0,0,0,0.4,-0.08,0,-1.5,-nan,0,0,0,0,0,0,0,0,0,0,0,1.9603e-19,0,0,0,0,0,0,0,0,0,0.2,1
10846,-3.11491e-12,1.42236e-38,-1.52711e-06,-3.18057e-12,1.42224e-38,0,-1.06598e-13,0,0,0,0,0,0,0,0,0,0,0,0,0,0,0,0,0,0,0,0,0.4,-0.08,0,-1.5,-nan,0,0,0,0,0,0,0,0,0,0,0,1.9603e-19,0,0,0,0,0,0,0,0,0,0.2,1
10866,-3.11491e-12,1.42236e-38,-1.52711e-06,-3.18057e-12,1.42224e-38,0,-1.06599e-13,0,0,0,0,0,0,0,0,0,0,0,0,0,0,0,0,0,0,0,0,0.4,-0.08,0,-1.5,-nan,0,0,0,0,0,0,0,0,0,0,0,1.9603e-19,0,0,0,0,0,0,0,0,0,0.2,1
10884,-3.11491e-12,1.42236e-38,-1.52711e-06,-3.18057e-12,1.42224e-38,0,-1.06599e-13,0,0,0,0,0,0,0,0,0,0,0,0,0,0,0,0,0,0,0,0,0.4,-0.08,0,-1.5,-nan,0,0,0,0,0,0,0,0,0,0,0,1.9603e-19,0,0,0,0,0,0,0,0,0,0.2,1
10979,-3.11491e-12,1.42236e-38,-1.52711e-06,-3.18057e-12,1.42224e-38,0,-1.06599e-13,0,0,0,0,0,0,0,0,0,0,0,0,0,0,0,0,0,0,0,0,0.4,-0.08,0,-1.5,-nan,0,0,0,0,0,0,0,0,0,0,0,1.9603e-19,0,0,0,0,0,0,0,0,0,0.2,1
10996,-3.11491e-12,1.42236e-38,-1.52711e-06,-3.18057e-12,1.42224e-38,0,-1.06599e-13,0,0,0,0,0,0,0,0,0,0,0,0,0,0,0,0,0,0,0,0,0.4,-0.08,0,-1.5,-nan,0,0,0,0,0,0,0,0,0,0,0,1.9603e-19,0,0,0,0,0,0,0,0,0,0.2,1
11019,-3.11491e-12,1.42236e-38,-1.52711e-06,-3.18057e-12,1.42224e-38,0,-1.066e-13,0,0,0,0,0,0,0,0,0,0,0,0,0,0,0,0,0,0,0,0,0.4,-0.08,0,-1.5,-nan,0,0,0,0,0,0,0,0,0,0,0,1.9603e-19,0,0,0,0,0,0,0,0,0,0.2,1
11033,-3.11491e-12,1.42236e-38,-1.52711e-06,-3.18057e-12,1.42224e-38,0,-1.066e-13,0,0,0,0,0,0,0,0,0,0,0,0,0,0,0,0,0,0,0,0,0.4,-0.08,0,-1.5,-nan,0,0,0,0,0,0,0,0,0,0,0,1.9603e-19,0,0,0,0,0,0,0,0,0,0.2,1
11096,-3.11491e-12,1.42236e-38,-1.52711e-06,-3.18057e-12,1.42224e-38,0,-1.066e-13,0,0,0,0,0,0,0,0,0,0,0,0,0,0,0,0,0,0,0,0,0.4,-0.08,0,-1.5,-nan,0,0,0,0,0,0,0,0,0,0,0,1.9603e-19,0,0,0,0,0,0,0,0,0,0.2,1
11134,-3.11491e-12,1.42236e-38,-1.52711e-06,-3.18057e-12,1.42224e-38,0,-1.066e-13,0,0,0,0,0,0,0,0,0,0,0,0,0,0,0,0,0,0,0,0,0.4,-0.08,0,-1.5,-nan,0,0,0,0,0,0,0,0,0,0,0,1.9603e-19,0,0,0,0,0,0,0,0,0,0.2,1
11151,-3.11491e-12,1.42236e-38,-1.52711e-06,-3.18057e-12,1.42224e-38,0,-1.06601e-13,0,0,0,0,0,0,0,0,0,0,0,0,0,0,0,0,0,0,0,0,0.4,-0.08,0,-1.5,-nan,0,0,0,0,0,0,0,0,0,0,0,1.9603e-19,0,0,0,0,0,0,0,0,0,0.2,1
11172,-3.11491e-12,1.42236e-38,-1.52711e-06,-3.18057e-12,1.42224e-38,0,-1.06601e-13,0,0,0,0,0,0,0,0,0,0,0,0,0,0,0,0,0,0,0,0,0.4,-0.08,0,-1.5,-nan,0,0,0,0,0,0,0,0,0,0,0,1.9603e-19,0,0,0,0,0,0,0,0,0,0.2,1
11192,-3.11491e-12,1.42236e-38,-1.52711e-06,-3.18057e-12,1.42224e-38,0,-1.06601e-13,0,0,0,0,0,0,0,0,0,0,0,0,0,0,0,0,0,0,0,0,0.4,-0.08,0,-1.5,-nan,0,0,0,0,0,0,0,0,0,0,0,1.9603e-19,0,0,0,0,0,0,0,0,0,0.2,1
11210,-3.11491e-12,1.42236e-38,-1.52711e-06,-3.18057e-12,1.42224e-38,0,-1.06602e-13,0,0,0,0,0,0,0,0,0,0,0,0,0,0,0,0,0,0,0,0,0.4,-0.08,0,-1.5,-nan,0,0,0,0,0,0,0,0,0,0,0,1.9603e-19,0,0,0,0,0,0,0,0,0,0.2,1
11231,-3.11491e-12,1.42236e-38,-1.52711e-06,-3.18057e-12,1.42224e-38,0,-1.06602e-13,0,0,0,0,0,0,0,0,0,0,0,0,0,0,0,0,0,0,0,0,0.4,-0.08,0,-1.5,-nan,0,0,0,0,0,0,0,0,0,0,0,1.9603e-19,0,0,0,0,0,0,0,0,0,0.2,1
11248,-3.11492e-12,1.42013e-38,1.42243e-38,-3.18057e-12,1.42224e-38,0,-1.06602e-13,0,0,0,0,0,0,0,0,0,0,0,0,0,0,0,0,0,0,0,0,0.4,-0.08,0,-1.5,-nan,0,0,0,0,0,0,0,0,0,0,0,1.9603e-19,0,0,0,0,0,0,0,0,0,0.2,1
11272,-3.11491e-12,1.42236e-38,-1.52711e-06,-3.18057e-12,1.42224e-38,0,-1.06602e-13,0,0,0,0,0,0,0,0,0,0,0,0,0,0,0,0,0,0,0,0,0.4,-0.08,0,-1.5,-nan,0,0,0,0,0,0,0,0,0,0,0,1.9603e-19,0,0,0,0,0,0,0,0,0,0.2,1
11289,-3.11491e-12,1.42236e-38,-1.52711e-06,-3.18057e-12,1.42224e-38,0,-1.06603e-13,0,0,0,0,0,0,0,0,0,0,0,0,0,0,0,0,0,0,0,0,0.4,-0.08,0,-1.5,-nan,0,0,0,0,0,0,0,0,0,0,0,1.9603e-19,0,0,0,0,0,0,0,0,0,0.2,1
11307,-3.11491e-12,1.42236e-38,-1.52711e-06,-3.18057e-12,1.42224e-38,0,-1.06603e-13,0,0,0,0,0,0,0,0,0,0,0,0,0,0,0,0,0,0,0,0,0.4,-0.08,0,-1.5,-nan,0,0,0,0,0,0,0,0,0,0,0,1.9603e-19,0,0,0,0,0,0,0,0,0,0.2,1
11328,-3.11491e-12,1.42236e-38,-1.52711e-06,-3.18057e-12,1.42224e-38,0,-1.06603e-13,0,0,0,0,0,0,0,0,0,0,0,0,0,0,0,0,0,0,0,0,0.4,-0.08,0,-1.5,-nan,0,0,0,0,0,0,0,0,0,0,0,1.9603e-19,0,0,0,0,0,0,0,0,0,0.2,1
11349,-3.11491e-12,1.42236e-38,-1.52711e-06,-3.18057e-12,1.42224e-38,0,-1.06603e-13,0,0,0,0,0,0,0,0,0,0,0,0,0,0,0,0,0,0,0,0,0.4,-0.08,0,-1.5,-nan,0,0,0,0,0,0,0,0,0,0,0,1.9603e-19,0,0,0,0,0,0,0,0,0,0.2,1
11370,-3.11491e-12,1.42236e-38,-1.52711e-06,-3.18057e-12,1.42224e-38,0,-1.06604e-13,0,0,0,0,0,0,0,0,0,0,0,0,0,0,0,0,0,0,0,0,0.4,-0.08,0,-1.5,-nan,0,0,0,0,0,0,0,0,0,0,0,1.9603e-19,0,0,0,0,0,0,0,0,0,0.2,1
11387,-3.11491e-12,1.42236e-38,-1.52711e-06,-3.18057e-12,1.42224e-38,0,-1.06604e-13,0,0,0,0,0,0,0,0,0,0,0,0,0,0,0,0,0,0,0,0,0.4,-0.08,0,-1.5,-nan,0,0,0,0,0,0,0,0,0,0,0,1.9603e-19,0,0,0,0,0,0,0,0,0,0.2,1
11408,-3.11491e-12,1.42236e-38,-1.52711e-06,-3.18057e-12,1.42224e-38,0,-1.06604e-13,0,0,0,0,0,0,0,0,0,0,0,0,0,0,0,0,0,0,0,0,0.4,-0.08,0,-1.5,-nan,0,0,0,0,0,0,0,0,0,0,0,1.9603e-19,0,0,0,0,0,0,0,0,0,0.2,1
11429,-3.11491e-12,1.42236e-38,-1.52711e-06,-3.18057e-12,1.42224e-38,0,-1.06605e-13,0,0,0,0,0,0,0,0,0,0,0,0,0,0,0,0,0,0,0,0,0.4,-0.08,0,-1.5,-nan,0,0,0,0,0,0,0,0,0,0,0,1.9603e-19,0,0,0,0,0,0,0,0,0,0.2,1
11446,-3.11491e-12,1.42236e-38,-1.52711e-06,-3.18057e-12,1.42224e-38,0,-1.06605e-13,0,0,0,0,0,0,0,0,0,0,0,0,0,0,0,0,0,0,0,0,0.4,-0.08,0,-1.5,-nan,0,0,0,0,0,0,0,0,0,0,0,1.9603e-19,0,0,0,0,0,0,0,0,0,0.2,1
11485,-3.11491e-12,1.42236e-38,-1.52711e-06,-3.18057e-12,1.42224e-38,0,-1.06605e-13,0,0,0,0,0,0,0,0,0,0,0,0,0,0,0,0,0,0,0,0,0.4,-0.08,0,-1.5,-nan,0,0,0,0,0,0,0,0,0,0,0,1.9603e-19,0,0,0,0,0,0,0,0,0,0.2,1
11500,-3.11491e-12,1.42236e-38,-1.52711e-06,-3.18057e-12,1.42224e-38,0,-1.06605e-13,0,0,0,0,0,0,0,0,0,0,0,0,0,0,0,0,0,0,0,0,0.4,-0.08,0,-1.5,-nan,0,0,0,0,0,0,0,0,0,0,0,1.9603e-19,0,0,0,0,0,0,0,0,0,0.2,1
11534,-3.11491e-12,1.42236e-38,-1.52711e-06,-3.18057e-12,1.42224e-38,0,-1.06606e-13,0,0,0,0,0,0,0,0,0,0,0,0,0,0,0,0,0,0,0,0,0.4,-0.08,0,-1.5,-nan,0,0,0,0,0,0,0,0,0,0,0,1.9603e-19,0,0,0,0,0,0,0,0,0,0.2,1
11551,-3.11491e-12,1.42236e-38,-1.52711e-06,-3.18057e-12,1.42224e-38,0,-1.06606e-13,0,0,0,0,0,0,0,0,0,0,0,0,0,0,0,0,0,0,0,0,0.4,-0.08,0,-1.5,-nan,0,0,0,0,0,0,0,0,0,0,0,1.9603e-19,0,0,0,0,0,0,0,0,0,0.2,1
11571,-3.11491e-12,1.42236e-38,-1.52711e-06,-3.18057e-12,1.42224e-38,0,-1.06606e-13,0,0,0,0,0,0,0,0,0,0,0,0,0,0,0,0,0,0,0,0,0.4,-0.08,0,-1.5,-nan,0,0,0,0,0,0,0,0,0,0,0,1.9603e-19,0,0,0,0,0,0,0,0,0,0.2,1
11593,-3.11491e-12,1.42236e-38,-1.52711e-06,-3.18057e-12,1.42224e-38,0,-1.06606e-13,0,0,0,0,0,0,0,0,0,0,0,0,0,0,0,0,0,0,0,0,0.4,-0.08,0,-1.5,-nan,0,0,0,0,0,0,0,0,0,0,0,1.9603e-19,0,0,0,0,0,0,0,0,0,0.2,1
11610,-3.11491e-12,1.42236e-38,-1.52711e-06,-3.18057e-12,1.42224e-38,0,-1.06607e-13,0,0,0,0,0,0,0,0,0,0,0,0,0,0,0,0,0,0,0,0,0.4,-0.08,0,-1.5,-nan,0,0,0,0,0,0,0,0,0,0,0,1.9603e-19,0,0,0,0,0,0,0,0,0,0.2,1
11627,-3.11491e-12,1.42236e-38,-1.52711e-06,-3.18057e-12,1.42224e-38,0,-1.06607e-13,0,0,0,0,0,0,0,0,0,0,0,0,0,0,0,0,0,0,0,0,0.4,-0.08,0,-1.5,-nan,0,0,0,0,0,0,0,0,0,0,0,1.9603e-19,0,0,0,0,0,0,0,0,0,0.2,1
11652,-3.11491e-12,1.42236e-38,-1.52711e-06,-3.18057e-12,1.42224e-38,0,-1.06607e-13,0,0,0,0,0,0,0,0,0,0,0,0,0,0,0,0,0,0,0,0,0.4,-0.08,0,-1.5,-nan,0,0,0,0,0,0,0,0,0,0,0,1.9603e-19,0,0,0,0,0,0,0,0,0,0.2,1
11670,-3.11491e-12,1.42236e-38,-1.52711e-06,-3.18057e-12,1.42224e-38,0,-1.06607e-13,0,0,0,0,0,0,0,0,0,0,0,0,0,0,0,0,0,0,0,0,0.4,-0.08,0,-1.5,-nan,0,0,0,0,0,0,0,0,0,0,0,1.9603e-19,0,0,0,0,0,0,0,0,0,0.2,1
11707,-3.11491e-12,1.42236e-38,-1.52711e-06,-3.18057e-12,1.42224e-38,0,-1.06608e-13,0,0,0,0,0,0,0,0,0,0,0,0,0,0,0,0,0,0,0,0,0.4,-0.08,0,-1.5,-nan,0,0,0,0,0,0,0,0,0,0,0,1.9603e-19,0,0,0,0,0,0,0,0,0,0.2,1
11724,-3.11491e-12,1.42236e-38,-1.52711e-06,-3.18057e-12,1.42224e-38,0,-1.06608e-13,0,0,0,0,0,0,0,0,0,0,0,0,0,0,0,0,0,0,0,0,0.4,-0.08,0,-1.5,-nan,0,0,0,0,0,0,0,0,0,0,0,1.9603e-19,0,0,0,0,0,0,0,0,0,0.2,1
11745,-3.11491e-12,1.42236e-38,-1.52711e-06,-3.18057e-12,1.42224e-38,0,-1.06608e-13,0,0,0,0,0,0,0,0,0,0,0,0,0,0,0,0,0,0,0,0,0.4,-0.08,0,-1.5,-nan,0,0,0,0,0,0,0,0,0,0,0,1.9603e-19,0,0,0,0,0,0,0,0,0,0.2,1
11766,-3.11491e-12,1.42236e-38,-1.52711e-06,-3.18057e-12,1.42224e-38,0,-1.06609e-13,0,0,0,0,0,0,0,0,0,0,0,0,0,0,0,0,0,0,0,0,0.4,-0.08,0,-1.5,-nan,0,0,0,0,0,0,0,0,0,0,0,1.9603e-19,0,0,0,0,0,0,0,0,0,0.2,1
11783,-3.11491e-12,1.42236e-38,-1.52711e-06,-3.18057e-12,1.42224e-38,0,-1.06609e-13,0,0,0,0,0,0,0,0,0,0,0,0,0,0,0,0,0,0,0,0,0.4,-0.08,0,-1.5,-nan,0,0,0,0,0,0,0,0,0,0,0,1.9603e-19,0,0,0,0,0,0,0,0,0,0.2,1
11804,-3.11491e-12,1.42236e-38,-1.52711e-06,-3.18057e-12,1.42224e-38,0,-1.06609e-13,0,0,0,0,0,0,0,0,0,0,0,0,0,0,0,0,0,0,0,0,0.4,-0.08,0,-1.5,-nan,0,0,0,0,0,0,0,0,0,0,0,1.9603e-19,0,0,0,0,0,0,0,0,0,0.2,1
11823,-3.11491e-12,1.42236e-38,-1.52711e-06,-3.18057e-12,1.42224e-38,0,-1.06609e-13,0,0,0,0,0,0,0,0,0,0,0,0,0,0,0,0,0,0,0,0,0.4,-0.08,0,-1.5,-nan,0,0,0,0,0,0,0,0,0,0,0,1.9603e-19,0,0,0,0,0,0,0,0,0,0.2,1
11858,-3.11491e-12,1.42236e-38,-1.52711e-06,-3.18057e-12,1.42224e-38,0,-1.0661e-13,0,0,0,0,0,0,0,0,0,0,4.4,0,-1368112832,1687570013,-1368112832,1687570013,-477594002,-1368112832,-1367607632,-1367607632,0.4,-0.08,0,-1.5,-nan,0,0,0,0,0,0,0,0,0,0,0,0,0,0,0,0,11858,0,0,0,0,0.2,1
11884,-3.11491e-12,1.42236e-38,-1.52711e-06,-3.18057e-12,1.42224e-38,0,-1.0661e-13,0,0,-3.4766,-0.125763,0.628228,0,0,0,0,0,-0.362937,-0.125763,268,-86,268,-86,398,-102,274,40,0.4,-0.08,0,-1.5,-nan,0,0,0,0,0,0,0,0,0,0,0,18886,0,0,0,0,11884,0,0,0,0,0.2,1
11904,-3.11491e-12,1.42236e-38,-1.52711e-06,-3.18057e-12,1.42224e-38,0,-1.0661e-13,0,0,-3.4766,-0.125763,0.628228,0,0,0,0,0,-0.362937,-0.125763,268,-86,268,-86,398,-102,274,40,0.4,-0.08,0,-1.5,-nan,0,0,0,0,0,0,0,0,0,0,0,18886,0,0,0,0,11884,0,0,0,0,0.2,1
11926,-3.11491e-12,1.42236e-38,-1.52711e-06,-3.18057e-12,1.42224e-38,0,-1.0661e-13,0,0,-3.4766,-0.125763,0.628228,0,0,0,0,0,-0.362937,-0.125763,268,-86,268,-86,398,-102,274,40,0.4,-0.08,0,-1.5,-nan,0,0,0,0,0,0,0,0,0,0,0,18886,0,0,0,0,11884,0,0,0,0,0.2,1
11940,-3.11491e-12,1.42236e-38,-1.52711e-06,-3.18057e-12,1.42224e-38,0,-1.06611e-13,0,0,-3.4766,-0.125763,0.628228,0,0,0,0,0,-0.362937,-0.125763,268,-86,268,-86,398,-102,274,40,0.4,-0.08,0,-1.5,-nan,0,0,0,0,0,0,0,0,0,0,0,18886,0,0,0,0,11884,0,0,0,0,0.2,1
11958,-3.11491e-12,1.42236e-38,-1.52711e-06,-3.18057e-12,1.42224e-38,0,-1.06611e-13,0,0,-3.4766,-0.125763,0.628228,0,0,0,0,0,-0.362937,-0.125763,268,-86,268,-86,398,-102,274,40,0.4,-0.08,0,-1.5,-nan,0,0,0,0,0,0,0,0,0,0,0,18886,0,0,0,0,11884,0,0,0,0,0.2,1
11995,-3.11491e-12,1.42236e-38,-1.52711e-06,-3.18057e-12,1.42224e-38,0,-1.06611e-13,0,0,-3.45857,-0.140491,0.55346,0,0,0,0,0,-0.338243,-0.140491,269,-92,269,-92,401,-81,274,46,0.4,-0.08,0,-1.5,-nan,0,0,0,0,0,0,0,0,0,0,0,18354,0,0,0,0,11986,0,0,0,0,0.2,1
12023,-3.11491e-12,1.42236e-38,-1.52711e-06,-3.18057e-12,1.42224e-38,0,-1.06612e-13,0,0,-3.45037,-0.148632,0.570151,0,0,0,0,0,-0.327009,-0.148632,275,-91,275,-91,400,-93,274,46,0.436332,0.0471792,0,-1.5,-nan,0,0,0,-0.318106,-0.154298,0,0,0,0,0.317948,-0.202375,17792,-0.327009,-0.148632,0.317948,-0.202375,12008,0,0,0,0,0.2,1
12046,-3.11491e-12,1.42236e-38,-1.52711e-06,-3.18057e-12,1.42224e-38,0,-1.06612e-13,0,0,-3.39704,-0.150432,0.536154,0,0,0,0,0,-0.253942,-0.150432,272,-91,272,-91,405,-93,274,46,0.436332,0.0499656,0,-1.5,-nan,0,0,0,-0.309651,-0.157545,0,0,0,0,0.324914,-0.193792,18487,-0.317124,-0.153088,0.324914,-0.193792,12035,0,0,0,0,0.2,1
12104,-3.11491e-12,1.42236e-38,-1.52711e-06,-3.18057e-12,1.42224e-38,0,-1.06612e-13,0,0,-3.40299,-0.164554,0.497633,0,0,0,0,0,-0.262098,-0.164554,274,-77,274,-77,402,-93,275,51,0.436332,0.0872664,0,-1.5,-nan,0,0,0,-0.259774,-0.165408,0,0,0,0,0.464694,-0.170659,19584,-0.262098,-0.164554,0.464694,-0.170659,12102,0,0,0,0,0.2,1
12121,-3.11491e-12,1.42236e-38,-1.52711e-06,-3.18057e-12,1.42224e-38,0,-1.06612e-13,0,0,-3.40299,-0.164554,0.497633,0,0,0,0,0,-0.262098,-0.164554,274,-77,274,-77,402,-93,275,51,0.436332,0.0872664,0,-1.5,-nan,0,0,0,-0.251875,-0.168309,0,0,0,0,0.464694,-0.170659,19584,-0.262098,-0.164554,0.464694,-0.170659,12102,0,0,0,0,0.2,1
12175,-3.11491e-12,1.42236e-38,-1.52711e-06,-3.18057e-12,1.42224e-38,0,-1.06613e-13,0,0,-3.43231,-0.170305,0.506083,0,0,0,0,0,-0.302258,-0.170305,275,-75,275,-75,403,-90,275,51,0.436332,0.0872664,0,-1.5,-nan,0,0,0,-0.22462,-0.171855,0,0,0,0,0.472564,-0.143367,19035,-0.229345,-0.170421,0.472564,-0.143367,12167,0,0,0,0,0.2,1
12203,-3.11491e-12,1.42236e-38,-1.52711e-06,-3.18057e-12,1.42224e-38,0,-1.06615e-13,0,0,-3.46343,-0.161656,0.516386,0,0,0,0,0,-0.344901,-0.161656,275,-74,275,-74,402,-90,275,51,0.436332,0.0872664,0,-1.5,-nan,0,0,0,-0.211388,-0.175869,0,0,0,0,0.472564,-0.143367,18471,-0.214696,-0.174865,0.472564,-0.143367,12198,0,0,0,0,0.2,1
12220,-3.11491e-12,1.42236e-38,-1.52711e-06,-3.18057e-12,1.42224e-38,0,-1.06613e-13,0,0,-3.46343,-0.161656,0.516386,0,0,0,0,0,-0.344901,-0.161656,275,-74,275,-74,402,-90,275,51,0.436332,0.0872664,0,-1.5,-nan,0,0,0,-0.203355,-0.178306,0,0,0,0,0.472564,-0.143367,18471,-0.214696,-0.174865,0.472564,-0.143367,12198,0,0,0,0,0.2,1
12241,-3.11491e-12,1.42236e-38,-1.52711e-06,-3.18057e-12,1.42224e-38,0,-1.06614e-13,0,0,-3.49045,-0.15837,0.528841,0,0,0,0,0,-0.381916,-0.15837,275,-72,275,-72,402,-90,275,51,0.436332,-0.0157536,0,-1.5,-nan,0,0,0,-0.290611,-0.173942,0,0,0,0,0.160616,-0.107621,18189,-0.292539,-0.17265,0.160616,-0.107621,12231,0,0,0,0,0.2,1
12262,-3.11491e-12,1.42236e-38,-1.52711e-06,-3.18057e-12,1.42224e-38,0,-1.06613e-13,0,0,-3.49045,-0.15837,0.528841,0,0,0,0,0,-0.381916,-0.15837,275,-72,275,-72,402,-90,275,51,0.436332,-0.0157536,0,-1.5,-nan,0,0,0,-0.287239,-0.176202,0,0,0,0,0.160616,-0.107621,18189,-0.292539,-0.17265,0.160616,-0.107621,12231,0,0,0,0,0.2,1
12280,-3.11491e-12,1.42236e-38,-1.52711e-06,-3.18057e-12,1.42224e-38,0,-1.06614e-13,0,0,-3.49045,-0.15837,0.528841,0,0,0,0,0,-0.381916,-0.15837,275,-72,275,-72,402,-90,275,51,0.436332,-0.0157536,0,-1.5,-nan,0,0,0,-0.284348,-0.178139,0,0,0,0,0.160616,-0.107621,18189,-0.292539,-0.17265,0.160616,-0.107621,12231,0,0,0,0,0.2,1
12309,-3.11491e-12,1.42236e-38,-1.52711e-06,-3.18057e-12,1.42224e-38,0,-1.06614e-13,0,0,-3.54147,-0.159812,0.552353,0,0,0,0,0,-0.45182,-0.159812,273,-74,273,-74,400,-84,278,51,0.42543,-0.0872664,0,-1.5,-nan,0,0,0,-0.34877,-0.168775,0,0,0,0,-0.0679512,-0.0635749,17685,-0.347955,-0.168012,-0.0679512,-0.0635749,12299,0,0,0,0,0.2,1
12327,-3.11491e-12,1.42236e-38,-1.52711e-06,-3.18057e-12,1.42224e-38,0,-1.06614e-13,0,0,-3.54147,-0.159812,0.552353,0,0,0,0,0,-0.45182,-0.159812,273,-74,273,-74,400,-84,278,51,0.42543,-0.0872664,0,-1.5,-nan,0,0,0,-0.349993,-0.169919,0,0,0,0,-0.0679512,-0.0635749,17685,-0.347955,-0.168012,-0.0679512,-0.0635749,12299,0,0,0,0,0.2,1
12343,-3.11491e-12,1.42236e-38,-1.52711e-06,-3.18057e-12,1.42224e-38,0,-1.06615e-13,0,0,-3.54147,-0.159812,0.552353,0,0,0,0,0,-0.45182,-0.159812,273,-74,273,-74,400,-84,278,51,0.42543,-0.0872664,0,-1.5,-nan,0,0,0,-0.35108,-0.170936,0,0,0,0,-0.0679512,-0.0635749,17685,-0.347955,-0.168012,-0.0679512,-0.0635749,12299,0,0,0,0,0.2,1
12368,-3.11491e-12,1.42236e-38,-1.52711e-06,-3.18057e-12,1.42224e-38,0,-1.06615e-13,0,0,-3.54147,-0.159812,0.552353,0,0,0,0,0,-0.45182,-0.159812,273,-74,273,-74,400,-84,278,51,0.42543,-0.0872664,0,-1.5,-nan,0,0,0,-0.352711,-0.172462,0,0,0,0,-0.0679512,-0.0635749,17685,-0.347955,-0.168012,-0.0679512,-0.0635749,12299,0,0,0,0,0.2,1
12385,-3.11491e-12,1.42236e-38,-1.52711e-06,-3.18057e-12,1.42224e-38,0,-1.06616e-13,0,0,-3.54147,-0.159812,0.552353,0,0,0,0,0,-0.45182,-0.159812,273,-74,273,-74,400,-84,278,51,0.42543,-0.0872664,0,-1.5,-nan,0,0,0,-0.353934,-0.173607,0,0,0,0,-0.0679512,-0.0635749,17685,-0.347955,-0.168012,-0.0679512,-0.0635749,12299,0,0,0,0,0.2,1
12401,-3.11491e-12,1.42236e-38,-1.52711e-06,-3.18057e-12,1.42224e-38,0,-1.06616e-13,0,0,-3.54147,-0.159812,0.552353,0,0,0,0,0,-0.45182,-0.159812,273,-74,273,-74,400,-84,278,51,0.42543,-0.0872664,0,-1.5,-nan,0,0,0,-0.355021,-0.174624,0,0,0,0,-0.0679512,-0.0635749,17685,-0.347955,-0.168012,-0.0679512,-0.0635749,12299,0,0,0,0,0.2,1
12423,-3.11491e-12,1.42236e-38,-1.52711e-06,-3.18057e-12,1.42224e-38,0,-1.06616e-13,0,0,-3.54147,-0.159812,0.552353,0,0,0,0,0,-0.45182,-0.159812,273,-74,273,-74,400,-84,278,51,0.42543,-0.0872664,0,-1.5,-nan,0,0,0,-0.356516,-0.176022,0,0,0,0,-0.0679512,-0.0635749,17685,-0.347955,-0.168012,-0.0679512,-0.0635749,12299,0,0,0,0,0.2,1
12443,-3.11491e-12,1.42236e-38,-1.52711e-06,-3.18057e-12,1.42224e-38,0,-1.06617e-13,0,0,-3.50595,-0.067876,0.630516,0,0,0,0,0,-0.403148,-0.067876,262,-85,262,-85,390,-98,267,40,0.417764,-0.0872664,0,-1.5,-nan,0,0,0,-0.410065,-0.16852,0,0,0,0,-0.258854,-0.0444089,18216,-0.404888,-0.167632,-0.258854,-0.0444089,12431,0,0,0,0,0.2,1
12463,-3.11491e-12,1.42236e-38,-1.52711e-06,-3.18057e-12,1.42224e-38,0,-1.06617e-13,0,0,-3.50595,-0.067876,0.630516,0,0,0,0,0,-0.403148,-0.067876,262,-85,262,-85,390,-98,267,40,0.417764,-0.0872664,0,-1.5,-nan,0,0,0,-0.415242,-0.169408,0,0,0,0,-0.258854,-0.0444089,18216,-0.404888,-0.167632,-0.258854,-0.0444089,12431,0,0,0,0,0.2,1
12488,-3.11491e-12,1.42236e-38,-1.52711e-06,-3.18057e-12,1.42224e-38,0,-1.06618e-13,0,0,-3.41617,-0.010071,0.622333,0,0,0,0,0,-0.28015,-0.010071,253,-103,253,-103,386,-101,262,39,0.411733,-0.0872664,0,-1.5,-nan,0,0,0,-0.354773,-0.16611,0,0,0,0,-0.0522285,-0.0293316,18886,-0.353467,-0.165377,-0.0522285,-0.0293316,12476,0,0,0,0,0.2,1
12509,-3.11491e-12,1.42236e-38,-1.52711e-06,-3.18057e-12,1.42224e-38,0,-1.06618e-13,0,0,-3.54188,0.0693865,0.713074,0,0,0,0,0,-0.452374,0.0693865,244,-96,244,-96,377,-96,251,30,0.313346,-0.0872664,0,-1.5,-nan,0,0,0,-0.411005,-0.049628,0,0,0,0,-0.207375,0.216636,16758,-0.408517,-0.0522275,-0.207375,0.216636,12499,0,0,0,0,0.2,1
12526,-3.11491e-12,1.42236e-38,-1.52711e-06,-3.18057e-12,1.42224e-38,0,-1.06617e-13,0,0,-3.54188,0.0693865,0.713074,0,0,0,0,0,-0.452374,0.0693865,244,-96,244,-96,377,-96,251,30,0.313346,-0.0872664,0,-1.5,-nan,0,0,0,-0.414531,-0.0459453,0,0,0,0,-0.207375,0.216636,16758,-0.408517,-0.0522275,-0.207375,0.216636,12499,0,0,0,0,0.2,1
12553,-3.11491e-12,1.42236e-38,-1.52711e-06,-3.18057e-12,1.42224e-38,0,-1.06621e-13,0,0,-3.48783,0.110285,0.698269,0,0,0,0,0,-0.378333,0.110285,238,-100,238,-100,373,-99,245,27,0.300029,-0.0872664,0,-1.5,-nan,0,0,0,-0.384682,-0.0330436,0,0,0,0,-0.10259,0.249926,17280,-0.381912,-0.0397915,-0.10259,0.249926,12540,0,0,0,0,0.2,1
12571,-3.11491e-12,1.42236e-38,-1.52711e-06,-3.18057e-12,1.42224e-38,0,-1.06621e-13,0,0,-3.48804,0.139776,0.69148,0,0,0,0,0,-0.378612,0.139776,235,-102,235,-102,370,-97,242,30,0.264014,-0.0872664,0,-1.5,-nan,0,0,0,-0.376093,0.0230001,0,0,0,0,-0.0875616,0.339962,17820,-0.375568,0.0209604,-0.0875616,0.339962,12567,0,0,0,0,0.2,1
12588,-3.11491e-12,1.42236e-38,-1.52711e-06,-3.18057e-12,1.42224e-38,0,-1.06618e-13,0,0,-3.48804,0.139776,0.69148,0,0,0,0,0,-0.378612,0.139776,235,-102,235,-102,370,-97,242,30,0.264015,-0.0872664,0,-1.5,-nan,0,0,0,-0.377582,0.0287793,0,0,0,0,-0.0875616,0.339962,17820,-0.375568,0.0209604,-0.0875616,0.339962,12567,0,0,0,0,0.2,1
12639,-3.11491e-12,1.42236e-38,-1.52711e-06,-3.18057e-12,1.42224e-38,0,-1.0662e-13,0,0,-3.5034,0.12923,0.621974,0,0,0,0,0,-0.399651,0.12923,239,-88,239,-88,368,-95,244,39,0.204595,-0.0872664,0,-1.5,-nan,0,0,0,-0.402921,0.133356,0,0,0,0,-0.127809,0.488513,17550,-0.401899,0.129448,-0.127809,0.488513,12633,0,0,0,0,0.2,1
12657,-3.11491e-12,1.42236e-38,-1.52711e-06,-3.18057e-12,1.42224e-38,0,-1.06618e-13,0,0,-3.5034,0.12923,0.621974,0,0,0,0,0,-0.399651,0.12923,239,-88,239,-88,368,-95,244,39,0.204595,-0.0872664,0,-1.5,-nan,0,0,0,-0.405222,0.142149,0,0,0,0,-0.127809,0.488513,17550,-0.401899,0.129448,-0.127809,0.488513,12633,0,0,0,0,0.2,1
12678,-3.11491e-12,1.42236e-38,-1.52711e-06,-3.18057e-12,1.42224e-38,0,-1.06619e-13,0,0,-3.5034,0.12923,0.621974,0,0,0,0,0,-0.399651,0.12923,239,-88,239,-88,368,-95,244,39,0.204595,-0.0872664,0,-1.5,-nan,0,0,0,-0.407906,0.152407,0,0,0,0,-0.127809,0.488513,17550,-0.401899,0.129448,-0.127809,0.488513,12633,0,0,0,0,0.2,1
12695,-3.11491e-12,1.42236e-38,-1.52711e-06,-3.18057e-12,1.42224e-38,0,-1.06619e-13,0,0,-3.5034,0.12923,0.621974,0,0,0,0,0,-0.399651,0.12923,239,-88,239,-88,368,-95,244,39,0.204595,-0.0872664,0,-1.5,-nan,0,0,0,-0.410078,0.160712,0,0,0,0,-0.127809,0.488513,17550,-0.401899,0.129448,-0.127809,0.488513,12633,0,0,0,0,0.2,1
12715,-3.11491e-12,1.42236e-38,-1.52711e-06,-3.18057e-12,1.42224e-38,0,-1.06619e-13,0,0,-3.5034,0.12923,0.621974,0,0,0,0,0,-0.399651,0.12923,239,-88,239,-88,368,-95,244,39,0.204595,-0.0872664,0,-1.5,-nan,0,0,0,-0.412635,0.170482,0,0,0,0,-0.127809,0.488513,17550,-0.401899,0.129448,-0.127809,0.488513,12633,0,0,0,0,0.2,1
12754,-3.11491e-12,1.42236e-38,-1.52711e-06,-3.18057e-12,1.42224e-38,0,-1.0662e-13,0,0,-3.5034,0.12923,0.621974,0,0,0,0,0,-0.399651,0.12923,239,-88,239,-88,368,-95,244,39,0.204595,-0.0872664,0,-1.5,-nan,0,0,0,-0.417491,0.189045,0,0,0,0,-0.127809,0.488513,17550,-0.401899,0.129448,-0.127809,0.488513,12633,0,0,0,0,0.2,1
12821,-3.11491e-12,1.42236e-38,-1.52711e-06,-3.18057e-12,1.42224e-38,0,-1.0662e-13,0,0,-3.5034,0.12923,0.621974,0,0,0,0,0,-0.399651,0.12923,239,-88,239,-88,368,-95,244,39,0.204595,-0.0872664,0,-1.5,-nan,0,0,0,-0.426182,0.222264,0,0,0,0,-0.127809,0.488513,17550,-0.401899,0.129448,-0.127809,0.488513,12633,0,0,0,0,0.2,1
12838,-3.11491e-12,1.42236e-38,-1.52711e-06,-3.18057e-12,1.42224e-38,0,-1.0662e-13,0,0,-3.5034,0.12923,0.621974,0,0,0,0,0,-0.399651,0.12923,239,-88,239,-88,368,-95,244,39,0.204595,-0.0872664,0,-1.5,-nan,0,0,0,-0.428355,0.230568,0,0,0,0,-0.127809,0.488513,17550,-0.401899,0.129448,-0.127809,0.488513,12633,0,0,0,0,0.2,1
12859,-3.11491e-12,1.42236e-38,-1.52711e-06,-3.18057e-12,1.42224e-38,0,-1.06621e-13,0,0,-3.5034,0.12923,0.621974,0,0,0,0,0,-0.399651,0.12923,239,-88,239,-88,368,-95,244,39,0.204595,-0.0872664,0,-1.5,-nan,0,0,0,-0.431039,0.240827,0,0,0,0,-0.127809,0.488513,17550,-0.401899,0.129448,-0.127809,0.488513,12633,0,0,0,0,0.2,1
12880,-3.11491e-12,1.42236e-38,-1.52711e-06,-3.18057e-12,1.42224e-38,0,-1.06622e-13,0,0,-3.5034,0.12923,0.621974,0,0,0,0,0,-0.399651,0.12923,239,-88,239,-88,368,-95,244,39,0.204595,-0.0872664,0,-1.5,-nan,0,0,0,-0.433723,0.251085,0,0,0,0,-0.127809,0.488513,17550,-0.401899,0.129448,-0.127809,0.488513,12633,0,0,0,0,0.2,1
12901,-3.11491e-12,1.42236e-38,-1.52711e-06,-3.18057e-12,1.42224e-38,0,-1.06622e-13,0,0,-3.5034,0.12923,0.621974,0,0,0,0,0,-0.399651,0.12923,239,-88,239,-88,368,-95,244,39,0.204595,-0.0872664,0,-1.5,-nan,0,0,0,-0.436407,0.261344,0,0,0,0,-0.127809,0.488513,17550,-0.401899,0.129448,-0.127809,0.488513,12633,0,0,0,0,0.2,1
12915,-3.11491e-12,1.42236e-38,-1.52711e-06,-3.18057e-12,1.42224e-38,0,-1.06622e-13,0,0,-3.5034,0.12923,0.621974,0,0,0,0,0,-0.399651,0.12923,239,-88,239,-88,368,-95,244,39,0.204595,-0.0872664,0,-1.5,-nan,0,0,0,-0.438196,0.268182,0,0,0,0,-0.127809,0.488513,17550,-0.401899,0.129448,-0.127809,0.488513,12633,0,0,0,0,0.2,1
12939,-3.11491e-12,1.42236e-38,-1.52711e-06,-3.18057e-12,1.42224e-38,0,-1.06625e-13,0,0,-3.55055,0.0326391,0.469442,0,0,0,0,0,-0.464249,0.0326391,252,-62,252,-62,379,-74,254,60,0.258288,-0.0872664,0,-1.5,-nan,0,0,0,-0.461353,0.159397,0,0,0,0,-0.156405,0.354279,17286,-0.460102,0.156563,-0.156405,0.354279,12933,0,0,0,0,0.2,1
12960,-3.11491e-12,1.42236e-38,-1.52711e-06,-3.18057e-12,1.42224e-38,0,-1.06622e-13,0,0,-3.55055,0.0326391,0.469442,0,0,0,0,0,-0.464249,0.0326391,252,-62,252,-62,379,-74,254,60,0.258288,-0.0872664,0,-1.5,-nan,0,0,0,-0.464637,0.166837,0,0,0,0,-0.156405,0.354279,17286,-0.460102,0.156563,-0.156405,0.354279,12933,0,0,0,0,0.2,1
12977,-3.11491e-12,1.42236e-38,-1.52711e-06,-3.18057e-12,1.42224e-38,0,-1.06623e-13,0,0,-3.55055,0.0326391,0.469442,0,0,0,0,0,-0.464249,0.0326391,252,-62,252,-62,379,-74,254,60,0.258288,-0.0872664,0,-1.5,-nan,0,0,0,-0.467296,0.172859,0,0,0,0,-0.156405,0.354279,17286,-0.460102,0.156563,-0.156405,0.354279,12933,0,0,0,0,0.2,1
12994,-3.11491e-12,1.42236e-38,-1.52711e-06,-3.18057e-12,1.42224e-38,0,-1.06623e-13,0,0,-3.55055,0.0326391,0.469442,0,0,0,0,0,-0.464249,0.0326391,252,-62,252,-62,379,-74,254,60,0.258288,-0.0872664,0,-1.5,-nan,0,0,0,-0.469955,0.178882,0,0,0,0,-0.156405,0.354279,17286,-0.460102,0.156563,-0.156405,0.354279,12933,0,0,0,0,0.2,1
13022,-3.11491e-12,1.42236e-38,-1.52711e-06,-3.18057e-12,1.42224e-38,0,-1.06623e-13,0,0,-3.5408,0.00633083,0.467747,0,0,0,0,0,-0.450895,0.00633083,254,-64,254,-64,382,-74,258,60,0.315461,-0.0872664,0,-1.5,-nan,0,0,0,-0.45717,0.0605853,0,0,0,0,-0.139532,0.211349,17420,-0.453263,0.0546677,-0.139532,0.211349,13009,0,0,0,0,0.2,1
13044,-3.11491e-12,1.42236e-38,-1.52711e-06,-3.18057e-12,1.42224e-38,0,-1.06623e-13,0,0,-3.53025,0.00598608,0.465611,0,0,0,0,0,-0.436449,0.00598608,254,-66,254,-66,382,-74,258,60,0.316664,-0.0872664,0,-1.5,-nan,0,0,0,-0.455999,0.0601352,0,0,0,0,-0.128915,0.208339,17420,-0.454581,0.0578435,-0.128915,0.208339,13035,0,0,0,0,0.2,1
13060,-3.11491e-12,1.42236e-38,-1.52711e-06,-3.18057e-12,1.42224e-38,0,-1.06624e-13,0,0,-3.53025,0.00598608,0.465611,0,0,0,0,0,-0.436449,0.00598608,254,-66,254,-66,382,-74,258,60,0.316664,-0.0872664,0,-1.5,-nan,0,0,0,-0.458062,0.0634685,0,0,0,0,-0.128915,0.208339,17420,-0.454581,0.0578435,-0.128915,0.208339,13035,0,0,0,0,0.2,1
13086,-3.11491e-12,1.42236e-38,-1.52711e-06,-3.18057e-12,1.42224e-38,0,-1.06624e-13,0,0,-3.50866,-0.000451327,0.452785,0,0,0,0,0,-0.406864,-0.000451327,254,-66,254,-66,385,-74,258,60,0.325612,-0.0872664,0,-1.5,-nan,0,0,0,-0.451267,0.0538283,0,0,0,0,-0.116476,0.18597,17554,-0.448239,0.0489932,-0.116476,0.18597,13073,0,0,0,0,0.2,1
13110,-3.11491e-12,1.42236e-38,-1.52711e-06,-3.18057e-12,1.42224e-38,0,-1.06624e-13,0,0,-3.47945,-0.00662547,0.437506,0,0,0,0,0,-0.366849,-0.00662547,254,-66,254,-66,387,-75,258,60,0.339785,-0.0872664,0,-1.5,-nan,0,0,0,-0.445342,0.0188505,0,0,0,0,-0.109943,0.150539,17955,-0.443913,0.0168936,-0.109943,0.150539,13099,0,0,0,0,0.2,1
13132,-3.11491e-12,1.42236e-38,-1.52711e-06,-3.18057e-12,1.42224e-38,0,-1.06625e-13,0,0,-3.47945,-0.00662547,0.437506,0,0,0,0,0,-0.366849,-0.00662547,254,-66,254,-66,387,-75,258,60,0.339785,-0.0872664,0,-1.5,-nan,0,0,0,-0.447651,0.0220117,0,0,0,0,-0.109943,0.150539,17955,-0.443913,0.0168936,-0.109943,0.150539,13099,0,0,0,0,0.2,1
13153,-3.11491e-12,1.42236e-38,-1.52711e-06,-3.18057e-12,1.42224e-38,0,-1.06626e-13,0,0,-3.51597,0.00168518,0.457127,0,0,0,0,0,-0.416878,0.00168518,254,-66,254,-66,384,-74,258,60,0.337304,-0.0872664,0,-1.5,-nan,0,0,0,-0.443591,0.0302215,0,0,0,0,-0.102956,0.156739,17420,-0.441326,0.0267734,-0.102956,0.156739,13140,0,0,0,0,0.2,1
13167,-3.11491e-12,1.42236e-38,-1.52711e-06,-3.18057e-12,1.42224e-38,0,-1.06625e-13,0,0,-3.51597,0.00168518,0.457127,0,0,0,0,0,-0.416878,0.00168518,254,-66,254,-66,384,-74,258,60,0.337304,-0.0872664,0,-1.5,-nan,0,0,0,-0.445032,0.0324158,0,0,0,0,-0.102956,0.156739,17420,-0.441326,0.0267734,-0.102956,0.156739,13140,0,0,0,0,0.2,1
13213,-3.11491e-12,1.42236e-38,-1.52711e-06,-3.18057e-12,1.42224e-38,0,-1.06626e-13,0,0,-3.51372,-0.00630668,0.46424,0,0,0,0,0,-0.413797,-0.00630668,254,-66,254,-66,385,-76,260,60,0.343949,-0.0872664,0,-1.5,-nan,0,0,0,-0.447165,0.0216716,0,0,0,0,-0.0999991,0.140127,17816,-0.446465,0.0206907,-0.0999991,0.140127,13208,0,0,0,0,0.2,1
13230,-3.11491e-12,1.42236e-38,-1.52711e-06,-3.18057e-12,1.42224e-38,0,-1.06625e-13,0,0,-3.51372,-0.00630668,0.46424,0,0,0,0,0,-0.413797,-0.00630668,254,-66,254,-66,385,-76,260,60,0.343949,-0.0872664,0,-1.5,-nan,0,0,0,-0.448865,0.0240536,0,0,0,0,-0.0999991,0.140127,17816,-0.446465,0.0206907,-0.0999991,0.140127,13208,0,0,0,0,0.2,1
13251,-3.11491e-12,1.42236e-38,-1.52711e-06,-3.18057e-12,1.42224e-38,0,-1.06626e-13,0,0,-3.44649,0.00308359,0.458122,0,0,0,0,0,-0.321688,0.00308359,252,-78,252,-78,381,-80,261,60,0.344971,-0.0872664,0,-1.5,-nan,0,0,0,-0.442391,0.0259307,0,0,0,0,-0.0893248,0.137573,18620,-0.440516,0.0230418,-0.0893248,0.137573,13238,0,0,0,0,0.2,1
13273,-3.11491e-12,1.42236e-38,-1.52711e-06,-3.18057e-12,1.42224e-38,0,-1.06627e-13,0,0,-3.44649,0.00308359,0.458122,0,0,0,0,0,-0.321688,0.00308359,252,-78,252,-78,381,-80,261,60,0.344971,-0.0872664,0,-1.5,-nan,0,0,0,-0.444267,0.0288197,0,0,0,0,-0.0893248,0.137573,18620,-0.440516,0.0230418,-0.0893248,0.137573,13238,0,0,0,0,0.2,1
13292,-3.11491e-12,1.42236e-38,-1.52711e-06,-3.18057e-12,1.42224e-38,0,-1.06627e-13,0,0,-3.44649,0.00308359,0.458122,0,0,0,0,0,-0.321688,0.00308359,252,-78,252,-78,381,-80,261,60,0.344971,-0.0872664,0,-1.5,-nan,0,0,0,-0.446054,0.0315711,0,0,0,0,-0.0893248,0.137573,18620,-0.440516,0.0230418,-0.0893248,0.137573,13238,0,0,0,0,0.2,1
13314,-3.11491e-12,1.42236e-38,-1.52711e-06,-3.18057e-12,1.42224e-38,0,-1.06627e-13,0,0,-3.54093,0.0088597,0.515595,0,0,0,0,0,-0.451077,0.0088597,253,-68,253,-68,381,-80,258,54,0.347753,-0.0872664,0,-1.5,-nan,0,0,0,-0.450681,0.0280374,0,0,0,0,-0.0927703,0.130617,17688,-0.44864,0.0251639,-0.0927703,0.130617,13301,0,0,0,0,0.2,1
13340,-3.11491e-12,1.42236e-38,-1.52711e-06,-3.18057e-12,1.42224e-38,0,-1.06627e-13,0,0,-3.4812,-0.0156356,0.498297,0,0,0,0,0,-0.369246,-0.0156356,254,-69,254,-69,383,-85,261,54,0.346952,-0.0872664,0,-1.5,-nan,0,0,0,-0.4532,0.0293458,0,0,0,0,-0.0935344,0.132619,19043,-0.452358,0.0281523,-0.0935344,0.132619,13333,0,0,0,0,0.2,1
13357,-3.11491e-12,1.42236e-38,-1.52711e-06,-3.18057e-12,1.42224e-38,0,-1.06628e-13,0,0,-3.4812,-0.0156356,0.498297,0,0,0,0,0,-0.369246,-0.0156356,254,-69,254,-69,383,-85,261,54,0.346952,-0.0872664,0,-1.5,-nan,0,0,0,-0.45479,0.0316002,0,0,0,0,-0.0935344,0.132619,19043,-0.452358,0.0281523,-0.0935344,0.132619,13333,0,0,0,0,0.2,1
13412,-3.11491e-12,1.42236e-38,-1.52711e-06,-3.18057e-12,1.42224e-38,0,-1.06628e-13,0,0,-3.44766,0.0158641,0.503263,0,0,0,0,0,-0.323297,0.0158641,248,-82,248,-82,380,-85,261,54,0.348924,-0.0872664,0,-1.5,-nan,0,0,0,-0.439776,0.0362562,0,0,0,0,-0.0726051,0.12769,18904,-0.435783,0.0292333,-0.0726051,0.12769,13398,0,0,0,0,0.2,1
13439,-3.11491e-12,1.42236e-38,-1.52711e-06,-3.18057e-12,1.42224e-38,0,-1.06628e-13,0,0,-3.51262,0.0439332,0.519178,0,0,0,0,0,-0.412289,0.0439332,248,-70,248,-70,377,-85,255,54,0.347463,-0.0872664,0,-1.5,-nan,0,0,0,-0.437403,0.0417359,0,0,0,0,-0.0723122,0.131344,18487,-0.436825,0.0406851,-0.0723122,0.131344,13433,0,0,0,0,0.2,1
13456,-3.11491e-12,1.42236e-38,-1.52711e-06,-3.18057e-12,1.42224e-38,0,-1.06628e-13,0,0,-3.51262,0.0439332,0.519178,0,0,0,0,0,-0.412289,0.0439332,248,-70,248,-70,377,-85,255,54,0.347463,-0.0872664,0,-1.5,-nan,0,0,0,-0.43856,0.0438373,0,0,0,0,-0.0723122,0.131344,18487,-0.436825,0.0406851,-0.0723122,0.131344,13433,0,0,0,0,0.2,1
13523,-3.11491e-12,1.42236e-38,-1.52711e-06,-3.18057e-12,1.42224e-38,0,-1.06629e-13,0,0,-3.43522,0.028797,0.476298,0,0,0,0,0,-0.306256,0.028797,248,-70,248,-70,377,-87,255,54,0.344982,-0.0872664,0,-1.5,-nan,0,0,0,-0.443026,0.0547943,0,0,0,0,-0.0742079,0.137544,19740,-0.43798,0.0454414,-0.0742079,0.137544,13509,0,0,0,0,0.2,1
13543,-3.11491e-12,1.42236e-38,-1.52711e-06,-3.18057e-12,1.42224e-38,0,-1.06629e-13,0,0,-3.44934,0.0227227,0.482923,0,0,0,0,0,-0.325601,0.0227227,250,-69,250,-69,378,-87,255,54,0.344339,-0.0872664,0,-1.5,-nan,0,0,0,-0.430643,0.0555327,0,0,0,0,-0.0541419,0.139152,19458,-0.430048,0.054002,-0.0541419,0.139152,13533,0,0,0,0,0.2,1
13559,-3.11491e-12,1.42236e-38,-1.52711e-06,-3.18057e-12,1.42224e-38,0,-1.06629e-13,0,0,-3.44934,0.0227227,0.482923,0,0,0,0,0,-0.325601,0.0227227,250,-69,250,-69,378,-87,255,54,0.344339,-0.0872664,0,-1.5,-nan,0,0,0,-0.431564,0.0578982,0,0,0,0,-0.0541419,0.139152,19458,-0.430048,0.054002,-0.0541419,0.139152,13533,0,0,0,0,0.2,1
13612,-3.11491e-12,1.42236e-38,-1.52711e-06,-3.18057e-12,1.42224e-38,0,-1.06629e-13,0,0,-3.45326,0.0329938,0.485406,0,0,0,0,0,-0.330967,0.0329938,248,-70,248,-70,375,-86,255,54,0.359131,-0.077964,0,-1.5,-nan,0,0,0,-0.375118,0.0476523,0,0,0,0,0.00509005,0.102173,19600,-0.375189,0.0462219,0.00509005,0.102173,13600,0,0,0,0,0.2,1
13629,-3.11491e-12,1.42236e-38,-1.52711e-06,-3.18057e-12,1.42224e-38,0,-1.0663e-13,0,0,-3.45326,0.0329938,0.485406,0,0,0,0,0,-0.330967,0.0329938,248,-70,248,-70,375,-86,255,54,0.359131,-0.077964,0,-1.5,-nan,0,0,0,-0.375037,0.049287,0,0,0,0,0.00509005,0.102173,19600,-0.375189,0.0462219,0.00509005,0.102173,13600,0,0,0,0,0.2,1
13654,-3.11491e-12,1.42236e-38,-1.52711e-06,-3.18057e-12,1.42224e-38,0,-1.0663e-13,0,0,-3.45523,0.0248608,0.486529,0,0,0,0,0,-0.333663,0.0248608,250,-69,250,-69,377,-87,255,54,0.368925,-0.0740923,0,-1.5,-nan,0,0,0,-0.362634,0.0381836,0,0,0,0,0.0147692,0.077687,19458,-0.363018,0.0361638,0.0147692,0.077687,13640,0,0,0,0,0.2,1
13682,-3.11491e-12,1.42236e-38,-1.52711e-06,-3.18057e-12,1.42224e-38,0,-1.0663e-13,0,0,-3.4292,0.0288697,0.470389,0,0,0,0,0,-0.298006,0.0288697,248,-70,248,-70,377,-87,255,55,0.377348,-0.0640892,0,-1.5,-nan,0,0,0,-0.353733,0.0364278,0,0,0,0,0.0397769,0.0566297,19880,-0.354847,0.0348422,0.0397769,0.0566297,13668,0,0,0,0,0.2,1
13704,-3.11491e-12,1.42236e-38,-1.52711e-06,-3.18057e-12,1.42224e-38,0,-1.06631e-13,0,0,-3.47346,0.0290609,0.495739,0,0,0,0,0,-0.358645,0.0290609,250,-69,250,-69,375,-86,255,54,0.386458,-0.0622622,0,-1.5,-nan,0,0,0,-0.351523,0.029005,0,0,0,0,0.0443443,0.0338562,19320,-0.351878,0.0287342,0.0443443,0.0338562,13699,0,0,0,0,0.2,1
13721,-3.11491e-12,1.42236e-38,-1.52711e-06,-3.18057e-12,1.42224e-38,0,-1.06631e-13,0,0,-3.47346,0.0290609,0.495739,0,0,0,0,0,-0.358645,0.0290609,250,-69,250,-69,375,-86,255,54,0.386458,-0.0622623,0,-1.5,-nan,0,0,0,-0.350769,0.0295805,0,0,0,0,0.0443443,0.0338562,19320,-0.351878,0.0287342,0.0443443,0.0338562,13699,0,0,0,0,0.2,1
13774,-3.11491e-12,1.42236e-38,-1.52711e-06,-3.18057e-12,1.42224e-38,0,-1.06631e-13,0,0,-3.47346,0.0290609,0.495739,0,0,0,0,0,-0.358645,0.0290609,250,-69,250,-69,375,-86,255,54,0.388262,-0.0513832,0,-1.5,-nan,0,0,0,-0.342812,0.0315852,0,0,0,0,0.071542,0.0293462,19320,-0.343456,0.0313211,0.071542,0.0293462,13767,0,0,0,0,0.2,1
13792,-3.11491e-12,1.42236e-38,-1.52711e-06,-3.18057e-12,1.42224e-38,0,-1.06631e-13,0,0,-3.47346,0.0290609,0.495739,0,0,0,0,0,-0.358645,0.0290609,250,-69,250,-69,375,-86,255,54,0.388262,-0.0513832,0,-1.5,-nan,0,0,0,-0.341524,0.0321134,0,0,0,0,0.071542,0.0293462,19320,-0.343456,0.0313211,0.071542,0.0293462,13767,0,0,0,0,0.2,1
13819,-3.11491e-12,1.42236e-38,-1.52711e-06,-3.18057e-12,1.42224e-38,0,-1.06632e-13,0,0,-3.43367,0.0368688,0.475497,0,0,0,0,0,-0.304133,0.0368688,247,-71,247,-71,375,-86,254,54,0.388043,-0.0629636,0,-1.5,-nan,0,0,0,-0.348993,0.0313578,0,0,0,0,0.042591,0.0298932,19740,-0.350143,0.0305507,0.042591,0.0298932,13805,0,0,0,0,0.2,1
13843,-3.11491e-12,1.42236e-38,-1.52711e-06,-3.18057e-12,1.42224e-38,0,-1.06632e-13,0,0,-3.49767,0.0480204,0.514212,0,0,0,0,0,-0.391804,0.0480204,248,-71,248,-71,375,-86,254,54,0.388073,-0.0473721,0,-1.5,-nan,0,0,0,-0.336983,0.0313853,0,0,0,0,0.0815697,0.0298169,18760,-0.337962,0.0310275,0.0815697,0.0298169,13833,0,0,0,0,0.2,1
13857,-3.11491e-12,1.42236e-38,-1.52711e-06,-3.18057e-12,1.42224e-38,0,-1.06632e-13,0,0,-3.49767,0.0480204,0.514212,0,0,0,0,0,-0.391804,0.0480204,248,-71,248,-71,375,-86,254,54,0.388073,-0.0473721,0,-1.5,-nan,0,0,0,-0.335841,0.0318027,0,0,0,0,0.0815697,0.0298169,18760,-0.337962,0.0310275,0.0815697,0.0298169,13833,0,0,0,0,0.2,1
13912,-3.11491e-12,1.42236e-38,-1.52711e-06,-3.18057e-12,1.42224e-38,0,-1.06632e-13,0,0,-3.42366,0.0306361,0.471294,0,0,0,0,0,-0.290417,0.0306361,248,-71,248,-71,377,-87,254,54,0.401193,-0.0464548,0,-1.5,-nan,0,0,0,-0.327989,0.0259317,0,0,0,0,0.0838631,-0.00298188,19740,-0.332601,0.0260957,0.0838631,-0.00298188,13898,0,0,0,0,0.2,1
13929,-3.11491e-12,1.42236e-38,-1.52711e-06,-3.18057e-12,1.42224e-38,0,-1.06633e-13,0,0,-3.42366,0.0306361,0.471294,0,0,0,0,0,-0.290417,0.0306361,248,-71,248,-71,377,-87,254,54,0.401193,-0.0464548,0,-1.5,-nan,0,0,0,-0.326563,0.025881,0,0,0,0,0.0838631,-0.00298188,19740,-0.332601,0.0260957,0.0838631,-0.00298188,13898,0,0,0,0,0.2,1
13954,-3.11491e-12,1.42236e-38,-1.52711e-06,-3.18057e-12,1.42224e-38,0,-1.06633e-13,0,0,-3.47008,0.0457263,0.499264,0,0,0,0,0,-0.354005,0.0457263,247,-71,247,-71,377,-87,254,54,0.389493,-0.0476892,0,-1.5,-nan,0,0,0,-0.328858,0.0337728,0,0,0,0,0.080777,0.0262667,19035,-0.330877,0.0331161,0.080777,0.0262667,13940,0,0,0,0,0.2,1
13982,-3.11491e-12,1.42236e-38,-1.52711e-06,-3.18057e-12,1.42224e-38,0,-1.06633e-13,0,0,-3.41584,0.0326735,0.466492,0,0,0,0,0,-0.279696,0.0326735,247,-71,247,-71,377,-87,254,54,0.389884,-0.0452787,0,-1.5,-nan,0,0,0,-0.321478,0.0346379,0,0,0,0,0.0868032,0.0252906,19881,-0.323908,0.0339298,0.0868032,0.0252906,13968,0,0,0,0,0.2,1
13999,-3.11491e-12,1.42236e-38,-1.52711e-06,-3.18057e-12,1.42224e-38,0,-1.06634e-13,0,0,-3.41584,0.0326735,0.466492,0,0,0,0,0,-0.279696,0.0326735,247,-71,247,-71,377,-87,254,54,0.389884,-0.0452787,0,-1.5,-nan,0,0,0,-0.320002,0.0350678,0,0,0,0,0.0868032,0.0252906,19881,-0.323908,0.0339298,0.0868032,0.0252906,13968,0,0,0,0,0.2,1
14021,-3.11491e-12,1.42236e-38,-1.52711e-06,-3.18057e-12,1.42224e-38,0,-1.06634e-13,0,0,-3.47802,0.04369,0.504139,0,0,0,0,0,-0.364892,0.04369,248,-71,248,-71,377,-87,254,54,0.386003,-0.0424699,0,-1.5,-nan,0,0,0,-0.315714,0.0399166,0,0,0,0,0.0938251,0.0349928,18894,-0.317778,0.0391467,0.0938251,0.0349928,14007,0,0,0,0,0.2,1
14048,-3.11491e-12,1.42236e-38,-1.52711e-06,-3.18057e-12,1.42224e-38,0,-1.06634e-13,0,0,-3.42366,0.0306361,0.471294,0,0,0,0,0,-0.290417,0.0306361,248,-71,248,-71,377,-87,254,54,0.385152,-0.0253882,0,-1.5,-nan,0,0,0,-0.287651,0.0417141,0,0,0,0,0.13653,0.0371202,19740,-0.291338,0.0407118,0.13653,0.0371202,14034,0,0,0,0,0.2,1
14074,-3.11491e-12,1.42236e-38,-1.52711e-06,-3.18057e-12,1.42224e-38,0,-1.06634e-13,0,0,-3.43903,0.0265284,0.480721,0,0,0,0,0,-0.311465,0.0265284,250,-71,250,-71,377,-87,254,54,0.381545,-0.0215484,0,-1.5,-nan,0,0,0,-0.28428,0.0464547,0,0,0,0,0.146129,0.0461384,19458,-0.285595,0.0460395,0.146129,0.0461384,14066,0,0,0,0,0.2,1
14091,-3.11491e-12,1.42236e-38,-1.52711e-06,-3.18057e-12,1.42224e-38,0,-1.06635e-13,0,0,-3.43903,0.0265284,0.480721,0,0,0,0,0,-0.311465,0.0265284,250,-71,250,-71,377,-87,254,54,0.381545,-0.0215484,0,-1.5,-nan,0,0,0,-0.281796,0.047239,0,0,0,0,0.146129,0.0461384,19458,-0.285595,0.0460395,0.146129,0.0461384,14066,0,0,0,0,0.2,1
14149,-3.11491e-12,1.42236e-38,-1.52711e-06,-3.18057e-12,1.42224e-38,0,-1.06635e-13,0,0,-3.42366,0.0306361,0.471294,0,0,0,0,0,-0.290417,0.0306361,248,-71,248,-71,377,-87,254,54,0.382101,-0.0265739,0,-1.5,-nan,0,0,0,-0.28055,0.048585,0,0,0,0,0.133565,0.0447473,19740,-0.288297,0.0459897,0.133565,0.0447473,14134,0,0,0,0,0.2,1
14171,-3.11491e-12,1.42236e-38,-1.52711e-06,-3.18057e-12,1.42224e-38,0,-1.06635e-13,0,0,-3.44154,0.0348306,0.48032,0,0,0,0,0,-0.314911,0.0348306,248,-71,248,-71,375,-86,254,54,0.381962,-0.0400711,0,-1.5,-nan,0,0,0,-0.297711,0.0496168,0,0,0,0,0.0998236,0.0450949,19600,-0.29841,0.0493011,0.0998236,0.0450949,14166,0,0,0,0,0.2,1
14196,-3.11491e-12,1.42236e-38,-1.52711e-06,-3.18057e-12,1.42224e-38,0,-1.06635e-13,0,0,-3.44154,0.0348306,0.48032,0,0,0,0,0,-0.314911,0.0348306,248,-71,248,-71,375,-86,254,54,0.381962,-0.0400706,0,-1.5,-nan,0,0,0,-0.295315,0.050699,0,0,0,0,0.0998236,0.0450949,19600,-0.29841,0.0493011,0.0998236,0.0450949,14166,0,0,0,0,0.2,1
14215,-3.11491e-12,1.42236e-38,-1.52711e-06,-3.18057e-12,1.42224e-38,0,-1.06636e-13,0,0,-3.43096,0.0285971,0.475699,0,0,0,0,0,-0.300418,0.0285971,248,-71,248,-71,377,-87,255,54,0.38343,-0.0421074,0,-1.5,-nan,0,0,0,-0.297217,0.0477945,0,0,0,0,0.0947314,0.0414245,19740,-0.299111,0.046966,0.0947314,0.0414245,14201,0,0,0,0,0.2,1
14361,-3.11491e-12,1.42236e-38,-1.52711e-06,-3.18057e-12,1.42224e-38,0,-1.06636e-13,0,0,-3.42366,0.0306361,0.471294,0,0,0,0,0,-0.290417,0.0306361,248,-71,248,-71,377,-87,254,54,0.387484,-0.0476273,0,-1.5,-nan,0,0,0,-0.285899,0.0472204,0,0,0,0,0.0809317,0.0312907,19740,-0.297715,0.042652,0.0809317,0.0312907,14242,0,0,0,0,0.2,1
14386,-3.11491e-12,1.42236e-38,-1.52711e-06,-3.18057e-12,1.42224e-38,0,-1.06636e-13,0,0,-3.48544,0.0416456,0.508617,0,0,0,0,0,-0.375058,0.0416456,248,-71,248,-71,377,-87,255,54,0.390068,-0.0425364,0,-1.5,-nan,0,0,0,-0.281143,0.043408,0,0,0,0,0.093659,0.0248309,18894,-0.283485,0.0427872,0.093659,0.0248309,14372,0,0,0,0,0.2,1
14410,-3.11491e-12,1.42236e-38,-1.52711e-06,-3.18057e-12,1.42224e-38,0,-1.06637e-13,0,0,-3.47802,0.04369,0.504139,0,0,0,0,0,-0.364892,0.04369,248,-71,248,-71,377,-87,254,54,0.390326,-0.0482466,0,-1.5,-nan,0,0,0,-0.284505,0.0439342,0,0,0,0,0.0793835,0.0241842,18894,-0.286331,0.043378,0.0793835,0.0241842,14395,0,0,0,0,0.2,1
14435,-3.11491e-12,1.42236e-38,-1.52711e-06,-3.18057e-12,1.42224e-38,0,-1.06637e-13,0,0,-3.41584,0.0326735,0.466492,0,0,0,0,0,-0.279696,0.0326735,247,-71,247,-71,377,-87,254,54,0.391266,-0.0523905,0,-1.5,-nan,0,0,0,-0.284675,0.0431437,0,0,0,0,0.0690237,0.021834,19881,-0.28647,0.042576,0.0690237,0.021834,14421,0,0,0,0,0.2,1
14463,-3.11491e-12,1.42236e-38,-1.52711e-06,-3.18057e-12,1.42224e-38,0,-1.06637e-13,0,0,-3.47802,0.04369,0.504139,0,0,0,0,0,-0.364892,0.04369,248,-71,248,-71,377,-87,254,54,0.391618,-0.068159,0,-1.5,-nan,0,0,0,-0.305998,0.0435309,0,0,0,0,0.0296026,0.0209546,18894,-0.306826,0.0429441,0.0296026,0.0209546,14449,0,0,0,0,0.2,1
14486,-3.11491e-12,1.42236e-38,-1.52711e-06,-3.18057e-12,1.42224e-38,0,-1.06637e-13,0,0,-3.47802,0.04369,0.504139,0,0,0,0,0,-0.364892,0.04369,248,-71,248,-71,377,-87,254,54,0.392177,-0.0685748,0,-1.5,-nan,0,0,0,-0.307568,0.0437005,0,0,0,0,0.0285629,0.0195572,18894,-0.307967,0.0434267,0.0285629,0.0195572,14474,0,0,0,0,0.2,1
14529,-3.11491e-12,1.42236e-38,-1.52711e-06,-3.18057e-12,1.42224e-38,0,-1.06638e-13,0,0,-3.42366,0.0306361,0.471294,0,0,0,0,0,-0.290417,0.0306361,248,-71,248,-71,377,-87,254,54,0.394407,-0.0677527,0,-1.5,-nan,0,0,0,-0.303073,0.040634,0,0,0,0,0.0306182,0.0139826,19740,-0.304359,0.0400467,0.0306182,0.0139826,14514,0,0,0,0,0.2,1
14576,-3.11491e-12,1.42236e-38,-1.52711e-06,-3.18057e-12,1.42224e-38,0,-1.06638e-13,0,0,-3.49361,0.0395828,0.513701,0,0,0,0,0,-0.386243,0.0395828,250,-71,250,-71,377,-87,254,54,0.39479,-0.0872664,0,-1.5,-nan,0,0,0,-0.35763,0.040211,0,0,0,0,-0.0272888,0.0130246,18612,-0.356347,0.0395988,-0.0272888,0.0130246,14561,0,0,0,0,0.2,1
14595,-3.11491e-12,1.42236e-38,-1.52711e-06,-3.18057e-12,1.42224e-38,0,-1.06638e-13,0,0,-3.49361,0.0395828,0.513701,0,0,0,0,0,-0.386243,0.0395828,250,-71,250,-71,377,-87,254,54,0.39479,-0.0872664,0,-1.5,-nan,0,0,0,-0.358176,0.0404715,0,0,0,0,-0.0272888,0.0130246,18612,-0.356347,0.0395988,-0.0272888,0.0130246,14561,0,0,0,0,0.2,1
14623,-3.11491e-12,1.42236e-38,-1.52711e-06,-3.18057e-12,1.42224e-38,0,-1.06638e-13,0,0,-3.42366,0.0306361,0.471294,0,0,0,0,0,-0.290417,0.0306361,248,-71,248,-71,377,-87,254,54,0.396611,-0.0652841,0,-1.5,-nan,0,0,0,-0.294234,0.0376601,0,0,0,0,0.0367897,0.00847175,19740,-0.295264,0.0374229,0.0367897,0.00847175,14609,0,0,0,0,0.2,1
14645,-3.11491e-12,1.42236e-38,-1.52711e-06,-3.18057e-12,1.42224e-38,0,-1.06639e-13,0,0,-3.42366,0.0306361,0.471294,0,0,0,0,0,-0.290417,0.0306361,248,-71,248,-71,377,-87,254,54,0.398343,-0.0635472,0,-1.5,-nan,0,0,0,-0.289938,0.0336341,0,0,0,0,0.0411319,0.00414285,19740,-0.290473,0.0335802,0.0411319,0.00414285,14633,0,0,0,0,0.2,1
14658,-3.11491e-12,1.42236e-38,-1.52711e-06,-3.18057e-12,1.42224e-38,0,-1.06639e-13,0,0,-3.42366,0.0306361,0.471294,0,0,0,0,0,-0.290417,0.0306361,248,-71,248,-71,377,-87,254,54,0.398343,-0.0635472,0,-1.5,-nan,0,0,0,-0.289362,0.0336921,0,0,0,0,0.0411319,0.00414285,19740,-0.290473,0.0335802,0.0411319,0.00414285,14633,0,0,0,0,0.2,1
14683,-3.11491e-12,1.42236e-38,-1.52711e-06,-3.18057e-12,1.42224e-38,0,-1.06639e-13,0,0,-3.47802,0.04369,0.504139,0,0,0,0,0,-0.364892,0.04369,248,-71,248,-71,377,-87,254,54,0.395477,-0.0671147,0,-1.5,-nan,0,0,0,-0.297805,0.040192,0,0,0,0,0.0322132,0.0113075,18894,-0.298578,0.0399206,0.0322132,0.0113075,14669,0,0,0,0,0.2,1
14706,-3.11491e-12,1.42236e-38,-1.52711e-06,-3.18057e-12,1.42224e-38,0,-1.0664e-13,0,0,-3.42366,0.0306361,0.471294,0,0,0,0,0,-0.290417,0.0306361,248,-71,248,-71,377,-87,254,54,0.398389,-0.064643,0,-1.5,-nan,0,0,0,-0.289174,0.0337252,0,0,0,0,0.0383924,0.00402866,19740,-0.289481,0.033693,0.0383924,0.00402866,14700,0,0,0,0,0.2,1
14725,-3.11491e-12,1.42236e-38,-1.52711e-06,-3.18057e-12,1.42224e-38,0,-1.0664e-13,0,0,-3.42366,0.0306361,0.471294,0,0,0,0,0,-0.290417,0.0306361,248,-71,248,-71,377,-87,254,54,0.398389,-0.064643,0,-1.5,-nan,0,0,0,-0.288444,0.0338017,0,0,0,0,0.0383924,0.00402866,19740,-0.289481,0.033693,0.0383924,0.00402866,14700,0,0,0,0,0.2,1
14753,-3.11491e-12,1.42236e-38,-1.52711e-06,-3.18057e-12,1.42224e-38,0,-1.0664e-13,0,0,-3.41584,0.0326735,0.466492,0,0,0,0,0,-0.279696,0.0326735,247,-71,247,-71,377,-87,254,54,0.398586,-0.0654108,0,-1.5,-nan,0,0,0,-0.289951,0.0335157,0,0,0,0,0.0364731,0.00353593,19881,-0.290972,0.0334167,0.0364731,0.00353593,14739,0,0,0,0,0.2,1
14776,-3.11491e-12,1.42236e-38,-1.52711e-06,-3.18057e-12,1.42224e-38,0,-1.0664e-13,0,0,-3.47802,0.04369,0.504139,0,0,0,0,0,-0.364892,0.04369,248,-71,248,-71,377,-87,254,54,0.398074,-0.0619662,0,-1.5,-nan,0,0,0,-0.286322,0.0345464,0,0,0,0,0.0450845,0.00481489,18894,-0.286863,0.0344886,0.0450845,0.00481489,14766,0,0,0,0,0.2,1
14793,-3.11491e-12,1.42236e-38,-1.52711e-06,-3.18057e-12,1.42224e-38,0,-1.06641e-13,0,0,-3.47802,0.04369,0.504139,0,0,0,0,0,-0.364892,0.04369,248,-71,248,-71,377,-87,254,54,0.398074,-0.0619662,0,-1.5,-nan,0,0,0,-0.285601,0.0346234,0,0,0,0,0.0450845,0.00481489,18894,-0.286863,0.0344886,0.0450845,0.00481489,14766,0,0,0,0,0.2,1
14820,-3.11491e-12,1.42236e-38,-1.52711e-06,-3.18057e-12,1.42224e-38,0,-1.06641e-13,0,0,-3.41584,0.0326735,0.466492,0,0,0,0,0,-0.279696,0.0326735,247,-71,247,-71,377,-87,254,54,0.397711,-0.0654046,0,-1.5,-nan,0,0,0,-0.285776,0.0354432,0,0,0,0,0.0364886,0.00572233,19881,-0.286797,0.035283,0.0364886,0.00572233,14806,0,0,0,0,0.2,1
14846,-3.11491e-12,1.42236e-38,-1.52711e-06,-3.18057e-12,1.42224e-38,0,-1.06641e-13,0,0,-3.47802,0.04369,0.504139,0,0,0,0,0,-0.364892,0.04369,248,-71,248,-71,377,-87,254,54,0.398033,-0.0595262,0,-1.5,-nan,0,0,0,-0.281345,0.0352311,0,0,0,0,0.0511846,0.00491694,18894,-0.282676,0.0351032,0.0511846,0.00491694,14832,0,0,0,0,0.2,1
14886,-3.11491e-12,1.42236e-38,-1.52711e-06,-3.18057e-12,1.42224e-38,0,-1.06641e-13,0,0,-3.43096,0.0285971,0.475699,0,0,0,0,0,-0.300418,0.0285971,248,-71,248,-71,377,-87,255,54,0.399979,-0.0717988,0,-1.5,-nan,0,0,0,-0.299079,0.0327748,0,0,0,0,0.0205031,5.22273e-05,19740,-0.299899,0.0327727,0.0205031,5.22273e-05,14872,0,0,0,0,0.2,1
14944,-3.11491e-12,1.42236e-38,-1.52711e-06,-3.18057e-12,1.42224e-38,0,-1.06642e-13,0,0,-3.39942,0.0425025,0.48344,0,0,0,0,0,-0.257207,0.0425025,246,-85,246,-85,377,-87,255,54,0.399644,-0.0708559,0,-1.5,-nan,0,0,0,-0.289003,0.032884,0,0,0,0,0.0228602,0.000889056,19176,-0.290329,0.0328324,0.0228602,0.000889056,14930,0,0,0,0,0.2,1
14962,-3.11491e-12,1.42236e-38,-1.52711e-06,-3.18057e-12,1.42224e-38,0,-1.06642e-13,0,0,-3.39942,0.0425025,0.48344,0,0,0,0,0,-0.257207,0.0425025,246,-85,246,-85,377,-87,255,54,0.399644,-0.0708559,0,-1.5,-nan,0,0,0,-0.288591,0.0329,0,0,0,0,0.0228602,0.000889056,19176,-0.290329,0.0328324,0.0228602,0.000889056,14930,0,0,0,0,0.2,1
14991,-3.11491e-12,1.42236e-38,-1.52711e-06,-3.18057e-12,1.42224e-38,0,-1.06642e-13,0,0,-3.49361,0.0395828,0.513701,0,0,0,0,0,-0.386243,0.0395828,250,-71,250,-71,377,-87,254,54,0.397774,-0.0759358,0,-1.5,-nan,0,0,0,-0.297176,0.0394135,0,0,0,0,0.0101606,0.00556589,18612,-0.29747,0.0392521,0.0101606,0.00556589,14976,0,0,0,0,0.2,1
15010,-3.11491e-12,1.42236e-38,-1.52711e-06,-3.18057e-12,1.42224e-38,0,-1.06643e-13,0,0,-3.41584,0.0326735,0.466492,0,0,0,0,0,-0.279696,0.0326735,247,-71,247,-71,377,-87,254,54,0.398582,-0.0719846,0,-1.5,-nan,0,0,0,-0.293539,0.0356954,0,0,0,0,0.0200386,0.00354449,19881,-0.293819,0.0356458,0.0200386,0.00354449,14999,0,0,0,0,0.2,1
15027,-3.11491e-12,1.42236e-38,-1.52711e-06,-3.18057e-12,1.42224e-38,0,-1.06643e-13,0,0,-3.41584,0.0326735,0.466492,0,0,0,0,0,-0.279696,0.0326735,247,-71,247,-71,377,-87,254,54,0.398582,-0.0719846,0,-1.5,-nan,0,0,0,-0.293198,0.0357557,0,0,0,0,0.0200386,0.00354449,19881,-0.293819,0.0356458,0.0200386,0.00354449,14999,0,0,0,0,0.2,1
15057,-3.11491e-12,1.42236e-38,-1.52711e-06,-3.18057e-12,1.42224e-38,0,-1.06643e-13,0,0,-3.42366,0.0306361,0.471294,0,0,0,0,0,-0.290417,0.0306361,248,-71,248,-71,377,-87,254,54,0.399306,-0.0736393,0,-1.5,-nan,0,0,0,-0.288962,0.0335101,0,0,0,0,0.0159016,0.00173499,19740,-0.289439,0.033458,0.0159016,0.00173499,15043,0,0,0,0,0.2,1
15080,-3.11491e-12,1.42236e-38,-1.52711e-06,-3.18057e-12,1.42224e-38,0,-1.06643e-13,0,0,-3.42366,0.0306361,0.471294,0,0,0,0,0,-0.290417,0.0306361,248,-71,248,-71,377,-87,254,54,0.400459,-0.0744763,0,-1.5,-nan,0,0,0,-0.289106,0.032653,0,0,0,0,0.0138094,-0.00114726,19740,-0.289423,0.0326794,0.0138094,-0.00114726,15066,0,0,0,0,0.2,1
15097,-3.11491e-12,1.42236e-38,-1.52711e-06,-3.18057e-12,1.42224e-38,0,-1.06644e-13,0,0,-3.42366,0.0306361,0.471294,0,0,0,0,0,-0.290417,0.0306361,248,-71,248,-71,377,-87,254,54,0.400459,-0.0744763,0,-1.5,-nan,0,0,0,-0.288871,0.0326335,0,0,0,0,0.0138094,-0.00114726,19740,-0.289423,0.0326794,0.0138094,-0.00114726,15066,0,0,0,0,0.2,1
15124,-3.11491e-12,1.42236e-38,-1.52711e-06,-3.18057e-12,1.42224e-38,0,-1.06644e-13,0,0,-3.47008,0.0457263,0.499264,0,0,0,0,0,-0.354005,0.0457263,247,-71,247,-71,377,-87,254,54,0.39977,-0.0797423,0,-1.5,-nan,0,0,0,-0.291622,0.0328705,0,0,0,0,0.000644346,0.000575025,19035,-0.291639,0.0328549,0.000644346,0.000575025,15110,0,0,0,0,0.2,1
15147,-3.11491e-12,1.42236e-38,-1.52711e-06,-3.18057e-12,1.42224e-38,0,-1.06644e-13,0,0,-3.47802,0.04369,0.504139,0,0,0,0,0,-0.364892,0.04369,248,-71,248,-71,377,-87,254,54,0.397026,-0.0774189,0,-1.5,-nan,0,0,0,-0.297419,0.0387616,0,0,0,0,0.00645268,0.00743407,18894,-0.297567,0.0385906,0.00645268,0.00743407,15133,0,0,0,0,0.2,1
15172,-3.11491e-12,1.42236e-38,-1.52711e-06,-3.18057e-12,1.42224e-38,0,-1.06644e-13,0,0,-3.47802,0.04369,0.504139,0,0,0,0,0,-0.364892,0.04369,248,-71,248,-71,377,-87,254,54,0.395842,-0.0846108,0,-1.5,-nan,0,0,0,-0.307802,0.0418144,0,0,0,0,-0.0115262,0.0103956,18894,-0.307721,0.0417416,-0.0115262,0.0103956,15167,0,0,0,0,0.2,1
15193,-3.11491e-12,1.42236e-38,-1.52711e-06,-3.18057e-12,1.42224e-38,0,-1.06645e-13,0,0,-3.47802,0.04369,0.504139,0,0,0,0,0,-0.364892,0.04369,248,-71,248,-71,377,-87,254,54,0.395842,-0.0846105,0,-1.5,-nan,0,0,0,-0.308044,0.0420327,0,0,0,0,-0.0115262,0.0103956,18894,-0.307721,0.0417416,-0.0115262,0.0103956,15167,0,0,0,0,0.2,1
15216,-3.11491e-12,1.42236e-38,-1.52711e-06,-3.18057e-12,1.42224e-38,0,-1.06645e-13,0,0,-3.41402,0.038524,0.492515,0,0,0,0,0,-0.277211,0.038524,248,-85,248,-85,377,-87,255,54,0.396898,-0.0760839,0,-1.5,-nan,0,0,0,-0.295424,0.0393533,0,0,0,0,0.00979018,0.00775608,18894,-0.295649,0.0391749,0.00979018,0.00775608,15202,0,0,0,0,0.2,1
15239,-3.11491e-12,1.42236e-38,-1.52711e-06,-3.18057e-12,1.42224e-38,0,-1.06645e-13,0,0,-3.41584,0.0326735,0.466492,0,0,0,0,0,-0.279696,0.0326735,247,-71,247,-71,377,-87,254,54,0.397452,-0.0694221,0,-1.5,-nan,0,0,0,-0.285739,0.0380389,0,0,0,0,0.0264443,0.00636998,19881,-0.285951,0.0379879,0.0264443,0.00636998,15234,0,0,0,0,0.2,1
15263,-3.11491e-12,1.42236e-38,-1.52711e-06,-3.18057e-12,1.42224e-38,0,-1.06645e-13,0,0,-3.41584,0.0326735,0.466492,0,0,0,0,0,-0.279696,0.0326735,247,-71,247,-71,377,-87,254,54,0.397452,-0.0694223,0,-1.5,-nan,0,0,0,-0.285105,0.0381917,0,0,0,0,0.0264443,0.00636998,19881,-0.285951,0.0379879,0.0264443,0.00636998,15234,0,0,0,0,0.2,1
15283,-3.11491e-12,1.42236e-38,-1.52711e-06,-3.18057e-12,1.42224e-38,0,-1.06646e-13,0,0,-3.43903,0.0265284,0.480721,0,0,0,0,0,-0.311465,0.0265284,250,-71,250,-71,377,-87,254,54,0.400093,-0.075737,0,-1.5,-nan,0,0,0,-0.291524,0.033797,0,0,0,0,0.0106576,-0.000232294,19458,-0.291737,0.0338016,0.0106576,-0.000232294,15269,0,0,0,0,0.2,1
15307,-3.11491e-12,1.42236e-38,-1.52711e-06,-3.18057e-12,1.42224e-38,0,-1.06646e-13,0,0,-3.47008,0.0457263,0.499264,0,0,0,0,0,-0.354005,0.0457263,247,-71,247,-71,377,-87,254,54,0.397377,-0.083937,0,-1.5,-nan,0,0,0,-0.311913,0.0390809,0,0,0,0,-0.0098424,0.00655727,19035,-0.311814,0.0390154,-0.0098424,0.00655727,15299,0,0,0,0,0.2,1
15327,-3.11491e-12,1.42236e-38,-1.52711e-06,-3.18057e-12,1.42224e-38,0,-1.06646e-13,0,0,-3.47008,0.0457263,0.499264,0,0,0,0,0,-0.354005,0.0457263,247,-71,247,-71,377,-87,254,54,0.397377,-0.083937,0,-1.5,-nan,0,0,0,-0.3121,0.0392055,0,0,0,0,-0.0098424,0.00655727,19035,-0.311814,0.0390154,-0.0098424,0.00655727,15299,0,0,0,0,0.2,1
15413,-3.11491e-12,1.42236e-38,-1.52711e-06,-3.18057e-12,1.42224e-38,0,-1.06647e-13,0,0,-3.42366,0.0306361,0.471294,0,0,0,0,0,-0.290417,0.0306361,248,-71,248,-71,377,-87,254,54,0.403651,-0.0460961,0,-1.5,-nan,0,0,0,-0.271986,0.0314606,0,0,0,0,0.0847598,-0.00912669,19740,-0.273173,0.0315884,0.0847598,-0.00912669,15401,0,0,0,0,0.2,1
15441,-3.11491e-12,1.42236e-38,-1.52711e-06,-3.18057e-12,1.42224e-38,0,-1.06647e-13,0,0,-3.42366,0.0306361,0.471294,0,0,0,0,0,-0.290417,0.0306361,248,-71,248,-71,377,-87,254,54,0.403849,-0.0703811,0,-1.5,-nan,0,0,0,-0.286338,0.0306135,0,0,0,0,0.0240471,-0.0096235,19740,-0.286554,0.0307001,0.0240471,-0.0096235,15433,0,0,0,0,0.2,1
15457,-3.11491e-12,1.42236e-38,-1.52711e-06,-3.18057e-12,1.42224e-38,0,-1.06647e-13,0,0,-3.42366,0.0306361,0.471294,0,0,0,0,0,-0.290417,0.0306361,248,-71,248,-71,377,-87,254,54,0.403849,-0.0703811,0,-1.5,-nan,0,0,0,-0.285929,0.0304499,0,0,0,0,0.0240471,-0.0096235,19740,-0.286554,0.0307001,0.0240471,-0.0096235,15433,0,0,0,0,0.2,1
