timestamp,A_x,A_y,A_z,P,Q,R,Phi,Theta,Psi,poseX,poseY,poseZ,state_X,state_Y,state_Z,state_VzB,state_Bx,state_By,state_Bz,p1_x,p1_y,p2_x,p2_y,p3_x,p3_y,p4_x,p4_y,roll,pitch,yaw,alt,targetHeading,highLevelState,lowLevelState,gateNumber,filtered_x,filtered_y,x_OT,y_OT,vx_OT,vy_OT,filtered_vx,filtered_vygateArearansac_corr_x,ransac_corr_y,ransac_corr_vx,ransac_corr_vy,detectionTimeStamp
8238,0,0,0,0,0,0,0,0,0,0,0,0,0,0,0,0,0,0,0,0,0,0,0,0,0,0,0,0,-0,0,-1.5,-nan,0,0,0,0,0,0,0,0,0,0,0,1.9603e-19,0,0,0,0,0
8253,0,0,0,0,0,0,0,0,0,0,0,0,0,0,0,0,0,0,0,0,0,0,0,0,0,0,0,0,-0,0,-1.5,-nan,0,0,0,0,0,0,0,0,0,0,0,1.9603e-19,0,0,0,0,0
9002,-3.11565e-12,1.49295e-38,-1.5164e-06,-3.18057e-12,1.49284e-38,-3.61065e-12,-1.06589e-13,0,0,0,0,0,0,0,0,0,0,0,0,0,0,0,0,0,0,0,0,0,-0,0,-1.5,-nan,0,0,0,0,0,0,0,0,0,0,0,1.9603e-19,0,0,0,0,0
9044,-3.11565e-12,1.49295e-38,-1.5164e-06,-3.18057e-12,1.49284e-38,0,-1.0659e-13,0,0,0,0,0,0,0,0,0,0,0,0,0,0,0,0,0,0,0,0,0,-0,0,-1.5,-nan,0,0,0,0,0,0,0,0,0,0,0,1.9603e-19,0,0,0,0,0
9280,-3.11565e-12,1.49295e-38,-1.5164e-06,-3.18057e-12,1.49284e-38,-3.61065e-12,-1.0659e-13,0,0,0,0,0,0,0,0,0,0,0,0,0,0,0,0,0,0,0,0,0,-0,0,-1.5,-nan,0,0,0,0,0,0,0,0,0,0,0,1.9603e-19,0,0,0,0,0
9347,-3.11565e-12,1.49295e-38,-1.5164e-06,-3.18057e-12,1.49284e-38,0,-1.0659e-13,0,0,0,0,0,0,0,0,0,0,4.4,0,-1368112832,-1254450796,-1368112832,-1254450796,-296085081,-1368112832,-1367607632,-1367607632,0,-0,0,-1.5,-nan,0,0,0,0,0,0,0,0,0,0,0,0,0,0,0,0,9346
9600,-3.11565e-12,1.49295e-38,-1.5164e-06,-3.18057e-12,1.49284e-38,-3.61065e-12,-1.0659e-13,0,0,0,0,0,0,0,0,0,0,4.4,0,-1368112832,-1254450796,-1368112832,-1254450796,-296085081,-1368112832,-1367607632,-1367607632,0,-0,0,-1.5,-nan,0,0,0,0,0,0,0,0,0,0,0,0,0,0,0,0,9346
9707,-3.11565e-12,1.49295e-38,-1.5164e-06,-3.18057e-12,1.49284e-38,0,-1.06591e-13,0,0,-3.57714,0.199861,0.458764,0,0,0,0,0,-0.500687,0.199861,231,-62,231,-62,358,-68,238,63,0,-0,0,-1.5,-nan,0,0,0,0,0,0,0,0,0,0,0,17161,0,0,0,0,9699
9810,-3.11565e-12,1.49295e-38,-1.5164e-06,-3.18057e-12,1.49284e-38,-3.61065e-12,-1.06591e-13,0,0,-3.57714,0.199861,0.458764,0,0,0,0,0,-0.500687,0.199861,231,-62,231,-62,358,-68,238,63,0,-0,0,-1.5,-nan,0,0,0,0,0,0,0,0,0,0,0,17161,0,0,0,0,9802
9882,-3.11565e-12,1.49295e-38,-1.5164e-06,-3.18057e-12,1.49284e-38,0,-1.06591e-13,0,0,-3.569,0.199856,0.460384,0,0,0,0,0,-0.489533,0.199856,231,-62,231,-62,358,-70,238,63,0,-0,0,-1.5,-nan,0,0,0,0,0,0,0,0,0,0,0,17423,0,0,0,0,9877
9904,-3.11565e-12,1.49295e-38,-1.5164e-06,-3.18057e-12,1.49284e-38,-3.61065e-12,-1.06591e-13,0,0,-3.569,0.199856,0.460384,0,0,0,0,0,-0.489533,0.199856,231,-62,231,-62,358,-70,238,63,0,-0,0,-1.5,-nan,0,0,0,0,0,0,0,0,0,0,0,17423,0,0,0,0,9877
9924,-3.11565e-12,1.49295e-38,-1.5164e-06,-3.18057e-12,1.49284e-38,0,-1.06592e-13,0,0,-3.55536,0.199336,0.447812,0,0,0,0,0,-0.470849,0.199336,231,-62,231,-62,358,-70,238,65,0,-0,0,-1.5,-nan,0,0,0,0,0,0,0,0,0,0,0,17685,0,0,0,0,9916
10119,-3.11565e-12,1.49295e-38,-1.5164e-06,-3.18057e-12,1.49284e-38,-3.61065e-12,-1.06592e-13,0,0,-3.55536,0.199336,0.447812,0,0,0,0,0,-0.470849,0.199336,231,-62,231,-62,358,-70,238,65,-0.0994322,-0.222018,0,-1.5,-nan,0,0,0,-0.444035,0.198864,0,0,0,0,0.137505,-0.00241948,17685,-0.470849,0.199336,0.137505,-0.00241948,10022
10142,-3.11565e-12,1.49295e-38,-1.5164e-06,-3.18057e-12,1.49284e-38,0,-1.06592e-13,0,0,-3.55536,0.199336,0.447812,0,0,0,0,0,-0.470849,0.199336,231,-62,231,-62,358,-70,238,65,-0.0996534,-0.234591,0,-1.5,-nan,0,0,0,-0.469183,0.199307,0,0,0,0,0.0724237,-0.00127434,17685,-0.470849,0.199336,0.0724237,-0.00127434,10131
10159,-3.11565e-12,1.49295e-38,-1.5164e-06,-3.18057e-12,1.49284e-38,-3.61065e-12,-1.06593e-13,0,0,-3.55536,0.199336,0.447812,0,0,0,0,0,-0.470849,0.199336,231,-62,231,-62,358,-70,238,65,-0.0996426,-0.233976,0,-1.5,-nan,0,0,0,-0.467952,0.199285,0,0,0,0,0.0724237,-0.00127434,17685,-0.470849,0.199336,0.0724237,-0.00127434,10131
10179,-3.11565e-12,1.49295e-38,-1.5164e-06,-3.18057e-12,1.49284e-38,0,-1.06593e-13,0,0,-3.55536,0.199336,0.447812,0,0,0,0,0,-0.470849,0.199336,231,-62,231,-62,358,-70,238,65,-0.0996299,-0.233252,0,-1.5,-nan,0,0,0,-0.466503,0.19926,0,0,0,0,0.0724237,-0.00127434,17685,-0.470849,0.199336,0.0724237,-0.00127434,10131
10287,-3.11565e-12,1.49295e-38,-1.5164e-06,-3.18057e-12,1.49284e-38,-3.61065e-12,-1.06596e-13,0,0,-3.57061,0.204221,0.448026,0,0,0,0,0,-0.491736,0.204221,231,-62,231,-62,356,-68,238,66,-0.0995799,-0.230624,0,-1.5,-nan,0,0,0,-0.461248,0.19916,0,0,0,0,0.0616568,-0.0010766,17554,-0.461988,0.199173,0.0616568,-0.0010766,10277
10327,-3.11565e-12,1.49295e-38,-1.5164e-06,-3.18057e-12,1.49284e-38,0,-1.06593e-13,0,0,-3.55004,0.198919,0.442421,0,0,0,0,0,-0.46355,0.198919,231,-62,231,-62,358,-70,238,65,-0.0994537,-0.229986,0,-1.5,-nan,0,0,0,-0.459971,0.198907,0,0,0,0,0.0607226,-0.00151527,17685,-0.4624,0.198968,0.0607226,-0.00151527,10315
10359,-3.11565e-12,1.49295e-38,-1.5164e-06,-3.18057e-12,1.49284e-38,-3.61065e-12,-1.06594e-13,0,0,-3.55536,0.199336,0.447812,0,0,0,0,0,-0.470849,0.199336,231,-62,231,-62,358,-70,238,65,-0.0995427,-0.230713,0,-1.5,-nan,0,0,0,-0.461427,0.199085,0,0,0,0,0.0514066,-0.0010563,17685,-0.463072,0.199119,0.0514066,-0.0010563,10347
10376,-3.11565e-12,1.49295e-38,-1.5164e-06,-3.18057e-12,1.49284e-38,0,-1.06593e-13,0,0,-3.55536,0.199336,0.447812,0,0,0,0,0,-0.470849,0.199336,231,-62,231,-62,358,-70,238,65,-0.0995337,-0.230276,0,-1.5,-nan,0,0,0,-0.460553,0.199067,0,0,0,0,0.0514066,-0.0010563,17685,-0.463072,0.199119,0.0514066,-0.0010563,10347
10396,-3.11565e-12,1.49295e-38,-1.5164e-06,-3.18057e-12,1.49284e-38,-3.61065e-12,-1.06594e-13,0,0,-3.56372,0.199355,0.446333,0,0,0,0,0,-0.482292,0.199355,231,-62,231,-62,358,-68,238,65,-0.0996446,-0.232837,0,-1.5,-nan,0,0,0,-0.465675,0.199289,0,0,0,0,0.0435599,-0.000735478,17423,-0.466546,0.199304,0.0435599,-0.000735478,10384
10422,-3.11565e-12,1.49295e-38,-1.5164e-06,-3.18057e-12,1.49284e-38,0,-1.06595e-13,0,0,-3.5567,0.203748,0.443994,0,0,0,0,0,-0.472678,0.203748,231,-62,231,-62,356,-70,238,66,-0.099609,-0.233622,0,-1.5,-nan,0,0,0,-0.467243,0.199218,0,0,0,0,0.0406045,-0.000778767,17816,-0.467731,0.199227,0.0406045,-0.000778767,10412
10441,-3.11565e-12,1.49295e-38,-1.5164e-06,-3.18057e-12,1.49284e-38,-3.61065e-12,-1.06595e-13,0,0,-3.5567,0.203748,0.443994,0,0,0,0,0,-0.472678,0.203748,231,-62,231,-62,356,-70,238,66,-0.0996012,-0.233216,0,-1.5,-nan,0,0,0,-0.466431,0.199202,0,0,0,0,0.0406045,-0.000778767,17816,-0.467731,0.199227,0.0406045,-0.000778767,10412
10467,-3.11565e-12,1.49295e-38,-1.5164e-06,-3.18057e-12,1.49284e-38,0,-1.06594e-13,0,0,-3.57733,0.204565,0.462946,0,0,0,0,0,-0.500947,0.204565,231,-62,231,-62,356,-70,238,63,-0.0996413,-0.233155,0,-1.5,-nan,0,0,0,-0.46631,0.199283,0,0,0,0,0.0393375,-0.000759476,17423,-0.467293,0.199302,0.0393375,-0.000759476,10454
10488,-3.11565e-12,1.49295e-38,-1.5164e-06,-3.18057e-12,1.49284e-38,-3.61065e-12,-1.06598e-13,0,0,-3.58037,0.191544,0.456094,0,0,0,0,0,-0.505113,0.191544,234,-62,234,-62,359,-68,238,65,-0.0995603,-0.234644,0,-1.5,-nan,0,0,0,-0.469287,0.199121,0,0,0,0,0.0349687,-0.000788133,17024,-0.469742,0.199131,0.0349687,-0.000788133,10477
10553,-3.11565e-12,1.49295e-38,-1.5164e-06,-3.18057e-12,1.49284e-38,0,-1.06598e-13,0,0,-3.60249,0.185923,0.482251,0,0,0,0,0,-0.535415,0.185923,237,-63,237,-63,358,-70,238,62,-0.099373,-0.239574,0,-1.5,-nan,0,0,0,-0.479149,0.198746,0,0,0,0,0.0169992,-0.00129101,16632,-0.479319,0.198759,0.0169992,-0.00129101,10545
10611,-3.11565e-12,1.49295e-38,-1.5164e-06,-3.18057e-12,1.49284e-38,-3.61065e-12,-1.06599e-13,0,0,-3.54739,0.166118,0.445947,0,0,0,0,0,-0.459929,0.166118,237,-62,237,-62,359,-70,239,63,-0.0989286,-0.237535,0,-1.5,-nan,0,0,0,-0.47507,0.197857,0,0,0,0,0.0212459,-0.00242174,17556,-0.476302,0.197998,0.0212459,-0.00242174,10598
10708,-3.11565e-12,1.49295e-38,-1.5164e-06,-3.18057e-12,1.49284e-38,0,-1.066e-13,0,0,-3.58717,0.176397,0.495124,0,0,0,0,0,-0.514423,0.176397,234,-65,234,-65,362,-72,241,59,-0.0988869,-0.240937,0,-1.5,-nan,0,0,0,-0.481874,0.197774,0,0,0,0,0.00836932,-0.00218559,16899,-0.482686,0.197986,0.00836932,-0.00218559,10695
10730,-3.11565e-12,1.49295e-38,-1.5164e-06,-3.18057e-12,1.49284e-38,-3.61065e-12,-1.06598e-13,0,0,-3.54198,0.178286,0.459591,0,0,0,0,0,-0.452519,0.178286,234,-65,234,-65,359,-72,239,60,-0.0974826,-0.238211,0,-1.5,-nan,0,0,0,-0.476423,0.194965,0,0,0,0,0.0160839,-0.00608953,17424,-0.476777,0.195099,0.0160839,-0.00608953,10717
10755,-3.11565e-12,1.49295e-38,-1.5164e-06,-3.18057e-12,1.49284e-38,0,-1.06596e-13,0,0,-3.51512,0.171974,0.432946,0,0,0,0,0,-0.415712,0.171974,234,-63,234,-63,358,-72,240,66,-0.0942565,-0.230657,0,-1.5,-nan,0,0,0,-0.461315,0.188513,0,0,0,0,0.0336096,-0.0131989,18630,-0.461752,0.188685,0.0336096,-0.0131989,10744
10771,-3.11565e-12,1.49295e-38,-1.5164e-06,-3.18057e-12,1.49284e-38,-3.61065e-12,-1.06599e-13,0,0,-3.51512,0.171974,0.432946,0,0,0,0,0,-0.415712,0.171974,234,-63,234,-63,358,-72,240,66,-0.0941575,-0.230405,0,-1.5,-nan,0,0,0,-0.46081,0.188315,0,0,0,0,0.0336096,-0.0131989,18630,-0.461752,0.188685,0.0336096,-0.0131989,10744
10789,-3.11565e-12,1.49295e-38,-1.5164e-06,-3.18057e-12,1.49284e-38,0,-1.06599e-13,0,0,-3.51512,0.171974,0.432946,0,0,0,0,0,-0.415712,0.171974,234,-63,234,-63,358,-72,240,66,-0.0940388,-0.230103,0,-1.5,-nan,0,0,0,-0.460205,0.188078,0,0,0,0,0.0336096,-0.0131989,18630,-0.461752,0.188685,0.0336096,-0.0131989,10744
10810,-3.11565e-12,1.49295e-38,-1.5164e-06,-3.18057e-12,1.49284e-38,-3.61065e-12,-1.06596e-13,0,0,-3.57983,0.199768,0.479584,0,0,0,0,0,-0.504361,0.199768,232,-60,232,-60,356,-75,239,63,-0.0974312,-0.236206,0,-1.5,-nan,0,0,0,-0.472411,0.194862,0,0,0,0,0.0207796,-0.00511632,18078,-0.472868,0.194975,0.0207796,-0.00511632,10798
10827,-3.11565e-12,1.49295e-38,-1.5164e-06,-3.18057e-12,1.49284e-38,0,-1.06595e-13,0,0,-3.57983,0.199768,0.479584,0,0,0,0,0,-0.504361,0.199768,232,-60,232,-60,356,-75,239,63,-0.0973877,-0.236029,0,-1.5,-nan,0,0,0,-0.472058,0.194775,0,0,0,0,0.0207796,-0.00511632,18078,-0.472868,0.194975,0.0207796,-0.00511632,10798
10870,-3.11565e-12,1.49295e-38,-1.5164e-06,-3.18057e-12,1.49284e-38,-3.61065e-12,-1.06596e-13,0,0,-3.57983,0.199768,0.479584,0,0,0,0,0,-0.504361,0.199768,232,-60,232,-60,356,-75,239,63,-0.0972777,-0.235582,0,-1.5,-nan,0,0,0,-0.471164,0.194555,0,0,0,0,0.0207796,-0.00511632,18078,-0.472868,0.194975,0.0207796,-0.00511632,10798
10892,-3.11565e-12,1.49295e-38,-1.5164e-06,-3.18057e-12,1.49284e-38,0,-1.06597e-13,0,0,-3.55434,0.206751,0.462666,0,0,0,0,0,-0.469449,0.206751,229,-62,229,-62,356,-72,238,65,-0.0991072,-0.234101,0,-1.5,-nan,0,0,0,-0.468203,0.198214,0,0,0,0,0.0235848,-0.001163,18358,-0.468721,0.19824,0.0235848,-0.001163,10879
10909,-3.11565e-12,1.49295e-38,-1.5164e-06,-3.18057e-12,1.49284e-38,-3.61065e-12,-1.06597e-13,0,0,-3.55434,0.206751,0.462666,0,0,0,0,0,-0.469449,0.206751,229,-62,229,-62,356,-72,238,65,-0.0990973,-0.233901,0,-1.5,-nan,0,0,0,-0.467802,0.198195,0,0,0,0,0.0235848,-0.001163,18358,-0.468721,0.19824,0.0235848,-0.001163,10879
10934,-3.11565e-12,1.49295e-38,-1.5164e-06,-3.18057e-12,1.49284e-38,0,-1.06597e-13,0,0,-3.56233,0.200453,0.473164,0,0,0,0,0,-0.480391,0.200453,231,-65,231,-65,355,-73,240,66,-0.0992556,-0.235999,0,-1.5,-nan,0,0,0,-0.471998,0.198511,0,0,0,0,0.016791,-0.00112014,18348,-0.472418,0.198539,0.016791,-0.00112014,10921
10959,-3.11565e-12,1.49295e-38,-1.5164e-06,-3.18057e-12,1.49284e-38,-3.61065e-12,-1.066e-13,0,0,-3.50576,0.181624,0.451021,0,0,0,0,0,-0.402897,0.181624,231,-65,231,-65,359,-75,239,60,-0.0989197,-0.233417,0,-1.5,-nan,0,0,0,-0.466834,0.197839,0,0,0,0,0.0240366,-0.00146692,18360,-0.467435,0.197876,0.0240366,-0.00146692,10946
10986,-3.11565e-12,1.49295e-38,-1.5164e-06,-3.18057e-12,1.49284e-38,0,-1.066e-13,0,0,-3.61094,0.173901,0.509314,0,0,0,0,0,-0.546987,0.173901,237,-65,237,-65,359,-72,241,62,-0.0957855,-0.235526,0,-1.5,-nan,0,0,0,-0.471052,0.191571,0,0,0,0,0.017063,-0.00748652,17152,-0.471189,0.191631,0.017063,-0.00748652,10979
11002,-3.11565e-12,1.49295e-38,-1.5164e-06,-3.18057e-12,1.49284e-38,-3.61065e-12,-1.06598e-13,0,0,-3.61094,0.173901,0.509314,0,0,0,0,0,-0.546987,0.173901,237,-65,237,-65,359,-72,241,62,-0.0957219,-0.235381,0,-1.5,-nan,0,0,0,-0.470762,0.191444,0,0,0,0,0.017063,-0.00748652,17152,-0.471189,0.191631,0.017063,-0.00748652,10979
11025,-3.11565e-12,1.49295e-38,-1.5164e-06,-3.18057e-12,1.49284e-38,0,-1.066e-13,0,0,-3.54766,0.186518,0.477817,0,0,0,0,0,-0.460297,0.186518,231,-65,231,-65,358,-75,241,62,-0.093464,-0.232937,0,-1.5,-nan,0,0,0,-0.465874,0.186928,0,0,0,0,0.0235799,-0.0113114,18358,-0.466393,0.187177,0.0235799,-0.0113114,11011
11051,-3.11565e-12,1.49295e-38,-1.5164e-06,-3.18057e-12,1.49284e-38,-3.61065e-12,-1.06601e-13,0,0,-3.53744,0.185658,0.47586,0,0,0,0,0,-0.446295,0.185658,231,-67,231,-67,358,-75,241,62,-0.0928178,-0.23031,0,-1.5,-nan,0,0,0,-0.460621,0.185636,0,0,0,0,0.0251094,-0.0121651,18358,-0.460796,0.185721,0.0251094,-0.0121651,11046
11064,-3.11565e-12,1.49295e-38,-1.5164e-06,-3.18057e-12,1.49284e-38,0,-1.06601e-13,0,0,-3.53744,0.185658,0.47586,0,0,0,0,0,-0.446295,0.185658,231,-67,231,-67,358,-75,241,62,-0.0927388,-0.230147,0,-1.5,-nan,0,0,0,-0.460294,0.185478,0,0,0,0,0.0251094,-0.0121651,18358,-0.460796,0.185721,0.0251094,-0.0121651,11046
11137,-3.11565e-12,1.49295e-38,-1.5164e-06,-3.18057e-12,1.49284e-38,-3.61065e-12,-1.06601e-13,0,0,-3.58509,0.191842,0.507049,0,0,0,0,0,-0.511568,0.191842,231,-67,231,-67,356,-73,241,59,-0.0927108,-0.231828,0,-1.5,-nan,0,0,0,-0.463656,0.185422,0,0,0,0,0.0214513,-0.0118719,17688,-0.465222,0.186288,0.0214513,-0.0118719,11123
11160,-3.11565e-12,1.49295e-38,-1.5164e-06,-3.18057e-12,1.49284e-38,0,-1.06602e-13,0,0,-3.53329,0.17397,0.465829,0,0,0,0,0,-0.440602,0.17397,231,-65,231,-65,359,-72,241,59,-0.0922565,-0.228724,0,-1.5,-nan,0,0,0,-0.457448,0.184513,0,0,0,0,0.0264742,-0.0123071,18078,-0.458057,0.184796,0.0264742,-0.0123071,11146
11185,-3.11565e-12,1.49295e-38,-1.5164e-06,-3.18057e-12,1.49284e-38,-3.61065e-12,-1.06602e-13,0,0,-3.56834,0.204156,0.477211,0,0,0,0,0,-0.488626,0.204156,231,-65,231,-65,355,-72,238,62,-0.091948,-0.231361,0,-1.5,-nan,0,0,0,-0.462722,0.183896,0,0,0,0,0.0206434,-0.014104,17688,-0.462908,0.184023,0.0206434,-0.014104,11178
11207,-3.11565e-12,1.49295e-38,-1.5164e-06,-3.18057e-12,1.49284e-38,0,-1.06602e-13,0,0,-3.56834,0.204156,0.477211,0,0,0,0,0,-0.488626,0.204156,231,-65,231,-65,355,-72,238,62,-0.0917999,-0.231144,0,-1.5,-nan,0,0,0,-0.462289,0.1836,0,0,0,0,0.0206434,-0.014104,17688,-0.462908,0.184023,0.0206434,-0.014104,11178
11229,-3.11565e-12,1.49295e-38,-1.5164e-06,-3.18057e-12,1.49284e-38,-3.61065e-12,-1.06602e-13,0,0,-3.56304,0.191471,0.463059,0,0,0,0,0,-0.48136,0.191471,234,-63,234,-63,359,-72,238,65,-0.0934539,-0.240304,0,-1.5,-nan,0,0,0,-0.480608,0.186908,0,0,0,0,-0.00553029,-0.0114613,17536,-0.480481,0.187171,-0.00553029,-0.0114613,11215
11252,-3.11565e-12,1.49295e-38,-1.5164e-06,-3.18057e-12,1.49284e-38,0,-1.06603e-13,0,0,-3.53941,0.198978,0.455474,0,0,0,0,0,-0.448998,0.198978,231,-64,231,-64,358,-73,238,65,-0.0954288,-0.239839,0,-1.5,-nan,0,0,0,-0.479678,0.190858,0,0,0,0,-0.00628649,-0.00653199,18078,-0.479615,0.190923,-0.00628649,-0.00653199,11244
11276,-3.11567e-12,1.49073e-38,1.49303e-38,-3.18057e-12,1.49284e-38,-3.61065e-12,-1.06603e-13,0,0,-3.53941,0.198978,0.455474,0,0,0,0,0,-0.448998,0.198978,231,-64,231,-64,358,-73,238,65,-0.0953537,-0.239911,0,-1.5,-nan,0,0,0,-0.479822,0.190707,0,0,0,0,-0.00628649,-0.00653199,18078,-0.479615,0.190923,-0.00628649,-0.00653199,11244
11298,-3.11565e-12,1.49295e-38,-1.5164e-06,-3.18057e-12,1.49284e-38,0,-1.06603e-13,0,0,-3.57004,0.194021,0.467161,0,0,0,0,0,-0.490955,0.194021,234,-63,234,-63,358,-72,238,65,-0.0952035,-0.240581,0,-1.5,-nan,0,0,0,-0.481163,0.190407,0,0,0,0,-0.00800023,-0.00704637,17536,-0.480979,0.190569,-0.00800023,-0.00704637,11284
11356,-3.11565e-12,1.49295e-38,-1.5164e-06,-3.18057e-12,1.49284e-38,-3.61065e-12,-1.06603e-13,0,0,-3.54135,0.198802,0.452326,0,0,0,0,0,-0.451652,0.198802,231,-64,231,-64,358,-72,238,65,-0.0954067,-0.239771,0,-1.5,-nan,0,0,0,-0.479542,0.190813,0,0,0,0,-0.00588629,-0.00671369,17947,-0.479201,0.191203,-0.00588629,-0.00671369,11342
11374,-3.11565e-12,1.49295e-38,-1.5164e-06,-3.18057e-12,1.49284e-38,0,-1.06604e-13,0,0,-3.54135,0.198802,0.452326,0,0,0,0,0,-0.451652,0.198802,231,-64,231,-64,358,-72,238,65,-0.0953463,-0.239824,0,-1.5,-nan,0,0,0,-0.479648,0.190693,0,0,0,0,-0.00588629,-0.00671369,17947,-0.479201,0.191203,-0.00588629,-0.00671369,11342
11399,-3.11565e-12,1.49295e-38,-1.5164e-06,-3.18057e-12,1.49284e-38,-3.61065e-12,-1.06604e-13,0,0,-3.60471,0.195087,0.47722,0,0,0,0,0,-0.538455,0.195087,234,-63,234,-63,358,-67,238,65,-0.0951157,-0.241731,0,-1.5,-nan,0,0,0,-0.483461,0.190231,0,0,0,0,-0.0099129,-0.00737042,16896,-0.483213,0.190416,-0.0099129,-0.00737042,11384
11426,-3.11565e-12,1.49295e-38,-1.5164e-06,-3.18057e-12,1.49284e-38,0,-1.06604e-13,0,0,-3.60569,0.195257,0.49096,0,0,0,0,0,-0.539793,0.195257,234,-63,234,-63,358,-70,238,62,-0.0960883,-0.243909,0,-1.5,-nan,0,0,0,-0.487818,0.192177,0,0,0,0,-0.0149028,-0.00575693,16896,-0.487416,0.192332,-0.0149028,-0.00575693,11412
11464,-3.11565e-12,1.49295e-38,-1.5164e-06,-3.18057e-12,1.49284e-38,-3.61065e-12,-1.06605e-13,0,0,-3.54894,0.197052,0.456704,0,0,0,0,0,-0.462052,0.197052,231,-64,231,-64,358,-72,239,65,-0.0969856,-0.239626,0,-1.5,-nan,0,0,0,-0.479252,0.193971,0,0,0,0,0.00279028,-0.00219959,17947,-0.479358,0.194055,0.00279028,-0.00219959,11450
11489,-3.11565e-12,1.49295e-38,-1.5164e-06,-3.18057e-12,1.49284e-38,0,-1.06605e-13,0,0,-3.54135,0.198802,0.452326,0,0,0,0,0,-0.451652,0.198802,231,-64,231,-64,358,-72,238,65,-0.0974057,-0.231824,0,-1.5,-nan,0,0,0,-0.463648,0.194811,0,0,0,0,0.0155003,-0.000262813,17947,-0.463865,0.194815,0.0155003,-0.000262813,11477
11516,-3.11565e-12,1.49295e-38,-1.5164e-06,-3.18057e-12,1.49284e-38,-3.61065e-12,-1.06605e-13,0,0,-3.55518,0.197044,0.46735,0,0,0,0,0,-0.470596,0.197044,231,-64,231,-64,359,-72,238,62,-0.0978574,-0.235299,0,-1.5,-nan,0,0,0,-0.470597,0.195715,0,0,0,0,0.0107,0.00346672,17554,-0.470683,0.195687,0.0107,0.00346672,11510
11533,-3.11565e-12,1.49295e-38,-1.5164e-06,-3.18057e-12,1.49284e-38,0,-1.06605e-13,0,0,-3.55518,0.197044,0.46735,0,0,0,0,0,-0.470596,0.197044,231,-64,231,-64,359,-72,238,62,-0.0978869,-0.235208,0,-1.5,-nan,0,0,0,-0.470415,0.195774,0,0,0,0,0.0107,0.00346672,17554,-0.470683,0.195687,0.0107,0.00346672,11510
11560,-3.11565e-12,1.49295e-38,-1.5164e-06,-3.18057e-12,1.49284e-38,-3.61065e-12,-1.06606e-13,0,0,-3.5979,0.190931,0.488315,0,0,0,0,0,-0.529121,0.190931,234,-62,234,-62,359,-72,239,62,-0.0976108,-0.234434,0,-1.5,-nan,0,0,0,-0.468868,0.195222,0,0,0,0,0.0183201,0.00327258,17152,-0.469362,0.195133,0.0183201,0.00327258,11546
11583,-3.11565e-12,1.49295e-38,-1.5164e-06,-3.18057e-12,1.49284e-38,0,-1.06606e-13,0,0,-3.57004,0.194021,0.467161,0,0,0,0,0,-0.490955,0.194021,234,-63,234,-63,358,-72,238,65,-0.0985662,-0.234065,0,-1.5,-nan,0,0,0,-0.46813,0.197132,0,0,0,0,0.0294157,0.010061,17536,-0.468365,0.197052,0.0294157,0.010061,11577
11602,-3.11565e-12,1.49295e-38,-1.5164e-06,-3.18057e-12,1.49284e-38,-3.61065e-12,-1.06606e-13,0,0,-3.57004,0.194021,0.467161,0,0,0,0,0,-0.490955,0.194021,234,-63,234,-63,358,-72,238,65,-0.0986618,-0.233785,0,-1.5,-nan,0,0,0,-0.467571,0.197324,0,0,0,0,0.0294157,0.010061,17536,-0.468365,0.197052,0.0294157,0.010061,11577
11654,-3.11565e-12,1.49295e-38,-1.5164e-06,-3.18057e-12,1.49284e-38,0,-1.06606e-13,0,0,-3.55518,0.197044,0.46735,0,0,0,0,0,-0.470596,0.197044,231,-64,231,-64,359,-72,238,62,-0.0993614,-0.234278,0,-1.5,-nan,0,0,0,-0.468557,0.198723,0,0,0,0,0.0280992,0.0120127,17554,-0.468894,0.198579,0.0280992,0.0120127,11644
11671,-3.11565e-12,1.49295e-38,-1.5164e-06,-3.18057e-12,1.49284e-38,-3.61065e-12,-1.06607e-13,0,0,-3.55518,0.197044,0.46735,0,0,0,0,0,-0.470596,0.197044,231,-64,231,-64,359,-72,238,62,-0.0994575,-0.234054,0,-1.5,-nan,0,0,0,-0.468107,0.198915,0,0,0,0,0.0280992,0.0120127,17554,-0.468894,0.198579,0.0280992,0.0120127,11644
11693,-3.11565e-12,1.49295e-38,-1.5164e-06,-3.18057e-12,1.49284e-38,0,-1.06607e-13,0,0,-3.57004,0.194021,0.467161,0,0,0,0,0,-0.490955,0.194021,234,-63,234,-63,358,-72,238,65,-0.100273,-0.245575,0,-1.5,-nan,0,0,0,-0.491151,0.200546,0,0,0,0,-0.0150541,0.0185428,17536,-0.490805,0.200119,-0.0150541,0.0185428,11679
11748,-3.11565e-12,1.49295e-38,-1.5164e-06,-3.18057e-12,1.49284e-38,-3.61065e-12,-1.06607e-13,0,0,-3.57392,0.175645,0.473179,0,0,0,0,0,-0.496274,0.175645,234,-63,234,-63,358,-68,239,60,-0.101645,-0.248474,0,-1.5,-nan,0,0,0,-0.496948,0.20329,0,0,0,0,-0.0301395,0.0232404,17280,-0.496737,0.203127,-0.0301395,0.0232404,11743
11766,-3.11565e-12,1.49295e-38,-1.5164e-06,-3.18057e-12,1.49284e-38,0,-1.06608e-13,0,0,-3.57392,0.175645,0.473179,0,0,0,0,0,-0.496274,0.175645,234,-63,234,-63,358,-68,239,60,-0.101854,-0.248745,0,-1.5,-nan,0,0,0,-0.497491,0.203708,0,0,0,0,-0.0301395,0.0232404,17280,-0.496737,0.203127,-0.0301395,0.0232404,11743
11793,-3.11565e-12,1.49295e-38,-1.5164e-06,-3.18057e-12,1.49284e-38,-3.61065e-12,-1.06608e-13,0,0,-3.5826,0.174355,0.47203,0,0,0,0,0,-0.508158,0.174355,234,-60,234,-60,359,-68,239,60,-0.0997843,-0.249694,0,-1.5,-nan,0,0,0,-0.499388,0.199569,0,0,0,0,-0.0334343,0.0140225,17280,-0.498486,0.19919,-0.0334343,0.0140225,11779
11808,-3.11565e-12,1.49295e-38,-1.5164e-06,-3.18057e-12,1.49284e-38,0,-1.06608e-13,0,0,-3.5826,0.174355,0.47203,0,0,0,0,0,-0.508158,0.174355,234,-60,234,-60,359,-68,239,60,-0.0998895,-0.249945,0,-1.5,-nan,0,0,0,-0.49989,0.199779,0,0,0,0,-0.0334343,0.0140225,17280,-0.498486,0.19919,-0.0334343,0.0140225,11779
11830,-3.11565e-12,1.49295e-38,-1.5164e-06,-3.18057e-12,1.49284e-38,-3.61065e-12,-1.06608e-13,0,0,-3.65238,0.184548,0.507898,0,0,0,0,0,-0.603757,0.184548,237,-60,237,-60,359,-68,239,62,-0.0976582,-0.255233,0,-1.5,-nan,0,0,0,-0.510467,0.195316,0,0,0,0,-0.0517228,0.0043627,16380,-0.509329,0.19522,-0.0517228,0.0043627,11816
11858,-3.11565e-12,1.49295e-38,-1.5164e-06,-3.18057e-12,1.49284e-38,0,-1.06609e-13,0,0,-3.58572,0.180209,0.484071,0,0,0,0,0,-0.51243,0.180209,234,-65,234,-65,359,-68,239,60,-0.0972968,-0.255588,0,-1.5,-nan,0,0,0,-0.511176,0.194594,0,0,0,0,-0.0450467,0.00131529,16896,-0.510545,0.194575,-0.0450467,0.00131529,11846
11874,-3.11565e-12,1.49295e-38,-1.5164e-06,-3.18057e-12,1.49284e-38,-3.61065e-12,-1.06609e-13,0,0,-3.58572,0.180209,0.484071,0,0,0,0,0,-0.51243,0.180209,234,-65,234,-65,359,-68,239,60,-0.097308,-0.255971,0,-1.5,-nan,0,0,0,-0.511942,0.194616,0,0,0,0,-0.0450467,0.00131529,16896,-0.510545,0.194575,-0.0450467,0.00131529,11846
11904,-3.11565e-12,1.49295e-38,-1.5164e-06,-3.18057e-12,1.49284e-38,0,-1.06609e-13,0,0,-3.56516,0.167242,0.454199,0,0,0,0,0,-0.484272,0.167242,237,-63,237,-63,358,-68,240,66,-0.0953557,-0.251535,0,-1.5,-nan,0,0,0,-0.50307,0.190711,0,0,0,0,-0.0313121,-0.0082614,17688,-0.502131,0.190959,-0.0313121,-0.0082614,11890
11927,-3.11565e-12,1.49295e-38,-1.5164e-06,-3.18057e-12,1.49284e-38,-3.61065e-12,-1.06609e-13,0,0,-3.5286,0.172319,0.436825,0,0,0,0,0,-0.434177,0.172319,234,-63,234,-63,358,-70,240,66,-0.0926415,-0.249835,0,-1.5,-nan,0,0,0,-0.49967,0.185283,0,0,0,0,-0.0280964,-0.0147573,18360,-0.499024,0.185622,-0.0280964,-0.0147573,11913
11950,-3.11565e-12,1.49295e-38,-1.5164e-06,-3.18057e-12,1.49284e-38,0,-1.0661e-13,0,0,-3.53377,0.172729,0.437799,0,0,0,0,0,-0.441263,0.172729,234,-62,234,-62,358,-70,240,66,-0.0915289,-0.250586,0,-1.5,-nan,0,0,0,-0.501173,0.183058,0,0,0,0,-0.0267133,-0.0168046,18360,-0.500959,0.183192,-0.0267133,-0.0168046,11944
11971,-3.11565e-12,1.49295e-38,-1.5164e-06,-3.18057e-12,1.49284e-38,-3.61065e-12,-1.0661e-13,0,0,-3.53377,0.172729,0.437799,0,0,0,0,0,-0.441263,0.172729,234,-62,234,-62,358,-70,240,66,-0.0913524,-0.250867,0,-1.5,-nan,0,0,0,-0.501734,0.182705,0,0,0,0,-0.0267133,-0.0168046,18360,-0.500959,0.183192,-0.0267133,-0.0168046,11944
11994,-3.11565e-12,1.49295e-38,-1.5164e-06,-3.18057e-12,1.49284e-38,0,-1.0661e-13,0,0,-3.59823,0.177392,0.46655,0,0,0,0,0,-0.529581,0.177392,237,-62,237,-62,358,-68,240,66,-0.0909642,-0.255023,0,-1.5,-nan,0,0,0,-0.510047,0.181928,0,0,0,0,-0.0507366,-0.0168304,17152,-0.50888,0.182316,-0.0507366,-0.0168304,11980
12165,-3.11565e-12,1.49295e-38,-1.5164e-06,-3.18057e-12,1.49284e-38,-3.61065e-12,-1.06611e-13,0,0,-3.53455,0.172172,0.438637,0,0,0,0,0,-0.442336,0.172172,234,-63,234,-63,359,-68,239,65,-0.0862314,-0.251718,0,-1.5,-nan,0,0,0,-0.503436,0.172463,0,0,0,0,-0.0215058,-0.0282286,17955,-0.49978,0.177262,-0.0215058,-0.0282286,12036
12187,-3.11565e-12,1.49295e-38,-1.5164e-06,-3.18057e-12,1.49284e-38,0,-1.06611e-13,0,0,-3.53455,0.172172,0.438637,0,0,0,0,0,-0.442336,0.172172,234,-63,234,-63,359,-68,239,65,-0.0859068,-0.251965,0,-1.5,-nan,0,0,0,-0.503931,0.171814,0,0,0,0,-0.0215058,-0.0282286,17955,-0.49978,0.177262,-0.0215058,-0.0282286,12036
12203,-3.11565e-12,1.49295e-38,-1.5164e-06,-3.18057e-12,1.49284e-38,-3.61065e-12,-1.06611e-13,0,0,-3.53455,0.172172,0.438637,0,0,0,0,0,-0.442336,0.172172,234,-63,234,-63,359,-68,239,65,-0.085681,-0.252137,0,-1.5,-nan,0,0,0,-0.504275,0.171362,0,0,0,0,-0.0215058,-0.0282286,17955,-0.49978,0.177262,-0.0215058,-0.0282286,12036
12250,-3.11565e-12,1.49295e-38,-1.5164e-06,-3.18057e-12,1.49284e-38,0,-1.06611e-13,0,0,-3.53806,0.166616,0.442122,0,0,0,0,0,-0.447144,0.166616,237,-62,237,-62,358,-72,240,66,-0.0831019,-0.240472,0,-1.5,-nan,0,0,0,-0.480944,0.166204,0,0,0,0,0.00901432,-0.0331909,18216,-0.481016,0.166469,0.00901432,-0.0331909,12245
12264,-3.11565e-12,1.49295e-38,-1.5164e-06,-3.18057e-12,1.49284e-38,-3.61065e-12,-1.06612e-13,0,0,-3.53806,0.166616,0.442122,0,0,0,0,0,-0.447144,0.166616,237,-62,237,-62,358,-72,240,66,-0.0828695,-0.240409,0,-1.5,-nan,0,0,0,-0.480817,0.165739,0,0,0,0,0.00901432,-0.0331909,18216,-0.481016,0.166469,0.00901432,-0.0331909,12245
12287,-3.11565e-12,1.49295e-38,-1.5164e-06,-3.18057e-12,1.49284e-38,0,-1.06612e-13,0,0,-3.50981,0.168248,0.419129,0,0,0,0,0,-0.408435,0.168248,234,-65,234,-65,359,-68,240,66,-0.0825381,-0.225633,0,-1.5,-nan,0,0,0,-0.451267,0.165076,0,0,0,0,0.0399729,-0.033695,18090,-0.451747,0.165481,0.0399729,-0.033695,12277
12308,-3.11565e-12,1.49295e-38,-1.5164e-06,-3.18057e-12,1.49284e-38,-3.61065e-12,-1.06612e-13,0,0,-3.50981,0.168248,0.419129,0,0,0,0,0,-0.408435,0.168248,234,-65,234,-65,359,-68,240,66,-0.0822012,-0.225234,0,-1.5,-nan,0,0,0,-0.450468,0.164402,0,0,0,0,0.0399729,-0.033695,18090,-0.451747,0.165481,0.0399729,-0.033695,12277
12333,-3.11565e-12,1.49295e-38,-1.5164e-06,-3.18057e-12,1.49284e-38,0,-1.06612e-13,0,0,-3.54356,0.163681,0.43477,0,0,0,0,0,-0.454672,0.163681,237,-63,237,-63,359,-68,240,66,-0.0816902,-0.226752,0,-1.5,-nan,0,0,0,-0.453504,0.16338,0,0,0,0,0.0311991,-0.0342626,17688,-0.454315,0.164271,0.0311991,-0.0342626,12318
12356,-3.11565e-12,1.49295e-38,-1.5164e-06,-3.18057e-12,1.49284e-38,-3.61065e-12,-1.06613e-13,0,0,-3.5406,0.178248,0.425904,0,0,0,0,0,-0.450626,0.178248,234,-63,234,-63,359,-68,240,66,-0.0816293,-0.225044,0,-1.5,-nan,0,0,0,-0.450087,0.163259,0,0,0,0,0.0339208,-0.0335341,17554,-0.450495,0.163661,0.0339208,-0.0335341,12346
12382,-3.11565e-12,1.49295e-38,-1.5164e-06,-3.18057e-12,1.49284e-38,0,-1.06613e-13,0,0,-3.51502,0.16581,0.42705,0,0,0,0,0,-0.415583,0.16581,234,-65,234,-65,361,-67,239,63,-0.0813191,-0.224769,0,-1.5,-nan,0,0,0,-0.449538,0.162638,0,0,0,0,0.0385558,-0.0334175,17550,-0.449808,0.162872,0.0385558,-0.0334175,12377
12399,-3.11565e-12,1.49295e-38,-1.5164e-06,-3.18057e-12,1.49284e-38,-3.61065e-12,-1.06613e-13,0,0,-3.51502,0.16581,0.42705,0,0,0,0,0,-0.415583,0.16581,234,-65,234,-65,361,-67,239,63,-0.081035,-0.224441,0,-1.5,-nan,0,0,0,-0.448882,0.16207,0,0,0,0,0.0385558,-0.0334175,17550,-0.449808,0.162872,0.0385558,-0.0334175,12377
12429,-3.11565e-12,1.49295e-38,-1.5164e-06,-3.18057e-12,1.49284e-38,0,-1.06614e-13,0,0,-3.5632,0.17286,0.439063,0,0,0,0,0,-0.481579,0.17286,237,-63,237,-63,359,-68,240,66,-0.0817429,-0.223247,0,-1.5,-nan,0,0,0,-0.446493,0.163486,0,0,0,0,0.0511039,-0.0308758,17152,-0.448026,0.164412,0.0511039,-0.0308758,12415
12452,-3.11565e-12,1.49295e-38,-1.5164e-06,-3.18057e-12,1.49284e-38,-3.61065e-12,-1.06614e-13,0,0,-3.57008,0.168831,0.457008,0,0,0,0,0,-0.491005,0.168831,237,-63,237,-63,361,-68,239,63,-0.0813619,-0.222825,0,-1.5,-nan,0,0,0,-0.44565,0.162724,0,0,0,0,0.0576998,-0.031042,16899,-0.446227,0.163034,0.0576998,-0.031042,12444
12492,-3.11565e-12,1.49295e-38,-1.5164e-06,-3.18057e-12,1.49284e-38,0,-1.06614e-13,0,0,-3.53947,0.180234,0.427612,0,0,0,0,0,-0.449075,0.180234,234,-63,234,-63,359,-68,239,65,-0.0809962,-0.221675,0,-1.5,-nan,0,0,0,-0.44335,0.161992,0,0,0,0,0.0583131,-0.0304873,17423,-0.445682,0.163212,0.0583131,-0.0304873,12478
12520,-3.11565e-12,1.49295e-38,-1.5164e-06,-3.18057e-12,1.49284e-38,-3.61065e-12,-1.06614e-13,0,0,-3.55382,0.166292,0.451992,0,0,0,0,0,-0.468729,0.166292,237,-62,237,-62,359,-70,239,62,-0.0804959,-0.221532,0,-1.5,-nan,0,0,0,-0.443064,0.160992,0,0,0,0,0.0581522,-0.0304426,17424,-0.443587,0.161266,0.0581522,-0.0304426,12512
12536,-3.11565e-12,1.49295e-38,-1.5164e-06,-3.18057e-12,1.49284e-38,0,-1.06615e-13,0,0,-3.55382,0.166292,0.451992,0,0,0,0,0,-0.468729,0.166292,237,-62,237,-62,359,-70,239,62,-0.0802371,-0.221038,0,-1.5,-nan,0,0,0,-0.442075,0.160474,0,0,0,0,0.0581522,-0.0304426,17424,-0.443587,0.161266,0.0581522,-0.0304426,12512
12556,-3.11565e-12,1.49295e-38,-1.5164e-06,-3.18057e-12,1.49284e-38,-3.61065e-12,-1.06615e-13,0,0,-3.59145,0.179077,0.471428,0,0,0,0,0,-0.520288,0.179077,237,-62,237,-62,358,-70,239,63,-0.0801647,-0.222286,0,-1.5,-nan,0,0,0,-0.444571,0.160329,0,0,0,0,0.0542773,-0.0323775,17024,-0.445331,0.160783,0.0542773,-0.0323775,12544
12574,-3.11565e-12,1.49295e-38,-1.5164e-06,-3.18057e-12,1.49284e-38,0,-1.06615e-13,0,0,-3.59145,0.179077,0.471428,0,0,0,0,0,-0.520288,0.179077,237,-62,237,-62,358,-70,239,63,-0.0798733,-0.221797,0,-1.5,-nan,0,0,0,-0.443594,0.159747,0,0,0,0,0.0542773,-0.0323775,17024,-0.445331,0.160783,0.0542773,-0.0323775,12544
12596,-3.11565e-12,1.49295e-38,-1.5164e-06,-3.18057e-12,1.49284e-38,-3.61065e-12,-1.06615e-13,0,0,-3.55359,0.16858,0.449563,0,0,0,0,0,-0.468412,0.16858,237,-62,237,-62,358,-70,239,63,-0.0818085,-0.230728,0,-1.5,-nan,0,0,0,-0.461457,0.163617,0,0,0,0,0.0314394,-0.0266573,17556,-0.462149,0.164203,0.0314394,-0.0266573,12582
12651,-3.11565e-12,1.49295e-38,-1.5164e-06,-3.18057e-12,1.49284e-38,0,-1.06616e-13,0,0,-3.55474,0.170982,0.445199,0,0,0,0,0,-0.469996,0.170982,237,-63,237,-63,358,-70,240,66,-0.0818937,-0.232829,0,-1.5,-nan,0,0,0,-0.465658,0.163787,0,0,0,0,0.0256028,-0.0245167,17680,-0.465888,0.164008,0.0256028,-0.0245167,12644
12669,-3.11565e-12,1.49295e-38,-1.5164e-06,-3.18057e-12,1.49284e-38,-3.61065e-12,-1.06616e-13,0,0,-3.55474,0.170982,0.445199,0,0,0,0,0,-0.469996,0.170982,237,-63,237,-63,358,-70,240,66,-0.0816731,-0.232598,0,-1.5,-nan,0,0,0,-0.465197,0.163346,0,0,0,0,0.0256028,-0.0245167,17680,-0.465888,0.164008,0.0256028,-0.0245167,12644
12692,-3.11565e-12,1.49295e-38,-1.5164e-06,-3.18057e-12,1.49284e-38,0,-1.06616e-13,0,0,-3.48462,0.163091,0.408435,0,0,0,0,0,-0.373924,0.163091,234,-65,234,-65,361,-70,240,66,-0.0813152,-0.230105,0,-1.5,-nan,0,0,0,-0.460209,0.16263,0,0,0,0,0.0329076,-0.0242014,18360,-0.460933,0.163163,0.0329076,-0.0242014,12677
12736,-3.11565e-12,1.49295e-38,-1.5164e-06,-3.18057e-12,1.49284e-38,-3.61065e-12,-1.06616e-13,0,0,-3.54356,0.163681,0.43477,0,0,0,0,0,-0.454672,0.163681,237,-63,237,-63,359,-68,240,66,-0.081211,-0.228136,0,-1.5,-nan,0,0,0,-0.456273,0.162422,0,0,0,0,0.0324111,-0.0197598,17688,-0.457731,0.163311,0.0324111,-0.0197598,12722
12761,-3.11565e-12,1.49295e-38,-1.5164e-06,-3.18057e-12,1.49284e-38,0,-1.06617e-13,0,0,-3.56671,0.169032,0.447991,0,0,0,0,0,-0.48639,0.169032,237,-63,237,-63,361,-68,240,66,-0.0818454,-0.229616,0,-1.5,-nan,0,0,0,-0.459233,0.163691,0,0,0,0,0.0315229,-0.0172733,17152,-0.460021,0.164123,0.0315229,-0.0172733,12747
12784,-3.11565e-12,1.49295e-38,-1.5164e-06,-3.18057e-12,1.49284e-38,-3.61065e-12,-1.06617e-13,0,0,-3.59412,0.176789,0.457485,0,0,0,0,0,-0.523943,0.176789,237,-62,237,-62,358,-67,240,66,-0.0835478,-0.228921,0,-1.5,-nan,0,0,0,-0.457842,0.167096,0,0,0,0,0.0298835,-0.00800721,17024,-0.458081,0.16716,0.0298835,-0.00800721,12778
12842,-3.11565e-12,1.49295e-38,-1.5164e-06,-3.18057e-12,1.49284e-38,0,-1.06617e-13,0,0,-3.56087,0.166434,0.44976,0,0,0,0,0,-0.478397,0.166434,237,-62,237,-62,359,-68,239,63,-0.0830459,-0.230511,0,-1.5,-nan,0,0,0,-0.461022,0.166092,0,0,0,0,0.0266712,-0.00803004,17292,-0.462569,0.166558,0.0266712,-0.00803004,12827
12865,-3.11565e-12,1.49295e-38,-1.5164e-06,-3.18057e-12,1.49284e-38,-3.61065e-12,-1.06618e-13,0,0,-3.57023,0.164946,0.450448,0,0,0,0,0,-0.491218,0.164946,237,-62,237,-62,358,-68,241,65,-0.0831223,-0.231666,0,-1.5,-nan,0,0,0,-0.463333,0.166245,0,0,0,0,0.0264222,-0.00799697,17556,-0.463914,0.16642,0.0264222,-0.00799697,12850
12894,-3.11565e-12,1.49295e-38,-1.5164e-06,-3.18057e-12,1.49284e-38,0,-1.06618e-13,0,0,-3.58876,0.163496,0.460883,0,0,0,0,0,-0.516607,0.163496,240,-63,240,-63,361,-68,240,66,-0.082791,-0.23421,0,-1.5,-nan,0,0,0,-0.46842,0.165582,0,0,0,0,0.0119229,-0.00781848,16750,-0.468778,0.165817,0.0119229,-0.00781848,12880
12918,-3.11565e-12,1.49295e-38,-1.5164e-06,-3.18057e-12,1.49284e-38,-3.61065e-12,-1.06618e-13,0,0,-3.58061,0.157452,0.463227,0,0,0,0,0,-0.505436,0.157452,237,-65,237,-65,365,-65,241,62,-0.0822887,-0.242916,0,-1.5,-nan,0,0,0,-0.485832,0.164577,0,0,0,0,-0.0443557,-0.00844262,16256,-0.485389,0.164662,-0.0443557,-0.00844262,12910
12946,-3.11565e-12,1.49295e-38,-1.5164e-06,-3.18057e-12,1.49284e-38,0,-1.06618e-13,0,0,-3.58061,0.157452,0.463227,0,0,0,0,0,-0.505436,0.157452,237,-65,237,-65,365,-65,241,62,-0.0821705,-0.243537,0,-1.5,-nan,0,0,0,-0.487074,0.164341,0,0,0,0,-0.0443557,-0.00844262,16256,-0.485389,0.164662,-0.0443557,-0.00844262,12910
12970,-3.11565e-12,1.49295e-38,-1.5164e-06,-3.18057e-12,1.49284e-38,-3.61065e-12,-1.06619e-13,0,0,-3.59128,0.1337,0.470206,0,0,0,0,0,-0.52005,0.1337,240,-63,240,-63,365,-65,243,59,-0.0818538,-0.250138,0,-1.5,-nan,0,0,0,-0.500275,0.163708,0,0,0,0,-0.0591482,-0.00871457,16506,-0.499684,0.163795,-0.0591482,-0.00871457,12962
12989,-3.11565e-12,1.49295e-38,-1.5164e-06,-3.18057e-12,1.49284e-38,0,-1.06619e-13,0,0,-3.59128,0.1337,0.470206,0,0,0,0,0,-0.52005,0.1337,240,-63,240,-63,365,-65,243,59,-0.0817711,-0.2507,0,-1.5,-nan,0,0,0,-0.501399,0.163542,0,0,0,0,-0.0591482,-0.00871457,16506,-0.499684,0.163795,-0.0591482,-0.00871457,12962
13010,-3.11565e-12,1.49295e-38,-1.5164e-06,-3.18057e-12,1.49284e-38,-3.61065e-12,-1.06619e-13,0,0,-3.59128,0.1337,0.470206,0,0,0,0,0,-0.52005,0.1337,240,-63,240,-63,365,-65,243,59,-0.0816796,-0.251321,0,-1.5,-nan,0,0,0,-0.502641,0.163359,0,0,0,0,-0.0591482,-0.00871457,16506,-0.499684,0.163795,-0.0591482,-0.00871457,12962
13026,-3.11565e-12,1.49295e-38,-1.5164e-06,-3.18057e-12,1.49284e-38,0,-1.06619e-13,0,0,-3.59128,0.1337,0.470206,0,0,0,0,0,-0.52005,0.1337,240,-63,240,-63,365,-65,243,59,-0.0816098,-0.251794,0,-1.5,-nan,0,0,0,-0.503587,0.16322,0,0,0,0,-0.0591482,-0.00871457,16506,-0.499684,0.163795,-0.0591482,-0.00871457,12962
13049,-3.11565e-12,1.49295e-38,-1.5164e-06,-3.18057e-12,1.49284e-38,-3.61065e-12,-1.0662e-13,0,0,-3.58999,0.1232,0.468906,0,0,0,0,0,-0.518289,0.1232,246,-64,246,-64,365,-67,242,62,-0.0815085,-0.25106,0,-1.5,-nan,0,0,0,-0.502119,0.163017,0,0,0,0,-0.0570503,-0.00895623,16641,-0.501663,0.163089,-0.0570503,-0.00895623,13044
13073,-3.11565e-12,1.49295e-38,-1.5164e-06,-3.18057e-12,1.49284e-38,0,-1.0662e-13,0,0,-3.58999,0.1232,0.468906,0,0,0,0,0,-0.518289,0.1232,246,-64,246,-64,365,-67,242,62,-0.081401,-0.251744,0,-1.5,-nan,0,0,0,-0.503489,0.162802,0,0,0,0,-0.0570503,-0.00895623,16641,-0.501663,0.163089,-0.0570503,-0.00895623,13044
13096,-3.11565e-12,1.49295e-38,-1.5164e-06,-3.18057e-12,1.49284e-38,-3.61065e-12,-1.0662e-13,0,0,-3.60333,0.125832,0.476442,0,0,0,0,0,-0.536565,0.125832,246,-64,246,-64,368,-67,242,62,-0.0801325,-0.255925,0,-1.5,-nan,0,0,0,-0.511849,0.160265,0,0,0,0,-0.0648559,-0.0100429,16254,-0.510358,0.160496,-0.0648559,-0.0100429,13082
13119,-3.11565e-12,1.49295e-38,-1.5164e-06,-3.18057e-12,1.49284e-38,0,-1.06621e-13,0,0,-3.60333,0.125832,0.476442,0,0,0,0,0,-0.536565,0.125832,246,-64,246,-64,368,-67,242,62,-0.080877,-0.260819,0,-1.5,-nan,0,0,0,-0.521637,0.161754,0,0,0,0,-0.0785341,-0.00986567,16254,-0.519831,0.161981,-0.0785341,-0.00986567,13105
13176,-3.11565e-12,1.49295e-38,-1.5164e-06,-3.18057e-12,1.49284e-38,-3.61065e-12,-1.06621e-13,0,0,-3.62575,0.124089,0.485288,0,0,0,0,0,-0.567277,0.124089,246,-64,246,-64,368,-65,243,62,-0.0772458,-0.261799,0,-1.5,-nan,0,0,0,-0.529933,0.154492,0,0,0,0,-0.08606,-0.0181232,15875,-0.525114,0.155506,-0.08606,-0.0181232,13161
13201,-3.11565e-12,1.49295e-38,-1.5164e-06,-3.18057e-12,1.49284e-38,0,-1.06621e-13,0,0,-3.63184,0.124415,0.491174,0,0,0,0,0,-0.575617,0.124415,246,-64,246,-64,368,-65,243,62,-0.0755798,-0.261799,0,-1.5,-nan,0,0,0,-0.54221,0.15116,0,0,0,0,-0.0993672,-0.0226403,15875,-0.539626,0.151748,-0.0993672,-0.0226403,13187
13253,-3.11565e-12,1.49295e-38,-1.5164e-06,-3.18057e-12,1.49284e-38,-3.61065e-12,-1.06621e-13,0,0,-3.60227,0.143728,0.480251,0,0,0,0,0,-0.535104,0.143728,240,-63,240,-63,365,-68,243,61,-0.0710333,-0.261799,0,-1.5,-nan,0,0,0,-0.53939,0.142067,0,0,0,0,-0.0951304,-0.0360882,16383,-0.538249,0.1425,-0.0951304,-0.0360882,13243
13271,-3.11565e-12,1.49295e-38,-1.5164e-06,-3.18057e-12,1.49284e-38,0,-1.06622e-13,0,0,-3.60227,0.143728,0.480251,0,0,0,0,0,-0.535104,0.143728,240,-63,240,-63,365,-68,243,61,-0.0707086,-0.261799,0,-1.5,-nan,0,0,0,-0.541102,0.141417,0,0,0,0,-0.0951304,-0.0360882,16383,-0.538249,0.1425,-0.0951304,-0.0360882,13243
13291,-3.11565e-12,1.49295e-38,-1.5164e-06,-3.18057e-12,1.49284e-38,-3.61065e-12,-1.06622e-13,0,0,-3.5539,0.14832,0.460081,0,0,0,0,0,-0.468839,0.14832,237,-65,237,-65,365,-70,243,61,-0.0706522,-0.261799,0,-1.5,-nan,0,0,0,-0.542262,0.141304,0,0,0,0,-0.0946025,-0.0351834,17030,-0.54037,0.142008,-0.0946025,-0.0351834,13277
13309,-3.11565e-12,1.49295e-38,-1.5164e-06,-3.18057e-12,1.49284e-38,0,-1.06622e-13,0,0,-3.5539,0.14832,0.460081,0,0,0,0,0,-0.468839,0.14832,237,-65,237,-65,365,-70,243,61,-0.0703356,-0.261799,0,-1.5,-nan,0,0,0,-0.543965,0.140671,0,0,0,0,-0.0946025,-0.0351834,17030,-0.54037,0.142008,-0.0946025,-0.0351834,13277
13332,-3.11565e-12,1.49295e-38,-1.5164e-06,-3.18057e-12,1.49284e-38,-3.61065e-12,-1.06622e-13,0,0,-3.59574,0.143515,0.4829,0,0,0,0,0,-0.526162,0.143515,240,-65,240,-65,365,-68,243,62,-0.0701815,-0.261799,0,-1.5,-nan,0,0,0,-0.545263,0.140363,0,0,0,0,-0.0959611,-0.0357981,16510,-0.543056,0.141186,-0.0959611,-0.0357981,13317
13354,-3.11565e-12,1.49295e-38,-1.5164e-06,-3.18057e-12,1.49284e-38,0,-1.06623e-13,0,0,-3.56811,0.107851,0.464512,0,0,0,0,0,-0.488308,0.107851,246,-64,246,-64,366,-70,245,62,-0.0668697,-0.261799,0,-1.5,-nan,0,0,0,-0.542661,0.133739,0,0,0,0,-0.0880884,-0.0438209,17028,-0.541604,0.134265,-0.0880884,-0.0438209,13345
13375,-3.11565e-12,1.49295e-38,-1.5164e-06,-3.18057e-12,1.49284e-38,-3.61065e-12,-1.06623e-13,0,0,-3.56811,0.107851,0.464512,0,0,0,0,0,-0.488308,0.107851,246,-64,246,-64,366,-70,245,62,-0.0664096,-0.261799,0,-1.5,-nan,0,0,0,-0.544511,0.132819,0,0,0,0,-0.0880884,-0.0438209,17028,-0.541604,0.134265,-0.0880884,-0.0438209,13345
13419,-3.11565e-12,1.49295e-38,-1.5164e-06,-3.18057e-12,1.49284e-38,0,-1.06623e-13,0,0,-3.55759,0.117775,0.457819,0,0,0,0,0,-0.473897,0.117775,243,-66,243,-66,368,-69,245,62,-0.0645818,-0.261799,0,-1.5,-nan,0,0,0,-0.542817,0.129164,0,0,0,0,-0.0821948,-0.0458938,16637,-0.539201,0.131183,-0.0821948,-0.0458938,13405
13441,-3.11565e-12,1.49295e-38,-1.5164e-06,-3.18057e-12,1.49284e-38,-3.61065e-12,-1.06624e-13,0,0,-3.55759,0.117775,0.457819,0,0,0,0,0,-0.473897,0.117775,243,-66,243,-66,368,-69,245,62,-0.0640999,-0.261799,0,-1.5,-nan,0,0,0,-0.544543,0.1282,0,0,0,0,-0.0821948,-0.0458938,16637,-0.539201,0.131183,-0.0821948,-0.0458938,13405
13463,-3.11565e-12,1.49295e-38,-1.5164e-06,-3.18057e-12,1.49284e-38,0,-1.06624e-13,0,0,-3.60236,0.0975369,0.483779,0,0,0,0,0,-0.535228,0.0975369,243,-65,243,-65,371,-69,252,62,-0.0560177,-0.261799,0,-1.5,-nan,0,0,0,-0.536942,0.112035,0,0,0,0,-0.0698399,-0.0667651,16768,-0.535335,0.113571,-0.0698399,-0.0667651,13449
13486,-3.11565e-12,1.49295e-38,-1.5164e-06,-3.18057e-12,1.49284e-38,-3.61065e-12,-1.06624e-13,0,0,-3.57116,0.103206,0.454943,0,0,0,0,0,-0.492495,0.103206,246,-63,246,-63,371,-69,246,62,-0.0533445,-0.261799,0,-1.5,-nan,0,0,0,-0.536282,0.106689,0,0,0,0,-0.0549026,-0.0714886,16500,-0.535624,0.107547,-0.0549026,-0.0714886,13476
13531,-3.11565e-12,1.49295e-38,-1.5164e-06,-3.18057e-12,1.49284e-38,0,-1.06624e-13,0,0,-3.638,0.116166,0.474885,0,0,0,0,0,-0.584067,0.116166,246,-61,246,-61,368,-63,245,65,-0.0535897,-0.261799,0,-1.5,-nan,0,0,0,-0.541836,0.107179,0,0,0,0,-0.0723787,-0.0677439,15872,-0.538579,0.110228,-0.0723787,-0.0677439,13517
13588,-3.11565e-12,1.49295e-38,-1.5164e-06,-3.18057e-12,1.49284e-38,-3.61065e-12,-1.06625e-13,0,0,-3.60459,0.124543,0.455557,0,0,0,0,0,-0.538282,0.124543,243,-59,243,-59,368,-65,244,65,-0.0526347,-0.261799,0,-1.5,-nan,0,0,0,-0.544419,0.105269,0,0,0,0,-0.0685442,-0.0660251,16380,-0.540581,0.108967,-0.0685442,-0.0660251,13574
13605,-3.11565e-12,1.49295e-38,-1.5164e-06,-3.18057e-12,1.49284e-38,0,-1.06625e-13,0,0,-3.60459,0.124543,0.455557,0,0,0,0,0,-0.538282,0.124543,243,-59,243,-59,368,-65,244,65,-0.0520405,-0.261799,0,-1.5,-nan,0,0,0,-0.545653,0.104081,0,0,0,0,-0.0685442,-0.0660251,16380,-0.540581,0.108967,-0.0685442,-0.0660251,13574
13633,-3.11565e-12,1.49295e-38,-1.5164e-06,-3.18057e-12,1.49284e-38,-3.61065e-12,-1.06625e-13,0,0,-3.62566,0.133868,0.46295,0,0,0,0,0,-0.567153,0.133868,243,-59,243,-59,366,-65,244,65,-0.0533497,-0.261799,0,-1.5,-nan,0,0,0,-0.549905,0.106699,0,0,0,0,-0.0722353,-0.0624433,16120,-0.547955,0.108385,-0.0722353,-0.0624433,13618
13655,-3.11565e-12,1.49295e-38,-1.5164e-06,-3.18057e-12,1.49284e-38,0,-1.06625e-13,0,0,-3.59074,0.138848,0.446926,0,0,0,0,0,-0.519316,0.138848,240,-61,240,-61,366,-65,244,65,-0.0525387,-0.261799,0,-1.5,-nan,0,0,0,-0.546435,0.105077,0,0,0,0,-0.0570119,-0.0651843,16510,-0.545751,0.10586,-0.0570119,-0.0651843,13645
13673,-3.11565e-12,1.49295e-38,-1.5164e-06,-3.18057e-12,1.49284e-38,-3.61065e-12,-1.06626e-13,0,0,-3.59074,0.138848,0.446926,0,0,0,0,0,-0.519316,0.138848,240,-61,240,-61,366,-65,244,65,-0.051952,-0.261799,0,-1.5,-nan,0,0,0,-0.547461,0.103904,0,0,0,0,-0.0570119,-0.0651843,16510,-0.545751,0.10586,-0.0570119,-0.0651843,13645
13695,-3.11565e-12,1.49295e-38,-1.5164e-06,-3.18057e-12,1.49284e-38,0,-1.06626e-13,0,0,-3.64298,0.140981,0.477729,0,0,0,0,0,-0.590883,0.140981,240,-58,240,-58,365,-65,245,62,-0.0574804,-0.261799,0,-1.5,-nan,0,0,0,-0.553986,0.114961,0,0,0,0,-0.0697084,-0.0497911,16256,-0.552452,0.116056,-0.0697084,-0.0497911,13681
13718,-3.11565e-12,1.49295e-38,-1.5164e-06,-3.18057e-12,1.49284e-38,-3.61065e-12,-1.06626e-13,0,0,-3.56798,0.13561,0.424944,0,0,0,0,0,-0.488128,0.13561,240,-60,240,-60,365,-65,244,65,-0.0576499,-0.261799,0,-1.5,-nan,0,0,0,-0.55038,0.1153,0,0,0,0,-0.0548778,-0.0479641,16899,-0.549832,0.115779,-0.0548778,-0.0479641,13710
13763,-3.11565e-12,1.49295e-38,-1.5164e-06,-3.18057e-12,1.49284e-38,0,-1.06627e-13,0,0,-3.58801,0.13266,0.447531,0,0,0,0,0,-0.515578,0.13266,242,-60,242,-60,365,-67,244,65,-0.0600919,-0.261799,0,-1.5,-nan,0,0,0,-0.55348,0.120184,0,0,0,0,-0.0625886,-0.040659,16764,-0.550664,0.122013,-0.0625886,-0.040659,13749
13786,-3.11565e-12,1.49295e-38,-1.5164e-06,-3.18057e-12,1.49284e-38,-3.61065e-12,-1.06627e-13,0,0,-3.54801,0.143047,0.419761,0,0,0,0,0,-0.460773,0.143047,240,-63,240,-63,363,-65,242,65,-0.063281,-0.261799,0,-1.5,-nan,0,0,0,-0.542732,0.126562,0,0,0,0,-0.0420775,-0.033182,16899,-0.542227,0.12696,-0.0420775,-0.033182,13777
13803,-3.11565e-12,1.49295e-38,-1.5164e-06,-3.18057e-12,1.49284e-38,0,-1.06627e-13,0,0,-3.54801,0.143047,0.419761,0,0,0,0,0,-0.460773,0.143047,240,-63,240,-63,363,-65,242,65,-0.062999,-0.261799,0,-1.5,-nan,0,0,0,-0.543447,0.125998,0,0,0,0,-0.0420775,-0.033182,16899,-0.542227,0.12696,-0.0420775,-0.033182,13777
13830,-3.11565e-12,1.49295e-38,-1.5164e-06,-3.18057e-12,1.49284e-38,-3.61065e-12,-1.06627e-13,0,0,-3.59167,0.138396,0.460557,0,0,0,0,0,-0.520589,0.138396,243,-63,243,-63,365,-67,242,62,-0.0633061,-0.259726,0,-1.5,-nan,0,0,0,-0.519451,0.126612,0,0,0,0,-0.00175275,-0.0313061,16375,-0.519404,0.127457,-0.00175275,-0.0313061,13816
13856,-3.11565e-12,1.49295e-38,-1.5164e-06,-3.18057e-12,1.49284e-38,0,-1.06628e-13,0,0,-3.60703,0.133151,0.463629,0,0,0,0,0,-0.541636,0.133151,243,-59,243,-59,363,-67,243,62,-0.0652048,-0.260936,0,-1.5,-nan,0,0,0,-0.521872,0.13041,0,0,0,0,-0.0045627,-0.0195859,16640,-0.521808,0.130684,-0.0045627,-0.0195859,13844
13883,-3.11565e-12,1.49295e-38,-1.5164e-06,-3.18057e-12,1.49284e-38,-3.61065e-12,-1.06628e-13,0,0,-3.56486,0.140227,0.430322,0,0,0,0,0,-0.483862,0.140227,240,-60,240,-60,363,-65,242,65,-0.0674186,-0.260231,0,-1.5,-nan,0,0,0,-0.520463,0.134837,0,0,0,0,-0.00330625,-0.00592074,17030,-0.520436,0.134885,-0.00330625,-0.00592074,13877
13900,-3.11565e-12,1.49295e-38,-1.5164e-06,-3.18057e-12,1.49284e-38,0,-1.06628e-13,0,0,-3.56486,0.140227,0.430322,0,0,0,0,0,-0.483862,0.140227,240,-60,240,-60,363,-65,242,65,-0.0673683,-0.260259,0,-1.5,-nan,0,0,0,-0.520519,0.134737,0,0,0,0,-0.00330625,-0.00592074,17030,-0.520436,0.134885,-0.00330625,-0.00592074,13877
13923,-3.11565e-12,1.49295e-38,-1.5164e-06,-3.18057e-12,1.49284e-38,-3.61065e-12,-1.06628e-13,0,0,-3.52268,0.146869,0.410075,0,0,0,0,0,-0.42607,0.146869,237,-62,237,-62,363,-65,241,65,-0.0676678,-0.260286,0,-1.5,-nan,0,0,0,-0.520572,0.135336,0,0,0,0,-0.00318506,0.00122888,17420,-0.520528,0.135318,-0.00318506,0.00122888,13911
13950,-3.11565e-12,1.49295e-38,-1.5164e-06,-3.18057e-12,1.49284e-38,0,-1.06629e-13,0,0,-3.54134,0.149568,0.425427,0,0,0,0,0,-0.451631,0.149568,237,-62,237,-62,362,-65,241,63,-0.069028,-0.257688,0,-1.5,-nan,0,0,0,-0.515376,0.138056,0,0,0,0,0.00362793,0.0103313,17152,-0.515405,0.137973,0.00362793,0.0103313,13944
13964,-3.11565e-12,1.49295e-38,-1.5164e-06,-3.18057e-12,1.49284e-38,-3.61065e-12,-1.06629e-13,0,0,-3.54134,0.149568,0.425427,0,0,0,0,0,-0.451631,0.149568,237,-62,237,-62,362,-65,241,63,-0.0690952,-0.257664,0,-1.5,-nan,0,0,0,-0.515329,0.13819,0,0,0,0,0.00362793,0.0103313,17152,-0.515405,0.137973,0.00362793,0.0103313,13944
14101,-3.11565e-12,1.49295e-38,-1.5164e-06,-3.18057e-12,1.49284e-38,0,-1.06629e-13,0,0,-3.51588,0.14187,0.412701,0,0,0,0,0,-0.416752,0.14187,237,-63,237,-63,365,-65,241,63,-0.071816,-0.253411,0,-1.5,-nan,0,0,0,-0.506821,0.143632,0,0,0,0,0.0124056,0.0175152,17152,-0.508384,0.141425,0.0124056,0.0175152,13977
14131,-3.11565e-12,1.49295e-38,-1.5164e-06,-3.18057e-12,1.49284e-38,-3.61065e-12,-1.06629e-13,0,0,-3.58145,0.167533,0.445661,0,0,0,0,0,-0.50658,0.167533,237,-60,237,-60,361,-68,241,65,-0.0722135,-0.250008,0,-1.5,-nan,0,0,0,-0.500016,0.144427,0,0,0,0,0.0316417,0.0179816,17024,-0.500933,0.143906,0.0316417,0.0179816,14117
14147,-3.11565e-12,1.49295e-38,-1.5164e-06,-3.18057e-12,1.49284e-38,0,-1.0663e-13,0,0,-3.58145,0.167533,0.445661,0,0,0,0,0,-0.50658,0.167533,237,-60,237,-60,361,-68,241,65,-0.0723663,-0.249739,0,-1.5,-nan,0,0,0,-0.499478,0.144733,0,0,0,0,0.0316417,0.0179816,17024,-0.500933,0.143906,0.0316417,0.0179816,14117
14168,-3.11565e-12,1.49295e-38,-1.5164e-06,-3.18057e-12,1.49284e-38,-3.61065e-12,-1.0663e-13,0,0,-3.58145,0.167533,0.445661,0,0,0,0,0,-0.50658,0.167533,237,-60,237,-60,361,-68,241,65,-0.0725551,-0.249407,0,-1.5,-nan,0,0,0,-0.498813,0.14511,0,0,0,0,0.0316417,0.0179816,17024,-0.500933,0.143906,0.0316417,0.0179816,14117
14194,-3.11565e-12,1.49295e-38,-1.5164e-06,-3.18057e-12,1.49284e-38,0,-1.0663e-13,0,0,-3.5836,0.164647,0.444918,0,0,0,0,0,-0.509529,0.164647,237,-62,237,-62,362,-65,241,65,-0.0733307,-0.251516,0,-1.5,-nan,0,0,0,-0.503032,0.146661,0,0,0,0,0.0298637,0.0209626,16640,-0.503808,0.146116,0.0298637,0.0209626,14180
14217,-3.11565e-12,1.49295e-38,-1.5164e-06,-3.18057e-12,1.49284e-38,-3.61065e-12,-1.06631e-13,0,0,-3.60021,0.131421,0.468331,0,0,0,0,0,-0.532285,0.131421,243,-63,243,-63,368,-65,242,59,-0.0736157,-0.251304,0,-1.5,-nan,0,0,0,-0.502608,0.147231,0,0,0,0,0.028154,0.0203004,16254,-0.502946,0.146988,0.028154,0.0203004,14207
14238,-3.11565e-12,1.49295e-38,-1.5164e-06,-3.18057e-12,1.49284e-38,0,-1.06631e-13,0,0,-3.60021,0.131421,0.468331,0,0,0,0,0,-0.532285,0.131421,243,-63,243,-63,368,-65,242,59,-0.0738288,-0.251008,0,-1.5,-nan,0,0,0,-0.502017,0.147658,0,0,0,0,0.028154,0.0203004,16254,-0.502946,0.146988,0.028154,0.0203004,14207
14261,-3.11565e-12,1.49295e-38,-1.5164e-06,-3.18057e-12,1.49284e-38,-3.61065e-12,-1.06631e-13,0,0,-3.56797,0.133952,0.438318,0,0,0,0,0,-0.488125,0.133952,243,-61,243,-61,363,-67,242,65,-0.0735843,-0.248182,0,-1.5,-nan,0,0,0,-0.496364,0.147169,0,0,0,0,0.0349526,0.0190586,17028,-0.497168,0.14673,0.0349526,0.0190586,14247
14339,-3.11565e-12,1.49295e-38,-1.5164e-06,-3.18057e-12,1.49284e-38,0,-1.06631e-13,0,0,-3.59909,0.143373,0.453792,0,0,0,0,0,-0.530757,0.143373,243,-63,243,-63,363,-65,242,66,-0.0745747,-0.250267,0,-1.5,-nan,0,0,0,-0.500533,0.149149,0,0,0,0,0.026321,0.0201707,16375,-0.502586,0.147576,0.026321,0.0201707,14325
14363,-3.11565e-12,1.49295e-38,-1.5164e-06,-3.18057e-12,1.49284e-38,-3.61065e-12,-1.06632e-13,0,0,-3.62111,0.125961,0.477951,0,0,0,0,0,-0.560918,0.125961,243,-63,243,-63,368,-65,245,61,-0.074214,-0.251519,0,-1.5,-nan,0,0,0,-0.503039,0.148428,0,0,0,0,0.0228482,0.0196453,16000,-0.503564,0.147976,0.0228482,0.0196453,14348
14385,-3.11565e-12,1.49295e-38,-1.5164e-06,-3.18057e-12,1.49284e-38,0,-1.06632e-13,0,0,-3.60224,0.129665,0.467229,0,0,0,0,0,-0.535067,0.129665,244,-63,244,-63,368,-65,242,61,-0.0725828,-0.252842,0,-1.5,-nan,0,0,0,-0.505684,0.145166,0,0,0,0,0.01628,0.0133836,16128,-0.506058,0.144858,0.01628,0.0133836,14371
14456,-3.11565e-12,1.49295e-38,-1.5164e-06,-3.18057e-12,1.49284e-38,-3.61065e-12,-1.06632e-13,0,0,-3.56771,0.133419,0.435776,0,0,0,0,0,-0.487761,0.133419,243,-63,243,-63,365,-65,242,66,-0.0665624,-0.25345,0,-1.5,-nan,0,0,0,-0.5069,0.133125,0,0,0,0,0.0130819,-0.0032443,16637,-0.507083,0.13317,0.0130819,-0.0032443,14444
14470,-3.11565e-12,1.49295e-38,-1.5164e-06,-3.18057e-12,1.49284e-38,0,-1.06632e-13,0,0,-3.56771,0.133419,0.435776,0,0,0,0,0,-0.487761,0.133419,243,-63,243,-63,365,-65,242,66,-0.0665414,-0.253365,0,-1.5,-nan,0,0,0,-0.50673,0.133083,0,0,0,0,0.0130819,-0.0032443,16637,-0.507083,0.13317,0.0130819,-0.0032443,14444
14518,-3.11565e-12,1.49295e-38,-1.5164e-06,-3.18057e-12,1.49284e-38,-3.61065e-12,-1.06633e-13,0,0,-3.54327,0.126031,0.421775,0,0,0,0,0,-0.45428,0.126031,243,-63,243,-63,366,-65,242,66,-0.0667448,-0.250544,0,-1.5,-nan,0,0,0,-0.501087,0.13349,0,0,0,0,0.0207763,-0.00123741,16899,-0.501274,0.133501,0.0207763,-0.00123741,14510
14544,-3.11565e-12,1.49295e-38,-1.5164e-06,-3.18057e-12,1.49284e-38,0,-1.06633e-13,0,0,-3.59492,0.131598,0.462955,0,0,0,0,0,-0.525034,0.131598,243,-63,243,-63,368,-65,242,61,-0.0671468,-0.252085,0,-1.5,-nan,0,0,0,-0.50417,0.134294,0,0,0,0,0.0139177,0.00178254,16128,-0.504267,0.134281,0.0139177,0.00178254,14539
14564,-3.11565e-12,1.49295e-38,-1.5164e-06,-3.18057e-12,1.49284e-38,-3.61065e-12,-1.06633e-13,0,0,-3.59492,0.131598,0.462955,0,0,0,0,0,-0.525034,0.131598,243,-63,243,-63,368,-65,242,61,-0.0671646,-0.251946,0,-1.5,-nan,0,0,0,-0.503891,0.134329,0,0,0,0,0.0139177,0.00178254,16128,-0.504267,0.134281,0.0139177,0.00178254,14539
14592,-3.11565e-12,1.49295e-38,-1.5164e-06,-3.18057e-12,1.49284e-38,0,-1.06634e-13,0,0,-3.61121,0.127799,0.472369,0,0,0,0,0,-0.547364,0.127799,244,-63,244,-63,368,-65,243,61,-0.0669893,-0.261256,0,-1.5,-nan,0,0,0,-0.522513,0.133979,0,0,0,0,-0.00523442,-0.000309927,16000,-0.522372,0.133987,-0.00523442,-0.000309927,14578
14609,-3.11565e-12,1.49295e-38,-1.5164e-06,-3.18057e-12,1.49284e-38,-3.61065e-12,-1.06634e-13,0,0,-3.61121,0.127799,0.472369,0,0,0,0,0,-0.547364,0.127799,244,-63,244,-63,368,-65,243,61,-0.0669867,-0.261301,0,-1.5,-nan,0,0,0,-0.522602,0.133973,0,0,0,0,-0.00523442,-0.000309927,16000,-0.522372,0.133987,-0.00523442,-0.000309927,14578
14631,-3.11565e-12,1.49295e-38,-1.5164e-06,-3.18057e-12,1.49284e-38,0,-1.06634e-13,0,0,-3.58544,0.12889,0.459195,0,0,0,0,0,-0.512053,0.12889,243,-65,243,-65,368,-65,243,62,-0.0652919,-0.255667,0,-1.5,-nan,0,0,0,-0.511335,0.130584,0,0,0,0,0.00980988,-0.00565154,16000,-0.51156,0.130714,0.00980988,-0.00565154,14617
14661,-3.11565e-12,1.49295e-38,-1.5164e-06,-3.18057e-12,1.49284e-38,-3.61065e-12,-1.06634e-13,0,0,-3.64629,0.11807,0.490216,0,0,0,0,0,-0.595416,0.11807,246,-63,246,-63,368,-65,246,62,-0.0649002,-0.256544,0,-1.5,-nan,0,0,0,-0.513088,0.1298,0,0,0,0,0.00434078,-0.00887537,15616,-0.513218,0.130067,0.00434078,-0.00887537,14647
14684,-3.11565e-12,1.49295e-38,-1.5164e-06,-3.18057e-12,1.49284e-38,0,-1.06635e-13,0,0,-3.5777,0.126425,0.454691,0,0,0,0,0,-0.501448,0.126425,243,-65,243,-65,369,-65,243,62,-0.0639079,-0.254963,0,-1.5,-nan,0,0,0,-0.509926,0.127816,0,0,0,0,0.00796626,-0.0102933,16128,-0.510006,0.127919,0.00796626,-0.0102933,14676
14701,-3.11565e-12,1.49295e-38,-1.5164e-06,-3.18057e-12,1.49284e-38,-3.61065e-12,-1.06635e-13,0,0,-3.5777,0.126425,0.454691,0,0,0,0,0,-0.501448,0.126425,243,-65,243,-65,369,-65,243,62,-0.0638255,-0.254899,0,-1.5,-nan,0,0,0,-0.509799,0.127651,0,0,0,0,0.00796626,-0.0102933,16128,-0.510006,0.127919,0.00796626,-0.0102933,14676
14728,-3.11565e-12,1.49295e-38,-1.5164e-06,-3.18057e-12,1.49284e-38,0,-1.06635e-13,0,0,-3.60882,0.125219,0.474963,0,0,0,0,0,-0.544078,0.125219,243,-65,243,-65,368,-65,245,61,-0.0627376,-0.256092,0,-1.5,-nan,0,0,0,-0.512183,0.125475,0,0,0,0,0.00381959,-0.0143101,16000,-0.51229,0.125876,0.00381959,-0.0143101,14714
14753,-3.11565e-12,1.49295e-38,-1.5164e-06,-3.18057e-12,1.49284e-38,-3.61065e-12,-1.06635e-13,0,0,-3.55831,0.122825,0.441547,0,0,0,0,0,-0.474888,0.122825,243,-66,243,-66,369,-63,242,61,-0.0626093,-0.256091,0,-1.5,-nan,0,0,0,-0.512182,0.125219,0,0,0,0,0.00176002,-0.0147613,16510,-0.512203,0.125396,0.00176002,-0.0147613,14743
14775,-3.11565e-12,1.49295e-38,-1.5164e-06,-3.18057e-12,1.49284e-38,0,-1.06636e-13,0,0,-3.55831,0.122825,0.441547,0,0,0,0,0,-0.474888,0.122825,243,-66,243,-66,369,-63,242,61,-0.062447,-0.256072,0,-1.5,-nan,0,0,0,-0.512143,0.124894,0,0,0,0,0.00176002,-0.0147613,16510,-0.512203,0.125396,0.00176002,-0.0147613,14743
14794,-3.11565e-12,1.49295e-38,-1.5164e-06,-3.18057e-12,1.49284e-38,-3.61065e-12,-1.06636e-13,0,0,-3.58598,0.133898,0.448932,0,0,0,0,0,-0.512797,0.133898,240,-63,240,-63,366,-63,244,65,-0.0623911,-0.257157,0,-1.5,-nan,0,0,0,-0.514315,0.124782,0,0,0,0,-0.00740192,-0.0147677,16512,-0.514174,0.125063,-0.00740192,-0.0147677,14780
14819,-3.11565e-12,1.49295e-38,-1.5164e-06,-3.18057e-12,1.49284e-38,0,-1.06636e-13,0,0,-3.59955,0.139258,0.4611,0,0,0,0,0,-0.531382,0.139258,243,-61,243,-61,363,-67,242,63,-0.0629069,-0.261799,0,-1.5,-nan,0,0,0,-0.531234,0.125814,0,0,0,0,-0.0359763,-0.0132657,16510,-0.530802,0.125973,-0.0359763,-0.0132657,14809
14846,-3.11565e-12,1.49295e-38,-1.5164e-06,-3.18057e-12,1.49284e-38,-3.61065e-12,-1.06637e-13,0,0,-3.60048,0.138872,0.467719,0,0,0,0,0,-0.532659,0.138872,240,-63,240,-63,365,-67,245,62,-0.062419,-0.261799,0,-1.5,-nan,0,0,0,-0.532706,0.124838,0,0,0,0,-0.0363951,-0.0151796,16510,-0.532415,0.124959,-0.0363951,-0.0151796,14840
14886,-3.11565e-12,1.49295e-38,-1.5164e-06,-3.18057e-12,1.49284e-38,0,-1.06637e-13,0,0,-3.60192,0.129813,0.450334,0,0,0,0,0,-0.534634,0.129813,240,-63,240,-63,363,-65,249,65,-0.0620978,-0.261799,0,-1.5,-nan,0,0,0,-0.536413,0.124196,0,0,0,0,-0.0357637,-0.0157956,16899,-0.535984,0.124385,-0.0357637,-0.0157956,14877
14904,-3.11565e-12,1.49295e-38,-1.5164e-06,-3.18057e-12,1.49284e-38,-3.61065e-12,-1.06637e-13,0,0,-3.60192,0.129813,0.450334,0,0,0,0,0,-0.534634,0.129813,240,-63,240,-63,363,-65,249,65,-0.0619557,-0.261799,0,-1.5,-nan,0,0,0,-0.537057,0.123911,0,0,0,0,-0.0357637,-0.0157956,16899,-0.535984,0.124385,-0.0357637,-0.0157956,14877
14931,-3.11565e-12,1.49295e-38,-1.5164e-06,-3.18057e-12,1.49284e-38,0,-1.06637e-13,0,0,-3.64136,0.113773,0.483272,0,0,0,0,0,-0.588668,0.113773,246,-61,246,-61,368,-65,246,62,-0.0608998,-0.261799,0,-1.5,-nan,0,0,0,-0.537183,0.1218,0,0,0,0,-0.0444288,-0.0182439,15744,-0.535984,0.122292,-0.0444288,-0.0182439,14917
14956,-3.11565e-12,1.49295e-38,-1.5164e-06,-3.18057e-12,1.49284e-38,-3.61065e-12,-1.06638e-13,0,0,-3.63743,0.119994,0.485151,0,0,0,0,0,-0.583283,0.119994,246,-63,246,-63,368,-65,245,62,-0.0604349,-0.261799,0,-1.5,-nan,0,0,0,-0.538879,0.12087,0,0,0,0,-0.0377617,-0.0195589,15744,-0.537935,0.121359,-0.0377617,-0.0195589,14942
14983,-3.11565e-12,1.49295e-38,-1.5164e-06,-3.18057e-12,1.49284e-38,0,-1.06638e-13,0,0,-3.59304,0.116715,0.447982,0,0,0,0,0,-0.52246,0.116715,246,-63,246,-63,366,-65,245,66,-0.0593685,-0.261799,0,-1.5,-nan,0,0,0,-0.538889,0.118737,0,0,0,0,-0.0423386,-0.0229208,16375,-0.53855,0.11892,-0.0423386,-0.0229208,14977
15000,-3.11565e-12,1.49295e-38,-1.5164e-06,-3.18057e-12,1.49284e-38,-3.61065e-12,-1.06638e-13,0,0,-3.59304,0.116715,0.447982,0,0,0,0,0,-0.52246,0.116715,246,-63,246,-63,366,-65,245,66,-0.0591737,-0.261799,0,-1.5,-nan,0,0,0,-0.539608,0.118347,0,0,0,0,-0.0423386,-0.0229208,16375,-0.53855,0.11892,-0.0423386,-0.0229208,14977
15054,-3.11565e-12,1.49295e-38,-1.5164e-06,-3.18057e-12,1.49284e-38,0,-1.06638e-13,0,0,-3.5694,0.107348,0.43669,0,0,0,0,0,-0.490072,0.107348,246,-63,246,-63,369,-65,245,66,-0.0579273,-0.261799,0,-1.5,-nan,0,0,0,-0.541848,0.115855,0,0,0,0,-0.0473409,-0.026913,16506,-0.539292,0.117308,-0.0473409,-0.026913,15040
15084,-3.11565e-12,1.49295e-38,-1.5164e-06,-3.18057e-12,1.49284e-38,-3.61065e-12,-1.06639e-13,0,0,-3.52345,0.112355,0.420651,0,0,0,0,0,-0.42712,0.112355,243,-65,243,-65,366,-67,245,65,-0.0574645,-0.261799,0,-1.5,-nan,0,0,0,-0.544445,0.114929,0,0,0,0,-0.0416579,-0.0271793,17292,-0.544112,0.115147,-0.0416579,-0.0271793,15078
15101,-3.11565e-12,1.49295e-38,-1.5164e-06,-3.18057e-12,1.49284e-38,0,-1.06639e-13,0,0,-3.52345,0.112355,0.420651,0,0,0,0,0,-0.42712,0.112355,243,-65,243,-65,366,-67,245,65,-0.0572335,-0.261799,0,-1.5,-nan,0,0,0,-0.545153,0.114467,0,0,0,0,-0.0416579,-0.0271793,17292,-0.544112,0.115147,-0.0416579,-0.0271793,15078
15121,-3.11565e-12,1.49295e-38,-1.5164e-06,-3.18057e-12,1.49284e-38,-3.61065e-12,-1.06639e-13,0,0,-3.63554,0.140507,0.481731,0,0,0,0,0,-0.580696,0.140507,243,-63,243,-63,363,-65,244,65,-0.0564411,-0.261799,0,-1.5,-nan,0,0,0,-0.539793,0.112882,0,0,0,0,-0.0362377,-0.0303192,16120,-0.539359,0.113246,-0.0362377,-0.0303192,15111
15139,-3.11565e-12,1.49295e-38,-1.5164e-06,-3.18057e-12,1.49284e-38,0,-1.0664e-13,0,0,-3.63554,0.140507,0.481731,0,0,0,0,0,-0.580696,0.140507,243,-63,243,-63,363,-65,244,65,-0.0561683,-0.261799,0,-1.5,-nan,0,0,0,-0.540446,0.112337,0,0,0,0,-0.0362377,-0.0303192,16120,-0.539359,0.113246,-0.0362377,-0.0303192,15111
15161,-3.11565e-12,1.49295e-38,-1.5164e-06,-3.18057e-12,1.49284e-38,-3.61065e-12,-1.0664e-13,0,0,-3.57449,0.144806,0.444116,0,0,0,0,0,-0.497056,0.144806,240,-63,240,-63,365,-65,242,66,-0.0575009,-0.261799,0,-1.5,-nan,0,0,0,-0.542753,0.115002,0,0,0,0,-0.0327874,-0.0219647,16637,-0.542032,0.115485,-0.0327874,-0.0219647,15147
15220,-3.11565e-12,1.49295e-38,-1.5164e-06,-3.18057e-12,1.49284e-38,0,-1.0664e-13,0,0,-3.52264,0.146871,0.435827,0,0,0,0,0,-0.426013,0.146871,237,-65,237,-65,363,-68,241,62,-0.0598528,-0.259433,0,-1.5,-nan,0,0,0,-0.518867,0.119706,0,0,0,0,0.00943114,-0.0143033,17420,-0.519414,0.120535,0.00943114,-0.0143033,15205
15236,-3.11565e-12,1.49295e-38,-1.5164e-06,-3.18057e-12,1.49284e-38,-3.61065e-12,-1.0664e-13,0,0,-3.52264,0.146871,0.435827,0,0,0,0,0,-0.426013,0.146871,237,-65,237,-65,363,-68,241,62,-0.0597313,-0.259353,0,-1.5,-nan,0,0,0,-0.518707,0.119463,0,0,0,0,0.00943114,-0.0143033,17420,-0.519414,0.120535,0.00943114,-0.0143033,15205
15262,-3.11565e-12,1.49295e-38,-1.5164e-06,-3.18057e-12,1.49284e-38,0,-1.06641e-13,0,0,-3.60118,0.168294,0.486019,0,0,0,0,0,-0.533618,0.168294,237,-63,237,-63,361,-70,241,61,-0.0625983,-0.25962,0,-1.5,-nan,0,0,0,-0.51924,0.125197,0,0,0,0,0.0100544,-0.0056417,16768,-0.519502,0.125343,0.0100544,-0.0056417,15248
15289,-3.11565e-12,1.49295e-38,-1.5164e-06,-3.18057e-12,1.49284e-38,-3.61065e-12,-1.06641e-13,0,0,-3.57445,0.178314,0.48067,0,0,0,0,0,-0.496999,0.178314,234,-65,234,-65,361,-72,241,62,-0.0672741,-0.259318,0,-1.5,-nan,0,0,0,-0.518636,0.134548,0,0,0,0,0.0119752,0.00516204,17286,-0.518804,0.134476,0.0119752,0.00516204,15278
