timestamp,A_x,A_y,A_z,P,Q,R,Phi,Theta,Psi,poseX,poseY,poseZ,state_X,state_Y,state_Z,state_VzB,state_Bx,state_By,state_Bz,p1_x,p1_y,p2_x,p2_y,p3_x,p3_y,p4_x,p4_y,roll,pitch,yaw,alt,targetHeading,highLevelState,lowLevelState,gateNumber,filtered_x,filtered_y,x_OT,y_OT,vx_OT,vy_OT,filtered_vx,filtered_vygateArearansac_corr_x,ransac_corr_y,ransac_corr_vx,ransac_corr_vy,detectionTimeStamppTermX,dTermX,pTermY,dTermY
8240,0,0,0,0,0,0,0,0,0,0,0,0,0,0,0,0,0,0,0,0,0,0,0,0,0,0,0,0,-0,0,-1.5,3.94113e+12,0,0,0,0,0,0,0,0,0,0,0,1.9603e-19,0,0,0,0,0,0,0,0,0
9222,-3.21252e-12,2.33458e-38,-1.56296e-06,-3.27827e-12,2.33446e-38,0,-1.06589e-13,0,0,0,0,0,0,0,0,0,0,0,0,0,0,0,0,0,0,0,0,0,-0,0,-1.5,3.94113e+12,0,0,0,0,0,0,0,0,0,0,0,1.9603e-19,0,0,0,0,0,0,0,0,0
9263,-3.21252e-12,2.33458e-38,-1.56296e-06,-3.27827e-12,2.33446e-38,0,-1.0659e-13,0,0,0,0,0,0,0,0,0,0,0,0,0,0,0,0,0,0,0,0,0,-0,0,-1.5,3.94113e+12,0,0,0,0,0,0,0,0,0,0,0,1.9603e-19,0,0,0,0,0,0,0,0,0
9500,-3.21252e-12,2.33458e-38,-1.56296e-06,-3.27827e-12,2.33446e-38,0,-1.0659e-13,0,0,0,0,0,0,0,0,0,0,0,0,0,0,0,0,0,0,0,0,0,-0,0,-1.5,3.94113e+12,0,0,0,0,0,0,0,0,0,0,0,1.9603e-19,0,0,0,0,0,0,0,0,0
9558,-3.21252e-12,2.33458e-38,-1.56296e-06,-3.27827e-12,2.33446e-38,0,-1.0659e-13,0,0,0,0,0,0,0,0,0,0,0,0,0,0,0,0,0,0,0,0,0,-0,0,-1.5,3.94113e+12,0,0,0,0,0,0,0,0,0,0,0,1.9603e-19,0,0,0,0,0,0,0,0,0
9711,-3.21252e-12,2.33458e-38,-1.56296e-06,-3.27827e-12,2.33446e-38,0,-1.0659e-13,0,0,0,0,0,0,0,0,0,0,0,0,0,0,0,0,0,0,0,0,0,-0,0,-1.5,3.94113e+12,0,0,0,0,0,0,0,0,0,0,0,1.9603e-19,0,0,0,0,0,0,0,0,0
9757,-3.21252e-12,2.33458e-38,-1.56296e-06,-3.27827e-12,2.33446e-38,0,-1.06591e-13,0,0,0,0,0,0,0,0,0,0,0,0,0,0,0,0,0,0,0,0,0,-0,0,-1.5,3.94113e+12,0,0,0,0,0,0,0,0,0,0,0,1.9603e-19,0,0,0,0,0,0,0,0,0
9860,-3.21252e-12,2.33458e-38,-1.56296e-06,-3.27827e-12,2.33446e-38,0,-1.06591e-13,0,0,0,0,0,0,0,0,0,0,0,0,0,0,0,0,0,0,0,0,0,-0,0,-1.5,3.94113e+12,0,0,0,0,0,0,0,0,0,0,0,1.9603e-19,0,0,0,0,0,0,0,0,0
9930,-3.21252e-12,2.33458e-38,-1.56296e-06,-3.27827e-12,2.33446e-38,0,-1.06591e-13,0,0,0,0,0,0,0,0,0,0,0,0,0,0,0,0,0,0,0,0,0,-0,0,-1.5,3.94113e+12,0,0,0,0,0,0,0,0,0,0,0,1.9603e-19,0,0,0,0,0,0,0,0,0
9968,-3.21252e-12,2.33458e-38,-1.56296e-06,-3.27827e-12,2.33446e-38,0,-1.06591e-13,0,0,0,0,0,0,0,0,0,0,0,0,0,0,0,0,0,0,0,0,0,-0,0,-1.5,3.94113e+12,0,0,0,0,0,0,0,0,0,0,0,1.9603e-19,0,0,0,0,0,0,0,0,0
9985,-3.21252e-12,2.33458e-38,-1.56296e-06,-3.27827e-12,2.33446e-38,0,-1.06592e-13,0,0,0,0,0,0,0,0,0,0,0,0,0,0,0,0,0,0,0,0,0,-0,0,-1.5,3.94113e+12,0,0,0,0,0,0,0,0,0,0,0,1.9603e-19,0,0,0,0,0,0,0,0,0
10090,-3.21252e-12,2.33458e-38,-1.56296e-06,-3.27827e-12,2.33446e-38,0,-1.06592e-13,0,0,0,0,0,0,0,0,0,0,0,0,0,0,0,0,0,0,0,0,0,-0,0,-1.5,3.94113e+12,0,0,0,0,0,0,0,0,0,0,0,1.9603e-19,0,0,0,0,0,0,0,0,0
10200,-3.21252e-12,2.33458e-38,-1.56296e-06,-3.27827e-12,2.33446e-38,0,-1.06592e-13,0,0,0,0,0,0,0,0,0,0,0,0,0,0,0,0,0,0,0,0,0,-0,0,-1.5,3.94113e+12,0,0,0,0,0,0,0,0,0,0,0,1.9603e-19,0,0,0,0,0,0,0,0,0
10227,-3.21252e-12,2.33458e-38,-1.56296e-06,-3.27827e-12,2.33446e-38,0,-1.06593e-13,0,0,0,0,0,0,0,0,0,0,0,0,0,0,0,0,0,0,0,0,0,-0,0,-1.5,3.94113e+12,0,0,0,0,0,0,0,0,0,0,0,1.9603e-19,0,0,0,0,0,0,0,0,0
10247,-3.21252e-12,2.33458e-38,-1.56296e-06,-3.27827e-12,2.33446e-38,0,-1.06593e-13,0,0,0,0,0,0,0,0,0,0,0,0,0,0,0,0,0,0,0,0,0,-0,0,-1.5,3.94113e+12,0,0,0,0,0,0,0,0,0,0,0,1.9603e-19,0,0,0,0,0,0,0,0,0
10350,-3.21252e-12,2.33458e-38,-1.56296e-06,-3.27827e-12,2.33446e-38,0,-1.06593e-13,0,0,0,0,0,0,0,0,0,0,0,0,0,0,0,0,0,0,0,0,0,-0,0,-1.5,3.94113e+12,0,0,0,0,0,0,0,0,0,0,0,1.9603e-19,0,0,0,0,0,0,0,0,0
10413,-3.21252e-12,2.33458e-38,-1.56296e-06,-3.27827e-12,2.33446e-38,0,-1.06593e-13,0,0,0,0,0,0,0,0,0,0,0,0,0,0,0,0,0,0,0,0,0,-0,0,-1.5,3.94113e+12,0,0,0,0,0,0,0,0,0,0,0,1.9603e-19,0,0,0,0,0,0,0,0,0
10433,-3.21252e-12,2.33458e-38,-1.56296e-06,-3.27827e-12,2.33446e-38,0,-1.06594e-13,0,0,0,0,0,0,0,0,0,0,0,0,0,0,0,0,0,0,0,0,0,-0,0,-1.5,3.94113e+12,0,0,0,0,0,0,0,0,0,0,0,1.9603e-19,0,0,0,0,0,0,0,0,0
10451,-3.21252e-12,2.33458e-38,-1.56296e-06,-3.27827e-12,2.33446e-38,0,-1.06594e-13,0,0,0,0,0,0,0,0,0,0,0,0,0,0,0,0,0,0,0,0,0,-0,0,-1.5,3.94113e+12,0,0,0,0,0,0,0,0,0,0,0,1.9603e-19,0,0,0,0,0,0,0,0,0
10560,-3.21252e-12,2.33458e-38,-1.56296e-06,-3.27827e-12,2.33446e-38,0,-1.06594e-13,0,0,0,0,0,0,0,0,0,0,0,0,0,0,0,0,0,0,0,0,0,-0,0,-1.5,3.94113e+12,0,0,0,0,0,0,0,0,0,0,0,1.9603e-19,0,0,0,0,0,0,0,0,0
10662,-3.21252e-12,2.33458e-38,-1.56296e-06,-3.27827e-12,2.33446e-38,0,-1.06594e-13,0,0,0,0,0,0,0,0,0,0,0,0,0,0,0,0,0,0,0,0,0,-0,0,-1.5,3.94113e+12,0,0,0,0,0,0,0,0,0,0,0,1.9603e-19,0,0,0,0,0,0,0,0,0
10690,-3.21252e-12,2.33458e-38,-1.56296e-06,-3.27827e-12,2.33446e-38,0,-1.06595e-13,0,0,0,0,0,0,0,0,0,0,0,0,0,0,0,0,0,0,0,0,0,-0,0,-1.5,3.94113e+12,0,0,0,0,0,0,0,0,0,0,0,1.9603e-19,0,0,0,0,0,0,0,0,0
10800,-3.21252e-12,2.33458e-38,-1.56296e-06,-3.27827e-12,2.33446e-38,0,-1.06595e-13,0,0,0,0,0,0,0,0,0,0,0,0,0,0,0,0,0,0,0,0,0,-0,0,-1.5,3.94113e+12,0,0,0,0,0,0,0,0,0,0,0,1.9603e-19,0,0,0,0,0,0,0,0,0
10840,-3.21252e-12,2.33458e-38,-1.56296e-06,-3.27827e-12,2.33446e-38,0,-1.06595e-13,0,0,0,0,0,0,0,0,0,0,0,0,0,0,0,0,0,0,0,0,0,-0,0,-1.5,3.94113e+12,0,0,0,0,0,0,0,0,0,0,0,1.9603e-19,0,0,0,0,0,0,0,0,0
10859,-3.21252e-12,2.33458e-38,-1.56296e-06,-3.27827e-12,2.33446e-38,0,-1.06596e-13,0,0,0,0,0,0,0,0,0,0,0,0,0,0,0,0,0,0,0,0,0,-0,0,-1.5,3.94113e+12,0,0,0,0,0,0,0,0,0,0,0,1.9603e-19,0,0,0,0,0,0,0,0,0
10898,-3.21252e-12,2.33458e-38,-1.56296e-06,-3.27827e-12,2.33446e-38,0,-1.06596e-13,0,0,0,0,0,0,0,0,0,0,0,0,0,0,0,0,0,0,0,0,0,-0,0,-1.5,3.94113e+12,0,0,0,0,0,0,0,0,0,0,0,1.9603e-19,0,0,0,0,0,0,0,0,0
11010,-3.21252e-12,2.33458e-38,-1.56296e-06,-3.27827e-12,2.33446e-38,0,-1.06596e-13,0,0,0,0,0,0,0,0,0,0,0,0,0,0,0,0,0,0,0,0,0,-0,0,-1.5,3.94113e+12,0,0,0,0,0,0,0,0,0,0,0,1.9603e-19,0,0,0,0,0,0,0,0,0
11074,-3.21252e-12,2.33458e-38,-1.56296e-06,-3.27827e-12,2.33446e-38,0,-1.06596e-13,0,0,-3.55982,-0.0330806,0.790774,0,0,0,0,0,-0.476948,-0.0330806,256,-107,256,-107,385,-105,267,23,0,-0,0,-1.5,3.94113e+12,0,0,0,0,0,0,0,0,0,0,0,17161,0,0,0,0,11065,0,0,0,0
11091,-3.21252e-12,2.33458e-38,-1.56296e-06,-3.27827e-12,2.33446e-38,0,-1.06597e-13,0,0,-3.52964,-0.0451125,0.66744,0,0,0,0,0,-0.435612,-0.0451125,262,-90,262,-90,386,-98,263,39,0,-0,0,-1.5,3.94113e+12,0,0,0,0,0,0,0,0,0,0,0,17673,0,0,0,0,11083,0,0,0,0
11112,-3.21252e-12,2.33458e-38,-1.56296e-06,-3.27827e-12,2.33446e-38,0,-1.06597e-13,0,0,-3.52964,-0.0451125,0.66744,0,0,0,0,0,-0.435612,-0.0451125,262,-90,262,-90,386,-98,263,39,0,-0,0,-1.5,3.94113e+12,0,0,0,0,0,0,0,0,0,0,0,17673,0,0,0,0,11083,0,0,0,0
11220,-3.21252e-12,2.33458e-38,-1.56296e-06,-3.27827e-12,2.33446e-38,0,-1.06597e-13,0,0,-3.60932,-0.0758999,0.571919,0,0,0,0,0,-0.544771,-0.0758999,265,-74,265,-74,392,-78,269,53,0,-0,0,-1.5,3.94113e+12,0,0,0,0,0,0,0,0,0,0,0,16637,0,0,0,0,11212,0,0,0,0
11286,-3.21252e-12,2.33458e-38,-1.56296e-06,-3.27827e-12,2.33446e-38,0,-1.06597e-13,0,0,-3.60067,-0.104341,0.556338,0,0,0,0,0,-0.532924,-0.104341,271,-72,271,-72,392,-77,269,53,0.120893,-0.244935,0,-1.5,3.94113e+12,0,0,0,-0.532428,-0.105534,0,0,0,0,0.0709366,-0.170308,16510,-0.532924,-0.104341,0.0709366,-0.170308,11281,0.266214,-0.0212789,0.0527668,0.0681266
11302,-3.21252e-12,2.33458e-38,-1.56296e-06,-3.27827e-12,2.33446e-38,0,-1.06598e-13,0,0,-3.60067,-0.104341,0.556338,0,0,0,0,0,-0.532924,-0.104341,271,-72,271,-72,392,-77,269,53,0.122256,-0.244367,0,-1.5,3.94113e+12,0,0,0,-0.531293,-0.108259,0,0,0,0,0.0709366,-0.170308,16510,-0.532924,-0.104341,0.0709366,-0.170308,11281,0.265646,-0.0212789,0.0541293,0.0681266
11327,-3.21252e-12,2.33458e-38,-1.56296e-06,-3.27827e-12,2.33446e-38,0,-1.06598e-13,0,0,-3.60507,-0.112966,0.55192,0,0,0,0,0,-0.538948,-0.112966,273,-75,273,-75,397,-73,269,51,0.136961,-0.2599,0,-1.5,3.94113e+12,0,0,0,-0.538182,-0.117844,0,0,0,0,0.0306458,-0.195086,16640,-0.538948,-0.112966,0.0306458,-0.195086,11316,0.269091,-0.00919104,0.0589218,0.0780389
11344,-3.21253e-12,2.33234e-38,2.33464e-38,-3.27827e-12,2.33446e-38,0,-1.06598e-13,0,0,-3.60507,-0.112966,0.55192,0,0,0,0,0,-0.538948,-0.112966,273,-75,273,-75,397,-73,269,51,0.138619,-0.25963,0,-1.5,3.94113e+12,0,0,0,-0.537661,-0.12116,0,0,0,0,0.0306458,-0.195086,16640,-0.538948,-0.112966,0.0306458,-0.195086,11316,0.26883,-0.00919998,0.0605801,0.0780389
11456,-3.21252e-12,2.33458e-38,-1.56296e-06,-3.27827e-12,2.33446e-38,0,-1.06599e-13,0,0,-3.62744,-0.157684,0.530106,0,0,0,0,0,-0.569587,-0.157684,277,-68,277,-68,398,-72,277,61,0.201887,-0.261799,0,-1.5,3.94113e+12,0,0,0,-0.571944,-0.161021,0,0,0,0,-0.214259,-0.303424,16359,-0.569587,-0.157684,-0.214259,-0.303424,11447,0.285972,0.0642836,0.0805106,0.121376
11532,-3.21252e-12,2.33458e-38,-1.56296e-06,-3.27827e-12,2.33446e-38,0,-1.06601e-13,0,0,-3.59671,-0.18309,0.507664,0,0,0,0,0,-0.527496,-0.18309,280,-67,280,-67,402,-72,278,59,0.226834,-0.24827,0,-1.5,3.94113e+12,0,0,0,-0.524453,-0.196813,0,0,0,0,0.0465305,-0.321053,16506,-0.527989,-0.172413,0.0465305,-0.321053,11520,0.262226,-0.0139564,0.0984067,0.128427
11550,-3.21252e-12,2.33458e-38,-1.56296e-06,-3.27827e-12,2.33446e-38,0,-1.06602e-13,0,0,-3.6362,-0.174362,0.526668,0,0,0,0,0,-0.581597,-0.174362,280,-67,280,-67,402,-70,277,59,-0.436332,-0.261799,0,-1.5,3.94113e+12,0,0,0,-0.582765,-0.184957,0,0,0,0,-0.180622,-0.273868,16125,-0.581682,-0.183313,-0.180622,-0.273868,11546,0.291383,2.94357,0.0924783,-1.04731
11590,-3.21252e-12,2.33458e-38,-1.56296e-06,-3.27827e-12,2.33446e-38,0,-1.06599e-13,0,0,-3.61375,-0.172384,0.497519,0,0,0,0,0,-0.550837,-0.172384,280,-65,280,-65,402,-70,277,64,0.19114,-0.261799,0,-1.5,3.94113e+12,0,0,0,-0.557942,-0.187212,0,0,0,0,-0.0715381,-0.243827,16750,-0.557083,-0.184286,-0.0715381,-0.243827,11580,0.278971,0.0214666,0.0936062,0.0975341
11704,-3.21252e-12,2.33458e-38,-1.56296e-06,-3.27827e-12,2.33446e-38,0,-1.06599e-13,0,0,-3.64504,-0.175175,0.511881,0,0,0,0,0,-0.593701,-0.175175,277,-65,277,-65,402,-67,280,60,0.196718,-0.261799,0,-1.5,3.94113e+12,0,0,0,-0.613627,-0.208262,0,0,0,0,-0.188316,-0.23146,15875,-0.592159,-0.181875,-0.188316,-0.23146,11692,0.306813,0.0564963,0.104131,0.0925869
11734,-3.21252e-12,2.33458e-38,-1.56296e-06,-3.27827e-12,2.33446e-38,0,-1.066e-13,0,0,-3.65045,-0.173227,0.515232,0,0,0,0,0,-0.60111,-0.173227,280,-65,280,-65,401,-67,277,60,0.185819,-0.261799,0,-1.5,3.94113e+12,0,0,0,-0.608429,-0.204954,0,0,0,0,-0.161819,-0.20835,15748,-0.603574,-0.198704,-0.161819,-0.20835,11722,0.304214,0.048548,0.102477,0.0833422
11754,-3.21252e-12,2.33458e-38,-1.56296e-06,-3.27827e-12,2.33446e-38,0,-1.066e-13,0,0,-3.65377,-0.163487,0.498695,0,0,0,0,0,-0.605671,-0.163487,280,-63,280,-63,399,-67,277,66,0.187834,-0.261799,0,-1.5,3.94113e+12,0,0,0,-0.61004,-0.208084,0,0,0,0,-0.151147,-0.209471,16226,-0.608529,-0.20599,-0.151147,-0.209471,11746,0.30502,0.0453472,0.104042,0.0837922
11771,-3.21252e-12,2.33458e-38,-1.56296e-06,-3.27827e-12,2.33446e-38,0,-1.06599e-13,0,0,-3.65377,-0.163487,0.498695,0,0,0,0,0,-0.605671,-0.163487,280,-63,280,-63,399,-67,277,66,0.189615,-0.261799,0,-1.5,3.94113e+12,0,0,0,-0.61261,-0.211645,0,0,0,0,-0.151147,-0.209471,16226,-0.608529,-0.20599,-0.151147,-0.209471,11746,0.306305,0.0453383,0.105823,0.0837922
11796,-3.21252e-12,2.33458e-38,-1.56296e-06,-3.27827e-12,2.33446e-38,0,-1.06601e-13,0,0,-3.68233,-0.159302,0.518148,0,0,0,0,0,-0.644788,-0.159302,278,-65,278,-65,399,-63,277,63,0.181413,-0.261799,0,-1.5,3.94113e+12,0,0,0,-0.621742,-0.207825,0,0,0,0,-0.171718,-0.193742,15616,-0.617449,-0.202981,-0.171718,-0.193742,11784,0.310871,0.0515252,0.103913,0.0775009
11904,-3.21252e-12,2.33458e-38,-1.56296e-06,-3.27827e-12,2.33446e-38,0,-1.06604e-13,0,0,-3.62685,-0.152185,0.527875,0,0,0,0,0,-0.568789,-0.152185,277,-68,277,-68,401,-70,274,57,0.167308,-0.261799,0,-1.5,3.94113e+12,0,0,0,-0.631456,-0.206746,0,0,0,0,-0.153008,-0.159828,16129,-0.614931,-0.189484,-0.153008,-0.159828,11892,0.315728,0.0459015,0.103373,0.0639349
12013,-3.21252e-12,2.33458e-38,-1.56296e-06,-3.27827e-12,2.33446e-38,0,-1.06604e-13,0,0,-3.60136,-0.165472,0.480346,0,0,0,0,0,-0.533859,-0.165472,277,-63,277,-63,399,-67,276,63,0.140013,-0.261799,0,-1.5,3.94113e+12,0,0,0,-0.579882,-0.190982,0,0,0,0,-0.0524821,-0.111296,16640,-0.579462,-0.190091,-0.0524821,-0.111296,12007,0.289941,0.0157446,0.0954909,0.0445217
12124,-3.21252e-12,2.33458e-38,-1.56296e-06,-3.27827e-12,2.33446e-38,0,-1.06605e-13,0,0,-3.73349,-0.163647,0.448345,0,0,0,0,0,-0.714883,-0.163647,280,-51,280,-51,398,-53,277,71,0.136879,-0.261799,0,-1.5,3.94113e+12,0,0,0,-0.662834,-0.195002,0,0,0,0,-0.150139,-0.09845,15004,-0.646169,-0.184074,-0.150139,-0.09845,12112,0.331417,0.0450343,0.0975012,0.0393778
12147,-3.21252e-12,2.33458e-38,-1.56296e-06,-3.27827e-12,2.33446e-38,0,-1.06605e-13,0,0,-3.77039,-0.158179,0.490645,0,0,0,0,0,-0.765429,-0.158179,277,-51,277,-51,398,-53,277,67,0.130041,-0.261799,0,-1.5,3.94113e+12,0,0,0,-0.674251,-0.188502,0,0,0,0,-0.162098,-0.0894779,14520,-0.672792,-0.187697,-0.162098,-0.0894779,12140,0.337126,0.0486195,0.0942509,0.0357896
12255,-3.21252e-12,2.33458e-38,-1.56296e-06,-3.27827e-12,2.33446e-38,0,-1.06602e-13,0,0,-3.71908,-0.192139,0.501388,0,0,0,0,0,-0.695135,-0.192139,283,-58,283,-58,402,-60,280,66,0.136791,-0.261799,0,-1.5,3.94113e+12,0,0,0,-0.707097,-0.201264,0,0,0,0,-0.179726,-0.0904047,15372,-0.687866,-0.191591,-0.179726,-0.0904047,12242,0.353548,0.0539124,0.100632,0.0361592
12299,-3.21252e-12,2.33458e-38,-1.56296e-06,-3.27827e-12,2.33446e-38,0,-1.06602e-13,0,0,-3.67333,-0.185505,0.470574,0,0,0,0,0,-0.632464,-0.185505,280,-58,280,-58,402,-60,280,66,0.131851,-0.261799,0,-1.5,3.94113e+12,0,0,0,-0.696715,-0.198792,0,0,0,0,-0.160608,-0.0811411,15372,-0.689488,-0.195141,-0.160608,-0.0811411,12286,0.348357,0.0481814,0.0993962,0.0324547
12325,-3.21252e-12,2.33458e-38,-1.56296e-06,-3.27827e-12,2.33446e-38,0,-1.06602e-13,0,0,-3.60997,-0.174985,0.423208,0,0,0,0,0,-0.545655,-0.174985,277,-56,277,-56,405,-60,278,69,0.117755,-0.261799,0,-1.5,3.94113e+12,0,0,0,-0.692741,-0.18987,0,0,0,0,-0.150214,-0.0570492,16512,-0.690788,-0.189129,-0.150214,-0.0570492,12314,0.34637,0.0450611,0.0949351,0.0228196
12342,-3.21252e-12,2.33458e-38,-1.56296e-06,-3.27827e-12,2.33446e-38,0,-1.06605e-13,0,0,-3.60997,-0.174985,0.423208,0,0,0,0,0,-0.545655,-0.174985,277,-56,277,-56,405,-60,278,69,0.11824,-0.261799,0,-1.5,3.94113e+12,0,0,0,-0.695294,-0.19084,0,0,0,0,-0.150214,-0.0570492,16512,-0.690788,-0.189129,-0.150214,-0.0570492,12314,0.347647,0.0450611,0.09542,0.0228196
12455,-3.21252e-12,2.33458e-38,-1.56296e-06,-3.27827e-12,2.33446e-38,0,-1.06603e-13,0,0,-3.74012,-0.191809,0.500024,0,0,0,0,0,-0.723958,-0.191809,283,-58,283,-58,401,-56,280,66,0.122011,-0.261799,0,-1.5,3.94113e+12,0,0,0,-0.716672,-0.197346,0,0,0,0,-0.152845,-0.0583503,15004,-0.6994,-0.190752,-0.152845,-0.0583503,12442,0.358336,0.0458479,0.0986728,0.0233382
12547,-3.21252e-12,2.33458e-38,-1.56296e-06,-3.27827e-12,2.33446e-38,0,-1.06607e-13,0,0,-3.72398,-0.19313,0.488525,0,0,0,0,0,-0.701847,-0.19313,283,-58,283,-58,401,-56,280,67,-0.283758,0.218355,0,-1.5,3.94113e+12,0,0,0,-0.704061,-0.19496,0,0,0,0,-0.129932,-0.0457492,15125,-0.703151,-0.19464,-0.129932,-0.0457492,12542,0.35203,-0.570386,0.09748,-0.381238
12565,-3.21252e-12,2.33458e-38,-1.56296e-06,-3.27827e-12,2.33446e-38,0,-1.06605e-13,0,0,-3.72398,-0.19313,0.488525,0,0,0,0,0,-0.701847,-0.19313,283,-58,283,-58,401,-56,280,67,0.11619,-0.261799,0,-1.5,3.94113e+12,0,0,0,-0.7064,-0.195783,0,0,0,0,-0.129932,-0.0457492,15125,-0.703151,-0.19464,-0.129932,-0.0457492,12542,0.3532,0.0389814,0.0978917,0.0182986
12587,-3.21252e-12,2.33458e-38,-1.56296e-06,-3.27827e-12,2.33446e-38,0,-1.06606e-13,0,0,-3.75458,-0.191952,0.499349,0,0,0,0,0,-0.74378,-0.191952,283,-55,283,-55,401,-56,280,67,0.114341,-0.261799,0,-1.5,3.94113e+12,0,0,0,-0.731067,-0.194379,0,0,0,0,-0.149064,-0.0428848,14883,-0.729129,-0.193821,-0.149064,-0.0428848,12576,0.365533,0.0447124,0.0971893,0.0171512
12608,-3.21252e-12,2.33458e-38,-1.56296e-06,-3.27827e-12,2.33446e-38,0,-1.06601e-13,0,0,-3.75458,-0.191952,0.499349,0,0,0,0,0,-0.74378,-0.191952,283,-55,283,-55,401,-56,280,67,0.114791,-0.261799,0,-1.5,3.94113e+12,0,0,0,-0.734197,-0.195279,0,0,0,0,-0.149064,-0.0428848,14883,-0.729129,-0.193821,-0.149064,-0.0428848,12576,0.367098,0.0447124,0.0976396,0.0171512
12715,-3.21252e-12,2.33458e-38,-1.56296e-06,-3.27827e-12,2.33446e-38,0,-1.06606e-13,0,0,-3.71503,-0.186325,0.460799,0,0,0,0,0,-0.689593,-0.186325,279,-55,279,-55,403,-53,281,67,0.114384,-0.261799,0,-1.5,3.94113e+12,0,0,0,-0.72485,-0.196839,0,0,0,0,-0.130694,-0.0399132,15376,-0.710866,-0.192568,-0.130694,-0.0399132,12702,0.362425,0.039205,0.0984193,0.0159651
12774,-3.21252e-12,2.33458e-38,-1.56296e-06,-3.27827e-12,2.33446e-38,0,-1.06607e-13,0,0,-3.71776,-0.190781,0.457601,0,0,0,0,0,-0.693331,-0.190781,282,-55,282,-55,403,-53,280,69,0.114545,-0.261799,0,-1.5,3.94113e+12,0,0,0,-0.707647,-0.198077,0,0,0,0,-0.106755,-0.038773,15252,-0.701348,-0.195789,-0.106755,-0.038773,12761,0.353823,0.0320256,0.0990384,0.0155061
12793,-3.21252e-12,2.33458e-38,-1.56296e-06,-3.27827e-12,2.33446e-38,0,-1.06603e-13,0,0,-3.67326,-0.187177,0.423181,0,0,0,0,0,-0.632363,-0.187177,283,-53,283,-53,401,-56,279,74,0.113978,-0.261799,0,-1.5,3.94113e+12,0,0,0,-0.707436,-0.197819,0,0,0,0,-0.104764,-0.0376734,15860,-0.706284,-0.197405,-0.104764,-0.0376734,12784,0.353718,0.0314265,0.0989096,0.0150681
12827,-3.21252e-12,2.33458e-38,-1.56296e-06,-3.27827e-12,2.33446e-38,0,-1.06603e-13,0,0,-3.66201,-0.175542,0.414403,0,0,0,0,0,-0.616959,-0.175542,280,-53,280,-53,401,-56,279,74,0.112017,-0.261799,0,-1.5,3.94113e+12,0,0,0,-0.706904,-0.196723,0,0,0,0,-0.0989666,-0.0341419,15860,-0.703539,-0.195562,-0.0989666,-0.0341419,12813,0.353452,0.0296831,0.0983615,0.0136554
12936,-3.21252e-12,2.33458e-38,-1.56296e-06,-3.27827e-12,2.33446e-38,0,-1.06606e-13,0,0,-3.73418,-0.187072,0.466852,0,0,0,0,0,-0.71582,-0.187072,282,-55,282,-55,401,-53,280,69,0.109497,-0.261799,0,-1.5,3.94113e+12,0,0,0,-0.718136,-0.196475,0,0,0,0,-0.0997244,-0.0281478,15004,-0.707266,-0.193407,-0.0997244,-0.0281478,12922,0.359068,0.0299066,0.0982375,0.0112593
12998,-3.21252e-12,2.33458e-38,-1.56296e-06,-3.27827e-12,2.33446e-38,0,-1.06607e-13,0,0,-3.78014,-0.183952,0.468385,0,0,0,0,0,-0.77879,-0.183952,280,-48,280,-48,401,-50,280,70,0.10646,-0.261799,0,-1.5,3.94113e+12,0,0,0,-0.734095,-0.193971,0,0,0,0,-0.110196,-0.0236817,14520,-0.727262,-0.192503,-0.110196,-0.0236817,12984,0.367047,0.0330538,0.0969855,0.00947416
13026,-3.21252e-12,2.33458e-38,-1.56296e-06,-3.27827e-12,2.33446e-38,0,-1.06607e-13,0,0,-3.67697,-0.180309,0.421251,0,0,0,0,0,-0.637447,-0.180309,280,-51,280,-51,401,-55,279,74,0.109641,-0.261799,0,-1.5,3.94113e+12,0,0,0,-0.736016,-0.192751,0,0,0,0,-0.112394,-0.0221089,15738,-0.73433,-0.19242,-0.112394,-0.0221089,13013,0.368008,0.0505775,0.0963756,0.013265
13043,-3.21252e-12,2.33458e-38,-1.56296e-06,-3.27827e-12,2.33446e-38,0,-1.066e-13,0,0,-3.67697,-0.180309,0.421251,0,0,0,0,0,-0.637447,-0.180309,280,-51,280,-51,401,-55,279,74,0.105406,-0.261799,0,-1.5,3.94113e+12,0,0,0,-0.737926,-0.193127,0,0,0,0,-0.112394,-0.0221089,15738,-0.73433,-0.19242,-0.112394,-0.0221089,13013,0.368963,0.0337154,0.0965635,0.00884235
13156,-3.21252e-12,2.33458e-38,-1.56296e-06,-3.27827e-12,2.33446e-38,0,-1.06608e-13,0,0,-3.70598,-0.178648,0.451203,0,0,0,0,0,-0.677186,-0.178648,282,-55,282,-55,401,-53,277,70,0.099511,-0.261799,0,-1.5,3.94113e+12,0,0,0,-0.737366,-0.189819,0,0,0,0,-0.0980391,-0.0115048,15500,-0.726287,-0.188519,-0.0980391,-0.0115048,13142,0.368683,0.0294059,0.0949096,0.00460148
13243,-3.21252e-12,2.33458e-38,-1.56296e-06,-3.27827e-12,2.33446e-38,0,-1.06608e-13,0,0,-3.61276,-0.17312,0.38718,0,0,0,0,0,-0.549475,-0.17312,277,-53,277,-53,401,-56,279,74,0.0967883,-0.261799,0,-1.5,3.94113e+12,0,0,0,-0.741468,-0.186609,0,0,0,0,-0.0924698,-0.00871541,16250,-0.733516,-0.185859,-0.0924698,-0.00871541,13228,0.370734,0.027734,0.0933044,0.00348389
13265,-3.21252e-12,2.33458e-38,-1.56296e-06,-3.27827e-12,2.33446e-38,0,-1.06608e-13,0,0,-3.67396,-0.172417,0.434967,0,0,0,0,0,-0.63332,-0.172417,277,-55,277,-55,401,-55,280,70,0.09665,-0.261799,0,-1.5,3.94113e+12,0,0,0,-0.696954,-0.186535,0,0,0,0,-0.0630376,-0.00846097,15500,-0.695504,-0.18634,-0.0630376,-0.00846097,13251,0.348477,0.0189096,0.0932675,0.00338256
13288,-3.21252e-12,2.33458e-38,-1.56296e-06,-3.27827e-12,2.33446e-38,0,-1.06609e-13,0,0,-3.63737,-0.165561,0.403068,0,0,0,0,0,-0.583199,-0.165561,277,-53,277,-53,401,-56,278,73,0.092692,-0.261799,0,-1.5,3.94113e+12,0,0,0,-0.69558,-0.181575,0,0,0,0,-0.060219,-0.00476581,15996,-0.694978,-0.181528,-0.060219,-0.00476581,13281,0.34779,0.0180691,0.0907877,0.00190437
13305,-3.21252e-12,2.33458e-38,-1.56296e-06,-3.27827e-12,2.33446e-38,0,-1.06609e-13,0,0,-3.63737,-0.165561,0.403068,0,0,0,0,0,-0.583199,-0.165561,277,-53,277,-53,401,-56,278,73,0.0927355,-0.261799,0,-1.5,3.94113e+12,0,0,0,-0.696604,-0.181656,0,0,0,0,-0.060219,-0.00476581,15996,-0.694978,-0.181528,-0.060219,-0.00476581,13281,0.348302,0.0180602,0.0908282,0.00190735
13363,-3.21252e-12,2.33458e-38,-1.56296e-06,-3.27827e-12,2.33446e-38,0,-1.06609e-13,0,0,-3.63916,-0.186443,0.413142,0,0,0,0,0,-0.58565,-0.186443,282,-55,282,-55,406,-55,277,70,0.0956454,-0.261799,0,-1.5,3.94113e+12,0,0,0,-0.691845,-0.185489,0,0,0,0,-0.0535773,-0.00724813,16125,-0.688737,-0.185069,-0.0535773,-0.00724813,13349,0.345922,0.0160694,0.0927446,0.00290076
13401,-3.21252e-12,2.33458e-38,-1.56296e-06,-3.27827e-12,2.33446e-38,0,-1.06609e-13,0,0,-3.67841,-0.172433,0.431023,0,0,0,0,0,-0.639429,-0.172433,280,-53,280,-53,401,-55,277,70,0.0936538,-0.261799,0,-1.5,3.94113e+12,0,0,0,-0.647069,-0.182706,0,0,0,0,-0.0251144,-0.00575237,15500,-0.646115,-0.182487,-0.0251144,-0.00575237,13387,0.323535,0.00753701,0.091353,0.00230074
13424,-3.21252e-12,2.33458e-38,-1.56296e-06,-3.27827e-12,2.33446e-38,0,-1.0661e-13,0,0,-3.69966,-0.170932,0.447684,0,0,0,0,0,-0.66853,-0.170932,280,-53,280,-53,400,-55,277,70,0.0926412,-0.261799,0,-1.5,3.94113e+12,0,0,0,-0.645514,-0.181404,0,0,0,0,-0.0116549,-0.00484823,15375,-0.645246,-0.181293,-0.0116549,-0.00484823,13410,0.322757,0.00349283,0.0907021,0.00193914
13451,-3.21253e-12,2.33234e-38,2.33464e-38,-3.27827e-12,2.33446e-38,0,-1.0661e-13,0,0,-3.68056,-0.172607,0.441038,0,0,0,0,0,-0.642367,-0.172607,277,-55,277,-55,401,-55,280,70,0.0318614,-0.102402,0,-1.5,3.94113e+12,0,0,0,-0.64065,-0.180475,0,0,0,0,-0.00463264,-0.00460869,15500,-0.640618,-0.180442,-0.00463264,-0.00460869,13445,0.320325,-0.217923,0.0902374,-0.0583759
13467,-3.21252e-12,2.33458e-38,-1.56296e-06,-3.27827e-12,2.33446e-38,0,-1.0661e-13,0,0,-3.68056,-0.172607,0.441038,0,0,0,0,0,-0.642367,-0.172607,277,-55,277,-55,401,-55,280,70,0.0921213,-0.261799,0,-1.5,3.94113e+12,0,0,0,-0.640729,-0.180553,0,0,0,0,-0.00463264,-0.00460869,15500,-0.640618,-0.180442,-0.00463264,-0.00460869,13445,0.320364,0.00138581,0.0902766,0.00184476
13490,-3.21252e-12,2.33458e-38,-1.56296e-06,-3.27827e-12,2.33446e-38,0,-1.0661e-13,0,0,-3.60153,-0.173494,0.392045,0,0,0,0,0,-0.534091,-0.173494,277,-55,277,-55,406,-55,277,70,0.0961092,-0.261799,0,-1.5,3.94113e+12,0,0,0,-0.637295,-0.183319,0,0,0,0,0.00541774,-0.0111217,16125,-0.63736,-0.183186,0.00541774,-0.0111217,13480,0.318648,-0.00162721,0.0916597,0.00444949
13507,-3.21252e-12,2.33458e-38,-1.56296e-06,-3.27827e-12,2.33446e-38,0,-1.06611e-13,0,0,-3.60153,-0.173494,0.392045,0,0,0,0,0,-0.534091,-0.173494,277,-55,277,-55,406,-55,277,70,0.0962037,-0.261799,0,-1.5,3.94113e+12,0,0,0,-0.637203,-0.183509,0,0,0,0,0.00541774,-0.0111217,16125,-0.63736,-0.183186,0.00541774,-0.0111217,13480,0.318602,-0.00162721,0.0917543,0.00444949
13534,-3.21252e-12,2.33458e-38,-1.56296e-06,-3.27827e-12,2.33446e-38,0,-1.06611e-13,0,0,-3.5887,-0.173112,0.380232,0,0,0,0,0,-0.516513,-0.173112,277,-55,277,-55,406,-55,277,70,0.0864888,-0.261799,0,-1.5,3.94113e+12,0,0,0,-0.624351,-0.174235,0,0,0,0,0.0403546,0.0015781,16383,-0.62544,-0.174278,0.0403546,0.0015781,13520,0.312175,-0.0121057,0.0871177,-0.000628829
13557,-3.21252e-12,2.33458e-38,-1.56296e-06,-3.27827e-12,2.33446e-38,0,-1.06611e-13,0,0,-3.56212,-0.179037,0.367929,0,0,0,0,0,-0.4801,-0.179037,277,-53,277,-53,406,-57,277,73,0.0834887,-0.261799,0,-1.5,3.94113e+12,0,0,0,-0.604692,-0.173385,0,0,0,0,0.0635497,0.0080111,16770,-0.606154,-0.173569,0.0635497,0.0080111,13543,0.302346,-0.0190705,0.0866924,-0.00320375
13574,-3.21252e-12,2.33458e-38,-1.56296e-06,-3.27827e-12,2.33446e-38,0,-1.06612e-13,0,0,-3.56212,-0.179037,0.367929,0,0,0,0,0,-0.4801,-0.179037,277,-53,277,-53,406,-57,277,73,0.0834246,-0.261799,0,-1.5,3.94113e+12,0,0,0,-0.603675,-0.173257,0,0,0,0,0.0635497,0.0080111,16770,-0.606154,-0.173569,0.0635497,0.0080111,13543,0.301838,-0.0190616,0.0866283,-0.00320375
13601,-3.21252e-12,2.33458e-38,-1.56296e-06,-3.27827e-12,2.33446e-38,0,-1.06612e-13,0,0,-3.56212,-0.179037,0.367929,0,0,0,0,0,-0.4801,-0.179037,277,-53,277,-53,406,-57,277,73,0.0826689,-0.249027,0,-1.5,3.94113e+12,0,0,0,-0.55751,-0.172884,0,0,0,0,0.0991209,0.00943422,16770,-0.560285,-0.173148,0.0991209,0.00943422,13587,0.278755,-0.0297278,0.0864419,-0.00377297
13624,-3.21252e-12,2.33458e-38,-1.56296e-06,-3.27827e-12,2.33446e-38,0,-1.06612e-13,0,0,-3.68881,-0.168964,0.416646,0,0,0,0,0,-0.653664,-0.168964,280,-48,280,-48,400,-55,277,76,0.0794536,-0.261799,0,-1.5,3.94113e+12,0,0,0,-0.596061,-0.172235,0,0,0,0,0.073185,0.0111085,16113,-0.596939,-0.172368,0.073185,0.0111085,13614,0.29803,-0.0329375,0.0861174,-0.0066638
13637,-3.21252e-12,2.33458e-38,-1.56296e-06,-3.27827e-12,2.33446e-38,0,-1.06612e-13,0,0,-3.68881,-0.168964,0.416646,0,0,0,0,0,-0.653664,-0.168964,280,-48,280,-48,400,-55,277,76,0.0816046,-0.261799,0,-1.5,3.94113e+12,0,0,0,-0.595109,-0.17209,0,0,0,0,0.073185,0.0111085,16113,-0.596939,-0.172368,0.073185,0.0111085,13614,0.297555,-0.0219584,0.0860452,-0.00444055
13660,-3.21252e-12,2.33458e-38,-1.56296e-06,-3.27827e-12,2.33446e-38,0,-1.06613e-13,0,0,-3.69966,-0.170932,0.447684,0,0,0,0,0,-0.66853,-0.170932,280,-53,280,-53,400,-55,277,70,0.0802535,-0.261799,0,-1.5,3.94113e+12,0,0,0,-0.594959,-0.171039,0,0,0,0,0.0738493,0.013166,15375,-0.596658,-0.171342,0.0738493,0.013166,13646,0.29748,-0.022155,0.0855196,-0.00526607
13687,-3.21252e-12,2.33458e-38,-1.56296e-06,-3.27827e-12,2.33446e-38,0,-1.06613e-13,0,0,-3.5887,-0.173112,0.380232,0,0,0,0,0,-0.516513,-0.173112,277,-55,277,-55,406,-55,277,70,0.0796736,-0.235112,0,-1.5,3.94113e+12,0,0,0,-0.548437,-0.170613,0,0,0,0,0.130391,0.0140841,16383,-0.549741,-0.170753,0.130391,0.0140841,13679,0.274218,-0.0391066,0.0853063,-0.00563264
13704,-3.21252e-12,2.33458e-38,-1.56296e-06,-3.27827e-12,2.33446e-38,0,-1.06613e-13,0,0,-3.5887,-0.173112,0.380232,0,0,0,0,0,-0.516513,-0.173112,277,-55,277,-55,406,-55,277,70,0.0795509,-0.233995,0,-1.5,3.94113e+12,0,0,0,-0.54622,-0.170373,0,0,0,0,0.130391,0.0140841,16383,-0.549741,-0.170753,0.130391,0.0140841,13679,0.27311,-0.0391155,0.0851866,-0.00563562
13727,-3.21252e-12,2.33458e-38,-1.56296e-06,-3.27827e-12,2.33446e-38,0,-1.06613e-13,0,0,-3.62001,-0.166673,0.398436,0,0,0,0,0,-0.559411,-0.166673,277,-53,277,-53,399,-56,277,73,0.0788854,-0.247131,0,-1.5,3.94113e+12,0,0,0,-0.559405,-0.169602,0,0,0,0,0.108573,0.0147849,16254,-0.561793,-0.169928,0.108573,0.0147849,13713,0.279702,-0.032571,0.0848011,-0.00591576
13771,-3.21252e-12,2.33458e-38,-1.56296e-06,-3.27827e-12,2.33446e-38,0,-1.06614e-13,0,0,-3.66276,-0.162821,0.431221,0,0,0,0,0,-0.617985,-0.162821,277,-55,277,-55,400,-55,277,70,0.0778486,-0.242805,0,-1.5,3.94113e+12,0,0,0,-0.554347,-0.168322,0,0,0,0,0.114575,0.0157805,15375,-0.559388,-0.169016,0.114575,0.0157805,13756,0.277173,-0.034368,0.0841608,-0.00631213
13794,-3.21252e-12,2.33458e-38,-1.56296e-06,-3.27827e-12,2.33446e-38,0,-1.06614e-13,0,0,-3.59541,-0.173087,0.386302,0,0,0,0,0,-0.52571,-0.173087,277,-55,277,-55,406,-55,277,71,0.078158,-0.233786,0,-1.5,3.94113e+12,0,0,0,-0.542172,-0.168457,0,0,0,0,0.124338,0.0151781,16254,-0.545032,-0.168806,0.124338,0.0151781,13779,0.271086,-0.0373006,0.0842287,-0.00607073
13810,-3.21252e-12,2.33458e-38,-1.56296e-06,-3.27827e-12,2.33446e-38,0,-1.06614e-13,0,0,-3.59541,-0.173087,0.386302,0,0,0,0,0,-0.52571,-0.173087,277,-55,277,-55,406,-55,277,71,0.0780289,-0.232729,0,-1.5,3.94113e+12,0,0,0,-0.540059,-0.168199,0,0,0,0,0.124338,0.0151781,16254,-0.545032,-0.168806,0.124338,0.0151781,13779,0.270029,-0.0373006,0.0840997,-0.00607073
13944,-3.21252e-12,2.33458e-38,-1.56296e-06,-3.27827e-12,2.33446e-38,0,-1.06615e-13,0,0,-3.59653,-0.171293,0.384539,0,0,0,0,0,-0.527246,-0.171293,277,-55,277,-55,406,-55,277,70,0.0763617,-0.21429,0,-1.5,3.94113e+12,0,0,0,-0.510404,-0.165801,0,0,0,0,0.136398,0.0163489,16383,-0.528682,-0.167991,0.136398,0.0163489,13819,0.255202,-0.0409126,0.0829004,-0.00653863
13998,-3.21252e-12,2.33458e-38,-1.56296e-06,-3.27827e-12,2.33446e-38,0,-1.06615e-13,0,0,-3.71112,-0.16237,0.445472,0,0,0,0,0,-0.684238,-0.16237,277,-51,277,-51,400,-53,277,70,0.0726225,-0.218632,0,-1.5,3.94113e+12,0,0,0,-0.513994,-0.161684,0,0,0,0,0.127901,0.0205453,15129,-0.5209,-0.162793,0.127901,0.0205453,13984,0.256997,-0.0383645,0.080842,-0.00821948
14014,-3.21252e-12,2.33458e-38,-1.56296e-06,-3.27827e-12,2.33446e-38,0,-1.06615e-13,0,0,-3.71112,-0.16237,0.445472,0,0,0,0,0,-0.684238,-0.16237,277,-51,277,-51,400,-53,277,70,0.0724611,-0.2176,0,-1.5,3.94113e+12,0,0,0,-0.511947,-0.161355,0,0,0,0,0.127901,0.0205453,15129,-0.5209,-0.162793,0.127901,0.0205453,13984,0.255974,-0.0383735,0.0806776,-0.0082165
14027,-3.21252e-12,2.33458e-38,-1.56296e-06,-3.27827e-12,2.33446e-38,0,-1.06615e-13,0,0,-3.71112,-0.16237,0.445472,0,0,0,0,0,-0.684238,-0.16237,277,-51,277,-51,400,-53,277,70,0.0723276,-0.216778,0,-1.5,3.94113e+12,0,0,0,-0.510285,-0.161088,0,0,0,0,0.127901,0.0205453,15129,-0.5209,-0.162793,0.127901,0.0205453,13984,0.255142,-0.0383645,0.0805441,-0.0082165
14062,-3.21252e-12,2.33458e-38,-1.56296e-06,-3.27827e-12,2.33446e-38,0,-1.06616e-13,0,0,-3.71112,-0.16237,0.445472,0,0,0,0,0,-0.684238,-0.16237,277,-51,277,-51,400,-53,277,70,0.0719651,-0.214531,0,-1.5,3.94113e+12,0,0,0,-0.505808,-0.160369,0,0,0,0,0.127901,0.0205453,15129,-0.5209,-0.162793,0.127901,0.0205453,13984,0.252904,-0.0383735,0.0801845,-0.00821948
14085,-3.21252e-12,2.33458e-38,-1.56296e-06,-3.27827e-12,2.33446e-38,0,-1.06616e-13,0,0,-3.60324,-0.164036,0.395826,0,0,0,0,0,-0.536445,-0.164036,275,-53,275,-53,403,-56,276,70,0.073398,-0.223285,0,-1.5,3.94113e+12,0,0,0,-0.517756,-0.162031,0,0,0,0,0.118673,0.0190508,16128,-0.518942,-0.162222,0.118673,0.0190508,14077,0.258878,-0.0355929,0.0810155,-0.00761747
14102,-3.21252e-12,2.33458e-38,-1.56296e-06,-3.27827e-12,2.33446e-38,0,-1.06616e-13,0,0,-3.60324,-0.164036,0.395826,0,0,0,0,0,-0.536445,-0.164036,275,-53,275,-53,403,-56,276,70,0.0732456,-0.222327,0,-1.5,3.94113e+12,0,0,0,-0.515857,-0.161726,0,0,0,0,0.118673,0.0190508,16128,-0.518942,-0.162222,0.118673,0.0190508,14077,0.257929,-0.0356019,0.0808631,-0.00761747
14129,-3.21252e-12,2.33458e-38,-1.56296e-06,-3.27827e-12,2.33446e-38,0,-1.06616e-13,0,0,-3.59474,-0.151374,0.386017,0,0,0,0,0,-0.524798,-0.151374,275,-55,275,-55,403,-55,274,70,0.0711313,-0.223285,0,-1.5,3.94113e+12,0,0,0,-0.515521,-0.158702,0,0,0,0,0.114929,0.0205458,16254,-0.518739,-0.159277,0.114929,0.0205458,14115,0.257761,-0.0344753,0.0793508,-0.00821948
14152,-3.21252e-12,2.33458e-38,-1.56296e-06,-3.27827e-12,2.33446e-38,0,-1.06617e-13,0,0,-3.69832,-0.151055,0.449157,0,0,0,0,0,-0.666703,-0.151055,279,-55,279,-55,397,-54,274,70,0.0900803,-0.261799,0,-1.5,3.94113e+12,0,0,0,-0.519828,-0.158609,0,0,0,0,0.111161,0.0196088,15375,-0.520717,-0.158766,0.111161,0.0196088,14146,0.259914,0.226142,0.0793045,0.0107758
14169,-3.21252e-12,2.33458e-38,-1.56296e-06,-3.27827e-12,2.33446e-38,0,-1.06617e-13,0,0,-3.69832,-0.151055,0.449157,0,0,0,0,0,-0.666703,-0.151055,279,-55,279,-55,397,-54,274,70,0.0712938,-0.22562,0,-1.5,3.94113e+12,0,0,0,-0.517938,-0.158276,0,0,0,0,0.111161,0.0196088,15375,-0.520717,-0.158766,0.111161,0.0196088,14146,0.258969,-0.0333488,0.0791378,-0.00784397
14192,-3.21252e-12,2.33458e-38,-1.56296e-06,-3.27827e-12,2.33446e-38,0,-1.06617e-13,0,0,-3.7303,-0.147507,0.462659,0,0,0,0,0,-0.710513,-0.147507,279,-53,279,-53,397,-54,274,70,0.0696828,-0.229046,0,-1.5,3.94113e+12,0,0,0,-0.520497,-0.156657,0,0,0,0,0.104004,0.0216168,15252,-0.521953,-0.15696,0.104004,0.0216168,14180,0.260249,-0.031203,0.0783285,-0.00864565
14239,-3.21252e-12,2.33458e-38,-1.56296e-06,-3.27827e-12,2.33446e-38,0,-1.06618e-13,0,0,-3.70639,-0.136767,0.446926,0,0,0,0,0,-0.677759,-0.136767,277,-51,277,-51,396,-56,273,71,0.0689325,-0.261799,0,-1.5,3.94113e+12,0,0,0,-0.6066,-0.155353,0,0,0,0,0.0202979,0.0218625,15621,-0.607534,-0.156359,0.0202979,0.0218625,14224,0.3033,-0.00608861,0.0776765,-0.008744
14262,-3.21252e-12,2.33458e-38,-1.56296e-06,-3.27827e-12,2.33446e-38,0,-1.06618e-13,0,0,-3.67571,-0.134635,0.42289,0,0,0,0,0,-0.635724,-0.134635,276,-53,276,-53,398,-53,272,70,0.0671501,-0.261799,0,-1.5,3.94113e+12,0,0,0,-0.605566,-0.152998,0,0,0,0,0.0230571,0.0233754,15624,-0.606096,-0.153536,0.0230571,0.0233754,14247,0.302783,-0.0069201,0.0764991,-0.00934899
14279,-3.21252e-12,2.33458e-38,-1.56296e-06,-3.27827e-12,2.33446e-38,0,-1.06618e-13,0,0,-3.67571,-0.134635,0.42289,0,0,0,0,0,-0.635724,-0.134635,276,-53,276,-53,398,-53,272,70,0.0669398,-0.261799,0,-1.5,3.94113e+12,0,0,0,-0.605151,-0.152578,0,0,0,0,0.0230571,0.0233754,15624,-0.606096,-0.153536,0.0230571,0.0233754,14247,0.302575,-0.0069201,0.0762888,-0.00934899
14306,-3.21252e-12,2.33458e-38,-1.56296e-06,-3.27827e-12,2.33446e-38,0,-1.06618e-13,0,0,-3.65898,-0.13848,0.413515,0,0,0,0,0,-0.612797,-0.13848,276,-53,276,-53,400,-53,272,70,0.0636613,-0.261799,0,-1.5,3.94113e+12,0,0,0,-0.604078,-0.148202,0,0,0,0,0.0244686,0.0261053,15872,-0.604739,-0.148907,0.0244686,0.0261053,14292,0.302039,-0.00734031,0.0741011,-0.0104398
14326,-3.21252e-12,2.33458e-38,-1.56296e-06,-3.27827e-12,2.33446e-38,0,-1.06619e-13,0,0,-3.64119,-0.135585,0.411917,0,0,0,0,0,-0.588428,-0.135585,276,-55,276,-55,400,-55,272,70,0.0621586,-0.261799,0,-1.5,3.94113e+12,0,0,0,-0.606356,-0.146323,0,0,0,0,0.0229637,0.0275054,16128,-0.606631,-0.146653,0.0229637,0.0275054,14316,0.303178,-0.00688434,0.0731616,-0.011003
14342,-3.21252e-12,2.33458e-38,-1.56296e-06,-3.27827e-12,2.33446e-38,0,-1.06619e-13,0,0,-3.64119,-0.135585,0.411917,0,0,0,0,0,-0.588428,-0.135585,276,-55,276,-55,400,-55,272,70,0.0619415,-0.261799,0,-1.5,3.94113e+12,0,0,0,-0.605988,-0.145883,0,0,0,0,0.0229637,0.0275054,16128,-0.606631,-0.146653,0.0229637,0.0275054,14316,0.302994,-0.00688434,0.0729415,-0.011
14387,-3.21252e-12,2.33458e-38,-1.56296e-06,-3.27827e-12,2.33446e-38,0,-1.06619e-13,0,0,-3.68584,-0.114561,0.442009,0,0,0,0,0,-0.649595,-0.114561,272,-55,272,-55,394,-54,272,70,0.0575815,-0.261799,0,-1.5,3.94113e+12,0,0,0,-0.613826,-0.141741,0,0,0,0,-0.00237195,0.0332253,15250,-0.613719,-0.143236,-0.00237195,0.0332253,14373,0.306913,0.000715256,0.0708704,-0.0132889
14404,-3.21252e-12,2.33458e-38,-1.56296e-06,-3.27827e-12,2.33446e-38,0,-1.06619e-13,0,0,-3.68584,-0.114561,0.442009,0,0,0,0,0,-0.649595,-0.114561,272,-55,272,-55,394,-54,272,70,0.0572991,-0.261799,0,-1.5,3.94113e+12,0,0,0,-0.613866,-0.141176,0,0,0,0,-0.00237195,0.0332253,15250,-0.613719,-0.143236,-0.00237195,0.0332253,14373,0.306933,0.000706315,0.070588,-0.0132889
14427,-3.21252e-12,2.33458e-38,-1.56296e-06,-3.27827e-12,2.33446e-38,0,-1.0662e-13,0,0,-3.73747,-0.121125,0.473672,0,0,0,0,0,-0.720329,-0.121125,275,-55,275,-55,393,-53,272,68,0.0547902,-0.261799,0,-1.5,3.94113e+12,0,0,0,-0.646761,-0.138572,0,0,0,0,-0.0540991,0.0362417,14883,-0.645571,-0.139369,-0.0540991,0.0362417,14412,0.32338,0.0162274,0.0692861,-0.0144958
14449,-3.21252e-12,2.33458e-38,-1.56296e-06,-3.27827e-12,2.33446e-38,0,-1.0662e-13,0,0,-3.75578,-0.117145,0.483823,0,0,0,0,0,-0.745424,-0.117145,275,-55,275,-55,393,-53,272,68,0.0472848,-0.261799,0,-1.5,3.94113e+12,0,0,0,-0.656311,-0.130607,0,0,0,0,-0.0615161,0.0450437,14883,-0.655696,-0.131057,-0.0615161,0.0450437,14441,0.328155,0.0184536,0.0653033,-0.0180185
14470,-3.21252e-12,2.33458e-38,-1.56296e-06,-3.27827e-12,2.33446e-38,0,-1.0662e-13,0,0,-3.75578,-0.117145,0.483823,0,0,0,0,0,-0.745424,-0.117145,275,-55,275,-55,393,-53,272,68,0.0468149,-0.261799,0,-1.5,3.94113e+12,0,0,0,-0.657603,-0.129661,0,0,0,0,-0.0615161,0.0450437,14883,-0.655696,-0.131057,-0.0615161,0.0450437,14441,0.328801,0.0184536,0.0648304,-0.0180155
14493,-3.21252e-12,2.33458e-38,-1.56296e-06,-3.27827e-12,2.33446e-38,0,-1.0662e-13,0,0,-3.73996,-0.112083,0.474924,0,0,0,0,0,-0.723749,-0.112083,273,-55,273,-55,393,-53,272,68,0.0455223,-0.261799,0,-1.5,3.94113e+12,0,0,0,-0.658496,-0.128059,0,0,0,0,-0.0593045,0.0462768,14883,-0.657132,-0.129123,-0.0593045,0.0462768,14479,0.329248,0.017783,0.0640296,-0.0185072
14510,-3.21252e-12,2.33458e-38,-1.56296e-06,-3.27827e-12,2.33446e-38,0,-1.06621e-13,0,0,-3.73996,-0.112083,0.474924,0,0,0,0,0,-0.723749,-0.112083,273,-55,273,-55,393,-53,272,68,0.045127,-0.261799,0,-1.5,3.94113e+12,0,0,0,-0.659504,-0.127272,0,0,0,0,-0.0593045,0.0462768,14883,-0.657132,-0.129123,-0.0593045,0.0462768,14479,0.329752,0.017792,0.0636362,-0.0185092
14537,-3.21252e-12,2.33458e-38,-1.56296e-06,-3.27827e-12,2.33446e-38,0,-1.06621e-13,0,0,-3.71022,-0.106485,0.451706,0,0,0,0,0,-0.683,-0.106485,273,-53,273,-53,394,-53,269,68,0.0369917,-0.261799,0,-1.5,3.94113e+12,0,0,0,-0.682907,-0.118302,0,0,0,0,-0.0792252,0.0554024,15250,-0.680847,-0.119743,-0.0792252,0.0554024,14522,0.341453,0.0237644,0.0591512,-0.0221595
14553,-3.21252e-12,2.33458e-38,-1.56296e-06,-3.27827e-12,2.33446e-38,0,-1.06621e-13,0,0,-3.71022,-0.106485,0.451706,0,0,0,0,0,-0.683,-0.106485,273,-53,273,-53,394,-53,269,68,0.0365208,-0.261799,0,-1.5,3.94113e+12,0,0,0,-0.684253,-0.117361,0,0,0,0,-0.0792252,0.0554024,15250,-0.680847,-0.119743,-0.0792252,0.0554024,14522,0.342127,0.0237644,0.0586803,-0.0221595
14567,-3.21252e-12,2.33458e-38,-1.56296e-06,-3.27827e-12,2.33446e-38,0,-1.06622e-13,0,0,-3.71022,-0.106485,0.451706,0,0,0,0,0,-0.683,-0.106485,273,-53,273,-53,394,-53,269,68,0.036133,-0.261799,0,-1.5,3.94113e+12,0,0,0,-0.685363,-0.116585,0,0,0,0,-0.0792252,0.0554024,15250,-0.680847,-0.119743,-0.0792252,0.0554024,14522,0.342681,0.0237644,0.0582925,-0.0221595
14626,-3.21252e-12,2.33458e-38,-1.56296e-06,-3.27827e-12,2.33446e-38,0,-1.06622e-13,0,0,-3.67553,-0.10616,0.429409,0,0,0,0,0,-0.635477,-0.10616,273,-55,273,-55,394,-53,269,68,0.0296089,-0.261799,0,-1.5,3.94113e+12,0,0,0,-0.686949,-0.109104,0,0,0,0,-0.133151,0.0623603,15875,-0.685085,-0.109977,-0.133151,0.0623603,14614,0.343475,0.0399381,0.054552,-0.0249431
14654,-3.21252e-12,2.33458e-38,-1.56296e-06,-3.27827e-12,2.33446e-38,0,-1.06622e-13,0,0,-3.68355,-0.110741,0.436031,0,0,0,0,0,-0.64647,-0.110741,275,-55,275,-55,394,-54,269,68,0.0300966,-0.261799,0,-1.5,3.94113e+12,0,0,0,-0.688657,-0.109027,0,0,0,0,-0.129759,0.0610471,15875,-0.68749,-0.109577,-0.129759,0.0610471,14646,0.344329,0.0389278,0.0545136,-0.024417
14670,-3.21252e-12,2.33458e-38,-1.56296e-06,-3.27827e-12,2.33446e-38,0,-1.06622e-13,0,0,-3.68355,-0.110741,0.436031,0,0,0,0,0,-0.64647,-0.110741,275,-55,275,-55,394,-54,269,68,0.0295777,-0.261799,0,-1.5,3.94113e+12,0,0,0,-0.690863,-0.10799,0,0,0,0,-0.129759,0.0610471,15875,-0.68749,-0.109577,-0.129759,0.0610471,14646,0.345432,0.0389278,0.0539948,-0.024417
14693,-3.21252e-12,2.33458e-38,-1.56296e-06,-3.27827e-12,2.33446e-38,0,-1.06623e-13,0,0,-3.65283,-0.0988089,0.416696,0,0,0,0,0,-0.604379,-0.0988089,270,-55,270,-55,394,-53,269,68,0.0264215,-0.261799,0,-1.5,3.94113e+12,0,0,0,-0.670548,-0.10449,0,0,0,0,-0.112268,0.0645653,15875,-0.667966,-0.105975,-0.112268,0.0645653,14679,0.335274,0.0336796,0.0522452,-0.0258237
14720,-3.21252e-12,2.33458e-38,-1.56296e-06,-3.27827e-12,2.33446e-38,0,-1.06623e-13,0,0,-3.67553,-0.10616,0.429409,0,0,0,0,0,-0.635477,-0.10616,273,-55,273,-55,394,-53,269,68,0.0254447,-0.261799,0,-1.5,3.94113e+12,0,0,0,-0.666826,-0.102498,0,0,0,0,-0.106063,0.0645169,15875,-0.665872,-0.103079,-0.106063,0.0645169,14713,0.333413,0.0318199,0.051249,-0.0258043
14737,-3.21252e-12,2.33458e-38,-1.56296e-06,-3.27827e-12,2.33446e-38,0,-1.06623e-13,0,0,-3.67553,-0.10616,0.429409,0,0,0,0,0,-0.635477,-0.10616,273,-55,273,-55,394,-53,269,68,0.0248963,-0.261799,0,-1.5,3.94113e+12,0,0,0,-0.668629,-0.101401,0,0,0,0,-0.106063,0.0645169,15875,-0.665872,-0.103079,-0.106063,0.0645169,14713,0.334315,0.0318199,0.0507007,-0.0258043
14760,-3.21252e-12,2.33458e-38,-1.56296e-06,-3.27827e-12,2.33446e-38,0,-1.06623e-13,0,0,-3.64537,-0.112553,0.417022,0,0,0,0,0,-0.594163,-0.112553,272,-53,272,-53,396,-56,270,71,0.0250856,-0.261799,0,-1.5,3.94113e+12,0,0,0,-0.667448,-0.101249,0,0,0,0,-0.110078,0.0638542,16002,-0.664917,-0.102718,-0.110078,0.0638542,14746,0.333724,0.033018,0.0506247,-0.0255391
14787,-3.21252e-12,2.33458e-38,-1.56296e-06,-3.27827e-12,2.33446e-38,0,-1.06624e-13,0,0,-3.73908,-0.109054,0.490506,0,0,0,0,0,-0.722536,-0.109054,272,-55,272,-55,393,-56,272,67,0.0252555,-0.261799,0,-1.5,3.94113e+12,0,0,0,-0.67006,-0.100704,0,0,0,0,-0.103718,0.0627454,14883,-0.668608,-0.101583,-0.103718,0.0627454,14775,0.33503,0.0311136,0.0503521,-0.0250965
14804,-3.21252e-12,2.33458e-38,-1.56296e-06,-3.27827e-12,2.33446e-38,0,-1.06624e-13,0,0,-3.73908,-0.109054,0.490506,0,0,0,0,0,-0.722536,-0.109054,272,-55,272,-55,393,-56,272,67,0.0247222,-0.261799,0,-1.5,3.94113e+12,0,0,0,-0.671823,-0.0996375,0,0,0,0,-0.103718,0.0627454,14883,-0.668608,-0.101583,-0.103718,0.0627454,14775,0.335912,0.0311136,0.0498188,-0.0250965
14828,-3.21252e-12,2.33458e-38,-1.56296e-06,-3.27827e-12,2.33446e-38,0,-1.06624e-13,0,0,-3.6875,-0.112166,0.476564,0,0,0,0,0,-0.651871,-0.112166,272,-58,272,-58,393,-59,272,66,0.0235246,-0.261799,0,-1.5,3.94113e+12,0,0,0,-0.653247,-0.0984492,0,0,0,0,-0.031749,0.0642557,15125,-0.652485,-0.0999913,-0.031749,0.0642557,14814,0.326624,0.00952184,0.0492246,-0.0257
14842,-3.21252e-12,2.33458e-38,-1.56296e-06,-3.27827e-12,2.33446e-38,0,-1.06625e-13,0,0,-3.6875,-0.112166,0.476564,0,0,0,0,0,-0.651871,-0.112166,272,-58,272,-58,393,-59,272,66,0.0230748,-0.261799,0,-1.5,3.94113e+12,0,0,0,-0.653692,-0.0975497,0,0,0,0,-0.031749,0.0642557,15125,-0.652485,-0.0999913,-0.031749,0.0642557,14814,0.326846,0.00952184,0.0487748,-0.0257
14869,-3.21252e-12,2.33458e-38,-1.56296e-06,-3.27827e-12,2.33446e-38,0,-1.06625e-13,0,0,-3.60668,-0.135336,0.436376,0,0,0,0,0,-0.541145,-0.135336,274,-58,274,-58,400,-63,273,67,0.0234748,-0.261799,0,-1.5,3.94113e+12,0,0,0,-0.655533,-0.0968416,0,0,0,0,-0.0331808,0.0623695,16510,-0.654637,-0.0985256,-0.0331808,0.0623695,14855,0.327767,0.009951,0.0484208,-0.024946
14900,-3.21252e-12,2.33458e-38,-1.56296e-06,-3.27827e-12,2.33446e-38,0,-1.06625e-13,0,0,-3.63548,-0.124047,0.453179,0,0,0,0,0,-0.580615,-0.124047,273,-60,273,-60,397,-60,272,66,0.021447,-0.261799,0,-1.5,3.94113e+12,0,0,0,-0.652607,-0.0942404,0,0,0,0,-0.0313823,0.0641886,15750,-0.651634,-0.0962302,-0.0313823,0.0641886,14886,0.326303,0.00941455,0.0471202,-0.0256732
14923,-3.21252e-12,2.33458e-38,-1.56296e-06,-3.27827e-12,2.33446e-38,0,-1.06625e-13,0,0,-3.69592,-0.13006,0.481839,0,0,0,0,0,-0.663412,-0.13006,275,-55,275,-55,397,-60,272,64,0.0145203,-0.261799,0,-1.5,3.94113e+12,0,0,0,-0.662798,-0.0998122,0,0,0,0,-0.0764781,0.0589812,15625,-0.661039,-0.101169,-0.0764781,0.0589812,14909,0.331399,0.0344127,0.0499061,-0.0353858
14949,-3.21252e-12,2.33458e-38,-1.56296e-06,-3.27827e-12,2.33446e-38,0,-1.06626e-13,0,0,-3.74722,-0.144193,0.53148,0,0,0,0,0,-0.733697,-0.144193,279,-61,279,-61,396,-59,274,63,0.026953,-0.261799,0,-1.5,3.94113e+12,0,0,0,-0.662059,-0.0993902,0,0,0,0,-0.0379052,0.0568604,15128,-0.66168,-0.0999588,-0.0379052,0.0568604,14942,0.331029,0.0113726,0.0496951,-0.0227422
14966,-3.21252e-12,2.33458e-38,-1.56296e-06,-3.27827e-12,2.33446e-38,0,-1.06626e-13,0,0,-3.74722,-0.144193,0.53148,0,0,0,0,0,-0.733697,-0.144193,279,-61,279,-61,396,-59,274,63,0.0264697,-0.261799,0,-1.5,3.94113e+12,0,0,0,-0.662703,-0.0984236,0,0,0,0,-0.0379052,0.0568604,15128,-0.66168,-0.0999588,-0.0379052,0.0568604,14942,0.331351,0.0113726,0.0492118,-0.0227422
15009,-3.21252e-12,2.33458e-38,-1.56296e-06,-3.27827e-12,2.33446e-38,0,-1.06626e-13,0,0,-3.71706,-0.136378,0.516238,0,0,0,0,0,-0.692374,-0.136378,276,-62,276,-62,396,-59,274,63,0.0245758,-0.261799,0,-1.5,3.94113e+12,0,0,0,-0.666854,-0.095524,0,0,0,0,-0.0438948,0.0579702,15250,-0.664967,-0.0980166,-0.0438948,0.0579702,14995,0.333427,0.0131696,0.047762,-0.0231862
15032,-3.21252e-12,2.33458e-38,-1.56296e-06,-3.27827e-12,2.33446e-38,0,-1.06626e-13,0,0,-3.69831,-0.136704,0.513921,0,0,0,0,0,-0.666679,-0.136704,277,-60,277,-60,396,-65,274,63,0.0217372,-0.261799,0,-1.5,3.94113e+12,0,0,0,-0.669543,-0.0928609,0,0,0,0,-0.0497452,0.0617381,15616,-0.668398,-0.0942808,-0.0497452,0.0617381,15017,0.334771,0.014925,0.0464304,-0.0246932
15059,-3.21252e-12,2.33458e-38,-1.56296e-06,-3.27827e-12,2.33446e-38,0,-1.06627e-13,0,0,-3.71971,-0.143602,0.519777,0,0,0,0,0,-0.696003,-0.143602,276,-62,276,-62,397,-60,276,61,0.0305358,-0.261799,0,-1.5,3.94113e+12,0,0,0,-0.668508,-0.0998682,0,0,0,0,-0.0373091,0.0485005,15246,-0.667986,-0.100547,-0.0373091,0.0485005,15047,0.334254,0.0111938,0.0499341,-0.0193983
15076,-3.21252e-12,2.33458e-38,-1.56296e-06,-3.27827e-12,2.33446e-38,0,-1.06627e-13,0,0,-3.71971,-0.143602,0.519777,0,0,0,0,0,-0.696003,-0.143602,276,-62,276,-62,397,-60,276,61,0.0301235,-0.261799,0,-1.5,3.94113e+12,0,0,0,-0.669143,-0.0990437,0,0,0,0,-0.0373091,0.0485005,15246,-0.667986,-0.100547,-0.0373091,0.0485005,15047,0.334571,0.0111848,0.0495219,-0.0193983
15098,-3.21252e-12,2.33458e-38,-1.56296e-06,-3.27827e-12,2.33446e-38,0,-1.06627e-13,0,0,-3.68177,-0.133808,0.493073,0,0,0,0,0,-0.644028,-0.133808,277,-60,277,-60,396,-63,273,66,0.0522959,-0.261799,0,-1.5,3.94113e+12,0,0,0,-0.653104,-0.119466,0,0,0,0,-0.00386895,0.0185947,15867,-0.653019,-0.119875,-0.00386895,0.0185947,15084,0.326552,0.00116229,0.059733,-0.00743717
15126,-3.21252e-12,2.33458e-38,-1.56296e-06,-3.27827e-12,2.33446e-38,0,-1.06628e-13,0,0,-3.68177,-0.133808,0.493073,0,0,0,0,0,-0.644028,-0.133808,277,-60,277,-60,396,-63,273,66,0.0616053,-0.261799,0,-1.5,3.94113e+12,0,0,0,-0.660396,-0.128557,0,0,0,0,-0.0255322,0.00669024,15867,-0.660064,-0.128644,-0.0255322,0.00669024,15114,0.330198,0.00765324,0.0642786,-0.00267327
15139,-3.21252e-12,2.33458e-38,-1.56296e-06,-3.27827e-12,2.33446e-38,0,-1.06628e-13,0,0,-3.68177,-0.133808,0.493073,0,0,0,0,0,-0.644028,-0.133808,277,-60,277,-60,396,-63,273,66,0.0615555,-0.261799,0,-1.5,3.94113e+12,0,0,0,-0.660753,-0.128464,0,0,0,0,-0.0255322,0.00669024,15867,-0.660064,-0.128644,-0.0255322,0.00669024,15114,0.330377,0.00765324,0.0642318,-0.00267625
15162,-3.21252e-12,2.33458e-38,-1.56296e-06,-3.27827e-12,2.33446e-38,0,-1.06628e-13,0,0,-3.68066,-0.13139,0.494797,0,0,0,0,0,-0.642505,-0.13139,276,-60,276,-60,396,-63,273,66,0.0661024,-0.261799,0,-1.5,3.94113e+12,0,0,0,-0.642964,-0.131025,0,0,0,0,0.00847256,-0.00147934,15867,-0.643158,-0.130991,0.00847256,-0.00147934,15148,0.321482,-0.00253916,0.0655123,0.000590086
15185,-3.21252e-12,2.33458e-38,-1.56296e-06,-3.27827e-12,2.33446e-38,0,-1.06628e-13,0,0,-3.64181,-0.130088,0.470212,0,0,0,0,0,-0.589286,-0.130088,274,-60,274,-60,396,-63,273,66,0.121995,-0.261799,0,-1.5,3.94113e+12,0,0,0,-0.643347,-0.132165,0,0,0,0,0.0207932,-0.014587,15867,-0.643514,-0.132048,0.0207932,-0.014587,15179,0.321674,0.0191599,0.0660825,0.0559121
15206,-3.21252e-12,2.33458e-38,-1.56296e-06,-3.27827e-12,2.33446e-38,0,-1.06629e-13,0,0,-3.64181,-0.130088,0.470212,0,0,0,0,0,-0.589286,-0.130088,274,-60,274,-60,396,-63,273,66,0.072071,-0.261799,0,-1.5,3.94113e+12,0,0,0,-0.642911,-0.132471,0,0,0,0,0.0207932,-0.014587,15867,-0.643514,-0.132048,0.0207932,-0.014587,15179,0.321455,-0.00623167,0.0662357,0.00583529
15229,-3.21252e-12,2.33458e-38,-1.56296e-06,-3.27827e-12,2.33446e-38,0,-1.06629e-13,0,0,-3.63408,-0.127585,0.465759,0,0,0,0,0,-0.578693,-0.127585,273,-60,273,-60,396,-63,273,66,0.0738572,-0.261799,0,-1.5,3.94113e+12,0,0,0,-0.641573,-0.132936,0,0,0,0,0.0104218,-0.0184739,15867,-0.641813,-0.132512,0.0104218,-0.0184739,15215,0.320787,-0.00312328,0.0664682,0.00738899
15283,-3.21252e-12,2.33458e-38,-1.56296e-06,-3.27827e-12,2.33446e-38,0,-1.06629e-13,0,0,-3.64785,-0.130179,0.476029,0,0,0,0,0,-0.597553,-0.130179,274,-60,274,-60,396,-63,273,66,0.0736741,-0.261799,0,-1.5,3.94113e+12,0,0,0,-0.640943,-0.132417,0,0,0,0,0.0088986,-0.0186675,15867,-0.641424,-0.131409,0.0088986,-0.0186675,15268,0.320471,-0.00267327,0.0662086,0.00746548
15341,-3.21252e-12,2.33458e-38,-1.56296e-06,-3.27827e-12,2.33446e-38,0,-1.06629e-13,0,0,-3.67733,-0.142811,0.500041,0,0,0,0,0,-0.637938,-0.142811,276,-60,276,-60,398,-63,274,63,0.0760673,-0.261799,0,-1.5,3.94113e+12,0,0,0,-0.640704,-0.135493,0,0,0,0,0.0094642,-0.0207996,15624,-0.641253,-0.134287,0.0094642,-0.0207996,15327,0.320352,-0.0028342,0.0677465,0.00832081
15364,-3.21252e-12,2.33458e-38,-1.56296e-06,-3.27827e-12,2.33446e-38,0,-1.0663e-13,0,0,-3.65766,-0.133599,0.495027,0,0,0,0,0,-0.610988,-0.133599,274,-63,274,-63,396,-63,274,63,0.0752552,-0.261799,0,-1.5,3.94113e+12,0,0,0,-0.641357,-0.134673,0,0,0,0,0.00819305,-0.0197991,15372,-0.641545,-0.134218,0.00819305,-0.0197991,15350,0.320678,-0.00244975,0.0673367,0.00791848
15387,-3.21252e-12,2.33458e-38,-1.56296e-06,-3.27827e-12,2.33446e-38,0,-1.0663e-13,0,0,-3.69531,-0.12999,0.510327,0,0,0,0,0,-0.66257,-0.12999,274,-60,274,-60,396,-63,274,63,0.0758009,-0.261799,0,-1.5,3.94113e+12,0,0,0,-0.637104,-0.134579,0,0,0,0,0.0147649,-0.0212781,15372,-0.637311,-0.134281,0.0147649,-0.0212781,15375,0.318552,-0.00443459,0.0672894,0.00851154
15404,-3.21252e-12,2.33458e-38,-1.56296e-06,-3.27827e-12,2.33446e-38,0,-1.0663e-13,0,0,-3.69531,-0.12999,0.510327,0,0,0,0,0,-0.66257,-0.12999,274,-60,274,-60,396,-63,274,63,0.0759818,-0.261799,0,-1.5,3.94113e+12,0,0,0,-0.636853,-0.13494,0,0,0,0,0.0147649,-0.0212781,15372,-0.637311,-0.134281,0.0147649,-0.0212781,15375,0.318427,-0.00443459,0.0674702,0.00851154
15450,-3.21252e-12,2.33458e-38,-1.56296e-06,-3.27827e-12,2.33446e-38,0,-1.06631e-13,0,0,-3.69531,-0.12999,0.510327,0,0,0,0,0,-0.66257,-0.12999,274,-60,274,-60,396,-63,274,63,0.0793845,-0.261799,0,-1.5,3.94113e+12,0,0,0,-0.634847,-0.137782,0,0,0,0,0.0227259,-0.0262364,15372,-0.635893,-0.136575,0.0227259,-0.0262364,15435,0.317424,-0.00682175,0.0688911,0.0104934
15477,-3.21252e-12,2.33458e-38,-1.56296e-06,-3.27827e-12,2.33446e-38,0,-1.06631e-13,0,0,-3.69531,-0.12999,0.510327,0,0,0,0,0,-0.66257,-0.12999,274,-60,274,-60,396,-63,274,63,0.0797387,-0.261799,0,-1.5,3.94113e+12,0,0,0,-0.634234,-0.138491,0,0,0,0,0.0227259,-0.0262364,15372,-0.635893,-0.136575,0.0227259,-0.0262364,15435,0.317117,-0.00682175,0.0692453,0.0104934
15494,-3.21252e-12,2.33458e-38,-1.56296e-06,-3.27827e-12,2.33446e-38,0,-1.06631e-13,0,0,-3.69531,-0.12999,0.510327,0,0,0,0,0,-0.66257,-0.12999,274,-60,274,-60,396,-63,274,63,0.0799486,-0.261799,0,-1.5,3.94113e+12,0,0,0,-0.63387,-0.13891,0,0,0,0,0.0227259,-0.0262364,15372,-0.635893,-0.136575,0.0227259,-0.0262364,15435,0.316935,-0.00681281,0.0694552,0.0104934
15520,-3.21252e-12,2.33458e-38,-1.56296e-06,-3.27827e-12,2.33446e-38,0,-1.06631e-13,0,0,-3.67949,-0.127072,0.498868,0,0,0,0,0,-0.640905,-0.127072,274,-60,274,-60,396,-63,273,64,0.0788879,-0.261799,0,-1.5,3.94113e+12,0,0,0,-0.629328,-0.138041,0,0,0,0,0.0347628,-0.0246676,15621,-0.629676,-0.137794,0.0347628,-0.0246676,15513,0.314664,-0.0104249,0.0690204,0.00986755
15537,-3.21252e-12,2.33458e-38,-1.56296e-06,-3.27827e-12,2.33446e-38,0,-1.06632e-13,0,0,-3.67949,-0.127072,0.498868,0,0,0,0,0,-0.640905,-0.127072,274,-60,274,-60,396,-63,273,64,0.0790946,-0.261799,0,-1.5,3.94113e+12,0,0,0,-0.628737,-0.13846,0,0,0,0,0.0347628,-0.0246676,15621,-0.629676,-0.137794,0.0347628,-0.0246676,15513,0.314369,-0.0104249,0.06923,0.00986457
15560,-3.21252e-12,2.33458e-38,-1.56296e-06,-3.27827e-12,2.33446e-38,0,-1.06632e-13,0,0,-3.67949,-0.127072,0.498868,0,0,0,0,0,-0.640905,-0.127072,274,-60,274,-60,396,-63,273,64,0.0805455,-0.261799,0,-1.5,3.94113e+12,0,0,0,-0.640025,-0.139443,0,0,0,0,0.0114909,-0.0270661,15621,-0.640289,-0.13882,0.0114909,-0.0270661,15546,0.320012,-0.00344515,0.0697213,0.0108242
15582,-3.21252e-12,2.33458e-38,-1.56296e-06,-3.27827e-12,2.33446e-38,0,-1.06632e-13,0,0,-3.68843,-0.129633,0.503975,0,0,0,0,0,-0.653156,-0.129633,274,-60,274,-60,396,-63,274,64,0.0836877,-0.261799,0,-1.5,3.94113e+12,0,0,0,-0.641905,-0.140094,0,0,0,0,0.00438664,-0.0273763,15494,-0.64194,-0.139875,0.00438664,-0.0273763,15576,0.320953,0.0765547,0.0700472,0.0136405
15603,-3.21252e-12,2.33458e-38,-1.56296e-06,-3.27827e-12,2.33446e-38,0,-1.06632e-13,0,0,-3.68843,-0.129633,0.503975,0,0,0,0,0,-0.653156,-0.129633,274,-60,274,-60,396,-63,274,64,0.081284,-0.261799,0,-1.5,3.94113e+12,0,0,0,-0.641813,-0.140669,0,0,0,0,0.00438664,-0.0273763,15494,-0.64194,-0.139875,0.00438664,-0.0273763,15576,0.320907,-0.00131428,0.0703346,0.0109494
15626,-3.21252e-12,2.33458e-38,-1.56296e-06,-3.27827e-12,2.33446e-38,0,-1.06633e-13,0,0,-3.67949,-0.127072,0.498868,0,0,0,0,0,-0.640905,-0.127072,274,-60,274,-60,396,-63,273,64,0.0786374,-0.261799,0,-1.5,3.94113e+12,0,0,0,-0.640684,-0.137897,0,0,0,0,0.00531463,-0.0242226,15621,-0.640801,-0.137364,0.00531463,-0.0242226,15612,0.320342,-0.00160038,0.0689486,0.00968874
15643,-3.21252e-12,2.33458e-38,-1.56296e-06,-3.27827e-12,2.33446e-38,0,-1.06633e-13,0,0,-3.67949,-0.127072,0.498868,0,0,0,0,0,-0.640905,-0.127072,274,-60,274,-60,396,-63,273,64,0.0788432,-0.261799,0,-1.5,3.94113e+12,0,0,0,-0.640594,-0.138309,0,0,0,0,0.00531463,-0.0242226,15621,-0.640801,-0.137364,0.00531463,-0.0242226,15612,0.320297,-0.00159144,0.0691545,0.00968874
15669,-3.21252e-12,2.33458e-38,-1.56296e-06,-3.27827e-12,2.33446e-38,0,-1.06633e-13,0,0,-3.59883,-0.132017,0.460489,0,0,0,0,0,-0.530399,-0.132017,274,-65,274,-65,398,-63,272,63,0.0742853,-0.261799,0,-1.5,3.94113e+12,0,0,0,-0.637826,-0.135148,0,0,0,0,0.0091272,-0.0167755,16128,-0.638073,-0.134695,0.0091272,-0.0167755,15655,0.318913,-0.00273585,0.0675738,0.00671148
15692,-3.21252e-12,2.33458e-38,-1.56296e-06,-3.27827e-12,2.33446e-38,0,-1.06634e-13,0,0,-3.64785,-0.130179,0.476029,0,0,0,0,0,-0.597553,-0.130179,274,-60,274,-60,396,-63,273,66,0.0703846,-0.261799,0,-1.5,3.94113e+12,0,0,0,-0.639954,-0.132526,0,0,0,0,0.00238179,-0.0103022,15867,-0.639987,-0.132382,0.00238179,-0.0103022,15680,0.319977,-0.000706315,0.0662629,0.00412166
15706,-3.21252e-12,2.33458e-38,-1.56296e-06,-3.27827e-12,2.33446e-38,0,-1.06634e-13,0,0,-3.64785,-0.130179,0.476029,0,0,0,0,0,-0.597553,-0.130179,274,-60,274,-60,396,-63,273,66,0.0704567,-0.261799,0,-1.5,3.94113e+12,0,0,0,-0.639921,-0.13267,0,0,0,0,0.00238179,-0.0103022,15867,-0.639987,-0.132382,0.00238179,-0.0103022,15680,0.31996,-0.000715256,0.0663351,0.00412166
15754,-3.21252e-12,2.33458e-38,-1.56296e-06,-3.27827e-12,2.33446e-38,0,-1.06634e-13,0,0,-3.69311,-0.138927,0.509208,0,0,0,0,0,-0.65956,-0.138927,276,-60,276,-60,396,-63,274,63,0.0678127,-0.261799,0,-1.5,3.94113e+12,0,0,0,-0.6387,-0.132264,0,0,0,0,0.00914155,-0.00419755,15372,-0.638828,-0.132205,0.00914155,-0.00419755,15742,0.31935,-0.00274479,0.0661318,0.00168085
15781,-3.21252e-12,2.33458e-38,-1.56296e-06,-3.27827e-12,2.33446e-38,0,-1.06634e-13,0,0,-3.67536,-0.129777,0.505145,0,0,0,0,0,-0.635238,-0.129777,274,-63,274,-63,396,-63,274,63,-0.0152723,-0.154987,0,-1.5,3.94113e+12,0,0,0,-0.634203,-0.130731,0,0,0,0,0.015332,-0.000455921,15372,-0.634326,-0.130727,0.015332,-0.000455921,15775,0.317102,-0.162115,0.0653653,-0.0806376
15798,-3.21252e-12,2.33458e-38,-1.56296e-06,-3.27827e-12,2.33446e-38,0,-1.06635e-13,0,0,-3.67536,-0.129777,0.505145,0,0,0,0,0,-0.635238,-0.129777,274,-63,274,-63,396,-63,274,63,0.0655507,-0.261799,0,-1.5,3.94113e+12,0,0,0,-0.633958,-0.130738,0,0,0,0,0.015332,-0.000455921,15372,-0.634326,-0.130727,0.015332,-0.000455921,15775,0.316979,-0.00459552,0.065369,0.000181794
15840,-3.21252e-12,2.33458e-38,-1.56296e-06,-3.27827e-12,2.33446e-38,0,-1.06635e-13,0,0,-3.7082,-0.130117,0.513491,0,0,0,0,0,-0.68023,-0.130117,274,-58,274,-58,396,-63,274,63,0.0651532,-0.261799,0,-1.5,3.94113e+12,0,0,0,-0.635491,-0.130193,0,0,0,0,0.0119153,-0.000142586,15372,-0.635992,-0.130187,0.0119153,-0.000142586,15825,0.317746,-0.00357628,0.0650965,5.66244e-05
15977,-3.21252e-12,2.33458e-38,-1.56296e-06,-3.27827e-12,2.33446e-38,0,-1.06635e-13,0,0,-3.68625,-0.138552,0.502864,0,0,0,0,0,-0.65016,-0.138552,276,-60,276,-60,396,-63,274,64,0.0642568,-0.261799,0,-1.5,3.94113e+12,0,0,0,-0.633533,-0.129563,0,0,0,0,0.016826,0.00131347,15494,-0.635855,-0.129744,0.016826,0.00131347,15852,0.316766,-0.00504255,0.0647813,-0.000524521
16025,-3.21252e-12,2.33458e-38,-1.56296e-06,-3.27827e-12,2.33446e-38,0,-1.06635e-13,0,0,-3.70085,-0.141487,0.513683,0,0,0,0,0,-0.670159,-0.141487,277,-60,277,-60,396,-63,274,63,0.0626922,-0.261799,0,-1.5,3.94113e+12,0,0,0,-0.651939,-0.129271,0,0,0,0,-0.0113957,0.0048566,15372,-0.651802,-0.129329,-0.0113957,0.0048566,16015,0.325969,0.00341535,0.0646354,-0.00194311
16039,-3.21252e-12,2.33458e-38,-1.56296e-06,-3.27827e-12,2.33446e-38,0,-1.06636e-13,0,0,-3.70085,-0.141487,0.513683,0,0,0,0,0,-0.670159,-0.141487,277,-60,277,-60,396,-63,274,63,0.0626583,-0.261799,0,-1.5,3.94113e+12,0,0,0,-0.652099,-0.129203,0,0,0,0,-0.0113957,0.0048566,15372,-0.651802,-0.129329,-0.0113957,0.0048566,16015,0.326049,0.00342429,0.0646014,-0.00194311
16061,-3.21252e-12,2.33458e-38,-1.56296e-06,-3.27827e-12,2.33446e-38,0,-1.06636e-13,0,0,-3.67724,-0.133823,0.500026,0,0,0,0,0,-0.637815,-0.133823,274,-60,274,-60,396,-63,274,63,0.067334,-0.261799,0,-1.5,3.94113e+12,0,0,0,-0.641324,-0.132975,0,0,0,0,0.00321466,-0.00211702,15372,-0.641395,-0.132929,0.00321466,-0.00211702,16047,0.320662,-0.000956655,0.0664876,0.000846386
16082,-3.21252e-12,2.33458e-38,-1.56296e-06,-3.27827e-12,2.33446e-38,0,-1.06636e-13,0,0,-3.67724,-0.133823,0.500026,0,0,0,0,0,-0.637815,-0.133823,274,-60,274,-60,396,-63,274,63,0.0673562,-0.261799,0,-1.5,3.94113e+12,0,0,0,-0.641257,-0.13302,0,0,0,0,0.00321466,-0.00211702,15372,-0.641395,-0.132929,0.00321466,-0.00211702,16047,0.320628,-0.000965595,0.0665098,0.000846386
16098,-3.21252e-12,2.33458e-38,-1.56296e-06,-3.27827e-12,2.33446e-38,0,-1.06636e-13,0,0,-3.67724,-0.133823,0.500026,0,0,0,0,0,-0.637815,-0.133823,274,-60,274,-60,396,-63,274,63,0.0673731,-0.261799,0,-1.5,3.94113e+12,0,0,0,-0.641205,-0.133054,0,0,0,0,0.00321466,-0.00211702,15372,-0.641395,-0.132929,0.00321466,-0.00211702,16047,0.320603,-0.000965595,0.0665268,0.000846386
16118,-3.21252e-12,2.33458e-38,-1.56296e-06,-3.27827e-12,2.33446e-38,0,-1.06637e-13,0,0,-3.71896,-0.137656,0.52401,0,0,0,0,0,-0.694976,-0.137656,277,-60,277,-60,396,-63,274,63,0.0679867,-0.261799,0,-1.5,3.94113e+12,0,0,0,-0.64157,-0.134084,0,0,0,0,0.00272542,-0.00236087,15372,-0.641602,-0.134056,0.00272542,-0.00236087,16108,0.320785,-0.000822544,0.067042,0.000944734
16166,-3.21252e-12,2.33458e-38,-1.56296e-06,-3.27827e-12,2.33446e-38,0,-1.06637e-13,0,0,-3.66426,-0.133677,0.49675,0,0,0,0,0,-0.620038,-0.133677,274,-62,274,-62,396,-63,274,63,0.067113,-0.261799,0,-1.5,3.94113e+12,0,0,0,-0.639254,-0.13384,0,0,0,0,0.00421762,-0.000483185,15372,-0.639456,-0.133817,0.00421762,-0.000483185,16151,0.319627,-0.00126362,0.0669202,0.000192722
16188,-3.21252e-12,2.33458e-38,-1.56296e-06,-3.27827e-12,2.33446e-38,0,-1.06637e-13,0,0,-3.71189,-0.137277,0.517527,0,0,0,0,0,-0.685286,-0.137277,277,-60,277,-60,396,-63,274,64,0.0678037,-0.261799,0,-1.5,3.94113e+12,0,0,0,-0.653814,-0.133795,0,0,0,0,-0.0100637,-0.00226407,15494,-0.653592,-0.133746,-0.0100637,-0.00226407,16174,0.326907,0.00301301,0.0668977,0.000905991
16205,-3.21252e-12,2.33458e-38,-1.56296e-06,-3.27827e-12,2.33446e-38,0,-1.06638e-13,0,0,-3.71189,-0.137277,0.517527,0,0,0,0,0,-0.685286,-0.137277,277,-60,277,-60,396,-63,274,64,0.0678229,-0.261799,0,-1.5,3.94113e+12,0,0,0,-0.653985,-0.133834,0,0,0,0,-0.0100637,-0.00226407,15494,-0.653592,-0.133746,-0.0100637,-0.00226407,16174,0.326992,0.00302196,0.0669169,0.000905991
16228,-3.21252e-12,2.33458e-38,-1.56296e-06,-3.27827e-12,2.33446e-38,0,-1.06638e-13,0,0,-3.70583,-0.139153,0.521325,0,0,0,0,0,-0.67699,-0.139153,276,-60,276,-60,396,-63,274,63,0.0713667,-0.261799,0,-1.5,3.94113e+12,0,0,0,-0.671869,-0.137452,0,0,0,0,-0.0319463,-0.00660088,15372,-0.671134,-0.137301,-0.0319463,-0.00660088,16214,0.335934,0.00958443,0.0687262,0.00264049
