timestamp,A_x,A_y,A_z,P,Q,R,Phi,Theta,Psi,poseX,poseY,poseZ,state_X,state_Y,state_Z,state_VzB,state_Bx,state_By,state_Bz,p1_x,p1_y,p2_x,p2_y,p3_x,p3_y,p4_x,p4_y,roll,pitch,yaw,alt,targetHeading,highLevelState,lowLevelState,gateNumber,filtered_x,filtered_y,x_OT,y_OT,vx_OT,vy_OT,filtered_vx,filtered_vygateArearansac_corr_x,ransac_corr_y,ransac_corr_vx,ransac_corr_vy,detectionTimeStamppTermX,dTermX,pTermY,dTermY,vxcmd,vycmd
8574,0,0,0,0,0,0,0,0,0,0,0,0,0,0,0,0,0,0,0,0,0,0,0,0,0,0,0,-0.230646,-0.0348889,0,-1.5,3.94113e+12,0,0,0,0,0,0,0,0,0,0,0,1.9603e-19,0,0,0,0,0,0,0,0,0,0,0
10130,-3.17918e-12,2.41687e-38,-1.55365e-06,-3.2605e-12,2.41663e-38,0,0,0,0,0,0,0,0,0,0,0,0,0,0,0,0,0,0,0,0,0,0,-0.230646,-0.0348889,0,-1.5,3.94113e+12,0,0,0,0,0,0,0,0,0,0,0,1.9603e-19,0,0,0,0,0,0,0,0,0,0,0
10150,-3.17918e-12,2.41687e-38,-1.55365e-06,-3.2605e-12,2.41663e-38,0,0,0,0,0,0,0,0,0,0,0,0,0,0,0,0,0,0,0,0,0,0,-0.230646,-0.0348889,0,-1.5,3.94113e+12,0,0,0,0,0,0,0,0,0,0,0,1.9603e-19,0,0,0,0,0,0,0,0,0,0,0
10168,-3.17918e-12,2.41687e-38,-1.55365e-06,-3.2605e-12,2.41663e-38,0,0,0,0,0,0,0,0,0,0,0,0,0,0,0,0,0,0,0,0,0,0,-0.230646,-0.0348889,0,-1.5,3.94113e+12,0,0,0,0,0,0,0,0,0,0,0,1.9603e-19,0,0,0,0,0,0,0,0,0,0,0
10187,-3.17918e-12,2.41687e-38,-1.55365e-06,-3.2605e-12,2.41663e-38,0,0,0,0,0,0,0,0,0,0,0,0,0,0,0,0,0,0,0,0,0,0,-0.230646,-0.0348889,0,-1.5,3.94113e+12,0,0,0,0,0,0,0,0,0,0,0,1.9603e-19,0,0,0,0,0,0,0,0,0,0,0
10206,-3.17918e-12,2.41687e-38,-1.55365e-06,-3.2605e-12,2.41663e-38,0,0,0,0,0,0,0,0,0,0,0,0,0,0,0,0,0,0,0,0,0,0,-0.230646,-0.0348889,0,-1.5,3.94113e+12,0,0,0,0,0,0,0,0,0,0,0,1.9603e-19,0,0,0,0,0,0,0,0,0,0,0
10225,-3.17918e-12,2.41687e-38,-1.55365e-06,-3.2605e-12,2.41663e-38,0,0,0,0,0,0,0,0,0,0,0,0,0,0,0,0,0,0,0,0,0,0,-0.230646,-0.0348889,0,-1.5,3.94113e+12,0,0,0,0,0,0,0,0,0,0,0,1.9603e-19,0,0,0,0,0,0,0,0,0,0,0
10244,-3.17918e-12,2.41687e-38,-1.55365e-06,-3.2605e-12,2.41663e-38,0,0,0,0,0,0,0,0,0,0,0,0,0,0,0,0,0,0,0,0,0,0,-0.230646,-0.0348889,0,-1.5,3.94113e+12,0,0,0,0,0,0,0,0,0,0,0,1.9603e-19,0,0,0,0,0,0,0,0,0,0,0
10263,-3.17918e-12,2.41687e-38,-1.55365e-06,-3.2605e-12,2.41663e-38,0,0,0,0,0,0,0,0,0,0,0,0,0,0,0,0,0,0,0,0,0,0,-0.230646,-0.0348889,0,-1.5,3.94113e+12,0,0,0,0,0,0,0,0,0,0,0,1.9603e-19,0,0,0,0,0,0,0,0,0,0,0
10283,-3.17918e-12,2.41687e-38,-1.55365e-06,-3.2605e-12,2.41663e-38,0,0,0,0,0,0,0,0,0,0,0,0,0,0,0,0,0,0,0,0,0,0,-0.230646,-0.0348889,0,-1.5,3.94113e+12,0,0,0,0,0,0,0,0,0,0,0,1.9603e-19,0,0,0,0,0,0,0,0,0,0,0
10301,-3.17918e-12,2.41687e-38,-1.55365e-06,-3.2605e-12,2.41663e-38,0,0,0,0,0,0,0,0,0,0,0,0,0,0,0,0,0,0,0,0,0,0,-0.230646,-0.0348889,0,-1.5,3.94113e+12,0,0,0,0,0,0,0,0,0,0,0,1.9603e-19,0,0,0,0,0,0,0,0,0,0,0
10318,-3.17918e-12,2.41687e-38,-1.55365e-06,-3.2605e-12,2.41663e-38,0,0,0,0,0,0,0,0,0,0,0,0,0,0,0,0,0,0,0,0,0,0,-0.230646,-0.0348889,0,-1.5,3.94113e+12,0,0,0,0,0,0,0,0,0,0,0,1.9603e-19,0,0,0,0,0,0,0,0,0,0,0
10360,-3.17918e-12,2.41687e-38,-1.55365e-06,-3.2605e-12,2.41663e-38,0,0,0,0,0,0,0,0,0,0,0,0,0,0,0,0,0,0,0,0,0,0,-0.230646,-0.0348889,0,-1.5,3.94113e+12,0,0,0,0,0,0,0,0,0,0,0,1.9603e-19,0,0,0,0,0,0,0,0,0,0,0
10393,-3.17918e-12,2.41687e-38,-1.55365e-06,-3.2605e-12,2.41663e-38,0,0,0,0,0,0,0,0,0,0,0,0,0,0,0,0,0,0,0,0,0,0,-0.230646,-0.0348889,0,-1.5,3.94113e+12,0,0,0,0,0,0,0,0,0,0,0,1.9603e-19,0,0,0,0,0,0,0,0,0,0,0
10459,-3.17918e-12,2.41687e-38,-1.55365e-06,-3.2605e-12,2.41663e-38,0,0,0,0,0,0,0,0,0,0,0,0,0,0,0,0,0,0,0,0,0,0,-0.230646,-0.0348889,0,-1.5,3.94113e+12,0,0,0,0,0,0,0,0,0,0,0,1.9603e-19,0,0,0,0,0,0,0,0,0,0,0
10498,-3.17918e-12,2.41687e-38,-1.55365e-06,-3.2605e-12,2.41663e-38,0,0,0,0,0,0,0,0,0,0,0,0,0,0,0,0,0,0,0,0,0,0,-0.230646,-0.0348889,0,-1.5,3.94113e+12,0,0,0,0,0,0,0,0,0,0,0,1.9603e-19,0,0,0,0,0,0,0,0,0,0,0
10518,-3.17918e-12,2.41687e-38,-1.55365e-06,-3.2605e-12,2.41663e-38,0,0,0,0,0,0,0,0,0,0,0,0,0,0,0,0,0,0,0,0,0,0,-0.230646,-0.0348889,0,-1.5,3.94113e+12,0,0,0,0,0,0,0,0,0,0,0,1.9603e-19,0,0,0,0,0,0,0,0,0,0,0
10537,-3.17918e-12,2.41687e-38,-1.55365e-06,-3.2605e-12,2.41663e-38,0,0,0,0,0,0,0,0,0,0,0,0,0,0,0,0,0,0,0,0,0,0,-0.230646,-0.0348889,0,-1.5,3.94113e+12,0,0,0,0,0,0,0,0,0,0,0,1.9603e-19,0,0,0,0,0,0,0,0,0,0,0
10556,-3.17918e-12,2.41687e-38,-1.55365e-06,-3.2605e-12,2.41663e-38,0,0,0,0,0,0,0,0,0,0,0,0,0,0,0,0,0,0,0,0,0,0,-0.230646,-0.0348889,0,-1.5,3.94113e+12,0,0,0,0,0,0,0,0,0,0,0,1.9603e-19,0,0,0,0,0,0,0,0,0,0,0
10574,-3.17918e-12,2.41687e-38,-1.55365e-06,-3.2605e-12,2.41663e-38,0,0,0,0,0,0,0,0,0,0,0,0,0,0,0,0,0,0,0,0,0,0,-0.230646,-0.0348889,0,-1.5,3.94113e+12,0,0,0,0,0,0,0,0,0,0,0,1.9603e-19,0,0,0,0,0,0,0,0,0,0,0
10590,-3.17918e-12,2.41687e-38,-1.55365e-06,-3.2605e-12,2.41663e-38,0,0,0,0,0,0,0,0,0,0,0,0,0,0,0,0,0,0,0,0,0,0,-0.230646,-0.0348889,0,-1.5,3.94113e+12,0,0,0,0,0,0,0,0,0,0,0,1.9603e-19,0,0,0,0,0,0,0,0,0,0,0
10608,-3.17918e-12,2.41687e-38,-1.55365e-06,-3.2605e-12,2.41663e-38,0,0,0,0,0,0,0,0,0,0,0,0,0,0,0,0,0,0,0,0,0,0,-0.230646,-0.0348889,0,-1.5,3.94113e+12,0,0,0,0,0,0,0,0,0,0,0,1.9603e-19,0,0,0,0,0,0,0,0,0,0,0
10627,-3.17918e-12,2.41687e-38,-1.55365e-06,-3.2605e-12,2.41663e-38,0,0,0,0,0,0,0,0,0,0,0,0,0,0,0,0,0,0,0,0,0,0,-0.230646,-0.0348889,0,-1.5,3.94113e+12,0,0,0,0,0,0,0,0,0,0,0,1.9603e-19,0,0,0,0,0,0,0,0,0,0,0
10646,-3.17918e-12,2.41687e-38,-1.55365e-06,-3.2605e-12,2.41663e-38,0,0,0,0,0,0,0,0,0,0,0,0,0,0,0,0,0,0,0,0,0,0,-0.230646,-0.0348889,0,-1.5,3.94113e+12,0,0,0,0,0,0,0,0,0,0,0,1.9603e-19,0,0,0,0,0,0,0,0,0,0,0
10665,-3.17918e-12,2.41687e-38,-1.55365e-06,-3.2605e-12,2.41663e-38,0,0,0,0,0,0,0,0,0,0,0,0,0,0,0,0,0,0,0,0,0,0,-0.230646,-0.0348889,0,-1.5,3.94113e+12,0,0,0,0,0,0,0,0,0,0,0,1.9603e-19,0,0,0,0,0,0,0,0,0,0,0
10684,-3.17918e-12,2.41687e-38,-1.55365e-06,-3.2605e-12,2.41663e-38,0,0,0,0,0,0,0,0,0,0,0,0,0,0,0,0,0,0,0,0,0,0,-0.230646,-0.0348889,0,-1.5,3.94113e+12,0,0,0,0,0,0,0,0,0,0,0,1.9603e-19,0,0,0,0,0,0,0,0,0,0,0
10704,-3.17918e-12,2.41687e-38,-1.55365e-06,-3.2605e-12,2.41663e-38,0,0,0,0,0,0,0,0,0,0,0,0,0,0,0,0,0,0,0,0,0,0,-0.230646,-0.0348889,0,-1.5,3.94113e+12,0,0,0,0,0,0,0,0,0,0,0,1.9603e-19,0,0,0,0,0,0,0,0,0,0,0
10723,-3.17918e-12,2.41687e-38,-1.55365e-06,-3.2605e-12,2.41663e-38,0,0,0,0,0,0,0,0,0,0,0,0,0,0,0,0,0,0,0,0,0,0,-0.230646,-0.0348889,0,-1.5,3.94113e+12,0,0,0,0,0,0,0,0,0,0,0,1.9603e-19,0,0,0,0,0,0,0,0,0,0,0
10744,-3.17918e-12,2.41687e-38,-1.55365e-06,-3.2605e-12,2.41663e-38,0,0,0,0,0,0,0,0,0,0,0,0,0,0,0,0,0,0,0,0,0,0,-0.230646,-0.0348889,0,-1.5,3.94113e+12,0,0,0,0,0,0,0,0,0,0,0,1.9603e-19,0,0,0,0,0,0,0,0,0,0,0
10763,-3.17918e-12,2.41687e-38,-1.55365e-06,-3.2605e-12,2.41663e-38,0,0,0,0,0,0,0,0,0,0,0,0,0,0,0,0,0,0,0,0,0,0,-0.230646,-0.0348889,0,-1.5,3.94113e+12,0,0,0,0,0,0,0,0,0,0,0,1.9603e-19,0,0,0,0,0,0,0,0,0,0,0
10782,-3.17918e-12,2.41687e-38,-1.55365e-06,-3.2605e-12,2.41663e-38,0,0,0,0,0,0,0,0,0,0,0,0,0,0,0,0,0,0,0,0,0,0,-0.230646,-0.0348889,0,-1.5,3.94113e+12,0,0,0,0,0,0,0,0,0,0,0,1.9603e-19,0,0,0,0,0,0,0,0,0,0,0
10801,-3.17918e-12,2.41687e-38,-1.55365e-06,-3.2605e-12,2.41663e-38,0,0,0,0,0,0,0,0,0,0,0,0,0,0,0,0,0,0,0,0,0,0,-0.230646,-0.0348889,0,-1.5,3.94113e+12,0,0,0,0,0,0,0,0,0,0,0,1.9603e-19,0,0,0,0,0,0,0,0,0,0,0
10820,-3.17918e-12,2.41687e-38,-1.55365e-06,-3.2605e-12,2.41663e-38,0,0,0,0,0,0,0,0,0,0,0,0,0,0,0,0,0,0,0,0,0,0,-0.230646,-0.0348889,0,-1.5,3.94113e+12,0,0,0,0,0,0,0,0,0,0,0,1.9603e-19,0,0,0,0,0,0,0,0,0,0,0
10840,-3.17918e-12,2.41687e-38,-1.55365e-06,-3.2605e-12,2.41663e-38,0,0,0,0,0,0,0,0,0,0,0,0,0,0,0,0,0,0,0,0,0,0,-0.230646,-0.0348889,0,-1.5,3.94113e+12,0,0,0,0,0,0,0,0,0,0,0,1.9603e-19,0,0,0,0,0,0,0,0,0,0,0
10859,-3.17918e-12,2.41687e-38,-1.55365e-06,-3.2605e-12,2.41663e-38,0,0,0,0,0,0,0,0,0,0,0,0,0,0,0,0,0,0,0,0,0,0,-0.230646,-0.0348889,0,-1.5,3.94113e+12,0,0,0,0,0,0,0,0,0,0,0,1.9603e-19,0,0,0,0,0,0,0,0,0,0,0
10878,-3.17918e-12,2.41687e-38,-1.55365e-06,-3.2605e-12,2.41663e-38,0,0,0,0,0,0,0,0,0,0,0,0,0,0,0,0,0,0,0,0,0,0,-0.230646,-0.0348889,0,-1.5,3.94113e+12,0,0,0,0,0,0,0,0,0,0,0,1.9603e-19,0,0,0,0,0,0,0,0,0,0,0
10897,-3.17918e-12,2.41687e-38,-1.55365e-06,-3.2605e-12,2.41663e-38,0,0,0,0,0,0,0,0,0,0,0,0,0,0,0,0,0,0,0,0,0,0,-0.230646,-0.0348889,0,-1.5,3.94113e+12,0,0,0,0,0,0,0,0,0,0,0,1.9603e-19,0,0,0,0,0,0,0,0,0,0,0
10917,-3.17918e-12,2.41687e-38,-1.55365e-06,-3.2605e-12,2.41663e-38,0,0,0,0,0,0,0,0,0,0,0,0,0,0,0,0,0,0,0,0,0,0,-0.230646,-0.0348889,0,-1.5,3.94113e+12,0,0,0,0,0,0,0,0,0,0,0,1.9603e-19,0,0,0,0,0,0,0,0,0,0,0
10938,-3.17918e-12,2.41687e-38,-1.55365e-06,-3.2605e-12,2.41663e-38,0,0,0,0,0,0,0,0,0,0,0,0,0,0,0,0,0,0,0,0,0,0,-0.230646,-0.0348889,0,-1.5,3.94113e+12,0,0,0,0,0,0,0,0,0,0,0,1.9603e-19,0,0,0,0,0,0,0,0,0,0,0
10966,-3.17918e-12,2.41687e-38,-1.55365e-06,-3.2605e-12,2.41663e-38,0,0,0,0,0,0,0,0,0,0,0,0,0,0,0,0,0,0,0,0,0,0,-0.230646,-0.0348889,0,-1.5,3.94113e+12,0,0,0,0,0,0,0,0,0,0,0,1.9603e-19,0,0,0,0,0,0,0,0,0,0,0
10982,-3.17918e-12,2.41687e-38,-1.55365e-06,-3.2605e-12,2.41663e-38,0,0,0,0,0,0,0,0,0,0,0,0,0,0,0,0,0,0,0,0,0,0,-0.230646,-0.0348889,0,-1.5,3.94113e+12,0,0,0,0,0,0,0,0,0,0,0,1.9603e-19,0,0,0,0,0,0,0,0,0,0,0
11000,-3.17918e-12,2.41687e-38,-1.55365e-06,-3.2605e-12,2.41663e-38,0,0,0,0,0,0,0,0,0,0,0,0,0,0,0,0,0,0,0,0,0,0,-0.230646,-0.0348889,0,-1.5,3.94113e+12,0,0,0,0,0,0,0,0,0,0,0,1.9603e-19,0,0,0,0,0,0,0,0,0,0,0
11019,-3.17918e-12,2.41687e-38,-1.55365e-06,-3.2605e-12,2.41663e-38,0,0,0,0,0,0,0,0,0,0,0,0,0,0,0,0,0,0,0,0,0,0,-0.230646,-0.0348889,0,-1.5,3.94113e+12,0,0,0,0,0,0,0,0,0,0,0,1.9603e-19,0,0,0,0,0,0,0,0,0,0,0
11039,-3.17918e-12,2.41687e-38,-1.55365e-06,-3.2605e-12,2.41663e-38,0,0,0,0,0,0,0,0,0,0,0,0,0,0,0,0,0,0,0,0,0,0,-0.230646,-0.0348889,0,-1.5,3.94113e+12,0,0,0,0,0,0,0,0,0,0,0,1.9603e-19,0,0,0,0,0,0,0,0,0,0,0
11058,-3.17918e-12,2.41687e-38,-1.55365e-06,-3.2605e-12,2.41663e-38,0,0,0,0,0,0,0,0,0,0,0,0,0,0,0,0,0,0,0,0,0,0,-0.230646,-0.0348889,0,-1.5,3.94113e+12,0,0,0,0,0,0,0,0,0,0,0,1.9603e-19,0,0,0,0,0,0,0,0,0,0,0
11077,-3.17918e-12,2.41687e-38,-1.55365e-06,-3.2605e-12,2.41663e-38,0,0,0,0,0,0,0,0,0,0,0,0,0,0,0,0,0,0,0,0,0,0,-0.230646,-0.0348889,0,-1.5,3.94113e+12,0,0,0,0,0,0,0,0,0,0,0,1.9603e-19,0,0,0,0,0,0,0,0,0,0,0
11098,-3.17918e-12,2.41687e-38,-1.55365e-06,-3.2605e-12,2.41663e-38,0,0,0,0,0,0,0,0,0,0,0,0,0,0,0,0,0,0,0,0,0,0,-0.230646,-0.0348889,0,-1.5,3.94113e+12,0,0,0,0,0,0,0,0,0,0,0,1.9603e-19,0,0,0,0,0,0,0,0,0,0,0
11117,-3.17918e-12,2.41687e-38,-1.55365e-06,-3.2605e-12,2.41663e-38,0,0,0,0,0,0,0,0,0,0,0,0,0,0,0,0,0,0,0,0,0,0,-0.230646,-0.0348889,0,-1.5,3.94113e+12,0,0,0,0,0,0,0,0,0,0,0,1.9603e-19,0,0,0,0,0,0,0,0,0,0,0
11137,-3.17918e-12,2.41687e-38,-1.55365e-06,-3.2605e-12,2.41663e-38,0,0,0,0,0,0,0,0,0,0,0,0,0,0,0,0,0,0,0,0,0,0,-0.230646,-0.0348889,0,-1.5,3.94113e+12,0,0,0,0,0,0,0,0,0,0,0,1.9603e-19,0,0,0,0,0,0,0,0,0,0,0
11156,-3.17918e-12,2.41687e-38,-1.55365e-06,-3.2605e-12,2.41663e-38,0,0,0,0,0,0,0,0,0,0,0,0,0,0,0,0,0,0,0,0,0,0,-0.230646,-0.0348889,0,-1.5,3.94113e+12,0,0,0,0,0,0,0,0,0,0,0,1.9603e-19,0,0,0,0,0,0,0,0,0,0,0
11175,-3.17918e-12,2.41687e-38,-1.55365e-06,-3.2605e-12,2.41663e-38,0,0,0,0,0,0,0,0,0,0,0,0,0,0,0,0,0,0,0,0,0,0,-0.230646,-0.0348889,0,-1.5,3.94113e+12,0,0,0,0,0,0,0,0,0,0,0,1.9603e-19,0,0,0,0,0,0,0,0,0,0,0
11196,-3.17918e-12,2.41687e-38,-1.55365e-06,-3.2605e-12,2.41663e-38,0,0,0,0,0,0,0,0,0,0,0,0,0,0,0,0,0,0,0,0,0,0,-0.230646,-0.0348889,0,-1.5,3.94113e+12,0,0,0,0,0,0,0,0,0,0,0,1.9603e-19,0,0,0,0,0,0,0,0,0,0,0
11215,-3.17918e-12,2.41687e-38,-1.55365e-06,-3.2605e-12,2.41663e-38,0,0,0,0,0,0,0,0,0,0,0,0,0,0,0,0,0,0,0,0,0,0,-0.230646,-0.0348889,0,-1.5,3.94113e+12,0,0,0,0,0,0,0,0,0,0,0,1.9603e-19,0,0,0,0,0,0,0,0,0,0,0
11234,-3.17918e-12,2.41687e-38,-1.55365e-06,-3.2605e-12,2.41663e-38,0,0,0,0,0,0,0,0,0,0,0,0,0,0,0,0,0,0,0,0,0,0,-0.230646,-0.0348889,0,-1.5,3.94113e+12,0,0,0,0,0,0,0,0,0,0,0,1.9603e-19,0,0,0,0,0,0,0,0,0,0,0
11253,-3.17918e-12,2.41687e-38,-1.55365e-06,-3.2605e-12,2.41663e-38,0,0,0,0,0,0,0,0,0,0,0,0,0,0,0,0,0,0,0,0,0,0,-0.230646,-0.0348889,0,-1.5,3.94113e+12,0,0,0,0,0,0,0,0,0,0,0,1.9603e-19,0,0,0,0,0,0,0,0,0,0,0
11273,-3.17918e-12,2.41687e-38,-1.55365e-06,-3.2605e-12,2.41663e-38,0,0,0,0,0,0,0,0,0,0,0,0,0,0,0,0,0,0,0,0,0,0,-0.230646,-0.0348889,0,-1.5,3.94113e+12,0,0,0,0,0,0,0,0,0,0,0,1.9603e-19,0,0,0,0,0,0,0,0,0,0,0
11293,-3.17918e-12,2.41687e-38,-1.55365e-06,-3.2605e-12,2.41663e-38,0,0,0,0,0,0,0,0,0,0,0,0,0,0,0,0,0,0,0,0,0,0,-0.230646,-0.0348889,0,-1.5,3.94113e+12,0,0,0,0,0,0,0,0,0,0,0,1.9603e-19,0,0,0,0,0,0,0,0,0,0,0
11312,-3.17918e-12,2.41687e-38,-1.55365e-06,-3.2605e-12,2.41663e-38,0,0,0,0,0,0,0,0,0,0,0,0,0,0,0,0,0,0,0,0,0,0,-0.230646,-0.0348889,0,-1.5,3.94113e+12,0,0,0,0,0,0,0,0,0,0,0,1.9603e-19,0,0,0,0,0,0,0,0,0,0,0
11331,-3.17918e-12,2.41687e-38,-1.55365e-06,-3.2605e-12,2.41663e-38,0,0,0,0,0,0,0,0,0,0,0,0,0,0,0,0,0,0,0,0,0,0,-0.230646,-0.0348889,0,-1.5,3.94113e+12,0,0,0,0,0,0,0,0,0,0,0,1.9603e-19,0,0,0,0,0,0,0,0,0,0,0
11349,-3.17918e-12,2.41687e-38,-1.55365e-06,-3.2605e-12,2.41663e-38,0,0,0,0,0,0,0,0,0,0,0,0,0,0,0,0,0,0,0,0,0,0,-0.230646,-0.0348889,0,-1.5,3.94113e+12,0,0,0,0,0,0,0,0,0,0,0,1.9603e-19,0,0,0,0,0,0,0,0,0,0,0
11366,-3.17918e-12,2.41687e-38,-1.55365e-06,-3.2605e-12,2.41663e-38,0,0,0,0,0,0,0,0,0,0,0,0,0,0,0,0,0,0,0,0,0,0,-0.230646,-0.0348889,0,-1.5,3.94113e+12,0,0,0,0,0,0,0,0,0,0,0,1.9603e-19,0,0,0,0,0,0,0,0,0,0,0
11383,-3.17918e-12,2.41687e-38,-1.55365e-06,-3.2605e-12,2.41663e-38,0,0,0,0,0,0,0,0,0,0,0,0,0,0,0,0,0,0,0,0,0,0,-0.230646,-0.0348889,0,-1.5,3.94113e+12,0,0,0,0,0,0,0,0,0,0,0,1.9603e-19,0,0,0,0,0,0,0,0,0,0,0
11403,-3.17918e-12,2.41687e-38,-1.55365e-06,-3.2605e-12,2.41663e-38,0,0,0,0,0,0,0,0,0,0,0,0,0,0,0,0,0,0,0,0,0,0,-0.230646,-0.0348889,0,-1.5,3.94113e+12,0,0,0,0,0,0,0,0,0,0,0,1.9603e-19,0,0,0,0,0,0,0,0,0,0,0
11422,-3.17918e-12,2.41687e-38,-1.55365e-06,-3.2605e-12,2.41663e-38,0,0,0,0,0,0,0,0,0,0,0,0,0,0,0,0,0,0,0,0,0,0,-0.230646,-0.0348889,0,-1.5,3.94113e+12,0,0,0,0,0,0,0,0,0,0,0,1.9603e-19,0,0,0,0,0,0,0,0,0,0,0
11442,-3.17918e-12,2.41687e-38,-1.55365e-06,-3.2605e-12,2.41663e-38,0,0,0,0,0,0,0,0,0,0,0,0,0,0,0,0,0,0,0,0,0,0,-0.230646,-0.0348889,0,-1.5,3.94113e+12,0,0,0,0,0,0,0,0,0,0,0,1.9603e-19,0,0,0,0,0,0,0,0,0,0,0
11461,-3.17918e-12,2.41687e-38,-1.55365e-06,-3.2605e-12,2.41663e-38,0,0,0,0,0,0,0,0,0,0,0,0,0,0,0,0,0,0,0,0,0,0,-0.230646,-0.0348889,0,-1.5,3.94113e+12,0,0,0,0,0,0,0,0,0,0,0,1.9603e-19,0,0,0,0,0,0,0,0,0,0,0
11480,-3.17918e-12,2.41687e-38,-1.55365e-06,-3.2605e-12,2.41663e-38,0,0,0,0,0,0,0,0,0,0,0,0,0,0,0,0,0,0,0,0,0,0,-0.230646,-0.0348889,0,-1.5,3.94113e+12,0,0,0,0,0,0,0,0,0,0,0,1.9603e-19,0,0,0,0,0,0,0,0,0,0,0
11499,-3.17918e-12,2.41687e-38,-1.55365e-06,-3.2605e-12,2.41663e-38,0,0,0,0,0,0,0,0,0,0,0,0,0,0,0,0,0,0,0,0,0,0,-0.230646,-0.0348889,0,-1.5,3.94113e+12,0,0,0,0,0,0,0,0,0,0,0,1.9603e-19,0,0,0,0,0,0,0,0,0,0,0
11520,-3.17918e-12,2.41687e-38,-1.55365e-06,-3.2605e-12,2.41663e-38,0,0,0,0,0,0,0,0,0,0,0,0,0,0,0,0,0,0,0,0,0,0,-0.230646,-0.0348889,0,-1.5,3.94113e+12,0,0,0,0,0,0,0,0,0,0,0,1.9603e-19,0,0,0,0,0,0,0,0,0,0,0
11540,-3.17918e-12,2.41687e-38,-1.55365e-06,-3.2605e-12,2.41663e-38,0,0,0,0,0,0,0,0,0,0,0,0,0,0,0,0,0,0,0,0,0,0,-0.230646,-0.0348889,0,-1.5,3.94113e+12,0,0,0,0,0,0,0,0,0,0,0,1.9603e-19,0,0,0,0,0,0,0,0,0,0,0
11559,-3.17918e-12,2.41687e-38,-1.55365e-06,-3.2605e-12,2.41663e-38,0,0,0,0,0,0,0,0,0,0,0,0,0,0,0,0,0,0,0,0,0,0,-0.230646,-0.0348889,0,-1.5,3.94113e+12,0,0,0,0,0,0,0,0,0,0,0,1.9603e-19,0,0,0,0,0,0,0,0,0,0,0
11578,-3.17918e-12,2.41687e-38,-1.55365e-06,-3.2605e-12,2.41663e-38,0,0,0,0,0,0,0,0,0,0,0,0,0,0,0,0,0,0,0,0,0,0,-0.230646,-0.0348889,0,-1.5,3.94113e+12,0,0,0,0,0,0,0,0,0,0,0,1.9603e-19,0,0,0,0,0,0,0,0,0,0,0
11597,-3.17918e-12,2.41687e-38,-1.55365e-06,-3.2605e-12,2.41663e-38,0,0,0,0,0,0,0,0,0,0,0,0,0,0,0,0,0,0,0,0,0,0,-0.230646,-0.0348889,0,-1.5,3.94113e+12,0,0,0,0,0,0,0,0,0,0,0,1.9603e-19,0,0,0,0,0,0,0,0,0,0,0
11618,-3.17918e-12,2.41687e-38,-1.55365e-06,-3.2605e-12,2.41663e-38,0,0,0,0,0,0,0,0,0,0,0,0,0,0,0,0,0,0,0,0,0,0,-0.230646,-0.0348889,0,-1.5,3.94113e+12,0,0,0,0,0,0,0,0,0,0,0,1.9603e-19,0,0,0,0,0,0,0,0,0,0,0
11638,-3.17918e-12,2.41687e-38,-1.55365e-06,-3.2605e-12,2.41663e-38,0,0,0,0,0,0,0,0,0,0,0,0,0,0,0,0,0,0,0,0,0,0,-0.230646,-0.0348889,0,-1.5,3.94113e+12,0,0,0,0,0,0,0,0,0,0,0,1.9603e-19,0,0,0,0,0,0,0,0,0,0,0
11691,-3.17918e-12,2.41687e-38,-1.55365e-06,-3.2605e-12,2.41663e-38,0,0,0,0,0,0,0,0,0,0,0,0,0,0,0,0,0,0,0,0,0,0,-0.230646,-0.0348889,0,-1.5,3.94113e+12,0,0,0,0,0,0,0,0,0,0,0,1.9603e-19,0,0,0,0,0,0,0,0,0,0,0
11711,-3.17918e-12,2.41687e-38,-1.55365e-06,-3.2605e-12,2.41663e-38,0,0,0,0,0,0,0,0,0,0,0,0,0,0,0,0,0,0,0,0,0,0,-0.230646,-0.0348889,0,-1.5,3.94113e+12,0,0,0,0,0,0,0,0,0,0,0,1.9603e-19,0,0,0,0,0,0,0,0,0,0,0
11730,-3.17918e-12,2.41687e-38,-1.55365e-06,-3.2605e-12,2.41663e-38,0,0,0,0,0,0,0,0,0,0,0,0,0,0,0,0,0,0,0,0,0,0,-0.230646,-0.0348889,0,-1.5,3.94113e+12,0,0,0,0,0,0,0,0,0,0,0,1.9603e-19,0,0,0,0,0,0,0,0,0,0,0
11752,-3.17918e-12,2.41687e-38,-1.55365e-06,-3.2605e-12,2.41663e-38,0,0,0,0,0,0,0,0,0,0,0,0,0,0,0,0,0,0,0,0,0,0,-0.230646,-0.0348889,0,-1.5,3.94113e+12,0,0,0,0,0,0,0,0,0,0,0,1.9603e-19,0,0,0,0,0,0,0,0,0,0,0
11770,-3.17918e-12,2.41687e-38,-1.55365e-06,-3.2605e-12,2.41663e-38,0,0,0,0,0,0,0,0,0,0,0,0,0,0,0,0,0,0,0,0,0,0,-0.230646,-0.0348889,0,-1.5,3.94113e+12,0,0,0,0,0,0,0,0,0,0,0,1.9603e-19,0,0,0,0,0,0,0,0,0,0,0
11786,-3.17918e-12,2.41687e-38,-1.55365e-06,-3.2605e-12,2.41663e-38,0,0,0,0,0,0,0,0,0,0,0,0,0,0,0,0,0,0,0,0,0,0,-0.230646,-0.0348889,0,-1.5,3.94113e+12,0,0,0,0,0,0,0,0,0,0,0,1.9603e-19,0,0,0,0,0,0,0,0,0,0,0
11805,-3.17918e-12,2.41687e-38,-1.55365e-06,-3.2605e-12,2.41663e-38,0,0,0,0,0,0,0,0,0,0,0,0,0,0,0,0,0,0,0,0,0,0,-0.230646,-0.0348889,0,-1.5,3.94113e+12,0,0,0,0,0,0,0,0,0,0,0,1.9603e-19,0,0,0,0,0,0,0,0,0,0,0
11824,-3.17918e-12,2.41687e-38,-1.55365e-06,-3.2605e-12,2.41663e-38,0,0,0,0,0,0,0,0,0,0,0,0,0,0,0,0,0,0,0,0,0,0,-0.230646,-0.0348889,0,-1.5,3.94113e+12,0,0,0,0,0,0,0,0,0,0,0,1.9603e-19,0,0,0,0,0,0,0,0,0,0,0
11845,-3.17918e-12,2.41687e-38,-1.55365e-06,-3.2605e-12,2.41663e-38,0,0,0,0,0,0,0,0,0,0,0,0,0,0,0,0,0,0,0,0,0,0,-0.230646,-0.0348889,0,-1.5,3.94113e+12,0,0,0,0,0,0,0,0,0,0,0,1.9603e-19,0,0,0,0,0,0,0,0,0,0,0
11863,-3.17918e-12,2.41687e-38,-1.55365e-06,-3.2605e-12,2.41663e-38,0,0,0,0,0,0,0,0,0,0,0,0,0,0,0,0,0,0,0,0,0,0,-0.230646,-0.0348889,0,-1.5,3.94113e+12,0,0,0,0,0,0,0,0,0,0,0,1.9603e-19,0,0,0,0,0,0,0,0,0,0,0
11882,-3.17918e-12,2.41687e-38,-1.55365e-06,-3.2605e-12,2.41663e-38,0,0,0,0,0,0,0,0,0,0,0,0,0,0,0,0,0,0,0,0,0,0,-0.230646,-0.0348889,0,-1.5,3.94113e+12,0,0,0,0,0,0,0,0,0,0,0,1.9603e-19,0,0,0,0,0,0,0,0,0,0,0
11901,-3.17918e-12,2.41687e-38,-1.55365e-06,-3.2605e-12,2.41663e-38,0,0,0,0,0,0,0,0,0,0,0,0,0,0,0,0,0,0,0,0,0,0,-0.230646,-0.0348889,0,-1.5,3.94113e+12,0,0,0,0,0,0,0,0,0,0,0,1.9603e-19,0,0,0,0,0,0,0,0,0,0,0
11920,-3.17918e-12,2.41687e-38,-1.55365e-06,-3.2605e-12,2.41663e-38,0,0,0,0,0,0,0,0,0,0,0,0,0,0,0,0,0,0,0,0,0,0,-0.230646,-0.0348889,0,-1.5,3.94113e+12,0,0,0,0,0,0,0,0,0,0,0,1.9603e-19,0,0,0,0,0,0,0,0,0,0,0
11940,-3.17918e-12,2.41687e-38,-1.55365e-06,-3.2605e-12,2.41663e-38,0,0,0,0,0,0,0,0,0,0,0,0,0,0,0,0,0,0,0,0,0,0,-0.230646,-0.0348889,0,-1.5,3.94113e+12,0,0,0,0,0,0,0,0,0,0,0,1.9603e-19,0,0,0,0,0,0,0,0,0,0,0
11959,-3.17918e-12,2.41687e-38,-1.55365e-06,-3.2605e-12,2.41663e-38,0,0,0,0,0,0,0,0,0,0,0,0,0,0,0,0,0,0,0,0,0,0,-0.230646,-0.0348889,0,-1.5,3.94113e+12,0,0,0,0,0,0,0,0,0,0,0,1.9603e-19,0,0,0,0,0,0,0,0,0,0,0
11978,-3.17918e-12,2.41687e-38,-1.55365e-06,-3.2605e-12,2.41663e-38,0,0,0,0,0,0,0,0,0,0,0,0,0,0,0,0,0,0,0,0,0,0,-0.230646,-0.0348889,0,-1.5,3.94113e+12,0,0,0,0,0,0,0,0,0,0,0,1.9603e-19,0,0,0,0,0,0,0,0,0,0,0
11996,-3.17918e-12,2.41687e-38,-1.55365e-06,-3.2605e-12,2.41663e-38,0,0,0,0,0,0,0,0,0,0,0,0,0,0,0,0,0,0,0,0,0,0,-0.230646,-0.0348889,0,-1.5,3.94113e+12,0,0,0,0,0,0,0,0,0,0,0,1.9603e-19,0,0,0,0,0,0,0,0,0,0,0
12016,-3.17918e-12,2.41687e-38,-1.55365e-06,-3.2605e-12,2.41663e-38,0,0,0,0,0,0,0,0,0,0,0,0,0,0,0,0,0,0,0,0,0,0,-0.230646,-0.0348889,0,-1.5,3.94113e+12,0,0,0,0,0,0,0,0,0,0,0,1.9603e-19,0,0,0,0,0,0,0,0,0,0,0
12036,-3.17918e-12,2.41687e-38,-1.55365e-06,-3.2605e-12,2.41663e-38,0,0,0,0,0,0,0,0,0,0,0,0,0,0,0,0,0,0,0,0,0,0,-0.230646,-0.0348889,0,-1.5,3.94113e+12,0,0,0,0,0,0,0,0,0,0,0,1.9603e-19,0,0,0,0,0,0,0,0,0,0,0
12054,-3.17918e-12,2.41687e-38,-1.55365e-06,-3.2605e-12,2.41663e-38,0,0,0,0,0,0,0,0,0,0,0,0,0,0,0,0,0,0,0,0,0,0,-0.230646,-0.0348889,0,-1.5,3.94113e+12,0,0,0,0,0,0,0,0,0,0,0,1.9603e-19,0,0,0,0,0,0,0,0,0,0,0
12073,-3.17918e-12,2.41687e-38,-1.55365e-06,-3.2605e-12,2.41663e-38,0,0,0,0,0,0,0,0,0,0,0,0,0,0,0,0,0,0,0,0,0,0,-0.230646,-0.0348889,0,-1.5,3.94113e+12,0,0,0,0,0,0,0,0,0,0,0,1.9603e-19,0,0,0,0,0,0,0,0,0,0,0
12092,-3.17918e-12,2.41687e-38,-1.55365e-06,-3.2605e-12,2.41663e-38,0,0,0,0,0,0,0,0,0,0,0,0,0,0,0,0,0,0,0,0,0,0,-0.230646,-0.0348889,0,-1.5,3.94113e+12,0,0,0,0,0,0,0,0,0,0,0,1.9603e-19,0,0,0,0,0,0,0,0,0,0,0
12111,-3.17918e-12,2.41687e-38,-1.55365e-06,-3.2605e-12,2.41663e-38,0,0,0,0,0,0,0,0,0,0,0,0,0,0,0,0,0,0,0,0,0,0,-0.230646,-0.0348889,0,-1.5,3.94113e+12,0,0,0,0,0,0,0,0,0,0,0,1.9603e-19,0,0,0,0,0,0,0,0,0,0,0
12131,-3.17918e-12,2.41687e-38,-1.55365e-06,-3.2605e-12,2.41663e-38,0,0,0,0,0,0,0,0,0,0,0,0,0,0,0,0,0,0,0,0,0,0,-0.230646,-0.0348889,0,-1.5,3.94113e+12,0,0,0,0,0,0,0,0,0,0,0,1.9603e-19,0,0,0,0,0,0,0,0,0,0,0
12147,-3.17918e-12,2.41687e-38,-1.55365e-06,-3.2605e-12,2.41663e-38,0,0,0,0,0,0,0,0,0,0,0,0,0,0,0,0,0,0,0,0,0,0,-0.230646,-0.0348889,0,-1.5,3.94113e+12,0,0,0,0,0,0,0,0,0,0,0,1.9603e-19,0,0,0,0,0,0,0,0,0,0,0
12164,-3.17918e-12,2.41687e-38,-1.55365e-06,-3.2605e-12,2.41663e-38,0,0,0,0,0,0,0,0,0,0,0,0,0,0,0,0,0,0,0,0,0,0,-0.230646,-0.0348889,0,-1.5,3.94113e+12,0,0,0,0,0,0,0,0,0,0,0,1.9603e-19,0,0,0,0,0,0,0,0,0,0,0
12183,-3.17918e-12,2.41687e-38,-1.55365e-06,-3.2605e-12,2.41663e-38,0,0,0,0,0,0,0,0,0,0,0,0,0,0,0,0,0,0,0,0,0,0,-0.230646,-0.0348889,0,-1.5,3.94113e+12,0,0,0,0,0,0,0,0,0,0,0,1.9603e-19,0,0,0,0,0,0,0,0,0,0,0
12202,-3.17918e-12,2.41687e-38,-1.55365e-06,-3.2605e-12,2.41663e-38,0,0,0,0,0,0,0,0,0,0,0,0,0,0,0,0,0,0,0,0,0,0,-0.230646,-0.0348889,0,-1.5,3.94113e+12,0,0,0,0,0,0,0,0,0,0,0,1.9603e-19,0,0,0,0,0,0,0,0,0,0,0
12221,-3.17918e-12,2.41687e-38,-1.55365e-06,-3.2605e-12,2.41663e-38,0,0,0,0,0,0,0,0,0,0,0,0,0,0,0,0,0,0,0,0,0,0,-0.230646,-0.0348889,0,-1.5,3.94113e+12,0,0,0,0,0,0,0,0,0,0,0,1.9603e-19,0,0,0,0,0,0,0,0,0,0,0
12246,-3.17918e-12,2.41687e-38,-1.55365e-06,-3.2605e-12,2.41663e-38,0,0,0,0,0,0,0,0,0,0,0,0,0,0,0,0,0,0,0,0,0,0,-0.230646,-0.0348889,0,-1.5,3.94113e+12,0,0,0,0,0,0,0,0,0,0,0,1.9603e-19,0,0,0,0,0,0,0,0,0,0,0
12268,-3.17918e-12,2.41687e-38,-1.55365e-06,-3.2605e-12,2.41663e-38,0,0,0,0,-3.58596,0.252174,0.731489,0,0,0,0,0,-0.512763,0.252174,227,-94,227,-94,353,-95,229,32,-0.230646,-0.0348889,0,-1.5,3.94113e+12,0,0,0,0,0,0,0,0,0,0,0,16383,0,0,0,0,12256,0,0,0,0,0,0
12287,-3.17918e-12,2.41687e-38,-1.55365e-06,-3.2605e-12,2.41663e-38,0,0,0,0,-3.45317,0.2878,0.633571,0,0,0,0,0,-0.330849,0.2878,220,-91,220,-91,344,-104,225,40,-0.230646,-0.0348889,0,-1.5,3.94113e+12,0,0,0,0,0,0,0,0,0,0,0,19584,0,0,0,0,12275,0,0,0,0,0,0
12305,-3.17918e-12,2.41687e-38,-1.55365e-06,-3.2605e-12,2.41663e-38,0,0,0,0,-3.57144,0.31338,0.636364,0,0,0,0,0,-0.492872,0.31338,215,-88,215,-88,345,-82,226,43,-0.230646,-0.0348889,0,-1.5,3.94113e+12,0,0,0,0,0,0,0,0,0,0,0,17685,0,0,0,0,12302,0,0,0,0,0,0
12324,-3.17918e-12,2.41687e-38,-1.55365e-06,-3.2605e-12,2.41663e-38,0,0,0,0,-3.57144,0.31338,0.636364,0,0,0,0,0,-0.492872,0.31338,215,-88,215,-88,345,-82,226,43,-0.230646,-0.0348889,0,-1.5,3.94113e+12,0,0,0,0,0,0,0,0,0,0,0,17685,0,0,0,0,12302,0,0,0,0,0,0
12343,-3.17918e-12,2.41687e-38,-1.55365e-06,-3.2605e-12,2.41663e-38,0,0,0,0,-3.57144,0.31338,0.636364,0,0,0,0,0,-0.492872,0.31338,215,-88,215,-88,345,-82,226,43,-0.230646,-0.0348889,0,-1.5,3.94113e+12,0,0,0,0,0,0,0,0,0,0,0,17685,0,0,0,0,12302,0,0,0,0,0,0
12361,-3.17918e-12,2.41687e-38,-1.55365e-06,-3.2605e-12,2.41663e-38,0,0,0,0,-3.57144,0.31338,0.636364,0,0,0,0,0,-0.492872,0.31338,215,-88,215,-88,345,-82,226,43,-0.230646,-0.0348889,0,-1.5,3.94113e+12,0,0,0,0,0,0,0,0,0,0,0,17685,0,0,0,0,12302,0,0,0,0,0,0
12380,-3.17918e-12,2.41687e-38,-1.55365e-06,-3.2605e-12,2.41663e-38,0,0,0,0,-3.57144,0.31338,0.636364,0,0,0,0,0,-0.492872,0.31338,215,-88,215,-88,345,-82,226,43,-0.230646,-0.0348889,0,-1.5,3.94113e+12,0,0,0,0,0,0,0,0,0,0,0,17685,0,0,0,0,12302,0,0,0,0,0,0
12399,-3.17918e-12,2.41687e-38,-1.55365e-06,-3.2605e-12,2.41663e-38,0,0,0,0,-3.57144,0.31338,0.636364,0,0,0,0,0,-0.492872,0.31338,215,-88,215,-88,345,-82,226,43,-0.230646,-0.0348889,0,-1.5,3.94113e+12,0,0,0,0,0,0,0,0,0,0,0,17685,0,0,0,0,12302,0,0,0,0,0,0
12418,-3.17918e-12,2.41687e-38,-1.55365e-06,-3.2605e-12,2.41663e-38,0,0,0,0,-3.57144,0.31338,0.636364,0,0,0,0,0,-0.492872,0.31338,215,-88,215,-88,345,-82,226,43,-0.230646,-0.0348889,0,-1.5,3.94113e+12,0,0,0,0,0,0,0,0,0,0,0,17685,0,0,0,0,12302,0,0,0,0,0,0
12445,-3.17918e-12,2.41687e-38,-1.55365e-06,-3.2605e-12,2.41663e-38,0,0,0,0,-3.35024,0.249926,0.406807,0,0,0,0,0,-0.189833,0.249926,221,-85,221,-85,348,-86,234,63,-0.240658,-0.0348889,0,-1.5,3.94113e+12,0,0,0,-0.182188,0.247872,0,0,0,0,0.849533,-0.22817,19966,-0.189833,0.249926,0.849533,-0.22817,12436,0,0,0,0,0,0
12467,-3.17918e-12,2.41687e-38,-1.55365e-06,-3.2605e-12,2.41663e-38,0,0,0,0,-3.35024,0.249926,0.406807,0,0,0,0,0,-0.189833,0.249926,221,-85,221,-85,348,-86,234,63,-0.234745,-0.0348889,0,-1.5,3.94113e+12,0,0,0,-0.16095,0.242168,0,0,0,0,0.849533,-0.22817,19966,-0.189833,0.249926,0.849533,-0.22817,12436,0,0,0,0,0,0
12486,-3.17918e-12,2.41687e-38,-1.55365e-06,-3.2605e-12,2.41663e-38,0,0,0,0,-3.35024,0.249926,0.406807,0,0,0,0,0,-0.189833,0.249926,221,-85,221,-85,348,-86,234,63,-0.230477,-0.0348889,0,-1.5,3.94113e+12,0,0,0,-0.145659,0.238061,0,0,0,0,0.849533,-0.22817,19966,-0.189833,0.249926,0.849533,-0.22817,12436,0,0,0,0,0,0
12502,-3.17918e-12,2.41687e-38,-1.55365e-06,-3.2605e-12,2.41663e-38,0,0,0,0,-3.35024,0.249926,0.406807,0,0,0,0,0,-0.189833,0.249926,221,-85,221,-85,348,-86,234,63,-0.226438,-0.0348889,0,-1.5,3.94113e+12,0,0,0,-0.131217,0.234182,0,0,0,0,0.849533,-0.22817,19966,-0.189833,0.249926,0.849533,-0.22817,12436,0,0,0,0,0,0
12521,-3.17918e-12,2.41687e-38,-1.55365e-06,-3.2605e-12,2.41663e-38,0,0,0,0,-3.35024,0.249926,0.406807,0,0,0,0,0,-0.189833,0.249926,221,-85,221,-85,348,-86,234,63,-0.222154,-0.0348889,0,-1.5,3.94113e+12,0,0,0,-0.115926,0.230076,0,0,0,0,0.849533,-0.22817,19966,-0.189833,0.249926,0.849533,-0.22817,12436,0,0,0,0,0,0
12539,-3.17918e-12,2.41687e-38,-1.55365e-06,-3.2605e-12,2.41663e-38,0,0,0,0,-3.35024,0.249926,0.406807,0,0,0,0,0,-0.189833,0.249926,221,-85,221,-85,348,-86,234,63,-0.217623,-0.0348889,0,-1.5,3.94113e+12,0,0,0,-0.0997859,0.225741,0,0,0,0,0.849533,-0.22817,19966,-0.189833,0.249926,0.849533,-0.22817,12436,0,0,0,0,0,0
12558,-3.17918e-12,2.41687e-38,-1.55365e-06,-3.2605e-12,2.41663e-38,0,0,0,0,-3.35024,0.249926,0.406807,0,0,0,0,0,-0.189833,0.249926,221,-85,221,-85,348,-86,234,63,-0.213322,-0.0348889,0,-1.5,3.94113e+12,0,0,0,-0.084495,0.221634,0,0,0,0,0.849533,-0.22817,19966,-0.189833,0.249926,0.849533,-0.22817,12436,0,0,0,0,0,0
12577,-3.17918e-12,2.41687e-38,-1.55365e-06,-3.2605e-12,2.41663e-38,0,0,0,0,-3.35024,0.249926,0.406807,0,0,0,0,0,-0.189833,0.249926,221,-85,221,-85,348,-86,234,63,-0.208773,-0.0348889,0,-1.5,3.94113e+12,0,0,0,-0.0683546,0.217299,0,0,0,0,0.849533,-0.22817,19966,-0.189833,0.249926,0.849533,-0.22817,12436,0,0,0,0,0,0
12595,-3.17918e-12,2.41687e-38,-1.55365e-06,-3.2605e-12,2.41663e-38,0,0,0,0,-3.35024,0.249926,0.406807,0,0,0,0,0,-0.189833,0.249926,221,-85,221,-85,348,-86,234,63,-0.204455,-0.0348889,0,-1.5,3.94113e+12,0,0,0,-0.0530637,0.213192,0,0,0,0,0.849533,-0.22817,19966,-0.189833,0.249926,0.849533,-0.22817,12436,0,0,0,0,0,0
12614,-3.17918e-12,2.41687e-38,-1.55365e-06,-3.2605e-12,2.41663e-38,0,0,0,0,-3.35024,0.249926,0.406807,0,0,0,0,0,-0.189833,0.249926,221,-85,221,-85,348,-86,234,63,-0.19989,-0.0348889,0,-1.5,3.94113e+12,0,0,0,-0.0369234,0.208857,0,0,0,0,0.849533,-0.22817,19966,-0.189833,0.249926,0.849533,-0.22817,12436,0,0,0,0,0,0
12634,-3.17918e-12,2.41687e-38,-1.55365e-06,-3.2605e-12,2.41663e-38,0,0,0,0,-3.35024,0.249926,0.406807,0,0,0,0,0,-0.189833,0.249926,221,-85,221,-85,348,-86,234,63,-0.195074,-0.0348889,0,-1.5,3.94113e+12,0,0,0,-0.0199331,0.204294,0,0,0,0,0.849533,-0.22817,19966,-0.189833,0.249926,0.849533,-0.22817,12436,0,0,0,0,0,0
12652,-3.17918e-12,2.41687e-38,-1.55365e-06,-3.2605e-12,2.41663e-38,0,0,0,0,-3.35024,0.249926,0.406807,0,0,0,0,0,-0.189833,0.249926,221,-85,221,-85,348,-86,234,63,-0.190732,-0.0348889,0,-1.5,3.94113e+12,0,0,0,-0.00464222,0.200187,0,0,0,0,0.849533,-0.22817,19966,-0.189833,0.249926,0.849533,-0.22817,12436,0,0,0,0,0,0
12673,-3.17918e-12,2.41687e-38,-1.55365e-06,-3.2605e-12,2.41663e-38,0,0,0,0,-3.35024,0.249926,0.406807,0,0,0,0,0,-0.189833,0.249926,221,-85,221,-85,348,-86,234,63,-0.185658,-0.0348889,0,-1.5,3.94113e+12,0,0,0,0.0131975,0.195395,0,0,0,0,0.849533,-0.22817,19966,-0.189833,0.249926,0.849533,-0.22817,12436,0,0,0,0,0,0
12691,-3.17918e-12,2.41687e-38,-1.55365e-06,-3.2605e-12,2.41663e-38,0,0,0,0,-3.35024,0.249926,0.406807,0,0,0,0,0,-0.189833,0.249926,221,-85,221,-85,348,-86,234,63,-0.181301,-0.0348889,0,-1.5,3.94113e+12,0,0,0,0.0284884,0.191288,0,0,0,0,0.849533,-0.22817,19966,-0.189833,0.249926,0.849533,-0.22817,12436,0,0,0,0,0,0
12721,-3.17918e-12,2.41687e-38,-1.55365e-06,-3.2605e-12,2.41663e-38,0,0,0,0,-3.35024,0.249926,0.406807,0,0,0,0,0,-0.189833,0.249926,221,-85,221,-85,348,-86,234,63,-0.174023,-0.0348889,0,-1.5,3.94113e+12,0,0,0,0.0539738,0.184443,0,0,0,0,0.849533,-0.22817,19966,-0.189833,0.249926,0.849533,-0.22817,12436,0,0,0,0,0,0
12738,-3.17918e-12,2.41687e-38,-1.55365e-06,-3.2605e-12,2.41663e-38,0,0,0,0,-3.35024,0.249926,0.406807,0,0,0,0,0,-0.189833,0.249926,221,-85,221,-85,348,-86,234,63,-0.169891,-0.0348889,0,-1.5,3.94113e+12,0,0,0,0.0684152,0.180565,0,0,0,0,0.849533,-0.22817,19966,-0.189833,0.249926,0.849533,-0.22817,12436,0,0,0,0,0,0
12754,-3.17918e-12,2.41687e-38,-1.55365e-06,-3.2605e-12,2.41663e-38,0,0,0,0,-3.35024,0.249926,0.406807,0,0,0,0,0,-0.189833,0.249926,221,-85,221,-85,348,-86,234,63,-0.165996,-0.0348889,0,-1.5,3.94113e+12,0,0,0,0.0820072,0.176914,0,0,0,0,0.849533,-0.22817,19966,-0.189833,0.249926,0.849533,-0.22817,12436,0,0,0,0,0,0
12774,-3.17918e-12,2.41687e-38,-1.55365e-06,-3.2605e-12,2.41663e-38,0,0,0,0,-3.35024,0.249926,0.406807,0,0,0,0,0,-0.189833,0.249926,221,-85,221,-85,348,-86,234,63,-0.491893,-0.0348889,0,-1.5,3.94113e+12,0,0,0,0.098997,0.172351,0,0,0,0,0.849533,-0.22817,19966,-0.189833,0.249926,0.849533,-0.22817,12436,0,0,0,0,0,0
12793,-3.17918e-12,2.41687e-38,-1.55365e-06,-3.2605e-12,2.41663e-38,0,0,0,0,-3.35024,0.249926,0.406807,0,0,0,0,0,-0.189833,0.249926,221,-85,221,-85,348,-86,234,63,-0.481103,-0.0348889,0,-1.5,3.94113e+12,0,0,0,0.115137,0.168016,0,0,0,0,0.849533,-0.22817,19966,-0.189833,0.249926,0.849533,-0.22817,12436,0,0,0,0,0,0
12812,-3.17918e-12,2.41687e-38,-1.55365e-06,-3.2605e-12,2.41663e-38,0,0,0,0,-3.35024,0.249926,0.406807,0,0,0,0,0,-0.189833,0.249926,221,-85,221,-85,348,-86,234,63,-0.47019,-0.0348889,0,-1.5,3.94113e+12,0,0,0,0.131278,0.163681,0,0,0,0,0.849533,-0.22817,19966,-0.189833,0.249926,0.849533,-0.22817,12436,0,0,0,0,0,0
12830,-3.17918e-12,2.41687e-38,-1.55365e-06,-3.2605e-12,2.41663e-38,0,0,0,0,-3.35024,0.249926,0.406807,0,0,0,0,0,-0.189833,0.249926,221,-85,221,-85,348,-86,234,63,-0.459155,-0.0348889,0,-1.5,3.94113e+12,0,0,0,0.147418,0.159346,0,0,0,0,0.849533,-0.22817,19966,-0.189833,0.249926,0.849533,-0.22817,12436,0,0,0,0,0,0
12850,-3.17918e-12,2.41687e-38,-1.55365e-06,-3.2605e-12,2.41663e-38,0,0,0,0,-3.35024,0.249926,0.406807,0,0,0,0,0,-0.189833,0.249926,221,-85,221,-85,348,-86,234,63,-0.447999,-0.0348889,0,-1.5,3.94113e+12,0,0,0,0.163558,0.155011,0,0,0,0,0.849533,-0.22817,19966,-0.189833,0.249926,0.849533,-0.22817,12436,0,0,0,0,0,0
12868,-3.17918e-12,2.41687e-38,-1.55365e-06,-3.2605e-12,2.41663e-38,0,0,0,0,-3.35024,0.249926,0.406807,0,0,0,0,0,-0.189833,0.249926,221,-85,221,-85,348,-86,234,63,-0.436722,-0.0348889,0,-1.5,3.94113e+12,0,0,0,0.179699,0.150676,0,0,0,0,0.849533,-0.22817,19966,-0.189833,0.249926,0.849533,-0.22817,12436,0,0,0,0,0,0
12887,-3.17918e-12,2.41687e-38,-1.55365e-06,-3.2605e-12,2.41663e-38,0,0,0,0,-3.35024,0.249926,0.406807,0,0,0,0,0,-0.189833,0.249926,221,-85,221,-85,348,-86,234,63,-0.425927,-0.0348889,0,-1.5,3.94113e+12,0,0,0,0.19499,0.146569,0,0,0,0,0.849533,-0.22817,19966,-0.189833,0.249926,0.849533,-0.22817,12436,0,0,0,0,0,0
12906,-3.17918e-12,2.41687e-38,-1.55365e-06,-3.2605e-12,2.41663e-38,0,0,0,0,-3.35024,0.249926,0.406807,0,0,0,0,0,-0.189833,0.249926,221,-85,221,-85,348,-86,234,63,-0.414417,-0.0348889,0,-1.5,3.94113e+12,0,0,0,0.21113,0.142234,0,0,0,0,0.849533,-0.22817,19966,-0.189833,0.249926,0.849533,-0.22817,12436,0,0,0,0,0,0
12924,-3.17918e-12,2.41687e-38,-1.55365e-06,-3.2605e-12,2.41663e-38,0,0,0,0,-3.35024,0.249926,0.406807,0,0,0,0,0,-0.189833,0.249926,221,-85,221,-85,348,-86,234,63,-0.403404,-0.0348889,0,-1.5,3.94113e+12,0,0,0,0.226421,0.138127,0,0,0,0,0.849533,-0.22817,19966,-0.189833,0.249926,0.849533,-0.22817,12436,0,0,0,0,0,0
12943,-3.17918e-12,2.41687e-38,-1.55365e-06,-3.2605e-12,2.41663e-38,0,0,0,0,-3.35024,0.249926,0.406807,0.243393,0.133569,0.84614,-0.227258,0,-0.189833,0.249926,221,-85,221,-85,348,-86,234,63,-0.391646,-0.0348889,0,-1.5,3.94113e+12,0,0,0,0.243393,0.133569,0,0,0,0,0.84614,-0.227258,19966,0,0,0,0,12436,0,0,0,0,0,0
12965,-3.17918e-12,2.41687e-38,-1.55365e-06,-3.2605e-12,2.41663e-38,0,0,0,0,-3.35024,0.249926,0.406807,0.261041,0.128829,0.837288,-0.224881,0,-0.189833,0.249926,221,-85,221,-85,348,-86,234,63,-0.38023,-0.0348889,0,-1.5,3.94113e+12,0,0,0,0.261041,0.128829,0,0,0,0,0.837288,-0.224881,19966,0,0,0,0,12436,0,0,0,0,0,0
12982,-3.17918e-12,2.41687e-38,-1.55365e-06,-3.2605e-12,2.41663e-38,0,0,0,0,-3.35024,0.249926,0.406807,0.275199,0.125026,0.830194,-0.222975,0,-0.189833,0.249926,221,-85,221,-85,348,-86,234,63,-0.370994,-0.0348889,0,-1.5,3.94113e+12,0,0,0,0.275199,0.125026,0,0,0,0,0.830194,-0.222975,19966,0,0,0,0,12436,0,0,0,0,0,0
12998,-3.17918e-12,2.41687e-38,-1.55365e-06,-3.2605e-12,2.41663e-38,0,0,0,0,-3.35024,0.249926,0.406807,0.289239,0.121255,0.82316,-0.221086,0,-0.189833,0.249926,221,-85,221,-85,348,-86,234,63,-0.361769,-0.0348889,0,-1.5,3.94113e+12,0,0,0,0.289239,0.121255,0,0,0,0,0.82316,-0.221086,19966,0,0,0,0,12436,0,0,0,0,0,0
13017,-3.17918e-12,2.41687e-38,-1.55365e-06,-3.2605e-12,2.41663e-38,0,0,0,0,-3.35024,0.249926,0.406807,0.303972,0.117298,0.815776,-0.219103,0,-0.189833,0.249926,221,-85,221,-85,348,-86,234,63,-0.352018,-0.0348889,0,-1.5,3.94113e+12,0,0,0,0.303972,0.117298,0,0,0,0,0.815776,-0.219103,19966,0,0,0,0,12436,0,0,0,0,0,0
13036,-3.17918e-12,2.41687e-38,-1.55365e-06,-3.2605e-12,2.41663e-38,0,0,0,0,-3.35024,0.249926,0.406807,0.320184,0.112944,0.807648,-0.21692,0,-0.189833,0.249926,221,-85,221,-85,348,-86,234,63,-0.34121,-0.0348889,0,-1.5,3.94113e+12,0,0,0,0.320184,0.112944,0,0,0,0,0.807648,-0.21692,19966,0,0,0,0,12436,0,0,0,0,0,0
13055,-3.17918e-12,2.41687e-38,-1.55365e-06,-3.2605e-12,2.41663e-38,0,0,0,0,-3.35024,0.249926,0.406807,0.33464,0.109061,0.800404,-0.214974,0,-0.189833,0.249926,221,-85,221,-85,348,-86,234,63,-0.3315,-0.0348889,0,-1.5,3.94113e+12,0,0,0,0.33464,0.109061,0,0,0,0,0.800404,-0.214974,19966,0,0,0,0,12436,0,0,0,0,0,0
13074,-3.17918e-12,2.41687e-38,-1.55365e-06,-3.2605e-12,2.41663e-38,0,0,0,0,-3.35024,0.249926,0.406807,0.349757,0.105001,0.792826,-0.212939,0,-0.189833,0.249926,221,-85,221,-85,348,-86,234,63,-0.321277,-0.0348889,0,-1.5,3.94113e+12,0,0,0,0.349757,0.105001,0,0,0,0,0.792826,-0.212939,19966,0,0,0,0,12436,0,0,0,0,0,0
13093,-3.17918e-12,2.41687e-38,-1.55365e-06,-3.2605e-12,2.41663e-38,0,0,0,0,-3.35024,0.249926,0.406807,0.36473,0.10098,0.785321,-0.210923,0,-0.189833,0.249926,221,-85,221,-85,348,-86,234,63,-0.311082,-0.0348889,0,-1.5,3.94113e+12,0,0,0,0.36473,0.10098,0,0,0,0,0.785321,-0.210923,19966,0,0,0,0,12436,0,0,0,0,0,0
13111,-3.17918e-12,2.41687e-38,-1.55365e-06,-3.2605e-12,2.41663e-38,0,0,0,0,-3.35024,0.249926,0.406807,0.379562,0.0969962,0.777886,-0.208927,0,-0.189833,0.249926,221,-85,221,-85,348,-86,234,63,-0.300917,-0.0348889,0,-1.5,3.94113e+12,0,0,0,0.379562,0.0969962,0,0,0,0,0.777886,-0.208927,19966,0,0,0,0,12436,0,0,0,0,0,0
13130,-3.1792e-12,2.41241e-38,2.41707e-38,-3.2605e-12,2.41663e-38,0,0,0,0,-3.35024,0.249926,0.406807,0.393485,0.0932566,0.770909,-0.207053,0,-0.189833,0.249926,221,-85,221,-85,348,-86,234,63,-0.291316,-0.0348889,0,-1.5,3.94113e+12,0,0,0,0.393485,0.0932566,0,0,0,0,0.770909,-0.207053,19966,0,0,0,0,12436,0,0,0,0,0,0
13149,-3.17918e-12,2.41687e-38,-1.55365e-06,-3.2605e-12,2.41663e-38,0,0,0,0,-3.35024,0.249926,0.406807,0.408045,0.0893461,0.763611,-0.205093,0,-0.189833,0.249926,221,-85,221,-85,348,-86,234,63,-0.281216,-0.0348889,0,-1.5,3.94113e+12,0,0,0,0.408045,0.0893461,0,0,0,0,0.763611,-0.205093,19966,0,0,0,0,12436,0,0,0,0,0,0
13168,-3.17918e-12,2.41687e-38,-1.55365e-06,-3.2605e-12,2.41663e-38,0,0,0,0,-3.35024,0.249926,0.406807,0.422467,0.0854727,0.756382,-0.203151,0,-0.189833,0.249926,221,-85,221,-85,348,-86,234,63,-0.271154,-0.0348889,0,-1.5,3.94113e+12,0,0,0,0.422467,0.0854727,0,0,0,0,0.756382,-0.203151,19966,0,0,0,0,12436,0,0,0,0,0,0
13186,-3.17918e-12,2.41687e-38,-1.55365e-06,-3.2605e-12,2.41663e-38,0,0,0,0,-3.35024,0.249926,0.406807,0.436752,0.081636,0.749222,-0.201228,0,-0.189833,0.249926,221,-85,221,-85,348,-86,234,63,-0.261131,-0.0348889,0,-1.5,3.94113e+12,0,0,0,0.436752,0.081636,0,0,0,0,0.749222,-0.201228,19966,0,0,0,0,12436,0,0,0,0,0,0
13205,-3.17918e-12,2.41687e-38,-1.55365e-06,-3.2605e-12,2.41663e-38,0,0,0,0,-3.35024,0.249926,0.406807,0.450902,0.0778355,0.742129,-0.199323,0,-0.189833,0.249926,221,-85,221,-85,348,-86,234,63,-0.251151,-0.0348889,0,-1.5,3.94113e+12,0,0,0,0.450902,0.0778355,0,0,0,0,0.742129,-0.199323,19966,0,0,0,0,12436,0,0,0,0,0,0
13222,-3.17918e-12,2.41687e-38,-1.55365e-06,-3.2605e-12,2.41663e-38,0,0,0,0,-3.35024,0.249926,0.406807,0.462718,0.0746619,0.73621,-0.197733,0,-0.189833,0.249926,221,-85,221,-85,348,-86,234,63,-0.242775,-0.0348889,0,-1.5,3.94113e+12,0,0,0,0.462718,0.0746619,0,0,0,0,0.73621,-0.197733,19966,0,0,0,0,12436,0,0,0,0,0,0
13238,-3.17918e-12,2.41687e-38,-1.55365e-06,-3.2605e-12,2.41663e-38,0,0,0,0,-3.60887,0.238504,0.4855,0.475168,0.071318,0.729973,-0.196058,0,-0.544151,0.238504,226,-60,226,-60,351,-72,238,65,-0.233913,-0.0348889,0,-1.5,3.94113e+12,0,0,0,0.475168,0.071318,0,0,0,0,0.729973,-0.196058,18084,0,0,0,0,13238,0,0,0,0,0,0
13257,-3.17918e-12,2.41687e-38,-1.55365e-06,-3.2605e-12,2.41663e-38,0,0,0,0,-3.60887,0.238504,0.4855,0.488234,0.0678087,0.723426,-0.194299,0,-0.544151,0.238504,226,-60,226,-60,351,-72,238,65,-0.224573,-0.0348889,0,-1.5,3.94113e+12,0,0,0,0.488234,0.0678087,0,0,0,0,0.723426,-0.194299,18084,0,0,0,0,13238,0,0,0,0,0,0
13276,-3.17918e-12,2.41687e-38,-1.55365e-06,-3.2605e-12,2.41663e-38,0,0,0,0,-3.64754,0.248692,0.487602,0.501895,0.0641397,0.716576,-0.19246,0,-0.597133,0.248692,226,-59,226,-59,351,-63,234,65,-0.214765,-0.0348889,0,-1.5,3.94113e+12,0,0,0,0.501895,0.0641397,0,0,0,0,0.716576,-0.19246,16896,0,0,0,0,13273,0,0,0,0,0,0
13295,-3.17918e-12,2.41687e-38,-1.55365e-06,-3.2605e-12,2.41663e-38,0,0,0,0,-3.64754,0.248692,0.487602,0.515428,0.0605049,0.709792,-0.190638,0,-0.597133,0.248692,226,-59,226,-59,351,-63,234,65,-0.205008,-0.0348889,0,-1.5,3.94113e+12,0,0,0,0.515428,0.0605049,0,0,0,0,0.709792,-0.190638,16896,0,0,0,0,13273,0,0,0,0,0,0
13314,-3.17918e-12,2.41687e-38,-1.55365e-06,-3.2605e-12,2.41663e-38,0,0,0,0,-3.55019,0.241892,0.457368,0.528833,0.0569045,0.703073,-0.188833,0,-0.463754,0.241892,225,-73,225,-73,351,-63,234,65,-0.195303,-0.0348889,0,-1.5,3.94113e+12,0,0,0,0.528833,0.0569045,0,0,0,0,0.703073,-0.188833,18354,0,0,0,0,13302,0,0,0,0,0,0
13332,-3.17918e-12,2.41687e-38,-1.55365e-06,-3.2605e-12,2.41663e-38,0,0,0,0,-3.55019,0.241892,0.457368,0.542112,0.0533381,0.696417,-0.187045,0,-0.463754,0.241892,225,-73,225,-73,351,-63,234,65,-0.185653,-0.0348889,0,-1.5,3.94113e+12,0,0,0,0.542112,0.0533381,0,0,0,0,0.696417,-0.187045,18354,0,0,0,0,13302,0,0,0,0,0,0
13379,-3.17918e-12,2.41687e-38,-1.55365e-06,-3.2605e-12,2.41663e-38,0,0,0,0,-3.606,0.247566,0.469731,0.57356,0.0448916,0.680474,-0.182763,0,-0.540227,0.247566,224,-62,224,-62,352,-63,234,65,-0.311498,-0.0348889,0,-1.5,3.94113e+12,0,0,0,-0.499056,0.247012,0,0,0,0,0.891834,-0.0111713,17152,-1.08234,0.194228,0.21136,0.171592,13365,0,0,0,0,0,0
13398,-3.17918e-12,2.41687e-38,-1.55365e-06,-3.2605e-12,2.41663e-38,0,0,0,0,-3.606,0.247566,0.469731,0.586412,0.0414399,0.674032,-0.181033,0,-0.540227,0.247566,224,-62,224,-62,352,-63,234,65,-0.311867,-0.0348889,0,-1.5,3.94113e+12,0,0,0,-0.482189,0.246821,0,0,0,0,0.885392,-0.00944109,17152,-1.08234,0.194228,0.21136,0.171592,13365,0,0,0,0,0,0
13420,-3.17918e-12,2.41687e-38,-1.55365e-06,-3.2605e-12,2.41663e-38,0,0,0,0,-3.64015,0.247963,0.494289,0.601133,0.0374859,0.666646,-0.179049,0,-0.587005,0.247963,226,-62,226,-62,351,-63,234,65,-0.319516,-0.0348889,0,-1.5,3.94113e+12,0,0,0,-0.603109,0.24817,0,0,0,0,-0.734592,0.0101114,16896,-1.17342,0.206523,-1.40124,0.189161,13406,0,0,0,0,0,0
13442,-3.17918e-12,2.41687e-38,-1.55365e-06,-3.2605e-12,2.41663e-38,0,0,0,0,-3.5621,0.24858,0.480084,0.615698,0.0335741,0.659342,-0.177088,0,-0.480071,0.24858,224,-62,224,-62,351,-75,234,62,-0.32148,-0.0348889,0,-1.5,3.94113e+12,0,0,0,-0.475436,0.248696,0,0,0,0,0.578645,0.0146037,18358,-1.09049,0.213588,-0.0806977,0.191691,13436,0,0,0,0,0,0
13460,-3.17918e-12,2.41687e-38,-1.55365e-06,-3.2605e-12,2.41663e-38,0,0,0,0,-3.5621,0.24858,0.480084,0.62815,0.0302296,0.6531,-0.175411,0,-0.480071,0.24858,224,-62,224,-62,351,-75,234,62,-0.322313,-0.0348889,0,-1.5,3.94113e+12,0,0,0,-0.464517,0.248993,0,0,0,0,0.572403,0.0162801,18358,-1.09049,0.213588,-0.0806977,0.191691,13436,0,0,0,0,0,0
13482,-3.17918e-12,2.41687e-38,-1.55365e-06,-3.2605e-12,2.41663e-38,0,0,0,0,-3.5621,0.24858,0.480084,0.641775,0.0265701,0.64627,-0.173577,0,-0.480071,0.24858,224,-62,224,-62,351,-75,234,62,-0.322079,-0.0348889,0,-1.5,3.94113e+12,0,0,0,-0.475975,0.248982,0,0,0,0,0.408603,0.0155841,18358,-1.11537,0.22052,-0.237667,0.189161,13473,0,0,0,0,0,0
13498,-3.17918e-12,2.41687e-38,-1.55365e-06,-3.2605e-12,2.41663e-38,0,0,0,0,-3.5621,0.24858,0.480084,0.652705,0.0236348,0.640794,-0.172106,0,-0.480071,0.24858,224,-62,224,-62,351,-75,234,62,-0.322828,-0.0348889,0,-1.5,3.94113e+12,0,0,0,-0.469085,0.249262,0,0,0,0,0.403128,0.0170547,18358,-1.11537,0.22052,-0.237667,0.189161,13473,0,0,0,0,0,0
13520,-3.17918e-12,2.41687e-38,-1.55365e-06,-3.2605e-12,2.41663e-38,0,0,0,0,-3.65496,0.24635,0.510008,0.66607,0.0200451,0.634091,-0.170306,0,-0.607293,0.24635,226,-62,226,-62,352,-63,234,62,-0.322299,-0.0348889,0,-1.5,3.94113e+12,0,0,0,-0.460711,0.249235,0,0,0,0,0.396424,0.0154929,16500,-1.12179,0.225288,-0.237667,0.185799,13505,0,0,0,0,0,0
13542,-3.17918e-12,2.41687e-38,-1.55365e-06,-3.2605e-12,2.41663e-38,0,0,0,0,-3.64437,0.252313,0.503759,0.68055,0.0161559,0.626831,-0.168356,0,-0.592793,0.252313,224,-62,224,-62,351,-63,234,62,-0.324462,-0.0348889,0,-1.5,3.94113e+12,0,0,0,-0.588487,0.249991,0,0,0,0,-0.251825,0.0199033,16750,-1.26113,0.232141,-0.878655,0.188259,13535,0,0,0,0,0,0
13561,-3.17918e-12,2.41687e-38,-1.55365e-06,-3.2605e-12,2.41663e-38,0,0,0,0,-3.64437,0.252313,0.503759,0.69177,0.0131425,0.621208,-0.166846,0,-0.592793,0.252313,224,-62,224,-62,351,-63,234,62,-0.325316,-0.0348889,0,-1.5,3.94113e+12,0,0,0,-0.593083,0.250366,0,0,0,0,-0.257447,0.0214134,16750,-1.26113,0.232141,-0.878655,0.188259,13535,0,0,0,0,0,0
13583,-3.17918e-12,2.41687e-38,-1.55365e-06,-3.2605e-12,2.41663e-38,0,0,0,0,-3.61508,0.248442,0.479628,0.705956,0.00933236,0.614095,-0.164935,0,-0.552653,0.248442,224,-62,224,-62,352,-63,234,65,-0.323987,-0.0348889,0,-1.5,3.94113e+12,0,0,0,-0.576141,0.250003,0,0,0,0,-0.167208,0.0183886,17152,-1.27038,0.237921,-0.781303,0.183324,13571,0,0,0,0,0,0
13606,-3.17918e-12,2.41687e-38,-1.55365e-06,-3.2605e-12,2.41663e-38,0,0,0,0,-3.65496,0.24635,0.510008,0.719373,0.00572871,0.607368,-0.163128,0,-0.607293,0.24635,226,-62,226,-62,352,-63,234,62,-0.322065,-0.0348889,0,-1.5,3.94113e+12,0,0,0,-0.603556,0.249036,0,0,0,0,-0.270209,0.0153768,16500,-1.31766,0.242236,-0.877577,0.178505,13602,0,0,0,0,0,0
13625,-3.17918e-12,2.41687e-38,-1.55365e-06,-3.2605e-12,2.41663e-38,0,0,0,0,-3.65496,0.24635,0.510008,0.730844,0.00264783,0.601618,-0.161584,0,-0.607293,0.24635,226,-62,226,-62,352,-63,234,62,-0.322868,-0.0348889,0,-1.5,3.94113e+12,0,0,0,-0.608758,0.249347,0,0,0,0,-0.275959,0.0169211,16500,-1.31766,0.242236,-0.877577,0.178505,13602,0,0,0,0,0,0
13647,-3.17918e-12,2.41687e-38,-1.55365e-06,-3.2605e-12,2.41663e-38,0,0,0,0,-3.64437,0.252313,0.503759,0.743989,-0.000882593,0.595028,-0.159814,0,-0.592793,0.252313,224,-62,224,-62,351,-63,234,62,-0.327748,-0.0348889,0,-1.5,3.94113e+12,0,0,0,-0.602644,0.251659,0,0,0,0,-0.245766,0.0250337,16750,-1.33486,0.249953,-0.840793,0.184848,13635,0,0,0,0,0,0
13666,-3.17918e-12,2.41687e-38,-1.55365e-06,-3.2605e-12,2.41663e-38,0,0,0,0,-3.64437,0.252313,0.503759,0.755227,-0.00390087,0.589395,-0.158301,0,-0.592793,0.252313,224,-62,224,-62,351,-63,234,62,-0.328718,-0.0348889,0,-1.5,3.94113e+12,0,0,0,-0.60738,0.252152,0,0,0,0,-0.251399,0.0265467,16750,-1.33486,0.249953,-0.840793,0.184848,13635,0,0,0,0,0,0
13689,-3.17918e-12,2.41687e-38,-1.55365e-06,-3.2605e-12,2.41663e-38,0,0,0,0,-3.65496,0.24635,0.510008,0.768679,-0.00751398,0.582643,-0.156488,0,-0.607293,0.24635,226,-62,226,-62,352,-63,234,62,-0.326297,-0.0348889,0,-1.5,3.94113e+12,0,0,0,-0.615421,0.250955,0,0,0,0,-0.26412,0.0226664,16500,-1.36463,0.254348,-0.846763,0.179154,13673,0,0,0,0,0,0
13711,-3.17918e-12,2.41687e-38,-1.55365e-06,-3.2605e-12,2.41663e-38,0,0,0,0,-3.64437,0.252313,0.503759,0.781985,-0.0110876,0.575971,-0.154696,0,-0.592793,0.252313,224,-62,224,-62,351,-63,234,62,-0.328686,-0.0348889,0,-1.5,3.94113e+12,0,0,0,-0.612634,0.25223,0,0,0,0,-0.246114,0.0262093,16750,-1.38475,0.261147,-0.822085,0.180905,13701,0,0,0,0,0,0
13730,-3.17918e-12,2.41687e-38,-1.55365e-06,-3.2605e-12,2.41663e-38,0,0,0,0,-3.64437,0.252313,0.503759,0.792294,-0.0138565,0.570805,-0.153308,0,-0.592793,0.252313,224,-62,224,-62,351,-63,234,62,-0.329609,-0.0348889,0,-1.5,3.94113e+12,0,0,0,-0.617121,0.252717,0,0,0,0,-0.25128,0.0275969,16750,-1.38475,0.261147,-0.822085,0.180905,13701,0,0,0,0,0,0
13751,-3.17918e-12,2.41687e-38,-1.55365e-06,-3.2605e-12,2.41663e-38,0,0,0,0,-3.65496,0.24635,0.510008,0.8042,-0.0170541,0.564834,-0.151704,0,-0.607293,0.24635,226,-62,226,-62,352,-63,234,62,-0.328836,-0.0348889,0,-1.5,3.94113e+12,0,0,0,-0.621959,0.252103,0,0,0,0,-0.256969,0.0270656,16500,-1.4089,0.265403,-0.821803,0.17877,13735,0,0,0,0,0,0
13774,-3.17918e-12,2.41687e-38,-1.55365e-06,-3.2605e-12,2.41663e-38,0,0,0,0,-3.63681,0.249558,0.499341,0.817097,-0.0205182,0.558366,-0.149967,0,-0.582428,0.249558,224,-62,224,-62,352,-63,234,62,-0.325349,-0.0348889,0,-1.5,3.94113e+12,0,0,0,-0.615729,0.250055,0,0,0,0,-0.223774,0.0224737,16750,-1.42735,0.269366,-0.782141,0.172441,13769,0,0,0,0,0,0
13792,-3.17918e-12,2.41687e-38,-1.55365e-06,-3.2605e-12,2.41663e-38,0,0,0,0,-3.63681,0.249558,0.499341,0.827643,-0.0233505,0.55308,-0.148548,0,-0.582428,0.249558,224,-62,224,-62,352,-63,234,62,-0.326241,-0.0348889,0,-1.5,3.94113e+12,0,0,0,-0.620043,0.250499,0,0,0,0,-0.22906,0.0238934,16750,-1.42735,0.269366,-0.782141,0.172441,13769,0,0,0,0,0,0
13815,-3.17918e-12,2.41687e-38,-1.55365e-06,-3.2605e-12,2.41663e-38,0,0,0,0,-3.65496,0.24635,0.510008,0.840267,-0.026741,0.546744,-0.146846,0,-0.607293,0.24635,226,-62,226,-62,352,-63,234,62,-0.326337,-0.0348889,0,-1.5,3.94113e+12,0,0,0,-0.61044,0.250618,0,0,0,0,-0.132705,0.0238256,16500,-1.43508,0.273434,-0.679449,0.170671,13800,0,0,0,0,0,0
13834,-3.17918e-12,2.41687e-38,-1.55365e-06,-3.2605e-12,2.41663e-38,0,0,0,0,-3.65496,0.24635,0.510008,0.850051,-0.029369,0.541839,-0.145528,0,-0.607293,0.24635,226,-62,226,-62,352,-63,234,62,-0.327196,-0.0348889,0,-1.5,3.94113e+12,0,0,0,-0.612885,0.251062,0,0,0,0,-0.13761,0.0251429,16500,-1.43508,0.273434,-0.679449,0.170671,13800,0,0,0,0,0,0
13857,-3.17918e-12,2.41687e-38,-1.55365e-06,-3.2605e-12,2.41663e-38,0,0,0,0,-3.65496,0.24635,0.510008,0.862418,-0.0326906,0.535632,-0.143861,0,-0.607293,0.24635,226,-62,226,-62,352,-63,234,62,-0.326139,-0.0348889,0,-1.5,3.94113e+12,0,0,0,-0.616737,0.250289,0,0,0,0,-0.148354,0.0242184,16500,-1.46342,0.279114,-0.683986,0.16808,13841,0,0,0,0,0,0
13880,-3.17918e-12,2.41687e-38,-1.55365e-06,-3.2605e-12,2.41663e-38,0,0,0,0,-3.66911,0.247048,0.523012,0.874649,-0.0359756,0.529499,-0.142214,0,-0.626674,0.247048,226,-62,226,-62,352,-63,234,60,-0.324526,-0.0348889,0,-1.5,3.94113e+12,0,0,0,-0.629064,0.249432,0,0,0,0,-0.203397,0.0218218,16236,-1.49492,0.28344,-0.732896,0.164036,13870,0,0,0,0,0,0
13899,-3.17918e-12,2.41687e-38,-1.55365e-06,-3.2605e-12,2.41663e-38,0,0,0,0,-3.66911,0.247048,0.523012,0.884649,-0.0386615,0.524486,-0.140868,0,-0.626674,0.247048,226,-62,226,-62,352,-63,234,60,-0.325382,-0.0348889,0,-1.5,3.94113e+12,0,0,0,-0.632988,0.249863,0,0,0,0,-0.20841,0.0231681,16236,-1.49492,0.28344,-0.732896,0.164036,13870,0,0,0,0,0,0
13922,-3.17918e-12,2.41687e-38,-1.55365e-06,-3.2605e-12,2.41663e-38,0,0,0,0,-3.63681,0.249558,0.499341,0.89662,-0.0418767,0.518478,-0.139254,0,-0.582428,0.249558,224,-62,224,-62,352,-63,234,62,-0.326137,-0.0348889,0,-1.5,3.94113e+12,0,0,0,-0.622785,0.25024,0,0,0,0,-0.158483,0.0243627,16750,-1.50384,0.288354,-0.676961,0.163617,13906,0,0,0,0,0,0
13945,-3.17918e-12,2.41687e-38,-1.55365e-06,-3.2605e-12,2.41663e-38,0,0,0,0,-3.66911,0.247048,0.523012,0.90846,-0.0450565,0.512541,-0.137659,0,-0.626674,0.247048,226,-62,226,-62,352,-63,234,60,-0.327022,-0.0348889,0,-1.5,3.94113e+12,0,0,0,-0.625209,0.250645,0,0,0,0,-0.1544,0.0258792,16236,-1.52567,0.29374,-0.666941,0.163539,13934,0,0,0,0,0,0
13966,-3.17918e-12,2.41687e-38,-1.55365e-06,-3.2605e-12,2.41663e-38,0,0,0,0,-3.66911,0.247048,0.523012,0.91915,-0.0479277,0.507179,-0.136219,0,-0.626674,0.247048,226,-62,226,-62,352,-63,234,60,-0.328037,-0.0348889,0,-1.5,3.94113e+12,0,0,0,-0.628524,0.251209,0,0,0,0,-0.159762,0.0273193,16236,-1.52567,0.29374,-0.666941,0.163539,13934,0,0,0,0,0,0
13988,-3.17918e-12,2.41687e-38,-1.55365e-06,-3.2605e-12,2.41663e-38,0,0,0,0,-3.65496,0.24635,0.510008,0.930227,-0.0509029,0.501621,-0.134727,0,-0.607293,0.24635,226,-62,226,-62,352,-63,234,62,-0.326956,-0.0348889,0,-1.5,3.94113e+12,0,0,0,-0.633054,0.250632,0,0,0,0,-0.15914,0.0257127,16500,-1.54875,0.298005,-0.660761,0.160439,13972,0,0,0,0,0,0
14009,-3.17918e-12,2.41687e-38,-1.55365e-06,-3.2605e-12,2.41663e-38,0,0,0,0,-3.65496,0.24635,0.510008,0.940693,-0.0537137,0.496375,-0.133318,0,-0.607293,0.24635,226,-62,226,-62,352,-63,234,62,-0.32541,-0.0348889,0,-1.5,3.94113e+12,0,0,0,-0.630008,0.249909,0,0,0,0,-0.155267,0.0231115,16500,-1.56614,0.302528,-0.651641,0.156429,14004,0,0,0,0,0,0
14028,-3.17918e-12,2.41687e-38,-1.55365e-06,-3.2605e-12,2.41663e-38,0,0,0,0,-3.65496,0.24635,0.510008,0.950068,-0.0562316,0.491676,-0.132055,0,-0.607293,0.24635,226,-62,226,-62,352,-63,234,62,-0.326261,-0.0348889,0,-1.5,3.94113e+12,0,0,0,-0.633013,0.250363,0,0,0,0,-0.159966,0.0243736,16500,-1.56614,0.302528,-0.651641,0.156429,14004,0,0,0,0,0,0
14051,-3.17918e-12,2.41687e-38,-1.55365e-06,-3.2605e-12,2.41663e-38,0,0,0,0,-3.63681,0.249558,0.499341,0.961287,-0.059245,0.486042,-0.130542,0,-0.582428,0.249558,224,-62,224,-62,352,-63,234,62,-0.327368,-0.0348889,0,-1.5,3.94113e+12,0,0,0,-0.632509,0.250888,0,0,0,0,-0.153667,0.0262133,16750,-1.57908,0.306528,-0.639709,0.156756,14035,0,0,0,0,0,0
14075,-3.17918e-12,2.41687e-38,-1.55365e-06,-3.2605e-12,2.41663e-38,0,0,0,0,-3.65496,0.24635,0.510008,0.972864,-0.0623543,0.480235,-0.128983,0,-0.607293,0.24635,226,-62,226,-62,352,-63,234,62,-0.327315,-0.0348889,0,-1.5,3.94113e+12,0,0,0,-0.634156,0.250926,0,0,0,0,-0.15716,0.025931,16500,-1.60256,0.312196,-0.637395,0.154914,14070,0,0,0,0,0,0
14093,-3.17918e-12,2.41687e-38,-1.55365e-06,-3.2605e-12,2.41663e-38,0,0,0,0,-3.65496,0.24635,0.510008,0.981934,-0.0647903,0.475689,-0.127762,0,-0.607293,0.24635,226,-62,226,-62,352,-63,234,62,-0.328205,-0.0348889,0,-1.5,3.94113e+12,0,0,0,-0.637196,0.251434,0,0,0,0,-0.161706,0.027152,16500,-1.60256,0.312196,-0.637395,0.154914,14070,0,0,0,0,0,0
14117,-3.17918e-12,2.41687e-38,-1.55365e-06,-3.2605e-12,2.41663e-38,0,0,0,0,-3.66254,0.249107,0.514432,0.992796,-0.0677077,0.470242,-0.126299,0,-0.617673,0.249107,226,-62,226,-62,351,-63,234,62,-0.329357,-0.0348889,0,-1.5,3.94113e+12,0,0,0,-0.626755,0.251995,0,0,0,0,-0.149502,0.0290268,16500,-1.61025,0.317373,-0.619743,0.155325,14104,0,0,0,0,0,0
14141,-3.17918e-12,2.41687e-38,-1.55365e-06,-3.2605e-12,2.41663e-38,0,0,0,0,-3.65496,0.24635,0.510008,1.004,-0.0707159,0.464624,-0.12479,0,-0.607293,0.24635,226,-62,226,-62,352,-63,234,62,-0.330176,-0.0348889,0,-1.5,3.94113e+12,0,0,0,-0.626598,0.252439,0,0,0,0,-0.149382,0.0302268,16500,-1.6263,0.322069,-0.614006,0.155017,14136,0,0,0,0,0,0
14160,-3.17918e-12,2.41687e-38,-1.55365e-06,-3.2605e-12,2.41663e-38,0,0,0,0,-3.65496,0.24635,0.510008,1.01277,-0.0730727,0.460225,-0.123608,0,-0.607293,0.24635,226,-62,226,-62,352,-63,234,62,-0.331131,-0.0348889,0,-1.5,3.94113e+12,0,0,0,-0.629489,0.253027,0,0,0,0,-0.153781,0.0314082,16500,-1.6263,0.322069,-0.614006,0.155017,14136,0,0,0,0,0,0
14183,-3.17918e-12,2.41687e-38,-1.55365e-06,-3.2605e-12,2.41663e-38,0,0,0,0,-3.65496,0.24635,0.510008,1.02373,-0.0760169,0.454727,-0.122132,0,-0.607293,0.24635,226,-62,226,-62,352,-63,234,62,-0.331149,-0.0348889,0,-1.5,3.94113e+12,0,0,0,-0.631239,0.253113,0,0,0,0,-0.158112,0.0311993,16500,-1.64517,0.326676,-0.612839,0.153331,14170,0,0,0,0,0,0
14207,-3.17918e-12,2.41687e-38,-1.55365e-06,-3.2605e-12,2.41663e-38,0,0,0,0,-3.65496,0.24635,0.510008,1.03456,-0.078926,0.449295,-0.120673,0,-0.607293,0.24635,226,-62,226,-62,352,-63,234,62,-0.330199,-0.0348889,0,-1.5,3.94113e+12,0,0,0,-0.635508,0.252473,0,0,0,0,-0.160504,0.0301918,16500,-1.66519,0.330192,-0.609798,0.150864,14202,0,0,0,0,0,0
14226,-3.17918e-12,2.41687e-38,-1.55365e-06,-3.2605e-12,2.41663e-38,0,0,0,0,-3.65496,0.24635,0.510008,1.04261,-0.0810859,0.445265,-0.11959,0,-0.607293,0.24635,226,-62,226,-62,352,-63,234,62,-0.33109,-0.0348889,0,-1.5,3.94113e+12,0,0,0,-0.638441,0.253029,0,0,0,0,-0.164534,0.0312742,16500,-1.66519,0.330192,-0.609798,0.150864,14202,0,0,0,0,0,0
14248,-3.17918e-12,2.41687e-38,-1.55365e-06,-3.2605e-12,2.41663e-38,0,0,0,0,-3.66254,0.249107,0.514432,1.05234,-0.0836989,0.440387,-0.11828,0,-0.617673,0.249107,226,-62,226,-62,351,-63,234,62,-0.331417,-0.0348889,0,-1.5,3.94113e+12,0,0,0,-0.635014,0.253143,0,0,0,0,-0.160834,0.0319463,16500,-1.67953,0.334889,-0.601221,0.150226,14237,0,0,0,0,0,0
14264,-3.17918e-12,2.41687e-38,-1.55365e-06,-3.2605e-12,2.41663e-38,0,0,0,0,-3.66254,0.249107,0.514432,1.05935,-0.0855821,0.436875,-0.117337,0,-0.617673,0.249107,226,-62,226,-62,351,-63,234,62,-0.332228,-0.0348889,0,-1.5,3.94113e+12,0,0,0,-0.637621,0.253663,0,0,0,0,-0.164346,0.0328896,16500,-1.67953,0.334889,-0.601221,0.150226,14237,0,0,0,0,0,0
14288,-3.17918e-12,2.41687e-38,-1.55365e-06,-3.2605e-12,2.41663e-38,0,0,0,0,-3.63681,0.249558,0.499341,1.06975,-0.088377,0.431655,-0.115935,0,-0.582428,0.249558,224,-62,224,-62,352,-63,234,62,-0.33323,-0.0348889,0,-1.5,3.94113e+12,0,0,0,-0.639333,0.254273,0,0,0,0,-0.17163,0.0341544,16750,-1.69943,0.340248,-0.603285,0.150089,14274,0,0,0,0,0,0
14312,-3.17918e-12,2.41687e-38,-1.55365e-06,-3.2605e-12,2.41663e-38,0,0,0,0,-3.65496,0.24635,0.510008,1.08003,-0.0911384,0.426498,-0.11455,0,-0.607293,0.24635,226,-62,226,-62,352,-63,234,62,-0.330918,-0.0348889,0,-1.5,3.94113e+12,0,0,0,-0.63408,0.25304,0,0,0,0,-0.150544,0.030703,16500,-1.70834,0.342726,-0.577043,0.145253,14303,0,0,0,0,0,0
14331,-3.17918e-12,2.41687e-38,-1.55365e-06,-3.2605e-12,2.41663e-38,0,0,0,0,-3.65496,0.24635,0.510008,1.08809,-0.0933018,0.422461,-0.113466,0,-0.607293,0.24635,226,-62,226,-62,352,-63,234,62,-0.33185,-0.0348889,0,-1.5,3.94113e+12,0,0,0,-0.636989,0.253636,0,0,0,0,-0.154582,0.0317874,16500,-1.70834,0.342726,-0.577043,0.145253,14303,0,0,0,0,0,0
14355,-3.17918e-12,2.41687e-38,-1.55365e-06,-3.2605e-12,2.41663e-38,0,0,0,0,-3.61508,0.248442,0.479628,1.09856,-0.0961143,0.417201,-0.112053,0,-0.552653,0.248442,224,-62,224,-62,352,-63,234,65,-0.330071,-0.0348889,0,-1.5,3.94113e+12,0,0,0,-0.634236,0.252459,0,0,0,0,-0.144836,0.0298383,17152,-1.71875,0.345026,-0.562037,0.141891,14338,0,0,0,0,0,0
14380,-3.17918e-12,2.41687e-38,-1.55365e-06,-3.2605e-12,2.41663e-38,0,0,0,0,-3.65496,0.24635,0.510008,1.1085,-0.0987833,0.412217,-0.110714,0,-0.607293,0.24635,226,-62,226,-62,352,-63,234,62,-0.330318,-0.0348889,0,-1.5,3.94113e+12,0,0,0,-0.631882,0.252746,0,0,0,0,-0.136857,0.0297258,16500,-1.73324,0.349703,-0.549074,0.14044,14368,0,0,0,0,0,0
14398,-3.17918e-12,2.41687e-38,-1.55365e-06,-3.2605e-12,2.41663e-38,0,0,0,0,-3.65496,0.24635,0.510008,1.11628,-0.100874,0.408314,-0.109666,0,-0.607293,0.24635,226,-62,226,-62,352,-63,234,62,-0.331219,-0.0348889,0,-1.5,3.94113e+12,0,0,0,-0.634528,0.253323,0,0,0,0,-0.14076,0.0307739,16500,-1.73324,0.349703,-0.549074,0.14044,14368,0,0,0,0,0,0
14423,-3.17918e-12,2.41687e-38,-1.55365e-06,-3.2605e-12,2.41663e-38,0,0,0,0,-3.65496,0.24635,0.510008,1.126,-0.103485,0.403434,-0.108355,0,-0.607293,0.24635,226,-62,226,-62,352,-63,234,62,-0.330807,-0.0348889,0,-1.5,3.94113e+12,0,0,0,-0.632645,0.253244,0,0,0,0,-0.138897,0.0297264,16500,-1.74563,0.353415,-0.542331,0.138082,14406,0,0,0,0,0,0
14447,-3.17918e-12,2.41687e-38,-1.55365e-06,-3.2605e-12,2.41663e-38,0,0,0,0,-3.65496,0.24635,0.510008,1.13601,-0.106173,0.398415,-0.107007,0,-0.607293,0.24635,226,-62,226,-62,352,-63,234,62,-0.329885,-0.0348889,0,-1.5,3.94113e+12,0,0,0,-0.634197,0.252605,0,0,0,0,-0.137247,0.0288041,16500,-1.76271,0.356877,-0.535662,0.135811,14436,0,0,0,0,0,0
14471,-3.17918e-12,2.41687e-38,-1.55365e-06,-3.2605e-12,2.41663e-38,0,0,0,0,-3.64437,0.252313,0.503759,1.1455,-0.108722,0.393655,-0.105729,0,-0.592793,0.252313,224,-62,224,-62,351,-63,234,62,-0.329647,-0.0348889,0,-1.5,3.94113e+12,0,0,0,-0.625177,0.252484,0,0,0,0,-0.119766,0.0284324,16750,-1.76503,0.35973,-0.513422,0.134161,14463,0,0,0,0,0,0
14490,-3.17918e-12,2.41687e-38,-1.55365e-06,-3.2605e-12,2.41663e-38,0,0,0,0,-3.64437,0.252313,0.503759,1.15294,-0.110719,0.389929,-0.104728,0,-0.592793,0.252313,224,-62,224,-62,351,-63,234,62,-0.330509,-0.0348889,0,-1.5,3.94113e+12,0,0,0,-0.627497,0.253036,0,0,0,0,-0.123493,0.0294333,16750,-1.76503,0.35973,-0.513422,0.134161,14463,0,0,0,0,0,0
14512,-3.17918e-12,2.41687e-38,-1.55365e-06,-3.2605e-12,2.41663e-38,0,0,0,0,-3.65496,0.24635,0.510008,1.16146,-0.113007,0.385657,-0.103581,0,-0.607293,0.24635,226,-62,226,-62,352,-63,234,62,-0.329633,-0.0348889,0,-1.5,3.94113e+12,0,0,0,-0.622446,0.252685,0,0,0,0,-0.111627,0.0277693,16500,-1.77843,0.364247,-0.497284,0.13135,14504,0,0,0,0,0,0
14529,-3.17918e-12,2.41687e-38,-1.55365e-06,-3.2605e-12,2.41663e-38,0,0,0,0,-3.65496,0.24635,0.510008,1.1676,-0.114656,0.382581,-0.102755,0,-0.607293,0.24635,226,-62,226,-62,352,-63,234,62,-0.330341,-0.0348889,0,-1.5,3.94113e+12,0,0,0,-0.624262,0.253137,0,0,0,0,-0.114703,0.0285953,16500,-1.77843,0.364247,-0.497284,0.13135,14504,0,0,0,0,0,0
14553,-3.17918e-12,2.41687e-38,-1.55365e-06,-3.2605e-12,2.41663e-38,0,0,0,0,-3.65496,0.24635,0.510008,1.1767,-0.117102,0.378007,-0.101526,0,-0.607293,0.24635,226,-62,226,-62,352,-63,234,62,-0.330299,-0.0348889,0,-1.5,3.94113e+12,0,0,0,-0.622681,0.253158,0,0,0,0,-0.108494,0.0283986,16500,-1.78771,0.367142,-0.486501,0.129925,14536,0,0,0,0,0,0
14578,-3.17918e-12,2.41687e-38,-1.55365e-06,-3.2605e-12,2.41663e-38,0,0,0,0,-3.65496,0.24635,0.510008,1.18608,-0.11962,0.373303,-0.100263,0,-0.607293,0.24635,226,-62,226,-62,352,-63,234,62,-0.330185,-0.0348889,0,-1.5,3.94113e+12,0,0,0,-0.622407,0.253216,0,0,0,0,-0.109222,0.0278676,16500,-1.80173,0.371042,-0.482525,0.12813,14566,0,0,0,0,0,0
14596,-3.17918e-12,2.41687e-38,-1.55365e-06,-3.2605e-12,2.41663e-38,0,0,0,0,-3.65496,0.24635,0.510008,1.19276,-0.121414,0.369954,-0.0993632,0,-0.607293,0.24635,226,-62,226,-62,352,-63,234,62,-0.330975,-0.0348889,0,-1.5,3.94113e+12,0,0,0,-0.624411,0.253728,0,0,0,0,-0.112571,0.0287671,16500,-1.80173,0.371042,-0.482525,0.12813,14566,0,0,0,0,0,0
14621,-3.17918e-12,2.41687e-38,-1.55365e-06,-3.2605e-12,2.41663e-38,0,0,0,0,-3.65496,0.24635,0.510008,1.20193,-0.123877,0.365348,-0.0981261,0,-0.607293,0.24635,226,-62,226,-62,352,-63,234,62,-0.328809,-0.0348889,0,-1.5,3.94113e+12,0,0,0,-0.622215,0.252227,0,0,0,0,-0.104524,0.0265991,16500,-1.8124,0.372986,-0.469872,0.124725,14604,0,0,0,0,0,0
