timestamp,A_x,A_y,A_z,P,Q,R,Phi,Theta,Psi,poseX,poseY,poseZ,state_X,state_Y,state_Z,state_VzB,state_Bx,state_By,state_Bz,p1_x,p1_y,p2_x,p2_y,p3_x,p3_y,p4_x,p4_y,roll,pitch,yaw,alt,targetHeading,highLevelState,lowLevelState,gateNumber,filtered_x,filtered_y,x_OT,y_OT,vx_OT,vy_OT,filtered_vx,filtered_vygateArearansac_corr_x,ransac_corr_y,ransac_corr_vx,ransac_corr_vy,detectionTimeStamppTermX,dTermX,pTermY,dTermY
8257,0,0,0,0,0,0,0,0,0,0,0,0,0,0,0,0,0,0,0,0,0,0,0,0,0,0,0,0,-0,0,-1.5,nan,0,0,0,0,0,0,0,0,0,0,0,1.9603e-19,0,0,0,0,0,0,0,0,0
9235,-3.3422e-12,2.72794e-38,-1.59463e-06,-3.40794e-12,2.7277e-38,0,-1.13703e-13,0,0,0,0,0,0,0,0,0,0,0,0,0,0,0,0,0,0,0,0,0,-0,0,-1.5,nan,0,0,0,0,0,0,0,0,0,0,0,1.9603e-19,0,0,0,0,0,0,0,0,0
9272,-3.3422e-12,2.72794e-38,-1.59463e-06,-3.40794e-12,2.7277e-38,0,-1.13703e-13,0,0,0,0,0,0,0,0,0,0,0,0,0,0,0,0,0,0,0,0,0,-0,0,-1.5,nan,0,0,0,0,0,0,0,0,0,0,0,1.9603e-19,0,0,0,0,0,0,0,0,0
9500,-3.3422e-12,2.72794e-38,-1.59463e-06,-3.40794e-12,2.7277e-38,0,-1.13704e-13,0,0,0,0,0,0,0,0,0,0,0,0,0,0,0,0,0,0,0,0,0,-0,0,-1.5,nan,0,0,0,0,0,0,0,0,0,0,0,1.9603e-19,0,0,0,0,0,0,0,0,0
9564,-3.3422e-12,2.72794e-38,-1.59463e-06,-3.40794e-12,2.7277e-38,0,-1.13704e-13,0,0,0,0,0,0,0,0,0,0,0,0,0,0,0,0,0,0,0,0,0,-0,0,-1.5,nan,0,0,0,0,0,0,0,0,0,0,0,1.9603e-19,0,0,0,0,0,0,0,0,0
9724,-3.3422e-12,2.72794e-38,-1.59463e-06,-3.40794e-12,2.7277e-38,0,-1.13705e-13,0,0,-3.65797,0.160229,0.506415,0,0,0,0,0,-0.611424,0.160229,244,-68,244,-68,366,-60,238,55,0,-0,0,-1.5,nan,0,0,0,0,0,0,0,0,0,0,0,17152,0,0,0,0,9715,0,0,0,0
9772,-3.3422e-12,2.72794e-38,-1.59463e-06,-3.40794e-12,2.7277e-38,0,-1.13705e-13,0,0,-3.68448,0.164024,0.52618,0,0,0,0,0,-0.647744,0.164024,246,-68,246,-68,363,-62,238,55,0,-0,0,-1.5,nan,0,0,0,0,0,0,0,0,0,0,0,16750,0,0,0,0,9765,0,0,0,0
9960,-3.3422e-12,2.72794e-38,-1.59463e-06,-3.40794e-12,2.7277e-38,0,-1.13706e-13,0,0,-3.61646,0.259859,0.482097,0,0,0,0,0,-0.554549,0.259859,231,-71,231,-71,355,-58,226,59,-0.0337568,-0.0872664,0,-1.5,nan,0,0,0,-0.55304,0.262746,0,0,0,0,0.215516,0.412394,17286,-0.554549,0.259859,0.215516,0.412394,9955,0.27652,-0.0646502,-0.0131373,-0.0206195
10071,-3.3422e-12,2.72794e-38,-1.59463e-06,-3.40794e-12,2.7277e-38,0,-1.13706e-13,0,0,-3.6725,0.256022,0.478015,0,0,0,0,0,-0.631324,0.256022,233,-60,233,-60,357,-56,226,60,-0.0360455,-0.0872664,0,-1.5,nan,0,0,0,-0.529118,0.308521,0,0,0,0,0.215516,0.412394,16506,-0.55304,0.262746,0.215516,0.412394,10060,0.264559,-0.0646502,-0.0154261,-0.0206195
10088,-3.3422e-12,2.72794e-38,-1.59463e-06,-3.40794e-12,2.7277e-38,0,-1.13707e-13,0,0,-3.6725,0.256022,0.478015,0,0,0,0,0,-0.631324,0.256022,233,-60,233,-60,357,-56,226,60,-0.0363961,-0.0872664,0,-1.5,nan,0,0,0,-0.525454,0.315532,0,0,0,0,0.215516,0.412394,16506,-0.55304,0.262746,0.215516,0.412394,10060,0.262727,-0.0646591,-0.0157766,-0.0206195
10112,-3.3422e-12,2.72794e-38,-1.59463e-06,-3.40794e-12,2.7277e-38,0,-1.13708e-13,0,0,-3.67846,0.26769,0.498612,0,0,0,0,0,-0.639489,0.26769,233,-65,233,-65,352,-58,226,61,-0.034896,-0.0872664,0,-1.5,nan,0,0,0,-0.641737,0.313992,0,0,0,0,-0.0977663,0.383904,16254,-0.639489,0.305162,-0.0977663,0.383904,10100,0.320869,0.0293255,-0.0156996,-0.0191964
10236,-3.3422e-12,2.72794e-38,-1.59463e-06,-3.40794e-12,2.7277e-38,0,-1.13708e-13,0,0,-3.65167,0.263423,0.487795,0,0,0,0,0,-0.602785,0.263423,231,-65,231,-65,355,-58,226,60,-0.0165683,-0.0872664,0,-1.5,nan,0,0,0,-0.593825,0.263611,0,0,0,0,0.0245609,0.0677513,16512,-0.594046,0.263002,0.0245609,0.0677513,10229,0.296912,-0.00736713,-0.0131806,-0.00338778
10268,-3.3422e-12,2.72794e-38,-1.59463e-06,-3.40794e-12,2.7277e-38,0,-1.13714e-13,0,0,-3.63738,0.264169,0.485983,0,0,0,0,0,-0.583213,0.264169,230,-67,230,-67,355,-58,226,59,-0.0166768,-0.0872664,0,-1.5,nan,0,0,0,-0.592146,0.265779,0,0,0,0,0.0227398,0.0677513,16770,-0.592305,0.265305,0.0227398,0.0677513,10263,0.296073,-0.00682175,-0.013289,-0.00338778
10288,-3.3422e-12,2.72794e-38,-1.59463e-06,-3.40794e-12,2.7277e-38,0,-1.13709e-13,0,0,-3.63738,0.264169,0.485983,0,0,0,0,0,-0.583213,0.264169,230,-67,230,-67,355,-58,226,59,-0.0167445,-0.0872664,0,-1.5,nan,0,0,0,-0.591691,0.267134,0,0,0,0,0.0227398,0.0677513,16770,-0.592305,0.265305,0.0227398,0.0677513,10263,0.295846,-0.00682175,-0.0133567,-0.00338778
10309,-3.3422e-12,2.72794e-38,-1.59463e-06,-3.40794e-12,2.7277e-38,0,-1.1371e-13,0,0,-3.65785,0.263736,0.493714,0,0,0,0,0,-0.61125,0.263736,231,-65,231,-65,355,-58,226,59,-0.0165299,-0.0872664,0,-1.5,nan,0,0,0,-0.603416,0.266866,0,0,0,0,-0.00162041,0.0637377,16512,-0.603382,0.265527,-0.00162041,0.0637377,10297,0.301708,0.000482798,-0.0133433,-0.00318661
10424,-3.3422e-12,2.72794e-38,-1.59463e-06,-3.40794e-12,2.7277e-38,0,-1.1371e-13,0,0,-3.65938,0.259734,0.498906,0,0,0,0,0,-0.613351,0.259734,233,-65,233,-65,355,-60,226,59,-0.0171066,-0.0872664,0,-1.5,nan,0,0,0,-0.600652,0.275642,0,0,0,0,0.0103889,0.0664771,16512,-0.601847,0.267997,0.0103889,0.0664771,10412,0.300326,-0.00311136,-0.0137821,-0.00332445
10521,-3.3422e-12,2.72794e-38,-1.59463e-06,-3.40794e-12,2.7277e-38,0,-1.13711e-13,0,0,-3.62552,0.261422,0.472155,0,0,0,0,0,-0.566967,0.261422,231,-65,231,-65,355,-60,226,59,-0.0167446,-0.0872664,0,-1.5,nan,0,0,0,-0.603249,0.278387,0,0,0,0,-0.000851,0.0565085,16899,-0.603166,0.272905,-0.000851,0.0565085,10509,0.301624,0.00025928,-0.0139193,-0.00282526
10542,-3.3422e-12,2.72794e-38,-1.59463e-06,-3.40794e-12,2.7277e-38,0,-1.13712e-13,0,0,-3.63322,0.262565,0.479001,0,0,0,0,0,-0.577518,0.262565,231,-65,231,-65,355,-60,226,61,-0.0163011,-0.0872664,0,-1.5,nan,0,0,0,-0.578991,0.276362,0,0,0,0,0.0298303,0.049658,16512,-0.579617,0.275319,0.0298303,0.049658,10530,0.289495,-0.00894666,-0.0138181,-0.00248303
10654,-3.3422e-12,2.72794e-38,-1.59463e-06,-3.40794e-12,2.7277e-38,0,-1.13709e-13,0,0,-3.64218,0.2631,0.486411,0,0,0,0,0,-0.58979,0.2631,230,-65,230,-65,355,-60,227,60,-0.0151376,-0.0872664,0,-1.5,nan,0,0,0,-0.583773,0.270967,0,0,0,0,0.0270343,0.0317812,16384,-0.586801,0.267408,0.0270343,0.0317812,10642,0.291887,-0.00810921,-0.0135484,-0.00158921
10770,-3.3422e-12,2.72794e-38,-1.59463e-06,-3.40794e-12,2.7277e-38,0,-1.13718e-13,0,0,-3.65733,0.266073,0.491286,0,0,0,0,0,-0.610537,0.266073,230,-64,230,-64,355,-58,226,59,-0.014031,-0.0872664,0,-1.5,nan,0,0,0,-0.585216,0.266658,0,0,0,0,0.0180454,0.0139635,16383,-0.58536,0.266546,0.0180454,0.0139635,10764,0.292608,-0.00540912,-0.0133329,-0.000698119
10787,-3.3422e-12,2.72794e-38,-1.59463e-06,-3.40794e-12,2.7277e-38,0,-1.13713e-13,0,0,-3.65733,0.266073,0.491286,0,0,0,0,0,-0.610537,0.266073,230,-64,230,-64,355,-58,226,59,-0.0140429,-0.0872664,0,-1.5,nan,0,0,0,-0.584909,0.266896,0,0,0,0,0.0180454,0.0139635,16383,-0.58536,0.266546,0.0180454,0.0139635,10764,0.292455,-0.00541806,-0.0133448,-0.000698119
10809,-3.3422e-12,2.72794e-38,-1.59463e-06,-3.40794e-12,2.7277e-38,0,-1.13719e-13,0,0,-3.64535,0.2631,0.481801,0,0,0,0,0,-0.59413,0.2631,231,-65,231,-65,355,-58,226,61,-0.0138468,-0.0872664,0,-1.5,nan,0,0,0,-0.59399,0.265641,0,0,0,0,0.00875974,0.0112919,16512,-0.594174,0.265404,0.00875974,0.0112919,10796,0.296995,-0.00262856,-0.013282,-0.000564754
10825,-3.3422e-12,2.72794e-38,-1.59463e-06,-3.40794e-12,2.7277e-38,0,-1.13712e-13,0,0,-3.64535,0.2631,0.481801,0,0,0,0,0,-0.59413,0.2631,231,-65,231,-65,355,-58,226,61,-0.0138564,-0.0872664,0,-1.5,nan,0,0,0,-0.593841,0.265833,0,0,0,0,0.00875974,0.0112919,16512,-0.594174,0.265404,0.00875974,0.0112919,10796,0.296921,-0.00262856,-0.0132916,-0.000564754
10939,-3.3422e-12,2.72794e-38,-1.59463e-06,-3.40794e-12,2.7277e-38,0,-1.13721e-13,0,0,-3.63766,0.261956,0.474964,0,0,0,0,0,-0.583595,0.261956,231,-65,231,-65,355,-58,226,59,-0.0139324,-0.0872664,0,-1.5,nan,0,0,0,-0.585539,0.267099,0,0,0,0,0.0149914,0.0115519,16899,-0.585704,0.266972,0.0149914,0.0115519,10930,0.29277,-0.00449717,-0.0133549,-0.00057742
11072,-3.3422e-12,2.72794e-38,-1.59463e-06,-3.40794e-12,2.7277e-38,0,-1.13714e-13,0,0,-3.64575,0.263205,0.490934,0,0,0,0,0,-0.594683,0.263205,231,-65,231,-65,355,-60,226,59,-0.0137002,-0.0872664,0,-1.5,nan,0,0,0,-0.593603,0.265884,0,0,0,0,0.00788753,0.00810774,16512,-0.59369,0.265795,0.00788753,0.00810774,11063,0.296801,-0.00236928,-0.0132942,-0.000406057
11089,-3.3422e-12,2.72794e-38,-1.59463e-06,-3.40794e-12,2.7277e-38,0,-1.13718e-13,0,0,-3.64575,0.263205,0.490934,0,0,0,0,0,-0.594683,0.263205,231,-65,231,-65,355,-60,226,59,-0.0137069,-0.0872664,0,-1.5,nan,0,0,0,-0.593469,0.266022,0,0,0,0,0.00788753,0.00810774,16512,-0.59369,0.265795,0.00788753,0.00810774,11063,0.296734,-0.0023663,-0.0133011,-0.000405808
11113,-3.3422e-12,2.72794e-38,-1.59463e-06,-3.40794e-12,2.7277e-38,0,-1.13716e-13,0,0,-3.63253,0.261952,0.487418,0,0,0,0,0,-0.576571,0.261952,231,-67,231,-67,355,-60,226,59,-0.0135721,-0.0872664,0,-1.5,nan,0,0,0,-0.591002,0.265005,0,0,0,0,0.00876558,0.00644093,16770,-0.591212,0.26485,0.00876558,0.00644093,11100,0.295501,-0.00263751,-0.0132502,-0.000321865
11276,-3.3422e-12,2.72794e-38,-1.59463e-06,-3.40794e-12,2.7277e-38,0,-1.13717e-13,0,0,-3.65764,0.256724,0.486594,0,0,0,0,0,-0.61097,0.256724,234,-65,234,-65,355,-58,226,59,-0.0136956,-0.0872664,0,-1.5,nan,0,0,0,-0.594112,0.266596,0,0,0,0,0.00630578,0.00731834,16899,-0.59514,0.265403,0.00630578,0.00731834,11263,0.297056,-0.00188649,-0.0133298,-0.000365824
11293,-3.3422e-12,2.72794e-38,-1.59463e-06,-3.40794e-12,2.7277e-38,0,-1.13715e-13,0,0,-3.65764,0.256724,0.486594,0,0,0,0,0,-0.61097,0.256724,234,-65,234,-65,355,-58,226,59,-0.0137018,-0.0872664,0,-1.5,nan,0,0,0,-0.594005,0.26672,0,0,0,0,0.00630578,0.00731834,16899,-0.59514,0.265403,0.00630578,0.00731834,11263,0.297003,-0.00189543,-0.013336,-0.000365824
11319,-3.3422e-12,2.72794e-38,-1.59463e-06,-3.40794e-12,2.7277e-38,0,-1.13716e-13,0,0,-3.67163,0.260264,0.501766,0,0,0,0,0,-0.630139,0.260264,233,-65,233,-65,355,-58,226,59,-0.0134568,-0.0872664,0,-1.5,nan,0,0,0,-0.591999,0.264695,0,0,0,0,0.00725225,0.00443931,16512,-0.592188,0.264579,0.00725225,0.00443931,11306,0.296,-0.00218153,-0.0132347,-0.000222027
11341,-3.3422e-12,2.72794e-38,-1.59463e-06,-3.40794e-12,2.7277e-38,0,-1.13723e-13,0,0,-3.61646,0.259859,0.482097,0,0,0,0,0,-0.554549,0.259859,231,-71,231,-71,355,-58,226,59,-0.0133435,-0.0872664,0,-1.5,nan,0,0,0,-0.594049,0.263889,0,0,0,0,0.0047959,0.00298549,17286,-0.594111,0.26385,0.0047959,0.00298549,11329,0.297024,-0.00143945,-0.0131945,-0.000149012
11455,-3.3422e-12,2.72794e-38,-1.59463e-06,-3.40794e-12,2.7277e-38,0,-1.13723e-13,0,0,-3.67571,0.269543,0.504053,0,0,0,0,0,-0.635722,0.269543,231,-65,231,-65,353,-58,226,59,-0.0134421,-0.0872664,0,-1.5,nan,0,0,0,-0.592125,0.265117,0,0,0,0,0.00576367,0.00372486,16256,-0.592788,0.264689,0.00576367,0.00372486,11442,0.296062,-0.00172555,-0.0132558,-0.000186265
11504,-3.3422e-12,2.72794e-38,-1.59463e-06,-3.40794e-12,2.7277e-38,0,-1.13724e-13,0,0,-3.65785,0.263736,0.493714,0,0,0,0,0,-0.61125,0.263736,231,-65,231,-65,355,-58,226,59,-0.0133383,-0.0872664,0,-1.5,nan,0,0,0,-0.593081,0.263949,0,0,0,0,0.00503624,0.00281054,16512,-0.593127,0.263924,0.00503624,0.00281054,11497,0.296541,-0.00151098,-0.0131974,-0.000140816
11526,-3.3422e-12,2.72794e-38,-1.59463e-06,-3.40794e-12,2.7277e-38,0,-1.13717e-13,0,0,-3.65785,0.263736,0.493714,0,0,0,0,0,-0.61125,0.263736,231,-65,231,-65,355,-58,226,59,-0.0133405,-0.0872664,0,-1.5,nan,0,0,0,-0.592976,0.264008,0,0,0,0,0.00503624,0.00281054,16512,-0.593127,0.263924,0.00503624,0.00281054,11497,0.296488,-0.00151098,-0.0132004,-0.000140071
11547,-3.3422e-12,2.72794e-38,-1.59463e-06,-3.40794e-12,2.7277e-38,0,-1.1372e-13,0,0,-3.65075,0.265443,0.489573,0,0,0,0,0,-0.601533,0.265443,230,-65,230,-65,355,-58,226,59,-0.013371,-0.0872664,0,-1.5,nan,0,0,0,-0.598075,0.264351,0,0,0,0,0.001794,0.00307026,16512,-0.598115,0.264284,0.001794,0.00307026,11534,0.299038,-0.000536442,-0.0132176,-0.000153482
11569,-3.3422e-12,2.72794e-38,-1.59463e-06,-3.40794e-12,2.7277e-38,0,-1.1372e-13,0,0,-3.63074,0.263663,0.470935,0,0,0,0,0,-0.574108,0.263663,230,-65,230,-65,355,-58,226,59,-0.0133322,-0.0872664,0,-1.5,nan,0,0,0,-0.592592,0.264066,0,0,0,0,0.00578991,0.00258377,16899,-0.592644,0.264043,0.00578991,0.00258377,11562,0.296296,-0.0017345,-0.0132033,-0.000128895
11686,-3.3422e-12,2.72794e-38,-1.59463e-06,-3.40794e-12,2.7277e-38,0,-1.13724e-13,0,0,-3.65785,0.263736,0.493714,0,0,0,0,0,-0.61125,0.263736,231,-65,231,-65,355,-58,226,59,-0.0132981,-0.0872664,0,-1.5,nan,0,0,0,-0.603062,0.263965,0,0,0,0,-0.0105809,0.00199033,16512,-0.601824,0.263732,-0.0105809,0.00199033,11672,0.301531,0.00317395,-0.0131983,-9.98378e-05
11739,-3.3422e-12,2.72794e-38,-1.59463e-06,-3.40794e-12,2.7277e-38,0,-1.13725e-13,0,0,-3.63874,0.264913,0.486833,0,0,0,0,0,-0.585077,0.264913,230,-65,230,-65,355,-60,226,59,-0.0132416,-0.0872664,0,-1.5,nan,0,0,0,-0.594128,0.263834,0,0,0,0,0.000287031,0.000995318,16512,-0.594132,0.263822,0.000287031,0.000995318,11729,0.297064,-8.9407e-05,-0.0131917,-4.99189e-05
11753,-3.3422e-12,2.72794e-38,-1.59463e-06,-3.40794e-12,2.7277e-38,0,-1.13722e-13,0,0,-3.63874,0.264913,0.486833,0,0,0,0,0,-0.585077,0.264913,230,-65,230,-65,355,-60,226,59,-0.0132416,-0.0872664,0,-1.5,nan,0,0,0,-0.594124,0.263848,0,0,0,0,0.000287031,0.000995318,16512,-0.594132,0.263822,0.000287031,0.000995318,11729,0.297062,-8.04663e-05,-0.0131924,-4.91738e-05
11777,-3.3422e-12,2.72794e-38,-1.59463e-06,-3.40794e-12,2.7277e-38,0,-1.13726e-13,0,0,-3.61151,0.256281,0.471037,0,0,0,0,0,-0.547766,0.256281,230,-65,230,-65,358,-60,226,59,-0.0132265,-0.0872664,0,-1.5,nan,0,0,0,-0.587511,0.26377,0,0,0,0,0.0100067,0.00076516,16896,-0.587751,0.263752,0.0100067,0.00076516,11763,0.293756,-0.00300407,-0.0131885,-3.7998e-05
11886,-3.3422e-12,2.72794e-38,-1.59463e-06,-3.40794e-12,2.7277e-38,0,-1.13726e-13,0,0,-3.62552,0.261422,0.472155,0,0,0,0,0,-0.566967,0.261422,231,-65,231,-65,355,-60,226,59,-0.0131025,-0.0872664,0,-1.5,nan,0,0,0,-0.582605,0.262512,0,0,0,0,0.0118637,-0.000472551,16899,-0.583898,0.262564,0.0118637,-0.000472551,11872,0.291303,-0.0035584,-0.0131256,2.30968e-05
11936,-3.3422e-12,2.72794e-38,-1.59463e-06,-3.40794e-12,2.7277e-38,0,-1.13727e-13,0,0,-3.64766,0.267535,0.496141,0,0,0,0,0,-0.597301,0.267535,231,-67,231,-67,355,-60,226,59,-0.0156473,-0.0872664,0,-1.5,nan,0,0,0,-0.584108,0.262756,0,0,0,0,0.00941846,-0.000276186,16770,-0.584183,0.262758,0.00941846,-0.000276186,11930,0.292054,0.0455975,-0.0131378,-0.00250954
11958,-3.3422e-12,2.72794e-38,-1.59463e-06,-3.40794e-12,2.7277e-38,0,-1.13727e-13,0,0,-3.64766,0.267535,0.496141,0,0,0,0,0,-0.597301,0.267535,231,-67,231,-67,355,-60,226,59,-0.0131233,-0.0872664,0,-1.5,nan,0,0,0,-0.58391,0.26275,0,0,0,0,0.00941846,-0.000276186,16770,-0.584183,0.262758,0.00941846,-0.000276186,11930,0.291955,-0.00282526,-0.0131375,1.41561e-05
12011,-3.3422e-12,2.72794e-38,-1.59463e-06,-3.40794e-12,2.7277e-38,0,-1.13728e-13,0,0,-3.64575,0.263205,0.490934,0,0,0,0,0,-0.594683,0.263205,231,-65,231,-65,355,-60,226,59,-0.0131431,-0.0872664,0,-1.5,nan,0,0,0,-0.593887,0.262936,0,0,0,0,-0.000308156,-7.51291e-05,16512,-0.59387,0.26294,-0.000308156,-7.51291e-05,11997,0.296944,8.9407e-05,-0.0131468,3.72529e-06
12034,-3.3422e-12,2.72794e-38,-1.59463e-06,-3.40794e-12,2.7277e-38,0,-1.13728e-13,0,0,-3.62484,0.255173,0.476727,0,0,0,0,0,-0.566031,0.255173,231,-64,231,-64,358,-60,226,59,-0.0139204,-0.0872664,0,-1.5,nan,0,0,0,-0.581179,0.263042,0,0,0,0,0.012935,0.000259967,16764,-0.58127,0.26304,0.012935,0.000259967,12029,0.29059,0,-0.0131521,-0.000768261
12146,-3.3422e-12,2.72794e-38,-1.59463e-06,-3.40794e-12,2.7277e-38,0,-1.13729e-13,0,0,-3.64434,0.262462,0.490051,0,0,0,0,0,-0.59274,0.262462,231,-67,231,-67,355,-58,226,59,-0.013131,-0.0872664,0,-1.5,nan,0,0,0,-0.593147,0.262621,0,0,0,0,0.000665282,5.61069e-06,16770,-0.593222,0.26262,0.000665282,5.61069e-06,12132,0.296574,-0.000196695,-0.013131,0
12246,-3.3422e-12,2.72794e-38,-1.59463e-06,-3.40794e-12,2.7277e-38,0,-1.13729e-13,0,0,-3.63066,0.261345,0.468571,0,0,0,0,0,-0.574,0.261345,231,-65,231,-65,355,-58,226,59,-0.0131122,-0.0872664,0,-1.5,nan,0,0,0,-0.593283,0.262407,0,0,0,0,-0.00188769,-0.000159351,17028,-0.593094,0.262423,-0.00188769,-0.000159351,12232,0.296641,0.000563264,-0.0131204,8.19564e-06
12268,-3.34222e-12,2.72347e-38,2.72806e-38,-3.40794e-12,2.7277e-38,0,-1.1373e-13,0,0,-3.65112,0.258486,0.482796,0,0,0,0,0,-0.60203,0.258486,233,-65,233,-65,355,-58,226,59,-0.00935752,-0.0872664,0,-1.5,nan,0,0,0,-0.592484,0.261882,0,0,0,0,0.00140812,-0.000805856,16899,-0.592494,0.261888,0.00140812,-0.000805856,12263,0.296242,-0.0354588,-0.0130941,0.00373657
12285,-3.3422e-12,2.72794e-38,-1.59463e-06,-3.40794e-12,2.7277e-38,0,-1.1373e-13,0,0,-3.65112,0.258486,0.482796,0,0,0,0,0,-0.60203,0.258486,233,-65,233,-65,355,-58,226,59,-0.0130532,-0.0872664,0,-1.5,nan,0,0,0,-0.59246,0.261868,0,0,0,0,0.00140812,-0.000805856,16899,-0.592494,0.261888,0.00140812,-0.000805856,12263,0.29623,-0.000420213,-0.0130934,4.02331e-05
12402,-3.3422e-12,2.72794e-38,-1.59463e-06,-3.40794e-12,2.7277e-38,0,-1.13731e-13,0,0,-3.64434,0.262462,0.490051,0,0,0,0,0,-0.59274,0.262462,231,-67,231,-67,355,-58,226,59,-0.0184752,-0.0872664,0,-1.5,nan,0,0,0,-0.589073,0.262126,0,0,0,0,0.0045761,-0.000611152,16770,-0.58911,0.262131,0.0045761,-0.000611152,12396,0.294537,0.428675,-0.0131063,-0.00536889
12470,-3.3422e-12,2.72794e-38,-1.59463e-06,-3.40794e-12,2.7277e-38,0,-1.13732e-13,0,0,-3.63766,0.261956,0.474964,0,0,0,0,0,-0.583595,0.261956,231,-65,231,-65,355,-58,226,59,-0.0130527,-0.0872664,0,-1.5,nan,0,0,0,-0.582819,0.261919,0,0,0,0,0.0115847,-0.000863354,16899,-0.583607,0.261977,0.0115847,-0.000863354,12456,0.29141,-0.00346899,-0.0130959,4.32134e-05
12487,-3.3422e-12,2.72794e-38,-1.59463e-06,-3.40794e-12,2.7277e-38,0,-1.13732e-13,0,0,-3.63766,0.261956,0.474964,0,0,0,0,0,-0.583595,0.261956,231,-65,231,-65,355,-58,226,59,-0.013052,-0.0872664,0,-1.5,nan,0,0,0,-0.582622,0.261904,0,0,0,0,0.0115847,-0.000863354,16899,-0.583607,0.261977,0.0115847,-0.000863354,12456,0.291311,-0.00346899,-0.0130952,4.32134e-05
12514,-3.3422e-12,2.72794e-38,-1.59463e-06,-3.40794e-12,2.7277e-38,0,-1.13733e-13,0,0,-3.65075,0.265443,0.489573,0,0,0,0,0,-0.601533,0.265443,230,-65,230,-65,355,-58,226,59,-0.0130475,-0.0872664,0,-1.5,nan,0,0,0,-0.590213,0.26183,0,0,0,0,0.00276992,-0.000880038,16512,-0.590288,0.261854,0.00276992,-0.000880038,12500,0.295107,-0.000831485,-0.0130915,4.39584e-05
12626,-3.3422e-12,2.72794e-38,-1.59463e-06,-3.40794e-12,2.7277e-38,0,-1.13733e-13,0,0,-3.63766,0.261956,0.474964,0,0,0,0,0,-0.583595,0.261956,231,-65,231,-65,355,-58,226,59,-0.0130538,-0.0872664,0,-1.5,nan,0,0,0,-0.582202,0.261866,0,0,0,0,0.0111993,-0.000790724,16899,-0.583456,0.261955,0.0111993,-0.000790724,12612,0.291101,-0.0033617,-0.0130933,3.94881e-05
12703,-3.3422e-12,2.72794e-38,-1.59463e-06,-3.40794e-12,2.7277e-38,0,-1.13734e-13,0,0,-3.67832,0.2585,0.505672,0,0,0,0,0,-0.639304,0.2585,234,-65,234,-65,355,-58,226,59,-0.00992025,-0.0872664,0,-1.5,nan,0,0,0,-0.59133,0.261884,0,0,0,0,0.0022909,-0.000694421,16512,-0.591349,0.261889,0.0022909,-0.000694421,12697,0.295665,0.087145,-0.0130942,0.00317395
12720,-3.3422e-12,2.72794e-38,-1.59463e-06,-3.40794e-12,2.7277e-38,0,-1.13734e-13,0,0,-3.67832,0.2585,0.505672,0,0,0,0,0,-0.639304,0.2585,234,-65,234,-65,355,-58,226,59,-0.0130586,-0.0872664,0,-1.5,nan,0,0,0,-0.591291,0.261872,0,0,0,0,0.0022909,-0.000694421,16512,-0.591349,0.261889,0.0022909,-0.000694421,12697,0.295646,-0.000688434,-0.0130936,3.50177e-05
12747,-3.3422e-12,2.72794e-38,-1.59463e-06,-3.40794e-12,2.7277e-38,0,-1.13735e-13,0,0,-3.63766,0.261956,0.474964,0,0,0,0,0,-0.583595,0.261956,231,-65,231,-65,355,-58,226,59,-0.0130867,-0.0872664,0,-1.5,nan,0,0,0,-0.588631,0.261913,0,0,0,0,0.00395971,-0.000174248,16899,-0.588738,0.261918,0.00395971,-0.000174248,12733,0.294315,-0.00118911,-0.0130957,8.9407e-06
12770,-3.3422e-12,2.72794e-38,-1.59463e-06,-3.40794e-12,2.7277e-38,0,-1.13735e-13,0,0,-3.67163,0.260264,0.501766,0,0,0,0,0,-0.630139,0.260264,233,-65,233,-65,355,-58,226,59,-0.0130883,-0.0872664,0,-1.5,nan,0,0,0,-0.593667,0.261914,0,0,0,0,-0.00258431,-0.000149741,16512,-0.593641,0.261916,-0.00258431,-0.000149741,12762,0.296834,0.000777841,-0.0130957,7.45058e-06
13032,-3.3422e-12,2.72794e-38,-1.59463e-06,-3.40794e-12,2.7277e-38,0,-1.13736e-13,0,0,-3.63738,0.264169,0.485983,0,0,0,0,0,-0.583213,0.264169,230,-67,230,-67,355,-58,226,59,-0.0130697,-0.0872664,0,-1.5,nan,0,0,0,-0.580873,0.261771,0,0,0,0,0.0128003,-0.000377512,16770,-0.584226,0.26187,0.0128003,-0.000377512,12872,0.290436,-0.00383854,-0.0130886,1.88748e-05
13054,-3.3422e-12,2.72794e-38,-1.59463e-06,-3.40794e-12,2.7277e-38,0,-1.13736e-13,0,0,-3.67163,0.260264,0.501766,0,0,0,0,0,-0.630139,0.260264,233,-65,233,-65,355,-58,226,59,-0.0130079,-0.0872664,0,-1.5,nan,0,0,0,-0.596188,0.26129,0,0,0,0,-0.00432459,-0.00112963,16512,-0.596127,0.261306,-0.00432459,-0.00112963,13042,0.298094,0.0012964,-0.0130645,5.66244e-05
13172,-3.3422e-12,2.72794e-38,-1.59463e-06,-3.40794e-12,2.7277e-38,0,-1.13737e-13,0,0,-3.65075,0.265443,0.489573,0,0,0,0,0,-0.601533,0.265443,230,-65,230,-65,355,-58,226,59,-0.0129702,-0.0872664,0,-1.5,nan,0,0,0,-0.602715,0.260938,0,0,0,0,-0.00921239,-0.00153988,16512,-0.602632,0.260952,-0.00921239,-0.00153988,13164,0.301357,0.00276268,-0.0130469,7.6741e-05
13216,-3.3422e-12,2.72794e-38,-1.59463e-06,-3.40794e-12,2.7277e-38,0,-1.13737e-13,0,0,-3.65075,0.265443,0.489573,0,0,0,0,0,-0.601533,0.265443,230,-65,230,-65,355,-58,226,59,-0.013062,-0.0872664,0,-1.5,nan,0,0,0,-0.602979,0.261777,0,0,0,0,-0.0113788,-0.000543789,16512,-0.602467,0.261801,-0.0113788,-0.000543789,13202,0.30149,0.00341535,-0.0130888,2.68221e-05
13260,-3.3422e-12,2.72794e-38,-1.59463e-06,-3.40794e-12,2.7277e-38,0,-1.13738e-13,0,0,-3.67163,0.260264,0.501766,0,0,0,0,0,-0.630139,0.260264,233,-65,233,-65,355,-58,226,59,-0.0129777,-0.0872664,0,-1.5,nan,0,0,0,-0.612842,0.261043,0,0,0,0,-0.0180946,-0.00148123,16512,-0.612046,0.261108,-0.0180946,-0.00148123,13245,0.306421,0.005427,-0.0130522,7.45058e-05
13414,-3.3422e-12,2.72794e-38,-1.59463e-06,-3.40794e-12,2.7277e-38,0,-1.13739e-13,0,0,-3.65075,0.265443,0.489573,0,0,0,0,0,-0.601533,0.265443,230,-65,230,-65,355,-58,226,59,-0.0130745,-0.0872664,0,-1.5,nan,0,0,0,-0.606331,0.261893,0,0,0,0,-0.012754,-0.000408769,16512,-0.604366,0.261956,-0.012754,-0.000408769,13400,0.303165,0.00382662,-0.0130946,2.01166e-05
13437,-3.3422e-12,2.72794e-38,-1.59463e-06,-3.40794e-12,2.7277e-38,0,-1.13739e-13,0,0,-3.61734,0.262391,0.467332,0,0,0,0,0,-0.555758,0.262391,230,-67,230,-67,355,-58,226,59,-0.013121,-0.0872664,0,-1.5,nan,0,0,0,-0.604054,0.262434,0,0,0,0,-0.0117107,-1.61858e-05,17157,-0.603937,0.262435,-0.0117107,-1.61858e-05,13430,0.302027,0.00351369,-0.0131217,7.45058e-07
13454,-3.3422e-12,2.72794e-38,-1.59463e-06,-3.40794e-12,2.7277e-38,0,-1.1374e-13,0,0,-3.61734,0.262391,0.467332,0,0,0,0,0,-0.555758,0.262391,230,-67,230,-67,355,-58,226,59,-0.013121,-0.0872664,0,-1.5,nan,0,0,0,-0.604253,0.262434,0,0,0,0,-0.0117107,-1.61858e-05,17157,-0.603937,0.262435,-0.0117107,-1.61858e-05,13430,0.302126,0.00351369,-0.0131217,7.45058e-07
13481,-3.3422e-12,2.72794e-38,-1.59463e-06,-3.40794e-12,2.7277e-38,0,-1.1374e-13,0,0,-3.61066,0.253356,0.459388,0,0,0,0,0,-0.546605,0.253356,231,-65,231,-65,358,-58,226,59,-0.0131328,-0.0872664,0,-1.5,nan,0,0,0,-0.605274,0.262359,0,0,0,0,-0.0114113,0.00030737,17292,-0.604966,0.262351,-0.0114113,0.00030737,13467,0.302637,0.00342429,-0.0131179,-1.49012e-05
13527,-3.3422e-12,2.72794e-38,-1.59463e-06,-3.40794e-12,2.7277e-38,0,-1.13741e-13,0,0,-3.65075,0.265443,0.489573,0,0,0,0,0,-0.601533,0.265443,230,-65,230,-65,355,-58,226,59,-0.0131538,-0.0872664,0,-1.5,nan,0,0,0,-0.60466,0.262525,0,0,0,0,-0.0106952,0.000557837,16512,-0.604168,0.2625,-0.0106952,0.000557837,13512,0.30233,0.00320971,-0.0131263,-2.75671e-05
13550,-3.3422e-12,2.72794e-38,-1.59463e-06,-3.40794e-12,2.7277e-38,0,-1.13741e-13,0,0,-3.62943,0.261485,0.468147,0,0,0,0,0,-0.572325,0.261485,230,-64,230,-64,355,-58,226,59,-0.0131738,-0.0872664,0,-1.5,nan,0,0,0,-0.606186,0.262791,0,0,0,0,-0.0117061,0.000685031,16770,-0.605917,0.262776,-0.0117061,0.000685031,13536,0.303093,0.00351369,-0.0131396,-3.42727e-05
13606,-3.3422e-12,2.72794e-38,-1.59463e-06,-3.40794e-12,2.7277e-38,0,-1.13742e-13,0,0,-3.61646,0.259859,0.482097,0,0,0,0,0,-0.554549,0.259859,231,-71,231,-71,355,-58,226,59,-0.0131289,-0.0872664,0,-1.5,nan,0,0,0,-0.601292,0.262235,0,0,0,0,-0.00660093,0.000334496,17286,-0.601213,0.262231,-0.00660093,0.000334496,13596,0.300646,0.00198483,-0.0131117,-1.71363e-05
13623,-3.3422e-12,2.72794e-38,-1.59463e-06,-3.40794e-12,2.7277e-38,0,-1.13742e-13,0,0,-3.61646,0.259859,0.482097,0,0,0,0,0,-0.554549,0.259859,231,-71,231,-71,355,-58,226,59,-0.0131284,-0.0872664,0,-1.5,nan,0,0,0,-0.601404,0.26224,0,0,0,0,-0.00660093,0.000334496,17286,-0.601213,0.262231,-0.00660093,0.000334496,13596,0.300702,0.00197887,-0.013112,-1.63913e-05
13676,-3.3422e-12,2.72794e-38,-1.59463e-06,-3.40794e-12,2.7277e-38,0,-1.13743e-13,0,0,-3.63766,0.261956,0.474964,0,0,0,0,0,-0.583595,0.261956,231,-65,231,-65,355,-58,226,59,-0.01313,-0.0872664,0,-1.5,nan,0,0,0,-0.5834,0.262332,0,0,0,0,0.0067943,0.000277355,16899,-0.58376,0.262318,0.0067943,0.000277355,13662,0.2917,-0.00203848,-0.0131166,-1.3411e-05
13740,-3.3422e-12,2.72794e-38,-1.59463e-06,-3.40794e-12,2.7277e-38,0,-1.13743e-13,0,0,-3.65785,0.263736,0.493714,0,0,0,0,0,-0.61125,0.263736,231,-65,231,-65,355,-58,226,59,-0.0131498,-0.0872664,0,-1.5,nan,0,0,0,-0.583031,0.262549,0,0,0,0,0.00630462,0.000437777,16512,-0.58312,0.262543,0.00630462,0.000437777,13728,0.291516,-0.00189543,-0.0131275,-2.23517e-05
13754,-3.3422e-12,2.72794e-38,-1.59463e-06,-3.40794e-12,2.7277e-38,0,-1.13744e-13,0,0,-3.65785,0.263736,0.493714,0,0,0,0,0,-0.61125,0.263736,231,-65,231,-65,355,-58,226,59,-0.0131494,-0.0872664,0,-1.5,nan,0,0,0,-0.582943,0.262555,0,0,0,0,0.00630462,0.000437777,16512,-0.58312,0.262543,0.00630462,0.000437777,13728,0.291472,-0.00189543,-0.0131278,-2.16067e-05
13777,-3.3422e-12,2.72794e-38,-1.59463e-06,-3.40794e-12,2.7277e-38,0,-1.13745e-13,0,0,-3.62413,0.260684,0.47129,0,0,0,0,0,-0.565059,0.260684,231,-67,231,-67,355,-58,226,59,-0.0131114,-0.0872664,0,-1.5,nan,0,0,0,-0.583743,0.262124,0,0,0,0,0.00521672,9.78395e-05,17157,-0.583863,0.262122,0.00521672,9.78395e-05,13763,0.291871,-0.00156462,-0.0131062,-5.21541e-06
13794,-3.3422e-12,2.72794e-38,-1.59463e-06,-3.40794e-12,2.7277e-38,0,-1.13745e-13,0,0,-3.62413,0.260684,0.47129,0,0,0,0,0,-0.565059,0.260684,231,-67,231,-67,355,-58,226,59,-0.0131108,-0.0872664,0,-1.5,nan,0,0,0,-0.583654,0.262126,0,0,0,0,0.00521672,9.78395e-05,17157,-0.583863,0.262122,0.00521672,9.78395e-05,13763,0.291827,-0.00156462,-0.0131063,-4.47035e-06
13821,-3.3422e-12,2.72794e-38,-1.59463e-06,-3.40794e-12,2.7277e-38,0,-1.13746e-13,0,0,-3.67163,0.260264,0.501766,0,0,0,0,0,-0.630139,0.260264,233,-65,233,-65,355,-58,226,59,-0.0130944,-0.0872664,0,-1.5,nan,0,0,0,-0.583504,0.261932,0,0,0,0,0.00643419,-3.40058e-05,16512,-0.583672,0.261933,0.00643419,-3.40058e-05,13806,0.291752,-0.00193119,-0.0130966,2.23517e-06
13844,-3.3422e-12,2.72794e-38,-1.59463e-06,-3.40794e-12,2.7277e-38,0,-1.13746e-13,0,0,-3.65785,0.263736,0.493714,0,0,0,0,0,-0.61125,0.263736,231,-65,231,-65,355,-58,226,59,-0.0131138,-0.0872664,0,-1.5,nan,0,0,0,-0.604999,0.262141,0,0,0,0,-0.00812571,0.000141725,16512,-0.604812,0.262138,-0.00812571,0.000141725,13829,0.3025,0.00243187,-0.0131071,-6.70552e-06
13860,-3.3422e-12,2.72794e-38,-1.59463e-06,-3.40794e-12,2.7277e-38,0,-1.13747e-13,0,0,-3.65785,0.263736,0.493714,0,0,0,0,0,-0.61125,0.263736,231,-65,231,-65,355,-58,226,59,-0.0131139,-0.0872664,0,-1.5,nan,0,0,0,-0.605137,0.262144,0,0,0,0,-0.00812571,0.000141725,16512,-0.604812,0.262138,-0.00812571,0.000141725,13829,0.302569,0.00244081,-0.0131072,-6.70552e-06
13887,-3.3422e-12,2.72794e-38,-1.59463e-06,-3.40794e-12,2.7277e-38,0,-1.13747e-13,0,0,-3.65075,0.265443,0.489573,0,0,0,0,0,-0.601533,0.265443,230,-65,230,-65,355,-58,226,59,-0.013132,-0.0872664,0,-1.5,nan,0,0,0,-0.602753,0.262357,0,0,0,0,-0.00315129,0.000274335,16512,-0.602668,0.262349,-0.00315129,0.000274335,13873,0.301376,0.000938773,-0.0131178,-1.41561e-05
13910,-3.3422e-12,2.72794e-38,-1.59463e-06,-3.40794e-12,2.7277e-38,0,-1.13748e-13,0,0,-3.65075,0.265443,0.489573,0,0,0,0,0,-0.601533,0.265443,230,-65,230,-65,355,-58,226,59,-0.0131528,-0.0872664,0,-1.5,nan,0,0,0,-0.602892,0.262593,0,0,0,0,-0.00504953,0.000458794,16512,-0.602776,0.262583,-0.00504953,0.000458794,13896,0.301446,0.00151098,-0.0131297,-2.30968e-05
13927,-3.3422e-12,2.72794e-38,-1.59463e-06,-3.40794e-12,2.7277e-38,0,-1.13748e-13,0,0,-3.65075,0.265443,0.489573,0,0,0,0,0,-0.601533,0.265443,230,-65,230,-65,355,-58,226,59,-0.0131531,-0.0872664,0,-1.5,nan,0,0,0,-0.602978,0.262601,0,0,0,0,-0.00504953,0.000458794,16512,-0.602776,0.262583,-0.00504953,0.000458794,13896,0.301489,0.00151992,-0.01313,-2.30968e-05
13949,-3.3422e-12,2.72794e-38,-1.59463e-06,-3.40794e-12,2.7277e-38,0,-1.13749e-13,0,0,-3.67163,0.260264,0.501766,0,0,0,0,0,-0.630139,0.260264,233,-65,233,-65,355,-58,226,59,-0.0131098,-0.0872664,0,-1.5,nan,0,0,0,-0.601291,0.262271,0,0,0,0,-6.77369e-05,-8.30054e-05,16512,-0.601289,0.262273,-6.77369e-05,-8.30054e-05,13935,0.300645,1.78814e-05,-0.0131136,3.72529e-06
14072,-3.3422e-12,2.72794e-38,-1.59463e-06,-3.40794e-12,2.7277e-38,0,-1.13749e-13,0,0,-3.65075,0.265443,0.489573,0,0,0,0,0,-0.601533,0.265443,230,-65,230,-65,355,-58,226,59,-0.0131606,-0.0872664,0,-1.5,nan,0,0,0,-0.602608,0.262749,0,0,0,0,-0.00179717,0.000466476,16512,-0.602591,0.262745,-0.00179717,0.000466476,14064,0.301304,0.000536442,-0.0131375,-2.30968e-05
14524,-3.3422e-12,2.72794e-38,-1.59463e-06,-3.40794e-12,2.7277e-38,0,-1.1375e-13,0,0,-3.67163,0.260264,0.501766,0,0,0,0,0,-0.630139,0.260264,233,-65,233,-65,355,-58,226,59,-0.0131599,-0.0872664,0,-1.5,nan,0,0,0,-0.601475,0.262796,0,0,0,0,-7.4931e-05,0.00040468,16512,-0.601441,0.262613,-7.4931e-05,0.00040468,14510,0.300737,1.78814e-05,-0.0131398,-2.01166e-05
14839,-3.3422e-12,2.72794e-38,-1.59463e-06,-3.40794e-12,2.7277e-38,0,-1.1375e-13,0,0,-3.64434,0.262462,0.490051,0,0,0,0,0,-0.59274,0.262462,231,-67,231,-67,355,-58,226,59,-0.0131427,-0.0872664,0,-1.5,nan,0,0,0,-0.599416,0.262556,0,0,0,0,0.00176376,0.000299339,16770,-0.599972,0.262462,0.00176376,0.000299339,14826,0.299708,-0.000527501,-0.0131278,-1.49012e-05
14857,-3.3422e-12,2.72794e-38,-1.59463e-06,-3.40794e-12,2.7277e-38,0,-1.13751e-13,0,0,-3.64434,0.262462,0.490051,0,0,0,0,0,-0.59274,0.262462,231,-67,231,-67,355,-58,226,59,-0.013143,-0.0872664,0,-1.5,nan,0,0,0,-0.599384,0.262562,0,0,0,0,0.00176376,0.000299339,16770,-0.599972,0.262462,0.00176376,0.000299339,14826,0.299692,-0.000527501,-0.0131281,-1.49012e-05
14970,-3.3422e-12,2.72794e-38,-1.59463e-06,-3.40794e-12,2.7277e-38,0,-1.13752e-13,0,0,-3.61646,0.259859,0.482097,0,0,0,0,0,-0.554549,0.259859,231,-71,231,-71,355,-58,226,59,-0.0128952,-0.0872664,0,-1.5,nan,0,0,0,-0.588673,0.259857,0,0,0,0,0.00717902,-0.00195175,17286,-0.58873,0.259872,0.00717902,-0.00195175,14963,0.294336,-0.00215471,-0.0129928,9.76026e-05
15735,-3.3422e-12,2.72794e-38,-1.59463e-06,-3.40794e-12,2.7277e-38,0,-1.13752e-13,0,0,-3.64434,0.262462,0.490051,-0.551221,0.258442,0.0202714,-0.00189838,0,-0.59274,0.262462,231,-67,231,-67,355,-58,226,59,-0.0128275,-0.0872664,0,-1.5,nan,0,0,0,-0.551221,0.258442,0,0,0,0,0.0202714,-0.00189838,16770,0,0,0,0,15729,0.27561,-0.00607967,-0.0129221,9.46224e-05
15759,-3.3422e-12,2.72794e-38,-1.59463e-06,-3.40794e-12,2.7277e-38,0,-1.13753e-13,0,0,-3.64434,0.262462,0.490051,-0.550738,0.258397,0.020029,-0.00187568,0,-0.59274,0.262462,231,-67,231,-67,355,-58,226,59,-0.0128259,-0.0872664,0,-1.5,nan,0,0,0,-0.550738,0.258397,0,0,0,0,0.020029,-0.00187568,16770,0,0,0,0,15729,0.275369,-0.00600815,-0.0129198,9.38773e-05
15780,-3.3422e-12,2.72794e-38,-1.59463e-06,-3.40794e-12,2.7277e-38,0,-1.13753e-13,0,0,-3.65075,0.265443,0.489573,-0.550321,0.258357,0.0198193,-0.00185604,0,-0.601533,0.265443,230,-65,230,-65,355,-58,226,59,-0.0128247,-0.0872664,0,-1.5,nan,0,0,0,-0.550321,0.258357,0,0,0,0,0.0198193,-0.00185604,16512,0,0,0,0,15772,0.27516,-0.00594556,-0.0129179,9.31323e-05
15793,-3.3422e-12,2.72794e-38,-1.59463e-06,-3.40794e-12,2.7277e-38,0,-1.13754e-13,0,0,-3.65075,0.265443,0.489573,-0.550064,0.258333,0.0196908,-0.00184401,0,-0.601533,0.265443,230,-65,230,-65,355,-58,226,59,-0.0128243,-0.0872664,0,-1.5,nan,0,0,0,-0.550064,0.258333,0,0,0,0,0.0196908,-0.00184401,16512,0,0,0,0,15772,0.275032,-0.0059098,-0.0129167,9.23872e-05
15806,-3.3422e-12,2.72794e-38,-1.59463e-06,-3.40794e-12,2.7277e-38,0,-1.13754e-13,0,0,-3.66631,0.271084,0.498507,-0.549809,0.258309,0.0195632,-0.00183205,0,-0.622843,0.271084,230,-65,230,-65,355,-58,226,59,-0.0128238,-0.0872664,0,-1.5,nan,0,0,0,-0.549809,0.258309,0,0,0,0,0.0195632,-0.00183205,16512,0,0,0,0,15797,0.274905,-0.0058651,-0.0129155,9.16421e-05
15834,-3.3422e-12,2.72794e-38,-1.59463e-06,-3.40794e-12,2.7277e-38,0,-1.13755e-13,0,0,-3.61646,0.259859,0.482097,-0.549267,0.258259,0.0192904,-0.00180651,0,-0.554549,0.259859,231,-71,231,-71,355,-58,226,59,-0.00886043,-0.0677013,0,-1.5,nan,0,0,0,-0.549715,0.259284,0,0,0,0,0.690599,-0.0820906,17286,-0.00514663,0.00158757,0.671309,-0.0802841,15830,0.274857,-0.207156,-0.0129642,0.00410378
15854,-3.3422e-12,2.72794e-38,-1.59463e-06,-3.40794e-12,2.7277e-38,0,-1.13755e-13,0,0,-3.61646,0.259859,0.482097,-0.548884,0.258223,0.0190981,-0.0017885,0,-0.554549,0.259859,231,-71,231,-71,355,-58,226,59,-0.00877836,-0.0608415,0,-1.5,nan,0,0,0,-0.535906,0.257643,0,0,0,0,0.690407,-0.0820726,17286,-0.00514663,0.00158757,0.671309,-0.0802841,15830,0.267953,-0.207111,-0.0128821,0.00410378
15878,-3.3422e-12,2.72794e-38,-1.59463e-06,-3.40794e-12,2.7277e-38,0,-1.13756e-13,0,0,-3.63766,0.261956,0.474964,-0.548429,0.25818,0.0188697,-0.00176711,0,-0.583595,0.261956,231,-65,231,-65,355,-58,226,59,-0.011221,-0.0872664,0,-1.5,nan,0,0,0,-0.579078,0.261076,0,0,0,0,0.18817,-0.0366476,16899,-0.0347114,0.00373319,0.1693,-0.0348805,15867,0.289539,-0.0564426,-0.0130538,0.00183284
15937,-3.3422e-12,2.72794e-38,-1.59463e-06,-3.40794e-12,2.7277e-38,0,-1.13756e-13,0,0,-3.63874,0.264913,0.486833,-0.547344,0.258079,0.0183153,-0.00171519,0,-0.585077,0.264913,230,-65,230,-65,355,-60,226,59,-0.011116,-0.0872664,0,-1.5,nan,0,0,0,-0.568004,0.258917,0,0,0,0,0.187616,-0.0365957,16512,-0.0306483,0.00289608,0.1693,-0.0348805,15925,0.284002,-0.0562906,-0.0129458,0.00182986
15954,-3.3422e-12,2.72794e-38,-1.59463e-06,-3.40794e-12,2.7277e-38,0,-1.13757e-13,0,0,-3.63874,0.264913,0.486833,-0.547053,0.258051,0.0181692,-0.00170151,0,-0.585077,0.264913,230,-65,230,-65,355,-60,226,59,-0.0110882,-0.0872664,0,-1.5,nan,0,0,0,-0.565004,0.258331,0,0,0,0,0.18747,-0.036582,16512,-0.0306483,0.00289608,0.1693,-0.0348805,15925,0.282502,-0.056237,-0.0129166,0.00182837
15974,-3.3422e-12,2.72794e-38,-1.59463e-06,-3.40794e-12,2.7277e-38,0,-1.13758e-13,0,0,-3.65785,0.263736,0.493714,-0.546674,0.258016,0.017979,-0.0016837,0,-0.61125,0.263736,231,-65,231,-65,355,-58,226,59,-0.0127425,-0.0872664,0,-1.5,nan,0,0,0,-0.571909,0.263553,0,0,0,0,0.136862,-0.00870628,16512,-0.0277317,0.00568441,0.118883,-0.00702258,15962,0.285955,-0.0410557,-0.0131776,0.000435114
15991,-3.3422e-12,2.72794e-38,-1.59463e-06,-3.40794e-12,2.7277e-38,0,-1.13758e-13,0,0,-3.65785,0.263736,0.493714,-0.546388,0.257989,0.0178356,-0.00167027,0,-0.61125,0.263736,231,-65,231,-65,355,-58,226,59,-0.0127363,-0.0872664,0,-1.5,nan,0,0,0,-0.569721,0.263414,0,0,0,0,0.136719,-0.00869285,16512,-0.0277317,0.00568441,0.118883,-0.00702258,15962,0.284861,-0.041011,-0.0131707,0.000434369
16016,-3.3422e-12,2.72794e-38,-1.59463e-06,-3.40794e-12,2.7277e-38,0,-1.13759e-13,0,0,-3.68715,0.265903,0.510676,-0.545946,0.257948,0.0176133,-0.00164945,0,-0.651392,0.265903,233,-65,233,-65,355,-58,226,59,-0.0130013,-0.0872664,0,-1.5,nan,0,0,0,-0.614427,0.264318,0,0,0,0,-0.0514751,-0.00429091,16512,-0.0667536,0.0064366,-0.0690884,-0.00264146,16004,0.307214,0.0154406,-0.0132159,0.000214577
16036,-3.3422e-12,2.72794e-38,-1.59463e-06,-3.40794e-12,2.7277e-38,0,-1.13763e-13,0,0,-3.67163,0.260264,0.501766,-0.545579,0.257913,0.0174291,-0.0016322,0,-0.630139,0.260264,233,-65,233,-65,355,-58,226,59,-0.0127494,-0.0872664,0,-1.5,nan,0,0,0,-0.632519,0.263258,0,0,0,0,-0.267406,-0.00825531,16512,-0.0849464,0.00539066,-0.284835,-0.00662311,16031,0.31626,0.0802249,-0.0131629,0.000413507
16053,-3.3422e-12,2.72794e-38,-1.59463e-06,-3.40794e-12,2.7277e-38,0,-1.13759e-13,0,0,-3.67163,0.260264,0.501766,-0.545284,0.257886,0.0172814,-0.00161837,0,-0.630139,0.260264,233,-65,233,-65,355,-58,226,59,-0.0127439,-0.0872664,0,-1.5,nan,0,0,0,-0.637066,0.263117,0,0,0,0,-0.267554,-0.00824147,16512,-0.0849464,0.00539066,-0.284835,-0.00662311,16031,0.318533,0.0802606,-0.0131559,0.000412017
16074,-3.3422e-12,2.72794e-38,-1.59463e-06,-3.40794e-12,2.7277e-38,0,-1.13765e-13,0,0,-3.68715,0.265903,0.510676,-0.544924,0.257852,0.0171006,-0.00160144,0,-0.651392,0.265903,233,-65,233,-65,355,-58,226,59,-0.0129764,-0.0872664,0,-1.5,nan,0,0,0,-0.649992,0.26382,0,0,0,0,-0.30707,-0.00430384,16512,-0.101179,0.00600043,-0.324171,-0.0027024,16064,0.324996,0.092116,-0.013191,0.000214577
16095,-3.3422e-12,2.72794e-38,-1.59463e-06,-3.40794e-12,2.7277e-38,0,-1.13764e-13,0,0,-3.68715,0.265903,0.510676,-0.544567,0.257819,0.0169216,-0.00158468,0,-0.651392,0.265903,233,-65,233,-65,355,-58,226,59,-0.0129727,-0.0872664,0,-1.5,nan,0,0,0,-0.656443,0.26373,0,0,0,0,-0.307249,-0.00428708,16512,-0.101179,0.00600043,-0.324171,-0.0027024,16064,0.328221,0.0921607,-0.0131865,0.000213832
16117,-3.3422e-12,2.72794e-38,-1.59463e-06,-3.40794e-12,2.7277e-38,0,-1.1376e-13,0,0,-3.62413,0.260684,0.47129,-0.544198,0.257784,0.0167361,-0.0015673,0,-0.565059,0.260684,231,-67,231,-67,355,-58,226,59,-0.0125063,-0.0872664,0,-1.5,nan,0,0,0,-0.636807,0.261689,0,0,0,0,-0.149405,-0.0115588,17157,-0.088954,0.00412503,-0.166141,-0.00999146,16104,0.318403,0.0448287,-0.0130845,0.000578165
16134,-3.3422e-12,2.72794e-38,-1.59463e-06,-3.40794e-12,2.7277e-38,0,-1.13761e-13,0,0,-3.61646,0.259859,0.482097,-0.543915,0.257757,0.0165943,-0.00155403,0,-0.554549,0.259859,231,-71,231,-71,355,-58,226,59,-0.0122379,-0.0872664,0,-1.5,nan,0,0,0,-0.619702,0.260284,0,0,0,0,-0.0519649,-0.015532,17286,-0.0753071,0.00262445,-0.0685592,-0.013978,16129,0.309851,0.0155926,-0.0130142,0.00077635
16151,-3.3422e-12,2.72794e-38,-1.59463e-06,-3.40794e-12,2.7277e-38,0,-1.1376e-13,0,0,-3.61646,0.259859,0.482097,-0.543634,0.257731,0.0164537,-0.00154086,0,-0.554549,0.259859,231,-71,231,-71,355,-58,226,59,-0.0122254,-0.0872664,0,-1.5,nan,0,0,0,-0.620587,0.26002,0,0,0,0,-0.0521055,-0.0155188,17286,-0.0753071,0.00262445,-0.0685592,-0.013978,16129,0.310293,0.0156373,-0.013001,0.000775605
16205,-3.3422e-12,2.72794e-38,-1.59463e-06,-3.40794e-12,2.7277e-38,0,-1.13762e-13,0,0,-3.65075,0.265443,0.489573,-0.542765,0.25765,0.0160117,-0.00149946,0,-0.601533,0.265443,230,-65,230,-65,355,-58,226,59,-0.0133947,-0.0872664,0,-1.5,nan,0,0,0,-0.610307,0.265376,0,0,0,0,-0.0243803,0.00251837,16512,-0.0670574,0.00767779,-0.040392,0.00401784,16195,0.305154,0.00731349,-0.0132688,-0.000125915
16227,-3.3422e-12,2.72794e-38,-1.59463e-06,-3.40794e-12,2.7277e-38,0,-1.13763e-13,0,0,-3.65075,0.265443,0.489573,-0.542416,0.257617,0.0158361,-0.00148302,0,-0.601533,0.265443,230,-65,230,-65,355,-58,226,59,-0.0133982,-0.0872664,0,-1.5,nan,0,0,0,-0.610846,0.265431,0,0,0,0,-0.0245559,0.00253481,16512,-0.0670574,0.00767779,-0.040392,0.00401784,16195,0.305423,0.00737607,-0.0132716,-0.00012666
16260,-3.3422e-12,2.72794e-38,-1.59463e-06,-3.40794e-12,2.7277e-38,0,-1.13762e-13,0,0,-3.65785,0.263736,0.493714,-0.5419,0.257569,0.0155757,-0.00145863,0,-0.61125,0.263736,231,-65,231,-65,355,-58,226,59,-0.0131073,-0.0872664,0,-1.5,nan,0,0,0,-0.612486,0.263697,0,0,0,0,-0.0236591,-0.00154619,16512,-0.0692914,0.00613076,-0.0392348,-8.75562e-05,16248,0.306243,0.00710785,-0.0131848,7.7486e-05
16282,-3.3422e-12,2.72794e-38,-1.59463e-06,-3.40794e-12,2.7277e-38,0,-1.1377e-13,0,0,-3.65075,0.265443,0.489573,-0.54156,0.257537,0.015405,-0.00144264,0,-0.601533,0.265443,230,-65,230,-65,355,-58,226,59,-0.0132999,-0.0872664,0,-1.5,nan,0,0,0,-0.612083,0.265179,0,0,0,0,-0.0230162,0.000816407,16512,-0.0696781,0.00759235,-0.0384211,0.00225905,16269,0.306042,0.00690222,-0.0132589,-4.09782e-05
16303,-3.3422e-12,2.72794e-38,-1.59463e-06,-3.40794e-12,2.7277e-38,0,-1.13771e-13,0,0,-3.65075,0.265443,0.489573,-0.541238,0.257507,0.0152438,-0.00142755,0,-0.601533,0.265443,230,-65,230,-65,355,-58,226,59,-0.0133798,-0.0872664,0,-1.5,nan,0,0,0,-0.602437,0.26557,0,0,0,0,-0.00827898,0.00203393,16512,-0.0610104,0.00803576,-0.0235228,0.00346148,16297,0.301219,0.00248551,-0.0132785,-0.000101328
16324,-3.3422e-12,2.72794e-38,-1.59463e-06,-3.40794e-12,2.7277e-38,0,-1.13765e-13,0,0,-3.65075,0.265443,0.489573,-0.540921,0.257477,0.0150842,-0.00141261,0,-0.601533,0.265443,230,-65,230,-65,355,-58,226,59,-0.013382,-0.0872664,0,-1.5,nan,0,0,0,-0.602613,0.265613,0,0,0,0,-0.00843855,0.00204887,16512,-0.0610104,0.00803576,-0.0235228,0.00346148,16297,0.301307,0.00253022,-0.0132807,-0.000101328
16346,-3.3422e-12,2.72794e-38,-1.59463e-06,-3.40794e-12,2.7277e-38,0,-1.13772e-13,0,0,-3.61646,0.259859,0.482097,-0.540591,0.257446,0.0149189,-0.00139712,0,-0.554549,0.259859,231,-71,231,-71,355,-58,226,59,-0.0134029,-0.0872664,0,-1.5,nan,0,0,0,-0.601509,0.265584,0,0,0,0,0.00158655,0.0016568,17286,-0.0606238,0.00807095,-0.0133323,0.00305392,16333,0.300754,-0.000706315,-0.0132792,-0.00012368
16368,-3.3422e-12,2.72794e-38,-1.59463e-06,-3.40794e-12,2.7277e-38,0,-1.1377e-13,0,0,-3.61646,0.259859,0.482097,-0.54028,0.257417,0.0147628,-0.00138251,0,-0.554549,0.259859,231,-71,231,-71,355,-58,226,59,0.00965735,-0.0872664,0,-1.5,nan,0,0,0,-0.600924,0.262873,0,0,0,0,0.00573105,-0.0040883,17286,-0.0605897,0.00547233,-0.00903175,-0.0027058,16363,0.300462,-0.0280857,-0.0131437,0.022801
16383,-3.3422e-12,2.72794e-38,-1.59463e-06,-3.40794e-12,2.7277e-38,0,-1.13771e-13,0,0,-3.61646,0.259859,0.482097,-0.540045,0.257395,0.014645,-0.00137148,0,-0.554549,0.259859,231,-71,231,-71,355,-58,226,59,-0.012937,-0.0872664,0,-1.5,nan,0,0,0,-0.600834,0.262808,0,0,0,0,0.00561329,-0.00407728,17286,-0.0605897,0.00547233,-0.00903175,-0.0027058,16363,0.300417,-0.00167191,-0.0131404,0.000203401
16405,-3.3422e-12,2.72794e-38,-1.59463e-06,-3.40794e-12,2.7277e-38,0,-1.13775e-13,0,0,-3.61646,0.259859,0.482097,-0.539725,0.257365,0.0144846,-0.00135645,0,-0.554549,0.259859,231,-71,231,-71,355,-58,226,59,-0.0126535,-0.0872664,0,-1.5,nan,0,0,0,-0.600385,0.260505,0,0,0,0,-0.00272949,-0.00744976,17286,-0.0604878,0.00320121,-0.017214,-0.00609331,16397,0.300193,0.000822544,-0.0130253,0.000371784
16422,-3.3422e-12,2.72794e-38,-1.59463e-06,-3.40794e-12,2.7277e-38,0,-1.13773e-13,0,0,-3.61646,0.259859,0.482097,-0.539481,0.257342,0.0143618,-0.00134495,0,-0.554549,0.259859,231,-71,231,-71,355,-58,226,59,-0.0126472,-0.0872664,0,-1.5,nan,0,0,0,-0.600433,0.260379,0,0,0,0,-0.00285226,-0.00743826,17286,-0.0604878,0.00320121,-0.017214,-0.00609331,16397,0.300217,0.000849366,-0.0130189,0.000371784
16444,-3.3422e-12,2.72794e-38,-1.59463e-06,-3.40794e-12,2.7277e-38,0,-1.13767e-13,0,0,-3.63074,0.263663,0.470935,-0.539167,0.257313,0.0142043,-0.0013302,0,-0.574108,0.263663,230,-65,230,-65,355,-58,226,59,-0.0129524,-0.0872664,0,-1.5,nan,0,0,0,-0.572634,0.262714,0,0,0,0,0.0730258,-0.00367828,16899,-0.0347612,0.00545326,0.0588215,-0.00234808,16431,0.286317,-0.0219047,-0.0131357,0.000183284
16466,-3.3422e-12,2.72794e-38,-1.59463e-06,-3.40794e-12,2.7277e-38,0,-1.13767e-13,0,0,-3.61646,0.259859,0.482097,-0.538857,0.257284,0.0140486,-0.00131563,0,-0.554549,0.259859,231,-71,231,-71,355,-58,226,59,0.0057229,-0.0872664,0,-1.5,nan,0,0,0,-0.570703,0.260038,0,0,0,0,0.0692366,-0.00756335,17286,-0.0322323,0.00279784,0.0551879,-0.00624772,16462,0.285351,-0.0358777,-0.0130019,0.0187248
16487,-3.3422e-12,2.72794e-38,-1.59463e-06,-3.40794e-12,2.7277e-38,0,-1.13766e-13,0,0,-3.61646,0.259859,0.482097,-0.538564,0.257256,0.0139016,-0.00130186,0,-0.554549,0.259859,231,-71,231,-71,355,-58,226,59,-0.0126162,-0.0872664,0,-1.5,nan,0,0,0,-0.569251,0.259879,0,0,0,0,0.0690895,-0.00754958,17286,-0.0322323,0.00279784,0.0551879,-0.00624772,16462,0.284626,-0.0207156,-0.012994,0.000377744
16529,-3.3422e-12,2.72794e-38,-1.59463e-06,-3.40794e-12,2.7277e-38,0,-1.13775e-13,0,0,-3.65075,0.265443,0.489573,-0.53799,0.257203,0.0136107,-0.00127461,0,-0.601533,0.265443,230,-65,230,-65,355,-58,226,59,-0.0130002,-0.0872664,0,-1.5,nan,0,0,0,-0.567264,0.262836,0,0,0,0,0.0704468,-0.00282301,16512,-0.0316613,0.0056981,0.0568361,-0.0015484,16516,0.283632,-0.0211358,-0.0131418,0.000141561
16552,-3.3422e-12,2.72794e-38,-1.59463e-06,-3.40794e-12,2.7277e-38,0,-1.13776e-13,0,0,-3.60392,0.25922,0.470164,-0.537693,0.257175,0.0134614,-0.00126064,0,-0.537371,0.25922,231,-71,231,-71,355,-58,226,61,-0.0126277,-0.0872664,0,-1.5,nan,0,0,0,-0.564678,0.259677,0,0,0,0,0.0725189,-0.00712012,17286,-0.0282841,0.00263104,0.0590575,-0.00585949,16538,0.282339,-0.0217527,-0.0129838,0.000356138
16689,-3.3422e-12,2.72794e-38,-1.59463e-06,-3.40794e-12,2.7277e-38,0,-1.13773e-13,0,0,-3.65112,0.258486,0.482796,-0.535961,0.257013,0.0125461,-0.00117491,0,-0.60203,0.258486,233,-65,233,-65,355,-58,226,59,-0.0124904,-0.0872664,0,-1.5,nan,0,0,0,-0.559953,0.258049,0,0,0,0,0.0668464,-0.00824303,16899,-0.0308875,0.00193374,0.0543003,-0.00706812,16563,0.279976,-0.020054,-0.0129024,0.000412017
16712,-3.3422e-12,2.72794e-38,-1.59463e-06,-3.40794e-12,2.7277e-38,0,-1.13768e-13,0,0,-3.67163,0.260264,0.501766,-0.535663,0.256985,0.012396,-0.00116086,0,-0.630139,0.260264,233,-65,233,-65,355,-58,226,59,-0.0125574,-0.0872664,0,-1.5,nan,0,0,0,-0.602033,0.258361,0,0,0,0,-0.00168831,-0.00721772,16512,-0.066032,0.0015218,-0.0140843,-0.00605686,16699,0.301016,0.00050962,-0.0129181,0.000360608
16736,-3.3422e-12,2.72794e-38,-1.59463e-06,-3.40794e-12,2.7277e-38,0,-1.13776e-13,0,0,-3.63774,0.261878,0.48387,-0.535368,0.256957,0.0122477,-0.00114697,0,-0.583702,0.261878,231,-67,231,-67,355,-58,226,59,-0.0127227,-0.0872664,0,-1.5,nan,0,0,0,-0.584123,0.259878,0,0,0,0,0.0278269,-0.00542304,16899,-0.0491294,0.00302399,0.0155792,-0.00427607,16723,0.292062,-0.00835061,-0.0129939,0.000271201
16756,-3.3422e-12,2.72794e-38,-1.59463e-06,-3.40794e-12,2.7277e-38,0,-1.13777e-13,0,0,-3.65964,0.268069,0.498859,-0.535137,0.256935,0.0121318,-0.00113611,0,-0.61371,0.268069,231,-67,231,-67,355,-58,226,59,-0.0128439,-0.0872664,0,-1.5,nan,0,0,0,-0.601624,0.261036,0,0,0,0,-0.00203924,-0.00414777,16770,-0.0663312,0.00413351,-0.014171,-0.00301166,16746,0.300812,0.000607967,-0.0130518,0.000207871
16778,-3.3422e-12,2.72794e-38,-1.59463e-06,-3.40794e-12,2.7277e-38,0,-1.13777e-13,0,0,-3.66462,0.259737,0.486397,-0.53486,0.256909,0.0119928,-0.0011231,0,-0.620533,0.259737,233,-63,233,-63,355,-58,226,59,-0.0127459,-0.0872664,0,-1.5,nan,0,0,0,-0.602101,0.259924,0,0,0,0,-0.0055777,-0.0050162,16641,-0.0670479,0.0030576,-0.0175705,-0.00389309,16769,0.30105,0.00168085,-0.0129962,0.00025034
16795,-3.3422e-12,2.72794e-38,-1.59463e-06,-3.40794e-12,2.7277e-38,0,-1.13774e-13,0,0,-3.66462,0.259737,0.486397,-0.534657,0.25689,0.0118912,-0.00111358,0,-0.620533,0.259737,233,-63,233,-63,355,-58,226,59,-0.0127409,-0.0872664,0,-1.5,nan,0,0,0,-0.602197,0.259839,0,0,0,0,-0.00567935,-0.00500668,16641,-0.0670479,0.0030576,-0.0175705,-0.00389309,16769,0.301098,0.00170767,-0.0129919,0.000251085
16822,-3.3422e-12,2.72794e-38,-1.59463e-06,-3.40794e-12,2.7277e-38,0,-1.13778e-13,0,0,-3.65785,0.263736,0.493714,-0.534339,0.256861,0.0117312,-0.0010986,0,-0.61125,0.263736,231,-65,231,-65,355,-58,226,59,-0.0129125,-0.0872664,0,-1.5,nan,0,0,0,-0.602006,0.261527,0,0,0,0,-0.00352911,-0.00327261,16512,-0.0672549,0.00472543,-0.0152603,-0.00217401,16808,0.301003,0.001055,-0.0130764,0.000163913
16845,-3.3422e-12,2.72794e-38,-1.59463e-06,-3.40794e-12,2.7277e-38,0,-1.13768e-13,0,0,-3.62413,0.260684,0.47129,-0.534071,0.256836,0.0115968,-0.00108601,0,-0.565059,0.260684,231,-67,231,-67,355,-58,226,59,-0.0128284,-0.0872664,0,-1.5,nan,0,0,0,-0.602668,0.260666,0,0,0,0,-0.00498552,-0.00409361,17157,-0.0682152,0.00389984,-0.0165823,-0.0030076,16831,0.301334,0.00150204,-0.0130333,0.000204891
16868,-3.3422e-12,2.72794e-38,-1.59463e-06,-3.40794e-12,2.7277e-38,0,-1.13778e-13,0,0,-3.62413,0.260684,0.47129,-0.533807,0.256811,0.0114639,-0.00107357,0,-0.565059,0.260684,231,-67,231,-67,355,-58,226,59,-0.0130945,-0.0576173,0,-1.5,nan,0,0,0,-0.596329,0.260615,0,0,0,0,0.00664528,-0.00327523,17157,-0.0624839,0.00382193,-0.00481865,-0.00220166,16862,0.298165,-0.240547,-0.0130308,-6.37025e-05
16885,-3.3422e-12,2.72794e-38,-1.59463e-06,-3.40794e-12,2.7277e-38,0,-1.13769e-13,0,0,-3.62413,0.260684,0.47129,-0.533613,0.256793,0.0113668,-0.00106448,0,-0.565059,0.260684,231,-67,231,-67,355,-58,226,59,-0.0128646,-0.0872664,0,-1.5,nan,0,0,0,-0.596217,0.260559,0,0,0,0,0.00654813,-0.00326613,17157,-0.0624839,0.00382193,-0.00481865,-0.00220166,16862,0.298109,-0.00196695,-0.013028,0.000163416
16943,-3.3422e-12,2.72794e-38,-1.59463e-06,-3.40794e-12,2.7277e-38,0,-1.13779e-13,0,0,-3.68512,0.261516,0.505352,-0.53297,0.256732,0.0110385,-0.00103373,0,-0.648609,0.261516,233,-63,233,-63,355,-58,226,59,-0.0128697,-0.0872664,0,-1.5,nan,0,0,0,-0.611963,0.260433,0,0,0,0,-0.0247408,-0.00304375,16254,-0.0769176,0.00381724,-0.0357793,-0.00201002,16929,0.305981,0.00742972,-0.0130217,0.000151992
16961,-3.3422e-12,2.72794e-38,-1.59463e-06,-3.40794e-12,2.7277e-38,0,-1.1378e-13,0,0,-3.68512,0.261516,0.505352,-0.532783,0.256715,0.0109449,-0.00102497,0,-0.648609,0.261516,233,-63,233,-63,355,-58,226,59,-0.0128671,-0.0872664,0,-1.5,nan,0,0,0,-0.612384,0.260381,0,0,0,0,-0.0248344,-0.00303499,16254,-0.0769176,0.00381724,-0.0357793,-0.00201002,16929,0.306192,0.00745654,-0.0130191,0.000151992
17008,-3.3422e-12,2.72794e-38,-1.59463e-06,-3.40794e-12,2.7277e-38,0,-1.1378e-13,0,0,-3.62413,0.260684,0.47129,-0.532268,0.256667,0.0106837,-0.00100051,0,-0.565059,0.260684,231,-67,231,-67,355,-58,226,59,-0.0128068,-0.0872664,0,-1.5,nan,0,0,0,-0.572311,0.260085,0,0,0,0,0.0346425,-0.0039493,17157,-0.0403783,0.00345992,0.0239588,-0.0029488,16996,0.286155,-0.0103801,-0.0130043,0.00019744
17023,-3.3422e-12,2.72794e-38,-1.59463e-06,-3.40794e-12,2.7277e-38,0,-1.13781e-13,0,0,-3.62413,0.260684,0.47129,-0.532119,0.256653,0.0106091,-0.000993521,0,-0.565059,0.260684,231,-67,231,-67,355,-58,226,59,-0.0128041,-0.0872664,0,-1.5,nan,0,0,0,-0.571826,0.26003,0,0,0,0,0.0345679,-0.00394232,17157,-0.0403783,0.00345992,0.0239588,-0.0029488,16996,0.285913,-0.0103623,-0.0130015,0.00019744
17069,-3.3422e-12,2.72794e-38,-1.59463e-06,-3.40794e-12,2.7277e-38,0,-1.13781e-13,0,0,-3.65785,0.263736,0.493714,-0.531629,0.256607,0.0103612,-0.000970303,0,-0.61125,0.263736,231,-65,231,-65,355,-58,226,59,-0.013913,-0.0872664,0,-1.5,nan,0,0,0,-0.603488,0.260389,0,0,0,0,-0.00489993,-0.00383629,16512,-0.0717365,0.00380507,-0.0152611,-0.00286599,17064,0.301744,0,-0.0130195,-0.000893511
17090,-3.3422e-12,2.72794e-38,-1.59463e-06,-3.40794e-12,2.7277e-38,0,-1.13782e-13,0,0,-3.65785,0.263736,0.493714,-0.531413,0.256587,0.0102527,-0.000960148,0,-0.61125,0.263736,231,-65,231,-65,355,-58,226,59,-0.0128247,-0.0872664,0,-1.5,nan,0,0,0,-0.603592,0.260309,0,0,0,0,-0.00500836,-0.00382613,16512,-0.0717365,0.00380507,-0.0152611,-0.00286599,17064,0.301796,0.00150204,-0.0130154,0.000190735
17112,-3.3422e-12,2.72794e-38,-1.59463e-06,-3.40794e-12,2.7277e-38,0,-1.13782e-13,0,0,-3.68512,0.261516,0.505352,-0.531189,0.256566,0.0101403,-0.000949619,0,-0.648609,0.261516,233,-63,233,-63,355,-58,226,59,-0.0131052,-0.0872664,0,-1.5,nan,0,0,0,-0.610832,0.261226,0,0,0,0,-0.0131323,0.000873494,16254,-0.0791308,0.00461996,-0.0232726,0.00182311,17098,0.305416,0.00394285,-0.0130613,-4.39584e-05
17154,-3.3422e-12,2.72794e-38,-1.59463e-06,-3.40794e-12,2.7277e-38,0,-1.13783e-13,0,0,-3.62413,0.260684,0.47129,-0.530771,0.256526,0.00992811,-0.000929747,0,-0.565059,0.260684,231,-67,231,-67,355,-58,226,59,-0.0128804,-0.0872664,0,-1.5,nan,0,0,0,-0.609025,0.260558,0,0,0,0,-0.0132585,-0.00294973,17157,-0.0772802,0.00411633,-0.0231866,-0.00201998,17140,0.304513,0.00397861,-0.0130279,0.000147521
17177,-3.3422e-12,2.72794e-38,-1.59463e-06,-3.40794e-12,2.7277e-38,0,-1.13783e-13,0,0,-3.65075,0.265443,0.489573,-0.530554,0.256506,0.00981923,-0.000919551,0,-0.601533,0.265443,230,-65,230,-65,355,-58,226,59,-0.0130774,-0.0872664,0,-1.5,nan,0,0,0,-0.602327,0.261131,0,0,0,0,-0.00935701,0.000415879,16512,-0.0713509,0.0045958,-0.0191762,0.00133543,17163,0.301164,0.00281632,-0.0130566,-2.08616e-05
17203,-3.3422e-12,2.72794e-38,-1.59463e-06,-3.40794e-12,2.7277e-38,0,-1.13784e-13,0,0,-3.61646,0.259859,0.482097,-0.530291,0.256482,0.00968728,-0.000907194,0,-0.554549,0.259859,231,-71,231,-71,355,-58,226,59,-0.0128463,-0.0872664,0,-1.5,nan,0,0,0,-0.599769,0.260233,0,0,0,0,-0.000960547,-0.00330822,17286,-0.069382,0.00377337,-0.0106478,-0.00240103,17196,0.299885,0.000286102,-0.0130117,0.000165403
17220,-3.3422e-12,2.72794e-38,-1.59463e-06,-3.40794e-12,2.7277e-38,0,-1.13784e-13,0,0,-3.61646,0.259859,0.482097,-0.530128,0.256466,0.00960517,-0.000899505,0,-0.554549,0.259859,231,-71,231,-71,355,-58,226,59,-0.0128442,-0.0872664,0,-1.5,nan,0,0,0,-0.599787,0.260177,0,0,0,0,-0.00104266,-0.00330053,17286,-0.069382,0.00377337,-0.0106478,-0.00240103,17196,0.299893,0.000312924,-0.0130089,0.000164658
17243,-3.3422e-12,2.72794e-38,-1.59463e-06,-3.40794e-12,2.7277e-38,0,-1.13785e-13,0,0,-3.68715,0.265903,0.510676,-0.529909,0.256446,0.00949509,-0.000889195,0,-0.651392,0.265903,233,-65,233,-65,355,-58,226,59,-0.012867,-0.0872664,0,-1.5,nan,0,0,0,-0.601812,0.260291,0,0,0,0,-0.00280034,-0.00294578,16512,-0.0716201,0.00389242,-0.0122954,-0.00205658,17229,0.300906,0.000831485,-0.0130145,0.000147521
17260,-3.3422e-12,2.72794e-38,-1.59463e-06,-3.40794e-12,2.7277e-38,0,-1.13786e-13,0,0,-3.68715,0.265903,0.510676,-0.529748,0.256431,0.00941462,-0.00088166,0,-0.651392,0.265903,233,-65,233,-65,355,-58,226,59,-0.0127915,-0.0872664,0,-1.5,nan,0,0,0,-0.60186,0.260241,0,0,0,0,-0.00288081,-0.00293824,16512,-0.0716201,0.00389242,-0.0122954,-0.00205658,17229,0.30093,0.0012964,-0.013012,0.000220537
17287,-3.3422e-12,2.72794e-38,-1.59463e-06,-3.40794e-12,2.7277e-38,0,-1.13786e-13,0,0,-3.64434,0.262462,0.490051,-0.529506,0.256408,0.00929262,-0.000870235,0,-0.59274,0.262462,231,-67,231,-67,355,-58,226,59,-0.0130489,-0.0872664,0,-1.5,nan,0,0,0,-0.598885,0.26138,0,0,0,0,-0.00136363,-0.000399747,16770,-0.0691024,0.00495977,-0.0106563,0.000470488,17272,0.299443,0.000402331,-0.013069,2.01166e-05
17306,-3.3422e-12,2.72794e-38,-1.59463e-06,-3.40794e-12,2.7277e-38,0,-1.13787e-13,0,0,-3.64434,0.262462,0.490051,-0.529321,0.256391,0.00920003,-0.000861564,0,-0.59274,0.262462,231,-67,231,-67,355,-58,226,59,-0.0132595,-0.0872664,0,-1.5,nan,0,0,0,-0.594128,0.262582,0,0,0,0,0.00427238,0.00261513,16770,-0.0647381,0.00614287,-0.00492766,0.00347669,17294,0.297064,-0.00128746,-0.0131291,-0.000130385
17323,-3.3422e-12,2.72794e-38,-1.59463e-06,-3.40794e-12,2.7277e-38,0,-1.13787e-13,0,0,-3.64434,0.262462,0.490051,-0.529166,0.256376,0.00912205,-0.000854262,0,-0.59274,0.262462,231,-67,231,-67,355,-58,226,59,-0.0132625,-0.0872664,0,-1.5,nan,0,0,0,-0.594056,0.262627,0,0,0,0,0.0041944,0.00262243,16770,-0.0647381,0.00614287,-0.00492766,0.00347669,17294,0.297028,-0.0012517,-0.0131313,-0.00013113
17346,-3.3422e-12,2.72794e-38,-1.59463e-06,-3.40794e-12,2.7277e-38,0,-1.13788e-13,0,0,-3.61646,0.259859,0.482097,-0.528957,0.256357,0.00901748,-0.000844468,0,-0.554549,0.259859,231,-71,231,-71,355,-58,226,59,-0.0132173,-0.0872664,0,-1.5,nan,0,0,0,-0.595979,0.262007,0,0,0,0,-0.0211612,0.00235021,17286,-0.0663275,0.00557709,-0.0301787,0.00319468,17332,0.29799,0.00633895,-0.0131004,-0.000116974
17369,-3.3422e-12,2.72794e-38,-1.59463e-06,-3.40794e-12,2.7277e-38,0,-1.13788e-13,0,0,-3.65785,0.263736,0.493714,-0.528752,0.256337,0.0089142,-0.000834796,0,-0.61125,0.263736,231,-65,231,-65,355,-58,226,59,-0.0171933,-0.0872664,0,-1.5,nan,0,0,0,-0.611362,0.262692,0,0,0,0,-0.0424969,0.0031725,16512,-0.0821987,0.00632246,-0.0514111,0.0040073,17363,0.305681,0,-0.0131346,-0.0040587
17390,-3.3422e-12,2.72794e-38,-1.59463e-06,-3.40794e-12,2.7277e-38,0,-1.13789e-13,0,0,-3.65785,0.263736,0.493714,-0.528566,0.25632,0.00882088,-0.000826057,0,-0.61125,0.263736,231,-65,231,-65,355,-58,226,59,-0.0132974,-0.0872664,0,-1.5,nan,0,0,0,-0.612255,0.262759,0,0,0,0,-0.0425903,0.00318124,16512,-0.0821987,0.00632246,-0.0514111,0.0040073,17363,0.306128,0.0127763,-0.0131379,-0.000159442
17413,-3.3422e-12,2.72794e-38,-1.59463e-06,-3.40794e-12,2.7277e-38,0,-1.13789e-13,0,0,-3.63053,0.26117,0.486176,-0.528365,0.256301,0.00871976,-0.000816587,0,-0.573833,0.26117,231,-69,231,-69,355,-58,226,59,-0.0132686,-0.0872664,0,-1.5,nan,0,0,0,-0.59719,0.262555,0,0,0,0,-0.0259034,0.00282069,17028,-0.0680291,0.00617046,-0.0346232,0.00363728,17399,0.298595,0.00776947,-0.0131278,-0.000140816
17457,-3.3422e-12,2.72794e-38,-1.59463e-06,-3.40794e-12,2.7277e-38,0,-1.1379e-13,0,0,-3.66631,0.271084,0.498507,-0.527988,0.256266,0.0085286,-0.000798686,0,-0.622843,0.271084,230,-65,230,-65,355,-58,226,59,-0.0133008,-0.0872664,0,-1.5,nan,0,0,0,-0.614063,0.262901,0,0,0,0,-0.0411133,0.00312807,16512,-0.0838903,0.00646235,-0.0496419,0.00392676,17443,0.307031,0.0123292,-0.013145,-0.000155717
17480,-3.3422e-12,2.72794e-38,-1.59463e-06,-3.40794e-12,2.7277e-38,0,-1.1379e-13,0,0,-3.65075,0.265443,0.489573,-0.527794,0.256247,0.00843085,-0.000789532,0,-0.601533,0.265443,230,-65,230,-65,355,-58,226,59,-0.0133494,-0.0872664,0,-1.5,nan,0,0,0,-0.60351,0.263353,0,0,0,0,-0.0278095,0.00363594,16512,-0.0748831,0.00700376,-0.0362403,0.00442548,17466,0.301755,0.00834167,-0.0131677,-0.000181794
17507,-3.3422e-12,2.72794e-38,-1.59463e-06,-3.40794e-12,2.7277e-38,0,-1.13791e-13,0,0,-3.62413,0.260684,0.47129,-0.527568,0.256226,0.00831755,-0.000778921,0,-0.565059,0.260684,231,-67,231,-67,355,-58,226,59,-0.0133331,-0.0872664,0,-1.5,nan,0,0,0,-0.591195,0.263175,0,0,0,0,0.00763249,0.00348185,17157,-0.0636174,0.00688854,-0.000685059,0.00426077,17495,0.295597,-0.00228882,-0.0131587,-0.000174344
17524,-3.3422e-12,2.72794e-38,-1.59463e-06,-3.40794e-12,2.7277e-38,0,-1.13791e-13,0,0,-3.62413,0.260684,0.47129,-0.527427,0.256213,0.00824705,-0.000772319,0,-0.565059,0.260684,231,-67,231,-67,355,-58,226,59,-0.013336,-0.0872664,0,-1.5,nan,0,0,0,-0.591066,0.263234,0,0,0,0,0.00756199,0.00348845,17157,-0.0636174,0.00688854,-0.000685059,0.00426077,17495,0.295533,-0.00227094,-0.0131617,-0.000174344
17557,-3.3422e-12,2.72794e-38,-1.59463e-06,-3.40794e-12,2.7277e-38,0,-1.13792e-13,0,0,-3.63738,0.264169,0.485983,-0.527159,0.256188,0.00811148,-0.000759623,0,-0.583213,0.264169,230,-67,230,-67,355,-58,226,59,-0.0134092,-0.0872664,0,-1.5,nan,0,0,0,-0.589276,0.263843,0,0,0,0,0.0105577,0.00433488,16770,-0.062198,0.00748716,0.00244623,0.0050945,17542,0.294638,-0.00316501,-0.0131922,-0.00021706
17579,-3.3422e-12,2.72794e-38,-1.59463e-06,-3.40794e-12,2.7277e-38,0,-1.13793e-13,0,0,-3.65785,0.263736,0.493714,-0.526982,0.256172,0.00802253,-0.000751293,0,-0.61125,0.263736,231,-65,231,-65,355,-58,226,59,-0.0133741,-0.0872664,0,-1.5,nan,0,0,0,-0.590974,0.263712,0,0,0,0,0.00851797,0.00375948,16512,-0.0640031,0.00744152,0.000495445,0.00451078,17565,0.295487,-0.00255704,-0.0131856,-0.0001885
17607,-3.3422e-12,2.72794e-38,-1.59463e-06,-3.40794e-12,2.7277e-38,0,-1.13793e-13,0,0,-3.67163,0.260264,0.501766,-0.526759,0.256151,0.00791073,-0.000740824,0,-0.630139,0.260264,233,-65,233,-65,355,-58,226,59,-0.0134367,-0.0872664,0,-1.5,nan,0,0,0,-0.602586,0.2641,0,0,0,0,-0.00530119,0.00464313,16512,-0.0756416,0.00787355,-0.0132119,0.00538395,17595,0.301293,0.00159144,-0.013205,-0.000231713
17660,-3.3422e-12,2.72794e-38,-1.59463e-06,-3.40794e-12,2.7277e-38,0,-1.13794e-13,0,0,-3.65785,0.263736,0.493714,-0.526349,0.256112,0.00770186,-0.000721263,0,-0.61125,0.263736,231,-65,231,-65,355,-58,226,59,-0.0133665,-0.0872664,0,-1.5,nan,0,0,0,-0.600852,0.263783,0,0,0,0,-0.00014087,0.00353973,16512,-0.0740871,0.00744465,-0.00784273,0.00426099,17645,0.300426,5.36442e-05,-0.0131891,-0.000177324
17683,-3.3422e-12,2.72794e-38,-1.59463e-06,-3.40794e-12,2.7277e-38,0,-1.13794e-13,0,0,-3.62413,0.260684,0.47129,-0.526174,0.256096,0.00761356,-0.000712995,0,-0.565059,0.260684,231,-67,231,-67,355,-58,226,59,-0.0133818,-0.0872664,0,-1.5,nan,0,0,0,-0.586554,0.263911,0,0,0,0,0.0255501,0.00372501,17157,-0.0607926,0.0077127,0.0179366,0.00443801,17669,0.293277,-0.00766218,-0.0131955,-0.000186265
